,Interval,Utc,FrontBP,SteerAng,Battery,AccelX,AccelY,AccelZ,Yaw,Pitch,Roll,Gsum,GsumMax,GsumPct,RPM,TPS,InjectorPW,Baro,MAP,Lambda,IAT,EngineTemp,EOP,EOT,WSFR,WSFL,WSRR,WSRL,TCSet,TCSlip,TCComp,TCCut,Analog8,OilTemp,AA_On,ThermLF1,ThermLF2,ThermRR1,ThermRR2,ThermLF3,ThermLF4,ThermLF5,ThermLF6,ThermLF7,ThermLF8,ThermRR3,ThermRR4,ThermRR5,ThermRR6,ThermRR7,ThermRR8,AA_LowDrag,Gear,AA_On1,AA_LowDrag1,Fuel_Mix,AA_Packages,Latitude,Longitude,Speed,Altitude,GPSSats,GPSQual,GPSDOP
0,202704,1745468799664,0.0,112.0,,-0.2,-0.13,1.28,-3.0,0.0,0.0,1.31,1.31,100.0,3042.0,0.0,3.56,,12.59,1.021,68.2,,39.3,5.0,,,,,,,,,,,,0.0,0.0,0.0,0.0,0.0,0.0,0.0,0.0,0.0,0.0,0.0,0.0,0.0,0.0,0.0,0.0,,,,,,0.0,,,,,,,
1,202724,1745468799684,,,,,,,,,,,,,,,,,,,,,,,,,,,,,,,,,,0.0,0.0,0.0,0.0,0.0,0.0,0.0,0.0,0.0,0.0,0.0,0.0,0.0,0.0,0.0,0.0,,,,,,,,,,,,,
2,202744,1745468799704,0.0,125.0,,-0.22,-0.12,1.27,-3.0,0.0,0.0,1.3,1.31,99.0,2952.0,0.0,3.58,,12.63,1.021,66.4,,39.3,5.0,,,,,,,,,,,,0.0,0.0,0.0,0.0,0.0,0.0,0.0,0.0,0.0,0.0,0.0,0.0,0.0,0.0,0.0,0.0,,,,,,0.0,,,,,,,
3,202764,1745468799724,,,,,,,,,,,,,,,,,,,,,,,,,,,,,,,,,,0.0,0.0,0.0,0.0,0.0,0.0,0.0,0.0,0.0,0.0,0.0,0.0,0.0,0.0,0.0,0.0,,,,,,,,,,,,,
4,202784,1745468799744,0.0,125.0,,-0.23,-0.11,1.26,-2.0,0.0,0.0,1.29,1.31,99.0,2979.0,0.0,3.53,,12.64,1.022,66.4,,39.3,5.0,0.0,0.0,0.0,0.0,0.0,0.0,0.0,0.0,2.26,,,0.0,0.0,0.0,0.0,0.0,0.0,0.0,0.0,0.0,0.0,0.0,0.0,0.0,0.0,0.0,0.0,,0.0,,,,0.0,38.9907,-76.939865,0.0,32.3,22.0,2.0,1.1
5,202804,1745468799764,,,,,,,,,,,,,,,,,,,,,,,,,,,,,,,,,,0.0,0.0,0.0,0.0,0.0,0.0,0.0,0.0,0.0,0.0,0.0,0.0,0.0,0.0,0.0,0.0,,,,,,,,,,,,,
6,202824,1745468799784,0.0,115.0,,-0.25,-0.11,1.25,-2.0,0.0,0.0,1.28,1.31,98.0,3024.0,0.0,3.57,,12.64,1.022,66.4,,39.3,5.0,,,,,,,,,,,,0.0,0.0,0.0,0.0,0.0,0.0,0.0,0.0,0.0,0.0,0.0,0.0,0.0,0.0,0.0,0.0,,,,,,0.0,,,,,,,
7,202844,1745468799808,,,,,,,,,,,,,,,,,,,,,,,,,,,,,,,,,,0.0,0.0,0.0,0.0,0.0,0.0,0.0,0.0,0.0,0.0,0.0,0.0,0.0,0.0,0.0,0.0,,,,,,,,,,,,,
8,202864,1745468799828,0.0,112.0,,-0.26,-0.11,1.24,-2.0,0.0,0.0,1.28,1.31,98.0,3024.0,0.0,3.57,,12.64,1.029,66.4,,39.3,5.0,,,,,,,,,,,,0.0,0.0,0.0,0.0,0.0,0.0,0.0,0.0,0.0,0.0,0.0,0.0,0.0,0.0,0.0,0.0,,,,,,0.0,,,,,,,
9,202884,1745468799848,,,,,,,,,,,,,,,,,,,,,,,0.0,0.0,0.0,0.0,0.0,0.0,0.0,0.0,2.27,,,0.0,0.0,0.0,0.0,0.0,0.0,0.0,0.0,0.0,0.0,0.0,0.0,0.0,0.0,0.0,0.0,,0.0,,,,,38.9907,-76.939865,0.04,32.3,22.0,2.0,1.1
10,202904,1745468799868,0.0,105.0,,-0.26,-0.12,1.26,-2.0,0.0,0.0,1.29,1.31,99.0,2924.0,0.0,3.56,,12.65,1.039,66.4,,41.0,5.0,,,,,,,,,,,,0.0,0.0,0.0,0.0,0.0,0.0,0.0,0.0,0.0,0.0,0.0,0.0,0.0,0.0,0.0,0.0,,,,,,0.0,,,,,,,
11,202924,1745468799888,,,,,,,,,,,,,,,,,,,,,,,,,,,,,,,,,,0.0,0.0,0.0,0.0,0.0,0.0,0.0,0.0,0.0,0.0,0.0,0.0,0.0,0.0,0.0,0.0,,,,,,,,,,,,,
12,202944,1745468799908,0.0,112.0,,-0.25,-0.14,1.28,-2.0,0.0,0.0,1.31,1.31,100.0,3005.0,0.0,3.56,,12.64,1.04,66.4,,41.0,5.0,,,,,,,,,,,,0.0,0.0,0.0,0.0,0.0,0.0,0.0,0.0,0.0,0.0,0.0,0.0,0.0,0.0,0.0,0.0,,,,,,0.0,,,,,,,
13,202964,1745468799928,,,,,,,,,,,,,,,,,,,,,,,,,,,,,,,,,,0.0,0.0,0.0,0.0,0.0,0.0,0.0,0.0,0.0,0.0,0.0,0.0,0.0,0.0,0.0,0.0,,,,,,,,,,,,,
14,202984,1745468799948,0.0,115.0,,-0.23,-0.19,1.31,-2.0,0.0,0.0,1.34,1.34,100.0,2890.0,0.0,3.57,,12.72,1.04,66.4,,41.0,5.0,0.0,0.0,0.0,0.0,0.0,0.0,0.0,0.0,2.28,,,0.0,0.0,0.0,0.0,0.0,0.0,0.0,0.0,0.0,0.0,0.0,0.0,0.0,0.0,0.0,0.0,,0.0,,,,0.0,38.9907,-76.939865,0.04,32.3,22.0,2.0,1.1
15,203004,1745468799968,,,,,,,,,,,,,,,,,,,,,,,,,,,,,,,,,,0.0,0.0,0.0,0.0,0.0,0.0,0.0,0.0,0.0,0.0,0.0,0.0,0.0,0.0,0.0,0.0,,,,,,,,,,,,,
16,203024,1745468799988,0.0,119.0,,-0.21,-0.21,1.33,-3.0,0.0,0.0,1.37,1.37,100.0,2938.0,0.0,3.52,,12.72,1.04,66.4,,42.1,5.0,,,,,,,,,,,,0.0,0.0,0.0,0.0,0.0,0.0,0.0,0.0,0.0,0.0,0.0,0.0,0.0,0.0,0.0,0.0,,,,,,0.0,,,,,,,
17,203044,1745468799997,,,,,,,,,,,,,,,,,,,,,,,,,,,,,,,,,,0.0,0.0,0.0,0.0,0.0,0.0,0.0,0.0,0.0,0.0,0.0,0.0,0.0,0.0,0.0,0.0,,,,,,,,,,,,,
18,203064,1745468800017,0.0,125.0,,-0.19,-0.18,1.35,-3.0,0.0,1.0,1.37,1.37,100.0,2938.0,0.0,3.52,,12.71,1.037,66.4,,42.1,5.0,,,,,,,,,,,,0.0,0.0,0.0,0.0,0.0,0.0,0.0,0.0,0.0,0.0,0.0,0.0,0.0,0.0,0.0,0.0,,,,,,0.0,,,,,,,
19,203084,1745468800037,,,,,,,,,,,,,,,,,,,,,,,0.0,0.0,0.0,0.0,0.0,0.0,0.0,0.0,2.28,,,0.0,0.0,0.0,0.0,0.0,0.0,0.0,0.0,0.0,0.0,0.0,0.0,0.0,0.0,0.0,0.0,,0.0,,,,,38.9907,-76.939865,0.08,32.3,22.0,2.0,1.2
20,203104,1745468800057,0.0,119.0,,-0.18,-0.15,1.33,-4.0,0.0,1.0,1.35,1.37,98.0,2971.0,0.0,3.56,,12.75,1.04,66.4,,41.6,5.0,,,,,,,,,,,,0.0,0.0,0.0,0.0,0.0,0.0,0.0,0.0,0.0,0.0,0.0,0.0,0.0,0.0,0.0,0.0,,,,,,0.0,,,,,,,
21,203124,1745468800077,,,,,,,,,,,,,,,,,,,,,,,,,,,,,,,,,,0.0,0.0,0.0,0.0,0.0,0.0,0.0,0.0,0.0,0.0,0.0,0.0,0.0,0.0,0.0,0.0,,,,,,,,,,,,,
22,203144,1745468800107,0.0,125.0,,-0.16,-0.08,1.29,-4.0,0.0,1.0,1.3,1.37,95.0,2942.0,0.0,3.54,,12.75,1.041,66.4,,41.6,5.0,,,,,,,,,,,,0.0,0.0,0.0,0.0,0.0,0.0,0.0,0.0,0.0,0.0,0.0,0.0,0.0,0.0,0.0,0.0,,,,,,0.0,,,,,,,
23,203164,1745468800127,,,,,,,,,,,,,,,,,,,,,,,,,,,,,,,,,,0.0,0.0,0.0,0.0,0.0,0.0,0.0,0.0,0.0,0.0,0.0,0.0,0.0,0.0,0.0,0.0,,,,,,,,,,,,,
24,203184,1745468800147,0.0,119.0,,-0.15,-0.01,1.24,-3.0,0.0,1.0,1.25,1.37,91.0,2994.0,0.0,3.48,,12.73,1.046,66.4,,41.6,5.0,0.0,0.0,0.0,0.0,0.0,0.0,0.0,0.0,2.27,,,0.0,0.0,0.0,0.0,0.0,0.0,0.0,0.0,0.0,0.0,0.0,0.0,0.0,0.0,0.0,0.0,,0.0,,,,0.0,38.9907,-76.939865,0.04,32.3,22.0,2.0,1.2
25,203204,1745468800167,,,,,,,,,,,,,,,,,,,,,,,,,,,,,,,,,,0.0,0.0,0.0,0.0,0.0,0.0,0.0,0.0,0.0,0.0,0.0,0.0,0.0,0.0,0.0,0.0,,,,,,,,,,,,,
26,203224,1745468800187,0.0,115.0,,-0.13,0.04,1.17,-3.0,0.0,1.0,1.18,1.37,86.0,2961.0,0.0,3.51,,12.73,1.046,66.4,,42.1,5.0,,,,,,,,,,,,0.0,0.0,0.0,0.0,0.0,0.0,0.0,0.0,0.0,0.0,0.0,0.0,0.0,0.0,0.0,0.0,,,,,,0.0,,,,,,,
27,203244,1745468800207,,,,,,,,,,,,,,,,,,,,,,,,,,,,,,,,,,0.0,0.0,0.0,0.0,0.0,0.0,0.0,0.0,0.0,0.0,0.0,0.0,0.0,0.0,0.0,0.0,,,,,,,,,,,,,
28,203264,1745468800227,0.0,108.0,,-0.1,0.05,1.1,-2.0,0.0,1.0,1.11,1.37,81.0,2961.0,0.0,3.51,,12.76,1.04,66.4,,42.1,5.0,,,,,,,,,,,,0.0,0.0,0.0,0.0,0.0,0.0,0.0,0.0,0.0,0.0,0.0,0.0,0.0,0.0,0.0,0.0,,,,,,0.0,,,,,,,
29,203284,1745468800247,,,,,,,,,,,,,,,,,,,,,,,0.0,0.0,0.0,0.0,0.0,0.0,0.0,0.0,2.27,,,0.0,0.0,0.0,0.0,0.0,0.0,0.0,0.0,0.0,0.0,0.0,0.0,0.0,0.0,0.0,0.0,,0.0,,,,,38.9907,-76.939865,0.04,32.3,22.0,2.0,1.2
30,203304,1745468800267,0.0,108.0,,-0.09,0.05,1.03,-2.0,0.0,1.0,1.04,1.37,76.0,2877.0,0.0,3.51,,12.75,1.045,66.4,,41.4,5.0,,,,,,,,,,,,0.0,0.0,0.0,0.0,0.0,0.0,0.0,0.0,0.0,0.0,0.0,0.0,0.0,0.0,0.0,0.0,,,,,,0.0,,,,,,,
31,203324,1745468800287,,,,,,,,,,,,,,,,,,,,,,,,,,,,,,,,,,0.0,0.0,0.0,0.0,0.0,0.0,0.0,0.0,0.0,0.0,0.0,0.0,0.0,0.0,0.0,0.0,,,,,,,,,,,,,
32,203344,1745468800308,0.0,115.0,,-0.1,0.07,1.04,-1.0,0.0,0.0,1.05,1.37,76.0,2849.0,0.0,3.51,,12.77,1.046,66.4,,41.4,5.0,,,,,,,,,,,,0.0,0.0,0.0,0.0,0.0,0.0,0.0,0.0,0.0,0.0,0.0,0.0,0.0,0.0,0.0,0.0,,,,,,0.0,,,,,,,
33,203364,1745468800328,,,,,,,,,,,,,,,,,,,,,,,,,,,,,,,,,,0.0,0.0,0.0,0.0,0.0,0.0,0.0,0.0,0.0,0.0,0.0,0.0,0.0,0.0,0.0,0.0,,,,,,,,,,,,,
34,203384,1745468800348,0.0,129.0,13.17,-0.11,0.02,1.1,-1.0,0.0,0.0,1.1,1.37,80.0,2917.0,0.0,3.53,15.0,12.75,1.05,66.4,74.0,41.4,5.0,0.0,0.0,0.0,0.0,0.0,0.0,0.0,0.0,2.27,0.0,1.0,0.0,0.0,0.0,0.0,0.0,0.0,0.0,0.0,0.0,0.0,0.0,0.0,0.0,0.0,0.0,0.0,0.0,0.0,1.0,0.0,0.0,0.0,38.9907,-76.939865,0.0,32.3,22.0,2.0,1.2
35,203404,1745468800368,,,,,,,,,,,,,,,,,,,,,,,,,,,,,,,,,,0.0,0.0,0.0,0.0,0.0,0.0,0.0,0.0,0.0,0.0,0.0,0.0,0.0,0.0,0.0,0.0,,,,,,,,,,,,,
36,203424,1745468800388,0.0,122.0,,-0.1,-0.07,1.15,-2.0,0.0,0.0,1.16,1.37,84.0,2922.0,0.0,3.47,,12.75,1.05,66.4,,41.3,5.0,,,,,,,,,,,,0.0,0.0,0.0,0.0,0.0,0.0,0.0,0.0,0.0,0.0,0.0,0.0,0.0,0.0,0.0,0.0,,,,,,0.0,,,,,,,
37,203444,1745468800409,,,,,,,,,,,,,,,,,,,,,,,,,,,,,,,,,,0.0,0.0,0.0,0.0,0.0,0.0,0.0,0.0,0.0,0.0,0.0,0.0,0.0,0.0,0.0,0.0,,,,,,,,,,,,,
38,203464,1745468800429,0.0,135.0,,-0.09,-0.13,1.2,-2.0,0.0,1.0,1.21,1.37,88.0,2922.0,0.0,3.47,,12.76,1.052,66.4,,41.3,5.0,,,,,,,,,,,,0.0,0.0,0.0,0.0,0.0,0.0,0.0,0.0,0.0,0.0,0.0,0.0,0.0,0.0,0.0,0.0,,,,,,0.0,,,,,,,
39,203484,1745468800449,,,,,,,,,,,,,,,,,,,,,,,0.0,0.0,0.0,0.0,0.0,0.0,0.0,0.0,2.28,,,0.0,0.0,0.0,0.0,0.0,0.0,0.0,0.0,0.0,0.0,0.0,0.0,0.0,0.0,0.0,0.0,,0.0,,,,,38.9907,-76.939865,0.08,32.3,22.0,2.0,1.2
40,203504,1745468800469,0.0,112.0,,-0.08,-0.19,1.24,-3.0,0.0,1.0,1.26,1.37,92.0,2982.0,0.0,3.44,,12.73,1.054,66.4,,42.5,5.0,,,,,,,,,,,,0.0,0.0,0.0,0.0,0.0,0.0,0.0,0.0,0.0,0.0,0.0,0.0,0.0,0.0,0.0,0.0,,,,,,0.0,,,,,,,
41,203524,1745468800489,,,,,,,,,,,,,,,,,,,,,,,,,,,,,,,,,,0.0,0.0,0.0,0.0,0.0,0.0,0.0,0.0,0.0,0.0,0.0,0.0,0.0,0.0,0.0,0.0,,,,,,,,,,,,,
42,203544,1745468800507,0.0,112.0,,-0.07,-0.18,1.27,-4.0,0.0,1.0,1.28,1.37,94.0,2952.0,0.0,3.44,,12.76,1.066,66.4,,42.5,5.0,,,,,,,,,,,,0.0,0.0,0.0,0.0,0.0,0.0,0.0,0.0,0.0,0.0,0.0,0.0,0.0,0.0,0.0,0.0,,,,,,0.0,,,,,,,
43,203564,1745468800527,,,,,,,,,,,,,,,,,,,,,,,,,,,,,,,,,,0.0,0.0,0.0,0.0,0.0,0.0,0.0,0.0,0.0,0.0,0.0,0.0,0.0,0.0,0.0,0.0,,,,,,,,,,,,,
44,203584,1745468800547,0.0,115.0,,-0.05,-0.18,1.3,-4.0,0.0,1.0,1.31,1.37,96.0,2995.0,0.0,3.42,,12.69,1.067,66.4,,42.5,5.0,0.0,0.0,0.0,0.0,0.0,0.0,0.0,0.0,2.28,,,0.0,0.0,0.0,0.0,0.0,0.0,0.0,0.0,0.0,0.0,0.0,0.0,0.0,0.0,0.0,0.0,,0.0,,,,0.0,38.9907,-76.939865,0.09,32.2,22.0,2.0,1.2
45,203604,1745468800567,,,,,,,,,,,,,,,,,,,,,,,,,,,,,,,,,,0.0,0.0,0.0,0.0,0.0,0.0,0.0,0.0,0.0,0.0,0.0,0.0,0.0,0.0,0.0,0.0,,,,,,,,,,,,,
46,203624,1745468800587,0.0,115.0,,-0.04,-0.15,1.3,-4.0,0.0,2.0,1.31,1.37,96.0,2968.0,0.0,3.42,,12.69,1.067,66.4,,42.6,5.0,,,,,,,,,,,,0.0,0.0,0.0,0.0,0.0,0.0,0.0,0.0,0.0,0.0,0.0,0.0,0.0,0.0,0.0,0.0,,,,,,0.0,,,,,,,
47,203644,1745468800609,,,,,,,,,,,,,,,,,,,,,,,,,,,,,,,,,,0.0,0.0,0.0,0.0,0.0,0.0,0.0,0.0,0.0,0.0,0.0,0.0,0.0,0.0,0.0,0.0,,,,,,,,,,,,,
48,203664,1745468800629,0.0,132.0,,-0.04,-0.09,1.3,-4.0,0.0,2.0,1.3,1.37,95.0,2968.0,0.0,3.42,,12.75,1.07,66.4,,42.6,5.0,,,,,,,,,,,,0.0,0.0,0.0,0.0,0.0,0.0,0.0,0.0,0.0,0.0,0.0,0.0,0.0,0.0,0.0,0.0,,,,,,0.0,,,,,,,
49,203684,1745468800649,,,,,,,,,,,,,,,,,,,,,,,0.0,0.0,0.0,0.0,0.0,0.0,0.0,0.0,2.27,,,0.0,0.0,0.0,0.0,0.0,0.0,0.0,0.0,0.0,0.0,0.0,0.0,0.0,0.0,0.0,0.0,,0.0,,,,,38.9907,-76.939865,0.07,32.2,22.0,2.0,1.2
50,203704,1745468800669,0.0,115.0,,-0.03,-0.05,1.23,-4.0,0.0,2.0,1.23,1.37,90.0,2935.0,0.0,3.4,,12.76,1.07,66.4,,41.5,5.0,,,,,,,,,,,,0.0,0.0,0.0,0.0,0.0,0.0,0.0,0.0,0.0,0.0,0.0,0.0,0.0,0.0,0.0,0.0,,,,,,0.0,,,,,,,
51,203724,1745468800689,,,,,,,,,,,,,,,,,,,,,,,,,,,,,,,,,,0.0,0.0,0.0,0.0,0.0,0.0,0.0,0.0,0.0,0.0,0.0,0.0,0.0,0.0,0.0,0.0,,,,,,,,,,,,,
52,203744,1745468800707,0.0,132.0,,-0.01,-0.02,1.15,-3.0,0.0,2.0,1.15,1.37,83.0,2918.0,0.0,3.42,,12.8,1.067,66.4,,41.5,5.0,,,,,,,,,,,,0.0,0.0,0.0,0.0,0.0,0.0,0.0,0.0,0.0,0.0,0.0,0.0,0.0,0.0,0.0,0.0,,,,,,0.0,,,,,,,
53,203764,1745468800727,,,,,,,,,,,,,,,,,,,,,,,,,,,,,,,,,,0.0,0.0,0.0,0.0,0.0,0.0,0.0,0.0,0.0,0.0,0.0,0.0,0.0,0.0,0.0,0.0,,,,,,,,,,,,,
54,203784,1745468800747,0.0,85.0,,0.0,0.0,1.06,-2.0,0.0,1.0,1.06,1.37,77.0,2922.0,0.0,3.39,,12.76,1.079,66.4,,41.5,5.0,0.0,0.0,0.0,0.0,0.0,0.0,0.0,0.0,2.27,,,0.0,0.0,0.0,0.0,0.0,0.0,0.0,0.0,0.0,0.0,0.0,0.0,0.0,0.0,0.0,0.0,,0.0,,,,0.0,38.9907,-76.939865,0.05,32.2,22.0,2.0,1.2
55,203804,1745468800767,,,,,,,,,,,,,,,,,,,,,,,,,,,,,,,,,,0.0,0.0,0.0,0.0,0.0,0.0,0.0,0.0,0.0,0.0,0.0,0.0,0.0,0.0,0.0,0.0,,,,,,,,,,,,,
56,203824,1745468800787,0.0,115.0,,-0.0,0.03,1.0,-1.0,0.0,1.0,1.0,1.37,73.0,2962.0,0.0,3.37,,12.76,1.079,66.4,,42.1,5.0,,,,,,,,,,,,0.0,0.0,0.0,0.0,0.0,0.0,0.0,0.0,0.0,0.0,0.0,0.0,0.0,0.0,0.0,0.0,,,,,,0.0,,,,,,,
57,203844,1745468800809,,,,,,,,,,,,,,,,,,,,,,,,,,,,,,,,,,0.0,0.0,0.0,0.0,0.0,0.0,0.0,0.0,0.0,0.0,0.0,0.0,0.0,0.0,0.0,0.0,,,,,,,,,,,,,
58,203864,1745468800829,0.0,112.0,,-0.03,0.03,0.98,-1.0,0.0,1.0,0.98,1.37,72.0,2962.0,0.0,3.37,,12.76,1.075,66.4,,42.1,5.0,,,,,,,,,,,,0.0,0.0,0.0,0.0,0.0,0.0,0.0,0.0,0.0,0.0,0.0,0.0,0.0,0.0,0.0,0.0,,,,,,0.0,,,,,,,
59,203884,1745468800849,,,,,,,,,,,,,,,,,,,,,,,0.0,0.0,0.0,0.0,0.0,0.0,0.0,0.0,2.27,,,0.0,0.0,0.0,0.0,0.0,0.0,0.0,0.0,0.0,0.0,0.0,0.0,0.0,0.0,0.0,0.0,,0.0,,,,,38.9907,-76.939865,0.05,32.2,22.0,2.0,1.2
60,203904,1745468800869,0.0,105.0,,-0.05,0.01,1.02,0.0,0.0,0.0,1.02,1.37,74.0,2923.0,0.0,3.4,,12.77,1.077,66.4,,41.3,5.0,,,,,,,,,,,,0.0,0.0,0.0,0.0,0.0,0.0,0.0,0.0,0.0,0.0,0.0,0.0,0.0,0.0,0.0,0.0,,,,,,0.0,,,,,,,
61,203924,1745468800889,,,,,,,,,,,,,,,,,,,,,,,,,,,,,,,,,,0.0,0.0,0.0,0.0,0.0,0.0,0.0,0.0,0.0,0.0,0.0,0.0,0.0,0.0,0.0,0.0,,,,,,,,,,,,,
62,203944,1745468800909,0.0,119.0,,-0.05,-0.01,1.07,0.0,0.0,0.0,1.07,1.37,78.0,2846.0,0.0,3.39,,12.77,1.079,66.4,,41.3,5.0,,,,,,,,,,,,0.0,0.0,0.0,0.0,0.0,0.0,0.0,0.0,0.0,0.0,0.0,0.0,0.0,0.0,0.0,0.0,,,,,,0.0,,,,,,,
63,203964,1745468800929,,,,,,,,,,,,,,,,,,,,,,,,,,,,,,,,,,0.0,0.0,0.0,0.0,0.0,0.0,0.0,0.0,0.0,0.0,0.0,0.0,0.0,0.0,0.0,0.0,,,,,,,,,,,,,
64,203984,1745468800949,0.0,135.0,,-0.05,-0.01,1.09,-1.0,0.0,1.0,1.09,1.37,79.0,2882.0,0.0,3.42,,12.8,1.077,66.4,,41.3,5.0,0.0,0.0,0.0,0.0,0.0,0.0,0.0,0.0,2.27,,,0.0,0.0,0.0,0.0,0.0,0.0,0.0,0.0,0.0,0.0,0.0,0.0,0.0,0.0,0.0,0.0,,0.0,,,,0.0,38.9907,-76.939865,0.07,32.2,22.0,2.0,1.2
65,204004,1745468800969,,,,,,,,,,,,,,,,,,,,,,,,,,,,,,,,,,0.0,0.0,0.0,0.0,0.0,0.0,0.0,0.0,0.0,0.0,0.0,0.0,0.0,0.0,0.0,0.0,,,,,,,,,,,,,
66,204024,1745468800989,0.0,125.0,,-0.05,0.01,1.04,-1.0,0.0,1.0,1.04,1.37,76.0,2830.0,0.0,3.39,,12.8,1.077,66.4,,40.8,5.0,,,,,,,,,,,,0.0,0.0,0.0,0.0,0.0,0.0,0.0,0.0,0.0,0.0,0.0,0.0,0.0,0.0,0.0,0.0,,,,,,0.0,,,,,,,
67,204044,1745468800998,,,,,,,,,,,,,,,,,,,,,,,,,,,,,,,,,,0.0,0.0,0.0,0.0,0.0,0.0,0.0,0.0,0.0,0.0,0.0,0.0,0.0,0.0,0.0,0.0,,,,,,,,,,,,,
68,204064,1745468801018,0.0,129.0,,-0.04,0.02,0.97,0.0,0.0,1.0,0.97,1.37,71.0,2830.0,0.0,3.39,,12.8,1.086,66.4,,40.8,5.0,,,,,,,,,,,,0.0,0.0,0.0,0.0,0.0,0.0,0.0,0.0,0.0,0.0,0.0,0.0,0.0,0.0,0.0,0.0,,,,,,0.0,,,,,,,
69,204084,1745468801038,,,,,,,,,,,,,,,,,,,,,,,0.0,0.0,0.0,0.0,0.0,0.0,0.0,0.0,2.28,,,0.0,0.0,0.0,0.0,0.0,0.0,0.0,0.0,0.0,0.0,0.0,0.0,0.0,0.0,0.0,0.0,,0.0,,,,,38.9907,-76.939865,0.13,32.2,23.0,2.0,1.1
70,204104,1745468801058,0.0,105.0,,-0.05,0.03,0.95,0.0,0.0,0.0,0.95,1.37,70.0,2930.0,0.0,3.36,,12.77,1.084,66.4,,41.3,5.0,,,,,,,,,,,,0.0,0.0,0.0,0.0,0.0,0.0,0.0,0.0,0.0,0.0,0.0,0.0,0.0,0.0,0.0,0.0,,,,,,0.0,,,,,,,
71,204124,1745468801078,,,,,,,,,,,,,,,,,,,,,,,,,,,,,,,,,,0.0,0.0,0.0,0.0,0.0,0.0,0.0,0.0,0.0,0.0,0.0,0.0,0.0,0.0,0.0,0.0,,,,,,,,,,,,,
72,204144,1745468801108,0.0,115.0,,-0.07,0.04,0.99,0.0,0.0,0.0,0.99,1.37,72.0,2904.0,0.0,3.36,,12.76,1.084,66.4,,41.3,5.0,,,,,,,,,,,,0.0,0.0,0.0,0.0,0.0,0.0,0.0,0.0,0.0,0.0,0.0,0.0,0.0,0.0,0.0,0.0,,,,,,0.0,,,,,,,
73,204164,1745468801128,,,,,,,,,,,,,,,,,,,,,,,,,,,,,,,,,,0.0,0.0,0.0,0.0,0.0,0.0,0.0,0.0,0.0,0.0,0.0,0.0,0.0,0.0,0.0,0.0,,,,,,,,,,,,,
74,204184,1745468801148,0.0,119.0,,-0.07,-0.04,1.05,0.0,0.0,0.0,1.05,1.37,77.0,2891.0,0.0,3.33,,12.79,1.09,66.4,,41.3,5.0,0.0,0.0,0.0,0.0,0.0,0.0,0.0,0.0,2.28,,,0.0,0.0,0.0,0.0,0.0,0.0,0.0,0.0,0.0,0.0,0.0,0.0,0.0,0.0,0.0,0.0,,0.0,,,,0.0,38.9907,-76.939865,0.11,32.2,23.0,2.0,1.1
75,204204,1745468801168,,,,,,,,,,,,,,,,,,,,,,,,,,,,,,,,,,0.0,0.0,0.0,0.0,0.0,0.0,0.0,0.0,0.0,0.0,0.0,0.0,0.0,0.0,0.0,0.0,,,,,,,,,,,,,
76,204224,1745468801188,0.0,115.0,,-0.06,-0.05,1.1,0.0,0.0,0.0,1.1,1.37,80.0,2889.0,0.0,3.35,,12.79,1.09,66.4,,41.0,5.0,,,,,,,,,,,,0.0,0.0,0.0,0.0,0.0,0.0,0.0,0.0,0.0,0.0,0.0,0.0,0.0,0.0,0.0,0.0,,,,,,0.0,,,,,,,
77,204244,1745468801204,,,,,,,,,,,,,,,,,,,,,,,,,,,,,,,,,,0.0,0.0,0.0,0.0,0.0,0.0,0.0,0.0,0.0,0.0,0.0,0.0,0.0,0.0,0.0,0.0,,,,,,,,,,,,,
78,204264,1745468801224,0.0,122.0,,-0.06,-0.0,1.09,0.0,0.0,0.0,1.09,1.37,79.0,2889.0,0.0,3.35,,12.81,1.092,66.4,,41.0,5.0,,,,,,,,,,,,0.0,0.0,0.0,0.0,0.0,0.0,0.0,0.0,0.0,0.0,0.0,0.0,0.0,0.0,0.0,0.0,,,,,,0.0,,,,,,,
79,204284,1745468801244,,,,,,,,,,,,,,,,,,,,,,,0.0,0.0,0.0,0.0,0.0,0.0,0.0,0.0,2.27,,,0.0,0.0,0.0,0.0,0.0,0.0,0.0,0.0,0.0,0.0,0.0,0.0,0.0,0.0,0.0,0.0,,0.0,,,,,38.9907,-76.939865,0.12,32.2,23.0,2.0,1.1
80,204304,1745468801264,0.0,122.0,,-0.04,-0.02,1.04,0.0,0.0,0.0,1.04,1.37,76.0,2842.0,0.0,3.32,,12.83,1.103,66.4,,40.2,5.0,,,,,,,,,,,,0.0,0.0,0.0,0.0,0.0,0.0,0.0,0.0,0.0,0.0,0.0,0.0,0.0,0.0,0.0,0.0,,,,,,0.0,,,,,,,
81,204324,1745468801284,,,,,,,,,,,,,,,,,,,,,,,,,,,,,,,,,,0.0,0.0,0.0,0.0,0.0,0.0,0.0,0.0,0.0,0.0,0.0,0.0,0.0,0.0,0.0,0.0,,,,,,,,,,,,,
82,204344,1745468801306,0.0,122.0,,-0.05,0.02,1.01,0.0,0.0,0.0,1.01,1.37,73.0,2859.0,0.0,3.34,,12.8,1.099,66.4,,40.2,5.0,,,,,,,,,,,,0.0,0.0,0.0,0.0,0.0,0.0,0.0,0.0,0.0,0.0,0.0,0.0,0.0,0.0,0.0,0.0,,,,,,0.0,,,,,,,
83,204364,1745468801326,,,,,,,,,,,,,,,,,,,,,,,,,,,,,,,,,,0.0,0.0,0.0,0.0,0.0,0.0,0.0,0.0,0.0,0.0,0.0,0.0,0.0,0.0,0.0,0.0,,,,,,,,,,,,,
84,204384,1745468801346,0.0,129.0,13.27,-0.06,-0.01,1.04,0.0,0.0,0.0,1.05,1.37,76.0,2816.0,0.0,3.35,15.0,12.81,1.119,66.4,77.0,40.2,5.0,0.0,0.0,0.0,0.0,0.0,0.0,0.0,0.0,2.27,0.0,1.0,0.0,0.0,0.0,0.0,0.0,0.0,0.0,0.0,0.0,0.0,0.0,0.0,0.0,0.0,0.0,0.0,0.0,0.0,1.0,0.0,0.0,0.0,38.9907,-76.939865,0.05,32.2,23.0,2.0,1.1
85,204404,1745468801366,,,,,,,,,,,,,,,,,,,,,,,,,,,,,,,,,,0.0,0.0,0.0,0.0,0.0,0.0,0.0,0.0,0.0,0.0,0.0,0.0,0.0,0.0,0.0,0.0,,,,,,,,,,,,,
86,204424,1745468801386,0.0,119.0,,-0.05,-0.03,1.09,0.0,0.0,0.0,1.09,1.37,79.0,2879.0,0.0,3.31,,12.81,1.119,66.4,,40.5,5.0,,,,,,,,,,,,0.0,0.0,0.0,0.0,0.0,0.0,0.0,0.0,0.0,0.0,0.0,0.0,0.0,0.0,0.0,0.0,,,,,,0.0,,,,,,,
87,204444,1745468801408,,,,,,,,,,,,,,,,,,,,,,,,,,,,,,,,,,0.0,0.0,0.0,0.0,0.0,0.0,0.0,0.0,0.0,0.0,0.0,0.0,0.0,0.0,0.0,0.0,,,,,,,,,,,,,
88,204464,1745468801428,0.0,115.0,,-0.06,0.0,1.07,0.0,0.0,1.0,1.07,1.37,78.0,2879.0,0.0,3.31,,12.77,1.128,66.4,,40.5,5.0,,,,,,,,,,,,0.0,0.0,0.0,0.0,0.0,0.0,0.0,0.0,0.0,0.0,0.0,0.0,0.0,0.0,0.0,0.0,,,,,,0.0,,,,,,,
89,204484,1745468801448,,,,,,,,,,,,,,,,,,,,,,,0.0,0.0,0.0,0.0,0.0,0.0,0.0,0.0,2.27,,,0.0,0.0,0.0,0.0,0.0,0.0,0.0,0.0,0.0,0.0,0.0,0.0,0.0,0.0,0.0,0.0,,0.0,,,,,38.9907,-76.939865,0.08,32.2,23.0,2.0,1.1
90,204504,1745468801468,0.0,105.0,,-0.05,0.06,1.03,0.0,0.0,1.0,1.04,1.37,75.0,2872.0,0.0,3.32,,12.83,1.148,66.4,,41.9,5.0,,,,,,,,,,,,0.0,0.0,0.0,0.0,0.0,0.0,0.0,0.0,0.0,0.0,0.0,0.0,0.0,0.0,0.0,0.0,,,,,,0.0,,,,,,,
91,204524,1745468801488,,,,,,,,,,,,,,,,,,,,,,,,,,,,,,,,,,0.0,0.0,0.0,0.0,0.0,0.0,0.0,0.0,0.0,0.0,0.0,0.0,0.0,0.0,0.0,0.0,,,,,,,,,,,,,
92,204544,1745468801508,0.0,112.0,,-0.04,0.1,0.99,0.0,0.0,1.0,1.0,1.37,73.0,2958.0,0.0,3.24,,12.79,1.154,66.4,,41.9,5.0,,,,,,,,,,,,0.0,0.0,0.0,0.0,0.0,0.0,0.0,0.0,0.0,0.0,0.0,0.0,0.0,0.0,0.0,0.0,,,,,,0.0,,,,,,,
93,204564,1745468801528,,,,,,,,,,,,,,,,,,,,,,,,,,,,,,,,,,0.0,0.0,0.0,0.0,0.0,0.0,0.0,0.0,0.0,0.0,0.0,0.0,0.0,0.0,0.0,0.0,,,,,,,,,,,,,
94,204584,1745468801548,0.0,135.0,,-0.02,0.15,0.95,-1.0,-1.0,1.0,0.96,1.37,70.0,2999.0,0.0,3.24,,12.73,1.159,66.4,,41.9,5.0,0.0,0.0,0.0,0.0,0.0,0.0,0.0,0.0,2.28,,,0.0,0.0,0.0,0.0,0.0,0.0,0.0,0.0,0.0,0.0,0.0,0.0,0.0,0.0,0.0,0.0,,0.0,,,,0.0,38.9907,-76.939858,0.15,32.2,23.0,2.0,1.1
95,204604,1745468801568,,,,,,,,,,,,,,,,,,,,,,,,,,,,,,,,,,0.0,0.0,0.0,0.0,0.0,0.0,0.0,0.0,0.0,0.0,0.0,0.0,0.0,0.0,0.0,0.0,,,,,,,,,,,,,
96,204624,1745468801588,0.0,132.0,,-0.01,0.17,0.92,0.0,-1.0,1.0,0.93,1.37,68.0,2953.0,0.0,3.22,,12.73,1.159,66.4,,42.9,5.0,,,,,,,,,,,,0.0,0.0,0.0,0.0,0.0,0.0,0.0,0.0,0.0,0.0,0.0,0.0,0.0,0.0,0.0,0.0,,,,,,0.0,,,,,,,
97,204644,1745468801608,,,,,,,,,,,,,,,,,,,,,,,,,,,,,,,,,,0.0,0.0,0.0,0.0,0.0,0.0,0.0,0.0,0.0,0.0,0.0,0.0,0.0,0.0,0.0,0.0,,,,,,,,,,,,,
98,204664,1745468801628,0.0,129.0,,0.0,0.17,0.86,0.0,-1.0,1.0,0.88,1.37,64.0,2953.0,0.0,3.22,,12.79,1.164,66.4,,42.9,5.0,,,,,,,,,,,,0.0,0.0,0.0,0.0,0.0,0.0,0.0,0.0,0.0,0.0,0.0,0.0,0.0,0.0,0.0,0.0,,,,,,0.0,,,,,,,
99,204684,1745468801648,,,,,,,,,,,,,,,,,,,,,,,0.0,0.0,0.0,0.0,0.0,0.0,0.0,0.0,2.28,,,0.0,0.0,0.0,0.0,0.0,0.0,0.0,0.0,0.0,0.0,0.0,0.0,0.0,0.0,0.0,0.0,,0.0,,,,,38.9907,-76.939858,0.05,32.2,23.0,2.0,1.1
100,204704,1745468801668,0.0,119.0,,0.01,0.15,0.83,0.0,-1.0,1.0,0.84,1.37,61.0,2959.0,0.0,3.24,,12.76,1.156,66.4,,41.3,5.0,,,,,,,,,,,,0.0,0.0,0.0,0.0,0.0,0.0,0.0,0.0,0.0,0.0,0.0,0.0,0.0,0.0,0.0,0.0,,,,,,0.0,,,,,,,
101,204724,1745468801688,,,,,,,,,,,,,,,,,,,,,,,,,,,,,,,,,,0.0,0.0,0.0,0.0,0.0,0.0,0.0,0.0,0.0,0.0,0.0,0.0,0.0,0.0,0.0,0.0,,,,,,,,,,,,,
102,204744,1745468801708,0.0,119.0,,-0.0,0.15,0.81,1.0,-1.0,0.0,0.83,1.37,60.0,2936.0,0.0,3.25,,12.8,1.142,66.4,,41.3,5.0,,,,,,,,,,,,0.0,0.0,0.0,0.0,0.0,0.0,0.0,0.0,0.0,0.0,0.0,0.0,0.0,0.0,0.0,0.0,,,,,,0.0,,,,,,,
103,204764,1745468801728,,,,,,,,,,,,,,,,,,,,,,,,,,,,,,,,,,0.0,0.0,0.0,0.0,0.0,0.0,0.0,0.0,0.0,0.0,0.0,0.0,0.0,0.0,0.0,0.0,,,,,,,,,,,,,
104,204784,1745468801748,0.0,115.0,,-0.01,0.15,0.86,1.0,-1.0,0.0,0.87,1.37,64.0,2874.0,0.0,3.22,,12.8,1.142,66.4,,41.3,5.0,0.0,0.0,0.0,0.0,0.0,0.0,0.0,0.0,2.27,,,0.0,0.0,0.0,0.0,0.0,0.0,0.0,0.0,0.0,0.0,0.0,0.0,0.0,0.0,0.0,0.0,,0.0,,,,0.0,38.9907,-76.939858,0.09,32.2,23.0,2.0,1.1
105,204804,1745468801768,,,,,,,,,,,,,,,,,,,,,,,,,,,,,,,,,,0.0,0.0,0.0,0.0,0.0,0.0,0.0,0.0,0.0,0.0,0.0,0.0,0.0,0.0,0.0,0.0,,,,,,,,,,,,,
106,204824,1745468801788,0.0,108.0,,-0.02,0.08,0.95,0.0,0.0,0.0,0.95,1.37,69.0,2936.0,0.0,3.26,,12.81,1.134,66.4,,41.0,5.0,,,,,,,,,,,,0.0,0.0,0.0,0.0,0.0,0.0,0.0,0.0,0.0,0.0,0.0,0.0,0.0,0.0,0.0,0.0,,,,,,0.0,,,,,,,
107,204844,1745468801808,,,,,,,,,,,,,,,,,,,,,,,,,,,,,,,,,,0.0,0.0,0.0,0.0,0.0,0.0,0.0,0.0,0.0,0.0,0.0,0.0,0.0,0.0,0.0,0.0,,,,,,,,,,,,,
108,204864,1745468801828,0.0,122.0,,-0.02,0.03,1.01,0.0,0.0,0.0,1.01,1.37,74.0,2936.0,0.0,3.26,,12.81,1.118,66.4,,41.0,5.0,,,,,,,,,,,,0.0,0.0,0.0,0.0,0.0,0.0,0.0,0.0,0.0,0.0,0.0,0.0,0.0,0.0,0.0,0.0,,,,,,0.0,,,,,,,
109,204884,1745468801848,,,,,,,,,,,,,,,,,,,,,,,0.0,0.0,0.0,0.0,0.0,0.0,0.0,0.0,2.27,,,0.0,0.0,0.0,0.0,0.0,0.0,0.0,0.0,0.0,0.0,0.0,0.0,0.0,0.0,0.0,0.0,,0.0,,,,,38.9907,-76.939858,0.06,32.2,23.0,2.0,1.1
110,204904,1745468801868,0.0,119.0,,-0.02,0.04,1.04,-1.0,0.0,1.0,1.04,1.37,76.0,2890.0,0.0,3.23,,12.84,1.106,66.4,,41.4,5.0,,,,,,,,,,,,0.0,0.0,0.0,0.0,0.0,0.0,0.0,0.0,0.0,0.0,0.0,0.0,0.0,0.0,0.0,0.0,,,,,,0.0,,,,,,,
111,204924,1745468801888,,,,,,,,,,,,,,,,,,,,,,,,,,,,,,,,,,0.0,0.0,0.0,0.0,0.0,0.0,0.0,0.0,0.0,0.0,0.0,0.0,0.0,0.0,0.0,0.0,,,,,,,,,,,,,
112,204944,1745468801908,0.0,122.0,,-0.02,0.04,1.0,0.0,0.0,1.0,1.0,1.37,73.0,2894.0,0.0,3.19,,12.83,1.104,66.4,,41.4,5.0,,,,,,,,,,,,0.0,0.0,0.0,0.0,0.0,0.0,0.0,0.0,0.0,0.0,0.0,0.0,0.0,0.0,0.0,0.0,,,,,,0.0,,,,,,,
113,204964,1745468801928,,,,,,,,,,,,,,,,,,,,,,,,,,,,,,,,,,0.0,0.0,0.0,0.0,0.0,0.0,0.0,0.0,0.0,0.0,0.0,0.0,0.0,0.0,0.0,0.0,,,,,,,,,,,,,
114,204984,1745468801948,0.0,129.0,,-0.04,0.07,0.98,-1.0,0.0,0.0,0.99,1.37,72.0,2775.0,0.0,3.28,,12.8,1.105,66.4,,41.4,5.0,0.0,0.0,0.0,0.0,0.0,0.0,0.0,0.0,2.27,,,0.0,0.0,0.0,0.0,0.0,0.0,0.0,0.0,0.0,0.0,0.0,0.0,0.0,0.0,0.0,0.0,,0.0,,,,0.0,38.9907,-76.939858,0.0,32.2,23.0,2.0,1.1
115,205004,1745468801968,,,,,,,,,,,,,,,,,,,,,,,,,,,,,,,,,,0.0,0.0,0.0,0.0,0.0,0.0,0.0,0.0,0.0,0.0,0.0,0.0,0.0,0.0,0.0,0.0,,,,,,,,,,,,,
116,205024,1745468801988,0.0,125.0,,-0.03,0.06,0.99,0.0,0.0,1.0,0.99,1.37,72.0,2578.0,0.0,3.3,,12.8,1.105,66.4,,40.1,5.0,,,,,,,,,,,,0.0,0.0,0.0,0.0,0.0,0.0,0.0,0.0,0.0,0.0,0.0,0.0,0.0,0.0,0.0,0.0,,,,,,0.0,,,,,,,
117,205044,1745468801998,,,,,,,,,,,,,,,,,,,,,,,,,,,,,,,,,,0.0,0.0,0.0,0.0,0.0,0.0,0.0,0.0,0.0,0.0,0.0,0.0,0.0,0.0,0.0,0.0,,,,,,,,,,,,,
118,205064,1745468802018,0.0,115.0,,-0.04,0.03,1.01,-1.0,0.0,0.0,1.01,1.37,74.0,2578.0,0.0,3.3,,12.92,1.105,66.4,,40.1,5.0,,,,,,,,,,,,0.0,0.0,0.0,0.0,0.0,0.0,0.0,0.0,0.0,0.0,0.0,0.0,0.0,0.0,0.0,0.0,,,,,,0.0,,,,,,,
119,205084,1745468802038,,,,,,,,,,,,,,,,,,,,,,,0.0,0.0,0.0,0.0,0.0,0.0,0.0,0.0,2.28,,,0.0,0.0,0.0,0.0,0.0,0.0,0.0,0.0,0.0,0.0,0.0,0.0,0.0,0.0,0.0,0.0,,0.0,,,,,38.9907,-76.939858,0.08,32.2,23.0,2.0,1.1
120,205104,1745468802058,0.0,115.0,,-0.04,0.04,1.0,0.0,0.0,0.0,1.0,1.37,73.0,2597.0,0.0,3.36,,13.0,1.116,66.4,,43.1,5.0,,,,,,,,,,,,0.0,0.0,0.0,0.0,0.0,0.0,0.0,0.0,0.0,0.0,0.0,0.0,0.0,0.0,0.0,0.0,,,,,,0.0,,,,,,,
121,205124,1745468802078,,,,,,,,,,,,,,,,,,,,,,,,,,,,,,,,,,0.0,0.0,0.0,0.0,0.0,0.0,0.0,0.0,0.0,0.0,0.0,0.0,0.0,0.0,0.0,0.0,,,,,,,,,,,,,
122,205144,1745468802105,0.0,108.0,,-0.05,0.02,0.99,0.0,0.0,0.0,0.99,1.37,72.0,2698.0,0.0,3.27,,12.97,1.171,66.4,,43.1,5.0,,,,,,,,,,,,0.0,0.0,0.0,0.0,0.0,0.0,0.0,0.0,0.0,0.0,0.0,0.0,0.0,0.0,0.0,0.0,,,,,,0.0,,,,,,,
123,205164,1745468802125,,,,,,,,,,,,,,,,,,,,,,,,,,,,,,,,,,0.0,0.0,0.0,0.0,0.0,0.0,0.0,0.0,0.0,0.0,0.0,0.0,0.0,0.0,0.0,0.0,,,,,,,,,,,,,
124,205184,1745468802145,0.0,125.0,,-0.04,0.02,0.99,0.0,0.0,0.0,0.99,1.37,72.0,2604.0,0.0,3.29,,13.07,1.249,66.4,,43.1,5.0,0.0,0.0,0.0,0.0,0.0,0.0,0.0,0.0,2.28,,,0.0,0.0,0.0,0.0,0.0,0.0,0.0,0.0,0.0,0.0,0.0,0.0,0.0,0.0,0.0,0.0,,0.0,,,,0.0,38.9907,-76.939858,0.07,32.2,23.0,2.0,1.1
125,205204,1745468802165,,,,,,,,,,,,,,,,,,,,,,,,,,,,,,,,,,0.0,0.0,0.0,0.0,0.0,0.0,0.0,0.0,0.0,0.0,0.0,0.0,0.0,0.0,0.0,0.0,,,,,,,,,,,,,
126,205224,1745468802185,0.0,132.0,,-0.04,0.0,0.99,0.0,0.0,0.0,0.99,1.37,72.0,2594.0,0.0,3.31,,13.07,1.249,66.4,,42.2,5.0,,,,,,,,,,,,0.0,0.0,0.0,0.0,0.0,0.0,0.0,0.0,0.0,0.0,0.0,0.0,0.0,0.0,0.0,0.0,,,,,,0.0,,,,,,,
127,205244,1745468802207,,,,,,,,,,,,,,,,,,,,,,,,,,,,,,,,,,0.0,0.0,0.0,0.0,0.0,0.0,0.0,0.0,0.0,0.0,0.0,0.0,0.0,0.0,0.0,0.0,,,,,,,,,,,,,
128,205264,1745468802227,0.0,132.0,,-0.04,0.0,1.0,0.0,0.0,0.0,1.0,1.37,73.0,2594.0,0.0,3.31,,13.01,1.252,66.4,,42.2,5.0,,,,,,,,,,,,0.0,0.0,0.0,0.0,0.0,0.0,0.0,0.0,0.0,0.0,0.0,0.0,0.0,0.0,0.0,0.0,,,,,,0.0,,,,,,,
129,205284,1745468802247,,,,,,,,,,,,,,,,,,,,,,,0.0,0.0,0.0,0.0,0.0,0.0,0.0,0.0,2.28,,,0.0,0.0,0.0,0.0,0.0,0.0,0.0,0.0,0.0,0.0,0.0,0.0,0.0,0.0,0.0,0.0,,0.0,,,,,38.9907,-76.939858,0.09,32.2,23.0,2.0,1.1
130,205304,1745468802267,0.0,119.0,,-0.05,0.0,0.98,0.0,0.0,0.0,0.99,1.37,72.0,2668.0,0.0,3.26,,13.04,1.252,66.4,,42.5,5.0,,,,,,,,,,,,0.0,0.0,0.0,0.0,0.0,0.0,0.0,0.0,0.0,0.0,0.0,0.0,0.0,0.0,0.0,0.0,,,,,,0.0,,,,,,,
131,205324,1745468802287,,,,,,,,,,,,,,,,,,,,,,,,,,,,,,,,,,0.0,0.0,0.0,0.0,0.0,0.0,0.0,0.0,0.0,0.0,0.0,0.0,0.0,0.0,0.0,0.0,,,,,,,,,,,,,
132,205344,1745468802307,0.0,125.0,,-0.04,-0.01,0.98,0.0,0.0,0.0,0.98,1.37,71.0,2552.0,0.0,3.26,,13.05,1.252,66.4,,42.5,5.0,,,,,,,,,,,,0.0,0.0,0.0,0.0,0.0,0.0,0.0,0.0,0.0,0.0,0.0,0.0,0.0,0.0,0.0,0.0,,,,,,0.0,,,,,,,
133,205364,1745468802327,,,,,,,,,,,,,,,,,,,,,,,,,,,,,,,,,,0.0,0.0,0.0,0.0,0.0,0.0,0.0,0.0,0.0,0.0,0.0,0.0,0.0,0.0,0.0,0.0,,,,,,,,,,,,,
134,205384,1745468802347,0.0,119.0,13.33,-0.04,-0.01,0.99,0.0,0.0,0.0,0.99,1.37,72.0,2526.0,0.0,3.29,15.0,13.08,1.248,66.4,77.0,42.5,5.0,0.0,0.0,0.0,0.0,0.0,0.0,0.0,0.0,2.27,0.0,1.0,0.0,0.0,0.0,0.0,0.0,0.0,0.0,0.0,0.0,0.0,0.0,0.0,0.0,0.0,0.0,0.0,0.0,0.0,1.0,0.0,0.0,0.0,38.9907,-76.939858,0.04,32.2,23.0,2.0,1.1
135,205404,1745468802367,,,,,,,,,,,,,,,,,,,,,,,,,,,,,,,,,,0.0,0.0,0.0,0.0,0.0,0.0,0.0,0.0,0.0,0.0,0.0,0.0,0.0,0.0,0.0,0.0,,,,,,,,,,,,,
136,205424,1745468802387,0.0,112.0,,-0.05,-0.01,0.99,0.0,0.0,0.0,0.99,1.37,72.0,2435.0,0.0,3.35,,13.08,1.248,66.4,,38.9,5.0,,,,,,,,,,,,0.0,0.0,0.0,0.0,0.0,0.0,0.0,0.0,0.0,0.0,0.0,0.0,0.0,0.0,0.0,0.0,,,,,,0.0,,,,,,,
137,205444,1745468802407,,,,,,,,,,,,,,,,,,,,,,,,,,,,,,,,,,0.0,0.0,0.0,0.0,0.0,0.0,0.0,0.0,0.0,0.0,0.0,0.0,0.0,0.0,0.0,0.0,,,,,,,,,,,,,
138,205464,1745468802427,0.0,119.0,,-0.04,-0.02,0.99,0.0,0.0,0.0,0.99,1.37,72.0,2435.0,0.0,3.35,,13.24,1.252,66.4,,38.9,5.0,,,,,,,,,,,,0.0,0.0,0.0,0.0,0.0,0.0,0.0,0.0,0.0,0.0,0.0,0.0,0.0,0.0,0.0,0.0,,,,,,0.0,,,,,,,
139,205484,1745468802447,,,,,,,,,,,,,,,,,,,,,,,0.0,0.0,0.0,0.0,0.0,0.0,0.0,0.0,2.27,,,0.0,0.0,0.0,0.0,0.0,0.0,0.0,0.0,0.0,0.0,0.0,0.0,0.0,0.0,0.0,0.0,,0.0,,,,,38.9907,-76.939858,0.05,32.2,23.0,2.0,1.1
140,205504,1745468802467,0.0,108.0,,-0.04,-0.01,1.01,0.0,0.0,0.0,1.01,1.37,73.0,2561.0,0.0,3.3,,13.21,1.251,66.4,,40.5,5.0,,,,,,,,,,,,0.0,0.0,0.0,0.0,0.0,0.0,0.0,0.0,0.0,0.0,0.0,0.0,0.0,0.0,0.0,0.0,,,,,,0.0,,,,,,,
141,205524,1745468802487,,,,,,,,,,,,,,,,,,,,,,,,,,,,,,,,,,0.0,0.0,0.0,0.0,0.0,0.0,0.0,0.0,0.0,0.0,0.0,0.0,0.0,0.0,0.0,0.0,,,,,,,,,,,,,
142,205544,1745468802507,0.0,122.0,,-0.05,-0.0,1.01,0.0,0.0,0.0,1.01,1.37,73.0,2448.0,0.0,3.28,,13.27,1.25,66.4,,40.5,5.0,,,,,,,,,,,,0.0,0.0,0.0,0.0,0.0,0.0,0.0,0.0,0.0,0.0,0.0,0.0,0.0,0.0,0.0,0.0,,,,,,0.0,,,,,,,
143,205564,1745468802527,,,,,,,,,,,,,,,,,,,,,,,,,,,,,,,,,,0.0,0.0,0.0,0.0,0.0,0.0,0.0,0.0,0.0,0.0,0.0,0.0,0.0,0.0,0.0,0.0,,,,,,,,,,,,,
144,205584,1745468802547,0.0,125.0,,-0.05,-0.01,1.0,0.0,0.0,0.0,1.0,1.37,73.0,2452.0,0.0,3.31,,13.31,1.241,66.4,,40.5,5.0,0.0,0.0,0.0,0.0,0.0,0.0,0.0,0.0,2.27,,,0.0,0.0,0.0,0.0,0.0,0.0,0.0,0.0,0.0,0.0,0.0,0.0,0.0,0.0,0.0,0.0,,0.0,,,,0.0,38.9907,-76.939858,0.05,32.2,23.0,2.0,1.1
145,205604,1745468802567,,,,,,,,,,,,,,,,,,,,,,,,,,,,,,,,,,0.0,0.0,0.0,0.0,0.0,0.0,0.0,0.0,0.0,0.0,0.0,0.0,0.0,0.0,0.0,0.0,,,,,,,,,,,,,
146,205624,1745468802587,0.0,125.0,,-0.04,0.02,1.0,0.0,0.0,0.0,1.0,1.37,73.0,2428.0,0.0,3.3,,13.31,1.241,66.4,,40.2,5.0,,,,,,,,,,,,0.0,0.0,0.0,0.0,0.0,0.0,0.0,0.0,0.0,0.0,0.0,0.0,0.0,0.0,0.0,0.0,,,,,,0.0,,,,,,,
147,205644,1745468802607,,,,,,,,,,,,,,,,,,,,,,,,,,,,,,,,,,0.0,0.0,0.0,0.0,0.0,0.0,0.0,0.0,0.0,0.0,0.0,0.0,0.0,0.0,0.0,0.0,,,,,,,,,,,,,
148,205664,1745468802627,0.0,125.0,,-0.05,0.0,1.01,0.0,0.0,0.0,1.01,1.37,73.0,2428.0,0.0,3.3,,13.31,1.237,66.4,,40.2,5.0,,,,,,,,,,,,0.0,0.0,0.0,0.0,0.0,0.0,0.0,0.0,0.0,0.0,0.0,0.0,0.0,0.0,0.0,0.0,,,,,,0.0,,,,,,,
149,205684,1745468802647,,,,,,,,,,,,,,,,,,,,,,,0.0,0.0,0.0,0.0,0.0,0.0,0.0,0.0,2.28,,,0.0,0.0,0.0,0.0,0.0,0.0,0.0,0.0,0.0,0.0,0.0,0.0,0.0,0.0,0.0,0.0,,0.0,,,,,38.9907,-76.939858,0.05,32.2,23.0,2.0,1.1
150,205704,1745468802667,0.0,108.0,,-0.04,0.0,0.99,0.0,0.0,0.0,0.99,1.37,72.0,2512.0,0.0,3.27,,13.29,1.211,66.4,,42.0,5.0,,,,,,,,,,,,0.0,0.0,0.0,0.0,0.0,0.0,0.0,0.0,0.0,0.0,0.0,0.0,0.0,0.0,0.0,0.0,,,,,,0.0,,,,,,,
151,205724,1745468802687,,,,,,,,,,,,,,,,,,,,,,,,,,,,,,,,,,0.0,0.0,0.0,0.0,0.0,0.0,0.0,0.0,0.0,0.0,0.0,0.0,0.0,0.0,0.0,0.0,,,,,,,,,,,,,
152,205744,1745468802708,0.0,108.0,,-0.04,0.02,1.01,0.0,0.0,0.0,1.02,1.37,74.0,2557.0,0.0,3.26,,13.23,1.215,66.4,,42.0,5.0,,,,,,,,,,,,0.0,0.0,0.0,0.0,0.0,0.0,0.0,0.0,0.0,0.0,0.0,0.0,0.0,0.0,0.0,0.0,,,,,,0.0,,,,,,,
153,205764,1745468802728,,,,,,,,,,,,,,,,,,,,,,,,,,,,,,,,,,0.0,0.0,0.0,0.0,0.0,0.0,0.0,0.0,0.0,0.0,0.0,0.0,0.0,0.0,0.0,0.0,,,,,,,,,,,,,
154,205784,1745468802748,0.0,115.0,,-0.06,0.05,1.02,0.0,0.0,0.0,1.02,1.37,75.0,2591.0,0.0,3.22,,13.21,1.216,66.4,,42.0,5.0,0.0,0.0,0.0,0.0,0.0,0.0,0.0,0.0,2.28,,,0.0,0.0,0.0,0.0,0.0,0.0,0.0,0.0,0.0,0.0,0.0,0.0,0.0,0.0,0.0,0.0,,0.0,,,,0.0,38.9907,-76.939858,0.13,32.2,23.0,2.0,1.1
155,205804,1745468802768,,,,,,,,,,,,,,,,,,,,,,,,,,,,,,,,,,0.0,0.0,0.0,0.0,0.0,0.0,0.0,0.0,0.0,0.0,0.0,0.0,0.0,0.0,0.0,0.0,,,,,,,,,,,,,
156,205824,1745468802788,0.0,119.0,,-0.05,0.03,1.01,0.0,0.0,0.0,1.01,1.37,74.0,2441.0,0.0,3.21,,13.21,1.216,66.4,,42.2,5.0,,,,,,,,,,,,0.0,0.0,0.0,0.0,0.0,0.0,0.0,0.0,0.0,0.0,0.0,0.0,0.0,0.0,0.0,0.0,,,,,,0.0,,,,,,,
157,205844,1745468802807,,,,,,,,,,,,,,,,,,,,,,,,,,,,,,,,,,0.0,0.0,0.0,0.0,0.0,0.0,0.0,0.0,0.0,0.0,0.0,0.0,0.0,0.0,0.0,0.0,,,,,,,,,,,,,
158,205864,1745468802827,0.0,129.0,,-0.06,0.04,1.0,0.0,0.0,0.0,1.0,1.37,73.0,2441.0,0.0,3.21,,13.23,1.243,66.4,,42.2,5.0,,,,,,,,,,,,0.0,0.0,0.0,0.0,0.0,0.0,0.0,0.0,0.0,0.0,0.0,0.0,0.0,0.0,0.0,0.0,,,,,,0.0,,,,,,,
159,205884,1745468802847,,,,,,,,,,,,,,,,,,,,,,,0.0,0.0,0.0,0.0,0.0,0.0,0.0,0.0,2.27,,,0.0,0.0,0.0,0.0,0.0,0.0,0.0,0.0,0.0,0.0,0.0,0.0,0.0,0.0,0.0,0.0,,0.0,,,,,38.9907,-76.939858,0.11,32.2,23.0,2.0,1.1
160,205904,1745468802867,0.0,129.0,,-0.07,0.07,1.02,0.0,0.0,0.0,1.02,1.37,75.0,2269.0,0.0,3.32,,13.33,1.252,66.4,,38.8,5.0,,,,,,,,,,,,0.0,0.0,0.0,0.0,0.0,0.0,0.0,0.0,0.0,0.0,0.0,0.0,0.0,0.0,0.0,0.0,,,,,,0.0,,,,,,,
161,205924,1745468802887,,,,,,,,,,,,,,,,,,,,,,,,,,,,,,,,,,0.0,0.0,0.0,0.0,0.0,0.0,0.0,0.0,0.0,0.0,0.0,0.0,0.0,0.0,0.0,0.0,,,,,,,,,,,,,
162,205944,1745468802909,0.0,132.0,,-0.06,0.04,1.04,0.0,0.0,0.0,1.04,1.37,76.0,2364.0,0.0,3.31,,13.39,1.253,66.4,,38.8,5.0,,,,,,,,,,,,0.0,0.0,0.0,0.0,0.0,0.0,0.0,0.0,0.0,0.0,0.0,0.0,0.0,0.0,0.0,0.0,,,,,,0.0,,,,,,,
163,205964,1745468802929,,,,,,,,,,,,,,,,,,,,,,,,,,,,,,,,,,0.0,0.0,0.0,0.0,0.0,0.0,0.0,0.0,0.0,0.0,0.0,0.0,0.0,0.0,0.0,0.0,,,,,,,,,,,,,
164,205984,1745468802949,0.0,125.0,,-0.06,0.07,1.02,1.0,0.0,0.0,1.02,1.37,75.0,2499.0,0.0,3.23,,13.33,1.252,66.4,,38.8,5.0,0.0,0.0,0.0,0.0,0.0,0.0,0.0,0.0,2.27,,,0.0,0.0,0.0,0.0,0.0,0.0,0.0,0.0,0.0,0.0,0.0,0.0,0.0,0.0,0.0,0.0,,0.0,,,,0.0,38.9907,-76.939858,0.08,32.2,23.0,2.0,1.1
165,206004,1745468802969,,,,,,,,,,,,,,,,,,,,,,,,,,,,,,,,,,0.0,0.0,0.0,0.0,0.0,0.0,0.0,0.0,0.0,0.0,0.0,0.0,0.0,0.0,0.0,0.0,,,,,,,,,,,,,
166,206024,1745468802989,0.0,119.0,,-0.05,0.03,1.01,1.0,0.0,0.0,1.02,1.37,74.0,2414.0,0.0,3.22,,13.33,1.252,66.4,,42.8,5.0,,,,,,,,,,,,0.0,0.0,0.0,0.0,0.0,0.0,0.0,0.0,0.0,0.0,0.0,0.0,0.0,0.0,0.0,0.0,,,,,,0.0,,,,,,,
167,206044,1745468802997,,,,,,,,,,,,,,,,,,,,,,,,,,,,,,,,,,0.0,0.0,0.0,0.0,0.0,0.0,0.0,0.0,0.0,0.0,0.0,0.0,0.0,0.0,0.0,0.0,,,,,,,,,,,,,
168,206064,1745468803017,0.0,119.0,,-0.05,0.03,1.0,0.0,0.0,0.0,1.0,1.37,73.0,2414.0,0.0,3.22,,13.35,1.251,66.4,,42.8,5.0,,,,,,,,,,,,0.0,0.0,0.0,0.0,0.0,0.0,0.0,0.0,0.0,0.0,0.0,0.0,0.0,0.0,0.0,0.0,,,,,,0.0,,,,,,,
169,206084,1745468803037,,,,,,,,,,,,,,,,,,,,,,,0.0,0.0,0.0,0.0,0.0,0.0,0.0,0.0,2.27,,,0.0,0.0,0.0,0.0,0.0,0.0,0.0,0.0,0.0,0.0,0.0,0.0,0.0,0.0,0.0,0.0,,0.0,,,,,38.9907,-76.939858,0.13,32.2,23.0,2.0,1.1
170,206104,1745468803057,0.0,115.0,,-0.05,0.0,1.02,0.0,0.0,0.0,1.02,1.37,75.0,2408.0,0.0,3.28,,13.39,1.25,66.4,,42.1,5.0,,,,,,,,,,,,0.0,0.0,0.0,0.0,0.0,0.0,0.0,0.0,0.0,0.0,0.0,0.0,0.0,0.0,0.0,0.0,,,,,,0.0,,,,,,,
171,206124,1745468803077,,,,,,,,,,,,,,,,,,,,,,,,,,,,,,,,,,0.0,0.0,0.0,0.0,0.0,0.0,0.0,0.0,0.0,0.0,0.0,0.0,0.0,0.0,0.0,0.0,,,,,,,,,,,,,
172,206144,1745468803102,0.0,115.0,,-0.05,0.02,1.01,0.0,0.0,0.0,1.02,1.37,74.0,2435.0,0.0,3.24,,13.4,1.25,66.4,,42.1,5.0,,,,,,,,,,,,0.0,0.0,0.0,0.0,0.0,0.0,0.0,0.0,0.0,0.0,0.0,0.0,0.0,0.0,0.0,0.0,,,,,,0.0,,,,,,,
173,206164,1745468803122,,,,,,,,,,,,,,,,,,,,,,,,,,,,,,,,,,0.0,0.0,0.0,0.0,0.0,0.0,0.0,0.0,0.0,0.0,0.0,0.0,0.0,0.0,0.0,0.0,,,,,,,,,,,,,
174,206184,1745468803142,0.0,132.0,,-0.05,0.03,1.01,0.0,0.0,0.0,1.01,1.37,74.0,2457.0,0.0,3.25,,13.37,1.249,66.4,,42.1,5.0,0.0,0.0,0.0,0.0,0.0,0.0,0.0,0.0,2.28,,,0.0,0.0,0.0,0.0,0.0,0.0,0.0,0.0,0.0,0.0,0.0,0.0,0.0,0.0,0.0,0.0,,0.0,,,,0.0,38.9907,-76.939858,0.11,32.2,23.0,2.0,1.1
175,206204,1745468803162,,,,,,,,,,,,,,,,,,,,,,,,,,,,,,,,,,0.0,0.0,0.0,0.0,0.0,0.0,0.0,0.0,0.0,0.0,0.0,0.0,0.0,0.0,0.0,0.0,,,,,,,,,,,,,
176,206224,1745468803182,0.0,119.0,,-0.06,0.03,1.01,0.0,0.0,0.0,1.01,1.37,74.0,2477.0,0.0,3.23,,13.37,1.249,66.4,,42.8,5.0,,,,,,,,,,,,0.0,0.0,0.0,0.0,0.0,0.0,0.0,0.0,0.0,0.0,0.0,0.0,0.0,0.0,0.0,0.0,,,,,,0.0,,,,,,,
177,206244,1745468803208,,,,,,,,,,,,,,,,,,,,,,,,,,,,,,,,,,0.0,0.0,0.0,0.0,0.0,0.0,0.0,0.0,0.0,0.0,0.0,0.0,0.0,0.0,0.0,0.0,,,,,,,,,,,,,
178,206264,1745468803228,0.0,132.0,,-0.07,0.03,1.03,0.0,0.0,0.0,1.03,1.37,75.0,2477.0,0.0,3.23,,13.35,1.25,66.4,,42.8,5.0,,,,,,,,,,,,0.0,0.0,0.0,0.0,0.0,0.0,0.0,0.0,0.0,0.0,0.0,0.0,0.0,0.0,0.0,0.0,,,,,,0.0,,,,,,,
179,206284,1745468803248,,,,,,,,,,,,,,,,,,,,,,,0.0,0.0,0.0,0.0,0.0,0.0,0.0,0.0,2.28,,,0.0,0.0,0.0,0.0,0.0,0.0,0.0,0.0,0.0,0.0,0.0,0.0,0.0,0.0,0.0,0.0,,0.0,,,,,38.9907,-76.939858,0.14,32.2,23.0,2.0,1.1
180,206304,1745468803268,0.0,122.0,,-0.07,0.03,1.02,0.0,0.0,0.0,1.02,1.37,75.0,2283.0,0.0,3.29,,13.45,1.25,66.4,,40.8,5.0,,,,,,,,,,,,0.0,0.0,0.0,0.0,0.0,0.0,0.0,0.0,0.0,0.0,0.0,0.0,0.0,0.0,0.0,0.0,,,,,,0.0,,,,,,,
181,206324,1745468803288,,,,,,,,,,,,,,,,,,,,,,,,,,,,,,,,,,0.0,0.0,0.0,0.0,0.0,0.0,0.0,0.0,0.0,0.0,0.0,0.0,0.0,0.0,0.0,0.0,,,,,,,,,,,,,
182,206344,1745468803308,0.0,115.0,,-0.07,0.03,1.01,0.0,0.0,0.0,1.02,1.37,74.0,2462.0,0.0,3.26,,13.4,1.252,66.4,,40.8,5.0,,,,,,,,,,,,0.0,0.0,0.0,0.0,0.0,0.0,0.0,0.0,0.0,0.0,0.0,0.0,0.0,0.0,0.0,0.0,,,,,,0.0,,,,,,,
183,206364,1745468803328,,,,,,,,,,,,,,,,,,,,,,,,,,,,,,,,,,0.0,0.0,0.0,0.0,0.0,0.0,0.0,0.0,0.0,0.0,0.0,0.0,0.0,0.0,0.0,0.0,,,,,,,,,,,,,
184,206384,1745468803348,0.0,119.0,13.31,-0.06,0.01,1.01,0.0,0.0,0.0,1.01,1.37,74.0,2432.0,0.0,3.24,15.0,13.4,1.253,66.4,77.0,40.8,5.0,0.0,0.0,0.0,0.0,0.0,0.0,0.0,0.0,2.28,0.0,1.0,0.0,0.0,0.0,0.0,0.0,0.0,0.0,0.0,0.0,0.0,0.0,0.0,0.0,0.0,0.0,0.0,0.0,0.0,1.0,0.0,0.0,0.0,38.9907,-76.939858,0.04,32.2,23.0,2.0,1.1
185,206404,1745468803368,,,,,,,,,,,,,,,,,,,,,,,,,,,,,,,,,,0.0,0.0,0.0,0.0,0.0,0.0,0.0,0.0,0.0,0.0,0.0,0.0,0.0,0.0,0.0,0.0,,,,,,,,,,,,,
186,206424,1745468803388,0.0,115.0,,-0.06,0.01,1.0,0.0,0.0,0.0,1.0,1.37,73.0,2357.0,0.0,3.27,,13.4,1.253,66.4,,41.0,5.0,,,,,,,,,,,,0.0,0.0,0.0,0.0,0.0,0.0,0.0,0.0,0.0,0.0,0.0,0.0,0.0,0.0,0.0,0.0,,,,,,0.0,,,,,,,
187,206444,1745468803408,,,,,,,,,,,,,,,,,,,,,,,,,,,,,,,,,,0.0,0.0,0.0,0.0,0.0,0.0,0.0,0.0,0.0,0.0,0.0,0.0,0.0,0.0,0.0,0.0,,,,,,,,,,,,,
188,206464,1745468803428,0.0,122.0,,-0.05,0.0,1.0,0.0,0.0,0.0,1.0,1.37,73.0,2357.0,0.0,3.27,,13.43,1.253,66.4,,41.0,5.0,,,,,,,,,,,,0.0,0.0,0.0,0.0,0.0,0.0,0.0,0.0,0.0,0.0,0.0,0.0,0.0,0.0,0.0,0.0,,,,,,0.0,,,,,,,
189,206484,1745468803448,,,,,,,,,,,,,,,,,,,,,,,0.0,0.0,0.0,0.0,0.0,0.0,0.0,0.0,2.27,,,0.0,0.0,0.0,0.0,0.0,0.0,0.0,0.0,0.0,0.0,0.0,0.0,0.0,0.0,0.0,0.0,,0.0,,,,,38.9907,-76.939858,0.04,32.2,23.0,2.0,1.1
190,206504,1745468803468,0.0,119.0,,-0.07,0.02,1.0,0.0,0.0,0.0,1.01,1.37,73.0,2301.0,0.0,3.33,,13.44,1.252,66.4,,38.1,5.0,,,,,,,,,,,,0.0,0.0,0.0,0.0,0.0,0.0,0.0,0.0,0.0,0.0,0.0,0.0,0.0,0.0,0.0,0.0,,,,,,0.0,,,,,,,
191,206524,1745468803488,,,,,,,,,,,,,,,,,,,,,,,,,,,,,,,,,,0.0,0.0,0.0,0.0,0.0,0.0,0.0,0.0,0.0,0.0,0.0,0.0,0.0,0.0,0.0,0.0,,,,,,,,,,,,,
192,206544,1745468803507,0.0,129.0,,-0.07,0.0,0.99,0.0,0.0,0.0,1.0,1.37,73.0,2204.0,0.0,3.3,,13.52,1.252,66.4,,38.1,5.0,,,,,,,,,,,,0.0,0.0,0.0,0.0,0.0,0.0,0.0,0.0,0.0,0.0,0.0,0.0,0.0,0.0,0.0,0.0,,,,,,0.0,,,,,,,
193,206564,1745468803527,,,,,,,,,,,,,,,,,,,,,,,,,,,,,,,,,,0.0,0.0,0.0,0.0,0.0,0.0,0.0,0.0,0.0,0.0,0.0,0.0,0.0,0.0,0.0,0.0,,,,,,,,,,,,,
194,206584,1745468803547,0.0,132.0,,-0.07,-0.02,1.01,0.0,0.0,0.0,1.01,1.37,73.0,2353.0,0.0,3.36,,13.47,1.25,66.4,,38.1,5.0,0.0,0.0,0.0,0.0,0.0,0.0,0.0,0.0,2.27,,,0.0,0.0,0.0,0.0,0.0,0.0,0.0,0.0,0.0,0.0,0.0,0.0,0.0,0.0,0.0,0.0,,0.0,,,,0.0,38.9907,-76.939858,0.0,32.2,23.0,2.0,1.1
195,206604,1745468803567,,,,,,,,,,,,,,,,,,,,,,,,,,,,,,,,,,0.0,0.0,0.0,0.0,0.0,0.0,0.0,0.0,0.0,0.0,0.0,0.0,0.0,0.0,0.0,0.0,,,,,,,,,,,,,
196,206624,1745468803587,0.0,122.0,,-0.07,-0.03,1.02,0.0,0.0,0.0,1.02,1.37,74.0,2444.0,0.0,3.24,,13.47,1.25,66.4,,43.1,5.0,,,,,,,,,,,,0.0,0.0,0.0,0.0,0.0,0.0,0.0,0.0,0.0,0.0,0.0,0.0,0.0,0.0,0.0,0.0,,,,,,0.0,,,,,,,
197,206644,1745468803608,,,,,,,,,,,,,,,,,,,,,,,,,,,,,,,,,,0.0,0.0,0.0,0.0,0.0,0.0,0.0,0.0,0.0,0.0,0.0,0.0,0.0,0.0,0.0,0.0,,,,,,,,,,,,,
198,206664,1745468803628,0.0,112.0,,-0.07,-0.01,1.01,0.0,0.0,0.0,1.01,1.37,74.0,2444.0,0.0,3.24,,13.41,1.25,66.4,,43.1,5.0,,,,,,,,,,,,0.0,0.0,0.0,0.0,0.0,0.0,0.0,0.0,0.0,0.0,0.0,0.0,0.0,0.0,0.0,0.0,,,,,,0.0,,,,,,,
199,206684,1745468803648,,,,,,,,,,,,,,,,,,,,,,,0.0,0.0,0.0,0.0,0.0,0.0,0.0,0.0,2.28,,,0.0,0.0,0.0,0.0,0.0,0.0,0.0,0.0,0.0,0.0,0.0,0.0,0.0,0.0,0.0,0.0,,0.0,,,,,38.9907,-76.939858,0.05,32.2,23.0,2.0,1.1
200,206704,1745468803668,0.0,108.0,,-0.07,-0.01,1.01,0.0,0.0,0.0,1.01,1.37,74.0,2331.0,0.0,3.25,,13.47,1.25,66.4,,42.3,5.0,,,,,,,,,,,,0.0,0.0,0.0,0.0,0.0,0.0,0.0,0.0,0.0,0.0,0.0,0.0,0.0,0.0,0.0,0.0,,,,,,0.0,,,,,,,
201,206724,1745468803688,,,,,,,,,,,,,,,,,,,,,,,,,,,,,,,,,,0.0,0.0,0.0,0.0,0.0,0.0,0.0,0.0,0.0,0.0,0.0,0.0,0.0,0.0,0.0,0.0,,,,,,,,,,,,,
202,206744,1745468803706,0.0,115.0,,-0.06,-0.03,0.99,0.0,0.0,0.0,1.0,1.37,73.0,2356.0,0.0,3.28,,13.48,1.25,66.4,,42.3,5.0,,,,,,,,,,,,0.0,0.0,0.0,0.0,0.0,0.0,0.0,0.0,0.0,0.0,0.0,0.0,0.0,0.0,0.0,0.0,,,,,,0.0,,,,,,,
203,206764,1745468803726,,,,,,,,,,,,,,,,,,,,,,,,,,,,,,,,,,0.0,0.0,0.0,0.0,0.0,0.0,0.0,0.0,0.0,0.0,0.0,0.0,0.0,0.0,0.0,0.0,,,,,,,,,,,,,
204,206784,1745468803746,0.0,129.0,,-0.06,-0.02,1.0,0.0,0.0,0.0,1.0,1.37,73.0,2444.0,0.0,3.3,,13.43,1.251,66.4,,42.3,5.0,0.0,0.0,0.0,0.0,0.0,0.0,0.0,0.0,2.29,,,0.0,0.0,0.0,0.0,0.0,0.0,0.0,0.0,0.0,0.0,0.0,0.0,0.0,0.0,0.0,0.0,,0.0,,,,0.0,38.9907,-76.939858,0.08,32.2,23.0,2.0,1.1
205,206804,1745468803766,,,,,,,,,,,,,,,,,,,,,,,,,,,,,,,,,,0.0,0.0,0.0,0.0,0.0,0.0,0.0,0.0,0.0,0.0,0.0,0.0,0.0,0.0,0.0,0.0,,,,,,,,,,,,,
206,206824,1745468803786,0.0,129.0,,-0.06,-0.04,1.01,0.0,0.0,0.0,1.02,1.37,74.0,2461.0,0.0,3.22,,13.43,1.251,66.4,,43.6,5.0,,,,,,,,,,,,0.0,0.0,0.0,0.0,0.0,0.0,0.0,0.0,0.0,0.0,0.0,0.0,0.0,0.0,0.0,0.0,,,,,,0.0,,,,,,,
207,206844,1745468803808,,,,,,,,,,,,,,,,,,,,,,,,,,,,,,,,,,0.0,0.0,0.0,0.0,0.0,0.0,0.0,0.0,0.0,0.0,0.0,0.0,0.0,0.0,0.0,0.0,,,,,,,,,,,,,
208,206864,1745468803828,0.0,132.0,,-0.05,-0.06,1.0,0.0,0.0,0.0,1.01,1.37,73.0,2461.0,0.0,3.22,,13.37,1.251,66.4,,43.6,5.0,,,,,,,,,,,,0.0,0.0,0.0,0.0,0.0,0.0,0.0,0.0,0.0,0.0,0.0,0.0,0.0,0.0,0.0,0.0,,,,,,0.0,,,,,,,
209,206884,1745468803848,,,,,,,,,,,,,,,,,,,,,,,0.0,0.0,0.0,0.0,0.0,0.0,0.0,0.0,2.28,,,0.0,0.0,0.0,0.0,0.0,0.0,0.0,0.0,0.0,0.0,0.0,0.0,0.0,0.0,0.0,0.0,,0.0,,,,,38.9907,-76.939858,0.08,32.2,23.0,2.0,1.1
210,206904,1745468803868,0.0,129.0,,-0.05,-0.05,0.99,0.0,0.0,0.0,0.99,1.37,72.0,2267.0,0.0,3.25,,13.47,1.252,66.4,,39.3,5.0,,,,,,,,,,,,0.0,0.0,0.0,0.0,0.0,0.0,0.0,0.0,0.0,0.0,0.0,0.0,0.0,0.0,0.0,0.0,,,,,,0.0,,,,,,,
211,206924,1745468803888,,,,,,,,,,,,,,,,,,,,,,,,,,,,,,,,,,0.0,0.0,0.0,0.0,0.0,0.0,0.0,0.0,0.0,0.0,0.0,0.0,0.0,0.0,0.0,0.0,,,,,,,,,,,,,
212,206944,1745468803908,0.0,135.0,,-0.05,-0.06,1.0,0.0,0.0,0.0,1.0,1.37,73.0,2221.0,0.0,3.31,,13.53,1.253,66.4,,39.3,5.0,,,,,,,,,,,,0.0,0.0,0.0,0.0,0.0,0.0,0.0,0.0,0.0,0.0,0.0,0.0,0.0,0.0,0.0,0.0,,,,,,0.0,,,,,,,
213,206964,1745468803928,,,,,,,,,,,,,,,,,,,,,,,,,,,,,,,,,,0.0,0.0,0.0,0.0,0.0,0.0,0.0,0.0,0.0,0.0,0.0,0.0,0.0,0.0,0.0,0.0,,,,,,,,,,,,,
214,206984,1745468803948,0.0,122.0,,-0.07,-0.05,0.99,0.0,0.0,0.0,0.99,1.37,72.0,2396.0,0.0,3.34,,13.53,1.253,66.4,,39.3,5.0,0.0,0.0,0.0,0.0,0.0,0.0,0.0,0.0,2.27,,,0.0,0.0,0.0,0.0,0.0,0.0,0.0,0.0,0.0,0.0,0.0,0.0,0.0,0.0,0.0,0.0,,0.0,,,,0.0,38.9907,-76.939858,0.04,32.1,23.0,2.0,1.1
215,207004,1745468803968,,,,,,,,,,,,,,,,,,,,,,,,,,,,,,,,,,0.0,0.0,0.0,0.0,0.0,0.0,0.0,0.0,0.0,0.0,0.0,0.0,0.0,0.0,0.0,0.0,,,,,,,,,,,,,
216,207024,1745468803988,0.0,122.0,,-0.06,-0.04,0.97,0.0,0.0,0.0,0.97,1.37,71.0,2467.0,0.0,3.23,,13.53,1.253,66.4,,43.0,5.0,,,,,,,,,,,,0.0,0.0,0.0,0.0,0.0,0.0,0.0,0.0,0.0,0.0,0.0,0.0,0.0,0.0,0.0,0.0,,,,,,0.0,,,,,,,
217,207044,1745468803997,,,,,,,,,,,,,,,,,,,,,,,,,,,,,,,,,,0.0,0.0,0.0,0.0,0.0,0.0,0.0,0.0,0.0,0.0,0.0,0.0,0.0,0.0,0.0,0.0,,,,,,,,,,,,,
218,207064,1745468804017,0.0,119.0,,-0.08,-0.03,0.98,0.0,0.0,0.0,0.98,1.37,72.0,2467.0,0.0,3.23,,13.44,1.253,66.4,,43.0,5.0,,,,,,,,,,,,0.0,0.0,0.0,0.0,0.0,0.0,0.0,0.0,0.0,0.0,0.0,0.0,0.0,0.0,0.0,0.0,,,,,,0.0,,,,,,,
219,207084,1745468804037,,,,,,,,,,,,,,,,,,,,,,,0.0,0.0,0.0,0.0,0.0,0.0,0.0,0.0,2.27,,,0.0,0.0,0.0,0.0,0.0,0.0,0.0,0.0,0.0,0.0,0.0,0.0,0.0,0.0,0.0,0.0,,0.0,,,,,38.9907,-76.939858,0.07,32.1,23.0,2.0,1.1
220,207104,1745468804057,0.0,119.0,,-0.07,-0.03,0.98,0.0,0.0,0.0,0.98,1.37,72.0,2374.0,0.0,3.24,,13.49,1.252,66.4,,41.9,5.0,,,,,,,,,,,,0.0,0.0,0.0,0.0,0.0,0.0,0.0,0.0,0.0,0.0,0.0,0.0,0.0,0.0,0.0,0.0,,,,,,0.0,,,,,,,
221,207124,1745468804077,,,,,,,,,,,,,,,,,,,,,,,,,,,,,,,,,,0.0,0.0,0.0,0.0,0.0,0.0,0.0,0.0,0.0,0.0,0.0,0.0,0.0,0.0,0.0,0.0,,,,,,,,,,,,,
222,207144,1745468804105,0.0,125.0,,-0.05,-0.05,0.97,0.0,0.0,0.0,0.97,1.37,71.0,2300.0,0.0,3.28,,13.49,1.251,66.4,,41.9,5.0,,,,,,,,,,,,0.0,0.0,0.0,0.0,0.0,0.0,0.0,0.0,0.0,0.0,0.0,0.0,0.0,0.0,0.0,0.0,,,,,,0.0,,,,,,,
223,207164,1745468804125,,,,,,,,,,,,,,,,,,,,,,,,,,,,,,,,,,0.0,0.0,0.0,0.0,0.0,0.0,0.0,0.0,0.0,0.0,0.0,0.0,0.0,0.0,0.0,0.0,,,,,,,,,,,,,
224,207184,1745468804145,0.0,132.0,,-0.06,-0.03,0.97,-1.0,0.0,0.0,0.98,1.37,71.0,2158.0,0.0,3.3,,13.52,1.25,66.4,,41.9,5.0,0.0,0.0,0.0,0.0,0.0,0.0,0.0,0.0,2.27,,,0.0,0.0,0.0,0.0,0.0,0.0,0.0,0.0,0.0,0.0,0.0,0.0,0.0,0.0,0.0,0.0,,0.0,,,,0.0,38.9907,-76.939858,0.2,32.1,23.0,2.0,1.1
225,207204,1745468804165,,,,,,,,,,,,,,,,,,,,,,,,,,,,,,,,,,0.0,0.0,0.0,0.0,0.0,0.0,0.0,0.0,0.0,0.0,0.0,0.0,0.0,0.0,0.0,0.0,,,,,,,,,,,,,
226,207224,1745468804185,0.0,115.0,,-0.05,-0.01,0.99,0.0,0.0,0.0,0.99,1.37,72.0,2092.0,0.0,3.43,,13.52,1.25,66.4,,37.3,5.0,,,,,,,,,,,,0.0,0.0,0.0,0.0,0.0,0.0,0.0,0.0,0.0,0.0,0.0,0.0,0.0,0.0,0.0,0.0,,,,,,0.0,,,,,,,
227,207244,1745468804207,,,,,,,,,,,,,,,,,,,,,,,,,,,,,,,,,,0.0,0.0,0.0,0.0,0.0,0.0,0.0,0.0,0.0,0.0,0.0,0.0,0.0,0.0,0.0,0.0,,,,,,,,,,,,,
228,207264,1745468804227,0.0,122.0,,-0.06,0.0,0.99,0.0,0.0,0.0,0.99,1.37,72.0,2092.0,0.0,3.43,,13.69,1.251,66.4,,37.3,5.0,,,,,,,,,,,,0.0,0.0,0.0,0.0,0.0,0.0,0.0,0.0,0.0,0.0,0.0,0.0,0.0,0.0,0.0,0.0,,,,,,0.0,,,,,,,
229,207284,1745468804247,,,,,,,,,,,,,,,,,,,,,,,0.0,0.0,0.0,0.0,0.0,0.0,0.0,0.0,2.28,,,0.0,0.0,0.0,0.0,0.0,0.0,0.0,0.0,0.0,0.0,0.0,0.0,0.0,0.0,0.0,0.0,,0.0,,,,,38.9907,-76.939858,0.08,32.1,23.0,2.0,1.1
230,207304,1745468804267,0.0,108.0,,-0.06,-0.01,1.02,0.0,0.0,0.0,1.02,1.37,74.0,2420.0,0.0,3.32,,13.57,1.25,66.4,,44.6,5.0,,,,,,,,,,,,0.0,0.0,0.0,0.0,0.0,0.0,0.0,0.0,0.0,0.0,0.0,0.0,0.0,0.0,0.0,0.0,,,,,,0.0,,,,,,,
231,207324,1745468804287,,,,,,,,,,,,,,,,,,,,,,,,,,,,,,,,,,0.0,0.0,0.0,0.0,0.0,0.0,0.0,0.0,0.0,0.0,0.0,0.0,0.0,0.0,0.0,0.0,,,,,,,,,,,,,
232,207344,1745468804308,0.0,119.0,,-0.05,0.01,1.02,0.0,0.0,0.0,1.02,1.37,75.0,2423.0,0.0,3.27,,13.55,1.25,66.4,,44.6,5.0,,,,,,,,,,,,0.0,0.0,0.0,0.0,0.0,0.0,0.0,0.0,0.0,0.0,0.0,0.0,0.0,0.0,0.0,0.0,,,,,,0.0,,,,,,,
233,207364,1745468804328,,,,,,,,,,,,,,,,,,,,,,,,,,,,,,,,,,0.0,0.0,0.0,0.0,0.0,0.0,0.0,0.0,0.0,0.0,0.0,0.0,0.0,0.0,0.0,0.0,,,,,,,,,,,,,
234,207384,1745468804348,0.0,115.0,13.33,-0.06,0.03,1.01,0.0,0.0,0.0,1.01,1.37,74.0,2367.0,0.0,3.27,15.0,13.51,1.251,66.4,79.0,44.6,5.0,0.0,0.0,0.0,0.0,0.0,0.0,0.0,0.0,2.29,0.0,1.0,0.0,0.0,0.0,0.0,0.0,0.0,0.0,0.0,0.0,0.0,0.0,0.0,0.0,0.0,0.0,0.0,0.0,0.0,1.0,0.0,0.0,0.0,38.9907,-76.939858,0.05,32.1,23.0,2.0,1.1
235,207404,1745468804368,,,,,,,,,,,,,,,,,,,,,,,,,,,,,,,,,,0.0,0.0,0.0,0.0,0.0,0.0,0.0,0.0,0.0,0.0,0.0,0.0,0.0,0.0,0.0,0.0,,,,,,,,,,,,,
236,207424,1745468804388,0.0,119.0,,-0.05,0.01,1.01,0.0,0.0,0.0,1.01,1.37,73.0,2361.0,0.0,3.27,,13.51,1.251,66.4,,43.2,5.0,,,,,,,,,,,,0.0,0.0,0.0,0.0,0.0,0.0,0.0,0.0,0.0,0.0,0.0,0.0,0.0,0.0,0.0,0.0,,,,,,0.0,,,,,,,
237,207444,1745468804407,,,,,,,,,,,,,,,,,,,,,,,,,,,,,,,,,,0.0,0.0,0.0,0.0,0.0,0.0,0.0,0.0,0.0,0.0,0.0,0.0,0.0,0.0,0.0,0.0,,,,,,,,,,,,,
238,207464,1745468804427,0.0,132.0,,-0.05,0.01,0.99,0.0,0.0,0.0,0.99,1.37,72.0,2361.0,0.0,3.27,,13.52,1.252,66.4,,43.2,5.0,,,,,,,,,,,,0.0,0.0,0.0,0.0,0.0,0.0,0.0,0.0,0.0,0.0,0.0,0.0,0.0,0.0,0.0,0.0,,,,,,0.0,,,,,,,
239,207484,1745468804447,,,,,,,,,,,,,,,,,,,,,,,0.0,0.0,0.0,0.0,0.0,0.0,0.0,0.0,2.28,,,0.0,0.0,0.0,0.0,0.0,0.0,0.0,0.0,0.0,0.0,0.0,0.0,0.0,0.0,0.0,0.0,,0.0,,,,,38.9907,-76.939858,0.16,32.1,23.0,2.0,1.1
240,207504,1745468804467,0.0,129.0,,-0.05,0.0,0.99,0.0,0.0,0.0,0.99,1.37,72.0,2341.0,0.0,3.27,,13.44,1.252,66.4,,42.6,5.0,,,,,,,,,,,,0.0,0.0,0.0,0.0,0.0,0.0,0.0,0.0,0.0,0.0,0.0,0.0,0.0,0.0,0.0,0.0,,,,,,0.0,,,,,,,
241,207524,1745468804487,,,,,,,,,,,,,,,,,,,,,,,,,,,,,,,,,,0.0,0.0,0.0,0.0,0.0,0.0,0.0,0.0,0.0,0.0,0.0,0.0,0.0,0.0,0.0,0.0,,,,,,,,,,,,,
242,207544,1745468804507,0.0,125.0,,-0.06,0.01,1.02,0.0,0.0,0.0,1.03,1.37,75.0,2327.0,0.0,3.28,,13.51,1.252,66.4,,42.6,5.0,,,,,,,,,,,,0.0,0.0,0.0,0.0,0.0,0.0,0.0,0.0,0.0,0.0,0.0,0.0,0.0,0.0,0.0,0.0,,,,,,0.0,,,,,,,
243,207564,1745468804527,,,,,,,,,,,,,,,,,,,,,,,,,,,,,,,,,,0.0,0.0,0.0,0.0,0.0,0.0,0.0,0.0,0.0,0.0,0.0,0.0,0.0,0.0,0.0,0.0,,,,,,,,,,,,,
244,207584,1745468804547,0.0,122.0,,-0.05,0.01,1.02,0.0,0.0,0.0,1.03,1.37,75.0,2370.0,0.0,3.31,,13.48,1.253,66.4,,42.6,5.0,0.0,0.0,0.0,0.0,0.0,0.0,0.0,0.0,2.27,,,0.0,0.0,0.0,0.0,0.0,0.0,0.0,0.0,0.0,0.0,0.0,0.0,0.0,0.0,0.0,0.0,,0.0,,,,0.0,38.9907,-76.939858,0.16,32.1,23.0,2.0,1.1
245,207604,1745468804567,,,,,,,,,,,,,,,,,,,,,,,,,,,,,,,,,,0.0,0.0,0.0,0.0,0.0,0.0,0.0,0.0,0.0,0.0,0.0,0.0,0.0,0.0,0.0,0.0,,,,,,,,,,,,,
246,207624,1745468804587,0.0,108.0,,-0.05,0.0,1.02,0.0,0.0,0.0,1.02,1.37,75.0,2435.0,0.0,3.26,,13.48,1.253,66.4,,44.2,5.0,,,,,,,,,,,,0.0,0.0,0.0,0.0,0.0,0.0,0.0,0.0,0.0,0.0,0.0,0.0,0.0,0.0,0.0,0.0,,,,,,0.0,,,,,,,
247,207644,1745468804607,,,,,,,,,,,,,,,,,,,,,,,,,,,,,,,,,,0.0,0.0,0.0,0.0,0.0,0.0,0.0,0.0,0.0,0.0,0.0,0.0,0.0,0.0,0.0,0.0,,,,,,,,,,,,,
248,207664,1745468804627,0.0,112.0,,-0.06,-0.0,1.04,0.0,0.0,0.0,1.04,1.37,76.0,2435.0,0.0,3.26,,13.43,1.252,66.4,,44.2,5.0,,,,,,,,,,,,0.0,0.0,0.0,0.0,0.0,0.0,0.0,0.0,0.0,0.0,0.0,0.0,0.0,0.0,0.0,0.0,,,,,,0.0,,,,,,,
249,207684,1745468804647,,,,,,,,,,,,,,,,,,,,,,,0.0,0.0,0.0,0.0,0.0,0.0,0.0,0.0,2.27,,,0.0,0.0,0.0,0.0,0.0,0.0,0.0,0.0,0.0,0.0,0.0,0.0,0.0,0.0,0.0,0.0,,0.0,,,,,38.9907,-76.939858,0.07,32.1,23.0,2.0,1.1
250,207704,1745468804667,0.0,119.0,,-0.06,0.02,1.04,0.0,0.0,0.0,1.04,1.37,76.0,2369.0,0.0,3.26,,13.44,1.251,66.4,,38.6,5.0,,,,,,,,,,,,0.0,0.0,0.0,0.0,0.0,0.0,0.0,0.0,0.0,0.0,0.0,0.0,0.0,0.0,0.0,0.0,,,,,,0.0,,,,,,,
251,207724,1745468804687,,,,,,,,,,,,,,,,,,,,,,,,,,,,,,,,,,0.0,0.0,0.0,0.0,0.0,0.0,0.0,0.0,0.0,0.0,0.0,0.0,0.0,0.0,0.0,0.0,,,,,,,,,,,,,
252,207744,1745468804707,0.0,122.0,,-0.07,0.02,1.03,0.0,0.0,0.0,1.03,1.37,75.0,2090.0,0.0,3.36,,13.61,1.251,66.4,,38.6,5.0,,,,,,,,,,,,0.0,0.0,0.0,0.0,0.0,0.0,0.0,0.0,0.0,0.0,0.0,0.0,0.0,0.0,0.0,0.0,,,,,,0.0,,,,,,,
253,207764,1745468804727,,,,,,,,,,,,,,,,,,,,,,,,,,,,,,,,,,0.0,0.0,0.0,0.0,0.0,0.0,0.0,0.0,0.0,0.0,0.0,0.0,0.0,0.0,0.0,0.0,,,,,,,,,,,,,
254,207784,1745468804747,0.0,135.0,,-0.06,0.01,1.01,0.0,0.0,0.0,1.01,1.37,74.0,2184.0,0.0,3.43,,13.59,1.25,66.4,,38.6,5.0,0.0,0.0,0.0,0.0,0.0,0.0,0.0,0.0,2.28,,,0.0,0.0,0.0,0.0,0.0,0.0,0.0,0.0,0.0,0.0,0.0,0.0,0.0,0.0,0.0,0.0,,0.0,,,,0.0,38.9907,-76.939858,0.0,32.1,23.0,2.0,1.1
255,207804,1745468804767,,,,,,,,,,,,,,,,,,,,,,,,,,,,,,,,,,0.0,0.0,0.0,0.0,0.0,0.0,0.0,0.0,0.0,0.0,0.0,0.0,0.0,0.0,0.0,0.0,,,,,,,,,,,,,
256,207824,1745468804787,0.0,125.0,,-0.05,-0.01,1.03,-1.0,0.0,0.0,1.03,1.37,75.0,2328.0,0.0,3.31,,13.59,1.25,66.4,,43.5,5.0,,,,,,,,,,,,0.0,0.0,0.0,0.0,0.0,0.0,0.0,0.0,0.0,0.0,0.0,0.0,0.0,0.0,0.0,0.0,,,,,,0.0,,,,,,,
257,207844,1745468804807,,,,,,,,,,,,,,,,,,,,,,,,,,,,,,,,,,0.0,0.0,0.0,0.0,0.0,0.0,0.0,0.0,0.0,0.0,0.0,0.0,0.0,0.0,0.0,0.0,,,,,,,,,,,,,
258,207864,1745468804827,0.0,135.0,,-0.06,0.0,1.03,-1.0,0.0,0.0,1.03,1.37,75.0,2328.0,0.0,3.31,,13.56,1.251,66.4,,43.5,5.0,,,,,,,,,,,,0.0,0.0,0.0,0.0,0.0,0.0,0.0,0.0,0.0,0.0,0.0,0.0,0.0,0.0,0.0,0.0,,,,,,0.0,,,,,,,
259,207884,1745468804847,,,,,,,,,,,,,,,,,,,,,,,0.0,0.0,0.0,0.0,0.0,0.0,0.0,0.0,2.29,,,0.0,0.0,0.0,0.0,0.0,0.0,0.0,0.0,0.0,0.0,0.0,0.0,0.0,0.0,0.0,0.0,,0.0,,,,,38.9907,-76.939858,0.07,32.1,23.0,2.0,1.1
260,207904,1745468804867,0.0,108.0,,-0.06,0.01,1.02,0.0,0.0,0.0,1.02,1.37,74.0,2311.0,0.0,3.29,,13.51,1.251,66.4,,42.6,5.0,,,,,,,,,,,,0.0,0.0,0.0,0.0,0.0,0.0,0.0,0.0,0.0,0.0,0.0,0.0,0.0,0.0,0.0,0.0,,,,,,0.0,,,,,,,
261,207924,1745468804887,,,,,,,,,,,,,,,,,,,,,,,,,,,,,,,,,,0.0,0.0,0.0,0.0,0.0,0.0,0.0,0.0,0.0,0.0,0.0,0.0,0.0,0.0,0.0,0.0,,,,,,,,,,,,,
262,207944,1745468804907,0.0,112.0,,-0.06,0.02,1.01,0.0,0.0,0.0,1.01,1.37,73.0,2317.0,0.0,3.32,,13.56,1.252,66.4,,42.6,5.0,,,,,,,,,,,,0.0,0.0,0.0,0.0,0.0,0.0,0.0,0.0,0.0,0.0,0.0,0.0,0.0,0.0,0.0,0.0,,,,,,0.0,,,,,,,
263,207964,1745468804927,,,,,,,,,,,,,,,,,,,,,,,,,,,,,,,,,,0.0,0.0,0.0,0.0,0.0,0.0,0.0,0.0,0.0,0.0,0.0,0.0,0.0,0.0,0.0,0.0,,,,,,,,,,,,,
264,207984,1745468804947,0.0,125.0,,-0.06,-0.01,1.01,-1.0,0.0,0.0,1.01,1.37,73.0,2193.0,0.0,3.3,,13.6,1.253,66.4,,42.6,5.0,0.0,0.0,0.0,0.0,0.0,0.0,0.0,0.0,2.28,,,0.0,0.0,0.0,0.0,0.0,0.0,0.0,0.0,0.0,0.0,0.0,0.0,0.0,0.0,0.0,0.0,,0.0,,,,0.0,38.9907,-76.939858,0.07,32.1,23.0,2.0,1.1
265,208004,1745468804967,,,,,,,,,,,,,,,,,,,,,,,,,,,,,,,,,,0.0,0.0,0.0,0.0,0.0,0.0,0.0,0.0,0.0,0.0,0.0,0.0,0.0,0.0,0.0,0.0,,,,,,,,,,,,,
266,208024,1745468804987,0.0,108.0,,-0.07,0.02,1.02,-1.0,0.0,0.0,1.02,1.37,74.0,2288.0,0.0,3.4,,13.6,1.253,66.4,,41.7,5.0,,,,,,,,,,,,0.0,0.0,0.0,0.0,0.0,0.0,0.0,0.0,0.0,0.0,0.0,0.0,0.0,0.0,0.0,0.0,,,,,,0.0,,,,,,,
267,208044,1745468804998,,,,,,,,,,,,,,,,,,,,,,,,,,,,,,,,,,0.0,0.0,0.0,0.0,0.0,0.0,0.0,0.0,0.0,0.0,0.0,0.0,0.0,0.0,0.0,0.0,,,,,,,,,,,,,
268,208064,1745468805018,0.0,112.0,,-0.07,0.01,1.01,-1.0,0.0,0.0,1.01,1.37,73.0,2288.0,0.0,3.4,,13.59,1.253,66.4,,41.7,5.0,,,,,,,,,,,,0.0,0.0,0.0,0.0,0.0,0.0,0.0,0.0,0.0,0.0,0.0,0.0,0.0,0.0,0.0,0.0,,,,,,0.0,,,,,,,
269,208084,1745468805038,,,,,,,,,,,,,,,,,,,,,,,0.0,0.0,0.0,0.0,0.0,0.0,0.0,0.0,2.27,,,0.0,0.0,0.0,0.0,0.0,0.0,0.0,0.0,0.0,0.0,0.0,0.0,0.0,0.0,0.0,0.0,,0.0,,,,,38.9907,-76.939858,0.09,32.1,23.0,2.0,1.1
270,208104,1745468805058,0.0,132.0,,-0.07,0.01,1.0,-1.0,0.0,0.0,1.01,1.37,73.0,2415.0,0.0,3.26,,13.49,1.252,66.4,,43.8,5.0,,,,,,,,,,,,0.0,0.0,0.0,0.0,0.0,0.0,0.0,0.0,0.0,0.0,0.0,0.0,0.0,0.0,0.0,0.0,,,,,,0.0,,,,,,,
271,208124,1745468805078,,,,,,,,,,,,,,,,,,,,,,,,,,,,,,,,,,0.0,0.0,0.0,0.0,0.0,0.0,0.0,0.0,0.0,0.0,0.0,0.0,0.0,0.0,0.0,0.0,,,,,,,,,,,,,
272,208144,1745468805108,0.0,129.0,,-0.07,0.0,1.03,-1.0,0.0,0.0,1.03,1.37,75.0,2384.0,0.0,3.28,,13.47,1.252,66.4,,43.8,5.0,,,,,,,,,,,,0.0,0.0,0.0,0.0,0.0,0.0,0.0,0.0,0.0,0.0,0.0,0.0,0.0,0.0,0.0,0.0,,,,,,0.0,,,,,,,
273,208164,1745468805128,,,,,,,,,,,,,,,,,,,,,,,,,,,,,,,,,,0.0,0.0,0.0,0.0,0.0,0.0,0.0,0.0,0.0,0.0,0.0,0.0,0.0,0.0,0.0,0.0,,,,,,,,,,,,,
274,208184,1745468805148,0.0,135.0,,-0.06,-0.02,1.03,-1.0,0.0,0.0,1.03,1.37,75.0,2481.0,0.0,3.23,,13.39,1.251,66.4,,43.8,5.0,0.0,0.0,0.0,0.0,0.0,0.0,0.0,0.0,2.27,,,0.0,0.0,0.0,0.0,0.0,0.0,0.0,0.0,0.0,0.0,0.0,0.0,0.0,0.0,0.0,0.0,,0.0,,,,0.0,38.9907,-76.939858,0.08,32.1,23.0,2.0,1.1
275,208204,1745468805168,,,,,,,,,,,,,,,,,,,,,,,,,,,,,,,,,,0.0,0.0,0.0,0.0,0.0,0.0,0.0,0.0,0.0,0.0,0.0,0.0,0.0,0.0,0.0,0.0,,,,,,,,,,,,,
276,208224,1745468805188,0.0,122.0,,-0.06,-0.03,1.03,-1.0,0.0,0.0,1.03,1.37,75.0,2281.0,0.0,3.25,,13.39,1.251,66.4,,41.4,5.0,,,,,,,,,,,,0.0,0.0,0.0,0.0,0.0,0.0,0.0,0.0,0.0,0.0,0.0,0.0,0.0,0.0,0.0,0.0,,,,,,0.0,,,,,,,
277,208244,1745468805206,,,,,,,,,,,,,,,,,,,,,,,,,,,,,,,,,,0.0,0.0,0.0,0.0,0.0,0.0,0.0,0.0,0.0,0.0,0.0,0.0,0.0,0.0,0.0,0.0,,,,,,,,,,,,,
278,208264,1745468805226,0.0,122.0,,-0.05,-0.03,1.01,-1.0,0.0,0.0,1.02,1.37,74.0,2281.0,0.0,3.25,,13.45,1.25,66.4,,41.4,5.0,,,,,,,,,,,,0.0,0.0,0.0,0.0,0.0,0.0,0.0,0.0,0.0,0.0,0.0,0.0,0.0,0.0,0.0,0.0,,,,,,0.0,,,,,,,
279,208284,1745468805246,,,,,,,,,,,,,,,,,,,,,,,0.0,0.0,0.0,0.0,0.0,0.0,0.0,0.0,2.27,,,0.0,0.0,0.0,0.0,0.0,0.0,0.0,0.0,0.0,0.0,0.0,0.0,0.0,0.0,0.0,0.0,,0.0,,,,,38.9907,-76.939858,0.11,32.1,23.0,2.0,1.1
280,208304,1745468805266,0.0,119.0,,-0.05,-0.03,1.0,-1.0,0.0,0.0,1.0,1.37,73.0,2223.0,0.0,3.31,,13.57,1.251,66.4,,38.9,5.0,,,,,,,,,,,,0.0,0.0,0.0,0.0,0.0,0.0,0.0,0.0,0.0,0.0,0.0,0.0,0.0,0.0,0.0,0.0,,,,,,0.0,,,,,,,
281,208324,1745468805286,,,,,,,,,,,,,,,,,,,,,,,,,,,,,,,,,,0.0,0.0,0.0,0.0,0.0,0.0,0.0,0.0,0.0,0.0,0.0,0.0,0.0,0.0,0.0,0.0,,,,,,,,,,,,,
282,208344,1745468805308,0.0,115.0,,-0.04,-0.03,0.99,0.0,0.0,0.0,0.99,1.37,72.0,2096.0,0.0,3.33,,13.57,1.251,66.4,,38.9,5.0,,,,,,,,,,,,0.0,0.0,0.0,0.0,0.0,0.0,0.0,0.0,0.0,0.0,0.0,0.0,0.0,0.0,0.0,0.0,,,,,,0.0,,,,,,,
283,208364,1745468805328,,,,,,,,,,,,,,,,,,,,,,,,,,,,,,,,,,0.0,0.0,0.0,0.0,0.0,0.0,0.0,0.0,0.0,0.0,0.0,0.0,0.0,0.0,0.0,0.0,,,,,,,,,,,,,
284,208384,1745468805348,0.0,119.0,13.39,-0.06,-0.02,1.0,0.0,0.0,0.0,1.01,1.37,73.0,2250.0,0.0,3.39,15.0,13.57,1.251,66.4,79.0,38.9,5.0,0.0,0.0,0.0,0.0,0.0,0.0,0.0,0.0,2.29,0.0,1.0,0.0,0.0,0.0,0.0,0.0,0.0,0.0,0.0,0.0,0.0,0.0,0.0,0.0,0.0,0.0,0.0,0.0,0.0,1.0,0.0,0.0,0.0,38.9907,-76.939858,0.07,32.1,23.0,2.0,1.1
285,208404,1745468805368,,,,,,,,,,,,,,,,,,,,,,,,,,,,,,,,,,0.0,0.0,0.0,0.0,0.0,0.0,0.0,0.0,0.0,0.0,0.0,0.0,0.0,0.0,0.0,0.0,,,,,,,,,,,,,
286,208424,1745468805388,0.0,122.0,,-0.06,-0.03,1.02,0.0,0.0,0.0,1.03,1.37,75.0,2331.0,0.0,3.33,,13.57,1.251,66.4,,41.6,5.0,,,,,,,,,,,,0.0,0.0,0.0,0.0,0.0,0.0,0.0,0.0,0.0,0.0,0.0,0.0,0.0,0.0,0.0,0.0,,,,,,0.0,,,,,,,
287,208444,1745468805408,,,,,,,,,,,,,,,,,,,,,,,,,,,,,,,,,,0.0,0.0,0.0,0.0,0.0,0.0,0.0,0.0,0.0,0.0,0.0,0.0,0.0,0.0,0.0,0.0,,,,,,,,,,,,,
288,208464,1745468805428,0.0,132.0,,-0.05,-0.04,1.02,0.0,0.0,0.0,1.02,1.37,74.0,2331.0,0.0,3.33,,13.61,1.251,66.4,,41.6,5.0,,,,,,,,,,,,0.0,0.0,0.0,0.0,0.0,0.0,0.0,0.0,0.0,0.0,0.0,0.0,0.0,0.0,0.0,0.0,,,,,,0.0,,,,,,,
289,208484,1745468805448,,,,,,,,,,,,,,,,,,,,,,,0.0,0.0,0.0,0.0,0.0,0.0,0.0,0.0,2.28,,,0.0,0.0,0.0,0.0,0.0,0.0,0.0,0.0,0.0,0.0,0.0,0.0,0.0,0.0,0.0,0.0,,0.0,,,,,38.9907,-76.939858,0.0,32.1,23.0,2.0,1.1
290,208504,1745468805468,0.0,129.0,,-0.04,-0.04,1.03,0.0,0.0,0.0,1.03,1.37,75.0,2272.0,0.0,3.26,,13.57,1.252,66.4,,40.3,5.0,,,,,,,,,,,,0.0,0.0,0.0,0.0,0.0,0.0,0.0,0.0,0.0,0.0,0.0,0.0,0.0,0.0,0.0,0.0,,,,,,0.0,,,,,,,
291,208524,1745468805488,,,,,,,,,,,,,,,,,,,,,,,,,,,,,,,,,,0.0,0.0,0.0,0.0,0.0,0.0,0.0,0.0,0.0,0.0,0.0,0.0,0.0,0.0,0.0,0.0,,,,,,,,,,,,,
292,208544,1745468805508,0.0,125.0,,-0.04,-0.06,1.03,-1.0,0.0,0.0,1.03,1.37,75.0,2287.0,0.0,3.35,,13.55,1.253,66.4,,40.3,5.0,,,,,,,,,,,,0.0,0.0,0.0,0.0,0.0,0.0,0.0,0.0,0.0,0.0,0.0,0.0,0.0,0.0,0.0,0.0,,,,,,0.0,,,,,,,
293,208564,1745468805528,,,,,,,,,,,,,,,,,,,,,,,,,,,,,,,,,,0.0,0.0,0.0,0.0,0.0,0.0,0.0,0.0,0.0,0.0,0.0,0.0,0.0,0.0,0.0,0.0,,,,,,,,,,,,,
294,208584,1745468805548,0.0,115.0,,-0.05,-0.03,1.02,-1.0,0.0,0.0,1.03,1.37,75.0,2395.0,0.0,3.28,,13.53,1.253,66.4,,40.3,5.0,0.0,0.0,0.0,0.0,0.0,0.0,0.0,0.0,2.28,,,0.0,0.0,0.0,0.0,0.0,0.0,0.0,0.0,0.0,0.0,0.0,0.0,0.0,0.0,0.0,0.0,,0.0,,,,0.0,38.9907,-76.939858,0.0,32.1,23.0,2.0,1.1
295,208604,1745468805568,,,,,,,,,,,,,,,,,,,,,,,,,,,,,,,,,,0.0,0.0,0.0,0.0,0.0,0.0,0.0,0.0,0.0,0.0,0.0,0.0,0.0,0.0,0.0,0.0,,,,,,,,,,,,,
296,208624,1745468805588,0.0,108.0,,-0.06,-0.01,1.02,-1.0,0.0,0.0,1.03,1.37,75.0,2269.0,0.0,3.29,,13.53,1.253,66.4,,43.4,5.0,,,,,,,,,,,,0.0,0.0,0.0,0.0,0.0,0.0,0.0,0.0,0.0,0.0,0.0,0.0,0.0,0.0,0.0,0.0,,,,,,0.0,,,,,,,
297,208644,1745468805608,,,,,,,,,,,,,,,,,,,,,,,,,,,,,,,,,,0.0,0.0,0.0,0.0,0.0,0.0,0.0,0.0,0.0,0.0,0.0,0.0,0.0,0.0,0.0,0.0,,,,,,,,,,,,,
298,208664,1745468805628,0.0,122.0,,-0.06,-0.0,1.03,0.0,0.0,0.0,1.03,1.37,75.0,2269.0,0.0,3.29,,13.51,1.253,66.4,,43.4,5.0,,,,,,,,,,,,0.0,0.0,0.0,0.0,0.0,0.0,0.0,0.0,0.0,0.0,0.0,0.0,0.0,0.0,0.0,0.0,,,,,,0.0,,,,,,,
299,208684,1745468805648,,,,,,,,,,,,,,,,,,,,,,,0.0,0.0,0.0,0.0,0.0,0.0,0.0,0.0,2.27,,,0.0,0.0,0.0,0.0,0.0,0.0,0.0,0.0,0.0,0.0,0.0,0.0,0.0,0.0,0.0,0.0,,0.0,,,,,38.9907,-76.939858,0.07,32.1,23.0,2.0,1.1
300,208704,1745468805668,0.0,119.0,,-0.06,-0.0,1.03,0.0,0.0,0.0,1.03,1.37,75.0,2333.0,0.0,3.32,,13.48,1.251,66.4,,40.5,5.0,,,,,,,,,,,,0.0,0.0,0.0,0.0,0.0,0.0,0.0,0.0,0.0,0.0,0.0,0.0,0.0,0.0,0.0,0.0,,,,,,0.0,,,,,,,
301,208724,1745468805688,,,,,,,,,,,,,,,,,,,,,,,,,,,,,,,,,,0.0,0.0,0.0,0.0,0.0,0.0,0.0,0.0,0.0,0.0,0.0,0.0,0.0,0.0,0.0,0.0,,,,,,,,,,,,,
302,208744,1745468805708,0.0,132.0,,-0.05,0.01,1.02,0.0,0.0,0.0,1.02,1.37,75.0,2178.0,0.0,3.33,,13.63,1.251,66.4,,40.5,5.0,,,,,,,,,,,,0.0,0.0,0.0,0.0,0.0,0.0,0.0,0.0,0.0,0.0,0.0,0.0,0.0,0.0,0.0,0.0,,,,,,0.0,,,,,,,
303,208764,1745468805728,,,,,,,,,,,,,,,,,,,,,,,,,,,,,,,,,,0.0,0.0,0.0,0.0,0.0,0.0,0.0,0.0,0.0,0.0,0.0,0.0,0.0,0.0,0.0,0.0,,,,,,,,,,,,,
304,208784,1745468805748,0.0,135.0,,-0.06,-0.01,1.02,0.0,0.0,0.0,1.02,1.37,75.0,2157.0,0.0,3.41,,13.59,1.25,66.4,,40.5,5.0,0.0,0.0,0.0,0.0,0.0,0.0,0.0,0.0,2.27,,,0.0,0.0,0.0,0.0,0.0,0.0,0.0,0.0,0.0,0.0,0.0,0.0,0.0,0.0,0.0,0.0,,0.0,,,,0.0,38.9907,-76.939858,0.0,32.1,23.0,2.0,1.1
305,208804,1745468805768,,,,,,,,,,,,,,,,,,,,,,,,,,,,,,,,,,0.0,0.0,0.0,0.0,0.0,0.0,0.0,0.0,0.0,0.0,0.0,0.0,0.0,0.0,0.0,0.0,,,,,,,,,,,,,
306,208824,1745468805788,0.0,129.0,,-0.07,0.01,1.01,0.0,0.0,0.0,1.01,1.37,74.0,2359.0,0.0,3.32,,13.59,1.25,66.4,,43.0,5.0,,,,,,,,,,,,0.0,0.0,0.0,0.0,0.0,0.0,0.0,0.0,0.0,0.0,0.0,0.0,0.0,0.0,0.0,0.0,,,,,,0.0,,,,,,,
307,208844,1745468805808,,,,,,,,,,,,,,,,,,,,,,,,,,,,,,,,,,0.0,0.0,0.0,0.0,0.0,0.0,0.0,0.0,0.0,0.0,0.0,0.0,0.0,0.0,0.0,0.0,,,,,,,,,,,,,
308,208864,1745468805828,0.0,125.0,,-0.07,0.01,1.0,0.0,0.0,0.0,1.0,1.37,73.0,2359.0,0.0,3.32,,13.56,1.251,66.4,,43.0,5.0,,,,,,,,,,,,0.0,0.0,0.0,0.0,0.0,0.0,0.0,0.0,0.0,0.0,0.0,0.0,0.0,0.0,0.0,0.0,,,,,,0.0,,,,,,,
309,208884,1745468805848,,,,,,,,,,,,,,,,,,,,,,,0.0,0.0,0.0,0.0,0.0,0.0,0.0,0.0,2.28,,,0.0,0.0,0.0,0.0,0.0,0.0,0.0,0.0,0.0,0.0,0.0,0.0,0.0,0.0,0.0,0.0,,0.0,,,,,38.9907,-76.939858,0.0,32.1,23.0,2.0,1.1
310,208904,1745468805868,0.0,119.0,,-0.06,0.03,1.0,0.0,0.0,0.0,1.0,1.37,73.0,2418.0,0.0,3.25,,13.47,1.251,66.4,,45.0,5.0,,,,,,,,,,,,0.0,0.0,0.0,0.0,0.0,0.0,0.0,0.0,0.0,0.0,0.0,0.0,0.0,0.0,0.0,0.0,,,,,,0.0,,,,,,,
311,208924,1745468805888,,,,,,,,,,,,,,,,,,,,,,,,,,,,,,,,,,0.0,0.0,0.0,0.0,0.0,0.0,0.0,0.0,0.0,0.0,0.0,0.0,0.0,0.0,0.0,0.0,,,,,,,,,,,,,
312,208944,1745468805908,0.0,119.0,,-0.08,0.02,1.02,0.0,0.0,0.0,1.02,1.37,74.0,2486.0,0.0,3.27,,13.43,1.251,66.4,,45.0,5.0,,,,,,,,,,,,0.0,0.0,0.0,0.0,0.0,0.0,0.0,0.0,0.0,0.0,0.0,0.0,0.0,0.0,0.0,0.0,,,,,,0.0,,,,,,,
313,208964,1745468805928,,,,,,,,,,,,,,,,,,,,,,,,,,,,,,,,,,0.0,0.0,0.0,0.0,0.0,0.0,0.0,0.0,0.0,0.0,0.0,0.0,0.0,0.0,0.0,0.0,,,,,,,,,,,,,
314,208984,1745468805948,0.0,125.0,,-0.07,0.0,1.02,0.0,0.0,0.0,1.03,1.37,75.0,2247.0,0.0,3.3,,13.49,1.251,66.4,,45.0,5.0,0.0,0.0,0.0,0.0,0.0,0.0,0.0,0.0,2.29,,,0.0,0.0,0.0,0.0,0.0,0.0,0.0,0.0,0.0,0.0,0.0,0.0,0.0,0.0,0.0,0.0,,0.0,,,,0.0,38.9907,-76.939858,0.04,32.1,23.0,2.0,1.1
315,209004,1745468805968,,,,,,,,,,,,,,,,,,,,,,,,,,,,,,,,,,0.0,0.0,0.0,0.0,0.0,0.0,0.0,0.0,0.0,0.0,0.0,0.0,0.0,0.0,0.0,0.0,,,,,,,,,,,,,
