,Interval,Utc,FrontBP,SteerAng,Battery,AccelX,AccelY,AccelZ,Yaw,Pitch,Roll,Gsum,GsumMax,GsumPct,RPM,TPS,InjectorPW,Baro,MAP,Lambda,IAT,EngineTemp,EOP,EOT,WSFR,WSFL,WSRR,WSRL,TCSet,TCSlip,TCComp,TCCut,Analog8,OilTemp,AA_On,ThermLF1,ThermLF2,ThermRR1,ThermRR2,ThermLF3,ThermLF4,ThermLF5,ThermLF6,ThermLF7,ThermLF8,ThermRR3,ThermRR4,ThermRR5,ThermRR6,ThermRR7,ThermRR8,AA_LowDrag,Gear,AA_On1,AA_LowDrag1,Fuel_Mix,AA_Packages,Latitude,Longitude,Speed,Altitude,GPSSats,GPSQual,GPSDOP
0,600404,1745469197369,,,,,,,,,,,,,,,,,,,,,,,,,,,,,,,,,,0,0,0,0,0,0,0,0,0,0,0,0,0,0,0,0,,,,,,,,,,,,,
1,600424,1745469197391,0.0,-4.0,,-0.09,0.02,0.88,2.0,0.0,0.0,0.89,0.89,100.0,3054.0,0.0,3.08,,12.27,1.096,98.8,,34.0,5.0,,,,,,,,,,,,0,0,0,0,0,0,0,0,0,0,0,0,0,0,0,0,,,,,,0.0,,,,,,,
2,600444,1745469197411,,,,,,,,,,,,,,,,,,,,,,,,,,,,,,,,,,0,0,0,0,0,0,0,0,0,0,0,0,0,0,0,0,,,,,,,,,,,,,
3,600464,1745469197431,0.0,20.0,,-0.08,0.03,0.82,2.0,0.0,-1.0,0.83,0.89,93.0,3021.0,0.0,3.08,,12.27,1.096,98.8,,34.0,5.0,,,,,,,,,,,,0,0,0,0,0,0,0,0,0,0,0,0,0,0,0,0,,,,,,0.0,,,,,,,
4,600484,1745469197451,,,,,,,,,,,,,,,,,,,,,,,0.0,0.0,0.0,0.0,0.0,0.0,0.0,0.0,2.26,,,0,0,0,0,0,0,0,0,0,0,0,0,0,0,0,0,,0.0,,,,,38.9907,-76.939865,0.0,32.5,23.0,2.0,1.1
5,600504,1745469197471,0.0,13.0,,-0.07,0.03,0.77,2.0,0.0,-1.0,0.77,0.89,87.0,3021.0,0.0,3.08,,12.33,1.094,98.8,,33.3,5.0,,,,,,,,,,,,0,0,0,0,0,0,0,0,0,0,0,0,0,0,0,0,,,,,,0.0,,,,,,,
6,600524,1745469197491,,,,,,,,,,,,,,,,,,,,,,,,,,,,,,,,,,0,0,0,0,0,0,0,0,0,0,0,0,0,0,0,0,,,,,,,,,,,,,
7,600544,1745469197510,0.0,0.0,,-0.05,0.03,0.71,3.0,-1.0,-1.0,0.71,0.89,80.0,3020.0,0.0,3.1,,12.4,1.095,98.8,,33.3,5.0,,,,,,,,,,,,0,0,0,0,0,0,0,0,0,0,0,0,0,0,0,0,,,,,,0.0,,,,,,,
8,600564,1745469197530,,,,,,,,,,,,,,,,,,,,,,,,,,,,,,,,,,0,0,0,0,0,0,0,0,0,0,0,0,0,0,0,0,,,,,,,,,,,,,
9,600584,1745469197550,0.0,-14.0,,-0.03,0.01,0.8,2.0,-1.0,0.0,0.8,0.89,90.0,3105.0,0.0,3.08,,12.39,1.087,98.8,,33.3,5.0,0.0,0.0,0.0,0.0,0.0,0.0,0.0,0.0,2.26,,,0,0,0,0,0,0,0,0,0,0,0,0,0,0,0,0,,0.0,,,,0.0,38.9907,-76.939865,0.05,32.5,23.0,2.0,1.1
10,600604,1745469197570,,,,,,,,,,,,,,,,,,,,,,,,,,,,,,,,,,0,0,0,0,0,0,0,0,0,0,0,0,0,0,0,0,,,,,,,,,,,,,
11,600624,1745469197590,0.0,-10.0,,-0.08,-0.04,0.85,1.0,0.0,0.0,0.86,0.89,97.0,3317.0,0.0,2.97,,12.24,1.128,98.8,,35.7,5.0,,,,,,,,,,,,0,0,0,0,0,0,0,0,0,0,0,0,0,0,0,0,,,,,,0.0,,,,,,,
12,600644,1745469197610,,,,,,,,,,,,,,,,,,,,,,,,,,,,,,,,,,0,0,0,0,0,0,0,0,0,0,0,0,0,0,0,0,,,,,,,,,,,,,
13,600664,1745469197630,0.0,7.0,,-0.05,0.05,0.79,3.0,-1.0,0.0,0.79,0.89,89.0,3296.0,0.0,2.95,,12.24,1.128,98.8,,35.7,5.0,,,,,,,,,,,,0,0,0,0,0,0,0,0,0,0,0,0,0,0,0,0,,,,,,0.0,,,,,,,
14,600684,1745469197650,,,,,,,,,,,,,,,,,,,,,,,0.0,0.0,0.0,0.0,0.0,0.0,0.0,0.0,2.27,,,0,0,0,0,0,0,0,0,0,0,0,0,0,0,0,0,,0.0,,,,,38.9907,-76.939865,0.15,32.5,23.0,2.0,1.1
15,600704,1745469197670,0.0,10.0,,-0.04,0.02,0.89,1.0,-1.0,0.0,0.89,0.89,100.0,3296.0,0.0,2.95,,12.2,1.081,98.8,,36.8,5.0,,,,,,,,,,,,0,0,0,0,0,0,0,0,0,0,0,0,0,0,0,0,,,,,,0.0,,,,,,,
16,600724,1745469197690,,,,,,,,,,,,,,,,,,,,,,,,,,,,,,,,,,0,0,0,0,0,0,0,0,0,0,0,0,0,0,0,0,,,,,,,,,,,,,
17,600744,1745469197710,0.0,17.0,,-0.07,-0.01,0.88,1.0,0.0,0.0,0.88,0.89,100.0,3258.0,0.0,2.95,,12.2,1.022,98.8,,36.8,5.0,,,,,,,,,,,,0,0,0,0,0,0,0,0,0,0,0,0,0,0,0,0,,,,,,0.0,,,,,,,
18,600764,1745469197730,,,,,,,,,,,,,,,,,,,,,,,,,,,,,,,,,,0,0,0,0,0,0,0,0,0,0,0,0,0,0,0,0,,,,,,,,,,,,,
19,600784,1745469197750,0.0,13.0,,-0.05,0.05,0.84,2.0,0.0,0.0,0.84,0.89,95.0,3256.0,0.0,2.92,,12.15,1.003,98.8,,36.8,5.0,0.0,0.0,0.0,0.0,0.0,0.0,0.0,0.0,2.27,,,0,0,0,0,0,0,0,0,0,0,0,0,0,0,0,0,,0.0,,,,0.0,38.9907,-76.939865,0.04,32.5,23.0,2.0,1.1
20,600804,1745469197770,,,,,,,,,,,,,,,,,,,,,,,,,,,,,,,,,,0,0,0,0,0,0,0,0,0,0,0,0,0,0,0,0,,,,,,,,,,,,,
21,600824,1745469197790,0.0,0.0,,-0.04,0.04,0.92,0.0,0.0,0.0,0.92,0.92,100.0,3250.0,0.0,2.94,,12.16,1.024,98.8,,36.2,5.0,,,,,,,,,,,,0,0,0,0,0,0,0,0,0,0,0,0,0,0,0,0,,,,,,0.0,,,,,,,
22,600844,1745469197810,,,,,,,,,,,,,,,,,,,,,,,,,,,,,,,,,,0,0,0,0,0,0,0,0,0,0,0,0,0,0,0,0,,,,,,,,,,,,,
23,600864,1745469197830,0.0,10.0,,-0.08,-0.03,0.96,0.0,0.0,0.0,0.96,0.96,100.0,3202.0,0.0,2.94,,12.16,1.024,98.8,,36.2,5.0,,,,,,,,,,,,0,0,0,0,0,0,0,0,0,0,0,0,0,0,0,0,,,,,,0.0,,,,,,,
24,600884,1745469197850,,,,,,,,,,,,,,,,,,,,,,,0.0,0.0,0.0,0.0,0.0,0.0,0.0,0.0,2.27,,,0,0,0,0,0,0,0,0,0,0,0,0,0,0,0,0,,0.0,,,,,38.9907,-76.939865,0.13,32.5,23.0,2.0,1.1
25,600904,1745469197870,0.0,7.0,,-0.08,0.02,0.89,1.0,0.0,0.0,0.89,0.96,93.0,3202.0,0.0,2.94,,12.13,1.068,98.8,,36.1,5.0,,,,,,,,,,,,0,0,0,0,0,0,0,0,0,0,0,0,0,0,0,0,,,,,,0.0,,,,,,,
26,600924,1745469197891,,,,,,,,,,,,,,,,,,,,,,,,,,,,,,,,,,0,0,0,0,0,0,0,0,0,0,0,0,0,0,0,0,,,,,,,,,,,,,
27,600944,1745469197911,0.0,0.0,,-0.05,0.06,0.85,1.0,0.0,0.0,0.85,0.96,88.0,3201.0,0.0,2.92,,12.11,1.092,98.8,,36.1,5.0,,,,,,,,,,,,0,0,0,0,0,0,0,0,0,0,0,0,0,0,0,0,,,,,,0.0,,,,,,,
28,600964,1745469197931,,,,,,,,,,,,,,,,,,,,,,,,,,,,,,,,,,0,0,0,0,0,0,0,0,0,0,0,0,0,0,0,0,,,,,,,,,,,,,
29,600984,1745469197951,0.0,3.0,,-0.03,0.06,0.92,0.0,-1.0,0.0,0.92,0.96,96.0,3182.0,0.0,2.94,,12.13,1.109,98.8,,36.1,5.0,0.0,0.0,0.0,0.0,0.0,0.0,0.0,0.0,2.27,,,0,0,0,0,0,0,0,0,0,0,0,0,0,0,0,0,,0.0,,,,0.0,38.9907,-76.939865,0.07,32.5,23.0,2.0,1.1
30,601004,1745469197971,,,,,,,,,,,,,,,,,,,,,,,,,,,,,,,,,,0,0,0,0,0,0,0,0,0,0,0,0,0,0,0,0,,,,,,,,,,,,,
31,601024,1745469197991,0.0,7.0,,-0.03,-0.01,1.0,-1.0,0.0,0.0,1.0,1.0,100.0,3124.0,0.0,2.96,,12.2,1.118,98.8,,34.8,5.0,,,,,,,,,,,,0,0,0,0,0,0,0,0,0,0,0,0,0,0,0,0,,,,,,0.0,,,,,,,
32,601044,1745469198002,,,,,,,,,,,,,,,,,,,,,,,,,,,,,,,,,,0,0,0,0,0,0,0,0,0,0,0,0,0,0,0,0,,,,,,,,,,,,,
33,601064,1745469198022,0.0,10.0,,-0.05,-0.05,1.04,-1.0,0.0,0.0,1.04,1.04,100.0,3109.0,0.0,2.93,,12.2,1.118,98.8,,34.8,5.0,,,,,,,,,,,,0,0,0,0,0,0,0,0,0,0,0,0,0,0,0,0,,,,,,0.0,,,,,,,
34,601084,1745469198042,,,,,,,,,,,,,,,,,,,,,,,0.0,0.0,0.0,0.0,0.0,0.0,0.0,0.0,2.26,,,0,0,0,0,0,0,0,0,0,0,0,0,0,0,0,0,,0.0,,,,,38.9907,-76.939865,0.05,32.5,23.0,2.0,1.1
35,601104,1745469198062,0.0,13.0,,-0.08,-0.03,1.06,-1.0,0.0,0.0,1.06,1.06,100.0,3109.0,0.0,2.93,,12.21,1.125,98.8,,34.7,5.0,,,,,,,,,,,,0,0,0,0,0,0,0,0,0,0,0,0,0,0,0,0,,,,,,0.0,,,,,,,
36,601124,1745469198082,,,,,,,,,,,,,,,,,,,,,,,,,,,,,,,,,,0,0,0,0,0,0,0,0,0,0,0,0,0,0,0,0,,,,,,,,,,,,,
37,601144,1745469198104,0.0,13.0,,-0.11,-0.02,1.09,-1.0,0.0,0.0,1.1,1.1,100.0,2983.0,0.0,2.95,,12.29,1.126,98.8,,34.7,5.0,,,,,,,,,,,,0,0,0,0,0,0,0,0,0,0,0,0,0,0,0,0,,,,,,0.0,,,,,,,
38,601164,1745469198124,,,,,,,,,,,,,,,,,,,,,,,,,,,,,,,,,,0,0,0,0,0,0,0,0,0,0,0,0,0,0,0,0,,,,,,,,,,,,,
39,601184,1745469198144,0.0,13.0,,-0.13,-0.05,1.15,-2.0,0.0,0.0,1.16,1.16,100.0,2898.0,0.0,2.99,,12.36,1.125,98.8,,34.7,5.0,0.0,0.0,0.0,0.0,0.0,0.0,0.0,0.0,2.26,,,0,0,0,0,0,0,0,0,0,0,0,0,0,0,0,0,,0.0,,,,0.0,38.9907,-76.939865,0.11,32.5,23.0,2.0,1.1
40,601204,1745469198164,,,,,,,,,,,,,,,,,,,,,,,,,,,,,,,,,,0,0,0,0,0,0,0,0,0,0,0,0,0,0,0,0,,,,,,,,,,,,,
41,601224,1745469198184,0.0,0.0,,-0.16,-0.04,1.11,-1.0,0.0,0.0,1.12,1.16,97.0,3175.0,0.0,2.92,,12.36,1.131,98.8,,32.6,5.0,,,,,,,,,,,,0,0,0,0,0,0,0,0,0,0,0,0,0,0,0,0,,,,,,0.0,,,,,,,
42,601244,1745469198208,,,,,,,,,,,,,,,,,,,,,,,,,,,,,,,,,,0,0,0,0,0,0,0,0,0,0,0,0,0,0,0,0,,,,,,,,,,,,,
43,601264,1745469198228,0.0,7.0,,-0.13,0.04,1.02,0.0,0.0,0.0,1.03,1.16,89.0,3231.0,0.0,2.9,,12.36,1.131,98.8,,32.6,5.0,,,,,,,,,,,,0,0,0,0,0,0,0,0,0,0,0,0,0,0,0,0,,,,,,0.0,,,,,,,
44,601284,1745469198248,,,,,,,,,,,,,,,,,,,,,,,0.0,0.0,0.0,0.0,0.0,0.0,0.0,0.0,2.27,,,0,0,0,0,0,0,0,0,0,0,0,0,0,0,0,0,,0.0,,,,,38.9907,-76.939865,0.08,32.5,23.0,2.0,1.1
45,601304,1745469198268,0.0,3.0,,-0.11,0.01,1.1,-1.0,0.0,0.0,1.11,1.16,96.0,3231.0,0.0,2.9,,12.31,1.238,98.8,,36.5,5.0,,,,,,,,,,,,0,0,0,0,0,0,0,0,0,0,0,0,0,0,0,0,,,,,,0.0,,,,,,,
46,601324,1745469198288,,,,,,,,,,,,,,,,,,,,,,,,,,,,,,,,,,0,0,0,0,0,0,0,0,0,0,0,0,0,0,0,0,,,,,,,,,,,,,
47,601344,1745469198310,0.0,17.0,,-0.15,-0.03,1.1,-1.0,0.0,0.0,1.11,1.16,96.0,3211.0,0.0,2.85,,12.25,1.152,98.8,,36.5,5.0,,,,,,,,,,,,0,0,0,0,0,0,0,0,0,0,0,0,0,0,0,0,,,,,,0.0,,,,,,,
48,601364,1745469198330,,,,,,,,,,,,,,,,,,,,,,,,,,,,,,,,,,0,0,0,0,0,0,0,0,0,0,0,0,0,0,0,0,,,,,,,,,,,,,
49,601384,1745469198350,0.0,24.0,13.69,-0.13,0.04,1.01,0.0,0.0,0.0,1.02,1.16,88.0,3191.0,0.0,2.85,15.0,12.2,1.081,98.8,165.0,36.5,5.0,0.0,0.0,0.0,0.0,0.0,0.0,0.0,0.0,2.27,0.0,1.0,0,0,0,0,0,0,0,0,0,0,0,0,0,0,0,0,0.0,0.0,1.0,0.0,0.0,0.0,38.9907,-76.939865,0.11,32.5,23.0,2.0,1.1
50,601404,1745469198370,,,,,,,,,,,,,,,,,,,,,,,,,,,,,,,,,,0,0,0,0,0,0,0,0,0,0,0,0,0,0,0,0,,,,,,,,,,,,,
51,601424,1745469198390,0.0,13.0,,-0.11,-0.01,1.09,-1.0,0.0,0.0,1.09,1.16,94.0,3381.0,0.0,2.78,,12.17,1.067,98.8,,36.4,5.0,,,,,,,,,,,,0,0,0,0,0,0,0,0,0,0,0,0,0,0,0,0,,,,,,0.0,,,,,,,
52,601444,1745469198409,,,,,,,,,,,,,,,,,,,,,,,,,,,,,,,,,,0,0,0,0,0,0,0,0,0,0,0,0,0,0,0,0,,,,,,,,,,,,,
53,601464,1745469198429,0.0,20.0,,-0.12,0.01,1.0,0.0,0.0,0.0,1.0,1.16,87.0,3296.0,0.0,2.8,,12.17,1.067,98.8,,36.4,5.0,,,,,,,,,,,,0,0,0,0,0,0,0,0,0,0,0,0,0,0,0,0,,,,,,0.0,,,,,,,
54,601484,1745469198449,,,,,,,,,,,,,,,,,,,,,,,0.0,0.0,0.0,0.0,0.0,0.0,0.0,0.0,2.27,,,0,0,0,0,0,0,0,0,0,0,0,0,0,0,0,0,,0.0,,,,,38.9907,-76.939865,0.0,32.5,23.0,2.0,1.1
55,601504,1745469198469,0.0,17.0,,-0.09,0.03,1.05,-1.0,0.0,0.0,1.05,1.16,91.0,3296.0,0.0,2.8,,12.16,1.093,98.8,,37.2,5.0,,,,,,,,,,,,0,0,0,0,0,0,0,0,0,0,0,0,0,0,0,0,,,,,,0.0,,,,,,,
56,601524,1745469198489,,,,,,,,,,,,,,,,,,,,,,,,,,,,,,,,,,0,0,0,0,0,0,0,0,0,0,0,0,0,0,0,0,,,,,,,,,,,,,
57,601544,1745469198509,0.0,7.0,,-0.12,-0.02,1.08,-1.0,0.0,0.0,1.08,1.16,93.0,3272.0,0.0,2.81,,12.15,1.086,98.8,,37.2,5.0,,,,,,,,,,,,0,0,0,0,0,0,0,0,0,0,0,0,0,0,0,0,,,,,,0.0,,,,,,,
58,601564,1745469198529,,,,,,,,,,,,,,,,,,,,,,,,,,,,,,,,,,0,0,0,0,0,0,0,0,0,0,0,0,0,0,0,0,,,,,,,,,,,,,
59,601584,1745469198549,0.0,13.0,,-0.13,0.01,1.0,0.0,0.0,0.0,1.01,1.16,87.0,3183.0,0.0,2.85,,12.12,1.079,98.8,,37.2,5.0,0.0,0.0,0.0,0.0,0.0,0.0,0.0,0.0,2.26,,,0,0,0,0,0,0,0,0,0,0,0,0,0,0,0,0,,0.0,,,,0.0,38.9907,-76.939865,0.04,32.5,23.0,2.0,1.1
60,601604,1745469198569,,,,,,,,,,,,,,,,,,,,,,,,,,,,,,,,,,0,0,0,0,0,0,0,0,0,0,0,0,0,0,0,0,,,,,,,,,,,,,
61,601624,1745469198589,0.0,0.0,,-0.11,0.05,0.92,1.0,0.0,0.0,0.92,1.16,80.0,3123.0,0.0,2.86,,12.21,1.089,98.8,,35.7,5.0,,,,,,,,,,,,0,0,0,0,0,0,0,0,0,0,0,0,0,0,0,0,,,,,,0.0,,,,,,,
62,601644,1745469198609,,,,,,,,,,,,,,,,,,,,,,,,,,,,,,,,,,0,0,0,0,0,0,0,0,0,0,0,0,0,0,0,0,,,,,,,,,,,,,
63,601664,1745469198629,0.0,20.0,,-0.07,0.07,0.9,1.0,0.0,0.0,0.9,1.16,78.0,3087.0,0.0,2.89,,12.21,1.089,98.8,,35.7,5.0,,,,,,,,,,,,0,0,0,0,0,0,0,0,0,0,0,0,0,0,0,0,,,,,,0.0,,,,,,,
64,601684,1745469198649,,,,,,,,,,,,,,,,,,,,,,,0.0,0.0,0.0,0.0,0.0,0.0,0.0,0.0,2.26,,,0,0,0,0,0,0,0,0,0,0,0,0,0,0,0,0,,0.0,,,,,38.9907,-76.939865,0.08,32.5,22.0,2.0,1.1
65,601704,1745469198669,0.0,27.0,,-0.04,0.08,0.93,1.0,-1.0,0.0,0.94,1.16,81.0,3087.0,0.0,2.89,,12.21,1.108,98.8,,34.4,5.0,,,,,,,,,,,,0,0,0,0,0,0,0,0,0,0,0,0,0,0,0,0,,,,,,0.0,,,,,,,
66,601724,1745469198691,,,,,,,,,,,,,,,,,,,,,,,,,,,,,,,,,,0,0,0,0,0,0,0,0,0,0,0,0,0,0,0,0,,,,,,,,,,,,,
67,601744,1745469198711,0.0,17.0,,-0.02,0.12,0.96,1.0,-1.0,0.0,0.97,1.16,84.0,3048.0,0.0,2.93,,12.28,1.133,98.8,,34.4,5.0,,,,,,,,,,,,0,0,0,0,0,0,0,0,0,0,0,0,0,0,0,0,,,,,,0.0,,,,,,,
68,601764,1745469198731,,,,,,,,,,,,,,,,,,,,,,,,,,,,,,,,,,0,0,0,0,0,0,0,0,0,0,0,0,0,0,0,0,,,,,,,,,,,,,
69,601784,1745469198751,0.0,20.0,,0.01,0.13,0.98,1.0,-1.0,1.0,0.99,1.16,85.0,2971.0,0.0,2.93,,12.33,1.143,98.8,,34.4,5.0,0.0,0.0,0.0,0.0,0.0,0.0,0.0,0.0,2.27,,,0,0,0,0,0,0,0,0,0,0,0,0,0,0,0,0,,0.0,,,,0.0,38.9907,-76.939865,0.07,32.5,22.0,2.0,1.1
70,601804,1745469198771,,,,,,,,,,,,,,,,,,,,,,,,,,,,,,,,,,0,0,0,0,0,0,0,0,0,0,0,0,0,0,0,0,,,,,,,,,,,,,
71,601824,1745469198791,0.0,3.0,,0.03,0.15,0.96,0.0,-1.0,1.0,0.98,1.16,84.0,3013.0,0.0,2.95,,12.39,1.141,98.8,,33.5,5.0,,,,,,,,,,,,0,0,0,0,0,0,0,0,0,0,0,0,0,0,0,0,,,,,,0.0,,,,,,,
72,601844,1745469198809,,,,,,,,,,,,,,,,,,,,,,,,,,,,,,,,,,0,0,0,0,0,0,0,0,0,0,0,0,0,0,0,0,,,,,,,,,,,,,
73,601864,1745469198829,0.0,17.0,,0.05,0.14,0.92,1.0,-1.0,1.0,0.93,1.16,81.0,2942.0,0.0,2.98,,12.39,1.141,98.8,,33.5,5.0,,,,,,,,,,,,0,0,0,0,0,0,0,0,0,0,0,0,0,0,0,0,,,,,,0.0,,,,,,,
74,601884,1745469198849,,,,,,,,,,,,,,,,,,,,,,,0.0,0.0,0.0,0.0,0.0,0.0,0.0,0.0,2.27,,,0,0,0,0,0,0,0,0,0,0,0,0,0,0,0,0,,0.0,,,,,38.9907,-76.939865,0.08,32.5,22.0,2.0,1.1
75,601904,1745469198869,0.0,13.0,,0.07,0.12,0.87,1.0,-1.0,1.0,0.88,1.16,76.0,2942.0,0.0,2.98,,12.45,1.134,98.8,,33.1,5.0,,,,,,,,,,,,0,0,0,0,0,0,0,0,0,0,0,0,0,0,0,0,,,,,,0.0,,,,,,,
76,601924,1745469198889,,,,,,,,,,,,,,,,,,,,,,,,,,,,,,,,,,0,0,0,0,0,0,0,0,0,0,0,0,0,0,0,0,,,,,,,,,,,,,
77,601944,1745469198909,0.0,13.0,,0.03,0.14,0.85,1.0,-1.0,0.0,0.87,1.16,75.0,2944.0,0.0,2.96,,12.45,1.129,98.8,,33.1,5.0,,,,,,,,,,,,0,0,0,0,0,0,0,0,0,0,0,0,0,0,0,0,,,,,,0.0,,,,,,,
78,601964,1745469198929,,,,,,,,,,,,,,,,,,,,,,,,,,,,,,,,,,0,0,0,0,0,0,0,0,0,0,0,0,0,0,0,0,,,,,,,,,,,,,
79,601984,1745469198949,0.0,20.0,,-0.01,0.12,0.87,2.0,-1.0,0.0,0.88,1.16,76.0,2888.0,0.0,3.0,,12.55,1.134,98.8,,33.1,5.0,0.0,0.0,0.0,0.0,0.0,0.0,0.0,0.0,2.28,,,0,0,0,0,0,0,0,0,0,0,0,0,0,0,0,0,,0.0,,,,0.0,38.9907,-76.939865,0.04,32.5,22.0,2.0,1.1
80,602004,1745469198969,,,,,,,,,,,,,,,,,,,,,,,,,,,,,,,,,,0,0,0,0,0,0,0,0,0,0,0,0,0,0,0,0,,,,,,,,,,,,,
81,602024,1745469198989,0.0,13.0,,-0.04,0.08,0.94,1.0,-1.0,0.0,0.95,1.16,82.0,2856.0,0.0,3.01,,12.59,1.149,98.8,,31.8,5.0,,,,,,,,,,,,0,0,0,0,0,0,0,0,0,0,0,0,0,0,0,0,,,,,,0.0,,,,,,,
82,602044,1745469198999,,,,,,,,,,,,,,,,,,,,,,,,,,,,,,,,,,0,0,0,0,0,0,0,0,0,0,0,0,0,0,0,0,,,,,,,,,,,,,
83,602064,1745469199019,0.0,24.0,,-0.05,0.06,1.01,0.0,0.0,0.0,1.01,1.16,87.0,2889.0,0.0,3.0,,12.59,1.149,98.8,,31.8,5.0,,,,,,,,,,,,0,0,0,0,0,0,0,0,0,0,0,0,0,0,0,0,,,,,,0.0,,,,,,,
84,602084,1745469199039,,,,,,,,,,,,,,,,,,,,,,,0.0,0.0,0.0,0.0,0.0,0.0,0.0,0.0,2.26,,,0,0,0,0,0,0,0,0,0,0,0,0,0,0,0,0,,0.0,,,,,38.9907,-76.939865,0.07,32.5,22.0,2.0,1.1
85,602104,1745469199059,0.0,30.0,,-0.04,0.07,1.02,0.0,0.0,0.0,1.02,1.16,88.0,2889.0,0.0,3.0,,12.57,1.154,98.8,,32.0,5.0,,,,,,,,,,,,0,0,0,0,0,0,0,0,0,0,0,0,0,0,0,0,,,,,,0.0,,,,,,,
86,602124,1745469199079,,,,,,,,,,,,,,,,,,,,,,,,,,,,,,,,,,0,0,0,0,0,0,0,0,0,0,0,0,0,0,0,0,,,,,,,,,,,,,
87,602144,1745469199107,0.0,17.0,,-0.01,0.08,0.98,0.0,-1.0,1.0,0.98,1.16,85.0,2895.0,0.0,3.0,,12.56,1.153,98.8,,32.0,5.0,,,,,,,,,,,,0,0,0,0,0,0,0,0,0,0,0,0,0,0,0,0,,,,,,0.0,,,,,,,
88,602164,1745469199127,,,,,,,,,,,,,,,,,,,,,,,,,,,,,,,,,,0,0,0,0,0,0,0,0,0,0,0,0,0,0,0,0,,,,,,,,,,,,,
89,602184,1745469199147,0.0,17.0,,-0.0,0.09,0.91,0.0,-1.0,0.0,0.92,1.16,79.0,2873.0,0.0,3.0,,12.55,1.139,98.8,,32.0,5.0,0.0,0.0,0.0,0.0,0.0,0.0,0.0,0.0,2.26,,,0,0,0,0,0,0,0,0,0,0,0,0,0,0,0,0,,0.0,,,,0.0,38.9907,-76.939865,0.04,32.5,22.0,2.0,1.1
90,602204,1745469199167,,,,,,,,,,,,,,,,,,,,,,,,,,,,,,,,,,0,0,0,0,0,0,0,0,0,0,0,0,0,0,0,0,,,,,,,,,,,,,
91,602224,1745469199187,0.0,10.0,,-0.02,0.09,0.87,1.0,-1.0,0.0,0.87,1.16,76.0,2945.0,0.0,2.99,,12.53,1.134,98.8,,32.0,5.0,,,,,,,,,,,,0,0,0,0,0,0,0,0,0,0,0,0,0,0,0,0,,,,,,0.0,,,,,,,
92,602244,1745469199209,,,,,,,,,,,,,,,,,,,,,,,,,,,,,,,,,,0,0,0,0,0,0,0,0,0,0,0,0,0,0,0,0,,,,,,,,,,,,,
93,602264,1745469199229,0.0,13.0,,-0.05,0.06,0.92,1.0,0.0,0.0,0.92,1.16,79.0,2792.0,0.0,3.0,,12.53,1.134,98.8,,32.0,5.0,,,,,,,,,,,,0,0,0,0,0,0,0,0,0,0,0,0,0,0,0,0,,,,,,0.0,,,,,,,
94,602284,1745469199249,,,,,,,,,,,,,,,,,,,,,,,0.0,0.0,0.0,0.0,0.0,0.0,0.0,0.0,2.27,,,0,0,0,0,0,0,0,0,0,0,0,0,0,0,0,0,,0.0,,,,,38.9907,-76.939865,0.09,32.5,22.0,2.0,1.1
95,602304,1745469199269,0.0,27.0,,-0.05,0.03,0.97,0.0,0.0,0.0,0.97,1.16,84.0,2792.0,0.0,3.0,,12.57,1.146,98.8,,31.5,5.0,,,,,,,,,,,,0,0,0,0,0,0,0,0,0,0,0,0,0,0,0,0,,,,,,0.0,,,,,,,
96,602324,1745469199289,,,,,,,,,,,,,,,,,,,,,,,,,,,,,,,,,,0,0,0,0,0,0,0,0,0,0,0,0,0,0,0,0,,,,,,,,,,,,,
97,602344,1745469199309,0.0,24.0,,-0.05,0.06,0.95,0.0,0.0,0.0,0.95,1.16,82.0,2769.0,0.0,3.05,,12.63,1.152,98.8,,31.5,5.0,,,,,,,,,,,,0,0,0,0,0,0,0,0,0,0,0,0,0,0,0,0,,,,,,0.0,,,,,,,
98,602364,1745469199329,,,,,,,,,,,,,,,,,,,,,,,,,,,,,,,,,,0,0,0,0,0,0,0,0,0,0,0,0,0,0,0,0,,,,,,,,,,,,,
99,602384,1745469199349,0.0,30.0,13.73,-0.05,0.04,0.97,0.0,0.0,0.0,0.97,1.16,84.0,2718.0,0.0,3.1,15.0,12.71,1.152,98.8,165.0,31.5,5.0,0.0,0.0,0.0,0.0,0.0,0.0,0.0,0.0,2.27,0.0,1.0,0,0,0,0,0,0,0,0,0,0,0,0,0,0,0,0,0.0,0.0,1.0,0.0,0.0,0.0,38.9907,-76.939865,0.11,32.5,22.0,2.0,1.1
100,602404,1745469199369,,,,,,,,,,,,,,,,,,,,,,,,,,,,,,,,,,0,0,0,0,0,0,0,0,0,0,0,0,0,0,0,0,,,,,,,,,,,,,
101,602424,1745469199389,0.0,17.0,,-0.05,0.05,0.96,0.0,0.0,0.0,0.96,1.16,83.0,2636.0,0.0,3.12,,12.77,1.155,98.8,,29.3,5.0,,,,,,,,,,,,0,0,0,0,0,0,0,0,0,0,0,0,0,0,0,0,,,,,,0.0,,,,,,,
102,602444,1745469199408,,,,,,,,,,,,,,,,,,,,,,,,,,,,,,,,,,0,0,0,0,0,0,0,0,0,0,0,0,0,0,0,0,,,,,,,,,,,,,
103,602464,1745469199428,0.0,17.0,,-0.05,0.06,0.98,0.0,0.0,0.0,0.98,1.16,85.0,2568.0,0.0,3.16,,12.77,1.155,98.8,,29.3,5.0,,,,,,,,,,,,0,0,0,0,0,0,0,0,0,0,0,0,0,0,0,0,,,,,,0.0,,,,,,,
104,602484,1745469199448,,,,,,,,,,,,,,,,,,,,,,,0.0,0.0,0.0,0.0,0.0,0.0,0.0,0.0,2.27,,,0,0,0,0,0,0,0,0,0,0,0,0,0,0,0,0,,0.0,,,,,38.9907,-76.939865,0.04,32.5,22.0,2.0,1.1
105,602504,1745469199468,0.0,24.0,,-0.05,0.08,0.98,0.0,0.0,0.0,0.98,1.16,85.0,2568.0,0.0,3.16,,12.89,1.184,98.8,,27.4,5.0,,,,,,,,,,,,0,0,0,0,0,0,0,0,0,0,0,0,0,0,0,0,,,,,,0.0,,,,,,,
106,602524,1745469199488,,,,,,,,,,,,,,,,,,,,,,,,,,,,,,,,,,0,0,0,0,0,0,0,0,0,0,0,0,0,0,0,0,,,,,,,,,,,,,
107,602544,1745469199510,0.0,10.0,,-0.07,0.07,0.98,0.0,0.0,0.0,0.98,1.16,85.0,2469.0,0.0,3.2,,13.03,1.216,98.8,,27.4,5.0,,,,,,,,,,,,0,0,0,0,0,0,0,0,0,0,0,0,0,0,0,0,,,,,,0.0,,,,,,,
108,602564,1745469199530,,,,,,,,,,,,,,,,,,,,,,,,,,,,,,,,,,0,0,0,0,0,0,0,0,0,0,0,0,0,0,0,0,,,,,,,,,,,,,
109,602584,1745469199550,0.0,24.0,,-0.06,0.06,0.97,0.0,0.0,0.0,0.98,1.16,84.0,2406.0,0.0,3.26,,13.11,1.249,98.8,,27.4,5.0,0.0,0.0,0.0,0.0,0.0,0.0,0.0,0.0,2.27,,,0,0,0,0,0,0,0,0,0,0,0,0,0,0,0,0,,0.0,,,,0.0,38.9907,-76.939865,0.11,32.5,22.0,2.0,1.1
110,602604,1745469199570,,,,,,,,,,,,,,,,,,,,,,,,,,,,,,,,,,0,0,0,0,0,0,0,0,0,0,0,0,0,0,0,0,,,,,,,,,,,,,
111,602624,1745469199590,0.0,20.0,,-0.05,0.01,1.03,0.0,0.0,0.0,1.03,1.16,89.0,2361.0,0.0,3.28,,13.23,1.25,98.8,,25.7,5.0,,,,,,,,,,,,0,0,0,0,0,0,0,0,0,0,0,0,0,0,0,0,,,,,,0.0,,,,,,,
112,602644,1745469199608,,,,,,,,,,,,,,,,,,,,,,,,,,,,,,,,,,0,0,0,0,0,0,0,0,0,0,0,0,0,0,0,0,,,,,,,,,,,,,
113,602664,1745469199628,0.0,37.0,,-0.05,0.0,1.07,-1.0,0.0,0.0,1.07,1.16,92.0,2894.0,0.0,3.03,,13.23,1.25,98.8,,25.7,5.0,,,,,,,,,,,,0,0,0,0,0,0,0,0,0,0,0,0,0,0,0,0,,,,,,0.0,,,,,,,
114,602684,1745469199648,,,,,,,,,,,,,,,,,,,,,,,0.0,0.0,0.0,0.0,0.0,0.0,0.0,0.0,2.26,,,0,0,0,0,0,0,0,0,0,0,0,0,0,0,0,0,,0.0,,,,,38.9907,-76.939865,0.11,32.5,22.0,2.0,1.1
115,602704,1745469199668,0.0,34.0,,-0.03,0.03,1.08,-1.0,0.0,1.0,1.08,1.16,93.0,2894.0,0.0,3.03,,12.96,1.251,98.8,,31.8,5.0,,,,,,,,,,,,0,0,0,0,0,0,0,0,0,0,0,0,0,0,0,0,,,,,,0.0,,,,,,,
116,602724,1745469199688,,,,,,,,,,,,,,,,,,,,,,,,,,,,,,,,,,0,0,0,0,0,0,0,0,0,0,0,0,0,0,0,0,,,,,,,,,,,,,
117,602744,1745469199708,0.0,27.0,,-0.01,0.07,1.05,-1.0,0.0,1.0,1.05,1.16,90.0,2942.0,0.0,3.0,,12.84,1.249,98.8,,31.8,5.0,,,,,,,,,,,,0,0,0,0,0,0,0,0,0,0,0,0,0,0,0,0,,,,,,0.0,,,,,,,
118,602764,1745469199728,,,,,,,,,,,,,,,,,,,,,,,,,,,,,,,,,,0,0,0,0,0,0,0,0,0,0,0,0,0,0,0,0,,,,,,,,,,,,,
119,602784,1745469199748,0.0,27.0,,0.01,0.1,1.03,-1.0,0.0,1.0,1.04,1.16,89.0,2961.0,0.0,2.99,,12.68,1.147,98.8,,31.8,5.0,0.0,0.0,0.0,0.0,0.0,0.0,0.0,0.0,2.27,,,0,0,0,0,0,0,0,0,0,0,0,0,0,0,0,0,,0.0,,,,0.0,38.9907,-76.939865,0.11,32.5,22.0,2.0,1.1
120,602804,1745469199768,,,,,,,,,,,,,,,,,,,,,,,,,,,,,,,,,,0,0,0,0,0,0,0,0,0,0,0,0,0,0,0,0,,,,,,,,,,,,,
121,602824,1745469199788,0.0,13.0,,0.02,0.12,1.01,-1.0,0.0,1.0,1.01,1.16,87.0,2981.0,0.0,2.97,,12.64,1.102,98.8,,33.4,5.0,,,,,,,,,,,,0,0,0,0,0,0,0,0,0,0,0,0,0,0,0,0,,,,,,0.0,,,,,,,
122,602844,1745469199808,,,,,,,,,,,,,,,,,,,,,,,,,,,,,,,,,,0,0,0,0,0,0,0,0,0,0,0,0,0,0,0,0,,,,,,,,,,,,,
123,602864,1745469199828,0.0,17.0,,0.03,0.1,0.96,0.0,-1.0,1.0,0.96,1.16,83.0,2897.0,0.0,3.02,,12.64,1.102,98.8,,33.4,5.0,,,,,,,,,,,,0,0,0,0,0,0,0,0,0,0,0,0,0,0,0,0,,,,,,0.0,,,,,,,
124,602884,1745469199848,,,,,,,,,,,,,,,,,,,,,,,0.0,0.0,0.0,0.0,0.0,0.0,0.0,0.0,2.27,,,0,0,0,0,0,0,0,0,0,0,0,0,0,0,0,0,,0.0,,,,,38.9907,-76.939865,0.08,32.5,22.0,2.0,1.1
125,602904,1745469199868,0.0,20.0,,0.01,0.09,0.96,0.0,0.0,0.0,0.97,1.16,83.0,2897.0,0.0,3.02,,12.63,1.072,98.8,,31.4,5.0,,,,,,,,,,,,0,0,0,0,0,0,0,0,0,0,0,0,0,0,0,0,,,,,,0.0,,,,,,,
126,602924,1745469199888,,,,,,,,,,,,,,,,,,,,,,,,,,,,,,,,,,0,0,0,0,0,0,0,0,0,0,0,0,0,0,0,0,,,,,,,,,,,,,
127,602944,1745469199908,0.0,24.0,,0.0,0.07,0.99,0.0,0.0,1.0,0.99,1.16,86.0,2704.0,0.0,3.04,,12.69,1.075,98.8,,31.4,5.0,,,,,,,,,,,,0,0,0,0,0,0,0,0,0,0,0,0,0,0,0,0,,,,,,0.0,,,,,,,
128,602964,1745469199928,,,,,,,,,,,,,,,,,,,,,,,,,,,,,,,,,,0,0,0,0,0,0,0,0,0,0,0,0,0,0,0,0,,,,,,,,,,,,,
129,602984,1745469199948,0.0,24.0,,-0.01,0.09,0.95,0.0,0.0,0.0,0.96,1.16,83.0,2680.0,0.0,3.07,,12.79,1.121,98.8,,31.4,5.0,0.0,0.0,0.0,0.0,0.0,0.0,0.0,0.0,2.27,,,0,0,0,0,0,0,0,0,0,0,0,0,0,0,0,0,,0.0,,,,0.0,38.9907,-76.939865,0.08,32.5,22.0,2.0,1.1
130,603004,1745469199968,,,,,,,,,,,,,,,,,,,,,,,,,,,,,,,,,,0,0,0,0,0,0,0,0,0,0,0,0,0,0,0,0,,,,,,,,,,,,,
131,603024,1745469199988,0.0,24.0,,-0.03,0.06,0.98,1.0,0.0,0.0,0.99,1.16,85.0,2804.0,0.0,3.13,,12.8,1.175,98.8,,29.3,5.0,,,,,,,,,,,,0,0,0,0,0,0,0,0,0,0,0,0,0,0,0,0,,,,,,0.0,,,,,,,
132,603044,1745469200000,,,,,,,,,,,,,,,,,,,,,,,,,,,,,,,,,,0,0,0,0,0,0,0,0,0,0,0,0,0,0,0,0,,,,,,,,,,,,,
133,603064,1745469200020,0.0,27.0,,-0.04,0.05,1.02,0.0,0.0,0.0,1.03,1.16,89.0,2812.0,0.0,3.06,,12.8,1.175,98.8,,29.3,5.0,,,,,,,,,,,,0,0,0,0,0,0,0,0,0,0,0,0,0,0,0,0,,,,,,0.0,,,,,,,
134,603084,1745469200040,,,,,,,,,,,,,,,,,,,,,,,0.0,0.0,0.0,0.0,0.0,0.0,0.0,0.0,2.27,,,0,0,0,0,0,0,0,0,0,0,0,0,0,0,0,0,,0.0,,,,,38.9907,-76.939865,0.08,32.5,22.0,2.0,1.1
135,603104,1745469200060,0.0,30.0,,-0.03,0.05,0.98,0.0,0.0,0.0,0.99,1.16,85.0,2812.0,0.0,3.06,,12.76,1.249,98.8,,30.3,5.0,,,,,,,,,,,,0,0,0,0,0,0,0,0,0,0,0,0,0,0,0,0,,,,,,0.0,,,,,,,
136,603124,1745469200080,,,,,,,,,,,,,,,,,,,,,,,,,,,,,,,,,,0,0,0,0,0,0,0,0,0,0,0,0,0,0,0,0,,,,,,,,,,,,,
137,603144,1745469200108,0.0,24.0,,-0.05,0.01,0.95,1.0,0.0,0.0,0.95,1.16,82.0,2720.0,0.0,3.08,,12.81,1.252,98.8,,30.3,5.0,,,,,,,,,,,,0,0,0,0,0,0,0,0,0,0,0,0,0,0,0,0,,,,,,0.0,,,,,,,
138,603164,1745469200128,,,,,,,,,,,,,,,,,,,,,,,,,,,,,,,,,,0,0,0,0,0,0,0,0,0,0,0,0,0,0,0,0,,,,,,,,,,,,,
139,603184,1745469200148,0.0,17.0,,-0.07,-0.0,1.0,1.0,0.0,0.0,1.0,1.16,86.0,2870.0,0.0,3.04,,12.75,1.215,98.8,,30.3,5.0,0.0,0.0,0.0,0.0,0.0,0.0,0.0,0.0,2.26,,,0,0,0,0,0,0,0,0,0,0,0,0,0,0,0,0,,0.0,,,,0.0,38.9907,-76.939865,0.08,32.5,22.0,2.0,1.1
140,603204,1745469200168,,,,,,,,,,,,,,,,,,,,,,,,,,,,,,,,,,0,0,0,0,0,0,0,0,0,0,0,0,0,0,0,0,,,,,,,,,,,,,
141,603224,1745469200188,0.0,20.0,,-0.07,-0.04,1.06,0.0,0.0,0.0,1.06,1.16,92.0,2858.0,0.0,3.03,,12.71,1.21,98.8,,31.7,5.0,,,,,,,,,,,,0,0,0,0,0,0,0,0,0,0,0,0,0,0,0,0,,,,,,0.0,,,,,,,
142,603244,1745469200210,,,,,,,,,,,,,,,,,,,,,,,,,,,,,,,,,,0,0,0,0,0,0,0,0,0,0,0,0,0,0,0,0,,,,,,,,,,,,,
143,603264,1745469200230,0.0,27.0,,-0.06,0.0,1.06,-1.0,0.0,0.0,1.06,1.16,91.0,2820.0,0.0,3.02,,12.71,1.21,98.8,,31.7,5.0,,,,,,,,,,,,0,0,0,0,0,0,0,0,0,0,0,0,0,0,0,0,,,,,,0.0,,,,,,,
144,603284,1745469200250,,,,,,,,,,,,,,,,,,,,,,,0.0,0.0,0.0,0.0,0.0,0.0,0.0,0.0,2.26,,,0,0,0,0,0,0,0,0,0,0,0,0,0,0,0,0,,0.0,,,,,38.9907,-76.939865,0.09,32.5,22.0,2.0,1.1
145,603304,1745469200270,0.0,37.0,,-0.03,-0.01,1.01,0.0,0.0,0.0,1.01,1.16,87.0,2820.0,0.0,3.02,,12.69,1.19,98.8,,31.2,5.0,,,,,,,,,,,,0,0,0,0,0,0,0,0,0,0,0,0,0,0,0,0,,,,,,0.0,,,,,,,
146,603324,1745469200290,,,,,,,,,,,,,,,,,,,,,,,,,,,,,,,,,,0,0,0,0,0,0,0,0,0,0,0,0,0,0,0,0,,,,,,,,,,,,,
147,603344,1745469200310,0.0,30.0,,-0.06,0.0,1.0,0.0,0.0,0.0,1.0,1.16,86.0,2774.0,0.0,3.03,,12.76,1.164,98.8,,31.2,5.0,,,,,,,,,,,,0,0,0,0,0,0,0,0,0,0,0,0,0,0,0,0,,,,,,0.0,,,,,,,
148,603364,1745469200330,,,,,,,,,,,,,,,,,,,,,,,,,,,,,,,,,,0,0,0,0,0,0,0,0,0,0,0,0,0,0,0,0,,,,,,,,,,,,,
149,603384,1745469200350,0.0,44.0,13.76,-0.07,-0.04,1.04,0.0,0.0,0.0,1.04,1.16,90.0,2862.0,0.0,3.03,15.0,12.68,1.166,98.8,165.0,31.2,5.0,0.0,0.0,0.0,0.0,0.0,0.0,0.0,0.0,2.27,0.0,1.0,0,0,0,0,0,0,0,0,0,0,0,0,0,0,0,0,0.0,0.0,1.0,0.0,0.0,0.0,38.9907,-76.939865,0.0,32.5,22.0,2.0,1.1
150,603404,1745469200370,,,,,,,,,,,,,,,,,,,,,,,,,,,,,,,,,,0,0,0,0,0,0,0,0,0,0,0,0,0,0,0,0,,,,,,,,,,,,,
151,603424,1745469200390,0.0,13.0,,-0.07,0.01,1.03,0.0,0.0,0.0,1.03,1.16,89.0,2780.0,0.0,3.06,,12.72,1.207,98.8,,31.1,5.0,,,,,,,,,,,,0,0,0,0,0,0,0,0,0,0,0,0,0,0,0,0,,,,,,0.0,,,,,,,
152,603444,1745469200410,,,,,,,,,,,,,,,,,,,,,,,,,,,,,,,,,,0,0,0,0,0,0,0,0,0,0,0,0,0,0,0,0,,,,,,,,,,,,,
153,603464,1745469200430,0.0,20.0,,-0.06,-0.01,1.02,0.0,0.0,0.0,1.02,1.16,88.0,2706.0,0.0,3.09,,12.72,1.207,98.8,,31.1,5.0,,,,,,,,,,,,0,0,0,0,0,0,0,0,0,0,0,0,0,0,0,0,,,,,,0.0,,,,,,,
154,603484,1745469200450,,,,,,,,,,,,,,,,,,,,,,,0.0,0.0,0.0,0.0,0.0,0.0,0.0,0.0,2.27,,,0,0,0,0,0,0,0,0,0,0,0,0,0,0,0,0,,0.0,,,,,38.9907,-76.939865,0.08,32.5,22.0,2.0,1.1
155,603504,1745469200470,0.0,24.0,,-0.05,0.01,1.01,0.0,0.0,0.0,1.01,1.16,87.0,2706.0,0.0,3.09,,12.77,1.206,98.8,,29.0,5.0,,,,,,,,,,,,0,0,0,0,0,0,0,0,0,0,0,0,0,0,0,0,,,,,,0.0,,,,,,,
156,603524,1745469200490,,,,,,,,,,,,,,,,,,,,,,,,,,,,,,,,,,0,0,0,0,0,0,0,0,0,0,0,0,0,0,0,0,,,,,,,,,,,,,
157,603544,1745469200509,0.0,24.0,,-0.06,-0.05,1.04,0.0,0.0,0.0,1.04,1.16,90.0,2613.0,0.0,3.14,,12.87,1.197,98.8,,29.0,5.0,,,,,,,,,,,,0,0,0,0,0,0,0,0,0,0,0,0,0,0,0,0,,,,,,0.0,,,,,,,
158,603564,1745469200529,,,,,,,,,,,,,,,,,,,,,,,,,,,,,,,,,,0,0,0,0,0,0,0,0,0,0,0,0,0,0,0,0,,,,,,,,,,,,,
159,603584,1745469200549,0.0,51.0,,-0.06,-0.0,1.02,-1.0,0.0,0.0,1.03,1.16,89.0,2735.0,0.0,3.16,,12.91,1.192,98.8,,29.0,5.0,0.0,0.0,0.0,0.0,0.0,0.0,0.0,0.0,2.28,,,0,0,0,0,0,0,0,0,0,0,0,0,0,0,0,0,,0.0,,,,0.0,38.9907,-76.939865,0.09,32.5,22.0,2.0,1.1
160,603604,1745469200569,,,,,,,,,,,,,,,,,,,,,,,,,,,,,,,,,,0,0,0,0,0,0,0,0,0,0,0,0,0,0,0,0,,,,,,,,,,,,,
161,603624,1745469200589,0.0,37.0,,-0.07,0.01,0.99,0.0,0.0,0.0,0.99,1.16,86.0,2716.0,0.0,3.1,,12.91,1.249,98.8,,29.7,5.0,,,,,,,,,,,,0,0,0,0,0,0,0,0,0,0,0,0,0,0,0,0,,,,,,0.0,,,,,,,
162,603644,1745469200609,,,,,,,,,,,,,,,,,,,,,,,,,,,,,,,,,,0,0,0,0,0,0,0,0,0,0,0,0,0,0,0,0,,,,,,,,,,,,,
163,603664,1745469200629,0.0,37.0,,-0.06,-0.03,1.03,0.0,0.0,0.0,1.03,1.16,89.0,2769.0,0.0,3.08,,12.91,1.249,98.8,,29.7,5.0,,,,,,,,,,,,0,0,0,0,0,0,0,0,0,0,0,0,0,0,0,0,,,,,,0.0,,,,,,,
164,603684,1745469200649,,,,,,,,,,,,,,,,,,,,,,,0.0,0.0,0.0,0.0,0.0,0.0,0.0,0.0,2.26,,,0,0,0,0,0,0,0,0,0,0,0,0,0,0,0,0,,0.0,,,,,38.9907,-76.939865,0.08,32.5,22.0,2.0,1.1
165,603704,1745469200669,0.0,44.0,,-0.06,-0.02,1.0,0.0,0.0,0.0,1.0,1.16,87.0,2769.0,0.0,3.08,,12.88,1.25,98.8,,29.7,5.0,,,,,,,,,,,,0,0,0,0,0,0,0,0,0,0,0,0,0,0,0,0,,,,,,0.0,,,,,,,
166,603724,1745469200689,,,,,,,,,,,,,,,,,,,,,,,,,,,,,,,,,,0,0,0,0,0,0,0,0,0,0,0,0,0,0,0,0,,,,,,,,,,,,,
167,603744,1745469200709,0.0,24.0,,-0.06,-0.01,1.02,0.0,0.0,0.0,1.02,1.16,88.0,2623.0,0.0,3.1,,12.95,1.226,98.8,,29.7,5.0,,,,,,,,,,,,0,0,0,0,0,0,0,0,0,0,0,0,0,0,0,0,,,,,,0.0,,,,,,,
168,603764,1745469200729,,,,,,,,,,,,,,,,,,,,,,,,,,,,,,,,,,0,0,0,0,0,0,0,0,0,0,0,0,0,0,0,0,,,,,,,,,,,,,
169,603784,1745469200749,0.0,27.0,,-0.07,0.05,1.01,0.0,0.0,0.0,1.01,1.16,87.0,2627.0,0.0,3.1,,12.95,1.163,98.8,,29.7,5.0,0.0,0.0,0.0,0.0,0.0,0.0,0.0,0.0,2.26,,,0,0,0,0,0,0,0,0,0,0,0,0,0,0,0,0,,0.0,,,,0.0,38.9907,-76.939865,0.04,32.5,22.0,2.0,1.1
170,603804,1745469200769,,,,,,,,,,,,,,,,,,,,,,,,,,,,,,,,,,0,0,0,0,0,0,0,0,0,0,0,0,0,0,0,0,,,,,,,,,,,,,
171,603824,1745469200789,0.0,27.0,,-0.07,0.05,0.99,0.0,0.0,0.0,1.0,1.16,86.0,2712.0,0.0,3.11,,12.93,1.133,98.8,,29.3,5.0,,,,,,,,,,,,0,0,0,0,0,0,0,0,0,0,0,0,0,0,0,0,,,,,,0.0,,,,,,,
172,603844,1745469200809,,,,,,,,,,,,,,,,,,,,,,,,,,,,,,,,,,0,0,0,0,0,0,0,0,0,0,0,0,0,0,0,0,,,,,,,,,,,,,
173,603864,1745469200829,0.0,17.0,,-0.07,0.03,1.01,0.0,0.0,0.0,1.02,1.16,88.0,2696.0,0.0,3.09,,12.93,1.133,98.8,,29.3,5.0,,,,,,,,,,,,0,0,0,0,0,0,0,0,0,0,0,0,0,0,0,0,,,,,,0.0,,,,,,,
174,603884,1745469200849,,,,,,,,,,,,,,,,,,,,,,,0.0,0.0,0.0,0.0,0.0,0.0,0.0,0.0,2.27,,,0,0,0,0,0,0,0,0,0,0,0,0,0,0,0,0,,0.0,,,,,38.9907,-76.939865,0.47,32.5,22.0,2.0,1.1
175,603904,1745469200869,0.0,37.0,,-0.07,0.03,1.0,0.0,0.0,0.0,1.01,1.16,87.0,2696.0,0.0,3.09,,12.88,1.158,98.8,,28.8,5.0,,,,,,,,,,,,0,0,0,0,0,0,0,0,0,0,0,0,0,0,0,0,,,,,,0.0,,,,,,,
176,603924,1745469200889,,,,,,,,,,,,,,,,,,,,,,,,,,,,,,,,,,0,0,0,0,0,0,0,0,0,0,0,0,0,0,0,0,,,,,,,,,,,,,
177,603944,1745469200909,0.0,37.0,,-0.07,0.01,0.99,0.0,0.0,0.0,0.99,1.16,85.0,2614.0,0.0,3.15,,12.96,1.17,98.8,,28.8,5.0,,,,,,,,,,,,0,0,0,0,0,0,0,0,0,0,0,0,0,0,0,0,,,,,,0.0,,,,,,,
178,603964,1745469200929,,,,,,,,,,,,,,,,,,,,,,,,,,,,,,,,,,0,0,0,0,0,0,0,0,0,0,0,0,0,0,0,0,,,,,,,,,,,,,
179,603984,1745469200949,0.0,44.0,,-0.06,-0.03,1.01,0.0,0.0,0.0,1.01,1.16,87.0,2552.0,0.0,3.18,,13.05,1.151,98.8,,28.8,5.0,0.0,0.0,0.0,0.0,0.0,0.0,0.0,0.0,2.27,,,0,0,0,0,0,0,0,0,0,0,0,0,0,0,0,0,,0.0,,,,0.0,38.9907,-76.939865,0.32,32.5,22.0,2.0,1.1
180,604004,1745469200969,,,,,,,,,,,,,,,,,,,,,,,,,,,,,,,,,,0,0,0,0,0,0,0,0,0,0,0,0,0,0,0,0,,,,,,,,,,,,,
181,604024,1745469200989,0.0,41.0,,-0.06,-0.02,0.99,0.0,0.0,0.0,1.0,1.16,86.0,2509.0,0.0,3.22,,13.11,1.133,98.8,,27.5,5.0,,,,,,,,,,,,0,0,0,0,0,0,0,0,0,0,0,0,0,0,0,0,,,,,,0.0,,,,,,,
182,604044,1745469200999,,,,,,,,,,,,,,,,,,,,,,,,,,,,,,,,,,0,0,0,0,0,0,0,0,0,0,0,0,0,0,0,0,,,,,,,,,,,,,
183,604064,1745469201019,0.0,17.0,,-0.06,0.0,1.0,0.0,0.0,0.0,1.0,1.16,86.0,2413.0,0.0,3.24,,13.11,1.133,98.8,,27.5,5.0,,,,,,,,,,,,0,0,0,0,0,0,0,0,0,0,0,0,0,0,0,0,,,,,,0.0,,,,,,,
184,604084,1745469201039,,,,,,,,,,,,,,,,,,,,,,,0.0,0.0,0.0,0.0,0.0,0.0,0.0,0.0,2.28,,,0,0,0,0,0,0,0,0,0,0,0,0,0,0,0,0,,0.0,,,,,38.9907,-76.939865,0.0,32.5,22.0,2.0,1.1
185,604104,1745469201059,0.0,37.0,,-0.06,-0.02,0.98,0.0,0.0,0.0,0.98,1.16,85.0,2413.0,0.0,3.24,,13.23,1.135,98.8,,25.7,5.0,,,,,,,,,,,,0,0,0,0,0,0,0,0,0,0,0,0,0,0,0,0,,,,,,0.0,,,,,,,
186,604124,1745469201079,,,,,,,,,,,,,,,,,,,,,,,,,,,,,,,,,,0,0,0,0,0,0,0,0,0,0,0,0,0,0,0,0,,,,,,,,,,,,,
187,604144,1745469201109,0.0,30.0,,-0.06,-0.04,1.0,0.0,0.0,0.0,1.0,1.16,87.0,2359.0,0.0,3.28,,13.23,1.162,98.8,,25.7,5.0,,,,,,,,,,,,0,0,0,0,0,0,0,0,0,0,0,0,0,0,0,0,,,,,,0.0,,,,,,,
188,604164,1745469201129,,,,,,,,,,,,,,,,,,,,,,,,,,,,,,,,,,0,0,0,0,0,0,0,0,0,0,0,0,0,0,0,0,,,,,,,,,,,,,
189,604184,1745469201149,0.0,30.0,,-0.06,-0.01,0.97,0.0,0.0,0.0,0.98,1.16,84.0,2570.0,0.0,3.17,,13.16,1.244,98.8,,25.7,5.0,0.0,0.0,0.0,0.0,0.0,0.0,0.0,0.0,2.27,,,0,0,0,0,0,0,0,0,0,0,0,0,0,0,0,0,,0.0,,,,0.0,38.9907,-76.939865,0.3,32.5,22.0,2.0,1.1
190,604204,1745469201169,,,,,,,,,,,,,,,,,,,,,,,,,,,,,,,,,,0,0,0,0,0,0,0,0,0,0,0,0,0,0,0,0,,,,,,,,,,,,,
191,604224,1745469201189,0.0,34.0,,-0.05,-0.01,1.01,0.0,0.0,0.0,1.01,1.16,87.0,2492.0,0.0,3.16,,13.16,1.247,98.8,,28.6,5.0,,,,,,,,,,,,0,0,0,0,0,0,0,0,0,0,0,0,0,0,0,0,,,,,,0.0,,,,,,,
192,604244,1745469201207,,,,,,,,,,,,,,,,,,,,,,,,,,,,,,,,,,0,0,0,0,0,0,0,0,0,0,0,0,0,0,0,0,,,,,,,,,,,,,
193,604264,1745469201227,0.0,34.0,,-0.06,-0.01,1.0,0.0,0.0,0.0,1.0,1.16,87.0,2508.0,0.0,3.18,,13.16,1.247,98.8,,28.6,5.0,,,,,,,,,,,,0,0,0,0,0,0,0,0,0,0,0,0,0,0,0,0,,,,,,0.0,,,,,,,
194,604284,1745469201247,,,,,,,,,,,,,,,,,,,,,,,0.0,0.0,0.0,0.0,0.0,0.0,0.0,0.0,2.26,,,0,0,0,0,0,0,0,0,0,0,0,0,0,0,0,0,,0.0,,,,,38.9907,-76.939865,0.24,32.5,22.0,2.0,1.1
195,604304,1745469201267,0.0,47.0,,-0.05,-0.02,0.99,0.0,0.0,0.0,1.0,1.16,86.0,2508.0,0.0,3.18,,13.2,1.2,98.8,,27.6,5.0,,,,,,,,,,,,0,0,0,0,0,0,0,0,0,0,0,0,0,0,0,0,,,,,,0.0,,,,,,,
196,604324,1745469201287,,,,,,,,,,,,,,,,,,,,,,,,,,,,,,,,,,0,0,0,0,0,0,0,0,0,0,0,0,0,0,0,0,,,,,,,,,,,,,
197,604344,1745469201309,0.0,41.0,,-0.05,0.0,1.0,1.0,0.0,0.0,1.0,1.16,87.0,2418.0,0.0,3.2,,13.25,1.143,98.8,,27.6,5.0,,,,,,,,,,,,0,0,0,0,0,0,0,0,0,0,0,0,0,0,0,0,,,,,,0.0,,,,,,,
198,604364,1745469201329,,,,,,,,,,,,,,,,,,,,,,,,,,,,,,,,,,0,0,0,0,0,0,0,0,0,0,0,0,0,0,0,0,,,,,,,,,,,,,
199,604384,1745469201349,0.0,37.0,13.81,-0.05,-0.03,1.02,0.0,0.0,0.0,1.02,1.16,88.0,2363.0,0.0,3.23,15.0,13.28,1.109,98.8,165.0,27.6,5.0,0.0,0.0,0.0,0.0,0.0,0.0,0.0,0.0,2.27,0.0,1.0,0,0,0,0,0,0,0,0,0,0,0,0,0,0,0,0,0.0,0.0,1.0,0.0,0.0,0.0,38.9907,-76.939865,0.13,32.5,22.0,2.0,1.1
200,604404,1745469201369,,,,,,,,,,,,,,,,,,,,,,,,,,,,,,,,,,0,0,0,0,0,0,0,0,0,0,0,0,0,0,0,0,,,,,,,,,,,,,
201,604424,1745469201389,0.0,27.0,,-0.06,-0.02,1.0,1.0,0.0,0.0,1.0,1.16,87.0,2596.0,0.0,3.26,,13.23,1.12,98.8,,26.5,5.0,,,,,,,,,,,,0,0,0,0,0,0,0,0,0,0,0,0,0,0,0,0,,,,,,0.0,,,,,,,
202,604444,1745469201408,,,,,,,,,,,,,,,,,,,,,,,,,,,,,,,,,,0,0,0,0,0,0,0,0,0,0,0,0,0,0,0,0,,,,,,,,,,,,,
203,604464,1745469201428,0.0,24.0,,-0.04,-0.04,0.98,0.0,0.0,0.0,0.98,1.16,85.0,2432.0,0.0,3.19,,13.23,1.12,98.8,,26.5,5.0,,,,,,,,,,,,0,0,0,0,0,0,0,0,0,0,0,0,0,0,0,0,,,,,,0.0,,,,,,,
204,604484,1745469201448,,,,,,,,,,,,,,,,,,,,,,,0.0,0.0,0.0,0.0,0.0,0.0,0.0,0.0,2.27,,,0,0,0,0,0,0,0,0,0,0,0,0,0,0,0,0,,0.0,,,,,38.9907,-76.939865,0.07,32.5,22.0,2.0,1.1
205,604504,1745469201468,0.0,34.0,,-0.06,-0.03,1.0,0.0,0.0,0.0,1.0,1.16,86.0,2432.0,0.0,3.19,,13.23,1.204,98.8,,27.7,5.0,,,,,,,,,,,,0,0,0,0,0,0,0,0,0,0,0,0,0,0,0,0,,,,,,0.0,,,,,,,
206,604524,1745469201488,,,,,,,,,,,,,,,,,,,,,,,,,,,,,,,,,,0,0,0,0,0,0,0,0,0,0,0,0,0,0,0,0,,,,,,,,,,,,,
207,604544,1745469201508,0.0,47.0,,-0.06,-0.0,0.98,0.0,0.0,0.0,0.98,1.16,85.0,2654.0,0.0,3.2,,13.16,1.23,98.8,,27.7,5.0,,,,,,,,,,,,0,0,0,0,0,0,0,0,0,0,0,0,0,0,0,0,,,,,,0.0,,,,,,,
208,604564,1745469201528,,,,,,,,,,,,,,,,,,,,,,,,,,,,,,,,,,0,0,0,0,0,0,0,0,0,0,0,0,0,0,0,0,,,,,,,,,,,,,
209,604584,1745469201548,0.0,47.0,,-0.07,0.01,1.01,0.0,0.0,0.0,1.01,1.16,87.0,2579.0,0.0,3.17,,13.19,1.216,98.8,,27.7,5.0,0.0,0.0,0.0,0.0,0.0,0.0,0.0,0.0,2.28,,,0,0,0,0,0,0,0,0,0,0,0,0,0,0,0,0,,0.0,,,,0.0,38.9907,-76.939865,0.05,32.4,22.0,2.0,1.1
210,604604,1745469201568,,,,,,,,,,,,,,,,,,,,,,,,,,,,,,,,,,0,0,0,0,0,0,0,0,0,0,0,0,0,0,0,0,,,,,,,,,,,,,
211,604624,1745469201588,0.0,41.0,,-0.07,0.02,0.99,0.0,0.0,0.0,0.99,1.16,85.0,2555.0,0.0,3.13,,13.12,1.173,98.8,,28.5,5.0,,,,,,,,,,,,0,0,0,0,0,0,0,0,0,0,0,0,0,0,0,0,,,,,,0.0,,,,,,,
212,604644,1745469201608,,,,,,,,,,,,,,,,,,,,,,,,,,,,,,,,,,0,0,0,0,0,0,0,0,0,0,0,0,0,0,0,0,,,,,,,,,,,,,
213,604664,1745469201628,0.0,41.0,,-0.08,0.03,0.99,0.0,0.0,0.0,1.0,1.16,86.0,2510.0,0.0,3.18,,13.12,1.173,98.8,,28.5,5.0,,,,,,,,,,,,0,0,0,0,0,0,0,0,0,0,0,0,0,0,0,0,,,,,,0.0,,,,,,,
214,604684,1745469201648,,,,,,,,,,,,,,,,,,,,,,,0.0,0.0,0.0,0.0,0.0,0.0,0.0,0.0,2.27,,,0,0,0,0,0,0,0,0,0,0,0,0,0,0,0,0,,0.0,,,,,38.9907,-76.939865,0.11,32.4,22.0,2.0,1.1
215,604704,1745469201668,0.0,41.0,,-0.08,0.0,1.01,0.0,0.0,0.0,1.01,1.16,87.0,2510.0,0.0,3.18,,13.13,1.142,98.8,,26.8,5.0,,,,,,,,,,,,0,0,0,0,0,0,0,0,0,0,0,0,0,0,0,0,,,,,,0.0,,,,,,,
216,604724,1745469201688,,,,,,,,,,,,,,,,,,,,,,,,,,,,,,,,,,0,0,0,0,0,0,0,0,0,0,0,0,0,0,0,0,,,,,,,,,,,,,
217,604744,1745469201708,0.0,34.0,,-0.06,0.01,0.97,0.0,0.0,0.0,0.98,1.16,84.0,2467.0,0.0,3.24,,13.2,1.112,98.8,,26.8,5.0,,,,,,,,,,,,0,0,0,0,0,0,0,0,0,0,0,0,0,0,0,0,,,,,,0.0,,,,,,,
218,604764,1745469201728,,,,,,,,,,,,,,,,,,,,,,,,,,,,,,,,,,0,0,0,0,0,0,0,0,0,0,0,0,0,0,0,0,,,,,,,,,,,,,
219,604784,1745469201748,0.0,41.0,,-0.06,-0.01,0.99,0.0,0.0,0.0,0.99,1.16,86.0,2681.0,0.0,3.12,,13.11,1.124,98.8,,26.8,5.0,0.0,0.0,0.0,0.0,0.0,0.0,0.0,0.0,2.26,,,0,0,0,0,0,0,0,0,0,0,0,0,0,0,0,0,,0.0,,,,0.0,38.9907,-76.939865,0.05,32.4,22.0,2.0,1.1
220,604804,1745469201768,,,,,,,,,,,,,,,,,,,,,,,,,,,,,,,,,,0,0,0,0,0,0,0,0,0,0,0,0,0,0,0,0,,,,,,,,,,,,,
221,604824,1745469201788,0.0,30.0,,-0.06,0.01,0.97,0.0,0.0,0.0,0.97,1.16,84.0,2596.0,0.0,3.18,,13.07,1.225,98.8,,28.0,5.0,,,,,,,,,,,,0,0,0,0,0,0,0,0,0,0,0,0,0,0,0,0,,,,,,0.0,,,,,,,
222,604844,1745469201808,,,,,,,,,,,,,,,,,,,,,,,,,,,,,,,,,,0,0,0,0,0,0,0,0,0,0,0,0,0,0,0,0,,,,,,,,,,,,,
223,604864,1745469201828,0.0,41.0,,-0.07,0.0,0.98,0.0,0.0,0.0,0.99,1.16,85.0,2564.0,0.0,3.19,,13.07,1.225,98.8,,28.0,5.0,,,,,,,,,,,,0,0,0,0,0,0,0,0,0,0,0,0,0,0,0,0,,,,,,0.0,,,,,,,
224,604884,1745469201848,,,,,,,,,,,,,,,,,,,,,,,0.0,0.0,0.0,0.0,0.0,0.0,0.0,0.0,2.26,,,0,0,0,0,0,0,0,0,0,0,0,0,0,0,0,0,,0.0,,,,,38.9907,-76.939865,0.04,32.4,22.0,2.0,1.1
225,604904,1745469201868,0.0,34.0,,-0.07,-0.0,1.0,0.0,0.0,0.0,1.0,1.16,86.0,2564.0,0.0,3.19,,13.08,1.213,98.8,,27.4,5.0,,,,,,,,,,,,0,0,0,0,0,0,0,0,0,0,0,0,0,0,0,0,,,,,,0.0,,,,,,,
226,604924,1745469201888,,,,,,,,,,,,,,,,,,,,,,,,,,,,,,,,,,0,0,0,0,0,0,0,0,0,0,0,0,0,0,0,0,,,,,,,,,,,,,
227,604944,1745469201909,0.0,41.0,,-0.07,0.0,1.01,0.0,0.0,0.0,1.01,1.16,87.0,2512.0,0.0,3.22,,13.13,1.177,98.8,,27.4,5.0,,,,,,,,,,,,0,0,0,0,0,0,0,0,0,0,0,0,0,0,0,0,,,,,,0.0,,,,,,,
228,604984,1745469201949,0.0,57.0,,-0.08,0.0,1.01,0.0,0.0,0.0,1.01,1.16,88.0,2718.0,0.0,3.11,,13.04,1.186,98.8,,27.4,5.0,0.0,0.0,0.0,0.0,0.0,0.0,0.0,0.0,2.27,,,0,0,0,0,0,0,0,0,0,0,0,0,0,0,0,0,,0.0,,,,0.0,38.9907,-76.939865,0.06,32.4,22.0,2.0,1.1
229,605004,1745469201969,,,,,,,,,,,,,,,,,,,,,,,,,,,,,,,,,,0,0,0,0,0,0,0,0,0,0,0,0,0,0,0,0,,,,,,,,,,,,,
230,605024,1745469201989,0.0,30.0,,-0.07,0.01,1.02,0.0,0.0,0.0,1.02,1.16,88.0,2634.0,0.0,3.12,,12.97,1.238,98.8,,29.2,5.0,,,,,,,,,,,,0,0,0,0,0,0,0,0,0,0,0,0,0,0,0,0,,,,,,0.0,,,,,,,
231,605044,1745469201998,,,,,,,,,,,,,,,,,,,,,,,,,,,,,,,,,,0,0,0,0,0,0,0,0,0,0,0,0,0,0,0,0,,,,,,,,,,,,,
232,605064,1745469202018,0.0,37.0,,-0.08,-0.0,1.02,0.0,0.0,0.0,1.02,1.16,88.0,2502.0,0.0,3.15,,12.97,1.238,98.8,,29.2,5.0,,,,,,,,,,,,0,0,0,0,0,0,0,0,0,0,0,0,0,0,0,0,,,,,,0.0,,,,,,,
233,605084,1745469202038,,,,,,,,,,,,,,,,,,,,,,,0.0,0.0,0.0,0.0,0.0,0.0,0.0,0.0,2.27,,,0,0,0,0,0,0,0,0,0,0,0,0,0,0,0,0,,0.0,,,,,38.9907,-76.939865,0.07,32.4,22.0,2.0,1.1
234,605104,1745469202058,0.0,68.0,,-0.07,-0.0,1.01,0.0,0.0,0.0,1.01,1.16,88.0,2502.0,0.0,3.15,,13.08,1.212,98.8,,28.0,5.0,,,,,,,,,,,,0,0,0,0,0,0,0,0,0,0,0,0,0,0,0,0,,,,,,0.0,,,,,,,
235,605124,1745469202078,,,,,,,,,,,,,,,,,,,,,,,,,,,,,,,,,,0,0,0,0,0,0,0,0,0,0,0,0,0,0,0,0,,,,,,,,,,,,,
236,605144,1745469202106,0.0,13.0,,-0.07,0.01,1.01,0.0,0.0,0.0,1.02,1.16,88.0,2444.0,0.0,3.18,,13.16,1.163,98.8,,28.0,5.0,,,,,,,,,,,,0,0,0,0,0,0,0,0,0,0,0,0,0,0,0,0,,,,,,0.0,,,,,,,
237,605164,1745469202126,,,,,,,,,,,,,,,,,,,,,,,,,,,,,,,,,,0,0,0,0,0,0,0,0,0,0,0,0,0,0,0,0,,,,,,,,,,,,,
238,605184,1745469202146,0.0,51.0,,-0.07,-0.01,1.02,0.0,0.0,0.0,1.02,1.16,88.0,2347.0,0.0,3.24,,13.27,1.174,98.8,,28.0,5.0,0.0,0.0,0.0,0.0,0.0,0.0,0.0,0.0,2.27,,,0,0,0,0,0,0,0,0,0,0,0,0,0,0,0,0,,0.0,,,,0.0,38.9907,-76.939865,0.0,32.4,22.0,2.0,1.1
239,605204,1745469202166,,,,,,,,,,,,,,,,,,,,,,,,,,,,,,,,,,0,0,0,0,0,0,0,0,0,0,0,0,0,0,0,0,,,,,,,,,,,,,
240,605224,1745469202186,0.0,47.0,,-0.06,-0.02,1.03,0.0,0.0,0.0,1.03,1.16,89.0,2301.0,0.0,3.25,,13.32,1.198,98.8,,26.2,5.0,,,,,,,,,,,,0,0,0,0,0,0,0,0,0,0,0,0,0,0,0,0,,,,,,0.0,,,,,,,
241,605244,1745469202206,,,,,,,,,,,,,,,,,,,,,,,,,,,,,,,,,,0,0,0,0,0,0,0,0,0,0,0,0,0,0,0,0,,,,,,,,,,,,,
242,605264,1745469202226,0.0,44.0,,-0.06,-0.02,1.02,0.0,0.0,0.0,1.02,1.16,88.0,2238.0,0.0,3.29,,13.32,1.198,98.8,,26.2,5.0,,,,,,,,,,,,0,0,0,0,0,0,0,0,0,0,0,0,0,0,0,0,,,,,,0.0,,,,,,,
243,605284,1745469202246,,,,,,,,,,,,,,,,,,,,,,,0.0,0.0,0.0,0.0,0.0,0.0,0.0,0.0,2.27,,,0,0,0,0,0,0,0,0,0,0,0,0,0,0,0,0,,0.0,,,,,38.9907,-76.939865,0.04,32.4,22.0,2.0,1.1
244,605304,1745469202266,0.0,54.0,,-0.06,-0.02,1.01,0.0,0.0,0.0,1.01,1.16,87.0,2238.0,0.0,3.29,,13.36,1.218,98.8,,24.8,5.0,,,,,,,,,,,,0,0,0,0,0,0,0,0,0,0,0,0,0,0,0,0,,,,,,0.0,,,,,,,
245,605324,1745469202286,,,,,,,,,,,,,,,,,,,,,,,,,,,,,,,,,,0,0,0,0,0,0,0,0,0,0,0,0,0,0,0,0,,,,,,,,,,,,,
246,605344,1745469202310,0.0,34.0,,-0.06,-0.02,1.0,0.0,0.0,0.0,1.0,1.16,86.0,2258.0,0.0,3.33,,13.4,1.232,98.8,,24.8,5.0,,,,,,,,,,,,0,0,0,0,0,0,0,0,0,0,0,0,0,0,0,0,,,,,,0.0,,,,,,,
247,605364,1745469202330,,,,,,,,,,,,,,,,,,,,,,,,,,,,,,,,,,0,0,0,0,0,0,0,0,0,0,0,0,0,0,0,0,,,,,,,,,,,,,
248,605384,1745469202350,0.0,47.0,13.75,-0.06,-0.01,1.0,0.0,0.0,0.0,1.0,1.16,87.0,2206.0,0.0,3.37,15.0,13.52,1.235,98.8,165.0,24.8,5.0,0.0,0.0,0.0,0.0,0.0,0.0,0.0,0.0,2.26,0.0,1.0,0,0,0,0,0,0,0,0,0,0,0,0,0,0,0,0,0.0,0.0,1.0,0.0,0.0,0.0,38.9907,-76.939865,0.04,32.4,22.0,2.0,1.1
249,605404,1745469202370,,,,,,,,,,,,,,,,,,,,,,,,,,,,,,,,,,0,0,0,0,0,0,0,0,0,0,0,0,0,0,0,0,,,,,,,,,,,,,
250,605424,1745469202390,0.0,30.0,,-0.07,-0.01,1.02,0.0,0.0,0.0,1.02,1.16,88.0,2168.0,0.0,3.38,,13.51,1.23,98.8,,23.3,5.0,,,,,,,,,,,,0,0,0,0,0,0,0,0,0,0,0,0,0,0,0,0,,,,,,0.0,,,,,,,
251,605444,1745469202409,,,,,,,,,,,,,,,,,,,,,,,,,,,,,,,,,,0,0,0,0,0,0,0,0,0,0,0,0,0,0,0,0,,,,,,,,,,,,,
252,605464,1745469202429,0.0,27.0,,-0.07,-0.02,1.01,0.0,0.0,0.0,1.01,1.16,87.0,2110.0,0.0,3.41,,13.51,1.23,98.8,,23.3,5.0,,,,,,,,,,,,0,0,0,0,0,0,0,0,0,0,0,0,0,0,0,0,,,,,,0.0,,,,,,,
253,605484,1745469202449,,,,,,,,,,,,,,,,,,,,,,,0.0,0.0,0.0,0.0,0.0,0.0,0.0,0.0,2.27,,,0,0,0,0,0,0,0,0,0,0,0,0,0,0,0,0,,0.0,,,,,38.9907,-76.939865,0.04,32.4,22.0,2.0,1.1
254,605504,1745469202469,0.0,61.0,,-0.06,-0.02,1.0,0.0,0.0,0.0,1.0,1.16,86.0,2110.0,0.0,3.41,,13.65,1.238,98.8,,24.9,5.0,,,,,,,,,,,,0,0,0,0,0,0,0,0,0,0,0,0,0,0,0,0,,,,,,0.0,,,,,,,
255,605524,1745469202489,,,,,,,,,,,,,,,,,,,,,,,,,,,,,,,,,,0,0,0,0,0,0,0,0,0,0,0,0,0,0,0,0,,,,,,,,,,,,,
256,605544,1745469202509,0.0,51.0,,-0.06,-0.01,1.02,0.0,0.0,0.0,1.02,1.16,88.0,2373.0,0.0,3.27,,13.57,1.245,98.8,,24.9,5.0,,,,,,,,,,,,0,0,0,0,0,0,0,0,0,0,0,0,0,0,0,0,,,,,,0.0,,,,,,,
257,605564,1745469202529,,,,,,,,,,,,,,,,,,,,,,,,,,,,,,,,,,0,0,0,0,0,0,0,0,0,0,0,0,0,0,0,0,,,,,,,,,,,,,
258,605584,1745469202549,0.0,54.0,,-0.06,-0.01,1.02,0.0,0.0,0.0,1.02,1.16,88.0,2485.0,0.0,3.27,,13.43,1.249,98.8,,24.9,5.0,0.0,0.0,0.0,0.0,0.0,0.0,0.0,0.0,2.28,,,0,0,0,0,0,0,0,0,0,0,0,0,0,0,0,0,,0.0,,,,0.0,38.9907,-76.939865,0.04,32.4,22.0,2.0,1.1
259,605604,1745469202569,,,,,,,,,,,,,,,,,,,,,,,,,,,,,,,,,,0,0,0,0,0,0,0,0,0,0,0,0,0,0,0,0,,,,,,,,,,,,,
260,605624,1745469202589,0.0,47.0,,-0.06,-0.01,1.02,0.0,0.0,0.0,1.02,1.16,88.0,2428.0,0.0,3.27,,13.41,1.247,98.8,,25.7,5.0,,,,,,,,,,,,0,0,0,0,0,0,0,0,0,0,0,0,0,0,0,0,,,,,,0.0,,,,,,,
261,605644,1745469202609,,,,,,,,,,,,,,,,,,,,,,,,,,,,,,,,,,0,0,0,0,0,0,0,0,0,0,0,0,0,0,0,0,,,,,,,,,,,,,
262,605664,1745469202629,0.0,44.0,,-0.06,0.01,1.02,0.0,0.0,0.0,1.02,1.16,88.0,2401.0,0.0,3.28,,13.41,1.247,98.8,,25.7,5.0,,,,,,,,,,,,0,0,0,0,0,0,0,0,0,0,0,0,0,0,0,0,,,,,,0.0,,,,,,,
263,605684,1745469202649,,,,,,,,,,,,,,,,,,,,,,,0.0,0.0,0.0,0.0,0.0,0.0,0.0,0.0,2.27,,,0,0,0,0,0,0,0,0,0,0,0,0,0,0,0,0,,0.0,,,,,38.9907,-76.939865,0.04,32.4,22.0,2.0,1.1
264,605704,1745469202669,0.0,47.0,,-0.06,0.01,1.0,0.0,0.0,0.0,1.0,1.16,87.0,2401.0,0.0,3.28,,13.43,1.184,98.8,,25.3,5.0,,,,,,,,,,,,0,0,0,0,0,0,0,0,0,0,0,0,0,0,0,0,,,,,,0.0,,,,,,,
265,605724,1745469202691,,,,,,,,,,,,,,,,,,,,,,,,,,,,,,,,,,0,0,0,0,0,0,0,0,0,0,0,0,0,0,0,0,,,,,,,,,,,,,
266,605744,1745469202711,0.0,30.0,,-0.05,-0.0,0.99,0.0,0.0,0.0,0.99,1.16,85.0,2376.0,0.0,3.29,,13.44,1.136,97.0,,25.3,5.0,,,,,,,,,,,,0,0,0,0,0,0,0,0,0,0,0,0,0,0,0,0,,,,,,0.0,,,,,,,
267,605764,1745469202731,,,,,,,,,,,,,,,,,,,,,,,,,,,,,,,,,,0,0,0,0,0,0,0,0,0,0,0,0,0,0,0,0,,,,,,,,,,,,,
268,605784,1745469202751,0.0,41.0,,-0.06,0.0,0.99,0.0,0.0,0.0,0.99,1.16,85.0,2315.0,0.0,3.32,,13.47,1.109,97.0,,25.3,5.0,0.0,0.0,0.0,0.0,0.0,0.0,0.0,0.0,2.26,,,0,0,0,0,0,0,0,0,0,0,0,0,0,0,0,0,,0.0,,,,0.0,38.9907,-76.939865,0.04,32.4,22.0,2.0,1.1
269,605804,1745469202771,,,,,,,,,,,,,,,,,,,,,,,,,,,,,,,,,,0,0,0,0,0,0,0,0,0,0,0,0,0,0,0,0,,,,,,,,,,,,,
270,605824,1745469202791,0.0,51.0,,-0.06,0.01,1.0,0.0,0.0,0.0,1.0,1.16,86.0,2251.0,0.0,3.33,,13.47,1.11,97.0,,24.6,5.0,,,,,,,,,,,,0,0,0,0,0,0,0,0,0,0,0,0,0,0,0,0,,,,,,0.0,,,,,,,
271,605844,1745469202809,,,,,,,,,,,,,,,,,,,,,,,,,,,,,,,,,,0,0,0,0,0,0,0,0,0,0,0,0,0,0,0,0,,,,,,,,,,,,,
272,605864,1745469202829,0.0,51.0,,-0.06,0.01,1.0,0.0,0.0,0.0,1.0,1.16,86.0,2143.0,0.0,3.33,,13.47,1.11,97.0,,24.6,5.0,,,,,,,,,,,,0,0,0,0,0,0,0,0,0,0,0,0,0,0,0,0,,,,,,0.0,,,,,,,
273,605884,1745469202849,,,,,,,,,,,,,,,,,,,,,,,0.0,0.0,0.0,0.0,0.0,0.0,0.0,0.0,2.26,,,0,0,0,0,0,0,0,0,0,0,0,0,0,0,0,0,,0.0,,,,,38.9907,-76.939865,0.05,32.4,22.0,2.0,1.1
274,605904,1745469202869,0.0,64.0,,-0.05,0.01,1.0,0.0,0.0,0.0,1.0,1.16,86.0,2143.0,0.0,3.33,,13.61,1.145,97.0,,23.7,5.0,,,,,,,,,,,,0,0,0,0,0,0,0,0,0,0,0,0,0,0,0,0,,,,,,0.0,,,,,,,
275,605924,1745469202889,,,,,,,,,,,,,,,,,,,,,,,,,,,,,,,,,,0,0,0,0,0,0,0,0,0,0,0,0,0,0,0,0,,,,,,,,,,,,,
276,605944,1745469202909,0.0,44.0,,-0.06,0.03,1.0,0.0,0.0,0.0,1.0,1.16,86.0,2101.0,0.0,3.36,,13.6,1.169,97.0,,23.7,5.0,,,,,,,,,,,,0,0,0,0,0,0,0,0,0,0,0,0,0,0,0,0,,,,,,0.0,,,,,,,
277,605964,1745469202929,,,,,,,,,,,,,,,,,,,,,,,,,,,,,,,,,,0,0,0,0,0,0,0,0,0,0,0,0,0,0,0,0,,,,,,,,,,,,,
278,605984,1745469202949,0.0,47.0,,-0.06,0.03,0.99,0.0,0.0,0.0,0.99,1.16,86.0,2390.0,0.0,3.4,,13.53,1.185,97.0,,23.7,5.0,0.0,0.0,0.0,0.0,0.0,0.0,0.0,0.0,2.27,,,0,0,0,0,0,0,0,0,0,0,0,0,0,0,0,0,,0.0,,,,0.0,38.9907,-76.939865,0.04,32.4,22.0,2.0,1.1
279,606004,1745469202969,,,,,,,,,,,,,,,,,,,,,,,,,,,,,,,,,,0,0,0,0,0,0,0,0,0,0,0,0,0,0,0,0,,,,,,,,,,,,,
280,606024,1745469202989,0.0,41.0,,-0.06,0.05,1.0,0.0,0.0,0.0,1.0,1.16,87.0,2432.0,0.0,3.28,,13.48,1.247,97.0,,26.0,5.0,,,,,,,,,,,,0,0,0,0,0,0,0,0,0,0,0,0,0,0,0,0,,,,,,0.0,,,,,,,
281,606044,1745469202999,,,,,,,,,,,,,,,,,,,,,,,,,,,,,,,,,,0,0,0,0,0,0,0,0,0,0,0,0,0,0,0,0,,,,,,,,,,,,,
282,606064,1745469203019,0.0,41.0,,-0.06,0.02,1.01,0.0,0.0,0.0,1.02,1.16,88.0,2409.0,0.0,3.21,,13.48,1.247,97.0,,26.0,5.0,,,,,,,,,,,,0,0,0,0,0,0,0,0,0,0,0,0,0,0,0,0,,,,,,0.0,,,,,,,
283,606084,1745469203039,,,,,,,,,,,,,,,,,,,,,,,0.0,0.0,0.0,0.0,0.0,0.0,0.0,0.0,2.28,,,0,0,0,0,0,0,0,0,0,0,0,0,0,0,0,0,,0.0,,,,,38.9907,-76.939865,0.07,32.4,23.0,2.0,1.1
284,606104,1745469203059,0.0,44.0,,-0.06,0.02,1.01,0.0,0.0,0.0,1.01,1.16,87.0,2409.0,0.0,3.21,,13.41,1.248,97.0,,26.7,5.0,,,,,,,,,,,,0,0,0,0,0,0,0,0,0,0,0,0,0,0,0,0,,,,,,0.0,,,,,,,
285,606124,1745469203079,,,,,,,,,,,,,,,,,,,,,,,,,,,,,,,,,,0,0,0,0,0,0,0,0,0,0,0,0,0,0,0,0,,,,,,,,,,,,,
286,606144,1745469203101,0.0,41.0,,-0.06,0.03,1.01,0.0,0.0,0.0,1.01,1.16,87.0,2388.0,0.0,3.23,,13.41,1.217,97.0,,26.7,5.0,,,,,,,,,,,,0,0,0,0,0,0,0,0,0,0,0,0,0,0,0,0,,,,,,0.0,,,,,,,
287,606164,1745469203121,,,,,,,,,,,,,,,,,,,,,,,,,,,,,,,,,,0,0,0,0,0,0,0,0,0,0,0,0,0,0,0,0,,,,,,,,,,,,,
288,606184,1745469203141,0.0,54.0,,-0.07,0.01,1.01,0.0,0.0,0.0,1.01,1.16,88.0,2295.0,0.0,3.25,,13.43,1.147,97.0,,26.7,5.0,0.0,0.0,0.0,0.0,0.0,0.0,0.0,0.0,2.28,,,0,0,0,0,0,0,0,0,0,0,0,0,0,0,0,0,,0.0,,,,0.0,38.9907,-76.939865,0.05,32.4,23.0,2.0,1.1
289,606204,1745469203161,,,,,,,,,,,,,,,,,,,,,,,,,,,,,,,,,,0,0,0,0,0,0,0,0,0,0,0,0,0,0,0,0,,,,,,,,,,,,,
290,606224,1745469203181,0.0,44.0,,-0.07,0.01,1.0,0.0,0.0,0.0,1.0,1.16,87.0,2239.0,0.0,3.29,,13.47,1.112,97.0,,25.5,5.0,,,,,,,,,,,,0,0,0,0,0,0,0,0,0,0,0,0,0,0,0,0,,,,,,0.0,,,,,,,
291,606244,1745469203209,,,,,,,,,,,,,,,,,,,,,,,,,,,,,,,,,,0,0,0,0,0,0,0,0,0,0,0,0,0,0,0,0,,,,,,,,,,,,,
292,606264,1745469203229,0.0,41.0,,-0.06,0.01,0.99,0.0,0.0,0.0,0.99,1.16,86.0,2184.0,0.0,3.31,,13.47,1.112,97.0,,25.5,5.0,,,,,,,,,,,,0,0,0,0,0,0,0,0,0,0,0,0,0,0,0,0,,,,,,0.0,,,,,,,
293,606284,1745469203249,,,,,,,,,,,,,,,,,,,,,,,0.0,0.0,0.0,0.0,0.0,0.0,0.0,0.0,2.27,,,0,0,0,0,0,0,0,0,0,0,0,0,0,0,0,0,,0.0,,,,,38.9907,-76.939865,0.04,32.4,23.0,2.0,1.1
294,606304,1745469203269,0.0,44.0,,-0.05,-0.0,1.0,0.0,0.0,0.0,1.0,1.16,87.0,2184.0,0.0,3.31,,13.56,1.111,97.0,,24.0,5.0,,,,,,,,,,,,0,0,0,0,0,0,0,0,0,0,0,0,0,0,0,0,,,,,,0.0,,,,,,,
295,606324,1745469203289,,,,,,,,,,,,,,,,,,,,,,,,,,,,,,,,,,0,0,0,0,0,0,0,0,0,0,0,0,0,0,0,0,,,,,,,,,,,,,
296,606344,1745469203309,0.0,30.0,,-0.06,0.01,1.01,0.0,0.0,0.0,1.01,1.16,87.0,2114.0,0.0,3.35,,13.56,1.139,97.0,,24.0,5.0,,,,,,,,,,,,0,0,0,0,0,0,0,0,0,0,0,0,0,0,0,0,,,,,,0.0,,,,,,,
297,606364,1745469203329,,,,,,,,,,,,,,,,,,,,,,,,,,,,,,,,,,0,0,0,0,0,0,0,0,0,0,0,0,0,0,0,0,,,,,,,,,,,,,
298,606384,1745469203349,0.0,41.0,13.77,-0.06,0.02,1.0,0.0,0.0,0.0,1.0,1.16,86.0,2482.0,0.0,3.36,15.0,13.49,1.17,97.0,165.0,24.0,5.0,0.0,0.0,0.0,0.0,0.0,0.0,0.0,0.0,2.26,0.0,1.0,0,0,0,0,0,0,0,0,0,0,0,0,0,0,0,0,0.0,0.0,1.0,0.0,0.0,0.0,38.9907,-76.939865,0.05,32.4,23.0,2.0,1.1
299,606404,1745469203369,,,,,,,,,,,,,,,,,,,,,,,,,,,,,,,,,,0,0,0,0,0,0,0,0,0,0,0,0,0,0,0,0,,,,,,,,,,,,,
300,606424,1745469203389,0.0,41.0,,-0.06,0.01,0.98,0.0,0.0,0.0,0.98,1.16,85.0,2429.0,0.0,3.23,,13.47,1.235,97.0,,26.1,5.0,,,,,,,,,,,,0,0,0,0,0,0,0,0,0,0,0,0,0,0,0,0,,,,,,0.0,,,,,,,
301,606444,1745469203408,,,,,,,,,,,,,,,,,,,,,,,,,,,,,,,,,,0,0,0,0,0,0,0,0,0,0,0,0,0,0,0,0,,,,,,,,,,,,,
302,606464,1745469203428,0.0,44.0,,-0.07,0.02,0.99,0.0,0.0,0.0,0.99,1.16,86.0,2660.0,0.0,3.23,,13.47,1.235,97.0,,26.1,5.0,,,,,,,,,,,,0,0,0,0,0,0,0,0,0,0,0,0,0,0,0,0,,,,,,0.0,,,,,,,
303,606484,1745469203448,,,,,,,,,,,,,,,,,,,,,,,0.0,0.0,0.0,0.0,0.0,0.0,0.0,0.0,2.26,,,0,0,0,0,0,0,0,0,0,0,0,0,0,0,0,0,,0.0,,,,,38.9907,-76.939865,0.05,32.4,23.0,2.0,1.1
304,606504,1745469203468,0.0,57.0,,-0.07,0.03,0.99,0.0,0.0,0.0,0.99,1.16,85.0,2660.0,0.0,3.23,,13.35,1.25,97.0,,28.1,5.0,,,,,,,,,,,,0,0,0,0,0,0,0,0,0,0,0,0,0,0,0,0,,,,,,0.0,,,,,,,
305,606524,1745469203488,,,,,,,,,,,,,,,,,,,,,,,,,,,,,,,,,,0,0,0,0,0,0,0,0,0,0,0,0,0,0,0,0,,,,,,,,,,,,,
306,606544,1745469203509,0.0,51.0,,-0.07,0.04,1.0,0.0,0.0,0.0,1.01,1.16,87.0,2450.0,0.0,3.17,,13.36,1.248,97.0,,28.1,5.0,,,,,,,,,,,,0,0,0,0,0,0,0,0,0,0,0,0,0,0,0,0,,,,,,0.0,,,,,,,
307,606564,1745469203529,,,,,,,,,,,,,,,,,,,,,,,,,,,,,,,,,,0,0,0,0,0,0,0,0,0,0,0,0,0,0,0,0,,,,,,,,,,,,,
308,606584,1745469203549,0.0,61.0,,-0.07,0.04,1.0,0.0,0.0,0.0,1.01,1.16,87.0,2490.0,0.0,3.18,,13.32,1.213,97.0,,28.1,5.0,0.0,0.0,0.0,0.0,0.0,0.0,0.0,0.0,2.27,,,0,0,0,0,0,0,0,0,0,0,0,0,0,0,0,0,,0.0,,,,0.0,38.9907,-76.939865,0.09,32.4,23.0,2.0,1.1
309,606604,1745469203569,,,,,,,,,,,,,,,,,,,,,,,,,,,,,,,,,,0,0,0,0,0,0,0,0,0,0,0,0,0,0,0,0,,,,,,,,,,,,,
310,606624,1745469203589,0.0,41.0,,-0.08,0.03,0.99,0.0,0.0,0.0,1.0,1.16,86.0,2375.0,0.0,3.21,,13.33,1.165,97.0,,27.3,5.0,,,,,,,,,,,,0,0,0,0,0,0,0,0,0,0,0,0,0,0,0,0,,,,,,0.0,,,,,,,
311,606644,1745469203608,,,,,,,,,,,,,,,,,,,,,,,,,,,,,,,,,,0,0,0,0,0,0,0,0,0,0,0,0,0,0,0,0,,,,,,,,,,,,,
312,606664,1745469203628,0.0,41.0,,-0.06,0.01,0.98,0.0,0.0,0.0,0.98,1.16,85.0,2395.0,0.0,3.23,,13.33,1.165,97.0,,27.3,5.0,,,,,,,,,,,,0,0,0,0,0,0,0,0,0,0,0,0,0,0,0,0,,,,,,0.0,,,,,,,
313,606684,1745469203648,,,,,,,,,,,,,,,,,,,,,,,0.0,0.0,0.0,0.0,0.0,0.0,0.0,0.0,2.27,,,0,0,0,0,0,0,0,0,0,0,0,0,0,0,0,0,,0.0,,,,,38.9907,-76.939865,0.0,32.4,23.0,2.0,1.1
314,606704,1745469203668,0.0,51.0,,-0.07,0.02,0.98,0.0,0.0,0.0,0.99,1.16,85.0,2395.0,0.0,3.23,,13.35,1.142,97.0,,26.4,5.0,,,,,,,,,,,,0,0,0,0,0,0,0,0,0,0,0,0,0,0,0,0,,,,,,0.0,,,,,,,
315,606724,1745469203688,,,,,,,,,,,,,,,,,,,,,,,,,,,,,,,,,,0,0,0,0,0,0,0,0,0,0,0,0,0,0,0,0,,,,,,,,,,,,,
316,606744,1745469203708,0.0,37.0,,-0.07,0.03,1.0,0.0,0.0,0.0,1.0,1.16,87.0,2305.0,0.0,3.25,,13.43,1.128,97.0,,26.4,5.0,,,,,,,,,,,,0,0,0,0,0,0,0,0,0,0,0,0,0,0,0,0,,,,,,0.0,,,,,,,
317,606764,1745469203728,,,,,,,,,,,,,,,,,,,,,,,,,,,,,,,,,,0,0,0,0,0,0,0,0,0,0,0,0,0,0,0,0,,,,,,,,,,,,,
318,606784,1745469203748,0.0,57.0,,-0.06,0.02,1.01,0.0,0.0,0.0,1.01,1.16,87.0,2283.0,0.0,3.28,,13.48,1.154,97.0,,26.4,5.0,0.0,0.0,0.0,0.0,0.0,0.0,0.0,0.0,2.27,,,0,0,0,0,0,0,0,0,0,0,0,0,0,0,0,0,,0.0,,,,0.0,38.9907,-76.939865,0.04,32.4,23.0,2.0,1.1
319,606804,1745469203768,,,,,,,,,,,,,,,,,,,,,,,,,,,,,,,,,,0,0,0,0,0,0,0,0,0,0,0,0,0,0,0,0,,,,,,,,,,,,,
320,606824,1745469203788,0.0,54.0,,-0.07,0.03,1.02,0.0,0.0,0.0,1.02,1.16,88.0,2235.0,0.0,3.29,,13.47,1.177,97.0,,25.2,5.0,,,,,,,,,,,,0,0,0,0,0,0,0,0,0,0,0,0,0,0,0,0,,,,,,0.0,,,,,,,
321,606844,1745469203808,,,,,,,,,,,,,,,,,,,,,,,,,,,,,,,,,,0,0,0,0,0,0,0,0,0,0,0,0,0,0,0,0,,,,,,,,,,,,,
322,606864,1745469203828,0.0,61.0,,-0.07,0.02,1.01,0.0,0.0,0.0,1.02,1.16,88.0,2284.0,0.0,3.34,,13.47,1.177,97.0,,25.2,5.0,,,,,,,,,,,,0,0,0,0,0,0,0,0,0,0,0,0,0,0,0,0,,,,,,0.0,,,,,,,
323,606884,1745469203848,,,,,,,,,,,,,,,,,,,,,,,0.0,0.0,0.0,0.0,0.0,0.0,0.0,0.0,2.26,,,0,0,0,0,0,0,0,0,0,0,0,0,0,0,0,0,,0.0,,,,,38.9907,-76.939865,0.05,32.4,23.0,2.0,1.1
324,606904,1745469203868,0.0,64.0,,-0.07,0.02,1.0,0.0,0.0,0.0,1.0,1.16,87.0,2284.0,0.0,3.34,,13.48,1.199,97.0,,24.3,5.0,,,,,,,,,,,,0,0,0,0,0,0,0,0,0,0,0,0,0,0,0,0,,,,,,0.0,,,,,,,
325,606924,1745469203888,,,,,,,,,,,,,,,,,,,,,,,,,,,,,,,,,,0,0,0,0,0,0,0,0,0,0,0,0,0,0,0,0,,,,,,,,,,,,,
326,606944,1745469203908,0.0,41.0,,-0.06,0.01,1.0,0.0,0.0,0.0,1.0,1.16,86.0,2211.0,0.0,3.37,,13.59,1.216,97.0,,24.3,5.0,,,,,,,,,,,,0,0,0,0,0,0,0,0,0,0,0,0,0,0,0,0,,,,,,0.0,,,,,,,
327,606964,1745469203928,,,,,,,,,,,,,,,,,,,,,,,,,,,,,,,,,,0,0,0,0,0,0,0,0,0,0,0,0,0,0,0,0,,,,,,,,,,,,,
328,606984,1745469203948,0.0,51.0,,-0.05,0.01,0.99,0.0,0.0,0.0,0.99,1.16,86.0,2143.0,0.0,3.39,,13.6,1.225,97.0,,24.3,5.0,0.0,0.0,0.0,0.0,0.0,0.0,0.0,0.0,2.26,,,0,0,0,0,0,0,0,0,0,0,0,0,0,0,0,0,,0.0,,,,0.0,38.9907,-76.939865,0.1,32.4,23.0,2.0,1.1
329,607004,1745469203968,,,,,,,,,,,,,,,,,,,,,,,,,,,,,,,,,,0,0,0,0,0,0,0,0,0,0,0,0,0,0,0,0,,,,,,,,,,,,,
330,607024,1745469203988,0.0,47.0,,-0.05,0.01,0.98,0.0,0.0,0.0,0.98,1.16,85.0,2078.0,0.0,3.43,,13.73,1.234,97.0,,22.6,5.0,,,,,,,,,,,,0,0,0,0,0,0,0,0,0,0,0,0,0,0,0,0,,,,,,0.0,,,,,,,
331,607044,1745469203996,,,,,,,,,,,,,,,,,,,,,,,,,,,,,,,,,,0,0,0,0,0,0,0,0,0,0,0,0,0,0,0,0,,,,,,,,,,,,,
332,607064,1745469204016,0.0,47.0,,-0.06,0.0,0.98,0.0,0.0,0.0,0.99,1.16,85.0,1974.0,0.0,3.41,,13.73,1.234,97.0,,22.6,5.0,,,,,,,,,,,,0,0,0,0,0,0,0,0,0,0,0,0,0,0,0,0,,,,,,0.0,,,,,,,
333,607084,1745469204036,,,,,,,,,,,,,,,,,,,,,,,0.0,0.0,0.0,0.0,0.0,0.0,0.0,0.0,2.27,,,0,0,0,0,0,0,0,0,0,0,0,0,0,0,0,0,,0.0,,,,,38.9907,-76.939865,0.07,32.4,23.0,2.0,1.1
334,607104,1745469204056,0.0,61.0,,-0.04,0.0,0.99,0.0,0.0,0.0,0.99,1.16,85.0,1974.0,0.0,3.41,,13.75,1.235,97.0,,21.6,5.0,,,,,,,,,,,,0,0,0,0,0,0,0,0,0,0,0,0,0,0,0,0,,,,,,0.0,,,,,,,
335,607124,1745469204076,,,,,,,,,,,,,,,,,,,,,,,,,,,,,,,,,,0,0,0,0,0,0,0,0,0,0,0,0,0,0,0,0,,,,,,,,,,,,,
336,607144,1745469204106,0.0,51.0,,-0.05,0.01,0.98,0.0,0.0,0.0,0.98,1.16,85.0,1916.0,0.0,3.45,,13.77,1.241,97.0,,21.6,5.0,,,,,,,,,,,,0,0,0,0,0,0,0,0,0,0,0,0,0,0,0,0,,,,,,0.0,,,,,,,
337,607164,1745469204126,,,,,,,,,,,,,,,,,,,,,,,,,,,,,,,,,,0,0,0,0,0,0,0,0,0,0,0,0,0,0,0,0,,,,,,,,,,,,,
338,607184,1745469204146,0.0,61.0,,-0.04,0.0,0.99,0.0,0.0,0.0,0.99,1.16,85.0,1844.0,0.0,3.46,,13.83,1.247,97.0,,21.6,5.0,0.0,0.0,0.0,0.0,0.0,0.0,0.0,0.0,2.27,,,0,0,0,0,0,0,0,0,0,0,0,0,0,0,0,0,,0.0,,,,0.0,38.9907,-76.939865,0.0,32.4,23.0,2.0,1.1
339,607204,1745469204166,,,,,,,,,,,,,,,,,,,,,,,,,,,,,,,,,,0,0,0,0,0,0,0,0,0,0,0,0,0,0,0,0,,,,,,,,,,,,,
340,607224,1745469204186,0.0,54.0,,-0.06,0.0,0.99,0.0,0.0,0.0,0.99,1.16,86.0,1877.0,0.0,3.48,,13.88,1.249,97.0,,20.4,5.0,,,,,,,,,,,,0,0,0,0,0,0,0,0,0,0,0,0,0,0,0,0,,,,,,0.0,,,,,,,
341,607244,1745469204208,,,,,,,,,,,,,,,,,,,,,,,,,,,,,,,,,,0,0,0,0,0,0,0,0,0,0,0,0,0,0,0,0,,,,,,,,,,,,,
342,607264,1745469204228,0.0,47.0,,-0.06,0.0,0.98,0.0,0.0,0.0,0.98,1.16,85.0,1795.0,0.0,3.49,,13.88,1.249,97.0,,20.4,5.0,,,,,,,,,,,,0,0,0,0,0,0,0,0,0,0,0,0,0,0,0,0,,,,,,0.0,,,,,,,
343,607284,1745469204248,,,,,,,,,,,,,,,,,,,,,,,0.0,0.0,0.0,0.0,0.0,0.0,0.0,0.0,2.27,,,0,0,0,0,0,0,0,0,0,0,0,0,0,0,0,0,,0.0,,,,,38.9907,-76.939865,0.23,32.4,23.0,2.0,1.1
344,607304,1745469204268,0.0,51.0,,-0.04,0.0,0.99,0.0,0.0,0.0,0.99,1.16,85.0,1795.0,0.0,3.49,,13.95,1.251,97.0,,19.1,5.0,,,,,,,,,,,,0,0,0,0,0,0,0,0,0,0,0,0,0,0,0,0,,,,,,0.0,,,,,,,
345,607324,1745469204288,,,,,,,,,,,,,,,,,,,,,,,,,,,,,,,,,,0,0,0,0,0,0,0,0,0,0,0,0,0,0,0,0,,,,,,,,,,,,,
346,607344,1745469204309,0.0,47.0,,-0.03,0.01,1.0,0.0,0.0,0.0,1.0,1.16,86.0,1675.0,0.0,3.49,,13.96,1.251,97.0,,19.1,5.0,,,,,,,,,,,,0,0,0,0,0,0,0,0,0,0,0,0,0,0,0,0,,,,,,0.0,,,,,,,
347,607364,1745469204329,,,,,,,,,,,,,,,,,,,,,,,,,,,,,,,,,,0,0,0,0,0,0,0,0,0,0,0,0,0,0,0,0,,,,,,,,,,,,,
348,607384,1745469204349,0.0,47.0,13.74,-0.02,0.0,1.0,0.0,0.0,0.0,1.0,1.16,87.0,2086.0,0.0,3.5,15.0,13.95,1.249,97.0,165.0,19.1,5.0,0.0,0.0,0.0,0.0,0.0,0.0,0.0,0.0,2.27,0.0,1.0,0,0,0,0,0,0,0,0,0,0,0,0,0,0,0,0,0.0,0.0,1.0,0.0,0.0,0.0,38.9907,-76.939865,0.11,32.4,23.0,2.0,1.1
349,607404,1745469204369,,,,,,,,,,,,,,,,,,,,,,,,,,,,,,,,,,0,0,0,0,0,0,0,0,0,0,0,0,0,0,0,0,,,,,,,,,,,,,
350,607424,1745469204389,0.0,57.0,,-0.02,-0.01,1.0,0.0,0.0,0.0,1.0,1.16,86.0,2046.0,0.0,3.42,,13.82,1.251,97.0,,21.6,5.0,,,,,,,,,,,,0,0,0,0,0,0,0,0,0,0,0,0,0,0,0,0,,,,,,0.0,,,,,,,
351,607444,1745469204408,,,,,,,,,,,,,,,,,,,,,,,,,,,,,,,,,,0,0,0,0,0,0,0,0,0,0,0,0,0,0,0,0,,,,,,,,,,,,,
352,607464,1745469204428,0.0,54.0,,-0.02,-0.02,1.0,0.0,0.0,0.0,1.0,1.16,87.0,2286.0,0.0,3.39,,13.82,1.251,97.0,,21.6,5.0,,,,,,,,,,,,0,0,0,0,0,0,0,0,0,0,0,0,0,0,0,0,,,,,,0.0,,,,,,,
353,607484,1745469204448,,,,,,,,,,,,,,,,,,,,,,,0.0,0.0,0.0,0.0,0.0,0.0,0.0,0.0,2.26,,,0,0,0,0,0,0,0,0,0,0,0,0,0,0,0,0,,0.0,,,,,38.9907,-76.939865,0.21,32.4,23.0,2.0,1.1
354,607504,1745469204468,0.0,68.0,,-0.03,-0.01,0.99,0.0,0.0,0.0,0.99,1.16,86.0,2286.0,0.0,3.39,,13.71,1.251,97.0,,25.2,5.0,,,,,,,,,,,,0,0,0,0,0,0,0,0,0,0,0,0,0,0,0,0,,,,,,0.0,,,,,,,
355,607524,1745469204488,,,,,,,,,,,,,,,,,,,,,,,,,,,,,,,,,,0,0,0,0,0,0,0,0,0,0,0,0,0,0,0,0,,,,,,,,,,,,,
356,607544,1745469204507,0.0,57.0,,-0.03,-0.01,0.98,0.0,0.0,0.0,0.99,1.16,85.0,2380.0,0.0,3.29,,13.63,1.22,97.0,,25.2,5.0,,,,,,,,,,,,0,0,0,0,0,0,0,0,0,0,0,0,0,0,0,0,,,,,,0.0,,,,,,,
357,607564,1745469204527,,,,,,,,,,,,,,,,,,,,,,,,,,,,,,,,,,0,0,0,0,0,0,0,0,0,0,0,0,0,0,0,0,,,,,,,,,,,,,
358,607584,1745469204547,0.0,51.0,,-0.03,-0.01,1.0,0.0,0.0,0.0,1.0,1.16,86.0,2359.0,0.0,3.34,,13.57,1.133,97.0,,25.2,5.0,0.0,0.0,0.0,0.0,0.0,0.0,0.0,0.0,2.27,,,0,0,0,0,0,0,0,0,0,0,0,0,0,0,0,0,,0.0,,,,0.0,38.9907,-76.939865,0.16,32.4,23.0,2.0,1.1
359,607604,1745469204567,,,,,,,,,,,,,,,,,,,,,,,,,,,,,,,,,,0,0,0,0,0,0,0,0,0,0,0,0,0,0,0,0,,,,,,,,,,,,,
360,607624,1745469204587,0.0,54.0,,-0.04,-0.02,1.01,0.0,0.0,0.0,1.01,1.16,87.0,2397.0,0.0,3.31,,13.53,1.081,97.0,,25.4,5.0,,,,,,,,,,,,0,0,0,0,0,0,0,0,0,0,0,0,0,0,0,0,,,,,,0.0,,,,,,,
361,607644,1745469204607,,,,,,,,,,,,,,,,,,,,,,,,,,,,,,,,,,0,0,0,0,0,0,0,0,0,0,0,0,0,0,0,0,,,,,,,,,,,,,
362,607664,1745469204627,0.0,44.0,,-0.04,-0.02,0.99,0.0,0.0,0.0,1.0,1.16,86.0,2351.0,0.0,3.3,,13.53,1.081,97.0,,25.4,5.0,,,,,,,,,,,,0,0,0,0,0,0,0,0,0,0,0,0,0,0,0,0,,,,,,0.0,,,,,,,
363,607684,1745469204647,,,,,,,,,,,,,,,,,,,,,,,0.0,0.0,0.0,0.0,0.0,0.0,0.0,0.0,2.28,,,0,0,0,0,0,0,0,0,0,0,0,0,0,0,0,0,,0.0,,,,,38.9907,-76.939865,0.04,32.3,23.0,2.0,1.1
364,607704,1745469204667,0.0,47.0,,-0.03,-0.01,0.99,0.0,0.0,0.0,0.99,1.16,86.0,2351.0,0.0,3.3,,13.49,1.057,97.0,,25.1,5.0,,,,,,,,,,,,0,0,0,0,0,0,0,0,0,0,0,0,0,0,0,0,,,,,,0.0,,,,,,,
365,607724,1745469204687,,,,,,,,,,,,,,,,,,,,,,,,,,,,,,,,,,0,0,0,0,0,0,0,0,0,0,0,0,0,0,0,0,,,,,,,,,,,,,
366,607744,1745469204707,0.0,57.0,,-0.05,-0.02,1.0,0.0,0.0,0.0,1.0,1.16,87.0,2339.0,0.0,3.32,,13.49,1.072,97.0,,25.1,5.0,,,,,,,,,,,,0,0,0,0,0,0,0,0,0,0,0,0,0,0,0,0,,,,,,0.0,,,,,,,
367,607764,1745469204727,,,,,,,,,,,,,,,,,,,,,,,,,,,,,,,,,,0,0,0,0,0,0,0,0,0,0,0,0,0,0,0,0,,,,,,,,,,,,,
368,607784,1745469204747,0.0,54.0,,-0.05,-0.01,1.0,0.0,0.0,0.0,1.0,1.16,86.0,2253.0,0.0,3.34,,13.53,1.107,97.0,,25.1,5.0,0.0,0.0,0.0,0.0,0.0,0.0,0.0,0.0,2.28,,,0,0,0,0,0,0,0,0,0,0,0,0,0,0,0,0,,0.0,,,,0.0,38.9907,-76.939865,0.0,32.3,23.0,2.0,1.1
369,607804,1745469204767,,,,,,,,,,,,,,,,,,,,,,,,,,,,,,,,,,0,0,0,0,0,0,0,0,0,0,0,0,0,0,0,0,,,,,,,,,,,,,
370,607824,1745469204787,0.0,64.0,,-0.04,-0.01,0.98,0.0,0.0,0.0,0.99,1.16,85.0,2247.0,0.0,3.36,,13.61,1.142,97.0,,23.9,5.0,,,,,,,,,,,,0,0,0,0,0,0,0,0,0,0,0,0,0,0,0,0,,,,,,0.0,,,,,,,
371,607844,1745469204809,,,,,,,,,,,,,,,,,,,,,,,,,,,,,,,,,,0,0,0,0,0,0,0,0,0,0,0,0,0,0,0,0,,,,,,,,,,,,,
372,607864,1745469204829,0.0,54.0,,-0.04,-0.01,0.99,0.0,0.0,0.0,0.99,1.16,85.0,2206.0,0.0,3.38,,13.61,1.142,97.0,,23.9,5.0,,,,,,,,,,,,0,0,0,0,0,0,0,0,0,0,0,0,0,0,0,0,,,,,,0.0,,,,,,,
373,607884,1745469204849,,,,,,,,,,,,,,,,,,,,,,,0.0,0.0,0.0,0.0,0.0,0.0,0.0,0.0,2.27,,,0,0,0,0,0,0,0,0,0,0,0,0,0,0,0,0,,0.0,,,,,38.9907,-76.939865,0.1,32.3,23.0,2.0,1.1
374,607904,1745469204869,0.0,57.0,,-0.06,-0.0,0.99,0.0,0.0,0.0,0.99,1.16,85.0,2206.0,0.0,3.38,,13.63,1.185,97.0,,23.3,5.0,,,,,,,,,,,,0,0,0,0,0,0,0,0,0,0,0,0,0,0,0,0,,,,,,0.0,,,,,,,
375,607924,1745469204889,,,,,,,,,,,,,,,,,,,,,,,,,,,,,,,,,,0,0,0,0,0,0,0,0,0,0,0,0,0,0,0,0,,,,,,,,,,,,,
376,607944,1745469204909,0.0,41.0,,-0.06,-0.0,1.0,0.0,0.0,0.0,1.01,1.16,87.0,2114.0,0.0,3.35,,13.72,1.209,97.0,,23.3,5.0,,,,,,,,,,,,0,0,0,0,0,0,0,0,0,0,0,0,0,0,0,0,,,,,,0.0,,,,,,,
377,607964,1745469204929,,,,,,,,,,,,,,,,,,,,,,,,,,,,,,,,,,0,0,0,0,0,0,0,0,0,0,0,0,0,0,0,0,,,,,,,,,,,,,
378,607984,1745469204949,0.0,54.0,,-0.06,0.01,1.01,0.0,0.0,0.0,1.02,1.16,88.0,2035.0,0.0,3.4,,13.71,1.226,97.0,,23.3,5.0,0.0,0.0,0.0,0.0,0.0,0.0,0.0,0.0,2.26,,,0,0,0,0,0,0,0,0,0,0,0,0,0,0,0,0,,0.0,,,,0.0,38.9907,-76.939865,0.05,32.3,23.0,2.0,1.1
379,608004,1745469204969,,,,,,,,,,,,,,,,,,,,,,,,,,,,,,,,,,0,0,0,0,0,0,0,0,0,0,0,0,0,0,0,0,,,,,,,,,,,,,
380,608024,1745469204989,0.0,51.0,,-0.07,-0.0,1.0,0.0,0.0,0.0,1.01,1.16,87.0,2024.0,0.0,3.4,,13.77,1.218,97.0,,22.9,5.0,,,,,,,,,,,,0,0,0,0,0,0,0,0,0,0,0,0,0,0,0,0,,,,,,0.0,,,,,,,
381,608044,1745469205001,,,,,,,,,,,,,,,,,,,,,,,,,,,,,,,,,,0,0,0,0,0,0,0,0,0,0,0,0,0,0,0,0,,,,,,,,,,,,,
382,608064,1745469205021,0.0,64.0,,-0.06,-0.01,1.01,0.0,0.0,0.0,1.01,1.16,88.0,2017.0,0.0,3.44,,13.77,1.218,97.0,,22.9,5.0,,,,,,,,,,,,0,0,0,0,0,0,0,0,0,0,0,0,0,0,0,0,,,,,,0.0,,,,,,,
