,Interval,Utc,FrontBP,SteerAng,Battery,AccelX,AccelY,AccelZ,Yaw,Pitch,Roll,Gsum,GsumMax,GsumPct,RPM,TPS,InjectorPW,Baro,MAP,Lambda,IAT,EngineTemp,EOP,EOT,WSFR,WSFL,WSRR,WSRL,TCSet,TCSlip,TCComp,TCCut,Analog8,OilTemp,AA_On,ThermLF1,ThermLF2,ThermRR1,ThermRR2,ThermLF3,ThermLF4,ThermLF5,ThermLF6,ThermLF7,ThermLF8,ThermRR3,ThermRR4,ThermRR5,ThermRR6,ThermRR7,ThermRR8,AA_LowDrag,Gear,AA_On1,AA_LowDrag1,Fuel_Mix,AA_Packages,Latitude,Longitude,Speed,Altitude,GPSSats,GPSQual,GPSDOP
0,6827404,1745475426442,,,,,,,,,,,,,,,,,,,,,,,,,,,,,,,,,,0,0,0,0,0,0,0,0,0,0,0,0,0,0,0,0,,,,,,,,,,,,,
1,6827424,1745475426462,117.65,74.0,,-0.11,0.15,0.92,-2.0,0.0,1.0,0.94,0.94,100.0,13089.0,11.7,2.13,,7.61,0.955,89.8,,57.8,5.0,,,,,,,,,,,,0,0,0,0,0,0,0,0,0,0,0,0,0,0,0,0,,,,,,0.0,,,,,,,
2,6827444,1745475426482,,,,,,,,,,,,,,,,,,,,,,,,,,,,,,,,,,0,0,0,0,0,0,0,0,0,0,0,0,0,0,0,0,,,,,,,,,,,,,
3,6827464,1745475426500,117.65,95.0,,-0.09,0.09,0.99,0.0,0.0,0.0,1.0,1.0,100.0,13089.0,11.7,2.13,,6.75,0.977,89.8,,57.8,5.0,,,,,,,,,,,,0,0,0,0,0,0,0,0,0,0,0,0,0,0,0,0,,,,,,0.0,,,,,,,
4,6827484,1745475426520,,,,,,,,,,,,,,,,,,,,,,,0.0,0.0,0.0,0.0,0.0,0.0,0.0,0.0,2.2,,,0,0,0,0,0,0,0,0,0,0,0,0,0,0,0,0,,0.0,,,,,38.994099,-76.939652,0.04,26.5,33.0,3.0,0.8
5,6827504,1745475426540,117.02,81.0,,-0.08,-0.01,0.94,-1.0,0.0,0.0,0.94,1.0,94.0,12934.0,22.5,1.91,,7.2,0.989,89.8,,55.4,5.0,,,,,,,,,,,,0,0,0,0,0,0,0,0,0,0,0,0,0,0,0,0,,,,,,0.0,,,,,,,
6,6827524,1745475426560,,,,,,,,,,,,,,,,,,,,,,,,,,,,,,,,,,0,0,0,0,0,0,0,0,0,0,0,0,0,0,0,0,,,,,,,,,,,,,
7,6827544,1745475426580,117.65,78.0,,-0.1,-0.17,0.98,-1.0,0.0,0.0,1.0,1.0,100.0,12261.0,42.1,2.72,,9.25,1.053,89.8,,55.4,5.0,,,,,,,,,,,,0,0,0,0,0,0,0,0,0,0,0,0,0,0,0,0,,,,,,0.0,,,,,,,
8,6827564,1745475426600,,,,,,,,,,,,,,,,,,,,,,,,,,,,,,,,,,0,0,0,0,0,0,0,0,0,0,0,0,0,0,0,0,,,,,,,,,,,,,
9,6827584,1745475426620,118.28,78.0,,-0.1,-0.2,0.93,-2.0,0.0,0.0,0.96,1.0,96.0,11715.0,47.1,2.97,,10.96,1.247,89.8,,55.4,5.0,0.0,0.0,0.0,0.0,0.0,0.0,0.0,0.0,2.21,,,0,0,0,0,0,0,0,0,0,0,0,0,0,0,0,0,,0.0,,,,0.0,38.994099,-76.939652,0.13,26.5,33.0,3.0,0.8
10,6827604,1745475426640,,,,,,,,,,,,,,,,,,,,,,,,,,,,,,,,,,0,0,0,0,0,0,0,0,0,0,0,0,0,0,0,0,,,,,,,,,,,,,
11,6827624,1745475426660,117.02,78.0,,-0.09,-0.2,1.0,-3.0,0.0,0.0,1.03,1.03,100.0,11264.0,30.7,4.07,,10.96,1.247,89.8,,53.6,5.0,,,,,,,,,,,,0,0,0,0,0,0,0,0,0,0,0,0,0,0,0,0,,,,,,0.0,,,,,,,
12,6827644,1745475426680,,,,,,,,,,,,,,,,,,,,,,,,,,,,,,,,,,0,0,0,0,0,0,0,0,0,0,0,0,0,0,0,0,,,,,,,,,,,,,
13,6827664,1745475426702,117.02,71.0,,-0.1,-0.2,0.96,-2.0,0.0,0.0,0.99,1.03,96.0,11264.0,30.7,4.07,,10.78,1.248,89.8,,53.6,5.0,,,,,,,,,,,,0,0,0,0,0,0,0,0,0,0,0,0,0,0,0,0,,,,,,0.0,,,,,,,
14,6827684,1745475426722,,,,,,,,,,,,,,,,,,,,,,,0.0,0.0,0.0,0.0,0.0,0.0,0.0,0.0,2.21,,,0,0,0,0,0,0,0,0,0,0,0,0,0,0,0,0,,0.0,,,,,38.994099,-76.939652,0.15,26.5,33.0,3.0,0.8
15,6827704,1745475426742,115.76,71.0,,-0.05,-0.12,0.88,-1.0,0.0,0.0,0.89,1.03,87.0,12048.0,7.4,2.55,,8.55,1.25,89.8,,60.0,5.0,,,,,,,,,,,,0,0,0,0,0,0,0,0,0,0,0,0,0,0,0,0,,,,,,0.0,,,,,,,
16,6827724,1745475426762,,,,,,,,,,,,,,,,,,,,,,,,,,,,,,,,,,0,0,0,0,0,0,0,0,0,0,0,0,0,0,0,0,,,,,,,,,,,,,
17,6827744,1745475426782,118.9,81.0,,0.0,-0.13,0.93,0.0,0.0,0.0,0.94,1.03,92.0,12214.0,2.1,1.4,,6.71,1.133,89.8,,60.0,5.0,,,,,,,,,,,,0,0,0,0,0,0,0,0,0,0,0,0,0,0,0,0,,,,,,0.0,,,,,,,
18,6827764,1745475426801,,,,,,,,,,,,,,,,,,,,,,,,,,,,,,,,,,0,0,0,0,0,0,0,0,0,0,0,0,0,0,0,0,,,,,,,,,,,,,
19,6827784,1745475426821,118.28,95.0,,-0.03,-0.12,1.04,1.0,0.0,0.0,1.04,1.04,100.0,11603.0,0.9,1.4,,5.76,1.051,89.8,,60.0,5.0,0.0,0.0,0.0,0.0,0.0,0.0,0.0,0.0,2.21,,,0,0,0,0,0,0,0,0,0,0,0,0,0,0,0,0,,0.0,,,,0.0,38.994099,-76.939652,0.08,26.5,33.0,3.0,0.8
20,6827804,1745475426841,,,,,,,,,,,,,,,,,,,,,,,,,,,,,,,,,,0,0,0,0,0,0,0,0,0,0,0,0,0,0,0,0,,,,,,,,,,,,,
21,6827824,1745475426861,118.28,95.0,,-0.03,-0.17,1.02,1.0,0.0,0.0,1.03,1.04,99.0,10964.0,5.3,1.4,,5.76,1.051,89.8,,56.1,5.0,,,,,,,,,,,,0,0,0,0,0,0,0,0,0,0,0,0,0,0,0,0,,,,,,0.0,,,,,,,
22,6827844,1745475426881,,,,,,,,,,,,,,,,,,,,,,,,,,,,,,,,,,0,0,0,0,0,0,0,0,0,0,0,0,0,0,0,0,,,,,,,,,,,,,
23,6827864,1745475426901,117.65,91.0,,-0.06,-0.21,1.1,1.0,0.0,-1.0,1.12,1.12,100.0,10964.0,5.3,1.4,,5.67,1.235,89.8,,56.1,5.0,,,,,,,,,,,,0,0,0,0,0,0,0,0,0,0,0,0,0,0,0,0,,,,,,0.0,,,,,,,
24,6827884,1745475426921,,,,,,,,,,,,,,,,,,,,,,,0.0,0.0,0.0,0.0,0.0,0.0,0.0,0.0,2.21,,,0,0,0,0,0,0,0,0,0,0,0,0,0,0,0,0,,0.0,,,,,38.994099,-76.939652,0.13,26.5,33.0,3.0,0.8
25,6827904,1745475426941,116.39,78.0,,-0.06,-0.22,1.09,1.0,0.0,0.0,1.11,1.12,99.0,10356.0,24.0,2.48,,7.3,1.25,89.8,,52.7,5.0,,,,,,,,,,,,0,0,0,0,0,0,0,0,0,0,0,0,0,0,0,0,,,,,,0.0,,,,,,,
26,6827924,1745475426961,,,,,,,,,,,,,,,,,,,,,,,,,,,,,,,,,,0,0,0,0,0,0,0,0,0,0,0,0,0,0,0,0,,,,,,,,,,,,,
27,6827944,1745475426981,115.13,71.0,,-0.04,-0.15,1.05,1.0,0.0,0.0,1.06,1.12,94.0,10098.0,30.1,3.06,,9.1,1.249,89.8,,52.7,5.0,,,,,,,,,,,,0,0,0,0,0,0,0,0,0,0,0,0,0,0,0,0,,,,,,0.0,,,,,,,
28,6827964,1745475426993,,,,,,,,,,,,,,,,,,,,,,,,,,,,,,,,,,0,0,0,0,0,0,0,0,0,0,0,0,0,0,0,0,,,,,,,,,,,,,
29,6827984,1745475427013,113.25,85.0,,-0.06,-0.02,0.97,2.0,0.0,0.0,0.97,1.12,87.0,9977.0,29.2,3.5,,9.76,1.248,89.8,,52.7,5.0,0.0,0.0,0.0,0.0,0.0,0.0,0.0,0.0,2.21,,,0,0,0,0,0,0,0,0,0,0,0,0,0,0,0,0,,0.0,,,,0.0,38.994099,-76.939652,0.12,26.4,33.0,3.0,0.8
30,6828004,1745475427033,,,,,,,,,,,,,,,,,,,,,,,,,,,,,,,,,,0,0,0,0,0,0,0,0,0,0,0,0,0,0,0,0,,,,,,,,,,,,,
31,6828024,1745475427053,111.99,85.0,,-0.07,-0.12,0.94,1.0,0.0,0.0,0.95,1.12,85.0,10402.0,17.9,3.48,,9.76,1.248,89.8,,49.8,5.0,,,,,,,,,,,,0,0,0,0,0,0,0,0,0,0,0,0,0,0,0,0,,,,,,0.0,,,,,,,
32,6828044,1745475427073,,,,,,,,,,,,,,,,,,,,,,,,,,,,,,,,,,0,0,0,0,0,0,0,0,0,0,0,0,0,0,0,0,,,,,,,,,,,,,
33,6828064,1745475427097,110.11,78.0,,-0.05,-0.04,0.88,1.0,0.0,0.0,0.88,1.12,79.0,10402.0,17.9,3.48,,9.22,1.248,89.8,,49.8,5.0,,,,,,,,,,,,0,0,0,0,0,0,0,0,0,0,0,0,0,0,0,0,,,,,,0.0,,,,,,,
34,6828084,1745475427117,,,,,,,,,,,,,,,,,,,,,,,0.0,0.0,0.0,0.0,0.0,0.0,0.0,0.0,2.21,,,0,0,0,0,0,0,0,0,0,0,0,0,0,0,0,0,,0.0,,,,,38.994099,-76.939652,0.08,26.4,33.0,3.0,0.8
35,6828104,1745475427137,110.73,85.0,,-0.05,0.01,1.0,1.0,0.0,0.0,1.0,1.12,89.0,10997.0,13.2,2.68,,8.31,1.248,89.8,,54.9,5.0,,,,,,,,,,,,0,0,0,0,0,0,0,0,0,0,0,0,0,0,0,0,,,,,,0.0,,,,,,,
36,6828124,1745475427157,,,,,,,,,,,,,,,,,,,,,,,,,,,,,,,,,,0,0,0,0,0,0,0,0,0,0,0,0,0,0,0,0,,,,,,,,,,,,,
37,6828144,1745475427177,108.22,95.0,,-0.04,-0.08,0.97,1.0,0.0,-1.0,0.98,1.12,87.0,11312.0,12.1,2.23,,7.54,1.095,89.8,,54.9,5.0,,,,,,,,,,,,0,0,0,0,0,0,0,0,0,0,0,0,0,0,0,0,,,,,,0.0,,,,,,,
38,6828164,1745475427199,,,,,,,,,,,,,,,,,,,,,,,,,,,,,,,,,,0,0,0,0,0,0,0,0,0,0,0,0,0,0,0,0,,,,,,,,,,,,,
39,6828184,1745475427219,102.56,95.0,,-0.05,-0.07,0.95,1.0,0.0,-1.0,0.95,1.12,85.0,11144.0,12.8,2.14,,7.25,1.062,89.8,,54.9,5.0,0.0,0.0,0.0,0.0,0.0,0.0,0.0,0.0,2.21,,,0,0,0,0,0,0,0,0,0,0,0,0,0,0,0,0,,0.0,,,,0.0,38.994099,-76.939652,0.12,26.4,33.0,3.0,0.8
40,6828204,1745475427239,,,,,,,,,,,,,,,,,,,,,,,,,,,,,,,,,,0,0,0,0,0,0,0,0,0,0,0,0,0,0,0,0,,,,,,,,,,,,,
41,6828224,1745475427259,98.79,95.0,,-0.09,-0.23,0.97,0.0,0.0,-1.0,1.0,1.12,89.0,10951.0,18.3,2.55,,7.25,1.062,89.8,,55.4,5.0,,,,,,,,,,,,0,0,0,0,0,0,0,0,0,0,0,0,0,0,0,0,,,,,,0.0,,,,,,,
42,6828244,1745475427279,,,,,,,,,,,,,,,,,,,,,,,,,,,,,,,,,,0,0,0,0,0,0,0,0,0,0,0,0,0,0,0,0,,,,,,,,,,,,,
43,6828264,1745475427301,89.99,102.0,,-0.09,-0.09,1.02,0.0,0.0,0.0,1.03,1.12,91.0,10951.0,18.3,2.55,,7.58,1.156,89.8,,55.4,5.0,,,,,,,,,,,,0,0,0,0,0,0,0,0,0,0,0,0,0,0,0,0,,,,,,0.0,,,,,,,
44,6828284,1745475427321,,,,,,,,,,,,,,,,,,,,,,,0.0,0.0,0.0,0.0,0.0,0.0,0.0,0.0,2.21,,,0,0,0,0,0,0,0,0,0,0,0,0,0,0,0,0,,0.0,,,,,38.994099,-76.939652,0.05,26.4,33.0,3.0,0.8
45,6828304,1745475427341,79.94,102.0,,-0.11,-0.11,0.98,1.0,0.0,0.0,0.99,1.12,88.0,11146.0,20.4,2.8,,8.14,1.241,89.8,,52.2,5.0,,,,,,,,,,,,0,0,0,0,0,0,0,0,0,0,0,0,0,0,0,0,,,,,,0.0,,,,,,,
46,6828324,1745475427361,,,,,,,,,,,,,,,,,,,,,,,,,,,,,,,,,,0,0,0,0,0,0,0,0,0,0,0,0,0,0,0,0,,,,,,,,,,,,,
47,6828344,1745475427381,68.0,98.0,,-0.09,-0.03,1.02,2.0,0.0,-1.0,1.03,1.12,92.0,11380.0,21.3,2.94,,8.39,1.159,88.0,,52.2,5.0,,,,,,,,,,,,0,0,0,0,0,0,0,0,0,0,0,0,0,0,0,0,,,,,,0.0,,,,,,,
48,6828364,1745475427403,,,,,,,,,,,,,,,,,,,,,,,,,,,,,,,,,,0,0,0,0,0,0,0,0,0,0,0,0,0,0,0,0,,,,,,,,,,,,,
49,6828384,1745475427423,53.54,112.0,12.65,-0.07,-0.08,0.92,0.0,0.0,-1.0,0.93,1.12,83.0,11580.0,21.4,2.94,15.0,8.63,1.113,88.0,182.0,52.2,5.0,0.0,0.0,0.0,0.0,0.0,0.0,0.0,0.0,2.21,0.0,1.0,0,0,0,0,0,0,0,0,0,0,0,0,0,0,0,0,0.0,0.0,1.0,0.0,0.0,0.0,38.994099,-76.939652,0.08,26.4,33.0,3.0,0.8
50,6828404,1745475427443,,,,,,,,,,,,,,,,,,,,,,,,,,,,,,,,,,0,0,0,0,0,0,0,0,0,0,0,0,0,0,0,0,,,,,,,,,,,,,
51,6828424,1745475427463,40.98,125.0,,-0.15,0.07,0.9,-1.0,0.0,-1.0,0.91,1.12,81.0,11898.0,21.4,2.89,,8.63,1.113,88.0,,52.2,5.0,,,,,,,,,,,,0,0,0,0,0,0,0,0,0,0,0,0,0,0,0,0,,,,,,0.0,,,,,,,
52,6828444,1745475427483,,,,,,,,,,,,,,,,,,,,,,,,,,,,,,,,,,0,0,0,0,0,0,0,0,0,0,0,0,0,0,0,0,,,,,,,,,,,,,
53,6828464,1745475427502,30.29,112.0,,-0.16,0.23,0.97,-1.0,0.0,-1.0,1.02,1.12,90.0,11898.0,21.4,2.89,,8.49,1.102,88.0,,52.2,5.0,,,,,,,,,,,,0,0,0,0,0,0,0,0,0,0,0,0,0,0,0,0,,,,,,0.0,,,,,,,
54,6828484,1745475427522,,,,,,,,,,,,,,,,,,,,,,,0.0,0.0,0.0,0.0,0.0,0.0,0.0,0.0,2.2,,,0,0,0,0,0,0,0,0,0,0,0,0,0,0,0,0,,0.0,,,,,38.994099,-76.939652,0.07,26.4,33.0,3.0,0.8
55,6828504,1745475427542,22.12,112.0,,-0.16,0.35,1.1,-2.0,0.0,0.0,1.17,1.17,100.0,11936.0,21.3,2.86,,8.37,1.076,88.0,,56.3,5.0,,,,,,,,,,,,0,0,0,0,0,0,0,0,0,0,0,0,0,0,0,0,,,,,,0.0,,,,,,,
56,6828524,1745475427562,,,,,,,,,,,,,,,,,,,,,,,,,,,,,,,,,,0,0,0,0,0,0,0,0,0,0,0,0,0,0,0,0,,,,,,,,,,,,,
57,6828544,1745475427582,13.95,108.0,,-0.23,0.42,1.09,-3.0,0.0,0.0,1.19,1.19,100.0,12057.0,21.1,2.77,,8.31,1.123,88.0,,56.3,5.0,,,,,,,,,,,,0,0,0,0,0,0,0,0,0,0,0,0,0,0,0,0,,,,,,0.0,,,,,,,
58,6828564,1745475427603,,,,,,,,,,,,,,,,,,,,,,,,,,,,,,,,,,0,0,0,0,0,0,0,0,0,0,0,0,0,0,0,0,,,,,,,,,,,,,
59,6828584,1745475427623,6.41,122.0,,-0.22,0.48,0.97,-4.0,0.0,0.0,1.1,1.19,93.0,12100.0,21.0,2.71,,8.23,1.128,88.0,,56.3,5.0,0.0,0.0,0.0,0.0,0.0,0.0,0.0,0.0,2.21,,,0,0,0,0,0,0,0,0,0,0,0,0,0,0,0,0,,0.0,,,,0.0,38.994099,-76.939652,0.1,26.4,33.0,3.0,0.8
60,6828604,1745475427643,,,,,,,,,,,,,,,,,,,,,,,,,,,,,,,,,,0,0,0,0,0,0,0,0,0,0,0,0,0,0,0,0,,,,,,,,,,,,,
61,6828624,1745475427663,2.64,112.0,,-0.17,0.42,0.89,-4.0,0.0,0.0,0.99,1.19,83.0,12093.0,19.7,2.58,,8.23,1.128,88.0,,52.8,5.0,,,,,,,,,,,,0,0,0,0,0,0,0,0,0,0,0,0,0,0,0,0,,,,,,0.0,,,,,,,
62,6828644,1745475427683,,,,,,,,,,,,,,,,,,,,,,,,,,,,,,,,,,0,0,0,0,0,0,0,0,0,0,0,0,0,0,0,0,,,,,,,,,,,,,
63,6828664,1745475427702,0.0,119.0,,-0.14,0.23,0.81,-2.0,0.0,-1.0,0.85,1.19,72.0,12093.0,19.7,2.58,,8.02,1.146,88.0,,52.8,5.0,,,,,,,,,,,,0,0,0,0,0,0,0,0,0,0,0,0,0,0,0,0,,,,,,0.0,,,,,,,
64,6828684,1745475427722,,,,,,,,,,,,,,,,,,,,,,,0.0,0.0,0.0,0.0,0.0,0.0,0.0,0.0,2.21,,,0,0,0,0,0,0,0,0,0,0,0,0,0,0,0,0,,0.0,,,,,38.994099,-76.939652,0.04,26.4,33.0,3.0,0.8
65,6828704,1745475427742,0.0,115.0,,-0.13,-0.03,0.78,-2.0,0.0,-1.0,0.79,1.19,66.0,12057.0,16.1,2.33,,7.65,1.165,88.0,,56.4,5.0,,,,,,,,,,,,0,0,0,0,0,0,0,0,0,0,0,0,0,0,0,0,,,,,,0.0,,,,,,,
66,6828724,1745475427762,,,,,,,,,,,,,,,,,,,,,,,,,,,,,,,,,,0,0,0,0,0,0,0,0,0,0,0,0,0,0,0,0,,,,,,,,,,,,,
67,6828744,1745475427782,0.0,119.0,,-0.14,-0.11,0.74,-3.0,0.0,-1.0,0.76,1.19,63.0,11914.0,13.0,2.16,,7.12,1.178,88.0,,56.4,5.0,,,,,,,,,,,,0,0,0,0,0,0,0,0,0,0,0,0,0,0,0,0,,,,,,0.0,,,,,,,
68,6828764,1745475427802,,,,,,,,,,,,,,,,,,,,,,,,,,,,,,,,,,0,0,0,0,0,0,0,0,0,0,0,0,0,0,0,0,,,,,,,,,,,,,
69,6828784,1745475427822,0.0,135.0,,-0.15,-0.14,0.65,-4.0,0.0,0.0,0.68,1.19,57.0,11795.0,10.5,1.96,,6.52,1.192,88.0,,56.4,5.0,0.0,0.0,0.0,0.0,0.0,0.0,0.0,0.0,2.2,,,0,0,0,0,0,0,0,0,0,0,0,0,0,0,0,0,,0.0,,,,0.0,38.994099,-76.939652,0.07,26.4,33.0,3.0,0.8
70,6828804,1745475427842,,,,,,,,,,,,,,,,,,,,,,,,,,,,,,,,,,0,0,0,0,0,0,0,0,0,0,0,0,0,0,0,0,,,,,,,,,,,,,
71,6828824,1745475427862,0.0,135.0,,-0.1,0.03,0.78,-3.0,0.0,0.0,0.79,1.19,66.0,11438.0,10.5,1.8,,6.52,1.192,88.0,,50.9,5.0,,,,,,,,,,,,0,0,0,0,0,0,0,0,0,0,0,0,0,0,0,0,,,,,,0.0,,,,,,,
72,6828844,1745475427882,,,,,,,,,,,,,,,,,,,,,,,,,,,,,,,,,,0,0,0,0,0,0,0,0,0,0,0,0,0,0,0,0,,,,,,,,,,,,,
73,6828864,1745475427902,0.0,135.0,,-0.13,-0.01,0.82,-3.0,0.0,0.0,0.83,1.19,69.0,11438.0,10.5,1.8,,6.36,1.181,88.0,,50.9,5.0,,,,,,,,,,,,0,0,0,0,0,0,0,0,0,0,0,0,0,0,0,0,,,,,,0.0,,,,,,,
74,6828884,1745475427922,,,,,,,,,,,,,,,,,,,,,,,0.0,0.0,0.0,0.0,0.0,0.0,0.0,0.0,2.21,,,0,0,0,0,0,0,0,0,0,0,0,0,0,0,0,0,,0.0,,,,,38.994099,-76.939652,0.05,26.4,33.0,3.0,0.8
75,6828904,1745475427942,0.0,135.0,,-0.11,-0.11,0.83,-2.0,0.0,-1.0,0.84,1.19,71.0,11026.0,10.5,1.72,,6.35,1.25,88.0,,53.0,5.0,,,,,,,,,,,,0,0,0,0,0,0,0,0,0,0,0,0,0,0,0,0,,,,,,0.0,,,,,,,
76,6828924,1745475427962,,,,,,,,,,,,,,,,,,,,,,,,,,,,,,,,,,0,0,0,0,0,0,0,0,0,0,0,0,0,0,0,0,,,,,,,,,,,,,
77,6828944,1745475427982,0.0,135.0,,-0.12,-0.26,0.94,-2.0,0.0,0.0,0.99,1.19,83.0,10514.0,11.4,1.76,,6.34,1.249,88.0,,53.0,5.0,,,,,,,,,,,,0,0,0,0,0,0,0,0,0,0,0,0,0,0,0,0,,,,,,0.0,,,,,,,
78,6828964,1745475427994,,,,,,,,,,,,,,,,,,,,,,,,,,,,,,,,,,0,0,0,0,0,0,0,0,0,0,0,0,0,0,0,0,,,,,,,,,,,,,
79,6828984,1745475428014,0.0,135.0,,-0.11,-0.02,0.9,-2.0,0.0,0.0,0.91,1.19,76.0,10046.0,14.2,2.21,,6.8,1.248,88.0,,53.0,5.0,0.0,0.0,0.0,0.0,0.0,0.0,0.0,0.0,2.21,,,0,0,0,0,0,0,0,0,0,0,0,0,0,0,0,0,,0.0,,,,0.0,38.994099,-76.939652,0.08,26.5,33.0,3.0,0.8
80,6829004,1745475428034,,,,,,,,,,,,,,,,,,,,,,,,,,,,,,,,,,0,0,0,0,0,0,0,0,0,0,0,0,0,0,0,0,,,,,,,,,,,,,
81,6829024,1745475428054,0.0,135.0,,-0.1,-0.07,0.92,-2.0,0.0,0.0,0.93,1.19,78.0,9823.0,17.0,2.58,,6.8,1.248,88.0,,49.6,5.0,,,,,,,,,,,,0,0,0,0,0,0,0,0,0,0,0,0,0,0,0,0,,,,,,0.0,,,,,,,
82,6829044,1745475428074,,,,,,,,,,,,,,,,,,,,,,,,,,,,,,,,,,0,0,0,0,0,0,0,0,0,0,0,0,0,0,0,0,,,,,,,,,,,,,
83,6829064,1745475428100,0.0,135.0,,-0.11,-0.1,0.98,-1.0,0.0,0.0,0.99,1.19,83.0,9823.0,17.0,2.58,,7.39,1.248,88.0,,49.6,5.0,,,,,,,,,,,,0,0,0,0,0,0,0,0,0,0,0,0,0,0,0,0,,,,,,0.0,,,,,,,
84,6829084,1745475428120,,,,,,,,,,,,,,,,,,,,,,,0.0,0.0,0.0,0.0,0.0,0.0,0.0,0.0,2.22,,,0,0,0,0,0,0,0,0,0,0,0,0,0,0,0,0,,0.0,,,,,38.994099,-76.939652,0.05,26.5,33.0,3.0,0.8
85,6829104,1745475428140,0.0,135.0,,-0.12,-0.19,1.03,0.0,0.0,0.0,1.06,1.19,89.0,9960.0,23.4,2.88,,8.31,1.248,88.0,,48.2,5.0,,,,,,,,,,,,0,0,0,0,0,0,0,0,0,0,0,0,0,0,0,0,,,,,,0.0,,,,,,,
86,6829124,1745475428160,,,,,,,,,,,,,,,,,,,,,,,,,,,,,,,,,,0,0,0,0,0,0,0,0,0,0,0,0,0,0,0,0,,,,,,,,,,,,,
87,6829144,1745475428180,0.0,135.0,,-0.08,-0.02,1.04,0.0,0.0,0.0,1.04,1.19,87.0,10067.0,36.7,3.52,,10.01,1.248,88.0,,48.2,5.0,,,,,,,,,,,,0,0,0,0,0,0,0,0,0,0,0,0,0,0,0,0,,,,,,0.0,,,,,,,
88,6829164,1745475428200,,,,,,,,,,,,,,,,,,,,,,,,,,,,,,,,,,0,0,0,0,0,0,0,0,0,0,0,0,0,0,0,0,,,,,,,,,,,,,
89,6829184,1745475428220,0.0,135.0,,-0.1,-0.2,1.12,0.0,0.0,0.0,1.14,1.19,95.0,10116.0,53.6,5.04,,11.81,1.249,88.0,,48.2,5.0,0.0,0.0,0.0,0.0,0.0,0.0,0.0,0.0,2.22,,,0,0,0,0,0,0,0,0,0,0,0,0,0,0,0,0,,0.0,,,,0.0,38.994099,-76.939652,0.05,26.5,33.0,3.0,0.8
90,6829204,1745475428240,,,,,,,,,,,,,,,,,,,,,,,,,,,,,,,,,,0,0,0,0,0,0,0,0,0,0,0,0,0,0,0,0,,,,,,,,,,,,,
91,6829224,1745475428260,0.0,135.0,,-0.09,0.01,1.01,-1.0,0.0,0.0,1.02,1.19,85.0,10187.0,62.5,5.44,,11.81,1.249,88.0,,47.8,5.0,,,,,,,,,,,,0,0,0,0,0,0,0,0,0,0,0,0,0,0,0,0,,,,,,0.0,,,,,,,
92,6829244,1745475428280,,,,,,,,,,,,,,,,,,,,,,,,,,,,,,,,,,0,0,0,0,0,0,0,0,0,0,0,0,0,0,0,0,,,,,,,,,,,,,
93,6829264,1745475428302,0.0,135.0,,-0.09,-0.15,1.0,-1.0,0.0,0.0,1.02,1.19,85.0,10187.0,62.5,5.44,,13.01,1.25,88.0,,47.8,5.0,,,,,,,,,,,,0,0,0,0,0,0,0,0,0,0,0,0,0,0,0,0,,,,,,0.0,,,,,,,
94,6829284,1745475428322,,,,,,,,,,,,,,,,,,,,,,,0.0,0.0,0.0,0.0,0.0,0.0,0.0,0.0,2.21,,,0,0,0,0,0,0,0,0,0,0,0,0,0,0,0,0,,0.0,,,,,38.994099,-76.939652,0.11,26.4,33.0,3.0,0.8
95,6829304,1745475428342,0.0,135.0,,-0.04,-0.1,0.98,-1.0,0.0,0.0,0.98,1.19,82.0,11658.0,66.1,4.42,,13.21,1.251,88.0,,60.0,5.0,,,,,,,,,,,,0,0,0,0,0,0,0,0,0,0,0,0,0,0,0,0,,,,,,0.0,,,,,,,
96,6829324,1745475428362,,,,,,,,,,,,,,,,,,,,,,,,,,,,,,,,,,0,0,0,0,0,0,0,0,0,0,0,0,0,0,0,0,,,,,,,,,,,,,
97,6829344,1745475428382,0.0,134.0,,-0.06,-0.05,1.05,0.0,0.0,0.0,1.05,1.19,88.0,12489.0,69.6,4.98,,12.99,1.137,88.0,,60.0,5.0,,,,,,,,,,,,0,0,0,0,0,0,0,0,0,0,0,0,0,0,0,0,,,,,,0.0,,,,,,,
98,6829364,1745475428402,,,,,,,,,,,,,,,,,,,,,,,,,,,,,,,,,,0,0,0,0,0,0,0,0,0,0,0,0,0,0,0,0,,,,,,,,,,,,,
99,6829384,1745475428422,0.0,135.0,12.71,-0.07,-0.16,1.06,2.0,0.0,0.0,1.07,1.19,90.0,13321.0,83.8,4.72,15.0,12.88,1.143,88.0,182.0,60.0,5.0,0.0,0.0,0.0,0.0,0.0,0.0,0.0,0.0,2.2,0.0,1.0,0,0,0,0,0,0,0,0,0,0,0,0,0,0,0,0,0.0,0.0,1.0,0.0,0.0,0.0,38.994099,-76.939652,0.07,26.4,33.0,3.0,0.8
100,6829404,1745475428442,,,,,,,,,,,,,,,,,,,,,,,,,,,,,,,,,,0,0,0,0,0,0,0,0,0,0,0,0,0,0,0,0,,,,,,,,,,,,,
101,6829424,1745475428462,0.0,135.0,,-0.12,-0.12,1.06,4.0,1.0,0.0,1.07,1.19,90.0,14005.0,99.3,3.95,,12.88,1.143,88.0,,64.2,5.0,,,,,,,,,,,,0,0,0,0,0,0,0,0,0,0,0,0,0,0,0,0,,,,,,0.0,,,,,,,
102,6829444,1745475428482,,,,,,,,,,,,,,,,,,,,,,,,,,,,,,,,,,0,0,0,0,0,0,0,0,0,0,0,0,0,0,0,0,,,,,,,,,,,,,
103,6829464,1745475428502,0.0,135.0,,-0.09,-0.04,0.98,5.0,1.0,1.0,0.99,1.19,83.0,14005.0,99.3,3.95,,12.73,1.111,88.0,,64.2,5.0,,,,,,,,,,,,0,0,0,0,0,0,0,0,0,0,0,0,0,0,0,0,,,,,,0.0,,,,,,,
104,6829484,1745475428522,,,,,,,,,,,,,,,,,,,,,,,0.0,0.0,0.0,0.0,0.0,0.0,0.0,0.0,2.2,,,0,0,0,0,0,0,0,0,0,0,0,0,0,0,0,0,,0.0,,,,,38.994099,-76.939652,0.07,26.4,33.0,3.0,0.8
105,6829504,1745475428542,0.0,134.0,,0.05,-0.04,0.98,3.0,2.0,2.0,0.98,1.19,82.0,12897.0,99.5,4.7,,13.15,1.16,88.0,,62.6,5.0,,,,,,,,,,,,0,0,0,0,0,0,0,0,0,0,0,0,0,0,0,0,,,,,,0.0,,,,,,,
106,6829524,1745475428562,,,,,,,,,,,,,,,,,,,,,,,,,,,,,,,,,,0,0,0,0,0,0,0,0,0,0,0,0,0,0,0,0,,,,,,,,,,,,,
107,6829544,1745475428582,0.0,135.0,,0.16,-0.12,0.98,3.0,2.0,2.0,1.0,1.19,83.0,11550.0,99.4,5.26,,13.29,1.248,88.0,,62.6,5.0,,,,,,,,,,,,0,0,0,0,0,0,0,0,0,0,0,0,0,0,0,0,,,,,,0.0,,,,,,,
108,6829564,1745475428602,,,,,,,,,,,,,,,,,,,,,,,,,,,,,,,,,,0,0,0,0,0,0,0,0,0,0,0,0,0,0,0,0,,,,,,,,,,,,,
109,6829584,1745475428622,0.0,135.0,,0.21,-0.05,0.95,2.0,2.0,2.0,0.97,1.19,81.0,10101.0,99.4,5.95,,13.65,1.247,88.0,,62.6,5.0,0.0,0.0,5.0,0.0,0.0,0.0,0.0,0.0,2.2,,,0,0,0,0,0,0,0,0,0,0,0,0,0,0,0,0,,0.0,,,,0.0,38.994099,-76.939652,0.38,26.4,33.0,3.0,0.8
110,6829604,1745475428642,,,,,,,,,,,,,,,,,,,,,,,,,,,,,,,,,,0,0,0,0,0,0,0,0,0,0,0,0,0,0,0,0,,,,,,,,,,,,,
111,6829624,1745475428662,0.0,135.0,,0.23,0.11,0.94,1.0,1.0,2.0,0.97,1.19,81.0,10049.0,99.4,6.1,,13.65,1.247,88.0,,52.4,5.0,,,,,,,,,,,,0,0,0,0,0,0,0,0,0,0,0,0,0,0,0,0,,,,,,0.0,,,,,,,
112,6829644,1745475428682,,,,,,,,,,,,,,,,,,,,,,,,,,,,,,,,,,0,0,0,0,0,0,0,0,0,0,0,0,0,0,0,0,,,,,,,,,,,,,
113,6829664,1745475428701,0.0,132.0,,0.25,0.16,0.91,2.0,1.0,1.0,0.96,1.19,80.0,10049.0,99.4,6.1,,13.76,1.199,88.0,,52.4,5.0,,,,,,,,,,,,0,0,0,0,0,0,0,0,0,0,0,0,0,0,0,0,,,,,,0.0,,,,,,,
114,6829684,1745475428721,,,,,,,,,,,,,,,,,,,,,,,2.0,0.0,28.0,30.0,0.0,0.0,0.0,0.0,2.21,,,0,0,0,0,0,0,0,0,0,0,0,0,0,0,0,0,,1.0,,,,,38.994099,-76.939652,3.22,26.4,33.0,3.0,0.8
115,6829704,1745475428741,0.0,135.0,,0.3,0.01,0.93,3.0,1.0,0.0,0.98,1.19,82.0,10799.0,99.4,5.72,,13.61,1.081,88.0,,56.9,5.0,,,,,,,,,,,,0,0,0,0,0,0,0,0,0,0,0,0,0,0,0,0,,,,,,0.0,,,,,,,
116,6829724,1745475428761,,,,,,,,,,,,,,,,,,,,,,,,,,,,,,,,,,0,0,0,0,0,0,0,0,0,0,0,0,0,0,0,0,,,,,,,,,,,,,
117,6829744,1745475428781,0.0,122.0,,0.32,0.05,0.93,3.0,1.0,0.0,0.98,1.19,82.0,11292.0,99.5,5.46,,13.43,1.015,88.0,,56.9,5.0,,,,,,,,,,,,0,0,0,0,0,0,0,0,0,0,0,0,0,0,0,0,,,,,,0.0,,,,,,,
118,6829764,1745475428801,,,,,,,,,,,,,,,,,,,,,,,,,,,,,,,,,,0,0,0,0,0,0,0,0,0,0,0,0,0,0,0,0,,,,,,,,,,,,,
119,6829784,1745475428821,0.0,135.0,,0.37,0.11,1.03,2.0,1.0,0.0,1.1,1.19,92.0,11459.0,99.5,5.39,,13.63,0.997,88.0,,56.9,5.0,3.0,0.0,34.0,33.0,0.0,0.0,0.0,0.0,2.2,,,0,0,0,0,0,0,0,0,0,0,0,0,0,0,0,0,,0.0,,,,0.0,38.994099,-76.939652,6.27,26.4,33.0,3.0,0.8
120,6829804,1745475428841,,,,,,,,,,,,,,,,,,,,,,,,,,,,,,,,,,0,0,0,0,0,0,0,0,0,0,0,0,0,0,0,0,,,,,,,,,,,,,
121,6829824,1745475428861,0.0,134.0,,0.44,-0.02,0.97,5.0,1.0,0.0,1.06,1.19,89.0,11673.0,99.4,5.33,,13.63,0.997,88.0,,61.6,5.0,,,,,,,,,,,,0,0,0,0,0,0,0,0,0,0,0,0,0,0,0,0,,,,,,0.0,,,,,,,
122,6829844,1745475428881,,,,,,,,,,,,,,,,,,,,,,,,,,,,,,,,,,0,0,0,0,0,0,0,0,0,0,0,0,0,0,0,0,,,,,,,,,,,,,
123,6829864,1745475428901,0.0,135.0,,0.47,-0.14,1.05,5.0,0.0,1.0,1.15,1.19,97.0,11673.0,99.4,5.33,,13.52,0.977,88.0,,61.6,5.0,,,,,,,,,,,,0,0,0,0,0,0,0,0,0,0,0,0,0,0,0,0,,,,,,0.0,,,,,,,
124,6829884,1745475428921,,,,,,,,,,,,,,,,,,,,,,,5.0,0.0,37.0,36.0,0.0,0.0,0.0,0.0,2.2,,,0,0,0,0,0,0,0,0,0,0,0,0,0,0,0,0,,0.0,,,,,38.994099,-76.939652,8.78,26.4,33.0,3.0,0.8
125,6829904,1745475428941,0.0,135.0,,0.52,0.13,1.09,6.0,0.0,1.0,1.22,1.22,100.0,11758.0,99.5,5.28,,13.45,0.994,88.0,,61.6,5.0,,,,,,,,,,,,0,0,0,0,0,0,0,0,0,0,0,0,0,0,0,0,,,,,,0.0,,,,,,,
126,6829924,1745475428961,,,,,,,,,,,,,,,,,,,,,,,,,,,,,,,,,,0,0,0,0,0,0,0,0,0,0,0,0,0,0,0,0,,,,,,,,,,,,,
127,6829944,1745475428981,0.0,135.0,,0.55,0.35,1.0,5.0,1.0,1.0,1.19,1.22,98.0,11867.0,99.5,5.23,,13.39,1.007,88.0,,61.6,5.0,,,,,,,,,,,,0,0,0,0,0,0,0,0,0,0,0,0,0,0,0,0,,,,,,0.0,,,,,,,
128,6829964,1745475428993,,,,,,,,,,,,,,,,,,,,,,,,,,,,,,,,,,0,0,0,0,0,0,0,0,0,0,0,0,0,0,0,0,,,,,,,,,,,,,
129,6829984,1745475429013,0.0,135.0,,0.51,0.04,0.97,3.0,0.0,-1.0,1.1,1.22,90.0,11633.0,99.4,5.29,,13.36,0.998,88.0,,61.6,5.0,7.0,0.0,36.0,36.0,0.0,0.0,0.0,0.0,2.2,,,0,0,0,0,0,0,0,0,0,0,0,0,0,0,0,0,,0.0,,,,0.0,38.994099,-76.939644,11.53,26.4,33.0,3.0,0.8
130,6830004,1745475429033,,,,,,,,,,,,,,,,,,,,,,,,,,,,,,,,,,0,0,0,0,0,0,0,0,0,0,0,0,0,0,0,0,,,,,,,,,,,,,
131,6830024,1745475429053,0.0,135.0,,0.51,0.06,0.91,4.0,0.0,-1.0,1.05,1.22,86.0,11421.0,99.4,5.38,,13.36,0.998,88.0,,58.3,5.0,,,,,,,,,,,,0,0,0,0,0,0,0,0,0,0,0,0,0,0,0,0,,,,,,0.0,,,,,,,
132,6830044,1745475429073,,,,,,,,,,,,,,,,,,,,,,,,,,,,,,,,,,0,0,0,0,0,0,0,0,0,0,0,0,0,0,0,0,,,,,,,,,,,,,
133,6830064,1745475429101,0.0,122.0,,0.53,0.13,0.98,5.0,0.0,0.0,1.12,1.22,92.0,11421.0,99.4,5.38,,13.41,1.039,88.0,,58.3,5.0,,,,,,,,,,,,0,0,0,0,0,0,0,0,0,0,0,0,0,0,0,0,,,,,,0.0,,,,,,,
134,6830084,1745475429121,,,,,,,,,,,,,,,,,,,,,,,9.0,0.0,35.0,34.0,0.0,9.0,0.0,0.0,2.2,,,0,0,0,0,0,0,0,0,0,0,0,0,0,0,0,0,,1.0,,,,,38.994099,-76.939644,14.63,26.4,33.0,3.0,0.8
135,6830104,1745475429141,0.0,135.0,,0.57,0.06,1.02,6.0,0.0,0.0,1.17,1.22,96.0,11427.0,99.4,5.37,,13.69,1.016,88.0,,58.1,5.0,,,,,,,,,,,,0,0,0,0,0,0,0,0,0,0,0,0,0,0,0,0,,,,,,0.0,,,,,,,
136,6830124,1745475429161,,,,,,,,,,,,,,,,,,,,,,,,,,,,,,,,,,0,0,0,0,0,0,0,0,0,0,0,0,0,0,0,0,,,,,,,,,,,,,
137,6830144,1745475429181,0.0,135.0,,0.62,-0.04,0.99,6.0,0.0,1.0,1.17,1.22,96.0,11357.0,99.4,5.4,,13.6,0.983,88.0,,58.1,5.0,,,,,,,,,,,,0,0,0,0,0,0,0,0,0,0,0,0,0,0,0,0,,,,,,0.0,,,,,,,
138,6830164,1745475429199,,,,,,,,,,,,,,,,,,,,,,,,,,,,,,,,,,0,0,0,0,0,0,0,0,0,0,0,0,0,0,0,0,,,,,,,,,,,,,
139,6830184,1745475429219,0.0,134.0,,0.64,0.04,0.95,6.0,0.0,1.0,1.15,1.22,94.0,11083.0,99.4,5.47,,13.6,0.977,88.0,,58.1,5.0,11.0,0.0,34.0,34.0,0.0,48.0,0.0,0.0,2.2,,,0,0,0,0,0,0,0,0,0,0,0,0,0,0,0,0,,1.0,,,,0.0,38.994099,-76.939636,18.34,26.4,33.0,3.0,0.8
140,6830204,1745475429239,,,,,,,,,,,,,,,,,,,,,,,,,,,,,,,,,,0,0,0,0,0,0,0,0,0,0,0,0,0,0,0,0,,,,,,,,,,,,,
141,6830224,1745475429259,0.0,134.0,,0.67,0.07,0.99,4.0,0.0,1.0,1.2,1.22,99.0,10827.0,99.4,5.6,,13.6,0.977,88.0,,60.4,5.0,,,,,,,,,,,,0,0,0,0,0,0,0,0,0,0,0,0,0,0,0,0,,,,,,0.0,,,,,,,
142,6830244,1745475429279,,,,,,,,,,,,,,,,,,,,,,,,,,,,,,,,,,0,0,0,0,0,0,0,0,0,0,0,0,0,0,0,0,,,,,,,,,,,,,
143,6830264,1745475429301,0.0,135.0,,0.7,0.02,0.99,2.0,0.0,0.0,1.21,1.22,100.0,10827.0,99.4,5.6,,13.39,0.992,88.0,,60.4,5.0,,,,,,,,,,,,0,0,0,0,0,0,0,0,0,0,0,0,0,0,0,0,,,,,,0.0,,,,,,,
144,6830284,1745475429321,,,,,,,,,,,,,,,,,,,,,,,13.0,16.0,32.0,32.0,0.0,251.0,0.0,0.0,2.2,,,0,0,0,0,0,0,0,0,0,0,0,0,0,0,0,0,,1.0,,,,,38.994099,-76.939629,21.54,26.4,33.0,3.0,0.8
145,6830304,1745475429341,0.0,134.0,,0.72,0.06,1.02,0.0,0.0,0.0,1.25,1.25,100.0,10737.0,99.4,5.67,,13.82,0.992,88.0,,60.9,5.0,,,,,,,,,,,,0,0,0,0,0,0,0,0,0,0,0,0,0,0,0,0,,,,,,0.0,,,,,,,
146,6830324,1745475429361,,,,,,,,,,,,,,,,,,,,,,,,,,,,,,,,,,0,0,0,0,0,0,0,0,0,0,0,0,0,0,0,0,,,,,,,,,,,,,
147,6830344,1745475429381,0.0,115.0,,0.8,0.1,1.01,1.0,0.0,1.0,1.3,1.3,100.0,10721.0,99.5,5.7,,13.57,0.983,88.0,,60.9,5.0,,,,,,,,,,,,0,0,0,0,0,0,0,0,0,0,0,0,0,0,0,0,,,,,,0.0,,,,,,,
148,6830364,1745475429401,,,,,,,,,,,,,,,,,,,,,,,,,,,,,,,,,,0,0,0,0,0,0,0,0,0,0,0,0,0,0,0,0,,,,,,,,,,,,,
149,6830384,1745475429421,0.0,135.0,12.72,0.88,-0.23,0.94,5.0,0.0,0.0,1.31,1.31,100.0,10528.0,99.4,5.76,15.0,13.57,0.975,88.0,182.0,60.9,5.0,16.0,4.0,32.0,33.0,0.0,123.0,0.0,0.0,2.2,0.0,1.0,0,0,0,0,0,0,0,0,0,0,0,0,0,0,0,0,0.0,0.0,1.0,0.0,0.0,0.0,38.994099,-76.939621,25.51,26.4,33.0,3.0,0.8
150,6830404,1745475429441,,,,,,,,,,,,,,,,,,,,,,,,,,,,,,,,,,0,0,0,0,0,0,0,0,0,0,0,0,0,0,0,0,,,,,,,,,,,,,
151,6830424,1745475429461,0.0,132.0,,0.91,0.08,0.94,5.0,0.0,0.0,1.31,1.31,100.0,10169.0,99.4,6.0,,13.57,0.975,88.0,,54.2,5.0,,,,,,,,,,,,0,0,0,0,0,0,0,0,0,0,0,0,0,0,0,0,,,,,,0.0,,,,,,,
152,6830444,1745475429481,,,,,,,,,,,,,,,,,,,,,,,,,,,,,,,,,,0,0,0,0,0,0,0,0,0,0,0,0,0,0,0,0,,,,,,,,,,,,,
153,6830464,1745475429501,0.0,135.0,,0.92,-0.0,0.99,5.0,0.0,0.0,1.36,1.36,100.0,10169.0,99.4,6.0,,13.73,0.968,88.0,,54.2,5.0,,,,,,,,,,,,0,0,0,0,0,0,0,0,0,0,0,0,0,0,0,0,,,,,,0.0,,,,,,,
154,6830484,1745475429521,,,,,,,,,,,,,,,,,,,,,,,18.0,4.0,31.0,33.0,0.0,5.0,0.0,0.0,2.26,,,0,0,0,0,0,0,0,0,0,0,0,0,0,0,0,0,,0.0,,,,,38.994099,-76.939613,29.32,26.3,33.0,3.0,0.8
155,6830504,1745475429541,0.0,135.0,,0.96,-0.18,0.98,5.0,0.0,0.0,1.38,1.38,100.0,9938.0,99.4,6.1,,13.65,0.965,88.0,,54.8,5.0,,,,,,,,,,,,0,0,0,0,0,0,0,0,0,0,0,0,0,0,0,0,,,,,,0.0,,,,,,,
156,6830524,1745475429561,,,,,,,,,,,,,,,,,,,,,,,,,,,,,,,,,,0,0,0,0,0,0,0,0,0,0,0,0,0,0,0,0,,,,,,,,,,,,,
157,6830544,1745475429581,0.0,135.0,,0.94,0.1,1.0,5.0,0.0,0.0,1.38,1.38,99.0,9944.0,99.5,6.09,,13.64,0.946,88.0,,54.8,5.0,,,,,,,,,,,,0,0,0,0,0,0,0,0,0,0,0,0,0,0,0,0,,,,,,0.0,,,,,,,
158,6830564,1745475429601,,,,,,,,,,,,,,,,,,,,,,,,,,,,,,,,,,0,0,0,0,0,0,0,0,0,0,0,0,0,0,0,0,,,,,,,,,,,,,
159,6830584,1745475429621,0.0,134.0,,0.94,0.19,0.99,3.0,0.0,-1.0,1.38,1.38,100.0,9918.0,99.5,6.09,,13.73,0.931,88.0,,54.8,5.0,21.0,4.0,29.0,28.0,0.0,58.0,0.0,0.0,2.27,,,0,0,0,0,0,0,0,0,0,0,0,0,0,0,0,0,,0.0,,,,0.0,38.994099,-76.939606,33.89,26.3,33.0,3.0,0.8
160,6830604,1745475429641,,,,,,,,,,,,,,,,,,,,,,,,,,,,,,,,,,0,0,0,0,0,0,0,0,0,0,0,0,0,0,0,0,,,,,,,,,,,,,
161,6830624,1745475429661,0.0,135.0,,0.95,0.05,0.93,1.0,-1.0,0.0,1.33,1.38,96.0,9759.0,87.2,5.88,,13.73,0.931,88.0,,57.5,5.0,,,,,,,,,,,,0,0,0,0,0,0,0,0,0,0,0,0,0,0,0,0,,,,,,0.0,,,,,,,
162,6830644,1745475429681,,,,,,,,,,,,,,,,,,,,,,,,,,,,,,,,,,0,0,0,0,0,0,0,0,0,0,0,0,0,0,0,0,,,,,,,,,,,,,
163,6830664,1745475429700,0.0,135.0,,0.96,0.08,0.98,0.0,-1.0,0.0,1.37,1.38,99.0,9759.0,87.2,5.88,,13.69,0.917,88.0,,57.5,5.0,,,,,,,,,,,,0,0,0,0,0,0,0,0,0,0,0,0,0,0,0,0,,,,,,0.0,,,,,,,
164,6830684,1745475429720,,,,,,,,,,,,,,,,,,,,,,,23.0,4.0,29.0,27.0,0.0,226.0,0.0,0.0,2.27,,,0,0,0,0,0,0,0,0,0,0,0,0,0,0,0,0,,0.0,,,,,38.994099,-76.93959,37.21,26.3,33.0,3.0,0.8
165,6830704,1745475429740,0.0,135.0,,0.95,-0.02,0.99,-1.0,-1.0,0.0,1.37,1.38,99.0,9580.0,53.8,5.26,,13.21,0.911,88.0,,55.5,5.0,,,,,,,,,,,,0,0,0,0,0,0,0,0,0,0,0,0,0,0,0,0,,,,,,0.0,,,,,,,
166,6830724,1745475429760,,,,,,,,,,,,,,,,,,,,,,,,,,,,,,,,,,0,0,0,0,0,0,0,0,0,0,0,0,0,0,0,0,,,,,,,,,,,,,
167,6830744,1745475429780,0.0,134.0,,0.9,-0.13,0.97,-3.0,0.0,1.0,1.33,1.38,96.0,9621.0,34.0,5.22,,12.25,0.907,88.0,,55.5,5.0,,,,,,,,,,,,0,0,0,0,0,0,0,0,0,0,0,0,0,0,0,0,,,,,,0.0,,,,,,,
168,6830764,1745475429798,,,,,,,,,,,,,,,,,,,,,,,,,,,,,,,,,,0,0,0,0,0,0,0,0,0,0,0,0,0,0,0,0,,,,,,,,,,,,,
169,6830784,1745475429818,0.0,134.0,,0.92,0.08,0.95,-5.0,0.0,1.0,1.33,1.38,96.0,9560.0,17.0,5.0,,10.74,0.904,88.0,,55.5,5.0,24.0,4.0,29.0,29.0,0.0,27.0,0.0,0.0,2.27,,,0,0,0,0,0,0,0,0,0,0,0,0,0,0,0,0,,1.0,,,,0.0,38.994102,-76.939575,41.35,26.3,33.0,3.0,0.8
170,6830804,1745475429838,,,,,,,,,,,,,,,,,,,,,,,,,,,,,,,,,,0,0,0,0,0,0,0,0,0,0,0,0,0,0,0,0,,,,,,,,,,,,,
171,6830824,1745475429858,0.0,133.0,,0.82,-0.2,0.93,-5.0,0.0,1.0,1.26,1.38,91.0,9100.0,10.8,3.07,,10.74,0.904,88.0,,54.0,5.0,,,,,,,,,,,,0,0,0,0,0,0,0,0,0,0,0,0,0,0,0,0,,,,,,0.0,,,,,,,
172,6830844,1745475429878,,,,,,,,,,,,,,,,,,,,,,,,,,,,,,,,,,0,0,0,0,0,0,0,0,0,0,0,0,0,0,0,0,,,,,,,,,,,,,
173,6830864,1745475429901,0.0,134.0,,0.72,-0.48,0.93,-7.0,-1.0,0.0,1.28,1.38,92.0,9100.0,10.8,3.07,,9.45,0.856,88.0,,54.0,5.0,,,,,,,,,,,,0,0,0,0,0,0,0,0,0,0,0,0,0,0,0,0,,,,,,0.0,,,,,,,
174,6830884,1745475429921,,,,,,,,,,,,,,,,,,,,,,,28.0,28.0,29.0,28.0,0.0,175.0,0.0,0.0,2.26,,,0,0,0,0,0,0,0,0,0,0,0,0,0,0,0,0,,1.0,,,,,38.994102,-76.939568,43.74,26.3,33.0,3.0,0.8
175,6830904,1745475429941,0.0,134.0,,0.62,-0.4,0.98,-10.0,-2.0,1.0,1.23,1.38,89.0,9200.0,9.0,2.64,,8.45,0.812,88.0,,49.1,5.0,,,,,,,,,,,,0,0,0,0,0,0,0,0,0,0,0,0,0,0,0,0,,,,,,0.0,,,,,,,
176,6830924,1745475429961,,,,,,,,,,,,,,,,,,,,,,,,,,,,,,,,,,0,0,0,0,0,0,0,0,0,0,0,0,0,0,0,0,,,,,,,,,,,,,
177,6830944,1745475429981,0.0,134.0,,0.52,-0.54,0.97,-13.0,-2.0,1.0,1.22,1.38,88.0,9497.0,8.6,2.35,,7.9,0.812,88.0,,49.1,5.0,,,,,,,,,,,,0,0,0,0,0,0,0,0,0,0,0,0,0,0,0,0,,,,,,0.0,,,,,,,
178,6830964,1745475430001,,,,,,,,,,,,,,,,,,,,,,,,,,,,,,,,,,0,0,0,0,0,0,0,0,0,0,0,0,0,0,0,0,,,,,,,,,,,,,
179,6830984,1745475430010,0.0,134.0,,0.44,-0.52,0.97,-16.0,-2.0,2.0,1.18,1.38,86.0,9535.0,6.4,2.06,,7.26,0.827,88.0,,49.1,5.0,27.0,29.0,28.0,28.0,0.0,29.0,0.0,0.0,2.27,,,0,0,0,0,0,0,0,0,0,0,0,0,0,0,0,0,,1.0,,,,0.0,38.994102,-76.939552,45.7,26.2,33.0,3.0,0.8
180,6831004,1745475430030,,,,,,,,,,,,,,,,,,,,,,,,,,,,,,,,,,0,0,0,0,0,0,0,0,0,0,0,0,0,0,0,0,,,,,,,,,,,,,
181,6831024,1745475430050,0.0,134.0,,0.36,-0.47,0.99,-19.0,-2.0,2.0,1.15,1.38,83.0,9515.0,4.4,1.8,,7.26,0.827,88.0,,47.5,5.0,,,,,,,,,,,,0,0,0,0,0,0,0,0,0,0,0,0,0,0,0,0,,,,,,0.0,,,,,,,
182,6831044,1745475430070,,,,,,,,,,,,,,,,,,,,,,,,,,,,,,,,,,0,0,0,0,0,0,0,0,0,0,0,0,0,0,0,0,,,,,,,,,,,,,
183,6831064,1745475430098,0.0,133.0,,0.29,-0.71,0.95,-21.0,-2.0,2.0,1.22,1.38,88.0,9515.0,4.4,1.8,,6.6,0.854,88.0,,47.5,5.0,,,,,,,,,,,,0,0,0,0,0,0,0,0,0,0,0,0,0,0,0,0,,,,,,0.0,,,,,,,
184,6831084,1745475430118,,,,,,,,,,,,,,,,,,,,,,,27.0,31.0,28.0,28.0,0.0,254.0,0.0,0.0,2.27,,,0,0,0,0,0,0,0,0,0,0,0,0,0,0,0,0,,1.0,,,,,38.994102,-76.939537,44.64,26.2,33.0,3.0,0.8
185,6831104,1745475430138,0.0,133.0,,0.24,-0.47,1.03,-23.0,-2.0,2.0,1.15,1.15,100.0,9455.0,4.0,1.7,,6.32,0.884,88.0,,46.7,5.0,,,,,,,,,,,,0,0,0,0,0,0,0,0,0,0,0,0,0,0,0,0,,,,,,0.0,,,,,,,
186,6831124,1745475430158,,,,,,,,,,,,,,,,,,,,,,,,,,,,,,,,,,0,0,0,0,0,0,0,0,0,0,0,0,0,0,0,0,,,,,,,,,,,,,
187,6831144,1745475430178,0.0,133.0,,0.13,-0.78,1.05,-25.0,-2.0,2.0,1.32,1.32,100.0,9341.0,4.4,1.64,,6.23,0.93,88.0,,46.7,5.0,,,,,,,,,,,,0,0,0,0,0,0,0,0,0,0,0,0,0,0,0,0,,,,,,0.0,,,,,,,
188,6831164,1745475430200,,,,,,,,,,,,,,,,,,,,,,,,,,,,,,,,,,0,0,0,0,0,0,0,0,0,0,0,0,0,0,0,0,,,,,,,,,,,,,
189,6831184,1745475430220,0.0,133.0,,0.01,-0.57,1.04,-30.0,-1.0,2.0,1.19,1.32,90.0,9183.0,5.2,1.7,,6.12,0.984,88.0,,46.7,5.0,27.0,29.0,29.0,28.0,0.0,6.0,0.0,0.0,2.27,,,0,0,0,0,0,0,0,0,0,0,0,0,0,0,0,0,,1.0,,,,0.0,38.994102,-76.939522,44.87,26.2,33.0,3.0,0.8
190,6831204,1745475430240,,,,,,,,,,,,,,,,,,,,,,,,,,,,,,,,,,0,0,0,0,0,0,0,0,0,0,0,0,0,0,0,0,,,,,,,,,,,,,
191,6831224,1745475430260,0.0,131.0,,-0.1,-0.42,1.0,-34.0,-1.0,3.0,1.09,1.32,82.0,9111.0,5.4,1.72,,6.12,0.984,88.0,,46.2,5.0,,,,,,,,,,,,0,0,0,0,0,0,0,0,0,0,0,0,0,0,0,0,,,,,,0.0,,,,,,,
192,6831244,1745475430280,,,,,,,,,,,,,,,,,,,,,,,,,,,,,,,,,,0,0,0,0,0,0,0,0,0,0,0,0,0,0,0,0,,,,,,,,,,,,,
193,6831264,1745475430300,0.0,133.0,,-0.17,-0.45,0.93,-39.0,0.0,3.0,1.04,1.32,79.0,9111.0,5.4,1.72,,6.28,1.029,88.0,,46.2,5.0,,,,,,,,,,,,0,0,0,0,0,0,0,0,0,0,0,0,0,0,0,0,,,,,,0.0,,,,,,,
194,6831284,1745475430320,,,,,,,,,,,,,,,,,,,,,,,28.0,30.0,27.0,31.0,0.0,35.0,0.0,0.0,2.27,,,0,0,0,0,0,0,0,0,0,0,0,0,0,0,0,0,,0.0,,,,,38.994099,-76.939506,44.37,26.2,33.0,3.0,0.8
195,6831304,1745475430340,0.0,133.0,,-0.2,-0.55,0.87,-43.0,0.0,3.0,1.05,1.32,80.0,9010.0,5.3,1.72,,6.18,1.073,88.0,,46.8,5.0,,,,,,,,,,,,0,0,0,0,0,0,0,0,0,0,0,0,0,0,0,0,,,,,,0.0,,,,,,,
196,6831324,1745475430360,,,,,,,,,,,,,,,,,,,,,,,,,,,,,,,,,,0,0,0,0,0,0,0,0,0,0,0,0,0,0,0,0,,,,,,,,,,,,,
197,6831344,1745475430380,0.0,134.0,,-0.25,-0.6,0.83,-46.0,-1.0,3.0,1.06,1.32,80.0,8925.0,5.5,1.72,,6.18,1.111,86.2,,46.8,5.0,,,,,,,,,,,,0,0,0,0,0,0,0,0,0,0,0,0,0,0,0,0,,,,,,0.0,,,,,,,
198,6831364,1745475430400,,,,,,,,,,,,,,,,,,,,,,,,,,,,,,,,,,0,0,0,0,0,0,0,0,0,0,0,0,0,0,0,0,,,,,,,,,,,,,
199,6831384,1745475430420,0.0,133.0,12.81,-0.34,-0.39,0.91,-48.0,-1.0,2.0,1.05,1.32,79.0,8917.0,5.9,1.75,15.0,6.26,1.131,86.2,182.0,46.8,5.0,26.0,30.0,27.0,30.0,0.0,254.0,0.0,0.0,2.26,0.0,1.0,0,0,0,0,0,0,0,0,0,0,0,0,0,0,0,0,0.0,0.0,1.0,0.0,0.0,0.0,38.994095,-76.939499,42.99,26.1,33.0,3.0,0.8
200,6831404,1745475430440,,,,,,,,,,,,,,,,,,,,,,,,,,,,,,,,,,0,0,0,0,0,0,0,0,0,0,0,0,0,0,0,0,,,,,,,,,,,,,
201,6831424,1745475430460,0.0,133.0,,-0.36,-0.33,0.99,-50.0,-1.0,1.0,1.11,1.32,84.0,8868.0,10.8,2.05,,6.26,1.131,86.2,,45.7,5.0,,,,,,,,,,,,0,0,0,0,0,0,0,0,0,0,0,0,0,0,0,0,,,,,,0.0,,,,,,,
202,6831444,1745475430480,,,,,,,,,,,,,,,,,,,,,,,,,,,,,,,,,,0,0,0,0,0,0,0,0,0,0,0,0,0,0,0,0,,,,,,,,,,,,,
203,6831464,1745475430500,0.0,133.0,,-0.35,-0.43,1.02,-49.0,-1.0,2.0,1.17,1.32,89.0,8868.0,10.8,2.05,,6.68,1.136,86.2,,45.7,5.0,,,,,,,,,,,,0,0,0,0,0,0,0,0,0,0,0,0,0,0,0,0,,,,,,0.0,,,,,,,
204,6831484,1745475430520,,,,,,,,,,,,,,,,,,,,,,,27.0,72.0,24.0,28.0,0.0,160.0,0.0,0.0,2.27,,,0,0,0,0,0,0,0,0,0,0,0,0,0,0,0,0,,0.0,,,,,38.994095,-76.939484,43.16,26.1,33.0,3.0,0.8
205,6831504,1745475430540,0.0,133.0,,-0.37,-0.58,1.07,-48.0,0.0,1.0,1.27,1.32,96.0,8930.0,11.8,2.29,,7.18,1.185,86.2,,46.5,5.0,,,,,,,,,,,,0,0,0,0,0,0,0,0,0,0,0,0,0,0,0,0,,,,,,0.0,,,,,,,
206,6831524,1745475430560,,,,,,,,,,,,,,,,,,,,,,,,,,,,,,,,,,0,0,0,0,0,0,0,0,0,0,0,0,0,0,0,0,,,,,,,,,,,,,
207,6831544,1745475430580,0.0,133.0,,-0.38,-0.84,1.11,-48.0,0.0,1.0,1.45,1.45,100.0,9014.0,11.9,2.34,,7.41,1.174,86.2,,46.5,5.0,,,,,,,,,,,,0,0,0,0,0,0,0,0,0,0,0,0,0,0,0,0,,,,,,0.0,,,,,,,
208,6831564,1745475430600,,,,,,,,,,,,,,,,,,,,,,,,,,,,,,,,,,0,0,0,0,0,0,0,0,0,0,0,0,0,0,0,0,,,,,,,,,,,,,
209,6831584,1745475430620,0.0,133.0,,-0.4,-0.8,1.09,-49.0,0.0,1.0,1.41,1.45,98.0,9137.0,11.8,2.36,,7.51,1.122,86.2,,46.5,5.0,25.0,28.0,25.0,27.0,0.0,217.0,0.0,0.0,2.27,,,0,0,0,0,0,0,0,0,0,0,0,0,0,0,0,0,,1.0,,,,0.0,38.994091,-76.939468,41.3,26.1,33.0,3.0,0.8
210,6831604,1745475430640,,,,,,,,,,,,,,,,,,,,,,,,,,,,,,,,,,0,0,0,0,0,0,0,0,0,0,0,0,0,0,0,0,,,,,,,,,,,,,
211,6831624,1745475430660,0.0,133.0,,-0.45,-0.68,1.06,-51.0,0.0,2.0,1.33,1.45,92.0,9255.0,11.7,2.35,,7.51,1.122,86.2,,48.0,5.0,,,,,,,,,,,,0,0,0,0,0,0,0,0,0,0,0,0,0,0,0,0,,,,,,0.0,,,,,,,
212,6831644,1745475430680,,,,,,,,,,,,,,,,,,,,,,,,,,,,,,,,,,0,0,0,0,0,0,0,0,0,0,0,0,0,0,0,0,,,,,,,,,,,,,
213,6831664,1745475430701,0.0,132.0,,-0.47,-0.89,1.02,-53.0,0.0,2.0,1.43,1.45,99.0,9255.0,11.7,2.35,,7.58,1.099,86.2,,48.0,5.0,,,,,,,,,,,,0,0,0,0,0,0,0,0,0,0,0,0,0,0,0,0,,,,,,0.0,,,,,,,
214,6831684,1745475430721,,,,,,,,,,,,,,,,,,,,,,,23.0,28.0,25.0,28.0,0.0,42.0,0.0,0.0,2.27,,,0,0,0,0,0,0,0,0,0,0,0,0,0,0,0,0,,1.0,,,,,38.994083,-76.939453,41.13,26.1,33.0,3.0,0.8
215,6831704,1745475430741,0.0,132.0,,-0.44,-1.1,1.06,-56.0,1.0,1.0,1.59,1.59,100.0,9172.0,11.4,2.32,,7.46,1.102,86.2,,46.3,5.0,,,,,,,,,,,,0,0,0,0,0,0,0,0,0,0,0,0,0,0,0,0,,,,,,0.0,,,,,,,
216,6831724,1745475430761,,,,,,,,,,,,,,,,,,,,,,,,,,,,,,,,,,0,0,0,0,0,0,0,0,0,0,0,0,0,0,0,0,,,,,,,,,,,,,
217,6831744,1745475430781,0.0,131.0,,-0.44,-1.28,1.0,-55.0,1.0,0.0,1.68,1.68,100.0,8978.0,11.3,2.34,,7.5,1.105,86.2,,46.3,5.0,,,,,,,,,,,,0,0,0,0,0,0,0,0,0,0,0,0,0,0,0,0,,,,,,0.0,,,,,,,
218,6831764,1745475430799,,,,,,,,,,,,,,,,,,,,,,,,,,,,,,,,,,0,0,0,0,0,0,0,0,0,0,0,0,0,0,0,0,,,,,,,,,,,,,
219,6831784,1745475430819,0.0,132.0,,-0.42,-1.48,0.95,-56.0,1.0,0.0,1.81,1.81,100.0,8844.0,11.5,2.37,,7.67,1.107,86.2,,46.3,5.0,24.0,29.0,27.0,28.0,0.0,244.0,0.0,0.0,2.27,,,0,0,0,0,0,0,0,0,0,0,0,0,0,0,0,0,,0.0,,,,0.0,38.994076,-76.939453,40.64,26.0,33.0,3.0,0.8
220,6831804,1745475430839,,,,,,,,,,,,,,,,,,,,,,,,,,,,,,,,,,0,0,0,0,0,0,0,0,0,0,0,0,0,0,0,0,,,,,,,,,,,,,
221,6831824,1745475430859,0.0,132.0,,-0.44,-1.39,0.92,-57.0,1.0,0.0,1.73,1.81,96.0,8687.0,13.3,2.52,,7.67,1.107,86.2,,45.6,5.0,,,,,,,,,,,,0,0,0,0,0,0,0,0,0,0,0,0,0,0,0,0,,,,,,0.0,,,,,,,
222,6831844,1745475430879,,,,,,,,,,,,,,,,,,,,,,,,,,,,,,,,,,0,0,0,0,0,0,0,0,0,0,0,0,0,0,0,0,,,,,,,,,,,,,
223,6831864,1745475430899,0.0,132.0,,-0.46,-1.45,0.97,-58.0,1.0,0.0,1.8,1.81,100.0,8687.0,13.3,2.52,,8.05,1.091,86.2,,45.6,5.0,,,,,,,,,,,,0,0,0,0,0,0,0,0,0,0,0,0,0,0,0,0,,,,,,0.0,,,,,,,
224,6831884,1745475430919,,,,,,,,,,,,,,,,,,,,,,,24.0,28.0,26.0,27.0,0.0,200.0,0.0,0.0,2.27,,,0,0,0,0,0,0,0,0,0,0,0,0,0,0,0,0,,0.0,,,,,38.994072,-76.939438,40.64,26.0,33.0,3.0,0.8
225,6831904,1745475430939,0.0,132.0,,-0.45,-1.45,0.9,-57.0,1.0,0.0,1.77,1.81,98.0,8678.0,15.6,2.75,,8.5,1.083,86.2,,44.6,5.0,,,,,,,,,,,,0,0,0,0,0,0,0,0,0,0,0,0,0,0,0,0,,,,,,0.0,,,,,,,
226,6831924,1745475430959,,,,,,,,,,,,,,,,,,,,,,,,,,,,,,,,,,0,0,0,0,0,0,0,0,0,0,0,0,0,0,0,0,,,,,,,,,,,,,
227,6831944,1745475430979,0.0,132.0,,-0.43,-1.28,0.97,-56.0,1.0,0.0,1.66,1.81,92.0,8731.0,16.1,2.88,,8.59,1.083,86.2,,44.6,5.0,,,,,,,,,,,,0,0,0,0,0,0,0,0,0,0,0,0,0,0,0,0,,,,,,0.0,,,,,,,
228,6831964,1745475430991,,,,,,,,,,,,,,,,,,,,,,,,,,,,,,,,,,0,0,0,0,0,0,0,0,0,0,0,0,0,0,0,0,,,,,,,,,,,,,
229,6831984,1745475431011,0.0,131.0,,-0.43,-1.35,1.01,-56.0,1.0,-1.0,1.74,1.74,100.0,8811.0,16.2,2.88,,8.78,1.078,86.2,,44.6,5.0,23.0,28.0,25.0,29.0,0.0,10.0,0.0,0.0,2.26,,,0,0,0,0,0,0,0,0,0,0,0,0,0,0,0,0,,0.0,,,,0.0,38.99406,-76.93943,39.77,26.0,33.0,3.0,0.8
230,6832004,1745475431031,,,,,,,,,,,,,,,,,,,,,,,,,,,,,,,,,,0,0,0,0,0,0,0,0,0,0,0,0,0,0,0,0,,,,,,,,,,,,,
231,6832024,1745475431051,0.0,131.0,,-0.44,-1.49,0.96,-57.0,1.0,0.0,1.83,1.83,100.0,8948.0,16.1,2.94,,8.78,1.078,86.2,,45.5,5.0,,,,,,,,,,,,0,0,0,0,0,0,0,0,0,0,0,0,0,0,0,0,,,,,,0.0,,,,,,,
232,6832044,1745475431071,,,,,,,,,,,,,,,,,,,,,,,,,,,,,,,,,,0,0,0,0,0,0,0,0,0,0,0,0,0,0,0,0,,,,,,,,,,,,,
233,6832064,1745475431099,0.0,131.0,,-0.44,-1.71,0.87,-59.0,1.0,0.0,1.96,1.96,100.0,8948.0,16.1,2.94,,8.87,1.073,86.2,,45.5,5.0,,,,,,,,,,,,0,0,0,0,0,0,0,0,0,0,0,0,0,0,0,0,,,,,,0.0,,,,,,,
234,6832084,1745475431119,,,,,,,,,,,,,,,,,,,,,,,24.0,28.0,27.0,28.0,0.0,67.0,0.0,0.0,2.27,,,0,0,0,0,0,0,0,0,0,0,0,0,0,0,0,0,,1.0,,,,,38.994057,-76.939423,40.21,26.0,33.0,3.0,0.8
235,6832104,1745475431139,0.0,131.0,,-0.46,-1.79,0.91,-60.0,1.0,-1.0,2.06,2.06,100.0,9087.0,13.7,2.88,,8.61,1.063,86.2,,46.3,5.0,,,,,,,,,,,,0,0,0,0,0,0,0,0,0,0,0,0,0,0,0,0,,,,,,0.0,,,,,,,
236,6832124,1745475431159,,,,,,,,,,,,,,,,,,,,,,,,,,,,,,,,,,0,0,0,0,0,0,0,0,0,0,0,0,0,0,0,0,,,,,,,,,,,,,
237,6832144,1745475431179,0.0,131.0,,-0.41,-1.78,0.92,-60.0,2.0,-1.0,2.04,2.06,99.0,9157.0,10.9,2.55,,8.14,1.063,86.2,,46.3,5.0,,,,,,,,,,,,0,0,0,0,0,0,0,0,0,0,0,0,0,0,0,0,,,,,,0.0,,,,,,,
238,6832164,1745475431197,,,,,,,,,,,,,,,,,,,,,,,,,,,,,,,,,,0,0,0,0,0,0,0,0,0,0,0,0,0,0,0,0,,,,,,,,,,,,,
239,6832184,1745475431217,0.0,131.0,,-0.38,-1.64,1.0,-59.0,2.0,-1.0,1.96,2.06,95.0,8951.0,10.0,2.44,,7.83,1.063,86.2,,46.3,5.0,22.0,25.0,28.0,26.0,0.0,52.0,0.0,0.0,2.27,,,0,0,0,0,0,0,0,0,0,0,0,0,0,0,0,0,,1.0,,,,0.0,38.994045,-76.939415,38.03,25.9,33.0,3.0,0.8
240,6832204,1745475431237,,,,,,,,,,,,,,,,,,,,,,,,,,,,,,,,,,0,0,0,0,0,0,0,0,0,0,0,0,0,0,0,0,,,,,,,,,,,,,
241,6832224,1745475431257,0.0,131.0,,-0.37,-1.56,1.01,-56.0,1.0,-1.0,1.89,2.06,92.0,8577.0,8.9,2.41,,7.83,1.063,86.2,,44.5,5.0,,,,,,,,,,,,0,0,0,0,0,0,0,0,0,0,0,0,0,0,0,0,,,,,,0.0,,,,,,,
242,6832244,1745475431277,,,,,,,,,,,,,,,,,,,,,,,,,,,,,,,,,,0,0,0,0,0,0,0,0,0,0,0,0,0,0,0,0,,,,,,,,,,,,,
243,6832264,1745475431299,0.0,131.0,,-0.42,-1.52,0.92,-54.0,0.0,0.0,1.83,2.06,89.0,8577.0,8.9,2.41,,7.7,1.06,86.2,,44.5,5.0,,,,,,,,,,,,0,0,0,0,0,0,0,0,0,0,0,0,0,0,0,0,,,,,,0.0,,,,,,,
244,6832284,1745475431319,,,,,,,,,,,,,,,,,,,,,,,22.0,27.0,29.0,26.0,0.0,16.0,0.0,0.0,2.27,,,0,0,0,0,0,0,0,0,0,0,0,0,0,0,0,0,,1.0,,,,,38.994034,-76.939415,39.27,25.9,33.0,3.0,0.8
245,6832304,1745475431339,0.0,132.0,,-0.44,-1.45,1.04,-53.0,0.0,0.0,1.84,2.06,90.0,8434.0,10.0,2.51,,7.79,1.056,86.2,,43.5,5.0,,,,,,,,,,,,0,0,0,0,0,0,0,0,0,0,0,0,0,0,0,0,,,,,,0.0,,,,,,,
246,6832324,1745475431359,,,,,,,,,,,,,,,,,,,,,,,,,,,,,,,,,,0,0,0,0,0,0,0,0,0,0,0,0,0,0,0,0,,,,,,,,,,,,,
247,6832344,1745475431379,0.0,132.0,,-0.46,-1.4,0.99,-55.0,1.0,0.0,1.78,2.06,86.0,8463.0,16.6,2.86,,8.51,1.044,86.2,,43.5,5.0,,,,,,,,,,,,0,0,0,0,0,0,0,0,0,0,0,0,0,0,0,0,,,,,,0.0,,,,,,,
248,6832364,1745475431399,,,,,,,,,,,,,,,,,,,,,,,,,,,,,,,,,,0,0,0,0,0,0,0,0,0,0,0,0,0,0,0,0,,,,,,,,,,,,,
249,6832384,1745475431419,0.0,131.0,12.88,-0.43,-1.23,1.11,-56.0,2.0,0.0,1.71,2.06,83.0,8637.0,19.7,3.36,15.0,9.26,1.048,86.2,182.0,43.5,5.0,23.0,26.0,26.0,26.0,0.0,237.0,0.0,0.0,2.27,0.0,1.0,0,0,0,0,0,0,0,0,0,0,0,0,0,0,0,0,0.0,1.0,1.0,0.0,0.0,0.0,38.994026,-76.939415,39.07,25.9,33.0,3.0,0.8
250,6832404,1745475431439,,,,,,,,,,,,,,,,,,,,,,,,,,,,,,,,,,0,0,0,0,0,0,0,0,0,0,0,0,0,0,0,0,,,,,,,,,,,,,
251,6832424,1745475431459,0.0,131.0,,-0.43,-1.37,1.05,-55.0,1.0,0.0,1.78,2.06,86.0,8835.0,14.5,3.18,,9.26,1.048,86.2,,45.0,5.0,,,,,,,,,,,,0,0,0,0,0,0,0,0,0,0,0,0,0,0,0,0,,,,,,0.0,,,,,,,
252,6832444,1745475431479,,,,,,,,,,,,,,,,,,,,,,,,,,,,,,,,,,0,0,0,0,0,0,0,0,0,0,0,0,0,0,0,0,,,,,,,,,,,,,
253,6832464,1745475431501,0.0,131.0,,-0.43,-1.27,1.01,-55.0,0.0,0.0,1.68,2.06,82.0,8835.0,14.5,3.18,,9.19,1.056,86.2,,45.0,5.0,,,,,,,,,,,,0,0,0,0,0,0,0,0,0,0,0,0,0,0,0,0,,,,,,0.0,,,,,,,
254,6832484,1745475431521,,,,,,,,,,,,,,,,,,,,,,,21.0,26.0,24.0,26.0,0.0,155.0,0.0,0.0,2.27,,,0,0,0,0,0,0,0,0,0,0,0,0,0,0,0,0,,1.0,,,,,38.994019,-76.939407,37.32,25.9,33.0,3.0,0.8
255,6832504,1745475431541,0.0,131.0,,-0.44,-1.1,1.05,-55.0,0.0,0.0,1.58,2.06,77.0,8707.0,3.4,2.42,,8.11,1.027,86.2,,45.5,5.0,,,,,,,,,,,,0,0,0,0,0,0,0,0,0,0,0,0,0,0,0,0,,,,,,0.0,,,,,,,
256,6832524,1745475431561,,,,,,,,,,,,,,,,,,,,,,,,,,,,,,,,,,0,0,0,0,0,0,0,0,0,0,0,0,0,0,0,0,,,,,,,,,,,,,
257,6832544,1745475431581,0.0,131.0,,-0.46,-1.07,1.03,-54.0,0.0,0.0,1.56,2.06,76.0,8359.0,0.0,1.4,,7.02,1.0,86.2,,45.5,5.0,,,,,,,,,,,,0,0,0,0,0,0,0,0,0,0,0,0,0,0,0,0,,,,,,0.0,,,,,,,
258,6832564,1745475431601,,,,,,,,,,,,,,,,,,,,,,,,,,,,,,,,,,0,0,0,0,0,0,0,0,0,0,0,0,0,0,0,0,,,,,,,,,,,,,
259,6832584,1745475431621,0.0,131.0,,-0.45,-1.23,1.02,-54.0,0.0,0.0,1.66,2.06,81.0,7651.0,0.0,1.4,,6.67,1.0,86.2,,45.5,5.0,21.0,23.0,26.0,25.0,0.0,140.0,0.0,0.0,2.27,,,0,0,0,0,0,0,0,0,0,0,0,0,0,0,0,0,,0.0,,,,0.0,38.994011,-76.939407,38.09,25.9,33.0,3.0,0.8
260,6832604,1745475431641,,,,,,,,,,,,,,,,,,,,,,,,,,,,,,,,,,0,0,0,0,0,0,0,0,0,0,0,0,0,0,0,0,,,,,,,,,,,,,
261,6832624,1745475431661,0.0,131.0,,-0.53,-1.22,0.98,-55.0,-1.0,1.0,1.66,2.06,81.0,7171.0,0.0,1.4,,6.67,1.0,86.2,,43.3,5.0,,,,,,,,,,,,0,0,0,0,0,0,0,0,0,0,0,0,0,0,0,0,,,,,,0.0,,,,,,,
262,6832644,1745475431681,,,,,,,,,,,,,,,,,,,,,,,,,,,,,,,,,,0,0,0,0,0,0,0,0,0,0,0,0,0,0,0,0,,,,,,,,,,,,,
263,6832664,1745475431700,0.0,131.0,,-0.57,-1.23,0.98,-54.0,-1.0,0.0,1.67,2.06,81.0,7171.0,0.0,1.4,,6.56,1.157,86.2,,43.3,5.0,,,,,,,,,,,,0,0,0,0,0,0,0,0,0,0,0,0,0,0,0,0,,,,,,0.0,,,,,,,
264,6832684,1745475431720,,,,,,,,,,,,,,,,,,,,,,,21.0,25.0,23.0,24.0,0.0,22.0,0.0,0.0,2.27,,,0,0,0,0,0,0,0,0,0,0,0,0,0,0,0,0,,0.0,,,,,38.994,-76.939407,37.04,25.9,33.0,3.0,0.8
265,6832704,1745475431740,0.0,131.0,,-0.6,-1.27,0.96,-55.0,-1.0,0.0,1.7,2.06,83.0,6831.0,0.0,1.4,,6.6,1.251,86.2,,44.3,5.0,,,,,,,,,,,,0,0,0,0,0,0,0,0,0,0,0,0,0,0,0,0,,,,,,0.0,,,,,,,
266,6832724,1745475431760,,,,,,,,,,,,,,,,,,,,,,,,,,,,,,,,,,0,0,0,0,0,0,0,0,0,0,0,0,0,0,0,0,,,,,,,,,,,,,
267,6832744,1745475431780,0.0,131.0,,-0.66,-1.19,0.93,-55.0,-1.0,0.0,1.65,2.06,80.0,6734.0,0.0,1.4,,6.82,1.251,86.2,,44.3,5.0,,,,,,,,,,,,0,0,0,0,0,0,0,0,0,0,0,0,0,0,0,0,,,,,,0.0,,,,,,,
268,6832764,1745475431798,,,,,,,,,,,,,,,,,,,,,,,,,,,,,,,,,,0,0,0,0,0,0,0,0,0,0,0,0,0,0,0,0,,,,,,,,,,,,,
269,6832784,1745475431818,0.0,131.0,,-0.7,-1.17,0.99,-57.0,-1.0,0.0,1.69,2.06,82.0,6621.0,0.0,1.4,,6.94,1.252,86.2,,44.3,5.0,20.0,23.0,16.0,24.0,0.0,45.0,0.0,0.0,2.27,,,0,0,0,0,0,0,0,0,0,0,0,0,0,0,0,0,,0.0,,,,0.0,38.993992,-76.939407,35.04,25.9,33.0,3.0,0.8
270,6832804,1745475431838,,,,,,,,,,,,,,,,,,,,,,,,,,,,,,,,,,0,0,0,0,0,0,0,0,0,0,0,0,0,0,0,0,,,,,,,,,,,,,
271,6832824,1745475431858,0.0,130.0,,-0.7,-1.22,0.91,-58.0,-1.0,-1.0,1.67,2.06,81.0,6460.0,0.0,1.4,,6.94,1.252,86.2,,44.8,5.0,,,,,,,,,,,,0,0,0,0,0,0,0,0,0,0,0,0,0,0,0,0,,,,,,0.0,,,,,,,
272,6832844,1745475431878,,,,,,,,,,,,,,,,,,,,,,,,,,,,,,,,,,0,0,0,0,0,0,0,0,0,0,0,0,0,0,0,0,,,,,,,,,,,,,
273,6832864,1745475431900,0.0,131.0,,-0.76,-1.16,0.95,-60.0,-1.0,-1.0,1.68,2.06,82.0,6460.0,0.0,1.4,,7.14,1.255,86.2,,44.8,5.0,,,,,,,,,,,,0,0,0,0,0,0,0,0,0,0,0,0,0,0,0,0,,,,,,0.0,,,,,,,
274,6832884,1745475431920,,,,,,,,,,,,,,,,,,,,,,,18.0,21.0,17.0,22.0,0.0,40.0,0.0,0.0,2.27,,,0,0,0,0,0,0,0,0,0,0,0,0,0,0,0,0,,0.0,,,,,38.99398,-76.939415,32.72,25.9,33.0,3.0,0.8
275,6832904,1745475431940,0.0,131.0,,-0.79,-1.11,0.91,-62.0,-1.0,0.0,1.64,1.64,100.0,6268.0,0.0,1.4,,7.38,1.253,86.2,,44.7,5.0,,,,,,,,,,,,0,0,0,0,0,0,0,0,0,0,0,0,0,0,0,0,,,,,,0.0,,,,,,,
276,6832924,1745475431960,,,,,,,,,,,,,,,,,,,,,,,,,,,,,,,,,,0,0,0,0,0,0,0,0,0,0,0,0,0,0,0,0,,,,,,,,,,,,,
277,6832944,1745475431980,0.0,130.0,,-0.76,-1.19,0.87,-64.0,-1.0,-1.0,1.66,1.66,100.0,6099.0,3.5,1.96,,7.78,1.252,86.2,,44.7,5.0,,,,,,,,,,,,0,0,0,0,0,0,0,0,0,0,0,0,0,0,0,0,,,,,,0.0,,,,,,,
278,6832964,1745475432000,,,,,,,,,,,,,,,,,,,,,,,,,,,,,,,,,,0,0,0,0,0,0,0,0,0,0,0,0,0,0,0,0,,,,,,,,,,,,,
279,6832984,1745475432010,0.0,129.0,,-0.74,-1.38,0.77,-66.0,-1.0,-1.0,1.74,1.74,100.0,5969.0,8.0,2.42,,8.62,1.251,86.2,,44.7,5.0,18.0,20.0,16.0,21.0,0.0,234.0,0.0,0.0,2.27,,,0,0,0,0,0,0,0,0,0,0,0,0,0,0,0,0,,0.0,,,,0.0,38.993977,-76.939415,30.26,25.9,32.0,3.0,0.8
280,6833004,1745475432030,,,,,,,,,,,,,,,,,,,,,,,,,,,,,,,,,,0,0,0,0,0,0,0,0,0,0,0,0,0,0,0,0,,,,,,,,,,,,,
281,6833024,1745475432050,0.0,130.0,,-0.75,-1.5,0.71,-69.0,-1.0,-1.0,1.82,1.82,100.0,5898.0,11.5,2.77,,8.62,1.251,86.2,,43.9,5.0,,,,,,,,,,,,0,0,0,0,0,0,0,0,0,0,0,0,0,0,0,0,,,,,,0.0,,,,,,,
282,6833044,1745475432070,,,,,,,,,,,,,,,,,,,,,,,,,,,,,,,,,,0,0,0,0,0,0,0,0,0,0,0,0,0,0,0,0,,,,,,,,,,,,,
283,6833064,1745475432094,0.0,131.0,,-0.78,-1.42,0.76,-71.0,-1.0,-1.0,1.79,1.82,98.0,5898.0,11.5,2.77,,9.66,1.251,86.2,,43.9,5.0,,,,,,,,,,,,0,0,0,0,0,0,0,0,0,0,0,0,0,0,0,0,,,,,,0.0,,,,,,,
284,6833084,1745475432114,,,,,,,,,,,,,,,,,,,,,,,16.0,21.0,15.0,20.0,0.0,57.0,0.0,0.0,2.27,,,0,0,0,0,0,0,0,0,0,0,0,0,0,0,0,0,,0.0,,,,,38.993969,-76.939415,28.9,25.9,32.0,3.0,0.8
285,6833104,1745475432134,0.0,131.0,,-0.79,-1.32,0.87,-72.0,0.0,-1.0,1.76,1.82,97.0,5801.0,15.8,3.1,,10.82,1.251,86.2,,42.7,5.0,,,,,,,,,,,,0,0,0,0,0,0,0,0,0,0,0,0,0,0,0,0,,,,,,0.0,,,,,,,
286,6833124,1745475432154,,,,,,,,,,,,,,,,,,,,,,,,,,,,,,,,,,0,0,0,0,0,0,0,0,0,0,0,0,0,0,0,0,,,,,,,,,,,,,
287,6833144,1745475432174,0.0,131.0,,-0.7,-1.33,0.78,-72.0,0.0,-1.0,1.7,1.82,93.0,5774.0,20.7,4.08,,11.93,1.251,86.2,,42.7,5.0,,,,,,,,,,,,0,0,0,0,0,0,0,0,0,0,0,0,0,0,0,0,,,,,,0.0,,,,,,,
288,6833164,1745475432200,,,,,,,,,,,,,,,,,,,,,,,,,,,,,,,,,,0,0,0,0,0,0,0,0,0,0,0,0,0,0,0,0,,,,,,,,,,,,,
289,6833184,1745475432220,0.0,132.0,,-0.57,-1.28,0.71,-71.0,1.0,-2.0,1.57,1.82,86.0,6052.0,23.6,4.26,,12.31,1.251,86.2,,42.7,5.0,16.0,21.0,15.0,20.0,0.0,0.0,0.0,0.0,2.27,,,0,0,0,0,0,0,0,0,0,0,0,0,0,0,0,0,,0.0,,,,0.0,38.993961,-76.939423,27.15,25.9,32.0,3.0,0.8
290,6833204,1745475432240,,,,,,,,,,,,,,,,,,,,,,,,,,,,,,,,,,0,0,0,0,0,0,0,0,0,0,0,0,0,0,0,0,,,,,,,,,,,,,
291,6833224,1745475432260,0.0,133.0,,-0.5,-1.15,0.77,-67.0,2.0,-2.0,1.47,1.82,81.0,6290.0,28.3,5.05,,12.31,1.251,86.2,,43.5,5.0,,,,,,,,,,,,0,0,0,0,0,0,0,0,0,0,0,0,0,0,0,0,,,,,,0.0,,,,,,,
292,6833244,1745475432280,,,,,,,,,,,,,,,,,,,,,,,,,,,,,,,,,,0,0,0,0,0,0,0,0,0,0,0,0,0,0,0,0,,,,,,,,,,,,,
293,6833264,1745475432300,0.0,133.0,,-0.42,-1.06,0.79,-63.0,2.0,-2.0,1.39,1.82,76.0,6290.0,28.3,5.05,,12.75,1.205,86.2,,43.5,5.0,,,,,,,,,,,,0,0,0,0,0,0,0,0,0,0,0,0,0,0,0,0,,,,,,0.0,,,,,,,
294,6833284,1745475432320,,,,,,,,,,,,,,,,,,,,,,,17.0,20.0,16.0,18.0,0.0,201.0,0.0,0.0,2.27,,,0,0,0,0,0,0,0,0,0,0,0,0,0,0,0,0,,0.0,,,,,38.993958,-76.93943,26.39,25.8,32.0,3.0,0.8
295,6833304,1745475432340,0.0,133.0,,-0.28,-0.93,0.83,-58.0,3.0,-2.0,1.28,1.82,70.0,6616.0,31.7,5.08,,13.03,1.179,86.2,,43.7,5.0,,,,,,,,,,,,0,0,0,0,0,0,0,0,0,0,0,0,0,0,0,0,,,,,,0.0,,,,,,,
296,6833324,1745475432360,,,,,,,,,,,,,,,,,,,,,,,,,,,,,,,,,,0,0,0,0,0,0,0,0,0,0,0,0,0,0,0,0,,,,,,,,,,,,,
297,6833344,1745475432380,0.0,133.0,,-0.19,-0.76,0.92,-52.0,3.0,-1.0,1.21,1.82,66.0,6419.0,34.2,5.13,,13.19,1.181,86.2,,43.7,5.0,,,,,,,,,,,,0,0,0,0,0,0,0,0,0,0,0,0,0,0,0,0,,,,,,0.0,,,,,,,
298,6833364,1745475432400,,,,,,,,,,,,,,,,,,,,,,,,,,,,,,,,,,0,0,0,0,0,0,0,0,0,0,0,0,0,0,0,0,,,,,,,,,,,,,
299,6833384,1745475432420,0.0,133.0,12.92,-0.19,-0.71,0.92,-48.0,2.0,-1.0,1.18,1.82,65.0,6210.0,35.0,5.13,15.0,13.33,1.098,86.2,180.0,43.7,5.0,18.0,20.0,20.0,19.0,0.0,232.0,0.0,0.0,2.27,0.0,1.0,0,0,0,0,0,0,0,0,0,0,0,0,0,0,0,0,0.0,1.0,1.0,0.0,0.0,0.0,38.993954,-76.939438,28.01,25.8,32.0,3.0,0.8
300,6833404,1745475432440,,,,,,,,,,,,,,,,,,,,,,,,,,,,,,,,,,0,0,0,0,0,0,0,0,0,0,0,0,0,0,0,0,,,,,,,,,,,,,
301,6833424,1745475432460,0.0,132.0,,-0.15,-0.75,0.96,-47.0,1.0,0.0,1.23,1.82,67.0,6568.0,35.0,5.16,,13.33,1.098,86.2,,43.6,5.0,,,,,,,,,,,,0,0,0,0,0,0,0,0,0,0,0,0,0,0,0,0,,,,,,0.0,,,,,,,
302,6833444,1745475432480,,,,,,,,,,,,,,,,,,,,,,,,,,,,,,,,,,0,0,0,0,0,0,0,0,0,0,0,0,0,0,0,0,,,,,,,,,,,,,
303,6833464,1745475432500,0.0,132.0,,-0.13,-0.79,0.93,-45.0,1.0,0.0,1.23,1.82,67.0,6568.0,35.0,5.16,,13.33,1.055,86.2,,43.6,5.0,,,,,,,,,,,,0,0,0,0,0,0,0,0,0,0,0,0,0,0,0,0,,,,,,0.0,,,,,,,
304,6833484,1745475432520,,,,,,,,,,,,,,,,,,,,,,,18.0,20.0,19.0,19.0,0.0,62.0,0.0,0.0,2.28,,,0,0,0,0,0,0,0,0,0,0,0,0,0,0,0,0,,1.0,,,,,38.99395,-76.939446,30.99,25.8,32.0,3.0,0.8
305,6833504,1745475432540,0.0,132.0,,-0.13,-0.68,1.0,-47.0,1.0,1.0,1.22,1.82,67.0,7047.0,35.1,5.22,,13.12,1.016,86.2,,45.0,5.0,,,,,,,,,,,,0,0,0,0,0,0,0,0,0,0,0,0,0,0,0,0,,,,,,0.0,,,,,,,
306,6833524,1745475432560,,,,,,,,,,,,,,,,,,,,,,,,,,,,,,,,,,0,0,0,0,0,0,0,0,0,0,0,0,0,0,0,0,,,,,,,,,,,,,
307,6833544,1745475432580,0.0,133.0,,-0.07,-0.52,0.98,-47.0,1.0,1.0,1.11,1.82,61.0,7502.0,35.1,4.99,,12.88,0.993,86.2,,45.0,5.0,,,,,,,,,,,,0,0,0,0,0,0,0,0,0,0,0,0,0,0,0,0,,,,,,0.0,,,,,,,
308,6833564,1745475432600,,,,,,,,,,,,,,,,,,,,,,,,,,,,,,,,,,0,0,0,0,0,0,0,0,0,0,0,0,0,0,0,0,,,,,,,,,,,,,
309,6833584,1745475432620,0.0,133.0,,-0.06,-0.57,0.96,-49.0,1.0,1.0,1.12,1.82,61.0,7641.0,32.3,4.89,,12.67,0.936,86.2,,45.0,5.0,19.0,20.0,23.0,21.0,0.0,63.0,0.0,0.0,2.28,,,0,0,0,0,0,0,0,0,0,0,0,0,0,0,0,0,,0.0,,,,0.0,38.993946,-76.939453,31.02,25.8,32.0,3.0,0.8
310,6833604,1745475432640,,,,,,,,,,,,,,,,,,,,,,,,,,,,,,,,,,0,0,0,0,0,0,0,0,0,0,0,0,0,0,0,0,,,,,,,,,,,,,
311,6833624,1745475432660,0.0,132.0,,-0.02,-0.78,0.89,-50.0,1.0,0.0,1.18,1.82,65.0,7792.0,28.1,5.33,,12.67,0.936,86.2,,44.3,5.0,,,,,,,,,,,,0,0,0,0,0,0,0,0,0,0,0,0,0,0,0,0,,,,,,0.0,,,,,,,
312,6833644,1745475432680,,,,,,,,,,,,,,,,,,,,,,,,,,,,,,,,,,0,0,0,0,0,0,0,0,0,0,0,0,0,0,0,0,,,,,,,,,,,,,
313,6833664,1745475432699,0.0,133.0,,-0.04,-0.73,0.92,-51.0,2.0,1.0,1.17,1.82,64.0,7792.0,28.1,5.33,,12.39,0.914,86.2,,44.3,5.0,,,,,,,,,,,,0,0,0,0,0,0,0,0,0,0,0,0,0,0,0,0,,,,,,0.0,,,,,,,
314,6833684,1745475432719,,,,,,,,,,,,,,,,,,,,,,,19.0,23.0,23.0,25.0,0.0,167.0,0.0,0.0,2.29,,,0,0,0,0,0,0,0,0,0,0,0,0,0,0,0,0,,0.0,,,,,38.993938,-76.939461,33.58,25.8,32.0,3.0,0.8
315,6833704,1745475432739,0.0,132.0,,0.01,-0.7,0.91,-53.0,3.0,1.0,1.15,1.82,63.0,8018.0,28.4,5.24,,12.23,0.893,86.2,,45.7,5.0,,,,,,,,,,,,0,0,0,0,0,0,0,0,0,0,0,0,0,0,0,0,,,,,,0.0,,,,,,,
316,6833724,1745475432759,,,,,,,,,,,,,,,,,,,,,,,,,,,,,,,,,,0,0,0,0,0,0,0,0,0,0,0,0,0,0,0,0,,,,,,,,,,,,,
317,6833744,1745475432779,0.0,133.0,,0.08,-0.81,0.94,-54.0,3.0,1.0,1.24,1.82,68.0,8313.0,25.3,5.03,,11.73,0.86,86.2,,45.7,5.0,,,,,,,,,,,,0,0,0,0,0,0,0,0,0,0,0,0,0,0,0,0,,,,,,0.0,,,,,,,
318,6833764,1745475432799,,,,,,,,,,,,,,,,,,,,,,,,,,,,,,,,,,0,0,0,0,0,0,0,0,0,0,0,0,0,0,0,0,,,,,,,,,,,,,
319,6833784,1745475432819,0.0,132.0,,0.11,-0.86,0.96,-53.0,2.0,1.0,1.29,1.82,71.0,8361.0,17.2,5.16,,11.05,0.834,86.2,,45.7,5.0,20.0,33.0,25.0,24.0,0.0,213.0,0.0,0.0,2.28,,,0,0,0,0,0,0,0,0,0,0,0,0,0,0,0,0,,0.0,,,,0.0,38.993935,-76.939468,34.74,25.8,32.0,3.0,0.8
320,6833804,1745475432839,,,,,,,,,,,,,,,,,,,,,,,,,,,,,,,,,,0,0,0,0,0,0,0,0,0,0,0,0,0,0,0,0,,,,,,,,,,,,,
321,6833824,1745475432859,0.0,132.0,,0.1,-0.95,0.93,-53.0,1.0,1.0,1.33,1.82,73.0,8288.0,9.0,3.35,,11.05,0.834,86.2,,46.0,5.0,,,,,,,,,,,,0,0,0,0,0,0,0,0,0,0,0,0,0,0,0,0,,,,,,0.0,,,,,,,
322,6833844,1745475432879,,,,,,,,,,,,,,,,,,,,,,,,,,,,,,,,,,0,0,0,0,0,0,0,0,0,0,0,0,0,0,0,0,,,,,,,,,,,,,
323,6833864,1745475432899,0.0,132.0,,0.06,-0.92,0.92,-53.0,0.0,1.0,1.3,1.82,71.0,8288.0,9.0,3.35,,10.0,0.818,86.2,,46.0,5.0,,,,,,,,,,,,0,0,0,0,0,0,0,0,0,0,0,0,0,0,0,0,,,,,,0.0,,,,,,,
324,6833884,1745475432919,,,,,,,,,,,,,,,,,,,,,,,21.0,23.0,25.0,27.0,0.0,19.0,0.0,0.0,2.28,,,0,0,0,0,0,0,0,0,0,0,0,0,0,0,0,0,,0.0,,,,,38.993935,-76.939484,37.69,25.8,32.0,3.0,0.8
325,6833904,1745475432939,0.0,132.0,,0.06,-0.87,1.01,-53.0,0.0,0.0,1.33,1.82,73.0,8256.0,9.5,3.09,,9.38,0.784,86.2,,46.3,5.0,,,,,,,,,,,,0,0,0,0,0,0,0,0,0,0,0,0,0,0,0,0,,,,,,0.0,,,,,,,
326,6833924,1745475432959,,,,,,,,,,,,,,,,,,,,,,,,,,,,,,,,,,0,0,0,0,0,0,0,0,0,0,0,0,0,0,0,0,,,,,,,,,,,,,
327,6833944,1745475432979,0.0,133.0,,0.05,-0.86,0.99,-53.0,0.0,1.0,1.31,1.82,72.0,8537.0,9.9,2.92,,8.73,0.795,86.2,,46.3,5.0,,,,,,,,,,,,0,0,0,0,0,0,0,0,0,0,0,0,0,0,0,0,,,,,,0.0,,,,,,,
328,6833964,1745475432991,,,,,,,,,,,,,,,,,,,,,,,,,,,,,,,,,,0,0,0,0,0,0,0,0,0,0,0,0,0,0,0,0,,,,,,,,,,,,,
329,6833984,1745475433011,0.0,133.0,,0.01,-1.05,0.92,-52.0,0.0,2.0,1.4,1.82,77.0,8508.0,10.0,2.78,,8.31,0.833,86.2,,46.3,5.0,23.0,21.0,24.0,26.0,0.0,233.0,0.0,0.0,2.28,,,0,0,0,0,0,0,0,0,0,0,0,0,0,0,0,0,,1.0,,,,0.0,38.993931,-76.939499,38.41,25.8,32.0,3.0,0.8
330,6834004,1745475433031,,,,,,,,,,,,,,,,,,,,,,,,,,,,,,,,,,0,0,0,0,0,0,0,0,0,0,0,0,0,0,0,0,,,,,,,,,,,,,
331,6834024,1745475433051,0.0,132.0,,-0.03,-1.06,0.97,-53.0,-1.0,3.0,1.44,1.82,79.0,8468.0,9.4,2.67,,8.31,0.833,86.2,,45.1,5.0,,,,,,,,,,,,0,0,0,0,0,0,0,0,0,0,0,0,0,0,0,0,,,,,,0.0,,,,,,,
332,6834044,1745475433071,,,,,,,,,,,,,,,,,,,,,,,,,,,,,,,,,,0,0,0,0,0,0,0,0,0,0,0,0,0,0,0,0,,,,,,,,,,,,,
333,6834064,1745475433095,0.0,133.0,,-0.07,-0.94,1.01,-53.0,-1.0,2.0,1.38,1.38,100.0,8468.0,9.4,2.67,,8.09,0.865,86.2,,45.1,5.0,,,,,,,,,,,,0,0,0,0,0,0,0,0,0,0,0,0,0,0,0,0,,,,,,0.0,,,,,,,
334,6834084,1745475433115,,,,,,,,,,,,,,,,,,,,,,,22.0,26.0,25.0,25.0,0.0,50.0,0.0,0.0,2.28,,,0,0,0,0,0,0,0,0,0,0,0,0,0,0,0,0,,1.0,,,,,38.993931,-76.939506,38.03,25.9,32.0,3.0,0.8
335,6834104,1745475433135,0.0,132.0,,-0.07,-0.92,1.02,-55.0,-1.0,2.0,1.37,1.38,99.0,8632.0,9.1,2.55,,7.82,0.898,86.2,,45.5,5.0,,,,,,,,,,,,0,0,0,0,0,0,0,0,0,0,0,0,0,0,0,0,,,,,,0.0,,,,,,,
336,6834124,1745475433155,,,,,,,,,,,,,,,,,,,,,,,,,,,,,,,,,,0,0,0,0,0,0,0,0,0,0,0,0,0,0,0,0,,,,,,,,,,,,,
337,6834144,1745475433175,0.0,132.0,,-0.12,-1.05,0.95,-57.0,0.0,3.0,1.42,1.42,100.0,8663.0,9.8,2.45,,7.83,0.913,86.2,,45.5,5.0,,,,,,,,,,,,0,0,0,0,0,0,0,0,0,0,0,0,0,0,0,0,,,,,,0.0,,,,,,,
338,6834164,1745475433199,,,,,,,,,,,,,,,,,,,,,,,,,,,,,,,,,,0,0,0,0,0,0,0,0,0,0,0,0,0,0,0,0,,,,,,,,,,,,,
339,6834184,1745475433219,0.0,131.0,,-0.14,-0.97,0.98,-58.0,0.0,2.0,1.38,1.42,98.0,8517.0,10.2,2.57,,7.91,0.932,86.2,,45.5,5.0,22.0,24.0,27.0,26.0,0.0,79.0,0.0,0.0,2.29,,,0,0,0,0,0,0,0,0,0,0,0,0,0,0,0,0,,1.0,,,,0.0,38.993931,-76.939514,38.31,25.9,32.0,3.0,0.8
340,6834204,1745475433239,,,,,,,,,,,,,,,,,,,,,,,,,,,,,,,,,,0,0,0,0,0,0,0,0,0,0,0,0,0,0,0,0,,,,,,,,,,,,,
341,6834224,1745475433259,0.0,132.0,,-0.15,-0.97,1.02,-59.0,1.0,2.0,1.41,1.42,100.0,8341.0,10.5,2.61,,7.91,0.932,86.2,,43.3,5.0,,,,,,,,,,,,0,0,0,0,0,0,0,0,0,0,0,0,0,0,0,0,,,,,,0.0,,,,,,,
342,6834244,1745475433279,,,,,,,,,,,,,,,,,,,,,,,,,,,,,,,,,,0,0,0,0,0,0,0,0,0,0,0,0,0,0,0,0,,,,,,,,,,,,,
343,6834264,1745475433299,0.0,132.0,,-0.21,-1.03,0.97,-60.0,1.0,2.0,1.43,1.43,100.0,8341.0,10.5,2.61,,8.1,0.97,86.2,,43.3,5.0,,,,,,,,,,,,0,0,0,0,0,0,0,0,0,0,0,0,0,0,0,0,,,,,,0.0,,,,,,,
344,6834284,1745475433319,,,,,,,,,,,,,,,,,,,,,,,22.0,25.0,25.0,24.0,0.0,221.0,0.0,0.0,2.27,,,0,0,0,0,0,0,0,0,0,0,0,0,0,0,0,0,,1.0,,,,,38.993931,-76.939529,37.35,25.9,32.0,3.0,0.8
345,6834304,1745475433339,0.0,132.0,,-0.25,-1.01,0.91,-60.0,1.0,1.0,1.38,1.43,96.0,8288.0,16.1,2.9,,8.7,0.993,86.2,,43.1,5.0,,,,,,,,,,,,0,0,0,0,0,0,0,0,0,0,0,0,0,0,0,0,,,,,,0.0,,,,,,,
346,6834324,1745475433359,,,,,,,,,,,,,,,,,,,,,,,,,,,,,,,,,,0,0,0,0,0,0,0,0,0,0,0,0,0,0,0,0,,,,,,,,,,,,,
347,6834344,1745475433379,0.0,133.0,,-0.25,-1.03,0.91,-61.0,1.0,1.0,1.4,1.43,98.0,8311.0,22.4,3.48,,9.73,1.016,84.4,,43.1,5.0,,,,,,,,,,,,0,0,0,0,0,0,0,0,0,0,0,0,0,0,0,0,,,,,,0.0,,,,,,,
348,6834364,1745475433399,,,,,,,,,,,,,,,,,,,,,,,,,,,,,,,,,,0,0,0,0,0,0,0,0,0,0,0,0,0,0,0,0,,,,,,,,,,,,,
349,6834384,1745475433419,0.0,132.0,12.94,-0.24,-1.16,0.92,-60.0,0.0,1.0,1.5,1.5,100.0,8607.0,25.1,3.57,15.0,10.41,1.019,84.4,183.0,43.1,5.0,22.0,21.0,24.0,27.0,0.0,107.0,0.0,0.0,2.27,0.0,1.0,0,0,0,0,0,0,0,0,0,0,0,0,0,0,0,0,0.0,0.0,1.0,0.0,0.0,0.0,38.993931,-76.939537,37.5,25.9,32.0,3.0,0.8
350,6834404,1745475433439,,,,,,,,,,,,,,,,,,,,,,,,,,,,,,,,,,0,0,0,0,0,0,0,0,0,0,0,0,0,0,0,0,,,,,,,,,,,,,
351,6834424,1745475433459,0.0,130.0,,-0.23,-1.12,0.85,-59.0,-1.0,0.0,1.42,1.5,95.0,8835.0,25.5,3.58,,10.41,1.019,84.4,,45.2,5.0,,,,,,,,,,,,0,0,0,0,0,0,0,0,0,0,0,0,0,0,0,0,,,,,,0.0,,,,,,,
352,6834444,1745475433479,,,,,,,,,,,,,,,,,,,,,,,,,,,,,,,,,,0,0,0,0,0,0,0,0,0,0,0,0,0,0,0,0,,,,,,,,,,,,,
353,6834464,1745475433499,0.0,132.0,,-0.24,-0.97,0.89,-60.0,-1.0,2.0,1.34,1.5,89.0,8835.0,25.5,3.58,,10.62,1.011,84.4,,45.2,5.0,,,,,,,,,,,,0,0,0,0,0,0,0,0,0,0,0,0,0,0,0,0,,,,,,0.0,,,,,,,
354,6834484,1745475433519,,,,,,,,,,,,,,,,,,,,,,,22.0,25.0,28.0,25.0,0.0,249.0,0.0,0.0,2.27,,,0,0,0,0,0,0,0,0,0,0,0,0,0,0,0,0,,1.0,,,,,38.993935,-76.939552,37.96,25.9,32.0,3.0,0.8
355,6834504,1745475433539,0.0,132.0,,-0.23,-0.76,0.92,-61.0,0.0,3.0,1.22,1.5,81.0,8856.0,25.8,3.56,,10.81,1.035,84.4,,44.9,5.0,,,,,,,,,,,,0,0,0,0,0,0,0,0,0,0,0,0,0,0,0,0,,,,,,0.0,,,,,,,
356,6834524,1745475433559,,,,,,,,,,,,,,,,,,,,,,,,,,,,,,,,,,0,0,0,0,0,0,0,0,0,0,0,0,0,0,0,0,,,,,,,,,,,,,
357,6834544,1745475433579,0.0,132.0,,-0.18,-0.51,0.99,-63.0,2.0,3.0,1.13,1.5,75.0,9065.0,13.4,3.23,,9.73,1.061,84.4,,44.9,5.0,,,,,,,,,,,,0,0,0,0,0,0,0,0,0,0,0,0,0,0,0,0,,,,,,0.0,,,,,,,
358,6834564,1745475433597,,,,,,,,,,,,,,,,,,,,,,,,,,,,,,,,,,0,0,0,0,0,0,0,0,0,0,0,0,0,0,0,0,,,,,,,,,,,,,
359,6834584,1745475433617,0.0,131.0,,-0.11,-0.44,0.99,-63.0,2.0,2.0,1.09,1.5,72.0,9116.0,9.0,2.78,,8.65,1.041,84.4,,44.9,5.0,22.0,26.0,27.0,26.0,0.0,33.0,0.0,0.0,2.27,,,0,0,0,0,0,0,0,0,0,0,0,0,0,0,0,0,,0.0,,,,0.0,38.993935,-76.939568,37.81,25.9,32.0,3.0,0.8
360,6834604,1745475433637,,,,,,,,,,,,,,,,,,,,,,,,,,,,,,,,,,0,0,0,0,0,0,0,0,0,0,0,0,0,0,0,0,,,,,,,,,,,,,
361,6834624,1745475433657,0.0,131.0,,-0.08,-0.43,0.93,-63.0,2.0,2.0,1.03,1.5,68.0,8821.0,5.4,2.29,,8.65,1.041,84.4,,44.8,5.0,,,,,,,,,,,,0,0,0,0,0,0,0,0,0,0,0,0,0,0,0,0,,,,,,0.0,,,,,,,
362,6834644,1745475433677,,,,,,,,,,,,,,,,,,,,,,,,,,,,,,,,,,0,0,0,0,0,0,0,0,0,0,0,0,0,0,0,0,,,,,,,,,,,,,
363,6834664,1745475433698,0.0,132.0,,-0.09,-0.49,0.94,-61.0,2.0,2.0,1.06,1.5,71.0,8821.0,5.4,2.29,,7.93,1.01,84.4,,44.8,5.0,,,,,,,,,,,,0,0,0,0,0,0,0,0,0,0,0,0,0,0,0,0,,,,,,0.0,,,,,,,
364,6834684,1745475433718,,,,,,,,,,,,,,,,,,,,,,,22.0,26.0,27.0,27.0,0.0,55.0,0.0,0.0,2.27,,,0,0,0,0,0,0,0,0,0,0,0,0,0,0,0,0,,0.0,,,,,38.993942,-76.939575,38.01,26.0,32.0,3.0,0.8
365,6834704,1745475433738,0.0,132.0,,-0.17,-0.61,0.93,-59.0,1.0,1.0,1.13,1.5,75.0,8455.0,2.7,1.4,,7.27,1.002,84.4,,42.7,5.0,,,,,,,,,,,,0,0,0,0,0,0,0,0,0,0,0,0,0,0,0,0,,,,,,0.0,,,,,,,
366,6834724,1745475433758,,,,,,,,,,,,,,,,,,,,,,,,,,,,,,,,,,0,0,0,0,0,0,0,0,0,0,0,0,0,0,0,0,,,,,,,,,,,,,
367,6834744,1745475433778,0.0,132.0,,-0.16,-0.6,0.98,-58.0,1.0,1.0,1.16,1.5,77.0,7897.0,12.7,2.56,,7.69,1.004,84.4,,42.7,5.0,,,,,,,,,,,,0,0,0,0,0,0,0,0,0,0,0,0,0,0,0,0,,,,,,0.0,,,,,,,
368,6834764,1745475433798,,,,,,,,,,,,,,,,,,,,,,,,,,,,,,,,,,0,0,0,0,0,0,0,0,0,0,0,0,0,0,0,0,,,,,,,,,,,,,
369,6834784,1745475433818,0.0,132.0,,-0.2,-0.74,0.98,-57.0,0.0,1.0,1.24,1.5,83.0,7803.0,25.7,3.37,,9.7,1.139,84.4,,42.7,5.0,23.0,22.0,25.0,24.0,0.0,237.0,0.0,0.0,2.27,,,0,0,0,0,0,0,0,0,0,0,0,0,0,0,0,0,,0.0,,,,0.0,38.993946,-76.939583,39.89,26.0,32.0,3.0,0.8
370,6834804,1745475433838,,,,,,,,,,,,,,,,,,,,,,,,,,,,,,,,,,0,0,0,0,0,0,0,0,0,0,0,0,0,0,0,0,,,,,,,,,,,,,
371,6834824,1745475433858,0.0,132.0,,-0.25,-0.9,0.92,-57.0,0.0,1.0,1.31,1.5,87.0,8249.0,30.0,3.82,,9.7,1.139,84.4,,44.5,5.0,,,,,,,,,,,,0,0,0,0,0,0,0,0,0,0,0,0,0,0,0,0,,,,,,0.0,,,,,,,
372,6834844,1745475433878,,,,,,,,,,,,,,,,,,,,,,,,,,,,,,,,,,0,0,0,0,0,0,0,0,0,0,0,0,0,0,0,0,,,,,,,,,,,,,
