,Interval,Utc,FrontBP,SteerAng,Battery,AccelX,AccelY,AccelZ,Yaw,Pitch,Roll,Gsum,GsumMax,GsumPct,RPM,TPS,InjectorPW,Baro,MAP,Lambda,IAT,EngineTemp,EOP,EOT,WSFR,WSFL,WSRR,WSRL,TCSet,TCSlip,TCComp,TCCut,Analog8,OilTemp,AA_On,ThermLF1,ThermLF2,ThermRR1,ThermRR2,ThermLF3,ThermLF4,ThermLF5,ThermLF6,ThermLF7,ThermLF8,ThermRR3,ThermRR4,ThermRR5,ThermRR6,ThermRR7,ThermRR8,AA_LowDrag,Gear,AA_On1,AA_LowDrag1,Fuel_Mix,AA_Packages,Latitude,Longitude,Speed,Altitude,GPSSats,GPSQual,GPSDOP
0,4810204,1745473409227,,,,,,,,,,,,,,,,,,,,,,,,,,,,,,,,,,0,0,0,0,0,0,0,0,0,0,0,0,0,0,0,0,,,,,,,,,,,,,
1,4810224,1745473409247,0.0,131.0,,-0.09,-0.09,0.97,0.0,0.0,0.0,0.98,0.98,100.0,5322.0,35.1,5.81,,13.87,1.084,88.0,,39.9,5.0,,,,,,,,,,,,0,0,0,0,0,0,0,0,0,0,0,0,0,0,0,0,,,,,,0.0,,,,,,,
2,4810244,1745473409267,,,,,,,,,,,,,,,,,,,,,,,,,,,,,,,,,,0,0,0,0,0,0,0,0,0,0,0,0,0,0,0,0,,,,,,,,,,,,,
3,4810264,1745473409287,0.0,131.0,,-0.12,-0.13,0.94,-2.0,0.0,0.0,0.96,0.98,98.0,5797.0,25.9,5.75,,13.4,1.097,88.0,,39.9,5.0,,,,,,,,,,,,0,0,0,0,0,0,0,0,0,0,0,0,0,0,0,0,,,,,,0.0,,,,,,,
4,4810284,1745473409311,,,,,,,,,,,,,,,,,,,,,,,0.0,0.0,0.0,0.0,7.0,0.0,0.0,0.0,2.26,,,0,0,0,0,0,0,0,0,0,0,0,0,0,0,0,0,,0.0,,,,,38.994102,-76.939652,0.06,26.4,32.0,3.0,0.9
5,4810304,1745473409331,0.0,131.0,,-0.12,-0.11,0.99,-2.0,0.0,0.0,1.0,1.0,100.0,6444.0,4.9,4.93,,11.84,1.1,88.0,,39.9,5.0,,,,,,,,,,,,0,0,0,0,0,0,0,0,0,0,0,0,0,0,0,0,,,,,,0.0,,,,,,,
6,4810324,1745473409351,,,,,,,,,,,,,,,,,,,,,,,,,,,,,,,,,,0,0,0,0,0,0,0,0,0,0,0,0,0,0,0,0,,,,,,,,,,,,,
7,4810344,1745473409371,0.0,131.0,,-0.13,-0.13,0.96,-2.0,0.0,0.0,0.98,1.0,98.0,6876.0,0.0,1.4,,11.84,1.1,88.0,,43.7,5.0,,,,,,,,,,,,0,0,0,0,0,0,0,0,0,0,0,0,0,0,0,0,,,,,,0.0,,,,,,,
8,4810364,1745473409391,,,,,,,,,,,,,,,,,,,,,,,,,,,,,,,,,,0,0,0,0,0,0,0,0,0,0,0,0,0,0,0,0,,,,,,,,,,,,,
9,4810384,1745473409411,0.0,131.0,13.29,-0.12,-0.16,0.94,-1.0,0.0,0.0,0.96,1.0,96.0,6876.0,0.0,1.4,15.0,10.36,1.065,88.0,173.0,43.7,5.0,0.0,0.0,0.0,0.0,7.0,0.0,0.0,0.0,2.27,0.0,1.0,0,0,0,0,0,0,0,0,0,0,0,0,0,0,0,0,0.0,0.0,1.0,0.0,0.0,0.0,38.994102,-76.939652,0.16,26.4,32.0,3.0,0.9
10,4810404,1745473409431,,,,,,,,,,,,,,,,,,,,,,,,,,,,,,,,,,0,0,0,0,0,0,0,0,0,0,0,0,0,0,0,0,,,,,,,,,,,,,
11,4810424,1745473409451,0.0,131.0,,-0.1,-0.11,1.0,-1.0,0.0,0.0,1.01,1.01,100.0,6691.0,0.0,1.4,,9.34,0.921,88.0,,45.2,5.0,,,,,,,,,,,,0,0,0,0,0,0,0,0,0,0,0,0,0,0,0,0,,,,,,0.0,,,,,,,
12,4810444,1745473409471,,,,,,,,,,,,,,,,,,,,,,,,,,,,,,,,,,0,0,0,0,0,0,0,0,0,0,0,0,0,0,0,0,,,,,,,,,,,,,
13,4810464,1745473409491,0.0,131.0,,-0.14,-0.05,1.06,0.0,0.0,1.0,1.07,1.07,100.0,6300.0,0.0,1.4,,8.82,0.968,88.0,,45.2,5.0,,,,,,,,,,,,0,0,0,0,0,0,0,0,0,0,0,0,0,0,0,0,,,,,,0.0,,,,,,,
14,4810484,1745473409511,,,,,,,,,,,,,,,,,,,,,,,0.0,0.0,0.0,0.0,7.0,0.0,0.0,0.0,2.26,,,0,0,0,0,0,0,0,0,0,0,0,0,0,0,0,0,,0.0,,,,,38.994102,-76.939652,0.09,26.4,32.0,3.0,0.9
15,4810504,1745473409531,0.0,130.0,,-0.16,0.08,1.17,2.0,0.0,1.0,1.18,1.18,100.0,5882.0,0.0,1.4,,8.73,1.221,88.0,,45.2,5.0,,,,,,,,,,,,0,0,0,0,0,0,0,0,0,0,0,0,0,0,0,0,,,,,,0.0,,,,,,,
16,4810524,1745473409551,,,,,,,,,,,,,,,,,,,,,,,,,,,,,,,,,,0,0,0,0,0,0,0,0,0,0,0,0,0,0,0,0,,,,,,,,,,,,,
17,4810544,1745473409571,0.0,131.0,,-0.15,0.12,1.11,1.0,0.0,1.0,1.12,1.18,95.0,5452.0,0.0,1.4,,8.73,1.221,88.0,,43.6,5.0,,,,,,,,,,,,0,0,0,0,0,0,0,0,0,0,0,0,0,0,0,0,,,,,,0.0,,,,,,,
18,4810564,1745473409591,,,,,,,,,,,,,,,,,,,,,,,,,,,,,,,,,,0,0,0,0,0,0,0,0,0,0,0,0,0,0,0,0,,,,,,,,,,,,,
19,4810584,1745473409611,0.0,131.0,,-0.15,0.18,1.12,1.0,0.0,1.0,1.14,1.18,97.0,5452.0,0.0,1.4,,8.78,1.251,88.0,,43.6,5.0,0.0,0.0,0.0,0.0,7.0,0.0,0.0,0.0,2.27,,,0,0,0,0,0,0,0,0,0,0,0,0,0,0,0,0,,0.0,,,,0.0,38.994102,-76.939652,0.04,26.4,32.0,3.0,0.9
20,4810604,1745473409631,,,,,,,,,,,,,,,,,,,,,,,,,,,,,,,,,,0,0,0,0,0,0,0,0,0,0,0,0,0,0,0,0,,,,,,,,,,,,,
21,4810624,1745473409651,0.0,131.0,,-0.12,0.11,1.06,1.0,0.0,1.0,1.07,1.18,91.0,5097.0,0.0,1.6,,9.09,1.251,88.0,,37.6,5.0,,,,,,,,,,,,0,0,0,0,0,0,0,0,0,0,0,0,0,0,0,0,,,,,,0.0,,,,,,,
22,4810644,1745473409671,,,,,,,,,,,,,,,,,,,,,,,,,,,,,,,,,,0,0,0,0,0,0,0,0,0,0,0,0,0,0,0,0,,,,,,,,,,,,,
23,4810664,1745473409691,0.0,131.0,,-0.12,0.11,1.11,2.0,0.0,0.0,1.12,1.18,95.0,4736.0,15.7,3.02,,10.52,1.25,88.0,,37.6,5.0,,,,,,,,,,,,0,0,0,0,0,0,0,0,0,0,0,0,0,0,0,0,,,,,,0.0,,,,,,,
24,4810684,1745473409710,,,,,,,,,,,,,,,,,,,,,,,0.0,0.0,0.0,0.0,7.0,0.0,0.0,0.0,2.26,,,0,0,0,0,0,0,0,0,0,0,0,0,0,0,0,0,,0.0,,,,,38.994102,-76.939652,0.0,26.4,32.0,3.0,0.9
25,4810704,1745473409730,0.0,131.0,,-0.13,0.18,1.19,3.0,0.0,0.0,1.21,1.21,100.0,4502.0,30.3,5.36,,12.83,1.251,88.0,,37.6,5.0,,,,,,,,,,,,0,0,0,0,0,0,0,0,0,0,0,0,0,0,0,0,,,,,,0.0,,,,,,,
26,4810724,1745473409750,,,,,,,,,,,,,,,,,,,,,,,,,,,,,,,,,,0,0,0,0,0,0,0,0,0,0,0,0,0,0,0,0,,,,,,,,,,,,,
27,4810744,1745473409770,0.0,131.0,,-0.16,0.18,1.22,3.0,0.0,1.0,1.24,1.24,100.0,4692.0,35.8,5.49,,12.83,1.251,88.0,,32.8,5.0,,,,,,,,,,,,0,0,0,0,0,0,0,0,0,0,0,0,0,0,0,0,,,,,,0.0,,,,,,,
28,4810764,1745473409790,,,,,,,,,,,,,,,,,,,,,,,,,,,,,,,,,,0,0,0,0,0,0,0,0,0,0,0,0,0,0,0,0,,,,,,,,,,,,,
29,4810784,1745473409810,0.0,130.0,,-0.14,0.17,1.17,2.0,0.0,0.0,1.19,1.24,96.0,4692.0,35.8,5.49,,13.84,1.247,88.0,,32.8,5.0,0.0,0.0,0.0,0.0,7.0,0.0,0.0,0.0,2.26,,,0,0,0,0,0,0,0,0,0,0,0,0,0,0,0,0,,0.0,,,,0.0,38.994102,-76.939652,0.04,26.4,32.0,3.0,0.9
30,4810804,1745473409830,,,,,,,,,,,,,,,,,,,,,,,,,,,,,,,,,,0,0,0,0,0,0,0,0,0,0,0,0,0,0,0,0,,,,,,,,,,,,,
31,4810824,1745473409850,0.0,131.0,,-0.13,0.14,1.17,2.0,0.0,0.0,1.19,1.24,96.0,5011.0,36.3,5.5,,13.92,1.248,88.0,,37.9,5.0,,,,,,,,,,,,0,0,0,0,0,0,0,0,0,0,0,0,0,0,0,0,,,,,,0.0,,,,,,,
32,4810844,1745473409870,,,,,,,,,,,,,,,,,,,,,,,,,,,,,,,,,,0,0,0,0,0,0,0,0,0,0,0,0,0,0,0,0,,,,,,,,,,,,,
33,4810864,1745473409890,0.0,131.0,,-0.13,0.06,1.07,1.0,0.0,0.0,1.08,1.24,87.0,5408.0,5.8,4.45,,12.69,1.248,88.0,,37.9,5.0,,,,,,,,,,,,0,0,0,0,0,0,0,0,0,0,0,0,0,0,0,0,,,,,,0.0,,,,,,,
34,4810884,1745473409912,,,,,,,,,,,,,,,,,,,,,,,0.0,0.0,0.0,0.0,7.0,0.0,0.0,0.0,2.26,,,0,0,0,0,0,0,0,0,0,0,0,0,0,0,0,0,,0.0,,,,,38.994102,-76.939652,0.0,26.4,32.0,3.0,0.9
35,4810904,1745473409932,0.0,131.0,,-0.14,0.12,1.14,2.0,0.0,0.0,1.15,1.24,93.0,5658.0,0.0,2.07,,11.34,1.213,88.0,,37.9,5.0,,,,,,,,,,,,0,0,0,0,0,0,0,0,0,0,0,0,0,0,0,0,,,,,,0.0,,,,,,,
36,4810924,1745473409952,,,,,,,,,,,,,,,,,,,,,,,,,,,,,,,,,,0,0,0,0,0,0,0,0,0,0,0,0,0,0,0,0,,,,,,,,,,,,,
37,4810944,1745473409972,0.0,131.0,,-0.14,0.09,1.08,1.0,0.0,0.0,1.09,1.24,88.0,5501.0,0.0,1.58,,11.34,1.213,88.0,,43.0,5.0,,,,,,,,,,,,0,0,0,0,0,0,0,0,0,0,0,0,0,0,0,0,,,,,,0.0,,,,,,,
38,4810964,1745473409992,,,,,,,,,,,,,,,,,,,,,,,,,,,,,,,,,,0,0,0,0,0,0,0,0,0,0,0,0,0,0,0,0,,,,,,,,,,,,,
39,4810984,1745473410004,0.0,131.0,,-0.13,0.11,1.06,1.0,0.0,0.0,1.08,1.24,87.0,5501.0,0.0,1.58,,10.58,1.162,88.0,,43.0,5.0,0.0,0.0,0.0,0.0,7.0,0.0,0.0,0.0,2.27,,,0,0,0,0,0,0,0,0,0,0,0,0,0,0,0,0,,0.0,,,,0.0,38.994102,-76.939652,0.33,26.4,32.0,3.0,0.9
40,4811004,1745473410024,,,,,,,,,,,,,,,,,,,,,,,,,,,,,,,,,,0,0,0,0,0,0,0,0,0,0,0,0,0,0,0,0,,,,,,,,,,,,,
41,4811024,1745473410044,0.0,131.0,,-0.13,0.14,1.07,1.0,0.0,0.0,1.09,1.24,88.0,5271.0,0.0,1.7,,10.33,1.166,88.0,,39.3,5.0,,,,,,,,,,,,0,0,0,0,0,0,0,0,0,0,0,0,0,0,0,0,,,,,,0.0,,,,,,,
42,4811044,1745473410064,,,,,,,,,,,,,,,,,,,,,,,,,,,,,,,,,,0,0,0,0,0,0,0,0,0,0,0,0,0,0,0,0,,,,,,,,,,,,,
43,4811064,1745473410084,0.0,131.0,,-0.11,0.08,1.01,0.0,0.0,0.0,1.02,1.24,82.0,4981.0,0.0,1.89,,10.2,1.249,88.0,,39.3,5.0,,,,,,,,,,,,0,0,0,0,0,0,0,0,0,0,0,0,0,0,0,0,,,,,,0.0,,,,,,,
44,4811084,1745473410108,,,,,,,,,,,,,,,,,,,,,,,0.0,0.0,0.0,0.0,7.0,0.0,0.0,0.0,2.27,,,0,0,0,0,0,0,0,0,0,0,0,0,0,0,0,0,,0.0,,,,,38.994102,-76.939652,0.21,26.4,32.0,3.0,0.9
45,4811104,1745473410128,0.0,130.0,,-0.09,0.04,1.02,1.0,0.0,0.0,1.02,1.24,82.0,4699.0,6.8,2.97,,10.7,1.25,88.0,,39.3,5.0,,,,,,,,,,,,0,0,0,0,0,0,0,0,0,0,0,0,0,0,0,0,,,,,,0.0,,,,,,,
46,4811124,1745473410148,,,,,,,,,,,,,,,,,,,,,,,,,,,,,,,,,,0,0,0,0,0,0,0,0,0,0,0,0,0,0,0,0,,,,,,,,,,,,,
47,4811144,1745473410168,0.0,131.0,,-0.08,0.04,1.02,2.0,0.0,0.0,1.03,1.24,83.0,4467.0,22.5,4.65,,10.7,1.25,88.0,,33.8,5.0,,,,,,,,,,,,0,0,0,0,0,0,0,0,0,0,0,0,0,0,0,0,,,,,,0.0,,,,,,,
48,4811164,1745473410188,,,,,,,,,,,,,,,,,,,,,,,,,,,,,,,,,,0,0,0,0,0,0,0,0,0,0,0,0,0,0,0,0,,,,,,,,,,,,,
49,4811184,1745473410210,0.0,130.0,,-0.07,0.02,1.05,2.0,0.0,-1.0,1.05,1.24,85.0,4467.0,22.5,4.65,,12.37,1.251,88.0,,33.8,5.0,0.0,0.0,0.0,0.0,7.0,0.0,0.0,0.0,2.26,,,0,0,0,0,0,0,0,0,0,0,0,0,0,0,0,0,,0.0,,,,0.0,38.994102,-76.939652,0.04,26.4,32.0,3.0,0.9
50,4811204,1745473410230,,,,,,,,,,,,,,,,,,,,,,,,,,,,,,,,,,0,0,0,0,0,0,0,0,0,0,0,0,0,0,0,0,,,,,,,,,,,,,
51,4811224,1745473410250,0.0,131.0,,-0.08,0.06,1.1,3.0,0.0,0.0,1.11,1.24,89.0,4564.0,31.9,5.52,,13.64,1.25,88.0,,33.6,5.0,,,,,,,,,,,,0,0,0,0,0,0,0,0,0,0,0,0,0,0,0,0,,,,,,0.0,,,,,,,
52,4811244,1745473410270,,,,,,,,,,,,,,,,,,,,,,,,,,,,,,,,,,0,0,0,0,0,0,0,0,0,0,0,0,0,0,0,0,,,,,,,,,,,,,
53,4811264,1745473410290,0.0,131.0,,-0.09,0.06,1.06,2.0,0.0,0.0,1.07,1.24,86.0,4836.0,35.0,5.5,,13.95,1.249,86.2,,33.6,5.0,,,,,,,,,,,,0,0,0,0,0,0,0,0,0,0,0,0,0,0,0,0,,,,,,0.0,,,,,,,
54,4811284,1745473410312,,,,,,,,,,,,,,,,,,,,,,,0.0,0.0,0.0,0.0,7.0,0.0,0.0,0.0,2.26,,,0,0,0,0,0,0,0,0,0,0,0,0,0,0,0,0,,0.0,,,,,38.994102,-76.939652,0.04,26.4,32.0,3.0,0.9
55,4811304,1745473410332,0.0,131.0,,-0.08,0.08,1.08,2.0,0.0,0.0,1.09,1.24,88.0,5213.0,35.6,5.44,,13.83,1.248,86.2,,33.6,5.0,,,,,,,,,,,,0,0,0,0,0,0,0,0,0,0,0,0,0,0,0,0,,,,,,0.0,,,,,,,
56,4811324,1745473410352,,,,,,,,,,,,,,,,,,,,,,,,,,,,,,,,,,0,0,0,0,0,0,0,0,0,0,0,0,0,0,0,0,,,,,,,,,,,,,
57,4811344,1745473410372,0.0,131.0,,-0.04,0.02,1.01,1.0,0.0,-1.0,1.01,1.24,81.0,5885.0,10.1,4.45,,13.83,1.248,86.2,,39.6,5.0,,,,,,,,,,,,0,0,0,0,0,0,0,0,0,0,0,0,0,0,0,0,,,,,,0.0,,,,,,,
58,4811364,1745473410392,,,,,,,,,,,,,,,,,,,,,,,,,,,,,,,,,,0,0,0,0,0,0,0,0,0,0,0,0,0,0,0,0,,,,,,,,,,,,,
59,4811384,1745473410410,0.0,131.0,13.35,0.02,-0.12,0.99,1.0,0.0,-1.0,1.0,1.24,80.0,5885.0,10.1,4.45,15.0,12.71,1.242,86.2,173.0,39.6,5.0,0.0,0.0,0.0,0.0,7.0,0.0,0.0,0.0,2.26,0.0,1.0,0,0,0,0,0,0,0,0,0,0,0,0,0,0,0,0,0.0,0.0,1.0,0.0,0.0,0.0,38.994102,-76.939652,0.04,26.4,32.0,3.0,0.9
60,4811404,1745473410430,,,,,,,,,,,,,,,,,,,,,,,,,,,,,,,,,,0,0,0,0,0,0,0,0,0,0,0,0,0,0,0,0,,,,,,,,,,,,,
61,4811424,1745473410450,0.0,131.0,,0.03,-0.14,0.99,1.0,0.0,-1.0,1.0,1.24,81.0,6287.0,0.0,2.01,,11.08,1.185,86.2,,44.5,5.0,,,,,,,,,,,,0,0,0,0,0,0,0,0,0,0,0,0,0,0,0,0,,,,,,0.0,,,,,,,
62,4811444,1745473410470,,,,,,,,,,,,,,,,,,,,,,,,,,,,,,,,,,0,0,0,0,0,0,0,0,0,0,0,0,0,0,0,0,,,,,,,,,,,,,
63,4811464,1745473410490,0.0,130.0,,0.04,-0.16,0.92,1.0,0.0,-1.0,0.93,1.24,75.0,6453.0,0.0,1.4,,10.01,1.103,86.2,,44.5,5.0,,,,,,,,,,,,0,0,0,0,0,0,0,0,0,0,0,0,0,0,0,0,,,,,,0.0,,,,,,,
64,4811484,1745473410512,,,,,,,,,,,,,,,,,,,,,,,0.0,0.0,0.0,0.0,7.0,0.0,0.0,0.0,2.27,,,0,0,0,0,0,0,0,0,0,0,0,0,0,0,0,0,,0.0,,,,,38.994102,-76.939652,0.2,26.4,32.0,3.0,0.9
65,4811504,1745473410532,0.0,130.0,,0.05,-0.12,0.94,2.0,0.0,-1.0,0.95,1.24,77.0,6109.0,0.0,1.4,,9.39,1.028,86.2,,44.5,5.0,,,,,,,,,,,,0,0,0,0,0,0,0,0,0,0,0,0,0,0,0,0,,,,,,0.0,,,,,,,
66,4811524,1745473410552,,,,,,,,,,,,,,,,,,,,,,,,,,,,,,,,,,0,0,0,0,0,0,0,0,0,0,0,0,0,0,0,0,,,,,,,,,,,,,
67,4811544,1745473410572,0.0,131.0,,0.05,-0.17,0.86,1.0,-1.0,-1.0,0.88,1.24,71.0,5692.0,0.0,1.4,,9.39,1.028,86.2,,44.0,5.0,,,,,,,,,,,,0,0,0,0,0,0,0,0,0,0,0,0,0,0,0,0,,,,,,0.0,,,,,,,
68,4811564,1745473410592,,,,,,,,,,,,,,,,,,,,,,,,,,,,,,,,,,0,0,0,0,0,0,0,0,0,0,0,0,0,0,0,0,,,,,,,,,,,,,
69,4811584,1745473410610,0.0,131.0,,0.04,-0.17,0.9,1.0,-1.0,-1.0,0.91,1.24,74.0,5692.0,0.0,1.4,,9.26,1.109,86.2,,44.0,5.0,0.0,0.0,0.0,0.0,7.0,0.0,0.0,0.0,2.27,,,0,0,0,0,0,0,0,0,0,0,0,0,0,0,0,0,,0.0,,,,0.0,38.994102,-76.939652,0.15,26.4,32.0,3.0,0.9
70,4811604,1745473410630,,,,,,,,,,,,,,,,,,,,,,,,,,,,,,,,,,0,0,0,0,0,0,0,0,0,0,0,0,0,0,0,0,,,,,,,,,,,,,
71,4811624,1745473410650,0.0,131.0,,0.01,-0.19,0.92,1.0,0.0,-1.0,0.94,1.24,76.0,5250.0,0.0,1.5,,9.39,1.249,86.2,,38.7,5.0,,,,,,,,,,,,0,0,0,0,0,0,0,0,0,0,0,0,0,0,0,0,,,,,,0.0,,,,,,,
72,4811644,1745473410670,,,,,,,,,,,,,,,,,,,,,,,,,,,,,,,,,,0,0,0,0,0,0,0,0,0,0,0,0,0,0,0,0,,,,,,,,,,,,,
73,4811664,1745473410690,0.0,131.0,,0.02,-0.17,0.86,1.0,0.0,-1.0,0.88,1.24,71.0,4882.0,14.2,2.83,,10.68,1.249,86.2,,38.7,5.0,,,,,,,,,,,,0,0,0,0,0,0,0,0,0,0,0,0,0,0,0,0,,,,,,0.0,,,,,,,
74,4811684,1745473410710,,,,,,,,,,,,,,,,,,,,,,,0.0,0.0,0.0,0.0,7.0,0.0,0.0,0.0,2.26,,,0,0,0,0,0,0,0,0,0,0,0,0,0,0,0,0,,0.0,,,,,38.994102,-76.939652,0.05,26.4,32.0,3.0,0.9
75,4811704,1745473410730,0.0,131.0,,0.02,-0.13,0.93,3.0,0.0,-1.0,0.94,1.24,76.0,4699.0,23.3,4.56,,12.43,1.249,86.2,,38.7,5.0,,,,,,,,,,,,0,0,0,0,0,0,0,0,0,0,0,0,0,0,0,0,,,,,,0.0,,,,,,,
76,4811724,1745473410750,,,,,,,,,,,,,,,,,,,,,,,,,,,,,,,,,,0,0,0,0,0,0,0,0,0,0,0,0,0,0,0,0,,,,,,,,,,,,,
77,4811744,1745473410770,0.0,131.0,,-0.02,-0.13,0.96,1.0,0.0,0.0,0.97,1.24,78.0,4718.0,27.7,5.09,,12.43,1.249,86.2,,34.4,5.0,,,,,,,,,,,,0,0,0,0,0,0,0,0,0,0,0,0,0,0,0,0,,,,,,0.0,,,,,,,
78,4811764,1745473410790,,,,,,,,,,,,,,,,,,,,,,,,,,,,,,,,,,0,0,0,0,0,0,0,0,0,0,0,0,0,0,0,0,,,,,,,,,,,,,
79,4811784,1745473410809,0.0,130.0,,-0.01,-0.1,0.93,1.0,0.0,-1.0,0.94,1.24,76.0,4718.0,27.7,5.09,,13.43,1.249,86.2,,34.4,5.0,0.0,0.0,0.0,0.0,7.0,0.0,0.0,0.0,2.26,,,0,0,0,0,0,0,0,0,0,0,0,0,0,0,0,0,,0.0,,,,0.0,38.994102,-76.939652,0.35,26.4,32.0,3.0,0.9
80,4811804,1745473410829,,,,,,,,,,,,,,,,,,,,,,,,,,,,,,,,,,0,0,0,0,0,0,0,0,0,0,0,0,0,0,0,0,,,,,,,,,,,,,
81,4811824,1745473410849,0.0,131.0,,-0.02,-0.09,0.93,1.0,0.0,0.0,0.94,1.24,76.0,4891.0,28.7,5.35,,13.71,1.248,86.2,,36.2,5.0,,,,,,,,,,,,0,0,0,0,0,0,0,0,0,0,0,0,0,0,0,0,,,,,,0.0,,,,,,,
82,4811844,1745473410869,,,,,,,,,,,,,,,,,,,,,,,,,,,,,,,,,,0,0,0,0,0,0,0,0,0,0,0,0,0,0,0,0,,,,,,,,,,,,,
83,4811864,1745473410889,0.0,131.0,,-0.03,-0.05,0.96,1.0,0.0,0.0,0.97,1.24,78.0,5167.0,16.8,4.54,,13.17,1.247,86.2,,36.2,5.0,,,,,,,,,,,,0,0,0,0,0,0,0,0,0,0,0,0,0,0,0,0,,,,,,0.0,,,,,,,
84,4811884,1745473410909,,,,,,,,,,,,,,,,,,,,,,,0.0,0.0,0.0,0.0,7.0,0.0,0.0,0.0,2.26,,,0,0,0,0,0,0,0,0,0,0,0,0,0,0,0,0,,0.0,,,,,38.994102,-76.939652,0.33,26.4,32.0,3.0,0.9
85,4811904,1745473410929,0.0,131.0,,-0.05,-0.03,0.99,1.0,0.0,0.0,0.99,1.24,80.0,5478.0,1.9,3.06,,11.95,1.236,86.2,,36.2,5.0,,,,,,,,,,,,0,0,0,0,0,0,0,0,0,0,0,0,0,0,0,0,,,,,,0.0,,,,,,,
86,4811924,1745473410949,,,,,,,,,,,,,,,,,,,,,,,,,,,,,,,,,,0,0,0,0,0,0,0,0,0,0,0,0,0,0,0,0,,,,,,,,,,,,,
87,4811944,1745473410969,0.0,131.0,,-0.05,-0.04,0.96,0.0,0.0,0.0,0.96,1.24,77.0,5447.0,0.0,2.08,,11.95,1.236,86.2,,41.1,5.0,,,,,,,,,,,,0,0,0,0,0,0,0,0,0,0,0,0,0,0,0,0,,,,,,0.0,,,,,,,
88,4811964,1745473410989,,,,,,,,,,,,,,,,,,,,,,,,,,,,,,,,,,0,0,0,0,0,0,0,0,0,0,0,0,0,0,0,0,,,,,,,,,,,,,
89,4811984,1745473411003,0.0,131.0,,-0.05,0.03,0.95,0.0,0.0,0.0,0.95,1.24,77.0,5447.0,0.0,2.08,,11.01,1.163,86.2,,41.1,5.0,0.0,0.0,0.0,0.0,7.0,0.0,0.0,0.0,2.27,,,0,0,0,0,0,0,0,0,0,0,0,0,0,0,0,0,,0.0,,,,0.0,38.994102,-76.939652,0.07,26.4,32.0,3.0,0.9
90,4812004,1745473411023,,,,,,,,,,,,,,,,,,,,,,,,,,,,,,,,,,0,0,0,0,0,0,0,0,0,0,0,0,0,0,0,0,,,,,,,,,,,,,
91,4812024,1745473411043,0.0,131.0,,-0.06,0.1,1.0,0.0,0.0,0.0,1.0,1.24,81.0,5200.0,0.0,1.7,,10.65,1.143,86.2,,38.3,5.0,,,,,,,,,,,,0,0,0,0,0,0,0,0,0,0,0,0,0,0,0,0,,,,,,0.0,,,,,,,
92,4812044,1745473411063,,,,,,,,,,,,,,,,,,,,,,,,,,,,,,,,,,0,0,0,0,0,0,0,0,0,0,0,0,0,0,0,0,,,,,,,,,,,,,
93,4812064,1745473411083,0.0,131.0,,-0.05,0.05,0.93,0.0,0.0,0.0,0.93,1.24,75.0,4965.0,0.0,1.82,,10.38,1.202,86.2,,38.3,5.0,,,,,,,,,,,,0,0,0,0,0,0,0,0,0,0,0,0,0,0,0,0,,,,,,0.0,,,,,,,
94,4812084,1745473411105,,,,,,,,,,,,,,,,,,,,,,,0.0,0.0,0.0,0.0,7.0,0.0,0.0,0.0,2.27,,,0,0,0,0,0,0,0,0,0,0,0,0,0,0,0,0,,0.0,,,,,38.994102,-76.939652,0.07,26.4,32.0,3.0,0.9
95,4812104,1745473411125,0.0,130.0,,-0.03,-0.01,0.91,1.0,0.0,-1.0,0.91,1.24,73.0,4661.0,0.0,1.86,,10.44,1.251,86.2,,38.3,5.0,,,,,,,,,,,,0,0,0,0,0,0,0,0,0,0,0,0,0,0,0,0,,,,,,0.0,,,,,,,
96,4812124,1745473411145,,,,,,,,,,,,,,,,,,,,,,,,,,,,,,,,,,0,0,0,0,0,0,0,0,0,0,0,0,0,0,0,0,,,,,,,,,,,,,
97,4812144,1745473411165,0.0,131.0,,-0.02,-0.06,0.86,1.0,0.0,-1.0,0.86,1.24,70.0,4433.0,11.9,3.14,,10.44,1.251,86.2,,33.3,5.0,,,,,,,,,,,,0,0,0,0,0,0,0,0,0,0,0,0,0,0,0,0,,,,,,0.0,,,,,,,
98,4812164,1745473411185,,,,,,,,,,,,,,,,,,,,,,,,,,,,,,,,,,0,0,0,0,0,0,0,0,0,0,0,0,0,0,0,0,,,,,,,,,,,,,
99,4812184,1745473411209,0.0,130.0,,-0.02,-0.12,0.82,-1.0,0.0,-1.0,0.83,1.24,67.0,4433.0,11.9,3.14,,11.29,1.251,86.2,,33.3,5.0,0.0,0.0,0.0,0.0,7.0,0.0,0.0,0.0,2.26,,,0,0,0,0,0,0,0,0,0,0,0,0,0,0,0,0,,0.0,,,,0.0,38.994102,-76.939652,0.08,26.4,32.0,3.0,0.9
100,4812204,1745473411229,,,,,,,,,,,,,,,,,,,,,,,,,,,,,,,,,,0,0,0,0,0,0,0,0,0,0,0,0,0,0,0,0,,,,,,,,,,,,,
101,4812224,1745473411249,0.0,131.0,,-0.05,0.01,0.95,1.0,0.0,0.0,0.95,1.24,76.0,4205.0,24.5,4.49,,12.84,1.251,86.2,,30.4,5.0,,,,,,,,,,,,0,0,0,0,0,0,0,0,0,0,0,0,0,0,0,0,,,,,,0.0,,,,,,,
102,4812244,1745473411269,,,,,,,,,,,,,,,,,,,,,,,,,,,,,,,,,,0,0,0,0,0,0,0,0,0,0,0,0,0,0,0,0,,,,,,,,,,,,,
103,4812264,1745473411289,0.0,131.0,,-0.05,0.04,1.0,3.0,0.0,0.0,1.0,1.24,81.0,4398.0,34.4,4.84,,13.92,1.251,86.2,,30.4,5.0,,,,,,,,,,,,0,0,0,0,0,0,0,0,0,0,0,0,0,0,0,0,,,,,,0.0,,,,,,,
104,4812284,1745473411311,,,,,,,,,,,,,,,,,,,,,,,0.0,0.0,0.0,0.0,7.0,0.0,0.0,0.0,2.26,,,0,0,0,0,0,0,0,0,0,0,0,0,0,0,0,0,,0.0,,,,,38.994102,-76.939652,0.0,26.4,32.0,3.0,0.9
105,4812304,1745473411331,0.0,131.0,,-0.06,0.02,1.04,2.0,0.0,0.0,1.04,1.24,84.0,4765.0,40.1,4.6,,14.2,1.25,86.2,,30.4,5.0,,,,,,,,,,,,0,0,0,0,0,0,0,0,0,0,0,0,0,0,0,0,,,,,,0.0,,,,,,,
106,4812324,1745473411351,,,,,,,,,,,,,,,,,,,,,,,,,,,,,,,,,,0,0,0,0,0,0,0,0,0,0,0,0,0,0,0,0,,,,,,,,,,,,,
107,4812344,1745473411371,0.0,131.0,,-0.07,0.09,1.04,3.0,0.0,0.0,1.04,1.24,84.0,5126.0,41.0,4.9,,14.2,1.25,86.2,,35.6,5.0,,,,,,,,,,,,0,0,0,0,0,0,0,0,0,0,0,0,0,0,0,0,,,,,,0.0,,,,,,,
108,4812364,1745473411391,,,,,,,,,,,,,,,,,,,,,,,,,,,,,,,,,,0,0,0,0,0,0,0,0,0,0,0,0,0,0,0,0,,,,,,,,,,,,,
109,4812384,1745473411411,0.0,131.0,13.36,-0.08,0.08,1.03,2.0,0.0,0.0,1.04,1.24,84.0,5126.0,41.0,4.9,15.0,14.1,1.248,86.2,173.0,35.6,5.0,0.0,0.0,0.0,0.0,7.0,0.0,0.0,0.0,2.27,0.0,1.0,0,0,0,0,0,0,0,0,0,0,0,0,0,0,0,0,0.0,0.0,1.0,0.0,0.0,0.0,38.994102,-76.939652,0.04,26.4,32.0,3.0,0.9
110,4812404,1745473411431,,,,,,,,,,,,,,,,,,,,,,,,,,,,,,,,,,0,0,0,0,0,0,0,0,0,0,0,0,0,0,0,0,,,,,,,,,,,,,
111,4812424,1745473411451,0.0,131.0,,-0.07,0.08,1.01,2.0,0.0,0.0,1.01,1.24,82.0,5385.0,16.0,4.43,,13.32,1.248,86.2,,40.4,5.0,,,,,,,,,,,,0,0,0,0,0,0,0,0,0,0,0,0,0,0,0,0,,,,,,0.0,,,,,,,
112,4812444,1745473411471,,,,,,,,,,,,,,,,,,,,,,,,,,,,,,,,,,0,0,0,0,0,0,0,0,0,0,0,0,0,0,0,0,,,,,,,,,,,,,
113,4812464,1745473411491,0.0,131.0,,-0.09,0.05,1.04,1.0,0.0,0.0,1.04,1.24,84.0,5613.0,1.0,2.41,,11.81,1.248,86.2,,40.4,5.0,,,,,,,,,,,,0,0,0,0,0,0,0,0,0,0,0,0,0,0,0,0,,,,,,0.0,,,,,,,
114,4812484,1745473411511,,,,,,,,,,,,,,,,,,,,,,,0.0,0.0,0.0,0.0,7.0,0.0,0.0,0.0,2.27,,,0,0,0,0,0,0,0,0,0,0,0,0,0,0,0,0,,0.0,,,,,38.994102,-76.939652,0.04,26.4,32.0,3.0,0.9
115,4812504,1745473411531,0.0,130.0,,-0.07,0.06,1.01,1.0,0.0,0.0,1.02,1.24,82.0,5652.0,0.0,1.81,,10.89,1.246,86.2,,40.4,5.0,,,,,,,,,,,,0,0,0,0,0,0,0,0,0,0,0,0,0,0,0,0,,,,,,0.0,,,,,,,
116,4812524,1745473411551,,,,,,,,,,,,,,,,,,,,,,,,,,,,,,,,,,0,0,0,0,0,0,0,0,0,0,0,0,0,0,0,0,,,,,,,,,,,,,
117,4812544,1745473411571,0.0,131.0,,-0.07,0.07,1.03,1.0,0.0,0.0,1.03,1.24,83.0,5369.0,0.0,1.52,,10.89,1.246,86.2,,41.9,5.0,,,,,,,,,,,,0,0,0,0,0,0,0,0,0,0,0,0,0,0,0,0,,,,,,0.0,,,,,,,
118,4812564,1745473411591,,,,,,,,,,,,,,,,,,,,,,,,,,,,,,,,,,0,0,0,0,0,0,0,0,0,0,0,0,0,0,0,0,,,,,,,,,,,,,
119,4812584,1745473411609,0.0,131.0,,-0.07,0.08,1.0,1.0,0.0,0.0,1.0,1.24,81.0,5369.0,0.0,1.52,,10.42,1.24,86.2,,41.9,5.0,0.0,0.0,0.0,0.0,7.0,0.0,0.0,0.0,2.27,,,0,0,0,0,0,0,0,0,0,0,0,0,0,0,0,0,,0.0,,,,0.0,38.994102,-76.939652,0.06,26.4,32.0,3.0,0.9
120,4812604,1745473411629,,,,,,,,,,,,,,,,,,,,,,,,,,,,,,,,,,0,0,0,0,0,0,0,0,0,0,0,0,0,0,0,0,,,,,,,,,,,,,
121,4812624,1745473411649,0.0,131.0,,-0.08,0.1,1.06,1.0,0.0,0.0,1.07,1.24,86.0,5077.0,0.0,1.66,,10.18,1.251,86.2,,36.2,5.0,,,,,,,,,,,,0,0,0,0,0,0,0,0,0,0,0,0,0,0,0,0,,,,,,0.0,,,,,,,
122,4812644,1745473411669,,,,,,,,,,,,,,,,,,,,,,,,,,,,,,,,,,0,0,0,0,0,0,0,0,0,0,0,0,0,0,0,0,,,,,,,,,,,,,
123,4812664,1745473411689,0.0,131.0,,-0.12,0.16,1.11,1.0,0.0,0.0,1.13,1.24,91.0,4727.0,3.6,2.16,,10.5,1.251,86.2,,36.2,5.0,,,,,,,,,,,,0,0,0,0,0,0,0,0,0,0,0,0,0,0,0,0,,,,,,0.0,,,,,,,
124,4812684,1745473411710,,,,,,,,,,,,,,,,,,,,,,,0.0,0.0,0.0,0.0,7.0,0.0,0.0,0.0,2.27,,,0,0,0,0,0,0,0,0,0,0,0,0,0,0,0,0,,0.0,,,,,38.994102,-76.939652,0.09,26.4,32.0,3.0,0.9
125,4812704,1745473411730,0.0,130.0,,-0.15,0.21,1.2,2.0,0.0,0.0,1.23,1.24,99.0,4375.0,14.2,3.84,,11.65,1.251,86.2,,36.2,5.0,,,,,,,,,,,,0,0,0,0,0,0,0,0,0,0,0,0,0,0,0,0,,,,,,0.0,,,,,,,
126,4812724,1745473411750,,,,,,,,,,,,,,,,,,,,,,,,,,,,,,,,,,0,0,0,0,0,0,0,0,0,0,0,0,0,0,0,0,,,,,,,,,,,,,
127,4812744,1745473411770,0.0,131.0,,-0.14,0.18,1.13,2.0,0.0,0.0,1.15,1.24,93.0,4220.0,22.9,4.28,,11.65,1.251,86.2,,31.1,5.0,,,,,,,,,,,,0,0,0,0,0,0,0,0,0,0,0,0,0,0,0,0,,,,,,0.0,,,,,,,
128,4812764,1745473411790,,,,,,,,,,,,,,,,,,,,,,,,,,,,,,,,,,0,0,0,0,0,0,0,0,0,0,0,0,0,0,0,0,,,,,,,,,,,,,
129,4812784,1745473411810,0.0,130.0,,-0.1,0.08,1.04,0.0,0.0,0.0,1.05,1.24,85.0,4220.0,22.9,4.28,,12.91,1.25,86.2,,31.1,5.0,0.0,0.0,0.0,0.0,7.0,0.0,0.0,0.0,2.26,,,0,0,0,0,0,0,0,0,0,0,0,0,0,0,0,0,,0.0,,,,0.0,38.994102,-76.939652,0.05,26.4,32.0,3.0,0.9
130,4812804,1745473411830,,,,,,,,,,,,,,,,,,,,,,,,,,,,,,,,,,0,0,0,0,0,0,0,0,0,0,0,0,0,0,0,0,,,,,,,,,,,,,
131,4812824,1745473411850,0.0,131.0,,-0.11,0.03,1.01,-1.0,0.0,0.0,1.01,1.24,82.0,4315.0,29.1,4.67,,13.73,1.25,86.2,,31.3,5.0,,,,,,,,,,,,0,0,0,0,0,0,0,0,0,0,0,0,0,0,0,0,,,,,,0.0,,,,,,,
132,4812844,1745473411870,,,,,,,,,,,,,,,,,,,,,,,,,,,,,,,,,,0,0,0,0,0,0,0,0,0,0,0,0,0,0,0,0,,,,,,,,,,,,,
133,4812864,1745473411890,0.0,131.0,,-0.11,-0.0,0.94,-2.0,0.0,0.0,0.94,1.24,76.0,4494.0,31.7,5.02,,13.94,1.248,86.2,,31.3,5.0,,,,,,,,,,,,0,0,0,0,0,0,0,0,0,0,0,0,0,0,0,0,,,,,,0.0,,,,,,,
134,4812884,1745473411910,,,,,,,,,,,,,,,,,,,,,,,0.0,0.0,0.0,0.0,7.0,0.0,0.0,0.0,2.27,,,0,0,0,0,0,0,0,0,0,0,0,0,0,0,0,0,,0.0,,,,,38.994102,-76.939652,0.0,26.4,32.0,3.0,0.9
135,4812904,1745473411930,0.0,130.0,,-0.09,0.06,0.95,-1.0,0.0,0.0,0.95,1.24,77.0,4803.0,32.1,5.04,,13.91,1.248,86.2,,31.3,5.0,,,,,,,,,,,,0,0,0,0,0,0,0,0,0,0,0,0,0,0,0,0,,,,,,0.0,,,,,,,
136,4812924,1745473411950,,,,,,,,,,,,,,,,,,,,,,,,,,,,,,,,,,0,0,0,0,0,0,0,0,0,0,0,0,0,0,0,0,,,,,,,,,,,,,
137,4812944,1745473411970,0.0,131.0,,-0.09,0.03,0.95,-1.0,0.0,0.0,0.96,1.24,77.0,5148.0,32.1,5.08,,13.91,1.248,86.2,,35.5,5.0,,,,,,,,,,,,0,0,0,0,0,0,0,0,0,0,0,0,0,0,0,0,,,,,,0.0,,,,,,,
138,4812964,1745473411990,,,,,,,,,,,,,,,,,,,,,,,,,,,,,,,,,,0,0,0,0,0,0,0,0,0,0,0,0,0,0,0,0,,,,,,,,,,,,,
139,4812984,1745473412010,0.0,131.0,,-0.1,0.0,0.95,-1.0,0.0,0.0,0.96,1.24,77.0,5148.0,32.1,5.08,,13.73,1.248,86.2,,35.5,5.0,0.0,0.0,0.0,0.0,7.0,0.0,0.0,0.0,2.27,,,0,0,0,0,0,0,0,0,0,0,0,0,0,0,0,0,,0.0,,,,0.0,38.994102,-76.939652,0.0,26.4,32.0,3.0,0.9
140,4813004,1745473412020,,,,,,,,,,,,,,,,,,,,,,,,,,,,,,,,,,0,0,0,0,0,0,0,0,0,0,0,0,0,0,0,0,,,,,,,,,,,,,
141,4813024,1745473412040,0.0,131.0,,-0.1,0.06,1.04,0.0,0.0,0.0,1.05,1.24,85.0,5620.0,32.2,5.09,,13.64,1.248,86.2,,42.6,5.0,,,,,,,,,,,,0,0,0,0,0,0,0,0,0,0,0,0,0,0,0,0,,,,,,0.0,,,,,,,
142,4813044,1745473412060,,,,,,,,,,,,,,,,,,,,,,,,,,,,,,,,,,0,0,0,0,0,0,0,0,0,0,0,0,0,0,0,0,,,,,,,,,,,,,
143,4813064,1745473412080,0.0,131.0,,-0.12,0.08,1.04,0.0,0.0,0.0,1.05,1.24,85.0,6142.0,32.2,5.12,,13.33,1.246,86.2,,42.6,5.0,,,,,,,,,,,,0,0,0,0,0,0,0,0,0,0,0,0,0,0,0,0,,,,,,0.0,,,,,,,
144,4813084,1745473412106,,,,,,,,,,,,,,,,,,,,,,,0.0,0.0,0.0,0.0,7.0,0.0,0.0,0.0,2.27,,,0,0,0,0,0,0,0,0,0,0,0,0,0,0,0,0,,0.0,,,,,38.994102,-76.939652,0.0,26.4,32.0,3.0,0.9
145,4813104,1745473412126,0.0,130.0,,-0.14,0.04,1.04,-1.0,0.0,0.0,1.05,1.24,84.0,6652.0,32.4,5.09,,13.2,1.19,86.2,,42.6,5.0,,,,,,,,,,,,0,0,0,0,0,0,0,0,0,0,0,0,0,0,0,0,,,,,,0.0,,,,,,,
146,4813124,1745473412146,,,,,,,,,,,,,,,,,,,,,,,,,,,,,,,,,,0,0,0,0,0,0,0,0,0,0,0,0,0,0,0,0,,,,,,,,,,,,,
147,4813144,1745473412166,0.0,130.0,,-0.14,0.12,1.07,0.0,0.0,1.0,1.08,1.24,87.0,7307.0,32.7,5.01,,13.2,1.19,86.2,,44.4,5.0,,,,,,,,,,,,0,0,0,0,0,0,0,0,0,0,0,0,0,0,0,0,,,,,,0.0,,,,,,,
148,4813164,1745473412186,,,,,,,,,,,,,,,,,,,,,,,,,,,,,,,,,,0,0,0,0,0,0,0,0,0,0,0,0,0,0,0,0,,,,,,,,,,,,,
149,4813184,1745473412210,0.0,130.0,,-0.12,0.07,1.04,0.0,0.0,0.0,1.05,1.24,85.0,7307.0,32.7,5.01,,12.88,1.202,86.2,,44.4,5.0,0.0,0.0,0.0,0.0,7.0,0.0,0.0,0.0,2.26,,,0,0,0,0,0,0,0,0,0,0,0,0,0,0,0,0,,0.0,,,,0.0,38.994102,-76.939652,0.04,26.4,32.0,3.0,0.9
150,4813204,1745473412230,,,,,,,,,,,,,,,,,,,,,,,,,,,,,,,,,,0,0,0,0,0,0,0,0,0,0,0,0,0,0,0,0,,,,,,,,,,,,,
151,4813224,1745473412250,0.0,130.0,,-0.14,-0.28,1.06,0.0,0.0,0.0,1.11,1.24,89.0,8431.0,33.6,4.82,,12.56,1.104,86.2,,46.8,5.0,,,,,,,,,,,,0,0,0,0,0,0,0,0,0,0,0,0,0,0,0,0,,,,,,0.0,,,,,,,
152,4813244,1745473412270,,,,,,,,,,,,,,,,,,,,,,,,,,,,,,,,,,0,0,0,0,0,0,0,0,0,0,0,0,0,0,0,0,,,,,,,,,,,,,
153,4813264,1745473412290,0.0,131.0,,-0.1,-0.03,1.01,0.0,0.0,0.0,1.01,1.24,82.0,9900.0,33.7,5.1,,11.81,1.014,86.2,,46.8,5.0,,,,,,,,,,,,0,0,0,0,0,0,0,0,0,0,0,0,0,0,0,0,,,,,,0.0,,,,,,,
154,4813284,1745473412309,,,,,,,,,,,,,,,,,,,,,,,0.0,0.0,0.0,0.0,7.0,0.0,0.0,0.0,2.26,,,0,0,0,0,0,0,0,0,0,0,0,0,0,0,0,0,,0.0,,,,,38.994102,-76.939652,0.04,26.4,32.0,3.0,0.9
155,4813304,1745473412329,0.0,131.0,,-0.08,-0.07,1.0,-1.0,0.0,0.0,1.01,1.24,81.0,11514.0,33.6,3.89,,11.44,0.92,86.2,,46.8,5.0,,,,,,,,,,,,0,0,0,0,0,0,0,0,0,0,0,0,0,0,0,0,,,,,,0.0,,,,,,,
156,4813324,1745473412349,,,,,,,,,,,,,,,,,,,,,,,,,,,,,,,,,,0,0,0,0,0,0,0,0,0,0,0,0,0,0,0,0,,,,,,,,,,,,,
157,4813344,1745473412369,0.0,130.0,,-0.09,-0.17,0.97,-1.0,0.0,0.0,0.99,1.24,80.0,12493.0,33.6,3.35,,11.44,0.92,86.2,,51.1,5.0,,,,,,,,,,,,0,0,0,0,0,0,0,0,0,0,0,0,0,0,0,0,,,,,,0.0,,,,,,,
158,4813364,1745473412389,,,,,,,,,,,,,,,,,,,,,,,,,,,,,,,,,,0,0,0,0,0,0,0,0,0,0,0,0,0,0,0,0,,,,,,,,,,,,,
159,4813384,1745473412410,0.0,130.0,13.23,-0.09,-0.1,0.89,-1.0,-1.0,-1.0,0.9,1.24,73.0,12493.0,33.6,3.35,15.0,10.73,0.86,86.2,173.0,51.1,5.0,0.0,0.0,0.0,0.0,7.0,0.0,0.0,0.0,2.26,0.0,1.0,0,0,0,0,0,0,0,0,0,0,0,0,0,0,0,0,0.0,0.0,1.0,0.0,0.0,0.0,38.994102,-76.939652,0.05,26.4,32.0,3.0,0.9
160,4813404,1745473412430,,,,,,,,,,,,,,,,,,,,,,,,,,,,,,,,,,0,0,0,0,0,0,0,0,0,0,0,0,0,0,0,0,,,,,,,,,,,,,
161,4813424,1745473412450,0.0,130.0,,-0.06,-0.13,0.94,1.0,-1.0,-1.0,0.95,1.24,77.0,13066.0,33.5,2.74,,10.33,0.903,86.2,,62.7,5.0,,,,,,,,,,,,0,0,0,0,0,0,0,0,0,0,0,0,0,0,0,0,,,,,,0.0,,,,,,,
162,4813444,1745473412470,,,,,,,,,,,,,,,,,,,,,,,,,,,,,,,,,,0,0,0,0,0,0,0,0,0,0,0,0,0,0,0,0,,,,,,,,,,,,,
163,4813464,1745473412490,0.0,130.0,,-0.04,-0.1,0.92,-1.0,-1.0,0.0,0.93,1.24,75.0,12934.0,33.3,2.68,,10.18,1.023,86.2,,62.7,5.0,,,,,,,,,,,,0,0,0,0,0,0,0,0,0,0,0,0,0,0,0,0,,,,,,0.0,,,,,,,
164,4813484,1745473412510,,,,,,,,,,,,,,,,,,,,,,,0.0,0.0,0.0,0.0,7.0,0.0,0.0,0.0,2.27,,,0,0,0,0,0,0,0,0,0,0,0,0,0,0,0,0,,0.0,,,,,38.994102,-76.939652,0.05,26.4,32.0,3.0,0.9
165,4813504,1745473412530,0.0,130.0,,-0.08,-0.16,0.94,-1.0,-1.0,0.0,0.96,1.24,77.0,12626.0,33.3,2.78,,10.29,1.244,86.2,,62.7,5.0,,,,,,,,,,,,0,0,0,0,0,0,0,0,0,0,0,0,0,0,0,0,,,,,,0.0,,,,,,,
166,4813524,1745473412550,,,,,,,,,,,,,,,,,,,,,,,,,,,,,,,,,,0,0,0,0,0,0,0,0,0,0,0,0,0,0,0,0,,,,,,,,,,,,,
167,4813544,1745473412570,0.0,130.0,,-0.09,0.0,0.84,0.0,-1.0,0.0,0.85,1.24,68.0,12221.0,33.3,2.78,,10.29,1.244,86.2,,57.2,5.0,,,,,,,,,,,,0,0,0,0,0,0,0,0,0,0,0,0,0,0,0,0,,,,,,0.0,,,,,,,
168,4813564,1745473412590,,,,,,,,,,,,,,,,,,,,,,,,,,,,,,,,,,0,0,0,0,0,0,0,0,0,0,0,0,0,0,0,0,,,,,,,,,,,,,
169,4813584,1745473412610,0.0,130.0,,-0.1,0.02,0.74,0.0,-1.0,0.0,0.75,1.24,60.0,12221.0,33.3,2.78,,10.32,1.249,86.2,,57.2,5.0,0.0,0.0,0.0,0.0,7.0,0.0,0.0,0.0,2.27,,,0,0,0,0,0,0,0,0,0,0,0,0,0,0,0,0,,0.0,,,,0.0,38.994102,-76.939652,0.04,26.4,32.0,3.0,0.9
170,4813604,1745473412630,,,,,,,,,,,,,,,,,,,,,,,,,,,,,,,,,,0,0,0,0,0,0,0,0,0,0,0,0,0,0,0,0,,,,,,,,,,,,,
171,4813624,1745473412650,0.0,130.0,,-0.08,0.08,0.81,1.0,-1.0,0.0,0.82,1.24,66.0,11804.0,33.3,2.84,,10.52,1.249,86.2,,55.2,5.0,,,,,,,,,,,,0,0,0,0,0,0,0,0,0,0,0,0,0,0,0,0,,,,,,0.0,,,,,,,
172,4813644,1745473412670,,,,,,,,,,,,,,,,,,,,,,,,,,,,,,,,,,0,0,0,0,0,0,0,0,0,0,0,0,0,0,0,0,,,,,,,,,,,,,
173,4813664,1745473412690,0.0,130.0,,-0.09,0.08,0.8,0.0,-1.0,0.0,0.8,1.24,65.0,11312.0,33.5,2.95,,10.62,1.25,86.2,,55.2,5.0,,,,,,,,,,,,0,0,0,0,0,0,0,0,0,0,0,0,0,0,0,0,,,,,,0.0,,,,,,,
174,4813684,1745473412709,,,,,,,,,,,,,,,,,,,,,,,0.0,0.0,0.0,0.0,7.0,0.0,0.0,0.0,2.27,,,0,0,0,0,0,0,0,0,0,0,0,0,0,0,0,0,,0.0,,,,,38.994102,-76.939652,0.0,26.4,32.0,3.0,0.9
175,4813704,1745473412729,0.0,130.0,,-0.1,-0.0,0.85,0.0,-1.0,0.0,0.86,1.24,69.0,10938.0,42.8,4.08,,11.45,1.25,86.2,,55.2,5.0,,,,,,,,,,,,0,0,0,0,0,0,0,0,0,0,0,0,0,0,0,0,,,,,,0.0,,,,,,,
176,4813724,1745473412749,,,,,,,,,,,,,,,,,,,,,,,,,,,,,,,,,,0,0,0,0,0,0,0,0,0,0,0,0,0,0,0,0,,,,,,,,,,,,,
177,4813744,1745473412769,0.0,130.0,,-0.03,-0.02,0.83,0.0,0.0,0.0,0.83,1.24,67.0,11100.0,62.7,4.49,,11.45,1.25,86.2,,56.9,5.0,,,,,,,,,,,,0,0,0,0,0,0,0,0,0,0,0,0,0,0,0,0,,,,,,0.0,,,,,,,
178,4813764,1745473412789,,,,,,,,,,,,,,,,,,,,,,,,,,,,,,,,,,0,0,0,0,0,0,0,0,0,0,0,0,0,0,0,0,,,,,,,,,,,,,
179,4813784,1745473412809,0.0,129.0,,0.07,0.07,0.85,0.0,1.0,1.0,0.86,1.24,69.0,11100.0,62.7,4.49,,12.84,1.25,86.2,,56.9,5.0,0.0,0.0,0.0,0.0,7.0,0.0,0.0,0.0,2.26,,,0,0,0,0,0,0,0,0,0,0,0,0,0,0,0,0,,0.0,,,,0.0,38.994102,-76.939652,0.08,26.4,32.0,3.0,0.9
180,4813804,1745473412829,,,,,,,,,,,,,,,,,,,,,,,,,,,,,,,,,,0,0,0,0,0,0,0,0,0,0,0,0,0,0,0,0,,,,,,,,,,,,,
181,4813824,1745473412849,0.0,130.0,,0.17,-0.08,0.89,0.0,1.0,0.0,0.91,1.24,73.0,10496.0,77.6,5.08,,13.4,1.248,86.2,,50.1,5.0,,,,,,,,,,,,0,0,0,0,0,0,0,0,0,0,0,0,0,0,0,0,,,,,,0.0,,,,,,,
182,4813844,1745473412869,,,,,,,,,,,,,,,,,,,,,,,,,,,,,,,,,,0,0,0,0,0,0,0,0,0,0,0,0,0,0,0,0,,,,,,,,,,,,,
183,4813864,1745473412889,0.0,130.0,,0.21,-0.02,0.9,-1.0,1.0,1.0,0.92,1.24,75.0,9603.0,87.2,5.95,,13.71,1.247,86.2,,50.1,5.0,,,,,,,,,,,,0,0,0,0,0,0,0,0,0,0,0,0,0,0,0,0,,,,,,0.0,,,,,,,
184,4813884,1745473412909,,,,,,,,,,,,,,,,,,,,,,,0.0,0.0,9.0,7.0,7.0,0.0,0.0,0.0,2.26,,,0,0,0,0,0,0,0,0,0,0,0,0,0,0,0,0,,0.0,,,,,38.994102,-76.939652,1.83,26.4,32.0,3.0,0.9
185,4813904,1745473412929,0.0,130.0,,0.23,0.01,0.84,-3.0,1.0,1.0,0.87,1.24,70.0,9076.0,99.4,6.16,,13.8,1.147,86.2,,50.1,5.0,,,,,,,,,,,,0,0,0,0,0,0,0,0,0,0,0,0,0,0,0,0,,,,,,0.0,,,,,,,
186,4813924,1745473412949,,,,,,,,,,,,,,,,,,,,,,,,,,,,,,,,,,0,0,0,0,0,0,0,0,0,0,0,0,0,0,0,0,,,,,,,,,,,,,
187,4813944,1745473412969,0.0,130.0,,0.25,0.03,0.89,-2.0,0.0,0.0,0.93,1.24,75.0,9857.0,99.4,6.06,,13.8,1.147,86.2,,48.6,5.0,,,,,,,,,,,,0,0,0,0,0,0,0,0,0,0,0,0,0,0,0,0,,,,,,0.0,,,,,,,
188,4813964,1745473412989,,,,,,,,,,,,,,,,,,,,,,,,,,,,,,,,,,0,0,0,0,0,0,0,0,0,0,0,0,0,0,0,0,,,,,,,,,,,,,
189,4813984,1745473413003,0.0,130.0,,0.29,-0.3,0.84,-1.0,0.0,-1.0,0.94,1.24,76.0,9857.0,99.4,6.06,,13.87,1.041,86.2,,48.6,5.0,3.0,0.0,27.0,26.0,7.0,0.0,0.0,0.0,2.27,,,0,0,0,0,0,0,0,0,0,0,0,0,0,0,0,0,,0.0,,,,0.0,38.994102,-76.939644,4.88,26.4,32.0,3.0,0.9
190,4814004,1745473413023,,,,,,,,,,,,,,,,,,,,,,,,,,,,,,,,,,0,0,0,0,0,0,0,0,0,0,0,0,0,0,0,0,,,,,,,,,,,,,
191,4814024,1745473413043,0.0,129.0,,0.32,-0.14,0.84,-1.0,0.0,-1.0,0.92,1.24,74.0,10605.0,99.5,5.79,,13.69,0.977,86.2,,55.9,5.0,,,,,,,,,,,,0,0,0,0,0,0,0,0,0,0,0,0,0,0,0,0,,,,,,0.0,,,,,,,
192,4814044,1745473413063,,,,,,,,,,,,,,,,,,,,,,,,,,,,,,,,,,0,0,0,0,0,0,0,0,0,0,0,0,0,0,0,0,,,,,,,,,,,,,
193,4814064,1745473413083,0.0,130.0,,0.36,-0.31,0.8,-1.0,0.0,-1.0,0.93,1.24,75.0,11094.0,99.4,5.53,,13.68,0.939,86.2,,55.9,5.0,,,,,,,,,,,,0,0,0,0,0,0,0,0,0,0,0,0,0,0,0,0,,,,,,0.0,,,,,,,
194,4814084,1745473413111,,,,,,,,,,,,,,,,,,,,,,,4.0,0.0,34.0,32.0,7.0,0.0,0.0,0.0,2.27,,,0,0,0,0,0,0,0,0,0,0,0,0,0,0,0,0,,1.0,,,,,38.994102,-76.939644,7.61,26.4,32.0,3.0,0.9
195,4814104,1745473413131,0.0,130.0,,0.36,-0.25,0.86,0.0,0.0,-1.0,0.97,1.24,78.0,11430.0,99.5,5.4,,13.59,0.923,86.2,,55.9,5.0,,,,,,,,,,,,0,0,0,0,0,0,0,0,0,0,0,0,0,0,0,0,,,,,,0.0,,,,,,,
196,4814124,1745473413151,,,,,,,,,,,,,,,,,,,,,,,,,,,,,,,,,,0,0,0,0,0,0,0,0,0,0,0,0,0,0,0,0,,,,,,,,,,,,,
197,4814144,1745473413171,0.0,126.0,,0.41,-0.55,0.84,-3.0,0.0,-3.0,1.08,1.24,87.0,11854.0,99.4,5.25,,13.59,0.923,86.2,,57.9,5.0,,,,,,,,,,,,0,0,0,0,0,0,0,0,0,0,0,0,0,0,0,0,,,,,,0.0,,,,,,,
198,4814164,1745473413191,,,,,,,,,,,,,,,,,,,,,,,,,,,,,,,,,,0,0,0,0,0,0,0,0,0,0,0,0,0,0,0,0,,,,,,,,,,,,,
199,4814184,1745473413211,0.0,128.0,,0.45,-0.6,0.81,-3.0,0.0,-4.0,1.1,1.24,89.0,11854.0,99.4,5.25,,13.49,0.924,86.2,,57.9,5.0,6.0,0.0,36.0,34.0,7.0,0.0,0.0,0.0,2.26,,,0,0,0,0,0,0,0,0,0,0,0,0,0,0,0,0,,1.0,,,,0.0,38.994102,-76.939644,10.36,26.4,32.0,3.0,0.9
200,4814204,1745473413231,,,,,,,,,,,,,,,,,,,,,,,,,,,,,,,,,,0,0,0,0,0,0,0,0,0,0,0,0,0,0,0,0,,,,,,,,,,,,,
201,4814224,1745473413251,0.0,127.0,,0.48,-0.71,0.88,-4.0,0.0,-4.0,1.22,1.24,99.0,12129.0,99.5,5.14,,13.32,0.932,86.2,,59.1,5.0,,,,,,,,,,,,0,0,0,0,0,0,0,0,0,0,0,0,0,0,0,0,,,,,,0.0,,,,,,,
202,4814244,1745473413271,,,,,,,,,,,,,,,,,,,,,,,,,,,,,,,,,,0,0,0,0,0,0,0,0,0,0,0,0,0,0,0,0,,,,,,,,,,,,,
203,4814264,1745473413291,0.0,128.0,,0.46,-0.64,0.88,-5.0,0.0,-3.0,1.18,1.24,95.0,12116.0,99.5,5.15,,13.4,0.977,84.4,,59.1,5.0,,,,,,,,,,,,0,0,0,0,0,0,0,0,0,0,0,0,0,0,0,0,,,,,,0.0,,,,,,,
204,4814284,1745473413311,,,,,,,,,,,,,,,,,,,,,,,7.0,0.0,36.0,36.0,7.0,252.0,50.0,0.0,2.26,,,0,0,0,0,0,0,0,0,0,0,0,0,0,0,0,0,,1.0,,,,,38.994102,-76.939636,12.71,26.4,32.0,3.0,0.9
205,4814304,1745473413331,0.0,130.0,,0.51,-0.45,0.93,-7.0,0.0,-3.0,1.15,1.24,92.0,12139.0,99.5,5.13,,13.33,0.998,84.4,,59.1,5.0,,,,,,,,,,,,0,0,0,0,0,0,0,0,0,0,0,0,0,0,0,0,,,,,,0.0,,,,,,,
206,4814324,1745473413351,,,,,,,,,,,,,,,,,,,,,,,,,,,,,,,,,,0,0,0,0,0,0,0,0,0,0,0,0,0,0,0,0,,,,,,,,,,,,,
207,4814344,1745473413371,0.0,130.0,,0.58,-0.22,0.91,-6.0,-1.0,-3.0,1.1,1.24,89.0,12109.0,99.5,5.14,,13.33,0.998,84.4,,61.9,5.0,,,,,,,,,,,,0,0,0,0,0,0,0,0,0,0,0,0,0,0,0,0,,,,,,0.0,,,,,,,
208,4814364,1745473413391,,,,,,,,,,,,,,,,,,,,,,,,,,,,,,,,,,0,0,0,0,0,0,0,0,0,0,0,0,0,0,0,0,,,,,,,,,,,,,
209,4814384,1745473413411,0.0,130.0,13.32,0.57,-0.37,0.93,-3.0,-1.0,-3.0,1.15,1.24,93.0,12109.0,99.5,5.14,15.0,13.35,0.972,84.4,173.0,61.9,5.0,9.0,0.0,38.0,37.0,7.0,25.0,50.0,0.0,2.26,0.0,1.0,0,0,0,0,0,0,0,0,0,0,0,0,0,0,0,0,0.0,1.0,1.0,0.0,0.0,0.0,38.994102,-76.939629,15.78,26.4,32.0,3.0,0.9
210,4814404,1745473413431,,,,,,,,,,,,,,,,,,,,,,,,,,,,,,,,,,0,0,0,0,0,0,0,0,0,0,0,0,0,0,0,0,,,,,,,,,,,,,
211,4814424,1745473413451,0.0,129.0,,0.58,-0.4,0.88,-2.0,-1.0,-3.0,1.13,1.24,91.0,12181.0,99.4,5.12,,13.32,0.976,84.4,,62.8,5.0,,,,,,,,,,,,0,0,0,0,0,0,0,0,0,0,0,0,0,0,0,0,,,,,,0.0,,,,,,,
212,4814444,1745473413471,,,,,,,,,,,,,,,,,,,,,,,,,,,,,,,,,,0,0,0,0,0,0,0,0,0,0,0,0,0,0,0,0,,,,,,,,,,,,,
213,4814464,1745473413491,0.0,130.0,,0.5,-0.25,0.89,-1.0,-1.0,-2.0,1.05,1.24,85.0,12195.0,99.5,5.1,,13.4,0.982,84.4,,62.8,5.0,,,,,,,,,,,,0,0,0,0,0,0,0,0,0,0,0,0,0,0,0,0,,,,,,0.0,,,,,,,
214,4814484,1745473413511,,,,,,,,,,,,,,,,,,,,,,,11.0,0.0,37.0,36.0,7.0,29.0,50.0,0.0,2.27,,,0,0,0,0,0,0,0,0,0,0,0,0,0,0,0,0,,1.0,,,,,38.994102,-76.939621,18.53,26.4,32.0,3.0,0.9
215,4814504,1745473413531,0.0,130.0,,0.48,-0.3,0.82,0.0,-1.0,-1.0,0.99,1.24,80.0,12064.0,99.5,5.15,,13.41,0.989,84.4,,62.8,5.0,,,,,,,,,,,,0,0,0,0,0,0,0,0,0,0,0,0,0,0,0,0,,,,,,0.0,,,,,,,
216,4814524,1745473413551,,,,,,,,,,,,,,,,,,,,,,,,,,,,,,,,,,0,0,0,0,0,0,0,0,0,0,0,0,0,0,0,0,,,,,,,,,,,,,
217,4814544,1745473413571,0.0,130.0,,0.48,-0.18,0.74,1.0,0.0,0.0,0.9,1.24,72.0,11945.0,99.4,5.19,,13.41,0.989,84.4,,62.1,5.0,,,,,,,,,,,,0,0,0,0,0,0,0,0,0,0,0,0,0,0,0,0,,,,,,0.0,,,,,,,
218,4814564,1745473413591,,,,,,,,,,,,,,,,,,,,,,,,,,,,,,,,,,0,0,0,0,0,0,0,0,0,0,0,0,0,0,0,0,,,,,,,,,,,,,
219,4814584,1745473413611,0.0,130.0,,0.47,-0.14,0.67,2.0,0.0,0.0,0.83,1.24,67.0,11945.0,99.4,5.19,,13.45,0.976,84.4,,62.1,5.0,13.0,0.0,36.0,35.0,7.0,86.0,50.0,0.0,2.27,,,0,0,0,0,0,0,0,0,0,0,0,0,0,0,0,0,,1.0,,,,0.0,38.994102,-76.939621,21.55,26.4,32.0,3.0,0.9
220,4814604,1745473413631,,,,,,,,,,,,,,,,,,,,,,,,,,,,,,,,,,0,0,0,0,0,0,0,0,0,0,0,0,0,0,0,0,,,,,,,,,,,,,
221,4814624,1745473413651,0.0,128.0,,0.46,-0.05,0.62,4.0,0.0,1.0,0.78,1.24,63.0,11984.0,99.5,5.18,,13.44,0.99,84.4,,60.7,5.0,,,,,,,,,,,,0,0,0,0,0,0,0,0,0,0,0,0,0,0,0,0,,,,,,0.0,,,,,,,
222,4814644,1745473413671,,,,,,,,,,,,,,,,,,,,,,,,,,,,,,,,,,0,0,0,0,0,0,0,0,0,0,0,0,0,0,0,0,,,,,,,,,,,,,
223,4814664,1745473413691,0.0,130.0,,0.49,-0.17,0.62,4.0,0.0,0.0,0.81,1.24,66.0,11814.0,99.4,5.23,,13.44,0.969,84.4,,60.7,5.0,,,,,,,,,,,,0,0,0,0,0,0,0,0,0,0,0,0,0,0,0,0,,,,,,0.0,,,,,,,
224,4814684,1745473413712,,,,,,,,,,,,,,,,,,,,,,,15.0,0.0,36.0,36.0,7.0,135.0,50.0,0.0,2.26,,,0,0,0,0,0,0,0,0,0,0,0,0,0,0,0,0,,1.0,,,,,38.994102,-76.939613,24.55,26.4,31.0,3.0,0.9
225,4814704,1745473413732,0.0,130.0,,0.51,0.01,0.72,5.0,0.0,1.0,0.88,1.24,71.0,11752.0,99.5,5.27,,13.45,0.954,84.4,,60.7,5.0,,,,,,,,,,,,0,0,0,0,0,0,0,0,0,0,0,0,0,0,0,0,,,,,,0.0,,,,,,,
226,4814724,1745473413752,,,,,,,,,,,,,,,,,,,,,,,,,,,,,,,,,,0,0,0,0,0,0,0,0,0,0,0,0,0,0,0,0,,,,,,,,,,,,,
227,4814744,1745473413772,0.0,130.0,,0.54,0.2,0.74,4.0,0.0,0.0,0.94,1.24,75.0,11761.0,99.4,5.27,,13.45,0.954,84.4,,61.8,5.0,,,,,,,,,,,,0,0,0,0,0,0,0,0,0,0,0,0,0,0,0,0,,,,,,0.0,,,,,,,
228,4814764,1745473413792,,,,,,,,,,,,,,,,,,,,,,,,,,,,,,,,,,0,0,0,0,0,0,0,0,0,0,0,0,0,0,0,0,,,,,,,,,,,,,
229,4814784,1745473413812,0.0,128.0,,0.54,0.14,0.8,4.0,0.0,0.0,0.97,1.24,78.0,11761.0,99.4,5.27,,13.52,0.954,84.4,,61.8,5.0,17.0,0.0,35.0,36.0,7.0,75.0,50.0,0.0,2.26,,,0,0,0,0,0,0,0,0,0,0,0,0,0,0,0,0,,1.0,,,,0.0,38.994102,-76.939606,28.12,26.4,31.0,3.0,0.9
230,4814804,1745473413832,,,,,,,,,,,,,,,,,,,,,,,,,,,,,,,,,,0,0,0,0,0,0,0,0,0,0,0,0,0,0,0,0,,,,,,,,,,,,,
231,4814824,1745473413852,0.0,129.0,,0.58,-0.11,0.83,4.0,0.0,0.0,1.02,1.24,82.0,11867.0,99.5,5.22,,13.44,0.958,84.4,,61.5,5.0,,,,,,,,,,,,0,0,0,0,0,0,0,0,0,0,0,0,0,0,0,0,,,,,,0.0,,,,,,,
232,4814844,1745473413872,,,,,,,,,,,,,,,,,,,,,,,,,,,,,,,,,,0,0,0,0,0,0,0,0,0,0,0,0,0,0,0,0,,,,,,,,,,,,,
233,4814864,1745473413892,0.0,130.0,,0.6,-0.3,0.84,0.0,-1.0,0.0,1.07,1.24,87.0,11851.0,99.5,5.23,,13.53,0.938,84.4,,61.5,5.0,,,,,,,,,,,,0,0,0,0,0,0,0,0,0,0,0,0,0,0,0,0,,,,,,0.0,,,,,,,
234,4814884,1745473413913,,,,,,,,,,,,,,,,,,,,,,,19.0,0.0,36.0,35.0,7.0,250.0,50.0,0.0,2.26,,,0,0,0,0,0,0,0,0,0,0,0,0,0,0,0,0,,1.0,,,,,38.994102,-76.939598,30.69,26.3,31.0,3.0,0.9
235,4814904,1745473413933,0.0,130.0,,0.61,-0.29,0.75,-1.0,-1.0,-1.0,1.01,1.24,82.0,11752.0,99.4,5.26,,13.4,0.945,84.4,,61.5,5.0,,,,,,,,,,,,0,0,0,0,0,0,0,0,0,0,0,0,0,0,0,0,,,,,,0.0,,,,,,,
236,4814924,1745473413953,,,,,,,,,,,,,,,,,,,,,,,,,,,,,,,,,,0,0,0,0,0,0,0,0,0,0,0,0,0,0,0,0,,,,,,,,,,,,,
237,4814944,1745473413973,0.0,130.0,,0.57,-0.33,0.84,0.0,-1.0,0.0,1.07,1.24,87.0,11633.0,99.5,5.27,,13.4,0.945,84.4,,59.6,5.0,,,,,,,,,,,,0,0,0,0,0,0,0,0,0,0,0,0,0,0,0,0,,,,,,0.0,,,,,,,
238,4814964,1745473413993,,,,,,,,,,,,,,,,,,,,,,,,,,,,,,,,,,0,0,0,0,0,0,0,0,0,0,0,0,0,0,0,0,,,,,,,,,,,,,
239,4814984,1745473414004,0.0,130.0,,0.55,-0.4,1.03,0.0,-1.0,1.0,1.23,1.24,99.0,11633.0,99.5,5.27,,13.39,0.949,84.4,,59.6,5.0,21.0,0.0,37.0,35.0,7.0,216.0,50.0,0.0,2.27,,,0,0,0,0,0,0,0,0,0,0,0,0,0,0,0,0,,1.0,,,,0.0,38.994102,-76.939583,34.09,26.3,31.0,3.0,0.9
240,4815004,1745473414024,,,,,,,,,,,,,,,,,,,,,,,,,,,,,,,,,,0,0,0,0,0,0,0,0,0,0,0,0,0,0,0,0,,,,,,,,,,,,,
241,4815024,1745473414044,0.0,130.0,,0.6,-0.24,1.09,-1.0,0.0,0.0,1.27,1.27,100.0,11863.0,99.4,5.24,,13.45,0.948,84.4,,59.7,5.0,,,,,,,,,,,,0,0,0,0,0,0,0,0,0,0,0,0,0,0,0,0,,,,,,0.0,,,,,,,
242,4815044,1745473414064,,,,,,,,,,,,,,,,,,,,,,,,,,,,,,,,,,0,0,0,0,0,0,0,0,0,0,0,0,0,0,0,0,,,,,,,,,,,,,
243,4815064,1745473414084,0.0,129.0,,0.67,-0.02,1.1,0.0,0.0,1.0,1.29,1.29,100.0,11955.0,99.5,5.17,,13.36,0.932,84.4,,59.7,5.0,,,,,,,,,,,,0,0,0,0,0,0,0,0,0,0,0,0,0,0,0,0,,,,,,0.0,,,,,,,
244,4815084,1745473414110,,,,,,,,,,,,,,,,,,,,,,,23.0,0.0,34.0,36.0,7.0,129.0,48.0,0.0,2.27,,,0,0,0,0,0,0,0,0,0,0,0,0,0,0,0,0,,1.0,,,,,38.994106,-76.939575,36.27,26.3,31.0,3.0,0.9
245,4815104,1745473414130,0.0,129.0,,0.72,-0.18,1.09,-1.0,0.0,1.0,1.32,1.32,100.0,11485.0,99.4,5.34,,13.57,0.953,84.4,,59.7,5.0,,,,,,,,,,,,0,0,0,0,0,0,0,0,0,0,0,0,0,0,0,0,,,,,,0.0,,,,,,,
246,4815124,1745473414150,,,,,,,,,,,,,,,,,,,,,,,,,,,,,,,,,,0,0,0,0,0,0,0,0,0,0,0,0,0,0,0,0,,,,,,,,,,,,,
247,4815144,1745473414170,0.0,129.0,,0.72,-0.41,1.13,-1.0,1.0,0.0,1.4,1.4,100.0,11199.0,99.4,5.45,,13.57,0.953,84.4,,59.4,5.0,,,,,,,,,,,,0,0,0,0,0,0,0,0,0,0,0,0,0,0,0,0,,,,,,0.0,,,,,,,
248,4815164,1745473414190,,,,,,,,,,,,,,,,,,,,,,,,,,,,,,,,,,0,0,0,0,0,0,0,0,0,0,0,0,0,0,0,0,,,,,,,,,,,,,
249,4815184,1745473414210,0.0,129.0,,0.72,-0.51,1.05,-5.0,0.0,1.0,1.37,1.4,98.0,11199.0,99.4,5.45,,13.6,0.949,84.4,,59.4,5.0,24.0,0.0,32.0,34.0,7.0,12.0,30.0,0.0,2.26,,,0,0,0,0,0,0,0,0,0,0,0,0,0,0,0,0,,1.0,,,,0.0,38.994106,-76.93956,40.03,26.3,32.0,3.0,0.9
250,4815204,1745473414230,,,,,,,,,,,,,,,,,,,,,,,,,,,,,,,,,,0,0,0,0,0,0,0,0,0,0,0,0,0,0,0,0,,,,,,,,,,,,,
251,4815224,1745473414250,0.0,129.0,,0.72,-0.52,1.09,-8.0,0.0,2.0,1.4,1.4,100.0,11056.0,57.8,4.39,,13.2,0.954,84.4,,57.7,5.0,,,,,,,,,,,,0,0,0,0,0,0,0,0,0,0,0,0,0,0,0,0,,,,,,0.0,,,,,,,
252,4815244,1745473414270,,,,,,,,,,,,,,,,,,,,,,,,,,,,,,,,,,0,0,0,0,0,0,0,0,0,0,0,0,0,0,0,0,,,,,,,,,,,,,
253,4815264,1745473414290,0.0,128.0,,0.68,-0.68,1.02,-13.0,-1.0,3.0,1.4,1.4,100.0,10640.0,13.9,4.88,,10.56,0.981,82.6,,57.7,5.0,,,,,,,,,,,,0,0,0,0,0,0,0,0,0,0,0,0,0,0,0,0,,,,,,0.0,,,,,,,
254,4815284,1745473414312,,,,,,,,,,,,,,,,,,,,,,,25.0,28.0,31.0,31.0,7.0,198.0,21.0,0.0,2.26,,,0,0,0,0,0,0,0,0,0,0,0,0,0,0,0,0,,1.0,,,,,38.994106,-76.939545,44.22,26.3,32.0,3.0,0.9
255,4815304,1745473414332,0.0,128.0,,0.62,-0.86,1.09,-18.0,-2.0,3.0,1.52,1.52,100.0,10302.0,8.8,2.54,,8.87,0.935,82.6,,57.7,5.0,,,,,,,,,,,,0,0,0,0,0,0,0,0,0,0,0,0,0,0,0,0,,,,,,0.0,,,,,,,
256,4815324,1745473414352,,,,,,,,,,,,,,,,,,,,,,,,,,,,,,,,,,0,0,0,0,0,0,0,0,0,0,0,0,0,0,0,0,,,,,,,,,,,,,
257,4815344,1745473414372,0.0,128.0,,0.52,-0.64,1.11,-23.0,-2.0,4.0,1.38,1.52,91.0,10174.0,8.0,2.32,,8.87,0.935,82.6,,54.1,5.0,,,,,,,,,,,,0,0,0,0,0,0,0,0,0,0,0,0,0,0,0,0,,,,,,0.0,,,,,,,
258,4815364,1745473414392,,,,,,,,,,,,,,,,,,,,,,,,,,,,,,,,,,0,0,0,0,0,0,0,0,0,0,0,0,0,0,0,0,,,,,,,,,,,,,
259,4815384,1745473414412,0.0,125.0,13.41,0.44,-0.98,1.11,-26.0,-2.0,3.0,1.55,1.55,100.0,10174.0,8.0,2.32,15.0,7.91,0.851,82.6,173.0,54.1,5.0,27.0,29.0,29.0,33.0,7.0,84.0,0.0,0.0,2.26,0.0,1.0,0,0,0,0,0,0,0,0,0,0,0,0,0,0,0,0,0.0,0.0,1.0,0.0,0.0,0.0,38.994106,-76.939537,45.94,26.2,32.0,3.0,0.9
260,4815404,1745473414432,,,,,,,,,,,,,,,,,,,,,,,,,,,,,,,,,,0,0,0,0,0,0,0,0,0,0,0,0,0,0,0,0,,,,,,,,,,,,,
261,4815424,1745473414452,0.0,128.0,,0.36,-0.83,1.05,-30.0,-2.0,3.0,1.38,1.55,89.0,10062.0,4.5,1.86,,7.02,0.876,82.6,,52.3,5.0,,,,,,,,,,,,0,0,0,0,0,0,0,0,0,0,0,0,0,0,0,0,,,,,,0.0,,,,,,,
262,4815444,1745473414472,,,,,,,,,,,,,,,,,,,,,,,,,,,,,,,,,,0,0,0,0,0,0,0,0,0,0,0,0,0,0,0,0,,,,,,,,,,,,,
263,4815464,1745473414492,0.0,129.0,,0.29,-0.81,1.06,-32.0,-2.0,2.0,1.37,1.37,100.0,9892.0,2.8,1.4,,6.52,0.892,82.6,,52.3,5.0,,,,,,,,,,,,0,0,0,0,0,0,0,0,0,0,0,0,0,0,0,0,,,,,,0.0,,,,,,,
264,4815484,1745473414512,,,,,,,,,,,,,,,,,,,,,,,27.0,30.0,30.0,30.0,7.0,11.0,0.0,0.0,2.28,,,0,0,0,0,0,0,0,0,0,0,0,0,0,0,0,0,,1.0,,,,,38.994102,-76.939522,45.61,26.2,32.0,3.0,0.9
265,4815504,1745473414532,0.0,129.0,,0.22,-0.87,1.03,-34.0,-1.0,1.0,1.37,1.37,100.0,9627.0,2.4,1.4,,5.99,0.921,82.6,,52.3,5.0,,,,,,,,,,,,0,0,0,0,0,0,0,0,0,0,0,0,0,0,0,0,,,,,,0.0,,,,,,,
266,4815524,1745473414552,,,,,,,,,,,,,,,,,,,,,,,,,,,,,,,,,,0,0,0,0,0,0,0,0,0,0,0,0,0,0,0,0,,,,,,,,,,,,,
267,4815544,1745473414572,0.0,129.0,,0.18,-0.96,0.99,-34.0,-1.0,1.0,1.39,1.39,100.0,9361.0,2.3,1.4,,5.99,0.921,82.6,,49.0,5.0,,,,,,,,,,,,0,0,0,0,0,0,0,0,0,0,0,0,0,0,0,0,,,,,,0.0,,,,,,,
268,4815564,1745473414592,,,,,,,,,,,,,,,,,,,,,,,,,,,,,,,,,,0,0,0,0,0,0,0,0,0,0,0,0,0,0,0,0,,,,,,,,,,,,,
269,4815584,1745473414612,0.0,129.0,,0.12,-1.1,1.01,-34.0,0.0,0.0,1.5,1.5,100.0,9361.0,2.3,1.4,,5.8,1.006,82.6,,49.0,5.0,30.0,62.0,29.0,30.0,7.0,234.0,0.0,0.0,2.27,,,0,0,0,0,0,0,0,0,0,0,0,0,0,0,0,0,,0.0,,,,0.0,38.994102,-76.939499,45.98,26.2,32.0,3.0,0.9
270,4815604,1745473414632,,,,,,,,,,,,,,,,,,,,,,,,,,,,,,,,,,0,0,0,0,0,0,0,0,0,0,0,0,0,0,0,0,,,,,,,,,,,,,
271,4815624,1745473414652,0.0,129.0,,0.06,-1.13,1.0,-34.0,0.0,0.0,1.51,1.51,100.0,9153.0,2.8,1.4,,5.71,1.084,82.6,,48.7,5.0,,,,,,,,,,,,0,0,0,0,0,0,0,0,0,0,0,0,0,0,0,0,,,,,,0.0,,,,,,,
272,4815644,1745473414672,,,,,,,,,,,,,,,,,,,,,,,,,,,,,,,,,,0,0,0,0,0,0,0,0,0,0,0,0,0,0,0,0,,,,,,,,,,,,,
273,4815664,1745473414692,0.0,129.0,,-0.04,-1.05,1.04,-35.0,-1.0,0.0,1.48,1.51,98.0,8965.0,2.8,1.4,,5.74,1.149,82.6,,48.7,5.0,,,,,,,,,,,,0,0,0,0,0,0,0,0,0,0,0,0,0,0,0,0,,,,,,0.0,,,,,,,
274,4815684,1745473414713,,,,,,,,,,,,,,,,,,,,,,,27.0,29.0,27.0,30.0,7.0,216.0,0.0,0.0,2.27,,,0,0,0,0,0,0,0,0,0,0,0,0,0,0,0,0,,0.0,,,,,38.994095,-76.939491,45.13,26.1,32.0,3.0,0.9
275,4815704,1745473414733,0.0,128.0,,-0.11,-1.17,1.06,-37.0,-2.0,0.0,1.58,1.58,100.0,8912.0,3.0,1.4,,5.67,1.199,82.6,,48.7,5.0,,,,,,,,,,,,0,0,0,0,0,0,0,0,0,0,0,0,0,0,0,0,,,,,,0.0,,,,,,,
276,4815724,1745473414753,,,,,,,,,,,,,,,,,,,,,,,,,,,,,,,,,,0,0,0,0,0,0,0,0,0,0,0,0,0,0,0,0,,,,,,,,,,,,,
277,4815744,1745473414773,0.0,128.0,,-0.21,-1.44,1.04,-40.0,-2.0,1.0,1.79,1.79,100.0,8828.0,3.3,1.4,,5.67,1.199,82.6,,49.3,5.0,,,,,,,,,,,,0,0,0,0,0,0,0,0,0,0,0,0,0,0,0,0,,,,,,0.0,,,,,,,
278,4815764,1745473414793,,,,,,,,,,,,,,,,,,,,,,,,,,,,,,,,,,0,0,0,0,0,0,0,0,0,0,0,0,0,0,0,0,,,,,,,,,,,,,
279,4815784,1745473414811,0.0,128.0,,-0.31,-1.36,1.06,-43.0,-1.0,1.0,1.75,1.79,98.0,8828.0,3.3,1.4,,5.62,1.238,82.6,,49.3,5.0,26.0,30.0,24.0,30.0,7.0,4.0,0.0,0.0,2.27,,,0,0,0,0,0,0,0,0,0,0,0,0,0,0,0,0,,0.0,,,,0.0,38.994095,-76.939476,44.19,26.1,32.0,3.0,0.9
280,4815804,1745473414831,,,,,,,,,,,,,,,,,,,,,,,,,,,,,,,,,,0,0,0,0,0,0,0,0,0,0,0,0,0,0,0,0,,,,,,,,,,,,,
281,4815824,1745473414851,0.0,129.0,,-0.38,-1.46,1.05,-48.0,-1.0,1.0,1.84,1.84,100.0,8625.0,3.5,1.4,,5.71,1.25,82.6,,49.2,5.0,,,,,,,,,,,,0,0,0,0,0,0,0,0,0,0,0,0,0,0,0,0,,,,,,0.0,,,,,,,
282,4815844,1745473414871,,,,,,,,,,,,,,,,,,,,,,,,,,,,,,,,,,0,0,0,0,0,0,0,0,0,0,0,0,0,0,0,0,,,,,,,,,,,,,
283,4815864,1745473414891,0.0,129.0,,-0.48,-1.38,1.05,-51.0,0.0,1.0,1.8,1.84,98.0,8466.0,11.5,1.96,,6.39,1.249,82.6,,49.2,5.0,,,,,,,,,,,,0,0,0,0,0,0,0,0,0,0,0,0,0,0,0,0,,,,,,0.0,,,,,,,
284,4815884,1745473414913,,,,,,,,,,,,,,,,,,,,,,,24.0,28.0,24.0,27.0,7.0,176.0,0.0,0.0,2.26,,,0,0,0,0,0,0,0,0,0,0,0,0,0,0,0,0,,0.0,,,,,38.994091,-76.939461,41.73,26.1,32.0,3.0,0.9
285,4815904,1745473414933,0.0,129.0,,-0.52,-1.52,0.93,-53.0,-1.0,2.0,1.85,1.85,100.0,8667.0,16.1,2.43,,7.41,1.248,82.6,,49.2,5.0,,,,,,,,,,,,0,0,0,0,0,0,0,0,0,0,0,0,0,0,0,0,,,,,,0.0,,,,,,,
286,4815924,1745473414953,,,,,,,,,,,,,,,,,,,,,,,,,,,,,,,,,,0,0,0,0,0,0,0,0,0,0,0,0,0,0,0,0,,,,,,,,,,,,,
287,4815944,1745473414973,0.0,130.0,,-0.54,-1.35,0.93,-54.0,0.0,1.0,1.73,1.85,93.0,8895.0,16.9,2.68,,7.41,1.248,82.6,,49.4,5.0,,,,,,,,,,,,0,0,0,0,0,0,0,0,0,0,0,0,0,0,0,0,,,,,,0.0,,,,,,,
288,4815964,1745473414993,,,,,,,,,,,,,,,,,,,,,,,,,,,,,,,,,,0,0,0,0,0,0,0,0,0,0,0,0,0,0,0,0,,,,,,,,,,,,,
289,4815984,1745473415003,0.0,129.0,,-0.51,-1.11,0.93,-56.0,0.0,1.0,1.53,1.85,83.0,8895.0,16.9,2.68,,8.22,1.248,82.6,,49.4,5.0,24.0,29.0,24.0,28.0,7.0,197.0,0.0,0.0,2.27,,,0,0,0,0,0,0,0,0,0,0,0,0,0,0,0,0,,0.0,,,,0.0,38.994083,-76.939453,41.09,26.1,32.0,3.0,0.9
290,4816004,1745473415023,,,,,,,,,,,,,,,,,,,,,,,,,,,,,,,,,,0,0,0,0,0,0,0,0,0,0,0,0,0,0,0,0,,,,,,,,,,,,,
291,4816024,1745473415043,0.0,129.0,,-0.52,-1.24,0.95,-56.0,0.0,1.0,1.64,1.85,89.0,9211.0,17.5,2.87,,8.42,1.206,82.6,,49.1,5.0,,,,,,,,,,,,0,0,0,0,0,0,0,0,0,0,0,0,0,0,0,0,,,,,,0.0,,,,,,,
292,4816044,1745473415063,,,,,,,,,,,,,,,,,,,,,,,,,,,,,,,,,,0,0,0,0,0,0,0,0,0,0,0,0,0,0,0,0,,,,,,,,,,,,,
293,4816064,1745473415083,0.0,129.0,,-0.47,-1.42,0.97,-57.0,1.0,1.0,1.78,1.85,96.0,9596.0,17.3,3.0,,8.51,1.083,82.6,,49.1,5.0,,,,,,,,,,,,0,0,0,0,0,0,0,0,0,0,0,0,0,0,0,0,,,,,,0.0,,,,,,,
294,4816084,1745473415111,,,,,,,,,,,,,,,,,,,,,,,23.0,27.0,27.0,28.0,7.0,5.0,0.0,0.0,2.27,,,0,0,0,0,0,0,0,0,0,0,0,0,0,0,0,0,,1.0,,,,,38.994076,-76.939446,39.95,26.0,32.0,3.0,0.9
295,4816104,1745473415131,0.0,129.0,,-0.43,-1.48,0.95,-58.0,1.0,1.0,1.81,1.85,98.0,9667.0,17.2,2.99,,8.5,1.05,82.6,,49.1,5.0,,,,,,,,,,,,0,0,0,0,0,0,0,0,0,0,0,0,0,0,0,0,,,,,,0.0,,,,,,,
296,4816124,1745473415151,,,,,,,,,,,,,,,,,,,,,,,,,,,,,,,,,,0,0,0,0,0,0,0,0,0,0,0,0,0,0,0,0,,,,,,,,,,,,,
297,4816144,1745473415171,0.0,129.0,,-0.39,-1.56,0.99,-59.0,2.0,0.0,1.89,1.89,100.0,9613.0,16.7,2.94,,8.5,1.05,82.6,,49.5,5.0,,,,,,,,,,,,0,0,0,0,0,0,0,0,0,0,0,0,0,0,0,0,,,,,,0.0,,,,,,,
298,4816164,1745473415191,,,,,,,,,,,,,,,,,,,,,,,,,,,,,,,,,,0,0,0,0,0,0,0,0,0,0,0,0,0,0,0,0,,,,,,,,,,,,,
299,4816184,1745473415207,0.0,129.0,,-0.33,-1.4,1.0,-58.0,2.0,0.0,1.76,1.89,93.0,9613.0,16.7,2.94,,8.49,1.032,82.6,,49.5,5.0,23.0,27.0,28.0,30.0,7.0,41.0,7.0,0.0,2.27,,,0,0,0,0,0,0,0,0,0,0,0,0,0,0,0,0,,0.0,,,,0.0,38.994068,-76.939438,40.58,26.0,32.0,3.0,0.9
300,4816204,1745473415227,,,,,,,,,,,,,,,,,,,,,,,,,,,,,,,,,,0,0,0,0,0,0,0,0,0,0,0,0,0,0,0,0,,,,,,,,,,,,,
301,4816224,1745473415247,0.0,129.0,,-0.34,-1.27,1.0,-57.0,2.0,-1.0,1.65,1.89,87.0,9533.0,16.9,2.95,,8.63,1.031,82.6,,48.7,5.0,,,,,,,,,,,,0,0,0,0,0,0,0,0,0,0,0,0,0,0,0,0,,,,,,0.0,,,,,,,
302,4816244,1745473415267,,,,,,,,,,,,,,,,,,,,,,,,,,,,,,,,,,0,0,0,0,0,0,0,0,0,0,0,0,0,0,0,0,,,,,,,,,,,,,
303,4816264,1745473415287,0.0,129.0,,-0.32,-1.39,1.01,-57.0,1.0,0.0,1.75,1.89,92.0,9509.0,18.7,3.11,,8.99,1.025,82.6,,48.7,5.0,,,,,,,,,,,,0,0,0,0,0,0,0,0,0,0,0,0,0,0,0,0,,,,,,0.0,,,,,,,
304,4816284,1745473415313,,,,,,,,,,,,,,,,,,,,,,,24.0,27.0,28.0,30.0,7.0,130.0,0.0,0.0,2.27,,,0,0,0,0,0,0,0,0,0,0,0,0,0,0,0,0,,0.0,,,,,38.99406,-76.939423,41.29,26.0,32.0,3.0,0.9
305,4816304,1745473415333,0.0,129.0,,-0.3,-1.29,0.95,-58.0,1.0,1.0,1.64,1.64,100.0,9613.0,19.4,3.2,,9.19,1.028,82.6,,48.7,5.0,,,,,,,,,,,,0,0,0,0,0,0,0,0,0,0,0,0,0,0,0,0,,,,,,0.0,,,,,,,
306,4816324,1745473415353,,,,,,,,,,,,,,,,,,,,,,,,,,,,,,,,,,0,0,0,0,0,0,0,0,0,0,0,0,0,0,0,0,,,,,,,,,,,,,
307,4816344,1745473415373,0.0,129.0,,-0.33,-1.24,0.95,-58.0,1.0,1.0,1.6,1.64,98.0,9721.0,11.3,2.81,,9.19,1.028,82.6,,49.4,5.0,,,,,,,,,,,,0,0,0,0,0,0,0,0,0,0,0,0,0,0,0,0,,,,,,0.0,,,,,,,
308,4816364,1745473415393,,,,,,,,,,,,,,,,,,,,,,,,,,,,,,,,,,0,0,0,0,0,0,0,0,0,0,0,0,0,0,0,0,,,,,,,,,,,,,
309,4816384,1745473415413,0.0,128.0,13.43,-0.3,-1.19,0.98,-59.0,2.0,0.0,1.57,1.64,96.0,9721.0,11.3,2.81,15.0,8.54,1.028,82.6,173.0,49.4,5.0,23.0,28.0,29.0,29.0,7.0,250.0,4.0,0.0,2.26,0.0,1.0,0,0,0,0,0,0,0,0,0,0,0,0,0,0,0,0,0.0,1.0,1.0,0.0,0.0,0.0,38.994053,-76.939415,41.21,26.0,32.0,3.0,0.9
310,4816404,1745473415433,,,,,,,,,,,,,,,,,,,,,,,,,,,,,,,,,,0,0,0,0,0,0,0,0,0,0,0,0,0,0,0,0,,,,,,,,,,,,,
311,4816424,1745473415453,0.0,129.0,,-0.28,-1.19,1.0,-60.0,2.0,0.0,1.59,1.64,97.0,9669.0,5.5,2.07,,7.45,1.017,82.6,,49.6,5.0,,,,,,,,,,,,0,0,0,0,0,0,0,0,0,0,0,0,0,0,0,0,,,,,,0.0,,,,,,,
312,4816444,1745473415473,,,,,,,,,,,,,,,,,,,,,,,,,,,,,,,,,,0,0,0,0,0,0,0,0,0,0,0,0,0,0,0,0,,,,,,,,,,,,,
313,4816464,1745473415493,0.0,129.0,,-0.29,-1.11,1.0,-60.0,1.0,0.0,1.52,1.64,93.0,9351.0,1.6,1.4,,6.74,0.996,82.6,,49.6,5.0,,,,,,,,,,,,0,0,0,0,0,0,0,0,0,0,0,0,0,0,0,0,,,,,,0.0,,,,,,,
314,4816484,1745473415513,,,,,,,,,,,,,,,,,,,,,,,24.0,27.0,27.0,29.0,7.0,18.0,0.0,0.0,2.27,,,0,0,0,0,0,0,0,0,0,0,0,0,0,0,0,0,,0.0,,,,,38.994041,-76.939415,41.5,26.0,32.0,3.0,0.9
315,4816504,1745473415533,0.0,129.0,,-0.32,-1.16,1.0,-58.0,0.0,0.0,1.56,1.64,96.0,8732.0,0.0,1.4,,6.04,1.005,82.6,,49.6,5.0,,,,,,,,,,,,0,0,0,0,0,0,0,0,0,0,0,0,0,0,0,0,,,,,,0.0,,,,,,,
316,4816524,1745473415553,,,,,,,,,,,,,,,,,,,,,,,,,,,,,,,,,,0,0,0,0,0,0,0,0,0,0,0,0,0,0,0,0,,,,,,,,,,,,,
317,4816544,1745473415573,0.0,128.0,,-0.38,-1.23,1.02,-58.0,0.0,1.0,1.64,1.64,100.0,8195.0,0.0,1.4,,6.04,1.005,82.6,,49.1,5.0,,,,,,,,,,,,0,0,0,0,0,0,0,0,0,0,0,0,0,0,0,0,,,,,,0.0,,,,,,,
318,4816564,1745473415593,,,,,,,,,,,,,,,,,,,,,,,,,,,,,,,,,,0,0,0,0,0,0,0,0,0,0,0,0,0,0,0,0,,,,,,,,,,,,,
319,4816584,1745473415613,0.0,129.0,,-0.41,-1.17,1.04,-58.0,1.0,0.0,1.62,1.64,98.0,8195.0,0.0,1.4,,5.76,1.075,82.6,,49.1,5.0,24.0,28.0,25.0,26.0,7.0,229.0,0.0,0.0,2.28,,,0,0,0,0,0,0,0,0,0,0,0,0,0,0,0,0,,0.0,,,,0.0,38.994034,-76.939415,41.98,26.0,32.0,3.0,0.9
320,4816604,1745473415633,,,,,,,,,,,,,,,,,,,,,,,,,,,,,,,,,,0,0,0,0,0,0,0,0,0,0,0,0,0,0,0,0,,,,,,,,,,,,,
321,4816624,1745473415653,0.0,129.0,,-0.45,-1.17,1.06,-59.0,1.0,0.0,1.64,1.64,100.0,7842.0,0.0,1.4,,5.74,1.248,82.6,,49.2,5.0,,,,,,,,,,,,0,0,0,0,0,0,0,0,0,0,0,0,0,0,0,0,,,,,,0.0,,,,,,,
322,4816644,1745473415673,,,,,,,,,,,,,,,,,,,,,,,,,,,,,,,,,,0,0,0,0,0,0,0,0,0,0,0,0,0,0,0,0,,,,,,,,,,,,,
323,4816664,1745473415693,0.0,129.0,,-0.49,-1.08,1.08,-59.0,1.0,1.0,1.6,1.64,98.0,7807.0,0.0,1.4,,5.86,1.252,82.6,,49.2,5.0,,,,,,,,,,,,0,0,0,0,0,0,0,0,0,0,0,0,0,0,0,0,,,,,,0.0,,,,,,,
324,4816684,1745473415710,,,,,,,,,,,,,,,,,,,,,,,22.0,27.0,20.0,29.0,7.0,216.0,0.0,0.0,2.27,,,0,0,0,0,0,0,0,0,0,0,0,0,0,0,0,0,,0.0,,,,,38.994022,-76.939415,39.04,26.0,32.0,3.0,0.9
325,4816704,1745473415730,0.0,128.0,,-0.58,-1.09,0.99,-60.0,-1.0,2.0,1.58,1.64,96.0,7694.0,0.0,1.4,,5.88,1.252,82.6,,49.2,5.0,,,,,,,,,,,,0,0,0,0,0,0,0,0,0,0,0,0,0,0,0,0,,,,,,0.0,,,,,,,
326,4816724,1745473415750,,,,,,,,,,,,,,,,,,,,,,,,,,,,,,,,,,0,0,0,0,0,0,0,0,0,0,0,0,0,0,0,0,,,,,,,,,,,,,
327,4816744,1745473415770,0.0,128.0,,-0.62,-1.22,0.97,-63.0,-1.0,1.0,1.67,1.67,100.0,7471.0,4.3,1.78,,5.88,1.252,82.6,,48.9,5.0,,,,,,,,,,,,0,0,0,0,0,0,0,0,0,0,0,0,0,0,0,0,,,,,,0.0,,,,,,,
328,4816764,1745473415790,,,,,,,,,,,,,,,,,,,,,,,,,,,,,,,,,,0,0,0,0,0,0,0,0,0,0,0,0,0,0,0,0,,,,,,,,,,,,,
329,4816784,1745473415812,0.0,129.0,,-0.65,-1.19,1.03,-66.0,0.0,0.0,1.7,1.7,100.0,7471.0,4.3,1.78,,6.22,1.252,82.6,,48.9,5.0,22.0,27.0,19.0,25.0,7.0,43.0,0.0,0.0,2.26,,,0,0,0,0,0,0,0,0,0,0,0,0,0,0,0,0,,0.0,,,,0.0,38.994015,-76.939407,37.95,26.0,32.0,3.0,0.9
330,4816804,1745473415832,,,,,,,,,,,,,,,,,,,,,,,,,,,,,,,,,,0,0,0,0,0,0,0,0,0,0,0,0,0,0,0,0,,,,,,,,,,,,,
331,4816824,1745473415852,0.0,129.0,,-0.61,-1.2,1.05,-67.0,1.0,0.0,1.71,1.71,100.0,7178.0,7.8,2.25,,6.88,1.252,82.6,,49.2,5.0,,,,,,,,,,,,0,0,0,0,0,0,0,0,0,0,0,0,0,0,0,0,,,,,,0.0,,,,,,,
332,4816844,1745473415872,,,,,,,,,,,,,,,,,,,,,,,,,,,,,,,,,,0,0,0,0,0,0,0,0,0,0,0,0,0,0,0,0,,,,,,,,,,,,,
333,4816864,1745473415892,0.0,129.0,,-0.63,-1.22,1.04,-67.0,0.0,1.0,1.72,1.72,100.0,7293.0,10.3,2.57,,7.61,1.251,82.6,,49.2,5.0,,,,,,,,,,,,0,0,0,0,0,0,0,0,0,0,0,0,0,0,0,0,,,,,,0.0,,,,,,,
334,4816884,1745473415910,,,,,,,,,,,,,,,,,,,,,,,21.0,24.0,19.0,24.0,7.0,120.0,4.0,0.0,2.27,,,0,0,0,0,0,0,0,0,0,0,0,0,0,0,0,0,,0.0,,,,,38.994003,-76.939407,35.93,26.0,32.0,3.0,0.9
335,4816904,1745473415930,0.0,128.0,,-0.66,-1.32,0.99,-68.0,0.0,1.0,1.78,1.78,100.0,7456.0,12.7,2.86,,8.17,1.249,82.6,,49.2,5.0,,,,,,,,,,,,0,0,0,0,0,0,0,0,0,0,0,0,0,0,0,0,,,,,,0.0,,,,,,,
336,4816924,1745473415950,,,,,,,,,,,,,,,,,,,,,,,,,,,,,,,,,,0,0,0,0,0,0,0,0,0,0,0,0,0,0,0,0,,,,,,,,,,,,,
337,4816944,1745473415970,0.0,128.0,,-0.64,-1.42,0.97,-69.0,0.0,0.0,1.83,1.83,100.0,7601.0,15.5,3.04,,8.17,1.249,82.6,,49.6,5.0,,,,,,,,,,,,0,0,0,0,0,0,0,0,0,0,0,0,0,0,0,0,,,,,,0.0,,,,,,,
338,4816964,1745473415990,,,,,,,,,,,,,,,,,,,,,,,,,,,,,,,,,,0,0,0,0,0,0,0,0,0,0,0,0,0,0,0,0,,,,,,,,,,,,,
339,4816984,1745473416004,0.0,129.0,,-0.6,-1.31,0.98,-69.0,0.0,0.0,1.74,1.83,95.0,7601.0,15.5,3.04,,8.99,1.178,82.6,,49.6,5.0,20.0,25.0,20.0,24.0,7.0,229.0,0.0,0.0,2.27,,,0,0,0,0,0,0,0,0,0,0,0,0,0,0,0,0,,0.0,,,,0.0,38.993996,-76.939415,35.63,26.0,32.0,3.0,0.9
340,4817004,1745473416024,,,,,,,,,,,,,,,,,,,,,,,,,,,,,,,,,,0,0,0,0,0,0,0,0,0,0,0,0,0,0,0,0,,,,,,,,,,,,,
341,4817024,1745473416044,0.0,128.0,,-0.58,-1.31,0.98,-69.0,0.0,0.0,1.74,1.83,95.0,7858.0,17.0,3.39,,9.49,1.102,82.6,,49.0,5.0,,,,,,,,,,,,0,0,0,0,0,0,0,0,0,0,0,0,0,0,0,0,,,,,,0.0,,,,,,,
342,4817044,1745473416064,,,,,,,,,,,,,,,,,,,,,,,,,,,,,,,,,,0,0,0,0,0,0,0,0,0,0,0,0,0,0,0,0,,,,,,,,,,,,,
343,4817064,1745473416084,0.0,129.0,,-0.56,-1.27,0.96,-68.0,0.0,-1.0,1.69,1.83,92.0,8084.0,17.4,3.42,,9.74,1.06,82.6,,49.0,5.0,,,,,,,,,,,,0,0,0,0,0,0,0,0,0,0,0,0,0,0,0,0,,,,,,0.0,,,,,,,
344,4817084,1745473416104,,,,,,,,,,,,,,,,,,,,,,,19.0,25.0,22.0,25.0,7.0,118.0,0.0,0.0,2.27,,,0,0,0,0,0,0,0,0,0,0,0,0,0,0,0,0,,0.0,,,,,38.993988,-76.939415,34.11,26.0,32.0,3.0,0.9
345,4817104,1745473416124,0.0,128.0,,-0.52,-1.33,0.94,-67.0,0.0,-1.0,1.71,1.83,93.0,8282.0,17.1,3.41,,10.0,1.03,82.6,,49.0,5.0,,,,,,,,,,,,0,0,0,0,0,0,0,0,0,0,0,0,0,0,0,0,,,,,,0.0,,,,,,,
346,4817124,1745473416144,,,,,,,,,,,,,,,,,,,,,,,,,,,,,,,,,,0,0,0,0,0,0,0,0,0,0,0,0,0,0,0,0,,,,,,,,,,,,,
347,4817144,1745473416164,0.0,128.0,,-0.47,-1.28,0.92,-67.0,0.0,0.0,1.64,1.83,90.0,8339.0,17.0,3.4,,10.0,1.03,82.6,,48.7,5.0,,,,,,,,,,,,0,0,0,0,0,0,0,0,0,0,0,0,0,0,0,0,,,,,,0.0,,,,,,,
348,4817164,1745473416184,,,,,,,,,,,,,,,,,,,,,,,,,,,,,,,,,,0,0,0,0,0,0,0,0,0,0,0,0,0,0,0,0,,,,,,,,,,,,,
349,4817184,1745473416206,0.0,128.0,,-0.4,-1.11,0.95,-66.0,0.0,0.0,1.51,1.83,83.0,8339.0,17.0,3.4,,9.92,0.986,82.6,,48.7,5.0,21.0,25.0,27.0,23.0,7.0,98.0,0.0,0.0,2.27,,,0,0,0,0,0,0,0,0,0,0,0,0,0,0,0,0,,0.0,,,,0.0,38.993977,-76.939415,35.12,26.0,32.0,3.0,0.9
350,4817204,1745473416226,,,,,,,,,,,,,,,,,,,,,,,,,,,,,,,,,,0,0,0,0,0,0,0,0,0,0,0,0,0,0,0,0,,,,,,,,,,,,,
351,4817224,1745473416246,0.0,129.0,,-0.34,-1.22,0.96,-66.0,0.0,0.0,1.59,1.59,100.0,8330.0,17.4,3.47,,9.84,0.976,82.6,,48.7,5.0,,,,,,,,,,,,0,0,0,0,0,0,0,0,0,0,0,0,0,0,0,0,,,,,,0.0,,,,,,,
352,4817244,1745473416266,,,,,,,,,,,,,,,,,,,,,,,,,,,,,,,,,,0,0,0,0,0,0,0,0,0,0,0,0,0,0,0,0,,,,,,,,,,,,,
353,4817264,1745473416286,0.0,129.0,,-0.29,-1.26,0.93,-65.0,0.0,1.0,1.59,1.59,100.0,8434.0,17.7,3.43,,10.08,0.977,82.6,,48.7,5.0,,,,,,,,,,,,0,0,0,0,0,0,0,0,0,0,0,0,0,0,0,0,,,,,,0.0,,,,,,,
354,4817284,1745473416311,,,,,,,,,,,,,,,,,,,,,,,20.0,23.0,26.0,26.0,7.0,42.0,0.0,0.0,2.27,,,0,0,0,0,0,0,0,0,0,0,0,0,0,0,0,0,,1.0,,,,,38.993973,-76.939423,35.32,26.0,32.0,3.0,0.9
355,4817304,1745473416331,0.0,129.0,,-0.28,-1.32,0.94,-65.0,0.0,1.0,1.64,1.64,100.0,8527.0,17.8,3.45,,10.06,0.971,82.6,,48.7,5.0,,,,,,,,,,,,0,0,0,0,0,0,0,0,0,0,0,0,0,0,0,0,,,,,,0.0,,,,,,,
356,4817324,1745473416351,,,,,,,,,,,,,,,,,,,,,,,,,,,,,,,,,,0,0,0,0,0,0,0,0,0,0,0,0,0,0,0,0,,,,,,,,,,,,,
357,4817344,1745473416371,0.0,129.0,,-0.23,-1.27,0.88,-65.0,1.0,1.0,1.56,1.64,95.0,8571.0,17.8,3.43,,10.06,0.971,82.6,,48.4,5.0,,,,,,,,,,,,0,0,0,0,0,0,0,0,0,0,0,0,0,0,0,0,,,,,,0.0,,,,,,,
358,4817364,1745473416391,,,,,,,,,,,,,,,,,,,,,,,,,,,,,,,,,,0,0,0,0,0,0,0,0,0,0,0,0,0,0,0,0,,,,,,,,,,,,,
359,4817384,1745473416412,0.0,128.0,13.47,-0.2,-1.34,0.88,-64.0,2.0,1.0,1.61,1.64,98.0,8571.0,17.8,3.43,15.0,9.89,0.968,82.6,173.0,48.4,5.0,21.0,24.0,26.0,25.0,7.0,78.0,0.0,0.0,2.26,0.0,1.0,0,0,0,0,0,0,0,0,0,0,0,0,0,0,0,0,0.0,1.0,1.0,0.0,0.0,0.0,38.993965,-76.93943,36.02,25.9,32.0,3.0,0.9
360,4817404,1745473416432,,,,,,,,,,,,,,,,,,,,,,,,,,,,,,,,,,0,0,0,0,0,0,0,0,0,0,0,0,0,0,0,0,,,,,,,,,,,,,
361,4817424,1745473416452,0.0,129.0,,-0.13,-1.18,0.9,-63.0,2.0,1.0,1.49,1.64,91.0,8592.0,17.5,3.42,,9.77,0.965,82.6,,48.2,5.0,,,,,,,,,,,,0,0,0,0,0,0,0,0,0,0,0,0,0,0,0,0,,,,,,0.0,,,,,,,
362,4817444,1745473416472,,,,,,,,,,,,,,,,,,,,,,,,,,,,,,,,,,0,0,0,0,0,0,0,0,0,0,0,0,0,0,0,0,,,,,,,,,,,,,
363,4817464,1745473416492,0.0,129.0,,-0.11,-1.12,0.89,-61.0,1.0,1.0,1.43,1.64,87.0,8604.0,17.4,3.41,,9.78,0.964,82.6,,48.2,5.0,,,,,,,,,,,,0,0,0,0,0,0,0,0,0,0,0,0,0,0,0,0,,,,,,0.0,,,,,,,
364,4817484,1745473416510,,,,,,,,,,,,,,,,,,,,,,,23.0,19.0,27.0,27.0,7.0,34.0,7.0,0.0,2.27,,,0,0,0,0,0,0,0,0,0,0,0,0,0,0,0,0,,1.0,,,,,38.993958,-76.939438,37.21,25.9,32.0,3.0,0.9
365,4817504,1745473416530,0.0,129.0,,-0.08,-1.04,0.97,-59.0,1.0,1.0,1.43,1.64,87.0,8530.0,16.3,3.28,,9.61,0.969,82.6,,48.2,5.0,,,,,,,,,,,,0,0,0,0,0,0,0,0,0,0,0,0,0,0,0,0,,,,,,0.0,,,,,,,
366,4817524,1745473416550,,,,,,,,,,,,,,,,,,,,,,,,,,,,,,,,,,0,0,0,0,0,0,0,0,0,0,0,0,0,0,0,0,,,,,,,,,,,,,
367,4817544,1745473416570,0.0,130.0,,-0.05,-1.14,0.91,-56.0,1.0,1.0,1.46,1.64,89.0,8530.0,14.8,3.15,,9.61,0.969,82.6,,48.1,5.0,,,,,,,,,,,,0,0,0,0,0,0,0,0,0,0,0,0,0,0,0,0,,,,,,0.0,,,,,,,
368,4817564,1745473416590,,,,,,,,,,,,,,,,,,,,,,,,,,,,,,,,,,0,0,0,0,0,0,0,0,0,0,0,0,0,0,0,0,,,,,,,,,,,,,
369,4817584,1745473416610,0.0,128.0,,-0.04,-1.26,0.95,-53.0,0.0,0.0,1.58,1.64,96.0,8530.0,14.8,3.15,,9.45,0.971,82.6,,48.1,5.0,23.0,25.0,25.0,25.0,7.0,96.0,7.0,0.0,2.27,,,0,0,0,0,0,0,0,0,0,0,0,0,0,0,0,0,,1.0,,,,0.0,38.993954,-76.939453,38.96,25.9,32.0,3.0,0.9
370,4817604,1745473416630,,,,,,,,,,,,,,,,,,,,,,,,,,,,,,,,,,0,0,0,0,0,0,0,0,0,0,0,0,0,0,0,0,,,,,,,,,,,,,
371,4817624,1745473416650,0.0,128.0,,-0.06,-1.19,0.91,-53.0,1.0,1.0,1.5,1.64,92.0,8551.0,13.4,3.04,,9.11,0.967,82.6,,47.9,5.0,,,,,,,,,,,,0,0,0,0,0,0,0,0,0,0,0,0,0,0,0,0,,,,,,0.0,,,,,,,
372,4817644,1745473416670,,,,,,,,,,,,,,,,,,,,,,,,,,,,,,,,,,0,0,0,0,0,0,0,0,0,0,0,0,0,0,0,0,,,,,,,,,,,,,
373,4817664,1745473416690,0.0,128.0,,-0.06,-1.24,0.97,-52.0,1.0,1.0,1.58,1.64,96.0,8525.0,10.5,2.91,,8.69,0.967,82.6,,47.9,5.0,,,,,,,,,,,,0,0,0,0,0,0,0,0,0,0,0,0,0,0,0,0,,,,,,0.0,,,,,,,
374,4817684,1745473416709,,,,,,,,,,,,,,,,,,,,,,,23.0,26.0,26.0,27.0,7.0,236.0,0.0,0.0,2.26,,,0,0,0,0,0,0,0,0,0,0,0,0,0,0,0,0,,0.0,,,,,38.993946,-76.939453,39.12,25.9,32.0,3.0,0.9
