,Interval,Utc,FrontBP,SteerAng,Battery,AccelX,AccelY,AccelZ,Yaw,Pitch,Roll,Gsum,GsumMax,GsumPct,RPM,TPS,InjectorPW,Baro,MAP,Lambda,IAT,EngineTemp,EOP,EOT,WSFR,WSFL,WSRR,WSRL,TCSet,TCSlip,TCComp,TCCut,Analog8,OilTemp,AA_On,ThermLF1,ThermLF2,ThermRR1,ThermRR2,ThermLF3,ThermLF4,ThermLF5,ThermLF6,ThermLF7,ThermLF8,ThermRR3,ThermRR4,ThermRR5,ThermRR6,ThermRR7,ThermRR8,AA_LowDrag,Gear,AA_On1,AA_LowDrag1,Fuel_Mix,AA_Packages,Latitude,Longitude,Speed,Altitude,GPSSats,GPSQual,GPSDOP
0,4594604,1745473193626,,,,,,,,,,,,,,,,,,,,,,,,,,,,,,,,,,0,0,0,0,0,0,0,0,0,0,0,0,0,0,0,0,,,,,,,,,,,,,
1,4594624,1745473193646,0.0,64.0,,-0.07,0.03,1.03,0.0,0.0,0.0,1.03,1.03,100.0,4831.0,0.4,1.9,,10.4,1.139,97.0,,43.0,5.0,,,,,,,,,,,,0,0,0,0,0,0,0,0,0,0,0,0,0,0,0,0,,,,,,0.0,,,,,,,
2,4594644,1745473193666,,,,,,,,,,,,,,,,,,,,,,,,,,,,,,,,,,0,0,0,0,0,0,0,0,0,0,0,0,0,0,0,0,,,,,,,,,,,,,
3,4594664,1745473193686,0.0,51.0,,-0.04,0.02,1.02,1.0,0.0,0.0,1.02,1.03,99.0,4571.0,0.2,1.86,,10.44,1.118,97.0,,43.0,5.0,,,,,,,,,,,,0,0,0,0,0,0,0,0,0,0,0,0,0,0,0,0,,,,,,0.0,,,,,,,
4,4594684,1745473193708,,,,,,,,,,,,,,,,,,,,,,,0.0,0.0,0.0,0.0,0.0,0.0,0.0,0.0,2.28,,,0,0,0,0,0,0,0,0,0,0,0,0,0,0,0,0,,0.0,,,,,38.994099,-76.939652,0.06,26.8,31.0,3.0,0.9
5,4594704,1745473193728,0.0,37.0,,-0.02,-0.06,0.92,1.0,0.0,-1.0,0.92,1.03,89.0,4326.0,14.9,3.56,,11.46,1.12,97.0,,43.0,5.0,,,,,,,,,,,,0,0,0,0,0,0,0,0,0,0,0,0,0,0,0,0,,,,,,0.0,,,,,,,
6,4594724,1745473193748,,,,,,,,,,,,,,,,,,,,,,,,,,,,,,,,,,0,0,0,0,0,0,0,0,0,0,0,0,0,0,0,0,,,,,,,,,,,,,
7,4594744,1745473193768,0.0,51.0,,-0.02,-0.02,1.0,0.0,0.0,0.0,1.0,1.03,97.0,4108.0,25.4,4.53,,11.46,1.12,97.0,,37.9,5.0,,,,,,,,,,,,0,0,0,0,0,0,0,0,0,0,0,0,0,0,0,0,,,,,,0.0,,,,,,,
8,4594764,1745473193788,,,,,,,,,,,,,,,,,,,,,,,,,,,,,,,,,,0,0,0,0,0,0,0,0,0,0,0,0,0,0,0,0,,,,,,,,,,,,,
9,4594784,1745473193808,0.0,41.0,,-0.01,-0.0,0.98,1.0,0.0,-1.0,0.98,1.03,95.0,4108.0,25.4,4.53,,12.93,1.157,97.0,,37.9,5.0,0.0,0.0,0.0,0.0,0.0,0.0,0.0,0.0,2.28,,,0,0,0,0,0,0,0,0,0,0,0,0,0,0,0,0,,0.0,,,,0.0,38.994099,-76.939652,0.04,26.8,31.0,3.0,0.9
10,4594804,1745473193828,,,,,,,,,,,,,,,,,,,,,,,,,,,,,,,,,,0,0,0,0,0,0,0,0,0,0,0,0,0,0,0,0,,,,,,,,,,,,,
11,4594824,1745473193848,0.0,51.0,,-0.01,-0.09,0.89,1.0,0.0,-1.0,0.89,1.03,86.0,4319.0,34.6,4.81,,13.94,1.251,97.0,,38.9,5.0,,,,,,,,,,,,0,0,0,0,0,0,0,0,0,0,0,0,0,0,0,0,,,,,,0.0,,,,,,,
12,4594844,1745473193868,,,,,,,,,,,,,,,,,,,,,,,,,,,,,,,,,,0,0,0,0,0,0,0,0,0,0,0,0,0,0,0,0,,,,,,,,,,,,,
13,4594864,1745473193888,0.0,47.0,,-0.03,-0.15,0.83,0.0,0.0,-1.0,0.84,1.03,82.0,4429.0,36.6,4.46,,14.1,1.251,97.0,,38.9,5.0,,,,,,,,,,,,0,0,0,0,0,0,0,0,0,0,0,0,0,0,0,0,,,,,,0.0,,,,,,,
14,4594884,1745473193909,,,,,,,,,,,,,,,,,,,,,,,0.0,0.0,0.0,0.0,0.0,0.0,0.0,0.0,2.28,,,0,0,0,0,0,0,0,0,0,0,0,0,0,0,0,0,,0.0,,,,,38.994099,-76.939652,0.08,26.8,31.0,3.0,0.9
15,4594904,1745473193929,0.0,51.0,,-0.05,-0.2,0.79,0.0,0.0,-1.0,0.82,1.03,79.0,4609.0,32.1,4.96,,13.98,1.252,97.0,,38.9,5.0,,,,,,,,,,,,0,0,0,0,0,0,0,0,0,0,0,0,0,0,0,0,,,,,,0.0,,,,,,,
16,4594924,1745473193949,,,,,,,,,,,,,,,,,,,,,,,,,,,,,,,,,,0,0,0,0,0,0,0,0,0,0,0,0,0,0,0,0,,,,,,,,,,,,,
17,4594944,1745473193969,0.0,47.0,,-0.04,-0.2,0.76,1.0,0.0,-1.0,0.79,1.03,76.0,4668.0,11.3,4.03,,13.98,1.252,97.0,,41.4,5.0,,,,,,,,,,,,0,0,0,0,0,0,0,0,0,0,0,0,0,0,0,0,,,,,,0.0,,,,,,,
18,4594964,1745473193989,,,,,,,,,,,,,,,,,,,,,,,,,,,,,,,,,,0,0,0,0,0,0,0,0,0,0,0,0,0,0,0,0,,,,,,,,,,,,,
19,4594984,1745473194009,0.0,54.0,,-0.04,-0.16,0.85,1.0,0.0,0.0,0.87,1.03,85.0,4668.0,11.3,4.03,,13.2,1.251,97.0,,41.4,5.0,0.0,0.0,0.0,0.0,0.0,0.0,0.0,0.0,2.29,,,0,0,0,0,0,0,0,0,0,0,0,0,0,0,0,0,,0.0,,,,0.0,38.994099,-76.939652,0.08,26.8,31.0,3.0,0.9
20,4595004,1745473194020,,,,,,,,,,,,,,,,,,,,,,,,,,,,,,,,,,0,0,0,0,0,0,0,0,0,0,0,0,0,0,0,0,,,,,,,,,,,,,
21,4595024,1745473194040,0.0,47.0,,-0.05,-0.21,0.83,0.0,0.0,0.0,0.85,1.03,83.0,4853.0,4.5,3.74,,12.41,1.251,97.0,,43.7,5.0,,,,,,,,,,,,0,0,0,0,0,0,0,0,0,0,0,0,0,0,0,0,,,,,,0.0,,,,,,,
22,4595044,1745473194060,,,,,,,,,,,,,,,,,,,,,,,,,,,,,,,,,,0,0,0,0,0,0,0,0,0,0,0,0,0,0,0,0,,,,,,,,,,,,,
23,4595064,1745473194080,0.0,51.0,,-0.04,-0.12,0.91,1.0,0.0,0.0,0.92,1.03,89.0,4870.0,0.8,2.68,,11.75,1.251,95.2,,43.7,5.0,,,,,,,,,,,,0,0,0,0,0,0,0,0,0,0,0,0,0,0,0,0,,,,,,0.0,,,,,,,
24,4595084,1745473194108,,,,,,,,,,,,,,,,,,,,,,,0.0,0.0,0.0,0.0,0.0,0.0,0.0,0.0,2.29,,,0,0,0,0,0,0,0,0,0,0,0,0,0,0,0,0,,0.0,,,,,38.994099,-76.939652,0.07,26.8,31.0,3.0,0.9
25,4595104,1745473194128,0.0,44.0,,-0.07,-0.17,0.88,0.0,0.0,0.0,0.9,1.03,87.0,4786.0,0.5,2.56,,11.26,1.252,95.2,,43.7,5.0,,,,,,,,,,,,0,0,0,0,0,0,0,0,0,0,0,0,0,0,0,0,,,,,,0.0,,,,,,,
26,4595124,1745473194148,,,,,,,,,,,,,,,,,,,,,,,,,,,,,,,,,,0,0,0,0,0,0,0,0,0,0,0,0,0,0,0,0,,,,,,,,,,,,,
27,4595144,1745473194168,0.0,47.0,,-0.06,-0.19,0.83,1.0,0.0,0.0,0.85,1.03,83.0,4642.0,0.4,2.52,,11.26,1.252,95.2,,43.3,5.0,,,,,,,,,,,,0,0,0,0,0,0,0,0,0,0,0,0,0,0,0,0,,,,,,0.0,,,,,,,
28,4595164,1745473194188,,,,,,,,,,,,,,,,,,,,,,,,,,,,,,,,,,0,0,0,0,0,0,0,0,0,0,0,0,0,0,0,0,,,,,,,,,,,,,
29,4595184,1745473194206,0.0,44.0,,-0.04,-0.2,0.78,2.0,0.0,-1.0,0.81,1.03,78.0,4642.0,0.4,2.52,,11.0,1.253,95.2,,43.3,5.0,0.0,0.0,0.0,0.0,0.0,0.0,0.0,0.0,2.28,,,0,0,0,0,0,0,0,0,0,0,0,0,0,0,0,0,,0.0,,,,0.0,38.994099,-76.939652,0.06,26.8,31.0,3.0,0.9
30,4595204,1745473194226,,,,,,,,,,,,,,,,,,,,,,,,,,,,,,,,,,0,0,0,0,0,0,0,0,0,0,0,0,0,0,0,0,,,,,,,,,,,,,
31,4595224,1745473194246,0.0,51.0,,-0.02,-0.25,0.73,1.0,0.0,-1.0,0.77,1.03,75.0,4469.0,0.4,2.3,,10.85,1.254,95.2,,39.9,5.0,,,,,,,,,,,,0,0,0,0,0,0,0,0,0,0,0,0,0,0,0,0,,,,,,0.0,,,,,,,
32,4595244,1745473194266,,,,,,,,,,,,,,,,,,,,,,,,,,,,,,,,,,0,0,0,0,0,0,0,0,0,0,0,0,0,0,0,0,,,,,,,,,,,,,
33,4595264,1745473194286,0.0,47.0,,-0.04,-0.23,0.78,1.0,0.0,0.0,0.81,1.03,79.0,4273.0,6.2,3.65,,11.16,1.253,95.2,,39.9,5.0,,,,,,,,,,,,0,0,0,0,0,0,0,0,0,0,0,0,0,0,0,0,,,,,,0.0,,,,,,,
34,4595284,1745473194308,,,,,,,,,,,,,,,,,,,,,,,0.0,0.0,0.0,0.0,0.0,0.0,0.0,0.0,2.28,,,0,0,0,0,0,0,0,0,0,0,0,0,0,0,0,0,,0.0,,,,,38.994099,-76.939652,0.0,26.8,31.0,3.0,0.9
35,4595304,1745473194328,0.0,61.0,,-0.05,-0.11,0.85,1.0,0.0,0.0,0.86,1.03,84.0,4253.0,14.2,3.33,,12.03,1.252,95.2,,39.9,5.0,,,,,,,,,,,,0,0,0,0,0,0,0,0,0,0,0,0,0,0,0,0,,,,,,0.0,,,,,,,
36,4595324,1745473194348,,,,,,,,,,,,,,,,,,,,,,,,,,,,,,,,,,0,0,0,0,0,0,0,0,0,0,0,0,0,0,0,0,,,,,,,,,,,,,
37,4595344,1745473194368,0.0,47.0,,-0.06,-0.19,0.8,0.0,0.0,0.0,0.83,1.03,80.0,4099.0,19.3,4.15,,12.03,1.252,95.2,,37.4,5.0,,,,,,,,,,,,0,0,0,0,0,0,0,0,0,0,0,0,0,0,0,0,,,,,,0.0,,,,,,,
38,4595364,1745473194388,,,,,,,,,,,,,,,,,,,,,,,,,,,,,,,,,,0,0,0,0,0,0,0,0,0,0,0,0,0,0,0,0,,,,,,,,,,,,,
39,4595384,1745473194408,0.0,47.0,13.31,-0.07,-0.16,0.81,0.0,0.0,0.0,0.83,1.03,81.0,4099.0,19.3,4.15,15.0,12.95,1.252,95.2,165.0,37.4,5.0,0.0,0.0,0.0,0.0,0.0,0.0,0.0,0.0,2.28,0.0,1.0,0,0,0,0,0,0,0,0,0,0,0,0,0,0,0,0,0.0,0.0,1.0,0.0,0.0,0.0,38.994099,-76.939652,0.05,26.9,31.0,3.0,0.9
40,4595404,1745473194428,,,,,,,,,,,,,,,,,,,,,,,,,,,,,,,,,,0,0,0,0,0,0,0,0,0,0,0,0,0,0,0,0,,,,,,,,,,,,,
41,4595424,1745473194448,0.0,47.0,,-0.08,-0.17,0.86,0.0,0.0,0.0,0.88,1.03,85.0,4022.0,21.1,4.27,,13.48,1.252,95.2,,35.9,5.0,,,,,,,,,,,,0,0,0,0,0,0,0,0,0,0,0,0,0,0,0,0,,,,,,0.0,,,,,,,
42,4595444,1745473194468,,,,,,,,,,,,,,,,,,,,,,,,,,,,,,,,,,0,0,0,0,0,0,0,0,0,0,0,0,0,0,0,0,,,,,,,,,,,,,
43,4595464,1745473194488,0.0,41.0,,-0.09,-0.26,0.74,-2.0,0.0,0.0,0.79,1.03,77.0,4046.0,21.6,4.3,,13.67,1.252,95.2,,35.9,5.0,,,,,,,,,,,,0,0,0,0,0,0,0,0,0,0,0,0,0,0,0,0,,,,,,0.0,,,,,,,
44,4595484,1745473194507,,,,,,,,,,,,,,,,,,,,,,,0.0,0.0,0.0,0.0,0.0,0.0,0.0,0.0,2.29,,,0,0,0,0,0,0,0,0,0,0,0,0,0,0,0,0,,0.0,,,,,38.994099,-76.939652,0.09,26.9,31.0,3.0,0.9
45,4595504,1745473194527,0.0,44.0,,-0.08,-0.12,0.87,0.0,0.0,0.0,0.88,1.03,86.0,4174.0,19.4,4.3,,13.67,1.252,95.2,,35.9,5.0,,,,,,,,,,,,0,0,0,0,0,0,0,0,0,0,0,0,0,0,0,0,,,,,,0.0,,,,,,,
46,4595524,1745473194547,,,,,,,,,,,,,,,,,,,,,,,,,,,,,,,,,,0,0,0,0,0,0,0,0,0,0,0,0,0,0,0,0,,,,,,,,,,,,,
47,4595544,1745473194567,0.0,44.0,,-0.06,-0.16,0.83,0.0,0.0,-1.0,0.85,1.03,83.0,4257.0,8.8,3.84,,13.59,1.252,95.2,,37.3,5.0,,,,,,,,,,,,0,0,0,0,0,0,0,0,0,0,0,0,0,0,0,0,,,,,,0.0,,,,,,,
48,4595564,1745473194587,,,,,,,,,,,,,,,,,,,,,,,,,,,,,,,,,,0,0,0,0,0,0,0,0,0,0,0,0,0,0,0,0,,,,,,,,,,,,,
49,4595584,1745473194607,0.0,61.0,,-0.05,-0.22,0.8,-1.0,0.0,0.0,0.83,1.03,80.0,4257.0,8.8,3.84,,13.07,1.252,95.2,,37.3,5.0,0.0,0.0,0.0,0.0,0.0,0.0,0.0,0.0,2.29,,,0,0,0,0,0,0,0,0,0,0,0,0,0,0,0,0,,0.0,,,,0.0,38.994099,-76.939652,0.11,26.9,31.0,3.0,0.9
50,4595604,1745473194627,,,,,,,,,,,,,,,,,,,,,,,,,,,,,,,,,,0,0,0,0,0,0,0,0,0,0,0,0,0,0,0,0,,,,,,,,,,,,,
51,4595624,1745473194647,0.0,57.0,,-0.08,-0.14,0.88,-1.0,0.0,0.0,0.89,1.03,87.0,4277.0,5.2,3.72,,12.55,1.252,95.2,,38.2,5.0,,,,,,,,,,,,0,0,0,0,0,0,0,0,0,0,0,0,0,0,0,0,,,,,,0.0,,,,,,,
52,4595644,1745473194667,,,,,,,,,,,,,,,,,,,,,,,,,,,,,,,,,,0,0,0,0,0,0,0,0,0,0,0,0,0,0,0,0,,,,,,,,,,,,,
53,4595664,1745473194687,0.0,37.0,,-0.07,-0.14,0.87,0.0,0.0,0.0,0.88,1.03,86.0,4287.0,4.2,3.68,,12.23,1.253,95.2,,38.2,5.0,,,,,,,,,,,,0,0,0,0,0,0,0,0,0,0,0,0,0,0,0,0,,,,,,0.0,,,,,,,
54,4595684,1745473194709,,,,,,,,,,,,,,,,,,,,,,,0.0,0.0,0.0,0.0,0.0,0.0,0.0,0.0,2.28,,,0,0,0,0,0,0,0,0,0,0,0,0,0,0,0,0,,0.0,,,,,38.994099,-76.939652,0.04,26.9,31.0,3.0,0.9
55,4595704,1745473194729,0.0,41.0,,-0.05,-0.17,0.83,0.0,0.0,0.0,0.85,1.03,83.0,4298.0,4.0,3.65,,11.93,1.255,95.2,,38.2,5.0,,,,,,,,,,,,0,0,0,0,0,0,0,0,0,0,0,0,0,0,0,0,,,,,,0.0,,,,,,,
56,4595724,1745473194749,,,,,,,,,,,,,,,,,,,,,,,,,,,,,,,,,,0,0,0,0,0,0,0,0,0,0,0,0,0,0,0,0,,,,,,,,,,,,,
57,4595744,1745473194769,0.0,47.0,,-0.06,-0.07,0.93,-1.0,0.0,0.0,0.93,1.03,90.0,4237.0,12.3,3.95,,11.93,1.255,95.2,,38.3,5.0,,,,,,,,,,,,0,0,0,0,0,0,0,0,0,0,0,0,0,0,0,0,,,,,,0.0,,,,,,,
58,4595764,1745473194789,,,,,,,,,,,,,,,,,,,,,,,,,,,,,,,,,,0,0,0,0,0,0,0,0,0,0,0,0,0,0,0,0,,,,,,,,,,,,,
59,4595784,1745473194805,0.0,41.0,,-0.07,-0.04,0.92,1.0,0.0,0.0,0.92,1.03,89.0,4237.0,12.3,3.95,,12.33,1.253,95.2,,38.3,5.0,0.0,0.0,0.0,0.0,0.0,0.0,0.0,0.0,2.28,,,0,0,0,0,0,0,0,0,0,0,0,0,0,0,0,0,,0.0,,,,0.0,38.994099,-76.939652,0.34,26.9,31.0,3.0,0.9
60,4595804,1745473194825,,,,,,,,,,,,,,,,,,,,,,,,,,,,,,,,,,0,0,0,0,0,0,0,0,0,0,0,0,0,0,0,0,,,,,,,,,,,,,
61,4595824,1745473194845,0.0,47.0,,-0.07,-0.12,0.87,-1.0,0.0,0.0,0.88,1.03,85.0,4180.0,19.6,4.15,,13.04,1.252,95.2,,37.4,5.0,,,,,,,,,,,,0,0,0,0,0,0,0,0,0,0,0,0,0,0,0,0,,,,,,0.0,,,,,,,
62,4595844,1745473194865,,,,,,,,,,,,,,,,,,,,,,,,,,,,,,,,,,0,0,0,0,0,0,0,0,0,0,0,0,0,0,0,0,,,,,,,,,,,,,
63,4595864,1745473194885,0.0,44.0,,-0.07,0.0,0.99,0.0,0.0,0.0,0.99,1.03,96.0,4225.0,21.1,4.31,,13.4,1.231,95.2,,37.4,5.0,,,,,,,,,,,,0,0,0,0,0,0,0,0,0,0,0,0,0,0,0,0,,,,,,0.0,,,,,,,
64,4595884,1745473194907,,,,,,,,,,,,,,,,,,,,,,,0.0,0.0,0.0,0.0,0.0,0.0,0.0,0.0,2.29,,,0,0,0,0,0,0,0,0,0,0,0,0,0,0,0,0,,0.0,,,,,38.994099,-76.939652,0.34,26.9,31.0,3.0,0.9
65,4595904,1745473194927,0.0,54.0,,-0.07,0.04,1.01,0.0,0.0,0.0,1.01,1.03,98.0,4343.0,21.4,4.27,,13.51,1.246,95.2,,37.4,5.0,,,,,,,,,,,,0,0,0,0,0,0,0,0,0,0,0,0,0,0,0,0,,,,,,0.0,,,,,,,
66,4595924,1745473194947,,,,,,,,,,,,,,,,,,,,,,,,,,,,,,,,,,0,0,0,0,0,0,0,0,0,0,0,0,0,0,0,0,,,,,,,,,,,,,
67,4595944,1745473194967,0.0,61.0,,-0.05,0.01,0.95,2.0,0.0,0.0,0.95,1.03,93.0,4460.0,15.0,4.08,,13.51,1.246,95.2,,39.3,5.0,,,,,,,,,,,,0,0,0,0,0,0,0,0,0,0,0,0,0,0,0,0,,,,,,0.0,,,,,,,
68,4595964,1745473194987,,,,,,,,,,,,,,,,,,,,,,,,,,,,,,,,,,0,0,0,0,0,0,0,0,0,0,0,0,0,0,0,0,,,,,,,,,,,,,
69,4595984,1745473195007,0.0,44.0,,-0.03,-0.04,0.88,3.0,0.0,0.0,0.89,1.03,86.0,4460.0,15.0,4.08,,13.35,1.252,95.2,,39.3,5.0,0.0,0.0,0.0,0.0,0.0,0.0,0.0,0.0,2.29,,,0,0,0,0,0,0,0,0,0,0,0,0,0,0,0,0,,0.0,,,,0.0,38.994099,-76.939652,0.34,26.9,31.0,3.0,0.9
70,4596004,1745473195019,,,,,,,,,,,,,,,,,,,,,,,,,,,,,,,,,,0,0,0,0,0,0,0,0,0,0,0,0,0,0,0,0,,,,,,,,,,,,,
71,4596024,1745473195039,0.0,47.0,,-0.01,-0.05,0.85,4.0,0.0,-1.0,0.85,1.03,82.0,4566.0,13.0,3.93,,13.0,1.252,95.2,,41.4,5.0,,,,,,,,,,,,0,0,0,0,0,0,0,0,0,0,0,0,0,0,0,0,,,,,,0.0,,,,,,,
72,4596044,1745473195059,,,,,,,,,,,,,,,,,,,,,,,,,,,,,,,,,,0,0,0,0,0,0,0,0,0,0,0,0,0,0,0,0,,,,,,,,,,,,,
73,4596064,1745473195079,0.0,47.0,,0.01,-0.05,0.86,5.0,0.0,-1.0,0.86,1.03,84.0,4590.0,12.7,3.89,,12.95,1.252,95.2,,41.4,5.0,,,,,,,,,,,,0,0,0,0,0,0,0,0,0,0,0,0,0,0,0,0,,,,,,0.0,,,,,,,
74,4596084,1745473195105,,,,,,,,,,,,,,,,,,,,,,,0.0,0.0,0.0,0.0,0.0,0.0,0.0,0.0,2.28,,,0,0,0,0,0,0,0,0,0,0,0,0,0,0,0,0,,0.0,,,,,38.994099,-76.939652,0.12,26.9,31.0,3.0,0.9
75,4596104,1745473195125,0.0,44.0,,0.01,0.01,0.94,5.0,0.0,0.0,0.94,1.03,91.0,4538.0,12.7,3.89,,12.81,1.252,95.2,,41.4,5.0,,,,,,,,,,,,0,0,0,0,0,0,0,0,0,0,0,0,0,0,0,0,,,,,,0.0,,,,,,,
76,4596124,1745473195145,,,,,,,,,,,,,,,,,,,,,,,,,,,,,,,,,,0,0,0,0,0,0,0,0,0,0,0,0,0,0,0,0,,,,,,,,,,,,,
77,4596144,1745473195165,0.0,37.0,,0.0,0.07,1.04,4.0,0.0,0.0,1.04,1.04,100.0,4578.0,12.7,3.87,,12.81,1.252,95.2,,41.8,5.0,,,,,,,,,,,,0,0,0,0,0,0,0,0,0,0,0,0,0,0,0,0,,,,,,0.0,,,,,,,
78,4596164,1745473195185,,,,,,,,,,,,,,,,,,,,,,,,,,,,,,,,,,0,0,0,0,0,0,0,0,0,0,0,0,0,0,0,0,,,,,,,,,,,,,
79,4596184,1745473195209,0.0,41.0,,-0.03,0.09,1.09,2.0,0.0,0.0,1.1,1.1,100.0,4578.0,12.7,3.87,,12.76,1.253,95.2,,41.8,5.0,0.0,0.0,0.0,0.0,0.0,0.0,0.0,0.0,2.29,,,0,0,0,0,0,0,0,0,0,0,0,0,0,0,0,0,,0.0,,,,0.0,38.994099,-76.939652,0.16,26.9,31.0,3.0,0.9
80,4596204,1745473195229,,,,,,,,,,,,,,,,,,,,,,,,,,,,,,,,,,0,0,0,0,0,0,0,0,0,0,0,0,0,0,0,0,,,,,,,,,,,,,
81,4596224,1745473195249,0.0,47.0,,-0.06,0.06,1.08,1.0,0.0,0.0,1.09,1.1,99.0,4558.0,12.8,3.88,,12.77,1.255,95.2,,41.4,5.0,,,,,,,,,,,,0,0,0,0,0,0,0,0,0,0,0,0,0,0,0,0,,,,,,0.0,,,,,,,
82,4596244,1745473195269,,,,,,,,,,,,,,,,,,,,,,,,,,,,,,,,,,0,0,0,0,0,0,0,0,0,0,0,0,0,0,0,0,,,,,,,,,,,,,
83,4596264,1745473195289,0.0,61.0,,-0.08,-0.02,1.01,-1.0,0.0,0.0,1.01,1.1,92.0,4564.0,13.0,3.87,,12.75,1.253,95.2,,41.4,5.0,,,,,,,,,,,,0,0,0,0,0,0,0,0,0,0,0,0,0,0,0,0,,,,,,0.0,,,,,,,
84,4596284,1745473195307,,,,,,,,,,,,,,,,,,,,,,,0.0,0.0,0.0,0.0,0.0,0.0,0.0,0.0,2.29,,,0,0,0,0,0,0,0,0,0,0,0,0,0,0,0,0,,0.0,,,,,38.994099,-76.939652,0.12,26.9,31.0,3.0,0.9
85,4596304,1745473195327,0.0,41.0,,-0.08,-0.1,0.93,-1.0,0.0,0.0,0.94,1.1,85.0,4532.0,13.1,3.9,,12.69,1.252,95.2,,41.4,5.0,,,,,,,,,,,,0,0,0,0,0,0,0,0,0,0,0,0,0,0,0,0,,,,,,0.0,,,,,,,
86,4596324,1745473195347,,,,,,,,,,,,,,,,,,,,,,,,,,,,,,,,,,0,0,0,0,0,0,0,0,0,0,0,0,0,0,0,0,,,,,,,,,,,,,
87,4596344,1745473195367,0.0,44.0,,-0.06,-0.09,0.86,0.0,0.0,0.0,0.87,1.1,79.0,4624.0,12.9,3.88,,12.69,1.252,95.2,,41.6,5.0,,,,,,,,,,,,0,0,0,0,0,0,0,0,0,0,0,0,0,0,0,0,,,,,,0.0,,,,,,,
88,4596364,1745473195387,,,,,,,,,,,,,,,,,,,,,,,,,,,,,,,,,,0,0,0,0,0,0,0,0,0,0,0,0,0,0,0,0,,,,,,,,,,,,,
89,4596384,1745473195409,0.0,51.0,13.35,-0.04,-0.06,0.88,1.0,0.0,-1.0,0.88,1.1,80.0,4624.0,12.9,3.88,15.0,12.79,1.252,95.2,165.0,41.6,5.0,0.0,0.0,0.0,0.0,0.0,0.0,0.0,0.0,2.28,0.0,1.0,0,0,0,0,0,0,0,0,0,0,0,0,0,0,0,0,0.0,0.0,1.0,0.0,0.0,0.0,38.994099,-76.939652,0.09,26.9,31.0,3.0,0.9
90,4596404,1745473195429,,,,,,,,,,,,,,,,,,,,,,,,,,,,,,,,,,0,0,0,0,0,0,0,0,0,0,0,0,0,0,0,0,,,,,,,,,,,,,
91,4596424,1745473195449,0.0,57.0,,-0.04,0.0,0.98,3.0,0.0,0.0,0.98,1.1,89.0,4624.0,12.7,3.89,,12.69,1.252,95.2,,41.9,5.0,,,,,,,,,,,,0,0,0,0,0,0,0,0,0,0,0,0,0,0,0,0,,,,,,0.0,,,,,,,
92,4596444,1745473195469,,,,,,,,,,,,,,,,,,,,,,,,,,,,,,,,,,0,0,0,0,0,0,0,0,0,0,0,0,0,0,0,0,,,,,,,,,,,,,
93,4596464,1745473195489,0.0,44.0,,-0.06,0.1,1.09,3.0,0.0,0.0,1.09,1.1,99.0,4604.0,12.7,3.88,,12.68,1.253,95.2,,41.9,5.0,,,,,,,,,,,,0,0,0,0,0,0,0,0,0,0,0,0,0,0,0,0,,,,,,0.0,,,,,,,
94,4596484,1745473195508,,,,,,,,,,,,,,,,,,,,,,,0.0,0.0,0.0,0.0,0.0,0.0,0.0,0.0,2.29,,,0,0,0,0,0,0,0,0,0,0,0,0,0,0,0,0,,0.0,,,,,38.994099,-76.939652,0.05,26.9,31.0,3.0,0.9
95,4596504,1745473195528,0.0,44.0,,-0.09,0.08,1.11,2.0,0.0,0.0,1.11,1.11,100.0,4622.0,12.7,3.88,,12.75,1.253,95.2,,41.9,5.0,,,,,,,,,,,,0,0,0,0,0,0,0,0,0,0,0,0,0,0,0,0,,,,,,0.0,,,,,,,
96,4596524,1745473195548,,,,,,,,,,,,,,,,,,,,,,,,,,,,,,,,,,0,0,0,0,0,0,0,0,0,0,0,0,0,0,0,0,,,,,,,,,,,,,
97,4596544,1745473195568,0.0,47.0,,-0.1,-0.01,1.06,0.0,0.0,0.0,1.07,1.11,96.0,4613.0,12.8,3.87,,12.75,1.253,95.2,,42.0,5.0,,,,,,,,,,,,0,0,0,0,0,0,0,0,0,0,0,0,0,0,0,0,,,,,,0.0,,,,,,,
98,4596564,1745473195588,,,,,,,,,,,,,,,,,,,,,,,,,,,,,,,,,,0,0,0,0,0,0,0,0,0,0,0,0,0,0,0,0,,,,,,,,,,,,,
99,4596584,1745473195608,0.0,64.0,,-0.1,-0.04,1.0,-1.0,0.0,0.0,1.0,1.11,90.0,4613.0,12.8,3.87,,12.79,1.253,95.2,,42.0,5.0,0.0,0.0,0.0,0.0,0.0,0.0,0.0,0.0,2.29,,,0,0,0,0,0,0,0,0,0,0,0,0,0,0,0,0,,0.0,,,,0.0,38.994099,-76.939652,0.14,26.9,31.0,3.0,0.9
100,4596604,1745473195628,,,,,,,,,,,,,,,,,,,,,,,,,,,,,,,,,,0,0,0,0,0,0,0,0,0,0,0,0,0,0,0,0,,,,,,,,,,,,,
101,4596624,1745473195648,0.0,57.0,,-0.08,-0.08,0.9,-2.0,0.0,0.0,0.91,1.11,82.0,4625.0,12.8,3.89,,12.69,1.253,95.2,,41.9,5.0,,,,,,,,,,,,0,0,0,0,0,0,0,0,0,0,0,0,0,0,0,0,,,,,,0.0,,,,,,,
102,4596644,1745473195668,,,,,,,,,,,,,,,,,,,,,,,,,,,,,,,,,,0,0,0,0,0,0,0,0,0,0,0,0,0,0,0,0,,,,,,,,,,,,,
103,4596664,1745473195688,0.0,44.0,,-0.05,-0.08,0.9,-1.0,0.0,0.0,0.9,1.11,81.0,4606.0,12.8,3.87,,12.75,1.255,95.2,,41.9,5.0,,,,,,,,,,,,0,0,0,0,0,0,0,0,0,0,0,0,0,0,0,0,,,,,,0.0,,,,,,,
104,4596684,1745473195708,,,,,,,,,,,,,,,,,,,,,,,0.0,0.0,0.0,0.0,0.0,0.0,0.0,0.0,2.28,,,0,0,0,0,0,0,0,0,0,0,0,0,0,0,0,0,,0.0,,,,,38.994099,-76.939652,0.05,26.9,31.0,3.0,0.9
105,4596704,1745473195728,0.0,51.0,,-0.06,-0.02,0.99,2.0,0.0,0.0,0.99,1.11,89.0,4608.0,12.8,3.88,,12.73,1.252,95.2,,41.9,5.0,,,,,,,,,,,,0,0,0,0,0,0,0,0,0,0,0,0,0,0,0,0,,,,,,0.0,,,,,,,
106,4596724,1745473195748,,,,,,,,,,,,,,,,,,,,,,,,,,,,,,,,,,0,0,0,0,0,0,0,0,0,0,0,0,0,0,0,0,,,,,,,,,,,,,
107,4596744,1745473195768,0.0,47.0,,-0.09,0.04,1.07,2.0,0.0,0.0,1.08,1.11,97.0,4580.0,13.1,3.86,,12.73,1.252,95.2,,41.7,5.0,,,,,,,,,,,,0,0,0,0,0,0,0,0,0,0,0,0,0,0,0,0,,,,,,0.0,,,,,,,
108,4596764,1745473195788,,,,,,,,,,,,,,,,,,,,,,,,,,,,,,,,,,0,0,0,0,0,0,0,0,0,0,0,0,0,0,0,0,,,,,,,,,,,,,
109,4596784,1745473195806,0.0,34.0,,-0.11,0.03,1.09,1.0,0.0,0.0,1.09,1.11,98.0,4580.0,13.1,3.86,,12.71,1.252,95.2,,41.7,5.0,0.0,0.0,0.0,0.0,0.0,0.0,0.0,0.0,2.29,,,0,0,0,0,0,0,0,0,0,0,0,0,0,0,0,0,,0.0,,,,0.0,38.994099,-76.939652,0.11,26.9,31.0,3.0,0.9
110,4596804,1745473195826,,,,,,,,,,,,,,,,,,,,,,,,,,,,,,,,,,0,0,0,0,0,0,0,0,0,0,0,0,0,0,0,0,,,,,,,,,,,,,
111,4596824,1745473195846,0.0,54.0,,-0.12,-0.03,1.04,0.0,0.0,0.0,1.05,1.11,94.0,4575.0,13.1,3.86,,12.73,1.253,95.2,,41.2,5.0,,,,,,,,,,,,0,0,0,0,0,0,0,0,0,0,0,0,0,0,0,0,,,,,,0.0,,,,,,,
112,4596844,1745473195866,,,,,,,,,,,,,,,,,,,,,,,,,,,,,,,,,,0,0,0,0,0,0,0,0,0,0,0,0,0,0,0,0,,,,,,,,,,,,,
113,4596864,1745473195886,0.0,54.0,,-0.1,-0.07,0.94,-2.0,0.0,0.0,0.95,1.11,85.0,4579.0,13.3,3.89,,12.77,1.249,95.2,,41.2,5.0,,,,,,,,,,,,0,0,0,0,0,0,0,0,0,0,0,0,0,0,0,0,,,,,,0.0,,,,,,,
114,4596884,1745473195908,,,,,,,,,,,,,,,,,,,,,,,0.0,0.0,0.0,0.0,0.0,0.0,0.0,0.0,2.29,,,0,0,0,0,0,0,0,0,0,0,0,0,0,0,0,0,,0.0,,,,,38.994099,-76.939652,0.16,26.9,31.0,3.0,0.9
115,4596904,1745473195928,0.0,47.0,,-0.07,-0.11,0.88,-2.0,0.0,0.0,0.89,1.11,80.0,4582.0,19.6,4.2,,13.07,1.251,95.2,,41.2,5.0,,,,,,,,,,,,0,0,0,0,0,0,0,0,0,0,0,0,0,0,0,0,,,,,,0.0,,,,,,,
116,4596924,1745473195948,,,,,,,,,,,,,,,,,,,,,,,,,,,,,,,,,,0,0,0,0,0,0,0,0,0,0,0,0,0,0,0,0,,,,,,,,,,,,,
117,4596944,1745473195968,0.0,61.0,,-0.06,-0.09,0.93,0.0,0.0,0.0,0.93,1.11,84.0,4582.0,19.6,4.2,,13.07,1.251,95.2,,41.5,5.0,,,,,,,,,,,,0,0,0,0,0,0,0,0,0,0,0,0,0,0,0,0,,,,,,0.0,,,,,,,
118,4596964,1745473195988,,,,,,,,,,,,,,,,,,,,,,,,,,,,,,,,,,0,0,0,0,0,0,0,0,0,0,0,0,0,0,0,0,,,,,,,,,,,,,
119,4596984,1745473196008,0.0,41.0,,-0.07,-0.05,0.98,0.0,0.0,0.0,0.98,1.11,88.0,4649.0,24.0,4.4,,13.48,1.252,95.2,,41.5,5.0,0.0,0.0,1.0,0.0,0.0,0.0,0.0,0.0,2.29,,,0,0,0,0,0,0,0,0,0,0,0,0,0,0,0,0,,0.0,,,,0.0,38.994099,-76.939652,0.16,26.9,31.0,3.0,0.9
120,4597004,1745473196019,,,,,,,,,,,,,,,,,,,,,,,,,,,,,,,,,,0,0,0,0,0,0,0,0,0,0,0,0,0,0,0,0,,,,,,,,,,,,,
121,4597024,1745473196039,0.0,61.0,,-0.07,-0.05,0.96,0.0,0.0,0.0,0.96,1.11,87.0,4829.0,32.8,5.04,,13.86,1.253,95.2,,44.5,5.0,,,,,,,,,,,,0,0,0,0,0,0,0,0,0,0,0,0,0,0,0,0,,,,,,0.0,,,,,,,
122,4597044,1745473196059,,,,,,,,,,,,,,,,,,,,,,,,,,,,,,,,,,0,0,0,0,0,0,0,0,0,0,0,0,0,0,0,0,,,,,,,,,,,,,
123,4597064,1745473196079,0.0,47.0,,-0.06,-0.01,0.99,0.0,0.0,0.0,1.0,1.11,90.0,5196.0,37.9,4.79,,13.92,1.253,95.2,,44.5,5.0,,,,,,,,,,,,0,0,0,0,0,0,0,0,0,0,0,0,0,0,0,0,,,,,,0.0,,,,,,,
124,4597084,1745473196108,,,,,,,,,,,,,,,,,,,,,,,0.0,0.0,1.0,0.0,0.0,0.0,0.0,0.0,2.29,,,0,0,0,0,0,0,0,0,0,0,0,0,0,0,0,0,,0.0,,,,,38.994099,-76.939652,0.05,26.9,31.0,3.0,0.9
125,4597104,1745473196128,0.0,41.0,,-0.06,-0.06,0.9,-1.0,0.0,0.0,0.9,1.11,81.0,5519.0,39.4,4.78,,13.91,1.252,95.2,,44.5,5.0,,,,,,,,,,,,0,0,0,0,0,0,0,0,0,0,0,0,0,0,0,0,,,,,,0.0,,,,,,,
126,4597124,1745473196148,,,,,,,,,,,,,,,,,,,,,,,,,,,,,,,,,,0,0,0,0,0,0,0,0,0,0,0,0,0,0,0,0,,,,,,,,,,,,,
127,4597144,1745473196168,0.0,44.0,,-0.11,0.01,1.01,1.0,0.0,0.0,1.02,1.11,91.0,5917.0,39.5,4.78,,13.91,1.252,95.2,,46.0,5.0,,,,,,,,,,,,0,0,0,0,0,0,0,0,0,0,0,0,0,0,0,0,,,,,,0.0,,,,,,,
128,4597164,1745473196188,,,,,,,,,,,,,,,,,,,,,,,,,,,,,,,,,,0,0,0,0,0,0,0,0,0,0,0,0,0,0,0,0,,,,,,,,,,,,,
129,4597184,1745473196206,0.0,37.0,,-0.18,0.08,1.0,2.0,0.0,0.0,1.02,1.11,92.0,5917.0,39.5,4.78,,13.79,1.254,95.2,,46.0,5.0,0.0,0.0,1.0,0.0,0.0,0.0,0.0,0.0,2.29,,,0,0,0,0,0,0,0,0,0,0,0,0,0,0,0,0,,0.0,,,,0.0,38.994099,-76.939652,0.05,26.9,31.0,3.0,0.9
130,4597204,1745473196226,,,,,,,,,,,,,,,,,,,,,,,,,,,,,,,,,,0,0,0,0,0,0,0,0,0,0,0,0,0,0,0,0,,,,,,,,,,,,,
131,4597224,1745473196246,0.0,44.0,,-0.14,0.01,0.99,1.0,0.0,0.0,1.0,1.11,90.0,6355.0,39.8,5.05,,13.67,1.253,95.2,,47.7,5.0,,,,,,,,,,,,0,0,0,0,0,0,0,0,0,0,0,0,0,0,0,0,,,,,,0.0,,,,,,,
132,4597244,1745473196266,,,,,,,,,,,,,,,,,,,,,,,,,,,,,,,,,,0,0,0,0,0,0,0,0,0,0,0,0,0,0,0,0,,,,,,,,,,,,,
133,4597264,1745473196286,0.0,44.0,,-0.16,0.12,0.97,1.0,-1.0,0.0,0.99,1.11,89.0,7233.0,40.1,5.41,,13.47,1.251,95.2,,47.7,5.0,,,,,,,,,,,,0,0,0,0,0,0,0,0,0,0,0,0,0,0,0,0,,,,,,0.0,,,,,,,
134,4597284,1745473196307,,,,,,,,,,,,,,,,,,,,,,,0.0,0.0,1.0,0.0,0.0,0.0,0.0,0.0,2.28,,,0,0,0,0,0,0,0,0,0,0,0,0,0,0,0,0,,0.0,,,,,38.994099,-76.939652,0.05,26.9,31.0,3.0,0.9
135,4597304,1745473196327,0.0,51.0,,-0.14,0.07,1.05,2.0,-1.0,0.0,1.06,1.11,95.0,8749.0,40.9,4.94,,12.84,1.09,95.2,,47.7,5.0,,,,,,,,,,,,0,0,0,0,0,0,0,0,0,0,0,0,0,0,0,0,,,,,,0.0,,,,,,,
136,4597324,1745473196347,,,,,,,,,,,,,,,,,,,,,,,,,,,,,,,,,,0,0,0,0,0,0,0,0,0,0,0,0,0,0,0,0,,,,,,,,,,,,,
137,4597344,1745473196367,0.0,41.0,,-0.17,0.04,1.11,3.0,-1.0,0.0,1.12,1.12,100.0,10227.0,40.9,5.08,,12.84,1.09,95.2,,49.7,5.0,,,,,,,,,,,,0,0,0,0,0,0,0,0,0,0,0,0,0,0,0,0,,,,,,0.0,,,,,,,
138,4597364,1745473196387,,,,,,,,,,,,,,,,,,,,,,,,,,,,,,,,,,0,0,0,0,0,0,0,0,0,0,0,0,0,0,0,0,,,,,,,,,,,,,
139,4597384,1745473196408,0.0,30.0,13.33,-0.17,-0.15,1.12,3.0,0.0,0.0,1.14,1.14,100.0,10227.0,40.9,5.08,15.0,12.28,0.987,95.2,165.0,49.7,5.0,0.0,0.0,1.0,0.0,0.0,0.0,0.0,0.0,2.29,0.0,1.0,0,0,0,0,0,0,0,0,0,0,0,0,0,0,0,0,0.0,0.0,1.0,0.0,0.0,0.0,38.994099,-76.939652,0.04,26.9,31.0,3.0,0.9
140,4597404,1745473196428,,,,,,,,,,,,,,,,,,,,,,,,,,,,,,,,,,0,0,0,0,0,0,0,0,0,0,0,0,0,0,0,0,,,,,,,,,,,,,
141,4597424,1745473196448,0.0,51.0,,-0.12,-0.06,1.09,4.0,0.0,0.0,1.1,1.14,97.0,11773.0,40.8,4.51,,11.77,0.949,95.2,,55.9,5.0,,,,,,,,,,,,0,0,0,0,0,0,0,0,0,0,0,0,0,0,0,0,,,,,,0.0,,,,,,,
142,4597444,1745473196468,,,,,,,,,,,,,,,,,,,,,,,,,,,,,,,,,,0,0,0,0,0,0,0,0,0,0,0,0,0,0,0,0,,,,,,,,,,,,,
143,4597464,1745473196488,0.0,64.0,,-0.14,0.17,1.03,4.0,0.0,0.0,1.05,1.14,93.0,12990.0,40.8,3.78,,11.42,0.914,95.2,,55.9,5.0,,,,,,,,,,,,0,0,0,0,0,0,0,0,0,0,0,0,0,0,0,0,,,,,,0.0,,,,,,,
144,4597484,1745473196507,,,,,,,,,,,,,,,,,,,,,,,0.0,0.0,1.0,0.0,0.0,0.0,0.0,0.0,2.29,,,0,0,0,0,0,0,0,0,0,0,0,0,0,0,0,0,,0.0,,,,,38.994099,-76.939652,0.05,26.9,31.0,3.0,0.9
145,4597504,1745473196527,0.0,51.0,,-0.15,0.27,0.99,2.0,0.0,2.0,1.04,1.14,91.0,13953.0,41.0,3.61,,11.26,0.894,95.2,,55.9,5.0,,,,,,,,,,,,0,0,0,0,0,0,0,0,0,0,0,0,0,0,0,0,,,,,,0.0,,,,,,,
146,4597524,1745473196547,,,,,,,,,,,,,,,,,,,,,,,,,,,,,,,,,,0,0,0,0,0,0,0,0,0,0,0,0,0,0,0,0,,,,,,,,,,,,,
147,4597544,1745473196567,0.0,34.0,,-0.11,0.06,1.03,-1.0,0.0,2.0,1.04,1.14,91.0,13953.0,41.0,3.61,,11.26,0.894,95.2,,68.4,5.0,,,,,,,,,,,,0,0,0,0,0,0,0,0,0,0,0,0,0,0,0,0,,,,,,0.0,,,,,,,
148,4597564,1745473196587,,,,,,,,,,,,,,,,,,,,,,,,,,,,,,,,,,0,0,0,0,0,0,0,0,0,0,0,0,0,0,0,0,,,,,,,,,,,,,
149,4597584,1745473196607,0.0,54.0,,-0.09,0.05,0.99,-1.0,0.0,1.0,1.0,1.14,88.0,13104.0,56.0,4.09,,12.08,0.958,95.2,,68.4,5.0,0.0,0.0,1.0,0.0,0.0,0.0,0.0,0.0,2.29,,,0,0,0,0,0,0,0,0,0,0,0,0,0,0,0,0,,0.0,,,,0.0,38.994099,-76.939652,0.0,26.9,31.0,3.0,0.9
150,4597604,1745473196627,,,,,,,,,,,,,,,,,,,,,,,,,,,,,,,,,,0,0,0,0,0,0,0,0,0,0,0,0,0,0,0,0,,,,,,,,,,,,,
151,4597624,1745473196647,0.0,57.0,,-0.03,0.12,0.99,-1.0,1.0,1.0,1.0,1.14,88.0,12769.0,85.7,4.76,,12.61,1.25,95.2,,68.4,5.0,,,,,,,,,,,,0,0,0,0,0,0,0,0,0,0,0,0,0,0,0,0,,,,,,0.0,,,,,,,
152,4597644,1745473196667,,,,,,,,,,,,,,,,,,,,,,,,,,,,,,,,,,0,0,0,0,0,0,0,0,0,0,0,0,0,0,0,0,,,,,,,,,,,,,
153,4597664,1745473196687,0.0,47.0,,-0.02,0.11,0.96,0.0,1.0,1.0,0.96,1.14,85.0,11685.0,93.6,5.55,,13.08,1.25,95.2,,67.8,5.0,,,,,,,,,,,,0,0,0,0,0,0,0,0,0,0,0,0,0,0,0,0,,,,,,0.0,,,,,,,
154,4597684,1745473196709,,,,,,,,,,,,,,,,,,,,,,,0.0,0.0,17.0,17.0,0.0,0.0,0.0,0.0,2.28,,,0,0,0,0,0,0,0,0,0,0,0,0,0,0,0,0,,0.0,,,,,38.994099,-76.939652,0.63,26.9,31.0,3.0,0.9
155,4597704,1745473196729,0.0,47.0,,0.01,0.11,1.06,0.0,1.0,0.0,1.06,1.14,93.0,11089.0,95.4,5.59,,13.6,1.114,95.2,,67.8,5.0,,,,,,,,,,,,0,0,0,0,0,0,0,0,0,0,0,0,0,0,0,0,,,,,,0.0,,,,,,,
156,4597724,1745473196749,,,,,,,,,,,,,,,,,,,,,,,,,,,,,,,,,,0,0,0,0,0,0,0,0,0,0,0,0,0,0,0,0,,,,,,,,,,,,,
157,4597744,1745473196769,0.0,47.0,,0.05,0.17,1.08,-1.0,0.0,0.0,1.09,1.14,96.0,11795.0,99.4,5.24,,13.6,1.114,95.2,,63.5,5.0,,,,,,,,,,,,0,0,0,0,0,0,0,0,0,0,0,0,0,0,0,0,,,,,,0.0,,,,,,,
158,4597764,1745473196789,,,,,,,,,,,,,,,,,,,,,,,,,,,,,,,,,,0,0,0,0,0,0,0,0,0,0,0,0,0,0,0,0,,,,,,,,,,,,,
159,4597784,1745473196809,0.0,47.0,,0.06,0.23,1.12,1.0,0.0,0.0,1.15,1.15,100.0,11795.0,99.4,5.24,,13.48,1.014,95.2,,63.5,5.0,1.0,0.0,36.0,38.0,0.0,0.0,0.0,0.0,2.28,,,0,0,0,0,0,0,0,0,0,0,0,0,0,0,0,0,,0.0,,,,0.0,38.994099,-76.939652,3.16,26.9,31.0,3.0,0.9
160,4597804,1745473196829,,,,,,,,,,,,,,,,,,,,,,,,,,,,,,,,,,0,0,0,0,0,0,0,0,0,0,0,0,0,0,0,0,,,,,,,,,,,,,
161,4597824,1745473196849,0.0,57.0,,0.13,0.28,1.09,0.0,0.0,1.0,1.14,1.15,99.0,12205.0,99.5,5.12,,13.27,1.019,95.2,,63.5,5.0,,,,,,,,,,,,0,0,0,0,0,0,0,0,0,0,0,0,0,0,0,0,,,,,,0.0,,,,,,,
162,4597844,1745473196869,,,,,,,,,,,,,,,,,,,,,,,,,,,,,,,,,,0,0,0,0,0,0,0,0,0,0,0,0,0,0,0,0,,,,,,,,,,,,,
163,4597864,1745473196889,0.0,44.0,,0.22,0.14,1.1,-1.0,0.0,1.0,1.13,1.15,98.0,12342.0,99.5,5.04,,13.19,1.029,95.2,,66.1,5.0,,,,,,,,,,,,0,0,0,0,0,0,0,0,0,0,0,0,0,0,0,0,,,,,,0.0,,,,,,,
164,4597884,1745473196909,,,,,,,,,,,,,,,,,,,,,,,3.0,0.0,36.0,37.0,0.0,0.0,0.0,0.0,2.29,,,0,0,0,0,0,0,0,0,0,0,0,0,0,0,0,0,,1.0,,,,,38.994099,-76.939644,5.52,26.9,31.0,3.0,0.9
165,4597904,1745473196929,0.0,51.0,,0.21,0.03,1.07,-2.0,0.0,1.0,1.09,1.15,96.0,12359.0,99.4,5.03,,13.21,1.047,95.2,,66.1,5.0,,,,,,,,,,,,0,0,0,0,0,0,0,0,0,0,0,0,0,0,0,0,,,,,,0.0,,,,,,,
166,4597924,1745473196949,,,,,,,,,,,,,,,,,,,,,,,,,,,,,,,,,,0,0,0,0,0,0,0,0,0,0,0,0,0,0,0,0,,,,,,,,,,,,,
167,4597944,1745473196969,0.0,51.0,,0.21,0.0,1.08,-2.0,0.0,1.0,1.09,1.15,96.0,12583.0,99.4,5.0,,13.21,1.047,95.2,,66.2,5.0,,,,,,,,,,,,0,0,0,0,0,0,0,0,0,0,0,0,0,0,0,0,,,,,,0.0,,,,,,,
168,4597964,1745473196989,,,,,,,,,,,,,,,,,,,,,,,,,,,,,,,,,,0,0,0,0,0,0,0,0,0,0,0,0,0,0,0,0,,,,,,,,,,,,,
169,4597984,1745473197003,0.0,61.0,,0.25,-0.04,1.06,1.0,0.0,0.0,1.09,1.15,95.0,12583.0,99.4,5.0,,13.2,1.06,95.2,,66.2,5.0,5.0,0.0,36.0,36.0,0.0,0.0,0.0,0.0,2.29,,,0,0,0,0,0,0,0,0,0,0,0,0,0,0,0,0,,1.0,,,,0.0,38.994099,-76.939644,8.1,26.9,31.0,3.0,0.9
170,4598004,1745473197023,,,,,,,,,,,,,,,,,,,,,,,,,,,,,,,,,,0,0,0,0,0,0,0,0,0,0,0,0,0,0,0,0,,,,,,,,,,,,,
171,4598024,1745473197043,0.0,64.0,,0.3,-0.04,1.05,2.0,0.0,-1.0,1.09,1.15,95.0,12791.0,99.4,4.85,,13.17,1.036,95.2,,68.5,5.0,,,,,,,,,,,,0,0,0,0,0,0,0,0,0,0,0,0,0,0,0,0,,,,,,0.0,,,,,,,
172,4598044,1745473197063,,,,,,,,,,,,,,,,,,,,,,,,,,,,,,,,,,0,0,0,0,0,0,0,0,0,0,0,0,0,0,0,0,,,,,,,,,,,,,
173,4598064,1745473197083,0.0,51.0,,0.37,-0.16,1.04,-2.0,0.0,0.0,1.12,1.15,97.0,12701.0,99.4,4.86,,13.23,1.038,91.6,,68.5,5.0,,,,,,,,,,,,0,0,0,0,0,0,0,0,0,0,0,0,0,0,0,0,,,,,,0.0,,,,,,,
174,4598084,1745473197106,,,,,,,,,,,,,,,,,,,,,,,6.0,0.0,37.0,39.0,0.0,0.0,0.0,0.0,2.29,,,0,0,0,0,0,0,0,0,0,0,0,0,0,0,0,0,,1.0,,,,,38.994099,-76.939644,10.3,26.9,31.0,3.0,0.9
175,4598104,1745473197126,0.0,44.0,,0.42,-0.12,1.05,-1.0,0.0,0.0,1.14,1.15,99.0,12555.0,99.4,4.97,,13.15,1.064,91.6,,68.5,5.0,,,,,,,,,,,,0,0,0,0,0,0,0,0,0,0,0,0,0,0,0,0,,,,,,0.0,,,,,,,
176,4598124,1745473197146,,,,,,,,,,,,,,,,,,,,,,,,,,,,,,,,,,0,0,0,0,0,0,0,0,0,0,0,0,0,0,0,0,,,,,,,,,,,,,
177,4598144,1745473197166,0.0,54.0,,0.38,-0.2,1.07,0.0,-1.0,-1.0,1.16,1.16,100.0,12555.0,99.4,4.97,,13.15,1.064,91.6,,64.5,5.0,,,,,,,,,,,,0,0,0,0,0,0,0,0,0,0,0,0,0,0,0,0,,,,,,0.0,,,,,,,
178,4598164,1745473197186,,,,,,,,,,,,,,,,,,,,,,,,,,,,,,,,,,0,0,0,0,0,0,0,0,0,0,0,0,0,0,0,0,,,,,,,,,,,,,
179,4598184,1745473197205,0.0,61.0,,0.39,-0.08,1.09,1.0,-1.0,0.0,1.16,1.16,100.0,12506.0,99.4,5.02,,13.27,1.074,91.6,,64.5,5.0,8.0,0.0,39.0,38.0,0.0,172.0,0.0,0.0,2.29,,,0,0,0,0,0,0,0,0,0,0,0,0,0,0,0,0,,1.0,,,,0.0,38.994099,-76.939636,12.9,26.9,32.0,3.0,0.9
180,4598204,1745473197225,,,,,,,,,,,,,,,,,,,,,,,,,,,,,,,,,,0,0,0,0,0,0,0,0,0,0,0,0,0,0,0,0,,,,,,,,,,,,,
181,4598224,1745473197245,0.0,85.0,,0.45,-0.21,1.08,3.0,0.0,-1.0,1.19,1.19,100.0,12403.0,99.4,5.06,,13.24,1.066,91.6,,66.9,5.0,,,,,,,,,,,,0,0,0,0,0,0,0,0,0,0,0,0,0,0,0,0,,,,,,0.0,,,,,,,
182,4598244,1745473197265,,,,,,,,,,,,,,,,,,,,,,,,,,,,,,,,,,0,0,0,0,0,0,0,0,0,0,0,0,0,0,0,0,,,,,,,,,,,,,
183,4598264,1745473197285,0.0,64.0,,0.52,-0.24,1.0,3.0,0.0,0.0,1.15,1.19,97.0,12205.0,99.4,5.11,,13.33,1.069,91.6,,66.9,5.0,,,,,,,,,,,,0,0,0,0,0,0,0,0,0,0,0,0,0,0,0,0,,,,,,0.0,,,,,,,
184,4598284,1745473197309,,,,,,,,,,,,,,,,,,,,,,,9.0,0.0,37.0,37.0,0.0,79.0,0.0,0.0,2.29,,,0,0,0,0,0,0,0,0,0,0,0,0,0,0,0,0,,1.0,,,,,38.994099,-76.939629,15.38,26.9,32.0,3.0,0.9
185,4598304,1745473197329,0.0,57.0,,0.59,-0.08,1.0,2.0,0.0,0.0,1.17,1.19,98.0,12188.0,99.4,5.11,,13.35,1.055,91.6,,66.9,5.0,,,,,,,,,,,,0,0,0,0,0,0,0,0,0,0,0,0,0,0,0,0,,,,,,0.0,,,,,,,
186,4598324,1745473197349,,,,,,,,,,,,,,,,,,,,,,,,,,,,,,,,,,0,0,0,0,0,0,0,0,0,0,0,0,0,0,0,0,,,,,,,,,,,,,
187,4598344,1745473197369,0.0,54.0,,0.6,0.04,1.1,3.0,0.0,1.0,1.26,1.26,100.0,12080.0,99.5,5.13,,13.35,1.055,91.6,,62.1,5.0,,,,,,,,,,,,0,0,0,0,0,0,0,0,0,0,0,0,0,0,0,0,,,,,,0.0,,,,,,,
188,4598364,1745473197389,,,,,,,,,,,,,,,,,,,,,,,,,,,,,,,,,,0,0,0,0,0,0,0,0,0,0,0,0,0,0,0,0,,,,,,,,,,,,,
189,4598384,1745473197407,0.0,57.0,13.29,0.61,-0.04,1.2,3.0,0.0,1.0,1.35,1.35,100.0,12080.0,99.5,5.13,15.0,13.35,1.048,91.6,164.0,62.1,5.0,11.0,0.0,37.0,37.0,0.0,57.0,0.0,0.0,2.29,0.0,1.0,0,0,0,0,0,0,0,0,0,0,0,0,0,0,0,0,0.0,1.0,1.0,0.0,0.0,0.0,38.994099,-76.939621,18.24,26.8,32.0,3.0,0.9
190,4598404,1745473197427,,,,,,,,,,,,,,,,,,,,,,,,,,,,,,,,,,0,0,0,0,0,0,0,0,0,0,0,0,0,0,0,0,,,,,,,,,,,,,
191,4598424,1745473197447,0.0,54.0,,0.63,0.02,1.3,4.0,0.0,1.0,1.44,1.44,100.0,12006.0,99.4,5.17,,13.43,1.05,91.6,,62.6,5.0,,,,,,,,,,,,0,0,0,0,0,0,0,0,0,0,0,0,0,0,0,0,,,,,,0.0,,,,,,,
192,4598444,1745473197467,,,,,,,,,,,,,,,,,,,,,,,,,,,,,,,,,,0,0,0,0,0,0,0,0,0,0,0,0,0,0,0,0,,,,,,,,,,,,,
193,4598464,1745473197487,0.0,54.0,,0.6,-0.05,1.41,3.0,0.0,1.0,1.53,1.53,100.0,12090.0,99.4,5.13,,13.32,1.033,91.6,,62.6,5.0,,,,,,,,,,,,0,0,0,0,0,0,0,0,0,0,0,0,0,0,0,0,,,,,,0.0,,,,,,,
194,4598484,1745473197508,,,,,,,,,,,,,,,,,,,,,,,13.0,0.0,35.0,38.0,0.0,133.0,0.0,0.0,2.3,,,0,0,0,0,0,0,0,0,0,0,0,0,0,0,0,0,,0.0,,,,,38.994099,-76.939613,21.12,26.8,32.0,3.0,0.9
195,4598504,1745473197528,0.0,51.0,,0.62,-0.0,1.42,4.0,0.0,1.0,1.55,1.55,100.0,12087.0,99.4,5.13,,13.32,1.023,91.6,,62.6,5.0,,,,,,,,,,,,0,0,0,0,0,0,0,0,0,0,0,0,0,0,0,0,,,,,,0.0,,,,,,,
196,4598524,1745473197548,,,,,,,,,,,,,,,,,,,,,,,,,,,,,,,,,,0,0,0,0,0,0,0,0,0,0,0,0,0,0,0,0,,,,,,,,,,,,,
197,4598544,1745473197568,0.0,54.0,,0.66,0.13,1.48,4.0,0.0,2.0,1.63,1.63,100.0,11688.0,99.4,5.26,,13.32,1.023,91.6,,59.2,5.0,,,,,,,,,,,,0,0,0,0,0,0,0,0,0,0,0,0,0,0,0,0,,,,,,0.0,,,,,,,
198,4598564,1745473197588,,,,,,,,,,,,,,,,,,,,,,,,,,,,,,,,,,0,0,0,0,0,0,0,0,0,0,0,0,0,0,0,0,,,,,,,,,,,,,
199,4598584,1745473197608,0.0,41.0,,0.71,0.18,1.38,4.0,0.0,3.0,1.56,1.63,96.0,11688.0,99.4,5.26,,13.43,1.039,91.6,,59.2,5.0,15.0,0.0,35.0,37.0,0.0,90.0,0.0,0.0,2.29,,,0,0,0,0,0,0,0,0,0,0,0,0,0,0,0,0,,0.0,,,,0.0,38.994099,-76.939613,24.07,26.8,32.0,3.0,0.9
200,4598604,1745473197628,,,,,,,,,,,,,,,,,,,,,,,,,,,,,,,,,,0,0,0,0,0,0,0,0,0,0,0,0,0,0,0,0,,,,,,,,,,,,,
201,4598624,1745473197648,0.0,61.0,,0.79,0.01,1.37,3.0,0.0,2.0,1.58,1.63,97.0,11532.0,99.4,5.33,,13.52,1.024,91.6,,63.4,5.0,,,,,,,,,,,,0,0,0,0,0,0,0,0,0,0,0,0,0,0,0,0,,,,,,0.0,,,,,,,
202,4598644,1745473197668,,,,,,,,,,,,,,,,,,,,,,,,,,,,,,,,,,0,0,0,0,0,0,0,0,0,0,0,0,0,0,0,0,,,,,,,,,,,,,
203,4598664,1745473197688,0.0,54.0,,0.75,-0.02,1.31,5.0,0.0,2.0,1.51,1.63,93.0,11511.0,99.5,5.35,,13.67,1.0,91.6,,63.4,5.0,,,,,,,,,,,,0,0,0,0,0,0,0,0,0,0,0,0,0,0,0,0,,,,,,0.0,,,,,,,
204,4598684,1745473197708,,,,,,,,,,,,,,,,,,,,,,,17.0,0.0,34.0,33.0,0.0,97.0,0.0,0.0,2.29,,,0,0,0,0,0,0,0,0,0,0,0,0,0,0,0,0,,0.0,,,,,38.994099,-76.939606,27.83,26.8,32.0,3.0,0.9
205,4598704,1745473197728,0.0,51.0,,0.7,0.15,1.32,6.0,0.0,2.0,1.5,1.63,92.0,11621.0,99.4,5.31,,13.44,0.981,91.6,,63.4,5.0,,,,,,,,,,,,0,0,0,0,0,0,0,0,0,0,0,0,0,0,0,0,,,,,,0.0,,,,,,,
206,4598724,1745473197748,,,,,,,,,,,,,,,,,,,,,,,,,,,,,,,,,,0,0,0,0,0,0,0,0,0,0,0,0,0,0,0,0,,,,,,,,,,,,,
207,4598744,1745473197768,0.0,61.0,,0.74,-0.06,1.32,6.0,0.0,1.0,1.51,1.63,93.0,11594.0,99.4,5.3,,13.44,0.981,91.6,,64.1,5.0,,,,,,,,,,,,0,0,0,0,0,0,0,0,0,0,0,0,0,0,0,0,,,,,,0.0,,,,,,,
208,4598764,1745473197788,,,,,,,,,,,,,,,,,,,,,,,,,,,,,,,,,,0,0,0,0,0,0,0,0,0,0,0,0,0,0,0,0,,,,,,,,,,,,,
209,4598784,1745473197810,0.0,54.0,,0.77,-0.04,1.29,5.0,0.0,2.0,1.51,1.63,92.0,11594.0,99.4,5.3,,13.61,0.982,91.6,,64.1,5.0,19.0,0.0,34.0,33.0,0.0,169.0,0.0,0.0,2.29,,,0,0,0,0,0,0,0,0,0,0,0,0,0,0,0,0,,0.0,,,,0.0,38.994099,-76.939598,30.83,26.8,32.0,3.0,0.9
210,4598804,1745473197830,,,,,,,,,,,,,,,,,,,,,,,,,,,,,,,,,,0,0,0,0,0,0,0,0,0,0,0,0,0,0,0,0,,,,,,,,,,,,,
211,4598824,1745473197850,0.0,64.0,,0.78,0.15,1.31,5.0,-1.0,2.0,1.53,1.63,94.0,11447.0,99.4,5.36,,13.77,0.977,91.6,,61.5,5.0,,,,,,,,,,,,0,0,0,0,0,0,0,0,0,0,0,0,0,0,0,0,,,,,,0.0,,,,,,,
212,4598844,1745473197870,,,,,,,,,,,,,,,,,,,,,,,,,,,,,,,,,,0,0,0,0,0,0,0,0,0,0,0,0,0,0,0,0,,,,,,,,,,,,,
213,4598864,1745473197890,0.0,51.0,,0.81,0.09,1.28,4.0,0.0,1.0,1.52,1.63,93.0,11395.0,99.4,5.4,,13.73,0.967,91.6,,61.5,5.0,,,,,,,,,,,,0,0,0,0,0,0,0,0,0,0,0,0,0,0,0,0,,,,,,0.0,,,,,,,
214,4598884,1745473197910,,,,,,,,,,,,,,,,,,,,,,,21.0,0.0,35.0,35.0,0.0,115.0,0.0,0.0,2.29,,,0,0,0,0,0,0,0,0,0,0,0,0,0,0,0,0,,1.0,,,,,38.994099,-76.939583,34.32,26.8,32.0,3.0,0.9
215,4598904,1745473197930,0.0,64.0,,0.75,-0.05,1.2,5.0,-1.0,1.0,1.42,1.63,87.0,11550.0,99.4,5.36,,13.45,0.96,91.6,,61.5,5.0,,,,,,,,,,,,0,0,0,0,0,0,0,0,0,0,0,0,0,0,0,0,,,,,,0.0,,,,,,,
216,4598924,1745473197950,,,,,,,,,,,,,,,,,,,,,,,,,,,,,,,,,,0,0,0,0,0,0,0,0,0,0,0,0,0,0,0,0,,,,,,,,,,,,,
217,4598944,1745473197970,0.0,88.0,,0.74,0.14,1.25,4.0,0.0,1.0,1.46,1.63,90.0,11795.0,99.4,5.25,,13.45,0.96,91.6,,65.0,5.0,,,,,,,,,,,,0,0,0,0,0,0,0,0,0,0,0,0,0,0,0,0,,,,,,0.0,,,,,,,
218,4598964,1745473197990,,,,,,,,,,,,,,,,,,,,,,,,,,,,,,,,,,0,0,0,0,0,0,0,0,0,0,0,0,0,0,0,0,,,,,,,,,,,,,
219,4598984,1745473198002,0.0,68.0,,0.76,0.13,1.25,3.0,0.0,1.0,1.47,1.63,90.0,11795.0,99.4,5.25,,13.39,0.954,91.6,,65.0,5.0,22.0,0.0,34.0,33.0,0.0,247.0,0.0,0.0,2.29,,,0,0,0,0,0,0,0,0,0,0,0,0,0,0,0,0,,0.0,,,,0.0,38.994102,-76.939575,36.97,26.8,32.0,3.0,0.9
220,4599004,1745473198022,,,,,,,,,,,,,,,,,,,,,,,,,,,,,,,,,,0,0,0,0,0,0,0,0,0,0,0,0,0,0,0,0,,,,,,,,,,,,,
221,4599024,1745473198042,0.0,74.0,,0.77,-0.14,1.2,0.0,1.0,0.0,1.43,1.63,88.0,11412.0,49.5,3.91,,12.73,0.963,91.6,,60.1,5.0,,,,,,,,,,,,0,0,0,0,0,0,0,0,0,0,0,0,0,0,0,0,,,,,,0.0,,,,,,,
222,4599044,1745473198062,,,,,,,,,,,,,,,,,,,,,,,,,,,,,,,,,,0,0,0,0,0,0,0,0,0,0,0,0,0,0,0,0,,,,,,,,,,,,,
223,4599064,1745473198082,0.0,74.0,,0.78,-0.12,1.18,-3.0,1.0,0.0,1.42,1.63,87.0,10799.0,8.2,2.8,,10.0,0.977,91.6,,60.1,5.0,,,,,,,,,,,,0,0,0,0,0,0,0,0,0,0,0,0,0,0,0,0,,,,,,0.0,,,,,,,
224,4599084,1745473198102,,,,,,,,,,,,,,,,,,,,,,,25.0,27.0,35.0,33.0,0.0,81.0,0.0,0.0,2.29,,,0,0,0,0,0,0,0,0,0,0,0,0,0,0,0,0,,1.0,,,,,38.994102,-76.93956,40.04,26.7,32.0,3.0,0.9
225,4599104,1745473198122,0.0,71.0,,0.73,-0.16,1.18,-5.0,0.0,1.0,1.39,1.63,86.0,9973.0,3.0,1.61,,8.25,0.914,89.8,,60.1,5.0,,,,,,,,,,,,0,0,0,0,0,0,0,0,0,0,0,0,0,0,0,0,,,,,,0.0,,,,,,,
226,4599124,1745473198142,,,,,,,,,,,,,,,,,,,,,,,,,,,,,,,,,,0,0,0,0,0,0,0,0,0,0,0,0,0,0,0,0,,,,,,,,,,,,,
227,4599144,1745473198162,0.0,91.0,,0.67,-0.32,1.12,-8.0,-1.0,1.0,1.34,1.63,82.0,9973.0,3.0,1.61,,8.25,0.914,89.8,,54.5,5.0,,,,,,,,,,,,0,0,0,0,0,0,0,0,0,0,0,0,0,0,0,0,,,,,,0.0,,,,,,,
228,4599164,1745473198182,,,,,,,,,,,,,,,,,,,,,,,,,,,,,,,,,,0,0,0,0,0,0,0,0,0,0,0,0,0,0,0,0,,,,,,,,,,,,,
229,4599184,1745473198210,0.0,78.0,,0.53,-0.3,1.12,-12.0,-3.0,1.0,1.28,1.63,79.0,9007.0,0.0,1.4,,7.15,0.864,89.8,,54.5,5.0,25.0,29.0,28.0,29.0,0.0,38.0,0.0,0.0,2.29,,,0,0,0,0,0,0,0,0,0,0,0,0,0,0,0,0,,0.0,,,,0.0,38.994102,-76.939545,44.81,26.7,32.0,3.0,0.9
230,4599204,1745473198230,,,,,,,,,,,,,,,,,,,,,,,,,,,,,,,,,,0,0,0,0,0,0,0,0,0,0,0,0,0,0,0,0,,,,,,,,,,,,,
231,4599224,1745473198250,0.0,95.0,,0.43,-0.44,1.13,-15.0,-3.0,1.0,1.29,1.63,79.0,8647.0,0.7,1.4,,6.68,0.921,89.8,,50.1,5.0,,,,,,,,,,,,0,0,0,0,0,0,0,0,0,0,0,0,0,0,0,0,,,,,,0.0,,,,,,,
232,4599244,1745473198270,,,,,,,,,,,,,,,,,,,,,,,,,,,,,,,,,,0,0,0,0,0,0,0,0,0,0,0,0,0,0,0,0,,,,,,,,,,,,,
233,4599264,1745473198290,0.0,88.0,,0.34,-0.47,1.11,-18.0,-2.0,0.0,1.26,1.63,77.0,8642.0,1.0,1.4,,6.23,0.995,89.8,,50.1,5.0,,,,,,,,,,,,0,0,0,0,0,0,0,0,0,0,0,0,0,0,0,0,,,,,,0.0,,,,,,,
234,4599284,1745473198310,,,,,,,,,,,,,,,,,,,,,,,27.0,38.0,26.0,29.0,0.0,91.0,0.0,0.0,2.29,,,0,0,0,0,0,0,0,0,0,0,0,0,0,0,0,0,,0.0,,,,,38.994102,-76.939537,44.64,26.7,32.0,3.0,0.9
235,4599304,1745473198330,0.0,91.0,,0.24,-0.63,1.13,-21.0,-2.0,1.0,1.32,1.63,81.0,8609.0,1.0,1.4,,6.23,0.995,89.8,,50.1,5.0,,,,,,,,,,,,0,0,0,0,0,0,0,0,0,0,0,0,0,0,0,0,,,,,,0.0,,,,,,,
236,4599324,1745473198350,,,,,,,,,,,,,,,,,,,,,,,,,,,,,,,,,,0,0,0,0,0,0,0,0,0,0,0,0,0,0,0,0,,,,,,,,,,,,,
237,4599344,1745473198370,0.0,81.0,,0.12,-0.71,1.07,-23.0,-2.0,0.0,1.29,1.29,100.0,8801.0,0.9,1.4,,6.08,1.043,89.8,,51.5,5.0,,,,,,,,,,,,0,0,0,0,0,0,0,0,0,0,0,0,0,0,0,0,,,,,,0.0,,,,,,,
238,4599364,1745473198390,,,,,,,,,,,,,,,,,,,,,,,,,,,,,,,,,,0,0,0,0,0,0,0,0,0,0,0,0,0,0,0,0,,,,,,,,,,,,,
239,4599384,1745473198408,0.0,81.0,13.34,0.03,-0.65,1.08,-25.0,-2.0,0.0,1.26,1.29,98.0,8801.0,0.9,1.4,15.0,5.76,1.058,89.8,162.0,51.5,5.0,27.0,38.0,25.0,26.0,0.0,1.0,0.0,0.0,2.29,0.0,1.0,0,0,0,0,0,0,0,0,0,0,0,0,0,0,0,0,0.0,1.0,1.0,0.0,0.0,0.0,38.994099,-76.939522,42.66,26.7,32.0,3.0,0.9
240,4599404,1745473198428,,,,,,,,,,,,,,,,,,,,,,,,,,,,,,,,,,0,0,0,0,0,0,0,0,0,0,0,0,0,0,0,0,,,,,,,,,,,,,
241,4599424,1745473198448,0.0,88.0,,-0.03,-0.49,1.06,-27.0,-1.0,0.0,1.17,1.29,90.0,8958.0,0.9,1.4,,5.59,1.081,89.8,,52.7,5.0,,,,,,,,,,,,0,0,0,0,0,0,0,0,0,0,0,0,0,0,0,0,,,,,,0.0,,,,,,,
242,4599444,1745473198468,,,,,,,,,,,,,,,,,,,,,,,,,,,,,,,,,,0,0,0,0,0,0,0,0,0,0,0,0,0,0,0,0,,,,,,,,,,,,,
243,4599464,1745473198488,0.0,81.0,,-0.07,-0.46,1.07,-30.0,0.0,1.0,1.17,1.29,91.0,8879.0,0.9,1.4,,5.42,1.098,89.8,,52.7,5.0,,,,,,,,,,,,0,0,0,0,0,0,0,0,0,0,0,0,0,0,0,0,,,,,,0.0,,,,,,,
244,4599484,1745473198509,,,,,,,,,,,,,,,,,,,,,,,26.0,28.0,26.0,27.0,0.0,14.0,0.0,0.0,2.3,,,0,0,0,0,0,0,0,0,0,0,0,0,0,0,0,0,,1.0,,,,,38.994099,-76.939506,41.53,26.6,32.0,3.0,0.9
245,4599504,1745473198529,0.0,91.0,,-0.13,-0.59,1.06,-32.0,0.0,1.0,1.22,1.29,95.0,8731.0,0.9,1.4,,5.35,1.123,89.8,,52.7,5.0,,,,,,,,,,,,0,0,0,0,0,0,0,0,0,0,0,0,0,0,0,0,,,,,,0.0,,,,,,,
246,4599524,1745473198549,,,,,,,,,,,,,,,,,,,,,,,,,,,,,,,,,,0,0,0,0,0,0,0,0,0,0,0,0,0,0,0,0,,,,,,,,,,,,,
247,4599544,1745473198569,0.0,88.0,,-0.17,-0.65,1.08,-33.0,0.0,2.0,1.28,1.29,99.0,8548.0,0.9,1.4,,5.35,1.123,89.8,,52.1,5.0,,,,,,,,,,,,0,0,0,0,0,0,0,0,0,0,0,0,0,0,0,0,,,,,,0.0,,,,,,,
248,4599564,1745473198589,,,,,,,,,,,,,,,,,,,,,,,,,,,,,,,,,,0,0,0,0,0,0,0,0,0,0,0,0,0,0,0,0,,,,,,,,,,,,,
249,4599584,1745473198609,0.0,95.0,,-0.24,-0.74,1.07,-35.0,-1.0,1.0,1.32,1.32,100.0,8548.0,0.9,1.4,,5.38,1.136,89.8,,52.1,5.0,25.0,27.0,25.0,28.0,0.0,232.0,0.0,0.0,2.3,,,0,0,0,0,0,0,0,0,0,0,0,0,0,0,0,0,,0.0,,,,0.0,38.994095,-76.939499,41.1,26.6,32.0,3.0,0.9
250,4599604,1745473198629,,,,,,,,,,,,,,,,,,,,,,,,,,,,,,,,,,0,0,0,0,0,0,0,0,0,0,0,0,0,0,0,0,,,,,,,,,,,,,
251,4599624,1745473198649,0.0,108.0,,-0.31,-0.8,1.05,-38.0,-2.0,1.0,1.36,1.36,100.0,8397.0,0.9,1.4,,5.35,1.169,89.8,,51.8,5.0,,,,,,,,,,,,0,0,0,0,0,0,0,0,0,0,0,0,0,0,0,0,,,,,,0.0,,,,,,,
252,4599644,1745473198669,,,,,,,,,,,,,,,,,,,,,,,,,,,,,,,,,,0,0,0,0,0,0,0,0,0,0,0,0,0,0,0,0,,,,,,,,,,,,,
253,4599664,1745473198689,0.0,105.0,,-0.35,-0.87,1.03,-41.0,-1.0,2.0,1.4,1.4,100.0,8237.0,4.4,1.56,,5.68,1.215,89.8,,51.8,5.0,,,,,,,,,,,,0,0,0,0,0,0,0,0,0,0,0,0,0,0,0,0,,,,,,0.0,,,,,,,
254,4599684,1745473198710,,,,,,,,,,,,,,,,,,,,,,,24.0,29.0,24.0,28.0,0.0,177.0,0.0,0.0,2.3,,,0,0,0,0,0,0,0,0,0,0,0,0,0,0,0,0,,0.0,,,,,38.994095,-76.939484,40.72,26.6,32.0,3.0,0.9
255,4599704,1745473198730,0.0,98.0,,-0.39,-0.88,1.03,-44.0,0.0,2.0,1.41,1.41,100.0,8068.0,5.5,1.78,,6.03,1.254,89.8,,51.8,5.0,,,,,,,,,,,,0,0,0,0,0,0,0,0,0,0,0,0,0,0,0,0,,,,,,0.0,,,,,,,
256,4599724,1745473198750,,,,,,,,,,,,,,,,,,,,,,,,,,,,,,,,,,0,0,0,0,0,0,0,0,0,0,0,0,0,0,0,0,,,,,,,,,,,,,
257,4599744,1745473198770,0.0,88.0,,-0.41,-0.85,1.04,-47.0,0.0,2.0,1.41,1.41,100.0,8122.0,5.7,1.86,,6.03,1.254,89.8,,51.5,5.0,,,,,,,,,,,,0,0,0,0,0,0,0,0,0,0,0,0,0,0,0,0,,,,,,0.0,,,,,,,
258,4599764,1745473198790,,,,,,,,,,,,,,,,,,,,,,,,,,,,,,,,,,0,0,0,0,0,0,0,0,0,0,0,0,0,0,0,0,,,,,,,,,,,,,
259,4599784,1745473198809,0.0,102.0,,-0.43,-0.93,1.04,-49.0,0.0,2.0,1.46,1.46,100.0,8122.0,5.7,1.86,,6.34,1.252,89.8,,51.5,5.0,23.0,27.0,23.0,27.0,0.0,46.0,0.0,0.0,2.29,,,0,0,0,0,0,0,0,0,0,0,0,0,0,0,0,0,,0.0,,,,0.0,38.994091,-76.939468,38.5,26.6,32.0,3.0,0.9
260,4599804,1745473198829,,,,,,,,,,,,,,,,,,,,,,,,,,,,,,,,,,0,0,0,0,0,0,0,0,0,0,0,0,0,0,0,0,,,,,,,,,,,,,
261,4599824,1745473198849,0.0,102.0,,-0.44,-0.96,1.02,-51.0,0.0,2.0,1.46,1.46,100.0,8146.0,5.7,1.96,,6.63,1.253,89.8,,50.4,5.0,,,,,,,,,,,,0,0,0,0,0,0,0,0,0,0,0,0,0,0,0,0,,,,,,0.0,,,,,,,
262,4599844,1745473198869,,,,,,,,,,,,,,,,,,,,,,,,,,,,,,,,,,0,0,0,0,0,0,0,0,0,0,0,0,0,0,0,0,,,,,,,,,,,,,
263,4599864,1745473198889,0.0,119.0,,-0.48,-0.94,1.0,-53.0,0.0,1.0,1.45,1.46,99.0,8100.0,5.6,1.99,,6.7,1.247,89.8,,50.4,5.0,,,,,,,,,,,,0,0,0,0,0,0,0,0,0,0,0,0,0,0,0,0,,,,,,0.0,,,,,,,
264,4599884,1745473198909,,,,,,,,,,,,,,,,,,,,,,,22.0,27.0,22.0,24.0,0.0,181.0,0.0,0.0,2.3,,,0,0,0,0,0,0,0,0,0,0,0,0,0,0,0,0,,1.0,,,,,38.994083,-76.939453,38.42,26.6,32.0,3.0,0.9
265,4599904,1745473198929,0.0,78.0,,-0.46,-0.91,0.98,-55.0,1.0,1.0,1.42,1.46,97.0,8076.0,11.1,2.35,,7.12,1.148,89.8,,50.4,5.0,,,,,,,,,,,,0,0,0,0,0,0,0,0,0,0,0,0,0,0,0,0,,,,,,0.0,,,,,,,
266,4599924,1745473198949,,,,,,,,,,,,,,,,,,,,,,,,,,,,,,,,,,0,0,0,0,0,0,0,0,0,0,0,0,0,0,0,0,,,,,,,,,,,,,
267,4599944,1745473198969,0.0,74.0,,-0.45,-0.91,1.0,-56.0,1.0,1.0,1.43,1.46,98.0,8027.0,14.3,2.57,,7.12,1.148,89.8,,51.6,5.0,,,,,,,,,,,,0,0,0,0,0,0,0,0,0,0,0,0,0,0,0,0,,,,,,0.0,,,,,,,
268,4599964,1745473198989,,,,,,,,,,,,,,,,,,,,,,,,,,,,,,,,,,0,0,0,0,0,0,0,0,0,0,0,0,0,0,0,0,,,,,,,,,,,,,
269,4599984,1745473199001,0.0,81.0,,-0.46,-1.01,0.98,-57.0,1.0,1.0,1.48,1.48,100.0,8027.0,14.3,2.57,,7.94,1.112,89.8,,51.6,5.0,22.0,27.0,22.0,24.0,0.0,152.0,0.0,0.0,2.3,,,0,0,0,0,0,0,0,0,0,0,0,0,0,0,0,0,,1.0,,,,0.0,38.994076,-76.939453,37.16,26.5,31.0,3.0,0.9
270,4600004,1745473199021,,,,,,,,,,,,,,,,,,,,,,,,,,,,,,,,,,0,0,0,0,0,0,0,0,0,0,0,0,0,0,0,0,,,,,,,,,,,,,
271,4600024,1745473199041,0.0,85.0,,-0.5,-1.06,1.01,-58.0,1.0,1.0,1.55,1.55,100.0,8111.0,15.1,2.79,,8.34,1.093,89.8,,51.5,5.0,,,,,,,,,,,,0,0,0,0,0,0,0,0,0,0,0,0,0,0,0,0,,,,,,0.0,,,,,,,
272,4600044,1745473199061,,,,,,,,,,,,,,,,,,,,,,,,,,,,,,,,,,0,0,0,0,0,0,0,0,0,0,0,0,0,0,0,0,,,,,,,,,,,,,
273,4600064,1745473199081,0.0,71.0,,-0.48,-1.05,0.99,-58.0,1.0,0.0,1.52,1.55,98.0,8348.0,15.3,2.9,,8.71,1.068,88.0,,51.5,5.0,,,,,,,,,,,,0,0,0,0,0,0,0,0,0,0,0,0,0,0,0,0,,,,,,0.0,,,,,,,
274,4600084,1745473199109,,,,,,,,,,,,,,,,,,,,,,,22.0,24.0,22.0,24.0,0.0,71.0,0.0,0.0,2.3,,,0,0,0,0,0,0,0,0,0,0,0,0,0,0,0,0,,1.0,,,,,38.994072,-76.939438,37.04,26.5,31.0,3.0,0.9
275,4600104,1745473199129,0.0,57.0,,-0.45,-1.16,0.96,-59.0,2.0,0.0,1.57,1.57,100.0,8513.0,17.4,3.09,,9.03,1.041,88.0,,51.5,5.0,,,,,,,,,,,,0,0,0,0,0,0,0,0,0,0,0,0,0,0,0,0,,,,,,0.0,,,,,,,
276,4600124,1745473199149,,,,,,,,,,,,,,,,,,,,,,,,,,,,,,,,,,0,0,0,0,0,0,0,0,0,0,0,0,0,0,0,0,,,,,,,,,,,,,
277,4600144,1745473199169,0.0,74.0,,-0.4,-1.2,0.95,-59.0,2.0,0.0,1.58,1.58,100.0,8433.0,17.6,3.2,,9.03,1.041,88.0,,52.0,5.0,,,,,,,,,,,,0,0,0,0,0,0,0,0,0,0,0,0,0,0,0,0,,,,,,0.0,,,,,,,
278,4600164,1745473199189,,,,,,,,,,,,,,,,,,,,,,,,,,,,,,,,,,0,0,0,0,0,0,0,0,0,0,0,0,0,0,0,0,,,,,,,,,,,,,
279,4600184,1745473199207,0.0,68.0,,-0.32,-1.13,0.98,-58.0,2.0,0.0,1.53,1.58,97.0,8433.0,17.6,3.2,,9.21,1.029,88.0,,52.0,5.0,23.0,24.0,25.0,25.0,0.0,36.0,0.0,0.0,2.29,,,0,0,0,0,0,0,0,0,0,0,0,0,0,0,0,0,,1.0,,,,0.0,38.994064,-76.93943,36.91,26.5,31.0,3.0,0.9
280,4600204,1745473199227,,,,,,,,,,,,,,,,,,,,,,,,,,,,,,,,,,0,0,0,0,0,0,0,0,0,0,0,0,0,0,0,0,,,,,,,,,,,,,
281,4600224,1745473199247,0.0,68.0,,-0.31,-1.17,0.97,-58.0,2.0,0.0,1.55,1.58,98.0,8434.0,17.0,3.22,,9.42,1.023,88.0,,51.2,5.0,,,,,,,,,,,,0,0,0,0,0,0,0,0,0,0,0,0,0,0,0,0,,,,,,0.0,,,,,,,
282,4600244,1745473199267,,,,,,,,,,,,,,,,,,,,,,,,,,,,,,,,,,0,0,0,0,0,0,0,0,0,0,0,0,0,0,0,0,,,,,,,,,,,,,
283,4600264,1745473199287,0.0,74.0,,-0.29,-1.2,0.96,-57.0,1.0,1.0,1.57,1.57,100.0,8501.0,17.8,3.31,,9.62,1.007,88.0,,51.2,5.0,,,,,,,,,,,,0,0,0,0,0,0,0,0,0,0,0,0,0,0,0,0,,,,,,0.0,,,,,,,
284,4600284,1745473199309,,,,,,,,,,,,,,,,,,,,,,,23.0,25.0,25.0,28.0,0.0,70.0,0.0,0.0,2.29,,,0,0,0,0,0,0,0,0,0,0,0,0,0,0,0,0,,0.0,,,,,38.994057,-76.939423,38.21,26.5,31.0,3.0,0.9
285,4600304,1745473199329,0.0,57.0,,-0.26,-1.05,0.96,-57.0,2.0,1.0,1.45,1.57,92.0,8741.0,14.0,3.07,,9.1,1.0,88.0,,51.2,5.0,,,,,,,,,,,,0,0,0,0,0,0,0,0,0,0,0,0,0,0,0,0,,,,,,0.0,,,,,,,
286,4600324,1745473199349,,,,,,,,,,,,,,,,,,,,,,,,,,,,,,,,,,0,0,0,0,0,0,0,0,0,0,0,0,0,0,0,0,,,,,,,,,,,,,
287,4600344,1745473199369,0.0,71.0,,-0.24,-0.99,1.01,-58.0,2.0,1.0,1.43,1.57,92.0,8766.0,7.3,2.59,,9.1,1.0,88.0,,51.6,5.0,,,,,,,,,,,,0,0,0,0,0,0,0,0,0,0,0,0,0,0,0,0,,,,,,0.0,,,,,,,
288,4600364,1745473199389,,,,,,,,,,,,,,,,,,,,,,,,,,,,,,,,,,0,0,0,0,0,0,0,0,0,0,0,0,0,0,0,0,,,,,,,,,,,,,
289,4600384,1745473199409,0.0,61.0,13.4,-0.22,-1.09,0.99,-60.0,3.0,1.0,1.49,1.57,95.0,8766.0,7.3,2.59,15.0,8.25,0.991,88.0,162.0,51.6,5.0,22.0,27.0,27.0,28.0,0.0,200.0,0.0,0.0,2.3,0.0,1.0,0,0,0,0,0,0,0,0,0,0,0,0,0,0,0,0,0.0,0.0,1.0,0.0,0.0,0.0,38.994049,-76.939415,37.77,26.5,31.0,3.0,0.9
290,4600404,1745473199429,,,,,,,,,,,,,,,,,,,,,,,,,,,,,,,,,,0,0,0,0,0,0,0,0,0,0,0,0,0,0,0,0,,,,,,,,,,,,,
291,4600424,1745473199449,0.0,78.0,,-0.22,-1.0,0.96,-59.0,2.0,1.0,1.41,1.57,90.0,8683.0,4.6,2.13,,7.54,0.988,88.0,,51.2,5.0,,,,,,,,,,,,0,0,0,0,0,0,0,0,0,0,0,0,0,0,0,0,,,,,,0.0,,,,,,,
292,4600444,1745473199469,,,,,,,,,,,,,,,,,,,,,,,,,,,,,,,,,,0,0,0,0,0,0,0,0,0,0,0,0,0,0,0,0,,,,,,,,,,,,,
293,4600464,1745473199489,0.0,74.0,,-0.22,-0.95,1.01,-58.0,1.0,1.0,1.41,1.57,90.0,8375.0,1.3,1.4,,6.87,0.983,88.0,,51.2,5.0,,,,,,,,,,,,0,0,0,0,0,0,0,0,0,0,0,0,0,0,0,0,,,,,,0.0,,,,,,,
294,4600484,1745473199509,,,,,,,,,,,,,,,,,,,,,,,22.0,26.0,26.0,26.0,0.0,79.0,0.0,0.0,2.3,,,0,0,0,0,0,0,0,0,0,0,0,0,0,0,0,0,,0.0,,,,,38.994038,-76.939415,39.03,26.4,31.0,3.0,0.9
295,4600504,1745473199529,0.0,68.0,,-0.24,-0.88,1.01,-57.0,0.0,2.0,1.36,1.57,87.0,7658.0,1.1,1.4,,6.52,0.997,88.0,,51.2,5.0,,,,,,,,,,,,0,0,0,0,0,0,0,0,0,0,0,0,0,0,0,0,,,,,,0.0,,,,,,,
296,4600524,1745473199549,,,,,,,,,,,,,,,,,,,,,,,,,,,,,,,,,,0,0,0,0,0,0,0,0,0,0,0,0,0,0,0,0,,,,,,,,,,,,,
297,4600544,1745473199569,0.0,68.0,,-0.25,-0.99,1.06,-56.0,1.0,1.0,1.47,1.57,94.0,7193.0,7.8,2.34,,6.52,0.997,88.0,,51.4,5.0,,,,,,,,,,,,0,0,0,0,0,0,0,0,0,0,0,0,0,0,0,0,,,,,,0.0,,,,,,,
298,4600564,1745473199589,,,,,,,,,,,,,,,,,,,,,,,,,,,,,,,,,,0,0,0,0,0,0,0,0,0,0,0,0,0,0,0,0,,,,,,,,,,,,,
299,4600584,1745473199608,0.0,74.0,,-0.34,-1.1,1.01,-59.0,1.0,0.0,1.53,1.57,98.0,7193.0,7.8,2.34,,6.96,1.071,88.0,,51.4,5.0,22.0,27.0,24.0,26.0,0.0,251.0,0.0,0.0,2.3,,,0,0,0,0,0,0,0,0,0,0,0,0,0,0,0,0,,0.0,,,,0.0,38.99403,-76.939415,38.7,26.4,31.0,3.0,0.9
300,4600604,1745473199628,,,,,,,,,,,,,,,,,,,,,,,,,,,,,,,,,,0,0,0,0,0,0,0,0,0,0,0,0,0,0,0,0,,,,,,,,,,,,,
301,4600624,1745473199648,0.0,85.0,,-0.42,-1.03,0.98,-61.0,1.0,1.0,1.49,1.57,95.0,7334.0,11.7,2.76,,7.98,1.252,88.0,,51.9,5.0,,,,,,,,,,,,0,0,0,0,0,0,0,0,0,0,0,0,0,0,0,0,,,,,,0.0,,,,,,,
302,4600644,1745473199668,,,,,,,,,,,,,,,,,,,,,,,,,,,,,,,,,,0,0,0,0,0,0,0,0,0,0,0,0,0,0,0,0,,,,,,,,,,,,,
303,4600664,1745473199688,0.0,133.0,,-0.46,-1.22,0.95,-62.0,1.0,2.0,1.61,1.61,100.0,7616.0,14.1,2.91,,8.51,1.253,88.0,,51.9,5.0,,,,,,,,,,,,0,0,0,0,0,0,0,0,0,0,0,0,0,0,0,0,,,,,,0.0,,,,,,,
304,4600684,1745473199708,,,,,,,,,,,,,,,,,,,,,,,22.0,24.0,21.0,24.0,0.0,19.0,0.0,0.0,2.3,,,0,0,0,0,0,0,0,0,0,0,0,0,0,0,0,0,,0.0,,,,,38.994019,-76.939415,36.09,26.4,31.0,3.0,0.9
305,4600704,1745473199728,0.0,74.0,,-0.48,-1.17,0.94,-62.0,0.0,2.0,1.58,1.61,98.0,7801.0,14.6,3.05,,8.95,1.244,88.0,,51.9,5.0,,,,,,,,,,,,0,0,0,0,0,0,0,0,0,0,0,0,0,0,0,0,,,,,,0.0,,,,,,,
306,4600724,1745473199748,,,,,,,,,,,,,,,,,,,,,,,,,,,,,,,,,,0,0,0,0,0,0,0,0,0,0,0,0,0,0,0,0,,,,,,,,,,,,,
307,4600744,1745473199768,0.0,71.0,,-0.49,-1.17,0.96,-65.0,0.0,2.0,1.59,1.61,99.0,8096.0,18.1,3.28,,8.95,1.244,88.0,,51.1,5.0,,,,,,,,,,,,0,0,0,0,0,0,0,0,0,0,0,0,0,0,0,0,,,,,,0.0,,,,,,,
308,4600764,1745473199788,,,,,,,,,,,,,,,,,,,,,,,,,,,,,,,,,,0,0,0,0,0,0,0,0,0,0,0,0,0,0,0,0,,,,,,,,,,,,,
309,4600784,1745473199808,0.0,74.0,,-0.47,-1.14,1.04,-66.0,1.0,1.0,1.61,1.61,100.0,8096.0,18.1,3.28,,9.5,1.108,88.0,,51.1,5.0,21.0,26.0,22.0,25.0,0.0,0.0,0.0,0.0,2.29,,,0,0,0,0,0,0,0,0,0,0,0,0,0,0,0,0,,1.0,,,,0.0,38.994015,-76.939415,35.62,26.4,31.0,3.0,0.9
310,4600804,1745473199828,,,,,,,,,,,,,,,,,,,,,,,,,,,,,,,,,,0,0,0,0,0,0,0,0,0,0,0,0,0,0,0,0,,,,,,,,,,,,,
311,4600824,1745473199848,0.0,71.0,,-0.42,-1.11,1.0,-67.0,1.0,1.0,1.55,1.61,96.0,8517.0,21.3,3.53,,9.86,1.053,88.0,,52.2,5.0,,,,,,,,,,,,0,0,0,0,0,0,0,0,0,0,0,0,0,0,0,0,,,,,,0.0,,,,,,,
312,4600844,1745473199868,,,,,,,,,,,,,,,,,,,,,,,,,,,,,,,,,,0,0,0,0,0,0,0,0,0,0,0,0,0,0,0,0,,,,,,,,,,,,,
313,4600864,1745473199888,0.0,71.0,,-0.39,-1.16,1.03,-67.0,1.0,1.0,1.6,1.61,99.0,8663.0,22.0,3.51,,10.05,1.019,88.0,,52.2,5.0,,,,,,,,,,,,0,0,0,0,0,0,0,0,0,0,0,0,0,0,0,0,,,,,,0.0,,,,,,,
314,4600884,1745473199906,,,,,,,,,,,,,,,,,,,,,,,20.0,24.0,27.0,26.0,0.0,17.0,0.0,0.0,2.3,,,0,0,0,0,0,0,0,0,0,0,0,0,0,0,0,0,,1.0,,,,,38.994003,-76.939415,34.76,26.4,31.0,3.0,0.9
315,4600904,1745473199926,0.0,64.0,,-0.35,-1.25,1.02,-66.0,1.0,1.0,1.65,1.65,100.0,8615.0,21.0,3.62,,10.24,1.001,88.0,,52.2,5.0,,,,,,,,,,,,0,0,0,0,0,0,0,0,0,0,0,0,0,0,0,0,,,,,,0.0,,,,,,,
316,4600924,1745473199946,,,,,,,,,,,,,,,,,,,,,,,,,,,,,,,,,,0,0,0,0,0,0,0,0,0,0,0,0,0,0,0,0,,,,,,,,,,,,,
317,4600944,1745473199966,0.0,57.0,,-0.27,-1.16,1.07,-65.0,1.0,0.0,1.6,1.65,97.0,8610.0,21.8,3.71,,10.24,1.001,88.0,,52.3,5.0,,,,,,,,,,,,0,0,0,0,0,0,0,0,0,0,0,0,0,0,0,0,,,,,,0.0,,,,,,,
318,4600964,1745473199986,,,,,,,,,,,,,,,,,,,,,,,,,,,,,,,,,,0,0,0,0,0,0,0,0,0,0,0,0,0,0,0,0,,,,,,,,,,,,,
319,4600984,1745473200006,0.0,54.0,,-0.22,-1.25,0.98,-64.0,1.0,0.0,1.6,1.65,97.0,8610.0,21.8,3.71,,10.3,1.009,88.0,,52.3,5.0,20.0,23.0,25.0,26.0,0.0,109.0,0.0,0.0,2.3,,,0,0,0,0,0,0,0,0,0,0,0,0,0,0,0,0,,1.0,,,,0.0,38.994003,-76.939415,34.76,26.4,31.0,3.0,0.9
320,4601004,1745473200018,,,,,,,,,,,,,,,,,,,,,,,,,,,,,,,,,,0,0,0,0,0,0,0,0,0,0,0,0,0,0,0,0,,,,,,,,,,,,,
321,4601024,1745473200038,0.0,68.0,,-0.19,-1.15,1.03,-63.0,1.0,0.0,1.56,1.65,94.0,8705.0,21.4,3.61,,10.36,1.003,88.0,,51.1,5.0,,,,,,,,,,,,0,0,0,0,0,0,0,0,0,0,0,0,0,0,0,0,,,,,,0.0,,,,,,,
322,4601044,1745473200058,,,,,,,,,,,,,,,,,,,,,,,,,,,,,,,,,,0,0,0,0,0,0,0,0,0,0,0,0,0,0,0,0,,,,,,,,,,,,,
323,4601064,1745473200078,0.0,64.0,,-0.13,-1.19,1.03,-62.0,0.0,0.0,1.58,1.65,96.0,8765.0,20.1,3.62,,10.14,0.997,88.0,,51.1,5.0,,,,,,,,,,,,0,0,0,0,0,0,0,0,0,0,0,0,0,0,0,0,,,,,,0.0,,,,,,,
324,4601084,1745473200104,,,,,,,,,,,,,,,,,,,,,,,21.0,25.0,26.0,28.0,0.0,138.0,0.0,0.0,2.3,,,0,0,0,0,0,0,0,0,0,0,0,0,0,0,0,0,,0.0,,,,,38.993984,-76.939415,37.92,26.4,31.0,3.0,0.9
325,4601104,1745473200124,0.0,71.0,,-0.12,-1.43,0.95,-62.0,0.0,0.0,1.72,1.72,100.0,8785.0,17.7,3.41,,9.89,0.996,88.0,,51.1,5.0,,,,,,,,,,,,0,0,0,0,0,0,0,0,0,0,0,0,0,0,0,0,,,,,,0.0,,,,,,,
326,4601124,1745473200144,,,,,,,,,,,,,,,,,,,,,,,,,,,,,,,,,,0,0,0,0,0,0,0,0,0,0,0,0,0,0,0,0,,,,,,,,,,,,,
327,4601144,1745473200164,0.0,61.0,,-0.1,-1.26,0.95,-61.0,0.0,1.0,1.58,1.72,92.0,8861.0,16.5,3.19,,9.89,0.996,88.0,,51.0,5.0,,,,,,,,,,,,0,0,0,0,0,0,0,0,0,0,0,0,0,0,0,0,,,,,,0.0,,,,,,,
328,4601164,1745473200184,,,,,,,,,,,,,,,,,,,,,,,,,,,,,,,,,,0,0,0,0,0,0,0,0,0,0,0,0,0,0,0,0,,,,,,,,,,,,,
329,4601184,1745473200208,0.0,61.0,,-0.09,-1.04,1.01,-61.0,-1.0,1.0,1.45,1.72,84.0,8861.0,16.5,3.19,,9.41,0.987,88.0,,51.0,5.0,23.0,26.0,27.0,26.0,0.0,77.0,0.0,0.0,2.29,,,0,0,0,0,0,0,0,0,0,0,0,0,0,0,0,0,,1.0,,,,0.0,38.993977,-76.939415,38.98,26.4,32.0,3.0,0.9
330,4601204,1745473200228,,,,,,,,,,,,,,,,,,,,,,,,,,,,,,,,,,0,0,0,0,0,0,0,0,0,0,0,0,0,0,0,0,,,,,,,,,,,,,
331,4601224,1745473200248,0.0,64.0,,-0.08,-0.84,1.01,-61.0,-1.0,1.0,1.32,1.32,100.0,8951.0,15.5,3.07,,9.15,0.976,88.0,,51.7,5.0,,,,,,,,,,,,0,0,0,0,0,0,0,0,0,0,0,0,0,0,0,0,,,,,,0.0,,,,,,,
332,4601244,1745473200268,,,,,,,,,,,,,,,,,,,,,,,,,,,,,,,,,,0,0,0,0,0,0,0,0,0,0,0,0,0,0,0,0,,,,,,,,,,,,,
333,4601264,1745473200288,0.0,81.0,,-0.11,-0.69,1.0,-61.0,-1.0,2.0,1.22,1.32,93.0,9059.0,14.6,2.89,,8.87,0.983,88.0,,51.7,5.0,,,,,,,,,,,,0,0,0,0,0,0,0,0,0,0,0,0,0,0,0,0,,,,,,0.0,,,,,,,
334,4601284,1745473200309,,,,,,,,,,,,,,,,,,,,,,,22.0,26.0,27.0,28.0,0.0,9.0,0.0,0.0,2.3,,,0,0,0,0,0,0,0,0,0,0,0,0,0,0,0,0,,0.0,,,,,38.993969,-76.939423,38.86,26.4,32.0,3.0,0.9
335,4601304,1745473200329,0.0,64.0,,-0.12,-0.57,0.97,-61.0,0.0,2.0,1.13,1.32,86.0,9072.0,13.7,2.77,,8.55,0.994,88.0,,51.7,5.0,,,,,,,,,,,,0,0,0,0,0,0,0,0,0,0,0,0,0,0,0,0,,,,,,0.0,,,,,,,
336,4601324,1745473200349,,,,,,,,,,,,,,,,,,,,,,,,,,,,,,,,,,0,0,0,0,0,0,0,0,0,0,0,0,0,0,0,0,,,,,,,,,,,,,
337,4601344,1745473200369,0.0,71.0,,-0.07,-0.56,0.94,-62.0,1.0,1.0,1.1,1.32,83.0,9023.0,12.4,2.62,,8.55,0.994,88.0,,50.6,5.0,,,,,,,,,,,,0,0,0,0,0,0,0,0,0,0,0,0,0,0,0,0,,,,,,0.0,,,,,,,
338,4601364,1745473200389,,,,,,,,,,,,,,,,,,,,,,,,,,,,,,,,,,0,0,0,0,0,0,0,0,0,0,0,0,0,0,0,0,,,,,,,,,,,,,
339,4601384,1745473200408,0.0,64.0,13.42,-0.03,-0.56,0.93,-63.0,1.0,1.0,1.09,1.32,83.0,9023.0,12.4,2.62,15.0,8.3,1.001,88.0,162.0,50.6,5.0,22.0,24.0,28.0,28.0,0.0,130.0,0.0,0.0,2.3,0.0,1.0,0,0,0,0,0,0,0,0,0,0,0,0,0,0,0,0,0.0,0.0,1.0,0.0,0.0,0.0,38.993958,-76.93943,39.01,26.4,32.0,3.0,0.9
340,4601404,1745473200428,,,,,,,,,,,,,,,,,,,,,,,,,,,,,,,,,,0,0,0,0,0,0,0,0,0,0,0,0,0,0,0,0,,,,,,,,,,,,,
341,4601424,1745473200448,0.0,88.0,,-0.06,-0.54,0.89,-61.0,0.0,1.0,1.04,1.32,79.0,8917.0,11.5,2.57,,8.15,1.0,88.0,,50.3,5.0,,,,,,,,,,,,0,0,0,0,0,0,0,0,0,0,0,0,0,0,0,0,,,,,,0.0,,,,,,,
342,4601444,1745473200468,,,,,,,,,,,,,,,,,,,,,,,,,,,,,,,,,,0,0,0,0,0,0,0,0,0,0,0,0,0,0,0,0,,,,,,,,,,,,,
343,4601464,1745473200488,0.0,78.0,,-0.1,-0.58,0.96,-59.0,0.0,1.0,1.12,1.32,85.0,8780.0,11.2,2.57,,8.06,1.003,88.0,,50.3,5.0,,,,,,,,,,,,0,0,0,0,0,0,0,0,0,0,0,0,0,0,0,0,,,,,,0.0,,,,,,,
344,4601484,1745473200509,,,,,,,,,,,,,,,,,,,,,,,24.0,26.0,26.0,26.0,0.0,117.0,0.0,0.0,2.3,,,0,0,0,0,0,0,0,0,0,0,0,0,0,0,0,0,,1.0,,,,,38.993954,-76.939438,40.02,26.3,32.0,3.0,0.9
345,4601504,1745473200529,0.0,88.0,,-0.15,-0.76,0.94,-58.0,0.0,0.0,1.22,1.32,92.0,8782.0,11.3,2.51,,8.06,1.003,88.0,,50.3,5.0,,,,,,,,,,,,0,0,0,0,0,0,0,0,0,0,0,0,0,0,0,0,,,,,,0.0,,,,,,,
346,4601524,1745473200549,,,,,,,,,,,,,,,,,,,,,,,,,,,,,,,,,,0,0,0,0,0,0,0,0,0,0,0,0,0,0,0,0,,,,,,,,,,,,,
347,4601544,1745473200569,0.0,88.0,,-0.18,-0.79,0.92,-58.0,0.0,0.0,1.23,1.32,93.0,8780.0,11.3,2.48,,7.91,1.007,88.0,,50.2,5.0,,,,,,,,,,,,0,0,0,0,0,0,0,0,0,0,0,0,0,0,0,0,,,,,,0.0,,,,,,,
348,4601564,1745473200589,,,,,,,,,,,,,,,,,,,,,,,,,,,,,,,,,,0,0,0,0,0,0,0,0,0,0,0,0,0,0,0,0,,,,,,,,,,,,,
349,4601584,1745473200607,0.0,57.0,,-0.19,-0.74,0.97,-56.0,0.0,0.0,1.24,1.32,94.0,8780.0,11.3,2.48,,7.83,0.998,88.0,,50.2,5.0,23.0,26.0,25.0,27.0,0.0,47.0,0.0,0.0,2.3,,,0,0,0,0,0,0,0,0,0,0,0,0,0,0,0,0,,1.0,,,,0.0,38.993946,-76.939453,39.36,26.3,32.0,3.0,0.9
350,4601604,1745473200627,,,,,,,,,,,,,,,,,,,,,,,,,,,,,,,,,,0,0,0,0,0,0,0,0,0,0,0,0,0,0,0,0,,,,,,,,,,,,,
351,4601624,1745473200647,0.0,85.0,,-0.27,-0.74,0.95,-56.0,0.0,1.0,1.23,1.32,94.0,8635.0,10.5,2.49,,7.91,0.997,88.0,,50.4,5.0,,,,,,,,,,,,0,0,0,0,0,0,0,0,0,0,0,0,0,0,0,0,,,,,,0.0,,,,,,,
352,4601644,1745473200667,,,,,,,,,,,,,,,,,,,,,,,,,,,,,,,,,,0,0,0,0,0,0,0,0,0,0,0,0,0,0,0,0,,,,,,,,,,,,,
353,4601664,1745473200687,0.0,91.0,,-0.27,-0.75,1.0,-56.0,1.0,1.0,1.28,1.32,97.0,8594.0,10.3,2.54,,7.87,1.002,88.0,,50.4,5.0,,,,,,,,,,,,0,0,0,0,0,0,0,0,0,0,0,0,0,0,0,0,,,,,,0.0,,,,,,,
354,4601684,1745473200707,,,,,,,,,,,,,,,,,,,,,,,25.0,29.0,24.0,25.0,0.0,231.0,0.0,0.0,2.29,,,0,0,0,0,0,0,0,0,0,0,0,0,0,0,0,0,,1.0,,,,,38.993938,-76.939453,38.91,26.3,32.0,3.0,0.9
355,4601704,1745473200727,0.0,78.0,,-0.27,-0.9,0.96,-57.0,2.0,0.0,1.34,1.34,100.0,8595.0,7.7,2.38,,7.46,1.006,88.0,,50.4,5.0,,,,,,,,,,,,0,0,0,0,0,0,0,0,0,0,0,0,0,0,0,0,,,,,,0.0,,,,,,,
356,4601724,1745473200747,,,,,,,,,,,,,,,,,,,,,,,,,,,,,,,,,,0,0,0,0,0,0,0,0,0,0,0,0,0,0,0,0,,,,,,,,,,,,,
357,4601744,1745473200767,0.0,95.0,,-0.25,-0.94,1.0,-56.0,2.0,1.0,1.4,1.4,100.0,8505.0,5.5,2.22,,7.46,1.006,88.0,,51.6,5.0,,,,,,,,,,,,0,0,0,0,0,0,0,0,0,0,0,0,0,0,0,0,,,,,,0.0,,,,,,,
358,4601764,1745473200787,,,,,,,,,,,,,,,,,,,,,,,,,,,,,,,,,,0,0,0,0,0,0,0,0,0,0,0,0,0,0,0,0,,,,,,,,,,,,,
359,4601784,1745473200807,0.0,85.0,,-0.24,-0.97,1.0,-56.0,1.0,2.0,1.41,1.41,100.0,8505.0,5.5,2.22,,7.19,0.999,88.0,,51.6,5.0,23.0,24.0,26.0,27.0,0.0,125.0,0.0,0.0,2.29,,,0,0,0,0,0,0,0,0,0,0,0,0,0,0,0,0,,0.0,,,,0.0,38.993935,-76.939468,38.43,26.3,32.0,3.0,0.9
360,4601804,1745473200827,,,,,,,,,,,,,,,,,,,,,,,,,,,,,,,,,,0,0,0,0,0,0,0,0,0,0,0,0,0,0,0,0,,,,,,,,,,,,,
361,4601824,1745473200847,0.0,95.0,,-0.32,-0.96,0.98,-55.0,0.0,2.0,1.41,1.41,100.0,8231.0,1.5,1.4,,6.88,0.99,88.0,,50.6,5.0,,,,,,,,,,,,0,0,0,0,0,0,0,0,0,0,0,0,0,0,0,0,,,,,,0.0,,,,,,,
362,4601844,1745473200867,,,,,,,,,,,,,,,,,,,,,,,,,,,,,,,,,,0,0,0,0,0,0,0,0,0,0,0,0,0,0,0,0,,,,,,,,,,,,,
363,4601864,1745473200887,0.0,95.0,,-0.32,-1.06,1.01,-57.0,0.0,1.0,1.5,1.5,100.0,7655.0,0.8,1.4,,6.51,0.993,88.0,,50.6,5.0,,,,,,,,,,,,0,0,0,0,0,0,0,0,0,0,0,0,0,0,0,0,,,,,,0.0,,,,,,,
364,4601884,1745473200907,,,,,,,,,,,,,,,,,,,,,,,23.0,24.0,25.0,25.0,0.0,246.0,0.0,0.0,2.29,,,0,0,0,0,0,0,0,0,0,0,0,0,0,0,0,0,,0.0,,,,,38.993931,-76.939484,39.07,26.3,32.0,3.0,0.9
365,4601904,1745473200927,0.0,91.0,,-0.35,-1.08,1.0,-59.0,0.0,0.0,1.51,1.51,100.0,7228.0,0.9,1.4,,6.47,1.034,88.0,,50.6,5.0,,,,,,,,,,,,0,0,0,0,0,0,0,0,0,0,0,0,0,0,0,0,,,,,,0.0,,,,,,,
366,4601924,1745473200947,,,,,,,,,,,,,,,,,,,,,,,,,,,,,,,,,,0,0,0,0,0,0,0,0,0,0,0,0,0,0,0,0,,,,,,,,,,,,,
367,4601944,1745473200967,0.0,95.0,,-0.43,-0.94,1.01,-59.0,-1.0,1.0,1.44,1.51,96.0,7165.0,0.9,1.4,,6.47,1.034,88.0,,50.9,5.0,,,,,,,,,,,,0,0,0,0,0,0,0,0,0,0,0,0,0,0,0,0,,,,,,0.0,,,,,,,
368,4601964,1745473200987,,,,,,,,,,,,,,,,,,,,,,,,,,,,,,,,,,0,0,0,0,0,0,0,0,0,0,0,0,0,0,0,0,,,,,,,,,,,,,
369,4601984,1745473201007,0.0,85.0,,-0.5,-1.08,0.99,-61.0,-2.0,2.0,1.55,1.55,100.0,7165.0,0.9,1.4,,6.51,1.232,88.0,,50.9,5.0,22.0,26.0,20.0,23.0,0.0,209.0,0.0,0.0,2.3,,,0,0,0,0,0,0,0,0,0,0,0,0,0,0,0,0,,0.0,,,,0.0,38.993931,-76.939484,39.07,26.3,32.0,3.0,0.9
370,4602004,1745473201019,,,,,,,,,,,,,,,,,,,,,,,,,,,,,,,,,,0,0,0,0,0,0,0,0,0,0,0,0,0,0,0,0,,,,,,,,,,,,,
371,4602024,1745473201039,0.0,105.0,,-0.57,-0.98,1.01,-63.0,-2.0,2.0,1.52,1.55,98.0,7130.0,1.0,1.4,,6.54,1.254,88.0,,50.6,5.0,,,,,,,,,,,,0,0,0,0,0,0,0,0,0,0,0,0,0,0,0,0,,,,,,0.0,,,,,,,
372,4602044,1745473201059,,,,,,,,,,,,,,,,,,,,,,,,,,,,,,,,,,0,0,0,0,0,0,0,0,0,0,0,0,0,0,0,0,,,,,,,,,,,,,
373,4602064,1745473201079,0.0,105.0,,-0.57,-1.0,1.03,-65.0,0.0,0.0,1.55,1.55,100.0,6899.0,1.0,1.4,,6.62,1.253,88.0,,50.6,5.0,,,,,,,,,,,,0,0,0,0,0,0,0,0,0,0,0,0,0,0,0,0,,,,,,0.0,,,,,,,
374,4602084,1745473201107,,,,,,,,,,,,,,,,,,,,,,,20.0,24.0,18.0,25.0,0.0,209.0,0.0,0.0,2.3,,,0,0,0,0,0,0,0,0,0,0,0,0,0,0,0,0,,0.0,,,,,38.993923,-76.939499,34.67,26.4,32.0,3.0,0.9
375,4602104,1745473201127,0.0,102.0,,-0.62,-1.09,1.02,-68.0,0.0,1.0,1.61,1.61,100.0,6607.0,1.0,1.4,,6.83,1.254,88.0,,50.6,5.0,,,,,,,,,,,,0,0,0,0,0,0,0,0,0,0,0,0,0,0,0,0,,,,,,0.0,,,,,,,
