,Interval,Utc,FrontBP,SteerAng,Battery,AccelX,AccelY,AccelZ,Yaw,Pitch,Roll,Gsum,GsumMax,GsumPct,RPM,TPS,InjectorPW,Baro,MAP,Lambda,IAT,EngineTemp,EOP,EOT,WSFR,WSFL,WSRR,WSRL,TCSet,TCSlip,TCComp,TCCut,Analog8,OilTemp,AA_On,ThermLF1,ThermLF2,ThermRR1,ThermRR2,ThermLF3,ThermLF4,ThermLF5,ThermLF6,ThermLF7,ThermLF8,ThermRR3,ThermRR4,ThermRR5,ThermRR6,ThermRR7,ThermRR8,AA_LowDrag,Gear,AA_On1,AA_LowDrag1,Fuel_Mix,AA_Packages,Latitude,Longitude,Speed,Altitude,GPSSats,GPSQual,GPSDOP
0,5608604,1745474207639,,,,,,,,,,,,,,,,,,,,,,,,,,,,,,,,,,0,0,0,0,0,0,0,0,0,0,0,0,0,0,0,0,,,,,,,,,,,,,
1,5608624,1745474207659,0.0,131.0,,-0.06,-0.74,1.04,4.0,0.0,-2.0,1.28,1.28,100.0,8873.0,16.0,2.21,,6.8,1.25,93.4,,47.0,5.0,,,,,,,,,,,,0,0,0,0,0,0,0,0,0,0,0,0,0,0,0,0,,,,,,0.0,,,,,,,
2,5608644,1745474207679,,,,,,,,,,,,,,,,,,,,,,,,,,,,,,,,,,0,0,0,0,0,0,0,0,0,0,0,0,0,0,0,0,,,,,,,,,,,,,
3,5608664,1745474207699,0.0,131.0,,-0.05,-1.03,1.03,5.0,0.0,-2.0,1.46,1.46,100.0,9005.0,31.2,3.24,,9.01,1.25,93.4,,46.8,5.0,,,,,,,,,,,,0,0,0,0,0,0,0,0,0,0,0,0,0,0,0,0,,,,,,0.0,,,,,,,
4,5608684,1745474207717,,,,,,,,,,,,,,,,,,,,,,,0.0,0.0,0.0,0.0,0.0,0.0,0.0,0.0,2.26,,,0,0,0,0,0,0,0,0,0,0,0,0,0,0,0,0,,0.0,,,,,38.994099,-76.939652,0.18,27.6,31.0,3.0,0.8
5,5608704,1745474207737,0.0,132.0,,-0.04,-0.77,1.07,3.0,0.0,-2.0,1.32,1.46,90.0,9503.0,37.2,4.16,,10.85,1.25,93.4,,46.8,5.0,,,,,,,,,,,,0,0,0,0,0,0,0,0,0,0,0,0,0,0,0,0,,,,,,0.0,,,,,,,
6,5608724,1745474207757,,,,,,,,,,,,,,,,,,,,,,,,,,,,,,,,,,0,0,0,0,0,0,0,0,0,0,0,0,0,0,0,0,,,,,,,,,,,,,
7,5608744,1745474207777,0.0,131.0,,-0.04,-0.72,1.1,3.0,0.0,-2.0,1.32,1.46,90.0,10194.0,36.6,5.42,,11.17,1.225,93.4,,46.8,5.0,,,,,,,,,,,,0,0,0,0,0,0,0,0,0,0,0,0,0,0,0,0,,,,,,0.0,,,,,,,
8,5608764,1745474207797,,,,,,,,,,,,,,,,,,,,,,,,,,,,,,,,,,0,0,0,0,0,0,0,0,0,0,0,0,0,0,0,0,,,,,,,,,,,,,
9,5608784,1745474207817,0.0,132.0,,-0.02,-0.42,1.11,3.0,0.0,-2.0,1.19,1.46,81.0,11320.0,11.2,2.98,,11.17,1.225,93.4,,48.6,5.0,0.0,0.0,0.0,0.0,0.0,0.0,0.0,0.0,2.26,,,0,0,0,0,0,0,0,0,0,0,0,0,0,0,0,0,,0.0,,,,0.0,38.994099,-76.939652,0.15,27.6,31.0,3.0,0.8
10,5608804,1745474207837,,,,,,,,,,,,,,,,,,,,,,,,,,,,,,,,,,0,0,0,0,0,0,0,0,0,0,0,0,0,0,0,0,,,,,,,,,,,,,
11,5608824,1745474207857,0.0,131.0,,-0.01,-0.42,1.08,3.0,0.0,-2.0,1.16,1.46,79.0,11320.0,11.2,2.98,,9.31,1.084,91.6,,48.6,5.0,,,,,,,,,,,,0,0,0,0,0,0,0,0,0,0,0,0,0,0,0,0,,,,,,0.0,,,,,,,
12,5608844,1745474207877,,,,,,,,,,,,,,,,,,,,,,,,,,,,,,,,,,0,0,0,0,0,0,0,0,0,0,0,0,0,0,0,0,,,,,,,,,,,,,
13,5608864,1745474207897,0.0,131.0,,-0.03,-0.4,1.05,4.0,0.0,-1.0,1.12,1.46,77.0,11926.0,3.6,1.99,,7.26,0.865,91.6,,51.6,5.0,,,,,,,,,,,,0,0,0,0,0,0,0,0,0,0,0,0,0,0,0,0,,,,,,0.0,,,,,,,
14,5608884,1745474207917,,,,,,,,,,,,,,,,,,,,,,,0.0,0.0,0.0,0.0,0.0,0.0,0.0,0.0,2.27,,,0,0,0,0,0,0,0,0,0,0,0,0,0,0,0,0,,0.0,,,,,38.994099,-76.939652,0.18,27.6,31.0,3.0,0.8
15,5608904,1745474207937,0.0,131.0,,-0.03,-0.44,0.96,4.0,0.0,-1.0,1.06,1.46,73.0,11737.0,0.6,1.4,,5.96,0.863,91.6,,51.6,5.0,,,,,,,,,,,,0,0,0,0,0,0,0,0,0,0,0,0,0,0,0,0,,,,,,0.0,,,,,,,
16,5608924,1745474207957,,,,,,,,,,,,,,,,,,,,,,,,,,,,,,,,,,0,0,0,0,0,0,0,0,0,0,0,0,0,0,0,0,,,,,,,,,,,,,
17,5608944,1745474207977,0.0,131.0,,-0.04,-0.34,0.94,4.0,0.0,-1.0,1.0,1.46,68.0,11135.0,0.4,1.4,,5.52,0.961,91.6,,51.6,5.0,,,,,,,,,,,,0,0,0,0,0,0,0,0,0,0,0,0,0,0,0,0,,,,,,0.0,,,,,,,
18,5608964,1745474207997,,,,,,,,,,,,,,,,,,,,,,,,,,,,,,,,,,0,0,0,0,0,0,0,0,0,0,0,0,0,0,0,0,,,,,,,,,,,,,
19,5608984,1745474208009,0.0,131.0,,-0.05,-0.34,0.93,4.0,0.0,-1.0,0.99,1.46,68.0,10570.0,0.4,1.4,,5.52,0.961,91.6,,51.0,5.0,0.0,0.0,0.0,0.0,0.0,0.0,0.0,0.0,2.27,,,0,0,0,0,0,0,0,0,0,0,0,0,0,0,0,0,,0.0,,,,0.0,38.994099,-76.939652,0.07,27.6,32.0,3.0,0.8
20,5609004,1745474208029,,,,,,,,,,,,,,,,,,,,,,,,,,,,,,,,,,0,0,0,0,0,0,0,0,0,0,0,0,0,0,0,0,,,,,,,,,,,,,
21,5609024,1745474208049,0.0,131.0,,-0.07,-0.46,0.93,4.0,0.0,-1.0,1.04,1.46,71.0,10570.0,0.4,1.4,,5.07,1.248,91.6,,51.0,5.0,,,,,,,,,,,,0,0,0,0,0,0,0,0,0,0,0,0,0,0,0,0,,,,,,0.0,,,,,,,
22,5609044,1745474208069,,,,,,,,,,,,,,,,,,,,,,,,,,,,,,,,,,0,0,0,0,0,0,0,0,0,0,0,0,0,0,0,0,,,,,,,,,,,,,
23,5609064,1745474208089,0.0,132.0,,-0.08,-0.35,0.93,3.0,0.0,-1.0,1.0,1.46,68.0,10006.0,0.4,1.4,,5.03,1.249,91.6,,48.1,5.0,,,,,,,,,,,,0,0,0,0,0,0,0,0,0,0,0,0,0,0,0,0,,,,,,0.0,,,,,,,
24,5609084,1745474208117,,,,,,,,,,,,,,,,,,,,,,,0.0,0.0,0.0,0.0,0.0,0.0,0.0,0.0,2.26,,,0,0,0,0,0,0,0,0,0,0,0,0,0,0,0,0,,0.0,,,,,38.994099,-76.939652,0.08,27.6,32.0,3.0,0.8
25,5609104,1745474208137,0.0,131.0,,-0.08,-0.03,0.89,2.0,0.0,0.0,0.89,1.46,61.0,9449.0,2.7,1.4,,5.12,1.251,91.6,,48.1,5.0,,,,,,,,,,,,0,0,0,0,0,0,0,0,0,0,0,0,0,0,0,0,,,,,,0.0,,,,,,,
26,5609124,1745474208157,,,,,,,,,,,,,,,,,,,,,,,,,,,,,,,,,,0,0,0,0,0,0,0,0,0,0,0,0,0,0,0,0,,,,,,,,,,,,,
27,5609144,1745474208177,0.0,131.0,,-0.1,-0.08,0.83,0.0,0.0,0.0,0.84,1.46,58.0,8909.0,4.2,1.4,,5.4,1.251,91.6,,48.1,5.0,,,,,,,,,,,,0,0,0,0,0,0,0,0,0,0,0,0,0,0,0,0,,,,,,0.0,,,,,,,
28,5609164,1745474208197,,,,,,,,,,,,,,,,,,,,,,,,,,,,,,,,,,0,0,0,0,0,0,0,0,0,0,0,0,0,0,0,0,,,,,,,,,,,,,
29,5609184,1745474208215,0.0,131.0,,-0.09,-0.18,0.84,0.0,0.0,0.0,0.86,1.46,59.0,8337.0,4.6,1.6,,5.4,1.251,91.6,,46.8,5.0,0.0,0.0,0.0,0.0,0.0,0.0,0.0,0.0,2.26,,,0,0,0,0,0,0,0,0,0,0,0,0,0,0,0,0,,0.0,,,,0.0,38.994099,-76.939652,0.15,27.6,32.0,3.0,0.8
30,5609204,1745474208235,,,,,,,,,,,,,,,,,,,,,,,,,,,,,,,,,,0,0,0,0,0,0,0,0,0,0,0,0,0,0,0,0,,,,,,,,,,,,,
31,5609224,1745474208255,0.0,130.0,,-0.1,-0.05,0.91,0.0,0.0,0.0,0.92,1.46,63.0,8337.0,4.6,1.6,,5.7,1.251,91.6,,46.8,5.0,,,,,,,,,,,,0,0,0,0,0,0,0,0,0,0,0,0,0,0,0,0,,,,,,0.0,,,,,,,
32,5609244,1745474208275,,,,,,,,,,,,,,,,,,,,,,,,,,,,,,,,,,0,0,0,0,0,0,0,0,0,0,0,0,0,0,0,0,,,,,,,,,,,,,
33,5609264,1745474208295,0.0,131.0,,-0.12,0.01,0.92,0.0,0.0,0.0,0.93,1.46,64.0,7784.0,4.6,1.8,,6.0,1.249,91.6,,46.6,5.0,,,,,,,,,,,,0,0,0,0,0,0,0,0,0,0,0,0,0,0,0,0,,,,,,0.0,,,,,,,
34,5609284,1745474208318,,,,,,,,,,,,,,,,,,,,,,,0.0,0.0,0.0,0.0,0.0,0.0,0.0,0.0,2.26,,,0,0,0,0,0,0,0,0,0,0,0,0,0,0,0,0,,0.0,,,,,38.994099,-76.939652,0.05,27.6,32.0,3.0,0.8
35,5609304,1745474208338,0.0,131.0,,-0.11,0.08,0.96,0.0,0.0,0.0,0.97,1.46,66.0,7371.0,9.4,2.21,,6.71,1.248,91.6,,46.6,5.0,,,,,,,,,,,,0,0,0,0,0,0,0,0,0,0,0,0,0,0,0,0,,,,,,0.0,,,,,,,
36,5609324,1745474208358,,,,,,,,,,,,,,,,,,,,,,,,,,,,,,,,,,0,0,0,0,0,0,0,0,0,0,0,0,0,0,0,0,,,,,,,,,,,,,
37,5609344,1745474208378,0.0,131.0,,-0.09,0.03,0.94,0.0,0.0,0.0,0.95,1.46,65.0,7085.0,13.0,2.73,,7.9,1.248,91.6,,46.6,5.0,,,,,,,,,,,,0,0,0,0,0,0,0,0,0,0,0,0,0,0,0,0,,,,,,0.0,,,,,,,
38,5609364,1745474208398,,,,,,,,,,,,,,,,,,,,,,,,,,,,,,,,,,0,0,0,0,0,0,0,0,0,0,0,0,0,0,0,0,,,,,,,,,,,,,
39,5609384,1745474208419,0.0,131.0,13.09,-0.07,0.06,0.98,0.0,0.0,0.0,0.98,1.46,67.0,7048.0,12.9,3.11,15.0,7.9,1.248,91.6,167.0,46.3,5.0,0.0,0.0,0.0,0.0,0.0,0.0,0.0,0.0,2.27,0.0,1.0,0,0,0,0,0,0,0,0,0,0,0,0,0,0,0,0,0.0,0.0,1.0,0.0,0.0,0.0,38.994099,-76.939652,0.08,27.6,32.0,3.0,0.8
40,5609404,1745474208439,,,,,,,,,,,,,,,,,,,,,,,,,,,,,,,,,,0,0,0,0,0,0,0,0,0,0,0,0,0,0,0,0,,,,,,,,,,,,,
41,5609424,1745474208459,0.0,131.0,,-0.12,0.04,0.98,0.0,0.0,0.0,0.99,1.46,68.0,7048.0,12.9,3.11,,8.78,1.248,91.6,,46.3,5.0,,,,,,,,,,,,0,0,0,0,0,0,0,0,0,0,0,0,0,0,0,0,,,,,,0.0,,,,,,,
42,5609444,1745474208479,,,,,,,,,,,,,,,,,,,,,,,,,,,,,,,,,,0,0,0,0,0,0,0,0,0,0,0,0,0,0,0,0,,,,,,,,,,,,,
43,5609464,1745474208499,0.0,131.0,,-0.08,-0.04,0.96,-1.0,0.0,0.0,0.97,1.46,66.0,6986.0,11.1,3.24,,9.06,1.248,91.6,,45.7,5.0,,,,,,,,,,,,0,0,0,0,0,0,0,0,0,0,0,0,0,0,0,0,,,,,,0.0,,,,,,,
44,5609484,1745474208518,,,,,,,,,,,,,,,,,,,,,,,0.0,0.0,0.0,0.0,0.0,0.0,0.0,0.0,2.27,,,0,0,0,0,0,0,0,0,0,0,0,0,0,0,0,0,,0.0,,,,,38.994099,-76.939652,0.15,27.6,32.0,3.0,0.8
45,5609504,1745474208538,0.0,131.0,,-0.05,-0.05,0.97,0.0,0.0,0.0,0.98,1.46,67.0,6955.0,8.4,3.09,,8.99,1.119,91.6,,45.7,5.0,,,,,,,,,,,,0,0,0,0,0,0,0,0,0,0,0,0,0,0,0,0,,,,,,0.0,,,,,,,
46,5609524,1745474208558,,,,,,,,,,,,,,,,,,,,,,,,,,,,,,,,,,0,0,0,0,0,0,0,0,0,0,0,0,0,0,0,0,,,,,,,,,,,,,
47,5609544,1745474208578,0.0,130.0,,-0.09,-0.05,1.01,-1.0,0.0,0.0,1.01,1.46,69.0,6950.0,8.0,3.06,,8.9,1.121,91.6,,45.7,5.0,,,,,,,,,,,,0,0,0,0,0,0,0,0,0,0,0,0,0,0,0,0,,,,,,0.0,,,,,,,
48,5609564,1745474208598,,,,,,,,,,,,,,,,,,,,,,,,,,,,,,,,,,0,0,0,0,0,0,0,0,0,0,0,0,0,0,0,0,,,,,,,,,,,,,
49,5609584,1745474208618,0.0,131.0,,-0.09,-0.06,0.97,-1.0,0.0,0.0,0.97,1.46,67.0,6944.0,8.7,3.08,,8.9,1.121,91.6,,45.4,5.0,0.0,0.0,0.0,0.0,0.0,0.0,0.0,0.0,2.26,,,0,0,0,0,0,0,0,0,0,0,0,0,0,0,0,0,,0.0,,,,0.0,38.994099,-76.939652,0.11,27.6,32.0,3.0,0.8
50,5609604,1745474208638,,,,,,,,,,,,,,,,,,,,,,,,,,,,,,,,,,0,0,0,0,0,0,0,0,0,0,0,0,0,0,0,0,,,,,,,,,,,,,
51,5609624,1745474208658,0.0,131.0,,-0.06,-0.07,0.94,0.0,0.0,0.0,0.95,1.46,65.0,6944.0,8.7,3.08,,9.05,1.12,91.6,,45.4,5.0,,,,,,,,,,,,0,0,0,0,0,0,0,0,0,0,0,0,0,0,0,0,,,,,,0.0,,,,,,,
52,5609644,1745474208678,,,,,,,,,,,,,,,,,,,,,,,,,,,,,,,,,,0,0,0,0,0,0,0,0,0,0,0,0,0,0,0,0,,,,,,,,,,,,,
53,5609664,1745474208698,0.0,130.0,,-0.07,0.07,0.99,-1.0,0.0,0.0,0.99,1.46,68.0,7009.0,10.4,3.21,,9.19,1.141,91.6,,45.8,5.0,,,,,,,,,,,,0,0,0,0,0,0,0,0,0,0,0,0,0,0,0,0,,,,,,0.0,,,,,,,
54,5609684,1745474208718,,,,,,,,,,,,,,,,,,,,,,,0.0,0.0,0.0,0.0,0.0,0.0,0.0,0.0,2.26,,,0,0,0,0,0,0,0,0,0,0,0,0,0,0,0,0,,0.0,,,,,38.994099,-76.939652,0.43,27.6,32.0,3.0,0.8
55,5609704,1745474208738,0.0,131.0,,-0.08,0.03,0.96,-1.0,0.0,0.0,0.97,1.46,66.0,7051.0,10.7,3.32,,9.37,1.13,91.6,,45.8,5.0,,,,,,,,,,,,0,0,0,0,0,0,0,0,0,0,0,0,0,0,0,0,,,,,,0.0,,,,,,,
56,5609724,1745474208758,,,,,,,,,,,,,,,,,,,,,,,,,,,,,,,,,,0,0,0,0,0,0,0,0,0,0,0,0,0,0,0,0,,,,,,,,,,,,,
57,5609744,1745474208778,0.0,131.0,,-0.06,0.11,1.0,0.0,0.0,0.0,1.01,1.46,69.0,7147.0,10.8,3.25,,9.37,1.145,91.6,,45.8,5.0,,,,,,,,,,,,0,0,0,0,0,0,0,0,0,0,0,0,0,0,0,0,,,,,,0.0,,,,,,,
58,5609764,1745474208798,,,,,,,,,,,,,,,,,,,,,,,,,,,,,,,,,,0,0,0,0,0,0,0,0,0,0,0,0,0,0,0,0,,,,,,,,,,,,,
59,5609784,1745474208818,0.0,131.0,,-0.07,0.02,0.98,0.0,0.0,0.0,0.98,1.46,67.0,7301.0,10.8,3.23,,9.37,1.145,91.6,,45.9,5.0,0.0,0.0,0.0,0.0,0.0,0.0,0.0,0.0,2.26,,,0,0,0,0,0,0,0,0,0,0,0,0,0,0,0,0,,0.0,,,,0.0,38.994099,-76.939652,0.31,27.6,32.0,3.0,0.8
60,5609804,1745474208838,,,,,,,,,,,,,,,,,,,,,,,,,,,,,,,,,,0,0,0,0,0,0,0,0,0,0,0,0,0,0,0,0,,,,,,,,,,,,,
61,5609824,1745474208858,0.0,131.0,,-0.06,-0.07,0.94,-1.0,0.0,0.0,0.94,1.46,65.0,7301.0,10.8,3.23,,9.26,1.136,91.6,,45.9,5.0,,,,,,,,,,,,0,0,0,0,0,0,0,0,0,0,0,0,0,0,0,0,,,,,,0.0,,,,,,,
62,5609844,1745474208878,,,,,,,,,,,,,,,,,,,,,,,,,,,,,,,,,,0,0,0,0,0,0,0,0,0,0,0,0,0,0,0,0,,,,,,,,,,,,,
63,5609864,1745474208898,0.0,131.0,,-0.1,-0.07,0.91,-1.0,0.0,0.0,0.91,1.46,63.0,7440.0,10.6,3.18,,9.13,1.143,91.6,,45.8,5.0,,,,,,,,,,,,0,0,0,0,0,0,0,0,0,0,0,0,0,0,0,0,,,,,,0.0,,,,,,,
64,5609884,1745474208918,,,,,,,,,,,,,,,,,,,,,,,0.0,0.0,0.0,0.0,0.0,0.0,0.0,0.0,2.27,,,0,0,0,0,0,0,0,0,0,0,0,0,0,0,0,0,,0.0,,,,,38.994099,-76.939652,0.04,27.6,32.0,3.0,0.8
65,5609904,1745474208938,0.0,131.0,,-0.1,0.05,0.91,0.0,0.0,1.0,0.92,1.46,63.0,7392.0,10.5,3.16,,9.11,1.155,91.6,,45.8,5.0,,,,,,,,,,,,0,0,0,0,0,0,0,0,0,0,0,0,0,0,0,0,,,,,,0.0,,,,,,,
66,5609924,1745474208958,,,,,,,,,,,,,,,,,,,,,,,,,,,,,,,,,,0,0,0,0,0,0,0,0,0,0,0,0,0,0,0,0,,,,,,,,,,,,,
67,5609944,1745474208978,0.0,130.0,,-0.09,0.12,0.95,0.0,0.0,1.0,0.96,1.46,66.0,7460.0,10.5,3.1,,9.03,1.208,91.6,,45.8,5.0,,,,,,,,,,,,0,0,0,0,0,0,0,0,0,0,0,0,0,0,0,0,,,,,,0.0,,,,,,,
68,5609964,1745474208998,,,,,,,,,,,,,,,,,,,,,,,,,,,,,,,,,,0,0,0,0,0,0,0,0,0,0,0,0,0,0,0,0,,,,,,,,,,,,,
69,5609984,1745474209010,0.0,131.0,,-0.1,0.19,0.97,1.0,0.0,1.0,1.0,1.46,68.0,7565.0,10.5,3.01,,9.03,1.208,91.6,,45.8,5.0,0.0,0.0,0.0,0.0,0.0,0.0,0.0,0.0,2.27,,,0,0,0,0,0,0,0,0,0,0,0,0,0,0,0,0,,0.0,,,,0.0,38.994099,-76.939652,0.04,27.6,32.0,3.0,0.8
70,5610004,1745474209030,,,,,,,,,,,,,,,,,,,,,,,,,,,,,,,,,,0,0,0,0,0,0,0,0,0,0,0,0,0,0,0,0,,,,,,,,,,,,,
71,5610024,1745474209050,0.0,131.0,,-0.1,0.22,0.93,1.0,0.0,1.0,0.96,1.46,65.0,7565.0,10.5,3.01,,9.01,1.189,91.6,,45.8,5.0,,,,,,,,,,,,0,0,0,0,0,0,0,0,0,0,0,0,0,0,0,0,,,,,,0.0,,,,,,,
72,5610044,1745474209070,,,,,,,,,,,,,,,,,,,,,,,,,,,,,,,,,,0,0,0,0,0,0,0,0,0,0,0,0,0,0,0,0,,,,,,,,,,,,,
73,5610064,1745474209090,0.0,131.0,,-0.08,0.07,0.9,1.0,0.0,1.0,0.9,1.46,62.0,7611.0,10.5,3.03,,8.77,1.176,91.6,,46.1,5.0,,,,,,,,,,,,0,0,0,0,0,0,0,0,0,0,0,0,0,0,0,0,,,,,,0.0,,,,,,,
74,5610084,1745474209115,,,,,,,,,,,,,,,,,,,,,,,0.0,0.0,0.0,0.0,0.0,0.0,0.0,0.0,2.26,,,0,0,0,0,0,0,0,0,0,0,0,0,0,0,0,0,,0.0,,,,,38.994099,-76.939652,0.18,27.6,32.0,3.0,0.8
75,5610104,1745474209135,0.0,131.0,,-0.06,0.08,0.95,1.0,0.0,1.0,0.96,1.46,66.0,7701.0,10.7,2.97,,8.75,1.173,91.6,,46.1,5.0,,,,,,,,,,,,0,0,0,0,0,0,0,0,0,0,0,0,0,0,0,0,,,,,,0.0,,,,,,,
76,5610124,1745474209155,,,,,,,,,,,,,,,,,,,,,,,,,,,,,,,,,,0,0,0,0,0,0,0,0,0,0,0,0,0,0,0,0,,,,,,,,,,,,,
77,5610144,1745474209175,0.0,131.0,,-0.07,0.18,0.93,0.0,0.0,0.0,0.95,1.46,65.0,7832.0,10.8,2.9,,8.62,1.177,91.6,,46.1,5.0,,,,,,,,,,,,0,0,0,0,0,0,0,0,0,0,0,0,0,0,0,0,,,,,,0.0,,,,,,,
78,5610164,1745474209195,,,,,,,,,,,,,,,,,,,,,,,,,,,,,,,,,,0,0,0,0,0,0,0,0,0,0,0,0,0,0,0,0,,,,,,,,,,,,,
79,5610224,1745474209256,0.0,131.0,,-0.09,0.11,0.9,1.0,0.0,0.0,0.91,1.46,62.0,7932.0,10.7,2.91,,8.71,1.192,91.6,,45.9,5.0,,,,,,,,,,,,0,0,0,0,0,0,0,0,0,0,0,0,0,0,0,0,,,,,,0.0,,,,,,,
80,5610284,1745474209320,,,,,,,,,,,,,,,,,,,,,,,0.0,0.0,0.0,0.0,0.0,0.0,0.0,0.0,2.27,,,0,0,0,0,0,0,0,0,0,0,0,0,0,0,0,0,,0.0,,,,,38.994099,-76.939652,0.0,27.6,32.0,3.0,0.8
81,5610364,1745474209400,,,,,,,,,,,,,,,,,,,,,,,,,,,,,,,,,,0,0,0,0,0,0,0,0,0,0,0,0,0,0,0,0,,,,,,,,,,,,,
82,5610484,1745474209519,,,,,,,,,,,,,,,,,,,,,,,0.0,0.0,0.0,0.0,0.0,0.0,0.0,0.0,2.26,,,0,0,0,0,0,0,0,0,0,0,0,0,0,0,0,0,,0.0,,,,,38.994099,-76.939652,0.05,27.6,32.0,3.0,0.8
83,5611084,1745474210119,,,,,,,,,,,,,,,,,,,,,,,0.0,0.0,29.0,27.0,0.0,0.0,0.0,0.0,2.26,,,0,0,0,0,0,0,0,0,0,0,0,0,0,0,0,0,,0.0,,,,,38.994099,-76.939652,0.6,27.6,32.0,3.0,0.8
84,5611104,1745474210139,0.0,130.0,,0.23,-0.27,0.99,0.0,0.0,0.0,1.05,1.46,72.0,9324.0,99.4,5.97,,13.79,1.047,89.8,,46.3,5.0,,,,,,,,,,,,0,0,0,0,0,0,0,0,0,0,0,0,0,0,0,0,,,,,,0.0,,,,,,,
85,5611124,1745474210159,,,,,,,,,,,,,,,,,,,,,,,,,,,,,,,,,,0,0,0,0,0,0,0,0,0,0,0,0,0,0,0,0,,,,,,,,,,,,,
86,5611144,1745474210179,0.0,130.0,,0.29,-0.25,1.05,1.0,0.0,0.0,1.12,1.46,77.0,9780.0,99.4,6.05,,13.75,1.041,89.8,,46.3,5.0,,,,,,,,,,,,0,0,0,0,0,0,0,0,0,0,0,0,0,0,0,0,,,,,,0.0,,,,,,,
87,5611164,1745474210199,,,,,,,,,,,,,,,,,,,,,,,,,,,,,,,,,,0,0,0,0,0,0,0,0,0,0,0,0,0,0,0,0,,,,,,,,,,,,,
88,5611184,1745474210217,0.0,131.0,,0.3,-0.27,1.06,0.0,0.0,1.0,1.13,1.46,77.0,10543.0,99.4,5.82,,13.75,1.041,89.8,,48.1,5.0,3.0,0.0,31.0,31.0,0.0,0.0,0.0,0.0,2.26,,,0,0,0,0,0,0,0,0,0,0,0,0,0,0,0,0,,0.0,,,,0.0,38.994099,-76.939652,3.12,27.6,32.0,3.0,0.8
89,5611204,1745474210237,,,,,,,,,,,,,,,,,,,,,,,,,,,,,,,,,,0,0,0,0,0,0,0,0,0,0,0,0,0,0,0,0,,,,,,,,,,,,,
90,5611224,1745474210257,0.0,131.0,,0.34,-0.3,1.02,0.0,0.0,0.0,1.12,1.46,77.0,10543.0,99.4,5.82,,13.6,1.023,89.8,,48.1,5.0,,,,,,,,,,,,0,0,0,0,0,0,0,0,0,0,0,0,0,0,0,0,,,,,,0.0,,,,,,,
91,5611244,1745474210277,,,,,,,,,,,,,,,,,,,,,,,,,,,,,,,,,,0,0,0,0,0,0,0,0,0,0,0,0,0,0,0,0,,,,,,,,,,,,,
92,5611264,1745474210301,0.0,130.0,,0.39,-0.2,0.97,1.0,0.0,1.0,1.07,1.46,73.0,11034.0,99.4,5.54,,13.64,0.956,89.8,,55.2,5.0,,,,,,,,,,,,0,0,0,0,0,0,0,0,0,0,0,0,0,0,0,0,,,,,,0.0,,,,,,,
93,5611284,1745474210321,,,,,,,,,,,,,,,,,,,,,,,5.0,0.0,34.0,35.0,0.0,0.0,0.0,0.0,2.27,,,0,0,0,0,0,0,0,0,0,0,0,0,0,0,0,0,,0.0,,,,,38.994099,-76.939652,6.47,27.6,32.0,3.0,0.8
94,5611304,1745474210341,0.0,130.0,,0.4,-0.25,0.95,1.0,0.0,1.0,1.06,1.46,73.0,11241.0,99.4,5.44,,13.68,0.945,89.8,,55.2,5.0,,,,,,,,,,,,0,0,0,0,0,0,0,0,0,0,0,0,0,0,0,0,,,,,,0.0,,,,,,,
95,5611324,1745474210361,,,,,,,,,,,,,,,,,,,,,,,,,,,,,,,,,,0,0,0,0,0,0,0,0,0,0,0,0,0,0,0,0,,,,,,,,,,,,,
96,5611344,1745474210381,0.0,130.0,,0.44,-0.33,1.04,0.0,0.0,1.0,1.18,1.46,81.0,11559.0,99.4,5.37,,13.53,0.943,89.8,,55.2,5.0,,,,,,,,,,,,0,0,0,0,0,0,0,0,0,0,0,0,0,0,0,0,,,,,,0.0,,,,,,,
97,5611364,1745474210401,,,,,,,,,,,,,,,,,,,,,,,,,,,,,,,,,,0,0,0,0,0,0,0,0,0,0,0,0,0,0,0,0,,,,,,,,,,,,,
98,5611384,1745474210419,0.0,131.0,13.08,0.48,-0.18,1.09,1.0,0.0,1.0,1.21,1.46,83.0,11901.0,99.4,5.22,15.0,13.53,0.943,89.8,169.0,56.0,5.0,6.0,0.0,35.0,36.0,0.0,0.0,0.0,0.0,2.27,0.0,1.0,0,0,0,0,0,0,0,0,0,0,0,0,0,0,0,0,0.0,1.0,1.0,0.0,0.0,0.0,38.994099,-76.939652,9.68,27.6,32.0,3.0,0.8
99,5611404,1745474210439,,,,,,,,,,,,,,,,,,,,,,,,,,,,,,,,,,0,0,0,0,0,0,0,0,0,0,0,0,0,0,0,0,,,,,,,,,,,,,
100,5611424,1745474210459,0.0,130.0,,0.56,0.08,1.11,2.0,0.0,1.0,1.24,1.46,85.0,11901.0,99.4,5.22,,13.39,0.959,89.8,,56.0,5.0,,,,,,,,,,,,0,0,0,0,0,0,0,0,0,0,0,0,0,0,0,0,,,,,,0.0,,,,,,,
101,5611444,1745474210479,,,,,,,,,,,,,,,,,,,,,,,,,,,,,,,,,,0,0,0,0,0,0,0,0,0,0,0,0,0,0,0,0,,,,,,,,,,,,,
102,5611464,1745474210499,0.0,130.0,,0.56,0.11,1.21,3.0,0.0,0.0,1.33,1.46,91.0,12106.0,99.4,5.13,,13.29,0.96,89.8,,58.9,5.0,,,,,,,,,,,,0,0,0,0,0,0,0,0,0,0,0,0,0,0,0,0,,,,,,0.0,,,,,,,
103,5611484,1745474210518,,,,,,,,,,,,,,,,,,,,,,,8.0,0.0,37.0,38.0,0.0,70.0,0.0,0.0,2.26,,,0,0,0,0,0,0,0,0,0,0,0,0,0,0,0,0,,1.0,,,,,38.994099,-76.939652,11.82,27.6,32.0,3.0,0.8
104,5611504,1745474210538,0.0,131.0,,0.6,0.29,1.23,4.0,0.0,0.0,1.4,1.46,96.0,11926.0,99.4,5.19,,13.33,0.993,89.8,,58.9,5.0,,,,,,,,,,,,0,0,0,0,0,0,0,0,0,0,0,0,0,0,0,0,,,,,,0.0,,,,,,,
105,5611524,1745474210558,,,,,,,,,,,,,,,,,,,,,,,,,,,,,,,,,,0,0,0,0,0,0,0,0,0,0,0,0,0,0,0,0,,,,,,,,,,,,,
106,5611544,1745474210578,0.0,130.0,,0.66,0.32,1.21,4.0,0.0,0.0,1.42,1.46,97.0,11835.0,99.4,5.18,,13.32,1.003,89.8,,58.9,5.0,,,,,,,,,,,,0,0,0,0,0,0,0,0,0,0,0,0,0,0,0,0,,,,,,0.0,,,,,,,
107,5611564,1745474210598,,,,,,,,,,,,,,,,,,,,,,,,,,,,,,,,,,0,0,0,0,0,0,0,0,0,0,0,0,0,0,0,0,,,,,,,,,,,,,
108,5611584,1745474210618,0.0,131.0,,0.73,0.42,1.15,5.0,0.0,0.0,1.42,1.46,97.0,11804.0,99.4,5.24,,13.32,1.003,89.8,,58.0,5.0,10.0,0.0,34.0,36.0,0.0,205.0,0.0,0.0,2.26,,,0,0,0,0,0,0,0,0,0,0,0,0,0,0,0,0,,0.0,,,,0.0,38.994099,-76.939644,14.99,27.5,32.0,3.0,0.8
109,5611604,1745474210638,,,,,,,,,,,,,,,,,,,,,,,,,,,,,,,,,,0,0,0,0,0,0,0,0,0,0,0,0,0,0,0,0,,,,,,,,,,,,,
110,5611624,1745474210658,0.0,130.0,,0.76,0.32,1.08,7.0,0.0,0.0,1.35,1.46,93.0,11804.0,99.4,5.24,,13.47,1.013,89.8,,58.0,5.0,,,,,,,,,,,,0,0,0,0,0,0,0,0,0,0,0,0,0,0,0,0,,,,,,0.0,,,,,,,
111,5611644,1745474210678,,,,,,,,,,,,,,,,,,,,,,,,,,,,,,,,,,0,0,0,0,0,0,0,0,0,0,0,0,0,0,0,0,,,,,,,,,,,,,
112,5611664,1745474210698,0.0,130.0,,0.81,0.08,1.11,9.0,0.0,0.0,1.37,1.46,94.0,11817.0,99.4,5.23,,13.39,1.032,89.8,,57.9,5.0,,,,,,,,,,,,0,0,0,0,0,0,0,0,0,0,0,0,0,0,0,0,,,,,,0.0,,,,,,,
113,5611684,1745474210719,,,,,,,,,,,,,,,,,,,,,,,12.0,0.0,36.0,37.0,0.0,172.0,0.0,0.0,2.26,,,0,0,0,0,0,0,0,0,0,0,0,0,0,0,0,0,,1.0,,,,,38.994099,-76.939636,17.89,27.5,32.0,3.0,0.8
114,5611704,1745474210739,0.0,130.0,,0.83,0.08,1.09,8.0,0.0,0.0,1.37,1.46,94.0,11651.0,99.4,5.29,,13.44,0.988,89.8,,57.9,5.0,,,,,,,,,,,,0,0,0,0,0,0,0,0,0,0,0,0,0,0,0,0,,,,,,0.0,,,,,,,
115,5611724,1745474210759,,,,,,,,,,,,,,,,,,,,,,,,,,,,,,,,,,0,0,0,0,0,0,0,0,0,0,0,0,0,0,0,0,,,,,,,,,,,,,
116,5611744,1745474210779,0.0,130.0,,0.8,0.02,1.06,8.0,-1.0,0.0,1.33,1.46,91.0,11485.0,99.4,5.35,,13.45,0.984,89.8,,57.9,5.0,,,,,,,,,,,,0,0,0,0,0,0,0,0,0,0,0,0,0,0,0,0,,,,,,0.0,,,,,,,
117,5611764,1745474210799,,,,,,,,,,,,,,,,,,,,,,,,,,,,,,,,,,0,0,0,0,0,0,0,0,0,0,0,0,0,0,0,0,,,,,,,,,,,,,
118,5611784,1745474210818,0.0,130.0,,0.75,0.0,1.05,7.0,-1.0,-1.0,1.29,1.46,89.0,11453.0,99.5,5.37,,13.45,0.984,89.8,,57.7,5.0,14.0,0.0,34.0,34.0,0.0,64.0,0.0,0.0,2.27,,,0,0,0,0,0,0,0,0,0,0,0,0,0,0,0,0,,0.0,,,,0.0,38.994099,-76.939629,21.14,27.5,32.0,3.0,0.8
119,5611804,1745474210838,,,,,,,,,,,,,,,,,,,,,,,,,,,,,,,,,,0,0,0,0,0,0,0,0,0,0,0,0,0,0,0,0,,,,,,,,,,,,,
120,5611824,1745474210858,0.0,130.0,,0.74,-0.16,0.98,5.0,-1.0,-1.0,1.23,1.46,85.0,11453.0,99.5,5.37,,13.59,0.978,89.8,,57.7,5.0,,,,,,,,,,,,0,0,0,0,0,0,0,0,0,0,0,0,0,0,0,0,,,,,,0.0,,,,,,,
121,5611844,1745474210878,,,,,,,,,,,,,,,,,,,,,,,,,,,,,,,,,,0,0,0,0,0,0,0,0,0,0,0,0,0,0,0,0,,,,,,,,,,,,,
122,5611864,1745474210898,0.0,130.0,,0.75,0.02,1.1,5.0,0.0,0.0,1.33,1.46,91.0,11526.0,99.5,5.35,,13.39,0.976,89.8,,57.4,5.0,,,,,,,,,,,,0,0,0,0,0,0,0,0,0,0,0,0,0,0,0,0,,,,,,0.0,,,,,,,
123,5611884,1745474210918,,,,,,,,,,,,,,,,,,,,,,,16.0,0.0,35.0,37.0,0.0,13.0,0.0,0.0,2.26,,,0,0,0,0,0,0,0,0,0,0,0,0,0,0,0,0,,0.0,,,,,38.994099,-76.939621,24.29,27.5,32.0,3.0,0.8
124,5611904,1745474210938,0.0,130.0,,0.78,0.04,1.05,4.0,0.0,0.0,1.31,1.46,90.0,11532.0,99.5,5.34,,13.65,0.956,89.8,,57.4,5.0,,,,,,,,,,,,0,0,0,0,0,0,0,0,0,0,0,0,0,0,0,0,,,,,,0.0,,,,,,,
125,5611924,1745474210958,,,,,,,,,,,,,,,,,,,,,,,,,,,,,,,,,,0,0,0,0,0,0,0,0,0,0,0,0,0,0,0,0,,,,,,,,,,,,,
126,5611944,1745474210978,0.0,130.0,,0.82,-0.09,0.95,4.0,0.0,0.0,1.26,1.46,86.0,11233.0,99.5,5.43,,13.37,0.96,89.8,,57.4,5.0,,,,,,,,,,,,0,0,0,0,0,0,0,0,0,0,0,0,0,0,0,0,,,,,,0.0,,,,,,,
127,5611964,1745474210998,,,,,,,,,,,,,,,,,,,,,,,,,,,,,,,,,,0,0,0,0,0,0,0,0,0,0,0,0,0,0,0,0,,,,,,,,,,,,,
128,5611984,1745474211008,0.0,130.0,,0.82,-0.15,0.96,4.0,0.0,1.0,1.28,1.46,87.0,11089.0,99.5,5.5,,13.37,0.96,89.8,,57.1,5.0,18.0,0.0,35.0,33.0,0.0,228.0,0.0,0.0,2.26,,,0,0,0,0,0,0,0,0,0,0,0,0,0,0,0,0,,0.0,,,,0.0,38.994099,-76.939613,27.35,27.5,31.0,3.0,0.8
129,5612004,1745474211028,,,,,,,,,,,,,,,,,,,,,,,,,,,,,,,,,,0,0,0,0,0,0,0,0,0,0,0,0,0,0,0,0,,,,,,,,,,,,,
130,5612024,1745474211048,0.0,130.0,,0.81,-0.01,1.02,3.0,0.0,0.0,1.3,1.46,89.0,11089.0,99.5,5.5,,13.61,0.984,89.8,,57.1,5.0,,,,,,,,,,,,0,0,0,0,0,0,0,0,0,0,0,0,0,0,0,0,,,,,,0.0,,,,,,,
131,5612044,1745474211068,,,,,,,,,,,,,,,,,,,,,,,,,,,,,,,,,,0,0,0,0,0,0,0,0,0,0,0,0,0,0,0,0,,,,,,,,,,,,,
132,5612064,1745474211088,0.0,130.0,,0.84,-0.06,1.02,3.0,0.0,1.0,1.32,1.46,91.0,11124.0,99.5,5.48,,13.65,0.965,89.8,,59.5,5.0,,,,,,,,,,,,0,0,0,0,0,0,0,0,0,0,0,0,0,0,0,0,,,,,,0.0,,,,,,,
133,5612084,1745474211114,,,,,,,,,,,,,,,,,,,,,,,21.0,0.0,33.0,33.0,0.0,48.0,0.0,0.0,2.26,,,0,0,0,0,0,0,0,0,0,0,0,0,0,0,0,0,,1.0,,,,,38.994099,-76.939606,30.87,27.5,31.0,3.0,0.8
134,5612104,1745474211134,0.0,130.0,,0.86,-0.04,1.01,3.0,0.0,1.0,1.32,1.46,91.0,11194.0,99.5,5.46,,13.76,0.96,89.8,,59.5,5.0,,,,,,,,,,,,0,0,0,0,0,0,0,0,0,0,0,0,0,0,0,0,,,,,,0.0,,,,,,,
135,5612124,1745474211154,,,,,,,,,,,,,,,,,,,,,,,,,,,,,,,,,,0,0,0,0,0,0,0,0,0,0,0,0,0,0,0,0,,,,,,,,,,,,,
136,5612144,1745474211174,0.0,130.0,,0.82,-0.03,0.99,2.0,-1.0,1.0,1.28,1.46,88.0,11182.0,99.6,5.46,,13.56,0.942,89.8,,59.5,5.0,,,,,,,,,,,,0,0,0,0,0,0,0,0,0,0,0,0,0,0,0,0,,,,,,0.0,,,,,,,
137,5612164,1745474211194,,,,,,,,,,,,,,,,,,,,,,,,,,,,,,,,,,0,0,0,0,0,0,0,0,0,0,0,0,0,0,0,0,,,,,,,,,,,,,
138,5612184,1745474211212,0.0,130.0,,0.84,-0.02,1.03,2.0,-1.0,1.0,1.33,1.46,91.0,11141.0,99.6,5.46,,13.56,0.942,89.8,,60.2,5.0,22.0,0.0,34.0,34.0,0.0,17.0,0.0,0.0,2.27,,,0,0,0,0,0,0,0,0,0,0,0,0,0,0,0,0,,1.0,,,,0.0,38.994099,-76.939598,34.42,27.4,31.0,3.0,0.8
139,5612204,1745474211232,,,,,,,,,,,,,,,,,,,,,,,,,,,,,,,,,,0,0,0,0,0,0,0,0,0,0,0,0,0,0,0,0,,,,,,,,,,,,,
140,5612224,1745474211252,0.0,130.0,,0.84,-0.12,0.95,2.0,-1.0,0.0,1.27,1.46,87.0,11141.0,99.6,5.46,,13.75,0.939,89.8,,60.2,5.0,,,,,,,,,,,,0,0,0,0,0,0,0,0,0,0,0,0,0,0,0,0,,,,,,0.0,,,,,,,
141,5612244,1745474211272,,,,,,,,,,,,,,,,,,,,,,,,,,,,,,,,,,0,0,0,0,0,0,0,0,0,0,0,0,0,0,0,0,,,,,,,,,,,,,
142,5612264,1745474211292,0.0,130.0,,0.8,-0.05,0.94,1.0,-1.0,1.0,1.24,1.46,85.0,11130.0,99.5,5.48,,13.4,0.955,89.8,,59.2,5.0,,,,,,,,,,,,0,0,0,0,0,0,0,0,0,0,0,0,0,0,0,0,,,,,,0.0,,,,,,,
143,5612284,1745474211318,,,,,,,,,,,,,,,,,,,,,,,24.0,0.0,35.0,35.0,0.0,255.0,0.0,0.0,2.27,,,0,0,0,0,0,0,0,0,0,0,0,0,0,0,0,0,,1.0,,,,,38.994099,-76.939583,37.43,27.4,31.0,3.0,0.8
144,5612304,1745474211338,0.0,130.0,,0.79,-0.25,0.91,-1.0,0.0,1.0,1.23,1.46,84.0,11372.0,99.5,5.41,,13.51,0.949,89.8,,59.2,5.0,,,,,,,,,,,,0,0,0,0,0,0,0,0,0,0,0,0,0,0,0,0,,,,,,0.0,,,,,,,
145,5612324,1745474211358,,,,,,,,,,,,,,,,,,,,,,,,,,,,,,,,,,0,0,0,0,0,0,0,0,0,0,0,0,0,0,0,0,,,,,,,,,,,,,
146,5612344,1745474211378,0.0,129.0,,0.86,-0.33,0.91,-4.0,0.0,0.0,1.3,1.46,89.0,11252.0,99.5,5.42,,13.48,0.936,89.8,,59.2,5.0,,,,,,,,,,,,0,0,0,0,0,0,0,0,0,0,0,0,0,0,0,0,,,,,,0.0,,,,,,,
147,5612364,1745474211398,,,,,,,,,,,,,,,,,,,,,,,,,,,,,,,,,,0,0,0,0,0,0,0,0,0,0,0,0,0,0,0,0,,,,,,,,,,,,,
148,5612384,1745474211418,0.0,129.0,13.11,0.88,-0.33,0.88,-6.0,1.0,1.0,1.29,1.46,88.0,10691.0,99.5,5.68,15.0,13.48,0.936,89.8,169.0,59.4,5.0,26.0,0.0,33.0,31.0,0.0,56.0,0.0,0.0,2.26,0.0,1.0,0,0,0,0,0,0,0,0,0,0,0,0,0,0,0,0,0.0,0.0,1.0,0.0,0.0,0.0,38.994102,-76.939575,40.37,27.4,31.0,3.0,0.8
149,5612404,1745474211438,,,,,,,,,,,,,,,,,,,,,,,,,,,,,,,,,,0,0,0,0,0,0,0,0,0,0,0,0,0,0,0,0,,,,,,,,,,,,,
150,5612424,1745474211458,0.0,129.0,,0.9,-0.33,0.91,-9.0,1.0,1.0,1.32,1.46,90.0,10691.0,99.5,5.68,,13.61,0.931,89.8,,59.4,5.0,,,,,,,,,,,,0,0,0,0,0,0,0,0,0,0,0,0,0,0,0,0,,,,,,0.0,,,,,,,
151,5612444,1745474211478,,,,,,,,,,,,,,,,,,,,,,,,,,,,,,,,,,0,0,0,0,0,0,0,0,0,0,0,0,0,0,0,0,,,,,,,,,,,,,
152,5612464,1745474211498,0.0,129.0,,0.93,-0.33,0.97,-10.0,0.0,2.0,1.38,1.46,95.0,10491.0,67.3,5.26,,13.44,0.953,89.8,,57.9,5.0,,,,,,,,,,,,0,0,0,0,0,0,0,0,0,0,0,0,0,0,0,0,,,,,,0.0,,,,,,,
153,5612484,1745474211519,,,,,,,,,,,,,,,,,,,,,,,27.0,31.0,32.0,31.0,0.0,104.0,0.0,0.0,2.26,,,0,0,0,0,0,0,0,0,0,0,0,0,0,0,0,0,,1.0,,,,,38.994102,-76.93956,44.36,27.4,31.0,3.0,0.8
154,5612504,1745474211539,0.0,129.0,,0.84,-0.3,0.94,-13.0,-1.0,2.0,1.3,1.46,89.0,10285.0,18.3,5.0,,11.3,0.933,89.8,,57.9,5.0,,,,,,,,,,,,0,0,0,0,0,0,0,0,0,0,0,0,0,0,0,0,,,,,,0.0,,,,,,,
155,5612524,1745474211559,,,,,,,,,,,,,,,,,,,,,,,,,,,,,,,,,,0,0,0,0,0,0,0,0,0,0,0,0,0,0,0,0,,,,,,,,,,,,,
156,5612544,1745474211579,0.0,129.0,,0.74,-0.68,0.97,-17.0,-2.0,2.0,1.4,1.46,96.0,10114.0,4.8,2.41,,9.09,0.916,89.8,,57.9,5.0,,,,,,,,,,,,0,0,0,0,0,0,0,0,0,0,0,0,0,0,0,0,,,,,,0.0,,,,,,,
157,5612564,1745474211599,,,,,,,,,,,,,,,,,,,,,,,,,,,,,,,,,,0,0,0,0,0,0,0,0,0,0,0,0,0,0,0,0,,,,,,,,,,,,,
158,5612584,1745474211617,0.0,129.0,,0.67,-0.39,0.94,-20.0,-2.0,2.0,1.21,1.46,83.0,10148.0,2.9,1.43,,9.09,0.916,89.8,,52.4,5.0,29.0,32.0,30.0,33.0,0.0,103.0,0.0,0.0,2.26,,,0,0,0,0,0,0,0,0,0,0,0,0,0,0,0,0,,0.0,,,,0.0,38.994102,-76.939545,48.54,27.4,31.0,3.0,0.8
159,5612604,1745474211637,,,,,,,,,,,,,,,,,,,,,,,,,,,,,,,,,,0,0,0,0,0,0,0,0,0,0,0,0,0,0,0,0,,,,,,,,,,,,,
160,5612624,1745474211657,0.0,128.0,,0.57,-0.59,1.0,-22.0,-2.0,2.0,1.3,1.46,89.0,10148.0,2.9,1.43,,7.7,0.844,89.8,,52.4,5.0,,,,,,,,,,,,0,0,0,0,0,0,0,0,0,0,0,0,0,0,0,0,,,,,,0.0,,,,,,,
161,5612644,1745474211677,,,,,,,,,,,,,,,,,,,,,,,,,,,,,,,,,,0,0,0,0,0,0,0,0,0,0,0,0,0,0,0,0,,,,,,,,,,,,,
162,5612664,1745474211697,0.0,128.0,,0.46,-0.63,1.01,-25.0,-2.0,1.0,1.28,1.28,100.0,9951.0,1.9,1.4,,6.63,0.89,89.8,,47.9,5.0,,,,,,,,,,,,0,0,0,0,0,0,0,0,0,0,0,0,0,0,0,0,,,,,,0.0,,,,,,,
163,5612684,1745474211719,,,,,,,,,,,,,,,,,,,,,,,28.0,41.0,29.0,31.0,0.0,90.0,0.0,0.0,2.27,,,0,0,0,0,0,0,0,0,0,0,0,0,0,0,0,0,,0.0,,,,,38.994102,-76.939529,48.1,27.3,31.0,3.0,0.8
164,5612704,1745474211739,0.0,128.0,,0.39,-0.75,0.98,-26.0,-2.0,1.0,1.29,1.29,100.0,9771.0,0.8,1.4,,5.99,0.998,89.8,,47.9,5.0,,,,,,,,,,,,0,0,0,0,0,0,0,0,0,0,0,0,0,0,0,0,,,,,,0.0,,,,,,,
165,5612724,1745474211759,,,,,,,,,,,,,,,,,,,,,,,,,,,,,,,,,,0,0,0,0,0,0,0,0,0,0,0,0,0,0,0,0,,,,,,,,,,,,,
166,5612744,1745474211779,0.0,127.0,,0.27,-0.99,0.94,-30.0,-2.0,1.0,1.39,1.39,100.0,9671.0,0.6,1.4,,5.83,1.106,89.8,,47.9,5.0,,,,,,,,,,,,0,0,0,0,0,0,0,0,0,0,0,0,0,0,0,0,,,,,,0.0,,,,,,,
167,5612764,1745474211799,,,,,,,,,,,,,,,,,,,,,,,,,,,,,,,,,,0,0,0,0,0,0,0,0,0,0,0,0,0,0,0,0,,,,,,,,,,,,,
168,5612784,1745474211817,0.0,128.0,,0.18,-0.85,0.96,-32.0,-1.0,1.0,1.3,1.39,93.0,9539.0,0.5,1.4,,5.83,1.106,89.8,,48.3,5.0,29.0,15.0,28.0,31.0,0.0,99.0,0.0,0.0,2.27,,,0,0,0,0,0,0,0,0,0,0,0,0,0,0,0,0,,0.0,,,,0.0,38.994099,-76.939514,47.53,27.3,31.0,3.0,0.8
169,5612804,1745474211837,,,,,,,,,,,,,,,,,,,,,,,,,,,,,,,,,,0,0,0,0,0,0,0,0,0,0,0,0,0,0,0,0,,,,,,,,,,,,,
170,5612824,1745474211857,0.0,128.0,,0.08,-0.79,0.97,-34.0,0.0,1.0,1.25,1.39,90.0,9539.0,0.5,1.4,,5.55,1.124,86.2,,48.3,5.0,,,,,,,,,,,,0,0,0,0,0,0,0,0,0,0,0,0,0,0,0,0,,,,,,0.0,,,,,,,
171,5612844,1745474211877,,,,,,,,,,,,,,,,,,,,,,,,,,,,,,,,,,0,0,0,0,0,0,0,0,0,0,0,0,0,0,0,0,,,,,,,,,,,,,
172,5612864,1745474211897,0.0,128.0,,-0.0,-0.9,0.96,-35.0,-1.0,2.0,1.32,1.39,94.0,9361.0,0.5,1.4,,5.34,1.104,86.2,,47.8,5.0,,,,,,,,,,,,0,0,0,0,0,0,0,0,0,0,0,0,0,0,0,0,,,,,,0.0,,,,,,,
173,5612884,1745474211917,,,,,,,,,,,,,,,,,,,,,,,27.0,30.0,27.0,31.0,0.0,229.0,0.0,0.0,2.27,,,0,0,0,0,0,0,0,0,0,0,0,0,0,0,0,0,,0.0,,,,,38.994095,-76.939499,46.25,27.3,31.0,3.0,0.8
174,5612904,1745474211937,0.0,128.0,,-0.08,-0.88,1.03,-37.0,-2.0,2.0,1.36,1.39,97.0,9445.0,0.7,1.4,,5.2,1.128,86.2,,47.8,5.0,,,,,,,,,,,,0,0,0,0,0,0,0,0,0,0,0,0,0,0,0,0,,,,,,0.0,,,,,,,
175,5612924,1745474211957,,,,,,,,,,,,,,,,,,,,,,,,,,,,,,,,,,0,0,0,0,0,0,0,0,0,0,0,0,0,0,0,0,,,,,,,,,,,,,
176,5612944,1745474211977,0.0,128.0,,-0.16,-1.07,0.99,-41.0,-2.0,2.0,1.47,1.47,100.0,9402.0,1.0,1.4,,5.04,1.157,86.2,,47.8,5.0,,,,,,,,,,,,0,0,0,0,0,0,0,0,0,0,0,0,0,0,0,0,,,,,,0.0,,,,,,,
177,5612964,1745474211997,,,,,,,,,,,,,,,,,,,,,,,,,,,,,,,,,,0,0,0,0,0,0,0,0,0,0,0,0,0,0,0,0,,,,,,,,,,,,,
178,5612984,1745474212009,0.0,128.0,,-0.23,-1.07,0.99,-44.0,-1.0,2.0,1.48,1.48,100.0,9209.0,1.1,1.4,,5.04,1.157,86.2,,47.6,5.0,26.0,30.0,26.0,29.0,0.0,243.0,0.0,0.0,2.26,,,0,0,0,0,0,0,0,0,0,0,0,0,0,0,0,0,,0.0,,,,0.0,38.994095,-76.939484,45.93,27.3,31.0,3.0,0.8
179,5613004,1745474212029,,,,,,,,,,,,,,,,,,,,,,,,,,,,,,,,,,0,0,0,0,0,0,0,0,0,0,0,0,0,0,0,0,,,,,,,,,,,,,
180,5613024,1745474212049,0.0,128.0,,-0.25,-0.8,1.04,-47.0,0.0,1.0,1.34,1.48,90.0,9209.0,1.1,1.4,,4.96,1.154,86.2,,47.6,5.0,,,,,,,,,,,,0,0,0,0,0,0,0,0,0,0,0,0,0,0,0,0,,,,,,0.0,,,,,,,
181,5613044,1745474212069,,,,,,,,,,,,,,,,,,,,,,,,,,,,,,,,,,0,0,0,0,0,0,0,0,0,0,0,0,0,0,0,0,,,,,,,,,,,,,
182,5613064,1745474212089,0.0,126.0,,-0.31,-0.88,1.01,-51.0,0.0,2.0,1.37,1.48,93.0,8998.0,1.1,1.4,,4.96,1.233,86.2,,47.7,5.0,,,,,,,,,,,,0,0,0,0,0,0,0,0,0,0,0,0,0,0,0,0,,,,,,0.0,,,,,,,
183,5613084,1745474212115,,,,,,,,,,,,,,,,,,,,,,,25.0,30.0,24.0,29.0,0.0,58.0,0.0,0.0,2.27,,,0,0,0,0,0,0,0,0,0,0,0,0,0,0,0,0,,0.0,,,,,38.994091,-76.939468,43.33,27.2,31.0,3.0,0.8
184,5613104,1745474212135,0.0,120.0,,-0.37,-1.12,0.98,-52.0,-1.0,1.0,1.53,1.53,100.0,8820.0,0.9,1.4,,4.96,1.25,86.2,,47.7,5.0,,,,,,,,,,,,0,0,0,0,0,0,0,0,0,0,0,0,0,0,0,0,,,,,,0.0,,,,,,,
185,5613124,1745474212155,,,,,,,,,,,,,,,,,,,,,,,,,,,,,,,,,,0,0,0,0,0,0,0,0,0,0,0,0,0,0,0,0,,,,,,,,,,,,,
186,5613144,1745474212175,0.0,127.0,,-0.43,-1.01,1.0,-54.0,-1.0,2.0,1.48,1.53,97.0,8623.0,6.2,1.56,,5.43,1.251,86.2,,47.7,5.0,,,,,,,,,,,,0,0,0,0,0,0,0,0,0,0,0,0,0,0,0,0,,,,,,0.0,,,,,,,
187,5613164,1745474212195,,,,,,,,,,,,,,,,,,,,,,,,,,,,,,,,,,0,0,0,0,0,0,0,0,0,0,0,0,0,0,0,0,,,,,,,,,,,,,
188,5613184,1745474212217,0.0,128.0,,-0.46,-1.14,0.99,-58.0,0.0,1.0,1.58,1.58,100.0,8345.0,11.4,1.96,,5.43,1.251,86.2,,47.4,5.0,24.0,27.0,23.0,28.0,0.0,203.0,0.0,0.0,2.27,,,0,0,0,0,0,0,0,0,0,0,0,0,0,0,0,0,,0.0,,,,0.0,38.994083,-76.939453,42.73,27.2,32.0,3.0,0.8
189,5613204,1745474212237,,,,,,,,,,,,,,,,,,,,,,,,,,,,,,,,,,0,0,0,0,0,0,0,0,0,0,0,0,0,0,0,0,,,,,,,,,,,,,
190,5613224,1745474212257,0.0,127.0,,-0.5,-1.18,1.0,-60.0,0.0,0.0,1.63,1.63,100.0,8345.0,11.4,1.96,,6.22,1.251,86.2,,47.4,5.0,,,,,,,,,,,,0,0,0,0,0,0,0,0,0,0,0,0,0,0,0,0,,,,,,0.0,,,,,,,
191,5613244,1745474212277,,,,,,,,,,,,,,,,,,,,,,,,,,,,,,,,,,0,0,0,0,0,0,0,0,0,0,0,0,0,0,0,0,,,,,,,,,,,,,
192,5613264,1745474212297,0.0,125.0,,-0.54,-1.26,0.96,-63.0,1.0,1.0,1.67,1.67,100.0,8350.0,14.0,2.33,,7.34,1.25,86.2,,47.8,5.0,,,,,,,,,,,,0,0,0,0,0,0,0,0,0,0,0,0,0,0,0,0,,,,,,0.0,,,,,,,
193,5613284,1745474212316,,,,,,,,,,,,,,,,,,,,,,,23.0,30.0,23.0,26.0,0.0,176.0,0.0,0.0,2.27,,,0,0,0,0,0,0,0,0,0,0,0,0,0,0,0,0,,0.0,,,,,38.994076,-76.939453,41.07,27.1,32.0,3.0,0.8
194,5613304,1745474212336,0.0,128.0,,-0.54,-1.33,1.03,-65.0,1.0,1.0,1.77,1.77,100.0,8501.0,14.8,2.59,,7.9,1.251,86.2,,47.8,5.0,,,,,,,,,,,,0,0,0,0,0,0,0,0,0,0,0,0,0,0,0,0,,,,,,0.0,,,,,,,
195,5613324,1745474212356,,,,,,,,,,,,,,,,,,,,,,,,,,,,,,,,,,0,0,0,0,0,0,0,0,0,0,0,0,0,0,0,0,,,,,,,,,,,,,
196,5613344,1745474212376,0.0,128.0,,-0.56,-1.47,0.97,-67.0,1.0,0.0,1.85,1.85,100.0,8710.0,15.6,2.69,,8.35,1.221,86.2,,47.8,5.0,,,,,,,,,,,,0,0,0,0,0,0,0,0,0,0,0,0,0,0,0,0,,,,,,0.0,,,,,,,
197,5613364,1745474212396,,,,,,,,,,,,,,,,,,,,,,,,,,,,,,,,,,0,0,0,0,0,0,0,0,0,0,0,0,0,0,0,0,,,,,,,,,,,,,
198,5613384,1745474212419,0.0,128.0,13.22,-0.54,-1.35,0.95,-68.0,1.0,0.0,1.73,1.85,94.0,8948.0,19.0,2.93,15.0,8.35,1.221,86.2,169.0,48.0,5.0,22.0,25.0,24.0,26.0,0.0,246.0,0.0,0.0,2.26,0.0,1.0,0,0,0,0,0,0,0,0,0,0,0,0,0,0,0,0,0.0,1.0,1.0,0.0,0.0,0.0,38.994072,-76.939438,39.58,27.1,32.0,3.0,0.8
199,5613404,1745474212439,,,,,,,,,,,,,,,,,,,,,,,,,,,,,,,,,,0,0,0,0,0,0,0,0,0,0,0,0,0,0,0,0,,,,,,,,,,,,,
200,5613424,1745474212459,0.0,127.0,,-0.51,-1.27,0.89,-68.0,1.0,0.0,1.63,1.85,88.0,8948.0,19.0,2.93,,8.87,1.108,86.2,,48.0,5.0,,,,,,,,,,,,0,0,0,0,0,0,0,0,0,0,0,0,0,0,0,0,,,,,,0.0,,,,,,,
201,5613444,1745474212479,,,,,,,,,,,,,,,,,,,,,,,,,,,,,,,,,,0,0,0,0,0,0,0,0,0,0,0,0,0,0,0,0,,,,,,,,,,,,,
202,5613464,1745474212499,0.0,128.0,,-0.46,-1.37,0.92,-68.0,2.0,0.0,1.71,1.71,100.0,9263.0,20.9,3.19,,9.07,1.074,86.2,,48.0,5.0,,,,,,,,,,,,0,0,0,0,0,0,0,0,0,0,0,0,0,0,0,0,,,,,,0.0,,,,,,,
203,5613484,1745474212516,,,,,,,,,,,,,,,,,,,,,,,23.0,25.0,28.0,27.0,0.0,135.0,0.0,0.0,2.27,,,0,0,0,0,0,0,0,0,0,0,0,0,0,0,0,0,,0.0,,,,,38.994064,-76.93943,38.53,27.1,32.0,3.0,0.8
204,5613504,1745474212536,0.0,128.0,,-0.42,-1.18,0.9,-68.0,2.0,1.0,1.55,1.71,91.0,9359.0,21.6,3.27,,9.31,1.07,86.2,,48.0,5.0,,,,,,,,,,,,0,0,0,0,0,0,0,0,0,0,0,0,0,0,0,0,,,,,,0.0,,,,,,,
205,5613524,1745474212556,,,,,,,,,,,,,,,,,,,,,,,,,,,,,,,,,,0,0,0,0,0,0,0,0,0,0,0,0,0,0,0,0,,,,,,,,,,,,,
206,5613544,1745474212576,0.0,128.0,,-0.39,-1.27,0.93,-67.0,2.0,1.0,1.62,1.71,95.0,9332.0,21.5,3.3,,9.52,1.073,86.2,,48.0,5.0,,,,,,,,,,,,0,0,0,0,0,0,0,0,0,0,0,0,0,0,0,0,,,,,,0.0,,,,,,,
207,5613564,1745474212596,,,,,,,,,,,,,,,,,,,,,,,,,,,,,,,,,,0,0,0,0,0,0,0,0,0,0,0,0,0,0,0,0,,,,,,,,,,,,,
208,5613584,1745474212618,0.0,127.0,,-0.34,-1.16,0.92,-66.0,2.0,1.0,1.52,1.71,89.0,9367.0,21.4,3.33,,9.52,1.073,86.2,,48.8,5.0,23.0,26.0,28.0,28.0,0.0,78.0,0.0,0.0,2.27,,,0,0,0,0,0,0,0,0,0,0,0,0,0,0,0,0,,1.0,,,,0.0,38.994057,-76.939423,38.85,27.1,32.0,3.0,0.8
209,5613604,1745474212638,,,,,,,,,,,,,,,,,,,,,,,,,,,,,,,,,,0,0,0,0,0,0,0,0,0,0,0,0,0,0,0,0,,,,,,,,,,,,,
210,5613624,1745474212658,0.0,128.0,,-0.36,-1.04,0.92,-66.0,2.0,0.0,1.44,1.71,84.0,9367.0,21.4,3.33,,9.64,1.081,86.2,,48.8,5.0,,,,,,,,,,,,0,0,0,0,0,0,0,0,0,0,0,0,0,0,0,0,,,,,,0.0,,,,,,,
211,5613644,1745474212678,,,,,,,,,,,,,,,,,,,,,,,,,,,,,,,,,,0,0,0,0,0,0,0,0,0,0,0,0,0,0,0,0,,,,,,,,,,,,,
212,5613664,1745474212698,0.0,128.0,,-0.3,-1.11,0.9,-66.0,3.0,0.0,1.46,1.71,85.0,9396.0,21.4,3.36,,9.6,1.078,86.2,,48.3,5.0,,,,,,,,,,,,0,0,0,0,0,0,0,0,0,0,0,0,0,0,0,0,,,,,,0.0,,,,,,,
213,5613684,1745474212718,,,,,,,,,,,,,,,,,,,,,,,22.0,25.0,30.0,28.0,0.0,73.0,0.0,0.0,2.27,,,0,0,0,0,0,0,0,0,0,0,0,0,0,0,0,0,,1.0,,,,,38.994045,-76.939415,39.66,27.1,32.0,3.0,0.8
214,5613704,1745474212738,0.0,128.0,,-0.26,-1.1,0.95,-65.0,2.0,1.0,1.48,1.71,86.0,9418.0,21.0,3.35,,9.62,1.072,86.2,,48.3,5.0,,,,,,,,,,,,0,0,0,0,0,0,0,0,0,0,0,0,0,0,0,0,,,,,,0.0,,,,,,,
215,5613724,1745474212758,,,,,,,,,,,,,,,,,,,,,,,,,,,,,,,,,,0,0,0,0,0,0,0,0,0,0,0,0,0,0,0,0,,,,,,,,,,,,,
216,5613744,1745474212778,0.0,128.0,,-0.21,-1.2,0.89,-63.0,1.0,1.0,1.51,1.71,88.0,9380.0,19.1,3.33,,9.39,1.064,86.2,,48.3,5.0,,,,,,,,,,,,0,0,0,0,0,0,0,0,0,0,0,0,0,0,0,0,,,,,,0.0,,,,,,,
217,5613764,1745474212798,,,,,,,,,,,,,,,,,,,,,,,,,,,,,,,,,,0,0,0,0,0,0,0,0,0,0,0,0,0,0,0,0,,,,,,,,,,,,,
218,5613784,1745474212818,0.0,128.0,,-0.28,-1.2,0.95,-63.0,1.0,2.0,1.55,1.71,91.0,9400.0,17.1,3.18,,9.39,1.064,86.2,,47.7,5.0,23.0,25.0,30.0,29.0,0.0,129.0,0.0,0.0,2.26,,,0,0,0,0,0,0,0,0,0,0,0,0,0,0,0,0,,1.0,,,,0.0,38.994034,-76.939415,40.25,27.0,32.0,3.0,0.8
219,5613804,1745474212838,,,,,,,,,,,,,,,,,,,,,,,,,,,,,,,,,,0,0,0,0,0,0,0,0,0,0,0,0,0,0,0,0,,,,,,,,,,,,,
220,5613824,1745474212858,0.0,127.0,,-0.32,-1.26,0.97,-64.0,1.0,1.0,1.62,1.71,95.0,9400.0,17.1,3.18,,9.21,1.047,88.0,,47.7,5.0,,,,,,,,,,,,0,0,0,0,0,0,0,0,0,0,0,0,0,0,0,0,,,,,,0.0,,,,,,,
221,5613844,1745474212878,,,,,,,,,,,,,,,,,,,,,,,,,,,,,,,,,,0,0,0,0,0,0,0,0,0,0,0,0,0,0,0,0,,,,,,,,,,,,,
222,5613864,1745474212898,0.0,128.0,,-0.31,-1.19,1.03,-63.0,2.0,1.0,1.61,1.71,94.0,9642.0,17.3,3.11,,8.91,1.023,88.0,,48.4,5.0,,,,,,,,,,,,0,0,0,0,0,0,0,0,0,0,0,0,0,0,0,0,,,,,,0.0,,,,,,,
223,5613884,1745474212918,,,,,,,,,,,,,,,,,,,,,,,24.0,27.0,32.0,28.0,0.0,150.0,0.0,0.0,2.26,,,0,0,0,0,0,0,0,0,0,0,0,0,0,0,0,0,,1.0,,,,,38.994026,-76.939415,40.72,27.1,32.0,3.0,0.8
224,5613904,1745474212938,0.0,127.0,,-0.28,-1.28,0.96,-64.0,2.0,1.0,1.63,1.71,95.0,9725.0,17.3,3.09,,8.85,1.022,88.0,,48.4,5.0,,,,,,,,,,,,0,0,0,0,0,0,0,0,0,0,0,0,0,0,0,0,,,,,,0.0,,,,,,,
225,5613924,1745474212958,,,,,,,,,,,,,,,,,,,,,,,,,,,,,,,,,,0,0,0,0,0,0,0,0,0,0,0,0,0,0,0,0,,,,,,,,,,,,,
226,5613944,1745474212978,0.0,128.0,,-0.24,-1.27,0.97,-63.0,1.0,2.0,1.62,1.71,95.0,9560.0,14.8,2.81,,8.45,1.009,88.0,,48.4,5.0,,,,,,,,,,,,0,0,0,0,0,0,0,0,0,0,0,0,0,0,0,0,,,,,,0.0,,,,,,,
227,5613964,1745474212998,,,,,,,,,,,,,,,,,,,,,,,,,,,,,,,,,,0,0,0,0,0,0,0,0,0,0,0,0,0,0,0,0,,,,,,,,,,,,,
228,5613984,1745474213010,0.0,128.0,,-0.27,-1.26,1.03,-62.0,0.0,1.0,1.65,1.71,97.0,9491.0,12.2,2.56,,8.45,1.009,88.0,,48.3,5.0,24.0,26.0,30.0,28.0,0.0,170.0,0.0,0.0,2.27,,,0,0,0,0,0,0,0,0,0,0,0,0,0,0,0,0,,1.0,,,,0.0,38.994015,-76.939415,40.03,27.0,32.0,3.0,0.8
229,5614004,1745474213030,,,,,,,,,,,,,,,,,,,,,,,,,,,,,,,,,,0,0,0,0,0,0,0,0,0,0,0,0,0,0,0,0,,,,,,,,,,,,,
230,5614024,1745474213050,0.0,128.0,,-0.27,-1.22,1.02,-63.0,0.0,0.0,1.62,1.71,95.0,9491.0,12.2,2.56,,8.26,0.996,88.0,,48.3,5.0,,,,,,,,,,,,0,0,0,0,0,0,0,0,0,0,0,0,0,0,0,0,,,,,,0.0,,,,,,,
231,5614044,1745474213070,,,,,,,,,,,,,,,,,,,,,,,,,,,,,,,,,,0,0,0,0,0,0,0,0,0,0,0,0,0,0,0,0,,,,,,,,,,,,,
232,5614064,1745474213090,0.0,127.0,,-0.26,-1.23,1.06,-62.0,0.0,0.0,1.65,1.71,96.0,9515.0,12.7,2.53,,8.01,0.997,88.0,,48.4,5.0,,,,,,,,,,,,0,0,0,0,0,0,0,0,0,0,0,0,0,0,0,0,,,,,,0.0,,,,,,,
233,5614084,1745474213120,,,,,,,,,,,,,,,,,,,,,,,24.0,28.0,27.0,28.0,0.0,184.0,0.0,0.0,2.27,,,0,0,0,0,0,0,0,0,0,0,0,0,0,0,0,0,,1.0,,,,,38.994007,-76.939415,41.62,27.0,32.0,3.0,0.8
234,5614104,1745474213140,0.0,128.0,,-0.26,-1.22,1.08,-61.0,0.0,2.0,1.65,1.71,96.0,9371.0,12.7,2.52,,7.95,1.018,88.0,,48.4,5.0,,,,,,,,,,,,0,0,0,0,0,0,0,0,0,0,0,0,0,0,0,0,,,,,,0.0,,,,,,,
235,5614124,1745474213160,,,,,,,,,,,,,,,,,,,,,,,,,,,,,,,,,,0,0,0,0,0,0,0,0,0,0,0,0,0,0,0,0,,,,,,,,,,,,,
236,5614144,1745474213180,0.0,128.0,,-0.26,-1.17,1.06,-61.0,0.0,2.0,1.6,1.71,94.0,9166.0,11.1,2.43,,7.9,1.032,88.0,,48.4,5.0,,,,,,,,,,,,0,0,0,0,0,0,0,0,0,0,0,0,0,0,0,0,,,,,,0.0,,,,,,,
237,5614164,1745474213200,,,,,,,,,,,,,,,,,,,,,,,,,,,,,,,,,,0,0,0,0,0,0,0,0,0,0,0,0,0,0,0,0,,,,,,,,,,,,,
238,5614184,1745474213218,0.0,128.0,,-0.28,-0.99,1.02,-61.0,0.0,1.0,1.45,1.71,85.0,9137.0,10.7,2.39,,7.9,1.032,88.0,,47.8,5.0,23.0,26.0,26.0,28.0,0.0,48.0,0.0,0.0,2.27,,,0,0,0,0,0,0,0,0,0,0,0,0,0,0,0,0,,0.0,,,,0.0,38.993996,-76.939415,40.93,27.0,32.0,3.0,0.8
239,5614204,1745474213238,,,,,,,,,,,,,,,,,,,,,,,,,,,,,,,,,,0,0,0,0,0,0,0,0,0,0,0,0,0,0,0,0,,,,,,,,,,,,,
240,5614224,1745474213258,0.0,128.0,,-0.28,-0.93,0.99,-61.0,0.0,1.0,1.39,1.71,81.0,9137.0,10.7,2.39,,7.69,1.04,88.0,,47.8,5.0,,,,,,,,,,,,0,0,0,0,0,0,0,0,0,0,0,0,0,0,0,0,,,,,,0.0,,,,,,,
241,5614244,1745474213278,,,,,,,,,,,,,,,,,,,,,,,,,,,,,,,,,,0,0,0,0,0,0,0,0,0,0,0,0,0,0,0,0,,,,,,,,,,,,,
242,5614264,1745474213298,0.0,128.0,,-0.3,-0.83,0.96,-60.0,0.0,1.0,1.3,1.71,76.0,9016.0,10.2,2.39,,7.51,1.038,88.0,,47.5,5.0,,,,,,,,,,,,0,0,0,0,0,0,0,0,0,0,0,0,0,0,0,0,,,,,,0.0,,,,,,,
243,5614284,1745474213319,,,,,,,,,,,,,,,,,,,,,,,23.0,26.0,26.0,27.0,0.0,254.0,0.0,0.0,2.26,,,0,0,0,0,0,0,0,0,0,0,0,0,0,0,0,0,,1.0,,,,,38.993988,-76.939415,41.22,27.0,32.0,3.0,0.8
244,5614304,1745474213339,0.0,128.0,,-0.35,-0.67,0.94,-59.0,-1.0,1.0,1.21,1.71,71.0,8896.0,8.0,2.25,,7.29,1.03,88.0,,47.5,5.0,,,,,,,,,,,,0,0,0,0,0,0,0,0,0,0,0,0,0,0,0,0,,,,,,0.0,,,,,,,
245,5614324,1745474213359,,,,,,,,,,,,,,,,,,,,,,,,,,,,,,,,,,0,0,0,0,0,0,0,0,0,0,0,0,0,0,0,0,,,,,,,,,,,,,
246,5614344,1745474213379,0.0,128.0,,-0.38,-0.58,0.98,-58.0,-1.0,1.0,1.2,1.71,70.0,8809.0,6.2,2.09,,7.12,1.024,88.0,,47.5,5.0,,,,,,,,,,,,0,0,0,0,0,0,0,0,0,0,0,0,0,0,0,0,,,,,,0.0,,,,,,,
247,5614364,1745474213399,,,,,,,,,,,,,,,,,,,,,,,,,,,,,,,,,,0,0,0,0,0,0,0,0,0,0,0,0,0,0,0,0,,,,,,,,,,,,,
248,5614384,1745474213420,0.0,128.0,13.26,-0.42,-0.82,0.99,-57.0,-1.0,1.0,1.35,1.35,100.0,8719.0,6.6,2.05,15.0,7.12,1.024,88.0,169.0,48.1,5.0,23.0,25.0,27.0,28.0,0.0,27.0,0.0,0.0,2.27,0.0,1.0,0,0,0,0,0,0,0,0,0,0,0,0,0,0,0,0,0.0,1.0,1.0,0.0,0.0,0.0,38.993977,-76.939415,40.45,27.0,32.0,3.0,0.8
249,5614404,1745474213440,,,,,,,,,,,,,,,,,,,,,,,,,,,,,,,,,,0,0,0,0,0,0,0,0,0,0,0,0,0,0,0,0,,,,,,,,,,,,,
250,5614424,1745474213460,0.0,127.0,,-0.45,-0.88,1.0,-57.0,-1.0,1.0,1.41,1.41,100.0,8719.0,6.6,2.05,,6.96,1.018,88.0,,48.1,5.0,,,,,,,,,,,,0,0,0,0,0,0,0,0,0,0,0,0,0,0,0,0,,,,,,0.0,,,,,,,
251,5614444,1745474213480,,,,,,,,,,,,,,,,,,,,,,,,,,,,,,,,,,0,0,0,0,0,0,0,0,0,0,0,0,0,0,0,0,,,,,,,,,,,,,
252,5614464,1745474213500,0.0,127.0,,-0.48,-0.95,0.96,-59.0,-1.0,2.0,1.44,1.44,100.0,8582.0,6.1,2.04,,6.71,1.031,88.0,,47.4,5.0,,,,,,,,,,,,0,0,0,0,0,0,0,0,0,0,0,0,0,0,0,0,,,,,,0.0,,,,,,,
253,5614484,1745474213519,,,,,,,,,,,,,,,,,,,,,,,23.0,27.0,25.0,28.0,0.0,0.0,0.0,0.0,2.27,,,0,0,0,0,0,0,0,0,0,0,0,0,0,0,0,0,,0.0,,,,,38.993969,-76.939423,39.49,26.9,32.0,3.0,0.8
254,5614504,1745474213539,0.0,126.0,,-0.51,-1.04,0.94,-60.0,-1.0,2.0,1.49,1.49,100.0,8438.0,5.7,2.0,,6.7,1.055,88.0,,47.4,5.0,,,,,,,,,,,,0,0,0,0,0,0,0,0,0,0,0,0,0,0,0,0,,,,,,0.0,,,,,,,
255,5614524,1745474213559,,,,,,,,,,,,,,,,,,,,,,,,,,,,,,,,,,0,0,0,0,0,0,0,0,0,0,0,0,0,0,0,0,,,,,,,,,,,,,
256,5614544,1745474213579,0.0,127.0,,-0.51,-1.08,0.96,-61.0,0.0,2.0,1.54,1.54,100.0,8330.0,5.4,1.93,,6.68,1.073,88.0,,47.4,5.0,,,,,,,,,,,,0,0,0,0,0,0,0,0,0,0,0,0,0,0,0,0,,,,,,0.0,,,,,,,
257,5614564,1745474213599,,,,,,,,,,,,,,,,,,,,,,,,,,,,,,,,,,0,0,0,0,0,0,0,0,0,0,0,0,0,0,0,0,,,,,,,,,,,,,
258,5614584,1745474213619,0.0,128.0,,-0.5,-1.06,0.98,-63.0,0.0,3.0,1.53,1.54,100.0,8223.0,5.5,2.0,,6.68,1.073,88.0,,46.7,5.0,22.0,25.0,23.0,25.0,0.0,10.0,0.0,0.0,2.27,,,0,0,0,0,0,0,0,0,0,0,0,0,0,0,0,0,,0.0,,,,0.0,38.993958,-76.93943,39.15,26.9,32.0,3.0,0.8
259,5614604,1745474213639,,,,,,,,,,,,,,,,,,,,,,,,,,,,,,,,,,0,0,0,0,0,0,0,0,0,0,0,0,0,0,0,0,,,,,,,,,,,,,
260,5614624,1745474213659,0.0,127.0,,-0.52,-1.09,1.01,-64.0,0.0,2.0,1.57,1.57,100.0,8223.0,5.5,2.0,,6.75,1.078,88.0,,46.7,5.0,,,,,,,,,,,,0,0,0,0,0,0,0,0,0,0,0,0,0,0,0,0,,,,,,0.0,,,,,,,
261,5614644,1745474213679,,,,,,,,,,,,,,,,,,,,,,,,,,,,,,,,,,0,0,0,0,0,0,0,0,0,0,0,0,0,0,0,0,,,,,,,,,,,,,
262,5614664,1745474213699,0.0,127.0,,-0.54,-1.08,0.99,-64.0,0.0,2.0,1.56,1.57,99.0,8094.0,6.8,2.13,,7.07,1.094,88.0,,46.3,5.0,,,,,,,,,,,,0,0,0,0,0,0,0,0,0,0,0,0,0,0,0,0,,,,,,0.0,,,,,,,
263,5614684,1745474213717,,,,,,,,,,,,,,,,,,,,,,,22.0,25.0,22.0,25.0,0.0,27.0,0.0,0.0,2.27,,,0,0,0,0,0,0,0,0,0,0,0,0,0,0,0,0,,1.0,,,,,38.993954,-76.939438,37.31,26.9,32.0,3.0,0.8
264,5614704,1745474213737,0.0,128.0,,-0.51,-1.11,0.99,-65.0,0.0,2.0,1.58,1.58,100.0,8009.0,9.3,2.44,,7.51,1.102,88.0,,46.3,5.0,,,,,,,,,,,,0,0,0,0,0,0,0,0,0,0,0,0,0,0,0,0,,,,,,0.0,,,,,,,
265,5614724,1745474213757,,,,,,,,,,,,,,,,,,,,,,,,,,,,,,,,,,0,0,0,0,0,0,0,0,0,0,0,0,0,0,0,0,,,,,,,,,,,,,
266,5614744,1745474213777,0.0,127.0,,-0.53,-1.16,0.98,-64.0,0.0,1.0,1.61,1.61,100.0,7964.0,10.9,2.6,,7.94,1.104,88.0,,46.3,5.0,,,,,,,,,,,,0,0,0,0,0,0,0,0,0,0,0,0,0,0,0,0,,,,,,0.0,,,,,,,
267,5614764,1745474213797,,,,,,,,,,,,,,,,,,,,,,,,,,,,,,,,,,0,0,0,0,0,0,0,0,0,0,0,0,0,0,0,0,,,,,,,,,,,,,
268,5614784,1745474213819,0.0,128.0,,-0.53,-1.16,1.01,-64.0,0.0,1.0,1.63,1.63,100.0,7883.0,12.0,2.72,,7.94,1.104,88.0,,46.4,5.0,22.0,24.0,23.0,27.0,0.0,103.0,0.0,0.0,2.27,,,0,0,0,0,0,0,0,0,0,0,0,0,0,0,0,0,,0.0,,,,0.0,38.993946,-76.939446,36.98,26.9,32.0,3.0,0.8
269,5614804,1745474213839,,,,,,,,,,,,,,,,,,,,,,,,,,,,,,,,,,0,0,0,0,0,0,0,0,0,0,0,0,0,0,0,0,,,,,,,,,,,,,
270,5614824,1745474213859,0.0,127.0,,-0.52,-1.29,1.0,-65.0,0.0,1.0,1.71,1.71,100.0,7883.0,12.0,2.72,,8.37,1.068,86.2,,46.4,5.0,,,,,,,,,,,,0,0,0,0,0,0,0,0,0,0,0,0,0,0,0,0,,,,,,0.0,,,,,,,
271,5614844,1745474213879,,,,,,,,,,,,,,,,,,,,,,,,,,,,,,,,,,0,0,0,0,0,0,0,0,0,0,0,0,0,0,0,0,,,,,,,,,,,,,
272,5614864,1745474213899,0.0,127.0,,-0.54,-1.27,0.97,-65.0,1.0,1.0,1.68,1.71,98.0,7897.0,12.8,2.87,,8.67,1.058,86.2,,46.3,5.0,,,,,,,,,,,,0,0,0,0,0,0,0,0,0,0,0,0,0,0,0,0,,,,,,0.0,,,,,,,
273,5614884,1745474213919,,,,,,,,,,,,,,,,,,,,,,,21.0,26.0,23.0,24.0,0.0,69.0,0.0,0.0,2.27,,,0,0,0,0,0,0,0,0,0,0,0,0,0,0,0,0,,0.0,,,,,38.993938,-76.939453,36.17,26.9,32.0,3.0,0.8
274,5614904,1745474213939,0.0,127.0,,-0.55,-1.3,0.98,-65.0,1.0,1.0,1.71,1.71,100.0,7932.0,14.0,2.96,,8.94,1.057,86.2,,46.3,5.0,,,,,,,,,,,,0,0,0,0,0,0,0,0,0,0,0,0,0,0,0,0,,,,,,0.0,,,,,,,
275,5614924,1745474213959,,,,,,,,,,,,,,,,,,,,,,,,,,,,,,,,,,0,0,0,0,0,0,0,0,0,0,0,0,0,0,0,0,,,,,,,,,,,,,
276,5614944,1745474213979,0.0,128.0,,-0.52,-1.2,0.99,-66.0,2.0,1.0,1.64,1.71,96.0,8089.0,14.3,3.05,,9.1,1.049,86.2,,46.3,5.0,,,,,,,,,,,,0,0,0,0,0,0,0,0,0,0,0,0,0,0,0,0,,,,,,0.0,,,,,,,
277,5614964,1745474213999,,,,,,,,,,,,,,,,,,,,,,,,,,,,,,,,,,0,0,0,0,0,0,0,0,0,0,0,0,0,0,0,0,,,,,,,,,,,,,
278,5614984,1745474214011,0.0,128.0,,-0.48,-1.25,1.01,-66.0,2.0,1.0,1.67,1.71,98.0,8184.0,14.5,3.09,,9.1,1.049,86.2,,46.3,5.0,20.0,24.0,23.0,25.0,0.0,16.0,0.0,0.0,2.27,,,0,0,0,0,0,0,0,0,0,0,0,0,0,0,0,0,,1.0,,,,0.0,38.993935,-76.939461,34.92,26.9,28.0,3.0,0.9
279,5615004,1745474214031,,,,,,,,,,,,,,,,,,,,,,,,,,,,,,,,,,0,0,0,0,0,0,0,0,0,0,0,0,0,0,0,0,,,,,,,,,,,,,
280,5615024,1745474214051,0.0,128.0,,-0.46,-1.27,0.96,-65.0,1.0,1.0,1.66,1.71,97.0,8184.0,14.5,3.09,,9.27,1.037,86.2,,46.3,5.0,,,,,,,,,,,,0,0,0,0,0,0,0,0,0,0,0,0,0,0,0,0,,,,,,0.0,,,,,,,
281,5615044,1745474214071,,,,,,,,,,,,,,,,,,,,,,,,,,,,,,,,,,0,0,0,0,0,0,0,0,0,0,0,0,0,0,0,0,,,,,,,,,,,,,
282,5615064,1745474214091,0.0,127.0,,-0.44,-1.43,0.98,-65.0,0.0,2.0,1.79,1.79,100.0,8181.0,14.5,3.1,,9.35,1.029,86.2,,46.5,5.0,,,,,,,,,,,,0,0,0,0,0,0,0,0,0,0,0,0,0,0,0,0,,,,,,0.0,,,,,,,
283,5615084,1745474214117,,,,,,,,,,,,,,,,,,,,,,,21.0,25.0,27.0,23.0,0.0,93.0,0.0,0.0,2.27,,,0,0,0,0,0,0,0,0,0,0,0,0,0,0,0,0,,0.0,,,,,38.993931,-76.939476,35.36,26.9,28.0,3.0,0.9
284,5615104,1745474214137,0.0,128.0,,-0.43,-1.31,0.98,-66.0,1.0,1.0,1.69,1.79,94.0,8180.0,14.6,3.12,,9.48,1.018,86.2,,46.5,5.0,,,,,,,,,,,,0,0,0,0,0,0,0,0,0,0,0,0,0,0,0,0,,,,,,0.0,,,,,,,
285,5615124,1745474214157,,,,,,,,,,,,,,,,,,,,,,,,,,,,,,,,,,0,0,0,0,0,0,0,0,0,0,0,0,0,0,0,0,,,,,,,,,,,,,
286,5615144,1745474214177,0.0,128.0,,-0.39,-1.28,1.01,-67.0,1.0,1.0,1.67,1.79,93.0,8319.0,17.0,3.26,,9.62,1.016,86.2,,46.5,5.0,,,,,,,,,,,,0,0,0,0,0,0,0,0,0,0,0,0,0,0,0,0,,,,,,0.0,,,,,,,
287,5615164,1745474214197,,,,,,,,,,,,,,,,,,,,,,,,,,,,,,,,,,0,0,0,0,0,0,0,0,0,0,0,0,0,0,0,0,,,,,,,,,,,,,
288,5615184,1745474214219,0.0,127.0,,-0.35,-1.32,0.99,-69.0,1.0,1.0,1.69,1.79,94.0,8457.0,17.5,3.35,,9.62,1.016,86.2,,45.6,5.0,20.0,24.0,24.0,23.0,0.0,62.0,0.0,0.0,2.27,,,0,0,0,0,0,0,0,0,0,0,0,0,0,0,0,0,,0.0,,,,0.0,38.993927,-76.939491,35.56,26.9,28.0,3.0,0.9
289,5615204,1745474214239,,,,,,,,,,,,,,,,,,,,,,,,,,,,,,,,,,0,0,0,0,0,0,0,0,0,0,0,0,0,0,0,0,,,,,,,,,,,,,
290,5615224,1745474214259,0.0,128.0,,-0.33,-1.27,1.01,-68.0,0.0,1.0,1.66,1.79,93.0,8457.0,17.5,3.35,,9.78,1.015,86.2,,45.6,5.0,,,,,,,,,,,,0,0,0,0,0,0,0,0,0,0,0,0,0,0,0,0,,,,,,0.0,,,,,,,
291,5615244,1745474214279,,,,,,,,,,,,,,,,,,,,,,,,,,,,,,,,,,0,0,0,0,0,0,0,0,0,0,0,0,0,0,0,0,,,,,,,,,,,,,
292,5615264,1745474214299,0.0,128.0,,-0.34,-1.38,1.0,-69.0,-1.0,2.0,1.74,1.79,97.0,8367.0,17.3,3.4,,9.77,1.006,86.2,,45.7,5.0,,,,,,,,,,,,0,0,0,0,0,0,0,0,0,0,0,0,0,0,0,0,,,,,,0.0,,,,,,,
293,5615284,1745474214319,,,,,,,,,,,,,,,,,,,,,,,20.0,24.0,27.0,26.0,0.0,122.0,0.0,0.0,2.27,,,0,0,0,0,0,0,0,0,0,0,0,0,0,0,0,0,,0.0,,,,,38.993927,-76.939499,34.68,26.9,28.0,3.0,0.9
294,5615304,1745474214339,0.0,128.0,,-0.34,-1.36,0.98,-69.0,-1.0,1.0,1.72,1.79,96.0,8403.0,17.3,3.36,,9.85,0.993,86.2,,45.7,5.0,,,,,,,,,,,,0,0,0,0,0,0,0,0,0,0,0,0,0,0,0,0,,,,,,0.0,,,,,,,
295,5615324,1745474214359,,,,,,,,,,,,,,,,,,,,,,,,,,,,,,,,,,0,0,0,0,0,0,0,0,0,0,0,0,0,0,0,0,,,,,,,,,,,,,
296,5615344,1745474214379,0.0,128.0,,-0.29,-1.33,1.09,-71.0,0.0,0.0,1.74,1.74,100.0,8595.0,17.8,3.41,,9.81,0.988,86.2,,45.7,5.0,,,,,,,,,,,,0,0,0,0,0,0,0,0,0,0,0,0,0,0,0,0,,,,,,0.0,,,,,,,
297,5615364,1745474214399,,,,,,,,,,,,,,,,,,,,,,,,,,,,,,,,,,0,0,0,0,0,0,0,0,0,0,0,0,0,0,0,0,,,,,,,,,,,,,
298,5615384,1745474214417,0.0,128.0,13.23,-0.3,-1.44,1.04,-73.0,1.0,1.0,1.8,1.8,100.0,8744.0,17.7,3.34,15.0,9.81,0.988,86.2,169.0,46.0,5.0,20.0,26.0,26.0,26.0,0.0,107.0,0.0,0.0,2.27,0.0,1.0,0,0,0,0,0,0,0,0,0,0,0,0,0,0,0,0,0.0,1.0,1.0,0.0,0.0,0.0,38.993927,-76.939506,35.75,27.0,28.0,3.0,0.9
299,5615404,1745474214437,,,,,,,,,,,,,,,,,,,,,,,,,,,,,,,,,,0,0,0,0,0,0,0,0,0,0,0,0,0,0,0,0,,,,,,,,,,,,,
300,5615424,1745474214457,0.0,128.0,,-0.3,-1.29,1.01,-74.0,1.0,1.0,1.66,1.8,92.0,8744.0,17.7,3.34,,9.65,0.987,86.2,,46.0,5.0,,,,,,,,,,,,0,0,0,0,0,0,0,0,0,0,0,0,0,0,0,0,,,,,,0.0,,,,,,,
301,5615444,1745474214477,,,,,,,,,,,,,,,,,,,,,,,,,,,,,,,,,,0,0,0,0,0,0,0,0,0,0,0,0,0,0,0,0,,,,,,,,,,,,,
302,5615464,1745474214497,0.0,128.0,,-0.3,-1.34,1.04,-75.0,1.0,0.0,1.73,1.8,96.0,8710.0,17.3,3.27,,9.68,0.982,86.2,,45.4,5.0,,,,,,,,,,,,0,0,0,0,0,0,0,0,0,0,0,0,0,0,0,0,,,,,,0.0,,,,,,,
303,5615484,1745474214518,,,,,,,,,,,,,,,,,,,,,,,20.0,54.0,26.0,27.0,0.0,24.0,0.0,0.0,2.27,,,0,0,0,0,0,0,0,0,0,0,0,0,0,0,0,0,,1.0,,,,,38.993927,-76.939522,35.41,27.0,28.0,3.0,0.9
304,5615504,1745474214538,0.0,128.0,,-0.28,-1.37,1.05,-75.0,2.0,-1.0,1.75,1.8,97.0,8690.0,16.6,3.22,,9.52,0.988,86.2,,45.4,5.0,,,,,,,,,,,,0,0,0,0,0,0,0,0,0,0,0,0,0,0,0,0,,,,,,0.0,,,,,,,
305,5615524,1745474214558,,,,,,,,,,,,,,,,,,,,,,,,,,,,,,,,,,0,0,0,0,0,0,0,0,0,0,0,0,0,0,0,0,,,,,,,,,,,,,
306,5615544,1745474214578,0.0,128.0,,-0.21,-1.17,1.07,-74.0,2.0,0.0,1.6,1.8,89.0,8816.0,17.4,3.24,,9.53,0.989,86.2,,45.4,5.0,,,,,,,,,,,,0,0,0,0,0,0,0,0,0,0,0,0,0,0,0,0,,,,,,0.0,,,,,,,
307,5615564,1745474214598,,,,,,,,,,,,,,,,,,,,,,,,,,,,,,,,,,0,0,0,0,0,0,0,0,0,0,0,0,0,0,0,0,,,,,,,,,,,,,
308,5615584,1745474214618,0.0,129.0,,-0.14,-1.08,1.07,-70.0,2.0,0.0,1.53,1.8,85.0,8640.0,17.7,3.34,,9.53,0.989,86.2,,45.3,5.0,22.0,54.0,27.0,29.0,0.0,42.0,0.0,0.0,2.27,,,0,0,0,0,0,0,0,0,0,0,0,0,0,0,0,0,,1.0,,,,0.0,38.993927,-76.939537,36.45,27.0,28.0,3.0,0.9
309,5615604,1745474214638,,,,,,,,,,,,,,,,,,,,,,,,,,,,,,,,,,0,0,0,0,0,0,0,0,0,0,0,0,0,0,0,0,,,,,,,,,,,,,
310,5615624,1745474214658,0.0,129.0,,-0.13,-1.05,1.09,-66.0,1.0,1.0,1.52,1.8,84.0,8640.0,17.7,3.34,,9.66,0.994,86.2,,45.3,5.0,,,,,,,,,,,,0,0,0,0,0,0,0,0,0,0,0,0,0,0,0,0,,,,,,0.0,,,,,,,
311,5615644,1745474214678,,,,,,,,,,,,,,,,,,,,,,,,,,,,,,,,,,0,0,0,0,0,0,0,0,0,0,0,0,0,0,0,0,,,,,,,,,,,,,
312,5615664,1745474214698,0.0,128.0,,-0.11,-1.05,1.12,-62.0,1.0,1.0,1.54,1.8,85.0,8600.0,17.2,3.31,,9.65,0.998,86.2,,45.4,5.0,,,,,,,,,,,,0,0,0,0,0,0,0,0,0,0,0,0,0,0,0,0,,,,,,0.0,,,,,,,
313,5615684,1745474214720,,,,,,,,,,,,,,,,,,,,,,,23.0,54.0,27.0,25.0,0.0,239.0,0.0,0.0,2.27,,,0,0,0,0,0,0,0,0,0,0,0,0,0,0,0,0,,0.0,,,,,38.993931,-76.939537,38.03,27.0,28.0,3.0,0.9
314,5615704,1745474214740,0.0,129.0,,-0.07,-0.98,1.09,-58.0,0.0,0.0,1.47,1.8,81.0,8620.0,17.0,3.33,,9.72,0.989,86.2,,45.4,5.0,,,,,,,,,,,,0,0,0,0,0,0,0,0,0,0,0,0,0,0,0,0,,,,,,0.0,,,,,,,
315,5615724,1745474214760,,,,,,,,,,,,,,,,,,,,,,,,,,,,,,,,,,0,0,0,0,0,0,0,0,0,0,0,0,0,0,0,0,,,,,,,,,,,,,
316,5615744,1745474214780,0.0,129.0,,-0.06,-1.08,1.04,-55.0,0.0,0.0,1.5,1.8,83.0,8482.0,17.3,3.34,,9.86,0.983,86.2,,45.4,5.0,,,,,,,,,,,,0,0,0,0,0,0,0,0,0,0,0,0,0,0,0,0,,,,,,0.0,,,,,,,
317,5615764,1745474214800,,,,,,,,,,,,,,,,,,,,,,,,,,,,,,,,,,0,0,0,0,0,0,0,0,0,0,0,0,0,0,0,0,,,,,,,,,,,,,
318,5615784,1745474214818,0.0,129.0,,-0.08,-1.09,1.02,-52.0,0.0,0.0,1.5,1.8,83.0,8367.0,18.0,3.44,,9.86,0.983,86.2,,45.1,5.0,24.0,26.0,26.0,26.0,0.0,123.0,0.0,0.0,2.27,,,0,0,0,0,0,0,0,0,0,0,0,0,0,0,0,0,,1.0,,,,0.0,38.993935,-76.939552,38.86,27.1,28.0,3.0,0.9
319,5615804,1745474214838,,,,,,,,,,,,,,,,,,,,,,,,,,,,,,,,,,0,0,0,0,0,0,0,0,0,0,0,0,0,0,0,0,,,,,,,,,,,,,
320,5615824,1745474214858,0.0,128.0,,-0.09,-1.13,1.01,-49.0,1.0,1.0,1.52,1.8,84.0,8367.0,18.0,3.44,,9.88,0.987,86.2,,45.1,5.0,,,,,,,,,,,,0,0,0,0,0,0,0,0,0,0,0,0,0,0,0,0,,,,,,0.0,,,,,,,
321,5615844,1745474214878,,,,,,,,,,,,,,,,,,,,,,,,,,,,,,,,,,0,0,0,0,0,0,0,0,0,0,0,0,0,0,0,0,,,,,,,,,,,,,
322,5615864,1745474214898,0.0,128.0,,-0.12,-1.02,1.04,-48.0,2.0,0.0,1.46,1.8,81.0,8558.0,18.0,3.45,,9.89,0.983,86.2,,45.8,5.0,,,,,,,,,,,,0,0,0,0,0,0,0,0,0,0,0,0,0,0,0,0,,,,,,0.0,,,,,,,
323,5615884,1745474214918,,,,,,,,,,,,,,,,,,,,,,,24.0,28.0,25.0,27.0,0.0,31.0,0.0,0.0,2.27,,,0,0,0,0,0,0,0,0,0,0,0,0,0,0,0,0,,1.0,,,,,38.993935,-76.939568,39.02,27.1,28.0,3.0,0.9
324,5615904,1745474214938,0.0,128.0,,-0.14,-0.81,1.09,-48.0,2.0,1.0,1.37,1.8,76.0,8783.0,17.7,3.38,,9.82,0.972,86.2,,45.8,5.0,,,,,,,,,,,,0,0,0,0,0,0,0,0,0,0,0,0,0,0,0,0,,,,,,0.0,,,,,,,
325,5615924,1745474214958,,,,,,,,,,,,,,,,,,,,,,,,,,,,,,,,,,0,0,0,0,0,0,0,0,0,0,0,0,0,0,0,0,,,,,,,,,,,,,
326,5615944,1745474214978,0.0,128.0,,-0.12,-0.95,1.07,-47.0,2.0,1.0,1.43,1.8,79.0,8813.0,17.5,3.28,,9.56,0.967,86.2,,45.8,5.0,,,,,,,,,,,,0,0,0,0,0,0,0,0,0,0,0,0,0,0,0,0,,,,,,0.0,,,,,,,
327,5615964,1745474214998,,,,,,,,,,,,,,,,,,,,,,,,,,,,,,,,,,0,0,0,0,0,0,0,0,0,0,0,0,0,0,0,0,,,,,,,,,,,,,
328,5615984,1745474215008,0.0,128.0,,-0.12,-1.15,1.0,-47.0,1.0,1.0,1.53,1.8,85.0,8820.0,17.2,3.22,,9.56,0.967,86.2,,43.6,5.0,25.0,25.0,29.0,28.0,0.0,123.0,0.0,0.0,2.27,,,0,0,0,0,0,0,0,0,0,0,0,0,0,0,0,0,,1.0,,,,0.0,38.993942,-76.939575,39.84,27.1,26.0,3.0,1.0
329,5616004,1745474215028,,,,,,,,,,,,,,,,,,,,,,,,,,,,,,,,,,0,0,0,0,0,0,0,0,0,0,0,0,0,0,0,0,,,,,,,,,,,,,
330,5616024,1745474215048,0.0,128.0,,-0.11,-1.2,0.96,-48.0,1.0,1.0,1.54,1.8,85.0,8820.0,17.2,3.22,,9.5,0.974,86.2,,43.6,5.0,,,,,,,,,,,,0,0,0,0,0,0,0,0,0,0,0,0,0,0,0,0,,,,,,0.0,,,,,,,
331,5616044,1745474215068,,,,,,,,,,,,,,,,,,,,,,,,,,,,,,,,,,0,0,0,0,0,0,0,0,0,0,0,0,0,0,0,0,,,,,,,,,,,,,
332,5616064,1745474215088,0.0,128.0,,-0.13,-1.3,0.99,-48.0,0.0,1.0,1.64,1.8,91.0,9153.0,16.5,3.11,,9.29,0.985,86.2,,44.9,5.0,,,,,,,,,,,,0,0,0,0,0,0,0,0,0,0,0,0,0,0,0,0,,,,,,0.0,,,,,,,
333,5616084,1745474215118,,,,,,,,,,,,,,,,,,,,,,,24.0,27.0,28.0,28.0,0.0,206.0,0.0,0.0,2.27,,,0,0,0,0,0,0,0,0,0,0,0,0,0,0,0,0,,1.0,,,,,38.99395,-76.939583,40.51,27.1,26.0,3.0,1.0
334,5616104,1745474215138,0.0,128.0,,-0.15,-1.27,0.99,-51.0,0.0,1.0,1.61,1.8,89.0,9332.0,15.5,3.03,,8.97,0.989,86.2,,44.9,5.0,,,,,,,,,,,,0,0,0,0,0,0,0,0,0,0,0,0,0,0,0,0,,,,,,0.0,,,,,,,
335,5616124,1745474215158,,,,,,,,,,,,,,,,,,,,,,,,,,,,,,,,,,0,0,0,0,0,0,0,0,0,0,0,0,0,0,0,0,,,,,,,,,,,,,
336,5616144,1745474215178,0.0,127.0,,-0.15,-1.28,0.98,-52.0,0.0,1.0,1.62,1.8,90.0,9326.0,11.2,2.73,,8.58,1.01,86.2,,44.9,5.0,,,,,,,,,,,,0,0,0,0,0,0,0,0,0,0,0,0,0,0,0,0,,,,,,0.0,,,,,,,
337,5616164,1745474215198,,,,,,,,,,,,,,,,,,,,,,,,,,,,,,,,,,0,0,0,0,0,0,0,0,0,0,0,0,0,0,0,0,,,,,,,,,,,,,
338,5616184,1745474215216,0.0,128.0,,-0.14,-1.26,1.0,-54.0,0.0,1.0,1.61,1.8,89.0,9276.0,9.9,2.47,,8.58,1.01,86.2,,44.1,5.0,25.0,28.0,28.0,29.0,0.0,242.0,0.0,0.0,2.25,,,0,0,0,0,0,0,0,0,0,0,0,0,0,0,0,0,,1.0,,,,0.0,38.993958,-76.939598,40.32,27.2,28.0,3.0,1.0
339,5616204,1745474215236,,,,,,,,,,,,,,,,,,,,,,,,,,,,,,,,,,0,0,0,0,0,0,0,0,0,0,0,0,0,0,0,0,,,,,,,,,,,,,
340,5616224,1745474215256,0.0,129.0,,-0.14,-1.09,0.98,-56.0,0.0,1.0,1.48,1.8,82.0,9276.0,9.9,2.47,,8.21,1.013,86.2,,44.1,5.0,,,,,,,,,,,,0,0,0,0,0,0,0,0,0,0,0,0,0,0,0,0,,,,,,0.0,,,,,,,
341,5616244,1745474215276,,,,,,,,,,,,,,,,,,,,,,,,,,,,,,,,,,0,0,0,0,0,0,0,0,0,0,0,0,0,0,0,0,,,,,,,,,,,,,
342,5616264,1745474215296,0.0,127.0,,-0.17,-1.19,0.97,-57.0,0.0,1.0,1.55,1.8,86.0,9232.0,9.4,2.41,,7.89,1.008,86.2,,43.6,5.0,,,,,,,,,,,,0,0,0,0,0,0,0,0,0,0,0,0,0,0,0,0,,,,,,0.0,,,,,,,
343,5616284,1745474215320,,,,,,,,,,,,,,,,,,,,,,,22.0,27.0,29.0,28.0,0.0,22.0,0.0,0.0,2.26,,,0,0,0,0,0,0,0,0,0,0,0,0,0,0,0,0,,0.0,,,,,38.993961,-76.939606,40.02,27.2,28.0,3.0,1.0
344,5616304,1745474215340,0.0,128.0,,-0.22,-1.4,1.0,-59.0,0.0,0.0,1.73,1.73,100.0,9206.0,9.2,2.33,,7.62,1.016,86.2,,43.6,5.0,,,,,,,,,,,,0,0,0,0,0,0,0,0,0,0,0,0,0,0,0,0,,,,,,0.0,,,,,,,
345,5616324,1745474215360,,,,,,,,,,,,,,,,,,,,,,,,,,,,,,,,,,0,0,0,0,0,0,0,0,0,0,0,0,0,0,0,0,,,,,,,,,,,,,
346,5616344,1745474215380,0.0,128.0,,-0.26,-1.34,0.98,-62.0,1.0,1.0,1.68,1.73,97.0,9166.0,9.1,2.31,,7.38,1.021,86.2,,43.6,5.0,,,,,,,,,,,,0,0,0,0,0,0,0,0,0,0,0,0,0,0,0,0,,,,,,0.0,,,,,,,
347,5616364,1745474215400,,,,,,,,,,,,,,,,,,,,,,,,,,,,,,,,,,0,0,0,0,0,0,0,0,0,0,0,0,0,0,0,0,,,,,,,,,,,,,
348,5616384,1745474215420,0.0,128.0,13.25,-0.31,-1.07,1.0,-65.0,1.0,1.0,1.49,1.73,86.0,9047.0,9.3,2.31,15.0,7.38,1.021,86.2,169.0,42.6,5.0,22.0,26.0,27.0,28.0,0.0,17.0,0.0,0.0,2.27,0.0,1.0,0,0,0,0,0,0,0,0,0,0,0,0,0,0,0,0,0.0,1.0,1.0,0.0,0.0,0.0,38.993969,-76.939613,39.77,27.2,28.0,3.0,1.0
349,5616404,1745474215440,,,,,,,,,,,,,,,,,,,,,,,,,,,,,,,,,,0,0,0,0,0,0,0,0,0,0,0,0,0,0,0,0,,,,,,,,,,,,,
350,5616424,1745474215460,0.0,128.0,,-0.35,-0.83,0.97,-66.0,1.0,1.0,1.32,1.73,76.0,9047.0,9.3,2.31,,7.43,1.026,86.2,,42.6,5.0,,,,,,,,,,,,0,0,0,0,0,0,0,0,0,0,0,0,0,0,0,0,,,,,,0.0,,,,,,,
351,5616444,1745474215480,,,,,,,,,,,,,,,,,,,,,,,,,,,,,,,,,,0,0,0,0,0,0,0,0,0,0,0,0,0,0,0,0,,,,,,,,,,,,,
352,5616464,1745474215500,0.0,128.0,,-0.35,-0.65,1.0,-68.0,1.0,1.0,1.24,1.73,72.0,8930.0,9.0,2.32,,7.39,1.04,86.2,,42.4,5.0,,,,,,,,,,,,0,0,0,0,0,0,0,0,0,0,0,0,0,0,0,0,,,,,,0.0,,,,,,,
353,5616484,1745474215518,,,,,,,,,,,,,,,,,,,,,,,22.0,25.0,28.0,27.0,0.0,23.0,0.0,0.0,2.27,,,0,0,0,0,0,0,0,0,0,0,0,0,0,0,0,0,,0.0,,,,,38.993977,-76.939621,37.87,27.3,28.0,3.0,1.0
354,5616504,1745474215538,0.0,128.0,,-0.38,-0.54,1.03,-69.0,1.0,1.0,1.22,1.73,70.0,8923.0,8.9,2.3,,7.39,1.044,86.2,,42.4,5.0,,,,,,,,,,,,0,0,0,0,0,0,0,0,0,0,0,0,0,0,0,0,,,,,,0.0,,,,,,,
355,5616524,1745474215558,,,,,,,,,,,,,,,,,,,,,,,,,,,,,,,,,,0,0,0,0,0,0,0,0,0,0,0,0,0,0,0,0,,,,,,,,,,,,,
356,5616544,1745474215578,0.0,128.0,,-0.39,-0.65,1.07,-71.0,1.0,1.0,1.31,1.73,76.0,8872.0,9.4,2.34,,7.38,1.036,86.2,,42.4,5.0,,,,,,,,,,,,0,0,0,0,0,0,0,0,0,0,0,0,0,0,0,0,,,,,,0.0,,,,,,,
357,5616564,1745474215598,,,,,,,,,,,,,,,,,,,,,,,,,,,,,,,,,,0,0,0,0,0,0,0,0,0,0,0,0,0,0,0,0,,,,,,,,,,,,,
358,5616584,1745474215619,0.0,128.0,,-0.4,-0.89,1.07,-71.0,0.0,1.0,1.45,1.73,83.0,8778.0,9.3,2.31,,7.38,1.036,86.2,,42.1,5.0,20.0,25.0,26.0,26.0,0.0,82.0,0.0,0.0,2.27,,,0,0,0,0,0,0,0,0,0,0,0,0,0,0,0,0,,1.0,,,,0.0,38.993984,-76.939629,37.55,27.3,28.0,3.0,1.0
359,5616604,1745474215639,,,,,,,,,,,,,,,,,,,,,,,,,,,,,,,,,,0,0,0,0,0,0,0,0,0,0,0,0,0,0,0,0,,,,,,,,,,,,,
360,5616624,1745474215659,0.0,128.0,,-0.42,-0.93,1.05,-71.0,0.0,1.0,1.47,1.73,85.0,8778.0,9.3,2.31,,7.39,1.029,86.2,,42.1,5.0,,,,,,,,,,,,0,0,0,0,0,0,0,0,0,0,0,0,0,0,0,0,,,,,,0.0,,,,,,,
361,5616644,1745474215679,,,,,,,,,,,,,,,,,,,,,,,,,,,,,,,,,,0,0,0,0,0,0,0,0,0,0,0,0,0,0,0,0,,,,,,,,,,,,,
362,5616664,1745474215699,0.0,128.0,,-0.4,-1.0,1.02,-72.0,0.0,1.0,1.48,1.73,85.0,8657.0,9.0,2.38,,7.47,1.032,86.2,,41.5,5.0,,,,,,,,,,,,0,0,0,0,0,0,0,0,0,0,0,0,0,0,0,0,,,,,,0.0,,,,,,,
363,5616684,1745474215719,,,,,,,,,,,,,,,,,,,,,,,20.0,25.0,27.0,27.0,0.0,32.0,0.0,0.0,2.27,,,0,0,0,0,0,0,0,0,0,0,0,0,0,0,0,0,,1.0,,,,,38.993996,-76.939629,37.85,27.3,28.0,3.0,1.0
364,5616704,1745474215739,0.0,128.0,,-0.42,-1.07,0.99,-73.0,1.0,1.0,1.52,1.73,87.0,8586.0,9.4,2.41,,7.54,1.032,86.2,,41.5,5.0,,,,,,,,,,,,0,0,0,0,0,0,0,0,0,0,0,0,0,0,0,0,,,,,,0.0,,,,,,,
365,5616724,1745474215759,,,,,,,,,,,,,,,,,,,,,,,,,,,,,,,,,,0,0,0,0,0,0,0,0,0,0,0,0,0,0,0,0,,,,,,,,,,,,,
366,5616744,1745474215779,0.0,128.0,,-0.41,-1.11,0.98,-74.0,1.0,1.0,1.54,1.73,89.0,8505.0,9.6,2.46,,7.59,1.033,86.2,,41.5,5.0,,,,,,,,,,,,0,0,0,0,0,0,0,0,0,0,0,0,0,0,0,0,,,,,,0.0,,,,,,,
367,5616764,1745474215799,,,,,,,,,,,,,,,,,,,,,,,,,,,,,,,,,,0,0,0,0,0,0,0,0,0,0,0,0,0,0,0,0,,,,,,,,,,,,,
368,5616784,1745474215819,0.0,128.0,,-0.39,-1.19,1.0,-75.0,1.0,1.0,1.6,1.73,93.0,8436.0,10.1,2.54,,7.59,1.033,86.2,,41.4,5.0,20.0,26.0,24.0,25.0,0.0,129.0,0.0,0.0,2.27,,,0,0,0,0,0,0,0,0,0,0,0,0,0,0,0,0,,0.0,,,,0.0,38.994003,-76.939636,35.99,27.3,28.0,3.0,1.0
369,5616804,1745474215839,,,,,,,,,,,,,,,,,,,,,,,,,,,,,,,,,,0,0,0,0,0,0,0,0,0,0,0,0,0,0,0,0,,,,,,,,,,,,,
370,5616824,1745474215859,0.0,128.0,,-0.39,-1.23,0.97,-76.0,1.0,1.0,1.62,1.73,93.0,8436.0,10.1,2.54,,7.82,1.04,86.2,,41.4,5.0,,,,,,,,,,,,0,0,0,0,0,0,0,0,0,0,0,0,0,0,0,0,,,,,,0.0,,,,,,,
371,5616844,1745474215879,,,,,,,,,,,,,,,,,,,,,,,,,,,,,,,,,,0,0,0,0,0,0,0,0,0,0,0,0,0,0,0,0,,,,,,,,,,,,,
372,5616864,1745474215899,0.0,128.0,,-0.39,-1.22,0.98,-76.0,1.0,1.0,1.61,1.73,93.0,8339.0,10.7,2.58,,8.02,1.033,86.2,,41.9,5.0,,,,,,,,,,,,0,0,0,0,0,0,0,0,0,0,0,0,0,0,0,0,,,,,,0.0,,,,,,,
373,5616884,1745474215919,,,,,,,,,,,,,,,,,,,,,,,19.0,22.0,25.0,25.0,0.0,104.0,0.0,0.0,2.26,,,0,0,0,0,0,0,0,0,0,0,0,0,0,0,0,0,,1.0,,,,,38.994011,-76.939636,35.39,27.3,28.0,3.0,1.0
