,Interval,Utc,FrontBP,SteerAng,Battery,AccelX,AccelY,AccelZ,Yaw,Pitch,Roll,Gsum,GsumMax,GsumPct,RPM,TPS,InjectorPW,Baro,MAP,Lambda,IAT,EngineTemp,EOP,EOT,WSFR,WSFL,WSRR,WSRL,TCSet,TCSlip,TCComp,TCCut,Analog8,OilTemp,AA_On,ThermLF1,ThermLF2,ThermRR1,ThermRR2,ThermLF3,ThermLF4,ThermLF5,ThermLF6,ThermLF7,ThermLF8,ThermRR3,ThermRR4,ThermRR5,ThermRR6,ThermRR7,ThermRR8,AA_LowDrag,Gear,AA_On1,AA_LowDrag1,Fuel_Mix,AA_Packages,Latitude,Longitude,Speed,Altitude,GPSSats,GPSQual,GPSDOP
0,5859104,1745474458127,0.0,133.0,,-0.07,-0.13,1.01,0.0,0.0,0.0,1.02,1.02,100.0,5259.0,52.0,6.04,,14.16,1.158,93.4,,38.2,5.0,,,,,,,,,,,,0.0,0.0,0.0,0.0,0.0,0.0,0.0,0.0,0.0,0.0,0.0,0.0,0.0,0.0,0.0,0.0,,,,,,0.0,,,,,,,
1,5859124,1745474458147,,,,,,,,,,,,,,,,,,,,,,,,,,,,,,,,,,0.0,0.0,0.0,0.0,0.0,0.0,0.0,0.0,0.0,0.0,0.0,0.0,0.0,0.0,0.0,0.0,,,,,,,,,,,,,
2,5859144,1745474458167,0.0,132.0,,-0.05,-0.09,0.96,-1.0,0.0,0.0,0.96,1.02,95.0,5491.0,53.9,5.96,,14.27,1.135,93.4,,40.3,5.0,,,,,,,,,,,,0.0,0.0,0.0,0.0,0.0,0.0,0.0,0.0,0.0,0.0,0.0,0.0,0.0,0.0,0.0,0.0,,,,,,0.0,,,,,,,
3,5859164,1745474458187,,,,,,,,,,,,,,,,,,,,,,,,,,,,,,,,,,0.0,0.0,0.0,0.0,0.0,0.0,0.0,0.0,0.0,0.0,0.0,0.0,0.0,0.0,0.0,0.0,,,,,,,,,,,,,
4,5859184,1745474458209,0.0,133.0,,-0.05,-0.17,0.89,-1.0,0.0,0.0,0.91,1.02,89.0,6123.0,0.7,4.22,,12.45,1.111,93.4,,40.3,5.0,0.0,0.0,0.0,0.0,3.9,0.0,0.0,0.0,2.26,,,0.0,0.0,0.0,0.0,0.0,0.0,0.0,0.0,0.0,0.0,0.0,0.0,0.0,0.0,0.0,0.0,,0.0,,,,0.0,38.994099,-76.939652,0.0,26.9,31.0,3.0,0.8
5,5859204,1745474458229,,,,,,,,,,,,,,,,,,,,,,,,,,,,,,,,,,0.0,0.0,0.0,0.0,0.0,0.0,0.0,0.0,0.0,0.0,0.0,0.0,0.0,0.0,0.0,0.0,,,,,,,,,,,,,
6,5859224,1745474458249,0.0,133.0,,-0.09,-0.1,0.91,0.0,0.0,0.0,0.92,1.02,90.0,6495.0,0.0,1.4,,10.86,1.024,93.4,,40.3,5.0,,,,,,,,,,,,0.0,0.0,0.0,0.0,0.0,0.0,0.0,0.0,0.0,0.0,0.0,0.0,0.0,0.0,0.0,0.0,,,,,,0.0,,,,,,,
7,5859244,1745474458269,,,,,,,,,,,,,,,,,,,,,,,,,,,,,,,,,,0.0,0.0,0.0,0.0,0.0,0.0,0.0,0.0,0.0,0.0,0.0,0.0,0.0,0.0,0.0,0.0,,,,,,,,,,,,,
8,5859264,1745474458289,0.0,132.0,,-0.09,-0.15,0.88,-1.0,0.0,0.0,0.9,1.02,88.0,6495.0,0.0,1.4,,10.86,1.024,93.4,,42.9,5.0,,,,,,,,,,,,0.0,0.0,0.0,0.0,0.0,0.0,0.0,0.0,0.0,0.0,0.0,0.0,0.0,0.0,0.0,0.0,,,,,,0.0,,,,,,,
9,5859284,1745474458307,,,,,,,,,,,,,,,,,,,,,,,0.0,0.0,0.0,0.0,3.9,0.0,0.0,0.0,2.27,,,0.0,0.0,0.0,0.0,0.0,0.0,0.0,0.0,0.0,0.0,0.0,0.0,0.0,0.0,0.0,0.0,,0.0,,,,,38.994099,-76.939652,0.04,27.0,31.0,3.0,0.8
10,5859304,1745474458327,0.0,132.0,,-0.07,-0.3,0.82,-2.0,0.0,0.0,0.87,1.02,86.0,6109.0,0.0,1.4,,9.84,0.997,93.4,,42.9,5.0,,,,,,,,,,,,0.0,0.0,0.0,0.0,0.0,0.0,0.0,0.0,0.0,0.0,0.0,0.0,0.0,0.0,0.0,0.0,,,,,,0.0,,,,,,,
11,5859324,1745474458347,,,,,,,,,,,,,,,,,,,,,,,,,,,,,,,,,,0.0,0.0,0.0,0.0,0.0,0.0,0.0,0.0,0.0,0.0,0.0,0.0,0.0,0.0,0.0,0.0,,,,,,,,,,,,,
12,5859344,1745474458367,0.0,132.0,,-0.09,-0.27,0.89,-2.0,0.0,0.0,0.93,1.02,92.0,5784.0,0.0,1.4,,9.49,1.059,93.4,,41.5,5.0,,,,,,,,,,,,0.0,0.0,0.0,0.0,0.0,0.0,0.0,0.0,0.0,0.0,0.0,0.0,0.0,0.0,0.0,0.0,,,,,,0.0,,,,,,,
13,5859364,1745474458391,,,,,,,,,,,,,,,,,,,,,,,,,,,,,,,,,,0.0,0.0,0.0,0.0,0.0,0.0,0.0,0.0,0.0,0.0,0.0,0.0,0.0,0.0,0.0,0.0,,,,,,,,,,,,,
14,5859384,1745474458411,0.0,133.0,13.06,-0.08,-0.3,0.91,-2.0,0.0,0.0,0.96,1.02,94.0,5354.0,21.4,3.28,15.0,11.05,1.247,93.4,174.0,41.5,5.0,0.0,0.0,0.0,0.0,3.9,0.0,0.0,0.0,2.27,0.0,1.0,0.0,0.0,0.0,0.0,0.0,0.0,0.0,0.0,0.0,0.0,0.0,0.0,0.0,0.0,0.0,0.0,0.0,0.0,1.0,0.0,0.0,0.0,38.994099,-76.939652,0.04,27.0,31.0,3.0,0.8
15,5859404,1745474458431,,,,,,,,,,,,,,,,,,,,,,,,,,,,,,,,,,0.0,0.0,0.0,0.0,0.0,0.0,0.0,0.0,0.0,0.0,0.0,0.0,0.0,0.0,0.0,0.0,,,,,,,,,,,,,
16,5859424,1745474458451,0.0,133.0,,-0.08,-0.29,0.93,-1.0,0.0,0.0,0.97,1.02,96.0,5081.0,31.7,5.46,,13.19,1.25,93.4,,41.5,5.0,,,,,,,,,,,,0.0,0.0,0.0,0.0,0.0,0.0,0.0,0.0,0.0,0.0,0.0,0.0,0.0,0.0,0.0,0.0,,,,,,0.0,,,,,,,
17,5859444,1745474458471,,,,,,,,,,,,,,,,,,,,,,,,,,,,,,,,,,0.0,0.0,0.0,0.0,0.0,0.0,0.0,0.0,0.0,0.0,0.0,0.0,0.0,0.0,0.0,0.0,,,,,,,,,,,,,
18,5859464,1745474458491,0.0,133.0,,-0.08,-0.38,0.85,-2.0,0.0,-1.0,0.93,1.02,91.0,5813.0,9.1,4.3,,13.19,1.25,93.4,,38.2,5.0,,,,,,,,,,,,0.0,0.0,0.0,0.0,0.0,0.0,0.0,0.0,0.0,0.0,0.0,0.0,0.0,0.0,0.0,0.0,,,,,,0.0,,,,,,,
19,5859484,1745474458509,,,,,,,,,,,,,,,,,,,,,,,0.0,0.0,0.0,0.0,3.9,0.0,0.0,0.0,2.26,,,0.0,0.0,0.0,0.0,0.0,0.0,0.0,0.0,0.0,0.0,0.0,0.0,0.0,0.0,0.0,0.0,,0.0,,,,,38.994099,-76.939652,0.0,27.0,31.0,3.0,0.8
20,5859504,1745474458529,0.0,133.0,,-0.12,-0.43,0.83,-4.0,0.0,-1.0,0.95,1.02,93.0,5813.0,9.1,4.3,,12.6,1.251,93.4,,38.2,5.0,,,,,,,,,,,,0.0,0.0,0.0,0.0,0.0,0.0,0.0,0.0,0.0,0.0,0.0,0.0,0.0,0.0,0.0,0.0,,,,,,0.0,,,,,,,
21,5859524,1745474458549,,,,,,,,,,,,,,,,,,,,,,,,,,,,,,,,,,0.0,0.0,0.0,0.0,0.0,0.0,0.0,0.0,0.0,0.0,0.0,0.0,0.0,0.0,0.0,0.0,,,,,,,,,,,,,
22,5859544,1745474458569,0.0,132.0,,-0.15,-0.41,0.85,-5.0,0.0,-1.0,0.96,1.02,94.0,5988.0,0.0,1.5,,11.1,1.25,93.4,,42.2,5.0,,,,,,,,,,,,0.0,0.0,0.0,0.0,0.0,0.0,0.0,0.0,0.0,0.0,0.0,0.0,0.0,0.0,0.0,0.0,,,,,,0.0,,,,,,,
23,5859564,1745474458589,,,,,,,,,,,,,,,,,,,,,,,,,,,,,,,,,,0.0,0.0,0.0,0.0,0.0,0.0,0.0,0.0,0.0,0.0,0.0,0.0,0.0,0.0,0.0,0.0,,,,,,,,,,,,,
24,5859584,1745474458609,0.0,133.0,,-0.15,-0.27,0.97,-3.0,0.0,0.0,1.02,1.02,100.0,5774.0,0.0,1.4,,10.29,1.039,93.4,,42.2,5.0,0.0,0.0,0.0,0.0,3.9,0.0,0.0,0.0,2.26,,,0.0,0.0,0.0,0.0,0.0,0.0,0.0,0.0,0.0,0.0,0.0,0.0,0.0,0.0,0.0,0.0,,0.0,,,,0.0,38.994099,-76.939652,0.0,27.0,31.0,3.0,0.8
25,5859604,1745474458629,,,,,,,,,,,,,,,,,,,,,,,,,,,,,,,,,,0.0,0.0,0.0,0.0,0.0,0.0,0.0,0.0,0.0,0.0,0.0,0.0,0.0,0.0,0.0,0.0,,,,,,,,,,,,,
26,5859624,1745474458649,0.0,133.0,,-0.16,-0.27,0.96,-2.0,0.0,0.0,1.01,1.02,99.0,5453.0,20.5,3.4,,11.16,1.021,93.4,,42.2,5.0,,,,,,,,,,,,0.0,0.0,0.0,0.0,0.0,0.0,0.0,0.0,0.0,0.0,0.0,0.0,0.0,0.0,0.0,0.0,,,,,,0.0,,,,,,,
27,5859644,1745474458669,,,,,,,,,,,,,,,,,,,,,,,,,,,,,,,,,,0.0,0.0,0.0,0.0,0.0,0.0,0.0,0.0,0.0,0.0,0.0,0.0,0.0,0.0,0.0,0.0,,,,,,,,,,,,,
28,5859664,1745474458689,0.0,132.0,,-0.14,-0.22,0.98,-2.0,0.0,0.0,1.02,1.02,100.0,5081.0,55.2,5.92,,11.16,1.021,93.4,,38.7,5.0,,,,,,,,,,,,0.0,0.0,0.0,0.0,0.0,0.0,0.0,0.0,0.0,0.0,0.0,0.0,0.0,0.0,0.0,0.0,,,,,,0.0,,,,,,,
29,5859684,1745474458709,,,,,,,,,,,,,,,,,,,,,,,0.0,0.0,0.0,0.0,3.9,0.0,0.0,0.0,2.26,,,0.0,0.0,0.0,0.0,0.0,0.0,0.0,0.0,0.0,0.0,0.0,0.0,0.0,0.0,0.0,0.0,,0.0,,,,,38.994099,-76.939652,0.08,27.0,31.0,3.0,0.8
30,5859704,1745474458729,0.0,133.0,,-0.14,-0.24,0.96,-2.0,0.0,0.0,1.0,1.02,98.0,5081.0,55.2,5.92,,14.1,1.131,93.4,,38.7,5.0,,,,,,,,,,,,0.0,0.0,0.0,0.0,0.0,0.0,0.0,0.0,0.0,0.0,0.0,0.0,0.0,0.0,0.0,0.0,,,,,,0.0,,,,,,,
31,5859724,1745474458749,,,,,,,,,,,,,,,,,,,,,,,,,,,,,,,,,,0.0,0.0,0.0,0.0,0.0,0.0,0.0,0.0,0.0,0.0,0.0,0.0,0.0,0.0,0.0,0.0,,,,,,,,,,,,,
32,5859744,1745474458769,0.0,133.0,,-0.12,-0.15,0.98,-1.0,0.0,0.0,1.0,1.02,98.0,5435.0,61.1,5.61,,14.32,1.248,93.4,,40.4,5.0,,,,,,,,,,,,0.0,0.0,0.0,0.0,0.0,0.0,0.0,0.0,0.0,0.0,0.0,0.0,0.0,0.0,0.0,0.0,,,,,,0.0,,,,,,,
33,5859764,1745474458789,,,,,,,,,,,,,,,,,,,,,,,,,,,,,,,,,,0.0,0.0,0.0,0.0,0.0,0.0,0.0,0.0,0.0,0.0,0.0,0.0,0.0,0.0,0.0,0.0,,,,,,,,,,,,,
34,5859784,1745474458808,0.0,133.0,,-0.09,-0.24,0.98,-2.0,0.0,0.0,1.01,1.02,100.0,6046.0,8.0,4.29,,12.77,1.248,93.4,,40.4,5.0,0.0,0.0,0.0,0.0,3.9,0.0,0.0,0.0,2.27,,,0.0,0.0,0.0,0.0,0.0,0.0,0.0,0.0,0.0,0.0,0.0,0.0,0.0,0.0,0.0,0.0,,0.0,,,,0.0,38.994099,-76.939652,0.04,27.0,31.0,3.0,0.8
35,5859804,1745474458828,,,,,,,,,,,,,,,,,,,,,,,,,,,,,,,,,,0.0,0.0,0.0,0.0,0.0,0.0,0.0,0.0,0.0,0.0,0.0,0.0,0.0,0.0,0.0,0.0,,,,,,,,,,,,,
36,5859824,1745474458848,0.0,133.0,,-0.13,-0.15,0.99,-1.0,0.0,0.0,1.01,1.02,99.0,6388.0,0.0,1.4,,11.1,1.25,93.4,,40.4,5.0,,,,,,,,,,,,0.0,0.0,0.0,0.0,0.0,0.0,0.0,0.0,0.0,0.0,0.0,0.0,0.0,0.0,0.0,0.0,,,,,,0.0,,,,,,,
37,5859844,1745474458868,,,,,,,,,,,,,,,,,,,,,,,,,,,,,,,,,,0.0,0.0,0.0,0.0,0.0,0.0,0.0,0.0,0.0,0.0,0.0,0.0,0.0,0.0,0.0,0.0,,,,,,,,,,,,,
38,5859864,1745474458888,0.0,132.0,,-0.12,-0.16,0.88,-2.0,0.0,0.0,0.9,1.02,88.0,6100.0,0.0,1.4,,11.1,1.25,93.4,,42.9,5.0,,,,,,,,,,,,0.0,0.0,0.0,0.0,0.0,0.0,0.0,0.0,0.0,0.0,0.0,0.0,0.0,0.0,0.0,0.0,,,,,,0.0,,,,,,,
39,5859884,1745474458908,,,,,,,,,,,,,,,,,,,,,,,0.0,0.0,0.0,0.0,3.9,0.0,0.0,0.0,2.26,,,0.0,0.0,0.0,0.0,0.0,0.0,0.0,0.0,0.0,0.0,0.0,0.0,0.0,0.0,0.0,0.0,,0.0,,,,,38.994099,-76.939652,0.05,27.0,31.0,3.0,0.8
40,5859904,1745474458928,0.0,132.0,,-0.12,-0.22,0.79,-2.0,0.0,-1.0,0.83,1.02,81.0,6100.0,0.0,1.4,,10.12,1.231,91.6,,42.9,5.0,,,,,,,,,,,,0.0,0.0,0.0,0.0,0.0,0.0,0.0,0.0,0.0,0.0,0.0,0.0,0.0,0.0,0.0,0.0,,,,,,0.0,,,,,,,
41,5859924,1745474458948,,,,,,,,,,,,,,,,,,,,,,,,,,,,,,,,,,0.0,0.0,0.0,0.0,0.0,0.0,0.0,0.0,0.0,0.0,0.0,0.0,0.0,0.0,0.0,0.0,,,,,,,,,,,,,
42,5859944,1745474458968,0.0,133.0,,-0.12,-0.13,0.86,-1.0,0.0,0.0,0.88,1.02,86.0,5686.0,19.1,3.27,,10.76,1.25,91.6,,40.8,5.0,,,,,,,,,,,,0.0,0.0,0.0,0.0,0.0,0.0,0.0,0.0,0.0,0.0,0.0,0.0,0.0,0.0,0.0,0.0,,,,,,0.0,,,,,,,
43,5859964,1745474458988,,,,,,,,,,,,,,,,,,,,,,,,,,,,,,,,,,0.0,0.0,0.0,0.0,0.0,0.0,0.0,0.0,0.0,0.0,0.0,0.0,0.0,0.0,0.0,0.0,,,,,,,,,,,,,
44,5859984,1745474458998,0.0,133.0,,-0.12,-0.05,0.89,-1.0,0.0,0.0,0.9,1.02,88.0,5313.0,41.8,5.33,,13.48,1.25,91.6,,40.8,5.0,0.0,0.0,0.0,0.0,3.9,0.0,0.0,0.0,2.26,,,0.0,0.0,0.0,0.0,0.0,0.0,0.0,0.0,0.0,0.0,0.0,0.0,0.0,0.0,0.0,0.0,,0.0,,,,0.0,38.994099,-76.939652,0.08,27.0,33.0,3.0,0.8
45,5860004,1745474459018,,,,,,,,,,,,,,,,,,,,,,,,,,,,,,,,,,0.0,0.0,0.0,0.0,0.0,0.0,0.0,0.0,0.0,0.0,0.0,0.0,0.0,0.0,0.0,0.0,,,,,,,,,,,,,
46,5860024,1745474459038,0.0,132.0,,-0.14,-0.05,0.88,-1.0,0.0,0.0,0.89,1.02,88.0,5535.0,14.6,4.65,,13.15,1.251,91.6,,40.8,5.0,,,,,,,,,,,,0.0,0.0,0.0,0.0,0.0,0.0,0.0,0.0,0.0,0.0,0.0,0.0,0.0,0.0,0.0,0.0,,,,,,0.0,,,,,,,
47,5860044,1745474459058,,,,,,,,,,,,,,,,,,,,,,,,,,,,,,,,,,0.0,0.0,0.0,0.0,0.0,0.0,0.0,0.0,0.0,0.0,0.0,0.0,0.0,0.0,0.0,0.0,,,,,,,,,,,,,
48,5860064,1745474459078,0.0,132.0,,-0.13,-0.02,0.96,0.0,0.0,0.0,0.97,1.02,95.0,5723.0,0.0,1.72,,13.15,1.251,91.6,,40.8,5.0,,,,,,,,,,,,0.0,0.0,0.0,0.0,0.0,0.0,0.0,0.0,0.0,0.0,0.0,0.0,0.0,0.0,0.0,0.0,,,,,,0.0,,,,,,,
49,5860084,1745474459104,,,,,,,,,,,,,,,,,,,,,,,0.0,0.0,0.0,0.0,3.9,0.0,0.0,0.0,2.26,,,0.0,0.0,0.0,0.0,0.0,0.0,0.0,0.0,0.0,0.0,0.0,0.0,0.0,0.0,0.0,0.0,,0.0,,,,,38.994099,-76.939652,0.04,27.0,33.0,3.0,0.8
50,5860104,1745474459124,0.0,133.0,,-0.11,0.0,0.89,0.0,0.0,0.0,0.9,1.02,88.0,5723.0,0.0,1.72,,11.57,1.25,91.6,,40.8,5.0,,,,,,,,,,,,0.0,0.0,0.0,0.0,0.0,0.0,0.0,0.0,0.0,0.0,0.0,0.0,0.0,0.0,0.0,0.0,,,,,,0.0,,,,,,,
51,5860124,1745474459144,,,,,,,,,,,,,,,,,,,,,,,,,,,,,,,,,,0.0,0.0,0.0,0.0,0.0,0.0,0.0,0.0,0.0,0.0,0.0,0.0,0.0,0.0,0.0,0.0,,,,,,,,,,,,,
52,5860144,1745474459164,0.0,133.0,,-0.1,-0.01,0.92,0.0,0.0,0.0,0.93,1.02,91.0,5572.0,0.0,1.53,,10.61,1.227,91.6,,40.8,5.0,,,,,,,,,,,,0.0,0.0,0.0,0.0,0.0,0.0,0.0,0.0,0.0,0.0,0.0,0.0,0.0,0.0,0.0,0.0,,,,,,0.0,,,,,,,
53,5860164,1745474459184,,,,,,,,,,,,,,,,,,,,,,,,,,,,,,,,,,0.0,0.0,0.0,0.0,0.0,0.0,0.0,0.0,0.0,0.0,0.0,0.0,0.0,0.0,0.0,0.0,,,,,,,,,,,,,
54,5860184,1745474459208,0.0,133.0,,-0.11,0.06,0.91,0.0,0.0,0.0,0.92,1.02,90.0,5269.0,0.0,1.56,,10.21,1.183,91.6,,40.3,5.0,0.0,0.0,0.0,0.0,3.9,0.0,0.0,0.0,2.27,,,0.0,0.0,0.0,0.0,0.0,0.0,0.0,0.0,0.0,0.0,0.0,0.0,0.0,0.0,0.0,0.0,,0.0,,,,0.0,38.994099,-76.939652,0.04,27.0,33.0,3.0,0.8
55,5860204,1745474459228,,,,,,,,,,,,,,,,,,,,,,,,,,,,,,,,,,0.0,0.0,0.0,0.0,0.0,0.0,0.0,0.0,0.0,0.0,0.0,0.0,0.0,0.0,0.0,0.0,,,,,,,,,,,,,
56,5860224,1745474459248,0.0,133.0,,-0.12,0.08,0.98,0.0,0.0,0.0,0.99,1.02,98.0,4918.0,28.0,4.53,,12.13,1.248,91.6,,40.3,5.0,,,,,,,,,,,,0.0,0.0,0.0,0.0,0.0,0.0,0.0,0.0,0.0,0.0,0.0,0.0,0.0,0.0,0.0,0.0,,,,,,0.0,,,,,,,
57,5860244,1745474459268,,,,,,,,,,,,,,,,,,,,,,,,,,,,,,,,,,0.0,0.0,0.0,0.0,0.0,0.0,0.0,0.0,0.0,0.0,0.0,0.0,0.0,0.0,0.0,0.0,,,,,,,,,,,,,
58,5860264,1745474459288,0.0,132.0,,-0.15,0.11,1.02,0.0,0.0,0.0,1.04,1.04,100.0,4541.0,50.1,5.85,,12.13,1.248,91.6,,33.7,5.0,,,,,,,,,,,,0.0,0.0,0.0,0.0,0.0,0.0,0.0,0.0,0.0,0.0,0.0,0.0,0.0,0.0,0.0,0.0,,,,,,0.0,,,,,,,
59,5860284,1745474459310,,,,,,,,,,,,,,,,,,,,,,,0.0,0.0,0.0,0.0,3.9,0.0,0.0,0.0,2.27,,,0.0,0.0,0.0,0.0,0.0,0.0,0.0,0.0,0.0,0.0,0.0,0.0,0.0,0.0,0.0,0.0,,0.0,,,,,38.994099,-76.939652,0.08,27.0,33.0,3.0,0.8
60,5860304,1745474459330,0.0,133.0,,-0.17,0.18,1.12,1.0,0.0,1.0,1.15,1.15,100.0,4541.0,50.1,5.85,,14.24,1.248,91.6,,33.7,5.0,,,,,,,,,,,,0.0,0.0,0.0,0.0,0.0,0.0,0.0,0.0,0.0,0.0,0.0,0.0,0.0,0.0,0.0,0.0,,,,,,0.0,,,,,,,
61,5860324,1745474459350,,,,,,,,,,,,,,,,,,,,,,,,,,,,,,,,,,0.0,0.0,0.0,0.0,0.0,0.0,0.0,0.0,0.0,0.0,0.0,0.0,0.0,0.0,0.0,0.0,,,,,,,,,,,,,
62,5860344,1745474459370,0.0,133.0,,-0.17,0.2,1.17,1.0,0.0,1.0,1.2,1.2,100.0,4504.0,50.6,5.31,,14.39,1.25,91.6,,32.4,5.0,,,,,,,,,,,,0.0,0.0,0.0,0.0,0.0,0.0,0.0,0.0,0.0,0.0,0.0,0.0,0.0,0.0,0.0,0.0,,,,,,0.0,,,,,,,
63,5860364,1745474459390,,,,,,,,,,,,,,,,,,,,,,,,,,,,,,,,,,0.0,0.0,0.0,0.0,0.0,0.0,0.0,0.0,0.0,0.0,0.0,0.0,0.0,0.0,0.0,0.0,,,,,,,,,,,,,
64,5860384,1745474459410,0.0,133.0,13.1,-0.15,0.11,1.11,1.0,0.0,1.0,1.13,1.2,94.0,4871.0,14.7,4.32,15.0,13.68,1.251,91.6,176.0,32.4,5.0,0.0,0.0,0.0,0.0,3.9,0.0,0.0,0.0,2.26,0.0,1.0,0.0,0.0,0.0,0.0,0.0,0.0,0.0,0.0,0.0,0.0,0.0,0.0,0.0,0.0,0.0,0.0,0.0,0.0,1.0,0.0,0.0,0.0,38.994099,-76.939652,0.05,27.0,33.0,3.0,0.8
65,5860404,1745474459430,,,,,,,,,,,,,,,,,,,,,,,,,,,,,,,,,,0.0,0.0,0.0,0.0,0.0,0.0,0.0,0.0,0.0,0.0,0.0,0.0,0.0,0.0,0.0,0.0,,,,,,,,,,,,,
66,5860424,1745474459450,0.0,133.0,,-0.16,0.08,1.12,0.0,0.0,1.0,1.13,1.2,94.0,5015.0,0.0,2.47,,12.32,1.252,91.6,,32.4,5.0,,,,,,,,,,,,0.0,0.0,0.0,0.0,0.0,0.0,0.0,0.0,0.0,0.0,0.0,0.0,0.0,0.0,0.0,0.0,,,,,,0.0,,,,,,,
67,5860444,1745474459470,,,,,,,,,,,,,,,,,,,,,,,,,,,,,,,,,,0.0,0.0,0.0,0.0,0.0,0.0,0.0,0.0,0.0,0.0,0.0,0.0,0.0,0.0,0.0,0.0,,,,,,,,,,,,,
68,5860464,1745474459490,0.0,133.0,,-0.14,0.15,1.14,1.0,0.0,1.0,1.16,1.2,96.0,4946.0,0.0,2.41,,12.32,1.252,91.6,,35.6,5.0,,,,,,,,,,,,0.0,0.0,0.0,0.0,0.0,0.0,0.0,0.0,0.0,0.0,0.0,0.0,0.0,0.0,0.0,0.0,,,,,,0.0,,,,,,,
69,5860484,1745474459509,,,,,,,,,,,,,,,,,,,,,,,0.0,0.0,0.0,0.0,3.9,0.0,0.0,0.0,2.26,,,0.0,0.0,0.0,0.0,0.0,0.0,0.0,0.0,0.0,0.0,0.0,0.0,0.0,0.0,0.0,0.0,,0.0,,,,,38.994099,-76.939652,0.19,27.0,33.0,3.0,0.8
70,5860504,1745474459529,0.0,133.0,,-0.14,0.09,1.09,0.0,0.0,1.0,1.11,1.2,92.0,4946.0,0.0,2.41,,11.52,1.252,91.6,,35.6,5.0,,,,,,,,,,,,0.0,0.0,0.0,0.0,0.0,0.0,0.0,0.0,0.0,0.0,0.0,0.0,0.0,0.0,0.0,0.0,,,,,,0.0,,,,,,,
71,5860524,1745474459549,,,,,,,,,,,,,,,,,,,,,,,,,,,,,,,,,,0.0,0.0,0.0,0.0,0.0,0.0,0.0,0.0,0.0,0.0,0.0,0.0,0.0,0.0,0.0,0.0,,,,,,,,,,,,,
72,5860544,1745474459569,0.0,133.0,,-0.1,0.05,0.99,0.0,0.0,0.0,1.0,1.2,83.0,4763.0,0.0,2.41,,11.1,1.251,91.6,,33.1,5.0,,,,,,,,,,,,0.0,0.0,0.0,0.0,0.0,0.0,0.0,0.0,0.0,0.0,0.0,0.0,0.0,0.0,0.0,0.0,,,,,,0.0,,,,,,,
73,5860564,1745474459589,,,,,,,,,,,,,,,,,,,,,,,,,,,,,,,,,,0.0,0.0,0.0,0.0,0.0,0.0,0.0,0.0,0.0,0.0,0.0,0.0,0.0,0.0,0.0,0.0,,,,,,,,,,,,,
74,5860584,1745474459608,0.0,133.0,,-0.08,-0.02,0.93,0.0,0.0,0.0,0.93,1.2,78.0,4571.0,9.7,3.69,,11.49,1.248,91.6,,33.1,5.0,0.0,0.0,0.0,0.0,3.9,0.0,0.0,0.0,2.26,,,0.0,0.0,0.0,0.0,0.0,0.0,0.0,0.0,0.0,0.0,0.0,0.0,0.0,0.0,0.0,0.0,,0.0,,,,0.0,38.994099,-76.939652,0.09,27.0,33.0,3.0,0.8
75,5860604,1745474459628,,,,,,,,,,,,,,,,,,,,,,,,,,,,,,,,,,0.0,0.0,0.0,0.0,0.0,0.0,0.0,0.0,0.0,0.0,0.0,0.0,0.0,0.0,0.0,0.0,,,,,,,,,,,,,
76,5860624,1745474459648,0.0,133.0,,-0.05,-0.12,0.83,-1.0,0.0,0.0,0.84,1.2,70.0,4476.0,15.9,4.12,,12.37,1.248,91.6,,33.1,5.0,,,,,,,,,,,,0.0,0.0,0.0,0.0,0.0,0.0,0.0,0.0,0.0,0.0,0.0,0.0,0.0,0.0,0.0,0.0,,,,,,0.0,,,,,,,
77,5860644,1745474459668,,,,,,,,,,,,,,,,,,,,,,,,,,,,,,,,,,0.0,0.0,0.0,0.0,0.0,0.0,0.0,0.0,0.0,0.0,0.0,0.0,0.0,0.0,0.0,0.0,,,,,,,,,,,,,
78,5860664,1745474459688,0.0,132.0,,-0.02,-0.2,0.77,-2.0,0.0,-1.0,0.8,1.2,67.0,4425.0,16.3,4.17,,12.37,1.248,91.6,,31.2,5.0,,,,,,,,,,,,0.0,0.0,0.0,0.0,0.0,0.0,0.0,0.0,0.0,0.0,0.0,0.0,0.0,0.0,0.0,0.0,,,,,,0.0,,,,,,,
79,5860684,1745474459707,,,,,,,,,,,,,,,,,,,,,,,0.0,0.0,0.0,0.0,3.9,0.0,0.0,0.0,2.27,,,0.0,0.0,0.0,0.0,0.0,0.0,0.0,0.0,0.0,0.0,0.0,0.0,0.0,0.0,0.0,0.0,,0.0,,,,,38.994099,-76.939652,0.04,26.9,33.0,3.0,0.8
80,5860704,1745474459727,0.0,133.0,,-0.0,-0.23,0.71,-4.0,0.0,-1.0,0.74,1.2,62.0,4425.0,16.3,4.17,,12.92,1.248,91.6,,31.2,5.0,,,,,,,,,,,,0.0,0.0,0.0,0.0,0.0,0.0,0.0,0.0,0.0,0.0,0.0,0.0,0.0,0.0,0.0,0.0,,,,,,0.0,,,,,,,
81,5860724,1745474459747,,,,,,,,,,,,,,,,,,,,,,,,,,,,,,,,,,0.0,0.0,0.0,0.0,0.0,0.0,0.0,0.0,0.0,0.0,0.0,0.0,0.0,0.0,0.0,0.0,,,,,,,,,,,,,
82,5860744,1745474459767,0.0,133.0,,0.01,-0.3,0.67,-5.0,0.0,-1.0,0.74,1.2,61.0,4447.0,16.3,4.07,,13.07,1.248,91.6,,31.2,5.0,,,,,,,,,,,,0.0,0.0,0.0,0.0,0.0,0.0,0.0,0.0,0.0,0.0,0.0,0.0,0.0,0.0,0.0,0.0,,,,,,0.0,,,,,,,
83,5860764,1745474459787,,,,,,,,,,,,,,,,,,,,,,,,,,,,,,,,,,0.0,0.0,0.0,0.0,0.0,0.0,0.0,0.0,0.0,0.0,0.0,0.0,0.0,0.0,0.0,0.0,,,,,,,,,,,,,
84,5860784,1745474459806,0.0,133.0,,0.02,-0.28,0.62,-6.0,0.0,-1.0,0.68,1.2,57.0,4476.0,16.3,4.08,,13.16,1.25,91.6,,31.2,5.0,0.0,0.0,0.0,0.0,3.9,0.0,0.0,0.0,2.27,,,0.0,0.0,0.0,0.0,0.0,0.0,0.0,0.0,0.0,0.0,0.0,0.0,0.0,0.0,0.0,0.0,,0.0,,,,0.0,38.994099,-76.939652,0.19,26.9,33.0,3.0,0.8
85,5860804,1745474459826,,,,,,,,,,,,,,,,,,,,,,,,,,,,,,,,,,0.0,0.0,0.0,0.0,0.0,0.0,0.0,0.0,0.0,0.0,0.0,0.0,0.0,0.0,0.0,0.0,,,,,,,,,,,,,
86,5860824,1745474459846,0.0,133.0,,0.04,-0.31,0.59,-6.0,0.0,-1.0,0.67,1.2,56.0,4560.0,20.3,4.21,,13.31,1.251,91.6,,31.2,5.0,,,,,,,,,,,,0.0,0.0,0.0,0.0,0.0,0.0,0.0,0.0,0.0,0.0,0.0,0.0,0.0,0.0,0.0,0.0,,,,,,0.0,,,,,,,
87,5860844,1745474459866,,,,,,,,,,,,,,,,,,,,,,,,,,,,,,,,,,0.0,0.0,0.0,0.0,0.0,0.0,0.0,0.0,0.0,0.0,0.0,0.0,0.0,0.0,0.0,0.0,,,,,,,,,,,,,
88,5860864,1745474459886,0.0,132.0,,0.04,-0.3,0.59,-5.0,0.0,-1.0,0.66,1.2,55.0,4613.0,21.1,4.23,,13.31,1.251,91.6,,31.8,5.0,,,,,,,,,,,,0.0,0.0,0.0,0.0,0.0,0.0,0.0,0.0,0.0,0.0,0.0,0.0,0.0,0.0,0.0,0.0,,,,,,0.0,,,,,,,
89,5860884,1745474459907,,,,,,,,,,,,,,,,,,,,,,,0.0,0.0,0.0,0.0,3.9,0.0,0.0,0.0,2.26,,,0.0,0.0,0.0,0.0,0.0,0.0,0.0,0.0,0.0,0.0,0.0,0.0,0.0,0.0,0.0,0.0,,0.0,,,,,38.994099,-76.939652,0.22,26.9,33.0,3.0,0.8
90,5860904,1745474459927,0.0,133.0,,0.02,-0.22,0.7,-3.0,0.0,-1.0,0.74,1.2,62.0,4613.0,21.1,4.23,,13.43,1.251,91.6,,31.8,5.0,,,,,,,,,,,,0.0,0.0,0.0,0.0,0.0,0.0,0.0,0.0,0.0,0.0,0.0,0.0,0.0,0.0,0.0,0.0,,,,,,0.0,,,,,,,
91,5860924,1745474459947,,,,,,,,,,,,,,,,,,,,,,,,,,,,,,,,,,0.0,0.0,0.0,0.0,0.0,0.0,0.0,0.0,0.0,0.0,0.0,0.0,0.0,0.0,0.0,0.0,,,,,,,,,,,,,
92,5860944,1745474459967,0.0,132.0,,-0.01,-0.2,0.75,-3.0,0.0,-1.0,0.78,1.2,65.0,4727.0,21.3,4.23,,13.45,1.251,91.6,,33.1,5.0,,,,,,,,,,,,0.0,0.0,0.0,0.0,0.0,0.0,0.0,0.0,0.0,0.0,0.0,0.0,0.0,0.0,0.0,0.0,,,,,,0.0,,,,,,,
93,5860964,1745474459987,,,,,,,,,,,,,,,,,,,,,,,,,,,,,,,,,,0.0,0.0,0.0,0.0,0.0,0.0,0.0,0.0,0.0,0.0,0.0,0.0,0.0,0.0,0.0,0.0,,,,,,,,,,,,,
94,5860984,1745474459995,0.0,133.0,,-0.0,-0.18,0.75,-3.0,0.0,-1.0,0.77,1.2,64.0,4840.0,21.3,4.24,,13.45,1.251,91.6,,33.1,5.0,0.0,0.0,0.0,0.0,3.9,0.0,0.0,0.0,2.26,,,0.0,0.0,0.0,0.0,0.0,0.0,0.0,0.0,0.0,0.0,0.0,0.0,0.0,0.0,0.0,0.0,,0.0,,,,0.0,38.994099,-76.939652,0.0,26.9,33.0,3.0,0.8
95,5861004,1745474460015,,,,,,,,,,,,,,,,,,,,,,,,,,,,,,,,,,0.0,0.0,0.0,0.0,0.0,0.0,0.0,0.0,0.0,0.0,0.0,0.0,0.0,0.0,0.0,0.0,,,,,,,,,,,,,
96,5861024,1745474460035,0.0,133.0,,-0.03,-0.18,0.8,-2.0,0.0,-1.0,0.82,1.2,69.0,4948.0,21.3,4.24,,13.36,1.249,91.6,,33.1,5.0,,,,,,,,,,,,0.0,0.0,0.0,0.0,0.0,0.0,0.0,0.0,0.0,0.0,0.0,0.0,0.0,0.0,0.0,0.0,,,,,,0.0,,,,,,,
97,5861044,1745474460055,,,,,,,,,,,,,,,,,,,,,,,,,,,,,,,,,,0.0,0.0,0.0,0.0,0.0,0.0,0.0,0.0,0.0,0.0,0.0,0.0,0.0,0.0,0.0,0.0,,,,,,,,,,,,,
98,5861064,1745474460075,0.0,132.0,,-0.03,-0.1,0.84,-2.0,0.0,-1.0,0.84,1.2,70.0,5012.0,21.3,4.22,,13.36,1.249,91.6,,34.8,5.0,,,,,,,,,,,,0.0,0.0,0.0,0.0,0.0,0.0,0.0,0.0,0.0,0.0,0.0,0.0,0.0,0.0,0.0,0.0,,,,,,0.0,,,,,,,
99,5861084,1745474460105,,,,,,,,,,,,,,,,,,,,,,,0.0,0.0,0.0,0.0,3.9,0.0,0.0,0.0,2.26,,,0.0,0.0,0.0,0.0,0.0,0.0,0.0,0.0,0.0,0.0,0.0,0.0,0.0,0.0,0.0,0.0,,0.0,,,,,38.994099,-76.939652,0.51,26.9,33.0,3.0,0.8
100,5861104,1745474460125,0.0,132.0,,-0.03,-0.16,0.85,-2.0,0.0,-1.0,0.87,1.2,72.0,5012.0,21.3,4.22,,13.23,1.248,91.6,,34.8,5.0,,,,,,,,,,,,0.0,0.0,0.0,0.0,0.0,0.0,0.0,0.0,0.0,0.0,0.0,0.0,0.0,0.0,0.0,0.0,,,,,,0.0,,,,,,,
101,5861184,1745474460205,0.0,133.0,,-0.04,-0.19,0.88,-1.0,0.0,-1.0,0.9,1.2,75.0,5270.0,21.1,4.23,,13.05,,,,,,,,,,,,,,,,,,,,,,,,,,,,,,,,,,,,,,,,,,,,,
102,5861204,1745474460225,,,,,,,,,,,,,,,,,,,,,,,,,,,,,,,,,,0.0,0.0,0.0,0.0,0.0,0.0,0.0,0.0,0.0,0.0,0.0,0.0,0.0,0.0,0.0,0.0,,,,,,,,,,,,,
103,5861284,1745474460311,,,,,,,,,,,,,,,,,,,,,,,0.0,0.0,0.0,0.0,3.9,0.0,0.0,0.0,2.26,,,0.0,0.0,0.0,0.0,0.0,0.0,0.0,0.0,0.0,0.0,0.0,0.0,0.0,0.0,0.0,0.0,,0.0,,,,,38.994099,-76.939652,0.0,26.9,33.0,3.0,0.8
104,5861304,1745474460331,0.0,132.0,,-0.05,-0.09,0.94,0.0,0.0,0.0,0.94,1.2,79.0,5485.0,21.2,4.21,,12.91,1.25,91.6,,38.8,5.0,,,,,,,,,,,,0.0,0.0,0.0,0.0,0.0,0.0,0.0,0.0,0.0,0.0,0.0,0.0,0.0,0.0,0.0,0.0,,,,,,0.0,,,,,,,
105,5861384,1745474460411,0.0,133.0,13.15,-0.05,0.02,0.93,0.0,0.0,0.0,0.93,1.2,78.0,5651.0,21.7,4.22,15.0,12.87,1.25,91.6,176.0,39.7,5.0,0.0,0.0,0.0,0.0,3.9,0.0,0.0,0.0,2.26,0.0,1.0,0.0,0.0,0.0,0.0,0.0,0.0,0.0,0.0,0.0,0.0,0.0,0.0,0.0,0.0,0.0,0.0,0.0,0.0,1.0,0.0,0.0,0.0,38.994099,-76.939652,0.04,26.9,33.0,3.0,0.8
106,5861564,1745474460589,,,,,,,,,,,,,,,,,,,,,,,,,,,,,,,,,,0.0,0.0,0.0,0.0,0.0,0.0,0.0,0.0,0.0,0.0,0.0,0.0,0.0,0.0,0.0,0.0,,,,,,,,,,,,,
107,5861584,1745474460609,0.0,133.0,,-0.09,0.11,1.16,3.0,0.0,0.0,1.17,1.2,97.0,5995.0,22.0,4.29,,12.83,1.05,91.6,,41.1,5.0,0.0,0.0,0.0,0.0,3.9,0.0,0.0,0.0,2.27,,,0.0,0.0,0.0,0.0,0.0,0.0,0.0,0.0,0.0,0.0,0.0,0.0,0.0,0.0,0.0,0.0,,0.0,,,,0.0,38.994099,-76.939652,0.15,26.9,33.0,3.0,0.8
108,5861744,1745474460768,0.0,132.0,,-0.11,0.06,1.14,1.0,0.0,1.0,1.14,1.21,95.0,6493.0,21.9,4.94,,12.4,1.03,91.6,,42.2,5.0,,,,,,,,,,,,0.0,0.0,0.0,0.0,0.0,0.0,0.0,0.0,0.0,0.0,0.0,0.0,0.0,0.0,0.0,0.0,,,,,,0.0,,,,,,,
109,5861764,1745474460788,,,,,,,,,,,,,,,,,,,,,,,,,,,,,,,,,,0.0,0.0,0.0,0.0,0.0,0.0,0.0,0.0,0.0,0.0,0.0,0.0,0.0,0.0,0.0,0.0,,,,,,,,,,,,,
110,5861784,1745474460808,0.0,132.0,,-0.11,0.03,1.11,1.0,0.0,0.0,1.11,1.21,92.0,6872.0,22.0,5.27,,12.23,1.018,91.6,,42.2,5.0,0.0,0.0,0.0,0.0,3.9,0.0,0.0,0.0,2.26,,,0.0,0.0,0.0,0.0,0.0,0.0,0.0,0.0,0.0,0.0,0.0,0.0,0.0,0.0,0.0,0.0,,0.0,,,,0.0,38.994099,-76.939652,0.04,26.9,33.0,3.0,0.8
111,5861804,1745474460828,,,,,,,,,,,,,,,,,,,,,,,,,,,,,,,,,,0.0,0.0,0.0,0.0,0.0,0.0,0.0,0.0,0.0,0.0,0.0,0.0,0.0,0.0,0.0,0.0,,,,,,,,,,,,,
112,5861824,1745474460848,0.0,133.0,,-0.08,0.09,1.12,1.0,0.0,0.0,1.12,1.21,93.0,7198.0,33.6,5.86,,12.23,1.018,91.6,,42.2,5.0,,,,,,,,,,,,0.0,0.0,0.0,0.0,0.0,0.0,0.0,0.0,0.0,0.0,0.0,0.0,0.0,0.0,0.0,0.0,,,,,,0.0,,,,,,,
113,5861844,1745474460868,,,,,,,,,,,,,,,,,,,,,,,,,,,,,,,,,,0.0,0.0,0.0,0.0,0.0,0.0,0.0,0.0,0.0,0.0,0.0,0.0,0.0,0.0,0.0,0.0,,,,,,,,,,,,,
114,5861864,1745474460888,0.0,132.0,,-0.1,0.03,1.11,1.0,0.0,1.0,1.11,1.21,92.0,8256.0,78.4,6.68,,12.48,0.957,91.6,,43.4,5.0,,,,,,,,,,,,0.0,0.0,0.0,0.0,0.0,0.0,0.0,0.0,0.0,0.0,0.0,0.0,0.0,0.0,0.0,0.0,,,,,,0.0,,,,,,,
115,5861884,1745474460908,,,,,,,,,,,,,,,,,,,,,,,0.0,0.0,0.0,0.0,3.9,0.0,0.0,0.0,2.26,,,0.0,0.0,0.0,0.0,0.0,0.0,0.0,0.0,0.0,0.0,0.0,0.0,0.0,0.0,0.0,0.0,,0.0,,,,,38.994099,-76.939652,0.04,26.9,33.0,3.0,0.8
116,5861904,1745474460928,0.0,133.0,,-0.09,0.3,1.09,1.0,0.0,0.0,1.14,1.21,94.0,8256.0,78.4,6.68,,13.94,0.962,91.6,,43.4,5.0,,,,,,,,,,,,0.0,0.0,0.0,0.0,0.0,0.0,0.0,0.0,0.0,0.0,0.0,0.0,0.0,0.0,0.0,0.0,,,,,,0.0,,,,,,,
117,5861924,1745474460948,,,,,,,,,,,,,,,,,,,,,,,,,,,,,,,,,,0.0,0.0,0.0,0.0,0.0,0.0,0.0,0.0,0.0,0.0,0.0,0.0,0.0,0.0,0.0,0.0,,,,,,,,,,,,,
118,5861944,1745474460968,0.0,132.0,,0.01,0.31,1.06,1.0,0.0,1.0,1.11,1.21,92.0,9675.0,99.4,6.77,,13.8,0.955,91.6,,45.7,5.0,,,,,,,,,,,,0.0,0.0,0.0,0.0,0.0,0.0,0.0,0.0,0.0,0.0,0.0,0.0,0.0,0.0,0.0,0.0,,,,,,0.0,,,,,,,
119,5861964,1745474460988,,,,,,,,,,,,,,,,,,,,,,,,,,,,,,,,,,0.0,0.0,0.0,0.0,0.0,0.0,0.0,0.0,0.0,0.0,0.0,0.0,0.0,0.0,0.0,0.0,,,,,,,,,,,,,
120,5861984,1745474460996,0.0,132.0,,0.13,0.16,1.07,1.0,1.0,1.0,1.09,1.21,90.0,9949.0,99.4,6.09,,13.83,0.955,91.6,,45.7,5.0,0.0,0.0,0.0,7.0,3.9,0.0,0.0,0.0,2.26,,,0.0,0.0,0.0,0.0,0.0,0.0,0.0,0.0,0.0,0.0,0.0,0.0,0.0,0.0,0.0,0.0,,0.0,,,,0.0,38.994099,-76.939652,0.0,26.9,33.0,3.0,0.8
121,5862004,1745474461016,,,,,,,,,,,,,,,,,,,,,,,,,,,,,,,,,,0.0,0.0,0.0,0.0,0.0,0.0,0.0,0.0,0.0,0.0,0.0,0.0,0.0,0.0,0.0,0.0,,,,,,,,,,,,,
122,5862024,1745474461036,0.0,132.0,,0.2,-0.03,1.02,1.0,1.0,1.0,1.04,1.21,86.0,9825.0,99.4,6.07,,13.83,0.955,91.6,,45.7,5.0,,,,,,,,,,,,0.0,0.0,0.0,0.0,0.0,0.0,0.0,0.0,0.0,0.0,0.0,0.0,0.0,0.0,0.0,0.0,,,,,,0.0,,,,,,,
123,5862044,1745474461056,,,,,,,,,,,,,,,,,,,,,,,,,,,,,,,,,,0.0,0.0,0.0,0.0,0.0,0.0,0.0,0.0,0.0,0.0,0.0,0.0,0.0,0.0,0.0,0.0,,,,,,,,,,,,,
124,5862064,1745474461076,0.0,132.0,,0.23,-0.05,1.11,0.0,1.0,1.0,1.14,1.21,94.0,9702.0,99.5,6.02,,13.8,0.891,91.6,,46.1,5.0,,,,,,,,,,,,0.0,0.0,0.0,0.0,0.0,0.0,0.0,0.0,0.0,0.0,0.0,0.0,0.0,0.0,0.0,0.0,,,,,,0.0,,,,,,,
125,5862084,1745474461103,,,,,,,,,,,,,,,,,,,,,,,0.0,0.0,33.0,31.0,3.9,0.0,0.0,0.0,2.27,,,0.0,0.0,0.0,0.0,0.0,0.0,0.0,0.0,0.0,0.0,0.0,0.0,0.0,0.0,0.0,0.0,,0.0,,,,,38.994099,-76.939652,2.05,26.9,33.0,3.0,0.8
126,5862104,1745474461123,0.0,132.0,,0.24,-0.05,1.14,-1.0,0.0,1.0,1.17,1.21,97.0,9702.0,99.5,6.02,,13.72,0.901,91.6,,46.1,5.0,,,,,,,,,,,,0.0,0.0,0.0,0.0,0.0,0.0,0.0,0.0,0.0,0.0,0.0,0.0,0.0,0.0,0.0,0.0,,,,,,0.0,,,,,,,
127,5862124,1745474461143,,,,,,,,,,,,,,,,,,,,,,,,,,,,,,,,,,0.0,0.0,0.0,0.0,0.0,0.0,0.0,0.0,0.0,0.0,0.0,0.0,0.0,0.0,0.0,0.0,,,,,,,,,,,,,
128,5862144,1745474461163,0.0,132.0,,0.27,-0.04,1.12,0.0,0.0,1.0,1.15,1.21,96.0,10573.0,99.4,5.78,,13.76,0.916,91.6,,51.7,5.0,,,,,,,,,,,,0.0,0.0,0.0,0.0,0.0,0.0,0.0,0.0,0.0,0.0,0.0,0.0,0.0,0.0,0.0,0.0,,,,,,0.0,,,,,,,
129,5862164,1745474461183,,,,,,,,,,,,,,,,,,,,,,,,,,,,,,,,,,0.0,0.0,0.0,0.0,0.0,0.0,0.0,0.0,0.0,0.0,0.0,0.0,0.0,0.0,0.0,0.0,,,,,,,,,,,,,
130,5862184,1745474461204,0.0,132.0,,0.35,-0.09,1.04,-1.0,1.0,1.0,1.1,1.21,91.0,11182.0,99.5,5.48,,13.57,0.904,91.6,,51.7,5.0,3.0,0.0,33.0,34.0,3.9,0.0,0.0,0.0,2.27,,,0.0,0.0,0.0,0.0,0.0,0.0,0.0,0.0,0.0,0.0,0.0,0.0,0.0,0.0,0.0,0.0,,1.0,,,,0.0,38.994099,-76.939652,6.1,26.9,33.0,3.0,0.8
131,5862204,1745474461224,,,,,,,,,,,,,,,,,,,,,,,,,,,,,,,,,,0.0,0.0,0.0,0.0,0.0,0.0,0.0,0.0,0.0,0.0,0.0,0.0,0.0,0.0,0.0,0.0,,,,,,,,,,,,,
132,5862224,1745474461244,0.0,132.0,,0.41,-0.01,1.05,1.0,1.0,1.0,1.12,1.21,93.0,11369.0,99.5,5.38,,13.79,0.904,91.6,,51.7,5.0,,,,,,,,,,,,0.0,0.0,0.0,0.0,0.0,0.0,0.0,0.0,0.0,0.0,0.0,0.0,0.0,0.0,0.0,0.0,,,,,,0.0,,,,,,,
133,5862244,1745474461264,,,,,,,,,,,,,,,,,,,,,,,,,,,,,,,,,,0.0,0.0,0.0,0.0,0.0,0.0,0.0,0.0,0.0,0.0,0.0,0.0,0.0,0.0,0.0,0.0,,,,,,,,,,,,,
134,5862264,1745474461284,0.0,132.0,,0.44,0.0,1.04,3.0,1.0,1.0,1.13,1.21,93.0,11609.0,99.5,5.31,,13.79,0.904,91.6,,55.8,5.0,,,,,,,,,,,,0.0,0.0,0.0,0.0,0.0,0.0,0.0,0.0,0.0,0.0,0.0,0.0,0.0,0.0,0.0,0.0,,,,,,0.0,,,,,,,
135,5862284,1745474461308,,,,,,,,,,,,,,,,,,,,,,,6.0,0.0,36.0,34.0,3.9,0.0,0.0,0.0,2.26,,,0.0,0.0,0.0,0.0,0.0,0.0,0.0,0.0,0.0,0.0,0.0,0.0,0.0,0.0,0.0,0.0,,1.0,,,,,38.994099,-76.939652,8.34,26.9,33.0,3.0,0.8
136,5862304,1745474461328,0.0,132.0,,0.5,0.13,1.03,3.0,1.0,1.0,1.15,1.21,95.0,11609.0,99.5,5.31,,13.51,0.906,91.6,,55.8,5.0,,,,,,,,,,,,0.0,0.0,0.0,0.0,0.0,0.0,0.0,0.0,0.0,0.0,0.0,0.0,0.0,0.0,0.0,0.0,,,,,,0.0,,,,,,,
137,5862324,1745474461348,,,,,,,,,,,,,,,,,,,,,,,,,,,,,,,,,,0.0,0.0,0.0,0.0,0.0,0.0,0.0,0.0,0.0,0.0,0.0,0.0,0.0,0.0,0.0,0.0,,,,,,,,,,,,,
138,5862344,1745474461368,0.0,132.0,,0.5,0.28,0.94,3.0,1.0,1.0,1.1,1.21,91.0,11749.0,99.5,5.25,,13.35,0.925,91.6,,55.8,5.0,,,,,,,,,,,,0.0,0.0,0.0,0.0,0.0,0.0,0.0,0.0,0.0,0.0,0.0,0.0,0.0,0.0,0.0,0.0,,,,,,0.0,,,,,,,
139,5862364,1745474461388,,,,,,,,,,,,,,,,,,,,,,,,,,,,,,,,,,0.0,0.0,0.0,0.0,0.0,0.0,0.0,0.0,0.0,0.0,0.0,0.0,0.0,0.0,0.0,0.0,,,,,,,,,,,,,
140,5862384,1745474461408,0.0,132.0,13.05,0.52,0.17,0.9,4.0,1.0,1.0,1.05,1.21,87.0,11845.0,99.5,5.23,15.0,13.36,0.965,91.6,176.0,57.9,5.0,7.0,0.0,34.0,36.0,3.9,0.0,50.0,0.0,2.26,0.0,1.0,0.0,0.0,0.0,0.0,0.0,0.0,0.0,0.0,0.0,0.0,0.0,0.0,0.0,0.0,0.0,0.0,0.0,0.0,1.0,0.0,0.0,0.0,38.994099,-76.939644,11.46,26.9,33.0,3.0,0.8
141,5862404,1745474461428,,,,,,,,,,,,,,,,,,,,,,,,,,,,,,,,,,0.0,0.0,0.0,0.0,0.0,0.0,0.0,0.0,0.0,0.0,0.0,0.0,0.0,0.0,0.0,0.0,,,,,,,,,,,,,
142,5862424,1745474461448,0.0,132.0,,0.55,0.03,0.92,7.0,1.0,1.0,1.07,1.21,89.0,11804.0,99.5,5.23,,13.49,0.968,91.6,,57.9,5.0,,,,,,,,,,,,0.0,0.0,0.0,0.0,0.0,0.0,0.0,0.0,0.0,0.0,0.0,0.0,0.0,0.0,0.0,0.0,,,,,,0.0,,,,,,,
143,5862444,1745474461468,,,,,,,,,,,,,,,,,,,,,,,,,,,,,,,,,,0.0,0.0,0.0,0.0,0.0,0.0,0.0,0.0,0.0,0.0,0.0,0.0,0.0,0.0,0.0,0.0,,,,,,,,,,,,,
144,5862464,1745474461488,0.0,132.0,,0.57,-0.05,0.87,7.0,1.0,1.0,1.04,1.21,86.0,11755.0,99.5,5.25,,13.49,0.968,91.6,,59.5,5.0,,,,,,,,,,,,0.0,0.0,0.0,0.0,0.0,0.0,0.0,0.0,0.0,0.0,0.0,0.0,0.0,0.0,0.0,0.0,,,,,,0.0,,,,,,,
145,5862484,1745474461508,,,,,,,,,,,,,,,,,,,,,,,10.0,0.0,35.0,34.0,3.9,48.0,50.0,0.0,2.26,,,0.0,0.0,0.0,0.0,0.0,0.0,0.0,0.0,0.0,0.0,0.0,0.0,0.0,0.0,0.0,0.0,,1.0,,,,,38.994099,-76.939644,14.41,26.9,33.0,3.0,0.8
146,5862504,1745474461528,0.0,132.0,,0.59,-0.13,0.95,8.0,1.0,1.0,1.13,1.21,93.0,11755.0,99.5,5.25,,13.44,0.967,91.6,,59.5,5.0,,,,,,,,,,,,0.0,0.0,0.0,0.0,0.0,0.0,0.0,0.0,0.0,0.0,0.0,0.0,0.0,0.0,0.0,0.0,,,,,,0.0,,,,,,,
147,5862524,1745474461548,,,,,,,,,,,,,,,,,,,,,,,,,,,,,,,,,,0.0,0.0,0.0,0.0,0.0,0.0,0.0,0.0,0.0,0.0,0.0,0.0,0.0,0.0,0.0,0.0,,,,,,,,,,,,,
148,5862544,1745474461568,0.0,132.0,,0.64,-0.04,0.95,8.0,1.0,1.0,1.14,1.21,95.0,11706.0,99.5,5.27,,13.43,0.954,91.6,,59.5,5.0,,,,,,,,,,,,0.0,0.0,0.0,0.0,0.0,0.0,0.0,0.0,0.0,0.0,0.0,0.0,0.0,0.0,0.0,0.0,,,,,,0.0,,,,,,,
149,5862564,1745474461588,,,,,,,,,,,,,,,,,,,,,,,,,,,,,,,,,,0.0,0.0,0.0,0.0,0.0,0.0,0.0,0.0,0.0,0.0,0.0,0.0,0.0,0.0,0.0,0.0,,,,,,,,,,,,,
150,5862584,1745474461608,0.0,132.0,,0.69,-0.07,0.96,7.0,1.0,1.0,1.19,1.21,98.0,11523.0,99.5,5.34,,13.48,0.964,91.6,,57.7,5.0,11.0,0.0,33.0,33.0,3.9,58.0,50.0,0.0,2.27,,,0.0,0.0,0.0,0.0,0.0,0.0,0.0,0.0,0.0,0.0,0.0,0.0,0.0,0.0,0.0,0.0,,1.0,,,,0.0,38.994099,-76.939636,18.11,26.9,33.0,3.0,0.8
151,5862604,1745474461628,,,,,,,,,,,,,,,,,,,,,,,,,,,,,,,,,,0.0,0.0,0.0,0.0,0.0,0.0,0.0,0.0,0.0,0.0,0.0,0.0,0.0,0.0,0.0,0.0,,,,,,,,,,,,,
152,5862624,1745474461648,0.0,131.0,,0.72,-0.17,1.02,9.0,1.0,2.0,1.27,1.27,100.0,11289.0,99.4,5.43,,13.52,0.959,91.6,,57.7,5.0,,,,,,,,,,,,0.0,0.0,0.0,0.0,0.0,0.0,0.0,0.0,0.0,0.0,0.0,0.0,0.0,0.0,0.0,0.0,,,,,,0.0,,,,,,,
153,5862644,1745474461668,,,,,,,,,,,,,,,,,,,,,,,,,,,,,,,,,,0.0,0.0,0.0,0.0,0.0,0.0,0.0,0.0,0.0,0.0,0.0,0.0,0.0,0.0,0.0,0.0,,,,,,,,,,,,,
154,5862664,1745474461688,0.0,132.0,,0.71,-0.08,0.98,7.0,1.0,3.0,1.21,1.27,96.0,10999.0,99.5,5.51,,13.52,0.959,91.6,,53.1,5.0,,,,,,,,,,,,0.0,0.0,0.0,0.0,0.0,0.0,0.0,0.0,0.0,0.0,0.0,0.0,0.0,0.0,0.0,0.0,,,,,,0.0,,,,,,,
155,5862684,1745474461707,,,,,,,,,,,,,,,,,,,,,,,14.0,14.0,33.0,33.0,3.9,195.0,50.0,0.0,2.26,,,0.0,0.0,0.0,0.0,0.0,0.0,0.0,0.0,0.0,0.0,0.0,0.0,0.0,0.0,0.0,0.0,,1.0,,,,,38.994099,-76.939629,21.2,26.9,33.0,3.0,0.8
156,5862704,1745474461727,0.0,132.0,,0.72,-0.1,1.02,6.0,1.0,2.0,1.26,1.27,99.0,10999.0,99.5,5.51,,13.45,0.971,91.6,,53.1,5.0,,,,,,,,,,,,0.0,0.0,0.0,0.0,0.0,0.0,0.0,0.0,0.0,0.0,0.0,0.0,0.0,0.0,0.0,0.0,,,,,,0.0,,,,,,,
157,5862724,1745474461747,,,,,,,,,,,,,,,,,,,,,,,,,,,,,,,,,,0.0,0.0,0.0,0.0,0.0,0.0,0.0,0.0,0.0,0.0,0.0,0.0,0.0,0.0,0.0,0.0,,,,,,,,,,,,,
158,5862744,1745474461767,0.0,132.0,,0.78,-0.23,1.07,4.0,1.0,1.0,1.34,1.34,100.0,10975.0,99.5,5.53,,13.65,0.97,91.6,,56.4,5.0,,,,,,,,,,,,0.0,0.0,0.0,0.0,0.0,0.0,0.0,0.0,0.0,0.0,0.0,0.0,0.0,0.0,0.0,0.0,,,,,,0.0,,,,,,,
159,5862764,1745474461787,,,,,,,,,,,,,,,,,,,,,,,,,,,,,,,,,,0.0,0.0,0.0,0.0,0.0,0.0,0.0,0.0,0.0,0.0,0.0,0.0,0.0,0.0,0.0,0.0,,,,,,,,,,,,,
160,5862784,1745474461807,0.0,132.0,,0.8,-0.06,1.02,3.0,1.0,2.0,1.3,1.34,97.0,10964.0,99.6,5.54,,13.59,0.966,91.6,,56.4,5.0,16.0,25.0,33.0,34.0,3.9,86.0,30.0,0.0,2.26,,,0.0,0.0,0.0,0.0,0.0,0.0,0.0,0.0,0.0,0.0,0.0,0.0,0.0,0.0,0.0,0.0,,1.0,,,,0.0,38.994099,-76.939621,25.28,26.8,33.0,3.0,0.8
161,5862804,1745474461827,,,,,,,,,,,,,,,,,,,,,,,,,,,,,,,,,,0.0,0.0,0.0,0.0,0.0,0.0,0.0,0.0,0.0,0.0,0.0,0.0,0.0,0.0,0.0,0.0,,,,,,,,,,,,,
162,5862824,1745474461847,0.0,132.0,,0.86,-0.09,1.05,3.0,1.0,2.0,1.36,1.36,100.0,10727.0,99.5,5.65,,13.48,0.954,91.6,,56.4,5.0,,,,,,,,,,,,0.0,0.0,0.0,0.0,0.0,0.0,0.0,0.0,0.0,0.0,0.0,0.0,0.0,0.0,0.0,0.0,,,,,,0.0,,,,,,,
163,5862844,1745474461867,,,,,,,,,,,,,,,,,,,,,,,,,,,,,,,,,,0.0,0.0,0.0,0.0,0.0,0.0,0.0,0.0,0.0,0.0,0.0,0.0,0.0,0.0,0.0,0.0,,,,,,,,,,,,,
164,5862864,1745474461887,0.0,131.0,,0.88,-0.28,1.02,4.0,1.0,2.0,1.37,1.37,100.0,10399.0,99.5,5.85,,13.48,0.954,91.6,,52.3,5.0,,,,,,,,,,,,0.0,0.0,0.0,0.0,0.0,0.0,0.0,0.0,0.0,0.0,0.0,0.0,0.0,0.0,0.0,0.0,,,,,,0.0,,,,,,,
165,5862884,1745474461908,,,,,,,,,,,,,,,,,,,,,,,18.0,25.0,32.0,32.0,3.9,29.0,26.0,0.0,2.26,,,0.0,0.0,0.0,0.0,0.0,0.0,0.0,0.0,0.0,0.0,0.0,0.0,0.0,0.0,0.0,0.0,,1.0,,,,,38.994099,-76.939613,28.57,26.8,33.0,3.0,0.8
166,5862904,1745474461928,0.0,132.0,,0.93,-0.21,0.99,3.0,1.0,0.0,1.37,1.37,100.0,10399.0,99.5,5.85,,13.65,0.967,89.8,,52.3,5.0,,,,,,,,,,,,0.0,0.0,0.0,0.0,0.0,0.0,0.0,0.0,0.0,0.0,0.0,0.0,0.0,0.0,0.0,0.0,,,,,,0.0,,,,,,,
167,5862924,1745474461948,,,,,,,,,,,,,,,,,,,,,,,,,,,,,,,,,,0.0,0.0,0.0,0.0,0.0,0.0,0.0,0.0,0.0,0.0,0.0,0.0,0.0,0.0,0.0,0.0,,,,,,,,,,,,,
168,5862944,1745474461968,0.0,132.0,,0.92,0.21,1.0,2.0,0.0,1.0,1.37,1.37,100.0,10227.0,99.5,5.99,,13.75,0.958,89.8,,51.8,5.0,,,,,,,,,,,,0.0,0.0,0.0,0.0,0.0,0.0,0.0,0.0,0.0,0.0,0.0,0.0,0.0,0.0,0.0,0.0,,,,,,0.0,,,,,,,
169,5862964,1745474461988,,,,,,,,,,,,,,,,,,,,,,,,,,,,,,,,,,0.0,0.0,0.0,0.0,0.0,0.0,0.0,0.0,0.0,0.0,0.0,0.0,0.0,0.0,0.0,0.0,,,,,,,,,,,,,
170,5862984,1745474461997,0.0,132.0,,0.89,-0.09,1.07,4.0,0.0,0.0,1.39,1.39,100.0,10273.0,99.5,5.96,,13.71,0.942,89.8,,51.8,5.0,21.0,25.0,30.0,31.0,3.9,231.0,17.0,0.0,2.26,,,0.0,0.0,0.0,0.0,0.0,0.0,0.0,0.0,0.0,0.0,0.0,0.0,0.0,0.0,0.0,0.0,,0.0,,,,0.0,38.994102,-76.939606,33.21,26.8,33.0,3.0,0.8
171,5863004,1745474462017,,,,,,,,,,,,,,,,,,,,,,,,,,,,,,,,,,0.0,0.0,0.0,0.0,0.0,0.0,0.0,0.0,0.0,0.0,0.0,0.0,0.0,0.0,0.0,0.0,,,,,,,,,,,,,
172,5863024,1745474462037,0.0,131.0,,0.92,-0.41,0.98,5.0,0.0,-1.0,1.41,1.41,100.0,10187.0,99.5,5.99,,13.71,0.942,89.8,,51.8,5.0,,,,,,,,,,,,0.0,0.0,0.0,0.0,0.0,0.0,0.0,0.0,0.0,0.0,0.0,0.0,0.0,0.0,0.0,0.0,,,,,,0.0,,,,,,,
173,5863044,1745474462057,,,,,,,,,,,,,,,,,,,,,,,,,,,,,,,,,,0.0,0.0,0.0,0.0,0.0,0.0,0.0,0.0,0.0,0.0,0.0,0.0,0.0,0.0,0.0,0.0,,,,,,,,,,,,,
174,5863064,1745474462077,0.0,131.0,,0.92,-0.47,1.03,4.0,0.0,-1.0,1.46,1.46,100.0,10008.0,99.6,6.07,,13.65,0.937,89.8,,51.5,5.0,,,,,,,,,,,,0.0,0.0,0.0,0.0,0.0,0.0,0.0,0.0,0.0,0.0,0.0,0.0,0.0,0.0,0.0,0.0,,,,,,0.0,,,,,,,
175,5863084,1745474462099,,,,,,,,,,,,,,,,,,,,,,,24.0,25.0,29.0,31.0,3.9,237.0,12.0,0.0,2.27,,,0.0,0.0,0.0,0.0,0.0,0.0,0.0,0.0,0.0,0.0,0.0,0.0,0.0,0.0,0.0,0.0,,1.0,,,,,38.994102,-76.93959,36.63,26.8,33.0,3.0,0.8
176,5863104,1745474462119,0.0,131.0,,0.94,-0.44,0.99,2.0,0.0,0.0,1.44,1.46,98.0,10008.0,99.6,6.07,,13.65,0.929,89.8,,51.5,5.0,,,,,,,,,,,,0.0,0.0,0.0,0.0,0.0,0.0,0.0,0.0,0.0,0.0,0.0,0.0,0.0,0.0,0.0,0.0,,,,,,0.0,,,,,,,
177,5863124,1745474462139,,,,,,,,,,,,,,,,,,,,,,,,,,,,,,,,,,0.0,0.0,0.0,0.0,0.0,0.0,0.0,0.0,0.0,0.0,0.0,0.0,0.0,0.0,0.0,0.0,,,,,,,,,,,,,
178,5863144,1745474462159,0.0,131.0,,0.92,-0.55,0.97,-1.0,-1.0,-1.0,1.45,1.46,99.0,9892.0,99.6,6.08,,13.8,0.912,89.8,,51.5,5.0,,,,,,,,,,,,0.0,0.0,0.0,0.0,0.0,0.0,0.0,0.0,0.0,0.0,0.0,0.0,0.0,0.0,0.0,0.0,,,,,,0.0,,,,,,,
179,5863164,1745474462179,,,,,,,,,,,,,,,,,,,,,,,,,,,,,,,,,,0.0,0.0,0.0,0.0,0.0,0.0,0.0,0.0,0.0,0.0,0.0,0.0,0.0,0.0,0.0,0.0,,,,,,,,,,,,,
180,5863184,1745474462207,0.0,131.0,,0.9,-0.64,0.98,-2.0,0.0,0.0,1.47,1.47,100.0,10185.0,99.4,6.0,,13.67,0.905,89.8,,51.9,5.0,25.0,25.0,29.0,33.0,3.9,24.0,18.0,0.0,2.27,,,0.0,0.0,0.0,0.0,0.0,0.0,0.0,0.0,0.0,0.0,0.0,0.0,0.0,0.0,0.0,0.0,,0.0,,,,0.0,38.994102,-76.939575,40.74,26.8,33.0,3.0,0.8
181,5863204,1745474462227,,,,,,,,,,,,,,,,,,,,,,,,,,,,,,,,,,0.0,0.0,0.0,0.0,0.0,0.0,0.0,0.0,0.0,0.0,0.0,0.0,0.0,0.0,0.0,0.0,,,,,,,,,,,,,
182,5863224,1745474462247,0.0,132.0,,0.92,-0.67,0.95,-3.0,0.0,0.0,1.48,1.48,100.0,10078.0,48.8,5.34,,13.08,0.889,89.8,,51.9,5.0,,,,,,,,,,,,0.0,0.0,0.0,0.0,0.0,0.0,0.0,0.0,0.0,0.0,0.0,0.0,0.0,0.0,0.0,0.0,,,,,,0.0,,,,,,,
183,5863244,1745474462267,,,,,,,,,,,,,,,,,,,,,,,,,,,,,,,,,,0.0,0.0,0.0,0.0,0.0,0.0,0.0,0.0,0.0,0.0,0.0,0.0,0.0,0.0,0.0,0.0,,,,,,,,,,,,,
184,5863264,1745474462287,0.0,131.0,,0.92,-0.89,0.9,-6.0,1.0,0.0,1.56,1.56,100.0,10078.0,48.8,5.34,,13.08,0.889,89.8,,57.0,5.0,,,,,,,,,,,,0.0,0.0,0.0,0.0,0.0,0.0,0.0,0.0,0.0,0.0,0.0,0.0,0.0,0.0,0.0,0.0,,,,,,0.0,,,,,,,
185,5863284,1745474462307,,,,,,,,,,,,,,,,,,,,,,,27.0,30.0,30.0,31.0,3.9,72.0,6.0,0.0,2.26,,,0.0,0.0,0.0,0.0,0.0,0.0,0.0,0.0,0.0,0.0,0.0,0.0,0.0,0.0,0.0,0.0,,0.0,,,,,38.994102,-76.939568,43.59,26.8,33.0,3.0,0.8
186,5863304,1745474462327,0.0,131.0,,0.85,-0.74,0.95,-7.0,0.0,0.0,1.47,1.56,94.0,9746.0,32.0,5.04,,11.88,0.882,89.8,,57.0,5.0,,,,,,,,,,,,0.0,0.0,0.0,0.0,0.0,0.0,0.0,0.0,0.0,0.0,0.0,0.0,0.0,0.0,0.0,0.0,,,,,,0.0,,,,,,,
187,5863324,1745474462347,,,,,,,,,,,,,,,,,,,,,,,,,,,,,,,,,,0.0,0.0,0.0,0.0,0.0,0.0,0.0,0.0,0.0,0.0,0.0,0.0,0.0,0.0,0.0,0.0,,,,,,,,,,,,,
188,5863344,1745474462367,0.0,131.0,,0.76,-0.82,1.01,-8.0,-1.0,0.0,1.5,1.56,96.0,9874.0,28.2,4.9,,11.26,0.87,89.8,,57.7,5.0,,,,,,,,,,,,0.0,0.0,0.0,0.0,0.0,0.0,0.0,0.0,0.0,0.0,0.0,0.0,0.0,0.0,0.0,0.0,,,,,,0.0,,,,,,,
189,5863364,1745474462387,,,,,,,,,,,,,,,,,,,,,,,,,,,,,,,,,,0.0,0.0,0.0,0.0,0.0,0.0,0.0,0.0,0.0,0.0,0.0,0.0,0.0,0.0,0.0,0.0,,,,,,,,,,,,,
190,5863384,1745474462409,0.0,131.0,13.08,0.67,-0.73,0.97,-13.0,-2.0,1.0,1.39,1.56,89.0,10158.0,27.0,4.27,15.0,10.61,0.832,89.8,176.0,57.7,5.0,28.0,31.0,31.0,31.0,3.9,13.0,0.0,0.0,2.26,0.0,1.0,0.0,0.0,0.0,0.0,0.0,0.0,0.0,0.0,0.0,0.0,0.0,0.0,0.0,0.0,0.0,0.0,0.0,0.0,1.0,0.0,0.0,0.0,38.994102,-76.939552,47.57,26.7,33.0,3.0,0.8
191,5863404,1745474462429,,,,,,,,,,,,,,,,,,,,,,,,,,,,,,,,,,0.0,0.0,0.0,0.0,0.0,0.0,0.0,0.0,0.0,0.0,0.0,0.0,0.0,0.0,0.0,0.0,,,,,,,,,,,,,
192,5863424,1745474462449,0.0,131.0,,0.57,-0.78,0.95,-16.0,-2.0,0.0,1.36,1.56,87.0,10457.0,16.4,3.49,,9.85,0.805,89.8,,57.7,5.0,,,,,,,,,,,,0.0,0.0,0.0,0.0,0.0,0.0,0.0,0.0,0.0,0.0,0.0,0.0,0.0,0.0,0.0,0.0,,,,,,0.0,,,,,,,
193,5863444,1745474462469,,,,,,,,,,,,,,,,,,,,,,,,,,,,,,,,,,0.0,0.0,0.0,0.0,0.0,0.0,0.0,0.0,0.0,0.0,0.0,0.0,0.0,0.0,0.0,0.0,,,,,,,,,,,,,
194,5863464,1745474462489,0.0,131.0,,0.51,-0.6,0.95,-21.0,-1.0,1.0,1.23,1.56,79.0,10457.0,16.4,3.49,,9.85,0.805,89.8,,53.9,5.0,,,,,,,,,,,,0.0,0.0,0.0,0.0,0.0,0.0,0.0,0.0,0.0,0.0,0.0,0.0,0.0,0.0,0.0,0.0,,,,,,0.0,,,,,,,
195,5863484,1745474462509,,,,,,,,,,,,,,,,,,,,,,,29.0,32.0,32.0,32.0,3.9,227.0,0.0,0.0,2.27,,,0.0,0.0,0.0,0.0,0.0,0.0,0.0,0.0,0.0,0.0,0.0,0.0,0.0,0.0,0.0,0.0,,1.0,,,,,38.994102,-76.939537,48.71,26.7,33.0,3.0,0.8
196,5863504,1745474462529,0.0,130.0,,0.48,-0.52,0.99,-23.0,-1.0,2.0,1.22,1.56,78.0,10671.0,7.2,2.29,,8.26,0.822,89.8,,53.9,5.0,,,,,,,,,,,,0.0,0.0,0.0,0.0,0.0,0.0,0.0,0.0,0.0,0.0,0.0,0.0,0.0,0.0,0.0,0.0,,,,,,0.0,,,,,,,
197,5863524,1745474462549,,,,,,,,,,,,,,,,,,,,,,,,,,,,,,,,,,0.0,0.0,0.0,0.0,0.0,0.0,0.0,0.0,0.0,0.0,0.0,0.0,0.0,0.0,0.0,0.0,,,,,,,,,,,,,
198,5863544,1745474462569,0.0,131.0,,0.43,-0.41,0.96,-25.0,-1.0,2.0,1.12,1.12,100.0,10438.0,1.7,1.4,,6.83,0.826,89.8,,53.9,5.0,,,,,,,,,,,,0.0,0.0,0.0,0.0,0.0,0.0,0.0,0.0,0.0,0.0,0.0,0.0,0.0,0.0,0.0,0.0,,,,,,0.0,,,,,,,
199,5863564,1745474462589,,,,,,,,,,,,,,,,,,,,,,,,,,,,,,,,,,0.0,0.0,0.0,0.0,0.0,0.0,0.0,0.0,0.0,0.0,0.0,0.0,0.0,0.0,0.0,0.0,,,,,,,,,,,,,
200,5863584,1745474462609,0.0,130.0,,0.31,-0.52,0.88,-26.0,-2.0,2.0,1.07,1.12,95.0,10135.0,0.5,1.4,,6.23,0.842,89.8,,52.9,5.0,30.0,33.0,30.0,33.0,3.9,220.0,0.0,0.0,2.27,,,0.0,0.0,0.0,0.0,0.0,0.0,0.0,0.0,0.0,0.0,0.0,0.0,0.0,0.0,0.0,0.0,,0.0,,,,0.0,38.994102,-76.939522,48.59,26.7,33.0,3.0,0.8
201,5863604,1745474462629,,,,,,,,,,,,,,,,,,,,,,,,,,,,,,,,,,0.0,0.0,0.0,0.0,0.0,0.0,0.0,0.0,0.0,0.0,0.0,0.0,0.0,0.0,0.0,0.0,,,,,,,,,,,,,
202,5863624,1745474462649,0.0,130.0,,0.21,-0.51,0.84,-30.0,-1.0,2.0,1.0,1.12,89.0,10033.0,0.3,1.4,,5.75,0.888,89.8,,52.9,5.0,,,,,,,,,,,,0.0,0.0,0.0,0.0,0.0,0.0,0.0,0.0,0.0,0.0,0.0,0.0,0.0,0.0,0.0,0.0,,,,,,0.0,,,,,,,
203,5863644,1745474462669,,,,,,,,,,,,,,,,,,,,,,,,,,,,,,,,,,0.0,0.0,0.0,0.0,0.0,0.0,0.0,0.0,0.0,0.0,0.0,0.0,0.0,0.0,0.0,0.0,,,,,,,,,,,,,
204,5863664,1745474462689,0.0,130.0,,0.09,-0.7,0.8,-33.0,0.0,1.0,1.06,1.12,95.0,10033.0,0.3,1.4,,5.75,0.888,89.8,,50.3,5.0,,,,,,,,,,,,0.0,0.0,0.0,0.0,0.0,0.0,0.0,0.0,0.0,0.0,0.0,0.0,0.0,0.0,0.0,0.0,,,,,,0.0,,,,,,,
205,5863684,1745474462710,,,,,,,,,,,,,,,,,,,,,,,30.0,31.0,29.0,32.0,3.9,198.0,0.0,0.0,2.26,,,0.0,0.0,0.0,0.0,0.0,0.0,0.0,0.0,0.0,0.0,0.0,0.0,0.0,0.0,0.0,0.0,,0.0,,,,,38.994099,-76.939506,49.49,26.6,33.0,3.0,0.8
206,5863704,1745474462730,0.0,130.0,,0.04,-0.8,0.79,-35.0,0.0,2.0,1.12,1.12,100.0,9953.0,0.3,1.4,,5.48,0.948,89.8,,50.3,5.0,,,,,,,,,,,,0.0,0.0,0.0,0.0,0.0,0.0,0.0,0.0,0.0,0.0,0.0,0.0,0.0,0.0,0.0,0.0,,,,,,0.0,,,,,,,
207,5863724,1745474462750,,,,,,,,,,,,,,,,,,,,,,,,,,,,,,,,,,0.0,0.0,0.0,0.0,0.0,0.0,0.0,0.0,0.0,0.0,0.0,0.0,0.0,0.0,0.0,0.0,,,,,,,,,,,,,
208,5863744,1745474462770,0.0,130.0,,-0.01,-0.84,0.85,-37.0,-1.0,3.0,1.2,1.2,100.0,9831.0,0.6,1.4,,5.28,0.97,89.8,,48.2,5.0,,,,,,,,,,,,0.0,0.0,0.0,0.0,0.0,0.0,0.0,0.0,0.0,0.0,0.0,0.0,0.0,0.0,0.0,0.0,,,,,,0.0,,,,,,,
209,5863764,1745474462790,,,,,,,,,,,,,,,,,,,,,,,,,,,,,,,,,,0.0,0.0,0.0,0.0,0.0,0.0,0.0,0.0,0.0,0.0,0.0,0.0,0.0,0.0,0.0,0.0,,,,,,,,,,,,,
210,5863784,1745474462808,0.0,129.0,,-0.12,-0.98,0.86,-39.0,-2.0,2.0,1.31,1.31,100.0,9692.0,0.8,1.4,,5.14,0.987,89.8,,48.2,5.0,29.0,30.0,29.0,32.0,3.9,250.0,0.0,0.0,2.26,,,0.0,0.0,0.0,0.0,0.0,0.0,0.0,0.0,0.0,0.0,0.0,0.0,0.0,0.0,0.0,0.0,,0.0,,,,0.0,38.994095,-76.939491,47.73,26.6,33.0,3.0,0.8
211,5863804,1745474462828,,,,,,,,,,,,,,,,,,,,,,,,,,,,,,,,,,0.0,0.0,0.0,0.0,0.0,0.0,0.0,0.0,0.0,0.0,0.0,0.0,0.0,0.0,0.0,0.0,,,,,,,,,,,,,
212,5863824,1745474462848,0.0,129.0,,-0.23,-1.0,0.83,-42.0,-2.0,3.0,1.32,1.32,100.0,9652.0,0.8,1.4,,5.14,0.987,89.8,,48.2,5.0,,,,,,,,,,,,0.0,0.0,0.0,0.0,0.0,0.0,0.0,0.0,0.0,0.0,0.0,0.0,0.0,0.0,0.0,0.0,,,,,,0.0,,,,,,,
213,5863844,1745474462868,,,,,,,,,,,,,,,,,,,,,,,,,,,,,,,,,,0.0,0.0,0.0,0.0,0.0,0.0,0.0,0.0,0.0,0.0,0.0,0.0,0.0,0.0,0.0,0.0,,,,,,,,,,,,,
214,5863864,1745474462888,0.0,130.0,,-0.25,-0.96,0.83,-46.0,-1.0,2.0,1.3,1.32,98.0,9437.0,0.7,1.4,,4.97,1.002,89.8,,47.7,5.0,,,,,,,,,,,,0.0,0.0,0.0,0.0,0.0,0.0,0.0,0.0,0.0,0.0,0.0,0.0,0.0,0.0,0.0,0.0,,,,,,0.0,,,,,,,
215,5863884,1745474462908,,,,,,,,,,,,,,,,,,,,,,,28.0,32.0,26.0,33.0,3.9,35.0,0.0,0.0,2.26,,,0.0,0.0,0.0,0.0,0.0,0.0,0.0,0.0,0.0,0.0,0.0,0.0,0.0,0.0,0.0,0.0,,0.0,,,,,38.994095,-76.939476,47.65,26.6,33.0,3.0,0.8
216,5863904,1745474462928,0.0,129.0,,-0.34,-1.17,0.83,-50.0,0.0,2.0,1.47,1.47,100.0,9437.0,0.7,1.4,,4.91,1.035,88.0,,47.7,5.0,,,,,,,,,,,,0.0,0.0,0.0,0.0,0.0,0.0,0.0,0.0,0.0,0.0,0.0,0.0,0.0,0.0,0.0,0.0,,,,,,0.0,,,,,,,
217,5863924,1745474462948,,,,,,,,,,,,,,,,,,,,,,,,,,,,,,,,,,0.0,0.0,0.0,0.0,0.0,0.0,0.0,0.0,0.0,0.0,0.0,0.0,0.0,0.0,0.0,0.0,,,,,,,,,,,,,
218,5863944,1745474462968,0.0,129.0,,-0.4,-1.07,0.86,-51.0,-1.0,2.0,1.43,1.47,97.0,9282.0,0.4,1.4,,4.81,1.069,88.0,,47.1,5.0,,,,,,,,,,,,0.0,0.0,0.0,0.0,0.0,0.0,0.0,0.0,0.0,0.0,0.0,0.0,0.0,0.0,0.0,0.0,,,,,,0.0,,,,,,,
219,5863964,1745474462988,,,,,,,,,,,,,,,,,,,,,,,,,,,,,,,,,,0.0,0.0,0.0,0.0,0.0,0.0,0.0,0.0,0.0,0.0,0.0,0.0,0.0,0.0,0.0,0.0,,,,,,,,,,,,,
220,5863984,1745474463000,0.0,130.0,,-0.44,-0.95,0.84,-54.0,-1.0,3.0,1.34,1.47,91.0,9206.0,0.5,1.4,,4.8,1.165,88.0,,47.1,5.0,27.0,31.0,25.0,30.0,3.9,223.0,0.0,0.0,2.27,,,0.0,0.0,0.0,0.0,0.0,0.0,0.0,0.0,0.0,0.0,0.0,0.0,0.0,0.0,0.0,0.0,,0.0,,,,0.0,38.994091,-76.939461,44.88,26.6,32.0,3.0,0.8
221,5864004,1745474463020,,,,,,,,,,,,,,,,,,,,,,,,,,,,,,,,,,0.0,0.0,0.0,0.0,0.0,0.0,0.0,0.0,0.0,0.0,0.0,0.0,0.0,0.0,0.0,0.0,,,,,,,,,,,,,
222,5864024,1745474463040,0.0,130.0,,-0.52,-1.06,0.81,-57.0,0.0,2.0,1.43,1.47,97.0,8996.0,0.4,1.4,,4.83,1.247,88.0,,47.1,5.0,,,,,,,,,,,,0.0,0.0,0.0,0.0,0.0,0.0,0.0,0.0,0.0,0.0,0.0,0.0,0.0,0.0,0.0,0.0,,,,,,0.0,,,,,,,
223,5864044,1745474463060,,,,,,,,,,,,,,,,,,,,,,,,,,,,,,,,,,0.0,0.0,0.0,0.0,0.0,0.0,0.0,0.0,0.0,0.0,0.0,0.0,0.0,0.0,0.0,0.0,,,,,,,,,,,,,
224,5864064,1745474463080,0.0,130.0,,-0.55,-0.94,0.8,-59.0,0.0,2.0,1.36,1.47,92.0,8765.0,0.4,1.4,,4.83,1.247,88.0,,47.4,5.0,,,,,,,,,,,,0.0,0.0,0.0,0.0,0.0,0.0,0.0,0.0,0.0,0.0,0.0,0.0,0.0,0.0,0.0,0.0,,,,,,0.0,,,,,,,
225,5864084,1745474463108,,,,,,,,,,,,,,,,,,,,,,,24.0,30.0,24.0,30.0,3.9,45.0,0.0,0.0,2.27,,,0.0,0.0,0.0,0.0,0.0,0.0,0.0,0.0,0.0,0.0,0.0,0.0,0.0,0.0,0.0,0.0,,0.0,,,,,38.994083,-76.939453,44.49,26.5,32.0,3.0,0.8
226,5864104,1745474463128,0.0,130.0,,-0.6,-0.84,0.85,-61.0,1.0,2.0,1.34,1.47,91.0,8765.0,0.4,1.4,,4.93,1.25,88.0,,47.4,5.0,,,,,,,,,,,,0.0,0.0,0.0,0.0,0.0,0.0,0.0,0.0,0.0,0.0,0.0,0.0,0.0,0.0,0.0,0.0,,,,,,0.0,,,,,,,
227,5864124,1745474463148,,,,,,,,,,,,,,,,,,,,,,,,,,,,,,,,,,0.0,0.0,0.0,0.0,0.0,0.0,0.0,0.0,0.0,0.0,0.0,0.0,0.0,0.0,0.0,0.0,,,,,,,,,,,,,
228,5864144,1745474463168,0.0,130.0,,-0.6,-0.89,0.89,-61.0,1.0,2.0,1.4,1.47,95.0,8569.0,0.6,1.4,,4.97,1.252,88.0,,47.3,5.0,,,,,,,,,,,,0.0,0.0,0.0,0.0,0.0,0.0,0.0,0.0,0.0,0.0,0.0,0.0,0.0,0.0,0.0,0.0,,,,,,0.0,,,,,,,
229,5864164,1745474463188,,,,,,,,,,,,,,,,,,,,,,,,,,,,,,,,,,0.0,0.0,0.0,0.0,0.0,0.0,0.0,0.0,0.0,0.0,0.0,0.0,0.0,0.0,0.0,0.0,,,,,,,,,,,,,
230,5864184,1745474463210,0.0,130.0,,-0.62,-0.95,0.9,-64.0,1.0,1.0,1.44,1.47,98.0,8364.0,5.8,1.59,,5.43,1.252,88.0,,47.3,5.0,26.0,28.0,23.0,27.0,3.9,203.0,0.0,0.0,2.26,,,0.0,0.0,0.0,0.0,0.0,0.0,0.0,0.0,0.0,0.0,0.0,0.0,0.0,0.0,0.0,0.0,,0.0,,,,0.0,38.994076,-76.939438,42.32,26.5,32.0,3.0,0.8
231,5864204,1745474463230,,,,,,,,,,,,,,,,,,,,,,,,,,,,,,,,,,0.0,0.0,0.0,0.0,0.0,0.0,0.0,0.0,0.0,0.0,0.0,0.0,0.0,0.0,0.0,0.0,,,,,,,,,,,,,
232,5864224,1745474463250,0.0,130.0,,-0.63,-0.99,0.89,-64.0,1.0,1.0,1.47,1.47,100.0,8174.0,11.6,1.95,,6.36,1.252,88.0,,47.3,5.0,,,,,,,,,,,,0.0,0.0,0.0,0.0,0.0,0.0,0.0,0.0,0.0,0.0,0.0,0.0,0.0,0.0,0.0,0.0,,,,,,0.0,,,,,,,
233,5864244,1745474463270,,,,,,,,,,,,,,,,,,,,,,,,,,,,,,,,,,0.0,0.0,0.0,0.0,0.0,0.0,0.0,0.0,0.0,0.0,0.0,0.0,0.0,0.0,0.0,0.0,,,,,,,,,,,,,
234,5864264,1745474463290,0.0,130.0,,-0.65,-1.04,0.87,-67.0,1.0,0.0,1.51,1.51,100.0,8133.0,17.9,2.42,,6.36,1.252,88.0,,47.5,5.0,,,,,,,,,,,,0.0,0.0,0.0,0.0,0.0,0.0,0.0,0.0,0.0,0.0,0.0,0.0,0.0,0.0,0.0,0.0,,,,,,0.0,,,,,,,
235,5864284,1745474463308,,,,,,,,,,,,,,,,,,,,,,,24.0,27.0,22.0,29.0,3.9,229.0,0.0,0.0,2.26,,,0.0,0.0,0.0,0.0,0.0,0.0,0.0,0.0,0.0,0.0,0.0,0.0,0.0,0.0,0.0,0.0,,0.0,,,,,38.994068,-76.93943,40.5,26.5,32.0,3.0,0.8
236,5864304,1745474463328,0.0,130.0,,-0.64,-1.01,0.88,-67.0,1.0,0.0,1.48,1.48,100.0,8133.0,17.9,2.42,,7.59,1.25,88.0,,47.5,5.0,,,,,,,,,,,,0.0,0.0,0.0,0.0,0.0,0.0,0.0,0.0,0.0,0.0,0.0,0.0,0.0,0.0,0.0,0.0,,,,,,0.0,,,,,,,
237,5864324,1745474463348,,,,,,,,,,,,,,,,,,,,,,,,,,,,,,,,,,0.0,0.0,0.0,0.0,0.0,0.0,0.0,0.0,0.0,0.0,0.0,0.0,0.0,0.0,0.0,0.0,,,,,,,,,,,,,
238,5864344,1745474463368,0.0,130.0,,-0.65,-1.03,0.85,-68.0,1.0,1.0,1.49,1.49,100.0,8205.0,20.0,3.25,,8.7,1.25,88.0,,47.0,5.0,,,,,,,,,,,,0.0,0.0,0.0,0.0,0.0,0.0,0.0,0.0,0.0,0.0,0.0,0.0,0.0,0.0,0.0,0.0,,,,,,0.0,,,,,,,
239,5864364,1745474463388,,,,,,,,,,,,,,,,,,,,,,,,,,,,,,,,,,0.0,0.0,0.0,0.0,0.0,0.0,0.0,0.0,0.0,0.0,0.0,0.0,0.0,0.0,0.0,0.0,,,,,,,,,,,,,
240,5864384,1745474463410,0.0,129.0,13.14,-0.63,-1.25,0.91,-67.0,1.0,2.0,1.67,1.67,100.0,8678.0,20.1,3.34,15.0,9.37,1.25,88.0,176.0,47.0,5.0,22.0,25.0,23.0,27.0,3.9,239.0,1.0,0.0,2.27,0.0,1.0,0.0,0.0,0.0,0.0,0.0,0.0,0.0,0.0,0.0,0.0,0.0,0.0,0.0,0.0,0.0,0.0,0.0,0.0,1.0,0.0,0.0,0.0,38.99406,-76.939423,39.26,26.5,32.0,3.0,0.8
241,5864404,1745474463430,,,,,,,,,,,,,,,,,,,,,,,,,,,,,,,,,,0.0,0.0,0.0,0.0,0.0,0.0,0.0,0.0,0.0,0.0,0.0,0.0,0.0,0.0,0.0,0.0,,,,,,,,,,,,,
242,5864424,1745474463450,0.0,130.0,,-0.64,-1.38,0.94,-66.0,1.0,1.0,1.79,1.79,100.0,9240.0,19.5,3.26,,9.38,1.113,88.0,,47.0,5.0,,,,,,,,,,,,0.0,0.0,0.0,0.0,0.0,0.0,0.0,0.0,0.0,0.0,0.0,0.0,0.0,0.0,0.0,0.0,,,,,,0.0,,,,,,,
243,5864444,1745474463470,,,,,,,,,,,,,,,,,,,,,,,,,,,,,,,,,,0.0,0.0,0.0,0.0,0.0,0.0,0.0,0.0,0.0,0.0,0.0,0.0,0.0,0.0,0.0,0.0,,,,,,,,,,,,,
244,5864464,1745474463490,0.0,130.0,,-0.56,-1.46,0.89,-68.0,2.0,0.0,1.8,1.8,100.0,9447.0,18.7,3.24,,9.38,1.113,88.0,,48.7,5.0,,,,,,,,,,,,0.0,0.0,0.0,0.0,0.0,0.0,0.0,0.0,0.0,0.0,0.0,0.0,0.0,0.0,0.0,0.0,,,,,,0.0,,,,,,,
245,5864484,1745474463505,,,,,,,,,,,,,,,,,,,,,,,22.0,25.0,31.0,25.0,3.9,157.0,12.0,0.0,2.27,,,0.0,0.0,0.0,0.0,0.0,0.0,0.0,0.0,0.0,0.0,0.0,0.0,0.0,0.0,0.0,0.0,,0.0,,,,,38.994053,-76.939415,38.01,26.5,32.0,3.0,0.8
246,5864504,1745474463525,0.0,130.0,,-0.49,-1.35,0.93,-67.0,3.0,0.0,1.71,1.8,95.0,9447.0,18.7,3.24,,9.06,1.031,88.0,,48.7,5.0,,,,,,,,,,,,0.0,0.0,0.0,0.0,0.0,0.0,0.0,0.0,0.0,0.0,0.0,0.0,0.0,0.0,0.0,0.0,,,,,,0.0,,,,,,,
247,5864524,1745474463545,,,,,,,,,,,,,,,,,,,,,,,,,,,,,,,,,,0.0,0.0,0.0,0.0,0.0,0.0,0.0,0.0,0.0,0.0,0.0,0.0,0.0,0.0,0.0,0.0,,,,,,,,,,,,,
248,5864544,1745474463565,0.0,130.0,,-0.4,-1.36,0.94,-66.0,3.0,1.0,1.7,1.8,94.0,9556.0,16.5,3.11,,8.79,1.046,88.0,,48.6,5.0,,,,,,,,,,,,0.0,0.0,0.0,0.0,0.0,0.0,0.0,0.0,0.0,0.0,0.0,0.0,0.0,0.0,0.0,0.0,,,,,,0.0,,,,,,,
249,5864564,1745474463585,,,,,,,,,,,,,,,,,,,,,,,,,,,,,,,,,,0.0,0.0,0.0,0.0,0.0,0.0,0.0,0.0,0.0,0.0,0.0,0.0,0.0,0.0,0.0,0.0,,,,,,,,,,,,,
250,5864584,1745474463604,0.0,129.0,,-0.35,-1.5,0.99,-62.0,2.0,0.0,1.83,1.83,100.0,9120.0,7.5,2.57,,8.13,1.051,88.0,,48.6,5.0,22.0,30.0,28.0,29.0,3.9,67.0,21.0,0.0,2.26,,,0.0,0.0,0.0,0.0,0.0,0.0,0.0,0.0,0.0,0.0,0.0,0.0,0.0,0.0,0.0,0.0,,0.0,,,,0.0,38.994041,-76.939415,38.04,26.5,32.0,3.0,0.8
251,5864604,1745474463624,,,,,,,,,,,,,,,,,,,,,,,,,,,,,,,,,,0.0,0.0,0.0,0.0,0.0,0.0,0.0,0.0,0.0,0.0,0.0,0.0,0.0,0.0,0.0,0.0,,,,,,,,,,,,,
252,5864624,1745474463644,0.0,130.0,,-0.4,-1.53,0.99,-60.0,1.0,1.0,1.87,1.87,100.0,8637.0,2.7,1.4,,7.39,1.036,88.0,,48.6,5.0,,,,,,,,,,,,0.0,0.0,0.0,0.0,0.0,0.0,0.0,0.0,0.0,0.0,0.0,0.0,0.0,0.0,0.0,0.0,,,,,,0.0,,,,,,,
253,5864644,1745474463664,,,,,,,,,,,,,,,,,,,,,,,,,,,,,,,,,,0.0,0.0,0.0,0.0,0.0,0.0,0.0,0.0,0.0,0.0,0.0,0.0,0.0,0.0,0.0,0.0,,,,,,,,,,,,,
254,5864664,1745474463684,0.0,130.0,,-0.42,-1.4,1.03,-59.0,1.0,1.0,1.79,1.87,96.0,8050.0,3.7,1.67,,7.39,1.036,88.0,,47.8,5.0,,,,,,,,,,,,0.0,0.0,0.0,0.0,0.0,0.0,0.0,0.0,0.0,0.0,0.0,0.0,0.0,0.0,0.0,0.0,,,,,,0.0,,,,,,,
255,5864684,1745474463703,,,,,,,,,,,,,,,,,,,,,,,22.0,24.0,26.0,26.0,3.9,7.0,0.0,0.0,2.26,,,0.0,0.0,0.0,0.0,0.0,0.0,0.0,0.0,0.0,0.0,0.0,0.0,0.0,0.0,0.0,0.0,,0.0,,,,,38.994034,-76.939407,40.55,26.4,32.0,3.0,0.8
256,5864704,1745474463723,0.0,128.0,,-0.44,-1.48,1.01,-59.0,1.0,0.0,1.84,1.87,99.0,8050.0,3.7,1.67,,6.98,1.014,88.0,,47.8,5.0,,,,,,,,,,,,0.0,0.0,0.0,0.0,0.0,0.0,0.0,0.0,0.0,0.0,0.0,0.0,0.0,0.0,0.0,0.0,,,,,,0.0,,,,,,,
257,5864724,1745474463743,,,,,,,,,,,,,,,,,,,,,,,,,,,,,,,,,,0.0,0.0,0.0,0.0,0.0,0.0,0.0,0.0,0.0,0.0,0.0,0.0,0.0,0.0,0.0,0.0,,,,,,,,,,,,,
258,5864744,1745474463763,0.0,129.0,,-0.51,-1.49,0.99,-59.0,1.0,0.0,1.86,1.87,100.0,7568.0,4.0,1.99,,6.87,1.051,88.0,,47.8,5.0,,,,,,,,,,,,0.0,0.0,0.0,0.0,0.0,0.0,0.0,0.0,0.0,0.0,0.0,0.0,0.0,0.0,0.0,0.0,,,,,,0.0,,,,,,,
259,5864764,1745474463783,,,,,,,,,,,,,,,,,,,,,,,,,,,,,,,,,,0.0,0.0,0.0,0.0,0.0,0.0,0.0,0.0,0.0,0.0,0.0,0.0,0.0,0.0,0.0,0.0,,,,,,,,,,,,,
260,5864784,1745474463803,0.0,127.0,,-0.61,-1.56,0.96,-58.0,0.0,1.0,1.93,1.93,100.0,7550.0,3.9,1.92,,6.96,1.249,88.0,,47.5,5.0,22.0,23.0,22.0,23.0,3.9,183.0,0.0,0.0,2.26,,,0.0,0.0,0.0,0.0,0.0,0.0,0.0,0.0,0.0,0.0,0.0,0.0,0.0,0.0,0.0,0.0,,0.0,,,,0.0,38.994022,-76.939407,38.65,26.4,32.0,3.0,0.8
261,5864804,1745474463823,,,,,,,,,,,,,,,,,,,,,,,,,,,,,,,,,,0.0,0.0,0.0,0.0,0.0,0.0,0.0,0.0,0.0,0.0,0.0,0.0,0.0,0.0,0.0,0.0,,,,,,,,,,,,,
262,5864824,1745474463843,0.0,129.0,,-0.62,-1.53,1.01,-58.0,-1.0,1.0,1.94,1.94,100.0,7762.0,3.7,1.9,,6.84,1.249,88.0,,47.5,5.0,,,,,,,,,,,,0.0,0.0,0.0,0.0,0.0,0.0,0.0,0.0,0.0,0.0,0.0,0.0,0.0,0.0,0.0,0.0,,,,,,0.0,,,,,,,
263,5864844,1745474463863,,,,,,,,,,,,,,,,,,,,,,,,,,,,,,,,,,0.0,0.0,0.0,0.0,0.0,0.0,0.0,0.0,0.0,0.0,0.0,0.0,0.0,0.0,0.0,0.0,,,,,,,,,,,,,
264,5864864,1745474463883,0.0,130.0,,-0.63,-1.4,1.01,-60.0,0.0,0.0,1.84,1.94,95.0,7547.0,3.5,1.72,,6.84,1.249,88.0,,48.0,5.0,,,,,,,,,,,,0.0,0.0,0.0,0.0,0.0,0.0,0.0,0.0,0.0,0.0,0.0,0.0,0.0,0.0,0.0,0.0,,,,,,0.0,,,,,,,
265,5864884,1745474463909,,,,,,,,,,,,,,,,,,,,,,,21.0,24.0,20.0,25.0,3.9,20.0,0.0,0.0,2.27,,,0.0,0.0,0.0,0.0,0.0,0.0,0.0,0.0,0.0,0.0,0.0,0.0,0.0,0.0,0.0,0.0,,1.0,,,,,38.994015,-76.939407,37.38,26.4,32.0,3.0,0.8
266,5864904,1745474463929,0.0,129.0,,-0.62,-1.38,1.06,-61.0,1.0,0.0,1.85,1.94,95.0,7547.0,3.5,1.72,,6.91,1.249,86.2,,48.0,5.0,,,,,,,,,,,,0.0,0.0,0.0,0.0,0.0,0.0,0.0,0.0,0.0,0.0,0.0,0.0,0.0,0.0,0.0,0.0,,,,,,0.0,,,,,,,
267,5864924,1745474463949,,,,,,,,,,,,,,,,,,,,,,,,,,,,,,,,,,0.0,0.0,0.0,0.0,0.0,0.0,0.0,0.0,0.0,0.0,0.0,0.0,0.0,0.0,0.0,0.0,,,,,,,,,,,,,
268,5864944,1745474463969,0.0,129.0,,-0.57,-1.33,1.06,-62.0,0.0,0.0,1.8,1.94,93.0,7333.0,3.5,1.86,,6.96,1.25,86.2,,47.5,5.0,,,,,,,,,,,,0.0,0.0,0.0,0.0,0.0,0.0,0.0,0.0,0.0,0.0,0.0,0.0,0.0,0.0,0.0,0.0,,,,,,0.0,,,,,,,
269,5864964,1745474463989,,,,,,,,,,,,,,,,,,,,,,,,,,,,,,,,,,0.0,0.0,0.0,0.0,0.0,0.0,0.0,0.0,0.0,0.0,0.0,0.0,0.0,0.0,0.0,0.0,,,,,,,,,,,,,
270,5864984,1745474463999,0.0,129.0,,-0.64,-1.37,0.99,-63.0,-1.0,1.0,1.8,1.94,93.0,7239.0,3.6,1.8,,7.0,1.25,86.2,,47.5,5.0,22.0,26.0,20.0,26.0,3.9,212.0,0.0,0.0,2.27,,,0.0,0.0,0.0,0.0,0.0,0.0,0.0,0.0,0.0,0.0,0.0,0.0,0.0,0.0,0.0,0.0,,0.0,,,,0.0,38.994007,-76.939407,34.8,26.4,32.0,3.0,0.8
271,5865004,1745474464019,,,,,,,,,,,,,,,,,,,,,,,,,,,,,,,,,,0.0,0.0,0.0,0.0,0.0,0.0,0.0,0.0,0.0,0.0,0.0,0.0,0.0,0.0,0.0,0.0,,,,,,,,,,,,,
272,5865024,1745474464039,0.0,130.0,,-0.66,-1.24,1.01,-64.0,0.0,1.0,1.73,1.94,89.0,7196.0,9.0,2.55,,7.63,1.252,86.2,,47.5,5.0,,,,,,,,,,,,0.0,0.0,0.0,0.0,0.0,0.0,0.0,0.0,0.0,0.0,0.0,0.0,0.0,0.0,0.0,0.0,,,,,,0.0,,,,,,,
273,5865044,1745474464059,,,,,,,,,,,,,,,,,,,,,,,,,,,,,,,,,,0.0,0.0,0.0,0.0,0.0,0.0,0.0,0.0,0.0,0.0,0.0,0.0,0.0,0.0,0.0,0.0,,,,,,,,,,,,,
274,5865064,1745474464079,0.0,130.0,,-0.62,-1.39,0.97,-66.0,0.0,0.0,1.81,1.94,93.0,7262.0,11.1,2.81,,7.63,1.252,86.2,,47.0,5.0,,,,,,,,,,,,0.0,0.0,0.0,0.0,0.0,0.0,0.0,0.0,0.0,0.0,0.0,0.0,0.0,0.0,0.0,0.0,,,,,,0.0,,,,,,,
275,5865084,1745474464107,,,,,,,,,,,,,,,,,,,,,,,20.0,24.0,19.0,24.0,3.9,11.0,0.0,0.0,2.26,,,0.0,0.0,0.0,0.0,0.0,0.0,0.0,0.0,0.0,0.0,0.0,0.0,0.0,0.0,0.0,0.0,,0.0,,,,,38.993996,-76.939407,34.83,26.4,32.0,3.0,0.8
276,5865104,1745474464127,0.0,130.0,,-0.64,-1.36,0.93,-66.0,0.0,0.0,1.76,1.94,91.0,7262.0,11.1,2.81,,8.27,1.253,86.2,,47.0,5.0,,,,,,,,,,,,0.0,0.0,0.0,0.0,0.0,0.0,0.0,0.0,0.0,0.0,0.0,0.0,0.0,0.0,0.0,0.0,,,,,,0.0,,,,,,,
277,5865124,1745474464147,,,,,,,,,,,,,,,,,,,,,,,,,,,,,,,,,,0.0,0.0,0.0,0.0,0.0,0.0,0.0,0.0,0.0,0.0,0.0,0.0,0.0,0.0,0.0,0.0,,,,,,,,,,,,,
278,5865144,1745474464167,0.0,130.0,,-0.62,-1.23,0.93,-66.0,0.0,0.0,1.66,1.94,86.0,7396.0,12.2,2.98,,8.75,1.252,86.2,,46.8,5.0,,,,,,,,,,,,0.0,0.0,0.0,0.0,0.0,0.0,0.0,0.0,0.0,0.0,0.0,0.0,0.0,0.0,0.0,0.0,,,,,,0.0,,,,,,,
279,5865164,1745474464191,,,,,,,,,,,,,,,,,,,,,,,,,,,,,,,,,,0.0,0.0,0.0,0.0,0.0,0.0,0.0,0.0,0.0,0.0,0.0,0.0,0.0,0.0,0.0,0.0,,,,,,,,,,,,,
280,5865184,1745474464211,0.0,130.0,,-0.61,-1.14,0.95,-65.0,0.0,0.0,1.6,1.94,83.0,7500.0,12.6,3.01,,9.05,1.131,86.2,,46.8,5.0,21.0,22.0,20.0,23.0,3.9,27.0,0.0,0.0,2.26,,,0.0,0.0,0.0,0.0,0.0,0.0,0.0,0.0,0.0,0.0,0.0,0.0,0.0,0.0,0.0,0.0,,1.0,,,,0.0,38.993988,-76.939415,33.31,26.4,33.0,3.0,0.8
281,5865204,1745474464231,,,,,,,,,,,,,,,,,,,,,,,,,,,,,,,,,,0.0,0.0,0.0,0.0,0.0,0.0,0.0,0.0,0.0,0.0,0.0,0.0,0.0,0.0,0.0,0.0,,,,,,,,,,,,,
282,5865224,1745474464251,0.0,130.0,,-0.59,-1.25,0.9,-65.0,0.0,0.0,1.65,1.94,85.0,7571.0,12.9,3.1,,9.11,1.066,86.2,,46.8,5.0,,,,,,,,,,,,0.0,0.0,0.0,0.0,0.0,0.0,0.0,0.0,0.0,0.0,0.0,0.0,0.0,0.0,0.0,0.0,,,,,,0.0,,,,,,,
283,5865244,1745474464271,,,,,,,,,,,,,,,,,,,,,,,,,,,,,,,,,,0.0,0.0,0.0,0.0,0.0,0.0,0.0,0.0,0.0,0.0,0.0,0.0,0.0,0.0,0.0,0.0,,,,,,,,,,,,,
284,5865264,1745474464291,0.0,130.0,,-0.57,-1.31,0.89,-64.0,0.0,0.0,1.68,1.68,100.0,7302.0,13.3,3.27,,9.11,1.066,86.2,,47.1,5.0,,,,,,,,,,,,0.0,0.0,0.0,0.0,0.0,0.0,0.0,0.0,0.0,0.0,0.0,0.0,0.0,0.0,0.0,0.0,,,,,,0.0,,,,,,,
285,5865284,1745474464310,,,,,,,,,,,,,,,,,,,,,,,20.0,23.0,21.0,23.0,3.9,11.0,0.0,0.0,2.27,,,0.0,0.0,0.0,0.0,0.0,0.0,0.0,0.0,0.0,0.0,0.0,0.0,0.0,0.0,0.0,0.0,,1.0,,,,,38.99398,-76.939415,33.57,26.4,33.0,3.0,0.8
286,5865304,1745474464330,0.0,130.0,,-0.5,-1.23,0.91,-62.0,0.0,0.0,1.61,1.68,95.0,7302.0,13.3,3.27,,9.31,1.07,86.2,,47.1,5.0,,,,,,,,,,,,0.0,0.0,0.0,0.0,0.0,0.0,0.0,0.0,0.0,0.0,0.0,0.0,0.0,0.0,0.0,0.0,,,,,,0.0,,,,,,,
287,5865324,1745474464350,,,,,,,,,,,,,,,,,,,,,,,,,,,,,,,,,,0.0,0.0,0.0,0.0,0.0,0.0,0.0,0.0,0.0,0.0,0.0,0.0,0.0,0.0,0.0,0.0,,,,,,,,,,,,,
288,5865344,1745474464370,0.0,129.0,,-0.52,-1.29,0.93,-62.0,-1.0,0.0,1.67,1.68,99.0,7186.0,13.0,3.36,,9.56,1.163,86.2,,46.0,5.0,,,,,,,,,,,,0.0,0.0,0.0,0.0,0.0,0.0,0.0,0.0,0.0,0.0,0.0,0.0,0.0,0.0,0.0,0.0,,,,,,0.0,,,,,,,
289,5865364,1745474464391,,,,,,,,,,,,,,,,,,,,,,,,,,,,,,,,,,0.0,0.0,0.0,0.0,0.0,0.0,0.0,0.0,0.0,0.0,0.0,0.0,0.0,0.0,0.0,0.0,,,,,,,,,,,,,
290,5865384,1745474464411,0.0,130.0,13.15,-0.51,-1.23,0.94,-61.0,0.0,0.0,1.63,1.68,97.0,7171.0,13.0,3.41,15.0,9.66,1.109,86.2,176.0,46.0,5.0,20.0,23.0,21.0,24.0,3.9,47.0,0.0,0.0,2.27,0.0,1.0,0.0,0.0,0.0,0.0,0.0,0.0,0.0,0.0,0.0,0.0,0.0,0.0,0.0,0.0,0.0,0.0,0.0,0.0,1.0,0.0,0.0,0.0,38.993977,-76.939415,33.85,26.4,33.0,3.0,0.8
291,5865404,1745474464431,,,,,,,,,,,,,,,,,,,,,,,,,,,,,,,,,,0.0,0.0,0.0,0.0,0.0,0.0,0.0,0.0,0.0,0.0,0.0,0.0,0.0,0.0,0.0,0.0,,,,,,,,,,,,,
292,5865424,1745474464451,0.0,130.0,,-0.45,-1.25,0.95,-61.0,0.0,0.0,1.63,1.68,97.0,7158.0,13.1,3.49,,9.82,1.058,86.2,,46.0,5.0,,,,,,,,,,,,0.0,0.0,0.0,0.0,0.0,0.0,0.0,0.0,0.0,0.0,0.0,0.0,0.0,0.0,0.0,0.0,,,,,,0.0,,,,,,,
293,5865444,1745474464471,,,,,,,,,,,,,,,,,,,,,,,,,,,,,,,,,,0.0,0.0,0.0,0.0,0.0,0.0,0.0,0.0,0.0,0.0,0.0,0.0,0.0,0.0,0.0,0.0,,,,,,,,,,,,,
294,5865464,1745474464491,0.0,130.0,,-0.49,-1.2,0.94,-60.0,0.0,1.0,1.6,1.68,95.0,7188.0,13.0,3.51,,9.82,1.058,86.2,,45.6,5.0,,,,,,,,,,,,0.0,0.0,0.0,0.0,0.0,0.0,0.0,0.0,0.0,0.0,0.0,0.0,0.0,0.0,0.0,0.0,,,,,,0.0,,,,,,,
295,5865484,1745474464509,,,,,,,,,,,,,,,,,,,,,,,20.0,26.0,20.0,23.0,3.9,52.0,0.0,0.0,2.27,,,0.0,0.0,0.0,0.0,0.0,0.0,0.0,0.0,0.0,0.0,0.0,0.0,0.0,0.0,0.0,0.0,,0.0,,,,,38.993969,-76.939423,33.7,26.4,33.0,3.0,0.8
296,5865504,1745474464529,0.0,130.0,,-0.41,-1.19,0.94,-59.0,1.0,1.0,1.57,1.68,93.0,7188.0,13.0,3.51,,9.84,1.112,86.2,,45.6,5.0,,,,,,,,,,,,0.0,0.0,0.0,0.0,0.0,0.0,0.0,0.0,0.0,0.0,0.0,0.0,0.0,0.0,0.0,0.0,,,,,,0.0,,,,,,,
297,5865524,1745474464549,,,,,,,,,,,,,,,,,,,,,,,,,,,,,,,,,,0.0,0.0,0.0,0.0,0.0,0.0,0.0,0.0,0.0,0.0,0.0,0.0,0.0,0.0,0.0,0.0,,,,,,,,,,,,,
298,5865544,1745474464569,0.0,130.0,,-0.41,-1.21,0.92,-59.0,1.0,1.0,1.57,1.68,93.0,7210.0,13.0,3.47,,9.9,1.176,86.2,,45.2,5.0,,,,,,,,,,,,0.0,0.0,0.0,0.0,0.0,0.0,0.0,0.0,0.0,0.0,0.0,0.0,0.0,0.0,0.0,0.0,,,,,,0.0,,,,,,,
299,5865564,1745474464589,,,,,,,,,,,,,,,,,,,,,,,,,,,,,,,,,,0.0,0.0,0.0,0.0,0.0,0.0,0.0,0.0,0.0,0.0,0.0,0.0,0.0,0.0,0.0,0.0,,,,,,,,,,,,,
300,5865584,1745474464609,0.0,130.0,,-0.37,-1.17,0.96,-58.0,1.0,0.0,1.55,1.68,92.0,7182.0,13.3,3.51,,9.93,1.078,86.2,,45.2,5.0,20.0,23.0,20.0,23.0,3.9,46.0,0.0,0.0,2.26,,,0.0,0.0,0.0,0.0,0.0,0.0,0.0,0.0,0.0,0.0,0.0,0.0,0.0,0.0,0.0,0.0,,0.0,,,,0.0,38.993961,-76.93943,33.19,26.4,33.0,3.0,0.8
301,5865604,1745474464629,,,,,,,,,,,,,,,,,,,,,,,,,,,,,,,,,,0.0,0.0,0.0,0.0,0.0,0.0,0.0,0.0,0.0,0.0,0.0,0.0,0.0,0.0,0.0,0.0,,,,,,,,,,,,,
302,5865624,1745474464649,0.0,130.0,,-0.31,-1.17,0.94,-57.0,1.0,0.0,1.54,1.68,91.0,7181.0,14.4,3.58,,10.04,1.067,86.2,,45.2,5.0,,,,,,,,,,,,0.0,0.0,0.0,0.0,0.0,0.0,0.0,0.0,0.0,0.0,0.0,0.0,0.0,0.0,0.0,0.0,,,,,,0.0,,,,,,,
303,5865644,1745474464669,,,,,,,,,,,,,,,,,,,,,,,,,,,,,,,,,,0.0,0.0,0.0,0.0,0.0,0.0,0.0,0.0,0.0,0.0,0.0,0.0,0.0,0.0,0.0,0.0,,,,,,,,,,,,,
304,5865664,1745474464689,0.0,131.0,,-0.3,-1.05,0.97,-54.0,1.0,0.0,1.46,1.68,87.0,7185.0,15.3,3.65,,10.04,1.067,86.2,,44.7,5.0,,,,,,,,,,,,0.0,0.0,0.0,0.0,0.0,0.0,0.0,0.0,0.0,0.0,0.0,0.0,0.0,0.0,0.0,0.0,,,,,,0.0,,,,,,,
305,5865684,1745474464708,,,,,,,,,,,,,,,,,,,,,,,21.0,24.0,21.0,22.0,3.9,231.0,0.0,0.0,2.26,,,0.0,0.0,0.0,0.0,0.0,0.0,0.0,0.0,0.0,0.0,0.0,0.0,0.0,0.0,0.0,0.0,,0.0,,,,,38.993958,-76.939438,33.61,26.4,33.0,3.0,0.8
306,5865704,1745474464728,0.0,131.0,,-0.28,-1.0,0.96,-53.0,1.0,0.0,1.41,1.68,84.0,7185.0,15.3,3.65,,10.17,1.122,86.2,,44.7,5.0,,,,,,,,,,,,0.0,0.0,0.0,0.0,0.0,0.0,0.0,0.0,0.0,0.0,0.0,0.0,0.0,0.0,0.0,0.0,,,,,,0.0,,,,,,,
307,5865724,1745474464748,,,,,,,,,,,,,,,,,,,,,,,,,,,,,,,,,,0.0,0.0,0.0,0.0,0.0,0.0,0.0,0.0,0.0,0.0,0.0,0.0,0.0,0.0,0.0,0.0,,,,,,,,,,,,,
308,5865744,1745474464768,0.0,131.0,,-0.33,-0.97,0.97,-52.0,0.0,0.0,1.41,1.68,84.0,7155.0,16.0,3.74,,10.46,1.048,86.2,,44.5,5.0,,,,,,,,,,,,0.0,0.0,0.0,0.0,0.0,0.0,0.0,0.0,0.0,0.0,0.0,0.0,0.0,0.0,0.0,0.0,,,,,,0.0,,,,,,,
309,5865764,1745474464788,,,,,,,,,,,,,,,,,,,,,,,,,,,,,,,,,,0.0,0.0,0.0,0.0,0.0,0.0,0.0,0.0,0.0,0.0,0.0,0.0,0.0,0.0,0.0,0.0,,,,,,,,,,,,,
