,Interval,Utc,FrontBP,SteerAng,Battery,AccelX,AccelY,AccelZ,Yaw,Pitch,Roll,Gsum,GsumMax,GsumPct,RPM,TPS,InjectorPW,Baro,MAP,Lambda,IAT,EngineTemp,EOP,EOT,WSFR,WSFL,WSRR,WSRL,TCSet,TCSlip,TCComp,TCCut,Analog8,OilTemp,AA_On,ThermLF1,ThermLF2,ThermRR1,ThermRR2,ThermLF3,ThermLF4,ThermLF5,ThermLF6,ThermLF7,ThermLF8,ThermRR3,ThermRR4,ThermRR5,ThermRR6,ThermRR7,ThermRR8,AA_LowDrag,Gear,AA_On1,AA_LowDrag1,Fuel_Mix,AA_Packages,Latitude,Longitude,Speed,Altitude,GPSSats,GPSQual,GPSDOP
0,6623304,1745475222338,0.0,91.0,,-0.21,0.27,0.96,0.0,0.0,1.0,1.02,1.02,100.0,6779.0,0.1,1.4,,6.42,1.25,100.6,,46.2,5.0,,,,,,,,,,,,0,0,0,0,0,0,0,0,0,0,0,0,0,0,0,0,,,,,,0.0,,,,,,,
1,6623324,1745475222358,,,,,,,,,,,,,,,,,,,,,,,,,,,,,,,,,,0,0,0,0,0,0,0,0,0,0,0,0,0,0,0,0,,,,,,,,,,,,,
2,6623344,1745475222378,0.0,119.0,,-0.17,0.17,0.89,0.0,0.0,0.0,0.92,1.02,90.0,6373.0,7.4,1.4,,6.42,1.25,100.6,,45.7,5.0,,,,,,,,,,,,0,0,0,0,0,0,0,0,0,0,0,0,0,0,0,0,,,,,,0.0,,,,,,,
3,6623364,1745475222398,,,,,,,,,,,,,,,,,,,,,,,,,,,,,,,,,,0,0,0,0,0,0,0,0,0,0,0,0,0,0,0,0,,,,,,,,,,,,,
4,6623384,1745475222418,0.0,105.0,12.95,-0.08,0.1,0.92,1.0,0.0,0.0,0.93,1.02,91.0,6373.0,7.4,1.4,15.0,7.11,1.248,100.6,164.0,45.7,5.0,0.0,0.0,0.0,0.0,0.0,0.0,0.0,0.0,2.26,0.0,1.0,0,0,0,0,0,0,0,0,0,0,0,0,0,0,0,0,0.0,0.0,1.0,0.0,0.0,0.0,38.994099,-76.939659,0.13,26.1,33.0,3.0,0.8
5,6623404,1745475222438,,,,,,,,,,,,,,,,,,,,,,,,,,,,,,,,,,0,0,0,0,0,0,0,0,0,0,0,0,0,0,0,0,,,,,,,,,,,,,
6,6623424,1745475222458,0.0,95.0,,-0.03,-0.01,0.85,1.0,0.0,0.0,0.85,1.02,83.0,5953.0,32.3,3.12,,10.33,1.248,100.6,,44.1,5.0,,,,,,,,,,,,0,0,0,0,0,0,0,0,0,0,0,0,0,0,0,0,,,,,,0.0,,,,,,,
7,6623444,1745475222478,,,,,,,,,,,,,,,,,,,,,,,,,,,,,,,,,,0,0,0,0,0,0,0,0,0,0,0,0,0,0,0,0,,,,,,,,,,,,,
8,6623464,1745475222497,0.0,102.0,,-0.08,-0.09,0.83,0.0,0.0,0.0,0.84,1.02,82.0,5681.0,57.4,5.69,,13.86,1.248,100.6,,44.1,5.0,,,,,,,,,,,,0,0,0,0,0,0,0,0,0,0,0,0,0,0,0,0,,,,,,0.0,,,,,,,
9,6623484,1745475222517,,,,,,,,,,,,,,,,,,,,,,,0.0,0.0,0.0,0.0,0.0,0.0,0.0,0.0,2.27,,,0,0,0,0,0,0,0,0,0,0,0,0,0,0,0,0,,0.0,,,,,38.994099,-76.939659,0.05,26.1,33.0,3.0,0.8
10,6623504,1745475222537,0.0,78.0,,-0.11,0.08,1.01,2.0,0.0,0.0,1.02,1.02,100.0,5844.0,63.5,5.48,,14.3,1.248,100.6,,44.1,5.0,,,,,,,,,,,,0,0,0,0,0,0,0,0,0,0,0,0,0,0,0,0,,,,,,0.0,,,,,,,
11,6623524,1745475222557,,,,,,,,,,,,,,,,,,,,,,,,,,,,,,,,,,0,0,0,0,0,0,0,0,0,0,0,0,0,0,0,0,,,,,,,,,,,,,
12,6623544,1745475222577,0.0,95.0,,-0.15,0.22,1.09,4.0,0.0,0.0,1.12,1.12,100.0,6236.0,63.6,5.12,,14.3,1.248,100.6,,43.4,5.0,,,,,,,,,,,,0,0,0,0,0,0,0,0,0,0,0,0,0,0,0,0,,,,,,0.0,,,,,,,
13,6623564,1745475222597,,,,,,,,,,,,,,,,,,,,,,,,,,,,,,,,,,0,0,0,0,0,0,0,0,0,0,0,0,0,0,0,0,,,,,,,,,,,,,
14,6623584,1745475222617,0.0,91.0,,-0.16,0.19,1.07,3.0,0.0,0.0,1.09,1.12,97.0,6236.0,63.6,5.12,,14.27,1.249,98.8,,43.4,5.0,0.0,0.0,0.0,0.0,0.0,0.0,0.0,0.0,2.27,,,0,0,0,0,0,0,0,0,0,0,0,0,0,0,0,0,,0.0,,,,0.0,38.994099,-76.939659,0.08,26.1,33.0,3.0,0.8
15,6623604,1745475222637,,,,,,,,,,,,,,,,,,,,,,,,,,,,,,,,,,0,0,0,0,0,0,0,0,0,0,0,0,0,0,0,0,,,,,,,,,,,,,
16,6623624,1745475222657,0.0,91.0,,-0.09,0.1,1.05,3.0,0.0,0.0,1.06,1.12,94.0,6831.0,33.9,5.43,,13.59,1.25,98.8,,45.4,5.0,,,,,,,,,,,,0,0,0,0,0,0,0,0,0,0,0,0,0,0,0,0,,,,,,0.0,,,,,,,
17,6623644,1745475222677,,,,,,,,,,,,,,,,,,,,,,,,,,,,,,,,,,0,0,0,0,0,0,0,0,0,0,0,0,0,0,0,0,,,,,,,,,,,,,
18,6623664,1745475222699,0.0,98.0,,-0.11,0.24,1.04,3.0,0.0,0.0,1.07,1.12,95.0,7694.0,13.9,5.17,,11.71,1.24,98.8,,45.4,5.0,,,,,,,,,,,,0,0,0,0,0,0,0,0,0,0,0,0,0,0,0,0,,,,,,0.0,,,,,,,
19,6623684,1745475222719,,,,,,,,,,,,,,,,,,,,,,,0.0,0.0,0.0,0.0,0.0,0.0,0.0,0.0,2.26,,,0,0,0,0,0,0,0,0,0,0,0,0,0,0,0,0,,0.0,,,,,38.994099,-76.939659,0.1,26.1,33.0,3.0,0.8
20,6623704,1745475222739,0.0,74.0,,-0.09,0.15,1.01,3.0,0.0,0.0,1.03,1.12,92.0,8373.0,3.3,3.03,,9.82,1.1,98.8,,45.4,5.0,,,,,,,,,,,,0,0,0,0,0,0,0,0,0,0,0,0,0,0,0,0,,,,,,0.0,,,,,,,
21,6623724,1745475222759,,,,,,,,,,,,,,,,,,,,,,,,,,,,,,,,,,0,0,0,0,0,0,0,0,0,0,0,0,0,0,0,0,,,,,,,,,,,,,
22,6623744,1745475222779,0.0,102.0,,-0.08,0.25,1.0,2.0,0.0,0.0,1.03,1.12,92.0,8682.0,0.3,1.4,,9.82,1.1,98.8,,46.5,5.0,,,,,,,,,,,,0,0,0,0,0,0,0,0,0,0,0,0,0,0,0,0,,,,,,0.0,,,,,,,
23,6623764,1745475222797,,,,,,,,,,,,,,,,,,,,,,,,,,,,,,,,,,0,0,0,0,0,0,0,0,0,0,0,0,0,0,0,0,,,,,,,,,,,,,
24,6623784,1745475222817,0.0,108.0,,-0.06,0.31,1.01,2.0,0.0,0.0,1.05,1.12,94.0,8682.0,0.3,1.4,,8.02,0.927,98.8,,46.5,5.0,0.0,0.0,0.0,0.0,0.0,0.0,0.0,0.0,2.26,,,0,0,0,0,0,0,0,0,0,0,0,0,0,0,0,0,,0.0,,,,0.0,38.994099,-76.939659,0.05,26.1,33.0,3.0,0.8
25,6623804,1745475222837,,,,,,,,,,,,,,,,,,,,,,,,,,,,,,,,,,0,0,0,0,0,0,0,0,0,0,0,0,0,0,0,0,,,,,,,,,,,,,
26,6623824,1745475222857,0.0,98.0,,-0.08,0.16,0.97,1.0,0.0,0.0,0.99,1.12,88.0,8143.0,0.3,1.4,,7.07,0.949,98.8,,46.9,5.0,,,,,,,,,,,,0,0,0,0,0,0,0,0,0,0,0,0,0,0,0,0,,,,,,0.0,,,,,,,
27,6623844,1745475222877,,,,,,,,,,,,,,,,,,,,,,,,,,,,,,,,,,0,0,0,0,0,0,0,0,0,0,0,0,0,0,0,0,,,,,,,,,,,,,
28,6623864,1745475222899,0.0,98.0,,-0.06,0.01,0.98,1.0,0.0,0.0,0.98,1.12,87.0,7564.0,0.1,1.4,,6.67,1.213,98.8,,46.9,5.0,,,,,,,,,,,,0,0,0,0,0,0,0,0,0,0,0,0,0,0,0,0,,,,,,0.0,,,,,,,
29,6623884,1745475222919,,,,,,,,,,,,,,,,,,,,,,,0.0,0.0,0.0,0.0,0.0,0.0,0.0,0.0,2.26,,,0,0,0,0,0,0,0,0,0,0,0,0,0,0,0,0,,0.0,,,,,38.994099,-76.939659,0.18,26.1,33.0,3.0,0.8
30,6623904,1745475222939,0.0,85.0,,-0.08,0.05,1.0,1.0,0.0,0.0,1.0,1.12,89.0,7056.0,0.0,1.4,,6.58,1.248,98.8,,46.9,5.0,,,,,,,,,,,,0,0,0,0,0,0,0,0,0,0,0,0,0,0,0,0,,,,,,0.0,,,,,,,
31,6623924,1745475222959,,,,,,,,,,,,,,,,,,,,,,,,,,,,,,,,,,0,0,0,0,0,0,0,0,0,0,0,0,0,0,0,0,,,,,,,,,,,,,
32,6623944,1745475222979,0.0,88.0,,-0.05,0.04,0.99,1.0,0.0,0.0,0.99,1.12,88.0,6631.0,0.0,1.4,,6.58,1.248,98.8,,46.8,5.0,,,,,,,,,,,,0,0,0,0,0,0,0,0,0,0,0,0,0,0,0,0,,,,,,0.0,,,,,,,
33,6623964,1745475222999,,,,,,,,,,,,,,,,,,,,,,,,,,,,,,,,,,0,0,0,0,0,0,0,0,0,0,0,0,0,0,0,0,,,,,,,,,,,,,
34,6623984,1745475223009,0.0,91.0,,-0.08,0.08,1.02,1.0,0.0,0.0,1.02,1.12,91.0,6631.0,0.0,1.4,,6.75,1.248,98.8,,46.8,5.0,0.0,0.0,0.0,0.0,0.0,0.0,0.0,0.0,2.27,,,0,0,0,0,0,0,0,0,0,0,0,0,0,0,0,0,,0.0,,,,0.0,38.994099,-76.939659,0.09,26.1,33.0,3.0,0.8
35,6624004,1745475223029,,,,,,,,,,,,,,,,,,,,,,,,,,,,,,,,,,0,0,0,0,0,0,0,0,0,0,0,0,0,0,0,0,,,,,,,,,,,,,
36,6624024,1745475223049,0.0,95.0,,-0.13,0.16,1.11,0.0,0.0,0.0,1.13,1.13,100.0,6117.0,0.0,1.4,,6.98,1.249,98.8,,45.2,5.0,,,,,,,,,,,,0,0,0,0,0,0,0,0,0,0,0,0,0,0,0,0,,,,,,0.0,,,,,,,
37,6624044,1745475223069,,,,,,,,,,,,,,,,,,,,,,,,,,,,,,,,,,0,0,0,0,0,0,0,0,0,0,0,0,0,0,0,0,,,,,,,,,,,,,
38,6624064,1745475223097,0.0,102.0,,-0.11,0.15,1.1,1.0,0.0,0.0,1.11,1.13,99.0,5663.0,12.7,2.39,,8.25,1.251,98.8,,45.2,5.0,,,,,,,,,,,,0,0,0,0,0,0,0,0,0,0,0,0,0,0,0,0,,,,,,0.0,,,,,,,
39,6624084,1745475223117,,,,,,,,,,,,,,,,,,,,,,,0.0,0.0,0.0,0.0,0.0,0.0,0.0,0.0,2.26,,,0,0,0,0,0,0,0,0,0,0,0,0,0,0,0,0,,0.0,,,,,38.994099,-76.939659,0.27,26.1,33.0,3.0,0.8
40,6624104,1745475223137,0.0,98.0,,-0.11,0.11,1.07,1.0,0.0,0.0,1.08,1.13,96.0,5314.0,38.2,3.85,,11.89,1.251,98.8,,45.2,5.0,,,,,,,,,,,,0,0,0,0,0,0,0,0,0,0,0,0,0,0,0,0,,,,,,0.0,,,,,,,
41,6624124,1745475223157,,,,,,,,,,,,,,,,,,,,,,,,,,,,,,,,,,0,0,0,0,0,0,0,0,0,0,0,0,0,0,0,0,,,,,,,,,,,,,
42,6624144,1745475223177,0.0,102.0,,-0.11,0.07,1.06,0.0,0.0,0.0,1.07,1.13,95.0,5052.0,53.8,5.62,,11.89,1.251,98.8,,42.5,5.0,,,,,,,,,,,,0,0,0,0,0,0,0,0,0,0,0,0,0,0,0,0,,,,,,0.0,,,,,,,
43,6624164,1745475223193,,,,,,,,,,,,,,,,,,,,,,,,,,,,,,,,,,0,0,0,0,0,0,0,0,0,0,0,0,0,0,0,0,,,,,,,,,,,,,
44,6624184,1745475223213,0.0,95.0,,-0.1,0.05,1.05,0.0,0.0,0.0,1.05,1.13,93.0,5052.0,53.8,5.62,,14.12,1.251,98.8,,42.5,5.0,0.0,0.0,0.0,0.0,0.0,0.0,0.0,0.0,2.26,,,0,0,0,0,0,0,0,0,0,0,0,0,0,0,0,0,,0.0,,,,0.0,38.994099,-76.939659,0.22,26.1,33.0,3.0,0.8
45,6624204,1745475223233,,,,,,,,,,,,,,,,,,,,,,,,,,,,,,,,,,0,0,0,0,0,0,0,0,0,0,0,0,0,0,0,0,,,,,,,,,,,,,
46,6624224,1745475223253,0.0,95.0,,-0.1,0.04,1.08,1.0,0.0,0.0,1.09,1.13,97.0,5406.0,58.2,5.38,,14.3,1.25,98.8,,43.3,5.0,,,,,,,,,,,,0,0,0,0,0,0,0,0,0,0,0,0,0,0,0,0,,,,,,0.0,,,,,,,
47,6624244,1745475223273,,,,,,,,,,,,,,,,,,,,,,,,,,,,,,,,,,0,0,0,0,0,0,0,0,0,0,0,0,0,0,0,0,,,,,,,,,,,,,
48,6624264,1745475223299,0.0,85.0,,-0.09,0.03,0.98,0.0,0.0,0.0,0.98,1.13,87.0,5660.0,53.8,5.11,,14.15,1.249,98.8,,43.3,5.0,,,,,,,,,,,,0,0,0,0,0,0,0,0,0,0,0,0,0,0,0,0,,,,,,0.0,,,,,,,
49,6624284,1745475223319,,,,,,,,,,,,,,,,,,,,,,,0.0,0.0,0.0,0.0,0.0,0.0,0.0,0.0,2.26,,,0,0,0,0,0,0,0,0,0,0,0,0,0,0,0,0,,0.0,,,,,38.994099,-76.939659,0.04,26.1,33.0,3.0,0.8
50,6624304,1745475223339,0.0,78.0,,-0.1,-0.0,0.91,0.0,0.0,0.0,0.91,1.13,81.0,5972.0,24.3,4.97,,13.39,1.248,98.8,,43.3,5.0,,,,,,,,,,,,0,0,0,0,0,0,0,0,0,0,0,0,0,0,0,0,,,,,,0.0,,,,,,,
51,6624324,1745475223359,,,,,,,,,,,,,,,,,,,,,,,,,,,,,,,,,,0,0,0,0,0,0,0,0,0,0,0,0,0,0,0,0,,,,,,,,,,,,,
52,6624344,1745475223379,0.0,95.0,,-0.08,0.01,0.92,0.0,-1.0,0.0,0.93,1.13,82.0,6561.0,12.6,4.75,,13.39,1.248,98.8,,44.8,5.0,,,,,,,,,,,,0,0,0,0,0,0,0,0,0,0,0,0,0,0,0,0,,,,,,0.0,,,,,,,
53,6624364,1745475223397,,,,,,,,,,,,,,,,,,,,,,,,,,,,,,,,,,0,0,0,0,0,0,0,0,0,0,0,0,0,0,0,0,,,,,,,,,,,,,
54,6624384,1745475223417,0.0,78.0,12.95,-0.08,0.06,0.95,0.0,0.0,0.0,0.96,1.13,85.0,6561.0,12.6,4.75,15.0,12.11,1.248,98.8,167.0,44.8,5.0,0.0,0.0,0.0,0.0,0.0,0.0,0.0,0.0,2.27,0.0,1.0,0,0,0,0,0,0,0,0,0,0,0,0,0,0,0,0,0.0,0.0,1.0,0.0,0.0,0.0,38.994099,-76.939659,0.05,26.1,33.0,3.0,0.8
55,6624404,1745475223437,,,,,,,,,,,,,,,,,,,,,,,,,,,,,,,,,,0,0,0,0,0,0,0,0,0,0,0,0,0,0,0,0,,,,,,,,,,,,,
56,6624424,1745475223457,0.0,95.0,,-0.1,0.05,0.97,-1.0,0.0,0.0,0.98,1.13,87.0,6702.0,8.4,4.59,,11.08,1.236,98.8,,45.8,5.0,,,,,,,,,,,,0,0,0,0,0,0,0,0,0,0,0,0,0,0,0,0,,,,,,0.0,,,,,,,
57,6624444,1745475223477,,,,,,,,,,,,,,,,,,,,,,,,,,,,,,,,,,0,0,0,0,0,0,0,0,0,0,0,0,0,0,0,0,,,,,,,,,,,,,
58,6624464,1745475223498,0.0,105.0,,-0.11,0.04,0.95,0.0,0.0,0.0,0.96,1.13,85.0,6688.0,8.1,3.42,,10.6,1.186,98.8,,45.8,5.0,,,,,,,,,,,,0,0,0,0,0,0,0,0,0,0,0,0,0,0,0,0,,,,,,0.0,,,,,,,
59,6624484,1745475223518,,,,,,,,,,,,,,,,,,,,,,,0.0,0.0,0.0,0.0,0.0,0.0,0.0,0.0,2.26,,,0,0,0,0,0,0,0,0,0,0,0,0,0,0,0,0,,0.0,,,,,38.994095,-76.939659,0.04,26.1,33.0,3.0,0.8
60,6624504,1745475223538,0.0,95.0,,-0.13,0.05,0.92,0.0,-1.0,0.0,0.94,1.13,83.0,6859.0,8.2,3.43,,10.08,1.142,98.8,,45.8,5.0,,,,,,,,,,,,0,0,0,0,0,0,0,0,0,0,0,0,0,0,0,0,,,,,,0.0,,,,,,,
61,6624524,1745475223558,,,,,,,,,,,,,,,,,,,,,,,,,,,,,,,,,,0,0,0,0,0,0,0,0,0,0,0,0,0,0,0,0,,,,,,,,,,,,,
62,6624544,1745475223578,0.0,91.0,,-0.12,0.11,0.97,0.0,0.0,0.0,0.98,1.13,87.0,7285.0,8.3,3.33,,10.08,1.142,98.8,,46.5,5.0,,,,,,,,,,,,0,0,0,0,0,0,0,0,0,0,0,0,0,0,0,0,,,,,,0.0,,,,,,,
63,6624564,1745475223596,,,,,,,,,,,,,,,,,,,,,,,,,,,,,,,,,,0,0,0,0,0,0,0,0,0,0,0,0,0,0,0,0,,,,,,,,,,,,,
64,6624584,1745475223616,0.0,81.0,,-0.11,0.25,0.96,1.0,-1.0,0.0,1.0,1.13,88.0,7285.0,8.3,3.33,,9.68,1.095,97.0,,46.5,5.0,0.0,0.0,0.0,0.0,0.0,0.0,0.0,0.0,2.26,,,0,0,0,0,0,0,0,0,0,0,0,0,0,0,0,0,,0.0,,,,0.0,38.994095,-76.939659,0.1,26.1,33.0,3.0,0.8
65,6624604,1745475223636,,,,,,,,,,,,,,,,,,,,,,,,,,,,,,,,,,0,0,0,0,0,0,0,0,0,0,0,0,0,0,0,0,,,,,,,,,,,,,
66,6624624,1745475223656,0.0,98.0,,-0.09,0.16,0.94,1.0,-1.0,0.0,0.96,1.13,86.0,7826.0,8.5,3.15,,9.27,0.986,97.0,,47.3,5.0,,,,,,,,,,,,0,0,0,0,0,0,0,0,0,0,0,0,0,0,0,0,,,,,,0.0,,,,,,,
67,6624644,1745475223676,,,,,,,,,,,,,,,,,,,,,,,,,,,,,,,,,,0,0,0,0,0,0,0,0,0,0,0,0,0,0,0,0,,,,,,,,,,,,,
68,6624664,1745475223698,0.0,95.0,,-0.08,0.15,0.99,0.0,0.0,0.0,1.01,1.13,89.0,8137.0,8.9,2.95,,8.77,0.955,97.0,,47.3,5.0,,,,,,,,,,,,0,0,0,0,0,0,0,0,0,0,0,0,0,0,0,0,,,,,,0.0,,,,,,,
69,6624684,1745475223718,,,,,,,,,,,,,,,,,,,,,,,0.0,0.0,0.0,0.0,0.0,0.0,0.0,0.0,2.26,,,0,0,0,0,0,0,0,0,0,0,0,0,0,0,0,0,,0.0,,,,,38.994095,-76.939659,0.11,26.1,33.0,3.0,0.8
70,6624704,1745475223738,0.0,91.0,,-0.09,-0.04,0.94,0.0,0.0,0.0,0.95,1.13,84.0,8704.0,30.6,3.51,,10.09,1.0,97.0,,47.3,5.0,,,,,,,,,,,,0,0,0,0,0,0,0,0,0,0,0,0,0,0,0,0,,,,,,0.0,,,,,,,
71,6624724,1745475223758,,,,,,,,,,,,,,,,,,,,,,,,,,,,,,,,,,0,0,0,0,0,0,0,0,0,0,0,0,0,0,0,0,,,,,,,,,,,,,
72,6624744,1745475223778,0.0,102.0,,-0.1,-0.31,0.98,0.0,0.0,0.0,1.03,1.13,91.0,9232.0,60.0,5.47,,10.09,1.0,97.0,,48.0,5.0,,,,,,,,,,,,0,0,0,0,0,0,0,0,0,0,0,0,0,0,0,0,,,,,,0.0,,,,,,,
73,6624764,1745475223798,,,,,,,,,,,,,,,,,,,,,,,,,,,,,,,,,,0,0,0,0,0,0,0,0,0,0,0,0,0,0,0,0,,,,,,,,,,,,,
74,6624784,1745475223818,0.0,91.0,,-0.08,-0.28,1.02,0.0,-1.0,1.0,1.06,1.13,94.0,9232.0,60.0,5.47,,12.27,0.976,97.0,,48.0,5.0,0.0,0.0,0.0,0.0,0.0,0.0,0.0,0.0,2.26,,,0,0,0,0,0,0,0,0,0,0,0,0,0,0,0,0,,0.0,,,,0.0,38.994095,-76.939659,0.09,26.1,33.0,3.0,0.8
75,6624804,1745475223838,,,,,,,,,,,,,,,,,,,,,,,,,,,,,,,,,,0,0,0,0,0,0,0,0,0,0,0,0,0,0,0,0,,,,,,,,,,,,,
76,6624824,1745475223858,0.0,88.0,,-0.07,-0.53,1.03,1.0,0.0,0.0,1.16,1.16,100.0,9717.0,88.4,6.17,,13.59,1.087,97.0,,48.1,5.0,,,,,,,,,,,,0,0,0,0,0,0,0,0,0,0,0,0,0,0,0,0,,,,,,0.0,,,,,,,
77,6624844,1745475223878,,,,,,,,,,,,,,,,,,,,,,,,,,,,,,,,,,0,0,0,0,0,0,0,0,0,0,0,0,0,0,0,0,,,,,,,,,,,,,
78,6624864,1745475223898,0.0,125.0,,-0.1,-0.4,1.08,1.0,0.0,0.0,1.16,1.16,100.0,11169.0,99.3,5.52,,13.53,1.247,97.0,,48.1,5.0,,,,,,,,,,,,0,0,0,0,0,0,0,0,0,0,0,0,0,0,0,0,,,,,,0.0,,,,,,,
79,6624884,1745475223918,,,,,,,,,,,,,,,,,,,,,,,0.0,0.0,0.0,0.0,0.0,0.0,0.0,0.0,2.26,,,0,0,0,0,0,0,0,0,0,0,0,0,0,0,0,0,,0.0,,,,,38.994095,-76.939659,0.12,26.1,33.0,3.0,0.8
80,6624904,1745475223938,0.0,98.0,,-0.12,-0.39,1.04,1.0,0.0,-1.0,1.12,1.16,96.0,12676.0,99.4,4.98,,13.24,1.028,97.0,,48.1,5.0,,,,,,,,,,,,0,0,0,0,0,0,0,0,0,0,0,0,0,0,0,0,,,,,,0.0,,,,,,,
81,6624924,1745475223958,,,,,,,,,,,,,,,,,,,,,,,,,,,,,,,,,,0,0,0,0,0,0,0,0,0,0,0,0,0,0,0,0,,,,,,,,,,,,,
82,6624944,1745475223978,0.0,119.0,,-0.13,-0.34,1.01,3.0,0.0,-1.0,1.08,1.16,93.0,13803.0,99.4,4.56,,13.24,1.028,97.0,,61.6,5.0,,,,,,,,,,,,0,0,0,0,0,0,0,0,0,0,0,0,0,0,0,0,,,,,,0.0,,,,,,,
83,6624964,1745475223998,,,,,,,,,,,,,,,,,,,,,,,,,,,,,,,,,,0,0,0,0,0,0,0,0,0,0,0,0,0,0,0,0,,,,,,,,,,,,,
84,6624984,1745475224010,0.0,91.0,,-0.11,-0.18,0.93,-1.0,-1.0,-5.0,0.96,1.16,83.0,13803.0,99.4,4.56,,13.19,1.001,97.0,,61.6,5.0,0.0,0.0,0.0,0.0,0.0,0.0,0.0,0.0,2.27,,,0,0,0,0,0,0,0,0,0,0,0,0,0,0,0,0,,0.0,,,,0.0,38.994095,-76.939659,0.04,26.1,33.0,3.0,0.8
85,6625004,1745475224030,,,,,,,,,,,,,,,,,,,,,,,,,,,,,,,,,,0,0,0,0,0,0,0,0,0,0,0,0,0,0,0,0,,,,,,,,,,,,,
86,6625024,1745475224050,0.0,95.0,,-0.11,-0.2,0.96,-1.0,-1.0,-4.0,0.98,1.16,85.0,13440.0,99.4,4.58,,12.99,1.027,97.0,,62.5,5.0,,,,,,,,,,,,0,0,0,0,0,0,0,0,0,0,0,0,0,0,0,0,,,,,,0.0,,,,,,,
87,6625044,1745475224070,,,,,,,,,,,,,,,,,,,,,,,,,,,,,,,,,,0,0,0,0,0,0,0,0,0,0,0,0,0,0,0,0,,,,,,,,,,,,,
88,6625064,1745475224092,0.0,98.0,,-0.13,-0.36,0.94,0.0,-1.0,-4.0,1.01,1.16,87.0,13274.0,99.4,4.68,,13.05,1.249,97.0,,62.5,5.0,,,,,,,,,,,,0,0,0,0,0,0,0,0,0,0,0,0,0,0,0,0,,,,,,0.0,,,,,,,
89,6625084,1745475224112,,,,,,,,,,,,,,,,,,,,,,,0.0,0.0,0.0,0.0,0.0,0.0,0.0,0.0,2.26,,,0,0,0,0,0,0,0,0,0,0,0,0,0,0,0,0,,0.0,,,,,38.994095,-76.939659,0.08,26.1,33.0,3.0,0.8
90,6625104,1745475224132,0.0,78.0,,-0.13,-0.02,0.86,-2.0,-1.0,-6.0,0.87,1.16,75.0,13923.0,99.4,4.67,,12.72,1.253,97.0,,62.5,5.0,,,,,,,,,,,,0,0,0,0,0,0,0,0,0,0,0,0,0,0,0,0,,,,,,0.0,,,,,,,
91,6625124,1745475224152,,,,,,,,,,,,,,,,,,,,,,,,,,,,,,,,,,0,0,0,0,0,0,0,0,0,0,0,0,0,0,0,0,,,,,,,,,,,,,
92,6625144,1745475224172,0.0,95.0,,-0.03,0.0,0.86,-2.0,-1.0,-5.0,0.86,1.16,74.0,11879.0,99.4,5.08,,12.72,1.253,97.0,,65.5,5.0,,,,,,,,,,,,0,0,0,0,0,0,0,0,0,0,0,0,0,0,0,0,,,,,,0.0,,,,,,,
93,6625164,1745475224196,,,,,,,,,,,,,,,,,,,,,,,,,,,,,,,,,,0,0,0,0,0,0,0,0,0,0,0,0,0,0,0,0,,,,,,,,,,,,,
94,6625184,1745475224216,0.0,91.0,,0.06,0.03,0.85,-2.0,0.0,-4.0,0.86,1.16,74.0,11879.0,99.4,5.08,,13.17,1.243,97.0,,65.5,5.0,0.0,0.0,0.0,11.0,0.0,0.0,0.0,0.0,2.26,,,0,0,0,0,0,0,0,0,0,0,0,0,0,0,0,0,,0.0,,,,0.0,38.994095,-76.939659,0.05,26.1,33.0,3.0,0.8
95,6625204,1745475224236,,,,,,,,,,,,,,,,,,,,,,,,,,,,,,,,,,0,0,0,0,0,0,0,0,0,0,0,0,0,0,0,0,,,,,,,,,,,,,
96,6625224,1745475224256,0.0,95.0,,0.13,0.24,0.88,-3.0,0.0,-4.0,0.92,1.16,80.0,10450.0,99.4,5.8,,13.57,1.248,97.0,,54.1,5.0,,,,,,,,,,,,0,0,0,0,0,0,0,0,0,0,0,0,0,0,0,0,,,,,,0.0,,,,,,,
97,6625244,1745475224276,,,,,,,,,,,,,,,,,,,,,,,,,,,,,,,,,,0,0,0,0,0,0,0,0,0,0,0,0,0,0,0,0,,,,,,,,,,,,,
98,6625264,1745475224298,0.0,102.0,,0.12,0.35,0.93,-2.0,-1.0,-3.0,1.0,1.16,86.0,10361.0,99.4,5.96,,13.65,1.249,97.0,,54.1,5.0,,,,,,,,,,,,0,0,0,0,0,0,0,0,0,0,0,0,0,0,0,0,,,,,,0.0,,,,,,,
99,6625284,1745475224318,,,,,,,,,,,,,,,,,,,,,,,0.0,0.0,28.0,29.0,0.0,0.0,0.0,0.0,2.26,,,0,0,0,0,0,0,0,0,0,0,0,0,0,0,0,0,,0.0,,,,,38.994095,-76.939659,1.41,26.1,33.0,3.0,0.8
100,6625304,1745475224338,0.0,85.0,,0.19,0.3,0.91,0.0,-1.0,-3.0,0.98,1.16,85.0,10964.0,99.4,5.61,,13.55,1.116,97.0,,54.1,5.0,,,,,,,,,,,,0,0,0,0,0,0,0,0,0,0,0,0,0,0,0,0,,,,,,0.0,,,,,,,
101,6625324,1745475224358,,,,,,,,,,,,,,,,,,,,,,,,,,,,,,,,,,0,0,0,0,0,0,0,0,0,0,0,0,0,0,0,0,,,,,,,,,,,,,
102,6625344,1745475224378,0.0,105.0,,0.22,0.39,0.98,1.0,0.0,-2.0,1.08,1.16,93.0,11506.0,99.4,5.36,,13.55,1.116,97.0,,57.4,5.0,,,,,,,,,,,,0,0,0,0,0,0,0,0,0,0,0,0,0,0,0,0,,,,,,0.0,,,,,,,
103,6625364,1745475224398,,,,,,,,,,,,,,,,,,,,,,,,,,,,,,,,,,0,0,0,0,0,0,0,0,0,0,0,0,0,0,0,0,,,,,,,,,,,,,
104,6625384,1745475224418,0.0,98.0,12.89,0.26,0.29,0.99,0.0,0.0,-2.0,1.06,1.16,92.0,11506.0,99.4,5.36,15.0,13.52,1.035,97.0,171.0,57.4,5.0,2.0,0.0,36.0,35.0,0.0,0.0,0.0,0.0,2.27,0.0,1.0,0,0,0,0,0,0,0,0,0,0,0,0,0,0,0,0,0.0,1.0,1.0,0.0,0.0,0.0,38.994095,-76.939652,3.59,26.1,33.0,3.0,0.8
105,6625404,1745475224438,,,,,,,,,,,,,,,,,,,,,,,,,,,,,,,,,,0,0,0,0,0,0,0,0,0,0,0,0,0,0,0,0,,,,,,,,,,,,,
106,6625424,1745475224458,0.0,85.0,,0.27,0.16,0.97,2.0,0.0,-1.0,1.02,1.16,88.0,11556.0,99.4,5.33,,13.44,1.019,97.0,,61.1,5.0,,,,,,,,,,,,0,0,0,0,0,0,0,0,0,0,0,0,0,0,0,0,,,,,,0.0,,,,,,,
107,6625444,1745475224478,,,,,,,,,,,,,,,,,,,,,,,,,,,,,,,,,,0,0,0,0,0,0,0,0,0,0,0,0,0,0,0,0,,,,,,,,,,,,,
108,6625464,1745475224495,0.0,95.0,,0.28,0.07,1.16,3.0,0.0,0.0,1.19,1.19,100.0,11703.0,99.4,5.29,,13.37,1.018,97.0,,61.1,5.0,,,,,,,,,,,,0,0,0,0,0,0,0,0,0,0,0,0,0,0,0,0,,,,,,0.0,,,,,,,
109,6625484,1745475224515,,,,,,,,,,,,,,,,,,,,,,,4.0,0.0,36.0,38.0,0.0,0.0,0.0,0.0,2.27,,,0,0,0,0,0,0,0,0,0,0,0,0,0,0,0,0,,0.0,,,,,38.994095,-76.939652,7.03,26.1,33.0,3.0,0.8
110,6625504,1745475224535,0.0,81.0,,0.32,0.29,1.23,3.0,0.0,0.0,1.3,1.3,100.0,11895.0,99.4,5.21,,13.32,1.028,97.0,,61.1,5.0,,,,,,,,,,,,0,0,0,0,0,0,0,0,0,0,0,0,0,0,0,0,,,,,,0.0,,,,,,,
111,6625524,1745475224555,,,,,,,,,,,,,,,,,,,,,,,,,,,,,,,,,,0,0,0,0,0,0,0,0,0,0,0,0,0,0,0,0,,,,,,,,,,,,,
112,6625544,1745475224575,0.0,85.0,,0.35,0.24,1.28,5.0,0.0,-1.0,1.35,1.35,100.0,12038.0,99.4,5.15,,13.32,1.028,97.0,,59.6,5.0,,,,,,,,,,,,0,0,0,0,0,0,0,0,0,0,0,0,0,0,0,0,,,,,,0.0,,,,,,,
113,6625564,1745475224597,,,,,,,,,,,,,,,,,,,,,,,,,,,,,,,,,,0,0,0,0,0,0,0,0,0,0,0,0,0,0,0,0,,,,,,,,,,,,,
114,6625584,1745475224617,0.0,91.0,,0.35,0.35,1.36,5.0,0.0,0.0,1.45,1.45,100.0,12038.0,99.4,5.15,,13.25,1.031,95.2,,59.6,5.0,6.0,0.0,37.0,37.0,0.0,0.0,0.0,0.0,2.26,,,0,0,0,0,0,0,0,0,0,0,0,0,0,0,0,0,,0.0,,,,0.0,38.994095,-76.939652,9.62,26.0,33.0,3.0,0.8
115,6625604,1745475224637,,,,,,,,,,,,,,,,,,,,,,,,,,,,,,,,,,0,0,0,0,0,0,0,0,0,0,0,0,0,0,0,0,,,,,,,,,,,,,
116,6625624,1745475224657,0.0,88.0,,0.39,0.37,1.46,6.0,0.0,0.0,1.56,1.56,100.0,11936.0,99.4,5.17,,13.21,1.043,95.2,,61.7,5.0,,,,,,,,,,,,0,0,0,0,0,0,0,0,0,0,0,0,0,0,0,0,,,,,,0.0,,,,,,,
117,6625644,1745475224677,,,,,,,,,,,,,,,,,,,,,,,,,,,,,,,,,,0,0,0,0,0,0,0,0,0,0,0,0,0,0,0,0,,,,,,,,,,,,,
118,6625664,1745475224697,0.0,95.0,,0.52,0.5,1.4,6.0,0.0,0.0,1.58,1.58,100.0,11807.0,99.5,5.24,,13.37,1.054,95.2,,61.7,5.0,,,,,,,,,,,,0,0,0,0,0,0,0,0,0,0,0,0,0,0,0,0,,,,,,0.0,,,,,,,
119,6625684,1745475224717,,,,,,,,,,,,,,,,,,,,,,,8.0,0.0,38.0,39.0,0.0,173.0,0.0,0.0,2.26,,,0,0,0,0,0,0,0,0,0,0,0,0,0,0,0,0,,0.0,,,,,38.994095,-76.939652,12.0,26.0,33.0,3.0,0.8
120,6625704,1745475224737,0.0,98.0,,0.56,0.32,1.3,6.0,0.0,0.0,1.45,1.58,92.0,11630.0,99.4,5.24,,13.25,1.039,95.2,,61.7,5.0,,,,,,,,,,,,0,0,0,0,0,0,0,0,0,0,0,0,0,0,0,0,,,,,,0.0,,,,,,,
121,6625724,1745475224757,,,,,,,,,,,,,,,,,,,,,,,,,,,,,,,,,,0,0,0,0,0,0,0,0,0,0,0,0,0,0,0,0,,,,,,,,,,,,,
122,6625744,1745475224777,0.0,85.0,,0.59,0.13,1.28,6.0,0.0,0.0,1.41,1.58,89.0,11673.0,99.5,5.29,,13.25,1.039,95.2,,55.9,5.0,,,,,,,,,,,,0,0,0,0,0,0,0,0,0,0,0,0,0,0,0,0,,,,,,0.0,,,,,,,
123,6625764,1745475224797,,,,,,,,,,,,,,,,,,,,,,,,,,,,,,,,,,0,0,0,0,0,0,0,0,0,0,0,0,0,0,0,0,,,,,,,,,,,,,
124,6625784,1745475224817,0.0,98.0,,0.58,0.02,1.17,7.0,0.0,0.0,1.31,1.58,83.0,11673.0,99.5,5.29,,13.31,1.069,95.2,,55.9,5.0,9.0,0.0,35.0,38.0,0.0,87.0,0.0,0.0,2.26,,,0,0,0,0,0,0,0,0,0,0,0,0,0,0,0,0,,0.0,,,,0.0,38.994095,-76.939652,15.49,26.0,33.0,3.0,0.8
125,6625804,1745475224837,,,,,,,,,,,,,,,,,,,,,,,,,,,,,,,,,,0,0,0,0,0,0,0,0,0,0,0,0,0,0,0,0,,,,,,,,,,,,,
126,6625824,1745475224857,0.0,105.0,,0.59,0.29,1.15,8.0,0.0,1.0,1.33,1.58,84.0,11621.0,99.5,5.29,,13.35,1.025,95.2,,58.7,5.0,,,,,,,,,,,,0,0,0,0,0,0,0,0,0,0,0,0,0,0,0,0,,,,,,0.0,,,,,,,
127,6625844,1745475224877,,,,,,,,,,,,,,,,,,,,,,,,,,,,,,,,,,0,0,0,0,0,0,0,0,0,0,0,0,0,0,0,0,,,,,,,,,,,,,
128,6625864,1745475224897,0.0,102.0,,0.6,0.25,1.15,6.0,0.0,0.0,1.32,1.58,84.0,11386.0,99.4,5.38,,13.4,1.009,95.2,,58.7,5.0,,,,,,,,,,,,0,0,0,0,0,0,0,0,0,0,0,0,0,0,0,0,,,,,,0.0,,,,,,,
129,6625884,1745475224917,,,,,,,,,,,,,,,,,,,,,,,12.0,9.0,36.0,37.0,0.0,203.0,0.0,0.0,2.27,,,0,0,0,0,0,0,0,0,0,0,0,0,0,0,0,0,,0.0,,,,,38.994099,-76.939644,18.31,26.0,33.0,3.0,0.8
130,6625904,1745475224937,0.0,98.0,,0.63,0.34,1.16,5.0,0.0,1.0,1.36,1.58,86.0,11202.0,99.4,5.44,,13.61,0.997,95.2,,58.7,5.0,,,,,,,,,,,,0,0,0,0,0,0,0,0,0,0,0,0,0,0,0,0,,,,,,0.0,,,,,,,
131,6625924,1745475224957,,,,,,,,,,,,,,,,,,,,,,,,,,,,,,,,,,0,0,0,0,0,0,0,0,0,0,0,0,0,0,0,0,,,,,,,,,,,,,
132,6625944,1745475224977,0.0,88.0,,0.67,0.25,1.15,5.0,0.0,1.0,1.36,1.58,86.0,11180.0,99.4,5.46,,13.61,0.997,95.2,,60.8,5.0,,,,,,,,,,,,0,0,0,0,0,0,0,0,0,0,0,0,0,0,0,0,,,,,,0.0,,,,,,,
133,6625964,1745475224997,,,,,,,,,,,,,,,,,,,,,,,,,,,,,,,,,,0,0,0,0,0,0,0,0,0,0,0,0,0,0,0,0,,,,,,,,,,,,,
134,6625984,1745475225009,0.0,95.0,,0.65,0.37,1.14,7.0,0.0,1.0,1.36,1.58,86.0,11180.0,99.4,5.46,,13.75,0.982,95.2,,60.8,5.0,14.0,9.0,34.0,34.0,0.0,237.0,0.0,0.0,2.26,,,0,0,0,0,0,0,0,0,0,0,0,0,0,0,0,0,,1.0,,,,0.0,38.994099,-76.939636,21.78,26.0,32.0,3.0,0.8
135,6626004,1745475225029,,,,,,,,,,,,,,,,,,,,,,,,,,,,,,,,,,0,0,0,0,0,0,0,0,0,0,0,0,0,0,0,0,,,,,,,,,,,,,
136,6626024,1745475225049,0.0,112.0,,0.66,0.24,1.14,7.0,0.0,1.0,1.34,1.58,85.0,11160.0,99.4,5.46,,13.51,0.979,95.2,,60.9,5.0,,,,,,,,,,,,0,0,0,0,0,0,0,0,0,0,0,0,0,0,0,0,,,,,,0.0,,,,,,,
137,6626044,1745475225069,,,,,,,,,,,,,,,,,,,,,,,,,,,,,,,,,,0,0,0,0,0,0,0,0,0,0,0,0,0,0,0,0,,,,,,,,,,,,,
138,6626064,1745475225092,0.0,108.0,,0.72,0.17,1.14,8.0,0.0,1.0,1.36,1.58,86.0,11067.0,99.4,5.46,,13.61,0.977,95.2,,60.9,5.0,,,,,,,,,,,,0,0,0,0,0,0,0,0,0,0,0,0,0,0,0,0,,,,,,0.0,,,,,,,
139,6626084,1745475225112,,,,,,,,,,,,,,,,,,,,,,,16.0,9.0,33.0,36.0,0.0,141.0,0.0,0.0,2.26,,,0,0,0,0,0,0,0,0,0,0,0,0,0,0,0,0,,0.0,,,,,38.994099,-76.939629,25.64,26.0,32.0,3.0,0.8
140,6626104,1745475225132,0.0,102.0,,0.72,0.24,1.13,8.0,0.0,1.0,1.36,1.58,86.0,10830.0,99.5,5.59,,13.77,0.969,95.2,,60.9,5.0,,,,,,,,,,,,0,0,0,0,0,0,0,0,0,0,0,0,0,0,0,0,,,,,,0.0,,,,,,,
141,6626124,1745475225152,,,,,,,,,,,,,,,,,,,,,,,,,,,,,,,,,,0,0,0,0,0,0,0,0,0,0,0,0,0,0,0,0,,,,,,,,,,,,,
142,6626144,1745475225172,0.0,102.0,,0.78,0.36,1.04,6.0,0.0,1.0,1.35,1.58,86.0,10489.0,99.5,5.81,,13.77,0.969,95.2,,60.5,5.0,,,,,,,,,,,,0,0,0,0,0,0,0,0,0,0,0,0,0,0,0,0,,,,,,0.0,,,,,,,
143,6626164,1745475225195,,,,,,,,,,,,,,,,,,,,,,,,,,,,,,,,,,0,0,0,0,0,0,0,0,0,0,0,0,0,0,0,0,,,,,,,,,,,,,
144,6626184,1745475225215,0.0,112.0,,0.77,0.71,1.04,4.0,0.0,1.0,1.48,1.58,93.0,10489.0,99.5,5.81,,13.73,0.961,95.2,,60.5,5.0,19.0,9.0,34.0,33.0,0.0,10.0,0.0,0.0,2.26,,,0,0,0,0,0,0,0,0,0,0,0,0,0,0,0,0,,0.0,,,,0.0,38.994099,-76.939613,28.92,26.0,32.0,3.0,0.8
145,6626204,1745475225235,,,,,,,,,,,,,,,,,,,,,,,,,,,,,,,,,,0,0,0,0,0,0,0,0,0,0,0,0,0,0,0,0,,,,,,,,,,,,,
146,6626224,1745475225255,0.0,125.0,,0.75,0.77,1.09,2.0,0.0,1.0,1.53,1.58,97.0,10373.0,99.4,5.87,,13.72,0.978,95.2,,57.8,5.0,,,,,,,,,,,,0,0,0,0,0,0,0,0,0,0,0,0,0,0,0,0,,,,,,0.0,,,,,,,
147,6626244,1745475225275,,,,,,,,,,,,,,,,,,,,,,,,,,,,,,,,,,0,0,0,0,0,0,0,0,0,0,0,0,0,0,0,0,,,,,,,,,,,,,
148,6626264,1745475225297,0.0,119.0,,0.72,0.55,1.12,1.0,0.0,2.0,1.44,1.58,91.0,10387.0,99.5,5.87,,13.77,0.953,95.2,,57.8,5.0,,,,,,,,,,,,0,0,0,0,0,0,0,0,0,0,0,0,0,0,0,0,,,,,,0.0,,,,,,,
149,6626284,1745475225317,,,,,,,,,,,,,,,,,,,,,,,20.0,9.0,33.0,31.0,0.0,4.0,0.0,0.0,2.27,,,0,0,0,0,0,0,0,0,0,0,0,0,0,0,0,0,,1.0,,,,,38.994099,-76.939613,33.42,26.0,32.0,3.0,0.8
150,6626304,1745475225337,0.0,125.0,,0.73,0.13,1.12,1.0,0.0,2.0,1.35,1.58,85.0,10366.0,99.4,5.89,,13.73,0.938,95.2,,57.8,5.0,,,,,,,,,,,,0,0,0,0,0,0,0,0,0,0,0,0,0,0,0,0,,,,,,0.0,,,,,,,
151,6626324,1745475225357,,,,,,,,,,,,,,,,,,,,,,,,,,,,,,,,,,0,0,0,0,0,0,0,0,0,0,0,0,0,0,0,0,,,,,,,,,,,,,
152,6626344,1745475225377,0.0,132.0,,0.81,0.24,1.0,-2.0,0.0,2.0,1.31,1.58,83.0,10148.0,99.4,6.01,,13.73,0.938,95.2,,60.1,5.0,,,,,,,,,,,,0,0,0,0,0,0,0,0,0,0,0,0,0,0,0,0,,,,,,0.0,,,,,,,
153,6626364,1745475225397,,,,,,,,,,,,,,,,,,,,,,,,,,,,,,,,,,0,0,0,0,0,0,0,0,0,0,0,0,0,0,0,0,,,,,,,,,,,,,
154,6626384,1745475225417,0.0,132.0,12.92,0.81,0.11,0.98,-3.0,0.0,3.0,1.28,1.58,81.0,10148.0,99.4,6.01,15.0,13.63,0.936,95.2,173.0,60.1,5.0,23.0,30.0,32.0,29.0,0.0,228.0,0.0,0.0,2.26,0.0,1.0,0,0,0,0,0,0,0,0,0,0,0,0,0,0,0,0,0.0,0.0,1.0,0.0,0.0,0.0,38.994099,-76.939598,36.52,25.9,32.0,3.0,0.8
155,6626404,1745475225437,,,,,,,,,,,,,,,,,,,,,,,,,,,,,,,,,,0,0,0,0,0,0,0,0,0,0,0,0,0,0,0,0,,,,,,,,,,,,,
156,6626424,1745475225457,0.0,129.0,,0.78,0.2,0.97,-6.0,0.0,2.0,1.26,1.58,80.0,10067.0,99.5,6.07,,13.72,0.936,95.2,,58.8,5.0,,,,,,,,,,,,0,0,0,0,0,0,0,0,0,0,0,0,0,0,0,0,,,,,,0.0,,,,,,,
157,6626444,1745475225477,,,,,,,,,,,,,,,,,,,,,,,,,,,,,,,,,,0,0,0,0,0,0,0,0,0,0,0,0,0,0,0,0,,,,,,,,,,,,,
158,6626464,1745475225496,0.0,135.0,,0.76,-0.08,0.97,-9.0,0.0,3.0,1.24,1.58,79.0,10250.0,99.2,5.96,,13.73,0.923,95.2,,58.8,5.0,,,,,,,,,,,,0,0,0,0,0,0,0,0,0,0,0,0,0,0,0,0,,,,,,0.0,,,,,,,
159,6626484,1745475225516,,,,,,,,,,,,,,,,,,,,,,,24.0,25.0,29.0,30.0,0.0,34.0,0.0,0.0,2.26,,,0,0,0,0,0,0,0,0,0,0,0,0,0,0,0,0,,1.0,,,,,38.994102,-76.939583,40.77,25.9,32.0,3.0,0.8
160,6626504,1745475225536,0.0,122.0,,0.82,-0.04,0.99,-11.0,1.0,2.0,1.29,1.58,82.0,10192.0,64.1,5.48,,13.28,0.909,95.2,,58.8,5.0,,,,,,,,,,,,0,0,0,0,0,0,0,0,0,0,0,0,0,0,0,0,,,,,,0.0,,,,,,,
161,6626524,1745475225556,,,,,,,,,,,,,,,,,,,,,,,,,,,,,,,,,,0,0,0,0,0,0,0,0,0,0,0,0,0,0,0,0,,,,,,,,,,,,,
162,6626544,1745475225576,0.0,134.0,,0.78,-0.06,1.08,-12.0,1.0,4.0,1.33,1.58,84.0,9874.0,30.7,5.25,,13.28,0.909,95.2,,58.6,5.0,,,,,,,,,,,,0,0,0,0,0,0,0,0,0,0,0,0,0,0,0,0,,,,,,0.0,,,,,,,
163,6626564,1745475225598,,,,,,,,,,,,,,,,,,,,,,,,,,,,,,,,,,0,0,0,0,0,0,0,0,0,0,0,0,0,0,0,0,,,,,,,,,,,,,
164,6626584,1745475225618,0.0,134.0,,0.73,-0.08,1.12,-14.0,1.0,3.0,1.34,1.58,85.0,9874.0,30.7,5.25,,12.03,0.914,93.4,,58.6,5.0,26.0,27.0,31.0,31.0,0.0,57.0,0.0,0.0,2.26,,,0,0,0,0,0,0,0,0,0,0,0,0,0,0,0,0,,1.0,,,,0.0,38.994102,-76.939575,43.5,25.9,32.0,3.0,0.8
165,6626604,1745475225638,,,,,,,,,,,,,,,,,,,,,,,,,,,,,,,,,,0,0,0,0,0,0,0,0,0,0,0,0,0,0,0,0,,,,,,,,,,,,,
166,6626624,1745475225658,0.0,134.0,,0.65,0.0,1.1,-15.0,0.0,4.0,1.28,1.58,81.0,9890.0,22.3,4.92,,10.69,0.905,93.4,,58.0,5.0,,,,,,,,,,,,0,0,0,0,0,0,0,0,0,0,0,0,0,0,0,0,,,,,,0.0,,,,,,,
167,6626644,1745475225678,,,,,,,,,,,,,,,,,,,,,,,,,,,,,,,,,,0,0,0,0,0,0,0,0,0,0,0,0,0,0,0,0,,,,,,,,,,,,,
168,6626664,1745475225696,0.0,134.0,,0.57,-0.25,1.08,-17.0,-2.0,4.0,1.25,1.58,79.0,10033.0,19.4,3.63,,10.02,0.854,93.4,,58.0,5.0,,,,,,,,,,,,0,0,0,0,0,0,0,0,0,0,0,0,0,0,0,0,,,,,,0.0,,,,,,,
169,6626684,1745475225716,,,,,,,,,,,,,,,,,,,,,,,27.0,30.0,30.0,31.0,0.0,73.0,0.0,0.0,2.26,,,0,0,0,0,0,0,0,0,0,0,0,0,0,0,0,0,,1.0,,,,,38.994102,-76.93956,47.46,25.9,32.0,3.0,0.8
170,6626704,1745475225736,0.0,134.0,,0.45,-0.11,1.06,-21.0,-2.0,4.0,1.16,1.58,73.0,10190.0,11.9,2.66,,8.98,0.827,93.4,,58.0,5.0,,,,,,,,,,,,0,0,0,0,0,0,0,0,0,0,0,0,0,0,0,0,,,,,,0.0,,,,,,,
171,6626724,1745475225756,,,,,,,,,,,,,,,,,,,,,,,,,,,,,,,,,,0,0,0,0,0,0,0,0,0,0,0,0,0,0,0,0,,,,,,,,,,,,,
172,6626744,1745475225776,0.0,135.0,,0.39,-0.13,1.02,-25.0,-1.0,3.0,1.1,1.58,70.0,10445.0,9.4,2.27,,8.98,0.827,93.4,,53.5,5.0,,,,,,,,,,,,0,0,0,0,0,0,0,0,0,0,0,0,0,0,0,0,,,,,,0.0,,,,,,,
173,6626764,1745475225798,,,,,,,,,,,,,,,,,,,,,,,,,,,,,,,,,,0,0,0,0,0,0,0,0,0,0,0,0,0,0,0,0,,,,,,,,,,,,,
174,6626784,1745475225818,0.0,134.0,,0.35,-0.31,1.04,-26.0,-1.0,3.0,1.14,1.58,72.0,10445.0,9.4,2.27,,8.09,0.84,93.4,,53.5,5.0,28.0,106.0,31.0,32.0,0.0,24.0,0.0,0.0,2.27,,,0,0,0,0,0,0,0,0,0,0,0,0,0,0,0,0,,1.0,,,,0.0,38.994102,-76.939537,48.16,25.8,32.0,3.0,0.8
175,6626804,1745475225838,,,,,,,,,,,,,,,,,,,,,,,,,,,,,,,,,,0,0,0,0,0,0,0,0,0,0,0,0,0,0,0,0,,,,,,,,,,,,,
176,6626824,1745475225858,0.0,134.0,,0.34,-0.7,1.09,-26.0,-1.0,2.0,1.34,1.34,100.0,10325.0,4.3,1.89,,7.11,0.862,93.4,,58.1,5.0,,,,,,,,,,,,0,0,0,0,0,0,0,0,0,0,0,0,0,0,0,0,,,,,,0.0,,,,,,,
177,6626844,1745475225878,,,,,,,,,,,,,,,,,,,,,,,,,,,,,,,,,,0,0,0,0,0,0,0,0,0,0,0,0,0,0,0,0,,,,,,,,,,,,,
178,6626864,1745475225896,0.0,134.0,,0.2,-0.71,1.11,-28.0,-2.0,2.0,1.33,1.34,100.0,10040.0,2.0,1.4,,6.38,0.892,93.4,,58.1,5.0,,,,,,,,,,,,0,0,0,0,0,0,0,0,0,0,0,0,0,0,0,0,,,,,,0.0,,,,,,,
179,6626884,1745475225916,,,,,,,,,,,,,,,,,,,,,,,29.0,31.0,29.0,32.0,0.0,12.0,0.0,0.0,2.27,,,0,0,0,0,0,0,0,0,0,0,0,0,0,0,0,0,,0.0,,,,,38.994102,-76.939529,47.95,25.8,32.0,3.0,0.8
180,6626904,1745475225936,0.0,134.0,,0.12,-0.68,1.04,-30.0,-1.0,2.0,1.25,1.34,93.0,9866.0,1.1,1.4,,5.86,0.919,93.4,,58.1,5.0,,,,,,,,,,,,0,0,0,0,0,0,0,0,0,0,0,0,0,0,0,0,,,,,,0.0,,,,,,,
181,6626924,1745475225956,,,,,,,,,,,,,,,,,,,,,,,,,,,,,,,,,,0,0,0,0,0,0,0,0,0,0,0,0,0,0,0,0,,,,,,,,,,,,,
182,6626944,1745475225976,0.0,135.0,,0.06,-0.58,1.1,-33.0,0.0,2.0,1.25,1.34,94.0,9731.0,1.2,1.4,,5.86,0.919,93.4,,50.6,5.0,,,,,,,,,,,,0,0,0,0,0,0,0,0,0,0,0,0,0,0,0,0,,,,,,0.0,,,,,,,
183,6626964,1745475225996,,,,,,,,,,,,,,,,,,,,,,,,,,,,,,,,,,0,0,0,0,0,0,0,0,0,0,0,0,0,0,0,0,,,,,,,,,,,,,
184,6626984,1745475226010,0.0,134.0,,-0.01,-0.65,1.08,-37.0,0.0,2.0,1.26,1.34,94.0,9731.0,1.2,1.4,,5.68,0.981,93.4,,50.6,5.0,28.0,33.0,29.0,33.0,0.0,2.0,0.0,0.0,2.26,,,0,0,0,0,0,0,0,0,0,0,0,0,0,0,0,0,,0.0,,,,0.0,38.994099,-76.939506,48.51,25.8,30.0,3.0,0.8
185,6627004,1745475226030,,,,,,,,,,,,,,,,,,,,,,,,,,,,,,,,,,0,0,0,0,0,0,0,0,0,0,0,0,0,0,0,0,,,,,,,,,,,,,
186,6627024,1745475226050,0.0,134.0,,-0.07,-0.68,1.08,-39.0,-1.0,2.0,1.28,1.34,96.0,9562.0,1.5,1.4,,5.4,1.04,93.4,,50.5,5.0,,,,,,,,,,,,0,0,0,0,0,0,0,0,0,0,0,0,0,0,0,0,,,,,,0.0,,,,,,,
187,6627044,1745475226070,,,,,,,,,,,,,,,,,,,,,,,,,,,,,,,,,,0,0,0,0,0,0,0,0,0,0,0,0,0,0,0,0,,,,,,,,,,,,,
188,6627064,1745475226096,0.0,134.0,,-0.18,-0.87,1.07,-42.0,-2.0,2.0,1.39,1.39,100.0,9437.0,1.4,1.4,,5.15,1.071,93.4,,50.5,5.0,,,,,,,,,,,,0,0,0,0,0,0,0,0,0,0,0,0,0,0,0,0,,,,,,0.0,,,,,,,
189,6627084,1745475226116,,,,,,,,,,,,,,,,,,,,,,,27.0,31.0,28.0,32.0,0.0,18.0,0.0,0.0,2.27,,,0,0,0,0,0,0,0,0,0,0,0,0,0,0,0,0,,0.0,,,,,38.994095,-76.939499,46.9,25.8,30.0,3.0,0.8
190,6627104,1745475226136,0.0,134.0,,-0.26,-1.02,1.02,-46.0,-2.0,2.0,1.47,1.47,100.0,9400.0,1.2,1.4,,5.07,1.123,93.4,,50.5,5.0,,,,,,,,,,,,0,0,0,0,0,0,0,0,0,0,0,0,0,0,0,0,,,,,,0.0,,,,,,,
191,6627124,1745475226156,,,,,,,,,,,,,,,,,,,,,,,,,,,,,,,,,,0,0,0,0,0,0,0,0,0,0,0,0,0,0,0,0,,,,,,,,,,,,,
192,6627144,1745475226176,0.0,135.0,,-0.3,-0.91,1.04,-48.0,-1.0,2.0,1.41,1.47,96.0,9178.0,1.6,1.4,,5.07,1.123,93.4,,49.8,5.0,,,,,,,,,,,,0,0,0,0,0,0,0,0,0,0,0,0,0,0,0,0,,,,,,0.0,,,,,,,
193,6627164,1745475226198,,,,,,,,,,,,,,,,,,,,,,,,,,,,,,,,,,0,0,0,0,0,0,0,0,0,0,0,0,0,0,0,0,,,,,,,,,,,,,
194,6627184,1745475226218,0.0,134.0,,-0.32,-0.8,1.09,-51.0,0.0,2.0,1.38,1.47,94.0,9178.0,1.6,1.4,,5.12,1.206,93.4,,49.8,5.0,27.0,31.0,25.0,30.0,0.0,39.0,0.0,0.0,2.27,,,0,0,0,0,0,0,0,0,0,0,0,0,0,0,0,0,,0.0,,,,0.0,38.994095,-76.939484,46.21,25.7,31.0,3.0,0.8
195,6627204,1745475226238,,,,,,,,,,,,,,,,,,,,,,,,,,,,,,,,,,0,0,0,0,0,0,0,0,0,0,0,0,0,0,0,0,,,,,,,,,,,,,
196,6627224,1745475226258,0.0,135.0,,-0.37,-0.65,1.11,-52.0,0.0,2.0,1.34,1.47,91.0,9005.0,9.0,1.66,,5.68,1.25,93.4,,49.7,5.0,,,,,,,,,,,,0,0,0,0,0,0,0,0,0,0,0,0,0,0,0,0,,,,,,0.0,,,,,,,
197,6627244,1745475226278,,,,,,,,,,,,,,,,,,,,,,,,,,,,,,,,,,0,0,0,0,0,0,0,0,0,0,0,0,0,0,0,0,,,,,,,,,,,,,
198,6627264,1745475226298,0.0,133.0,,-0.42,-0.66,1.11,-52.0,-1.0,2.0,1.36,1.47,92.0,8946.0,11.9,2.01,,6.44,1.25,93.4,,49.7,5.0,,,,,,,,,,,,0,0,0,0,0,0,0,0,0,0,0,0,0,0,0,0,,,,,,0.0,,,,,,,
199,6627284,1745475226318,,,,,,,,,,,,,,,,,,,,,,,28.0,30.0,25.0,29.0,0.0,223.0,0.0,0.0,2.27,,,0,0,0,0,0,0,0,0,0,0,0,0,0,0,0,0,,0.0,,,,,38.994087,-76.939468,43.47,25.6,31.0,3.0,0.8
200,6627304,1745475226338,0.0,133.0,,-0.44,-0.69,1.14,-53.0,0.0,1.0,1.4,1.47,95.0,9041.0,12.7,2.19,,7.06,1.252,93.4,,49.7,5.0,,,,,,,,,,,,0,0,0,0,0,0,0,0,0,0,0,0,0,0,0,0,,,,,,0.0,,,,,,,
201,6627324,1745475226358,,,,,,,,,,,,,,,,,,,,,,,,,,,,,,,,,,0,0,0,0,0,0,0,0,0,0,0,0,0,0,0,0,,,,,,,,,,,,,
202,6627344,1745475226378,0.0,134.0,,-0.45,-0.58,1.08,-54.0,0.0,1.0,1.31,1.47,89.0,9157.0,13.3,2.37,,7.06,1.252,93.4,,50.4,5.0,,,,,,,,,,,,0,0,0,0,0,0,0,0,0,0,0,0,0,0,0,0,,,,,,0.0,,,,,,,
203,6627364,1745475226398,,,,,,,,,,,,,,,,,,,,,,,,,,,,,,,,,,0,0,0,0,0,0,0,0,0,0,0,0,0,0,0,0,,,,,,,,,,,,,
204,6627384,1745475226418,0.0,133.0,13.05,-0.43,-0.77,1.04,-56.0,1.0,1.0,1.36,1.47,93.0,9157.0,13.3,2.37,15.0,7.45,1.252,93.4,173.0,50.4,5.0,26.0,28.0,25.0,29.0,0.0,226.0,0.0,0.0,2.26,0.0,1.0,0,0,0,0,0,0,0,0,0,0,0,0,0,0,0,0,0.0,0.0,1.0,0.0,0.0,0.0,38.99408,-76.939453,42.81,25.6,31.0,3.0,0.8
205,6627404,1745475226438,,,,,,,,,,,,,,,,,,,,,,,,,,,,,,,,,,0,0,0,0,0,0,0,0,0,0,0,0,0,0,0,0,,,,,,,,,,,,,
206,6627424,1745475226458,0.0,134.0,,-0.48,-0.79,1.05,-55.0,1.0,1.0,1.4,1.47,95.0,9289.0,13.8,2.48,,7.67,1.222,93.4,,50.5,5.0,,,,,,,,,,,,0,0,0,0,0,0,0,0,0,0,0,0,0,0,0,0,,,,,,0.0,,,,,,,
207,6627444,1745475226478,,,,,,,,,,,,,,,,,,,,,,,,,,,,,,,,,,0,0,0,0,0,0,0,0,0,0,0,0,0,0,0,0,,,,,,,,,,,,,
208,6627464,1745475226497,0.0,134.0,,-0.47,-0.87,1.03,-55.0,1.0,1.0,1.43,1.47,97.0,9412.0,13.9,2.47,,7.81,1.142,93.4,,50.5,5.0,,,,,,,,,,,,0,0,0,0,0,0,0,0,0,0,0,0,0,0,0,0,,,,,,0.0,,,,,,,
209,6627484,1745475226517,,,,,,,,,,,,,,,,,,,,,,,24.0,28.0,25.0,29.0,0.0,242.0,0.0,0.0,2.26,,,0,0,0,0,0,0,0,0,0,0,0,0,0,0,0,0,,0.0,,,,,38.994076,-76.939446,41.57,25.6,31.0,3.0,0.8
210,6627504,1745475226537,0.0,133.0,,-0.42,-0.87,1.05,-55.0,2.0,0.0,1.43,1.47,97.0,9324.0,13.9,2.51,,7.82,1.118,93.4,,50.5,5.0,,,,,,,,,,,,0,0,0,0,0,0,0,0,0,0,0,0,0,0,0,0,,,,,,0.0,,,,,,,
211,6627524,1745475226557,,,,,,,,,,,,,,,,,,,,,,,,,,,,,,,,,,0,0,0,0,0,0,0,0,0,0,0,0,0,0,0,0,,,,,,,,,,,,,
212,6627544,1745475226577,0.0,133.0,,-0.35,-0.63,1.03,-55.0,2.0,0.0,1.26,1.47,85.0,9146.0,13.8,2.55,,7.82,1.118,93.4,,50.6,5.0,,,,,,,,,,,,0,0,0,0,0,0,0,0,0,0,0,0,0,0,0,0,,,,,,0.0,,,,,,,
213,6627564,1745475226597,,,,,,,,,,,,,,,,,,,,,,,,,,,,,,,,,,0,0,0,0,0,0,0,0,0,0,0,0,0,0,0,0,,,,,,,,,,,,,
214,6627584,1745475226617,0.0,133.0,,-0.36,-0.68,1.01,-52.0,1.0,1.0,1.27,1.27,100.0,9146.0,13.8,2.55,,7.95,1.118,91.6,,50.6,5.0,24.0,27.0,27.0,28.0,0.0,105.0,0.0,0.0,2.27,,,0,0,0,0,0,0,0,0,0,0,0,0,0,0,0,0,,1.0,,,,0.0,38.994068,-76.939438,41.24,25.6,31.0,3.0,0.8
215,6627604,1745475226637,,,,,,,,,,,,,,,,,,,,,,,,,,,,,,,,,,0,0,0,0,0,0,0,0,0,0,0,0,0,0,0,0,,,,,,,,,,,,,
216,6627624,1745475226657,0.0,133.0,,-0.37,-0.76,0.99,-52.0,1.0,0.0,1.3,1.3,100.0,9028.0,13.5,2.6,,8.01,1.117,91.6,,50.4,5.0,,,,,,,,,,,,0,0,0,0,0,0,0,0,0,0,0,0,0,0,0,0,,,,,,0.0,,,,,,,
217,6627644,1745475226677,,,,,,,,,,,,,,,,,,,,,,,,,,,,,,,,,,0,0,0,0,0,0,0,0,0,0,0,0,0,0,0,0,,,,,,,,,,,,,
218,6627664,1745475226699,0.0,133.0,,-0.35,-0.97,0.99,-52.0,1.0,1.0,1.43,1.43,100.0,8992.0,13.6,2.61,,8.18,1.103,91.6,,50.4,5.0,,,,,,,,,,,,0,0,0,0,0,0,0,0,0,0,0,0,0,0,0,0,,,,,,0.0,,,,,,,
219,6627684,1745475226719,,,,,,,,,,,,,,,,,,,,,,,24.0,27.0,26.0,29.0,0.0,244.0,0.0,0.0,2.27,,,0,0,0,0,0,0,0,0,0,0,0,0,0,0,0,0,,0.0,,,,,38.994057,-76.93943,41.48,25.6,31.0,3.0,0.8
220,6627704,1745475226739,0.0,133.0,,-0.38,-0.94,0.92,-53.0,1.0,2.0,1.36,1.43,96.0,8965.0,13.6,2.63,,8.25,1.091,91.6,,50.4,5.0,,,,,,,,,,,,0,0,0,0,0,0,0,0,0,0,0,0,0,0,0,0,,,,,,0.0,,,,,,,
221,6627724,1745475226759,,,,,,,,,,,,,,,,,,,,,,,,,,,,,,,,,,0,0,0,0,0,0,0,0,0,0,0,0,0,0,0,0,,,,,,,,,,,,,
222,6627744,1745475226779,0.0,133.0,,-0.37,-0.89,0.86,-54.0,1.0,1.0,1.29,1.43,91.0,8998.0,11.0,2.52,,8.25,1.091,91.6,,50.0,5.0,,,,,,,,,,,,0,0,0,0,0,0,0,0,0,0,0,0,0,0,0,0,,,,,,0.0,,,,,,,
223,6627764,1745475226799,,,,,,,,,,,,,,,,,,,,,,,,,,,,,,,,,,0,0,0,0,0,0,0,0,0,0,0,0,0,0,0,0,,,,,,,,,,,,,
224,6627784,1745475226819,0.0,133.0,,-0.33,-0.85,0.82,-55.0,2.0,1.0,1.23,1.43,86.0,8998.0,11.0,2.52,,8.07,1.083,91.6,,50.0,5.0,25.0,26.0,26.0,28.0,0.0,252.0,0.0,0.0,2.27,,,0,0,0,0,0,0,0,0,0,0,0,0,0,0,0,0,,1.0,,,,0.0,38.994053,-76.939423,40.4,25.6,31.0,3.0,0.8
225,6627804,1745475226839,,,,,,,,,,,,,,,,,,,,,,,,,,,,,,,,,,0,0,0,0,0,0,0,0,0,0,0,0,0,0,0,0,,,,,,,,,,,,,
226,6627824,1745475226859,0.0,133.0,,-0.31,-0.7,0.8,-55.0,2.0,2.0,1.11,1.43,78.0,9050.0,7.5,2.34,,7.43,1.081,91.6,,49.9,5.0,,,,,,,,,,,,0,0,0,0,0,0,0,0,0,0,0,0,0,0,0,0,,,,,,0.0,,,,,,,
227,6627844,1745475226879,,,,,,,,,,,,,,,,,,,,,,,,,,,,,,,,,,0,0,0,0,0,0,0,0,0,0,0,0,0,0,0,0,,,,,,,,,,,,,
228,6627864,1745475226899,0.0,133.0,,-0.28,-0.68,0.83,-54.0,1.0,1.0,1.11,1.43,78.0,8816.0,3.2,1.5,,6.83,1.072,91.6,,49.9,5.0,,,,,,,,,,,,0,0,0,0,0,0,0,0,0,0,0,0,0,0,0,0,,,,,,0.0,,,,,,,
229,6627884,1745475226919,,,,,,,,,,,,,,,,,,,,,,,23.0,30.0,26.0,26.0,0.0,237.0,0.0,0.0,2.27,,,0,0,0,0,0,0,0,0,0,0,0,0,0,0,0,0,,1.0,,,,,38.994041,-76.939415,39.95,25.5,31.0,3.0,0.8
230,6627904,1745475226939,0.0,133.0,,-0.32,-0.8,0.8,-53.0,0.0,1.0,1.18,1.43,82.0,8234.0,0.5,1.4,,6.35,1.059,91.6,,49.9,5.0,,,,,,,,,,,,0,0,0,0,0,0,0,0,0,0,0,0,0,0,0,0,,,,,,0.0,,,,,,,
231,6627924,1745475226959,,,,,,,,,,,,,,,,,,,,,,,,,,,,,,,,,,0,0,0,0,0,0,0,0,0,0,0,0,0,0,0,0,,,,,,,,,,,,,
232,6627944,1745475226979,0.0,133.0,,-0.38,-0.81,0.88,-54.0,0.0,2.0,1.26,1.43,88.0,7709.0,0.2,1.4,,6.35,1.059,91.6,,49.8,5.0,,,,,,,,,,,,0,0,0,0,0,0,0,0,0,0,0,0,0,0,0,0,,,,,,0.0,,,,,,,
233,6627964,1745475226991,,,,,,,,,,,,,,,,,,,,,,,,,,,,,,,,,,0,0,0,0,0,0,0,0,0,0,0,0,0,0,0,0,,,,,,,,,,,,,
234,6627984,1745475227011,0.0,133.0,,-0.46,-0.72,0.92,-55.0,1.0,0.0,1.26,1.43,88.0,7709.0,0.2,1.4,,6.07,1.084,91.6,,49.8,5.0,23.0,27.0,24.0,27.0,0.0,41.0,0.0,0.0,2.27,,,0,0,0,0,0,0,0,0,0,0,0,0,0,0,0,0,,0.0,,,,0.0,38.994034,-76.939415,40.81,25.5,30.0,3.0,0.8
235,6628004,1745475227031,,,,,,,,,,,,,,,,,,,,,,,,,,,,,,,,,,0,0,0,0,0,0,0,0,0,0,0,0,0,0,0,0,,,,,,,,,,,,,
236,6628024,1745475227051,0.0,133.0,,-0.5,-0.71,0.92,-57.0,1.0,1.0,1.27,1.43,89.0,7395.0,0.0,1.4,,6.08,1.231,91.6,,49.2,5.0,,,,,,,,,,,,0,0,0,0,0,0,0,0,0,0,0,0,0,0,0,0,,,,,,0.0,,,,,,,
237,6628044,1745475227071,,,,,,,,,,,,,,,,,,,,,,,,,,,,,,,,,,0,0,0,0,0,0,0,0,0,0,0,0,0,0,0,0,,,,,,,,,,,,,
238,6628064,1745475227099,0.0,132.0,,-0.54,-0.77,0.93,-58.0,0.0,1.0,1.33,1.43,93.0,7391.0,0.0,1.4,,6.1,1.25,91.6,,49.2,5.0,,,,,,,,,,,,0,0,0,0,0,0,0,0,0,0,0,0,0,0,0,0,,,,,,0.0,,,,,,,
239,6628084,1745475227119,,,,,,,,,,,,,,,,,,,,,,,23.0,25.0,20.0,24.0,0.0,43.0,0.0,0.0,2.26,,,0,0,0,0,0,0,0,0,0,0,0,0,0,0,0,0,,0.0,,,,,38.994022,-76.939407,37.72,25.5,30.0,3.0,0.8
240,6628104,1745475227139,0.0,132.0,,-0.56,-0.94,0.92,-59.0,-1.0,1.0,1.43,1.43,100.0,7379.0,0.0,1.4,,6.12,1.251,91.6,,49.2,5.0,,,,,,,,,,,,0,0,0,0,0,0,0,0,0,0,0,0,0,0,0,0,,,,,,0.0,,,,,,,
241,6628124,1745475227159,,,,,,,,,,,,,,,,,,,,,,,,,,,,,,,,,,0,0,0,0,0,0,0,0,0,0,0,0,0,0,0,0,,,,,,,,,,,,,
242,6628144,1745475227179,0.0,132.0,,-0.64,-0.91,0.89,-60.0,0.0,1.0,1.42,1.43,100.0,7162.0,0.0,1.4,,6.12,1.251,91.6,,49.2,5.0,,,,,,,,,,,,0,0,0,0,0,0,0,0,0,0,0,0,0,0,0,0,,,,,,0.0,,,,,,,
243,6628164,1745475227199,,,,,,,,,,,,,,,,,,,,,,,,,,,,,,,,,,0,0,0,0,0,0,0,0,0,0,0,0,0,0,0,0,,,,,,,,,,,,,
244,6628184,1745475227219,0.0,133.0,,-0.61,-0.93,0.91,-63.0,0.0,0.0,1.43,1.43,100.0,7162.0,0.0,1.4,,6.04,1.25,91.6,,49.2,5.0,20.0,25.0,17.0,25.0,0.0,34.0,0.0,0.0,2.27,,,0,0,0,0,0,0,0,0,0,0,0,0,0,0,0,0,,0.0,,,,0.0,38.994015,-76.939407,36.46,25.5,32.0,3.0,0.8
245,6628204,1745475227239,,,,,,,,,,,,,,,,,,,,,,,,,,,,,,,,,,0,0,0,0,0,0,0,0,0,0,0,0,0,0,0,0,,,,,,,,,,,,,
246,6628224,1745475227259,0.0,133.0,,-0.64,-0.91,0.92,-63.0,0.0,0.0,1.44,1.44,100.0,6764.0,0.0,1.4,,6.39,1.251,91.6,,48.1,5.0,,,,,,,,,,,,0,0,0,0,0,0,0,0,0,0,0,0,0,0,0,0,,,,,,0.0,,,,,,,
247,6628244,1745475227279,,,,,,,,,,,,,,,,,,,,,,,,,,,,,,,,,,0,0,0,0,0,0,0,0,0,0,0,0,0,0,0,0,,,,,,,,,,,,,
248,6628264,1745475227299,0.0,129.0,,-0.68,-0.95,0.91,-63.0,0.0,0.0,1.48,1.48,100.0,6584.0,0.0,1.4,,6.59,1.252,91.6,,48.1,5.0,,,,,,,,,,,,0,0,0,0,0,0,0,0,0,0,0,0,0,0,0,0,,,,,,0.0,,,,,,,
249,6628284,1745475227319,,,,,,,,,,,,,,,,,,,,,,,20.0,21.0,17.0,22.0,0.0,195.0,0.0,0.0,2.27,,,0,0,0,0,0,0,0,0,0,0,0,0,0,0,0,0,,0.0,,,,,38.994007,-76.939407,33.68,25.5,32.0,3.0,0.8
250,6628304,1745475227339,0.0,132.0,,-0.72,-0.97,0.88,-63.0,0.0,0.0,1.49,1.49,100.0,6462.0,1.4,1.4,,6.96,1.253,91.6,,48.1,5.0,,,,,,,,,,,,0,0,0,0,0,0,0,0,0,0,0,0,0,0,0,0,,,,,,0.0,,,,,,,
251,6628324,1745475227359,,,,,,,,,,,,,,,,,,,,,,,,,,,,,,,,,,0,0,0,0,0,0,0,0,0,0,0,0,0,0,0,0,,,,,,,,,,,,,
252,6628344,1745475227379,0.0,132.0,,-0.68,-1.08,0.89,-64.0,0.0,0.0,1.55,1.55,100.0,6236.0,4.8,2.06,,6.96,1.253,91.6,,47.8,5.0,,,,,,,,,,,,0,0,0,0,0,0,0,0,0,0,0,0,0,0,0,0,,,,,,0.0,,,,,,,
253,6628364,1745475227399,,,,,,,,,,,,,,,,,,,,,,,,,,,,,,,,,,0,0,0,0,0,0,0,0,0,0,0,0,0,0,0,0,,,,,,,,,,,,,
254,6628384,1745475227419,0.0,132.0,13.11,-0.73,-1.02,1.0,-65.0,0.0,0.0,1.6,1.6,100.0,6236.0,4.8,2.06,15.0,7.57,1.253,91.6,173.0,47.8,5.0,18.0,22.0,16.0,23.0,0.0,200.0,0.0,0.0,2.27,0.0,1.0,0,0,0,0,0,0,0,0,0,0,0,0,0,0,0,0,0.0,0.0,1.0,0.0,0.0,0.0,38.993996,-76.939407,32.32,25.5,32.0,3.0,0.8
255,6628404,1745475227439,,,,,,,,,,,,,,,,,,,,,,,,,,,,,,,,,,0,0,0,0,0,0,0,0,0,0,0,0,0,0,0,0,,,,,,,,,,,,,
256,6628424,1745475227459,0.0,133.0,,-0.77,-1.03,0.99,-66.0,0.0,0.0,1.62,1.62,100.0,6150.0,8.5,2.35,,8.43,1.252,91.6,,47.3,5.0,,,,,,,,,,,,0,0,0,0,0,0,0,0,0,0,0,0,0,0,0,0,,,,,,0.0,,,,,,,
257,6628444,1745475227479,,,,,,,,,,,,,,,,,,,,,,,,,,,,,,,,,,0,0,0,0,0,0,0,0,0,0,0,0,0,0,0,0,,,,,,,,,,,,,
258,6628464,1745475227500,0.0,132.0,,-0.74,-1.03,0.89,-67.0,0.0,0.0,1.55,1.62,96.0,6194.0,10.8,2.74,,9.42,1.251,91.6,,47.3,5.0,,,,,,,,,,,,0,0,0,0,0,0,0,0,0,0,0,0,0,0,0,0,,,,,,0.0,,,,,,,
259,6628484,1745475227520,,,,,,,,,,,,,,,,,,,,,,,18.0,22.0,17.0,22.0,0.0,65.0,0.0,0.0,2.27,,,0,0,0,0,0,0,0,0,0,0,0,0,0,0,0,0,,0.0,,,,,38.993992,-76.939407,30.66,25.5,32.0,3.0,0.8
260,6628504,1745475227540,0.0,132.0,,-0.71,-1.02,0.86,-67.0,0.0,0.0,1.51,1.62,93.0,6287.0,12.0,3.09,,10.02,1.251,91.6,,47.3,5.0,,,,,,,,,,,,0,0,0,0,0,0,0,0,0,0,0,0,0,0,0,0,,,,,,0.0,,,,,,,
261,6628524,1745475227560,,,,,,,,,,,,,,,,,,,,,,,,,,,,,,,,,,0,0,0,0,0,0,0,0,0,0,0,0,0,0,0,0,,,,,,,,,,,,,
262,6628544,1745475227580,0.0,133.0,,-0.72,-1.07,0.93,-67.0,0.0,0.0,1.59,1.59,100.0,6298.0,12.5,3.26,,10.02,1.251,91.6,,47.0,5.0,,,,,,,,,,,,0,0,0,0,0,0,0,0,0,0,0,0,0,0,0,0,,,,,,0.0,,,,,,,
263,6628564,1745475227600,,,,,,,,,,,,,,,,,,,,,,,,,,,,,,,,,,0,0,0,0,0,0,0,0,0,0,0,0,0,0,0,0,,,,,,,,,,,,,
264,6628584,1745475227620,0.0,132.0,,-0.69,-1.08,0.9,-67.0,0.0,-1.0,1.56,1.59,98.0,6298.0,12.5,3.26,,10.48,1.251,91.6,,47.0,5.0,18.0,21.0,17.0,21.0,0.0,247.0,0.0,0.0,2.27,,,0,0,0,0,0,0,0,0,0,0,0,0,0,0,0,0,,0.0,,,,0.0,38.99398,-76.939415,29.51,25.5,32.0,3.0,0.8
265,6628604,1745475227640,,,,,,,,,,,,,,,,,,,,,,,,,,,,,,,,,,0,0,0,0,0,0,0,0,0,0,0,0,0,0,0,0,,,,,,,,,,,,,
266,6628624,1745475227660,0.0,133.0,,-0.68,-1.02,0.98,-66.0,0.0,0.0,1.56,1.59,98.0,6349.0,13.0,3.35,,10.65,1.226,91.6,,47.2,5.0,,,,,,,,,,,,0,0,0,0,0,0,0,0,0,0,0,0,0,0,0,0,,,,,,0.0,,,,,,,
267,6628644,1745475227680,,,,,,,,,,,,,,,,,,,,,,,,,,,,,,,,,,0,0,0,0,0,0,0,0,0,0,0,0,0,0,0,0,,,,,,,,,,,,,
268,6628664,1745475227700,0.0,132.0,,-0.63,-1.12,0.97,-66.0,0.0,-1.0,1.61,1.61,100.0,6412.0,13.4,3.48,,10.73,1.223,91.6,,47.2,5.0,,,,,,,,,,,,0,0,0,0,0,0,0,0,0,0,0,0,0,0,0,0,,,,,,0.0,,,,,,,
269,6628684,1745475227720,,,,,,,,,,,,,,,,,,,,,,,17.0,20.0,17.0,20.0,0.0,253.0,0.0,0.0,2.27,,,0,0,0,0,0,0,0,0,0,0,0,0,0,0,0,0,,0.0,,,,,38.993977,-76.939415,29.0,25.5,32.0,3.0,0.8
270,6628704,1745475227740,0.0,133.0,,-0.62,-1.0,0.98,-65.0,0.0,-1.0,1.53,1.61,95.0,6469.0,14.9,4.43,,11.09,1.231,91.6,,47.2,5.0,,,,,,,,,,,,0,0,0,0,0,0,0,0,0,0,0,0,0,0,0,0,,,,,,0.0,,,,,,,
271,6628724,1745475227760,,,,,,,,,,,,,,,,,,,,,,,,,,,,,,,,,,0,0,0,0,0,0,0,0,0,0,0,0,0,0,0,0,,,,,,,,,,,,,
272,6628744,1745475227780,0.0,133.0,,-0.52,-0.93,0.98,-62.0,0.0,-2.0,1.45,1.61,90.0,6518.0,15.7,4.64,,11.09,1.231,91.6,,46.6,5.0,,,,,,,,,,,,0,0,0,0,0,0,0,0,0,0,0,0,0,0,0,0,,,,,,0.0,,,,,,,
273,6628764,1745475227798,,,,,,,,,,,,,,,,,,,,,,,,,,,,,,,,,,0,0,0,0,0,0,0,0,0,0,0,0,0,0,0,0,,,,,,,,,,,,,
274,6628784,1745475227818,0.0,134.0,,-0.45,-0.84,0.98,-58.0,0.0,-1.0,1.36,1.61,85.0,6518.0,15.7,4.64,,11.17,1.195,91.6,,46.6,5.0,18.0,21.0,18.0,20.0,0.0,237.0,0.0,0.0,2.27,,,0,0,0,0,0,0,0,0,0,0,0,0,0,0,0,0,,1.0,,,,0.0,38.993969,-76.939415,29.26,25.5,32.0,3.0,0.8
275,6628804,1745475227838,,,,,,,,,,,,,,,,,,,,,,,,,,,,,,,,,,0,0,0,0,0,0,0,0,0,0,0,0,0,0,0,0,,,,,,,,,,,,,
276,6628824,1745475227858,0.0,134.0,,-0.41,-0.88,0.95,-55.0,1.0,-1.0,1.36,1.61,84.0,6529.0,16.6,4.78,,11.25,1.159,91.6,,46.5,5.0,,,,,,,,,,,,0,0,0,0,0,0,0,0,0,0,0,0,0,0,0,0,,,,,,0.0,,,,,,,
277,6628844,1745475227878,,,,,,,,,,,,,,,,,,,,,,,,,,,,,,,,,,0,0,0,0,0,0,0,0,0,0,0,0,0,0,0,0,,,,,,,,,,,,,
278,6628864,1745475227900,0.0,133.0,,-0.37,-0.93,0.88,-54.0,1.0,-1.0,1.33,1.61,83.0,6263.0,17.0,4.48,,11.52,1.064,91.6,,46.5,5.0,,,,,,,,,,,,0,0,0,0,0,0,0,0,0,0,0,0,0,0,0,0,,,,,,0.0,,,,,,,
279,6628884,1745475227920,,,,,,,,,,,,,,,,,,,,,,,18.0,21.0,19.0,20.0,0.0,217.0,0.0,0.0,2.27,,,0,0,0,0,0,0,0,0,0,0,0,0,0,0,0,0,,0.0,,,,,38.993965,-76.939423,29.24,25.5,32.0,3.0,0.8
280,6628904,1745475227940,0.0,133.0,,-0.36,-0.77,0.94,-50.0,1.0,0.0,1.27,1.61,79.0,6205.0,17.2,4.36,,11.76,1.002,91.6,,46.5,5.0,,,,,,,,,,,,0,0,0,0,0,0,0,0,0,0,0,0,0,0,0,0,,,,,,0.0,,,,,,,
281,6628924,1745475227960,,,,,,,,,,,,,,,,,,,,,,,,,,,,,,,,,,0,0,0,0,0,0,0,0,0,0,0,0,0,0,0,0,,,,,,,,,,,,,
282,6628944,1745475227980,0.0,134.0,,-0.4,-0.71,0.98,-50.0,1.0,1.0,1.27,1.61,79.0,6337.0,18.1,4.56,,11.76,1.002,91.6,,45.4,5.0,,,,,,,,,,,,0,0,0,0,0,0,0,0,0,0,0,0,0,0,0,0,,,,,,0.0,,,,,,,
283,6628964,1745475228000,,,,,,,,,,,,,,,,,,,,,,,,,,,,,,,,,,0,0,0,0,0,0,0,0,0,0,0,0,0,0,0,0,,,,,,,,,,,,,
284,6628984,1745475228010,0.0,133.0,,-0.38,-0.78,0.98,-50.0,1.0,1.0,1.31,1.61,81.0,6337.0,18.1,4.56,,11.91,1.004,91.6,,45.4,5.0,18.0,19.0,18.0,21.0,0.0,250.0,0.0,0.0,2.27,,,0,0,0,0,0,0,0,0,0,0,0,0,0,0,0,0,,0.0,,,,0.0,38.993958,-76.93943,30.13,25.5,30.0,3.0,0.8
285,6629004,1745475228030,,,,,,,,,,,,,,,,,,,,,,,,,,,,,,,,,,0,0,0,0,0,0,0,0,0,0,0,0,0,0,0,0,,,,,,,,,,,,,
286,6629024,1745475228050,0.0,133.0,,-0.4,-0.72,0.94,-49.0,1.0,2.0,1.25,1.61,78.0,6458.0,19.4,4.81,,11.96,1.0,91.6,,45.2,5.0,,,,,,,,,,,,0,0,0,0,0,0,0,0,0,0,0,0,0,0,0,0,,,,,,0.0,,,,,,,
287,6629044,1745475228070,,,,,,,,,,,,,,,,,,,,,,,,,,,,,,,,,,0,0,0,0,0,0,0,0,0,0,0,0,0,0,0,0,,,,,,,,,,,,,
288,6629064,1745475228098,0.0,133.0,,-0.34,-0.81,0.94,-49.0,2.0,1.0,1.28,1.61,80.0,6596.0,20.5,5.07,,11.93,1.018,91.6,,45.2,5.0,,,,,,,,,,,,0,0,0,0,0,0,0,0,0,0,0,0,0,0,0,0,,,,,,0.0,,,,,,,
289,6629084,1745475228118,,,,,,,,,,,,,,,,,,,,,,,17.0,21.0,19.0,21.0,0.0,16.0,0.0,0.0,2.27,,,0,0,0,0,0,0,0,0,0,0,0,0,0,0,0,0,,0.0,,,,,38.993954,-76.939438,29.55,25.5,30.0,3.0,0.8
290,6629104,1745475228138,0.0,134.0,,-0.28,-0.73,0.96,-49.0,1.0,1.0,1.24,1.61,77.0,6595.0,21.3,5.07,,12.08,1.013,91.6,,45.2,5.0,,,,,,,,,,,,0,0,0,0,0,0,0,0,0,0,0,0,0,0,0,0,,,,,,0.0,,,,,,,
291,6629124,1745475228158,,,,,,,,,,,,,,,,,,,,,,,,,,,,,,,,,,0,0,0,0,0,0,0,0,0,0,0,0,0,0,0,0,,,,,,,,,,,,,
292,6629144,1745475228178,0.0,134.0,,-0.23,-0.69,0.97,-49.0,1.0,1.0,1.21,1.61,75.0,6748.0,21.5,5.21,,12.08,1.013,91.6,,44.9,5.0,,,,,,,,,,,,0,0,0,0,0,0,0,0,0,0,0,0,0,0,0,0,,,,,,0.0,,,,,,,
293,6629164,1745475228196,,,,,,,,,,,,,,,,,,,,,,,,,,,,,,,,,,0,0,0,0,0,0,0,0,0,0,0,0,0,0,0,0,,,,,,,,,,,,,
294,6629184,1745475228216,0.0,134.0,,-0.18,-0.69,0.99,-47.0,1.0,0.0,1.22,1.61,75.0,6748.0,21.5,5.21,,12.01,0.994,91.6,,44.9,5.0,19.0,19.0,19.0,20.0,0.0,240.0,0.0,0.0,2.27,,,0,0,0,0,0,0,0,0,0,0,0,0,0,0,0,0,,1.0,,,,0.0,38.99395,-76.939453,29.93,25.5,30.0,3.0,0.8
295,6629204,1745475228236,,,,,,,,,,,,,,,,,,,,,,,,,,,,,,,,,,0,0,0,0,0,0,0,0,0,0,0,0,0,0,0,0,,,,,,,,,,,,,
296,6629224,1745475228256,0.0,134.0,,-0.1,-0.66,0.96,-46.0,1.0,0.0,1.17,1.61,73.0,6855.0,21.7,5.35,,11.97,0.916,91.6,,44.7,5.0,,,,,,,,,,,,0,0,0,0,0,0,0,0,0,0,0,0,0,0,0,0,,,,,,0.0,,,,,,,
297,6629244,1745475228276,,,,,,,,,,,,,,,,,,,,,,,,,,,,,,,,,,0,0,0,0,0,0,0,0,0,0,0,0,0,0,0,0,,,,,,,,,,,,,
298,6629264,1745475228299,0.0,134.0,,-0.04,-0.54,0.97,-43.0,1.0,0.0,1.11,1.61,69.0,7065.0,21.7,5.58,,11.91,0.853,91.6,,44.7,5.0,,,,,,,,,,,,0,0,0,0,0,0,0,0,0,0,0,0,0,0,0,0,,,,,,0.0,,,,,,,
299,6629284,1745475228319,,,,,,,,,,,,,,,,,,,,,,,19.0,19.0,20.0,21.0,0.0,90.0,0.0,0.0,2.27,,,0,0,0,0,0,0,0,0,0,0,0,0,0,0,0,0,,1.0,,,,,38.993946,-76.939453,31.85,25.5,30.0,3.0,0.8
300,6629304,1745475228339,0.0,133.0,,-0.02,-0.6,0.94,-41.0,1.0,0.0,1.12,1.61,69.0,7185.0,21.8,5.54,,11.72,0.817,91.6,,44.7,5.0,,,,,,,,,,,,0,0,0,0,0,0,0,0,0,0,0,0,0,0,0,0,,,,,,0.0,,,,,,,
301,6629324,1745475228359,,,,,,,,,,,,,,,,,,,,,,,,,,,,,,,,,,0,0,0,0,0,0,0,0,0,0,0,0,0,0,0,0,,,,,,,,,,,,,
302,6629344,1745475228379,0.0,134.0,,-0.02,-0.68,0.89,-42.0,1.0,0.0,1.12,1.61,70.0,7312.0,22.1,5.46,,11.72,0.817,91.6,,44.1,5.0,,,,,,,,,,,,0,0,0,0,0,0,0,0,0,0,0,0,0,0,0,0,,,,,,0.0,,,,,,,
303,6629364,1745475228398,,,,,,,,,,,,,,,,,,,,,,,,,,,,,,,,,,0,0,0,0,0,0,0,0,0,0,0,0,0,0,0,0,,,,,,,,,,,,,
304,6629384,1745475228418,0.0,133.0,13.13,-0.03,-0.6,0.91,-43.0,2.0,1.0,1.08,1.61,67.0,7312.0,22.1,5.46,15.0,11.8,0.782,91.6,173.0,44.1,5.0,20.0,22.0,23.0,23.0,0.0,25.0,0.0,0.0,2.27,0.0,1.0,0,0,0,0,0,0,0,0,0,0,0,0,0,0,0,0,0.0,1.0,1.0,0.0,0.0,0.0,38.993938,-76.939461,33.5,25.5,30.0,3.0,0.8
305,6629404,1745475228438,,,,,,,,,,,,,,,,,,,,,,,,,,,,,,,,,,0,0,0,0,0,0,0,0,0,0,0,0,0,0,0,0,,,,,,,,,,,,,
306,6629424,1745475228458,0.0,133.0,,-0.04,-0.5,0.9,-43.0,2.0,1.0,1.03,1.61,64.0,7490.0,22.0,5.42,,11.57,0.764,91.6,,44.8,5.0,,,,,,,,,,,,0,0,0,0,0,0,0,0,0,0,0,0,0,0,0,0,,,,,,0.0,,,,,,,
307,6629444,1745475228478,,,,,,,,,,,,,,,,,,,,,,,,,,,,,,,,,,0,0,0,0,0,0,0,0,0,0,0,0,0,0,0,0,,,,,,,,,,,,,
308,6629464,1745475228499,0.0,133.0,,-0.02,-0.65,0.91,-42.0,2.0,1.0,1.12,1.61,69.0,7697.0,21.5,5.36,,11.45,0.754,91.6,,44.8,5.0,,,,,,,,,,,,0,0,0,0,0,0,0,0,0,0,0,0,0,0,0,0,,,,,,0.0,,,,,,,
309,6629484,1745475228519,,,,,,,,,,,,,,,,,,,,,,,20.0,23.0,23.0,25.0,0.0,54.0,0.0,0.0,2.27,,,0,0,0,0,0,0,0,0,0,0,0,0,0,0,0,0,,0.0,,,,,38.993935,-76.939476,33.41,25.5,30.0,3.0,0.8
310,6629504,1745475228539,0.0,133.0,,0.0,-0.56,0.93,-42.0,1.0,1.0,1.09,1.61,68.0,7816.0,16.8,4.94,,11.13,0.748,91.6,,44.8,5.0,,,,,,,,,,,,0,0,0,0,0,0,0,0,0,0,0,0,0,0,0,0,,,,,,0.0,,,,,,,
311,6629524,1745475228559,,,,,,,,,,,,,,,,,,,,,,,,,,,,,,,,,,0,0,0,0,0,0,0,0,0,0,0,0,0,0,0,0,,,,,,,,,,,,,
312,6629544,1745475228579,0.0,133.0,,-0.06,-0.69,0.88,-44.0,0.0,1.0,1.12,1.61,69.0,7801.0,11.2,3.58,,11.13,0.748,91.6,,44.4,5.0,,,,,,,,,,,,0,0,0,0,0,0,0,0,0,0,0,0,0,0,0,0,,,,,,0.0,,,,,,,
313,6629564,1745475228599,,,,,,,,,,,,,,,,,,,,,,,,,,,,,,,,,,0,0,0,0,0,0,0,0,0,0,0,0,0,0,0,0,,,,,,,,,,,,,
314,6629584,1745475228619,0.0,133.0,,-0.09,-0.81,0.92,-46.0,0.0,1.0,1.23,1.61,76.0,7801.0,11.2,3.58,,10.32,0.74,89.8,,44.4,5.0,21.0,22.0,25.0,23.0,0.0,223.0,0.0,0.0,2.27,,,0,0,0,0,0,0,0,0,0,0,0,0,0,0,0,0,,1.0,,,,0.0,38.993935,-76.939484,35.39,25.5,30.0,3.0,0.8
315,6629604,1745475228639,,,,,,,,,,,,,,,,,,,,,,,,,,,,,,,,,,0,0,0,0,0,0,0,0,0,0,0,0,0,0,0,0,,,,,,,,,,,,,
316,6629624,1745475228659,0.0,133.0,,-0.1,-0.75,0.94,-48.0,0.0,1.0,1.21,1.61,75.0,8052.0,10.5,3.29,,9.82,0.73,89.8,,47.0,5.0,,,,,,,,,,,,0,0,0,0,0,0,0,0,0,0,0,0,0,0,0,0,,,,,,0.0,,,,,,,
317,6629644,1745475228679,,,,,,,,,,,,,,,,,,,,,,,,,,,,,,,,,,0,0,0,0,0,0,0,0,0,0,0,0,0,0,0,0,,,,,,,,,,,,,
318,6629664,1745475228699,0.0,133.0,,-0.08,-0.81,0.92,-51.0,0.0,2.0,1.23,1.61,76.0,8354.0,9.6,3.01,,9.14,0.747,89.8,,47.0,5.0,,,,,,,,,,,,0,0,0,0,0,0,0,0,0,0,0,0,0,0,0,0,,,,,,0.0,,,,,,,
319,6629684,1745475228719,,,,,,,,,,,,,,,,,,,,,,,21.0,23.0,25.0,24.0,0.0,33.0,0.0,0.0,2.27,,,0,0,0,0,0,0,0,0,0,0,0,0,0,0,0,0,,1.0,,,,,38.993931,-76.939499,36.01,25.5,30.0,3.0,0.8
320,6629704,1745475228739,0.0,131.0,,-0.08,-0.83,0.97,-51.0,0.0,2.0,1.28,1.28,100.0,8208.0,7.5,2.77,,8.62,0.78,89.8,,47.0,5.0,,,,,,,,,,,,0,0,0,0,0,0,0,0,0,0,0,0,0,0,0,0,,,,,,0.0,,,,,,,
321,6629724,1745475228759,,,,,,,,,,,,,,,,,,,,,,,,,,,,,,,,,,0,0,0,0,0,0,0,0,0,0,0,0,0,0,0,0,,,,,,,,,,,,,
322,6629744,1745475228779,0.0,133.0,,-0.11,-0.89,0.95,-52.0,0.0,2.0,1.31,1.31,100.0,8174.0,5.3,2.48,,8.62,0.78,89.8,,46.0,5.0,,,,,,,,,,,,0,0,0,0,0,0,0,0,0,0,0,0,0,0,0,0,,,,,,0.0,,,,,,,
323,6629764,1745475228799,,,,,,,,,,,,,,,,,,,,,,,,,,,,,,,,,,0,0,0,0,0,0,0,0,0,0,0,0,0,0,0,0,,,,,,,,,,,,,
324,6629784,1745475228819,0.0,133.0,,-0.1,-0.92,1.03,-53.0,0.0,1.0,1.38,1.38,100.0,8174.0,5.3,2.48,,8.15,0.819,89.8,,46.0,5.0,21.0,24.0,24.0,25.0,0.0,219.0,0.0,0.0,2.27,,,0,0,0,0,0,0,0,0,0,0,0,0,0,0,0,0,,1.0,,,,0.0,38.993931,-76.939506,35.37,25.5,30.0,3.0,0.8
325,6629804,1745475228839,,,,,,,,,,,,,,,,,,,,,,,,,,,,,,,,,,0,0,0,0,0,0,0,0,0,0,0,0,0,0,0,0,,,,,,,,,,,,,
326,6629824,1745475228859,0.0,133.0,,-0.12,-0.91,0.98,-55.0,0.0,1.0,1.34,1.38,97.0,8240.0,8.3,2.45,,8.13,0.838,89.8,,45.8,5.0,,,,,,,,,,,,0,0,0,0,0,0,0,0,0,0,0,0,0,0,0,0,,,,,,0.0,,,,,,,
327,6629844,1745475228879,,,,,,,,,,,,,,,,,,,,,,,,,,,,,,,,,,0,0,0,0,0,0,0,0,0,0,0,0,0,0,0,0,,,,,,,,,,,,,
328,6629864,1745475228899,0.0,132.0,,-0.11,-0.89,0.98,-55.0,0.0,1.0,1.33,1.38,96.0,8187.0,16.3,2.86,,8.75,0.874,89.8,,45.8,5.0,,,,,,,,,,,,0,0,0,0,0,0,0,0,0,0,0,0,0,0,0,0,,,,,,0.0,,,,,,,
329,6629884,1745475228919,,,,,,,,,,,,,,,,,,,,,,,21.0,24.0,25.0,25.0,0.0,65.0,0.0,0.0,2.27,,,0,0,0,0,0,0,0,0,0,0,0,0,0,0,0,0,,1.0,,,,,38.993927,-76.939522,36.21,25.5,30.0,3.0,0.8
330,6629904,1745475228939,0.0,132.0,,-0.08,-0.97,0.96,-54.0,1.0,2.0,1.37,1.38,99.0,8106.0,16.4,3.14,,9.35,0.925,89.8,,45.8,5.0,,,,,,,,,,,,0,0,0,0,0,0,0,0,0,0,0,0,0,0,0,0,,,,,,0.0,,,,,,,
331,6629924,1745475228959,,,,,,,,,,,,,,,,,,,,,,,,,,,,,,,,,,0,0,0,0,0,0,0,0,0,0,0,0,0,0,0,0,,,,,,,,,,,,,
332,6629944,1745475228979,0.0,133.0,,-0.1,-0.88,1.01,-54.0,1.0,1.0,1.34,1.38,97.0,7953.0,16.4,3.39,,9.35,0.925,89.8,,44.0,5.0,,,,,,,,,,,,0,0,0,0,0,0,0,0,0,0,0,0,0,0,0,0,,,,,,0.0,,,,,,,
333,6629964,1745475228991,,,,,,,,,,,,,,,,,,,,,,,,,,,,,,,,,,0,0,0,0,0,0,0,0,0,0,0,0,0,0,0,0,,,,,,,,,,,,,
334,6629984,1745475229011,0.0,133.0,,-0.11,-0.93,0.99,-53.0,1.0,1.0,1.36,1.38,99.0,7953.0,16.4,3.39,,9.7,0.968,89.8,,44.0,5.0,22.0,25.0,26.0,24.0,0.0,248.0,0.0,0.0,2.27,,,0,0,0,0,0,0,0,0,0,0,0,0,0,0,0,0,,1.0,,,,0.0,38.993927,-76.939529,36.4,25.5,29.0,3.0,0.8
335,6630004,1745475229031,,,,,,,,,,,,,,,,,,,,,,,,,,,,,,,,,,0,0,0,0,0,0,0,0,0,0,0,0,0,0,0,0,,,,,,,,,,,,,
336,6630024,1745475229051,0.0,132.0,,-0.12,-1.0,0.98,-53.0,1.0,1.0,1.4,1.4,100.0,8080.0,14.7,3.28,,9.64,0.98,89.8,,44.3,5.0,,,,,,,,,,,,0,0,0,0,0,0,0,0,0,0,0,0,0,0,0,0,,,,,,0.0,,,,,,,
337,6630044,1745475229071,,,,,,,,,,,,,,,,,,,,,,,,,,,,,,,,,,0,0,0,0,0,0,0,0,0,0,0,0,0,0,0,0,,,,,,,,,,,,,
338,6630064,1745475229095,0.0,132.0,,-0.13,-1.05,1.01,-54.0,1.0,2.0,1.46,1.46,100.0,8074.0,10.8,3.11,,9.3,0.983,89.8,,44.3,5.0,,,,,,,,,,,,0,0,0,0,0,0,0,0,0,0,0,0,0,0,0,0,,,,,,0.0,,,,,,,
339,6630084,1745475229115,,,,,,,,,,,,,,,,,,,,,,,22.0,26.0,24.0,25.0,0.0,128.0,0.0,0.0,2.27,,,0,0,0,0,0,0,0,0,0,0,0,0,0,0,0,0,,0.0,,,,,38.993931,-76.939537,36.72,25.5,29.0,3.0,0.8
340,6630104,1745475229135,0.0,132.0,,-0.16,-1.1,1.02,-54.0,0.0,2.0,1.51,1.51,100.0,8213.0,7.4,2.9,,8.7,0.977,89.8,,44.3,5.0,,,,,,,,,,,,0,0,0,0,0,0,0,0,0,0,0,0,0,0,0,0,,,,,,0.0,,,,,,,
341,6630124,1745475229155,,,,,,,,,,,,,,,,,,,,,,,,,,,,,,,,,,0,0,0,0,0,0,0,0,0,0,0,0,0,0,0,0,,,,,,,,,,,,,
342,6630144,1745475229175,0.0,132.0,,-0.22,-1.16,0.96,-55.0,0.0,1.0,1.52,1.52,100.0,8364.0,6.2,2.53,,8.7,0.977,89.8,,45.5,5.0,,,,,,,,,,,,0,0,0,0,0,0,0,0,0,0,0,0,0,0,0,0,,,,,,0.0,,,,,,,
343,6630164,1745475229195,,,,,,,,,,,,,,,,,,,,,,,,,,,,,,,,,,0,0,0,0,0,0,0,0,0,0,0,0,0,0,0,0,,,,,,,,,,,,,
344,6630184,1745475229215,0.0,132.0,,-0.23,-1.06,0.99,-56.0,-1.0,2.0,1.47,1.52,96.0,8364.0,6.2,2.53,,8.21,0.964,89.8,,45.5,5.0,22.0,24.0,25.0,27.0,0.0,92.0,0.0,0.0,2.27,,,0,0,0,0,0,0,0,0,0,0,0,0,0,0,0,0,,0.0,,,,0.0,38.993931,-76.939552,38.18,25.6,31.0,3.0,0.8
345,6630204,1745475229235,,,,,,,,,,,,,,,,,,,,,,,,,,,,,,,,,,0,0,0,0,0,0,0,0,0,0,0,0,0,0,0,0,,,,,,,,,,,,,
346,6630224,1745475229255,0.0,132.0,,-0.26,-1.08,0.97,-56.0,0.0,2.0,1.47,1.52,97.0,8269.0,5.8,2.34,,7.87,0.941,89.8,,44.6,5.0,,,,,,,,,,,,0,0,0,0,0,0,0,0,0,0,0,0,0,0,0,0,,,,,,0.0,,,,,,,
347,6630244,1745475229275,,,,,,,,,,,,,,,,,,,,,,,,,,,,,,,,,,0,0,0,0,0,0,0,0,0,0,0,0,0,0,0,0,,,,,,,,,,,,,
348,6630264,1745475229297,0.0,133.0,,-0.28,-1.06,0.95,-59.0,1.0,3.0,1.45,1.52,95.0,8122.0,6.1,2.33,,7.71,0.964,89.8,,44.6,5.0,,,,,,,,,,,,0,0,0,0,0,0,0,0,0,0,0,0,0,0,0,0,,,,,,0.0,,,,,,,
349,6630284,1745475229317,,,,,,,,,,,,,,,,,,,,,,,21.0,25.0,25.0,28.0,0.0,53.0,0.0,0.0,2.27,,,0,0,0,0,0,0,0,0,0,0,0,0,0,0,0,0,,0.0,,,,,38.993935,-76.939568,36.85,25.6,31.0,3.0,0.8
350,6630304,1745475229337,0.0,133.0,,-0.27,-1.07,1.03,-61.0,2.0,2.0,1.51,1.52,99.0,8063.0,6.1,2.35,,7.57,0.991,89.8,,44.6,5.0,,,,,,,,,,,,0,0,0,0,0,0,0,0,0,0,0,0,0,0,0,0,,,,,,0.0,,,,,,,
351,6630324,1745475229357,,,,,,,,,,,,,,,,,,,,,,,,,,,,,,,,,,0,0,0,0,0,0,0,0,0,0,0,0,0,0,0,0,,,,,,,,,,,,,
352,6630344,1745475229377,0.0,132.0,,-0.27,-1.2,1.02,-61.0,2.0,1.0,1.6,1.6,100.0,7937.0,6.6,2.42,,7.57,0.991,89.8,,43.3,5.0,,,,,,,,,,,,0,0,0,0,0,0,0,0,0,0,0,0,0,0,0,0,,,,,,0.0,,,,,,,
353,6630364,1745475229399,,,,,,,,,,,,,,,,,,,,,,,,,,,,,,,,,,0,0,0,0,0,0,0,0,0,0,0,0,0,0,0,0,,,,,,,,,,,,,
354,6630384,1745475229419,0.0,133.0,13.11,-0.26,-1.1,0.98,-60.0,2.0,2.0,1.5,1.6,94.0,7937.0,6.6,2.42,15.0,7.75,1.016,89.8,173.0,43.3,5.0,21.0,26.0,22.0,28.0,0.0,213.0,0.0,0.0,2.27,0.0,1.0,0,0,0,0,0,0,0,0,0,0,0,0,0,0,0,0,0.0,0.0,1.0,0.0,0.0,0.0,38.993935,-76.939575,35.65,25.6,31.0,3.0,0.8
355,6630404,1745475229439,,,,,,,,,,,,,,,,,,,,,,,,,,,,,,,,,,0,0,0,0,0,0,0,0,0,0,0,0,0,0,0,0,,,,,,,,,,,,,
356,6630424,1745475229459,0.0,132.0,,-0.27,-1.21,0.98,-60.0,2.0,2.0,1.58,1.6,99.0,7813.0,8.2,2.64,,7.9,1.031,89.8,,43.2,5.0,,,,,,,,,,,,0,0,0,0,0,0,0,0,0,0,0,0,0,0,0,0,,,,,,0.0,,,,,,,
357,6630444,1745475229479,,,,,,,,,,,,,,,,,,,,,,,,,,,,,,,,,,0,0,0,0,0,0,0,0,0,0,0,0,0,0,0,0,,,,,,,,,,,,,
358,6630464,1745475229498,0.0,133.0,,-0.28,-1.17,0.98,-60.0,1.0,1.0,1.55,1.6,97.0,7753.0,10.4,2.76,,8.21,1.039,89.8,,43.2,5.0,,,,,,,,,,,,0,0,0,0,0,0,0,0,0,0,0,0,0,0,0,0,,,,,,0.0,,,,,,,
359,6630484,1745475229518,,,,,,,,,,,,,,,,,,,,,,,21.0,25.0,22.0,25.0,0.0,19.0,0.0,0.0,2.27,,,0,0,0,0,0,0,0,0,0,0,0,0,0,0,0,0,,0.0,,,,,38.993942,-76.939583,36.12,25.6,31.0,3.0,0.8
360,6630504,1745475229538,0.0,133.0,,-0.28,-1.15,0.97,-60.0,1.0,1.0,1.53,1.6,96.0,7730.0,14.1,2.89,,8.75,1.036,89.8,,43.2,5.0,,,,,,,,,,,,0,0,0,0,0,0,0,0,0,0,0,0,0,0,0,0,,,,,,0.0,,,,,,,
361,6630524,1745475229558,,,,,,,,,,,,,,,,,,,,,,,,,,,,,,,,,,0,0,0,0,0,0,0,0,0,0,0,0,0,0,0,0,,,,,,,,,,,,,
362,6630544,1745475229578,0.0,133.0,,-0.31,-1.2,0.98,-59.0,1.0,1.0,1.58,1.6,99.0,7749.0,16.3,3.28,,8.75,1.036,89.8,,43.8,5.0,,,,,,,,,,,,0,0,0,0,0,0,0,0,0,0,0,0,0,0,0,0,,,,,,0.0,,,,,,,
363,6630564,1745475229598,,,,,,,,,,,,,,,,,,,,,,,,,,,,,,,,,,0,0,0,0,0,0,0,0,0,0,0,0,0,0,0,0,,,,,,,,,,,,,
364,6630584,1745475229618,0.0,133.0,,-0.29,-1.22,0.99,-58.0,0.0,1.0,1.6,1.6,100.0,7749.0,16.3,3.28,,9.42,1.039,89.8,,43.8,5.0,22.0,26.0,22.0,24.0,0.0,5.0,0.0,0.0,2.27,,,0,0,0,0,0,0,0,0,0,0,0,0,0,0,0,0,,0.0,,,,0.0,38.993946,-76.939598,36.37,25.6,31.0,3.0,0.8
365,6630604,1745475229638,,,,,,,,,,,,,,,,,,,,,,,,,,,,,,,,,,0,0,0,0,0,0,0,0,0,0,0,0,0,0,0,0,,,,,,,,,,,,,
366,6630624,1745475229658,0.0,133.0,,-0.29,-1.07,0.96,-58.0,0.0,1.0,1.47,1.6,92.0,7798.0,17.6,3.46,,9.88,1.056,89.8,,44.8,5.0,,,,,,,,,,,,0,0,0,0,0,0,0,0,0,0,0,0,0,0,0,0,,,,,,0.0,,,,,,,
367,6630644,1745475229678,,,,,,,,,,,,,,,,,,,,,,,,,,,,,,,,,,0,0,0,0,0,0,0,0,0,0,0,0,0,0,0,0,,,,,,,,,,,,,
368,6630664,1745475229698,0.0,133.0,,-0.27,-1.11,0.98,-57.0,1.0,1.0,1.5,1.6,94.0,7900.0,17.8,3.64,,10.14,1.05,89.8,,44.8,5.0,,,,,,,,,,,,0,0,0,0,0,0,0,0,0,0,0,0,0,0,0,0,,,,,,0.0,,,,,,,
369,6630684,1745475229718,,,,,,,,,,,,,,,,,,,,,,,21.0,24.0,23.0,25.0,0.0,5.0,0.0,0.0,2.27,,,0,0,0,0,0,0,0,0,0,0,0,0,0,0,0,0,,0.0,,,,,38.993954,-76.939606,35.68,25.7,31.0,3.0,0.8
370,6630704,1745475229738,0.0,133.0,,-0.26,-1.08,0.97,-56.0,1.0,1.0,1.47,1.47,100.0,7973.0,17.9,3.71,,10.34,1.024,89.8,,44.8,5.0,,,,,,,,,,,,0,0,0,0,0,0,0,0,0,0,0,0,0,0,0,0,,,,,,0.0,,,,,,,
371,6630724,1745475229758,,,,,,,,,,,,,,,,,,,,,,,,,,,,,,,,,,0,0,0,0,0,0,0,0,0,0,0,0,0,0,0,0,,,,,,,,,,,,,
372,6630744,1745475229778,0.0,132.0,,-0.28,-1.03,0.97,-55.0,0.0,2.0,1.44,1.47,98.0,8143.0,18.0,3.68,,10.34,1.024,89.8,,45.4,5.0,,,,,,,,,,,,0,0,0,0,0,0,0,0,0,0,0,0,0,0,0,0,,,,,,0.0,,,,,,,
373,6630764,1745475229798,,,,,,,,,,,,,,,,,,,,,,,,,,,,,,,,,,0,0,0,0,0,0,0,0,0,0,0,0,0,0,0,0,,,,,,,,,,,,,
