,Interval,Utc,FrontBP,SteerAng,Battery,AccelX,AccelY,AccelZ,Yaw,Pitch,Roll,Gsum,GsumMax,GsumPct,RPM,TPS,InjectorPW,Baro,MAP,Lambda,IAT,EngineTemp,EOP,EOT,WSFR,WSFL,WSRR,WSRL,TCSet,TCSlip,TCComp,TCCut,Analog8,OilTemp,AA_On,ThermLF1,ThermLF2,ThermRR1,ThermRR2,ThermLF3,ThermLF4,ThermLF5,ThermLF6,ThermLF7,ThermLF8,ThermRR3,ThermRR4,ThermRR5,ThermRR6,ThermRR7,ThermRR8,AA_LowDrag,Gear,AA_On1,AA_LowDrag1,Fuel_Mix,AA_Packages,Latitude,Longitude,Speed,Altitude,GPSSats,GPSQual,GPSDOP
0,6120204,1745474719230,,,,,,,,,,,,,,,,,,,,,,,,,,,,,,,,,,0,0,0,0,0,0,0,0,0,0,0,0,0,0,0,0,,,,,,,,,,,,,
1,6120224,1745474719250,34.06,134.0,,-0.1,-0.05,1.02,-1.0,0.0,0.0,1.03,1.03,100.0,3469.0,28.7,4.55,,14.27,1.251,91.6,,23.3,5.0,,,,,,,,,,,,0,0,0,0,0,0,0,0,0,0,0,0,0,0,0,0,,,,,,0.0,,,,,,,
2,6120244,1745474719270,,,,,,,,,,,,,,,,,,,,,,,,,,,,,,,,,,0,0,0,0,0,0,0,0,0,0,0,0,0,0,0,0,,,,,,,,,,,,,
3,6120264,1745474719292,24.01,134.0,,-0.07,-0.03,1.03,-1.0,0.0,0.0,1.04,1.04,100.0,3469.0,28.7,4.55,,14.24,1.249,91.6,,23.3,5.0,,,,,,,,,,,,0,0,0,0,0,0,0,0,0,0,0,0,0,0,0,0,,,,,,0.0,,,,,,,
4,6120284,1745474719312,,,,,,,,,,,,,,,,,,,,,,,0.0,0.0,0.0,0.0,7.9,0.0,0.0,0.0,2.26,,,0,0,0,0,0,0,0,0,0,0,0,0,0,0,0,0,,0.0,,,,,38.994099,-76.939659,0.07,26.3,33.0,3.0,0.8
5,6120304,1745474719332,16.47,134.0,,-0.08,0.0,1.02,0.0,0.0,0.0,1.03,1.04,99.0,3684.0,28.7,4.61,,14.26,1.248,91.6,,25.6,5.0,,,,,,,,,,,,0,0,0,0,0,0,0,0,0,0,0,0,0,0,0,0,,,,,,0.0,,,,,,,
6,6120324,1745474719352,,,,,,,,,,,,,,,,,,,,,,,,,,,,,,,,,,0,0,0,0,0,0,0,0,0,0,0,0,0,0,0,0,,,,,,,,,,,,,
7,6120344,1745474719372,10.18,134.0,,-0.08,-0.0,1.02,0.0,0.0,0.0,1.02,1.04,99.0,3793.0,28.6,4.6,,14.16,1.248,91.6,,25.6,5.0,,,,,,,,,,,,0,0,0,0,0,0,0,0,0,0,0,0,0,0,0,0,,,,,,0.0,,,,,,,
8,6120364,1745474719394,,,,,,,,,,,,,,,,,,,,,,,,,,,,,,,,,,0,0,0,0,0,0,0,0,0,0,0,0,0,0,0,0,,,,,,,,,,,,,
9,6120384,1745474719414,5.78,134.0,13.02,-0.1,-0.0,0.99,-1.0,0.0,0.0,1.0,1.04,96.0,3772.0,28.4,4.62,15.0,14.11,1.247,91.6,176.0,25.6,5.0,0.0,0.0,0.0,0.0,7.9,0.0,0.0,0.0,2.26,0.0,1.0,0,0,0,0,0,0,0,0,0,0,0,0,0,0,0,0,0.0,0.0,1.0,0.0,0.0,0.0,38.994099,-76.939659,0.0,26.3,33.0,3.0,0.8
10,6120404,1745474719434,,,,,,,,,,,,,,,,,,,,,,,,,,,,,,,,,,0,0,0,0,0,0,0,0,0,0,0,0,0,0,0,0,,,,,,,,,,,,,
11,6120424,1745474719454,0.13,134.0,,-0.12,-0.05,0.92,-1.0,0.0,0.0,0.93,1.04,90.0,3920.0,28.4,4.58,,14.11,1.247,91.6,,26.6,5.0,,,,,,,,,,,,0,0,0,0,0,0,0,0,0,0,0,0,0,0,0,0,,,,,,0.0,,,,,,,
12,6120444,1745474719474,,,,,,,,,,,,,,,,,,,,,,,,,,,,,,,,,,0,0,0,0,0,0,0,0,0,0,0,0,0,0,0,0,,,,,,,,,,,,,
13,6120464,1745474719493,0.0,134.0,,-0.13,-0.02,0.93,2.0,0.0,0.0,0.94,1.04,91.0,3920.0,28.4,4.58,,14.12,1.248,91.6,,26.6,5.0,,,,,,,,,,,,0,0,0,0,0,0,0,0,0,0,0,0,0,0,0,0,,,,,,0.0,,,,,,,
14,6120484,1745474719513,,,,,,,,,,,,,,,,,,,,,,,0.0,0.0,0.0,0.0,7.9,0.0,0.0,0.0,2.26,,,0,0,0,0,0,0,0,0,0,0,0,0,0,0,0,0,,0.0,,,,,38.994099,-76.939659,0.09,26.3,33.0,3.0,0.8
15,6120504,1745474719533,0.0,134.0,,-0.11,0.05,1.02,3.0,0.0,0.0,1.03,1.04,99.0,4001.0,28.5,4.57,,14.11,1.249,91.6,,27.7,5.0,,,,,,,,,,,,0,0,0,0,0,0,0,0,0,0,0,0,0,0,0,0,,,,,,0.0,,,,,,,
16,6120524,1745474719553,,,,,,,,,,,,,,,,,,,,,,,,,,,,,,,,,,0,0,0,0,0,0,0,0,0,0,0,0,0,0,0,0,,,,,,,,,,,,,
17,6120544,1745474719573,0.0,134.0,,-0.09,-0.09,0.95,0.0,0.0,0.0,0.96,1.04,92.0,3945.0,28.4,4.56,,14.18,1.251,91.6,,27.7,5.0,,,,,,,,,,,,0,0,0,0,0,0,0,0,0,0,0,0,0,0,0,0,,,,,,0.0,,,,,,,
18,6120564,1745474719592,,,,,,,,,,,,,,,,,,,,,,,,,,,,,,,,,,0,0,0,0,0,0,0,0,0,0,0,0,0,0,0,0,,,,,,,,,,,,,
19,6120584,1745474719612,0.0,134.0,,-0.11,-0.05,0.98,-1.0,0.0,0.0,0.99,1.04,96.0,4363.0,28.6,4.73,,13.96,1.251,91.6,,27.7,5.0,0.0,0.0,0.0,0.0,7.9,0.0,0.0,0.0,2.26,,,0,0,0,0,0,0,0,0,0,0,0,0,0,0,0,0,,0.0,,,,0.0,38.994099,-76.939659,0.0,26.3,33.0,3.0,0.8
20,6120604,1745474719632,,,,,,,,,,,,,,,,,,,,,,,,,,,,,,,,,,0,0,0,0,0,0,0,0,0,0,0,0,0,0,0,0,,,,,,,,,,,,,
21,6120624,1745474719652,0.0,134.0,,-0.12,-0.13,0.95,-2.0,0.0,0.0,0.97,1.04,93.0,4671.0,28.7,4.79,,13.96,1.251,91.6,,31.3,5.0,,,,,,,,,,,,0,0,0,0,0,0,0,0,0,0,0,0,0,0,0,0,,,,,,0.0,,,,,,,
22,6120644,1745474719672,,,,,,,,,,,,,,,,,,,,,,,,,,,,,,,,,,0,0,0,0,0,0,0,0,0,0,0,0,0,0,0,0,,,,,,,,,,,,,
23,6120664,1745474719694,0.0,134.0,,-0.11,-0.06,0.96,-2.0,0.0,0.0,0.97,1.04,93.0,4671.0,28.7,4.79,,13.92,1.25,91.6,,31.3,5.0,,,,,,,,,,,,0,0,0,0,0,0,0,0,0,0,0,0,0,0,0,0,,,,,,0.0,,,,,,,
24,6120684,1745474719714,,,,,,,,,,,,,,,,,,,,,,,0.0,0.0,0.0,0.0,7.9,0.0,0.0,0.0,2.26,,,0,0,0,0,0,0,0,0,0,0,0,0,0,0,0,0,,0.0,,,,,38.994099,-76.939659,0.0,26.3,33.0,3.0,0.8
25,6120704,1745474719734,0.0,133.0,,-0.1,-0.11,0.96,-2.0,0.0,0.0,0.97,1.04,93.0,4999.0,28.7,4.99,,13.76,1.25,91.6,,36.6,5.0,,,,,,,,,,,,0,0,0,0,0,0,0,0,0,0,0,0,0,0,0,0,,,,,,0.0,,,,,,,
26,6120724,1745474719754,,,,,,,,,,,,,,,,,,,,,,,,,,,,,,,,,,0,0,0,0,0,0,0,0,0,0,0,0,0,0,0,0,,,,,,,,,,,,,
27,6120744,1745474719774,0.0,134.0,,-0.11,-0.15,0.91,-2.0,0.0,0.0,0.93,1.04,90.0,5374.0,28.7,4.97,,13.56,1.249,91.6,,36.6,5.0,,,,,,,,,,,,0,0,0,0,0,0,0,0,0,0,0,0,0,0,0,0,,,,,,0.0,,,,,,,
28,6120764,1745474719794,,,,,,,,,,,,,,,,,,,,,,,,,,,,,,,,,,0,0,0,0,0,0,0,0,0,0,0,0,0,0,0,0,,,,,,,,,,,,,
29,6120784,1745474719814,0.0,134.0,,-0.13,-0.18,0.93,-3.0,0.0,-1.0,0.95,1.04,92.0,6082.0,28.7,4.94,,13.32,1.248,91.6,,36.6,5.0,0.0,0.0,0.0,0.0,7.9,0.0,0.0,0.0,2.26,,,0,0,0,0,0,0,0,0,0,0,0,0,0,0,0,0,,0.0,,,,0.0,38.994099,-76.939659,0.04,26.3,33.0,3.0,0.8
30,6120804,1745474719834,,,,,,,,,,,,,,,,,,,,,,,,,,,,,,,,,,0,0,0,0,0,0,0,0,0,0,0,0,0,0,0,0,,,,,,,,,,,,,
31,6120824,1745474719854,0.0,134.0,,-0.1,-0.23,0.94,-3.0,0.0,0.0,0.97,1.04,93.0,6967.0,28.6,5.48,,13.32,1.248,91.6,,41.9,5.0,,,,,,,,,,,,0,0,0,0,0,0,0,0,0,0,0,0,0,0,0,0,,,,,,0.0,,,,,,,
32,6120844,1745474719874,,,,,,,,,,,,,,,,,,,,,,,,,,,,,,,,,,0,0,0,0,0,0,0,0,0,0,0,0,0,0,0,0,,,,,,,,,,,,,
33,6120864,1745474719894,0.0,134.0,,-0.13,-0.12,0.92,-2.0,0.0,0.0,0.94,1.04,91.0,6967.0,28.6,5.48,,12.96,1.206,91.6,,41.9,5.0,,,,,,,,,,,,0,0,0,0,0,0,0,0,0,0,0,0,0,0,0,0,,,,,,0.0,,,,,,,
34,6120884,1745474719914,,,,,,,,,,,,,,,,,,,,,,,0.0,0.0,0.0,0.0,7.9,0.0,0.0,0.0,2.27,,,0,0,0,0,0,0,0,0,0,0,0,0,0,0,0,0,,0.0,,,,,38.994099,-76.939659,0.11,26.3,33.0,3.0,0.8
35,6120904,1745474719934,0.0,134.0,,-0.11,-0.18,0.91,-1.0,0.0,0.0,0.94,1.04,90.0,8128.0,63.2,5.51,,13.75,1.058,91.6,,45.6,5.0,,,,,,,,,,,,0,0,0,0,0,0,0,0,0,0,0,0,0,0,0,0,,,,,,0.0,,,,,,,
36,6120924,1745474719954,,,,,,,,,,,,,,,,,,,,,,,,,,,,,,,,,,0,0,0,0,0,0,0,0,0,0,0,0,0,0,0,0,,,,,,,,,,,,,
37,6120944,1745474719974,0.0,134.0,,-0.09,-0.14,0.99,-2.0,0.0,0.0,1.01,1.04,97.0,9303.0,99.4,6.8,,13.8,0.991,91.6,,45.6,5.0,,,,,,,,,,,,0,0,0,0,0,0,0,0,0,0,0,0,0,0,0,0,,,,,,0.0,,,,,,,
38,6120964,1745474719994,,,,,,,,,,,,,,,,,,,,,,,,,,,,,,,,,,0,0,0,0,0,0,0,0,0,0,0,0,0,0,0,0,,,,,,,,,,,,,
39,6120984,1745474720001,0.0,134.0,,-0.09,-0.06,0.94,-2.0,0.0,0.0,0.94,1.04,91.0,11160.0,99.4,5.54,,13.72,1.072,91.6,,45.6,5.0,0.0,0.0,0.0,0.0,7.9,0.0,0.0,0.0,2.27,,,0,0,0,0,0,0,0,0,0,0,0,0,0,0,0,0,,0.0,,,,0.0,38.994099,-76.939659,0.05,26.3,33.0,3.0,0.8
40,6121004,1745474720021,,,,,,,,,,,,,,,,,,,,,,,,,,,,,,,,,,0,0,0,0,0,0,0,0,0,0,0,0,0,0,0,0,,,,,,,,,,,,,
41,6121024,1745474720041,0.0,134.0,,-0.03,-0.16,0.97,-2.0,0.0,-1.0,0.98,1.04,94.0,11971.0,99.4,5.17,,13.72,1.072,91.6,,55.3,5.0,,,,,,,,,,,,0,0,0,0,0,0,0,0,0,0,0,0,0,0,0,0,,,,,,0.0,,,,,,,
42,6121044,1745474720061,,,,,,,,,,,,,,,,,,,,,,,,,,,,,,,,,,0,0,0,0,0,0,0,0,0,0,0,0,0,0,0,0,,,,,,,,,,,,,
43,6121064,1745474720091,0.0,134.0,,0.05,-0.19,0.93,-2.0,1.0,0.0,0.95,1.04,92.0,11971.0,99.4,5.17,,13.32,0.908,91.6,,55.3,5.0,,,,,,,,,,,,0,0,0,0,0,0,0,0,0,0,0,0,0,0,0,0,,,,,,0.0,,,,,,,
44,6121084,1745474720111,,,,,,,,,,,,,,,,,,,,,,,0.0,0.0,0.0,0.0,7.9,0.0,0.0,0.0,2.26,,,0,0,0,0,0,0,0,0,0,0,0,0,0,0,0,0,,0.0,,,,,38.994099,-76.939659,0.11,26.3,33.0,3.0,0.8
45,6121104,1745474720131,0.0,134.0,,0.12,0.04,0.93,-1.0,1.0,0.0,0.94,1.04,91.0,10959.0,99.5,5.49,,13.36,0.949,91.6,,51.3,5.0,,,,,,,,,,,,0,0,0,0,0,0,0,0,0,0,0,0,0,0,0,0,,,,,,0.0,,,,,,,
46,6121124,1745474720151,,,,,,,,,,,,,,,,,,,,,,,,,,,,,,,,,,0,0,0,0,0,0,0,0,0,0,0,0,0,0,0,0,,,,,,,,,,,,,
47,6121144,1745474720171,0.0,134.0,,0.09,0.12,0.89,0.0,0.0,1.0,0.9,1.04,87.0,10799.0,99.5,5.7,,13.72,0.977,91.6,,51.3,5.0,,,,,,,,,,,,0,0,0,0,0,0,0,0,0,0,0,0,0,0,0,0,,,,,,0.0,,,,,,,
48,6121164,1745474720191,,,,,,,,,,,,,,,,,,,,,,,,,,,,,,,,,,0,0,0,0,0,0,0,0,0,0,0,0,0,0,0,0,,,,,,,,,,,,,
49,6121184,1745474720211,0.0,134.0,,0.15,0.05,0.95,0.0,0.0,0.0,0.96,1.04,92.0,11565.0,99.6,5.37,,13.45,0.961,91.6,,51.3,5.0,0.0,0.0,33.0,33.0,7.9,0.0,0.0,0.0,2.26,,,0,0,0,0,0,0,0,0,0,0,0,0,0,0,0,0,,1.0,,,,0.0,38.994099,-76.939659,2.31,26.4,33.0,3.0,0.8
50,6121204,1745474720231,,,,,,,,,,,,,,,,,,,,,,,,,,,,,,,,,,0,0,0,0,0,0,0,0,0,0,0,0,0,0,0,0,,,,,,,,,,,,,
51,6121224,1745474720251,0.0,134.0,,0.21,0.16,0.97,-2.0,0.0,1.0,1.0,1.04,97.0,12077.0,99.5,5.15,,13.45,0.961,91.6,,61.0,5.0,,,,,,,,,,,,0,0,0,0,0,0,0,0,0,0,0,0,0,0,0,0,,,,,,0.0,,,,,,,
52,6121244,1745474720271,,,,,,,,,,,,,,,,,,,,,,,,,,,,,,,,,,0,0,0,0,0,0,0,0,0,0,0,0,0,0,0,0,,,,,,,,,,,,,
53,6121804,1745474720833,,,,,,,,,,,,,,,,,,,,,,,,,,,,,,,,,,0,0,0,0,0,0,0,0,0,0,0,0,0,0,0,0,,,,,,,,,,,,,
54,6121824,1745474720853,0.0,134.0,,0.75,-0.13,1.05,7.0,0.0,0.0,1.3,1.39,93.0,11360.0,99.5,5.37,,13.71,1.015,89.8,,60.7,5.0,,,,,,,,,,,,0,0,0,0,0,0,0,0,0,0,0,0,0,0,0,0,,,,,,0.0,,,,,,,
55,6121844,1745474720873,,,,,,,,,,,,,,,,,,,,,,,,,,,,,,,,,,0,0,0,0,0,0,0,0,0,0,0,0,0,0,0,0,,,,,,,,,,,,,
56,6121864,1745474720893,0.0,133.0,,0.8,-0.09,1.06,7.0,0.0,0.0,1.33,1.39,95.0,11360.0,99.5,5.37,,13.59,0.995,89.8,,60.7,5.0,,,,,,,,,,,,0,0,0,0,0,0,0,0,0,0,0,0,0,0,0,0,,,,,,0.0,,,,,,,
57,6121884,1745474720913,,,,,,,,,,,,,,,,,,,,,,,14.0,7.0,35.0,35.0,7.9,156.0,50.0,0.0,2.27,,,0,0,0,0,0,0,0,0,0,0,0,0,0,0,0,0,,0.0,,,,,38.994099,-76.939629,22.76,26.3,33.0,3.0,0.8
58,6121904,1745474720933,0.0,133.0,,0.85,-0.14,1.02,8.0,0.0,0.0,1.34,1.39,96.0,11281.0,99.5,5.4,,13.73,0.962,89.8,,59.5,5.0,,,,,,,,,,,,0,0,0,0,0,0,0,0,0,0,0,0,0,0,0,0,,,,,,0.0,,,,,,,
59,6121924,1745474720953,,,,,,,,,,,,,,,,,,,,,,,,,,,,,,,,,,0,0,0,0,0,0,0,0,0,0,0,0,0,0,0,0,,,,,,,,,,,,,
60,6121944,1745474720973,0.0,134.0,,0.85,-0.06,0.94,9.0,0.0,0.0,1.27,1.39,91.0,11244.0,99.6,5.44,,13.75,0.943,89.8,,59.5,5.0,,,,,,,,,,,,0,0,0,0,0,0,0,0,0,0,0,0,0,0,0,0,,,,,,0.0,,,,,,,
61,6121964,1745474720993,,,,,,,,,,,,,,,,,,,,,,,,,,,,,,,,,,0,0,0,0,0,0,0,0,0,0,0,0,0,0,0,0,,,,,,,,,,,,,
62,6121984,1745474721004,0.0,133.0,,0.86,-0.05,0.93,8.0,1.0,0.0,1.26,1.39,91.0,11152.0,99.5,5.48,,13.57,0.957,89.8,,59.5,5.0,15.0,7.0,35.0,34.0,7.9,201.0,50.0,0.0,2.26,,,0,0,0,0,0,0,0,0,0,0,0,0,0,0,0,0,,1.0,,,,0.0,38.994099,-76.939621,25.86,26.3,33.0,3.0,0.8
63,6122004,1745474721024,,,,,,,,,,,,,,,,,,,,,,,,,,,,,,,,,,0,0,0,0,0,0,0,0,0,0,0,0,0,0,0,0,,,,,,,,,,,,,
64,6122024,1745474721044,0.0,133.0,,0.91,-0.11,0.98,8.0,0.0,0.0,1.34,1.39,96.0,10940.0,99.6,5.54,,13.57,0.957,89.8,,58.0,5.0,,,,,,,,,,,,0,0,0,0,0,0,0,0,0,0,0,0,0,0,0,0,,,,,,0.0,,,,,,,
65,6122044,1745474721064,,,,,,,,,,,,,,,,,,,,,,,,,,,,,,,,,,0,0,0,0,0,0,0,0,0,0,0,0,0,0,0,0,,,,,,,,,,,,,
66,6122064,1745474721091,0.0,133.0,,0.87,0.16,0.96,8.0,0.0,1.0,1.31,1.39,94.0,10940.0,99.6,5.54,,13.48,0.963,89.8,,58.0,5.0,,,,,,,,,,,,0,0,0,0,0,0,0,0,0,0,0,0,0,0,0,0,,,,,,0.0,,,,,,,
67,6122084,1745474721111,,,,,,,,,,,,,,,,,,,,,,,17.0,7.0,33.0,31.0,7.9,235.0,50.0,0.0,2.26,,,0,0,0,0,0,0,0,0,0,0,0,0,0,0,0,0,,0.0,,,,,38.994099,-76.939613,29.37,26.3,33.0,3.0,0.8
68,6122104,1745474721131,0.0,133.0,,0.85,0.26,0.98,6.0,0.0,1.0,1.32,1.39,95.0,10781.0,99.6,5.65,,13.71,0.968,89.8,,58.8,5.0,,,,,,,,,,,,0,0,0,0,0,0,0,0,0,0,0,0,0,0,0,0,,,,,,0.0,,,,,,,
69,6122124,1745474721151,,,,,,,,,,,,,,,,,,,,,,,,,,,,,,,,,,0,0,0,0,0,0,0,0,0,0,0,0,0,0,0,0,,,,,,,,,,,,,
70,6122144,1745474721171,0.0,133.0,,0.88,0.06,0.96,5.0,0.0,1.0,1.31,1.39,94.0,10686.0,99.5,5.69,,13.64,0.963,89.8,,58.8,5.0,,,,,,,,,,,,0,0,0,0,0,0,0,0,0,0,0,0,0,0,0,0,,,,,,0.0,,,,,,,
71,6122164,1745474721191,,,,,,,,,,,,,,,,,,,,,,,,,,,,,,,,,,0,0,0,0,0,0,0,0,0,0,0,0,0,0,0,0,,,,,,,,,,,,,
72,6122184,1745474721210,0.0,133.0,,0.85,-0.04,0.99,5.0,0.0,0.0,1.31,1.39,94.0,10688.0,99.5,5.69,,13.6,0.971,89.8,,58.8,5.0,20.0,7.0,32.0,31.0,7.9,132.0,49.0,0.0,2.26,,,0,0,0,0,0,0,0,0,0,0,0,0,0,0,0,0,,1.0,,,,0.0,38.994102,-76.939606,32.96,26.3,33.0,3.0,0.8
73,6122204,1745474721230,,,,,,,,,,,,,,,,,,,,,,,,,,,,,,,,,,0,0,0,0,0,0,0,0,0,0,0,0,0,0,0,0,,,,,,,,,,,,,
74,6122224,1745474721250,0.0,133.0,,0.83,0.01,0.96,3.0,0.0,0.0,1.27,1.39,91.0,10643.0,99.5,5.71,,13.6,0.971,89.8,,52.8,5.0,,,,,,,,,,,,0,0,0,0,0,0,0,0,0,0,0,0,0,0,0,0,,,,,,0.0,,,,,,,
75,6122244,1745474721270,,,,,,,,,,,,,,,,,,,,,,,,,,,,,,,,,,0,0,0,0,0,0,0,0,0,0,0,0,0,0,0,0,,,,,,,,,,,,,
76,6122264,1745474721292,0.0,133.0,,0.87,0.1,0.9,1.0,0.0,0.0,1.26,1.39,90.0,10643.0,99.5,5.71,,13.65,0.961,89.8,,52.8,5.0,,,,,,,,,,,,0,0,0,0,0,0,0,0,0,0,0,0,0,0,0,0,,,,,,0.0,,,,,,,
77,6122284,1745474721312,,,,,,,,,,,,,,,,,,,,,,,22.0,7.0,33.0,32.0,7.9,196.0,38.0,0.0,2.27,,,0,0,0,0,0,0,0,0,0,0,0,0,0,0,0,0,,1.0,,,,,38.994102,-76.93959,36.68,26.2,33.0,3.0,0.8
78,6122304,1745474721332,0.0,133.0,,0.89,0.1,0.96,-1.0,0.0,0.0,1.31,1.39,94.0,10570.0,99.5,5.74,,13.82,0.948,89.8,,57.7,5.0,,,,,,,,,,,,0,0,0,0,0,0,0,0,0,0,0,0,0,0,0,0,,,,,,0.0,,,,,,,
79,6122324,1745474721352,,,,,,,,,,,,,,,,,,,,,,,,,,,,,,,,,,0,0,0,0,0,0,0,0,0,0,0,0,0,0,0,0,,,,,,,,,,,,,
80,6122344,1745474721372,0.0,133.0,,0.88,-0.0,0.92,-2.0,0.0,-1.0,1.27,1.39,91.0,10583.0,99.5,5.77,,13.61,0.939,89.8,,57.7,5.0,,,,,,,,,,,,0,0,0,0,0,0,0,0,0,0,0,0,0,0,0,0,,,,,,0.0,,,,,,,
81,6122364,1745474721392,,,,,,,,,,,,,,,,,,,,,,,,,,,,,,,,,,0,0,0,0,0,0,0,0,0,0,0,0,0,0,0,0,,,,,,,,,,,,,
82,6122384,1745474721412,0.0,133.0,13.02,0.87,-0.13,0.96,-3.0,0.0,0.0,1.3,1.39,93.0,10812.0,99.4,5.62,15.0,13.83,0.925,89.8,178.0,57.7,5.0,24.0,7.0,33.0,34.0,7.9,91.0,32.0,0.0,2.27,0.0,1.0,0,0,0,0,0,0,0,0,0,0,0,0,0,0,0,0,0.0,0.0,1.0,0.0,0.0,0.0,38.994102,-76.939583,40.06,26.2,33.0,3.0,0.8
83,6122404,1745474721432,,,,,,,,,,,,,,,,,,,,,,,,,,,,,,,,,,0,0,0,0,0,0,0,0,0,0,0,0,0,0,0,0,,,,,,,,,,,,,
84,6122424,1745474721452,0.0,132.0,,0.85,0.07,0.99,-5.0,1.0,1.0,1.31,1.39,94.0,10316.0,44.6,4.77,,13.83,0.925,89.8,,59.1,5.0,,,,,,,,,,,,0,0,0,0,0,0,0,0,0,0,0,0,0,0,0,0,,,,,,0.0,,,,,,,
85,6122444,1745474721472,,,,,,,,,,,,,,,,,,,,,,,,,,,,,,,,,,0,0,0,0,0,0,0,0,0,0,0,0,0,0,0,0,,,,,,,,,,,,,
86,6122464,1745474721492,0.0,133.0,,0.83,-0.22,1.01,-4.0,1.0,2.0,1.33,1.39,95.0,10316.0,44.6,4.77,,12.68,0.925,89.8,,59.1,5.0,,,,,,,,,,,,0,0,0,0,0,0,0,0,0,0,0,0,0,0,0,0,,,,,,0.0,,,,,,,
87,6122484,1745474721512,,,,,,,,,,,,,,,,,,,,,,,27.0,7.0,30.0,30.0,7.9,180.0,17.0,0.0,2.26,,,0,0,0,0,0,0,0,0,0,0,0,0,0,0,0,0,,1.0,,,,,38.994102,-76.939568,42.83,26.2,33.0,3.0,0.8
88,6122504,1745474721532,0.0,132.0,,0.83,-0.2,1.05,-4.0,0.0,1.0,1.35,1.39,97.0,9918.0,13.2,4.94,,10.61,0.926,89.8,,56.4,5.0,,,,,,,,,,,,0,0,0,0,0,0,0,0,0,0,0,0,0,0,0,0,,,,,,0.0,,,,,,,
89,6122524,1745474721552,,,,,,,,,,,,,,,,,,,,,,,,,,,,,,,,,,0,0,0,0,0,0,0,0,0,0,0,0,0,0,0,0,,,,,,,,,,,,,
90,6122544,1745474721572,0.0,132.0,,0.71,-0.06,1.03,-7.0,-1.0,2.0,1.25,1.39,90.0,9631.0,5.1,2.6,,8.86,0.879,88.0,,56.4,5.0,,,,,,,,,,,,0,0,0,0,0,0,0,0,0,0,0,0,0,0,0,0,,,,,,0.0,,,,,,,
91,6122564,1745474721592,,,,,,,,,,,,,,,,,,,,,,,,,,,,,,,,,,0,0,0,0,0,0,0,0,0,0,0,0,0,0,0,0,,,,,,,,,,,,,
92,6122584,1745474721612,0.0,132.0,,0.59,-0.09,1.02,-9.0,-3.0,2.0,1.19,1.39,85.0,9671.0,1.9,1.4,,7.47,0.814,88.0,,56.4,5.0,28.0,29.0,30.0,30.0,7.9,18.0,0.0,0.0,2.26,,,0,0,0,0,0,0,0,0,0,0,0,0,0,0,0,0,,1.0,,,,0.0,38.994102,-76.939552,47.89,26.2,33.0,3.0,0.8
93,6122604,1745474721632,,,,,,,,,,,,,,,,,,,,,,,,,,,,,,,,,,0,0,0,0,0,0,0,0,0,0,0,0,0,0,0,0,,,,,,,,,,,,,
94,6122624,1745474721652,0.0,132.0,,0.46,-0.15,1.03,-12.0,-3.0,2.0,1.14,1.39,82.0,9539.0,0.6,1.4,,7.47,0.814,88.0,,52.9,5.0,,,,,,,,,,,,0,0,0,0,0,0,0,0,0,0,0,0,0,0,0,0,,,,,,0.0,,,,,,,
95,6122644,1745474721672,,,,,,,,,,,,,,,,,,,,,,,,,,,,,,,,,,0,0,0,0,0,0,0,0,0,0,0,0,0,0,0,0,,,,,,,,,,,,,
96,6122664,1745474721692,0.0,132.0,,0.34,-0.21,1.02,-16.0,-2.0,2.0,1.1,1.39,79.0,9539.0,0.6,1.4,,6.5,0.847,88.0,,52.9,5.0,,,,,,,,,,,,0,0,0,0,0,0,0,0,0,0,0,0,0,0,0,0,,,,,,0.0,,,,,,,
97,6122684,1745474721712,,,,,,,,,,,,,,,,,,,,,,,29.0,30.0,29.0,30.0,7.9,4.0,0.0,0.0,2.26,,,0,0,0,0,0,0,0,0,0,0,0,0,0,0,0,0,,1.0,,,,,38.994102,-76.939537,47.76,26.1,33.0,3.0,0.8
98,6122704,1745474721732,0.0,131.0,,0.26,-0.16,1.02,-19.0,-2.0,2.0,1.06,1.06,100.0,9406.0,0.2,1.4,,6.08,0.972,88.0,,48.5,5.0,,,,,,,,,,,,0,0,0,0,0,0,0,0,0,0,0,0,0,0,0,0,,,,,,0.0,,,,,,,
99,6122724,1745474721752,,,,,,,,,,,,,,,,,,,,,,,,,,,,,,,,,,0,0,0,0,0,0,0,0,0,0,0,0,0,0,0,0,,,,,,,,,,,,,
100,6122744,1745474721772,0.0,131.0,,0.16,-0.35,1.0,-21.0,-2.0,1.0,1.07,1.07,100.0,9334.0,0.0,1.4,,5.68,1.105,88.0,,48.5,5.0,,,,,,,,,,,,0,0,0,0,0,0,0,0,0,0,0,0,0,0,0,0,,,,,,0.0,,,,,,,
101,6122764,1745474721792,,,,,,,,,,,,,,,,,,,,,,,,,,,,,,,,,,0,0,0,0,0,0,0,0,0,0,0,0,0,0,0,0,,,,,,,,,,,,,
102,6122784,1745474721812,0.0,131.0,,0.06,-0.48,1.03,-23.0,-2.0,1.0,1.14,1.14,100.0,9295.0,0.1,1.4,,5.34,1.154,88.0,,48.5,5.0,28.0,30.0,27.0,31.0,7.9,191.0,0.0,0.0,2.27,,,0,0,0,0,0,0,0,0,0,0,0,0,0,0,0,0,,0.0,,,,0.0,38.994102,-76.939522,45.66,26.1,33.0,3.0,0.8
103,6122804,1745474721832,,,,,,,,,,,,,,,,,,,,,,,,,,,,,,,,,,0,0,0,0,0,0,0,0,0,0,0,0,0,0,0,0,,,,,,,,,,,,,
104,6122824,1745474721852,0.0,130.0,,-0.01,-0.61,0.92,-27.0,-1.0,1.0,1.11,1.14,97.0,9392.0,0.2,1.4,,5.34,1.154,88.0,,48.0,5.0,,,,,,,,,,,,0,0,0,0,0,0,0,0,0,0,0,0,0,0,0,0,,,,,,0.0,,,,,,,
105,6122844,1745474721872,,,,,,,,,,,,,,,,,,,,,,,,,,,,,,,,,,0,0,0,0,0,0,0,0,0,0,0,0,0,0,0,0,,,,,,,,,,,,,
106,6122864,1745474721893,0.0,131.0,,-0.07,-0.6,1.02,-29.0,0.0,1.0,1.18,1.18,100.0,9392.0,0.2,1.4,,5.23,1.122,88.0,,48.0,5.0,,,,,,,,,,,,0,0,0,0,0,0,0,0,0,0,0,0,0,0,0,0,,,,,,0.0,,,,,,,
107,6122884,1745474721913,,,,,,,,,,,,,,,,,,,,,,,27.0,31.0,27.0,29.0,7.9,167.0,0.0,0.0,2.27,,,0,0,0,0,0,0,0,0,0,0,0,0,0,0,0,0,,1.0,,,,,38.994099,-76.939506,45.5,26.1,33.0,3.0,0.8
108,6122904,1745474721933,0.0,130.0,,-0.11,-0.76,0.96,-31.0,0.0,2.0,1.23,1.23,100.0,9363.0,0.2,1.4,,5.19,1.109,88.0,,48.7,5.0,,,,,,,,,,,,0,0,0,0,0,0,0,0,0,0,0,0,0,0,0,0,,,,,,0.0,,,,,,,
109,6122924,1745474721953,,,,,,,,,,,,,,,,,,,,,,,,,,,,,,,,,,0,0,0,0,0,0,0,0,0,0,0,0,0,0,0,0,,,,,,,,,,,,,
110,6122944,1745474721973,0.0,130.0,,-0.19,-0.87,1.01,-32.0,-1.0,2.0,1.34,1.34,100.0,9263.0,0.3,1.4,,4.97,1.125,88.0,,48.7,5.0,,,,,,,,,,,,0,0,0,0,0,0,0,0,0,0,0,0,0,0,0,0,,,,,,0.0,,,,,,,
111,6122964,1745474721993,,,,,,,,,,,,,,,,,,,,,,,,,,,,,,,,,,0,0,0,0,0,0,0,0,0,0,0,0,0,0,0,0,,,,,,,,,,,,,
112,6122984,1745474722003,0.0,130.0,,-0.25,-0.85,0.98,-33.0,-2.0,1.0,1.33,1.34,99.0,9090.0,0.6,1.4,,5.01,1.16,88.0,,48.7,5.0,28.0,30.0,27.0,30.0,7.9,91.0,0.0,0.0,2.26,,,0,0,0,0,0,0,0,0,0,0,0,0,0,0,0,0,,0.0,,,,0.0,38.994095,-76.939499,43.83,26.1,30.0,3.0,0.9
113,6123004,1745474722023,,,,,,,,,,,,,,,,,,,,,,,,,,,,,,,,,,0,0,0,0,0,0,0,0,0,0,0,0,0,0,0,0,,,,,,,,,,,,,
114,6123024,1745474722043,0.0,129.0,,-0.33,-0.79,0.99,-37.0,-2.0,1.0,1.31,1.34,98.0,8932.0,0.7,1.4,,5.01,1.16,88.0,,49.5,5.0,,,,,,,,,,,,0,0,0,0,0,0,0,0,0,0,0,0,0,0,0,0,,,,,,0.0,,,,,,,
115,6123044,1745474722063,,,,,,,,,,,,,,,,,,,,,,,,,,,,,,,,,,0,0,0,0,0,0,0,0,0,0,0,0,0,0,0,0,,,,,,,,,,,,,
116,6123064,1745474722091,0.0,129.0,,-0.39,-0.98,0.99,-40.0,-1.0,1.0,1.45,1.45,100.0,8932.0,0.7,1.4,,4.93,1.232,88.0,,49.5,5.0,,,,,,,,,,,,0,0,0,0,0,0,0,0,0,0,0,0,0,0,0,0,,,,,,0.0,,,,,,,
117,6123084,1745474722111,,,,,,,,,,,,,,,,,,,,,,,26.0,31.0,25.0,28.0,7.9,41.0,0.0,0.0,2.26,,,0,0,0,0,0,0,0,0,0,0,0,0,0,0,0,0,,0.0,,,,,38.994095,-76.939484,43.86,26.1,30.0,3.0,0.9
118,6123104,1745474722131,0.0,129.0,,-0.44,-0.99,1.0,-43.0,0.0,1.0,1.48,1.48,100.0,8736.0,0.6,1.4,,4.87,1.249,88.0,,48.4,5.0,,,,,,,,,,,,0,0,0,0,0,0,0,0,0,0,0,0,0,0,0,0,,,,,,0.0,,,,,,,
119,6123124,1745474722151,,,,,,,,,,,,,,,,,,,,,,,,,,,,,,,,,,0,0,0,0,0,0,0,0,0,0,0,0,0,0,0,0,,,,,,,,,,,,,
120,6123144,1745474722171,0.0,129.0,,-0.48,-0.96,1.03,-46.0,0.0,1.0,1.48,1.48,100.0,8514.0,0.5,1.4,,4.96,1.249,88.0,,48.4,5.0,,,,,,,,,,,,0,0,0,0,0,0,0,0,0,0,0,0,0,0,0,0,,,,,,0.0,,,,,,,
121,6123164,1745474722193,,,,,,,,,,,,,,,,,,,,,,,,,,,,,,,,,,0,0,0,0,0,0,0,0,0,0,0,0,0,0,0,0,,,,,,,,,,,,,
122,6123184,1745474722213,0.0,130.0,,-0.55,-1.14,0.98,-49.0,-1.0,1.0,1.59,1.59,100.0,8345.0,0.3,1.4,,4.95,1.248,88.0,,48.4,5.0,25.0,27.0,25.0,28.0,7.9,11.0,0.0,0.0,2.27,,,0,0,0,0,0,0,0,0,0,0,0,0,0,0,0,0,,0.0,,,,0.0,38.994091,-76.939468,41.32,26.1,30.0,3.0,0.9
123,6123204,1745474722233,,,,,,,,,,,,,,,,,,,,,,,,,,,,,,,,,,0,0,0,0,0,0,0,0,0,0,0,0,0,0,0,0,,,,,,,,,,,,,
124,6123224,1745474722253,0.0,128.0,,-0.56,-1.21,0.97,-52.0,-1.0,1.0,1.65,1.65,100.0,8198.0,0.3,1.4,,4.95,1.248,88.0,,48.4,5.0,,,,,,,,,,,,0,0,0,0,0,0,0,0,0,0,0,0,0,0,0,0,,,,,,0.0,,,,,,,
125,6123244,1745474722273,,,,,,,,,,,,,,,,,,,,,,,,,,,,,,,,,,0,0,0,0,0,0,0,0,0,0,0,0,0,0,0,0,,,,,,,,,,,,,
126,6123264,1745474722293,0.0,130.0,,-0.56,-1.14,0.96,-53.0,0.0,1.0,1.6,1.65,97.0,8198.0,0.3,1.4,,5.03,1.248,88.0,,48.4,5.0,,,,,,,,,,,,0,0,0,0,0,0,0,0,0,0,0,0,0,0,0,0,,,,,,0.0,,,,,,,
127,6123284,1745474722313,,,,,,,,,,,,,,,,,,,,,,,23.0,27.0,23.0,27.0,7.9,47.0,0.0,0.0,2.27,,,0,0,0,0,0,0,0,0,0,0,0,0,0,0,0,0,,0.0,,,,,38.994083,-76.939453,40.53,26.1,30.0,3.0,0.9
128,6123304,1745474722333,0.0,130.0,,-0.6,-1.05,0.95,-56.0,0.0,1.0,1.54,1.65,93.0,7912.0,0.4,1.4,,5.26,1.25,88.0,,48.2,5.0,,,,,,,,,,,,0,0,0,0,0,0,0,0,0,0,0,0,0,0,0,0,,,,,,0.0,,,,,,,
129,6123324,1745474722353,,,,,,,,,,,,,,,,,,,,,,,,,,,,,,,,,,0,0,0,0,0,0,0,0,0,0,0,0,0,0,0,0,,,,,,,,,,,,,
130,6123344,1745474722373,0.0,129.0,,-0.65,-1.08,0.87,-58.0,0.0,1.0,1.53,1.65,93.0,7685.0,4.3,1.61,,5.67,1.252,88.0,,48.2,5.0,,,,,,,,,,,,0,0,0,0,0,0,0,0,0,0,0,0,0,0,0,0,,,,,,0.0,,,,,,,
131,6123364,1745474722393,,,,,,,,,,,,,,,,,,,,,,,,,,,,,,,,,,0,0,0,0,0,0,0,0,0,0,0,0,0,0,0,0,,,,,,,,,,,,,
132,6123384,1745474722413,0.0,127.0,13.09,-0.69,-1.21,0.89,-61.0,1.0,1.0,1.65,1.65,100.0,7554.0,8.0,1.98,15.0,6.47,1.251,88.0,178.0,48.2,5.0,23.0,27.0,20.0,26.0,7.9,62.0,0.0,0.0,2.27,0.0,1.0,0,0,0,0,0,0,0,0,0,0,0,0,0,0,0,0,0.0,0.0,1.0,0.0,0.0,0.0,38.99408,-76.939453,38.58,26.0,30.0,3.0,0.9
133,6123404,1745474722433,,,,,,,,,,,,,,,,,,,,,,,,,,,,,,,,,,0,0,0,0,0,0,0,0,0,0,0,0,0,0,0,0,,,,,,,,,,,,,
134,6123424,1745474722453,0.0,130.0,,-0.66,-1.25,0.87,-64.0,1.0,0.0,1.66,1.66,100.0,7556.0,12.2,2.39,,6.47,1.251,88.0,,48.7,5.0,,,,,,,,,,,,0,0,0,0,0,0,0,0,0,0,0,0,0,0,0,0,,,,,,0.0,,,,,,,
135,6123444,1745474722473,,,,,,,,,,,,,,,,,,,,,,,,,,,,,,,,,,0,0,0,0,0,0,0,0,0,0,0,0,0,0,0,0,,,,,,,,,,,,,
136,6123464,1745474722493,0.0,131.0,,-0.6,-1.16,0.91,-66.0,2.0,0.0,1.59,1.66,96.0,7556.0,12.2,2.39,,7.27,1.251,88.0,,48.7,5.0,,,,,,,,,,,,0,0,0,0,0,0,0,0,0,0,0,0,0,0,0,0,,,,,,0.0,,,,,,,
137,6123484,1745474722513,,,,,,,,,,,,,,,,,,,,,,,21.0,27.0,20.0,25.0,7.9,231.0,0.0,0.0,2.26,,,0,0,0,0,0,0,0,0,0,0,0,0,0,0,0,0,,0.0,,,,,38.994072,-76.939438,36.8,26.0,30.0,3.0,0.9
138,6123504,1745474722533,0.0,131.0,,-0.58,-1.11,0.9,-66.0,2.0,0.0,1.54,1.66,93.0,7659.0,16.6,2.92,,8.45,1.25,88.0,,48.6,5.0,,,,,,,,,,,,0,0,0,0,0,0,0,0,0,0,0,0,0,0,0,0,,,,,,0.0,,,,,,,
139,6123524,1745474722553,,,,,,,,,,,,,,,,,,,,,,,,,,,,,,,,,,0,0,0,0,0,0,0,0,0,0,0,0,0,0,0,0,,,,,,,,,,,,,
140,6123544,1745474722573,0.0,130.0,,-0.57,-1.13,0.92,-64.0,1.0,0.0,1.57,1.57,100.0,7804.0,17.8,3.25,,9.23,1.249,86.2,,48.6,5.0,,,,,,,,,,,,0,0,0,0,0,0,0,0,0,0,0,0,0,0,0,0,,,,,,0.0,,,,,,,
141,6123564,1745474722593,,,,,,,,,,,,,,,,,,,,,,,,,,,,,,,,,,0,0,0,0,0,0,0,0,0,0,0,0,0,0,0,0,,,,,,,,,,,,,
142,6123584,1745474722613,0.0,130.0,,-0.57,-1.17,0.89,-64.0,1.0,0.0,1.58,1.58,100.0,8102.0,19.4,3.63,,9.69,1.171,86.2,,48.6,5.0,22.0,25.0,21.0,23.0,7.9,41.0,0.0,0.0,2.26,,,0,0,0,0,0,0,0,0,0,0,0,0,0,0,0,0,,1.0,,,,0.0,38.994064,-76.93943,35.74,26.0,30.0,3.0,0.9
143,6123604,1745474722633,,,,,,,,,,,,,,,,,,,,,,,,,,,,,,,,,,0,0,0,0,0,0,0,0,0,0,0,0,0,0,0,0,,,,,,,,,,,,,
144,6123624,1745474722653,0.0,131.0,,-0.55,-1.01,0.9,-64.0,2.0,0.0,1.46,1.58,92.0,8668.0,20.5,3.6,,9.69,1.171,86.2,,48.6,5.0,,,,,,,,,,,,0,0,0,0,0,0,0,0,0,0,0,0,0,0,0,0,,,,,,0.0,,,,,,,
145,6123644,1745474722673,,,,,,,,,,,,,,,,,,,,,,,,,,,,,,,,,,0,0,0,0,0,0,0,0,0,0,0,0,0,0,0,0,,,,,,,,,,,,,
146,6123664,1745474722693,0.0,130.0,,-0.47,-1.14,0.96,-62.0,2.0,1.0,1.56,1.58,99.0,8668.0,20.5,3.6,,9.85,1.087,86.2,,48.6,5.0,,,,,,,,,,,,0,0,0,0,0,0,0,0,0,0,0,0,0,0,0,0,,,,,,0.0,,,,,,,
147,6123684,1745474722713,,,,,,,,,,,,,,,,,,,,,,,22.0,25.0,23.0,24.0,7.9,86.0,0.0,0.0,2.27,,,0,0,0,0,0,0,0,0,0,0,0,0,0,0,0,0,,0.0,,,,,38.994057,-76.939423,35.62,26.0,30.0,3.0,0.9
148,6123704,1745474722733,0.0,131.0,,-0.4,-1.11,0.87,-62.0,3.0,0.0,1.47,1.58,93.0,8778.0,21.3,3.48,,9.94,1.017,86.2,,49.3,5.0,,,,,,,,,,,,0,0,0,0,0,0,0,0,0,0,0,0,0,0,0,0,,,,,,0.0,,,,,,,
149,6123724,1745474722753,,,,,,,,,,,,,,,,,,,,,,,,,,,,,,,,,,0,0,0,0,0,0,0,0,0,0,0,0,0,0,0,0,,,,,,,,,,,,,
150,6123744,1745474722773,0.0,130.0,,-0.32,-1.15,0.9,-61.0,3.0,1.0,1.49,1.58,94.0,8614.0,21.5,3.6,,10.06,0.999,86.2,,49.3,5.0,,,,,,,,,,,,0,0,0,0,0,0,0,0,0,0,0,0,0,0,0,0,,,,,,0.0,,,,,,,
151,6123764,1745474722793,,,,,,,,,,,,,,,,,,,,,,,,,,,,,,,,,,0,0,0,0,0,0,0,0,0,0,0,0,0,0,0,0,,,,,,,,,,,,,
152,6123784,1745474722813,0.0,131.0,,-0.29,-1.09,0.91,-58.0,3.0,1.0,1.44,1.58,91.0,8439.0,20.7,3.8,,10.29,1.018,86.2,,49.3,5.0,22.0,25.0,27.0,27.0,7.9,98.0,2.0,0.0,2.27,,,0,0,0,0,0,0,0,0,0,0,0,0,0,0,0,0,,0.0,,,,0.0,38.994049,-76.939423,36.42,26.0,30.0,3.0,0.9
153,6123804,1745474722833,,,,,,,,,,,,,,,,,,,,,,,,,,,,,,,,,,0,0,0,0,0,0,0,0,0,0,0,0,0,0,0,0,,,,,,,,,,,,,
154,6123824,1745474722853,0.0,130.0,,-0.27,-1.13,0.9,-56.0,2.0,1.0,1.46,1.58,93.0,8480.0,21.3,3.75,,10.29,1.018,86.2,,48.9,5.0,,,,,,,,,,,,0,0,0,0,0,0,0,0,0,0,0,0,0,0,0,0,,,,,,0.0,,,,,,,
155,6123844,1745474722873,,,,,,,,,,,,,,,,,,,,,,,,,,,,,,,,,,0,0,0,0,0,0,0,0,0,0,0,0,0,0,0,0,,,,,,,,,,,,,
156,6123864,1745474722893,0.0,130.0,,-0.28,-1.04,0.94,-56.0,1.0,1.0,1.43,1.58,91.0,8480.0,21.3,3.75,,10.48,1.017,86.2,,48.9,5.0,,,,,,,,,,,,0,0,0,0,0,0,0,0,0,0,0,0,0,0,0,0,,,,,,0.0,,,,,,,
157,6123884,1745474722913,,,,,,,,,,,,,,,,,,,,,,,22.0,25.0,27.0,26.0,7.9,33.0,0.0,0.0,2.26,,,0,0,0,0,0,0,0,0,0,0,0,0,0,0,0,0,,1.0,,,,,38.994038,-76.939415,38.81,26.0,30.0,3.0,0.9
158,6123904,1745474722933,0.0,130.0,,-0.29,-1.32,0.89,-57.0,1.0,2.0,1.62,1.62,100.0,8670.0,21.7,3.69,,10.5,0.998,86.2,,48.1,5.0,,,,,,,,,,,,0,0,0,0,0,0,0,0,0,0,0,0,0,0,0,0,,,,,,0.0,,,,,,,
159,6123924,1745474722953,,,,,,,,,,,,,,,,,,,,,,,,,,,,,,,,,,0,0,0,0,0,0,0,0,0,0,0,0,0,0,0,0,,,,,,,,,,,,,
160,6123944,1745474722973,0.0,130.0,,-0.24,-1.51,0.88,-58.0,2.0,0.0,1.77,1.77,100.0,8982.0,21.6,3.58,,10.21,0.989,86.2,,48.1,5.0,,,,,,,,,,,,0,0,0,0,0,0,0,0,0,0,0,0,0,0,0,0,,,,,,0.0,,,,,,,
161,6123964,1745474722993,,,,,,,,,,,,,,,,,,,,,,,,,,,,,,,,,,0,0,0,0,0,0,0,0,0,0,0,0,0,0,0,0,,,,,,,,,,,,,
162,6123984,1745474723002,0.0,130.0,,-0.23,-1.55,0.92,-59.0,2.0,1.0,1.82,1.82,100.0,9120.0,20.1,3.53,,9.82,1.006,86.2,,48.1,5.0,23.0,27.0,27.0,27.0,7.9,44.0,0.0,0.0,2.26,,,0,0,0,0,0,0,0,0,0,0,0,0,0,0,0,0,,1.0,,,,0.0,38.99403,-76.939415,39.14,26.0,31.0,3.0,0.8
163,6124004,1745474723022,,,,,,,,,,,,,,,,,,,,,,,,,,,,,,,,,,0,0,0,0,0,0,0,0,0,0,0,0,0,0,0,0,,,,,,,,,,,,,
164,6124024,1745474723042,0.0,131.0,,-0.21,-1.42,0.95,-59.0,2.0,1.0,1.72,1.82,95.0,9225.0,11.7,2.86,,9.82,1.006,86.2,,47.8,5.0,,,,,,,,,,,,0,0,0,0,0,0,0,0,0,0,0,0,0,0,0,0,,,,,,0.0,,,,,,,
165,6124044,1745474723062,,,,,,,,,,,,,,,,,,,,,,,,,,,,,,,,,,0,0,0,0,0,0,0,0,0,0,0,0,0,0,0,0,,,,,,,,,,,,,
166,6124064,1745474723082,0.0,131.0,,-0.19,-1.23,0.97,-59.0,1.0,1.0,1.58,1.82,87.0,9225.0,11.7,2.86,,9.07,1.037,86.2,,47.8,5.0,,,,,,,,,,,,0,0,0,0,0,0,0,0,0,0,0,0,0,0,0,0,,,,,,0.0,,,,,,,
167,6124084,1745474723108,,,,,,,,,,,,,,,,,,,,,,,22.0,27.0,26.0,26.0,7.9,68.0,5.0,0.0,2.26,,,0,0,0,0,0,0,0,0,0,0,0,0,0,0,0,0,,0.0,,,,,38.994019,-76.939415,39.02,25.9,31.0,3.0,0.8
168,6124104,1745474723128,0.0,130.0,,-0.23,-1.11,0.94,-61.0,0.0,1.0,1.47,1.82,81.0,8973.0,5.7,2.34,,8.03,1.025,86.2,,47.4,5.0,,,,,,,,,,,,0,0,0,0,0,0,0,0,0,0,0,0,0,0,0,0,,,,,,0.0,,,,,,,
169,6124124,1745474723148,,,,,,,,,,,,,,,,,,,,,,,,,,,,,,,,,,0,0,0,0,0,0,0,0,0,0,0,0,0,0,0,0,,,,,,,,,,,,,
170,6124144,1745474723168,0.0,130.0,,-0.25,-0.88,0.98,-62.0,0.0,1.0,1.34,1.82,74.0,8935.0,5.8,2.14,,7.5,1.012,86.2,,47.4,5.0,,,,,,,,,,,,0,0,0,0,0,0,0,0,0,0,0,0,0,0,0,0,,,,,,0.0,,,,,,,
171,6124164,1745474723194,,,,,,,,,,,,,,,,,,,,,,,,,,,,,,,,,,0,0,0,0,0,0,0,0,0,0,0,0,0,0,0,0,,,,,,,,,,,,,
172,6124184,1745474723214,0.0,130.0,,-0.26,-0.86,1.04,-63.0,0.0,1.0,1.37,1.82,75.0,8847.0,5.8,2.05,,7.14,1.018,86.2,,47.4,5.0,23.0,26.0,27.0,27.0,7.9,115.0,0.0,0.0,2.27,,,0,0,0,0,0,0,0,0,0,0,0,0,0,0,0,0,,1.0,,,,0.0,38.994011,-76.939415,40.75,25.9,32.0,3.0,0.8
173,6124204,1745474723234,,,,,,,,,,,,,,,,,,,,,,,,,,,,,,,,,,0,0,0,0,0,0,0,0,0,0,0,0,0,0,0,0,,,,,,,,,,,,,
174,6124224,1745474723254,0.0,130.0,,-0.28,-1.12,1.0,-62.0,0.0,1.0,1.53,1.82,84.0,8678.0,5.9,2.02,,7.14,1.018,86.2,,46.4,5.0,,,,,,,,,,,,0,0,0,0,0,0,0,0,0,0,0,0,0,0,0,0,,,,,,0.0,,,,,,,
175,6124244,1745474723274,,,,,,,,,,,,,,,,,,,,,,,,,,,,,,,,,,0,0,0,0,0,0,0,0,0,0,0,0,0,0,0,0,,,,,,,,,,,,,
176,6124264,1745474723294,0.0,130.0,,-0.28,-1.06,1.05,-61.0,-1.0,1.0,1.52,1.82,84.0,8678.0,5.9,2.02,,6.91,1.038,86.2,,46.4,5.0,,,,,,,,,,,,0,0,0,0,0,0,0,0,0,0,0,0,0,0,0,0,,,,,,0.0,,,,,,,
177,6124284,1745474723314,,,,,,,,,,,,,,,,,,,,,,,23.0,26.0,24.0,27.0,7.9,97.0,0.0,0.0,2.27,,,0,0,0,0,0,0,0,0,0,0,0,0,0,0,0,0,,0.0,,,,,38.994,-76.939415,39.31,25.9,32.0,3.0,0.8
178,6124304,1745474723334,0.0,130.0,,-0.32,-1.1,1.02,-61.0,0.0,1.0,1.53,1.82,84.0,8466.0,5.6,2.04,,6.94,1.057,86.2,,47.0,5.0,,,,,,,,,,,,0,0,0,0,0,0,0,0,0,0,0,0,0,0,0,0,,,,,,0.0,,,,,,,
179,6124324,1745474723354,,,,,,,,,,,,,,,,,,,,,,,,,,,,,,,,,,0,0,0,0,0,0,0,0,0,0,0,0,0,0,0,0,,,,,,,,,,,,,
180,6124344,1745474723374,0.0,130.0,,-0.32,-1.1,1.03,-61.0,0.0,1.0,1.54,1.82,85.0,8285.0,5.8,2.04,,7.06,1.082,86.2,,47.0,5.0,,,,,,,,,,,,0,0,0,0,0,0,0,0,0,0,0,0,0,0,0,0,,,,,,0.0,,,,,,,
181,6124364,1745474723394,,,,,,,,,,,,,,,,,,,,,,,,,,,,,,,,,,0,0,0,0,0,0,0,0,0,0,0,0,0,0,0,0,,,,,,,,,,,,,
182,6124384,1745474723414,0.0,130.0,13.1,-0.32,-1.21,1.03,-61.0,0.0,0.0,1.62,1.82,89.0,8172.0,6.0,2.06,15.0,6.95,1.086,86.2,180.0,47.0,5.0,23.0,26.0,25.0,26.0,7.9,155.0,0.0,0.0,2.26,0.0,1.0,0,0,0,0,0,0,0,0,0,0,0,0,0,0,0,0,0.0,0.0,1.0,0.0,0.0,0.0,38.993992,-76.939415,39.3,25.9,32.0,3.0,0.8
183,6124404,1745474723434,,,,,,,,,,,,,,,,,,,,,,,,,,,,,,,,,,0,0,0,0,0,0,0,0,0,0,0,0,0,0,0,0,,,,,,,,,,,,,
184,6124424,1745474723454,0.0,129.0,,-0.37,-1.24,1.0,-60.0,-1.0,1.0,1.64,1.82,90.0,8054.0,6.4,2.21,,6.95,1.086,86.2,,47.1,5.0,,,,,,,,,,,,0,0,0,0,0,0,0,0,0,0,0,0,0,0,0,0,,,,,,0.0,,,,,,,
185,6124444,1745474723474,,,,,,,,,,,,,,,,,,,,,,,,,,,,,,,,,,0,0,0,0,0,0,0,0,0,0,0,0,0,0,0,0,,,,,,,,,,,,,
186,6124464,1745474723494,0.0,130.0,,-0.42,-1.17,1.02,-61.0,-1.0,1.0,1.61,1.61,100.0,8054.0,6.4,2.21,,7.14,1.093,86.2,,47.1,5.0,,,,,,,,,,,,0,0,0,0,0,0,0,0,0,0,0,0,0,0,0,0,,,,,,0.0,,,,,,,
187,6124484,1745474723514,,,,,,,,,,,,,,,,,,,,,,,22.0,25.0,23.0,25.0,7.9,43.0,6.0,0.0,2.26,,,0,0,0,0,0,0,0,0,0,0,0,0,0,0,0,0,,0.0,,,,,38.99398,-76.939415,38.39,25.9,32.0,3.0,0.8
188,6124504,1745474723534,0.0,130.0,,-0.43,-1.16,1.01,-62.0,-1.0,1.0,1.6,1.61,100.0,8008.0,7.4,2.38,,7.31,1.095,86.2,,47.6,5.0,,,,,,,,,,,,0,0,0,0,0,0,0,0,0,0,0,0,0,0,0,0,,,,,,0.0,,,,,,,
189,6124524,1745474723554,,,,,,,,,,,,,,,,,,,,,,,,,,,,,,,,,,0,0,0,0,0,0,0,0,0,0,0,0,0,0,0,0,,,,,,,,,,,,,
190,6124544,1745474723574,0.0,129.0,,-0.43,-1.23,1.01,-63.0,-1.0,1.0,1.65,1.65,100.0,8004.0,9.2,2.52,,7.75,1.094,86.2,,47.6,5.0,,,,,,,,,,,,0,0,0,0,0,0,0,0,0,0,0,0,0,0,0,0,,,,,,0.0,,,,,,,
191,6124564,1745474723592,,,,,,,,,,,,,,,,,,,,,,,,,,,,,,,,,,0,0,0,0,0,0,0,0,0,0,0,0,0,0,0,0,,,,,,,,,,,,,
192,6124584,1745474723612,0.0,130.0,,-0.47,-1.27,0.98,-64.0,-1.0,1.0,1.67,1.67,100.0,8081.0,11.1,2.62,,8.1,1.091,86.2,,47.6,5.0,22.0,25.0,22.0,26.0,7.9,137.0,0.0,0.0,2.27,,,0,0,0,0,0,0,0,0,0,0,0,0,0,0,0,0,,0.0,,,,0.0,38.993977,-76.939423,37.14,25.9,32.0,3.0,0.8
193,6124604,1745474723632,,,,,,,,,,,,,,,,,,,,,,,,,,,,,,,,,,0,0,0,0,0,0,0,0,0,0,0,0,0,0,0,0,,,,,,,,,,,,,
194,6124624,1745474723652,0.0,130.0,,-0.47,-1.24,0.98,-65.0,-1.0,2.0,1.65,1.67,98.0,8086.0,12.4,2.75,,8.1,1.091,86.2,,47.6,5.0,,,,,,,,,,,,0,0,0,0,0,0,0,0,0,0,0,0,0,0,0,0,,,,,,0.0,,,,,,,
195,6124644,1745474723672,,,,,,,,,,,,,,,,,,,,,,,,,,,,,,,,,,0,0,0,0,0,0,0,0,0,0,0,0,0,0,0,0,,,,,,,,,,,,,
196,6124664,1745474723692,0.0,130.0,,-0.47,-1.18,0.98,-66.0,0.0,2.0,1.61,1.67,96.0,8086.0,12.4,2.75,,8.51,1.059,86.2,,47.6,5.0,,,,,,,,,,,,0,0,0,0,0,0,0,0,0,0,0,0,0,0,0,0,,,,,,0.0,,,,,,,
197,6124684,1745474723710,,,,,,,,,,,,,,,,,,,,,,,21.0,25.0,24.0,26.0,7.9,22.0,0.0,0.0,2.27,,,0,0,0,0,0,0,0,0,0,0,0,0,0,0,0,0,,0.0,,,,,38.993965,-76.93943,36.18,25.9,32.0,3.0,0.8
198,6124704,1745474723730,0.0,130.0,,-0.48,-1.19,0.98,-67.0,1.0,2.0,1.61,1.67,96.0,8131.0,14.6,2.9,,8.85,1.051,86.2,,47.2,5.0,,,,,,,,,,,,0,0,0,0,0,0,0,0,0,0,0,0,0,0,0,0,,,,,,0.0,,,,,,,
199,6124724,1745474723750,,,,,,,,,,,,,,,,,,,,,,,,,,,,,,,,,,0,0,0,0,0,0,0,0,0,0,0,0,0,0,0,0,,,,,,,,,,,,,
200,6124744,1745474723770,0.0,130.0,,-0.45,-1.15,1.0,-67.0,1.0,1.0,1.59,1.67,95.0,8279.0,16.1,3.04,,9.37,1.045,86.2,,47.2,5.0,,,,,,,,,,,,0,0,0,0,0,0,0,0,0,0,0,0,0,0,0,0,,,,,,0.0,,,,,,,
201,6124764,1745474723792,,,,,,,,,,,,,,,,,,,,,,,,,,,,,,,,,,0,0,0,0,0,0,0,0,0,0,0,0,0,0,0,0,,,,,,,,,,,,,
202,6124784,1745474723812,0.0,130.0,,-0.45,-1.18,1.02,-67.0,1.0,2.0,1.63,1.67,97.0,8192.0,16.8,3.18,,9.53,1.045,86.2,,47.2,5.0,20.0,25.0,22.0,26.0,7.9,240.0,8.0,0.0,2.27,,,0,0,0,0,0,0,0,0,0,0,0,0,0,0,0,0,,0.0,,,,0.0,38.993958,-76.939438,35.18,25.9,32.0,3.0,0.8
203,6124804,1745474723832,,,,,,,,,,,,,,,,,,,,,,,,,,,,,,,,,,0,0,0,0,0,0,0,0,0,0,0,0,0,0,0,0,,,,,,,,,,,,,
204,6124824,1745474723852,0.0,130.0,,-0.45,-1.2,1.0,-66.0,1.0,1.0,1.63,1.67,97.0,8189.0,16.8,3.31,,9.53,1.045,86.2,,46.3,5.0,,,,,,,,,,,,0,0,0,0,0,0,0,0,0,0,0,0,0,0,0,0,,,,,,0.0,,,,,,,
205,6124844,1745474723872,,,,,,,,,,,,,,,,,,,,,,,,,,,,,,,,,,0,0,0,0,0,0,0,0,0,0,0,0,0,0,0,0,,,,,,,,,,,,,
206,6124864,1745474723892,0.0,130.0,,-0.43,-1.13,0.98,-66.0,1.0,1.0,1.56,1.67,93.0,8189.0,16.8,3.31,,9.65,1.047,86.2,,46.3,5.0,,,,,,,,,,,,0,0,0,0,0,0,0,0,0,0,0,0,0,0,0,0,,,,,,0.0,,,,,,,
207,6124884,1745474723912,,,,,,,,,,,,,,,,,,,,,,,21.0,24.0,25.0,25.0,7.9,60.0,1.0,0.0,2.26,,,0,0,0,0,0,0,0,0,0,0,0,0,0,0,0,0,,1.0,,,,,38.993954,-76.939446,36.53,25.9,32.0,3.0,0.8
208,6124904,1745474723932,0.0,130.0,,-0.41,-1.14,0.97,-66.0,1.0,1.0,1.55,1.67,93.0,8317.0,17.7,3.47,,9.77,1.029,86.2,,46.9,5.0,,,,,,,,,,,,0,0,0,0,0,0,0,0,0,0,0,0,0,0,0,0,,,,,,0.0,,,,,,,
209,6124924,1745474723952,,,,,,,,,,,,,,,,,,,,,,,,,,,,,,,,,,0,0,0,0,0,0,0,0,0,0,0,0,0,0,0,0,,,,,,,,,,,,,
210,6124944,1745474723972,0.0,131.0,,-0.33,-1.2,0.97,-66.0,1.0,0.0,1.58,1.67,94.0,8452.0,18.2,3.51,,9.9,1.016,86.2,,46.9,5.0,,,,,,,,,,,,0,0,0,0,0,0,0,0,0,0,0,0,0,0,0,0,,,,,,0.0,,,,,,,
211,6124964,1745474723992,,,,,,,,,,,,,,,,,,,,,,,,,,,,,,,,,,0,0,0,0,0,0,0,0,0,0,0,0,0,0,0,0,,,,,,,,,,,,,
212,6124984,1745474724003,0.0,130.0,,-0.32,-1.15,0.97,-65.0,1.0,1.0,1.54,1.67,92.0,8345.0,18.2,3.51,,9.88,1.005,86.2,,46.9,5.0,22.0,26.0,25.0,24.0,7.9,218.0,0.0,0.0,2.27,,,0,0,0,0,0,0,0,0,0,0,0,0,0,0,0,0,,0.0,,,,0.0,38.993946,-76.939453,35.84,25.9,29.0,3.0,0.9
213,6125004,1745474724023,,,,,,,,,,,,,,,,,,,,,,,,,,,,,,,,,,0,0,0,0,0,0,0,0,0,0,0,0,0,0,0,0,,,,,,,,,,,,,
214,6125024,1745474724043,0.0,130.0,,-0.3,-1.16,0.97,-65.0,1.0,1.0,1.54,1.67,92.0,8370.0,17.2,3.44,,9.88,1.005,86.2,,47.0,5.0,,,,,,,,,,,,0,0,0,0,0,0,0,0,0,0,0,0,0,0,0,0,,,,,,0.0,,,,,,,
215,6125044,1745474724063,,,,,,,,,,,,,,,,,,,,,,,,,,,,,,,,,,0,0,0,0,0,0,0,0,0,0,0,0,0,0,0,0,,,,,,,,,,,,,
216,6125064,1745474724083,0.0,130.0,,-0.32,-1.11,0.97,-65.0,2.0,0.0,1.51,1.67,90.0,8370.0,17.2,3.44,,9.98,0.992,86.2,,47.0,5.0,,,,,,,,,,,,0,0,0,0,0,0,0,0,0,0,0,0,0,0,0,0,,,,,,0.0,,,,,,,
217,6125084,1745474724109,,,,,,,,,,,,,,,,,,,,,,,21.0,25.0,26.0,25.0,7.9,67.0,0.0,0.0,2.27,,,0,0,0,0,0,0,0,0,0,0,0,0,0,0,0,0,,1.0,,,,,38.993942,-76.939461,37.33,25.9,29.0,3.0,0.9
218,6125104,1745474724129,0.0,130.0,,-0.26,-1.2,0.96,-65.0,2.0,0.0,1.56,1.67,93.0,8566.0,17.6,3.44,,9.78,0.979,86.2,,46.6,5.0,,,,,,,,,,,,0,0,0,0,0,0,0,0,0,0,0,0,0,0,0,0,,,,,,0.0,,,,,,,
219,6125124,1745474724149,,,,,,,,,,,,,,,,,,,,,,,,,,,,,,,,,,0,0,0,0,0,0,0,0,0,0,0,0,0,0,0,0,,,,,,,,,,,,,
220,6125144,1745474724169,0.0,130.0,,-0.23,-1.02,1.02,-63.0,2.0,1.0,1.46,1.67,87.0,8615.0,18.0,3.48,,9.86,0.984,86.2,,46.6,5.0,,,,,,,,,,,,0,0,0,0,0,0,0,0,0,0,0,0,0,0,0,0,,,,,,0.0,,,,,,,
221,6125164,1745474724191,,,,,,,,,,,,,,,,,,,,,,,,,,,,,,,,,,0,0,0,0,0,0,0,0,0,0,0,0,0,0,0,0,,,,,,,,,,,,,
222,6125184,1745474724211,0.0,130.0,,-0.2,-1.07,0.99,-62.0,1.0,1.0,1.47,1.67,88.0,8768.0,17.6,3.33,,9.66,0.984,86.2,,46.6,5.0,22.0,26.0,25.0,25.0,7.9,37.0,0.0,0.0,2.27,,,0,0,0,0,0,0,0,0,0,0,0,0,0,0,0,0,,0.0,,,,0.0,38.993935,-76.939476,36.6,25.9,29.0,3.0,0.9
223,6125204,1745474724231,,,,,,,,,,,,,,,,,,,,,,,,,,,,,,,,,,0,0,0,0,0,0,0,0,0,0,0,0,0,0,0,0,,,,,,,,,,,,,
224,6125224,1745474724251,0.0,130.0,,-0.23,-1.09,0.97,-61.0,1.0,1.0,1.48,1.67,89.0,8662.0,16.9,3.26,,9.66,0.984,86.2,,46.4,5.0,,,,,,,,,,,,0,0,0,0,0,0,0,0,0,0,0,0,0,0,0,0,,,,,,0.0,,,,,,,
225,6125244,1745474724271,,,,,,,,,,,,,,,,,,,,,,,,,,,,,,,,,,0,0,0,0,0,0,0,0,0,0,0,0,0,0,0,0,,,,,,,,,,,,,
226,6125264,1745474724291,0.0,130.0,,-0.27,-1.01,1.04,-62.0,0.0,0.0,1.47,1.67,88.0,8662.0,16.9,3.26,,9.65,0.981,86.2,,46.4,5.0,,,,,,,,,,,,0,0,0,0,0,0,0,0,0,0,0,0,0,0,0,0,,,,,,0.0,,,,,,,
227,6125284,1745474724311,,,,,,,,,,,,,,,,,,,,,,,22.0,28.0,28.0,26.0,7.9,127.0,0.0,0.0,2.26,,,0,0,0,0,0,0,0,0,0,0,0,0,0,0,0,0,,1.0,,,,,38.993935,-76.939491,39.15,25.9,29.0,3.0,0.9
228,6125304,1745474724331,0.0,130.0,,-0.27,-1.26,0.97,-62.0,0.0,1.0,1.62,1.67,96.0,8792.0,17.9,3.32,,9.65,0.987,86.2,,46.5,5.0,,,,,,,,,,,,0,0,0,0,0,0,0,0,0,0,0,0,0,0,0,0,,,,,,0.0,,,,,,,
229,6125324,1745474724351,,,,,,,,,,,,,,,,,,,,,,,,,,,,,,,,,,0,0,0,0,0,0,0,0,0,0,0,0,0,0,0,0,,,,,,,,,,,,,
230,6125344,1745474724371,0.0,130.0,,-0.26,-1.48,0.94,-63.0,0.0,2.0,1.77,1.77,100.0,8932.0,18.1,3.23,,9.57,0.996,86.2,,46.5,5.0,,,,,,,,,,,,0,0,0,0,0,0,0,0,0,0,0,0,0,0,0,0,,,,,,0.0,,,,,,,
231,6125364,1745474724393,,,,,,,,,,,,,,,,,,,,,,,,,,,,,,,,,,0,0,0,0,0,0,0,0,0,0,0,0,0,0,0,0,,,,,,,,,,,,,
232,6125384,1745474724413,0.0,130.0,13.11,-0.25,-1.72,0.91,-64.0,0.0,2.0,1.96,1.96,100.0,9030.0,17.6,3.21,15.0,9.42,0.998,86.2,180.0,46.5,5.0,22.0,25.0,28.0,27.0,7.9,122.0,2.0,0.0,2.26,0.0,1.0,0,0,0,0,0,0,0,0,0,0,0,0,0,0,0,0,0.0,1.0,1.0,0.0,0.0,0.0,38.993935,-76.939499,38.4,25.9,29.0,3.0,0.9
233,6125404,1745474724433,,,,,,,,,,,,,,,,,,,,,,,,,,,,,,,,,,0,0,0,0,0,0,0,0,0,0,0,0,0,0,0,0,,,,,,,,,,,,,
234,6125424,1745474724453,0.0,130.0,,-0.24,-1.89,0.94,-64.0,0.0,1.0,2.12,2.12,100.0,9101.0,16.4,3.14,,9.42,0.998,86.2,,45.6,5.0,,,,,,,,,,,,0,0,0,0,0,0,0,0,0,0,0,0,0,0,0,0,,,,,,0.0,,,,,,,
235,6125444,1745474724473,,,,,,,,,,,,,,,,,,,,,,,,,,,,,,,,,,0,0,0,0,0,0,0,0,0,0,0,0,0,0,0,0,,,,,,,,,,,,,
236,6125464,1745474724491,0.0,130.0,,-0.28,-1.79,0.94,-64.0,0.0,1.0,2.04,2.04,100.0,9101.0,16.4,3.14,,9.23,1.01,86.2,,45.6,5.0,,,,,,,,,,,,0,0,0,0,0,0,0,0,0,0,0,0,0,0,0,0,,,,,,0.0,,,,,,,
237,6125484,1745474724511,,,,,,,,,,,,,,,,,,,,,,,22.0,26.0,30.0,26.0,7.9,74.0,1.0,0.0,2.27,,,0,0,0,0,0,0,0,0,0,0,0,0,0,0,0,0,,0.0,,,,,38.993931,-76.939514,38.44,25.9,29.0,3.0,0.9
238,6125504,1745474724531,0.0,130.0,,-0.28,-1.65,0.92,-66.0,1.0,2.0,1.91,2.04,94.0,9245.0,16.4,3.07,,9.03,1.025,86.2,,45.6,5.0,,,,,,,,,,,,0,0,0,0,0,0,0,0,0,0,0,0,0,0,0,0,,,,,,0.0,,,,,,,
239,6125524,1745474724551,,,,,,,,,,,,,,,,,,,,,,,,,,,,,,,,,,0,0,0,0,0,0,0,0,0,0,0,0,0,0,0,0,,,,,,,,,,,,,
240,6125544,1745474724571,0.0,129.0,,-0.26,-1.67,0.89,-68.0,1.0,2.0,1.91,2.04,94.0,9221.0,14.9,2.9,,8.77,1.034,86.2,,45.6,5.0,,,,,,,,,,,,0,0,0,0,0,0,0,0,0,0,0,0,0,0,0,0,,,,,,0.0,,,,,,,
241,6125564,1745474724591,,,,,,,,,,,,,,,,,,,,,,,,,,,,,,,,,,0,0,0,0,0,0,0,0,0,0,0,0,0,0,0,0,,,,,,,,,,,,,
242,6125584,1745474724609,0.0,128.0,,-0.26,-1.76,0.96,-69.0,1.0,1.0,2.02,2.04,99.0,9111.0,14.2,2.81,,8.62,1.031,86.2,,45.6,5.0,22.0,26.0,27.0,28.0,7.9,111.0,0.0,0.0,2.27,,,0,0,0,0,0,0,0,0,0,0,0,0,0,0,0,0,,0.0,,,,0.0,38.993931,-76.939529,39.0,25.9,29.0,3.0,0.9
243,6125604,1745474724629,,,,,,,,,,,,,,,,,,,,,,,,,,,,,,,,,,0,0,0,0,0,0,0,0,0,0,0,0,0,0,0,0,,,,,,,,,,,,,
244,6125624,1745474724649,0.0,129.0,,-0.25,-1.66,1.0,-68.0,1.0,1.0,1.96,2.04,96.0,9087.0,13.7,2.76,,8.62,1.031,86.2,,44.9,5.0,,,,,,,,,,,,0,0,0,0,0,0,0,0,0,0,0,0,0,0,0,0,,,,,,0.0,,,,,,,
245,6125644,1745474724669,,,,,,,,,,,,,,,,,,,,,,,,,,,,,,,,,,0,0,0,0,0,0,0,0,0,0,0,0,0,0,0,0,,,,,,,,,,,,,
246,6125664,1745474724691,0.0,130.0,,-0.25,-1.43,1.05,-67.0,1.0,1.0,1.8,2.04,88.0,9087.0,13.7,2.76,,8.5,1.023,86.2,,44.9,5.0,,,,,,,,,,,,0,0,0,0,0,0,0,0,0,0,0,0,0,0,0,0,,,,,,0.0,,,,,,,
247,6125684,1745474724711,,,,,,,,,,,,,,,,,,,,,,,22.0,27.0,29.0,28.0,7.9,68.0,0.0,0.0,2.27,,,0,0,0,0,0,0,0,0,0,0,0,0,0,0,0,0,,1.0,,,,,38.993931,-76.939537,39.11,25.9,29.0,3.0,0.9
248,6125704,1745474724731,0.0,131.0,,-0.22,-1.09,1.1,-66.0,0.0,2.0,1.56,2.04,77.0,9034.0,13.8,2.77,,8.51,1.023,86.2,,45.7,5.0,,,,,,,,,,,,0,0,0,0,0,0,0,0,0,0,0,0,0,0,0,0,,,,,,0.0,,,,,,,
249,6125724,1745474724751,,,,,,,,,,,,,,,,,,,,,,,,,,,,,,,,,,0,0,0,0,0,0,0,0,0,0,0,0,0,0,0,0,,,,,,,,,,,,,
250,6125744,1745474724771,0.0,130.0,,-0.22,-0.89,1.08,-65.0,0.0,2.0,1.42,2.04,69.0,9050.0,14.4,2.79,,8.53,1.03,86.2,,45.7,5.0,,,,,,,,,,,,0,0,0,0,0,0,0,0,0,0,0,0,0,0,0,0,,,,,,0.0,,,,,,,
251,6125764,1745474724791,,,,,,,,,,,,,,,,,,,,,,,,,,,,,,,,,,0,0,0,0,0,0,0,0,0,0,0,0,0,0,0,0,,,,,,,,,,,,,
252,6125784,1745474724811,0.0,130.0,,-0.19,-0.79,1.07,-65.0,-1.0,2.0,1.34,2.04,66.0,9133.0,14.4,2.72,,8.54,1.035,86.2,,45.7,5.0,23.0,24.0,27.0,27.0,7.9,63.0,0.0,0.0,2.27,,,0,0,0,0,0,0,0,0,0,0,0,0,0,0,0,0,,1.0,,,,0.0,38.993935,-76.939545,39.67,25.9,29.0,3.0,0.9
253,6125804,1745474724831,,,,,,,,,,,,,,,,,,,,,,,,,,,,,,,,,,0,0,0,0,0,0,0,0,0,0,0,0,0,0,0,0,,,,,,,,,,,,,
254,6125824,1745474724851,0.0,130.0,,-0.19,-0.77,1.04,-66.0,0.0,2.0,1.31,2.04,64.0,8989.0,14.0,2.73,,8.54,1.035,86.2,,45.5,5.0,,,,,,,,,,,,0,0,0,0,0,0,0,0,0,0,0,0,0,0,0,0,,,,,,0.0,,,,,,,
255,6125844,1745474724871,,,,,,,,,,,,,,,,,,,,,,,,,,,,,,,,,,0,0,0,0,0,0,0,0,0,0,0,0,0,0,0,0,,,,,,,,,,,,,
256,6125864,1745474724891,0.0,131.0,,-0.16,-0.64,1.0,-66.0,1.0,2.0,1.19,2.04,58.0,8989.0,14.0,2.73,,8.45,1.034,86.2,,45.5,5.0,,,,,,,,,,,,0,0,0,0,0,0,0,0,0,0,0,0,0,0,0,0,,,,,,0.0,,,,,,,
257,6125884,1745474724911,,,,,,,,,,,,,,,,,,,,,,,22.0,27.0,27.0,27.0,7.9,123.0,0.0,0.0,2.26,,,0,0,0,0,0,0,0,0,0,0,0,0,0,0,0,0,,1.0,,,,,38.993935,-76.93956,37.95,25.9,29.0,3.0,0.9
258,6125904,1745474724931,0.0,131.0,,-0.13,-0.63,1.06,-64.0,2.0,2.0,1.24,2.04,61.0,8886.0,14.2,2.77,,8.55,1.039,86.2,,46.2,5.0,,,,,,,,,,,,0,0,0,0,0,0,0,0,0,0,0,0,0,0,0,0,,,,,,0.0,,,,,,,
259,6125924,1745474724951,,,,,,,,,,,,,,,,,,,,,,,,,,,,,,,,,,0,0,0,0,0,0,0,0,0,0,0,0,0,0,0,0,,,,,,,,,,,,,
260,6125944,1745474724971,0.0,130.0,,-0.12,-0.77,1.03,-63.0,2.0,2.0,1.29,2.04,63.0,8833.0,14.1,2.81,,8.66,1.038,86.2,,46.2,5.0,,,,,,,,,,,,0,0,0,0,0,0,0,0,0,0,0,0,0,0,0,0,,,,,,0.0,,,,,,,
261,6125964,1745474724991,,,,,,,,,,,,,,,,,,,,,,,,,,,,,,,,,,0,0,0,0,0,0,0,0,0,0,0,0,0,0,0,0,,,,,,,,,,,,,
262,6125984,1745474725000,0.0,130.0,,-0.15,-0.88,0.99,-62.0,2.0,1.0,1.33,2.04,65.0,8746.0,13.6,2.83,,8.63,1.036,86.2,,46.2,5.0,22.0,42.0,27.0,26.0,7.9,141.0,16.0,0.0,2.27,,,0,0,0,0,0,0,0,0,0,0,0,0,0,0,0,0,,1.0,,,,0.0,38.993938,-76.939575,37.66,25.9,30.0,3.0,0.9
263,6126004,1745474725020,,,,,,,,,,,,,,,,,,,,,,,,,,,,,,,,,,0,0,0,0,0,0,0,0,0,0,0,0,0,0,0,0,,,,,,,,,,,,,
264,6126024,1745474725040,0.0,130.0,,-0.16,-0.75,1.07,-60.0,2.0,3.0,1.31,2.04,64.0,8705.0,14.1,2.8,,8.63,1.036,86.2,,45.6,5.0,,,,,,,,,,,,0,0,0,0,0,0,0,0,0,0,0,0,0,0,0,0,,,,,,0.0,,,,,,,
265,6126044,1745474725060,,,,,,,,,,,,,,,,,,,,,,,,,,,,,,,,,,0,0,0,0,0,0,0,0,0,0,0,0,0,0,0,0,,,,,,,,,,,,,
266,6126064,1745474725080,0.0,130.0,,-0.19,-0.86,1.07,-58.0,1.0,1.0,1.38,2.04,68.0,8705.0,14.1,2.8,,8.7,1.032,86.2,,45.6,5.0,,,,,,,,,,,,0,0,0,0,0,0,0,0,0,0,0,0,0,0,0,0,,,,,,0.0,,,,,,,
267,6126084,1745474725110,,,,,,,,,,,,,,,,,,,,,,,23.0,27.0,26.0,27.0,7.9,71.0,0.0,0.0,2.27,,,0,0,0,0,0,0,0,0,0,0,0,0,0,0,0,0,,0.0,,,,,38.993942,-76.939583,40.42,26.0,30.0,3.0,1.0
268,6126104,1745474725130,0.0,130.0,,-0.21,-0.71,1.09,-55.0,1.0,1.0,1.32,2.04,65.0,8657.0,13.7,2.89,,8.75,1.03,86.2,,46.6,5.0,,,,,,,,,,,,0,0,0,0,0,0,0,0,0,0,0,0,0,0,0,0,,,,,,0.0,,,,,,,
269,6126124,1745474725150,,,,,,,,,,,,,,,,,,,,,,,,,,,,,,,,,,0,0,0,0,0,0,0,0,0,0,0,0,0,0,0,0,,,,,,,,,,,,,
270,6126144,1745474725170,0.0,130.0,,-0.19,-0.85,1.06,-54.0,0.0,1.0,1.37,2.04,67.0,8648.0,14.0,2.84,,8.85,1.031,86.2,,46.6,5.0,,,,,,,,,,,,0,0,0,0,0,0,0,0,0,0,0,0,0,0,0,0,,,,,,0.0,,,,,,,
271,6126164,1745474725190,,,,,,,,,,,,,,,,,,,,,,,,,,,,,,,,,,0,0,0,0,0,0,0,0,0,0,0,0,0,0,0,0,,,,,,,,,,,,,
272,6126184,1745474725208,0.0,130.0,,-0.23,-0.74,1.04,-55.0,0.0,1.0,1.3,2.04,63.0,8672.0,14.0,2.84,,8.79,1.023,86.2,,46.6,5.0,23.0,25.0,27.0,27.0,7.9,120.0,0.0,0.0,2.27,,,0,0,0,0,0,0,0,0,0,0,0,0,0,0,0,0,,1.0,,,,0.0,38.99395,-76.93959,38.88,26.0,31.0,3.0,1.0
273,6126204,1745474725228,,,,,,,,,,,,,,,,,,,,,,,,,,,,,,,,,,0,0,0,0,0,0,0,0,0,0,0,0,0,0,0,0,,,,,,,,,,,,,
274,6126224,1745474725248,0.0,129.0,,-0.28,-0.86,1.06,-55.0,0.0,1.0,1.39,2.04,68.0,8592.0,13.9,2.91,,8.79,1.023,86.2,,46.4,5.0,,,,,,,,,,,,0,0,0,0,0,0,0,0,0,0,0,0,0,0,0,0,,,,,,0.0,,,,,,,
275,6126244,1745474725268,,,,,,,,,,,,,,,,,,,,,,,,,,,,,,,,,,0,0,0,0,0,0,0,0,0,0,0,0,0,0,0,0,,,,,,,,,,,,,
276,6126264,1745474725292,0.0,130.0,,-0.27,-0.83,1.05,-55.0,0.0,2.0,1.37,2.04,67.0,8592.0,13.9,2.91,,8.91,1.024,86.2,,46.4,5.0,,,,,,,,,,,,0,0,0,0,0,0,0,0,0,0,0,0,0,0,0,0,,,,,,0.0,,,,,,,
277,6126284,1745474725312,,,,,,,,,,,,,,,,,,,,,,,24.0,24.0,26.0,26.0,7.9,37.0,0.0,0.0,2.27,,,0,0,0,0,0,0,0,0,0,0,0,0,0,0,0,0,,1.0,,,,,38.993958,-76.939606,38.42,26.0,31.0,3.0,1.0
278,6126304,1745474725332,0.0,130.0,,-0.27,-0.95,1.06,-55.0,0.0,1.0,1.45,2.04,71.0,8662.0,14.1,2.88,,8.85,1.029,86.2,,45.2,5.0,,,,,,,,,,,,0,0,0,0,0,0,0,0,0,0,0,0,0,0,0,0,,,,,,0.0,,,,,,,
279,6126324,1745474725352,,,,,,,,,,,,,,,,,,,,,,,,,,,,,,,,,,0,0,0,0,0,0,0,0,0,0,0,0,0,0,0,0,,,,,,,,,,,,,
280,6126344,1745474725372,0.0,130.0,,-0.31,-1.1,0.97,-56.0,0.0,1.0,1.5,2.04,73.0,8707.0,13.8,2.92,,8.85,1.029,86.2,,45.2,5.0,,,,,,,,,,,,0,0,0,0,0,0,0,0,0,0,0,0,0,0,0,0,,,,,,0.0,,,,,,,
281,6126364,1745474725392,,,,,,,,,,,,,,,,,,,,,,,,,,,,,,,,,,0,0,0,0,0,0,0,0,0,0,0,0,0,0,0,0,,,,,,,,,,,,,
282,6126384,1745474725412,0.0,130.0,13.1,-0.33,-0.91,0.97,-58.0,1.0,1.0,1.37,1.37,100.0,8787.0,14.1,2.88,15.0,8.73,1.029,86.2,180.0,45.2,5.0,23.0,26.0,26.0,26.0,7.9,5.0,0.0,0.0,2.27,0.0,1.0,0,0,0,0,0,0,0,0,0,0,0,0,0,0,0,0,0.0,1.0,1.0,0.0,0.0,0.0,38.993965,-76.939613,38.44,26.0,31.0,3.0,1.0
283,6126404,1745474725432,,,,,,,,,,,,,,,,,,,,,,,,,,,,,,,,,,0,0,0,0,0,0,0,0,0,0,0,0,0,0,0,0,,,,,,,,,,,,,
284,6126424,1745474725452,0.0,130.0,,-0.37,-0.88,1.0,-61.0,1.0,1.0,1.38,1.38,100.0,8872.0,13.9,2.82,,8.73,1.029,86.2,,45.8,5.0,,,,,,,,,,,,0,0,0,0,0,0,0,0,0,0,0,0,0,0,0,0,,,,,,0.0,,,,,,,
285,6126444,1745474725472,,,,,,,,,,,,,,,,,,,,,,,,,,,,,,,,,,0,0,0,0,0,0,0,0,0,0,0,0,0,0,0,0,,,,,,,,,,,,,
286,6126464,1745474725492,0.0,130.0,,-0.37,-1.02,1.03,-63.0,1.0,2.0,1.5,1.5,100.0,8872.0,13.9,2.82,,8.82,1.03,86.2,,45.8,5.0,,,,,,,,,,,,0,0,0,0,0,0,0,0,0,0,0,0,0,0,0,0,,,,,,0.0,,,,,,,
287,6126484,1745474725512,,,,,,,,,,,,,,,,,,,,,,,22.0,24.0,26.0,26.0,7.9,31.0,0.0,0.0,2.27,,,0,0,0,0,0,0,0,0,0,0,0,0,0,0,0,0,,1.0,,,,,38.993973,-76.939613,37.65,26.1,31.0,3.0,1.0
288,6126504,1745474725532,0.0,130.0,,-0.37,-1.25,0.98,-64.0,1.0,1.0,1.63,1.63,100.0,8839.0,13.6,2.79,,8.73,1.02,86.2,,44.4,5.0,,,,,,,,,,,,0,0,0,0,0,0,0,0,0,0,0,0,0,0,0,0,,,,,,0.0,,,,,,,
289,6126524,1745474725552,,,,,,,,,,,,,,,,,,,,,,,,,,,,,,,,,,0,0,0,0,0,0,0,0,0,0,0,0,0,0,0,0,,,,,,,,,,,,,
290,6126544,1745474725572,0.0,130.0,,-0.38,-1.21,1.03,-64.0,1.0,1.0,1.63,1.63,100.0,8768.0,13.6,2.81,,8.79,1.028,86.2,,44.4,5.0,,,,,,,,,,,,0,0,0,0,0,0,0,0,0,0,0,0,0,0,0,0,,,,,,0.0,,,,,,,
291,6126564,1745474725592,,,,,,,,,,,,,,,,,,,,,,,,,,,,,,,,,,0,0,0,0,0,0,0,0,0,0,0,0,0,0,0,0,,,,,,,,,,,,,
292,6126584,1745474725612,0.0,130.0,,-0.38,-1.14,1.06,-65.0,1.0,1.0,1.61,1.63,98.0,8816.0,13.6,2.84,,8.85,1.033,86.2,,44.4,5.0,22.0,26.0,26.0,26.0,7.9,79.0,0.0,0.0,2.27,,,0,0,0,0,0,0,0,0,0,0,0,0,0,0,0,0,,1.0,,,,0.0,38.993977,-76.939621,37.89,26.1,31.0,3.0,1.0
293,6126604,1745474725632,,,,,,,,,,,,,,,,,,,,,,,,,,,,,,,,,,0,0,0,0,0,0,0,0,0,0,0,0,0,0,0,0,,,,,,,,,,,,,
294,6126624,1745474725652,0.0,128.0,,-0.37,-1.29,1.09,-65.0,1.0,1.0,1.73,1.73,100.0,8875.0,13.9,2.81,,8.85,1.033,86.2,,44.2,5.0,,,,,,,,,,,,0,0,0,0,0,0,0,0,0,0,0,0,0,0,0,0,,,,,,0.0,,,,,,,
295,6126644,1745474725672,,,,,,,,,,,,,,,,,,,,,,,,,,,,,,,,,,0,0,0,0,0,0,0,0,0,0,0,0,0,0,0,0,,,,,,,,,,,,,
296,6126664,1745474725692,0.0,130.0,,-0.35,-1.46,1.05,-65.0,1.0,1.0,1.83,1.83,100.0,8875.0,13.9,2.81,,8.73,1.033,86.2,,44.2,5.0,,,,,,,,,,,,0,0,0,0,0,0,0,0,0,0,0,0,0,0,0,0,,,,,,0.0,,,,,,,
297,6126684,1745474725712,,,,,,,,,,,,,,,,,,,,,,,21.0,27.0,27.0,27.0,7.9,95.0,0.0,0.0,2.27,,,0,0,0,0,0,0,0,0,0,0,0,0,0,0,0,0,,1.0,,,,,38.993988,-76.939629,37.84,26.1,31.0,3.0,1.0
298,6126704,1745474725732,0.0,130.0,,-0.39,-1.48,0.98,-67.0,0.0,1.0,1.82,1.83,99.0,8875.0,14.1,2.85,,8.69,1.027,86.2,,44.2,5.0,,,,,,,,,,,,0,0,0,0,0,0,0,0,0,0,0,0,0,0,0,0,,,,,,0.0,,,,,,,
299,6126724,1745474725752,,,,,,,,,,,,,,,,,,,,,,,,,,,,,,,,,,0,0,0,0,0,0,0,0,0,0,0,0,0,0,0,0,,,,,,,,,,,,,
300,6126744,1745474725772,0.0,130.0,,-0.42,-1.3,0.96,-69.0,0.0,0.0,1.67,1.83,91.0,8861.0,14.2,2.82,,8.65,1.031,86.2,,44.2,5.0,,,,,,,,,,,,0,0,0,0,0,0,0,0,0,0,0,0,0,0,0,0,,,,,,0.0,,,,,,,
301,6126764,1745474725792,,,,,,,,,,,,,,,,,,,,,,,,,,,,,,,,,,0,0,0,0,0,0,0,0,0,0,0,0,0,0,0,0,,,,,,,,,,,,,
302,6126784,1745474725812,0.0,130.0,,-0.41,-1.22,0.95,-72.0,1.0,0.0,1.6,1.83,88.0,8860.0,14.2,2.85,,8.59,1.032,86.2,,44.2,5.0,21.0,26.0,28.0,26.0,7.9,115.0,0.0,0.0,2.26,,,0,0,0,0,0,0,0,0,0,0,0,0,0,0,0,0,,1.0,,,,0.0,38.993996,-76.939629,37.53,26.2,31.0,3.0,1.0
303,6126804,1745474725832,,,,,,,,,,,,,,,,,,,,,,,,,,,,,,,,,,0,0,0,0,0,0,0,0,0,0,0,0,0,0,0,0,,,,,,,,,,,,,
304,6126824,1745474725852,0.0,130.0,,-0.41,-1.29,0.99,-75.0,1.0,1.0,1.67,1.83,91.0,8875.0,14.2,2.82,,8.59,1.032,86.2,,44.0,5.0,,,,,,,,,,,,0,0,0,0,0,0,0,0,0,0,0,0,0,0,0,0,,,,,,0.0,,,,,,,
305,6126844,1745474725872,,,,,,,,,,,,,,,,,,,,,,,,,,,,,,,,,,0,0,0,0,0,0,0,0,0,0,0,0,0,0,0,0,,,,,,,,,,,,,
306,6126864,1745474725894,0.0,130.0,,-0.41,-1.47,0.99,-75.0,1.0,1.0,1.82,1.83,100.0,8875.0,14.2,2.82,,8.75,1.031,86.2,,44.0,5.0,,,,,,,,,,,,0,0,0,0,0,0,0,0,0,0,0,0,0,0,0,0,,,,,,0.0,,,,,,,
307,6126884,1745474725914,,,,,,,,,,,,,,,,,,,,,,,20.0,26.0,28.0,27.0,7.9,105.0,0.0,0.0,2.27,,,0,0,0,0,0,0,0,0,0,0,0,0,0,0,0,0,,1.0,,,,,38.994007,-76.939636,36.57,26.2,31.0,3.0,1.0
308,6126904,1745474725934,0.0,130.0,,-0.42,-1.54,0.98,-76.0,1.0,0.0,1.87,1.87,100.0,8820.0,13.7,2.78,,8.69,1.03,86.2,,44.1,5.0,,,,,,,,,,,,0,0,0,0,0,0,0,0,0,0,0,0,0,0,0,0,,,,,,0.0,,,,,,,
309,6126924,1745474725954,,,,,,,,,,,,,,,,,,,,,,,,,,,,,,,,,,0,0,0,0,0,0,0,0,0,0,0,0,0,0,0,0,,,,,,,,,,,,,
310,6126944,1745474725974,0.0,130.0,,-0.4,-1.33,1.0,-76.0,1.0,0.0,1.71,1.87,91.0,8761.0,13.6,2.86,,8.81,1.036,86.2,,44.1,5.0,,,,,,,,,,,,0,0,0,0,0,0,0,0,0,0,0,0,0,0,0,0,,,,,,0.0,,,,,,,
311,6126964,1745474725994,,,,,,,,,,,,,,,,,,,,,,,,,,,,,,,,,,0,0,0,0,0,0,0,0,0,0,0,0,0,0,0,0,,,,,,,,,,,,,
312,6126984,1745474726003,0.0,130.0,,-0.37,-1.27,1.03,-76.0,1.0,0.0,1.67,1.87,89.0,8753.0,13.6,2.86,,8.82,1.03,86.2,,44.1,5.0,20.0,24.0,27.0,27.0,7.9,34.0,1.0,0.0,2.27,,,0,0,0,0,0,0,0,0,0,0,0,0,0,0,0,0,,0.0,,,,0.0,38.994015,-76.939636,36.25,26.2,29.0,3.0,1.0
313,6127004,1745474726023,,,,,,,,,,,,,,,,,,,,,,,,,,,,,,,,,,0,0,0,0,0,0,0,0,0,0,0,0,0,0,0,0,,,,,,,,,,,,,
314,6127024,1745474726043,0.0,130.0,,-0.34,-1.44,0.95,-77.0,1.0,0.0,1.76,1.87,94.0,8731.0,13.5,2.85,,8.82,1.03,86.2,,43.2,5.0,,,,,,,,,,,,0,0,0,0,0,0,0,0,0,0,0,0,0,0,0,0,,,,,,0.0,,,,,,,
315,6127044,1745474726063,,,,,,,,,,,,,,,,,,,,,,,,,,,,,,,,,,0,0,0,0,0,0,0,0,0,0,0,0,0,0,0,0,,,,,,,,,,,,,
316,6127064,1745474726091,0.0,130.0,,-0.35,-1.4,0.99,-78.0,1.0,0.0,1.75,1.87,93.0,8731.0,13.5,2.85,,8.75,1.032,86.2,,43.2,5.0,,,,,,,,,,,,0,0,0,0,0,0,0,0,0,0,0,0,0,0,0,0,,,,,,0.0,,,,,,,
317,6127084,1745474726111,,,,,,,,,,,,,,,,,,,,,,,21.0,24.0,28.0,26.0,7.9,148.0,0.0,0.0,2.27,,,0,0,0,0,0,0,0,0,0,0,0,0,0,0,0,0,,1.0,,,,,38.994022,-76.939636,36.38,26.2,28.0,3.0,1.0
318,6127104,1745474726131,0.0,131.0,,-0.34,-1.45,0.96,-79.0,1.0,0.0,1.77,1.87,95.0,8687.0,13.6,2.89,,8.85,1.029,86.2,,43.8,5.0,,,,,,,,,,,,0,0,0,0,0,0,0,0,0,0,0,0,0,0,0,0,,,,,,0.0,,,,,,,
319,6127124,1745474726151,,,,,,,,,,,,,,,,,,,,,,,,,,,,,,,,,,0,0,0,0,0,0,0,0,0,0,0,0,0,0,0,0,,,,,,,,,,,,,
320,6127144,1745474726171,0.0,131.0,,-0.33,-1.27,0.96,-78.0,1.0,1.0,1.62,1.87,87.0,8628.0,13.9,2.91,,8.91,1.021,86.2,,43.8,5.0,,,,,,,,,,,,0,0,0,0,0,0,0,0,0,0,0,0,0,0,0,0,,,,,,0.0,,,,,,,
321,6127164,1745474726193,,,,,,,,,,,,,,,,,,,,,,,,,,,,,,,,,,0,0,0,0,0,0,0,0,0,0,0,0,0,0,0,0,,,,,,,,,,,,,
322,6127184,1745474726213,0.0,131.0,,-0.3,-1.29,0.98,-77.0,1.0,1.0,1.65,1.87,88.0,8550.0,14.3,2.93,,9.15,1.024,86.2,,43.8,5.0,21.0,19.0,25.0,27.0,7.9,104.0,21.0,0.0,2.27,,,0,0,0,0,0,0,0,0,0,0,0,0,0,0,0,0,,0.0,,,,0.0,38.994034,-76.939629,35.94,26.2,28.0,3.0,1.0
323,6127204,1745474726233,,,,,,,,,,,,,,,,,,,,,,,,,,,,,,,,,,0,0,0,0,0,0,0,0,0,0,0,0,0,0,0,0,,,,,,,,,,,,,
324,6127224,1745474726253,0.0,131.0,,-0.29,-1.29,1.03,-77.0,1.0,1.0,1.67,1.87,89.0,8547.0,14.5,2.96,,9.15,1.024,86.2,,43.4,5.0,,,,,,,,,,,,0,0,0,0,0,0,0,0,0,0,0,0,0,0,0,0,,,,,,0.0,,,,,,,
325,6127244,1745474726273,,,,,,,,,,,,,,,,,,,,,,,,,,,,,,,,,,0,0,0,0,0,0,0,0,0,0,0,0,0,0,0,0,,,,,,,,,,,,,
326,6127264,1745474726291,0.0,131.0,,-0.28,-1.23,1.0,-75.0,1.0,2.0,1.61,1.87,86.0,8547.0,14.5,2.96,,9.15,1.025,86.2,,43.4,5.0,,,,,,,,,,,,0,0,0,0,0,0,0,0,0,0,0,0,0,0,0,0,,,,,,0.0,,,,,,,
327,6127284,1745474726311,,,,,,,,,,,,,,,,,,,,,,,20.0,19.0,24.0,25.0,7.9,206.0,15.0,0.0,2.27,,,0,0,0,0,0,0,0,0,0,0,0,0,0,0,0,0,,1.0,,,,,38.994041,-76.939629,36.14,26.2,29.0,3.0,1.0
328,6127304,1745474726331,0.0,131.0,,-0.23,-1.28,0.99,-75.0,1.0,2.0,1.64,1.87,87.0,8469.0,15.1,3.05,,9.29,1.026,86.2,,43.3,5.0,,,,,,,,,,,,0,0,0,0,0,0,0,0,0,0,0,0,0,0,0,0,,,,,,0.0,,,,,,,
329,6127324,1745474726351,,,,,,,,,,,,,,,,,,,,,,,,,,,,,,,,,,0,0,0,0,0,0,0,0,0,0,0,0,0,0,0,0,,,,,,,,,,,,,
330,6127344,1745474726371,0.0,131.0,,-0.21,-1.27,0.97,-73.0,1.0,1.0,1.61,1.61,100.0,8422.0,15.3,3.12,,9.3,1.025,86.2,,43.3,5.0,,,,,,,,,,,,0,0,0,0,0,0,0,0,0,0,0,0,0,0,0,0,,,,,,0.0,,,,,,,
331,6127364,1745474726391,,,,,,,,,,,,,,,,,,,,,,,,,,,,,,,,,,0,0,0,0,0,0,0,0,0,0,0,0,0,0,0,0,,,,,,,,,,,,,
332,6127384,1745474726411,0.0,131.0,13.15,-0.16,-1.22,0.99,-69.0,1.0,1.0,1.57,1.61,98.0,8430.0,16.3,3.21,15.0,9.53,1.023,86.2,180.0,43.3,5.0,21.0,19.0,25.0,27.0,7.9,32.0,15.0,0.0,2.27,0.0,1.0,0,0,0,0,0,0,0,0,0,0,0,0,0,0,0,0,0.0,0.0,1.0,0.0,0.0,0.0,38.994049,-76.939621,35.9,26.3,29.0,3.0,1.0
333,6127404,1745474726431,,,,,,,,,,,,,,,,,,,,,,,,,,,,,,,,,,0,0,0,0,0,0,0,0,0,0,0,0,0,0,0,0,,,,,,,,,,,,,
334,6127424,1745474726451,0.0,131.0,,-0.13,-1.08,0.97,-65.0,1.0,1.0,1.45,1.61,90.0,8378.0,16.4,3.27,,9.53,1.023,86.2,,43.9,5.0,,,,,,,,,,,,0,0,0,0,0,0,0,0,0,0,0,0,0,0,0,0,,,,,,0.0,,,,,,,
335,6127444,1745474726471,,,,,,,,,,,,,,,,,,,,,,,,,,,,,,,,,,0,0,0,0,0,0,0,0,0,0,0,0,0,0,0,0,,,,,,,,,,,,,
336,6127464,1745474726491,0.0,132.0,,-0.1,-1.02,0.99,-60.0,1.0,1.0,1.43,1.61,88.0,8378.0,16.4,3.27,,9.66,1.02,86.2,,43.9,5.0,,,,,,,,,,,,0,0,0,0,0,0,0,0,0,0,0,0,0,0,0,0,,,,,,0.0,,,,,,,
337,6127484,1745474726511,,,,,,,,,,,,,,,,,,,,,,,22.0,19.0,26.0,27.0,7.9,6.0,10.0,0.0,2.27,,,0,0,0,0,0,0,0,0,0,0,0,0,0,0,0,0,,0.0,,,,,38.994057,-76.939613,36.61,26.3,29.0,3.0,1.0
338,6127504,1745474726531,0.0,132.0,,-0.08,-1.0,1.01,-56.0,0.0,1.0,1.42,1.61,88.0,8273.0,16.5,3.32,,9.84,1.006,86.2,,43.7,5.0,,,,,,,,,,,,0,0,0,0,0,0,0,0,0,0,0,0,0,0,0,0,,,,,,0.0,,,,,,,
339,6127524,1745474726551,,,,,,,,,,,,,,,,,,,,,,,,,,,,,,,,,,0,0,0,0,0,0,0,0,0,0,0,0,0,0,0,0,,,,,,,,,,,,,
340,6127544,1745474726571,0.0,131.0,,-0.1,-0.98,1.02,-51.0,0.0,1.0,1.42,1.61,88.0,8174.0,16.1,3.36,,9.89,0.999,86.2,,43.7,5.0,,,,,,,,,,,,0,0,0,0,0,0,0,0,0,0,0,0,0,0,0,0,,,,,,0.0,,,,,,,
341,6127564,1745474726593,,,,,,,,,,,,,,,,,,,,,,,,,,,,,,,,,,0,0,0,0,0,0,0,0,0,0,0,0,0,0,0,0,,,,,,,,,,,,,
342,6127584,1745474726613,0.0,131.0,,-0.1,-1.01,0.99,-49.0,0.0,1.0,1.42,1.61,88.0,8116.0,15.8,3.37,,10.13,0.993,86.2,,43.7,5.0,24.0,19.0,25.0,25.0,7.9,22.0,10.0,0.0,2.27,,,0,0,0,0,0,0,0,0,0,0,0,0,0,0,0,0,,1.0,,,,0.0,38.994064,-76.939606,37.67,26.3,29.0,3.0,1.0
343,6127604,1745474726633,,,,,,,,,,,,,,,,,,,,,,,,,,,,,,,,,,0,0,0,0,0,0,0,0,0,0,0,0,0,0,0,0,,,,,,,,,,,,,
344,6127624,1745474726653,0.0,131.0,,-0.12,-0.98,0.97,-47.0,0.0,0.0,1.38,1.61,86.0,8116.0,16.6,3.48,,10.13,0.993,86.2,,44.1,5.0,,,,,,,,,,,,0,0,0,0,0,0,0,0,0,0,0,0,0,0,0,0,,,,,,0.0,,,,,,,
345,6127644,1745474726673,,,,,,,,,,,,,,,,,,,,,,,,,,,,,,,,,,0,0,0,0,0,0,0,0,0,0,0,0,0,0,0,0,,,,,,,,,,,,,
346,6127664,1745474726695,0.0,131.0,,-0.14,-1.01,0.98,-46.0,-1.0,1.0,1.41,1.61,88.0,8116.0,16.6,3.48,,10.18,0.987,86.2,,44.1,5.0,,,,,,,,,,,,0,0,0,0,0,0,0,0,0,0,0,0,0,0,0,0,,,,,,0.0,,,,,,,
347,6127684,1745474726715,,,,,,,,,,,,,,,,,,,,,,,23.0,26.0,24.0,26.0,7.9,13.0,0.0,0.0,2.26,,,0,0,0,0,0,0,0,0,0,0,0,0,0,0,0,0,,0.0,,,,,38.994072,-76.939598,38.75,26.3,29.0,3.0,1.0
348,6127704,1745474726735,0.0,131.0,,-0.15,-0.89,1.01,-46.0,0.0,1.0,1.36,1.61,84.0,8276.0,17.5,3.6,,10.1,0.993,86.2,,45.2,5.0,,,,,,,,,,,,0,0,0,0,0,0,0,0,0,0,0,0,0,0,0,0,,,,,,0.0,,,,,,,
349,6127724,1745474726755,,,,,,,,,,,,,,,,,,,,,,,,,,,,,,,,,,0,0,0,0,0,0,0,0,0,0,0,0,0,0,0,0,,,,,,,,,,,,,
350,6127744,1745474726775,0.0,131.0,,-0.18,-0.87,1.03,-47.0,-1.0,2.0,1.36,1.61,84.0,8474.0,17.3,3.49,,10.0,0.988,86.2,,45.2,5.0,,,,,,,,,,,,0,0,0,0,0,0,0,0,0,0,0,0,0,0,0,0,,,,,,0.0,,,,,,,
351,6127764,1745474726793,,,,,,,,,,,,,,,,,,,,,,,,,,,,,,,,,,0,0,0,0,0,0,0,0,0,0,0,0,0,0,0,0,,,,,,,,,,,,,
352,6127784,1745474726813,0.0,131.0,,-0.19,-0.81,1.1,-49.0,-1.0,2.0,1.38,1.61,85.0,8842.0,16.4,3.26,,9.77,0.972,86.2,,45.2,5.0,23.0,28.0,26.0,26.0,7.9,233.0,0.0,0.0,2.27,,,0,0,0,0,0,0,0,0,0,0,0,0,0,0,0,0,,1.0,,,,0.0,38.994076,-76.93959,38.6,26.2,29.0,3.0,1.0
353,6127804,1745474726833,,,,,,,,,,,,,,,,,,,,,,,,,,,,,,,,,,0,0,0,0,0,0,0,0,0,0,0,0,0,0,0,0,,,,,,,,,,,,,
354,6127824,1745474726853,0.0,131.0,,-0.2,-0.76,1.09,-51.0,0.0,2.0,1.35,1.61,84.0,9048.0,15.9,3.19,,9.77,0.972,86.2,,47.3,5.0,,,,,,,,,,,,0,0,0,0,0,0,0,0,0,0,0,0,0,0,0,0,,,,,,0.0,,,,,,,
355,6127844,1745474726873,,,,,,,,,,,,,,,,,,,,,,,,,,,,,,,,,,0,0,0,0,0,0,0,0,0,0,0,0,0,0,0,0,,,,,,,,,,,,,
356,6127864,1745474726893,0.0,131.0,,-0.21,-0.66,1.11,-54.0,0.0,3.0,1.31,1.61,81.0,9048.0,15.9,3.19,,9.5,0.965,86.2,,47.3,5.0,,,,,,,,,,,,0,0,0,0,0,0,0,0,0,0,0,0,0,0,0,0,,,,,,0.0,,,,,,,
357,6127884,1745474726913,,,,,,,,,,,,,,,,,,,,,,,23.0,28.0,29.0,28.0,7.9,0.0,0.0,0.0,2.27,,,0,0,0,0,0,0,0,0,0,0,0,0,0,0,0,0,,1.0,,,,,38.994083,-76.939575,38.37,26.2,29.0,3.0,1.0
358,6127904,1745474726933,0.0,131.0,,-0.19,-0.47,1.1,-55.0,0.0,4.0,1.21,1.61,75.0,9036.0,15.0,3.0,,9.17,0.987,86.2,,44.1,5.0,,,,,,,,,,,,0,0,0,0,0,0,0,0,0,0,0,0,0,0,0,0,,,,,,0.0,,,,,,,
359,6127924,1745474726953,,,,,,,,,,,,,,,,,,,,,,,,,,,,,,,,,,0,0,0,0,0,0,0,0,0,0,0,0,0,0,0,0,,,,,,,,,,,,,
360,6127944,1745474726973,0.0,131.0,,-0.23,-0.33,1.1,-58.0,0.0,3.0,1.18,1.61,73.0,9068.0,14.0,2.89,,9.02,1.008,86.2,,44.1,5.0,,,,,,,,,,,,0,0,0,0,0,0,0,0,0,0,0,0,0,0,0,0,,,,,,0.0,,,,,,,
361,6127964,1745474726993,,,,,,,,,,,,,,,,,,,,,,,,,,,,,,,,,,0,0,0,0,0,0,0,0,0,0,0,0,0,0,0,0,,,,,,,,,,,,,
362,6127984,1745474727004,0.0,131.0,,-0.26,-0.23,1.04,-61.0,0.0,3.0,1.09,1.61,68.0,9111.0,14.0,2.87,,8.69,1.01,86.2,,44.1,5.0,22.0,28.0,27.0,30.0,7.9,49.0,0.0,0.0,2.27,,,0,0,0,0,0,0,0,0,0,0,0,0,0,0,0,0,,0.0,,,,0.0,38.994087,-76.939568,39.54,26.2,29.0,3.0,0.8
363,6128004,1745474727024,,,,,,,,,,,,,,,,,,,,,,,,,,,,,,,,,,0,0,0,0,0,0,0,0,0,0,0,0,0,0,0,0,,,,,,,,,,,,,
364,6128024,1745474727044,0.0,131.0,,-0.25,-0.38,0.99,-63.0,1.0,3.0,1.09,1.61,68.0,9142.0,14.3,2.83,,8.69,1.01,86.2,,44.0,5.0,,,,,,,,,,,,0,0,0,0,0,0,0,0,0,0,0,0,0,0,0,0,,,,,,0.0,,,,,,,
365,6128044,1745474727064,,,,,,,,,,,,,,,,,,,,,,,,,,,,,,,,,,0,0,0,0,0,0,0,0,0,0,0,0,0,0,0,0,,,,,,,,,,,,,
366,6128064,1745474727092,0.0,131.0,,-0.21,-0.67,0.92,-63.0,0.0,4.0,1.16,1.61,72.0,9142.0,14.3,2.83,,8.71,1.017,86.2,,44.0,5.0,,,,,,,,,,,,0,0,0,0,0,0,0,0,0,0,0,0,0,0,0,0,,,,,,0.0,,,,,,,
367,6128084,1745474727112,,,,,,,,,,,,,,,,,,,,,,,22.0,28.0,27.0,28.0,7.9,29.0,0.0,0.0,2.26,,,0,0,0,0,0,0,0,0,0,0,0,0,0,0,0,0,,0.0,,,,,38.994095,-76.93956,39.26,26.2,29.0,3.0,0.8
368,6128104,1745474727132,0.0,131.0,,-0.2,-0.94,0.95,-61.0,0.0,3.0,1.35,1.61,84.0,9036.0,13.2,2.76,,8.7,1.02,86.2,,42.7,5.0,,,,,,,,,,,,0,0,0,0,0,0,0,0,0,0,0,0,0,0,0,0,,,,,,0.0,,,,,,,
369,6128124,1745474727152,,,,,,,,,,,,,,,,,,,,,,,,,,,,,,,,,,0,0,0,0,0,0,0,0,0,0,0,0,0,0,0,0,,,,,,,,,,,,,
370,6128144,1745474727172,0.0,131.0,,-0.2,-1.21,0.95,-60.0,-1.0,2.0,1.55,1.61,96.0,8974.0,13.7,2.81,,8.62,1.025,86.2,,42.7,5.0,,,,,,,,,,,,0,0,0,0,0,0,0,0,0,0,0,0,0,0,0,0,,,,,,0.0,,,,,,,
371,6128164,1745474727192,,,,,,,,,,,,,,,,,,,,,,,,,,,,,,,,,,0,0,0,0,0,0,0,0,0,0,0,0,0,0,0,0,,,,,,,,,,,,,
372,6128184,1745474727212,0.0,131.0,,-0.2,-1.44,0.94,-61.0,0.0,2.0,1.73,1.73,100.0,9063.0,14.2,2.8,,8.53,1.026,86.2,,42.7,5.0,23.0,28.0,27.0,26.0,7.9,73.0,0.0,0.0,2.27,,,0,0,0,0,0,0,0,0,0,0,0,0,0,0,0,0,,0.0,,,,0.0,38.994095,-76.939545,41.2,26.2,30.0,3.0,0.8
