,Interval,Utc,FrontBP,SteerAng,Battery,AccelX,AccelY,AccelZ,Yaw,Pitch,Roll,Gsum,GsumMax,GsumPct,RPM,TPS,InjectorPW,Baro,MAP,Lambda,IAT,EngineTemp,EOP,EOT,WSFR,WSFL,WSRR,WSRL,TCSet,TCSlip,TCComp,TCCut,Analog8,OilTemp,AA_On,ThermLF1,ThermLF2,ThermRR1,ThermRR2,ThermLF3,ThermLF4,ThermLF5,ThermLF6,ThermLF7,ThermLF8,ThermRR3,ThermRR4,ThermRR5,ThermRR6,ThermRR7,ThermRR8,AA_LowDrag,Gear,AA_On1,AA_LowDrag1,Fuel_Mix,AA_Packages,Latitude,Longitude,Speed,Altitude,GPSSats,GPSQual,GPSDOP
0,391522,1745478663599,99.42,129.0,,-0.06,0.03,1.03,3.0,0.0,0.0,1.03,1.03,100.0,4445.0,0.0,1.92,,10.52,1.249,93.4,,37.4,5.0,,,,,,,,,,,,0,0,0,0,0,0,0,0,0,0,0,0,0,0,0,0,,,,,,0.0,,,,,,,
1,391542,1745478663619,,,,,,,,,,,,,,,,,,,,,,,,,,,,,,,,,,0,0,0,0,0,0,0,0,0,0,0,0,0,0,0,0,,,,,,,,,,,,,
2,391562,1745478663639,100.05,122.0,,-0.06,-0.07,0.92,1.0,0.0,-1.0,0.93,1.03,90.0,4226.0,7.8,3.0,,10.52,1.249,93.4,,33.8,5.0,,,,,,,,,,,,0,0,0,0,0,0,0,0,0,0,0,0,0,0,0,0,,,,,,0.0,,,,,,,
3,391582,1745478663659,,,,,,,,,,,,,,,,,,,,,,,,,,,,,,,,,,0,0,0,0,0,0,0,0,0,0,0,0,0,0,0,0,,,,,,,,,,,,,
4,391602,1745478663679,100.05,129.0,,-0.07,0.04,0.99,3.0,0.0,0.0,1.0,1.03,97.0,4226.0,7.8,3.0,,11.01,1.248,93.4,,33.8,5.0,0.0,0.0,0.0,0.0,0.0,0.0,0.0,0.0,2.26,,,0,0,0,0,0,0,0,0,0,0,0,0,0,0,0,0,,0.0,,,,0.0,38.994114,-76.939697,0.04,30.8,29.0,3.0,0.8
5,391622,1745478663699,,,,,,,,,,,,,,,,,,,,,,,,,,,,,,,,,,0,0,0,0,0,0,0,0,0,0,0,0,0,0,0,0,,,,,,,,,,,,,
6,391642,1745478663719,100.05,112.0,,-0.07,-0.06,0.95,0.0,0.0,0.0,0.95,1.03,92.0,3975.0,19.7,4.22,,12.61,1.248,93.4,,30.0,5.0,,,,,,,,,,,,0,0,0,0,0,0,0,0,0,0,0,0,0,0,0,0,,,,,,0.0,,,,,,,
7,391662,1745478663739,,,,,,,,,,,,,,,,,,,,,,,,,,,,,,,,,,0,0,0,0,0,0,0,0,0,0,0,0,0,0,0,0,,,,,,,,,,,,,
8,391682,1745478663759,100.68,108.0,,-0.09,-0.0,0.92,2.0,0.0,-1.0,0.92,1.03,90.0,4044.0,23.3,4.69,,13.47,1.25,93.4,,30.0,5.0,,,,,,,,,,,,0,0,0,0,0,0,0,0,0,0,0,0,0,0,0,0,,,,,,0.0,,,,,,,
9,391702,1745478663779,,,,,,,,,,,,,,,,,,,,,,,0.0,0.0,0.0,0.0,0.0,0.0,0.0,0.0,2.27,,,0,0,0,0,0,0,0,0,0,0,0,0,0,0,0,0,,0.0,,,,,38.994114,-76.939697,0.07,30.8,29.0,3.0,0.8
10,391722,1745478663799,100.05,129.0,,-0.09,-0.09,0.87,0.0,0.0,0.0,0.88,1.03,85.0,4250.0,23.5,4.57,,13.64,1.251,93.4,,30.0,5.0,,,,,,,,,,,,0,0,0,0,0,0,0,0,0,0,0,0,0,0,0,0,,,,,,0.0,,,,,,,
11,391742,1745478663819,,,,,,,,,,,,,,,,,,,,,,,,,,,,,,,,,,0,0,0,0,0,0,0,0,0,0,0,0,0,0,0,0,,,,,,,,,,,,,
12,391762,1745478663839,100.05,132.0,,-0.1,0.02,1.0,2.0,0.0,0.0,1.01,1.03,98.0,4285.0,7.3,4.03,,13.64,1.251,93.4,,32.1,5.0,,,,,,,,,,,,0,0,0,0,0,0,0,0,0,0,0,0,0,0,0,0,,,,,,0.0,,,,,,,
13,391782,1745478663859,,,,,,,,,,,,,,,,,,,,,,,,,,,,,,,,,,0,0,0,0,0,0,0,0,0,0,0,0,0,0,0,0,,,,,,,,,,,,,
14,391802,1745478663879,100.05,132.0,,-0.09,0.01,0.94,2.0,0.0,0.0,0.95,1.03,92.0,4285.0,7.3,4.03,,13.05,1.25,93.4,,32.1,5.0,0.0,0.0,0.0,0.0,0.0,0.0,0.0,0.0,2.25,,,0,0,0,0,0,0,0,0,0,0,0,0,0,0,0,0,,0.0,,,,0.0,38.994114,-76.939697,0.04,30.8,29.0,3.0,0.8
15,391822,1745478663899,,,,,,,,,,,,,,,,,,,,,,,,,,,,,,,,,,0,0,0,0,0,0,0,0,0,0,0,0,0,0,0,0,,,,,,,,,,,,,
16,391842,1745478663919,100.05,125.0,,-0.08,-0.09,0.86,0.0,0.0,0.0,0.87,1.03,84.0,4281.0,0.0,2.59,,12.33,1.251,93.4,,32.7,5.0,,,,,,,,,,,,0,0,0,0,0,0,0,0,0,0,0,0,0,0,0,0,,,,,,0.0,,,,,,,
17,391862,1745478663939,,,,,,,,,,,,,,,,,,,,,,,,,,,,,,,,,,0,0,0,0,0,0,0,0,0,0,0,0,0,0,0,0,,,,,,,,,,,,,
18,391882,1745478663959,101.31,125.0,,-0.09,-0.01,0.95,1.0,0.0,0.0,0.96,1.03,93.0,4228.0,0.0,2.56,,11.79,1.251,93.4,,32.7,5.0,,,,,,,,,,,,0,0,0,0,0,0,0,0,0,0,0,0,0,0,0,0,,,,,,0.0,,,,,,,
19,391902,1745478663979,,,,,,,,,,,,,,,,,,,,,,,0.0,0.0,0.0,0.0,0.0,0.0,0.0,0.0,2.26,,,0,0,0,0,0,0,0,0,0,0,0,0,0,0,0,0,,0.0,,,,,38.994114,-76.939697,0.04,30.8,29.0,3.0,0.8
20,391922,1745478663993,101.31,108.0,,-0.08,-0.06,0.89,0.0,0.0,0.0,0.9,1.03,87.0,4186.0,0.0,2.55,,11.45,1.249,93.4,,32.7,5.0,,,,,,,,,,,,0,0,0,0,0,0,0,0,0,0,0,0,0,0,0,0,,,,,,0.0,,,,,,,
21,391942,1745478664013,,,,,,,,,,,,,,,,,,,,,,,,,,,,,,,,,,0,0,0,0,0,0,0,0,0,0,0,0,0,0,0,0,,,,,,,,,,,,,
22,391962,1745478664033,100.68,132.0,,-0.07,0.02,1.0,2.0,0.0,0.0,1.0,1.03,97.0,4037.0,0.0,2.54,,11.45,1.249,93.4,,31.2,5.0,,,,,,,,,,,,0,0,0,0,0,0,0,0,0,0,0,0,0,0,0,0,,,,,,0.0,,,,,,,
23,391982,1745478664053,,,,,,,,,,,,,,,,,,,,,,,,,,,,,,,,,,0,0,0,0,0,0,0,0,0,0,0,0,0,0,0,0,,,,,,,,,,,,,
24,392002,1745478664073,100.05,132.0,,-0.06,-0.05,0.98,0.0,0.0,0.0,0.98,1.03,95.0,4037.0,0.0,2.54,,11.3,1.248,93.4,,31.2,5.0,0.0,0.0,0.0,0.0,0.0,0.0,0.0,0.0,2.26,,,0,0,0,0,0,0,0,0,0,0,0,0,0,0,0,0,,0.0,,,,0.0,38.994114,-76.939697,0.05,30.8,29.0,3.0,0.8
25,392022,1745478664095,,,,,,,,,,,,,,,,,,,,,,,,,,,,,,,,,,0,0,0,0,0,0,0,0,0,0,0,0,0,0,0,0,,,,,,,,,,,,,
26,392042,1745478664115,100.05,132.0,,-0.07,-0.04,0.97,-1.0,0.0,0.0,0.97,1.03,94.0,3861.0,4.9,3.27,,11.56,1.248,93.4,,29.1,5.0,,,,,,,,,,,,0,0,0,0,0,0,0,0,0,0,0,0,0,0,0,0,,,,,,0.0,,,,,,,
27,392062,1745478664135,,,,,,,,,,,,,,,,,,,,,,,,,,,,,,,,,,0,0,0,0,0,0,0,0,0,0,0,0,0,0,0,0,,,,,,,,,,,,,
28,392082,1745478664155,98.79,135.0,,-0.06,-0.03,0.95,-1.0,0.0,0.0,0.95,1.03,92.0,3814.0,10.5,3.99,,12.29,1.248,91.6,,29.1,5.0,,,,,,,,,,,,0,0,0,0,0,0,0,0,0,0,0,0,0,0,0,0,,,,,,0.0,,,,,,,
29,392102,1745478664175,,,,,,,,,,,,,,,,,,,,,,,0.0,0.0,0.0,0.0,0.0,0.0,0.0,0.0,2.27,,,0,0,0,0,0,0,0,0,0,0,0,0,0,0,0,0,,0.0,,,,,38.994114,-76.939697,0.05,30.8,29.0,3.0,0.8
30,392122,1745478664199,98.16,135.0,,-0.07,-0.05,0.94,0.0,0.0,0.0,0.94,1.03,91.0,3786.0,11.6,4.07,,12.87,1.248,91.6,,29.1,5.0,,,,,,,,,,,,0,0,0,0,0,0,0,0,0,0,0,0,0,0,0,0,,,,,,0.0,,,,,,,
31,392142,1745478664219,,,,,,,,,,,,,,,,,,,,,,,,,,,,,,,,,,0,0,0,0,0,0,0,0,0,0,0,0,0,0,0,0,,,,,,,,,,,,,
32,392162,1745478664239,99.42,135.0,,-0.07,-0.05,0.95,0.0,0.0,0.0,0.96,1.03,93.0,3820.0,11.7,4.01,,12.87,1.248,91.6,,28.3,5.0,,,,,,,,,,,,0,0,0,0,0,0,0,0,0,0,0,0,0,0,0,0,,,,,,0.0,,,,,,,
33,392182,1745478664259,,,,,,,,,,,,,,,,,,,,,,,,,,,,,,,,,,0,0,0,0,0,0,0,0,0,0,0,0,0,0,0,0,,,,,,,,,,,,,
34,392202,1745478664279,98.79,135.0,,-0.07,-0.02,0.97,1.0,0.0,0.0,0.97,1.03,94.0,3820.0,11.7,4.01,,13.05,1.249,91.6,,28.3,5.0,0.0,0.0,0.0,0.0,0.0,0.0,0.0,0.0,2.26,,,0,0,0,0,0,0,0,0,0,0,0,0,0,0,0,0,,0.0,,,,0.0,38.994114,-76.939697,0.0,30.8,29.0,3.0,0.8
35,392222,1745478664299,,,,,,,,,,,,,,,,,,,,,,,,,,,,,,,,,,0,0,0,0,0,0,0,0,0,0,0,0,0,0,0,0,,,,,,,,,,,,,
36,392242,1745478664319,96.91,135.0,,-0.07,-0.04,0.98,0.0,0.0,0.0,0.98,1.03,95.0,3773.0,11.6,4.0,,13.17,1.251,91.6,,27.6,5.0,,,,,,,,,,,,0,0,0,0,0,0,0,0,0,0,0,0,0,0,0,0,,,,,,0.0,,,,,,,
37,392262,1745478664339,,,,,,,,,,,,,,,,,,,,,,,,,,,,,,,,,,0,0,0,0,0,0,0,0,0,0,0,0,0,0,0,0,,,,,,,,,,,,,
38,392282,1745478664359,96.91,125.0,,-0.06,0.0,0.99,1.0,0.0,0.0,0.99,1.03,96.0,3766.0,11.8,3.99,,13.27,1.251,91.6,,27.6,5.0,,,,,,,,,,,,0,0,0,0,0,0,0,0,0,0,0,0,0,0,0,0,,,,,,0.0,,,,,,,
39,392302,1745478664379,,,,,,,,,,,,,,,,,,,,,,,0.0,0.0,0.0,0.0,0.0,0.0,0.0,0.0,2.26,,,0,0,0,0,0,0,0,0,0,0,0,0,0,0,0,0,,0.0,,,,,38.994114,-76.939697,0.04,30.8,29.0,3.0,0.8
40,392322,1745478664398,96.28,135.0,,-0.07,0.04,1.0,2.0,0.0,0.0,1.0,1.03,97.0,3904.0,11.9,3.98,,13.24,1.251,91.6,,27.6,5.0,,,,,,,,,,,,0,0,0,0,0,0,0,0,0,0,0,0,0,0,0,0,,,,,,0.0,,,,,,,
41,392342,1745478664418,,,,,,,,,,,,,,,,,,,,,,,,,,,,,,,,,,0,0,0,0,0,0,0,0,0,0,0,0,0,0,0,0,,,,,,,,,,,,,
42,392362,1745478664438,94.39,132.0,,-0.06,0.02,1.01,1.0,0.0,0.0,1.01,1.03,98.0,3888.0,11.9,3.97,,13.24,1.251,91.6,,29.2,5.0,,,,,,,,,,,,0,0,0,0,0,0,0,0,0,0,0,0,0,0,0,0,,,,,,0.0,,,,,,,
43,392382,1745478664458,,,,,,,,,,,,,,,,,,,,,,,,,,,,,,,,,,0,0,0,0,0,0,0,0,0,0,0,0,0,0,0,0,,,,,,,,,,,,,
44,392402,1745478664478,93.77,135.0,13.26,-0.07,0.02,1.02,0.0,0.0,0.0,1.02,1.03,99.0,3888.0,11.9,3.97,15.0,13.25,1.251,91.6,169.0,29.2,5.0,0.0,0.0,0.0,0.0,0.0,0.0,0.0,0.0,2.26,0.0,1.0,0,0,0,0,0,0,0,0,0,0,0,0,0,0,0,0,0.0,0.0,1.0,0.0,0.0,0.0,38.994114,-76.939697,0.07,30.8,29.0,3.0,0.8
45,392422,1745478664498,,,,,,,,,,,,,,,,,,,,,,,,,,,,,,,,,,0,0,0,0,0,0,0,0,0,0,0,0,0,0,0,0,,,,,,,,,,,,,
46,392442,1745478664518,93.14,132.0,,-0.08,-0.0,1.0,-1.0,0.0,0.0,1.01,1.03,98.0,3734.0,11.9,3.98,,13.28,1.25,91.6,,28.8,5.0,,,,,,,,,,,,0,0,0,0,0,0,0,0,0,0,0,0,0,0,0,0,,,,,,0.0,,,,,,,
47,392462,1745478664538,,,,,,,,,,,,,,,,,,,,,,,,,,,,,,,,,,0,0,0,0,0,0,0,0,0,0,0,0,0,0,0,0,,,,,,,,,,,,,
48,392482,1745478664558,92.51,132.0,,-0.08,-0.02,1.0,-1.0,0.0,0.0,1.0,1.03,97.0,3865.0,11.9,3.99,,13.24,1.248,91.6,,28.8,5.0,,,,,,,,,,,,0,0,0,0,0,0,0,0,0,0,0,0,0,0,0,0,,,,,,0.0,,,,,,,
49,392502,1745478664578,,,,,,,,,,,,,,,,,,,,,,,0.0,0.0,0.0,0.0,0.0,0.0,0.0,0.0,2.26,,,0,0,0,0,0,0,0,0,0,0,0,0,0,0,0,0,,0.0,,,,,38.994114,-76.939697,0.0,30.8,29.0,3.0,0.8
50,392522,1745478664596,89.37,135.0,,-0.08,-0.02,1.0,-1.0,0.0,0.0,1.0,1.03,97.0,3707.0,11.8,3.98,,13.33,1.248,91.6,,28.8,5.0,,,,,,,,,,,,0,0,0,0,0,0,0,0,0,0,0,0,0,0,0,0,,,,,,0.0,,,,,,,
51,392542,1745478664616,,,,,,,,,,,,,,,,,,,,,,,,,,,,,,,,,,0,0,0,0,0,0,0,0,0,0,0,0,0,0,0,0,,,,,,,,,,,,,
52,392562,1745478664636,83.71,135.0,,-0.08,0.0,0.99,-1.0,0.0,0.0,1.0,1.03,97.0,3746.0,11.6,3.99,,13.33,1.248,91.6,,27.7,5.0,,,,,,,,,,,,0,0,0,0,0,0,0,0,0,0,0,0,0,0,0,0,,,,,,0.0,,,,,,,
53,392582,1745478664656,,,,,,,,,,,,,,,,,,,,,,,,,,,,,,,,,,0,0,0,0,0,0,0,0,0,0,0,0,0,0,0,0,,,,,,,,,,,,,
54,392602,1745478664676,81.2,135.0,,-0.08,-0.01,1.01,0.0,0.0,0.0,1.01,1.03,98.0,3746.0,11.6,3.99,,13.36,1.248,91.6,,27.7,5.0,0.0,0.0,0.0,0.0,0.0,0.0,0.0,0.0,2.26,,,0,0,0,0,0,0,0,0,0,0,0,0,0,0,0,0,,0.0,,,,0.0,38.994114,-76.939697,0.0,30.8,29.0,3.0,0.8
55,392622,1745478664698,,,,,,,,,,,,,,,,,,,,,,,,,,,,,,,,,,0,0,0,0,0,0,0,0,0,0,0,0,0,0,0,0,,,,,,,,,,,,,
56,392642,1745478664718,81.2,125.0,,-0.07,0.02,1.01,0.0,0.0,0.0,1.02,1.03,99.0,3679.0,11.7,3.98,,13.37,1.248,91.6,,27.2,5.0,,,,,,,,,,,,0,0,0,0,0,0,0,0,0,0,0,0,0,0,0,0,,,,,,0.0,,,,,,,
57,392662,1745478664738,,,,,,,,,,,,,,,,,,,,,,,,,,,,,,,,,,0,0,0,0,0,0,0,0,0,0,0,0,0,0,0,0,,,,,,,,,,,,,
58,392682,1745478664758,84.97,122.0,,-0.07,0.02,0.97,2.0,0.0,0.0,0.98,1.03,95.0,3630.0,11.7,3.98,,13.36,1.249,91.6,,27.2,5.0,,,,,,,,,,,,0,0,0,0,0,0,0,0,0,0,0,0,0,0,0,0,,,,,,0.0,,,,,,,
59,392702,1745478664778,,,,,,,,,,,,,,,,,,,,,,,0.0,0.0,0.0,0.0,0.0,0.0,0.0,0.0,2.26,,,0,0,0,0,0,0,0,0,0,0,0,0,0,0,0,0,,0.0,,,,,38.994114,-76.939697,0.08,30.8,29.0,3.0,0.8
60,392722,1745478664799,86.85,135.0,,-0.09,-0.05,0.97,0.0,0.0,0.0,0.97,1.03,95.0,3470.0,11.7,3.98,,13.43,1.251,91.6,,27.2,5.0,,,,,,,,,,,,0,0,0,0,0,0,0,0,0,0,0,0,0,0,0,0,,,,,,0.0,,,,,,,
61,392742,1745478664819,,,,,,,,,,,,,,,,,,,,,,,,,,,,,,,,,,0,0,0,0,0,0,0,0,0,0,0,0,0,0,0,0,,,,,,,,,,,,,
62,392762,1745478664839,89.37,129.0,,-0.07,-0.01,1.0,0.0,0.0,0.0,1.0,1.03,97.0,3430.0,11.8,3.99,,13.43,1.251,91.6,,25.4,5.0,,,,,,,,,,,,0,0,0,0,0,0,0,0,0,0,0,0,0,0,0,0,,,,,,0.0,,,,,,,
63,392782,1745478664859,,,,,,,,,,,,,,,,,,,,,,,,,,,,,,,,,,0,0,0,0,0,0,0,0,0,0,0,0,0,0,0,0,,,,,,,,,,,,,
64,392802,1745478664879,91.25,135.0,,-0.11,0.01,0.96,0.0,0.0,0.0,0.96,1.03,94.0,3430.0,11.8,3.99,,13.55,1.251,91.6,,25.4,5.0,0.0,0.0,0.0,0.0,0.0,0.0,0.0,0.0,2.26,,,0,0,0,0,0,0,0,0,0,0,0,0,0,0,0,0,,0.0,,,,0.0,38.994114,-76.939697,0.0,30.8,29.0,3.0,0.8
65,392822,1745478664898,,,,,,,,,,,,,,,,,,,,,,,,,,,,,,,,,,0,0,0,0,0,0,0,0,0,0,0,0,0,0,0,0,,,,,,,,,,,,,
66,392842,1745478664918,89.99,135.0,,-0.08,-0.04,1.02,-1.0,0.0,0.0,1.02,1.03,99.0,3284.0,11.9,4.01,,13.55,1.251,91.6,,24.4,5.0,,,,,,,,,,,,0,0,0,0,0,0,0,0,0,0,0,0,0,0,0,0,,,,,,0.0,,,,,,,
67,392862,1745478664938,,,,,,,,,,,,,,,,,,,,,,,,,,,,,,,,,,0,0,0,0,0,0,0,0,0,0,0,0,0,0,0,0,,,,,,,,,,,,,
68,392882,1745478664958,90.62,135.0,,-0.1,-0.12,1.03,-2.0,0.0,0.0,1.04,1.04,100.0,3235.0,11.9,4.0,,13.64,1.251,91.6,,24.4,5.0,,,,,,,,,,,,0,0,0,0,0,0,0,0,0,0,0,0,0,0,0,0,,,,,,0.0,,,,,,,
69,392902,1745478664978,,,,,,,,,,,,,,,,,,,,,,,0.0,0.0,0.0,0.0,0.0,0.0,0.0,0.0,2.26,,,0,0,0,0,0,0,0,0,0,0,0,0,0,0,0,0,,0.0,,,,,38.994114,-76.939697,0.0,30.8,29.0,3.0,0.8
70,392922,1745478664998,91.25,132.0,,-0.08,-0.1,1.08,-2.0,0.0,0.0,1.09,1.09,100.0,3533.0,11.9,4.01,,13.55,1.25,91.6,,24.4,5.0,,,,,,,,,,,,0,0,0,0,0,0,0,0,0,0,0,0,0,0,0,0,,,,,,0.0,,,,,,,
71,392942,1745478665010,,,,,,,,,,,,,,,,,,,,,,,,,,,,,,,,,,0,0,0,0,0,0,0,0,0,0,0,0,0,0,0,0,,,,,,,,,,,,,
72,392962,1745478665030,90.62,132.0,,-0.1,-0.07,0.99,0.0,0.0,0.0,1.0,1.09,92.0,3395.0,11.9,4.0,,13.55,1.25,91.6,,25.9,5.0,,,,,,,,,,,,0,0,0,0,0,0,0,0,0,0,0,0,0,0,0,0,,,,,,0.0,,,,,,,
73,392982,1745478665050,,,,,,,,,,,,,,,,,,,,,,,,,,,,,,,,,,0,0,0,0,0,0,0,0,0,0,0,0,0,0,0,0,,,,,,,,,,,,,
74,393002,1745478665070,91.25,132.0,,-0.09,-0.14,1.0,-1.0,0.0,0.0,1.02,1.09,94.0,3395.0,11.9,4.0,,13.55,1.248,91.6,,25.9,5.0,0.0,0.0,0.0,0.0,0.0,0.0,0.0,0.0,2.26,,,0,0,0,0,0,0,0,0,0,0,0,0,0,0,0,0,,0.0,,,,0.0,38.994114,-76.939697,0.6,30.8,29.0,3.0,0.8
75,393022,1745478665096,,,,,,,,,,,,,,,,,,,,,,,,,,,,,,,,,,0,0,0,0,0,0,0,0,0,0,0,0,0,0,0,0,,,,,,,,,,,,,
76,393042,1745478665116,91.25,135.0,,-0.08,-0.12,0.99,-1.0,0.0,0.0,1.01,1.09,93.0,3700.0,11.8,4.01,,13.43,1.248,91.6,,28.0,5.0,,,,,,,,,,,,0,0,0,0,0,0,0,0,0,0,0,0,0,0,0,0,,,,,,0.0,,,,,,,
77,393062,1745478665136,,,,,,,,,,,,,,,,,,,,,,,,,,,,,,,,,,0,0,0,0,0,0,0,0,0,0,0,0,0,0,0,0,,,,,,,,,,,,,
78,393082,1745478665156,91.25,135.0,,-0.09,-0.07,0.99,0.0,0.0,0.0,1.0,1.09,92.0,3799.0,19.5,4.19,,13.68,1.249,91.6,,28.0,5.0,,,,,,,,,,,,0,0,0,0,0,0,0,0,0,0,0,0,0,0,0,0,,,,,,0.0,,,,,,,
79,393102,1745478665176,,,,,,,,,,,,,,,,,,,,,,,0.0,0.0,0.0,0.0,0.0,0.0,0.0,0.0,2.27,,,0,0,0,0,0,0,0,0,0,0,0,0,0,0,0,0,,0.0,,,,,38.994114,-76.939697,0.19,30.8,29.0,3.0,0.8
80,393122,1745478665198,92.51,135.0,,-0.08,-0.08,1.03,0.0,0.0,0.0,1.04,1.09,96.0,3967.0,21.9,4.43,,13.82,1.248,91.6,,28.0,5.0,,,,,,,,,,,,0,0,0,0,0,0,0,0,0,0,0,0,0,0,0,0,,,,,,0.0,,,,,,,
81,393142,1745478665218,,,,,,,,,,,,,,,,,,,,,,,,,,,,,,,,,,0,0,0,0,0,0,0,0,0,0,0,0,0,0,0,0,,,,,,,,,,,,,
82,393162,1745478665238,91.88,135.0,,-0.09,-0.13,0.93,-2.0,0.0,0.0,0.94,1.09,87.0,4097.0,22.1,4.35,,13.82,1.248,91.6,,29.5,5.0,,,,,,,,,,,,0,0,0,0,0,0,0,0,0,0,0,0,0,0,0,0,,,,,,0.0,,,,,,,
83,393182,1745478665258,,,,,,,,,,,,,,,,,,,,,,,,,,,,,,,,,,0,0,0,0,0,0,0,0,0,0,0,0,0,0,0,0,,,,,,,,,,,,,
84,393202,1745478665278,91.25,135.0,,-0.11,-0.04,1.04,0.0,0.0,0.0,1.04,1.09,96.0,4097.0,22.1,4.35,,13.8,1.249,91.6,,29.5,5.0,0.0,0.0,0.0,0.0,0.0,0.0,0.0,0.0,2.26,,,0,0,0,0,0,0,0,0,0,0,0,0,0,0,0,0,,0.0,,,,0.0,38.994114,-76.939697,0.04,30.8,29.0,3.0,0.8
85,393222,1745478665298,,,,,,,,,,,,,,,,,,,,,,,,,,,,,,,,,,0,0,0,0,0,0,0,0,0,0,0,0,0,0,0,0,,,,,,,,,,,,,
86,393242,1745478665318,89.99,135.0,,-0.11,0.03,1.06,2.0,0.0,0.0,1.07,1.09,98.0,4336.0,22.1,4.32,,13.71,1.251,91.6,,32.9,5.0,,,,,,,,,,,,0,0,0,0,0,0,0,0,0,0,0,0,0,0,0,0,,,,,,0.0,,,,,,,
87,393262,1745478665338,,,,,,,,,,,,,,,,,,,,,,,,,,,,,,,,,,0,0,0,0,0,0,0,0,0,0,0,0,0,0,0,0,,,,,,,,,,,,,
88,393282,1745478665358,86.85,132.0,,-0.08,0.02,1.05,3.0,0.0,0.0,1.06,1.09,97.0,4395.0,19.8,4.23,,13.52,1.251,91.6,,32.9,5.0,,,,,,,,,,,,0,0,0,0,0,0,0,0,0,0,0,0,0,0,0,0,,,,,,0.0,,,,,,,
89,393302,1745478665378,,,,,,,,,,,,,,,,,,,,,,,0.0,0.0,0.0,0.0,0.0,0.0,0.0,0.0,2.26,,,0,0,0,0,0,0,0,0,0,0,0,0,0,0,0,0,,0.0,,,,,38.994114,-76.939697,0.04,30.8,29.0,3.0,0.8
90,393322,1745478665397,83.71,135.0,,-0.07,0.09,1.07,4.0,0.0,0.0,1.08,1.09,100.0,4513.0,16.2,4.11,,13.33,1.251,91.6,,32.9,5.0,,,,,,,,,,,,0,0,0,0,0,0,0,0,0,0,0,0,0,0,0,0,,,,,,0.0,,,,,,,
91,393342,1745478665417,,,,,,,,,,,,,,,,,,,,,,,,,,,,,,,,,,0,0,0,0,0,0,0,0,0,0,0,0,0,0,0,0,,,,,,,,,,,,,
92,393362,1745478665437,79.94,135.0,,-0.07,0.15,1.17,5.0,0.0,0.0,1.18,1.18,100.0,4587.0,13.1,3.96,,13.33,1.251,91.6,,34.5,5.0,,,,,,,,,,,,0,0,0,0,0,0,0,0,0,0,0,0,0,0,0,0,,,,,,0.0,,,,,,,
93,393382,1745478665457,,,,,,,,,,,,,,,,,,,,,,,,,,,,,,,,,,0,0,0,0,0,0,0,0,0,0,0,0,0,0,0,0,,,,,,,,,,,,,
94,393402,1745478665477,74.28,135.0,13.32,-0.1,0.24,1.22,6.0,0.0,0.0,1.25,1.25,100.0,4587.0,13.1,3.96,15.0,13.09,1.251,91.6,169.0,34.5,5.0,0.0,0.0,0.0,0.0,0.0,0.0,0.0,0.0,2.26,0.0,1.0,0,0,0,0,0,0,0,0,0,0,0,0,0,0,0,0,0.0,0.0,1.0,0.0,0.0,0.0,38.994114,-76.939697,0.18,30.8,29.0,3.0,0.8
95,393422,1745478665499,,,,,,,,,,,,,,,,,,,,,,,,,,,,,,,,,,0,0,0,0,0,0,0,0,0,0,0,0,0,0,0,0,,,,,,,,,,,,,
96,393442,1745478665519,69.26,135.0,,-0.11,0.16,1.17,4.0,0.0,0.0,1.19,1.25,95.0,4621.0,11.1,3.79,,12.75,1.25,91.6,,35.6,5.0,,,,,,,,,,,,0,0,0,0,0,0,0,0,0,0,0,0,0,0,0,0,,,,,,0.0,,,,,,,
97,393462,1745478665539,,,,,,,,,,,,,,,,,,,,,,,,,,,,,,,,,,0,0,0,0,0,0,0,0,0,0,0,0,0,0,0,0,,,,,,,,,,,,,
98,393482,1745478665559,63.6,135.0,,-0.09,0.11,1.05,1.0,0.0,0.0,1.06,1.25,85.0,4611.0,10.8,3.75,,12.63,1.248,91.6,,35.6,5.0,,,,,,,,,,,,0,0,0,0,0,0,0,0,0,0,0,0,0,0,0,0,,,,,,0.0,,,,,,,
99,393502,1745478665579,,,,,,,,,,,,,,,,,,,,,,,0.0,0.0,0.0,0.0,0.0,0.0,0.0,0.0,2.26,,,0,0,0,0,0,0,0,0,0,0,0,0,0,0,0,0,,0.0,,,,,38.994114,-76.939697,0.06,30.8,29.0,3.0,0.8
100,393522,1745478665598,59.83,134.0,,-0.08,0.1,0.99,1.0,0.0,0.0,1.0,1.25,80.0,4655.0,10.6,3.76,,12.63,1.248,91.6,,35.6,5.0,,,,,,,,,,,,0,0,0,0,0,0,0,0,0,0,0,0,0,0,0,0,,,,,,0.0,,,,,,,
101,393542,1745478665618,,,,,,,,,,,,,,,,,,,,,,,,,,,,,,,,,,0,0,0,0,0,0,0,0,0,0,0,0,0,0,0,0,,,,,,,,,,,,,
102,393562,1745478665638,57.94,135.0,,-0.07,0.12,1.03,2.0,0.0,0.0,1.04,1.25,83.0,4631.0,10.5,3.76,,12.63,1.248,91.6,,35.1,5.0,,,,,,,,,,,,0,0,0,0,0,0,0,0,0,0,0,0,0,0,0,0,,,,,,0.0,,,,,,,
103,393582,1745478665658,,,,,,,,,,,,,,,,,,,,,,,,,,,,,,,,,,0,0,0,0,0,0,0,0,0,0,0,0,0,0,0,0,,,,,,,,,,,,,
104,393602,1745478665678,54.17,135.0,,-0.07,0.18,1.13,4.0,0.0,0.0,1.15,1.25,92.0,4631.0,10.5,3.76,,12.55,1.248,91.6,,35.1,5.0,0.0,0.0,0.0,0.0,0.0,0.0,0.0,0.0,2.26,,,0,0,0,0,0,0,0,0,0,0,0,0,0,0,0,0,,0.0,,,,0.0,38.994114,-76.939697,0.04,30.8,29.0,3.0,0.8
105,393622,1745478665697,,,,,,,,,,,,,,,,,,,,,,,,,,,,,,,,,,0,0,0,0,0,0,0,0,0,0,0,0,0,0,0,0,,,,,,,,,,,,,
106,393642,1745478665717,52.92,135.0,,-0.1,0.2,1.2,5.0,0.0,0.0,1.22,1.25,98.0,4609.0,10.4,3.75,,12.45,1.248,91.6,,35.3,5.0,,,,,,,,,,,,0,0,0,0,0,0,0,0,0,0,0,0,0,0,0,0,,,,,,0.0,,,,,,,
107,393662,1745478665737,,,,,,,,,,,,,,,,,,,,,,,,,,,,,,,,,,0,0,0,0,0,0,0,0,0,0,0,0,0,0,0,0,,,,,,,,,,,,,
108,393682,1745478665757,51.66,135.0,,-0.11,0.18,1.22,4.0,0.0,0.0,1.24,1.25,99.0,4596.0,10.4,3.75,,12.56,1.244,91.6,,35.3,5.0,,,,,,,,,,,,0,0,0,0,0,0,0,0,0,0,0,0,0,0,0,0,,,,,,0.0,,,,,,,
109,393702,1745478665777,,,,,,,,,,,,,,,,,,,,,,,0.0,0.0,0.0,0.0,0.0,0.0,0.0,0.0,2.26,,,0,0,0,0,0,0,0,0,0,0,0,0,0,0,0,0,,0.0,,,,,38.994114,-76.939697,0.09,30.8,29.0,3.0,0.8
110,393722,1745478665797,49.77,135.0,,-0.12,0.12,1.17,3.0,0.0,0.0,1.18,1.25,95.0,4599.0,12.9,3.75,,12.67,1.251,91.6,,35.3,5.0,,,,,,,,,,,,0,0,0,0,0,0,0,0,0,0,0,0,0,0,0,0,,,,,,0.0,,,,,,,
111,393742,1745478665817,,,,,,,,,,,,,,,,,,,,,,,,,,,,,,,,,,0,0,0,0,0,0,0,0,0,0,0,0,0,0,0,0,,,,,,,,,,,,,
112,393762,1745478665837,47.89,134.0,,-0.12,-0.0,1.07,1.0,0.0,0.0,1.08,1.25,87.0,4634.0,21.1,4.35,,12.67,1.251,91.6,,35.1,5.0,,,,,,,,,,,,0,0,0,0,0,0,0,0,0,0,0,0,0,0,0,0,,,,,,0.0,,,,,,,
113,393782,1745478665857,,,,,,,,,,,,,,,,,,,,,,,,,,,,,,,,,,0,0,0,0,0,0,0,0,0,0,0,0,0,0,0,0,,,,,,,,,,,,,
114,393802,1745478665877,47.26,134.0,,-0.09,-0.04,0.98,-1.0,0.0,0.0,0.98,1.25,79.0,4634.0,21.1,4.35,,13.17,1.251,91.6,,35.1,5.0,0.0,0.0,0.0,0.0,0.0,0.0,0.0,0.0,2.26,,,0,0,0,0,0,0,0,0,0,0,0,0,0,0,0,0,,0.0,,,,0.0,38.994114,-76.939697,0.15,30.8,29.0,3.0,0.8
115,393822,1745478665897,,,,,,,,,,,,,,,,,,,,,,,,,,,,,,,,,,0,0,0,0,0,0,0,0,0,0,0,0,0,0,0,0,,,,,,,,,,,,,
116,393842,1745478665917,47.89,134.0,,-0.09,-0.09,0.97,0.0,0.0,0.0,0.98,1.25,79.0,4597.0,21.6,4.25,,13.52,1.251,91.6,,35.9,5.0,,,,,,,,,,,,0,0,0,0,0,0,0,0,0,0,0,0,0,0,0,0,,,,,,0.0,,,,,,,
117,393862,1745478665937,,,,,,,,,,,,,,,,,,,,,,,,,,,,,,,,,,0,0,0,0,0,0,0,0,0,0,0,0,0,0,0,0,,,,,,,,,,,,,
118,393882,1745478665957,47.26,135.0,,-0.1,-0.1,1.01,0.0,0.0,0.0,1.02,1.25,82.0,4742.0,21.8,4.25,,13.44,1.251,91.6,,35.9,5.0,,,,,,,,,,,,0,0,0,0,0,0,0,0,0,0,0,0,0,0,0,0,,,,,,0.0,,,,,,,
119,393902,1745478665977,,,,,,,,,,,,,,,,,,,,,,,0.0,0.0,0.0,0.0,0.0,0.0,0.0,0.0,2.26,,,0,0,0,0,0,0,0,0,0,0,0,0,0,0,0,0,,0.0,,,,,38.994114,-76.939697,0.04,30.8,29.0,3.0,0.8
120,393922,1745478665997,46.63,134.0,,-0.09,-0.04,1.0,0.0,0.0,0.0,1.01,1.25,81.0,4993.0,21.3,4.23,,13.31,1.249,91.6,,35.9,5.0,,,,,,,,,,,,0,0,0,0,0,0,0,0,0,0,0,0,0,0,0,0,,,,,,0.0,,,,,,,
121,393942,1745478666009,,,,,,,,,,,,,,,,,,,,,,,,,,,,,,,,,,0,0,0,0,0,0,0,0,0,0,0,0,0,0,0,0,,,,,,,,,,,,,
122,393962,1745478666029,46.63,134.0,,-0.09,-0.08,0.99,-1.0,0.0,0.0,0.99,1.25,80.0,5073.0,20.3,4.18,,13.31,1.249,91.6,,38.7,5.0,,,,,,,,,,,,0,0,0,0,0,0,0,0,0,0,0,0,0,0,0,0,,,,,,0.0,,,,,,,
123,393982,1745478666049,,,,,,,,,,,,,,,,,,,,,,,,,,,,,,,,,,0,0,0,0,0,0,0,0,0,0,0,0,0,0,0,0,,,,,,,,,,,,,
124,394002,1745478666069,44.75,134.0,,-0.1,-0.06,0.99,-1.0,0.0,0.0,1.0,1.25,80.0,5073.0,20.3,4.18,,13.12,1.248,91.6,,38.7,5.0,0.0,0.0,0.0,0.0,0.0,0.0,0.0,0.0,2.26,,,0,0,0,0,0,0,0,0,0,0,0,0,0,0,0,0,,0.0,,,,0.0,38.994114,-76.939697,0.45,30.8,29.0,3.0,0.8
125,394022,1745478666097,,,,,,,,,,,,,,,,,,,,,,,,,,,,,,,,,,0,0,0,0,0,0,0,0,0,0,0,0,0,0,0,0,,,,,,,,,,,,,
126,394042,1745478666117,44.75,135.0,,-0.1,-0.08,1.0,0.0,0.0,0.0,1.01,1.25,81.0,5205.0,20.0,4.17,,13.03,1.248,91.6,,40.3,5.0,,,,,,,,,,,,0,0,0,0,0,0,0,0,0,0,0,0,0,0,0,0,,,,,,0.0,,,,,,,
127,394062,1745478666137,,,,,,,,,,,,,,,,,,,,,,,,,,,,,,,,,,0,0,0,0,0,0,0,0,0,0,0,0,0,0,0,0,,,,,,,,,,,,,
128,394082,1745478666157,44.12,135.0,,-0.09,-0.03,1.03,0.0,0.0,0.0,1.03,1.25,83.0,5369.0,19.9,4.16,,12.92,1.248,89.8,,40.3,5.0,,,,,,,,,,,,0,0,0,0,0,0,0,0,0,0,0,0,0,0,0,0,,,,,,0.0,,,,,,,
129,394102,1745478666177,,,,,,,,,,,,,,,,,,,,,,,0.0,0.0,0.0,0.0,0.0,0.0,0.0,0.0,2.26,,,0,0,0,0,0,0,0,0,0,0,0,0,0,0,0,0,,0.0,,,,,38.994114,-76.939697,0.4,30.8,29.0,3.0,0.8
130,394122,1745478666197,42.86,134.0,,-0.11,-0.01,1.03,0.0,0.0,0.0,1.03,1.25,83.0,5471.0,19.8,4.16,,12.81,1.248,89.8,,40.3,5.0,,,,,,,,,,,,0,0,0,0,0,0,0,0,0,0,0,0,0,0,0,0,,,,,,0.0,,,,,,,
131,394142,1745478666217,,,,,,,,,,,,,,,,,,,,,,,,,,,,,,,,,,0,0,0,0,0,0,0,0,0,0,0,0,0,0,0,0,,,,,,,,,,,,,
132,394162,1745478666237,40.98,134.0,,-0.1,-0.03,0.98,0.0,0.0,0.0,0.98,1.25,79.0,5600.0,19.7,4.15,,12.81,1.248,89.8,,40.1,5.0,,,,,,,,,,,,0,0,0,0,0,0,0,0,0,0,0,0,0,0,0,0,,,,,,0.0,,,,,,,
133,394182,1745478666257,,,,,,,,,,,,,,,,,,,,,,,,,,,,,,,,,,0,0,0,0,0,0,0,0,0,0,0,0,0,0,0,0,,,,,,,,,,,,,
134,394202,1745478666277,35.95,134.0,,-0.12,0.02,1.05,1.0,0.0,0.0,1.06,1.25,85.0,5600.0,19.7,4.15,,12.71,1.249,89.8,,40.1,5.0,0.0,0.0,0.0,0.0,0.0,0.0,0.0,0.0,2.26,,,0,0,0,0,0,0,0,0,0,0,0,0,0,0,0,0,,0.0,,,,0.0,38.994114,-76.939697,0.04,30.8,29.0,3.0,0.8
135,394222,1745478666299,,,,,,,,,,,,,,,,,,,,,,,,,,,,,,,,,,0,0,0,0,0,0,0,0,0,0,0,0,0,0,0,0,,,,,,,,,,,,,
136,394242,1745478666319,28.41,134.0,,-0.09,0.02,1.04,0.0,0.0,0.0,1.05,1.25,84.0,5728.0,19.6,4.15,,12.57,1.251,89.8,,40.4,5.0,,,,,,,,,,,,0,0,0,0,0,0,0,0,0,0,0,0,0,0,0,0,,,,,,0.0,,,,,,,
137,394262,1745478666339,,,,,,,,,,,,,,,,,,,,,,,,,,,,,,,,,,0,0,0,0,0,0,0,0,0,0,0,0,0,0,0,0,,,,,,,,,,,,,
138,394282,1745478666359,21.49,135.0,,-0.09,-0.09,0.94,0.0,0.0,0.0,0.95,1.25,76.0,5802.0,19.6,4.16,,12.43,1.251,89.8,,40.4,5.0,,,,,,,,,,,,0,0,0,0,0,0,0,0,0,0,0,0,0,0,0,0,,,,,,0.0,,,,,,,
139,394302,1745478666379,,,,,,,,,,,,,,,,,,,,,,,0.0,0.0,0.0,0.0,0.0,0.0,0.0,0.0,2.26,,,0,0,0,0,0,0,0,0,0,0,0,0,0,0,0,0,,0.0,,,,,38.994114,-76.939697,0.29,30.8,29.0,3.0,0.8
140,394322,1745478666398,15.21,134.0,,-0.1,-0.19,0.88,-2.0,0.0,0.0,0.91,1.25,73.0,5980.0,19.7,4.16,,12.4,1.251,89.8,,40.4,5.0,,,,,,,,,,,,0,0,0,0,0,0,0,0,0,0,0,0,0,0,0,0,,,,,,0.0,,,,,,,
141,394342,1745478666418,,,,,,,,,,,,,,,,,,,,,,,,,,,,,,,,,,0,0,0,0,0,0,0,0,0,0,0,0,0,0,0,0,,,,,,,,,,,,,
142,394362,1745478666438,10.18,134.0,,-0.11,-0.28,0.82,-3.0,0.0,0.0,0.87,1.25,70.0,6075.0,19.7,4.31,,12.4,1.251,89.8,,41.4,5.0,,,,,,,,,,,,0,0,0,0,0,0,0,0,0,0,0,0,0,0,0,0,,,,,,0.0,,,,,,,
143,394382,1745478666458,,,,,,,,,,,,,,,,,,,,,,,,,,,,,,,,,,0,0,0,0,0,0,0,0,0,0,0,0,0,0,0,0,,,,,,,,,,,,,
144,394402,1745478666478,5.78,134.0,13.32,-0.09,-0.28,0.79,-3.0,0.0,0.0,0.84,1.25,68.0,6075.0,19.7,4.31,15.0,12.25,1.251,89.8,171.0,41.4,5.0,0.0,0.0,0.0,0.0,0.0,0.0,0.0,0.0,2.26,0.0,1.0,0,0,0,0,0,0,0,0,0,0,0,0,0,0,0,0,0.0,0.0,1.0,0.0,0.0,0.0,38.994114,-76.939697,0.37,30.8,29.0,3.0,0.8
145,394422,1745478666498,,,,,,,,,,,,,,,,,,,,,,,,,,,,,,,,,,0,0,0,0,0,0,0,0,0,0,0,0,0,0,0,0,,,,,,,,,,,,,
146,394442,1745478666518,2.64,134.0,,-0.1,-0.19,0.86,-2.0,0.0,0.0,0.89,1.25,71.0,6250.0,19.7,4.43,,12.32,1.248,89.8,,41.8,5.0,,,,,,,,,,,,0,0,0,0,0,0,0,0,0,0,0,0,0,0,0,0,,,,,,0.0,,,,,,,
147,394462,1745478666538,,,,,,,,,,,,,,,,,,,,,,,,,,,,,,,,,,0,0,0,0,0,0,0,0,0,0,0,0,0,0,0,0,,,,,,,,,,,,,
148,394482,1745478666558,0.0,134.0,,-0.1,-0.22,0.89,-2.0,0.0,0.0,0.92,1.25,74.0,6481.0,19.6,4.85,,12.17,1.213,89.8,,41.8,5.0,,,,,,,,,,,,0,0,0,0,0,0,0,0,0,0,0,0,0,0,0,0,,,,,,0.0,,,,,,,
149,394502,1745478666578,,,,,,,,,,,,,,,,,,,,,,,0.0,0.0,0.0,0.0,0.0,0.0,0.0,0.0,2.26,,,0,0,0,0,0,0,0,0,0,0,0,0,0,0,0,0,,0.0,,,,,38.994114,-76.939697,0.04,30.8,29.0,3.0,0.8
150,394522,1745478666598,0.0,134.0,,-0.11,-0.18,0.86,-1.0,0.0,0.0,0.89,1.25,71.0,6591.0,19.6,5.17,,11.95,1.106,89.8,,41.8,5.0,,,,,,,,,,,,0,0,0,0,0,0,0,0,0,0,0,0,0,0,0,0,,,,,,0.0,,,,,,,
151,394542,1745478666618,,,,,,,,,,,,,,,,,,,,,,,,,,,,,,,,,,0,0,0,0,0,0,0,0,0,0,0,0,0,0,0,0,,,,,,,,,,,,,
152,394562,1745478666638,0.0,134.0,,-0.1,-0.09,0.88,-1.0,0.0,0.0,0.89,1.25,71.0,6975.0,19.5,5.6,,11.95,1.106,89.8,,42.0,5.0,,,,,,,,,,,,0,0,0,0,0,0,0,0,0,0,0,0,0,0,0,0,,,,,,0.0,,,,,,,
153,394582,1745478666658,,,,,,,,,,,,,,,,,,,,,,,,,,,,,,,,,,0,0,0,0,0,0,0,0,0,0,0,0,0,0,0,0,,,,,,,,,,,,,
154,394602,1745478666678,0.0,134.0,,-0.08,-0.27,0.92,-1.0,0.0,0.0,0.96,1.25,77.0,6975.0,19.5,5.6,,11.77,1.058,89.8,,42.0,5.0,0.0,0.0,0.0,0.0,0.0,0.0,0.0,0.0,2.26,,,0,0,0,0,0,0,0,0,0,0,0,0,0,0,0,0,,0.0,,,,0.0,38.994114,-76.939697,0.04,30.8,29.0,3.0,0.8
155,394622,1745478666696,,,,,,,,,,,,,,,,,,,,,,,,,,,,,,,,,,0,0,0,0,0,0,0,0,0,0,0,0,0,0,0,0,,,,,,,,,,,,,
156,394642,1745478666716,0.0,134.0,,-0.12,-0.29,0.94,-1.0,0.0,0.0,0.99,1.25,80.0,7417.0,19.5,5.58,,11.38,0.909,89.8,,43.6,5.0,,,,,,,,,,,,0,0,0,0,0,0,0,0,0,0,0,0,0,0,0,0,,,,,,0.0,,,,,,,
157,394662,1745478666736,,,,,,,,,,,,,,,,,,,,,,,,,,,,,,,,,,0,0,0,0,0,0,0,0,0,0,0,0,0,0,0,0,,,,,,,,,,,,,
158,394682,1745478666756,0.0,134.0,,-0.09,-0.37,0.99,-1.0,0.0,0.0,1.06,1.25,85.0,7720.0,19.5,5.45,,11.05,0.842,89.8,,43.6,5.0,,,,,,,,,,,,0,0,0,0,0,0,0,0,0,0,0,0,0,0,0,0,,,,,,0.0,,,,,,,
159,394702,1745478666776,,,,,,,,,,,,,,,,,,,,,,,0.0,0.0,0.0,0.0,0.0,0.0,0.0,0.0,2.27,,,0,0,0,0,0,0,0,0,0,0,0,0,0,0,0,0,,0.0,,,,,38.994114,-76.939697,0.04,30.8,29.0,3.0,0.8
160,394722,1745478666798,0.0,134.0,,-0.07,-0.38,0.97,-1.0,0.0,0.0,1.04,1.25,84.0,8037.0,19.2,4.52,,10.8,0.802,89.8,,43.6,5.0,,,,,,,,,,,,0,0,0,0,0,0,0,0,0,0,0,0,0,0,0,0,,,,,,0.0,,,,,,,
161,394742,1745478666818,,,,,,,,,,,,,,,,,,,,,,,,,,,,,,,,,,0,0,0,0,0,0,0,0,0,0,0,0,0,0,0,0,,,,,,,,,,,,,
162,394762,1745478666838,0.0,134.0,,-0.08,-0.13,0.97,-1.0,0.0,0.0,0.99,1.25,79.0,8826.0,19.4,3.71,,10.8,0.802,89.8,,43.5,5.0,,,,,,,,,,,,0,0,0,0,0,0,0,0,0,0,0,0,0,0,0,0,,,,,,0.0,,,,,,,
163,394782,1745478666858,,,,,,,,,,,,,,,,,,,,,,,,,,,,,,,,,,0,0,0,0,0,0,0,0,0,0,0,0,0,0,0,0,,,,,,,,,,,,,
164,394802,1745478666878,0.0,133.0,,-0.07,0.02,0.99,-2.0,0.0,0.0,0.99,1.25,80.0,8826.0,19.4,3.71,,10.28,0.801,89.8,,43.5,5.0,0.0,0.0,0.0,0.0,0.0,0.0,0.0,0.0,2.26,,,0,0,0,0,0,0,0,0,0,0,0,0,0,0,0,0,,0.0,,,,0.0,38.994114,-76.939697,0.05,30.8,29.0,3.0,0.8
165,394822,1745478666896,,,,,,,,,,,,,,,,,,,,,,,,,,,,,,,,,,0,0,0,0,0,0,0,0,0,0,0,0,0,0,0,0,,,,,,,,,,,,,
166,394842,1745478666916,0.0,134.0,,-0.09,0.22,0.93,-3.0,0.0,0.0,0.96,1.25,77.0,10011.0,19.8,3.56,,9.58,0.802,89.8,,44.7,5.0,,,,,,,,,,,,0,0,0,0,0,0,0,0,0,0,0,0,0,0,0,0,,,,,,0.0,,,,,,,
167,394862,1745478666936,,,,,,,,,,,,,,,,,,,,,,,,,,,,,,,,,,0,0,0,0,0,0,0,0,0,0,0,0,0,0,0,0,,,,,,,,,,,,,
168,394882,1745478666956,0.0,134.0,,-0.05,0.27,0.97,-2.0,0.0,0.0,1.01,1.25,81.0,11015.0,20.3,3.32,,9.44,0.825,89.8,,44.7,5.0,,,,,,,,,,,,0,0,0,0,0,0,0,0,0,0,0,0,0,0,0,0,,,,,,0.0,,,,,,,
169,394902,1745478666976,,,,,,,,,,,,,,,,,,,,,,,0.0,0.0,0.0,0.0,0.0,0.0,0.0,0.0,2.26,,,0,0,0,0,0,0,0,0,0,0,0,0,0,0,0,0,,0.0,,,,,38.994114,-76.939697,0.04,30.8,29.0,3.0,0.8
170,394922,1745478666996,0.0,133.0,,-0.04,0.16,1.02,-1.0,0.0,0.0,1.03,1.25,83.0,11767.0,21.4,3.12,,9.09,0.846,89.8,,44.7,5.0,,,,,,,,,,,,0,0,0,0,0,0,0,0,0,0,0,0,0,0,0,0,,,,,,0.0,,,,,,,
171,394942,1745478667010,,,,,,,,,,,,,,,,,,,,,,,,,,,,,,,,,,0,0,0,0,0,0,0,0,0,0,0,0,0,0,0,0,,,,,,,,,,,,,
172,394962,1745478667030,0.0,134.0,,-0.02,0.13,1.02,-2.0,0.0,0.0,1.02,1.25,82.0,12389.0,21.5,2.75,,9.09,0.846,89.8,,48.6,5.0,,,,,,,,,,,,0,0,0,0,0,0,0,0,0,0,0,0,0,0,0,0,,,,,,0.0,,,,,,,
173,394982,1745478667050,,,,,,,,,,,,,,,,,,,,,,,,,,,,,,,,,,0,0,0,0,0,0,0,0,0,0,0,0,0,0,0,0,,,,,,,,,,,,,
174,395002,1745478667070,0.0,133.0,,-0.02,0.09,1.06,-2.0,0.0,0.0,1.06,1.25,85.0,12389.0,21.5,2.75,,8.73,0.849,89.8,,48.6,5.0,0.0,0.0,0.0,0.0,0.0,0.0,0.0,0.0,2.26,,,0,0,0,0,0,0,0,0,0,0,0,0,0,0,0,0,,0.0,,,,0.0,38.994114,-76.939697,0.05,30.8,29.0,3.0,0.8
175,395022,1745478667094,,,,,,,,,,,,,,,,,,,,,,,,,,,,,,,,,,0,0,0,0,0,0,0,0,0,0,0,0,0,0,0,0,,,,,,,,,,,,,
176,395042,1745478667114,0.0,134.0,,-0.01,0.08,1.08,-3.0,0.0,1.0,1.08,1.25,87.0,12776.0,21.6,2.38,,8.46,0.907,89.8,,51.4,5.0,,,,,,,,,,,,0,0,0,0,0,0,0,0,0,0,0,0,0,0,0,0,,,,,,0.0,,,,,,,
177,395062,1745478667134,,,,,,,,,,,,,,,,,,,,,,,,,,,,,,,,,,0,0,0,0,0,0,0,0,0,0,0,0,0,0,0,0,,,,,,,,,,,,,
178,395082,1745478667154,0.0,134.0,,0.02,0.02,1.08,-4.0,0.0,1.0,1.08,1.25,86.0,12820.0,21.9,2.33,,8.27,0.981,88.0,,51.4,5.0,,,,,,,,,,,,0,0,0,0,0,0,0,0,0,0,0,0,0,0,0,0,,,,,,0.0,,,,,,,
179,395102,1745478667174,,,,,,,,,,,,,,,,,,,,,,,0.0,0.0,0.0,0.0,0.0,0.0,0.0,0.0,2.27,,,0,0,0,0,0,0,0,0,0,0,0,0,0,0,0,0,,0.0,,,,,38.994114,-76.939697,0.04,30.8,29.0,3.0,0.8
180,395122,1745478667198,0.0,133.0,,0.06,-0.08,1.11,-3.0,0.0,0.0,1.11,1.25,89.0,12451.0,22.1,2.49,,8.3,1.055,88.0,,51.4,5.0,,,,,,,,,,,,0,0,0,0,0,0,0,0,0,0,0,0,0,0,0,0,,,,,,0.0,,,,,,,
181,395142,1745478667218,,,,,,,,,,,,,,,,,,,,,,,,,,,,,,,,,,0,0,0,0,0,0,0,0,0,0,0,0,0,0,0,0,,,,,,,,,,,,,
182,395162,1745478667238,0.0,133.0,,0.09,-0.03,1.13,-2.0,0.0,0.0,1.13,1.25,91.0,11961.0,22.2,2.9,,8.3,1.055,88.0,,53.9,5.0,,,,,,,,,,,,0,0,0,0,0,0,0,0,0,0,0,0,0,0,0,0,,,,,,0.0,,,,,,,
183,395182,1745478667258,,,,,,,,,,,,,,,,,,,,,,,,,,,,,,,,,,0,0,0,0,0,0,0,0,0,0,0,0,0,0,0,0,,,,,,,,,,,,,
184,395202,1745478667278,0.0,133.0,,0.12,0.03,1.14,-1.0,0.0,0.0,1.15,1.25,92.0,11961.0,22.2,2.9,,8.5,1.134,88.0,,53.9,5.0,0.0,0.0,0.0,0.0,0.0,0.0,0.0,0.0,2.26,,,0,0,0,0,0,0,0,0,0,0,0,0,0,0,0,0,,0.0,,,,0.0,38.994114,-76.939697,0.0,30.8,29.0,3.0,0.8
185,395222,1745478667298,,,,,,,,,,,,,,,,,,,,,,,,,,,,,,,,,,0,0,0,0,0,0,0,0,0,0,0,0,0,0,0,0,,,,,,,,,,,,,
186,395242,1745478667318,0.0,133.0,,0.11,-0.11,1.08,0.0,0.0,0.0,1.09,1.25,87.0,11571.0,22.4,3.03,,8.66,1.134,88.0,,51.7,5.0,,,,,,,,,,,,0,0,0,0,0,0,0,0,0,0,0,0,0,0,0,0,,,,,,0.0,,,,,,,
187,395262,1745478667338,,,,,,,,,,,,,,,,,,,,,,,,,,,,,,,,,,0,0,0,0,0,0,0,0,0,0,0,0,0,0,0,0,,,,,,,,,,,,,
188,395282,1745478667358,0.0,133.0,,0.17,-0.14,1.06,-1.0,0.0,0.0,1.08,1.25,87.0,11250.0,24.0,3.33,,9.1,1.099,88.0,,51.7,5.0,,,,,,,,,,,,0,0,0,0,0,0,0,0,0,0,0,0,0,0,0,0,,,,,,0.0,,,,,,,
189,395302,1745478667378,,,,,,,,,,,,,,,,,,,,,,,0.0,0.0,0.0,0.0,0.0,0.0,0.0,0.0,2.26,,,0,0,0,0,0,0,0,0,0,0,0,0,0,0,0,0,,0.0,,,,,38.994114,-76.939697,0.86,30.8,29.0,3.0,0.8
190,395322,1745478667397,0.0,133.0,,0.19,0.05,1.05,-1.0,0.0,0.0,1.06,1.25,85.0,10980.0,28.1,3.04,,9.88,1.034,88.0,,51.7,5.0,,,,,,,,,,,,0,0,0,0,0,0,0,0,0,0,0,0,0,0,0,0,,,,,,0.0,,,,,,,
191,395342,1745478667417,,,,,,,,,,,,,,,,,,,,,,,,,,,,,,,,,,0,0,0,0,0,0,0,0,0,0,0,0,0,0,0,0,,,,,,,,,,,,,
192,395362,1745478667437,0.0,133.0,,0.22,-0.13,1.06,0.0,0.0,0.0,1.09,1.25,87.0,10528.0,32.2,3.21,,9.88,1.034,88.0,,51.5,5.0,,,,,,,,,,,,0,0,0,0,0,0,0,0,0,0,0,0,0,0,0,0,,,,,,0.0,,,,,,,
193,395382,1745478667457,,,,,,,,,,,,,,,,,,,,,,,,,,,,,,,,,,0,0,0,0,0,0,0,0,0,0,0,0,0,0,0,0,,,,,,,,,,,,,
194,395402,1745478667477,0.0,133.0,13.3,0.25,-0.1,1.05,0.0,0.0,0.0,1.09,1.25,87.0,10528.0,32.2,3.21,15.0,10.54,1.018,88.0,171.0,51.5,5.0,2.0,0.0,2.0,2.0,0.0,0.0,0.0,0.0,2.26,0.0,1.0,0,0,0,0,0,0,0,0,0,0,0,0,0,0,0,0,0.0,0.0,1.0,0.0,0.0,0.0,38.994114,-76.939697,2.05,30.8,29.0,3.0,0.8
195,395422,1745478667497,,,,,,,,,,,,,,,,,,,,,,,,,,,,,,,,,,0,0,0,0,0,0,0,0,0,0,0,0,0,0,0,0,,,,,,,,,,,,,
196,395442,1745478667517,0.0,133.0,,0.26,-0.07,1.03,0.0,0.0,0.0,1.06,1.25,85.0,9740.0,37.2,4.79,,11.4,1.088,88.0,,45.8,5.0,,,,,,,,,,,,0,0,0,0,0,0,0,0,0,0,0,0,0,0,0,0,,,,,,0.0,,,,,,,
197,395462,1745478667537,,,,,,,,,,,,,,,,,,,,,,,,,,,,,,,,,,0,0,0,0,0,0,0,0,0,0,0,0,0,0,0,0,,,,,,,,,,,,,
198,395482,1745478667557,0.0,133.0,,0.28,-0.25,1.05,0.0,0.0,0.0,1.12,1.25,90.0,9931.0,44.2,5.04,,12.12,1.245,88.0,,45.8,5.0,,,,,,,,,,,,0,0,0,0,0,0,0,0,0,0,0,0,0,0,0,0,,,,,,0.0,,,,,,,
199,395502,1745478667577,,,,,,,,,,,,,,,,,,,,,,,3.0,0.0,3.0,4.0,0.0,0.0,0.0,0.0,2.26,,,0,0,0,0,0,0,0,0,0,0,0,0,0,0,0,0,,0.0,,,,,38.994114,-76.939697,4.85,30.8,29.0,3.0,0.8
200,395522,1745478667597,0.0,133.0,,0.35,-0.06,0.97,0.0,0.0,-1.0,1.04,1.25,83.0,10344.0,48.9,4.77,,12.59,1.081,88.0,,45.8,5.0,,,,,,,,,,,,0,0,0,0,0,0,0,0,0,0,0,0,0,0,0,0,,,,,,0.0,,,,,,,
201,395542,1745478667617,,,,,,,,,,,,,,,,,,,,,,,,,,,,,,,,,,0,0,0,0,0,0,0,0,0,0,0,0,0,0,0,0,,,,,,,,,,,,,
202,395562,1745478667637,0.0,133.0,,0.41,-0.05,0.91,-1.0,0.0,0.0,1.0,1.25,80.0,10623.0,52.9,4.53,,12.59,1.081,88.0,,46.7,5.0,,,,,,,,,,,,0,0,0,0,0,0,0,0,0,0,0,0,0,0,0,0,,,,,,0.0,,,,,,,
203,395582,1745478667657,,,,,,,,,,,,,,,,,,,,,,,,,,,,,,,,,,0,0,0,0,0,0,0,0,0,0,0,0,0,0,0,0,,,,,,,,,,,,,
204,395602,1745478667677,0.0,133.0,,0.44,-0.11,0.96,-1.0,0.0,-1.0,1.06,1.25,85.0,10623.0,52.9,4.53,,12.84,1.018,88.0,,46.7,5.0,4.0,0.0,5.0,5.0,0.0,0.0,0.0,0.0,2.27,,,0,0,0,0,0,0,0,0,0,0,0,0,0,0,0,0,,0.0,,,,0.0,38.994114,-76.939697,6.58,30.8,29.0,3.0,0.8
205,395622,1745478667697,,,,,,,,,,,,,,,,,,,,,,,,,,,,,,,,,,0,0,0,0,0,0,0,0,0,0,0,0,0,0,0,0,,,,,,,,,,,,,
206,395642,1745478667717,0.0,133.0,,0.45,-0.2,0.95,-1.0,0.0,-1.0,1.07,1.25,86.0,10783.0,60.5,4.65,,13.04,1.036,88.0,,49.8,5.0,,,,,,,,,,,,0,0,0,0,0,0,0,0,0,0,0,0,0,0,0,0,,,,,,0.0,,,,,,,
207,395662,1745478667737,,,,,,,,,,,,,,,,,,,,,,,,,,,,,,,,,,0,0,0,0,0,0,0,0,0,0,0,0,0,0,0,0,,,,,,,,,,,,,
208,395682,1745478667757,0.0,133.0,,0.46,-0.18,0.96,0.0,0.0,-1.0,1.08,1.25,87.0,10914.0,65.6,4.81,,13.32,1.065,88.0,,49.8,5.0,,,,,,,,,,,,0,0,0,0,0,0,0,0,0,0,0,0,0,0,0,0,,,,,,0.0,,,,,,,
209,395702,1745478667777,,,,,,,,,,,,,,,,,,,,,,,6.0,0.0,6.0,6.0,0.0,0.0,0.0,0.0,2.26,,,0,0,0,0,0,0,0,0,0,0,0,0,0,0,0,0,,0.0,,,,,38.994114,-76.939697,8.89,30.8,29.0,3.0,0.8
210,395722,1745478667797,0.0,133.0,,0.49,-0.11,0.97,-1.0,0.0,0.0,1.09,1.25,88.0,11029.0,67.6,4.68,,13.32,1.074,88.0,,49.8,5.0,,,,,,,,,,,,0,0,0,0,0,0,0,0,0,0,0,0,0,0,0,0,,,,,,0.0,,,,,,,
211,395742,1745478667817,,,,,,,,,,,,,,,,,,,,,,,,,,,,,,,,,,0,0,0,0,0,0,0,0,0,0,0,0,0,0,0,0,,,,,,,,,,,,,
212,395762,1745478667837,0.0,133.0,,0.5,-0.17,0.95,-1.0,0.0,0.0,1.09,1.25,87.0,10954.0,69.1,4.61,,13.32,1.074,88.0,,50.7,5.0,,,,,,,,,,,,0,0,0,0,0,0,0,0,0,0,0,0,0,0,0,0,,,,,,0.0,,,,,,,
213,395782,1745478667857,,,,,,,,,,,,,,,,,,,,,,,,,,,,,,,,,,0,0,0,0,0,0,0,0,0,0,0,0,0,0,0,0,,,,,,,,,,,,,
214,395802,1745478667877,0.0,132.0,,0.54,-0.26,0.97,-1.0,0.0,0.0,1.14,1.25,92.0,10954.0,69.1,4.61,,13.48,1.066,88.0,,50.7,5.0,7.0,0.0,8.0,8.0,0.0,65.0,0.0,0.0,2.26,,,0,0,0,0,0,0,0,0,0,0,0,0,0,0,0,0,,0.0,,,,0.0,38.99411,-76.939697,11.03,30.8,29.0,3.0,0.8
215,395822,1745478667897,,,,,,,,,,,,,,,,,,,,,,,,,,,,,,,,,,0,0,0,0,0,0,0,0,0,0,0,0,0,0,0,0,,,,,,,,,,,,,
216,395842,1745478667917,0.0,132.0,,0.53,-0.21,0.94,-1.0,0.0,0.0,1.1,1.25,88.0,10861.0,70.5,4.6,,13.43,1.09,88.0,,49.0,5.0,,,,,,,,,,,,0,0,0,0,0,0,0,0,0,0,0,0,0,0,0,0,,,,,,0.0,,,,,,,
217,395862,1745478667937,,,,,,,,,,,,,,,,,,,,,,,,,,,,,,,,,,0,0,0,0,0,0,0,0,0,0,0,0,0,0,0,0,,,,,,,,,,,,,
218,395882,1745478667957,0.0,133.0,,0.55,-0.12,0.92,-2.0,0.0,1.0,1.08,1.25,86.0,10781.0,70.7,4.73,,13.32,1.1,88.0,,49.0,5.0,,,,,,,,,,,,0,0,0,0,0,0,0,0,0,0,0,0,0,0,0,0,,,,,,0.0,,,,,,,
219,395902,1745478667977,,,,,,,,,,,,,,,,,,,,,,,9.0,0.0,10.0,10.0,0.0,117.0,0.0,0.0,2.25,,,0,0,0,0,0,0,0,0,0,0,0,0,0,0,0,0,,0.0,,,,,38.994106,-76.939697,13.66,30.8,29.0,3.0,0.8
220,395922,1745478667997,0.0,133.0,,0.54,-0.23,0.97,-2.0,0.0,1.0,1.14,1.25,91.0,10783.0,70.7,4.73,,13.43,1.114,88.0,,49.0,5.0,,,,,,,,,,,,0,0,0,0,0,0,0,0,0,0,0,0,0,0,0,0,,,,,,0.0,,,,,,,
221,395942,1745478668009,,,,,,,,,,,,,,,,,,,,,,,,,,,,,,,,,,0,0,0,0,0,0,0,0,0,0,0,0,0,0,0,0,,,,,,,,,,,,,
222,395962,1745478668029,0.0,133.0,,0.54,-0.1,0.96,-2.0,0.0,1.0,1.11,1.25,89.0,10845.0,71.2,4.63,,13.43,1.114,88.0,,47.5,5.0,,,,,,,,,,,,0,0,0,0,0,0,0,0,0,0,0,0,0,0,0,0,,,,,,0.0,,,,,,,
223,395982,1745478668049,,,,,,,,,,,,,,,,,,,,,,,,,,,,,,,,,,0,0,0,0,0,0,0,0,0,0,0,0,0,0,0,0,,,,,,,,,,,,,
224,396002,1745478668069,0.0,133.0,,0.6,-0.24,0.97,-2.0,0.0,1.0,1.17,1.25,94.0,10845.0,71.2,4.63,,13.36,1.101,88.0,,47.5,5.0,11.0,0.0,12.0,12.0,0.0,83.0,0.0,0.0,2.26,,,0,0,0,0,0,0,0,0,0,0,0,0,0,0,0,0,,0.0,,,,0.0,38.994102,-76.939697,16.13,30.8,29.0,3.0,0.8
225,396022,1745478668097,,,,,,,,,,,,,,,,,,,,,,,,,,,,,,,,,,0,0,0,0,0,0,0,0,0,0,0,0,0,0,0,0,,,,,,,,,,,,,
226,396042,1745478668117,0.0,132.0,,0.6,-0.32,0.99,-2.0,0.0,1.0,1.2,1.25,96.0,10727.0,71.5,4.72,,13.49,1.089,88.0,,47.1,5.0,,,,,,,,,,,,0,0,0,0,0,0,0,0,0,0,0,0,0,0,0,0,,,,,,0.0,,,,,,,
227,396062,1745478668137,,,,,,,,,,,,,,,,,,,,,,,,,,,,,,,,,,0,0,0,0,0,0,0,0,0,0,0,0,0,0,0,0,,,,,,,,,,,,,
228,396082,1745478668157,0.0,133.0,,0.59,-0.13,1.0,-2.0,0.0,0.0,1.17,1.25,94.0,10673.0,71.5,4.83,,13.6,1.116,88.0,,47.1,5.0,,,,,,,,,,,,0,0,0,0,0,0,0,0,0,0,0,0,0,0,0,0,,,,,,0.0,,,,,,,
229,396102,1745478668177,,,,,,,,,,,,,,,,,,,,,,,13.0,0.0,13.0,13.0,0.0,68.0,0.0,0.0,2.26,,,0,0,0,0,0,0,0,0,0,0,0,0,0,0,0,0,,0.0,,,,,38.994099,-76.93969,18.59,30.8,29.0,3.0,0.8
230,396122,1745478668195,0.0,132.0,,0.62,0.02,0.97,-3.0,0.0,1.0,1.15,1.25,93.0,10660.0,71.5,4.88,,13.52,1.115,88.0,,47.1,5.0,,,,,,,,,,,,0,0,0,0,0,0,0,0,0,0,0,0,0,0,0,0,,,,,,0.0,,,,,,,
231,396142,1745478668215,,,,,,,,,,,,,,,,,,,,,,,,,,,,,,,,,,0,0,0,0,0,0,0,0,0,0,0,0,0,0,0,0,,,,,,,,,,,,,
232,396162,1745478668235,0.0,132.0,,0.62,0.12,0.99,-3.0,0.0,1.0,1.18,1.25,94.0,10560.0,71.5,5.0,,13.52,1.115,88.0,,47.0,5.0,,,,,,,,,,,,0,0,0,0,0,0,0,0,0,0,0,0,0,0,0,0,,,,,,0.0,,,,,,,
233,396182,1745478668255,,,,,,,,,,,,,,,,,,,,,,,,,,,,,,,,,,0,0,0,0,0,0,0,0,0,0,0,0,0,0,0,0,,,,,,,,,,,,,
234,396202,1745478668275,0.0,132.0,,0.64,-0.0,1.05,-3.0,0.0,1.0,1.23,1.25,99.0,10560.0,71.5,5.0,,13.45,1.1,88.0,,47.0,5.0,14.0,0.0,15.0,16.0,0.0,98.0,0.0,0.0,2.26,,,0,0,0,0,0,0,0,0,0,0,0,0,0,0,0,0,,0.0,,,,0.0,38.994095,-76.93969,21.31,30.7,29.0,3.0,0.8
235,396222,1745478668295,,,,,,,,,,,,,,,,,,,,,,,,,,,,,,,,,,0,0,0,0,0,0,0,0,0,0,0,0,0,0,0,0,,,,,,,,,,,,,
236,396242,1745478668315,0.0,132.0,,0.65,-0.23,1.06,-2.0,-1.0,1.0,1.26,1.26,100.0,10541.0,71.5,5.03,,13.49,1.094,88.0,,45.7,5.0,,,,,,,,,,,,0,0,0,0,0,0,0,0,0,0,0,0,0,0,0,0,,,,,,0.0,,,,,,,
237,396262,1745478668335,,,,,,,,,,,,,,,,,,,,,,,,,,,,,,,,,,0,0,0,0,0,0,0,0,0,0,0,0,0,0,0,0,,,,,,,,,,,,,
238,396282,1745478668355,0.0,133.0,,0.68,-0.31,1.08,-1.0,-1.0,1.0,1.31,1.31,100.0,10673.0,68.3,4.89,,13.61,1.07,88.0,,45.7,5.0,,,,,,,,,,,,0,0,0,0,0,0,0,0,0,0,0,0,0,0,0,0,,,,,,0.0,,,,,,,
239,396302,1745478668375,,,,,,,,,,,,,,,,,,,,,,,16.0,0.0,17.0,18.0,0.0,93.0,0.0,0.0,2.26,,,0,0,0,0,0,0,0,0,0,0,0,0,0,0,0,0,,0.0,,,,,38.994091,-76.939682,23.63,30.7,29.0,3.0,0.8
240,396322,1745478668396,0.0,132.0,,0.7,-0.28,1.02,-1.0,-1.0,1.0,1.26,1.31,96.0,10768.0,40.3,4.32,,12.4,1.052,88.0,,45.7,5.0,,,,,,,,,,,,0,0,0,0,0,0,0,0,0,0,0,0,0,0,0,0,,,,,,0.0,,,,,,,
241,396342,1745478668416,,,,,,,,,,,,,,,,,,,,,,,,,,,,,,,,,,0,0,0,0,0,0,0,0,0,0,0,0,0,0,0,0,,,,,,,,,,,,,
242,396362,1745478668436,0.0,132.0,,0.71,-0.35,1.01,-1.0,0.0,0.0,1.28,1.31,97.0,10676.0,13.6,4.85,,12.4,1.052,88.0,,49.6,5.0,,,,,,,,,,,,0,0,0,0,0,0,0,0,0,0,0,0,0,0,0,0,,,,,,0.0,,,,,,,
243,396382,1745478668456,,,,,,,,,,,,,,,,,,,,,,,,,,,,,,,,,,0,0,0,0,0,0,0,0,0,0,0,0,0,0,0,0,,,,,,,,,,,,,
244,396402,1745478668476,0.0,132.0,13.33,0.68,-0.24,1.09,-1.0,0.0,0.0,1.31,1.31,100.0,10676.0,13.6,4.85,15.0,10.12,1.029,88.0,171.0,49.6,5.0,18.0,0.0,19.0,19.0,0.0,46.0,0.0,0.0,2.26,0.0,1.0,0,0,0,0,0,0,0,0,0,0,0,0,0,0,0,0,0.0,0.0,1.0,0.0,0.0,0.0,38.994087,-76.939674,26.67,30.7,29.0,3.0,0.8
245,396422,1745478668492,,,,,,,,,,,,,,,,,,,,,,,,,,,,,,,,,,0,0,0,0,0,0,0,0,0,0,0,0,0,0,0,0,,,,,,,,,,,,,
246,396442,1745478668512,0.0,132.0,,0.66,-0.15,1.13,-1.0,0.0,0.0,1.32,1.32,100.0,10224.0,0.6,1.4,,7.97,0.919,88.0,,47.5,5.0,,,,,,,,,,,,0,0,0,0,0,0,0,0,0,0,0,0,0,0,0,0,,,,,,0.0,,,,,,,
247,396462,1745478668532,,,,,,,,,,,,,,,,,,,,,,,,,,,,,,,,,,0,0,0,0,0,0,0,0,0,0,0,0,0,0,0,0,,,,,,,,,,,,,
248,396482,1745478668552,0.0,132.0,,0.65,-0.17,1.12,-2.0,0.0,0.0,1.3,1.32,99.0,8967.0,0.0,1.4,,6.95,0.852,88.0,,47.5,5.0,,,,,,,,,,,,0,0,0,0,0,0,0,0,0,0,0,0,0,0,0,0,,,,,,0.0,,,,,,,
249,396502,1745478668572,,,,,,,,,,,,,,,,,,,,,,,19.0,0.0,23.0,23.0,0.0,203.0,0.0,0.0,2.27,,,0,0,0,0,0,0,0,0,0,0,0,0,0,0,0,0,,0.0,,,,,38.99408,-76.939674,29.11,30.7,29.0,3.0,0.8
250,396522,1745478668594,0.0,132.0,,0.64,-0.15,1.1,-1.0,0.0,0.0,1.29,1.32,97.0,7645.0,0.0,1.4,,6.74,0.955,88.0,,47.5,5.0,,,,,,,,,,,,0,0,0,0,0,0,0,0,0,0,0,0,0,0,0,0,,,,,,0.0,,,,,,,
251,396542,1745478668614,,,,,,,,,,,,,,,,,,,,,,,,,,,,,,,,,,0,0,0,0,0,0,0,0,0,0,0,0,0,0,0,0,,,,,,,,,,,,,
252,396562,1745478668634,0.0,133.0,,0.62,-0.06,1.1,-2.0,-1.0,0.0,1.26,1.32,96.0,6679.0,0.0,1.4,,6.74,0.955,88.0,,43.6,5.0,,,,,,,,,,,,0,0,0,0,0,0,0,0,0,0,0,0,0,0,0,0,,,,,,0.0,,,,,,,
253,396582,1745478668654,,,,,,,,,,,,,,,,,,,,,,,,,,,,,,,,,,0,0,0,0,0,0,0,0,0,0,0,0,0,0,0,0,,,,,,,,,,,,,
254,396602,1745478668674,0.0,132.0,,0.49,-0.0,1.14,-2.0,-2.0,0.0,1.24,1.32,94.0,6679.0,0.0,1.4,,6.83,1.093,88.0,,43.6,5.0,21.0,0.0,21.0,21.0,0.0,78.0,0.0,0.0,2.27,,,0,0,0,0,0,0,0,0,0,0,0,0,0,0,0,0,,1.0,,,,0.0,38.994076,-76.939667,31.93,30.7,29.0,3.0,0.8
255,396622,1745478668694,,,,,,,,,,,,,,,,,,,,,,,,,,,,,,,,,,0,0,0,0,0,0,0,0,0,0,0,0,0,0,0,0,,,,,,,,,,,,,
256,396642,1745478668714,0.0,132.0,,0.37,0.12,1.12,-3.0,-2.0,1.0,1.18,1.32,90.0,6119.0,0.0,1.4,,7.11,1.121,88.0,,43.2,5.0,,,,,,,,,,,,0,0,0,0,0,0,0,0,0,0,0,0,0,0,0,0,,,,,,0.0,,,,,,,
257,396662,1745478668734,,,,,,,,,,,,,,,,,,,,,,,,,,,,,,,,,,0,0,0,0,0,0,0,0,0,0,0,0,0,0,0,0,,,,,,,,,,,,,
258,396682,1745478668754,0.0,132.0,,0.18,0.13,1.11,-4.0,-2.0,1.0,1.13,1.32,86.0,5968.0,0.0,1.4,,7.61,1.112,88.0,,43.2,5.0,,,,,,,,,,,,0,0,0,0,0,0,0,0,0,0,0,0,0,0,0,0,,,,,,0.0,,,,,,,
259,396702,1745478668774,,,,,,,,,,,,,,,,,,,,,,,21.0,0.0,20.0,20.0,0.0,26.0,0.0,0.0,2.27,,,0,0,0,0,0,0,0,0,0,0,0,0,0,0,0,0,,0.0,,,,,38.994068,-76.939659,34.06,30.6,29.0,3.0,0.8
260,396722,1745478668794,0.0,132.0,,0.09,0.02,1.02,-6.0,-2.0,1.0,1.03,1.32,78.0,6238.0,0.0,1.4,,7.71,1.097,88.0,,43.2,5.0,,,,,,,,,,,,0,0,0,0,0,0,0,0,0,0,0,0,0,0,0,0,,,,,,0.0,,,,,,,
261,396742,1745478668814,,,,,,,,,,,,,,,,,,,,,,,,,,,,,,,,,,0,0,0,0,0,0,0,0,0,0,0,0,0,0,0,0,,,,,,,,,,,,,
262,396762,1745478668834,0.0,132.0,,0.02,-0.02,1.04,-6.0,-2.0,0.0,1.05,1.32,79.0,6429.0,0.0,1.4,,7.71,1.097,88.0,,43.4,5.0,,,,,,,,,,,,0,0,0,0,0,0,0,0,0,0,0,0,0,0,0,0,,,,,,0.0,,,,,,,
263,396782,1745478668854,,,,,,,,,,,,,,,,,,,,,,,,,,,,,,,,,,0,0,0,0,0,0,0,0,0,0,0,0,0,0,0,0,,,,,,,,,,,,,
264,396802,1745478668874,0.0,131.0,,-0.0,-0.01,0.98,-6.0,-2.0,0.0,0.98,1.32,74.0,6429.0,0.0,1.4,,7.63,1.094,88.0,,43.4,5.0,20.0,0.0,19.0,18.0,0.0,190.0,0.0,0.0,2.27,,,0,0,0,0,0,0,0,0,0,0,0,0,0,0,0,0,,0.0,,,,0.0,38.994057,-76.939652,32.98,30.6,29.0,3.0,0.8
265,396822,1745478668898,,,,,,,,,,,,,,,,,,,,,,,,,,,,,,,,,,0,0,0,0,0,0,0,0,0,0,0,0,0,0,0,0,,,,,,,,,,,,,
266,396842,1745478668918,0.0,131.0,,-0.06,-0.12,1.04,-7.0,-2.0,0.0,1.05,1.32,79.0,6404.0,0.0,1.4,,7.59,1.147,88.0,,43.5,5.0,,,,,,,,,,,,0,0,0,0,0,0,0,0,0,0,0,0,0,0,0,0,,,,,,0.0,,,,,,,
267,396862,1745478668938,,,,,,,,,,,,,,,,,,,,,,,,,,,,,,,,,,0,0,0,0,0,0,0,0,0,0,0,0,0,0,0,0,,,,,,,,,,,,,
268,396882,1745478668958,0.0,132.0,,-0.09,-0.14,0.96,-7.0,-2.0,0.0,0.97,1.32,74.0,6322.0,0.0,1.4,,7.57,1.251,88.0,,43.5,5.0,,,,,,,,,,,,0,0,0,0,0,0,0,0,0,0,0,0,0,0,0,0,,,,,,0.0,,,,,,,
269,396902,1745478668978,,,,,,,,,,,,,,,,,,,,,,,19.0,0.0,19.0,19.0,0.0,10.0,0.0,0.0,2.26,,,0,0,0,0,0,0,0,0,0,0,0,0,0,0,0,0,,1.0,,,,,38.994053,-76.939652,31.53,30.6,29.0,3.0,0.8
270,396922,1745478668998,0.0,131.0,,-0.09,-0.21,0.97,-7.0,-1.0,-1.0,1.0,1.32,75.0,6177.0,0.0,1.4,,7.5,1.251,88.0,,43.5,5.0,,,,,,,,,,,,0,0,0,0,0,0,0,0,0,0,0,0,0,0,0,0,,,,,,0.0,,,,,,,
271,396942,1745478669008,,,,,,,,,,,,,,,,,,,,,,,,,,,,,,,,,,0,0,0,0,0,0,0,0,0,0,0,0,0,0,0,0,,,,,,,,,,,,,
272,396962,1745478669028,0.0,132.0,,-0.12,-0.2,1.1,-6.0,-1.0,-1.0,1.12,1.32,85.0,6056.0,0.0,1.4,,7.5,1.251,88.0,,43.0,5.0,,,,,,,,,,,,0,0,0,0,0,0,0,0,0,0,0,0,0,0,0,0,,,,,,0.0,,,,,,,
273,396982,1745478669048,,,,,,,,,,,,,,,,,,,,,,,,,,,,,,,,,,0,0,0,0,0,0,0,0,0,0,0,0,0,0,0,0,,,,,,,,,,,,,
274,397002,1745478669068,0.0,132.0,,-0.19,-0.14,1.2,-5.0,-1.0,0.0,1.22,1.32,92.0,6056.0,0.0,1.4,,7.61,1.25,88.0,,43.0,5.0,19.0,0.0,18.0,18.0,0.0,246.0,0.0,0.0,2.27,,,0,0,0,0,0,0,0,0,0,0,0,0,0,0,0,0,,1.0,,,,0.0,38.994045,-76.939652,29.86,30.6,29.0,3.0,0.8
275,397022,1745478669092,,,,,,,,,,,,,,,,,,,,,,,,,,,,,,,,,,0,0,0,0,0,0,0,0,0,0,0,0,0,0,0,0,,,,,,,,,,,,,
276,397042,1745478669112,0.0,131.0,,-0.22,-0.16,1.3,-4.0,-1.0,-1.0,1.33,1.33,100.0,5990.0,0.0,1.4,,7.74,1.25,88.0,,43.0,5.0,,,,,,,,,,,,0,0,0,0,0,0,0,0,0,0,0,0,0,0,0,0,,,,,,0.0,,,,,,,
277,397062,1745478669132,,,,,,,,,,,,,,,,,,,,,,,,,,,,,,,,,,0,0,0,0,0,0,0,0,0,0,0,0,0,0,0,0,,,,,,,,,,,,,
278,397082,1745478669152,0.0,132.0,,-0.19,-0.13,1.34,-3.0,-1.0,-1.0,1.36,1.36,100.0,5883.0,0.0,1.4,,7.85,1.251,86.2,,43.0,5.0,,,,,,,,,,,,0,0,0,0,0,0,0,0,0,0,0,0,0,0,0,0,,,,,,0.0,,,,,,,
279,397102,1745478669172,,,,,,,,,,,,,,,,,,,,,,,18.0,0.0,18.0,18.0,0.0,54.0,0.0,0.0,2.27,,,0,0,0,0,0,0,0,0,0,0,0,0,0,0,0,0,,1.0,,,,,38.994038,-76.939644,28.66,30.5,29.0,3.0,0.8
280,397122,1745478669192,0.0,132.0,,-0.21,-0.16,1.22,-5.0,0.0,-1.0,1.24,1.36,92.0,5759.0,0.0,1.4,,8.05,1.249,86.2,,43.0,5.0,,,,,,,,,,,,0,0,0,0,0,0,0,0,0,0,0,0,0,0,0,0,,,,,,0.0,,,,,,,
281,397142,1745478669212,,,,,,,,,,,,,,,,,,,,,,,,,,,,,,,,,,0,0,0,0,0,0,0,0,0,0,0,0,0,0,0,0,,,,,,,,,,,,,
282,397162,1745478669232,0.0,131.0,,-0.28,-0.06,1.21,-6.0,0.0,-1.0,1.24,1.36,92.0,5688.0,0.0,1.4,,8.05,1.249,86.2,,42.1,5.0,,,,,,,,,,,,0,0,0,0,0,0,0,0,0,0,0,0,0,0,0,0,,,,,,0.0,,,,,,,
283,397182,1745478669252,,,,,,,,,,,,,,,,,,,,,,,,,,,,,,,,,,0,0,0,0,0,0,0,0,0,0,0,0,0,0,0,0,,,,,,,,,,,,,
284,397202,1745478669272,0.0,131.0,,-0.26,-0.15,1.18,-7.0,0.0,-1.0,1.21,1.36,89.0,5688.0,0.0,1.4,,8.17,1.251,86.2,,42.1,5.0,17.0,0.0,17.0,17.0,0.0,61.0,0.0,0.0,2.27,,,0,0,0,0,0,0,0,0,0,0,0,0,0,0,0,0,,1.0,,,,0.0,38.994034,-76.939636,27.85,30.5,29.0,3.0,0.8
285,397222,1745478669298,,,,,,,,,,,,,,,,,,,,,,,,,,,,,,,,,,0,0,0,0,0,0,0,0,0,0,0,0,0,0,0,0,,,,,,,,,,,,,
286,397242,1745478669318,0.0,131.0,,-0.3,-0.09,1.18,-7.0,0.0,-1.0,1.22,1.36,90.0,5587.0,0.0,1.4,,8.3,1.253,86.2,,41.4,5.0,,,,,,,,,,,,0,0,0,0,0,0,0,0,0,0,0,0,0,0,0,0,,,,,,0.0,,,,,,,
287,397262,1745478669338,,,,,,,,,,,,,,,,,,,,,,,,,,,,,,,,,,0,0,0,0,0,0,0,0,0,0,0,0,0,0,0,0,,,,,,,,,,,,,
288,397282,1745478669358,0.0,132.0,,-0.32,-0.11,1.14,-9.0,0.0,-1.0,1.18,1.36,87.0,5461.0,0.0,1.4,,8.45,1.254,86.2,,41.4,5.0,,,,,,,,,,,,0,0,0,0,0,0,0,0,0,0,0,0,0,0,0,0,,,,,,0.0,,,,,,,
289,397302,1745478669378,,,,,,,,,,,,,,,,,,,,,,,16.0,0.0,16.0,17.0,0.0,8.0,0.0,0.0,2.27,,,0,0,0,0,0,0,0,0,0,0,0,0,0,0,0,0,,0.0,,,,,38.994026,-76.939636,26.91,30.5,29.0,3.0,0.8
290,397322,1745478669395,0.0,131.0,,-0.33,-0.05,1.13,-10.0,0.0,0.0,1.18,1.36,87.0,5384.0,0.0,1.4,,8.62,1.253,86.2,,41.4,5.0,,,,,,,,,,,,0,0,0,0,0,0,0,0,0,0,0,0,0,0,0,0,,,,,,0.0,,,,,,,
291,397342,1745478669415,,,,,,,,,,,,,,,,,,,,,,,,,,,,,,,,,,0,0,0,0,0,0,0,0,0,0,0,0,0,0,0,0,,,,,,,,,,,,,
292,397362,1745478669435,0.0,131.0,,-0.34,-0.13,1.14,-10.0,0.0,0.0,1.19,1.36,88.0,5291.0,0.0,1.4,,8.62,1.253,86.2,,40.9,5.0,,,,,,,,,,,,0,0,0,0,0,0,0,0,0,0,0,0,0,0,0,0,,,,,,0.0,,,,,,,
293,397382,1745478669455,,,,,,,,,,,,,,,,,,,,,,,,,,,,,,,,,,0,0,0,0,0,0,0,0,0,0,0,0,0,0,0,0,,,,,,,,,,,,,
294,397402,1745478669475,0.0,131.0,13.41,-0.35,-0.1,1.13,-11.0,0.0,0.0,1.19,1.36,88.0,5291.0,0.0,1.4,15.0,8.78,1.252,86.2,171.0,40.9,5.0,16.0,0.0,16.0,16.0,0.0,0.0,0.0,0.0,2.26,0.0,1.0,0,0,0,0,0,0,0,0,0,0,0,0,0,0,0,0,0.0,1.0,1.0,0.0,0.0,0.0,38.994019,-76.939629,25.93,30.5,29.0,3.0,0.8
295,397422,1745478669493,,,,,,,,,,,,,,,,,,,,,,,,,,,,,,,,,,0,0,0,0,0,0,0,0,0,0,0,0,0,0,0,0,,,,,,,,,,,,,
296,397442,1745478669513,0.0,131.0,,-0.36,-0.11,1.13,-11.0,1.0,0.0,1.19,1.36,87.0,5186.0,0.0,1.4,,8.9,1.251,86.2,,39.0,5.0,,,,,,,,,,,,0,0,0,0,0,0,0,0,0,0,0,0,0,0,0,0,,,,,,0.0,,,,,,,
297,397462,1745478669533,,,,,,,,,,,,,,,,,,,,,,,,,,,,,,,,,,0,0,0,0,0,0,0,0,0,0,0,0,0,0,0,0,,,,,,,,,,,,,
298,397482,1745478669553,0.0,131.0,,-0.36,-0.1,1.14,-11.0,1.0,0.0,1.2,1.36,88.0,5104.0,0.0,1.47,,9.06,1.251,86.2,,39.0,5.0,,,,,,,,,,,,0,0,0,0,0,0,0,0,0,0,0,0,0,0,0,0,,,,,,0.0,,,,,,,
299,397502,1745478669573,,,,,,,,,,,,,,,,,,,,,,,15.0,0.0,15.0,16.0,0.0,58.0,0.0,0.0,2.27,,,0,0,0,0,0,0,0,0,0,0,0,0,0,0,0,0,,0.0,,,,,38.994015,-76.939629,25.07,30.5,29.0,3.0,0.8
300,397522,1745478669594,0.0,131.0,,-0.35,-0.13,1.1,-12.0,1.0,0.0,1.16,1.36,85.0,5032.0,0.0,1.52,,9.19,1.251,86.2,,39.0,5.0,,,,,,,,,,,,0,0,0,0,0,0,0,0,0,0,0,0,0,0,0,0,,,,,,0.0,,,,,,,
301,397542,1745478669614,,,,,,,,,,,,,,,,,,,,,,,,,,,,,,,,,,0,0,0,0,0,0,0,0,0,0,0,0,0,0,0,0,,,,,,,,,,,,,
302,397562,1745478669634,0.0,131.0,,-0.39,-0.09,1.09,-13.0,0.0,0.0,1.17,1.36,86.0,4897.0,0.0,1.58,,9.19,1.251,86.2,,37.7,5.0,,,,,,,,,,,,0,0,0,0,0,0,0,0,0,0,0,0,0,0,0,0,,,,,,0.0,,,,,,,
303,397582,1745478669654,,,,,,,,,,,,,,,,,,,,,,,,,,,,,,,,,,0,0,0,0,0,0,0,0,0,0,0,0,0,0,0,0,,,,,,,,,,,,,
304,397602,1745478669674,0.0,131.0,,-0.37,-0.09,1.05,-14.0,0.0,0.0,1.11,1.36,82.0,4897.0,0.0,1.58,,9.37,1.251,86.2,,37.7,5.0,15.0,0.0,14.0,15.0,0.0,67.0,0.0,0.0,2.27,,,0,0,0,0,0,0,0,0,0,0,0,0,0,0,0,0,,1.0,,,,0.0,38.994007,-76.939621,23.82,30.4,29.0,3.0,0.8
305,397622,1745478669693,,,,,,,,,,,,,,,,,,,,,,,,,,,,,,,,,,0,0,0,0,0,0,0,0,0,0,0,0,0,0,0,0,,,,,,,,,,,,,
306,397642,1745478669713,0.0,131.0,,-0.4,-0.0,1.11,-13.0,0.0,0.0,1.18,1.36,87.0,4795.0,0.0,1.62,,9.44,1.25,86.2,,35.7,5.0,,,,,,,,,,,,0,0,0,0,0,0,0,0,0,0,0,0,0,0,0,0,,,,,,0.0,,,,,,,
307,397662,1745478669733,,,,,,,,,,,,,,,,,,,,,,,,,,,,,,,,,,0,0,0,0,0,0,0,0,0,0,0,0,0,0,0,0,,,,,,,,,,,,,
308,397682,1745478669753,0.0,131.0,,-0.4,-0.09,1.08,-15.0,0.0,0.0,1.16,1.36,85.0,4723.0,0.0,1.63,,9.58,1.251,86.2,,35.7,5.0,,,,,,,,,,,,0,0,0,0,0,0,0,0,0,0,0,0,0,0,0,0,,,,,,0.0,,,,,,,
309,397702,1745478669773,,,,,,,,,,,,,,,,,,,,,,,14.0,0.0,14.0,15.0,0.0,69.0,0.0,0.0,2.27,,,0,0,0,0,0,0,0,0,0,0,0,0,0,0,0,0,,1.0,,,,,38.994003,-76.939621,23.31,30.4,29.0,3.0,0.8
310,397722,1745478669795,0.0,131.0,,-0.37,-0.23,0.99,-17.0,0.0,0.0,1.08,1.36,79.0,4646.0,0.0,1.66,,9.73,1.253,86.2,,35.7,5.0,,,,,,,,,,,,0,0,0,0,0,0,0,0,0,0,0,0,0,0,0,0,,,,,,0.0,,,,,,,
311,397742,1745478669815,,,,,,,,,,,,,,,,,,,,,,,,,,,,,,,,,,0,0,0,0,0,0,0,0,0,0,0,0,0,0,0,0,,,,,,,,,,,,,
312,397762,1745478669835,0.0,131.0,,-0.36,-0.22,0.88,-18.0,0.0,-1.0,0.98,1.36,72.0,4528.0,0.0,1.69,,9.73,1.253,86.2,,33.9,5.0,,,,,,,,,,,,0,0,0,0,0,0,0,0,0,0,0,0,0,0,0,0,,,,,,0.0,,,,,,,
313,397782,1745478669855,,,,,,,,,,,,,,,,,,,,,,,,,,,,,,,,,,0,0,0,0,0,0,0,0,0,0,0,0,0,0,0,0,,,,,,,,,,,,,
314,397802,1745478669875,0.0,130.0,,-0.36,-0.22,0.81,-19.0,0.0,-1.0,0.91,1.36,67.0,4528.0,0.0,1.69,,9.76,1.254,86.2,,33.9,5.0,13.0,0.0,13.0,14.0,0.0,66.0,0.0,0.0,2.26,,,0,0,0,0,0,0,0,0,0,0,0,0,0,0,0,0,,0.0,,,,0.0,38.993996,-76.939621,22.24,30.4,29.0,3.0,0.8
315,397822,1745478669897,,,,,,,,,,,,,,,,,,,,,,,,,,,,,,,,,,0,0,0,0,0,0,0,0,0,0,0,0,0,0,0,0,,,,,,,,,,,,,
316,397842,1745478669917,0.0,131.0,,-0.36,-0.24,0.77,-20.0,0.0,-1.0,0.88,1.36,65.0,4424.0,0.0,1.73,,9.93,1.253,86.2,,31.8,5.0,,,,,,,,,,,,0,0,0,0,0,0,0,0,0,0,0,0,0,0,0,0,,,,,,0.0,,,,,,,
317,397862,1745478669937,,,,,,,,,,,,,,,,,,,,,,,,,,,,,,,,,,0,0,0,0,0,0,0,0,0,0,0,0,0,0,0,0,,,,,,,,,,,,,
318,397882,1745478669957,0.0,131.0,,-0.37,-0.24,0.83,-20.0,0.0,0.0,0.94,1.36,69.0,4325.0,0.0,1.75,,10.01,1.252,86.2,,31.8,5.0,,,,,,,,,,,,0,0,0,0,0,0,0,0,0,0,0,0,0,0,0,0,,,,,,0.0,,,,,,,
319,397902,1745478669977,,,,,,,,,,,,,,,,,,,,,,,13.0,0.0,13.0,13.0,0.0,231.0,0.0,0.0,2.26,,,0,0,0,0,0,0,0,0,0,0,0,0,0,0,0,0,,1.0,,,,,38.993992,-76.939613,21.35,30.4,29.0,3.0,0.8
320,397922,1745478669997,0.0,131.0,,-0.4,-0.11,0.96,-17.0,0.0,0.0,1.04,1.36,77.0,4264.0,0.0,1.76,,10.13,1.251,86.2,,31.8,5.0,,,,,,,,,,,,0,0,0,0,0,0,0,0,0,0,0,0,0,0,0,0,,,,,,0.0,,,,,,,
321,397942,1745478670009,,,,,,,,,,,,,,,,,,,,,,,,,,,,,,,,,,0,0,0,0,0,0,0,0,0,0,0,0,0,0,0,0,,,,,,,,,,,,,
322,397962,1745478670029,0.0,131.0,,-0.4,-0.09,0.82,-19.0,0.0,0.0,0.92,1.36,67.0,4178.0,0.0,1.79,,10.13,1.251,86.2,,31.0,5.0,,,,,,,,,,,,0,0,0,0,0,0,0,0,0,0,0,0,0,0,0,0,,,,,,0.0,,,,,,,
323,397982,1745478670049,,,,,,,,,,,,,,,,,,,,,,,,,,,,,,,,,,0,0,0,0,0,0,0,0,0,0,0,0,0,0,0,0,,,,,,,,,,,,,
324,398002,1745478670069,0.0,131.0,,-0.39,-0.04,0.9,-17.0,0.0,0.0,0.98,1.36,72.0,4178.0,0.0,1.79,,10.17,1.251,86.2,,31.0,5.0,12.0,0.0,13.0,13.0,0.0,48.0,0.0,0.0,2.27,,,0,0,0,0,0,0,0,0,0,0,0,0,0,0,0,0,,1.0,,,,0.0,38.993988,-76.939613,20.5,30.4,29.0,3.0,0.8
325,398022,1745478670091,,,,,,,,,,,,,,,,,,,,,,,,,,,,,,,,,,0,0,0,0,0,0,0,0,0,0,0,0,0,0,0,0,,,,,,,,,,,,,
326,398042,1745478670111,0.0,131.0,,-0.37,-0.16,0.84,-19.0,0.0,0.0,0.93,1.36,68.0,4096.0,0.0,1.8,,10.29,1.251,86.2,,29.3,5.0,,,,,,,,,,,,0,0,0,0,0,0,0,0,0,0,0,0,0,0,0,0,,,,,,0.0,,,,,,,
327,398062,1745478670131,,,,,,,,,,,,,,,,,,,,,,,,,,,,,,,,,,0,0,0,0,0,0,0,0,0,0,0,0,0,0,0,0,,,,,,,,,,,,,
328,398082,1745478670151,0.0,131.0,,-0.37,-0.06,0.84,-17.0,1.0,-1.0,0.92,1.36,68.0,4002.0,0.0,1.82,,10.36,1.251,86.2,,29.3,5.0,,,,,,,,,,,,0,0,0,0,0,0,0,0,0,0,0,0,0,0,0,0,,,,,,0.0,,,,,,,
329,398102,1745478670171,,,,,,,,,,,,,,,,,,,,,,,12.0,0.0,12.0,12.0,0.0,17.0,0.0,0.0,2.27,,,0,0,0,0,0,0,0,0,0,0,0,0,0,0,0,0,,1.0,,,,,38.99398,-76.939613,19.6,30.3,29.0,3.0,0.8
330,398122,1745478670195,0.0,130.0,,-0.36,-0.03,0.89,-16.0,1.0,0.0,0.96,1.36,71.0,3891.0,0.0,1.87,,10.46,1.252,86.2,,29.3,5.0,,,,,,,,,,,,0,0,0,0,0,0,0,0,0,0,0,0,0,0,0,0,,,,,,0.0,,,,,,,
331,398142,1745478670215,,,,,,,,,,,,,,,,,,,,,,,,,,,,,,,,,,0,0,0,0,0,0,0,0,0,0,0,0,0,0,0,0,,,,,,,,,,,,,
332,398162,1745478670235,0.0,131.0,,-0.34,-0.11,0.9,-15.0,0.0,0.0,0.97,1.36,72.0,3826.0,0.0,1.88,,10.46,1.252,86.2,,27.9,5.0,,,,,,,,,,,,0,0,0,0,0,0,0,0,0,0,0,0,0,0,0,0,,,,,,0.0,,,,,,,
333,398182,1745478670255,,,,,,,,,,,,,,,,,,,,,,,,,,,,,,,,,,0,0,0,0,0,0,0,0,0,0,0,0,0,0,0,0,,,,,,,,,,,,,
334,398202,1745478670275,0.0,131.0,,-0.34,-0.08,0.9,-15.0,0.0,0.0,0.96,1.36,71.0,3826.0,0.0,1.88,,10.61,1.251,86.2,,27.9,5.0,12.0,0.0,11.0,12.0,0.0,35.0,0.0,0.0,2.27,,,0,0,0,0,0,0,0,0,0,0,0,0,0,0,0,0,,1.0,,,,0.0,38.993977,-76.939613,18.75,30.3,29.0,3.0,0.8
335,398222,1745478670297,,,,,,,,,,,,,,,,,,,,,,,,,,,,,,,,,,0,0,0,0,0,0,0,0,0,0,0,0,0,0,0,0,,,,,,,,,,,,,
336,398242,1745478670317,0.0,131.0,,-0.34,-0.08,0.93,-15.0,0.0,0.0,0.99,1.36,73.0,3737.0,0.0,1.91,,10.77,1.253,86.2,,26.7,5.0,,,,,,,,,,,,0,0,0,0,0,0,0,0,0,0,0,0,0,0,0,0,,,,,,0.0,,,,,,,
337,398262,1745478670337,,,,,,,,,,,,,,,,,,,,,,,,,,,,,,,,,,0,0,0,0,0,0,0,0,0,0,0,0,0,0,0,0,,,,,,,,,,,,,
338,398282,1745478670357,0.0,131.0,,-0.35,-0.02,0.91,-14.0,0.0,0.0,0.97,1.36,71.0,3663.0,0.0,2.13,,10.89,1.254,86.2,,26.7,5.0,,,,,,,,,,,,0,0,0,0,0,0,0,0,0,0,0,0,0,0,0,0,,,,,,0.0,,,,,,,
339,398302,1745478670377,,,,,,,,,,,,,,,,,,,,,,,11.0,0.0,11.0,11.0,0.0,49.0,0.0,0.0,2.27,,,0,0,0,0,0,0,0,0,0,0,0,0,0,0,0,0,,1.0,,,,,38.993973,-76.939613,18.01,30.3,29.0,3.0,0.8
340,398322,1745478670398,0.0,131.0,,-0.34,-0.06,0.94,-14.0,0.0,-1.0,1.0,1.36,74.0,3584.0,0.0,2.36,,11.05,1.254,86.2,,26.7,5.0,,,,,,,,,,,,0,0,0,0,0,0,0,0,0,0,0,0,0,0,0,0,,,,,,0.0,,,,,,,
341,398402,1745478670478,0.0,131.0,13.41,-0.31,0.06,0.96,-12.0,0.0,0.0,1.01,1.36,74.0,3507.0,0.0,2.53,15.0,11.18,1.252,86.2,171.0,25.6,5.0,10.0,0.0,10.0,11.0,0.0,238.0,0.0,0.0,2.27,0.0,1.0,0,0,0,0,0,0,0,0,0,0,0,0,0,0,0,0,0.0,1.0,1.0,0.0,0.0,0.0,38.993969,-76.939613,17.57,30.3,29.0,3.0,0.8
342,398502,1745478670572,,,,,,,,,,,,,,,,,,,,,,,10.0,0.0,10.0,11.0,0.0,55.0,0.0,0.0,2.27,,,0,0,0,0,0,0,0,0,0,0,0,0,0,0,0,0,,1.0,,,,,38.993965,-76.939613,16.87,30.3,29.0,3.0,0.8
343,398722,1745478670792,0.0,132.0,,-0.29,-0.02,1.01,-11.0,0.0,0.0,1.05,1.36,77.0,3220.0,0.0,2.61,,11.89,1.253,86.2,,23.2,5.0,,,,,,,,,,,,0,0,0,0,0,0,0,0,0,0,0,0,0,0,0,0,,,,,,0.0,,,,,,,
344,398742,1745478670812,,,,,,,,,,,,,,,,,,,,,,,,,,,,,,,,,,0,0,0,0,0,0,0,0,0,0,0,0,0,0,0,0,,,,,,,,,,,,,
345,398762,1745478670832,0.0,132.0,,-0.27,0.02,0.93,-9.0,0.0,-1.0,0.97,1.36,71.0,3161.0,0.0,2.62,,11.89,1.253,86.2,,23.2,5.0,,,,,,,,,,,,0,0,0,0,0,0,0,0,0,0,0,0,0,0,0,0,,,,,,0.0,,,,,,,
346,398902,1745478670978,,,,,,,,,,,,,,,,,,,,,,,9.0,0.0,9.0,9.0,0.0,59.0,0.0,0.0,2.27,,,0,0,0,0,0,0,0,0,0,0,0,0,0,0,0,0,,1.0,,,,,38.99395,-76.939613,14.99,30.2,29.0,3.0,0.8
347,398922,1745478670998,0.0,132.0,,-0.14,0.1,1.04,-6.0,0.0,1.0,1.05,1.05,100.0,3049.0,0.0,2.64,,12.17,1.251,86.2,,21.8,5.0,,,,,,,,,,,,0,0,0,0,0,0,0,0,0,0,0,0,0,0,0,0,,,,,,0.0,,,,,,,
348,398942,1745478671008,,,,,,,,,,,,,,,,,,,,,,,,,,,,,,,,,,0,0,0,0,0,0,0,0,0,0,0,0,0,0,0,0,,,,,,,,,,,,,
349,398962,1745478671028,0.0,132.0,,-0.11,0.12,1.06,-7.0,0.0,1.0,1.07,1.07,100.0,2977.0,0.0,2.66,,12.17,1.251,86.2,,21.9,5.0,,,,,,,,,,,,0,0,0,0,0,0,0,0,0,0,0,0,0,0,0,0,,,,,,0.0,,,,,,,
350,398982,1745478671048,,,,,,,,,,,,,,,,,,,,,,,,,,,,,,,,,,0,0,0,0,0,0,0,0,0,0,0,0,0,0,0,0,,,,,,,,,,,,,
351,399002,1745478671068,0.0,131.0,,-0.09,0.14,1.08,-7.0,0.0,1.0,1.1,1.1,100.0,2977.0,0.0,2.66,,12.25,1.251,86.2,,21.9,5.0,9.0,0.0,9.0,9.0,0.0,23.0,0.0,0.0,2.27,,,0,0,0,0,0,0,0,0,0,0,0,0,0,0,0,0,,1.0,,,,0.0,38.993942,-76.939613,14.53,30.2,29.0,3.0,0.8
352,399022,1745478671094,,,,,,,,,,,,,,,,,,,,,,,,,,,,,,,,,,0,0,0,0,0,0,0,0,0,0,0,0,0,0,0,0,,,,,,,,,,,,,
353,399042,1745478671114,0.0,131.0,,-0.09,0.15,1.06,-5.0,0.0,1.0,1.07,1.1,98.0,2914.0,0.0,2.69,,12.32,1.251,86.2,,20.8,5.0,,,,,,,,,,,,0,0,0,0,0,0,0,0,0,0,0,0,0,0,0,0,,,,,,0.0,,,,,,,
354,399062,1745478671134,,,,,,,,,,,,,,,,,,,,,,,,,,,,,,,,,,0,0,0,0,0,0,0,0,0,0,0,0,0,0,0,0,,,,,,,,,,,,,
355,399082,1745478671154,0.0,132.0,,-0.1,0.12,1.0,-4.0,0.0,0.0,1.01,1.1,93.0,2909.0,0.0,2.75,,12.36,1.251,86.2,,20.8,5.0,,,,,,,,,,,,0,0,0,0,0,0,0,0,0,0,0,0,0,0,0,0,,,,,,0.0,,,,,,,
356,399102,1745478671174,,,,,,,,,,,,,,,,,,,,,,,9.0,0.0,9.0,9.0,0.0,0.0,0.0,0.0,2.27,,,0,0,0,0,0,0,0,0,0,0,0,0,0,0,0,0,,1.0,,,,,38.993938,-76.939613,14.03,30.2,29.0,3.0,0.8
357,399122,1745478671196,0.0,131.0,,-0.14,0.09,1.01,-4.0,0.0,0.0,1.02,1.1,93.0,2854.0,0.0,2.74,,12.44,1.252,86.2,,20.8,5.0,,,,,,,,,,,,0,0,0,0,0,0,0,0,0,0,0,0,0,0,0,0,,,,,,0.0,,,,,,,
358,399142,1745478671216,,,,,,,,,,,,,,,,,,,,,,,,,,,,,,,,,,0,0,0,0,0,0,0,0,0,0,0,0,0,0,0,0,,,,,,,,,,,,,
359,399162,1745478671236,0.0,131.0,,-0.15,0.07,1.03,-4.0,0.0,0.0,1.04,1.1,95.0,2764.0,0.0,2.77,,12.44,1.252,86.2,,20.5,5.0,,,,,,,,,,,,0,0,0,0,0,0,0,0,0,0,0,0,0,0,0,0,,,,,,0.0,,,,,,,
360,399182,1745478671256,,,,,,,,,,,,,,,,,,,,,,,,,,,,,,,,,,0,0,0,0,0,0,0,0,0,0,0,0,0,0,0,0,,,,,,,,,,,,,
361,399202,1745478671276,0.0,132.0,,-0.14,0.09,1.0,-4.0,0.0,0.0,1.02,1.1,93.0,2764.0,0.0,2.77,,12.51,1.251,86.2,,20.5,5.0,9.0,0.0,8.0,8.0,0.0,32.0,0.0,0.0,2.27,,,0,0,0,0,0,0,0,0,0,0,0,0,0,0,0,0,,1.0,,,,0.0,38.993935,-76.939613,13.68,30.2,29.0,3.0,0.8
362,399222,1745478671298,,,,,,,,,,,,,,,,,,,,,,,,,,,,,,,,,,0,0,0,0,0,0,0,0,0,0,0,0,0,0,0,0,,,,,,,,,,,,,
363,399242,1745478671318,0.0,131.0,,-0.14,0.09,0.98,-3.0,0.0,0.0,0.99,1.1,90.0,2787.0,0.0,2.79,,12.57,1.253,86.2,,19.9,5.0,,,,,,,,,,,,0,0,0,0,0,0,0,0,0,0,0,0,0,0,0,0,,,,,,0.0,,,,,,,
364,399262,1745478671338,,,,,,,,,,,,,,,,,,,,,,,,,,,,,,,,,,0,0,0,0,0,0,0,0,0,0,0,0,0,0,0,0,,,,,,,,,,,,,
365,399282,1745478671358,0.0,132.0,,-0.16,0.07,1.02,-3.0,0.0,0.0,1.04,1.1,95.0,2749.0,0.0,2.78,,12.64,1.254,86.2,,19.9,5.0,,,,,,,,,,,,0,0,0,0,0,0,0,0,0,0,0,0,0,0,0,0,,,,,,0.0,,,,,,,
366,399302,1745478671378,,,,,,,,,,,,,,,,,,,,,,,8.0,0.0,8.0,8.0,0.0,33.0,0.0,0.0,2.26,,,0,0,0,0,0,0,0,0,0,0,0,0,0,0,0,0,,1.0,,,,,38.993935,-76.939613,13.56,30.2,29.0,3.0,0.8
367,399322,1745478671397,0.0,132.0,,-0.15,0.09,1.01,-2.0,0.0,0.0,1.03,1.1,94.0,2774.0,0.0,2.86,,12.69,1.254,86.2,,19.9,5.0,,,,,,,,,,,,0,0,0,0,0,0,0,0,0,0,0,0,0,0,0,0,,,,,,0.0,,,,,,,
368,399342,1745478671417,,,,,,,,,,,,,,,,,,,,,,,,,,,,,,,,,,0,0,0,0,0,0,0,0,0,0,0,0,0,0,0,0,,,,,,,,,,,,,
369,399362,1745478671437,0.0,132.0,,-0.17,0.09,1.02,-2.0,0.0,0.0,1.04,1.1,95.0,2655.0,0.0,2.86,,12.69,1.254,86.2,,19.4,5.0,,,,,,,,,,,,0,0,0,0,0,0,0,0,0,0,0,0,0,0,0,0,,,,,,0.0,,,,,,,
370,399382,1745478671457,,,,,,,,,,,,,,,,,,,,,,,,,,,,,,,,,,0,0,0,0,0,0,0,0,0,0,0,0,0,0,0,0,,,,,,,,,,,,,
371,399402,1745478671477,0.0,132.0,13.43,-0.15,0.09,1.0,-2.0,0.0,0.0,1.02,1.1,93.0,2655.0,0.0,2.86,15.0,12.77,1.252,86.2,171.0,19.4,5.0,8.0,0.0,8.0,8.0,0.0,25.0,0.0,0.0,2.26,0.0,1.0,0,0,0,0,0,0,0,0,0,0,0,0,0,0,0,0,0.0,1.0,1.0,0.0,0.0,0.0,38.993931,-76.939613,12.84,30.2,29.0,3.0,0.8
372,399422,1745478671493,,,,,,,,,,,,,,,,,,,,,,,,,,,,,,,,,,0,0,0,0,0,0,0,0,0,0,0,0,0,0,0,0,,,,,,,,,,,,,
373,399442,1745478671513,0.0,132.0,,-0.17,0.08,1.01,-2.0,0.0,0.0,1.03,1.1,94.0,2696.0,0.0,2.92,,12.79,1.251,86.2,,19.5,5.0,,,,,,,,,,,,0,0,0,0,0,0,0,0,0,0,0,0,0,0,0,0,,,,,,0.0,,,,,,,
374,399462,1745478671533,,,,,,,,,,,,,,,,,,,,,,,,,,,,,,,,,,0,0,0,0,0,0,0,0,0,0,0,0,0,0,0,0,,,,,,,,,,,,,
375,399482,1745478671553,0.0,131.0,,-0.16,0.11,1.0,-2.0,0.0,0.0,1.02,1.1,93.0,2653.0,0.0,2.89,,12.85,1.251,86.2,,19.5,5.0,,,,,,,,,,,,0,0,0,0,0,0,0,0,0,0,0,0,0,0,0,0,,,,,,0.0,,,,,,,
