,Interval,Utc,FrontBP,SteerAng,Battery,AccelX,AccelY,AccelZ,Yaw,Pitch,Roll,Gsum,GsumMax,GsumPct,RPM,TPS,InjectorPW,Baro,MAP,Lambda,IAT,EngineTemp,EOP,EOT,WSFR,WSFL,WSRR,WSRL,TCSet,TCSlip,TCComp,TCCut,Analog8,OilTemp,AA_On,ThermLF1,ThermLF2,ThermRR1,ThermRR2,ThermLF3,ThermLF4,ThermLF5,ThermLF6,ThermLF7,ThermLF8,ThermRR3,ThermRR4,ThermRR5,ThermRR6,ThermRR7,ThermRR8,AA_LowDrag,Gear,AA_On1,AA_LowDrag1,Fuel_Mix,AA_Packages,Latitude,Longitude,Speed,Altitude,GPSSats,GPSQual,GPSDOP
0,22973,1745476678936,0.0,122.0,,-0.1,-0.0,0.8,1.0,0.0,-1.0,0.81,0.81,100.0,12794.0,16.3,1.88,,6.67,1.051,91.6,,66.7,5.0,,,,,,,,,,,,0,0,0,0,0,0,0,0,0,0,0,0,0,0,0,0,,,,,,0.0,,,,,,,
1,22993,1745476678956,,,,,,,,,,,,,,,,,,,,,,,,,,,,,,,,,,0,0,0,0,0,0,0,0,0,0,0,0,0,0,0,0,,,,,,,,,,,,,
2,23013,1745476678976,0.0,135.0,,-0.05,0.02,0.79,3.0,0.0,-1.0,0.79,0.81,98.0,12569.0,15.2,1.9,,6.59,1.089,91.6,,61.5,5.0,,,,,,,,,,,,0,0,0,0,0,0,0,0,0,0,0,0,0,0,0,0,,,,,,0.0,,,,,,,
3,23033,1745476678996,,,,,,,,,,,,,,,,,,,,,,,,,,,,,,,,,,0,0,0,0,0,0,0,0,0,0,0,0,0,0,0,0,,,,,,,,,,,,,
4,23053,1745476679010,0.0,105.0,,0.02,0.03,0.7,4.0,0.0,-1.0,0.7,0.81,86.0,12342.0,13.8,1.94,,6.38,1.12,91.6,,61.5,5.0,0.0,0.0,0.0,0.0,0.0,0.0,0.0,0.0,2.25,,,0,0,0,0,0,0,0,0,0,0,0,0,0,0,0,0,,0.0,,,,0.0,38.994095,-76.939652,0.4,32.7,19.0,2.0,1.4
5,23073,1745476679030,,,,,,,,,,,,,,,,,,,,,,,,,,,,,,,,,,0,0,0,0,0,0,0,0,0,0,0,0,0,0,0,0,,,,,,,,,,,,,
6,23093,1745476679050,0.0,132.0,,0.05,0.17,0.83,4.0,0.0,-1.0,0.85,0.85,100.0,12139.0,11.7,1.92,,6.2,1.152,91.6,,61.5,5.0,,,,,,,,,,,,0,0,0,0,0,0,0,0,0,0,0,0,0,0,0,0,,,,,,0.0,,,,,,,
7,23113,1745476679070,,,,,,,,,,,,,,,,,,,,,,,,,,,,,,,,,,0,0,0,0,0,0,0,0,0,0,0,0,0,0,0,0,,,,,,,,,,,,,
8,23133,1745476679090,0.0,132.0,,0.08,0.27,0.98,3.0,0.0,0.0,1.02,1.02,100.0,11914.0,10.3,1.78,,6.2,1.152,91.6,,63.6,5.0,,,,,,,,,,,,0,0,0,0,0,0,0,0,0,0,0,0,0,0,0,0,,,,,,0.0,,,,,,,
9,23153,1745476679116,,,,,,,,,,,,,,,,,,,,,,,0.0,0.0,0.0,0.0,0.0,0.0,0.0,0.0,2.27,,,0,0,0,0,0,0,0,0,0,0,0,0,0,0,0,0,,0.0,,,,,38.994095,-76.939652,0.39,32.7,19.0,2.0,1.4
10,23173,1745476679136,0.0,125.0,,0.08,0.34,1.02,2.0,0.0,0.0,1.07,1.07,100.0,11914.0,10.3,1.78,,5.94,1.134,91.6,,63.6,5.0,,,,,,,,,,,,0,0,0,0,0,0,0,0,0,0,0,0,0,0,0,0,,,,,,0.0,,,,,,,
11,23193,1745476679156,,,,,,,,,,,,,,,,,,,,,,,,,,,,,,,,,,0,0,0,0,0,0,0,0,0,0,0,0,0,0,0,0,,,,,,,,,,,,,
12,23213,1745476679176,0.0,132.0,,0.11,0.24,1.04,2.0,0.0,-1.0,1.07,1.07,100.0,11685.0,10.1,1.68,,5.87,1.094,91.6,,55.7,5.0,,,,,,,,,,,,0,0,0,0,0,0,0,0,0,0,0,0,0,0,0,0,,,,,,0.0,,,,,,,
13,23233,1745476679196,,,,,,,,,,,,,,,,,,,,,,,,,,,,,,,,,,0,0,0,0,0,0,0,0,0,0,0,0,0,0,0,0,,,,,,,,,,,,,
14,23253,1745476679216,0.0,135.0,,0.08,0.2,0.96,3.0,0.0,-1.0,0.98,1.07,91.0,11380.0,10.6,1.66,,5.95,1.092,89.8,,55.7,5.0,0.0,0.0,0.0,0.0,0.0,0.0,0.0,0.0,2.27,,,0,0,0,0,0,0,0,0,0,0,0,0,0,0,0,0,,0.0,,,,0.0,38.994095,-76.939652,0.04,32.6,19.0,2.0,1.4
15,23273,1745476679236,,,,,,,,,,,,,,,,,,,,,,,,,,,,,,,,,,0,0,0,0,0,0,0,0,0,0,0,0,0,0,0,0,,,,,,,,,,,,,
16,23293,1745476679256,0.0,122.0,,0.05,0.29,0.97,2.0,0.0,-1.0,1.01,1.07,94.0,11037.0,10.8,1.71,,6.1,1.148,89.8,,55.7,5.0,,,,,,,,,,,,0,0,0,0,0,0,0,0,0,0,0,0,0,0,0,0,,,,,,0.0,,,,,,,
17,23313,1745476679276,,,,,,,,,,,,,,,,,,,,,,,,,,,,,,,,,,0,0,0,0,0,0,0,0,0,0,0,0,0,0,0,0,,,,,,,,,,,,,
18,23333,1745476679296,0.0,135.0,,0.01,0.02,1.04,3.0,0.0,-1.0,1.04,1.07,97.0,10701.0,11.6,1.77,,6.1,1.148,89.8,,56.3,5.0,,,,,,,,,,,,0,0,0,0,0,0,0,0,0,0,0,0,0,0,0,0,,,,,,0.0,,,,,,,
19,23353,1745476679315,,,,,,,,,,,,,,,,,,,,,,,0.0,0.0,0.0,0.0,0.0,0.0,0.0,0.0,2.26,,,0,0,0,0,0,0,0,0,0,0,0,0,0,0,0,0,,0.0,,,,,38.994095,-76.939652,0.04,32.6,19.0,2.0,1.4
20,23373,1745476679335,0.0,132.0,,-0.05,0.46,0.95,2.0,0.0,-1.0,1.06,1.07,98.0,10701.0,11.6,1.77,,6.31,1.225,89.8,,56.3,5.0,,,,,,,,,,,,0,0,0,0,0,0,0,0,0,0,0,0,0,0,0,0,,,,,,0.0,,,,,,,
21,23393,1745476679355,,,,,,,,,,,,,,,,,,,,,,,,,,,,,,,,,,0,0,0,0,0,0,0,0,0,0,0,0,0,0,0,0,,,,,,,,,,,,,
22,23413,1745476679375,0.0,135.0,,-0.09,0.8,1.01,1.0,0.0,1.0,1.3,1.3,100.0,10411.0,11.9,1.88,,6.63,1.251,89.8,,55.9,5.0,,,,,,,,,,,,0,0,0,0,0,0,0,0,0,0,0,0,0,0,0,0,,,,,,0.0,,,,,,,
23,23433,1745476679395,,,,,,,,,,,,,,,,,,,,,,,,,,,,,,,,,,0,0,0,0,0,0,0,0,0,0,0,0,0,0,0,0,,,,,,,,,,,,,
24,23453,1745476679417,0.0,134.0,14.35,-0.06,0.48,0.95,2.0,0.0,0.0,1.06,1.3,82.0,10217.0,12.1,1.98,15.0,6.74,1.251,89.8,149.0,55.9,5.0,0.0,0.0,0.0,0.0,0.0,0.0,0.0,0.0,2.26,0.0,1.0,0,0,0,0,0,0,0,0,0,0,0,0,0,0,0,0,0.0,0.0,1.0,0.0,0.0,0.0,38.994095,-76.939652,0.09,32.6,19.0,2.0,1.4
25,23473,1745476679437,,,,,,,,,,,,,,,,,,,,,,,,,,,,,,,,,,0,0,0,0,0,0,0,0,0,0,0,0,0,0,0,0,,,,,,,,,,,,,
26,23493,1745476679457,0.0,135.0,,-0.08,0.39,0.92,1.0,0.0,0.0,1.0,1.3,77.0,10087.0,12.2,2.0,,6.88,1.251,89.8,,55.9,5.0,,,,,,,,,,,,0,0,0,0,0,0,0,0,0,0,0,0,0,0,0,0,,,,,,0.0,,,,,,,
27,23513,1745476679477,,,,,,,,,,,,,,,,,,,,,,,,,,,,,,,,,,0,0,0,0,0,0,0,0,0,0,0,0,0,0,0,0,,,,,,,,,,,,,
28,23533,1745476679497,0.0,135.0,,-0.05,0.33,0.93,2.0,0.0,0.0,0.99,1.3,77.0,9968.0,12.2,2.03,,6.88,1.251,89.8,,52.9,5.0,,,,,,,,,,,,0,0,0,0,0,0,0,0,0,0,0,0,0,0,0,0,,,,,,0.0,,,,,,,
29,23553,1745476679515,,,,,,,,,,,,,,,,,,,,,,,0.0,0.0,0.0,0.0,0.0,0.0,0.0,0.0,2.26,,,0,0,0,0,0,0,0,0,0,0,0,0,0,0,0,0,,0.0,,,,,38.994095,-76.939652,0.13,32.6,19.0,2.0,1.4
30,23573,1745476679535,0.0,132.0,,-0.08,0.35,0.9,1.0,0.0,0.0,0.97,1.3,75.0,9968.0,12.2,2.03,,6.83,1.25,89.8,,52.9,5.0,,,,,,,,,,,,0,0,0,0,0,0,0,0,0,0,0,0,0,0,0,0,,,,,,0.0,,,,,,,
31,23593,1745476679555,,,,,,,,,,,,,,,,,,,,,,,,,,,,,,,,,,0,0,0,0,0,0,0,0,0,0,0,0,0,0,0,0,,,,,,,,,,,,,
32,23613,1745476679575,0.0,129.0,,-0.06,0.26,0.89,1.0,0.0,-1.0,0.93,1.3,71.0,9868.0,12.2,2.07,,6.82,1.248,89.8,,52.6,5.0,,,,,,,,,,,,0,0,0,0,0,0,0,0,0,0,0,0,0,0,0,0,,,,,,0.0,,,,,,,
33,23633,1745476679595,,,,,,,,,,,,,,,,,,,,,,,,,,,,,,,,,,0,0,0,0,0,0,0,0,0,0,0,0,0,0,0,0,,,,,,,,,,,,,
34,23653,1745476679617,0.0,135.0,,-0.08,0.15,0.88,1.0,0.0,0.0,0.9,1.3,69.0,9840.0,11.9,2.05,,6.88,1.245,89.8,,52.6,5.0,0.0,0.0,0.0,0.0,0.0,0.0,0.0,0.0,2.26,,,0,0,0,0,0,0,0,0,0,0,0,0,0,0,0,0,,0.0,,,,0.0,38.994095,-76.939652,0.08,32.5,19.0,2.0,1.4
35,23673,1745476679637,,,,,,,,,,,,,,,,,,,,,,,,,,,,,,,,,,0,0,0,0,0,0,0,0,0,0,0,0,0,0,0,0,,,,,,,,,,,,,
36,23693,1745476679657,0.0,129.0,,-0.1,0.15,0.87,1.0,0.0,0.0,0.89,1.3,69.0,9795.0,11.7,2.07,,6.91,1.226,89.8,,52.6,5.0,,,,,,,,,,,,0,0,0,0,0,0,0,0,0,0,0,0,0,0,0,0,,,,,,0.0,,,,,,,
37,23713,1745476679677,,,,,,,,,,,,,,,,,,,,,,,,,,,,,,,,,,0,0,0,0,0,0,0,0,0,0,0,0,0,0,0,0,,,,,,,,,,,,,
38,23733,1745476679697,0.0,135.0,,-0.1,0.2,0.88,1.0,0.0,0.0,0.91,1.3,70.0,9755.0,11.6,2.03,,6.91,1.226,89.8,,51.3,5.0,,,,,,,,,,,,0,0,0,0,0,0,0,0,0,0,0,0,0,0,0,0,,,,,,0.0,,,,,,,
39,23753,1745476679717,,,,,,,,,,,,,,,,,,,,,,,0.0,0.0,0.0,0.0,0.0,0.0,0.0,0.0,2.27,,,0,0,0,0,0,0,0,0,0,0,0,0,0,0,0,0,,0.0,,,,,38.994095,-76.939652,0.07,32.4,19.0,2.0,1.4
40,23773,1745476679737,0.0,135.0,,-0.1,0.16,0.89,1.0,0.0,-1.0,0.91,1.3,70.0,9755.0,11.6,2.03,,6.87,1.224,89.8,,51.3,5.0,,,,,,,,,,,,0,0,0,0,0,0,0,0,0,0,0,0,0,0,0,0,,,,,,0.0,,,,,,,
41,23793,1745476679757,,,,,,,,,,,,,,,,,,,,,,,,,,,,,,,,,,0,0,0,0,0,0,0,0,0,0,0,0,0,0,0,0,,,,,,,,,,,,,
42,23813,1745476679777,0.0,135.0,,-0.14,0.12,0.91,0.0,0.0,0.0,0.92,1.3,71.0,9615.0,11.6,2.09,,6.88,1.211,89.8,,51.7,5.0,,,,,,,,,,,,0,0,0,0,0,0,0,0,0,0,0,0,0,0,0,0,,,,,,0.0,,,,,,,
43,23833,1745476679797,,,,,,,,,,,,,,,,,,,,,,,,,,,,,,,,,,0,0,0,0,0,0,0,0,0,0,0,0,0,0,0,0,,,,,,,,,,,,,
44,23853,1745476679817,0.0,129.0,,-0.13,0.2,0.97,1.0,0.0,0.0,1.0,1.3,77.0,9642.0,11.6,2.1,,6.95,1.25,89.8,,51.7,5.0,0.0,0.0,0.0,0.0,0.0,0.0,0.0,0.0,2.26,,,0,0,0,0,0,0,0,0,0,0,0,0,0,0,0,0,,0.0,,,,0.0,38.994095,-76.939652,0.04,32.4,19.0,2.0,1.4
45,23873,1745476679837,,,,,,,,,,,,,,,,,,,,,,,,,,,,,,,,,,0,0,0,0,0,0,0,0,0,0,0,0,0,0,0,0,,,,,,,,,,,,,
46,23893,1745476679857,0.0,132.0,,-0.12,0.25,0.92,1.0,0.0,0.0,0.96,1.3,74.0,9625.0,11.6,2.11,,7.0,1.204,89.8,,51.7,5.0,,,,,,,,,,,,0,0,0,0,0,0,0,0,0,0,0,0,0,0,0,0,,,,,,0.0,,,,,,,
47,23913,1745476679877,,,,,,,,,,,,,,,,,,,,,,,,,,,,,,,,,,0,0,0,0,0,0,0,0,0,0,0,0,0,0,0,0,,,,,,,,,,,,,
48,23933,1745476679897,0.0,122.0,,-0.12,0.17,0.97,1.0,0.0,0.0,0.99,1.3,76.0,9625.0,11.7,2.12,,7.0,1.204,89.8,,51.2,5.0,,,,,,,,,,,,0,0,0,0,0,0,0,0,0,0,0,0,0,0,0,0,,,,,,0.0,,,,,,,
49,23953,1745476679917,,,,,,,,,,,,,,,,,,,,,,,0.0,0.0,0.0,0.0,0.0,0.0,0.0,0.0,2.26,,,0,0,0,0,0,0,0,0,0,0,0,0,0,0,0,0,,0.0,,,,,38.994095,-76.939652,0.12,32.3,19.0,2.0,1.4
50,23973,1745476679937,0.0,122.0,,-0.12,0.14,1.0,1.0,0.0,0.0,1.02,1.3,78.0,9625.0,11.7,2.12,,7.0,1.168,89.8,,51.2,5.0,,,,,,,,,,,,0,0,0,0,0,0,0,0,0,0,0,0,0,0,0,0,,,,,,0.0,,,,,,,
51,23993,1745476679957,,,,,,,,,,,,,,,,,,,,,,,,,,,,,,,,,,0,0,0,0,0,0,0,0,0,0,0,0,0,0,0,0,,,,,,,,,,,,,
52,24013,1745476679977,0.0,135.0,,-0.12,0.1,1.0,1.0,0.0,0.0,1.01,1.3,78.0,9550.0,11.8,2.12,,6.98,1.175,89.8,,51.5,5.0,,,,,,,,,,,,0,0,0,0,0,0,0,0,0,0,0,0,0,0,0,0,,,,,,0.0,,,,,,,
53,24033,1745476679997,,,,,,,,,,,,,,,,,,,,,,,,,,,,,,,,,,0,0,0,0,0,0,0,0,0,0,0,0,0,0,0,0,,,,,,,,,,,,,
54,24053,1745476680009,0.0,135.0,,-0.09,0.16,1.03,1.0,0.0,0.0,1.04,1.3,81.0,9511.0,11.7,2.13,,6.95,1.188,89.8,,51.5,5.0,0.0,0.0,0.0,0.0,0.0,0.0,0.0,0.0,2.26,,,0,0,0,0,0,0,0,0,0,0,0,0,0,0,0,0,,0.0,,,,0.0,38.994095,-76.939652,0.08,32.3,19.0,2.0,1.4
55,24073,1745476680029,,,,,,,,,,,,,,,,,,,,,,,,,,,,,,,,,,0,0,0,0,0,0,0,0,0,0,0,0,0,0,0,0,,,,,,,,,,,,,
56,24093,1745476680049,0.0,135.0,,-0.09,0.02,1.03,0.0,0.0,0.0,1.03,1.3,80.0,9485.0,11.4,2.08,,6.83,1.171,89.8,,51.5,5.0,,,,,,,,,,,,0,0,0,0,0,0,0,0,0,0,0,0,0,0,0,0,,,,,,0.0,,,,,,,
57,24113,1745476680069,,,,,,,,,,,,,,,,,,,,,,,,,,,,,,,,,,0,0,0,0,0,0,0,0,0,0,0,0,0,0,0,0,,,,,,,,,,,,,
58,24133,1745476680089,0.0,132.0,,-0.11,0.16,0.95,-1.0,0.0,0.0,0.97,1.3,75.0,9485.0,11.4,2.08,,6.83,1.171,89.8,,50.8,5.0,,,,,,,,,,,,0,0,0,0,0,0,0,0,0,0,0,0,0,0,0,0,,,,,,0.0,,,,,,,
59,24153,1745476680117,,,,,,,,,,,,,,,,,,,,,,,0.0,0.0,0.0,0.0,0.0,0.0,0.0,0.0,2.26,,,0,0,0,0,0,0,0,0,0,0,0,0,0,0,0,0,,0.0,,,,,38.994095,-76.939652,0.05,32.2,19.0,2.0,1.4
60,24173,1745476680137,0.0,115.0,,-0.1,0.13,1.02,-1.0,0.0,0.0,1.04,1.3,80.0,9357.0,10.5,2.06,,6.68,1.182,89.8,,50.8,5.0,,,,,,,,,,,,0,0,0,0,0,0,0,0,0,0,0,0,0,0,0,0,,,,,,0.0,,,,,,,
61,24193,1745476680157,,,,,,,,,,,,,,,,,,,,,,,,,,,,,,,,,,0,0,0,0,0,0,0,0,0,0,0,0,0,0,0,0,,,,,,,,,,,,,
62,24213,1745476680177,0.0,122.0,,-0.07,0.33,1.0,0.0,0.0,0.0,1.05,1.3,81.0,9297.0,9.7,2.04,,6.63,1.247,89.8,,50.5,5.0,,,,,,,,,,,,0,0,0,0,0,0,0,0,0,0,0,0,0,0,0,0,,,,,,0.0,,,,,,,
63,24233,1745476680197,,,,,,,,,,,,,,,,,,,,,,,,,,,,,,,,,,0,0,0,0,0,0,0,0,0,0,0,0,0,0,0,0,,,,,,,,,,,,,
64,24253,1745476680213,0.0,115.0,,-0.09,0.23,0.97,0.0,0.0,0.0,1.0,1.3,77.0,9085.0,8.5,1.99,,6.47,1.249,88.0,,50.5,5.0,0.0,0.0,0.0,0.0,0.0,0.0,0.0,0.0,2.26,,,0,0,0,0,0,0,0,0,0,0,0,0,0,0,0,0,,0.0,,,,0.0,38.994095,-76.939652,0.04,32.2,19.0,2.0,1.4
65,24273,1745476680233,,,,,,,,,,,,,,,,,,,,,,,,,,,,,,,,,,0,0,0,0,0,0,0,0,0,0,0,0,0,0,0,0,,,,,,,,,,,,,
66,24293,1745476680253,0.0,125.0,,-0.12,0.13,0.93,0.0,0.0,0.0,0.94,1.3,73.0,8946.0,7.9,1.98,,6.4,1.249,88.0,,50.5,5.0,,,,,,,,,,,,0,0,0,0,0,0,0,0,0,0,0,0,0,0,0,0,,,,,,0.0,,,,,,,
67,24313,1745476680273,,,,,,,,,,,,,,,,,,,,,,,,,,,,,,,,,,0,0,0,0,0,0,0,0,0,0,0,0,0,0,0,0,,,,,,,,,,,,,
68,24333,1745476680293,0.0,122.0,,-0.09,0.23,0.92,1.0,0.0,0.0,0.96,1.3,74.0,8799.0,7.0,1.94,,6.4,1.249,88.0,,49.9,5.0,,,,,,,,,,,,0,0,0,0,0,0,0,0,0,0,0,0,0,0,0,0,,,,,,0.0,,,,,,,
69,24353,1745476680316,,,,,,,,,,,,,,,,,,,,,,,0.0,0.0,0.0,0.0,0.0,0.0,0.0,0.0,2.26,,,0,0,0,0,0,0,0,0,0,0,0,0,0,0,0,0,,0.0,,,,,38.994095,-76.939652,0.04,32.2,19.0,2.0,1.4
70,24373,1745476680336,0.0,135.0,,-0.05,0.23,0.96,1.0,0.0,0.0,0.99,1.3,76.0,8799.0,7.0,1.94,,6.4,1.238,88.0,,49.9,5.0,,,,,,,,,,,,0,0,0,0,0,0,0,0,0,0,0,0,0,0,0,0,,,,,,0.0,,,,,,,
71,24393,1745476680356,,,,,,,,,,,,,,,,,,,,,,,,,,,,,,,,,,0,0,0,0,0,0,0,0,0,0,0,0,0,0,0,0,,,,,,,,,,,,,
72,24413,1745476680376,0.0,129.0,,-0.09,0.17,0.95,0.0,0.0,0.0,0.97,1.3,75.0,8695.0,6.5,1.87,,6.3,1.225,88.0,,49.5,5.0,,,,,,,,,,,,0,0,0,0,0,0,0,0,0,0,0,0,0,0,0,0,,,,,,0.0,,,,,,,
73,24433,1745476680396,,,,,,,,,,,,,,,,,,,,,,,,,,,,,,,,,,0,0,0,0,0,0,0,0,0,0,0,0,0,0,0,0,,,,,,,,,,,,,
74,24453,1745476680416,0.0,132.0,13.53,-0.07,0.13,0.97,0.0,0.0,0.0,0.99,1.3,76.0,8487.0,6.4,1.91,15.0,6.26,1.175,88.0,149.0,49.5,5.0,0.0,0.0,0.0,0.0,0.0,0.0,0.0,0.0,2.26,0.0,1.0,0,0,0,0,0,0,0,0,0,0,0,0,0,0,0,0,0.0,0.0,1.0,0.0,0.0,0.0,38.994095,-76.939652,0.11,32.1,19.0,2.0,1.4
75,24473,1745476680436,,,,,,,,,,,,,,,,,,,,,,,,,,,,,,,,,,0,0,0,0,0,0,0,0,0,0,0,0,0,0,0,0,,,,,,,,,,,,,
76,24493,1745476680456,0.0,132.0,,-0.07,0.03,0.99,1.0,0.0,0.0,0.99,1.3,76.0,8272.0,5.6,1.85,,6.26,1.175,88.0,,49.5,5.0,,,,,,,,,,,,0,0,0,0,0,0,0,0,0,0,0,0,0,0,0,0,,,,,,0.0,,,,,,,
77,24513,1745476680476,,,,,,,,,,,,,,,,,,,,,,,,,,,,,,,,,,0,0,0,0,0,0,0,0,0,0,0,0,0,0,0,0,,,,,,,,,,,,,
78,24533,1745476680496,0.0,122.0,,-0.09,-0.02,0.98,1.0,0.0,0.0,0.99,1.3,76.0,8001.0,5.3,1.9,,6.38,1.163,88.0,,49.0,5.0,,,,,,,,,,,,0,0,0,0,0,0,0,0,0,0,0,0,0,0,0,0,,,,,,0.0,,,,,,,
79,24553,1745476680516,,,,,,,,,,,,,,,,,,,,,,,0.0,0.0,0.0,0.0,0.0,0.0,0.0,0.0,2.26,,,0,0,0,0,0,0,0,0,0,0,0,0,0,0,0,0,,0.0,,,,,38.994095,-76.939652,0.04,32.1,19.0,2.0,1.4
80,24573,1745476680536,0.0,122.0,,-0.07,-0.03,1.05,0.0,0.0,0.0,1.05,1.3,81.0,8001.0,5.3,1.9,,6.43,1.223,88.0,,49.0,5.0,,,,,,,,,,,,0,0,0,0,0,0,0,0,0,0,0,0,0,0,0,0,,,,,,0.0,,,,,,,
81,24593,1745476680556,,,,,,,,,,,,,,,,,,,,,,,,,,,,,,,,,,0,0,0,0,0,0,0,0,0,0,0,0,0,0,0,0,,,,,,,,,,,,,
82,24613,1745476680576,0.0,108.0,,-0.06,0.1,1.06,1.0,0.0,0.0,1.06,1.3,82.0,7767.0,5.0,1.93,,6.44,1.25,88.0,,49.6,5.0,,,,,,,,,,,,0,0,0,0,0,0,0,0,0,0,0,0,0,0,0,0,,,,,,0.0,,,,,,,
83,24633,1745476680596,,,,,,,,,,,,,,,,,,,,,,,,,,,,,,,,,,0,0,0,0,0,0,0,0,0,0,0,0,0,0,0,0,,,,,,,,,,,,,
84,24653,1745476680616,0.0,125.0,,-0.08,0.21,1.07,1.0,0.0,0.0,1.1,1.3,85.0,7502.0,5.0,1.95,,6.59,1.249,88.0,,49.6,5.0,0.0,0.0,0.0,0.0,0.0,0.0,0.0,0.0,2.26,,,0,0,0,0,0,0,0,0,0,0,0,0,0,0,0,0,,0.0,,,,0.0,38.994095,-76.939652,0.04,32.1,19.0,2.0,1.4
85,24673,1745476680636,,,,,,,,,,,,,,,,,,,,,,,,,,,,,,,,,,0,0,0,0,0,0,0,0,0,0,0,0,0,0,0,0,,,,,,,,,,,,,
86,24693,1745476680656,0.0,132.0,,-0.06,0.3,1.07,2.0,0.0,0.0,1.11,1.3,86.0,7317.0,4.8,2.01,,6.66,1.248,88.0,,49.6,5.0,,,,,,,,,,,,0,0,0,0,0,0,0,0,0,0,0,0,0,0,0,0,,,,,,0.0,,,,,,,
87,24713,1745476680676,,,,,,,,,,,,,,,,,,,,,,,,,,,,,,,,,,0,0,0,0,0,0,0,0,0,0,0,0,0,0,0,0,,,,,,,,,,,,,
88,24733,1745476680696,0.0,125.0,,-0.04,0.16,1.04,1.0,0.0,0.0,1.06,1.3,81.0,7175.0,4.5,2.08,,6.66,1.248,88.0,,48.8,5.0,,,,,,,,,,,,0,0,0,0,0,0,0,0,0,0,0,0,0,0,0,0,,,,,,0.0,,,,,,,
89,24753,1745476680716,,,,,,,,,,,,,,,,,,,,,,,0.0,0.0,0.0,0.0,0.0,0.0,0.0,0.0,2.26,,,0,0,0,0,0,0,0,0,0,0,0,0,0,0,0,0,,0.0,,,,,38.994095,-76.939652,0.07,32.1,19.0,2.0,1.4
90,24773,1745476680736,0.0,125.0,,-0.07,0.18,1.05,1.0,0.0,0.0,1.07,1.3,82.0,7175.0,4.5,2.08,,6.86,1.248,88.0,,48.8,5.0,,,,,,,,,,,,0,0,0,0,0,0,0,0,0,0,0,0,0,0,0,0,,,,,,0.0,,,,,,,
91,24793,1745476680756,,,,,,,,,,,,,,,,,,,,,,,,,,,,,,,,,,0,0,0,0,0,0,0,0,0,0,0,0,0,0,0,0,,,,,,,,,,,,,
92,24813,1745476680776,0.0,105.0,,-0.07,0.02,1.02,0.0,0.0,0.0,1.02,1.3,79.0,7045.0,4.4,2.1,,7.07,1.248,88.0,,49.5,5.0,,,,,,,,,,,,0,0,0,0,0,0,0,0,0,0,0,0,0,0,0,0,,,,,,0.0,,,,,,,
93,24833,1745476680796,,,,,,,,,,,,,,,,,,,,,,,,,,,,,,,,,,0,0,0,0,0,0,0,0,0,0,0,0,0,0,0,0,,,,,,,,,,,,,
94,24853,1745476680816,0.0,112.0,,-0.06,0.02,1.0,0.0,0.0,0.0,1.0,1.3,77.0,6971.0,4.4,2.14,,7.23,1.189,88.0,,49.5,5.0,0.0,0.0,0.0,0.0,0.0,0.0,0.0,0.0,2.27,,,0,0,0,0,0,0,0,0,0,0,0,0,0,0,0,0,,0.0,,,,0.0,38.994095,-76.939652,0.07,32.1,19.0,2.0,1.4
95,24873,1745476680836,,,,,,,,,,,,,,,,,,,,,,,,,,,,,,,,,,0,0,0,0,0,0,0,0,0,0,0,0,0,0,0,0,,,,,,,,,,,,,
96,24893,1745476680856,0.0,119.0,,-0.05,0.05,1.02,1.0,0.0,0.0,1.03,1.3,79.0,6935.0,4.4,2.18,,7.33,1.122,88.0,,49.5,5.0,,,,,,,,,,,,0,0,0,0,0,0,0,0,0,0,0,0,0,0,0,0,,,,,,0.0,,,,,,,
97,24913,1745476680876,,,,,,,,,,,,,,,,,,,,,,,,,,,,,,,,,,0,0,0,0,0,0,0,0,0,0,0,0,0,0,0,0,,,,,,,,,,,,,
98,24933,1745476680896,0.0,115.0,,-0.05,0.03,1.04,0.0,0.0,0.0,1.04,1.3,80.0,6902.0,6.7,2.34,,7.33,1.122,88.0,,48.8,5.0,,,,,,,,,,,,0,0,0,0,0,0,0,0,0,0,0,0,0,0,0,0,,,,,,0.0,,,,,,,
99,24953,1745476680916,,,,,,,,,,,,,,,,,,,,,,,0.0,0.0,0.0,0.0,0.0,0.0,0.0,0.0,2.26,,,0,0,0,0,0,0,0,0,0,0,0,0,0,0,0,0,,0.0,,,,,38.994095,-76.939652,0.08,32.1,19.0,2.0,1.4
100,24973,1745476680936,0.0,119.0,,-0.04,-0.02,1.02,0.0,0.0,0.0,1.02,1.3,79.0,6902.0,6.7,2.34,,7.82,1.098,88.0,,48.8,5.0,,,,,,,,,,,,0,0,0,0,0,0,0,0,0,0,0,0,0,0,0,0,,,,,,0.0,,,,,,,
101,24993,1745476680956,,,,,,,,,,,,,,,,,,,,,,,,,,,,,,,,,,0,0,0,0,0,0,0,0,0,0,0,0,0,0,0,0,,,,,,,,,,,,,
102,25013,1745476680976,0.0,129.0,,-0.05,-0.07,0.99,0.0,0.0,0.0,0.99,1.3,77.0,6943.0,7.5,2.62,,8.1,1.079,88.0,,48.6,5.0,,,,,,,,,,,,0,0,0,0,0,0,0,0,0,0,0,0,0,0,0,0,,,,,,0.0,,,,,,,
103,25033,1745476680996,,,,,,,,,,,,,,,,,,,,,,,,,,,,,,,,,,0,0,0,0,0,0,0,0,0,0,0,0,0,0,0,0,,,,,,,,,,,,,
104,25053,1745476681010,0.0,125.0,,-0.06,0.01,1.02,0.0,0.0,0.0,1.02,1.3,78.0,7021.0,7.7,2.8,,8.38,1.072,88.0,,48.6,5.0,0.0,0.0,0.0,0.0,0.0,0.0,0.0,0.0,2.26,,,0,0,0,0,0,0,0,0,0,0,0,0,0,0,0,0,,0.0,,,,0.0,38.994095,-76.939652,0.1,32.1,19.0,2.0,1.4
105,25073,1745476681030,,,,,,,,,,,,,,,,,,,,,,,,,,,,,,,,,,0,0,0,0,0,0,0,0,0,0,0,0,0,0,0,0,,,,,,,,,,,,,
106,25093,1745476681050,0.0,115.0,,-0.06,-0.14,0.99,-1.0,0.0,0.0,1.0,1.3,77.0,7064.0,7.7,2.86,,8.47,1.064,88.0,,48.6,5.0,,,,,,,,,,,,0,0,0,0,0,0,0,0,0,0,0,0,0,0,0,0,,,,,,0.0,,,,,,,
107,25113,1745476681070,,,,,,,,,,,,,,,,,,,,,,,,,,,,,,,,,,0,0,0,0,0,0,0,0,0,0,0,0,0,0,0,0,,,,,,,,,,,,,
108,25133,1745476681090,0.0,122.0,,-0.07,-0.05,1.02,0.0,0.0,0.0,1.02,1.3,79.0,7233.0,7.7,2.84,,8.47,1.064,88.0,,49.0,5.0,,,,,,,,,,,,0,0,0,0,0,0,0,0,0,0,0,0,0,0,0,0,,,,,,0.0,,,,,,,
109,25153,1745476681112,,,,,,,,,,,,,,,,,,,,,,,0.0,0.0,0.0,0.0,0.0,0.0,0.0,0.0,2.26,,,0,0,0,0,0,0,0,0,0,0,0,0,0,0,0,0,,0.0,,,,,38.994095,-76.939652,0.17,32.1,19.0,2.0,1.4
110,25173,1745476681132,0.0,115.0,,-0.03,-0.1,1.01,0.0,0.0,0.0,1.02,1.3,79.0,7233.0,7.7,2.84,,8.51,1.051,88.0,,49.0,5.0,,,,,,,,,,,,0,0,0,0,0,0,0,0,0,0,0,0,0,0,0,0,,,,,,0.0,,,,,,,
111,25193,1745476681152,,,,,,,,,,,,,,,,,,,,,,,,,,,,,,,,,,0,0,0,0,0,0,0,0,0,0,0,0,0,0,0,0,,,,,,,,,,,,,
112,25213,1745476681172,0.0,102.0,,-0.03,-0.16,1.0,0.0,0.0,0.0,1.02,1.3,78.0,7391.0,7.6,2.86,,8.43,1.045,88.0,,49.5,5.0,,,,,,,,,,,,0,0,0,0,0,0,0,0,0,0,0,0,0,0,0,0,,,,,,0.0,,,,,,,
113,25233,1745476681192,,,,,,,,,,,,,,,,,,,,,,,,,,,,,,,,,,0,0,0,0,0,0,0,0,0,0,0,0,0,0,0,0,,,,,,,,,,,,,
114,25253,1745476681214,0.0,119.0,,-0.01,-0.22,1.03,-1.0,0.0,0.0,1.05,1.3,81.0,7568.0,7.4,2.78,,8.19,1.041,88.0,,49.5,5.0,0.0,0.0,0.0,0.0,0.0,0.0,0.0,0.0,2.27,,,0,0,0,0,0,0,0,0,0,0,0,0,0,0,0,0,,0.0,,,,0.0,38.994095,-76.939652,0.11,32.1,19.0,2.0,1.4
115,25273,1745476681234,,,,,,,,,,,,,,,,,,,,,,,,,,,,,,,,,,0,0,0,0,0,0,0,0,0,0,0,0,0,0,0,0,,,,,,,,,,,,,
116,25293,1745476681254,0.0,119.0,,-0.01,-0.18,1.05,0.0,0.0,0.0,1.06,1.3,82.0,7784.0,7.0,2.71,,8.09,1.039,88.0,,49.5,5.0,,,,,,,,,,,,0,0,0,0,0,0,0,0,0,0,0,0,0,0,0,0,,,,,,0.0,,,,,,,
117,25313,1745476681274,,,,,,,,,,,,,,,,,,,,,,,,,,,,,,,,,,0,0,0,0,0,0,0,0,0,0,0,0,0,0,0,0,,,,,,,,,,,,,
118,25333,1745476681294,0.0,119.0,,0.0,-0.32,1.03,0.0,0.0,0.0,1.08,1.3,83.0,7956.0,5.3,2.43,,8.09,1.039,88.0,,48.3,5.0,,,,,,,,,,,,0,0,0,0,0,0,0,0,0,0,0,0,0,0,0,0,,,,,,0.0,,,,,,,
119,25353,1745476681318,,,,,,,,,,,,,,,,,,,,,,,0.0,0.0,0.0,0.0,0.0,0.0,0.0,0.0,2.27,,,0,0,0,0,0,0,0,0,0,0,0,0,0,0,0,0,,0.0,,,,,38.994095,-76.939652,0.06,32.1,19.0,2.0,1.4
120,25373,1745476681338,0.0,119.0,,0.0,-0.3,1.02,0.0,0.0,0.0,1.06,1.3,82.0,7956.0,5.3,2.43,,7.75,1.035,88.0,,48.3,5.0,,,,,,,,,,,,0,0,0,0,0,0,0,0,0,0,0,0,0,0,0,0,,,,,,0.0,,,,,,,
121,25393,1745476681358,,,,,,,,,,,,,,,,,,,,,,,,,,,,,,,,,,0,0,0,0,0,0,0,0,0,0,0,0,0,0,0,0,,,,,,,,,,,,,
122,25413,1745476681378,0.0,105.0,,-0.01,-0.22,1.05,1.0,0.0,0.0,1.08,1.3,83.0,8038.0,3.8,1.97,,7.37,1.031,88.0,,48.5,5.0,,,,,,,,,,,,0,0,0,0,0,0,0,0,0,0,0,0,0,0,0,0,,,,,,0.0,,,,,,,
123,25433,1745476681398,,,,,,,,,,,,,,,,,,,,,,,,,,,,,,,,,,0,0,0,0,0,0,0,0,0,0,0,0,0,0,0,0,,,,,,,,,,,,,
124,25453,1745476681417,0.0,115.0,13.5,-0.02,-0.37,1.04,0.0,0.0,0.0,1.1,1.3,85.0,7947.0,3.0,1.56,15.0,7.08,1.034,88.0,151.0,48.5,5.0,0.0,0.0,0.0,0.0,0.0,0.0,0.0,0.0,2.26,0.0,1.0,0,0,0,0,0,0,0,0,0,0,0,0,0,0,0,0,0.0,0.0,1.0,0.0,0.0,0.0,38.994095,-76.939652,0.08,32.1,19.0,2.0,1.4
125,25473,1745476681437,,,,,,,,,,,,,,,,,,,,,,,,,,,,,,,,,,0,0,0,0,0,0,0,0,0,0,0,0,0,0,0,0,,,,,,,,,,,,,
126,25493,1745476681457,0.0,108.0,,-0.01,-0.26,1.03,0.0,0.0,0.0,1.06,1.3,82.0,7561.0,2.7,1.4,,6.79,1.059,88.0,,48.5,5.0,,,,,,,,,,,,0,0,0,0,0,0,0,0,0,0,0,0,0,0,0,0,,,,,,0.0,,,,,,,
127,25513,1745476681477,,,,,,,,,,,,,,,,,,,,,,,,,,,,,,,,,,0,0,0,0,0,0,0,0,0,0,0,0,0,0,0,0,,,,,,,,,,,,,
128,25533,1745476681497,0.0,105.0,,-0.01,-0.36,1.01,-1.0,0.0,0.0,1.07,1.3,83.0,7103.0,2.8,1.4,,6.79,1.059,88.0,,49.1,5.0,,,,,,,,,,,,0,0,0,0,0,0,0,0,0,0,0,0,0,0,0,0,,,,,,0.0,,,,,,,
129,25553,1745476681513,,,,,,,,,,,,,,,,,,,,,,,0.0,0.0,0.0,0.0,0.0,0.0,0.0,0.0,2.26,,,0,0,0,0,0,0,0,0,0,0,0,0,0,0,0,0,,0.0,,,,,38.994095,-76.939652,0.08,32.1,19.0,2.0,1.4
130,25573,1745476681533,0.0,112.0,,-0.04,-0.33,0.99,-1.0,0.0,0.0,1.04,1.3,80.0,7103.0,2.8,1.4,,6.66,1.14,88.0,,49.1,5.0,,,,,,,,,,,,0,0,0,0,0,0,0,0,0,0,0,0,0,0,0,0,,,,,,0.0,,,,,,,
131,25593,1745476681553,,,,,,,,,,,,,,,,,,,,,,,,,,,,,,,,,,0,0,0,0,0,0,0,0,0,0,0,0,0,0,0,0,,,,,,,,,,,,,
132,25613,1745476681573,0.0,108.0,,-0.05,-0.25,1.04,-1.0,0.0,0.0,1.07,1.3,83.0,6620.0,2.8,1.46,,6.95,1.251,88.0,,48.4,5.0,,,,,,,,,,,,0,0,0,0,0,0,0,0,0,0,0,0,0,0,0,0,,,,,,0.0,,,,,,,
133,25633,1745476681593,,,,,,,,,,,,,,,,,,,,,,,,,,,,,,,,,,0,0,0,0,0,0,0,0,0,0,0,0,0,0,0,0,,,,,,,,,,,,,
134,25653,1745476681613,0.0,119.0,,-0.08,-0.13,1.02,-1.0,0.0,0.0,1.03,1.3,79.0,6200.0,2.9,1.62,,7.31,1.25,88.0,,48.4,5.0,0.0,0.0,0.0,0.0,0.0,0.0,0.0,0.0,2.26,,,0,0,0,0,0,0,0,0,0,0,0,0,0,0,0,0,,0.0,,,,0.0,38.994095,-76.939652,0.16,32.1,19.0,2.0,1.4
135,25673,1745476681633,,,,,,,,,,,,,,,,,,,,,,,,,,,,,,,,,,0,0,0,0,0,0,0,0,0,0,0,0,0,0,0,0,,,,,,,,,,,,,
136,25693,1745476681653,0.0,112.0,,-0.15,0.08,1.05,-1.0,0.0,0.0,1.07,1.3,82.0,5781.0,2.8,1.72,,7.69,1.249,88.0,,48.4,5.0,,,,,,,,,,,,0,0,0,0,0,0,0,0,0,0,0,0,0,0,0,0,,,,,,0.0,,,,,,,
137,25713,1745476681673,,,,,,,,,,,,,,,,,,,,,,,,,,,,,,,,,,0,0,0,0,0,0,0,0,0,0,0,0,0,0,0,0,,,,,,,,,,,,,
138,25733,1745476681693,0.0,119.0,,-0.1,-0.09,1.02,-2.0,0.0,0.0,1.03,1.3,79.0,5452.0,2.6,1.9,,7.69,1.249,88.0,,46.9,5.0,,,,,,,,,,,,0,0,0,0,0,0,0,0,0,0,0,0,0,0,0,0,,,,,,0.0,,,,,,,
139,25753,1745476681715,,,,,,,,,,,,,,,,,,,,,,,0.0,0.0,0.0,0.0,0.0,0.0,0.0,0.0,2.26,,,0,0,0,0,0,0,0,0,0,0,0,0,0,0,0,0,,0.0,,,,,38.994095,-76.939652,0.07,32.1,19.0,2.0,1.4
140,25773,1745476681735,0.0,115.0,,-0.11,-0.09,1.04,-1.0,0.0,0.0,1.05,1.3,81.0,5452.0,2.6,1.9,,8.19,1.248,88.0,,46.9,5.0,,,,,,,,,,,,0,0,0,0,0,0,0,0,0,0,0,0,0,0,0,0,,,,,,0.0,,,,,,,
141,25793,1745476681755,,,,,,,,,,,,,,,,,,,,,,,,,,,,,,,,,,0,0,0,0,0,0,0,0,0,0,0,0,0,0,0,0,,,,,,,,,,,,,
142,25813,1745476681775,0.0,95.0,,-0.11,-0.04,1.07,-1.0,0.0,0.0,1.07,1.3,83.0,5040.0,2.5,1.94,,8.63,1.249,88.0,,44.8,5.0,,,,,,,,,,,,0,0,0,0,0,0,0,0,0,0,0,0,0,0,0,0,,,,,,0.0,,,,,,,
143,25833,1745476681795,,,,,,,,,,,,,,,,,,,,,,,,,,,,,,,,,,0,0,0,0,0,0,0,0,0,0,0,0,0,0,0,0,,,,,,,,,,,,,
144,25853,1745476681813,0.0,108.0,,-0.12,0.06,1.11,0.0,0.0,0.0,1.12,1.3,86.0,4753.0,2.5,2.05,,9.13,1.249,88.0,,44.8,5.0,0.0,0.0,0.0,0.0,0.0,0.0,0.0,0.0,2.27,,,0,0,0,0,0,0,0,0,0,0,0,0,0,0,0,0,,0.0,,,,0.0,38.994099,-76.939652,0.04,32.1,19.0,2.0,1.4
145,25873,1745476681833,,,,,,,,,,,,,,,,,,,,,,,,,,,,,,,,,,0,0,0,0,0,0,0,0,0,0,0,0,0,0,0,0,,,,,,,,,,,,,
146,25893,1745476681853,0.0,102.0,,-0.14,0.07,1.14,0.0,0.0,1.0,1.15,1.3,89.0,4521.0,2.7,2.19,,9.54,1.25,88.0,,44.8,5.0,,,,,,,,,,,,0,0,0,0,0,0,0,0,0,0,0,0,0,0,0,0,,,,,,0.0,,,,,,,
147,25913,1745476681873,,,,,,,,,,,,,,,,,,,,,,,,,,,,,,,,,,0,0,0,0,0,0,0,0,0,0,0,0,0,0,0,0,,,,,,,,,,,,,
148,25933,1745476681893,0.0,115.0,,-0.14,0.14,1.21,3.0,0.0,1.0,1.22,1.3,94.0,4262.0,3.6,2.44,,9.54,1.25,88.0,,40.2,5.0,,,,,,,,,,,,0,0,0,0,0,0,0,0,0,0,0,0,0,0,0,0,,,,,,0.0,,,,,,,
149,25953,1745476681917,,,,,,,,,,,,,,,,,,,,,,,0.0,0.0,0.0,0.0,0.0,0.0,0.0,0.0,2.26,,,0,0,0,0,0,0,0,0,0,0,0,0,0,0,0,0,,0.0,,,,,38.994099,-76.939652,0.05,32.2,19.0,2.0,1.4
150,25973,1745476681937,0.0,115.0,,-0.12,0.03,1.12,0.0,0.0,1.0,1.13,1.3,87.0,4262.0,3.6,2.44,,10.14,1.252,88.0,,40.2,5.0,,,,,,,,,,,,0,0,0,0,0,0,0,0,0,0,0,0,0,0,0,0,,,,,,0.0,,,,,,,
151,25993,1745476681957,,,,,,,,,,,,,,,,,,,,,,,,,,,,,,,,,,0,0,0,0,0,0,0,0,0,0,0,0,0,0,0,0,,,,,,,,,,,,,
152,26013,1745476681977,0.0,108.0,,-0.12,0.09,1.12,1.0,0.0,1.0,1.13,1.3,87.0,4020.0,5.1,2.67,,10.69,1.252,88.0,,34.6,5.0,,,,,,,,,,,,0,0,0,0,0,0,0,0,0,0,0,0,0,0,0,0,,,,,,0.0,,,,,,,
153,26033,1745476681997,,,,,,,,,,,,,,,,,,,,,,,,,,,,,,,,,,0,0,0,0,0,0,0,0,0,0,0,0,0,0,0,0,,,,,,,,,,,,,
154,26053,1745476682009,0.0,119.0,,-0.1,0.1,1.1,1.0,0.0,1.0,1.11,1.3,86.0,3767.0,6.2,3.62,,11.28,1.252,88.0,,34.6,5.0,0.0,0.0,0.0,0.0,0.0,0.0,0.0,0.0,2.26,,,0,0,0,0,0,0,0,0,0,0,0,0,0,0,0,0,,0.0,,,,0.0,38.994099,-76.939652,0.0,32.2,19.0,2.0,1.4
155,26073,1745476682029,,,,,,,,,,,,,,,,,,,,,,,,,,,,,,,,,,0,0,0,0,0,0,0,0,0,0,0,0,0,0,0,0,,,,,,,,,,,,,
156,26093,1745476682049,0.0,112.0,,-0.1,0.06,1.06,1.0,0.0,0.0,1.07,1.3,82.0,3712.0,7.2,3.7,,11.81,1.252,88.0,,34.6,5.0,,,,,,,,,,,,0,0,0,0,0,0,0,0,0,0,0,0,0,0,0,0,,,,,,0.0,,,,,,,
157,26113,1745476682069,,,,,,,,,,,,,,,,,,,,,,,,,,,,,,,,,,0,0,0,0,0,0,0,0,0,0,0,0,0,0,0,0,,,,,,,,,,,,,
158,26133,1745476682089,0.0,102.0,,-0.1,0.05,1.09,-1.0,0.0,1.0,1.09,1.3,84.0,3602.0,7.8,3.77,,11.81,1.252,88.0,,32.3,5.0,,,,,,,,,,,,0,0,0,0,0,0,0,0,0,0,0,0,0,0,0,0,,,,,,0.0,,,,,,,
159,26153,1745476682115,,,,,,,,,,,,,,,,,,,,,,,0.0,0.0,0.0,0.0,0.0,0.0,0.0,0.0,2.26,,,0,0,0,0,0,0,0,0,0,0,0,0,0,0,0,0,,0.0,,,,,38.994099,-76.939652,0.04,32.2,19.0,2.0,1.4
160,26173,1745476682135,0.0,102.0,,-0.08,0.04,1.1,0.0,0.0,1.0,1.11,1.3,86.0,3602.0,7.8,3.77,,12.28,1.252,88.0,,32.3,5.0,,,,,,,,,,,,0,0,0,0,0,0,0,0,0,0,0,0,0,0,0,0,,,,,,0.0,,,,,,,
161,26193,1745476682155,,,,,,,,,,,,,,,,,,,,,,,,,,,,,,,,,,0,0,0,0,0,0,0,0,0,0,0,0,0,0,0,0,,,,,,,,,,,,,
162,26213,1745476682175,0.0,91.0,,-0.07,0.12,1.08,2.0,0.0,1.0,1.09,1.3,84.0,3570.0,7.8,3.81,,12.61,1.25,88.0,,30.9,5.0,,,,,,,,,,,,0,0,0,0,0,0,0,0,0,0,0,0,0,0,0,0,,,,,,0.0,,,,,,,
163,26233,1745476682195,,,,,,,,,,,,,,,,,,,,,,,,,,,,,,,,,,0,0,0,0,0,0,0,0,0,0,0,0,0,0,0,0,,,,,,,,,,,,,
164,26253,1745476682217,0.0,115.0,,-0.1,0.12,1.04,1.0,0.0,0.0,1.06,1.3,81.0,3526.0,7.6,3.8,,12.8,1.249,88.0,,30.9,5.0,0.0,0.0,0.0,0.0,0.0,0.0,0.0,0.0,2.26,,,0,0,0,0,0,0,0,0,0,0,0,0,0,0,0,0,,0.0,,,,0.0,38.994099,-76.939652,0.09,32.2,19.0,2.0,1.4
165,26273,1745476682237,,,,,,,,,,,,,,,,,,,,,,,,,,,,,,,,,,0,0,0,0,0,0,0,0,0,0,0,0,0,0,0,0,,,,,,,,,,,,,
166,26293,1745476682257,0.0,105.0,,-0.09,0.1,1.11,-1.0,0.0,1.0,1.12,1.3,86.0,3465.0,7.3,3.8,,13.0,1.25,88.0,,30.9,5.0,,,,,,,,,,,,0,0,0,0,0,0,0,0,0,0,0,0,0,0,0,0,,,,,,0.0,,,,,,,
167,26313,1745476682277,,,,,,,,,,,,,,,,,,,,,,,,,,,,,,,,,,0,0,0,0,0,0,0,0,0,0,0,0,0,0,0,0,,,,,,,,,,,,,
168,26333,1745476682297,0.0,112.0,,-0.08,0.19,1.05,1.0,0.0,0.0,1.07,1.3,82.0,3467.0,6.5,3.78,,13.0,1.25,88.0,,29.8,5.0,,,,,,,,,,,,0,0,0,0,0,0,0,0,0,0,0,0,0,0,0,0,,,,,,0.0,,,,,,,
169,26353,1745476682317,,,,,,,,,,,,,,,,,,,,,,,0.0,0.0,0.0,0.0,0.0,0.0,0.0,0.0,2.27,,,0,0,0,0,0,0,0,0,0,0,0,0,0,0,0,0,,0.0,,,,,38.994099,-76.939652,0.13,32.3,19.0,2.0,1.4
170,26373,1745476682337,0.0,119.0,,-0.11,0.13,1.06,-1.0,0.0,0.0,1.07,1.3,83.0,3467.0,6.5,3.78,,13.04,1.249,88.0,,29.8,5.0,,,,,,,,,,,,0,0,0,0,0,0,0,0,0,0,0,0,0,0,0,0,,,,,,0.0,,,,,,,
171,26393,1745476682357,,,,,,,,,,,,,,,,,,,,,,,,,,,,,,,,,,0,0,0,0,0,0,0,0,0,0,0,0,0,0,0,0,,,,,,,,,,,,,
172,26413,1745476682377,0.0,98.0,,-0.08,0.17,1.07,0.0,0.0,0.0,1.09,1.3,84.0,3422.0,5.9,3.69,,13.12,1.249,88.0,,29.3,5.0,,,,,,,,,,,,0,0,0,0,0,0,0,0,0,0,0,0,0,0,0,0,,,,,,0.0,,,,,,,
173,26433,1745476682397,,,,,,,,,,,,,,,,,,,,,,,,,,,,,,,,,,0,0,0,0,0,0,0,0,0,0,0,0,0,0,0,0,,,,,,,,,,,,,
174,26453,1745476682416,0.0,115.0,13.43,-0.12,0.11,1.04,-1.0,0.0,0.0,1.05,1.3,81.0,3427.0,5.5,3.63,15.0,13.11,1.25,88.0,151.0,29.3,5.0,0.0,0.0,0.0,0.0,0.0,0.0,0.0,0.0,2.26,0.0,1.0,0,0,0,0,0,0,0,0,0,0,0,0,0,0,0,0,0.0,0.0,1.0,0.0,0.0,0.0,38.994099,-76.939652,0.0,32.3,19.0,2.0,1.4
175,26473,1745476682436,,,,,,,,,,,,,,,,,,,,,,,,,,,,,,,,,,0,0,0,0,0,0,0,0,0,0,0,0,0,0,0,0,,,,,,,,,,,,,
176,26493,1745476682456,0.0,95.0,,-0.08,0.12,1.07,0.0,0.0,0.0,1.08,1.3,83.0,3364.0,5.4,3.63,,13.13,1.252,88.0,,29.3,5.0,,,,,,,,,,,,0,0,0,0,0,0,0,0,0,0,0,0,0,0,0,0,,,,,,0.0,,,,,,,
177,26513,1745476682476,,,,,,,,,,,,,,,,,,,,,,,,,,,,,,,,,,0,0,0,0,0,0,0,0,0,0,0,0,0,0,0,0,,,,,,,,,,,,,
178,26533,1745476682496,0.0,102.0,,-0.1,0.08,1.02,0.0,0.0,0.0,1.03,1.3,80.0,3343.0,5.6,3.64,,13.13,1.252,88.0,,29.2,5.0,,,,,,,,,,,,0,0,0,0,0,0,0,0,0,0,0,0,0,0,0,0,,,,,,0.0,,,,,,,
179,26553,1745476682514,,,,,,,,,,,,,,,,,,,,,,,0.0,0.0,0.0,0.0,0.0,0.0,0.0,0.0,2.26,,,0,0,0,0,0,0,0,0,0,0,0,0,0,0,0,0,,0.0,,,,,38.994099,-76.939644,0.08,32.3,19.0,2.0,1.4
180,26573,1745476682534,0.0,122.0,,-0.08,0.13,1.04,1.0,0.0,0.0,1.05,1.3,81.0,3343.0,5.6,3.64,,13.2,1.252,88.0,,29.2,5.0,,,,,,,,,,,,0,0,0,0,0,0,0,0,0,0,0,0,0,0,0,0,,,,,,0.0,,,,,,,
181,26593,1745476682554,,,,,,,,,,,,,,,,,,,,,,,,,,,,,,,,,,0,0,0,0,0,0,0,0,0,0,0,0,0,0,0,0,,,,,,,,,,,,,
182,26613,1745476682574,0.0,108.0,,-0.08,0.04,1.07,-1.0,0.0,0.0,1.08,1.3,83.0,3315.0,5.8,3.61,,13.2,1.251,88.0,,28.6,5.0,,,,,,,,,,,,0,0,0,0,0,0,0,0,0,0,0,0,0,0,0,0,,,,,,0.0,,,,,,,
183,26633,1745476682594,,,,,,,,,,,,,,,,,,,,,,,,,,,,,,,,,,0,0,0,0,0,0,0,0,0,0,0,0,0,0,0,0,,,,,,,,,,,,,
184,26653,1745476682614,0.0,105.0,,-0.1,0.05,0.98,0.0,0.0,0.0,0.99,1.3,76.0,3246.0,5.8,3.63,,13.28,1.251,88.0,,28.6,5.0,0.0,0.0,0.0,0.0,0.0,0.0,0.0,0.0,2.26,,,0,0,0,0,0,0,0,0,0,0,0,0,0,0,0,0,,0.0,,,,0.0,38.994099,-76.939644,0.12,32.4,19.0,2.0,1.4
185,26673,1745476682634,,,,,,,,,,,,,,,,,,,,,,,,,,,,,,,,,,0,0,0,0,0,0,0,0,0,0,0,0,0,0,0,0,,,,,,,,,,,,,
186,26693,1745476682654,0.0,98.0,,-0.06,0.08,1.01,1.0,0.0,0.0,1.02,1.3,79.0,3252.0,5.8,3.64,,13.24,1.25,88.0,,28.6,5.0,,,,,,,,,,,,0,0,0,0,0,0,0,0,0,0,0,0,0,0,0,0,,,,,,0.0,,,,,,,
187,26713,1745476682674,,,,,,,,,,,,,,,,,,,,,,,,,,,,,,,,,,0,0,0,0,0,0,0,0,0,0,0,0,0,0,0,0,,,,,,,,,,,,,
188,26733,1745476682694,0.0,95.0,,-0.06,0.03,1.08,-1.0,0.0,0.0,1.08,1.3,83.0,3192.0,5.7,3.63,,13.24,1.25,88.0,,28.0,5.0,,,,,,,,,,,,0,0,0,0,0,0,0,0,0,0,0,0,0,0,0,0,,,,,,0.0,,,,,,,
189,26753,1745476682714,,,,,,,,,,,,,,,,,,,,,,,0.0,0.0,0.0,0.0,0.0,0.0,0.0,0.0,2.26,,,0,0,0,0,0,0,0,0,0,0,0,0,0,0,0,0,,0.0,,,,,38.994099,-76.939644,0.13,32.4,19.0,2.0,1.4
190,26773,1745476682734,0.0,102.0,,-0.1,-0.01,1.01,-1.0,0.0,0.0,1.02,1.3,79.0,3192.0,5.7,3.63,,13.24,1.249,88.0,,28.0,5.0,,,,,,,,,,,,0,0,0,0,0,0,0,0,0,0,0,0,0,0,0,0,,,,,,0.0,,,,,,,
191,26793,1745476682754,,,,,,,,,,,,,,,,,,,,,,,,,,,,,,,,,,0,0,0,0,0,0,0,0,0,0,0,0,0,0,0,0,,,,,,,,,,,,,
192,26813,1745476682774,0.0,88.0,,-0.09,0.06,0.96,2.0,0.0,0.0,0.96,1.3,74.0,3186.0,5.5,3.64,,13.28,1.249,88.0,,27.5,5.0,,,,,,,,,,,,0,0,0,0,0,0,0,0,0,0,0,0,0,0,0,0,,,,,,0.0,,,,,,,
193,26833,1745476682794,,,,,,,,,,,,,,,,,,,,,,,,,,,,,,,,,,0,0,0,0,0,0,0,0,0,0,0,0,0,0,0,0,,,,,,,,,,,,,
194,26853,1745476682814,0.0,85.0,,-0.05,0.05,1.04,1.0,0.0,0.0,1.04,1.3,81.0,3198.0,5.4,3.64,,13.29,1.249,88.0,,27.5,5.0,0.0,0.0,0.0,0.0,0.0,0.0,0.0,0.0,2.27,,,0,0,0,0,0,0,0,0,0,0,0,0,0,0,0,0,,0.0,,,,0.0,38.994099,-76.939644,0.13,32.4,19.0,2.0,1.4
195,26873,1745476682834,,,,,,,,,,,,,,,,,,,,,,,,,,,,,,,,,,0,0,0,0,0,0,0,0,0,0,0,0,0,0,0,0,,,,,,,,,,,,,
196,26893,1745476682854,0.0,91.0,,-0.06,0.0,1.08,-2.0,0.0,0.0,1.08,1.3,84.0,3191.0,5.4,3.65,,13.32,1.249,88.0,,27.5,5.0,,,,,,,,,,,,0,0,0,0,0,0,0,0,0,0,0,0,0,0,0,0,,,,,,0.0,,,,,,,
197,26913,1745476682874,,,,,,,,,,,,,,,,,,,,,,,,,,,,,,,,,,0,0,0,0,0,0,0,0,0,0,0,0,0,0,0,0,,,,,,,,,,,,,
198,26933,1745476682894,0.0,108.0,,-0.11,-0.05,1.05,-2.0,0.0,0.0,1.06,1.3,81.0,3121.0,5.5,3.61,,13.32,1.249,88.0,,27.5,5.0,,,,,,,,,,,,0,0,0,0,0,0,0,0,0,0,0,0,0,0,0,0,,,,,,0.0,,,,,,,
199,26953,1745476682916,,,,,,,,,,,,,,,,,,,,,,,0.0,0.0,0.0,0.0,0.0,0.0,0.0,0.0,2.27,,,0,0,0,0,0,0,0,0,0,0,0,0,0,0,0,0,,0.0,,,,,38.994099,-76.939644,0.1,32.4,19.0,2.0,1.4
200,26973,1745476682936,0.0,115.0,,-0.12,0.0,0.95,0.0,0.0,0.0,0.96,1.3,74.0,3121.0,5.5,3.61,,13.35,1.25,88.0,,27.5,5.0,,,,,,,,,,,,0,0,0,0,0,0,0,0,0,0,0,0,0,0,0,0,,,,,,0.0,,,,,,,
201,26993,1745476682956,,,,,,,,,,,,,,,,,,,,,,,,,,,,,,,,,,0,0,0,0,0,0,0,0,0,0,0,0,0,0,0,0,,,,,,,,,,,,,
202,27013,1745476682976,0.0,105.0,,-0.08,0.04,0.96,2.0,0.0,0.0,0.97,1.3,75.0,3175.0,5.5,3.61,,13.36,1.252,88.0,,26.9,5.0,,,,,,,,,,,,0,0,0,0,0,0,0,0,0,0,0,0,0,0,0,0,,,,,,0.0,,,,,,,
203,27033,1745476682996,,,,,,,,,,,,,,,,,,,,,,,,,,,,,,,,,,0,0,0,0,0,0,0,0,0,0,0,0,0,0,0,0,,,,,,,,,,,,,
204,27053,1745476683010,0.0,98.0,,-0.03,0.04,1.03,0.0,0.0,0.0,1.03,1.3,80.0,3165.0,5.8,3.62,,13.36,1.252,88.0,,26.9,5.0,0.0,0.0,0.0,0.0,0.0,0.0,0.0,0.0,2.26,,,0,0,0,0,0,0,0,0,0,0,0,0,0,0,0,0,,0.0,,,,0.0,38.994099,-76.939644,0.15,32.4,19.0,2.0,1.4
205,27073,1745476683030,,,,,,,,,,,,,,,,,,,,,,,,,,,,,,,,,,0,0,0,0,0,0,0,0,0,0,0,0,0,0,0,0,,,,,,,,,,,,,
206,27093,1745476683050,0.0,98.0,,-0.05,-0.02,1.07,-2.0,0.0,0.0,1.07,1.3,83.0,3157.0,6.2,3.65,,13.4,1.251,88.0,,26.9,5.0,,,,,,,,,,,,0,0,0,0,0,0,0,0,0,0,0,0,0,0,0,0,,,,,,0.0,,,,,,,
207,27113,1745476683070,,,,,,,,,,,,,,,,,,,,,,,,,,,,,,,,,,0,0,0,0,0,0,0,0,0,0,0,0,0,0,0,0,,,,,,,,,,,,,
208,27133,1745476683090,0.0,95.0,,-0.09,-0.01,1.01,-1.0,0.0,0.0,1.01,1.3,78.0,3199.0,6.5,3.72,,13.4,1.251,88.0,,27.2,5.0,,,,,,,,,,,,0,0,0,0,0,0,0,0,0,0,0,0,0,0,0,0,,,,,,0.0,,,,,,,
209,27153,1745476683116,,,,,,,,,,,,,,,,,,,,,,,0.0,0.0,0.0,0.0,0.0,0.0,0.0,0.0,2.26,,,0,0,0,0,0,0,0,0,0,0,0,0,0,0,0,0,,0.0,,,,,38.994099,-76.939644,0.04,32.5,19.0,2.0,1.4
210,27173,1745476683136,0.0,105.0,,-0.08,0.05,0.97,2.0,0.0,0.0,0.98,1.3,75.0,3199.0,6.5,3.72,,13.39,1.252,88.0,,27.2,5.0,,,,,,,,,,,,0,0,0,0,0,0,0,0,0,0,0,0,0,0,0,0,,,,,,0.0,,,,,,,
211,27193,1745476683156,,,,,,,,,,,,,,,,,,,,,,,,,,,,,,,,,,0,0,0,0,0,0,0,0,0,0,0,0,0,0,0,0,,,,,,,,,,,,,
212,27213,1745476683176,0.0,88.0,,-0.05,0.03,1.04,1.0,0.0,0.0,1.04,1.3,80.0,3220.0,6.5,3.67,,13.39,1.25,88.0,,27.7,5.0,,,,,,,,,,,,0,0,0,0,0,0,0,0,0,0,0,0,0,0,0,0,,,,,,0.0,,,,,,,
213,27233,1745476683196,,,,,,,,,,,,,,,,,,,,,,,,,,,,,,,,,,0,0,0,0,0,0,0,0,0,0,0,0,0,0,0,0,,,,,,,,,,,,,
214,27253,1745476683216,0.0,102.0,,-0.05,-0.0,1.09,-1.0,0.0,0.0,1.09,1.3,84.0,3137.0,6.6,3.72,,13.41,1.249,88.0,,27.7,5.0,0.0,0.0,0.0,0.0,0.0,0.0,0.0,0.0,2.25,,,0,0,0,0,0,0,0,0,0,0,0,0,0,0,0,0,,0.0,,,,0.0,38.994099,-76.939644,0.04,32.5,19.0,2.0,1.4
215,27273,1745476683236,,,,,,,,,,,,,,,,,,,,,,,,,,,,,,,,,,0,0,0,0,0,0,0,0,0,0,0,0,0,0,0,0,,,,,,,,,,,,,
216,27293,1745476683256,0.0,108.0,,-0.1,-0.03,1.02,-1.0,0.0,0.0,1.03,1.3,79.0,3231.0,6.5,3.73,,13.41,1.25,88.0,,27.7,5.0,,,,,,,,,,,,0,0,0,0,0,0,0,0,0,0,0,0,0,0,0,0,,,,,,0.0,,,,,,,
217,27313,1745476683276,,,,,,,,,,,,,,,,,,,,,,,,,,,,,,,,,,0,0,0,0,0,0,0,0,0,0,0,0,0,0,0,0,,,,,,,,,,,,,
218,27333,1745476683296,0.0,102.0,,-0.08,0.04,0.97,1.0,0.0,0.0,0.97,1.3,75.0,3231.0,6.3,3.72,,13.41,1.25,88.0,,27.5,5.0,,,,,,,,,,,,0,0,0,0,0,0,0,0,0,0,0,0,0,0,0,0,,,,,,0.0,,,,,,,
219,27353,1745476683318,,,,,,,,,,,,,,,,,,,,,,,0.0,0.0,0.0,0.0,0.0,0.0,0.0,0.0,2.27,,,0,0,0,0,0,0,0,0,0,0,0,0,0,0,0,0,,0.0,,,,,38.994099,-76.939644,0.0,32.5,19.0,2.0,1.4
220,27373,1745476683338,0.0,115.0,,-0.04,0.01,1.05,0.0,0.0,0.0,1.05,1.3,81.0,3231.0,6.3,3.72,,13.41,1.249,88.0,,27.5,5.0,,,,,,,,,,,,0,0,0,0,0,0,0,0,0,0,0,0,0,0,0,0,,,,,,0.0,,,,,,,
221,27393,1745476683358,,,,,,,,,,,,,,,,,,,,,,,,,,,,,,,,,,0,0,0,0,0,0,0,0,0,0,0,0,0,0,0,0,,,,,,,,,,,,,
222,27413,1745476683378,0.0,95.0,,-0.08,-0.03,1.06,-2.0,0.0,0.0,1.06,1.3,82.0,3200.0,6.2,3.72,,13.44,1.25,88.0,,27.9,5.0,,,,,,,,,,,,0,0,0,0,0,0,0,0,0,0,0,0,0,0,0,0,,,,,,0.0,,,,,,,
223,27433,1745476683398,,,,,,,,,,,,,,,,,,,,,,,,,,,,,,,,,,0,0,0,0,0,0,0,0,0,0,0,0,0,0,0,0,,,,,,,,,,,,,
224,27453,1745476683417,0.0,98.0,13.38,-0.1,0.03,0.97,1.0,0.0,0.0,0.98,1.3,75.0,3252.0,6.2,3.7,15.0,13.43,1.25,88.0,153.0,27.9,5.0,0.0,0.0,0.0,0.0,0.0,0.0,0.0,0.0,2.27,0.0,1.0,0,0,0,0,0,0,0,0,0,0,0,0,0,0,0,0,0.0,0.0,1.0,0.0,0.0,0.0,38.994099,-76.939644,0.1,32.5,19.0,2.0,1.4
225,27473,1745476683437,,,,,,,,,,,,,,,,,,,,,,,,,,,,,,,,,,0,0,0,0,0,0,0,0,0,0,0,0,0,0,0,0,,,,,,,,,,,,,
226,27493,1745476683457,0.0,98.0,,-0.06,0.04,1.04,1.0,0.0,0.0,1.04,1.3,80.0,3256.0,6.2,3.73,,13.43,1.252,88.0,,27.9,5.0,,,,,,,,,,,,0,0,0,0,0,0,0,0,0,0,0,0,0,0,0,0,,,,,,0.0,,,,,,,
227,27513,1745476683477,,,,,,,,,,,,,,,,,,,,,,,,,,,,,,,,,,0,0,0,0,0,0,0,0,0,0,0,0,0,0,0,0,,,,,,,,,,,,,
228,27533,1745476683497,0.0,95.0,,-0.09,-0.01,1.05,-2.0,0.0,0.0,1.06,1.3,82.0,3234.0,6.3,3.7,,13.43,1.252,88.0,,28.3,5.0,,,,,,,,,,,,0,0,0,0,0,0,0,0,0,0,0,0,0,0,0,0,,,,,,0.0,,,,,,,
229,27553,1745476683513,,,,,,,,,,,,,,,,,,,,,,,0.0,0.0,0.0,0.0,0.0,0.0,0.0,0.0,2.26,,,0,0,0,0,0,0,0,0,0,0,0,0,0,0,0,0,,0.0,,,,,38.994099,-76.939644,0.13,32.5,19.0,2.0,1.4
230,27573,1745476683533,0.0,115.0,,-0.1,0.02,0.98,1.0,0.0,0.0,0.98,1.3,76.0,3234.0,6.3,3.7,,13.49,1.253,88.0,,28.3,5.0,,,,,,,,,,,,0,0,0,0,0,0,0,0,0,0,0,0,0,0,0,0,,,,,,0.0,,,,,,,
231,27593,1745476683553,,,,,,,,,,,,,,,,,,,,,,,,,,,,,,,,,,0,0,0,0,0,0,0,0,0,0,0,0,0,0,0,0,,,,,,,,,,,,,
232,27613,1745476683573,0.0,88.0,,-0.06,0.02,1.05,0.0,0.0,0.0,1.05,1.3,81.0,3299.0,6.4,3.7,,13.43,1.252,88.0,,28.2,5.0,,,,,,,,,,,,0,0,0,0,0,0,0,0,0,0,0,0,0,0,0,0,,,,,,0.0,,,,,,,
233,27633,1745476683593,,,,,,,,,,,,,,,,,,,,,,,,,,,,,,,,,,0,0,0,0,0,0,0,0,0,0,0,0,0,0,0,0,,,,,,,,,,,,,
234,27653,1745476683615,0.0,105.0,,-0.09,-0.02,1.02,-1.0,0.0,0.0,1.02,1.3,79.0,3247.0,6.6,3.75,,13.47,1.252,88.0,,28.2,5.0,0.0,0.0,0.0,0.0,0.0,0.0,0.0,0.0,2.26,,,0,0,0,0,0,0,0,0,0,0,0,0,0,0,0,0,,0.0,,,,0.0,38.994099,-76.939644,0.08,32.5,19.0,2.0,1.4
235,27673,1745476683635,,,,,,,,,,,,,,,,,,,,,,,,,,,,,,,,,,0,0,0,0,0,0,0,0,0,0,0,0,0,0,0,0,,,,,,,,,,,,,
236,27693,1745476683655,0.0,105.0,,-0.09,0.03,0.98,1.0,0.0,0.0,0.98,1.3,76.0,3220.0,6.8,3.75,,13.51,1.251,88.0,,28.2,5.0,,,,,,,,,,,,0,0,0,0,0,0,0,0,0,0,0,0,0,0,0,0,,,,,,0.0,,,,,,,
237,27713,1745476683675,,,,,,,,,,,,,,,,,,,,,,,,,,,,,,,,,,0,0,0,0,0,0,0,0,0,0,0,0,0,0,0,0,,,,,,,,,,,,,
238,27733,1745476683695,0.0,88.0,,-0.06,0.02,1.06,0.0,0.0,0.0,1.06,1.3,82.0,3292.0,6.8,3.77,,13.51,1.251,88.0,,27.8,5.0,,,,,,,,,,,,0,0,0,0,0,0,0,0,0,0,0,0,0,0,0,0,,,,,,0.0,,,,,,,
239,27753,1745476683715,,,,,,,,,,,,,,,,,,,,,,,0.0,0.0,0.0,0.0,0.0,0.0,0.0,0.0,2.26,,,0,0,0,0,0,0,0,0,0,0,0,0,0,0,0,0,,0.0,,,,,38.994099,-76.939644,0.08,32.5,19.0,2.0,1.4
240,27773,1745476683735,0.0,108.0,,-0.09,-0.02,1.0,-1.0,0.0,0.0,1.0,1.3,77.0,3292.0,6.8,3.77,,13.47,1.25,88.0,,27.8,5.0,,,,,,,,,,,,0,0,0,0,0,0,0,0,0,0,0,0,0,0,0,0,,,,,,0.0,,,,,,,
241,27793,1745476683755,,,,,,,,,,,,,,,,,,,,,,,,,,,,,,,,,,0,0,0,0,0,0,0,0,0,0,0,0,0,0,0,0,,,,,,,,,,,,,
242,27813,1745476683775,0.0,95.0,,-0.06,0.03,1.0,1.0,0.0,0.0,1.01,1.3,78.0,3306.0,6.7,3.77,,13.45,1.249,88.0,,28.8,5.0,,,,,,,,,,,,0,0,0,0,0,0,0,0,0,0,0,0,0,0,0,0,,,,,,0.0,,,,,,,
243,27833,1745476683795,,,,,,,,,,,,,,,,,,,,,,,,,,,,,,,,,,0,0,0,0,0,0,0,0,0,0,0,0,0,0,0,0,,,,,,,,,,,,,
244,27853,1745476683815,0.0,98.0,,-0.08,-0.03,1.03,-1.0,0.0,0.0,1.03,1.3,80.0,3369.0,6.6,3.75,,13.48,1.249,88.0,,28.8,5.0,0.0,0.0,0.0,0.0,0.0,0.0,0.0,0.0,2.26,,,0,0,0,0,0,0,0,0,0,0,0,0,0,0,0,0,,0.0,,,,0.0,38.994099,-76.939644,0.04,32.5,19.0,2.0,1.4
245,27873,1745476683835,,,,,,,,,,,,,,,,,,,,,,,,,,,,,,,,,,0,0,0,0,0,0,0,0,0,0,0,0,0,0,0,0,,,,,,,,,,,,,
246,27893,1745476683855,0.0,95.0,,-0.07,0.08,0.98,1.0,0.0,0.0,0.98,1.3,76.0,3349.0,6.4,3.77,,13.43,1.248,88.0,,28.8,5.0,,,,,,,,,,,,0,0,0,0,0,0,0,0,0,0,0,0,0,0,0,0,,,,,,0.0,,,,,,,
247,27913,1745476683875,,,,,,,,,,,,,,,,,,,,,,,,,,,,,,,,,,0,0,0,0,0,0,0,0,0,0,0,0,0,0,0,0,,,,,,,,,,,,,
248,27933,1745476683895,0.0,102.0,,-0.08,0.01,1.02,-1.0,0.0,0.0,1.03,1.3,79.0,3330.0,6.4,3.76,,13.43,1.248,88.0,,29.3,5.0,,,,,,,,,,,,0,0,0,0,0,0,0,0,0,0,0,0,0,0,0,0,,,,,,0.0,,,,,,,
249,27953,1745476683917,,,,,,,,,,,,,,,,,,,,,,,0.0,0.0,0.0,0.0,0.0,0.0,0.0,0.0,2.27,,,0,0,0,0,0,0,0,0,0,0,0,0,0,0,0,0,,0.0,,,,,38.994099,-76.939644,0.08,32.5,19.0,2.0,1.4
250,27973,1745476683937,0.0,108.0,,-0.08,0.06,0.96,1.0,0.0,0.0,0.97,1.3,75.0,3330.0,6.4,3.76,,13.44,1.249,88.0,,29.3,5.0,,,,,,,,,,,,0,0,0,0,0,0,0,0,0,0,0,0,0,0,0,0,,,,,,0.0,,,,,,,
251,27993,1745476683957,,,,,,,,,,,,,,,,,,,,,,,,,,,,,,,,,,0,0,0,0,0,0,0,0,0,0,0,0,0,0,0,0,,,,,,,,,,,,,
252,28013,1745476683977,0.0,98.0,,-0.07,-0.01,1.02,-1.0,0.0,0.0,1.02,1.3,79.0,3394.0,6.4,3.74,,13.43,1.25,88.0,,29.1,5.0,,,,,,,,,,,,0,0,0,0,0,0,0,0,0,0,0,0,0,0,0,0,,,,,,0.0,,,,,,,
253,28033,1745476683997,,,,,,,,,,,,,,,,,,,,,,,,,,,,,,,,,,0,0,0,0,0,0,0,0,0,0,0,0,0,0,0,0,,,,,,,,,,,,,
254,28053,1745476684011,0.0,88.0,,-0.08,0.05,0.97,1.0,0.0,0.0,0.98,1.3,75.0,3342.0,6.4,3.73,,13.39,1.252,88.0,,29.1,5.0,0.0,0.0,0.0,0.0,0.0,0.0,0.0,0.0,2.26,,,0,0,0,0,0,0,0,0,0,0,0,0,0,0,0,0,,0.0,,,,0.0,38.994099,-76.939644,0.05,32.5,20.0,2.0,1.4
255,28073,1745476684031,,,,,,,,,,,,,,,,,,,,,,,,,,,,,,,,,,0,0,0,0,0,0,0,0,0,0,0,0,0,0,0,0,,,,,,,,,,,,,
256,28093,1745476684051,0.0,95.0,,-0.08,-0.0,1.04,-2.0,0.0,0.0,1.05,1.3,81.0,3361.0,6.6,3.75,,13.4,1.251,88.0,,29.1,5.0,,,,,,,,,,,,0,0,0,0,0,0,0,0,0,0,0,0,0,0,0,0,,,,,,0.0,,,,,,,
257,28113,1745476684071,,,,,,,,,,,,,,,,,,,,,,,,,,,,,,,,,,0,0,0,0,0,0,0,0,0,0,0,0,0,0,0,0,,,,,,,,,,,,,
258,28133,1745476684091,0.0,95.0,,-0.08,0.05,0.96,1.0,0.0,0.0,0.97,1.3,75.0,3386.0,6.7,3.73,,13.4,1.251,88.0,,28.7,5.0,,,,,,,,,,,,0,0,0,0,0,0,0,0,0,0,0,0,0,0,0,0,,,,,,0.0,,,,,,,
259,28153,1745476684115,,,,,,,,,,,,,,,,,,,,,,,0.0,0.0,0.0,0.0,0.0,0.0,0.0,0.0,2.26,,,0,0,0,0,0,0,0,0,0,0,0,0,0,0,0,0,,0.0,,,,,38.994099,-76.939644,0.09,32.5,20.0,2.0,1.4
260,28173,1745476684135,0.0,105.0,,-0.06,0.01,1.06,-1.0,0.0,0.0,1.06,1.3,82.0,3386.0,6.7,3.73,,13.39,1.251,88.0,,28.7,5.0,,,,,,,,,,,,0,0,0,0,0,0,0,0,0,0,0,0,0,0,0,0,,,,,,0.0,,,,,,,
261,28193,1745476684155,,,,,,,,,,,,,,,,,,,,,,,,,,,,,,,,,,0,0,0,0,0,0,0,0,0,0,0,0,0,0,0,0,,,,,,,,,,,,,
262,28213,1745476684175,0.0,108.0,,-0.08,0.03,0.97,1.0,0.0,0.0,0.97,1.3,75.0,3314.0,6.8,3.75,,13.44,1.251,88.0,,28.9,5.0,,,,,,,,,,,,0,0,0,0,0,0,0,0,0,0,0,0,0,0,0,0,,,,,,0.0,,,,,,,
263,28233,1745476684195,,,,,,,,,,,,,,,,,,,,,,,,,,,,,,,,,,0,0,0,0,0,0,0,0,0,0,0,0,0,0,0,0,,,,,,,,,,,,,
264,28253,1745476684215,0.0,98.0,,-0.08,-0.04,1.03,-2.0,0.0,0.0,1.03,1.3,80.0,3436.0,6.9,3.76,,13.41,1.25,88.0,,28.9,5.0,0.0,0.0,0.0,0.0,0.0,0.0,0.0,0.0,2.26,,,0,0,0,0,0,0,0,0,0,0,0,0,0,0,0,0,,0.0,,,,0.0,38.994099,-76.939644,0.1,32.5,20.0,2.0,1.4
265,28273,1745476684235,,,,,,,,,,,,,,,,,,,,,,,,,,,,,,,,,,0,0,0,0,0,0,0,0,0,0,0,0,0,0,0,0,,,,,,,,,,,,,
266,28293,1745476684255,0.0,102.0,,-0.06,0.08,1.01,1.0,0.0,0.0,1.01,1.3,78.0,3412.0,6.9,3.78,,13.35,1.249,88.0,,28.9,5.0,,,,,,,,,,,,0,0,0,0,0,0,0,0,0,0,0,0,0,0,0,0,,,,,,0.0,,,,,,,
267,28313,1745476684275,,,,,,,,,,,,,,,,,,,,,,,,,,,,,,,,,,0,0,0,0,0,0,0,0,0,0,0,0,0,0,0,0,,,,,,,,,,,,,
268,28333,1745476684295,0.0,102.0,,-0.08,-0.02,1.01,-1.0,0.0,0.0,1.01,1.3,78.0,3448.0,6.7,3.76,,13.35,1.249,88.0,,29.7,5.0,,,,,,,,,,,,0,0,0,0,0,0,0,0,0,0,0,0,0,0,0,0,,,,,,0.0,,,,,,,
269,28353,1745476684316,,,,,,,,,,,,,,,,,,,,,,,0.0,0.0,0.0,0.0,0.0,0.0,0.0,0.0,2.26,,,0,0,0,0,0,0,0,0,0,0,0,0,0,0,0,0,,0.0,,,,,38.994099,-76.939644,0.11,32.5,20.0,2.0,1.4
270,28373,1745476684336,0.0,95.0,,-0.07,-0.01,1.04,0.0,0.0,0.0,1.04,1.3,80.0,3448.0,6.7,3.76,,13.36,1.249,88.0,,29.7,5.0,,,,,,,,,,,,0,0,0,0,0,0,0,0,0,0,0,0,0,0,0,0,,,,,,0.0,,,,,,,
271,28393,1745476684356,,,,,,,,,,,,,,,,,,,,,,,,,,,,,,,,,,0,0,0,0,0,0,0,0,0,0,0,0,0,0,0,0,,,,,,,,,,,,,
272,28413,1745476684376,0.0,105.0,,-0.08,-0.04,0.97,1.0,0.0,0.0,0.97,1.3,75.0,3461.0,6.5,3.75,,13.32,1.249,88.0,,30.2,5.0,,,,,,,,,,,,0,0,0,0,0,0,0,0,0,0,0,0,0,0,0,0,,,,,,0.0,,,,,,,
273,28433,1745476684396,,,,,,,,,,,,,,,,,,,,,,,,,,,,,,,,,,0,0,0,0,0,0,0,0,0,0,0,0,0,0,0,0,,,,,,,,,,,,,
274,28453,1745476684416,0.0,88.0,13.42,-0.08,-0.1,1.05,-1.0,0.0,0.0,1.06,1.3,82.0,3437.0,6.5,3.76,15.0,13.32,1.249,88.0,153.0,30.2,5.0,0.0,0.0,0.0,0.0,0.0,0.0,0.0,0.0,2.26,0.0,1.0,0,0,0,0,0,0,0,0,0,0,0,0,0,0,0,0,0.0,0.0,1.0,0.0,0.0,0.0,38.994099,-76.939644,0.04,32.5,20.0,2.0,1.4
275,28473,1745476684436,,,,,,,,,,,,,,,,,,,,,,,,,,,,,,,,,,0,0,0,0,0,0,0,0,0,0,0,0,0,0,0,0,,,,,,,,,,,,,
276,28493,1745476684456,0.0,85.0,,-0.06,-0.0,1.02,1.0,0.0,0.0,1.02,1.3,79.0,3498.0,6.6,3.77,,13.25,1.25,88.0,,30.2,5.0,,,,,,,,,,,,0,0,0,0,0,0,0,0,0,0,0,0,0,0,0,0,,,,,,0.0,,,,,,,
277,28513,1745476684476,,,,,,,,,,,,,,,,,,,,,,,,,,,,,,,,,,0,0,0,0,0,0,0,0,0,0,0,0,0,0,0,0,,,,,,,,,,,,,
278,28533,1745476684496,0.0,112.0,,-0.09,-0.01,0.98,0.0,0.0,0.0,0.99,1.3,76.0,3494.0,6.5,3.74,,13.25,1.25,88.0,,30.6,5.0,,,,,,,,,,,,0,0,0,0,0,0,0,0,0,0,0,0,0,0,0,0,,,,,,0.0,,,,,,,
279,28553,1745476684514,,,,,,,,,,,,,,,,,,,,,,,0.0,0.0,0.0,0.0,0.0,0.0,0.0,0.0,2.27,,,0,0,0,0,0,0,0,0,0,0,0,0,0,0,0,0,,0.0,,,,,38.994099,-76.939644,0.12,32.4,20.0,2.0,1.4
280,28573,1745476684534,0.0,102.0,,-0.08,-0.03,1.03,-2.0,0.0,0.0,1.03,1.3,79.0,3494.0,6.5,3.74,,13.27,1.252,88.0,,30.6,5.0,,,,,,,,,,,,0,0,0,0,0,0,0,0,0,0,0,0,0,0,0,0,,,,,,0.0,,,,,,,
281,28593,1745476684554,,,,,,,,,,,,,,,,,,,,,,,,,,,,,,,,,,0,0,0,0,0,0,0,0,0,0,0,0,0,0,0,0,,,,,,,,,,,,,
282,28613,1745476684574,0.0,85.0,,-0.08,0.01,1.04,-1.0,0.0,1.0,1.04,1.3,80.0,3534.0,6.6,3.74,,13.27,1.252,88.0,,30.9,5.0,,,,,,,,,,,,0,0,0,0,0,0,0,0,0,0,0,0,0,0,0,0,,,,,,0.0,,,,,,,
283,28633,1745476684594,,,,,,,,,,,,,,,,,,,,,,,,,,,,,,,,,,0,0,0,0,0,0,0,0,0,0,0,0,0,0,0,0,,,,,,,,,,,,,
284,28653,1745476684614,0.0,108.0,,-0.08,0.01,0.99,1.0,0.0,0.0,1.0,1.3,77.0,3551.0,6.7,3.75,,13.21,1.253,88.0,,30.9,5.0,0.0,0.0,0.0,0.0,0.0,0.0,0.0,0.0,2.26,,,0,0,0,0,0,0,0,0,0,0,0,0,0,0,0,0,,0.0,,,,0.0,38.994099,-76.939644,0.04,32.4,20.0,2.0,1.4
285,28673,1745476684634,,,,,,,,,,,,,,,,,,,,,,,,,,,,,,,,,,0,0,0,0,0,0,0,0,0,0,0,0,0,0,0,0,,,,,,,,,,,,,
286,28693,1745476684654,0.0,108.0,,-0.11,0.02,0.96,0.0,0.0,0.0,0.97,1.3,75.0,3655.0,6.9,3.75,,13.13,1.253,88.0,,30.9,5.0,,,,,,,,,,,,0,0,0,0,0,0,0,0,0,0,0,0,0,0,0,0,,,,,,0.0,,,,,,,
287,28713,1745476684674,,,,,,,,,,,,,,,,,,,,,,,,,,,,,,,,,,0,0,0,0,0,0,0,0,0,0,0,0,0,0,0,0,,,,,,,,,,,,,
288,28733,1745476684694,0.0,95.0,,-0.11,-0.03,0.97,-1.0,0.0,0.0,0.98,1.3,76.0,3631.0,6.7,3.76,,13.13,1.253,88.0,,32.1,5.0,,,,,,,,,,,,0,0,0,0,0,0,0,0,0,0,0,0,0,0,0,0,,,,,,0.0,,,,,,,
289,28753,1745476684714,,,,,,,,,,,,,,,,,,,,,,,0.0,0.0,0.0,0.0,0.0,0.0,0.0,0.0,2.26,,,0,0,0,0,0,0,0,0,0,0,0,0,0,0,0,0,,0.0,,,,,38.994099,-76.939644,0.0,32.4,20.0,2.0,1.4
290,28773,1745476684734,0.0,95.0,,-0.09,-0.04,0.97,-2.0,0.0,0.0,0.98,1.3,76.0,3631.0,6.7,3.76,,13.11,1.251,88.0,,32.1,5.0,,,,,,,,,,,,0,0,0,0,0,0,0,0,0,0,0,0,0,0,0,0,,,,,,0.0,,,,,,,
291,28793,1745476684754,,,,,,,,,,,,,,,,,,,,,,,,,,,,,,,,,,0,0,0,0,0,0,0,0,0,0,0,0,0,0,0,0,,,,,,,,,,,,,
292,28813,1745476684774,0.0,81.0,,-0.11,-0.03,1.0,-2.0,0.0,0.0,1.0,1.3,77.0,3670.0,6.6,3.75,,13.05,1.25,88.0,,32.1,5.0,,,,,,,,,,,,0,0,0,0,0,0,0,0,0,0,0,0,0,0,0,0,,,,,,0.0,,,,,,,
293,28833,1745476684794,,,,,,,,,,,,,,,,,,,,,,,,,,,,,,,,,,0,0,0,0,0,0,0,0,0,0,0,0,0,0,0,0,,,,,,,,,,,,,
294,28853,1745476684814,0.0,98.0,,-0.09,0.0,1.03,-1.0,0.0,1.0,1.03,1.3,79.0,3641.0,6.6,3.75,,13.08,1.248,88.0,,32.1,5.0,0.0,0.0,0.0,0.0,0.0,0.0,0.0,0.0,2.26,,,0,0,0,0,0,0,0,0,0,0,0,0,0,0,0,0,,0.0,,,,0.0,38.994099,-76.939644,0.08,32.4,20.0,2.0,1.4
295,28873,1745476684834,,,,,,,,,,,,,,,,,,,,,,,,,,,,,,,,,,0,0,0,0,0,0,0,0,0,0,0,0,0,0,0,0,,,,,,,,,,,,,
296,28893,1745476684854,0.0,98.0,,-0.08,0.05,1.02,0.0,0.0,0.0,1.03,1.3,79.0,3728.0,6.4,3.74,,12.99,1.249,88.0,,32.1,5.0,,,,,,,,,,,,0,0,0,0,0,0,0,0,0,0,0,0,0,0,0,0,,,,,,0.0,,,,,,,
297,28913,1745476684874,,,,,,,,,,,,,,,,,,,,,,,,,,,,,,,,,,0,0,0,0,0,0,0,0,0,0,0,0,0,0,0,0,,,,,,,,,,,,,
298,28933,1745476684894,0.0,88.0,,-0.07,0.06,1.03,0.0,0.0,0.0,1.03,1.3,80.0,3682.0,6.2,3.76,,12.99,1.249,88.0,,32.7,5.0,,,,,,,,,,,,0,0,0,0,0,0,0,0,0,0,0,0,0,0,0,0,,,,,,0.0,,,,,,,
299,28953,1745476684916,,,,,,,,,,,,,,,,,,,,,,,0.0,0.0,0.0,0.0,0.0,0.0,0.0,0.0,2.27,,,0,0,0,0,0,0,0,0,0,0,0,0,0,0,0,0,,0.0,,,,,38.994099,-76.939644,0.13,32.4,20.0,2.0,1.4
300,28973,1745476684936,0.0,102.0,,-0.08,0.07,1.05,1.0,0.0,0.0,1.05,1.3,81.0,3682.0,6.2,3.76,,12.93,1.249,88.0,,32.7,5.0,,,,,,,,,,,,0,0,0,0,0,0,0,0,0,0,0,0,0,0,0,0,,,,,,0.0,,,,,,,
301,28993,1745476684956,,,,,,,,,,,,,,,,,,,,,,,,,,,,,,,,,,0,0,0,0,0,0,0,0,0,0,0,0,0,0,0,0,,,,,,,,,,,,,
302,29013,1745476684976,0.0,81.0,,-0.06,0.05,1.03,1.0,0.0,0.0,1.03,1.3,80.0,3721.0,6.2,3.73,,12.95,1.249,88.0,,33.0,5.0,,,,,,,,,,,,0,0,0,0,0,0,0,0,0,0,0,0,0,0,0,0,,,,,,0.0,,,,,,,
303,29033,1745476684996,,,,,,,,,,,,,,,,,,,,,,,,,,,,,,,,,,0,0,0,0,0,0,0,0,0,0,0,0,0,0,0,0,,,,,,,,,,,,,
304,29053,1745476685008,0.0,88.0,,-0.06,0.02,1.02,1.0,0.0,0.0,1.02,1.3,79.0,3776.0,6.2,3.72,,12.92,1.246,88.0,,33.0,5.0,0.0,0.0,0.0,0.0,0.0,0.0,0.0,0.0,2.27,,,0,0,0,0,0,0,0,0,0,0,0,0,0,0,0,0,,0.0,,,,0.0,38.994099,-76.939644,0.08,32.4,20.0,2.0,1.4
305,29073,1745476685028,,,,,,,,,,,,,,,,,,,,,,,,,,,,,,,,,,0,0,0,0,0,0,0,0,0,0,0,0,0,0,0,0,,,,,,,,,,,,,
306,29093,1745476685048,0.0,91.0,,-0.06,0.01,1.02,1.0,0.0,0.0,1.02,1.3,79.0,3755.0,6.2,3.73,,12.91,1.248,88.0,,33.0,5.0,,,,,,,,,,,,0,0,0,0,0,0,0,0,0,0,0,0,0,0,0,0,,,,,,0.0,,,,,,,
307,29113,1745476685068,,,,,,,,,,,,,,,,,,,,,,,,,,,,,,,,,,0,0,0,0,0,0,0,0,0,0,0,0,0,0,0,0,,,,,,,,,,,,,
308,29133,1745476685088,0.0,85.0,,-0.07,0.01,1.04,0.0,0.0,0.0,1.04,1.3,80.0,3799.0,6.3,3.73,,12.91,1.248,88.0,,33.2,5.0,,,,,,,,,,,,0,0,0,0,0,0,0,0,0,0,0,0,0,0,0,0,,,,,,0.0,,,,,,,
309,29153,1745476685114,,,,,,,,,,,,,,,,,,,,,,,0.0,0.0,0.0,0.0,0.0,0.0,0.0,0.0,2.26,,,0,0,0,0,0,0,0,0,0,0,0,0,0,0,0,0,,0.0,,,,,38.994099,-76.939644,0.08,32.4,20.0,2.0,1.4
310,29173,1745476685134,0.0,102.0,,-0.06,-0.01,1.03,0.0,0.0,0.0,1.03,1.3,79.0,3799.0,6.3,3.73,,12.92,1.25,88.0,,33.2,5.0,,,,,,,,,,,,0,0,0,0,0,0,0,0,0,0,0,0,0,0,0,0,,,,,,0.0,,,,,,,
311,29193,1745476685154,,,,,,,,,,,,,,,,,,,,,,,,,,,,,,,,,,0,0,0,0,0,0,0,0,0,0,0,0,0,0,0,0,,,,,,,,,,,,,
312,29213,1745476685174,0.0,95.0,,-0.05,0.0,1.01,0.0,0.0,0.0,1.01,1.3,78.0,3766.0,6.5,3.73,,12.84,1.244,88.0,,33.1,5.0,,,,,,,,,,,,0,0,0,0,0,0,0,0,0,0,0,0,0,0,0,0,,,,,,0.0,,,,,,,
313,29233,1745476685194,,,,,,,,,,,,,,,,,,,,,,,,,,,,,,,,,,0,0,0,0,0,0,0,0,0,0,0,0,0,0,0,0,,,,,,,,,,,,,
314,29253,1745476685214,0.0,95.0,,-0.06,0.0,0.98,0.0,0.0,0.0,0.99,1.3,76.0,3811.0,6.5,3.73,,12.8,1.251,88.0,,33.1,5.0,0.0,0.0,0.0,0.0,0.0,0.0,0.0,0.0,2.26,,,0,0,0,0,0,0,0,0,0,0,0,0,0,0,0,0,,0.0,,,,0.0,38.994099,-76.939644,0.05,32.4,20.0,2.0,1.4
315,29273,1745476685234,,,,,,,,,,,,,,,,,,,,,,,,,,,,,,,,,,0,0,0,0,0,0,0,0,0,0,0,0,0,0,0,0,,,,,,,,,,,,,
316,29293,1745476685254,0.0,108.0,,-0.09,0.02,0.98,-1.0,0.0,0.0,0.98,1.3,76.0,3756.0,6.6,3.72,,12.83,1.25,88.0,,33.1,5.0,,,,,,,,,,,,0,0,0,0,0,0,0,0,0,0,0,0,0,0,0,0,,,,,,0.0,,,,,,,
317,29313,1745476685274,,,,,,,,,,,,,,,,,,,,,,,,,,,,,,,,,,0,0,0,0,0,0,0,0,0,0,0,0,0,0,0,0,,,,,,,,,,,,,
318,29333,1745476685294,0.0,91.0,,-0.08,0.0,1.0,-1.0,0.0,0.0,1.0,1.3,77.0,3748.0,6.5,3.75,,12.83,1.25,88.0,,33.8,5.0,,,,,,,,,,,,0,0,0,0,0,0,0,0,0,0,0,0,0,0,0,0,,,,,,0.0,,,,,,,
319,29353,1745476685318,,,,,,,,,,,,,,,,,,,,,,,0.0,0.0,0.0,0.0,0.0,0.0,0.0,0.0,2.26,,,0,0,0,0,0,0,0,0,0,0,0,0,0,0,0,0,,0.0,,,,,38.994099,-76.939644,0.0,32.3,20.0,2.0,1.4
320,29373,1745476685338,0.0,98.0,,-0.08,-0.01,0.99,-1.0,0.0,0.0,0.99,1.3,76.0,3748.0,6.5,3.75,,12.75,1.247,88.0,,33.8,5.0,,,,,,,,,,,,0,0,0,0,0,0,0,0,0,0,0,0,0,0,0,0,,,,,,0.0,,,,,,,
321,29393,1745476685358,,,,,,,,,,,,,,,,,,,,,,,,,,,,,,,,,,0,0,0,0,0,0,0,0,0,0,0,0,0,0,0,0,,,,,,,,,,,,,
322,29413,1745476685378,0.0,91.0,,-0.07,-0.03,0.97,0.0,0.0,0.0,0.98,1.3,75.0,3812.0,6.1,3.73,,12.81,1.247,88.0,,33.6,5.0,,,,,,,,,,,,0,0,0,0,0,0,0,0,0,0,0,0,0,0,0,0,,,,,,0.0,,,,,,,
323,29433,1745476685398,,,,,,,,,,,,,,,,,,,,,,,,,,,,,,,,,,0,0,0,0,0,0,0,0,0,0,0,0,0,0,0,0,,,,,,,,,,,,,
324,29453,1745476685417,0.0,88.0,13.43,-0.08,-0.06,0.96,0.0,0.0,0.0,0.97,1.3,75.0,3730.0,6.0,3.72,15.0,12.77,1.246,88.0,153.0,33.6,5.0,0.0,0.0,0.0,0.0,0.0,0.0,0.0,0.0,2.27,0.0,1.0,0,0,0,0,0,0,0,0,0,0,0,0,0,0,0,0,0.0,0.0,1.0,0.0,0.0,0.0,38.994099,-76.939644,0.11,32.3,20.0,2.0,1.4
325,29473,1745476685437,,,,,,,,,,,,,,,,,,,,,,,,,,,,,,,,,,0,0,0,0,0,0,0,0,0,0,0,0,0,0,0,0,,,,,,,,,,,,,
326,29493,1745476685457,0.0,102.0,,-0.08,-0.07,0.99,-1.0,0.0,0.0,1.0,1.3,77.0,3772.0,6.0,3.71,,12.73,1.244,88.0,,33.6,5.0,,,,,,,,,,,,0,0,0,0,0,0,0,0,0,0,0,0,0,0,0,0,,,,,,0.0,,,,,,,
327,29513,1745476685477,,,,,,,,,,,,,,,,,,,,,,,,,,,,,,,,,,0,0,0,0,0,0,0,0,0,0,0,0,0,0,0,0,,,,,,,,,,,,,
328,29533,1745476685497,0.0,91.0,,-0.08,-0.06,0.98,0.0,0.0,0.0,0.99,1.3,76.0,3749.0,5.7,3.7,,12.73,1.244,88.0,,33.3,5.0,,,,,,,,,,,,0,0,0,0,0,0,0,0,0,0,0,0,0,0,0,0,,,,,,0.0,,,,,,,
329,29553,1745476685513,,,,,,,,,,,,,,,,,,,,,,,0.0,0.0,0.0,0.0,0.0,0.0,0.0,0.0,2.27,,,0,0,0,0,0,0,0,0,0,0,0,0,0,0,0,0,,0.0,,,,,38.994099,-76.939644,0.04,32.3,20.0,2.0,1.4
330,29573,1745476685533,0.0,102.0,,-0.07,-0.06,0.96,0.0,0.0,0.0,0.97,1.3,75.0,3749.0,5.7,3.7,,12.75,1.245,88.0,,33.3,5.0,,,,,,,,,,,,0,0,0,0,0,0,0,0,0,0,0,0,0,0,0,0,,,,,,0.0,,,,,,,
331,29593,1745476685553,,,,,,,,,,,,,,,,,,,,,,,,,,,,,,,,,,0,0,0,0,0,0,0,0,0,0,0,0,0,0,0,0,,,,,,,,,,,,,
332,29613,1745476685573,0.0,98.0,,-0.07,-0.07,0.95,1.0,0.0,0.0,0.96,1.3,74.0,3821.0,5.7,3.7,,12.71,1.244,88.0,,33.2,5.0,,,,,,,,,,,,0,0,0,0,0,0,0,0,0,0,0,0,0,0,0,0,,,,,,0.0,,,,,,,
333,29633,1745476685593,,,,,,,,,,,,,,,,,,,,,,,,,,,,,,,,,,0,0,0,0,0,0,0,0,0,0,0,0,0,0,0,0,,,,,,,,,,,,,
334,29653,1745476685613,0.0,91.0,,-0.08,-0.05,0.97,1.0,0.0,0.0,0.98,1.3,75.0,3815.0,5.8,3.69,,12.76,1.211,88.0,,33.2,5.0,0.0,0.0,0.0,0.0,0.0,0.0,0.0,0.0,2.26,,,0,0,0,0,0,0,0,0,0,0,0,0,0,0,0,0,,0.0,,,,0.0,38.994099,-76.939644,0.04,32.3,20.0,2.0,1.4
335,29673,1745476685633,,,,,,,,,,,,,,,,,,,,,,,,,,,,,,,,,,0,0,0,0,0,0,0,0,0,0,0,0,0,0,0,0,,,,,,,,,,,,,
336,29693,1745476685653,0.0,95.0,,-0.09,-0.03,0.99,1.0,0.0,0.0,1.0,1.3,77.0,3773.0,6.0,3.71,,12.73,1.207,88.0,,33.2,5.0,,,,,,,,,,,,0,0,0,0,0,0,0,0,0,0,0,0,0,0,0,0,,,,,,0.0,,,,,,,
337,29713,1745476685673,,,,,,,,,,,,,,,,,,,,,,,,,,,,,,,,,,0,0,0,0,0,0,0,0,0,0,0,0,0,0,0,0,,,,,,,,,,,,,
338,29733,1745476685693,0.0,74.0,,-0.08,-0.01,1.02,1.0,0.0,0.0,1.02,1.3,79.0,3826.0,6.1,3.69,,12.73,1.207,88.0,,33.2,5.0,,,,,,,,,,,,0,0,0,0,0,0,0,0,0,0,0,0,0,0,0,0,,,,,,0.0,,,,,,,
339,29753,1745476685713,,,,,,,,,,,,,,,,,,,,,,,0.0,0.0,0.0,0.0,0.0,0.0,0.0,0.0,2.26,,,0,0,0,0,0,0,0,0,0,0,0,0,0,0,0,0,,0.0,,,,,38.994099,-76.939644,0.0,32.3,20.0,2.0,1.4
340,29773,1745476685733,0.0,78.0,,-0.06,-0.0,1.01,1.0,0.0,0.0,1.01,1.3,78.0,3826.0,6.1,3.69,,12.71,1.2,88.0,,33.2,5.0,,,,,,,,,,,,0,0,0,0,0,0,0,0,0,0,0,0,0,0,0,0,,,,,,0.0,,,,,,,
341,29793,1745476685753,,,,,,,,,,,,,,,,,,,,,,,,,,,,,,,,,,0,0,0,0,0,0,0,0,0,0,0,0,0,0,0,0,,,,,,,,,,,,,
342,29813,1745476685773,0.0,98.0,,-0.06,-0.05,1.02,1.0,0.0,0.0,1.02,1.3,79.0,3811.0,6.3,3.72,,12.72,1.216,88.0,,33.4,5.0,,,,,,,,,,,,0,0,0,0,0,0,0,0,0,0,0,0,0,0,0,0,,,,,,0.0,,,,,,,
343,29833,1745476685793,,,,,,,,,,,,,,,,,,,,,,,,,,,,,,,,,,0,0,0,0,0,0,0,0,0,0,0,0,0,0,0,0,,,,,,,,,,,,,
344,29853,1745476685813,0.0,71.0,,-0.07,-0.07,1.02,0.0,0.0,0.0,1.02,1.3,79.0,3848.0,6.2,3.72,,12.72,1.24,88.0,,33.4,5.0,0.0,0.0,0.0,0.0,0.0,0.0,0.0,0.0,2.26,,,0,0,0,0,0,0,0,0,0,0,0,0,0,0,0,0,,0.0,,,,0.0,38.994099,-76.939644,0.0,32.3,20.0,2.0,1.4
345,29873,1745476685833,,,,,,,,,,,,,,,,,,,,,,,,,,,,,,,,,,0,0,0,0,0,0,0,0,0,0,0,0,0,0,0,0,,,,,,,,,,,,,
346,29893,1745476685853,0.0,74.0,,-0.09,-0.09,1.01,-1.0,0.0,0.0,1.02,1.3,78.0,3804.0,6.1,3.72,,12.79,1.221,88.0,,33.4,5.0,,,,,,,,,,,,0,0,0,0,0,0,0,0,0,0,0,0,0,0,0,0,,,,,,0.0,,,,,,,
347,29913,1745476685873,,,,,,,,,,,,,,,,,,,,,,,,,,,,,,,,,,0,0,0,0,0,0,0,0,0,0,0,0,0,0,0,0,,,,,,,,,,,,,
348,29933,1745476685893,0.0,74.0,,-0.09,-0.11,1.01,-2.0,0.0,0.0,1.02,1.3,79.0,3797.0,6.0,3.72,,12.79,1.221,88.0,,33.5,5.0,,,,,,,,,,,,0,0,0,0,0,0,0,0,0,0,0,0,0,0,0,0,,,,,,0.0,,,,,,,
349,29953,1745476685915,,,,,,,,,,,,,,,,,,,,,,,0.0,0.0,0.0,0.0,0.0,0.0,0.0,0.0,2.27,,,0,0,0,0,0,0,0,0,0,0,0,0,0,0,0,0,,0.0,,,,,38.994099,-76.939644,0.04,32.3,20.0,2.0,1.4
350,29973,1745476685935,0.0,68.0,,-0.09,-0.09,1.0,-2.0,0.0,0.0,1.0,1.3,78.0,3797.0,6.0,3.72,,12.71,1.219,88.0,,33.5,5.0,,,,,,,,,,,,0,0,0,0,0,0,0,0,0,0,0,0,0,0,0,0,,,,,,0.0,,,,,,,
351,29993,1745476685955,,,,,,,,,,,,,,,,,,,,,,,,,,,,,,,,,,0,0,0,0,0,0,0,0,0,0,0,0,0,0,0,0,,,,,,,,,,,,,
352,30013,1745476685975,0.0,71.0,,-0.08,-0.09,0.97,-2.0,0.0,0.0,0.98,1.3,75.0,3828.0,5.9,3.71,,12.69,1.215,88.0,,34.1,5.0,,,,,,,,,,,,0,0,0,0,0,0,0,0,0,0,0,0,0,0,0,0,,,,,,0.0,,,,,,,
353,30033,1745476685995,,,,,,,,,,,,,,,,,,,,,,,,,,,,,,,,,,0,0,0,0,0,0,0,0,0,0,0,0,0,0,0,0,,,,,,,,,,,,,
354,30053,1745476686009,0.0,64.0,,-0.09,-0.13,0.95,-1.0,0.0,0.0,0.97,1.3,75.0,3786.0,5.9,3.72,,12.75,1.218,88.0,,34.1,5.0,0.0,0.0,0.0,0.0,0.0,0.0,0.0,0.0,2.27,,,0,0,0,0,0,0,0,0,0,0,0,0,0,0,0,0,,0.0,,,,0.0,38.994099,-76.939644,0.11,32.3,20.0,2.0,1.4
355,30073,1745476686029,,,,,,,,,,,,,,,,,,,,,,,,,,,,,,,,,,0,0,0,0,0,0,0,0,0,0,0,0,0,0,0,0,,,,,,,,,,,,,
356,30093,1745476686049,0.0,64.0,,-0.09,-0.09,0.97,-1.0,0.0,0.0,0.98,1.3,76.0,3828.0,5.9,3.7,,12.72,1.216,88.0,,34.1,5.0,,,,,,,,,,,,0,0,0,0,0,0,0,0,0,0,0,0,0,0,0,0,,,,,,0.0,,,,,,,
357,30113,1745476686069,,,,,,,,,,,,,,,,,,,,,,,,,,,,,,,,,,0,0,0,0,0,0,0,0,0,0,0,0,0,0,0,0,,,,,,,,,,,,,
358,30133,1745476686089,0.0,71.0,,-0.09,-0.07,0.98,0.0,0.0,0.0,0.99,1.3,76.0,3752.0,5.8,3.7,,12.72,1.216,88.0,,33.7,5.0,,,,,,,,,,,,0,0,0,0,0,0,0,0,0,0,0,0,0,0,0,0,,,,,,0.0,,,,,,,
359,30153,1745476686115,,,,,,,,,,,,,,,,,,,,,,,0.0,0.0,0.0,0.0,0.0,0.0,0.0,0.0,2.26,,,0,0,0,0,0,0,0,0,0,0,0,0,0,0,0,0,,0.0,,,,,38.994099,-76.939644,0.11,32.3,20.0,2.0,1.4
360,30173,1745476686135,0.0,95.0,,-0.07,-0.02,0.98,0.0,0.0,0.0,0.98,1.3,76.0,3752.0,5.8,3.7,,12.73,1.218,88.0,,33.7,5.0,,,,,,,,,,,,0,0,0,0,0,0,0,0,0,0,0,0,0,0,0,0,,,,,,0.0,,,,,,,
361,30193,1745476686155,,,,,,,,,,,,,,,,,,,,,,,,,,,,,,,,,,0,0,0,0,0,0,0,0,0,0,0,0,0,0,0,0,,,,,,,,,,,,,
362,30213,1745476686175,0.0,88.0,,-0.07,-0.01,0.97,1.0,0.0,0.0,0.98,1.3,75.0,3779.0,6.0,3.69,,12.8,1.209,88.0,,33.0,5.0,,,,,,,,,,,,0,0,0,0,0,0,0,0,0,0,0,0,0,0,0,0,,,,,,0.0,,,,,,,
363,30233,1745476686195,,,,,,,,,,,,,,,,,,,,,,,,,,,,,,,,,,0,0,0,0,0,0,0,0,0,0,0,0,0,0,0,0,,,,,,,,,,,,,
364,30253,1745476686215,0.0,74.0,,-0.09,0.03,0.98,1.0,0.0,0.0,0.99,1.3,76.0,3779.0,6.2,3.72,,12.8,1.213,88.0,,33.0,5.0,0.0,0.0,0.0,0.0,0.0,0.0,0.0,0.0,2.26,,,0,0,0,0,0,0,0,0,0,0,0,0,0,0,0,0,,0.0,,,,0.0,38.994099,-76.939644,0.12,32.2,20.0,2.0,1.4
365,30273,1745476686235,,,,,,,,,,,,,,,,,,,,,,,,,,,,,,,,,,0,0,0,0,0,0,0,0,0,0,0,0,0,0,0,0,,,,,,,,,,,,,
366,30293,1745476686255,0.0,71.0,,-0.09,0.04,0.99,0.0,0.0,0.0,1.0,1.3,77.0,3720.0,6.4,3.73,,12.8,1.203,88.0,,33.0,5.0,,,,,,,,,,,,0,0,0,0,0,0,0,0,0,0,0,0,0,0,0,0,,,,,,0.0,,,,,,,
367,30313,1745476686275,,,,,,,,,,,,,,,,,,,,,,,,,,,,,,,,,,0,0,0,0,0,0,0,0,0,0,0,0,0,0,0,0,,,,,,,,,,,,,
368,30333,1745476686295,0.0,64.0,,-0.08,0.05,1.0,0.0,0.0,0.0,1.0,1.3,77.0,3793.0,6.4,3.73,,12.8,1.203,88.0,,32.8,5.0,,,,,,,,,,,,0,0,0,0,0,0,0,0,0,0,0,0,0,0,0,0,,,,,,0.0,,,,,,,
369,30353,1745476686315,,,,,,,,,,,,,,,,,,,,,,,0.0,0.0,0.0,0.0,0.0,0.0,0.0,0.0,2.26,,,0,0,0,0,0,0,0,0,0,0,0,0,0,0,0,0,,0.0,,,,,38.994099,-76.939644,0.04,32.2,20.0,2.0,1.4
370,30373,1745476686335,0.0,81.0,,-0.07,0.06,0.99,1.0,0.0,0.0,0.99,1.3,77.0,3793.0,6.4,3.73,,12.85,1.209,88.0,,32.8,5.0,,,,,,,,,,,,0,0,0,0,0,0,0,0,0,0,0,0,0,0,0,0,,,,,,0.0,,,,,,,
371,30393,1745476686355,,,,,,,,,,,,,,,,,,,,,,,,,,,,,,,,,,0,0,0,0,0,0,0,0,0,0,0,0,0,0,0,0,,,,,,,,,,,,,
372,30413,1745476686375,0.0,71.0,,-0.09,0.07,0.99,1.0,0.0,0.0,1.0,1.3,77.0,3773.0,6.4,3.74,,12.83,1.223,88.0,,32.9,5.0,,,,,,,,,,,,0,0,0,0,0,0,0,0,0,0,0,0,0,0,0,0,,,,,,0.0,,,,,,,
373,30433,1745476686395,,,,,,,,,,,,,,,,,,,,,,,,,,,,,,,,,,0,0,0,0,0,0,0,0,0,0,0,0,0,0,0,0,,,,,,,,,,,,,
374,30453,1745476686414,0.0,64.0,13.33,-0.09,0.06,1.03,1.0,0.0,0.0,1.04,1.3,80.0,3831.0,6.6,3.75,15.0,12.81,1.229,88.0,155.0,32.9,5.0,0.0,0.0,0.0,0.0,0.0,0.0,0.0,0.0,2.27,0.0,1.0,0,0,0,0,0,0,0,0,0,0,0,0,0,0,0,0,0.0,0.0,1.0,0.0,0.0,0.0,38.994099,-76.939644,0.18,32.2,20.0,2.0,1.4
375,30473,1745476686434,,,,,,,,,,,,,,,,,,,,,,,,,,,,,,,,,,0,0,0,0,0,0,0,0,0,0,0,0,0,0,0,0,,,,,,,,,,,,,
376,30493,1745476686454,0.0,68.0,,-0.09,0.03,1.05,0.0,0.0,0.0,1.06,1.3,82.0,3846.0,7.4,3.81,,12.89,1.219,88.0,,32.9,5.0,,,,,,,,,,,,0,0,0,0,0,0,0,0,0,0,0,0,0,0,0,0,,,,,,0.0,,,,,,,
377,30513,1745476686474,,,,,,,,,,,,,,,,,,,,,,,,,,,,,,,,,,0,0,0,0,0,0,0,0,0,0,0,0,0,0,0,0,,,,,,,,,,,,,
378,30533,1745476686494,0.0,64.0,,-0.08,0.01,1.02,-1.0,0.0,0.0,1.03,1.3,79.0,3820.0,7.1,3.78,,12.89,1.219,88.0,,33.4,5.0,,,,,,,,,,,,0,0,0,0,0,0,0,0,0,0,0,0,0,0,0,0,,,,,,0.0,,,,,,,
379,30553,1745476686516,,,,,,,,,,,,,,,,,,,,,,,0.0,0.0,0.0,0.0,0.0,0.0,0.0,0.0,2.27,,,0,0,0,0,0,0,0,0,0,0,0,0,0,0,0,0,,0.0,,,,,38.994099,-76.939644,0.23,32.2,20.0,2.0,1.4
380,30573,1745476686536,0.0,81.0,,-0.08,-0.04,0.99,-2.0,0.0,0.0,1.0,1.3,77.0,3820.0,7.1,3.78,,12.84,1.231,88.0,,33.4,5.0,,,,,,,,,,,,0,0,0,0,0,0,0,0,0,0,0,0,0,0,0,0,,,,,,0.0,,,,,,,
381,30593,1745476686556,,,,,,,,,,,,,,,,,,,,,,,,,,,,,,,,,,0,0,0,0,0,0,0,0,0,0,0,0,0,0,0,0,,,,,,,,,,,,,
382,30613,1745476686576,0.0,54.0,,-0.08,-0.05,0.97,-2.0,0.0,0.0,0.97,1.3,75.0,3860.0,7.1,3.78,,12.88,1.218,88.0,,33.6,5.0,,,,,,,,,,,,0,0,0,0,0,0,0,0,0,0,0,0,0,0,0,0,,,,,,0.0,,,,,,,
383,30633,1745476686596,,,,,,,,,,,,,,,,,,,,,,,,,,,,,,,,,,0,0,0,0,0,0,0,0,0,0,0,0,0,0,0,0,,,,,,,,,,,,,
