,Interval,Utc,FrontBP,SteerAng,Battery,AccelX,AccelY,AccelZ,Yaw,Pitch,Roll,Gsum,GsumMax,GsumPct,RPM,TPS,InjectorPW,Baro,MAP,Lambda,IAT,EngineTemp,EOP,EOT,WSFR,WSFL,WSRR,WSRL,TCSet,TCSlip,TCComp,TCCut,Analog8,OilTemp,AA_On,ThermLF1,ThermLF2,ThermRR1,ThermRR2,ThermLF3,ThermLF4,ThermLF5,ThermLF6,ThermLF7,ThermLF8,ThermRR3,ThermRR4,ThermRR5,ThermRR6,ThermRR7,ThermRR8,AA_LowDrag,Gear,AA_On1,AA_LowDrag1,Fuel_Mix,AA_Packages,Latitude,Longitude,Speed,Altitude,GPSSats,GPSQual,GPSDOP
0,708004,1745469304971,,,,,,,,,,,,,,,,,,,,,,,,,,,,,,,,,,0,0,0,0,0,0,0,0,0,0,0,0,0,0,0,0,,,,,,,,,,,,,
1,708024,1745469304991,0.0,-41.0,,0.02,0.01,0.97,2.0,0.0,0.0,0.97,0.97,100.0,4677.0,10.4,3.71,,12.47,1.025,100.6,,49.0,5.0,,,,,,,,,,,,0,0,0,0,0,0,0,0,0,0,0,0,0,0,0,0,,,,,,0.0,,,,,,,
2,708044,1745469304999,,,,,,,,,,,,,,,,,,,,,,,,,,,,,,,,,,0,0,0,0,0,0,0,0,0,0,0,0,0,0,0,0,,,,,,,,,,,,,
3,708064,1745469305019,0.0,-34.0,,0.05,-0.05,0.91,1.0,0.0,0.0,0.91,0.97,94.0,4390.0,10.5,3.75,,12.59,1.013,100.6,,49.0,5.0,,,,,,,,,,,,0,0,0,0,0,0,0,0,0,0,0,0,0,0,0,0,,,,,,0.0,,,,,,,
4,708084,1745469305039,,,,,,,,,,,,,,,,,,,,,,,0.0,22.0,0.0,0.0,0.0,24.0,0.0,0.0,2.26,,,0,0,0,0,0,0,0,0,0,0,0,0,0,0,0,0,,0.0,,,,,38.9907,-76.93985,0.26,31.4,24.0,2.0,1.0
5,708104,1745469305059,0.0,-24.0,,0.04,-0.04,0.93,-1.0,0.0,0.0,0.93,0.97,96.0,4325.0,10.5,3.81,,12.69,1.003,100.6,,49.0,5.0,,,,,,,,,,,,0,0,0,0,0,0,0,0,0,0,0,0,0,0,0,0,,,,,,0.0,,,,,,,
6,708124,1745469305079,,,,,,,,,,,,,,,,,,,,,,,,,,,,,,,,,,0,0,0,0,0,0,0,0,0,0,0,0,0,0,0,0,,,,,,,,,,,,,
7,708144,1745469305110,0.0,-24.0,,0.03,0.01,0.96,1.0,0.0,0.0,0.96,0.97,99.0,4199.0,10.4,3.84,,12.69,1.003,100.6,,45.7,5.0,,,,,,,,,,,,0,0,0,0,0,0,0,0,0,0,0,0,0,0,0,0,,,,,,0.0,,,,,,,
8,708164,1745469305130,,,,,,,,,,,,,,,,,,,,,,,,,,,,,,,,,,0,0,0,0,0,0,0,0,0,0,0,0,0,0,0,0,,,,,,,,,,,,,
9,708184,1745469305150,0.0,-17.0,,0.03,-0.05,0.94,-1.0,0.0,0.0,0.95,0.97,98.0,4199.0,10.4,3.84,,12.71,1.004,100.6,,45.7,5.0,0.0,0.0,0.0,0.0,0.0,0.0,0.0,0.0,2.27,,,0,0,0,0,0,0,0,0,0,0,0,0,0,0,0,0,,0.0,,,,0.0,38.9907,-76.93985,0.75,31.4,24.0,2.0,1.0
10,708204,1745469305170,,,,,,,,,,,,,,,,,,,,,,,,,,,,,,,,,,0,0,0,0,0,0,0,0,0,0,0,0,0,0,0,0,,,,,,,,,,,,,
11,708224,1745469305190,0.0,-24.0,,0.02,-0.05,0.94,-2.0,0.0,0.0,0.94,0.97,97.0,3992.0,10.5,3.9,,12.87,1.004,100.6,,44.8,5.0,,,,,,,,,,,,0,0,0,0,0,0,0,0,0,0,0,0,0,0,0,0,,,,,,0.0,,,,,,,
12,708244,1745469305209,,,,,,,,,,,,,,,,,,,,,,,,,,,,,,,,,,0,0,0,0,0,0,0,0,0,0,0,0,0,0,0,0,,,,,,,,,,,,,
13,708264,1745469305229,0.0,-27.0,,0.02,-0.03,0.95,-2.0,0.0,0.0,0.95,0.97,99.0,3691.0,12.0,3.97,,13.17,1.008,100.6,,44.8,5.0,,,,,,,,,,,,0,0,0,0,0,0,0,0,0,0,0,0,0,0,0,0,,,,,,0.0,,,,,,,
14,708284,1745469305249,,,,,,,,,,,,,,,,,,,,,,,1.0,19.0,1.0,0.0,0.0,28.0,0.0,0.0,2.27,,,0,0,0,0,0,0,0,0,0,0,0,0,0,0,0,0,,0.0,,,,,38.9907,-76.93985,1.07,31.4,24.0,2.0,1.0
15,708304,1745469305269,0.0,-21.0,,0.03,-0.12,0.99,-6.0,0.0,0.0,1.0,1.0,100.0,3708.0,14.2,4.02,,13.44,1.023,100.6,,44.8,5.0,,,,,,,,,,,,0,0,0,0,0,0,0,0,0,0,0,0,0,0,0,0,,,,,,0.0,,,,,,,
16,708324,1745469305291,,,,,,,,,,,,,,,,,,,,,,,,,,,,,,,,,,0,0,0,0,0,0,0,0,0,0,0,0,0,0,0,0,,,,,,,,,,,,,
17,708344,1745469305311,0.0,-31.0,,0.03,-0.1,0.99,-5.0,0.0,0.0,1.0,1.0,100.0,3714.0,15.5,4.07,,13.44,1.023,100.6,,41.8,5.0,,,,,,,,,,,,0,0,0,0,0,0,0,0,0,0,0,0,0,0,0,0,,,,,,0.0,,,,,,,
18,708364,1745469305331,,,,,,,,,,,,,,,,,,,,,,,,,,,,,,,,,,0,0,0,0,0,0,0,0,0,0,0,0,0,0,0,0,,,,,,,,,,,,,
19,708384,1745469305351,0.0,-41.0,13.75,0.03,-0.07,0.99,-3.0,0.0,0.0,0.99,1.0,100.0,3714.0,15.5,4.07,15.0,13.56,1.073,100.6,167.0,41.8,5.0,1.0,18.0,1.0,1.0,0.0,77.0,0.0,0.0,2.27,0.0,1.0,0,0,0,0,0,0,0,0,0,0,0,0,0,0,0,0,0.0,0.0,1.0,0.0,0.0,0.0,38.9907,-76.93985,1.39,31.4,24.0,2.0,1.0
20,708404,1745469305371,,,,,,,,,,,,,,,,,,,,,,,,,,,,,,,,,,0,0,0,0,0,0,0,0,0,0,0,0,0,0,0,0,,,,,,,,,,,,,
21,708424,1745469305391,0.0,-31.0,,0.02,-0.11,0.96,-3.0,0.0,0.0,0.96,1.0,97.0,3617.0,16.2,4.11,,13.69,1.044,100.6,,39.1,5.0,,,,,,,,,,,,0,0,0,0,0,0,0,0,0,0,0,0,0,0,0,0,,,,,,0.0,,,,,,,
22,708444,1745469305411,,,,,,,,,,,,,,,,,,,,,,,,,,,,,,,,,,0,0,0,0,0,0,0,0,0,0,0,0,0,0,0,0,,,,,,,,,,,,,
23,708464,1745469305431,0.0,-34.0,,0.06,-0.03,0.94,-2.0,0.0,0.0,0.94,1.0,95.0,3307.0,16.6,4.16,,13.92,1.014,100.6,,39.1,5.0,,,,,,,,,,,,0,0,0,0,0,0,0,0,0,0,0,0,0,0,0,0,,,,,,0.0,,,,,,,
24,708484,1745469305451,,,,,,,,,,,,,,,,,,,,,,,1.0,2.0,1.0,1.0,0.0,0.0,0.0,0.0,2.26,,,0,0,0,0,0,0,0,0,0,0,0,0,0,0,0,0,,0.0,,,,,38.9907,-76.93985,1.78,31.4,24.0,2.0,1.0
25,708504,1745469305471,0.0,-21.0,,0.08,-0.08,1.05,-4.0,0.0,1.0,1.05,1.05,100.0,3116.0,16.6,4.27,,13.96,1.026,100.6,,39.1,5.0,,,,,,,,,,,,0,0,0,0,0,0,0,0,0,0,0,0,0,0,0,0,,,,,,0.0,,,,,,,
26,708524,1745469305491,,,,,,,,,,,,,,,,,,,,,,,,,,,,,,,,,,0,0,0,0,0,0,0,0,0,0,0,0,0,0,0,0,,,,,,,,,,,,,
27,708544,1745469305511,0.0,-14.0,,0.02,-0.13,1.05,-4.0,0.0,0.0,1.05,1.05,100.0,3324.0,16.7,4.25,,13.96,1.026,100.6,,34.2,5.0,,,,,,,,,,,,0,0,0,0,0,0,0,0,0,0,0,0,0,0,0,0,,,,,,0.0,,,,,,,
28,708564,1745469305531,,,,,,,,,,,,,,,,,,,,,,,,,,,,,,,,,,0,0,0,0,0,0,0,0,0,0,0,0,0,0,0,0,,,,,,,,,,,,,
29,708584,1745469305551,0.0,-27.0,,0.06,-0.09,1.06,-3.0,0.0,1.0,1.06,1.06,100.0,3324.0,16.7,4.25,,13.95,1.083,100.6,,34.2,5.0,2.0,2.0,2.0,2.0,0.0,0.0,0.0,0.0,2.26,,,0,0,0,0,0,0,0,0,0,0,0,0,0,0,0,0,,0.0,,,,0.0,38.9907,-76.93985,2.36,31.4,24.0,2.0,1.0
30,708604,1745469305571,,,,,,,,,,,,,,,,,,,,,,,,,,,,,,,,,,0,0,0,0,0,0,0,0,0,0,0,0,0,0,0,0,,,,,,,,,,,,,
31,708624,1745469305592,0.0,-10.0,,0.03,-0.1,0.99,-2.0,0.0,0.0,0.99,1.06,93.0,3414.0,16.8,4.2,,13.92,1.107,100.6,,37.8,5.0,,,,,,,,,,,,0,0,0,0,0,0,0,0,0,0,0,0,0,0,0,0,,,,,,0.0,,,,,,,
32,708644,1745469305612,,,,,,,,,,,,,,,,,,,,,,,,,,,,,,,,,,0,0,0,0,0,0,0,0,0,0,0,0,0,0,0,0,,,,,,,,,,,,,
33,708664,1745469305632,0.0,-41.0,,0.08,-0.05,1.02,-2.0,0.0,1.0,1.03,1.06,97.0,3384.0,16.5,4.21,,13.92,1.038,100.6,,37.8,5.0,,,,,,,,,,,,0,0,0,0,0,0,0,0,0,0,0,0,0,0,0,0,,,,,,0.0,,,,,,,
34,708684,1745469305652,,,,,,,,,,,,,,,,,,,,,,,2.0,2.0,2.0,2.0,0.0,0.0,0.0,0.0,2.27,,,0,0,0,0,0,0,0,0,0,0,0,0,0,0,0,0,,0.0,,,,,38.9907,-76.93985,3.09,31.4,24.0,2.0,1.0
35,708704,1745469305672,0.0,-21.0,,0.07,-0.11,1.1,-4.0,0.0,1.0,1.11,1.11,100.0,3114.0,16.4,4.23,,13.91,1.039,100.6,,37.8,5.0,,,,,,,,,,,,0,0,0,0,0,0,0,0,0,0,0,0,0,0,0,0,,,,,,0.0,,,,,,,
36,708724,1745469305692,,,,,,,,,,,,,,,,,,,,,,,,,,,,,,,,,,0,0,0,0,0,0,0,0,0,0,0,0,0,0,0,0,,,,,,,,,,,,,
37,708744,1745469305712,0.0,-27.0,,0.04,-0.15,1.16,-5.0,0.0,1.0,1.17,1.17,100.0,3020.0,16.2,4.28,,13.91,1.039,100.6,,34.0,5.0,,,,,,,,,,,,0,0,0,0,0,0,0,0,0,0,0,0,0,0,0,0,,,,,,0.0,,,,,,,
38,708764,1745469305732,,,,,,,,,,,,,,,,,,,,,,,,,,,,,,,,,,0,0,0,0,0,0,0,0,0,0,0,0,0,0,0,0,,,,,,,,,,,,,
39,708784,1745469305752,0.0,-27.0,,0.02,-0.14,1.2,-4.0,0.0,1.0,1.21,1.21,100.0,3020.0,16.2,4.28,,14.0,1.053,100.6,,34.0,5.0,2.0,2.0,2.0,2.0,0.0,0.0,0.0,0.0,2.27,,,0,0,0,0,0,0,0,0,0,0,0,0,0,0,0,0,,0.0,,,,0.0,38.9907,-76.93985,3.29,31.4,24.0,2.0,1.0
40,708804,1745469305772,,,,,,,,,,,,,,,,,,,,,,,,,,,,,,,,,,0,0,0,0,0,0,0,0,0,0,0,0,0,0,0,0,,,,,,,,,,,,,
41,708824,1745469305792,0.0,-7.0,,0.02,-0.17,1.25,-4.0,0.0,1.0,1.26,1.26,100.0,2992.0,16.4,4.31,,14.02,1.054,100.6,,31.6,5.0,,,,,,,,,,,,0,0,0,0,0,0,0,0,0,0,0,0,0,0,0,0,,,,,,0.0,,,,,,,
42,708844,1745469305810,,,,,,,,,,,,,,,,,,,,,,,,,,,,,,,,,,0,0,0,0,0,0,0,0,0,0,0,0,0,0,0,0,,,,,,,,,,,,,
43,708864,1745469305830,0.0,-7.0,,0.03,-0.14,1.23,-5.0,0.0,1.0,1.24,1.26,98.0,2926.0,16.3,4.34,,14.1,1.077,100.6,,31.6,5.0,,,,,,,,,,,,0,0,0,0,0,0,0,0,0,0,0,0,0,0,0,0,,,,,,0.0,,,,,,,
44,708884,1745469305850,,,,,,,,,,,,,,,,,,,,,,,2.0,2.0,3.0,3.0,0.0,0.0,0.0,0.0,2.27,,,0,0,0,0,0,0,0,0,0,0,0,0,0,0,0,0,,0.0,,,,,38.9907,-76.939858,3.99,31.4,24.0,2.0,1.0
45,708904,1745469305870,0.0,0.0,,0.05,-0.13,1.17,-5.0,0.0,1.0,1.18,1.26,94.0,2851.0,16.7,4.35,,14.11,1.108,100.6,,31.6,5.0,,,,,,,,,,,,0,0,0,0,0,0,0,0,0,0,0,0,0,0,0,0,,,,,,0.0,,,,,,,
46,708924,1745469305892,,,,,,,,,,,,,,,,,,,,,,,,,,,,,,,,,,0,0,0,0,0,0,0,0,0,0,0,0,0,0,0,0,,,,,,,,,,,,,
47,708944,1745469305912,0.0,-14.0,,0.04,-0.13,1.14,-4.0,0.0,0.0,1.14,1.26,91.0,2849.0,16.9,4.36,,14.11,1.108,100.6,,29.7,5.0,,,,,,,,,,,,0,0,0,0,0,0,0,0,0,0,0,0,0,0,0,0,,,,,,0.0,,,,,,,
48,708964,1745469305932,,,,,,,,,,,,,,,,,,,,,,,,,,,,,,,,,,0,0,0,0,0,0,0,0,0,0,0,0,0,0,0,0,,,,,,,,,,,,,
49,708984,1745469305952,0.0,0.0,,0.01,-0.14,1.11,-3.0,0.0,0.0,1.12,1.26,89.0,2849.0,16.9,4.36,,14.18,1.131,100.6,,29.7,5.0,3.0,3.0,3.0,3.0,0.0,0.0,0.0,0.0,2.27,,,0,0,0,0,0,0,0,0,0,0,0,0,0,0,0,0,,0.0,,,,0.0,38.9907,-76.939858,4.29,31.4,24.0,2.0,1.0
50,709004,1745469305972,,,,,,,,,,,,,,,,,,,,,,,,,,,,,,,,,,0,0,0,0,0,0,0,0,0,0,0,0,0,0,0,0,,,,,,,,,,,,,
51,709024,1745469305992,0.0,0.0,,0.01,-0.09,1.01,-1.0,0.0,0.0,1.01,1.26,81.0,2973.0,16.9,4.31,,14.08,1.166,100.6,,33.0,5.0,,,,,,,,,,,,0,0,0,0,0,0,0,0,0,0,0,0,0,0,0,0,,,,,,0.0,,,,,,,
52,709044,1745469306000,,,,,,,,,,,,,,,,,,,,,,,,,,,,,,,,,,0,0,0,0,0,0,0,0,0,0,0,0,0,0,0,0,,,,,,,,,,,,,
53,709064,1745469306020,0.0,-17.0,,0.05,-0.03,1.03,-2.0,0.0,0.0,1.03,1.26,82.0,3287.0,17.2,4.31,,14.0,1.08,100.6,,33.0,5.0,,,,,,,,,,,,0,0,0,0,0,0,0,0,0,0,0,0,0,0,0,0,,,,,,0.0,,,,,,,
54,709084,1745469306040,,,,,,,,,,,,,,,,,,,,,,,3.0,3.0,3.0,3.0,0.0,0.0,0.0,0.0,2.26,,,0,0,0,0,0,0,0,0,0,0,0,0,0,0,0,0,,0.0,,,,,38.9907,-76.939858,5.03,31.4,22.0,2.0,1.1
55,709104,1745469306060,0.0,-4.0,,0.02,-0.12,1.06,-4.0,0.0,0.0,1.07,1.26,85.0,3257.0,17.3,4.24,,13.96,1.012,100.6,,33.0,5.0,,,,,,,,,,,,0,0,0,0,0,0,0,0,0,0,0,0,0,0,0,0,,,,,,0.0,,,,,,,
56,709124,1745469306080,,,,,,,,,,,,,,,,,,,,,,,,,,,,,,,,,,0,0,0,0,0,0,0,0,0,0,0,0,0,0,0,0,,,,,,,,,,,,,
57,709144,1745469306110,0.0,-7.0,,0.02,-0.06,0.97,-2.0,0.0,0.0,0.97,1.26,77.0,3156.0,17.2,4.27,,13.96,1.012,100.6,,36.0,5.0,,,,,,,,,,,,0,0,0,0,0,0,0,0,0,0,0,0,0,0,0,0,,,,,,0.0,,,,,,,
58,709164,1745469306130,,,,,,,,,,,,,,,,,,,,,,,,,,,,,,,,,,0,0,0,0,0,0,0,0,0,0,0,0,0,0,0,0,,,,,,,,,,,,,
59,709184,1745469306150,0.0,3.0,,0.06,-0.03,0.98,-3.0,0.0,0.0,0.99,1.26,78.0,3156.0,17.2,4.27,,14.03,1.006,100.6,,36.0,5.0,3.0,4.0,3.0,4.0,0.0,0.0,0.0,0.0,2.27,,,0,0,0,0,0,0,0,0,0,0,0,0,0,0,0,0,,0.0,,,,0.0,38.990704,-76.939858,5.03,31.4,22.0,2.0,1.1
60,709204,1745469306170,,,,,,,,,,,,,,,,,,,,,,,,,,,,,,,,,,0,0,0,0,0,0,0,0,0,0,0,0,0,0,0,0,,,,,,,,,,,,,
61,709224,1745469306190,0.0,17.0,,0.04,-0.09,1.03,-6.0,1.0,0.0,1.03,1.26,82.0,3371.0,17.2,4.3,,13.98,1.035,100.6,,35.7,5.0,,,,,,,,,,,,0,0,0,0,0,0,0,0,0,0,0,0,0,0,0,0,,,,,,0.0,,,,,,,
62,709244,1745469306210,,,,,,,,,,,,,,,,,,,,,,,,,,,,,,,,,,0,0,0,0,0,0,0,0,0,0,0,0,0,0,0,0,,,,,,,,,,,,,
63,709264,1745469306230,0.0,7.0,,0.06,0.0,0.96,-4.0,0.0,0.0,0.96,1.26,76.0,3285.0,17.1,4.28,,14.02,1.035,100.6,,35.7,5.0,,,,,,,,,,,,0,0,0,0,0,0,0,0,0,0,0,0,0,0,0,0,,,,,,0.0,,,,,,,
64,709284,1745469306250,,,,,,,,,,,,,,,,,,,,,,,4.0,4.0,4.0,4.0,0.0,0.0,0.0,0.0,2.27,,,0,0,0,0,0,0,0,0,0,0,0,0,0,0,0,0,,0.0,,,,,38.990704,-76.939858,6.0,31.4,22.0,2.0,1.1
65,709304,1745469306270,0.0,13.0,,0.08,0.02,0.98,-5.0,0.0,0.0,0.99,1.26,79.0,3303.0,17.2,4.26,,14.0,1.038,100.6,,35.7,5.0,,,,,,,,,,,,0,0,0,0,0,0,0,0,0,0,0,0,0,0,0,0,,,,,,0.0,,,,,,,
66,709324,1745469306292,,,,,,,,,,,,,,,,,,,,,,,,,,,,,,,,,,0,0,0,0,0,0,0,0,0,0,0,0,0,0,0,0,,,,,,,,,,,,,
67,709344,1745469306312,0.0,-7.0,,0.04,-0.03,1.02,-6.0,0.0,0.0,1.02,1.26,81.0,3198.0,17.1,4.31,,14.0,1.038,100.6,,35.1,5.0,,,,,,,,,,,,0,0,0,0,0,0,0,0,0,0,0,0,0,0,0,0,,,,,,0.0,,,,,,,
68,709364,1745469306332,,,,,,,,,,,,,,,,,,,,,,,,,,,,,,,,,,0,0,0,0,0,0,0,0,0,0,0,0,0,0,0,0,,,,,,,,,,,,,
69,709384,1745469306352,0.0,0.0,13.8,0.01,-0.04,1.02,-5.0,1.0,0.0,1.02,1.26,81.0,3198.0,17.1,4.31,15.0,14.02,1.049,100.6,167.0,35.1,5.0,4.0,5.0,4.0,5.0,0.0,0.0,0.0,0.0,2.27,0.0,1.0,0,0,0,0,0,0,0,0,0,0,0,0,0,0,0,0,0.0,0.0,1.0,0.0,0.0,0.0,38.990704,-76.939858,6.09,31.4,22.0,2.0,1.1
70,709404,1745469306372,,,,,,,,,,,,,,,,,,,,,,,,,,,,,,,,,,0,0,0,0,0,0,0,0,0,0,0,0,0,0,0,0,,,,,,,,,,,,,
71,709424,1745469306392,0.0,7.0,,-0.01,-0.05,1.05,-5.0,1.0,0.0,1.05,1.26,83.0,2928.0,17.5,4.34,,14.07,1.053,100.6,,32.3,5.0,,,,,,,,,,,,0,0,0,0,0,0,0,0,0,0,0,0,0,0,0,0,,,,,,0.0,,,,,,,
72,709444,1745469306412,,,,,,,,,,,,,,,,,,,,,,,,,,,,,,,,,,0,0,0,0,0,0,0,0,0,0,0,0,0,0,0,0,,,,,,,,,,,,,
73,709464,1745469306432,0.0,7.0,,-0.01,-0.07,1.09,-7.0,1.0,0.0,1.09,1.26,87.0,2852.0,17.6,4.34,,14.16,1.051,100.6,,32.3,5.0,,,,,,,,,,,,0,0,0,0,0,0,0,0,0,0,0,0,0,0,0,0,,,,,,0.0,,,,,,,
74,709484,1745469306452,,,,,,,,,,,,,,,,,,,,,,,4.0,5.0,4.0,5.0,0.0,0.0,0.0,0.0,2.26,,,0,0,0,0,0,0,0,0,0,0,0,0,0,0,0,0,,0.0,,,,,38.990707,-76.939858,7.29,31.4,22.0,2.0,1.1
75,709504,1745469306472,0.0,24.0,,0.01,-0.05,1.07,-8.0,1.0,0.0,1.07,1.26,85.0,2735.0,17.7,4.36,,14.22,1.067,100.6,,32.3,5.0,,,,,,,,,,,,0,0,0,0,0,0,0,0,0,0,0,0,0,0,0,0,,,,,,0.0,,,,,,,
76,709524,1745469306491,,,,,,,,,,,,,,,,,,,,,,,,,,,,,,,,,,0,0,0,0,0,0,0,0,0,0,0,0,0,0,0,0,,,,,,,,,,,,,
77,709544,1745469306511,0.0,10.0,,0.03,-0.07,1.1,-9.0,1.0,0.0,1.1,1.26,87.0,2568.0,17.7,4.48,,14.22,1.067,100.6,,28.5,5.0,,,,,,,,,,,,0,0,0,0,0,0,0,0,0,0,0,0,0,0,0,0,,,,,,0.0,,,,,,,
78,709564,1745469306531,,,,,,,,,,,,,,,,,,,,,,,,,,,,,,,,,,0,0,0,0,0,0,0,0,0,0,0,0,0,0,0,0,,,,,,,,,,,,,
79,709584,1745469306551,0.0,24.0,,0.03,-0.09,1.09,-10.0,1.0,0.0,1.09,1.26,87.0,2568.0,17.7,4.48,,14.27,1.088,100.6,,28.5,5.0,5.0,5.0,5.0,6.0,0.0,0.0,0.0,0.0,2.26,,,0,0,0,0,0,0,0,0,0,0,0,0,0,0,0,0,,0.0,,,,0.0,38.990707,-76.939858,7.25,31.4,22.0,2.0,1.1
80,709604,1745469306571,,,,,,,,,,,,,,,,,,,,,,,,,,,,,,,,,,0,0,0,0,0,0,0,0,0,0,0,0,0,0,0,0,,,,,,,,,,,,,
81,709624,1745469306591,0.0,27.0,,0.03,-0.08,1.06,-11.0,1.0,0.0,1.07,1.26,85.0,2358.0,17.7,4.46,,14.34,1.102,100.6,,24.4,5.0,,,,,,,,,,,,0,0,0,0,0,0,0,0,0,0,0,0,0,0,0,0,,,,,,0.0,,,,,,,
82,709644,1745469306611,,,,,,,,,,,,,,,,,,,,,,,,,,,,,,,,,,0,0,0,0,0,0,0,0,0,0,0,0,0,0,0,0,,,,,,,,,,,,,
83,709664,1745469306631,0.0,20.0,,0.03,-0.09,1.03,-12.0,1.0,0.0,1.03,1.26,82.0,2124.0,17.5,4.52,,14.51,1.112,100.6,,24.4,5.0,,,,,,,,,,,,0,0,0,0,0,0,0,0,0,0,0,0,0,0,0,0,,,,,,0.0,,,,,,,
84,709684,1745469306651,,,,,,,,,,,,,,,,,,,,,,,5.0,6.0,5.0,6.0,0.0,0.0,0.0,0.0,2.27,,,0,0,0,0,0,0,0,0,0,0,0,0,0,0,0,0,,0.0,,,,,38.990711,-76.939858,7.99,31.4,22.0,2.0,1.1
85,709704,1745469306671,0.0,20.0,,0.02,-0.1,1.03,-13.0,1.0,0.0,1.03,1.26,82.0,1905.0,17.2,4.59,,14.51,1.127,100.6,,24.4,5.0,,,,,,,,,,,,0,0,0,0,0,0,0,0,0,0,0,0,0,0,0,0,,,,,,0.0,,,,,,,
86,709724,1745469306693,,,,,,,,,,,,,,,,,,,,,,,,,,,,,,,,,,0,0,0,0,0,0,0,0,0,0,0,0,0,0,0,0,,,,,,,,,,,,,
87,709744,1745469306713,0.0,0.0,,-0.0,-0.1,1.01,-14.0,1.0,0.0,1.01,1.26,81.0,1923.0,17.3,4.55,,14.51,1.127,100.6,,20.9,5.0,,,,,,,,,,,,0,0,0,0,0,0,0,0,0,0,0,0,0,0,0,0,,,,,,0.0,,,,,,,
88,709764,1745469306733,,,,,,,,,,,,,,,,,,,,,,,,,,,,,,,,,,0,0,0,0,0,0,0,0,0,0,0,0,0,0,0,0,,,,,,,,,,,,,
89,709784,1745469306753,0.0,10.0,,-0.02,-0.1,0.99,-14.0,1.0,0.0,1.0,1.26,79.0,1923.0,17.3,4.55,,14.44,1.133,100.6,,20.9,5.0,5.0,6.0,5.0,6.0,0.0,0.0,0.0,0.0,2.27,,,0,0,0,0,0,0,0,0,0,0,0,0,0,0,0,0,,0.0,,,,0.0,38.990711,-76.939858,9.1,31.4,22.0,2.0,1.1
90,709804,1745469306773,,,,,,,,,,,,,,,,,,,,,,,,,,,,,,,,,,0,0,0,0,0,0,0,0,0,0,0,0,0,0,0,0,,,,,,,,,,,,,
91,709824,1745469306791,0.0,34.0,,-0.01,-0.11,1.01,-15.0,1.0,0.0,1.02,1.26,81.0,1776.0,17.2,4.47,,14.5,1.138,100.6,,19.0,5.0,,,,,,,,,,,,0,0,0,0,0,0,0,0,0,0,0,0,0,0,0,0,,,,,,0.0,,,,,,,
92,709844,1745469306811,,,,,,,,,,,,,,,,,,,,,,,,,,,,,,,,,,0,0,0,0,0,0,0,0,0,0,0,0,0,0,0,0,,,,,,,,,,,,,
93,709864,1745469306831,0.0,20.0,,-0.03,-0.12,1.01,-15.0,1.0,0.0,1.02,1.26,81.0,1736.0,17.4,4.46,,14.54,1.156,100.6,,19.0,5.0,,,,,,,,,,,,0,0,0,0,0,0,0,0,0,0,0,0,0,0,0,0,,,,,,0.0,,,,,,,
94,709884,1745469306851,,,,,,,,,,,,,,,,,,,,,,,5.0,6.0,5.0,6.0,0.0,96.0,0.0,0.0,2.27,,,0,0,0,0,0,0,0,0,0,0,0,0,0,0,0,0,,0.0,,,,,38.990715,-76.939865,9.12,31.4,22.0,2.0,1.1
95,709904,1745469306871,0.0,30.0,,-0.03,-0.1,1.0,-15.0,1.0,0.0,1.01,1.26,80.0,1847.0,17.5,4.52,,14.48,1.136,100.6,,19.0,5.0,,,,,,,,,,,,0,0,0,0,0,0,0,0,0,0,0,0,0,0,0,0,,,,,,0.0,,,,,,,
96,709924,1745469306893,,,,,,,,,,,,,,,,,,,,,,,,,,,,,,,,,,0,0,0,0,0,0,0,0,0,0,0,0,0,0,0,0,,,,,,,,,,,,,
97,709944,1745469306913,0.0,20.0,,-0.04,-0.11,0.97,-16.0,1.0,0.0,0.98,1.26,78.0,1924.0,17.7,4.57,,14.48,1.136,100.6,,20.5,5.0,,,,,,,,,,,,0,0,0,0,0,0,0,0,0,0,0,0,0,0,0,0,,,,,,0.0,,,,,,,
98,709964,1745469306933,,,,,,,,,,,,,,,,,,,,,,,,,,,,,,,,,,0,0,0,0,0,0,0,0,0,0,0,0,0,0,0,0,,,,,,,,,,,,,
99,709984,1745469306953,0.0,20.0,,-0.04,-0.08,0.98,-16.0,1.0,0.0,0.98,1.26,78.0,1924.0,17.7,4.57,,14.44,1.103,100.6,,20.5,5.0,5.0,8.0,5.0,6.0,0.0,35.0,0.0,0.0,2.26,,,0,0,0,0,0,0,0,0,0,0,0,0,0,0,0,0,,0.0,,,,0.0,38.990719,-76.939865,8.74,31.4,22.0,2.0,1.1
100,710004,1745469306973,,,,,,,,,,,,,,,,,,,,,,,,,,,,,,,,,,0,0,0,0,0,0,0,0,0,0,0,0,0,0,0,0,,,,,,,,,,,,,
101,710024,1745469306993,0.0,20.0,,-0.05,-0.08,0.99,-17.0,1.0,0.0,0.99,1.26,79.0,2013.0,17.6,4.55,,14.47,1.09,100.6,,21.0,5.0,,,,,,,,,,,,0,0,0,0,0,0,0,0,0,0,0,0,0,0,0,0,,,,,,0.0,,,,,,,
102,710044,1745469307001,,,,,,,,,,,,,,,,,,,,,,,,,,,,,,,,,,0,0,0,0,0,0,0,0,0,0,0,0,0,0,0,0,,,,,,,,,,,,,
103,710064,1745469307021,0.0,20.0,,-0.05,-0.08,0.96,-17.0,1.0,0.0,0.96,1.26,77.0,2023.0,17.7,4.61,,14.42,1.064,100.6,,21.0,5.0,,,,,,,,,,,,0,0,0,0,0,0,0,0,0,0,0,0,0,0,0,0,,,,,,0.0,,,,,,,
104,710084,1745469307041,,,,,,,,,,,,,,,,,,,,,,,5.0,6.0,5.0,6.0,0.0,0.0,0.0,0.0,2.27,,,0,0,0,0,0,0,0,0,0,0,0,0,0,0,0,0,,0.0,,,,,38.990719,-76.939865,8.82,31.4,25.0,2.0,1.0
105,710104,1745469307061,0.0,17.0,,-0.04,-0.09,0.96,-17.0,1.0,0.0,0.97,1.26,77.0,1997.0,17.7,4.59,,14.43,1.06,100.6,,21.0,5.0,,,,,,,,,,,,0,0,0,0,0,0,0,0,0,0,0,0,0,0,0,0,,,,,,0.0,,,,,,,
106,710124,1745469307091,,,,,,,,,,,,,,,,,,,,,,,,,,,,,,,,,,0,0,0,0,0,0,0,0,0,0,0,0,0,0,0,0,,,,,,,,,,,,,
107,710144,1745469307111,0.0,10.0,,-0.02,-0.11,0.96,-18.0,1.0,0.0,0.97,1.26,77.0,1882.0,17.4,4.62,,14.43,1.06,100.6,,21.2,5.0,,,,,,,,,,,,0,0,0,0,0,0,0,0,0,0,0,0,0,0,0,0,,,,,,0.0,,,,,,,
108,710164,1745469307131,,,,,,,,,,,,,,,,,,,,,,,,,,,,,,,,,,0,0,0,0,0,0,0,0,0,0,0,0,0,0,0,0,,,,,,,,,,,,,
109,710184,1745469307151,0.0,27.0,,-0.03,-0.12,0.97,-18.0,1.0,0.0,0.98,1.26,78.0,1882.0,17.4,4.62,,14.55,1.076,100.6,,21.2,5.0,5.0,6.0,5.0,6.0,0.0,0.0,0.0,0.0,2.27,,,0,0,0,0,0,0,0,0,0,0,0,0,0,0,0,0,,0.0,,,,0.0,38.990719,-76.939865,8.85,31.4,25.0,2.0,1.0
110,710204,1745469307171,,,,,,,,,,,,,,,,,,,,,,,,,,,,,,,,,,0,0,0,0,0,0,0,0,0,0,0,0,0,0,0,0,,,,,,,,,,,,,
111,710224,1745469307191,0.0,41.0,,-0.03,-0.1,0.96,-18.0,1.0,0.0,0.96,1.26,77.0,1822.0,17.2,4.57,,14.5,1.077,100.6,,19.7,5.0,,,,,,,,,,,,0,0,0,0,0,0,0,0,0,0,0,0,0,0,0,0,,,,,,0.0,,,,,,,
112,710244,1745469307211,,,,,,,,,,,,,,,,,,,,,,,,,,,,,,,,,,0,0,0,0,0,0,0,0,0,0,0,0,0,0,0,0,,,,,,,,,,,,,
113,710264,1745469307231,0.0,27.0,,-0.01,-0.1,0.98,-18.0,1.0,0.0,0.98,1.26,78.0,1822.0,17.2,4.5,,14.51,1.091,100.6,,19.7,5.0,,,,,,,,,,,,0,0,0,0,0,0,0,0,0,0,0,0,0,0,0,0,,,,,,0.0,,,,,,,
114,710284,1745469307251,,,,,,,,,,,,,,,,,,,,,,,5.0,5.0,5.0,6.0,0.0,0.0,0.0,0.0,2.28,,,0,0,0,0,0,0,0,0,0,0,0,0,0,0,0,0,,0.0,,,,,38.990719,-76.939865,8.72,31.4,25.0,2.0,1.0
115,710304,1745469307271,0.0,37.0,,-0.03,-0.09,0.99,-18.0,1.0,0.0,0.99,1.26,79.0,1789.0,17.2,4.45,,14.54,1.1,100.6,,19.7,5.0,,,,,,,,,,,,0,0,0,0,0,0,0,0,0,0,0,0,0,0,0,0,,,,,,0.0,,,,,,,
116,710324,1745469307291,,,,,,,,,,,,,,,,,,,,,,,,,,,,,,,,,,0,0,0,0,0,0,0,0,0,0,0,0,0,0,0,0,,,,,,,,,,,,,
117,710344,1745469307311,0.0,20.0,,-0.04,-0.08,0.99,-19.0,0.0,0.0,1.0,1.26,79.0,1761.0,17.4,4.48,,14.54,1.1,100.6,,19.3,5.0,,,,,,,,,,,,0,0,0,0,0,0,0,0,0,0,0,0,0,0,0,0,,,,,,0.0,,,,,,,
118,710364,1745469307331,,,,,,,,,,,,,,,,,,,,,,,,,,,,,,,,,,0,0,0,0,0,0,0,0,0,0,0,0,0,0,0,0,,,,,,,,,,,,,
119,710384,1745469307351,0.0,17.0,13.75,-0.06,-0.07,1.0,-18.0,1.0,0.0,1.0,1.26,80.0,1761.0,17.4,4.48,15.0,14.56,1.116,100.6,167.0,19.3,5.0,5.0,7.0,5.0,6.0,0.0,0.0,0.0,0.0,2.27,0.0,1.0,0,0,0,0,0,0,0,0,0,0,0,0,0,0,0,0,0.0,0.0,1.0,0.0,0.0,0.0,38.990723,-76.939873,8.88,31.4,25.0,2.0,1.0
120,710404,1745469307371,,,,,,,,,,,,,,,,,,,,,,,,,,,,,,,,,,0,0,0,0,0,0,0,0,0,0,0,0,0,0,0,0,,,,,,,,,,,,,
121,710424,1745469307391,0.0,17.0,,-0.08,-0.08,0.99,-18.0,1.0,0.0,0.99,1.26,79.0,1851.0,17.6,4.52,,14.55,1.109,100.6,,20.4,5.0,,,,,,,,,,,,0,0,0,0,0,0,0,0,0,0,0,0,0,0,0,0,,,,,,0.0,,,,,,,
122,710444,1745469307411,,,,,,,,,,,,,,,,,,,,,,,,,,,,,,,,,,0,0,0,0,0,0,0,0,0,0,0,0,0,0,0,0,,,,,,,,,,,,,
123,710464,1745469307431,0.0,17.0,,-0.09,-0.08,0.96,-18.0,1.0,0.0,0.96,1.26,77.0,1967.0,17.7,4.52,,14.47,1.086,100.6,,20.4,5.0,,,,,,,,,,,,0,0,0,0,0,0,0,0,0,0,0,0,0,0,0,0,,,,,,0.0,,,,,,,
124,710484,1745469307451,,,,,,,,,,,,,,,,,,,,,,,5.0,6.0,5.0,6.0,0.0,0.0,0.0,0.0,2.26,,,0,0,0,0,0,0,0,0,0,0,0,0,0,0,0,0,,0.0,,,,,38.990726,-76.939873,8.22,31.4,25.0,2.0,1.0
125,710504,1745469307471,0.0,34.0,,-0.08,-0.09,0.99,-18.0,1.0,0.0,0.99,1.26,79.0,1975.0,17.8,4.57,,14.42,1.073,100.6,,20.4,5.0,,,,,,,,,,,,0,0,0,0,0,0,0,0,0,0,0,0,0,0,0,0,,,,,,0.0,,,,,,,
126,710524,1745469307493,,,,,,,,,,,,,,,,,,,,,,,,,,,,,,,,,,0,0,0,0,0,0,0,0,0,0,0,0,0,0,0,0,,,,,,,,,,,,,
127,710544,1745469307513,0.0,37.0,,-0.07,-0.08,0.99,-18.0,1.0,0.0,1.0,1.26,79.0,2051.0,17.7,4.57,,14.42,1.073,100.6,,20.8,5.0,,,,,,,,,,,,0,0,0,0,0,0,0,0,0,0,0,0,0,0,0,0,,,,,,0.0,,,,,,,
128,710564,1745469307533,,,,,,,,,,,,,,,,,,,,,,,,,,,,,,,,,,0,0,0,0,0,0,0,0,0,0,0,0,0,0,0,0,,,,,,,,,,,,,
129,710584,1745469307553,0.0,34.0,,-0.09,-0.08,1.01,-18.0,1.0,0.0,1.02,1.26,81.0,2051.0,17.7,4.57,,14.47,1.07,100.6,,20.8,5.0,5.0,7.0,5.0,6.0,0.0,0.0,0.0,0.0,2.27,,,0,0,0,0,0,0,0,0,0,0,0,0,0,0,0,0,,1.0,,,,0.0,38.990726,-76.939873,8.72,31.4,25.0,2.0,1.0
130,710604,1745469307573,,,,,,,,,,,,,,,,,,,,,,,,,,,,,,,,,,0,0,0,0,0,0,0,0,0,0,0,0,0,0,0,0,,,,,,,,,,,,,
131,710624,1745469307592,0.0,41.0,,-0.09,-0.09,0.99,-18.0,1.0,0.0,1.0,1.26,79.0,1919.0,17.7,4.6,,14.54,1.053,100.6,,20.7,5.0,,,,,,,,,,,,0,0,0,0,0,0,0,0,0,0,0,0,0,0,0,0,,,,,,0.0,,,,,,,
132,710644,1745469307612,,,,,,,,,,,,,,,,,,,,,,,,,,,,,,,,,,0,0,0,0,0,0,0,0,0,0,0,0,0,0,0,0,,,,,,,,,,,,,
133,710664,1745469307632,0.0,30.0,,-0.07,-0.08,0.99,-18.0,1.0,0.0,1.0,1.26,79.0,1730.0,17.6,4.52,,14.56,1.081,100.6,,20.7,5.0,,,,,,,,,,,,0,0,0,0,0,0,0,0,0,0,0,0,0,0,0,0,,,,,,0.0,,,,,,,
134,710684,1745469307652,,,,,,,,,,,,,,,,,,,,,,,5.0,6.0,5.0,6.0,0.0,0.0,0.0,0.0,2.28,,,0,0,0,0,0,0,0,0,0,0,0,0,0,0,0,0,,0.0,,,,,38.99073,-76.939873,8.34,31.4,25.0,2.0,1.0
135,710704,1745469307672,0.0,30.0,,-0.08,-0.07,0.99,-18.0,1.0,0.0,1.0,1.26,79.0,1833.0,17.3,4.45,,14.52,1.088,100.6,,20.7,5.0,,,,,,,,,,,,0,0,0,0,0,0,0,0,0,0,0,0,0,0,0,0,,,,,,0.0,,,,,,,
136,710724,1745469307692,,,,,,,,,,,,,,,,,,,,,,,,,,,,,,,,,,0,0,0,0,0,0,0,0,0,0,0,0,0,0,0,0,,,,,,,,,,,,,
137,710744,1745469307712,0.0,27.0,,-0.09,-0.08,0.98,-18.0,1.0,0.0,0.99,1.26,79.0,1755.0,17.3,4.44,,14.52,1.088,100.6,,19.0,5.0,,,,,,,,,,,,0,0,0,0,0,0,0,0,0,0,0,0,0,0,0,0,,,,,,0.0,,,,,,,
138,710764,1745469307732,,,,,,,,,,,,,,,,,,,,,,,,,,,,,,,,,,0,0,0,0,0,0,0,0,0,0,0,0,0,0,0,0,,,,,,,,,,,,,
139,710784,1745469307752,0.0,20.0,,-0.09,-0.08,1.0,-18.0,0.0,0.0,1.01,1.26,80.0,1755.0,17.3,4.44,,14.52,1.067,100.6,,19.0,5.0,5.0,3.0,5.0,6.0,0.0,0.0,0.0,0.0,2.28,,,0,0,0,0,0,0,0,0,0,0,0,0,0,0,0,0,,0.0,,,,0.0,38.990734,-76.939873,9.07,31.5,25.0,2.0,1.0
140,710804,1745469307772,,,,,,,,,,,,,,,,,,,,,,,,,,,,,,,,,,0,0,0,0,0,0,0,0,0,0,0,0,0,0,0,0,,,,,,,,,,,,,
141,710824,1745469307792,0.0,30.0,,-0.09,-0.07,0.99,-18.0,0.0,0.0,1.0,1.26,79.0,1753.0,17.3,4.46,,14.58,1.075,100.6,,20.1,5.0,,,,,,,,,,,,0,0,0,0,0,0,0,0,0,0,0,0,0,0,0,0,,,,,,0.0,,,,,,,
142,710844,1745469307812,,,,,,,,,,,,,,,,,,,,,,,,,,,,,,,,,,0,0,0,0,0,0,0,0,0,0,0,0,0,0,0,0,,,,,,,,,,,,,
143,710864,1745469307832,0.0,30.0,,-0.1,-0.05,1.02,-18.0,0.0,0.0,1.02,1.26,81.0,1856.0,17.4,4.53,,14.5,1.065,100.6,,20.1,5.0,,,,,,,,,,,,0,0,0,0,0,0,0,0,0,0,0,0,0,0,0,0,,,,,,0.0,,,,,,,
144,710884,1745469307852,,,,,,,,,,,,,,,,,,,,,,,5.0,6.0,5.0,6.0,0.0,131.0,0.0,0.0,2.27,,,0,0,0,0,0,0,0,0,0,0,0,0,0,0,0,0,,0.0,,,,,38.990734,-76.939873,8.7,31.5,25.0,2.0,1.0
145,710904,1745469307872,0.0,47.0,,-0.09,-0.05,1.01,-18.0,0.0,0.0,1.02,1.26,81.0,1916.0,17.6,4.52,,14.5,1.066,100.6,,20.1,5.0,,,,,,,,,,,,0,0,0,0,0,0,0,0,0,0,0,0,0,0,0,0,,,,,,0.0,,,,,,,
146,710924,1745469307892,,,,,,,,,,,,,,,,,,,,,,,,,,,,,,,,,,0,0,0,0,0,0,0,0,0,0,0,0,0,0,0,0,,,,,,,,,,,,,
147,710944,1745469307910,0.0,44.0,,-0.09,-0.05,0.99,-18.0,0.0,0.0,0.99,1.26,79.0,2034.0,18.1,4.55,,14.5,1.066,100.6,,20.3,5.0,,,,,,,,,,,,0,0,0,0,0,0,0,0,0,0,0,0,0,0,0,0,,,,,,0.0,,,,,,,
148,710964,1745469307930,,,,,,,,,,,,,,,,,,,,,,,,,,,,,,,,,,0,0,0,0,0,0,0,0,0,0,0,0,0,0,0,0,,,,,,,,,,,,,
149,710984,1745469307950,0.0,34.0,,-0.08,-0.05,0.98,-17.0,0.0,0.0,0.99,1.26,78.0,2034.0,18.1,4.55,,14.42,1.057,100.6,,20.3,5.0,5.0,7.0,5.0,6.0,0.0,0.0,0.0,0.0,2.27,,,0,0,0,0,0,0,0,0,0,0,0,0,0,0,0,0,,0.0,,,,0.0,38.990738,-76.939873,8.54,31.5,25.0,2.0,1.0
150,711004,1745469307970,,,,,,,,,,,,,,,,,,,,,,,,,,,,,,,,,,0,0,0,0,0,0,0,0,0,0,0,0,0,0,0,0,,,,,,,,,,,,,
151,711024,1745469307990,0.0,30.0,,-0.07,-0.04,0.96,-18.0,0.0,0.0,0.96,1.26,77.0,1954.0,18.3,4.62,,14.46,1.042,100.6,,20.6,5.0,,,,,,,,,,,,0,0,0,0,0,0,0,0,0,0,0,0,0,0,0,0,,,,,,0.0,,,,,,,
152,711044,1745469308002,,,,,,,,,,,,,,,,,,,,,,,,,,,,,,,,,,0,0,0,0,0,0,0,0,0,0,0,0,0,0,0,0,,,,,,,,,,,,,
153,711064,1745469308022,0.0,20.0,,-0.06,-0.04,0.99,-18.0,0.0,0.0,0.99,1.26,79.0,1797.0,18.4,4.6,,14.55,1.065,100.6,,20.6,5.0,,,,,,,,,,,,0,0,0,0,0,0,0,0,0,0,0,0,0,0,0,0,,,,,,0.0,,,,,,,
154,711084,1745469308042,,,,,,,,,,,,,,,,,,,,,,,5.0,7.0,5.0,6.0,0.0,118.0,0.0,0.0,2.26,,,0,0,0,0,0,0,0,0,0,0,0,0,0,0,0,0,,0.0,,,,,38.990738,-76.939873,8.65,31.5,23.0,2.0,1.2
155,711104,1745469308062,0.0,34.0,,-0.08,-0.06,1.01,-18.0,0.0,0.0,1.02,1.26,81.0,1766.0,18.6,4.59,,14.5,1.081,100.6,,20.6,5.0,,,,,,,,,,,,0,0,0,0,0,0,0,0,0,0,0,0,0,0,0,0,,,,,,0.0,,,,,,,
156,711124,1745469308092,,,,,,,,,,,,,,,,,,,,,,,,,,,,,,,,,,0,0,0,0,0,0,0,0,0,0,0,0,0,0,0,0,,,,,,,,,,,,,
157,711144,1745469308112,0.0,30.0,,-0.07,-0.06,1.0,-18.0,0.0,0.0,1.0,1.26,80.0,1764.0,20.5,4.5,,14.5,1.081,100.6,,19.1,5.0,,,,,,,,,,,,0,0,0,0,0,0,0,0,0,0,0,0,0,0,0,0,,,,,,0.0,,,,,,,
158,711164,1745469308132,,,,,,,,,,,,,,,,,,,,,,,,,,,,,,,,,,0,0,0,0,0,0,0,0,0,0,0,0,0,0,0,0,,,,,,,,,,,,,
159,711184,1745469308152,0.0,37.0,,-0.07,-0.05,1.0,-18.0,1.0,0.0,1.0,1.26,79.0,1764.0,20.5,4.5,,14.52,1.088,100.6,,19.1,5.0,5.0,6.0,5.0,6.0,0.0,0.0,0.0,0.0,2.27,,,0,0,0,0,0,0,0,0,0,0,0,0,0,0,0,0,,0.0,,,,0.0,38.990738,-76.939873,8.88,31.5,23.0,2.0,1.2
160,711204,1745469308172,,,,,,,,,,,,,,,,,,,,,,,,,,,,,,,,,,0,0,0,0,0,0,0,0,0,0,0,0,0,0,0,0,,,,,,,,,,,,,
161,711224,1745469308192,0.0,41.0,,-0.08,-0.05,0.98,-18.0,1.0,0.0,0.99,1.26,79.0,1822.0,20.8,4.46,,14.54,1.108,100.6,,19.6,5.0,,,,,,,,,,,,0,0,0,0,0,0,0,0,0,0,0,0,0,0,0,0,,,,,,0.0,,,,,,,
162,711244,1745469308212,,,,,,,,,,,,,,,,,,,,,,,,,,,,,,,,,,0,0,0,0,0,0,0,0,0,0,0,0,0,0,0,0,,,,,,,,,,,,,
163,711264,1745469308232,0.0,37.0,,-0.08,-0.03,0.99,-18.0,0.0,0.0,1.0,1.26,79.0,1792.0,23.0,4.49,,14.56,1.087,100.6,,19.6,5.0,,,,,,,,,,,,0,0,0,0,0,0,0,0,0,0,0,0,0,0,0,0,,,,,,0.0,,,,,,,
164,711284,1745469308252,,,,,,,,,,,,,,,,,,,,,,,5.0,7.0,5.0,6.0,0.0,0.0,0.0,0.0,2.28,,,0,0,0,0,0,0,0,0,0,0,0,0,0,0,0,0,,0.0,,,,,38.990742,-76.939873,8.91,31.5,23.0,2.0,1.2
165,711304,1745469308272,0.0,44.0,,-0.09,-0.02,1.0,-18.0,0.0,0.0,1.0,1.26,80.0,1856.0,29.6,4.65,,14.63,1.097,100.6,,19.6,5.0,,,,,,,,,,,,0,0,0,0,0,0,0,0,0,0,0,0,0,0,0,0,,,,,,0.0,,,,,,,
166,711324,1745469308293,,,,,,,,,,,,,,,,,,,,,,,,,,,,,,,,,,0,0,0,0,0,0,0,0,0,0,0,0,0,0,0,0,,,,,,,,,,,,,
167,711344,1745469308313,0.0,37.0,,-0.09,-0.01,1.02,-17.0,1.0,1.0,1.02,1.26,81.0,2025.0,31.8,4.54,,14.63,1.097,100.6,,20.7,5.0,,,,,,,,,,,,0,0,0,0,0,0,0,0,0,0,0,0,0,0,0,0,,,,,,0.0,,,,,,,
168,711364,1745469308333,,,,,,,,,,,,,,,,,,,,,,,,,,,,,,,,,,0,0,0,0,0,0,0,0,0,0,0,0,0,0,0,0,,,,,,,,,,,,,
169,711384,1745469308353,0.0,17.0,13.8,-0.08,-0.02,1.0,-17.0,1.0,1.0,1.01,1.26,80.0,2025.0,31.8,4.54,15.0,14.59,1.1,100.6,167.0,20.7,5.0,5.0,6.0,5.0,6.0,0.0,0.0,0.0,0.0,2.27,0.0,1.0,0,0,0,0,0,0,0,0,0,0,0,0,0,0,0,0,0.0,0.0,1.0,0.0,0.0,0.0,38.990746,-76.939873,8.64,31.5,23.0,2.0,1.2
170,711404,1745469308373,,,,,,,,,,,,,,,,,,,,,,,,,,,,,,,,,,0,0,0,0,0,0,0,0,0,0,0,0,0,0,0,0,,,,,,,,,,,,,
171,711424,1745469308392,0.0,30.0,,-0.06,-0.03,0.99,-17.0,1.0,1.0,0.99,1.26,79.0,2068.0,32.5,4.73,,14.54,1.071,100.6,,21.0,5.0,,,,,,,,,,,,0,0,0,0,0,0,0,0,0,0,0,0,0,0,0,0,,,,,,0.0,,,,,,,
172,711444,1745469308412,,,,,,,,,,,,,,,,,,,,,,,,,,,,,,,,,,0,0,0,0,0,0,0,0,0,0,0,0,0,0,0,0,,,,,,,,,,,,,
173,711464,1745469308432,0.0,20.0,,-0.06,-0.04,1.03,-17.0,1.0,1.0,1.03,1.26,82.0,2082.0,32.7,4.66,,14.6,1.061,100.6,,21.0,5.0,,,,,,,,,,,,0,0,0,0,0,0,0,0,0,0,0,0,0,0,0,0,,,,,,0.0,,,,,,,
174,711484,1745469308452,,,,,,,,,,,,,,,,,,,,,,,5.0,6.0,5.0,6.0,0.0,0.0,0.0,0.0,2.27,,,0,0,0,0,0,0,0,0,0,0,0,0,0,0,0,0,,1.0,,,,,38.990746,-76.939873,8.93,31.5,23.0,2.0,1.2
175,711504,1745469308472,0.0,34.0,,-0.06,-0.04,1.03,-17.0,0.0,1.0,1.03,1.26,82.0,1839.0,32.7,4.71,,14.67,1.06,100.6,,21.0,5.0,,,,,,,,,,,,0,0,0,0,0,0,0,0,0,0,0,0,0,0,0,0,,,,,,0.0,,,,,,,
176,711524,1745469308492,,,,,,,,,,,,,,,,,,,,,,,,,,,,,,,,,,0,0,0,0,0,0,0,0,0,0,0,0,0,0,0,0,,,,,,,,,,,,,
177,711544,1745469308512,0.0,37.0,,-0.04,-0.07,1.02,-17.0,0.0,1.0,1.03,1.26,82.0,1810.0,32.8,4.46,,14.67,1.06,100.6,,20.8,5.0,,,,,,,,,,,,0,0,0,0,0,0,0,0,0,0,0,0,0,0,0,0,,,,,,0.0,,,,,,,
178,711564,1745469308532,,,,,,,,,,,,,,,,,,,,,,,,,,,,,,,,,,0,0,0,0,0,0,0,0,0,0,0,0,0,0,0,0,,,,,,,,,,,,,
179,711584,1745469308552,0.0,30.0,,-0.05,-0.06,1.01,-17.0,1.0,1.0,1.01,1.26,80.0,1810.0,32.8,4.46,,14.68,1.081,100.6,,20.8,5.0,6.0,7.0,5.0,6.0,0.0,0.0,0.0,0.0,2.27,,,0,0,0,0,0,0,0,0,0,0,0,0,0,0,0,0,,0.0,,,,0.0,38.990749,-76.93988,9.15,31.5,23.0,2.0,1.2
180,711604,1745469308572,,,,,,,,,,,,,,,,,,,,,,,,,,,,,,,,,,0,0,0,0,0,0,0,0,0,0,0,0,0,0,0,0,,,,,,,,,,,,,
181,711624,1745469308591,0.0,34.0,,-0.05,-0.05,0.98,-16.0,1.0,0.0,0.98,1.26,78.0,1877.0,32.7,4.32,,14.63,1.111,100.6,,20.0,5.0,,,,,,,,,,,,0,0,0,0,0,0,0,0,0,0,0,0,0,0,0,0,,,,,,0.0,,,,,,,
182,711644,1745469308611,,,,,,,,,,,,,,,,,,,,,,,,,,,,,,,,,,0,0,0,0,0,0,0,0,0,0,0,0,0,0,0,0,,,,,,,,,,,,,
183,711664,1745469308631,0.0,27.0,,-0.03,-0.08,0.98,-16.0,1.0,0.0,0.98,1.26,78.0,2006.0,32.6,4.35,,14.54,1.138,100.6,,20.0,5.0,,,,,,,,,,,,0,0,0,0,0,0,0,0,0,0,0,0,0,0,0,0,,,,,,0.0,,,,,,,
184,711684,1745469308651,,,,,,,,,,,,,,,,,,,,,,,6.0,6.0,6.0,7.0,0.0,151.0,0.0,0.0,2.28,,,0,0,0,0,0,0,0,0,0,0,0,0,0,0,0,0,,0.0,,,,,38.990753,-76.93988,9.43,31.4,23.0,2.0,1.2
185,711704,1745469308671,0.0,20.0,,-0.02,-0.05,0.99,-16.0,1.0,0.0,0.99,1.26,79.0,2303.0,32.6,4.71,,14.54,1.165,100.6,,20.0,5.0,,,,,,,,,,,,0,0,0,0,0,0,0,0,0,0,0,0,0,0,0,0,,,,,,0.0,,,,,,,
186,711724,1745469308691,,,,,,,,,,,,,,,,,,,,,,,,,,,,,,,,,,0,0,0,0,0,0,0,0,0,0,0,0,0,0,0,0,,,,,,,,,,,,,
187,711744,1745469308711,0.0,24.0,,0.0,-0.07,0.99,-16.0,0.0,0.0,0.99,1.26,79.0,2169.0,32.6,4.65,,14.54,1.165,100.6,,22.1,5.0,,,,,,,,,,,,0,0,0,0,0,0,0,0,0,0,0,0,0,0,0,0,,,,,,0.0,,,,,,,
188,711764,1745469308731,,,,,,,,,,,,,,,,,,,,,,,,,,,,,,,,,,0,0,0,0,0,0,0,0,0,0,0,0,0,0,0,0,,,,,,,,,,,,,
189,711784,1745469308751,0.0,13.0,,-0.02,-0.04,0.98,-15.0,0.0,0.0,0.98,1.26,78.0,2169.0,32.6,4.65,,14.58,1.216,100.6,,22.1,5.0,6.0,6.0,6.0,6.0,0.0,0.0,0.0,0.0,2.28,,,0,0,0,0,0,0,0,0,0,0,0,0,0,0,0,0,,0.0,,,,0.0,38.990757,-76.93988,9.13,31.4,23.0,2.0,1.2
190,711804,1745469308771,,,,,,,,,,,,,,,,,,,,,,,,,,,,,,,,,,0,0,0,0,0,0,0,0,0,0,0,0,0,0,0,0,,,,,,,,,,,,,
191,711824,1745469308791,0.0,13.0,,-0.03,-0.06,0.99,-16.0,0.0,0.0,1.0,1.26,79.0,1939.0,32.6,4.65,,14.64,1.148,100.6,,22.1,5.0,,,,,,,,,,,,0,0,0,0,0,0,0,0,0,0,0,0,0,0,0,0,,,,,,0.0,,,,,,,
192,711844,1745469308811,,,,,,,,,,,,,,,,,,,,,,,,,,,,,,,,,,0,0,0,0,0,0,0,0,0,0,0,0,0,0,0,0,,,,,,,,,,,,,
193,711864,1745469308831,0.0,20.0,,-0.04,-0.07,1.0,-16.0,0.0,0.0,1.0,1.26,80.0,2017.0,32.9,4.65,,14.62,1.057,100.6,,22.1,5.0,,,,,,,,,,,,0,0,0,0,0,0,0,0,0,0,0,0,0,0,0,0,,,,,,0.0,,,,,,,
194,711884,1745469308851,,,,,,,,,,,,,,,,,,,,,,,6.0,7.0,6.0,7.0,0.0,164.0,0.0,0.0,2.27,,,0,0,0,0,0,0,0,0,0,0,0,0,0,0,0,0,,0.0,,,,,38.990757,-76.93988,9.96,31.4,23.0,2.0,1.2
195,711904,1745469308871,0.0,24.0,,-0.05,-0.07,0.99,-15.0,0.0,0.0,0.99,1.26,79.0,2106.0,32.9,4.71,,14.64,1.044,100.6,,22.1,5.0,,,,,,,,,,,,0,0,0,0,0,0,0,0,0,0,0,0,0,0,0,0,,,,,,0.0,,,,,,,
196,711924,1745469308891,,,,,,,,,,,,,,,,,,,,,,,,,,,,,,,,,,0,0,0,0,0,0,0,0,0,0,0,0,0,0,0,0,,,,,,,,,,,,,
197,711944,1745469308911,0.0,27.0,,-0.04,-0.05,0.97,-15.0,-1.0,0.0,0.98,1.26,78.0,2234.0,33.0,4.68,,14.64,1.044,100.6,,23.8,5.0,,,,,,,,,,,,0,0,0,0,0,0,0,0,0,0,0,0,0,0,0,0,,,,,,0.0,,,,,,,
198,711964,1745469308931,,,,,,,,,,,,,,,,,,,,,,,,,,,,,,,,,,0,0,0,0,0,0,0,0,0,0,0,0,0,0,0,0,,,,,,,,,,,,,
199,711984,1745469308951,0.0,20.0,,-0.01,-0.07,0.99,-15.0,-1.0,0.0,0.99,1.26,79.0,2234.0,33.0,4.68,,14.62,1.053,98.8,,23.8,5.0,6.0,2.0,6.0,7.0,0.0,152.0,0.0,0.0,2.26,,,0,0,0,0,0,0,0,0,0,0,0,0,0,0,0,0,,0.0,,,,0.0,38.990757,-76.939873,10.0,31.4,23.0,2.0,1.2
200,712004,1745469308971,,,,,,,,,,,,,,,,,,,,,,,,,,,,,,,,,,0,0,0,0,0,0,0,0,0,0,0,0,0,0,0,0,,,,,,,,,,,,,
201,712024,1745469308991,0.0,13.0,,0.01,-0.09,1.0,-15.0,-1.0,0.0,1.0,1.26,80.0,2258.0,33.0,4.71,,14.6,1.068,98.8,,24.9,5.0,,,,,,,,,,,,0,0,0,0,0,0,0,0,0,0,0,0,0,0,0,0,,,,,,0.0,,,,,,,
202,712044,1745469308999,,,,,,,,,,,,,,,,,,,,,,,,,,,,,,,,,,0,0,0,0,0,0,0,0,0,0,0,0,0,0,0,0,,,,,,,,,,,,,
203,712064,1745469309019,0.0,3.0,,-0.01,-0.07,0.99,-15.0,-1.0,0.0,0.99,1.26,79.0,2323.0,28.1,4.73,,14.56,1.109,98.8,,24.9,5.0,,,,,,,,,,,,0,0,0,0,0,0,0,0,0,0,0,0,0,0,0,0,,,,,,0.0,,,,,,,
204,712084,1745469309039,,,,,,,,,,,,,,,,,,,,,,,6.0,7.0,7.0,7.0,0.0,38.0,0.0,0.0,2.27,,,0,0,0,0,0,0,0,0,0,0,0,0,0,0,0,0,,0.0,,,,,38.990761,-76.939873,10.4,31.4,23.0,2.0,1.2
205,712104,1745469309059,0.0,3.0,,-0.01,-0.08,0.97,-15.0,-1.0,0.0,0.97,1.26,77.0,2251.0,27.2,4.8,,14.52,1.12,98.8,,24.9,5.0,,,,,,,,,,,,0,0,0,0,0,0,0,0,0,0,0,0,0,0,0,0,,,,,,0.0,,,,,,,
206,712124,1745469309093,,,,,,,,,,,,,,,,,,,,,,,,,,,,,,,,,,0,0,0,0,0,0,0,0,0,0,0,0,0,0,0,0,,,,,,,,,,,,,
207,712144,1745469309113,0.0,10.0,,-0.01,-0.06,0.98,-15.0,-1.0,0.0,0.98,1.26,78.0,2390.0,26.4,4.74,,14.52,1.12,98.8,,24.3,5.0,,,,,,,,,,,,0,0,0,0,0,0,0,0,0,0,0,0,0,0,0,0,,,,,,0.0,,,,,,,
208,712164,1745469309133,,,,,,,,,,,,,,,,,,,,,,,,,,,,,,,,,,0,0,0,0,0,0,0,0,0,0,0,0,0,0,0,0,,,,,,,,,,,,,
209,712184,1745469309153,0.0,17.0,,-0.01,-0.01,0.99,-14.0,-1.0,0.0,0.99,1.26,79.0,2390.0,26.4,4.74,,14.52,1.122,98.8,,24.3,5.0,7.0,8.0,7.0,7.0,0.0,68.0,0.0,0.0,2.28,,,0,0,0,0,0,0,0,0,0,0,0,0,0,0,0,0,,1.0,,,,0.0,38.990765,-76.939873,11.09,31.4,23.0,2.0,1.2
210,712204,1745469309173,,,,,,,,,,,,,,,,,,,,,,,,,,,,,,,,,,0,0,0,0,0,0,0,0,0,0,0,0,0,0,0,0,,,,,,,,,,,,,
211,712224,1745469309191,0.0,24.0,,-0.0,-0.02,1.0,-14.0,-1.0,0.0,1.0,1.26,79.0,2462.0,18.4,4.55,,14.42,1.128,98.8,,25.5,5.0,,,,,,,,,,,,0,0,0,0,0,0,0,0,0,0,0,0,0,0,0,0,,,,,,0.0,,,,,,,
212,712244,1745469309211,,,,,,,,,,,,,,,,,,,,,,,,,,,,,,,,,,0,0,0,0,0,0,0,0,0,0,0,0,0,0,0,0,,,,,,,,,,,,,
213,712264,1745469309231,0.0,10.0,,0.0,-0.05,1.01,-14.0,-1.0,0.0,1.01,1.26,81.0,2433.0,11.8,4.2,,14.32,1.114,98.8,,25.5,5.0,,,,,,,,,,,,0,0,0,0,0,0,0,0,0,0,0,0,0,0,0,0,,,,,,0.0,,,,,,,
214,712284,1745469309251,,,,,,,,,,,,,,,,,,,,,,,7.0,8.0,7.0,7.0,0.0,152.0,0.0,0.0,2.28,,,0,0,0,0,0,0,0,0,0,0,0,0,0,0,0,0,,1.0,,,,,38.990768,-76.939873,11.24,31.4,23.0,2.0,1.2
215,712304,1745469309271,0.0,17.0,,-0.01,-0.04,1.02,-14.0,-1.0,0.0,1.02,1.26,81.0,2413.0,8.3,3.82,,14.18,1.111,98.8,,25.5,5.0,,,,,,,,,,,,0,0,0,0,0,0,0,0,0,0,0,0,0,0,0,0,,,,,,0.0,,,,,,,
216,712324,1745469309291,,,,,,,,,,,,,,,,,,,,,,,,,,,,,,,,,,0,0,0,0,0,0,0,0,0,0,0,0,0,0,0,0,,,,,,,,,,,,,
217,712344,1745469309311,0.0,20.0,,-0.01,-0.01,1.01,-13.0,-1.0,0.0,1.01,1.26,80.0,2400.0,7.7,3.77,,14.18,1.111,98.8,,25.1,5.0,,,,,,,,,,,,0,0,0,0,0,0,0,0,0,0,0,0,0,0,0,0,,,,,,0.0,,,,,,,
218,712364,1745469309331,,,,,,,,,,,,,,,,,,,,,,,,,,,,,,,,,,0,0,0,0,0,0,0,0,0,0,0,0,0,0,0,0,,,,,,,,,,,,,
219,712384,1745469309351,0.0,-10.0,13.85,0.0,-0.04,1.02,-13.0,-1.0,0.0,1.02,1.26,81.0,2400.0,7.7,3.77,15.0,14.02,1.115,98.8,167.0,25.1,5.0,7.0,7.0,7.0,8.0,0.0,97.0,0.0,0.0,2.27,0.0,1.0,0,0,0,0,0,0,0,0,0,0,0,0,0,0,0,0,0.0,0.0,1.0,0.0,0.0,0.0,38.990772,-76.939873,11.4,31.4,23.0,2.0,1.2
220,712404,1745469309371,,,,,,,,,,,,,,,,,,,,,,,,,,,,,,,,,,0,0,0,0,0,0,0,0,0,0,0,0,0,0,0,0,,,,,,,,,,,,,
221,712424,1745469309391,0.0,-17.0,,-0.01,-0.02,1.02,-13.0,-1.0,0.0,1.02,1.26,81.0,2623.0,7.4,3.82,,13.94,1.193,98.8,,27.3,5.0,,,,,,,,,,,,0,0,0,0,0,0,0,0,0,0,0,0,0,0,0,0,,,,,,0.0,,,,,,,
222,712444,1745469309411,,,,,,,,,,,,,,,,,,,,,,,,,,,,,,,,,,0,0,0,0,0,0,0,0,0,0,0,0,0,0,0,0,,,,,,,,,,,,,
223,712464,1745469309431,0.0,-7.0,,-0.04,-0.02,1.01,-13.0,-1.0,-1.0,1.01,1.26,81.0,2263.0,5.7,3.79,,13.98,1.15,98.8,,27.3,5.0,,,,,,,,,,,,0,0,0,0,0,0,0,0,0,0,0,0,0,0,0,0,,,,,,0.0,,,,,,,
224,712484,1745469309451,,,,,,,,,,,,,,,,,,,,,,,7.0,39.0,7.0,8.0,0.0,17.0,0.0,0.0,2.26,,,0,0,0,0,0,0,0,0,0,0,0,0,0,0,0,0,,0.0,,,,,38.990772,-76.939873,11.61,31.4,23.0,2.0,1.2
225,712504,1745469309471,0.0,-14.0,,-0.04,-0.02,1.0,-13.0,-1.0,-1.0,1.0,1.26,80.0,2355.0,5.4,3.78,,13.94,1.075,98.8,,27.3,5.0,,,,,,,,,,,,0,0,0,0,0,0,0,0,0,0,0,0,0,0,0,0,,,,,,0.0,,,,,,,
226,712524,1745469309491,,,,,,,,,,,,,,,,,,,,,,,,,,,,,,,,,,0,0,0,0,0,0,0,0,0,0,0,0,0,0,0,0,,,,,,,,,,,,,
227,712544,1745469309511,0.0,0.0,,-0.05,-0.02,1.0,-12.0,-1.0,-1.0,1.0,1.26,80.0,2327.0,5.3,3.79,,13.94,1.075,98.8,,24.9,5.0,,,,,,,,,,,,0,0,0,0,0,0,0,0,0,0,0,0,0,0,0,0,,,,,,0.0,,,,,,,
228,712564,1745469309531,,,,,,,,,,,,,,,,,,,,,,,,,,,,,,,,,,0,0,0,0,0,0,0,0,0,0,0,0,0,0,0,0,,,,,,,,,,,,,
229,712584,1745469309551,2.01,-7.0,,-0.07,0.01,1.0,-12.0,-1.0,-1.0,1.01,1.26,80.0,2327.0,5.3,3.79,,13.95,1.006,98.8,,24.9,5.0,7.0,39.0,7.0,7.0,0.0,230.0,0.0,0.0,2.27,,,0,0,0,0,0,0,0,0,0,0,0,0,0,0,0,0,,0.0,,,,0.0,38.990776,-76.939873,12.21,31.4,23.0,2.0,1.2
230,712604,1745469309571,,,,,,,,,,,,,,,,,,,,,,,,,,,,,,,,,,0,0,0,0,0,0,0,0,0,0,0,0,0,0,0,0,,,,,,,,,,,,,
231,712624,1745469309591,4.52,-7.0,,-0.07,0.01,1.02,-11.0,-1.0,-1.0,1.02,1.26,81.0,2375.0,5.2,3.79,,13.92,0.993,98.8,,25.8,5.0,,,,,,,,,,,,0,0,0,0,0,0,0,0,0,0,0,0,0,0,0,0,,,,,,0.0,,,,,,,
232,712644,1745469309610,,,,,,,,,,,,,,,,,,,,,,,,,,,,,,,,,,0,0,0,0,0,0,0,0,0,0,0,0,0,0,0,0,,,,,,,,,,,,,
233,712664,1745469309630,5.15,-14.0,,-0.09,0.01,1.03,-11.0,-1.0,-1.0,1.04,1.26,83.0,2441.0,5.0,3.78,,13.9,1.011,98.8,,25.8,5.0,,,,,,,,,,,,0,0,0,0,0,0,0,0,0,0,0,0,0,0,0,0,,,,,,0.0,,,,,,,
234,712684,1745469309650,,,,,,,,,,,,,,,,,,,,,,,7.0,39.0,7.0,7.0,0.0,218.0,0.0,0.0,2.27,,,0,0,0,0,0,0,0,0,0,0,0,0,0,0,0,0,,1.0,,,,,38.99078,-76.939873,11.76,31.4,23.0,2.0,1.2
235,712704,1745469309670,7.04,-17.0,,-0.09,0.03,1.01,-10.0,-1.0,0.0,1.02,1.26,81.0,2477.0,4.8,3.78,,13.84,1.046,98.8,,25.8,5.0,,,,,,,,,,,,0,0,0,0,0,0,0,0,0,0,0,0,0,0,0,0,,,,,,0.0,,,,,,,
236,712724,1745469309690,,,,,,,,,,,,,,,,,,,,,,,,,,,,,,,,,,0,0,0,0,0,0,0,0,0,0,0,0,0,0,0,0,,,,,,,,,,,,,
237,712744,1745469309710,9.55,-17.0,,-0.1,0.04,1.02,-10.0,-1.0,0.0,1.02,1.26,81.0,2499.0,4.8,3.79,,13.84,1.046,98.8,,26.7,5.0,,,,,,,,,,,,0,0,0,0,0,0,0,0,0,0,0,0,0,0,0,0,,,,,,0.0,,,,,,,
238,712764,1745469309730,,,,,,,,,,,,,,,,,,,,,,,,,,,,,,,,,,0,0,0,0,0,0,0,0,0,0,0,0,0,0,0,0,,,,,,,,,,,,,
239,712784,1745469309750,11.44,-27.0,,-0.09,0.05,1.0,-9.0,-1.0,0.0,1.01,1.26,80.0,2499.0,4.8,3.79,,13.8,1.068,98.8,,26.7,5.0,7.0,39.0,7.0,7.0,0.0,204.0,0.0,0.0,2.28,,,0,0,0,0,0,0,0,0,0,0,0,0,0,0,0,0,,1.0,,,,0.0,38.99078,-76.939873,11.83,31.4,23.0,2.0,1.2
240,712804,1745469309770,,,,,,,,,,,,,,,,,,,,,,,,,,,,,,,,,,0,0,0,0,0,0,0,0,0,0,0,0,0,0,0,0,,,,,,,,,,,,,
241,712824,1745469309790,11.44,-31.0,,-0.08,0.04,1.01,-8.0,0.0,0.0,1.02,1.26,81.0,2540.0,4.7,3.79,,13.8,1.073,98.8,,27.6,5.0,,,,,,,,,,,,0,0,0,0,0,0,0,0,0,0,0,0,0,0,0,0,,,,,,0.0,,,,,,,
242,712844,1745469309810,,,,,,,,,,,,,,,,,,,,,,,,,,,,,,,,,,0,0,0,0,0,0,0,0,0,0,0,0,0,0,0,0,,,,,,,,,,,,,
243,712864,1745469309830,10.18,-24.0,,-0.06,0.03,1.02,-7.0,0.0,0.0,1.03,1.03,100.0,2495.0,5.1,3.79,,13.87,1.07,98.8,,27.6,5.0,,,,,,,,,,,,0,0,0,0,0,0,0,0,0,0,0,0,0,0,0,0,,,,,,0.0,,,,,,,
244,712884,1745469309850,,,,,,,,,,,,,,,,,,,,,,,7.0,39.0,7.0,7.0,0.0,208.0,0.0,0.0,2.27,,,0,0,0,0,0,0,0,0,0,0,0,0,0,0,0,0,,0.0,,,,,38.990784,-76.939873,11.37,31.4,23.0,2.0,1.2
245,712904,1745469309870,9.55,-21.0,,-0.07,0.06,1.02,-6.0,0.0,0.0,1.03,1.03,100.0,2384.0,5.2,3.79,,13.88,1.075,98.8,,27.6,5.0,,,,,,,,,,,,0,0,0,0,0,0,0,0,0,0,0,0,0,0,0,0,,,,,,0.0,,,,,,,
246,712924,1745469309892,,,,,,,,,,,,,,,,,,,,,,,,,,,,,,,,,,0,0,0,0,0,0,0,0,0,0,0,0,0,0,0,0,,,,,,,,,,,,,
247,712944,1745469309912,10.18,-14.0,,-0.07,0.08,1.03,-5.0,0.0,0.0,1.03,1.03,100.0,2232.0,5.2,3.78,,13.88,1.075,98.8,,25.9,5.0,,,,,,,,,,,,0,0,0,0,0,0,0,0,0,0,0,0,0,0,0,0,,,,,,0.0,,,,,,,
248,712964,1745469309932,,,,,,,,,,,,,,,,,,,,,,,,,,,,,,,,,,0,0,0,0,0,0,0,0,0,0,0,0,0,0,0,0,,,,,,,,,,,,,
249,712984,1745469309952,8.92,-31.0,,-0.06,0.07,1.03,-4.0,0.0,0.0,1.03,1.03,100.0,2232.0,5.2,3.78,,13.99,1.091,98.8,,25.9,5.0,7.0,39.0,7.0,7.0,0.0,210.0,0.0,0.0,2.26,,,0,0,0,0,0,0,0,0,0,0,0,0,0,0,0,0,,0.0,,,,0.0,38.990788,-76.939865,11.31,31.4,23.0,2.0,1.2
250,713004,1745469309972,,,,,,,,,,,,,,,,,,,,,,,,,,,,,,,,,,0,0,0,0,0,0,0,0,0,0,0,0,0,0,0,0,,,,,,,,,,,,,
251,713024,1745469309992,7.67,-34.0,,-0.06,0.09,1.03,-3.0,0.0,0.0,1.04,1.04,100.0,2184.0,5.4,3.77,,13.96,1.122,98.8,,24.3,5.0,,,,,,,,,,,,0,0,0,0,0,0,0,0,0,0,0,0,0,0,0,0,,,,,,0.0,,,,,,,
252,713044,1745469310000,,,,,,,,,,,,,,,,,,,,,,,,,,,,,,,,,,0,0,0,0,0,0,0,0,0,0,0,0,0,0,0,0,,,,,,,,,,,,,
253,713064,1745469310020,6.41,-48.0,,-0.08,0.11,1.04,-2.0,0.0,0.0,1.05,1.05,100.0,2285.0,5.3,3.78,,13.96,1.14,98.8,,24.3,5.0,,,,,,,,,,,,0,0,0,0,0,0,0,0,0,0,0,0,0,0,0,0,,,,,,0.0,,,,,,,
254,713084,1745469310040,,,,,,,,,,,,,,,,,,,,,,,7.0,39.0,7.0,7.0,0.0,210.0,0.0,0.0,2.27,,,0,0,0,0,0,0,0,0,0,0,0,0,0,0,0,0,,0.0,,,,,38.990791,-76.939865,11.7,31.4,23.0,2.0,1.2
255,713104,1745469310060,5.15,-38.0,,-0.08,0.11,1.04,-1.0,0.0,0.0,1.04,1.05,99.0,2312.0,5.2,3.78,,13.96,1.13,98.8,,24.3,5.0,,,,,,,,,,,,0,0,0,0,0,0,0,0,0,0,0,0,0,0,0,0,,,,,,0.0,,,,,,,
256,713124,1745469310080,,,,,,,,,,,,,,,,,,,,,,,,,,,,,,,,,,0,0,0,0,0,0,0,0,0,0,0,0,0,0,0,0,,,,,,,,,,,,,
257,713144,1745469310106,3.9,-44.0,,-0.09,0.13,1.04,0.0,0.0,0.0,1.05,1.05,100.0,2357.0,4.9,3.77,,13.96,1.13,98.8,,24.9,5.0,,,,,,,,,,,,0,0,0,0,0,0,0,0,0,0,0,0,0,0,0,0,,,,,,0.0,,,,,,,
258,713164,1745469310126,,,,,,,,,,,,,,,,,,,,,,,,,,,,,,,,,,0,0,0,0,0,0,0,0,0,0,0,0,0,0,0,0,,,,,,,,,,,,,
259,713184,1745469310146,2.01,-34.0,,-0.09,0.13,1.04,1.0,0.0,0.0,1.06,1.06,100.0,2357.0,4.9,3.77,,13.96,1.128,98.8,,24.9,5.0,7.0,39.0,7.0,7.0,0.0,206.0,0.0,0.0,2.27,,,0,0,0,0,0,0,0,0,0,0,0,0,0,0,0,0,,1.0,,,,0.0,38.990795,-76.939865,11.05,31.4,23.0,2.0,1.2
260,713204,1745469310166,,,,,,,,,,,,,,,,,,,,,,,,,,,,,,,,,,0,0,0,0,0,0,0,0,0,0,0,0,0,0,0,0,,,,,,,,,,,,,
261,713224,1745469310186,0.13,-34.0,,-0.09,0.12,1.03,2.0,0.0,0.0,1.05,1.06,99.0,2401.0,4.9,3.78,,13.94,1.138,98.8,,25.2,5.0,,,,,,,,,,,,0,0,0,0,0,0,0,0,0,0,0,0,0,0,0,0,,,,,,0.0,,,,,,,
262,713244,1745469310210,,,,,,,,,,,,,,,,,,,,,,,,,,,,,,,,,,0,0,0,0,0,0,0,0,0,0,0,0,0,0,0,0,,,,,,,,,,,,,
263,713264,1745469310230,0.0,-34.0,,-0.09,0.11,1.05,3.0,0.0,0.0,1.06,1.06,100.0,2430.0,4.8,3.78,,13.94,1.152,98.8,,25.2,5.0,,,,,,,,,,,,0,0,0,0,0,0,0,0,0,0,0,0,0,0,0,0,,,,,,0.0,,,,,,,
264,713284,1745469310250,,,,,,,,,,,,,,,,,,,,,,,7.0,39.0,7.0,7.0,0.0,208.0,0.0,0.0,2.27,,,0,0,0,0,0,0,0,0,0,0,0,0,0,0,0,0,,0.0,,,,,38.990799,-76.939865,11.39,31.5,24.0,2.0,1.2
265,713304,1745469310270,0.0,-31.0,,-0.08,0.1,1.04,4.0,-1.0,0.0,1.04,1.06,98.0,2388.0,4.9,3.78,,13.94,1.152,98.8,,25.2,5.0,,,,,,,,,,,,0,0,0,0,0,0,0,0,0,0,0,0,0,0,0,0,,,,,,0.0,,,,,,,
266,713324,1745469310290,,,,,,,,,,,,,,,,,,,,,,,,,,,,,,,,,,0,0,0,0,0,0,0,0,0,0,0,0,0,0,0,0,,,,,,,,,,,,,
267,713344,1745469310310,0.0,-34.0,,-0.05,0.1,1.02,5.0,-1.0,0.0,1.02,1.06,96.0,2298.0,5.0,3.78,,13.94,1.152,98.8,,24.7,5.0,,,,,,,,,,,,0,0,0,0,0,0,0,0,0,0,0,0,0,0,0,0,,,,,,0.0,,,,,,,
268,713364,1745469310330,,,,,,,,,,,,,,,,,,,,,,,,,,,,,,,,,,0,0,0,0,0,0,0,0,0,0,0,0,0,0,0,0,,,,,,,,,,,,,
269,713384,1745469310350,0.0,-55.0,13.85,-0.04,0.1,1.02,5.0,0.0,0.0,1.02,1.06,96.0,2298.0,5.0,3.78,15.0,13.98,1.154,98.8,167.0,24.7,5.0,7.0,39.0,7.0,7.0,0.0,206.0,0.0,0.0,2.27,0.0,1.0,0,0,0,0,0,0,0,0,0,0,0,0,0,0,0,0,0.0,1.0,1.0,0.0,0.0,0.0,38.990799,-76.939865,11.04,31.5,24.0,2.0,1.2
270,713404,1745469310370,,,,,,,,,,,,,,,,,,,,,,,,,,,,,,,,,,0,0,0,0,0,0,0,0,0,0,0,0,0,0,0,0,,,,,,,,,,,,,
271,713424,1745469310390,0.0,-71.0,,-0.04,0.11,1.01,6.0,-1.0,0.0,1.02,1.06,96.0,2258.0,5.4,3.79,,13.99,1.154,98.8,,25.6,5.0,,,,,,,,,,,,0,0,0,0,0,0,0,0,0,0,0,0,0,0,0,0,,,,,,0.0,,,,,,,
272,713444,1745469310410,,,,,,,,,,,,,,,,,,,,,,,,,,,,,,,,,,0,0,0,0,0,0,0,0,0,0,0,0,0,0,0,0,,,,,,,,,,,,,
273,713464,1745469310430,0.0,-61.0,,-0.02,0.1,1.0,7.0,-1.0,0.0,1.0,1.06,95.0,2541.0,5.5,3.79,,13.9,1.165,98.8,,25.6,5.0,,,,,,,,,,,,0,0,0,0,0,0,0,0,0,0,0,0,0,0,0,0,,,,,,0.0,,,,,,,
274,713484,1745469310450,,,,,,,,,,,,,,,,,,,,,,,7.0,39.0,7.0,7.0,0.0,206.0,0.0,0.0,2.26,,,0,0,0,0,0,0,0,0,0,0,0,0,0,0,0,0,,0.0,,,,,38.990799,-76.939865,10.84,31.5,24.0,2.0,1.2
275,713504,1745469310470,0.0,-65.0,,-0.02,0.12,1.0,9.0,-1.0,0.0,1.01,1.06,95.0,2482.0,5.7,3.79,,13.92,1.184,98.8,,25.6,5.0,,,,,,,,,,,,0,0,0,0,0,0,0,0,0,0,0,0,0,0,0,0,,,,,,0.0,,,,,,,
276,713524,1745469310490,,,,,,,,,,,,,,,,,,,,,,,,,,,,,,,,,,0,0,0,0,0,0,0,0,0,0,0,0,0,0,0,0,,,,,,,,,,,,,
277,713544,1745469310509,0.0,-44.0,,-0.02,0.16,1.0,10.0,-1.0,0.0,1.01,1.06,95.0,2295.0,5.8,3.77,,13.92,1.184,98.8,,24.9,5.0,,,,,,,,,,,,0,0,0,0,0,0,0,0,0,0,0,0,0,0,0,0,,,,,,0.0,,,,,,,
278,713564,1745469310529,,,,,,,,,,,,,,,,,,,,,,,,,,,,,,,,,,0,0,0,0,0,0,0,0,0,0,0,0,0,0,0,0,,,,,,,,,,,,,
279,713584,1745469310549,0.0,-55.0,,-0.02,0.17,1.0,11.0,-1.0,-1.0,1.01,1.06,95.0,2295.0,5.8,3.77,,13.95,1.139,98.8,,24.9,5.0,7.0,39.0,8.0,7.0,0.0,215.0,0.0,0.0,2.27,,,0,0,0,0,0,0,0,0,0,0,0,0,0,0,0,0,,1.0,,,,0.0,38.990803,-76.939865,11.08,31.5,24.0,2.0,1.2
280,713604,1745469310569,,,,,,,,,,,,,,,,,,,,,,,,,,,,,,,,,,0,0,0,0,0,0,0,0,0,0,0,0,0,0,0,0,,,,,,,,,,,,,
281,713624,1745469310591,0.0,-61.0,,-0.03,0.16,1.0,13.0,-1.0,-1.0,1.01,1.06,95.0,2272.0,5.8,3.75,,14.06,1.117,98.8,,23.9,5.0,,,,,,,,,,,,0,0,0,0,0,0,0,0,0,0,0,0,0,0,0,0,,,,,,0.0,,,,,,,
282,713644,1745469310611,,,,,,,,,,,,,,,,,,,,,,,,,,,,,,,,,,0,0,0,0,0,0,0,0,0,0,0,0,0,0,0,0,,,,,,,,,,,,,
283,713664,1745469310631,0.0,-65.0,,-0.05,0.2,1.0,14.0,-1.0,0.0,1.02,1.06,96.0,2317.0,5.5,3.77,,14.07,1.09,98.8,,23.9,5.0,,,,,,,,,,,,0,0,0,0,0,0,0,0,0,0,0,0,0,0,0,0,,,,,,0.0,,,,,,,
284,713684,1745469310651,,,,,,,,,,,,,,,,,,,,,,,8.0,39.0,8.0,7.0,0.0,217.0,0.0,0.0,2.27,,,0,0,0,0,0,0,0,0,0,0,0,0,0,0,0,0,,0.0,,,,,38.990807,-76.939865,11.69,31.4,24.0,2.0,1.2
285,713704,1745469310671,0.0,-71.0,,-0.05,0.2,0.99,15.0,-1.0,-1.0,1.01,1.06,95.0,2415.0,5.5,3.78,,14.04,1.056,98.8,,23.9,5.0,,,,,,,,,,,,0,0,0,0,0,0,0,0,0,0,0,0,0,0,0,0,,,,,,0.0,,,,,,,
286,713724,1745469310693,,,,,,,,,,,,,,,,,,,,,,,,,,,,,,,,,,0,0,0,0,0,0,0,0,0,0,0,0,0,0,0,0,,,,,,,,,,,,,
287,713744,1745469310713,0.0,-78.0,,-0.05,0.22,0.98,16.0,-1.0,-1.0,1.01,1.06,95.0,2526.0,5.7,3.79,,14.04,1.056,98.8,,25.4,5.0,,,,,,,,,,,,0,0,0,0,0,0,0,0,0,0,0,0,0,0,0,0,,,,,,0.0,,,,,,,
288,713764,1745469310733,,,,,,,,,,,,,,,,,,,,,,,,,,,,,,,,,,0,0,0,0,0,0,0,0,0,0,0,0,0,0,0,0,,,,,,,,,,,,,
289,713784,1745469310753,0.0,-82.0,,-0.05,0.21,0.97,16.0,-1.0,-1.0,0.99,1.06,93.0,2526.0,5.7,3.79,,14.02,1.06,98.8,,25.4,5.0,8.0,39.0,8.0,7.0,0.0,211.0,0.0,0.0,2.28,,,0,0,0,0,0,0,0,0,0,0,0,0,0,0,0,0,,0.0,,,,0.0,38.99081,-76.939865,11.24,31.4,24.0,2.0,1.2
290,713804,1745469310773,,,,,,,,,,,,,,,,,,,,,,,,,,,,,,,,,,0,0,0,0,0,0,0,0,0,0,0,0,0,0,0,0,,,,,,,,,,,,,
291,713824,1745469310791,0.0,-85.0,,-0.05,0.25,0.96,17.0,-1.0,-1.0,1.0,1.06,94.0,2454.0,6.7,3.8,,14.11,1.08,98.8,,25.3,5.0,,,,,,,,,,,,0,0,0,0,0,0,0,0,0,0,0,0,0,0,0,0,,,,,,0.0,,,,,,,
292,713844,1745469310811,,,,,,,,,,,,,,,,,,,,,,,,,,,,,,,,,,0,0,0,0,0,0,0,0,0,0,0,0,0,0,0,0,,,,,,,,,,,,,
293,713864,1745469310831,0.0,-75.0,,-0.04,0.21,0.97,17.0,0.0,-1.0,1.0,1.06,94.0,2431.0,7.3,3.78,,14.1,1.115,98.8,,25.3,5.0,,,,,,,,,,,,0,0,0,0,0,0,0,0,0,0,0,0,0,0,0,0,,,,,,0.0,,,,,,,
294,713884,1745469310851,,,,,,,,,,,,,,,,,,,,,,,8.0,14.0,8.0,7.0,0.0,65.0,0.0,0.0,2.27,,,0,0,0,0,0,0,0,0,0,0,0,0,0,0,0,0,,0.0,,,,,38.990814,-76.939865,11.22,31.4,24.0,2.0,1.2
295,713904,1745469310871,0.0,-71.0,,-0.01,0.22,0.97,18.0,0.0,-1.0,0.99,1.06,94.0,2680.0,8.4,3.82,,13.99,1.166,98.8,,25.3,5.0,,,,,,,,,,,,0,0,0,0,0,0,0,0,0,0,0,0,0,0,0,0,,,,,,0.0,,,,,,,
296,713924,1745469310891,,,,,,,,,,,,,,,,,,,,,,,,,,,,,,,,,,0,0,0,0,0,0,0,0,0,0,0,0,0,0,0,0,,,,,,,,,,,,,
297,713944,1745469310911,0.0,-61.0,,0.02,0.16,0.99,18.0,0.0,-1.0,1.0,1.06,95.0,2610.0,8.8,3.83,,13.99,1.166,98.8,,27.9,5.0,,,,,,,,,,,,0,0,0,0,0,0,0,0,0,0,0,0,0,0,0,0,,,,,,0.0,,,,,,,
298,713964,1745469310931,,,,,,,,,,,,,,,,,,,,,,,,,,,,,,,,,,0,0,0,0,0,0,0,0,0,0,0,0,0,0,0,0,,,,,,,,,,,,,
299,713984,1745469310951,0.0,-68.0,,0.0,0.2,1.01,18.0,0.0,-1.0,1.03,1.06,97.0,2610.0,8.8,3.83,,14.04,1.193,98.8,,27.9,5.0,8.0,14.0,8.0,7.0,0.0,100.0,0.0,0.0,2.27,,,0,0,0,0,0,0,0,0,0,0,0,0,0,0,0,0,,0.0,,,,0.0,38.990818,-76.939865,11.23,31.4,24.0,2.0,1.2
300,714004,1745469310971,,,,,,,,,,,,,,,,,,,,,,,,,,,,,,,,,,0,0,0,0,0,0,0,0,0,0,0,0,0,0,0,0,,,,,,,,,,,,,
301,714024,1745469310991,0.0,-68.0,,-0.02,0.19,0.97,18.0,0.0,0.0,0.99,1.06,94.0,2433.0,8.8,3.79,,14.07,1.111,98.8,,25.3,5.0,,,,,,,,,,,,0,0,0,0,0,0,0,0,0,0,0,0,0,0,0,0,,,,,,0.0,,,,,,,
302,714044,1745469311001,,,,,,,,,,,,,,,,,,,,,,,,,,,,,,,,,,0,0,0,0,0,0,0,0,0,0,0,0,0,0,0,0,,,,,,,,,,,,,
303,714064,1745469311021,0.0,-82.0,,-0.02,0.15,0.95,17.0,0.0,0.0,0.96,1.06,90.0,2424.0,8.7,3.77,,14.08,1.07,98.8,,25.3,5.0,,,,,,,,,,,,0,0,0,0,0,0,0,0,0,0,0,0,0,0,0,0,,,,,,0.0,,,,,,,
304,714084,1745469311041,,,,,,,,,,,,,,,,,,,,,,,8.0,14.0,8.0,8.0,0.0,100.0,0.0,0.0,2.27,,,0,0,0,0,0,0,0,0,0,0,0,0,0,0,0,0,,0.0,,,,,38.990818,-76.939865,12.21,31.4,23.0,2.0,1.2
305,714104,1745469311061,0.0,-88.0,,-0.03,0.14,0.97,17.0,1.0,0.0,0.98,1.06,93.0,2523.0,9.1,3.79,,14.04,1.073,98.8,,25.3,5.0,,,,,,,,,,,,0,0,0,0,0,0,0,0,0,0,0,0,0,0,0,0,,,,,,0.0,,,,,,,
306,714124,1745469311091,,,,,,,,,,,,,,,,,,,,,,,,,,,,,,,,,,0,0,0,0,0,0,0,0,0,0,0,0,0,0,0,0,,,,,,,,,,,,,
307,714144,1745469311111,0.0,-78.0,,-0.04,0.14,0.96,17.0,0.0,0.0,0.97,1.06,92.0,2600.0,8.8,3.83,,14.04,1.073,98.8,,27.0,5.0,,,,,,,,,,,,0,0,0,0,0,0,0,0,0,0,0,0,0,0,0,0,,,,,,0.0,,,,,,,
308,714164,1745469311131,,,,,,,,,,,,,,,,,,,,,,,,,,,,,,,,,,0,0,0,0,0,0,0,0,0,0,0,0,0,0,0,0,,,,,,,,,,,,,
309,714184,1745469311151,0.0,-75.0,,-0.04,0.15,1.01,17.0,0.0,0.0,1.02,1.06,96.0,2600.0,8.8,3.83,,13.99,1.088,98.8,,27.0,5.0,8.0,14.0,8.0,7.0,0.0,100.0,0.0,0.0,2.27,,,0,0,0,0,0,0,0,0,0,0,0,0,0,0,0,0,,0.0,,,,0.0,38.990822,-76.939865,12.31,31.4,23.0,2.0,1.2
310,714204,1745469311171,,,,,,,,,,,,,,,,,,,,,,,,,,,,,,,,,,0,0,0,0,0,0,0,0,0,0,0,0,0,0,0,0,,,,,,,,,,,,,
311,714224,1745469311191,0.0,-75.0,,-0.03,0.15,0.98,17.0,1.0,0.0,0.99,1.06,93.0,2660.0,8.8,3.85,,13.95,1.09,98.8,,28.6,5.0,,,,,,,,,,,,0,0,0,0,0,0,0,0,0,0,0,0,0,0,0,0,,,,,,0.0,,,,,,,
312,714244,1745469311209,,,,,,,,,,,,,,,,,,,,,,,,,,,,,,,,,,0,0,0,0,0,0,0,0,0,0,0,0,0,0,0,0,,,,,,,,,,,,,
313,714264,1745469311229,0.0,-82.0,,-0.02,0.12,1.01,17.0,0.0,0.0,1.02,1.06,96.0,2603.0,8.9,3.87,,13.96,1.098,98.8,,28.6,5.0,,,,,,,,,,,,0,0,0,0,0,0,0,0,0,0,0,0,0,0,0,0,,,,,,0.0,,,,,,,
314,714284,1745469311249,,,,,,,,,,,,,,,,,,,,,,,8.0,14.0,8.0,7.0,0.0,110.0,0.0,0.0,2.27,,,0,0,0,0,0,0,0,0,0,0,0,0,0,0,0,0,,0.0,,,,,38.990822,-76.939865,12.01,31.4,23.0,2.0,1.2
315,714304,1745469311269,0.0,-88.0,,-0.01,0.12,0.98,18.0,0.0,0.0,0.99,1.06,93.0,2569.0,8.9,3.85,,13.99,1.123,98.8,,28.6,5.0,,,,,,,,,,,,0,0,0,0,0,0,0,0,0,0,0,0,0,0,0,0,,,,,,0.0,,,,,,,
316,714324,1745469311291,,,,,,,,,,,,,,,,,,,,,,,,,,,,,,,,,,0,0,0,0,0,0,0,0,0,0,0,0,0,0,0,0,,,,,,,,,,,,,
317,714344,1745469311311,0.0,-65.0,,-0.0,0.14,0.98,18.0,0.0,0.0,0.99,1.06,94.0,2486.0,9.1,3.85,,13.99,1.123,98.8,,28.2,5.0,,,,,,,,,,,,0,0,0,0,0,0,0,0,0,0,0,0,0,0,0,0,,,,,,0.0,,,,,,,
318,714364,1745469311331,,,,,,,,,,,,,,,,,,,,,,,,,,,,,,,,,,0,0,0,0,0,0,0,0,0,0,0,0,0,0,0,0,,,,,,,,,,,,,
319,714384,1745469311351,0.0,-88.0,13.88,-0.0,0.13,1.0,19.0,0.0,-1.0,1.01,1.06,95.0,2486.0,9.1,3.85,15.0,14.03,1.158,98.8,167.0,28.2,5.0,8.0,14.0,8.0,7.0,0.0,110.0,0.0,0.0,2.27,0.0,1.0,0,0,0,0,0,0,0,0,0,0,0,0,0,0,0,0,0.0,1.0,1.0,0.0,0.0,0.0,38.990826,-76.939865,12.03,31.4,23.0,2.0,1.2
320,714404,1745469311371,,,,,,,,,,,,,,,,,,,,,,,,,,,,,,,,,,0,0,0,0,0,0,0,0,0,0,0,0,0,0,0,0,,,,,,,,,,,,,
321,714424,1745469311391,0.0,-85.0,,-0.02,0.17,0.99,19.0,0.0,-1.0,1.0,1.06,95.0,2493.0,9.4,3.84,,14.06,1.194,98.8,,27.3,5.0,,,,,,,,,,,,0,0,0,0,0,0,0,0,0,0,0,0,0,0,0,0,,,,,,0.0,,,,,,,
322,714444,1745469311411,,,,,,,,,,,,,,,,,,,,,,,,,,,,,,,,,,0,0,0,0,0,0,0,0,0,0,0,0,0,0,0,0,,,,,,,,,,,,,
323,714464,1745469311431,0.0,-88.0,,-0.02,0.21,1.02,21.0,0.0,0.0,1.04,1.06,98.0,2477.0,9.4,3.84,,14.08,1.203,98.8,,27.3,5.0,,,,,,,,,,,,0,0,0,0,0,0,0,0,0,0,0,0,0,0,0,0,,,,,,0.0,,,,,,,
324,714484,1745469311451,,,,,,,,,,,,,,,,,,,,,,,8.0,14.0,8.0,7.0,0.0,105.0,0.0,0.0,2.26,,,0,0,0,0,0,0,0,0,0,0,0,0,0,0,0,0,,0.0,,,,,38.990829,-76.939865,11.93,31.4,23.0,2.0,1.2
325,714504,1745469311471,0.0,-85.0,,-0.02,0.22,1.01,21.0,0.0,-1.0,1.04,1.06,98.0,2486.0,9.3,3.84,,14.11,1.2,98.8,,27.3,5.0,,,,,,,,,,,,0,0,0,0,0,0,0,0,0,0,0,0,0,0,0,0,,,,,,0.0,,,,,,,
326,714524,1745469311491,,,,,,,,,,,,,,,,,,,,,,,,,,,,,,,,,,0,0,0,0,0,0,0,0,0,0,0,0,0,0,0,0,,,,,,,,,,,,,
327,714544,1745469311511,0.0,-78.0,,-0.03,0.23,0.98,22.0,-1.0,-1.0,1.01,1.06,95.0,2448.0,9.3,3.83,,14.11,1.2,98.8,,27.0,5.0,,,,,,,,,,,,0,0,0,0,0,0,0,0,0,0,0,0,0,0,0,0,,,,,,0.0,,,,,,,
328,714564,1745469311531,,,,,,,,,,,,,,,,,,,,,,,,,,,,,,,,,,0,0,0,0,0,0,0,0,0,0,0,0,0,0,0,0,,,,,,,,,,,,,
329,714584,1745469311551,0.0,-88.0,,-0.03,0.21,1.0,22.0,-1.0,-1.0,1.03,1.06,97.0,2448.0,9.3,3.83,,14.1,1.189,98.8,,27.0,5.0,8.0,13.0,8.0,7.0,0.0,176.0,0.0,0.0,2.27,,,0,0,0,0,0,0,0,0,0,0,0,0,0,0,0,0,,0.0,,,,0.0,38.990833,-76.939865,12.45,31.4,23.0,2.0,1.2
330,714604,1745469311571,,,,,,,,,,,,,,,,,,,,,,,,,,,,,,,,,,0,0,0,0,0,0,0,0,0,0,0,0,0,0,0,0,,,,,,,,,,,,,
331,714624,1745469311591,0.0,-92.0,,-0.03,0.24,0.98,23.0,-1.0,-1.0,1.01,1.06,95.0,2531.0,9.2,3.85,,14.0,1.186,98.8,,27.2,5.0,,,,,,,,,,,,0,0,0,0,0,0,0,0,0,0,0,0,0,0,0,0,,,,,,0.0,,,,,,,
332,714644,1745469311610,,,,,,,,,,,,,,,,,,,,,,,,,,,,,,,,,,0,0,0,0,0,0,0,0,0,0,0,0,0,0,0,0,,,,,,,,,,,,,
333,714664,1745469311630,0.0,-88.0,,-0.03,0.22,0.98,23.0,-1.0,-1.0,1.01,1.06,95.0,2575.0,9.0,3.83,,14.0,1.166,98.8,,27.2,5.0,,,,,,,,,,,,0,0,0,0,0,0,0,0,0,0,0,0,0,0,0,0,,,,,,0.0,,,,,,,
334,714684,1745469311650,,,,,,,,,,,,,,,,,,,,,,,8.0,2.0,8.0,7.0,0.0,240.0,0.0,0.0,2.27,,,0,0,0,0,0,0,0,0,0,0,0,0,0,0,0,0,,0.0,,,,,38.990837,-76.939865,12.03,31.5,23.0,2.0,1.2
335,714704,1745469311670,0.0,-112.0,,-0.01,0.2,0.99,24.0,-1.0,-1.0,1.01,1.06,95.0,2579.0,8.9,3.83,,14.02,1.171,98.8,,27.2,5.0,,,,,,,,,,,,0,0,0,0,0,0,0,0,0,0,0,0,0,0,0,0,,,,,,0.0,,,,,,,
336,714724,1745469311690,,,,,,,,,,,,,,,,,,,,,,,,,,,,,,,,,,0,0,0,0,0,0,0,0,0,0,0,0,0,0,0,0,,,,,,,,,,,,,
337,714744,1745469311710,0.0,-102.0,,-0.02,0.21,0.97,24.0,-1.0,-1.0,1.0,1.06,94.0,2604.0,8.8,3.83,,14.02,1.171,98.8,,27.0,5.0,,,,,,,,,,,,0,0,0,0,0,0,0,0,0,0,0,0,0,0,0,0,,,,,,0.0,,,,,,,
338,714764,1745469311730,,,,,,,,,,,,,,,,,,,,,,,,,,,,,,,,,,0,0,0,0,0,0,0,0,0,0,0,0,0,0,0,0,,,,,,,,,,,,,
339,714784,1745469311750,0.0,-109.0,,-0.01,0.19,1.0,25.0,-2.0,-1.0,1.02,1.06,96.0,2604.0,8.8,3.83,,13.98,1.204,98.8,,27.0,5.0,8.0,7.0,8.0,7.0,0.0,216.0,0.0,0.0,2.28,,,0,0,0,0,0,0,0,0,0,0,0,0,0,0,0,0,,0.0,,,,0.0,38.990837,-76.939873,12.35,31.5,23.0,2.0,1.2
340,714804,1745469311770,,,,,,,,,,,,,,,,,,,,,,,,,,,,,,,,,,0,0,0,0,0,0,0,0,0,0,0,0,0,0,0,0,,,,,,,,,,,,,
341,714824,1745469311790,0.0,-102.0,,-0.02,0.21,0.97,26.0,-1.0,-1.0,0.99,1.06,94.0,2630.0,9.0,3.84,,13.96,1.198,98.8,,27.2,5.0,,,,,,,,,,,,0,0,0,0,0,0,0,0,0,0,0,0,0,0,0,0,,,,,,0.0,,,,,,,
342,714844,1745469311810,,,,,,,,,,,,,,,,,,,,,,,,,,,,,,,,,,0,0,0,0,0,0,0,0,0,0,0,0,0,0,0,0,,,,,,,,,,,,,
343,714864,1745469311830,0.0,-102.0,,-0.01,0.19,0.96,26.0,-1.0,-1.0,0.98,1.06,93.0,2592.0,9.2,3.84,,14.0,1.176,98.8,,27.2,5.0,,,,,,,,,,,,0,0,0,0,0,0,0,0,0,0,0,0,0,0,0,0,,,,,,0.0,,,,,,,
344,714884,1745469311850,,,,,,,,,,,,,,,,,,,,,,,9.0,3.0,8.0,7.0,0.0,248.0,0.0,0.0,2.27,,,0,0,0,0,0,0,0,0,0,0,0,0,0,0,0,0,,0.0,,,,,38.990841,-76.939873,12.14,31.5,23.0,2.0,1.2
345,714904,1745469311870,0.0,-109.0,,-0.03,0.2,0.99,26.0,-1.0,0.0,1.01,1.06,95.0,2487.0,9.4,3.81,,14.06,1.18,98.8,,27.2,5.0,,,,,,,,,,,,0,0,0,0,0,0,0,0,0,0,0,0,0,0,0,0,,,,,,0.0,,,,,,,
346,714924,1745469311890,,,,,,,,,,,,,,,,,,,,,,,,,,,,,,,,,,0,0,0,0,0,0,0,0,0,0,0,0,0,0,0,0,,,,,,,,,,,,,
347,714944,1745469311908,0.0,-95.0,,-0.03,0.21,0.99,27.0,-1.0,0.0,1.01,1.06,95.0,2495.0,9.3,3.8,,14.06,1.18,98.8,,26.1,5.0,,,,,,,,,,,,0,0,0,0,0,0,0,0,0,0,0,0,0,0,0,0,,,,,,0.0,,,,,,,
348,714964,1745469311928,,,,,,,,,,,,,,,,,,,,,,,,,,,,,,,,,,0,0,0,0,0,0,0,0,0,0,0,0,0,0,0,0,,,,,,,,,,,,,
349,714984,1745469311948,0.0,-102.0,,-0.04,0.19,1.01,28.0,-1.0,0.0,1.02,1.06,96.0,2495.0,9.3,3.8,,14.1,1.195,98.8,,26.1,5.0,8.0,8.0,8.0,7.0,0.0,225.0,0.0,0.0,2.26,,,0,0,0,0,0,0,0,0,0,0,0,0,0,0,0,0,,0.0,,,,0.0,38.990845,-76.939873,12.15,31.5,23.0,2.0,1.2
350,715004,1745469311968,,,,,,,,,,,,,,,,,,,,,,,,,,,,,,,,,,0,0,0,0,0,0,0,0,0,0,0,0,0,0,0,0,,,,,,,,,,,,,
351,715024,1745469311988,0.0,-105.0,,-0.04,0.21,1.02,28.0,-2.0,0.0,1.04,1.06,98.0,2496.0,9.3,3.81,,14.1,1.2,98.8,,26.4,5.0,,,,,,,,,,,,0,0,0,0,0,0,0,0,0,0,0,0,0,0,0,0,,,,,,0.0,,,,,,,
352,715044,1745469312000,,,,,,,,,,,,,,,,,,,,,,,,,,,,,,,,,,0,0,0,0,0,0,0,0,0,0,0,0,0,0,0,0,,,,,,,,,,,,,
353,715064,1745469312020,0.0,-116.0,,-0.04,0.2,1.04,29.0,-2.0,0.0,1.06,1.06,100.0,2510.0,9.3,3.81,,14.07,1.195,98.8,,26.4,5.0,,,,,,,,,,,,0,0,0,0,0,0,0,0,0,0,0,0,0,0,0,0,,,,,,0.0,,,,,,,
354,715084,1745469312040,,,,,,,,,,,,,,,,,,,,,,,8.0,7.0,8.0,7.0,0.0,200.0,0.0,0.0,2.27,,,0,0,0,0,0,0,0,0,0,0,0,0,0,0,0,0,,0.0,,,,,38.990849,-76.939873,12.1,31.6,24.0,2.0,1.2
355,715104,1745469312060,0.0,-126.0,,-0.05,0.22,1.01,29.0,-2.0,0.0,1.04,1.06,98.0,2544.0,9.2,3.83,,14.02,1.187,98.8,,26.4,5.0,,,,,,,,,,,,0,0,0,0,0,0,0,0,0,0,0,0,0,0,0,0,,,,,,0.0,,,,,,,
356,715124,1745469312080,,,,,,,,,,,,,,,,,,,,,,,,,,,,,,,,,,0,0,0,0,0,0,0,0,0,0,0,0,0,0,0,0,,,,,,,,,,,,,
357,715144,1745469312110,0.0,-105.0,,-0.07,0.23,1.0,29.0,-2.0,-1.0,1.03,1.06,97.0,2540.0,8.9,3.83,,14.02,1.187,98.8,,27.1,5.0,,,,,,,,,,,,0,0,0,0,0,0,0,0,0,0,0,0,0,0,0,0,,,,,,0.0,,,,,,,
358,715164,1745469312130,,,,,,,,,,,,,,,,,,,,,,,,,,,,,,,,,,0,0,0,0,0,0,0,0,0,0,0,0,0,0,0,0,,,,,,,,,,,,,
359,715184,1745469312150,0.0,-105.0,,-0.04,0.21,0.98,30.0,-2.0,-1.0,1.0,1.06,95.0,2540.0,8.9,3.83,,14.03,1.173,98.8,,27.1,5.0,9.0,1.0,9.0,6.0,0.0,224.0,0.0,0.0,2.27,,,0,0,0,0,0,0,0,0,0,0,0,0,0,0,0,0,,0.0,,,,0.0,38.990849,-76.93988,12.53,31.6,24.0,2.0,1.2
360,715204,1745469312170,,,,,,,,,,,,,,,,,,,,,,,,,,,,,,,,,,0,0,0,0,0,0,0,0,0,0,0,0,0,0,0,0,,,,,,,,,,,,,
361,715224,1745469312190,0.0,-105.0,,-0.04,0.22,0.99,29.0,-2.0,-1.0,1.01,1.06,95.0,2487.0,8.8,3.83,,14.04,1.166,98.8,,27.5,5.0,,,,,,,,,,,,0,0,0,0,0,0,0,0,0,0,0,0,0,0,0,0,,,,,,0.0,,,,,,,
362,715244,1745469312209,,,,,,,,,,,,,,,,,,,,,,,,,,,,,,,,,,0,0,0,0,0,0,0,0,0,0,0,0,0,0,0,0,,,,,,,,,,,,,
363,715264,1745469312229,0.0,-112.0,,-0.03,0.23,1.0,30.0,-2.0,-1.0,1.03,1.06,97.0,2494.0,8.8,3.85,,14.1,1.17,98.8,,27.5,5.0,,,,,,,,,,,,0,0,0,0,0,0,0,0,0,0,0,0,0,0,0,0,,,,,,0.0,,,,,,,
364,715284,1745469312249,,,,,,,,,,,,,,,,,,,,,,,8.0,8.0,8.0,7.0,0.0,232.0,0.0,0.0,2.28,,,0,0,0,0,0,0,0,0,0,0,0,0,0,0,0,0,,0.0,,,,,38.990852,-76.93988,11.98,31.6,24.0,2.0,1.2
365,715304,1745469312269,0.0,-116.0,,-0.03,0.22,1.01,30.0,-2.0,-1.0,1.03,1.06,97.0,2404.0,9.0,3.83,,14.15,1.182,98.8,,27.5,5.0,,,,,,,,,,,,0,0,0,0,0,0,0,0,0,0,0,0,0,0,0,0,,,,,,0.0,,,,,,,
366,715324,1745469312292,,,,,,,,,,,,,,,,,,,,,,,,,,,,,,,,,,0,0,0,0,0,0,0,0,0,0,0,0,0,0,0,0,,,,,,,,,,,,,
367,715344,1745469312312,0.0,-105.0,,-0.04,0.25,1.0,30.0,-2.0,0.0,1.03,1.06,97.0,2354.0,9.4,3.81,,14.15,1.182,98.8,,26.5,5.0,,,,,,,,,,,,0,0,0,0,0,0,0,0,0,0,0,0,0,0,0,0,,,,,,0.0,,,,,,,
368,715364,1745469312332,,,,,,,,,,,,,,,,,,,,,,,,,,,,,,,,,,0,0,0,0,0,0,0,0,0,0,0,0,0,0,0,0,,,,,,,,,,,,,
369,715384,1745469312352,0.0,-119.0,13.84,-0.03,0.22,1.02,31.0,-2.0,0.0,1.05,1.06,98.0,2354.0,9.4,3.81,15.0,14.16,1.18,98.8,169.0,26.5,5.0,8.0,7.0,8.0,7.0,0.0,240.0,0.0,0.0,2.27,0.0,1.0,0,0,0,0,0,0,0,0,0,0,0,0,0,0,0,0,0.0,0.0,1.0,0.0,0.0,0.0,38.990856,-76.939888,11.8,31.6,24.0,2.0,1.2
370,715404,1745469312372,,,,,,,,,,,,,,,,,,,,,,,,,,,,,,,,,,0,0,0,0,0,0,0,0,0,0,0,0,0,0,0,0,,,,,,,,,,,,,
371,715424,1745469312392,0.0,-129.0,,-0.03,0.22,1.02,31.0,-2.0,-1.0,1.04,1.06,98.0,2329.0,9.5,3.8,,14.19,1.188,98.8,,25.7,5.0,,,,,,,,,,,,0,0,0,0,0,0,0,0,0,0,0,0,0,0,0,0,,,,,,0.0,,,,,,,
372,715444,1745469312410,,,,,,,,,,,,,,,,,,,,,,,,,,,,,,,,,,0,0,0,0,0,0,0,0,0,0,0,0,0,0,0,0,,,,,,,,,,,,,
373,715464,1745469312430,0.0,-126.0,,-0.03,0.21,1.04,31.0,-2.0,-1.0,1.07,1.07,100.0,2360.0,9.4,3.82,,14.2,1.187,98.8,,25.7,5.0,,,,,,,,,,,,0,0,0,0,0,0,0,0,0,0,0,0,0,0,0,0,,,,,,0.0,,,,,,,
374,715484,1745469312450,,,,,,,,,,,,,,,,,,,,,,,9.0,1.0,8.0,7.0,0.0,16.0,0.0,0.0,2.26,,,0,0,0,0,0,0,0,0,0,0,0,0,0,0,0,0,,0.0,,,,,38.990856,-76.939888,11.8,31.6,24.0,2.0,1.2
375,715504,1745469312470,0.0,-133.0,,-0.05,0.21,1.04,31.0,-1.0,-1.0,1.06,1.07,100.0,2416.0,9.6,3.84,,14.2,1.191,98.8,,25.7,5.0,,,,,,,,,,,,0,0,0,0,0,0,0,0,0,0,0,0,0,0,0,0,,,,,,0.0,,,,,,,
376,715524,1745469312490,,,,,,,,,,,,,,,,,,,,,,,,,,,,,,,,,,0,0,0,0,0,0,0,0,0,0,0,0,0,0,0,0,,,,,,,,,,,,,
