,Interval,Utc,FrontBP,SteerAng,Battery,AccelX,AccelY,AccelZ,Yaw,Pitch,Roll,Gsum,GsumMax,GsumPct,RPM,TPS,InjectorPW,Baro,MAP,Lambda,IAT,EngineTemp,EOP,EOT,WSFR,WSFL,WSRR,WSRL,TCSet,TCSlip,TCComp,TCCut,Analog8,OilTemp,AA_On,ThermLF1,ThermLF2,ThermRR1,ThermRR2,ThermLF3,ThermLF4,ThermLF5,ThermLF6,ThermLF7,ThermLF8,ThermRR3,ThermRR4,ThermRR5,ThermRR6,ThermRR7,ThermRR8,AA_LowDrag,Gear,AA_On1,AA_LowDrag1,Fuel_Mix,AA_Packages,Latitude,Longitude,Speed,Altitude,GPSSats,GPSQual,GPSDOP
0,738204,1745469335169,,,,,,,,,,,,,,,,,,,,,,,,,,,,,,,,,,0.0,0.0,0.0,0.0,0.0,0.0,0.0,0.0,0.0,0.0,0.0,0.0,0.0,0.0,0.0,0.0,,,,,,,,,,,,,
1,738224,1745469335189,0.0,13.0,,0.01,0.5,1.0,0.0,0.0,1.0,1.12,1.12,100.0,10155.0,14.5,2.96,,8.98,0.77,91.6,,61.2,5.0,,,,,,,,,,,,0.0,0.0,0.0,0.0,0.0,0.0,0.0,0.0,0.0,0.0,0.0,0.0,0.0,0.0,0.0,0.0,,,,,,0.0,,,,,,,
2,738244,1745469335203,,,,,,,,,,,,,,,,,,,,,,,,,,,,,,,,,,0.0,0.0,0.0,0.0,0.0,0.0,0.0,0.0,0.0,0.0,0.0,0.0,0.0,0.0,0.0,0.0,,,,,,,,,,,,,
3,738264,1745469335223,0.0,7.0,,0.03,0.58,0.95,0.0,0.0,1.0,1.11,1.12,99.0,10683.0,14.6,2.79,,8.53,0.811,91.6,,61.2,5.0,,,,,,,,,,,,0.0,0.0,0.0,0.0,0.0,0.0,0.0,0.0,0.0,0.0,0.0,0.0,0.0,0.0,0.0,0.0,,,,,,0.0,,,,,,,
4,738284,1745469335243,,,,,,,,,,,,,,,,,,,,,,,0.0,0.0,0.0,0.0,0.0,0.0,0.0,0.0,2.27,,,0.0,0.0,0.0,0.0,0.0,0.0,0.0,0.0,0.0,0.0,0.0,0.0,0.0,0.0,0.0,0.0,,0.0,,,,,38.990864,-76.94059,0.18,32.6,22.0,2.0,1.1
5,738304,1745469335263,0.0,17.0,,0.08,0.43,0.95,0.0,0.0,1.0,1.05,1.12,94.0,10861.0,15.5,2.78,,8.3,0.835,91.6,,61.2,5.0,,,,,,,,,,,,0.0,0.0,0.0,0.0,0.0,0.0,0.0,0.0,0.0,0.0,0.0,0.0,0.0,0.0,0.0,0.0,,,,,,0.0,,,,,,,
6,738324,1745469335291,,,,,,,,,,,,,,,,,,,,,,,,,,,,,,,,,,0.0,0.0,0.0,0.0,0.0,0.0,0.0,0.0,0.0,0.0,0.0,0.0,0.0,0.0,0.0,0.0,,,,,,,,,,,,,
7,738344,1745469335311,0.0,27.0,,0.13,0.47,0.94,0.0,0.0,2.0,1.06,1.12,95.0,10613.0,16.2,2.84,,8.3,0.835,91.6,,59.2,5.0,,,,,,,,,,,,0.0,0.0,0.0,0.0,0.0,0.0,0.0,0.0,0.0,0.0,0.0,0.0,0.0,0.0,0.0,0.0,,,,,,0.0,,,,,,,
8,738364,1745469335331,,,,,,,,,,,,,,,,,,,,,,,,,,,,,,,,,,0.0,0.0,0.0,0.0,0.0,0.0,0.0,0.0,0.0,0.0,0.0,0.0,0.0,0.0,0.0,0.0,,,,,,,,,,,,,
9,738384,1745469335351,0.0,30.0,13.72,0.14,0.56,0.93,-1.0,0.0,1.0,1.09,1.12,98.0,10613.0,16.2,2.84,15.0,8.37,0.846,91.6,169.0,59.2,5.0,0.0,0.0,0.0,0.0,0.0,0.0,0.0,0.0,2.28,0.0,1.0,0.0,0.0,0.0,0.0,0.0,0.0,0.0,0.0,0.0,0.0,0.0,0.0,0.0,0.0,0.0,0.0,0.0,0.0,1.0,0.0,0.0,0.0,38.990864,-76.94059,0.47,32.6,22.0,2.0,1.1
10,738404,1745469335371,,,,,,,,,,,,,,,,,,,,,,,,,,,,,,,,,,0.0,0.0,0.0,0.0,0.0,0.0,0.0,0.0,0.0,0.0,0.0,0.0,0.0,0.0,0.0,0.0,,,,,,,,,,,,,
11,738424,1745469335391,0.0,44.0,,0.19,0.35,0.91,-1.0,0.0,1.0,0.99,1.12,89.0,10190.0,16.1,2.9,,8.49,0.859,91.6,,57.1,5.0,,,,,,,,,,,,0.0,0.0,0.0,0.0,0.0,0.0,0.0,0.0,0.0,0.0,0.0,0.0,0.0,0.0,0.0,0.0,,,,,,0.0,,,,,,,
12,738444,1745469335411,,,,,,,,,,,,,,,,,,,,,,,,,,,,,,,,,,0.0,0.0,0.0,0.0,0.0,0.0,0.0,0.0,0.0,0.0,0.0,0.0,0.0,0.0,0.0,0.0,,,,,,,,,,,,,
13,738464,1745469335431,0.0,27.0,,0.22,0.32,0.93,-2.0,0.0,0.0,1.01,1.12,90.0,9842.0,16.6,2.93,,8.59,0.866,91.6,,57.1,5.0,,,,,,,,,,,,0.0,0.0,0.0,0.0,0.0,0.0,0.0,0.0,0.0,0.0,0.0,0.0,0.0,0.0,0.0,0.0,,,,,,0.0,,,,,,,
14,738484,1745469335451,,,,,,,,,,,,,,,,,,,,,,,0.0,1.0,0.0,0.0,0.0,0.0,0.0,0.0,2.27,,,0.0,0.0,0.0,0.0,0.0,0.0,0.0,0.0,0.0,0.0,0.0,0.0,0.0,0.0,0.0,0.0,,0.0,,,,,38.990864,-76.94059,2.09,32.6,22.0,2.0,1.1
15,738504,1745469335471,0.0,27.0,,0.2,0.18,0.97,-2.0,-1.0,0.0,1.01,1.12,90.0,9855.0,23.0,3.21,,9.26,0.87,91.6,,57.1,5.0,,,,,,,,,,,,0.0,0.0,0.0,0.0,0.0,0.0,0.0,0.0,0.0,0.0,0.0,0.0,0.0,0.0,0.0,0.0,,,,,,0.0,,,,,,,
16,738524,1745469335491,,,,,,,,,,,,,,,,,,,,,,,,,,,,,,,,,,0.0,0.0,0.0,0.0,0.0,0.0,0.0,0.0,0.0,0.0,0.0,0.0,0.0,0.0,0.0,0.0,,,,,,,,,,,,,
17,738544,1745469335511,0.0,27.0,,0.17,0.4,0.91,-3.0,-1.0,1.0,1.01,1.12,91.0,10290.0,37.7,3.63,,9.26,0.87,91.6,,58.8,5.0,,,,,,,,,,,,0.0,0.0,0.0,0.0,0.0,0.0,0.0,0.0,0.0,0.0,0.0,0.0,0.0,0.0,0.0,0.0,,,,,,0.0,,,,,,,
18,738564,1745469335531,,,,,,,,,,,,,,,,,,,,,,,,,,,,,,,,,,0.0,0.0,0.0,0.0,0.0,0.0,0.0,0.0,0.0,0.0,0.0,0.0,0.0,0.0,0.0,0.0,,,,,,,,,,,,,
19,738584,1745469335551,0.0,0.0,,0.17,0.45,0.92,-4.0,-1.0,0.0,1.04,1.12,93.0,10290.0,37.7,3.63,,10.78,0.891,91.6,,58.8,5.0,2.0,2.0,2.0,3.0,0.0,0.0,0.0,0.0,2.27,,,0.0,0.0,0.0,0.0,0.0,0.0,0.0,0.0,0.0,0.0,0.0,0.0,0.0,0.0,0.0,0.0,,0.0,,,,0.0,38.990864,-76.94059,4.69,32.6,22.0,2.0,1.1
20,738604,1745469335571,,,,,,,,,,,,,,,,,,,,,,,,,,,,,,,,,,0.0,0.0,0.0,0.0,0.0,0.0,0.0,0.0,0.0,0.0,0.0,0.0,0.0,0.0,0.0,0.0,,,,,,,,,,,,,
21,738624,1745469335591,0.0,30.0,,0.12,0.41,0.86,-3.0,-1.0,0.0,0.96,1.12,86.0,11018.0,47.5,4.01,,11.99,0.968,91.6,,61.3,5.0,,,,,,,,,,,,0.0,0.0,0.0,0.0,0.0,0.0,0.0,0.0,0.0,0.0,0.0,0.0,0.0,0.0,0.0,0.0,,,,,,0.0,,,,,,,
22,738644,1745469335608,,,,,,,,,,,,,,,,,,,,,,,,,,,,,,,,,,0.0,0.0,0.0,0.0,0.0,0.0,0.0,0.0,0.0,0.0,0.0,0.0,0.0,0.0,0.0,0.0,,,,,,,,,,,,,
23,738664,1745469335628,0.0,17.0,,0.06,0.38,0.85,-2.0,-1.0,0.0,0.94,1.12,84.0,12077.0,54.7,3.75,,12.45,0.975,91.6,,61.3,5.0,,,,,,,,,,,,0.0,0.0,0.0,0.0,0.0,0.0,0.0,0.0,0.0,0.0,0.0,0.0,0.0,0.0,0.0,0.0,,,,,,0.0,,,,,,,
24,738684,1745469335648,,,,,,,,,,,,,,,,,,,,,,,2.0,3.0,2.0,3.0,0.0,0.0,0.0,0.0,2.26,,,0.0,0.0,0.0,0.0,0.0,0.0,0.0,0.0,0.0,0.0,0.0,0.0,0.0,0.0,0.0,0.0,,0.0,,,,,38.990864,-76.940598,4.17,32.6,22.0,2.0,1.1
25,738704,1745469335668,0.0,34.0,,0.03,0.38,0.9,-2.0,-1.0,0.0,0.98,1.12,88.0,12765.0,57.9,4.49,,12.52,1.001,91.6,,61.3,5.0,,,,,,,,,,,,0.0,0.0,0.0,0.0,0.0,0.0,0.0,0.0,0.0,0.0,0.0,0.0,0.0,0.0,0.0,0.0,,,,,,0.0,,,,,,,
26,738724,1745469335688,,,,,,,,,,,,,,,,,,,,,,,,,,,,,,,,,,0.0,0.0,0.0,0.0,0.0,0.0,0.0,0.0,0.0,0.0,0.0,0.0,0.0,0.0,0.0,0.0,,,,,,,,,,,,,
27,738744,1745469335710,0.0,37.0,,0.02,0.51,0.91,-4.0,-1.0,1.0,1.04,1.12,93.0,13786.0,58.1,4.16,,12.52,1.001,91.6,,62.9,5.0,,,,,,,,,,,,0.0,0.0,0.0,0.0,0.0,0.0,0.0,0.0,0.0,0.0,0.0,0.0,0.0,0.0,0.0,0.0,,,,,,0.0,,,,,,,
28,738764,1745469335730,,,,,,,,,,,,,,,,,,,,,,,,,,,,,,,,,,0.0,0.0,0.0,0.0,0.0,0.0,0.0,0.0,0.0,0.0,0.0,0.0,0.0,0.0,0.0,0.0,,,,,,,,,,,,,
29,738784,1745469335750,0.0,24.0,,0.03,0.39,1.0,-1.0,-1.0,1.0,1.07,1.12,96.0,13786.0,58.1,4.16,,12.33,0.989,91.6,,62.9,5.0,3.0,3.0,3.0,3.0,0.0,0.0,0.0,0.0,2.27,,,0.0,0.0,0.0,0.0,0.0,0.0,0.0,0.0,0.0,0.0,0.0,0.0,0.0,0.0,0.0,0.0,,0.0,,,,0.0,38.990864,-76.940598,4.24,32.6,22.0,2.0,1.1
30,738804,1745469335770,,,,,,,,,,,,,,,,,,,,,,,,,,,,,,,,,,0.0,0.0,0.0,0.0,0.0,0.0,0.0,0.0,0.0,0.0,0.0,0.0,0.0,0.0,0.0,0.0,,,,,,,,,,,,,
31,738824,1745469335790,0.0,30.0,,0.02,0.39,1.0,-4.0,-1.0,1.0,1.08,1.12,96.0,13353.0,58.5,4.26,,12.69,0.947,91.6,,71.2,5.0,,,,,,,,,,,,0.0,0.0,0.0,0.0,0.0,0.0,0.0,0.0,0.0,0.0,0.0,0.0,0.0,0.0,0.0,0.0,,,,,,0.0,,,,,,,
32,738844,1745469335809,,,,,,,,,,,,,,,,,,,,,,,,,,,,,,,,,,0.0,0.0,0.0,0.0,0.0,0.0,0.0,0.0,0.0,0.0,0.0,0.0,0.0,0.0,0.0,0.0,,,,,,,,,,,,,
33,738864,1745469335829,0.0,30.0,,0.02,0.31,0.97,-5.0,0.0,2.0,1.01,1.12,91.0,13412.0,58.3,4.29,,12.51,1.24,91.6,,71.2,5.0,,,,,,,,,,,,0.0,0.0,0.0,0.0,0.0,0.0,0.0,0.0,0.0,0.0,0.0,0.0,0.0,0.0,0.0,0.0,,,,,,0.0,,,,,,,
34,738884,1745469335849,,,,,,,,,,,,,,,,,,,,,,,3.0,3.0,2.0,3.0,0.0,0.0,0.0,0.0,2.27,,,0.0,0.0,0.0,0.0,0.0,0.0,0.0,0.0,0.0,0.0,0.0,0.0,0.0,0.0,0.0,0.0,,0.0,,,,,38.990864,-76.940598,4.03,32.6,22.0,2.0,1.1
35,738904,1745469335869,0.0,34.0,,0.1,0.31,0.99,-5.0,0.0,3.0,1.04,1.12,93.0,13837.0,56.7,4.06,,12.53,1.227,91.6,,71.2,5.0,,,,,,,,,,,,0.0,0.0,0.0,0.0,0.0,0.0,0.0,0.0,0.0,0.0,0.0,0.0,0.0,0.0,0.0,0.0,,,,,,0.0,,,,,,,
36,738924,1745469335889,,,,,,,,,,,,,,,,,,,,,,,,,,,,,,,,,,0.0,0.0,0.0,0.0,0.0,0.0,0.0,0.0,0.0,0.0,0.0,0.0,0.0,0.0,0.0,0.0,,,,,,,,,,,,,
37,738944,1745469335910,0.0,37.0,,0.1,0.26,0.93,-5.0,0.0,2.0,0.97,1.12,87.0,12322.0,44.0,4.47,,12.53,1.227,91.6,,69.6,5.0,,,,,,,,,,,,0.0,0.0,0.0,0.0,0.0,0.0,0.0,0.0,0.0,0.0,0.0,0.0,0.0,0.0,0.0,0.0,,,,,,0.0,,,,,,,
38,738964,1745469335930,,,,,,,,,,,,,,,,,,,,,,,,,,,,,,,,,,0.0,0.0,0.0,0.0,0.0,0.0,0.0,0.0,0.0,0.0,0.0,0.0,0.0,0.0,0.0,0.0,,,,,,,,,,,,,
39,738984,1745469335950,0.0,34.0,,0.15,0.36,0.9,-5.0,0.0,3.0,0.98,1.12,88.0,12322.0,44.0,4.47,,11.95,1.074,89.8,,69.6,5.0,3.0,3.0,6.0,4.0,0.0,0.0,0.0,0.0,2.27,,,0.0,0.0,0.0,0.0,0.0,0.0,0.0,0.0,0.0,0.0,0.0,0.0,0.0,0.0,0.0,0.0,,0.0,,,,0.0,38.990864,-76.940598,4.26,32.6,22.0,2.0,1.1
40,739004,1745469335970,,,,,,,,,,,,,,,,,,,,,,,,,,,,,,,,,,0.0,0.0,0.0,0.0,0.0,0.0,0.0,0.0,0.0,0.0,0.0,0.0,0.0,0.0,0.0,0.0,,,,,,,,,,,,,
41,739024,1745469335990,0.0,51.0,,0.12,0.35,0.86,-5.0,0.0,3.0,0.94,1.12,84.0,11971.0,36.1,3.91,,11.45,1.25,89.8,,63.0,5.0,,,,,,,,,,,,0.0,0.0,0.0,0.0,0.0,0.0,0.0,0.0,0.0,0.0,0.0,0.0,0.0,0.0,0.0,0.0,,,,,,0.0,,,,,,,
42,739044,1745469335998,,,,,,,,,,,,,,,,,,,,,,,,,,,,,,,,,,0.0,0.0,0.0,0.0,0.0,0.0,0.0,0.0,0.0,0.0,0.0,0.0,0.0,0.0,0.0,0.0,,,,,,,,,,,,,
43,739064,1745469336018,0.0,51.0,,0.13,0.43,0.91,-4.0,0.0,3.0,1.01,1.12,91.0,11544.0,34.9,3.85,,11.25,1.045,89.8,,63.0,5.0,,,,,,,,,,,,0.0,0.0,0.0,0.0,0.0,0.0,0.0,0.0,0.0,0.0,0.0,0.0,0.0,0.0,0.0,0.0,,,,,,0.0,,,,,,,
44,739084,1745469336038,,,,,,,,,,,,,,,,,,,,,,,4.0,4.0,22.0,22.0,0.0,0.0,0.0,0.0,2.27,,,0.0,0.0,0.0,0.0,0.0,0.0,0.0,0.0,0.0,0.0,0.0,0.0,0.0,0.0,0.0,0.0,,0.0,,,,,38.990868,-76.940598,5.32,32.6,22.0,2.0,1.1
45,739104,1745469336058,0.0,51.0,,0.15,0.32,0.89,-6.0,0.0,3.0,0.96,1.12,85.0,11174.0,35.1,3.86,,11.33,0.982,89.8,,63.0,5.0,,,,,,,,,,,,0.0,0.0,0.0,0.0,0.0,0.0,0.0,0.0,0.0,0.0,0.0,0.0,0.0,0.0,0.0,0.0,,,,,,0.0,,,,,,,
46,739124,1745469336078,,,,,,,,,,,,,,,,,,,,,,,,,,,,,,,,,,0.0,0.0,0.0,0.0,0.0,0.0,0.0,0.0,0.0,0.0,0.0,0.0,0.0,0.0,0.0,0.0,,,,,,,,,,,,,
47,739144,1745469336108,0.0,61.0,,0.17,0.18,0.94,-8.0,0.0,3.0,0.98,1.12,87.0,10956.0,35.2,3.91,,11.21,0.989,89.8,,60.7,5.0,,,,,,,,,,,,0.0,0.0,0.0,0.0,0.0,0.0,0.0,0.0,0.0,0.0,0.0,0.0,0.0,0.0,0.0,0.0,,,,,,0.0,,,,,,,
48,739164,1745469336128,,,,,,,,,,,,,,,,,,,,,,,,,,,,,,,,,,0.0,0.0,0.0,0.0,0.0,0.0,0.0,0.0,0.0,0.0,0.0,0.0,0.0,0.0,0.0,0.0,,,,,,,,,,,,,
49,739184,1745469336148,0.0,51.0,,0.18,0.15,0.93,-10.0,0.0,3.0,0.96,1.12,86.0,11037.0,36.1,3.85,,11.21,0.989,89.8,,60.7,5.0,5.0,6.0,33.0,34.0,0.0,0.0,0.0,0.0,2.26,,,0.0,0.0,0.0,0.0,0.0,0.0,0.0,0.0,0.0,0.0,0.0,0.0,0.0,0.0,0.0,0.0,,0.0,,,,0.0,38.990868,-76.940605,7.37,32.6,22.0,2.0,1.1
50,739204,1745469336168,,,,,,,,,,,,,,,,,,,,,,,,,,,,,,,,,,0.0,0.0,0.0,0.0,0.0,0.0,0.0,0.0,0.0,0.0,0.0,0.0,0.0,0.0,0.0,0.0,,,,,,,,,,,,,
51,739224,1745469336188,0.0,54.0,,0.2,0.01,0.96,-13.0,0.0,2.0,0.98,1.12,88.0,11037.0,36.1,3.85,,11.13,1.023,89.8,,60.9,5.0,,,,,,,,,,,,0.0,0.0,0.0,0.0,0.0,0.0,0.0,0.0,0.0,0.0,0.0,0.0,0.0,0.0,0.0,0.0,,,,,,0.0,,,,,,,
52,739244,1745469336206,,,,,,,,,,,,,,,,,,,,,,,,,,,,,,,,,,0.0,0.0,0.0,0.0,0.0,0.0,0.0,0.0,0.0,0.0,0.0,0.0,0.0,0.0,0.0,0.0,,,,,,,,,,,,,
53,739264,1745469336226,0.0,51.0,,0.23,0.1,1.03,-15.0,0.0,3.0,1.06,1.12,95.0,11070.0,38.1,4.16,,11.44,1.023,89.8,,60.9,5.0,,,,,,,,,,,,0.0,0.0,0.0,0.0,0.0,0.0,0.0,0.0,0.0,0.0,0.0,0.0,0.0,0.0,0.0,0.0,,,,,,0.0,,,,,,,
54,739284,1745469336246,,,,,,,,,,,,,,,,,,,,,,,6.0,7.0,35.0,33.0,0.0,33.0,0.0,0.0,2.27,,,0.0,0.0,0.0,0.0,0.0,0.0,0.0,0.0,0.0,0.0,0.0,0.0,0.0,0.0,0.0,0.0,,1.0,,,,,38.990868,-76.940605,10.08,32.6,22.0,2.0,1.1
55,739304,1745469336266,0.0,54.0,,0.24,-0.05,1.0,-17.0,0.0,2.0,1.03,1.12,92.0,11199.0,40.5,4.4,,11.79,1.021,89.8,,60.9,5.0,,,,,,,,,,,,0.0,0.0,0.0,0.0,0.0,0.0,0.0,0.0,0.0,0.0,0.0,0.0,0.0,0.0,0.0,0.0,,,,,,0.0,,,,,,,
56,739324,1745469336291,,,,,,,,,,,,,,,,,,,,,,,,,,,,,,,,,,0.0,0.0,0.0,0.0,0.0,0.0,0.0,0.0,0.0,0.0,0.0,0.0,0.0,0.0,0.0,0.0,,,,,,,,,,,,,
57,739344,1745469336311,0.0,64.0,,0.22,0.01,1.01,-19.0,0.0,2.0,1.03,1.12,92.0,11326.0,42.5,4.37,,12.09,0.976,89.8,,60.8,5.0,,,,,,,,,,,,0.0,0.0,0.0,0.0,0.0,0.0,0.0,0.0,0.0,0.0,0.0,0.0,0.0,0.0,0.0,0.0,,,,,,0.0,,,,,,,
58,739364,1745469336331,,,,,,,,,,,,,,,,,,,,,,,,,,,,,,,,,,0.0,0.0,0.0,0.0,0.0,0.0,0.0,0.0,0.0,0.0,0.0,0.0,0.0,0.0,0.0,0.0,,,,,,,,,,,,,
59,739384,1745469336351,0.0,57.0,13.71,0.24,-0.09,1.01,-24.0,0.0,2.0,1.04,1.12,93.0,11326.0,42.5,4.37,15.0,12.09,0.976,89.8,171.0,60.8,5.0,7.0,4.0,35.0,34.0,0.0,68.0,0.0,0.0,2.27,0.0,1.0,0.0,0.0,0.0,0.0,0.0,0.0,0.0,0.0,0.0,0.0,0.0,0.0,0.0,0.0,0.0,0.0,0.0,1.0,1.0,0.0,0.0,0.0,38.990868,-76.940605,11.37,32.6,22.0,2.0,1.1
60,739404,1745469336371,,,,,,,,,,,,,,,,,,,,,,,,,,,,,,,,,,0.0,0.0,0.0,0.0,0.0,0.0,0.0,0.0,0.0,0.0,0.0,0.0,0.0,0.0,0.0,0.0,,,,,,,,,,,,,
61,739424,1745469336391,0.0,71.0,,0.24,-0.17,1.1,-28.0,0.0,3.0,1.14,1.14,100.0,11467.0,43.1,4.43,,12.09,0.934,89.8,,61.8,5.0,,,,,,,,,,,,0.0,0.0,0.0,0.0,0.0,0.0,0.0,0.0,0.0,0.0,0.0,0.0,0.0,0.0,0.0,0.0,,,,,,0.0,,,,,,,
62,739444,1745469336409,,,,,,,,,,,,,,,,,,,,,,,,,,,,,,,,,,0.0,0.0,0.0,0.0,0.0,0.0,0.0,0.0,0.0,0.0,0.0,0.0,0.0,0.0,0.0,0.0,,,,,,,,,,,,,
63,739464,1745469336429,0.0,61.0,,0.27,-0.05,1.09,-31.0,1.0,3.0,1.13,1.14,99.0,11580.0,43.5,4.47,,12.21,0.918,89.8,,61.8,5.0,,,,,,,,,,,,0.0,0.0,0.0,0.0,0.0,0.0,0.0,0.0,0.0,0.0,0.0,0.0,0.0,0.0,0.0,0.0,,,,,,0.0,,,,,,,
64,739484,1745469336449,,,,,,,,,,,,,,,,,,,,,,,8.0,11.0,36.0,34.0,0.0,172.0,0.0,0.0,2.27,,,0.0,0.0,0.0,0.0,0.0,0.0,0.0,0.0,0.0,0.0,0.0,0.0,0.0,0.0,0.0,0.0,,1.0,,,,,38.990868,-76.940605,13.75,32.6,22.0,2.0,1.1
65,739504,1745469336469,0.0,74.0,,0.33,-0.32,1.02,-36.0,0.0,1.0,1.12,1.14,99.0,11670.0,43.5,4.53,,12.19,0.898,89.8,,61.8,5.0,,,,,,,,,,,,0.0,0.0,0.0,0.0,0.0,0.0,0.0,0.0,0.0,0.0,0.0,0.0,0.0,0.0,0.0,0.0,,,,,,0.0,,,,,,,
66,739524,1745469336489,,,,,,,,,,,,,,,,,,,,,,,,,,,,,,,,,,0.0,0.0,0.0,0.0,0.0,0.0,0.0,0.0,0.0,0.0,0.0,0.0,0.0,0.0,0.0,0.0,,,,,,,,,,,,,
67,739544,1745469336510,0.0,57.0,,0.4,-0.4,1.04,-40.0,0.0,0.0,1.18,1.18,100.0,11767.0,43.2,4.58,,12.19,0.898,89.8,,63.5,5.0,,,,,,,,,,,,0.0,0.0,0.0,0.0,0.0,0.0,0.0,0.0,0.0,0.0,0.0,0.0,0.0,0.0,0.0,0.0,,,,,,0.0,,,,,,,
68,739564,1745469336530,,,,,,,,,,,,,,,,,,,,,,,,,,,,,,,,,,0.0,0.0,0.0,0.0,0.0,0.0,0.0,0.0,0.0,0.0,0.0,0.0,0.0,0.0,0.0,0.0,,,,,,,,,,,,,
69,739584,1745469336550,0.0,41.0,,0.4,-0.37,0.98,-42.0,0.0,0.0,1.12,1.18,95.0,11767.0,43.2,4.58,,12.07,0.88,89.8,,63.5,5.0,9.0,12.0,35.0,34.0,0.0,126.0,0.0,0.0,2.27,,,0.0,0.0,0.0,0.0,0.0,0.0,0.0,0.0,0.0,0.0,0.0,0.0,0.0,0.0,0.0,0.0,,0.0,,,,0.0,38.990871,-76.940613,15.69,32.6,22.0,2.0,1.1
70,739604,1745469336570,,,,,,,,,,,,,,,,,,,,,,,,,,,,,,,,,,0.0,0.0,0.0,0.0,0.0,0.0,0.0,0.0,0.0,0.0,0.0,0.0,0.0,0.0,0.0,0.0,,,,,,,,,,,,,
71,739624,1745469336590,0.0,37.0,,0.41,-0.43,0.92,-41.0,1.0,-1.0,1.09,1.18,93.0,11835.0,32.7,3.82,,11.29,0.866,89.8,,65.7,5.0,,,,,,,,,,,,0.0,0.0,0.0,0.0,0.0,0.0,0.0,0.0,0.0,0.0,0.0,0.0,0.0,0.0,0.0,0.0,,,,,,0.0,,,,,,,
72,739644,1745469336609,,,,,,,,,,,,,,,,,,,,,,,,,,,,,,,,,,0.0,0.0,0.0,0.0,0.0,0.0,0.0,0.0,0.0,0.0,0.0,0.0,0.0,0.0,0.0,0.0,,,,,,,,,,,,,
73,739664,1745469336629,0.0,24.0,,0.41,-0.23,0.95,-42.0,1.0,0.0,1.06,1.18,90.0,11676.0,23.3,3.77,,10.24,0.849,89.8,,65.7,5.0,,,,,,,,,,,,0.0,0.0,0.0,0.0,0.0,0.0,0.0,0.0,0.0,0.0,0.0,0.0,0.0,0.0,0.0,0.0,,,,,,0.0,,,,,,,
74,739684,1745469336649,,,,,,,,,,,,,,,,,,,,,,,10.0,9.0,34.0,37.0,0.0,213.0,0.0,0.0,2.26,,,0.0,0.0,0.0,0.0,0.0,0.0,0.0,0.0,0.0,0.0,0.0,0.0,0.0,0.0,0.0,0.0,,0.0,,,,,38.990871,-76.94062,18.13,32.6,22.0,2.0,1.1
75,739704,1745469336669,0.0,27.0,,0.42,-0.35,0.95,-43.0,1.0,0.0,1.1,1.18,93.0,11401.0,21.0,3.33,,9.52,0.821,89.8,,65.7,5.0,,,,,,,,,,,,0.0,0.0,0.0,0.0,0.0,0.0,0.0,0.0,0.0,0.0,0.0,0.0,0.0,0.0,0.0,0.0,,,,,,0.0,,,,,,,
76,739724,1745469336689,,,,,,,,,,,,,,,,,,,,,,,,,,,,,,,,,,0.0,0.0,0.0,0.0,0.0,0.0,0.0,0.0,0.0,0.0,0.0,0.0,0.0,0.0,0.0,0.0,,,,,,,,,,,,,
77,739744,1745469336709,0.0,57.0,,0.42,-0.31,0.97,-43.0,1.0,1.0,1.11,1.18,94.0,10983.0,13.9,2.89,,8.78,0.803,89.8,,63.6,5.0,,,,,,,,,,,,0.0,0.0,0.0,0.0,0.0,0.0,0.0,0.0,0.0,0.0,0.0,0.0,0.0,0.0,0.0,0.0,,,,,,0.0,,,,,,,
78,739764,1745469336729,,,,,,,,,,,,,,,,,,,,,,,,,,,,,,,,,,0.0,0.0,0.0,0.0,0.0,0.0,0.0,0.0,0.0,0.0,0.0,0.0,0.0,0.0,0.0,0.0,,,,,,,,,,,,,
79,739784,1745469336749,0.0,54.0,,0.47,-0.28,0.93,-43.0,1.0,1.0,1.08,1.18,92.0,10395.0,11.5,2.36,,8.78,0.803,89.8,,63.6,5.0,12.0,9.0,33.0,32.0,0.0,103.0,0.0,0.0,2.27,,,0.0,0.0,0.0,0.0,0.0,0.0,0.0,0.0,0.0,0.0,0.0,0.0,0.0,0.0,0.0,0.0,,1.0,,,,0.0,38.990875,-76.940628,20.08,32.6,22.0,2.0,1.1
80,739804,1745469336769,,,,,,,,,,,,,,,,,,,,,,,,,,,,,,,,,,0.0,0.0,0.0,0.0,0.0,0.0,0.0,0.0,0.0,0.0,0.0,0.0,0.0,0.0,0.0,0.0,,,,,,,,,,,,,
81,739824,1745469336789,0.0,71.0,,0.43,-0.21,0.94,-45.0,1.0,2.0,1.05,1.18,89.0,10395.0,11.5,2.36,,8.05,0.83,89.8,,59.4,5.0,,,,,,,,,,,,0.0,0.0,0.0,0.0,0.0,0.0,0.0,0.0,0.0,0.0,0.0,0.0,0.0,0.0,0.0,0.0,,,,,,0.0,,,,,,,
82,739844,1745469336809,,,,,,,,,,,,,,,,,,,,,,,,,,,,,,,,,,0.0,0.0,0.0,0.0,0.0,0.0,0.0,0.0,0.0,0.0,0.0,0.0,0.0,0.0,0.0,0.0,,,,,,,,,,,,,
83,739864,1745469336829,0.0,74.0,,0.45,-0.09,0.94,-47.0,2.0,2.0,1.05,1.18,89.0,9631.0,10.7,2.32,,7.77,0.861,89.8,,59.4,5.0,,,,,,,,,,,,0.0,0.0,0.0,0.0,0.0,0.0,0.0,0.0,0.0,0.0,0.0,0.0,0.0,0.0,0.0,0.0,,,,,,0.0,,,,,,,
84,739884,1745469336849,,,,,,,,,,,,,,,,,,,,,,,12.0,17.0,29.0,27.0,0.0,223.0,0.0,0.0,2.28,,,0.0,0.0,0.0,0.0,0.0,0.0,0.0,0.0,0.0,0.0,0.0,0.0,0.0,0.0,0.0,0.0,,0.0,,,,,38.990875,-76.940636,22.79,32.6,22.0,2.0,1.1
85,739904,1745469336869,0.0,68.0,,0.43,0.02,0.9,-49.0,2.0,3.0,1.0,1.18,85.0,8964.0,8.6,2.37,,7.51,0.895,89.8,,59.4,5.0,,,,,,,,,,,,0.0,0.0,0.0,0.0,0.0,0.0,0.0,0.0,0.0,0.0,0.0,0.0,0.0,0.0,0.0,0.0,,,,,,0.0,,,,,,,
86,739924,1745469336889,,,,,,,,,,,,,,,,,,,,,,,,,,,,,,,,,,0.0,0.0,0.0,0.0,0.0,0.0,0.0,0.0,0.0,0.0,0.0,0.0,0.0,0.0,0.0,0.0,,,,,,,,,,,,,
87,739944,1745469336909,0.0,81.0,,0.4,-0.13,0.94,-51.0,2.0,3.0,1.03,1.18,87.0,8367.0,8.4,2.41,,7.51,0.895,89.8,,53.6,5.0,,,,,,,,,,,,0.0,0.0,0.0,0.0,0.0,0.0,0.0,0.0,0.0,0.0,0.0,0.0,0.0,0.0,0.0,0.0,,,,,,0.0,,,,,,,
88,739964,1745469336929,,,,,,,,,,,,,,,,,,,,,,,,,,,,,,,,,,0.0,0.0,0.0,0.0,0.0,0.0,0.0,0.0,0.0,0.0,0.0,0.0,0.0,0.0,0.0,0.0,,,,,,,,,,,,,
89,739984,1745469336949,0.0,78.0,,0.37,-0.32,0.96,-54.0,2.0,3.0,1.08,1.18,92.0,7698.0,8.4,2.58,,7.69,0.901,89.8,,53.6,5.0,14.0,16.0,24.0,24.0,0.0,20.0,0.0,0.0,2.28,,,0.0,0.0,0.0,0.0,0.0,0.0,0.0,0.0,0.0,0.0,0.0,0.0,0.0,0.0,0.0,0.0,,0.0,,,,0.0,38.990879,-76.940643,25.23,32.6,22.0,2.0,1.1
90,740004,1745469336969,,,,,,,,,,,,,,,,,,,,,,,,,,,,,,,,,,0.0,0.0,0.0,0.0,0.0,0.0,0.0,0.0,0.0,0.0,0.0,0.0,0.0,0.0,0.0,0.0,,,,,,,,,,,,,
91,740024,1745469336989,0.0,102.0,,0.38,-0.42,0.93,-57.0,2.0,4.0,1.09,1.18,92.0,7698.0,8.4,2.58,,7.83,0.882,89.8,,51.9,5.0,,,,,,,,,,,,0.0,0.0,0.0,0.0,0.0,0.0,0.0,0.0,0.0,0.0,0.0,0.0,0.0,0.0,0.0,0.0,,,,,,0.0,,,,,,,
92,740044,1745469336999,,,,,,,,,,,,,,,,,,,,,,,,,,,,,,,,,,0.0,0.0,0.0,0.0,0.0,0.0,0.0,0.0,0.0,0.0,0.0,0.0,0.0,0.0,0.0,0.0,,,,,,,,,,,,,
93,740064,1745469337019,0.0,91.0,,0.34,-0.55,0.94,-60.0,2.0,4.0,1.14,1.18,97.0,7018.0,8.7,2.75,,8.06,0.867,89.8,,51.9,5.0,,,,,,,,,,,,0.0,0.0,0.0,0.0,0.0,0.0,0.0,0.0,0.0,0.0,0.0,0.0,0.0,0.0,0.0,0.0,,,,,,0.0,,,,,,,
94,740084,1745469337039,,,,,,,,,,,,,,,,,,,,,,,14.0,17.0,22.0,21.0,0.0,214.0,0.0,0.0,2.27,,,0.0,0.0,0.0,0.0,0.0,0.0,0.0,0.0,0.0,0.0,0.0,0.0,0.0,0.0,0.0,0.0,,1.0,,,,,38.990883,-76.940651,25.74,32.6,23.0,2.0,1.1
95,740104,1745469337059,0.0,81.0,,0.25,-0.58,0.97,-59.0,2.0,4.0,1.16,1.18,98.0,6521.0,8.9,2.68,,8.58,0.872,89.8,,51.9,5.0,,,,,,,,,,,,0.0,0.0,0.0,0.0,0.0,0.0,0.0,0.0,0.0,0.0,0.0,0.0,0.0,0.0,0.0,0.0,,,,,,0.0,,,,,,,
96,740124,1745469337079,,,,,,,,,,,,,,,,,,,,,,,,,,,,,,,,,,0.0,0.0,0.0,0.0,0.0,0.0,0.0,0.0,0.0,0.0,0.0,0.0,0.0,0.0,0.0,0.0,,,,,,,,,,,,,
97,740144,1745469337104,0.0,91.0,,0.24,-0.73,0.86,-59.0,2.0,4.0,1.15,1.18,97.0,6139.0,8.5,2.7,,8.58,0.872,89.8,,51.1,5.0,,,,,,,,,,,,0.0,0.0,0.0,0.0,0.0,0.0,0.0,0.0,0.0,0.0,0.0,0.0,0.0,0.0,0.0,0.0,,,,,,0.0,,,,,,,
98,740324,1745469337291,,,,,,,,,,,,,,,,,,,,,,,,,,,,,,,,,,0.0,0.0,0.0,0.0,0.0,0.0,0.0,0.0,0.0,0.0,0.0,0.0,0.0,0.0,0.0,0.0,,,,,,,,,,,,,
99,740504,1745469337468,0.0,91.0,,-0.19,-0.71,0.93,-46.0,0.0,2.0,1.19,1.25,95.0,5196.0,4.8,3.67,,11.0,0.89,89.8,,51.1,5.0,,,,,,,,,,,,0.0,0.0,0.0,0.0,0.0,0.0,0.0,0.0,0.0,0.0,0.0,0.0,0.0,0.0,0.0,0.0,,,,,,0.0,,,,,,,
100,740524,1745469337488,,,,,,,,,,,,,,,,,,,,,,,,,,,,,,,,,,0.0,0.0,0.0,0.0,0.0,0.0,0.0,0.0,0.0,0.0,0.0,0.0,0.0,0.0,0.0,0.0,,,,,,,,,,,,,
101,740544,1745469337509,0.0,71.0,,-0.2,-0.62,0.96,-46.0,1.0,2.0,1.16,1.25,92.0,5196.0,4.6,3.7,,11.06,0.881,89.8,,51.7,5.0,,,,,,,,,,,,0.0,0.0,0.0,0.0,0.0,0.0,0.0,0.0,0.0,0.0,0.0,0.0,0.0,0.0,0.0,0.0,,,,,,0.0,,,,,,,
102,740564,1745469337529,,,,,,,,,,,,,,,,,,,,,,,,,,,,,,,,,,0.0,0.0,0.0,0.0,0.0,0.0,0.0,0.0,0.0,0.0,0.0,0.0,0.0,0.0,0.0,0.0,,,,,,,,,,,,,
103,740584,1745469337549,0.0,81.0,,-0.2,-0.59,0.96,-46.0,1.0,2.0,1.15,1.25,91.0,5213.0,4.2,3.64,,11.06,0.881,89.8,,51.7,5.0,15.0,18.0,15.0,18.0,0.0,49.0,0.0,0.0,2.27,,,0.0,0.0,0.0,0.0,0.0,0.0,0.0,0.0,0.0,0.0,0.0,0.0,0.0,0.0,0.0,0.0,,1.0,,,,0.0,38.99091,-76.940666,24.81,32.6,23.0,2.0,1.1
104,740604,1745469337569,,,,,,,,,,,,,,,,,,,,,,,,,,,,,,,,,,0.0,0.0,0.0,0.0,0.0,0.0,0.0,0.0,0.0,0.0,0.0,0.0,0.0,0.0,0.0,0.0,,,,,,,,,,,,,
105,740624,1745469337589,0.0,61.0,,-0.21,-0.62,0.98,-46.0,1.0,1.0,1.18,1.25,94.0,5213.0,4.2,3.64,,11.05,0.849,89.8,,51.1,5.0,,,,,,,,,,,,0.0,0.0,0.0,0.0,0.0,0.0,0.0,0.0,0.0,0.0,0.0,0.0,0.0,0.0,0.0,0.0,,,,,,0.0,,,,,,,
106,740644,1745469337610,,,,,,,,,,,,,,,,,,,,,,,,,,,,,,,,,,0.0,0.0,0.0,0.0,0.0,0.0,0.0,0.0,0.0,0.0,0.0,0.0,0.0,0.0,0.0,0.0,,,,,,,,,,,,,
107,740664,1745469337630,0.0,74.0,,-0.2,-0.59,0.97,-44.0,1.0,1.0,1.15,1.25,92.0,5212.0,3.4,3.48,,11.08,0.811,89.8,,51.1,5.0,,,,,,,,,,,,0.0,0.0,0.0,0.0,0.0,0.0,0.0,0.0,0.0,0.0,0.0,0.0,0.0,0.0,0.0,0.0,,,,,,0.0,,,,,,,
108,740684,1745469337650,,,,,,,,,,,,,,,,,,,,,,,15.0,25.0,15.0,16.0,0.0,76.0,0.0,0.0,2.27,,,0.0,0.0,0.0,0.0,0.0,0.0,0.0,0.0,0.0,0.0,0.0,0.0,0.0,0.0,0.0,0.0,,1.0,,,,,38.990917,-76.940666,24.6,32.6,23.0,2.0,1.1
109,740704,1745469337670,0.0,88.0,,-0.19,-0.57,0.98,-42.0,1.0,0.0,1.15,1.25,92.0,5192.0,2.5,3.26,,11.01,0.789,89.8,,51.1,5.0,,,,,,,,,,,,0.0,0.0,0.0,0.0,0.0,0.0,0.0,0.0,0.0,0.0,0.0,0.0,0.0,0.0,0.0,0.0,,,,,,0.0,,,,,,,
110,740724,1745469337690,,,,,,,,,,,,,,,,,,,,,,,,,,,,,,,,,,0.0,0.0,0.0,0.0,0.0,0.0,0.0,0.0,0.0,0.0,0.0,0.0,0.0,0.0,0.0,0.0,,,,,,,,,,,,,
111,740744,1745469337710,0.0,81.0,,-0.17,-0.54,0.99,-40.0,1.0,0.0,1.14,1.25,91.0,5241.0,2.5,3.21,,10.78,0.774,89.8,,51.6,5.0,,,,,,,,,,,,0.0,0.0,0.0,0.0,0.0,0.0,0.0,0.0,0.0,0.0,0.0,0.0,0.0,0.0,0.0,0.0,,,,,,0.0,,,,,,,
112,740764,1745469337730,,,,,,,,,,,,,,,,,,,,,,,,,,,,,,,,,,0.0,0.0,0.0,0.0,0.0,0.0,0.0,0.0,0.0,0.0,0.0,0.0,0.0,0.0,0.0,0.0,,,,,,,,,,,,,
113,740784,1745469337750,0.0,81.0,,-0.16,-0.51,1.0,-38.0,1.0,0.0,1.14,1.14,100.0,5276.0,1.9,2.37,,10.78,0.774,89.8,,51.6,5.0,16.0,259.0,15.0,16.0,0.0,105.0,0.0,0.0,2.27,,,0.0,0.0,0.0,0.0,0.0,0.0,0.0,0.0,0.0,0.0,0.0,0.0,0.0,0.0,0.0,0.0,,1.0,,,,0.0,38.990921,-76.940666,24.34,32.6,23.0,2.0,1.1
114,740804,1745469337770,,,,,,,,,,,,,,,,,,,,,,,,,,,,,,,,,,0.0,0.0,0.0,0.0,0.0,0.0,0.0,0.0,0.0,0.0,0.0,0.0,0.0,0.0,0.0,0.0,,,,,,,,,,,,,
115,740824,1745469337790,0.0,71.0,,-0.15,-0.51,0.97,-36.0,1.0,0.0,1.11,1.14,98.0,5276.0,1.9,2.37,,10.78,0.773,89.8,,52.4,5.0,,,,,,,,,,,,0.0,0.0,0.0,0.0,0.0,0.0,0.0,0.0,0.0,0.0,0.0,0.0,0.0,0.0,0.0,0.0,,,,,,0.0,,,,,,,
116,740844,1745469337809,,,,,,,,,,,,,,,,,,,,,,,,,,,,,,,,,,0.0,0.0,0.0,0.0,0.0,0.0,0.0,0.0,0.0,0.0,0.0,0.0,0.0,0.0,0.0,0.0,,,,,,,,,,,,,
117,740864,1745469337829,0.0,88.0,,-0.12,-0.53,0.93,-34.0,1.0,0.0,1.08,1.14,95.0,5199.0,0.6,2.41,,10.68,0.789,89.8,,52.4,5.0,,,,,,,,,,,,0.0,0.0,0.0,0.0,0.0,0.0,0.0,0.0,0.0,0.0,0.0,0.0,0.0,0.0,0.0,0.0,,,,,,0.0,,,,,,,
118,740884,1745469337849,,,,,,,,,,,,,,,,,,,,,,,15.0,259.0,15.0,16.0,0.0,106.0,0.0,0.0,2.28,,,0.0,0.0,0.0,0.0,0.0,0.0,0.0,0.0,0.0,0.0,0.0,0.0,0.0,0.0,0.0,0.0,,0.0,,,,,38.990929,-76.940666,24.28,32.6,23.0,2.0,1.1
119,740904,1745469337869,0.0,68.0,,-0.13,-0.48,0.93,-32.0,1.0,0.0,1.06,1.14,93.0,5048.0,0.0,1.88,,10.7,0.814,89.8,,52.4,5.0,,,,,,,,,,,,0.0,0.0,0.0,0.0,0.0,0.0,0.0,0.0,0.0,0.0,0.0,0.0,0.0,0.0,0.0,0.0,,,,,,0.0,,,,,,,
120,740924,1745469337889,,,,,,,,,,,,,,,,,,,,,,,,,,,,,,,,,,0.0,0.0,0.0,0.0,0.0,0.0,0.0,0.0,0.0,0.0,0.0,0.0,0.0,0.0,0.0,0.0,,,,,,,,,,,,,
121,740944,1745469337910,0.0,54.0,,-0.11,-0.45,0.95,-29.0,0.0,0.0,1.06,1.14,93.0,4863.0,0.0,1.82,,10.66,0.87,89.8,,48.9,5.0,,,,,,,,,,,,0.0,0.0,0.0,0.0,0.0,0.0,0.0,0.0,0.0,0.0,0.0,0.0,0.0,0.0,0.0,0.0,,,,,,0.0,,,,,,,
122,740964,1745469337930,,,,,,,,,,,,,,,,,,,,,,,,,,,,,,,,,,0.0,0.0,0.0,0.0,0.0,0.0,0.0,0.0,0.0,0.0,0.0,0.0,0.0,0.0,0.0,0.0,,,,,,,,,,,,,
123,740984,1745469337950,0.0,57.0,,-0.16,-0.28,1.03,-27.0,0.0,0.0,1.08,1.14,95.0,4671.0,0.1,1.83,,10.66,0.87,89.8,,48.9,5.0,15.0,259.0,15.0,16.0,0.0,100.0,0.0,0.0,2.28,,,0.0,0.0,0.0,0.0,0.0,0.0,0.0,0.0,0.0,0.0,0.0,0.0,0.0,0.0,0.0,0.0,,0.0,,,,0.0,38.990936,-76.940666,24.28,32.6,23.0,2.0,1.1
124,741004,1745469337970,,,,,,,,,,,,,,,,,,,,,,,,,,,,,,,,,,0.0,0.0,0.0,0.0,0.0,0.0,0.0,0.0,0.0,0.0,0.0,0.0,0.0,0.0,0.0,0.0,,,,,,,,,,,,,
125,741024,1745469337990,0.0,64.0,,-0.2,-0.25,1.07,-26.0,0.0,0.0,1.11,1.14,98.0,4671.0,0.1,1.83,,10.65,0.928,89.8,,46.5,5.0,,,,,,,,,,,,0.0,0.0,0.0,0.0,0.0,0.0,0.0,0.0,0.0,0.0,0.0,0.0,0.0,0.0,0.0,0.0,,,,,,0.0,,,,,,,
126,741044,1745469337998,,,,,,,,,,,,,,,,,,,,,,,,,,,,,,,,,,0.0,0.0,0.0,0.0,0.0,0.0,0.0,0.0,0.0,0.0,0.0,0.0,0.0,0.0,0.0,0.0,,,,,,,,,,,,,
127,741064,1745469338018,0.0,71.0,,-0.24,-0.31,1.04,-25.0,0.0,0.0,1.12,1.14,98.0,4486.0,0.3,1.85,,10.68,0.995,89.8,,46.5,5.0,,,,,,,,,,,,0.0,0.0,0.0,0.0,0.0,0.0,0.0,0.0,0.0,0.0,0.0,0.0,0.0,0.0,0.0,0.0,,,,,,0.0,,,,,,,
128,741084,1745469338038,,,,,,,,,,,,,,,,,,,,,,,14.0,259.0,15.0,15.0,0.0,98.0,0.0,0.0,2.27,,,0.0,0.0,0.0,0.0,0.0,0.0,0.0,0.0,0.0,0.0,0.0,0.0,0.0,0.0,0.0,0.0,,0.0,,,,,38.99094,-76.940666,24.14,32.6,22.0,2.0,1.1
129,741104,1745469338058,0.0,57.0,,-0.26,-0.39,0.94,-25.0,0.0,-1.0,1.05,1.14,92.0,4671.0,0.7,1.89,,10.64,1.036,89.8,,46.5,5.0,,,,,,,,,,,,0.0,0.0,0.0,0.0,0.0,0.0,0.0,0.0,0.0,0.0,0.0,0.0,0.0,0.0,0.0,0.0,,,,,,0.0,,,,,,,
130,741124,1745469338078,,,,,,,,,,,,,,,,,,,,,,,,,,,,,,,,,,0.0,0.0,0.0,0.0,0.0,0.0,0.0,0.0,0.0,0.0,0.0,0.0,0.0,0.0,0.0,0.0,,,,,,,,,,,,,
131,741144,1745469338110,1.38,71.0,,-0.25,-0.29,0.94,-22.0,0.0,-1.0,1.01,1.14,89.0,4726.0,0.6,1.94,,10.64,1.036,89.8,,49.7,5.0,,,,,,,,,,,,0.0,0.0,0.0,0.0,0.0,0.0,0.0,0.0,0.0,0.0,0.0,0.0,0.0,0.0,0.0,0.0,,,,,,0.0,,,,,,,
132,741164,1745469338130,,,,,,,,,,,,,,,,,,,,,,,,,,,,,,,,,,0.0,0.0,0.0,0.0,0.0,0.0,0.0,0.0,0.0,0.0,0.0,0.0,0.0,0.0,0.0,0.0,,,,,,,,,,,,,
133,741184,1745469338150,7.04,57.0,,-0.27,-0.14,1.07,-18.0,0.0,0.0,1.11,1.14,98.0,4597.0,0.6,1.98,,10.61,1.088,89.8,,49.7,5.0,14.0,259.0,14.0,14.0,0.0,92.0,0.0,0.0,2.27,,,0.0,0.0,0.0,0.0,0.0,0.0,0.0,0.0,0.0,0.0,0.0,0.0,0.0,0.0,0.0,0.0,,1.0,,,,0.0,38.990948,-76.940666,23.33,32.6,22.0,2.0,1.1
134,741204,1745469338170,,,,,,,,,,,,,,,,,,,,,,,,,,,,,,,,,,0.0,0.0,0.0,0.0,0.0,0.0,0.0,0.0,0.0,0.0,0.0,0.0,0.0,0.0,0.0,0.0,,,,,,,,,,,,,
135,741224,1745469338190,11.44,54.0,,-0.31,-0.01,1.14,-15.0,0.0,0.0,1.19,1.19,100.0,4597.0,0.6,1.98,,10.6,1.213,89.8,,47.9,5.0,,,,,,,,,,,,0.0,0.0,0.0,0.0,0.0,0.0,0.0,0.0,0.0,0.0,0.0,0.0,0.0,0.0,0.0,0.0,,,,,,0.0,,,,,,,
136,741244,1745469338210,,,,,,,,,,,,,,,,,,,,,,,,,,,,,,,,,,0.0,0.0,0.0,0.0,0.0,0.0,0.0,0.0,0.0,0.0,0.0,0.0,0.0,0.0,0.0,0.0,,,,,,,,,,,,,
137,741264,1745469338230,13.32,54.0,,-0.33,0.15,1.21,-11.0,-1.0,0.0,1.26,1.26,100.0,4474.0,0.6,2.01,,10.68,1.248,89.8,,47.9,5.0,,,,,,,,,,,,0.0,0.0,0.0,0.0,0.0,0.0,0.0,0.0,0.0,0.0,0.0,0.0,0.0,0.0,0.0,0.0,,,,,,0.0,,,,,,,
138,741284,1745469338250,,,,,,,,,,,,,,,,,,,,,,,13.0,259.0,14.0,13.0,0.0,91.0,0.0,0.0,2.27,,,0.0,0.0,0.0,0.0,0.0,0.0,0.0,0.0,0.0,0.0,0.0,0.0,0.0,0.0,0.0,0.0,,1.0,,,,,38.990952,-76.940666,22.33,32.6,22.0,2.0,1.1
139,741304,1745469338270,15.21,44.0,,-0.33,0.23,1.2,-8.0,-1.0,0.0,1.27,1.27,100.0,4368.0,0.3,2.02,,10.66,1.248,89.8,,47.9,5.0,,,,,,,,,,,,0.0,0.0,0.0,0.0,0.0,0.0,0.0,0.0,0.0,0.0,0.0,0.0,0.0,0.0,0.0,0.0,,,,,,0.0,,,,,,,
140,741324,1745469338290,,,,,,,,,,,,,,,,,,,,,,,,,,,,,,,,,,0.0,0.0,0.0,0.0,0.0,0.0,0.0,0.0,0.0,0.0,0.0,0.0,0.0,0.0,0.0,0.0,,,,,,,,,,,,,
141,741344,1745469338310,19.61,34.0,,-0.33,0.22,1.1,-8.0,-1.0,0.0,1.16,1.27,92.0,4277.0,0.0,1.93,,10.68,1.248,89.8,,45.3,5.0,,,,,,,,,,,,0.0,0.0,0.0,0.0,0.0,0.0,0.0,0.0,0.0,0.0,0.0,0.0,0.0,0.0,0.0,0.0,,,,,,0.0,,,,,,,
142,741364,1745469338330,,,,,,,,,,,,,,,,,,,,,,,,,,,,,,,,,,0.0,0.0,0.0,0.0,0.0,0.0,0.0,0.0,0.0,0.0,0.0,0.0,0.0,0.0,0.0,0.0,,,,,,,,,,,,,
143,741384,1745469338350,22.12,51.0,13.74,-0.33,0.25,1.13,-8.0,0.0,0.0,1.2,1.27,95.0,4173.0,0.0,2.11,15.0,10.68,1.248,89.8,169.0,45.3,5.0,13.0,259.0,13.0,13.0,0.0,92.0,0.0,0.0,2.28,0.0,1.0,0.0,0.0,0.0,0.0,0.0,0.0,0.0,0.0,0.0,0.0,0.0,0.0,0.0,0.0,0.0,0.0,0.0,1.0,1.0,0.0,0.0,0.0,38.990955,-76.940666,21.37,32.6,22.0,2.0,1.1
144,741404,1745469338370,,,,,,,,,,,,,,,,,,,,,,,,,,,,,,,,,,0.0,0.0,0.0,0.0,0.0,0.0,0.0,0.0,0.0,0.0,0.0,0.0,0.0,0.0,0.0,0.0,,,,,,,,,,,,,
145,741424,1745469338390,23.38,51.0,,-0.31,0.17,1.11,-7.0,0.0,0.0,1.16,1.27,92.0,4173.0,0.0,2.11,,10.82,1.249,89.8,,42.6,5.0,,,,,,,,,,,,0.0,0.0,0.0,0.0,0.0,0.0,0.0,0.0,0.0,0.0,0.0,0.0,0.0,0.0,0.0,0.0,,,,,,0.0,,,,,,,
146,741444,1745469338410,,,,,,,,,,,,,,,,,,,,,,,,,,,,,,,,,,0.0,0.0,0.0,0.0,0.0,0.0,0.0,0.0,0.0,0.0,0.0,0.0,0.0,0.0,0.0,0.0,,,,,,,,,,,,,
147,741464,1745469338430,22.75,47.0,,-0.31,0.21,1.14,-6.0,0.0,0.0,1.2,1.27,94.0,4078.0,0.0,2.19,,10.89,1.25,89.8,,42.6,5.0,,,,,,,,,,,,0.0,0.0,0.0,0.0,0.0,0.0,0.0,0.0,0.0,0.0,0.0,0.0,0.0,0.0,0.0,0.0,,,,,,0.0,,,,,,,
148,741484,1745469338450,,,,,,,,,,,,,,,,,,,,,,,12.0,259.0,12.0,12.0,0.0,86.0,0.0,0.0,2.28,,,0.0,0.0,0.0,0.0,0.0,0.0,0.0,0.0,0.0,0.0,0.0,0.0,0.0,0.0,0.0,0.0,,1.0,,,,,38.990963,-76.940666,19.51,32.6,22.0,2.0,1.1
149,741504,1745469338470,21.49,44.0,,-0.3,0.15,1.07,-7.0,0.0,0.0,1.12,1.27,89.0,4022.0,0.1,2.23,,10.9,1.251,89.8,,42.6,5.0,,,,,,,,,,,,0.0,0.0,0.0,0.0,0.0,0.0,0.0,0.0,0.0,0.0,0.0,0.0,0.0,0.0,0.0,0.0,,,,,,0.0,,,,,,,
150,741524,1745469338490,,,,,,,,,,,,,,,,,,,,,,,,,,,,,,,,,,0.0,0.0,0.0,0.0,0.0,0.0,0.0,0.0,0.0,0.0,0.0,0.0,0.0,0.0,0.0,0.0,,,,,,,,,,,,,
151,741544,1745469338508,22.75,24.0,,-0.31,0.17,1.07,-5.0,0.0,0.0,1.12,1.27,89.0,3990.0,0.5,2.49,,11.09,1.251,89.8,,40.7,5.0,,,,,,,,,,,,0.0,0.0,0.0,0.0,0.0,0.0,0.0,0.0,0.0,0.0,0.0,0.0,0.0,0.0,0.0,0.0,,,,,,0.0,,,,,,,
152,741564,1745469338528,,,,,,,,,,,,,,,,,,,,,,,,,,,,,,,,,,0.0,0.0,0.0,0.0,0.0,0.0,0.0,0.0,0.0,0.0,0.0,0.0,0.0,0.0,0.0,0.0,,,,,,,,,,,,,
153,741584,1745469338548,25.26,30.0,,-0.29,0.18,1.09,-3.0,0.0,0.0,1.14,1.27,90.0,3863.0,1.8,2.74,,11.09,1.251,89.8,,40.7,5.0,12.0,259.0,12.0,12.0,0.0,83.0,0.0,0.0,2.27,,,0.0,0.0,0.0,0.0,0.0,0.0,0.0,0.0,0.0,0.0,0.0,0.0,0.0,0.0,0.0,0.0,,1.0,,,,0.0,38.990967,-76.940666,18.86,32.6,22.0,2.0,1.1
154,741604,1745469338568,,,,,,,,,,,,,,,,,,,,,,,,,,,,,,,,,,0.0,0.0,0.0,0.0,0.0,0.0,0.0,0.0,0.0,0.0,0.0,0.0,0.0,0.0,0.0,0.0,,,,,,,,,,,,,
155,741624,1745469338588,24.64,27.0,,-0.27,0.14,1.1,-3.0,0.0,0.0,1.15,1.27,90.0,3863.0,1.8,2.74,,11.34,1.25,89.8,,38.4,5.0,,,,,,,,,,,,0.0,0.0,0.0,0.0,0.0,0.0,0.0,0.0,0.0,0.0,0.0,0.0,0.0,0.0,0.0,0.0,,,,,,0.0,,,,,,,
156,741644,1745469338609,,,,,,,,,,,,,,,,,,,,,,,,,,,,,,,,,,0.0,0.0,0.0,0.0,0.0,0.0,0.0,0.0,0.0,0.0,0.0,0.0,0.0,0.0,0.0,0.0,,,,,,,,,,,,,
157,741664,1745469338629,24.01,30.0,,-0.27,0.16,1.07,-1.0,0.0,0.0,1.11,1.27,88.0,3773.0,2.0,3.08,,11.5,1.25,89.8,,38.4,5.0,,,,,,,,,,,,0.0,0.0,0.0,0.0,0.0,0.0,0.0,0.0,0.0,0.0,0.0,0.0,0.0,0.0,0.0,0.0,,,,,,0.0,,,,,,,
158,741684,1745469338649,,,,,,,,,,,,,,,,,,,,,,,12.0,259.0,11.0,12.0,0.0,81.0,0.0,0.0,2.27,,,0.0,0.0,0.0,0.0,0.0,0.0,0.0,0.0,0.0,0.0,0.0,0.0,0.0,0.0,0.0,0.0,,1.0,,,,,38.990974,-76.940666,18.44,32.6,22.0,2.0,1.1
159,741704,1745469338669,21.49,37.0,,-0.25,0.13,1.09,0.0,0.0,0.0,1.12,1.27,89.0,3777.0,1.9,3.11,,11.71,1.248,89.8,,38.4,5.0,,,,,,,,,,,,0.0,0.0,0.0,0.0,0.0,0.0,0.0,0.0,0.0,0.0,0.0,0.0,0.0,0.0,0.0,0.0,,,,,,0.0,,,,,,,
160,741724,1745469338691,,,,,,,,,,,,,,,,,,,,,,,,,,,,,,,,,,0.0,0.0,0.0,0.0,0.0,0.0,0.0,0.0,0.0,0.0,0.0,0.0,0.0,0.0,0.0,0.0,,,,,,,,,,,,,
161,741744,1745469338711,16.47,44.0,,-0.23,0.11,1.09,0.0,0.0,0.0,1.12,1.27,88.0,3821.0,1.9,3.09,,11.79,1.248,89.8,,38.4,5.0,,,,,,,,,,,,0.0,0.0,0.0,0.0,0.0,0.0,0.0,0.0,0.0,0.0,0.0,0.0,0.0,0.0,0.0,0.0,,,,,,0.0,,,,,,,
162,741764,1745469338731,,,,,,,,,,,,,,,,,,,,,,,,,,,,,,,,,,0.0,0.0,0.0,0.0,0.0,0.0,0.0,0.0,0.0,0.0,0.0,0.0,0.0,0.0,0.0,0.0,,,,,,,,,,,,,
163,741784,1745469338751,12.69,34.0,,-0.22,0.14,1.09,0.0,0.0,0.0,1.13,1.27,89.0,3703.0,1.6,3.12,,11.79,1.248,89.8,,38.4,5.0,11.0,259.0,11.0,10.0,0.0,79.0,0.0,0.0,2.27,,,0.0,0.0,0.0,0.0,0.0,0.0,0.0,0.0,0.0,0.0,0.0,0.0,0.0,0.0,0.0,0.0,,0.0,,,,0.0,38.990978,-76.940666,17.74,32.6,22.0,2.0,1.1
164,741804,1745469338771,,,,,,,,,,,,,,,,,,,,,,,,,,,,,,,,,,0.0,0.0,0.0,0.0,0.0,0.0,0.0,0.0,0.0,0.0,0.0,0.0,0.0,0.0,0.0,0.0,,,,,,,,,,,,,
165,741824,1745469338791,10.18,41.0,,-0.22,0.19,1.02,2.0,0.0,0.0,1.06,1.27,84.0,3703.0,1.6,3.12,,11.87,1.248,89.8,,36.5,5.0,,,,,,,,,,,,0.0,0.0,0.0,0.0,0.0,0.0,0.0,0.0,0.0,0.0,0.0,0.0,0.0,0.0,0.0,0.0,,,,,,0.0,,,,,,,
166,741844,1745469338811,,,,,,,,,,,,,,,,,,,,,,,,,,,,,,,,,,0.0,0.0,0.0,0.0,0.0,0.0,0.0,0.0,0.0,0.0,0.0,0.0,0.0,0.0,0.0,0.0,,,,,,,,,,,,,
167,741864,1745469338831,8.3,47.0,,-0.24,0.08,1.04,0.0,0.0,0.0,1.07,1.27,84.0,3518.0,1.3,3.13,,12.04,1.248,89.8,,36.5,5.0,,,,,,,,,,,,0.0,0.0,0.0,0.0,0.0,0.0,0.0,0.0,0.0,0.0,0.0,0.0,0.0,0.0,0.0,0.0,,,,,,0.0,,,,,,,
168,741884,1745469338851,,,,,,,,,,,,,,,,,,,,,,,11.0,259.0,11.0,11.0,0.0,78.0,0.0,0.0,2.28,,,0.0,0.0,0.0,0.0,0.0,0.0,0.0,0.0,0.0,0.0,0.0,0.0,0.0,0.0,0.0,0.0,,0.0,,,,,38.990982,-76.940666,17.3,32.7,22.0,2.0,1.1
169,741904,1745469338871,5.78,20.0,,-0.21,0.1,1.03,1.0,0.0,0.0,1.06,1.27,84.0,3423.0,1.4,3.14,,12.25,1.2,89.8,,36.5,5.0,,,,,,,,,,,,0.0,0.0,0.0,0.0,0.0,0.0,0.0,0.0,0.0,0.0,0.0,0.0,0.0,0.0,0.0,0.0,,,,,,0.0,,,,,,,
170,741924,1745469338891,,,,,,,,,,,,,,,,,,,,,,,,,,,,,,,,,,0.0,0.0,0.0,0.0,0.0,0.0,0.0,0.0,0.0,0.0,0.0,0.0,0.0,0.0,0.0,0.0,,,,,,,,,,,,,
171,741944,1745469338909,3.9,17.0,,-0.27,0.04,1.02,1.0,0.0,0.0,1.05,1.27,83.0,3376.0,1.4,3.09,,12.32,1.192,89.8,,33.6,5.0,,,,,,,,,,,,0.0,0.0,0.0,0.0,0.0,0.0,0.0,0.0,0.0,0.0,0.0,0.0,0.0,0.0,0.0,0.0,,,,,,0.0,,,,,,,
172,741964,1745469338929,,,,,,,,,,,,,,,,,,,,,,,,,,,,,,,,,,0.0,0.0,0.0,0.0,0.0,0.0,0.0,0.0,0.0,0.0,0.0,0.0,0.0,0.0,0.0,0.0,,,,,,,,,,,,,
173,741984,1745469338949,0.75,10.0,,-0.22,0.01,1.05,0.0,0.0,0.0,1.07,1.27,85.0,3491.0,1.6,3.12,,12.32,1.192,89.8,,33.6,5.0,11.0,259.0,10.0,10.0,0.0,76.0,0.0,0.0,2.28,,,0.0,0.0,0.0,0.0,0.0,0.0,0.0,0.0,0.0,0.0,0.0,0.0,0.0,0.0,0.0,0.0,,1.0,,,,0.0,38.990986,-76.940666,17.14,32.6,22.0,2.0,1.1
174,742004,1745469338969,,,,,,,,,,,,,,,,,,,,,,,,,,,,,,,,,,0.0,0.0,0.0,0.0,0.0,0.0,0.0,0.0,0.0,0.0,0.0,0.0,0.0,0.0,0.0,0.0,,,,,,,,,,,,,
175,742024,1745469338989,0.0,37.0,,-0.22,0.02,1.0,4.0,0.0,0.0,1.02,1.27,81.0,3491.0,1.6,3.12,,12.37,1.215,89.8,,34.0,5.0,,,,,,,,,,,,0.0,0.0,0.0,0.0,0.0,0.0,0.0,0.0,0.0,0.0,0.0,0.0,0.0,0.0,0.0,0.0,,,,,,0.0,,,,,,,
176,742044,1745469338999,,,,,,,,,,,,,,,,,,,,,,,,,,,,,,,,,,0.0,0.0,0.0,0.0,0.0,0.0,0.0,0.0,0.0,0.0,0.0,0.0,0.0,0.0,0.0,0.0,,,,,,,,,,,,,
177,742064,1745469339019,0.0,47.0,,-0.23,-0.09,1.03,0.0,1.0,0.0,1.06,1.27,83.0,3473.0,1.9,3.13,,12.43,1.221,89.8,,34.0,5.0,,,,,,,,,,,,0.0,0.0,0.0,0.0,0.0,0.0,0.0,0.0,0.0,0.0,0.0,0.0,0.0,0.0,0.0,0.0,,,,,,0.0,,,,,,,
178,742084,1745469339039,,,,,,,,,,,,,,,,,,,,,,,10.0,259.0,10.0,10.0,0.0,75.0,0.0,0.0,2.27,,,0.0,0.0,0.0,0.0,0.0,0.0,0.0,0.0,0.0,0.0,0.0,0.0,0.0,0.0,0.0,0.0,,1.0,,,,,38.99099,-76.940666,16.23,32.7,23.0,2.0,1.1
179,742104,1745469339059,0.0,54.0,,-0.21,0.01,0.97,3.0,0.0,0.0,0.99,1.27,78.0,3362.0,2.1,3.13,,12.52,1.214,89.8,,34.0,5.0,,,,,,,,,,,,0.0,0.0,0.0,0.0,0.0,0.0,0.0,0.0,0.0,0.0,0.0,0.0,0.0,0.0,0.0,0.0,,,,,,0.0,,,,,,,
180,742124,1745469339091,,,,,,,,,,,,,,,,,,,,,,,,,,,,,,,,,,0.0,0.0,0.0,0.0,0.0,0.0,0.0,0.0,0.0,0.0,0.0,0.0,0.0,0.0,0.0,0.0,,,,,,,,,,,,,
181,742144,1745469339111,0.0,30.0,,-0.17,-0.04,1.05,0.0,0.0,0.0,1.07,1.27,84.0,3282.0,3.4,3.5,,12.52,1.214,89.8,,32.7,5.0,,,,,,,,,,,,0.0,0.0,0.0,0.0,0.0,0.0,0.0,0.0,0.0,0.0,0.0,0.0,0.0,0.0,0.0,0.0,,,,,,0.0,,,,,,,
182,742164,1745469339131,,,,,,,,,,,,,,,,,,,,,,,,,,,,,,,,,,0.0,0.0,0.0,0.0,0.0,0.0,0.0,0.0,0.0,0.0,0.0,0.0,0.0,0.0,0.0,0.0,,,,,,,,,,,,,
183,742184,1745469339151,0.0,44.0,,-0.22,-0.1,1.06,0.0,0.0,0.0,1.08,1.27,86.0,3192.0,4.2,3.71,,12.69,1.207,89.8,,32.7,5.0,10.0,259.0,10.0,9.0,0.0,74.0,0.0,0.0,2.27,,,0.0,0.0,0.0,0.0,0.0,0.0,0.0,0.0,0.0,0.0,0.0,0.0,0.0,0.0,0.0,0.0,,1.0,,,,0.0,38.990994,-76.940666,16.05,32.6,23.0,2.0,1.1
184,742204,1745469339171,,,,,,,,,,,,,,,,,,,,,,,,,,,,,,,,,,0.0,0.0,0.0,0.0,0.0,0.0,0.0,0.0,0.0,0.0,0.0,0.0,0.0,0.0,0.0,0.0,,,,,,,,,,,,,
185,742224,1745469339191,0.0,30.0,,-0.22,0.0,0.95,3.0,0.0,-1.0,0.97,1.27,77.0,3192.0,4.2,3.71,,12.81,1.213,89.8,,31.3,5.0,,,,,,,,,,,,0.0,0.0,0.0,0.0,0.0,0.0,0.0,0.0,0.0,0.0,0.0,0.0,0.0,0.0,0.0,0.0,,,,,,0.0,,,,,,,
186,742244,1745469339209,,,,,,,,,,,,,,,,,,,,,,,,,,,,,,,,,,0.0,0.0,0.0,0.0,0.0,0.0,0.0,0.0,0.0,0.0,0.0,0.0,0.0,0.0,0.0,0.0,,,,,,,,,,,,,
187,742264,1745469339229,0.0,30.0,,-0.17,-0.04,1.02,1.0,0.0,0.0,1.03,1.27,81.0,3206.0,5.7,3.74,,13.0,1.198,89.8,,31.3,5.0,,,,,,,,,,,,0.0,0.0,0.0,0.0,0.0,0.0,0.0,0.0,0.0,0.0,0.0,0.0,0.0,0.0,0.0,0.0,,,,,,0.0,,,,,,,
188,742284,1745469339249,,,,,,,,,,,,,,,,,,,,,,,10.0,259.0,10.0,10.0,0.0,74.0,0.0,0.0,2.27,,,0.0,0.0,0.0,0.0,0.0,0.0,0.0,0.0,0.0,0.0,0.0,0.0,0.0,0.0,0.0,0.0,,1.0,,,,,38.990997,-76.940666,15.54,32.6,23.0,2.0,1.1
189,742304,1745469339269,0.0,7.0,,-0.22,-0.06,1.01,0.0,0.0,0.0,1.03,1.27,82.0,3293.0,8.0,3.87,,13.23,1.19,89.8,,31.3,5.0,,,,,,,,,,,,0.0,0.0,0.0,0.0,0.0,0.0,0.0,0.0,0.0,0.0,0.0,0.0,0.0,0.0,0.0,0.0,,,,,,0.0,,,,,,,
190,742324,1745469339291,,,,,,,,,,,,,,,,,,,,,,,,,,,,,,,,,,0.0,0.0,0.0,0.0,0.0,0.0,0.0,0.0,0.0,0.0,0.0,0.0,0.0,0.0,0.0,0.0,,,,,,,,,,,,,
191,742344,1745469339311,0.0,27.0,,-0.19,0.03,0.95,3.0,0.0,0.0,0.97,1.27,77.0,3225.0,8.9,3.92,,13.37,1.173,89.8,,32.1,5.0,,,,,,,,,,,,0.0,0.0,0.0,0.0,0.0,0.0,0.0,0.0,0.0,0.0,0.0,0.0,0.0,0.0,0.0,0.0,,,,,,0.0,,,,,,,
192,742364,1745469339331,,,,,,,,,,,,,,,,,,,,,,,,,,,,,,,,,,0.0,0.0,0.0,0.0,0.0,0.0,0.0,0.0,0.0,0.0,0.0,0.0,0.0,0.0,0.0,0.0,,,,,,,,,,,,,
193,742384,1745469339351,0.0,34.0,13.7,-0.16,-0.03,1.01,-1.0,0.0,0.0,1.02,1.27,81.0,3225.0,8.9,3.92,15.0,13.37,1.173,89.8,169.0,32.1,5.0,10.0,259.0,10.0,10.0,0.0,73.0,0.0,0.0,2.28,0.0,1.0,0.0,0.0,0.0,0.0,0.0,0.0,0.0,0.0,0.0,0.0,0.0,0.0,0.0,0.0,0.0,0.0,0.0,1.0,1.0,0.0,0.0,0.0,38.991001,-76.940666,15.33,32.6,23.0,2.0,1.1
194,742404,1745469339371,,,,,,,,,,,,,,,,,,,,,,,,,,,,,,,,,,0.0,0.0,0.0,0.0,0.0,0.0,0.0,0.0,0.0,0.0,0.0,0.0,0.0,0.0,0.0,0.0,,,,,,,,,,,,,
195,742424,1745469339391,0.0,41.0,,-0.19,0.02,0.94,1.0,0.0,0.0,0.96,1.27,76.0,3311.0,9.5,3.93,,13.47,1.169,89.8,,32.0,5.0,,,,,,,,,,,,0.0,0.0,0.0,0.0,0.0,0.0,0.0,0.0,0.0,0.0,0.0,0.0,0.0,0.0,0.0,0.0,,,,,,0.0,,,,,,,
196,742444,1745469339409,,,,,,,,,,,,,,,,,,,,,,,,,,,,,,,,,,0.0,0.0,0.0,0.0,0.0,0.0,0.0,0.0,0.0,0.0,0.0,0.0,0.0,0.0,0.0,0.0,,,,,,,,,,,,,
197,742464,1745469339429,0.0,44.0,,-0.15,0.07,0.98,2.0,0.0,0.0,0.99,1.27,78.0,3317.0,9.6,3.95,,13.52,1.159,89.8,,32.0,5.0,,,,,,,,,,,,0.0,0.0,0.0,0.0,0.0,0.0,0.0,0.0,0.0,0.0,0.0,0.0,0.0,0.0,0.0,0.0,,,,,,0.0,,,,,,,
198,742484,1745469339449,,,,,,,,,,,,,,,,,,,,,,,10.0,259.0,9.0,9.0,0.0,73.0,0.0,0.0,2.28,,,0.0,0.0,0.0,0.0,0.0,0.0,0.0,0.0,0.0,0.0,0.0,0.0,0.0,0.0,0.0,0.0,,0.0,,,,,38.991005,-76.940666,15.03,32.6,23.0,2.0,1.1
199,742504,1745469339469,0.0,41.0,,-0.17,0.01,0.96,0.0,0.0,-1.0,0.97,1.27,77.0,3330.0,9.8,3.93,,13.55,1.157,89.8,,32.0,5.0,,,,,,,,,,,,0.0,0.0,0.0,0.0,0.0,0.0,0.0,0.0,0.0,0.0,0.0,0.0,0.0,0.0,0.0,0.0,,,,,,0.0,,,,,,,
200,742524,1745469339491,,,,,,,,,,,,,,,,,,,,,,,,,,,,,,,,,,0.0,0.0,0.0,0.0,0.0,0.0,0.0,0.0,0.0,0.0,0.0,0.0,0.0,0.0,0.0,0.0,,,,,,,,,,,,,
201,742544,1745469339511,0.0,37.0,,-0.11,0.09,0.96,2.0,0.0,0.0,0.97,1.27,77.0,3393.0,10.1,3.93,,13.56,1.163,89.8,,32.9,5.0,,,,,,,,,,,,0.0,0.0,0.0,0.0,0.0,0.0,0.0,0.0,0.0,0.0,0.0,0.0,0.0,0.0,0.0,0.0,,,,,,0.0,,,,,,,
202,742564,1745469339531,,,,,,,,,,,,,,,,,,,,,,,,,,,,,,,,,,0.0,0.0,0.0,0.0,0.0,0.0,0.0,0.0,0.0,0.0,0.0,0.0,0.0,0.0,0.0,0.0,,,,,,,,,,,,,
203,742584,1745469339551,0.0,20.0,,-0.12,0.03,1.01,0.0,0.0,0.0,1.02,1.27,80.0,3198.0,10.2,3.96,,13.56,1.163,89.8,,32.9,5.0,10.0,259.0,9.0,9.0,0.0,70.0,0.0,0.0,2.27,,,0.0,0.0,0.0,0.0,0.0,0.0,0.0,0.0,0.0,0.0,0.0,0.0,0.0,0.0,0.0,0.0,,0.0,,,,0.0,38.991009,-76.940666,14.9,32.6,23.0,2.0,1.1
204,742604,1745469339571,,,,,,,,,,,,,,,,,,,,,,,,,,,,,,,,,,0.0,0.0,0.0,0.0,0.0,0.0,0.0,0.0,0.0,0.0,0.0,0.0,0.0,0.0,0.0,0.0,,,,,,,,,,,,,
205,742624,1745469339591,0.0,27.0,,-0.16,0.06,0.97,2.0,0.0,-1.0,0.99,1.27,78.0,3198.0,10.2,3.96,,13.6,1.151,89.8,,31.3,5.0,,,,,,,,,,,,0.0,0.0,0.0,0.0,0.0,0.0,0.0,0.0,0.0,0.0,0.0,0.0,0.0,0.0,0.0,0.0,,,,,,0.0,,,,,,,
206,742644,1745469339610,,,,,,,,,,,,,,,,,,,,,,,,,,,,,,,,,,0.0,0.0,0.0,0.0,0.0,0.0,0.0,0.0,0.0,0.0,0.0,0.0,0.0,0.0,0.0,0.0,,,,,,,,,,,,,
207,742664,1745469339630,0.0,27.0,,-0.17,0.06,0.95,3.0,0.0,-1.0,0.96,0.96,100.0,2998.0,10.3,3.96,,13.75,1.167,89.8,,31.3,5.0,,,,,,,,,,,,0.0,0.0,0.0,0.0,0.0,0.0,0.0,0.0,0.0,0.0,0.0,0.0,0.0,0.0,0.0,0.0,,,,,,0.0,,,,,,,
208,742684,1745469339650,,,,,,,,,,,,,,,,,,,,,,,9.0,259.0,9.0,9.0,0.0,71.0,0.0,0.0,2.27,,,0.0,0.0,0.0,0.0,0.0,0.0,0.0,0.0,0.0,0.0,0.0,0.0,0.0,0.0,0.0,0.0,,0.0,,,,,38.991013,-76.940666,14.57,32.7,23.0,2.0,1.1
209,742704,1745469339670,0.0,20.0,,-0.18,0.08,0.92,5.0,0.0,-1.0,0.94,0.96,98.0,3026.0,10.5,3.98,,13.76,1.17,89.8,,31.3,5.0,,,,,,,,,,,,0.0,0.0,0.0,0.0,0.0,0.0,0.0,0.0,0.0,0.0,0.0,0.0,0.0,0.0,0.0,0.0,,,,,,0.0,,,,,,,
210,742724,1745469339690,,,,,,,,,,,,,,,,,,,,,,,,,,,,,,,,,,0.0,0.0,0.0,0.0,0.0,0.0,0.0,0.0,0.0,0.0,0.0,0.0,0.0,0.0,0.0,0.0,,,,,,,,,,,,,
211,742744,1745469339710,0.0,27.0,,-0.2,0.08,0.91,7.0,0.0,-1.0,0.94,0.96,97.0,3092.0,10.4,3.98,,13.72,1.145,89.8,,29.3,5.0,,,,,,,,,,,,0.0,0.0,0.0,0.0,0.0,0.0,0.0,0.0,0.0,0.0,0.0,0.0,0.0,0.0,0.0,0.0,,,,,,0.0,,,,,,,
212,742764,1745469339730,,,,,,,,,,,,,,,,,,,,,,,,,,,,,,,,,,0.0,0.0,0.0,0.0,0.0,0.0,0.0,0.0,0.0,0.0,0.0,0.0,0.0,0.0,0.0,0.0,,,,,,,,,,,,,
213,742784,1745469339750,0.0,27.0,,-0.19,0.11,0.83,9.0,0.0,-1.0,0.85,0.96,89.0,3121.0,10.2,3.98,,13.72,1.145,89.8,,29.3,5.0,10.0,0.0,9.0,9.0,0.0,28.0,0.0,0.0,2.28,,,0.0,0.0,0.0,0.0,0.0,0.0,0.0,0.0,0.0,0.0,0.0,0.0,0.0,0.0,0.0,0.0,,1.0,,,,0.0,38.991016,-76.940666,15.09,32.7,23.0,2.0,1.1
214,742804,1745469339770,,,,,,,,,,,,,,,,,,,,,,,,,,,,,,,,,,0.0,0.0,0.0,0.0,0.0,0.0,0.0,0.0,0.0,0.0,0.0,0.0,0.0,0.0,0.0,0.0,,,,,,,,,,,,,
215,742824,1745469339790,0.0,34.0,,-0.12,0.08,0.85,6.0,0.0,-1.0,0.87,0.96,90.0,3121.0,10.2,3.98,,13.69,1.138,89.8,,31.4,5.0,,,,,,,,,,,,0.0,0.0,0.0,0.0,0.0,0.0,0.0,0.0,0.0,0.0,0.0,0.0,0.0,0.0,0.0,0.0,,,,,,0.0,,,,,,,
216,742844,1745469339810,,,,,,,,,,,,,,,,,,,,,,,,,,,,,,,,,,0.0,0.0,0.0,0.0,0.0,0.0,0.0,0.0,0.0,0.0,0.0,0.0,0.0,0.0,0.0,0.0,,,,,,,,,,,,,
217,742864,1745469339830,0.0,44.0,,-0.13,-0.03,0.92,5.0,0.0,-1.0,0.93,0.96,96.0,3343.0,10.0,3.96,,13.64,1.133,89.8,,31.4,5.0,,,,,,,,,,,,0.0,0.0,0.0,0.0,0.0,0.0,0.0,0.0,0.0,0.0,0.0,0.0,0.0,0.0,0.0,0.0,,,,,,0.0,,,,,,,
218,742884,1745469339850,,,,,,,,,,,,,,,,,,,,,,,9.0,0.0,9.0,9.0,0.0,221.0,0.0,0.0,2.28,,,0.0,0.0,0.0,0.0,0.0,0.0,0.0,0.0,0.0,0.0,0.0,0.0,0.0,0.0,0.0,0.0,,0.0,,,,,38.99102,-76.940666,14.55,32.7,23.0,2.0,1.1
219,742904,1745469339870,0.0,20.0,,-0.13,0.01,0.87,7.0,0.0,-1.0,0.88,0.96,91.0,3245.0,10.1,3.97,,13.64,1.147,89.8,,31.4,5.0,,,,,,,,,,,,0.0,0.0,0.0,0.0,0.0,0.0,0.0,0.0,0.0,0.0,0.0,0.0,0.0,0.0,0.0,0.0,,,,,,0.0,,,,,,,
220,742924,1745469339890,,,,,,,,,,,,,,,,,,,,,,,,,,,,,,,,,,0.0,0.0,0.0,0.0,0.0,0.0,0.0,0.0,0.0,0.0,0.0,0.0,0.0,0.0,0.0,0.0,,,,,,,,,,,,,
221,742944,1745469339910,0.0,24.0,,-0.13,0.04,0.8,8.0,0.0,-1.0,0.81,0.96,84.0,2985.0,10.1,3.97,,13.75,1.156,89.8,,30.7,5.0,,,,,,,,,,,,0.0,0.0,0.0,0.0,0.0,0.0,0.0,0.0,0.0,0.0,0.0,0.0,0.0,0.0,0.0,0.0,,,,,,0.0,,,,,,,
222,742964,1745469339930,,,,,,,,,,,,,,,,,,,,,,,,,,,,,,,,,,0.0,0.0,0.0,0.0,0.0,0.0,0.0,0.0,0.0,0.0,0.0,0.0,0.0,0.0,0.0,0.0,,,,,,,,,,,,,
223,742984,1745469339950,0.0,20.0,,-0.09,0.06,0.76,8.0,-1.0,-1.0,0.77,0.96,79.0,3052.0,10.4,3.98,,13.75,1.156,89.8,,30.7,5.0,9.0,0.0,9.0,10.0,0.0,0.0,0.0,0.0,2.27,,,0.0,0.0,0.0,0.0,0.0,0.0,0.0,0.0,0.0,0.0,0.0,0.0,0.0,0.0,0.0,0.0,,0.0,,,,0.0,38.991024,-76.940666,14.7,32.7,23.0,2.0,1.1
224,743004,1745469339970,,,,,,,,,,,,,,,,,,,,,,,,,,,,,,,,,,0.0,0.0,0.0,0.0,0.0,0.0,0.0,0.0,0.0,0.0,0.0,0.0,0.0,0.0,0.0,0.0,,,,,,,,,,,,,
225,743024,1745469339990,0.0,17.0,,-0.04,0.09,0.81,5.0,0.0,0.0,0.82,0.96,85.0,3052.0,10.4,3.98,,13.75,1.155,89.8,,30.7,5.0,,,,,,,,,,,,0.0,0.0,0.0,0.0,0.0,0.0,0.0,0.0,0.0,0.0,0.0,0.0,0.0,0.0,0.0,0.0,,,,,,0.0,,,,,,,
226,743044,1745469339996,,,,,,,,,,,,,,,,,,,,,,,,,,,,,,,,,,0.0,0.0,0.0,0.0,0.0,0.0,0.0,0.0,0.0,0.0,0.0,0.0,0.0,0.0,0.0,0.0,,,,,,,,,,,,,
227,743064,1745469340016,0.0,20.0,,-0.04,0.0,0.9,2.0,0.0,0.0,0.91,0.96,94.0,3228.0,10.6,3.96,,13.71,1.144,89.8,,30.7,5.0,,,,,,,,,,,,0.0,0.0,0.0,0.0,0.0,0.0,0.0,0.0,0.0,0.0,0.0,0.0,0.0,0.0,0.0,0.0,,,,,,0.0,,,,,,,
228,743084,1745469340036,,,,,,,,,,,,,,,,,,,,,,,9.0,0.0,10.0,10.0,0.0,29.0,0.0,0.0,2.26,,,0.0,0.0,0.0,0.0,0.0,0.0,0.0,0.0,0.0,0.0,0.0,0.0,0.0,0.0,0.0,0.0,,1.0,,,,,38.991028,-76.940666,14.8,32.7,24.0,2.0,1.0
229,743104,1745469340056,0.0,34.0,,-0.1,-0.05,0.91,4.0,0.0,0.0,0.92,0.96,95.0,3130.0,10.7,3.98,,13.69,1.131,89.8,,30.7,5.0,,,,,,,,,,,,0.0,0.0,0.0,0.0,0.0,0.0,0.0,0.0,0.0,0.0,0.0,0.0,0.0,0.0,0.0,0.0,,,,,,0.0,,,,,,,
230,743124,1745469340076,,,,,,,,,,,,,,,,,,,,,,,,,,,,,,,,,,0.0,0.0,0.0,0.0,0.0,0.0,0.0,0.0,0.0,0.0,0.0,0.0,0.0,0.0,0.0,0.0,,,,,,,,,,,,,
231,743144,1745469340110,0.0,34.0,,-0.1,0.01,0.85,6.0,-1.0,-1.0,0.86,0.96,89.0,3097.0,11.3,3.98,,13.73,1.13,89.8,,31.0,5.0,,,,,,,,,,,,0.0,0.0,0.0,0.0,0.0,0.0,0.0,0.0,0.0,0.0,0.0,0.0,0.0,0.0,0.0,0.0,,,,,,0.0,,,,,,,
232,743164,1745469340130,,,,,,,,,,,,,,,,,,,,,,,,,,,,,,,,,,0.0,0.0,0.0,0.0,0.0,0.0,0.0,0.0,0.0,0.0,0.0,0.0,0.0,0.0,0.0,0.0,,,,,,,,,,,,,
233,743184,1745469340150,0.0,34.0,,-0.06,0.06,0.83,6.0,-1.0,0.0,0.83,0.96,86.0,3199.0,11.8,4.01,,13.73,1.13,89.8,,31.0,5.0,10.0,0.0,9.0,10.0,0.0,52.0,0.0,0.0,2.26,,,0.0,0.0,0.0,0.0,0.0,0.0,0.0,0.0,0.0,0.0,0.0,0.0,0.0,0.0,0.0,0.0,,0.0,,,,0.0,38.991032,-76.940666,14.99,32.7,24.0,2.0,1.0
234,743204,1745469340170,,,,,,,,,,,,,,,,,,,,,,,,,,,,,,,,,,0.0,0.0,0.0,0.0,0.0,0.0,0.0,0.0,0.0,0.0,0.0,0.0,0.0,0.0,0.0,0.0,,,,,,,,,,,,,
235,743224,1745469340190,0.0,27.0,,-0.05,-0.03,0.89,2.0,0.0,0.0,0.89,0.96,92.0,3199.0,11.8,4.01,,13.76,1.135,89.8,,32.5,5.0,,,,,,,,,,,,0.0,0.0,0.0,0.0,0.0,0.0,0.0,0.0,0.0,0.0,0.0,0.0,0.0,0.0,0.0,0.0,,,,,,0.0,,,,,,,
236,743244,1745469340210,,,,,,,,,,,,,,,,,,,,,,,,,,,,,,,,,,0.0,0.0,0.0,0.0,0.0,0.0,0.0,0.0,0.0,0.0,0.0,0.0,0.0,0.0,0.0,0.0,,,,,,,,,,,,,
237,743264,1745469340230,0.0,27.0,,-0.05,0.04,0.83,4.0,0.0,0.0,0.83,0.96,87.0,3313.0,11.8,4.02,,13.77,1.151,89.8,,32.5,5.0,,,,,,,,,,,,0.0,0.0,0.0,0.0,0.0,0.0,0.0,0.0,0.0,0.0,0.0,0.0,0.0,0.0,0.0,0.0,,,,,,0.0,,,,,,,
238,743284,1745469340250,,,,,,,,,,,,,,,,,,,,,,,10.0,0.0,10.0,10.0,0.0,243.0,0.0,0.0,2.28,,,0.0,0.0,0.0,0.0,0.0,0.0,0.0,0.0,0.0,0.0,0.0,0.0,0.0,0.0,0.0,0.0,,1.0,,,,,38.991035,-76.940666,15.01,32.7,24.0,2.0,1.0
239,743304,1745469340270,0.0,17.0,,-0.03,0.06,0.8,4.0,-1.0,0.0,0.8,0.96,83.0,3108.0,11.7,4.02,,13.84,1.14,89.8,,32.5,5.0,,,,,,,,,,,,0.0,0.0,0.0,0.0,0.0,0.0,0.0,0.0,0.0,0.0,0.0,0.0,0.0,0.0,0.0,0.0,,,,,,0.0,,,,,,,
240,743324,1745469340291,,,,,,,,,,,,,,,,,,,,,,,,,,,,,,,,,,0.0,0.0,0.0,0.0,0.0,0.0,0.0,0.0,0.0,0.0,0.0,0.0,0.0,0.0,0.0,0.0,,,,,,,,,,,,,
241,743344,1745469340311,0.0,24.0,,0.02,0.09,0.84,2.0,-1.0,0.0,0.84,0.96,88.0,3146.0,11.9,4.04,,13.83,1.103,89.8,,30.2,5.0,,,,,,,,,,,,0.0,0.0,0.0,0.0,0.0,0.0,0.0,0.0,0.0,0.0,0.0,0.0,0.0,0.0,0.0,0.0,,,,,,0.0,,,,,,,
242,743364,1745469340331,,,,,,,,,,,,,,,,,,,,,,,,,,,,,,,,,,0.0,0.0,0.0,0.0,0.0,0.0,0.0,0.0,0.0,0.0,0.0,0.0,0.0,0.0,0.0,0.0,,,,,,,,,,,,,
243,743384,1745469340351,0.0,27.0,13.74,0.01,0.01,0.95,-1.0,-1.0,1.0,0.95,0.96,98.0,3214.0,12.9,4.07,15.0,13.83,1.103,89.8,171.0,30.2,5.0,9.0,0.0,10.0,9.0,0.0,203.0,0.0,0.0,2.28,0.0,1.0,0.0,0.0,0.0,0.0,0.0,0.0,0.0,0.0,0.0,0.0,0.0,0.0,0.0,0.0,0.0,0.0,0.0,1.0,1.0,0.0,0.0,0.0,38.991039,-76.940666,15.29,32.7,24.0,2.0,1.0
244,743404,1745469340371,,,,,,,,,,,,,,,,,,,,,,,,,,,,,,,,,,0.0,0.0,0.0,0.0,0.0,0.0,0.0,0.0,0.0,0.0,0.0,0.0,0.0,0.0,0.0,0.0,,,,,,,,,,,,,
245,743424,1745469340391,0.0,37.0,,-0.04,0.0,0.9,2.0,-1.0,0.0,0.9,0.96,93.0,3214.0,12.9,4.07,,13.8,1.088,89.8,,31.9,5.0,,,,,,,,,,,,0.0,0.0,0.0,0.0,0.0,0.0,0.0,0.0,0.0,0.0,0.0,0.0,0.0,0.0,0.0,0.0,,,,,,0.0,,,,,,,
246,743444,1745469340410,,,,,,,,,,,,,,,,,,,,,,,,,,,,,,,,,,0.0,0.0,0.0,0.0,0.0,0.0,0.0,0.0,0.0,0.0,0.0,0.0,0.0,0.0,0.0,0.0,,,,,,,,,,,,,
247,743464,1745469340430,0.0,37.0,,0.01,-0.02,0.95,0.0,-1.0,0.0,0.95,0.96,99.0,3295.0,13.3,4.09,,13.86,1.073,89.8,,31.9,5.0,,,,,,,,,,,,0.0,0.0,0.0,0.0,0.0,0.0,0.0,0.0,0.0,0.0,0.0,0.0,0.0,0.0,0.0,0.0,,,,,,0.0,,,,,,,
248,743484,1745469340450,,,,,,,,,,,,,,,,,,,,,,,9.0,0.0,10.0,10.0,0.0,0.0,0.0,0.0,2.27,,,0.0,0.0,0.0,0.0,0.0,0.0,0.0,0.0,0.0,0.0,0.0,0.0,0.0,0.0,0.0,0.0,,1.0,,,,,38.991043,-76.940666,15.31,32.7,24.0,2.0,1.0
249,743504,1745469340470,0.0,34.0,,-0.04,-0.04,0.94,1.0,-1.0,0.0,0.94,0.96,98.0,3370.0,13.6,4.08,,13.82,1.082,89.8,,31.9,5.0,,,,,,,,,,,,0.0,0.0,0.0,0.0,0.0,0.0,0.0,0.0,0.0,0.0,0.0,0.0,0.0,0.0,0.0,0.0,,,,,,0.0,,,,,,,
250,743524,1745469340490,,,,,,,,,,,,,,,,,,,,,,,,,,,,,,,,,,0.0,0.0,0.0,0.0,0.0,0.0,0.0,0.0,0.0,0.0,0.0,0.0,0.0,0.0,0.0,0.0,,,,,,,,,,,,,
251,743544,1745469340510,0.0,41.0,,-0.01,0.02,0.91,2.0,-1.0,0.0,0.91,0.96,94.0,3180.0,13.8,4.08,,13.86,1.102,89.8,,32.1,5.0,,,,,,,,,,,,0.0,0.0,0.0,0.0,0.0,0.0,0.0,0.0,0.0,0.0,0.0,0.0,0.0,0.0,0.0,0.0,,,,,,0.0,,,,,,,
252,743564,1745469340530,,,,,,,,,,,,,,,,,,,,,,,,,,,,,,,,,,0.0,0.0,0.0,0.0,0.0,0.0,0.0,0.0,0.0,0.0,0.0,0.0,0.0,0.0,0.0,0.0,,,,,,,,,,,,,
253,743584,1745469340550,0.0,17.0,,0.0,-0.02,0.98,-1.0,-1.0,0.0,0.98,0.98,100.0,3180.0,13.8,4.08,,13.86,1.102,89.8,,32.1,5.0,10.0,0.0,10.0,10.0,0.0,14.0,0.0,0.0,2.27,,,0.0,0.0,0.0,0.0,0.0,0.0,0.0,0.0,0.0,0.0,0.0,0.0,0.0,0.0,0.0,0.0,,1.0,,,,0.0,38.991047,-76.940666,15.57,32.7,24.0,2.0,1.0
254,743604,1745469340570,,,,,,,,,,,,,,,,,,,,,,,,,,,,,,,,,,0.0,0.0,0.0,0.0,0.0,0.0,0.0,0.0,0.0,0.0,0.0,0.0,0.0,0.0,0.0,0.0,,,,,,,,,,,,,
255,743624,1745469340590,0.0,27.0,,-0.03,-0.07,0.96,0.0,-1.0,0.0,0.96,0.98,98.0,3304.0,13.8,4.11,,13.86,1.113,89.8,,31.4,5.0,,,,,,,,,,,,0.0,0.0,0.0,0.0,0.0,0.0,0.0,0.0,0.0,0.0,0.0,0.0,0.0,0.0,0.0,0.0,,,,,,0.0,,,,,,,
256,743644,1745469340609,,,,,,,,,,,,,,,,,,,,,,,,,,,,,,,,,,0.0,0.0,0.0,0.0,0.0,0.0,0.0,0.0,0.0,0.0,0.0,0.0,0.0,0.0,0.0,0.0,,,,,,,,,,,,,
257,743664,1745469340629,0.0,17.0,,-0.0,-0.01,0.94,2.0,-1.0,0.0,0.94,0.98,96.0,3313.0,13.8,4.09,,13.84,1.119,89.8,,31.4,5.0,,,,,,,,,,,,0.0,0.0,0.0,0.0,0.0,0.0,0.0,0.0,0.0,0.0,0.0,0.0,0.0,0.0,0.0,0.0,,,,,,0.0,,,,,,,
258,743684,1745469340649,,,,,,,,,,,,,,,,,,,,,,,10.0,0.0,10.0,10.0,0.0,243.0,0.0,0.0,2.27,,,0.0,0.0,0.0,0.0,0.0,0.0,0.0,0.0,0.0,0.0,0.0,0.0,0.0,0.0,0.0,0.0,,1.0,,,,,38.991051,-76.940666,15.67,32.7,24.0,2.0,1.0
259,743704,1745469340669,0.0,20.0,,-0.0,-0.11,1.02,-1.0,-1.0,0.0,1.03,1.03,100.0,3250.0,13.8,4.1,,13.87,1.114,89.8,,31.4,5.0,,,,,,,,,,,,0.0,0.0,0.0,0.0,0.0,0.0,0.0,0.0,0.0,0.0,0.0,0.0,0.0,0.0,0.0,0.0,,,,,,0.0,,,,,,,
260,743724,1745469340689,,,,,,,,,,,,,,,,,,,,,,,,,,,,,,,,,,0.0,0.0,0.0,0.0,0.0,0.0,0.0,0.0,0.0,0.0,0.0,0.0,0.0,0.0,0.0,0.0,,,,,,,,,,,,,
261,743744,1745469340709,0.0,27.0,,-0.01,-0.04,0.94,2.0,-1.0,0.0,0.94,1.03,92.0,3356.0,13.6,4.11,,13.86,1.13,89.8,,32.2,5.0,,,,,,,,,,,,0.0,0.0,0.0,0.0,0.0,0.0,0.0,0.0,0.0,0.0,0.0,0.0,0.0,0.0,0.0,0.0,,,,,,0.0,,,,,,,
262,743764,1745469340729,,,,,,,,,,,,,,,,,,,,,,,,,,,,,,,,,,0.0,0.0,0.0,0.0,0.0,0.0,0.0,0.0,0.0,0.0,0.0,0.0,0.0,0.0,0.0,0.0,,,,,,,,,,,,,
263,743784,1745469340749,0.0,27.0,,-0.0,-0.09,0.99,-1.0,-1.0,0.0,0.99,1.03,97.0,3487.0,13.4,4.07,,13.86,1.13,89.8,,32.2,5.0,9.0,0.0,10.0,10.0,0.0,27.0,0.0,0.0,2.28,,,0.0,0.0,0.0,0.0,0.0,0.0,0.0,0.0,0.0,0.0,0.0,0.0,0.0,0.0,0.0,0.0,,1.0,,,,0.0,38.991055,-76.940666,15.34,32.7,24.0,2.0,1.0
264,743804,1745469340769,,,,,,,,,,,,,,,,,,,,,,,,,,,,,,,,,,0.0,0.0,0.0,0.0,0.0,0.0,0.0,0.0,0.0,0.0,0.0,0.0,0.0,0.0,0.0,0.0,,,,,,,,,,,,,
265,743824,1745469340789,0.0,34.0,,0.04,0.07,0.95,1.0,-1.0,0.0,0.95,1.03,92.0,3487.0,13.4,4.07,,13.76,1.15,89.8,,34.1,5.0,,,,,,,,,,,,0.0,0.0,0.0,0.0,0.0,0.0,0.0,0.0,0.0,0.0,0.0,0.0,0.0,0.0,0.0,0.0,,,,,,0.0,,,,,,,
266,743844,1745469340809,,,,,,,,,,,,,,,,,,,,,,,,,,,,,,,,,,0.0,0.0,0.0,0.0,0.0,0.0,0.0,0.0,0.0,0.0,0.0,0.0,0.0,0.0,0.0,0.0,,,,,,,,,,,,,
267,743864,1745469340829,0.0,41.0,,0.0,-0.01,1.03,-2.0,-1.0,0.0,1.03,1.03,100.0,3304.0,13.3,4.08,,13.87,1.119,89.8,,34.1,5.0,,,,,,,,,,,,0.0,0.0,0.0,0.0,0.0,0.0,0.0,0.0,0.0,0.0,0.0,0.0,0.0,0.0,0.0,0.0,,,,,,0.0,,,,,,,
268,743884,1745469340849,,,,,,,,,,,,,,,,,,,,,,,11.0,0.0,10.0,10.0,0.0,6.0,0.0,0.0,2.28,,,0.0,0.0,0.0,0.0,0.0,0.0,0.0,0.0,0.0,0.0,0.0,0.0,0.0,0.0,0.0,0.0,,0.0,,,,,38.991058,-76.940666,15.9,32.7,24.0,2.0,1.0
269,743904,1745469340869,0.0,20.0,,-0.02,0.04,0.95,1.0,-1.0,-1.0,0.95,1.03,93.0,3270.0,13.4,4.09,,13.86,1.055,89.8,,34.1,5.0,,,,,,,,,,,,0.0,0.0,0.0,0.0,0.0,0.0,0.0,0.0,0.0,0.0,0.0,0.0,0.0,0.0,0.0,0.0,,,,,,0.0,,,,,,,
270,743924,1745469340889,,,,,,,,,,,,,,,,,,,,,,,,,,,,,,,,,,0.0,0.0,0.0,0.0,0.0,0.0,0.0,0.0,0.0,0.0,0.0,0.0,0.0,0.0,0.0,0.0,,,,,,,,,,,,,
271,743944,1745469340909,0.0,13.0,,-0.02,-0.03,0.99,-1.0,-1.0,0.0,0.99,1.03,96.0,3478.0,13.3,4.07,,13.82,0.992,89.8,,32.8,5.0,,,,,,,,,,,,0.0,0.0,0.0,0.0,0.0,0.0,0.0,0.0,0.0,0.0,0.0,0.0,0.0,0.0,0.0,0.0,,,,,,0.0,,,,,,,
272,743964,1745469340929,,,,,,,,,,,,,,,,,,,,,,,,,,,,,,,,,,0.0,0.0,0.0,0.0,0.0,0.0,0.0,0.0,0.0,0.0,0.0,0.0,0.0,0.0,0.0,0.0,,,,,,,,,,,,,
273,743984,1745469340949,0.0,17.0,,0.01,0.04,1.01,0.0,-1.0,0.0,1.01,1.03,98.0,3567.0,13.6,4.05,,13.82,0.992,89.8,,32.8,5.0,10.0,0.0,10.0,11.0,0.0,19.0,0.0,0.0,2.27,,,0.0,0.0,0.0,0.0,0.0,0.0,0.0,0.0,0.0,0.0,0.0,0.0,0.0,0.0,0.0,0.0,,0.0,,,,0.0,38.991062,-76.940666,16.15,32.7,24.0,2.0,1.0
274,744004,1745469340969,,,,,,,,,,,,,,,,,,,,,,,,,,,,,,,,,,0.0,0.0,0.0,0.0,0.0,0.0,0.0,0.0,0.0,0.0,0.0,0.0,0.0,0.0,0.0,0.0,,,,,,,,,,,,,
275,744024,1745469340989,0.0,13.0,,-0.03,0.08,0.94,2.0,-1.0,0.0,0.94,1.03,92.0,3567.0,13.6,4.05,,13.76,0.96,89.8,,33.9,5.0,,,,,,,,,,,,0.0,0.0,0.0,0.0,0.0,0.0,0.0,0.0,0.0,0.0,0.0,0.0,0.0,0.0,0.0,0.0,,,,,,0.0,,,,,,,
276,744044,1745469340999,,,,,,,,,,,,,,,,,,,,,,,,,,,,,,,,,,0.0,0.0,0.0,0.0,0.0,0.0,0.0,0.0,0.0,0.0,0.0,0.0,0.0,0.0,0.0,0.0,,,,,,,,,,,,,
277,744064,1745469341019,0.0,37.0,,-0.0,0.03,1.02,-1.0,-1.0,0.0,1.02,1.03,99.0,3402.0,13.8,4.06,,13.82,0.944,89.8,,33.9,5.0,,,,,,,,,,,,0.0,0.0,0.0,0.0,0.0,0.0,0.0,0.0,0.0,0.0,0.0,0.0,0.0,0.0,0.0,0.0,,,,,,0.0,,,,,,,
278,744084,1745469341039,,,,,,,,,,,,,,,,,,,,,,,10.0,0.0,10.0,10.0,0.0,33.0,0.0,0.0,2.27,,,0.0,0.0,0.0,0.0,0.0,0.0,0.0,0.0,0.0,0.0,0.0,0.0,0.0,0.0,0.0,0.0,,1.0,,,,,38.991066,-76.940666,16.19,32.7,24.0,2.0,1.0
279,744104,1745469341059,0.0,27.0,,-0.03,0.09,0.95,2.0,-1.0,0.0,0.95,1.03,93.0,3416.0,13.8,4.08,,13.75,0.931,89.8,,33.9,5.0,,,,,,,,,,,,0.0,0.0,0.0,0.0,0.0,0.0,0.0,0.0,0.0,0.0,0.0,0.0,0.0,0.0,0.0,0.0,,,,,,0.0,,,,,,,
280,744124,1745469341091,,,,,,,,,,,,,,,,,,,,,,,,,,,,,,,,,,0.0,0.0,0.0,0.0,0.0,0.0,0.0,0.0,0.0,0.0,0.0,0.0,0.0,0.0,0.0,0.0,,,,,,,,,,,,,
281,744144,1745469341111,0.0,24.0,,-0.05,0.01,1.0,-1.0,0.0,0.0,1.0,1.03,97.0,3434.0,13.8,4.08,,13.79,0.989,89.8,,33.1,5.0,,,,,,,,,,,,0.0,0.0,0.0,0.0,0.0,0.0,0.0,0.0,0.0,0.0,0.0,0.0,0.0,0.0,0.0,0.0,,,,,,0.0,,,,,,,
282,744164,1745469341131,,,,,,,,,,,,,,,,,,,,,,,,,,,,,,,,,,0.0,0.0,0.0,0.0,0.0,0.0,0.0,0.0,0.0,0.0,0.0,0.0,0.0,0.0,0.0,0.0,,,,,,,,,,,,,
283,744184,1745469341151,0.0,20.0,,-0.03,0.06,1.0,0.0,-1.0,0.0,1.0,1.03,98.0,3434.0,13.8,4.08,,13.79,0.989,89.8,,33.1,5.0,10.0,0.0,10.0,11.0,0.0,244.0,0.0,0.0,2.27,,,0.0,0.0,0.0,0.0,0.0,0.0,0.0,0.0,0.0,0.0,0.0,0.0,0.0,0.0,0.0,0.0,,0.0,,,,0.0,38.99107,-76.940666,16.39,32.7,24.0,2.0,1.0
284,744204,1745469341171,,,,,,,,,,,,,,,,,,,,,,,,,,,,,,,,,,0.0,0.0,0.0,0.0,0.0,0.0,0.0,0.0,0.0,0.0,0.0,0.0,0.0,0.0,0.0,0.0,,,,,,,,,,,,,
285,744224,1745469341191,0.0,24.0,,-0.04,0.09,0.97,2.0,0.0,0.0,0.97,1.03,95.0,3536.0,13.8,4.07,,13.73,1.057,89.8,,34.3,5.0,,,,,,,,,,,,0.0,0.0,0.0,0.0,0.0,0.0,0.0,0.0,0.0,0.0,0.0,0.0,0.0,0.0,0.0,0.0,,,,,,0.0,,,,,,,
286,744244,1745469341205,,,,,,,,,,,,,,,,,,,,,,,,,,,,,,,,,,0.0,0.0,0.0,0.0,0.0,0.0,0.0,0.0,0.0,0.0,0.0,0.0,0.0,0.0,0.0,0.0,,,,,,,,,,,,,
287,744264,1745469341225,0.0,20.0,,-0.05,0.03,1.01,-2.0,0.0,0.0,1.01,1.03,98.0,3527.0,13.6,4.07,,13.76,1.082,89.8,,34.3,5.0,,,,,,,,,,,,0.0,0.0,0.0,0.0,0.0,0.0,0.0,0.0,0.0,0.0,0.0,0.0,0.0,0.0,0.0,0.0,,,,,,0.0,,,,,,,
288,744284,1745469341245,,,,,,,,,,,,,,,,,,,,,,,10.0,0.0,10.0,11.0,0.0,13.0,0.0,0.0,2.28,,,0.0,0.0,0.0,0.0,0.0,0.0,0.0,0.0,0.0,0.0,0.0,0.0,0.0,0.0,0.0,0.0,,1.0,,,,,38.991077,-76.940666,16.18,32.7,24.0,2.0,1.0
289,744304,1745469341265,0.0,10.0,,-0.03,0.16,1.0,1.0,0.0,0.0,1.01,1.03,99.0,3411.0,13.3,4.08,,13.76,1.102,89.8,,34.3,5.0,,,,,,,,,,,,0.0,0.0,0.0,0.0,0.0,0.0,0.0,0.0,0.0,0.0,0.0,0.0,0.0,0.0,0.0,0.0,,,,,,0.0,,,,,,,
290,744324,1745469341291,,,,,,,,,,,,,,,,,,,,,,,,,,,,,,,,,,0.0,0.0,0.0,0.0,0.0,0.0,0.0,0.0,0.0,0.0,0.0,0.0,0.0,0.0,0.0,0.0,,,,,,,,,,,,,
291,744344,1745469341311,0.0,13.0,,-0.07,0.18,0.99,1.0,0.0,0.0,1.01,1.03,99.0,3478.0,13.3,4.07,,13.75,1.115,89.8,,33.9,5.0,,,,,,,,,,,,0.0,0.0,0.0,0.0,0.0,0.0,0.0,0.0,0.0,0.0,0.0,0.0,0.0,0.0,0.0,0.0,,,,,,0.0,,,,,,,
292,744364,1745469341331,,,,,,,,,,,,,,,,,,,,,,,,,,,,,,,,,,0.0,0.0,0.0,0.0,0.0,0.0,0.0,0.0,0.0,0.0,0.0,0.0,0.0,0.0,0.0,0.0,,,,,,,,,,,,,
293,744384,1745469341351,0.0,7.0,13.75,-0.04,0.12,1.05,-1.0,0.0,0.0,1.06,1.06,100.0,3433.0,13.3,4.06,15.0,13.75,1.115,89.8,171.0,33.9,5.0,10.0,0.0,11.0,10.0,0.0,250.0,0.0,0.0,2.28,0.0,1.0,0.0,0.0,0.0,0.0,0.0,0.0,0.0,0.0,0.0,0.0,0.0,0.0,0.0,0.0,0.0,0.0,0.0,0.0,1.0,0.0,0.0,0.0,38.991077,-76.940666,16.33,32.7,24.0,2.0,1.0
294,744404,1745469341371,,,,,,,,,,,,,,,,,,,,,,,,,,,,,,,,,,0.0,0.0,0.0,0.0,0.0,0.0,0.0,0.0,0.0,0.0,0.0,0.0,0.0,0.0,0.0,0.0,,,,,,,,,,,,,
295,744424,1745469341391,0.0,20.0,,-0.05,0.15,1.0,2.0,0.0,0.0,1.01,1.06,95.0,3433.0,13.3,4.06,,13.79,1.109,89.8,,33.6,5.0,,,,,,,,,,,,0.0,0.0,0.0,0.0,0.0,0.0,0.0,0.0,0.0,0.0,0.0,0.0,0.0,0.0,0.0,0.0,,,,,,0.0,,,,,,,
296,744444,1745469341411,,,,,,,,,,,,,,,,,,,,,,,,,,,,,,,,,,0.0,0.0,0.0,0.0,0.0,0.0,0.0,0.0,0.0,0.0,0.0,0.0,0.0,0.0,0.0,0.0,,,,,,,,,,,,,
297,744464,1745469341431,0.0,30.0,,-0.07,0.05,1.01,-1.0,0.0,0.0,1.02,1.06,96.0,3486.0,13.3,4.06,,13.76,1.108,89.8,,33.6,5.0,,,,,,,,,,,,0.0,0.0,0.0,0.0,0.0,0.0,0.0,0.0,0.0,0.0,0.0,0.0,0.0,0.0,0.0,0.0,,,,,,0.0,,,,,,,
298,744484,1745469341451,,,,,,,,,,,,,,,,,,,,,,,11.0,0.0,11.0,10.0,0.0,13.0,0.0,0.0,2.27,,,0.0,0.0,0.0,0.0,0.0,0.0,0.0,0.0,0.0,0.0,0.0,0.0,0.0,0.0,0.0,0.0,,1.0,,,,,38.991081,-76.940666,16.25,32.7,24.0,2.0,1.0
299,744504,1745469341471,0.0,7.0,,-0.04,0.11,1.04,1.0,0.0,1.0,1.05,1.06,99.0,3428.0,13.5,4.06,,13.77,1.095,89.8,,33.6,5.0,,,,,,,,,,,,0.0,0.0,0.0,0.0,0.0,0.0,0.0,0.0,0.0,0.0,0.0,0.0,0.0,0.0,0.0,0.0,,,,,,0.0,,,,,,,
300,744524,1745469341491,,,,,,,,,,,,,,,,,,,,,,,,,,,,,,,,,,0.0,0.0,0.0,0.0,0.0,0.0,0.0,0.0,0.0,0.0,0.0,0.0,0.0,0.0,0.0,0.0,,,,,,,,,,,,,
301,744544,1745469341511,0.0,24.0,,-0.09,0.09,0.98,0.0,0.0,0.0,0.99,1.06,93.0,3441.0,13.7,4.06,,13.76,1.088,89.8,,33.7,5.0,,,,,,,,,,,,0.0,0.0,0.0,0.0,0.0,0.0,0.0,0.0,0.0,0.0,0.0,0.0,0.0,0.0,0.0,0.0,,,,,,0.0,,,,,,,
302,744564,1745469341531,,,,,,,,,,,,,,,,,,,,,,,,,,,,,,,,,,0.0,0.0,0.0,0.0,0.0,0.0,0.0,0.0,0.0,0.0,0.0,0.0,0.0,0.0,0.0,0.0,,,,,,,,,,,,,
303,744584,1745469341551,0.0,13.0,,-0.06,0.02,1.02,-2.0,0.0,0.0,1.02,1.06,96.0,3543.0,13.3,4.05,,13.76,1.088,89.8,,33.7,5.0,10.0,0.0,10.0,11.0,0.0,13.0,0.0,0.0,2.27,,,0.0,0.0,0.0,0.0,0.0,0.0,0.0,0.0,0.0,0.0,0.0,0.0,0.0,0.0,0.0,0.0,,0.0,,,,0.0,38.991089,-76.940666,16.41,32.7,24.0,2.0,1.0
304,744604,1745469341571,,,,,,,,,,,,,,,,,,,,,,,,,,,,,,,,,,0.0,0.0,0.0,0.0,0.0,0.0,0.0,0.0,0.0,0.0,0.0,0.0,0.0,0.0,0.0,0.0,,,,,,,,,,,,,
305,744624,1745469341591,0.0,10.0,,-0.03,0.12,1.04,-1.0,0.0,1.0,1.05,1.06,99.0,3543.0,13.3,4.05,,13.67,1.138,89.8,,34.8,5.0,,,,,,,,,,,,0.0,0.0,0.0,0.0,0.0,0.0,0.0,0.0,0.0,0.0,0.0,0.0,0.0,0.0,0.0,0.0,,,,,,0.0,,,,,,,
306,744644,1745469341610,,,,,,,,,,,,,,,,,,,,,,,,,,,,,,,,,,0.0,0.0,0.0,0.0,0.0,0.0,0.0,0.0,0.0,0.0,0.0,0.0,0.0,0.0,0.0,0.0,,,,,,,,,,,,,
307,744664,1745469341630,0.0,17.0,,-0.01,0.13,1.03,1.0,0.0,0.0,1.04,1.06,98.0,3647.0,11.7,4.0,,13.6,1.124,89.8,,34.8,5.0,,,,,,,,,,,,0.0,0.0,0.0,0.0,0.0,0.0,0.0,0.0,0.0,0.0,0.0,0.0,0.0,0.0,0.0,0.0,,,,,,0.0,,,,,,,
308,744684,1745469341650,,,,,,,,,,,,,,,,,,,,,,,11.0,0.0,11.0,11.0,0.0,33.0,0.0,0.0,2.26,,,0.0,0.0,0.0,0.0,0.0,0.0,0.0,0.0,0.0,0.0,0.0,0.0,0.0,0.0,0.0,0.0,,1.0,,,,,38.991093,-76.940666,16.29,32.7,24.0,2.0,1.0
309,744704,1745469341670,0.0,20.0,,-0.04,0.1,1.0,0.0,0.0,0.0,1.01,1.06,95.0,3489.0,10.3,3.96,,13.52,1.045,89.8,,34.8,5.0,,,,,,,,,,,,0.0,0.0,0.0,0.0,0.0,0.0,0.0,0.0,0.0,0.0,0.0,0.0,0.0,0.0,0.0,0.0,,,,,,0.0,,,,,,,
310,744724,1745469341690,,,,,,,,,,,,,,,,,,,,,,,,,,,,,,,,,,0.0,0.0,0.0,0.0,0.0,0.0,0.0,0.0,0.0,0.0,0.0,0.0,0.0,0.0,0.0,0.0,,,,,,,,,,,,,
311,744744,1745469341708,0.0,24.0,,-0.04,0.06,1.05,-1.0,-1.0,0.0,1.05,1.06,99.0,3424.0,9.1,3.93,,13.55,0.993,89.8,,34.5,5.0,,,,,,,,,,,,0.0,0.0,0.0,0.0,0.0,0.0,0.0,0.0,0.0,0.0,0.0,0.0,0.0,0.0,0.0,0.0,,,,,,0.0,,,,,,,
312,744764,1745469341728,,,,,,,,,,,,,,,,,,,,,,,,,,,,,,,,,,0.0,0.0,0.0,0.0,0.0,0.0,0.0,0.0,0.0,0.0,0.0,0.0,0.0,0.0,0.0,0.0,,,,,,,,,,,,,
313,744784,1745469341748,0.0,24.0,,-0.06,0.07,0.98,1.0,-1.0,0.0,0.98,1.06,93.0,3440.0,9.6,3.95,,13.55,0.993,89.8,,34.5,5.0,11.0,0.0,11.0,11.0,0.0,32.0,0.0,0.0,2.28,,,0.0,0.0,0.0,0.0,0.0,0.0,0.0,0.0,0.0,0.0,0.0,0.0,0.0,0.0,0.0,0.0,,0.0,,,,0.0,38.991096,-76.940666,16.84,32.7,24.0,2.0,1.0
