,Interval,Utc,FrontBP,SteerAng,Battery,AccelX,AccelY,AccelZ,Yaw,Pitch,Roll,Gsum,GsumMax,GsumPct,RPM,TPS,InjectorPW,Baro,MAP,Lambda,IAT,EngineTemp,EOP,EOT,WSFR,WSFL,WSRR,WSRL,TCSet,TCSlip,TCComp,TCCut,Analog8,OilTemp,AA_On,ThermLF1,ThermLF2,ThermRR1,ThermRR2,ThermLF3,ThermLF4,ThermLF5,ThermLF6,ThermLF7,ThermLF8,ThermRR3,ThermRR4,ThermRR5,ThermRR6,ThermRR7,ThermRR8,AA_LowDrag,Gear,AA_On1,AA_LowDrag1,Fuel_Mix,AA_Packages,Latitude,Longitude,Speed,Altitude,GPSSats,GPSQual,GPSDOP
0,1605504,1745470202486,0.0,91.0,,-0.0,-0.13,0.96,1.0,0.0,0.0,0.97,0.97,100.0,6124.0,22.0,3.23,,10.82,1.251,88.0,,52.1,5.0,,,,,,,,,,,,0,0,0,0,0,0,0,0,0,0,0,0,0,0,0,0,,,,,,0.0,,,,,,,
1,1605524,1745470202506,,,,,,,,,,,,,,,,,,,,,,,,,,,,,,,,,,0,0,0,0,0,0,0,0,0,0,0,0,0,0,0,0,,,,,,,,,,,,,
2,1605544,1745470202526,0.0,91.0,,-0.06,-0.11,1.02,1.0,0.0,0.0,1.02,1.02,100.0,6140.0,22.5,4.31,,11.73,1.249,88.0,,52.1,5.0,,,,,,,,,,,,0,0,0,0,0,0,0,0,0,0,0,0,0,0,0,0,,,,,,0.0,,,,,,,
3,1605564,1745470202546,,,,,,,,,,,,,,,,,,,,,,,,,,,,,,,,,,0,0,0,0,0,0,0,0,0,0,0,0,0,0,0,0,,,,,,,,,,,,,
4,1605584,1745470202566,0.0,105.0,,-0.07,-0.08,1.02,1.0,0.0,0.0,1.03,1.03,100.0,6465.0,22.5,4.74,,11.73,1.249,88.0,,52.4,5.0,0.0,0.0,0.0,0.0,0.0,0.0,0.0,0.0,2.27,,,0,0,0,0,0,0,0,0,0,0,0,0,0,0,0,0,,0.0,,,,0.0,38.99379,-76.938782,0.04,25.5,30.0,3.0,0.9
5,1605604,1745470202586,,,,,,,,,,,,,,,,,,,,,,,,,,,,,,,,,,0,0,0,0,0,0,0,0,0,0,0,0,0,0,0,0,,,,,,,,,,,,,
6,1605624,1745470202608,0.0,98.0,,-0.09,-0.07,1.05,1.0,0.0,0.0,1.05,1.05,100.0,6465.0,22.5,4.74,,12.0,1.204,88.0,,52.4,5.0,,,,,,,,,,,,0,0,0,0,0,0,0,0,0,0,0,0,0,0,0,0,,,,,,0.0,,,,,,,
7,1605644,1745470202628,,,,,,,,,,,,,,,,,,,,,,,,,,,,,,,,,,0,0,0,0,0,0,0,0,0,0,0,0,0,0,0,0,,,,,,,,,,,,,
8,1605664,1745470202648,0.0,102.0,,-0.08,-0.15,1.01,0.0,0.0,0.0,1.02,1.05,97.0,6839.0,18.8,5.42,,11.71,1.1,88.0,,54.4,5.0,,,,,,,,,,,,0,0,0,0,0,0,0,0,0,0,0,0,0,0,0,0,,,,,,0.0,,,,,,,
9,1605684,1745470202668,,,,,,,,,,,,,,,,,,,,,,,0.0,0.0,0.0,0.0,0.0,0.0,0.0,0.0,2.28,,,0,0,0,0,0,0,0,0,0,0,0,0,0,0,0,0,,0.0,,,,,38.99379,-76.938782,0.05,25.5,30.0,3.0,0.9
10,1605704,1745470202688,0.0,95.0,,-0.07,-0.09,1.06,0.0,0.0,0.0,1.06,1.06,100.0,7727.0,13.7,4.8,,10.88,1.07,88.0,,54.4,5.0,,,,,,,,,,,,0,0,0,0,0,0,0,0,0,0,0,0,0,0,0,0,,,,,,0.0,,,,,,,
11,1605724,1745470202708,,,,,,,,,,,,,,,,,,,,,,,,,,,,,,,,,,0,0,0,0,0,0,0,0,0,0,0,0,0,0,0,0,,,,,,,,,,,,,
12,1605744,1745470202728,0.0,102.0,,-0.07,-0.09,1.02,1.0,0.0,0.0,1.02,1.06,96.0,8330.0,7.2,3.33,,9.62,0.856,88.0,,54.4,5.0,,,,,,,,,,,,0,0,0,0,0,0,0,0,0,0,0,0,0,0,0,0,,,,,,0.0,,,,,,,
13,1605764,1745470202748,,,,,,,,,,,,,,,,,,,,,,,,,,,,,,,,,,0,0,0,0,0,0,0,0,0,0,0,0,0,0,0,0,,,,,,,,,,,,,
14,1605784,1745470202768,0.0,88.0,,-0.05,0.11,1.01,1.0,0.0,1.0,1.02,1.06,96.0,9118.0,3.9,2.18,,9.62,0.856,88.0,,55.9,5.0,0.0,0.0,0.0,0.0,0.0,0.0,0.0,0.0,2.28,,,0,0,0,0,0,0,0,0,0,0,0,0,0,0,0,0,,0.0,,,,0.0,38.99379,-76.938782,0.0,25.5,30.0,3.0,0.9
15,1605804,1745470202788,,,,,,,,,,,,,,,,,,,,,,,,,,,,,,,,,,0,0,0,0,0,0,0,0,0,0,0,0,0,0,0,0,,,,,,,,,,,,,
16,1605824,1745470202808,0.0,78.0,,-0.07,-0.02,1.02,2.0,0.0,0.0,1.02,1.06,96.0,9118.0,3.9,2.18,,8.25,0.769,88.0,,55.9,5.0,,,,,,,,,,,,0,0,0,0,0,0,0,0,0,0,0,0,0,0,0,0,,,,,,0.0,,,,,,,
17,1605844,1745470202828,,,,,,,,,,,,,,,,,,,,,,,,,,,,,,,,,,0,0,0,0,0,0,0,0,0,0,0,0,0,0,0,0,,,,,,,,,,,,,
18,1605864,1745470202848,0.0,85.0,,-0.05,0.02,0.99,1.0,0.0,0.0,0.99,1.06,93.0,9621.0,3.9,1.81,,7.27,0.776,88.0,,55.8,5.0,,,,,,,,,,,,0,0,0,0,0,0,0,0,0,0,0,0,0,0,0,0,,,,,,0.0,,,,,,,
19,1605884,1745470202868,,,,,,,,,,,,,,,,,,,,,,,0.0,0.0,0.0,0.0,0.0,0.0,0.0,0.0,2.27,,,0,0,0,0,0,0,0,0,0,0,0,0,0,0,0,0,,0.0,,,,,38.99379,-76.938782,0.04,25.5,30.0,3.0,0.9
20,1605904,1745470202888,0.0,81.0,,-0.05,0.15,0.95,1.0,0.0,-1.0,0.96,1.06,90.0,9825.0,4.2,1.72,,6.59,0.838,88.0,,55.8,5.0,,,,,,,,,,,,0,0,0,0,0,0,0,0,0,0,0,0,0,0,0,0,,,,,,0.0,,,,,,,
21,1605924,1745470202908,,,,,,,,,,,,,,,,,,,,,,,,,,,,,,,,,,0,0,0,0,0,0,0,0,0,0,0,0,0,0,0,0,,,,,,,,,,,,,
22,1605944,1745470202928,0.0,102.0,,-0.01,0.13,0.92,1.0,0.0,-1.0,0.92,1.06,87.0,9840.0,4.3,1.59,,6.22,0.929,88.0,,55.8,5.0,,,,,,,,,,,,0,0,0,0,0,0,0,0,0,0,0,0,0,0,0,0,,,,,,0.0,,,,,,,
23,1605964,1745470202948,,,,,,,,,,,,,,,,,,,,,,,,,,,,,,,,,,0,0,0,0,0,0,0,0,0,0,0,0,0,0,0,0,,,,,,,,,,,,,
24,1605984,1745470202968,0.0,102.0,,-0.03,0.08,0.92,0.0,0.0,0.0,0.92,1.06,87.0,9757.0,3.2,1.4,,6.22,0.929,88.0,,55.9,5.0,0.0,0.0,0.0,0.0,0.0,0.0,0.0,0.0,2.27,,,0,0,0,0,0,0,0,0,0,0,0,0,0,0,0,0,,0.0,,,,0.0,38.99379,-76.938782,0.05,25.5,30.0,3.0,0.9
25,1606004,1745470202988,,,,,,,,,,,,,,,,,,,,,,,,,,,,,,,,,,0,0,0,0,0,0,0,0,0,0,0,0,0,0,0,0,,,,,,,,,,,,,
26,1606024,1745470203008,0.0,95.0,,-0.03,-0.09,0.95,0.0,0.0,-1.0,0.96,1.06,90.0,9757.0,3.2,1.4,,5.87,0.992,88.0,,55.9,5.0,,,,,,,,,,,,0,0,0,0,0,0,0,0,0,0,0,0,0,0,0,0,,,,,,0.0,,,,,,,
27,1606044,1745470203020,,,,,,,,,,,,,,,,,,,,,,,,,,,,,,,,,,0,0,0,0,0,0,0,0,0,0,0,0,0,0,0,0,,,,,,,,,,,,,
28,1606064,1745470203040,0.0,95.0,,0.0,-0.16,0.99,1.0,0.0,-1.0,1.0,1.06,94.0,9305.0,2.4,1.4,,5.38,1.034,88.0,,52.9,5.0,,,,,,,,,,,,0,0,0,0,0,0,0,0,0,0,0,0,0,0,0,0,,,,,,0.0,,,,,,,
29,1606084,1745470203060,,,,,,,,,,,,,,,,,,,,,,,0.0,0.0,0.0,0.0,0.0,0.0,0.0,0.0,2.27,,,0,0,0,0,0,0,0,0,0,0,0,0,0,0,0,0,,0.0,,,,,38.99379,-76.938782,0.04,25.5,30.0,3.0,0.9
30,1606104,1745470203080,0.0,85.0,,-0.01,-0.19,1.01,1.0,0.0,-1.0,1.03,1.06,97.0,8849.0,1.0,1.4,,5.31,1.145,88.0,,52.9,5.0,,,,,,,,,,,,0,0,0,0,0,0,0,0,0,0,0,0,0,0,0,0,,,,,,0.0,,,,,,,
31,1606124,1745470203108,,,,,,,,,,,,,,,,,,,,,,,,,,,,,,,,,,0,0,0,0,0,0,0,0,0,0,0,0,0,0,0,0,,,,,,,,,,,,,
32,1606144,1745470203128,0.0,91.0,,-0.03,-0.16,1.02,0.0,0.0,-1.0,1.04,1.06,97.0,8545.0,0.4,1.4,,5.24,1.248,88.0,,52.9,5.0,,,,,,,,,,,,0,0,0,0,0,0,0,0,0,0,0,0,0,0,0,0,,,,,,0.0,,,,,,,
33,1606164,1745470203148,,,,,,,,,,,,,,,,,,,,,,,,,,,,,,,,,,0,0,0,0,0,0,0,0,0,0,0,0,0,0,0,0,,,,,,,,,,,,,
34,1606184,1745470203168,0.0,88.0,,-0.03,-0.14,1.03,0.0,0.0,-1.0,1.04,1.06,98.0,8225.0,0.1,1.4,,5.24,1.248,88.0,,53.1,5.0,0.0,0.0,0.0,0.0,0.0,0.0,0.0,0.0,2.28,,,0,0,0,0,0,0,0,0,0,0,0,0,0,0,0,0,,0.0,,,,0.0,38.99379,-76.938782,0.05,25.5,30.0,3.0,0.9
35,1606204,1745470203188,,,,,,,,,,,,,,,,,,,,,,,,,,,,,,,,,,0,0,0,0,0,0,0,0,0,0,0,0,0,0,0,0,,,,,,,,,,,,,
36,1606224,1745470203206,0.0,85.0,,-0.05,-0.14,0.99,0.0,-1.0,-1.0,1.0,1.06,94.0,8225.0,0.1,1.4,,5.23,1.249,88.0,,53.1,5.0,,,,,,,,,,,,0,0,0,0,0,0,0,0,0,0,0,0,0,0,0,0,,,,,,0.0,,,,,,,
37,1606244,1745470203226,,,,,,,,,,,,,,,,,,,,,,,,,,,,,,,,,,0,0,0,0,0,0,0,0,0,0,0,0,0,0,0,0,,,,,,,,,,,,,
38,1606264,1745470203246,0.0,98.0,,-0.04,-0.03,1.05,0.0,0.0,0.0,1.05,1.06,99.0,7936.0,0.1,1.4,,5.39,1.25,88.0,,52.8,5.0,,,,,,,,,,,,0,0,0,0,0,0,0,0,0,0,0,0,0,0,0,0,,,,,,0.0,,,,,,,
39,1606284,1745470203266,,,,,,,,,,,,,,,,,,,,,,,0.0,0.0,0.0,0.0,0.0,0.0,0.0,0.0,2.28,,,0,0,0,0,0,0,0,0,0,0,0,0,0,0,0,0,,0.0,,,,,38.99379,-76.938782,0.08,25.5,30.0,3.0,0.9
40,1606304,1745470203286,0.0,91.0,,-0.03,0.06,1.08,1.0,0.0,0.0,1.08,1.08,100.0,7557.0,0.1,1.4,,5.54,1.25,88.0,,52.8,5.0,,,,,,,,,,,,0,0,0,0,0,0,0,0,0,0,0,0,0,0,0,0,,,,,,0.0,,,,,,,
41,1606324,1745470203308,,,,,,,,,,,,,,,,,,,,,,,,,,,,,,,,,,0,0,0,0,0,0,0,0,0,0,0,0,0,0,0,0,,,,,,,,,,,,,
42,1606344,1745470203328,0.0,102.0,,-0.01,-0.01,1.06,1.0,0.0,0.0,1.06,1.08,98.0,7204.0,0.4,1.4,,5.78,1.251,88.0,,52.8,5.0,,,,,,,,,,,,0,0,0,0,0,0,0,0,0,0,0,0,0,0,0,0,,,,,,0.0,,,,,,,
43,1606364,1745470203348,,,,,,,,,,,,,,,,,,,,,,,,,,,,,,,,,,0,0,0,0,0,0,0,0,0,0,0,0,0,0,0,0,,,,,,,,,,,,,
44,1606384,1745470203368,0.0,98.0,13.59,-0.02,-0.04,1.03,1.0,0.0,0.0,1.03,1.08,95.0,6783.0,0.6,1.4,15.0,5.78,1.251,88.0,169.0,51.2,5.0,0.0,0.0,0.0,0.0,0.0,0.0,0.0,0.0,2.27,0.0,1.0,0,0,0,0,0,0,0,0,0,0,0,0,0,0,0,0,0.0,0.0,1.0,0.0,0.0,0.0,38.99379,-76.938782,0.0,25.5,30.0,3.0,0.9
45,1606404,1745470203388,,,,,,,,,,,,,,,,,,,,,,,,,,,,,,,,,,0,0,0,0,0,0,0,0,0,0,0,0,0,0,0,0,,,,,,,,,,,,,
46,1606424,1745470203405,0.0,98.0,,-0.04,-0.04,1.04,0.0,0.0,0.0,1.04,1.08,96.0,6783.0,0.6,1.4,,6.08,1.251,88.0,,51.2,5.0,,,,,,,,,,,,0,0,0,0,0,0,0,0,0,0,0,0,0,0,0,0,,,,,,0.0,,,,,,,
47,1606444,1745470203425,,,,,,,,,,,,,,,,,,,,,,,,,,,,,,,,,,0,0,0,0,0,0,0,0,0,0,0,0,0,0,0,0,,,,,,,,,,,,,
48,1606464,1745470203445,0.0,95.0,,0.01,-0.02,0.95,0.0,0.0,0.0,0.95,1.08,88.0,6418.0,0.6,1.4,,6.39,1.251,88.0,,51.5,5.0,,,,,,,,,,,,0,0,0,0,0,0,0,0,0,0,0,0,0,0,0,0,,,,,,0.0,,,,,,,
49,1606484,1745470203465,,,,,,,,,,,,,,,,,,,,,,,0.0,0.0,0.0,0.0,0.0,0.0,0.0,0.0,2.27,,,0,0,0,0,0,0,0,0,0,0,0,0,0,0,0,0,,0.0,,,,,38.99379,-76.938782,0.15,25.5,30.0,3.0,0.9
50,1606504,1745470203485,0.0,74.0,,0.04,-0.03,0.84,-1.0,0.0,0.0,0.84,1.08,78.0,6019.0,0.6,1.4,,6.8,1.25,88.0,,51.5,5.0,,,,,,,,,,,,0,0,0,0,0,0,0,0,0,0,0,0,0,0,0,0,,,,,,0.0,,,,,,,
51,1606524,1745470203508,,,,,,,,,,,,,,,,,,,,,,,,,,,,,,,,,,0,0,0,0,0,0,0,0,0,0,0,0,0,0,0,0,,,,,,,,,,,,,
52,1606544,1745470203528,0.0,81.0,,0.01,0.05,0.91,-1.0,0.0,0.0,0.92,1.08,85.0,5603.0,0.6,1.4,,7.25,1.249,88.0,,51.5,5.0,,,,,,,,,,,,0,0,0,0,0,0,0,0,0,0,0,0,0,0,0,0,,,,,,0.0,,,,,,,
53,1606564,1745470203548,,,,,,,,,,,,,,,,,,,,,,,,,,,,,,,,,,0,0,0,0,0,0,0,0,0,0,0,0,0,0,0,0,,,,,,,,,,,,,
54,1606584,1745470203568,0.0,95.0,,-0.0,-0.0,0.87,-1.0,0.0,0.0,0.87,1.08,81.0,5258.0,0.4,1.4,,7.25,1.249,88.0,,50.8,5.0,0.0,0.0,0.0,0.0,0.0,0.0,0.0,0.0,2.28,,,0,0,0,0,0,0,0,0,0,0,0,0,0,0,0,0,,0.0,,,,0.0,38.99379,-76.938782,0.08,25.5,30.0,3.0,0.9
55,1606604,1745470203588,,,,,,,,,,,,,,,,,,,,,,,,,,,,,,,,,,0,0,0,0,0,0,0,0,0,0,0,0,0,0,0,0,,,,,,,,,,,,,
56,1606624,1745470203607,0.0,95.0,,-0.01,-0.01,0.87,-2.0,-1.0,0.0,0.87,1.08,80.0,5258.0,0.4,1.4,,7.77,1.249,88.0,,50.8,5.0,,,,,,,,,,,,0,0,0,0,0,0,0,0,0,0,0,0,0,0,0,0,,,,,,0.0,,,,,,,
57,1606644,1745470203627,,,,,,,,,,,,,,,,,,,,,,,,,,,,,,,,,,0,0,0,0,0,0,0,0,0,0,0,0,0,0,0,0,,,,,,,,,,,,,
58,1606664,1745470203647,0.0,95.0,,0.01,-0.04,0.82,-2.0,0.0,0.0,0.82,1.08,76.0,4836.0,0.1,1.4,,8.19,1.249,88.0,,48.3,5.0,,,,,,,,,,,,0,0,0,0,0,0,0,0,0,0,0,0,0,0,0,0,,,,,,0.0,,,,,,,
59,1606684,1745470203667,,,,,,,,,,,,,,,,,,,,,,,0.0,0.0,0.0,0.0,0.0,0.0,0.0,0.0,2.28,,,0,0,0,0,0,0,0,0,0,0,0,0,0,0,0,0,,0.0,,,,,38.99379,-76.938782,0.05,25.5,30.0,3.0,0.9
60,1606704,1745470203687,0.0,91.0,,0.03,-0.12,0.76,-4.0,0.0,0.0,0.77,1.08,71.0,4548.0,0.1,1.51,,8.57,1.248,88.0,,48.3,5.0,,,,,,,,,,,,0,0,0,0,0,0,0,0,0,0,0,0,0,0,0,0,,,,,,0.0,,,,,,,
61,1606724,1745470203707,,,,,,,,,,,,,,,,,,,,,,,,,,,,,,,,,,0,0,0,0,0,0,0,0,0,0,0,0,0,0,0,0,,,,,,,,,,,,,
62,1606744,1745470203727,0.0,88.0,,0.01,-0.01,0.89,-2.0,0.0,0.0,0.89,1.08,82.0,4131.0,0.1,1.57,,9.03,1.25,88.0,,48.3,5.0,,,,,,,,,,,,0,0,0,0,0,0,0,0,0,0,0,0,0,0,0,0,,,,,,0.0,,,,,,,
63,1606764,1745470203747,,,,,,,,,,,,,,,,,,,,,,,,,,,,,,,,,,0,0,0,0,0,0,0,0,0,0,0,0,0,0,0,0,,,,,,,,,,,,,
64,1606784,1745470203767,0.0,81.0,,0.03,-0.02,0.9,-2.0,0.0,0.0,0.9,1.08,83.0,3798.0,0.5,1.75,,9.03,1.25,88.0,,40.7,5.0,0.0,0.0,0.0,0.0,0.0,0.0,0.0,0.0,2.27,,,0,0,0,0,0,0,0,0,0,0,0,0,0,0,0,0,,0.0,,,,0.0,38.99379,-76.938782,0.28,25.5,30.0,3.0,0.9
65,1606804,1745470203787,,,,,,,,,,,,,,,,,,,,,,,,,,,,,,,,,,0,0,0,0,0,0,0,0,0,0,0,0,0,0,0,0,,,,,,,,,,,,,
66,1606824,1745470203807,0.0,85.0,,-0.01,-0.02,0.86,-1.0,0.0,0.0,0.86,1.08,79.0,3798.0,0.5,1.75,,9.62,1.251,88.0,,40.7,5.0,,,,,,,,,,,,0,0,0,0,0,0,0,0,0,0,0,0,0,0,0,0,,,,,,0.0,,,,,,,
67,1606844,1745470203827,,,,,,,,,,,,,,,,,,,,,,,,,,,,,,,,,,0,0,0,0,0,0,0,0,0,0,0,0,0,0,0,0,,,,,,,,,,,,,
68,1606864,1745470203847,0.0,85.0,,0.02,-0.0,0.93,-4.0,0.0,0.0,0.93,1.08,85.0,3450.0,1.5,2.1,,10.3,1.252,88.0,,32.5,5.0,,,,,,,,,,,,0,0,0,0,0,0,0,0,0,0,0,0,0,0,0,0,,,,,,0.0,,,,,,,
69,1606884,1745470203867,,,,,,,,,,,,,,,,,,,,,,,0.0,0.0,0.0,0.0,0.0,0.0,0.0,0.0,2.27,,,0,0,0,0,0,0,0,0,0,0,0,0,0,0,0,0,,0.0,,,,,38.99379,-76.938782,0.36,25.4,30.0,3.0,0.9
70,1606904,1745470203887,0.0,78.0,,-0.0,-0.04,1.0,-4.0,0.0,0.0,1.0,1.08,92.0,3178.0,1.9,2.85,,11.0,1.252,88.0,,32.5,5.0,,,,,,,,,,,,0,0,0,0,0,0,0,0,0,0,0,0,0,0,0,0,,,,,,0.0,,,,,,,
71,1606924,1745470203907,,,,,,,,,,,,,,,,,,,,,,,,,,,,,,,,,,0,0,0,0,0,0,0,0,0,0,0,0,0,0,0,0,,,,,,,,,,,,,
72,1606944,1745470203927,0.0,78.0,,-0.01,-0.06,1.03,-4.0,0.0,0.0,1.04,1.08,96.0,2985.0,2.0,3.17,,11.54,1.251,88.0,,32.5,5.0,,,,,,,,,,,,0,0,0,0,0,0,0,0,0,0,0,0,0,0,0,0,,,,,,0.0,,,,,,,
73,1606964,1745470203947,,,,,,,,,,,,,,,,,,,,,,,,,,,,,,,,,,0,0,0,0,0,0,0,0,0,0,0,0,0,0,0,0,,,,,,,,,,,,,
74,1606984,1745470203967,0.0,98.0,,-0.01,-0.02,1.04,-4.0,0.0,0.0,1.04,1.08,96.0,2878.0,2.5,3.24,,11.54,1.251,88.0,,27.7,5.0,0.0,0.0,0.0,0.0,0.0,0.0,0.0,0.0,2.27,,,0,0,0,0,0,0,0,0,0,0,0,0,0,0,0,0,,0.0,,,,0.0,38.99379,-76.938782,0.05,25.4,30.0,3.0,0.9
75,1607004,1745470203987,,,,,,,,,,,,,,,,,,,,,,,,,,,,,,,,,,0,0,0,0,0,0,0,0,0,0,0,0,0,0,0,0,,,,,,,,,,,,,
76,1607024,1745470204007,0.0,91.0,,-0.01,-0.03,1.02,-3.0,0.0,0.0,1.03,1.08,95.0,2878.0,2.5,3.24,,12.04,1.25,88.0,,27.7,5.0,,,,,,,,,,,,0,0,0,0,0,0,0,0,0,0,0,0,0,0,0,0,,,,,,0.0,,,,,,,
77,1607044,1745470204019,,,,,,,,,,,,,,,,,,,,,,,,,,,,,,,,,,0,0,0,0,0,0,0,0,0,0,0,0,0,0,0,0,,,,,,,,,,,,,
78,1607064,1745470204039,0.0,98.0,,-0.01,-0.03,1.04,-3.0,0.0,0.0,1.04,1.08,96.0,2619.0,6.0,3.72,,12.73,1.249,88.0,,25.3,5.0,,,,,,,,,,,,0,0,0,0,0,0,0,0,0,0,0,0,0,0,0,0,,,,,,0.0,,,,,,,
79,1607084,1745470204059,,,,,,,,,,,,,,,,,,,,,,,0.0,0.0,0.0,0.0,0.0,0.0,0.0,0.0,2.28,,,0,0,0,0,0,0,0,0,0,0,0,0,0,0,0,0,,0.0,,,,,38.99379,-76.938782,0.58,25.4,30.0,3.0,0.9
80,1607104,1745470204079,0.0,85.0,,-0.02,-0.02,1.02,-2.0,0.0,0.0,1.02,1.08,95.0,2597.0,7.6,3.77,,13.25,1.249,88.0,,25.3,5.0,,,,,,,,,,,,0,0,0,0,0,0,0,0,0,0,0,0,0,0,0,0,,,,,,0.0,,,,,,,
81,1607124,1745470204107,,,,,,,,,,,,,,,,,,,,,,,,,,,,,,,,,,0,0,0,0,0,0,0,0,0,0,0,0,0,0,0,0,,,,,,,,,,,,,
82,1607144,1745470204127,0.0,78.0,,-0.02,-0.02,1.03,-3.0,0.0,0.0,1.03,1.08,95.0,2552.0,8.3,3.82,,13.61,1.25,88.0,,25.3,5.0,,,,,,,,,,,,0,0,0,0,0,0,0,0,0,0,0,0,0,0,0,0,,,,,,0.0,,,,,,,
83,1607164,1745470204147,,,,,,,,,,,,,,,,,,,,,,,,,,,,,,,,,,0,0,0,0,0,0,0,0,0,0,0,0,0,0,0,0,,,,,,,,,,,,,
84,1607184,1745470204167,0.0,78.0,,-0.04,-0.01,1.03,-2.0,0.0,0.0,1.03,1.08,95.0,2583.0,8.6,3.83,,13.61,1.25,88.0,,25.0,5.0,0.0,0.0,0.0,0.0,0.0,0.0,0.0,0.0,2.27,,,0,0,0,0,0,0,0,0,0,0,0,0,0,0,0,0,,0.0,,,,0.0,38.99379,-76.938782,0.26,25.4,30.0,3.0,0.9
85,1607204,1745470204187,,,,,,,,,,,,,,,,,,,,,,,,,,,,,,,,,,0,0,0,0,0,0,0,0,0,0,0,0,0,0,0,0,,,,,,,,,,,,,
86,1607224,1745470204207,0.0,74.0,,-0.03,-0.01,1.01,-2.0,0.0,0.0,1.01,1.08,93.0,2583.0,8.6,3.83,,13.8,1.25,88.0,,25.0,5.0,,,,,,,,,,,,0,0,0,0,0,0,0,0,0,0,0,0,0,0,0,0,,,,,,0.0,,,,,,,
87,1607244,1745470204227,,,,,,,,,,,,,,,,,,,,,,,,,,,,,,,,,,0,0,0,0,0,0,0,0,0,0,0,0,0,0,0,0,,,,,,,,,,,,,
88,1607264,1745470204247,0.0,81.0,,-0.04,-0.01,1.01,-1.0,0.0,0.0,1.01,1.08,93.0,2542.0,8.8,3.84,,13.86,1.252,88.0,,24.6,5.0,,,,,,,,,,,,0,0,0,0,0,0,0,0,0,0,0,0,0,0,0,0,,,,,,0.0,,,,,,,
89,1607284,1745470204267,,,,,,,,,,,,,,,,,,,,,,,0.0,0.0,0.0,0.0,0.0,0.0,0.0,0.0,2.27,,,0,0,0,0,0,0,0,0,0,0,0,0,0,0,0,0,,0.0,,,,,38.99379,-76.938782,0.04,25.4,30.0,3.0,0.9
90,1607304,1745470204287,0.0,81.0,,-0.05,-0.01,1.01,-1.0,0.0,0.0,1.02,1.08,94.0,2687.0,9.0,3.85,,13.84,1.252,89.8,,24.6,5.0,,,,,,,,,,,,0,0,0,0,0,0,0,0,0,0,0,0,0,0,0,0,,,,,,0.0,,,,,,,
91,1607324,1745470204308,,,,,,,,,,,,,,,,,,,,,,,,,,,,,,,,,,0,0,0,0,0,0,0,0,0,0,0,0,0,0,0,0,,,,,,,,,,,,,
92,1607344,1745470204328,0.0,81.0,,-0.05,-0.02,0.99,-1.0,0.0,0.0,0.99,1.08,91.0,2752.0,9.3,3.85,,13.83,1.252,89.8,,24.6,5.0,,,,,,,,,,,,0,0,0,0,0,0,0,0,0,0,0,0,0,0,0,0,,,,,,0.0,,,,,,,
93,1607364,1745470204348,,,,,,,,,,,,,,,,,,,,,,,,,,,,,,,,,,0,0,0,0,0,0,0,0,0,0,0,0,0,0,0,0,,,,,,,,,,,,,
94,1607384,1745470204368,0.0,91.0,13.61,-0.06,-0.04,1.01,-1.0,0.0,0.0,1.02,1.08,94.0,2781.0,7.8,3.84,15.0,13.83,1.252,89.8,169.0,25.5,5.0,0.0,0.0,0.0,0.0,0.0,0.0,0.0,0.0,2.27,0.0,1.0,0,0,0,0,0,0,0,0,0,0,0,0,0,0,0,0,0.0,0.0,1.0,0.0,0.0,0.0,38.99379,-76.938782,0.62,25.4,30.0,3.0,0.9
95,1607404,1745470204388,,,,,,,,,,,,,,,,,,,,,,,,,,,,,,,,,,0,0,0,0,0,0,0,0,0,0,0,0,0,0,0,0,,,,,,,,,,,,,
96,1607424,1745470204406,0.0,91.0,,-0.05,-0.02,1.02,-1.0,0.0,0.0,1.02,1.08,95.0,2781.0,7.8,3.84,,13.75,1.252,89.8,,25.5,5.0,,,,,,,,,,,,0,0,0,0,0,0,0,0,0,0,0,0,0,0,0,0,,,,,,0.0,,,,,,,
97,1607444,1745470204426,,,,,,,,,,,,,,,,,,,,,,,,,,,,,,,,,,0,0,0,0,0,0,0,0,0,0,0,0,0,0,0,0,,,,,,,,,,,,,
98,1607464,1745470204446,0.0,78.0,,-0.04,-0.02,0.98,-1.0,0.0,0.0,0.98,1.08,91.0,2795.0,7.2,3.83,,13.65,1.25,89.8,,26.8,5.0,,,,,,,,,,,,0,0,0,0,0,0,0,0,0,0,0,0,0,0,0,0,,,,,,0.0,,,,,,,
99,1607484,1745470204466,,,,,,,,,,,,,,,,,,,,,,,0.0,0.0,0.0,0.0,0.0,0.0,0.0,0.0,2.27,,,0,0,0,0,0,0,0,0,0,0,0,0,0,0,0,0,,0.0,,,,,38.99379,-76.938782,0.32,25.4,30.0,3.0,0.9
100,1607504,1745470204486,0.0,71.0,,-0.06,-0.01,0.95,0.0,0.0,0.0,0.95,1.08,88.0,2805.0,7.1,3.85,,13.63,1.249,89.8,,26.8,5.0,,,,,,,,,,,,0,0,0,0,0,0,0,0,0,0,0,0,0,0,0,0,,,,,,0.0,,,,,,,
101,1607524,1745470204506,,,,,,,,,,,,,,,,,,,,,,,,,,,,,,,,,,0,0,0,0,0,0,0,0,0,0,0,0,0,0,0,0,,,,,,,,,,,,,
102,1607544,1745470204526,0.0,64.0,,-0.08,-0.04,0.97,1.0,0.0,0.0,0.98,1.08,90.0,2836.0,6.7,3.85,,13.59,1.249,89.8,,26.8,5.0,,,,,,,,,,,,0,0,0,0,0,0,0,0,0,0,0,0,0,0,0,0,,,,,,0.0,,,,,,,
103,1607564,1745470204546,,,,,,,,,,,,,,,,,,,,,,,,,,,,,,,,,,0,0,0,0,0,0,0,0,0,0,0,0,0,0,0,0,,,,,,,,,,,,,
104,1607584,1745470204566,0.0,74.0,,-0.08,-0.02,0.99,0.0,0.0,0.0,0.99,1.08,92.0,2935.0,6.4,3.83,,13.59,1.249,89.8,,27.4,5.0,0.0,0.0,0.0,0.0,0.0,0.0,0.0,0.0,2.28,,,0,0,0,0,0,0,0,0,0,0,0,0,0,0,0,0,,0.0,,,,0.0,38.99379,-76.938782,0.04,25.4,30.0,3.0,0.9
105,1607604,1745470204586,,,,,,,,,,,,,,,,,,,,,,,,,,,,,,,,,,0,0,0,0,0,0,0,0,0,0,0,0,0,0,0,0,,,,,,,,,,,,,
106,1607624,1745470204606,0.0,78.0,,-0.07,-0.02,1.04,-1.0,0.0,0.0,1.04,1.08,96.0,2935.0,6.4,3.83,,13.53,1.249,89.8,,27.4,5.0,,,,,,,,,,,,0,0,0,0,0,0,0,0,0,0,0,0,0,0,0,0,,,,,,0.0,,,,,,,
107,1607644,1745470204626,,,,,,,,,,,,,,,,,,,,,,,,,,,,,,,,,,0,0,0,0,0,0,0,0,0,0,0,0,0,0,0,0,,,,,,,,,,,,,
108,1607664,1745470204646,0.0,91.0,,-0.05,-0.02,1.09,-3.0,0.0,0.0,1.09,1.09,100.0,2962.0,6.4,3.84,,13.49,1.249,89.8,,28.4,5.0,,,,,,,,,,,,0,0,0,0,0,0,0,0,0,0,0,0,0,0,0,0,,,,,,0.0,,,,,,,
109,1607684,1745470204666,,,,,,,,,,,,,,,,,,,,,,,0.0,0.0,0.0,0.0,0.0,0.0,0.0,0.0,2.28,,,0,0,0,0,0,0,0,0,0,0,0,0,0,0,0,0,,0.0,,,,,38.99379,-76.938782,0.81,25.4,30.0,3.0,0.9
110,1607704,1745470204686,0.0,78.0,,-0.04,-0.05,1.13,-4.0,0.0,1.0,1.13,1.13,100.0,3009.0,6.3,3.83,,13.44,1.243,89.8,,28.4,5.0,,,,,,,,,,,,0,0,0,0,0,0,0,0,0,0,0,0,0,0,0,0,,,,,,0.0,,,,,,,
111,1607724,1745470204706,,,,,,,,,,,,,,,,,,,,,,,,,,,,,,,,,,0,0,0,0,0,0,0,0,0,0,0,0,0,0,0,0,,,,,,,,,,,,,
112,1607744,1745470204726,0.0,91.0,,-0.06,-0.08,1.15,-4.0,0.0,0.0,1.15,1.15,100.0,3077.0,6.0,3.83,,13.36,1.244,89.8,,28.4,5.0,,,,,,,,,,,,0,0,0,0,0,0,0,0,0,0,0,0,0,0,0,0,,,,,,0.0,,,,,,,
113,1607764,1745470204746,,,,,,,,,,,,,,,,,,,,,,,,,,,,,,,,,,0,0,0,0,0,0,0,0,0,0,0,0,0,0,0,0,,,,,,,,,,,,,
114,1607784,1745470204766,0.0,95.0,,-0.1,-0.06,1.08,-2.0,0.0,0.0,1.09,1.15,95.0,3205.0,4.7,3.78,,13.36,1.244,89.8,,29.9,5.0,0.0,0.0,0.0,0.0,0.0,0.0,0.0,0.0,2.27,,,0,0,0,0,0,0,0,0,0,0,0,0,0,0,0,0,,0.0,,,,0.0,38.99379,-76.938782,0.23,25.4,30.0,3.0,0.9
115,1607804,1745470204786,,,,,,,,,,,,,,,,,,,,,,,,,,,,,,,,,,0,0,0,0,0,0,0,0,0,0,0,0,0,0,0,0,,,,,,,,,,,,,
116,1607824,1745470204808,0.0,78.0,,-0.07,0.0,1.02,-1.0,0.0,0.0,1.03,1.15,89.0,3205.0,4.7,3.78,,13.21,1.233,89.8,,29.9,5.0,,,,,,,,,,,,0,0,0,0,0,0,0,0,0,0,0,0,0,0,0,0,,,,,,0.0,,,,,,,
117,1607844,1745470204828,,,,,,,,,,,,,,,,,,,,,,,,,,,,,,,,,,0,0,0,0,0,0,0,0,0,0,0,0,0,0,0,0,,,,,,,,,,,,,
118,1607864,1745470204848,0.0,78.0,,-0.03,-0.03,1.1,-3.0,0.0,1.0,1.1,1.15,95.0,3234.0,3.2,3.66,,13.08,1.231,89.8,,30.8,5.0,,,,,,,,,,,,0,0,0,0,0,0,0,0,0,0,0,0,0,0,0,0,,,,,,0.0,,,,,,,
119,1607884,1745470204868,,,,,,,,,,,,,,,,,,,,,,,0.0,0.0,0.0,0.0,0.0,0.0,0.0,0.0,2.27,,,0,0,0,0,0,0,0,0,0,0,0,0,0,0,0,0,,0.0,,,,,38.99379,-76.938782,0.0,25.4,30.0,3.0,0.9
120,1607904,1745470204888,0.0,81.0,,-0.07,-0.07,1.12,-3.0,0.0,0.0,1.12,1.15,98.0,3173.0,1.5,3.21,,12.88,1.217,89.8,,30.8,5.0,,,,,,,,,,,,0,0,0,0,0,0,0,0,0,0,0,0,0,0,0,0,,,,,,0.0,,,,,,,
121,1607924,1745470204908,,,,,,,,,,,,,,,,,,,,,,,,,,,,,,,,,,0,0,0,0,0,0,0,0,0,0,0,0,0,0,0,0,,,,,,,,,,,,,
122,1607944,1745470204928,0.0,71.0,,-0.11,-0.04,1.06,-1.0,0.0,0.0,1.07,1.15,93.0,3167.0,0.2,2.96,,12.69,1.22,89.8,,30.8,5.0,,,,,,,,,,,,0,0,0,0,0,0,0,0,0,0,0,0,0,0,0,0,,,,,,0.0,,,,,,,
123,1607964,1745470204948,,,,,,,,,,,,,,,,,,,,,,,,,,,,,,,,,,0,0,0,0,0,0,0,0,0,0,0,0,0,0,0,0,,,,,,,,,,,,,
124,1607984,1745470204968,0.0,91.0,,-0.11,0.01,0.98,1.0,0.0,0.0,0.99,1.15,86.0,3083.0,0.0,2.93,,12.69,1.22,89.8,,29.5,5.0,0.0,0.0,0.0,0.0,0.0,0.0,0.0,0.0,2.27,,,0,0,0,0,0,0,0,0,0,0,0,0,0,0,0,0,,0.0,,,,0.0,38.99379,-76.938782,0.09,25.4,30.0,3.0,0.9
125,1608004,1745470204988,,,,,,,,,,,,,,,,,,,,,,,,,,,,,,,,,,0,0,0,0,0,0,0,0,0,0,0,0,0,0,0,0,,,,,,,,,,,,,
126,1608024,1745470205008,0.0,88.0,,-0.1,0.01,0.91,2.0,0.0,0.0,0.92,1.15,80.0,3083.0,0.0,2.93,,12.57,1.217,89.8,,29.5,5.0,,,,,,,,,,,,0,0,0,0,0,0,0,0,0,0,0,0,0,0,0,0,,,,,,0.0,,,,,,,
127,1608044,1745470205020,,,,,,,,,,,,,,,,,,,,,,,,,,,,,,,,,,0,0,0,0,0,0,0,0,0,0,0,0,0,0,0,0,,,,,,,,,,,,,
128,1608064,1745470205040,0.0,88.0,,-0.1,0.01,0.86,3.0,0.0,-1.0,0.87,1.15,76.0,2984.0,0.0,2.95,,12.55,1.229,89.8,,28.3,5.0,,,,,,,,,,,,0,0,0,0,0,0,0,0,0,0,0,0,0,0,0,0,,,,,,0.0,,,,,,,
129,1608084,1745470205060,,,,,,,,,,,,,,,,,,,,,,,0.0,0.0,0.0,0.0,0.0,0.0,0.0,0.0,2.28,,,0,0,0,0,0,0,0,0,0,0,0,0,0,0,0,0,,0.0,,,,,38.99379,-76.938782,0.04,25.4,30.0,3.0,0.9
130,1608104,1745470205080,0.0,74.0,,-0.13,0.01,0.88,3.0,0.0,-1.0,0.89,1.15,77.0,2887.0,0.0,2.97,,12.65,1.246,89.8,,28.3,5.0,,,,,,,,,,,,0,0,0,0,0,0,0,0,0,0,0,0,0,0,0,0,,,,,,0.0,,,,,,,
131,1608124,1745470205103,,,,,,,,,,,,,,,,,,,,,,,,,,,,,,,,,,0,0,0,0,0,0,0,0,0,0,0,0,0,0,0,0,,,,,,,,,,,,,
132,1608144,1745470205123,0.0,71.0,,-0.12,-0.01,0.91,2.0,0.0,-1.0,0.92,1.15,80.0,2808.0,0.0,3.05,,12.68,1.249,89.8,,28.3,5.0,,,,,,,,,,,,0,0,0,0,0,0,0,0,0,0,0,0,0,0,0,0,,,,,,0.0,,,,,,,
133,1608164,1745470205143,,,,,,,,,,,,,,,,,,,,,,,,,,,,,,,,,,0,0,0,0,0,0,0,0,0,0,0,0,0,0,0,0,,,,,,,,,,,,,
134,1608184,1745470205163,0.0,88.0,,-0.12,0.01,0.91,2.0,0.0,0.0,0.91,1.15,80.0,2747.0,0.0,3.08,,12.68,1.249,89.8,,26.1,5.0,0.0,0.0,0.0,0.0,0.0,0.0,0.0,0.0,2.28,,,0,0,0,0,0,0,0,0,0,0,0,0,0,0,0,0,,0.0,,,,0.0,38.99379,-76.938782,0.0,25.4,30.0,3.0,0.9
135,1608204,1745470205183,,,,,,,,,,,,,,,,,,,,,,,,,,,,,,,,,,0,0,0,0,0,0,0,0,0,0,0,0,0,0,0,0,,,,,,,,,,,,,
136,1608224,1745470205202,0.0,74.0,,-0.12,-0.01,0.93,2.0,0.0,-1.0,0.94,1.15,82.0,2747.0,0.0,3.08,,12.75,1.251,89.8,,26.1,5.0,,,,,,,,,,,,0,0,0,0,0,0,0,0,0,0,0,0,0,0,0,0,,,,,,0.0,,,,,,,
137,1608244,1745470205222,,,,,,,,,,,,,,,,,,,,,,,,,,,,,,,,,,0,0,0,0,0,0,0,0,0,0,0,0,0,0,0,0,,,,,,,,,,,,,
138,1608264,1745470205242,0.0,81.0,,-0.1,-0.01,0.92,2.0,0.0,0.0,0.93,1.15,81.0,2666.0,0.0,3.11,,12.84,1.251,89.8,,24.9,5.0,,,,,,,,,,,,0,0,0,0,0,0,0,0,0,0,0,0,0,0,0,0,,,,,,0.0,,,,,,,
139,1608284,1745470205262,,,,,,,,,,,,,,,,,,,,,,,0.0,0.0,0.0,0.0,0.0,0.0,0.0,0.0,2.27,,,0,0,0,0,0,0,0,0,0,0,0,0,0,0,0,0,,0.0,,,,,38.99379,-76.938782,0.0,25.4,30.0,3.0,0.9
140,1608304,1745470205282,0.0,74.0,,-0.09,-0.01,0.96,1.0,0.0,0.0,0.96,1.15,84.0,2577.0,0.0,3.15,,12.97,1.252,89.8,,24.9,5.0,,,,,,,,,,,,0,0,0,0,0,0,0,0,0,0,0,0,0,0,0,0,,,,,,0.0,,,,,,,
141,1608324,1745470205308,,,,,,,,,,,,,,,,,,,,,,,,,,,,,,,,,,0,0,0,0,0,0,0,0,0,0,0,0,0,0,0,0,,,,,,,,,,,,,
142,1608344,1745470205328,0.0,78.0,,-0.1,-0.02,0.97,1.0,0.0,0.0,0.97,1.15,84.0,2513.0,0.0,3.2,,13.11,1.252,89.8,,24.9,5.0,,,,,,,,,,,,0,0,0,0,0,0,0,0,0,0,0,0,0,0,0,0,,,,,,0.0,,,,,,,
143,1608364,1745470205348,,,,,,,,,,,,,,,,,,,,,,,,,,,,,,,,,,0,0,0,0,0,0,0,0,0,0,0,0,0,0,0,0,,,,,,,,,,,,,
144,1608384,1745470205368,0.0,91.0,13.62,-0.1,0.01,0.98,1.0,0.0,0.0,0.98,1.15,85.0,2452.0,0.0,3.23,15.0,13.11,1.252,89.8,169.0,23.5,5.0,0.0,0.0,0.0,0.0,0.0,0.0,0.0,0.0,2.27,0.0,1.0,0,0,0,0,0,0,0,0,0,0,0,0,0,0,0,0,0.0,0.0,1.0,0.0,0.0,0.0,38.99379,-76.938782,0.05,25.4,30.0,3.0,0.9
145,1608404,1745470205388,,,,,,,,,,,,,,,,,,,,,,,,,,,,,,,,,,0,0,0,0,0,0,0,0,0,0,0,0,0,0,0,0,,,,,,,,,,,,,
146,1608424,1745470205406,0.0,81.0,,-0.09,-0.02,0.98,1.0,0.0,0.0,0.98,1.15,85.0,2452.0,0.0,3.23,,13.19,1.252,89.8,,23.5,5.0,,,,,,,,,,,,0,0,0,0,0,0,0,0,0,0,0,0,0,0,0,0,,,,,,0.0,,,,,,,
147,1608444,1745470205426,,,,,,,,,,,,,,,,,,,,,,,,,,,,,,,,,,0,0,0,0,0,0,0,0,0,0,0,0,0,0,0,0,,,,,,,,,,,,,
148,1608464,1745470205446,0.0,95.0,,-0.08,-0.04,0.96,1.0,0.0,0.0,0.97,1.15,84.0,2384.0,0.0,3.26,,13.28,1.251,89.8,,22.3,5.0,,,,,,,,,,,,0,0,0,0,0,0,0,0,0,0,0,0,0,0,0,0,,,,,,0.0,,,,,,,
149,1608484,1745470205466,,,,,,,,,,,,,,,,,,,,,,,0.0,0.0,0.0,0.0,0.0,0.0,0.0,0.0,2.27,,,0,0,0,0,0,0,0,0,0,0,0,0,0,0,0,0,,0.0,,,,,38.99379,-76.938782,0.04,25.4,30.0,3.0,0.9
150,1608504,1745470205486,0.0,68.0,,-0.07,-0.06,0.95,1.0,0.0,0.0,0.96,1.15,83.0,2334.0,0.0,3.29,,13.35,1.249,89.8,,22.3,5.0,,,,,,,,,,,,0,0,0,0,0,0,0,0,0,0,0,0,0,0,0,0,,,,,,0.0,,,,,,,
151,1608524,1745470205507,,,,,,,,,,,,,,,,,,,,,,,,,,,,,,,,,,0,0,0,0,0,0,0,0,0,0,0,0,0,0,0,0,,,,,,,,,,,,,
152,1608544,1745470205527,0.0,78.0,,-0.08,-0.05,0.95,0.0,0.0,0.0,0.96,1.15,83.0,2273.0,0.0,3.33,,13.4,1.249,89.8,,22.3,5.0,,,,,,,,,,,,0,0,0,0,0,0,0,0,0,0,0,0,0,0,0,0,,,,,,0.0,,,,,,,
153,1608564,1745470205547,,,,,,,,,,,,,,,,,,,,,,,,,,,,,,,,,,0,0,0,0,0,0,0,0,0,0,0,0,0,0,0,0,,,,,,,,,,,,,
154,1608584,1745470205567,0.0,81.0,,-0.08,-0.05,0.96,0.0,0.0,0.0,0.96,1.15,84.0,2218.0,0.0,3.35,,13.4,1.249,89.8,,21.4,5.0,0.0,0.0,0.0,0.0,0.0,0.0,0.0,0.0,2.28,,,0,0,0,0,0,0,0,0,0,0,0,0,0,0,0,0,,0.0,,,,0.0,38.99379,-76.938782,0.0,25.4,30.0,3.0,0.9
155,1608604,1745470205587,,,,,,,,,,,,,,,,,,,,,,,,,,,,,,,,,,0,0,0,0,0,0,0,0,0,0,0,0,0,0,0,0,,,,,,,,,,,,,
156,1608624,1745470205607,0.0,71.0,,-0.07,-0.05,0.96,0.0,0.0,0.0,0.97,1.15,84.0,2218.0,0.0,3.35,,13.51,1.249,89.8,,21.4,5.0,,,,,,,,,,,,0,0,0,0,0,0,0,0,0,0,0,0,0,0,0,0,,,,,,0.0,,,,,,,
157,1608644,1745470205627,,,,,,,,,,,,,,,,,,,,,,,,,,,,,,,,,,0,0,0,0,0,0,0,0,0,0,0,0,0,0,0,0,,,,,,,,,,,,,
158,1608664,1745470205647,0.0,91.0,,-0.06,-0.04,0.95,0.0,0.0,0.0,0.96,1.15,83.0,2145.0,0.0,3.4,,13.59,1.237,89.8,,20.2,5.0,,,,,,,,,,,,0,0,0,0,0,0,0,0,0,0,0,0,0,0,0,0,,,,,,0.0,,,,,,,
159,1608684,1745470205667,,,,,,,,,,,,,,,,,,,,,,,0.0,0.0,0.0,0.0,0.0,0.0,0.0,0.0,2.28,,,0,0,0,0,0,0,0,0,0,0,0,0,0,0,0,0,,0.0,,,,,38.99379,-76.938782,0.04,25.4,30.0,3.0,0.9
160,1608704,1745470205687,0.0,85.0,,-0.05,-0.05,0.96,0.0,0.0,0.0,0.96,1.15,84.0,2071.0,0.0,3.39,,13.67,1.227,89.8,,20.2,5.0,,,,,,,,,,,,0,0,0,0,0,0,0,0,0,0,0,0,0,0,0,0,,,,,,0.0,,,,,,,
161,1608724,1745470205707,,,,,,,,,,,,,,,,,,,,,,,,,,,,,,,,,,0,0,0,0,0,0,0,0,0,0,0,0,0,0,0,0,,,,,,,,,,,,,
162,1608744,1745470205727,0.0,91.0,,-0.05,-0.02,0.96,0.0,0.0,0.0,0.96,1.15,84.0,2022.0,0.0,3.4,,13.68,1.237,89.8,,20.2,5.0,,,,,,,,,,,,0,0,0,0,0,0,0,0,0,0,0,0,0,0,0,0,,,,,,0.0,,,,,,,
163,1608764,1745470205747,,,,,,,,,,,,,,,,,,,,,,,,,,,,,,,,,,0,0,0,0,0,0,0,0,0,0,0,0,0,0,0,0,,,,,,,,,,,,,
164,1608784,1745470205767,0.0,95.0,,-0.04,-0.02,0.97,1.0,0.0,0.0,0.97,1.15,85.0,1996.0,0.0,3.41,,13.68,1.237,89.8,,19.7,5.0,0.0,0.0,0.0,0.0,0.0,0.0,0.0,0.0,2.26,,,0,0,0,0,0,0,0,0,0,0,0,0,0,0,0,0,,0.0,,,,0.0,38.99379,-76.938782,0.05,25.4,30.0,3.0,0.9
165,1608804,1745470205787,,,,,,,,,,,,,,,,,,,,,,,,,,,,,,,,,,0,0,0,0,0,0,0,0,0,0,0,0,0,0,0,0,,,,,,,,,,,,,
166,1608824,1745470205807,0.0,78.0,,-0.04,-0.02,0.97,0.0,0.0,0.0,0.97,1.15,84.0,1996.0,0.0,3.41,,13.76,1.25,89.8,,19.7,5.0,,,,,,,,,,,,0,0,0,0,0,0,0,0,0,0,0,0,0,0,0,0,,,,,,0.0,,,,,,,
167,1608844,1745470205827,,,,,,,,,,,,,,,,,,,,,,,,,,,,,,,,,,0,0,0,0,0,0,0,0,0,0,0,0,0,0,0,0,,,,,,,,,,,,,
168,1608864,1745470205847,0.0,78.0,,-0.04,-0.02,0.98,0.0,0.0,0.0,0.98,1.15,85.0,1970.0,0.0,3.45,,13.79,1.253,89.8,,18.8,5.0,,,,,,,,,,,,0,0,0,0,0,0,0,0,0,0,0,0,0,0,0,0,,,,,,0.0,,,,,,,
169,1608884,1745470205867,,,,,,,,,,,,,,,,,,,,,,,0.0,0.0,0.0,0.0,0.0,0.0,0.0,0.0,2.27,,,0,0,0,0,0,0,0,0,0,0,0,0,0,0,0,0,,0.0,,,,,38.99379,-76.938782,0.05,25.4,30.0,3.0,0.9
170,1608904,1745470205887,0.0,74.0,,-0.04,-0.02,0.97,0.0,0.0,0.0,0.97,1.15,84.0,1941.0,0.0,3.47,,13.8,1.251,89.8,,18.8,5.0,,,,,,,,,,,,0,0,0,0,0,0,0,0,0,0,0,0,0,0,0,0,,,,,,0.0,,,,,,,
171,1608924,1745470205907,,,,,,,,,,,,,,,,,,,,,,,,,,,,,,,,,,0,0,0,0,0,0,0,0,0,0,0,0,0,0,0,0,,,,,,,,,,,,,
172,1608944,1745470205927,0.0,74.0,,-0.04,-0.01,0.99,0.0,0.0,0.0,0.99,1.15,86.0,1847.0,0.0,3.46,,13.86,1.249,89.8,,18.8,5.0,,,,,,,,,,,,0,0,0,0,0,0,0,0,0,0,0,0,0,0,0,0,,,,,,0.0,,,,,,,
173,1608964,1745470205947,,,,,,,,,,,,,,,,,,,,,,,,,,,,,,,,,,0,0,0,0,0,0,0,0,0,0,0,0,0,0,0,0,,,,,,,,,,,,,
174,1608984,1745470205967,0.0,81.0,,-0.06,-0.01,0.98,1.0,0.0,0.0,0.98,1.15,85.0,1754.0,0.0,3.48,,13.86,1.249,89.8,,17.7,5.0,0.0,0.0,0.0,0.0,0.0,0.0,0.0,0.0,2.28,,,0,0,0,0,0,0,0,0,0,0,0,0,0,0,0,0,,0.0,,,,0.0,38.99379,-76.938782,0.08,25.4,30.0,3.0,0.9
175,1609004,1745470205987,,,,,,,,,,,,,,,,,,,,,,,,,,,,,,,,,,0,0,0,0,0,0,0,0,0,0,0,0,0,0,0,0,,,,,,,,,,,,,
176,1609024,1745470206007,0.0,78.0,,-0.06,0.0,0.97,1.0,0.0,0.0,0.97,1.15,84.0,1754.0,0.0,3.48,,13.92,1.249,89.8,,17.7,5.0,,,,,,,,,,,,0,0,0,0,0,0,0,0,0,0,0,0,0,0,0,0,,,,,,0.0,,,,,,,
177,1609044,1745470206019,,,,,,,,,,,,,,,,,,,,,,,,,,,,,,,,,,0,0,0,0,0,0,0,0,0,0,0,0,0,0,0,0,,,,,,,,,,,,,
178,1609064,1745470206039,0.0,88.0,,-0.03,0.01,0.97,1.0,0.0,0.0,0.97,1.15,84.0,1819.0,0.0,3.49,,13.96,1.249,89.8,,16.9,5.0,,,,,,,,,,,,0,0,0,0,0,0,0,0,0,0,0,0,0,0,0,0,,,,,,0.0,,,,,,,
179,1609084,1745470206059,,,,,,,,,,,,,,,,,,,,,,,0.0,0.0,0.0,0.0,0.0,0.0,0.0,0.0,2.28,,,0,0,0,0,0,0,0,0,0,0,0,0,0,0,0,0,,0.0,,,,,38.99379,-76.938782,0.07,25.4,30.0,3.0,0.9
180,1609104,1745470206079,0.0,85.0,,-0.05,-0.0,0.99,1.0,0.0,0.0,0.99,1.15,86.0,1716.0,0.0,3.5,,14.08,1.249,89.8,,16.9,5.0,,,,,,,,,,,,0,0,0,0,0,0,0,0,0,0,0,0,0,0,0,0,,,,,,0.0,,,,,,,
181,1609124,1745470206099,,,,,,,,,,,,,,,,,,,,,,,,,,,,,,,,,,0,0,0,0,0,0,0,0,0,0,0,0,0,0,0,0,,,,,,,,,,,,,
182,1609144,1745470206115,0.0,81.0,,-0.08,-0.0,0.98,1.0,0.0,0.0,0.98,1.15,86.0,1598.0,0.0,3.49,,14.11,1.25,89.8,,16.9,5.0,,,,,,,,,,,,0,0,0,0,0,0,0,0,0,0,0,0,0,0,0,0,,,,,,0.0,,,,,,,
183,1609164,1745470206135,,,,,,,,,,,,,,,,,,,,,,,,,,,,,,,,,,0,0,0,0,0,0,0,0,0,0,0,0,0,0,0,0,,,,,,,,,,,,,
184,1609184,1745470206155,0.0,85.0,,-0.08,0.0,0.97,1.0,0.0,0.0,0.97,1.15,84.0,1623.0,0.0,3.51,,14.11,1.25,89.8,,16.4,5.0,0.0,0.0,0.0,0.0,0.0,0.0,0.0,0.0,2.28,,,0,0,0,0,0,0,0,0,0,0,0,0,0,0,0,0,,0.0,,,,0.0,38.99379,-76.938782,0.0,25.4,30.0,3.0,0.9
185,1609204,1745470206175,,,,,,,,,,,,,,,,,,,,,,,,,,,,,,,,,,0,0,0,0,0,0,0,0,0,0,0,0,0,0,0,0,,,,,,,,,,,,,
186,1609224,1745470206207,0.0,74.0,,-0.1,0.01,0.95,1.0,0.0,0.0,0.95,1.15,83.0,1623.0,0.0,3.51,,14.08,1.252,89.8,,16.4,5.0,,,,,,,,,,,,0,0,0,0,0,0,0,0,0,0,0,0,0,0,0,0,,,,,,0.0,,,,,,,
187,1609244,1745470206227,,,,,,,,,,,,,,,,,,,,,,,,,,,,,,,,,,0,0,0,0,0,0,0,0,0,0,0,0,0,0,0,0,,,,,,,,,,,,,
188,1609264,1745470206247,0.0,81.0,,-0.09,0.01,0.94,1.0,0.0,0.0,0.95,1.15,82.0,1543.0,0.0,3.52,,14.2,1.252,89.8,,15.1,5.0,,,,,,,,,,,,0,0,0,0,0,0,0,0,0,0,0,0,0,0,0,0,,,,,,0.0,,,,,,,
189,1609284,1745470206267,,,,,,,,,,,,,,,,,,,,,,,0.0,0.0,0.0,0.0,0.0,0.0,0.0,0.0,2.27,,,0,0,0,0,0,0,0,0,0,0,0,0,0,0,0,0,,0.0,,,,,38.99379,-76.938782,0.05,25.4,30.0,3.0,0.9
190,1609304,1745470206287,0.0,74.0,,-0.11,0.0,0.95,1.0,0.0,0.0,0.96,1.15,83.0,1431.0,0.0,3.52,,14.23,1.252,89.8,,15.1,5.0,,,,,,,,,,,,0,0,0,0,0,0,0,0,0,0,0,0,0,0,0,0,,,,,,0.0,,,,,,,
191,1609324,1745470206307,,,,,,,,,,,,,,,,,,,,,,,,,,,,,,,,,,0,0,0,0,0,0,0,0,0,0,0,0,0,0,0,0,,,,,,,,,,,,,
192,1609344,1745470206327,0.0,91.0,,-0.12,-0.0,0.96,1.0,0.0,0.0,0.97,1.15,84.0,1461.0,0.0,3.53,,14.16,1.251,89.8,,15.1,5.0,,,,,,,,,,,,0,0,0,0,0,0,0,0,0,0,0,0,0,0,0,0,,,,,,0.0,,,,,,,
193,1609364,1745470206347,,,,,,,,,,,,,,,,,,,,,,,,,,,,,,,,,,0,0,0,0,0,0,0,0,0,0,0,0,0,0,0,0,,,,,,,,,,,,,
194,1609384,1745470206367,0.0,91.0,13.61,-0.09,-0.02,0.96,1.0,0.0,0.0,0.97,1.15,84.0,1333.0,0.0,3.54,15.0,14.16,1.251,89.8,169.0,14.1,5.0,0.0,0.0,0.0,0.0,0.0,0.0,0.0,0.0,2.27,0.0,1.0,0,0,0,0,0,0,0,0,0,0,0,0,0,0,0,0,0.0,0.0,1.0,0.0,0.0,0.0,38.99379,-76.938782,0.08,25.4,30.0,3.0,0.9
195,1609404,1745470206387,,,,,,,,,,,,,,,,,,,,,,,,,,,,,,,,,,0,0,0,0,0,0,0,0,0,0,0,0,0,0,0,0,,,,,,,,,,,,,
196,1609424,1745470206406,0.0,64.0,,-0.08,-0.02,0.97,0.0,0.0,0.0,0.97,1.15,84.0,1333.0,0.0,3.54,,14.31,1.243,89.8,,14.1,5.0,,,,,,,,,,,,0,0,0,0,0,0,0,0,0,0,0,0,0,0,0,0,,,,,,0.0,,,,,,,
197,1609444,1745470206426,,,,,,,,,,,,,,,,,,,,,,,,,,,,,,,,,,0,0,0,0,0,0,0,0,0,0,0,0,0,0,0,0,,,,,,,,,,,,,
198,1609464,1745470206446,0.0,91.0,,-0.07,-0.02,0.95,0.0,0.0,0.0,0.96,1.15,83.0,1424.0,0.0,3.55,,14.31,1.237,89.8,,14.1,5.0,,,,,,,,,,,,0,0,0,0,0,0,0,0,0,0,0,0,0,0,0,0,,,,,,0.0,,,,,,,
199,1609484,1745470206466,,,,,,,,,,,,,,,,,,,,,,,0.0,0.0,0.0,0.0,0.0,0.0,0.0,0.0,2.28,,,0,0,0,0,0,0,0,0,0,0,0,0,0,0,0,0,,0.0,,,,,38.99379,-76.938782,0.16,25.4,30.0,3.0,0.9
200,1609504,1745470206486,0.0,74.0,,-0.06,-0.02,0.94,0.0,0.0,0.0,0.95,1.15,82.0,1311.0,6.1,3.54,,14.31,1.236,89.8,,14.1,5.0,,,,,,,,,,,,0,0,0,0,0,0,0,0,0,0,0,0,0,0,0,0,,,,,,0.0,,,,,,,
201,1609524,1745470206506,,,,,,,,,,,,,,,,,,,,,,,,,,,,,,,,,,0,0,0,0,0,0,0,0,0,0,0,0,0,0,0,0,,,,,,,,,,,,,
202,1609544,1745470206526,0.0,78.0,,-0.05,-0.02,0.96,0.0,0.0,0.0,0.96,1.15,83.0,1311.0,11.6,3.93,,14.5,1.245,89.8,,14.1,5.0,,,,,,,,,,,,0,0,0,0,0,0,0,0,0,0,0,0,0,0,0,0,,,,,,0.0,,,,,,,
203,1609564,1745470206546,,,,,,,,,,,,,,,,,,,,,,,,,,,,,,,,,,0,0,0,0,0,0,0,0,0,0,0,0,0,0,0,0,,,,,,,,,,,,,
204,1609584,1745470206566,0.0,81.0,,-0.07,-0.0,0.99,0.0,0.0,0.0,0.99,1.15,86.0,1387.0,11.8,3.99,,14.5,1.245,89.8,,13.9,5.0,0.0,0.0,0.0,0.0,0.0,0.0,0.0,0.0,2.28,,,0,0,0,0,0,0,0,0,0,0,0,0,0,0,0,0,,0.0,,,,0.0,38.99379,-76.938782,0.04,25.4,30.0,3.0,0.9
205,1609604,1745470206586,,,,,,,,,,,,,,,,,,,,,,,,,,,,,,,,,,0,0,0,0,0,0,0,0,0,0,0,0,0,0,0,0,,,,,,,,,,,,,
206,1609624,1745470206608,0.0,71.0,,-0.07,-0.02,0.99,0.0,0.0,0.0,0.99,1.15,86.0,1387.0,11.8,3.99,,14.58,1.245,89.8,,13.9,5.0,,,,,,,,,,,,0,0,0,0,0,0,0,0,0,0,0,0,0,0,0,0,,,,,,0.0,,,,,,,
207,1609644,1745470206628,,,,,,,,,,,,,,,,,,,,,,,,,,,,,,,,,,0,0,0,0,0,0,0,0,0,0,0,0,0,0,0,0,,,,,,,,,,,,,
208,1609664,1745470206648,0.0,78.0,,-0.04,-0.01,0.99,0.0,0.0,0.0,0.99,1.15,86.0,1309.0,11.9,3.96,,14.54,1.25,89.8,,15.2,5.0,,,,,,,,,,,,0,0,0,0,0,0,0,0,0,0,0,0,0,0,0,0,,,,,,0.0,,,,,,,
209,1609684,1745470206668,,,,,,,,,,,,,,,,,,,,,,,0.0,0.0,0.0,0.0,0.0,0.0,0.0,0.0,2.28,,,0,0,0,0,0,0,0,0,0,0,0,0,0,0,0,0,,0.0,,,,,38.99379,-76.938782,0.04,25.4,30.0,3.0,0.9
210,1609704,1745470206688,0.0,85.0,,-0.03,-0.01,1.0,0.0,0.0,0.0,1.0,1.15,87.0,1581.0,11.9,4.01,,14.51,1.222,89.8,,15.2,5.0,,,,,,,,,,,,0,0,0,0,0,0,0,0,0,0,0,0,0,0,0,0,,,,,,0.0,,,,,,,
211,1609724,1745470206708,,,,,,,,,,,,,,,,,,,,,,,,,,,,,,,,,,0,0,0,0,0,0,0,0,0,0,0,0,0,0,0,0,,,,,,,,,,,,,
212,1609744,1745470206728,0.0,88.0,,-0.05,0.01,1.02,0.0,0.0,0.0,1.02,1.15,89.0,1616.0,5.8,3.8,,14.42,1.202,89.8,,15.2,5.0,,,,,,,,,,,,0,0,0,0,0,0,0,0,0,0,0,0,0,0,0,0,,,,,,0.0,,,,,,,
213,1609764,1745470206748,,,,,,,,,,,,,,,,,,,,,,,,,,,,,,,,,,0,0,0,0,0,0,0,0,0,0,0,0,0,0,0,0,,,,,,,,,,,,,
214,1609784,1745470206768,0.0,85.0,,-0.09,0.02,1.01,0.0,0.0,0.0,1.01,1.15,88.0,1583.0,4.4,3.82,,14.42,1.202,89.8,,15.9,5.0,0.0,0.0,0.0,0.0,0.0,0.0,0.0,0.0,2.27,,,0,0,0,0,0,0,0,0,0,0,0,0,0,0,0,0,,0.0,,,,0.0,38.99379,-76.938782,0.08,25.4,30.0,3.0,0.9
215,1609804,1745470206788,,,,,,,,,,,,,,,,,,,,,,,,,,,,,,,,,,0,0,0,0,0,0,0,0,0,0,0,0,0,0,0,0,,,,,,,,,,,,,
216,1609824,1745470206808,0.0,95.0,,-0.1,0.01,0.98,0.0,0.0,0.0,0.99,1.15,86.0,1583.0,4.4,3.82,,14.4,1.229,89.8,,15.9,5.0,,,,,,,,,,,,0,0,0,0,0,0,0,0,0,0,0,0,0,0,0,0,,,,,,0.0,,,,,,,
217,1609844,1745470206828,,,,,,,,,,,,,,,,,,,,,,,,,,,,,,,,,,0,0,0,0,0,0,0,0,0,0,0,0,0,0,0,0,,,,,,,,,,,,,
218,1609864,1745470206848,0.0,81.0,,-0.08,0.02,1.0,1.0,0.0,0.0,1.0,1.15,87.0,1727.0,4.2,3.84,,14.32,1.23,89.8,,16.6,5.0,,,,,,,,,,,,0,0,0,0,0,0,0,0,0,0,0,0,0,0,0,0,,,,,,0.0,,,,,,,
219,1609884,1745470206868,,,,,,,,,,,,,,,,,,,,,,,0.0,0.0,0.0,0.0,0.0,0.0,0.0,0.0,2.27,,,0,0,0,0,0,0,0,0,0,0,0,0,0,0,0,0,,0.0,,,,,38.99379,-76.938782,0.0,25.4,30.0,3.0,0.9
220,1609904,1745470206888,0.0,74.0,,-0.09,0.01,1.01,1.0,0.0,0.0,1.02,1.15,88.0,1763.0,4.0,3.83,,14.34,1.226,89.8,,16.6,5.0,,,,,,,,,,,,0,0,0,0,0,0,0,0,0,0,0,0,0,0,0,0,,,,,,0.0,,,,,,,
221,1609924,1745470206908,,,,,,,,,,,,,,,,,,,,,,,,,,,,,,,,,,0,0,0,0,0,0,0,0,0,0,0,0,0,0,0,0,,,,,,,,,,,,,
222,1609944,1745470206928,0.0,78.0,,-0.1,0.03,0.98,1.0,0.0,0.0,0.99,1.15,86.0,1706.0,4.0,3.8,,14.36,1.249,89.8,,16.6,5.0,,,,,,,,,,,,0,0,0,0,0,0,0,0,0,0,0,0,0,0,0,0,,,,,,0.0,,,,,,,
223,1609964,1745470206948,,,,,,,,,,,,,,,,,,,,,,,,,,,,,,,,,,0,0,0,0,0,0,0,0,0,0,0,0,0,0,0,0,,,,,,,,,,,,,
224,1609984,1745470206968,0.0,81.0,,-0.09,0.04,0.98,1.0,0.0,0.0,0.98,1.15,85.0,1705.0,3.7,3.81,,14.36,1.249,89.8,,17.6,5.0,0.0,0.0,0.0,0.0,0.0,0.0,0.0,0.0,2.28,,,0,0,0,0,0,0,0,0,0,0,0,0,0,0,0,0,,0.0,,,,0.0,38.99379,-76.938782,0.0,25.4,30.0,3.0,0.9
225,1610004,1745470206988,,,,,,,,,,,,,,,,,,,,,,,,,,,,,,,,,,0,0,0,0,0,0,0,0,0,0,0,0,0,0,0,0,,,,,,,,,,,,,
226,1610024,1745470207008,0.0,88.0,,-0.1,0.04,0.99,1.0,0.0,0.0,0.99,1.15,86.0,1705.0,3.7,3.81,,14.28,1.242,89.8,,17.6,5.0,,,,,,,,,,,,0,0,0,0,0,0,0,0,0,0,0,0,0,0,0,0,,,,,,0.0,,,,,,,
227,1610044,1745470207018,,,,,,,,,,,,,,,,,,,,,,,,,,,,,,,,,,0,0,0,0,0,0,0,0,0,0,0,0,0,0,0,0,,,,,,,,,,,,,
228,1610064,1745470207038,0.0,88.0,,-0.07,0.02,0.98,1.0,0.0,0.0,0.98,1.15,86.0,1806.0,3.4,3.83,,14.27,1.239,89.8,,19.5,5.0,,,,,,,,,,,,0,0,0,0,0,0,0,0,0,0,0,0,0,0,0,0,,,,,,0.0,,,,,,,
229,1610084,1745470207058,,,,,,,,,,,,,,,,,,,,,,,0.0,0.0,0.0,0.0,0.0,0.0,0.0,0.0,2.28,,,0,0,0,0,0,0,0,0,0,0,0,0,0,0,0,0,,0.0,,,,,38.99379,-76.938782,0.0,25.4,30.0,3.0,0.9
230,1610104,1745470207078,0.0,81.0,,-0.06,0.03,0.99,1.0,0.0,0.0,0.99,1.15,86.0,2190.0,3.4,3.81,,14.06,1.249,89.8,,19.5,5.0,,,,,,,,,,,,0,0,0,0,0,0,0,0,0,0,0,0,0,0,0,0,,,,,,0.0,,,,,,,
231,1610124,1745470207106,,,,,,,,,,,,,,,,,,,,,,,,,,,,,,,,,,0,0,0,0,0,0,0,0,0,0,0,0,0,0,0,0,,,,,,,,,,,,,
232,1610144,1745470207126,0.0,88.0,,-0.05,0.02,1.0,1.0,0.0,0.0,1.0,1.15,87.0,2306.0,3.4,3.75,,13.95,1.251,89.8,,19.5,5.0,,,,,,,,,,,,0,0,0,0,0,0,0,0,0,0,0,0,0,0,0,0,,,,,,0.0,,,,,,,
233,1610164,1745470207146,,,,,,,,,,,,,,,,,,,,,,,,,,,,,,,,,,0,0,0,0,0,0,0,0,0,0,0,0,0,0,0,0,,,,,,,,,,,,,
234,1610184,1745470207166,0.0,71.0,,-0.05,-0.0,0.99,1.0,0.0,0.0,0.99,1.15,86.0,2396.0,3.4,3.72,,13.95,1.251,89.8,,21.2,5.0,0.0,0.0,0.0,0.0,0.0,0.0,0.0,0.0,2.27,,,0,0,0,0,0,0,0,0,0,0,0,0,0,0,0,0,,0.0,,,,0.0,38.99379,-76.938782,0.0,25.4,30.0,3.0,0.9
235,1610204,1745470207186,,,,,,,,,,,,,,,,,,,,,,,,,,,,,,,,,,0,0,0,0,0,0,0,0,0,0,0,0,0,0,0,0,,,,,,,,,,,,,
236,1610224,1745470207206,0.0,64.0,,-0.04,0.0,0.99,1.0,0.0,0.0,1.0,1.15,87.0,2396.0,3.4,3.72,,13.9,1.233,89.8,,21.2,5.0,,,,,,,,,,,,0,0,0,0,0,0,0,0,0,0,0,0,0,0,0,0,,,,,,0.0,,,,,,,
237,1610244,1745470207226,,,,,,,,,,,,,,,,,,,,,,,,,,,,,,,,,,0,0,0,0,0,0,0,0,0,0,0,0,0,0,0,0,,,,,,,,,,,,,
238,1610264,1745470207246,0.0,68.0,,-0.05,-0.02,1.01,1.0,0.0,0.0,1.01,1.15,88.0,2468.0,3.6,3.71,,13.83,1.167,89.8,,22.8,5.0,,,,,,,,,,,,0,0,0,0,0,0,0,0,0,0,0,0,0,0,0,0,,,,,,0.0,,,,,,,
239,1610284,1745470207266,,,,,,,,,,,,,,,,,,,,,,,0.0,0.0,0.0,0.0,0.0,0.0,0.0,0.0,2.27,,,0,0,0,0,0,0,0,0,0,0,0,0,0,0,0,0,,0.0,,,,,38.99379,-76.938782,0.07,25.4,30.0,3.0,0.9
240,1610304,1745470207286,0.0,64.0,,-0.05,-0.01,1.0,1.0,0.0,0.0,1.0,1.15,87.0,2480.0,3.8,3.7,,13.8,1.147,89.8,,22.8,5.0,,,,,,,,,,,,0,0,0,0,0,0,0,0,0,0,0,0,0,0,0,0,,,,,,0.0,,,,,,,
241,1610324,1745470207308,,,,,,,,,,,,,,,,,,,,,,,,,,,,,,,,,,0,0,0,0,0,0,0,0,0,0,0,0,0,0,0,0,,,,,,,,,,,,,
242,1610344,1745470207328,0.0,74.0,,-0.05,-0.02,0.99,1.0,0.0,0.0,0.99,1.15,86.0,2501.0,3.8,3.72,,13.73,1.142,89.8,,22.8,5.0,,,,,,,,,,,,0,0,0,0,0,0,0,0,0,0,0,0,0,0,0,0,,,,,,0.0,,,,,,,
243,1610364,1745470207348,,,,,,,,,,,,,,,,,,,,,,,,,,,,,,,,,,0,0,0,0,0,0,0,0,0,0,0,0,0,0,0,0,,,,,,,,,,,,,
244,1610384,1745470207368,0.0,91.0,13.7,-0.05,-0.03,0.99,1.0,0.0,0.0,0.99,1.15,86.0,2563.0,3.7,3.68,15.0,13.73,1.142,89.8,171.0,23.6,5.0,0.0,0.0,0.0,0.0,0.0,0.0,0.0,0.0,2.27,0.0,1.0,0,0,0,0,0,0,0,0,0,0,0,0,0,0,0,0,0.0,0.0,1.0,0.0,0.0,0.0,38.99379,-76.938782,0.11,25.4,30.0,3.0,0.9
245,1610404,1745470207388,,,,,,,,,,,,,,,,,,,,,,,,,,,,,,,,,,0,0,0,0,0,0,0,0,0,0,0,0,0,0,0,0,,,,,,,,,,,,,
246,1610424,1745470207408,0.0,88.0,,-0.06,-0.01,0.98,1.0,0.0,0.0,0.98,1.15,86.0,2563.0,3.7,3.68,,13.71,1.151,89.8,,23.6,5.0,,,,,,,,,,,,0,0,0,0,0,0,0,0,0,0,0,0,0,0,0,0,,,,,,0.0,,,,,,,
247,1610444,1745470207428,,,,,,,,,,,,,,,,,,,,,,,,,,,,,,,,,,0,0,0,0,0,0,0,0,0,0,0,0,0,0,0,0,,,,,,,,,,,,,
248,1610464,1745470207448,0.0,88.0,,-0.06,-0.04,1.02,1.0,0.0,0.0,1.02,1.15,89.0,2596.0,3.5,3.7,,13.64,1.172,89.8,,24.7,5.0,,,,,,,,,,,,0,0,0,0,0,0,0,0,0,0,0,0,0,0,0,0,,,,,,0.0,,,,,,,
249,1610484,1745470207468,,,,,,,,,,,,,,,,,,,,,,,0.0,0.0,0.0,0.0,0.0,0.0,0.0,0.0,2.28,,,0,0,0,0,0,0,0,0,0,0,0,0,0,0,0,0,,0.0,,,,,38.99379,-76.938782,0.0,25.4,30.0,3.0,0.9
250,1610504,1745470207488,0.0,81.0,,-0.05,-0.02,0.98,1.0,0.0,0.0,0.99,1.15,86.0,2643.0,3.1,3.72,,13.56,1.19,89.8,,24.7,5.0,,,,,,,,,,,,0,0,0,0,0,0,0,0,0,0,0,0,0,0,0,0,,,,,,0.0,,,,,,,
251,1610524,1745470207508,,,,,,,,,,,,,,,,,,,,,,,,,,,,,,,,,,0,0,0,0,0,0,0,0,0,0,0,0,0,0,0,0,,,,,,,,,,,,,
252,1610544,1745470207528,0.0,64.0,,-0.06,-0.05,1.01,1.0,0.0,0.0,1.02,1.15,88.0,2630.0,2.4,3.52,,13.53,1.199,89.8,,24.7,5.0,,,,,,,,,,,,0,0,0,0,0,0,0,0,0,0,0,0,0,0,0,0,,,,,,0.0,,,,,,,
253,1610564,1745470207548,,,,,,,,,,,,,,,,,,,,,,,,,,,,,,,,,,0,0,0,0,0,0,0,0,0,0,0,0,0,0,0,0,,,,,,,,,,,,,
254,1610584,1745470207568,0.0,78.0,,-0.05,-0.03,0.99,1.0,0.0,0.0,0.99,1.15,86.0,2657.0,1.8,3.48,,13.53,1.199,89.8,,25.7,5.0,0.0,0.0,0.0,0.0,0.0,0.0,0.0,0.0,2.28,,,0,0,0,0,0,0,0,0,0,0,0,0,0,0,0,0,,0.0,,,,0.0,38.99379,-76.938782,0.0,25.4,30.0,3.0,0.9
255,1610604,1745470207588,,,,,,,,,,,,,,,,,,,,,,,,,,,,,,,,,,0,0,0,0,0,0,0,0,0,0,0,0,0,0,0,0,,,,,,,,,,,,,
256,1610624,1745470207607,0.0,71.0,,-0.07,-0.01,0.99,1.0,0.0,0.0,1.0,1.15,87.0,2657.0,1.8,3.48,,13.45,1.203,89.8,,25.7,5.0,,,,,,,,,,,,0,0,0,0,0,0,0,0,0,0,0,0,0,0,0,0,,,,,,0.0,,,,,,,
257,1610644,1745470207627,,,,,,,,,,,,,,,,,,,,,,,,,,,,,,,,,,0,0,0,0,0,0,0,0,0,0,0,0,0,0,0,0,,,,,,,,,,,,,
258,1610664,1745470207647,0.0,74.0,,-0.07,-0.0,1.0,1.0,0.0,0.0,1.0,1.15,87.0,2652.0,0.1,3.2,,13.41,1.206,89.8,,25.0,5.0,,,,,,,,,,,,0,0,0,0,0,0,0,0,0,0,0,0,0,0,0,0,,,,,,0.0,,,,,,,
259,1610684,1745470207667,,,,,,,,,,,,,,,,,,,,,,,0.0,0.0,0.0,0.0,0.0,0.0,0.0,0.0,2.27,,,0,0,0,0,0,0,0,0,0,0,0,0,0,0,0,0,,0.0,,,,,38.99379,-76.938782,0.0,25.4,30.0,3.0,0.9
260,1610704,1745470207687,0.0,78.0,,-0.06,0.0,1.0,1.0,0.0,0.0,1.01,1.15,87.0,2628.0,0.0,3.14,,13.33,1.206,89.8,,25.0,5.0,,,,,,,,,,,,0,0,0,0,0,0,0,0,0,0,0,0,0,0,0,0,,,,,,0.0,,,,,,,
261,1610724,1745470207707,,,,,,,,,,,,,,,,,,,,,,,,,,,,,,,,,,0,0,0,0,0,0,0,0,0,0,0,0,0,0,0,0,,,,,,,,,,,,,
262,1610744,1745470207727,0.0,74.0,,-0.05,-0.0,1.01,1.0,0.0,0.0,1.01,1.15,88.0,2575.0,0.0,3.15,,13.24,1.22,89.8,,25.0,5.0,,,,,,,,,,,,0,0,0,0,0,0,0,0,0,0,0,0,0,0,0,0,,,,,,0.0,,,,,,,
263,1610764,1745470207747,,,,,,,,,,,,,,,,,,,,,,,,,,,,,,,,,,0,0,0,0,0,0,0,0,0,0,0,0,0,0,0,0,,,,,,,,,,,,,
264,1610784,1745470207767,0.0,95.0,,-0.06,-0.01,1.01,1.0,0.0,0.0,1.01,1.15,88.0,2599.0,0.0,3.17,,13.24,1.22,89.8,,24.5,5.0,0.0,0.0,0.0,0.0,0.0,0.0,0.0,0.0,2.27,,,0,0,0,0,0,0,0,0,0,0,0,0,0,0,0,0,,0.0,,,,0.0,38.99379,-76.938782,0.04,25.4,30.0,3.0,0.9
265,1610804,1745470207787,,,,,,,,,,,,,,,,,,,,,,,,,,,,,,,,,,0,0,0,0,0,0,0,0,0,0,0,0,0,0,0,0,,,,,,,,,,,,,
266,1610824,1745470207807,0.0,78.0,,-0.05,-0.01,0.98,1.0,0.0,0.0,0.99,1.15,86.0,2599.0,0.0,3.17,,13.23,1.21,89.8,,24.5,5.0,,,,,,,,,,,,0,0,0,0,0,0,0,0,0,0,0,0,0,0,0,0,,,,,,0.0,,,,,,,
267,1610844,1745470207827,,,,,,,,,,,,,,,,,,,,,,,,,,,,,,,,,,0,0,0,0,0,0,0,0,0,0,0,0,0,0,0,0,,,,,,,,,,,,,
268,1610864,1745470207847,0.0,78.0,,-0.05,0.0,1.0,0.0,0.0,0.0,1.0,1.15,87.0,2536.0,0.0,3.2,,13.24,1.214,89.8,,23.7,5.0,,,,,,,,,,,,0,0,0,0,0,0,0,0,0,0,0,0,0,0,0,0,,,,,,0.0,,,,,,,
269,1610884,1745470207867,,,,,,,,,,,,,,,,,,,,,,,0.0,0.0,0.0,0.0,0.0,0.0,0.0,0.0,2.27,,,0,0,0,0,0,0,0,0,0,0,0,0,0,0,0,0,,0.0,,,,,38.99379,-76.938782,0.08,25.4,30.0,3.0,0.9
270,1610904,1745470207887,0.0,78.0,,-0.05,-0.02,1.0,0.0,0.0,0.0,1.01,1.15,87.0,2504.0,0.0,3.21,,13.28,1.238,89.8,,23.7,5.0,,,,,,,,,,,,0,0,0,0,0,0,0,0,0,0,0,0,0,0,0,0,,,,,,0.0,,,,,,,
271,1610924,1745470207907,,,,,,,,,,,,,,,,,,,,,,,,,,,,,,,,,,0,0,0,0,0,0,0,0,0,0,0,0,0,0,0,0,,,,,,,,,,,,,
272,1610944,1745470207927,0.0,71.0,,-0.06,0.01,1.0,0.0,0.0,0.0,1.0,1.15,87.0,2451.0,0.0,3.24,,13.29,1.242,89.8,,23.7,5.0,,,,,,,,,,,,0,0,0,0,0,0,0,0,0,0,0,0,0,0,0,0,,,,,,0.0,,,,,,,
273,1610964,1745470207947,,,,,,,,,,,,,,,,,,,,,,,,,,,,,,,,,,0,0,0,0,0,0,0,0,0,0,0,0,0,0,0,0,,,,,,,,,,,,,
274,1610984,1745470207967,0.0,78.0,,-0.06,0.0,1.01,0.0,0.0,0.0,1.01,1.15,88.0,2384.0,0.0,3.27,,13.29,1.242,89.8,,22.7,5.0,0.0,0.0,0.0,0.0,0.0,0.0,0.0,0.0,2.28,,,0,0,0,0,0,0,0,0,0,0,0,0,0,0,0,0,,0.0,,,,0.0,38.99379,-76.938782,0.0,25.4,30.0,3.0,0.9
275,1611004,1745470207987,,,,,,,,,,,,,,,,,,,,,,,,,,,,,,,,,,0,0,0,0,0,0,0,0,0,0,0,0,0,0,0,0,,,,,,,,,,,,,
276,1611024,1745470208007,0.0,74.0,,-0.05,-0.02,0.99,1.0,0.0,0.0,0.99,1.15,86.0,2384.0,0.0,3.27,,13.37,1.249,89.8,,22.7,5.0,,,,,,,,,,,,0,0,0,0,0,0,0,0,0,0,0,0,0,0,0,0,,,,,,0.0,,,,,,,
277,1611044,1745470208019,,,,,,,,,,,,,,,,,,,,,,,,,,,,,,,,,,0,0,0,0,0,0,0,0,0,0,0,0,0,0,0,0,,,,,,,,,,,,,
278,1611064,1745470208039,0.0,85.0,,-0.05,-0.04,0.98,0.0,0.0,0.0,0.98,1.15,85.0,2358.0,0.0,3.3,,13.43,1.249,89.8,,22.0,5.0,,,,,,,,,,,,0,0,0,0,0,0,0,0,0,0,0,0,0,0,0,0,,,,,,0.0,,,,,,,
279,1611084,1745470208059,,,,,,,,,,,,,,,,,,,,,,,0.0,0.0,0.0,0.0,0.0,0.0,0.0,0.0,2.28,,,0,0,0,0,0,0,0,0,0,0,0,0,0,0,0,0,,0.0,,,,,38.99379,-76.938782,0.04,25.4,30.0,3.0,0.9
280,1611104,1745470208079,0.0,85.0,,-0.07,-0.02,0.98,0.0,0.0,0.0,0.98,1.15,85.0,2301.0,0.0,3.31,,13.49,1.25,89.8,,22.0,5.0,,,,,,,,,,,,0,0,0,0,0,0,0,0,0,0,0,0,0,0,0,0,,,,,,0.0,,,,,,,
281,1611124,1745470208107,,,,,,,,,,,,,,,,,,,,,,,,,,,,,,,,,,0,0,0,0,0,0,0,0,0,0,0,0,0,0,0,0,,,,,,,,,,,,,
282,1611144,1745470208127,0.0,85.0,,-0.07,-0.02,0.97,0.0,0.0,0.0,0.98,1.15,85.0,2213.0,0.0,3.3,,13.52,1.249,89.8,,22.0,5.0,,,,,,,,,,,,0,0,0,0,0,0,0,0,0,0,0,0,0,0,0,0,,,,,,0.0,,,,,,,
283,1611164,1745470208147,,,,,,,,,,,,,,,,,,,,,,,,,,,,,,,,,,0,0,0,0,0,0,0,0,0,0,0,0,0,0,0,0,,,,,,,,,,,,,
284,1611184,1745470208167,0.0,95.0,,-0.05,-0.03,0.98,0.0,0.0,0.0,0.98,1.15,86.0,2151.0,0.0,3.34,,13.52,1.249,89.8,,20.7,5.0,0.0,0.0,0.0,0.0,0.0,0.0,0.0,0.0,2.27,,,0,0,0,0,0,0,0,0,0,0,0,0,0,0,0,0,,0.0,,,,0.0,38.99379,-76.938782,0.11,25.4,30.0,3.0,0.9
285,1611204,1745470208187,,,,,,,,,,,,,,,,,,,,,,,,,,,,,,,,,,0,0,0,0,0,0,0,0,0,0,0,0,0,0,0,0,,,,,,,,,,,,,
286,1611224,1745470208207,0.0,71.0,,-0.04,-0.01,0.99,0.0,0.0,0.0,0.99,1.15,86.0,2151.0,0.0,3.34,,13.67,1.249,89.8,,20.7,5.0,,,,,,,,,,,,0,0,0,0,0,0,0,0,0,0,0,0,0,0,0,0,,,,,,0.0,,,,,,,
287,1611244,1745470208227,,,,,,,,,,,,,,,,,,,,,,,,,,,,,,,,,,0,0,0,0,0,0,0,0,0,0,0,0,0,0,0,0,,,,,,,,,,,,,
288,1611264,1745470208247,0.0,85.0,,-0.04,-0.02,0.98,0.0,0.0,0.0,0.98,1.15,85.0,2060.0,0.0,3.37,,13.65,1.25,89.8,,20.3,5.0,,,,,,,,,,,,0,0,0,0,0,0,0,0,0,0,0,0,0,0,0,0,,,,,,0.0,,,,,,,
289,1611284,1745470208267,,,,,,,,,,,,,,,,,,,,,,,0.0,0.0,0.0,0.0,0.0,0.0,0.0,0.0,2.27,,,0,0,0,0,0,0,0,0,0,0,0,0,0,0,0,0,,0.0,,,,,38.99379,-76.938782,0.04,25.4,30.0,3.0,0.9
290,1611304,1745470208287,0.0,85.0,,-0.04,-0.01,0.97,0.0,0.0,0.0,0.97,1.15,85.0,2023.0,0.0,3.41,,13.75,1.248,89.8,,20.3,5.0,,,,,,,,,,,,0,0,0,0,0,0,0,0,0,0,0,0,0,0,0,0,,,,,,0.0,,,,,,,
291,1611324,1745470208307,,,,,,,,,,,,,,,,,,,,,,,,,,,,,,,,,,0,0,0,0,0,0,0,0,0,0,0,0,0,0,0,0,,,,,,,,,,,,,
292,1611344,1745470208327,0.0,74.0,,-0.02,-0.01,0.98,0.0,0.0,0.0,0.98,1.15,86.0,2072.0,0.0,3.44,,13.71,1.25,89.8,,20.3,5.0,,,,,,,,,,,,0,0,0,0,0,0,0,0,0,0,0,0,0,0,0,0,,,,,,0.0,,,,,,,
293,1611364,1745470208347,,,,,,,,,,,,,,,,,,,,,,,,,,,,,,,,,,0,0,0,0,0,0,0,0,0,0,0,0,0,0,0,0,,,,,,,,,,,,,
294,1611384,1745470208367,0.0,95.0,13.68,-0.03,-0.01,0.98,0.0,0.0,0.0,0.98,1.15,85.0,2007.0,0.0,3.46,15.0,13.71,1.25,89.8,171.0,19.3,5.0,0.0,0.0,0.0,0.0,0.0,0.0,0.0,0.0,2.27,0.0,1.0,0,0,0,0,0,0,0,0,0,0,0,0,0,0,0,0,0.0,0.0,1.0,0.0,0.0,0.0,38.99379,-76.938782,0.04,25.4,30.0,3.0,0.9
295,1611404,1745470208387,,,,,,,,,,,,,,,,,,,,,,,,,,,,,,,,,,0,0,0,0,0,0,0,0,0,0,0,0,0,0,0,0,,,,,,,,,,,,,
296,1611424,1745470208406,0.0,85.0,,-0.03,0.01,0.98,0.0,0.0,0.0,0.98,1.15,85.0,2007.0,0.0,3.46,,13.77,1.249,89.8,,19.3,5.0,,,,,,,,,,,,0,0,0,0,0,0,0,0,0,0,0,0,0,0,0,0,,,,,,0.0,,,,,,,
297,1611444,1745470208426,,,,,,,,,,,,,,,,,,,,,,,,,,,,,,,,,,0,0,0,0,0,0,0,0,0,0,0,0,0,0,0,0,,,,,,,,,,,,,
298,1611464,1745470208446,0.0,98.0,,-0.03,0.01,0.97,0.0,0.0,0.0,0.98,1.15,85.0,1978.0,0.0,3.46,,13.88,1.249,89.8,,19.0,5.0,,,,,,,,,,,,0,0,0,0,0,0,0,0,0,0,0,0,0,0,0,0,,,,,,0.0,,,,,,,
299,1611484,1745470208466,,,,,,,,,,,,,,,,,,,,,,,0.0,0.0,0.0,0.0,0.0,0.0,0.0,0.0,2.28,,,0,0,0,0,0,0,0,0,0,0,0,0,0,0,0,0,,0.0,,,,,38.99379,-76.938782,0.06,25.4,30.0,3.0,0.9
300,1611504,1745470208486,0.0,88.0,,-0.03,0.0,0.97,0.0,0.0,0.0,0.97,1.15,84.0,1904.0,0.0,3.46,,13.95,1.249,89.8,,19.0,5.0,,,,,,,,,,,,0,0,0,0,0,0,0,0,0,0,0,0,0,0,0,0,,,,,,0.0,,,,,,,
301,1611524,1745470208508,,,,,,,,,,,,,,,,,,,,,,,,,,,,,,,,,,0,0,0,0,0,0,0,0,0,0,0,0,0,0,0,0,,,,,,,,,,,,,
302,1611544,1745470208528,0.0,74.0,,-0.03,-0.0,0.97,0.0,0.0,0.0,0.98,1.15,85.0,1828.0,0.0,3.48,,13.95,1.249,89.8,,19.0,5.0,,,,,,,,,,,,0,0,0,0,0,0,0,0,0,0,0,0,0,0,0,0,,,,,,0.0,,,,,,,
303,1611564,1745470208548,,,,,,,,,,,,,,,,,,,,,,,,,,,,,,,,,,0,0,0,0,0,0,0,0,0,0,0,0,0,0,0,0,,,,,,,,,,,,,
304,1611584,1745470208568,0.0,81.0,,-0.05,-0.01,0.99,0.0,0.0,0.0,0.99,1.15,86.0,1888.0,0.0,3.48,,13.95,1.249,89.8,,18.4,5.0,0.0,0.0,0.0,0.0,0.0,0.0,0.0,0.0,2.28,,,0,0,0,0,0,0,0,0,0,0,0,0,0,0,0,0,,0.0,,,,0.0,38.99379,-76.938782,0.16,25.4,30.0,3.0,0.9
305,1611604,1745470208588,,,,,,,,,,,,,,,,,,,,,,,,,,,,,,,,,,0,0,0,0,0,0,0,0,0,0,0,0,0,0,0,0,,,,,,,,,,,,,
306,1611624,1745470208606,0.0,68.0,,-0.06,0.02,0.98,0.0,0.0,0.0,0.98,1.15,85.0,1888.0,0.0,3.48,,13.95,1.25,89.8,,18.4,5.0,,,,,,,,,,,,0,0,0,0,0,0,0,0,0,0,0,0,0,0,0,0,,,,,,0.0,,,,,,,
307,1611644,1745470208626,,,,,,,,,,,,,,,,,,,,,,,,,,,,,,,,,,0,0,0,0,0,0,0,0,0,0,0,0,0,0,0,0,,,,,,,,,,,,,
308,1611664,1745470208646,0.0,74.0,,-0.04,0.03,0.98,1.0,0.0,0.0,0.98,1.15,85.0,1767.0,0.0,3.49,,14.04,1.252,89.8,,16.5,5.0,,,,,,,,,,,,0,0,0,0,0,0,0,0,0,0,0,0,0,0,0,0,,,,,,0.0,,,,,,,
309,1611684,1745470208666,,,,,,,,,,,,,,,,,,,,,,,0.0,0.0,0.0,0.0,0.0,0.0,0.0,0.0,2.27,,,0,0,0,0,0,0,0,0,0,0,0,0,0,0,0,0,,0.0,,,,,38.99379,-76.938782,0.46,25.4,30.0,3.0,0.9
310,1611704,1745470208686,0.0,71.0,,-0.03,0.01,1.0,0.0,0.0,0.0,1.0,1.15,87.0,1673.0,0.0,3.49,,14.18,1.251,89.8,,16.5,5.0,,,,,,,,,,,,0,0,0,0,0,0,0,0,0,0,0,0,0,0,0,0,,,,,,0.0,,,,,,,
311,1611724,1745470208708,,,,,,,,,,,,,,,,,,,,,,,,,,,,,,,,,,0,0,0,0,0,0,0,0,0,0,0,0,0,0,0,0,,,,,,,,,,,,,
312,1611744,1745470208728,0.0,88.0,,-0.06,-0.0,0.99,0.0,0.0,0.0,0.99,1.15,86.0,1605.0,0.0,3.5,,14.03,1.251,89.8,,16.5,5.0,,,,,,,,,,,,0,0,0,0,0,0,0,0,0,0,0,0,0,0,0,0,,,,,,0.0,,,,,,,
313,1611764,1745470208748,,,,,,,,,,,,,,,,,,,,,,,,,,,,,,,,,,0,0,0,0,0,0,0,0,0,0,0,0,0,0,0,0,,,,,,,,,,,,,
314,1611784,1745470208768,0.0,95.0,,-0.09,-0.01,0.98,0.0,0.0,0.0,0.98,1.15,85.0,1572.0,0.0,3.51,,14.03,1.251,89.8,,15.7,5.0,0.0,0.0,0.0,0.0,0.0,0.0,0.0,0.0,2.27,,,0,0,0,0,0,0,0,0,0,0,0,0,0,0,0,0,,0.0,,,,0.0,38.99379,-76.938782,0.04,25.4,30.0,3.0,0.9
315,1611804,1745470208788,,,,,,,,,,,,,,,,,,,,,,,,,,,,,,,,,,0,0,0,0,0,0,0,0,0,0,0,0,0,0,0,0,,,,,,,,,,,,,
316,1611824,1745470208806,0.0,88.0,,-0.12,0.02,0.96,0.0,0.0,0.0,0.96,1.15,84.0,1572.0,0.0,3.51,,14.12,1.233,89.8,,15.7,5.0,,,,,,,,,,,,0,0,0,0,0,0,0,0,0,0,0,0,0,0,0,0,,,,,,0.0,,,,,,,
317,1611844,1745470208826,,,,,,,,,,,,,,,,,,,,,,,,,,,,,,,,,,0,0,0,0,0,0,0,0,0,0,0,0,0,0,0,0,,,,,,,,,,,,,
318,1611864,1745470208846,0.0,91.0,,-0.11,0.02,0.94,0.0,0.0,0.0,0.94,1.15,82.0,1512.0,0.0,3.52,,14.22,1.231,89.8,,16.3,5.0,,,,,,,,,,,,0,0,0,0,0,0,0,0,0,0,0,0,0,0,0,0,,,,,,0.0,,,,,,,
319,1611884,1745470208866,,,,,,,,,,,,,,,,,,,,,,,0.0,0.0,0.0,0.0,0.0,0.0,0.0,0.0,2.27,,,0,0,0,0,0,0,0,0,0,0,0,0,0,0,0,0,,0.0,,,,,38.99379,-76.938782,0.41,25.4,30.0,3.0,0.9
320,1611904,1745470208886,0.0,85.0,,-0.1,0.01,0.91,0.0,0.0,0.0,0.92,1.15,80.0,1676.0,0.0,3.52,,14.08,1.243,89.8,,16.3,5.0,,,,,,,,,,,,0,0,0,0,0,0,0,0,0,0,0,0,0,0,0,0,,,,,,0.0,,,,,,,
321,1611924,1745470208906,,,,,,,,,,,,,,,,,,,,,,,,,,,,,,,,,,0,0,0,0,0,0,0,0,0,0,0,0,0,0,0,0,,,,,,,,,,,,,
322,1611944,1745470208926,0.0,71.0,,-0.07,0.02,0.94,-1.0,-1.0,0.0,0.94,1.15,82.0,1516.0,0.0,3.52,,14.22,1.224,89.8,,16.3,5.0,,,,,,,,,,,,0,0,0,0,0,0,0,0,0,0,0,0,0,0,0,0,,,,,,0.0,,,,,,,
323,1611964,1745470208946,,,,,,,,,,,,,,,,,,,,,,,,,,,,,,,,,,0,0,0,0,0,0,0,0,0,0,0,0,0,0,0,0,,,,,,,,,,,,,
324,1611984,1745470208966,0.0,85.0,,-0.06,0.01,0.95,-1.0,0.0,0.0,0.96,1.15,83.0,1742.0,0.0,3.52,,14.22,1.224,89.8,,16.8,5.0,0.0,0.0,0.0,0.0,0.0,0.0,0.0,0.0,2.28,,,0,0,0,0,0,0,0,0,0,0,0,0,0,0,0,0,,0.0,,,,0.0,38.99379,-76.938782,0.32,25.4,30.0,3.0,0.9
325,1612004,1745470208986,,,,,,,,,,,,,,,,,,,,,,,,,,,,,,,,,,0,0,0,0,0,0,0,0,0,0,0,0,0,0,0,0,,,,,,,,,,,,,
326,1612024,1745470209006,0.0,74.0,,-0.04,0.03,0.97,0.0,0.0,0.0,0.97,1.15,84.0,1742.0,0.0,3.52,,14.1,1.234,89.8,,16.8,5.0,,,,,,,,,,,,0,0,0,0,0,0,0,0,0,0,0,0,0,0,0,0,,,,,,0.0,,,,,,,
327,1612044,1745470209020,,,,,,,,,,,,,,,,,,,,,,,,,,,,,,,,,,0,0,0,0,0,0,0,0,0,0,0,0,0,0,0,0,,,,,,,,,,,,,
328,1612064,1745470209040,0.0,85.0,,-0.04,0.01,0.96,0.0,0.0,0.0,0.96,1.15,84.0,1930.0,0.0,3.47,,13.94,1.185,89.8,,20.1,5.0,,,,,,,,,,,,0,0,0,0,0,0,0,0,0,0,0,0,0,0,0,0,,,,,,0.0,,,,,,,
329,1612084,1745470209060,,,,,,,,,,,,,,,,,,,,,,,0.0,0.0,0.0,0.0,0.0,0.0,0.0,0.0,2.28,,,0,0,0,0,0,0,0,0,0,0,0,0,0,0,0,0,,0.0,,,,,38.99379,-76.938782,0.08,25.4,30.0,3.0,0.9
330,1612104,1745470209080,0.0,102.0,,-0.04,0.03,0.97,0.0,0.0,0.0,0.97,1.15,84.0,2193.0,0.0,3.41,,13.84,1.076,89.8,,20.1,5.0,,,,,,,,,,,,0,0,0,0,0,0,0,0,0,0,0,0,0,0,0,0,,,,,,0.0,,,,,,,
331,1612124,1745470209107,,,,,,,,,,,,,,,,,,,,,,,,,,,,,,,,,,0,0,0,0,0,0,0,0,0,0,0,0,0,0,0,0,,,,,,,,,,,,,
332,1612144,1745470209127,0.0,88.0,,-0.06,0.05,0.97,0.0,0.0,0.0,0.97,1.15,85.0,2220.0,0.0,3.32,,13.79,0.997,89.8,,20.1,5.0,,,,,,,,,,,,0,0,0,0,0,0,0,0,0,0,0,0,0,0,0,0,,,,,,0.0,,,,,,,
333,1612164,1745470209147,,,,,,,,,,,,,,,,,,,,,,,,,,,,,,,,,,0,0,0,0,0,0,0,0,0,0,0,0,0,0,0,0,,,,,,,,,,,,,
334,1612184,1745470209167,0.0,95.0,,-0.06,0.05,0.96,0.0,0.0,0.0,0.96,1.15,84.0,2237.0,0.0,3.31,,13.79,0.997,89.8,,21.7,5.0,0.0,0.0,0.0,0.0,0.0,0.0,0.0,0.0,2.27,,,0,0,0,0,0,0,0,0,0,0,0,0,0,0,0,0,,0.0,,,,0.0,38.99379,-76.938782,0.3,25.4,30.0,3.0,0.9
335,1612204,1745470209187,,,,,,,,,,,,,,,,,,,,,,,,,,,,,,,,,,0,0,0,0,0,0,0,0,0,0,0,0,0,0,0,0,,,,,,,,,,,,,
336,1612224,1745470209204,0.0,81.0,,-0.06,0.08,0.96,0.0,0.0,0.0,0.97,1.15,84.0,2237.0,0.0,3.31,,13.73,0.966,89.8,,21.7,5.0,,,,,,,,,,,,0,0,0,0,0,0,0,0,0,0,0,0,0,0,0,0,,,,,,0.0,,,,,,,
337,1612244,1745470209224,,,,,,,,,,,,,,,,,,,,,,,,,,,,,,,,,,0,0,0,0,0,0,0,0,0,0,0,0,0,0,0,0,,,,,,,,,,,,,
338,1612264,1745470209244,0.0,81.0,,-0.06,0.07,0.97,0.0,0.0,0.0,0.98,1.15,85.0,2409.0,0.0,3.31,,13.67,0.972,89.8,,24.1,5.0,,,,,,,,,,,,0,0,0,0,0,0,0,0,0,0,0,0,0,0,0,0,,,,,,0.0,,,,,,,
339,1612284,1745470209264,,,,,,,,,,,,,,,,,,,,,,,0.0,0.0,0.0,0.0,0.0,0.0,0.0,0.0,2.27,,,0,0,0,0,0,0,0,0,0,0,0,0,0,0,0,0,,0.0,,,,,38.99379,-76.938782,0.28,25.4,30.0,3.0,0.9
340,1612304,1745470209284,0.0,78.0,,-0.06,0.06,0.96,0.0,0.0,0.0,0.96,1.15,84.0,2590.0,0.0,3.19,,13.47,0.995,89.8,,24.1,5.0,,,,,,,,,,,,0,0,0,0,0,0,0,0,0,0,0,0,0,0,0,0,,,,,,0.0,,,,,,,
341,1612324,1745470209306,,,,,,,,,,,,,,,,,,,,,,,,,,,,,,,,,,0,0,0,0,0,0,0,0,0,0,0,0,0,0,0,0,,,,,,,,,,,,,
342,1612344,1745470209326,0.0,74.0,,-0.06,0.05,0.98,0.0,0.0,0.0,0.98,1.15,86.0,2611.0,0.0,3.14,,13.33,1.027,89.8,,24.1,5.0,,,,,,,,,,,,0,0,0,0,0,0,0,0,0,0,0,0,0,0,0,0,,,,,,0.0,,,,,,,
343,1612364,1745470209346,,,,,,,,,,,,,,,,,,,,,,,,,,,,,,,,,,0,0,0,0,0,0,0,0,0,0,0,0,0,0,0,0,,,,,,,,,,,,,
344,1612384,1745470209366,0.0,81.0,13.68,-0.07,0.05,0.99,1.0,0.0,0.0,0.99,1.15,86.0,2563.0,0.0,3.15,15.0,13.33,1.027,89.8,171.0,25.0,5.0,0.0,0.0,0.0,0.0,0.0,0.0,0.0,0.0,2.28,0.0,1.0,0,0,0,0,0,0,0,0,0,0,0,0,0,0,0,0,0.0,0.0,1.0,0.0,0.0,0.0,38.99379,-76.938782,0.15,25.4,30.0,3.0,0.9
345,1612404,1745470209386,,,,,,,,,,,,,,,,,,,,,,,,,,,,,,,,,,0,0,0,0,0,0,0,0,0,0,0,0,0,0,0,0,,,,,,,,,,,,,
346,1612424,1745470209407,0.0,81.0,,-0.06,0.05,0.97,0.0,0.0,0.0,0.98,1.15,85.0,2563.0,0.0,3.15,,13.32,1.066,89.8,,25.0,5.0,,,,,,,,,,,,0,0,0,0,0,0,0,0,0,0,0,0,0,0,0,0,,,,,,0.0,,,,,,,
347,1612444,1745470209427,,,,,,,,,,,,,,,,,,,,,,,,,,,,,,,,,,0,0,0,0,0,0,0,0,0,0,0,0,0,0,0,0,,,,,,,,,,,,,
348,1612464,1745470209447,0.0,88.0,,-0.07,0.04,0.99,0.0,0.0,0.0,1.0,1.15,87.0,2527.0,0.0,3.17,,13.33,1.114,89.8,,24.1,5.0,,,,,,,,,,,,0,0,0,0,0,0,0,0,0,0,0,0,0,0,0,0,,,,,,0.0,,,,,,,
349,1612484,1745470209467,,,,,,,,,,,,,,,,,,,,,,,0.0,0.0,0.0,0.0,0.0,0.0,0.0,0.0,2.28,,,0,0,0,0,0,0,0,0,0,0,0,0,0,0,0,0,,0.0,,,,,38.99379,-76.938782,0.05,25.4,30.0,3.0,0.9
350,1612504,1745470209487,0.0,98.0,,-0.07,0.04,0.99,0.0,0.0,0.0,0.99,1.15,86.0,2490.0,0.0,3.19,,13.32,1.144,89.8,,24.1,5.0,,,,,,,,,,,,0,0,0,0,0,0,0,0,0,0,0,0,0,0,0,0,,,,,,0.0,,,,,,,
351,1612524,1745470209507,,,,,,,,,,,,,,,,,,,,,,,,,,,,,,,,,,0,0,0,0,0,0,0,0,0,0,0,0,0,0,0,0,,,,,,,,,,,,,
352,1612544,1745470209527,0.0,91.0,,-0.08,0.04,1.0,0.0,0.0,0.0,1.01,1.15,88.0,2408.0,0.0,3.22,,13.37,1.155,89.8,,24.1,5.0,,,,,,,,,,,,0,0,0,0,0,0,0,0,0,0,0,0,0,0,0,0,,,,,,0.0,,,,,,,
353,1612564,1745470209547,,,,,,,,,,,,,,,,,,,,,,,,,,,,,,,,,,0,0,0,0,0,0,0,0,0,0,0,0,0,0,0,0,,,,,,,,,,,,,
354,1612584,1745470209567,0.0,81.0,,-0.07,0.03,0.98,0.0,0.0,0.0,0.99,1.15,86.0,2371.0,0.0,3.24,,13.37,1.155,89.8,,22.8,5.0,0.0,0.0,0.0,0.0,0.0,0.0,0.0,0.0,2.27,,,0,0,0,0,0,0,0,0,0,0,0,0,0,0,0,0,,0.0,,,,0.0,38.99379,-76.938782,0.12,25.4,30.0,3.0,0.9
355,1612604,1745470209587,,,,,,,,,,,,,,,,,,,,,,,,,,,,,,,,,,0,0,0,0,0,0,0,0,0,0,0,0,0,0,0,0,,,,,,,,,,,,,
356,1612624,1745470209607,0.0,78.0,,-0.08,0.04,1.0,0.0,0.0,0.0,1.0,1.15,87.0,2371.0,0.0,3.24,,13.41,1.165,89.8,,22.8,5.0,,,,,,,,,,,,0,0,0,0,0,0,0,0,0,0,0,0,0,0,0,0,,,,,,0.0,,,,,,,
357,1612644,1745470209627,,,,,,,,,,,,,,,,,,,,,,,,,,,,,,,,,,0,0,0,0,0,0,0,0,0,0,0,0,0,0,0,0,,,,,,,,,,,,,
358,1612664,1745470209647,0.0,85.0,,-0.09,0.03,1.02,0.0,0.0,0.0,1.02,1.15,89.0,2341.0,0.0,3.26,,13.47,1.204,89.8,,22.0,5.0,,,,,,,,,,,,0,0,0,0,0,0,0,0,0,0,0,0,0,0,0,0,,,,,,0.0,,,,,,,
359,1612684,1745470209667,,,,,,,,,,,,,,,,,,,,,,,0.0,0.0,0.0,0.0,0.0,0.0,0.0,0.0,2.26,,,0,0,0,0,0,0,0,0,0,0,0,0,0,0,0,0,,0.0,,,,,38.99379,-76.938782,0.04,25.4,30.0,3.0,0.9
360,1612704,1745470209687,0.0,78.0,,-0.08,0.02,1.02,0.0,0.0,0.0,1.02,1.15,89.0,2293.0,0.0,3.27,,13.56,1.233,89.8,,22.0,5.0,,,,,,,,,,,,0,0,0,0,0,0,0,0,0,0,0,0,0,0,0,0,,,,,,0.0,,,,,,,
361,1612724,1745470209707,,,,,,,,,,,,,,,,,,,,,,,,,,,,,,,,,,0,0,0,0,0,0,0,0,0,0,0,0,0,0,0,0,,,,,,,,,,,,,
362,1612744,1745470209727,0.0,95.0,,-0.06,-0.0,1.01,0.0,0.0,0.0,1.02,1.15,88.0,2252.0,0.0,3.29,,13.6,1.247,89.8,,22.0,5.0,,,,,,,,,,,,0,0,0,0,0,0,0,0,0,0,0,0,0,0,0,0,,,,,,0.0,,,,,,,
363,1612764,1745470209747,,,,,,,,,,,,,,,,,,,,,,,,,,,,,,,,,,0,0,0,0,0,0,0,0,0,0,0,0,0,0,0,0,,,,,,,,,,,,,
364,1612784,1745470209767,0.0,98.0,,-0.06,-0.03,1.01,0.0,0.0,0.0,1.01,1.15,88.0,2238.0,0.0,3.31,,13.6,1.247,89.8,,21.9,5.0,0.0,0.0,0.0,0.0,0.0,0.0,0.0,0.0,2.26,,,0,0,0,0,0,0,0,0,0,0,0,0,0,0,0,0,,0.0,,,,0.0,38.99379,-76.938782,0.04,25.4,30.0,3.0,0.9
365,1612804,1745470209787,,,,,,,,,,,,,,,,,,,,,,,,,,,,,,,,,,0,0,0,0,0,0,0,0,0,0,0,0,0,0,0,0,,,,,,,,,,,,,
366,1612824,1745470209807,0.0,91.0,,-0.05,-0.05,0.99,0.0,0.0,0.0,1.0,1.15,87.0,2238.0,0.0,3.31,,13.59,1.244,89.8,,21.9,5.0,,,,,,,,,,,,0,0,0,0,0,0,0,0,0,0,0,0,0,0,0,0,,,,,,0.0,,,,,,,
367,1612844,1745470209827,,,,,,,,,,,,,,,,,,,,,,,,,,,,,,,,,,0,0,0,0,0,0,0,0,0,0,0,0,0,0,0,0,,,,,,,,,,,,,
368,1612864,1745470209847,0.0,95.0,,-0.04,-0.07,0.98,0.0,0.0,0.0,0.99,1.15,86.0,2243.0,0.0,3.3,,13.57,1.245,89.8,,21.6,5.0,,,,,,,,,,,,0,0,0,0,0,0,0,0,0,0,0,0,0,0,0,0,,,,,,0.0,,,,,,,
369,1612884,1745470209867,,,,,,,,,,,,,,,,,,,,,,,0.0,0.0,0.0,0.0,0.0,0.0,0.0,0.0,2.28,,,0,0,0,0,0,0,0,0,0,0,0,0,0,0,0,0,,0.0,,,,,38.99379,-76.938782,0.05,25.4,30.0,3.0,0.9
370,1612904,1745470209887,0.0,88.0,,-0.03,-0.08,1.0,0.0,0.0,0.0,1.0,1.15,87.0,2146.0,0.0,3.34,,13.65,1.247,89.8,,21.6,5.0,,,,,,,,,,,,0,0,0,0,0,0,0,0,0,0,0,0,0,0,0,0,,,,,,0.0,,,,,,,
371,1612924,1745470209908,,,,,,,,,,,,,,,,,,,,,,,,,,,,,,,,,,0,0,0,0,0,0,0,0,0,0,0,0,0,0,0,0,,,,,,,,,,,,,
372,1612944,1745470209928,0.0,81.0,,-0.06,-0.05,1.0,0.0,0.0,0.0,1.0,1.15,87.0,2123.0,0.0,3.37,,13.65,1.249,89.8,,21.6,5.0,,,,,,,,,,,,0,0,0,0,0,0,0,0,0,0,0,0,0,0,0,0,,,,,,0.0,,,,,,,
373,1612964,1745470209948,,,,,,,,,,,,,,,,,,,,,,,,,,,,,,,,,,0,0,0,0,0,0,0,0,0,0,0,0,0,0,0,0,,,,,,,,,,,,,
374,1612984,1745470209968,0.0,78.0,,-0.07,-0.05,1.01,0.0,0.0,0.0,1.02,1.15,88.0,2139.0,0.0,3.41,,13.65,1.249,89.8,,20.9,5.0,0.0,0.0,0.0,0.0,0.0,0.0,0.0,0.0,2.28,,,0,0,0,0,0,0,0,0,0,0,0,0,0,0,0,0,,0.0,,,,0.0,38.99379,-76.938782,0.11,25.4,30.0,3.0,0.9
375,1613004,1745470209988,,,,,,,,,,,,,,,,,,,,,,,,,,,,,,,,,,0,0,0,0,0,0,0,0,0,0,0,0,0,0,0,0,,,,,,,,,,,,,
376,1613024,1745470210001,0.0,81.0,,-0.07,-0.04,1.02,0.0,0.0,0.0,1.03,1.15,89.0,2139.0,0.0,3.41,,13.71,1.249,89.8,,20.9,5.0,,,,,,,,,,,,0,0,0,0,0,0,0,0,0,0,0,0,0,0,0,0,,,,,,0.0,,,,,,,
377,1613044,1745470210021,,,,,,,,,,,,,,,,,,,,,,,,,,,,,,,,,,0,0,0,0,0,0,0,0,0,0,0,0,0,0,0,0,,,,,,,,,,,,,
378,1613064,1745470210041,0.0,85.0,,-0.07,-0.04,1.01,0.0,0.0,0.0,1.01,1.15,88.0,2086.0,0.0,3.42,,13.72,1.25,89.8,,19.3,5.0,,,,,,,,,,,,0,0,0,0,0,0,0,0,0,0,0,0,0,0,0,0,,,,,,0.0,,,,,,,
