,Interval,Utc,FrontBP,SteerAng,Battery,AccelX,AccelY,AccelZ,Yaw,Pitch,Roll,Gsum,GsumMax,GsumPct,RPM,TPS,InjectorPW,Baro,MAP,Lambda,IAT,EngineTemp,EOP,EOT,WSFR,WSFL,WSRR,WSRL,TCSet,TCSlip,TCComp,TCCut,Analog8,OilTemp,AA_On,ThermLF1,ThermLF2,ThermRR1,ThermRR2,ThermLF3,ThermLF4,ThermLF5,ThermLF6,ThermLF7,ThermLF8,ThermRR3,ThermRR4,ThermRR5,ThermRR6,ThermRR7,ThermRR8,AA_LowDrag,Gear,AA_On1,AA_LowDrag1,Fuel_Mix,AA_Packages,Latitude,Longitude,Speed,Altitude,GPSSats,GPSQual,GPSDOP
0,2113404,1745470710389,,,,,,,,,,,,,,,,,,,,,,,,,,,,,,,,,,0,0,0,0,0,0,0,0,0,0,0,0,0,0,0,0,,,,,,,,,,,,,
1,2113424,1745470710409,0.0,51.0,,-0.03,-0.28,0.87,1.0,0.0,0.0,0.92,0.92,100.0,9550.0,0.2,1.4,,6.79,0.844,86.2,,56.9,5.0,,,,,,,,,,,,0,0,0,0,0,0,0,0,0,0,0,0,0,0,0,0,,,,,,0.0,,,,,,,
2,2113444,1745470710429,,,,,,,,,,,,,,,,,,,,,,,,,,,,,,,,,,0,0,0,0,0,0,0,0,0,0,0,0,0,0,0,0,,,,,,,,,,,,,
3,2113464,1745470710449,0.0,57.0,,-0.05,-0.28,0.84,0.0,0.0,0.0,0.89,0.92,96.0,9580.0,0.2,1.4,,6.79,0.844,86.2,,56.9,5.0,,,,,,,,,,,,0,0,0,0,0,0,0,0,0,0,0,0,0,0,0,0,,,,,,0.0,,,,,,,
4,2113484,1745470710469,,,,,,,,,,,,,,,,,,,,,,,0.0,0.0,0.0,0.0,0.0,0.0,0.0,0.0,2.27,,,0,0,0,0,0,0,0,0,0,0,0,0,0,0,0,0,,0.0,,,,,38.993794,-76.938789,0.0,25.5,30.0,3.0,0.1
5,2113504,1745470710489,0.0,68.0,,-0.02,-0.16,0.86,0.0,0.0,-1.0,0.87,0.92,95.0,9580.0,0.2,1.4,,6.18,0.946,86.2,,53.6,5.0,,,,,,,,,,,,0,0,0,0,0,0,0,0,0,0,0,0,0,0,0,0,,,,,,0.0,,,,,,,
6,2113524,1745470710511,,,,,,,,,,,,,,,,,,,,,,,,,,,,,,,,,,0,0,0,0,0,0,0,0,0,0,0,0,0,0,0,0,,,,,,,,,,,,,
7,2113544,1745470710531,0.0,47.0,,-0.03,-0.14,0.9,0.0,0.0,0.0,0.91,0.92,99.0,9521.0,0.0,1.4,,5.76,0.997,86.2,,53.6,5.0,,,,,,,,,,,,0,0,0,0,0,0,0,0,0,0,0,0,0,0,0,0,,,,,,0.0,,,,,,,
8,2113564,1745470710551,,,,,,,,,,,,,,,,,,,,,,,,,,,,,,,,,,0,0,0,0,0,0,0,0,0,0,0,0,0,0,0,0,,,,,,,,,,,,,
9,2113584,1745470710571,0.0,47.0,,-0.04,-0.14,0.88,0.0,0.0,0.0,0.89,0.92,97.0,9461.0,6.4,1.67,,5.96,1.011,86.2,,53.6,5.0,0.0,0.0,0.0,0.0,0.0,0.0,0.0,0.0,2.27,,,0,0,0,0,0,0,0,0,0,0,0,0,0,0,0,0,,0.0,,,,0.0,38.993794,-76.938789,0.0,25.5,30.0,3.0,0.1
10,2113604,1745470710591,,,,,,,,,,,,,,,,,,,,,,,,,,,,,,,,,,0,0,0,0,0,0,0,0,0,0,0,0,0,0,0,0,,,,,,,,,,,,,
11,2113624,1745470710609,0.0,54.0,,-0.02,-0.12,0.9,0.0,0.0,0.0,0.91,0.92,99.0,9623.0,44.3,3.25,,9.33,1.014,86.2,,53.6,5.0,,,,,,,,,,,,0,0,0,0,0,0,0,0,0,0,0,0,0,0,0,0,,,,,,0.0,,,,,,,
12,2113644,1745470710629,,,,,,,,,,,,,,,,,,,,,,,,,,,,,,,,,,0,0,0,0,0,0,0,0,0,0,0,0,0,0,0,0,,,,,,,,,,,,,
13,2113664,1745470710649,0.0,57.0,,-0.03,-0.07,0.89,0.0,0.0,0.0,0.89,0.92,97.0,10153.0,60.7,4.63,,9.33,1.014,84.4,,53.6,5.0,,,,,,,,,,,,0,0,0,0,0,0,0,0,0,0,0,0,0,0,0,0,,,,,,0.0,,,,,,,
14,2113684,1745470710669,,,,,,,,,,,,,,,,,,,,,,,0.0,0.0,0.0,0.0,0.0,0.0,0.0,0.0,2.27,,,0,0,0,0,0,0,0,0,0,0,0,0,0,0,0,0,,0.0,,,,,38.993794,-76.938789,0.0,25.5,30.0,3.0,0.1
15,2113704,1745470710689,0.0,57.0,,-0.07,-0.36,0.97,1.0,-1.0,1.0,1.03,1.03,100.0,10153.0,60.7,4.63,,11.61,1.037,84.4,,54.9,5.0,,,,,,,,,,,,0,0,0,0,0,0,0,0,0,0,0,0,0,0,0,0,,,,,,0.0,,,,,,,
16,2113724,1745470710711,,,,,,,,,,,,,,,,,,,,,,,,,,,,,,,,,,0,0,0,0,0,0,0,0,0,0,0,0,0,0,0,0,,,,,,,,,,,,,
17,2113744,1745470710731,0.0,64.0,,-0.04,-0.39,1.03,2.0,0.0,1.0,1.1,1.1,100.0,11317.0,64.1,4.55,,12.88,1.078,84.4,,54.9,5.0,,,,,,,,,,,,0,0,0,0,0,0,0,0,0,0,0,0,0,0,0,0,,,,,,0.0,,,,,,,
18,2113764,1745470710751,,,,,,,,,,,,,,,,,,,,,,,,,,,,,,,,,,0,0,0,0,0,0,0,0,0,0,0,0,0,0,0,0,,,,,,,,,,,,,
19,2113784,1745470710771,0.0,91.0,,-0.03,-0.29,0.97,1.0,0.0,1.0,1.01,1.1,92.0,12701.0,40.7,4.14,,11.83,0.957,84.4,,54.9,5.0,0.0,0.0,0.0,0.0,0.0,0.0,0.0,0.0,2.26,,,0,0,0,0,0,0,0,0,0,0,0,0,0,0,0,0,,0.0,,,,0.0,38.993794,-76.938789,0.0,25.5,30.0,3.0,0.1
20,2113804,1745470710791,,,,,,,,,,,,,,,,,,,,,,,,,,,,,,,,,,0,0,0,0,0,0,0,0,0,0,0,0,0,0,0,0,,,,,,,,,,,,,
21,2113824,1745470710811,0.0,64.0,,-0.07,-0.46,0.96,1.0,0.0,1.0,1.06,1.1,97.0,13595.0,6.8,2.48,,11.83,0.957,84.4,,62.8,5.0,,,,,,,,,,,,0,0,0,0,0,0,0,0,0,0,0,0,0,0,0,0,,,,,,0.0,,,,,,,
22,2113844,1745470710831,,,,,,,,,,,,,,,,,,,,,,,,,,,,,,,,,,0,0,0,0,0,0,0,0,0,0,0,0,0,0,0,0,,,,,,,,,,,,,
23,2113864,1745470710851,0.0,57.0,,-0.11,-0.15,0.95,-1.0,0.0,0.0,0.97,1.1,88.0,13723.0,0.6,1.4,,9.01,0.944,84.4,,62.8,5.0,,,,,,,,,,,,0,0,0,0,0,0,0,0,0,0,0,0,0,0,0,0,,,,,,0.0,,,,,,,
24,2113884,1745470710871,,,,,,,,,,,,,,,,,,,,,,,0.0,0.0,0.0,0.0,0.0,0.0,0.0,0.0,2.27,,,0,0,0,0,0,0,0,0,0,0,0,0,0,0,0,0,,0.0,,,,,38.993794,-76.938789,0.0,25.5,30.0,3.0,0.1
25,2113904,1745470710891,0.0,61.0,,-0.1,0.03,0.85,-2.0,0.0,-1.0,0.85,1.1,78.0,13723.0,0.6,1.4,,6.83,0.856,84.4,,68.6,5.0,,,,,,,,,,,,0,0,0,0,0,0,0,0,0,0,0,0,0,0,0,0,,,,,,0.0,,,,,,,
26,2113924,1745470710911,,,,,,,,,,,,,,,,,,,,,,,,,,,,,,,,,,0,0,0,0,0,0,0,0,0,0,0,0,0,0,0,0,,,,,,,,,,,,,
27,2113944,1745470710931,0.0,54.0,,-0.07,0.15,0.85,-1.0,0.0,0.0,0.86,1.1,79.0,13333.0,0.4,1.4,,5.78,0.86,84.4,,68.6,5.0,,,,,,,,,,,,0,0,0,0,0,0,0,0,0,0,0,0,0,0,0,0,,,,,,0.0,,,,,,,
28,2113964,1745470710951,,,,,,,,,,,,,,,,,,,,,,,,,,,,,,,,,,0,0,0,0,0,0,0,0,0,0,0,0,0,0,0,0,,,,,,,,,,,,,
29,2113984,1745470710971,0.0,51.0,,-0.07,0.11,0.83,-4.0,-1.0,0.0,0.84,1.1,77.0,12893.0,0.0,1.4,,5.14,0.99,84.4,,68.6,5.0,0.0,0.0,0.0,0.0,0.0,0.0,0.0,0.0,2.27,,,0,0,0,0,0,0,0,0,0,0,0,0,0,0,0,0,,0.0,,,,0.0,38.993794,-76.938789,0.05,25.5,30.0,3.0,0.1
30,2114004,1745470710991,,,,,,,,,,,,,,,,,,,,,,,,,,,,,,,,,,0,0,0,0,0,0,0,0,0,0,0,0,0,0,0,0,,,,,,,,,,,,,
31,2114024,1745470711011,0.0,71.0,,-0.1,0.01,0.84,-3.0,-1.0,0.0,0.85,1.1,77.0,12465.0,0.0,1.4,,4.73,1.056,84.4,,67.4,5.0,,,,,,,,,,,,0,0,0,0,0,0,0,0,0,0,0,0,0,0,0,0,,,,,,0.0,,,,,,,
32,2114044,1745470711020,,,,,,,,,,,,,,,,,,,,,,,,,,,,,,,,,,0,0,0,0,0,0,0,0,0,0,0,0,0,0,0,0,,,,,,,,,,,,,
33,2114064,1745470711040,0.0,68.0,,-0.09,-0.04,0.78,-3.0,-1.0,0.0,0.78,1.1,71.0,12083.0,0.0,1.4,,4.73,1.056,84.4,,67.4,5.0,,,,,,,,,,,,0,0,0,0,0,0,0,0,0,0,0,0,0,0,0,0,,,,,,0.0,,,,,,,
34,2114084,1745470711060,,,,,,,,,,,,,,,,,,,,,,,0.0,0.0,0.0,0.0,0.0,0.0,0.0,0.0,2.27,,,0,0,0,0,0,0,0,0,0,0,0,0,0,0,0,0,,0.0,,,,,38.993794,-76.938789,0.07,25.5,31.0,3.0,0.9
35,2114104,1745470711080,0.0,64.0,,-0.02,-0.15,0.74,0.0,-1.0,-1.0,0.76,1.1,69.0,12083.0,0.0,1.4,,4.49,1.04,84.4,,60.1,5.0,,,,,,,,,,,,0,0,0,0,0,0,0,0,0,0,0,0,0,0,0,0,,,,,,0.0,,,,,,,
36,2114124,1745470711108,,,,,,,,,,,,,,,,,,,,,,,,,,,,,,,,,,0,0,0,0,0,0,0,0,0,0,0,0,0,0,0,0,,,,,,,,,,,,,
37,2114144,1745470711128,0.0,71.0,,-0.04,0.05,0.85,0.0,-1.0,-1.0,0.86,1.1,78.0,11691.0,0.1,1.4,,4.47,0.994,84.4,,60.1,5.0,,,,,,,,,,,,0,0,0,0,0,0,0,0,0,0,0,0,0,0,0,0,,,,,,0.0,,,,,,,
38,2114164,1745470711148,,,,,,,,,,,,,,,,,,,,,,,,,,,,,,,,,,0,0,0,0,0,0,0,0,0,0,0,0,0,0,0,0,,,,,,,,,,,,,
39,2114184,1745470711168,0.0,47.0,,-0.06,0.08,0.82,-1.0,-1.0,0.0,0.83,1.1,75.0,11337.0,0.4,1.4,,4.52,0.983,84.4,,60.1,5.0,0.0,0.0,0.0,0.0,0.0,0.0,0.0,0.0,2.27,,,0,0,0,0,0,0,0,0,0,0,0,0,0,0,0,0,,0.0,,,,0.0,38.993794,-76.938789,0.05,25.5,31.0,3.0,0.9
40,2114204,1745470711188,,,,,,,,,,,,,,,,,,,,,,,,,,,,,,,,,,0,0,0,0,0,0,0,0,0,0,0,0,0,0,0,0,,,,,,,,,,,,,
41,2114224,1745470711204,0.0,54.0,,-0.05,-0.09,0.91,0.0,-1.0,-1.0,0.91,1.1,83.0,10927.0,0.4,1.4,,4.35,0.993,84.4,,57.9,5.0,,,,,,,,,,,,0,0,0,0,0,0,0,0,0,0,0,0,0,0,0,0,,,,,,0.0,,,,,,,
42,2114244,1745470711224,,,,,,,,,,,,,,,,,,,,,,,,,,,,,,,,,,0,0,0,0,0,0,0,0,0,0,0,0,0,0,0,0,,,,,,,,,,,,,
43,2114264,1745470711244,0.0,61.0,,-0.07,0.27,0.87,-1.0,-1.0,0.0,0.91,1.1,83.0,10575.0,0.4,1.4,,4.35,0.993,84.4,,57.9,5.0,,,,,,,,,,,,0,0,0,0,0,0,0,0,0,0,0,0,0,0,0,0,,,,,,0.0,,,,,,,
44,2114284,1745470711264,,,,,,,,,,,,,,,,,,,,,,,0.0,0.0,0.0,0.0,0.0,0.0,0.0,0.0,2.26,,,0,0,0,0,0,0,0,0,0,0,0,0,0,0,0,0,,0.0,,,,,38.993794,-76.938789,0.0,25.5,31.0,3.0,0.9
45,2114304,1745470711284,0.0,51.0,,-0.1,0.65,0.88,-1.0,-1.0,0.0,1.1,1.1,100.0,10575.0,0.4,1.4,,4.48,1.019,84.4,,56.3,5.0,,,,,,,,,,,,0,0,0,0,0,0,0,0,0,0,0,0,0,0,0,0,,,,,,0.0,,,,,,,
46,2114324,1745470711310,,,,,,,,,,,,,,,,,,,,,,,,,,,,,,,,,,0,0,0,0,0,0,0,0,0,0,0,0,0,0,0,0,,,,,,,,,,,,,
47,2114344,1745470711330,0.0,68.0,,-0.11,0.47,0.86,-2.0,-1.0,-1.0,0.98,1.1,89.0,10276.0,0.4,1.4,,4.47,1.03,84.4,,56.3,5.0,,,,,,,,,,,,0,0,0,0,0,0,0,0,0,0,0,0,0,0,0,0,,,,,,0.0,,,,,,,
48,2114364,1745470711350,,,,,,,,,,,,,,,,,,,,,,,,,,,,,,,,,,0,0,0,0,0,0,0,0,0,0,0,0,0,0,0,0,,,,,,,,,,,,,
49,2114384,1745470711370,0.0,64.0,13.84,-0.14,0.49,0.86,-1.0,-1.0,0.0,1.0,1.1,91.0,9935.0,0.5,1.4,15.0,4.49,1.042,84.4,182.0,56.3,5.0,0.0,0.0,0.0,0.0,0.0,0.0,0.0,0.0,2.27,0.0,1.0,0,0,0,0,0,0,0,0,0,0,0,0,0,0,0,0,0.0,0.0,1.0,0.0,0.0,0.0,38.993794,-76.938789,0.08,25.5,31.0,3.0,0.9
50,2114404,1745470711390,,,,,,,,,,,,,,,,,,,,,,,,,,,,,,,,,,0,0,0,0,0,0,0,0,0,0,0,0,0,0,0,0,,,,,,,,,,,,,
51,2114424,1745470711408,0.0,71.0,,-0.13,0.42,0.85,-2.0,-1.0,-1.0,0.96,1.1,87.0,9607.0,0.5,1.4,,4.67,1.054,84.4,,54.7,5.0,,,,,,,,,,,,0,0,0,0,0,0,0,0,0,0,0,0,0,0,0,0,,,,,,0.0,,,,,,,
52,2114444,1745470711428,,,,,,,,,,,,,,,,,,,,,,,,,,,,,,,,,,0,0,0,0,0,0,0,0,0,0,0,0,0,0,0,0,,,,,,,,,,,,,
53,2114464,1745470711448,0.0,61.0,,-0.12,0.58,0.92,-1.0,-1.0,-1.0,1.1,1.1,100.0,9191.0,13.0,1.73,,4.67,1.054,84.4,,54.7,5.0,,,,,,,,,,,,0,0,0,0,0,0,0,0,0,0,0,0,0,0,0,0,,,,,,0.0,,,,,,,
54,2114484,1745470711468,,,,,,,,,,,,,,,,,,,,,,,0.0,0.0,0.0,0.0,0.0,0.0,0.0,0.0,2.27,,,0,0,0,0,0,0,0,0,0,0,0,0,0,0,0,0,,0.0,,,,,38.993794,-76.938789,0.08,25.5,31.0,3.0,0.9
55,2114504,1745470711488,0.0,61.0,,-0.1,0.78,0.92,0.0,-1.0,0.0,1.21,1.21,100.0,9191.0,13.0,1.73,,5.58,1.098,84.4,,51.7,5.0,,,,,,,,,,,,0,0,0,0,0,0,0,0,0,0,0,0,0,0,0,0,,,,,,0.0,,,,,,,
56,2114524,1745470711510,,,,,,,,,,,,,,,,,,,,,,,,,,,,,,,,,,0,0,0,0,0,0,0,0,0,0,0,0,0,0,0,0,,,,,,,,,,,,,
57,2114544,1745470711530,0.0,54.0,,-0.09,0.94,0.94,1.0,-1.0,0.0,1.33,1.33,100.0,8937.0,28.0,2.53,,7.93,1.209,84.4,,51.7,5.0,,,,,,,,,,,,0,0,0,0,0,0,0,0,0,0,0,0,0,0,0,0,,,,,,0.0,,,,,,,
58,2114564,1745470711550,,,,,,,,,,,,,,,,,,,,,,,,,,,,,,,,,,0,0,0,0,0,0,0,0,0,0,0,0,0,0,0,0,,,,,,,,,,,,,
59,2114584,1745470711570,0.0,61.0,,-0.06,1.1,0.94,1.0,-1.0,0.0,1.45,1.45,100.0,8996.0,31.6,3.17,,9.92,1.249,84.4,,51.7,5.0,0.0,0.0,0.0,0.0,0.0,0.0,0.0,0.0,2.27,,,0,0,0,0,0,0,0,0,0,0,0,0,0,0,0,0,,0.0,,,,0.0,38.993794,-76.938789,0.0,25.5,31.0,3.0,0.9
60,2114604,1745470711590,,,,,,,,,,,,,,,,,,,,,,,,,,,,,,,,,,0,0,0,0,0,0,0,0,0,0,0,0,0,0,0,0,,,,,,,,,,,,,
61,2114624,1745470711608,0.0,44.0,,-0.09,0.9,0.97,2.0,-1.0,0.0,1.33,1.45,92.0,9433.0,32.4,3.65,,10.81,1.25,84.4,,53.6,5.0,,,,,,,,,,,,0,0,0,0,0,0,0,0,0,0,0,0,0,0,0,0,,,,,,0.0,,,,,,,
62,2114644,1745470711628,,,,,,,,,,,,,,,,,,,,,,,,,,,,,,,,,,0,0,0,0,0,0,0,0,0,0,0,0,0,0,0,0,,,,,,,,,,,,,
63,2114664,1745470711648,0.0,68.0,,-0.09,1.0,0.95,1.0,-1.0,1.0,1.38,1.45,96.0,10160.0,29.9,4.15,,10.81,1.25,84.4,,53.6,5.0,,,,,,,,,,,,0,0,0,0,0,0,0,0,0,0,0,0,0,0,0,0,,,,,,0.0,,,,,,,
64,2114684,1745470711668,,,,,,,,,,,,,,,,,,,,,,,0.0,0.0,0.0,0.0,0.0,0.0,0.0,0.0,2.27,,,0,0,0,0,0,0,0,0,0,0,0,0,0,0,0,0,,0.0,,,,,38.993794,-76.938789,0.64,25.5,31.0,3.0,0.9
65,2114704,1745470711688,0.0,74.0,,-0.1,1.24,0.98,0.0,-1.0,2.0,1.58,1.58,100.0,10160.0,29.9,4.15,,10.65,1.235,84.4,,57.1,5.0,,,,,,,,,,,,0,0,0,0,0,0,0,0,0,0,0,0,0,0,0,0,,,,,,0.0,,,,,,,
66,2114724,1745470711710,,,,,,,,,,,,,,,,,,,,,,,,,,,,,,,,,,0,0,0,0,0,0,0,0,0,0,0,0,0,0,0,0,,,,,,,,,,,,,
67,2114744,1745470711730,0.0,115.0,,-0.08,0.92,1.0,-1.0,0.0,1.0,1.37,1.58,86.0,11250.0,13.0,2.84,,9.29,1.121,84.4,,57.1,5.0,,,,,,,,,,,,0,0,0,0,0,0,0,0,0,0,0,0,0,0,0,0,,,,,,0.0,,,,,,,
68,2114764,1745470711750,,,,,,,,,,,,,,,,,,,,,,,,,,,,,,,,,,0,0,0,0,0,0,0,0,0,0,0,0,0,0,0,0,,,,,,,,,,,,,
69,2114784,1745470711770,0.0,134.0,,-0.05,1.01,0.98,-1.0,-1.0,1.0,1.4,1.58,89.0,11706.0,6.1,2.15,,7.5,0.931,84.4,,57.1,5.0,0.0,0.0,0.0,0.0,0.0,0.0,0.0,0.0,2.26,,,0,0,0,0,0,0,0,0,0,0,0,0,0,0,0,0,,0.0,,,,0.0,38.993794,-76.938789,0.22,25.5,31.0,3.0,0.9
70,2114804,1745470711790,,,,,,,,,,,,,,,,,,,,,,,,,,,,,,,,,,0,0,0,0,0,0,0,0,0,0,0,0,0,0,0,0,,,,,,,,,,,,,
71,2114824,1745470711808,0.0,115.0,,-0.06,0.82,0.9,1.0,-1.0,0.0,1.22,1.58,77.0,11914.0,2.6,1.4,,6.4,0.897,84.4,,58.3,5.0,,,,,,,,,,,,0,0,0,0,0,0,0,0,0,0,0,0,0,0,0,0,,,,,,0.0,,,,,,,
72,2114844,1745470711828,,,,,,,,,,,,,,,,,,,,,,,,,,,,,,,,,,0,0,0,0,0,0,0,0,0,0,0,0,0,0,0,0,,,,,,,,,,,,,
73,2114864,1745470711848,0.0,115.0,,-0.08,0.53,0.86,1.0,-1.0,-1.0,1.02,1.58,65.0,11523.0,0.9,1.4,,6.4,0.897,84.4,,58.3,5.0,,,,,,,,,,,,0,0,0,0,0,0,0,0,0,0,0,0,0,0,0,0,,,,,,0.0,,,,,,,
74,2114884,1745470711868,,,,,,,,,,,,,,,,,,,,,,,0.0,0.0,0.0,0.0,0.0,0.0,0.0,0.0,2.27,,,0,0,0,0,0,0,0,0,0,0,0,0,0,0,0,0,,0.0,,,,,38.993794,-76.938789,0.04,25.5,31.0,3.0,0.9
75,2114904,1745470711888,0.0,108.0,,-0.08,0.49,0.87,1.0,-1.0,0.0,1.01,1.58,64.0,11523.0,0.9,1.4,,5.55,0.913,84.4,,55.6,5.0,,,,,,,,,,,,0,0,0,0,0,0,0,0,0,0,0,0,0,0,0,0,,,,,,0.0,,,,,,,
76,2114924,1745470711910,,,,,,,,,,,,,,,,,,,,,,,,,,,,,,,,,,0,0,0,0,0,0,0,0,0,0,0,0,0,0,0,0,,,,,,,,,,,,,
77,2114944,1745470711930,0.0,132.0,,-0.09,0.63,0.89,0.0,0.0,0.0,1.1,1.58,69.0,11111.0,0.7,1.4,,5.15,1.046,84.4,,55.6,5.0,,,,,,,,,,,,0,0,0,0,0,0,0,0,0,0,0,0,0,0,0,0,,,,,,0.0,,,,,,,
78,2114964,1745470711950,,,,,,,,,,,,,,,,,,,,,,,,,,,,,,,,,,0,0,0,0,0,0,0,0,0,0,0,0,0,0,0,0,,,,,,,,,,,,,
79,2114984,1745470711970,0.0,134.0,,-0.05,0.25,0.87,0.0,0.0,0.0,0.91,1.58,57.0,10693.0,0.4,1.4,,5.03,1.248,84.4,,55.6,5.0,0.0,0.0,0.0,0.0,0.0,0.0,0.0,0.0,2.27,,,0,0,0,0,0,0,0,0,0,0,0,0,0,0,0,0,,0.0,,,,0.0,38.993794,-76.938789,0.45,25.5,31.0,3.0,0.9
80,2115004,1745470711990,,,,,,,,,,,,,,,,,,,,,,,,,,,,,,,,,,0,0,0,0,0,0,0,0,0,0,0,0,0,0,0,0,,,,,,,,,,,,,
81,2115024,1745470712010,0.0,78.0,,-0.04,0.07,0.87,-1.0,0.0,0.0,0.87,1.58,55.0,10302.0,0.3,1.4,,4.77,1.249,84.4,,55.6,5.0,,,,,,,,,,,,0,0,0,0,0,0,0,0,0,0,0,0,0,0,0,0,,,,,,0.0,,,,,,,
82,2115044,1745470712019,,,,,,,,,,,,,,,,,,,,,,,,,,,,,,,,,,0,0,0,0,0,0,0,0,0,0,0,0,0,0,0,0,,,,,,,,,,,,,
83,2115064,1745470712039,0.0,85.0,,-0.03,-0.03,0.81,-2.0,-1.0,0.0,0.82,1.58,52.0,10302.0,0.3,1.4,,4.77,1.249,84.4,,55.6,5.0,,,,,,,,,,,,0,0,0,0,0,0,0,0,0,0,0,0,0,0,0,0,,,,,,0.0,,,,,,,
84,2115084,1745470712059,,,,,,,,,,,,,,,,,,,,,,,0.0,0.0,0.0,0.0,0.0,0.0,0.0,0.0,2.27,,,0,0,0,0,0,0,0,0,0,0,0,0,0,0,0,0,,0.0,,,,,38.993794,-76.938789,0.36,25.5,31.0,3.0,0.9
85,2115104,1745470712079,0.0,95.0,,-0.0,0.07,0.84,-1.0,-1.0,1.0,0.85,1.58,54.0,9890.0,0.2,1.4,,4.79,1.25,84.4,,53.8,5.0,,,,,,,,,,,,0,0,0,0,0,0,0,0,0,0,0,0,0,0,0,0,,,,,,0.0,,,,,,,
86,2115124,1745470712103,,,,,,,,,,,,,,,,,,,,,,,,,,,,,,,,,,0,0,0,0,0,0,0,0,0,0,0,0,0,0,0,0,,,,,,,,,,,,,
87,2115144,1745470712123,0.0,91.0,,-0.0,0.12,0.92,-1.0,-1.0,1.0,0.92,1.58,59.0,9525.0,0.3,1.4,,4.73,1.251,84.4,,53.8,5.0,,,,,,,,,,,,0,0,0,0,0,0,0,0,0,0,0,0,0,0,0,0,,,,,,0.0,,,,,,,
88,2115164,1745470712143,,,,,,,,,,,,,,,,,,,,,,,,,,,,,,,,,,0,0,0,0,0,0,0,0,0,0,0,0,0,0,0,0,,,,,,,,,,,,,
89,2115184,1745470712163,0.0,68.0,,-0.02,0.43,0.91,-2.0,0.0,1.0,1.0,1.58,64.0,9122.0,0.5,1.4,,4.67,1.251,84.4,,53.8,5.0,0.0,0.0,0.0,0.0,0.0,0.0,0.0,0.0,2.27,,,0,0,0,0,0,0,0,0,0,0,0,0,0,0,0,0,,0.0,,,,0.0,38.993794,-76.938789,0.11,25.5,31.0,3.0,0.9
90,2115204,1745470712183,,,,,,,,,,,,,,,,,,,,,,,,,,,,,,,,,,0,0,0,0,0,0,0,0,0,0,0,0,0,0,0,0,,,,,,,,,,,,,
91,2115224,1745470712201,0.0,71.0,,-0.02,0.55,0.92,-2.0,0.0,1.0,1.07,1.58,68.0,8789.0,0.8,1.4,,4.67,1.251,84.4,,52.4,5.0,,,,,,,,,,,,0,0,0,0,0,0,0,0,0,0,0,0,0,0,0,0,,,,,,0.0,,,,,,,
92,2115244,1745470712221,,,,,,,,,,,,,,,,,,,,,,,,,,,,,,,,,,0,0,0,0,0,0,0,0,0,0,0,0,0,0,0,0,,,,,,,,,,,,,
93,2115264,1745470712241,0.0,71.0,,-0.02,0.43,0.92,-3.0,0.0,1.0,1.01,1.58,64.0,8789.0,0.8,1.4,,4.8,1.251,84.4,,52.4,5.0,,,,,,,,,,,,0,0,0,0,0,0,0,0,0,0,0,0,0,0,0,0,,,,,,0.0,,,,,,,
94,2115284,1745470712261,,,,,,,,,,,,,,,,,,,,,,,0.0,0.0,0.0,0.0,0.0,0.0,0.0,0.0,2.26,,,0,0,0,0,0,0,0,0,0,0,0,0,0,0,0,0,,0.0,,,,,38.993794,-76.938789,0.0,25.5,31.0,3.0,0.9
95,2115304,1745470712281,0.0,78.0,,-0.03,0.4,0.91,-2.0,0.0,1.0,1.0,1.58,63.0,8426.0,0.9,1.4,,4.96,1.252,84.4,,51.3,5.0,,,,,,,,,,,,0,0,0,0,0,0,0,0,0,0,0,0,0,0,0,0,,,,,,0.0,,,,,,,
96,2115324,1745470712309,,,,,,,,,,,,,,,,,,,,,,,,,,,,,,,,,,0,0,0,0,0,0,0,0,0,0,0,0,0,0,0,0,,,,,,,,,,,,,
97,2115344,1745470712329,0.0,134.0,,-0.0,0.39,0.96,-2.0,0.0,1.0,1.03,1.58,66.0,8040.0,6.0,1.68,,5.59,1.249,84.4,,51.3,5.0,,,,,,,,,,,,0,0,0,0,0,0,0,0,0,0,0,0,0,0,0,0,,,,,,0.0,,,,,,,
98,2115364,1745470712349,,,,,,,,,,,,,,,,,,,,,,,,,,,,,,,,,,0,0,0,0,0,0,0,0,0,0,0,0,0,0,0,0,,,,,,,,,,,,,
99,2115384,1745470712369,0.0,71.0,13.85,-0.02,0.39,0.99,-2.0,0.0,1.0,1.07,1.58,67.0,7673.0,8.3,2.1,15.0,6.28,1.248,84.4,182.0,51.3,5.0,0.0,0.0,0.0,0.0,0.0,0.0,0.0,0.0,2.26,0.0,1.0,0,0,0,0,0,0,0,0,0,0,0,0,0,0,0,0,0.0,0.0,1.0,0.0,0.0,0.0,38.993794,-76.938789,0.12,25.5,31.0,3.0,0.9
100,2115404,1745470712389,,,,,,,,,,,,,,,,,,,,,,,,,,,,,,,,,,0,0,0,0,0,0,0,0,0,0,0,0,0,0,0,0,,,,,,,,,,,,,
101,2115424,1745470712409,0.0,81.0,,-0.05,0.42,0.97,-2.0,-1.0,1.0,1.06,1.58,67.0,7589.0,9.1,2.36,,6.28,1.248,84.4,,51.7,5.0,,,,,,,,,,,,0,0,0,0,0,0,0,0,0,0,0,0,0,0,0,0,,,,,,0.0,,,,,,,
102,2115444,1745470712429,,,,,,,,,,,,,,,,,,,,,,,,,,,,,,,,,,0,0,0,0,0,0,0,0,0,0,0,0,0,0,0,0,,,,,,,,,,,,,
103,2115464,1745470712449,0.0,81.0,,-0.08,0.29,0.94,-2.0,-1.0,1.0,0.99,1.58,62.0,7589.0,9.1,2.36,,7.15,1.247,84.4,,51.7,5.0,,,,,,,,,,,,0,0,0,0,0,0,0,0,0,0,0,0,0,0,0,0,,,,,,0.0,,,,,,,
104,2115484,1745470712469,,,,,,,,,,,,,,,,,,,,,,,0.0,0.0,0.0,0.0,0.0,0.0,0.0,0.0,2.27,,,0,0,0,0,0,0,0,0,0,0,0,0,0,0,0,0,,0.0,,,,,38.993794,-76.938789,0.05,25.5,31.0,3.0,0.9
105,2115504,1745470712489,0.0,135.0,,-0.06,0.08,0.93,-2.0,0.0,0.0,0.94,1.58,60.0,7584.0,9.4,2.53,,7.62,1.248,84.4,,52.2,5.0,,,,,,,,,,,,0,0,0,0,0,0,0,0,0,0,0,0,0,0,0,0,,,,,,0.0,,,,,,,
106,2115524,1745470712509,,,,,,,,,,,,,,,,,,,,,,,,,,,,,,,,,,0,0,0,0,0,0,0,0,0,0,0,0,0,0,0,0,,,,,,,,,,,,,
107,2115544,1745470712529,0.0,74.0,,-0.05,0.18,0.98,-1.0,0.0,0.0,1.0,1.58,63.0,7747.0,9.4,2.7,,8.11,1.161,84.4,,52.2,5.0,,,,,,,,,,,,0,0,0,0,0,0,0,0,0,0,0,0,0,0,0,0,,,,,,0.0,,,,,,,
108,2115564,1745470712549,,,,,,,,,,,,,,,,,,,,,,,,,,,,,,,,,,0,0,0,0,0,0,0,0,0,0,0,0,0,0,0,0,,,,,,,,,,,,,
109,2115584,1745470712569,0.0,71.0,,-0.06,0.13,0.93,-1.0,0.0,0.0,0.94,1.58,59.0,7861.0,9.4,2.76,,8.31,1.057,84.4,,52.2,5.0,0.0,0.0,0.0,0.0,0.0,0.0,0.0,0.0,2.27,,,0,0,0,0,0,0,0,0,0,0,0,0,0,0,0,0,,0.0,,,,0.0,38.993794,-76.938789,0.05,25.5,31.0,3.0,0.9
110,2115604,1745470712589,,,,,,,,,,,,,,,,,,,,,,,,,,,,,,,,,,0,0,0,0,0,0,0,0,0,0,0,0,0,0,0,0,,,,,,,,,,,,,
111,2115624,1745470712609,0.0,57.0,,-0.06,0.17,0.96,-1.0,0.0,0.0,0.98,1.58,62.0,8093.0,9.4,2.8,,8.31,1.057,84.4,,52.0,5.0,,,,,,,,,,,,0,0,0,0,0,0,0,0,0,0,0,0,0,0,0,0,,,,,,0.0,,,,,,,
112,2115644,1745470712629,,,,,,,,,,,,,,,,,,,,,,,,,,,,,,,,,,0,0,0,0,0,0,0,0,0,0,0,0,0,0,0,0,,,,,,,,,,,,,
113,2115664,1745470712649,0.0,133.0,,-0.07,0.18,0.96,0.0,0.0,0.0,0.98,1.58,62.0,8093.0,9.4,2.8,,8.38,1.023,84.4,,52.0,5.0,,,,,,,,,,,,0,0,0,0,0,0,0,0,0,0,0,0,0,0,0,0,,,,,,0.0,,,,,,,
114,2115684,1745470712669,,,,,,,,,,,,,,,,,,,,,,,0.0,0.0,0.0,0.0,0.0,0.0,0.0,0.0,2.28,,,0,0,0,0,0,0,0,0,0,0,0,0,0,0,0,0,,0.0,,,,,38.993794,-76.938789,0.04,25.5,31.0,3.0,0.9
115,2115704,1745470712689,0.0,85.0,,-0.04,0.07,0.96,-1.0,0.0,0.0,0.96,1.58,61.0,8452.0,9.9,2.73,,8.33,1.007,84.4,,54.1,5.0,,,,,,,,,,,,0,0,0,0,0,0,0,0,0,0,0,0,0,0,0,0,,,,,,0.0,,,,,,,
116,2115724,1745470712711,,,,,,,,,,,,,,,,,,,,,,,,,,,,,,,,,,0,0,0,0,0,0,0,0,0,0,0,0,0,0,0,0,,,,,,,,,,,,,
117,2115744,1745470712731,0.0,81.0,,-0.06,-0.12,0.92,-1.0,0.0,0.0,0.93,1.58,59.0,8813.0,9.9,2.57,,8.13,0.992,84.4,,54.1,5.0,,,,,,,,,,,,0,0,0,0,0,0,0,0,0,0,0,0,0,0,0,0,,,,,,0.0,,,,,,,
118,2115764,1745470712751,,,,,,,,,,,,,,,,,,,,,,,,,,,,,,,,,,0,0,0,0,0,0,0,0,0,0,0,0,0,0,0,0,,,,,,,,,,,,,
119,2115784,1745470712771,0.0,135.0,,-0.07,-0.4,0.92,0.0,-1.0,-1.0,1.01,1.58,64.0,9133.0,7.6,2.4,,7.5,0.98,84.4,,54.1,5.0,0.0,0.0,0.0,0.0,0.0,0.0,0.0,0.0,2.26,,,0,0,0,0,0,0,0,0,0,0,0,0,0,0,0,0,,0.0,,,,0.0,38.993794,-76.938789,0.16,25.5,32.0,3.0,0.9
120,2115804,1745470712791,,,,,,,,,,,,,,,,,,,,,,,,,,,,,,,,,,0,0,0,0,0,0,0,0,0,0,0,0,0,0,0,0,,,,,,,,,,,,,
121,2115824,1745470712809,0.0,51.0,,-0.06,-0.35,0.94,0.0,-1.0,-1.0,1.01,1.58,64.0,9392.0,4.6,1.87,,7.5,0.98,84.4,,55.2,5.0,,,,,,,,,,,,0,0,0,0,0,0,0,0,0,0,0,0,0,0,0,0,,,,,,0.0,,,,,,,
122,2115844,1745470712829,,,,,,,,,,,,,,,,,,,,,,,,,,,,,,,,,,0,0,0,0,0,0,0,0,0,0,0,0,0,0,0,0,,,,,,,,,,,,,
123,2115864,1745470712849,0.0,54.0,,-0.07,-0.3,0.9,-1.0,0.0,0.0,0.95,1.58,60.0,9392.0,4.6,1.87,,6.82,0.984,84.4,,55.2,5.0,,,,,,,,,,,,0,0,0,0,0,0,0,0,0,0,0,0,0,0,0,0,,,,,,0.0,,,,,,,
124,2115884,1745470712869,,,,,,,,,,,,,,,,,,,,,,,0.0,0.0,0.0,0.0,0.0,0.0,0.0,0.0,2.27,,,0,0,0,0,0,0,0,0,0,0,0,0,0,0,0,0,,0.0,,,,,38.993794,-76.938789,0.08,25.5,32.0,3.0,0.9
125,2115904,1745470712889,0.0,57.0,,-0.03,-0.3,0.94,0.0,-1.0,0.0,0.99,1.58,63.0,9341.0,3.3,1.4,,6.3,0.992,84.4,,55.2,5.0,,,,,,,,,,,,0,0,0,0,0,0,0,0,0,0,0,0,0,0,0,0,,,,,,0.0,,,,,,,
126,2115924,1745470712910,,,,,,,,,,,,,,,,,,,,,,,,,,,,,,,,,,0,0,0,0,0,0,0,0,0,0,0,0,0,0,0,0,,,,,,,,,,,,,
127,2115944,1745470712930,0.0,54.0,,0.0,-0.1,1.0,0.0,-1.0,0.0,1.01,1.58,64.0,8925.0,2.7,1.4,,5.86,1.038,84.4,,54.2,5.0,,,,,,,,,,,,0,0,0,0,0,0,0,0,0,0,0,0,0,0,0,0,,,,,,0.0,,,,,,,
128,2115964,1745470712950,,,,,,,,,,,,,,,,,,,,,,,,,,,,,,,,,,0,0,0,0,0,0,0,0,0,0,0,0,0,0,0,0,,,,,,,,,,,,,
129,2115984,1745470712970,0.0,61.0,,-0.05,0.01,0.98,0.0,-1.0,0.0,0.98,1.58,62.0,8417.0,2.2,1.4,,5.86,1.038,84.4,,54.2,5.0,0.0,0.0,0.0,0.0,0.0,0.0,0.0,0.0,2.27,,,0,0,0,0,0,0,0,0,0,0,0,0,0,0,0,0,,0.0,,,,0.0,38.993794,-76.938789,0.07,25.5,32.0,3.0,0.9
130,2116004,1745470712990,,,,,,,,,,,,,,,,,,,,,,,,,,,,,,,,,,0,0,0,0,0,0,0,0,0,0,0,0,0,0,0,0,,,,,,,,,,,,,
131,2116024,1745470713002,0.0,61.0,,-0.04,-0.01,1.01,1.0,-1.0,0.0,1.01,1.58,64.0,8417.0,2.2,1.4,,5.76,1.148,84.4,,49.9,5.0,,,,,,,,,,,,0,0,0,0,0,0,0,0,0,0,0,0,0,0,0,0,,,,,,0.0,,,,,,,
132,2116044,1745470713022,,,,,,,,,,,,,,,,,,,,,,,,,,,,,,,,,,0,0,0,0,0,0,0,0,0,0,0,0,0,0,0,0,,,,,,,,,,,,,
133,2116064,1745470713042,0.0,54.0,,-0.06,0.1,1.0,1.0,-1.0,1.0,1.0,1.58,63.0,7923.0,1.5,1.4,,5.84,1.25,84.4,,49.9,5.0,,,,,,,,,,,,0,0,0,0,0,0,0,0,0,0,0,0,0,0,0,0,,,,,,0.0,,,,,,,
134,2116084,1745470713062,,,,,,,,,,,,,,,,,,,,,,,0.0,0.0,0.0,0.0,0.0,0.0,0.0,0.0,2.28,,,0,0,0,0,0,0,0,0,0,0,0,0,0,0,0,0,,0.0,,,,,38.993794,-76.938789,0.04,25.5,32.0,3.0,0.9
135,2116104,1745470713082,0.0,68.0,,-0.08,0.13,1.03,2.0,-1.0,0.0,1.04,1.58,66.0,7501.0,1.4,1.4,,5.92,1.252,84.4,,49.9,5.0,,,,,,,,,,,,0,0,0,0,0,0,0,0,0,0,0,0,0,0,0,0,,,,,,0.0,,,,,,,
136,2116124,1745470713102,,,,,,,,,,,,,,,,,,,,,,,,,,,,,,,,,,0,0,0,0,0,0,0,0,0,0,0,0,0,0,0,0,,,,,,,,,,,,,
137,2116144,1745470713119,0.0,54.0,,-0.07,0.1,0.99,1.0,-1.0,0.0,1.0,1.58,63.0,7102.0,1.6,1.4,,6.22,1.251,84.4,,50.7,5.0,,,,,,,,,,,,0,0,0,0,0,0,0,0,0,0,0,0,0,0,0,0,,,,,,0.0,,,,,,,
138,2116164,1745470713139,,,,,,,,,,,,,,,,,,,,,,,,,,,,,,,,,,0,0,0,0,0,0,0,0,0,0,0,0,0,0,0,0,,,,,,,,,,,,,
139,2116184,1745470713159,0.0,44.0,,-0.06,0.09,1.01,1.0,-1.0,0.0,1.02,1.58,64.0,6676.0,1.8,1.4,,6.22,1.251,84.4,,50.7,5.0,0.0,0.0,0.0,0.0,0.0,0.0,0.0,0.0,2.26,,,0,0,0,0,0,0,0,0,0,0,0,0,0,0,0,0,,0.0,,,,0.0,38.993794,-76.938789,0.09,25.5,32.0,3.0,0.9
140,2116204,1745470713179,,,,,,,,,,,,,,,,,,,,,,,,,,,,,,,,,,0,0,0,0,0,0,0,0,0,0,0,0,0,0,0,0,,,,,,,,,,,,,
141,2116224,1745470713210,0.0,47.0,,-0.05,0.08,1.04,1.0,0.0,0.0,1.05,1.58,66.0,6676.0,1.8,1.4,,6.51,1.251,84.4,,49.3,5.0,,,,,,,,,,,,0,0,0,0,0,0,0,0,0,0,0,0,0,0,0,0,,,,,,0.0,,,,,,,
142,2116244,1745470713230,,,,,,,,,,,,,,,,,,,,,,,,,,,,,,,,,,0,0,0,0,0,0,0,0,0,0,0,0,0,0,0,0,,,,,,,,,,,,,
143,2116264,1745470713250,0.0,47.0,,-0.06,0.13,1.15,2.0,0.0,0.0,1.16,1.58,73.0,6302.0,1.8,1.4,,6.99,1.251,84.4,,49.3,5.0,,,,,,,,,,,,0,0,0,0,0,0,0,0,0,0,0,0,0,0,0,0,,,,,,0.0,,,,,,,
144,2116284,1745470713270,,,,,,,,,,,,,,,,,,,,,,,0.0,0.0,0.0,0.0,0.0,0.0,0.0,0.0,2.27,,,0,0,0,0,0,0,0,0,0,0,0,0,0,0,0,0,,0.0,,,,,38.993794,-76.938789,0.05,25.5,32.0,3.0,0.9
145,2116304,1745470713290,0.0,61.0,,-0.03,0.13,1.16,2.0,0.0,0.0,1.16,1.58,74.0,5904.0,1.8,1.4,,7.35,1.25,84.4,,49.3,5.0,,,,,,,,,,,,0,0,0,0,0,0,0,0,0,0,0,0,0,0,0,0,,,,,,0.0,,,,,,,
146,2116324,1745470713308,,,,,,,,,,,,,,,,,,,,,,,,,,,,,,,,,,0,0,0,0,0,0,0,0,0,0,0,0,0,0,0,0,,,,,,,,,,,,,
147,2116344,1745470713328,0.0,64.0,,-0.05,0.11,1.13,1.0,0.0,0.0,1.13,1.58,72.0,5493.0,1.7,1.49,,7.9,1.248,84.4,,49.6,5.0,,,,,,,,,,,,0,0,0,0,0,0,0,0,0,0,0,0,0,0,0,0,,,,,,0.0,,,,,,,
148,2116364,1745470713348,,,,,,,,,,,,,,,,,,,,,,,,,,,,,,,,,,0,0,0,0,0,0,0,0,0,0,0,0,0,0,0,0,,,,,,,,,,,,,
149,2116384,1745470713368,0.0,57.0,13.89,-0.04,0.03,1.08,1.0,0.0,0.0,1.08,1.58,68.0,5168.0,1.5,1.68,15.0,7.9,1.248,84.4,182.0,49.6,5.0,0.0,0.0,0.0,0.0,0.0,0.0,0.0,0.0,2.27,0.0,1.0,0,0,0,0,0,0,0,0,0,0,0,0,0,0,0,0,0.0,0.0,1.0,0.0,0.0,0.0,38.993794,-76.938789,0.04,25.5,32.0,3.0,0.9
150,2116404,1745470713388,,,,,,,,,,,,,,,,,,,,,,,,,,,,,,,,,,0,0,0,0,0,0,0,0,0,0,0,0,0,0,0,0,,,,,,,,,,,,,
151,2116424,1745470713410,0.0,57.0,,-0.07,0.08,1.11,1.0,0.0,0.0,1.12,1.58,71.0,5168.0,1.5,1.68,,8.42,1.249,84.4,,45.9,5.0,,,,,,,,,,,,0,0,0,0,0,0,0,0,0,0,0,0,0,0,0,0,,,,,,0.0,,,,,,,
152,2116444,1745470713430,,,,,,,,,,,,,,,,,,,,,,,,,,,,,,,,,,0,0,0,0,0,0,0,0,0,0,0,0,0,0,0,0,,,,,,,,,,,,,
153,2116464,1745470713450,0.0,44.0,,-0.05,-0.01,1.05,0.0,0.0,0.0,1.06,1.58,67.0,4835.0,1.2,1.86,,8.87,1.249,84.4,,45.9,5.0,,,,,,,,,,,,0,0,0,0,0,0,0,0,0,0,0,0,0,0,0,0,,,,,,0.0,,,,,,,
154,2116484,1745470713470,,,,,,,,,,,,,,,,,,,,,,,0.0,0.0,0.0,0.0,0.0,0.0,0.0,0.0,2.28,,,0,0,0,0,0,0,0,0,0,0,0,0,0,0,0,0,,0.0,,,,,38.993794,-76.938789,0.11,25.5,32.0,3.0,0.9
155,2116504,1745470713490,0.0,44.0,,-0.03,-0.12,1.01,-3.0,0.0,1.0,1.02,1.58,64.0,4548.0,1.2,1.89,,9.23,1.249,84.4,,45.9,5.0,,,,,,,,,,,,0,0,0,0,0,0,0,0,0,0,0,0,0,0,0,0,,,,,,0.0,,,,,,,
156,2116524,1745470713508,,,,,,,,,,,,,,,,,,,,,,,,,,,,,,,,,,0,0,0,0,0,0,0,0,0,0,0,0,0,0,0,0,,,,,,,,,,,,,
157,2116544,1745470713528,0.0,47.0,,-0.06,-0.02,1.09,0.0,0.0,1.0,1.09,1.58,69.0,4211.0,1.2,1.89,,9.62,1.251,84.4,,38.7,5.0,,,,,,,,,,,,0,0,0,0,0,0,0,0,0,0,0,0,0,0,0,0,,,,,,0.0,,,,,,,
158,2116564,1745470713548,,,,,,,,,,,,,,,,,,,,,,,,,,,,,,,,,,0,0,0,0,0,0,0,0,0,0,0,0,0,0,0,0,,,,,,,,,,,,,
159,2116584,1745470713568,0.0,37.0,,-0.05,-0.08,1.05,-2.0,0.0,1.0,1.05,1.58,67.0,3959.0,1.1,1.94,,9.62,1.251,84.4,,38.7,5.0,0.0,0.0,0.0,0.0,0.0,0.0,0.0,0.0,2.27,,,0,0,0,0,0,0,0,0,0,0,0,0,0,0,0,0,,0.0,,,,0.0,38.993794,-76.938789,0.1,25.5,32.0,3.0,0.9
160,2116604,1745470713588,,,,,,,,,,,,,,,,,,,,,,,,,,,,,,,,,,0,0,0,0,0,0,0,0,0,0,0,0,0,0,0,0,,,,,,,,,,,,,
161,2116624,1745470713610,0.0,51.0,,-0.06,-0.05,1.05,-2.0,0.0,1.0,1.05,1.58,66.0,3959.0,1.1,1.94,,9.98,1.251,84.4,,32.9,5.0,,,,,,,,,,,,0,0,0,0,0,0,0,0,0,0,0,0,0,0,0,0,,,,,,0.0,,,,,,,
162,2116644,1745470713630,,,,,,,,,,,,,,,,,,,,,,,,,,,,,,,,,,0,0,0,0,0,0,0,0,0,0,0,0,0,0,0,0,,,,,,,,,,,,,
163,2116664,1745470713650,0.0,51.0,,-0.05,-0.01,1.02,0.0,0.0,1.0,1.02,1.58,64.0,3720.0,2.2,2.06,,10.53,1.251,84.4,,32.9,5.0,,,,,,,,,,,,0,0,0,0,0,0,0,0,0,0,0,0,0,0,0,0,,,,,,0.0,,,,,,,
164,2116684,1745470713670,,,,,,,,,,,,,,,,,,,,,,,0.0,0.0,0.0,0.0,0.0,0.0,0.0,0.0,2.26,,,0,0,0,0,0,0,0,0,0,0,0,0,0,0,0,0,,0.0,,,,,38.993794,-76.938789,0.1,25.5,32.0,3.0,0.9
165,2116704,1745470713690,0.0,54.0,,-0.09,-0.09,1.04,-2.0,0.0,0.0,1.05,1.58,66.0,3439.0,4.5,3.22,,11.25,1.251,84.4,,32.9,5.0,,,,,,,,,,,,0,0,0,0,0,0,0,0,0,0,0,0,0,0,0,0,,,,,,0.0,,,,,,,
166,2116724,1745470713710,,,,,,,,,,,,,,,,,,,,,,,,,,,,,,,,,,0,0,0,0,0,0,0,0,0,0,0,0,0,0,0,0,,,,,,,,,,,,,
167,2116744,1745470713730,0.0,57.0,,-0.06,-0.0,0.96,1.0,0.0,0.0,0.96,1.58,61.0,3343.0,5.1,3.48,,11.91,1.249,84.4,,27.7,5.0,,,,,,,,,,,,0,0,0,0,0,0,0,0,0,0,0,0,0,0,0,0,,,,,,0.0,,,,,,,
168,2116764,1745470713750,,,,,,,,,,,,,,,,,,,,,,,,,,,,,,,,,,0,0,0,0,0,0,0,0,0,0,0,0,0,0,0,0,,,,,,,,,,,,,
169,2116784,1745470713770,0.0,37.0,,-0.04,-0.03,1.04,-2.0,0.0,1.0,1.04,1.58,66.0,3144.0,5.3,3.52,,11.91,1.249,84.4,,27.7,5.0,0.0,0.0,0.0,0.0,0.0,0.0,0.0,0.0,2.27,,,0,0,0,0,0,0,0,0,0,0,0,0,0,0,0,0,,0.0,,,,0.0,38.993794,-76.938789,0.04,25.5,32.0,3.0,0.9
170,2116804,1745470713790,,,,,,,,,,,,,,,,,,,,,,,,,,,,,,,,,,0,0,0,0,0,0,0,0,0,0,0,0,0,0,0,0,,,,,,,,,,,,,
171,2116824,1745470713808,0.0,27.0,,-0.05,-0.06,1.09,-3.0,0.0,1.0,1.1,1.58,69.0,3144.0,5.3,3.52,,12.39,1.248,84.4,,26.5,5.0,,,,,,,,,,,,0,0,0,0,0,0,0,0,0,0,0,0,0,0,0,0,,,,,,0.0,,,,,,,
172,2116844,1745470713828,,,,,,,,,,,,,,,,,,,,,,,,,,,,,,,,,,0,0,0,0,0,0,0,0,0,0,0,0,0,0,0,0,,,,,,,,,,,,,
173,2116864,1745470713848,0.0,24.0,,-0.08,-0.08,1.12,-3.0,0.0,1.0,1.13,1.58,71.0,3081.0,5.2,3.57,,12.76,1.249,84.4,,26.5,5.0,,,,,,,,,,,,0,0,0,0,0,0,0,0,0,0,0,0,0,0,0,0,,,,,,0.0,,,,,,,
174,2116884,1745470713868,,,,,,,,,,,,,,,,,,,,,,,0.0,0.0,0.0,0.0,0.0,0.0,0.0,0.0,2.28,,,0,0,0,0,0,0,0,0,0,0,0,0,0,0,0,0,,0.0,,,,,38.993794,-76.938789,0.0,25.5,32.0,3.0,0.9
175,2116904,1745470713888,0.0,20.0,,-0.12,-0.07,1.14,-3.0,0.0,0.0,1.15,1.58,73.0,3053.0,5.2,3.62,,13.03,1.249,84.4,,26.5,5.0,,,,,,,,,,,,0,0,0,0,0,0,0,0,0,0,0,0,0,0,0,0,,,,,,0.0,,,,,,,
176,2116924,1745470713910,,,,,,,,,,,,,,,,,,,,,,,,,,,,,,,,,,0,0,0,0,0,0,0,0,0,0,0,0,0,0,0,0,,,,,,,,,,,,,
177,2116944,1745470713930,0.0,47.0,,-0.14,-0.09,1.17,-3.0,0.0,0.0,1.18,1.58,75.0,2986.0,5.2,3.59,,13.17,1.25,84.4,,25.2,5.0,,,,,,,,,,,,0,0,0,0,0,0,0,0,0,0,0,0,0,0,0,0,,,,,,0.0,,,,,,,
178,2116964,1745470713950,,,,,,,,,,,,,,,,,,,,,,,,,,,,,,,,,,0,0,0,0,0,0,0,0,0,0,0,0,0,0,0,0,,,,,,,,,,,,,
179,2116984,1745470713970,0.0,47.0,,-0.13,-0.1,1.19,-4.0,0.0,0.0,1.2,1.58,76.0,2986.0,5.2,3.59,,13.17,1.25,84.4,,25.2,5.0,0.0,0.0,0.0,0.0,0.0,0.0,0.0,0.0,2.28,,,0,0,0,0,0,0,0,0,0,0,0,0,0,0,0,0,,0.0,,,,0.0,38.993794,-76.938789,0.11,25.5,32.0,3.0,0.9
180,2117004,1745470713990,,,,,,,,,,,,,,,,,,,,,,,,,,,,,,,,,,0,0,0,0,0,0,0,0,0,0,0,0,0,0,0,0,,,,,,,,,,,,,
181,2117024,1745470714001,0.0,47.0,,-0.11,-0.08,1.21,-4.0,0.0,1.0,1.21,1.58,77.0,2872.0,5.3,3.53,,13.31,1.228,84.4,,24.3,5.0,,,,,,,,,,,,0,0,0,0,0,0,0,0,0,0,0,0,0,0,0,0,,,,,,0.0,,,,,,,
182,2117044,1745470714021,,,,,,,,,,,,,,,,,,,,,,,,,,,,,,,,,,0,0,0,0,0,0,0,0,0,0,0,0,0,0,0,0,,,,,,,,,,,,,
183,2117064,1745470714041,0.0,47.0,,-0.09,-0.05,1.18,-4.0,0.0,1.0,1.18,1.58,75.0,2876.0,5.5,3.55,,13.41,1.083,84.4,,24.3,5.0,,,,,,,,,,,,0,0,0,0,0,0,0,0,0,0,0,0,0,0,0,0,,,,,,0.0,,,,,,,
184,2117084,1745470714061,,,,,,,,,,,,,,,,,,,,,,,0.0,0.0,0.0,0.0,0.0,0.0,0.0,0.0,2.27,,,0,0,0,0,0,0,0,0,0,0,0,0,0,0,0,0,,0.0,,,,,38.993794,-76.938789,0.08,25.5,32.0,3.0,0.9
185,2117104,1745470714081,0.0,27.0,,-0.06,-0.06,1.12,-3.0,0.0,1.0,1.12,1.58,71.0,2863.0,5.7,3.59,,13.48,1.002,84.4,,24.3,5.0,,,,,,,,,,,,0,0,0,0,0,0,0,0,0,0,0,0,0,0,0,0,,,,,,0.0,,,,,,,
186,2117124,1745470714109,,,,,,,,,,,,,,,,,,,,,,,,,,,,,,,,,,0,0,0,0,0,0,0,0,0,0,0,0,0,0,0,0,,,,,,,,,,,,,
187,2117144,1745470714129,0.0,37.0,,-0.08,-0.06,1.09,-2.0,0.0,0.0,1.1,1.58,70.0,2860.0,5.7,3.56,,13.47,0.969,84.4,,23.2,5.0,,,,,,,,,,,,0,0,0,0,0,0,0,0,0,0,0,0,0,0,0,0,,,,,,0.0,,,,,,,
188,2117164,1745470714149,,,,,,,,,,,,,,,,,,,,,,,,,,,,,,,,,,0,0,0,0,0,0,0,0,0,0,0,0,0,0,0,0,,,,,,,,,,,,,
189,2117184,1745470714169,0.0,30.0,,-0.09,-0.06,1.11,-2.0,0.0,0.0,1.12,1.58,71.0,2840.0,5.7,3.53,,13.47,0.969,84.4,,23.2,5.0,0.0,0.0,0.0,0.0,0.0,0.0,0.0,0.0,2.27,,,0,0,0,0,0,0,0,0,0,0,0,0,0,0,0,0,,0.0,,,,0.0,38.993794,-76.938789,0.11,25.5,32.0,3.0,0.9
190,2117204,1745470714189,,,,,,,,,,,,,,,,,,,,,,,,,,,,,,,,,,0,0,0,0,0,0,0,0,0,0,0,0,0,0,0,0,,,,,,,,,,,,,
191,2117224,1745470714209,0.0,30.0,,-0.08,-0.02,1.11,-2.0,0.0,1.0,1.11,1.58,70.0,2840.0,5.7,3.53,,13.48,1.009,84.4,,23.5,5.0,,,,,,,,,,,,0,0,0,0,0,0,0,0,0,0,0,0,0,0,0,0,,,,,,0.0,,,,,,,
192,2117244,1745470714229,,,,,,,,,,,,,,,,,,,,,,,,,,,,,,,,,,0,0,0,0,0,0,0,0,0,0,0,0,0,0,0,0,,,,,,,,,,,,,
193,2117264,1745470714249,0.0,44.0,,-0.06,-0.03,1.05,-2.0,0.0,0.0,1.05,1.58,67.0,2795.0,5.7,3.59,,13.52,1.082,84.4,,23.5,5.0,,,,,,,,,,,,0,0,0,0,0,0,0,0,0,0,0,0,0,0,0,0,,,,,,0.0,,,,,,,
194,2117284,1745470714269,,,,,,,,,,,,,,,,,,,,,,,0.0,0.0,0.0,0.0,0.0,0.0,0.0,0.0,2.27,,,0,0,0,0,0,0,0,0,0,0,0,0,0,0,0,0,,0.0,,,,,38.993794,-76.938789,0.08,25.5,32.0,3.0,0.9
195,2117304,1745470714289,0.0,27.0,,-0.08,-0.03,1.04,-1.0,0.0,0.0,1.04,1.58,66.0,2796.0,5.5,3.61,,13.56,1.128,84.4,,23.5,5.0,,,,,,,,,,,,0,0,0,0,0,0,0,0,0,0,0,0,0,0,0,0,,,,,,0.0,,,,,,,
196,2117324,1745470714309,,,,,,,,,,,,,,,,,,,,,,,,,,,,,,,,,,0,0,0,0,0,0,0,0,0,0,0,0,0,0,0,0,,,,,,,,,,,,,
197,2117344,1745470714329,0.0,44.0,,-0.09,-0.05,1.08,-1.0,0.0,0.0,1.08,1.58,69.0,2802.0,5.3,3.6,,13.56,1.136,84.4,,23.6,5.0,,,,,,,,,,,,0,0,0,0,0,0,0,0,0,0,0,0,0,0,0,0,,,,,,0.0,,,,,,,
198,2117364,1745470714349,,,,,,,,,,,,,,,,,,,,,,,,,,,,,,,,,,0,0,0,0,0,0,0,0,0,0,0,0,0,0,0,0,,,,,,,,,,,,,
199,2117384,1745470714369,0.0,44.0,13.9,-0.08,-0.03,1.11,-2.0,0.0,0.0,1.12,1.58,71.0,2920.0,5.2,3.58,15.0,13.56,1.136,84.4,182.0,23.6,5.0,0.0,0.0,0.0,0.0,0.0,0.0,0.0,0.0,2.28,0.0,1.0,0,0,0,0,0,0,0,0,0,0,0,0,0,0,0,0,0.0,0.0,1.0,0.0,0.0,0.0,38.993794,-76.938789,0.07,25.5,32.0,3.0,0.9
200,2117404,1745470714389,,,,,,,,,,,,,,,,,,,,,,,,,,,,,,,,,,0,0,0,0,0,0,0,0,0,0,0,0,0,0,0,0,,,,,,,,,,,,,
201,2117424,1745470714409,0.0,30.0,,-0.08,-0.0,1.07,-1.0,0.0,0.0,1.08,1.58,68.0,2920.0,5.2,3.58,,13.51,1.165,84.4,,24.0,5.0,,,,,,,,,,,,0,0,0,0,0,0,0,0,0,0,0,0,0,0,0,0,,,,,,0.0,,,,,,,
202,2117444,1745470714429,,,,,,,,,,,,,,,,,,,,,,,,,,,,,,,,,,0,0,0,0,0,0,0,0,0,0,0,0,0,0,0,0,,,,,,,,,,,,,
203,2117464,1745470714449,0.0,27.0,,-0.05,0.0,1.06,-2.0,0.0,1.0,1.06,1.58,67.0,2956.0,5.2,3.59,,13.48,1.177,84.4,,24.0,5.0,,,,,,,,,,,,0,0,0,0,0,0,0,0,0,0,0,0,0,0,0,0,,,,,,0.0,,,,,,,
204,2117484,1745470714469,,,,,,,,,,,,,,,,,,,,,,,0.0,0.0,0.0,0.0,0.0,0.0,0.0,0.0,2.28,,,0,0,0,0,0,0,0,0,0,0,0,0,0,0,0,0,,0.0,,,,,38.993794,-76.938789,0.05,25.5,32.0,3.0,0.9
205,2117504,1745470714489,0.0,27.0,,-0.03,0.01,1.01,-2.0,0.0,1.0,1.01,1.58,64.0,2909.0,5.3,3.55,,13.47,1.202,84.4,,24.0,5.0,,,,,,,,,,,,0,0,0,0,0,0,0,0,0,0,0,0,0,0,0,0,,,,,,0.0,,,,,,,
206,2117524,1745470714509,,,,,,,,,,,,,,,,,,,,,,,,,,,,,,,,,,0,0,0,0,0,0,0,0,0,0,0,0,0,0,0,0,,,,,,,,,,,,,
207,2117544,1745470714529,0.0,30.0,,-0.01,-0.01,0.97,-2.0,0.0,1.0,0.97,1.58,61.0,2946.0,5.5,3.56,,13.51,1.214,84.4,,24.8,5.0,,,,,,,,,,,,0,0,0,0,0,0,0,0,0,0,0,0,0,0,0,0,,,,,,0.0,,,,,,,
208,2117564,1745470714549,,,,,,,,,,,,,,,,,,,,,,,,,,,,,,,,,,0,0,0,0,0,0,0,0,0,0,0,0,0,0,0,0,,,,,,,,,,,,,
209,2117584,1745470714569,0.0,27.0,,0.01,-0.0,0.92,-1.0,0.0,1.0,0.92,1.58,58.0,3004.0,5.7,3.6,,13.51,1.214,84.4,,24.8,5.0,0.0,0.0,0.0,0.0,0.0,0.0,0.0,0.0,2.27,,,0,0,0,0,0,0,0,0,0,0,0,0,0,0,0,0,,0.0,,,,0.0,38.993794,-76.938789,0.07,25.5,32.0,3.0,0.9
210,2117604,1745470714589,,,,,,,,,,,,,,,,,,,,,,,,,,,,,,,,,,0,0,0,0,0,0,0,0,0,0,0,0,0,0,0,0,,,,,,,,,,,,,
211,2117624,1745470714609,0.0,37.0,,0.02,-0.0,0.88,0.0,-1.0,0.0,0.88,1.58,55.0,3004.0,5.7,3.6,,13.45,1.219,84.4,,24.4,5.0,,,,,,,,,,,,0,0,0,0,0,0,0,0,0,0,0,0,0,0,0,0,,,,,,0.0,,,,,,,
212,2117644,1745470714629,,,,,,,,,,,,,,,,,,,,,,,,,,,,,,,,,,0,0,0,0,0,0,0,0,0,0,0,0,0,0,0,0,,,,,,,,,,,,,
213,2117664,1745470714649,0.0,41.0,,0.03,0.01,0.84,0.0,-1.0,1.0,0.84,1.58,53.0,3025.0,5.9,3.55,,13.45,1.225,86.2,,24.4,5.0,,,,,,,,,,,,0,0,0,0,0,0,0,0,0,0,0,0,0,0,0,0,,,,,,0.0,,,,,,,
214,2117684,1745470714669,,,,,,,,,,,,,,,,,,,,,,,0.0,0.0,0.0,0.0,0.0,0.0,0.0,0.0,2.27,,,0,0,0,0,0,0,0,0,0,0,0,0,0,0,0,0,,0.0,,,,,38.993794,-76.938789,0.04,25.5,32.0,3.0,0.9
215,2117704,1745470714689,0.0,37.0,,0.04,0.02,0.85,-1.0,-1.0,1.0,0.85,1.58,54.0,3027.0,5.8,3.62,,13.37,1.211,86.2,,24.4,5.0,,,,,,,,,,,,0,0,0,0,0,0,0,0,0,0,0,0,0,0,0,0,,,,,,0.0,,,,,,,
216,2117724,1745470714709,,,,,,,,,,,,,,,,,,,,,,,,,,,,,,,,,,0,0,0,0,0,0,0,0,0,0,0,0,0,0,0,0,,,,,,,,,,,,,
217,2117744,1745470714729,0.0,44.0,,0.06,0.0,0.91,-3.0,-1.0,1.0,0.92,1.58,58.0,3092.0,5.9,3.57,,13.39,1.206,86.2,,26.0,5.0,,,,,,,,,,,,0,0,0,0,0,0,0,0,0,0,0,0,0,0,0,0,,,,,,0.0,,,,,,,
218,2117764,1745470714749,,,,,,,,,,,,,,,,,,,,,,,,,,,,,,,,,,0,0,0,0,0,0,0,0,0,0,0,0,0,0,0,0,,,,,,,,,,,,,
219,2117784,1745470714769,0.0,20.0,,0.04,-0.04,0.98,-4.0,0.0,1.0,0.99,1.58,62.0,3173.0,5.7,3.62,,13.39,1.206,86.2,,26.0,5.0,0.0,0.0,0.0,0.0,0.0,0.0,0.0,0.0,2.27,,,0,0,0,0,0,0,0,0,0,0,0,0,0,0,0,0,,0.0,,,,0.0,38.993794,-76.938789,0.07,25.5,32.0,3.0,0.9
220,2117804,1745470714789,,,,,,,,,,,,,,,,,,,,,,,,,,,,,,,,,,0,0,0,0,0,0,0,0,0,0,0,0,0,0,0,0,,,,,,,,,,,,,
221,2117824,1745470714809,0.0,24.0,,-0.01,-0.05,0.97,-2.0,0.0,0.0,0.97,1.58,61.0,3173.0,5.7,3.62,,13.29,1.21,86.2,,26.4,5.0,,,,,,,,,,,,0,0,0,0,0,0,0,0,0,0,0,0,0,0,0,0,,,,,,0.0,,,,,,,
222,2117844,1745470714829,,,,,,,,,,,,,,,,,,,,,,,,,,,,,,,,,,0,0,0,0,0,0,0,0,0,0,0,0,0,0,0,0,,,,,,,,,,,,,
223,2117864,1745470714849,0.0,27.0,,-0.01,0.02,0.9,0.0,-1.0,0.0,0.9,1.58,57.0,3192.0,5.5,3.61,,13.28,1.216,86.2,,26.4,5.0,,,,,,,,,,,,0,0,0,0,0,0,0,0,0,0,0,0,0,0,0,0,,,,,,0.0,,,,,,,
224,2117884,1745470714869,,,,,,,,,,,,,,,,,,,,,,,0.0,0.0,0.0,0.0,0.0,0.0,0.0,0.0,2.28,,,0,0,0,0,0,0,0,0,0,0,0,0,0,0,0,0,,0.0,,,,,38.993794,-76.938789,0.07,25.5,32.0,3.0,0.9
225,2117904,1745470714889,0.0,20.0,,0.03,-0.0,0.95,-2.0,0.0,1.0,0.95,1.58,60.0,0.0,5.3,3.68,,13.2,1.225,86.2,,26.4,5.0,,,,,,,,,,,,0,0,0,0,0,0,0,0,0,0,0,0,0,0,0,0,,,,,,0.0,,,,,,,
226,2117924,1745470714909,,,,,,,,,,,,,,,,,,,,,,,,,,,,,,,,,,0,0,0,0,0,0,0,0,0,0,0,0,0,0,0,0,,,,,,,,,,,,,
227,2117944,1745470714929,0.0,41.0,,0.02,-0.05,1.02,-3.0,0.0,0.0,1.02,1.58,65.0,3155.0,5.1,3.57,,13.19,1.246,86.2,,26.5,5.0,,,,,,,,,,,,0,0,0,0,0,0,0,0,0,0,0,0,0,0,0,0,,,,,,0.0,,,,,,,
228,2117964,1745470714949,,,,,,,,,,,,,,,,,,,,,,,,,,,,,,,,,,0,0,0,0,0,0,0,0,0,0,0,0,0,0,0,0,,,,,,,,,,,,,
229,2117984,1745470714969,0.0,37.0,,-0.04,-0.04,1.0,-1.0,0.0,0.0,1.0,1.58,63.0,3146.0,4.8,3.52,,13.19,1.246,86.2,,26.5,5.0,0.0,0.0,0.0,0.0,0.0,0.0,0.0,0.0,2.28,,,0,0,0,0,0,0,0,0,0,0,0,0,0,0,0,0,,0.0,,,,0.0,38.993794,-76.938789,0.07,25.5,32.0,3.0,0.9
230,2118004,1745470714989,,,,,,,,,,,,,,,,,,,,,,,,,,,,,,,,,,0,0,0,0,0,0,0,0,0,0,0,0,0,0,0,0,,,,,,,,,,,,,
231,2118024,1745470715009,0.0,34.0,,-0.04,0.02,0.92,1.0,0.0,0.0,0.92,1.58,58.0,3146.0,4.8,3.52,,13.19,1.25,86.2,,26.6,5.0,,,,,,,,,,,,0,0,0,0,0,0,0,0,0,0,0,0,0,0,0,0,,,,,,0.0,,,,,,,
232,2118044,1745470715020,,,,,,,,,,,,,,,,,,,,,,,,,,,,,,,,,,0,0,0,0,0,0,0,0,0,0,0,0,0,0,0,0,,,,,,,,,,,,,
233,2118064,1745470715040,0.0,30.0,,-0.01,0.04,0.91,1.0,-1.0,0.0,0.92,1.58,58.0,3141.0,4.7,3.51,,13.21,1.238,86.2,,26.6,5.0,,,,,,,,,,,,0,0,0,0,0,0,0,0,0,0,0,0,0,0,0,0,,,,,,0.0,,,,,,,
234,2118084,1745470715060,,,,,,,,,,,,,,,,,,,,,,,0.0,0.0,0.0,0.0,0.0,0.0,0.0,0.0,2.27,,,0,0,0,0,0,0,0,0,0,0,0,0,0,0,0,0,,0.0,,,,,38.993794,-76.938789,0.04,25.5,32.0,3.0,0.9
235,2118104,1745470715080,0.0,20.0,,0.01,0.01,0.99,-1.0,0.0,1.0,0.99,1.58,63.0,3144.0,4.9,3.48,,13.19,1.229,86.2,,26.6,5.0,,,,,,,,,,,,0,0,0,0,0,0,0,0,0,0,0,0,0,0,0,0,,,,,,0.0,,,,,,,
236,2118124,1745470715110,,,,,,,,,,,,,,,,,,,,,,,,,,,,,,,,,,0,0,0,0,0,0,0,0,0,0,0,0,0,0,0,0,,,,,,,,,,,,,
237,2118144,1745470715130,0.0,30.0,,-0.01,-0.04,1.05,-2.0,0.0,0.0,1.05,1.58,66.0,3162.0,5.0,3.48,,13.13,1.209,86.2,,26.1,5.0,,,,,,,,,,,,0,0,0,0,0,0,0,0,0,0,0,0,0,0,0,0,,,,,,0.0,,,,,,,
238,2118164,1745470715150,,,,,,,,,,,,,,,,,,,,,,,,,,,,,,,,,,0,0,0,0,0,0,0,0,0,0,0,0,0,0,0,0,,,,,,,,,,,,,
239,2118184,1745470715170,0.0,27.0,,-0.06,-0.02,1.0,0.0,0.0,0.0,1.01,1.58,64.0,3172.0,5.1,3.52,,13.13,1.209,86.2,,26.1,5.0,0.0,0.0,0.0,0.0,0.0,0.0,0.0,0.0,2.27,,,0,0,0,0,0,0,0,0,0,0,0,0,0,0,0,0,,0.0,,,,0.0,38.993794,-76.938789,0.04,25.5,32.0,3.0,0.9
240,2118204,1745470715190,,,,,,,,,,,,,,,,,,,,,,,,,,,,,,,,,,0,0,0,0,0,0,0,0,0,0,0,0,0,0,0,0,,,,,,,,,,,,,
241,2118224,1745470715210,0.0,20.0,,-0.04,0.02,0.93,1.0,-1.0,0.0,0.93,1.58,59.0,3172.0,5.1,3.52,,13.17,1.227,86.2,,26.7,5.0,,,,,,,,,,,,0,0,0,0,0,0,0,0,0,0,0,0,0,0,0,0,,,,,,0.0,,,,,,,
242,2118244,1745470715230,,,,,,,,,,,,,,,,,,,,,,,,,,,,,,,,,,0,0,0,0,0,0,0,0,0,0,0,0,0,0,0,0,,,,,,,,,,,,,
243,2118264,1745470715250,0.0,34.0,,-0.01,0.02,0.99,-1.0,-1.0,0.0,0.99,1.58,63.0,3220.0,5.0,3.54,,13.15,1.213,86.2,,26.7,5.0,,,,,,,,,,,,0,0,0,0,0,0,0,0,0,0,0,0,0,0,0,0,,,,,,0.0,,,,,,,
244,2118284,1745470715270,,,,,,,,,,,,,,,,,,,,,,,0.0,0.0,0.0,0.0,0.0,0.0,0.0,0.0,2.26,,,0,0,0,0,0,0,0,0,0,0,0,0,0,0,0,0,,0.0,,,,,38.993794,-76.938789,0.08,25.5,32.0,3.0,0.9
245,2118304,1745470715290,0.0,41.0,,-0.03,-0.02,1.04,-2.0,0.0,0.0,1.05,1.58,66.0,3216.0,5.0,3.51,,13.12,1.182,86.2,,26.7,5.0,,,,,,,,,,,,0,0,0,0,0,0,0,0,0,0,0,0,0,0,0,0,,,,,,0.0,,,,,,,
246,2118324,1745470715310,,,,,,,,,,,,,,,,,,,,,,,,,,,,,,,,,,0,0,0,0,0,0,0,0,0,0,0,0,0,0,0,0,,,,,,,,,,,,,
247,2118344,1745470715330,0.0,41.0,,-0.07,0.01,0.99,0.0,0.0,0.0,0.99,1.58,63.0,3159.0,4.7,3.55,,13.11,1.187,86.2,,27.1,5.0,,,,,,,,,,,,0,0,0,0,0,0,0,0,0,0,0,0,0,0,0,0,,,,,,0.0,,,,,,,
248,2118364,1745470715350,,,,,,,,,,,,,,,,,,,,,,,,,,,,,,,,,,0,0,0,0,0,0,0,0,0,0,0,0,0,0,0,0,,,,,,,,,,,,,
249,2118384,1745470715370,0.0,37.0,13.91,-0.06,0.06,0.94,2.0,0.0,0.0,0.94,1.58,60.0,3169.0,4.5,3.48,15.0,13.11,1.187,86.2,183.0,27.1,5.0,0.0,0.0,0.0,0.0,0.0,0.0,0.0,0.0,2.28,0.0,1.0,0,0,0,0,0,0,0,0,0,0,0,0,0,0,0,0,0.0,0.0,1.0,0.0,0.0,0.0,38.993794,-76.938789,0.0,25.5,32.0,3.0,0.9
250,2118404,1745470715390,,,,,,,,,,,,,,,,,,,,,,,,,,,,,,,,,,0,0,0,0,0,0,0,0,0,0,0,0,0,0,0,0,,,,,,,,,,,,,
251,2118424,1745470715408,0.0,27.0,,-0.05,0.07,0.89,2.0,-1.0,0.0,0.89,1.58,56.0,3169.0,4.5,3.48,,13.11,1.201,86.2,,26.3,5.0,,,,,,,,,,,,0,0,0,0,0,0,0,0,0,0,0,0,0,0,0,0,,,,,,0.0,,,,,,,
252,2118444,1745470715428,,,,,,,,,,,,,,,,,,,,,,,,,,,,,,,,,,0,0,0,0,0,0,0,0,0,0,0,0,0,0,0,0,,,,,,,,,,,,,
253,2118464,1745470715448,0.0,27.0,,-0.05,0.02,0.97,0.0,0.0,0.0,0.97,1.58,61.0,3186.0,4.5,3.55,,13.12,1.202,86.2,,26.3,5.0,,,,,,,,,,,,0,0,0,0,0,0,0,0,0,0,0,0,0,0,0,0,,,,,,0.0,,,,,,,
254,2118484,1745470715468,,,,,,,,,,,,,,,,,,,,,,,0.0,0.0,0.0,0.0,0.0,0.0,0.0,0.0,2.28,,,0,0,0,0,0,0,0,0,0,0,0,0,0,0,0,0,,0.0,,,,,38.993794,-76.938789,0.08,25.5,32.0,3.0,0.9
255,2118504,1745470715488,0.0,20.0,,-0.09,-0.01,0.97,1.0,0.0,0.0,0.97,1.58,61.0,3145.0,4.5,3.49,,13.12,1.199,86.2,,26.3,5.0,,,,,,,,,,,,0,0,0,0,0,0,0,0,0,0,0,0,0,0,0,0,,,,,,0.0,,,,,,,
256,2118524,1745470715510,,,,,,,,,,,,,,,,,,,,,,,,,,,,,,,,,,0,0,0,0,0,0,0,0,0,0,0,0,0,0,0,0,,,,,,,,,,,,,
257,2118544,1745470715530,0.0,34.0,,-0.1,0.05,0.89,3.0,-1.0,-1.0,0.9,1.58,57.0,3207.0,4.4,3.46,,13.13,1.206,86.2,,26.5,5.0,,,,,,,,,,,,0,0,0,0,0,0,0,0,0,0,0,0,0,0,0,0,,,,,,0.0,,,,,,,
258,2118564,1745470715550,,,,,,,,,,,,,,,,,,,,,,,,,,,,,,,,,,0,0,0,0,0,0,0,0,0,0,0,0,0,0,0,0,,,,,,,,,,,,,
259,2118584,1745470715570,0.0,41.0,,-0.05,0.06,0.92,2.0,-1.0,0.0,0.92,1.58,58.0,3235.0,4.4,3.48,,13.13,1.206,86.2,,26.5,5.0,0.0,0.0,0.0,0.0,0.0,0.0,0.0,0.0,2.27,,,0,0,0,0,0,0,0,0,0,0,0,0,0,0,0,0,,0.0,,,,0.0,38.993794,-76.938789,0.0,25.5,32.0,3.0,0.9
260,2118604,1745470715590,,,,,,,,,,,,,,,,,,,,,,,,,,,,,,,,,,0,0,0,0,0,0,0,0,0,0,0,0,0,0,0,0,,,,,,,,,,,,,
261,2118624,1745470715610,0.0,34.0,,-0.05,-0.01,1.0,0.0,0.0,0.0,1.0,1.58,63.0,3235.0,4.4,3.48,,13.07,1.193,86.2,,27.1,5.0,,,,,,,,,,,,0,0,0,0,0,0,0,0,0,0,0,0,0,0,0,0,,,,,,0.0,,,,,,,
262,2118644,1745470715630,,,,,,,,,,,,,,,,,,,,,,,,,,,,,,,,,,0,0,0,0,0,0,0,0,0,0,0,0,0,0,0,0,,,,,,,,,,,,,
263,2118664,1745470715650,0.0,34.0,,-0.09,0.0,0.97,1.0,0.0,0.0,0.97,1.58,61.0,3191.0,4.3,3.46,,13.07,1.176,86.2,,27.1,5.0,,,,,,,,,,,,0,0,0,0,0,0,0,0,0,0,0,0,0,0,0,0,,,,,,0.0,,,,,,,
264,2118684,1745470715670,,,,,,,,,,,,,,,,,,,,,,,0.0,0.0,0.0,0.0,0.0,0.0,0.0,0.0,2.27,,,0,0,0,0,0,0,0,0,0,0,0,0,0,0,0,0,,0.0,,,,,38.993794,-76.938789,0.0,25.5,32.0,3.0,0.9
265,2118704,1745470715690,0.0,34.0,,-0.07,0.06,0.92,2.0,-1.0,0.0,0.92,1.58,58.0,3248.0,4.2,3.45,,13.05,1.192,86.2,,27.1,5.0,,,,,,,,,,,,0,0,0,0,0,0,0,0,0,0,0,0,0,0,0,0,,,,,,0.0,,,,,,,
266,2118724,1745470715710,,,,,,,,,,,,,,,,,,,,,,,,,,,,,,,,,,0,0,0,0,0,0,0,0,0,0,0,0,0,0,0,0,,,,,,,,,,,,,
267,2118744,1745470715730,0.0,30.0,,-0.05,0.01,1.0,0.0,0.0,0.0,1.01,1.58,64.0,3249.0,3.9,3.32,,12.97,1.208,86.2,,26.7,5.0,,,,,,,,,,,,0,0,0,0,0,0,0,0,0,0,0,0,0,0,0,0,,,,,,0.0,,,,,,,
268,2118764,1745470715750,,,,,,,,,,,,,,,,,,,,,,,,,,,,,,,,,,0,0,0,0,0,0,0,0,0,0,0,0,0,0,0,0,,,,,,,,,,,,,
269,2118784,1745470715770,0.0,17.0,,-0.09,-0.01,1.02,0.0,0.0,0.0,1.02,1.58,65.0,3145.0,3.8,3.4,,12.97,1.208,86.2,,26.7,5.0,0.0,0.0,0.0,0.0,0.0,0.0,0.0,0.0,2.27,,,0,0,0,0,0,0,0,0,0,0,0,0,0,0,0,0,,0.0,,,,0.0,38.993794,-76.938789,0.05,25.5,32.0,3.0,0.9
270,2118804,1745470715790,,,,,,,,,,,,,,,,,,,,,,,,,,,,,,,,,,0,0,0,0,0,0,0,0,0,0,0,0,0,0,0,0,,,,,,,,,,,,,
271,2118824,1745470715808,0.0,20.0,,-0.1,0.03,0.93,2.0,0.0,0.0,0.94,1.58,60.0,3145.0,3.8,3.4,,13.0,1.206,86.2,,26.7,5.0,,,,,,,,,,,,0,0,0,0,0,0,0,0,0,0,0,0,0,0,0,0,,,,,,0.0,,,,,,,
272,2118844,1745470715828,,,,,,,,,,,,,,,,,,,,,,,,,,,,,,,,,,0,0,0,0,0,0,0,0,0,0,0,0,0,0,0,0,,,,,,,,,,,,,
273,2118864,1745470715848,0.0,27.0,,-0.06,0.06,0.93,2.0,-1.0,0.0,0.93,1.58,59.0,3202.0,3.5,3.32,,12.97,1.199,86.2,,26.7,5.0,,,,,,,,,,,,0,0,0,0,0,0,0,0,0,0,0,0,0,0,0,0,,,,,,0.0,,,,,,,
274,2118884,1745470715868,,,,,,,,,,,,,,,,,,,,,,,0.0,0.0,0.0,0.0,0.0,0.0,0.0,0.0,2.27,,,0,0,0,0,0,0,0,0,0,0,0,0,0,0,0,0,,0.0,,,,,38.993794,-76.938789,0.07,25.5,32.0,3.0,0.9
275,2118904,1745470715888,0.0,34.0,,-0.03,0.02,1.0,0.0,0.0,0.0,1.0,1.58,63.0,3175.0,3.1,3.32,,12.95,1.184,86.2,,26.7,5.0,,,,,,,,,,,,0,0,0,0,0,0,0,0,0,0,0,0,0,0,0,0,,,,,,0.0,,,,,,,
276,2118924,1745470715910,,,,,,,,,,,,,,,,,,,,,,,,,,,,,,,,,,0,0,0,0,0,0,0,0,0,0,0,0,0,0,0,0,,,,,,,,,,,,,
277,2118944,1745470715930,0.0,37.0,,-0.03,-0.02,1.05,-2.0,0.0,0.0,1.05,1.58,67.0,3079.0,2.9,3.26,,12.93,1.192,86.2,,26.6,5.0,,,,,,,,,,,,0,0,0,0,0,0,0,0,0,0,0,0,0,0,0,0,,,,,,0.0,,,,,,,
278,2118964,1745470715950,,,,,,,,,,,,,,,,,,,,,,,,,,,,,,,,,,0,0,0,0,0,0,0,0,0,0,0,0,0,0,0,0,,,,,,,,,,,,,
279,2118984,1745470715970,0.0,37.0,,-0.07,-0.05,1.07,-2.0,0.0,0.0,1.07,1.58,68.0,3094.0,2.7,3.24,,12.93,1.192,86.2,,26.6,5.0,0.0,0.0,0.0,0.0,0.0,0.0,0.0,0.0,2.28,,,0,0,0,0,0,0,0,0,0,0,0,0,0,0,0,0,,0.0,,,,0.0,38.993794,-76.938789,0.11,25.5,32.0,3.0,0.9
280,2119004,1745470715990,,,,,,,,,,,,,,,,,,,,,,,,,,,,,,,,,,0,0,0,0,0,0,0,0,0,0,0,0,0,0,0,0,,,,,,,,,,,,,
281,2119024,1745470716010,0.0,34.0,,-0.11,-0.02,1.03,0.0,0.0,0.0,1.04,1.58,66.0,3094.0,2.7,3.24,,13.01,1.199,86.2,,25.5,5.0,,,,,,,,,,,,0,0,0,0,0,0,0,0,0,0,0,0,0,0,0,0,,,,,,0.0,,,,,,,
282,2119044,1745470716019,,,,,,,,,,,,,,,,,,,,,,,,,,,,,,,,,,0,0,0,0,0,0,0,0,0,0,0,0,0,0,0,0,,,,,,,,,,,,,
283,2119064,1745470716039,0.0,20.0,,-0.12,0.03,0.95,2.0,0.0,-1.0,0.96,1.58,61.0,3099.0,2.7,3.14,,12.97,1.204,86.2,,25.5,5.0,,,,,,,,,,,,0,0,0,0,0,0,0,0,0,0,0,0,0,0,0,0,,,,,,0.0,,,,,,,
284,2119084,1745470716059,,,,,,,,,,,,,,,,,,,,,,,0.0,0.0,0.0,0.0,0.0,0.0,0.0,0.0,2.28,,,0,0,0,0,0,0,0,0,0,0,0,0,0,0,0,0,,0.0,,,,,38.993794,-76.938789,0.0,25.5,32.0,3.0,0.9
285,2119104,1745470716079,0.0,10.0,,-0.12,0.06,0.89,3.0,0.0,-1.0,0.89,1.58,57.0,3031.0,2.6,3.14,,13.0,1.209,86.2,,25.5,5.0,,,,,,,,,,,,0,0,0,0,0,0,0,0,0,0,0,0,0,0,0,0,,,,,,0.0,,,,,,,
286,2119124,1745470716109,,,,,,,,,,,,,,,,,,,,,,,,,,,,,,,,,,0,0,0,0,0,0,0,0,0,0,0,0,0,0,0,0,,,,,,,,,,,,,
287,2119144,1745470716129,0.0,24.0,,-0.1,0.06,0.84,4.0,-1.0,-1.0,0.84,1.58,53.0,3003.0,2.8,3.11,,13.05,1.206,86.2,,25.5,5.0,,,,,,,,,,,,0,0,0,0,0,0,0,0,0,0,0,0,0,0,0,0,,,,,,0.0,,,,,,,
288,2119164,1745470716149,,,,,,,,,,,,,,,,,,,,,,,,,,,,,,,,,,0,0,0,0,0,0,0,0,0,0,0,0,0,0,0,0,,,,,,,,,,,,,
289,2119184,1745470716169,0.0,17.0,,-0.06,0.07,0.83,4.0,-1.0,-1.0,0.84,1.58,53.0,3239.0,3.0,3.13,,13.05,1.206,86.2,,25.5,5.0,0.0,0.0,0.0,0.0,0.0,0.0,0.0,0.0,2.27,,,0,0,0,0,0,0,0,0,0,0,0,0,0,0,0,0,,0.0,,,,0.0,38.993794,-76.938789,0.07,25.5,32.0,3.0,0.9
290,2119204,1745470716189,,,,,,,,,,,,,,,,,,,,,,,,,,,,,,,,,,0,0,0,0,0,0,0,0,0,0,0,0,0,0,0,0,,,,,,,,,,,,,
291,2119224,1745470716207,0.0,24.0,,-0.06,0.01,0.92,1.0,0.0,0.0,0.93,1.58,59.0,3239.0,3.0,3.13,,13.01,1.245,86.2,,26.5,5.0,,,,,,,,,,,,0,0,0,0,0,0,0,0,0,0,0,0,0,0,0,0,,,,,,0.0,,,,,,,
292,2119244,1745470716227,,,,,,,,,,,,,,,,,,,,,,,,,,,,,,,,,,0,0,0,0,0,0,0,0,0,0,0,0,0,0,0,0,,,,,,,,,,,,,
293,2119264,1745470716247,0.0,34.0,,-0.1,-0.01,0.92,2.0,0.0,0.0,0.93,1.58,59.0,3246.0,2.9,3.1,,12.93,1.252,86.2,,26.5,5.0,,,,,,,,,,,,0,0,0,0,0,0,0,0,0,0,0,0,0,0,0,0,,,,,,0.0,,,,,,,
294,2119284,1745470716267,,,,,,,,,,,,,,,,,,,,,,,0.0,0.0,0.0,0.0,0.0,0.0,0.0,0.0,2.27,,,0,0,0,0,0,0,0,0,0,0,0,0,0,0,0,0,,0.0,,,,,38.993794,-76.938789,0.04,25.5,32.0,3.0,0.9
295,2119304,1745470716287,0.0,34.0,,-0.1,0.05,0.85,3.0,0.0,-1.0,0.86,1.58,54.0,3155.0,2.7,3.16,,12.91,1.222,86.2,,26.5,5.0,,,,,,,,,,,,0,0,0,0,0,0,0,0,0,0,0,0,0,0,0,0,,,,,,0.0,,,,,,,
296,2119324,1745470716309,,,,,,,,,,,,,,,,,,,,,,,,,,,,,,,,,,0,0,0,0,0,0,0,0,0,0,0,0,0,0,0,0,,,,,,,,,,,,,
297,2119344,1745470716329,0.0,37.0,,-0.07,0.06,0.85,3.0,-1.0,0.0,0.86,1.58,54.0,3147.0,2.5,3.08,,12.87,1.19,86.2,,26.4,5.0,,,,,,,,,,,,0,0,0,0,0,0,0,0,0,0,0,0,0,0,0,0,,,,,,0.0,,,,,,,
298,2119364,1745470716349,,,,,,,,,,,,,,,,,,,,,,,,,,,,,,,,,,0,0,0,0,0,0,0,0,0,0,0,0,0,0,0,0,,,,,,,,,,,,,
299,2119384,1745470716369,0.0,20.0,13.9,-0.03,0.05,0.88,1.0,-1.0,0.0,0.88,1.58,56.0,3121.0,2.2,3.1,15.0,12.87,1.19,86.2,183.0,26.4,5.0,0.0,0.0,0.0,0.0,0.0,0.0,0.0,0.0,2.27,0.0,1.0,0,0,0,0,0,0,0,0,0,0,0,0,0,0,0,0,0.0,0.0,1.0,0.0,0.0,0.0,38.993794,-76.938789,0.13,25.5,32.0,3.0,0.9
300,2119404,1745470716389,,,,,,,,,,,,,,,,,,,,,,,,,,,,,,,,,,0,0,0,0,0,0,0,0,0,0,0,0,0,0,0,0,,,,,,,,,,,,,
301,2119424,1745470716409,0.0,20.0,,-0.0,0.04,0.94,0.0,0.0,0.0,0.94,1.58,60.0,3121.0,2.2,3.1,,12.87,1.177,86.2,,26.1,5.0,,,,,,,,,,,,0,0,0,0,0,0,0,0,0,0,0,0,0,0,0,0,,,,,,0.0,,,,,,,
302,2119444,1745470716429,,,,,,,,,,,,,,,,,,,,,,,,,,,,,,,,,,0,0,0,0,0,0,0,0,0,0,0,0,0,0,0,0,,,,,,,,,,,,,
303,2119464,1745470716449,0.0,17.0,,0.02,0.02,1.0,-2.0,0.0,0.0,1.0,1.58,64.0,3031.0,1.9,3.1,,12.93,1.19,86.2,,26.1,5.0,,,,,,,,,,,,0,0,0,0,0,0,0,0,0,0,0,0,0,0,0,0,,,,,,0.0,,,,,,,
304,2119484,1745470716469,,,,,,,,,,,,,,,,,,,,,,,0.0,0.0,0.0,0.0,0.0,0.0,0.0,0.0,2.28,,,0,0,0,0,0,0,0,0,0,0,0,0,0,0,0,0,,0.0,,,,,38.993794,-76.938789,0.0,25.5,32.0,3.0,0.9
305,2119504,1745470716489,0.0,17.0,,0.03,0.01,1.05,-3.0,0.0,1.0,1.05,1.58,66.0,3003.0,1.9,3.11,,12.97,1.216,86.2,,26.1,5.0,,,,,,,,,,,,0,0,0,0,0,0,0,0,0,0,0,0,0,0,0,0,,,,,,0.0,,,,,,,
306,2119524,1745470716507,,,,,,,,,,,,,,,,,,,,,,,,,,,,,,,,,,0,0,0,0,0,0,0,0,0,0,0,0,0,0,0,0,,,,,,,,,,,,,
307,2119544,1745470716527,0.0,37.0,,0.04,0.0,1.08,-3.0,0.0,1.0,1.08,1.58,68.0,2990.0,1.9,3.02,,13.0,1.246,86.2,,24.9,5.0,,,,,,,,,,,,0,0,0,0,0,0,0,0,0,0,0,0,0,0,0,0,,,,,,0.0,,,,,,,
308,2119564,1745470716547,,,,,,,,,,,,,,,,,,,,,,,,,,,,,,,,,,0,0,0,0,0,0,0,0,0,0,0,0,0,0,0,0,,,,,,,,,,,,,
309,2119584,1745470716567,0.0,30.0,,0.05,0.03,1.09,-4.0,0.0,1.0,1.09,1.58,69.0,2935.0,1.9,3.1,,13.0,1.246,86.2,,24.9,5.0,0.0,0.0,0.0,0.0,0.0,0.0,0.0,0.0,2.28,,,0,0,0,0,0,0,0,0,0,0,0,0,0,0,0,0,,0.0,,,,0.0,38.993794,-76.938789,0.11,25.5,32.0,3.0,0.9
310,2119604,1745470716587,,,,,,,,,,,,,,,,,,,,,,,,,,,,,,,,,,0,0,0,0,0,0,0,0,0,0,0,0,0,0,0,0,,,,,,,,,,,,,
311,2119624,1745470716609,0.0,27.0,,0.07,0.01,1.05,-4.0,0.0,1.0,1.05,1.58,66.0,2935.0,1.9,3.1,,13.07,1.246,86.2,,24.3,5.0,,,,,,,,,,,,0,0,0,0,0,0,0,0,0,0,0,0,0,0,0,0,,,,,,0.0,,,,,,,
312,2119644,1745470716629,,,,,,,,,,,,,,,,,,,,,,,,,,,,,,,,,,0,0,0,0,0,0,0,0,0,0,0,0,0,0,0,0,,,,,,,,,,,,,
313,2119664,1745470716649,0.0,27.0,,0.05,0.02,1.0,-2.0,0.0,1.0,1.0,1.58,63.0,2820.0,2.1,3.08,,13.11,1.244,84.4,,24.3,5.0,,,,,,,,,,,,0,0,0,0,0,0,0,0,0,0,0,0,0,0,0,0,,,,,,0.0,,,,,,,
314,2119684,1745470716669,,,,,,,,,,,,,,,,,,,,,,,0.0,0.0,0.0,0.0,0.0,0.0,0.0,0.0,2.27,,,0,0,0,0,0,0,0,0,0,0,0,0,0,0,0,0,,0.0,,,,,38.993794,-76.938789,0.04,25.5,32.0,3.0,0.9
315,2119704,1745470716689,0.0,13.0,,0.02,-0.0,1.03,-2.0,0.0,0.0,1.03,1.58,65.0,2771.0,2.3,3.07,,13.19,1.245,84.4,,24.3,5.0,,,,,,,,,,,,0,0,0,0,0,0,0,0,0,0,0,0,0,0,0,0,,,,,,0.0,,,,,,,
316,2119724,1745470716709,,,,,,,,,,,,,,,,,,,,,,,,,,,,,,,,,,0,0,0,0,0,0,0,0,0,0,0,0,0,0,0,0,,,,,,,,,,,,,
317,2119744,1745470716729,0.0,24.0,,0.01,0.03,1.04,-2.0,0.0,1.0,1.04,1.58,66.0,2752.0,2.2,3.08,,13.24,1.251,84.4,,23.5,5.0,,,,,,,,,,,,0,0,0,0,0,0,0,0,0,0,0,0,0,0,0,0,,,,,,0.0,,,,,,,
318,2119764,1745470716749,,,,,,,,,,,,,,,,,,,,,,,,,,,,,,,,,,0,0,0,0,0,0,0,0,0,0,0,0,0,0,0,0,,,,,,,,,,,,,
319,2119784,1745470716769,0.0,24.0,,0.0,0.03,1.02,-2.0,0.0,1.0,1.02,1.58,64.0,2746.0,2.1,3.13,,13.24,1.251,84.4,,23.5,5.0,0.0,0.0,0.0,0.0,0.0,0.0,0.0,0.0,2.27,,,0,0,0,0,0,0,0,0,0,0,0,0,0,0,0,0,,0.0,,,,0.0,38.993794,-76.938789,0.54,25.5,32.0,3.0,0.9
320,2119804,1745470716789,,,,,,,,,,,,,,,,,,,,,,,,,,,,,,,,,,0,0,0,0,0,0,0,0,0,0,0,0,0,0,0,0,,,,,,,,,,,,,
321,2119824,1745470716807,0.0,27.0,,0.0,-0.01,1.04,-2.0,0.0,0.0,1.04,1.58,66.0,2746.0,2.1,3.13,,13.25,1.246,84.4,,22.3,5.0,,,,,,,,,,,,0,0,0,0,0,0,0,0,0,0,0,0,0,0,0,0,,,,,,0.0,,,,,,,
322,2119844,1745470716827,,,,,,,,,,,,,,,,,,,,,,,,,,,,,,,,,,0,0,0,0,0,0,0,0,0,0,0,0,0,0,0,0,,,,,,,,,,,,,
323,2119864,1745470716847,0.0,30.0,,0.0,-0.01,1.01,-2.0,0.0,0.0,1.01,1.58,64.0,2722.0,2.0,3.15,,13.29,1.245,84.4,,22.3,5.0,,,,,,,,,,,,0,0,0,0,0,0,0,0,0,0,0,0,0,0,0,0,,,,,,0.0,,,,,,,
324,2119884,1745470716867,,,,,,,,,,,,,,,,,,,,,,,0.0,0.0,0.0,0.0,0.0,0.0,0.0,0.0,2.27,,,0,0,0,0,0,0,0,0,0,0,0,0,0,0,0,0,,0.0,,,,,38.993794,-76.938789,0.13,25.5,32.0,3.0,0.9
325,2119904,1745470716887,0.0,30.0,,-0.01,-0.0,1.02,-1.0,0.0,0.0,1.02,1.58,65.0,2693.0,1.7,3.16,,13.27,1.249,84.4,,22.3,5.0,,,,,,,,,,,,0,0,0,0,0,0,0,0,0,0,0,0,0,0,0,0,,,,,,0.0,,,,,,,
326,2119924,1745470716910,,,,,,,,,,,,,,,,,,,,,,,,,,,,,,,,,,0,0,0,0,0,0,0,0,0,0,0,0,0,0,0,0,,,,,,,,,,,,,
327,2119944,1745470716930,0.0,37.0,,-0.01,0.0,1.02,-1.0,0.0,0.0,1.02,1.58,64.0,2650.0,1.5,3.15,,13.31,1.248,84.4,,22.2,5.0,,,,,,,,,,,,0,0,0,0,0,0,0,0,0,0,0,0,0,0,0,0,,,,,,0.0,,,,,,,
328,2119964,1745470716950,,,,,,,,,,,,,,,,,,,,,,,,,,,,,,,,,,0,0,0,0,0,0,0,0,0,0,0,0,0,0,0,0,,,,,,,,,,,,,
329,2119984,1745470716970,0.0,34.0,,-0.02,-0.0,1.02,-1.0,0.0,0.0,1.02,1.58,65.0,2597.0,1.4,3.16,,13.31,1.248,84.4,,22.2,5.0,0.0,0.0,0.0,0.0,0.0,0.0,0.0,0.0,2.28,,,0,0,0,0,0,0,0,0,0,0,0,0,0,0,0,0,,0.0,,,,0.0,38.993794,-76.938789,0.15,25.5,32.0,3.0,0.9
330,2120004,1745470716990,,,,,,,,,,,,,,,,,,,,,,,,,,,,,,,,,,0,0,0,0,0,0,0,0,0,0,0,0,0,0,0,0,,,,,,,,,,,,,
331,2120024,1745470717010,0.0,20.0,,-0.02,0.01,1.01,-1.0,0.0,0.0,1.01,1.58,64.0,2597.0,1.4,3.16,,13.36,1.249,84.4,,21.9,5.0,,,,,,,,,,,,0,0,0,0,0,0,0,0,0,0,0,0,0,0,0,0,,,,,,0.0,,,,,,,
332,2120044,1745470717020,,,,,,,,,,,,,,,,,,,,,,,,,,,,,,,,,,0,0,0,0,0,0,0,0,0,0,0,0,0,0,0,0,,,,,,,,,,,,,
333,2120064,1745470717040,0.0,24.0,,-0.03,0.02,1.03,0.0,0.0,0.0,1.03,1.58,65.0,2617.0,1.4,3.17,,13.36,1.251,84.4,,21.9,5.0,,,,,,,,,,,,0,0,0,0,0,0,0,0,0,0,0,0,0,0,0,0,,,,,,0.0,,,,,,,
334,2120084,1745470717060,,,,,,,,,,,,,,,,,,,,,,,0.0,0.0,0.0,0.0,0.0,0.0,0.0,0.0,2.28,,,0,0,0,0,0,0,0,0,0,0,0,0,0,0,0,0,,0.0,,,,,38.993794,-76.938789,0.19,25.5,32.0,3.0,0.9
335,2120104,1745470717080,0.0,7.0,,-0.04,0.04,1.02,0.0,0.0,0.0,1.02,1.58,65.0,2507.0,1.5,3.12,,13.43,1.251,84.4,,21.9,5.0,,,,,,,,,,,,0,0,0,0,0,0,0,0,0,0,0,0,0,0,0,0,,,,,,0.0,,,,,,,
336,2120124,1745470717105,,,,,,,,,,,,,,,,,,,,,,,,,,,,,,,,,,0,0,0,0,0,0,0,0,0,0,0,0,0,0,0,0,,,,,,,,,,,,,
337,2120144,1745470717125,0.0,24.0,,-0.04,0.06,1.01,0.0,0.0,0.0,1.01,1.58,64.0,2512.0,1.5,3.11,,13.48,1.252,84.4,,21.6,5.0,,,,,,,,,,,,0,0,0,0,0,0,0,0,0,0,0,0,0,0,0,0,,,,,,0.0,,,,,,,
338,2120164,1745470717145,,,,,,,,,,,,,,,,,,,,,,,,,,,,,,,,,,0,0,0,0,0,0,0,0,0,0,0,0,0,0,0,0,,,,,,,,,,,,,
339,2120184,1745470717165,0.0,20.0,,-0.05,0.04,1.03,0.0,0.0,0.0,1.03,1.58,65.0,2471.0,1.8,3.11,,13.48,1.252,84.4,,21.6,5.0,0.0,0.0,0.0,0.0,0.0,0.0,0.0,0.0,2.27,,,0,0,0,0,0,0,0,0,0,0,0,0,0,0,0,0,,0.0,,,,0.0,38.993794,-76.938789,0.22,25.5,32.0,3.0,0.9
340,2120204,1745470717185,,,,,,,,,,,,,,,,,,,,,,,,,,,,,,,,,,0,0,0,0,0,0,0,0,0,0,0,0,0,0,0,0,,,,,,,,,,,,,
341,2120224,1745470717206,0.0,27.0,,-0.06,0.05,1.01,0.0,0.0,0.0,1.01,1.58,64.0,2471.0,1.8,3.11,,13.51,1.253,84.4,,21.0,5.0,,,,,,,,,,,,0,0,0,0,0,0,0,0,0,0,0,0,0,0,0,0,,,,,,0.0,,,,,,,
342,2120244,1745470717226,,,,,,,,,,,,,,,,,,,,,,,,,,,,,,,,,,0,0,0,0,0,0,0,0,0,0,0,0,0,0,0,0,,,,,,,,,,,,,
343,2120264,1745470717246,0.0,24.0,,-0.06,0.04,1.01,0.0,0.0,0.0,1.02,1.58,64.0,2418.0,2.0,3.15,,13.56,1.253,84.4,,21.0,5.0,,,,,,,,,,,,0,0,0,0,0,0,0,0,0,0,0,0,0,0,0,0,,,,,,0.0,,,,,,,
344,2120284,1745470717266,,,,,,,,,,,,,,,,,,,,,,,0.0,0.0,0.0,0.0,0.0,0.0,0.0,0.0,2.27,,,0,0,0,0,0,0,0,0,0,0,0,0,0,0,0,0,,0.0,,,,,38.993794,-76.938789,0.15,25.5,32.0,3.0,0.9
345,2120304,1745470717286,0.0,24.0,,-0.06,0.04,1.0,0.0,0.0,0.0,1.01,1.58,64.0,2411.0,1.9,3.18,,13.59,1.246,84.4,,21.0,5.0,,,,,,,,,,,,0,0,0,0,0,0,0,0,0,0,0,0,0,0,0,0,,,,,,0.0,,,,,,,
346,2120324,1745470717310,,,,,,,,,,,,,,,,,,,,,,,,,,,,,,,,,,0,0,0,0,0,0,0,0,0,0,0,0,0,0,0,0,,,,,,,,,,,,,
347,2120344,1745470717330,0.0,24.0,,-0.06,0.02,1.02,0.0,0.0,0.0,1.02,1.58,65.0,2376.0,1.9,3.2,,13.6,1.249,84.4,,20.5,5.0,,,,,,,,,,,,0,0,0,0,0,0,0,0,0,0,0,0,0,0,0,0,,,,,,0.0,,,,,,,
348,2120364,1745470717350,,,,,,,,,,,,,,,,,,,,,,,,,,,,,,,,,,0,0,0,0,0,0,0,0,0,0,0,0,0,0,0,0,,,,,,,,,,,,,
349,2120384,1745470717370,0.0,17.0,13.58,-0.05,0.01,1.01,1.0,0.0,0.0,1.01,1.58,64.0,2320.0,1.7,3.21,15.0,13.6,1.249,84.4,183.0,20.5,5.0,0.0,0.0,0.0,0.0,0.0,0.0,0.0,0.0,2.27,0.0,1.0,0,0,0,0,0,0,0,0,0,0,0,0,0,0,0,0,0.0,0.0,1.0,0.0,0.0,0.0,38.993794,-76.938789,0.04,25.5,32.0,3.0,0.9
350,2120404,1745470717390,,,,,,,,,,,,,,,,,,,,,,,,,,,,,,,,,,0,0,0,0,0,0,0,0,0,0,0,0,0,0,0,0,,,,,,,,,,,,,
351,2120424,1745470717410,0.0,13.0,,-0.05,-0.01,1.0,0.0,0.0,0.0,1.0,1.58,64.0,2320.0,1.7,3.21,,13.65,1.25,84.4,,20.2,5.0,,,,,,,,,,,,0,0,0,0,0,0,0,0,0,0,0,0,0,0,0,0,,,,,,0.0,,,,,,,
352,2120444,1745470717430,,,,,,,,,,,,,,,,,,,,,,,,,,,,,,,,,,0,0,0,0,0,0,0,0,0,0,0,0,0,0,0,0,,,,,,,,,,,,,
353,2120464,1745470717450,0.0,7.0,,-0.07,-0.0,1.01,1.0,0.0,0.0,1.01,1.58,64.0,2295.0,1.5,3.22,,13.68,1.243,84.4,,20.2,5.0,,,,,,,,,,,,0,0,0,0,0,0,0,0,0,0,0,0,0,0,0,0,,,,,,0.0,,,,,,,
354,2120484,1745470717470,,,,,,,,,,,,,,,,,,,,,,,0.0,0.0,0.0,0.0,0.0,0.0,0.0,0.0,2.28,,,0,0,0,0,0,0,0,0,0,0,0,0,0,0,0,0,,0.0,,,,,38.993794,-76.938789,0.05,25.5,32.0,3.0,0.9
355,2120504,1745470717490,0.0,7.0,,-0.08,0.01,1.0,0.0,0.0,0.0,1.01,1.58,64.0,2289.0,1.3,3.22,,13.71,1.23,84.4,,20.2,5.0,,,,,,,,,,,,0,0,0,0,0,0,0,0,0,0,0,0,0,0,0,0,,,,,,0.0,,,,,,,
356,2120524,1745470717510,,,,,,,,,,,,,,,,,,,,,,,,,,,,,,,,,,0,0,0,0,0,0,0,0,0,0,0,0,0,0,0,0,,,,,,,,,,,,,
357,2120544,1745470717530,0.0,34.0,,-0.07,0.03,1.0,0.0,0.0,0.0,1.0,1.58,63.0,2275.0,1.2,3.2,,13.69,1.234,84.4,,19.9,5.0,,,,,,,,,,,,0,0,0,0,0,0,0,0,0,0,0,0,0,0,0,0,,,,,,0.0,,,,,,,
358,2120564,1745470717550,,,,,,,,,,,,,,,,,,,,,,,,,,,,,,,,,,0,0,0,0,0,0,0,0,0,0,0,0,0,0,0,0,,,,,,,,,,,,,
359,2120584,1745470717570,0.0,27.0,,-0.06,-0.0,0.99,0.0,0.0,0.0,0.99,1.58,63.0,2302.0,1.3,3.2,,13.69,1.234,84.4,,19.9,5.0,0.0,0.0,0.0,0.0,0.0,0.0,0.0,0.0,2.28,,,0,0,0,0,0,0,0,0,0,0,0,0,0,0,0,0,,0.0,,,,0.0,38.993794,-76.938789,0.05,25.5,32.0,3.0,0.9
360,2120604,1745470717590,,,,,,,,,,,,,,,,,,,,,,,,,,,,,,,,,,0,0,0,0,0,0,0,0,0,0,0,0,0,0,0,0,,,,,,,,,,,,,
361,2120624,1745470717610,0.0,24.0,,-0.06,-0.0,0.98,0.0,0.0,0.0,0.98,1.58,62.0,2302.0,1.3,3.2,,13.68,1.247,84.4,,19.8,5.0,,,,,,,,,,,,0,0,0,0,0,0,0,0,0,0,0,0,0,0,0,0,,,,,,0.0,,,,,,,
362,2120644,1745470717630,,,,,,,,,,,,,,,,,,,,,,,,,,,,,,,,,,0,0,0,0,0,0,0,0,0,0,0,0,0,0,0,0,,,,,,,,,,,,,
363,2120664,1745470717650,0.0,-7.0,,-0.06,0.0,0.96,0.0,0.0,0.0,0.96,1.58,61.0,2329.0,1.3,3.26,,13.68,1.252,84.4,,19.8,5.0,,,,,,,,,,,,0,0,0,0,0,0,0,0,0,0,0,0,0,0,0,0,,,,,,0.0,,,,,,,
364,2120684,1745470717670,,,,,,,,,,,,,,,,,,,,,,,0.0,0.0,0.0,0.0,0.0,0.0,0.0,0.0,2.27,,,0,0,0,0,0,0,0,0,0,0,0,0,0,0,0,0,,0.0,,,,,38.993794,-76.938789,0.0,25.5,32.0,3.0,0.9
365,2120704,1745470717690,0.0,10.0,,-0.07,0.02,0.96,0.0,0.0,0.0,0.97,1.58,61.0,2314.0,1.5,3.25,,13.72,1.252,84.4,,19.8,5.0,,,,,,,,,,,,0,0,0,0,0,0,0,0,0,0,0,0,0,0,0,0,,,,,,0.0,,,,,,,
366,2120724,1745470717710,,,,,,,,,,,,,,,,,,,,,,,,,,,,,,,,,,0,0,0,0,0,0,0,0,0,0,0,0,0,0,0,0,,,,,,,,,,,,,
367,2120744,1745470717730,0.0,24.0,,-0.09,0.04,0.97,0.0,0.0,0.0,0.97,1.58,61.0,2301.0,1.8,3.24,,13.76,1.251,84.4,,19.4,5.0,,,,,,,,,,,,0,0,0,0,0,0,0,0,0,0,0,0,0,0,0,0,,,,,,0.0,,,,,,,
368,2120764,1745470717750,,,,,,,,,,,,,,,,,,,,,,,,,,,,,,,,,,0,0,0,0,0,0,0,0,0,0,0,0,0,0,0,0,,,,,,,,,,,,,
369,2120784,1745470717770,0.0,17.0,,-0.1,0.06,0.97,0.0,0.0,0.0,0.98,1.58,62.0,2315.0,1.7,3.26,,13.76,1.251,84.4,,19.4,5.0,0.0,0.0,0.0,0.0,0.0,0.0,0.0,0.0,2.27,,,0,0,0,0,0,0,0,0,0,0,0,0,0,0,0,0,,0.0,,,,0.0,38.993794,-76.938789,0.06,25.5,32.0,3.0,0.9
370,2120804,1745470717790,,,,,,,,,,,,,,,,,,,,,,,,,,,,,,,,,,0,0,0,0,0,0,0,0,0,0,0,0,0,0,0,0,,,,,,,,,,,,,
371,2120824,1745470717810,0.0,17.0,,-0.09,0.09,0.98,0.0,0.0,0.0,0.99,1.58,62.0,2315.0,1.7,3.26,,13.76,1.252,84.4,,19.3,5.0,,,,,,,,,,,,0,0,0,0,0,0,0,0,0,0,0,0,0,0,0,0,,,,,,0.0,,,,,,,
372,2120844,1745470717830,,,,,,,,,,,,,,,,,,,,,,,,,,,,,,,,,,0,0,0,0,0,0,0,0,0,0,0,0,0,0,0,0,,,,,,,,,,,,,
373,2120864,1745470717850,0.0,24.0,,-0.1,0.12,1.0,1.0,0.0,0.0,1.01,1.58,64.0,2307.0,1.7,3.24,,13.72,1.25,84.4,,19.3,5.0,,,,,,,,,,,,0,0,0,0,0,0,0,0,0,0,0,0,0,0,0,0,,,,,,0.0,,,,,,,
374,2120884,1745470717870,,,,,,,,,,,,,,,,,,,,,,,0.0,0.0,0.0,0.0,0.0,0.0,0.0,0.0,2.27,,,0,0,0,0,0,0,0,0,0,0,0,0,0,0,0,0,,0.0,,,,,38.993794,-76.938789,0.05,25.5,32.0,3.0,0.9
375,2120904,1745470717890,0.0,20.0,,-0.12,0.12,1.01,1.0,0.0,0.0,1.03,1.58,65.0,2276.0,1.7,3.29,,13.73,1.249,84.4,,19.3,5.0,,,,,,,,,,,,0,0,0,0,0,0,0,0,0,0,0,0,0,0,0,0,,,,,,0.0,,,,,,,
376,2120924,1745470717910,,,,,,,,,,,,,,,,,,,,,,,,,,,,,,,,,,0,0,0,0,0,0,0,0,0,0,0,0,0,0,0,0,,,,,,,,,,,,,
377,2120944,1745470717930,0.0,24.0,,-0.12,0.12,1.01,1.0,-1.0,0.0,1.03,1.58,65.0,2306.0,1.5,3.28,,13.77,1.249,84.4,,19.2,5.0,,,,,,,,,,,,0,0,0,0,0,0,0,0,0,0,0,0,0,0,0,0,,,,,,0.0,,,,,,,
378,2120964,1745470717950,,,,,,,,,,,,,,,,,,,,,,,,,,,,,,,,,,0,0,0,0,0,0,0,0,0,0,0,0,0,0,0,0,,,,,,,,,,,,,
