,Interval,Utc,FrontBP,SteerAng,Battery,AccelX,AccelY,AccelZ,Yaw,Pitch,Roll,Gsum,GsumMax,GsumPct,RPM,TPS,InjectorPW,Baro,MAP,Lambda,IAT,EngineTemp,EOP,EOT,WSFR,WSFL,WSRR,WSRL,TCSet,TCSlip,TCComp,TCCut,Analog8,OilTemp,AA_On,ThermLF1,ThermLF2,ThermRR1,ThermRR2,ThermLF3,ThermLF4,ThermLF5,ThermLF6,ThermLF7,ThermLF8,ThermRR3,ThermRR4,ThermRR5,ThermRR6,ThermRR7,ThermRR8,AA_LowDrag,Gear,AA_On1,AA_LowDrag1,Fuel_Mix,AA_Packages,Latitude,Longitude,Speed,Altitude,GPSSats,GPSQual,GPSDOP
0,2382804,1745470979794,,,,,,,,,,,,,,,,,,,,,,,,,,,,,,,,,,0,0,0,0,0,0,0,0,0,0,0,0,0,0,0,0,,,,,,,,,,,,,
1,2382824,1745470979812,0.0,20.0,,-0.14,0.5,1.55,-3.0,0.0,3.0,1.63,1.63,100.0,4457.0,11.3,3.82,,12.71,1.225,91.6,,38.9,5.0,,,,,,,,,,,,0,0,0,0,0,0,0,0,0,0,0,0,0,0,0,0,,,,,,0.0,,,,,,,
2,2382844,1745470979832,,,,,,,,,,,,,,,,,,,,,,,,,,,,,,,,,,0,0,0,0,0,0,0,0,0,0,0,0,0,0,0,0,,,,,,,,,,,,,
3,2382864,1745470979852,0.0,20.0,,-0.14,0.54,1.58,-1.0,-1.0,3.0,1.68,1.68,100.0,4475.0,11.2,3.84,,12.72,1.238,91.6,,38.9,5.0,,,,,,,,,,,,0,0,0,0,0,0,0,0,0,0,0,0,0,0,0,0,,,,,,0.0,,,,,,,
4,2382884,1745470979872,,,,,,,,,,,,,,,,,,,,,,,0.0,0.0,0.0,0.0,0.0,0.0,0.0,0.0,2.27,,,0,0,0,0,0,0,0,0,0,0,0,0,0,0,0,0,,0.0,,,,,38.993782,-76.938782,0.04,26.0,34.0,3.0,0.9
5,2382904,1745470979892,0.0,27.0,,-0.12,0.57,1.59,1.0,0.0,2.0,1.7,1.7,100.0,4474.0,11.2,3.84,,12.75,1.215,91.6,,38.6,5.0,,,,,,,,,,,,0,0,0,0,0,0,0,0,0,0,0,0,0,0,0,0,,,,,,0.0,,,,,,,
6,2382924,1745470979912,,,,,,,,,,,,,,,,,,,,,,,,,,,,,,,,,,0,0,0,0,0,0,0,0,0,0,0,0,0,0,0,0,,,,,,,,,,,,,
7,2382944,1745470979932,0.0,24.0,,-0.11,0.59,1.55,3.0,-1.0,2.0,1.66,1.7,98.0,4467.0,11.1,3.83,,12.75,1.215,91.6,,38.6,5.0,,,,,,,,,,,,0,0,0,0,0,0,0,0,0,0,0,0,0,0,0,0,,,,,,0.0,,,,,,,
8,2382964,1745470979952,,,,,,,,,,,,,,,,,,,,,,,,,,,,,,,,,,0,0,0,0,0,0,0,0,0,0,0,0,0,0,0,0,,,,,,,,,,,,,
9,2382984,1745470979972,0.0,27.0,,-0.08,0.56,1.48,5.0,-1.0,2.0,1.59,1.7,93.0,4467.0,11.1,3.83,,12.76,1.221,91.6,,38.8,5.0,0.0,0.0,0.0,0.0,0.0,0.0,0.0,0.0,2.27,,,0,0,0,0,0,0,0,0,0,0,0,0,0,0,0,0,,0.0,,,,0.0,38.993782,-76.938782,0.15,26.0,34.0,3.0,0.9
10,2383004,1745470979992,,,,,,,,,,,,,,,,,,,,,,,,,,,,,,,,,,0,0,0,0,0,0,0,0,0,0,0,0,0,0,0,0,,,,,,,,,,,,,
11,2383024,1745470980004,0.0,37.0,,-0.07,0.51,1.37,6.0,-1.0,1.0,1.46,1.7,86.0,4476.0,11.2,3.83,,12.73,1.225,91.6,,38.8,5.0,,,,,,,,,,,,0,0,0,0,0,0,0,0,0,0,0,0,0,0,0,0,,,,,,0.0,,,,,,,
12,2383044,1745470980024,,,,,,,,,,,,,,,,,,,,,,,,,,,,,,,,,,0,0,0,0,0,0,0,0,0,0,0,0,0,0,0,0,,,,,,,,,,,,,
13,2383064,1745470980044,0.0,24.0,,-0.06,0.4,1.27,7.0,-1.0,1.0,1.34,1.7,79.0,4439.0,11.5,3.82,,12.79,1.209,91.6,,38.8,5.0,,,,,,,,,,,,0,0,0,0,0,0,0,0,0,0,0,0,0,0,0,0,,,,,,0.0,,,,,,,
14,2383084,1745470980064,,,,,,,,,,,,,,,,,,,,,,,0.0,0.0,0.0,0.0,0.0,0.0,0.0,0.0,2.26,,,0,0,0,0,0,0,0,0,0,0,0,0,0,0,0,0,,0.0,,,,,38.993782,-76.938782,0.08,26.0,33.0,3.0,0.9
15,2383104,1745470980084,0.0,20.0,,-0.05,0.32,1.14,8.0,-1.0,0.0,1.19,1.7,70.0,4430.0,11.6,3.84,,12.73,1.231,91.6,,38.4,5.0,,,,,,,,,,,,0,0,0,0,0,0,0,0,0,0,0,0,0,0,0,0,,,,,,0.0,,,,,,,
16,2383124,1745470980106,,,,,,,,,,,,,,,,,,,,,,,,,,,,,,,,,,0,0,0,0,0,0,0,0,0,0,0,0,0,0,0,0,,,,,,,,,,,,,
17,2383144,1745470980126,0.0,13.0,,-0.04,0.19,1.04,7.0,-1.0,0.0,1.06,1.7,62.0,4447.0,11.6,3.84,,12.73,1.231,91.6,,38.4,5.0,,,,,,,,,,,,0,0,0,0,0,0,0,0,0,0,0,0,0,0,0,0,,,,,,0.0,,,,,,,
18,2383164,1745470980146,,,,,,,,,,,,,,,,,,,,,,,,,,,,,,,,,,0,0,0,0,0,0,0,0,0,0,0,0,0,0,0,0,,,,,,,,,,,,,
19,2383184,1745470980166,0.0,13.0,,-0.04,0.11,0.93,6.0,-1.0,-1.0,0.93,1.7,55.0,4447.0,11.6,3.84,,12.75,1.209,91.6,,38.5,5.0,0.0,0.0,0.0,0.0,0.0,0.0,0.0,0.0,2.26,,,0,0,0,0,0,0,0,0,0,0,0,0,0,0,0,0,,0.0,,,,0.0,38.993782,-76.938782,0.07,26.0,33.0,3.0,0.9
20,2383204,1745470980186,,,,,,,,,,,,,,,,,,,,,,,,,,,,,,,,,,0,0,0,0,0,0,0,0,0,0,0,0,0,0,0,0,,,,,,,,,,,,,
21,2383224,1745470980213,0.0,27.0,,-0.04,-0.0,0.86,5.0,0.0,-1.0,0.86,1.7,51.0,4403.0,11.6,3.85,,12.72,1.2,91.6,,38.5,5.0,,,,,,,,,,,,0,0,0,0,0,0,0,0,0,0,0,0,0,0,0,0,,,,,,0.0,,,,,,,
22,2383244,1745470980233,,,,,,,,,,,,,,,,,,,,,,,,,,,,,,,,,,0,0,0,0,0,0,0,0,0,0,0,0,0,0,0,0,,,,,,,,,,,,,
23,2383264,1745470980253,0.0,20.0,,-0.04,-0.08,0.8,2.0,0.0,-1.0,0.81,1.7,48.0,4475.0,11.6,3.84,,12.75,1.217,91.6,,38.5,5.0,,,,,,,,,,,,0,0,0,0,0,0,0,0,0,0,0,0,0,0,0,0,,,,,,0.0,,,,,,,
24,2383284,1745470980273,,,,,,,,,,,,,,,,,,,,,,,0.0,0.0,0.0,0.0,0.0,0.0,0.0,0.0,2.27,,,0,0,0,0,0,0,0,0,0,0,0,0,0,0,0,0,,0.0,,,,,38.993782,-76.938782,0.11,26.0,33.0,3.0,0.9
25,2383304,1745470980293,0.0,37.0,,-0.05,-0.15,0.78,0.0,0.0,-1.0,0.79,1.7,47.0,4483.0,11.4,3.84,,12.76,1.216,91.6,,38.7,5.0,,,,,,,,,,,,0,0,0,0,0,0,0,0,0,0,0,0,0,0,0,0,,,,,,0.0,,,,,,,
26,2383324,1745470980313,,,,,,,,,,,,,,,,,,,,,,,,,,,,,,,,,,0,0,0,0,0,0,0,0,0,0,0,0,0,0,0,0,,,,,,,,,,,,,
27,2383344,1745470980333,0.0,24.0,,-0.06,-0.23,0.74,-3.0,0.0,-1.0,0.78,1.7,46.0,4529.0,11.2,3.82,,12.76,1.216,91.6,,38.7,5.0,,,,,,,,,,,,0,0,0,0,0,0,0,0,0,0,0,0,0,0,0,0,,,,,,0.0,,,,,,,
28,2383364,1745470980353,,,,,,,,,,,,,,,,,,,,,,,,,,,,,,,,,,0,0,0,0,0,0,0,0,0,0,0,0,0,0,0,0,,,,,,,,,,,,,
29,2383384,1745470980373,0.0,20.0,13.58,-0.06,-0.28,0.72,-4.0,0.0,-1.0,0.77,1.7,46.0,4529.0,11.2,3.82,15.0,12.75,1.205,91.6,174.0,39.2,5.0,0.0,0.0,0.0,0.0,0.0,0.0,0.0,0.0,2.28,0.0,1.0,0,0,0,0,0,0,0,0,0,0,0,0,0,0,0,0,0.0,0.0,1.0,0.0,0.0,0.0,38.993782,-76.938782,0.04,26.0,33.0,3.0,0.9
30,2383404,1745470980393,,,,,,,,,,,,,,,,,,,,,,,,,,,,,,,,,,0,0,0,0,0,0,0,0,0,0,0,0,0,0,0,0,,,,,,,,,,,,,
31,2383424,1745470980409,0.0,24.0,,-0.06,-0.34,0.67,-6.0,0.0,-1.0,0.75,1.7,44.0,4486.0,11.1,3.81,,12.75,1.22,91.6,,39.2,5.0,,,,,,,,,,,,0,0,0,0,0,0,0,0,0,0,0,0,0,0,0,0,,,,,,0.0,,,,,,,
32,2383444,1745470980429,,,,,,,,,,,,,,,,,,,,,,,,,,,,,,,,,,0,0,0,0,0,0,0,0,0,0,0,0,0,0,0,0,,,,,,,,,,,,,
33,2383464,1745470980449,0.0,13.0,,-0.05,-0.41,0.63,-6.0,0.0,-1.0,0.75,1.7,44.0,4501.0,11.1,3.81,,12.76,1.182,91.6,,39.2,5.0,,,,,,,,,,,,0,0,0,0,0,0,0,0,0,0,0,0,0,0,0,0,,,,,,0.0,,,,,,,
34,2383484,1745470980469,,,,,,,,,,,,,,,,,,,,,,,0.0,0.0,0.0,0.0,0.0,0.0,0.0,0.0,2.27,,,0,0,0,0,0,0,0,0,0,0,0,0,0,0,0,0,,0.0,,,,,38.993782,-76.938782,0.0,26.0,33.0,3.0,0.9
35,2383504,1745470980489,0.0,17.0,,-0.05,-0.4,0.57,-6.0,0.0,-1.0,0.7,1.7,41.0,4521.0,11.1,3.8,,12.64,1.19,91.6,,39.1,5.0,,,,,,,,,,,,0,0,0,0,0,0,0,0,0,0,0,0,0,0,0,0,,,,,,0.0,,,,,,,
36,2383524,1745470980511,,,,,,,,,,,,,,,,,,,,,,,,,,,,,,,,,,0,0,0,0,0,0,0,0,0,0,0,0,0,0,0,0,,,,,,,,,,,,,
37,2383544,1745470980531,0.0,7.0,,-0.02,-0.41,0.56,-5.0,0.0,-1.0,0.7,1.7,41.0,4645.0,11.3,3.8,,12.64,1.19,91.6,,39.1,5.0,,,,,,,,,,,,0,0,0,0,0,0,0,0,0,0,0,0,0,0,0,0,,,,,,0.0,,,,,,,
38,2383564,1745470980551,,,,,,,,,,,,,,,,,,,,,,,,,,,,,,,,,,0,0,0,0,0,0,0,0,0,0,0,0,0,0,0,0,,,,,,,,,,,,,
39,2383584,1745470980571,0.0,20.0,,-0.03,-0.28,0.68,-2.0,0.0,-1.0,0.73,1.7,43.0,4645.0,11.3,3.8,,12.75,1.213,91.6,,40.2,5.0,0.0,0.0,0.0,0.0,0.0,0.0,0.0,0.0,2.26,,,0,0,0,0,0,0,0,0,0,0,0,0,0,0,0,0,,0.0,,,,0.0,38.993782,-76.938782,0.0,26.0,33.0,3.0,0.9
40,2383604,1745470980591,,,,,,,,,,,,,,,,,,,,,,,,,,,,,,,,,,0,0,0,0,0,0,0,0,0,0,0,0,0,0,0,0,,,,,,,,,,,,,
41,2383624,1745470980611,0.0,34.0,,-0.04,-0.15,0.79,-1.0,0.0,-1.0,0.81,1.7,48.0,4631.0,11.5,3.79,,12.72,1.192,91.6,,40.2,5.0,,,,,,,,,,,,0,0,0,0,0,0,0,0,0,0,0,0,0,0,0,0,,,,,,0.0,,,,,,,
42,2383644,1745470980631,,,,,,,,,,,,,,,,,,,,,,,,,,,,,,,,,,0,0,0,0,0,0,0,0,0,0,0,0,0,0,0,0,,,,,,,,,,,,,
43,2383664,1745470980651,0.0,20.0,,-0.06,-0.16,0.83,-3.0,0.0,0.0,0.85,1.7,50.0,4594.0,11.5,3.8,,12.68,1.11,91.6,,40.2,5.0,,,,,,,,,,,,0,0,0,0,0,0,0,0,0,0,0,0,0,0,0,0,,,,,,0.0,,,,,,,
44,2383684,1745470980671,,,,,,,,,,,,,,,,,,,,,,,0.0,0.0,0.0,0.0,0.0,0.0,0.0,0.0,2.27,,,0,0,0,0,0,0,0,0,0,0,0,0,0,0,0,0,,0.0,,,,,38.993782,-76.938782,0.13,26.0,33.0,3.0,0.9
45,2383704,1745470980691,0.0,34.0,,-0.07,-0.22,0.81,-4.0,0.0,0.0,0.84,1.7,49.0,4605.0,11.6,3.81,,12.69,1.093,91.6,,40.0,5.0,,,,,,,,,,,,0,0,0,0,0,0,0,0,0,0,0,0,0,0,0,0,,,,,,0.0,,,,,,,
46,2383724,1745470980711,,,,,,,,,,,,,,,,,,,,,,,,,,,,,,,,,,0,0,0,0,0,0,0,0,0,0,0,0,0,0,0,0,,,,,,,,,,,,,
47,2383744,1745470980731,0.0,13.0,,-0.06,-0.28,0.77,-6.0,0.0,0.0,0.82,1.7,48.0,4573.0,11.7,3.82,,12.69,1.093,91.6,,40.0,5.0,,,,,,,,,,,,0,0,0,0,0,0,0,0,0,0,0,0,0,0,0,0,,,,,,0.0,,,,,,,
48,2383764,1745470980751,,,,,,,,,,,,,,,,,,,,,,,,,,,,,,,,,,0,0,0,0,0,0,0,0,0,0,0,0,0,0,0,0,,,,,,,,,,,,,
49,2383784,1745470980771,0.0,10.0,,-0.05,-0.32,0.7,-7.0,0.0,0.0,0.77,1.7,46.0,4573.0,11.7,3.82,,12.68,1.154,91.6,,39.9,5.0,0.0,0.0,0.0,0.0,0.0,0.0,0.0,0.0,2.27,,,0,0,0,0,0,0,0,0,0,0,0,0,0,0,0,0,,0.0,,,,0.0,38.993782,-76.938782,0.04,26.0,33.0,3.0,0.9
50,2383804,1745470980791,,,,,,,,,,,,,,,,,,,,,,,,,,,,,,,,,,0,0,0,0,0,0,0,0,0,0,0,0,0,0,0,0,,,,,,,,,,,,,
51,2383824,1745470980809,0.0,20.0,,-0.04,-0.3,0.67,-5.0,0.0,-1.0,0.74,1.7,44.0,4613.0,11.5,3.81,,12.72,1.176,91.6,,39.9,5.0,,,,,,,,,,,,0,0,0,0,0,0,0,0,0,0,0,0,0,0,0,0,,,,,,0.0,,,,,,,
52,2383844,1745470980829,,,,,,,,,,,,,,,,,,,,,,,,,,,,,,,,,,0,0,0,0,0,0,0,0,0,0,0,0,0,0,0,0,,,,,,,,,,,,,
53,2383864,1745470980849,0.0,13.0,,-0.04,-0.24,0.76,-2.0,0.0,-1.0,0.8,1.7,47.0,4647.0,11.3,3.8,,12.68,1.189,91.6,,39.9,5.0,,,,,,,,,,,,0,0,0,0,0,0,0,0,0,0,0,0,0,0,0,0,,,,,,0.0,,,,,,,
54,2383884,1745470980869,,,,,,,,,,,,,,,,,,,,,,,0.0,0.0,0.0,0.0,0.0,0.0,0.0,0.0,2.28,,,0,0,0,0,0,0,0,0,0,0,0,0,0,0,0,0,,0.0,,,,,38.993782,-76.938782,0.04,26.0,33.0,3.0,0.9
55,2383904,1745470980889,0.0,17.0,,-0.05,-0.12,0.88,0.0,0.0,-1.0,0.89,1.7,52.0,4650.0,11.1,3.78,,12.67,1.197,91.6,,40.4,5.0,,,,,,,,,,,,0,0,0,0,0,0,0,0,0,0,0,0,0,0,0,0,,,,,,0.0,,,,,,,
56,2383924,1745470980911,,,,,,,,,,,,,,,,,,,,,,,,,,,,,,,,,,0,0,0,0,0,0,0,0,0,0,0,0,0,0,0,0,,,,,,,,,,,,,
57,2383944,1745470980931,0.0,13.0,,-0.06,-0.1,0.91,-1.0,0.0,0.0,0.92,1.7,54.0,4634.0,11.3,3.79,,12.67,1.197,91.6,,40.4,5.0,,,,,,,,,,,,0,0,0,0,0,0,0,0,0,0,0,0,0,0,0,0,,,,,,0.0,,,,,,,
58,2383964,1745470980951,,,,,,,,,,,,,,,,,,,,,,,,,,,,,,,,,,0,0,0,0,0,0,0,0,0,0,0,0,0,0,0,0,,,,,,,,,,,,,
59,2383984,1745470980971,0.0,27.0,,-0.06,-0.15,0.87,-3.0,0.0,0.0,0.89,1.7,52.0,4634.0,11.3,3.79,,12.65,1.198,91.6,,40.4,5.0,0.0,0.0,0.0,0.0,0.0,0.0,0.0,0.0,2.27,,,0,0,0,0,0,0,0,0,0,0,0,0,0,0,0,0,,0.0,,,,0.0,38.993782,-76.938782,0.0,26.0,33.0,3.0,0.9
60,2384004,1745470980991,,,,,,,,,,,,,,,,,,,,,,,,,,,,,,,,,,0,0,0,0,0,0,0,0,0,0,0,0,0,0,0,0,,,,,,,,,,,,,
61,2384024,1745470981001,0.0,30.0,,-0.06,-0.13,0.88,-1.0,0.0,-1.0,0.89,1.7,52.0,4743.0,11.2,3.76,,12.64,1.232,91.6,,40.4,5.0,,,,,,,,,,,,0,0,0,0,0,0,0,0,0,0,0,0,0,0,0,0,,,,,,0.0,,,,,,,
62,2384044,1745470981021,,,,,,,,,,,,,,,,,,,,,,,,,,,,,,,,,,0,0,0,0,0,0,0,0,0,0,0,0,0,0,0,0,,,,,,,,,,,,,
63,2384064,1745470981041,0.0,17.0,,-0.06,-0.03,0.98,1.0,0.0,0.0,0.99,1.7,58.0,4669.0,11.2,3.77,,12.68,1.069,91.6,,40.4,5.0,,,,,,,,,,,,0,0,0,0,0,0,0,0,0,0,0,0,0,0,0,0,,,,,,0.0,,,,,,,
64,2384084,1745470981061,,,,,,,,,,,,,,,,,,,,,,,0.0,0.0,0.0,0.0,0.0,0.0,0.0,0.0,2.27,,,0,0,0,0,0,0,0,0,0,0,0,0,0,0,0,0,,0.0,,,,,38.993782,-76.938782,0.08,26.0,33.0,3.0,0.9
65,2384104,1745470981081,0.0,10.0,,-0.03,-0.08,0.99,0.0,0.0,0.0,1.0,1.7,59.0,0.0,11.5,3.77,,12.68,1.039,91.6,,40.5,5.0,,,,,,,,,,,,0,0,0,0,0,0,0,0,0,0,0,0,0,0,0,0,,,,,,0.0,,,,,,,
66,2384124,1745470981112,,,,,,,,,,,,,,,,,,,,,,,,,,,,,,,,,,0,0,0,0,0,0,0,0,0,0,0,0,0,0,0,0,,,,,,,,,,,,,
67,2384144,1745470981132,0.0,7.0,,-0.03,-0.18,0.91,-2.0,0.0,0.0,0.93,1.7,55.0,4624.0,11.7,3.77,,12.68,1.039,91.6,,40.5,5.0,,,,,,,,,,,,0,0,0,0,0,0,0,0,0,0,0,0,0,0,0,0,,,,,,0.0,,,,,,,
68,2384164,1745470981152,,,,,,,,,,,,,,,,,,,,,,,,,,,,,,,,,,0,0,0,0,0,0,0,0,0,0,0,0,0,0,0,0,,,,,,,,,,,,,
69,2384184,1745470981172,0.0,13.0,,-0.03,-0.2,0.85,-2.0,-1.0,0.0,0.87,1.7,51.0,4624.0,11.7,3.77,,12.67,1.093,91.6,,39.9,5.0,0.0,0.0,0.0,0.0,0.0,0.0,0.0,0.0,2.26,,,0,0,0,0,0,0,0,0,0,0,0,0,0,0,0,0,,0.0,,,,0.0,38.993782,-76.938782,0.04,26.0,33.0,3.0,0.9
70,2384204,1745470981192,,,,,,,,,,,,,,,,,,,,,,,,,,,,,,,,,,0,0,0,0,0,0,0,0,0,0,0,0,0,0,0,0,,,,,,,,,,,,,
71,2384224,1745470981213,0.0,37.0,,-0.0,-0.25,0.77,-3.0,0.0,-1.0,0.81,1.7,48.0,4514.0,11.6,3.81,,12.63,1.14,91.6,,39.9,5.0,,,,,,,,,,,,0,0,0,0,0,0,0,0,0,0,0,0,0,0,0,0,,,,,,0.0,,,,,,,
72,2384244,1745470981233,,,,,,,,,,,,,,,,,,,,,,,,,,,,,,,,,,0,0,0,0,0,0,0,0,0,0,0,0,0,0,0,0,,,,,,,,,,,,,
73,2384264,1745470981253,0.0,20.0,,0.01,-0.31,0.72,-4.0,0.0,-1.0,0.79,1.7,46.0,4423.0,11.6,3.83,,12.72,1.169,91.6,,39.9,5.0,,,,,,,,,,,,0,0,0,0,0,0,0,0,0,0,0,0,0,0,0,0,,,,,,0.0,,,,,,,
74,2384284,1745470981273,,,,,,,,,,,,,,,,,,,,,,,0.0,0.0,0.0,0.0,0.0,0.0,0.0,0.0,2.27,,,0,0,0,0,0,0,0,0,0,0,0,0,0,0,0,0,,0.0,,,,,38.993782,-76.938782,0.23,26.0,33.0,3.0,0.9
75,2384304,1745470981293,0.0,30.0,,-0.01,-0.37,0.68,-7.0,0.0,-1.0,0.77,1.7,45.0,4433.0,11.7,3.86,,12.71,1.173,91.6,,37.9,5.0,,,,,,,,,,,,0,0,0,0,0,0,0,0,0,0,0,0,0,0,0,0,,,,,,0.0,,,,,,,
76,2384324,1745470981312,,,,,,,,,,,,,,,,,,,,,,,,,,,,,,,,,,0,0,0,0,0,0,0,0,0,0,0,0,0,0,0,0,,,,,,,,,,,,,
77,2384344,1745470981332,0.0,30.0,,-0.02,-0.37,0.71,-8.0,0.0,0.0,0.81,1.7,48.0,4463.0,11.4,3.85,,12.71,1.173,91.6,,37.9,5.0,,,,,,,,,,,,0,0,0,0,0,0,0,0,0,0,0,0,0,0,0,0,,,,,,0.0,,,,,,,
78,2384364,1745470981352,,,,,,,,,,,,,,,,,,,,,,,,,,,,,,,,,,0,0,0,0,0,0,0,0,0,0,0,0,0,0,0,0,,,,,,,,,,,,,
79,2384384,1745470981372,0.0,13.0,13.63,-0.04,-0.37,0.77,-8.0,0.0,0.0,0.86,1.7,51.0,4463.0,11.4,3.85,15.0,12.75,1.191,91.6,174.0,38.6,5.0,0.0,0.0,0.0,0.0,0.0,0.0,0.0,0.0,2.28,0.0,1.0,0,0,0,0,0,0,0,0,0,0,0,0,0,0,0,0,0.0,0.0,1.0,0.0,0.0,0.0,38.993782,-76.938782,0.04,26.0,33.0,3.0,0.9
80,2384404,1745470981392,,,,,,,,,,,,,,,,,,,,,,,,,,,,,,,,,,0,0,0,0,0,0,0,0,0,0,0,0,0,0,0,0,,,,,,,,,,,,,
81,2384424,1745470981412,0.0,20.0,,-0.06,-0.32,0.86,-7.0,0.0,1.0,0.92,1.7,54.0,4481.0,11.2,3.82,,12.77,1.178,91.6,,38.6,5.0,,,,,,,,,,,,0,0,0,0,0,0,0,0,0,0,0,0,0,0,0,0,,,,,,0.0,,,,,,,
82,2384444,1745470981432,,,,,,,,,,,,,,,,,,,,,,,,,,,,,,,,,,0,0,0,0,0,0,0,0,0,0,0,0,0,0,0,0,,,,,,,,,,,,,
83,2384464,1745470981452,0.0,10.0,,-0.07,-0.21,0.97,-5.0,0.0,1.0,0.99,1.7,58.0,4468.0,11.1,3.83,,12.73,1.169,91.6,,38.6,5.0,,,,,,,,,,,,0,0,0,0,0,0,0,0,0,0,0,0,0,0,0,0,,,,,,0.0,,,,,,,
84,2384484,1745470981472,,,,,,,,,,,,,,,,,,,,,,,0.0,0.0,0.0,0.0,0.0,0.0,0.0,0.0,2.27,,,0,0,0,0,0,0,0,0,0,0,0,0,0,0,0,0,,0.0,,,,,38.993782,-76.938782,0.11,26.0,33.0,3.0,0.9
85,2384504,1745470981492,0.0,10.0,,-0.09,-0.1,1.07,-3.0,0.0,1.0,1.08,1.7,64.0,4450.0,11.2,3.82,,12.76,1.175,91.6,,38.3,5.0,,,,,,,,,,,,0,0,0,0,0,0,0,0,0,0,0,0,0,0,0,0,,,,,,0.0,,,,,,,
86,2384524,1745470981512,,,,,,,,,,,,,,,,,,,,,,,,,,,,,,,,,,0,0,0,0,0,0,0,0,0,0,0,0,0,0,0,0,,,,,,,,,,,,,
87,2384544,1745470981532,0.0,20.0,,-0.09,0.02,1.17,0.0,0.0,1.0,1.17,1.7,69.0,4447.0,11.1,3.81,,12.76,1.175,91.6,,38.3,5.0,,,,,,,,,,,,0,0,0,0,0,0,0,0,0,0,0,0,0,0,0,0,,,,,,0.0,,,,,,,
88,2384564,1745470981552,,,,,,,,,,,,,,,,,,,,,,,,,,,,,,,,,,0,0,0,0,0,0,0,0,0,0,0,0,0,0,0,0,,,,,,,,,,,,,
89,2384584,1745470981572,0.0,20.0,,-0.1,0.09,1.19,2.0,0.0,1.0,1.2,1.7,71.0,4447.0,11.1,3.81,,12.75,1.176,91.6,,38.3,5.0,0.0,0.0,0.0,0.0,0.0,0.0,0.0,0.0,2.27,,,0,0,0,0,0,0,0,0,0,0,0,0,0,0,0,0,,0.0,,,,0.0,38.993782,-76.938789,0.05,26.0,33.0,3.0,0.9
90,2384604,1745470981592,,,,,,,,,,,,,,,,,,,,,,,,,,,,,,,,,,0,0,0,0,0,0,0,0,0,0,0,0,0,0,0,0,,,,,,,,,,,,,
91,2384624,1745470981612,0.0,27.0,,-0.08,0.12,1.15,4.0,0.0,1.0,1.16,1.7,68.0,4438.0,11.4,3.83,,12.72,1.168,91.6,,38.3,5.0,,,,,,,,,,,,0,0,0,0,0,0,0,0,0,0,0,0,0,0,0,0,,,,,,0.0,,,,,,,
92,2384644,1745470981632,,,,,,,,,,,,,,,,,,,,,,,,,,,,,,,,,,0,0,0,0,0,0,0,0,0,0,0,0,0,0,0,0,,,,,,,,,,,,,
93,2384664,1745470981652,0.0,24.0,,-0.06,0.12,1.08,5.0,-1.0,1.0,1.09,1.7,64.0,4473.0,11.6,3.82,,12.79,1.173,91.6,,38.3,5.0,,,,,,,,,,,,0,0,0,0,0,0,0,0,0,0,0,0,0,0,0,0,,,,,,0.0,,,,,,,
94,2384684,1745470981672,,,,,,,,,,,,,,,,,,,,,,,0.0,0.0,0.0,0.0,0.0,0.0,0.0,0.0,2.27,,,0,0,0,0,0,0,0,0,0,0,0,0,0,0,0,0,,0.0,,,,,38.993782,-76.938789,0.07,26.0,33.0,3.0,0.9
95,2384704,1745470981692,0.0,13.0,,-0.04,0.06,1.01,5.0,0.0,0.0,1.01,1.7,60.0,4488.0,11.6,3.85,,12.75,1.174,91.6,,38.7,5.0,,,,,,,,,,,,0,0,0,0,0,0,0,0,0,0,0,0,0,0,0,0,,,,,,0.0,,,,,,,
96,2384724,1745470981712,,,,,,,,,,,,,,,,,,,,,,,,,,,,,,,,,,0,0,0,0,0,0,0,0,0,0,0,0,0,0,0,0,,,,,,,,,,,,,
97,2384744,1745470981732,0.0,7.0,,-0.03,0.04,0.92,5.0,-1.0,0.0,0.92,1.7,54.0,4491.0,11.6,3.84,,12.75,1.174,91.6,,38.7,5.0,,,,,,,,,,,,0,0,0,0,0,0,0,0,0,0,0,0,0,0,0,0,,,,,,0.0,,,,,,,
98,2384764,1745470981752,,,,,,,,,,,,,,,,,,,,,,,,,,,,,,,,,,0,0,0,0,0,0,0,0,0,0,0,0,0,0,0,0,,,,,,,,,,,,,
99,2384784,1745470981772,0.0,7.0,,-0.01,-0.05,0.85,5.0,0.0,-1.0,0.85,1.7,50.0,4491.0,11.6,3.84,,12.79,1.167,91.6,,38.7,5.0,0.0,0.0,0.0,0.0,0.0,0.0,0.0,0.0,2.26,,,0,0,0,0,0,0,0,0,0,0,0,0,0,0,0,0,,0.0,,,,0.0,38.993782,-76.938789,0.05,26.0,33.0,3.0,0.9
100,2384804,1745470981792,,,,,,,,,,,,,,,,,,,,,,,,,,,,,,,,,,0,0,0,0,0,0,0,0,0,0,0,0,0,0,0,0,,,,,,,,,,,,,
101,2384824,1745470981812,0.0,24.0,,0.01,-0.1,0.76,3.0,0.0,-1.0,0.77,1.7,45.0,4482.0,11.7,3.85,,12.73,1.178,89.8,,38.7,5.0,,,,,,,,,,,,0,0,0,0,0,0,0,0,0,0,0,0,0,0,0,0,,,,,,0.0,,,,,,,
102,2384844,1745470981832,,,,,,,,,,,,,,,,,,,,,,,,,,,,,,,,,,0,0,0,0,0,0,0,0,0,0,0,0,0,0,0,0,,,,,,,,,,,,,
103,2384864,1745470981852,0.0,24.0,,0.02,-0.21,0.71,1.0,0.0,-1.0,0.74,1.7,44.0,4418.0,11.6,3.85,,12.73,1.174,89.8,,38.7,5.0,,,,,,,,,,,,0,0,0,0,0,0,0,0,0,0,0,0,0,0,0,0,,,,,,0.0,,,,,,,
104,2384884,1745470981872,,,,,,,,,,,,,,,,,,,,,,,0.0,0.0,0.0,0.0,0.0,0.0,0.0,0.0,2.28,,,0,0,0,0,0,0,0,0,0,0,0,0,0,0,0,0,,0.0,,,,,38.993782,-76.938789,0.1,26.0,33.0,3.0,0.9
105,2384904,1745470981892,0.0,3.0,,0.03,-0.28,0.65,-1.0,0.0,-1.0,0.71,1.7,42.0,4452.0,11.4,3.83,,12.65,1.19,89.8,,38.2,5.0,,,,,,,,,,,,0,0,0,0,0,0,0,0,0,0,0,0,0,0,0,0,,,,,,0.0,,,,,,,
106,2384924,1745470981914,,,,,,,,,,,,,,,,,,,,,,,,,,,,,,,,,,0,0,0,0,0,0,0,0,0,0,0,0,0,0,0,0,,,,,,,,,,,,,
107,2384944,1745470981934,0.0,17.0,,0.03,-0.35,0.62,-3.0,0.0,-1.0,0.71,1.7,42.0,4450.0,11.3,3.82,,12.65,1.19,89.8,,38.2,5.0,,,,,,,,,,,,0,0,0,0,0,0,0,0,0,0,0,0,0,0,0,0,,,,,,0.0,,,,,,,
108,2384964,1745470981954,,,,,,,,,,,,,,,,,,,,,,,,,,,,,,,,,,0,0,0,0,0,0,0,0,0,0,0,0,0,0,0,0,,,,,,,,,,,,,
109,2384984,1745470981974,0.0,20.0,,0.03,-0.42,0.6,-4.0,0.0,-1.0,0.74,1.7,43.0,4450.0,11.3,3.82,,12.75,1.179,89.8,,38.7,5.0,0.0,0.0,0.0,0.0,0.0,0.0,0.0,0.0,2.28,,,0,0,0,0,0,0,0,0,0,0,0,0,0,0,0,0,,0.0,,,,0.0,38.993782,-76.938789,0.0,26.0,33.0,3.0,0.9
110,2385004,1745470981994,,,,,,,,,,,,,,,,,,,,,,,,,,,,,,,,,,0,0,0,0,0,0,0,0,0,0,0,0,0,0,0,0,,,,,,,,,,,,,
111,2385024,1745470982004,0.0,20.0,,0.03,-0.46,0.59,-6.0,0.0,-1.0,0.75,1.7,44.0,4496.0,11.2,3.83,,12.75,1.171,89.8,,38.7,5.0,,,,,,,,,,,,0,0,0,0,0,0,0,0,0,0,0,0,0,0,0,0,,,,,,0.0,,,,,,,
112,2385044,1745470982024,,,,,,,,,,,,,,,,,,,,,,,,,,,,,,,,,,0,0,0,0,0,0,0,0,0,0,0,0,0,0,0,0,,,,,,,,,,,,,
113,2385064,1745470982044,0.0,17.0,,0.02,-0.49,0.58,-7.0,0.0,-1.0,0.76,1.7,45.0,4484.0,11.2,3.83,,12.72,1.166,89.8,,38.7,5.0,,,,,,,,,,,,0,0,0,0,0,0,0,0,0,0,0,0,0,0,0,0,,,,,,0.0,,,,,,,
114,2385084,1745470982064,,,,,,,,,,,,,,,,,,,,,,,0.0,0.0,0.0,0.0,0.0,0.0,0.0,0.0,2.27,,,0,0,0,0,0,0,0,0,0,0,0,0,0,0,0,0,,0.0,,,,,38.993782,-76.938789,0.07,26.0,34.0,3.0,0.9
115,2385104,1745470982084,0.0,0.0,,0.04,-0.51,0.55,-6.0,0.0,-2.0,0.75,1.7,44.0,4644.0,11.3,3.8,,12.76,1.228,89.8,,39.7,5.0,,,,,,,,,,,,0,0,0,0,0,0,0,0,0,0,0,0,0,0,0,0,,,,,,0.0,,,,,,,
116,2385124,1745470982112,,,,,,,,,,,,,,,,,,,,,,,,,,,,,,,,,,0,0,0,0,0,0,0,0,0,0,0,0,0,0,0,0,,,,,,,,,,,,,
117,2385144,1745470982132,0.0,0.0,,0.04,-0.45,0.6,-4.0,0.0,-2.0,0.75,1.7,44.0,4653.0,11.5,3.8,,12.76,1.228,89.8,,39.7,5.0,,,,,,,,,,,,0,0,0,0,0,0,0,0,0,0,0,0,0,0,0,0,,,,,,0.0,,,,,,,
118,2385164,1745470982152,,,,,,,,,,,,,,,,,,,,,,,,,,,,,,,,,,0,0,0,0,0,0,0,0,0,0,0,0,0,0,0,0,,,,,,,,,,,,,
119,2385184,1745470982172,0.0,17.0,,0.03,-0.29,0.75,-2.0,0.0,-1.0,0.8,1.7,47.0,4653.0,11.5,3.8,,12.79,1.168,89.8,,40.4,5.0,0.0,0.0,0.0,0.0,0.0,0.0,0.0,0.0,2.27,,,0,0,0,0,0,0,0,0,0,0,0,0,0,0,0,0,,0.0,,,,0.0,38.993782,-76.938789,0.04,26.0,34.0,3.0,0.9
120,2385204,1745470982192,,,,,,,,,,,,,,,,,,,,,,,,,,,,,,,,,,0,0,0,0,0,0,0,0,0,0,0,0,0,0,0,0,,,,,,,,,,,,,
121,2385224,1745470982211,0.0,27.0,,-0.03,-0.19,0.85,-1.0,0.0,-1.0,0.87,1.7,51.0,4617.0,11.6,3.8,,12.73,1.098,89.8,,40.4,5.0,,,,,,,,,,,,0,0,0,0,0,0,0,0,0,0,0,0,0,0,0,0,,,,,,0.0,,,,,,,
122,2385244,1745470982231,,,,,,,,,,,,,,,,,,,,,,,,,,,,,,,,,,0,0,0,0,0,0,0,0,0,0,0,0,0,0,0,0,,,,,,,,,,,,,
123,2385264,1745470982251,0.0,24.0,,-0.05,-0.18,0.89,-2.0,0.0,0.0,0.9,1.7,53.0,4605.0,11.7,3.83,,12.69,1.086,89.8,,40.4,5.0,,,,,,,,,,,,0,0,0,0,0,0,0,0,0,0,0,0,0,0,0,0,,,,,,0.0,,,,,,,
124,2385284,1745470982271,,,,,,,,,,,,,,,,,,,,,,,0.0,0.0,0.0,0.0,0.0,0.0,0.0,0.0,2.27,,,0,0,0,0,0,0,0,0,0,0,0,0,0,0,0,0,,0.0,,,,,38.993782,-76.938789,0.0,26.0,34.0,3.0,0.9
125,2385304,1745470982291,0.0,10.0,,-0.06,-0.2,0.88,-4.0,0.0,0.0,0.91,1.7,53.0,4547.0,11.7,3.82,,12.71,1.124,89.8,,39.6,5.0,,,,,,,,,,,,0,0,0,0,0,0,0,0,0,0,0,0,0,0,0,0,,,,,,0.0,,,,,,,
126,2385324,1745470982311,,,,,,,,,,,,,,,,,,,,,,,,,,,,,,,,,,0,0,0,0,0,0,0,0,0,0,0,0,0,0,0,0,,,,,,,,,,,,,
127,2385344,1745470982331,0.0,13.0,,-0.06,-0.29,0.85,-5.0,0.0,0.0,0.9,1.7,53.0,4504.0,11.6,3.82,,12.71,1.124,89.8,,39.6,5.0,,,,,,,,,,,,0,0,0,0,0,0,0,0,0,0,0,0,0,0,0,0,,,,,,0.0,,,,,,,
128,2385364,1745470982351,,,,,,,,,,,,,,,,,,,,,,,,,,,,,,,,,,0,0,0,0,0,0,0,0,0,0,0,0,0,0,0,0,,,,,,,,,,,,,
129,2385384,1745470982371,0.0,0.0,13.66,-0.05,-0.34,0.82,-6.0,0.0,0.0,0.89,1.7,52.0,4504.0,11.6,3.82,15.0,12.68,1.142,89.8,174.0,38.8,5.0,0.0,0.0,0.0,0.0,0.0,0.0,0.0,0.0,2.27,0.0,1.0,0,0,0,0,0,0,0,0,0,0,0,0,0,0,0,0,0.0,0.0,1.0,0.0,0.0,0.0,38.993782,-76.938789,0.0,26.0,34.0,3.0,0.9
130,2385404,1745470982391,,,,,,,,,,,,,,,,,,,,,,,,,,,,,,,,,,0,0,0,0,0,0,0,0,0,0,0,0,0,0,0,0,,,,,,,,,,,,,
131,2385424,1745470982413,0.0,3.0,,-0.05,-0.41,0.77,-8.0,0.0,0.0,0.87,1.7,51.0,4490.0,11.5,3.82,,12.75,1.152,89.8,,38.8,5.0,,,,,,,,,,,,0,0,0,0,0,0,0,0,0,0,0,0,0,0,0,0,,,,,,0.0,,,,,,,
132,2385444,1745470982433,,,,,,,,,,,,,,,,,,,,,,,,,,,,,,,,,,0,0,0,0,0,0,0,0,0,0,0,0,0,0,0,0,,,,,,,,,,,,,
133,2385464,1745470982453,0.0,17.0,,-0.04,-0.45,0.75,-9.0,0.0,0.0,0.88,1.7,52.0,4465.0,11.3,3.81,,12.71,1.161,89.8,,38.8,5.0,,,,,,,,,,,,0,0,0,0,0,0,0,0,0,0,0,0,0,0,0,0,,,,,,0.0,,,,,,,
134,2385484,1745470982473,,,,,,,,,,,,,,,,,,,,,,,0.0,0.0,0.0,0.0,0.0,0.0,0.0,0.0,2.28,,,0,0,0,0,0,0,0,0,0,0,0,0,0,0,0,0,,0.0,,,,,38.993782,-76.938789,0.0,26.0,34.0,3.0,0.9
135,2385504,1745470982493,0.0,3.0,,-0.05,-0.5,0.74,-10.0,0.0,0.0,0.89,1.7,53.0,4481.0,11.2,3.84,,12.71,1.153,89.8,,38.4,5.0,,,,,,,,,,,,0,0,0,0,0,0,0,0,0,0,0,0,0,0,0,0,,,,,,0.0,,,,,,,
136,2385524,1745470982513,,,,,,,,,,,,,,,,,,,,,,,,,,,,,,,,,,0,0,0,0,0,0,0,0,0,0,0,0,0,0,0,0,,,,,,,,,,,,,
137,2385544,1745470982533,0.0,20.0,,-0.06,-0.5,0.76,-10.0,0.0,0.0,0.91,1.7,53.0,4491.0,11.3,3.84,,12.71,1.153,89.8,,38.4,5.0,,,,,,,,,,,,0,0,0,0,0,0,0,0,0,0,0,0,0,0,0,0,,,,,,0.0,,,,,,,
138,2385564,1745470982553,,,,,,,,,,,,,,,,,,,,,,,,,,,,,,,,,,0,0,0,0,0,0,0,0,0,0,0,0,0,0,0,0,,,,,,,,,,,,,
139,2385584,1745470982573,0.0,13.0,,-0.07,-0.49,0.8,-11.0,0.0,0.0,0.94,1.7,55.0,4491.0,11.3,3.84,,12.79,1.166,89.8,,38.7,5.0,0.0,0.0,0.0,0.0,0.0,0.0,0.0,0.0,2.28,,,0,0,0,0,0,0,0,0,0,0,0,0,0,0,0,0,,0.0,,,,0.0,38.993782,-76.938789,0.05,26.0,34.0,3.0,0.9
140,2385604,1745470982593,,,,,,,,,,,,,,,,,,,,,,,,,,,,,,,,,,0,0,0,0,0,0,0,0,0,0,0,0,0,0,0,0,,,,,,,,,,,,,
141,2385624,1745470982613,0.0,17.0,,-0.09,-0.43,0.87,-10.0,0.0,1.0,0.97,1.7,57.0,4465.0,11.3,3.83,,12.84,1.163,89.8,,38.7,5.0,,,,,,,,,,,,0,0,0,0,0,0,0,0,0,0,0,0,0,0,0,0,,,,,,0.0,,,,,,,
142,2385644,1745470982633,,,,,,,,,,,,,,,,,,,,,,,,,,,,,,,,,,0,0,0,0,0,0,0,0,0,0,0,0,0,0,0,0,,,,,,,,,,,,,
143,2385664,1745470982653,0.0,24.0,,-0.11,-0.34,0.95,-9.0,0.0,1.0,1.01,1.7,60.0,4504.0,11.4,3.84,,12.76,1.162,89.8,,38.7,5.0,,,,,,,,,,,,0,0,0,0,0,0,0,0,0,0,0,0,0,0,0,0,,,,,,0.0,,,,,,,
144,2385684,1745470982673,,,,,,,,,,,,,,,,,,,,,,,0.0,0.0,0.0,0.0,0.0,0.0,0.0,0.0,2.27,,,0,0,0,0,0,0,0,0,0,0,0,0,0,0,0,0,,0.0,,,,,38.993782,-76.938789,0.04,26.0,34.0,3.0,0.9
145,2385704,1745470982693,0.0,3.0,,-0.13,-0.24,1.03,-7.0,0.0,1.0,1.07,1.7,63.0,4428.0,11.7,3.82,,12.81,1.175,89.8,,38.3,5.0,,,,,,,,,,,,0,0,0,0,0,0,0,0,0,0,0,0,0,0,0,0,,,,,,0.0,,,,,,,
146,2385724,1745470982714,,,,,,,,,,,,,,,,,,,,,,,,,,,,,,,,,,0,0,0,0,0,0,0,0,0,0,0,0,0,0,0,0,,,,,,,,,,,,,
147,2385744,1745470982734,0.0,7.0,,-0.15,-0.12,1.14,-5.0,0.0,2.0,1.16,1.7,68.0,4442.0,11.8,3.85,,12.81,1.175,89.8,,38.3,5.0,,,,,,,,,,,,0,0,0,0,0,0,0,0,0,0,0,0,0,0,0,0,,,,,,0.0,,,,,,,
148,2385764,1745470982754,,,,,,,,,,,,,,,,,,,,,,,,,,,,,,,,,,0,0,0,0,0,0,0,0,0,0,0,0,0,0,0,0,,,,,,,,,,,,,
149,2385784,1745470982774,0.0,13.0,,-0.16,0.01,1.23,-3.0,0.0,2.0,1.24,1.7,73.0,4442.0,11.8,3.85,,12.75,1.161,89.8,,38.2,5.0,0.0,0.0,0.0,0.0,0.0,0.0,0.0,0.0,2.26,,,0,0,0,0,0,0,0,0,0,0,0,0,0,0,0,0,,0.0,,,,0.0,38.993782,-76.938789,0.08,26.0,34.0,3.0,0.9
150,2385804,1745470982794,,,,,,,,,,,,,,,,,,,,,,,,,,,,,,,,,,0,0,0,0,0,0,0,0,0,0,0,0,0,0,0,0,,,,,,,,,,,,,
151,2385824,1745470982813,0.0,3.0,,-0.16,0.13,1.31,0.0,0.0,2.0,1.33,1.7,78.0,4460.0,12.0,3.86,,12.83,1.162,89.8,,38.2,5.0,,,,,,,,,,,,0,0,0,0,0,0,0,0,0,0,0,0,0,0,0,0,,,,,,0.0,,,,,,,
152,2385844,1745470982833,,,,,,,,,,,,,,,,,,,,,,,,,,,,,,,,,,0,0,0,0,0,0,0,0,0,0,0,0,0,0,0,0,,,,,,,,,,,,,
153,2385864,1745470982853,0.0,24.0,,-0.17,0.24,1.36,2.0,-1.0,2.0,1.4,1.7,82.0,4506.0,12.3,3.87,,12.87,1.168,89.8,,38.2,5.0,,,,,,,,,,,,0,0,0,0,0,0,0,0,0,0,0,0,0,0,0,0,,,,,,0.0,,,,,,,
154,2385884,1745470982873,,,,,,,,,,,,,,,,,,,,,,,0.0,0.0,0.0,0.0,0.0,0.0,0.0,0.0,2.27,,,0,0,0,0,0,0,0,0,0,0,0,0,0,0,0,0,,0.0,,,,,38.993782,-76.938789,0.05,26.0,34.0,3.0,0.9
155,2385904,1745470982893,0.0,17.0,,-0.16,0.31,1.39,4.0,0.0,2.0,1.43,1.7,84.0,4479.0,12.7,3.9,,12.92,1.158,89.8,,38.6,5.0,,,,,,,,,,,,0,0,0,0,0,0,0,0,0,0,0,0,0,0,0,0,,,,,,0.0,,,,,,,
156,2385924,1745470982913,,,,,,,,,,,,,,,,,,,,,,,,,,,,,,,,,,0,0,0,0,0,0,0,0,0,0,0,0,0,0,0,0,,,,,,,,,,,,,
157,2385944,1745470982933,0.0,13.0,,-0.15,0.36,1.37,6.0,-1.0,1.0,1.43,1.7,84.0,4495.0,13.8,3.95,,12.92,1.158,89.8,,38.6,5.0,,,,,,,,,,,,0,0,0,0,0,0,0,0,0,0,0,0,0,0,0,0,,,,,,0.0,,,,,,,
158,2385964,1745470982953,,,,,,,,,,,,,,,,,,,,,,,,,,,,,,,,,,0,0,0,0,0,0,0,0,0,0,0,0,0,0,0,0,,,,,,,,,,,,,
159,2385984,1745470982973,0.0,7.0,,-0.13,0.39,1.36,7.0,-1.0,1.0,1.42,1.7,84.0,4495.0,13.8,3.95,,13.09,1.155,89.8,,38.8,5.0,0.0,0.0,0.0,0.0,0.0,0.0,0.0,0.0,2.28,,,0,0,0,0,0,0,0,0,0,0,0,0,0,0,0,0,,0.0,,,,0.0,38.993782,-76.938789,0.04,26.1,34.0,3.0,0.9
160,2386004,1745470982993,,,,,,,,,,,,,,,,,,,,,,,,,,,,,,,,,,0,0,0,0,0,0,0,0,0,0,0,0,0,0,0,0,,,,,,,,,,,,,
161,2386024,1745470983005,0.0,7.0,,-0.12,0.43,1.34,8.0,-1.0,1.0,1.41,1.7,83.0,4528.0,14.7,4.0,,13.09,1.147,89.8,,38.8,5.0,,,,,,,,,,,,0,0,0,0,0,0,0,0,0,0,0,0,0,0,0,0,,,,,,0.0,,,,,,,
162,2386044,1745470983025,,,,,,,,,,,,,,,,,,,,,,,,,,,,,,,,,,0,0,0,0,0,0,0,0,0,0,0,0,0,0,0,0,,,,,,,,,,,,,
163,2386064,1745470983045,0.0,7.0,,-0.11,0.47,1.37,9.0,-1.0,1.0,1.45,1.7,86.0,4479.0,15.4,4.05,,13.15,1.164,89.8,,38.8,5.0,,,,,,,,,,,,0,0,0,0,0,0,0,0,0,0,0,0,0,0,0,0,,,,,,0.0,,,,,,,
164,2386084,1745470983065,,,,,,,,,,,,,,,,,,,,,,,0.0,0.0,0.0,0.0,0.0,0.0,0.0,0.0,2.28,,,0,0,0,0,0,0,0,0,0,0,0,0,0,0,0,0,,0.0,,,,,38.993782,-76.938789,0.09,26.1,33.0,3.0,0.9
165,2386104,1745470983085,0.0,0.0,,-0.13,0.55,1.42,10.0,-1.0,1.0,1.53,1.7,90.0,4549.0,15.5,4.07,,13.2,1.207,89.8,,39.3,5.0,,,,,,,,,,,,0,0,0,0,0,0,0,0,0,0,0,0,0,0,0,0,,,,,,0.0,,,,,,,
166,2386124,1745470983111,,,,,,,,,,,,,,,,,,,,,,,,,,,,,,,,,,0,0,0,0,0,0,0,0,0,0,0,0,0,0,0,0,,,,,,,,,,,,,
167,2386144,1745470983131,0.0,3.0,,-0.14,0.56,1.43,9.0,-1.0,1.0,1.55,1.7,91.0,4582.0,15.7,4.08,,13.2,1.207,89.8,,39.3,5.0,,,,,,,,,,,,0,0,0,0,0,0,0,0,0,0,0,0,0,0,0,0,,,,,,0.0,,,,,,,
168,2386164,1745470983151,,,,,,,,,,,,,,,,,,,,,,,,,,,,,,,,,,0,0,0,0,0,0,0,0,0,0,0,0,0,0,0,0,,,,,,,,,,,,,
169,2386184,1745470983171,0.0,13.0,,-0.15,0.45,1.37,7.0,-1.0,1.0,1.45,1.7,85.0,4582.0,15.7,4.08,,13.19,1.185,89.8,,39.4,5.0,0.0,0.0,0.0,0.0,0.0,0.0,0.0,0.0,2.26,,,0,0,0,0,0,0,0,0,0,0,0,0,0,0,0,0,,0.0,,,,0.0,38.993782,-76.938789,0.09,26.1,32.0,3.0,0.9
170,2386204,1745470983191,,,,,,,,,,,,,,,,,,,,,,,,,,,,,,,,,,0,0,0,0,0,0,0,0,0,0,0,0,0,0,0,0,,,,,,,,,,,,,
171,2386224,1745470983206,0.0,20.0,,-0.13,0.28,1.25,4.0,-1.0,1.0,1.29,1.7,76.0,4618.0,16.0,4.1,,13.2,1.188,89.8,,39.4,5.0,,,,,,,,,,,,0,0,0,0,0,0,0,0,0,0,0,0,0,0,0,0,,,,,,0.0,,,,,,,
172,2386244,1745470983226,,,,,,,,,,,,,,,,,,,,,,,,,,,,,,,,,,0,0,0,0,0,0,0,0,0,0,0,0,0,0,0,0,,,,,,,,,,,,,
173,2386264,1745470983246,0.0,13.0,,-0.11,0.25,1.21,4.0,-1.0,1.0,1.24,1.7,73.0,4670.0,16.4,4.11,,13.2,1.191,89.8,,39.4,5.0,,,,,,,,,,,,0,0,0,0,0,0,0,0,0,0,0,0,0,0,0,0,,,,,,0.0,,,,,,,
174,2386284,1745470983266,,,,,,,,,,,,,,,,,,,,,,,0.0,0.0,0.0,0.0,0.0,0.0,0.0,0.0,2.26,,,0,0,0,0,0,0,0,0,0,0,0,0,0,0,0,0,,0.0,,,,,38.993782,-76.938789,0.18,26.1,32.0,3.0,0.9
175,2386304,1745470983286,0.0,17.0,,-0.12,0.33,1.24,5.0,-1.0,1.0,1.29,1.7,76.0,4763.0,16.4,4.13,,13.19,1.184,89.8,,40.5,5.0,,,,,,,,,,,,0,0,0,0,0,0,0,0,0,0,0,0,0,0,0,0,,,,,,0.0,,,,,,,
176,2386324,1745470983310,,,,,,,,,,,,,,,,,,,,,,,,,,,,,,,,,,0,0,0,0,0,0,0,0,0,0,0,0,0,0,0,0,,,,,,,,,,,,,
177,2386344,1745470983330,0.0,-4.0,,-0.11,0.2,1.16,3.0,0.0,1.0,1.18,1.7,70.0,4790.0,16.4,4.14,,13.19,1.184,89.8,,40.5,5.0,,,,,,,,,,,,0,0,0,0,0,0,0,0,0,0,0,0,0,0,0,0,,,,,,0.0,,,,,,,
178,2386364,1745470983350,,,,,,,,,,,,,,,,,,,,,,,,,,,,,,,,,,0,0,0,0,0,0,0,0,0,0,0,0,0,0,0,0,,,,,,,,,,,,,
179,2386384,1745470983370,0.0,0.0,13.67,-0.1,0.22,1.19,4.0,0.0,1.0,1.22,1.7,72.0,4790.0,16.4,4.14,15.0,13.13,1.192,89.8,174.0,41.5,5.0,0.0,0.0,0.0,0.0,0.0,0.0,0.0,0.0,2.27,0.0,1.0,0,0,0,0,0,0,0,0,0,0,0,0,0,0,0,0,0.0,0.0,1.0,0.0,0.0,0.0,38.993782,-76.938789,0.04,26.1,32.0,3.0,0.9
180,2386404,1745470983390,,,,,,,,,,,,,,,,,,,,,,,,,,,,,,,,,,0,0,0,0,0,0,0,0,0,0,0,0,0,0,0,0,,,,,,,,,,,,,
181,2386424,1745470983412,0.0,0.0,,-0.11,0.18,1.15,3.0,-1.0,1.0,1.17,1.7,69.0,4757.0,16.5,4.13,,13.13,1.183,89.8,,41.5,5.0,,,,,,,,,,,,0,0,0,0,0,0,0,0,0,0,0,0,0,0,0,0,,,,,,0.0,,,,,,,
182,2386444,1745470983432,,,,,,,,,,,,,,,,,,,,,,,,,,,,,,,,,,0,0,0,0,0,0,0,0,0,0,0,0,0,0,0,0,,,,,,,,,,,,,
183,2386464,1745470983452,0.0,20.0,,-0.09,0.13,1.14,3.0,0.0,0.0,1.15,1.7,68.0,4795.0,16.2,4.14,,13.11,1.18,89.8,,41.5,5.0,,,,,,,,,,,,0,0,0,0,0,0,0,0,0,0,0,0,0,0,0,0,,,,,,0.0,,,,,,,
184,2386484,1745470983472,,,,,,,,,,,,,,,,,,,,,,,0.0,0.0,0.0,0.0,0.0,0.0,0.0,0.0,2.28,,,0,0,0,0,0,0,0,0,0,0,0,0,0,0,0,0,,0.0,,,,,38.993782,-76.938789,0.12,26.1,32.0,3.0,0.9
185,2386504,1745470983492,0.0,20.0,,-0.1,0.13,1.13,3.0,0.0,1.0,1.14,1.7,67.0,4832.0,16.0,4.14,,13.15,1.17,89.8,,42.0,5.0,,,,,,,,,,,,0,0,0,0,0,0,0,0,0,0,0,0,0,0,0,0,,,,,,0.0,,,,,,,
186,2386524,1745470983512,,,,,,,,,,,,,,,,,,,,,,,,,,,,,,,,,,0,0,0,0,0,0,0,0,0,0,0,0,0,0,0,0,,,,,,,,,,,,,
187,2386544,1745470983532,0.0,27.0,,-0.08,0.09,1.1,1.0,0.0,0.0,1.1,1.7,65.0,4814.0,16.1,4.13,,13.15,1.17,89.8,,42.0,5.0,,,,,,,,,,,,0,0,0,0,0,0,0,0,0,0,0,0,0,0,0,0,,,,,,0.0,,,,,,,
188,2386564,1745470983552,,,,,,,,,,,,,,,,,,,,,,,,,,,,,,,,,,0,0,0,0,0,0,0,0,0,0,0,0,0,0,0,0,,,,,,,,,,,,,
189,2386584,1745470983572,0.0,17.0,,-0.1,0.14,1.16,3.0,0.0,1.0,1.17,1.7,69.0,4814.0,16.1,4.13,,13.15,1.166,89.8,,41.7,5.0,0.0,0.0,0.0,0.0,0.0,0.0,0.0,0.0,2.27,,,0,0,0,0,0,0,0,0,0,0,0,0,0,0,0,0,,0.0,,,,0.0,38.993782,-76.938789,0.04,26.1,32.0,3.0,0.9
190,2386604,1745470983592,,,,,,,,,,,,,,,,,,,,,,,,,,,,,,,,,,0,0,0,0,0,0,0,0,0,0,0,0,0,0,0,0,,,,,,,,,,,,,
191,2386624,1745470983612,0.0,17.0,,-0.09,0.01,1.09,1.0,0.0,1.0,1.1,1.7,65.0,4758.0,15.9,4.12,,13.16,1.16,89.8,,41.7,5.0,,,,,,,,,,,,0,0,0,0,0,0,0,0,0,0,0,0,0,0,0,0,,,,,,0.0,,,,,,,
192,2386644,1745470983632,,,,,,,,,,,,,,,,,,,,,,,,,,,,,,,,,,0,0,0,0,0,0,0,0,0,0,0,0,0,0,0,0,,,,,,,,,,,,,
193,2386664,1745470983652,0.0,7.0,,-0.09,0.08,1.13,2.0,0.0,0.0,1.14,1.7,67.0,4772.0,16.1,4.13,,13.17,1.153,89.8,,41.7,5.0,,,,,,,,,,,,0,0,0,0,0,0,0,0,0,0,0,0,0,0,0,0,,,,,,0.0,,,,,,,
194,2386684,1745470983672,,,,,,,,,,,,,,,,,,,,,,,0.0,0.0,0.0,0.0,0.0,0.0,0.0,0.0,2.27,,,0,0,0,0,0,0,0,0,0,0,0,0,0,0,0,0,,0.0,,,,,38.993782,-76.938789,0.57,26.1,32.0,3.0,0.9
195,2386704,1745470983692,0.0,10.0,,-0.11,0.13,1.17,2.0,0.0,1.0,1.18,1.7,69.0,4752.0,16.3,4.13,,13.19,1.145,89.8,,41.4,5.0,,,,,,,,,,,,0,0,0,0,0,0,0,0,0,0,0,0,0,0,0,0,,,,,,0.0,,,,,,,
196,2386724,1745470983712,,,,,,,,,,,,,,,,,,,,,,,,,,,,,,,,,,0,0,0,0,0,0,0,0,0,0,0,0,0,0,0,0,,,,,,,,,,,,,
197,2386744,1745470983732,0.0,10.0,,-0.09,0.03,1.09,0.0,0.0,0.0,1.09,1.7,64.0,4701.0,16.4,4.12,,13.19,1.145,89.8,,41.4,5.0,,,,,,,,,,,,0,0,0,0,0,0,0,0,0,0,0,0,0,0,0,0,,,,,,0.0,,,,,,,
198,2386764,1745470983752,,,,,,,,,,,,,,,,,,,,,,,,,,,,,,,,,,0,0,0,0,0,0,0,0,0,0,0,0,0,0,0,0,,,,,,,,,,,,,
199,2386784,1745470983772,0.0,0.0,,-0.06,-0.01,1.0,0.0,0.0,0.0,1.0,1.7,59.0,4701.0,16.4,4.12,,13.2,1.158,89.8,,40.5,5.0,0.0,0.0,0.0,0.0,0.0,0.0,0.0,0.0,2.27,,,0,0,0,0,0,0,0,0,0,0,0,0,0,0,0,0,,0.0,,,,0.0,38.993782,-76.938789,0.13,26.1,32.0,3.0,0.9
200,2386804,1745470983792,,,,,,,,,,,,,,,,,,,,,,,,,,,,,,,,,,0,0,0,0,0,0,0,0,0,0,0,0,0,0,0,0,,,,,,,,,,,,,
201,2386824,1745470983812,0.0,24.0,,-0.04,0.05,1.05,3.0,0.0,0.0,1.05,1.7,62.0,4654.0,16.6,4.13,,13.17,1.148,89.8,,40.5,5.0,,,,,,,,,,,,0,0,0,0,0,0,0,0,0,0,0,0,0,0,0,0,,,,,,0.0,,,,,,,
202,2386844,1745470983832,,,,,,,,,,,,,,,,,,,,,,,,,,,,,,,,,,0,0,0,0,0,0,0,0,0,0,0,0,0,0,0,0,,,,,,,,,,,,,
203,2386864,1745470983852,0.0,24.0,,-0.06,0.13,1.14,3.0,0.0,0.0,1.15,1.7,68.0,4626.0,16.6,4.12,,13.19,1.154,89.8,,40.5,5.0,,,,,,,,,,,,0,0,0,0,0,0,0,0,0,0,0,0,0,0,0,0,,,,,,0.0,,,,,,,
204,2386884,1745470983872,,,,,,,,,,,,,,,,,,,,,,,0.0,0.0,0.0,0.0,0.0,0.0,0.0,0.0,2.27,,,0,0,0,0,0,0,0,0,0,0,0,0,0,0,0,0,,0.0,,,,,38.993782,-76.938789,0.18,26.1,32.0,3.0,0.9
205,2386904,1745470983892,0.0,24.0,,-0.07,0.18,1.2,2.0,0.0,1.0,1.22,1.7,72.0,4583.0,16.6,4.1,,13.29,1.131,89.8,,39.7,5.0,,,,,,,,,,,,0,0,0,0,0,0,0,0,0,0,0,0,0,0,0,0,,,,,,0.0,,,,,,,
206,2386924,1745470983912,,,,,,,,,,,,,,,,,,,,,,,,,,,,,,,,,,0,0,0,0,0,0,0,0,0,0,0,0,0,0,0,0,,,,,,,,,,,,,
207,2386944,1745470983932,0.0,24.0,,-0.08,0.19,1.25,1.0,0.0,1.0,1.27,1.7,75.0,4488.0,16.5,4.1,,13.29,1.131,89.8,,39.7,5.0,,,,,,,,,,,,0,0,0,0,0,0,0,0,0,0,0,0,0,0,0,0,,,,,,0.0,,,,,,,
208,2386964,1745470983952,,,,,,,,,,,,,,,,,,,,,,,,,,,,,,,,,,0,0,0,0,0,0,0,0,0,0,0,0,0,0,0,0,,,,,,,,,,,,,
209,2386984,1745470983972,0.0,0.0,,-0.08,0.25,1.34,2.0,0.0,1.0,1.36,1.7,80.0,4488.0,16.5,4.1,,13.33,1.129,89.8,,38.3,5.0,0.0,0.0,0.0,0.0,0.0,0.0,0.0,0.0,2.28,,,0,0,0,0,0,0,0,0,0,0,0,0,0,0,0,0,,0.0,,,,0.0,38.993782,-76.938789,0.32,26.1,32.0,3.0,0.9
210,2387004,1745470983992,,,,,,,,,,,,,,,,,,,,,,,,,,,,,,,,,,0,0,0,0,0,0,0,0,0,0,0,0,0,0,0,0,,,,,,,,,,,,,
211,2387024,1745470984004,0.0,3.0,,-0.08,0.3,1.36,4.0,-1.0,1.0,1.4,1.7,82.0,4450.0,16.3,4.07,,13.39,1.131,89.8,,38.3,5.0,,,,,,,,,,,,0,0,0,0,0,0,0,0,0,0,0,0,0,0,0,0,,,,,,0.0,,,,,,,
212,2387044,1745470984024,,,,,,,,,,,,,,,,,,,,,,,,,,,,,,,,,,0,0,0,0,0,0,0,0,0,0,0,0,0,0,0,0,,,,,,,,,,,,,
213,2387064,1745470984044,0.0,17.0,,-0.05,0.29,1.26,6.0,-1.0,1.0,1.3,1.7,76.0,4343.0,16.6,4.11,,13.45,1.139,89.8,,38.3,5.0,,,,,,,,,,,,0,0,0,0,0,0,0,0,0,0,0,0,0,0,0,0,,,,,,0.0,,,,,,,
214,2387084,1745470984064,,,,,,,,,,,,,,,,,,,,,,,0.0,0.0,0.0,0.0,0.0,0.0,0.0,0.0,2.28,,,0,0,0,0,0,0,0,0,0,0,0,0,0,0,0,0,,0.0,,,,,38.993782,-76.938789,0.44,26.1,32.0,3.0,0.9
215,2387104,1745470984084,0.0,7.0,,-0.05,0.22,1.17,3.0,0.0,1.0,1.19,1.7,70.0,4258.0,17.3,4.1,,13.4,1.157,89.8,,37.0,5.0,,,,,,,,,,,,0,0,0,0,0,0,0,0,0,0,0,0,0,0,0,0,,,,,,0.0,,,,,,,
216,2387124,1745470984110,,,,,,,,,,,,,,,,,,,,,,,,,,,,,,,,,,0,0,0,0,0,0,0,0,0,0,0,0,0,0,0,0,,,,,,,,,,,,,
217,2387144,1745470984130,0.0,20.0,,-0.06,0.21,1.23,3.0,0.0,1.0,1.25,1.7,74.0,4248.0,17.6,4.09,,13.4,1.157,89.8,,37.0,5.0,,,,,,,,,,,,0,0,0,0,0,0,0,0,0,0,0,0,0,0,0,0,,,,,,0.0,,,,,,,
218,2387164,1745470984150,,,,,,,,,,,,,,,,,,,,,,,,,,,,,,,,,,0,0,0,0,0,0,0,0,0,0,0,0,0,0,0,0,,,,,,,,,,,,,
219,2387184,1745470984170,0.0,20.0,,-0.04,0.07,1.12,2.0,0.0,0.0,1.13,1.7,66.0,4248.0,17.6,4.09,,13.49,1.151,89.8,,35.4,5.0,0.0,0.0,0.0,0.0,0.0,0.0,0.0,0.0,2.27,,,0,0,0,0,0,0,0,0,0,0,0,0,0,0,0,0,,0.0,,,,0.0,38.993782,-76.938789,0.52,26.1,32.0,3.0,0.9
220,2387204,1745470984190,,,,,,,,,,,,,,,,,,,,,,,,,,,,,,,,,,0,0,0,0,0,0,0,0,0,0,0,0,0,0,0,0,,,,,,,,,,,,,
221,2387224,1745470984203,0.0,20.0,,-0.03,0.14,1.18,4.0,0.0,1.0,1.19,1.7,70.0,4147.0,21.0,4.26,,13.68,1.149,89.8,,35.4,5.0,,,,,,,,,,,,0,0,0,0,0,0,0,0,0,0,0,0,0,0,0,0,,,,,,0.0,,,,,,,
222,2387244,1745470984223,,,,,,,,,,,,,,,,,,,,,,,,,,,,,,,,,,0,0,0,0,0,0,0,0,0,0,0,0,0,0,0,0,,,,,,,,,,,,,
223,2387264,1745470984243,0.0,27.0,,-0.01,0.03,1.09,2.0,0.0,0.0,1.09,1.7,64.0,4047.0,22.7,4.33,,13.87,1.158,89.8,,35.4,5.0,,,,,,,,,,,,0,0,0,0,0,0,0,0,0,0,0,0,0,0,0,0,,,,,,0.0,,,,,,,
224,2387284,1745470984263,,,,,,,,,,,,,,,,,,,,,,,0.0,0.0,0.0,0.0,0.0,0.0,0.0,0.0,2.26,,,0,0,0,0,0,0,0,0,0,0,0,0,0,0,0,0,,0.0,,,,,38.993782,-76.938789,0.7,26.1,33.0,3.0,0.9
225,2387304,1745470984283,0.0,3.0,,-0.01,0.1,1.13,4.0,0.0,0.0,1.13,1.7,67.0,4014.0,23.7,4.44,,13.87,1.181,89.8,,33.8,5.0,,,,,,,,,,,,0,0,0,0,0,0,0,0,0,0,0,0,0,0,0,0,,,,,,0.0,,,,,,,
226,2387324,1745470984313,,,,,,,,,,,,,,,,,,,,,,,,,,,,,,,,,,0,0,0,0,0,0,0,0,0,0,0,0,0,0,0,0,,,,,,,,,,,,,
227,2387344,1745470984333,0.0,10.0,,0.02,0.04,1.12,2.0,0.0,0.0,1.12,1.7,66.0,4078.0,24.1,4.45,,13.87,1.181,89.8,,33.8,5.0,,,,,,,,,,,,0,0,0,0,0,0,0,0,0,0,0,0,0,0,0,0,,,,,,0.0,,,,,,,
228,2387364,1745470984353,,,,,,,,,,,,,,,,,,,,,,,,,,,,,,,,,,0,0,0,0,0,0,0,0,0,0,0,0,0,0,0,0,,,,,,,,,,,,,
229,2387384,1745470984373,0.0,10.0,13.67,0.03,0.0,1.07,2.0,0.0,0.0,1.07,1.7,63.0,4078.0,24.1,4.45,15.0,13.95,1.175,89.8,174.0,34.2,5.0,0.0,0.0,0.0,0.0,0.0,0.0,0.0,0.0,2.27,0.0,1.0,0,0,0,0,0,0,0,0,0,0,0,0,0,0,0,0,0.0,0.0,1.0,0.0,0.0,0.0,38.993782,-76.938782,1.08,26.1,33.0,3.0,0.9
230,2387404,1745470984393,,,,,,,,,,,,,,,,,,,,,,,,,,,,,,,,,,0,0,0,0,0,0,0,0,0,0,0,0,0,0,0,0,,,,,,,,,,,,,
231,2387424,1745470984411,0.0,20.0,,0.05,0.1,1.11,4.0,0.0,0.0,1.11,1.7,65.0,3952.0,25.9,4.46,,14.0,1.152,89.8,,34.2,5.0,,,,,,,,,,,,0,0,0,0,0,0,0,0,0,0,0,0,0,0,0,0,,,,,,0.0,,,,,,,
232,2387444,1745470984431,,,,,,,,,,,,,,,,,,,,,,,,,,,,,,,,,,0,0,0,0,0,0,0,0,0,0,0,0,0,0,0,0,,,,,,,,,,,,,
233,2387464,1745470984451,0.0,20.0,,0.08,0.08,1.1,3.0,0.0,0.0,1.11,1.7,65.0,3846.0,28.6,4.49,,14.12,1.157,89.8,,34.2,5.0,,,,,,,,,,,,0,0,0,0,0,0,0,0,0,0,0,0,0,0,0,0,,,,,,0.0,,,,,,,
234,2387484,1745470984471,,,,,,,,,,,,,,,,,,,,,,,1.0,0.0,1.0,0.0,0.0,0.0,0.0,0.0,2.27,,,0,0,0,0,0,0,0,0,0,0,0,0,0,0,0,0,,0.0,,,,,38.993782,-76.938782,1.39,26.1,33.0,3.0,0.9
235,2387504,1745470984491,0.0,24.0,,0.09,0.02,1.1,3.0,0.0,0.0,1.1,1.7,65.0,3851.0,29.4,4.55,,14.26,1.144,89.8,,32.6,5.0,,,,,,,,,,,,0,0,0,0,0,0,0,0,0,0,0,0,0,0,0,0,,,,,,0.0,,,,,,,
236,2387524,1745470984511,,,,,,,,,,,,,,,,,,,,,,,,,,,,,,,,,,0,0,0,0,0,0,0,0,0,0,0,0,0,0,0,0,,,,,,,,,,,,,
237,2387544,1745470984531,0.0,30.0,,0.11,0.01,1.11,3.0,0.0,0.0,1.11,1.7,65.0,3672.0,29.5,4.57,,14.26,1.144,89.8,,32.6,5.0,,,,,,,,,,,,0,0,0,0,0,0,0,0,0,0,0,0,0,0,0,0,,,,,,0.0,,,,,,,
238,2387564,1745470984551,,,,,,,,,,,,,,,,,,,,,,,,,,,,,,,,,,0,0,0,0,0,0,0,0,0,0,0,0,0,0,0,0,,,,,,,,,,,,,
239,2387584,1745470984571,0.0,20.0,,0.12,0.03,1.06,3.0,0.0,0.0,1.06,1.7,63.0,3672.0,29.5,4.57,,14.22,1.134,89.8,,31.0,5.0,1.0,0.0,1.0,1.0,0.0,0.0,0.0,0.0,2.28,,,0,0,0,0,0,0,0,0,0,0,0,0,0,0,0,0,,0.0,,,,0.0,38.993782,-76.938782,2.03,26.1,33.0,3.0,0.9
240,2387604,1745470984591,,,,,,,,,,,,,,,,,,,,,,,,,,,,,,,,,,0,0,0,0,0,0,0,0,0,0,0,0,0,0,0,0,,,,,,,,,,,,,
241,2387624,1745470984611,0.0,24.0,,0.13,-0.07,1.09,1.0,0.0,0.0,1.1,1.7,65.0,3638.0,30.9,4.73,,14.28,1.127,89.8,,31.0,5.0,,,,,,,,,,,,0,0,0,0,0,0,0,0,0,0,0,0,0,0,0,0,,,,,,0.0,,,,,,,
242,2387644,1745470984631,,,,,,,,,,,,,,,,,,,,,,,,,,,,,,,,,,0,0,0,0,0,0,0,0,0,0,0,0,0,0,0,0,,,,,,,,,,,,,
243,2387664,1745470984651,0.0,17.0,,0.15,-0.0,1.0,3.0,0.0,0.0,1.01,1.7,59.0,3272.0,31.7,4.84,,14.38,1.134,89.8,,31.0,5.0,,,,,,,,,,,,0,0,0,0,0,0,0,0,0,0,0,0,0,0,0,0,,,,,,0.0,,,,,,,
244,2387684,1745470984671,,,,,,,,,,,,,,,,,,,,,,,2.0,0.0,2.0,2.0,0.0,0.0,0.0,0.0,2.28,,,0,0,0,0,0,0,0,0,0,0,0,0,0,0,0,0,,0.0,,,,,38.993782,-76.938782,2.87,26.1,33.0,3.0,0.9
245,2387704,1745470984691,0.0,17.0,,0.18,0.02,0.95,2.0,0.0,0.0,0.96,1.7,57.0,3077.0,43.8,4.63,,14.62,1.135,89.8,,27.4,5.0,,,,,,,,,,,,0,0,0,0,0,0,0,0,0,0,0,0,0,0,0,0,,,,,,0.0,,,,,,,
246,2387724,1745470984713,,,,,,,,,,,,,,,,,,,,,,,,,,,,,,,,,,0,0,0,0,0,0,0,0,0,0,0,0,0,0,0,0,,,,,,,,,,,,,
247,2387744,1745470984733,0.0,13.0,,0.2,0.01,0.91,2.0,0.0,0.0,0.93,1.7,55.0,2870.0,55.2,4.62,,14.62,1.135,89.8,,27.4,5.0,,,,,,,,,,,,0,0,0,0,0,0,0,0,0,0,0,0,0,0,0,0,,,,,,0.0,,,,,,,
248,2387764,1745470984753,,,,,,,,,,,,,,,,,,,,,,,,,,,,,,,,,,0,0,0,0,0,0,0,0,0,0,0,0,0,0,0,0,,,,,,,,,,,,,
249,2387784,1745470984773,0.0,68.0,,0.21,-0.01,0.93,1.0,0.0,0.0,0.96,1.7,56.0,2870.0,55.2,4.62,,14.62,1.121,89.8,,21.7,5.0,2.0,0.0,3.0,2.0,0.0,0.0,0.0,0.0,2.26,,,0,0,0,0,0,0,0,0,0,0,0,0,0,0,0,0,,0.0,,,,0.0,38.993786,-76.938782,3.93,26.1,33.0,3.0,0.9
250,2387804,1745470984793,,,,,,,,,,,,,,,,,,,,,,,,,,,,,,,,,,0,0,0,0,0,0,0,0,0,0,0,0,0,0,0,0,,,,,,,,,,,,,
251,2387824,1745470984811,0.0,47.0,,0.21,-0.04,0.95,1.0,-1.0,0.0,0.97,1.7,57.0,2616.0,58.9,4.71,,14.62,1.12,89.8,,21.7,5.0,,,,,,,,,,,,0,0,0,0,0,0,0,0,0,0,0,0,0,0,0,0,,,,,,0.0,,,,,,,
252,2387844,1745470984831,,,,,,,,,,,,,,,,,,,,,,,,,,,,,,,,,,0,0,0,0,0,0,0,0,0,0,0,0,0,0,0,0,,,,,,,,,,,,,
253,2387864,1745470984851,0.0,95.0,,0.19,-0.04,0.94,1.0,-1.0,0.0,0.96,1.7,56.0,2371.0,58.9,4.54,,14.68,1.111,89.8,,21.7,5.0,,,,,,,,,,,,0,0,0,0,0,0,0,0,0,0,0,0,0,0,0,0,,,,,,0.0,,,,,,,
254,2387884,1745470984871,,,,,,,,,,,,,,,,,,,,,,,3.0,0.0,3.0,4.0,0.0,0.0,0.0,0.0,2.27,,,0,0,0,0,0,0,0,0,0,0,0,0,0,0,0,0,,0.0,,,,,38.993786,-76.938782,5.1,26.1,33.0,3.0,0.9
255,2387904,1745470984891,0.0,85.0,,0.2,-0.04,0.95,1.0,-1.0,0.0,0.98,1.7,57.0,2076.0,58.8,4.54,,14.71,1.12,89.8,,18.0,5.0,,,,,,,,,,,,0,0,0,0,0,0,0,0,0,0,0,0,0,0,0,0,,,,,,0.0,,,,,,,
256,2387924,1745470984913,,,,,,,,,,,,,,,,,,,,,,,,,,,,,,,,,,0,0,0,0,0,0,0,0,0,0,0,0,0,0,0,0,,,,,,,,,,,,,
257,2387944,1745470984933,0.0,81.0,,0.19,-0.03,0.96,1.0,-1.0,0.0,0.98,1.7,58.0,1669.0,58.9,4.61,,14.71,1.12,89.8,,18.0,5.0,,,,,,,,,,,,0,0,0,0,0,0,0,0,0,0,0,0,0,0,0,0,,,,,,0.0,,,,,,,
258,2387964,1745470984953,,,,,,,,,,,,,,,,,,,,,,,,,,,,,,,,,,0,0,0,0,0,0,0,0,0,0,0,0,0,0,0,0,,,,,,,,,,,,,
259,2387984,1745470984973,0.0,64.0,,0.16,-0.03,0.96,1.0,-1.0,0.0,0.97,1.7,57.0,1669.0,58.9,4.61,,14.79,1.151,89.8,,14.8,5.0,4.0,0.0,4.0,4.0,0.0,0.0,0.0,0.0,2.28,,,0,0,0,0,0,0,0,0,0,0,0,0,0,0,0,0,,0.0,,,,0.0,38.993786,-76.938782,6.64,26.1,33.0,3.0,0.9
260,2388004,1745470984993,,,,,,,,,,,,,,,,,,,,,,,,,,,,,,,,,,0,0,0,0,0,0,0,0,0,0,0,0,0,0,0,0,,,,,,,,,,,,,
261,2388024,1745470985003,0.0,37.0,,0.13,-0.03,0.96,1.0,-1.0,0.0,0.97,1.7,57.0,1546.0,58.9,4.43,,14.7,1.157,89.8,,14.8,5.0,,,,,,,,,,,,0,0,0,0,0,0,0,0,0,0,0,0,0,0,0,0,,,,,,0.0,,,,,,,
262,2388044,1745470985023,,,,,,,,,,,,,,,,,,,,,,,,,,,,,,,,,,0,0,0,0,0,0,0,0,0,0,0,0,0,0,0,0,,,,,,,,,,,,,
263,2388064,1745470985043,0.0,47.0,,0.12,-0.03,0.95,0.0,-1.0,0.0,0.96,1.7,56.0,1154.0,58.8,4.35,,14.72,1.157,89.8,,14.8,5.0,,,,,,,,,,,,0,0,0,0,0,0,0,0,0,0,0,0,0,0,0,0,,,,,,0.0,,,,,,,
264,2388084,1745470985063,,,,,,,,,,,,,,,,,,,,,,,4.0,0.0,5.0,5.0,0.0,0.0,0.0,0.0,2.28,,,0,0,0,0,0,0,0,0,0,0,0,0,0,0,0,0,,0.0,,,,,38.993786,-76.938782,7.88,26.1,34.0,3.0,0.8
265,2388104,1745470985083,0.0,44.0,,0.1,-0.02,0.95,0.0,-1.0,0.0,0.96,1.7,56.0,1361.0,58.7,4.13,,14.67,1.178,89.8,,13.6,5.0,,,,,,,,,,,,0,0,0,0,0,0,0,0,0,0,0,0,0,0,0,0,,,,,,0.0,,,,,,,
266,2388124,1745470985103,,,,,,,,,,,,,,,,,,,,,,,,,,,,,,,,,,0,0,0,0,0,0,0,0,0,0,0,0,0,0,0,0,,,,,,,,,,,,,
267,2388144,1745470985117,0.0,134.0,,0.06,-0.0,0.97,0.0,-1.0,0.0,0.97,1.7,57.0,1380.0,58.8,4.25,,14.67,1.178,89.8,,13.6,5.0,,,,,,,,,,,,0,0,0,0,0,0,0,0,0,0,0,0,0,0,0,0,,,,,,0.0,,,,,,,
268,2388164,1745470985137,,,,,,,,,,,,,,,,,,,,,,,,,,,,,,,,,,0,0,0,0,0,0,0,0,0,0,0,0,0,0,0,0,,,,,,,,,,,,,
269,2388184,1745470985157,0.0,41.0,,-0.02,0.0,0.97,0.0,-1.0,0.0,0.97,1.7,57.0,1380.0,58.8,4.25,,14.67,1.194,89.8,,11.0,5.0,5.0,0.0,5.0,5.0,0.0,0.0,0.0,0.0,2.27,,,0,0,0,0,0,0,0,0,0,0,0,0,0,0,0,0,,0.0,,,,0.0,38.993786,-76.938782,7.73,26.1,34.0,3.0,0.8
270,2388204,1745470985177,,,,,,,,,,,,,,,,,,,,,,,,,,,,,,,,,,0,0,0,0,0,0,0,0,0,0,0,0,0,0,0,0,,,,,,,,,,,,,
271,2388224,1745470985213,0.0,51.0,,-0.06,0.0,0.97,0.0,-2.0,0.0,0.97,1.7,57.0,995.0,58.6,4.26,,14.74,1.185,89.8,,11.0,5.0,,,,,,,,,,,,0,0,0,0,0,0,0,0,0,0,0,0,0,0,0,0,,,,,,0.0,,,,,,,
272,2388244,1745470985233,,,,,,,,,,,,,,,,,,,,,,,,,,,,,,,,,,0,0,0,0,0,0,0,0,0,0,0,0,0,0,0,0,,,,,,,,,,,,,
273,2388264,1745470985253,0.0,44.0,,-0.11,0.01,0.96,0.0,-1.0,0.0,0.97,1.7,57.0,977.0,58.7,4.03,,14.74,1.188,89.8,,11.0,5.0,,,,,,,,,,,,0,0,0,0,0,0,0,0,0,0,0,0,0,0,0,0,,,,,,0.0,,,,,,,
274,2388284,1745470985273,,,,,,,,,,,,,,,,,,,,,,,5.0,0.0,4.0,4.0,0.0,0.0,0.0,0.0,2.26,,,0,0,0,0,0,0,0,0,0,0,0,0,0,0,0,0,,0.0,,,,,38.993786,-76.938774,7.3,26.1,34.0,3.0,0.8
275,2388304,1745470985293,0.0,30.0,,-0.14,0.02,0.96,0.0,-1.0,0.0,0.97,1.7,57.0,1098.0,58.8,4.02,,14.64,1.198,89.8,,11.4,5.0,,,,,,,,,,,,0,0,0,0,0,0,0,0,0,0,0,0,0,0,0,0,,,,,,0.0,,,,,,,
276,2388324,1745470985312,,,,,,,,,,,,,,,,,,,,,,,,,,,,,,,,,,0,0,0,0,0,0,0,0,0,0,0,0,0,0,0,0,,,,,,,,,,,,,
277,2388344,1745470985332,0.0,47.0,,-0.15,0.02,0.97,0.0,-1.0,0.0,0.99,1.7,58.0,1207.0,58.9,4.09,,14.64,1.198,89.8,,11.4,5.0,,,,,,,,,,,,0,0,0,0,0,0,0,0,0,0,0,0,0,0,0,0,,,,,,0.0,,,,,,,
278,2388364,1745470985352,,,,,,,,,,,,,,,,,,,,,,,,,,,,,,,,,,0,0,0,0,0,0,0,0,0,0,0,0,0,0,0,0,,,,,,,,,,,,,
279,2388384,1745470985372,0.0,20.0,13.49,-0.16,0.02,0.98,0.0,-1.0,0.0,1.0,1.7,59.0,1207.0,58.9,4.09,15.0,14.64,1.218,89.8,174.0,11.8,5.0,4.0,0.0,4.0,3.0,0.0,0.0,0.0,0.0,2.26,0.0,1.0,0,0,0,0,0,0,0,0,0,0,0,0,0,0,0,0,0.0,0.0,1.0,0.0,0.0,0.0,38.993786,-76.938774,6.15,26.1,34.0,3.0,0.8
280,2388404,1745470985392,,,,,,,,,,,,,,,,,,,,,,,,,,,,,,,,,,0,0,0,0,0,0,0,0,0,0,0,0,0,0,0,0,,,,,,,,,,,,,
281,2388424,1745470985412,0.0,51.0,,-0.18,0.03,0.98,0.0,-1.0,0.0,1.0,1.7,59.0,1207.0,58.8,4.09,,14.63,1.226,89.8,,11.8,5.0,,,,,,,,,,,,0,0,0,0,0,0,0,0,0,0,0,0,0,0,0,0,,,,,,0.0,,,,,,,
282,2388444,1745470985432,,,,,,,,,,,,,,,,,,,,,,,,,,,,,,,,,,0,0,0,0,0,0,0,0,0,0,0,0,0,0,0,0,,,,,,,,,,,,,
283,2388464,1745470985452,0.0,54.0,,-0.2,0.03,0.99,0.0,-1.0,0.0,1.01,1.7,59.0,1057.0,59.0,4.15,,14.78,1.217,89.8,,11.8,5.0,,,,,,,,,,,,0,0,0,0,0,0,0,0,0,0,0,0,0,0,0,0,,,,,,0.0,,,,,,,
284,2388484,1745470985472,,,,,,,,,,,,,,,,,,,,,,,3.0,0.0,3.0,3.0,0.0,0.0,0.0,0.0,2.27,,,0,0,0,0,0,0,0,0,0,0,0,0,0,0,0,0,,0.0,,,,,38.993786,-76.938774,4.82,26.1,34.0,3.0,0.8
285,2388504,1745470985492,0.0,74.0,,-0.21,0.03,0.98,0.0,-1.0,0.0,1.01,1.7,59.0,802.0,53.2,4.04,,14.72,1.215,89.8,,10.0,5.0,,,,,,,,,,,,0,0,0,0,0,0,0,0,0,0,0,0,0,0,0,0,,,,,,0.0,,,,,,,
286,2388524,1745470985510,,,,,,,,,,,,,,,,,,,,,,,,,,,,,,,,,,0,0,0,0,0,0,0,0,0,0,0,0,0,0,0,0,,,,,,,,,,,,,
287,2388544,1745470985530,0.0,57.0,,-0.22,0.03,0.98,0.0,-1.0,0.0,1.01,1.7,59.0,802.0,52.2,4.04,,14.72,1.215,89.8,,10.0,5.0,,,,,,,,,,,,0,0,0,0,0,0,0,0,0,0,0,0,0,0,0,0,,,,,,0.0,,,,,,,
288,2388564,1745470985550,,,,,,,,,,,,,,,,,,,,,,,,,,,,,,,,,,0,0,0,0,0,0,0,0,0,0,0,0,0,0,0,0,,,,,,,,,,,,,
289,2388584,1745470985570,0.0,41.0,,-0.23,0.03,0.98,0.0,-1.0,0.0,1.01,1.7,60.0,802.0,52.2,4.04,,14.67,1.216,89.8,,10.1,5.0,3.0,0.0,3.0,3.0,0.0,0.0,0.0,0.0,2.28,,,0,0,0,0,0,0,0,0,0,0,0,0,0,0,0,0,,0.0,,,,0.0,38.993786,-76.938774,3.95,26.1,34.0,3.0,0.8
290,2388604,1745470985590,,,,,,,,,,,,,,,,,,,,,,,,,,,,,,,,,,0,0,0,0,0,0,0,0,0,0,0,0,0,0,0,0,,,,,,,,,,,,,
291,2388624,1745470985612,0.0,47.0,,-0.25,0.04,0.99,0.0,-1.0,0.0,1.02,1.7,60.0,760.0,52.2,3.55,,14.68,1.221,89.8,,10.1,5.0,,,,,,,,,,,,0,0,0,0,0,0,0,0,0,0,0,0,0,0,0,0,,,,,,0.0,,,,,,,
292,2388644,1745470985632,,,,,,,,,,,,,,,,,,,,,,,,,,,,,,,,,,0,0,0,0,0,0,0,0,0,0,0,0,0,0,0,0,,,,,,,,,,,,,
293,2388664,1745470985652,0.0,131.0,,-0.26,0.04,0.99,0.0,-1.0,0.0,1.02,1.7,60.0,760.0,52.0,3.55,,14.72,1.233,89.8,,10.1,5.0,,,,,,,,,,,,0,0,0,0,0,0,0,0,0,0,0,0,0,0,0,0,,,,,,0.0,,,,,,,
294,2388684,1745470985672,,,,,,,,,,,,,,,,,,,,,,,2.0,0.0,2.0,2.0,0.0,0.0,0.0,0.0,2.28,,,0,0,0,0,0,0,0,0,0,0,0,0,0,0,0,0,,0.0,,,,,38.993786,-76.938766,2.43,26.1,34.0,3.0,0.8
295,2388704,1745470985692,0.0,44.0,,-0.29,0.04,0.99,0.0,-1.0,0.0,1.03,1.7,61.0,522.0,52.2,3.59,,14.72,1.243,89.8,,8.3,5.0,,,,,,,,,,,,0,0,0,0,0,0,0,0,0,0,0,0,0,0,0,0,,,,,,0.0,,,,,,,
296,2388724,1745470985712,,,,,,,,,,,,,,,,,,,,,,,,,,,,,,,,,,0,0,0,0,0,0,0,0,0,0,0,0,0,0,0,0,,,,,,,,,,,,,
297,2388744,1745470985732,0.0,51.0,,-0.32,0.05,0.99,0.0,-1.0,0.0,1.04,1.7,61.0,522.0,52.0,3.59,,14.72,1.243,89.8,,8.3,5.0,,,,,,,,,,,,0,0,0,0,0,0,0,0,0,0,0,0,0,0,0,0,,,,,,0.0,,,,,,,
298,2388764,1745470985752,,,,,,,,,,,,,,,,,,,,,,,,,,,,,,,,,,0,0,0,0,0,0,0,0,0,0,0,0,0,0,0,0,,,,,,,,,,,,,
299,2388784,1745470985772,0.0,41.0,,-0.34,0.05,0.99,0.0,-1.0,0.0,1.04,1.7,62.0,522.0,52.0,3.59,,14.74,1.251,89.8,,7.3,5.0,2.0,0.0,2.0,2.0,0.0,0.0,0.0,0.0,2.27,,,0,0,0,0,0,0,0,0,0,0,0,0,0,0,0,0,,0.0,,,,0.0,38.993786,-76.938766,1.99,26.1,34.0,3.0,0.8
300,2388804,1745470985792,,,,,,,,,,,,,,,,,,,,,,,,,,,,,,,,,,0,0,0,0,0,0,0,0,0,0,0,0,0,0,0,0,,,,,,,,,,,,,
301,2388824,1745470985810,0.0,37.0,,-0.35,0.05,0.99,0.0,-1.0,0.0,1.05,1.7,62.0,522.0,52.2,3.59,,14.74,1.25,88.0,,7.3,5.0,,,,,,,,,,,,0,0,0,0,0,0,0,0,0,0,0,0,0,0,0,0,,,,,,0.0,,,,,,,
302,2388844,1745470985830,,,,,,,,,,,,,,,,,,,,,,,,,,,,,,,,,,0,0,0,0,0,0,0,0,0,0,0,0,0,0,0,0,,,,,,,,,,,,,
303,2388864,1745470985850,0.0,47.0,,-0.34,0.04,0.99,0.0,-1.0,0.0,1.05,1.7,62.0,522.0,52.3,3.59,,14.74,1.251,88.0,,7.3,5.0,,,,,,,,,,,,0,0,0,0,0,0,0,0,0,0,0,0,0,0,0,0,,,,,,0.0,,,,,,,
304,2388884,1745470985870,,,,,,,,,,,,,,,,,,,,,,,2.0,0.0,1.0,2.0,0.0,0.0,0.0,0.0,2.27,,,0,0,0,0,0,0,0,0,0,0,0,0,0,0,0,0,,0.0,,,,,38.993786,-76.938766,0.87,26.1,34.0,3.0,0.8
305,2388904,1745470985890,0.0,30.0,,-0.31,0.04,0.99,0.0,-1.0,0.0,1.04,1.7,61.0,522.0,52.5,3.59,,14.72,1.252,88.0,,7.6,5.0,,,,,,,,,,,,0,0,0,0,0,0,0,0,0,0,0,0,0,0,0,0,,,,,,0.0,,,,,,,
306,2388924,1745470985913,,,,,,,,,,,,,,,,,,,,,,,,,,,,,,,,,,0,0,0,0,0,0,0,0,0,0,0,0,0,0,0,0,,,,,,,,,,,,,
307,2388944,1745470985933,0.0,27.0,,-0.28,0.04,0.99,0.0,0.0,0.0,1.03,1.7,61.0,522.0,52.4,3.59,,14.72,1.252,88.0,,7.6,5.0,,,,,,,,,,,,0,0,0,0,0,0,0,0,0,0,0,0,0,0,0,0,,,,,,0.0,,,,,,,
308,2388964,1745470985953,,,,,,,,,,,,,,,,,,,,,,,,,,,,,,,,,,0,0,0,0,0,0,0,0,0,0,0,0,0,0,0,0,,,,,,,,,,,,,
309,2388984,1745470985973,0.0,34.0,,-0.25,0.03,0.99,0.0,0.0,0.0,1.02,1.7,60.0,522.0,52.4,3.59,,14.74,1.252,88.0,,7.6,5.0,1.0,0.0,1.0,2.0,0.0,0.0,0.0,0.0,2.27,,,0,0,0,0,0,0,0,0,0,0,0,0,0,0,0,0,,0.0,,,,0.0,38.993786,-76.938766,0.47,26.1,34.0,3.0,0.8
310,2389004,1745470985993,,,,,,,,,,,,,,,,,,,,,,,,,,,,,,,,,,0,0,0,0,0,0,0,0,0,0,0,0,0,0,0,0,,,,,,,,,,,,,
311,2389024,1745470986004,0.0,24.0,,-0.23,0.03,0.99,0.0,0.0,0.0,1.02,1.7,60.0,522.0,52.4,3.59,,14.74,1.25,88.0,,7.6,5.0,,,,,,,,,,,,0,0,0,0,0,0,0,0,0,0,0,0,0,0,0,0,,,,,,0.0,,,,,,,
312,2389044,1745470986024,,,,,,,,,,,,,,,,,,,,,,,,,,,,,,,,,,0,0,0,0,0,0,0,0,0,0,0,0,0,0,0,0,,,,,,,,,,,,,
313,2389064,1745470986044,0.0,37.0,,-0.2,0.02,0.99,0.0,0.0,0.0,1.02,1.7,60.0,522.0,52.3,3.59,,14.74,1.251,88.0,,7.6,5.0,,,,,,,,,,,,0,0,0,0,0,0,0,0,0,0,0,0,0,0,0,0,,,,,,0.0,,,,,,,
314,2389084,1745470986064,,,,,,,,,,,,,,,,,,,,,,,1.0,0.0,1.0,0.0,0.0,0.0,0.0,0.0,2.28,,,0,0,0,0,0,0,0,0,0,0,0,0,0,0,0,0,,0.0,,,,,38.993786,-76.938766,0.8,26.1,33.0,3.0,0.9
315,2389104,1745470986084,0.0,41.0,,-0.18,0.02,0.99,0.0,0.0,0.0,1.01,1.7,60.0,522.0,52.2,3.59,,14.74,1.25,88.0,,7.7,5.0,,,,,,,,,,,,0,0,0,0,0,0,0,0,0,0,0,0,0,0,0,0,,,,,,0.0,,,,,,,
316,2389124,1745470986112,,,,,,,,,,,,,,,,,,,,,,,,,,,,,,,,,,0,0,0,0,0,0,0,0,0,0,0,0,0,0,0,0,,,,,,,,,,,,,
317,2389144,1745470986132,0.0,44.0,,-0.16,0.02,0.99,0.0,0.0,0.0,1.01,1.7,59.0,522.0,52.0,3.59,,14.74,1.25,88.0,,7.7,5.0,,,,,,,,,,,,0,0,0,0,0,0,0,0,0,0,0,0,0,0,0,0,,,,,,0.0,,,,,,,
318,2389164,1745470986152,,,,,,,,,,,,,,,,,,,,,,,,,,,,,,,,,,0,0,0,0,0,0,0,0,0,0,0,0,0,0,0,0,,,,,,,,,,,,,
319,2389184,1745470986172,0.0,34.0,,-0.14,0.01,0.99,0.0,0.0,0.0,1.0,1.7,59.0,522.0,52.0,3.59,,14.74,1.251,88.0,,7.8,5.0,1.0,0.0,1.0,0.0,0.0,0.0,0.0,0.0,2.28,,,0,0,0,0,0,0,0,0,0,0,0,0,0,0,0,0,,0.0,,,,0.0,38.993786,-76.938766,0.63,26.1,33.0,3.0,0.9
320,2389204,1745470986192,,,,,,,,,,,,,,,,,,,,,,,,,,,,,,,,,,0,0,0,0,0,0,0,0,0,0,0,0,0,0,0,0,,,,,,,,,,,,,
321,2389224,1745470986212,0.0,20.0,,-0.13,0.01,1.0,0.0,0.0,0.0,1.0,1.7,59.0,522.0,46.8,3.59,,14.74,1.251,88.0,,7.8,5.0,,,,,,,,,,,,0,0,0,0,0,0,0,0,0,0,0,0,0,0,0,0,,,,,,0.0,,,,,,,
322,2389244,1745470986232,,,,,,,,,,,,,,,,,,,,,,,,,,,,,,,,,,0,0,0,0,0,0,0,0,0,0,0,0,0,0,0,0,,,,,,,,,,,,,
323,2389264,1745470986252,0.0,34.0,,-0.11,0.01,1.0,0.0,0.0,0.0,1.0,1.7,59.0,522.0,45.2,3.59,,14.74,1.252,88.0,,7.8,5.0,,,,,,,,,,,,0,0,0,0,0,0,0,0,0,0,0,0,0,0,0,0,,,,,,0.0,,,,,,,
324,2389284,1745470986272,,,,,,,,,,,,,,,,,,,,,,,1.0,0.0,1.0,0.0,0.0,0.0,0.0,0.0,2.27,,,0,0,0,0,0,0,0,0,0,0,0,0,0,0,0,0,,0.0,,,,,38.993786,-76.938766,0.39,26.1,33.0,3.0,0.9
325,2389304,1745470986292,0.0,24.0,,-0.1,0.01,1.0,0.0,0.0,0.0,1.0,1.7,59.0,522.0,45.0,3.59,,14.74,1.253,88.0,,7.5,5.0,,,,,,,,,,,,0,0,0,0,0,0,0,0,0,0,0,0,0,0,0,0,,,,,,0.0,,,,,,,
326,2389324,1745470986311,,,,,,,,,,,,,,,,,,,,,,,,,,,,,,,,,,0,0,0,0,0,0,0,0,0,0,0,0,0,0,0,0,,,,,,,,,,,,,
327,2389344,1745470986331,0.0,27.0,,-0.09,0.0,1.0,0.0,0.0,0.0,1.0,1.7,59.0,522.0,40.5,3.59,,14.74,1.253,88.0,,7.5,5.0,,,,,,,,,,,,0,0,0,0,0,0,0,0,0,0,0,0,0,0,0,0,,,,,,0.0,,,,,,,
328,2389364,1745470986351,,,,,,,,,,,,,,,,,,,,,,,,,,,,,,,,,,0,0,0,0,0,0,0,0,0,0,0,0,0,0,0,0,,,,,,,,,,,,,
329,2389384,1745470986371,0.0,20.0,13.27,-0.08,0.0,1.0,0.0,0.0,0.0,1.0,1.7,59.0,522.0,40.5,3.59,15.0,14.74,1.253,88.0,174.0,7.7,5.0,1.0,0.0,1.0,0.0,0.0,0.0,0.0,0.0,2.27,0.0,1.0,0,0,0,0,0,0,0,0,0,0,0,0,0,0,0,0,0.0,0.0,1.0,0.0,0.0,0.0,38.993786,-76.938766,0.27,26.1,33.0,3.0,0.9
330,2389404,1745470986391,,,,,,,,,,,,,,,,,,,,,,,,,,,,,,,,,,0,0,0,0,0,0,0,0,0,0,0,0,0,0,0,0,,,,,,,,,,,,,
331,2389424,1745470986413,0.0,27.0,,-0.08,0.0,1.0,0.0,0.0,0.0,1.0,1.7,59.0,522.0,40.1,3.59,,14.74,1.253,88.0,,7.7,5.0,,,,,,,,,,,,0,0,0,0,0,0,0,0,0,0,0,0,0,0,0,0,,,,,,0.0,,,,,,,
332,2389444,1745470986433,,,,,,,,,,,,,,,,,,,,,,,,,,,,,,,,,,0,0,0,0,0,0,0,0,0,0,0,0,0,0,0,0,,,,,,,,,,,,,
333,2389464,1745470986453,0.0,41.0,,-0.08,0.0,1.0,0.0,0.0,0.0,1.0,1.7,59.0,522.0,40.1,3.59,,14.74,1.252,88.0,,7.7,5.0,,,,,,,,,,,,0,0,0,0,0,0,0,0,0,0,0,0,0,0,0,0,,,,,,0.0,,,,,,,
334,2389484,1745470986473,,,,,,,,,,,,,,,,,,,,,,,1.0,0.0,1.0,0.0,0.0,0.0,0.0,0.0,2.27,,,0,0,0,0,0,0,0,0,0,0,0,0,0,0,0,0,,0.0,,,,,38.993786,-76.938766,0.04,26.1,33.0,3.0,0.9
335,2389504,1745470986493,0.0,37.0,,-0.08,0.0,1.0,0.0,0.0,0.0,1.0,1.7,59.0,522.0,40.0,3.59,,14.74,1.25,88.0,,7.7,5.0,,,,,,,,,,,,0,0,0,0,0,0,0,0,0,0,0,0,0,0,0,0,,,,,,0.0,,,,,,,
336,2389524,1745470986511,,,,,,,,,,,,,,,,,,,,,,,,,,,,,,,,,,0,0,0,0,0,0,0,0,0,0,0,0,0,0,0,0,,,,,,,,,,,,,
337,2389544,1745470986531,0.0,27.0,,-0.08,0.0,1.0,0.0,0.0,0.0,1.0,1.7,59.0,522.0,40.0,3.59,,14.74,1.25,88.0,,7.7,5.0,,,,,,,,,,,,0,0,0,0,0,0,0,0,0,0,0,0,0,0,0,0,,,,,,0.0,,,,,,,
338,2389564,1745470986551,,,,,,,,,,,,,,,,,,,,,,,,,,,,,,,,,,0,0,0,0,0,0,0,0,0,0,0,0,0,0,0,0,,,,,,,,,,,,,
339,2389584,1745470986571,0.0,27.0,,-0.08,0.0,1.0,0.0,0.0,0.0,1.0,1.7,59.0,522.0,40.0,3.59,,14.74,1.249,88.0,,7.7,5.0,1.0,0.0,1.0,0.0,0.0,0.0,0.0,0.0,2.28,,,0,0,0,0,0,0,0,0,0,0,0,0,0,0,0,0,,0.0,,,,0.0,38.993786,-76.938766,0.11,26.1,32.0,3.0,0.9
340,2389604,1745470986591,,,,,,,,,,,,,,,,,,,,,,,,,,,,,,,,,,0,0,0,0,0,0,0,0,0,0,0,0,0,0,0,0,,,,,,,,,,,,,
341,2389624,1745470986615,0.0,13.0,,-0.08,0.0,1.0,0.0,0.0,0.0,1.0,1.7,59.0,522.0,39.2,3.59,,14.74,1.249,88.0,,7.7,5.0,,,,,,,,,,,,0,0,0,0,0,0,0,0,0,0,0,0,0,0,0,0,,,,,,0.0,,,,,,,
342,2389644,1745470986635,,,,,,,,,,,,,,,,,,,,,,,,,,,,,,,,,,0,0,0,0,0,0,0,0,0,0,0,0,0,0,0,0,,,,,,,,,,,,,
343,2389664,1745470986655,0.0,30.0,,-0.08,0.0,1.0,0.0,0.0,0.0,1.0,1.7,59.0,522.0,37.4,3.59,,14.74,1.249,88.0,,7.7,5.0,,,,,,,,,,,,0,0,0,0,0,0,0,0,0,0,0,0,0,0,0,0,,,,,,0.0,,,,,,,
344,2389684,1745470986675,,,,,,,,,,,,,,,,,,,,,,,0.0,0.0,0.0,0.0,0.0,0.0,0.0,0.0,2.28,,,0,0,0,0,0,0,0,0,0,0,0,0,0,0,0,0,,0.0,,,,,38.993786,-76.938766,0.07,26.1,32.0,3.0,0.9
345,2389704,1745470986695,0.0,24.0,,-0.08,0.0,1.0,0.0,0.0,0.0,1.0,1.7,59.0,522.0,36.5,3.59,,14.74,1.249,88.0,,7.7,5.0,,,,,,,,,,,,0,0,0,0,0,0,0,0,0,0,0,0,0,0,0,0,,,,,,0.0,,,,,,,
346,2389724,1745470986715,,,,,,,,,,,,,,,,,,,,,,,,,,,,,,,,,,0,0,0,0,0,0,0,0,0,0,0,0,0,0,0,0,,,,,,,,,,,,,
347,2389744,1745470986735,0.0,41.0,,-0.08,0.0,1.0,0.0,0.0,0.0,1.0,1.7,59.0,522.0,36.3,3.59,,14.74,1.249,88.0,,7.7,5.0,,,,,,,,,,,,0,0,0,0,0,0,0,0,0,0,0,0,0,0,0,0,,,,,,0.0,,,,,,,
348,2389764,1745470986755,,,,,,,,,,,,,,,,,,,,,,,,,,,,,,,,,,0,0,0,0,0,0,0,0,0,0,0,0,0,0,0,0,,,,,,,,,,,,,
349,2389784,1745470986775,0.0,34.0,,-0.08,0.0,1.0,0.0,0.0,0.0,1.0,1.7,59.0,522.0,36.3,3.59,,14.74,1.251,88.0,,7.5,5.0,0.0,0.0,0.0,0.0,0.0,0.0,0.0,0.0,2.28,,,0,0,0,0,0,0,0,0,0,0,0,0,0,0,0,0,,0.0,,,,0.0,38.993786,-76.938766,0.08,26.1,32.0,3.0,0.9
350,2389804,1745470986795,,,,,,,,,,,,,,,,,,,,,,,,,,,,,,,,,,0,0,0,0,0,0,0,0,0,0,0,0,0,0,0,0,,,,,,,,,,,,,
351,2389824,1745470986815,0.0,20.0,,-0.08,0.0,1.0,0.0,0.0,0.0,1.0,1.7,59.0,522.0,36.4,3.59,,14.74,1.252,88.0,,7.5,5.0,,,,,,,,,,,,0,0,0,0,0,0,0,0,0,0,0,0,0,0,0,0,,,,,,0.0,,,,,,,
352,2389844,1745470986835,,,,,,,,,,,,,,,,,,,,,,,,,,,,,,,,,,0,0,0,0,0,0,0,0,0,0,0,0,0,0,0,0,,,,,,,,,,,,,
353,2389864,1745470986855,0.0,30.0,,-0.08,0.0,1.0,0.0,0.0,0.0,1.0,1.7,59.0,522.0,36.5,3.59,,14.74,1.253,88.0,,7.5,5.0,,,,,,,,,,,,0,0,0,0,0,0,0,0,0,0,0,0,0,0,0,0,,,,,,0.0,,,,,,,
354,2389884,1745470986875,,,,,,,,,,,,,,,,,,,,,,,0.0,0.0,0.0,0.0,0.0,0.0,0.0,0.0,2.26,,,0,0,0,0,0,0,0,0,0,0,0,0,0,0,0,0,,0.0,,,,,38.993786,-76.938766,0.08,26.1,32.0,3.0,0.9
355,2389904,1745470986895,0.0,24.0,,-0.08,0.0,1.0,0.0,0.0,0.0,1.0,1.7,59.0,522.0,36.6,3.59,,14.74,1.253,88.0,,7.2,5.0,,,,,,,,,,,,0,0,0,0,0,0,0,0,0,0,0,0,0,0,0,0,,,,,,0.0,,,,,,,
356,2389924,1745470986913,,,,,,,,,,,,,,,,,,,,,,,,,,,,,,,,,,0,0,0,0,0,0,0,0,0,0,0,0,0,0,0,0,,,,,,,,,,,,,
357,2389944,1745470986933,0.0,27.0,,-0.08,0.0,1.0,0.0,0.0,0.0,1.0,1.7,59.0,522.0,36.8,3.59,,14.74,1.253,88.0,,7.2,5.0,,,,,,,,,,,,0,0,0,0,0,0,0,0,0,0,0,0,0,0,0,0,,,,,,0.0,,,,,,,
358,2389964,1745470986953,,,,,,,,,,,,,,,,,,,,,,,,,,,,,,,,,,0,0,0,0,0,0,0,0,0,0,0,0,0,0,0,0,,,,,,,,,,,,,
359,2389984,1745470986973,0.0,20.0,,-0.08,0.0,1.0,0.0,0.0,0.0,1.0,1.7,59.0,522.0,36.8,3.59,,14.74,1.253,88.0,,7.5,5.0,0.0,0.0,0.0,0.0,0.0,0.0,0.0,0.0,2.27,,,0,0,0,0,0,0,0,0,0,0,0,0,0,0,0,0,,0.0,,,,0.0,38.993786,-76.938766,0.13,26.1,32.0,3.0,0.9
360,2390004,1745470986993,,,,,,,,,,,,,,,,,,,,,,,,,,,,,,,,,,0,0,0,0,0,0,0,0,0,0,0,0,0,0,0,0,,,,,,,,,,,,,
361,2390024,1745470987003,0.0,24.0,,-0.08,0.0,1.0,0.0,0.0,0.0,1.0,1.7,59.0,522.0,36.7,3.59,,14.74,1.252,88.0,,7.5,5.0,,,,,,,,,,,,0,0,0,0,0,0,0,0,0,0,0,0,0,0,0,0,,,,,,0.0,,,,,,,
362,2390044,1745470987023,,,,,,,,,,,,,,,,,,,,,,,,,,,,,,,,,,0,0,0,0,0,0,0,0,0,0,0,0,0,0,0,0,,,,,,,,,,,,,
363,2390064,1745470987043,0.0,37.0,,-0.08,0.0,1.0,0.0,0.0,0.0,1.0,1.7,59.0,522.0,36.7,3.59,,14.74,1.25,88.0,,7.5,5.0,,,,,,,,,,,,0,0,0,0,0,0,0,0,0,0,0,0,0,0,0,0,,,,,,0.0,,,,,,,
364,2390084,1745470987063,,,,,,,,,,,,,,,,,,,,,,,0.0,0.0,0.0,0.0,0.0,0.0,0.0,0.0,2.28,,,0,0,0,0,0,0,0,0,0,0,0,0,0,0,0,0,,0.0,,,,,38.993786,-76.938766,0.0,26.1,33.0,3.0,0.8
365,2390104,1745470987083,0.0,37.0,,-0.08,0.0,1.0,0.0,0.0,0.0,1.0,1.7,59.0,522.0,36.6,3.59,,14.74,1.25,88.0,,7.7,5.0,,,,,,,,,,,,0,0,0,0,0,0,0,0,0,0,0,0,0,0,0,0,,,,,,0.0,,,,,,,
366,2390124,1745470987113,,,,,,,,,,,,,,,,,,,,,,,,,,,,,,,,,,0,0,0,0,0,0,0,0,0,0,0,0,0,0,0,0,,,,,,,,,,,,,
367,2390144,1745470987133,0.0,37.0,,-0.08,0.0,1.0,0.0,0.0,0.0,1.0,1.7,59.0,522.0,36.4,3.59,,14.74,1.25,88.0,,7.7,5.0,,,,,,,,,,,,0,0,0,0,0,0,0,0,0,0,0,0,0,0,0,0,,,,,,0.0,,,,,,,
368,2390164,1745470987153,,,,,,,,,,,,,,,,,,,,,,,,,,,,,,,,,,0,0,0,0,0,0,0,0,0,0,0,0,0,0,0,0,,,,,,,,,,,,,
369,2390184,1745470987173,0.0,20.0,,-0.08,0.0,1.0,0.0,0.0,0.0,1.0,1.7,59.0,522.0,36.4,3.59,,14.74,1.251,88.0,,7.7,5.0,0.0,0.0,0.0,0.0,0.0,0.0,0.0,0.0,2.28,,,0,0,0,0,0,0,0,0,0,0,0,0,0,0,0,0,,0.0,,,,0.0,38.993786,-76.938766,0.04,26.1,33.0,3.0,0.8
370,2390204,1745470987193,,,,,,,,,,,,,,,,,,,,,,,,,,,,,,,,,,0,0,0,0,0,0,0,0,0,0,0,0,0,0,0,0,,,,,,,,,,,,,
371,2390224,1745470987213,0.0,20.0,,-0.08,0.0,1.0,0.0,0.0,0.0,1.0,1.7,59.0,522.0,36.3,3.59,,14.74,1.251,88.0,,7.7,5.0,,,,,,,,,,,,0,0,0,0,0,0,0,0,0,0,0,0,0,0,0,0,,,,,,0.0,,,,,,,
372,2390244,1745470987233,,,,,,,,,,,,,,,,,,,,,,,,,,,,,,,,,,0,0,0,0,0,0,0,0,0,0,0,0,0,0,0,0,,,,,,,,,,,,,
373,2390264,1745470987253,0.0,24.0,,-0.07,0.0,1.0,0.0,0.0,0.0,1.0,1.7,59.0,522.0,36.3,3.59,,14.74,1.251,88.0,,7.7,5.0,,,,,,,,,,,,0,0,0,0,0,0,0,0,0,0,0,0,0,0,0,0,,,,,,0.0,,,,,,,
374,2390284,1745470987273,,,,,,,,,,,,,,,,,,,,,,,0.0,0.0,0.0,0.0,0.0,0.0,0.0,0.0,2.28,,,0,0,0,0,0,0,0,0,0,0,0,0,0,0,0,0,,0.0,,,,,38.993786,-76.938766,0.09,26.1,33.0,3.0,0.8
375,2390304,1745470987293,0.0,24.0,,-0.07,0.0,1.0,0.0,0.0,0.0,1.0,1.7,59.0,522.0,34.2,3.59,,14.74,1.252,88.0,,7.7,5.0,,,,,,,,,,,,0,0,0,0,0,0,0,0,0,0,0,0,0,0,0,0,,,,,,0.0,,,,,,,
376,2390324,1745470987312,,,,,,,,,,,,,,,,,,,,,,,,,,,,,,,,,,0,0,0,0,0,0,0,0,0,0,0,0,0,0,0,0,,,,,,,,,,,,,
377,2390344,1745470987332,0.0,20.0,,-0.07,0.0,1.0,0.0,0.0,0.0,1.0,1.7,59.0,522.0,32.4,3.59,,14.74,1.252,88.0,,7.7,5.0,,,,,,,,,,,,0,0,0,0,0,0,0,0,0,0,0,0,0,0,0,0,,,,,,0.0,,,,,,,
378,2390364,1745470987352,,,,,,,,,,,,,,,,,,,,,,,,,,,,,,,,,,0,0,0,0,0,0,0,0,0,0,0,0,0,0,0,0,,,,,,,,,,,,,
379,2390384,1745470987372,0.0,27.0,13.27,-0.07,0.0,1.0,0.0,0.0,0.0,1.0,1.7,59.0,522.0,32.4,3.59,15.0,14.74,1.253,88.0,174.0,7.5,5.0,0.0,0.0,0.0,0.0,0.0,0.0,0.0,0.0,2.27,0.0,1.0,0,0,0,0,0,0,0,0,0,0,0,0,0,0,0,0,0.0,0.0,1.0,0.0,0.0,0.0,38.993786,-76.938766,0.0,26.1,33.0,3.0,0.8
