,Interval,Utc,FrontBP,SteerAng,Battery,AccelX,AccelY,AccelZ,Yaw,Pitch,Roll,Gsum,GsumMax,GsumPct,RPM,TPS,InjectorPW,Baro,MAP,Lambda,IAT,EngineTemp,EOP,EOT,WSFR,WSFL,WSRR,WSRL,TCSet,TCSlip,TCComp,TCCut,Analog8,OilTemp,AA_On,ThermLF1,ThermLF2,ThermRR1,ThermRR2,ThermLF3,ThermLF4,ThermLF5,ThermLF6,ThermLF7,ThermLF8,ThermRR3,ThermRR4,ThermRR5,ThermRR6,ThermRR7,ThermRR8,AA_LowDrag,Gear,AA_On1,AA_LowDrag1,Fuel_Mix,AA_Packages,Latitude,Longitude,Speed,Altitude,GPSSats,GPSQual,GPSDOP
0,2920904,1745471517896,0.0,-82.0,,-0.03,0.01,1.15,0.0,0.0,0.0,1.15,1.15,100.0,7486.0,1.4,1.4,,11.12,1.102,86.2,,50.0,5.0,,,,,,,,,,,,0,0,0,0,0,0,0,0,0,0,0,0,0,0,0,0,,,,,,0.0,,,,,,,
1,2920924,1745471517916,,,,,,,,,,,,,,,,,,,,,,,,,,,,,,,,,,0,0,0,0,0,0,0,0,0,0,0,0,0,0,0,0,,,,,,,,,,,,,
2,2920944,1745471517936,0.0,-102.0,,-0.03,-0.04,1.14,0.0,0.0,0.0,1.14,1.15,99.0,7486.0,1.4,1.4,,9.58,1.069,86.2,,52.8,5.0,,,,,,,,,,,,0,0,0,0,0,0,0,0,0,0,0,0,0,0,0,0,,,,,,0.0,,,,,,,
3,2920964,1745471517956,,,,,,,,,,,,,,,,,,,,,,,,,,,,,,,,,,0,0,0,0,0,0,0,0,0,0,0,0,0,0,0,0,,,,,,,,,,,,,
4,2920984,1745471517976,0.0,-82.0,,-0.07,-0.1,1.12,-1.0,0.0,0.0,1.12,1.15,98.0,7362.0,1.3,1.4,,8.45,0.986,86.2,,52.8,5.0,0.0,0.0,0.0,0.0,0.0,0.0,0.0,0.0,2.29,,,0,0,0,0,0,0,0,0,0,0,0,0,0,0,0,0,,0.0,,,,0.0,38.993835,-76.938782,0.0,25.4,33.0,3.0,0.8
5,2921004,1745471517996,,,,,,,,,,,,,,,,,,,,,,,,,,,,,,,,,,0,0,0,0,0,0,0,0,0,0,0,0,0,0,0,0,,,,,,,,,,,,,
6,2921024,1745471518004,0.0,-68.0,,-0.06,-0.06,1.08,0.0,0.0,0.0,1.08,1.15,94.0,6982.0,1.1,1.4,,7.79,0.956,86.2,,52.8,5.0,,,,,,,,,,,,0,0,0,0,0,0,0,0,0,0,0,0,0,0,0,0,,,,,,0.0,,,,,,,
7,2921044,1745471518024,,,,,,,,,,,,,,,,,,,,,,,,,,,,,,,,,,0,0,0,0,0,0,0,0,0,0,0,0,0,0,0,0,,,,,,,,,,,,,
8,2921064,1745471518044,0.0,-78.0,,-0.06,-0.04,1.04,0.0,0.0,0.0,1.05,1.15,91.0,6644.0,1.1,1.4,,7.74,1.068,86.2,,52.0,5.0,,,,,,,,,,,,0,0,0,0,0,0,0,0,0,0,0,0,0,0,0,0,,,,,,0.0,,,,,,,
9,2921084,1745471518064,,,,,,,,,,,,,,,,,,,,,,,0.0,0.0,0.0,0.0,0.0,0.0,0.0,0.0,2.29,,,0,0,0,0,0,0,0,0,0,0,0,0,0,0,0,0,,0.0,,,,,38.993835,-76.938782,0.04,25.4,33.0,3.0,0.8
10,2921104,1745471518084,0.0,-61.0,,-0.03,-0.06,1.05,0.0,0.0,0.0,1.06,1.15,92.0,6644.0,1.1,1.4,,7.74,1.068,84.4,,52.0,5.0,,,,,,,,,,,,0,0,0,0,0,0,0,0,0,0,0,0,0,0,0,0,,,,,,0.0,,,,,,,
11,2921124,1745471518104,,,,,,,,,,,,,,,,,,,,,,,,,,,,,,,,,,0,0,0,0,0,0,0,0,0,0,0,0,0,0,0,0,,,,,,,,,,,,,
12,2921144,1745471518124,0.0,-78.0,,-0.05,0.05,1.14,1.0,0.0,0.0,1.14,1.15,99.0,6247.0,16.5,2.93,,9.17,1.247,84.4,,51.3,5.0,,,,,,,,,,,,0,0,0,0,0,0,0,0,0,0,0,0,0,0,0,0,,,,,,0.0,,,,,,,
13,2921164,1745471518144,,,,,,,,,,,,,,,,,,,,,,,,,,,,,,,,,,0,0,0,0,0,0,0,0,0,0,0,0,0,0,0,0,,,,,,,,,,,,,
14,2921184,1745471518164,0.0,-85.0,,-0.07,0.06,1.12,1.0,0.0,0.0,1.13,1.15,98.0,6201.0,24.4,3.66,,11.0,1.252,84.4,,51.3,5.0,0.0,0.0,0.0,0.0,0.0,0.0,0.0,0.0,2.3,,,0,0,0,0,0,0,0,0,0,0,0,0,0,0,0,0,,0.0,,,,0.0,38.993835,-76.938782,0.04,25.4,33.0,3.0,0.8
15,2921204,1745471518184,,,,,,,,,,,,,,,,,,,,,,,,,,,,,,,,,,0,0,0,0,0,0,0,0,0,0,0,0,0,0,0,0,,,,,,,,,,,,,
16,2921224,1745471518214,0.0,-71.0,,-0.07,0.03,1.11,0.0,0.0,0.0,1.11,1.15,96.0,6342.0,27.1,5.02,,12.05,1.252,84.4,,51.3,5.0,,,,,,,,,,,,0,0,0,0,0,0,0,0,0,0,0,0,0,0,0,0,,,,,,0.0,,,,,,,
17,2921244,1745471518234,,,,,,,,,,,,,,,,,,,,,,,,,,,,,,,,,,0,0,0,0,0,0,0,0,0,0,0,0,0,0,0,0,,,,,,,,,,,,,
18,2921264,1745471518254,0.0,-92.0,,-0.08,0.03,1.09,0.0,0.0,0.0,1.09,1.15,95.0,6915.0,25.0,5.2,,12.29,1.252,84.4,,51.1,5.0,,,,,,,,,,,,0,0,0,0,0,0,0,0,0,0,0,0,0,0,0,0,,,,,,0.0,,,,,,,
19,2921284,1745471518274,,,,,,,,,,,,,,,,,,,,,,,0.0,0.0,0.0,0.0,0.0,0.0,0.0,0.0,2.29,,,0,0,0,0,0,0,0,0,0,0,0,0,0,0,0,0,,0.0,,,,,38.993835,-76.938782,0.05,25.4,33.0,3.0,0.8
20,2921304,1745471518294,0.0,-71.0,,-0.05,0.18,1.06,1.0,0.0,0.0,1.08,1.15,94.0,7480.0,11.9,4.81,,12.29,1.252,84.4,,51.1,5.0,,,,,,,,,,,,0,0,0,0,0,0,0,0,0,0,0,0,0,0,0,0,,,,,,0.0,,,,,,,
21,2921324,1745471518314,,,,,,,,,,,,,,,,,,,,,,,,,,,,,,,,,,0,0,0,0,0,0,0,0,0,0,0,0,0,0,0,0,,,,,,,,,,,,,
22,2921344,1745471518334,0.0,-85.0,,-0.05,0.25,1.07,1.0,0.0,0.0,1.1,1.15,96.0,7480.0,11.9,4.81,,10.97,1.233,84.4,,53.2,5.0,,,,,,,,,,,,0,0,0,0,0,0,0,0,0,0,0,0,0,0,0,0,,,,,,0.0,,,,,,,
23,2921364,1745471518354,,,,,,,,,,,,,,,,,,,,,,,,,,,,,,,,,,0,0,0,0,0,0,0,0,0,0,0,0,0,0,0,0,,,,,,,,,,,,,
24,2921384,1745471518374,0.0,-85.0,13.49,-0.05,0.14,1.07,1.0,0.0,0.0,1.08,1.15,94.0,7792.0,6.1,3.3,15.0,9.66,1.043,84.4,165.0,53.2,5.0,0.0,0.0,0.0,0.0,0.0,0.0,0.0,0.0,2.29,0.0,1.0,0,0,0,0,0,0,0,0,0,0,0,0,0,0,0,0,0.0,0.0,1.0,0.0,0.0,0.0,38.993835,-76.938782,0.0,25.4,33.0,3.0,0.8
25,2921404,1745471518394,,,,,,,,,,,,,,,,,,,,,,,,,,,,,,,,,,0,0,0,0,0,0,0,0,0,0,0,0,0,0,0,0,,,,,,,,,,,,,
26,2921424,1745471518414,0.0,-68.0,,-0.05,0.24,1.06,1.0,0.0,0.0,1.09,1.15,95.0,8347.0,4.8,2.49,,8.53,0.917,84.4,,53.2,5.0,,,,,,,,,,,,0,0,0,0,0,0,0,0,0,0,0,0,0,0,0,0,,,,,,0.0,,,,,,,
27,2921444,1745471518434,,,,,,,,,,,,,,,,,,,,,,,,,,,,,,,,,,0,0,0,0,0,0,0,0,0,0,0,0,0,0,0,0,,,,,,,,,,,,,
28,2921464,1745471518454,0.0,-65.0,,-0.02,0.13,1.11,2.0,0.0,-1.0,1.12,1.15,98.0,8902.0,4.6,2.18,,8.53,0.917,84.4,,53.5,5.0,,,,,,,,,,,,0,0,0,0,0,0,0,0,0,0,0,0,0,0,0,0,,,,,,0.0,,,,,,,
29,2921484,1745471518474,,,,,,,,,,,,,,,,,,,,,,,0.0,0.0,0.0,0.0,0.0,0.0,0.0,0.0,2.29,,,0,0,0,0,0,0,0,0,0,0,0,0,0,0,0,0,,0.0,,,,,38.993835,-76.938782,0.11,25.4,33.0,3.0,0.8
30,2921504,1745471518494,0.0,-82.0,,-0.01,0.14,1.16,2.0,0.0,-1.0,1.16,1.16,100.0,9261.0,10.0,2.28,,7.61,0.901,84.4,,53.5,5.0,,,,,,,,,,,,0,0,0,0,0,0,0,0,0,0,0,0,0,0,0,0,,,,,,0.0,,,,,,,
31,2921524,1745471518516,,,,,,,,,,,,,,,,,,,,,,,,,,,,,,,,,,0,0,0,0,0,0,0,0,0,0,0,0,0,0,0,0,,,,,,,,,,,,,
32,2921544,1745471518536,0.0,-85.0,,-0.01,0.38,1.13,2.0,0.0,0.0,1.19,1.19,100.0,9261.0,10.0,2.28,,7.22,0.876,84.4,,54.0,5.0,,,,,,,,,,,,0,0,0,0,0,0,0,0,0,0,0,0,0,0,0,0,,,,,,0.0,,,,,,,
33,2921564,1745471518556,,,,,,,,,,,,,,,,,,,,,,,,,,,,,,,,,,0,0,0,0,0,0,0,0,0,0,0,0,0,0,0,0,,,,,,,,,,,,,
34,2921584,1745471518576,0.0,-71.0,,-0.05,0.38,1.13,2.0,0.0,0.0,1.19,1.19,100.0,9529.0,15.3,2.56,,7.77,0.896,84.4,,54.0,5.0,0.0,0.0,0.0,0.0,0.0,0.0,0.0,0.0,2.29,,,0,0,0,0,0,0,0,0,0,0,0,0,0,0,0,0,,0.0,,,,0.0,38.993835,-76.938782,0.04,25.4,33.0,3.0,0.8
35,2921604,1745471518596,,,,,,,,,,,,,,,,,,,,,,,,,,,,,,,,,,0,0,0,0,0,0,0,0,0,0,0,0,0,0,0,0,,,,,,,,,,,,,
36,2921624,1745471518614,0.0,-71.0,,-0.01,0.33,1.11,1.0,0.0,-1.0,1.16,1.19,97.0,9960.0,12.0,2.27,,7.59,0.953,84.4,,54.0,5.0,,,,,,,,,,,,0,0,0,0,0,0,0,0,0,0,0,0,0,0,0,0,,,,,,0.0,,,,,,,
37,2921644,1745471518634,,,,,,,,,,,,,,,,,,,,,,,,,,,,,,,,,,0,0,0,0,0,0,0,0,0,0,0,0,0,0,0,0,,,,,,,,,,,,,
38,2921664,1745471518654,0.0,-78.0,,-0.03,0.22,1.14,0.0,0.0,0.0,1.16,1.19,97.0,10234.0,5.7,1.81,,6.74,0.985,84.4,,55.4,5.0,,,,,,,,,,,,0,0,0,0,0,0,0,0,0,0,0,0,0,0,0,0,,,,,,0.0,,,,,,,
39,2921684,1745471518674,,,,,,,,,,,,,,,,,,,,,,,0.0,0.0,0.0,0.0,0.0,0.0,0.0,0.0,2.29,,,0,0,0,0,0,0,0,0,0,0,0,0,0,0,0,0,,0.0,,,,,38.993835,-76.938782,0.0,25.4,33.0,3.0,0.8
40,2921704,1745471518694,0.0,-71.0,,-0.02,0.05,1.09,1.0,-1.0,0.0,1.09,1.19,91.0,10174.0,1.6,1.4,,6.74,0.985,84.4,,55.4,5.0,,,,,,,,,,,,0,0,0,0,0,0,0,0,0,0,0,0,0,0,0,0,,,,,,0.0,,,,,,,
41,2921724,1745471518717,,,,,,,,,,,,,,,,,,,,,,,,,,,,,,,,,,0,0,0,0,0,0,0,0,0,0,0,0,0,0,0,0,,,,,,,,,,,,,
42,2921744,1745471518737,0.0,-78.0,,-0.02,0.05,1.07,1.0,0.0,0.0,1.07,1.19,90.0,10174.0,1.6,1.4,,5.84,0.99,84.4,,54.8,5.0,,,,,,,,,,,,0,0,0,0,0,0,0,0,0,0,0,0,0,0,0,0,,,,,,0.0,,,,,,,
43,2921764,1745471518757,,,,,,,,,,,,,,,,,,,,,,,,,,,,,,,,,,0,0,0,0,0,0,0,0,0,0,0,0,0,0,0,0,,,,,,,,,,,,,
44,2921784,1745471518777,0.0,-65.0,,-0.05,0.01,1.05,0.0,0.0,-1.0,1.05,1.19,88.0,9727.0,1.5,1.4,,5.51,1.014,84.4,,54.8,5.0,0.0,0.0,0.0,0.0,0.0,0.0,0.0,0.0,2.29,,,0,0,0,0,0,0,0,0,0,0,0,0,0,0,0,0,,0.0,,,,0.0,38.993835,-76.938782,0.0,25.4,33.0,3.0,0.8
45,2921804,1745471518797,,,,,,,,,,,,,,,,,,,,,,,,,,,,,,,,,,0,0,0,0,0,0,0,0,0,0,0,0,0,0,0,0,,,,,,,,,,,,,
46,2921824,1745471518815,0.0,-68.0,,-0.01,0.02,1.08,2.0,0.0,0.0,1.08,1.19,90.0,9245.0,1.6,1.4,,5.22,1.111,84.4,,54.8,5.0,,,,,,,,,,,,0,0,0,0,0,0,0,0,0,0,0,0,0,0,0,0,,,,,,0.0,,,,,,,
47,2921844,1745471518835,,,,,,,,,,,,,,,,,,,,,,,,,,,,,,,,,,0,0,0,0,0,0,0,0,0,0,0,0,0,0,0,0,,,,,,,,,,,,,
48,2921864,1745471518855,0.0,-75.0,,0.01,0.1,1.11,2.0,0.0,0.0,1.11,1.19,93.0,8804.0,1.8,1.4,,5.15,1.251,84.4,,53.3,5.0,,,,,,,,,,,,0,0,0,0,0,0,0,0,0,0,0,0,0,0,0,0,,,,,,0.0,,,,,,,
49,2921884,1745471518875,,,,,,,,,,,,,,,,,,,,,,,0.0,0.0,0.0,0.0,0.0,0.0,0.0,0.0,2.29,,,0,0,0,0,0,0,0,0,0,0,0,0,0,0,0,0,,0.0,,,,,38.993835,-76.938782,0.04,25.4,33.0,3.0,0.8
50,2921904,1745471518895,0.0,-65.0,,-0.0,0.14,1.07,1.0,-1.0,0.0,1.07,1.19,90.0,8364.0,3.5,1.4,,5.15,1.251,84.4,,53.3,5.0,,,,,,,,,,,,0,0,0,0,0,0,0,0,0,0,0,0,0,0,0,0,,,,,,0.0,,,,,,,
51,2921924,1745471518915,,,,,,,,,,,,,,,,,,,,,,,,,,,,,,,,,,0,0,0,0,0,0,0,0,0,0,0,0,0,0,0,0,,,,,,,,,,,,,
52,2921944,1745471518935,0.0,-78.0,,-0.0,0.04,1.06,1.0,0.0,0.0,1.06,1.19,89.0,8364.0,3.5,1.4,,5.35,1.252,84.4,,53.3,5.0,,,,,,,,,,,,0,0,0,0,0,0,0,0,0,0,0,0,0,0,0,0,,,,,,0.0,,,,,,,
53,2921964,1745471518955,,,,,,,,,,,,,,,,,,,,,,,,,,,,,,,,,,0,0,0,0,0,0,0,0,0,0,0,0,0,0,0,0,,,,,,,,,,,,,
54,2921984,1745471518975,0.0,-82.0,,-0.0,0.14,1.03,1.0,-1.0,0.0,1.04,1.19,88.0,7849.0,6.2,1.66,,5.76,1.252,84.4,,53.3,5.0,0.0,0.0,0.0,0.0,0.0,0.0,0.0,0.0,2.29,,,0,0,0,0,0,0,0,0,0,0,0,0,0,0,0,0,,0.0,,,,0.0,38.993835,-76.938782,0.04,25.4,33.0,3.0,0.8
55,2922004,1745471518995,,,,,,,,,,,,,,,,,,,,,,,,,,,,,,,,,,0,0,0,0,0,0,0,0,0,0,0,0,0,0,0,0,,,,,,,,,,,,,
56,2922024,1745471519007,0.0,-68.0,,-0.02,0.19,1.04,2.0,-1.0,0.0,1.06,1.19,89.0,7462.0,15.2,2.26,,7.03,1.253,84.4,,53.3,5.0,,,,,,,,,,,,0,0,0,0,0,0,0,0,0,0,0,0,0,0,0,0,,,,,,0.0,,,,,,,
57,2922044,1745471519027,,,,,,,,,,,,,,,,,,,,,,,,,,,,,,,,,,0,0,0,0,0,0,0,0,0,0,0,0,0,0,0,0,,,,,,,,,,,,,
58,2922064,1745471519047,0.0,-71.0,,0.02,0.26,1.04,2.0,-1.0,0.0,1.07,1.19,90.0,7332.0,27.2,3.31,,9.52,1.253,84.4,,53.3,5.0,,,,,,,,,,,,0,0,0,0,0,0,0,0,0,0,0,0,0,0,0,0,,,,,,0.0,,,,,,,
59,2922084,1745471519067,,,,,,,,,,,,,,,,,,,,,,,0.0,0.0,0.0,0.0,0.0,0.0,0.0,0.0,2.29,,,0,0,0,0,0,0,0,0,0,0,0,0,0,0,0,0,,0.0,,,,,38.993835,-76.938782,0.0,25.4,33.0,3.0,0.8
60,2922104,1745471519087,0.0,-58.0,,0.01,0.25,1.06,2.0,-1.0,0.0,1.09,1.19,92.0,7726.0,30.7,4.01,,9.52,1.253,84.4,,53.3,5.0,,,,,,,,,,,,0,0,0,0,0,0,0,0,0,0,0,0,0,0,0,0,,,,,,0.0,,,,,,,
61,2922124,1745471519115,,,,,,,,,,,,,,,,,,,,,,,,,,,,,,,,,,0,0,0,0,0,0,0,0,0,0,0,0,0,0,0,0,,,,,,,,,,,,,
62,2922144,1745471519135,0.0,-82.0,,0.01,0.18,1.05,1.0,-1.0,0.0,1.06,1.19,89.0,7726.0,30.7,4.01,,11.14,1.253,84.4,,53.4,5.0,,,,,,,,,,,,0,0,0,0,0,0,0,0,0,0,0,0,0,0,0,0,,,,,,0.0,,,,,,,
63,2922164,1745471519155,,,,,,,,,,,,,,,,,,,,,,,,,,,,,,,,,,0,0,0,0,0,0,0,0,0,0,0,0,0,0,0,0,,,,,,,,,,,,,
64,2922184,1745471519175,0.0,-68.0,,-0.0,0.19,1.01,1.0,-1.0,0.0,1.03,1.19,86.0,8252.0,32.4,4.76,,11.69,1.252,84.4,,53.4,5.0,0.0,0.0,0.0,0.0,0.0,0.0,0.0,0.0,2.29,,,0,0,0,0,0,0,0,0,0,0,0,0,0,0,0,0,,0.0,,,,0.0,38.993835,-76.938782,0.07,25.4,33.0,3.0,0.8
65,2922204,1745471519195,,,,,,,,,,,,,,,,,,,,,,,,,,,,,,,,,,0,0,0,0,0,0,0,0,0,0,0,0,0,0,0,0,,,,,,,,,,,,,
66,2922224,1745471519215,0.0,-68.0,,-0.02,0.02,0.97,0.0,-1.0,0.0,0.97,1.19,81.0,9588.0,32.6,4.94,,11.29,1.152,84.4,,53.4,5.0,,,,,,,,,,,,0,0,0,0,0,0,0,0,0,0,0,0,0,0,0,0,,,,,,0.0,,,,,,,
67,2922244,1745471519235,,,,,,,,,,,,,,,,,,,,,,,,,,,,,,,,,,0,0,0,0,0,0,0,0,0,0,0,0,0,0,0,0,,,,,,,,,,,,,
68,2922264,1745471519255,0.0,-82.0,,-0.01,0.29,0.97,-1.0,0.0,1.0,1.01,1.19,85.0,10872.0,32.6,3.98,,11.01,1.041,84.4,,55.0,5.0,,,,,,,,,,,,0,0,0,0,0,0,0,0,0,0,0,0,0,0,0,0,,,,,,0.0,,,,,,,
69,2922284,1745471519275,,,,,,,,,,,,,,,,,,,,,,,0.0,0.0,0.0,0.0,0.0,0.0,0.0,0.0,2.29,,,0,0,0,0,0,0,0,0,0,0,0,0,0,0,0,0,,0.0,,,,,38.993835,-76.938782,0.04,25.4,33.0,3.0,0.8
70,2922304,1745471519295,0.0,-71.0,,0.02,0.14,0.91,0.0,0.0,1.0,0.92,1.19,77.0,11583.0,32.7,2.94,,11.01,1.041,84.4,,55.0,5.0,,,,,,,,,,,,0,0,0,0,0,0,0,0,0,0,0,0,0,0,0,0,,,,,,0.0,,,,,,,
71,2922324,1745471519315,,,,,,,,,,,,,,,,,,,,,,,,,,,,,,,,,,0,0,0,0,0,0,0,0,0,0,0,0,0,0,0,0,,,,,,,,,,,,,
72,2922344,1745471519335,0.0,-82.0,,0.06,0.18,0.95,1.0,0.0,1.0,0.97,1.19,82.0,11583.0,32.7,2.94,,10.82,0.947,84.4,,57.7,5.0,,,,,,,,,,,,0,0,0,0,0,0,0,0,0,0,0,0,0,0,0,0,,,,,,0.0,,,,,,,
73,2922364,1745471519355,,,,,,,,,,,,,,,,,,,,,,,,,,,,,,,,,,0,0,0,0,0,0,0,0,0,0,0,0,0,0,0,0,,,,,,,,,,,,,
74,2922384,1745471519375,0.0,-78.0,13.45,0.11,-0.1,1.02,0.0,1.0,1.0,1.03,1.19,86.0,10744.0,32.6,3.0,15.0,10.54,0.934,84.4,165.0,57.7,5.0,0.0,0.0,0.0,0.0,0.0,0.0,0.0,0.0,2.29,0.0,1.0,0,0,0,0,0,0,0,0,0,0,0,0,0,0,0,0,0.0,0.0,1.0,0.0,0.0,0.0,38.993835,-76.938782,0.05,25.4,33.0,3.0,0.8
75,2922404,1745471519395,,,,,,,,,,,,,,,,,,,,,,,,,,,,,,,,,,0,0,0,0,0,0,0,0,0,0,0,0,0,0,0,0,,,,,,,,,,,,,
76,2922424,1745471519415,0.0,-68.0,,0.2,-0.11,1.04,0.0,1.0,0.0,1.06,1.19,89.0,9032.0,28.4,3.81,,10.77,1.047,84.4,,57.7,5.0,,,,,,,,,,,,0,0,0,0,0,0,0,0,0,0,0,0,0,0,0,0,,,,,,0.0,,,,,,,
77,2922444,1745471519435,,,,,,,,,,,,,,,,,,,,,,,,,,,,,,,,,,0,0,0,0,0,0,0,0,0,0,0,0,0,0,0,0,,,,,,,,,,,,,
78,2922464,1745471519455,0.0,-65.0,,0.22,-0.04,1.09,0.0,1.0,0.0,1.11,1.19,93.0,7147.0,28.3,5.27,,11.54,1.228,84.4,,50.5,5.0,,,,,,,,,,,,0,0,0,0,0,0,0,0,0,0,0,0,0,0,0,0,,,,,,0.0,,,,,,,
79,2922484,1745471519475,,,,,,,,,,,,,,,,,,,,,,,0.0,0.0,24.0,23.0,0.0,0.0,0.0,0.0,2.29,,,0,0,0,0,0,0,0,0,0,0,0,0,0,0,0,0,,0.0,,,,,38.993835,-76.938782,0.8,25.4,33.0,3.0,0.8
80,2922504,1745471519495,0.0,-65.0,,0.26,-0.08,1.03,-1.0,0.0,0.0,1.07,1.19,89.0,6067.0,32.0,5.1,,11.54,1.228,84.4,,50.5,5.0,,,,,,,,,,,,0,0,0,0,0,0,0,0,0,0,0,0,0,0,0,0,,,,,,0.0,,,,,,,
81,2922524,1745471519517,,,,,,,,,,,,,,,,,,,,,,,,,,,,,,,,,,0,0,0,0,0,0,0,0,0,0,0,0,0,0,0,0,,,,,,,,,,,,,
82,2922544,1745471519537,0.0,-82.0,,0.31,-0.08,1.04,-2.0,0.0,0.0,1.08,1.19,91.0,6067.0,32.0,5.1,,12.64,1.253,84.4,,50.0,5.0,,,,,,,,,,,,0,0,0,0,0,0,0,0,0,0,0,0,0,0,0,0,,,,,,0.0,,,,,,,
83,2922564,1745471519557,,,,,,,,,,,,,,,,,,,,,,,,,,,,,,,,,,0,0,0,0,0,0,0,0,0,0,0,0,0,0,0,0,,,,,,,,,,,,,
84,2922584,1745471519577,0.0,-85.0,,0.4,-0.01,1.07,-2.0,0.0,0.0,1.15,1.19,96.0,6056.0,35.5,5.18,,13.35,1.252,84.4,,50.0,5.0,3.0,0.0,16.0,15.0,0.0,0.0,0.0,0.0,2.3,,,0,0,0,0,0,0,0,0,0,0,0,0,0,0,0,0,,0.0,,,,0.0,38.993835,-76.938782,3.44,25.4,33.0,3.0,0.8
85,2922604,1745471519597,,,,,,,,,,,,,,,,,,,,,,,,,,,,,,,,,,0,0,0,0,0,0,0,0,0,0,0,0,0,0,0,0,,,,,,,,,,,,,
86,2922624,1745471519617,0.0,-92.0,,0.46,-0.06,1.02,-2.0,1.0,0.0,1.12,1.19,94.0,5755.0,36.4,5.02,,13.57,1.254,84.4,,50.0,5.0,,,,,,,,,,,,0,0,0,0,0,0,0,0,0,0,0,0,0,0,0,0,,,,,,0.0,,,,,,,
87,2922644,1745471519637,,,,,,,,,,,,,,,,,,,,,,,,,,,,,,,,,,0,0,0,0,0,0,0,0,0,0,0,0,0,0,0,0,,,,,,,,,,,,,
88,2922664,1745471519657,0.0,-102.0,,0.47,0.02,1.03,-2.0,0.0,0.0,1.13,1.19,95.0,5104.0,44.4,5.23,,14.08,1.145,84.4,,48.6,5.0,,,,,,,,,,,,0,0,0,0,0,0,0,0,0,0,0,0,0,0,0,0,,,,,,0.0,,,,,,,
89,2922684,1745471519677,,,,,,,,,,,,,,,,,,,,,,,5.0,0.0,17.0,17.0,0.0,0.0,0.0,0.0,2.29,,,0,0,0,0,0,0,0,0,0,0,0,0,0,0,0,0,,0.0,,,,,38.993835,-76.938789,6.15,25.4,33.0,3.0,0.8
90,2922704,1745471519697,0.0,-95.0,,0.46,-0.07,1.02,-2.0,0.0,0.0,1.12,1.19,94.0,4550.0,52.6,5.35,,14.08,1.145,84.4,,48.6,5.0,,,,,,,,,,,,0,0,0,0,0,0,0,0,0,0,0,0,0,0,0,0,,,,,,0.0,,,,,,,
91,2922724,1745471519717,,,,,,,,,,,,,,,,,,,,,,,,,,,,,,,,,,0,0,0,0,0,0,0,0,0,0,0,0,0,0,0,0,,,,,,,,,,,,,
92,2922744,1745471519737,0.0,-102.0,,0.48,-0.14,1.01,-3.0,0.0,0.0,1.12,1.19,94.0,4550.0,52.6,5.35,,14.42,1.094,84.4,,40.9,5.0,,,,,,,,,,,,0,0,0,0,0,0,0,0,0,0,0,0,0,0,0,0,,,,,,0.0,,,,,,,
93,2922764,1745471519757,,,,,,,,,,,,,,,,,,,,,,,,,,,,,,,,,,0,0,0,0,0,0,0,0,0,0,0,0,0,0,0,0,,,,,,,,,,,,,
94,2922784,1745471519777,0.0,-75.0,,0.51,-0.14,1.0,-1.0,0.0,0.0,1.13,1.19,95.0,4336.0,69.7,5.11,,14.56,1.096,84.4,,40.9,5.0,6.0,0.0,13.0,13.0,0.0,0.0,0.0,0.0,2.29,,,0,0,0,0,0,0,0,0,0,0,0,0,0,0,0,0,,1.0,,,,0.0,38.993835,-76.938789,8.73,25.4,33.0,3.0,0.8
95,2922804,1745471519797,,,,,,,,,,,,,,,,,,,,,,,,,,,,,,,,,,0,0,0,0,0,0,0,0,0,0,0,0,0,0,0,0,,,,,,,,,,,,,
96,2922824,1745471519816,0.0,-92.0,,0.51,-0.16,1.02,-1.0,0.0,0.0,1.15,1.19,97.0,3681.0,77.5,4.71,,14.63,1.126,84.4,,40.9,5.0,,,,,,,,,,,,0,0,0,0,0,0,0,0,0,0,0,0,0,0,0,0,,,,,,0.0,,,,,,,
97,2922844,1745471519836,,,,,,,,,,,,,,,,,,,,,,,,,,,,,,,,,,0,0,0,0,0,0,0,0,0,0,0,0,0,0,0,0,,,,,,,,,,,,,
98,2922864,1745471519856,0.0,-99.0,,0.51,-0.12,1.03,1.0,0.0,0.0,1.15,1.19,97.0,3041.0,77.8,4.41,,14.67,1.18,84.4,,29.0,5.0,,,,,,,,,,,,0,0,0,0,0,0,0,0,0,0,0,0,0,0,0,0,,,,,,0.0,,,,,,,
99,2922884,1745471519876,,,,,,,,,,,,,,,,,,,,,,,8.0,0.0,9.0,8.0,0.0,241.0,0.0,0.0,2.27,,,0,0,0,0,0,0,0,0,0,0,0,0,0,0,0,0,,0.0,,,,,38.993835,-76.938789,10.92,25.4,33.0,3.0,0.8
100,2922904,1745471519896,0.0,-92.0,,0.48,-0.14,1.03,3.0,-1.0,0.0,1.15,1.19,96.0,2670.0,78.0,4.54,,14.67,1.18,84.4,,29.0,5.0,,,,,,,,,,,,0,0,0,0,0,0,0,0,0,0,0,0,0,0,0,0,,,,,,0.0,,,,,,,
101,2922924,1745471519916,,,,,,,,,,,,,,,,,,,,,,,,,,,,,,,,,,0,0,0,0,0,0,0,0,0,0,0,0,0,0,0,0,,,,,,,,,,,,,
102,2922944,1745471519936,0.0,-99.0,,0.41,-0.11,0.99,4.0,-2.0,0.0,1.08,1.19,91.0,2670.0,78.0,4.54,,14.74,1.165,84.4,,23.7,5.0,,,,,,,,,,,,0,0,0,0,0,0,0,0,0,0,0,0,0,0,0,0,,,,,,0.0,,,,,,,
103,2922964,1745471519956,,,,,,,,,,,,,,,,,,,,,,,,,,,,,,,,,,0,0,0,0,0,0,0,0,0,0,0,0,0,0,0,0,,,,,,,,,,,,,
104,2922984,1745471519976,0.0,-88.0,,0.36,-0.06,0.93,6.0,-2.0,-1.0,1.0,1.19,84.0,2852.0,78.1,4.51,,14.64,1.152,84.4,,23.7,5.0,9.0,0.0,9.0,9.0,0.0,30.0,0.0,0.0,2.27,,,0,0,0,0,0,0,0,0,0,0,0,0,0,0,0,0,,1.0,,,,0.0,38.993835,-76.938797,14.05,25.4,33.0,3.0,0.8
105,2923004,1745471519996,,,,,,,,,,,,,,,,,,,,,,,,,,,,,,,,,,0,0,0,0,0,0,0,0,0,0,0,0,0,0,0,0,,,,,,,,,,,,,
106,2923024,1745471520006,0.0,-85.0,,0.35,-0.01,0.84,8.0,-1.0,-1.0,0.91,1.19,76.0,3037.0,78.0,4.42,,14.64,1.08,84.4,,23.7,5.0,,,,,,,,,,,,0,0,0,0,0,0,0,0,0,0,0,0,0,0,0,0,,,,,,0.0,,,,,,,
107,2923044,1745471520026,,,,,,,,,,,,,,,,,,,,,,,,,,,,,,,,,,0,0,0,0,0,0,0,0,0,0,0,0,0,0,0,0,,,,,,,,,,,,,
108,2923064,1745471520046,0.0,-75.0,,0.31,-0.01,0.81,8.0,-1.0,-1.0,0.86,1.19,72.0,3161.0,78.0,4.41,,14.62,1.049,84.4,,26.5,5.0,,,,,,,,,,,,0,0,0,0,0,0,0,0,0,0,0,0,0,0,0,0,,,,,,0.0,,,,,,,
109,2923084,1745471520066,,,,,,,,,,,,,,,,,,,,,,,9.0,0.0,9.0,9.0,0.0,21.0,0.0,0.0,2.28,,,0,0,0,0,0,0,0,0,0,0,0,0,0,0,0,0,,0.0,,,,,38.993835,-76.938805,15.19,25.4,34.0,3.0,0.8
110,2923104,1745471520086,0.0,-65.0,,0.29,0.0,0.84,7.0,-2.0,0.0,0.89,1.19,75.0,3186.0,78.0,4.42,,14.62,1.049,84.4,,26.5,5.0,,,,,,,,,,,,0,0,0,0,0,0,0,0,0,0,0,0,0,0,0,0,,,,,,0.0,,,,,,,
111,2923124,1745471520116,,,,,,,,,,,,,,,,,,,,,,,,,,,,,,,,,,0,0,0,0,0,0,0,0,0,0,0,0,0,0,0,0,,,,,,,,,,,,,
112,2923144,1745471520136,0.0,-82.0,,0.28,-0.05,0.96,5.0,-2.0,0.0,1.0,1.19,84.0,3186.0,78.0,4.42,,14.66,1.068,84.4,,27.7,5.0,,,,,,,,,,,,0,0,0,0,0,0,0,0,0,0,0,0,0,0,0,0,,,,,,0.0,,,,,,,
113,2923164,1745471520156,,,,,,,,,,,,,,,,,,,,,,,,,,,,,,,,,,0,0,0,0,0,0,0,0,0,0,0,0,0,0,0,0,,,,,,,,,,,,,
114,2923184,1745471520176,0.0,-92.0,,0.21,-0.04,0.93,5.0,-1.0,-1.0,0.96,1.19,80.0,3143.0,78.0,4.43,,14.64,1.101,84.4,,27.7,5.0,9.0,0.0,10.0,10.0,0.0,236.0,0.0,0.0,2.29,,,0,0,0,0,0,0,0,0,0,0,0,0,0,0,0,0,,1.0,,,,0.0,38.993835,-76.938805,14.82,25.4,34.0,3.0,0.8
115,2923204,1745471520196,,,,,,,,,,,,,,,,,,,,,,,,,,,,,,,,,,0,0,0,0,0,0,0,0,0,0,0,0,0,0,0,0,,,,,,,,,,,,,
116,2923224,1745471520216,0.0,-75.0,,0.22,0.01,0.91,6.0,-1.0,0.0,0.93,1.19,78.0,3344.0,78.1,4.42,,14.6,1.152,84.4,,27.7,5.0,,,,,,,,,,,,0,0,0,0,0,0,0,0,0,0,0,0,0,0,0,0,,,,,,0.0,,,,,,,
117,2923244,1745471520236,,,,,,,,,,,,,,,,,,,,,,,,,,,,,,,,,,0,0,0,0,0,0,0,0,0,0,0,0,0,0,0,0,,,,,,,,,,,,,
118,2923264,1745471520256,0.0,-82.0,,0.17,-0.03,0.96,3.0,-1.0,0.0,0.98,1.19,82.0,3288.0,78.1,4.44,,14.66,1.196,84.4,,28.2,5.0,,,,,,,,,,,,0,0,0,0,0,0,0,0,0,0,0,0,0,0,0,0,,,,,,0.0,,,,,,,
119,2923284,1745471520276,,,,,,,,,,,,,,,,,,,,,,,10.0,0.0,10.0,10.0,0.0,35.0,0.0,0.0,2.28,,,0,0,0,0,0,0,0,0,0,0,0,0,0,0,0,0,,1.0,,,,,38.993832,-76.938812,15.21,25.4,34.0,3.0,0.8
120,2923304,1745471520296,0.0,-68.0,,0.19,0.0,0.92,6.0,-1.0,0.0,0.94,1.19,79.0,3315.0,78.2,4.43,,14.66,1.196,84.4,,28.2,5.0,,,,,,,,,,,,0,0,0,0,0,0,0,0,0,0,0,0,0,0,0,0,,,,,,0.0,,,,,,,
121,2923324,1745471520317,,,,,,,,,,,,,,,,,,,,,,,,,,,,,,,,,,0,0,0,0,0,0,0,0,0,0,0,0,0,0,0,0,,,,,,,,,,,,,
122,2923344,1745471520337,0.0,-95.0,,0.16,-0.11,0.95,2.0,0.0,0.0,0.97,1.19,82.0,3315.0,78.2,4.43,,14.63,1.228,84.4,,28.8,5.0,,,,,,,,,,,,0,0,0,0,0,0,0,0,0,0,0,0,0,0,0,0,,,,,,0.0,,,,,,,
123,2923364,1745471520357,,,,,,,,,,,,,,,,,,,,,,,,,,,,,,,,,,0,0,0,0,0,0,0,0,0,0,0,0,0,0,0,0,,,,,,,,,,,,,
124,2923384,1745471520377,0.0,-68.0,13.48,0.17,-0.07,0.98,2.0,0.0,0.0,0.99,1.19,83.0,3495.0,78.3,4.43,15.0,14.64,1.247,84.4,167.0,28.8,5.0,10.0,0.0,10.0,10.0,0.0,74.0,0.0,0.0,2.28,0.0,1.0,0,0,0,0,0,0,0,0,0,0,0,0,0,0,0,0,0.0,1.0,1.0,0.0,0.0,0.0,38.993832,-76.93882,15.54,25.4,34.0,3.0,0.8
125,2923404,1745471520397,,,,,,,,,,,,,,,,,,,,,,,,,,,,,,,,,,0,0,0,0,0,0,0,0,0,0,0,0,0,0,0,0,,,,,,,,,,,,,
126,2923424,1745471520416,0.0,-58.0,,0.13,-0.05,0.93,2.0,0.0,0.0,0.94,1.19,79.0,3392.0,78.3,4.43,,14.62,1.242,84.4,,28.8,5.0,,,,,,,,,,,,0,0,0,0,0,0,0,0,0,0,0,0,0,0,0,0,,,,,,0.0,,,,,,,
127,2923444,1745471520436,,,,,,,,,,,,,,,,,,,,,,,,,,,,,,,,,,0,0,0,0,0,0,0,0,0,0,0,0,0,0,0,0,,,,,,,,,,,,,
128,2923464,1745471520456,0.0,-58.0,,0.13,-0.07,0.93,-1.0,0.0,0.0,0.94,1.19,79.0,3613.0,78.3,4.44,,14.58,1.237,84.4,,29.8,5.0,,,,,,,,,,,,0,0,0,0,0,0,0,0,0,0,0,0,0,0,0,0,,,,,,0.0,,,,,,,
129,2923484,1745471520476,,,,,,,,,,,,,,,,,,,,,,,11.0,0.0,11.0,11.0,0.0,53.0,0.0,0.0,2.28,,,0,0,0,0,0,0,0,0,0,0,0,0,0,0,0,0,,1.0,,,,,38.993832,-76.93882,15.97,25.4,34.0,3.0,0.8
130,2923504,1745471520496,0.0,-61.0,,0.16,-0.12,0.94,-2.0,0.0,0.0,0.97,1.19,81.0,3755.0,73.4,4.47,,14.58,1.237,84.4,,29.8,5.0,,,,,,,,,,,,0,0,0,0,0,0,0,0,0,0,0,0,0,0,0,0,,,,,,0.0,,,,,,,
131,2923524,1745471520516,,,,,,,,,,,,,,,,,,,,,,,,,,,,,,,,,,0,0,0,0,0,0,0,0,0,0,0,0,0,0,0,0,,,,,,,,,,,,,
132,2923544,1745471520536,0.0,-71.0,,0.18,-0.12,0.97,-2.0,0.0,0.0,1.0,1.19,84.0,3755.0,73.4,4.47,,14.62,1.251,84.4,,32.4,5.0,,,,,,,,,,,,0,0,0,0,0,0,0,0,0,0,0,0,0,0,0,0,,,,,,0.0,,,,,,,
133,2923564,1745471520556,,,,,,,,,,,,,,,,,,,,,,,,,,,,,,,,,,0,0,0,0,0,0,0,0,0,0,0,0,0,0,0,0,,,,,,,,,,,,,
134,2923584,1745471520576,0.0,-68.0,,0.14,-0.15,1.0,-3.0,0.0,0.0,1.02,1.19,86.0,3688.0,61.2,4.45,,14.6,1.243,84.4,,32.4,5.0,10.0,0.0,11.0,12.0,0.0,17.0,0.0,0.0,2.28,,,0,0,0,0,0,0,0,0,0,0,0,0,0,0,0,0,,0.0,,,,0.0,38.993828,-76.93882,16.63,25.4,34.0,3.0,0.8
135,2923604,1745471520596,,,,,,,,,,,,,,,,,,,,,,,,,,,,,,,,,,0,0,0,0,0,0,0,0,0,0,0,0,0,0,0,0,,,,,,,,,,,,,
136,2923624,1745471520616,0.0,-61.0,,0.14,-0.12,1.01,-3.0,-1.0,0.0,1.02,1.19,86.0,3566.0,58.8,4.26,,14.52,1.2,84.4,,32.4,5.0,,,,,,,,,,,,0,0,0,0,0,0,0,0,0,0,0,0,0,0,0,0,,,,,,0.0,,,,,,,
137,2923644,1745471520636,,,,,,,,,,,,,,,,,,,,,,,,,,,,,,,,,,0,0,0,0,0,0,0,0,0,0,0,0,0,0,0,0,,,,,,,,,,,,,
138,2923664,1745471520656,0.0,-71.0,,0.14,-0.11,0.96,-4.0,0.0,0.0,0.98,1.19,82.0,3889.0,58.6,4.24,,14.6,1.191,84.4,,32.2,5.0,,,,,,,,,,,,0,0,0,0,0,0,0,0,0,0,0,0,0,0,0,0,,,,,,0.0,,,,,,,
139,2923684,1745471520676,,,,,,,,,,,,,,,,,,,,,,,11.0,0.0,12.0,12.0,0.0,50.0,0.0,0.0,2.29,,,0,0,0,0,0,0,0,0,0,0,0,0,0,0,0,0,,1.0,,,,,38.993828,-76.938828,17.46,25.4,34.0,3.0,0.8
140,2923704,1745471520696,0.0,-58.0,,0.14,-0.09,0.95,-4.0,0.0,0.0,0.97,1.19,81.0,3978.0,58.6,4.21,,14.6,1.191,84.4,,32.2,5.0,,,,,,,,,,,,0,0,0,0,0,0,0,0,0,0,0,0,0,0,0,0,,,,,,0.0,,,,,,,
141,2923724,1745471520716,,,,,,,,,,,,,,,,,,,,,,,,,,,,,,,,,,0,0,0,0,0,0,0,0,0,0,0,0,0,0,0,0,,,,,,,,,,,,,
142,2923744,1745471520736,0.0,-61.0,,0.17,-0.09,0.98,-3.0,0.0,0.0,1.0,1.19,84.0,3978.0,58.6,4.21,,14.56,1.198,84.4,,35.1,5.0,,,,,,,,,,,,0,0,0,0,0,0,0,0,0,0,0,0,0,0,0,0,,,,,,0.0,,,,,,,
143,2923764,1745471520756,,,,,,,,,,,,,,,,,,,,,,,,,,,,,,,,,,0,0,0,0,0,0,0,0,0,0,0,0,0,0,0,0,,,,,,,,,,,,,
144,2923784,1745471520776,0.0,-48.0,,0.17,-0.14,1.0,-5.0,0.0,0.0,1.02,1.19,86.0,3977.0,58.6,4.29,,14.56,1.25,84.4,,35.1,5.0,11.0,0.0,12.0,12.0,0.0,73.0,0.0,0.0,2.28,,,0,0,0,0,0,0,0,0,0,0,0,0,0,0,0,0,,0.0,,,,0.0,38.993824,-76.938835,18.12,25.4,34.0,3.0,0.8
145,2923804,1745471520796,,,,,,,,,,,,,,,,,,,,,,,,,,,,,,,,,,0,0,0,0,0,0,0,0,0,0,0,0,0,0,0,0,,,,,,,,,,,,,
146,2923824,1745471520815,0.0,-58.0,,0.13,-0.19,0.96,-6.0,0.0,0.0,0.99,1.19,83.0,3920.0,58.0,4.23,,14.55,1.253,84.4,,35.1,5.0,,,,,,,,,,,,0,0,0,0,0,0,0,0,0,0,0,0,0,0,0,0,,,,,,0.0,,,,,,,
147,2923844,1745471520835,,,,,,,,,,,,,,,,,,,,,,,,,,,,,,,,,,0,0,0,0,0,0,0,0,0,0,0,0,0,0,0,0,,,,,,,,,,,,,
148,2923864,1745471520855,0.0,-68.0,,0.12,-0.17,0.96,-5.0,0.0,0.0,0.98,1.19,82.0,4076.0,57.8,4.23,,14.58,1.234,84.4,,34.0,5.0,,,,,,,,,,,,0,0,0,0,0,0,0,0,0,0,0,0,0,0,0,0,,,,,,0.0,,,,,,,
149,2923884,1745471520875,,,,,,,,,,,,,,,,,,,,,,,12.0,0.0,12.0,12.0,0.0,46.0,0.0,0.0,2.28,,,0,0,0,0,0,0,0,0,0,0,0,0,0,0,0,0,,1.0,,,,,38.993824,-76.938843,18.4,25.5,34.0,3.0,0.8
150,2923904,1745471520895,0.0,-65.0,,0.08,-0.11,0.96,-7.0,0.0,0.0,0.97,1.19,82.0,4118.0,57.6,4.38,,14.58,1.234,84.4,,34.0,5.0,,,,,,,,,,,,0,0,0,0,0,0,0,0,0,0,0,0,0,0,0,0,,,,,,0.0,,,,,,,
151,2923924,1745471520915,,,,,,,,,,,,,,,,,,,,,,,,,,,,,,,,,,0,0,0,0,0,0,0,0,0,0,0,0,0,0,0,0,,,,,,,,,,,,,
152,2923944,1745471520935,0.0,-71.0,,0.08,-0.1,0.96,-5.0,0.0,0.0,0.97,1.19,81.0,4118.0,57.6,4.38,,14.55,1.232,84.4,,36.3,5.0,,,,,,,,,,,,0,0,0,0,0,0,0,0,0,0,0,0,0,0,0,0,,,,,,0.0,,,,,,,
153,2923964,1745471520955,,,,,,,,,,,,,,,,,,,,,,,,,,,,,,,,,,0,0,0,0,0,0,0,0,0,0,0,0,0,0,0,0,,,,,,,,,,,,,
154,2923984,1745471520975,0.0,-65.0,,0.1,-0.16,0.97,-7.0,1.0,0.0,0.99,1.19,83.0,4090.0,57.2,4.41,,14.51,1.251,84.4,,36.3,5.0,12.0,0.0,12.0,13.0,0.0,34.0,0.0,0.0,2.28,,,0,0,0,0,0,0,0,0,0,0,0,0,0,0,0,0,,0.0,,,,0.0,38.993824,-76.93885,19.06,25.5,34.0,3.0,0.8
155,2924004,1745471520995,,,,,,,,,,,,,,,,,,,,,,,,,,,,,,,,,,0,0,0,0,0,0,0,0,0,0,0,0,0,0,0,0,,,,,,,,,,,,,
156,2924024,1745471521001,0.0,-71.0,,0.07,-0.1,0.95,-6.0,0.0,0.0,0.96,1.19,80.0,4129.0,55.1,4.35,,14.54,1.252,84.4,,36.3,5.0,,,,,,,,,,,,0,0,0,0,0,0,0,0,0,0,0,0,0,0,0,0,,,,,,0.0,,,,,,,
157,2924044,1745471521021,,,,,,,,,,,,,,,,,,,,,,,,,,,,,,,,,,0,0,0,0,0,0,0,0,0,0,0,0,0,0,0,0,,,,,,,,,,,,,
158,2924064,1745471521041,0.0,-41.0,,0.08,-0.14,0.98,-7.0,1.0,0.0,1.0,1.19,84.0,4160.0,54.3,4.72,,14.55,1.252,84.4,,36.7,5.0,,,,,,,,,,,,0,0,0,0,0,0,0,0,0,0,0,0,0,0,0,0,,,,,,0.0,,,,,,,
159,2924084,1745471521061,,,,,,,,,,,,,,,,,,,,,,,12.0,0.0,12.0,13.0,0.0,33.0,0.0,0.0,2.29,,,0,0,0,0,0,0,0,0,0,0,0,0,0,0,0,0,,0.0,,,,,38.99382,-76.938858,19.34,25.5,34.0,3.0,0.8
160,2924104,1745471521081,0.0,-51.0,,0.07,-0.15,1.03,-7.0,1.0,1.0,1.04,1.19,87.0,4215.0,51.7,5.21,,14.55,1.252,84.4,,36.7,5.0,,,,,,,,,,,,0,0,0,0,0,0,0,0,0,0,0,0,0,0,0,0,,,,,,0.0,,,,,,,
161,2924124,1745471521115,,,,,,,,,,,,,,,,,,,,,,,,,,,,,,,,,,0,0,0,0,0,0,0,0,0,0,0,0,0,0,0,0,,,,,,,,,,,,,
162,2924144,1745471521135,0.0,-55.0,,0.08,-0.19,0.98,-7.0,2.0,0.0,1.0,1.19,84.0,4215.0,51.7,5.21,,14.54,1.251,84.4,,37.5,5.0,,,,,,,,,,,,0,0,0,0,0,0,0,0,0,0,0,0,0,0,0,0,,,,,,0.0,,,,,,,
163,2924164,1745471521155,,,,,,,,,,,,,,,,,,,,,,,,,,,,,,,,,,0,0,0,0,0,0,0,0,0,0,0,0,0,0,0,0,,,,,,,,,,,,,
164,2924184,1745471521175,0.0,-65.0,,0.07,-0.24,0.89,-9.0,2.0,0.0,0.92,1.19,77.0,4293.0,49.3,5.36,,14.39,1.251,84.4,,37.5,5.0,13.0,0.0,13.0,13.0,0.0,39.0,0.0,0.0,2.29,,,0,0,0,0,0,0,0,0,0,0,0,0,0,0,0,0,,1.0,,,,0.0,38.99382,-76.938858,19.53,25.5,34.0,3.0,0.8
165,2924204,1745471521195,,,,,,,,,,,,,,,,,,,,,,,,,,,,,,,,,,0,0,0,0,0,0,0,0,0,0,0,0,0,0,0,0,,,,,,,,,,,,,
166,2924224,1745471521209,0.0,-48.0,,0.02,-0.26,0.87,-12.0,2.0,0.0,0.9,1.19,76.0,4368.0,47.3,5.39,,14.42,1.252,84.4,,37.5,5.0,,,,,,,,,,,,0,0,0,0,0,0,0,0,0,0,0,0,0,0,0,0,,,,,,0.0,,,,,,,
167,2924244,1745471521229,,,,,,,,,,,,,,,,,,,,,,,,,,,,,,,,,,0,0,0,0,0,0,0,0,0,0,0,0,0,0,0,0,,,,,,,,,,,,,
168,2924264,1745471521249,0.0,-55.0,,0.02,-0.26,0.92,-12.0,2.0,0.0,0.96,1.19,80.0,4419.0,44.9,4.82,,14.43,1.253,84.4,,38.4,5.0,,,,,,,,,,,,0,0,0,0,0,0,0,0,0,0,0,0,0,0,0,0,,,,,,0.0,,,,,,,
169,2924284,1745471521269,,,,,,,,,,,,,,,,,,,,,,,13.0,0.0,13.0,13.0,0.0,0.0,0.0,0.0,2.28,,,0,0,0,0,0,0,0,0,0,0,0,0,0,0,0,0,,1.0,,,,,38.99382,-76.938866,19.64,25.5,34.0,3.0,0.8
170,2924304,1745471521289,0.0,-51.0,,0.04,-0.18,1.0,-11.0,2.0,0.0,1.02,1.19,85.0,4500.0,44.1,4.67,,14.43,1.253,84.4,,38.4,5.0,,,,,,,,,,,,0,0,0,0,0,0,0,0,0,0,0,0,0,0,0,0,,,,,,0.0,,,,,,,
171,2924324,1745471521315,,,,,,,,,,,,,,,,,,,,,,,,,,,,,,,,,,0,0,0,0,0,0,0,0,0,0,0,0,0,0,0,0,,,,,,,,,,,,,
172,2924344,1745471521335,0.0,-61.0,,0.05,-0.02,1.08,-9.0,1.0,0.0,1.08,1.19,91.0,4500.0,44.1,4.67,,14.39,1.231,84.4,,39.8,5.0,,,,,,,,,,,,0,0,0,0,0,0,0,0,0,0,0,0,0,0,0,0,,,,,,0.0,,,,,,,
173,2924364,1745471521355,,,,,,,,,,,,,,,,,,,,,,,,,,,,,,,,,,0,0,0,0,0,0,0,0,0,0,0,0,0,0,0,0,,,,,,,,,,,,,
174,2924384,1745471521375,0.0,-58.0,13.53,0.05,0.11,1.12,-7.0,0.0,0.0,1.13,1.19,95.0,4420.0,44.1,4.74,15.0,14.39,1.187,84.4,167.0,39.8,5.0,13.0,0.0,13.0,14.0,0.0,53.0,0.0,0.0,2.28,0.0,1.0,0,0,0,0,0,0,0,0,0,0,0,0,0,0,0,0,0.0,0.0,1.0,0.0,0.0,0.0,38.993816,-76.938873,20.48,25.5,34.0,3.0,0.8
175,2924404,1745471521395,,,,,,,,,,,,,,,,,,,,,,,,,,,,,,,,,,0,0,0,0,0,0,0,0,0,0,0,0,0,0,0,0,,,,,,,,,,,,,
176,2924424,1745471521415,0.0,-48.0,,0.04,0.18,1.14,-5.0,-1.0,0.0,1.16,1.19,97.0,4406.0,44.1,4.71,,14.44,1.186,84.4,,39.8,5.0,,,,,,,,,,,,0,0,0,0,0,0,0,0,0,0,0,0,0,0,0,0,,,,,,0.0,,,,,,,
177,2924444,1745471521435,,,,,,,,,,,,,,,,,,,,,,,,,,,,,,,,,,0,0,0,0,0,0,0,0,0,0,0,0,0,0,0,0,,,,,,,,,,,,,
178,2924464,1745471521455,0.0,-38.0,,0.05,0.25,1.17,-3.0,-1.0,0.0,1.2,1.2,100.0,4474.0,40.2,4.34,,14.28,1.204,84.4,,39.7,5.0,,,,,,,,,,,,0,0,0,0,0,0,0,0,0,0,0,0,0,0,0,0,,,,,,0.0,,,,,,,
179,2924484,1745471521475,,,,,,,,,,,,,,,,,,,,,,,13.0,0.0,14.0,14.0,0.0,131.0,0.0,0.0,2.28,,,0,0,0,0,0,0,0,0,0,0,0,0,0,0,0,0,,0.0,,,,,38.993816,-76.938881,21.11,25.5,34.0,3.0,0.8
180,2924504,1745471521495,0.0,-58.0,,0.06,0.27,1.22,-2.0,-1.0,0.0,1.25,1.25,100.0,4558.0,38.7,4.44,,14.28,1.204,84.4,,39.7,5.0,,,,,,,,,,,,0,0,0,0,0,0,0,0,0,0,0,0,0,0,0,0,,,,,,0.0,,,,,,,
181,2924524,1745471521515,,,,,,,,,,,,,,,,,,,,,,,,,,,,,,,,,,0,0,0,0,0,0,0,0,0,0,0,0,0,0,0,0,,,,,,,,,,,,,
182,2924544,1745471521535,0.0,-65.0,,0.06,0.26,1.28,-2.0,-1.0,0.0,1.31,1.31,100.0,4558.0,38.7,4.44,,14.3,1.204,84.4,,41.0,5.0,,,,,,,,,,,,0,0,0,0,0,0,0,0,0,0,0,0,0,0,0,0,,,,,,0.0,,,,,,,
183,2924564,1745471521555,,,,,,,,,,,,,,,,,,,,,,,,,,,,,,,,,,0,0,0,0,0,0,0,0,0,0,0,0,0,0,0,0,,,,,,,,,,,,,
184,2924584,1745471521575,0.0,-61.0,,0.08,0.18,1.3,-2.0,-1.0,0.0,1.31,1.31,100.0,4648.0,37.3,4.46,,14.26,1.215,84.4,,41.0,5.0,13.0,0.0,13.0,14.0,0.0,60.0,0.0,0.0,2.29,,,0,0,0,0,0,0,0,0,0,0,0,0,0,0,0,0,,1.0,,,,0.0,38.993816,-76.938889,21.66,25.5,34.0,3.0,0.8
185,2924604,1745471521595,,,,,,,,,,,,,,,,,,,,,,,,,,,,,,,,,,0,0,0,0,0,0,0,0,0,0,0,0,0,0,0,0,,,,,,,,,,,,,
186,2924624,1745471521615,0.0,-58.0,,0.06,-0.02,1.19,-5.0,-1.0,0.0,1.19,1.31,91.0,4666.0,33.7,4.69,,14.16,1.231,84.4,,41.0,5.0,,,,,,,,,,,,0,0,0,0,0,0,0,0,0,0,0,0,0,0,0,0,,,,,,0.0,,,,,,,
187,2924644,1745471521635,,,,,,,,,,,,,,,,,,,,,,,,,,,,,,,,,,0,0,0,0,0,0,0,0,0,0,0,0,0,0,0,0,,,,,,,,,,,,,
188,2924664,1745471521655,0.0,-58.0,,0.08,0.01,1.2,-5.0,-1.0,0.0,1.21,1.31,92.0,4884.0,29.5,4.97,,13.87,1.252,84.4,,41.7,5.0,,,,,,,,,,,,0,0,0,0,0,0,0,0,0,0,0,0,0,0,0,0,,,,,,0.0,,,,,,,
189,2924684,1745471521675,,,,,,,,,,,,,,,,,,,,,,,14.0,0.0,14.0,16.0,0.0,98.0,0.0,0.0,2.29,,,0,0,0,0,0,0,0,0,0,0,0,0,0,0,0,0,,0.0,,,,,38.993816,-76.938896,21.63,25.5,34.0,3.0,0.8
190,2924704,1745471521695,0.0,-58.0,,0.11,-0.05,1.14,-6.0,-1.0,0.0,1.14,1.31,87.0,5021.0,22.0,4.39,,13.87,1.252,84.4,,41.7,5.0,,,,,,,,,,,,0,0,0,0,0,0,0,0,0,0,0,0,0,0,0,0,,,,,,0.0,,,,,,,
191,2924724,1745471521717,,,,,,,,,,,,,,,,,,,,,,,,,,,,,,,,,,0,0,0,0,0,0,0,0,0,0,0,0,0,0,0,0,,,,,,,,,,,,,
192,2924744,1745471521737,0.0,-51.0,,0.12,0.05,1.17,-5.0,-1.0,0.0,1.18,1.31,90.0,5021.0,22.0,4.39,,13.63,1.252,84.4,,44.4,5.0,,,,,,,,,,,,0,0,0,0,0,0,0,0,0,0,0,0,0,0,0,0,,,,,,0.0,,,,,,,
193,2924764,1745471521757,,,,,,,,,,,,,,,,,,,,,,,,,,,,,,,,,,0,0,0,0,0,0,0,0,0,0,0,0,0,0,0,0,,,,,,,,,,,,,
194,2924784,1745471521777,0.0,-48.0,,0.09,0.02,1.19,-5.0,-1.0,0.0,1.19,1.19,100.0,4761.0,15.7,4.14,,13.33,1.182,84.4,,44.4,5.0,15.0,0.0,15.0,15.0,0.0,88.0,0.0,0.0,2.28,,,0,0,0,0,0,0,0,0,0,0,0,0,0,0,0,0,,1.0,,,,0.0,38.993816,-76.938904,22.05,25.6,34.0,3.0,0.8
195,2924804,1745471521797,,,,,,,,,,,,,,,,,,,,,,,,,,,,,,,,,,0,0,0,0,0,0,0,0,0,0,0,0,0,0,0,0,,,,,,,,,,,,,
196,2924824,1745471521814,0.0,-58.0,,0.06,-0.02,1.18,-6.0,-1.0,0.0,1.18,1.19,99.0,4589.0,15.3,4.04,,13.24,1.037,84.4,,44.4,5.0,,,,,,,,,,,,0,0,0,0,0,0,0,0,0,0,0,0,0,0,0,0,,,,,,0.0,,,,,,,
197,2924844,1745471521834,,,,,,,,,,,,,,,,,,,,,,,,,,,,,,,,,,0,0,0,0,0,0,0,0,0,0,0,0,0,0,0,0,,,,,,,,,,,,,
198,2924864,1745471521854,0.0,-65.0,,0.05,-0.09,1.13,-7.0,0.0,0.0,1.13,1.19,95.0,4614.0,15.8,4.05,,13.12,1.007,84.4,,41.1,5.0,,,,,,,,,,,,0,0,0,0,0,0,0,0,0,0,0,0,0,0,0,0,,,,,,0.0,,,,,,,
199,2924884,1745471521874,,,,,,,,,,,,,,,,,,,,,,,15.0,0.0,14.0,15.0,0.0,216.0,0.0,0.0,2.28,,,0,0,0,0,0,0,0,0,0,0,0,0,0,0,0,0,,0.0,,,,,38.993816,-76.938904,23.07,25.6,34.0,3.0,0.8
200,2924904,1745471521894,0.0,-65.0,,0.05,-0.25,1.04,-8.0,0.0,-1.0,1.07,1.19,90.0,4692.0,16.0,4.07,,13.12,1.007,84.4,,41.1,5.0,,,,,,,,,,,,0,0,0,0,0,0,0,0,0,0,0,0,0,0,0,0,,,,,,0.0,,,,,,,
201,2924924,1745471521917,,,,,,,,,,,,,,,,,,,,,,,,,,,,,,,,,,0,0,0,0,0,0,0,0,0,0,0,0,0,0,0,0,,,,,,,,,,,,,
202,2924944,1745471521937,0.0,-58.0,,0.04,-0.21,1.06,-7.0,1.0,-1.0,1.08,1.19,90.0,4692.0,16.0,4.07,,13.04,1.027,84.4,,42.5,5.0,,,,,,,,,,,,0,0,0,0,0,0,0,0,0,0,0,0,0,0,0,0,,,,,,0.0,,,,,,,
203,2924964,1745471521957,,,,,,,,,,,,,,,,,,,,,,,,,,,,,,,,,,0,0,0,0,0,0,0,0,0,0,0,0,0,0,0,0,,,,,,,,,,,,,
204,2924984,1745471521977,0.0,-65.0,,-0.0,-0.08,1.1,-6.0,0.0,0.0,1.1,1.19,92.0,4727.0,15.7,4.08,,13.13,1.062,84.4,,42.5,5.0,14.0,0.0,14.0,15.0,0.0,27.0,0.0,0.0,2.28,,,0,0,0,0,0,0,0,0,0,0,0,0,0,0,0,0,,0.0,,,,0.0,38.993816,-76.938911,23.32,25.6,34.0,3.0,0.8
205,2925004,1745471521997,,,,,,,,,,,,,,,,,,,,,,,,,,,,,,,,,,0,0,0,0,0,0,0,0,0,0,0,0,0,0,0,0,,,,,,,,,,,,,
206,2925024,1745471522002,0.0,-58.0,,0.0,-0.16,1.03,-7.0,0.0,-1.0,1.04,1.19,87.0,4783.0,15.4,4.06,,12.93,1.107,84.4,,42.5,5.0,,,,,,,,,,,,0,0,0,0,0,0,0,0,0,0,0,0,0,0,0,0,,,,,,0.0,,,,,,,
207,2925044,1745471522022,,,,,,,,,,,,,,,,,,,,,,,,,,,,,,,,,,0,0,0,0,0,0,0,0,0,0,0,0,0,0,0,0,,,,,,,,,,,,,
208,2925064,1745471522042,0.0,-58.0,,-0.01,-0.07,1.07,-6.0,0.0,-1.0,1.07,1.19,89.0,4816.0,15.4,4.07,,12.89,1.124,84.4,,43.3,5.0,,,,,,,,,,,,0,0,0,0,0,0,0,0,0,0,0,0,0,0,0,0,,,,,,0.0,,,,,,,
209,2925084,1745471522062,,,,,,,,,,,,,,,,,,,,,,,13.0,0.0,14.0,14.0,0.0,19.0,0.0,0.0,2.29,,,0,0,0,0,0,0,0,0,0,0,0,0,0,0,0,0,,1.0,,,,,38.993816,-76.938919,22.68,25.6,34.0,3.0,0.8
210,2925104,1745471522082,0.0,-48.0,,-0.03,-0.1,1.04,-7.0,0.0,0.0,1.04,1.19,87.0,4873.0,15.4,4.06,,12.89,1.124,82.6,,43.3,5.0,,,,,,,,,,,,0,0,0,0,0,0,0,0,0,0,0,0,0,0,0,0,,,,,,0.0,,,,,,,
211,2925124,1745471522108,,,,,,,,,,,,,,,,,,,,,,,,,,,,,,,,,,0,0,0,0,0,0,0,0,0,0,0,0,0,0,0,0,,,,,,,,,,,,,
212,2925144,1745471522128,0.0,-55.0,,-0.05,-0.06,1.09,-5.0,0.0,0.0,1.09,1.19,91.0,4873.0,15.4,4.06,,12.88,1.139,82.6,,44.4,5.0,,,,,,,,,,,,0,0,0,0,0,0,0,0,0,0,0,0,0,0,0,0,,,,,,0.0,,,,,,,
213,2925164,1745471522148,,,,,,,,,,,,,,,,,,,,,,,,,,,,,,,,,,0,0,0,0,0,0,0,0,0,0,0,0,0,0,0,0,,,,,,,,,,,,,
214,2925184,1745471522168,0.0,-68.0,,-0.04,-0.14,1.04,-6.0,0.0,-1.0,1.05,1.19,88.0,4948.0,15.4,4.06,,12.91,1.146,82.6,,44.4,5.0,14.0,0.0,14.0,15.0,0.0,0.0,0.0,0.0,2.29,,,0,0,0,0,0,0,0,0,0,0,0,0,0,0,0,0,,1.0,,,,0.0,38.993816,-76.938934,22.76,25.6,34.0,3.0,0.8
215,2925204,1745471522188,,,,,,,,,,,,,,,,,,,,,,,,,,,,,,,,,,0,0,0,0,0,0,0,0,0,0,0,0,0,0,0,0,,,,,,,,,,,,,
216,2925224,1745471522210,0.0,-71.0,,-0.05,-0.09,1.06,-5.0,0.0,0.0,1.07,1.19,89.0,5031.0,15.4,4.09,,12.8,1.152,82.6,,44.4,5.0,,,,,,,,,,,,0,0,0,0,0,0,0,0,0,0,0,0,0,0,0,0,,,,,,0.0,,,,,,,
217,2925244,1745471522230,,,,,,,,,,,,,,,,,,,,,,,,,,,,,,,,,,0,0,0,0,0,0,0,0,0,0,0,0,0,0,0,0,,,,,,,,,,,,,
218,2925264,1745471522250,0.0,-68.0,,-0.03,-0.14,1.02,-5.0,0.0,-1.0,1.03,1.19,86.0,4935.0,15.3,4.08,,12.83,1.167,82.6,,45.4,5.0,,,,,,,,,,,,0,0,0,0,0,0,0,0,0,0,0,0,0,0,0,0,,,,,,0.0,,,,,,,
219,2925284,1745471522270,,,,,,,,,,,,,,,,,,,,,,,14.0,0.0,14.0,14.0,0.0,233.0,0.0,0.0,2.28,,,0,0,0,0,0,0,0,0,0,0,0,0,0,0,0,0,,1.0,,,,,38.993816,-76.938942,22.27,25.6,34.0,3.0,0.8
220,2925304,1745471522290,0.0,-61.0,,-0.04,-0.05,1.1,-4.0,1.0,-1.0,1.1,1.19,92.0,4681.0,15.5,4.05,,12.83,1.167,82.6,,45.4,5.0,,,,,,,,,,,,0,0,0,0,0,0,0,0,0,0,0,0,0,0,0,0,,,,,,0.0,,,,,,,
221,2925324,1745471522314,,,,,,,,,,,,,,,,,,,,,,,,,,,,,,,,,,0,0,0,0,0,0,0,0,0,0,0,0,0,0,0,0,,,,,,,,,,,,,
222,2925344,1745471522334,0.0,-58.0,,-0.07,0.07,1.21,-3.0,0.0,0.0,1.22,1.22,100.0,4681.0,15.5,4.05,,12.96,1.159,82.6,,41.3,5.0,,,,,,,,,,,,0,0,0,0,0,0,0,0,0,0,0,0,0,0,0,0,,,,,,0.0,,,,,,,
223,2925364,1745471522354,,,,,,,,,,,,,,,,,,,,,,,,,,,,,,,,,,0,0,0,0,0,0,0,0,0,0,0,0,0,0,0,0,,,,,,,,,,,,,
224,2925384,1745471522374,0.0,-71.0,13.58,-0.09,0.18,1.28,0.0,0.0,0.0,1.3,1.3,100.0,4504.0,15.7,4.02,15.0,13.01,1.138,82.6,167.0,41.3,5.0,14.0,0.0,14.0,15.0,0.0,75.0,0.0,0.0,2.28,0.0,1.0,0,0,0,0,0,0,0,0,0,0,0,0,0,0,0,0,0.0,0.0,1.0,0.0,0.0,0.0,38.993816,-76.938942,22.17,25.6,34.0,3.0,0.8
225,2925404,1745471522394,,,,,,,,,,,,,,,,,,,,,,,,,,,,,,,,,,0,0,0,0,0,0,0,0,0,0,0,0,0,0,0,0,,,,,,,,,,,,,
226,2925424,1745471522414,0.0,-51.0,,-0.11,0.26,1.39,1.0,0.0,0.0,1.41,1.41,100.0,4499.0,15.9,4.04,,13.08,1.118,82.6,,41.3,5.0,,,,,,,,,,,,0,0,0,0,0,0,0,0,0,0,0,0,0,0,0,0,,,,,,0.0,,,,,,,
227,2925444,1745471522434,,,,,,,,,,,,,,,,,,,,,,,,,,,,,,,,,,0,0,0,0,0,0,0,0,0,0,0,0,0,0,0,0,,,,,,,,,,,,,
228,2925464,1745471522454,0.0,-61.0,,-0.14,0.36,1.43,2.0,0.0,1.0,1.48,1.48,100.0,4485.0,15.6,4.06,,13.08,1.094,82.6,,40.3,5.0,,,,,,,,,,,,0,0,0,0,0,0,0,0,0,0,0,0,0,0,0,0,,,,,,0.0,,,,,,,
229,2925484,1745471522474,,,,,,,,,,,,,,,,,,,,,,,14.0,0.0,14.0,14.0,0.0,19.0,0.0,0.0,2.28,,,0,0,0,0,0,0,0,0,0,0,0,0,0,0,0,0,,0.0,,,,,38.993816,-76.93895,22.38,25.7,34.0,3.0,0.8
230,2925504,1745471522494,0.0,-65.0,,-0.16,0.42,1.49,3.0,0.0,1.0,1.56,1.56,100.0,4517.0,15.3,4.06,,13.08,1.094,82.6,,40.3,5.0,,,,,,,,,,,,0,0,0,0,0,0,0,0,0,0,0,0,0,0,0,0,,,,,,0.0,,,,,,,
231,2925524,1745471522514,,,,,,,,,,,,,,,,,,,,,,,,,,,,,,,,,,0,0,0,0,0,0,0,0,0,0,0,0,0,0,0,0,,,,,,,,,,,,,
232,2925544,1745471522534,0.0,-65.0,,-0.17,0.33,1.46,2.0,0.0,1.0,1.51,1.56,97.0,4517.0,15.3,4.06,,13.09,1.098,82.6,,40.8,5.0,,,,,,,,,,,,0,0,0,0,0,0,0,0,0,0,0,0,0,0,0,0,,,,,,0.0,,,,,,,
233,2925564,1745471522554,,,,,,,,,,,,,,,,,,,,,,,,,,,,,,,,,,0,0,0,0,0,0,0,0,0,0,0,0,0,0,0,0,,,,,,,,,,,,,
234,2925584,1745471522574,0.0,-71.0,,-0.15,0.19,1.36,1.0,0.0,1.0,1.38,1.56,89.0,4723.0,15.3,4.07,,13.12,1.113,82.6,,40.8,5.0,13.0,0.0,13.0,14.0,0.0,14.0,0.0,0.0,2.29,,,0,0,0,0,0,0,0,0,0,0,0,0,0,0,0,0,,1.0,,,,0.0,38.993816,-76.938957,22.13,25.7,34.0,3.0,0.8
235,2925604,1745471522594,,,,,,,,,,,,,,,,,,,,,,,,,,,,,,,,,,0,0,0,0,0,0,0,0,0,0,0,0,0,0,0,0,,,,,,,,,,,,,
236,2925624,1745471522614,0.0,-71.0,,-0.13,0.21,1.32,1.0,-1.0,1.0,1.35,1.56,86.0,4762.0,15.3,4.07,,13.04,1.175,82.6,,40.8,5.0,,,,,,,,,,,,0,0,0,0,0,0,0,0,0,0,0,0,0,0,0,0,,,,,,0.0,,,,,,,
237,2925644,1745471522634,,,,,,,,,,,,,,,,,,,,,,,,,,,,,,,,,,0,0,0,0,0,0,0,0,0,0,0,0,0,0,0,0,,,,,,,,,,,,,
238,2925664,1745471522654,0.0,-71.0,,-0.14,0.26,1.36,2.0,0.0,1.0,1.39,1.56,89.0,4658.0,15.3,4.05,,13.03,1.127,82.6,,42.4,5.0,,,,,,,,,,,,0,0,0,0,0,0,0,0,0,0,0,0,0,0,0,0,,,,,,0.0,,,,,,,
239,2925684,1745471522674,,,,,,,,,,,,,,,,,,,,,,,14.0,0.0,14.0,14.0,0.0,247.0,0.0,0.0,2.29,,,0,0,0,0,0,0,0,0,0,0,0,0,0,0,0,0,,1.0,,,,,38.993816,-76.938965,21.84,25.7,34.0,3.0,0.8
240,2925704,1745471522694,0.0,-65.0,,-0.13,0.17,1.35,2.0,0.0,1.0,1.37,1.56,88.0,4544.0,15.3,4.04,,13.03,1.127,82.6,,42.4,5.0,,,,,,,,,,,,0,0,0,0,0,0,0,0,0,0,0,0,0,0,0,0,,,,,,0.0,,,,,,,
241,2925724,1745471522715,,,,,,,,,,,,,,,,,,,,,,,,,,,,,,,,,,0,0,0,0,0,0,0,0,0,0,0,0,0,0,0,0,,,,,,,,,,,,,
242,2925744,1745471522735,0.0,-68.0,,-0.1,0.01,1.29,0.0,0.0,1.0,1.29,1.56,83.0,4544.0,15.3,4.04,,13.0,1.098,82.6,,40.4,5.0,,,,,,,,,,,,0,0,0,0,0,0,0,0,0,0,0,0,0,0,0,0,,,,,,0.0,,,,,,,
243,2925764,1745471522755,,,,,,,,,,,,,,,,,,,,,,,,,,,,,,,,,,0,0,0,0,0,0,0,0,0,0,0,0,0,0,0,0,,,,,,,,,,,,,
244,2925784,1745471522775,0.0,-61.0,,-0.08,-0.09,1.27,0.0,0.0,2.0,1.28,1.56,82.0,4518.0,15.3,4.04,,13.08,1.117,82.6,,40.4,5.0,14.0,0.0,14.0,14.0,0.0,77.0,0.0,0.0,2.28,,,0,0,0,0,0,0,0,0,0,0,0,0,0,0,0,0,,0.0,,,,0.0,38.993816,-76.938972,21.57,25.7,34.0,3.0,0.8
245,2925804,1745471522795,,,,,,,,,,,,,,,,,,,,,,,,,,,,,,,,,,0,0,0,0,0,0,0,0,0,0,0,0,0,0,0,0,,,,,,,,,,,,,
246,2925824,1745471522815,0.0,-55.0,,-0.08,-0.12,1.29,0.0,-1.0,2.0,1.3,1.56,83.0,4468.0,15.6,4.02,,13.09,1.133,82.6,,40.4,5.0,,,,,,,,,,,,0,0,0,0,0,0,0,0,0,0,0,0,0,0,0,0,,,,,,0.0,,,,,,,
247,2925844,1745471522835,,,,,,,,,,,,,,,,,,,,,,,,,,,,,,,,,,0,0,0,0,0,0,0,0,0,0,0,0,0,0,0,0,,,,,,,,,,,,,
248,2925864,1745471522855,0.0,-71.0,,-0.08,-0.08,1.33,1.0,-1.0,2.0,1.34,1.56,86.0,4470.0,15.9,4.03,,13.11,1.131,82.6,,39.7,5.0,,,,,,,,,,,,0,0,0,0,0,0,0,0,0,0,0,0,0,0,0,0,,,,,,0.0,,,,,,,
249,2925884,1745471522875,,,,,,,,,,,,,,,,,,,,,,,14.0,0.0,13.0,13.0,0.0,9.0,0.0,0.0,2.28,,,0,0,0,0,0,0,0,0,0,0,0,0,0,0,0,0,,1.0,,,,,38.993816,-76.93898,21.52,25.7,34.0,3.0,0.8
250,2925904,1745471522895,0.0,-68.0,,-0.1,0.04,1.4,3.0,-1.0,2.0,1.4,1.56,90.0,4502.0,15.8,4.05,,13.11,1.131,82.6,,39.7,5.0,,,,,,,,,,,,0,0,0,0,0,0,0,0,0,0,0,0,0,0,0,0,,,,,,0.0,,,,,,,
251,2925924,1745471522915,,,,,,,,,,,,,,,,,,,,,,,,,,,,,,,,,,0,0,0,0,0,0,0,0,0,0,0,0,0,0,0,0,,,,,,,,,,,,,
252,2925944,1745471522935,0.0,-75.0,,-0.13,0.21,1.44,4.0,-1.0,2.0,1.46,1.56,93.0,4502.0,15.8,4.05,,13.13,1.143,82.6,,40.3,5.0,,,,,,,,,,,,0,0,0,0,0,0,0,0,0,0,0,0,0,0,0,0,,,,,,0.0,,,,,,,
253,2925964,1745471522955,,,,,,,,,,,,,,,,,,,,,,,,,,,,,,,,,,0,0,0,0,0,0,0,0,0,0,0,0,0,0,0,0,,,,,,,,,,,,,
254,2925984,1745471522975,0.0,-75.0,,-0.14,0.4,1.45,6.0,0.0,3.0,1.51,1.56,97.0,4486.0,15.5,4.05,,13.13,1.145,82.6,,40.3,5.0,13.0,0.0,13.0,13.0,0.0,50.0,0.0,0.0,2.29,,,0,0,0,0,0,0,0,0,0,0,0,0,0,0,0,0,,1.0,,,,0.0,38.993816,-76.93898,21.56,25.7,34.0,3.0,0.8
255,2926004,1745471522995,,,,,,,,,,,,,,,,,,,,,,,,,,,,,,,,,,0,0,0,0,0,0,0,0,0,0,0,0,0,0,0,0,,,,,,,,,,,,,
256,2926024,1745471523003,0.0,-85.0,,-0.16,0.48,1.45,8.0,0.0,3.0,1.54,1.56,99.0,4416.0,15.3,4.05,,13.13,1.164,82.6,,40.3,5.0,,,,,,,,,,,,0,0,0,0,0,0,0,0,0,0,0,0,0,0,0,0,,,,,,0.0,,,,,,,
257,2926044,1745471523023,,,,,,,,,,,,,,,,,,,,,,,,,,,,,,,,,,0,0,0,0,0,0,0,0,0,0,0,0,0,0,0,0,,,,,,,,,,,,,
258,2926064,1745471523043,0.0,-78.0,,-0.16,0.53,1.38,8.0,-1.0,3.0,1.49,1.56,96.0,4400.0,15.3,4.03,,13.08,1.169,82.6,,39.3,5.0,,,,,,,,,,,,0,0,0,0,0,0,0,0,0,0,0,0,0,0,0,0,,,,,,0.0,,,,,,,
259,2926084,1745471523063,,,,,,,,,,,,,,,,,,,,,,,13.0,0.0,13.0,13.0,0.0,36.0,0.0,0.0,2.29,,,0,0,0,0,0,0,0,0,0,0,0,0,0,0,0,0,,1.0,,,,,38.993816,-76.938988,21.08,25.8,34.0,3.0,0.8
260,2926104,1745471523083,0.0,-65.0,,-0.16,0.47,1.27,8.0,-1.0,2.0,1.36,1.56,87.0,4471.0,15.3,4.04,,13.08,1.169,82.6,,39.3,5.0,,,,,,,,,,,,0,0,0,0,0,0,0,0,0,0,0,0,0,0,0,0,,,,,,0.0,,,,,,,
261,2926124,1745471523103,,,,,,,,,,,,,,,,,,,,,,,,,,,,,,,,,,0,0,0,0,0,0,0,0,0,0,0,0,0,0,0,0,,,,,,,,,,,,,
262,2926144,1745471523123,0.0,-58.0,,-0.14,0.32,1.15,7.0,-1.0,1.0,1.2,1.56,77.0,4471.0,15.3,4.04,,13.11,1.158,82.6,,39.3,5.0,,,,,,,,,,,,0,0,0,0,0,0,0,0,0,0,0,0,0,0,0,0,,,,,,0.0,,,,,,,
263,2926164,1745471523143,,,,,,,,,,,,,,,,,,,,,,,,,,,,,,,,,,0,0,0,0,0,0,0,0,0,0,0,0,0,0,0,0,,,,,,,,,,,,,
264,2926184,1745471523163,0.0,-78.0,,-0.12,0.14,1.05,4.0,-1.0,1.0,1.07,1.56,69.0,4400.0,15.4,4.02,,13.2,1.165,82.6,,39.3,5.0,14.0,0.0,13.0,14.0,0.0,73.0,0.0,0.0,2.29,,,0,0,0,0,0,0,0,0,0,0,0,0,0,0,0,0,,1.0,,,,0.0,38.993816,-76.938995,21.12,25.8,34.0,3.0,0.8
265,2926204,1745471523183,,,,,,,,,,,,,,,,,,,,,,,,,,,,,,,,,,0,0,0,0,0,0,0,0,0,0,0,0,0,0,0,0,,,,,,,,,,,,,
266,2926224,1745471523211,0.0,-71.0,,-0.12,0.01,1.03,1.0,-1.0,0.0,1.04,1.56,67.0,4410.0,15.4,4.02,,13.16,1.171,82.6,,39.3,5.0,,,,,,,,,,,,0,0,0,0,0,0,0,0,0,0,0,0,0,0,0,0,,,,,,0.0,,,,,,,
267,2926244,1745471523231,,,,,,,,,,,,,,,,,,,,,,,,,,,,,,,,,,0,0,0,0,0,0,0,0,0,0,0,0,0,0,0,0,,,,,,,,,,,,,
268,2926264,1745471523251,0.0,-82.0,,-0.12,0.01,1.08,-1.0,-1.0,0.0,1.09,1.56,70.0,4403.0,15.5,4.04,,13.24,1.164,82.6,,39.5,5.0,,,,,,,,,,,,0,0,0,0,0,0,0,0,0,0,0,0,0,0,0,0,,,,,,0.0,,,,,,,
269,2926284,1745471523271,,,,,,,,,,,,,,,,,,,,,,,13.0,0.0,13.0,13.0,0.0,251.0,0.0,0.0,2.29,,,0,0,0,0,0,0,0,0,0,0,0,0,0,0,0,0,,1.0,,,,,38.993816,-76.939011,20.94,25.8,34.0,3.0,0.8
270,2926304,1745471523291,0.0,-71.0,,-0.12,0.1,1.21,1.0,-2.0,1.0,1.22,1.56,78.0,4334.0,15.7,4.03,,13.24,1.164,82.6,,39.5,5.0,,,,,,,,,,,,0,0,0,0,0,0,0,0,0,0,0,0,0,0,0,0,,,,,,0.0,,,,,,,
271,2926324,1745471523315,,,,,,,,,,,,,,,,,,,,,,,,,,,,,,,,,,0,0,0,0,0,0,0,0,0,0,0,0,0,0,0,0,,,,,,,,,,,,,
272,2926344,1745471523335,0.0,-71.0,,-0.14,0.19,1.19,3.0,-2.0,1.0,1.21,1.56,78.0,4334.0,15.7,4.03,,13.23,1.159,82.6,,38.3,5.0,,,,,,,,,,,,0,0,0,0,0,0,0,0,0,0,0,0,0,0,0,0,,,,,,0.0,,,,,,,
273,2926364,1745471523355,,,,,,,,,,,,,,,,,,,,,,,,,,,,,,,,,,0,0,0,0,0,0,0,0,0,0,0,0,0,0,0,0,,,,,,,,,,,,,
274,2926384,1745471523375,0.0,-82.0,13.62,-0.13,0.12,1.08,2.0,-1.0,1.0,1.09,1.56,70.0,4327.0,15.9,4.03,15.0,13.19,1.169,82.6,167.0,38.3,5.0,13.0,0.0,13.0,13.0,0.0,31.0,0.0,0.0,2.29,0.0,1.0,0,0,0,0,0,0,0,0,0,0,0,0,0,0,0,0,0.0,1.0,1.0,0.0,0.0,0.0,38.993816,-76.939018,21.06,25.8,34.0,3.0,0.8
275,2926404,1745471523395,,,,,,,,,,,,,,,,,,,,,,,,,,,,,,,,,,0,0,0,0,0,0,0,0,0,0,0,0,0,0,0,0,,,,,,,,,,,,,
276,2926424,1745471523413,0.0,-75.0,,-0.12,0.0,1.0,0.0,-1.0,0.0,1.0,1.0,100.0,4373.0,15.7,4.03,,13.16,1.159,82.6,,38.3,5.0,,,,,,,,,,,,0,0,0,0,0,0,0,0,0,0,0,0,0,0,0,0,,,,,,0.0,,,,,,,
277,2926444,1745471523433,,,,,,,,,,,,,,,,,,,,,,,,,,,,,,,,,,0,0,0,0,0,0,0,0,0,0,0,0,0,0,0,0,,,,,,,,,,,,,
278,2926464,1745471523453,0.0,-75.0,,-0.11,-0.03,1.0,-2.0,-1.0,0.0,1.0,1.0,100.0,4404.0,15.5,4.03,,13.21,1.16,82.6,,38.9,5.0,,,,,,,,,,,,0,0,0,0,0,0,0,0,0,0,0,0,0,0,0,0,,,,,,0.0,,,,,,,
279,2926484,1745471523473,,,,,,,,,,,,,,,,,,,,,,,13.0,0.0,13.0,13.0,0.0,216.0,0.0,0.0,2.29,,,0,0,0,0,0,0,0,0,0,0,0,0,0,0,0,0,,1.0,,,,,38.993816,-76.939018,20.81,25.8,34.0,3.0,0.8
280,2926504,1745471523493,0.0,-71.0,,-0.11,0.07,1.1,-1.0,-1.0,1.0,1.11,1.11,100.0,4328.0,15.5,4.02,,13.21,1.16,82.6,,38.9,5.0,,,,,,,,,,,,0,0,0,0,0,0,0,0,0,0,0,0,0,0,0,0,,,,,,0.0,,,,,,,
281,2926524,1745471523515,,,,,,,,,,,,,,,,,,,,,,,,,,,,,,,,,,0,0,0,0,0,0,0,0,0,0,0,0,0,0,0,0,,,,,,,,,,,,,
282,2926544,1745471523535,0.0,-75.0,,-0.13,0.14,1.09,1.0,-1.0,1.0,1.11,1.11,100.0,4328.0,15.5,4.02,,13.23,1.171,82.6,,38.3,5.0,,,,,,,,,,,,0,0,0,0,0,0,0,0,0,0,0,0,0,0,0,0,,,,,,0.0,,,,,,,
283,2926564,1745471523555,,,,,,,,,,,,,,,,,,,,,,,,,,,,,,,,,,0,0,0,0,0,0,0,0,0,0,0,0,0,0,0,0,,,,,,,,,,,,,
284,2926584,1745471523575,0.0,-82.0,,-0.12,0.07,0.98,0.0,-1.0,1.0,0.99,1.11,89.0,4304.0,15.4,4.03,,13.2,1.17,82.6,,38.3,5.0,13.0,0.0,13.0,13.0,0.0,26.0,0.0,0.0,2.3,,,0,0,0,0,0,0,0,0,0,0,0,0,0,0,0,0,,1.0,,,,0.0,38.993816,-76.939026,20.56,25.8,34.0,3.0,0.8
285,2926604,1745471523595,,,,,,,,,,,,,,,,,,,,,,,,,,,,,,,,,,0,0,0,0,0,0,0,0,0,0,0,0,0,0,0,0,,,,,,,,,,,,,
286,2926624,1745471523615,0.0,-85.0,,-0.1,-0.04,0.98,-2.0,-1.0,1.0,0.99,1.11,89.0,4310.0,15.4,4.03,,13.16,1.174,82.6,,38.3,5.0,,,,,,,,,,,,0,0,0,0,0,0,0,0,0,0,0,0,0,0,0,0,,,,,,0.0,,,,,,,
287,2926644,1745471523635,,,,,,,,,,,,,,,,,,,,,,,,,,,,,,,,,,0,0,0,0,0,0,0,0,0,0,0,0,0,0,0,0,,,,,,,,,,,,,
288,2926664,1745471523655,0.0,-82.0,,-0.11,-0.07,1.08,-2.0,-1.0,1.0,1.09,1.11,98.0,4329.0,15.5,4.02,,13.2,1.184,82.6,,38.1,5.0,,,,,,,,,,,,0,0,0,0,0,0,0,0,0,0,0,0,0,0,0,0,,,,,,0.0,,,,,,,
289,2926684,1745471523675,,,,,,,,,,,,,,,,,,,,,,,13.0,0.0,13.0,13.0,0.0,21.0,0.0,0.0,2.29,,,0,0,0,0,0,0,0,0,0,0,0,0,0,0,0,0,,1.0,,,,,38.993816,-76.939034,20.54,25.8,34.0,3.0,0.8
290,2926704,1745471523695,0.0,-75.0,,-0.11,0.0,1.1,0.0,-1.0,1.0,1.11,1.11,100.0,4343.0,15.5,4.02,,13.2,1.184,82.6,,38.1,5.0,,,,,,,,,,,,0,0,0,0,0,0,0,0,0,0,0,0,0,0,0,0,,,,,,0.0,,,,,,,
291,2926724,1745471523715,,,,,,,,,,,,,,,,,,,,,,,,,,,,,,,,,,0,0,0,0,0,0,0,0,0,0,0,0,0,0,0,0,,,,,,,,,,,,,
292,2926744,1745471523735,0.0,-78.0,,-0.1,-0.03,1.03,0.0,-1.0,1.0,1.03,1.11,93.0,4343.0,15.5,4.02,,13.24,1.182,82.6,,38.3,5.0,,,,,,,,,,,,0,0,0,0,0,0,0,0,0,0,0,0,0,0,0,0,,,,,,0.0,,,,,,,
293,2926764,1745471523755,,,,,,,,,,,,,,,,,,,,,,,,,,,,,,,,,,0,0,0,0,0,0,0,0,0,0,0,0,0,0,0,0,,,,,,,,,,,,,
294,2926784,1745471523775,0.0,-61.0,,-0.09,-0.14,0.97,-3.0,-1.0,1.0,0.99,1.11,89.0,4330.0,15.5,4.02,,13.27,1.173,82.6,,38.3,5.0,13.0,0.0,13.0,14.0,0.0,0.0,0.0,0.0,2.29,,,0,0,0,0,0,0,0,0,0,0,0,0,0,0,0,0,,0.0,,,,0.0,38.993816,-76.939041,20.55,25.8,34.0,3.0,0.8
295,2926804,1745471523795,,,,,,,,,,,,,,,,,,,,,,,,,,,,,,,,,,0,0,0,0,0,0,0,0,0,0,0,0,0,0,0,0,,,,,,,,,,,,,
296,2926824,1745471523814,0.0,-75.0,,-0.09,-0.08,1.06,-1.0,-1.0,1.0,1.07,1.11,96.0,4247.0,15.6,4.02,,13.24,1.169,82.6,,38.3,5.0,,,,,,,,,,,,0,0,0,0,0,0,0,0,0,0,0,0,0,0,0,0,,,,,,0.0,,,,,,,
297,2926844,1745471523834,,,,,,,,,,,,,,,,,,,,,,,,,,,,,,,,,,0,0,0,0,0,0,0,0,0,0,0,0,0,0,0,0,,,,,,,,,,,,,
298,2926864,1745471523854,0.0,-85.0,,-0.1,0.0,1.03,0.0,-1.0,1.0,1.03,1.11,93.0,4247.0,15.9,4.02,,13.19,1.173,82.6,,37.6,5.0,,,,,,,,,,,,0,0,0,0,0,0,0,0,0,0,0,0,0,0,0,0,,,,,,0.0,,,,,,,
299,2926884,1745471523874,,,,,,,,,,,,,,,,,,,,,,,13.0,0.0,13.0,13.0,0.0,10.0,0.0,0.0,2.29,,,0,0,0,0,0,0,0,0,0,0,0,0,0,0,0,0,,1.0,,,,,38.993816,-76.939049,20.37,25.8,34.0,3.0,0.8
300,2926904,1745471523894,0.0,-68.0,,-0.08,-0.12,0.94,-2.0,-1.0,1.0,0.95,1.11,86.0,4300.0,15.6,4.02,,13.19,1.173,82.6,,37.6,5.0,,,,,,,,,,,,0,0,0,0,0,0,0,0,0,0,0,0,0,0,0,0,,,,,,0.0,,,,,,,
301,2926924,1745471523916,,,,,,,,,,,,,,,,,,,,,,,,,,,,,,,,,,0,0,0,0,0,0,0,0,0,0,0,0,0,0,0,0,,,,,,,,,,,,,
302,2926944,1745471523936,0.0,-75.0,,-0.1,-0.1,1.0,-2.0,-1.0,2.0,1.01,1.11,91.0,4300.0,15.6,4.02,,13.17,1.17,82.6,,38.2,5.0,,,,,,,,,,,,0,0,0,0,0,0,0,0,0,0,0,0,0,0,0,0,,,,,,0.0,,,,,,,
303,2926964,1745471523956,,,,,,,,,,,,,,,,,,,,,,,,,,,,,,,,,,0,0,0,0,0,0,0,0,0,0,0,0,0,0,0,0,,,,,,,,,,,,,
304,2926984,1745471523976,0.0,-82.0,,-0.11,0.01,0.99,0.0,-1.0,2.0,1.0,1.11,90.0,4258.0,15.4,4.01,,13.23,1.17,82.6,,38.2,5.0,13.0,0.0,13.0,13.0,0.0,216.0,0.0,0.0,2.29,,,0,0,0,0,0,0,0,0,0,0,0,0,0,0,0,0,,1.0,,,,0.0,38.993816,-76.939056,20.33,25.9,34.0,3.0,0.8
305,2927004,1745471523996,,,,,,,,,,,,,,,,,,,,,,,,,,,,,,,,,,0,0,0,0,0,0,0,0,0,0,0,0,0,0,0,0,,,,,,,,,,,,,
306,2927024,1745471524006,0.0,-85.0,,-0.09,-0.09,0.92,-2.0,-1.0,1.0,0.93,1.11,83.0,4244.0,15.4,4.03,,13.27,1.191,82.6,,38.2,5.0,,,,,,,,,,,,0,0,0,0,0,0,0,0,0,0,0,0,0,0,0,0,,,,,,0.0,,,,,,,
307,2927044,1745471524026,,,,,,,,,,,,,,,,,,,,,,,,,,,,,,,,,,0,0,0,0,0,0,0,0,0,0,0,0,0,0,0,0,,,,,,,,,,,,,
308,2927064,1745471524046,0.0,-75.0,,-0.09,-0.12,0.97,-4.0,0.0,1.0,0.98,1.11,89.0,4236.0,15.3,4.03,,13.21,1.19,82.6,,37.4,5.0,,,,,,,,,,,,0,0,0,0,0,0,0,0,0,0,0,0,0,0,0,0,,,,,,0.0,,,,,,,
309,2927084,1745471524066,,,,,,,,,,,,,,,,,,,,,,,12.0,0.0,13.0,13.0,0.0,241.0,0.0,0.0,2.3,,,0,0,0,0,0,0,0,0,0,0,0,0,0,0,0,0,,1.0,,,,,38.993816,-76.939056,20.27,25.9,34.0,3.0,0.8
310,2927104,1745471524086,0.0,-71.0,,-0.11,-0.07,1.03,-3.0,0.0,1.0,1.04,1.11,94.0,4277.0,15.2,4.01,,13.21,1.19,82.6,,37.4,5.0,,,,,,,,,,,,0,0,0,0,0,0,0,0,0,0,0,0,0,0,0,0,,,,,,0.0,,,,,,,
311,2927124,1745471524112,,,,,,,,,,,,,,,,,,,,,,,,,,,,,,,,,,0,0,0,0,0,0,0,0,0,0,0,0,0,0,0,0,,,,,,,,,,,,,
312,2927144,1745471524132,0.0,-51.0,,-0.11,-0.16,0.95,-4.0,0.0,1.0,0.97,1.11,87.0,4277.0,15.2,4.01,,13.24,1.202,82.6,,37.2,5.0,,,,,,,,,,,,0,0,0,0,0,0,0,0,0,0,0,0,0,0,0,0,,,,,,0.0,,,,,,,
313,2927164,1745471524152,,,,,,,,,,,,,,,,,,,,,,,,,,,,,,,,,,0,0,0,0,0,0,0,0,0,0,0,0,0,0,0,0,,,,,,,,,,,,,
314,2927184,1745471524172,0.0,-65.0,,-0.1,-0.13,1.01,-4.0,-1.0,1.0,1.03,1.11,92.0,4265.0,15.1,4.0,,13.23,1.2,82.6,,37.2,5.0,13.0,0.0,13.0,13.0,0.0,5.0,0.0,0.0,2.29,,,0,0,0,0,0,0,0,0,0,0,0,0,0,0,0,0,,0.0,,,,0.0,38.993816,-76.939064,20.09,25.9,34.0,3.0,0.8
315,2927204,1745471524192,,,,,,,,,,,,,,,,,,,,,,,,,,,,,,,,,,0,0,0,0,0,0,0,0,0,0,0,0,0,0,0,0,,,,,,,,,,,,,
316,2927224,1745471524214,0.0,-75.0,,-0.12,-0.05,0.99,-4.0,-1.0,1.0,1.0,1.11,90.0,4159.0,14.9,4.0,,13.27,1.197,82.6,,37.2,5.0,,,,,,,,,,,,0,0,0,0,0,0,0,0,0,0,0,0,0,0,0,0,,,,,,0.0,,,,,,,
317,2927244,1745471524234,,,,,,,,,,,,,,,,,,,,,,,,,,,,,,,,,,0,0,0,0,0,0,0,0,0,0,0,0,0,0,0,0,,,,,,,,,,,,,
318,2927264,1745471524254,0.0,-75.0,,-0.13,-0.15,1.01,-7.0,-1.0,1.0,1.03,1.11,93.0,4134.0,14.7,3.99,,13.31,1.188,82.6,,36.6,5.0,,,,,,,,,,,,0,0,0,0,0,0,0,0,0,0,0,0,0,0,0,0,,,,,,0.0,,,,,,,
319,2927284,1745471524274,,,,,,,,,,,,,,,,,,,,,,,13.0,0.0,13.0,13.0,0.0,61.0,0.0,0.0,2.29,,,0,0,0,0,0,0,0,0,0,0,0,0,0,0,0,0,,1.0,,,,,38.993816,-76.939072,20.09,25.9,34.0,3.0,0.8
320,2927304,1745471524294,0.0,-65.0,,-0.13,-0.12,1.05,-6.0,-1.0,1.0,1.06,1.11,96.0,4220.0,15.0,3.99,,13.31,1.188,82.6,,36.6,5.0,,,,,,,,,,,,0,0,0,0,0,0,0,0,0,0,0,0,0,0,0,0,,,,,,0.0,,,,,,,
321,2927324,1745471524316,,,,,,,,,,,,,,,,,,,,,,,,,,,,,,,,,,0,0,0,0,0,0,0,0,0,0,0,0,0,0,0,0,,,,,,,,,,,,,
322,2927344,1745471524336,0.0,-55.0,,-0.11,-0.24,0.95,-8.0,-1.0,1.0,0.99,1.11,89.0,4220.0,15.0,3.99,,13.21,1.187,82.6,,37.0,5.0,,,,,,,,,,,,0,0,0,0,0,0,0,0,0,0,0,0,0,0,0,0,,,,,,0.0,,,,,,,
323,2927364,1745471524356,,,,,,,,,,,,,,,,,,,,,,,,,,,,,,,,,,0,0,0,0,0,0,0,0,0,0,0,0,0,0,0,0,,,,,,,,,,,,,
324,2927384,1745471524376,0.0,-61.0,13.59,-0.09,-0.17,1.04,-7.0,-1.0,1.0,1.06,1.11,96.0,4236.0,15.3,3.99,15.0,13.23,1.197,82.6,167.0,37.0,5.0,12.0,0.0,12.0,13.0,0.0,246.0,0.0,0.0,2.29,0.0,1.0,0,0,0,0,0,0,0,0,0,0,0,0,0,0,0,0,0.0,1.0,1.0,0.0,0.0,0.0,38.993816,-76.939079,19.96,25.9,34.0,3.0,0.8
325,2927404,1745471524396,,,,,,,,,,,,,,,,,,,,,,,,,,,,,,,,,,0,0,0,0,0,0,0,0,0,0,0,0,0,0,0,0,,,,,,,,,,,,,
326,2927424,1745471524416,0.0,-55.0,,-0.11,-0.18,0.98,-9.0,-1.0,1.0,1.0,1.11,90.0,4154.0,15.0,4.0,,13.27,1.197,82.6,,37.0,5.0,,,,,,,,,,,,0,0,0,0,0,0,0,0,0,0,0,0,0,0,0,0,,,,,,0.0,,,,,,,
327,2927444,1745471524436,,,,,,,,,,,,,,,,,,,,,,,,,,,,,,,,,,0,0,0,0,0,0,0,0,0,0,0,0,0,0,0,0,,,,,,,,,,,,,
328,2927464,1745471524456,0.0,-48.0,,-0.09,-0.25,1.02,-11.0,-1.0,1.0,1.06,1.11,95.0,4126.0,14.8,3.99,,13.16,1.189,82.6,,36.6,5.0,,,,,,,,,,,,0,0,0,0,0,0,0,0,0,0,0,0,0,0,0,0,,,,,,0.0,,,,,,,
329,2927484,1745471524476,,,,,,,,,,,,,,,,,,,,,,,12.0,0.0,12.0,14.0,0.0,0.0,0.0,0.0,2.29,,,0,0,0,0,0,0,0,0,0,0,0,0,0,0,0,0,,0.0,,,,,38.993816,-76.939087,19.76,25.9,34.0,3.0,0.8
330,2927504,1745471524496,0.0,-48.0,,-0.12,-0.23,0.98,-12.0,-1.0,1.0,1.02,1.11,92.0,4121.0,14.6,3.99,,13.16,1.189,82.6,,36.6,5.0,,,,,,,,,,,,0,0,0,0,0,0,0,0,0,0,0,0,0,0,0,0,,,,,,0.0,,,,,,,
331,2927524,1745471524516,,,,,,,,,,,,,,,,,,,,,,,,,,,,,,,,,,0,0,0,0,0,0,0,0,0,0,0,0,0,0,0,0,,,,,,,,,,,,,
332,2927544,1745471524536,0.0,-41.0,,-0.13,-0.24,1.02,-13.0,-1.0,1.0,1.05,1.11,95.0,4121.0,14.6,3.99,,13.2,1.197,82.6,,35.7,5.0,,,,,,,,,,,,0,0,0,0,0,0,0,0,0,0,0,0,0,0,0,0,,,,,,0.0,,,,,,,
333,2927564,1745471524556,,,,,,,,,,,,,,,,,,,,,,,,,,,,,,,,,,0,0,0,0,0,0,0,0,0,0,0,0,0,0,0,0,,,,,,,,,,,,,
334,2927584,1745471524576,0.0,-55.0,,-0.15,-0.23,0.95,-13.0,-1.0,1.0,0.99,1.11,89.0,4145.0,14.4,3.98,,13.2,1.203,82.6,,35.7,5.0,12.0,13.0,12.0,13.0,0.0,59.0,0.0,0.0,2.3,,,0,0,0,0,0,0,0,0,0,0,0,0,0,0,0,0,,0.0,,,,0.0,38.993816,-76.939095,19.68,25.9,34.0,3.0,0.8
335,2927604,1745471524596,,,,,,,,,,,,,,,,,,,,,,,,,,,,,,,,,,0,0,0,0,0,0,0,0,0,0,0,0,0,0,0,0,,,,,,,,,,,,,
336,2927624,1745471524616,0.0,-51.0,,-0.12,-0.26,0.99,-14.0,-1.0,1.0,1.03,1.11,93.0,4113.0,14.6,3.99,,13.23,1.2,82.6,,35.7,5.0,,,,,,,,,,,,0,0,0,0,0,0,0,0,0,0,0,0,0,0,0,0,,,,,,0.0,,,,,,,
337,2927644,1745471524636,,,,,,,,,,,,,,,,,,,,,,,,,,,,,,,,,,0,0,0,0,0,0,0,0,0,0,0,0,0,0,0,0,,,,,,,,,,,,,
338,2927664,1745471524656,0.0,-55.0,,-0.12,-0.23,0.94,-14.0,-1.0,0.0,0.97,1.11,87.0,4096.0,14.7,3.99,,13.13,1.203,82.6,,36.1,5.0,,,,,,,,,,,,0,0,0,0,0,0,0,0,0,0,0,0,0,0,0,0,,,,,,0.0,,,,,,,
339,2927684,1745471524676,,,,,,,,,,,,,,,,,,,,,,,12.0,13.0,12.0,13.0,0.0,216.0,0.0,0.0,2.29,,,0,0,0,0,0,0,0,0,0,0,0,0,0,0,0,0,,0.0,,,,,38.993816,-76.939102,19.59,25.9,34.0,3.0,0.8
340,2927704,1745471524696,0.0,-44.0,,-0.12,-0.24,1.01,-15.0,-1.0,1.0,1.04,1.11,94.0,4120.0,14.6,3.98,,13.13,1.203,82.6,,36.1,5.0,,,,,,,,,,,,0,0,0,0,0,0,0,0,0,0,0,0,0,0,0,0,,,,,,0.0,,,,,,,
341,2927724,1745471524716,,,,,,,,,,,,,,,,,,,,,,,,,,,,,,,,,,0,0,0,0,0,0,0,0,0,0,0,0,0,0,0,0,,,,,,,,,,,,,
342,2927744,1745471524736,0.0,-38.0,,-0.13,-0.26,0.97,-17.0,0.0,1.0,1.02,1.11,91.0,4120.0,14.6,3.98,,13.21,1.204,82.6,,36.0,5.0,,,,,,,,,,,,0,0,0,0,0,0,0,0,0,0,0,0,0,0,0,0,,,,,,0.0,,,,,,,
343,2927764,1745471524756,,,,,,,,,,,,,,,,,,,,,,,,,,,,,,,,,,0,0,0,0,0,0,0,0,0,0,0,0,0,0,0,0,,,,,,,,,,,,,
344,2927784,1745471524776,0.0,-34.0,,-0.13,-0.2,1.06,-17.0,0.0,1.0,1.09,1.11,98.0,4076.0,14.5,3.98,,13.28,1.206,82.6,,36.0,5.0,12.0,12.0,12.0,13.0,0.0,174.0,0.0,0.0,2.29,,,0,0,0,0,0,0,0,0,0,0,0,0,0,0,0,0,,0.0,,,,0.0,38.993816,-76.939102,19.38,25.9,34.0,3.0,0.8
345,2927804,1745471524796,,,,,,,,,,,,,,,,,,,,,,,,,,,,,,,,,,0,0,0,0,0,0,0,0,0,0,0,0,0,0,0,0,,,,,,,,,,,,,
346,2927824,1745471524817,0.0,-38.0,,-0.15,-0.27,0.97,-20.0,0.0,1.0,1.02,1.11,92.0,4076.0,14.8,3.98,,13.19,1.202,82.6,,36.0,5.0,,,,,,,,,,,,0,0,0,0,0,0,0,0,0,0,0,0,0,0,0,0,,,,,,0.0,,,,,,,
347,2927844,1745471524837,,,,,,,,,,,,,,,,,,,,,,,,,,,,,,,,,,0,0,0,0,0,0,0,0,0,0,0,0,0,0,0,0,,,,,,,,,,,,,
348,2927864,1745471524857,0.0,-41.0,,-0.15,-0.18,1.04,-18.0,0.0,1.0,1.07,1.11,96.0,4100.0,15.1,3.99,,13.2,1.192,82.6,,35.3,5.0,,,,,,,,,,,,0,0,0,0,0,0,0,0,0,0,0,0,0,0,0,0,,,,,,0.0,,,,,,,
349,2927884,1745471524877,,,,,,,,,,,,,,,,,,,,,,,12.0,13.0,12.0,13.0,0.0,50.0,0.0,0.0,2.29,,,0,0,0,0,0,0,0,0,0,0,0,0,0,0,0,0,,0.0,,,,,38.99382,-76.93911,19.38,25.9,34.0,3.0,0.8
350,2927904,1745471524897,0.0,-44.0,,-0.16,-0.25,0.97,-21.0,0.0,1.0,1.02,1.11,91.0,4105.0,14.9,3.98,,13.2,1.192,82.6,,35.3,5.0,,,,,,,,,,,,0,0,0,0,0,0,0,0,0,0,0,0,0,0,0,0,,,,,,0.0,,,,,,,
351,2927924,1745471524917,,,,,,,,,,,,,,,,,,,,,,,,,,,,,,,,,,0,0,0,0,0,0,0,0,0,0,0,0,0,0,0,0,,,,,,,,,,,,,
352,2927944,1745471524937,0.0,-27.0,,-0.15,-0.25,1.0,-20.0,0.0,1.0,1.04,1.11,94.0,4105.0,14.9,3.98,,13.27,1.189,82.6,,35.6,5.0,,,,,,,,,,,,0,0,0,0,0,0,0,0,0,0,0,0,0,0,0,0,,,,,,0.0,,,,,,,
353,2927964,1745471524957,,,,,,,,,,,,,,,,,,,,,,,,,,,,,,,,,,0,0,0,0,0,0,0,0,0,0,0,0,0,0,0,0,,,,,,,,,,,,,
354,2927984,1745471524977,0.0,-48.0,,-0.15,-0.27,1.02,-21.0,0.0,1.0,1.06,1.11,96.0,4026.0,14.6,3.98,,13.32,1.187,82.6,,35.6,5.0,12.0,13.0,12.0,13.0,0.0,29.0,0.0,0.0,2.29,,,0,0,0,0,0,0,0,0,0,0,0,0,0,0,0,0,,0.0,,,,0.0,38.99382,-76.939117,19.14,26.0,34.0,3.0,0.8
355,2928004,1745471524997,,,,,,,,,,,,,,,,,,,,,,,,,,,,,,,,,,0,0,0,0,0,0,0,0,0,0,0,0,0,0,0,0,,,,,,,,,,,,,
356,2928024,1745471525009,0.0,-38.0,,-0.17,-0.32,0.95,-22.0,0.0,1.0,1.02,1.11,92.0,4067.0,14.5,3.99,,13.28,1.185,82.6,,35.6,5.0,,,,,,,,,,,,0,0,0,0,0,0,0,0,0,0,0,0,0,0,0,0,,,,,,0.0,,,,,,,
357,2928044,1745471525029,,,,,,,,,,,,,,,,,,,,,,,,,,,,,,,,,,0,0,0,0,0,0,0,0,0,0,0,0,0,0,0,0,,,,,,,,,,,,,
358,2928064,1745471525049,0.0,-34.0,,-0.16,-0.31,0.96,-20.0,0.0,1.0,1.02,1.11,92.0,4066.0,14.6,3.99,,13.29,1.199,82.6,,35.2,5.0,,,,,,,,,,,,0,0,0,0,0,0,0,0,0,0,0,0,0,0,0,0,,,,,,0.0,,,,,,,
359,2928084,1745471525069,,,,,,,,,,,,,,,,,,,,,,,12.0,15.0,12.0,13.0,0.0,39.0,0.0,0.0,2.3,,,0,0,0,0,0,0,0,0,0,0,0,0,0,0,0,0,,1.0,,,,,38.99382,-76.939117,19.15,26.0,34.0,3.0,0.8
360,2928104,1745471525089,0.0,-41.0,,-0.16,-0.33,0.95,-22.0,0.0,0.0,1.02,1.11,91.0,4003.0,14.7,3.99,,13.29,1.199,80.8,,35.2,5.0,,,,,,,,,,,,0,0,0,0,0,0,0,0,0,0,0,0,0,0,0,0,,,,,,0.0,,,,,,,
361,2928124,1745471525118,,,,,,,,,,,,,,,,,,,,,,,,,,,,,,,,,,0,0,0,0,0,0,0,0,0,0,0,0,0,0,0,0,,,,,,,,,,,,,
362,2928144,1745471525138,0.0,-31.0,,-0.17,-0.36,0.87,-22.0,0.0,0.0,0.96,1.11,86.0,4003.0,14.7,3.99,,13.29,1.195,80.8,,34.6,5.0,,,,,,,,,,,,0,0,0,0,0,0,0,0,0,0,0,0,0,0,0,0,,,,,,0.0,,,,,,,
363,2928164,1745471525158,,,,,,,,,,,,,,,,,,,,,,,,,,,,,,,,,,0,0,0,0,0,0,0,0,0,0,0,0,0,0,0,0,,,,,,,,,,,,,
364,2928184,1745471525178,0.0,-38.0,,-0.15,-0.31,0.95,-21.0,0.0,1.0,1.01,1.11,91.0,4046.0,14.7,3.99,,13.36,1.176,80.8,,34.6,5.0,11.0,13.0,12.0,13.0,0.0,219.0,0.0,0.0,2.29,,,0,0,0,0,0,0,0,0,0,0,0,0,0,0,0,0,,0.0,,,,0.0,38.993824,-76.939125,19.17,26.0,34.0,3.0,0.8
365,2928204,1745471525198,,,,,,,,,,,,,,,,,,,,,,,,,,,,,,,,,,0,0,0,0,0,0,0,0,0,0,0,0,0,0,0,0,,,,,,,,,,,,,
366,2928224,1745471525217,0.0,-44.0,,-0.14,-0.37,0.95,-23.0,1.0,1.0,1.03,1.03,100.0,4034.0,14.8,3.99,,13.29,1.167,80.8,,34.6,5.0,,,,,,,,,,,,0,0,0,0,0,0,0,0,0,0,0,0,0,0,0,0,,,,,,0.0,,,,,,,
367,2928244,1745471525237,,,,,,,,,,,,,,,,,,,,,,,,,,,,,,,,,,0,0,0,0,0,0,0,0,0,0,0,0,0,0,0,0,,,,,,,,,,,,,
368,2928264,1745471525257,0.0,-44.0,,-0.16,-0.35,0.91,-21.0,1.0,1.0,0.99,1.03,96.0,3978.0,14.8,3.99,,13.37,1.172,80.8,,34.7,5.0,,,,,,,,,,,,0,0,0,0,0,0,0,0,0,0,0,0,0,0,0,0,,,,,,0.0,,,,,,,
369,2928284,1745471525277,,,,,,,,,,,,,,,,,,,,,,,11.0,12.0,12.0,12.0,0.0,144.0,0.0,0.0,2.29,,,0,0,0,0,0,0,0,0,0,0,0,0,0,0,0,0,,0.0,,,,,38.993828,-76.939133,18.91,26.0,34.0,3.0,0.8
370,2928304,1745471525297,0.0,-38.0,,-0.15,-0.32,0.96,-21.0,1.0,1.0,1.03,1.03,100.0,3995.0,15.0,3.99,,13.37,1.172,80.8,,34.7,5.0,,,,,,,,,,,,0,0,0,0,0,0,0,0,0,0,0,0,0,0,0,0,,,,,,0.0,,,,,,,
371,2928324,1745471525317,,,,,,,,,,,,,,,,,,,,,,,,,,,,,,,,,,0,0,0,0,0,0,0,0,0,0,0,0,0,0,0,0,,,,,,,,,,,,,
372,2928344,1745471525337,0.0,-41.0,,-0.15,-0.38,0.96,-22.0,1.0,1.0,1.04,1.04,100.0,3995.0,15.0,3.99,,13.4,1.176,80.8,,34.3,5.0,,,,,,,,,,,,0,0,0,0,0,0,0,0,0,0,0,0,0,0,0,0,,,,,,0.0,,,,,,,
373,2928364,1745471525357,,,,,,,,,,,,,,,,,,,,,,,,,,,,,,,,,,0,0,0,0,0,0,0,0,0,0,0,0,0,0,0,0,,,,,,,,,,,,,
