,Interval,Utc,FrontBP,SteerAng,Battery,AccelX,AccelY,AccelZ,Yaw,Pitch,Roll,Gsum,GsumMax,GsumPct,RPM,TPS,InjectorPW,Baro,MAP,Lambda,IAT,EngineTemp,EOP,EOT,WSFR,WSFL,WSRR,WSRL,TCSet,TCSlip,TCComp,TCCut,Analog8,OilTemp,AA_On,ThermLF1,ThermLF2,ThermRR1,ThermRR2,ThermLF3,ThermLF4,ThermLF5,ThermLF6,ThermLF7,ThermLF8,ThermRR3,ThermRR4,ThermRR5,ThermRR6,ThermRR7,ThermRR8,AA_LowDrag,Gear,AA_On1,AA_LowDrag1,Fuel_Mix,AA_Packages,Latitude,Longitude,Speed,Altitude,GPSSats,GPSQual,GPSDOP
0,3300304,1745471897301,0.0,30.0,,-0.11,0.17,1.21,0.0,0.0,1.0,1.22,1.22,100.0,4617.0,29.8,5.58,,13.65,1.249,88.0,,43.3,5.0,,,,,,,,,,,,0,0,0,0,0,0,0,0,0,0,0,0,0,0,0,0,,,,,,0.0,,,,,,,
1,3300324,1745471897321,,,,,,,,,,,,,,,,,,,,,,,,,,,,,,,,,,0,0,0,0,0,0,0,0,0,0,0,0,0,0,0,0,,,,,,,,,,,,,
2,3300344,1745471897341,0.0,47.0,,-0.1,0.1,1.17,1.0,0.0,1.0,1.18,1.22,96.0,4906.0,16.4,4.72,,13.65,1.249,88.0,,46.7,5.0,,,,,,,,,,,,0,0,0,0,0,0,0,0,0,0,0,0,0,0,0,0,,,,,,0.0,,,,,,,
3,3300364,1745471897361,,,,,,,,,,,,,,,,,,,,,,,,,,,,,,,,,,0,0,0,0,0,0,0,0,0,0,0,0,0,0,0,0,,,,,,,,,,,,,
4,3300384,1745471897381,0.0,34.0,13.41,-0.11,0.11,1.14,1.0,0.0,0.0,1.15,1.22,94.0,4906.0,16.4,4.72,15.0,13.25,1.249,88.0,153.0,46.7,5.0,0.0,0.0,0.0,0.0,0.0,0.0,0.0,0.0,2.28,0.0,1.0,0,0,0,0,0,0,0,0,0,0,0,0,0,0,0,0,0.0,0.0,1.0,0.0,0.0,0.0,38.994099,-76.939652,0.04,27.1,33.0,3.0,0.9
5,3300404,1745471897401,,,,,,,,,,,,,,,,,,,,,,,,,,,,,,,,,,0,0,0,0,0,0,0,0,0,0,0,0,0,0,0,0,,,,,,,,,,,,,
6,3300424,1745471897421,0.0,37.0,,-0.11,0.15,1.1,1.0,0.0,0.0,1.11,1.22,91.0,5196.0,3.5,3.99,,12.12,1.248,88.0,,48.1,5.0,,,,,,,,,,,,0,0,0,0,0,0,0,0,0,0,0,0,0,0,0,0,,,,,,0.0,,,,,,,
7,3300444,1745471897441,,,,,,,,,,,,,,,,,,,,,,,,,,,,,,,,,,0,0,0,0,0,0,0,0,0,0,0,0,0,0,0,0,,,,,,,,,,,,,
8,3300464,1745471897461,0.0,41.0,,-0.1,0.14,1.07,0.0,0.0,0.0,1.08,1.22,88.0,5291.0,0.0,2.4,,11.22,1.25,88.0,,48.1,5.0,,,,,,,,,,,,0,0,0,0,0,0,0,0,0,0,0,0,0,0,0,0,,,,,,0.0,,,,,,,
9,3300484,1745471897481,,,,,,,,,,,,,,,,,,,,,,,0.0,0.0,0.0,0.0,0.0,0.0,0.0,0.0,2.28,,,0,0,0,0,0,0,0,0,0,0,0,0,0,0,0,0,,0.0,,,,,38.994099,-76.939652,0.11,27.1,33.0,3.0,0.9
10,3300504,1745471897501,0.0,37.0,,-0.11,0.16,1.04,0.0,0.0,0.0,1.05,1.22,86.0,5155.0,0.0,1.83,,10.69,1.183,88.0,,48.1,5.0,,,,,,,,,,,,0,0,0,0,0,0,0,0,0,0,0,0,0,0,0,0,,,,,,0.0,,,,,,,
11,3300524,1745471897521,,,,,,,,,,,,,,,,,,,,,,,,,,,,,,,,,,0,0,0,0,0,0,0,0,0,0,0,0,0,0,0,0,,,,,,,,,,,,,
12,3300544,1745471897541,0.0,41.0,,-0.12,0.12,1.04,0.0,0.0,0.0,1.05,1.22,86.0,0.0,0.0,1.62,,10.69,1.183,88.0,,47.6,5.0,,,,,,,,,,,,0,0,0,0,0,0,0,0,0,0,0,0,0,0,0,0,,,,,,0.0,,,,,,,
13,3300564,1745471897561,,,,,,,,,,,,,,,,,,,,,,,,,,,,,,,,,,0,0,0,0,0,0,0,0,0,0,0,0,0,0,0,0,,,,,,,,,,,,,
14,3300584,1745471897581,0.0,24.0,,-0.09,0.09,1.04,0.0,0.0,0.0,1.04,1.22,85.0,0.0,0.0,1.62,,10.36,1.172,88.0,,47.6,5.0,0.0,0.0,0.0,0.0,0.0,0.0,0.0,0.0,2.27,,,0,0,0,0,0,0,0,0,0,0,0,0,0,0,0,0,,0.0,,,,0.0,38.994099,-76.939652,0.1,27.1,33.0,3.0,0.9
15,3300604,1745471897601,,,,,,,,,,,,,,,,,,,,,,,,,,,,,,,,,,0,0,0,0,0,0,0,0,0,0,0,0,0,0,0,0,,,,,,,,,,,,,
16,3300624,1745471897621,0.0,24.0,,-0.11,0.14,1.1,0.0,0.0,0.0,1.12,1.22,91.0,4843.0,0.3,2.04,,10.32,1.246,88.0,,46.5,5.0,,,,,,,,,,,,0,0,0,0,0,0,0,0,0,0,0,0,0,0,0,0,,,,,,0.0,,,,,,,
17,3300644,1745471897641,,,,,,,,,,,,,,,,,,,,,,,,,,,,,,,,,,0,0,0,0,0,0,0,0,0,0,0,0,0,0,0,0,,,,,,,,,,,,,
18,3300664,1745471897661,0.0,20.0,,-0.14,0.15,1.15,-1.0,0.0,1.0,1.17,1.22,96.0,4559.0,0.3,2.15,,10.25,1.251,88.0,,46.5,5.0,,,,,,,,,,,,0,0,0,0,0,0,0,0,0,0,0,0,0,0,0,0,,,,,,0.0,,,,,,,
19,3300684,1745471897681,,,,,,,,,,,,,,,,,,,,,,,0.0,0.0,0.0,0.0,0.0,0.0,0.0,0.0,2.27,,,0,0,0,0,0,0,0,0,0,0,0,0,0,0,0,0,,0.0,,,,,38.994099,-76.939652,0.07,27.1,33.0,3.0,0.9
20,3300704,1745471897701,0.0,27.0,,-0.14,0.2,1.18,0.0,0.0,1.0,1.21,1.22,99.0,4318.0,0.3,2.16,,10.36,1.25,88.0,,46.5,5.0,,,,,,,,,,,,0,0,0,0,0,0,0,0,0,0,0,0,0,0,0,0,,,,,,0.0,,,,,,,
21,3300724,1745471897721,,,,,,,,,,,,,,,,,,,,,,,,,,,,,,,,,,0,0,0,0,0,0,0,0,0,0,0,0,0,0,0,0,,,,,,,,,,,,,
22,3300744,1745471897741,0.0,41.0,,-0.13,0.12,1.17,-1.0,0.0,1.0,1.18,1.22,97.0,4020.0,0.2,2.19,,10.36,1.25,88.0,,41.4,5.0,,,,,,,,,,,,0,0,0,0,0,0,0,0,0,0,0,0,0,0,0,0,,,,,,0.0,,,,,,,
23,3300764,1745471897761,,,,,,,,,,,,,,,,,,,,,,,,,,,,,,,,,,0,0,0,0,0,0,0,0,0,0,0,0,0,0,0,0,,,,,,,,,,,,,
24,3300784,1745471897781,0.0,41.0,,-0.13,0.1,1.14,-1.0,0.0,1.0,1.15,1.22,94.0,4020.0,0.2,2.19,,10.46,1.249,88.0,,41.4,5.0,0.0,0.0,0.0,0.0,0.0,0.0,0.0,0.0,2.27,,,0,0,0,0,0,0,0,0,0,0,0,0,0,0,0,0,,0.0,,,,0.0,38.994099,-76.939652,0.04,27.1,33.0,3.0,0.9
25,3300804,1745471897801,,,,,,,,,,,,,,,,,,,,,,,,,,,,,,,,,,0,0,0,0,0,0,0,0,0,0,0,0,0,0,0,0,,,,,,,,,,,,,
26,3300824,1745471897821,0.0,44.0,,-0.12,0.09,1.15,-1.0,0.0,1.0,1.16,1.22,95.0,3753.0,2.1,2.22,,10.81,1.248,88.0,,35.3,5.0,,,,,,,,,,,,0,0,0,0,0,0,0,0,0,0,0,0,0,0,0,0,,,,,,0.0,,,,,,,
27,3300844,1745471897841,,,,,,,,,,,,,,,,,,,,,,,,,,,,,,,,,,0,0,0,0,0,0,0,0,0,0,0,0,0,0,0,0,,,,,,,,,,,,,
28,3300864,1745471897861,0.0,41.0,,-0.1,0.11,1.09,0.0,0.0,1.0,1.1,1.22,90.0,3552.0,16.4,4.7,,12.15,1.249,88.0,,35.3,5.0,,,,,,,,,,,,0,0,0,0,0,0,0,0,0,0,0,0,0,0,0,0,,,,,,0.0,,,,,,,
29,3300884,1745471897881,,,,,,,,,,,,,,,,,,,,,,,0.0,0.0,0.0,0.0,0.0,0.0,0.0,0.0,2.28,,,0,0,0,0,0,0,0,0,0,0,0,0,0,0,0,0,,0.0,,,,,38.994099,-76.939652,0.07,27.1,33.0,3.0,0.9
30,3300904,1745471897902,0.0,30.0,,-0.1,0.09,1.06,0.0,0.0,0.0,1.07,1.22,87.0,3587.0,22.6,5.2,,13.41,1.249,88.0,,35.3,5.0,,,,,,,,,,,,0,0,0,0,0,0,0,0,0,0,0,0,0,0,0,0,,,,,,0.0,,,,,,,
31,3300924,1745471897922,,,,,,,,,,,,,,,,,,,,,,,,,,,,,,,,,,0,0,0,0,0,0,0,0,0,0,0,0,0,0,0,0,,,,,,,,,,,,,
32,3300944,1745471897942,0.0,30.0,,-0.09,0.1,1.06,0.0,0.0,0.0,1.07,1.22,88.0,3845.0,23.1,5.07,,13.41,1.249,88.0,,34.6,5.0,,,,,,,,,,,,0,0,0,0,0,0,0,0,0,0,0,0,0,0,0,0,,,,,,0.0,,,,,,,
33,3300964,1745471897962,,,,,,,,,,,,,,,,,,,,,,,,,,,,,,,,,,0,0,0,0,0,0,0,0,0,0,0,0,0,0,0,0,,,,,,,,,,,,,
34,3300984,1745471897982,0.0,30.0,,-0.09,0.07,1.07,0.0,0.0,0.0,1.07,1.22,88.0,3845.0,23.1,5.07,,13.79,1.25,88.0,,34.6,5.0,0.0,0.0,0.0,0.0,0.0,0.0,0.0,0.0,2.28,,,0,0,0,0,0,0,0,0,0,0,0,0,0,0,0,0,,0.0,,,,0.0,38.994099,-76.939652,0.06,27.1,33.0,3.0,0.9
35,3301004,1745471898002,,,,,,,,,,,,,,,,,,,,,,,,,,,,,,,,,,0,0,0,0,0,0,0,0,0,0,0,0,0,0,0,0,,,,,,,,,,,,,
36,3301024,1745471898013,0.0,24.0,,-0.08,0.05,1.0,0.0,0.0,0.0,1.01,1.22,83.0,3972.0,14.9,4.73,,13.6,1.251,88.0,,38.9,5.0,,,,,,,,,,,,0,0,0,0,0,0,0,0,0,0,0,0,0,0,0,0,,,,,,0.0,,,,,,,
37,3301044,1745471898033,,,,,,,,,,,,,,,,,,,,,,,,,,,,,,,,,,0,0,0,0,0,0,0,0,0,0,0,0,0,0,0,0,,,,,,,,,,,,,
38,3301064,1745471898053,0.0,24.0,,-0.08,0.01,1.02,0.0,0.0,0.0,1.02,1.22,84.0,4161.0,5.1,4.34,,12.87,1.251,86.2,,38.9,5.0,,,,,,,,,,,,0,0,0,0,0,0,0,0,0,0,0,0,0,0,0,0,,,,,,0.0,,,,,,,
39,3301084,1745471898073,,,,,,,,,,,,,,,,,,,,,,,0.0,0.0,0.0,0.0,0.0,0.0,0.0,0.0,2.27,,,0,0,0,0,0,0,0,0,0,0,0,0,0,0,0,0,,0.0,,,,,38.994099,-76.939652,0.04,27.1,32.0,3.0,0.9
40,3301104,1745471898101,0.0,27.0,,-0.08,0.11,1.11,0.0,0.0,0.0,1.12,1.22,91.0,4267.0,1.6,3.54,,12.23,1.214,86.2,,38.9,5.0,,,,,,,,,,,,0,0,0,0,0,0,0,0,0,0,0,0,0,0,0,0,,,,,,0.0,,,,,,,
41,3301124,1745471898121,,,,,,,,,,,,,,,,,,,,,,,,,,,,,,,,,,0,0,0,0,0,0,0,0,0,0,0,0,0,0,0,0,,,,,,,,,,,,,
42,3301144,1745471898141,0.0,47.0,,-0.07,0.0,0.98,-1.0,0.0,0.0,0.98,1.22,80.0,4202.0,0.1,2.88,,12.23,1.214,86.2,,41.2,5.0,,,,,,,,,,,,0,0,0,0,0,0,0,0,0,0,0,0,0,0,0,0,,,,,,0.0,,,,,,,
43,3301164,1745471898161,,,,,,,,,,,,,,,,,,,,,,,,,,,,,,,,,,0,0,0,0,0,0,0,0,0,0,0,0,0,0,0,0,,,,,,,,,,,,,
44,3301184,1745471898181,0.0,47.0,,-0.09,0.1,1.06,1.0,0.0,0.0,1.07,1.22,87.0,4202.0,0.1,2.88,,11.72,1.19,86.2,,41.2,5.0,0.0,0.0,0.0,0.0,0.0,0.0,0.0,0.0,2.27,,,0,0,0,0,0,0,0,0,0,0,0,0,0,0,0,0,,0.0,,,,0.0,38.994099,-76.939652,0.0,27.1,32.0,3.0,0.9
45,3301204,1745471898201,,,,,,,,,,,,,,,,,,,,,,,,,,,,,,,,,,0,0,0,0,0,0,0,0,0,0,0,0,0,0,0,0,,,,,,,,,,,,,
46,3301224,1745471898220,0.0,41.0,,-0.08,-0.01,0.98,-1.0,0.0,0.0,0.98,1.22,80.0,4048.0,0.1,2.9,,11.41,1.185,86.2,,38.9,5.0,,,,,,,,,,,,0,0,0,0,0,0,0,0,0,0,0,0,0,0,0,0,,,,,,0.0,,,,,,,
47,3301244,1745471898240,,,,,,,,,,,,,,,,,,,,,,,,,,,,,,,,,,0,0,0,0,0,0,0,0,0,0,0,0,0,0,0,0,,,,,,,,,,,,,
48,3301264,1745471898260,0.0,27.0,,-0.09,-0.03,0.95,-1.0,0.0,0.0,0.95,1.22,78.0,3902.0,0.0,2.88,,11.33,1.205,86.2,,38.9,5.0,,,,,,,,,,,,0,0,0,0,0,0,0,0,0,0,0,0,0,0,0,0,,,,,,0.0,,,,,,,
49,3301284,1745471898280,,,,,,,,,,,,,,,,,,,,,,,0.0,0.0,0.0,0.0,0.0,0.0,0.0,0.0,2.27,,,0,0,0,0,0,0,0,0,0,0,0,0,0,0,0,0,,0.0,,,,,38.994099,-76.939652,0.05,27.1,32.0,3.0,0.9
50,3301304,1745471898300,0.0,24.0,,-0.09,-0.01,0.97,0.0,0.0,0.0,0.98,1.22,80.0,3826.0,0.0,2.9,,11.3,1.235,86.2,,38.9,5.0,,,,,,,,,,,,0,0,0,0,0,0,0,0,0,0,0,0,0,0,0,0,,,,,,0.0,,,,,,,
51,3301324,1745471898320,,,,,,,,,,,,,,,,,,,,,,,,,,,,,,,,,,0,0,0,0,0,0,0,0,0,0,0,0,0,0,0,0,,,,,,,,,,,,,
52,3301344,1745471898340,0.0,30.0,,-0.1,-0.02,0.99,-1.0,0.0,0.0,1.0,1.22,81.0,3657.0,0.0,2.9,,11.3,1.235,86.2,,36.2,5.0,,,,,,,,,,,,0,0,0,0,0,0,0,0,0,0,0,0,0,0,0,0,,,,,,0.0,,,,,,,
53,3301364,1745471898360,,,,,,,,,,,,,,,,,,,,,,,,,,,,,,,,,,0,0,0,0,0,0,0,0,0,0,0,0,0,0,0,0,,,,,,,,,,,,,
54,3301384,1745471898380,0.0,37.0,13.43,-0.09,-0.03,1.02,0.0,0.0,0.0,1.03,1.22,84.0,3657.0,0.0,2.9,15.0,11.36,1.248,86.2,155.0,36.2,5.0,0.0,0.0,0.0,0.0,0.0,0.0,0.0,0.0,2.28,0.0,1.0,0,0,0,0,0,0,0,0,0,0,0,0,0,0,0,0,0.0,0.0,1.0,0.0,0.0,0.0,38.994099,-76.939652,0.04,27.1,32.0,3.0,0.9
55,3301404,1745471898402,,,,,,,,,,,,,,,,,,,,,,,,,,,,,,,,,,0,0,0,0,0,0,0,0,0,0,0,0,0,0,0,0,,,,,,,,,,,,,
56,3301424,1745471898422,0.0,20.0,,-0.08,0.05,1.03,0.0,0.0,0.0,1.04,1.22,85.0,3575.0,0.0,2.94,,11.46,1.25,86.2,,34.7,5.0,,,,,,,,,,,,0,0,0,0,0,0,0,0,0,0,0,0,0,0,0,0,,,,,,0.0,,,,,,,
57,3301444,1745471898442,,,,,,,,,,,,,,,,,,,,,,,,,,,,,,,,,,0,0,0,0,0,0,0,0,0,0,0,0,0,0,0,0,,,,,,,,,,,,,
58,3301464,1745471898462,0.0,37.0,,-0.08,0.09,0.99,1.0,0.0,0.0,1.0,1.22,82.0,3577.0,0.0,2.92,,11.44,1.251,86.2,,34.7,5.0,,,,,,,,,,,,0,0,0,0,0,0,0,0,0,0,0,0,0,0,0,0,,,,,,0.0,,,,,,,
59,3301484,1745471898482,,,,,,,,,,,,,,,,,,,,,,,0.0,0.0,0.0,0.0,0.0,0.0,0.0,0.0,2.28,,,0,0,0,0,0,0,0,0,0,0,0,0,0,0,0,0,,0.0,,,,,38.994099,-76.939652,0.04,27.1,32.0,3.0,0.9
60,3301504,1745471898502,0.0,34.0,,-0.09,-0.04,1.02,0.0,0.0,0.0,1.02,1.22,84.0,3466.0,0.0,2.95,,11.6,1.251,86.2,,34.7,5.0,,,,,,,,,,,,0,0,0,0,0,0,0,0,0,0,0,0,0,0,0,0,,,,,,0.0,,,,,,,
61,3301524,1745471898522,,,,,,,,,,,,,,,,,,,,,,,,,,,,,,,,,,0,0,0,0,0,0,0,0,0,0,0,0,0,0,0,0,,,,,,,,,,,,,
62,3301544,1745471898542,0.0,41.0,,-0.08,0.02,0.98,1.0,0.0,0.0,0.99,1.22,81.0,3378.0,0.0,2.97,,11.6,1.251,86.2,,31.9,5.0,,,,,,,,,,,,0,0,0,0,0,0,0,0,0,0,0,0,0,0,0,0,,,,,,0.0,,,,,,,
63,3301564,1745471898562,,,,,,,,,,,,,,,,,,,,,,,,,,,,,,,,,,0,0,0,0,0,0,0,0,0,0,0,0,0,0,0,0,,,,,,,,,,,,,
64,3301584,1745471898582,0.0,41.0,,-0.07,-0.03,1.07,0.0,0.0,0.0,1.07,1.22,88.0,3378.0,0.0,2.97,,11.72,1.251,86.2,,31.9,5.0,0.0,0.0,0.0,0.0,0.0,0.0,0.0,0.0,2.27,,,0,0,0,0,0,0,0,0,0,0,0,0,0,0,0,0,,0.0,,,,0.0,38.994099,-76.939652,0.08,27.1,32.0,3.0,0.9
65,3301604,1745471898602,,,,,,,,,,,,,,,,,,,,,,,,,,,,,,,,,,0,0,0,0,0,0,0,0,0,0,0,0,0,0,0,0,,,,,,,,,,,,,
66,3301624,1745471898622,0.0,20.0,,-0.1,-0.05,1.1,-1.0,0.0,0.0,1.11,1.22,91.0,3147.0,0.0,3.01,,11.88,1.249,86.2,,29.2,5.0,,,,,,,,,,,,0,0,0,0,0,0,0,0,0,0,0,0,0,0,0,0,,,,,,0.0,,,,,,,
67,3301644,1745471898642,,,,,,,,,,,,,,,,,,,,,,,,,,,,,,,,,,0,0,0,0,0,0,0,0,0,0,0,0,0,0,0,0,,,,,,,,,,,,,
68,3301664,1745471898662,0.0,17.0,,-0.12,-0.05,1.12,-1.0,0.0,0.0,1.13,1.22,92.0,3035.0,0.0,3.04,,12.0,1.238,86.2,,29.2,5.0,,,,,,,,,,,,0,0,0,0,0,0,0,0,0,0,0,0,0,0,0,0,,,,,,0.0,,,,,,,
69,3301684,1745471898682,,,,,,,,,,,,,,,,,,,,,,,0.0,0.0,0.0,0.0,0.0,0.0,0.0,0.0,2.27,,,0,0,0,0,0,0,0,0,0,0,0,0,0,0,0,0,,0.0,,,,,38.994099,-76.939652,0.04,27.1,32.0,3.0,0.9
70,3301704,1745471898703,0.0,27.0,,-0.12,-0.04,1.14,-1.0,0.0,0.0,1.15,1.22,94.0,2910.0,0.0,3.1,,12.11,1.246,86.2,,29.2,5.0,,,,,,,,,,,,0,0,0,0,0,0,0,0,0,0,0,0,0,0,0,0,,,,,,0.0,,,,,,,
71,3301724,1745471898723,,,,,,,,,,,,,,,,,,,,,,,,,,,,,,,,,,0,0,0,0,0,0,0,0,0,0,0,0,0,0,0,0,,,,,,,,,,,,,
72,3301744,1745471898743,0.0,27.0,,-0.12,-0.04,1.12,-1.0,0.0,0.0,1.13,1.22,92.0,2836.0,0.0,3.18,,12.11,1.246,86.2,,26.7,5.0,,,,,,,,,,,,0,0,0,0,0,0,0,0,0,0,0,0,0,0,0,0,,,,,,0.0,,,,,,,
73,3301764,1745471898763,,,,,,,,,,,,,,,,,,,,,,,,,,,,,,,,,,0,0,0,0,0,0,0,0,0,0,0,0,0,0,0,0,,,,,,,,,,,,,
74,3301784,1745471898783,0.0,41.0,,-0.12,-0.04,1.09,-1.0,0.0,0.0,1.09,1.22,89.0,2836.0,0.0,3.18,,12.23,1.246,86.2,,26.7,5.0,0.0,0.0,0.0,0.0,0.0,0.0,0.0,0.0,2.28,,,0,0,0,0,0,0,0,0,0,0,0,0,0,0,0,0,,0.0,,,,0.0,38.994099,-76.939652,0.04,27.1,32.0,3.0,0.9
75,3301804,1745471898802,,,,,,,,,,,,,,,,,,,,,,,,,,,,,,,,,,0,0,0,0,0,0,0,0,0,0,0,0,0,0,0,0,,,,,,,,,,,,,
76,3301824,1745471898822,0.0,30.0,,-0.11,-0.04,1.09,-1.0,0.0,0.0,1.09,1.22,89.0,2652.0,0.0,3.23,,12.43,1.249,86.2,,24.8,5.0,,,,,,,,,,,,0,0,0,0,0,0,0,0,0,0,0,0,0,0,0,0,,,,,,0.0,,,,,,,
77,3301844,1745471898842,,,,,,,,,,,,,,,,,,,,,,,,,,,,,,,,,,0,0,0,0,0,0,0,0,0,0,0,0,0,0,0,0,,,,,,,,,,,,,
78,3301864,1745471898862,0.0,44.0,,-0.11,-0.03,1.08,-1.0,0.0,0.0,1.09,1.22,89.0,2534.0,0.0,3.31,,12.61,1.249,86.2,,24.8,5.0,,,,,,,,,,,,0,0,0,0,0,0,0,0,0,0,0,0,0,0,0,0,,,,,,0.0,,,,,,,
79,3301884,1745471898882,,,,,,,,,,,,,,,,,,,,,,,0.0,0.0,0.0,0.0,0.0,0.0,0.0,0.0,2.28,,,0,0,0,0,0,0,0,0,0,0,0,0,0,0,0,0,,0.0,,,,,38.994099,-76.939652,0.04,27.1,32.0,3.0,0.9
80,3301904,1745471898902,0.0,17.0,,-0.11,-0.02,1.06,0.0,0.0,0.0,1.07,1.22,87.0,2429.0,0.0,3.39,,12.84,1.25,86.2,,24.8,5.0,,,,,,,,,,,,0,0,0,0,0,0,0,0,0,0,0,0,0,0,0,0,,,,,,0.0,,,,,,,
81,3301924,1745471898922,,,,,,,,,,,,,,,,,,,,,,,,,,,,,,,,,,0,0,0,0,0,0,0,0,0,0,0,0,0,0,0,0,,,,,,,,,,,,,
82,3301944,1745471898942,0.0,30.0,,-0.1,-0.01,1.04,0.0,0.0,0.0,1.04,1.22,85.0,2358.0,0.0,3.42,,12.84,1.25,86.2,,22.8,5.0,,,,,,,,,,,,0,0,0,0,0,0,0,0,0,0,0,0,0,0,0,0,,,,,,0.0,,,,,,,
83,3301964,1745471898962,,,,,,,,,,,,,,,,,,,,,,,,,,,,,,,,,,0,0,0,0,0,0,0,0,0,0,0,0,0,0,0,0,,,,,,,,,,,,,
84,3301984,1745471898982,0.0,24.0,,-0.1,-0.01,1.03,0.0,0.0,0.0,1.04,1.22,85.0,2358.0,0.0,3.42,,13.05,1.252,86.2,,22.8,5.0,0.0,0.0,0.0,0.0,0.0,0.0,0.0,0.0,2.27,,,0,0,0,0,0,0,0,0,0,0,0,0,0,0,0,0,,0.0,,,,0.0,38.994099,-76.939652,0.04,27.1,32.0,3.0,0.9
85,3302004,1745471899002,,,,,,,,,,,,,,,,,,,,,,,,,,,,,,,,,,0,0,0,0,0,0,0,0,0,0,0,0,0,0,0,0,,,,,,,,,,,,,
86,3302024,1745471899014,0.0,24.0,,-0.1,0.01,1.04,0.0,0.0,0.0,1.05,1.22,86.0,2334.0,0.0,3.46,,13.19,1.252,86.2,,22.0,5.0,,,,,,,,,,,,0,0,0,0,0,0,0,0,0,0,0,0,0,0,0,0,,,,,,0.0,,,,,,,
87,3302044,1745471899034,,,,,,,,,,,,,,,,,,,,,,,,,,,,,,,,,,0,0,0,0,0,0,0,0,0,0,0,0,0,0,0,0,,,,,,,,,,,,,
88,3302064,1745471899054,0.0,27.0,,-0.09,-0.01,1.04,0.0,0.0,0.0,1.05,1.22,86.0,2314.0,0.0,3.46,,13.27,1.252,86.2,,22.0,5.0,,,,,,,,,,,,0,0,0,0,0,0,0,0,0,0,0,0,0,0,0,0,,,,,,0.0,,,,,,,
89,3302084,1745471899074,,,,,,,,,,,,,,,,,,,,,,,0.0,0.0,0.0,0.0,0.0,0.0,0.0,0.0,2.27,,,0,0,0,0,0,0,0,0,0,0,0,0,0,0,0,0,,0.0,,,,,38.994099,-76.939652,0.04,27.1,32.0,3.0,0.9
90,3302104,1745471899094,0.0,17.0,,-0.09,-0.01,1.05,0.0,0.0,0.0,1.06,1.22,86.0,2298.0,0.0,3.47,,13.33,1.252,86.2,,22.0,5.0,,,,,,,,,,,,0,0,0,0,0,0,0,0,0,0,0,0,0,0,0,0,,,,,,0.0,,,,,,,
91,3302124,1745471899119,,,,,,,,,,,,,,,,,,,,,,,,,,,,,,,,,,0,0,0,0,0,0,0,0,0,0,0,0,0,0,0,0,,,,,,,,,,,,,
92,3302144,1745471899139,0.0,37.0,,-0.07,0.01,1.02,0.0,0.0,0.0,1.03,1.22,84.0,2641.0,0.0,3.46,,13.33,1.252,86.2,,22.0,5.0,,,,,,,,,,,,0,0,0,0,0,0,0,0,0,0,0,0,0,0,0,0,,,,,,0.0,,,,,,,
93,3302164,1745471899159,,,,,,,,,,,,,,,,,,,,,,,,,,,,,,,,,,0,0,0,0,0,0,0,0,0,0,0,0,0,0,0,0,,,,,,,,,,,,,
94,3302184,1745471899179,0.0,44.0,,-0.07,0.01,1.04,0.0,0.0,0.0,1.04,1.22,85.0,2641.0,0.0,3.46,,13.23,1.249,86.2,,22.0,5.0,0.0,0.0,0.0,0.0,0.0,0.0,0.0,0.0,2.27,,,0,0,0,0,0,0,0,0,0,0,0,0,0,0,0,0,,0.0,,,,0.0,38.994099,-76.939652,0.07,27.1,32.0,3.0,0.9
95,3302204,1745471899201,,,,,,,,,,,,,,,,,,,,,,,,,,,,,,,,,,0,0,0,0,0,0,0,0,0,0,0,0,0,0,0,0,,,,,,,,,,,,,
96,3302224,1745471899221,0.0,37.0,,-0.07,0.01,1.02,0.0,0.0,0.0,1.02,1.22,84.0,2604.0,0.0,3.27,,13.15,1.249,86.2,,24.3,5.0,,,,,,,,,,,,0,0,0,0,0,0,0,0,0,0,0,0,0,0,0,0,,,,,,0.0,,,,,,,
97,3302244,1745471899241,,,,,,,,,,,,,,,,,,,,,,,,,,,,,,,,,,0,0,0,0,0,0,0,0,0,0,0,0,0,0,0,0,,,,,,,,,,,,,
98,3302264,1745471899261,0.0,37.0,,-0.08,0.02,1.04,0.0,0.0,0.0,1.04,1.22,85.0,2551.0,0.0,3.29,,13.17,1.249,86.2,,24.3,5.0,,,,,,,,,,,,0,0,0,0,0,0,0,0,0,0,0,0,0,0,0,0,,,,,,0.0,,,,,,,
99,3302284,1745471899281,,,,,,,,,,,,,,,,,,,,,,,0.0,0.0,0.0,0.0,0.0,0.0,0.0,0.0,2.28,,,0,0,0,0,0,0,0,0,0,0,0,0,0,0,0,0,,0.0,,,,,38.994099,-76.939652,0.05,27.1,32.0,3.0,0.9
100,3302304,1745471899301,0.0,20.0,,-0.08,0.03,1.03,0.0,0.0,0.0,1.03,1.22,85.0,2491.0,0.4,3.38,,13.28,1.249,86.2,,24.3,5.0,,,,,,,,,,,,0,0,0,0,0,0,0,0,0,0,0,0,0,0,0,0,,,,,,0.0,,,,,,,
101,3302324,1745471899321,,,,,,,,,,,,,,,,,,,,,,,,,,,,,,,,,,0,0,0,0,0,0,0,0,0,0,0,0,0,0,0,0,,,,,,,,,,,,,
102,3302344,1745471899341,0.0,30.0,,-0.08,0.04,1.01,0.0,0.0,0.0,1.01,1.22,83.0,2479.0,0.8,3.47,,13.28,1.249,86.2,,23.4,5.0,,,,,,,,,,,,0,0,0,0,0,0,0,0,0,0,0,0,0,0,0,0,,,,,,0.0,,,,,,,
103,3302364,1745471899361,,,,,,,,,,,,,,,,,,,,,,,,,,,,,,,,,,0,0,0,0,0,0,0,0,0,0,0,0,0,0,0,0,,,,,,,,,,,,,
104,3302384,1745471899381,0.0,30.0,13.48,-0.08,0.05,0.99,0.0,0.0,0.0,0.99,1.22,81.0,2479.0,0.8,3.47,15.0,13.33,1.236,86.2,156.0,23.4,5.0,0.0,0.0,0.0,0.0,0.0,0.0,0.0,0.0,2.28,0.0,1.0,0,0,0,0,0,0,0,0,0,0,0,0,0,0,0,0,0.0,0.0,1.0,0.0,0.0,0.0,38.994099,-76.939652,0.1,27.1,32.0,3.0,0.9
105,3302404,1745471899403,,,,,,,,,,,,,,,,,,,,,,,,,,,,,,,,,,0,0,0,0,0,0,0,0,0,0,0,0,0,0,0,0,,,,,,,,,,,,,
106,3302424,1745471899423,0.0,27.0,,-0.08,0.04,0.99,0.0,0.0,0.0,1.0,1.22,82.0,2378.0,1.0,3.51,,13.41,1.246,86.2,,22.5,5.0,,,,,,,,,,,,0,0,0,0,0,0,0,0,0,0,0,0,0,0,0,0,,,,,,0.0,,,,,,,
107,3302444,1745471899443,,,,,,,,,,,,,,,,,,,,,,,,,,,,,,,,,,0,0,0,0,0,0,0,0,0,0,0,0,0,0,0,0,,,,,,,,,,,,,
108,3302464,1745471899463,0.0,30.0,,-0.08,0.03,0.99,0.0,0.0,0.0,0.99,1.22,81.0,2413.0,1.1,3.48,,13.44,1.251,86.2,,22.5,5.0,,,,,,,,,,,,0,0,0,0,0,0,0,0,0,0,0,0,0,0,0,0,,,,,,0.0,,,,,,,
109,3302484,1745471899483,,,,,,,,,,,,,,,,,,,,,,,0.0,0.0,0.0,0.0,0.0,0.0,0.0,0.0,2.27,,,0,0,0,0,0,0,0,0,0,0,0,0,0,0,0,0,,0.0,,,,,38.994099,-76.939652,0.04,27.1,32.0,3.0,0.9
110,3302504,1745471899503,0.0,41.0,,-0.08,0.02,1.0,0.0,0.0,0.0,1.0,1.22,82.0,2451.0,1.4,3.44,,13.44,1.251,86.2,,22.5,5.0,,,,,,,,,,,,0,0,0,0,0,0,0,0,0,0,0,0,0,0,0,0,,,,,,0.0,,,,,,,
111,3302524,1745471899523,,,,,,,,,,,,,,,,,,,,,,,,,,,,,,,,,,0,0,0,0,0,0,0,0,0,0,0,0,0,0,0,0,,,,,,,,,,,,,
112,3302544,1745471899543,0.0,47.0,,-0.08,-0.01,1.01,0.0,0.0,0.0,1.01,1.22,83.0,2514.0,0.9,3.43,,13.44,1.251,86.2,,22.8,5.0,,,,,,,,,,,,0,0,0,0,0,0,0,0,0,0,0,0,0,0,0,0,,,,,,0.0,,,,,,,
113,3302564,1745471899563,,,,,,,,,,,,,,,,,,,,,,,,,,,,,,,,,,0,0,0,0,0,0,0,0,0,0,0,0,0,0,0,0,,,,,,,,,,,,,
114,3302584,1745471899583,0.0,44.0,,-0.09,0.01,1.02,0.0,0.0,0.0,1.02,1.22,84.0,2514.0,0.9,3.43,,13.37,1.252,86.2,,22.8,5.0,0.0,0.0,0.0,0.0,0.0,0.0,0.0,0.0,2.27,,,0,0,0,0,0,0,0,0,0,0,0,0,0,0,0,0,,0.0,,,,0.0,38.994099,-76.939652,0.07,27.1,32.0,3.0,0.9
115,3302604,1745471899601,,,,,,,,,,,,,,,,,,,,,,,,,,,,,,,,,,0,0,0,0,0,0,0,0,0,0,0,0,0,0,0,0,,,,,,,,,,,,,
116,3302624,1745471899621,0.0,24.0,,-0.08,0.0,1.0,0.0,0.0,0.0,1.01,1.22,82.0,2526.0,0.6,3.41,,13.4,1.252,86.2,,22.8,5.0,,,,,,,,,,,,0,0,0,0,0,0,0,0,0,0,0,0,0,0,0,0,,,,,,0.0,,,,,,,
117,3302644,1745471899641,,,,,,,,,,,,,,,,,,,,,,,,,,,,,,,,,,0,0,0,0,0,0,0,0,0,0,0,0,0,0,0,0,,,,,,,,,,,,,
118,3302664,1745471899661,0.0,37.0,,-0.09,0.02,1.0,0.0,0.0,0.0,1.0,1.22,82.0,2534.0,0.6,3.35,,13.31,1.25,86.2,,22.8,5.0,,,,,,,,,,,,0,0,0,0,0,0,0,0,0,0,0,0,0,0,0,0,,,,,,0.0,,,,,,,
119,3302684,1745471899681,,,,,,,,,,,,,,,,,,,,,,,0.0,0.0,0.0,0.0,0.0,0.0,0.0,0.0,2.27,,,0,0,0,0,0,0,0,0,0,0,0,0,0,0,0,0,,0.0,,,,,38.994099,-76.939652,0.05,27.1,32.0,3.0,0.9
120,3302704,1745471899703,0.0,27.0,,-0.08,0.04,0.98,0.0,0.0,0.0,0.99,1.22,81.0,2514.0,0.5,3.36,,13.32,1.249,86.2,,22.8,5.0,,,,,,,,,,,,0,0,0,0,0,0,0,0,0,0,0,0,0,0,0,0,,,,,,0.0,,,,,,,
121,3302724,1745471899723,,,,,,,,,,,,,,,,,,,,,,,,,,,,,,,,,,0,0,0,0,0,0,0,0,0,0,0,0,0,0,0,0,,,,,,,,,,,,,
122,3302744,1745471899743,0.0,37.0,,-0.08,0.03,0.99,0.0,0.0,0.0,1.0,1.22,81.0,2505.0,0.2,3.36,,13.32,1.249,86.2,,22.7,5.0,,,,,,,,,,,,0,0,0,0,0,0,0,0,0,0,0,0,0,0,0,0,,,,,,0.0,,,,,,,
123,3302764,1745471899763,,,,,,,,,,,,,,,,,,,,,,,,,,,,,,,,,,0,0,0,0,0,0,0,0,0,0,0,0,0,0,0,0,,,,,,,,,,,,,
124,3302784,1745471899783,0.0,37.0,,-0.08,0.05,0.99,0.0,0.0,0.0,1.0,1.22,82.0,2505.0,0.2,3.36,,13.32,1.249,86.2,,22.7,5.0,0.0,0.0,0.0,0.0,0.0,0.0,0.0,0.0,2.28,,,0,0,0,0,0,0,0,0,0,0,0,0,0,0,0,0,,0.0,,,,0.0,38.994099,-76.939652,0.07,27.1,32.0,3.0,0.9
125,3302804,1745471899803,,,,,,,,,,,,,,,,,,,,,,,,,,,,,,,,,,0,0,0,0,0,0,0,0,0,0,0,0,0,0,0,0,,,,,,,,,,,,,
126,3302824,1745471899823,0.0,37.0,,-0.07,0.03,0.99,0.0,0.0,0.0,1.0,1.22,81.0,2453.0,0.0,3.36,,13.33,1.248,86.2,,22.3,5.0,,,,,,,,,,,,0,0,0,0,0,0,0,0,0,0,0,0,0,0,0,0,,,,,,0.0,,,,,,,
127,3302844,1745471899843,,,,,,,,,,,,,,,,,,,,,,,,,,,,,,,,,,0,0,0,0,0,0,0,0,0,0,0,0,0,0,0,0,,,,,,,,,,,,,
128,3302864,1745471899863,0.0,44.0,,-0.07,0.02,1.0,0.0,0.0,0.0,1.0,1.22,82.0,2456.0,0.0,3.33,,13.35,1.25,86.2,,22.3,5.0,,,,,,,,,,,,0,0,0,0,0,0,0,0,0,0,0,0,0,0,0,0,,,,,,0.0,,,,,,,
129,3302884,1745471899883,,,,,,,,,,,,,,,,,,,,,,,0.0,0.0,0.0,0.0,0.0,0.0,0.0,0.0,2.28,,,0,0,0,0,0,0,0,0,0,0,0,0,0,0,0,0,,0.0,,,,,38.994099,-76.939652,0.08,27.1,32.0,3.0,0.9
130,3302904,1745471899901,0.0,34.0,,-0.07,0.02,1.0,0.0,0.0,0.0,1.0,1.22,82.0,2442.0,0.0,3.32,,13.37,1.252,86.2,,22.3,5.0,,,,,,,,,,,,0,0,0,0,0,0,0,0,0,0,0,0,0,0,0,0,,,,,,0.0,,,,,,,
131,3302924,1745471899921,,,,,,,,,,,,,,,,,,,,,,,,,,,,,,,,,,0,0,0,0,0,0,0,0,0,0,0,0,0,0,0,0,,,,,,,,,,,,,
132,3302944,1745471899941,0.0,44.0,,-0.07,0.0,0.99,0.0,0.0,0.0,0.99,1.22,81.0,2451.0,0.1,3.3,,13.37,1.252,86.2,,21.9,5.0,,,,,,,,,,,,0,0,0,0,0,0,0,0,0,0,0,0,0,0,0,0,,,,,,0.0,,,,,,,
133,3302964,1745471899961,,,,,,,,,,,,,,,,,,,,,,,,,,,,,,,,,,0,0,0,0,0,0,0,0,0,0,0,0,0,0,0,0,,,,,,,,,,,,,
134,3302984,1745471899981,0.0,34.0,,-0.07,-0.01,1.0,0.0,0.0,0.0,1.0,1.22,82.0,2451.0,0.1,3.3,,13.39,1.253,86.2,,21.9,5.0,0.0,0.0,0.0,0.0,0.0,0.0,0.0,0.0,2.27,,,0,0,0,0,0,0,0,0,0,0,0,0,0,0,0,0,,0.0,,,,0.0,38.994099,-76.939652,0.06,27.1,32.0,3.0,0.9
135,3303004,1745471900001,,,,,,,,,,,,,,,,,,,,,,,,,,,,,,,,,,0,0,0,0,0,0,0,0,0,0,0,0,0,0,0,0,,,,,,,,,,,,,
136,3303024,1745471900013,0.0,30.0,,-0.07,-0.04,1.02,0.0,0.0,0.0,1.02,1.22,84.0,2429.0,0.5,3.3,,13.4,1.251,86.2,,21.8,5.0,,,,,,,,,,,,0,0,0,0,0,0,0,0,0,0,0,0,0,0,0,0,,,,,,0.0,,,,,,,
137,3303044,1745471900033,,,,,,,,,,,,,,,,,,,,,,,,,,,,,,,,,,0,0,0,0,0,0,0,0,0,0,0,0,0,0,0,0,,,,,,,,,,,,,
138,3303064,1745471900053,0.0,30.0,,-0.07,-0.05,1.01,0.0,0.0,0.0,1.02,1.22,83.0,2453.0,0.7,3.3,,13.39,1.251,86.2,,21.8,5.0,,,,,,,,,,,,0,0,0,0,0,0,0,0,0,0,0,0,0,0,0,0,,,,,,0.0,,,,,,,
139,3303084,1745471900073,,,,,,,,,,,,,,,,,,,,,,,0.0,0.0,0.0,0.0,0.0,0.0,0.0,0.0,2.27,,,0,0,0,0,0,0,0,0,0,0,0,0,0,0,0,0,,0.0,,,,,38.994099,-76.939652,0.0,27.1,32.0,3.0,0.9
140,3303104,1745471900101,0.0,27.0,,-0.07,-0.04,1.01,0.0,0.0,0.0,1.01,1.22,83.0,2424.0,0.6,3.31,,13.4,1.25,86.2,,21.8,5.0,,,,,,,,,,,,0,0,0,0,0,0,0,0,0,0,0,0,0,0,0,0,,,,,,0.0,,,,,,,
141,3303124,1745471900121,,,,,,,,,,,,,,,,,,,,,,,,,,,,,,,,,,0,0,0,0,0,0,0,0,0,0,0,0,0,0,0,0,,,,,,,,,,,,,
142,3303144,1745471900141,0.0,44.0,,-0.08,-0.06,1.01,0.0,0.0,0.0,1.01,1.22,83.0,2397.0,0.6,3.33,,13.4,1.25,86.2,,21.8,5.0,,,,,,,,,,,,0,0,0,0,0,0,0,0,0,0,0,0,0,0,0,0,,,,,,0.0,,,,,,,
143,3303164,1745471900161,,,,,,,,,,,,,,,,,,,,,,,,,,,,,,,,,,0,0,0,0,0,0,0,0,0,0,0,0,0,0,0,0,,,,,,,,,,,,,
144,3303184,1745471900181,0.0,51.0,,-0.07,-0.04,1.0,0.0,0.0,0.0,1.0,1.22,82.0,2397.0,0.6,3.33,,13.41,1.249,86.2,,21.8,5.0,0.0,0.0,0.0,0.0,0.0,0.0,0.0,0.0,2.27,,,0,0,0,0,0,0,0,0,0,0,0,0,0,0,0,0,,0.0,,,,0.0,38.994099,-76.939652,0.21,27.1,32.0,3.0,0.9
145,3303204,1745471900201,,,,,,,,,,,,,,,,,,,,,,,,,,,,,,,,,,0,0,0,0,0,0,0,0,0,0,0,0,0,0,0,0,,,,,,,,,,,,,
146,3303224,1745471900218,0.0,41.0,,-0.08,-0.03,1.01,0.0,0.0,0.0,1.01,1.22,83.0,2378.0,0.3,3.36,,13.45,1.249,86.2,,21.4,5.0,,,,,,,,,,,,0,0,0,0,0,0,0,0,0,0,0,0,0,0,0,0,,,,,,0.0,,,,,,,
147,3303244,1745471900238,,,,,,,,,,,,,,,,,,,,,,,,,,,,,,,,,,0,0,0,0,0,0,0,0,0,0,0,0,0,0,0,0,,,,,,,,,,,,,
148,3303264,1745471900258,0.0,41.0,,-0.09,-0.04,1.02,0.0,0.0,0.0,1.02,1.22,84.0,2380.0,0.0,3.36,,13.47,1.249,86.2,,21.4,5.0,,,,,,,,,,,,0,0,0,0,0,0,0,0,0,0,0,0,0,0,0,0,,,,,,0.0,,,,,,,
149,3303284,1745471900278,,,,,,,,,,,,,,,,,,,,,,,0.0,0.0,0.0,0.0,0.0,0.0,0.0,0.0,2.28,,,0,0,0,0,0,0,0,0,0,0,0,0,0,0,0,0,,0.0,,,,,38.994099,-76.939652,0.18,27.1,32.0,3.0,0.9
150,3303304,1745471900302,0.0,37.0,,-0.08,-0.03,1.01,0.0,0.0,0.0,1.01,1.22,83.0,2373.0,0.0,3.32,,13.47,1.248,86.2,,21.4,5.0,,,,,,,,,,,,0,0,0,0,0,0,0,0,0,0,0,0,0,0,0,0,,,,,,0.0,,,,,,,
151,3303324,1745471900322,,,,,,,,,,,,,,,,,,,,,,,,,,,,,,,,,,0,0,0,0,0,0,0,0,0,0,0,0,0,0,0,0,,,,,,,,,,,,,
152,3303344,1745471900342,0.0,41.0,,-0.08,-0.01,1.01,0.0,0.0,0.0,1.01,1.22,83.0,2346.0,0.0,3.31,,13.47,1.248,86.2,,20.9,5.0,,,,,,,,,,,,0,0,0,0,0,0,0,0,0,0,0,0,0,0,0,0,,,,,,0.0,,,,,,,
153,3303364,1745471900362,,,,,,,,,,,,,,,,,,,,,,,,,,,,,,,,,,0,0,0,0,0,0,0,0,0,0,0,0,0,0,0,0,,,,,,,,,,,,,
154,3303384,1745471900382,0.0,27.0,13.51,-0.09,-0.01,1.02,0.0,0.0,0.0,1.02,1.22,83.0,2346.0,0.0,3.31,15.0,13.49,1.25,86.2,158.0,20.9,5.0,0.0,0.0,0.0,0.0,0.0,0.0,0.0,0.0,2.28,0.0,1.0,0,0,0,0,0,0,0,0,0,0,0,0,0,0,0,0,0.0,0.0,1.0,0.0,0.0,0.0,38.994099,-76.939652,0.26,27.1,32.0,3.0,0.9
155,3303404,1745471900402,,,,,,,,,,,,,,,,,,,,,,,,,,,,,,,,,,0,0,0,0,0,0,0,0,0,0,0,0,0,0,0,0,,,,,,,,,,,,,
156,3303424,1745471900422,0.0,27.0,,-0.08,-0.0,1.01,0.0,0.0,0.0,1.01,1.22,83.0,2397.0,0.0,3.28,,13.48,1.251,86.2,,21.4,5.0,,,,,,,,,,,,0,0,0,0,0,0,0,0,0,0,0,0,0,0,0,0,,,,,,0.0,,,,,,,
157,3303444,1745471900442,,,,,,,,,,,,,,,,,,,,,,,,,,,,,,,,,,0,0,0,0,0,0,0,0,0,0,0,0,0,0,0,0,,,,,,,,,,,,,
158,3303464,1745471900462,0.0,37.0,,-0.08,-0.0,1.01,0.0,0.0,0.0,1.01,1.22,83.0,2331.0,0.2,3.27,,13.48,1.251,86.2,,21.4,5.0,,,,,,,,,,,,0,0,0,0,0,0,0,0,0,0,0,0,0,0,0,0,,,,,,0.0,,,,,,,
159,3303484,1745471900482,,,,,,,,,,,,,,,,,,,,,,,0.0,0.0,0.0,0.0,0.0,0.0,0.0,0.0,2.27,,,0,0,0,0,0,0,0,0,0,0,0,0,0,0,0,0,,0.0,,,,,38.994099,-76.939652,0.04,27.1,32.0,3.0,0.9
160,3303504,1745471900502,0.0,41.0,,-0.08,-0.03,1.01,0.0,0.0,0.0,1.01,1.22,83.0,2252.0,0.5,3.23,,13.49,1.251,86.2,,21.4,5.0,,,,,,,,,,,,0,0,0,0,0,0,0,0,0,0,0,0,0,0,0,0,,,,,,0.0,,,,,,,
161,3303524,1745471900522,,,,,,,,,,,,,,,,,,,,,,,,,,,,,,,,,,0,0,0,0,0,0,0,0,0,0,0,0,0,0,0,0,,,,,,,,,,,,,
162,3303544,1745471900542,0.0,51.0,,-0.07,-0.03,1.0,0.0,0.0,0.0,1.01,1.22,82.0,2290.0,0.5,3.2,,13.49,1.251,86.2,,21.3,5.0,,,,,,,,,,,,0,0,0,0,0,0,0,0,0,0,0,0,0,0,0,0,,,,,,0.0,,,,,,,
163,3303564,1745471900562,,,,,,,,,,,,,,,,,,,,,,,,,,,,,,,,,,0,0,0,0,0,0,0,0,0,0,0,0,0,0,0,0,,,,,,,,,,,,,
164,3303584,1745471900582,0.0,51.0,,-0.07,-0.02,1.0,0.0,0.0,0.0,1.0,1.22,82.0,2290.0,0.5,3.2,,13.52,1.251,86.2,,21.3,5.0,0.0,0.0,0.0,0.0,0.0,0.0,0.0,0.0,2.27,,,0,0,0,0,0,0,0,0,0,0,0,0,0,0,0,0,,0.0,,,,0.0,38.994099,-76.939652,0.04,27.1,32.0,3.0,0.9
165,3303604,1745471900602,,,,,,,,,,,,,,,,,,,,,,,,,,,,,,,,,,0,0,0,0,0,0,0,0,0,0,0,0,0,0,0,0,,,,,,,,,,,,,
166,3303624,1745471900622,0.0,44.0,,-0.07,-0.02,1.0,0.0,0.0,0.0,1.01,1.22,82.0,2267.0,0.5,3.21,,13.59,1.25,86.2,,20.9,5.0,,,,,,,,,,,,0,0,0,0,0,0,0,0,0,0,0,0,0,0,0,0,,,,,,0.0,,,,,,,
167,3303644,1745471900642,,,,,,,,,,,,,,,,,,,,,,,,,,,,,,,,,,0,0,0,0,0,0,0,0,0,0,0,0,0,0,0,0,,,,,,,,,,,,,
168,3303664,1745471900662,0.0,34.0,,-0.08,-0.0,1.01,0.0,0.0,0.0,1.01,1.22,83.0,2183.0,0.5,3.22,,13.61,1.249,86.2,,20.9,5.0,,,,,,,,,,,,0,0,0,0,0,0,0,0,0,0,0,0,0,0,0,0,,,,,,0.0,,,,,,,
169,3303684,1745471900682,,,,,,,,,,,,,,,,,,,,,,,0.0,0.0,0.0,0.0,0.0,0.0,0.0,0.0,2.27,,,0,0,0,0,0,0,0,0,0,0,0,0,0,0,0,0,,0.0,,,,,38.994099,-76.939652,0.04,27.1,32.0,3.0,0.9
170,3303704,1745471900702,0.0,34.0,,-0.08,-0.0,1.0,0.0,0.0,0.0,1.0,1.22,82.0,2255.0,0.2,3.25,,13.56,1.249,86.2,,20.9,5.0,,,,,,,,,,,,0,0,0,0,0,0,0,0,0,0,0,0,0,0,0,0,,,,,,0.0,,,,,,,
171,3303724,1745471900722,,,,,,,,,,,,,,,,,,,,,,,,,,,,,,,,,,0,0,0,0,0,0,0,0,0,0,0,0,0,0,0,0,,,,,,,,,,,,,
172,3303744,1745471900742,0.0,47.0,,-0.08,-0.0,1.01,0.0,0.0,0.0,1.01,1.22,83.0,2264.0,0.0,3.22,,13.56,1.249,86.2,,21.5,5.0,,,,,,,,,,,,0,0,0,0,0,0,0,0,0,0,0,0,0,0,0,0,,,,,,0.0,,,,,,,
173,3303764,1745471900762,,,,,,,,,,,,,,,,,,,,,,,,,,,,,,,,,,0,0,0,0,0,0,0,0,0,0,0,0,0,0,0,0,,,,,,,,,,,,,
174,3303784,1745471900782,0.0,41.0,,-0.1,-0.0,1.01,0.0,0.0,0.0,1.01,1.22,83.0,2264.0,0.0,3.22,,13.55,1.249,86.2,,21.5,5.0,0.0,0.0,0.0,0.0,0.0,0.0,0.0,0.0,2.28,,,0,0,0,0,0,0,0,0,0,0,0,0,0,0,0,0,,0.0,,,,0.0,38.994099,-76.939652,0.04,27.1,32.0,3.0,0.9
175,3303804,1745471900802,,,,,,,,,,,,,,,,,,,,,,,,,,,,,,,,,,0,0,0,0,0,0,0,0,0,0,0,0,0,0,0,0,,,,,,,,,,,,,
176,3303824,1745471900820,0.0,44.0,,-0.09,-0.02,1.01,0.0,0.0,0.0,1.01,1.22,83.0,2224.0,0.0,3.18,,13.57,1.249,86.2,,21.4,5.0,,,,,,,,,,,,0,0,0,0,0,0,0,0,0,0,0,0,0,0,0,0,,,,,,0.0,,,,,,,
177,3303844,1745471900840,,,,,,,,,,,,,,,,,,,,,,,,,,,,,,,,,,0,0,0,0,0,0,0,0,0,0,0,0,0,0,0,0,,,,,,,,,,,,,
178,3303864,1745471900860,0.0,47.0,,-0.08,-0.03,1.01,0.0,0.0,0.0,1.02,1.22,83.0,2248.0,0.0,3.17,,13.59,1.25,86.2,,21.4,5.0,,,,,,,,,,,,0,0,0,0,0,0,0,0,0,0,0,0,0,0,0,0,,,,,,0.0,,,,,,,
179,3303884,1745471900880,,,,,,,,,,,,,,,,,,,,,,,0.0,0.0,0.0,0.0,0.0,0.0,0.0,0.0,2.28,,,0,0,0,0,0,0,0,0,0,0,0,0,0,0,0,0,,0.0,,,,,38.994099,-76.939652,0.04,27.1,32.0,3.0,0.9
180,3303904,1745471900902,0.0,41.0,,-0.09,-0.02,1.02,0.0,0.0,0.0,1.02,1.22,84.0,2235.0,0.0,3.15,,13.59,1.251,86.2,,21.4,5.0,,,,,,,,,,,,0,0,0,0,0,0,0,0,0,0,0,0,0,0,0,0,,,,,,0.0,,,,,,,
181,3303924,1745471900922,,,,,,,,,,,,,,,,,,,,,,,,,,,,,,,,,,0,0,0,0,0,0,0,0,0,0,0,0,0,0,0,0,,,,,,,,,,,,,
182,3303944,1745471900942,0.0,44.0,,-0.1,-0.02,1.01,0.0,0.0,0.0,1.01,1.22,83.0,2269.0,0.2,3.25,,13.59,1.251,86.2,,20.8,5.0,,,,,,,,,,,,0,0,0,0,0,0,0,0,0,0,0,0,0,0,0,0,,,,,,0.0,,,,,,,
183,3303964,1745471900962,,,,,,,,,,,,,,,,,,,,,,,,,,,,,,,,,,0,0,0,0,0,0,0,0,0,0,0,0,0,0,0,0,,,,,,,,,,,,,
184,3303984,1745471900982,0.0,44.0,,-0.1,-0.02,0.99,0.0,0.0,0.0,1.0,1.22,82.0,2269.0,0.2,3.25,,13.57,1.251,86.2,,20.8,5.0,0.0,0.0,0.0,0.0,0.0,0.0,0.0,0.0,2.27,,,0,0,0,0,0,0,0,0,0,0,0,0,0,0,0,0,,0.0,,,,0.0,38.994099,-76.939652,0.0,27.1,32.0,3.0,0.9
185,3304004,1745471901002,,,,,,,,,,,,,,,,,,,,,,,,,,,,,,,,,,0,0,0,0,0,0,0,0,0,0,0,0,0,0,0,0,,,,,,,,,,,,,
186,3304024,1745471901010,0.0,30.0,,-0.09,-0.02,0.99,0.0,0.0,0.0,0.99,1.22,81.0,2260.0,0.5,3.24,,13.6,1.252,86.2,,20.5,5.0,,,,,,,,,,,,0,0,0,0,0,0,0,0,0,0,0,0,0,0,0,0,,,,,,0.0,,,,,,,
187,3304044,1745471901030,,,,,,,,,,,,,,,,,,,,,,,,,,,,,,,,,,0,0,0,0,0,0,0,0,0,0,0,0,0,0,0,0,,,,,,,,,,,,,
188,3304064,1745471901050,0.0,44.0,,-0.09,-0.02,0.99,0.0,0.0,0.0,1.0,1.22,82.0,2248.0,0.5,3.23,,13.63,1.252,86.2,,20.5,5.0,,,,,,,,,,,,0,0,0,0,0,0,0,0,0,0,0,0,0,0,0,0,,,,,,0.0,,,,,,,
189,3304084,1745471901070,,,,,,,,,,,,,,,,,,,,,,,0.0,0.0,0.0,0.0,0.0,0.0,0.0,0.0,2.27,,,0,0,0,0,0,0,0,0,0,0,0,0,0,0,0,0,,0.0,,,,,38.994099,-76.939652,0.07,27.1,32.0,3.0,0.9
190,3304104,1745471901090,0.0,34.0,,-0.1,-0.02,1.0,0.0,0.0,0.0,1.0,1.22,82.0,2249.0,0.5,3.21,,13.59,1.249,86.2,,20.5,5.0,,,,,,,,,,,,0,0,0,0,0,0,0,0,0,0,0,0,0,0,0,0,,,,,,0.0,,,,,,,
191,3304124,1745471901114,,,,,,,,,,,,,,,,,,,,,,,,,,,,,,,,,,0,0,0,0,0,0,0,0,0,0,0,0,0,0,0,0,,,,,,,,,,,,,
192,3304144,1745471901134,0.0,27.0,,-0.1,-0.0,1.0,0.0,0.0,0.0,1.01,1.22,82.0,2264.0,0.5,3.23,,13.59,1.249,86.2,,20.3,5.0,,,,,,,,,,,,0,0,0,0,0,0,0,0,0,0,0,0,0,0,0,0,,,,,,0.0,,,,,,,
193,3304164,1745471901154,,,,,,,,,,,,,,,,,,,,,,,,,,,,,,,,,,0,0,0,0,0,0,0,0,0,0,0,0,0,0,0,0,,,,,,,,,,,,,
194,3304184,1745471901174,0.0,51.0,,-0.09,0.0,1.0,0.0,0.0,0.0,1.0,1.22,82.0,2264.0,0.5,3.23,,13.59,1.248,86.2,,20.3,5.0,0.0,0.0,0.0,0.0,0.0,0.0,0.0,0.0,2.27,,,0,0,0,0,0,0,0,0,0,0,0,0,0,0,0,0,,0.0,,,,0.0,38.994099,-76.939652,0.06,27.1,32.0,3.0,0.9
195,3304204,1745471901194,,,,,,,,,,,,,,,,,,,,,,,,,,,,,,,,,,0,0,0,0,0,0,0,0,0,0,0,0,0,0,0,0,,,,,,,,,,,,,
196,3304224,1745471901215,0.0,51.0,,-0.08,-0.0,0.99,0.0,0.0,0.0,1.0,1.22,81.0,2268.0,0.2,3.23,,13.65,1.249,86.2,,20.4,5.0,,,,,,,,,,,,0,0,0,0,0,0,0,0,0,0,0,0,0,0,0,0,,,,,,0.0,,,,,,,
197,3304244,1745471901235,,,,,,,,,,,,,,,,,,,,,,,,,,,,,,,,,,0,0,0,0,0,0,0,0,0,0,0,0,0,0,0,0,,,,,,,,,,,,,
198,3304264,1745471901255,0.0,57.0,,-0.09,-0.0,1.0,0.0,0.0,0.0,1.0,1.22,82.0,2287.0,0.0,3.2,,13.63,1.249,86.2,,20.4,5.0,,,,,,,,,,,,0,0,0,0,0,0,0,0,0,0,0,0,0,0,0,0,,,,,,0.0,,,,,,,
199,3304284,1745471901275,,,,,,,,,,,,,,,,,,,,,,,0.0,0.0,0.0,0.0,0.0,0.0,0.0,0.0,2.28,,,0,0,0,0,0,0,0,0,0,0,0,0,0,0,0,0,,0.0,,,,,38.994099,-76.939652,0.05,27.1,32.0,3.0,0.9
200,3304304,1745471901301,0.0,47.0,,-0.08,0.0,1.0,0.0,0.0,0.0,1.01,1.22,82.0,2219.0,0.0,3.17,,13.6,1.249,86.2,,20.4,5.0,,,,,,,,,,,,0,0,0,0,0,0,0,0,0,0,0,0,0,0,0,0,,,,,,0.0,,,,,,,
201,3304324,1745471901321,,,,,,,,,,,,,,,,,,,,,,,,,,,,,,,,,,0,0,0,0,0,0,0,0,0,0,0,0,0,0,0,0,,,,,,,,,,,,,
202,3304344,1745471901341,0.0,30.0,,-0.08,-0.01,0.99,0.0,0.0,0.0,0.99,1.22,81.0,2125.0,0.0,3.2,,13.6,1.249,86.2,,20.1,5.0,,,,,,,,,,,,0,0,0,0,0,0,0,0,0,0,0,0,0,0,0,0,,,,,,0.0,,,,,,,
203,3304364,1745471901361,,,,,,,,,,,,,,,,,,,,,,,,,,,,,,,,,,0,0,0,0,0,0,0,0,0,0,0,0,0,0,0,0,,,,,,,,,,,,,
204,3304384,1745471901381,0.0,37.0,13.51,-0.08,-0.0,0.98,0.0,0.0,0.0,0.99,1.22,81.0,2125.0,0.0,3.2,15.0,13.71,1.251,86.2,160.0,20.1,5.0,0.0,0.0,0.0,0.0,0.0,0.0,0.0,0.0,2.28,0.0,1.0,0,0,0,0,0,0,0,0,0,0,0,0,0,0,0,0,0.0,0.0,1.0,0.0,0.0,0.0,38.994099,-76.939652,0.11,27.1,32.0,3.0,0.9
205,3304404,1745471901401,,,,,,,,,,,,,,,,,,,,,,,,,,,,,,,,,,0,0,0,0,0,0,0,0,0,0,0,0,0,0,0,0,,,,,,,,,,,,,
206,3304424,1745471901419,0.0,37.0,,-0.07,-0.02,1.0,0.0,0.0,0.0,1.0,1.22,82.0,2181.0,0.0,3.17,,13.69,1.251,86.2,,20.4,5.0,,,,,,,,,,,,0,0,0,0,0,0,0,0,0,0,0,0,0,0,0,0,,,,,,0.0,,,,,,,
207,3304444,1745471901439,,,,,,,,,,,,,,,,,,,,,,,,,,,,,,,,,,0,0,0,0,0,0,0,0,0,0,0,0,0,0,0,0,,,,,,,,,,,,,
208,3304464,1745471901459,0.0,41.0,,-0.08,-0.01,1.01,0.0,0.0,0.0,1.01,1.22,83.0,2166.0,0.3,3.15,,13.65,1.252,86.2,,20.4,5.0,,,,,,,,,,,,0,0,0,0,0,0,0,0,0,0,0,0,0,0,0,0,,,,,,0.0,,,,,,,
209,3304484,1745471901479,,,,,,,,,,,,,,,,,,,,,,,0.0,0.0,0.0,0.0,0.0,0.0,0.0,0.0,2.27,,,0,0,0,0,0,0,0,0,0,0,0,0,0,0,0,0,,0.0,,,,,38.994099,-76.939652,0.08,27.1,32.0,3.0,0.9
210,3304504,1745471901501,0.0,44.0,,-0.09,0.01,1.0,0.0,0.0,0.0,1.01,1.22,82.0,2235.0,0.5,3.13,,13.61,1.253,86.2,,20.4,5.0,,,,,,,,,,,,0,0,0,0,0,0,0,0,0,0,0,0,0,0,0,0,,,,,,0.0,,,,,,,
211,3304524,1745471901521,,,,,,,,,,,,,,,,,,,,,,,,,,,,,,,,,,0,0,0,0,0,0,0,0,0,0,0,0,0,0,0,0,,,,,,,,,,,,,
212,3304544,1745471901541,0.0,44.0,,-0.08,0.01,0.99,0.0,0.0,0.0,0.99,1.22,81.0,2195.0,0.6,3.14,,13.61,1.253,86.2,,20.9,5.0,,,,,,,,,,,,0,0,0,0,0,0,0,0,0,0,0,0,0,0,0,0,,,,,,0.0,,,,,,,
213,3304564,1745471901561,,,,,,,,,,,,,,,,,,,,,,,,,,,,,,,,,,0,0,0,0,0,0,0,0,0,0,0,0,0,0,0,0,,,,,,,,,,,,,
214,3304584,1745471901581,0.0,51.0,,-0.08,0.0,1.0,0.0,0.0,0.0,1.0,1.22,82.0,2195.0,0.6,3.14,,13.67,1.252,86.2,,20.9,5.0,0.0,0.0,0.0,0.0,0.0,0.0,0.0,0.0,2.27,,,0,0,0,0,0,0,0,0,0,0,0,0,0,0,0,0,,0.0,,,,0.0,38.994099,-76.939652,0.04,27.1,32.0,3.0,0.9
215,3304604,1745471901601,,,,,,,,,,,,,,,,,,,,,,,,,,,,,,,,,,0,0,0,0,0,0,0,0,0,0,0,0,0,0,0,0,,,,,,,,,,,,,
216,3304624,1745471901621,0.0,47.0,,-0.09,0.01,1.01,0.0,0.0,0.0,1.01,1.22,83.0,2227.0,0.6,3.17,,13.61,1.25,86.2,,21.3,5.0,,,,,,,,,,,,0,0,0,0,0,0,0,0,0,0,0,0,0,0,0,0,,,,,,0.0,,,,,,,
217,3304644,1745471901641,,,,,,,,,,,,,,,,,,,,,,,,,,,,,,,,,,0,0,0,0,0,0,0,0,0,0,0,0,0,0,0,0,,,,,,,,,,,,,
218,3304664,1745471901661,0.0,44.0,,-0.1,0.02,1.0,0.0,0.0,0.0,1.01,1.22,82.0,2303.0,0.4,3.17,,13.57,1.25,86.2,,21.3,5.0,,,,,,,,,,,,0,0,0,0,0,0,0,0,0,0,0,0,0,0,0,0,,,,,,0.0,,,,,,,
219,3304684,1745471901681,,,,,,,,,,,,,,,,,,,,,,,0.0,0.0,0.0,0.0,0.0,0.0,0.0,0.0,2.27,,,0,0,0,0,0,0,0,0,0,0,0,0,0,0,0,0,,0.0,,,,,38.994099,-76.939652,0.04,27.1,32.0,3.0,0.9
220,3304704,1745471901701,0.0,41.0,,-0.09,0.02,0.99,0.0,0.0,0.0,1.0,1.22,82.0,2271.0,0.1,3.21,,13.59,1.249,86.2,,21.3,5.0,,,,,,,,,,,,0,0,0,0,0,0,0,0,0,0,0,0,0,0,0,0,,,,,,0.0,,,,,,,
221,3304724,1745471901721,,,,,,,,,,,,,,,,,,,,,,,,,,,,,,,,,,0,0,0,0,0,0,0,0,0,0,0,0,0,0,0,0,,,,,,,,,,,,,
222,3304744,1745471901741,0.0,34.0,,-0.08,0.01,0.99,0.0,0.0,0.0,0.99,1.22,81.0,2251.0,0.0,3.23,,13.59,1.249,86.2,,20.6,5.0,,,,,,,,,,,,0,0,0,0,0,0,0,0,0,0,0,0,0,0,0,0,,,,,,0.0,,,,,,,
223,3304764,1745471901761,,,,,,,,,,,,,,,,,,,,,,,,,,,,,,,,,,0,0,0,0,0,0,0,0,0,0,0,0,0,0,0,0,,,,,,,,,,,,,
224,3304784,1745471901781,0.0,47.0,,-0.09,0.02,1.0,0.0,0.0,0.0,1.0,1.22,82.0,2251.0,0.0,3.23,,13.64,1.248,86.2,,20.6,5.0,0.0,0.0,0.0,0.0,0.0,0.0,0.0,0.0,2.28,,,0,0,0,0,0,0,0,0,0,0,0,0,0,0,0,0,,0.0,,,,0.0,38.994099,-76.939652,0.08,27.1,32.0,3.0,0.9
225,3304804,1745471901801,,,,,,,,,,,,,,,,,,,,,,,,,,,,,,,,,,0,0,0,0,0,0,0,0,0,0,0,0,0,0,0,0,,,,,,,,,,,,,
226,3304824,1745471901821,0.0,34.0,,-0.08,0.02,1.02,0.0,0.0,0.0,1.02,1.22,83.0,2239.0,0.0,3.23,,13.6,1.25,86.2,,19.9,5.0,,,,,,,,,,,,0,0,0,0,0,0,0,0,0,0,0,0,0,0,0,0,,,,,,0.0,,,,,,,
227,3304844,1745471901841,,,,,,,,,,,,,,,,,,,,,,,,,,,,,,,,,,0,0,0,0,0,0,0,0,0,0,0,0,0,0,0,0,,,,,,,,,,,,,
228,3304864,1745471901861,0.0,57.0,,-0.09,0.03,1.02,0.0,0.0,0.0,1.02,1.22,83.0,2225.0,0.0,3.22,,13.64,1.252,86.2,,19.9,5.0,,,,,,,,,,,,0,0,0,0,0,0,0,0,0,0,0,0,0,0,0,0,,,,,,0.0,,,,,,,
229,3304884,1745471901881,,,,,,,,,,,,,,,,,,,,,,,0.0,0.0,0.0,0.0,0.0,0.0,0.0,0.0,2.28,,,0,0,0,0,0,0,0,0,0,0,0,0,0,0,0,0,,0.0,,,,,38.994099,-76.939652,0.04,27.1,32.0,3.0,0.9
230,3304904,1745471901901,0.0,44.0,,-0.08,0.03,1.0,0.0,0.0,0.0,1.0,1.22,82.0,2244.0,0.2,3.23,,13.68,1.252,86.2,,19.9,5.0,,,,,,,,,,,,0,0,0,0,0,0,0,0,0,0,0,0,0,0,0,0,,,,,,0.0,,,,,,,
231,3304924,1745471901921,,,,,,,,,,,,,,,,,,,,,,,,,,,,,,,,,,0,0,0,0,0,0,0,0,0,0,0,0,0,0,0,0,,,,,,,,,,,,,
232,3304944,1745471901941,0.0,41.0,,-0.08,0.02,1.0,0.0,0.0,0.0,1.0,1.22,82.0,2254.0,0.5,3.23,,13.68,1.252,86.2,,20.0,5.0,,,,,,,,,,,,0,0,0,0,0,0,0,0,0,0,0,0,0,0,0,0,,,,,,0.0,,,,,,,
233,3304964,1745471901961,,,,,,,,,,,,,,,,,,,,,,,,,,,,,,,,,,0,0,0,0,0,0,0,0,0,0,0,0,0,0,0,0,,,,,,,,,,,,,
234,3304984,1745471901981,0.0,64.0,,-0.09,0.04,1.01,0.0,0.0,0.0,1.01,1.22,83.0,2254.0,0.5,3.23,,13.65,1.251,86.2,,20.0,5.0,0.0,0.0,0.0,0.0,0.0,0.0,0.0,0.0,2.27,,,0,0,0,0,0,0,0,0,0,0,0,0,0,0,0,0,,0.0,,,,0.0,38.994099,-76.939652,0.04,27.1,32.0,3.0,0.9
235,3305004,1745471902001,,,,,,,,,,,,,,,,,,,,,,,,,,,,,,,,,,0,0,0,0,0,0,0,0,0,0,0,0,0,0,0,0,,,,,,,,,,,,,
236,3305024,1745471902011,0.0,41.0,,-0.1,0.04,1.01,0.0,0.0,0.0,1.01,1.22,83.0,2149.0,0.6,3.16,,13.69,1.251,86.2,,20.4,5.0,,,,,,,,,,,,0,0,0,0,0,0,0,0,0,0,0,0,0,0,0,0,,,,,,0.0,,,,,,,
237,3305044,1745471902031,,,,,,,,,,,,,,,,,,,,,,,,,,,,,,,,,,0,0,0,0,0,0,0,0,0,0,0,0,0,0,0,0,,,,,,,,,,,,,
238,3305064,1745471902051,0.0,44.0,,-0.1,0.04,1.01,0.0,0.0,0.0,1.02,1.22,83.0,2179.0,0.6,3.17,,13.69,1.25,86.2,,20.4,5.0,,,,,,,,,,,,0,0,0,0,0,0,0,0,0,0,0,0,0,0,0,0,,,,,,0.0,,,,,,,
239,3305084,1745471902071,,,,,,,,,,,,,,,,,,,,,,,0.0,0.0,0.0,0.0,0.0,0.0,0.0,0.0,2.27,,,0,0,0,0,0,0,0,0,0,0,0,0,0,0,0,0,,0.0,,,,,38.994099,-76.939652,0.1,27.1,32.0,3.0,0.9
240,3305104,1745471902091,0.0,34.0,,-0.09,0.04,1.01,0.0,0.0,0.0,1.01,1.22,83.0,2105.0,0.5,3.21,,13.65,1.248,86.2,,20.4,5.0,,,,,,,,,,,,0,0,0,0,0,0,0,0,0,0,0,0,0,0,0,0,,,,,,0.0,,,,,,,
241,3305124,1745471902109,,,,,,,,,,,,,,,,,,,,,,,,,,,,,,,,,,0,0,0,0,0,0,0,0,0,0,0,0,0,0,0,0,,,,,,,,,,,,,
242,3305144,1745471902129,0.0,20.0,,-0.08,0.04,1.0,0.0,0.0,0.0,1.01,1.22,82.0,2157.0,0.2,3.21,,13.65,1.248,86.2,,20.5,5.0,,,,,,,,,,,,0,0,0,0,0,0,0,0,0,0,0,0,0,0,0,0,,,,,,0.0,,,,,,,
243,3305164,1745471902149,,,,,,,,,,,,,,,,,,,,,,,,,,,,,,,,,,0,0,0,0,0,0,0,0,0,0,0,0,0,0,0,0,,,,,,,,,,,,,
244,3305184,1745471902169,0.0,61.0,,-0.08,0.04,1.02,0.0,0.0,0.0,1.02,1.22,84.0,2157.0,0.2,3.21,,13.71,1.249,86.2,,20.5,5.0,0.0,0.0,0.0,0.0,0.0,0.0,0.0,0.0,2.28,,,0,0,0,0,0,0,0,0,0,0,0,0,0,0,0,0,,0.0,,,,0.0,38.994099,-76.939652,0.1,27.1,32.0,3.0,0.9
245,3305204,1745471902189,,,,,,,,,,,,,,,,,,,,,,,,,,,,,,,,,,0,0,0,0,0,0,0,0,0,0,0,0,0,0,0,0,,,,,,,,,,,,,
246,3305224,1745471902220,0.0,57.0,,-0.08,0.03,1.01,0.0,0.0,0.0,1.02,1.22,83.0,2062.0,0.0,3.21,,13.69,1.249,86.2,,20.2,5.0,,,,,,,,,,,,0,0,0,0,0,0,0,0,0,0,0,0,0,0,0,0,,,,,,0.0,,,,,,,
247,3305244,1745471902240,,,,,,,,,,,,,,,,,,,,,,,,,,,,,,,,,,0,0,0,0,0,0,0,0,0,0,0,0,0,0,0,0,,,,,,,,,,,,,
248,3305264,1745471902260,0.0,64.0,,-0.08,0.04,1.02,0.0,0.0,0.0,1.03,1.22,84.0,2169.0,0.0,3.29,,13.71,1.249,86.2,,20.2,5.0,,,,,,,,,,,,0,0,0,0,0,0,0,0,0,0,0,0,0,0,0,0,,,,,,0.0,,,,,,,
249,3305284,1745471902280,,,,,,,,,,,,,,,,,,,,,,,0.0,0.0,0.0,0.0,0.0,0.0,0.0,0.0,2.28,,,0,0,0,0,0,0,0,0,0,0,0,0,0,0,0,0,,0.0,,,,,38.994099,-76.939652,0.04,27.1,32.0,3.0,0.9
250,3305304,1745471902302,0.0,44.0,,-0.1,0.04,1.01,0.0,0.0,0.0,1.01,1.22,83.0,2148.0,0.0,3.28,,13.71,1.25,86.2,,20.2,5.0,,,,,,,,,,,,0,0,0,0,0,0,0,0,0,0,0,0,0,0,0,0,,,,,,0.0,,,,,,,
251,3305324,1745471902322,,,,,,,,,,,,,,,,,,,,,,,,,,,,,,,,,,0,0,0,0,0,0,0,0,0,0,0,0,0,0,0,0,,,,,,,,,,,,,
252,3305344,1745471902342,0.0,41.0,,-0.1,0.04,1.01,0.0,0.0,0.0,1.02,1.22,83.0,2150.0,0.0,3.27,,13.71,1.25,86.2,,19.0,5.0,,,,,,,,,,,,0,0,0,0,0,0,0,0,0,0,0,0,0,0,0,0,,,,,,0.0,,,,,,,
253,3305364,1745471902362,,,,,,,,,,,,,,,,,,,,,,,,,,,,,,,,,,0,0,0,0,0,0,0,0,0,0,0,0,0,0,0,0,,,,,,,,,,,,,
254,3305384,1745471902382,0.0,41.0,13.6,-0.09,0.04,1.01,0.0,0.0,0.0,1.02,1.22,83.0,2150.0,0.0,3.27,15.0,13.73,1.252,86.2,160.0,19.0,5.0,0.0,0.0,0.0,0.0,0.0,0.0,0.0,0.0,2.28,0.0,1.0,0,0,0,0,0,0,0,0,0,0,0,0,0,0,0,0,0.0,0.0,1.0,0.0,0.0,0.0,38.994099,-76.939652,0.0,27.1,32.0,3.0,0.9
255,3305404,1745471902402,,,,,,,,,,,,,,,,,,,,,,,,,,,,,,,,,,0,0,0,0,0,0,0,0,0,0,0,0,0,0,0,0,,,,,,,,,,,,,
256,3305424,1745471902420,0.0,44.0,,-0.1,0.03,1.01,0.0,0.0,0.0,1.01,1.22,83.0,2036.0,0.2,3.25,,13.73,1.251,86.2,,17.5,5.0,,,,,,,,,,,,0,0,0,0,0,0,0,0,0,0,0,0,0,0,0,0,,,,,,0.0,,,,,,,
257,3305444,1745471902440,,,,,,,,,,,,,,,,,,,,,,,,,,,,,,,,,,0,0,0,0,0,0,0,0,0,0,0,0,0,0,0,0,,,,,,,,,,,,,
258,3305464,1745471902460,0.0,44.0,,-0.1,0.03,1.01,0.0,0.0,0.0,1.01,1.22,83.0,1761.0,0.5,3.31,,13.88,1.251,86.2,,17.5,5.0,,,,,,,,,,,,0,0,0,0,0,0,0,0,0,0,0,0,0,0,0,0,,,,,,0.0,,,,,,,
259,3305484,1745471902480,,,,,,,,,,,,,,,,,,,,,,,0.0,0.0,0.0,0.0,0.0,0.0,0.0,0.0,2.27,,,0,0,0,0,0,0,0,0,0,0,0,0,0,0,0,0,,0.0,,,,,38.994099,-76.939652,0.0,27.1,32.0,3.0,0.9
260,3305504,1745471902502,0.0,54.0,,-0.1,0.02,1.0,0.0,0.0,0.0,1.0,1.22,82.0,2023.0,0.5,3.29,,13.9,1.252,86.2,,17.5,5.0,,,,,,,,,,,,0,0,0,0,0,0,0,0,0,0,0,0,0,0,0,0,,,,,,0.0,,,,,,,
261,3305524,1745471902522,,,,,,,,,,,,,,,,,,,,,,,,,,,,,,,,,,0,0,0,0,0,0,0,0,0,0,0,0,0,0,0,0,,,,,,,,,,,,,
262,3305544,1745471902542,0.0,51.0,,-0.11,0.03,0.99,0.0,0.0,0.0,1.0,1.22,82.0,2073.0,0.5,3.3,,13.9,1.252,86.2,,19.1,5.0,,,,,,,,,,,,0,0,0,0,0,0,0,0,0,0,0,0,0,0,0,0,,,,,,0.0,,,,,,,
263,3305564,1745471902562,,,,,,,,,,,,,,,,,,,,,,,,,,,,,,,,,,0,0,0,0,0,0,0,0,0,0,0,0,0,0,0,0,,,,,,,,,,,,,
264,3305584,1745471902582,0.0,54.0,,-0.1,0.04,1.0,0.0,0.0,0.0,1.01,1.22,83.0,2073.0,0.5,3.3,,13.79,1.25,86.2,,19.1,5.0,0.0,0.0,0.0,0.0,0.0,0.0,0.0,0.0,2.27,,,0,0,0,0,0,0,0,0,0,0,0,0,0,0,0,0,,0.0,,,,0.0,38.994099,-76.939652,0.0,27.1,32.0,3.0,0.9
265,3305604,1745471902602,,,,,,,,,,,,,,,,,,,,,,,,,,,,,,,,,,0,0,0,0,0,0,0,0,0,0,0,0,0,0,0,0,,,,,,,,,,,,,
266,3305624,1745471902622,0.0,51.0,,-0.1,0.04,1.0,0.0,0.0,0.0,1.0,1.22,82.0,2054.0,0.5,3.32,,13.82,1.249,86.2,,18.4,5.0,,,,,,,,,,,,0,0,0,0,0,0,0,0,0,0,0,0,0,0,0,0,,,,,,0.0,,,,,,,
267,3305644,1745471902642,,,,,,,,,,,,,,,,,,,,,,,,,,,,,,,,,,0,0,0,0,0,0,0,0,0,0,0,0,0,0,0,0,,,,,,,,,,,,,
268,3305664,1745471902662,0.0,57.0,,-0.11,0.05,1.0,0.0,0.0,0.0,1.0,1.22,82.0,2012.0,0.2,3.33,,13.88,1.249,86.2,,18.4,5.0,,,,,,,,,,,,0,0,0,0,0,0,0,0,0,0,0,0,0,0,0,0,,,,,,0.0,,,,,,,
269,3305684,1745471902682,,,,,,,,,,,,,,,,,,,,,,,0.0,0.0,0.0,0.0,0.0,0.0,0.0,0.0,2.28,,,0,0,0,0,0,0,0,0,0,0,0,0,0,0,0,0,,0.0,,,,,38.994099,-76.939652,0.09,27.1,32.0,3.0,0.9
270,3305704,1745471902704,0.0,37.0,,-0.11,0.03,1.0,0.0,0.0,0.0,1.01,1.22,82.0,1916.0,0.0,3.31,,13.87,1.249,86.2,,18.4,5.0,,,,,,,,,,,,0,0,0,0,0,0,0,0,0,0,0,0,0,0,0,0,,,,,,0.0,,,,,,,
271,3305724,1745471902724,,,,,,,,,,,,,,,,,,,,,,,,,,,,,,,,,,0,0,0,0,0,0,0,0,0,0,0,0,0,0,0,0,,,,,,,,,,,,,
272,3305744,1745471902744,0.0,41.0,,-0.11,0.01,0.98,0.0,0.0,0.0,0.99,1.22,81.0,1959.0,0.0,3.32,,13.87,1.249,86.2,,18.8,5.0,,,,,,,,,,,,0,0,0,0,0,0,0,0,0,0,0,0,0,0,0,0,,,,,,0.0,,,,,,,
273,3305764,1745471902764,,,,,,,,,,,,,,,,,,,,,,,,,,,,,,,,,,0,0,0,0,0,0,0,0,0,0,0,0,0,0,0,0,,,,,,,,,,,,,
274,3305784,1745471902784,0.0,44.0,,-0.11,-0.01,0.99,0.0,0.0,0.0,1.0,1.22,81.0,1959.0,0.0,3.32,,13.87,1.249,86.2,,18.8,5.0,0.0,0.0,0.0,0.0,0.0,0.0,0.0,0.0,2.28,,,0,0,0,0,0,0,0,0,0,0,0,0,0,0,0,0,,0.0,,,,0.0,38.994099,-76.939652,0.04,27.1,32.0,3.0,0.9
275,3305804,1745471902802,,,,,,,,,,,,,,,,,,,,,,,,,,,,,,,,,,0,0,0,0,0,0,0,0,0,0,0,0,0,0,0,0,,,,,,,,,,,,,
276,3305824,1745471902822,0.0,44.0,,-0.12,-0.0,1.0,0.0,0.0,0.0,1.01,1.22,82.0,1911.0,0.0,3.31,,13.92,1.25,86.2,,18.4,5.0,,,,,,,,,,,,0,0,0,0,0,0,0,0,0,0,0,0,0,0,0,0,,,,,,0.0,,,,,,,
277,3305844,1745471902842,,,,,,,,,,,,,,,,,,,,,,,,,,,,,,,,,,0,0,0,0,0,0,0,0,0,0,0,0,0,0,0,0,,,,,,,,,,,,,
278,3305864,1745471902862,0.0,57.0,,-0.12,0.01,0.98,0.0,0.0,0.0,0.99,1.22,81.0,2020.0,0.0,3.33,,13.87,1.252,86.2,,18.4,5.0,,,,,,,,,,,,0,0,0,0,0,0,0,0,0,0,0,0,0,0,0,0,,,,,,0.0,,,,,,,
279,3305884,1745471902882,,,,,,,,,,,,,,,,,,,,,,,0.0,0.0,0.0,0.0,0.0,0.0,0.0,0.0,2.27,,,0,0,0,0,0,0,0,0,0,0,0,0,0,0,0,0,,0.0,,,,,38.994099,-76.939652,0.04,27.1,32.0,3.0,0.9
280,3305904,1745471902904,0.0,47.0,,-0.12,0.0,1.01,0.0,0.0,0.0,1.01,1.22,83.0,1967.0,0.2,3.32,,13.86,1.252,86.2,,18.4,5.0,,,,,,,,,,,,0,0,0,0,0,0,0,0,0,0,0,0,0,0,0,0,,,,,,0.0,,,,,,,
281,3305924,1745471902924,,,,,,,,,,,,,,,,,,,,,,,,,,,,,,,,,,0,0,0,0,0,0,0,0,0,0,0,0,0,0,0,0,,,,,,,,,,,,,
282,3305944,1745471902944,0.0,54.0,,-0.12,0.01,0.99,0.0,0.0,0.0,1.0,1.22,82.0,1943.0,0.5,3.34,,13.86,1.252,86.2,,17.4,5.0,,,,,,,,,,,,0,0,0,0,0,0,0,0,0,0,0,0,0,0,0,0,,,,,,0.0,,,,,,,
283,3305964,1745471902964,,,,,,,,,,,,,,,,,,,,,,,,,,,,,,,,,,0,0,0,0,0,0,0,0,0,0,0,0,0,0,0,0,,,,,,,,,,,,,
284,3305984,1745471902984,0.0,57.0,,-0.1,-0.0,1.0,0.0,0.0,0.0,1.01,1.22,82.0,1943.0,0.5,3.34,,13.94,1.252,86.2,,17.4,5.0,0.0,0.0,0.0,0.0,0.0,0.0,0.0,0.0,2.27,,,0,0,0,0,0,0,0,0,0,0,0,0,0,0,0,0,,0.0,,,,0.0,38.994099,-76.939652,0.0,27.1,32.0,3.0,0.9
285,3306004,1745471903004,,,,,,,,,,,,,,,,,,,,,,,,,,,,,,,,,,0,0,0,0,0,0,0,0,0,0,0,0,0,0,0,0,,,,,,,,,,,,,
286,3306024,1745471903016,0.0,47.0,,-0.1,-0.0,0.99,0.0,0.0,0.0,1.0,1.22,82.0,1842.0,0.5,3.32,,13.99,1.251,86.2,,18.2,5.0,,,,,,,,,,,,0,0,0,0,0,0,0,0,0,0,0,0,0,0,0,0,,,,,,0.0,,,,,,,
287,3306044,1745471903036,,,,,,,,,,,,,,,,,,,,,,,,,,,,,,,,,,0,0,0,0,0,0,0,0,0,0,0,0,0,0,0,0,,,,,,,,,,,,,
288,3306064,1745471903056,0.0,51.0,,-0.09,-0.01,1.0,0.0,0.0,0.0,1.0,1.22,82.0,1890.0,0.5,3.33,,13.99,1.25,86.2,,18.2,5.0,,,,,,,,,,,,0,0,0,0,0,0,0,0,0,0,0,0,0,0,0,0,,,,,,0.0,,,,,,,
289,3306084,1745471903076,,,,,,,,,,,,,,,,,,,,,,,0.0,0.0,0.0,0.0,0.0,0.0,0.0,0.0,2.27,,,0,0,0,0,0,0,0,0,0,0,0,0,0,0,0,0,,0.0,,,,,38.994099,-76.939652,0.05,27.1,32.0,3.0,0.9
290,3306104,1745471903102,0.0,41.0,,-0.08,0.0,0.99,0.0,0.0,0.0,1.0,1.22,82.0,1944.0,0.5,3.32,,13.94,1.249,86.2,,18.2,5.0,,,,,,,,,,,,0,0,0,0,0,0,0,0,0,0,0,0,0,0,0,0,,,,,,0.0,,,,,,,
291,3306124,1745471903122,,,,,,,,,,,,,,,,,,,,,,,,,,,,,,,,,,0,0,0,0,0,0,0,0,0,0,0,0,0,0,0,0,,,,,,,,,,,,,
292,3306144,1745471903142,0.0,44.0,,-0.08,0.01,0.99,0.0,0.0,0.0,0.99,1.22,81.0,2004.0,0.2,3.34,,13.94,1.249,86.2,,17.9,5.0,,,,,,,,,,,,0,0,0,0,0,0,0,0,0,0,0,0,0,0,0,0,,,,,,0.0,,,,,,,
293,3306164,1745471903162,,,,,,,,,,,,,,,,,,,,,,,,,,,,,,,,,,0,0,0,0,0,0,0,0,0,0,0,0,0,0,0,0,,,,,,,,,,,,,
294,3306184,1745471903182,0.0,57.0,,-0.07,0.01,0.99,0.0,0.0,0.0,0.99,1.22,81.0,2004.0,0.2,3.34,,13.87,1.249,86.2,,17.9,5.0,0.0,0.0,0.0,0.0,0.0,0.0,0.0,0.0,2.28,,,0,0,0,0,0,0,0,0,0,0,0,0,0,0,0,0,,0.0,,,,0.0,38.994099,-76.939652,0.04,27.1,32.0,3.0,0.9
295,3306204,1745471903201,,,,,,,,,,,,,,,,,,,,,,,,,,,,,,,,,,0,0,0,0,0,0,0,0,0,0,0,0,0,0,0,0,,,,,,,,,,,,,
296,3306224,1745471903221,0.0,51.0,,-0.08,-0.0,0.97,0.0,0.0,0.0,0.97,1.22,79.0,1981.0,0.0,3.33,,13.91,1.249,86.2,,18.0,5.0,,,,,,,,,,,,0,0,0,0,0,0,0,0,0,0,0,0,0,0,0,0,,,,,,0.0,,,,,,,
297,3306244,1745471903241,,,,,,,,,,,,,,,,,,,,,,,,,,,,,,,,,,0,0,0,0,0,0,0,0,0,0,0,0,0,0,0,0,,,,,,,,,,,,,
298,3306264,1745471903261,0.0,57.0,,-0.08,0.01,0.97,0.0,0.0,0.0,0.98,1.22,80.0,1895.0,0.4,3.33,,14.02,1.25,86.2,,18.0,5.0,,,,,,,,,,,,0,0,0,0,0,0,0,0,0,0,0,0,0,0,0,0,,,,,,0.0,,,,,,,
299,3306284,1745471903281,,,,,,,,,,,,,,,,,,,,,,,0.0,0.0,0.0,0.0,0.0,0.0,0.0,0.0,2.27,,,0,0,0,0,0,0,0,0,0,0,0,0,0,0,0,0,,0.0,,,,,38.994099,-76.939652,0.04,27.1,32.0,3.0,0.9
300,3306304,1745471903303,0.0,51.0,,-0.08,0.01,0.99,0.0,0.0,0.0,0.99,1.22,81.0,1943.0,4.9,3.46,,14.12,1.252,86.2,,18.0,5.0,,,,,,,,,,,,0,0,0,0,0,0,0,0,0,0,0,0,0,0,0,0,,,,,,0.0,,,,,,,
301,3306324,1745471903323,,,,,,,,,,,,,,,,,,,,,,,,,,,,,,,,,,0,0,0,0,0,0,0,0,0,0,0,0,0,0,0,0,,,,,,,,,,,,,
302,3306344,1745471903343,0.0,61.0,,-0.08,0.02,0.97,0.0,0.0,0.0,0.97,1.22,80.0,2011.0,8.1,3.64,,14.12,1.252,86.2,,18.4,5.0,,,,,,,,,,,,0,0,0,0,0,0,0,0,0,0,0,0,0,0,0,0,,,,,,0.0,,,,,,,
303,3306364,1745471903363,,,,,,,,,,,,,,,,,,,,,,,,,,,,,,,,,,0,0,0,0,0,0,0,0,0,0,0,0,0,0,0,0,,,,,,,,,,,,,
304,3306384,1745471903383,0.0,44.0,13.55,-0.09,0.02,0.99,0.0,0.0,0.0,0.99,1.22,81.0,2011.0,8.1,3.64,15.0,14.16,1.253,86.2,160.0,18.4,5.0,0.0,0.0,0.0,0.0,0.0,0.0,0.0,0.0,2.27,0.0,1.0,0,0,0,0,0,0,0,0,0,0,0,0,0,0,0,0,0.0,0.0,1.0,0.0,0.0,0.0,38.994099,-76.939652,0.0,27.1,32.0,3.0,0.9
305,3306404,1745471903403,,,,,,,,,,,,,,,,,,,,,,,,,,,,,,,,,,0,0,0,0,0,0,0,0,0,0,0,0,0,0,0,0,,,,,,,,,,,,,
306,3306424,1745471903423,0.0,37.0,,-0.09,0.03,0.98,0.0,0.0,0.0,0.99,1.22,81.0,2003.0,10.5,3.73,,14.3,1.252,86.2,,17.6,5.0,,,,,,,,,,,,0,0,0,0,0,0,0,0,0,0,0,0,0,0,0,0,,,,,,0.0,,,,,,,
307,3306444,1745471903443,,,,,,,,,,,,,,,,,,,,,,,,,,,,,,,,,,0,0,0,0,0,0,0,0,0,0,0,0,0,0,0,0,,,,,,,,,,,,,
308,3306464,1745471903463,0.0,47.0,,-0.07,0.03,0.99,0.0,0.0,0.0,1.0,1.22,81.0,1852.0,11.3,3.78,,14.39,1.252,86.2,,17.6,5.0,,,,,,,,,,,,0,0,0,0,0,0,0,0,0,0,0,0,0,0,0,0,,,,,,0.0,,,,,,,
309,3306484,1745471903483,,,,,,,,,,,,,,,,,,,,,,,0.0,0.0,0.0,0.0,0.0,0.0,0.0,0.0,2.27,,,0,0,0,0,0,0,0,0,0,0,0,0,0,0,0,0,,0.0,,,,,38.994099,-76.939652,0.04,27.1,32.0,3.0,0.9
310,3306504,1745471903503,0.0,44.0,,-0.07,0.02,1.0,0.0,0.0,0.0,1.0,1.22,82.0,1628.0,11.5,3.78,,14.46,1.25,86.2,,17.6,5.0,,,,,,,,,,,,0,0,0,0,0,0,0,0,0,0,0,0,0,0,0,0,,,,,,0.0,,,,,,,
311,3306524,1745471903523,,,,,,,,,,,,,,,,,,,,,,,,,,,,,,,,,,0,0,0,0,0,0,0,0,0,0,0,0,0,0,0,0,,,,,,,,,,,,,
312,3306544,1745471903543,0.0,51.0,,-0.06,0.01,1.0,0.0,0.0,0.0,1.01,1.22,82.0,1930.0,11.6,3.78,,14.46,1.25,86.2,,17.9,5.0,,,,,,,,,,,,0,0,0,0,0,0,0,0,0,0,0,0,0,0,0,0,,,,,,0.0,,,,,,,
313,3306564,1745471903563,,,,,,,,,,,,,,,,,,,,,,,,,,,,,,,,,,0,0,0,0,0,0,0,0,0,0,0,0,0,0,0,0,,,,,,,,,,,,,
314,3306584,1745471903583,0.0,64.0,,-0.06,-0.0,1.0,0.0,0.0,0.0,1.0,1.22,82.0,1930.0,11.6,3.78,,14.42,1.249,86.2,,17.9,5.0,0.0,0.0,0.0,0.0,0.0,0.0,0.0,0.0,2.27,,,0,0,0,0,0,0,0,0,0,0,0,0,0,0,0,0,,0.0,,,,0.0,38.994099,-76.939652,0.0,27.1,32.0,3.0,0.9
315,3306604,1745471903603,,,,,,,,,,,,,,,,,,,,,,,,,,,,,,,,,,0,0,0,0,0,0,0,0,0,0,0,0,0,0,0,0,,,,,,,,,,,,,
316,3306624,1745471903623,0.0,44.0,,-0.06,0.0,1.0,0.0,0.0,0.0,1.0,1.22,82.0,2099.0,11.3,3.77,,14.27,1.249,86.2,,19.4,5.0,,,,,,,,,,,,0,0,0,0,0,0,0,0,0,0,0,0,0,0,0,0,,,,,,0.0,,,,,,,
317,3306644,1745471903643,,,,,,,,,,,,,,,,,,,,,,,,,,,,,,,,,,0,0,0,0,0,0,0,0,0,0,0,0,0,0,0,0,,,,,,,,,,,,,
318,3306664,1745471903663,0.0,64.0,,-0.06,0.02,1.01,0.0,0.0,0.0,1.01,1.22,83.0,2191.0,11.1,3.78,,14.3,1.249,86.2,,19.4,5.0,,,,,,,,,,,,0,0,0,0,0,0,0,0,0,0,0,0,0,0,0,0,,,,,,0.0,,,,,,,
319,3306684,1745471903683,,,,,,,,,,,,,,,,,,,,,,,0.0,0.0,0.0,0.0,0.0,0.0,0.0,0.0,2.28,,,0,0,0,0,0,0,0,0,0,0,0,0,0,0,0,0,,0.0,,,,,38.994099,-76.939652,0.04,27.1,32.0,3.0,0.9
320,3306704,1745471903701,0.0,37.0,,-0.08,0.02,1.01,0.0,0.0,0.0,1.01,1.22,83.0,2245.0,11.0,3.79,,14.26,1.248,86.2,,19.4,5.0,,,,,,,,,,,,0,0,0,0,0,0,0,0,0,0,0,0,0,0,0,0,,,,,,0.0,,,,,,,
321,3306724,1745471903721,,,,,,,,,,,,,,,,,,,,,,,,,,,,,,,,,,0,0,0,0,0,0,0,0,0,0,0,0,0,0,0,0,,,,,,,,,,,,,
322,3306744,1745471903741,0.0,44.0,,-0.08,0.02,1.01,0.0,0.0,0.0,1.01,1.22,83.0,2328.0,15.8,4.32,,14.26,1.248,86.2,,20.0,5.0,,,,,,,,,,,,0,0,0,0,0,0,0,0,0,0,0,0,0,0,0,0,,,,,,0.0,,,,,,,
323,3306764,1745471903761,,,,,,,,,,,,,,,,,,,,,,,,,,,,,,,,,,0,0,0,0,0,0,0,0,0,0,0,0,0,0,0,0,,,,,,,,,,,,,
324,3306784,1745471903781,0.0,54.0,,-0.08,-0.0,1.01,0.0,0.0,0.0,1.02,1.22,83.0,2328.0,15.8,4.32,,14.28,1.25,86.2,,20.0,5.0,0.0,0.0,0.0,0.0,0.0,0.0,0.0,0.0,2.28,,,0,0,0,0,0,0,0,0,0,0,0,0,0,0,0,0,,0.0,,,,0.0,38.994099,-76.939652,0.05,27.1,32.0,3.0,0.9
325,3306804,1745471903803,,,,,,,,,,,,,,,,,,,,,,,,,,,,,,,,,,0,0,0,0,0,0,0,0,0,0,0,0,0,0,0,0,,,,,,,,,,,,,
326,3306824,1745471903823,0.0,41.0,,-0.09,0.02,1.01,0.0,0.0,0.0,1.01,1.22,83.0,2437.0,20.1,4.67,,14.35,1.251,86.2,,21.6,5.0,,,,,,,,,,,,0,0,0,0,0,0,0,0,0,0,0,0,0,0,0,0,,,,,,0.0,,,,,,,
327,3306844,1745471903843,,,,,,,,,,,,,,,,,,,,,,,,,,,,,,,,,,0,0,0,0,0,0,0,0,0,0,0,0,0,0,0,0,,,,,,,,,,,,,
328,3306864,1745471903863,0.0,57.0,,-0.07,0.01,1.04,0.0,0.0,0.0,1.04,1.22,85.0,2600.0,21.5,4.63,,14.32,1.251,86.2,,21.6,5.0,,,,,,,,,,,,0,0,0,0,0,0,0,0,0,0,0,0,0,0,0,0,,,,,,0.0,,,,,,,
329,3306884,1745471903883,,,,,,,,,,,,,,,,,,,,,,,0.0,0.0,0.0,0.0,0.0,0.0,0.0,0.0,2.27,,,0,0,0,0,0,0,0,0,0,0,0,0,0,0,0,0,,0.0,,,,,38.994099,-76.939652,0.05,27.1,32.0,3.0,0.9
330,3306904,1745471903901,0.0,54.0,,-0.07,0.04,1.0,0.0,0.0,0.0,1.0,1.22,82.0,2792.0,21.9,4.54,,14.26,1.251,86.2,,21.6,5.0,,,,,,,,,,,,0,0,0,0,0,0,0,0,0,0,0,0,0,0,0,0,,,,,,0.0,,,,,,,
331,3306924,1745471903921,,,,,,,,,,,,,,,,,,,,,,,,,,,,,,,,,,0,0,0,0,0,0,0,0,0,0,0,0,0,0,0,0,,,,,,,,,,,,,
332,3306944,1745471903941,0.0,64.0,,-0.05,0.08,0.96,1.0,-1.0,0.0,0.96,1.22,79.0,2927.0,20.6,4.47,,14.26,1.251,86.2,,26.1,5.0,,,,,,,,,,,,0,0,0,0,0,0,0,0,0,0,0,0,0,0,0,0,,,,,,0.0,,,,,,,
333,3306964,1745471903961,,,,,,,,,,,,,,,,,,,,,,,,,,,,,,,,,,0,0,0,0,0,0,0,0,0,0,0,0,0,0,0,0,,,,,,,,,,,,,
334,3306984,1745471903981,0.0,57.0,,-0.01,0.15,1.0,1.0,-1.0,1.0,1.01,1.22,82.0,2927.0,20.6,4.47,,14.23,1.251,86.2,,26.1,5.0,0.0,0.0,0.0,0.0,0.0,0.0,0.0,0.0,2.27,,,0,0,0,0,0,0,0,0,0,0,0,0,0,0,0,0,,0.0,,,,0.0,38.994099,-76.939652,0.05,27.1,32.0,3.0,0.9
335,3307004,1745471904001,,,,,,,,,,,,,,,,,,,,,,,,,,,,,,,,,,0,0,0,0,0,0,0,0,0,0,0,0,0,0,0,0,,,,,,,,,,,,,
336,3307024,1745471904015,0.0,54.0,,-0.02,0.08,1.05,0.0,0.0,0.0,1.05,1.22,86.0,3282.0,11.2,4.02,,13.92,1.25,86.2,,29.5,5.0,,,,,,,,,,,,0,0,0,0,0,0,0,0,0,0,0,0,0,0,0,0,,,,,,0.0,,,,,,,
337,3307044,1745471904035,,,,,,,,,,,,,,,,,,,,,,,,,,,,,,,,,,0,0,0,0,0,0,0,0,0,0,0,0,0,0,0,0,,,,,,,,,,,,,
338,3307064,1745471904055,0.0,44.0,,-0.03,0.12,0.97,1.0,-1.0,0.0,0.98,1.22,80.0,3324.0,6.0,3.83,,13.53,1.249,86.2,,29.5,5.0,,,,,,,,,,,,0,0,0,0,0,0,0,0,0,0,0,0,0,0,0,0,,,,,,0.0,,,,,,,
339,3307084,1745471904075,,,,,,,,,,,,,,,,,,,,,,,0.0,0.0,0.0,0.0,0.0,0.0,0.0,0.0,2.27,,,0,0,0,0,0,0,0,0,0,0,0,0,0,0,0,0,,0.0,,,,,38.994099,-76.939652,0.0,27.1,32.0,3.0,0.9
340,3307104,1745471904101,0.0,44.0,,-0.03,0.05,1.04,0.0,0.0,0.0,1.05,1.22,86.0,3356.0,4.7,3.6,,13.29,1.249,86.2,,29.5,5.0,,,,,,,,,,,,0,0,0,0,0,0,0,0,0,0,0,0,0,0,0,0,,,,,,0.0,,,,,,,
341,3307124,1745471904121,,,,,,,,,,,,,,,,,,,,,,,,,,,,,,,,,,0,0,0,0,0,0,0,0,0,0,0,0,0,0,0,0,,,,,,,,,,,,,
342,3307144,1745471904141,0.0,44.0,,-0.04,0.11,0.98,1.0,-1.0,0.0,0.98,1.22,80.0,3431.0,4.3,3.58,,13.29,1.249,86.2,,30.9,5.0,,,,,,,,,,,,0,0,0,0,0,0,0,0,0,0,0,0,0,0,0,0,,,,,,0.0,,,,,,,
343,3307164,1745471904161,,,,,,,,,,,,,,,,,,,,,,,,,,,,,,,,,,0,0,0,0,0,0,0,0,0,0,0,0,0,0,0,0,,,,,,,,,,,,,
344,3307184,1745471904181,0.0,54.0,,-0.05,-0.04,1.03,0.0,0.0,0.0,1.03,1.22,84.0,3431.0,4.3,3.58,,13.15,1.249,86.2,,30.9,5.0,0.0,0.0,0.0,0.0,0.0,0.0,0.0,0.0,2.28,,,0,0,0,0,0,0,0,0,0,0,0,0,0,0,0,0,,0.0,,,,0.0,38.994099,-76.939652,0.04,27.1,32.0,3.0,0.9
345,3307204,1745471904202,,,,,,,,,,,,,,,,,,,,,,,,,,,,,,,,,,0,0,0,0,0,0,0,0,0,0,0,0,0,0,0,0,,,,,,,,,,,,,
346,3307224,1745471904222,0.0,47.0,,-0.04,0.07,0.98,1.0,0.0,0.0,0.99,1.22,81.0,3398.0,4.1,3.54,,13.0,1.249,86.2,,31.5,5.0,,,,,,,,,,,,0,0,0,0,0,0,0,0,0,0,0,0,0,0,0,0,,,,,,0.0,,,,,,,
347,3307244,1745471904242,,,,,,,,,,,,,,,,,,,,,,,,,,,,,,,,,,0,0,0,0,0,0,0,0,0,0,0,0,0,0,0,0,,,,,,,,,,,,,
348,3307264,1745471904262,0.0,61.0,,-0.07,0.02,1.01,0.0,0.0,0.0,1.01,1.22,83.0,3440.0,4.1,3.48,,12.97,1.249,86.2,,31.5,5.0,,,,,,,,,,,,0,0,0,0,0,0,0,0,0,0,0,0,0,0,0,0,,,,,,0.0,,,,,,,
349,3307284,1745471904282,,,,,,,,,,,,,,,,,,,,,,,0.0,0.0,0.0,0.0,0.0,0.0,0.0,0.0,2.28,,,0,0,0,0,0,0,0,0,0,0,0,0,0,0,0,0,,0.0,,,,,38.994099,-76.939652,0.04,27.1,32.0,3.0,0.9
350,3307304,1745471904303,0.0,54.0,,-0.05,0.08,1.02,0.0,0.0,1.0,1.02,1.22,83.0,3406.0,7.1,3.56,,13.13,1.251,86.2,,31.5,5.0,,,,,,,,,,,,0,0,0,0,0,0,0,0,0,0,0,0,0,0,0,0,,,,,,0.0,,,,,,,
351,3307324,1745471904323,,,,,,,,,,,,,,,,,,,,,,,,,,,,,,,,,,0,0,0,0,0,0,0,0,0,0,0,0,0,0,0,0,,,,,,,,,,,,,
352,3307344,1745471904343,0.0,54.0,,-0.07,0.0,1.01,0.0,0.0,0.0,1.01,1.22,83.0,3333.0,12.8,4.03,,13.13,1.251,86.2,,31.0,5.0,,,,,,,,,,,,0,0,0,0,0,0,0,0,0,0,0,0,0,0,0,0,,,,,,0.0,,,,,,,
353,3307364,1745471904363,,,,,,,,,,,,,,,,,,,,,,,,,,,,,,,,,,0,0,0,0,0,0,0,0,0,0,0,0,0,0,0,0,,,,,,,,,,,,,
354,3307384,1745471904383,0.0,44.0,13.61,-0.06,0.02,1.04,0.0,0.0,1.0,1.04,1.22,85.0,3333.0,12.8,4.03,15.0,13.45,1.251,86.2,160.0,31.0,5.0,0.0,0.0,0.0,0.0,0.0,0.0,0.0,0.0,2.27,0.0,1.0,0,0,0,0,0,0,0,0,0,0,0,0,0,0,0,0,0.0,0.0,1.0,0.0,0.0,0.0,38.994099,-76.939652,0.0,27.1,32.0,3.0,0.9
355,3307404,1745471904402,,,,,,,,,,,,,,,,,,,,,,,,,,,,,,,,,,0,0,0,0,0,0,0,0,0,0,0,0,0,0,0,0,,,,,,,,,,,,,
356,3307424,1745471904422,0.0,41.0,,-0.08,0.05,0.97,1.0,0.0,0.0,0.98,1.22,80.0,3469.0,14.5,4.08,,13.68,1.251,86.2,,32.1,5.0,,,,,,,,,,,,0,0,0,0,0,0,0,0,0,0,0,0,0,0,0,0,,,,,,0.0,,,,,,,
357,3307444,1745471904442,,,,,,,,,,,,,,,,,,,,,,,,,,,,,,,,,,0,0,0,0,0,0,0,0,0,0,0,0,0,0,0,0,,,,,,,,,,,,,
358,3307464,1745471904462,0.0,54.0,,-0.08,-0.02,1.01,-1.0,0.0,0.0,1.01,1.22,83.0,3491.0,15.1,4.1,,13.71,1.251,86.2,,32.1,5.0,,,,,,,,,,,,0,0,0,0,0,0,0,0,0,0,0,0,0,0,0,0,,,,,,0.0,,,,,,,
359,3307484,1745471904482,,,,,,,,,,,,,,,,,,,,,,,0.0,0.0,0.0,0.0,0.0,0.0,0.0,0.0,2.27,,,0,0,0,0,0,0,0,0,0,0,0,0,0,0,0,0,,0.0,,,,,38.994099,-76.939652,0.04,27.1,32.0,3.0,0.9
360,3307504,1745471904502,0.0,34.0,,-0.07,-0.04,1.02,-1.0,0.0,0.0,1.03,1.22,84.0,3680.0,15.3,4.1,,13.64,1.25,86.2,,32.1,5.0,,,,,,,,,,,,0,0,0,0,0,0,0,0,0,0,0,0,0,0,0,0,,,,,,0.0,,,,,,,
361,3307524,1745471904522,,,,,,,,,,,,,,,,,,,,,,,,,,,,,,,,,,0,0,0,0,0,0,0,0,0,0,0,0,0,0,0,0,,,,,,,,,,,,,
362,3307544,1745471904542,0.0,51.0,,-0.07,-0.01,0.98,-1.0,0.0,0.0,0.98,1.22,80.0,3742.0,15.5,4.06,,13.64,1.25,86.2,,34.5,5.0,,,,,,,,,,,,0,0,0,0,0,0,0,0,0,0,0,0,0,0,0,0,,,,,,0.0,,,,,,,
363,3307564,1745471904562,,,,,,,,,,,,,,,,,,,,,,,,,,,,,,,,,,0,0,0,0,0,0,0,0,0,0,0,0,0,0,0,0,,,,,,,,,,,,,
364,3307584,1745471904582,0.0,61.0,,-0.08,0.0,0.96,0.0,0.0,0.0,0.97,1.22,79.0,3742.0,15.5,4.06,,13.64,1.248,86.2,,34.5,5.0,0.0,0.0,0.0,0.0,0.0,0.0,0.0,0.0,2.27,,,0,0,0,0,0,0,0,0,0,0,0,0,0,0,0,0,,0.0,,,,0.0,38.994099,-76.939652,0.1,27.1,32.0,3.0,0.9
365,3307604,1745471904602,,,,,,,,,,,,,,,,,,,,,,,,,,,,,,,,,,0,0,0,0,0,0,0,0,0,0,0,0,0,0,0,0,,,,,,,,,,,,,
366,3307624,1745471904622,0.0,51.0,,-0.08,0.06,1.02,1.0,0.0,0.0,1.03,1.22,84.0,3919.0,15.4,4.04,,13.51,1.249,86.2,,37.3,5.0,,,,,,,,,,,,0,0,0,0,0,0,0,0,0,0,0,0,0,0,0,0,,,,,,0.0,,,,,,,
367,3307644,1745471904642,,,,,,,,,,,,,,,,,,,,,,,,,,,,,,,,,,0,0,0,0,0,0,0,0,0,0,0,0,0,0,0,0,,,,,,,,,,,,,
368,3307664,1745471904662,0.0,54.0,,-0.08,-0.05,0.96,-1.0,0.0,0.0,0.97,1.22,79.0,4034.0,15.1,4.01,,13.48,1.249,86.2,,37.3,5.0,,,,,,,,,,,,0,0,0,0,0,0,0,0,0,0,0,0,0,0,0,0,,,,,,0.0,,,,,,,
369,3307684,1745471904682,,,,,,,,,,,,,,,,,,,,,,,0.0,0.0,0.0,0.0,0.0,0.0,0.0,0.0,2.28,,,0,0,0,0,0,0,0,0,0,0,0,0,0,0,0,0,,0.0,,,,,38.994099,-76.939652,0.08,27.1,32.0,3.0,0.9
370,3307704,1745471904702,0.0,47.0,,-0.1,0.02,0.97,0.0,0.0,0.0,0.97,1.22,80.0,4039.0,15.2,4.01,,13.37,1.248,86.2,,37.3,5.0,,,,,,,,,,,,0,0,0,0,0,0,0,0,0,0,0,0,0,0,0,0,,,,,,0.0,,,,,,,
371,3307724,1745471904722,,,,,,,,,,,,,,,,,,,,,,,,,,,,,,,,,,0,0,0,0,0,0,0,0,0,0,0,0,0,0,0,0,,,,,,,,,,,,,
372,3307744,1745471904742,0.0,37.0,,-0.09,-0.04,0.95,-1.0,0.0,0.0,0.95,1.22,78.0,4138.0,15.3,4.01,,13.37,1.248,86.2,,38.7,5.0,,,,,,,,,,,,0,0,0,0,0,0,0,0,0,0,0,0,0,0,0,0,,,,,,0.0,,,,,,,
373,3307764,1745471904762,,,,,,,,,,,,,,,,,,,,,,,,,,,,,,,,,,0,0,0,0,0,0,0,0,0,0,0,0,0,0,0,0,,,,,,,,,,,,,
374,3307784,1745471904782,0.0,47.0,,-0.09,0.04,0.99,1.0,0.0,0.0,1.0,1.22,82.0,4138.0,15.3,4.01,,13.35,1.25,86.2,,38.7,5.0,0.0,0.0,0.0,0.0,0.0,0.0,0.0,0.0,2.28,,,0,0,0,0,0,0,0,0,0,0,0,0,0,0,0,0,,0.0,,,,0.0,38.994099,-76.939652,0.1,27.0,32.0,3.0,0.9
375,3307804,1745471904802,,,,,,,,,,,,,,,,,,,,,,,,,,,,,,,,,,0,0,0,0,0,0,0,0,0,0,0,0,0,0,0,0,,,,,,,,,,,,,
376,3307824,1745471904822,0.0,34.0,,-0.06,-0.06,0.91,0.0,0.0,0.0,0.91,1.22,75.0,4240.0,15.3,3.99,,13.29,1.251,86.2,,40.6,5.0,,,,,,,,,,,,0,0,0,0,0,0,0,0,0,0,0,0,0,0,0,0,,,,,,0.0,,,,,,,
377,3307844,1745471904842,,,,,,,,,,,,,,,,,,,,,,,,,,,,,,,,,,0,0,0,0,0,0,0,0,0,0,0,0,0,0,0,0,,,,,,,,,,,,,
378,3307864,1745471904862,0.0,44.0,,-0.08,-0.08,0.9,-1.0,0.0,0.0,0.91,1.22,74.0,4335.0,15.6,4.03,,13.28,1.251,86.2,,40.6,5.0,,,,,,,,,,,,0,0,0,0,0,0,0,0,0,0,0,0,0,0,0,0,,,,,,0.0,,,,,,,
