,Interval,Utc,FrontBP,SteerAng,Battery,AccelX,AccelY,AccelZ,Yaw,Pitch,Roll,Gsum,GsumMax,GsumPct,RPM,TPS,InjectorPW,Baro,MAP,Lambda,IAT,EngineTemp,EOP,EOT,WSFR,WSFL,WSRR,WSRL,TCSet,TCSlip,TCComp,TCCut,Analog8,OilTemp,AA_On,ThermLF1,ThermLF2,ThermRR1,ThermRR2,ThermLF3,ThermLF4,ThermLF5,ThermLF6,ThermLF7,ThermLF8,ThermRR3,ThermRR4,ThermRR5,ThermRR6,ThermRR7,ThermRR8,Gear,AA_On1,AA_LowDrag,Fuel_Mix,AA_Packages,Latitude,Longitude,Speed,GPSSats,GPSQual,GPSDOP
0,131959,0,,,,,,,,,,,,,,,,,,,,,,,,,,,,,,,,,,0,0,0,0,0,0,0,0,0,0,0,0,0,0,0,0,,,,,,,,,,,
1,131979,0,0.0,135.0,,-0.11,0.33,1.14,1.0,-2.0,1.0,1.19,1.19,100.0,3962.0,1.5,2.8,,10.89,0.842,82.6,,68.4,5.0,,,,,,,,,,,,0,0,0,0,0,0,0,0,0,0,0,0,0,0,0,0,,,,,0.0,,,,,,
2,131999,0,,,,,,,,,,,,,,,,,,,,,,,,,,,,,,,,,,0,0,0,0,0,0,0,0,0,0,0,0,0,0,0,0,,,,,,,,,,,
3,132019,0,0.0,135.0,,-0.12,0.24,1.12,1.0,-2.0,1.0,1.15,1.19,97.0,3962.0,1.5,2.8,,11.05,0.842,82.6,,63.3,5.0,,,,,,,,,,,,0,0,0,0,0,0,0,0,0,0,0,0,0,0,0,0,,,,,0.0,,,,,,
4,132039,0,,,,,,,,,,,,,,,,,,,,,,,0.0,0.0,0.0,0.0,0.0,0.0,0.0,0.0,2.26,,,0,0,0,0,0,0,0,0,0,0,0,0,0,0,0,0,0.0,,,,,0.0,0.0,0.0,0.0,0.0,0.0
5,132059,0,0.0,135.0,,-0.14,0.14,1.09,1.0,-2.0,1.0,1.11,1.19,94.0,3917.0,2.5,3.06,,11.41,0.845,82.6,,63.3,5.0,,,,,,,,,,,,0,0,0,0,0,0,0,0,0,0,0,0,0,0,0,0,,,,,0.0,,,,,,
6,132079,0,,,,,,,,,,,,,,,,,,,,,,,,,,,,,,,,,,0,0,0,0,0,0,0,0,0,0,0,0,0,0,0,0,,,,,,,,,,,
7,132099,0,0.0,135.0,,-0.16,0.09,1.08,1.0,-2.0,0.0,1.1,1.19,92.0,3880.0,2.7,3.15,,11.57,0.846,82.6,,63.3,5.0,,,,,,,,,,,,0,0,0,0,0,0,0,0,0,0,0,0,0,0,0,0,,,,,0.0,,,,,,
8,132119,0,,,,,,,,,,,,,,,,,,,,,,,,,,,,,,,,,,0,0,0,0,0,0,0,0,0,0,0,0,0,0,0,0,,,,,,,,,,,
9,132139,0,0.0,135.0,13.63,-0.18,0.02,1.07,2.0,-2.0,0.0,1.09,1.19,91.0,3772.0,2.6,3.18,15.0,11.81,0.847,82.6,122.0,60.9,5.0,0.0,0.0,0.0,0.0,0.0,0.0,0.0,0.0,2.26,0.0,0.0,0,0,0,0,0,0,0,0,0,0,0,0,0,0,0,0,0.0,0.0,0.0,0.0,0.0,0.0,0.0,0.0,0.0,0.0,0.0
10,132159,0,,,,,,,,,,,,,,,,,,,,,,,,,,,,,,,,,,0,0,0,0,0,0,0,0,0,0,0,0,0,0,0,0,,,,,,,,,,,
11,132179,0,0.0,135.0,,-0.19,0.03,1.07,2.0,-1.0,0.0,1.08,1.19,91.0,3688.0,2.6,3.2,,11.81,0.847,82.6,,60.9,5.0,,,,,,,,,,,,0,0,0,0,0,0,0,0,0,0,0,0,0,0,0,0,,,,,0.0,,,,,,
12,132199,0,,,,,,,,,,,,,,,,,,,,,,,,,,,,,,,,,,0,0,0,0,0,0,0,0,0,0,0,0,0,0,0,0,,,,,,,,,,,
13,132219,0,0.0,135.0,,-0.17,0.1,1.05,1.0,-1.0,1.0,1.07,1.19,90.0,3688.0,2.6,3.2,,11.95,0.849,82.6,,60.3,5.0,,,,,,,,,,,,0,0,0,0,0,0,0,0,0,0,0,0,0,0,0,0,,,,,0.0,,,,,,
14,132239,0,,,,,,,,,,,,,,,,,,,,,,,0.0,9.0,0.0,0.0,0.0,0.0,0.0,0.0,2.26,,,0,0,0,0,0,0,0,0,0,0,0,0,0,0,0,0,0.0,,,,,0.0,0.0,0.0,0.0,0.0,0.0
15,132259,0,0.0,135.0,,-0.15,0.14,1.03,1.0,-1.0,1.0,1.05,1.19,89.0,3627.0,2.4,3.17,,12.03,0.844,82.6,,60.3,5.0,,,,,,,,,,,,0,0,0,0,0,0,0,0,0,0,0,0,0,0,0,0,,,,,0.0,,,,,,
16,132279,0,,,,,,,,,,,,,,,,,,,,,,,,,,,,,,,,,,0,0,0,0,0,0,0,0,0,0,0,0,0,0,0,0,,,,,,,,,,,
17,132299,0,0.0,135.0,,-0.16,0.06,0.99,2.0,-1.0,0.0,1.0,1.19,84.0,3546.0,2.3,3.16,,12.17,0.84,82.6,,60.3,5.0,,,,,,,,,,,,0,0,0,0,0,0,0,0,0,0,0,0,0,0,0,0,,,,,0.0,,,,,,
18,132319,0,,,,,,,,,,,,,,,,,,,,,,,,,,,,,,,,,,0,0,0,0,0,0,0,0,0,0,0,0,0,0,0,0,,,,,,,,,,,
19,132339,0,0.0,135.0,,-0.17,0.06,1.07,1.0,-1.0,0.0,1.09,1.19,91.0,3460.0,2.0,3.12,,12.23,0.851,82.6,,57.5,5.0,0.0,9.0,0.0,0.0,0.0,24.0,0.0,0.0,2.26,,,0,0,0,0,0,0,0,0,0,0,0,0,0,0,0,0,0.0,,,,0.0,0.0,0.0,0.0,0.0,0.0,0.0
20,132359,0,,,,,,,,,,,,,,,,,,,,,,,,,,,,,,,,,,0,0,0,0,0,0,0,0,0,0,0,0,0,0,0,0,,,,,,,,,,,
21,132379,0,0.0,135.0,,-0.15,0.14,0.98,1.0,-1.0,0.0,1.0,1.19,84.0,3428.0,1.6,3.07,,12.23,0.851,82.6,,57.5,5.0,,,,,,,,,,,,0,0,0,0,0,0,0,0,0,0,0,0,0,0,0,0,,,,,0.0,,,,,,
22,132399,0,,,,,,,,,,,,,,,,,,,,,,,,,,,,,,,,,,0,0,0,0,0,0,0,0,0,0,0,0,0,0,0,0,,,,,,,,,,,
23,132419,0,0.0,135.0,,-0.16,0.09,1.07,1.0,-1.0,0.0,1.09,1.19,91.0,3428.0,1.6,3.07,,12.36,0.859,82.6,,56.0,5.0,,,,,,,,,,,,0,0,0,0,0,0,0,0,0,0,0,0,0,0,0,0,,,,,0.0,,,,,,
24,132439,0,,,,,,,,,,,,,,,,,,,,,,,0.0,9.0,0.0,0.0,0.0,24.0,0.0,0.0,2.26,,,0,0,0,0,0,0,0,0,0,0,0,0,0,0,0,0,0.0,,,,,0.0,0.0,0.0,0.0,0.0,0.0
25,132459,0,0.0,135.0,,-0.16,0.08,0.99,1.0,-1.0,0.0,1.0,1.19,84.0,3315.0,1.4,3.01,,12.44,0.847,82.6,,56.0,5.0,,,,,,,,,,,,0,0,0,0,0,0,0,0,0,0,0,0,0,0,0,0,,,,,0.0,,,,,,
26,132479,0,,,,,,,,,,,,,,,,,,,,,,,,,,,,,,,,,,0,0,0,0,0,0,0,0,0,0,0,0,0,0,0,0,,,,,,,,,,,
27,132499,0,0.0,135.0,,-0.13,0.1,0.96,1.0,-1.0,0.0,0.97,1.19,82.0,3219.0,1.3,3.04,,12.51,0.83,82.6,,56.0,5.0,,,,,,,,,,,,0,0,0,0,0,0,0,0,0,0,0,0,0,0,0,0,,,,,0.0,,,,,,
28,132519,0,,,,,,,,,,,,,,,,,,,,,,,,,,,,,,,,,,0,0,0,0,0,0,0,0,0,0,0,0,0,0,0,0,,,,,,,,,,,
29,132539,0,0.0,135.0,,-0.12,0.1,1.02,1.0,-1.0,1.0,1.03,1.19,87.0,3144.0,1.1,3.02,,12.55,0.816,82.6,,56.9,5.0,0.0,9.0,0.0,0.0,0.0,24.0,0.0,0.0,2.26,,,0,0,0,0,0,0,0,0,0,0,0,0,0,0,0,0,0.0,,,,0.0,0.0,0.0,0.0,0.0,0.0,0.0
30,132559,0,,,,,,,,,,,,,,,,,,,,,,,,,,,,,,,,,,0,0,0,0,0,0,0,0,0,0,0,0,0,0,0,0,,,,,,,,,,,
31,132579,0,0.0,135.0,,-0.12,0.05,1.08,1.0,-1.0,1.0,1.08,1.19,91.0,3106.0,1.0,3.01,,12.55,0.816,82.6,,56.9,5.0,,,,,,,,,,,,0,0,0,0,0,0,0,0,0,0,0,0,0,0,0,0,,,,,0.0,,,,,,
32,132599,0,,,,,,,,,,,,,,,,,,,,,,,,,,,,,,,,,,0,0,0,0,0,0,0,0,0,0,0,0,0,0,0,0,,,,,,,,,,,
33,132619,0,0.0,135.0,,-0.13,-0.04,1.11,1.0,-1.0,0.0,1.12,1.19,94.0,3106.0,1.0,3.01,,12.61,0.812,82.6,,55.5,5.0,,,,,,,,,,,,0,0,0,0,0,0,0,0,0,0,0,0,0,0,0,0,,,,,0.0,,,,,,
34,132639,0,,,,,,,,,,,,,,,,,,,,,,,0.0,9.0,0.0,0.0,0.0,24.0,0.0,0.0,2.26,,,0,0,0,0,0,0,0,0,0,0,0,0,0,0,0,0,0.0,,,,,0.0,0.0,0.0,0.0,0.0,0.0
35,132659,0,0.0,135.0,,-0.12,-0.05,1.15,0.0,0.0,1.0,1.15,1.19,97.0,2974.0,0.9,3.05,,12.72,0.815,82.6,,55.5,5.0,,,,,,,,,,,,0,0,0,0,0,0,0,0,0,0,0,0,0,0,0,0,,,,,0.0,,,,,,
36,132679,0,,,,,,,,,,,,,,,,,,,,,,,,,,,,,,,,,,0,0,0,0,0,0,0,0,0,0,0,0,0,0,0,0,,,,,,,,,,,
37,132699,0,0.0,135.0,,-0.11,-0.02,1.1,0.0,0.0,1.0,1.11,1.19,93.0,2838.0,0.8,3.1,,12.81,0.829,82.6,,55.5,5.0,,,,,,,,,,,,0,0,0,0,0,0,0,0,0,0,0,0,0,0,0,0,,,,,0.0,,,,,,
38,132719,0,,,,,,,,,,,,,,,,,,,,,,,,,,,,,,,,,,0,0,0,0,0,0,0,0,0,0,0,0,0,0,0,0,,,,,,,,,,,
39,132739,0,0.0,135.0,,-0.11,-0.06,1.1,1.0,0.0,0.0,1.11,1.19,93.0,2659.0,0.7,3.13,,12.93,0.837,82.6,,50.5,5.0,0.0,9.0,0.0,0.0,0.0,24.0,0.0,0.0,2.26,,,0,0,0,0,0,0,0,0,0,0,0,0,0,0,0,0,0.0,,,,0.0,0.0,0.0,0.0,0.0,0.0,0.0
40,132759,0,,,,,,,,,,,,,,,,,,,,,,,,,,,,,,,,,,0,0,0,0,0,0,0,0,0,0,0,0,0,0,0,0,,,,,,,,,,,
41,132779,0,0.0,135.0,,-0.11,-0.04,1.06,1.0,0.0,0.0,1.07,1.19,90.0,2596.0,0.4,3.19,,12.93,0.837,82.6,,50.5,5.0,,,,,,,,,,,,0,0,0,0,0,0,0,0,0,0,0,0,0,0,0,0,,,,,0.0,,,,,,
42,132799,0,,,,,,,,,,,,,,,,,,,,,,,,,,,,,,,,,,0,0,0,0,0,0,0,0,0,0,0,0,0,0,0,0,,,,,,,,,,,
43,132819,0,0.0,135.0,,-0.12,-0.03,1.06,1.0,0.0,0.0,1.06,1.19,89.0,2596.0,0.4,3.19,,13.08,0.837,82.6,,49.3,5.0,,,,,,,,,,,,0,0,0,0,0,0,0,0,0,0,0,0,0,0,0,0,,,,,0.0,,,,,,
44,132839,0,,,,,,,,,,,,,,,,,,,,,,,0.0,9.0,0.0,0.0,0.0,24.0,0.0,0.0,2.26,,,0,0,0,0,0,0,0,0,0,0,0,0,0,0,0,0,0.0,,,,,0.0,0.0,0.0,0.0,0.0,0.0
45,132859,0,0.0,135.0,,-0.12,-0.03,1.05,1.0,0.0,0.0,1.06,1.19,89.0,2455.0,0.3,3.21,,13.23,0.846,82.6,,49.3,5.0,,,,,,,,,,,,0,0,0,0,0,0,0,0,0,0,0,0,0,0,0,0,,,,,0.0,,,,,,
46,132879,0,,,,,,,,,,,,,,,,,,,,,,,,,,,,,,,,,,0,0,0,0,0,0,0,0,0,0,0,0,0,0,0,0,,,,,,,,,,,
47,132899,0,0.0,135.0,,-0.1,-0.04,1.05,1.0,0.0,0.0,1.06,1.19,89.0,2441.0,0.5,3.27,,13.39,0.869,82.6,,49.3,5.0,,,,,,,,,,,,0,0,0,0,0,0,0,0,0,0,0,0,0,0,0,0,,,,,0.0,,,,,,
48,132919,0,,,,,,,,,,,,,,,,,,,,,,,,,,,,,,,,,,0,0,0,0,0,0,0,0,0,0,0,0,0,0,0,0,,,,,,,,,,,
49,132939,0,0.0,135.0,,-0.11,-0.02,1.04,1.0,0.0,0.0,1.04,1.19,88.0,2350.0,3.6,3.43,,13.59,0.906,82.6,,45.5,5.0,0.0,9.0,0.0,0.0,0.0,24.0,0.0,0.0,2.26,,,0,0,0,0,0,0,0,0,0,0,0,0,0,0,0,0,0.0,,,,0.0,0.0,0.0,0.0,0.0,0.0,0.0
50,132959,0,,,,,,,,,,,,,,,,,,,,,,,,,,,,,,,,,,0,0,0,0,0,0,0,0,0,0,0,0,0,0,0,0,,,,,,,,,,,
51,132979,0,0.0,135.0,,-0.11,-0.04,1.06,1.0,1.0,0.0,1.07,1.19,90.0,2642.0,8.1,3.72,,13.59,0.906,82.6,,45.5,5.0,,,,,,,,,,,,0,0,0,0,0,0,0,0,0,0,0,0,0,0,0,0,,,,,0.0,,,,,,
52,132999,0,,,,,,,,,,,,,,,,,,,,,,,,,,,,,,,,,,0,0,0,0,0,0,0,0,0,0,0,0,0,0,0,0,,,,,,,,,,,
53,133019,0,0.0,135.0,,-0.12,0.03,1.06,1.0,1.0,1.0,1.07,1.19,90.0,2642.0,8.1,3.72,,13.72,1.005,82.6,,50.1,5.0,,,,,,,,,,,,0,0,0,0,0,0,0,0,0,0,0,0,0,0,0,0,,,,,0.0,,,,,,
54,133039,0,,,,,,,,,,,,,,,,,,,,,,,0.0,9.0,0.0,0.0,0.0,24.0,0.0,0.0,2.26,,,0,0,0,0,0,0,0,0,0,0,0,0,0,0,0,0,0.0,,,,,0.0,0.0,0.0,0.0,0.0,0.0
55,133059,0,0.0,135.0,,-0.12,0.03,1.04,1.0,1.0,0.0,1.05,1.19,88.0,2820.0,9.1,3.79,,13.82,0.993,82.6,,50.1,5.0,,,,,,,,,,,,0,0,0,0,0,0,0,0,0,0,0,0,0,0,0,0,,,,,0.0,,,,,,
56,133079,0,,,,,,,,,,,,,,,,,,,,,,,,,,,,,,,,,,0,0,0,0,0,0,0,0,0,0,0,0,0,0,0,0,,,,,,,,,,,
57,133099,0,0.0,135.0,,-0.12,0.01,1.07,2.0,1.0,1.0,1.07,1.19,90.0,2981.0,9.2,3.84,,13.75,0.921,82.6,,50.1,5.0,,,,,,,,,,,,0,0,0,0,0,0,0,0,0,0,0,0,0,0,0,0,,,,,0.0,,,,,,
58,133119,0,,,,,,,,,,,,,,,,,,,,,,,,,,,,,,,,,,0,0,0,0,0,0,0,0,0,0,0,0,0,0,0,0,,,,,,,,,,,
59,133139,0,0.0,135.0,13.64,-0.14,-0.04,1.05,2.0,1.0,0.0,1.06,1.19,90.0,3284.0,5.3,3.76,15.0,13.56,0.89,82.6,122.0,57.9,5.0,0.0,9.0,0.0,0.0,0.0,24.0,0.0,0.0,2.26,0.0,0.0,0,0,0,0,0,0,0,0,0,0,0,0,0,0,0,0,0.0,0.0,0.0,0.0,0.0,0.0,0.0,0.0,0.0,0.0,0.0
60,133159,0,,,,,,,,,,,,,,,,,,,,,,,,,,,,,,,,,,0,0,0,0,0,0,0,0,0,0,0,0,0,0,0,0,,,,,,,,,,,
61,133179,0,0.0,135.0,,-0.13,0.01,1.07,1.0,1.0,1.0,1.08,1.19,91.0,3454.0,0.6,3.1,,13.56,0.89,82.6,,57.9,5.0,,,,,,,,,,,,0,0,0,0,0,0,0,0,0,0,0,0,0,0,0,0,,,,,0.0,,,,,,
62,133199,0,,,,,,,,,,,,,,,,,,,,,,,,,,,,,,,,,,0,0,0,0,0,0,0,0,0,0,0,0,0,0,0,0,,,,,,,,,,,
63,133219,0,0.0,135.0,,-0.12,0.05,0.99,2.0,1.0,0.0,1.0,1.19,84.0,3454.0,0.6,3.1,,13.11,0.901,82.6,,63.2,5.0,,,,,,,,,,,,0,0,0,0,0,0,0,0,0,0,0,0,0,0,0,0,,,,,0.0,,,,,,
64,133239,0,,,,,,,,,,,,,,,,,,,,,,,0.0,9.0,0.0,0.0,0.0,24.0,0.0,0.0,2.27,,,0,0,0,0,0,0,0,0,0,0,0,0,0,0,0,0,0.0,,,,,0.0,0.0,0.0,0.0,0.0,0.0
65,133259,0,0.0,135.0,,-0.14,0.01,1.06,1.0,1.0,0.0,1.07,1.19,90.0,3481.0,0.0,2.7,,12.76,0.926,82.6,,63.2,5.0,,,,,,,,,,,,0,0,0,0,0,0,0,0,0,0,0,0,0,0,0,0,,,,,0.0,,,,,,
66,133279,0,,,,,,,,,,,,,,,,,,,,,,,,,,,,,,,,,,0,0,0,0,0,0,0,0,0,0,0,0,0,0,0,0,,,,,,,,,,,
67,133299,0,0.0,135.0,,-0.11,0.1,0.99,1.0,1.0,0.0,1.01,1.19,85.0,3405.0,0.0,2.71,,12.52,0.925,82.6,,63.2,5.0,,,,,,,,,,,,0,0,0,0,0,0,0,0,0,0,0,0,0,0,0,0,,,,,0.0,,,,,,
68,133319,0,,,,,,,,,,,,,,,,,,,,,,,,,,,,,,,,,,0,0,0,0,0,0,0,0,0,0,0,0,0,0,0,0,,,,,,,,,,,
69,133339,0,0.0,135.0,,-0.11,0.05,1.08,1.0,1.0,0.0,1.09,1.19,91.0,3338.0,0.0,2.73,,12.39,0.922,82.6,,61.3,5.0,0.0,9.0,0.0,0.0,0.0,24.0,0.0,0.0,2.26,,,0,0,0,0,0,0,0,0,0,0,0,0,0,0,0,0,0.0,,,,0.0,0.0,0.0,0.0,0.0,0.0,0.0
70,133359,0,,,,,,,,,,,,,,,,,,,,,,,,,,,,,,,,,,0,0,0,0,0,0,0,0,0,0,0,0,0,0,0,0,,,,,,,,,,,
71,133379,0,0.0,135.0,,-0.13,0.01,1.07,1.0,1.0,0.0,1.08,1.19,91.0,3229.0,0.0,2.77,,12.39,0.922,82.6,,61.3,5.0,,,,,,,,,,,,0,0,0,0,0,0,0,0,0,0,0,0,0,0,0,0,,,,,0.0,,,,,,
72,133399,0,,,,,,,,,,,,,,,,,,,,,,,,,,,,,,,,,,0,0,0,0,0,0,0,0,0,0,0,0,0,0,0,0,,,,,,,,,,,
73,133419,0,0.0,135.0,,-0.11,0.03,0.98,1.0,1.0,0.0,0.99,1.19,83.0,3229.0,0.0,2.77,,12.47,0.915,82.6,,57.7,5.0,,,,,,,,,,,,0,0,0,0,0,0,0,0,0,0,0,0,0,0,0,0,,,,,0.0,,,,,,
74,133439,0,,,,,,,,,,,,,,,,,,,,,,,0.0,9.0,0.0,0.0,0.0,24.0,0.0,0.0,2.26,,,0,0,0,0,0,0,0,0,0,0,0,0,0,0,0,0,0.0,,,,,0.0,0.0,0.0,0.0,0.0,0.0
75,133459,0,0.0,135.0,,-0.1,0.03,0.96,1.0,1.0,0.0,0.97,1.19,81.0,3154.0,4.9,3.66,,12.77,0.896,82.6,,57.7,5.0,,,,,,,,,,,,0,0,0,0,0,0,0,0,0,0,0,0,0,0,0,0,,,,,0.0,,,,,,
76,133479,0,,,,,,,,,,,,,,,,,,,,,,,,,,,,,,,,,,0,0,0,0,0,0,0,0,0,0,0,0,0,0,0,0,,,,,,,,,,,
77,133499,0,0.0,135.0,,-0.11,0.03,1.05,1.0,1.0,0.0,1.06,1.19,89.0,3192.0,10.8,3.87,,13.29,0.879,82.6,,57.7,5.0,,,,,,,,,,,,0,0,0,0,0,0,0,0,0,0,0,0,0,0,0,0,,,,,0.0,,,,,,
78,133519,0,,,,,,,,,,,,,,,,,,,,,,,,,,,,,,,,,,0,0,0,0,0,0,0,0,0,0,0,0,0,0,0,0,,,,,,,,,,,
79,133539,0,0.0,135.0,,-0.11,0.06,0.98,1.0,1.0,0.0,0.99,1.19,83.0,3335.0,12.5,3.92,,13.59,0.863,82.6,,57.1,5.0,0.0,9.0,0.0,0.0,0.0,24.0,0.0,0.0,2.26,,,0,0,0,0,0,0,0,0,0,0,0,0,0,0,0,0,0.0,,,,0.0,0.0,0.0,0.0,0.0,0.0,0.0
80,133559,0,,,,,,,,,,,,,,,,,,,,,,,,,,,,,,,,,,0,0,0,0,0,0,0,0,0,0,0,0,0,0,0,0,,,,,,,,,,,
81,133579,0,0.0,135.0,,-0.12,-0.03,1.0,1.0,1.0,0.0,1.01,1.19,85.0,3626.0,11.4,3.9,,13.59,0.863,82.6,,57.1,5.0,,,,,,,,,,,,0,0,0,0,0,0,0,0,0,0,0,0,0,0,0,0,,,,,0.0,,,,,,
82,133599,0,,,,,,,,,,,,,,,,,,,,,,,,,,,,,,,,,,0,0,0,0,0,0,0,0,0,0,0,0,0,0,0,0,,,,,,,,,,,
83,133619,0,0.0,135.0,,-0.11,-0.02,1.0,1.0,1.0,0.0,1.0,1.19,84.0,3626.0,11.4,3.9,,13.61,0.859,82.6,,66.3,5.0,,,,,,,,,,,,0,0,0,0,0,0,0,0,0,0,0,0,0,0,0,0,,,,,0.0,,,,,,
84,133639,0,,,,,,,,,,,,,,,,,,,,,,,0.0,9.0,0.0,0.0,0.0,24.0,0.0,0.0,2.26,,,0,0,0,0,0,0,0,0,0,0,0,0,0,0,0,0,0.0,,,,,0.0,0.0,0.0,0.0,0.0,0.0
85,133659,0,0.0,135.0,,-0.1,0.03,1.02,0.0,1.0,1.0,1.03,1.19,87.0,3871.0,5.8,3.69,,13.15,0.864,82.6,,66.3,5.0,,,,,,,,,,,,0,0,0,0,0,0,0,0,0,0,0,0,0,0,0,0,,,,,0.0,,,,,,
86,133679,0,,,,,,,,,,,,,,,,,,,,,,,,,,,,,,,,,,0,0,0,0,0,0,0,0,0,0,0,0,0,0,0,0,,,,,,,,,,,
87,133699,0,0.0,135.0,,-0.12,-0.01,1.03,0.0,1.0,1.0,1.03,1.19,87.0,3981.0,1.7,2.95,,12.65,0.894,82.6,,66.3,5.0,,,,,,,,,,,,0,0,0,0,0,0,0,0,0,0,0,0,0,0,0,0,,,,,0.0,,,,,,
88,133719,0,,,,,,,,,,,,,,,,,,,,,,,,,,,,,,,,,,0,0,0,0,0,0,0,0,0,0,0,0,0,0,0,0,,,,,,,,,,,
89,133739,0,0.0,135.0,,-0.12,-0.06,0.99,1.0,1.0,0.0,1.0,1.19,84.0,4051.0,0.0,2.5,,12.24,0.906,82.6,,71.3,5.0,0.0,9.0,0.0,0.0,0.0,24.0,0.0,0.0,2.26,,,0,0,0,0,0,0,0,0,0,0,0,0,0,0,0,0,0.0,,,,0.0,0.0,0.0,0.0,0.0,0.0,0.0
90,133759,0,,,,,,,,,,,,,,,,,,,,,,,,,,,,,,,,,,0,0,0,0,0,0,0,0,0,0,0,0,0,0,0,0,,,,,,,,,,,
91,133779,0,0.0,135.0,,-0.12,0.0,1.03,0.0,1.0,0.0,1.04,1.19,87.0,4024.0,0.0,2.45,,12.24,0.906,82.6,,71.3,5.0,,,,,,,,,,,,0,0,0,0,0,0,0,0,0,0,0,0,0,0,0,0,,,,,0.0,,,,,,
92,133799,0,,,,,,,,,,,,,,,,,,,,,,,,,,,,,,,,,,0,0,0,0,0,0,0,0,0,0,0,0,0,0,0,0,,,,,,,,,,,
93,133819,0,0.0,135.0,,-0.14,-0.08,1.0,1.0,1.0,0.0,1.01,1.19,85.0,4024.0,0.0,2.45,,11.87,0.887,82.6,,71.5,5.0,,,,,,,,,,,,0,0,0,0,0,0,0,0,0,0,0,0,0,0,0,0,,,,,0.0,,,,,,
94,133839,0,,,,,,,,,,,,,,,,,,,,,,,0.0,9.0,0.0,0.0,0.0,24.0,0.0,0.0,2.26,,,0,0,0,0,0,0,0,0,0,0,0,0,0,0,0,0,0.0,,,,,0.0,0.0,0.0,0.0,0.0,0.0
95,133859,0,0.0,135.0,,-0.13,-0.1,0.97,2.0,1.0,-1.0,0.99,1.19,83.0,4318.0,4.7,3.56,,12.01,0.879,82.6,,71.5,5.0,,,,,,,,,,,,0,0,0,0,0,0,0,0,0,0,0,0,0,0,0,0,,,,,0.0,,,,,,
96,133879,0,,,,,,,,,,,,,,,,,,,,,,,,,,,,,,,,,,0,0,0,0,0,0,0,0,0,0,0,0,0,0,0,0,,,,,,,,,,,
97,133899,0,0.0,135.0,,-0.12,0.0,1.01,1.0,0.0,0.0,1.01,1.19,85.0,3963.0,11.0,3.75,,12.65,0.894,82.6,,71.5,5.0,,,,,,,,,,,,0,0,0,0,0,0,0,0,0,0,0,0,0,0,0,0,,,,,0.0,,,,,,
98,133919,0,,,,,,,,,,,,,,,,,,,,,,,,,,,,,,,,,,0,0,0,0,0,0,0,0,0,0,0,0,0,0,0,0,,,,,,,,,,,
99,133939,0,0.0,135.0,,-0.15,-0.07,1.0,0.0,0.0,0.0,1.02,1.19,86.0,4012.0,16.4,3.91,,13.2,0.929,82.6,,70.1,5.0,0.0,9.0,0.0,0.0,0.0,24.0,0.0,0.0,2.26,,,0,0,0,0,0,0,0,0,0,0,0,0,0,0,0,0,0.0,,,,0.0,0.0,0.0,0.0,0.0,0.0,0.0
100,133959,0,,,,,,,,,,,,,,,,,,,,,,,,,,,,,,,,,,0,0,0,0,0,0,0,0,0,0,0,0,0,0,0,0,,,,,,,,,,,
101,133979,0,0.0,135.0,,-0.15,-0.03,0.98,1.0,0.0,-1.0,0.99,1.19,83.0,4086.0,17.6,3.99,,13.2,0.929,82.6,,70.1,5.0,,,,,,,,,,,,0,0,0,0,0,0,0,0,0,0,0,0,0,0,0,0,,,,,0.0,,,,,,
102,133999,0,,,,,,,,,,,,,,,,,,,,,,,,,,,,,,,,,,0,0,0,0,0,0,0,0,0,0,0,0,0,0,0,0,,,,,,,,,,,
103,134019,0,0.0,135.0,,-0.17,-0.07,0.99,1.0,0.0,0.0,1.01,1.19,85.0,4086.0,17.6,3.99,,13.49,0.914,82.6,,73.1,5.0,,,,,,,,,,,,0,0,0,0,0,0,0,0,0,0,0,0,0,0,0,0,,,,,0.0,,,,,,
104,134039,0,,,,,,,,,,,,,,,,,,,,,,,0.0,9.0,0.0,0.0,0.0,24.0,0.0,0.0,2.26,,,0,0,0,0,0,0,0,0,0,0,0,0,0,0,0,0,0.0,,,,,0.0,0.0,0.0,0.0,0.0,0.0
105,134059,0,0.0,135.0,,-0.13,0.04,1.04,1.0,0.0,0.0,1.05,1.19,88.0,4139.0,15.5,3.94,,13.51,0.89,82.6,,73.1,5.0,,,,,,,,,,,,0,0,0,0,0,0,0,0,0,0,0,0,0,0,0,0,,,,,0.0,,,,,,
106,134079,0,,,,,,,,,,,,,,,,,,,,,,,,,,,,,,,,,,0,0,0,0,0,0,0,0,0,0,0,0,0,0,0,0,,,,,,,,,,,
107,134099,0,0.0,135.0,,-0.11,0.07,1.01,1.0,0.0,-1.0,1.02,1.19,86.0,4373.0,6.7,3.66,,13.0,0.913,82.6,,73.1,5.0,,,,,,,,,,,,0,0,0,0,0,0,0,0,0,0,0,0,0,0,0,0,,,,,0.0,,,,,,
108,134119,0,,,,,,,,,,,,,,,,,,,,,,,,,,,,,,,,,,0,0,0,0,0,0,0,0,0,0,0,0,0,0,0,0,,,,,,,,,,,
109,134139,0,0.0,135.0,13.61,-0.12,0.01,0.96,3.0,0.0,-2.0,0.97,1.19,81.0,4464.0,0.7,2.65,15.0,12.36,0.954,82.6,124.0,75.1,5.0,0.0,9.0,0.0,0.0,0.0,24.0,0.0,0.0,2.26,0.0,0.0,0,0,0,0,0,0,0,0,0,0,0,0,0,0,0,0,0.0,0.0,0.0,0.0,0.0,0.0,0.0,0.0,0.0,0.0,0.0
110,134159,0,,,,,,,,,,,,,,,,,,,,,,,,,,,,,,,,,,0,0,0,0,0,0,0,0,0,0,0,0,0,0,0,0,,,,,,,,,,,
111,134179,0,0.0,135.0,,-0.11,-0.1,0.92,4.0,0.0,-2.0,0.93,1.19,78.0,4459.0,0.0,2.42,,12.36,0.954,82.6,,75.1,5.0,,,,,,,,,,,,0,0,0,0,0,0,0,0,0,0,0,0,0,0,0,0,,,,,0.0,,,,,,
112,134199,0,,,,,,,,,,,,,,,,,,,,,,,,,,,,,,,,,,0,0,0,0,0,0,0,0,0,0,0,0,0,0,0,0,,,,,,,,,,,
113,134219,0,0.0,135.0,,-0.11,-0.28,0.84,4.0,0.0,-3.0,0.89,1.19,75.0,4459.0,0.0,2.42,,11.93,0.934,82.6,,73.5,5.0,,,,,,,,,,,,0,0,0,0,0,0,0,0,0,0,0,0,0,0,0,0,,,,,0.0,,,,,,
114,134239,0,,,,,,,,,,,,,,,,,,,,,,,0.0,0.0,0.0,0.0,0.0,24.0,0.0,0.0,2.26,,,0,0,0,0,0,0,0,0,0,0,0,0,0,0,0,0,0.0,,,,,0.0,0.0,0.0,0.0,0.0,0.0
115,134259,0,0.0,135.0,,-0.13,-0.35,0.82,3.0,0.0,-2.0,0.9,1.19,75.0,4379.0,0.0,2.4,,11.54,0.884,82.6,,73.5,5.0,,,,,,,,,,,,0,0,0,0,0,0,0,0,0,0,0,0,0,0,0,0,,,,,0.0,,,,,,
116,134279,0,,,,,,,,,,,,,,,,,,,,,,,,,,,,,,,,,,0,0,0,0,0,0,0,0,0,0,0,0,0,0,0,0,,,,,,,,,,,
117,134299,0,0.0,135.0,,-0.13,-0.28,0.89,1.0,0.0,-1.0,0.94,1.19,79.0,4343.0,4.3,3.57,,11.68,0.841,82.6,,73.5,5.0,,,,,,,,,,,,0,0,0,0,0,0,0,0,0,0,0,0,0,0,0,0,,,,,0.0,,,,,,
118,134319,0,,,,,,,,,,,,,,,,,,,,,,,,,,,,,,,,,,0,0,0,0,0,0,0,0,0,0,0,0,0,0,0,0,,,,,,,,,,,
119,134339,0,0.0,135.0,,-0.11,-0.12,0.99,0.0,-1.0,0.0,1.0,1.19,84.0,4388.0,11.0,3.69,,12.21,0.83,82.6,,72.4,5.0,0.0,0.0,0.0,0.0,0.0,0.0,0.0,0.0,2.26,,,0,0,0,0,0,0,0,0,0,0,0,0,0,0,0,0,0.0,,,,0.0,0.0,0.0,0.0,0.0,0.0,0.0
120,134359,0,,,,,,,,,,,,,,,,,,,,,,,,,,,,,,,,,,0,0,0,0,0,0,0,0,0,0,0,0,0,0,0,0,,,,,,,,,,,
121,134379,0,0.0,135.0,,-0.1,0.0,1.05,1.0,-1.0,0.0,1.05,1.19,88.0,4412.0,16.4,3.99,,12.21,0.83,82.6,,72.4,5.0,,,,,,,,,,,,0,0,0,0,0,0,0,0,0,0,0,0,0,0,0,0,,,,,0.0,,,,,,
122,134399,0,,,,,,,,,,,,,,,,,,,,,,,,,,,,,,,,,,0,0,0,0,0,0,0,0,0,0,0,0,0,0,0,0,,,,,,,,,,,
123,134419,0,0.0,135.0,,-0.08,0.14,1.11,1.0,-1.0,0.0,1.13,1.19,95.0,4412.0,16.4,3.99,,12.89,0.844,82.6,,74.2,5.0,,,,,,,,,,,,0,0,0,0,0,0,0,0,0,0,0,0,0,0,0,0,,,,,0.0,,,,,,
124,134439,0,,,,,,,,,,,,,,,,,,,,,,,0.0,0.0,0.0,0.0,0.0,0.0,0.0,0.0,2.26,,,0,0,0,0,0,0,0,0,0,0,0,0,0,0,0,0,0.0,,,,,0.0,0.0,0.0,0.0,0.0,0.0
125,134459,0,0.0,135.0,,-0.1,0.26,1.19,0.0,0.0,0.0,1.22,1.22,100.0,4640.0,17.3,4.01,,13.29,0.842,82.6,,74.2,5.0,,,,,,,,,,,,0,0,0,0,0,0,0,0,0,0,0,0,0,0,0,0,,,,,0.0,,,,,,
126,134479,0,,,,,,,,,,,,,,,,,,,,,,,,,,,,,,,,,,0,0,0,0,0,0,0,0,0,0,0,0,0,0,0,0,,,,,,,,,,,
127,134499,0,0.0,135.0,,-0.1,0.13,1.1,0.0,0.0,1.0,1.11,1.22,91.0,4782.0,13.0,3.82,,13.19,0.834,82.6,,74.2,5.0,,,,,,,,,,,,0,0,0,0,0,0,0,0,0,0,0,0,0,0,0,0,,,,,0.0,,,,,,
128,134519,0,,,,,,,,,,,,,,,,,,,,,,,,,,,,,,,,,,0,0,0,0,0,0,0,0,0,0,0,0,0,0,0,0,,,,,,,,,,,
129,134539,0,0.0,135.0,,-0.11,0.16,1.14,0.0,-1.0,0.0,1.16,1.22,94.0,4894.0,7.3,3.53,,12.81,0.841,82.6,,75.8,5.0,0.0,0.0,0.0,0.0,0.0,0.0,0.0,0.0,2.26,,,0,0,0,0,0,0,0,0,0,0,0,0,0,0,0,0,0.0,,,,0.0,0.0,0.0,0.0,0.0,0.0,0.0
130,134559,0,,,,,,,,,,,,,,,,,,,,,,,,,,,,,,,,,,0,0,0,0,0,0,0,0,0,0,0,0,0,0,0,0,,,,,,,,,,,
131,134579,0,0.0,135.0,,-0.1,0.12,1.07,0.0,-1.0,0.0,1.08,1.22,88.0,4940.0,3.0,3.35,,12.81,0.841,82.6,,75.8,5.0,,,,,,,,,,,,0,0,0,0,0,0,0,0,0,0,0,0,0,0,0,0,,,,,0.0,,,,,,
132,134599,0,,,,,,,,,,,,,,,,,,,,,,,,,,,,,,,,,,0,0,0,0,0,0,0,0,0,0,0,0,0,0,0,0,,,,,,,,,,,
133,134619,0,0.0,135.0,,-0.13,0.18,1.11,-1.0,-1.0,1.0,1.13,1.22,92.0,4940.0,3.0,3.35,,12.4,0.85,82.6,,76.9,5.0,,,,,,,,,,,,0,0,0,0,0,0,0,0,0,0,0,0,0,0,0,0,,,,,0.0,,,,,,
134,134639,0,,,,,,,,,,,,,,,,,,,,,,,0.0,0.0,0.0,0.0,0.0,0.0,0.0,0.0,2.26,,,0,0,0,0,0,0,0,0,0,0,0,0,0,0,0,0,0.0,,,,,0.0,0.0,0.0,0.0,0.0,0.0
135,134659,0,0.0,135.0,,-0.11,0.04,1.05,0.0,-1.0,0.0,1.06,1.22,86.0,4941.0,0.7,2.58,,11.81,0.845,82.6,,76.9,5.0,,,,,,,,,,,,0,0,0,0,0,0,0,0,0,0,0,0,0,0,0,0,,,,,0.0,,,,,,
136,134679,0,,,,,,,,,,,,,,,,,,,,,,,,,,,,,,,,,,0,0,0,0,0,0,0,0,0,0,0,0,0,0,0,0,,,,,,,,,,,
137,134699,0,0.0,135.0,,-0.14,0.13,1.09,-1.0,-1.0,1.0,1.11,1.22,90.0,4880.0,0.8,2.61,,11.48,0.823,82.6,,76.9,5.0,,,,,,,,,,,,0,0,0,0,0,0,0,0,0,0,0,0,0,0,0,0,,,,,0.0,,,,,,
138,134719,0,,,,,,,,,,,,,,,,,,,,,,,,,,,,,,,,,,0,0,0,0,0,0,0,0,0,0,0,0,0,0,0,0,,,,,,,,,,,
139,134739,0,0.0,135.0,,-0.12,-0.0,0.99,-1.0,-1.0,1.0,1.0,1.22,82.0,4779.0,5.9,3.54,,11.61,0.804,82.6,,74.3,5.0,0.0,0.0,0.0,0.0,0.0,0.0,0.0,0.0,2.26,,,0,0,0,0,0,0,0,0,0,0,0,0,0,0,0,0,0.0,,,,0.0,0.0,0.0,0.0,0.0,0.0,0.0
140,134759,0,,,,,,,,,,,,,,,,,,,,,,,,,,,,,,,,,,0,0,0,0,0,0,0,0,0,0,0,0,0,0,0,0,,,,,,,,,,,
141,134779,0,0.0,135.0,,-0.11,-0.0,1.02,0.0,-1.0,0.0,1.02,1.22,84.0,4751.0,12.5,3.75,,11.61,0.804,82.6,,74.3,5.0,,,,,,,,,,,,0,0,0,0,0,0,0,0,0,0,0,0,0,0,0,0,,,,,0.0,,,,,,
142,134799,0,,,,,,,,,,,,,,,,,,,,,,,,,,,,,,,,,,0,0,0,0,0,0,0,0,0,0,0,0,0,0,0,0,,,,,,,,,,,
143,134819,0,0.0,135.0,,-0.14,0.17,1.07,0.0,-1.0,0.0,1.09,1.22,89.0,4751.0,12.5,3.75,,12.2,0.796,82.6,,72.7,5.0,,,,,,,,,,,,0,0,0,0,0,0,0,0,0,0,0,0,0,0,0,0,,,,,0.0,,,,,,
144,134839,0,,,,,,,,,,,,,,,,,,,,,,,0.0,0.0,0.0,0.0,0.0,0.0,0.0,0.0,2.26,,,0,0,0,0,0,0,0,0,0,0,0,0,0,0,0,0,0.0,,,,,0.0,0.0,0.0,0.0,0.0,0.0
145,134859,0,0.0,135.0,,-0.12,0.03,0.98,-1.0,-1.0,0.0,0.99,1.22,81.0,4769.0,15.0,3.94,,12.77,0.793,82.6,,72.7,5.0,,,,,,,,,,,,0,0,0,0,0,0,0,0,0,0,0,0,0,0,0,0,,,,,0.0,,,,,,
146,134879,0,,,,,,,,,,,,,,,,,,,,,,,,,,,,,,,,,,0,0,0,0,0,0,0,0,0,0,0,0,0,0,0,0,,,,,,,,,,,
147,134899,0,0.0,135.0,,-0.13,0.14,1.05,0.0,-1.0,0.0,1.07,1.22,87.0,4857.0,15.2,3.95,,13.07,0.79,82.6,,72.7,5.0,,,,,,,,,,,,0,0,0,0,0,0,0,0,0,0,0,0,0,0,0,0,,,,,0.0,,,,,,
148,134919,0,,,,,,,,,,,,,,,,,,,,,,,,,,,,,,,,,,0,0,0,0,0,0,0,0,0,0,0,0,0,0,0,0,,,,,,,,,,,
149,134939,0,0.0,135.0,,-0.11,0.1,1.01,0.0,-1.0,0.0,1.02,1.22,83.0,4966.0,10.2,3.59,,12.83,0.801,82.6,,75.4,5.0,0.0,0.0,0.0,0.0,0.0,0.0,0.0,0.0,2.26,,,0,0,0,0,0,0,0,0,0,0,0,0,0,0,0,0,0.0,,,,0.0,0.0,0.0,0.0,0.0,0.0,0.0
150,134959,0,,,,,,,,,,,,,,,,,,,,,,,,,,,,,,,,,,0,0,0,0,0,0,0,0,0,0,0,0,0,0,0,0,,,,,,,,,,,
151,134979,0,0.0,135.0,,-0.12,0.08,0.98,-1.0,-1.0,0.0,0.99,1.22,81.0,5040.0,5.9,3.55,,12.83,0.801,82.6,,75.4,5.0,,,,,,,,,,,,0,0,0,0,0,0,0,0,0,0,0,0,0,0,0,0,,,,,0.0,,,,,,
152,134999,0,,,,,,,,,,,,,,,,,,,,,,,,,,,,,,,,,,0,0,0,0,0,0,0,0,0,0,0,0,0,0,0,0,,,,,,,,,,,
153,135019,0,0.0,135.0,,-0.13,0.08,1.01,0.0,-1.0,0.0,1.02,1.22,83.0,5040.0,5.9,3.55,,12.39,0.82,82.6,,77.9,5.0,,,,,,,,,,,,0,0,0,0,0,0,0,0,0,0,0,0,0,0,0,0,,,,,0.0,,,,,,
154,135039,0,,,,,,,,,,,,,,,,,,,,,,,0.0,0.0,0.0,0.0,0.0,0.0,0.0,0.0,2.26,,,0,0,0,0,0,0,0,0,0,0,0,0,0,0,0,0,0.0,,,,,0.0,0.0,0.0,0.0,0.0,0.0
155,135059,0,0.0,135.0,,-0.12,0.11,1.04,-1.0,-1.0,0.0,1.05,1.22,86.0,5105.0,2.6,3.19,,11.97,0.831,82.6,,77.9,5.0,,,,,,,,,,,,0,0,0,0,0,0,0,0,0,0,0,0,0,0,0,0,,,,,0.0,,,,,,
156,135079,0,,,,,,,,,,,,,,,,,,,,,,,,,,,,,,,,,,0,0,0,0,0,0,0,0,0,0,0,0,0,0,0,0,,,,,,,,,,,
157,135099,0,0.0,135.0,,-0.1,0.0,0.95,-1.0,-1.0,0.0,0.96,1.22,78.0,5053.0,2.7,3.21,,11.68,0.818,82.6,,77.9,5.0,,,,,,,,,,,,0,0,0,0,0,0,0,0,0,0,0,0,0,0,0,0,,,,,0.0,,,,,,
158,135119,0,,,,,,,,,,,,,,,,,,,,,,,,,,,,,,,,,,0,0,0,0,0,0,0,0,0,0,0,0,0,0,0,0,,,,,,,,,,,
159,135139,0,0.0,135.0,13.66,-0.12,0.03,0.98,-1.0,-1.0,0.0,0.99,1.22,81.0,4998.0,10.2,3.58,15.0,12.05,0.796,82.6,124.0,75.3,5.0,0.0,0.0,0.0,0.0,0.0,0.0,0.0,0.0,2.26,0.0,0.0,0,0,0,0,0,0,0,0,0,0,0,0,0,0,0,0,0.0,0.0,0.0,0.0,0.0,0.0,0.0,0.0,0.0,0.0,0.0
160,135159,0,,,,,,,,,,,,,,,,,,,,,,,,,,,,,,,,,,0,0,0,0,0,0,0,0,0,0,0,0,0,0,0,0,,,,,,,,,,,
161,135179,0,0.0,135.0,,-0.09,0.07,1.03,-2.0,-1.0,1.0,1.04,1.22,85.0,5014.0,14.1,3.9,,12.05,0.796,82.6,,75.3,5.0,,,,,,,,,,,,0,0,0,0,0,0,0,0,0,0,0,0,0,0,0,0,,,,,0.0,,,,,,
162,135199,0,,,,,,,,,,,,,,,,,,,,,,,,,,,,,,,,,,0,0,0,0,0,0,0,0,0,0,0,0,0,0,0,0,,,,,,,,,,,
163,135219,0,0.0,135.0,,-0.09,0.03,1.0,-1.0,-1.0,0.0,1.01,1.22,82.0,5014.0,14.1,3.9,,12.51,0.777,82.6,,75.8,5.0,,,,,,,,,,,,0,0,0,0,0,0,0,0,0,0,0,0,0,0,0,0,,,,,0.0,,,,,,
164,135239,0,,,,,,,,,,,,,,,,,,,,,,,0.0,0.0,0.0,0.0,0.0,0.0,0.0,0.0,2.26,,,0,0,0,0,0,0,0,0,0,0,0,0,0,0,0,0,0.0,,,,,0.0,0.0,0.0,0.0,0.0,0.0
165,135259,0,0.0,135.0,,-0.1,0.03,0.99,-1.0,0.0,0.0,0.99,1.22,81.0,5102.0,15.2,4.03,,12.81,0.77,82.6,,75.8,5.0,,,,,,,,,,,,0,0,0,0,0,0,0,0,0,0,0,0,0,0,0,0,,,,,0.0,,,,,,
166,135279,0,,,,,,,,,,,,,,,,,,,,,,,,,,,,,,,,,,0,0,0,0,0,0,0,0,0,0,0,0,0,0,0,0,,,,,,,,,,,
167,135299,0,0.0,135.0,,-0.1,-0.0,1.01,-2.0,0.0,1.0,1.01,1.22,83.0,5284.0,14.3,3.96,,12.83,0.774,82.6,,75.8,5.0,,,,,,,,,,,,0,0,0,0,0,0,0,0,0,0,0,0,0,0,0,0,,,,,0.0,,,,,,
168,135319,0,,,,,,,,,,,,,,,,,,,,,,,,,,,,,,,,,,0,0,0,0,0,0,0,0,0,0,0,0,0,0,0,0,,,,,,,,,,,
169,135339,0,0.0,135.0,,-0.12,-0.02,1.0,-2.0,0.0,1.0,1.0,1.22,82.0,5440.0,9.1,3.71,,12.44,0.785,82.6,,78.1,5.0,0.0,0.0,0.0,0.0,0.0,0.0,0.0,0.0,2.26,,,0,0,0,0,0,0,0,0,0,0,0,0,0,0,0,0,0.0,,,,0.0,0.0,0.0,0.0,0.0,0.0,0.0
170,135359,0,,,,,,,,,,,,,,,,,,,,,,,,,,,,,,,,,,0,0,0,0,0,0,0,0,0,0,0,0,0,0,0,0,,,,,,,,,,,
171,135379,0,0.0,135.0,,-0.08,-0.06,0.93,-1.0,0.0,0.0,0.94,1.22,77.0,5597.0,6.2,3.74,,12.44,0.785,82.6,,78.1,5.0,,,,,,,,,,,,0,0,0,0,0,0,0,0,0,0,0,0,0,0,0,0,,,,,0.0,,,,,,
172,135399,0,,,,,,,,,,,,,,,,,,,,,,,,,,,,,,,,,,0,0,0,0,0,0,0,0,0,0,0,0,0,0,0,0,,,,,,,,,,,
173,135419,0,0.0,135.0,,-0.12,0.0,0.92,-2.0,0.0,1.0,0.93,1.22,76.0,5597.0,6.2,3.74,,11.87,0.794,82.6,,79.1,5.0,,,,,,,,,,,,0,0,0,0,0,0,0,0,0,0,0,0,0,0,0,0,,,,,0.0,,,,,,
174,135439,0,,,,,,,,,,,,,,,,,,,,,,,0.0,0.0,0.0,0.0,0.0,0.0,0.0,0.0,2.26,,,0,0,0,0,0,0,0,0,0,0,0,0,0,0,0,0,0.0,,,,,0.0,0.0,0.0,0.0,0.0,0.0
175,135459,0,0.0,135.0,,-0.17,0.18,0.97,-3.0,0.0,1.0,1.0,1.22,82.0,5860.0,4.3,3.73,,11.16,0.801,82.6,,79.1,5.0,,,,,,,,,,,,0,0,0,0,0,0,0,0,0,0,0,0,0,0,0,0,,,,,0.0,,,,,,
176,135479,0,,,,,,,,,,,,,,,,,,,,,,,,,,,,,,,,,,0,0,0,0,0,0,0,0,0,0,0,0,0,0,0,0,,,,,,,,,,,
177,135499,0,0.0,135.0,,-0.21,0.21,0.96,-3.0,0.0,1.0,1.0,1.22,82.0,6095.0,4.4,3.16,,10.62,0.797,82.6,,79.1,5.0,,,,,,,,,,,,0,0,0,0,0,0,0,0,0,0,0,0,0,0,0,0,,,,,0.0,,,,,,
178,135519,0,,,,,,,,,,,,,,,,,,,,,,,,,,,,,,,,,,0,0,0,0,0,0,0,0,0,0,0,0,0,0,0,0,,,,,,,,,,,
179,135539,0,0.0,135.0,,-0.18,0.13,0.93,-3.0,0.0,0.0,0.96,1.22,78.0,6311.0,8.8,3.08,,10.5,0.789,82.6,,76.7,5.0,0.0,0.0,0.0,0.0,0.0,0.0,0.0,0.0,2.26,,,0,0,0,0,0,0,0,0,0,0,0,0,0,0,0,0,0.0,,,,0.0,0.0,0.0,0.0,0.0,0.0,0.0
180,135559,0,,,,,,,,,,,,,,,,,,,,,,,,,,,,,,,,,,0,0,0,0,0,0,0,0,0,0,0,0,0,0,0,0,,,,,,,,,,,
181,135579,0,0.0,135.0,,-0.17,0.09,0.93,-2.0,0.0,0.0,0.95,1.22,78.0,6508.0,13.3,3.36,,10.5,0.789,82.6,,76.7,5.0,,,,,,,,,,,,0,0,0,0,0,0,0,0,0,0,0,0,0,0,0,0,,,,,0.0,,,,,,
182,135599,0,,,,,,,,,,,,,,,,,,,,,,,,,,,,,,,,,,0,0,0,0,0,0,0,0,0,0,0,0,0,0,0,0,,,,,,,,,,,
183,135619,0,0.0,135.0,,-0.17,-0.05,0.93,-2.0,0.0,0.0,0.95,1.22,78.0,6508.0,13.3,3.36,,10.6,0.778,82.6,,78.1,5.0,,,,,,,,,,,,0,0,0,0,0,0,0,0,0,0,0,0,0,0,0,0,,,,,0.0,,,,,,
184,135639,0,,,,,,,,,,,,,,,,,,,,,,,0.0,0.0,0.0,0.0,0.0,0.0,0.0,0.0,2.26,,,0,0,0,0,0,0,0,0,0,0,0,0,0,0,0,0,0.0,,,,,0.0,0.0,0.0,0.0,0.0,0.0
185,135659,0,0.0,135.0,,-0.16,-0.03,0.95,-1.0,0.0,0.0,0.96,1.22,79.0,6725.0,14.9,3.96,,10.78,0.796,82.6,,78.1,5.0,,,,,,,,,,,,0,0,0,0,0,0,0,0,0,0,0,0,0,0,0,0,,,,,0.0,,,,,,
186,135679,0,,,,,,,,,,,,,,,,,,,,,,,,,,,,,,,,,,0,0,0,0,0,0,0,0,0,0,0,0,0,0,0,0,,,,,,,,,,,
187,135699,0,0.0,135.0,,-0.15,0.12,0.99,-3.0,0.0,1.0,1.01,1.22,82.0,7041.0,13.1,3.72,,10.41,0.84,82.6,,78.1,5.0,,,,,,,,,,,,0,0,0,0,0,0,0,0,0,0,0,0,0,0,0,0,,,,,0.0,,,,,,
188,135719,0,,,,,,,,,,,,,,,,,,,,,,,,,,,,,,,,,,0,0,0,0,0,0,0,0,0,0,0,0,0,0,0,0,,,,,,,,,,,
189,135739,0,0.0,135.0,,-0.16,0.09,0.98,0.0,0.0,0.0,0.99,1.22,81.0,7366.0,5.2,2.93,,9.45,0.858,82.6,,78.4,5.0,0.0,0.0,0.0,0.0,0.0,0.0,0.0,0.0,2.26,,,0,0,0,0,0,0,0,0,0,0,0,0,0,0,0,0,0.0,,,,0.0,0.0,0.0,0.0,0.0,0.0,0.0
190,135759,0,,,,,,,,,,,,,,,,,,,,,,,,,,,,,,,,,,0,0,0,0,0,0,0,0,0,0,0,0,0,0,0,0,,,,,,,,,,,
191,135779,0,0.0,135.0,,-0.21,0.02,0.98,2.0,0.0,-1.0,1.0,1.22,82.0,7666.0,0.0,1.4,,9.45,0.858,82.6,,78.4,5.0,,,,,,,,,,,,0,0,0,0,0,0,0,0,0,0,0,0,0,0,0,0,,,,,0.0,,,,,,
192,135799,0,,,,,,,,,,,,,,,,,,,,,,,,,,,,,,,,,,0,0,0,0,0,0,0,0,0,0,0,0,0,0,0,0,,,,,,,,,,,
193,135819,0,0.0,135.0,,-0.18,0.18,0.96,-1.0,0.0,0.0,0.99,1.22,81.0,7666.0,0.0,1.4,,8.43,0.831,82.6,,77.2,5.0,,,,,,,,,,,,0,0,0,0,0,0,0,0,0,0,0,0,0,0,0,0,,,,,0.0,,,,,,
194,135839,0,,,,,,,,,,,,,,,,,,,,,,,0.0,0.0,0.0,0.0,0.0,0.0,0.0,0.0,2.27,,,0,0,0,0,0,0,0,0,0,0,0,0,0,0,0,0,0.0,,,,,0.0,0.0,0.0,0.0,0.0,0.0
195,135859,0,0.0,135.0,,-0.15,0.13,0.98,-1.0,0.0,0.0,1.0,1.22,82.0,7798.0,0.0,1.4,,7.61,0.786,82.6,,77.2,5.0,,,,,,,,,,,,0,0,0,0,0,0,0,0,0,0,0,0,0,0,0,0,,,,,0.0,,,,,,
196,135879,0,,,,,,,,,,,,,,,,,,,,,,,,,,,,,,,,,,0,0,0,0,0,0,0,0,0,0,0,0,0,0,0,0,,,,,,,,,,,
197,135899,0,0.0,135.0,,-0.16,0.35,0.97,-1.0,0.0,0.0,1.04,1.22,85.0,7843.0,0.0,1.4,,7.26,0.792,82.6,,77.2,5.0,,,,,,,,,,,,0,0,0,0,0,0,0,0,0,0,0,0,0,0,0,0,,,,,0.0,,,,,,
198,135919,0,,,,,,,,,,,,,,,,,,,,,,,,,,,,,,,,,,0,0,0,0,0,0,0,0,0,0,0,0,0,0,0,0,,,,,,,,,,,
199,135939,0,0.0,135.0,,-0.14,0.11,0.97,0.0,0.0,0.0,0.99,1.22,81.0,7834.0,0.0,1.4,,6.78,0.814,82.6,,75.7,5.0,0.0,0.0,0.0,0.0,0.0,0.0,0.0,0.0,2.26,,,0,0,0,0,0,0,0,0,0,0,0,0,0,0,0,0,0.0,,,,0.0,0.0,0.0,0.0,0.0,0.0,0.0
200,135959,0,,,,,,,,,,,,,,,,,,,,,,,,,,,,,,,,,,0,0,0,0,0,0,0,0,0,0,0,0,0,0,0,0,,,,,,,,,,,
201,135979,0,0.0,135.0,,-0.18,0.13,0.98,2.0,0.0,-1.0,1.0,1.22,82.0,7731.0,0.0,1.4,,6.78,0.814,82.6,,75.7,5.0,,,,,,,,,,,,0,0,0,0,0,0,0,0,0,0,0,0,0,0,0,0,,,,,0.0,,,,,,
202,135999,0,,,,,,,,,,,,,,,,,,,,,,,,,,,,,,,,,,0,0,0,0,0,0,0,0,0,0,0,0,0,0,0,0,,,,,,,,,,,
203,136019,0,0.0,135.0,,-0.16,0.24,0.96,-1.0,0.0,0.0,1.0,1.22,82.0,7731.0,0.0,1.4,,6.62,0.822,82.6,,75.7,5.0,,,,,,,,,,,,0,0,0,0,0,0,0,0,0,0,0,0,0,0,0,0,,,,,0.0,,,,,,
204,136039,0,,,,,,,,,,,,,,,,,,,,,,,0.0,0.0,0.0,0.0,0.0,0.0,0.0,0.0,2.26,,,0,0,0,0,0,0,0,0,0,0,0,0,0,0,0,0,0.0,,,,,0.0,0.0,0.0,0.0,0.0,0.0
205,136059,0,0.0,135.0,,-0.14,0.43,0.95,-3.0,0.0,1.0,1.05,1.22,86.0,7614.0,0.0,1.4,,6.36,0.825,82.6,,75.7,5.0,,,,,,,,,,,,0,0,0,0,0,0,0,0,0,0,0,0,0,0,0,0,,,,,0.0,,,,,,
206,136079,0,,,,,,,,,,,,,,,,,,,,,,,,,,,,,,,,,,0,0,0,0,0,0,0,0,0,0,0,0,0,0,0,0,,,,,,,,,,,
207,136099,0,0.0,135.0,,-0.13,0.55,0.96,-4.0,0.0,1.0,1.11,1.22,91.0,7360.0,0.0,1.4,,6.28,0.844,82.6,,75.7,5.0,,,,,,,,,,,,0,0,0,0,0,0,0,0,0,0,0,0,0,0,0,0,,,,,0.0,,,,,,
208,136119,0,,,,,,,,,,,,,,,,,,,,,,,,,,,,,,,,,,0,0,0,0,0,0,0,0,0,0,0,0,0,0,0,0,,,,,,,,,,,
209,136139,0,0.0,135.0,13.62,-0.15,0.39,0.94,-2.0,0.0,0.0,1.03,1.22,84.0,7146.0,0.1,1.4,15.0,6.43,0.862,82.6,124.0,71.5,5.0,0.0,0.0,0.0,0.0,0.0,0.0,0.0,0.0,2.26,0.0,0.0,0,0,0,0,0,0,0,0,0,0,0,0,0,0,0,0,0.0,0.0,0.0,0.0,0.0,0.0,0.0,0.0,0.0,0.0,0.0
210,136159,0,,,,,,,,,,,,,,,,,,,,,,,,,,,,,,,,,,0,0,0,0,0,0,0,0,0,0,0,0,0,0,0,0,,,,,,,,,,,
211,136179,0,0.0,135.0,,-0.14,0.35,0.93,-1.0,0.0,0.0,1.01,1.22,82.0,6813.0,4.8,2.0,,6.43,0.862,82.6,,71.5,5.0,,,,,,,,,,,,0,0,0,0,0,0,0,0,0,0,0,0,0,0,0,0,,,,,0.0,,,,,,
212,136199,0,,,,,,,,,,,,,,,,,,,,,,,,,,,,,,,,,,0,0,0,0,0,0,0,0,0,0,0,0,0,0,0,0,,,,,,,,,,,
213,136219,0,0.0,135.0,,-0.15,0.29,0.92,-1.0,0.0,0.0,0.98,1.22,80.0,6813.0,4.8,2.0,,6.99,0.889,82.6,,64.2,5.0,,,,,,,,,,,,0,0,0,0,0,0,0,0,0,0,0,0,0,0,0,0,,,,,0.0,,,,,,
214,136239,0,,,,,,,,,,,,,,,,,,,,,,,0.0,0.0,0.0,0.0,0.0,0.0,0.0,0.0,2.26,,,0,0,0,0,0,0,0,0,0,0,0,0,0,0,0,0,0.0,,,,,0.0,0.0,0.0,0.0,0.0,0.0
215,136259,0,0.0,135.0,,-0.12,0.29,0.97,-2.0,0.0,0.0,1.02,1.22,83.0,6564.0,9.2,2.44,,7.95,0.909,82.6,,64.2,5.0,,,,,,,,,,,,0,0,0,0,0,0,0,0,0,0,0,0,0,0,0,0,,,,,0.0,,,,,,
216,136279,0,,,,,,,,,,,,,,,,,,,,,,,,,,,,,,,,,,0,0,0,0,0,0,0,0,0,0,0,0,0,0,0,0,,,,,,,,,,,
217,136299,0,0.0,135.0,,-0.15,0.25,0.95,-2.0,0.0,0.0,0.99,1.22,81.0,6416.0,10.1,2.66,,8.74,0.923,82.6,,64.2,5.0,,,,,,,,,,,,0,0,0,0,0,0,0,0,0,0,0,0,0,0,0,0,,,,,0.0,,,,,,
218,136319,0,,,,,,,,,,,,,,,,,,,,,,,,,,,,,,,,,,0,0,0,0,0,0,0,0,0,0,0,0,0,0,0,0,,,,,,,,,,,
219,136339,0,0.0,135.0,,-0.13,0.22,1.04,-2.0,0.0,0.0,1.07,1.22,87.0,6284.0,9.4,2.78,,9.34,0.924,82.6,,59.7,5.0,0.0,0.0,0.0,0.0,0.0,0.0,0.0,0.0,2.26,,,0,0,0,0,0,0,0,0,0,0,0,0,0,0,0,0,0.0,,,,0.0,0.0,0.0,0.0,0.0,0.0,0.0
220,136359,0,,,,,,,,,,,,,,,,,,,,,,,,,,,,,,,,,,0,0,0,0,0,0,0,0,0,0,0,0,0,0,0,0,,,,,,,,,,,
221,136379,0,0.0,135.0,,-0.18,0.28,1.08,-2.0,0.0,0.0,1.13,1.22,93.0,6184.0,4.4,2.56,,9.34,0.924,82.6,,59.7,5.0,,,,,,,,,,,,0,0,0,0,0,0,0,0,0,0,0,0,0,0,0,0,,,,,0.0,,,,,,
222,136399,0,,,,,,,,,,,,,,,,,,,,,,,,,,,,,,,,,,0,0,0,0,0,0,0,0,0,0,0,0,0,0,0,0,,,,,,,,,,,
223,136419,0,0.0,135.0,,-0.22,0.27,1.02,-2.0,0.0,0.0,1.08,1.22,89.0,6184.0,4.4,2.56,,9.31,0.934,82.6,,60.2,5.0,,,,,,,,,,,,0,0,0,0,0,0,0,0,0,0,0,0,0,0,0,0,,,,,0.0,,,,,,
224,136439,0,,,,,,,,,,,,,,,,,,,,,,,0.0,0.0,0.0,0.0,0.0,0.0,0.0,0.0,2.26,,,0,0,0,0,0,0,0,0,0,0,0,0,0,0,0,0,0.0,,,,,0.0,0.0,0.0,0.0,0.0,0.0
225,136459,0,0.0,135.0,,-0.24,0.22,0.94,-2.0,0.0,0.0,0.99,1.22,81.0,6129.0,1.8,1.58,,9.13,0.952,82.6,,60.2,5.0,,,,,,,,,,,,0,0,0,0,0,0,0,0,0,0,0,0,0,0,0,0,,,,,0.0,,,,,,
226,136479,0,,,,,,,,,,,,,,,,,,,,,,,,,,,,,,,,,,0,0,0,0,0,0,0,0,0,0,0,0,0,0,0,0,,,,,,,,,,,
227,136499,0,0.0,135.0,,-0.29,0.3,0.93,-2.0,0.0,0.0,1.02,1.22,84.0,5880.0,1.3,1.45,,9.06,0.962,82.6,,60.2,5.0,,,,,,,,,,,,0,0,0,0,0,0,0,0,0,0,0,0,0,0,0,0,,,,,0.0,,,,,,
228,136519,0,,,,,,,,,,,,,,,,,,,,,,,,,,,,,,,,,,0,0,0,0,0,0,0,0,0,0,0,0,0,0,0,0,,,,,,,,,,,
229,136539,0,0.0,135.0,,-0.26,0.24,0.93,-1.0,0.0,0.0,0.99,1.22,81.0,5573.0,1.6,1.56,,9.27,0.964,82.6,,58.4,5.0,0.0,0.0,0.0,0.0,0.0,0.0,0.0,0.0,2.26,,,0,0,0,0,0,0,0,0,0,0,0,0,0,0,0,0,0.0,,,,0.0,0.0,0.0,0.0,0.0,0.0,0.0
230,136559,0,,,,,,,,,,,,,,,,,,,,,,,,,,,,,,,,,,0,0,0,0,0,0,0,0,0,0,0,0,0,0,0,0,,,,,,,,,,,
231,136579,0,0.0,135.0,,-0.25,0.19,0.95,-1.0,0.0,0.0,1.0,1.22,81.0,5170.0,6.0,2.46,,9.27,0.964,82.6,,58.4,5.0,,,,,,,,,,,,0,0,0,0,0,0,0,0,0,0,0,0,0,0,0,0,,,,,0.0,,,,,,
232,136599,0,,,,,,,,,,,,,,,,,,,,,,,,,,,,,,,,,,0,0,0,0,0,0,0,0,0,0,0,0,0,0,0,0,,,,,,,,,,,
233,136619,0,0.0,135.0,,-0.26,0.2,0.98,-1.0,0.0,0.0,1.04,1.22,85.0,5170.0,6.0,2.46,,9.92,0.985,82.6,,57.3,5.0,,,,,,,,,,,,0,0,0,0,0,0,0,0,0,0,0,0,0,0,0,0,,,,,0.0,,,,,,
234,136639,0,,,,,,,,,,,,,,,,,,,,,,,0.0,0.0,0.0,0.0,0.0,0.0,0.0,0.0,2.26,,,0,0,0,0,0,0,0,0,0,0,0,0,0,0,0,0,0.0,,,,,0.0,0.0,0.0,0.0,0.0,0.0
235,136659,0,0.0,135.0,,-0.22,0.06,0.95,-1.0,0.0,-1.0,0.97,1.22,80.0,5030.0,10.6,2.66,,10.82,1.063,82.6,,57.3,5.0,,,,,,,,,,,,0,0,0,0,0,0,0,0,0,0,0,0,0,0,0,0,,,,,0.0,,,,,,
236,136679,0,,,,,,,,,,,,,,,,,,,,,,,,,,,,,,,,,,0,0,0,0,0,0,0,0,0,0,0,0,0,0,0,0,,,,,,,,,,,
237,136699,0,0.0,135.0,,-0.23,0.15,1.01,-1.0,0.0,0.0,1.05,1.22,86.0,4824.0,11.8,3.61,,11.52,1.148,82.6,,57.3,5.0,,,,,,,,,,,,0,0,0,0,0,0,0,0,0,0,0,0,0,0,0,0,,,,,0.0,,,,,,
238,136719,0,,,,,,,,,,,,,,,,,,,,,,,,,,,,,,,,,,0,0,0,0,0,0,0,0,0,0,0,0,0,0,0,0,,,,,,,,,,,
239,136739,0,0.0,135.0,,-0.2,0.02,0.93,-2.0,0.0,0.0,0.96,1.22,78.0,4805.0,10.0,3.54,,11.93,1.102,82.6,,56.9,5.0,0.0,0.0,0.0,0.0,0.0,0.0,0.0,0.0,2.26,,,0,0,0,0,0,0,0,0,0,0,0,0,0,0,0,0,0.0,,,,0.0,0.0,0.0,0.0,0.0,0.0,0.0
240,136759,0,,,,,,,,,,,,,,,,,,,,,,,,,,,,,,,,,,0,0,0,0,0,0,0,0,0,0,0,0,0,0,0,0,,,,,,,,,,,
241,136779,0,0.0,135.0,,-0.18,0.08,1.01,-1.0,0.0,-1.0,1.03,1.22,84.0,4769.0,5.1,3.58,,11.93,1.102,82.6,,56.9,5.0,,,,,,,,,,,,0,0,0,0,0,0,0,0,0,0,0,0,0,0,0,0,,,,,0.0,,,,,,
242,136799,0,,,,,,,,,,,,,,,,,,,,,,,,,,,,,,,,,,0,0,0,0,0,0,0,0,0,0,0,0,0,0,0,0,,,,,,,,,,,
243,136819,0,0.0,135.0,,-0.2,0.13,1.01,-2.0,0.0,0.0,1.04,1.22,85.0,4769.0,5.1,3.58,,11.87,1.037,82.6,,57.6,5.0,,,,,,,,,,,,0,0,0,0,0,0,0,0,0,0,0,0,0,0,0,0,,,,,0.0,,,,,,
244,136839,0,,,,,,,,,,,,,,,,,,,,,,,0.0,0.0,0.0,0.0,0.0,0.0,0.0,0.0,2.26,,,0,0,0,0,0,0,0,0,0,0,0,0,0,0,0,0,0.0,,,,,0.0,0.0,0.0,0.0,0.0,0.0
245,136859,0,0.0,135.0,,-0.18,-0.07,0.92,-2.0,0.0,0.0,0.94,1.22,77.0,4703.0,0.9,2.65,,11.5,1.006,82.6,,57.6,5.0,,,,,,,,,,,,0,0,0,0,0,0,0,0,0,0,0,0,0,0,0,0,,,,,0.0,,,,,,
246,136879,0,,,,,,,,,,,,,,,,,,,,,,,,,,,,,,,,,,0,0,0,0,0,0,0,0,0,0,0,0,0,0,0,0,,,,,,,,,,,
247,136899,0,0.0,135.0,,-0.14,-0.19,0.87,-1.0,0.0,-1.0,0.91,1.22,74.0,4619.0,0.0,2.36,,11.28,0.977,82.6,,57.6,5.0,,,,,,,,,,,,0,0,0,0,0,0,0,0,0,0,0,0,0,0,0,0,,,,,0.0,,,,,,
248,136919,0,,,,,,,,,,,,,,,,,,,,,,,,,,,,,,,,,,0,0,0,0,0,0,0,0,0,0,0,0,0,0,0,0,,,,,,,,,,,
249,136939,0,0.0,135.0,,-0.14,-0.34,0.79,0.0,0.0,-2.0,0.88,1.22,72.0,4492.0,0.0,2.36,,11.01,0.947,82.6,,55.9,5.0,0.0,0.0,0.0,0.0,0.0,0.0,0.0,0.0,2.27,,,0,0,0,0,0,0,0,0,0,0,0,0,0,0,0,0,0.0,,,,0.0,0.0,0.0,0.0,0.0,0.0,0.0
250,136959,0,,,,,,,,,,,,,,,,,,,,,,,,,,,,,,,,,,0,0,0,0,0,0,0,0,0,0,0,0,0,0,0,0,,,,,,,,,,,
251,136979,0,0.0,135.0,,-0.16,-0.4,0.78,1.0,0.0,-2.0,0.89,1.22,73.0,4353.0,2.4,2.72,,11.01,0.947,82.6,,55.9,5.0,,,,,,,,,,,,0,0,0,0,0,0,0,0,0,0,0,0,0,0,0,0,,,,,0.0,,,,,,
252,136999,0,,,,,,,,,,,,,,,,,,,,,,,,,,,,,,,,,,0,0,0,0,0,0,0,0,0,0,0,0,0,0,0,0,,,,,,,,,,,
253,137019,0,0.0,135.0,,-0.14,-0.27,0.86,0.0,0.0,-1.0,0.92,1.22,75.0,4353.0,2.4,2.72,,11.09,0.934,82.6,,55.3,5.0,,,,,,,,,,,,0,0,0,0,0,0,0,0,0,0,0,0,0,0,0,0,,,,,0.0,,,,,,
254,137039,0,,,,,,,,,,,,,,,,,,,,,,,0.0,0.0,0.0,0.0,0.0,0.0,0.0,0.0,2.26,,,0,0,0,0,0,0,0,0,0,0,0,0,0,0,0,0,0.0,,,,,0.0,0.0,0.0,0.0,0.0,0.0
255,137059,0,0.0,135.0,,-0.13,-0.23,0.86,0.0,0.0,-1.0,0.9,1.22,74.0,4236.0,7.6,3.57,,11.6,0.966,82.6,,55.3,5.0,,,,,,,,,,,,0,0,0,0,0,0,0,0,0,0,0,0,0,0,0,0,,,,,0.0,,,,,,
256,137079,0,,,,,,,,,,,,,,,,,,,,,,,,,,,,,,,,,,0,0,0,0,0,0,0,0,0,0,0,0,0,0,0,0,,,,,,,,,,,
257,137099,0,0.0,135.0,,-0.16,-0.36,0.82,1.0,0.0,-2.0,0.91,1.22,74.0,4262.0,10.4,3.67,,12.12,1.006,82.6,,55.3,5.0,,,,,,,,,,,,0,0,0,0,0,0,0,0,0,0,0,0,0,0,0,0,,,,,0.0,,,,,,
258,137119,0,,,,,,,,,,,,,,,,,,,,,,,,,,,,,,,,,,0,0,0,0,0,0,0,0,0,0,0,0,0,0,0,0,,,,,,,,,,,
259,137139,0,0.0,135.0,13.65,-0.16,-0.27,0.87,0.0,0.0,-1.0,0.92,1.22,75.0,4296.0,9.8,3.68,15.0,12.35,1.011,82.6,126.0,56.4,5.0,0.0,0.0,0.0,0.0,0.0,0.0,0.0,0.0,2.26,0.0,0.0,0,0,0,0,0,0,0,0,0,0,0,0,0,0,0,0,0.0,0.0,0.0,0.0,0.0,0.0,0.0,0.0,0.0,0.0,0.0
260,137159,0,,,,,,,,,,,,,,,,,,,,,,,,,,,,,,,,,,0,0,0,0,0,0,0,0,0,0,0,0,0,0,0,0,,,,,,,,,,,
261,137179,0,0.0,135.0,,-0.14,-0.13,0.95,0.0,0.0,0.0,0.97,1.22,79.0,4286.0,5.6,3.6,,12.35,1.011,82.6,,56.4,5.0,,,,,,,,,,,,0,0,0,0,0,0,0,0,0,0,0,0,0,0,0,0,,,,,0.0,,,,,,
262,137199,0,,,,,,,,,,,,,,,,,,,,,,,,,,,,,,,,,,0,0,0,0,0,0,0,0,0,0,0,0,0,0,0,0,,,,,,,,,,,
263,137219,0,0.0,135.0,,-0.13,-0.16,0.91,1.0,0.0,-1.0,0.94,1.22,77.0,4286.0,5.6,3.6,,12.33,0.995,82.6,,57.1,5.0,,,,,,,,,,,,0,0,0,0,0,0,0,0,0,0,0,0,0,0,0,0,,,,,0.0,,,,,,
264,137239,0,,,,,,,,,,,,,,,,,,,,,,,0.0,0.0,0.0,0.0,0.0,0.0,0.0,0.0,2.26,,,0,0,0,0,0,0,0,0,0,0,0,0,0,0,0,0,0.0,,,,,0.0,0.0,0.0,0.0,0.0,0.0
265,137259,0,0.0,135.0,,-0.14,-0.26,0.87,2.0,0.0,-2.0,0.92,1.22,75.0,4352.0,2.5,3.14,,12.01,1.004,82.6,,57.1,5.0,,,,,,,,,,,,0,0,0,0,0,0,0,0,0,0,0,0,0,0,0,0,,,,,0.0,,,,,,
266,137279,0,,,,,,,,,,,,,,,,,,,,,,,,,,,,,,,,,,0,0,0,0,0,0,0,0,0,0,0,0,0,0,0,0,,,,,,,,,,,
267,137299,0,0.0,135.0,,-0.14,-0.17,0.92,1.0,0.0,-1.0,0.95,1.22,77.0,4271.0,2.0,2.98,,11.81,1.011,82.6,,57.1,5.0,,,,,,,,,,,,0,0,0,0,0,0,0,0,0,0,0,0,0,0,0,0,,,,,0.0,,,,,,
268,137319,0,,,,,,,,,,,,,,,,,,,,,,,,,,,,,,,,,,0,0,0,0,0,0,0,0,0,0,0,0,0,0,0,0,,,,,,,,,,,
269,137339,0,0.0,135.0,,-0.16,-0.23,0.87,2.0,0.0,-2.0,0.91,1.22,75.0,4067.0,4.1,3.39,,11.8,0.997,82.6,,56.8,5.0,0.0,0.0,0.0,0.0,0.0,0.0,0.0,0.0,2.26,,,0,0,0,0,0,0,0,0,0,0,0,0,0,0,0,0,0.0,,,,0.0,0.0,0.0,0.0,0.0,0.0,0.0
270,137359,0,,,,,,,,,,,,,,,,,,,,,,,,,,,,,,,,,,0,0,0,0,0,0,0,0,0,0,0,0,0,0,0,0,,,,,,,,,,,
271,137379,0,0.0,135.0,,-0.15,-0.11,0.94,1.0,0.0,-1.0,0.96,1.22,79.0,4133.0,7.3,3.61,,11.8,0.997,82.6,,56.8,5.0,,,,,,,,,,,,0,0,0,0,0,0,0,0,0,0,0,0,0,0,0,0,,,,,0.0,,,,,,
272,137399,0,,,,,,,,,,,,,,,,,,,,,,,,,,,,,,,,,,0,0,0,0,0,0,0,0,0,0,0,0,0,0,0,0,,,,,,,,,,,
273,137419,0,0.0,135.0,,-0.15,-0.18,0.89,2.0,0.0,-2.0,0.92,1.22,75.0,4133.0,7.3,3.61,,12.07,1.013,82.6,,56.4,5.0,,,,,,,,,,,,0,0,0,0,0,0,0,0,0,0,0,0,0,0,0,0,,,,,0.0,,,,,,
274,137439,0,,,,,,,,,,,,,,,,,,,,,,,0.0,0.0,0.0,0.0,0.0,0.0,0.0,0.0,2.26,,,0,0,0,0,0,0,0,0,0,0,0,0,0,0,0,0,0.0,,,,,0.0,0.0,0.0,0.0,0.0,0.0
275,137459,0,0.0,135.0,,-0.16,-0.18,0.93,1.0,0.0,-1.0,0.96,1.22,79.0,4169.0,8.3,3.66,,12.32,1.037,82.6,,56.4,5.0,,,,,,,,,,,,0,0,0,0,0,0,0,0,0,0,0,0,0,0,0,0,,,,,0.0,,,,,,
276,137479,0,,,,,,,,,,,,,,,,,,,,,,,,,,,,,,,,,,0,0,0,0,0,0,0,0,0,0,0,0,0,0,0,0,,,,,,,,,,,
277,137499,0,0.0,135.0,,-0.12,-0.01,1.0,1.0,0.0,0.0,1.0,1.22,82.0,4256.0,7.4,3.63,,12.36,0.998,82.6,,56.4,5.0,,,,,,,,,,,,0,0,0,0,0,0,0,0,0,0,0,0,0,0,0,0,,,,,0.0,,,,,,
278,137519,0,,,,,,,,,,,,,,,,,,,,,,,,,,,,,,,,,,0,0,0,0,0,0,0,0,0,0,0,0,0,0,0,0,,,,,,,,,,,
279,137539,0,0.0,135.0,,-0.12,-0.09,0.93,2.0,0.0,-1.0,0.95,1.22,77.0,4321.0,5.0,3.59,,12.28,0.98,82.6,,58.0,5.0,0.0,0.0,0.0,0.0,0.0,0.0,0.0,0.0,2.26,,,0,0,0,0,0,0,0,0,0,0,0,0,0,0,0,0,0.0,,,,0.0,0.0,0.0,0.0,0.0,0.0,0.0
280,137559,0,,,,,,,,,,,,,,,,,,,,,,,,,,,,,,,,,,0,0,0,0,0,0,0,0,0,0,0,0,0,0,0,0,,,,,,,,,,,
281,137579,0,0.0,135.0,,-0.15,-0.24,0.86,2.0,0.0,-1.0,0.91,1.22,74.0,4407.0,3.3,3.37,,12.28,0.98,82.6,,58.0,5.0,,,,,,,,,,,,0,0,0,0,0,0,0,0,0,0,0,0,0,0,0,0,,,,,0.0,,,,,,
282,137599,0,,,,,,,,,,,,,,,,,,,,,,,,,,,,,,,,,,0,0,0,0,0,0,0,0,0,0,0,0,0,0,0,0,,,,,,,,,,,
283,137619,0,0.0,135.0,,-0.16,-0.26,0.84,1.0,0.0,-1.0,0.9,1.22,73.0,4407.0,3.3,3.37,,12.08,0.978,82.6,,60.5,5.0,,,,,,,,,,,,0,0,0,0,0,0,0,0,0,0,0,0,0,0,0,0,,,,,0.0,,,,,,
284,137639,0,,,,,,,,,,,,,,,,,,,,,,,0.0,0.0,0.0,0.0,0.0,0.0,0.0,0.0,2.26,,,0,0,0,0,0,0,0,0,0,0,0,0,0,0,0,0,0.0,,,,,0.0,0.0,0.0,0.0,0.0,0.0
285,137659,0,0.0,135.0,,-0.17,-0.22,0.9,0.0,0.0,0.0,0.94,1.22,77.0,4395.0,2.7,3.11,,11.91,0.972,82.6,,60.5,5.0,,,,,,,,,,,,0,0,0,0,0,0,0,0,0,0,0,0,0,0,0,0,,,,,0.0,,,,,,
286,137679,0,,,,,,,,,,,,,,,,,,,,,,,,,,,,,,,,,,0,0,0,0,0,0,0,0,0,0,0,0,0,0,0,0,,,,,,,,,,,
287,137699,0,0.0,135.0,,-0.14,-0.09,1.0,0.0,0.0,0.0,1.01,1.22,83.0,4379.0,5.7,3.56,,11.93,0.943,82.6,,60.5,5.0,,,,,,,,,,,,0,0,0,0,0,0,0,0,0,0,0,0,0,0,0,0,,,,,0.0,,,,,,
288,137719,0,,,,,,,,,,,,,,,,,,,,,,,,,,,,,,,,,,0,0,0,0,0,0,0,0,0,0,0,0,0,0,0,0,,,,,,,,,,,
289,137739,0,0.0,135.0,,-0.12,0.1,1.09,-1.0,0.0,1.0,1.1,1.22,90.0,4482.0,9.8,3.63,,12.39,0.936,82.6,,60.7,5.0,0.0,0.0,0.0,0.0,0.0,0.0,0.0,0.0,2.26,,,0,0,0,0,0,0,0,0,0,0,0,0,0,0,0,0,0.0,,,,0.0,0.0,0.0,0.0,0.0,0.0,0.0
290,137759,0,,,,,,,,,,,,,,,,,,,,,,,,,,,,,,,,,,0,0,0,0,0,0,0,0,0,0,0,0,0,0,0,0,,,,,,,,,,,
291,137779,0,0.0,135.0,,-0.11,0.26,1.16,-1.0,0.0,1.0,1.19,1.22,97.0,4514.0,11.0,3.7,,12.39,0.936,82.6,,60.7,5.0,,,,,,,,,,,,0,0,0,0,0,0,0,0,0,0,0,0,0,0,0,0,,,,,0.0,,,,,,
292,137799,0,,,,,,,,,,,,,,,,,,,,,,,,,,,,,,,,,,0,0,0,0,0,0,0,0,0,0,0,0,0,0,0,0,,,,,,,,,,,
293,137819,0,0.0,135.0,,-0.1,0.38,1.24,-1.0,0.0,2.0,1.3,1.3,100.0,4514.0,11.0,3.7,,12.6,0.916,82.6,,62.8,5.0,,,,,,,,,,,,0,0,0,0,0,0,0,0,0,0,0,0,0,0,0,0,,,,,0.0,,,,,,
294,137839,0,,,,,,,,,,,,,,,,,,,,,,,0.0,0.0,0.0,0.0,0.0,0.0,0.0,0.0,2.26,,,0,0,0,0,0,0,0,0,0,0,0,0,0,0,0,0,0.0,,,,,0.0,0.0,0.0,0.0,0.0,0.0
295,137859,0,0.0,135.0,,-0.1,0.48,1.31,-2.0,0.0,2.0,1.4,1.4,100.0,4527.0,8.8,3.66,,12.71,0.897,82.6,,62.8,5.0,,,,,,,,,,,,0,0,0,0,0,0,0,0,0,0,0,0,0,0,0,0,,,,,0.0,,,,,,
296,137879,0,,,,,,,,,,,,,,,,,,,,,,,,,,,,,,,,,,0,0,0,0,0,0,0,0,0,0,0,0,0,0,0,0,,,,,,,,,,,
297,137899,0,0.0,135.0,,-0.12,0.54,1.33,-3.0,0.0,3.0,1.44,1.44,100.0,4550.0,4.1,3.64,,12.4,0.886,82.6,,62.8,5.0,,,,,,,,,,,,0,0,0,0,0,0,0,0,0,0,0,0,0,0,0,0,,,,,0.0,,,,,,
298,137919,0,,,,,,,,,,,,,,,,,,,,,,,,,,,,,,,,,,0,0,0,0,0,0,0,0,0,0,0,0,0,0,0,0,,,,,,,,,,,
299,137939,0,0.0,135.0,,-0.13,0.51,1.3,-5.0,0.0,4.0,1.4,1.44,98.0,4556.0,0.0,2.41,,11.96,0.89,82.6,,64.1,5.0,0.0,0.0,0.0,0.0,0.0,0.0,0.0,0.0,2.26,,,0,0,0,0,0,0,0,0,0,0,0,0,0,0,0,0,0.0,,,,0.0,0.0,0.0,0.0,0.0,0.0,0.0
300,137959,0,,,,,,,,,,,,,,,,,,,,,,,,,,,,,,,,,,0,0,0,0,0,0,0,0,0,0,0,0,0,0,0,0,,,,,,,,,,,
301,137979,0,0.0,135.0,,-0.15,0.44,1.25,-6.0,0.0,4.0,1.34,1.44,93.0,4527.0,0.0,2.39,,11.96,0.89,82.6,,64.1,5.0,,,,,,,,,,,,0,0,0,0,0,0,0,0,0,0,0,0,0,0,0,0,,,,,0.0,,,,,,
302,137999,0,,,,,,,,,,,,,,,,,,,,,,,,,,,,,,,,,,0,0,0,0,0,0,0,0,0,0,0,0,0,0,0,0,,,,,,,,,,,
303,138019,0,0.0,135.0,,-0.16,0.4,1.26,-6.0,0.0,4.0,1.33,1.44,92.0,4527.0,0.0,2.39,,11.58,0.885,82.6,,63.1,5.0,,,,,,,,,,,,0,0,0,0,0,0,0,0,0,0,0,0,0,0,0,0,,,,,0.0,,,,,,
304,138039,0,,,,,,,,,,,,,,,,,,,,,,,0.0,0.0,0.0,0.0,0.0,0.0,0.0,0.0,2.26,,,0,0,0,0,0,0,0,0,0,0,0,0,0,0,0,0,0.0,,,,,0.0,0.0,0.0,0.0,0.0,0.0
305,138059,0,0.0,135.0,,-0.17,0.44,1.28,-7.0,0.0,5.0,1.36,1.44,94.0,4468.0,0.0,2.39,,11.29,0.873,82.6,,63.1,5.0,,,,,,,,,,,,0,0,0,0,0,0,0,0,0,0,0,0,0,0,0,0,,,,,0.0,,,,,,
306,138079,0,,,,,,,,,,,,,,,,,,,,,,,,,,,,,,,,,,0,0,0,0,0,0,0,0,0,0,0,0,0,0,0,0,,,,,,,,,,,
307,138099,0,0.0,135.0,,-0.14,0.48,1.29,-6.0,0.0,4.0,1.38,1.44,96.0,4368.0,0.0,2.39,,11.1,0.875,82.6,,63.1,5.0,,,,,,,,,,,,0,0,0,0,0,0,0,0,0,0,0,0,0,0,0,0,,,,,0.0,,,,,,
308,138119,0,,,,,,,,,,,,,,,,,,,,,,,,,,,,,,,,,,0,0,0,0,0,0,0,0,0,0,0,0,0,0,0,0,,,,,,,,,,,
309,138139,0,0.0,135.0,13.66,-0.14,0.33,1.21,-4.0,0.0,3.0,1.26,1.44,88.0,4252.0,0.0,2.39,15.0,11.02,0.889,82.6,126.0,61.6,5.0,0.0,0.0,0.0,0.0,0.0,0.0,0.0,0.0,2.26,0.0,0.0,0,0,0,0,0,0,0,0,0,0,0,0,0,0,0,0,0.0,0.0,0.0,0.0,0.0,0.0,0.0,0.0,0.0,0.0,0.0
310,138159,0,,,,,,,,,,,,,,,,,,,,,,,,,,,,,,,,,,0,0,0,0,0,0,0,0,0,0,0,0,0,0,0,0,,,,,,,,,,,
311,138179,0,0.0,135.0,,-0.14,0.34,1.23,-4.0,0.0,3.0,1.28,1.44,89.0,4138.0,0.0,2.4,,11.02,0.889,82.6,,61.6,5.0,,,,,,,,,,,,0,0,0,0,0,0,0,0,0,0,0,0,0,0,0,0,,,,,0.0,,,,,,
312,138199,0,,,,,,,,,,,,,,,,,,,,,,,,,,,,,,,,,,0,0,0,0,0,0,0,0,0,0,0,0,0,0,0,0,,,,,,,,,,,
313,138219,0,0.0,135.0,,-0.15,0.2,1.14,-3.0,0.0,2.0,1.17,1.44,81.0,4138.0,0.0,2.4,,10.93,0.906,82.6,,60.5,5.0,,,,,,,,,,,,0,0,0,0,0,0,0,0,0,0,0,0,0,0,0,0,,,,,0.0,,,,,,
314,138239,0,,,,,,,,,,,,,,,,,,,,,,,0.0,0.0,0.0,0.0,0.0,0.0,0.0,0.0,2.26,,,0,0,0,0,0,0,0,0,0,0,0,0,0,0,0,0,0.0,,,,,0.0,0.0,0.0,0.0,0.0,0.0
315,138259,0,0.0,135.0,,-0.13,0.23,1.12,-3.0,-1.0,2.0,1.15,1.44,80.0,4044.0,0.0,2.33,,10.96,0.919,82.6,,60.5,5.0,,,,,,,,,,,,0,0,0,0,0,0,0,0,0,0,0,0,0,0,0,0,,,,,0.0,,,,,,
316,138279,0,,,,,,,,,,,,,,,,,,,,,,,,,,,,,,,,,,0,0,0,0,0,0,0,0,0,0,0,0,0,0,0,0,,,,,,,,,,,
317,138299,0,0.0,135.0,,-0.13,0.24,1.11,-2.0,-1.0,2.0,1.14,1.44,80.0,3905.0,0.0,2.43,,11.02,0.933,82.6,,60.5,5.0,,,,,,,,,,,,0,0,0,0,0,0,0,0,0,0,0,0,0,0,0,0,,,,,0.0,,,,,,
318,138319,0,,,,,,,,,,,,,,,,,,,,,,,,,,,,,,,,,,0,0,0,0,0,0,0,0,0,0,0,0,0,0,0,0,,,,,,,,,,,
319,138339,0,0.0,135.0,,-0.15,0.22,1.07,-2.0,0.0,2.0,1.1,1.44,77.0,3722.0,0.0,2.51,,11.16,0.963,82.6,,59.5,5.0,0.0,0.0,0.0,0.0,0.0,0.0,0.0,0.0,2.27,,,0,0,0,0,0,0,0,0,0,0,0,0,0,0,0,0,0.0,,,,0.0,0.0,0.0,0.0,0.0,0.0,0.0
320,138359,0,,,,,,,,,,,,,,,,,,,,,,,,,,,,,,,,,,0,0,0,0,0,0,0,0,0,0,0,0,0,0,0,0,,,,,,,,,,,
321,138379,0,0.0,135.0,,-0.16,0.13,1.05,-2.0,0.0,2.0,1.07,1.44,75.0,3582.0,0.0,2.55,,11.16,0.963,82.6,,59.5,5.0,,,,,,,,,,,,0,0,0,0,0,0,0,0,0,0,0,0,0,0,0,0,,,,,0.0,,,,,,
322,138399,0,,,,,,,,,,,,,,,,,,,,,,,,,,,,,,,,,,0,0,0,0,0,0,0,0,0,0,0,0,0,0,0,0,,,,,,,,,,,
323,138419,0,0.0,135.0,,-0.16,0.13,1.12,-3.0,0.0,2.0,1.14,1.44,79.0,3582.0,0.0,2.55,,11.28,0.984,82.6,,56.7,5.0,,,,,,,,,,,,0,0,0,0,0,0,0,0,0,0,0,0,0,0,0,0,,,,,0.0,,,,,,
324,138439,0,,,,,,,,,,,,,,,,,,,,,,,0.0,0.0,0.0,0.0,0.0,0.0,0.0,0.0,2.26,,,0,0,0,0,0,0,0,0,0,0,0,0,0,0,0,0,0.0,,,,,0.0,0.0,0.0,0.0,0.0,0.0
325,138459,0,0.0,135.0,,-0.15,0.16,1.04,-2.0,0.0,2.0,1.06,1.44,74.0,3403.0,0.0,2.64,,11.5,0.995,82.6,,56.7,5.0,,,,,,,,,,,,0,0,0,0,0,0,0,0,0,0,0,0,0,0,0,0,,,,,0.0,,,,,,
326,138479,0,,,,,,,,,,,,,,,,,,,,,,,,,,,,,,,,,,0,0,0,0,0,0,0,0,0,0,0,0,0,0,0,0,,,,,,,,,,,
327,138499,0,0.0,135.0,,-0.14,0.15,1.01,-2.0,0.0,1.0,1.03,1.44,71.0,3250.0,0.0,2.71,,11.69,0.985,82.6,,56.7,5.0,,,,,,,,,,,,0,0,0,0,0,0,0,0,0,0,0,0,0,0,0,0,,,,,0.0,,,,,,
328,138519,0,,,,,,,,,,,,,,,,,,,,,,,,,,,,,,,,,,0,0,0,0,0,0,0,0,0,0,0,0,0,0,0,0,,,,,,,,,,,
329,138539,0,0.0,135.0,,-0.13,0.16,1.01,-1.0,0.0,1.0,1.03,1.44,72.0,3081.0,0.0,2.79,,11.91,0.961,82.6,,55.4,5.0,0.0,0.0,0.0,0.0,0.0,0.0,0.0,0.0,2.26,,,0,0,0,0,0,0,0,0,0,0,0,0,0,0,0,0,0.0,,,,0.0,0.0,0.0,0.0,0.0,0.0,0.0
330,138559,0,,,,,,,,,,,,,,,,,,,,,,,,,,,,,,,,,,0,0,0,0,0,0,0,0,0,0,0,0,0,0,0,0,,,,,,,,,,,
331,138579,0,0.0,135.0,,-0.13,0.12,0.99,-1.0,0.0,1.0,1.0,1.44,70.0,2938.0,0.0,2.87,,11.91,0.961,82.6,,55.4,5.0,,,,,,,,,,,,0,0,0,0,0,0,0,0,0,0,0,0,0,0,0,0,,,,,0.0,,,,,,
332,138599,0,,,,,,,,,,,,,,,,,,,,,,,,,,,,,,,,,,0,0,0,0,0,0,0,0,0,0,0,0,0,0,0,0,,,,,,,,,,,
333,138619,0,0.0,135.0,,-0.13,0.06,0.97,0.0,0.0,1.0,0.98,1.44,68.0,2938.0,0.0,2.87,,12.12,0.945,82.6,,53.2,5.0,,,,,,,,,,,,0,0,0,0,0,0,0,0,0,0,0,0,0,0,0,0,,,,,0.0,,,,,,
334,138639,0,,,,,,,,,,,,,,,,,,,,,,,0.0,0.0,0.0,0.0,0.0,0.0,0.0,0.0,2.26,,,0,0,0,0,0,0,0,0,0,0,0,0,0,0,0,0,0.0,,,,,0.0,0.0,0.0,0.0,0.0,0.0
335,138659,0,0.0,135.0,,-0.14,0.04,0.98,0.0,0.0,1.0,0.99,1.44,69.0,2681.0,0.0,2.95,,12.29,0.938,82.6,,53.2,5.0,,,,,,,,,,,,0,0,0,0,0,0,0,0,0,0,0,0,0,0,0,0,,,,,0.0,,,,,,
336,138679,0,,,,,,,,,,,,,,,,,,,,,,,,,,,,,,,,,,0,0,0,0,0,0,0,0,0,0,0,0,0,0,0,0,,,,,,,,,,,
337,138699,0,0.0,135.0,,-0.13,0.04,1.0,0.0,0.0,1.0,1.01,1.44,70.0,2568.0,0.0,3.02,,12.53,0.93,82.6,,53.2,5.0,,,,,,,,,,,,0,0,0,0,0,0,0,0,0,0,0,0,0,0,0,0,,,,,0.0,,,,,,
338,138719,0,,,,,,,,,,,,,,,,,,,,,,,,,,,,,,,,,,0,0,0,0,0,0,0,0,0,0,0,0,0,0,0,0,,,,,,,,,,,
339,138739,0,0.0,135.0,,-0.12,0.03,1.0,0.0,0.0,1.0,1.01,1.44,70.0,2387.0,0.0,3.12,,12.79,0.923,82.6,,47.9,5.0,0.0,0.0,0.0,0.0,0.0,0.0,0.0,0.0,2.26,,,0,0,0,0,0,0,0,0,0,0,0,0,0,0,0,0,0.0,,,,0.0,0.0,0.0,0.0,0.0,0.0,0.0
340,138759,0,,,,,,,,,,,,,,,,,,,,,,,,,,,,,,,,,,0,0,0,0,0,0,0,0,0,0,0,0,0,0,0,0,,,,,,,,,,,
341,138779,0,0.0,135.0,,-0.12,0.02,0.99,0.0,0.0,0.0,1.0,1.44,69.0,2194.0,0.0,3.21,,12.79,0.923,82.6,,47.9,5.0,,,,,,,,,,,,0,0,0,0,0,0,0,0,0,0,0,0,0,0,0,0,,,,,0.0,,,,,,
342,138799,0,,,,,,,,,,,,,,,,,,,,,,,,,,,,,,,,,,0,0,0,0,0,0,0,0,0,0,0,0,0,0,0,0,,,,,,,,,,,
343,138819,0,0.0,135.0,,-0.12,0.03,0.99,0.0,0.0,0.0,1.0,1.44,69.0,2194.0,0.0,3.21,,13.0,0.917,82.6,,41.2,5.0,,,,,,,,,,,,0,0,0,0,0,0,0,0,0,0,0,0,0,0,0,0,,,,,0.0,,,,,,
344,138839,0,,,,,,,,,,,,,,,,,,,,,,,0.0,0.0,0.0,0.0,0.0,0.0,0.0,0.0,2.26,,,0,0,0,0,0,0,0,0,0,0,0,0,0,0,0,0,0.0,,,,,0.0,0.0,0.0,0.0,0.0,0.0
345,138859,0,0.0,135.0,,-0.1,-0.02,0.99,0.0,0.0,0.0,1.0,1.44,70.0,2115.0,0.0,3.26,,13.32,0.918,82.6,,41.2,5.0,,,,,,,,,,,,0,0,0,0,0,0,0,0,0,0,0,0,0,0,0,0,,,,,0.0,,,,,,
346,138879,0,,,,,,,,,,,,,,,,,,,,,,,,,,,,,,,,,,0,0,0,0,0,0,0,0,0,0,0,0,0,0,0,0,,,,,,,,,,,
347,138899,0,0.0,135.0,,-0.12,-0.01,0.98,0.0,0.0,0.0,0.99,1.44,69.0,1870.0,0.0,3.35,,13.59,0.923,82.6,,41.2,5.0,,,,,,,,,,,,0,0,0,0,0,0,0,0,0,0,0,0,0,0,0,0,,,,,0.0,,,,,,
348,138919,0,,,,,,,,,,,,,,,,,,,,,,,,,,,,,,,,,,0,0,0,0,0,0,0,0,0,0,0,0,0,0,0,0,,,,,,,,,,,
349,138939,0,0.0,135.0,,-0.12,-0.02,0.98,0.0,0.0,0.0,0.99,1.44,69.0,1755.0,0.0,3.38,,13.73,0.932,82.6,,34.1,5.0,0.0,0.0,0.0,0.0,0.0,0.0,0.0,0.0,2.27,,,0,0,0,0,0,0,0,0,0,0,0,0,0,0,0,0,0.0,,,,0.0,0.0,0.0,0.0,0.0,0.0,0.0
350,138959,0,,,,,,,,,,,,,,,,,,,,,,,,,,,,,,,,,,0,0,0,0,0,0,0,0,0,0,0,0,0,0,0,0,,,,,,,,,,,
351,138979,0,0.0,135.0,,-0.12,-0.02,0.97,0.0,0.0,0.0,0.98,1.44,68.0,1630.0,0.0,3.39,,13.73,0.932,82.6,,34.1,5.0,,,,,,,,,,,,0,0,0,0,0,0,0,0,0,0,0,0,0,0,0,0,,,,,0.0,,,,,,
352,138999,0,,,,,,,,,,,,,,,,,,,,,,,,,,,,,,,,,,0,0,0,0,0,0,0,0,0,0,0,0,0,0,0,0,,,,,,,,,,,
353,139019,0,0.0,135.0,,-0.12,-0.01,0.99,0.0,0.0,0.0,0.99,1.44,69.0,1630.0,0.0,3.39,,13.92,0.949,82.6,,26.9,5.0,,,,,,,,,,,,0,0,0,0,0,0,0,0,0,0,0,0,0,0,0,0,,,,,0.0,,,,,,
354,139039,0,,,,,,,,,,,,,,,,,,,,,,,0.0,0.0,0.0,0.0,0.0,0.0,0.0,0.0,2.26,,,0,0,0,0,0,0,0,0,0,0,0,0,0,0,0,0,0.0,,,,,0.0,0.0,0.0,0.0,0.0,0.0
355,139059,0,0.0,135.0,,-0.11,0.01,0.99,0.0,0.0,0.0,1.0,1.44,70.0,1359.0,0.0,3.42,,14.06,0.958,82.6,,26.9,5.0,,,,,,,,,,,,0,0,0,0,0,0,0,0,0,0,0,0,0,0,0,0,,,,,0.0,,,,,,
356,139079,0,,,,,,,,,,,,,,,,,,,,,,,,,,,,,,,,,,0,0,0,0,0,0,0,0,0,0,0,0,0,0,0,0,,,,,,,,,,,
357,139099,0,0.0,135.0,,-0.1,0.0,1.0,0.0,0.0,0.0,1.01,1.44,70.0,1410.0,0.0,3.46,,13.99,0.955,82.6,,26.9,5.0,,,,,,,,,,,,0,0,0,0,0,0,0,0,0,0,0,0,0,0,0,0,,,,,0.0,,,,,,
358,139119,0,,,,,,,,,,,,,,,,,,,,,,,,,,,,,,,,,,0,0,0,0,0,0,0,0,0,0,0,0,0,0,0,0,,,,,,,,,,,
359,139139,0,0.0,135.0,13.61,-0.08,-0.02,1.0,-1.0,0.0,0.0,1.01,1.44,70.0,1408.0,0.0,3.45,15.0,14.16,0.957,82.6,126.0,25.4,5.0,0.0,0.0,0.0,0.0,0.0,0.0,0.0,0.0,2.26,0.0,0.0,0,0,0,0,0,0,0,0,0,0,0,0,0,0,0,0,0.0,0.0,0.0,0.0,0.0,0.0,0.0,0.0,0.0,0.0,0.0
360,139159,0,,,,,,,,,,,,,,,,,,,,,,,,,,,,,,,,,,0,0,0,0,0,0,0,0,0,0,0,0,0,0,0,0,,,,,,,,,,,
361,139179,0,0.0,135.0,,-0.06,-0.03,1.01,-1.0,0.0,0.0,1.02,1.44,71.0,1608.0,0.0,3.45,,14.16,0.957,82.6,,25.4,5.0,,,,,,,,,,,,0,0,0,0,0,0,0,0,0,0,0,0,0,0,0,0,,,,,0.0,,,,,,
362,139199,0,,,,,,,,,,,,,,,,,,,,,,,,,,,,,,,,,,0,0,0,0,0,0,0,0,0,0,0,0,0,0,0,0,,,,,,,,,,,
363,139219,0,0.0,135.0,,-0.08,-0.04,1.0,-1.0,0.0,0.0,1.01,1.44,70.0,1608.0,0.0,3.45,,14.0,0.995,82.6,,28.3,5.0,,,,,,,,,,,,0,0,0,0,0,0,0,0,0,0,0,0,0,0,0,0,,,,,0.0,,,,,,
364,139239,0,,,,,,,,,,,,,,,,,,,,,,,0.0,0.0,0.0,0.0,0.0,0.0,0.0,0.0,2.26,,,0,0,0,0,0,0,0,0,0,0,0,0,0,0,0,0,0.0,,,,,0.0,0.0,0.0,0.0,0.0,0.0
365,139259,0,0.0,135.0,,-0.09,-0.05,1.0,-1.0,0.0,0.0,1.0,1.44,70.0,1682.0,0.0,3.42,,13.95,1.072,82.6,,28.3,5.0,,,,,,,,,,,,0,0,0,0,0,0,0,0,0,0,0,0,0,0,0,0,,,,,0.0,,,,,,
366,139279,0,,,,,,,,,,,,,,,,,,,,,,,,,,,,,,,,,,0,0,0,0,0,0,0,0,0,0,0,0,0,0,0,0,,,,,,,,,,,
367,139299,0,0.0,135.0,,-0.07,-0.05,0.99,-1.0,0.0,0.0,1.0,1.44,69.0,1770.0,0.0,3.42,,13.9,1.066,82.6,,28.3,5.0,,,,,,,,,,,,0,0,0,0,0,0,0,0,0,0,0,0,0,0,0,0,,,,,0.0,,,,,,
368,139319,0,,,,,,,,,,,,,,,,,,,,,,,,,,,,,,,,,,0,0,0,0,0,0,0,0,0,0,0,0,0,0,0,0,,,,,,,,,,,
369,139339,0,0.0,135.0,,-0.08,-0.05,1.01,-1.0,0.0,0.0,1.02,1.44,71.0,1700.0,0.0,3.41,,13.9,1.033,82.6,,30.0,5.0,0.0,0.0,0.0,0.0,0.0,0.0,0.0,0.0,2.27,,,0,0,0,0,0,0,0,0,0,0,0,0,0,0,0,0,0.0,,,,0.0,0.0,0.0,0.0,0.0,0.0,0.0
370,139359,0,,,,,,,,,,,,,,,,,,,,,,,,,,,,,,,,,,0,0,0,0,0,0,0,0,0,0,0,0,0,0,0,0,,,,,,,,,,,
371,139379,0,0.0,135.0,,-0.1,-0.03,0.97,-1.0,0.0,0.0,0.98,1.44,68.0,1693.0,0.0,3.42,,13.9,1.033,82.6,,30.0,5.0,,,,,,,,,,,,0,0,0,0,0,0,0,0,0,0,0,0,0,0,0,0,,,,,0.0,,,,,,
372,139399,0,,,,,,,,,,,,,,,,,,,,,,,,,,,,,,,,,,0,0,0,0,0,0,0,0,0,0,0,0,0,0,0,0,,,,,,,,,,,
373,139419,0,0.0,135.0,,-0.11,-0.05,0.96,-1.0,0.0,0.0,0.97,1.44,67.0,1693.0,0.0,3.42,,13.99,0.98,82.6,,29.7,5.0,,,,,,,,,,,,0,0,0,0,0,0,0,0,0,0,0,0,0,0,0,0,,,,,0.0,,,,,,
374,139439,0,,,,,,,,,,,,,,,,,,,,,,,0.0,0.0,0.0,0.0,0.0,0.0,0.0,0.0,2.27,,,0,0,0,0,0,0,0,0,0,0,0,0,0,0,0,0,0.0,,,,,0.0,0.0,0.0,0.0,0.0,0.0
375,139459,0,0.0,135.0,,-0.11,-0.07,0.95,-1.0,0.0,0.0,0.96,1.44,67.0,1653.0,0.0,3.42,,14.02,0.95,82.6,,29.7,5.0,,,,,,,,,,,,0,0,0,0,0,0,0,0,0,0,0,0,0,0,0,0,,,,,0.0,,,,,,
376,139479,0,,,,,,,,,,,,,,,,,,,,,,,,,,,,,,,,,,0,0,0,0,0,0,0,0,0,0,0,0,0,0,0,0,,,,,,,,,,,
377,139499,0,0.0,135.0,,-0.11,-0.09,0.95,-1.0,0.0,0.0,0.96,1.44,67.0,1530.0,0.0,3.42,,13.98,0.941,82.6,,29.7,5.0,,,,,,,,,,,,0,0,0,0,0,0,0,0,0,0,0,0,0,0,0,0,,,,,0.0,,,,,,
378,139519,0,,,,,,,,,,,,,,,,,,,,,,,,,,,,,,,,,,0,0,0,0,0,0,0,0,0,0,0,0,0,0,0,0,,,,,,,,,,,
379,139539,0,0.0,135.0,,-0.09,-0.08,0.95,-1.0,0.0,0.0,0.96,1.44,67.0,1596.0,0.0,3.44,,14.11,0.938,82.6,,27.9,5.0,0.0,0.0,0.0,0.0,0.0,0.0,0.0,0.0,2.26,,,0,0,0,0,0,0,0,0,0,0,0,0,0,0,0,0,0.0,,,,0.0,0.0,0.0,0.0,0.0,0.0,0.0
380,139559,0,,,,,,,,,,,,,,,,,,,,,,,,,,,,,,,,,,0,0,0,0,0,0,0,0,0,0,0,0,0,0,0,0,,,,,,,,,,,
381,139579,0,0.0,135.0,,-0.08,-0.09,0.97,-1.0,0.0,0.0,0.98,1.44,68.0,1513.0,0.0,3.42,,14.11,0.938,82.6,,27.9,5.0,,,,,,,,,,,,0,0,0,0,0,0,0,0,0,0,0,0,0,0,0,0,,,,,0.0,,,,,,
382,139599,0,,,,,,,,,,,,,,,,,,,,,,,,,,,,,,,,,,0,0,0,0,0,0,0,0,0,0,0,0,0,0,0,0,,,,,,,,,,,
383,139619,0,0.0,135.0,,-0.08,-0.11,0.95,-1.0,0.0,0.0,0.96,1.44,67.0,1513.0,0.0,3.42,,14.02,0.943,82.6,,26.0,5.0,,,,,,,,,,,,0,0,0,0,0,0,0,0,0,0,0,0,0,0,0,0,,,,,0.0,,,,,,
384,139639,0,,,,,,,,,,,,,,,,,,,,,,,0.0,0.0,0.0,0.0,0.0,0.0,0.0,0.0,2.26,,,0,0,0,0,0,0,0,0,0,0,0,0,0,0,0,0,0.0,,,,,0.0,0.0,0.0,0.0,0.0,0.0
385,139659,0,0.0,135.0,,-0.09,-0.1,0.94,-1.0,0.0,0.0,0.95,1.44,66.0,1365.0,0.0,3.44,,14.11,0.945,82.6,,26.0,5.0,,,,,,,,,,,,0,0,0,0,0,0,0,0,0,0,0,0,0,0,0,0,,,,,0.0,,,,,,
386,139679,0,,,,,,,,,,,,,,,,,,,,,,,,,,,,,,,,,,0,0,0,0,0,0,0,0,0,0,0,0,0,0,0,0,,,,,,,,,,,
387,139699,0,0.0,135.0,,-0.1,-0.08,0.94,-1.0,-1.0,0.0,0.94,1.44,66.0,1467.0,0.0,3.45,,14.14,0.957,82.6,,26.0,5.0,,,,,,,,,,,,0,0,0,0,0,0,0,0,0,0,0,0,0,0,0,0,,,,,0.0,,,,,,
388,139719,0,,,,,,,,,,,,,,,,,,,,,,,,,,,,,,,,,,0,0,0,0,0,0,0,0,0,0,0,0,0,0,0,0,,,,,,,,,,,
389,139739,0,0.0,135.0,,-0.1,-0.09,0.95,-1.0,0.0,0.0,0.96,1.44,67.0,1424.0,0.0,3.45,,14.15,0.971,82.6,,25.2,5.0,0.0,0.0,0.0,0.0,0.0,0.0,0.0,0.0,2.26,,,0,0,0,0,0,0,0,0,0,0,0,0,0,0,0,0,0.0,,,,0.0,0.0,0.0,0.0,0.0,0.0,0.0
390,139759,0,,,,,,,,,,,,,,,,,,,,,,,,,,,,,,,,,,0,0,0,0,0,0,0,0,0,0,0,0,0,0,0,0,,,,,,,,,,,
391,139779,0,0.0,135.0,,-0.1,-0.08,0.96,-1.0,0.0,0.0,0.96,1.44,67.0,1250.0,0.0,3.44,,14.15,0.971,84.4,,25.2,5.0,,,,,,,,,,,,0,0,0,0,0,0,0,0,0,0,0,0,0,0,0,0,,,,,0.0,,,,,,
392,139799,0,,,,,,,,,,,,,,,,,,,,,,,,,,,,,,,,,,0,0,0,0,0,0,0,0,0,0,0,0,0,0,0,0,,,,,,,,,,,
393,139819,0,0.0,135.0,,-0.11,-0.08,0.95,-1.0,0.0,0.0,0.96,1.44,67.0,1250.0,0.0,3.44,,14.16,0.979,84.4,,23.3,5.0,,,,,,,,,,,,0,0,0,0,0,0,0,0,0,0,0,0,0,0,0,0,,,,,0.0,,,,,,
394,139839,0,,,,,,,,,,,,,,,,,,,,,,,0.0,0.0,0.0,0.0,0.0,0.0,0.0,0.0,2.26,,,0,0,0,0,0,0,0,0,0,0,0,0,0,0,0,0,0.0,,,,,0.0,0.0,0.0,0.0,0.0,0.0
395,139859,0,0.0,135.0,,-0.12,-0.11,0.92,-1.0,0.0,0.0,0.94,1.44,65.0,1411.0,0.0,3.46,,14.14,0.977,84.4,,23.3,5.0,,,,,,,,,,,,0,0,0,0,0,0,0,0,0,0,0,0,0,0,0,0,,,,,0.0,,,,,,
396,139879,0,,,,,,,,,,,,,,,,,,,,,,,,,,,,,,,,,,0,0,0,0,0,0,0,0,0,0,0,0,0,0,0,0,,,,,,,,,,,
397,139899,0,0.0,135.0,,-0.1,-0.09,0.94,-1.0,0.0,0.0,0.95,1.44,66.0,1645.0,0.0,3.45,,14.0,0.972,84.4,,23.3,5.0,,,,,,,,,,,,0,0,0,0,0,0,0,0,0,0,0,0,0,0,0,0,,,,,0.0,,,,,,
398,139919,0,,,,,,,,,,,,,,,,,,,,,,,,,,,,,,,,,,0,0,0,0,0,0,0,0,0,0,0,0,0,0,0,0,,,,,,,,,,,
399,139939,0,0.0,135.0,,-0.1,-0.08,0.96,-1.0,0.0,0.0,0.97,1.44,67.0,1720.0,0.0,3.4,,13.96,1.017,84.4,,27.5,5.0,0.0,0.0,0.0,0.0,0.0,0.0,0.0,0.0,2.27,,,0,0,0,0,0,0,0,0,0,0,0,0,0,0,0,0,0.0,,,,0.0,0.0,0.0,0.0,0.0,0.0,0.0
400,139959,0,,,,,,,,,,,,,,,,,,,,,,,,,,,,,,,,,,0,0,0,0,0,0,0,0,0,0,0,0,0,0,0,0,,,,,,,,,,,
401,139979,0,0.0,135.0,,-0.1,-0.09,0.95,-1.0,0.0,0.0,0.96,1.44,67.0,1851.0,0.0,3.41,,13.96,1.017,84.4,,27.5,5.0,,,,,,,,,,,,0,0,0,0,0,0,0,0,0,0,0,0,0,0,0,0,,,,,0.0,,,,,,
402,139999,0,,,,,,,,,,,,,,,,,,,,,,,,,,,,,,,,,,0,0,0,0,0,0,0,0,0,0,0,0,0,0,0,0,,,,,,,,,,,
403,140019,0,0.0,135.0,,-0.1,-0.08,0.97,-1.0,0.0,0.0,0.98,1.44,68.0,1851.0,0.0,3.41,,13.94,1.058,84.4,,30.6,5.0,,,,,,,,,,,,0,0,0,0,0,0,0,0,0,0,0,0,0,0,0,0,,,,,0.0,,,,,,
404,140039,0,,,,,,,,,,,,,,,,,,,,,,,0.0,0.0,0.0,0.0,0.0,0.0,0.0,0.0,2.26,,,0,0,0,0,0,0,0,0,0,0,0,0,0,0,0,0,0.0,,,,,0.0,0.0,0.0,0.0,0.0,0.0
405,140059,0,0.0,135.0,,-0.12,-0.08,0.95,-1.0,0.0,0.0,0.96,1.44,67.0,1744.0,0.0,3.39,,13.9,1.03,84.4,,30.6,5.0,,,,,,,,,,,,0,0,0,0,0,0,0,0,0,0,0,0,0,0,0,0,,,,,0.0,,,,,,
406,140079,0,,,,,,,,,,,,,,,,,,,,,,,,,,,,,,,,,,0,0,0,0,0,0,0,0,0,0,0,0,0,0,0,0,,,,,,,,,,,
407,140099,0,0.0,135.0,,-0.11,-0.09,0.96,-1.0,0.0,0.0,0.98,1.44,68.0,1727.0,0.0,3.4,,13.95,0.988,84.4,,30.6,5.0,,,,,,,,,,,,0,0,0,0,0,0,0,0,0,0,0,0,0,0,0,0,,,,,0.0,,,,,,
408,140119,0,,,,,,,,,,,,,,,,,,,,,,,,,,,,,,,,,,0,0,0,0,0,0,0,0,0,0,0,0,0,0,0,0,,,,,,,,,,,
409,140139,0,0.0,135.0,13.61,-0.09,-0.09,0.98,-1.0,0.0,0.0,0.99,1.44,69.0,1745.0,0.0,3.41,15.0,14.02,0.965,84.4,128.0,30.6,5.0,0.0,0.0,0.0,0.0,0.0,0.0,0.0,0.0,2.26,0.0,0.0,0,0,0,0,0,0,0,0,0,0,0,0,0,0,0,0,0.0,0.0,0.0,0.0,0.0,0.0,0.0,0.0,0.0,0.0,0.0
410,140159,0,,,,,,,,,,,,,,,,,,,,,,,,,,,,,,,,,,0,0,0,0,0,0,0,0,0,0,0,0,0,0,0,0,,,,,,,,,,,
411,140179,0,0.0,135.0,,-0.1,-0.06,1.01,-1.0,0.0,0.0,1.01,1.44,70.0,1659.0,0.0,3.41,,14.02,0.965,84.4,,30.6,5.0,,,,,,,,,,,,0,0,0,0,0,0,0,0,0,0,0,0,0,0,0,0,,,,,0.0,,,,,,
412,140199,0,,,,,,,,,,,,,,,,,,,,,,,,,,,,,,,,,,0,0,0,0,0,0,0,0,0,0,0,0,0,0,0,0,,,,,,,,,,,
413,140219,0,0.0,135.0,,-0.11,-0.05,0.98,-1.0,0.0,0.0,0.99,1.44,69.0,1659.0,0.0,3.41,,14.06,0.962,84.4,,29.9,5.0,,,,,,,,,,,,0,0,0,0,0,0,0,0,0,0,0,0,0,0,0,0,,,,,0.0,,,,,,
414,140239,0,,,,,,,,,,,,,,,,,,,,,,,0.0,0.0,0.0,0.0,0.0,0.0,0.0,0.0,2.26,,,0,0,0,0,0,0,0,0,0,0,0,0,0,0,0,0,0.0,,,,,0.0,0.0,0.0,0.0,0.0,0.0
415,140259,0,0.0,135.0,,-0.12,-0.06,0.98,-1.0,0.0,0.0,0.98,1.44,68.0,1731.0,0.0,3.41,,13.98,0.961,84.4,,29.9,5.0,,,,,,,,,,,,0,0,0,0,0,0,0,0,0,0,0,0,0,0,0,0,,,,,0.0,,,,,,
416,140279,0,,,,,,,,,,,,,,,,,,,,,,,,,,,,,,,,,,0,0,0,0,0,0,0,0,0,0,0,0,0,0,0,0,,,,,,,,,,,
417,140299,0,0.0,135.0,,-0.11,-0.07,0.96,-1.0,0.0,0.0,0.97,1.44,68.0,1588.0,0.0,3.42,,13.95,0.964,84.4,,29.9,5.0,,,,,,,,,,,,0,0,0,0,0,0,0,0,0,0,0,0,0,0,0,0,,,,,0.0,,,,,,
418,140319,0,,,,,,,,,,,,,,,,,,,,,,,,,,,,,,,,,,0,0,0,0,0,0,0,0,0,0,0,0,0,0,0,0,,,,,,,,,,,
419,140339,0,0.0,135.0,,-0.1,-0.06,0.99,-1.0,0.0,0.0,1.0,1.44,69.0,1660.0,0.0,3.43,,14.06,0.965,84.4,,29.2,5.0,0.0,0.0,0.0,0.0,0.0,0.0,0.0,0.0,2.26,,,0,0,0,0,0,0,0,0,0,0,0,0,0,0,0,0,0.0,,,,0.0,0.0,0.0,0.0,0.0,0.0,0.0
420,140359,0,,,,,,,,,,,,,,,,,,,,,,,,,,,,,,,,,,0,0,0,0,0,0,0,0,0,0,0,0,0,0,0,0,,,,,,,,,,,
421,140379,0,0.0,135.0,,-0.11,-0.06,1.0,-1.0,0.0,0.0,1.01,1.44,70.0,1674.0,0.0,3.41,,14.06,0.965,84.4,,29.2,5.0,,,,,,,,,,,,0,0,0,0,0,0,0,0,0,0,0,0,0,0,0,0,,,,,0.0,,,,,,
422,140399,0,,,,,,,,,,,,,,,,,,,,,,,,,,,,,,,,,,0,0,0,0,0,0,0,0,0,0,0,0,0,0,0,0,,,,,,,,,,,
423,140419,0,0.0,135.0,,-0.13,-0.07,0.98,-1.0,0.0,0.0,0.99,1.44,69.0,1674.0,0.0,3.41,,14.07,0.97,84.4,,28.8,5.0,,,,,,,,,,,,0,0,0,0,0,0,0,0,0,0,0,0,0,0,0,0,,,,,0.0,,,,,,
424,140439,0,,,,,,,,,,,,,,,,,,,,,,,0.0,0.0,0.0,0.0,0.0,0.0,0.0,0.0,2.26,,,0,0,0,0,0,0,0,0,0,0,0,0,0,0,0,0,0.0,,,,,0.0,0.0,0.0,0.0,0.0,0.0
425,140459,0,0.0,135.0,,-0.14,-0.07,0.97,-1.0,0.0,0.0,0.98,1.44,68.0,1564.0,0.0,3.43,,13.99,0.975,84.4,,28.8,5.0,,,,,,,,,,,,0,0,0,0,0,0,0,0,0,0,0,0,0,0,0,0,,,,,0.0,,,,,,
426,140479,0,,,,,,,,,,,,,,,,,,,,,,,,,,,,,,,,,,0,0,0,0,0,0,0,0,0,0,0,0,0,0,0,0,,,,,,,,,,,
427,140499,0,0.0,135.0,,-0.16,-0.06,0.96,-1.0,0.0,0.0,0.98,1.44,68.0,1580.0,0.0,3.43,,14.12,0.972,84.4,,28.8,5.0,,,,,,,,,,,,0,0,0,0,0,0,0,0,0,0,0,0,0,0,0,0,,,,,0.0,,,,,,
428,140519,0,,,,,,,,,,,,,,,,,,,,,,,,,,,,,,,,,,0,0,0,0,0,0,0,0,0,0,0,0,0,0,0,0,,,,,,,,,,,
