,Interval,Utc,FrontBP,SteerAng,Battery,AccelX,AccelY,AccelZ,Yaw,Pitch,Roll,Gsum,GsumMax,GsumPct,RPM,TPS,InjectorPW,Baro,MAP,Lambda,IAT,EngineTemp,EOP,EOT,WSFR,WSFL,WSRR,WSRL,TCSet,TCSlip,TCComp,TCCut,Analog8,OilTemp,AA_On,ThermLF1,ThermLF2,ThermRR1,ThermRR2,ThermLF3,ThermLF4,ThermLF5,ThermLF6,ThermLF7,ThermLF8,ThermRR3,ThermRR4,ThermRR5,ThermRR6,ThermRR7,ThermRR8,Gear,AA_On1,AA_LowDrag,Fuel_Mix,AA_Packages,Latitude,Longitude,Speed,GPSSats,GPSQual,GPSDOP
0,720910,1745065636681,0.0,171.82,,-0.01,-0.01,0.97,2.0,0.0,0.0,0.97,0.97,100.0,3923.0,1.8,3.05,,12.21,0.989,70.0,,67.3,5.0,,,,,,,,,,,,0,0,0,0,0,0,0,0,0,0,0,0,0,0,0,0,,,,,0.0,,,,,,
1,720930,1745065636701,,,,,,,,,,,,,,,,,,,,,,,,,,,,,,,,,,0,0,0,0,0,0,0,0,0,0,0,0,0,0,0,0,,,,,,,,,,,
2,720950,1745065636721,0.0,171.69,,-0.02,-0.0,1.02,2.0,0.0,0.0,1.02,1.02,100.0,3934.0,1.8,3.07,,12.15,0.991,70.0,,67.8,5.0,,,,,,,,,,,,0,0,0,0,0,0,0,0,0,0,0,0,0,0,0,0,,,,,0.0,,,,,,
3,720970,1745065636741,,,,,,,,,,,,,,,,,,,,,,,,,,,,,,,,,,0,0,0,0,0,0,0,0,0,0,0,0,0,0,0,0,,,,,,,,,,,
4,720990,1745065636761,0.0,171.82,,-0.05,-0.06,1.02,2.0,0.0,0.0,1.02,1.02,100.0,3880.0,1.8,3.11,,12.15,0.991,70.0,,67.8,5.0,1.0,1.0,1.0,1.0,0.0,0.0,0.0,0.0,2.24,,,0,0,0,0,0,0,0,0,0,0,0,0,0,0,0,0,0.0,,,,0.0,39.240181,-77.964973,1.89,35.0,2.0,0.8
5,721010,1745065636781,,,,,,,,,,,,,,,,,,,,,,,,,,,,,,,,,,0,0,0,0,0,0,0,0,0,0,0,0,0,0,0,0,,,,,,,,,,,
6,721030,1745065636801,0.0,171.82,,-0.06,-0.06,1.01,3.0,0.0,0.0,1.01,1.02,99.0,3880.0,1.8,3.11,,12.13,0.996,70.0,,66.2,5.0,,,,,,,,,,,,0,0,0,0,0,0,0,0,0,0,0,0,0,0,0,0,,,,,0.0,,,,,,
7,721050,1745065636821,,,,,,,,,,,,,,,,,,,,,,,,,,,,,,,,,,0,0,0,0,0,0,0,0,0,0,0,0,0,0,0,0,,,,,,,,,,,
8,721070,1745065636841,0.0,171.82,,-0.05,-0.05,1.01,3.0,0.0,0.0,1.01,1.02,99.0,3798.0,1.4,3.03,,12.05,0.993,70.0,,66.2,5.0,,,,,,,,,,,,0,0,0,0,0,0,0,0,0,0,0,0,0,0,0,0,,,,,0.0,,,,,,
9,721090,1745065636861,,,,,,,,,,,,,,,,,,,,,,,1.0,1.0,1.0,1.0,0.0,0.0,0.0,0.0,2.24,,,0,0,0,0,0,0,0,0,0,0,0,0,0,0,0,0,0.0,,,,,39.240181,-77.964973,1.85,35.0,2.0,0.8
10,721110,1745065636881,0.0,171.82,,-0.03,-0.02,1.02,3.0,0.0,0.0,1.02,1.02,99.0,3707.0,0.4,2.81,,12.07,1.004,70.0,,66.2,5.0,,,,,,,,,,,,0,0,0,0,0,0,0,0,0,0,0,0,0,0,0,0,,,,,0.0,,,,,,
11,721130,1745065636901,,,,,,,,,,,,,,,,,,,,,,,,,,,,,,,,,,0,0,0,0,0,0,0,0,0,0,0,0,0,0,0,0,,,,,,,,,,,
12,721150,1745065636921,0.0,171.82,,-0.02,0.02,1.02,3.0,0.0,0.0,1.02,1.02,100.0,3639.0,0.0,2.72,,12.07,1.033,70.0,,63.2,5.0,,,,,,,,,,,,0,0,0,0,0,0,0,0,0,0,0,0,0,0,0,0,,,,,0.0,,,,,,
13,721170,1745065636941,,,,,,,,,,,,,,,,,,,,,,,,,,,,,,,,,,0,0,0,0,0,0,0,0,0,0,0,0,0,0,0,0,,,,,,,,,,,
14,721190,1745065636961,0.0,171.95,,-0.01,0.01,0.96,3.0,0.0,0.0,0.96,1.02,94.0,3492.0,0.0,2.76,,12.07,1.033,70.0,,63.2,5.0,1.0,1.0,1.0,1.0,0.0,0.0,0.0,0.0,2.25,,,0,0,0,0,0,0,0,0,0,0,0,0,0,0,0,0,0.0,,,,0.0,39.240181,-77.964973,2.11,35.0,2.0,0.8
15,721210,1745065636981,,,,,,,,,,,,,,,,,,,,,,,,,,,,,,,,,,0,0,0,0,0,0,0,0,0,0,0,0,0,0,0,0,,,,,,,,,,,
16,721230,1745065637001,0.0,171.82,,-0.02,-0.06,1.03,3.0,0.0,0.0,1.04,1.04,100.0,3492.0,0.0,2.76,,11.92,1.08,70.0,,59.4,5.0,,,,,,,,,,,,0,0,0,0,0,0,0,0,0,0,0,0,0,0,0,0,,,,,0.0,,,,,,
17,721250,1745065637011,,,,,,,,,,,,,,,,,,,,,,,,,,,,,,,,,,0,0,0,0,0,0,0,0,0,0,0,0,0,0,0,0,,,,,,,,,,,
18,721270,1745065637031,0.0,171.95,,-0.01,-0.01,0.95,3.0,0.0,0.0,0.95,1.04,91.0,3344.0,0.0,2.81,,11.92,1.113,70.0,,59.4,5.0,,,,,,,,,,,,0,0,0,0,0,0,0,0,0,0,0,0,0,0,0,0,,,,,0.0,,,,,,
19,721290,1745065637051,,,,,,,,,,,,,,,,,,,,,,,1.0,1.0,1.0,1.0,0.0,0.0,0.0,0.0,2.25,,,0,0,0,0,0,0,0,0,0,0,0,0,0,0,0,0,0.0,,,,,39.240181,-77.964966,2.09,35.0,2.0,0.8
20,721310,1745065637071,0.0,171.95,,-0.01,-0.02,1.01,3.0,0.0,0.0,1.01,1.04,97.0,3343.0,0.0,2.86,,11.96,1.136,70.0,,59.4,5.0,,,,,,,,,,,,0,0,0,0,0,0,0,0,0,0,0,0,0,0,0,0,,,,,0.0,,,,,,
21,721330,1745065637101,,,,,,,,,,,,,,,,,,,,,,,,,,,,,,,,,,0,0,0,0,0,0,0,0,0,0,0,0,0,0,0,0,,,,,,,,,,,
22,721350,1745065637121,0.0,171.95,,-0.04,-0.08,0.99,3.0,0.0,0.0,1.0,1.04,96.0,3289.0,0.0,2.88,,12.01,1.142,70.0,,55.2,5.0,,,,,,,,,,,,0,0,0,0,0,0,0,0,0,0,0,0,0,0,0,0,,,,,0.0,,,,,,
23,721370,1745065637141,,,,,,,,,,,,,,,,,,,,,,,,,,,,,,,,,,0,0,0,0,0,0,0,0,0,0,0,0,0,0,0,0,,,,,,,,,,,
24,721390,1745065637161,0.0,172.07,12.9,-0.02,-0.02,0.93,3.0,-1.0,0.0,0.93,1.04,90.0,3206.0,0.0,2.9,15.0,12.01,1.142,70.0,155.0,55.2,5.0,1.0,1.0,1.0,1.0,0.0,0.0,0.0,0.0,2.24,0.0,1.0,0,0,0,0,0,0,0,0,0,0,0,0,0,0,0,0,0.0,0.0,0.0,0.0,0.0,39.240181,-77.964966,2.34,35.0,2.0,0.8
25,721410,1745065637181,,,,,,,,,,,,,,,,,,,,,,,,,,,,,,,,,,0,0,0,0,0,0,0,0,0,0,0,0,0,0,0,0,,,,,,,,,,,
26,721430,1745065637201,0.0,171.95,,0.01,-0.0,0.97,3.0,-1.0,1.0,0.97,1.04,93.0,3206.0,0.0,2.9,,12.07,1.112,70.0,,53.4,5.0,,,,,,,,,,,,0,0,0,0,0,0,0,0,0,0,0,0,0,0,0,0,,,,,0.0,,,,,,
27,721450,1745065637219,,,,,,,,,,,,,,,,,,,,,,,,,,,,,,,,,,0,0,0,0,0,0,0,0,0,0,0,0,0,0,0,0,,,,,,,,,,,
28,721470,1745065637239,0.0,171.95,,0.01,-0.04,1.02,3.0,-1.0,1.0,1.02,1.04,99.0,3173.0,0.0,2.93,,12.12,1.025,70.0,,53.4,5.0,,,,,,,,,,,,0,0,0,0,0,0,0,0,0,0,0,0,0,0,0,0,,,,,0.0,,,,,,
29,721490,1745065637259,,,,,,,,,,,,,,,,,,,,,,,2.0,1.0,2.0,1.0,0.0,0.0,0.0,0.0,2.24,,,0,0,0,0,0,0,0,0,0,0,0,0,0,0,0,0,0.0,,,,,39.240181,-77.964966,2.48,35.0,2.0,0.8
30,721510,1745065637279,0.0,172.07,,0.02,-0.07,1.08,2.0,-1.0,1.0,1.08,1.08,100.0,3023.0,0.0,2.98,,12.17,0.977,70.0,,53.4,5.0,,,,,,,,,,,,0,0,0,0,0,0,0,0,0,0,0,0,0,0,0,0,,,,,0.0,,,,,,
31,721530,1745065637301,,,,,,,,,,,,,,,,,,,,,,,,,,,,,,,,,,0,0,0,0,0,0,0,0,0,0,0,0,0,0,0,0,,,,,,,,,,,
32,721550,1745065637321,0.0,171.95,,0.02,-0.06,1.13,2.0,-1.0,1.0,1.13,1.13,100.0,2935.0,0.0,3.01,,12.29,0.962,70.0,,50.6,5.0,,,,,,,,,,,,0,0,0,0,0,0,0,0,0,0,0,0,0,0,0,0,,,,,0.0,,,,,,
33,721570,1745065637341,,,,,,,,,,,,,,,,,,,,,,,,,,,,,,,,,,0,0,0,0,0,0,0,0,0,0,0,0,0,0,0,0,,,,,,,,,,,
34,721590,1745065637361,0.0,171.95,,0.02,-0.05,1.14,2.0,-1.0,1.0,1.14,1.14,100.0,2920.0,0.0,3.03,,12.29,0.962,70.0,,50.6,5.0,2.0,1.0,2.0,1.0,0.0,0.0,0.0,0.0,2.24,,,0,0,0,0,0,0,0,0,0,0,0,0,0,0,0,0,0.0,,,,0.0,39.240181,-77.964966,2.38,35.0,2.0,0.8
35,721610,1745065637381,,,,,,,,,,,,,,,,,,,,,,,,,,,,,,,,,,0,0,0,0,0,0,0,0,0,0,0,0,0,0,0,0,,,,,,,,,,,
36,721630,1745065637401,0.0,171.95,,0.03,-0.03,1.08,3.0,-1.0,1.0,1.08,1.14,95.0,2920.0,0.0,3.03,,12.33,0.977,70.0,,48.3,5.0,,,,,,,,,,,,0,0,0,0,0,0,0,0,0,0,0,0,0,0,0,0,,,,,0.0,,,,,,
37,721650,1745065637420,,,,,,,,,,,,,,,,,,,,,,,,,,,,,,,,,,0,0,0,0,0,0,0,0,0,0,0,0,0,0,0,0,,,,,,,,,,,
38,721670,1745065637440,0.0,172.07,,0.03,-0.03,1.03,3.0,-1.0,1.0,1.04,1.14,91.0,2895.0,0.0,3.05,,12.39,0.983,70.0,,48.3,5.0,,,,,,,,,,,,0,0,0,0,0,0,0,0,0,0,0,0,0,0,0,0,,,,,0.0,,,,,,
39,721690,1745065637460,,,,,,,,,,,,,,,,,,,,,,,2.0,2.0,2.0,1.0,0.0,0.0,0.0,0.0,2.25,,,0,0,0,0,0,0,0,0,0,0,0,0,0,0,0,0,0.0,,,,,39.240181,-77.964966,2.72,35.0,2.0,0.8
40,721710,1745065637480,0.0,172.07,,0.02,-0.05,1.05,3.0,-1.0,1.0,1.05,1.14,92.0,2761.0,0.0,3.11,,12.45,0.948,70.0,,48.3,5.0,,,,,,,,,,,,0,0,0,0,0,0,0,0,0,0,0,0,0,0,0,0,,,,,0.0,,,,,,
41,721730,1745065637500,,,,,,,,,,,,,,,,,,,,,,,,,,,,,,,,,,0,0,0,0,0,0,0,0,0,0,0,0,0,0,0,0,,,,,,,,,,,
42,721750,1745065637520,0.0,172.07,,0.0,-0.03,1.03,3.0,-1.0,1.0,1.03,1.14,91.0,2665.0,0.0,3.13,,12.55,0.918,70.0,,45.1,5.0,,,,,,,,,,,,0,0,0,0,0,0,0,0,0,0,0,0,0,0,0,0,,,,,0.0,,,,,,
43,721770,1745065637540,,,,,,,,,,,,,,,,,,,,,,,,,,,,,,,,,,0,0,0,0,0,0,0,0,0,0,0,0,0,0,0,0,,,,,,,,,,,
44,721790,1745065637560,0.0,172.07,,0.0,-0.02,1.05,3.0,0.0,1.0,1.05,1.14,93.0,2588.0,0.0,3.19,,12.55,0.918,70.0,,45.1,5.0,2.0,2.0,2.0,1.0,0.0,0.0,0.0,0.0,2.25,,,0,0,0,0,0,0,0,0,0,0,0,0,0,0,0,0,0.0,,,,0.0,39.240181,-77.964966,2.69,35.0,2.0,0.8
45,721810,1745065637580,,,,,,,,,,,,,,,,,,,,,,,,,,,,,,,,,,0,0,0,0,0,0,0,0,0,0,0,0,0,0,0,0,,,,,,,,,,,
46,721830,1745065637600,0.0,171.95,,-0.0,-0.01,1.04,3.0,0.0,1.0,1.04,1.14,91.0,2588.0,0.0,3.19,,12.64,0.91,70.0,,41.4,5.0,,,,,,,,,,,,0,0,0,0,0,0,0,0,0,0,0,0,0,0,0,0,,,,,0.0,,,,,,
47,721850,1745065637620,,,,,,,,,,,,,,,,,,,,,,,,,,,,,,,,,,0,0,0,0,0,0,0,0,0,0,0,0,0,0,0,0,,,,,,,,,,,
48,721870,1745065637640,0.0,171.95,,-0.02,-0.01,1.02,3.0,0.0,1.0,1.02,1.14,90.0,2454.0,0.0,3.22,,12.79,0.916,70.0,,41.4,5.0,,,,,,,,,,,,0,0,0,0,0,0,0,0,0,0,0,0,0,0,0,0,,,,,0.0,,,,,,
49,721890,1745065637660,,,,,,,,,,,,,,,,,,,,,,,2.0,2.0,2.0,2.0,0.0,0.0,0.0,0.0,2.24,,,0,0,0,0,0,0,0,0,0,0,0,0,0,0,0,0,0.0,,,,,39.240181,-77.964966,2.68,35.0,2.0,0.8
50,721910,1745065637680,0.0,172.07,,-0.0,-0.02,1.01,3.0,-1.0,1.0,1.01,1.14,89.0,2404.0,0.0,3.3,,12.91,0.935,70.0,,41.4,5.0,,,,,,,,,,,,0,0,0,0,0,0,0,0,0,0,0,0,0,0,0,0,,,,,0.0,,,,,,
51,721930,1745065637700,,,,,,,,,,,,,,,,,,,,,,,,,,,,,,,,,,0,0,0,0,0,0,0,0,0,0,0,0,0,0,0,0,,,,,,,,,,,
52,721950,1745065637720,0.0,171.95,,-0.01,-0.01,1.0,4.0,-1.0,1.0,1.0,1.14,88.0,2306.0,0.0,3.32,,13.03,0.957,70.0,,37.9,5.0,,,,,,,,,,,,0,0,0,0,0,0,0,0,0,0,0,0,0,0,0,0,,,,,0.0,,,,,,
53,721970,1745065637740,,,,,,,,,,,,,,,,,,,,,,,,,,,,,,,,,,0,0,0,0,0,0,0,0,0,0,0,0,0,0,0,0,,,,,,,,,,,
54,721990,1745065637760,0.0,171.95,,-0.01,-0.03,1.01,4.0,-1.0,1.0,1.01,1.14,89.0,2523.0,0.0,3.31,,13.03,0.957,70.0,,37.9,5.0,2.0,2.0,2.0,2.0,0.0,0.0,0.0,0.0,2.24,,,0,0,0,0,0,0,0,0,0,0,0,0,0,0,0,0,0.0,,,,0.0,39.240181,-77.964966,2.81,35.0,2.0,0.8
55,722010,1745065637780,,,,,,,,,,,,,,,,,,,,,,,,,,,,,,,,,,0,0,0,0,0,0,0,0,0,0,0,0,0,0,0,0,,,,,,,,,,,
56,722030,1745065637800,0.0,171.95,,-0.03,-0.02,0.99,4.0,-1.0,1.0,1.0,1.14,88.0,2523.0,0.0,3.31,,13.01,1.017,70.0,,39.7,5.0,,,,,,,,,,,,0,0,0,0,0,0,0,0,0,0,0,0,0,0,0,0,,,,,0.0,,,,,,
57,722050,1745065637820,,,,,,,,,,,,,,,,,,,,,,,,,,,,,,,,,,0,0,0,0,0,0,0,0,0,0,0,0,0,0,0,0,,,,,,,,,,,
58,722070,1745065637840,0.0,171.95,,-0.02,-0.02,0.99,4.0,-1.0,1.0,0.99,1.14,87.0,2485.0,0.0,3.28,,13.04,1.093,70.0,,39.7,5.0,,,,,,,,,,,,0,0,0,0,0,0,0,0,0,0,0,0,0,0,0,0,,,,,0.0,,,,,,
59,722090,1745065637860,,,,,,,,,,,,,,,,,,,,,,,2.0,2.0,2.0,2.0,0.0,0.0,0.0,0.0,2.24,,,0,0,0,0,0,0,0,0,0,0,0,0,0,0,0,0,0.0,,,,,39.240181,-77.964966,2.74,35.0,2.0,0.8
60,722110,1745065637880,0.0,171.95,,-0.02,-0.05,1.01,4.0,-1.0,1.0,1.02,1.14,89.0,2499.0,0.0,3.28,,13.03,1.054,70.0,,39.7,5.0,,,,,,,,,,,,0,0,0,0,0,0,0,0,0,0,0,0,0,0,0,0,,,,,0.0,,,,,,
61,722130,1745065637902,,,,,,,,,,,,,,,,,,,,,,,,,,,,,,,,,,0,0,0,0,0,0,0,0,0,0,0,0,0,0,0,0,,,,,,,,,,,
62,722150,1745065637922,0.0,171.95,,-0.02,-0.03,1.0,4.0,-1.0,0.0,1.0,1.14,88.0,2448.0,0.0,3.3,,13.09,0.99,70.0,,39.2,5.0,,,,,,,,,,,,0,0,0,0,0,0,0,0,0,0,0,0,0,0,0,0,,,,,0.0,,,,,,
63,722170,1745065637942,,,,,,,,,,,,,,,,,,,,,,,,,,,,,,,,,,0,0,0,0,0,0,0,0,0,0,0,0,0,0,0,0,,,,,,,,,,,
64,722190,1745065637962,0.0,172.07,,-0.03,-0.04,1.01,4.0,-1.0,0.0,1.02,1.14,89.0,2420.0,0.0,3.3,,13.09,0.99,70.0,,39.2,5.0,2.0,2.0,2.0,2.0,0.0,0.0,0.0,0.0,2.25,,,0,0,0,0,0,0,0,0,0,0,0,0,0,0,0,0,0.0,,,,0.0,39.240181,-77.964958,2.86,35.0,2.0,0.8
65,722210,1745065637982,,,,,,,,,,,,,,,,,,,,,,,,,,,,,,,,,,0,0,0,0,0,0,0,0,0,0,0,0,0,0,0,0,,,,,,,,,,,
66,722230,1745065638002,0.0,171.95,,-0.02,-0.06,1.02,4.0,-1.0,0.0,1.02,1.14,90.0,2420.0,0.0,3.3,,13.07,0.939,70.0,,37.7,5.0,,,,,,,,,,,,0,0,0,0,0,0,0,0,0,0,0,0,0,0,0,0,,,,,0.0,,,,,,
67,722250,1745065638012,,,,,,,,,,,,,,,,,,,,,,,,,,,,,,,,,,0,0,0,0,0,0,0,0,0,0,0,0,0,0,0,0,,,,,,,,,,,
68,722270,1745065638032,0.0,172.07,,-0.01,-0.05,1.02,4.0,-1.0,0.0,1.02,1.14,89.0,2332.0,0.0,3.34,,13.12,0.917,70.0,,37.7,5.0,,,,,,,,,,,,0,0,0,0,0,0,0,0,0,0,0,0,0,0,0,0,,,,,0.0,,,,,,
69,722290,1745065638052,,,,,,,,,,,,,,,,,,,,,,,2.0,2.0,2.0,2.0,0.0,0.0,0.0,0.0,2.25,,,0,0,0,0,0,0,0,0,0,0,0,0,0,0,0,0,0.0,,,,,39.240181,-77.964958,2.94,36.0,2.0,0.8
70,722310,1745065638072,0.0,172.07,,0.0,-0.05,1.02,4.0,-1.0,0.0,1.02,1.14,89.0,2231.0,0.0,3.36,,13.12,0.905,70.0,,37.7,5.0,,,,,,,,,,,,0,0,0,0,0,0,0,0,0,0,0,0,0,0,0,0,,,,,0.0,,,,,,
71,722330,1745065638092,,,,,,,,,,,,,,,,,,,,,,,,,,,,,,,,,,0,0,0,0,0,0,0,0,0,0,0,0,0,0,0,0,,,,,,,,,,,
72,722350,1745065638118,0.0,172.07,,0.01,-0.05,1.01,4.0,-1.0,0.0,1.01,1.14,89.0,2102.0,0.0,3.48,,13.32,0.904,70.0,,32.9,5.0,,,,,,,,,,,,0,0,0,0,0,0,0,0,0,0,0,0,0,0,0,0,,,,,0.0,,,,,,
73,722370,1745065638138,,,,,,,,,,,,,,,,,,,,,,,,,,,,,,,,,,0,0,0,0,0,0,0,0,0,0,0,0,0,0,0,0,,,,,,,,,,,
74,722390,1745065638158,0.0,172.07,12.79,-0.01,-0.05,1.01,4.0,-1.0,0.0,1.01,1.14,89.0,1992.0,0.0,3.45,15.0,13.32,0.904,70.0,155.0,32.9,5.0,2.0,2.0,2.0,2.0,0.0,0.0,0.0,0.0,2.24,0.0,1.0,0,0,0,0,0,0,0,0,0,0,0,0,0,0,0,0,0.0,0.0,0.0,0.0,0.0,39.240181,-77.964958,3.03,36.0,2.0,0.8
75,722410,1745065638178,,,,,,,,,,,,,,,,,,,,,,,,,,,,,,,,,,0,0,0,0,0,0,0,0,0,0,0,0,0,0,0,0,,,,,,,,,,,
76,722430,1745065638198,0.0,172.07,,-0.01,-0.03,0.99,4.0,-1.0,0.0,0.99,1.14,87.0,1992.0,0.0,3.45,,13.4,0.903,70.0,,29.6,5.0,,,,,,,,,,,,0,0,0,0,0,0,0,0,0,0,0,0,0,0,0,0,,,,,0.0,,,,,,
77,722450,1745065638218,,,,,,,,,,,,,,,,,,,,,,,,,,,,,,,,,,0,0,0,0,0,0,0,0,0,0,0,0,0,0,0,0,,,,,,,,,,,
78,722470,1745065638238,0.0,171.95,,0.01,-0.04,0.99,5.0,-1.0,0.0,0.99,1.14,87.0,1732.0,0.0,3.53,,13.56,0.908,70.0,,29.6,5.0,,,,,,,,,,,,0,0,0,0,0,0,0,0,0,0,0,0,0,0,0,0,,,,,0.0,,,,,,
79,722490,1745065638258,,,,,,,,,,,,,,,,,,,,,,,2.0,2.0,2.0,2.0,0.0,0.0,0.0,0.0,2.25,,,0,0,0,0,0,0,0,0,0,0,0,0,0,0,0,0,0.0,,,,,39.240181,-77.964958,3.27,36.0,2.0,0.8
80,722510,1745065638278,0.0,172.07,,0.02,-0.05,0.98,5.0,-1.0,0.0,0.99,1.14,87.0,1725.0,0.0,3.54,,13.57,0.919,70.0,,29.6,5.0,,,,,,,,,,,,0,0,0,0,0,0,0,0,0,0,0,0,0,0,0,0,,,,,0.0,,,,,,
81,722530,1745065638302,,,,,,,,,,,,,,,,,,,,,,,,,,,,,,,,,,0,0,0,0,0,0,0,0,0,0,0,0,0,0,0,0,,,,,,,,,,,
82,722550,1745065638322,0.0,172.07,,0.05,-0.04,1.0,5.0,-1.0,0.0,1.01,1.14,89.0,1529.0,0.0,3.55,,13.72,0.94,70.0,,24.6,5.0,,,,,,,,,,,,0,0,0,0,0,0,0,0,0,0,0,0,0,0,0,0,,,,,0.0,,,,,,
83,722570,1745065638342,,,,,,,,,,,,,,,,,,,,,,,,,,,,,,,,,,0,0,0,0,0,0,0,0,0,0,0,0,0,0,0,0,,,,,,,,,,,
84,722590,1745065638362,0.0,172.07,,0.05,-0.04,1.0,5.0,-1.0,0.0,1.0,1.14,88.0,1453.0,0.0,3.57,,13.72,0.94,70.0,,24.6,5.0,2.0,2.0,2.0,2.0,0.0,0.0,0.0,0.0,2.24,,,0,0,0,0,0,0,0,0,0,0,0,0,0,0,0,0,0.0,,,,0.0,39.240181,-77.964958,3.35,36.0,2.0,0.8
85,722610,1745065638382,,,,,,,,,,,,,,,,,,,,,,,,,,,,,,,,,,0,0,0,0,0,0,0,0,0,0,0,0,0,0,0,0,,,,,,,,,,,
86,722630,1745065638402,0.0,171.95,,0.03,-0.02,0.99,5.0,-1.0,0.0,0.99,1.14,87.0,1453.0,0.0,3.57,,13.72,0.974,70.0,,21.4,5.0,,,,,,,,,,,,0,0,0,0,0,0,0,0,0,0,0,0,0,0,0,0,,,,,0.0,,,,,,
87,722650,1745065638419,,,,,,,,,,,,,,,,,,,,,,,,,,,,,,,,,,0,0,0,0,0,0,0,0,0,0,0,0,0,0,0,0,,,,,,,,,,,
88,722670,1745065638439,0.0,171.95,,0.05,-0.01,1.01,5.0,-1.0,0.0,1.01,1.14,89.0,1311.0,0.0,3.59,,13.84,1.008,70.0,,21.4,5.0,,,,,,,,,,,,0,0,0,0,0,0,0,0,0,0,0,0,0,0,0,0,,,,,0.0,,,,,,
89,722690,1745065638459,,,,,,,,,,,,,,,,,,,,,,,2.0,2.0,2.0,2.0,0.0,0.0,0.0,0.0,2.24,,,0,0,0,0,0,0,0,0,0,0,0,0,0,0,0,0,0.0,,,,,39.240177,-77.964958,3.34,36.0,2.0,0.8
90,722710,1745065638479,0.0,172.07,,0.05,-0.02,1.01,5.0,0.0,0.0,1.02,1.14,89.0,1280.0,0.0,3.61,,13.83,1.049,70.0,,21.4,5.0,,,,,,,,,,,,0,0,0,0,0,0,0,0,0,0,0,0,0,0,0,0,,,,,0.0,,,,,,
91,722730,1745065638501,,,,,,,,,,,,,,,,,,,,,,,,,,,,,,,,,,0,0,0,0,0,0,0,0,0,0,0,0,0,0,0,0,,,,,,,,,,,
92,722750,1745065638521,0.0,172.07,,0.05,-0.03,1.03,5.0,0.0,0.0,1.03,1.14,90.0,1449.0,0.0,3.6,,13.88,1.07,70.0,,20.5,5.0,,,,,,,,,,,,0,0,0,0,0,0,0,0,0,0,0,0,0,0,0,0,,,,,0.0,,,,,,
93,722770,1745065638541,,,,,,,,,,,,,,,,,,,,,,,,,,,,,,,,,,0,0,0,0,0,0,0,0,0,0,0,0,0,0,0,0,,,,,,,,,,,
94,722790,1745065638561,0.0,172.07,,0.06,-0.01,1.03,5.0,0.0,0.0,1.03,1.14,91.0,1515.0,0.0,3.59,,13.88,1.07,70.0,,20.5,5.0,2.0,2.0,2.0,2.0,0.0,0.0,0.0,0.0,2.24,,,0,0,0,0,0,0,0,0,0,0,0,0,0,0,0,0,0.0,,,,0.0,39.240177,-77.964958,3.51,36.0,2.0,0.8
95,722810,1745065638581,,,,,,,,,,,,,,,,,,,,,,,,,,,,,,,,,,0,0,0,0,0,0,0,0,0,0,0,0,0,0,0,0,,,,,,,,,,,
96,722830,1745065638601,0.0,172.07,,0.06,-0.02,1.02,5.0,0.0,0.0,1.03,1.14,90.0,1515.0,0.0,3.59,,13.84,1.161,70.0,,24.4,5.0,,,,,,,,,,,,0,0,0,0,0,0,0,0,0,0,0,0,0,0,0,0,,,,,0.0,,,,,,
97,722850,1745065638621,,,,,,,,,,,,,,,,,,,,,,,,,,,,,,,,,,0,0,0,0,0,0,0,0,0,0,0,0,0,0,0,0,,,,,,,,,,,
98,722870,1745065638641,0.0,172.07,,0.06,-0.01,1.04,5.0,0.0,0.0,1.05,1.14,92.0,1630.0,0.0,3.58,,13.76,1.195,70.0,,24.4,5.0,,,,,,,,,,,,0,0,0,0,0,0,0,0,0,0,0,0,0,0,0,0,,,,,0.0,,,,,,
99,722890,1745065638661,,,,,,,,,,,,,,,,,,,,,,,2.0,2.0,2.0,2.0,0.0,0.0,0.0,0.0,2.25,,,0,0,0,0,0,0,0,0,0,0,0,0,0,0,0,0,0.0,,,,,39.240177,-77.964958,3.52,36.0,2.0,0.8
100,722910,1745065638681,0.0,172.2,,0.04,-0.01,1.04,5.0,0.0,0.0,1.04,1.14,91.0,1607.0,0.0,3.58,,13.8,1.117,70.0,,24.4,5.0,,,,,,,,,,,,0,0,0,0,0,0,0,0,0,0,0,0,0,0,0,0,,,,,0.0,,,,,,
101,722930,1745065638701,,,,,,,,,,,,,,,,,,,,,,,,,,,,,,,,,,0,0,0,0,0,0,0,0,0,0,0,0,0,0,0,0,,,,,,,,,,,
102,722950,1745065638721,0.0,172.2,,0.03,-0.02,1.04,6.0,0.0,0.0,1.05,1.14,92.0,1967.0,0.0,3.57,,13.63,1.067,70.0,,27.6,5.0,,,,,,,,,,,,0,0,0,0,0,0,0,0,0,0,0,0,0,0,0,0,,,,,0.0,,,,,,
103,722970,1745065638741,,,,,,,,,,,,,,,,,,,,,,,,,,,,,,,,,,0,0,0,0,0,0,0,0,0,0,0,0,0,0,0,0,,,,,,,,,,,
104,722990,1745065638761,0.0,172.2,,0.02,-0.01,1.04,5.0,0.0,0.0,1.04,1.14,91.0,1940.0,0.0,3.53,,13.63,1.067,70.0,,27.6,5.0,2.0,2.0,2.0,2.0,0.0,0.0,0.0,0.0,2.24,,,0,0,0,0,0,0,0,0,0,0,0,0,0,0,0,0,0.0,,,,0.0,39.240177,-77.964958,3.57,36.0,2.0,0.8
105,723010,1745065638781,,,,,,,,,,,,,,,,,,,,,,,,,,,,,,,,,,0,0,0,0,0,0,0,0,0,0,0,0,0,0,0,0,,,,,,,,,,,
106,723030,1745065638801,0.0,172.32,,0.01,0.0,1.02,5.0,0.0,0.0,1.02,1.14,90.0,1940.0,0.0,3.53,,13.64,1.071,70.0,,30.5,5.0,,,,,,,,,,,,0,0,0,0,0,0,0,0,0,0,0,0,0,0,0,0,,,,,0.0,,,,,,
107,723050,1745065638821,,,,,,,,,,,,,,,,,,,,,,,,,,,,,,,,,,0,0,0,0,0,0,0,0,0,0,0,0,0,0,0,0,,,,,,,,,,,
108,723070,1745065638841,0.0,172.32,,0.01,0.01,1.03,5.0,0.0,0.0,1.03,1.14,91.0,1977.0,0.0,3.52,,13.63,1.018,70.0,,30.5,5.0,,,,,,,,,,,,0,0,0,0,0,0,0,0,0,0,0,0,0,0,0,0,,,,,0.0,,,,,,
109,723090,1745065638861,,,,,,,,,,,,,,,,,,,,,,,2.0,2.0,2.0,2.0,0.0,0.0,0.0,0.0,2.24,,,0,0,0,0,0,0,0,0,0,0,0,0,0,0,0,0,0.0,,,,,39.240177,-77.964958,3.63,36.0,2.0,0.8
110,723110,1745065638881,0.0,172.32,,-0.0,-0.0,1.03,5.0,0.0,0.0,1.03,1.14,91.0,1880.0,0.0,3.51,,13.63,0.968,70.0,,30.5,5.0,,,,,,,,,,,,0,0,0,0,0,0,0,0,0,0,0,0,0,0,0,0,,,,,0.0,,,,,,
111,723130,1745065638901,,,,,,,,,,,,,,,,,,,,,,,,,,,,,,,,,,0,0,0,0,0,0,0,0,0,0,0,0,0,0,0,0,,,,,,,,,,,
112,723150,1745065638921,0.0,172.32,,-0.01,-0.01,1.03,5.0,0.0,0.0,1.03,1.14,91.0,1993.0,0.0,3.51,,13.55,0.93,70.0,,30.7,5.0,,,,,,,,,,,,0,0,0,0,0,0,0,0,0,0,0,0,0,0,0,0,,,,,0.0,,,,,,
113,723170,1745065638941,,,,,,,,,,,,,,,,,,,,,,,,,,,,,,,,,,0,0,0,0,0,0,0,0,0,0,0,0,0,0,0,0,,,,,,,,,,,
114,723190,1745065638961,0.0,172.2,,-0.01,-0.0,1.03,6.0,0.0,0.0,1.03,1.14,90.0,2016.0,0.0,3.52,,13.55,0.93,70.0,,30.7,5.0,2.0,2.0,2.0,2.0,0.0,0.0,0.0,0.0,2.24,,,0,0,0,0,0,0,0,0,0,0,0,0,0,0,0,0,0.0,,,,0.0,39.240177,-77.964958,3.7,36.0,2.0,0.8
115,723210,1745065638981,,,,,,,,,,,,,,,,,,,,,,,,,,,,,,,,,,0,0,0,0,0,0,0,0,0,0,0,0,0,0,0,0,,,,,,,,,,,
116,723230,1745065639001,0.0,172.32,,-0.03,-0.01,1.02,6.0,0.0,0.0,1.02,1.14,90.0,2016.0,0.0,3.52,,13.63,0.915,70.0,,30.8,5.0,,,,,,,,,,,,0,0,0,0,0,0,0,0,0,0,0,0,0,0,0,0,,,,,0.0,,,,,,
117,723250,1745065639013,,,,,,,,,,,,,,,,,,,,,,,,,,,,,,,,,,0,0,0,0,0,0,0,0,0,0,0,0,0,0,0,0,,,,,,,,,,,
118,723270,1745065639033,0.0,172.32,,-0.03,-0.03,1.02,6.0,0.0,0.0,1.02,1.14,90.0,2002.0,0.0,3.5,,13.6,0.909,70.0,,30.8,5.0,,,,,,,,,,,,0,0,0,0,0,0,0,0,0,0,0,0,0,0,0,0,,,,,0.0,,,,,,
119,723290,1745065639053,,,,,,,,,,,,,,,,,,,,,,,2.0,2.0,2.0,2.0,0.0,0.0,0.0,0.0,2.25,,,0,0,0,0,0,0,0,0,0,0,0,0,0,0,0,0,0.0,,,,,39.240177,-77.964958,3.6,36.0,2.0,0.8
120,723310,1745065639073,0.0,172.32,,-0.02,-0.02,1.02,6.0,0.0,0.0,1.02,1.14,90.0,2014.0,0.0,3.53,,13.51,0.906,70.0,,30.8,5.0,,,,,,,,,,,,0,0,0,0,0,0,0,0,0,0,0,0,0,0,0,0,,,,,0.0,,,,,,
121,723330,1745065639093,,,,,,,,,,,,,,,,,,,,,,,,,,,,,,,,,,0,0,0,0,0,0,0,0,0,0,0,0,0,0,0,0,,,,,,,,,,,
122,723350,1745065639119,0.0,172.32,,-0.04,-0.02,1.03,6.0,0.0,0.0,1.03,1.14,90.0,1962.0,0.0,3.5,,13.57,0.903,70.0,,31.2,5.0,,,,,,,,,,,,0,0,0,0,0,0,0,0,0,0,0,0,0,0,0,0,,,,,0.0,,,,,,
123,723370,1745065639139,,,,,,,,,,,,,,,,,,,,,,,,,,,,,,,,,,0,0,0,0,0,0,0,0,0,0,0,0,0,0,0,0,,,,,,,,,,,
124,723390,1745065639159,0.0,172.32,12.82,-0.04,-0.02,1.02,6.0,0.0,0.0,1.02,1.14,90.0,2010.0,0.0,3.52,15.0,13.57,0.903,70.0,155.0,31.2,5.0,2.0,2.0,2.0,2.0,0.0,0.0,0.0,0.0,2.25,0.0,1.0,0,0,0,0,0,0,0,0,0,0,0,0,0,0,0,0,0.0,0.0,0.0,0.0,0.0,39.240177,-77.964951,3.66,36.0,2.0,0.8
125,723410,1745065639179,,,,,,,,,,,,,,,,,,,,,,,,,,,,,,,,,,0,0,0,0,0,0,0,0,0,0,0,0,0,0,0,0,,,,,,,,,,,
126,723430,1745065639199,0.0,172.2,,-0.04,-0.01,1.05,6.0,0.0,0.0,1.05,1.14,92.0,2010.0,0.0,3.52,,13.55,0.906,70.0,,31.7,5.0,,,,,,,,,,,,0,0,0,0,0,0,0,0,0,0,0,0,0,0,0,0,,,,,0.0,,,,,,
127,723450,1745065639219,,,,,,,,,,,,,,,,,,,,,,,,,,,,,,,,,,0,0,0,0,0,0,0,0,0,0,0,0,0,0,0,0,,,,,,,,,,,
128,723470,1745065639239,0.0,172.2,,-0.04,-0.02,1.05,6.0,0.0,0.0,1.05,1.14,92.0,2020.0,0.0,3.48,,13.51,0.906,70.0,,31.7,5.0,,,,,,,,,,,,0,0,0,0,0,0,0,0,0,0,0,0,0,0,0,0,,,,,0.0,,,,,,
129,723490,1745065639259,,,,,,,,,,,,,,,,,,,,,,,3.0,2.0,3.0,2.0,0.0,0.0,0.0,0.0,2.25,,,0,0,0,0,0,0,0,0,0,0,0,0,0,0,0,0,0.0,,,,,39.240177,-77.964951,3.84,36.0,2.0,0.8
130,723510,1745065639279,0.0,172.2,,-0.05,-0.01,1.04,6.0,0.0,0.0,1.04,1.14,92.0,2102.0,0.0,3.5,,13.57,0.906,70.0,,31.7,5.0,,,,,,,,,,,,0,0,0,0,0,0,0,0,0,0,0,0,0,0,0,0,,,,,0.0,,,,,,
131,723530,1745065639303,,,,,,,,,,,,,,,,,,,,,,,,,,,,,,,,,,0,0,0,0,0,0,0,0,0,0,0,0,0,0,0,0,,,,,,,,,,,
132,723550,1745065639323,0.0,172.2,,-0.04,-0.03,1.02,6.0,0.0,0.0,1.02,1.14,90.0,2103.0,0.0,3.47,,13.47,0.904,70.0,,32.2,5.0,,,,,,,,,,,,0,0,0,0,0,0,0,0,0,0,0,0,0,0,0,0,,,,,0.0,,,,,,
133,723570,1745065639343,,,,,,,,,,,,,,,,,,,,,,,,,,,,,,,,,,0,0,0,0,0,0,0,0,0,0,0,0,0,0,0,0,,,,,,,,,,,
134,723590,1745065639363,0.0,172.2,,-0.03,-0.03,1.03,6.0,0.0,0.0,1.03,1.14,91.0,2104.0,0.0,3.49,,13.47,0.904,70.0,,32.2,5.0,3.0,2.0,3.0,2.0,0.0,0.0,0.0,0.0,2.24,,,0,0,0,0,0,0,0,0,0,0,0,0,0,0,0,0,0.0,,,,0.0,39.240177,-77.964951,3.85,36.0,2.0,0.8
135,723610,1745065639383,,,,,,,,,,,,,,,,,,,,,,,,,,,,,,,,,,0,0,0,0,0,0,0,0,0,0,0,0,0,0,0,0,,,,,,,,,,,
136,723630,1745065639402,0.0,172.2,,-0.03,-0.03,1.03,6.0,0.0,0.0,1.03,1.14,90.0,2104.0,0.0,3.49,,13.53,0.911,70.0,,33.2,5.0,,,,,,,,,,,,0,0,0,0,0,0,0,0,0,0,0,0,0,0,0,0,,,,,0.0,,,,,,
137,723650,1745065639422,,,,,,,,,,,,,,,,,,,,,,,,,,,,,,,,,,0,0,0,0,0,0,0,0,0,0,0,0,0,0,0,0,,,,,,,,,,,
138,723670,1745065639442,0.0,172.2,,-0.03,-0.04,1.02,6.0,0.0,0.0,1.02,1.14,90.0,2136.0,0.0,3.44,,13.44,0.91,70.0,,33.2,5.0,,,,,,,,,,,,0,0,0,0,0,0,0,0,0,0,0,0,0,0,0,0,,,,,0.0,,,,,,
139,723690,1745065639462,,,,,,,,,,,,,,,,,,,,,,,3.0,2.0,3.0,2.0,0.0,0.0,0.0,0.0,2.24,,,0,0,0,0,0,0,0,0,0,0,0,0,0,0,0,0,0.0,,,,,39.240173,-77.964951,3.96,36.0,2.0,0.8
140,723710,1745065639482,0.0,172.32,,-0.03,-0.04,1.02,6.0,0.0,0.0,1.02,1.14,90.0,2079.0,0.0,3.47,,13.48,0.915,70.0,,33.2,5.0,,,,,,,,,,,,0,0,0,0,0,0,0,0,0,0,0,0,0,0,0,0,,,,,0.0,,,,,,
141,723730,1745065639502,,,,,,,,,,,,,,,,,,,,,,,,,,,,,,,,,,0,0,0,0,0,0,0,0,0,0,0,0,0,0,0,0,,,,,,,,,,,
142,723750,1745065639522,0.0,172.2,,-0.05,-0.02,1.02,6.0,0.0,0.0,1.02,1.14,90.0,2132.0,0.0,3.48,,13.43,0.915,70.0,,32.5,5.0,,,,,,,,,,,,0,0,0,0,0,0,0,0,0,0,0,0,0,0,0,0,,,,,0.0,,,,,,
143,723770,1745065639542,,,,,,,,,,,,,,,,,,,,,,,,,,,,,,,,,,0,0,0,0,0,0,0,0,0,0,0,0,0,0,0,0,,,,,,,,,,,
144,723790,1745065639562,0.0,172.2,,-0.05,-0.04,1.01,6.0,0.0,0.0,1.01,1.14,89.0,2075.0,0.0,3.46,,13.43,0.915,70.0,,32.5,5.0,3.0,2.0,3.0,2.0,0.0,0.0,0.0,0.0,2.24,,,0,0,0,0,0,0,0,0,0,0,0,0,0,0,0,0,0.0,,,,0.0,39.240173,-77.964951,4.11,36.0,2.0,0.8
145,723810,1745065639582,,,,,,,,,,,,,,,,,,,,,,,,,,,,,,,,,,0,0,0,0,0,0,0,0,0,0,0,0,0,0,0,0,,,,,,,,,,,
146,723830,1745065639602,0.0,172.32,,-0.05,-0.05,1.04,6.0,0.0,0.0,1.04,1.14,91.0,2075.0,0.0,3.46,,13.49,0.922,70.0,,33.5,5.0,,,,,,,,,,,,0,0,0,0,0,0,0,0,0,0,0,0,0,0,0,0,,,,,0.0,,,,,,
147,723850,1745065639622,,,,,,,,,,,,,,,,,,,,,,,,,,,,,,,,,,0,0,0,0,0,0,0,0,0,0,0,0,0,0,0,0,,,,,,,,,,,
148,723870,1745065639642,0.0,172.32,,-0.05,-0.05,1.02,6.0,0.0,0.0,1.03,1.14,90.0,2199.0,0.0,3.47,,13.41,0.926,70.0,,33.5,5.0,,,,,,,,,,,,0,0,0,0,0,0,0,0,0,0,0,0,0,0,0,0,,,,,0.0,,,,,,
149,723890,1745065639662,,,,,,,,,,,,,,,,,,,,,,,3.0,3.0,3.0,2.0,0.0,0.0,0.0,0.0,2.25,,,0,0,0,0,0,0,0,0,0,0,0,0,0,0,0,0,0.0,,,,,39.240173,-77.964951,4.23,36.0,2.0,0.8
150,723910,1745065639682,0.0,172.32,,-0.05,-0.05,1.01,6.0,0.0,0.0,1.01,1.14,89.0,2168.0,0.0,3.45,,13.41,0.946,70.0,,33.5,5.0,,,,,,,,,,,,0,0,0,0,0,0,0,0,0,0,0,0,0,0,0,0,,,,,0.0,,,,,,
151,723930,1745065639702,,,,,,,,,,,,,,,,,,,,,,,,,,,,,,,,,,0,0,0,0,0,0,0,0,0,0,0,0,0,0,0,0,,,,,,,,,,,
152,723950,1745065639720,0.0,172.2,,-0.04,-0.06,1.01,6.0,0.0,0.0,1.01,1.14,89.0,2105.0,0.0,3.47,,13.45,0.95,70.0,,33.1,5.0,,,,,,,,,,,,0,0,0,0,0,0,0,0,0,0,0,0,0,0,0,0,,,,,0.0,,,,,,
153,723970,1745065639740,,,,,,,,,,,,,,,,,,,,,,,,,,,,,,,,,,0,0,0,0,0,0,0,0,0,0,0,0,0,0,0,0,,,,,,,,,,,
154,723990,1745065639760,0.0,172.2,,-0.05,-0.05,1.0,6.0,0.0,0.0,1.0,1.14,88.0,2061.0,0.0,3.46,,13.45,0.95,70.0,,33.1,5.0,3.0,2.0,3.0,3.0,0.0,0.0,0.0,0.0,2.24,,,0,0,0,0,0,0,0,0,0,0,0,0,0,0,0,0,0.0,,,,0.0,39.240173,-77.964943,4.13,36.0,2.0,0.8
155,724010,1745065639780,,,,,,,,,,,,,,,,,,,,,,,,,,,,,,,,,,0,0,0,0,0,0,0,0,0,0,0,0,0,0,0,0,,,,,,,,,,,
156,724030,1745065639802,0.0,172.2,,-0.04,-0.05,1.0,6.0,0.0,0.0,1.0,1.14,88.0,2061.0,0.0,3.46,,13.49,0.95,70.0,,31.7,5.0,,,,,,,,,,,,0,0,0,0,0,0,0,0,0,0,0,0,0,0,0,0,,,,,0.0,,,,,,
157,724050,1745065639822,,,,,,,,,,,,,,,,,,,,,,,,,,,,,,,,,,0,0,0,0,0,0,0,0,0,0,0,0,0,0,0,0,,,,,,,,,,,
158,724070,1745065639842,0.0,172.2,,-0.05,-0.04,0.99,6.0,0.0,0.0,0.99,1.14,87.0,1936.0,0.0,3.48,,13.47,0.96,70.0,,31.7,5.0,,,,,,,,,,,,0,0,0,0,0,0,0,0,0,0,0,0,0,0,0,0,,,,,0.0,,,,,,
159,724090,1745065639862,,,,,,,,,,,,,,,,,,,,,,,3.0,2.0,3.0,2.0,0.0,0.0,0.0,0.0,2.24,,,0,0,0,0,0,0,0,0,0,0,0,0,0,0,0,0,0.0,,,,,39.240173,-77.964943,4.15,36.0,2.0,0.8
160,724110,1745065639882,0.0,172.2,,-0.04,-0.07,0.99,6.0,0.0,0.0,0.99,1.14,87.0,1936.0,0.0,3.53,,13.52,0.992,70.0,,31.7,5.0,,,,,,,,,,,,0,0,0,0,0,0,0,0,0,0,0,0,0,0,0,0,,,,,0.0,,,,,,
161,724130,1745065639902,,,,,,,,,,,,,,,,,,,,,,,,,,,,,,,,,,0,0,0,0,0,0,0,0,0,0,0,0,0,0,0,0,,,,,,,,,,,
162,724150,1745065639920,0.0,172.32,,-0.04,-0.07,0.98,6.0,0.0,0.0,0.99,1.14,87.0,1992.0,0.0,3.52,,13.59,1.029,70.0,,30.4,5.0,,,,,,,,,,,,0,0,0,0,0,0,0,0,0,0,0,0,0,0,0,0,,,,,0.0,,,,,,
163,724170,1745065639940,,,,,,,,,,,,,,,,,,,,,,,,,,,,,,,,,,0,0,0,0,0,0,0,0,0,0,0,0,0,0,0,0,,,,,,,,,,,
164,724190,1745065639960,0.0,172.2,,-0.04,-0.04,0.97,6.0,0.0,0.0,0.97,1.14,85.0,2072.0,0.0,3.53,,13.49,1.048,70.0,,30.4,5.0,3.0,3.0,3.0,2.0,0.0,0.0,0.0,0.0,2.24,,,0,0,0,0,0,0,0,0,0,0,0,0,0,0,0,0,0.0,,,,0.0,39.240173,-77.964943,4.22,36.0,2.0,0.8
165,724210,1745065639980,,,,,,,,,,,,,,,,,,,,,,,,,,,,,,,,,,0,0,0,0,0,0,0,0,0,0,0,0,0,0,0,0,,,,,,,,,,,
166,724230,1745065640000,0.0,172.32,,-0.03,-0.07,0.97,6.0,0.0,0.0,0.98,1.14,86.0,2072.0,0.0,3.53,,13.49,1.048,70.0,,30.9,5.0,,,,,,,,,,,,0,0,0,0,0,0,0,0,0,0,0,0,0,0,0,0,,,,,0.0,,,,,,
167,724250,1745065640014,,,,,,,,,,,,,,,,,,,,,,,,,,,,,,,,,,0,0,0,0,0,0,0,0,0,0,0,0,0,0,0,0,,,,,,,,,,,
168,724270,1745065640034,0.0,172.2,,-0.03,-0.06,0.96,6.0,0.0,0.0,0.97,1.14,85.0,1987.0,0.0,3.52,,13.51,1.06,70.0,,30.9,5.0,,,,,,,,,,,,0,0,0,0,0,0,0,0,0,0,0,0,0,0,0,0,,,,,0.0,,,,,,
169,724290,1745065640054,,,,,,,,,,,,,,,,,,,,,,,3.0,3.0,3.0,2.0,0.0,0.0,0.0,0.0,2.25,,,0,0,0,0,0,0,0,0,0,0,0,0,0,0,0,0,0.0,,,,,39.240173,-77.964943,4.18,36.0,2.0,0.8
170,724310,1745065640074,0.0,172.32,,-0.03,-0.03,0.96,6.0,0.0,0.0,0.96,1.14,84.0,2007.0,0.0,3.52,,13.6,1.06,70.0,,31.2,5.0,,,,,,,,,,,,0,0,0,0,0,0,0,0,0,0,0,0,0,0,0,0,,,,,0.0,,,,,,
171,724330,1745065640094,,,,,,,,,,,,,,,,,,,,,,,,,,,,,,,,,,0,0,0,0,0,0,0,0,0,0,0,0,0,0,0,0,,,,,,,,,,,
172,724350,1745065640118,0.0,172.32,,-0.03,-0.05,0.96,6.0,0.0,0.0,0.97,1.14,85.0,1980.0,0.0,3.5,,13.51,1.048,70.0,,31.2,5.0,,,,,,,,,,,,0,0,0,0,0,0,0,0,0,0,0,0,0,0,0,0,,,,,0.0,,,,,,
173,724370,1745065640138,,,,,,,,,,,,,,,,,,,,,,,,,,,,,,,,,,0,0,0,0,0,0,0,0,0,0,0,0,0,0,0,0,,,,,,,,,,,
174,724390,1745065640158,0.0,172.2,12.82,-0.03,-0.06,0.97,6.0,0.0,0.0,0.97,1.14,85.0,1913.0,0.0,3.5,15.0,13.48,1.048,70.0,156.0,31.2,5.0,3.0,2.0,3.0,2.0,0.0,0.0,0.0,0.0,2.24,0.0,1.0,0,0,0,0,0,0,0,0,0,0,0,0,0,0,0,0,0.0,0.0,0.0,0.0,0.0,39.240173,-77.964943,4.26,36.0,2.0,0.8
175,724410,1745065640178,,,,,,,,,,,,,,,,,,,,,,,,,,,,,,,,,,0,0,0,0,0,0,0,0,0,0,0,0,0,0,0,0,,,,,,,,,,,
176,724430,1745065640198,0.0,172.2,,-0.03,-0.05,0.98,6.0,0.0,0.0,0.98,1.14,86.0,1905.0,0.0,3.54,,13.48,1.035,70.0,,29.7,5.0,,,,,,,,,,,,0,0,0,0,0,0,0,0,0,0,0,0,0,0,0,0,,,,,0.0,,,,,,
177,724450,1745065640220,,,,,,,,,,,,,,,,,,,,,,,,,,,,,,,,,,0,0,0,0,0,0,0,0,0,0,0,0,0,0,0,0,,,,,,,,,,,
178,724470,1745065640240,0.0,172.32,,-0.04,-0.03,0.96,6.0,0.0,0.0,0.96,1.14,84.0,1905.0,0.0,3.54,,13.52,1.038,70.0,,29.7,5.0,,,,,,,,,,,,0,0,0,0,0,0,0,0,0,0,0,0,0,0,0,0,,,,,0.0,,,,,,
179,724490,1745065640260,,,,,,,,,,,,,,,,,,,,,,,3.0,3.0,3.0,2.0,0.0,0.0,0.0,0.0,2.25,,,0,0,0,0,0,0,0,0,0,0,0,0,0,0,0,0,0.0,,,,,39.240173,-77.964935,4.21,36.0,2.0,0.8
180,724510,1745065640280,0.0,172.2,,-0.02,-0.04,0.98,6.0,0.0,0.0,0.98,1.14,86.0,1787.0,0.0,3.52,,13.59,1.065,70.0,,26.4,5.0,,,,,,,,,,,,0,0,0,0,0,0,0,0,0,0,0,0,0,0,0,0,,,,,0.0,,,,,,
181,724530,1745065640300,,,,,,,,,,,,,,,,,,,,,,,,,,,,,,,,,,0,0,0,0,0,0,0,0,0,0,0,0,0,0,0,0,,,,,,,,,,,
182,724550,1745065640320,0.0,172.2,,-0.02,-0.03,0.98,6.0,0.0,0.0,0.98,1.14,86.0,1795.0,0.0,3.56,,13.63,1.075,70.0,,26.4,5.0,,,,,,,,,,,,0,0,0,0,0,0,0,0,0,0,0,0,0,0,0,0,,,,,0.0,,,,,,
183,724570,1745065640340,,,,,,,,,,,,,,,,,,,,,,,,,,,,,,,,,,0,0,0,0,0,0,0,0,0,0,0,0,0,0,0,0,,,,,,,,,,,
184,724590,1745065640360,0.0,172.32,,-0.02,-0.04,0.98,6.0,-1.0,0.0,0.98,1.14,87.0,1842.0,0.0,3.54,,13.64,1.082,70.0,,26.4,5.0,3.0,2.0,3.0,2.0,0.0,0.0,0.0,0.0,2.24,,,0,0,0,0,0,0,0,0,0,0,0,0,0,0,0,0,0.0,,,,0.0,39.240173,-77.964935,4.08,36.0,2.0,0.8
185,724610,1745065640380,,,,,,,,,,,,,,,,,,,,,,,,,,,,,,,,,,0,0,0,0,0,0,0,0,0,0,0,0,0,0,0,0,,,,,,,,,,,
186,724630,1745065640401,0.0,172.32,,-0.02,-0.04,0.98,6.0,0.0,0.0,0.98,1.14,86.0,1889.0,0.0,3.53,,13.64,1.082,70.0,,28.7,5.0,,,,,,,,,,,,0,0,0,0,0,0,0,0,0,0,0,0,0,0,0,0,,,,,0.0,,,,,,
187,724650,1745065640421,,,,,,,,,,,,,,,,,,,,,,,,,,,,,,,,,,0,0,0,0,0,0,0,0,0,0,0,0,0,0,0,0,,,,,,,,,,,
188,724670,1745065640441,0.0,172.32,,-0.03,-0.05,0.98,7.0,0.0,0.0,0.98,1.14,86.0,1889.0,0.0,3.53,,13.63,1.076,70.0,,28.7,5.0,,,,,,,,,,,,0,0,0,0,0,0,0,0,0,0,0,0,0,0,0,0,,,,,0.0,,,,,,
189,724690,1745065640461,,,,,,,,,,,,,,,,,,,,,,,3.0,3.0,3.0,2.0,0.0,0.0,0.0,0.0,2.24,,,0,0,0,0,0,0,0,0,0,0,0,0,0,0,0,0,0.0,,,,,39.240173,-77.964935,4.27,36.0,2.0,0.8
190,724710,1745065640481,0.0,172.32,,-0.03,-0.05,1.0,7.0,0.0,0.0,1.0,1.14,88.0,1813.0,0.0,3.54,,13.65,1.065,70.0,,28.7,5.0,,,,,,,,,,,,0,0,0,0,0,0,0,0,0,0,0,0,0,0,0,0,,,,,0.0,,,,,,
191,724730,1745065640501,,,,,,,,,,,,,,,,,,,,,,,,,,,,,,,,,,0,0,0,0,0,0,0,0,0,0,0,0,0,0,0,0,,,,,,,,,,,
192,724750,1745065640521,0.0,172.2,,-0.04,-0.05,0.99,7.0,-1.0,0.0,0.99,1.14,88.0,1817.0,0.0,3.53,,13.69,1.039,70.0,,27.5,5.0,,,,,,,,,,,,0,0,0,0,0,0,0,0,0,0,0,0,0,0,0,0,,,,,0.0,,,,,,
193,724770,1745065640541,,,,,,,,,,,,,,,,,,,,,,,,,,,,,,,,,,0,0,0,0,0,0,0,0,0,0,0,0,0,0,0,0,,,,,,,,,,,
194,724790,1745065640561,0.0,172.32,,-0.05,-0.03,0.99,7.0,-1.0,0.0,1.0,1.14,88.0,2135.0,0.0,3.54,,13.51,1.015,70.0,,27.5,5.0,3.0,2.0,3.0,3.0,0.0,0.0,0.0,0.0,2.24,,,0,0,0,0,0,0,0,0,0,0,0,0,0,0,0,0,0.0,,,,0.0,39.240173,-77.964935,4.25,36.0,2.0,0.8
195,724810,1745065640581,,,,,,,,,,,,,,,,,,,,,,,,,,,,,,,,,,0,0,0,0,0,0,0,0,0,0,0,0,0,0,0,0,,,,,,,,,,,
196,724830,1745065640601,0.0,172.32,,-0.05,-0.04,0.98,7.0,-1.0,0.0,0.98,1.14,86.0,2121.0,0.0,3.5,,13.51,1.015,70.0,,31.4,5.0,,,,,,,,,,,,0,0,0,0,0,0,0,0,0,0,0,0,0,0,0,0,,,,,0.0,,,,,,
197,724850,1745065640621,,,,,,,,,,,,,,,,,,,,,,,,,,,,,,,,,,0,0,0,0,0,0,0,0,0,0,0,0,0,0,0,0,,,,,,,,,,,
198,724870,1745065640641,0.0,172.32,,-0.05,-0.04,1.0,7.0,0.0,0.0,1.0,1.14,88.0,2121.0,0.0,3.5,,13.53,1.084,70.0,,31.4,5.0,,,,,,,,,,,,0,0,0,0,0,0,0,0,0,0,0,0,0,0,0,0,,,,,0.0,,,,,,
199,724890,1745065640661,,,,,,,,,,,,,,,,,,,,,,,3.0,3.0,3.0,3.0,0.0,0.0,0.0,0.0,2.24,,,0,0,0,0,0,0,0,0,0,0,0,0,0,0,0,0,0.0,,,,,39.240173,-77.964928,4.39,36.0,2.0,0.8
200,724910,1745065640681,0.0,172.32,,-0.04,-0.05,0.99,7.0,-1.0,0.0,0.99,1.14,87.0,2128.0,0.0,3.46,,13.43,1.085,70.0,,31.4,5.0,,,,,,,,,,,,0,0,0,0,0,0,0,0,0,0,0,0,0,0,0,0,,,,,0.0,,,,,,
201,724930,1745065640701,,,,,,,,,,,,,,,,,,,,,,,,,,,,,,,,,,0,0,0,0,0,0,0,0,0,0,0,0,0,0,0,0,,,,,,,,,,,
202,724950,1745065640721,0.0,172.32,,-0.05,-0.03,0.98,7.0,0.0,0.0,0.99,1.14,87.0,1937.0,0.0,3.48,,13.52,1.03,70.0,,31.4,5.0,,,,,,,,,,,,0,0,0,0,0,0,0,0,0,0,0,0,0,0,0,0,,,,,0.0,,,,,,
203,724970,1745065640741,,,,,,,,,,,,,,,,,,,,,,,,,,,,,,,,,,0,0,0,0,0,0,0,0,0,0,0,0,0,0,0,0,,,,,,,,,,,
204,724990,1745065640761,0.0,172.32,,-0.05,-0.04,1.01,7.0,0.0,0.0,1.01,1.14,89.0,1995.0,0.0,3.51,,13.61,0.975,70.0,,31.4,5.0,3.0,3.0,3.0,3.0,0.0,0.0,0.0,0.0,2.25,,,0,0,0,0,0,0,0,0,0,0,0,0,0,0,0,0,0.0,,,,0.0,39.240173,-77.964928,4.49,36.0,2.0,0.8
205,725010,1745065640781,,,,,,,,,,,,,,,,,,,,,,,,,,,,,,,,,,0,0,0,0,0,0,0,0,0,0,0,0,0,0,0,0,,,,,,,,,,,
206,725030,1745065640801,0.0,172.32,,-0.05,-0.03,1.01,7.0,0.0,0.0,1.01,1.14,89.0,1983.0,0.0,3.52,,13.61,0.975,70.0,,30.7,5.0,,,,,,,,,,,,0,0,0,0,0,0,0,0,0,0,0,0,0,0,0,0,,,,,0.0,,,,,,
207,725050,1745065640821,,,,,,,,,,,,,,,,,,,,,,,,,,,,,,,,,,0,0,0,0,0,0,0,0,0,0,0,0,0,0,0,0,,,,,,,,,,,
208,725070,1745065640841,0.0,172.32,,-0.05,-0.01,1.0,7.0,0.0,0.0,1.0,1.14,88.0,1983.0,0.0,3.52,,13.59,0.969,70.0,,30.7,5.0,,,,,,,,,,,,0,0,0,0,0,0,0,0,0,0,0,0,0,0,0,0,,,,,0.0,,,,,,
209,725090,1745065640861,,,,,,,,,,,,,,,,,,,,,,,3.0,3.0,3.0,3.0,0.0,0.0,0.0,0.0,2.24,,,0,0,0,0,0,0,0,0,0,0,0,0,0,0,0,0,0.0,,,,,39.24017,-77.964928,4.4,36.0,2.0,0.8
210,725110,1745065640881,0.0,172.32,,-0.07,0.02,0.99,7.0,-1.0,0.0,0.99,1.14,87.0,0.0,0.0,3.49,,13.45,0.979,70.0,,34.3,5.0,,,,,,,,,,,,0,0,0,0,0,0,0,0,0,0,0,0,0,0,0,0,,,,,0.0,,,,,,
211,725130,1745065640901,,,,,,,,,,,,,,,,,,,,,,,,,,,,,,,,,,0,0,0,0,0,0,0,0,0,0,0,0,0,0,0,0,,,,,,,,,,,
212,725150,1745065640921,0.0,172.45,,-0.07,0.01,1.0,7.0,-1.0,0.0,1.0,1.14,88.0,2224.0,0.0,3.35,,13.36,1.048,70.0,,34.3,5.0,,,,,,,,,,,,0,0,0,0,0,0,0,0,0,0,0,0,0,0,0,0,,,,,0.0,,,,,,
213,725170,1745065640941,,,,,,,,,,,,,,,,,,,,,,,,,,,,,,,,,,0,0,0,0,0,0,0,0,0,0,0,0,0,0,0,0,,,,,,,,,,,
214,725190,1745065640961,0.0,172.45,,-0.05,-0.0,1.0,7.0,-1.0,0.0,1.0,1.14,88.0,2373.0,0.0,3.32,,13.27,1.082,70.0,,34.3,5.0,3.0,3.0,3.0,3.0,0.0,0.0,0.0,0.0,2.24,,,0,0,0,0,0,0,0,0,0,0,0,0,0,0,0,0,0.0,,,,0.0,39.24017,-77.964928,4.35,36.0,2.0,0.8
215,725210,1745065640981,,,,,,,,,,,,,,,,,,,,,,,,,,,,,,,,,,0,0,0,0,0,0,0,0,0,0,0,0,0,0,0,0,,,,,,,,,,,
216,725230,1745065641001,0.0,172.45,,-0.05,-0.0,1.0,7.0,-1.0,0.0,1.0,1.14,88.0,2314.0,0.0,3.36,,13.27,1.082,70.0,,36.7,5.0,,,,,,,,,,,,0,0,0,0,0,0,0,0,0,0,0,0,0,0,0,0,,,,,0.0,,,,,,
217,725250,1745065641013,,,,,,,,,,,,,,,,,,,,,,,,,,,,,,,,,,0,0,0,0,0,0,0,0,0,0,0,0,0,0,0,0,,,,,,,,,,,
218,725270,1745065641033,0.0,172.45,,-0.05,0.02,0.99,7.0,-1.0,0.0,0.99,1.14,87.0,2314.0,0.0,3.36,,13.27,1.014,70.0,,36.7,5.0,,,,,,,,,,,,0,0,0,0,0,0,0,0,0,0,0,0,0,0,0,0,,,,,0.0,,,,,,
219,725290,1745065641053,,,,,,,,,,,,,,,,,,,,,,,3.0,2.0,3.0,3.0,0.0,0.0,0.0,0.0,2.24,,,0,0,0,0,0,0,0,0,0,0,0,0,0,0,0,0,0.0,,,,,39.24017,-77.964928,4.5,36.0,2.0,0.8
220,725310,1745065641073,0.0,172.45,,-0.06,0.02,0.99,7.0,-1.0,0.0,1.0,1.14,88.0,2281.0,0.0,3.36,,13.25,0.962,70.0,,36.5,5.0,,,,,,,,,,,,0,0,0,0,0,0,0,0,0,0,0,0,0,0,0,0,,,,,0.0,,,,,,
221,725330,1745065641093,,,,,,,,,,,,,,,,,,,,,,,,,,,,,,,,,,0,0,0,0,0,0,0,0,0,0,0,0,0,0,0,0,,,,,,,,,,,
222,725350,1745065641119,0.0,172.45,,-0.07,0.02,1.0,7.0,-1.0,0.0,1.0,1.14,88.0,2281.0,0.0,3.35,,13.28,0.964,70.0,,36.5,5.0,,,,,,,,,,,,0,0,0,0,0,0,0,0,0,0,0,0,0,0,0,0,,,,,0.0,,,,,,
223,725370,1745065641139,,,,,,,,,,,,,,,,,,,,,,,,,,,,,,,,,,0,0,0,0,0,0,0,0,0,0,0,0,0,0,0,0,,,,,,,,,,,
224,725390,1745065641159,0.0,172.45,12.88,-0.06,0.0,1.0,7.0,-1.0,0.0,1.0,1.14,88.0,2284.0,0.0,3.36,15.0,13.31,0.986,70.0,156.0,36.5,5.0,3.0,3.0,3.0,3.0,0.0,0.0,0.0,0.0,2.24,0.0,1.0,0,0,0,0,0,0,0,0,0,0,0,0,0,0,0,0,0.0,0.0,0.0,0.0,0.0,39.24017,-77.96492,4.52,36.0,2.0,0.8
225,725410,1745065641179,,,,,,,,,,,,,,,,,,,,,,,,,,,,,,,,,,0,0,0,0,0,0,0,0,0,0,0,0,0,0,0,0,,,,,,,,,,,
226,725430,1745065641199,0.0,172.45,,-0.05,-0.02,1.0,7.0,-1.0,0.0,1.0,1.14,88.0,2247.0,0.0,3.37,,13.31,0.986,70.0,,36.1,5.0,,,,,,,,,,,,0,0,0,0,0,0,0,0,0,0,0,0,0,0,0,0,,,,,0.0,,,,,,
227,725450,1745065641219,,,,,,,,,,,,,,,,,,,,,,,,,,,,,,,,,,0,0,0,0,0,0,0,0,0,0,0,0,0,0,0,0,,,,,,,,,,,
228,725470,1745065641239,0.0,172.45,,-0.05,-0.02,1.0,7.0,-1.0,0.0,1.0,1.14,88.0,2247.0,0.0,3.37,,13.33,1.001,70.0,,36.1,5.0,,,,,,,,,,,,0,0,0,0,0,0,0,0,0,0,0,0,0,0,0,0,,,,,0.0,,,,,,
229,725490,1745065641259,,,,,,,,,,,,,,,,,,,,,,,3.0,2.0,3.0,3.0,0.0,0.0,0.0,0.0,2.24,,,0,0,0,0,0,0,0,0,0,0,0,0,0,0,0,0,0.0,,,,,39.24017,-77.96492,4.48,36.0,2.0,0.8
230,725510,1745065641279,0.0,172.32,,-0.04,-0.04,1.01,7.0,-1.0,0.0,1.01,1.14,89.0,2212.0,0.0,3.38,,13.31,1.019,70.0,,34.6,5.0,,,,,,,,,,,,0,0,0,0,0,0,0,0,0,0,0,0,0,0,0,0,,,,,0.0,,,,,,
231,725530,1745065641299,,,,,,,,,,,,,,,,,,,,,,,,,,,,,,,,,,0,0,0,0,0,0,0,0,0,0,0,0,0,0,0,0,,,,,,,,,,,
232,725550,1745065641319,0.0,172.32,,-0.03,-0.04,1.02,7.0,-1.0,0.0,1.02,1.14,89.0,2202.0,0.0,3.42,,13.37,1.028,70.0,,34.6,5.0,,,,,,,,,,,,0,0,0,0,0,0,0,0,0,0,0,0,0,0,0,0,,,,,0.0,,,,,,
233,725570,1745065641339,,,,,,,,,,,,,,,,,,,,,,,,,,,,,,,,,,0,0,0,0,0,0,0,0,0,0,0,0,0,0,0,0,,,,,,,,,,,
234,725590,1745065641359,0.0,172.32,,-0.03,-0.05,1.0,7.0,-1.0,0.0,1.0,1.14,88.0,2145.0,0.0,3.44,,13.39,1.036,70.0,,34.6,5.0,3.0,3.0,3.0,3.0,0.0,0.0,0.0,0.0,2.24,,,0,0,0,0,0,0,0,0,0,0,0,0,0,0,0,0,0.0,,,,0.0,39.24017,-77.96492,4.59,36.0,2.0,0.8
235,725610,1745065641379,,,,,,,,,,,,,,,,,,,,,,,,,,,,,,,,,,0,0,0,0,0,0,0,0,0,0,0,0,0,0,0,0,,,,,,,,,,,
236,725630,1745065641399,0.0,172.32,,-0.04,-0.06,1.0,7.0,-1.0,0.0,1.0,1.14,88.0,2069.0,0.0,3.47,,13.39,1.036,70.0,,32.7,5.0,,,,,,,,,,,,0,0,0,0,0,0,0,0,0,0,0,0,0,0,0,0,,,,,0.0,,,,,,
237,725650,1745065641420,,,,,,,,,,,,,,,,,,,,,,,,,,,,,,,,,,0,0,0,0,0,0,0,0,0,0,0,0,0,0,0,0,,,,,,,,,,,
238,725670,1745065641440,0.0,172.32,,-0.04,-0.05,0.99,7.0,-1.0,0.0,0.99,1.14,87.0,2069.0,0.0,3.47,,13.44,1.045,70.0,,32.7,5.0,,,,,,,,,,,,0,0,0,0,0,0,0,0,0,0,0,0,0,0,0,0,,,,,0.0,,,,,,
239,725690,1745065641460,,,,,,,,,,,,,,,,,,,,,,,3.0,3.0,3.0,3.0,0.0,0.0,0.0,0.0,2.24,,,0,0,0,0,0,0,0,0,0,0,0,0,0,0,0,0,0.0,,,,,39.24017,-77.96492,4.75,36.0,2.0,0.8
240,725710,1745065641480,0.0,172.2,,-0.04,-0.04,0.99,7.0,-1.0,0.0,0.99,1.14,87.0,2116.0,0.0,3.5,,13.45,1.05,70.0,,35.0,5.0,,,,,,,,,,,,0,0,0,0,0,0,0,0,0,0,0,0,0,0,0,0,,,,,0.0,,,,,,
241,725730,1745065641500,,,,,,,,,,,,,,,,,,,,,,,,,,,,,,,,,,0,0,0,0,0,0,0,0,0,0,0,0,0,0,0,0,,,,,,,,,,,
242,725750,1745065641520,0.0,172.32,,-0.05,-0.01,0.99,7.0,-1.0,0.0,0.99,1.14,87.0,2303.0,0.0,3.36,,13.35,1.051,70.0,,35.0,5.0,,,,,,,,,,,,0,0,0,0,0,0,0,0,0,0,0,0,0,0,0,0,,,,,0.0,,,,,,
243,725770,1745065641540,,,,,,,,,,,,,,,,,,,,,,,,,,,,,,,,,,0,0,0,0,0,0,0,0,0,0,0,0,0,0,0,0,,,,,,,,,,,
244,725790,1745065641560,0.0,172.32,,-0.04,-0.03,1.01,7.0,-1.0,0.0,1.01,1.14,89.0,2689.0,0.0,3.32,,13.25,1.09,70.0,,35.0,5.0,3.0,3.0,3.0,3.0,0.0,0.0,0.0,0.0,2.24,,,0,0,0,0,0,0,0,0,0,0,0,0,0,0,0,0,0.0,,,,0.0,39.24017,-77.964912,4.76,36.0,2.0,0.8
245,725810,1745065641580,,,,,,,,,,,,,,,,,,,,,,,,,,,,,,,,,,0,0,0,0,0,0,0,0,0,0,0,0,0,0,0,0,,,,,,,,,,,
246,725830,1745065641602,0.0,172.32,,-0.05,-0.01,0.99,7.0,-1.0,0.0,0.99,1.14,88.0,2678.0,0.0,4.89,,13.25,1.09,70.0,,38.5,5.0,,,,,,,,,,,,0,0,0,0,0,0,0,0,0,0,0,0,0,0,0,0,,,,,0.0,,,,,,
247,725850,1745065641622,,,,,,,,,,,,,,,,,,,,,,,,,,,,,,,,,,0,0,0,0,0,0,0,0,0,0,0,0,0,0,0,0,,,,,,,,,,,
248,725870,1745065641642,0.0,172.45,,-0.06,-0.04,1.02,7.0,-1.0,0.0,1.02,1.14,90.0,2678.0,0.0,4.89,,13.11,1.044,70.0,,38.5,5.0,,,,,,,,,,,,0,0,0,0,0,0,0,0,0,0,0,0,0,0,0,0,,,,,0.0,,,,,,
249,725890,1745065641662,,,,,,,,,,,,,,,,,,,,,,,3.0,3.0,3.0,3.0,0.0,0.0,0.0,0.0,2.24,,,0,0,0,0,0,0,0,0,0,0,0,0,0,0,0,0,0.0,,,,,39.24017,-77.964912,4.63,36.0,2.0,0.8
250,725910,1745065641682,0.0,172.45,,-0.06,-0.01,0.99,7.0,-1.0,0.0,0.99,1.14,87.0,2597.0,0.0,3.21,,12.96,0.985,70.0,,41.4,5.0,,,,,,,,,,,,0,0,0,0,0,0,0,0,0,0,0,0,0,0,0,0,,,,,0.0,,,,,,
251,725930,1745065641702,,,,,,,,,,,,,,,,,,,,,,,,,,,,,,,,,,0,0,0,0,0,0,0,0,0,0,0,0,0,0,0,0,,,,,,,,,,,
252,725950,1745065641720,0.0,172.45,,-0.06,-0.01,1.01,7.0,-1.0,0.0,1.01,1.14,89.0,2665.0,0.0,3.23,,12.93,0.958,70.0,,41.4,5.0,,,,,,,,,,,,0,0,0,0,0,0,0,0,0,0,0,0,0,0,0,0,,,,,0.0,,,,,,
253,725970,1745065641740,,,,,,,,,,,,,,,,,,,,,,,,,,,,,,,,,,0,0,0,0,0,0,0,0,0,0,0,0,0,0,0,0,,,,,,,,,,,
254,725990,1745065641760,0.0,172.45,,-0.06,-0.0,1.01,7.0,-1.0,0.0,1.01,1.14,89.0,2693.0,0.0,3.19,,12.91,0.97,70.0,,41.4,5.0,3.0,3.0,3.0,3.0,0.0,0.0,0.0,0.0,2.25,,,0,0,0,0,0,0,0,0,0,0,0,0,0,0,0,0,0.0,,,,0.0,39.24017,-77.964912,4.86,36.0,2.0,0.8
255,726010,1745065641780,,,,,,,,,,,,,,,,,,,,,,,,,,,,,,,,,,0,0,0,0,0,0,0,0,0,0,0,0,0,0,0,0,,,,,,,,,,,
256,726030,1745065641802,0.0,172.45,,-0.07,-0.0,1.0,7.0,-1.0,0.0,1.01,1.14,88.0,2693.0,0.0,3.19,,12.91,0.97,70.0,,42.1,5.0,,,,,,,,,,,,0,0,0,0,0,0,0,0,0,0,0,0,0,0,0,0,,,,,0.0,,,,,,
257,726050,1745065641822,,,,,,,,,,,,,,,,,,,,,,,,,,,,,,,,,,0,0,0,0,0,0,0,0,0,0,0,0,0,0,0,0,,,,,,,,,,,
258,726070,1745065641842,0.0,172.45,,-0.07,-0.01,1.0,7.0,-1.0,0.0,1.01,1.14,89.0,2633.0,0.0,3.17,,12.85,0.992,70.0,,42.1,5.0,,,,,,,,,,,,0,0,0,0,0,0,0,0,0,0,0,0,0,0,0,0,,,,,0.0,,,,,,
259,726090,1745065641862,,,,,,,,,,,,,,,,,,,,,,,3.0,3.0,3.0,3.0,0.0,0.0,0.0,0.0,2.25,,,0,0,0,0,0,0,0,0,0,0,0,0,0,0,0,0,0.0,,,,,39.24017,-77.964912,4.84,36.0,2.0,0.8
260,726110,1745065641882,0.0,172.45,,-0.06,-0.01,1.01,7.0,-1.0,0.0,1.01,1.14,89.0,2580.0,0.0,3.2,,12.89,1.026,70.0,,41.7,5.0,,,,,,,,,,,,0,0,0,0,0,0,0,0,0,0,0,0,0,0,0,0,,,,,0.0,,,,,,
261,726130,1745065641902,,,,,,,,,,,,,,,,,,,,,,,,,,,,,,,,,,0,0,0,0,0,0,0,0,0,0,0,0,0,0,0,0,,,,,,,,,,,
262,726150,1745065641922,0.0,172.45,,-0.07,-0.02,1.0,7.0,-1.0,0.0,1.01,1.14,89.0,2586.0,0.0,3.19,,12.87,1.057,70.0,,41.7,5.0,,,,,,,,,,,,0,0,0,0,0,0,0,0,0,0,0,0,0,0,0,0,,,,,0.0,,,,,,
263,726170,1745065641942,,,,,,,,,,,,,,,,,,,,,,,,,,,,,,,,,,0,0,0,0,0,0,0,0,0,0,0,0,0,0,0,0,,,,,,,,,,,
264,726190,1745065641962,0.0,172.45,,-0.07,-0.01,1.03,7.0,-1.0,0.0,1.03,1.14,91.0,2483.0,0.0,3.22,,12.96,1.089,70.0,,41.7,5.0,3.0,3.0,3.0,3.0,0.0,0.0,0.0,0.0,2.24,,,0,0,0,0,0,0,0,0,0,0,0,0,0,0,0,0,0.0,,,,0.0,39.24017,-77.964912,4.81,36.0,2.0,0.8
265,726210,1745065641982,,,,,,,,,,,,,,,,,,,,,,,,,,,,,,,,,,0,0,0,0,0,0,0,0,0,0,0,0,0,0,0,0,,,,,,,,,,,
266,726230,1745065642002,0.0,172.45,,-0.07,0.0,1.01,7.0,-1.0,0.0,1.02,1.14,89.0,2503.0,0.0,3.25,,12.96,1.089,70.0,,40.2,5.0,,,,,,,,,,,,0,0,0,0,0,0,0,0,0,0,0,0,0,0,0,0,,,,,0.0,,,,,,
267,726250,1745065642012,,,,,,,,,,,,,,,,,,,,,,,,,,,,,,,,,,0,0,0,0,0,0,0,0,0,0,0,0,0,0,0,0,,,,,,,,,,,
268,726270,1745065642032,0.0,172.45,,-0.07,-0.01,1.02,7.0,-1.0,1.0,1.02,1.14,90.0,2503.0,0.0,3.25,,12.97,1.105,70.0,,40.2,5.0,,,,,,,,,,,,0,0,0,0,0,0,0,0,0,0,0,0,0,0,0,0,,,,,0.0,,,,,,
269,726290,1745065642052,,,,,,,,,,,,,,,,,,,,,,,3.0,3.0,3.0,3.0,0.0,0.0,0.0,0.0,2.24,,,0,0,0,0,0,0,0,0,0,0,0,0,0,0,0,0,0.0,,,,,39.24017,-77.964912,4.79,36.0,2.0,0.8
270,726310,1745065642072,0.0,172.45,,-0.07,0.0,1.0,7.0,-1.0,0.0,1.0,1.14,88.0,2669.0,0.0,3.28,,12.97,1.114,70.0,,42.1,5.0,,,,,,,,,,,,0,0,0,0,0,0,0,0,0,0,0,0,0,0,0,0,,,,,0.0,,,,,,
271,726330,1745065642092,,,,,,,,,,,,,,,,,,,,,,,,,,,,,,,,,,0,0,0,0,0,0,0,0,0,0,0,0,0,0,0,0,,,,,,,,,,,
272,726350,1745065642118,0.0,172.32,,-0.07,-0.03,1.02,7.0,-1.0,0.0,1.02,1.14,90.0,2737.0,0.0,3.16,,12.81,1.139,70.0,,42.1,5.0,,,,,,,,,,,,0,0,0,0,0,0,0,0,0,0,0,0,0,0,0,0,,,,,0.0,,,,,,
273,726370,1745065642138,,,,,,,,,,,,,,,,,,,,,,,,,,,,,,,,,,0,0,0,0,0,0,0,0,0,0,0,0,0,0,0,0,,,,,,,,,,,
274,726390,1745065642158,0.0,172.45,12.94,-0.07,-0.02,0.98,7.0,-1.0,0.0,0.98,1.14,87.0,2658.0,0.0,3.2,15.0,12.85,1.083,70.0,156.0,42.1,5.0,3.0,3.0,3.0,3.0,0.0,0.0,0.0,0.0,2.25,0.0,1.0,0,0,0,0,0,0,0,0,0,0,0,0,0,0,0,0,0.0,0.0,0.0,0.0,0.0,39.24017,-77.964912,4.91,36.0,2.0,0.8
275,726410,1745065642178,,,,,,,,,,,,,,,,,,,,,,,,,,,,,,,,,,0,0,0,0,0,0,0,0,0,0,0,0,0,0,0,0,,,,,,,,,,,
276,726430,1745065642198,0.0,172.45,,-0.08,-0.0,0.98,7.0,-1.0,0.0,0.98,1.14,87.0,2780.0,0.0,3.14,,12.85,1.083,70.0,,43.8,5.0,,,,,,,,,,,,0,0,0,0,0,0,0,0,0,0,0,0,0,0,0,0,,,,,0.0,,,,,,
277,726450,1745065642218,,,,,,,,,,,,,,,,,,,,,,,,,,,,,,,,,,0,0,0,0,0,0,0,0,0,0,0,0,0,0,0,0,,,,,,,,,,,
278,726470,1745065642238,0.0,172.45,,-0.09,0.01,1.0,7.0,-1.0,0.0,1.0,1.14,88.0,2780.0,0.0,3.14,,12.77,1.018,70.0,,43.8,5.0,,,,,,,,,,,,0,0,0,0,0,0,0,0,0,0,0,0,0,0,0,0,,,,,0.0,,,,,,
279,726490,1745065642258,,,,,,,,,,,,,,,,,,,,,,,3.0,3.0,3.0,3.0,0.0,0.0,0.0,0.0,2.24,,,0,0,0,0,0,0,0,0,0,0,0,0,0,0,0,0,0.0,,,,,39.24017,-77.964912,4.53,36.0,2.0,0.8
280,726510,1745065642278,0.0,172.45,,-0.09,0.03,0.99,7.0,-1.0,0.0,0.99,1.14,87.0,2655.0,0.0,3.17,,12.83,1.002,70.0,,43.8,5.0,,,,,,,,,,,,0,0,0,0,0,0,0,0,0,0,0,0,0,0,0,0,,,,,0.0,,,,,,
281,726530,1745065642301,,,,,,,,,,,,,,,,,,,,,,,,,,,,,,,,,,0,0,0,0,0,0,0,0,0,0,0,0,0,0,0,0,,,,,,,,,,,
282,726550,1745065642321,0.0,172.45,,-0.08,0.02,0.98,7.0,-1.0,0.0,0.99,1.14,87.0,2646.0,0.0,3.21,,12.76,1.005,70.0,,42.3,5.0,,,,,,,,,,,,0,0,0,0,0,0,0,0,0,0,0,0,0,0,0,0,,,,,0.0,,,,,,
283,726570,1745065642341,,,,,,,,,,,,,,,,,,,,,,,,,,,,,,,,,,0,0,0,0,0,0,0,0,0,0,0,0,0,0,0,0,,,,,,,,,,,
284,726590,1745065642361,0.0,172.45,,-0.09,0.02,1.0,7.0,-1.0,1.0,1.0,1.14,88.0,2484.0,0.0,3.24,,12.88,1.01,70.0,,42.3,5.0,3.0,3.0,3.0,3.0,0.0,0.0,0.0,0.0,2.25,,,0,0,0,0,0,0,0,0,0,0,0,0,0,0,0,0,0.0,,,,0.0,39.24017,-77.964905,4.61,36.0,2.0,0.8
285,726610,1745065642381,,,,,,,,,,,,,,,,,,,,,,,,,,,,,,,,,,0,0,0,0,0,0,0,0,0,0,0,0,0,0,0,0,,,,,,,,,,,
286,726630,1745065642401,0.0,172.45,,-0.07,-0.01,0.99,7.0,-1.0,0.0,1.0,1.14,88.0,2392.0,0.0,3.33,,12.88,1.01,70.0,,38.1,5.0,,,,,,,,,,,,0,0,0,0,0,0,0,0,0,0,0,0,0,0,0,0,,,,,0.0,,,,,,
287,726650,1745065642419,,,,,,,,,,,,,,,,,,,,,,,,,,,,,,,,,,0,0,0,0,0,0,0,0,0,0,0,0,0,0,0,0,,,,,,,,,,,
288,726670,1745065642439,0.0,172.45,,-0.06,-0.01,0.98,7.0,-1.0,1.0,0.99,1.14,87.0,2392.0,0.0,3.33,,12.99,1.007,70.0,,38.1,5.0,,,,,,,,,,,,0,0,0,0,0,0,0,0,0,0,0,0,0,0,0,0,,,,,0.0,,,,,,
289,726690,1745065642459,,,,,,,,,,,,,,,,,,,,,,,3.0,3.0,3.0,3.0,0.0,0.0,0.0,0.0,2.25,,,0,0,0,0,0,0,0,0,0,0,0,0,0,0,0,0,0.0,,,,,39.24017,-77.964905,4.69,36.0,2.0,0.8
290,726710,1745065642479,0.0,172.45,,-0.06,-0.02,0.98,7.0,-1.0,0.0,0.98,1.14,87.0,2249.0,0.0,3.37,,13.15,1.018,70.0,,36.8,5.0,,,,,,,,,,,,0,0,0,0,0,0,0,0,0,0,0,0,0,0,0,0,,,,,0.0,,,,,,
291,726730,1745065642501,,,,,,,,,,,,,,,,,,,,,,,,,,,,,,,,,,0,0,0,0,0,0,0,0,0,0,0,0,0,0,0,0,,,,,,,,,,,
292,726750,1745065642521,0.0,172.32,,-0.07,-0.02,0.97,7.0,-1.0,0.0,0.98,1.14,86.0,2388.0,0.0,3.37,,13.19,1.065,70.0,,36.8,5.0,,,,,,,,,,,,0,0,0,0,0,0,0,0,0,0,0,0,0,0,0,0,,,,,0.0,,,,,,
293,726770,1745065642541,,,,,,,,,,,,,,,,,,,,,,,,,,,,,,,,,,0,0,0,0,0,0,0,0,0,0,0,0,0,0,0,0,,,,,,,,,,,
294,726790,1745065642561,0.0,172.32,,-0.07,-0.01,0.98,7.0,-1.0,0.0,0.98,1.14,86.0,2358.0,0.0,3.35,,13.19,1.065,70.0,,36.8,5.0,3.0,3.0,3.0,3.0,0.0,0.0,0.0,0.0,2.24,,,0,0,0,0,0,0,0,0,0,0,0,0,0,0,0,0,0.0,,,,0.0,39.24017,-77.964905,4.57,36.0,2.0,0.8
295,726810,1745065642581,,,,,,,,,,,,,,,,,,,,,,,,,,,,,,,,,,0,0,0,0,0,0,0,0,0,0,0,0,0,0,0,0,,,,,,,,,,,
296,726830,1745065642601,0.0,172.32,,-0.07,-0.02,1.0,7.0,-1.0,0.0,1.0,1.14,88.0,2317.0,0.0,3.35,,13.2,1.122,70.0,,36.2,5.0,,,,,,,,,,,,0,0,0,0,0,0,0,0,0,0,0,0,0,0,0,0,,,,,0.0,,,,,,
297,726850,1745065642619,,,,,,,,,,,,,,,,,,,,,,,,,,,,,,,,,,0,0,0,0,0,0,0,0,0,0,0,0,0,0,0,0,,,,,,,,,,,
298,726870,1745065642639,0.0,172.32,,-0.06,-0.04,1.0,7.0,-1.0,0.0,1.0,1.14,88.0,2317.0,0.0,3.35,,13.2,1.109,70.0,,36.2,5.0,,,,,,,,,,,,0,0,0,0,0,0,0,0,0,0,0,0,0,0,0,0,,,,,0.0,,,,,,
299,726890,1745065642659,,,,,,,,,,,,,,,,,,,,,,,3.0,3.0,3.0,3.0,0.0,0.0,0.0,0.0,2.25,,,0,0,0,0,0,0,0,0,0,0,0,0,0,0,0,0,0.0,,,,,39.24017,-77.964905,4.62,36.0,2.0,0.8
300,726910,1745065642679,0.0,172.32,,-0.06,-0.04,1.01,7.0,-1.0,0.0,1.01,1.14,89.0,2283.0,0.0,3.4,,13.21,1.067,70.0,,34.5,5.0,,,,,,,,,,,,0,0,0,0,0,0,0,0,0,0,0,0,0,0,0,0,,,,,0.0,,,,,,
301,726930,1745065642701,,,,,,,,,,,,,,,,,,,,,,,,,,,,,,,,,,0,0,0,0,0,0,0,0,0,0,0,0,0,0,0,0,,,,,,,,,,,
302,726950,1745065642721,0.0,172.32,,-0.06,-0.04,1.01,6.0,-1.0,0.0,1.01,1.14,89.0,2192.0,0.0,3.42,,13.32,1.045,70.0,,34.5,5.0,,,,,,,,,,,,0,0,0,0,0,0,0,0,0,0,0,0,0,0,0,0,,,,,0.0,,,,,,
303,726970,1745065642741,,,,,,,,,,,,,,,,,,,,,,,,,,,,,,,,,,0,0,0,0,0,0,0,0,0,0,0,0,0,0,0,0,,,,,,,,,,,
304,726990,1745065642761,0.0,172.2,,-0.07,-0.03,1.01,6.0,-1.0,0.0,1.01,1.14,89.0,2156.0,0.0,3.45,,13.35,1.045,70.0,,34.5,5.0,3.0,3.0,3.0,3.0,0.0,0.0,0.0,0.0,2.24,,,0,0,0,0,0,0,0,0,0,0,0,0,0,0,0,0,0.0,,,,0.0,39.24017,-77.964905,4.79,36.0,2.0,0.8
305,727010,1745065642781,,,,,,,,,,,,,,,,,,,,,,,,,,,,,,,,,,0,0,0,0,0,0,0,0,0,0,0,0,0,0,0,0,,,,,,,,,,,
306,727030,1745065642801,0.0,172.2,,-0.07,-0.05,1.02,6.0,-1.0,0.0,1.03,1.14,90.0,2085.0,0.0,3.44,,13.35,1.045,70.0,,32.7,5.0,,,,,,,,,,,,0,0,0,0,0,0,0,0,0,0,0,0,0,0,0,0,,,,,0.0,,,,,,
307,727050,1745065642819,,,,,,,,,,,,,,,,,,,,,,,,,,,,,,,,,,0,0,0,0,0,0,0,0,0,0,0,0,0,0,0,0,,,,,,,,,,,
308,727070,1745065642839,0.0,172.2,,-0.09,-0.03,1.02,6.0,-1.0,0.0,1.03,1.14,90.0,2085.0,0.0,3.44,,13.44,1.053,70.0,,32.7,5.0,,,,,,,,,,,,0,0,0,0,0,0,0,0,0,0,0,0,0,0,0,0,,,,,0.0,,,,,,
309,727090,1745065642859,,,,,,,,,,,,,,,,,,,,,,,3.0,3.0,3.0,3.0,0.0,0.0,0.0,0.0,2.25,,,0,0,0,0,0,0,0,0,0,0,0,0,0,0,0,0,0.0,,,,,39.24017,-77.964897,4.45,36.0,2.0,0.8
310,727110,1745065642879,0.0,172.2,,-0.08,-0.03,1.04,6.0,-1.0,0.0,1.04,1.14,92.0,2021.0,0.0,3.48,,13.43,1.059,70.0,,31.8,5.0,,,,,,,,,,,,0,0,0,0,0,0,0,0,0,0,0,0,0,0,0,0,,,,,0.0,,,,,,
311,727130,1745065642901,,,,,,,,,,,,,,,,,,,,,,,,,,,,,,,,,,0,0,0,0,0,0,0,0,0,0,0,0,0,0,0,0,,,,,,,,,,,
312,727150,1745065642921,0.0,172.2,,-0.08,-0.05,1.04,6.0,-1.0,0.0,1.04,1.14,92.0,2022.0,0.0,3.49,,13.52,1.058,70.0,,31.8,5.0,,,,,,,,,,,,0,0,0,0,0,0,0,0,0,0,0,0,0,0,0,0,,,,,0.0,,,,,,
313,727170,1745065642941,,,,,,,,,,,,,,,,,,,,,,,,,,,,,,,,,,0,0,0,0,0,0,0,0,0,0,0,0,0,0,0,0,,,,,,,,,,,
314,727190,1745065642961,0.0,172.2,,-0.09,-0.03,1.04,6.0,-1.0,0.0,1.05,1.14,92.0,2045.0,0.0,3.51,,13.48,1.05,70.0,,31.8,5.0,3.0,3.0,3.0,3.0,0.0,0.0,0.0,0.0,2.25,,,0,0,0,0,0,0,0,0,0,0,0,0,0,0,0,0,0.0,,,,0.0,39.24017,-77.964897,4.52,36.0,2.0,0.8
315,727210,1745065642981,,,,,,,,,,,,,,,,,,,,,,,,,,,,,,,,,,0,0,0,0,0,0,0,0,0,0,0,0,0,0,0,0,,,,,,,,,,,
316,727230,1745065643001,0.0,172.2,,-0.09,-0.05,1.02,6.0,-1.0,0.0,1.03,1.14,90.0,2044.0,0.0,3.52,,13.48,1.05,70.0,,30.7,5.0,,,,,,,,,,,,0,0,0,0,0,0,0,0,0,0,0,0,0,0,0,0,,,,,0.0,,,,,,
317,727250,1745065643013,,,,,,,,,,,,,,,,,,,,,,,,,,,,,,,,,,0,0,0,0,0,0,0,0,0,0,0,0,0,0,0,0,,,,,,,,,,,
318,727270,1745065643033,0.0,172.2,,-0.07,-0.07,1.01,7.0,-1.0,0.0,1.01,1.14,89.0,2044.0,0.0,3.52,,13.48,1.049,70.0,,30.7,5.0,,,,,,,,,,,,0,0,0,0,0,0,0,0,0,0,0,0,0,0,0,0,,,,,0.0,,,,,,
319,727290,1745065643053,,,,,,,,,,,,,,,,,,,,,,,3.0,3.0,3.0,3.0,0.0,0.0,0.0,0.0,2.24,,,0,0,0,0,0,0,0,0,0,0,0,0,0,0,0,0,0.0,,,,,39.24017,-77.964897,4.46,36.0,2.0,0.8
320,727310,1745065643073,0.0,172.2,,-0.06,-0.09,0.99,7.0,-1.0,0.0,1.0,1.14,88.0,2250.0,0.0,3.36,,13.36,1.077,70.0,,34.8,5.0,,,,,,,,,,,,0,0,0,0,0,0,0,0,0,0,0,0,0,0,0,0,,,,,0.0,,,,,,
321,727330,1745065643093,,,,,,,,,,,,,,,,,,,,,,,,,,,,,,,,,,0,0,0,0,0,0,0,0,0,0,0,0,0,0,0,0,,,,,,,,,,,
322,727350,1745065643119,0.0,172.07,,-0.06,-0.06,0.99,7.0,-1.0,0.0,0.99,1.14,88.0,2317.0,0.0,3.39,,13.31,1.096,70.0,,34.8,5.0,,,,,,,,,,,,0,0,0,0,0,0,0,0,0,0,0,0,0,0,0,0,,,,,0.0,,,,,,
323,727370,1745065643139,,,,,,,,,,,,,,,,,,,,,,,,,,,,,,,,,,0,0,0,0,0,0,0,0,0,0,0,0,0,0,0,0,,,,,,,,,,,
324,727390,1745065643159,0.0,172.07,12.89,-0.07,-0.07,0.98,7.0,-1.0,0.0,0.99,1.14,87.0,2245.0,0.0,3.38,15.0,13.35,1.063,70.0,156.0,34.8,5.0,3.0,3.0,3.0,3.0,0.0,0.0,0.0,0.0,2.24,0.0,1.0,0,0,0,0,0,0,0,0,0,0,0,0,0,0,0,0,0.0,0.0,0.0,0.0,0.0,39.24017,-77.964897,4.47,36.0,2.0,0.8
325,727410,1745065643179,,,,,,,,,,,,,,,,,,,,,,,,,,,,,,,,,,0,0,0,0,0,0,0,0,0,0,0,0,0,0,0,0,,,,,,,,,,,
326,727430,1745065643199,0.0,172.07,,-0.06,-0.08,0.98,7.0,-1.0,0.0,0.98,1.14,86.0,2196.0,0.0,3.42,,13.35,1.063,70.0,,34.4,5.0,,,,,,,,,,,,0,0,0,0,0,0,0,0,0,0,0,0,0,0,0,0,,,,,0.0,,,,,,
327,727450,1745065643219,,,,,,,,,,,,,,,,,,,,,,,,,,,,,,,,,,0,0,0,0,0,0,0,0,0,0,0,0,0,0,0,0,,,,,,,,,,,
328,727470,1745065643239,0.0,172.2,,-0.06,-0.07,0.98,7.0,-1.0,0.0,0.98,1.14,86.0,2196.0,0.0,3.42,,13.41,1.017,70.0,,34.4,5.0,,,,,,,,,,,,0,0,0,0,0,0,0,0,0,0,0,0,0,0,0,0,,,,,0.0,,,,,,
329,727490,1745065643259,,,,,,,,,,,,,,,,,,,,,,,3.0,3.0,3.0,3.0,0.0,0.0,0.0,0.0,2.24,,,0,0,0,0,0,0,0,0,0,0,0,0,0,0,0,0,0.0,,,,,39.240173,-77.96489,4.5,36.0,2.0,0.8
330,727510,1745065643279,0.0,172.2,,-0.06,-0.07,0.99,7.0,0.0,0.0,1.0,1.14,88.0,2186.0,0.0,3.41,,13.37,0.999,70.0,,34.4,5.0,,,,,,,,,,,,0,0,0,0,0,0,0,0,0,0,0,0,0,0,0,0,,,,,0.0,,,,,,
331,727530,1745065643301,,,,,,,,,,,,,,,,,,,,,,,,,,,,,,,,,,0,0,0,0,0,0,0,0,0,0,0,0,0,0,0,0,,,,,,,,,,,
332,727550,1745065643321,0.0,172.2,,-0.07,-0.09,0.99,7.0,0.0,0.0,0.99,1.14,87.0,2115.0,0.0,3.46,,13.48,1.006,71.8,,33.2,5.0,,,,,,,,,,,,0,0,0,0,0,0,0,0,0,0,0,0,0,0,0,0,,,,,0.0,,,,,,
333,727570,1745065643341,,,,,,,,,,,,,,,,,,,,,,,,,,,,,,,,,,0,0,0,0,0,0,0,0,0,0,0,0,0,0,0,0,,,,,,,,,,,
334,727590,1745065643361,0.0,172.07,,-0.08,-0.08,0.99,7.0,0.0,0.0,1.0,1.14,88.0,2110.0,0.0,3.49,,13.41,1.024,71.8,,33.2,5.0,3.0,3.0,3.0,3.0,0.0,0.0,0.0,0.0,2.25,,,0,0,0,0,0,0,0,0,0,0,0,0,0,0,0,0,0.0,,,,0.0,39.240173,-77.96489,4.56,36.0,2.0,0.8
335,727610,1745065643381,,,,,,,,,,,,,,,,,,,,,,,,,,,,,,,,,,0,0,0,0,0,0,0,0,0,0,0,0,0,0,0,0,,,,,,,,,,,
336,727630,1745065643401,0.0,172.2,,-0.09,-0.08,0.99,6.0,-1.0,0.0,0.99,1.14,88.0,2011.0,0.0,3.49,,13.41,1.024,71.8,,31.8,5.0,,,,,,,,,,,,0,0,0,0,0,0,0,0,0,0,0,0,0,0,0,0,,,,,0.0,,,,,,
337,727650,1745065643420,,,,,,,,,,,,,,,,,,,,,,,,,,,,,,,,,,0,0,0,0,0,0,0,0,0,0,0,0,0,0,0,0,,,,,,,,,,,
338,727670,1745065643440,0.0,172.2,,-0.08,-0.06,0.98,6.0,-1.0,0.0,0.99,1.14,87.0,2011.0,0.0,3.49,,13.49,1.039,71.8,,31.8,5.0,,,,,,,,,,,,0,0,0,0,0,0,0,0,0,0,0,0,0,0,0,0,,,,,0.0,,,,,,
339,727690,1745065643460,,,,,,,,,,,,,,,,,,,,,,,3.0,2.0,3.0,3.0,0.0,0.0,0.0,0.0,2.25,,,0,0,0,0,0,0,0,0,0,0,0,0,0,0,0,0,0.0,,,,,39.240173,-77.96489,4.24,36.0,2.0,0.8
340,727710,1745065643480,0.0,172.2,,-0.08,-0.05,1.0,6.0,-1.0,0.0,1.01,1.14,89.0,1908.0,0.0,3.51,,13.55,1.05,71.8,,27.1,5.0,,,,,,,,,,,,0,0,0,0,0,0,0,0,0,0,0,0,0,0,0,0,,,,,0.0,,,,,,
341,727730,1745065643500,,,,,,,,,,,,,,,,,,,,,,,,,,,,,,,,,,0,0,0,0,0,0,0,0,0,0,0,0,0,0,0,0,,,,,,,,,,,
342,727750,1745065643520,0.0,172.2,,-0.08,-0.02,0.99,6.0,0.0,0.0,0.99,1.14,87.0,1789.0,0.0,3.55,,13.63,1.06,71.8,,27.1,5.0,,,,,,,,,,,,0,0,0,0,0,0,0,0,0,0,0,0,0,0,0,0,,,,,0.0,,,,,,
343,727770,1745065643540,,,,,,,,,,,,,,,,,,,,,,,,,,,,,,,,,,0,0,0,0,0,0,0,0,0,0,0,0,0,0,0,0,,,,,,,,,,,
344,727790,1745065643560,0.0,172.2,,-0.09,-0.03,0.98,6.0,-1.0,0.0,0.99,1.14,87.0,1682.0,0.0,3.54,,13.63,1.056,71.8,,27.1,5.0,3.0,3.0,3.0,3.0,0.0,0.0,0.0,0.0,2.24,,,0,0,0,0,0,0,0,0,0,0,0,0,0,0,0,0,0.0,,,,0.0,39.240173,-77.96489,4.32,36.0,2.0,0.8
345,727810,1745065643580,,,,,,,,,,,,,,,,,,,,,,,,,,,,,,,,,,0,0,0,0,0,0,0,0,0,0,0,0,0,0,0,0,,,,,,,,,,,
346,727830,1745065643602,0.0,172.2,,-0.09,-0.04,0.99,6.0,-1.0,0.0,0.99,1.14,87.0,1604.0,0.0,3.57,,13.63,1.056,71.8,,25.4,5.0,,,,,,,,,,,,0,0,0,0,0,0,0,0,0,0,0,0,0,0,0,0,,,,,0.0,,,,,,
347,727850,1745065643622,,,,,,,,,,,,,,,,,,,,,,,,,,,,,,,,,,0,0,0,0,0,0,0,0,0,0,0,0,0,0,0,0,,,,,,,,,,,
348,727870,1745065643642,0.0,172.2,,-0.09,-0.04,0.98,6.0,-1.0,0.0,0.99,1.14,87.0,1604.0,0.0,3.57,,13.8,1.059,71.8,,25.4,5.0,,,,,,,,,,,,0,0,0,0,0,0,0,0,0,0,0,0,0,0,0,0,,,,,0.0,,,,,,
349,727890,1745065643662,,,,,,,,,,,,,,,,,,,,,,,3.0,3.0,3.0,3.0,0.0,0.0,0.0,0.0,2.24,,,0,0,0,0,0,0,0,0,0,0,0,0,0,0,0,0,0.0,,,,,39.240173,-77.96489,4.19,36.0,2.0,0.8
350,727910,1745065643682,0.0,172.07,,-0.09,-0.05,0.97,6.0,-1.0,0.0,0.98,1.14,86.0,1447.0,0.0,3.56,,13.79,1.056,71.8,,21.9,5.0,,,,,,,,,,,,0,0,0,0,0,0,0,0,0,0,0,0,0,0,0,0,,,,,0.0,,,,,,
351,727930,1745065643702,,,,,,,,,,,,,,,,,,,,,,,,,,,,,,,,,,0,0,0,0,0,0,0,0,0,0,0,0,0,0,0,0,,,,,,,,,,,
352,727950,1745065643722,0.0,172.07,,-0.08,-0.06,0.98,6.0,0.0,0.0,0.99,1.14,87.0,1442.0,0.0,3.59,,13.86,1.055,71.8,,21.9,5.0,,,,,,,,,,,,0,0,0,0,0,0,0,0,0,0,0,0,0,0,0,0,,,,,0.0,,,,,,
353,727970,1745065643742,,,,,,,,,,,,,,,,,,,,,,,,,,,,,,,,,,0,0,0,0,0,0,0,0,0,0,0,0,0,0,0,0,,,,,,,,,,,
354,727990,1745065643762,0.0,172.07,,-0.07,-0.05,0.99,5.0,0.0,0.0,0.99,1.14,88.0,1199.0,0.0,3.59,,13.88,1.058,71.8,,21.9,5.0,3.0,3.0,3.0,2.0,0.0,0.0,0.0,0.0,2.24,,,0,0,0,0,0,0,0,0,0,0,0,0,0,0,0,0,0.0,,,,0.0,39.240173,-77.964882,4.26,36.0,2.0,0.8
355,728010,1745065643782,,,,,,,,,,,,,,,,,,,,,,,,,,,,,,,,,,0,0,0,0,0,0,0,0,0,0,0,0,0,0,0,0,,,,,,,,,,,
356,728030,1745065643802,0.0,172.07,,-0.07,-0.05,0.98,5.0,0.0,0.0,0.98,1.14,86.0,1196.0,0.0,3.62,,13.88,1.058,71.8,,19.5,5.0,,,,,,,,,,,,0,0,0,0,0,0,0,0,0,0,0,0,0,0,0,0,,,,,0.0,,,,,,
357,728050,1745065643820,,,,,,,,,,,,,,,,,,,,,,,,,,,,,,,,,,0,0,0,0,0,0,0,0,0,0,0,0,0,0,0,0,,,,,,,,,,,
358,728070,1745065643840,0.0,172.07,,-0.06,-0.06,0.98,5.0,0.0,0.0,0.99,1.14,87.0,1196.0,0.0,3.62,,14.06,1.098,71.8,,19.5,5.0,,,,,,,,,,,,0,0,0,0,0,0,0,0,0,0,0,0,0,0,0,0,,,,,0.0,,,,,,
359,728090,1745065643860,,,,,,,,,,,,,,,,,,,,,,,3.0,2.0,3.0,3.0,0.0,0.0,0.0,0.0,2.24,,,0,0,0,0,0,0,0,0,0,0,0,0,0,0,0,0,0.0,,,,,39.240173,-77.964882,4.31,36.0,2.0,0.8
360,728110,1745065643880,0.0,171.95,,-0.07,-0.05,0.99,5.0,0.0,0.0,0.99,1.14,87.0,1032.0,0.0,3.62,,14.03,1.121,71.8,,18.5,5.0,,,,,,,,,,,,0,0,0,0,0,0,0,0,0,0,0,0,0,0,0,0,,,,,0.0,,,,,,
361,728130,1745065643902,,,,,,,,,,,,,,,,,,,,,,,,,,,,,,,,,,0,0,0,0,0,0,0,0,0,0,0,0,0,0,0,0,,,,,,,,,,,
362,728150,1745065643922,0.0,171.95,,-0.08,-0.05,1.0,5.0,0.0,0.0,1.0,1.14,88.0,1237.0,0.0,3.64,,14.03,1.172,71.8,,18.5,5.0,,,,,,,,,,,,0,0,0,0,0,0,0,0,0,0,0,0,0,0,0,0,,,,,0.0,,,,,,
363,728170,1745065643942,,,,,,,,,,,,,,,,,,,,,,,,,,,,,,,,,,0,0,0,0,0,0,0,0,0,0,0,0,0,0,0,0,,,,,,,,,,,
364,728190,1745065643962,0.0,171.95,,-0.07,-0.06,1.0,5.0,0.0,0.0,1.0,1.14,88.0,986.0,0.0,3.62,,13.95,1.178,71.8,,18.5,5.0,3.0,3.0,3.0,3.0,0.0,0.0,0.0,0.0,2.25,,,0,0,0,0,0,0,0,0,0,0,0,0,0,0,0,0,0.0,,,,0.0,39.240173,-77.964882,4.22,36.0,2.0,0.8
365,728210,1745065643982,,,,,,,,,,,,,,,,,,,,,,,,,,,,,,,,,,0,0,0,0,0,0,0,0,0,0,0,0,0,0,0,0,,,,,,,,,,,
366,728230,1745065644002,0.0,171.82,,-0.07,-0.06,0.99,5.0,0.0,0.0,1.0,1.14,88.0,1162.0,0.0,3.66,,13.95,1.178,71.8,,17.7,5.0,,,,,,,,,,,,0,0,0,0,0,0,0,0,0,0,0,0,0,0,0,0,,,,,0.0,,,,,,
367,728250,1745065644012,,,,,,,,,,,,,,,,,,,,,,,,,,,,,,,,,,0,0,0,0,0,0,0,0,0,0,0,0,0,0,0,0,,,,,,,,,,,
368,728270,1745065644032,0.0,171.82,,-0.07,-0.06,0.98,5.0,0.0,0.0,0.99,1.14,87.0,1162.0,0.0,3.66,,13.94,1.184,71.8,,17.7,5.0,,,,,,,,,,,,0,0,0,0,0,0,0,0,0,0,0,0,0,0,0,0,,,,,0.0,,,,,,
369,728290,1745065644052,,,,,,,,,,,,,,,,,,,,,,,3.0,3.0,3.0,3.0,0.0,0.0,0.0,0.0,2.25,,,0,0,0,0,0,0,0,0,0,0,0,0,0,0,0,0,0.0,,,,,39.240173,-77.964882,4.25,36.0,2.0,0.8
370,728310,1745065644072,0.0,171.82,,-0.08,-0.04,0.99,5.0,0.0,0.0,0.99,1.14,87.0,991.0,0.0,3.63,,14.06,1.193,71.8,,17.2,5.0,,,,,,,,,,,,0,0,0,0,0,0,0,0,0,0,0,0,0,0,0,0,,,,,0.0,,,,,,
371,728330,1745065644092,,,,,,,,,,,,,,,,,,,,,,,,,,,,,,,,,,0,0,0,0,0,0,0,0,0,0,0,0,0,0,0,0,,,,,,,,,,,
372,728350,1745065644118,0.0,171.82,,-0.08,-0.04,0.98,4.0,0.0,0.0,0.99,1.14,87.0,1192.0,0.0,3.65,,14.04,1.183,71.8,,17.2,5.0,,,,,,,,,,,,0,0,0,0,0,0,0,0,0,0,0,0,0,0,0,0,,,,,0.0,,,,,,
373,728370,1745065644138,,,,,,,,,,,,,,,,,,,,,,,,,,,,,,,,,,0,0,0,0,0,0,0,0,0,0,0,0,0,0,0,0,,,,,,,,,,,
374,728390,1745065644158,0.0,171.69,12.7,-0.09,-0.04,0.98,4.0,0.0,0.0,0.98,1.14,86.0,1000.0,0.0,3.62,15.0,14.0,1.187,71.8,158.0,17.2,5.0,3.0,8.0,3.0,3.0,0.0,99.0,0.0,0.0,2.24,0.0,1.0,0,0,0,0,0,0,0,0,0,0,0,0,0,0,0,0,0.0,0.0,0.0,0.0,0.0,39.240173,-77.964874,4.32,36.0,2.0,0.8
375,728410,1745065644178,,,,,,,,,,,,,,,,,,,,,,,,,,,,,,,,,,0,0,0,0,0,0,0,0,0,0,0,0,0,0,0,0,,,,,,,,,,,
376,728430,1745065644198,0.0,171.69,,-0.08,-0.04,0.98,4.0,0.0,0.0,0.98,1.14,86.0,1205.0,0.0,3.64,,14.0,1.187,71.8,,16.8,5.0,,,,,,,,,,,,0,0,0,0,0,0,0,0,0,0,0,0,0,0,0,0,,,,,0.0,,,,,,
377,728450,1745065644220,,,,,,,,,,,,,,,,,,,,,,,,,,,,,,,,,,0,0,0,0,0,0,0,0,0,0,0,0,0,0,0,0,,,,,,,,,,,
378,728470,1745065644240,0.0,171.69,,-0.08,-0.04,0.96,4.0,0.0,0.0,0.96,1.14,85.0,1205.0,0.0,3.64,,13.96,1.175,71.8,,16.8,5.0,,,,,,,,,,,,0,0,0,0,0,0,0,0,0,0,0,0,0,0,0,0,,,,,0.0,,,,,,
379,728490,1745065644260,,,,,,,,,,,,,,,,,,,,,,,3.0,8.0,3.0,2.0,0.0,91.0,0.0,0.0,2.24,,,0,0,0,0,0,0,0,0,0,0,0,0,0,0,0,0,0.0,,,,,39.240173,-77.964874,4.29,36.0,2.0,0.8
380,728510,1745065644280,0.0,171.57,,-0.08,-0.05,0.97,4.0,0.0,0.0,0.97,1.14,85.0,1205.0,0.0,3.64,,13.96,1.185,71.8,,16.9,5.0,,,,,,,,,,,,0,0,0,0,0,0,0,0,0,0,0,0,0,0,0,0,,,,,0.0,,,,,,
381,728530,1745065644302,,,,,,,,,,,,,,,,,,,,,,,,,,,,,,,,,,0,0,0,0,0,0,0,0,0,0,0,0,0,0,0,0,,,,,,,,,,,
382,728550,1745065644322,0.0,171.57,,-0.07,-0.05,1.0,4.0,0.0,0.0,1.0,1.14,88.0,1033.0,0.0,3.62,,13.91,1.181,71.8,,16.9,5.0,,,,,,,,,,,,0,0,0,0,0,0,0,0,0,0,0,0,0,0,0,0,,,,,0.0,,,,,,
383,728570,1745065644342,,,,,,,,,,,,,,,,,,,,,,,,,,,,,,,,,,0,0,0,0,0,0,0,0,0,0,0,0,0,0,0,0,,,,,,,,,,,
384,728590,1745065644362,0.0,171.57,,-0.06,-0.05,1.0,4.0,0.0,0.0,1.01,1.14,89.0,1373.0,0.0,3.61,,13.95,1.197,71.8,,16.9,5.0,3.0,8.0,3.0,3.0,0.0,99.0,0.0,0.0,2.24,,,0,0,0,0,0,0,0,0,0,0,0,0,0,0,0,0,0.0,,,,0.0,39.240173,-77.964874,4.23,36.0,2.0,0.8
385,728610,1745065644382,,,,,,,,,,,,,,,,,,,,,,,,,,,,,,,,,,0,0,0,0,0,0,0,0,0,0,0,0,0,0,0,0,,,,,,,,,,,
