,Interval,Utc,FrontBP,SteerAng,Battery,AccelX,AccelY,AccelZ,Yaw,Pitch,Roll,Gsum,GsumMax,GsumPct,RPM,TPS,InjectorPW,Baro,MAP,Lambda,IAT,EngineTemp,EOP,EOT,WSFR,WSFL,WSRR,WSRL,TCSet,TCSlip,TCComp,TCCut,Analog8,OilTemp,AA_On,ThermLF1,ThermLF2,ThermRR1,ThermRR2,ThermLF3,ThermLF4,ThermLF5,ThermLF6,ThermLF7,ThermLF8,ThermRR3,ThermRR4,ThermRR5,ThermRR6,ThermRR7,ThermRR8,Gear,AA_On1,AA_LowDrag,Fuel_Mix,AA_Packages,Latitude,Longitude,Speed,GPSSats,GPSQual,GPSDOP
0,2688228,1745086414428,0.0,189.79,,-0.04,-0.12,0.94,0.0,0.0,0.0,0.95,0.95,100.0,4275.0,13.4,3.83,,13.04,1.085,91.6,,45.6,5.0,,,,,,,,,,,,0.0,0.0,0.0,0.0,0.0,0.0,0.0,0.0,0.0,0.0,0.0,0.0,0.0,0.0,0.0,0.0,,,,,0.0,,,,,,
1,2688248,1745086414448,,,,,,,,,,,,,,,,,,,,,,,,,,,,,,,,,,0.0,0.0,0.0,0.0,0.0,0.0,0.0,0.0,0.0,0.0,0.0,0.0,0.0,0.0,0.0,0.0,,,,,,,,,,,
2,2688268,1745086414468,0.0,189.79,,-0.03,0.03,1.04,0.0,0.0,0.0,1.04,1.04,100.0,4194.0,0.0,2.45,,12.28,1.19,91.6,,45.6,5.0,,,,,,,,,,,,0.0,0.0,0.0,0.0,0.0,0.0,0.0,0.0,0.0,0.0,0.0,0.0,0.0,0.0,0.0,0.0,,,,,0.0,,,,,,
3,2688288,1745086414488,,,,,,,,,,,,,,,,,,,,,,,,,,,,,,,,,,0.0,0.0,0.0,0.0,0.0,0.0,0.0,0.0,0.0,0.0,0.0,0.0,0.0,0.0,0.0,0.0,,,,,,,,,,,
4,2688308,1745086414508,0.0,189.79,,-0.04,-0.07,0.98,0.0,0.0,0.0,0.98,1.04,94.0,4074.0,0.0,2.42,,11.67,1.252,91.6,,45.6,5.0,0.0,0.0,0.0,0.0,0.0,0.0,0.0,0.0,2.26,,,0.0,0.0,0.0,0.0,0.0,0.0,0.0,0.0,0.0,0.0,0.0,0.0,0.0,0.0,0.0,0.0,0.0,,,,0.0,39.240116,-77.964874,0.08,32.0,3.0,0.8
5,2688328,1745086414528,,,,,,,,,,,,,,,,,,,,,,,,,,,,,,,,,,0.0,0.0,0.0,0.0,0.0,0.0,0.0,0.0,0.0,0.0,0.0,0.0,0.0,0.0,0.0,0.0,,,,,,,,,,,
6,2688348,1745086414548,0.0,189.79,,-0.03,0.0,0.98,0.0,0.0,0.0,0.98,1.04,94.0,3970.0,0.0,2.43,,11.67,1.252,91.6,,43.6,5.0,,,,,,,,,,,,0.0,0.0,0.0,0.0,0.0,0.0,0.0,0.0,0.0,0.0,0.0,0.0,0.0,0.0,0.0,0.0,,,,,0.0,,,,,,
7,2688368,1745086414568,,,,,,,,,,,,,,,,,,,,,,,,,,,,,,,,,,0.0,0.0,0.0,0.0,0.0,0.0,0.0,0.0,0.0,0.0,0.0,0.0,0.0,0.0,0.0,0.0,,,,,,,,,,,
8,2688388,1745086414588,0.0,189.79,,-0.04,0.1,1.07,-1.0,0.0,1.0,1.08,1.08,100.0,3970.0,0.0,2.43,,11.33,1.252,91.6,,43.6,5.0,,,,,,,,,,,,0.0,0.0,0.0,0.0,0.0,0.0,0.0,0.0,0.0,0.0,0.0,0.0,0.0,0.0,0.0,0.0,,,,,0.0,,,,,,
9,2688408,1745086414608,,,,,,,,,,,,,,,,,,,,,,,0.0,0.0,0.0,0.0,0.0,0.0,0.0,0.0,2.26,,,0.0,0.0,0.0,0.0,0.0,0.0,0.0,0.0,0.0,0.0,0.0,0.0,0.0,0.0,0.0,0.0,0.0,,,,,39.240116,-77.964874,0.07,32.0,3.0,0.8
10,2688428,1745086414628,0.0,189.67,,-0.05,0.03,1.06,-1.0,0.0,0.0,1.06,1.08,98.0,3963.0,0.0,2.4,,11.2,1.251,91.6,,42.3,5.0,,,,,,,,,,,,0.0,0.0,0.0,0.0,0.0,0.0,0.0,0.0,0.0,0.0,0.0,0.0,0.0,0.0,0.0,0.0,,,,,0.0,,,,,,
11,2688448,1745086414648,,,,,,,,,,,,,,,,,,,,,,,,,,,,,,,,,,0.0,0.0,0.0,0.0,0.0,0.0,0.0,0.0,0.0,0.0,0.0,0.0,0.0,0.0,0.0,0.0,,,,,,,,,,,
12,2688468,1745086414668,0.0,189.67,,-0.05,0.01,1.05,0.0,0.0,0.0,1.06,1.08,98.0,3822.0,5.6,3.78,,11.53,1.252,91.6,,42.3,5.0,,,,,,,,,,,,0.0,0.0,0.0,0.0,0.0,0.0,0.0,0.0,0.0,0.0,0.0,0.0,0.0,0.0,0.0,0.0,,,,,0.0,,,,,,
13,2688488,1745086414688,,,,,,,,,,,,,,,,,,,,,,,,,,,,,,,,,,0.0,0.0,0.0,0.0,0.0,0.0,0.0,0.0,0.0,0.0,0.0,0.0,0.0,0.0,0.0,0.0,,,,,,,,,,,
14,2688508,1745086414708,0.0,189.54,,-0.05,0.04,1.05,0.0,0.0,0.0,1.05,1.08,97.0,3719.0,13.1,3.92,,12.53,1.245,91.6,,42.3,5.0,0.0,0.0,0.0,0.0,0.0,0.0,0.0,0.0,2.27,,,0.0,0.0,0.0,0.0,0.0,0.0,0.0,0.0,0.0,0.0,0.0,0.0,0.0,0.0,0.0,0.0,0.0,,,,0.0,39.240116,-77.964874,0.13,32.0,3.0,0.8
15,2688528,1745086414728,,,,,,,,,,,,,,,,,,,,,,,,,,,,,,,,,,0.0,0.0,0.0,0.0,0.0,0.0,0.0,0.0,0.0,0.0,0.0,0.0,0.0,0.0,0.0,0.0,,,,,,,,,,,
16,2688548,1745086414748,0.0,189.67,,-0.05,0.03,1.03,0.0,0.0,0.0,1.04,1.08,96.0,3670.0,15.1,4.03,,12.53,1.245,91.6,,39.4,5.0,,,,,,,,,,,,0.0,0.0,0.0,0.0,0.0,0.0,0.0,0.0,0.0,0.0,0.0,0.0,0.0,0.0,0.0,0.0,,,,,0.0,,,,,,
17,2688568,1745086414768,,,,,,,,,,,,,,,,,,,,,,,,,,,,,,,,,,0.0,0.0,0.0,0.0,0.0,0.0,0.0,0.0,0.0,0.0,0.0,0.0,0.0,0.0,0.0,0.0,,,,,,,,,,,
18,2688588,1745086414788,0.0,189.67,,-0.04,0.04,1.05,0.0,0.0,0.0,1.05,1.08,97.0,3670.0,15.1,4.03,,13.16,1.199,91.6,,39.4,5.0,,,,,,,,,,,,0.0,0.0,0.0,0.0,0.0,0.0,0.0,0.0,0.0,0.0,0.0,0.0,0.0,0.0,0.0,0.0,,,,,0.0,,,,,,
19,2688608,1745086414807,,,,,,,,,,,,,,,,,,,,,,,0.0,0.0,0.0,0.0,0.0,0.0,0.0,0.0,2.27,,,0.0,0.0,0.0,0.0,0.0,0.0,0.0,0.0,0.0,0.0,0.0,0.0,0.0,0.0,0.0,0.0,0.0,,,,,39.240116,-77.964874,0.16,32.0,3.0,0.8
20,2688628,1745086414827,0.0,189.67,,-0.03,0.05,1.03,0.0,0.0,0.0,1.03,1.08,96.0,3740.0,15.6,4.11,,13.43,1.204,91.6,,38.8,5.0,,,,,,,,,,,,0.0,0.0,0.0,0.0,0.0,0.0,0.0,0.0,0.0,0.0,0.0,0.0,0.0,0.0,0.0,0.0,,,,,0.0,,,,,,
21,2688648,1745086414847,,,,,,,,,,,,,,,,,,,,,,,,,,,,,,,,,,0.0,0.0,0.0,0.0,0.0,0.0,0.0,0.0,0.0,0.0,0.0,0.0,0.0,0.0,0.0,0.0,,,,,,,,,,,
22,2688668,1745086414867,0.0,189.67,,-0.03,0.05,1.0,0.0,0.0,0.0,1.0,1.08,93.0,3709.0,15.8,4.06,,13.52,1.24,91.6,,38.8,5.0,,,,,,,,,,,,0.0,0.0,0.0,0.0,0.0,0.0,0.0,0.0,0.0,0.0,0.0,0.0,0.0,0.0,0.0,0.0,,,,,0.0,,,,,,
23,2688688,1745086414887,,,,,,,,,,,,,,,,,,,,,,,,,,,,,,,,,,0.0,0.0,0.0,0.0,0.0,0.0,0.0,0.0,0.0,0.0,0.0,0.0,0.0,0.0,0.0,0.0,,,,,,,,,,,
24,2688708,1745086414907,0.0,189.54,13.39,-0.03,0.06,1.01,0.0,0.0,0.0,1.01,1.08,94.0,3717.0,15.9,4.01,15.0,13.47,1.251,91.6,135.0,38.8,5.0,0.0,0.0,0.0,0.0,0.0,0.0,0.0,0.0,2.26,0.0,0.0,0.0,0.0,0.0,0.0,0.0,0.0,0.0,0.0,0.0,0.0,0.0,0.0,0.0,0.0,0.0,0.0,0.0,0.0,0.0,0.0,0.0,39.240116,-77.964874,0.08,32.0,3.0,0.8
25,2688728,1745086414927,,,,,,,,,,,,,,,,,,,,,,,,,,,,,,,,,,0.0,0.0,0.0,0.0,0.0,0.0,0.0,0.0,0.0,0.0,0.0,0.0,0.0,0.0,0.0,0.0,,,,,,,,,,,
26,2688748,1745086414947,0.0,189.54,,-0.08,-0.11,0.96,0.0,0.0,0.0,0.97,1.08,90.0,3818.0,16.0,2.63,,13.47,1.251,91.6,,39.3,5.0,,,,,,,,,,,,0.0,0.0,0.0,0.0,0.0,0.0,0.0,0.0,0.0,0.0,0.0,0.0,0.0,0.0,0.0,0.0,,,,,0.0,,,,,,
27,2688768,1745086414967,,,,,,,,,,,,,,,,,,,,,,,,,,,,,,,,,,0.0,0.0,0.0,0.0,0.0,0.0,0.0,0.0,0.0,0.0,0.0,0.0,0.0,0.0,0.0,0.0,,,,,,,,,,,
28,2688788,1745086414987,0.0,189.54,,-0.08,-0.09,0.94,0.0,0.0,0.0,0.94,1.08,88.0,3818.0,16.0,2.63,,13.44,1.253,91.6,,39.3,5.0,,,,,,,,,,,,0.0,0.0,0.0,0.0,0.0,0.0,0.0,0.0,0.0,0.0,0.0,0.0,0.0,0.0,0.0,0.0,,,,,0.0,,,,,,
29,2688808,1745086414997,,,,,,,,,,,,,,,,,,,,,,,0.0,0.0,0.0,0.0,0.0,0.0,0.0,0.0,2.26,,,0.0,0.0,0.0,0.0,0.0,0.0,0.0,0.0,0.0,0.0,0.0,0.0,0.0,0.0,0.0,0.0,0.0,,,,,39.240116,-77.964874,0.09,33.0,3.0,0.8
30,2688828,1745086415017,0.0,189.54,,-0.1,-0.15,0.93,1.0,0.0,-1.0,0.95,1.08,88.0,3612.0,13.2,4.0,,13.37,1.254,91.6,,37.4,5.0,,,,,,,,,,,,0.0,0.0,0.0,0.0,0.0,0.0,0.0,0.0,0.0,0.0,0.0,0.0,0.0,0.0,0.0,0.0,,,,,0.0,,,,,,
31,2688848,1745086415037,,,,,,,,,,,,,,,,,,,,,,,,,,,,,,,,,,0.0,0.0,0.0,0.0,0.0,0.0,0.0,0.0,0.0,0.0,0.0,0.0,0.0,0.0,0.0,0.0,,,,,,,,,,,
32,2688868,1745086415057,0.0,189.67,,-0.1,-0.1,0.99,0.0,0.0,0.0,1.0,1.08,93.0,3548.0,12.4,3.99,,13.39,1.252,91.6,,37.4,5.0,,,,,,,,,,,,0.0,0.0,0.0,0.0,0.0,0.0,0.0,0.0,0.0,0.0,0.0,0.0,0.0,0.0,0.0,0.0,,,,,0.0,,,,,,
33,2688888,1745086415077,,,,,,,,,,,,,,,,,,,,,,,,,,,,,,,,,,0.0,0.0,0.0,0.0,0.0,0.0,0.0,0.0,0.0,0.0,0.0,0.0,0.0,0.0,0.0,0.0,,,,,,,,,,,
34,2688908,1745086415103,0.0,189.67,,-0.07,-0.0,0.96,0.0,0.0,0.0,0.96,1.08,89.0,3459.0,12.4,4.01,,13.37,1.252,91.6,,37.4,5.0,0.0,0.0,0.0,0.0,0.0,0.0,0.0,0.0,2.27,,,0.0,0.0,0.0,0.0,0.0,0.0,0.0,0.0,0.0,0.0,0.0,0.0,0.0,0.0,0.0,0.0,0.0,,,,0.0,39.240116,-77.964874,0.07,33.0,3.0,0.8
35,2688928,1745086415123,,,,,,,,,,,,,,,,,,,,,,,,,,,,,,,,,,0.0,0.0,0.0,0.0,0.0,0.0,0.0,0.0,0.0,0.0,0.0,0.0,0.0,0.0,0.0,0.0,,,,,,,,,,,
36,2688948,1745086415143,0.0,189.54,,-0.07,-0.07,0.95,1.0,0.0,0.0,0.95,1.08,88.0,3501.0,13.0,4.09,,13.37,1.252,91.6,,36.4,5.0,,,,,,,,,,,,0.0,0.0,0.0,0.0,0.0,0.0,0.0,0.0,0.0,0.0,0.0,0.0,0.0,0.0,0.0,0.0,,,,,0.0,,,,,,
37,2688968,1745086415163,,,,,,,,,,,,,,,,,,,,,,,,,,,,,,,,,,0.0,0.0,0.0,0.0,0.0,0.0,0.0,0.0,0.0,0.0,0.0,0.0,0.0,0.0,0.0,0.0,,,,,,,,,,,
38,2688988,1745086415183,0.0,189.54,,-0.09,-0.02,0.99,0.0,0.0,0.0,1.0,1.08,93.0,3501.0,13.0,4.09,,13.51,1.252,91.6,,36.4,5.0,,,,,,,,,,,,0.0,0.0,0.0,0.0,0.0,0.0,0.0,0.0,0.0,0.0,0.0,0.0,0.0,0.0,0.0,0.0,,,,,0.0,,,,,,
39,2689008,1745086415203,,,,,,,,,,,,,,,,,,,,,,,0.0,0.0,0.0,0.0,0.0,0.0,0.0,0.0,2.26,,,0.0,0.0,0.0,0.0,0.0,0.0,0.0,0.0,0.0,0.0,0.0,0.0,0.0,0.0,0.0,0.0,0.0,,,,,39.240116,-77.964874,0.12,33.0,3.0,0.8
40,2689028,1745086415223,0.0,189.54,,-0.07,0.06,0.98,0.0,0.0,0.0,0.98,1.08,91.0,3507.0,13.9,4.07,,13.53,1.252,91.6,,37.3,5.0,,,,,,,,,,,,0.0,0.0,0.0,0.0,0.0,0.0,0.0,0.0,0.0,0.0,0.0,0.0,0.0,0.0,0.0,0.0,,,,,0.0,,,,,,
41,2689048,1745086415243,,,,,,,,,,,,,,,,,,,,,,,,,,,,,,,,,,0.0,0.0,0.0,0.0,0.0,0.0,0.0,0.0,0.0,0.0,0.0,0.0,0.0,0.0,0.0,0.0,,,,,,,,,,,
42,2689068,1745086415263,0.0,189.67,,-0.07,0.06,0.94,0.0,0.0,0.0,0.94,1.08,87.0,3550.0,14.3,4.05,,13.55,1.253,91.6,,37.3,5.0,,,,,,,,,,,,0.0,0.0,0.0,0.0,0.0,0.0,0.0,0.0,0.0,0.0,0.0,0.0,0.0,0.0,0.0,0.0,,,,,0.0,,,,,,
43,2689088,1745086415283,,,,,,,,,,,,,,,,,,,,,,,,,,,,,,,,,,0.0,0.0,0.0,0.0,0.0,0.0,0.0,0.0,0.0,0.0,0.0,0.0,0.0,0.0,0.0,0.0,,,,,,,,,,,
44,2689108,1745086415305,0.0,189.54,,-0.09,0.01,0.93,0.0,0.0,0.0,0.94,1.08,87.0,3617.0,14.3,4.03,,13.44,1.252,91.6,,37.3,5.0,0.0,0.0,0.0,0.0,0.0,0.0,0.0,0.0,2.27,,,0.0,0.0,0.0,0.0,0.0,0.0,0.0,0.0,0.0,0.0,0.0,0.0,0.0,0.0,0.0,0.0,0.0,,,,0.0,39.240116,-77.964874,0.09,33.0,3.0,0.8
45,2689128,1745086415325,,,,,,,,,,,,,,,,,,,,,,,,,,,,,,,,,,0.0,0.0,0.0,0.0,0.0,0.0,0.0,0.0,0.0,0.0,0.0,0.0,0.0,0.0,0.0,0.0,,,,,,,,,,,
46,2689148,1745086415345,0.0,189.54,,-0.08,-0.04,0.95,0.0,0.0,0.0,0.95,1.08,88.0,3718.0,9.1,3.73,,13.44,1.252,91.6,,38.5,5.0,,,,,,,,,,,,0.0,0.0,0.0,0.0,0.0,0.0,0.0,0.0,0.0,0.0,0.0,0.0,0.0,0.0,0.0,0.0,,,,,0.0,,,,,,
47,2689168,1745086415365,,,,,,,,,,,,,,,,,,,,,,,,,,,,,,,,,,0.0,0.0,0.0,0.0,0.0,0.0,0.0,0.0,0.0,0.0,0.0,0.0,0.0,0.0,0.0,0.0,,,,,,,,,,,
48,2689188,1745086415385,0.0,189.54,,-0.08,-0.09,0.95,0.0,0.0,0.0,0.96,1.08,89.0,3718.0,9.1,3.73,,13.16,1.252,91.6,,38.5,5.0,,,,,,,,,,,,0.0,0.0,0.0,0.0,0.0,0.0,0.0,0.0,0.0,0.0,0.0,0.0,0.0,0.0,0.0,0.0,,,,,0.0,,,,,,
49,2689208,1745086415407,,,,,,,,,,,,,,,,,,,,,,,0.0,0.0,0.0,0.0,0.0,0.0,0.0,0.0,2.26,,,0.0,0.0,0.0,0.0,0.0,0.0,0.0,0.0,0.0,0.0,0.0,0.0,0.0,0.0,0.0,0.0,0.0,,,,,39.240116,-77.964874,0.07,33.0,3.0,0.8
50,2689228,1745086415427,0.0,189.54,,-0.07,-0.07,0.98,0.0,0.0,0.0,0.98,1.08,91.0,3681.0,8.1,3.61,,13.01,1.252,91.6,,38.9,5.0,,,,,,,,,,,,0.0,0.0,0.0,0.0,0.0,0.0,0.0,0.0,0.0,0.0,0.0,0.0,0.0,0.0,0.0,0.0,,,,,0.0,,,,,,
51,2689248,1745086415447,,,,,,,,,,,,,,,,,,,,,,,,,,,,,,,,,,0.0,0.0,0.0,0.0,0.0,0.0,0.0,0.0,0.0,0.0,0.0,0.0,0.0,0.0,0.0,0.0,,,,,,,,,,,
52,2689268,1745086415467,0.0,189.54,,-0.06,-0.08,0.99,0.0,0.0,0.0,0.99,1.08,92.0,3752.0,8.0,3.64,,12.92,1.254,91.6,,38.9,5.0,,,,,,,,,,,,0.0,0.0,0.0,0.0,0.0,0.0,0.0,0.0,0.0,0.0,0.0,0.0,0.0,0.0,0.0,0.0,,,,,0.0,,,,,,
53,2689288,1745086415487,,,,,,,,,,,,,,,,,,,,,,,,,,,,,,,,,,0.0,0.0,0.0,0.0,0.0,0.0,0.0,0.0,0.0,0.0,0.0,0.0,0.0,0.0,0.0,0.0,,,,,,,,,,,
54,2689308,1745086415507,0.0,189.54,,-0.06,-0.07,0.98,0.0,0.0,0.0,0.98,1.08,91.0,3687.0,9.2,3.63,,13.04,1.255,91.6,,38.9,5.0,0.0,0.0,0.0,0.0,0.0,0.0,0.0,0.0,2.26,,,0.0,0.0,0.0,0.0,0.0,0.0,0.0,0.0,0.0,0.0,0.0,0.0,0.0,0.0,0.0,0.0,0.0,,,,0.0,39.240116,-77.964874,0.11,33.0,3.0,0.8
55,2689328,1745086415527,,,,,,,,,,,,,,,,,,,,,,,,,,,,,,,,,,0.0,0.0,0.0,0.0,0.0,0.0,0.0,0.0,0.0,0.0,0.0,0.0,0.0,0.0,0.0,0.0,,,,,,,,,,,
56,2689348,1745086415547,0.0,189.67,,-0.08,-0.05,0.97,0.0,0.0,0.0,0.98,1.08,90.0,3756.0,13.8,3.95,,13.04,1.255,91.6,,39.3,5.0,,,,,,,,,,,,0.0,0.0,0.0,0.0,0.0,0.0,0.0,0.0,0.0,0.0,0.0,0.0,0.0,0.0,0.0,0.0,,,,,0.0,,,,,,
57,2689368,1745086415567,,,,,,,,,,,,,,,,,,,,,,,,,,,,,,,,,,0.0,0.0,0.0,0.0,0.0,0.0,0.0,0.0,0.0,0.0,0.0,0.0,0.0,0.0,0.0,0.0,,,,,,,,,,,
58,2689388,1745086415587,0.0,189.54,,-0.07,-0.04,0.98,0.0,0.0,0.0,0.98,1.08,91.0,3756.0,13.8,3.95,,13.23,1.253,91.6,,39.3,5.0,,,,,,,,,,,,0.0,0.0,0.0,0.0,0.0,0.0,0.0,0.0,0.0,0.0,0.0,0.0,0.0,0.0,0.0,0.0,,,,,0.0,,,,,,
59,2689408,1745086415607,,,,,,,,,,,,,,,,,,,,,,,0.0,0.0,0.0,0.0,0.0,0.0,0.0,0.0,2.27,,,0.0,0.0,0.0,0.0,0.0,0.0,0.0,0.0,0.0,0.0,0.0,0.0,0.0,0.0,0.0,0.0,0.0,,,,,39.240116,-77.964874,0.05,33.0,3.0,0.8
60,2689428,1745086415627,0.0,189.54,,-0.06,-0.05,0.96,1.0,0.0,0.0,0.96,1.08,89.0,3750.0,14.9,3.97,,13.39,1.252,91.6,,40.0,5.0,,,,,,,,,,,,0.0,0.0,0.0,0.0,0.0,0.0,0.0,0.0,0.0,0.0,0.0,0.0,0.0,0.0,0.0,0.0,,,,,0.0,,,,,,
61,2689448,1745086415647,,,,,,,,,,,,,,,,,,,,,,,,,,,,,,,,,,0.0,0.0,0.0,0.0,0.0,0.0,0.0,0.0,0.0,0.0,0.0,0.0,0.0,0.0,0.0,0.0,,,,,,,,,,,
62,2689468,1745086415667,0.0,189.67,,-0.04,-0.06,0.95,1.0,0.0,0.0,0.95,1.08,89.0,3858.0,15.3,3.97,,13.37,1.251,91.6,,40.0,5.0,,,,,,,,,,,,0.0,0.0,0.0,0.0,0.0,0.0,0.0,0.0,0.0,0.0,0.0,0.0,0.0,0.0,0.0,0.0,,,,,0.0,,,,,,
63,2689488,1745086415687,,,,,,,,,,,,,,,,,,,,,,,,,,,,,,,,,,0.0,0.0,0.0,0.0,0.0,0.0,0.0,0.0,0.0,0.0,0.0,0.0,0.0,0.0,0.0,0.0,,,,,,,,,,,
64,2689508,1745086415707,0.0,189.54,,-0.02,-0.08,0.95,1.0,0.0,0.0,0.95,1.08,88.0,3786.0,15.5,3.91,,13.45,1.251,91.6,,40.0,5.0,0.0,0.0,0.0,0.0,0.0,0.0,0.0,0.0,2.27,,,0.0,0.0,0.0,0.0,0.0,0.0,0.0,0.0,0.0,0.0,0.0,0.0,0.0,0.0,0.0,0.0,0.0,,,,0.0,39.240116,-77.964874,0.1,33.0,3.0,0.8
65,2689528,1745086415727,,,,,,,,,,,,,,,,,,,,,,,,,,,,,,,,,,0.0,0.0,0.0,0.0,0.0,0.0,0.0,0.0,0.0,0.0,0.0,0.0,0.0,0.0,0.0,0.0,,,,,,,,,,,
66,2689548,1745086415747,0.0,189.67,,-0.03,-0.03,0.97,1.0,0.0,0.0,0.97,1.08,90.0,3837.0,15.4,3.89,,13.45,1.251,91.6,,40.5,5.0,,,,,,,,,,,,0.0,0.0,0.0,0.0,0.0,0.0,0.0,0.0,0.0,0.0,0.0,0.0,0.0,0.0,0.0,0.0,,,,,0.0,,,,,,
67,2689568,1745086415767,,,,,,,,,,,,,,,,,,,,,,,,,,,,,,,,,,0.0,0.0,0.0,0.0,0.0,0.0,0.0,0.0,0.0,0.0,0.0,0.0,0.0,0.0,0.0,0.0,,,,,,,,,,,
68,2689588,1745086415787,0.0,189.67,,-0.04,-0.02,1.01,0.0,0.0,0.0,1.01,1.08,94.0,3837.0,15.4,3.89,,13.35,1.251,91.6,,40.5,5.0,,,,,,,,,,,,0.0,0.0,0.0,0.0,0.0,0.0,0.0,0.0,0.0,0.0,0.0,0.0,0.0,0.0,0.0,0.0,,,,,0.0,,,,,,
69,2689608,1745086415806,,,,,,,,,,,,,,,,,,,,,,,0.0,0.0,0.0,0.0,0.0,0.0,0.0,0.0,2.27,,,0.0,0.0,0.0,0.0,0.0,0.0,0.0,0.0,0.0,0.0,0.0,0.0,0.0,0.0,0.0,0.0,0.0,,,,,39.240116,-77.964874,0.0,33.0,3.0,0.8
70,2689628,1745086415826,0.0,189.54,,-0.06,-0.04,1.04,0.0,0.0,0.0,1.04,1.08,96.0,3969.0,7.1,3.56,,13.07,1.252,91.6,,42.2,5.0,,,,,,,,,,,,0.0,0.0,0.0,0.0,0.0,0.0,0.0,0.0,0.0,0.0,0.0,0.0,0.0,0.0,0.0,0.0,,,,,0.0,,,,,,
71,2689648,1745086415846,,,,,,,,,,,,,,,,,,,,,,,,,,,,,,,,,,0.0,0.0,0.0,0.0,0.0,0.0,0.0,0.0,0.0,0.0,0.0,0.0,0.0,0.0,0.0,0.0,,,,,,,,,,,
72,2689668,1745086415866,0.0,189.67,,-0.07,-0.12,0.98,1.0,0.0,0.0,0.99,1.08,92.0,3899.0,3.9,4.06,,12.68,1.25,91.6,,42.2,5.0,,,,,,,,,,,,0.0,0.0,0.0,0.0,0.0,0.0,0.0,0.0,0.0,0.0,0.0,0.0,0.0,0.0,0.0,0.0,,,,,0.0,,,,,,
73,2689688,1745086415886,,,,,,,,,,,,,,,,,,,,,,,,,,,,,,,,,,0.0,0.0,0.0,0.0,0.0,0.0,0.0,0.0,0.0,0.0,0.0,0.0,0.0,0.0,0.0,0.0,,,,,,,,,,,
74,2689708,1745086415908,0.0,189.54,13.38,-0.06,-0.09,0.97,1.0,0.0,0.0,0.98,1.08,91.0,3925.0,3.8,4.04,15.0,12.44,1.251,91.6,135.0,42.2,5.0,0.0,0.0,0.0,0.0,0.0,0.0,0.0,0.0,2.27,0.0,0.0,0.0,0.0,0.0,0.0,0.0,0.0,0.0,0.0,0.0,0.0,0.0,0.0,0.0,0.0,0.0,0.0,0.0,0.0,0.0,0.0,0.0,39.240116,-77.964874,0.04,33.0,3.0,0.8
75,2689728,1745086415928,,,,,,,,,,,,,,,,,,,,,,,,,,,,,,,,,,0.0,0.0,0.0,0.0,0.0,0.0,0.0,0.0,0.0,0.0,0.0,0.0,0.0,0.0,0.0,0.0,,,,,,,,,,,
76,2689748,1745086415948,0.0,189.54,,-0.06,-0.08,1.06,-1.0,0.0,1.0,1.07,1.08,99.0,3870.0,3.8,3.93,,12.44,1.251,91.6,,41.0,5.0,,,,,,,,,,,,0.0,0.0,0.0,0.0,0.0,0.0,0.0,0.0,0.0,0.0,0.0,0.0,0.0,0.0,0.0,0.0,,,,,0.0,,,,,,
77,2689768,1745086415968,,,,,,,,,,,,,,,,,,,,,,,,,,,,,,,,,,0.0,0.0,0.0,0.0,0.0,0.0,0.0,0.0,0.0,0.0,0.0,0.0,0.0,0.0,0.0,0.0,,,,,,,,,,,
78,2689788,1745086415988,0.0,189.54,,-0.06,-0.04,1.07,-1.0,0.0,1.0,1.07,1.08,99.0,3870.0,3.8,3.93,,12.33,1.252,91.6,,41.0,5.0,,,,,,,,,,,,0.0,0.0,0.0,0.0,0.0,0.0,0.0,0.0,0.0,0.0,0.0,0.0,0.0,0.0,0.0,0.0,,,,,0.0,,,,,,
79,2689808,1745086415998,,,,,,,,,,,,,,,,,,,,,,,0.0,0.0,0.0,0.0,0.0,0.0,0.0,0.0,2.27,,,0.0,0.0,0.0,0.0,0.0,0.0,0.0,0.0,0.0,0.0,0.0,0.0,0.0,0.0,0.0,0.0,0.0,,,,,39.240116,-77.964874,0.08,34.0,3.0,0.8
80,2689828,1745086416018,0.0,189.54,,-0.06,-0.02,1.05,-1.0,0.0,1.0,1.05,1.08,98.0,3780.0,3.8,3.93,,12.37,1.252,91.6,,39.6,5.0,,,,,,,,,,,,0.0,0.0,0.0,0.0,0.0,0.0,0.0,0.0,0.0,0.0,0.0,0.0,0.0,0.0,0.0,0.0,,,,,0.0,,,,,,
81,2689848,1745086416038,,,,,,,,,,,,,,,,,,,,,,,,,,,,,,,,,,0.0,0.0,0.0,0.0,0.0,0.0,0.0,0.0,0.0,0.0,0.0,0.0,0.0,0.0,0.0,0.0,,,,,,,,,,,
82,2689868,1745086416058,0.0,189.54,,-0.06,-0.01,1.04,0.0,0.0,0.0,1.04,1.08,97.0,3758.0,5.0,3.99,,12.53,1.194,91.6,,39.6,5.0,,,,,,,,,,,,0.0,0.0,0.0,0.0,0.0,0.0,0.0,0.0,0.0,0.0,0.0,0.0,0.0,0.0,0.0,0.0,,,,,0.0,,,,,,
83,2689888,1745086416078,,,,,,,,,,,,,,,,,,,,,,,,,,,,,,,,,,0.0,0.0,0.0,0.0,0.0,0.0,0.0,0.0,0.0,0.0,0.0,0.0,0.0,0.0,0.0,0.0,,,,,,,,,,,
84,2689908,1745086416100,0.0,189.54,,-0.06,-0.03,1.04,0.0,0.0,0.0,1.04,1.08,96.0,3706.0,9.7,3.64,,12.79,1.138,91.6,,39.6,5.0,0.0,0.0,0.0,0.0,0.0,0.0,0.0,0.0,2.26,,,0.0,0.0,0.0,0.0,0.0,0.0,0.0,0.0,0.0,0.0,0.0,0.0,0.0,0.0,0.0,0.0,0.0,,,,0.0,39.240116,-77.964874,0.04,34.0,3.0,0.8
85,2689928,1745086416120,,,,,,,,,,,,,,,,,,,,,,,,,,,,,,,,,,0.0,0.0,0.0,0.0,0.0,0.0,0.0,0.0,0.0,0.0,0.0,0.0,0.0,0.0,0.0,0.0,,,,,,,,,,,
86,2689948,1745086416140,0.0,189.42,,-0.06,0.0,1.02,0.0,0.0,0.0,1.02,1.08,95.0,4108.0,11.2,3.8,,12.79,1.138,91.6,,38.9,5.0,,,,,,,,,,,,0.0,0.0,0.0,0.0,0.0,0.0,0.0,0.0,0.0,0.0,0.0,0.0,0.0,0.0,0.0,0.0,,,,,0.0,,,,,,
87,2689968,1745086416160,,,,,,,,,,,,,,,,,,,,,,,,,,,,,,,,,,0.0,0.0,0.0,0.0,0.0,0.0,0.0,0.0,0.0,0.0,0.0,0.0,0.0,0.0,0.0,0.0,,,,,,,,,,,
88,2689988,1745086416180,0.0,189.42,,-0.07,0.04,0.99,0.0,0.0,0.0,1.0,1.08,92.0,4108.0,11.2,3.8,,13.03,1.13,91.6,,38.9,5.0,,,,,,,,,,,,0.0,0.0,0.0,0.0,0.0,0.0,0.0,0.0,0.0,0.0,0.0,0.0,0.0,0.0,0.0,0.0,,,,,0.0,,,,,,
89,2690008,1745086416206,,,,,,,,,,,,,,,,,,,,,,,0.0,0.0,0.0,0.0,0.0,0.0,0.0,0.0,2.26,,,0.0,0.0,0.0,0.0,0.0,0.0,0.0,0.0,0.0,0.0,0.0,0.0,0.0,0.0,0.0,0.0,0.0,,,,,39.240116,-77.964874,0.1,35.0,3.0,0.8
90,2690028,1745086416226,0.0,189.54,,-0.07,0.01,0.98,0.0,0.0,0.0,0.98,1.08,91.0,3699.0,11.5,3.78,,13.17,1.115,91.6,,37.9,5.0,,,,,,,,,,,,0.0,0.0,0.0,0.0,0.0,0.0,0.0,0.0,0.0,0.0,0.0,0.0,0.0,0.0,0.0,0.0,,,,,0.0,,,,,,
91,2690048,1745086416246,,,,,,,,,,,,,,,,,,,,,,,,,,,,,,,,,,0.0,0.0,0.0,0.0,0.0,0.0,0.0,0.0,0.0,0.0,0.0,0.0,0.0,0.0,0.0,0.0,,,,,,,,,,,
92,2690068,1745086416266,0.0,189.54,,-0.08,-0.06,1.0,0.0,0.0,0.0,1.0,1.08,93.0,3633.0,11.6,3.88,,13.24,1.158,91.6,,37.9,5.0,,,,,,,,,,,,0.0,0.0,0.0,0.0,0.0,0.0,0.0,0.0,0.0,0.0,0.0,0.0,0.0,0.0,0.0,0.0,,,,,0.0,,,,,,
93,2690088,1745086416286,,,,,,,,,,,,,,,,,,,,,,,,,,,,,,,,,,0.0,0.0,0.0,0.0,0.0,0.0,0.0,0.0,0.0,0.0,0.0,0.0,0.0,0.0,0.0,0.0,,,,,,,,,,,
94,2690108,1745086416310,0.0,189.54,,-0.07,-0.01,1.02,0.0,0.0,0.0,1.02,1.08,95.0,3485.0,11.5,3.96,,13.33,1.206,91.6,,37.9,5.0,0.0,0.0,0.0,0.0,0.0,0.0,0.0,0.0,2.27,,,0.0,0.0,0.0,0.0,0.0,0.0,0.0,0.0,0.0,0.0,0.0,0.0,0.0,0.0,0.0,0.0,0.0,,,,0.0,39.240116,-77.964874,0.07,35.0,3.0,0.8
95,2690128,1745086416330,,,,,,,,,,,,,,,,,,,,,,,,,,,,,,,,,,0.0,0.0,0.0,0.0,0.0,0.0,0.0,0.0,0.0,0.0,0.0,0.0,0.0,0.0,0.0,0.0,,,,,,,,,,,
96,2690148,1745086416350,0.0,189.54,,-0.05,-0.01,0.97,0.0,0.0,0.0,0.97,1.08,90.0,3482.0,8.5,3.83,,13.33,1.206,91.6,,35.7,5.0,,,,,,,,,,,,0.0,0.0,0.0,0.0,0.0,0.0,0.0,0.0,0.0,0.0,0.0,0.0,0.0,0.0,0.0,0.0,,,,,0.0,,,,,,
97,2690168,1745086416370,,,,,,,,,,,,,,,,,,,,,,,,,,,,,,,,,,0.0,0.0,0.0,0.0,0.0,0.0,0.0,0.0,0.0,0.0,0.0,0.0,0.0,0.0,0.0,0.0,,,,,,,,,,,
98,2690188,1745086416390,0.0,189.54,,-0.05,-0.1,1.02,0.0,0.0,0.0,1.03,1.08,95.0,3482.0,8.5,3.83,,13.17,1.239,91.6,,35.7,5.0,,,,,,,,,,,,0.0,0.0,0.0,0.0,0.0,0.0,0.0,0.0,0.0,0.0,0.0,0.0,0.0,0.0,0.0,0.0,,,,,0.0,,,,,,
99,2690208,1745086416408,,,,,,,,,,,,,,,,,,,,,,,0.0,0.0,0.0,0.0,0.0,0.0,0.0,0.0,2.27,,,0.0,0.0,0.0,0.0,0.0,0.0,0.0,0.0,0.0,0.0,0.0,0.0,0.0,0.0,0.0,0.0,0.0,,,,,39.240116,-77.964874,0.04,35.0,3.0,0.8
100,2690228,1745086416428,0.0,189.54,,-0.03,-0.0,1.0,0.0,0.0,0.0,1.0,1.08,93.0,3425.0,8.2,3.81,,13.17,1.25,91.6,,35.4,5.0,,,,,,,,,,,,0.0,0.0,0.0,0.0,0.0,0.0,0.0,0.0,0.0,0.0,0.0,0.0,0.0,0.0,0.0,0.0,,,,,0.0,,,,,,
101,2690248,1745086416448,,,,,,,,,,,,,,,,,,,,,,,,,,,,,,,,,,0.0,0.0,0.0,0.0,0.0,0.0,0.0,0.0,0.0,0.0,0.0,0.0,0.0,0.0,0.0,0.0,,,,,,,,,,,
102,2690268,1745086416468,0.0,189.67,,-0.04,-0.02,0.96,0.0,0.0,0.0,0.96,1.08,89.0,3541.0,8.3,3.82,,13.21,1.251,91.6,,35.4,5.0,,,,,,,,,,,,0.0,0.0,0.0,0.0,0.0,0.0,0.0,0.0,0.0,0.0,0.0,0.0,0.0,0.0,0.0,0.0,,,,,0.0,,,,,,
103,2690288,1745086416488,,,,,,,,,,,,,,,,,,,,,,,,,,,,,,,,,,0.0,0.0,0.0,0.0,0.0,0.0,0.0,0.0,0.0,0.0,0.0,0.0,0.0,0.0,0.0,0.0,,,,,,,,,,,
104,2690308,1745086416508,0.0,189.54,,-0.06,-0.04,1.01,0.0,0.0,0.0,1.01,1.08,94.0,3485.0,10.6,3.86,,13.27,1.252,91.6,,35.4,5.0,0.0,0.0,0.0,0.0,0.0,0.0,0.0,0.0,2.27,,,0.0,0.0,0.0,0.0,0.0,0.0,0.0,0.0,0.0,0.0,0.0,0.0,0.0,0.0,0.0,0.0,0.0,,,,0.0,39.240116,-77.964874,0.22,35.0,3.0,0.8
105,2690328,1745086416528,,,,,,,,,,,,,,,,,,,,,,,,,,,,,,,,,,0.0,0.0,0.0,0.0,0.0,0.0,0.0,0.0,0.0,0.0,0.0,0.0,0.0,0.0,0.0,0.0,,,,,,,,,,,
106,2690348,1745086416548,0.0,189.67,,-0.05,0.05,1.01,-1.0,0.0,0.0,1.01,1.08,94.0,3562.0,12.1,4.02,,13.27,1.252,91.6,,36.5,5.0,,,,,,,,,,,,0.0,0.0,0.0,0.0,0.0,0.0,0.0,0.0,0.0,0.0,0.0,0.0,0.0,0.0,0.0,0.0,,,,,0.0,,,,,,
107,2690368,1745086416568,,,,,,,,,,,,,,,,,,,,,,,,,,,,,,,,,,0.0,0.0,0.0,0.0,0.0,0.0,0.0,0.0,0.0,0.0,0.0,0.0,0.0,0.0,0.0,0.0,,,,,,,,,,,
108,2690388,1745086416588,0.0,189.54,,-0.03,0.06,0.96,0.0,0.0,0.0,0.96,1.08,89.0,3562.0,12.1,4.02,,13.36,1.237,91.6,,36.5,5.0,,,,,,,,,,,,0.0,0.0,0.0,0.0,0.0,0.0,0.0,0.0,0.0,0.0,0.0,0.0,0.0,0.0,0.0,0.0,,,,,0.0,,,,,,
109,2690408,1745086416606,,,,,,,,,,,,,,,,,,,,,,,0.0,0.0,0.0,0.0,0.0,0.0,0.0,0.0,2.26,,,0.0,0.0,0.0,0.0,0.0,0.0,0.0,0.0,0.0,0.0,0.0,0.0,0.0,0.0,0.0,0.0,0.0,,,,,39.240116,-77.964874,0.05,35.0,3.0,0.8
110,2690428,1745086416626,0.0,189.42,,-0.05,0.06,0.97,0.0,0.0,0.0,0.98,1.08,91.0,3636.0,12.6,3.99,,13.43,1.244,91.6,,39.2,5.0,,,,,,,,,,,,0.0,0.0,0.0,0.0,0.0,0.0,0.0,0.0,0.0,0.0,0.0,0.0,0.0,0.0,0.0,0.0,,,,,0.0,,,,,,
111,2690448,1745086416646,,,,,,,,,,,,,,,,,,,,,,,,,,,,,,,,,,0.0,0.0,0.0,0.0,0.0,0.0,0.0,0.0,0.0,0.0,0.0,0.0,0.0,0.0,0.0,0.0,,,,,,,,,,,
112,2690468,1745086416666,0.0,189.54,,-0.07,0.0,0.99,0.0,0.0,0.0,0.99,1.08,92.0,3934.0,12.9,3.85,,13.32,1.252,91.6,,39.2,5.0,,,,,,,,,,,,0.0,0.0,0.0,0.0,0.0,0.0,0.0,0.0,0.0,0.0,0.0,0.0,0.0,0.0,0.0,0.0,,,,,0.0,,,,,,
113,2690488,1745086416686,,,,,,,,,,,,,,,,,,,,,,,,,,,,,,,,,,0.0,0.0,0.0,0.0,0.0,0.0,0.0,0.0,0.0,0.0,0.0,0.0,0.0,0.0,0.0,0.0,,,,,,,,,,,
114,2690508,1745086416708,0.0,189.42,,-0.08,-0.08,0.91,0.0,0.0,0.0,0.91,1.08,85.0,3951.0,13.0,3.77,,13.29,1.206,91.6,,39.2,5.0,0.0,0.0,0.0,0.0,0.0,0.0,0.0,0.0,2.26,,,0.0,0.0,0.0,0.0,0.0,0.0,0.0,0.0,0.0,0.0,0.0,0.0,0.0,0.0,0.0,0.0,0.0,,,,0.0,39.240116,-77.964874,0.05,35.0,3.0,0.8
115,2690528,1745086416728,,,,,,,,,,,,,,,,,,,,,,,,,,,,,,,,,,0.0,0.0,0.0,0.0,0.0,0.0,0.0,0.0,0.0,0.0,0.0,0.0,0.0,0.0,0.0,0.0,,,,,,,,,,,
116,2690548,1745086416748,0.0,189.54,,-0.07,0.0,0.93,0.0,0.0,0.0,0.93,1.08,86.0,3980.0,12.9,3.74,,13.29,1.206,91.6,,42.3,5.0,,,,,,,,,,,,0.0,0.0,0.0,0.0,0.0,0.0,0.0,0.0,0.0,0.0,0.0,0.0,0.0,0.0,0.0,0.0,,,,,0.0,,,,,,
117,2690568,1745086416768,,,,,,,,,,,,,,,,,,,,,,,,,,,,,,,,,,0.0,0.0,0.0,0.0,0.0,0.0,0.0,0.0,0.0,0.0,0.0,0.0,0.0,0.0,0.0,0.0,,,,,,,,,,,
118,2690588,1745086416788,0.0,189.42,,-0.08,0.0,0.98,-1.0,0.0,1.0,0.98,1.08,91.0,3980.0,12.9,3.74,,13.15,1.179,91.6,,42.3,5.0,,,,,,,,,,,,0.0,0.0,0.0,0.0,0.0,0.0,0.0,0.0,0.0,0.0,0.0,0.0,0.0,0.0,0.0,0.0,,,,,0.0,,,,,,
119,2690608,1745086416807,,,,,,,,,,,,,,,,,,,,,,,0.0,0.0,0.0,0.0,0.0,0.0,0.0,0.0,2.26,,,0.0,0.0,0.0,0.0,0.0,0.0,0.0,0.0,0.0,0.0,0.0,0.0,0.0,0.0,0.0,0.0,0.0,,,,,39.240116,-77.964874,0.07,35.0,3.0,0.8
120,2690628,1745086416827,0.0,189.42,,-0.09,-0.1,0.87,0.0,0.0,0.0,0.88,1.08,82.0,4028.0,4.6,3.59,,12.8,1.169,91.6,,43.0,5.0,,,,,,,,,,,,0.0,0.0,0.0,0.0,0.0,0.0,0.0,0.0,0.0,0.0,0.0,0.0,0.0,0.0,0.0,0.0,,,,,0.0,,,,,,
121,2690648,1745086416847,,,,,,,,,,,,,,,,,,,,,,,,,,,,,,,,,,0.0,0.0,0.0,0.0,0.0,0.0,0.0,0.0,0.0,0.0,0.0,0.0,0.0,0.0,0.0,0.0,,,,,,,,,,,
122,2690668,1745086416867,0.0,189.42,,-0.08,-0.02,0.91,0.0,0.0,0.0,0.92,1.08,85.0,4000.0,0.0,2.46,,12.24,1.178,91.6,,43.0,5.0,,,,,,,,,,,,0.0,0.0,0.0,0.0,0.0,0.0,0.0,0.0,0.0,0.0,0.0,0.0,0.0,0.0,0.0,0.0,,,,,0.0,,,,,,
123,2690688,1745086416887,,,,,,,,,,,,,,,,,,,,,,,,,,,,,,,,,,0.0,0.0,0.0,0.0,0.0,0.0,0.0,0.0,0.0,0.0,0.0,0.0,0.0,0.0,0.0,0.0,,,,,,,,,,,
124,2690708,1745086416905,0.0,189.29,13.39,-0.07,-0.01,0.96,-1.0,0.0,1.0,0.97,1.08,90.0,3886.0,0.0,2.45,15.0,11.79,1.219,91.6,135.0,43.0,5.0,0.0,0.0,0.0,0.0,0.0,0.0,0.0,0.0,2.27,0.0,0.0,0.0,0.0,0.0,0.0,0.0,0.0,0.0,0.0,0.0,0.0,0.0,0.0,0.0,0.0,0.0,0.0,0.0,0.0,0.0,0.0,0.0,39.240116,-77.964874,0.11,35.0,3.0,0.8
125,2690728,1745086416925,,,,,,,,,,,,,,,,,,,,,,,,,,,,,,,,,,0.0,0.0,0.0,0.0,0.0,0.0,0.0,0.0,0.0,0.0,0.0,0.0,0.0,0.0,0.0,0.0,,,,,,,,,,,
126,2690748,1745086416945,0.0,189.42,,-0.05,0.01,0.96,0.0,0.0,0.0,0.97,1.08,90.0,3952.0,0.0,2.47,,11.79,1.219,91.6,,40.9,5.0,,,,,,,,,,,,0.0,0.0,0.0,0.0,0.0,0.0,0.0,0.0,0.0,0.0,0.0,0.0,0.0,0.0,0.0,0.0,,,,,0.0,,,,,,
127,2690768,1745086416965,,,,,,,,,,,,,,,,,,,,,,,,,,,,,,,,,,0.0,0.0,0.0,0.0,0.0,0.0,0.0,0.0,0.0,0.0,0.0,0.0,0.0,0.0,0.0,0.0,,,,,,,,,,,
128,2690788,1745086416985,0.0,189.42,,-0.07,-0.02,0.96,0.0,0.0,0.0,0.96,1.08,89.0,3952.0,0.0,2.47,,11.6,1.248,91.6,,40.9,5.0,,,,,,,,,,,,0.0,0.0,0.0,0.0,0.0,0.0,0.0,0.0,0.0,0.0,0.0,0.0,0.0,0.0,0.0,0.0,,,,,0.0,,,,,,
129,2690808,1745086416997,,,,,,,,,,,,,,,,,,,,,,,0.0,0.0,0.0,0.0,0.0,0.0,0.0,0.0,2.27,,,0.0,0.0,0.0,0.0,0.0,0.0,0.0,0.0,0.0,0.0,0.0,0.0,0.0,0.0,0.0,0.0,0.0,,,,,39.240116,-77.964874,0.07,36.0,3.0,0.8
130,2690828,1745086417017,0.0,189.29,,-0.07,0.02,0.98,1.0,0.0,0.0,0.98,1.08,91.0,3770.0,0.0,2.48,,11.41,1.251,91.6,,39.0,5.0,,,,,,,,,,,,0.0,0.0,0.0,0.0,0.0,0.0,0.0,0.0,0.0,0.0,0.0,0.0,0.0,0.0,0.0,0.0,,,,,0.0,,,,,,
131,2690848,1745086417037,,,,,,,,,,,,,,,,,,,,,,,,,,,,,,,,,,0.0,0.0,0.0,0.0,0.0,0.0,0.0,0.0,0.0,0.0,0.0,0.0,0.0,0.0,0.0,0.0,,,,,,,,,,,
132,2690868,1745086417057,0.0,189.42,,-0.05,0.08,0.98,1.0,0.0,0.0,0.98,1.08,91.0,3649.0,1.7,2.8,,11.65,1.227,91.6,,39.0,5.0,,,,,,,,,,,,0.0,0.0,0.0,0.0,0.0,0.0,0.0,0.0,0.0,0.0,0.0,0.0,0.0,0.0,0.0,0.0,,,,,0.0,,,,,,
133,2690888,1745086417077,,,,,,,,,,,,,,,,,,,,,,,,,,,,,,,,,,0.0,0.0,0.0,0.0,0.0,0.0,0.0,0.0,0.0,0.0,0.0,0.0,0.0,0.0,0.0,0.0,,,,,,,,,,,
134,2690908,1745086417103,0.0,189.29,,-0.04,0.05,0.93,1.0,0.0,-1.0,0.94,1.08,87.0,3465.0,3.2,3.61,,12.09,1.178,91.6,,39.0,5.0,0.0,0.0,0.0,0.0,0.0,0.0,0.0,0.0,2.27,,,0.0,0.0,0.0,0.0,0.0,0.0,0.0,0.0,0.0,0.0,0.0,0.0,0.0,0.0,0.0,0.0,0.0,,,,0.0,39.240116,-77.964874,0.08,36.0,3.0,0.8
135,2690928,1745086417123,,,,,,,,,,,,,,,,,,,,,,,,,,,,,,,,,,0.0,0.0,0.0,0.0,0.0,0.0,0.0,0.0,0.0,0.0,0.0,0.0,0.0,0.0,0.0,0.0,,,,,,,,,,,
136,2690948,1745086417143,0.0,189.42,,-0.06,0.02,1.01,1.0,0.0,0.0,1.01,1.08,94.0,3390.0,3.8,3.84,,12.09,1.178,91.6,,35.1,5.0,,,,,,,,,,,,0.0,0.0,0.0,0.0,0.0,0.0,0.0,0.0,0.0,0.0,0.0,0.0,0.0,0.0,0.0,0.0,,,,,0.0,,,,,,
137,2690968,1745086417163,,,,,,,,,,,,,,,,,,,,,,,,,,,,,,,,,,0.0,0.0,0.0,0.0,0.0,0.0,0.0,0.0,0.0,0.0,0.0,0.0,0.0,0.0,0.0,0.0,,,,,,,,,,,
138,2690988,1745086417183,0.0,189.42,,-0.05,0.06,0.94,1.0,0.0,-1.0,0.95,1.08,88.0,3390.0,3.8,3.84,,12.49,1.174,91.6,,35.1,5.0,,,,,,,,,,,,0.0,0.0,0.0,0.0,0.0,0.0,0.0,0.0,0.0,0.0,0.0,0.0,0.0,0.0,0.0,0.0,,,,,0.0,,,,,,
139,2691008,1745086417207,,,,,,,,,,,,,,,,,,,,,,,0.0,0.0,0.0,0.0,0.0,0.0,0.0,0.0,2.26,,,0.0,0.0,0.0,0.0,0.0,0.0,0.0,0.0,0.0,0.0,0.0,0.0,0.0,0.0,0.0,0.0,0.0,,,,,39.240116,-77.964874,0.04,36.0,3.0,0.8
140,2691028,1745086417227,0.0,189.42,,-0.06,0.03,1.03,1.0,0.0,0.0,1.03,1.08,95.0,3459.0,4.4,3.99,,12.65,1.184,91.6,,35.8,5.0,,,,,,,,,,,,0.0,0.0,0.0,0.0,0.0,0.0,0.0,0.0,0.0,0.0,0.0,0.0,0.0,0.0,0.0,0.0,,,,,0.0,,,,,,
141,2691048,1745086417247,,,,,,,,,,,,,,,,,,,,,,,,,,,,,,,,,,0.0,0.0,0.0,0.0,0.0,0.0,0.0,0.0,0.0,0.0,0.0,0.0,0.0,0.0,0.0,0.0,,,,,,,,,,,
142,2691068,1745086417267,0.0,189.29,,-0.03,0.06,0.97,1.0,0.0,0.0,0.97,1.08,90.0,3461.0,4.6,3.98,,12.81,1.249,91.6,,35.8,5.0,,,,,,,,,,,,0.0,0.0,0.0,0.0,0.0,0.0,0.0,0.0,0.0,0.0,0.0,0.0,0.0,0.0,0.0,0.0,,,,,0.0,,,,,,
143,2691088,1745086417287,,,,,,,,,,,,,,,,,,,,,,,,,,,,,,,,,,0.0,0.0,0.0,0.0,0.0,0.0,0.0,0.0,0.0,0.0,0.0,0.0,0.0,0.0,0.0,0.0,,,,,,,,,,,
144,2691108,1745086417307,0.0,189.29,,-0.06,0.03,0.96,1.0,0.0,0.0,0.96,1.08,89.0,3615.0,4.5,4.0,,12.8,1.224,91.6,,35.8,5.0,0.0,0.0,0.0,0.0,0.0,0.0,0.0,0.0,2.26,,,0.0,0.0,0.0,0.0,0.0,0.0,0.0,0.0,0.0,0.0,0.0,0.0,0.0,0.0,0.0,0.0,0.0,,,,0.0,39.240116,-77.964874,0.13,36.0,3.0,0.8
145,2691128,1745086417327,,,,,,,,,,,,,,,,,,,,,,,,,,,,,,,,,,0.0,0.0,0.0,0.0,0.0,0.0,0.0,0.0,0.0,0.0,0.0,0.0,0.0,0.0,0.0,0.0,,,,,,,,,,,
146,2691148,1745086417347,0.0,189.42,,-0.07,-0.01,0.99,1.0,0.0,0.0,0.99,1.08,92.0,3584.0,4.4,3.99,,12.8,1.224,91.6,,37.7,5.0,,,,,,,,,,,,0.0,0.0,0.0,0.0,0.0,0.0,0.0,0.0,0.0,0.0,0.0,0.0,0.0,0.0,0.0,0.0,,,,,0.0,,,,,,
147,2691168,1745086417367,,,,,,,,,,,,,,,,,,,,,,,,,,,,,,,,,,0.0,0.0,0.0,0.0,0.0,0.0,0.0,0.0,0.0,0.0,0.0,0.0,0.0,0.0,0.0,0.0,,,,,,,,,,,
148,2691188,1745086417387,0.0,189.42,,-0.07,0.04,1.01,0.0,0.0,0.0,1.01,1.08,94.0,3584.0,4.4,3.99,,12.69,1.119,91.6,,37.7,5.0,,,,,,,,,,,,0.0,0.0,0.0,0.0,0.0,0.0,0.0,0.0,0.0,0.0,0.0,0.0,0.0,0.0,0.0,0.0,,,,,0.0,,,,,,
149,2691208,1745086417407,,,,,,,,,,,,,,,,,,,,,,,0.0,0.0,0.0,0.0,0.0,0.0,0.0,0.0,2.27,,,0.0,0.0,0.0,0.0,0.0,0.0,0.0,0.0,0.0,0.0,0.0,0.0,0.0,0.0,0.0,0.0,0.0,,,,,39.240116,-77.964874,0.06,36.0,3.0,0.8
150,2691228,1745086417427,0.0,189.42,,-0.05,0.08,0.98,0.0,0.0,0.0,0.98,1.08,91.0,3538.0,4.3,3.99,,12.63,1.046,91.6,,37.0,5.0,,,,,,,,,,,,0.0,0.0,0.0,0.0,0.0,0.0,0.0,0.0,0.0,0.0,0.0,0.0,0.0,0.0,0.0,0.0,,,,,0.0,,,,,,
151,2691248,1745086417447,,,,,,,,,,,,,,,,,,,,,,,,,,,,,,,,,,0.0,0.0,0.0,0.0,0.0,0.0,0.0,0.0,0.0,0.0,0.0,0.0,0.0,0.0,0.0,0.0,,,,,,,,,,,
152,2691268,1745086417467,0.0,189.42,,-0.08,0.03,0.97,1.0,0.0,0.0,0.97,1.08,90.0,3514.0,4.4,3.99,,12.67,1.019,91.6,,37.0,5.0,,,,,,,,,,,,0.0,0.0,0.0,0.0,0.0,0.0,0.0,0.0,0.0,0.0,0.0,0.0,0.0,0.0,0.0,0.0,,,,,0.0,,,,,,
153,2691288,1745086417487,,,,,,,,,,,,,,,,,,,,,,,,,,,,,,,,,,0.0,0.0,0.0,0.0,0.0,0.0,0.0,0.0,0.0,0.0,0.0,0.0,0.0,0.0,0.0,0.0,,,,,,,,,,,
154,2691308,1745086417507,0.0,189.29,,-0.08,0.07,1.03,0.0,0.0,0.0,1.03,1.08,96.0,3457.0,4.4,3.99,,12.77,1.052,91.6,,37.0,5.0,0.0,0.0,0.0,0.0,0.0,0.0,0.0,0.0,2.27,,,0.0,0.0,0.0,0.0,0.0,0.0,0.0,0.0,0.0,0.0,0.0,0.0,0.0,0.0,0.0,0.0,0.0,,,,0.0,39.240116,-77.964874,0.05,36.0,3.0,0.8
155,2691328,1745086417527,,,,,,,,,,,,,,,,,,,,,,,,,,,,,,,,,,0.0,0.0,0.0,0.0,0.0,0.0,0.0,0.0,0.0,0.0,0.0,0.0,0.0,0.0,0.0,0.0,,,,,,,,,,,
156,2691348,1745086417547,0.0,189.42,,-0.07,0.03,0.95,1.0,0.0,0.0,0.95,1.08,88.0,3345.0,5.5,3.96,,12.77,1.052,91.6,,35.3,5.0,,,,,,,,,,,,0.0,0.0,0.0,0.0,0.0,0.0,0.0,0.0,0.0,0.0,0.0,0.0,0.0,0.0,0.0,0.0,,,,,0.0,,,,,,
157,2691368,1745086417567,,,,,,,,,,,,,,,,,,,,,,,,,,,,,,,,,,0.0,0.0,0.0,0.0,0.0,0.0,0.0,0.0,0.0,0.0,0.0,0.0,0.0,0.0,0.0,0.0,,,,,,,,,,,
158,2691388,1745086417587,0.0,189.29,,-0.08,0.02,1.02,0.0,0.0,0.0,1.02,1.08,95.0,3345.0,5.5,3.96,,12.92,1.099,91.6,,35.3,5.0,,,,,,,,,,,,0.0,0.0,0.0,0.0,0.0,0.0,0.0,0.0,0.0,0.0,0.0,0.0,0.0,0.0,0.0,0.0,,,,,0.0,,,,,,
159,2691408,1745086417607,,,,,,,,,,,,,,,,,,,,,,,0.0,0.0,0.0,0.0,0.0,0.0,0.0,0.0,2.27,,,0.0,0.0,0.0,0.0,0.0,0.0,0.0,0.0,0.0,0.0,0.0,0.0,0.0,0.0,0.0,0.0,0.0,,,,,39.240116,-77.964874,0.04,36.0,3.0,0.8
160,2691428,1745086417627,0.0,189.29,,-0.07,0.01,0.94,1.0,0.0,0.0,0.94,1.08,88.0,3391.0,6.0,3.96,,13.05,1.114,91.6,,34.6,5.0,,,,,,,,,,,,0.0,0.0,0.0,0.0,0.0,0.0,0.0,0.0,0.0,0.0,0.0,0.0,0.0,0.0,0.0,0.0,,,,,0.0,,,,,,
161,2691448,1745086417647,,,,,,,,,,,,,,,,,,,,,,,,,,,,,,,,,,0.0,0.0,0.0,0.0,0.0,0.0,0.0,0.0,0.0,0.0,0.0,0.0,0.0,0.0,0.0,0.0,,,,,,,,,,,
162,2691468,1745086417667,0.0,189.42,,-0.06,0.04,1.0,0.0,0.0,0.0,1.0,1.08,93.0,0.0,6.3,3.87,,13.08,1.137,91.6,,34.6,5.0,,,,,,,,,,,,0.0,0.0,0.0,0.0,0.0,0.0,0.0,0.0,0.0,0.0,0.0,0.0,0.0,0.0,0.0,0.0,,,,,0.0,,,,,,
163,2691488,1745086417687,,,,,,,,,,,,,,,,,,,,,,,,,,,,,,,,,,0.0,0.0,0.0,0.0,0.0,0.0,0.0,0.0,0.0,0.0,0.0,0.0,0.0,0.0,0.0,0.0,,,,,,,,,,,
164,2691508,1745086417709,0.0,189.29,,-0.05,0.02,0.95,1.0,0.0,0.0,0.95,1.08,88.0,3466.0,6.5,3.94,,13.12,1.19,91.6,,34.6,5.0,0.0,0.0,0.0,0.0,0.0,0.0,0.0,0.0,2.26,,,0.0,0.0,0.0,0.0,0.0,0.0,0.0,0.0,0.0,0.0,0.0,0.0,0.0,0.0,0.0,0.0,0.0,,,,0.0,39.240116,-77.964874,0.05,36.0,3.0,0.8
165,2691528,1745086417729,,,,,,,,,,,,,,,,,,,,,,,,,,,,,,,,,,0.0,0.0,0.0,0.0,0.0,0.0,0.0,0.0,0.0,0.0,0.0,0.0,0.0,0.0,0.0,0.0,,,,,,,,,,,
166,2691548,1745086417749,0.0,189.42,,-0.05,0.02,1.02,0.0,0.0,0.0,1.02,1.08,94.0,3490.0,6.8,3.89,,13.12,1.19,91.6,,35.4,5.0,,,,,,,,,,,,0.0,0.0,0.0,0.0,0.0,0.0,0.0,0.0,0.0,0.0,0.0,0.0,0.0,0.0,0.0,0.0,,,,,0.0,,,,,,
167,2691568,1745086417769,,,,,,,,,,,,,,,,,,,,,,,,,,,,,,,,,,0.0,0.0,0.0,0.0,0.0,0.0,0.0,0.0,0.0,0.0,0.0,0.0,0.0,0.0,0.0,0.0,,,,,,,,,,,
168,2691588,1745086417789,0.0,189.29,,-0.03,0.09,0.97,0.0,0.0,0.0,0.98,1.08,91.0,3490.0,6.8,3.89,,13.05,1.252,91.6,,35.4,5.0,,,,,,,,,,,,0.0,0.0,0.0,0.0,0.0,0.0,0.0,0.0,0.0,0.0,0.0,0.0,0.0,0.0,0.0,0.0,,,,,0.0,,,,,,
169,2691608,1745086417806,,,,,,,,,,,,,,,,,,,,,,,0.0,0.0,0.0,0.0,0.0,0.0,0.0,0.0,2.27,,,0.0,0.0,0.0,0.0,0.0,0.0,0.0,0.0,0.0,0.0,0.0,0.0,0.0,0.0,0.0,0.0,0.0,,,,,39.240116,-77.964874,0.08,36.0,3.0,0.8
170,2691628,1745086417826,0.0,189.29,,-0.05,0.02,1.0,0.0,0.0,0.0,1.0,1.08,93.0,3441.0,7.0,3.87,,13.09,1.239,91.6,,34.4,5.0,,,,,,,,,,,,0.0,0.0,0.0,0.0,0.0,0.0,0.0,0.0,0.0,0.0,0.0,0.0,0.0,0.0,0.0,0.0,,,,,0.0,,,,,,
171,2691648,1745086417846,,,,,,,,,,,,,,,,,,,,,,,,,,,,,,,,,,0.0,0.0,0.0,0.0,0.0,0.0,0.0,0.0,0.0,0.0,0.0,0.0,0.0,0.0,0.0,0.0,,,,,,,,,,,
172,2691668,1745086417866,0.0,189.29,,-0.03,0.11,1.0,0.0,0.0,0.0,1.0,1.08,93.0,3404.0,7.0,3.9,,13.12,1.187,91.6,,34.4,5.0,,,,,,,,,,,,0.0,0.0,0.0,0.0,0.0,0.0,0.0,0.0,0.0,0.0,0.0,0.0,0.0,0.0,0.0,0.0,,,,,0.0,,,,,,
173,2691688,1745086417886,,,,,,,,,,,,,,,,,,,,,,,,,,,,,,,,,,0.0,0.0,0.0,0.0,0.0,0.0,0.0,0.0,0.0,0.0,0.0,0.0,0.0,0.0,0.0,0.0,,,,,,,,,,,
174,2691708,1745086417908,0.0,189.29,13.43,-0.04,-0.0,1.01,0.0,0.0,0.0,1.01,1.08,94.0,3310.0,6.9,3.91,15.0,13.2,1.17,91.6,135.0,34.4,5.0,0.0,0.0,0.0,0.0,0.0,0.0,0.0,0.0,2.27,0.0,0.0,0.0,0.0,0.0,0.0,0.0,0.0,0.0,0.0,0.0,0.0,0.0,0.0,0.0,0.0,0.0,0.0,0.0,0.0,0.0,0.0,0.0,39.240116,-77.964874,0.04,36.0,3.0,0.8
175,2691728,1745086417928,,,,,,,,,,,,,,,,,,,,,,,,,,,,,,,,,,0.0,0.0,0.0,0.0,0.0,0.0,0.0,0.0,0.0,0.0,0.0,0.0,0.0,0.0,0.0,0.0,,,,,,,,,,,
176,2691748,1745086417948,0.0,189.29,,-0.03,0.09,1.0,0.0,0.0,0.0,1.0,1.08,93.0,3396.0,5.6,3.92,,13.2,1.17,91.6,,34.8,5.0,,,,,,,,,,,,0.0,0.0,0.0,0.0,0.0,0.0,0.0,0.0,0.0,0.0,0.0,0.0,0.0,0.0,0.0,0.0,,,,,0.0,,,,,,
177,2691768,1745086417968,,,,,,,,,,,,,,,,,,,,,,,,,,,,,,,,,,0.0,0.0,0.0,0.0,0.0,0.0,0.0,0.0,0.0,0.0,0.0,0.0,0.0,0.0,0.0,0.0,,,,,,,,,,,
178,2691788,1745086417988,0.0,189.29,,-0.04,-0.02,1.01,0.0,0.0,0.0,1.01,1.08,94.0,3396.0,5.6,3.92,,13.04,1.193,91.6,,34.8,5.0,,,,,,,,,,,,0.0,0.0,0.0,0.0,0.0,0.0,0.0,0.0,0.0,0.0,0.0,0.0,0.0,0.0,0.0,0.0,,,,,0.0,,,,,,
179,2691808,1745086417998,,,,,,,,,,,,,,,,,,,,,,,0.0,0.0,0.0,0.0,0.0,0.0,0.0,0.0,2.27,,,0.0,0.0,0.0,0.0,0.0,0.0,0.0,0.0,0.0,0.0,0.0,0.0,0.0,0.0,0.0,0.0,0.0,,,,,39.240116,-77.964874,0.11,34.0,3.0,0.8
180,2691828,1745086418018,0.0,189.29,,-0.03,0.06,0.97,0.0,0.0,0.0,0.97,1.08,90.0,3334.0,4.4,4.0,,12.99,1.217,91.6,,34.6,5.0,,,,,,,,,,,,0.0,0.0,0.0,0.0,0.0,0.0,0.0,0.0,0.0,0.0,0.0,0.0,0.0,0.0,0.0,0.0,,,,,0.0,,,,,,
181,2691848,1745086418038,,,,,,,,,,,,,,,,,,,,,,,,,,,,,,,,,,0.0,0.0,0.0,0.0,0.0,0.0,0.0,0.0,0.0,0.0,0.0,0.0,0.0,0.0,0.0,0.0,,,,,,,,,,,
182,2691868,1745086418058,0.0,189.29,,-0.03,-0.03,1.03,0.0,0.0,0.0,1.03,1.08,96.0,3309.0,4.3,4.01,,12.93,1.22,91.6,,34.6,5.0,,,,,,,,,,,,0.0,0.0,0.0,0.0,0.0,0.0,0.0,0.0,0.0,0.0,0.0,0.0,0.0,0.0,0.0,0.0,,,,,0.0,,,,,,
183,2691888,1745086418078,,,,,,,,,,,,,,,,,,,,,,,,,,,,,,,,,,0.0,0.0,0.0,0.0,0.0,0.0,0.0,0.0,0.0,0.0,0.0,0.0,0.0,0.0,0.0,0.0,,,,,,,,,,,
184,2691908,1745086418106,0.0,189.29,,-0.04,-0.01,0.96,0.0,0.0,0.0,0.96,1.08,89.0,3319.0,4.5,4.01,,12.97,1.225,91.6,,34.6,5.0,0.0,0.0,0.0,0.0,0.0,0.0,0.0,0.0,2.27,,,0.0,0.0,0.0,0.0,0.0,0.0,0.0,0.0,0.0,0.0,0.0,0.0,0.0,0.0,0.0,0.0,0.0,,,,0.0,39.240116,-77.964874,0.05,34.0,3.0,0.8
185,2691928,1745086418126,,,,,,,,,,,,,,,,,,,,,,,,,,,,,,,,,,0.0,0.0,0.0,0.0,0.0,0.0,0.0,0.0,0.0,0.0,0.0,0.0,0.0,0.0,0.0,0.0,,,,,,,,,,,
186,2691948,1745086418146,0.0,189.29,,-0.03,0.0,1.01,0.0,0.0,0.0,1.01,1.08,94.0,3273.0,8.7,3.9,,12.97,1.225,91.6,,34.0,5.0,,,,,,,,,,,,0.0,0.0,0.0,0.0,0.0,0.0,0.0,0.0,0.0,0.0,0.0,0.0,0.0,0.0,0.0,0.0,,,,,0.0,,,,,,
187,2691968,1745086418166,,,,,,,,,,,,,,,,,,,,,,,,,,,,,,,,,,0.0,0.0,0.0,0.0,0.0,0.0,0.0,0.0,0.0,0.0,0.0,0.0,0.0,0.0,0.0,0.0,,,,,,,,,,,
188,2691988,1745086418186,0.0,189.29,,-0.05,-0.05,0.99,0.0,0.0,0.0,0.99,1.08,92.0,3273.0,8.7,3.9,,13.19,1.193,91.6,,34.0,5.0,,,,,,,,,,,,0.0,0.0,0.0,0.0,0.0,0.0,0.0,0.0,0.0,0.0,0.0,0.0,0.0,0.0,0.0,0.0,,,,,0.0,,,,,,
189,2692008,1745086418208,,,,,,,,,,,,,,,,,,,,,,,0.0,0.0,0.0,0.0,0.0,0.0,0.0,0.0,2.26,,,0.0,0.0,0.0,0.0,0.0,0.0,0.0,0.0,0.0,0.0,0.0,0.0,0.0,0.0,0.0,0.0,0.0,,,,,39.240116,-77.964874,0.14,34.0,3.0,0.8
190,2692028,1745086418228,0.0,189.29,,-0.03,-0.01,1.02,-1.0,0.0,1.0,1.03,1.08,95.0,3401.0,10.4,4.03,,13.36,1.18,91.6,,34.4,5.0,,,,,,,,,,,,0.0,0.0,0.0,0.0,0.0,0.0,0.0,0.0,0.0,0.0,0.0,0.0,0.0,0.0,0.0,0.0,,,,,0.0,,,,,,
191,2692048,1745086418248,,,,,,,,,,,,,,,,,,,,,,,,,,,,,,,,,,0.0,0.0,0.0,0.0,0.0,0.0,0.0,0.0,0.0,0.0,0.0,0.0,0.0,0.0,0.0,0.0,,,,,,,,,,,
192,2692068,1745086418268,0.0,189.29,,-0.02,-0.04,0.96,0.0,0.0,0.0,0.96,1.08,89.0,3438.0,10.8,4.01,,13.41,1.174,91.6,,34.4,5.0,,,,,,,,,,,,0.0,0.0,0.0,0.0,0.0,0.0,0.0,0.0,0.0,0.0,0.0,0.0,0.0,0.0,0.0,0.0,,,,,0.0,,,,,,
193,2692088,1745086418288,,,,,,,,,,,,,,,,,,,,,,,,,,,,,,,,,,0.0,0.0,0.0,0.0,0.0,0.0,0.0,0.0,0.0,0.0,0.0,0.0,0.0,0.0,0.0,0.0,,,,,,,,,,,
194,2692108,1745086418308,0.0,189.29,,-0.05,-0.09,1.0,0.0,0.0,0.0,1.0,1.08,93.0,3462.0,11.4,3.95,,13.45,1.181,91.6,,34.4,5.0,0.0,0.0,0.0,0.0,0.0,0.0,0.0,0.0,2.26,,,0.0,0.0,0.0,0.0,0.0,0.0,0.0,0.0,0.0,0.0,0.0,0.0,0.0,0.0,0.0,0.0,0.0,,,,0.0,39.240116,-77.964874,0.04,34.0,3.0,0.8
195,2692128,1745086418328,,,,,,,,,,,,,,,,,,,,,,,,,,,,,,,,,,0.0,0.0,0.0,0.0,0.0,0.0,0.0,0.0,0.0,0.0,0.0,0.0,0.0,0.0,0.0,0.0,,,,,,,,,,,
196,2692148,1745086418348,0.0,189.29,,-0.05,-0.08,1.02,0.0,0.0,0.0,1.02,1.08,95.0,3707.0,11.7,3.89,,13.45,1.181,91.6,,37.4,5.0,,,,,,,,,,,,0.0,0.0,0.0,0.0,0.0,0.0,0.0,0.0,0.0,0.0,0.0,0.0,0.0,0.0,0.0,0.0,,,,,0.0,,,,,,
197,2692168,1745086418368,,,,,,,,,,,,,,,,,,,,,,,,,,,,,,,,,,0.0,0.0,0.0,0.0,0.0,0.0,0.0,0.0,0.0,0.0,0.0,0.0,0.0,0.0,0.0,0.0,,,,,,,,,,,
198,2692188,1745086418388,0.0,189.29,,-0.05,-0.07,1.0,0.0,0.0,0.0,1.01,1.08,93.0,3707.0,11.7,3.89,,13.32,1.242,91.6,,37.4,5.0,,,,,,,,,,,,0.0,0.0,0.0,0.0,0.0,0.0,0.0,0.0,0.0,0.0,0.0,0.0,0.0,0.0,0.0,0.0,,,,,0.0,,,,,,
199,2692208,1745086418406,,,,,,,,,,,,,,,,,,,,,,,0.0,0.0,0.0,0.0,0.0,0.0,0.0,0.0,2.27,,,0.0,0.0,0.0,0.0,0.0,0.0,0.0,0.0,0.0,0.0,0.0,0.0,0.0,0.0,0.0,0.0,0.0,,,,,39.240116,-77.964874,0.19,34.0,3.0,0.8
200,2692228,1745086418426,0.0,189.17,,-0.06,-0.05,0.98,0.0,0.0,0.0,0.99,1.08,91.0,3785.0,11.6,3.87,,13.28,1.251,91.6,,39.2,5.0,,,,,,,,,,,,0.0,0.0,0.0,0.0,0.0,0.0,0.0,0.0,0.0,0.0,0.0,0.0,0.0,0.0,0.0,0.0,,,,,0.0,,,,,,
201,2692248,1745086418446,,,,,,,,,,,,,,,,,,,,,,,,,,,,,,,,,,0.0,0.0,0.0,0.0,0.0,0.0,0.0,0.0,0.0,0.0,0.0,0.0,0.0,0.0,0.0,0.0,,,,,,,,,,,
202,2692268,1745086418466,0.0,189.17,,-0.08,-0.04,0.95,0.0,0.0,0.0,0.96,1.08,89.0,3743.0,11.5,3.8,,13.15,1.187,91.6,,39.2,5.0,,,,,,,,,,,,0.0,0.0,0.0,0.0,0.0,0.0,0.0,0.0,0.0,0.0,0.0,0.0,0.0,0.0,0.0,0.0,,,,,0.0,,,,,,
203,2692288,1745086418486,,,,,,,,,,,,,,,,,,,,,,,,,,,,,,,,,,0.0,0.0,0.0,0.0,0.0,0.0,0.0,0.0,0.0,0.0,0.0,0.0,0.0,0.0,0.0,0.0,,,,,,,,,,,
204,2692308,1745086418508,0.0,189.17,,-0.07,-0.06,0.96,1.0,0.0,0.0,0.96,1.08,89.0,3880.0,5.7,3.74,,12.88,1.181,91.6,,39.2,5.0,0.0,0.0,0.0,0.0,0.0,0.0,0.0,0.0,2.27,,,0.0,0.0,0.0,0.0,0.0,0.0,0.0,0.0,0.0,0.0,0.0,0.0,0.0,0.0,0.0,0.0,0.0,,,,0.0,39.240116,-77.964874,0.3,34.0,3.0,0.8
205,2692328,1745086418528,,,,,,,,,,,,,,,,,,,,,,,,,,,,,,,,,,0.0,0.0,0.0,0.0,0.0,0.0,0.0,0.0,0.0,0.0,0.0,0.0,0.0,0.0,0.0,0.0,,,,,,,,,,,
206,2692348,1745086418548,0.0,189.17,,-0.04,-0.03,0.97,1.0,0.0,0.0,0.97,1.08,90.0,0.0,4.4,3.81,,12.88,1.181,91.6,,40.8,5.0,,,,,,,,,,,,0.0,0.0,0.0,0.0,0.0,0.0,0.0,0.0,0.0,0.0,0.0,0.0,0.0,0.0,0.0,0.0,,,,,0.0,,,,,,
207,2692368,1745086418568,,,,,,,,,,,,,,,,,,,,,,,,,,,,,,,,,,0.0,0.0,0.0,0.0,0.0,0.0,0.0,0.0,0.0,0.0,0.0,0.0,0.0,0.0,0.0,0.0,,,,,,,,,,,
208,2692388,1745086418588,0.0,189.17,,-0.04,0.04,0.99,1.0,0.0,0.0,0.99,1.08,92.0,0.0,4.4,3.81,,12.59,1.222,91.6,,40.8,5.0,,,,,,,,,,,,0.0,0.0,0.0,0.0,0.0,0.0,0.0,0.0,0.0,0.0,0.0,0.0,0.0,0.0,0.0,0.0,,,,,0.0,,,,,,
209,2692408,1745086418610,,,,,,,,,,,,,,,,,,,,,,,0.0,0.0,0.0,0.0,0.0,0.0,0.0,0.0,2.27,,,0.0,0.0,0.0,0.0,0.0,0.0,0.0,0.0,0.0,0.0,0.0,0.0,0.0,0.0,0.0,0.0,0.0,,,,,39.240116,-77.964874,0.16,34.0,3.0,0.8
210,2692428,1745086418630,0.0,189.17,,-0.03,0.05,0.99,1.0,0.0,0.0,0.99,1.08,92.0,3835.0,4.1,4.02,,12.52,1.25,91.6,,40.2,5.0,,,,,,,,,,,,0.0,0.0,0.0,0.0,0.0,0.0,0.0,0.0,0.0,0.0,0.0,0.0,0.0,0.0,0.0,0.0,,,,,0.0,,,,,,
211,2692448,1745086418650,,,,,,,,,,,,,,,,,,,,,,,,,,,,,,,,,,0.0,0.0,0.0,0.0,0.0,0.0,0.0,0.0,0.0,0.0,0.0,0.0,0.0,0.0,0.0,0.0,,,,,,,,,,,
212,2692468,1745086418670,0.0,189.17,,-0.05,0.04,0.95,1.0,0.0,0.0,0.95,1.08,88.0,3764.0,4.1,4.03,,12.44,1.216,91.6,,40.2,5.0,,,,,,,,,,,,0.0,0.0,0.0,0.0,0.0,0.0,0.0,0.0,0.0,0.0,0.0,0.0,0.0,0.0,0.0,0.0,,,,,0.0,,,,,,
213,2692488,1745086418690,,,,,,,,,,,,,,,,,,,,,,,,,,,,,,,,,,0.0,0.0,0.0,0.0,0.0,0.0,0.0,0.0,0.0,0.0,0.0,0.0,0.0,0.0,0.0,0.0,,,,,,,,,,,
214,2692508,1745086418710,0.0,189.17,,-0.06,0.02,0.94,1.0,0.0,0.0,0.95,1.08,88.0,3652.0,4.0,4.0,,12.41,1.131,91.6,,40.2,5.0,0.0,0.0,0.0,0.0,0.0,0.0,0.0,0.0,2.26,,,0.0,0.0,0.0,0.0,0.0,0.0,0.0,0.0,0.0,0.0,0.0,0.0,0.0,0.0,0.0,0.0,0.0,,,,0.0,39.240116,-77.964874,0.24,34.0,3.0,0.8
215,2692528,1745086418730,,,,,,,,,,,,,,,,,,,,,,,,,,,,,,,,,,0.0,0.0,0.0,0.0,0.0,0.0,0.0,0.0,0.0,0.0,0.0,0.0,0.0,0.0,0.0,0.0,,,,,,,,,,,
216,2692548,1745086418750,0.0,189.17,,-0.07,-0.01,0.97,1.0,0.0,0.0,0.97,1.08,90.0,3565.0,4.1,4.01,,12.41,1.131,91.6,,38.1,5.0,,,,,,,,,,,,0.0,0.0,0.0,0.0,0.0,0.0,0.0,0.0,0.0,0.0,0.0,0.0,0.0,0.0,0.0,0.0,,,,,0.0,,,,,,
217,2692568,1745086418770,,,,,,,,,,,,,,,,,,,,,,,,,,,,,,,,,,0.0,0.0,0.0,0.0,0.0,0.0,0.0,0.0,0.0,0.0,0.0,0.0,0.0,0.0,0.0,0.0,,,,,,,,,,,
218,2692588,1745086418790,0.0,189.17,,-0.06,0.04,0.99,0.0,0.0,0.0,0.99,1.08,92.0,3565.0,4.1,4.01,,12.47,1.109,91.6,,38.1,5.0,,,,,,,,,,,,0.0,0.0,0.0,0.0,0.0,0.0,0.0,0.0,0.0,0.0,0.0,0.0,0.0,0.0,0.0,0.0,,,,,0.0,,,,,,
219,2692608,1745086418807,,,,,,,,,,,,,,,,,,,,,,,0.0,0.0,0.0,0.0,0.0,0.0,0.0,0.0,2.26,,,0.0,0.0,0.0,0.0,0.0,0.0,0.0,0.0,0.0,0.0,0.0,0.0,0.0,0.0,0.0,0.0,0.0,,,,,39.240116,-77.964874,0.32,34.0,3.0,0.8
220,2692628,1745086418827,0.0,189.17,,-0.05,0.02,0.93,0.0,0.0,0.0,0.93,1.08,87.0,3521.0,0.0,3.65,,12.36,1.096,91.6,,35.6,5.0,,,,,,,,,,,,0.0,0.0,0.0,0.0,0.0,0.0,0.0,0.0,0.0,0.0,0.0,0.0,0.0,0.0,0.0,0.0,,,,,0.0,,,,,,
221,2692648,1745086418847,,,,,,,,,,,,,,,,,,,,,,,,,,,,,,,,,,0.0,0.0,0.0,0.0,0.0,0.0,0.0,0.0,0.0,0.0,0.0,0.0,0.0,0.0,0.0,0.0,,,,,,,,,,,
222,2692668,1745086418867,0.0,189.29,,-0.04,0.03,0.99,0.0,0.0,0.0,0.99,1.08,92.0,3344.0,0.0,3.03,,12.19,1.095,91.6,,35.6,5.0,,,,,,,,,,,,0.0,0.0,0.0,0.0,0.0,0.0,0.0,0.0,0.0,0.0,0.0,0.0,0.0,0.0,0.0,0.0,,,,,0.0,,,,,,
223,2692688,1745086418887,,,,,,,,,,,,,,,,,,,,,,,,,,,,,,,,,,0.0,0.0,0.0,0.0,0.0,0.0,0.0,0.0,0.0,0.0,0.0,0.0,0.0,0.0,0.0,0.0,,,,,,,,,,,
224,2692708,1745086418909,0.0,189.29,13.4,-0.07,-0.02,1.03,0.0,0.0,0.0,1.03,1.08,95.0,3199.0,0.0,3.09,15.0,12.08,1.089,91.6,135.0,35.6,5.0,0.0,0.0,0.0,0.0,0.0,0.0,0.0,0.0,2.26,0.0,0.0,0.0,0.0,0.0,0.0,0.0,0.0,0.0,0.0,0.0,0.0,0.0,0.0,0.0,0.0,0.0,0.0,0.0,0.0,0.0,0.0,0.0,39.240116,-77.964874,0.08,34.0,3.0,0.8
225,2692728,1745086418929,,,,,,,,,,,,,,,,,,,,,,,,,,,,,,,,,,0.0,0.0,0.0,0.0,0.0,0.0,0.0,0.0,0.0,0.0,0.0,0.0,0.0,0.0,0.0,0.0,,,,,,,,,,,
226,2692748,1745086418949,0.0,189.29,,-0.06,0.02,0.94,0.0,0.0,0.0,0.94,1.08,87.0,3267.0,0.0,3.06,,12.08,1.089,91.6,,34.0,5.0,,,,,,,,,,,,0.0,0.0,0.0,0.0,0.0,0.0,0.0,0.0,0.0,0.0,0.0,0.0,0.0,0.0,0.0,0.0,,,,,0.0,,,,,,
227,2692768,1745086418969,,,,,,,,,,,,,,,,,,,,,,,,,,,,,,,,,,0.0,0.0,0.0,0.0,0.0,0.0,0.0,0.0,0.0,0.0,0.0,0.0,0.0,0.0,0.0,0.0,,,,,,,,,,,
228,2692788,1745086418989,0.0,189.29,,-0.05,0.01,1.0,0.0,0.0,0.0,1.0,1.08,93.0,3267.0,0.0,3.06,,11.99,1.113,91.6,,34.0,5.0,,,,,,,,,,,,0.0,0.0,0.0,0.0,0.0,0.0,0.0,0.0,0.0,0.0,0.0,0.0,0.0,0.0,0.0,0.0,,,,,0.0,,,,,,
229,2692808,1745086418999,,,,,,,,,,,,,,,,,,,,,,,0.0,0.0,0.0,0.0,0.0,0.0,0.0,0.0,2.27,,,0.0,0.0,0.0,0.0,0.0,0.0,0.0,0.0,0.0,0.0,0.0,0.0,0.0,0.0,0.0,0.0,0.0,,,,,39.240116,-77.964874,0.59,32.0,3.0,0.8
230,2692828,1745086419019,0.0,189.29,,-0.07,-0.04,1.06,0.0,0.0,0.0,1.06,1.08,98.0,3219.0,0.0,2.76,,12.01,1.131,91.6,,31.7,5.0,,,,,,,,,,,,0.0,0.0,0.0,0.0,0.0,0.0,0.0,0.0,0.0,0.0,0.0,0.0,0.0,0.0,0.0,0.0,,,,,0.0,,,,,,
231,2692848,1745086419039,,,,,,,,,,,,,,,,,,,,,,,,,,,,,,,,,,0.0,0.0,0.0,0.0,0.0,0.0,0.0,0.0,0.0,0.0,0.0,0.0,0.0,0.0,0.0,0.0,,,,,,,,,,,
232,2692868,1745086419059,0.0,189.29,,-0.1,-0.07,1.09,0.0,0.0,0.0,1.1,1.1,100.0,3068.0,0.0,2.81,,11.99,1.064,91.6,,31.7,5.0,,,,,,,,,,,,0.0,0.0,0.0,0.0,0.0,0.0,0.0,0.0,0.0,0.0,0.0,0.0,0.0,0.0,0.0,0.0,,,,,0.0,,,,,,
233,2692888,1745086419079,,,,,,,,,,,,,,,,,,,,,,,,,,,,,,,,,,0.0,0.0,0.0,0.0,0.0,0.0,0.0,0.0,0.0,0.0,0.0,0.0,0.0,0.0,0.0,0.0,,,,,,,,,,,
234,2692908,1745086419103,0.0,189.29,,-0.11,-0.1,1.11,0.0,0.0,0.0,1.12,1.12,100.0,2940.0,0.0,2.88,,12.08,1.035,91.6,,31.7,5.0,0.0,0.0,0.0,0.0,0.0,0.0,0.0,0.0,2.27,,,0.0,0.0,0.0,0.0,0.0,0.0,0.0,0.0,0.0,0.0,0.0,0.0,0.0,0.0,0.0,0.0,0.0,,,,0.0,39.240116,-77.964874,0.23,32.0,3.0,0.8
235,2692928,1745086419123,,,,,,,,,,,,,,,,,,,,,,,,,,,,,,,,,,0.0,0.0,0.0,0.0,0.0,0.0,0.0,0.0,0.0,0.0,0.0,0.0,0.0,0.0,0.0,0.0,,,,,,,,,,,
236,2692948,1745086419143,0.0,189.17,,-0.1,-0.06,1.08,0.0,0.0,0.0,1.09,1.12,97.0,2699.0,0.0,2.95,,12.08,1.035,91.6,,28.3,5.0,,,,,,,,,,,,0.0,0.0,0.0,0.0,0.0,0.0,0.0,0.0,0.0,0.0,0.0,0.0,0.0,0.0,0.0,0.0,,,,,0.0,,,,,,
237,2692968,1745086419163,,,,,,,,,,,,,,,,,,,,,,,,,,,,,,,,,,0.0,0.0,0.0,0.0,0.0,0.0,0.0,0.0,0.0,0.0,0.0,0.0,0.0,0.0,0.0,0.0,,,,,,,,,,,
238,2692988,1745086419183,0.0,189.17,,-0.1,-0.08,1.06,0.0,0.0,0.0,1.07,1.12,95.0,2699.0,0.0,2.95,,12.24,1.039,91.6,,28.3,5.0,,,,,,,,,,,,0.0,0.0,0.0,0.0,0.0,0.0,0.0,0.0,0.0,0.0,0.0,0.0,0.0,0.0,0.0,0.0,,,,,0.0,,,,,,
239,2693008,1745086419207,,,,,,,,,,,,,,,,,,,,,,,0.0,0.0,0.0,0.0,0.0,0.0,0.0,0.0,2.27,,,0.0,0.0,0.0,0.0,0.0,0.0,0.0,0.0,0.0,0.0,0.0,0.0,0.0,0.0,0.0,0.0,0.0,,,,,39.240116,-77.964874,0.05,32.0,3.0,0.8
240,2693028,1745086419227,0.0,189.17,,-0.1,-0.09,1.05,0.0,0.0,0.0,1.06,1.12,94.0,2591.0,0.0,3.01,,12.44,1.039,91.6,,25.7,5.0,,,,,,,,,,,,0.0,0.0,0.0,0.0,0.0,0.0,0.0,0.0,0.0,0.0,0.0,0.0,0.0,0.0,0.0,0.0,,,,,0.0,,,,,,
241,2693048,1745086419247,,,,,,,,,,,,,,,,,,,,,,,,,,,,,,,,,,0.0,0.0,0.0,0.0,0.0,0.0,0.0,0.0,0.0,0.0,0.0,0.0,0.0,0.0,0.0,0.0,,,,,,,,,,,
242,2693068,1745086419267,0.0,189.29,,-0.09,-0.08,1.03,0.0,0.0,0.0,1.04,1.12,93.0,2454.0,0.0,3.09,,12.67,1.048,91.6,,25.7,5.0,,,,,,,,,,,,0.0,0.0,0.0,0.0,0.0,0.0,0.0,0.0,0.0,0.0,0.0,0.0,0.0,0.0,0.0,0.0,,,,,0.0,,,,,,
243,2693088,1745086419287,,,,,,,,,,,,,,,,,,,,,,,,,,,,,,,,,,0.0,0.0,0.0,0.0,0.0,0.0,0.0,0.0,0.0,0.0,0.0,0.0,0.0,0.0,0.0,0.0,,,,,,,,,,,
244,2693108,1745086419309,0.0,189.17,,-0.1,-0.07,1.04,0.0,0.0,0.0,1.04,1.12,93.0,2294.0,0.5,3.16,,13.03,1.07,91.6,,25.7,5.0,0.0,0.0,0.0,0.0,0.0,0.0,0.0,0.0,2.26,,,0.0,0.0,0.0,0.0,0.0,0.0,0.0,0.0,0.0,0.0,0.0,0.0,0.0,0.0,0.0,0.0,0.0,,,,0.0,39.240116,-77.964874,0.74,32.0,3.0,0.8
245,2693128,1745086419329,,,,,,,,,,,,,,,,,,,,,,,,,,,,,,,,,,0.0,0.0,0.0,0.0,0.0,0.0,0.0,0.0,0.0,0.0,0.0,0.0,0.0,0.0,0.0,0.0,,,,,,,,,,,
246,2693148,1745086419349,0.0,189.29,,-0.11,-0.07,1.03,0.0,0.0,0.0,1.04,1.12,93.0,2132.0,3.4,3.72,,13.03,1.07,91.6,,22.5,5.0,,,,,,,,,,,,0.0,0.0,0.0,0.0,0.0,0.0,0.0,0.0,0.0,0.0,0.0,0.0,0.0,0.0,0.0,0.0,,,,,0.0,,,,,,
247,2693168,1745086419369,,,,,,,,,,,,,,,,,,,,,,,,,,,,,,,,,,0.0,0.0,0.0,0.0,0.0,0.0,0.0,0.0,0.0,0.0,0.0,0.0,0.0,0.0,0.0,0.0,,,,,,,,,,,
248,2693188,1745086419389,0.0,189.29,,-0.11,-0.06,1.04,0.0,0.0,0.0,1.05,1.12,93.0,2132.0,3.4,3.72,,13.41,1.085,91.6,,22.5,5.0,,,,,,,,,,,,0.0,0.0,0.0,0.0,0.0,0.0,0.0,0.0,0.0,0.0,0.0,0.0,0.0,0.0,0.0,0.0,,,,,0.0,,,,,,
249,2693208,1745086419409,,,,,,,,,,,,,,,,,,,,,,,0.0,0.0,0.0,0.0,0.0,0.0,0.0,0.0,2.26,,,0.0,0.0,0.0,0.0,0.0,0.0,0.0,0.0,0.0,0.0,0.0,0.0,0.0,0.0,0.0,0.0,0.0,,,,,39.240116,-77.964874,0.26,32.0,3.0,0.8
250,2693228,1745086419429,0.0,189.17,,-0.1,-0.05,1.04,0.0,0.0,0.0,1.05,1.12,93.0,2137.0,3.5,3.69,,13.64,1.103,91.6,,20.2,5.0,,,,,,,,,,,,0.0,0.0,0.0,0.0,0.0,0.0,0.0,0.0,0.0,0.0,0.0,0.0,0.0,0.0,0.0,0.0,,,,,0.0,,,,,,
251,2693248,1745086419449,,,,,,,,,,,,,,,,,,,,,,,,,,,,,,,,,,0.0,0.0,0.0,0.0,0.0,0.0,0.0,0.0,0.0,0.0,0.0,0.0,0.0,0.0,0.0,0.0,,,,,,,,,,,
252,2693268,1745086419469,0.0,189.29,,-0.1,-0.05,1.02,0.0,0.0,0.0,1.03,1.12,91.0,2085.0,3.4,3.68,,13.69,1.12,91.6,,20.2,5.0,,,,,,,,,,,,0.0,0.0,0.0,0.0,0.0,0.0,0.0,0.0,0.0,0.0,0.0,0.0,0.0,0.0,0.0,0.0,,,,,0.0,,,,,,
253,2693288,1745086419489,,,,,,,,,,,,,,,,,,,,,,,,,,,,,,,,,,0.0,0.0,0.0,0.0,0.0,0.0,0.0,0.0,0.0,0.0,0.0,0.0,0.0,0.0,0.0,0.0,,,,,,,,,,,
254,2693308,1745086419509,0.0,189.29,,-0.09,-0.05,1.01,0.0,0.0,0.0,1.01,1.12,90.0,1995.0,3.3,3.72,,13.8,1.148,91.6,,20.2,5.0,0.0,0.0,0.0,0.0,0.0,0.0,0.0,0.0,2.26,,,0.0,0.0,0.0,0.0,0.0,0.0,0.0,0.0,0.0,0.0,0.0,0.0,0.0,0.0,0.0,0.0,0.0,,,,0.0,39.240116,-77.964874,0.11,32.0,3.0,0.8
255,2693328,1745086419529,,,,,,,,,,,,,,,,,,,,,,,,,,,,,,,,,,0.0,0.0,0.0,0.0,0.0,0.0,0.0,0.0,0.0,0.0,0.0,0.0,0.0,0.0,0.0,0.0,,,,,,,,,,,
256,2693348,1745086419549,0.0,189.29,,-0.08,-0.05,1.02,0.0,0.0,0.0,1.02,1.12,91.0,1897.0,0.0,3.3,,13.8,1.148,91.6,,18.9,5.0,,,,,,,,,,,,0.0,0.0,0.0,0.0,0.0,0.0,0.0,0.0,0.0,0.0,0.0,0.0,0.0,0.0,0.0,0.0,,,,,0.0,,,,,,
257,2693368,1745086419569,,,,,,,,,,,,,,,,,,,,,,,,,,,,,,,,,,0.0,0.0,0.0,0.0,0.0,0.0,0.0,0.0,0.0,0.0,0.0,0.0,0.0,0.0,0.0,0.0,,,,,,,,,,,
258,2693388,1745086419589,0.0,189.29,,-0.09,-0.03,1.01,0.0,0.0,0.0,1.02,1.12,91.0,1897.0,0.0,3.3,,13.75,1.156,91.6,,18.9,5.0,,,,,,,,,,,,0.0,0.0,0.0,0.0,0.0,0.0,0.0,0.0,0.0,0.0,0.0,0.0,0.0,0.0,0.0,0.0,,,,,0.0,,,,,,
259,2693408,1745086419609,,,,,,,,,,,,,,,,,,,,,,,0.0,0.0,0.0,0.0,0.0,0.0,0.0,0.0,2.27,,,0.0,0.0,0.0,0.0,0.0,0.0,0.0,0.0,0.0,0.0,0.0,0.0,0.0,0.0,0.0,0.0,0.0,,,,,39.240116,-77.964874,0.11,32.0,3.0,0.8
260,2693428,1745086419629,0.0,189.29,,-0.08,-0.03,1.01,0.0,0.0,0.0,1.02,1.12,91.0,1897.0,0.0,3.29,,13.57,1.17,91.6,,18.7,5.0,,,,,,,,,,,,0.0,0.0,0.0,0.0,0.0,0.0,0.0,0.0,0.0,0.0,0.0,0.0,0.0,0.0,0.0,0.0,,,,,0.0,,,,,,
261,2693448,1745086419649,,,,,,,,,,,,,,,,,,,,,,,,,,,,,,,,,,0.0,0.0,0.0,0.0,0.0,0.0,0.0,0.0,0.0,0.0,0.0,0.0,0.0,0.0,0.0,0.0,,,,,,,,,,,
262,2693468,1745086419669,0.0,189.29,,-0.09,-0.02,1.03,0.0,0.0,0.0,1.03,1.12,92.0,1858.0,0.0,3.3,,13.56,1.211,91.6,,18.7,5.0,,,,,,,,,,,,0.0,0.0,0.0,0.0,0.0,0.0,0.0,0.0,0.0,0.0,0.0,0.0,0.0,0.0,0.0,0.0,,,,,0.0,,,,,,
263,2693488,1745086419689,,,,,,,,,,,,,,,,,,,,,,,,,,,,,,,,,,0.0,0.0,0.0,0.0,0.0,0.0,0.0,0.0,0.0,0.0,0.0,0.0,0.0,0.0,0.0,0.0,,,,,,,,,,,
264,2693508,1745086419709,0.0,189.29,,-0.09,-0.03,1.01,0.0,0.0,0.0,1.01,1.12,90.0,1782.0,0.0,3.32,,13.64,1.241,91.6,,18.7,5.0,0.0,0.0,0.0,0.0,0.0,0.0,0.0,0.0,2.27,,,0.0,0.0,0.0,0.0,0.0,0.0,0.0,0.0,0.0,0.0,0.0,0.0,0.0,0.0,0.0,0.0,0.0,,,,0.0,39.240116,-77.964874,0.04,32.0,3.0,0.8
265,2693528,1745086419729,,,,,,,,,,,,,,,,,,,,,,,,,,,,,,,,,,0.0,0.0,0.0,0.0,0.0,0.0,0.0,0.0,0.0,0.0,0.0,0.0,0.0,0.0,0.0,0.0,,,,,,,,,,,
266,2693548,1745086419749,0.0,189.29,,-0.08,-0.05,1.0,0.0,0.0,0.0,1.0,1.12,89.0,1681.0,0.0,3.31,,13.64,1.241,91.6,,16.5,5.0,,,,,,,,,,,,0.0,0.0,0.0,0.0,0.0,0.0,0.0,0.0,0.0,0.0,0.0,0.0,0.0,0.0,0.0,0.0,,,,,0.0,,,,,,
267,2693568,1745086419769,,,,,,,,,,,,,,,,,,,,,,,,,,,,,,,,,,0.0,0.0,0.0,0.0,0.0,0.0,0.0,0.0,0.0,0.0,0.0,0.0,0.0,0.0,0.0,0.0,,,,,,,,,,,
268,2693588,1745086419789,0.0,189.29,,-0.06,-0.04,1.01,0.0,0.0,0.0,1.01,1.12,90.0,1681.0,0.0,3.31,,13.75,1.252,91.6,,16.5,5.0,,,,,,,,,,,,0.0,0.0,0.0,0.0,0.0,0.0,0.0,0.0,0.0,0.0,0.0,0.0,0.0,0.0,0.0,0.0,,,,,0.0,,,,,,
269,2693608,1745086419809,,,,,,,,,,,,,,,,,,,,,,,0.0,0.0,0.0,0.0,0.0,0.0,0.0,0.0,2.26,,,0.0,0.0,0.0,0.0,0.0,0.0,0.0,0.0,0.0,0.0,0.0,0.0,0.0,0.0,0.0,0.0,0.0,,,,,39.240116,-77.964874,0.0,32.0,3.0,0.8
270,2693628,1745086419829,0.0,189.29,,-0.05,-0.04,1.01,0.0,0.0,0.0,1.01,1.12,90.0,1666.0,0.0,3.34,,13.64,1.253,91.6,,14.7,5.0,,,,,,,,,,,,0.0,0.0,0.0,0.0,0.0,0.0,0.0,0.0,0.0,0.0,0.0,0.0,0.0,0.0,0.0,0.0,,,,,0.0,,,,,,
271,2693648,1745086419849,,,,,,,,,,,,,,,,,,,,,,,,,,,,,,,,,,0.0,0.0,0.0,0.0,0.0,0.0,0.0,0.0,0.0,0.0,0.0,0.0,0.0,0.0,0.0,0.0,,,,,,,,,,,
272,2693668,1745086419869,0.0,189.42,,-0.04,-0.04,1.01,0.0,0.0,0.0,1.01,1.12,90.0,1440.0,0.0,3.36,,13.83,1.252,91.6,,14.7,5.0,,,,,,,,,,,,0.0,0.0,0.0,0.0,0.0,0.0,0.0,0.0,0.0,0.0,0.0,0.0,0.0,0.0,0.0,0.0,,,,,0.0,,,,,,
273,2693688,1745086419889,,,,,,,,,,,,,,,,,,,,,,,,,,,,,,,,,,0.0,0.0,0.0,0.0,0.0,0.0,0.0,0.0,0.0,0.0,0.0,0.0,0.0,0.0,0.0,0.0,,,,,,,,,,,
274,2693708,1745086419908,0.0,189.42,13.41,-0.03,-0.04,1.01,0.0,0.0,0.0,1.01,1.12,90.0,1248.0,0.0,3.38,15.0,13.94,1.252,91.6,137.0,14.7,5.0,0.0,0.0,0.0,0.0,0.0,0.0,0.0,0.0,2.26,0.0,0.0,0.0,0.0,0.0,0.0,0.0,0.0,0.0,0.0,0.0,0.0,0.0,0.0,0.0,0.0,0.0,0.0,0.0,0.0,0.0,0.0,0.0,39.240116,-77.964874,0.07,32.0,3.0,0.8
275,2693728,1745086419928,,,,,,,,,,,,,,,,,,,,,,,,,,,,,,,,,,0.0,0.0,0.0,0.0,0.0,0.0,0.0,0.0,0.0,0.0,0.0,0.0,0.0,0.0,0.0,0.0,,,,,,,,,,,
276,2693748,1745086419948,0.0,189.42,,-0.03,-0.03,1.02,0.0,0.0,0.0,1.02,1.12,91.0,1243.0,0.0,3.42,,13.94,1.252,91.6,,12.8,5.0,,,,,,,,,,,,0.0,0.0,0.0,0.0,0.0,0.0,0.0,0.0,0.0,0.0,0.0,0.0,0.0,0.0,0.0,0.0,,,,,0.0,,,,,,
277,2693768,1745086419968,,,,,,,,,,,,,,,,,,,,,,,,,,,,,,,,,,0.0,0.0,0.0,0.0,0.0,0.0,0.0,0.0,0.0,0.0,0.0,0.0,0.0,0.0,0.0,0.0,,,,,,,,,,,
278,2693788,1745086419988,0.0,189.42,,-0.04,-0.02,1.01,0.0,0.0,0.0,1.02,1.12,91.0,1243.0,0.0,3.42,,13.99,1.251,91.6,,12.8,5.0,,,,,,,,,,,,0.0,0.0,0.0,0.0,0.0,0.0,0.0,0.0,0.0,0.0,0.0,0.0,0.0,0.0,0.0,0.0,,,,,0.0,,,,,,
279,2693808,1745086420000,,,,,,,,,,,,,,,,,,,,,,,0.0,0.0,0.0,0.0,0.0,0.0,0.0,0.0,2.26,,,0.0,0.0,0.0,0.0,0.0,0.0,0.0,0.0,0.0,0.0,0.0,0.0,0.0,0.0,0.0,0.0,0.0,,,,,39.240116,-77.964874,0.08,32.0,3.0,0.8
280,2693828,1745086420020,0.0,189.42,,-0.04,-0.03,1.01,0.0,0.0,0.0,1.01,1.12,90.0,1079.0,0.0,3.42,,13.96,1.251,91.6,,12.5,5.0,,,,,,,,,,,,0.0,0.0,0.0,0.0,0.0,0.0,0.0,0.0,0.0,0.0,0.0,0.0,0.0,0.0,0.0,0.0,,,,,0.0,,,,,,
281,2693848,1745086420040,,,,,,,,,,,,,,,,,,,,,,,,,,,,,,,,,,0.0,0.0,0.0,0.0,0.0,0.0,0.0,0.0,0.0,0.0,0.0,0.0,0.0,0.0,0.0,0.0,,,,,,,,,,,
282,2693868,1745086420060,0.0,189.42,,-0.04,-0.03,1.01,0.0,0.0,0.0,1.01,1.12,90.0,1194.0,0.0,3.44,,13.96,1.251,91.6,,12.5,5.0,,,,,,,,,,,,0.0,0.0,0.0,0.0,0.0,0.0,0.0,0.0,0.0,0.0,0.0,0.0,0.0,0.0,0.0,0.0,,,,,0.0,,,,,,
283,2693888,1745086420080,,,,,,,,,,,,,,,,,,,,,,,,,,,,,,,,,,0.0,0.0,0.0,0.0,0.0,0.0,0.0,0.0,0.0,0.0,0.0,0.0,0.0,0.0,0.0,0.0,,,,,,,,,,,
284,2693908,1745086420106,0.0,189.42,,-0.04,-0.03,1.0,0.0,0.0,0.0,1.0,1.12,90.0,1194.0,0.0,3.44,,14.16,1.25,91.6,,12.5,5.0,0.0,0.0,0.0,0.0,0.0,0.0,0.0,0.0,2.27,,,0.0,0.0,0.0,0.0,0.0,0.0,0.0,0.0,0.0,0.0,0.0,0.0,0.0,0.0,0.0,0.0,0.0,,,,0.0,39.240116,-77.964874,0.15,32.0,3.0,0.8
285,2693928,1745086420126,,,,,,,,,,,,,,,,,,,,,,,,,,,,,,,,,,0.0,0.0,0.0,0.0,0.0,0.0,0.0,0.0,0.0,0.0,0.0,0.0,0.0,0.0,0.0,0.0,,,,,,,,,,,
286,2693948,1745086420146,0.0,189.54,,-0.04,-0.04,1.0,0.0,0.0,0.0,1.0,1.12,89.0,869.0,0.0,3.43,,14.16,1.25,91.6,,9.6,5.0,,,,,,,,,,,,0.0,0.0,0.0,0.0,0.0,0.0,0.0,0.0,0.0,0.0,0.0,0.0,0.0,0.0,0.0,0.0,,,,,0.0,,,,,,
287,2693968,1745086420166,,,,,,,,,,,,,,,,,,,,,,,,,,,,,,,,,,0.0,0.0,0.0,0.0,0.0,0.0,0.0,0.0,0.0,0.0,0.0,0.0,0.0,0.0,0.0,0.0,,,,,,,,,,,
288,2693988,1745086420186,0.0,189.54,,-0.03,-0.03,1.0,0.0,0.0,0.0,1.0,1.12,89.0,869.0,0.0,3.43,,14.36,1.25,91.6,,9.6,5.0,,,,,,,,,,,,0.0,0.0,0.0,0.0,0.0,0.0,0.0,0.0,0.0,0.0,0.0,0.0,0.0,0.0,0.0,0.0,,,,,0.0,,,,,,
289,2694008,1745086420208,,,,,,,,,,,,,,,,,,,,,,,0.0,0.0,0.0,0.0,0.0,0.0,0.0,0.0,2.27,,,0.0,0.0,0.0,0.0,0.0,0.0,0.0,0.0,0.0,0.0,0.0,0.0,0.0,0.0,0.0,0.0,0.0,,,,,39.240116,-77.964874,0.0,32.0,3.0,0.8
290,2694028,1745086420228,0.0,189.54,,-0.03,-0.03,1.0,0.0,0.0,0.0,1.0,1.12,89.0,869.0,0.0,3.43,,14.34,1.25,91.6,,6.9,5.0,,,,,,,,,,,,0.0,0.0,0.0,0.0,0.0,0.0,0.0,0.0,0.0,0.0,0.0,0.0,0.0,0.0,0.0,0.0,,,,,0.0,,,,,,
291,2694048,1745086420248,,,,,,,,,,,,,,,,,,,,,,,,,,,,,,,,,,0.0,0.0,0.0,0.0,0.0,0.0,0.0,0.0,0.0,0.0,0.0,0.0,0.0,0.0,0.0,0.0,,,,,,,,,,,
292,2694068,1745086420268,0.0,189.54,,-0.03,-0.03,1.0,0.0,0.0,0.0,1.0,1.12,89.0,869.0,0.0,3.43,,14.34,1.252,91.6,,6.9,5.0,,,,,,,,,,,,0.0,0.0,0.0,0.0,0.0,0.0,0.0,0.0,0.0,0.0,0.0,0.0,0.0,0.0,0.0,0.0,,,,,0.0,,,,,,
293,2694088,1745086420288,,,,,,,,,,,,,,,,,,,,,,,,,,,,,,,,,,0.0,0.0,0.0,0.0,0.0,0.0,0.0,0.0,0.0,0.0,0.0,0.0,0.0,0.0,0.0,0.0,,,,,,,,,,,
294,2694108,1745086420308,0.0,189.54,,-0.03,-0.03,1.0,0.0,0.0,0.0,1.0,1.12,89.0,869.0,0.0,3.43,,14.34,1.251,91.6,,6.9,5.0,0.0,0.0,0.0,0.0,0.0,0.0,0.0,0.0,2.27,,,0.0,0.0,0.0,0.0,0.0,0.0,0.0,0.0,0.0,0.0,0.0,0.0,0.0,0.0,0.0,0.0,0.0,,,,0.0,39.240116,-77.964874,0.05,32.0,3.0,0.8
295,2694128,1745086420328,,,,,,,,,,,,,,,,,,,,,,,,,,,,,,,,,,0.0,0.0,0.0,0.0,0.0,0.0,0.0,0.0,0.0,0.0,0.0,0.0,0.0,0.0,0.0,0.0,,,,,,,,,,,
296,2694148,1745086420348,0.0,189.54,,-0.03,-0.03,1.0,0.0,0.0,0.0,1.0,1.12,89.0,869.0,0.0,3.43,,14.34,1.251,91.6,,6.3,5.0,,,,,,,,,,,,0.0,0.0,0.0,0.0,0.0,0.0,0.0,0.0,0.0,0.0,0.0,0.0,0.0,0.0,0.0,0.0,,,,,0.0,,,,,,
297,2694168,1745086420368,,,,,,,,,,,,,,,,,,,,,,,,,,,,,,,,,,0.0,0.0,0.0,0.0,0.0,0.0,0.0,0.0,0.0,0.0,0.0,0.0,0.0,0.0,0.0,0.0,,,,,,,,,,,
298,2694188,1745086420388,0.0,189.54,,-0.04,-0.03,1.0,0.0,0.0,0.0,1.0,1.12,89.0,869.0,0.0,3.43,,14.35,1.242,91.6,,6.3,5.0,,,,,,,,,,,,0.0,0.0,0.0,0.0,0.0,0.0,0.0,0.0,0.0,0.0,0.0,0.0,0.0,0.0,0.0,0.0,,,,,0.0,,,,,,
299,2694208,1745086420408,,,,,,,,,,,,,,,,,,,,,,,0.0,0.0,0.0,0.0,0.0,0.0,0.0,0.0,2.26,,,0.0,0.0,0.0,0.0,0.0,0.0,0.0,0.0,0.0,0.0,0.0,0.0,0.0,0.0,0.0,0.0,0.0,,,,,39.240116,-77.964874,0.04,32.0,3.0,0.8
300,2694228,1745086420428,0.0,189.42,,-0.04,-0.03,1.0,0.0,0.0,0.0,1.0,1.12,89.0,869.0,0.0,3.43,,14.34,1.236,91.6,,6.6,5.0,,,,,,,,,,,,0.0,0.0,0.0,0.0,0.0,0.0,0.0,0.0,0.0,0.0,0.0,0.0,0.0,0.0,0.0,0.0,,,,,0.0,,,,,,
301,2694248,1745086420448,,,,,,,,,,,,,,,,,,,,,,,,,,,,,,,,,,0.0,0.0,0.0,0.0,0.0,0.0,0.0,0.0,0.0,0.0,0.0,0.0,0.0,0.0,0.0,0.0,,,,,,,,,,,
302,2694268,1745086420468,0.0,189.54,,-0.04,-0.03,1.0,0.0,0.0,0.0,1.0,1.12,89.0,869.0,0.0,3.43,,14.34,1.231,91.6,,6.6,5.0,,,,,,,,,,,,0.0,0.0,0.0,0.0,0.0,0.0,0.0,0.0,0.0,0.0,0.0,0.0,0.0,0.0,0.0,0.0,,,,,0.0,,,,,,
303,2694288,1745086420488,,,,,,,,,,,,,,,,,,,,,,,,,,,,,,,,,,0.0,0.0,0.0,0.0,0.0,0.0,0.0,0.0,0.0,0.0,0.0,0.0,0.0,0.0,0.0,0.0,,,,,,,,,,,
304,2694308,1745086420510,0.0,189.54,,-0.04,-0.03,0.99,0.0,0.0,0.0,0.99,1.12,89.0,869.0,0.0,3.43,,14.34,1.226,91.6,,6.6,5.0,0.0,0.0,0.0,0.0,0.0,0.0,0.0,0.0,2.26,,,0.0,0.0,0.0,0.0,0.0,0.0,0.0,0.0,0.0,0.0,0.0,0.0,0.0,0.0,0.0,0.0,0.0,,,,0.0,39.240116,-77.964874,0.08,32.0,3.0,0.8
305,2694328,1745086420530,,,,,,,,,,,,,,,,,,,,,,,,,,,,,,,,,,0.0,0.0,0.0,0.0,0.0,0.0,0.0,0.0,0.0,0.0,0.0,0.0,0.0,0.0,0.0,0.0,,,,,,,,,,,
306,2694348,1745086420550,0.0,186.65,,-0.04,-0.03,0.99,0.0,0.0,0.0,0.99,1.12,89.0,869.0,0.0,3.43,,14.34,1.226,91.6,,6.6,5.0,,,,,,,,,,,,0.0,0.0,0.0,0.0,0.0,0.0,0.0,0.0,0.0,0.0,0.0,0.0,0.0,0.0,0.0,0.0,,,,,0.0,,,,,,
307,2694368,1745086420570,,,,,,,,,,,,,,,,,,,,,,,,,,,,,,,,,,0.0,0.0,0.0,0.0,0.0,0.0,0.0,0.0,0.0,0.0,0.0,0.0,0.0,0.0,0.0,0.0,,,,,,,,,,,
308,2694388,1745086420590,0.0,179.24,,-0.04,-0.03,0.99,0.0,0.0,0.0,0.99,1.12,89.0,869.0,0.0,3.43,,14.34,1.226,91.6,,6.6,5.0,,,,,,,,,,,,0.0,0.0,0.0,0.0,0.0,0.0,0.0,0.0,0.0,0.0,0.0,0.0,0.0,0.0,0.0,0.0,,,,,0.0,,,,,,
309,2694408,1745086420609,,,,,,,,,,,,,,,,,,,,,,,0.0,0.0,0.0,0.0,0.0,0.0,0.0,0.0,2.26,,,0.0,0.0,0.0,0.0,0.0,0.0,0.0,0.0,0.0,0.0,0.0,0.0,0.0,0.0,0.0,0.0,0.0,,,,,39.240116,-77.964874,0.0,32.0,3.0,0.8
310,2694428,1745086420629,0.0,171.32,,-0.04,-0.03,0.99,0.0,0.0,0.0,0.99,1.12,89.0,869.0,0.0,3.43,,14.34,1.226,91.6,,6.6,5.0,,,,,,,,,,,,0.0,0.0,0.0,0.0,0.0,0.0,0.0,0.0,0.0,0.0,0.0,0.0,0.0,0.0,0.0,0.0,,,,,0.0,,,,,,
311,2694448,1745086420649,,,,,,,,,,,,,,,,,,,,,,,,,,,,,,,,,,0.0,0.0,0.0,0.0,0.0,0.0,0.0,0.0,0.0,0.0,0.0,0.0,0.0,0.0,0.0,0.0,,,,,,,,,,,
312,2694468,1745086420669,0.0,163.52,,-0.04,-0.03,0.99,0.0,0.0,0.0,0.99,1.12,89.0,869.0,0.0,3.43,,14.34,1.226,91.6,,6.6,5.0,,,,,,,,,,,,0.0,0.0,0.0,0.0,0.0,0.0,0.0,0.0,0.0,0.0,0.0,0.0,0.0,0.0,0.0,0.0,,,,,0.0,,,,,,
313,2694488,1745086420689,,,,,,,,,,,,,,,,,,,,,,,,,,,,,,,,,,0.0,0.0,0.0,0.0,0.0,0.0,0.0,0.0,0.0,0.0,0.0,0.0,0.0,0.0,0.0,0.0,,,,,,,,,,,
314,2694508,1745086420710,0.0,155.98,,-0.04,-0.03,0.99,0.0,0.0,0.0,0.99,1.12,88.0,869.0,0.0,3.43,,14.34,1.226,91.6,,6.6,5.0,0.0,0.0,0.0,0.0,0.0,0.0,0.0,0.0,2.26,,,0.0,0.0,0.0,0.0,0.0,0.0,0.0,0.0,0.0,0.0,0.0,0.0,0.0,0.0,0.0,0.0,0.0,,,,0.0,39.240116,-77.964874,0.04,32.0,3.0,0.8
315,2694528,1745086420730,,,,,,,,,,,,,,,,,,,,,,,,,,,,,,,,,,0.0,0.0,0.0,0.0,0.0,0.0,0.0,0.0,0.0,0.0,0.0,0.0,0.0,0.0,0.0,0.0,,,,,,,,,,,
316,2694548,1745086420750,0.0,148.94,,-0.04,-0.03,0.99,0.0,0.0,0.0,0.99,1.12,88.0,869.0,0.0,3.43,,14.34,1.226,91.6,,6.6,5.0,,,,,,,,,,,,0.0,0.0,0.0,0.0,0.0,0.0,0.0,0.0,0.0,0.0,0.0,0.0,0.0,0.0,0.0,0.0,,,,,0.0,,,,,,
317,2694568,1745086420770,,,,,,,,,,,,,,,,,,,,,,,,,,,,,,,,,,0.0,0.0,0.0,0.0,0.0,0.0,0.0,0.0,0.0,0.0,0.0,0.0,0.0,0.0,0.0,0.0,,,,,,,,,,,
