,Interval,Utc,FrontBP,SteerAng,Battery,AccelX,AccelY,AccelZ,Yaw,Pitch,Roll,Gsum,GsumMax,GsumPct,RPM,TPS,InjectorPW,Baro,MAP,Lambda,IAT,EngineTemp,EOP,EOT,WSFR,WSFL,WSRR,WSRL,TCSet,TCSlip,TCComp,TCCut,Analog8,OilTemp,AA_On,ThermLF1,ThermLF2,ThermRR1,ThermRR2,ThermLF3,ThermLF4,ThermLF5,ThermLF6,ThermLF7,ThermLF8,ThermRR3,ThermRR4,ThermRR5,ThermRR6,ThermRR7,ThermRR8,Gear,AA_On1,AA_LowDrag,Fuel_Mix,AA_Packages,Latitude,Longitude,Speed,GPSSats,GPSQual,GPSDOP
0,1096928,1745084823122,,,,,,,,,,,,,,,,,,,,,,,,,,,,,,,,,,0,0,0,0,0,0,0,0,0,0,0,0,0,0,0,0,,,,,,,,,,,
1,1096948,1745084823142,0.0,185.39,,-0.09,-0.11,0.94,-3.0,0.0,0.0,0.95,0.95,100.0,5941.0,19.9,3.93,,12.48,1.131,97.0,,61.2,5.0,,,,,,,,,,,,0,0,0,0,0,0,0,0,0,0,0,0,0,0,0,0,,,,,0.0,,,,,,
2,1096968,1745084823162,,,,,,,,,,,,,,,,,,,,,,,,,,,,,,,,,,0,0,0,0,0,0,0,0,0,0,0,0,0,0,0,0,,,,,,,,,,,
3,1096988,1745084823182,0.0,185.39,,-0.12,-0.05,0.98,-3.0,0.0,1.0,0.99,0.99,100.0,5941.0,19.9,3.93,,12.4,1.184,97.0,,67.2,5.0,,,,,,,,,,,,0,0,0,0,0,0,0,0,0,0,0,0,0,0,0,0,,,,,0.0,,,,,,
4,1097008,1745084823202,,,,,,,,,,,,,,,,,,,,,,,0.0,0.0,0.0,0.0,0.0,0.0,0.0,0.0,2.26,,,0,0,0,0,0,0,0,0,0,0,0,0,0,0,0,0,0.0,,,,,39.239883,-77.965668,0.0,31.0,3.0,0.9
5,1097028,1745084823215,0.0,185.39,,-0.15,-0.07,0.93,-3.0,0.0,1.0,0.94,0.99,95.0,6062.0,20.1,3.9,,12.32,1.161,97.0,,67.2,5.0,,,,,,,,,,,,0,0,0,0,0,0,0,0,0,0,0,0,0,0,0,0,,,,,0.0,,,,,,
6,1097048,1745084823235,,,,,,,,,,,,,,,,,,,,,,,,,,,,,,,,,,0,0,0,0,0,0,0,0,0,0,0,0,0,0,0,0,,,,,,,,,,,
7,1097068,1745084823255,0.0,185.52,,-0.14,-0.23,0.88,-4.0,0.0,0.0,0.92,0.99,94.0,6200.0,20.4,4.1,,12.4,1.177,97.0,,67.2,5.0,,,,,,,,,,,,0,0,0,0,0,0,0,0,0,0,0,0,0,0,0,0,,,,,0.0,,,,,,
8,1097088,1745084823275,,,,,,,,,,,,,,,,,,,,,,,,,,,,,,,,,,0,0,0,0,0,0,0,0,0,0,0,0,0,0,0,0,,,,,,,,,,,
9,1097108,1745084823295,0.0,185.39,,-0.14,-0.17,0.89,-4.0,0.0,0.0,0.92,0.99,93.0,6501.0,20.8,4.42,,12.35,1.227,97.0,,65.0,5.0,0.0,0.0,0.0,0.0,0.0,0.0,0.0,0.0,2.26,,,0,0,0,0,0,0,0,0,0,0,0,0,0,0,0,0,0.0,,,,0.0,39.239883,-77.965668,0.04,31.0,3.0,0.9
10,1097128,1745084823319,,,,,,,,,,,,,,,,,,,,,,,,,,,,,,,,,,0,0,0,0,0,0,0,0,0,0,0,0,0,0,0,0,,,,,,,,,,,
11,1097148,1745084823339,0.0,185.39,,-0.11,-0.05,0.92,-3.0,0.0,0.0,0.93,0.99,94.0,7127.0,20.8,5.05,,12.35,1.227,97.0,,65.0,5.0,,,,,,,,,,,,0,0,0,0,0,0,0,0,0,0,0,0,0,0,0,0,,,,,0.0,,,,,,
12,1097168,1745084823359,,,,,,,,,,,,,,,,,,,,,,,,,,,,,,,,,,0,0,0,0,0,0,0,0,0,0,0,0,0,0,0,0,,,,,,,,,,,
13,1097188,1745084823379,0.0,185.39,,-0.07,-0.07,0.96,-2.0,0.0,0.0,0.97,0.99,98.0,7127.0,20.8,5.05,,11.92,1.107,97.0,,68.1,5.0,,,,,,,,,,,,0,0,0,0,0,0,0,0,0,0,0,0,0,0,0,0,,,,,0.0,,,,,,
14,1097208,1745084823401,,,,,,,,,,,,,,,,,,,,,,,0.0,0.0,0.0,0.0,0.0,0.0,0.0,0.0,2.26,,,0,0,0,0,0,0,0,0,0,0,0,0,0,0,0,0,0.0,,,,,39.239883,-77.965668,0.05,31.0,3.0,0.9
15,1097228,1745084823421,0.0,185.39,,-0.06,-0.02,0.94,-2.0,0.0,0.0,0.95,0.99,96.0,7968.0,21.9,5.17,,11.5,1.036,97.0,,68.1,5.0,,,,,,,,,,,,0,0,0,0,0,0,0,0,0,0,0,0,0,0,0,0,,,,,0.0,,,,,,
16,1097248,1745084823441,,,,,,,,,,,,,,,,,,,,,,,,,,,,,,,,,,0,0,0,0,0,0,0,0,0,0,0,0,0,0,0,0,,,,,,,,,,,
17,1097268,1745084823461,0.0,185.39,,-0.06,-0.1,1.01,-1.0,0.0,0.0,1.02,1.02,100.0,9109.0,22.0,4.64,,10.88,0.872,97.0,,68.1,5.0,,,,,,,,,,,,0,0,0,0,0,0,0,0,0,0,0,0,0,0,0,0,,,,,0.0,,,,,,
18,1097288,1745084823481,,,,,,,,,,,,,,,,,,,,,,,,,,,,,,,,,,0,0,0,0,0,0,0,0,0,0,0,0,0,0,0,0,,,,,,,,,,,
19,1097308,1745084823501,0.0,185.39,,-0.04,-0.09,0.99,-2.0,0.0,0.0,0.99,1.02,98.0,10467.0,22.2,3.63,,10.21,0.804,97.0,,74.0,5.0,0.0,0.0,0.0,0.0,0.0,0.0,0.0,0.0,2.26,,,0,0,0,0,0,0,0,0,0,0,0,0,0,0,0,0,0.0,,,,0.0,39.239883,-77.965668,0.0,31.0,3.0,0.9
20,1097328,1745084823521,,,,,,,,,,,,,,,,,,,,,,,,,,,,,,,,,,0,0,0,0,0,0,0,0,0,0,0,0,0,0,0,0,,,,,,,,,,,
21,1097348,1745084823541,0.0,185.27,,-0.06,-0.02,0.98,-2.0,0.0,1.0,0.98,1.02,97.0,11418.0,22.3,3.32,,10.21,0.804,95.2,,74.0,5.0,,,,,,,,,,,,0,0,0,0,0,0,0,0,0,0,0,0,0,0,0,0,,,,,0.0,,,,,,
22,1097368,1745084823561,,,,,,,,,,,,,,,,,,,,,,,,,,,,,,,,,,0,0,0,0,0,0,0,0,0,0,0,0,0,0,0,0,,,,,,,,,,,
23,1097388,1745084823581,0.0,185.14,,-0.07,0.16,0.85,-3.0,0.0,1.0,0.87,1.02,85.0,11418.0,22.3,3.32,,9.73,0.829,95.2,,73.5,5.0,,,,,,,,,,,,0,0,0,0,0,0,0,0,0,0,0,0,0,0,0,0,,,,,0.0,,,,,,
24,1097408,1745084823601,,,,,,,,,,,,,,,,,,,,,,,0.0,0.0,0.0,0.0,0.0,0.0,0.0,0.0,2.26,,,0,0,0,0,0,0,0,0,0,0,0,0,0,0,0,0,0.0,,,,,39.239883,-77.965668,0.13,31.0,3.0,0.9
25,1097428,1745084823621,0.0,185.14,,-0.02,0.21,0.83,-3.0,0.0,1.0,0.86,1.02,84.0,12116.0,22.6,3.07,,9.13,0.841,95.2,,73.5,5.0,,,,,,,,,,,,0,0,0,0,0,0,0,0,0,0,0,0,0,0,0,0,,,,,0.0,,,,,,
26,1097448,1745084823641,,,,,,,,,,,,,,,,,,,,,,,,,,,,,,,,,,0,0,0,0,0,0,0,0,0,0,0,0,0,0,0,0,,,,,,,,,,,
27,1097468,1745084823661,0.0,185.14,,-0.02,0.23,0.83,-3.0,0.0,1.0,0.86,1.02,85.0,12070.0,17.0,2.55,,8.43,0.881,95.2,,73.5,5.0,,,,,,,,,,,,0,0,0,0,0,0,0,0,0,0,0,0,0,0,0,0,,,,,0.0,,,,,,
28,1097488,1745084823681,,,,,,,,,,,,,,,,,,,,,,,,,,,,,,,,,,0,0,0,0,0,0,0,0,0,0,0,0,0,0,0,0,,,,,,,,,,,
29,1097508,1745084823701,0.0,185.02,,-0.02,0.31,0.79,-3.0,0.0,1.0,0.85,1.02,84.0,11761.0,13.0,2.2,,7.46,0.905,95.2,,73.8,5.0,0.0,0.0,0.0,0.0,0.0,0.0,0.0,0.0,2.26,,,0,0,0,0,0,0,0,0,0,0,0,0,0,0,0,0,0.0,,,,0.0,39.239883,-77.965668,0.36,31.0,3.0,0.9
30,1097528,1745084823721,,,,,,,,,,,,,,,,,,,,,,,,,,,,,,,,,,0,0,0,0,0,0,0,0,0,0,0,0,0,0,0,0,,,,,,,,,,,
31,1097548,1745084823741,0.0,185.02,,0.02,0.32,0.94,-2.0,0.0,2.0,0.99,1.02,98.0,11424.0,12.8,2.0,,7.46,0.905,95.2,,73.8,5.0,,,,,,,,,,,,0,0,0,0,0,0,0,0,0,0,0,0,0,0,0,0,,,,,0.0,,,,,,
32,1097568,1745084823761,,,,,,,,,,,,,,,,,,,,,,,,,,,,,,,,,,0,0,0,0,0,0,0,0,0,0,0,0,0,0,0,0,,,,,,,,,,,
33,1097588,1745084823781,0.0,185.02,,0.05,0.35,0.96,-1.0,0.0,1.0,1.02,1.02,100.0,11424.0,12.8,2.0,,7.08,0.926,95.2,,71.9,5.0,,,,,,,,,,,,0,0,0,0,0,0,0,0,0,0,0,0,0,0,0,0,,,,,0.0,,,,,,
34,1097608,1745084823801,,,,,,,,,,,,,,,,,,,,,,,0.0,0.0,0.0,0.0,0.0,0.0,0.0,0.0,2.26,,,0,0,0,0,0,0,0,0,0,0,0,0,0,0,0,0,0.0,,,,,39.239883,-77.965668,1.19,31.0,3.0,0.9
35,1097628,1745084823821,0.0,184.89,,0.06,0.23,0.94,-1.0,0.0,1.0,0.97,1.02,94.0,11053.0,12.7,1.96,,6.96,0.939,95.2,,71.9,5.0,,,,,,,,,,,,0,0,0,0,0,0,0,0,0,0,0,0,0,0,0,0,,,,,0.0,,,,,,
36,1097648,1745084823841,,,,,,,,,,,,,,,,,,,,,,,,,,,,,,,,,,0,0,0,0,0,0,0,0,0,0,0,0,0,0,0,0,,,,,,,,,,,
37,1097668,1745084823861,0.0,184.89,,0.06,0.35,0.9,-1.0,0.0,1.0,0.96,1.02,94.0,10742.0,14.0,2.17,,7.27,0.943,95.2,,71.9,5.0,,,,,,,,,,,,0,0,0,0,0,0,0,0,0,0,0,0,0,0,0,0,,,,,0.0,,,,,,
38,1097688,1745084823881,,,,,,,,,,,,,,,,,,,,,,,,,,,,,,,,,,0,0,0,0,0,0,0,0,0,0,0,0,0,0,0,0,,,,,,,,,,,
39,1097708,1745084823901,0.0,184.77,13.42,0.07,0.59,0.87,-1.0,0.0,1.0,1.05,1.05,100.0,10477.0,17.4,2.57,15.0,7.59,0.95,95.2,138.0,70.7,5.0,1.0,0.0,1.0,1.0,0.0,0.0,0.0,0.0,2.25,0.0,0.0,0,0,0,0,0,0,0,0,0,0,0,0,0,0,0,0,0.0,0.0,0.0,0.0,0.0,39.239883,-77.965668,1.19,31.0,3.0,0.9
40,1097728,1745084823919,,,,,,,,,,,,,,,,,,,,,,,,,,,,,,,,,,0,0,0,0,0,0,0,0,0,0,0,0,0,0,0,0,,,,,,,,,,,
41,1097748,1745084823939,0.0,184.77,,0.09,0.79,0.81,-2.0,0.0,1.0,1.14,1.14,100.0,10450.0,18.6,2.83,,7.59,0.95,95.2,,70.7,5.0,,,,,,,,,,,,0,0,0,0,0,0,0,0,0,0,0,0,0,0,0,0,,,,,0.0,,,,,,
42,1097768,1745084823959,,,,,,,,,,,,,,,,,,,,,,,,,,,,,,,,,,0,0,0,0,0,0,0,0,0,0,0,0,0,0,0,0,,,,,,,,,,,
43,1097788,1745084823979,0.0,184.77,,0.08,0.66,0.86,-1.0,0.0,0.0,1.09,1.14,96.0,10450.0,18.6,2.83,,8.07,0.997,95.2,,72.1,5.0,,,,,,,,,,,,0,0,0,0,0,0,0,0,0,0,0,0,0,0,0,0,,,,,0.0,,,,,,
44,1097808,1745084823999,,,,,,,,,,,,,,,,,,,,,,,1.0,0.0,1.0,1.0,0.0,0.0,0.0,0.0,2.26,,,0,0,0,0,0,0,0,0,0,0,0,0,0,0,0,0,0.0,,,,,39.239883,-77.965668,1.95,31.0,3.0,0.9
45,1097828,1745084824013,0.0,184.64,,0.08,0.21,0.94,0.0,0.0,0.0,0.97,1.14,85.0,10494.0,19.5,2.93,,8.21,0.995,95.2,,72.1,5.0,,,,,,,,,,,,0,0,0,0,0,0,0,0,0,0,0,0,0,0,0,0,,,,,0.0,,,,,,
46,1097848,1745084824033,,,,,,,,,,,,,,,,,,,,,,,,,,,,,,,,,,0,0,0,0,0,0,0,0,0,0,0,0,0,0,0,0,,,,,,,,,,,
47,1097868,1745084824053,0.0,184.51,,0.06,0.02,0.94,0.0,0.0,0.0,0.95,1.14,83.0,10578.0,19.4,2.95,,8.31,0.993,95.2,,72.1,5.0,,,,,,,,,,,,0,0,0,0,0,0,0,0,0,0,0,0,0,0,0,0,,,,,0.0,,,,,,
48,1097888,1745084824073,,,,,,,,,,,,,,,,,,,,,,,,,,,,,,,,,,0,0,0,0,0,0,0,0,0,0,0,0,0,0,0,0,,,,,,,,,,,
49,1097908,1745084824093,0.0,184.39,,0.06,0.17,0.91,-1.0,0.0,1.0,0.93,1.14,82.0,10608.0,20.7,3.01,,8.45,0.989,95.2,,71.8,5.0,2.0,0.0,2.0,2.0,0.0,0.0,0.0,0.0,2.26,,,0,0,0,0,0,0,0,0,0,0,0,0,0,0,0,0,0.0,,,,0.0,39.23988,-77.965668,2.34,31.0,3.0,0.9
50,1097928,1745084824117,,,,,,,,,,,,,,,,,,,,,,,,,,,,,,,,,,0,0,0,0,0,0,0,0,0,0,0,0,0,0,0,0,,,,,,,,,,,
51,1097948,1745084824137,0.0,184.26,,0.07,0.38,0.9,-2.0,0.0,1.0,0.98,1.14,87.0,10714.0,20.9,3.0,,8.45,0.989,95.2,,71.8,5.0,,,,,,,,,,,,0,0,0,0,0,0,0,0,0,0,0,0,0,0,0,0,,,,,0.0,,,,,,
52,1097968,1745084824157,,,,,,,,,,,,,,,,,,,,,,,,,,,,,,,,,,0,0,0,0,0,0,0,0,0,0,0,0,0,0,0,0,,,,,,,,,,,
53,1097988,1745084824177,0.0,184.26,,0.06,0.29,0.96,-1.0,0.0,0.0,1.01,1.14,89.0,10714.0,20.9,3.0,,8.57,0.984,95.2,,71.9,5.0,,,,,,,,,,,,0,0,0,0,0,0,0,0,0,0,0,0,0,0,0,0,,,,,0.0,,,,,,
54,1098008,1745084824197,,,,,,,,,,,,,,,,,,,,,,,2.0,0.0,2.0,2.0,0.0,0.0,0.0,0.0,2.26,,,0,0,0,0,0,0,0,0,0,0,0,0,0,0,0,0,0.0,,,,,39.23988,-77.965668,2.96,31.0,3.0,0.9
55,1098028,1745084824218,0.0,184.14,,0.08,0.2,0.94,-2.0,0.0,0.0,0.97,1.14,85.0,10832.0,22.3,3.06,,9.14,0.992,95.2,,71.9,5.0,,,,,,,,,,,,0,0,0,0,0,0,0,0,0,0,0,0,0,0,0,0,,,,,0.0,,,,,,
56,1098048,1745084824238,,,,,,,,,,,,,,,,,,,,,,,,,,,,,,,,,,0,0,0,0,0,0,0,0,0,0,0,0,0,0,0,0,,,,,,,,,,,
57,1098068,1745084824258,0.0,184.14,,0.08,0.23,0.93,-1.0,0.0,0.0,0.96,1.14,84.0,10983.0,23.6,3.17,,9.15,1.001,95.2,,71.9,5.0,,,,,,,,,,,,0,0,0,0,0,0,0,0,0,0,0,0,0,0,0,0,,,,,0.0,,,,,,
58,1098088,1745084824278,,,,,,,,,,,,,,,,,,,,,,,,,,,,,,,,,,0,0,0,0,0,0,0,0,0,0,0,0,0,0,0,0,,,,,,,,,,,
59,1098108,1745084824298,0.0,184.01,,0.07,0.17,0.95,-1.0,0.0,0.0,0.97,1.14,85.0,11130.0,24.4,3.23,,9.46,1.014,95.2,,74.1,5.0,3.0,0.0,3.0,3.0,0.0,0.0,0.0,0.0,2.26,,,0,0,0,0,0,0,0,0,0,0,0,0,0,0,0,0,0.0,,,,0.0,39.23988,-77.965668,3.6,31.0,3.0,0.9
60,1098128,1745084824320,,,,,,,,,,,,,,,,,,,,,,,,,,,,,,,,,,0,0,0,0,0,0,0,0,0,0,0,0,0,0,0,0,,,,,,,,,,,
61,1098148,1745084824340,0.0,183.89,,0.12,0.15,0.99,-1.0,0.0,0.0,1.0,1.14,89.0,11213.0,24.6,3.24,,9.46,1.014,95.2,,74.1,5.0,,,,,,,,,,,,0,0,0,0,0,0,0,0,0,0,0,0,0,0,0,0,,,,,0.0,,,,,,
62,1098168,1745084824360,,,,,,,,,,,,,,,,,,,,,,,,,,,,,,,,,,0,0,0,0,0,0,0,0,0,0,0,0,0,0,0,0,,,,,,,,,,,
63,1098188,1745084824380,0.0,183.89,,0.14,0.03,0.95,0.0,0.0,0.0,0.96,1.14,84.0,11213.0,24.6,3.24,,9.52,1.017,95.2,,73.3,5.0,,,,,,,,,,,,0,0,0,0,0,0,0,0,0,0,0,0,0,0,0,0,,,,,0.0,,,,,,
64,1098208,1745084824400,,,,,,,,,,,,,,,,,,,,,,,3.0,0.0,3.0,3.0,0.0,0.0,0.0,0.0,2.26,,,0,0,0,0,0,0,0,0,0,0,0,0,0,0,0,0,0.0,,,,,39.23988,-77.965668,4.05,31.0,3.0,0.9
65,1098228,1745084824420,0.0,183.76,,0.11,-0.04,0.91,0.0,0.0,0.0,0.92,1.14,81.0,11141.0,24.6,3.23,,9.69,1.027,95.2,,73.3,5.0,,,,,,,,,,,,0,0,0,0,0,0,0,0,0,0,0,0,0,0,0,0,,,,,0.0,,,,,,
66,1098248,1745084824440,,,,,,,,,,,,,,,,,,,,,,,,,,,,,,,,,,0,0,0,0,0,0,0,0,0,0,0,0,0,0,0,0,,,,,,,,,,,
67,1098268,1745084824460,0.0,183.63,,0.14,0.04,0.94,-1.0,0.0,0.0,0.95,1.14,84.0,11061.0,21.9,3.14,,9.17,1.046,95.2,,73.3,5.0,,,,,,,,,,,,0,0,0,0,0,0,0,0,0,0,0,0,0,0,0,0,,,,,0.0,,,,,,
68,1098288,1745084824480,,,,,,,,,,,,,,,,,,,,,,,,,,,,,,,,,,0,0,0,0,0,0,0,0,0,0,0,0,0,0,0,0,,,,,,,,,,,
69,1098308,1745084824502,0.0,183.51,,0.18,0.02,0.92,0.0,0.0,0.0,0.93,1.14,82.0,10681.0,21.6,3.15,,9.1,1.03,95.2,,74.3,5.0,3.0,0.0,4.0,4.0,0.0,0.0,0.0,0.0,2.26,,,0,0,0,0,0,0,0,0,0,0,0,0,0,0,0,0,0.0,,,,0.0,39.239876,-77.965668,5.36,31.0,3.0,0.9
70,1098328,1745084824522,,,,,,,,,,,,,,,,,,,,,,,,,,,,,,,,,,0,0,0,0,0,0,0,0,0,0,0,0,0,0,0,0,,,,,,,,,,,
71,1098348,1745084824542,0.0,183.38,,0.21,0.2,0.89,-1.0,0.0,0.0,0.94,1.14,83.0,10132.0,23.0,3.07,,9.1,1.03,95.2,,74.3,5.0,,,,,,,,,,,,0,0,0,0,0,0,0,0,0,0,0,0,0,0,0,0,,,,,0.0,,,,,,
72,1098368,1745084824562,,,,,,,,,,,,,,,,,,,,,,,,,,,,,,,,,,0,0,0,0,0,0,0,0,0,0,0,0,0,0,0,0,,,,,,,,,,,
73,1098388,1745084824582,0.0,183.26,,0.22,0.15,0.88,0.0,0.0,0.0,0.92,1.14,81.0,10132.0,23.0,3.07,,9.13,1.025,95.2,,66.9,5.0,,,,,,,,,,,,0,0,0,0,0,0,0,0,0,0,0,0,0,0,0,0,,,,,0.0,,,,,,
74,1098408,1745084824602,,,,,,,,,,,,,,,,,,,,,,,5.0,0.0,5.0,5.0,0.0,0.0,0.0,0.0,2.26,,,0,0,0,0,0,0,0,0,0,0,0,0,0,0,0,0,0.0,,,,,39.239876,-77.965668,7.01,31.0,3.0,0.9
75,1098428,1745084824622,0.0,183.01,,0.25,-0.08,0.92,0.0,0.0,0.0,0.95,1.14,84.0,9562.0,22.0,3.19,,9.25,1.04,95.2,,66.9,5.0,,,,,,,,,,,,0,0,0,0,0,0,0,0,0,0,0,0,0,0,0,0,,,,,0.0,,,,,,
76,1098448,1745084824642,,,,,,,,,,,,,,,,,,,,,,,,,,,,,,,,,,0,0,0,0,0,0,0,0,0,0,0,0,0,0,0,0,,,,,,,,,,,
77,1098468,1745084824662,0.0,182.76,,0.32,-0.2,1.0,2.0,0.0,0.0,1.07,1.14,94.0,9085.0,21.7,3.18,,9.42,1.048,95.2,,66.9,5.0,,,,,,,,,,,,0,0,0,0,0,0,0,0,0,0,0,0,0,0,0,0,,,,,0.0,,,,,,
78,1098488,1745084824682,,,,,,,,,,,,,,,,,,,,,,,,,,,,,,,,,,0,0,0,0,0,0,0,0,0,0,0,0,0,0,0,0,,,,,,,,,,,
79,1098508,1745084824702,0.0,182.63,,0.33,-0.23,0.98,2.0,0.0,0.0,1.06,1.14,93.0,8682.0,21.2,3.33,,9.85,1.04,95.2,,66.3,5.0,6.0,0.0,9.0,9.0,0.0,0.0,0.0,0.0,2.26,,,0,0,0,0,0,0,0,0,0,0,0,0,0,0,0,0,0.0,,,,0.0,39.239872,-77.965668,9.54,31.0,3.0,0.9
80,1098528,1745084824722,,,,,,,,,,,,,,,,,,,,,,,,,,,,,,,,,,0,0,0,0,0,0,0,0,0,0,0,0,0,0,0,0,,,,,,,,,,,
81,1098548,1745084824742,0.0,182.5,,0.31,-0.16,0.94,2.0,0.0,0.0,1.01,1.14,89.0,8249.0,22.1,3.64,,9.85,1.04,95.2,,66.3,5.0,,,,,,,,,,,,0,0,0,0,0,0,0,0,0,0,0,0,0,0,0,0,,,,,0.0,,,,,,
82,1098568,1745084824762,,,,,,,,,,,,,,,,,,,,,,,,,,,,,,,,,,0,0,0,0,0,0,0,0,0,0,0,0,0,0,0,0,,,,,,,,,,,
83,1098588,1745084824782,0.0,182.38,,0.35,-0.03,0.96,2.0,0.0,0.0,1.02,1.14,90.0,8249.0,22.1,3.64,,10.12,1.022,95.2,,66.3,5.0,,,,,,,,,,,,0,0,0,0,0,0,0,0,0,0,0,0,0,0,0,0,,,,,0.0,,,,,,
84,1098608,1745084824802,,,,,,,,,,,,,,,,,,,,,,,7.0,0.0,7.0,8.0,0.0,0.0,0.0,0.0,2.26,,,0,0,0,0,0,0,0,0,0,0,0,0,0,0,0,0,0.0,,,,,39.239872,-77.965668,9.54,31.0,3.0,0.9
85,1098628,1745084824820,0.0,182.25,,0.33,0.13,0.93,1.0,0.0,0.0,0.99,1.14,87.0,7823.0,21.1,3.94,,10.49,1.003,95.2,,66.3,5.0,,,,,,,,,,,,0,0,0,0,0,0,0,0,0,0,0,0,0,0,0,0,,,,,0.0,,,,,,
86,1098648,1745084824840,,,,,,,,,,,,,,,,,,,,,,,,,,,,,,,,,,0,0,0,0,0,0,0,0,0,0,0,0,0,0,0,0,,,,,,,,,,,
87,1098668,1745084824860,0.0,182.13,,0.33,0.18,0.95,2.0,0.0,0.0,1.02,1.14,90.0,7430.0,21.5,3.97,,10.94,0.977,95.2,,66.3,5.0,,,,,,,,,,,,0,0,0,0,0,0,0,0,0,0,0,0,0,0,0,0,,,,,0.0,,,,,,
88,1098688,1745084824880,,,,,,,,,,,,,,,,,,,,,,,,,,,,,,,,,,0,0,0,0,0,0,0,0,0,0,0,0,0,0,0,0,,,,,,,,,,,
89,1098708,1745084824902,0.0,182.13,13.4,0.34,0.13,0.95,2.0,0.0,0.0,1.02,1.14,90.0,6933.0,21.5,4.85,15.0,11.22,0.969,95.2,137.0,62.7,5.0,8.0,0.0,8.0,9.0,0.0,43.0,0.0,0.0,2.26,0.0,0.0,0,0,0,0,0,0,0,0,0,0,0,0,0,0,0,0,0.0,0.0,0.0,0.0,0.0,39.239868,-77.965675,13.19,31.0,3.0,0.9
90,1098728,1745084824922,,,,,,,,,,,,,,,,,,,,,,,,,,,,,,,,,,0,0,0,0,0,0,0,0,0,0,0,0,0,0,0,0,,,,,,,,,,,
91,1098748,1745084824942,0.0,182.0,,0.35,0.03,0.96,2.0,0.0,0.0,1.02,1.14,90.0,6477.0,21.2,4.45,,11.22,0.969,95.2,,62.7,5.0,,,,,,,,,,,,0,0,0,0,0,0,0,0,0,0,0,0,0,0,0,0,,,,,0.0,,,,,,
92,1098768,1745084824962,,,,,,,,,,,,,,,,,,,,,,,,,,,,,,,,,,0,0,0,0,0,0,0,0,0,0,0,0,0,0,0,0,,,,,,,,,,,
93,1098788,1745084824982,0.0,182.0,,0.36,0.1,1.02,2.0,0.0,0.0,1.09,1.14,96.0,6477.0,21.2,4.45,,11.5,0.956,95.2,,63.0,5.0,,,,,,,,,,,,0,0,0,0,0,0,0,0,0,0,0,0,0,0,0,0,,,,,0.0,,,,,,
94,1098808,1745084825002,,,,,,,,,,,,,,,,,,,,,,,9.0,0.0,9.0,9.0,0.0,45.0,0.0,0.0,2.26,,,0,0,0,0,0,0,0,0,0,0,0,0,0,0,0,0,0.0,,,,,39.239868,-77.965675,13.19,31.0,3.0,0.9
95,1098828,1745084825014,0.0,181.88,,0.37,0.2,1.13,2.0,0.0,0.0,1.2,1.2,100.0,6001.0,21.1,3.97,,11.85,0.919,95.2,,63.0,5.0,,,,,,,,,,,,0,0,0,0,0,0,0,0,0,0,0,0,0,0,0,0,,,,,0.0,,,,,,
96,1098848,1745084825034,,,,,,,,,,,,,,,,,,,,,,,,,,,,,,,,,,0,0,0,0,0,0,0,0,0,0,0,0,0,0,0,0,,,,,,,,,,,
97,1098868,1745084825054,0.0,182.0,,0.37,0.18,1.12,2.0,0.0,0.0,1.19,1.2,99.0,5538.0,21.1,3.81,,12.39,0.948,95.2,,63.0,5.0,,,,,,,,,,,,0,0,0,0,0,0,0,0,0,0,0,0,0,0,0,0,,,,,0.0,,,,,,
98,1098888,1745084825074,,,,,,,,,,,,,,,,,,,,,,,,,,,,,,,,,,0,0,0,0,0,0,0,0,0,0,0,0,0,0,0,0,,,,,,,,,,,
99,1098908,1745084825094,0.0,182.0,,0.36,0.19,1.15,3.0,0.0,0.0,1.22,1.22,100.0,4597.0,20.7,3.72,,12.96,0.99,95.2,,58.6,5.0,10.0,0.0,11.0,11.0,0.0,237.0,0.0,0.0,2.26,,,0,0,0,0,0,0,0,0,0,0,0,0,0,0,0,0,0.0,,,,0.0,39.239864,-77.965675,14.9,32.0,3.0,0.8
100,1098928,1745084825120,,,,,,,,,,,,,,,,,,,,,,,,,,,,,,,,,,0,0,0,0,0,0,0,0,0,0,0,0,0,0,0,0,,,,,,,,,,,
101,1098948,1745084825140,0.0,182.0,,0.37,0.09,1.13,3.0,0.0,0.0,1.19,1.22,97.0,3841.0,20.3,4.07,,12.96,0.99,95.2,,58.6,5.0,,,,,,,,,,,,0,0,0,0,0,0,0,0,0,0,0,0,0,0,0,0,,,,,0.0,,,,,,
102,1098968,1745084825160,,,,,,,,,,,,,,,,,,,,,,,,,,,,,,,,,,0,0,0,0,0,0,0,0,0,0,0,0,0,0,0,0,,,,,,,,,,,
103,1098988,1745084825180,0.0,182.0,,0.37,0.26,1.06,3.0,0.0,0.0,1.16,1.22,95.0,3841.0,20.3,4.07,,13.37,1.012,95.2,,36.5,5.0,,,,,,,,,,,,0,0,0,0,0,0,0,0,0,0,0,0,0,0,0,0,,,,,0.0,,,,,,
104,1099008,1745084825200,,,,,,,,,,,,,,,,,,,,,,,12.0,0.0,12.0,12.0,0.0,17.0,0.0,0.0,2.26,,,0,0,0,0,0,0,0,0,0,0,0,0,0,0,0,0,0.0,,,,,39.239864,-77.965683,16.53,32.0,3.0,0.8
105,1099028,1745084825217,0.0,182.13,,0.33,0.24,1.04,2.0,0.0,0.0,1.12,1.22,91.0,3046.0,20.0,4.71,,13.72,1.037,95.2,,36.5,5.0,,,,,,,,,,,,0,0,0,0,0,0,0,0,0,0,0,0,0,0,0,0,,,,,0.0,,,,,,
106,1099048,1745084825237,,,,,,,,,,,,,,,,,,,,,,,,,,,,,,,,,,0,0,0,0,0,0,0,0,0,0,0,0,0,0,0,0,,,,,,,,,,,
107,1099068,1745084825257,0.0,182.13,,0.27,0.21,1.03,3.0,-1.0,0.0,1.09,1.22,89.0,2664.0,19.0,4.64,,13.87,1.079,95.2,,36.5,5.0,,,,,,,,,,,,0,0,0,0,0,0,0,0,0,0,0,0,0,0,0,0,,,,,0.0,,,,,,
108,1099088,1745084825277,,,,,,,,,,,,,,,,,,,,,,,,,,,,,,,,,,0,0,0,0,0,0,0,0,0,0,0,0,0,0,0,0,,,,,,,,,,,
109,1099108,1745084825301,0.0,182.13,,0.22,0.23,0.99,3.0,-1.0,0.0,1.04,1.22,85.0,2744.0,18.8,4.58,,13.88,1.125,95.2,,25.6,5.0,12.0,0.0,12.0,11.0,0.0,5.0,0.0,0.0,2.26,,,0,0,0,0,0,0,0,0,0,0,0,0,0,0,0,0,0.0,,,,0.0,39.239857,-77.965691,19.07,32.0,3.0,0.8
110,1099128,1745084825321,,,,,,,,,,,,,,,,,,,,,,,,,,,,,,,,,,0,0,0,0,0,0,0,0,0,0,0,0,0,0,0,0,,,,,,,,,,,
111,1099148,1745084825341,0.0,182.13,,0.21,0.17,0.93,0.0,-1.0,-1.0,0.97,1.22,80.0,2880.0,19.0,4.63,,13.88,1.125,95.2,,25.6,5.0,,,,,,,,,,,,0,0,0,0,0,0,0,0,0,0,0,0,0,0,0,0,,,,,0.0,,,,,,
112,1099168,1745084825361,,,,,,,,,,,,,,,,,,,,,,,,,,,,,,,,,,0,0,0,0,0,0,0,0,0,0,0,0,0,0,0,0,,,,,,,,,,,
113,1099188,1745084825381,0.0,182.25,,0.2,0.14,0.94,-3.0,0.0,-1.0,0.97,1.22,79.0,2880.0,19.0,4.63,,13.82,1.162,95.2,,29.4,5.0,,,,,,,,,,,,0,0,0,0,0,0,0,0,0,0,0,0,0,0,0,0,,,,,0.0,,,,,,
114,1099208,1745084825401,,,,,,,,,,,,,,,,,,,,,,,12.0,0.0,12.0,12.0,0.0,47.0,0.0,0.0,2.26,,,0,0,0,0,0,0,0,0,0,0,0,0,0,0,0,0,2.0,,,,,39.239853,-77.965691,18.39,32.0,3.0,0.8
115,1099228,1745084825421,0.0,182.25,,0.2,0.03,0.98,-4.0,0.0,-1.0,1.0,1.22,82.0,2885.0,18.8,4.68,,13.86,1.171,95.2,,29.4,5.0,,,,,,,,,,,,0,0,0,0,0,0,0,0,0,0,0,0,0,0,0,0,,,,,0.0,,,,,,
116,1099248,1745084825441,,,,,,,,,,,,,,,,,,,,,,,,,,,,,,,,,,0,0,0,0,0,0,0,0,0,0,0,0,0,0,0,0,,,,,,,,,,,
117,1099268,1745084825461,0.0,182.25,,0.18,-0.0,1.01,-1.0,-1.0,-1.0,1.03,1.22,84.0,2751.0,18.7,4.63,,13.91,1.183,95.2,,29.4,5.0,,,,,,,,,,,,0,0,0,0,0,0,0,0,0,0,0,0,0,0,0,0,,,,,0.0,,,,,,
118,1099288,1745084825481,,,,,,,,,,,,,,,,,,,,,,,,,,,,,,,,,,0,0,0,0,0,0,0,0,0,0,0,0,0,0,0,0,,,,,,,,,,,
119,1099308,1745084825503,0.0,182.38,,0.14,0.07,1.0,1.0,-1.0,-1.0,1.01,1.22,83.0,2901.0,18.5,4.63,,13.88,1.178,95.2,,27.8,5.0,12.0,0.0,12.0,12.0,0.0,245.0,0.0,0.0,2.26,,,0,0,0,0,0,0,0,0,0,0,0,0,0,0,0,0,2.0,,,,0.0,39.239849,-77.965698,18.74,32.0,3.0,0.8
120,1099328,1745084825523,,,,,,,,,,,,,,,,,,,,,,,,,,,,,,,,,,0,0,0,0,0,0,0,0,0,0,0,0,0,0,0,0,,,,,,,,,,,
121,1099348,1745084825543,0.0,182.38,,0.12,0.13,0.94,0.0,0.0,-1.0,0.96,1.22,78.0,2964.0,18.4,4.64,,13.88,1.178,95.2,,27.8,5.0,,,,,,,,,,,,0,0,0,0,0,0,0,0,0,0,0,0,0,0,0,0,,,,,0.0,,,,,,
122,1099368,1745084825563,,,,,,,,,,,,,,,,,,,,,,,,,,,,,,,,,,0,0,0,0,0,0,0,0,0,0,0,0,0,0,0,0,,,,,,,,,,,
123,1099388,1745084825583,0.0,182.5,,0.11,0.15,0.84,-3.0,-1.0,-1.0,0.86,1.22,71.0,2964.0,18.4,4.64,,13.8,1.159,95.2,,28.9,5.0,,,,,,,,,,,,0,0,0,0,0,0,0,0,0,0,0,0,0,0,0,0,,,,,0.0,,,,,,
124,1099408,1745084825603,,,,,,,,,,,,,,,,,,,,,,,12.0,0.0,12.0,12.0,0.0,17.0,0.0,0.0,2.26,,,0,0,0,0,0,0,0,0,0,0,0,0,0,0,0,0,2.0,,,,,39.239845,-77.965698,18.9,32.0,3.0,0.8
125,1099428,1745084825623,0.0,182.5,,0.14,0.19,0.78,-4.0,0.0,-1.0,0.81,1.22,67.0,2980.0,18.4,4.64,,13.86,1.158,95.2,,28.9,5.0,,,,,,,,,,,,0,0,0,0,0,0,0,0,0,0,0,0,0,0,0,0,,,,,0.0,,,,,,
126,1099448,1745084825643,,,,,,,,,,,,,,,,,,,,,,,,,,,,,,,,,,0,0,0,0,0,0,0,0,0,0,0,0,0,0,0,0,,,,,,,,,,,
127,1099468,1745084825663,0.0,182.5,,0.13,0.21,0.74,-5.0,0.0,-1.0,0.78,1.22,64.0,2981.0,18.4,4.52,,13.92,1.169,95.2,,28.9,5.0,,,,,,,,,,,,0,0,0,0,0,0,0,0,0,0,0,0,0,0,0,0,,,,,0.0,,,,,,
128,1099488,1745084825683,,,,,,,,,,,,,,,,,,,,,,,,,,,,,,,,,,0,0,0,0,0,0,0,0,0,0,0,0,0,0,0,0,,,,,,,,,,,
129,1099508,1745084825703,0.0,182.63,,0.12,0.21,0.72,-6.0,0.0,-1.0,0.76,1.22,62.0,2873.0,18.3,4.66,,13.87,1.118,95.2,,29.1,5.0,13.0,0.0,13.0,13.0,0.0,230.0,0.0,0.0,2.26,,,0,0,0,0,0,0,0,0,0,0,0,0,0,0,0,0,2.0,,,,0.0,39.239841,-77.965706,19.46,32.0,3.0,0.8
130,1099528,1745084825723,,,,,,,,,,,,,,,,,,,,,,,,,,,,,,,,,,0,0,0,0,0,0,0,0,0,0,0,0,0,0,0,0,,,,,,,,,,,
131,1099548,1745084825743,0.0,182.63,,0.13,0.3,0.67,-5.0,0.0,-1.0,0.75,1.22,61.0,3224.0,18.5,4.62,,13.87,1.118,95.2,,29.1,5.0,,,,,,,,,,,,0,0,0,0,0,0,0,0,0,0,0,0,0,0,0,0,,,,,0.0,,,,,,
132,1099568,1745084825763,,,,,,,,,,,,,,,,,,,,,,,,,,,,,,,,,,0,0,0,0,0,0,0,0,0,0,0,0,0,0,0,0,,,,,,,,,,,
133,1099588,1745084825783,0.0,182.63,,0.1,0.42,0.68,-2.0,0.0,0.0,0.81,1.22,66.0,3224.0,18.5,4.62,,13.8,1.053,95.2,,31.2,5.0,,,,,,,,,,,,0,0,0,0,0,0,0,0,0,0,0,0,0,0,0,0,,,,,0.0,,,,,,
134,1099608,1745084825803,,,,,,,,,,,,,,,,,,,,,,,13.0,0.0,13.0,13.0,0.0,58.0,0.0,0.0,2.26,,,0,0,0,0,0,0,0,0,0,0,0,0,0,0,0,0,0.0,,,,,39.239838,-77.965714,20.11,32.0,3.0,0.8
135,1099628,1745084825823,0.0,182.76,,0.06,0.49,0.68,1.0,-1.0,0.0,0.85,1.22,69.0,2962.0,18.5,4.56,,13.84,1.034,95.2,,31.2,5.0,,,,,,,,,,,,0,0,0,0,0,0,0,0,0,0,0,0,0,0,0,0,,,,,0.0,,,,,,
136,1099648,1745084825843,,,,,,,,,,,,,,,,,,,,,,,,,,,,,,,,,,0,0,0,0,0,0,0,0,0,0,0,0,0,0,0,0,,,,,,,,,,,
137,1099668,1745084825863,0.0,182.88,,0.05,0.42,0.76,5.0,-1.0,0.0,0.87,1.22,71.0,3026.0,18.6,4.59,,13.82,1.066,95.2,,31.2,5.0,,,,,,,,,,,,0,0,0,0,0,0,0,0,0,0,0,0,0,0,0,0,,,,,0.0,,,,,,
138,1099688,1745084825883,,,,,,,,,,,,,,,,,,,,,,,,,,,,,,,,,,0,0,0,0,0,0,0,0,0,0,0,0,0,0,0,0,,,,,,,,,,,
139,1099708,1745084825903,0.0,182.88,13.46,0.06,0.26,0.87,6.0,0.0,0.0,0.91,1.22,75.0,3186.0,18.6,4.58,15.0,13.76,1.087,95.2,137.0,31.2,5.0,13.0,0.0,13.0,13.0,0.0,10.0,0.0,0.0,2.26,0.0,0.0,0,0,0,0,0,0,0,0,0,0,0,0,0,0,0,0,0.0,0.0,0.0,0.0,0.0,39.239834,-77.965714,20.51,32.0,3.0,0.8
140,1099728,1745084825923,,,,,,,,,,,,,,,,,,,,,,,,,,,,,,,,,,0,0,0,0,0,0,0,0,0,0,0,0,0,0,0,0,,,,,,,,,,,
141,1099748,1745084825943,0.0,182.88,,0.06,0.14,0.88,2.0,0.0,0.0,0.89,1.22,73.0,3194.0,18.5,4.59,,13.76,1.087,95.2,,31.2,5.0,,,,,,,,,,,,0,0,0,0,0,0,0,0,0,0,0,0,0,0,0,0,,,,,0.0,,,,,,
142,1099768,1745084825963,,,,,,,,,,,,,,,,,,,,,,,,,,,,,,,,,,0,0,0,0,0,0,0,0,0,0,0,0,0,0,0,0,,,,,,,,,,,
143,1099788,1745084825983,0.0,183.01,,0.06,0.15,0.83,0.0,0.0,0.0,0.84,1.22,69.0,3194.0,18.5,4.59,,13.76,1.105,95.2,,32.2,5.0,,,,,,,,,,,,0,0,0,0,0,0,0,0,0,0,0,0,0,0,0,0,,,,,0.0,,,,,,
144,1099808,1745084826003,,,,,,,,,,,,,,,,,,,,,,,13.0,0.0,13.0,13.0,0.0,241.0,0.0,0.0,2.26,,,0,0,0,0,0,0,0,0,0,0,0,0,0,0,0,0,2.0,,,,,39.239834,-77.965714,20.51,32.0,3.0,0.8
145,1099828,1745084826013,0.0,183.01,,0.04,0.18,0.81,2.0,-1.0,0.0,0.83,1.22,68.0,3112.0,18.4,4.52,,13.82,1.124,95.2,,32.2,5.0,,,,,,,,,,,,0,0,0,0,0,0,0,0,0,0,0,0,0,0,0,0,,,,,0.0,,,,,,
146,1099848,1745084826033,,,,,,,,,,,,,,,,,,,,,,,,,,,,,,,,,,0,0,0,0,0,0,0,0,0,0,0,0,0,0,0,0,,,,,,,,,,,
147,1099868,1745084826053,0.0,183.01,,0.04,0.11,0.89,6.0,-1.0,0.0,0.89,1.22,73.0,3226.0,18.4,4.55,,13.76,1.136,95.2,,32.2,5.0,,,,,,,,,,,,0,0,0,0,0,0,0,0,0,0,0,0,0,0,0,0,,,,,0.0,,,,,,
148,1099888,1745084826073,,,,,,,,,,,,,,,,,,,,,,,,,,,,,,,,,,0,0,0,0,0,0,0,0,0,0,0,0,0,0,0,0,,,,,,,,,,,
149,1099908,1745084826101,0.0,183.13,,0.03,-0.04,0.95,3.0,0.0,0.0,0.95,1.22,78.0,3236.0,18.4,4.56,,13.76,1.158,95.2,,31.6,5.0,13.0,0.0,13.0,13.0,0.0,42.0,0.0,0.0,2.27,,,0,0,0,0,0,0,0,0,0,0,0,0,0,0,0,0,2.0,,,,0.0,39.239826,-77.965714,20.81,32.0,3.0,0.8
150,1099928,1745084826121,,,,,,,,,,,,,,,,,,,,,,,,,,,,,,,,,,0,0,0,0,0,0,0,0,0,0,0,0,0,0,0,0,,,,,,,,,,,
151,1099948,1745084826141,0.0,183.13,,0.03,-0.03,0.87,1.0,0.0,0.0,0.87,1.22,71.0,3160.0,18.4,4.45,,13.76,1.158,95.2,,31.6,5.0,,,,,,,,,,,,0,0,0,0,0,0,0,0,0,0,0,0,0,0,0,0,,,,,0.0,,,,,,
152,1099968,1745084826161,,,,,,,,,,,,,,,,,,,,,,,,,,,,,,,,,,0,0,0,0,0,0,0,0,0,0,0,0,0,0,0,0,,,,,,,,,,,
153,1099988,1745084826181,0.0,183.13,,0.01,0.08,0.88,5.0,0.0,0.0,0.88,1.22,72.0,3160.0,18.4,4.45,,13.76,1.163,95.2,,32.4,5.0,,,,,,,,,,,,0,0,0,0,0,0,0,0,0,0,0,0,0,0,0,0,,,,,0.0,,,,,,
154,1100008,1745084826201,,,,,,,,,,,,,,,,,,,,,,,13.0,0.0,13.0,13.0,0.0,10.0,0.0,0.0,2.26,,,0,0,0,0,0,0,0,0,0,0,0,0,0,0,0,0,2.0,,,,,39.239826,-77.965714,20.81,32.0,3.0,0.8
155,1100028,1745084826220,0.0,183.26,,0.02,0.01,0.95,5.0,0.0,0.0,0.95,1.22,78.0,3254.0,18.4,4.5,,13.77,1.163,95.2,,32.4,5.0,,,,,,,,,,,,0,0,0,0,0,0,0,0,0,0,0,0,0,0,0,0,,,,,0.0,,,,,,
156,1100048,1745084826240,,,,,,,,,,,,,,,,,,,,,,,,,,,,,,,,,,0,0,0,0,0,0,0,0,0,0,0,0,0,0,0,0,,,,,,,,,,,
157,1100068,1745084826260,0.0,183.26,,0.03,-0.02,0.92,2.0,0.0,0.0,0.92,1.22,75.0,3262.0,18.5,4.52,,13.77,1.159,95.2,,32.4,5.0,,,,,,,,,,,,0,0,0,0,0,0,0,0,0,0,0,0,0,0,0,0,,,,,0.0,,,,,,
158,1100088,1745084826280,,,,,,,,,,,,,,,,,,,,,,,,,,,,,,,,,,0,0,0,0,0,0,0,0,0,0,0,0,0,0,0,0,,,,,,,,,,,
159,1100108,1745084826302,0.0,183.38,,0.01,0.15,0.9,3.0,0.0,0.0,0.92,1.22,75.0,3189.0,18.6,4.46,,13.79,1.157,95.2,,33.0,5.0,14.0,0.0,13.0,13.0,0.0,9.0,0.0,0.0,2.26,,,0,0,0,0,0,0,0,0,0,0,0,0,0,0,0,0,2.0,,,,0.0,39.239815,-77.965729,21.2,32.0,3.0,0.8
160,1100128,1745084826322,,,,,,,,,,,,,,,,,,,,,,,,,,,,,,,,,,0,0,0,0,0,0,0,0,0,0,0,0,0,0,0,0,,,,,,,,,,,
161,1100148,1745084826342,0.0,183.38,,0.02,0.05,0.99,5.0,0.0,0.0,0.99,1.22,81.0,3286.0,18.6,4.49,,13.79,1.157,95.2,,33.0,5.0,,,,,,,,,,,,0,0,0,0,0,0,0,0,0,0,0,0,0,0,0,0,,,,,0.0,,,,,,
162,1100168,1745084826362,,,,,,,,,,,,,,,,,,,,,,,,,,,,,,,,,,0,0,0,0,0,0,0,0,0,0,0,0,0,0,0,0,,,,,,,,,,,
163,1100188,1745084826382,0.0,183.38,,0.02,0.06,0.95,2.0,0.0,0.0,0.95,1.22,78.0,3286.0,18.6,4.49,,13.73,1.169,95.2,,32.5,5.0,,,,,,,,,,,,0,0,0,0,0,0,0,0,0,0,0,0,0,0,0,0,,,,,0.0,,,,,,
164,1100208,1745084826402,,,,,,,,,,,,,,,,,,,,,,,13.0,0.0,14.0,13.0,0.0,5.0,0.0,0.0,2.26,,,0,0,0,0,0,0,0,0,0,0,0,0,0,0,0,0,2.0,,,,,39.239815,-77.965729,21.2,32.0,3.0,0.8
165,1100228,1745084826420,0.0,183.51,,0.02,0.09,0.92,4.0,0.0,0.0,0.92,1.22,76.0,3255.0,18.6,4.43,,13.73,1.179,95.2,,32.5,5.0,,,,,,,,,,,,0,0,0,0,0,0,0,0,0,0,0,0,0,0,0,0,,,,,0.0,,,,,,
166,1100248,1745084826440,,,,,,,,,,,,,,,,,,,,,,,,,,,,,,,,,,0,0,0,0,0,0,0,0,0,0,0,0,0,0,0,0,,,,,,,,,,,
167,1100268,1745084826460,0.0,183.51,,0.02,-0.03,0.99,4.0,0.0,0.0,0.99,1.22,81.0,3239.0,18.5,4.4,,13.8,1.171,95.2,,32.5,5.0,,,,,,,,,,,,0,0,0,0,0,0,0,0,0,0,0,0,0,0,0,0,,,,,0.0,,,,,,
168,1100288,1745084826480,,,,,,,,,,,,,,,,,,,,,,,,,,,,,,,,,,0,0,0,0,0,0,0,0,0,0,0,0,0,0,0,0,,,,,,,,,,,
169,1100308,1745084826502,0.0,183.51,,0.03,0.02,0.94,2.0,0.0,0.0,0.94,1.22,77.0,3295.0,18.4,4.49,,13.76,1.16,95.2,,32.8,5.0,13.0,0.0,14.0,13.0,0.0,0.0,0.0,0.0,2.27,,,0,0,0,0,0,0,0,0,0,0,0,0,0,0,0,0,2.0,,,,0.0,39.239807,-77.965736,21.34,32.0,3.0,0.8
170,1100328,1745084826522,,,,,,,,,,,,,,,,,,,,,,,,,,,,,,,,,,0,0,0,0,0,0,0,0,0,0,0,0,0,0,0,0,,,,,,,,,,,
171,1100348,1745084826542,0.0,183.76,,0.05,0.03,0.99,2.0,0.0,0.0,0.99,0.99,100.0,3270.0,18.4,4.4,,13.76,1.16,95.2,,32.8,5.0,,,,,,,,,,,,0,0,0,0,0,0,0,0,0,0,0,0,0,0,0,0,,,,,0.0,,,,,,
172,1100368,1745084826562,,,,,,,,,,,,,,,,,,,,,,,,,,,,,,,,,,0,0,0,0,0,0,0,0,0,0,0,0,0,0,0,0,,,,,,,,,,,
173,1100388,1745084826582,0.0,183.76,,0.01,-0.05,1.0,2.0,0.0,0.0,1.0,1.0,100.0,3270.0,18.4,4.4,,13.76,1.151,95.2,,33.7,5.0,,,,,,,,,,,,0,0,0,0,0,0,0,0,0,0,0,0,0,0,0,0,,,,,0.0,,,,,,
174,1100408,1745084826602,,,,,,,,,,,,,,,,,,,,,,,14.0,0.0,14.0,13.0,0.0,40.0,0.0,0.0,2.27,,,0,0,0,0,0,0,0,0,0,0,0,0,0,0,0,0,2.0,,,,,39.239803,-77.965736,21.64,32.0,3.0,0.8
175,1100428,1745084826622,0.0,183.76,,0.03,0.05,0.95,2.0,0.0,0.0,0.95,1.0,95.0,3279.0,18.4,4.38,,13.79,1.148,95.2,,33.7,5.0,,,,,,,,,,,,0,0,0,0,0,0,0,0,0,0,0,0,0,0,0,0,,,,,0.0,,,,,,
176,1100448,1745084826642,,,,,,,,,,,,,,,,,,,,,,,,,,,,,,,,,,0,0,0,0,0,0,0,0,0,0,0,0,0,0,0,0,,,,,,,,,,,
177,1100468,1745084826662,0.0,183.76,,0.05,-0.07,0.98,2.0,0.0,0.0,0.98,1.0,98.0,3306.0,18.3,4.46,,13.73,1.141,95.2,,33.7,5.0,,,,,,,,,,,,0,0,0,0,0,0,0,0,0,0,0,0,0,0,0,0,,,,,0.0,,,,,,
178,1100488,1745084826682,,,,,,,,,,,,,,,,,,,,,,,,,,,,,,,,,,0,0,0,0,0,0,0,0,0,0,0,0,0,0,0,0,,,,,,,,,,,
179,1100508,1745084826702,0.0,183.63,,0.06,-0.04,0.97,2.0,1.0,1.0,0.97,1.0,98.0,3477.0,18.4,4.19,,13.79,1.177,95.2,,36.1,5.0,14.0,0.0,14.0,14.0,0.0,29.0,0.0,0.0,2.26,,,0,0,0,0,0,0,0,0,0,0,0,0,0,0,0,0,2.0,,,,0.0,39.2398,-77.965744,21.58,32.0,3.0,0.8
180,1100528,1745084826722,,,,,,,,,,,,,,,,,,,,,,,,,,,,,,,,,,0,0,0,0,0,0,0,0,0,0,0,0,0,0,0,0,,,,,,,,,,,
181,1100548,1745084826742,0.0,183.63,,0.06,-0.06,0.99,3.0,1.0,1.0,0.99,1.0,100.0,3306.0,18.7,4.43,,13.79,1.177,95.2,,36.1,5.0,,,,,,,,,,,,0,0,0,0,0,0,0,0,0,0,0,0,0,0,0,0,,,,,0.0,,,,,,
182,1100568,1745084826762,,,,,,,,,,,,,,,,,,,,,,,,,,,,,,,,,,0,0,0,0,0,0,0,0,0,0,0,0,0,0,0,0,,,,,,,,,,,
183,1100588,1745084826782,0.0,183.63,,0.07,0.02,0.95,2.0,0.0,1.0,0.95,1.0,96.0,3306.0,18.7,4.43,,13.77,1.115,95.2,,32.8,5.0,,,,,,,,,,,,0,0,0,0,0,0,0,0,0,0,0,0,0,0,0,0,,,,,0.0,,,,,,
184,1100608,1745084826802,,,,,,,,,,,,,,,,,,,,,,,14.0,0.0,14.0,14.0,0.0,14.0,0.0,0.0,2.26,,,0,0,0,0,0,0,0,0,0,0,0,0,0,0,0,0,2.0,,,,,39.239792,-77.965752,22.21,32.0,3.0,0.8
185,1100628,1745084826822,0.0,183.51,,0.08,-0.01,0.95,2.0,1.0,0.0,0.95,1.0,95.0,3417.0,19.5,4.59,,13.75,1.043,95.2,,32.8,5.0,,,,,,,,,,,,0,0,0,0,0,0,0,0,0,0,0,0,0,0,0,0,,,,,0.0,,,,,,
186,1100648,1745084826842,,,,,,,,,,,,,,,,,,,,,,,,,,,,,,,,,,0,0,0,0,0,0,0,0,0,0,0,0,0,0,0,0,,,,,,,,,,,
187,1100668,1745084826862,0.0,183.51,,0.05,-0.01,1.02,1.0,1.0,0.0,1.02,1.02,100.0,3597.0,18.8,4.29,,13.71,1.036,95.2,,32.8,5.0,,,,,,,,,,,,0,0,0,0,0,0,0,0,0,0,0,0,0,0,0,0,,,,,0.0,,,,,,
188,1100688,1745084826882,,,,,,,,,,,,,,,,,,,,,,,,,,,,,,,,,,0,0,0,0,0,0,0,0,0,0,0,0,0,0,0,0,,,,,,,,,,,
189,1100708,1745084826902,0.0,183.38,13.53,0.05,0.01,0.93,2.0,0.0,0.0,0.93,1.02,92.0,3389.0,18.4,4.35,15.0,13.75,1.016,95.2,138.0,34.6,5.0,15.0,0.0,14.0,15.0,0.0,42.0,0.0,0.0,2.26,0.0,0.0,0,0,0,0,0,0,0,0,0,0,0,0,0,0,0,0,2.0,0.0,0.0,0.0,0.0,39.239788,-77.965752,22.44,32.0,3.0,0.8
190,1100728,1745084826922,,,,,,,,,,,,,,,,,,,,,,,,,,,,,,,,,,0,0,0,0,0,0,0,0,0,0,0,0,0,0,0,0,,,,,,,,,,,
191,1100748,1745084826942,0.0,183.38,,0.04,-0.08,0.98,0.0,0.0,0.0,0.98,1.02,97.0,3382.0,18.5,4.35,,13.75,1.016,95.2,,34.6,5.0,,,,,,,,,,,,0,0,0,0,0,0,0,0,0,0,0,0,0,0,0,0,,,,,0.0,,,,,,
192,1100768,1745084826962,,,,,,,,,,,,,,,,,,,,,,,,,,,,,,,,,,0,0,0,0,0,0,0,0,0,0,0,0,0,0,0,0,,,,,,,,,,,
193,1100788,1745084826982,0.0,183.38,,0.03,0.02,0.96,0.0,0.0,0.0,0.97,1.02,95.0,3382.0,18.5,4.35,,13.73,1.035,95.2,,35.0,5.0,,,,,,,,,,,,0,0,0,0,0,0,0,0,0,0,0,0,0,0,0,0,,,,,0.0,,,,,,
194,1100808,1745084827002,,,,,,,,,,,,,,,,,,,,,,,14.0,0.0,15.0,15.0,0.0,233.0,0.0,0.0,2.26,,,0,0,0,0,0,0,0,0,0,0,0,0,0,0,0,0,0.0,,,,,39.239788,-77.965752,22.44,32.0,3.0,0.8
195,1100828,1745084827014,0.0,183.38,,0.04,0.0,0.93,-1.0,0.0,0.0,0.93,1.02,92.0,3540.0,18.6,4.36,,13.68,1.04,95.2,,35.0,5.0,,,,,,,,,,,,0,0,0,0,0,0,0,0,0,0,0,0,0,0,0,0,,,,,0.0,,,,,,
196,1100848,1745084827034,,,,,,,,,,,,,,,,,,,,,,,,,,,,,,,,,,0,0,0,0,0,0,0,0,0,0,0,0,0,0,0,0,,,,,,,,,,,
197,1100868,1745084827054,0.0,183.38,,0.03,-0.03,1.02,-1.0,0.0,0.0,1.03,1.03,100.0,3462.0,18.5,4.23,,13.69,1.046,95.2,,35.0,5.0,,,,,,,,,,,,0,0,0,0,0,0,0,0,0,0,0,0,0,0,0,0,,,,,0.0,,,,,,
198,1100888,1745084827074,,,,,,,,,,,,,,,,,,,,,,,,,,,,,,,,,,0,0,0,0,0,0,0,0,0,0,0,0,0,0,0,0,,,,,,,,,,,
199,1100908,1745084827102,0.0,183.38,,0.03,0.05,0.96,-1.0,0.0,0.0,0.96,1.03,94.0,3473.0,18.4,4.32,,13.75,1.086,95.2,,35.1,5.0,14.0,0.0,14.0,14.0,0.0,247.0,0.0,0.0,2.26,,,0,0,0,0,0,0,0,0,0,0,0,0,0,0,0,0,0.0,,,,0.0,39.23978,-77.965752,22.74,32.0,3.0,0.8
200,1100928,1745084827122,,,,,,,,,,,,,,,,,,,,,,,,,,,,,,,,,,0,0,0,0,0,0,0,0,0,0,0,0,0,0,0,0,,,,,,,,,,,
201,1100948,1745084827142,0.0,183.38,,-0.0,-0.02,0.99,-1.0,0.0,0.0,0.99,1.03,96.0,3450.0,18.4,4.23,,13.75,1.086,95.2,,35.1,5.0,,,,,,,,,,,,0,0,0,0,0,0,0,0,0,0,0,0,0,0,0,0,,,,,0.0,,,,,,
202,1100968,1745084827162,,,,,,,,,,,,,,,,,,,,,,,,,,,,,,,,,,0,0,0,0,0,0,0,0,0,0,0,0,0,0,0,0,,,,,,,,,,,
203,1100988,1745084827182,0.0,183.38,,-0.0,-0.03,1.02,1.0,0.0,0.0,1.02,1.03,99.0,3450.0,18.4,4.23,,13.77,1.109,95.2,,35.8,5.0,,,,,,,,,,,,0,0,0,0,0,0,0,0,0,0,0,0,0,0,0,0,,,,,0.0,,,,,,
204,1101008,1745084827201,,,,,,,,,,,,,,,,,,,,,,,14.0,0.0,15.0,14.0,0.0,38.0,0.0,0.0,2.26,,,0,0,0,0,0,0,0,0,0,0,0,0,0,0,0,0,2.0,,,,,39.239773,-77.965759,22.81,32.0,3.0,0.8
205,1101028,1745084827221,0.0,183.38,,0.01,0.02,0.98,0.0,0.0,0.0,0.98,1.03,95.0,3524.0,18.5,4.29,,13.71,1.108,95.2,,35.8,5.0,,,,,,,,,,,,0,0,0,0,0,0,0,0,0,0,0,0,0,0,0,0,,,,,0.0,,,,,,
206,1101048,1745084827241,,,,,,,,,,,,,,,,,,,,,,,,,,,,,,,,,,0,0,0,0,0,0,0,0,0,0,0,0,0,0,0,0,,,,,,,,,,,
207,1101068,1745084827261,0.0,183.38,,0.01,-0.11,0.96,-2.0,0.0,0.0,0.97,1.03,95.0,3494.0,18.6,4.22,,13.68,1.107,95.2,,35.8,5.0,,,,,,,,,,,,0,0,0,0,0,0,0,0,0,0,0,0,0,0,0,0,,,,,0.0,,,,,,
208,1101088,1745084827281,,,,,,,,,,,,,,,,,,,,,,,,,,,,,,,,,,0,0,0,0,0,0,0,0,0,0,0,0,0,0,0,0,,,,,,,,,,,
209,1101108,1745084827301,0.0,183.38,,0.01,-0.03,0.98,-1.0,0.0,0.0,0.98,1.03,96.0,3554.0,18.6,4.32,,13.71,1.126,95.2,,36.0,5.0,14.0,0.0,14.0,15.0,0.0,233.0,0.0,0.0,2.26,,,0,0,0,0,0,0,0,0,0,0,0,0,0,0,0,0,2.0,,,,0.0,39.239769,-77.965767,22.94,32.0,3.0,0.8
210,1101128,1745084827321,,,,,,,,,,,,,,,,,,,,,,,,,,,,,,,,,,0,0,0,0,0,0,0,0,0,0,0,0,0,0,0,0,,,,,,,,,,,
211,1101148,1745084827341,0.0,183.38,,0.0,-0.02,0.94,0.0,0.0,0.0,0.94,1.03,91.0,3436.0,18.5,4.26,,13.71,1.126,95.2,,36.0,5.0,,,,,,,,,,,,0,0,0,0,0,0,0,0,0,0,0,0,0,0,0,0,,,,,0.0,,,,,,
212,1101168,1745084827361,,,,,,,,,,,,,,,,,,,,,,,,,,,,,,,,,,0,0,0,0,0,0,0,0,0,0,0,0,0,0,0,0,,,,,,,,,,,
213,1101188,1745084827381,0.0,183.38,,-0.01,-0.09,1.0,0.0,0.0,0.0,1.01,1.03,98.0,3436.0,18.5,4.26,,13.68,1.133,95.2,,35.9,5.0,,,,,,,,,,,,0,0,0,0,0,0,0,0,0,0,0,0,0,0,0,0,,,,,0.0,,,,,,
214,1101208,1745084827403,,,,,,,,,,,,,,,,,,,,,,,15.0,0.0,14.0,14.0,0.0,247.0,0.0,0.0,2.27,,,0,0,0,0,0,0,0,0,0,0,0,0,0,0,0,0,2.0,,,,,39.239765,-77.965767,23.03,32.0,3.0,0.8
215,1101228,1745084827423,0.0,183.38,,-0.0,-0.04,1.01,-1.0,0.0,0.0,1.01,1.03,99.0,3547.0,18.5,4.3,,13.71,1.125,95.2,,35.9,5.0,,,,,,,,,,,,0,0,0,0,0,0,0,0,0,0,0,0,0,0,0,0,,,,,0.0,,,,,,
216,1101248,1745084827443,,,,,,,,,,,,,,,,,,,,,,,,,,,,,,,,,,0,0,0,0,0,0,0,0,0,0,0,0,0,0,0,0,,,,,,,,,,,
217,1101268,1745084827463,0.0,183.38,,0.03,-0.0,0.99,-1.0,0.0,0.0,0.99,1.03,97.0,3602.0,18.4,4.28,,13.69,1.127,95.2,,35.9,5.0,,,,,,,,,,,,0,0,0,0,0,0,0,0,0,0,0,0,0,0,0,0,,,,,0.0,,,,,,
218,1101288,1745084827483,,,,,,,,,,,,,,,,,,,,,,,,,,,,,,,,,,0,0,0,0,0,0,0,0,0,0,0,0,0,0,0,0,,,,,,,,,,,
219,1101308,1745084827503,0.0,183.38,,0.03,-0.04,0.95,0.0,0.0,-1.0,0.95,1.03,93.0,3651.0,18.3,4.12,,13.67,1.147,95.2,,37.3,5.0,15.0,0.0,15.0,15.0,0.0,247.0,0.0,0.0,2.27,,,0,0,0,0,0,0,0,0,0,0,0,0,0,0,0,0,2.0,,,,0.0,39.239761,-77.965775,23.05,32.0,3.0,0.8
220,1101328,1745084827523,,,,,,,,,,,,,,,,,,,,,,,,,,,,,,,,,,0,0,0,0,0,0,0,0,0,0,0,0,0,0,0,0,,,,,,,,,,,
221,1101348,1745084827543,0.0,183.38,,0.0,-0.08,0.99,0.0,0.0,-1.0,1.0,1.03,97.0,3502.0,18.3,4.33,,13.67,1.147,95.2,,37.3,5.0,,,,,,,,,,,,0,0,0,0,0,0,0,0,0,0,0,0,0,0,0,0,,,,,0.0,,,,,,
222,1101368,1745084827563,,,,,,,,,,,,,,,,,,,,,,,,,,,,,,,,,,0,0,0,0,0,0,0,0,0,0,0,0,0,0,0,0,,,,,,,,,,,
223,1101388,1745084827583,0.0,183.38,,0.02,-0.03,1.03,0.0,0.0,0.0,1.03,1.03,100.0,3502.0,18.3,4.33,,13.69,1.191,95.2,,37.8,5.0,,,,,,,,,,,,0,0,0,0,0,0,0,0,0,0,0,0,0,0,0,0,,,,,0.0,,,,,,
224,1101408,1745084827603,,,,,,,,,,,,,,,,,,,,,,,15.0,0.0,15.0,15.0,0.0,46.0,0.0,0.0,2.27,,,0,0,0,0,0,0,0,0,0,0,0,0,0,0,0,0,2.0,,,,,39.239754,-77.965782,23.39,32.0,3.0,0.8
225,1101428,1745084827623,0.0,183.51,,0.03,0.03,1.0,1.0,0.0,-1.0,1.0,1.03,97.0,3543.0,18.6,4.16,,13.68,1.113,95.2,,37.8,5.0,,,,,,,,,,,,0,0,0,0,0,0,0,0,0,0,0,0,0,0,0,0,,,,,0.0,,,,,,
226,1101448,1745084827643,,,,,,,,,,,,,,,,,,,,,,,,,,,,,,,,,,0,0,0,0,0,0,0,0,0,0,0,0,0,0,0,0,,,,,,,,,,,
227,1101468,1745084827663,0.0,183.63,,0.03,0.04,0.96,2.0,0.0,-1.0,0.97,1.03,94.0,3569.0,18.4,4.28,,13.67,1.058,95.2,,37.8,5.0,,,,,,,,,,,,0,0,0,0,0,0,0,0,0,0,0,0,0,0,0,0,,,,,0.0,,,,,,
228,1101488,1745084827683,,,,,,,,,,,,,,,,,,,,,,,,,,,,,,,,,,0,0,0,0,0,0,0,0,0,0,0,0,0,0,0,0,,,,,,,,,,,
229,1101508,1745084827703,0.0,183.63,,0.01,-0.04,0.95,3.0,0.0,-1.0,0.95,1.03,93.0,3563.0,18.6,4.19,,13.6,1.04,95.2,,37.2,5.0,15.0,0.0,15.0,14.0,0.0,37.0,0.0,0.0,2.26,,,0,0,0,0,0,0,0,0,0,0,0,0,0,0,0,0,2.0,,,,0.0,39.23975,-77.965782,23.59,32.0,3.0,0.8
230,1101528,1745084827723,,,,,,,,,,,,,,,,,,,,,,,,,,,,,,,,,,0,0,0,0,0,0,0,0,0,0,0,0,0,0,0,0,,,,,,,,,,,
231,1101548,1745084827743,0.0,183.76,,0.02,-0.03,1.0,3.0,0.0,-1.0,1.01,1.03,97.0,3683.0,18.6,4.16,,13.6,1.04,95.2,,37.2,5.0,,,,,,,,,,,,0,0,0,0,0,0,0,0,0,0,0,0,0,0,0,0,,,,,0.0,,,,,,
232,1101568,1745084827763,,,,,,,,,,,,,,,,,,,,,,,,,,,,,,,,,,0,0,0,0,0,0,0,0,0,0,0,0,0,0,0,0,,,,,,,,,,,
233,1101588,1745084827783,0.0,183.76,,0.03,0.01,1.04,3.0,0.0,0.0,1.04,1.04,100.0,3683.0,18.6,4.16,,13.59,1.07,95.2,,37.6,5.0,,,,,,,,,,,,0,0,0,0,0,0,0,0,0,0,0,0,0,0,0,0,,,,,0.0,,,,,,
234,1101608,1745084827803,,,,,,,,,,,,,,,,,,,,,,,15.0,0.0,15.0,15.0,0.0,13.0,0.0,0.0,2.26,,,0,0,0,0,0,0,0,0,0,0,0,0,0,0,0,0,0.0,,,,,39.239746,-77.96579,23.55,32.0,3.0,0.8
235,1101628,1745084827823,0.0,183.89,,0.04,0.07,1.02,3.0,0.0,0.0,1.03,1.04,99.0,3562.0,18.2,4.15,,13.68,1.113,95.2,,37.6,5.0,,,,,,,,,,,,0,0,0,0,0,0,0,0,0,0,0,0,0,0,0,0,,,,,0.0,,,,,,
236,1101648,1745084827843,,,,,,,,,,,,,,,,,,,,,,,,,,,,,,,,,,0,0,0,0,0,0,0,0,0,0,0,0,0,0,0,0,,,,,,,,,,,
237,1101668,1745084827863,0.0,184.01,,0.05,0.08,1.0,3.0,0.0,0.0,1.01,1.04,97.0,3674.0,17.1,4.03,,13.59,1.146,95.2,,37.6,5.0,,,,,,,,,,,,0,0,0,0,0,0,0,0,0,0,0,0,0,0,0,0,,,,,0.0,,,,,,
238,1101688,1745084827883,,,,,,,,,,,,,,,,,,,,,,,,,,,,,,,,,,0,0,0,0,0,0,0,0,0,0,0,0,0,0,0,0,,,,,,,,,,,
239,1101708,1745084827903,0.0,184.14,13.6,0.03,0.08,0.96,4.0,0.0,-1.0,0.97,1.04,93.0,3598.0,16.3,3.79,15.0,13.52,1.137,95.2,138.0,38.3,5.0,15.0,0.0,15.0,15.0,0.0,36.0,0.0,0.0,2.27,0.0,0.0,0,0,0,0,0,0,0,0,0,0,0,0,0,0,0,0,0.0,0.0,0.0,0.0,0.0,39.239742,-77.96579,23.84,32.0,3.0,0.8
240,1101728,1745084827923,,,,,,,,,,,,,,,,,,,,,,,,,,,,,,,,,,0,0,0,0,0,0,0,0,0,0,0,0,0,0,0,0,,,,,,,,,,,
241,1101748,1745084827943,0.0,184.26,,0.0,-0.0,1.0,4.0,0.0,-1.0,1.0,1.04,96.0,3600.0,16.0,3.9,,13.52,1.137,95.2,,38.3,5.0,,,,,,,,,,,,0,0,0,0,0,0,0,0,0,0,0,0,0,0,0,0,,,,,0.0,,,,,,
242,1101768,1745084827963,,,,,,,,,,,,,,,,,,,,,,,,,,,,,,,,,,0,0,0,0,0,0,0,0,0,0,0,0,0,0,0,0,,,,,,,,,,,
243,1101788,1745084827983,0.0,184.26,,-0.01,0.07,1.03,4.0,0.0,0.0,1.03,1.04,99.0,3600.0,16.0,3.9,,13.55,1.134,95.2,,37.2,5.0,,,,,,,,,,,,0,0,0,0,0,0,0,0,0,0,0,0,0,0,0,0,,,,,0.0,,,,,,
244,1101808,1745084828003,,,,,,,,,,,,,,,,,,,,,,,15.0,0.0,15.0,15.0,0.0,9.0,0.0,0.0,2.26,,,0,0,0,0,0,0,0,0,0,0,0,0,0,0,0,0,2.0,,,,,39.239742,-77.96579,23.84,32.0,3.0,0.8
245,1101828,1745084828015,0.0,184.39,,0.01,0.12,1.01,4.0,0.0,0.0,1.02,1.04,98.0,3565.0,14.7,3.78,,13.49,1.148,95.2,,37.2,5.0,,,,,,,,,,,,0,0,0,0,0,0,0,0,0,0,0,0,0,0,0,0,,,,,0.0,,,,,,
246,1101848,1745084828035,,,,,,,,,,,,,,,,,,,,,,,,,,,,,,,,,,0,0,0,0,0,0,0,0,0,0,0,0,0,0,0,0,,,,,,,,,,,
247,1101868,1745084828055,0.0,184.51,,0.02,0.12,0.99,4.0,0.0,0.0,1.0,1.04,96.0,3609.0,14.4,3.78,,13.48,1.168,95.2,,37.2,5.0,,,,,,,,,,,,0,0,0,0,0,0,0,0,0,0,0,0,0,0,0,0,,,,,0.0,,,,,,
248,1101888,1745084828075,,,,,,,,,,,,,,,,,,,,,,,,,,,,,,,,,,0,0,0,0,0,0,0,0,0,0,0,0,0,0,0,0,,,,,,,,,,,
249,1101908,1745084828101,0.0,184.51,,0.0,0.13,0.98,4.0,0.0,0.0,0.98,1.04,95.0,3777.0,14.2,3.66,,13.47,1.191,95.2,,37.3,5.0,15.0,0.0,15.0,15.0,0.0,13.0,0.0,0.0,2.26,,,0,0,0,0,0,0,0,0,0,0,0,0,0,0,0,0,2.0,,,,0.0,39.239731,-77.965797,23.68,32.0,3.0,0.8
250,1101928,1745084828121,,,,,,,,,,,,,,,,,,,,,,,,,,,,,,,,,,0,0,0,0,0,0,0,0,0,0,0,0,0,0,0,0,,,,,,,,,,,
251,1101948,1745084828141,0.0,184.64,,-0.01,0.14,0.95,4.0,0.0,0.0,0.96,0.96,100.0,3608.0,14.2,3.64,,13.47,1.191,95.2,,37.3,5.0,,,,,,,,,,,,0,0,0,0,0,0,0,0,0,0,0,0,0,0,0,0,,,,,0.0,,,,,,
252,1101968,1745084828161,,,,,,,,,,,,,,,,,,,,,,,,,,,,,,,,,,0,0,0,0,0,0,0,0,0,0,0,0,0,0,0,0,,,,,,,,,,,
253,1101988,1745084828181,0.0,184.64,,-0.02,0.07,0.97,3.0,0.0,0.0,0.97,0.97,100.0,3608.0,14.2,3.64,,13.41,1.248,95.2,,37.4,5.0,,,,,,,,,,,,0,0,0,0,0,0,0,0,0,0,0,0,0,0,0,0,,,,,0.0,,,,,,
254,1102008,1745084828202,,,,,,,,,,,,,,,,,,,,,,,15.0,0.0,15.0,15.0,0.0,239.0,0.0,0.0,2.26,,,0,0,0,0,0,0,0,0,0,0,0,0,0,0,0,0,2.0,,,,,39.239727,-77.965805,23.78,32.0,3.0,0.8
255,1102028,1745084828222,0.0,184.64,,-0.04,0.07,0.99,3.0,0.0,1.0,1.0,1.0,100.0,3579.0,12.4,3.69,,13.36,1.178,95.2,,37.4,5.0,,,,,,,,,,,,0,0,0,0,0,0,0,0,0,0,0,0,0,0,0,0,,,,,0.0,,,,,,
256,1102048,1745084828242,,,,,,,,,,,,,,,,,,,,,,,,,,,,,,,,,,0,0,0,0,0,0,0,0,0,0,0,0,0,0,0,0,,,,,,,,,,,
257,1102068,1745084828262,0.0,184.77,,-0.04,0.12,0.98,3.0,-1.0,1.0,0.99,1.0,99.0,3559.0,12.3,3.67,,13.35,1.166,95.2,,37.4,5.0,,,,,,,,,,,,0,0,0,0,0,0,0,0,0,0,0,0,0,0,0,0,,,,,0.0,,,,,,
258,1102088,1745084828282,,,,,,,,,,,,,,,,,,,,,,,,,,,,,,,,,,0,0,0,0,0,0,0,0,0,0,0,0,0,0,0,0,,,,,,,,,,,
259,1102108,1745084828302,0.0,184.77,,-0.04,0.14,0.93,1.0,0.0,1.0,0.94,1.0,95.0,3571.0,12.2,3.64,,13.37,1.193,95.2,,37.3,5.0,15.0,0.0,15.0,15.0,0.0,0.0,0.0,0.0,2.26,,,0,0,0,0,0,0,0,0,0,0,0,0,0,0,0,0,2.0,,,,0.0,39.239719,-77.965805,23.69,32.0,3.0,0.8
260,1102128,1745084828322,,,,,,,,,,,,,,,,,,,,,,,,,,,,,,,,,,0,0,0,0,0,0,0,0,0,0,0,0,0,0,0,0,,,,,,,,,,,
261,1102148,1745084828342,0.0,184.77,,-0.04,0.04,0.92,2.0,0.0,1.0,0.92,1.0,92.0,3701.0,11.9,3.6,,13.37,1.193,95.2,,37.3,5.0,,,,,,,,,,,,0,0,0,0,0,0,0,0,0,0,0,0,0,0,0,0,,,,,0.0,,,,,,
262,1102168,1745084828362,,,,,,,,,,,,,,,,,,,,,,,,,,,,,,,,,,0,0,0,0,0,0,0,0,0,0,0,0,0,0,0,0,,,,,,,,,,,
263,1102188,1745084828382,0.0,184.77,,-0.06,-0.01,0.91,1.0,0.0,1.0,0.91,1.0,92.0,3701.0,11.9,3.6,,13.21,1.249,95.2,,38.2,5.0,,,,,,,,,,,,0,0,0,0,0,0,0,0,0,0,0,0,0,0,0,0,,,,,0.0,,,,,,
264,1102208,1745084828402,,,,,,,,,,,,,,,,,,,,,,,15.0,0.0,15.0,15.0,0.0,0.0,0.0,0.0,2.27,,,0,0,0,0,0,0,0,0,0,0,0,0,0,0,0,0,2.0,,,,,39.239716,-77.965813,23.55,32.0,3.0,0.8
265,1102228,1745084828422,0.0,184.64,,-0.06,-0.07,0.96,-1.0,0.0,1.0,0.96,1.0,97.0,3574.0,11.9,3.6,,13.28,1.237,95.2,,38.2,5.0,,,,,,,,,,,,0,0,0,0,0,0,0,0,0,0,0,0,0,0,0,0,,,,,0.0,,,,,,
266,1102248,1745084828442,,,,,,,,,,,,,,,,,,,,,,,,,,,,,,,,,,0,0,0,0,0,0,0,0,0,0,0,0,0,0,0,0,,,,,,,,,,,
267,1102268,1745084828462,0.0,184.64,,-0.08,0.03,0.97,-2.0,0.0,1.0,0.97,1.0,97.0,3522.0,12.1,3.6,,13.35,1.195,95.2,,38.2,5.0,,,,,,,,,,,,0,0,0,0,0,0,0,0,0,0,0,0,0,0,0,0,,,,,0.0,,,,,,
268,1102288,1745084828482,,,,,,,,,,,,,,,,,,,,,,,,,,,,,,,,,,0,0,0,0,0,0,0,0,0,0,0,0,0,0,0,0,,,,,,,,,,,
269,1102308,1745084828502,0.0,184.64,,-0.08,0.06,0.93,-3.0,0.0,1.0,0.93,1.0,94.0,3501.0,11.7,3.59,,13.4,1.169,95.2,,36.7,5.0,15.0,0.0,15.0,15.0,0.0,13.0,0.0,0.0,2.27,,,0,0,0,0,0,0,0,0,0,0,0,0,0,0,0,0,2.0,,,,0.0,39.239708,-77.965813,23.74,32.0,3.0,0.8
270,1102328,1745084828522,,,,,,,,,,,,,,,,,,,,,,,,,,,,,,,,,,0,0,0,0,0,0,0,0,0,0,0,0,0,0,0,0,,,,,,,,,,,
271,1102348,1745084828542,0.0,184.64,,-0.09,-0.08,0.97,-5.0,-1.0,1.0,0.98,1.0,98.0,3536.0,11.6,3.59,,13.4,1.169,93.4,,36.7,5.0,,,,,,,,,,,,0,0,0,0,0,0,0,0,0,0,0,0,0,0,0,0,,,,,0.0,,,,,,
272,1102368,1745084828562,,,,,,,,,,,,,,,,,,,,,,,,,,,,,,,,,,0,0,0,0,0,0,0,0,0,0,0,0,0,0,0,0,,,,,,,,,,,
273,1102388,1745084828582,0.0,184.51,,-0.1,-0.1,1.0,-4.0,-1.0,1.0,1.01,1.01,100.0,3536.0,11.6,3.59,,13.33,1.183,93.4,,36.3,5.0,,,,,,,,,,,,0,0,0,0,0,0,0,0,0,0,0,0,0,0,0,0,,,,,0.0,,,,,,
274,1102408,1745084828602,,,,,,,,,,,,,,,,,,,,,,,15.0,0.0,14.0,15.0,0.0,43.0,0.0,0.0,2.26,,,0,0,0,0,0,0,0,0,0,0,0,0,0,0,0,0,2.0,,,,,39.239708,-77.96582,23.5,32.0,3.0,0.8
275,1102428,1745084828622,0.0,184.64,,-0.1,-0.04,0.98,-5.0,-1.0,1.0,0.98,1.01,97.0,3507.0,11.6,3.58,,13.29,1.199,93.4,,36.3,5.0,,,,,,,,,,,,0,0,0,0,0,0,0,0,0,0,0,0,0,0,0,0,,,,,0.0,,,,,,
276,1102448,1745084828642,,,,,,,,,,,,,,,,,,,,,,,,,,,,,,,,,,0,0,0,0,0,0,0,0,0,0,0,0,0,0,0,0,,,,,,,,,,,
277,1102468,1745084828662,0.0,184.51,,-0.08,-0.08,0.96,-6.0,-1.0,1.0,0.96,1.01,95.0,3592.0,11.7,3.63,,13.28,1.226,93.4,,36.3,5.0,,,,,,,,,,,,0,0,0,0,0,0,0,0,0,0,0,0,0,0,0,0,,,,,0.0,,,,,,
278,1102488,1745084828682,,,,,,,,,,,,,,,,,,,,,,,,,,,,,,,,,,0,0,0,0,0,0,0,0,0,0,0,0,0,0,0,0,,,,,,,,,,,
279,1102508,1745084828702,0.0,184.51,,-0.09,-0.16,1.0,-7.0,0.0,1.0,1.02,1.02,100.0,3504.0,11.7,3.62,,13.35,1.23,93.4,,36.9,5.0,15.0,0.0,15.0,15.0,0.0,18.0,0.0,0.0,2.26,,,0,0,0,0,0,0,0,0,0,0,0,0,0,0,0,0,2.0,,,,0.0,39.239708,-77.96582,23.5,32.0,3.0,0.8
280,1102528,1745084828720,,,,,,,,,,,,,,,,,,,,,,,,,,,,,,,,,,0,0,0,0,0,0,0,0,0,0,0,0,0,0,0,0,,,,,,,,,,,
281,1102548,1745084828740,0.0,184.51,,-0.08,-0.09,1.03,-7.0,0.0,1.0,1.04,1.04,100.0,3525.0,11.7,3.64,,13.35,1.23,93.4,,36.9,5.0,,,,,,,,,,,,0,0,0,0,0,0,0,0,0,0,0,0,0,0,0,0,,,,,0.0,,,,,,
282,1102568,1745084828760,,,,,,,,,,,,,,,,,,,,,,,,,,,,,,,,,,0,0,0,0,0,0,0,0,0,0,0,0,0,0,0,0,,,,,,,,,,,
283,1102588,1745084828780,0.0,184.51,,-0.09,-0.04,0.97,-6.0,0.0,1.0,0.98,1.04,94.0,3525.0,11.7,3.64,,13.33,1.236,93.4,,36.4,5.0,,,,,,,,,,,,0,0,0,0,0,0,0,0,0,0,0,0,0,0,0,0,,,,,0.0,,,,,,
284,1102608,1745084828802,,,,,,,,,,,,,,,,,,,,,,,15.0,0.0,14.0,15.0,0.0,4.0,0.0,0.0,2.26,,,0,0,0,0,0,0,0,0,0,0,0,0,0,0,0,0,0.0,,,,,39.239696,-77.965828,23.03,32.0,3.0,0.8
285,1102628,1745084828822,0.0,184.51,,-0.08,-0.12,1.0,-5.0,0.0,1.0,1.01,1.04,97.0,3497.0,11.6,3.64,,13.32,1.248,93.4,,36.4,5.0,,,,,,,,,,,,0,0,0,0,0,0,0,0,0,0,0,0,0,0,0,0,,,,,0.0,,,,,,
286,1102648,1745084828842,,,,,,,,,,,,,,,,,,,,,,,,,,,,,,,,,,0,0,0,0,0,0,0,0,0,0,0,0,0,0,0,0,,,,,,,,,,,
287,1102668,1745084828862,0.0,184.51,,-0.08,-0.12,1.01,-4.0,0.0,1.0,1.02,1.04,99.0,3582.0,11.5,3.64,,13.29,1.25,93.4,,36.4,5.0,,,,,,,,,,,,0,0,0,0,0,0,0,0,0,0,0,0,0,0,0,0,,,,,0.0,,,,,,
288,1102688,1745084828882,,,,,,,,,,,,,,,,,,,,,,,,,,,,,,,,,,0,0,0,0,0,0,0,0,0,0,0,0,0,0,0,0,,,,,,,,,,,
289,1102708,1745084828902,0.0,184.51,13.64,-0.07,-0.03,0.95,-3.0,0.0,1.0,0.95,1.04,92.0,3475.0,11.5,3.64,15.0,13.39,1.25,93.4,140.0,36.6,5.0,15.0,0.0,15.0,15.0,0.0,247.0,0.0,0.0,2.27,0.0,0.0,0,0,0,0,0,0,0,0,0,0,0,0,0,0,0,0,0.0,0.0,0.0,0.0,0.0,39.239689,-77.965828,23.01,32.0,3.0,0.8
290,1102728,1745084828922,,,,,,,,,,,,,,,,,,,,,,,,,,,,,,,,,,0,0,0,0,0,0,0,0,0,0,0,0,0,0,0,0,,,,,,,,,,,
291,1102748,1745084828942,0.0,184.64,,-0.08,-0.16,1.0,-3.0,0.0,1.0,1.01,1.04,97.0,3483.0,11.5,3.68,,13.39,1.25,93.4,,36.6,5.0,,,,,,,,,,,,0,0,0,0,0,0,0,0,0,0,0,0,0,0,0,0,,,,,0.0,,,,,,
292,1102768,1745084828962,,,,,,,,,,,,,,,,,,,,,,,,,,,,,,,,,,0,0,0,0,0,0,0,0,0,0,0,0,0,0,0,0,,,,,,,,,,,
293,1102788,1745084828982,0.0,184.64,,-0.08,-0.07,1.0,-2.0,0.0,1.0,1.0,1.04,97.0,3483.0,11.5,3.68,,13.39,1.243,93.4,,35.6,5.0,,,,,,,,,,,,0,0,0,0,0,0,0,0,0,0,0,0,0,0,0,0,,,,,0.0,,,,,,
294,1102808,1745084829002,,,,,,,,,,,,,,,,,,,,,,,14.0,0.0,14.0,14.0,0.0,0.0,0.0,0.0,2.26,,,0,0,0,0,0,0,0,0,0,0,0,0,0,0,0,0,2.0,,,,,39.239689,-77.965828,23.01,32.0,3.0,0.8
295,1102828,1745084829014,0.0,184.64,,-0.08,-0.06,0.96,-4.0,-1.0,1.0,0.96,1.04,93.0,3462.0,11.6,3.68,,13.35,1.25,93.4,,35.6,5.0,,,,,,,,,,,,0,0,0,0,0,0,0,0,0,0,0,0,0,0,0,0,,,,,0.0,,,,,,
296,1102848,1745084829034,,,,,,,,,,,,,,,,,,,,,,,,,,,,,,,,,,0,0,0,0,0,0,0,0,0,0,0,0,0,0,0,0,,,,,,,,,,,
297,1102868,1745084829054,0.0,184.64,,-0.09,-0.07,1.02,-3.0,-1.0,1.0,1.03,1.04,99.0,3494.0,11.5,3.67,,13.39,1.251,93.4,,35.6,5.0,,,,,,,,,,,,0,0,0,0,0,0,0,0,0,0,0,0,0,0,0,0,,,,,0.0,,,,,,
298,1102888,1745084829074,,,,,,,,,,,,,,,,,,,,,,,,,,,,,,,,,,0,0,0,0,0,0,0,0,0,0,0,0,0,0,0,0,,,,,,,,,,,
299,1102908,1745084829102,0.0,184.64,,-0.08,0.04,0.96,-3.0,-1.0,1.0,0.96,1.04,93.0,3391.0,11.6,3.68,,13.45,1.249,93.4,,35.1,5.0,15.0,0.0,14.0,14.0,0.0,0.0,0.0,0.0,2.26,,,0,0,0,0,0,0,0,0,0,0,0,0,0,0,0,0,2.0,,,,0.0,39.239681,-77.965836,22.77,32.0,3.0,0.8
300,1102928,1745084829122,,,,,,,,,,,,,,,,,,,,,,,,,,,,,,,,,,0,0,0,0,0,0,0,0,0,0,0,0,0,0,0,0,,,,,,,,,,,
301,1102948,1745084829142,0.0,184.64,,-0.09,-0.08,1.02,-4.0,-1.0,0.0,1.03,1.04,99.0,3371.0,11.6,3.67,,13.45,1.249,93.4,,35.1,5.0,,,,,,,,,,,,0,0,0,0,0,0,0,0,0,0,0,0,0,0,0,0,,,,,0.0,,,,,,
302,1102968,1745084829162,,,,,,,,,,,,,,,,,,,,,,,,,,,,,,,,,,0,0,0,0,0,0,0,0,0,0,0,0,0,0,0,0,,,,,,,,,,,
303,1102988,1745084829182,0.0,184.64,,-0.1,0.05,0.99,-4.0,-1.0,1.0,0.99,1.04,96.0,3371.0,11.6,3.67,,13.44,1.236,93.4,,34.6,5.0,,,,,,,,,,,,0,0,0,0,0,0,0,0,0,0,0,0,0,0,0,0,,,,,0.0,,,,,,
304,1103008,1745084829202,,,,,,,,,,,,,,,,,,,,,,,14.0,0.0,14.0,14.0,0.0,18.0,0.0,0.0,2.26,,,0,0,0,0,0,0,0,0,0,0,0,0,0,0,0,0,2.0,,,,,39.239681,-77.965836,22.77,32.0,3.0,0.8
305,1103028,1745084829219,0.0,184.64,,-0.1,-0.03,0.96,-5.0,-1.0,0.0,0.97,1.04,93.0,3445.0,10.3,3.69,,13.35,1.228,93.4,,34.6,5.0,,,,,,,,,,,,0,0,0,0,0,0,0,0,0,0,0,0,0,0,0,0,,,,,0.0,,,,,,
306,1103048,1745084829239,,,,,,,,,,,,,,,,,,,,,,,,,,,,,,,,,,0,0,0,0,0,0,0,0,0,0,0,0,0,0,0,0,,,,,,,,,,,
307,1103068,1745084829259,0.0,184.64,,-0.1,0.01,0.99,-4.0,-1.0,1.0,1.0,1.04,96.0,3408.0,6.2,3.51,,13.2,1.225,93.4,,34.6,5.0,,,,,,,,,,,,0,0,0,0,0,0,0,0,0,0,0,0,0,0,0,0,,,,,0.0,,,,,,
308,1103088,1745084829279,,,,,,,,,,,,,,,,,,,,,,,,,,,,,,,,,,0,0,0,0,0,0,0,0,0,0,0,0,0,0,0,0,,,,,,,,,,,
309,1103108,1745084829301,0.0,184.64,,-0.1,0.02,0.96,-6.0,0.0,0.0,0.96,1.04,92.0,3393.0,5.4,3.46,,13.08,1.238,93.4,,34.7,5.0,13.0,0.0,14.0,14.0,0.0,4.0,0.0,0.0,2.27,,,0,0,0,0,0,0,0,0,0,0,0,0,0,0,0,0,2.0,,,,0.0,39.239674,-77.965851,22.37,32.0,3.0,0.8
310,1103128,1745084829321,,,,,,,,,,,,,,,,,,,,,,,,,,,,,,,,,,0,0,0,0,0,0,0,0,0,0,0,0,0,0,0,0,,,,,,,,,,,
311,1103148,1745084829341,0.0,184.64,,-0.09,0.03,0.97,-4.0,0.0,1.0,0.98,1.04,94.0,3306.0,5.4,3.46,,13.08,1.238,93.4,,34.7,5.0,,,,,,,,,,,,0,0,0,0,0,0,0,0,0,0,0,0,0,0,0,0,,,,,0.0,,,,,,
312,1103168,1745084829361,,,,,,,,,,,,,,,,,,,,,,,,,,,,,,,,,,0,0,0,0,0,0,0,0,0,0,0,0,0,0,0,0,,,,,,,,,,,
313,1103188,1745084829381,0.0,184.64,,-0.12,-0.03,1.0,-4.0,0.0,0.0,1.01,1.04,97.0,3306.0,5.4,3.46,,12.99,1.223,93.4,,33.6,5.0,,,,,,,,,,,,0,0,0,0,0,0,0,0,0,0,0,0,0,0,0,0,,,,,0.0,,,,,,
314,1103208,1745084829403,,,,,,,,,,,,,,,,,,,,,,,14.0,0.0,14.0,14.0,0.0,14.0,0.0,0.0,2.27,,,0,0,0,0,0,0,0,0,0,0,0,0,0,0,0,0,2.0,,,,,39.239666,-77.965858,22.14,32.0,3.0,0.8
315,1103228,1745084829423,0.0,184.64,,-0.09,0.1,0.95,-4.0,0.0,1.0,0.96,1.04,92.0,3286.0,5.2,3.46,,13.0,1.23,93.4,,33.6,5.0,,,,,,,,,,,,0,0,0,0,0,0,0,0,0,0,0,0,0,0,0,0,,,,,0.0,,,,,,
316,1103248,1745084829443,,,,,,,,,,,,,,,,,,,,,,,,,,,,,,,,,,0,0,0,0,0,0,0,0,0,0,0,0,0,0,0,0,,,,,,,,,,,
317,1103268,1745084829463,0.0,184.64,,-0.1,0.01,0.99,-3.0,0.0,0.0,1.0,1.04,96.0,3391.0,5.1,3.44,,12.93,1.234,93.4,,33.6,5.0,,,,,,,,,,,,0,0,0,0,0,0,0,0,0,0,0,0,0,0,0,0,,,,,0.0,,,,,,
318,1103288,1745084829483,,,,,,,,,,,,,,,,,,,,,,,,,,,,,,,,,,0,0,0,0,0,0,0,0,0,0,0,0,0,0,0,0,,,,,,,,,,,
319,1103308,1745084829503,0.0,184.64,,-0.06,0.12,0.96,-3.0,0.0,1.0,0.97,1.04,93.0,3323.0,5.1,3.44,,12.97,1.209,93.4,,34.6,5.0,14.0,0.0,14.0,14.0,0.0,232.0,0.0,0.0,2.27,,,0,0,0,0,0,0,0,0,0,0,0,0,0,0,0,0,2.0,,,,0.0,39.239666,-77.965858,21.93,32.0,3.0,0.8
320,1103328,1745084829523,,,,,,,,,,,,,,,,,,,,,,,,,,,,,,,,,,0,0,0,0,0,0,0,0,0,0,0,0,0,0,0,0,,,,,,,,,,,
321,1103348,1745084829543,0.0,184.64,,-0.09,0.03,1.04,-3.0,0.0,0.0,1.05,1.05,100.0,3337.0,5.1,3.74,,12.97,1.209,93.4,,34.6,5.0,,,,,,,,,,,,0,0,0,0,0,0,0,0,0,0,0,0,0,0,0,0,,,,,0.0,,,,,,
322,1103368,1745084829563,,,,,,,,,,,,,,,,,,,,,,,,,,,,,,,,,,0,0,0,0,0,0,0,0,0,0,0,0,0,0,0,0,,,,,,,,,,,
323,1103388,1745084829583,0.0,184.77,,-0.1,0.06,0.96,-3.0,0.0,0.0,0.97,1.05,93.0,3337.0,5.1,3.74,,12.93,1.208,93.4,,33.1,5.0,,,,,,,,,,,,0,0,0,0,0,0,0,0,0,0,0,0,0,0,0,0,,,,,0.0,,,,,,
324,1103408,1745084829603,,,,,,,,,,,,,,,,,,,,,,,13.0,0.0,14.0,13.0,0.0,247.0,0.0,0.0,2.26,,,0,0,0,0,0,0,0,0,0,0,0,0,0,0,0,0,2.0,,,,,39.239662,-77.965866,21.68,32.0,3.0,0.8
325,1103428,1745084829623,0.0,184.77,,-0.08,0.08,0.98,-3.0,0.0,0.0,0.98,1.05,94.0,3247.0,5.2,3.74,,13.0,1.211,93.4,,33.1,5.0,,,,,,,,,,,,0,0,0,0,0,0,0,0,0,0,0,0,0,0,0,0,,,,,0.0,,,,,,
326,1103448,1745084829643,,,,,,,,,,,,,,,,,,,,,,,,,,,,,,,,,,0,0,0,0,0,0,0,0,0,0,0,0,0,0,0,0,,,,,,,,,,,
327,1103468,1745084829663,0.0,184.77,,-0.1,-0.02,1.03,-2.0,0.0,0.0,1.03,1.05,99.0,3237.0,5.5,3.74,,13.0,1.204,93.4,,33.1,5.0,,,,,,,,,,,,0,0,0,0,0,0,0,0,0,0,0,0,0,0,0,0,,,,,0.0,,,,,,
328,1103488,1745084829683,,,,,,,,,,,,,,,,,,,,,,,,,,,,,,,,,,0,0,0,0,0,0,0,0,0,0,0,0,0,0,0,0,,,,,,,,,,,
329,1103508,1745084829703,0.0,184.89,,-0.11,-0.03,0.96,-2.0,0.0,0.0,0.96,0.96,100.0,3265.0,5.4,3.75,,12.96,1.203,93.4,,32.6,5.0,14.0,0.0,14.0,13.0,0.0,0.0,0.0,0.0,2.26,,,0,0,0,0,0,0,0,0,0,0,0,0,0,0,0,0,2.0,,,,0.0,39.239655,-77.965866,21.47,32.0,3.0,0.8
330,1103528,1745084829723,,,,,,,,,,,,,,,,,,,,,,,,,,,,,,,,,,0,0,0,0,0,0,0,0,0,0,0,0,0,0,0,0,,,,,,,,,,,
331,1103548,1745084829743,0.0,184.89,,-0.08,0.02,0.96,-2.0,0.0,0.0,0.96,0.96,100.0,3174.0,5.2,3.75,,12.96,1.203,93.4,,32.6,5.0,,,,,,,,,,,,0,0,0,0,0,0,0,0,0,0,0,0,0,0,0,0,,,,,0.0,,,,,,
332,1103568,1745084829763,,,,,,,,,,,,,,,,,,,,,,,,,,,,,,,,,,0,0,0,0,0,0,0,0,0,0,0,0,0,0,0,0,,,,,,,,,,,
333,1103588,1745084829783,0.0,184.89,,-0.09,-0.02,1.02,-2.0,0.0,0.0,1.02,1.02,100.0,3174.0,5.2,3.75,,12.99,1.191,93.4,,32.8,5.0,,,,,,,,,,,,0,0,0,0,0,0,0,0,0,0,0,0,0,0,0,0,,,,,0.0,,,,,,
334,1103608,1745084829803,,,,,,,,,,,,,,,,,,,,,,,13.0,0.0,13.0,14.0,0.0,41.0,0.0,0.0,2.26,,,0,0,0,0,0,0,0,0,0,0,0,0,0,0,0,0,0.0,,,,,39.239651,-77.965866,21.15,32.0,3.0,0.8
335,1103628,1745084829823,0.0,185.02,,-0.11,-0.06,0.99,-1.0,0.0,0.0,0.99,1.02,97.0,3196.0,5.0,3.74,,12.99,1.183,93.4,,32.8,5.0,,,,,,,,,,,,0,0,0,0,0,0,0,0,0,0,0,0,0,0,0,0,,,,,0.0,,,,,,
336,1103648,1745084829843,,,,,,,,,,,,,,,,,,,,,,,,,,,,,,,,,,0,0,0,0,0,0,0,0,0,0,0,0,0,0,0,0,,,,,,,,,,,
337,1103668,1745084829863,0.0,185.02,,-0.09,0.05,0.93,-1.0,-1.0,0.0,0.93,1.02,91.0,3243.0,5.1,3.77,,12.95,1.178,93.4,,32.8,5.0,,,,,,,,,,,,0,0,0,0,0,0,0,0,0,0,0,0,0,0,0,0,,,,,0.0,,,,,,
338,1103688,1745084829883,,,,,,,,,,,,,,,,,,,,,,,,,,,,,,,,,,0,0,0,0,0,0,0,0,0,0,0,0,0,0,0,0,,,,,,,,,,,
339,1103708,1745084829903,0.0,185.02,13.62,-0.08,0.07,0.96,-1.0,-1.0,0.0,0.96,1.02,94.0,3150.0,5.1,3.76,15.0,12.97,1.174,93.4,140.0,32.1,5.0,13.0,0.0,13.0,13.0,0.0,221.0,0.0,0.0,2.26,0.0,0.0,0,0,0,0,0,0,0,0,0,0,0,0,0,0,0,0,0.0,0.0,0.0,0.0,0.0,39.239647,-77.965874,21.05,32.0,3.0,0.8
340,1103728,1745084829923,,,,,,,,,,,,,,,,,,,,,,,,,,,,,,,,,,0,0,0,0,0,0,0,0,0,0,0,0,0,0,0,0,,,,,,,,,,,
341,1103748,1745084829943,0.0,185.02,,-0.09,0.01,1.03,-1.0,-1.0,1.0,1.04,1.04,100.0,3088.0,5.0,3.77,,12.97,1.174,93.4,,32.1,5.0,,,,,,,,,,,,0,0,0,0,0,0,0,0,0,0,0,0,0,0,0,0,,,,,0.0,,,,,,
342,1103768,1745084829963,,,,,,,,,,,,,,,,,,,,,,,,,,,,,,,,,,0,0,0,0,0,0,0,0,0,0,0,0,0,0,0,0,,,,,,,,,,,
343,1103788,1745084829983,0.0,185.02,,-0.11,-0.07,1.09,-1.0,0.0,0.0,1.1,1.1,100.0,3088.0,5.0,3.77,,13.01,1.179,93.4,,31.1,5.0,,,,,,,,,,,,0,0,0,0,0,0,0,0,0,0,0,0,0,0,0,0,,,,,0.0,,,,,,
344,1103808,1745084830003,,,,,,,,,,,,,,,,,,,,,,,13.0,0.0,13.0,13.0,0.0,231.0,0.0,0.0,2.26,,,0,0,0,0,0,0,0,0,0,0,0,0,0,0,0,0,0.0,,,,,39.239647,-77.965874,21.05,32.0,3.0,0.8
345,1103828,1745084830015,0.0,185.14,,-0.11,-0.05,1.02,0.0,0.0,0.0,1.03,1.1,94.0,3162.0,0.0,2.97,,12.85,1.187,93.4,,31.1,5.0,,,,,,,,,,,,0,0,0,0,0,0,0,0,0,0,0,0,0,0,0,0,,,,,0.0,,,,,,
346,1103848,1745084830035,,,,,,,,,,,,,,,,,,,,,,,,,,,,,,,,,,0,0,0,0,0,0,0,0,0,0,0,0,0,0,0,0,,,,,,,,,,,
347,1103868,1745084830055,0.0,185.14,,-0.1,-0.0,0.94,0.0,0.0,-1.0,0.95,1.1,86.0,3137.0,0.0,2.86,,12.53,1.172,93.4,,31.1,5.0,,,,,,,,,,,,0,0,0,0,0,0,0,0,0,0,0,0,0,0,0,0,,,,,0.0,,,,,,
348,1103888,1745084830075,,,,,,,,,,,,,,,,,,,,,,,,,,,,,,,,,,0,0,0,0,0,0,0,0,0,0,0,0,0,0,0,0,,,,,,,,,,,
349,1103908,1745084830095,0.0,185.14,,-0.09,0.03,0.88,0.0,0.0,-1.0,0.88,1.1,81.0,3008.0,0.0,2.86,,12.41,1.175,93.4,,31.1,5.0,13.0,0.0,13.0,13.0,0.0,48.0,0.0,0.0,2.26,,,0,0,0,0,0,0,0,0,0,0,0,0,0,0,0,0,2.0,,,,0.0,39.239643,-77.965881,20.83,32.0,3.0,0.8
350,1103928,1745084830117,,,,,,,,,,,,,,,,,,,,,,,,,,,,,,,,,,0,0,0,0,0,0,0,0,0,0,0,0,0,0,0,0,,,,,,,,,,,
351,1103948,1745084830137,0.0,185.14,,-0.08,0.05,0.83,0.0,0.0,0.0,0.84,1.1,77.0,2990.0,0.0,2.87,,12.41,1.175,93.4,,31.1,5.0,,,,,,,,,,,,0,0,0,0,0,0,0,0,0,0,0,0,0,0,0,0,,,,,0.0,,,,,,
352,1103968,1745084830157,,,,,,,,,,,,,,,,,,,,,,,,,,,,,,,,,,0,0,0,0,0,0,0,0,0,0,0,0,0,0,0,0,,,,,,,,,,,
353,1103988,1745084830177,0.0,185.27,,-0.09,0.05,0.81,0.0,0.0,0.0,0.81,1.1,74.0,2990.0,0.0,2.87,,12.36,1.187,93.4,,28.6,5.0,,,,,,,,,,,,0,0,0,0,0,0,0,0,0,0,0,0,0,0,0,0,,,,,0.0,,,,,,
354,1104008,1745084830202,,,,,,,,,,,,,,,,,,,,,,,13.0,0.0,13.0,13.0,0.0,21.0,0.0,0.0,2.26,,,0,0,0,0,0,0,0,0,0,0,0,0,0,0,0,0,2.0,,,,,39.239635,-77.965889,20.27,32.0,3.0,0.8
355,1104028,1745084830222,0.0,185.27,,-0.09,0.04,0.87,0.0,0.0,0.0,0.87,1.1,80.0,2823.0,0.0,2.93,,12.4,1.213,93.4,,28.6,5.0,,,,,,,,,,,,0,0,0,0,0,0,0,0,0,0,0,0,0,0,0,0,,,,,0.0,,,,,,
356,1104048,1745084830242,,,,,,,,,,,,,,,,,,,,,,,,,,,,,,,,,,0,0,0,0,0,0,0,0,0,0,0,0,0,0,0,0,,,,,,,,,,,
357,1104068,1745084830262,0.0,185.27,,-0.1,0.03,0.87,0.0,0.0,0.0,0.87,1.1,80.0,2699.0,0.0,3.0,,12.44,1.226,93.4,,28.6,5.0,,,,,,,,,,,,0,0,0,0,0,0,0,0,0,0,0,0,0,0,0,0,,,,,0.0,,,,,,
358,1104088,1745084830282,,,,,,,,,,,,,,,,,,,,,,,,,,,,,,,,,,0,0,0,0,0,0,0,0,0,0,0,0,0,0,0,0,,,,,,,,,,,
359,1104108,1745084830302,0.0,185.27,,-0.1,0.03,0.9,0.0,0.0,0.0,0.9,1.1,82.0,2620.0,0.0,3.04,,12.57,1.23,93.4,,26.1,5.0,13.0,0.0,12.0,12.0,0.0,27.0,0.0,0.0,2.27,,,0,0,0,0,0,0,0,0,0,0,0,0,0,0,0,0,0.0,,,,0.0,39.239632,-77.965889,19.9,32.0,3.0,0.8
360,1104128,1745084830322,,,,,,,,,,,,,,,,,,,,,,,,,,,,,,,,,,0,0,0,0,0,0,0,0,0,0,0,0,0,0,0,0,,,,,,,,,,,
361,1104148,1745084830342,0.0,185.27,,-0.11,0.02,0.9,1.0,0.0,-1.0,0.91,1.1,83.0,2501.0,0.0,3.06,,12.57,1.23,93.4,,26.1,5.0,,,,,,,,,,,,0,0,0,0,0,0,0,0,0,0,0,0,0,0,0,0,,,,,0.0,,,,,,
362,1104168,1745084830362,,,,,,,,,,,,,,,,,,,,,,,,,,,,,,,,,,0,0,0,0,0,0,0,0,0,0,0,0,0,0,0,0,,,,,,,,,,,
363,1104188,1745084830382,0.0,185.39,,-0.11,-0.0,0.92,1.0,0.0,0.0,0.92,1.1,84.0,2501.0,0.0,3.06,,12.69,1.234,93.4,,23.5,5.0,,,,,,,,,,,,0,0,0,0,0,0,0,0,0,0,0,0,0,0,0,0,,,,,0.0,,,,,,
364,1104208,1745084830402,,,,,,,,,,,,,,,,,,,,,,,12.0,0.0,12.0,12.0,0.0,44.0,0.0,0.0,2.27,,,0,0,0,0,0,0,0,0,0,0,0,0,0,0,0,0,0.0,,,,,39.239628,-77.965897,19.58,32.0,3.0,0.8
365,1104228,1745084830422,0.0,185.52,,-0.12,0.01,0.92,1.0,0.0,-1.0,0.93,1.1,85.0,2362.0,0.0,3.12,,12.83,1.241,93.4,,23.5,5.0,,,,,,,,,,,,0,0,0,0,0,0,0,0,0,0,0,0,0,0,0,0,,,,,0.0,,,,,,
366,1104248,1745084830442,,,,,,,,,,,,,,,,,,,,,,,,,,,,,,,,,,0,0,0,0,0,0,0,0,0,0,0,0,0,0,0,0,,,,,,,,,,,
367,1104268,1745084830462,0.0,185.52,,-0.11,0.01,0.92,1.0,0.0,-1.0,0.92,1.1,84.0,2243.0,0.0,3.18,,12.95,1.217,93.4,,23.5,5.0,,,,,,,,,,,,0,0,0,0,0,0,0,0,0,0,0,0,0,0,0,0,,,,,0.0,,,,,,
368,1104288,1745084830482,,,,,,,,,,,,,,,,,,,,,,,,,,,,,,,,,,0,0,0,0,0,0,0,0,0,0,0,0,0,0,0,0,,,,,,,,,,,
369,1104308,1745084830502,0.0,185.65,,-0.11,0.02,0.92,1.0,0.0,-1.0,0.92,1.1,84.0,2068.0,0.0,3.2,,13.15,1.205,93.4,,20.9,5.0,12.0,0.0,12.0,12.0,0.0,16.0,0.0,0.0,2.26,,,0,0,0,0,0,0,0,0,0,0,0,0,0,0,0,0,3.0,,,,0.0,39.239624,-77.965904,19.29,32.0,3.0,0.8
370,1104328,1745084830522,,,,,,,,,,,,,,,,,,,,,,,,,,,,,,,,,,0,0,0,0,0,0,0,0,0,0,0,0,0,0,0,0,,,,,,,,,,,
371,1104348,1745084830542,0.0,185.65,,-0.11,0.03,0.94,1.0,0.0,-1.0,0.94,1.1,86.0,1957.0,0.0,3.23,,13.15,1.205,93.4,,20.9,5.0,,,,,,,,,,,,0,0,0,0,0,0,0,0,0,0,0,0,0,0,0,0,,,,,0.0,,,,,,
372,1104368,1745084830562,,,,,,,,,,,,,,,,,,,,,,,,,,,,,,,,,,0,0,0,0,0,0,0,0,0,0,0,0,0,0,0,0,,,,,,,,,,,
373,1104388,1745084830582,0.0,185.77,,-0.13,0.04,0.94,3.0,0.0,-1.0,0.95,1.1,87.0,1957.0,0.0,3.23,,13.29,1.217,93.4,,18.5,5.0,,,,,,,,,,,,0,0,0,0,0,0,0,0,0,0,0,0,0,0,0,0,,,,,0.0,,,,,,
374,1104408,1745084830602,,,,,,,,,,,,,,,,,,,,,,,12.0,0.0,12.0,12.0,0.0,223.0,0.0,0.0,2.26,,,0,0,0,0,0,0,0,0,0,0,0,0,0,0,0,0,3.0,,,,,39.23962,-77.965904,18.9,32.0,3.0,0.8
375,1104428,1745084830622,13.95,185.9,,-0.16,0.03,0.94,3.0,0.0,-1.0,0.96,1.1,87.0,1980.0,0.0,3.27,,13.28,1.213,93.4,,18.5,5.0,,,,,,,,,,,,0,0,0,0,0,0,0,0,0,0,0,0,0,0,0,0,,,,,0.0,,,,,,
376,1104448,1745084830642,,,,,,,,,,,,,,,,,,,,,,,,,,,,,,,,,,0,0,0,0,0,0,0,0,0,0,0,0,0,0,0,0,,,,,,,,,,,
377,1104468,1745084830662,39.72,186.02,,-0.2,0.05,0.94,3.0,0.0,-1.0,0.97,1.1,88.0,2018.0,0.0,3.23,,13.41,1.248,93.4,,18.5,5.0,,,,,,,,,,,,0,0,0,0,0,0,0,0,0,0,0,0,0,0,0,0,,,,,0.0,,,,,,
378,1104488,1745084830682,,,,,,,,,,,,,,,,,,,,,,,,,,,,,,,,,,0,0,0,0,0,0,0,0,0,0,0,0,0,0,0,0,,,,,,,,,,,
379,1104508,1745084830702,64.86,186.15,,-0.22,0.05,0.94,3.0,0.0,-1.0,0.97,1.1,89.0,2160.0,0.0,3.26,,13.27,1.234,93.4,,20.7,5.0,11.0,0.0,11.0,11.0,0.0,232.0,0.0,0.0,2.26,,,0,0,0,0,0,0,0,0,0,0,0,0,0,0,0,0,4.0,,,,0.0,39.239616,-77.965912,18.12,32.0,3.0,0.8
380,1104528,1745084830722,,,,,,,,,,,,,,,,,,,,,,,,,,,,,,,,,,0,0,0,0,0,0,0,0,0,0,0,0,0,0,0,0,,,,,,,,,,,
