,Interval,Utc,FrontBP,SteerAng,Battery,AccelX,AccelY,AccelZ,Yaw,Pitch,Roll,Gsum,GsumMax,GsumPct,RPM,TPS,InjectorPW,Baro,MAP,Lambda,IAT,EngineTemp,EOP,EOT,WSFR,WSFL,WSRR,WSRL,TCSet,TCSlip,TCComp,TCCut,Analog8,OilTemp,AA_On,ThermLF1,ThermLF2,ThermRR1,ThermRR2,ThermLF3,ThermLF4,ThermLF5,ThermLF6,ThermLF7,ThermLF8,ThermRR3,ThermRR4,ThermRR5,ThermRR6,ThermRR7,ThermRR8,Gear,AA_On1,AA_LowDrag,Fuel_Mix,AA_Packages,Latitude,Longitude,Speed,GPSSats,GPSQual,GPSDOP
0,642834,1745087764893,,,,,,,,,,,,,,,,,,,,,,,,,,,,,,,,,,0,0,0,0,0,0,0,0,0,0,0,0,0,0,0,0,,,,,,,,,,,
1,642854,1745087764913,0.0,187.53,,-0.11,-0.03,0.96,1.0,0.0,0.0,0.97,0.97,100.0,4312.0,12.8,3.7,,12.92,1.249,95.2,,36.1,5.0,,,,,,,,,,,,0,0,0,0,0,0,0,0,0,0,0,0,0,0,0,0,,,,,0.0,,,,,,
2,642874,1745087764933,,,,,,,,,,,,,,,,,,,,,,,,,,,,,,,,,,0,0,0,0,0,0,0,0,0,0,0,0,0,0,0,0,,,,,,,,,,,
3,642894,1745087764953,0.0,187.53,,-0.09,0.03,1.03,0.0,0.0,0.0,1.04,1.04,100.0,4335.0,12.8,3.73,,12.91,1.249,95.2,,36.1,5.0,,,,,,,,,,,,0,0,0,0,0,0,0,0,0,0,0,0,0,0,0,0,,,,,0.0,,,,,,
4,642914,1745087764973,,,,,,,,,,,,,,,,,,,,,,,0.0,0.0,0.0,0.0,0.0,0.0,0.0,0.0,2.26,,,0,0,0,0,0,0,0,0,0,0,0,0,0,0,0,0,0.0,,,,,39.240162,-77.965324,0.0,35.0,3.0,0.8
5,642934,1745087764993,0.0,187.53,,-0.07,-0.04,0.94,1.0,0.0,0.0,0.94,1.04,91.0,4250.0,13.0,3.77,,12.91,1.249,95.2,,35.2,5.0,,,,,,,,,,,,0,0,0,0,0,0,0,0,0,0,0,0,0,0,0,0,,,,,0.0,,,,,,
6,642954,1745087765005,,,,,,,,,,,,,,,,,,,,,,,,,,,,,,,,,,0,0,0,0,0,0,0,0,0,0,0,0,0,0,0,0,,,,,,,,,,,
7,642974,1745087765025,0.0,187.53,,-0.1,-0.02,0.96,0.0,0.0,0.0,0.97,1.04,93.0,4250.0,13.0,3.77,,12.95,1.247,95.2,,35.2,5.0,,,,,,,,,,,,0,0,0,0,0,0,0,0,0,0,0,0,0,0,0,0,,,,,0.0,,,,,,
8,642994,1745087765045,,,,,,,,,,,,,,,,,,,,,,,,,,,,,,,,,,0,0,0,0,0,0,0,0,0,0,0,0,0,0,0,0,,,,,,,,,,,
9,643014,1745087765065,0.0,187.53,,-0.07,-0.0,0.95,0.0,0.0,0.0,0.95,1.04,92.0,4204.0,13.2,3.78,,13.01,1.247,95.2,,33.7,5.0,0.0,0.0,0.0,0.0,0.0,0.0,0.0,0.0,2.26,,,0,0,0,0,0,0,0,0,0,0,0,0,0,0,0,0,0.0,,,,0.0,39.240162,-77.965324,0.04,35.0,3.0,0.8
10,643034,1745087765085,,,,,,,,,,,,,,,,,,,,,,,,,,,,,,,,,,0,0,0,0,0,0,0,0,0,0,0,0,0,0,0,0,,,,,,,,,,,
11,643054,1745087765111,0.0,187.41,,-0.06,0.01,0.97,0.0,0.0,0.0,0.97,1.04,93.0,4075.0,13.5,3.87,,13.11,1.246,95.2,,33.7,5.0,,,,,,,,,,,,0,0,0,0,0,0,0,0,0,0,0,0,0,0,0,0,,,,,0.0,,,,,,
12,643074,1745087765131,,,,,,,,,,,,,,,,,,,,,,,,,,,,,,,,,,0,0,0,0,0,0,0,0,0,0,0,0,0,0,0,0,,,,,,,,,,,
13,643094,1745087765151,0.0,187.41,,-0.04,-0.05,0.92,1.0,0.0,0.0,0.92,1.04,89.0,4090.0,13.5,3.94,,13.13,1.247,95.2,,33.7,5.0,,,,,,,,,,,,0,0,0,0,0,0,0,0,0,0,0,0,0,0,0,0,,,,,0.0,,,,,,
14,643114,1745087765171,,,,,,,,,,,,,,,,,,,,,,,0.0,0.0,0.0,0.0,0.0,0.0,0.0,0.0,2.26,,,0,0,0,0,0,0,0,0,0,0,0,0,0,0,0,0,0.0,,,,,39.240162,-77.965324,0.0,35.0,3.0,0.8
15,643134,1745087765191,0.0,187.41,,-0.02,0.05,1.01,0.0,0.0,0.0,1.01,1.04,97.0,4025.0,13.5,3.98,,13.13,1.247,95.2,,32.9,5.0,,,,,,,,,,,,0,0,0,0,0,0,0,0,0,0,0,0,0,0,0,0,,,,,0.0,,,,,,
16,643154,1745087765215,,,,,,,,,,,,,,,,,,,,,,,,,,,,,,,,,,0,0,0,0,0,0,0,0,0,0,0,0,0,0,0,0,,,,,,,,,,,
17,643174,1745087765235,0.0,187.28,,-0.01,0.18,1.11,-1.0,0.0,1.0,1.13,1.13,100.0,4025.0,13.5,3.98,,13.17,1.248,95.2,,32.9,5.0,,,,,,,,,,,,0,0,0,0,0,0,0,0,0,0,0,0,0,0,0,0,,,,,0.0,,,,,,
18,643194,1745087765255,,,,,,,,,,,,,,,,,,,,,,,,,,,,,,,,,,0,0,0,0,0,0,0,0,0,0,0,0,0,0,0,0,,,,,,,,,,,
19,643214,1745087765275,0.0,187.15,,-0.01,0.14,1.08,-1.0,0.0,1.0,1.09,1.13,97.0,3891.0,13.5,3.98,,13.27,1.244,95.2,,31.2,5.0,0.0,0.0,0.0,0.0,0.0,0.0,0.0,0.0,2.26,,,0,0,0,0,0,0,0,0,0,0,0,0,0,0,0,0,0.0,,,,0.0,39.240162,-77.965324,0.16,35.0,3.0,0.8
20,643234,1745087765295,,,,,,,,,,,,,,,,,,,,,,,,,,,,,,,,,,0,0,0,0,0,0,0,0,0,0,0,0,0,0,0,0,,,,,,,,,,,
21,643254,1745087765313,0.0,187.15,,-0.01,0.1,1.06,0.0,0.0,0.0,1.06,1.13,94.0,3837.0,13.7,4.06,,13.29,1.234,95.2,,31.2,5.0,,,,,,,,,,,,0,0,0,0,0,0,0,0,0,0,0,0,0,0,0,0,,,,,0.0,,,,,,
22,643274,1745087765333,,,,,,,,,,,,,,,,,,,,,,,,,,,,,,,,,,0,0,0,0,0,0,0,0,0,0,0,0,0,0,0,0,,,,,,,,,,,
23,643294,1745087765353,0.0,187.15,,-0.02,0.11,1.05,0.0,0.0,0.0,1.06,1.13,94.0,3699.0,13.8,4.08,,13.33,1.23,95.2,,31.2,5.0,,,,,,,,,,,,0,0,0,0,0,0,0,0,0,0,0,0,0,0,0,0,,,,,0.0,,,,,,
24,643314,1745087765373,,,,,,,,,,,,,,,,,,,,,,,0.0,0.0,0.0,0.0,0.0,0.0,0.0,0.0,2.26,,,0,0,0,0,0,0,0,0,0,0,0,0,0,0,0,0,0.0,,,,,39.240162,-77.965324,0.08,35.0,3.0,0.8
25,643334,1745087765393,0.0,187.03,,-0.01,0.13,1.08,0.0,0.0,1.0,1.09,1.13,97.0,3727.0,14.0,4.14,,13.33,1.23,95.2,,29.9,5.0,,,,,,,,,,,,0,0,0,0,0,0,0,0,0,0,0,0,0,0,0,0,,,,,0.0,,,,,,
26,643354,1745087765413,,,,,,,,,,,,,,,,,,,,,,,,,,,,,,,,,,0,0,0,0,0,0,0,0,0,0,0,0,0,0,0,0,,,,,,,,,,,
27,643374,1745087765433,0.0,187.03,,0.0,0.16,1.08,0.0,0.0,1.0,1.09,1.13,97.0,3727.0,14.0,4.14,,13.37,1.216,95.2,,29.9,5.0,,,,,,,,,,,,0,0,0,0,0,0,0,0,0,0,0,0,0,0,0,0,,,,,0.0,,,,,,
28,643394,1745087765453,,,,,,,,,,,,,,,,,,,,,,,,,,,,,,,,,,0,0,0,0,0,0,0,0,0,0,0,0,0,0,0,0,,,,,,,,,,,
29,643414,1745087765473,0.0,187.03,13.66,0.02,0.16,1.03,0.0,0.0,0.0,1.04,1.13,93.0,3571.0,14.2,4.14,15.0,13.41,1.207,95.2,173.0,28.9,5.0,0.0,0.0,0.0,0.0,0.0,0.0,0.0,0.0,2.26,0.0,0.0,0,0,0,0,0,0,0,0,0,0,0,0,0,0,0,0,0.0,0.0,0.0,0.0,0.0,39.240162,-77.965324,0.29,35.0,3.0,0.8
30,643434,1745087765493,,,,,,,,,,,,,,,,,,,,,,,,,,,,,,,,,,0,0,0,0,0,0,0,0,0,0,0,0,0,0,0,0,,,,,,,,,,,
31,643454,1745087765515,0.0,187.03,,-0.0,0.02,1.05,0.0,0.0,0.0,1.05,1.13,93.0,3501.0,15.2,4.24,,13.56,1.209,95.2,,28.9,5.0,,,,,,,,,,,,0,0,0,0,0,0,0,0,0,0,0,0,0,0,0,0,,,,,0.0,,,,,,
32,643474,1745087765535,,,,,,,,,,,,,,,,,,,,,,,,,,,,,,,,,,0,0,0,0,0,0,0,0,0,0,0,0,0,0,0,0,,,,,,,,,,,
33,643494,1745087765555,0.0,187.03,,0.01,0.12,1.03,0.0,0.0,1.0,1.04,1.13,92.0,3364.0,16.5,4.32,,13.68,1.181,95.2,,28.9,5.0,,,,,,,,,,,,0,0,0,0,0,0,0,0,0,0,0,0,0,0,0,0,,,,,0.0,,,,,,
34,643514,1745087765575,,,,,,,,,,,,,,,,,,,,,,,0.0,0.0,0.0,0.0,0.0,0.0,0.0,0.0,2.26,,,0,0,0,0,0,0,0,0,0,0,0,0,0,0,0,0,0.0,,,,,39.240162,-77.965324,0.39,34.0,3.0,0.8
35,643534,1745087765595,0.0,187.03,,-0.01,-0.01,1.05,0.0,0.0,0.0,1.05,1.13,93.0,3393.0,17.1,4.47,,13.68,1.181,95.2,,27.5,5.0,,,,,,,,,,,,0,0,0,0,0,0,0,0,0,0,0,0,0,0,0,0,,,,,0.0,,,,,,
36,643554,1745087765614,,,,,,,,,,,,,,,,,,,,,,,,,,,,,,,,,,0,0,0,0,0,0,0,0,0,0,0,0,0,0,0,0,,,,,,,,,,,
37,643574,1745087765634,0.0,187.03,,0.01,0.06,1.0,0.0,0.0,0.0,1.0,1.13,89.0,3393.0,17.1,4.47,,13.69,1.182,95.2,,27.5,5.0,,,,,,,,,,,,0,0,0,0,0,0,0,0,0,0,0,0,0,0,0,0,,,,,0.0,,,,,,
38,643594,1745087765654,,,,,,,,,,,,,,,,,,,,,,,,,,,,,,,,,,0,0,0,0,0,0,0,0,0,0,0,0,0,0,0,0,,,,,,,,,,,
39,643614,1745087765674,0.0,186.9,,0.0,-0.02,1.06,0.0,0.0,0.0,1.06,1.13,94.0,3302.0,17.4,4.45,,13.68,1.165,95.2,,26.0,5.0,0.0,0.0,0.0,0.0,0.0,0.0,0.0,0.0,2.26,,,0,0,0,0,0,0,0,0,0,0,0,0,0,0,0,0,0.0,,,,0.0,39.240158,-77.965324,0.54,34.0,3.0,0.8
40,643634,1745087765694,,,,,,,,,,,,,,,,,,,,,,,,,,,,,,,,,,0,0,0,0,0,0,0,0,0,0,0,0,0,0,0,0,,,,,,,,,,,
41,643654,1745087765714,0.0,186.9,,-0.01,-0.01,1.02,0.0,0.0,0.0,1.02,1.13,90.0,3220.0,17.6,4.5,,13.77,1.142,95.2,,26.0,5.0,,,,,,,,,,,,0,0,0,0,0,0,0,0,0,0,0,0,0,0,0,0,,,,,0.0,,,,,,
42,643674,1745087765734,,,,,,,,,,,,,,,,,,,,,,,,,,,,,,,,,,0,0,0,0,0,0,0,0,0,0,0,0,0,0,0,0,,,,,,,,,,,
43,643694,1745087765754,0.0,186.9,,0.01,0.03,1.01,0.0,0.0,0.0,1.01,1.13,89.0,3315.0,17.7,4.56,,13.8,1.137,95.2,,26.0,5.0,,,,,,,,,,,,0,0,0,0,0,0,0,0,0,0,0,0,0,0,0,0,,,,,0.0,,,,,,
44,643714,1745087765774,,,,,,,,,,,,,,,,,,,,,,,0.0,0.0,0.0,0.0,0.0,0.0,0.0,0.0,2.26,,,0,0,0,0,0,0,0,0,0,0,0,0,0,0,0,0,0.0,,,,,39.240158,-77.965324,0.73,34.0,3.0,0.8
45,643734,1745087765794,0.0,187.03,,-0.0,-0.0,1.06,0.0,0.0,0.0,1.06,1.13,94.0,3234.0,17.8,4.51,,13.8,1.137,95.2,,25.5,5.0,,,,,,,,,,,,0,0,0,0,0,0,0,0,0,0,0,0,0,0,0,0,,,,,0.0,,,,,,
46,643754,1745087765814,,,,,,,,,,,,,,,,,,,,,,,,,,,,,,,,,,0,0,0,0,0,0,0,0,0,0,0,0,0,0,0,0,,,,,,,,,,,
47,643774,1745087765834,0.0,187.03,,0.01,0.03,0.98,1.0,0.0,0.0,0.98,1.13,87.0,3234.0,17.8,4.51,,13.72,1.139,95.2,,25.5,5.0,,,,,,,,,,,,0,0,0,0,0,0,0,0,0,0,0,0,0,0,0,0,,,,,0.0,,,,,,
48,643794,1745087765854,,,,,,,,,,,,,,,,,,,,,,,,,,,,,,,,,,0,0,0,0,0,0,0,0,0,0,0,0,0,0,0,0,,,,,,,,,,,
49,643814,1745087765874,0.0,187.03,,0.0,-0.0,1.04,0.0,0.0,0.0,1.04,1.13,92.0,3351.0,21.1,4.69,,13.83,1.139,95.2,,26.1,5.0,0.0,0.0,0.0,0.0,0.0,0.0,0.0,0.0,2.26,,,0,0,0,0,0,0,0,0,0,0,0,0,0,0,0,0,0.0,,,,0.0,39.240158,-77.965324,0.93,34.0,3.0,0.8
50,643834,1745087765894,,,,,,,,,,,,,,,,,,,,,,,,,,,,,,,,,,0,0,0,0,0,0,0,0,0,0,0,0,0,0,0,0,,,,,,,,,,,
51,643854,1745087765914,0.0,187.03,,0.01,-0.01,0.99,1.0,0.0,0.0,0.99,1.13,88.0,3347.0,28.0,4.45,,13.96,1.126,95.2,,26.1,5.0,,,,,,,,,,,,0,0,0,0,0,0,0,0,0,0,0,0,0,0,0,0,,,,,0.0,,,,,,
52,643874,1745087765934,,,,,,,,,,,,,,,,,,,,,,,,,,,,,,,,,,0,0,0,0,0,0,0,0,0,0,0,0,0,0,0,0,,,,,,,,,,,
53,643894,1745087765954,0.0,187.03,,-0.01,0.01,1.03,0.0,0.0,1.0,1.03,1.13,91.0,3320.0,30.7,4.81,,14.08,1.109,95.2,,26.1,5.0,,,,,,,,,,,,0,0,0,0,0,0,0,0,0,0,0,0,0,0,0,0,,,,,0.0,,,,,,
54,643914,1745087765974,,,,,,,,,,,,,,,,,,,,,,,0.0,0.0,0.0,0.0,0.0,0.0,0.0,0.0,2.26,,,0,0,0,0,0,0,0,0,0,0,0,0,0,0,0,0,0.0,,,,,39.240158,-77.965324,1.02,34.0,3.0,0.8
55,643934,1745087765994,0.0,186.9,,0.0,0.07,1.02,0.0,0.0,1.0,1.03,1.13,91.0,3752.0,32.0,5.0,,14.08,1.109,95.2,,28.1,5.0,,,,,,,,,,,,0,0,0,0,0,0,0,0,0,0,0,0,0,0,0,0,,,,,0.0,,,,,,
56,643954,1745087766006,,,,,,,,,,,,,,,,,,,,,,,,,,,,,,,,,,0,0,0,0,0,0,0,0,0,0,0,0,0,0,0,0,,,,,,,,,,,
57,643974,1745087766026,0.0,186.9,,0.01,0.03,1.02,0.0,0.0,1.0,1.02,1.13,90.0,3752.0,32.0,5.0,,14.02,1.141,95.2,,28.1,5.0,,,,,,,,,,,,0,0,0,0,0,0,0,0,0,0,0,0,0,0,0,0,,,,,0.0,,,,,,
58,643994,1745087766046,,,,,,,,,,,,,,,,,,,,,,,,,,,,,,,,,,0,0,0,0,0,0,0,0,0,0,0,0,0,0,0,0,,,,,,,,,,,
59,644014,1745087766066,0.0,186.9,,0.0,-0.05,0.94,0.0,0.0,0.0,0.94,1.13,84.0,3791.0,32.1,4.81,,13.98,1.159,95.2,,31.5,5.0,0.0,0.0,1.0,1.0,0.0,0.0,0.0,0.0,2.26,,,0,0,0,0,0,0,0,0,0,0,0,0,0,0,0,0,0.0,,,,0.0,39.240158,-77.965332,1.27,36.0,3.0,0.8
60,644034,1745087766086,,,,,,,,,,,,,,,,,,,,,,,,,,,,,,,,,,0,0,0,0,0,0,0,0,0,0,0,0,0,0,0,0,,,,,,,,,,,
61,644054,1745087766114,0.0,186.9,,0.01,0.03,1.02,0.0,0.0,0.0,1.02,1.13,91.0,4006.0,32.1,4.79,,13.94,1.075,95.2,,31.5,5.0,,,,,,,,,,,,0,0,0,0,0,0,0,0,0,0,0,0,0,0,0,0,,,,,0.0,,,,,,
62,644074,1745087766134,,,,,,,,,,,,,,,,,,,,,,,,,,,,,,,,,,0,0,0,0,0,0,0,0,0,0,0,0,0,0,0,0,,,,,,,,,,,
63,644094,1745087766154,0.0,186.9,,0.04,-0.02,0.93,1.0,0.0,0.0,0.93,1.13,83.0,4215.0,30.2,4.78,,13.83,1.072,95.2,,31.5,5.0,,,,,,,,,,,,0,0,0,0,0,0,0,0,0,0,0,0,0,0,0,0,,,,,0.0,,,,,,
64,644114,1745087766174,,,,,,,,,,,,,,,,,,,,,,,1.0,0.0,1.0,1.0,0.0,0.0,0.0,0.0,2.26,,,0,0,0,0,0,0,0,0,0,0,0,0,0,0,0,0,0.0,,,,,39.240158,-77.965332,1.35,36.0,3.0,0.8
65,644134,1745087766194,0.0,187.03,,0.08,-0.02,0.91,2.0,0.0,-1.0,0.91,1.13,81.0,4667.0,21.7,4.16,,13.83,1.072,95.2,,36.1,5.0,,,,,,,,,,,,0,0,0,0,0,0,0,0,0,0,0,0,0,0,0,0,,,,,0.0,,,,,,
66,644154,1745087766212,,,,,,,,,,,,,,,,,,,,,,,,,,,,,,,,,,0,0,0,0,0,0,0,0,0,0,0,0,0,0,0,0,,,,,,,,,,,
67,644174,1745087766232,0.0,186.9,,0.06,0.08,1.0,1.0,0.0,0.0,1.01,1.13,89.0,4667.0,21.7,4.16,,13.53,1.127,95.2,,36.1,5.0,,,,,,,,,,,,0,0,0,0,0,0,0,0,0,0,0,0,0,0,0,0,,,,,0.0,,,,,,
68,644194,1745087766252,,,,,,,,,,,,,,,,,,,,,,,,,,,,,,,,,,0,0,0,0,0,0,0,0,0,0,0,0,0,0,0,0,,,,,,,,,,,
69,644214,1745087766272,0.0,186.9,,0.0,0.11,1.04,1.0,0.0,0.0,1.04,1.13,92.0,4693.0,20.5,3.86,,13.37,1.064,95.2,,38.0,5.0,1.0,0.0,1.0,1.0,0.0,0.0,0.0,0.0,2.26,,,0,0,0,0,0,0,0,0,0,0,0,0,0,0,0,0,0.0,,,,0.0,39.240158,-77.965332,1.76,36.0,3.0,0.8
70,644334,1745087766392,0.0,186.9,,0.04,0.07,1.01,0.0,0.0,0.0,1.02,1.13,90.0,4234.0,20.6,4.05,,13.45,1.039,95.2,,35.5,5.0,,,,,,,,,,,,0,0,0,0,0,0,0,0,0,0,0,0,0,0,0,0,,,,,0.0,,,,,,
71,644354,1745087766414,,,,,,,,,,,,,,,,,,,,,,,,,,,,,,,,,,0,0,0,0,0,0,0,0,0,0,0,0,0,0,0,0,,,,,,,,,,,
72,644374,1745087766434,0.0,186.9,,0.02,0.15,1.08,0.0,0.0,1.0,1.09,1.13,97.0,4234.0,20.6,4.05,,13.47,1.127,95.2,,35.5,5.0,,,,,,,,,,,,0,0,0,0,0,0,0,0,0,0,0,0,0,0,0,0,,,,,0.0,,,,,,
73,644414,1745087766474,0.0,186.9,13.71,0.05,0.14,1.08,0.0,0.0,1.0,1.09,1.13,97.0,4203.0,20.6,4.14,15.0,13.48,1.183,95.2,173.0,34.8,5.0,1.0,0.0,1.0,1.0,0.0,0.0,0.0,0.0,2.26,0.0,0.0,0,0,0,0,0,0,0,0,0,0,0,0,0,0,0,0,0.0,0.0,0.0,0.0,0.0,39.240158,-77.965332,1.98,36.0,3.0,0.8
74,644514,1745087766572,,,,,,,,,,,,,,,,,,,,,,,1.0,0.0,1.0,1.0,0.0,0.0,0.0,0.0,2.26,,,0,0,0,0,0,0,0,0,0,0,0,0,0,0,0,0,0.0,,,,,39.240158,-77.965332,2.26,36.0,3.0,0.8
75,644534,1745087766592,0.0,187.03,,0.02,0.14,1.0,0.0,0.0,0.0,1.01,1.13,90.0,3822.0,20.8,4.31,,13.55,1.205,95.2,,31.7,5.0,,,,,,,,,,,,0,0,0,0,0,0,0,0,0,0,0,0,0,0,0,0,,,,,0.0,,,,,,
76,644594,1745087766651,,,,,,,,,,,,,,,,,,,,,,,,,,,,,,,,,,0,0,0,0,0,0,0,0,0,0,0,0,0,0,0,0,,,,,,,,,,,
77,644614,1745087766671,0.0,186.9,,0.04,0.16,1.03,0.0,0.0,0.0,1.04,1.13,92.0,3800.0,20.8,4.41,,13.6,1.141,95.2,,29.7,5.0,2.0,0.0,1.0,2.0,0.0,0.0,0.0,0.0,2.26,,,0,0,0,0,0,0,0,0,0,0,0,0,0,0,0,0,0.0,,,,0.0,39.240158,-77.965332,2.6,36.0,3.0,0.8
78,644634,1745087766691,,,,,,,,,,,,,,,,,,,,,,,,,,,,,,,,,,0,0,0,0,0,0,0,0,0,0,0,0,0,0,0,0,,,,,,,,,,,
79,644654,1745087766713,0.0,186.9,,0.03,0.1,1.0,1.0,0.0,0.0,1.0,1.13,89.0,3666.0,20.8,4.39,,13.71,1.151,95.2,,29.7,5.0,,,,,,,,,,,,0,0,0,0,0,0,0,0,0,0,0,0,0,0,0,0,,,,,0.0,,,,,,
80,644674,1745087766733,,,,,,,,,,,,,,,,,,,,,,,,,,,,,,,,,,0,0,0,0,0,0,0,0,0,0,0,0,0,0,0,0,,,,,,,,,,,
81,644694,1745087766753,0.0,186.78,,0.01,0.01,1.0,1.0,0.0,0.0,1.0,1.13,88.0,3664.0,20.7,4.46,,13.69,1.148,95.2,,29.7,5.0,,,,,,,,,,,,0,0,0,0,0,0,0,0,0,0,0,0,0,0,0,0,,,,,0.0,,,,,,
82,644714,1745087766773,,,,,,,,,,,,,,,,,,,,,,,2.0,0.0,2.0,2.0,0.0,0.0,0.0,0.0,2.26,,,0,0,0,0,0,0,0,0,0,0,0,0,0,0,0,0,0.0,,,,,39.240158,-77.965332,2.75,36.0,3.0,0.8
83,644734,1745087766793,0.0,186.78,,0.01,0.0,1.04,1.0,0.0,0.0,1.04,1.13,92.0,3472.0,20.8,4.48,,13.69,1.148,95.2,,28.2,5.0,,,,,,,,,,,,0,0,0,0,0,0,0,0,0,0,0,0,0,0,0,0,,,,,0.0,,,,,,
84,644774,1745087766833,0.0,186.78,,0.04,0.05,0.98,1.0,0.0,0.0,0.98,1.13,87.0,3472.0,20.8,4.48,,13.76,1.153,95.2,,28.2,5.0,,,,,,,,,,,,0,0,0,0,0,0,0,0,0,0,0,0,0,0,0,0,,,,,0.0,,,,,,
85,644794,1745087766853,,,,,,,,,,,,,,,,,,,,,,,,,,,,,,,,,,0,0,0,0,0,0,0,0,0,0,0,0,0,0,0,0,,,,,,,,,,,
86,644814,1745087766873,0.0,186.78,,0.02,-0.06,1.03,1.0,0.0,0.0,1.03,1.13,92.0,3444.0,20.8,4.59,,13.8,1.157,95.2,,26.5,5.0,2.0,0.0,2.0,2.0,0.0,0.0,0.0,0.0,2.26,,,0,0,0,0,0,0,0,0,0,0,0,0,0,0,0,0,0.0,,,,0.0,39.240154,-77.965332,3.08,36.0,3.0,0.8
87,644834,1745087766893,,,,,,,,,,,,,,,,,,,,,,,,,,,,,,,,,,0,0,0,0,0,0,0,0,0,0,0,0,0,0,0,0,,,,,,,,,,,
88,644854,1745087766913,0.0,186.78,,0.04,0.01,0.97,2.0,0.0,0.0,0.97,1.13,86.0,3365.0,21.0,4.62,,13.82,1.145,95.2,,26.5,5.0,,,,,,,,,,,,0,0,0,0,0,0,0,0,0,0,0,0,0,0,0,0,,,,,0.0,,,,,,
89,644874,1745087766933,,,,,,,,,,,,,,,,,,,,,,,,,,,,,,,,,,0,0,0,0,0,0,0,0,0,0,0,0,0,0,0,0,,,,,,,,,,,
90,644894,1745087766953,0.0,186.78,,0.05,0.04,0.98,1.0,0.0,0.0,0.98,1.13,87.0,3189.0,21.1,4.62,,13.9,1.12,95.2,,26.5,5.0,,,,,,,,,,,,0,0,0,0,0,0,0,0,0,0,0,0,0,0,0,0,,,,,0.0,,,,,,
91,644914,1745087766973,,,,,,,,,,,,,,,,,,,,,,,2.0,0.0,2.0,2.0,0.0,0.0,0.0,0.0,2.26,,,0,0,0,0,0,0,0,0,0,0,0,0,0,0,0,0,0.0,,,,,39.240154,-77.965332,3.29,36.0,3.0,0.8
92,644934,1745087766993,0.0,186.65,,0.04,-0.04,1.05,1.0,0.0,0.0,1.05,1.13,93.0,3209.0,21.1,4.67,,13.9,1.12,95.2,,25.6,5.0,,,,,,,,,,,,0,0,0,0,0,0,0,0,0,0,0,0,0,0,0,0,,,,,0.0,,,,,,
93,644954,1745087767005,,,,,,,,,,,,,,,,,,,,,,,,,,,,,,,,,,0,0,0,0,0,0,0,0,0,0,0,0,0,0,0,0,,,,,,,,,,,
94,644974,1745087767025,0.0,186.78,,0.02,-0.1,1.08,2.0,0.0,0.0,1.08,1.13,96.0,3209.0,21.1,4.67,,13.84,1.095,95.2,,25.6,5.0,,,,,,,,,,,,0,0,0,0,0,0,0,0,0,0,0,0,0,0,0,0,,,,,0.0,,,,,,
95,644994,1745087767045,,,,,,,,,,,,,,,,,,,,,,,,,,,,,,,,,,0,0,0,0,0,0,0,0,0,0,0,0,0,0,0,0,,,,,,,,,,,
96,645014,1745087767065,0.0,186.65,,0.01,-0.06,1.03,2.0,0.0,0.0,1.03,1.13,91.0,3173.0,21.3,4.7,,13.88,1.101,95.2,,24.5,5.0,3.0,0.0,2.0,2.0,0.0,0.0,0.0,0.0,2.26,,,0,0,0,0,0,0,0,0,0,0,0,0,0,0,0,0,0.0,,,,0.0,39.240154,-77.965332,3.81,34.0,3.0,0.8
97,645034,1745087767085,,,,,,,,,,,,,,,,,,,,,,,,,,,,,,,,,,0,0,0,0,0,0,0,0,0,0,0,0,0,0,0,0,,,,,,,,,,,
98,645054,1745087767111,0.0,186.65,,0.02,-0.0,0.94,2.0,0.0,0.0,0.94,1.13,84.0,3041.0,23.7,4.37,,13.99,1.1,95.2,,24.5,5.0,,,,,,,,,,,,0,0,0,0,0,0,0,0,0,0,0,0,0,0,0,0,,,,,0.0,,,,,,
99,645074,1745087767131,,,,,,,,,,,,,,,,,,,,,,,,,,,,,,,,,,0,0,0,0,0,0,0,0,0,0,0,0,0,0,0,0,,,,,,,,,,,
100,645094,1745087767151,0.0,186.65,,0.05,0.07,0.88,2.0,0.0,0.0,0.88,1.13,78.0,3018.0,25.9,4.24,,14.02,1.099,95.2,,24.5,5.0,,,,,,,,,,,,0,0,0,0,0,0,0,0,0,0,0,0,0,0,0,0,,,,,0.0,,,,,,
101,645114,1745087767171,,,,,,,,,,,,,,,,,,,,,,,3.0,0.0,3.0,3.0,0.0,0.0,0.0,0.0,2.26,,,0,0,0,0,0,0,0,0,0,0,0,0,0,0,0,0,0.0,,,,,39.240154,-77.96534,4.35,34.0,3.0,0.8
102,645134,1745087767191,0.0,186.65,,0.08,0.13,0.85,2.0,-1.0,0.0,0.86,1.13,76.0,3135.0,27.9,4.1,,14.02,1.099,95.2,,24.0,5.0,,,,,,,,,,,,0,0,0,0,0,0,0,0,0,0,0,0,0,0,0,0,,,,,0.0,,,,,,
103,645154,1745087767211,,,,,,,,,,,,,,,,,,,,,,,,,,,,,,,,,,0,0,0,0,0,0,0,0,0,0,0,0,0,0,0,0,,,,,,,,,,,
104,645174,1745087767231,0.0,186.65,,0.09,0.2,0.84,2.0,-1.0,0.0,0.87,1.13,77.0,3135.0,27.9,4.1,,14.03,1.116,95.2,,24.0,5.0,,,,,,,,,,,,0,0,0,0,0,0,0,0,0,0,0,0,0,0,0,0,,,,,0.0,,,,,,
105,645194,1745087767251,,,,,,,,,,,,,,,,,,,,,,,,,,,,,,,,,,0,0,0,0,0,0,0,0,0,0,0,0,0,0,0,0,,,,,,,,,,,
106,645214,1745087767271,0.0,186.65,,0.1,0.18,0.86,1.0,-1.0,1.0,0.89,1.13,79.0,2965.0,29.1,4.36,,14.1,1.12,95.2,,23.7,5.0,3.0,0.0,3.0,3.0,0.0,0.0,0.0,0.0,2.26,,,0,0,0,0,0,0,0,0,0,0,0,0,0,0,0,0,0.0,,,,0.0,39.240154,-77.96534,4.42,34.0,3.0,0.8
107,645234,1745087767291,,,,,,,,,,,,,,,,,,,,,,,,,,,,,,,,,,0,0,0,0,0,0,0,0,0,0,0,0,0,0,0,0,,,,,,,,,,,
108,645254,1745087767313,0.0,186.65,,0.11,0.17,0.87,1.0,-1.0,1.0,0.89,1.13,79.0,2931.0,29.5,4.42,,14.11,1.135,95.2,,23.7,5.0,,,,,,,,,,,,0,0,0,0,0,0,0,0,0,0,0,0,0,0,0,0,,,,,0.0,,,,,,
109,645274,1745087767333,,,,,,,,,,,,,,,,,,,,,,,,,,,,,,,,,,0,0,0,0,0,0,0,0,0,0,0,0,0,0,0,0,,,,,,,,,,,
110,645294,1745087767353,0.0,186.65,,0.13,0.2,0.87,0.0,-1.0,1.0,0.9,1.13,80.0,3009.0,29.7,4.47,,14.1,1.164,95.2,,23.7,5.0,,,,,,,,,,,,0,0,0,0,0,0,0,0,0,0,0,0,0,0,0,0,,,,,0.0,,,,,,
111,645314,1745087767373,,,,,,,,,,,,,,,,,,,,,,,3.0,0.0,3.0,3.0,0.0,0.0,0.0,0.0,2.26,,,0,0,0,0,0,0,0,0,0,0,0,0,0,0,0,0,0.0,,,,,39.24015,-77.96534,4.99,34.0,3.0,0.8
112,645334,1745087767393,0.0,186.65,,0.09,0.12,0.95,0.0,-1.0,1.0,0.96,1.13,85.0,3342.0,30.0,4.5,,14.1,1.164,95.2,,23.8,5.0,,,,,,,,,,,,0,0,0,0,0,0,0,0,0,0,0,0,0,0,0,0,,,,,0.0,,,,,,
113,645354,1745087767415,,,,,,,,,,,,,,,,,,,,,,,,,,,,,,,,,,0,0,0,0,0,0,0,0,0,0,0,0,0,0,0,0,,,,,,,,,,,
114,645374,1745087767435,0.0,186.65,,0.1,0.18,0.97,0.0,-1.0,1.0,0.99,1.13,88.0,3342.0,30.0,4.5,,14.02,1.197,95.2,,23.8,5.0,,,,,,,,,,,,0,0,0,0,0,0,0,0,0,0,0,0,0,0,0,0,,,,,0.0,,,,,,
115,645394,1745087767455,,,,,,,,,,,,,,,,,,,,,,,,,,,,,,,,,,0,0,0,0,0,0,0,0,0,0,0,0,0,0,0,0,,,,,,,,,,,
116,645414,1745087767475,0.0,186.65,13.72,0.09,0.11,0.92,0.0,-1.0,1.0,0.93,1.13,82.0,3602.0,30.0,4.64,15.0,13.94,1.159,95.2,173.0,30.1,5.0,3.0,0.0,3.0,3.0,0.0,0.0,0.0,0.0,2.26,0.0,0.0,0,0,0,0,0,0,0,0,0,0,0,0,0,0,0,0,0.0,0.0,0.0,0.0,0.0,39.24015,-77.96534,5.29,34.0,3.0,0.8
117,645434,1745087767495,,,,,,,,,,,,,,,,,,,,,,,,,,,,,,,,,,0,0,0,0,0,0,0,0,0,0,0,0,0,0,0,0,,,,,,,,,,,
118,645454,1745087767515,0.0,186.78,,0.06,0.15,1.0,-1.0,-1.0,1.0,1.02,1.13,90.0,4296.0,30.0,4.75,,13.84,1.042,95.2,,30.1,5.0,,,,,,,,,,,,0,0,0,0,0,0,0,0,0,0,0,0,0,0,0,0,,,,,0.0,,,,,,
119,645474,1745087767535,,,,,,,,,,,,,,,,,,,,,,,,,,,,,,,,,,0,0,0,0,0,0,0,0,0,0,0,0,0,0,0,0,,,,,,,,,,,
120,645494,1745087767555,0.0,186.78,,0.03,0.08,0.97,-1.0,-1.0,1.0,0.97,1.13,86.0,4748.0,30.0,4.65,,13.84,1.024,95.2,,30.1,5.0,,,,,,,,,,,,0,0,0,0,0,0,0,0,0,0,0,0,0,0,0,0,,,,,0.0,,,,,,
121,645514,1745087767575,,,,,,,,,,,,,,,,,,,,,,,4.0,0.0,4.0,4.0,0.0,0.0,0.0,0.0,2.26,,,0,0,0,0,0,0,0,0,0,0,0,0,0,0,0,0,0.0,,,,,39.24015,-77.96534,5.66,34.0,3.0,0.8
122,645534,1745087767595,0.0,186.65,,0.05,0.08,1.0,0.0,-1.0,1.0,1.01,1.13,89.0,4929.0,30.1,4.6,,13.84,1.024,95.2,,39.3,5.0,,,,,,,,,,,,0,0,0,0,0,0,0,0,0,0,0,0,0,0,0,0,,,,,0.0,,,,,,
123,645554,1745087767612,,,,,,,,,,,,,,,,,,,,,,,,,,,,,,,,,,0,0,0,0,0,0,0,0,0,0,0,0,0,0,0,0,,,,,,,,,,,
124,645574,1745087767632,0.0,186.65,,0.06,0.05,0.98,0.0,-1.0,1.0,0.99,1.13,87.0,4929.0,30.1,4.6,,13.67,0.924,95.2,,39.3,5.0,,,,,,,,,,,,0,0,0,0,0,0,0,0,0,0,0,0,0,0,0,0,,,,,0.0,,,,,,
125,645594,1745087767652,,,,,,,,,,,,,,,,,,,,,,,,,,,,,,,,,,0,0,0,0,0,0,0,0,0,0,0,0,0,0,0,0,,,,,,,,,,,
126,645614,1745087767672,0.0,186.78,,0.05,0.06,0.98,0.0,-1.0,1.0,0.99,1.13,87.0,5091.0,30.1,4.57,,13.67,0.888,95.2,,43.0,5.0,4.0,0.0,4.0,4.0,0.0,0.0,0.0,0.0,2.26,,,0,0,0,0,0,0,0,0,0,0,0,0,0,0,0,0,0.0,,,,0.0,39.24015,-77.965347,6.05,34.0,3.0,0.8
127,645634,1745087767692,,,,,,,,,,,,,,,,,,,,,,,,,,,,,,,,,,0,0,0,0,0,0,0,0,0,0,0,0,0,0,0,0,,,,,,,,,,,
128,645654,1745087767714,0.0,186.65,,0.06,0.07,1.01,0.0,-1.0,1.0,1.02,1.13,90.0,5281.0,29.9,4.58,,13.52,0.929,95.2,,43.0,5.0,,,,,,,,,,,,0,0,0,0,0,0,0,0,0,0,0,0,0,0,0,0,,,,,0.0,,,,,,
129,645674,1745087767734,,,,,,,,,,,,,,,,,,,,,,,,,,,,,,,,,,0,0,0,0,0,0,0,0,0,0,0,0,0,0,0,0,,,,,,,,,,,
130,645694,1745087767754,0.0,186.78,,0.04,0.02,0.93,1.0,0.0,1.0,0.93,1.13,83.0,5603.0,29.9,4.57,,13.44,0.982,95.2,,43.0,5.0,,,,,,,,,,,,0,0,0,0,0,0,0,0,0,0,0,0,0,0,0,0,,,,,0.0,,,,,,
131,645714,1745087767774,,,,,,,,,,,,,,,,,,,,,,,4.0,0.0,4.0,4.0,0.0,0.0,0.0,0.0,2.26,,,0,0,0,0,0,0,0,0,0,0,0,0,0,0,0,0,0.0,,,,,39.240147,-77.965347,6.51,34.0,3.0,0.8
132,645734,1745087767794,0.0,186.65,,0.02,0.04,1.0,0.0,0.0,1.0,1.0,1.13,89.0,5870.0,28.1,4.62,,13.44,0.982,95.2,,47.6,5.0,,,,,,,,,,,,0,0,0,0,0,0,0,0,0,0,0,0,0,0,0,0,,,,,0.0,,,,,,
133,645754,1745087767814,,,,,,,,,,,,,,,,,,,,,,,,,,,,,,,,,,0,0,0,0,0,0,0,0,0,0,0,0,0,0,0,0,,,,,,,,,,,
134,645774,1745087767834,0.0,186.78,,0.06,0.03,1.08,0.0,-1.0,1.0,1.08,1.13,96.0,5870.0,28.1,4.62,,13.19,1.038,95.2,,47.6,5.0,,,,,,,,,,,,0,0,0,0,0,0,0,0,0,0,0,0,0,0,0,0,,,,,0.0,,,,,,
135,645794,1745087767854,,,,,,,,,,,,,,,,,,,,,,,,,,,,,,,,,,0,0,0,0,0,0,0,0,0,0,0,0,0,0,0,0,,,,,,,,,,,
136,645814,1745087767874,0.0,186.65,,0.05,-0.07,1.02,1.0,-1.0,1.0,1.03,1.13,91.0,6260.0,26.9,4.52,,12.93,1.084,95.2,,51.2,5.0,4.0,0.0,5.0,4.0,0.0,0.0,0.0,0.0,2.26,,,0,0,0,0,0,0,0,0,0,0,0,0,0,0,0,0,0.0,,,,0.0,39.240147,-77.965347,6.85,34.0,3.0,0.8
137,645834,1745087767894,,,,,,,,,,,,,,,,,,,,,,,,,,,,,,,,,,0,0,0,0,0,0,0,0,0,0,0,0,0,0,0,0,,,,,,,,,,,
138,645854,1745087767914,0.0,186.65,,0.06,-0.05,1.04,1.0,-1.0,1.0,1.04,1.13,92.0,6524.0,25.1,4.41,,12.69,1.087,95.2,,51.2,5.0,,,,,,,,,,,,0,0,0,0,0,0,0,0,0,0,0,0,0,0,0,0,,,,,0.0,,,,,,
139,645874,1745087767934,,,,,,,,,,,,,,,,,,,,,,,,,,,,,,,,,,0,0,0,0,0,0,0,0,0,0,0,0,0,0,0,0,,,,,,,,,,,
140,645894,1745087767954,0.0,186.65,,0.03,-0.03,1.04,1.0,-1.0,1.0,1.04,1.13,92.0,6792.0,24.0,4.42,,12.49,1.055,95.2,,51.2,5.0,,,,,,,,,,,,0,0,0,0,0,0,0,0,0,0,0,0,0,0,0,0,,,,,0.0,,,,,,
141,645914,1745087767974,,,,,,,,,,,,,,,,,,,,,,,5.0,0.0,5.0,5.0,0.0,0.0,0.0,0.0,2.26,,,0,0,0,0,0,0,0,0,0,0,0,0,0,0,0,0,0.0,,,,,39.240147,-77.965347,7.48,34.0,3.0,0.8
142,645934,1745087767994,0.0,186.65,,0.07,0.06,1.05,1.0,-1.0,1.0,1.06,1.13,94.0,6988.0,23.1,4.67,,12.49,1.055,95.2,,57.0,5.0,,,,,,,,,,,,0,0,0,0,0,0,0,0,0,0,0,0,0,0,0,0,,,,,0.0,,,,,,
143,645954,1745087768008,,,,,,,,,,,,,,,,,,,,,,,,,,,,,,,,,,0,0,0,0,0,0,0,0,0,0,0,0,0,0,0,0,,,,,,,,,,,
144,645974,1745087768028,0.0,186.65,,0.04,-0.15,1.06,2.0,-1.0,0.0,1.07,1.13,95.0,6988.0,23.1,4.67,,12.12,1.029,95.2,,57.0,5.0,,,,,,,,,,,,0,0,0,0,0,0,0,0,0,0,0,0,0,0,0,0,,,,,0.0,,,,,,
145,645994,1745087768048,,,,,,,,,,,,,,,,,,,,,,,,,,,,,,,,,,0,0,0,0,0,0,0,0,0,0,0,0,0,0,0,0,,,,,,,,,,,
146,646014,1745087768068,0.0,186.65,,0.05,-0.16,1.05,2.0,-1.0,0.0,1.06,1.13,94.0,7762.0,22.7,4.98,,11.87,0.992,95.2,,65.3,5.0,5.0,0.0,5.0,5.0,0.0,0.0,0.0,0.0,2.26,,,0,0,0,0,0,0,0,0,0,0,0,0,0,0,0,0,0.0,,,,0.0,39.240143,-77.965355,7.94,34.0,3.0,0.8
147,646034,1745087768088,,,,,,,,,,,,,,,,,,,,,,,,,,,,,,,,,,0,0,0,0,0,0,0,0,0,0,0,0,0,0,0,0,,,,,,,,,,,
148,646054,1745087768112,0.0,186.65,,0.01,-0.02,0.98,1.0,-1.0,1.0,0.98,1.13,87.0,8739.0,18.6,4.86,,11.01,0.859,95.2,,65.3,5.0,,,,,,,,,,,,0,0,0,0,0,0,0,0,0,0,0,0,0,0,0,0,,,,,0.0,,,,,,
149,646074,1745087768132,,,,,,,,,,,,,,,,,,,,,,,,,,,,,,,,,,0,0,0,0,0,0,0,0,0,0,0,0,0,0,0,0,,,,,,,,,,,
150,646094,1745087768152,0.0,186.53,,0.04,-0.02,1.0,2.0,-1.0,0.0,1.0,1.13,89.0,9698.0,15.0,3.5,,9.84,0.775,95.2,,65.3,5.0,,,,,,,,,,,,0,0,0,0,0,0,0,0,0,0,0,0,0,0,0,0,,,,,0.0,,,,,,
151,646114,1745087768172,,,,,,,,,,,,,,,,,,,,,,,5.0,0.0,5.0,5.0,0.0,0.0,0.0,0.0,2.26,,,0,0,0,0,0,0,0,0,0,0,0,0,0,0,0,0,0.0,,,,,39.240143,-77.965355,8.26,34.0,3.0,0.8
152,646134,1745087768192,0.0,186.4,,0.04,0.22,0.96,1.0,-1.0,0.0,0.98,1.13,87.0,10615.0,13.0,2.62,,9.84,0.775,95.2,,64.5,5.0,,,,,,,,,,,,0,0,0,0,0,0,0,0,0,0,0,0,0,0,0,0,,,,,0.0,,,,,,
153,646154,1745087768212,,,,,,,,,,,,,,,,,,,,,,,,,,,,,,,,,,0,0,0,0,0,0,0,0,0,0,0,0,0,0,0,0,,,,,,,,,,,
154,646174,1745087768232,0.0,186.4,,-0.0,0.1,0.97,2.0,-1.0,0.0,0.98,1.13,87.0,10615.0,13.0,2.62,,8.79,0.755,95.2,,64.5,5.0,,,,,,,,,,,,0,0,0,0,0,0,0,0,0,0,0,0,0,0,0,0,,,,,0.0,,,,,,
155,646194,1745087768252,,,,,,,,,,,,,,,,,,,,,,,,,,,,,,,,,,0,0,0,0,0,0,0,0,0,0,0,0,0,0,0,0,,,,,,,,,,,
156,646214,1745087768272,0.0,186.27,,0.03,0.2,0.98,2.0,-1.0,0.0,1.0,1.13,89.0,11180.0,12.7,2.42,,8.14,0.795,95.2,,64.2,5.0,5.0,0.0,5.0,5.0,0.0,0.0,0.0,0.0,2.26,,,0,0,0,0,0,0,0,0,0,0,0,0,0,0,0,0,0.0,,,,0.0,39.240143,-77.965355,8.32,34.0,3.0,0.8
157,646234,1745087768292,,,,,,,,,,,,,,,,,,,,,,,,,,,,,,,,,,0,0,0,0,0,0,0,0,0,0,0,0,0,0,0,0,,,,,,,,,,,
158,646254,1745087768314,0.0,186.27,,0.0,0.08,1.02,3.0,0.0,0.0,1.03,1.13,91.0,11491.0,12.5,2.2,,7.62,0.833,95.2,,64.2,5.0,,,,,,,,,,,,0,0,0,0,0,0,0,0,0,0,0,0,0,0,0,0,,,,,0.0,,,,,,
159,646274,1745087768334,,,,,,,,,,,,,,,,,,,,,,,,,,,,,,,,,,0,0,0,0,0,0,0,0,0,0,0,0,0,0,0,0,,,,,,,,,,,
160,646294,1745087768354,0.0,186.15,,-0.02,0.16,0.88,2.0,0.0,1.0,0.9,1.13,80.0,11694.0,13.2,2.12,,7.42,0.855,95.2,,64.2,5.0,,,,,,,,,,,,0,0,0,0,0,0,0,0,0,0,0,0,0,0,0,0,,,,,0.0,,,,,,
161,646314,1745087768374,,,,,,,,,,,,,,,,,,,,,,,5.0,0.0,5.0,5.0,0.0,0.0,0.0,0.0,2.26,,,0,0,0,0,0,0,0,0,0,0,0,0,0,0,0,0,0.0,,,,,39.240143,-77.965355,8.21,34.0,3.0,0.8
162,646334,1745087768394,0.0,186.15,,-0.01,0.05,0.86,2.0,-1.0,0.0,0.86,1.13,76.0,11740.0,16.2,2.26,,7.42,0.855,95.2,,66.1,5.0,,,,,,,,,,,,0,0,0,0,0,0,0,0,0,0,0,0,0,0,0,0,,,,,0.0,,,,,,
163,646354,1745087768414,,,,,,,,,,,,,,,,,,,,,,,,,,,,,,,,,,0,0,0,0,0,0,0,0,0,0,0,0,0,0,0,0,,,,,,,,,,,
164,646374,1745087768434,0.0,186.15,,-0.01,0.18,0.89,3.0,-1.0,0.0,0.91,1.13,81.0,11740.0,16.2,2.26,,7.41,0.864,95.2,,66.1,5.0,,,,,,,,,,,,0,0,0,0,0,0,0,0,0,0,0,0,0,0,0,0,,,,,0.0,,,,,,
165,646394,1745087768454,,,,,,,,,,,,,,,,,,,,,,,,,,,,,,,,,,0,0,0,0,0,0,0,0,0,0,0,0,0,0,0,0,,,,,,,,,,,
166,646414,1745087768474,0.0,186.15,13.57,0.02,0.24,0.9,2.0,-1.0,1.0,0.93,1.13,82.0,11876.0,15.9,2.28,15.0,7.49,0.903,95.2,171.0,65.8,5.0,5.0,0.0,5.0,5.0,0.0,0.0,0.0,0.0,2.26,0.0,0.0,0,0,0,0,0,0,0,0,0,0,0,0,0,0,0,0,0.0,0.0,0.0,0.0,0.0,39.240139,-77.965355,8.2,34.0,3.0,0.8
167,646434,1745087768494,,,,,,,,,,,,,,,,,,,,,,,,,,,,,,,,,,0,0,0,0,0,0,0,0,0,0,0,0,0,0,0,0,,,,,,,,,,,
168,646454,1745087768514,0.0,186.15,,0.02,0.23,0.85,2.0,0.0,1.0,0.88,1.13,78.0,11936.0,0.1,1.4,,6.02,0.944,95.2,,65.8,5.0,,,,,,,,,,,,0,0,0,0,0,0,0,0,0,0,0,0,0,0,0,0,,,,,0.0,,,,,,
169,646474,1745087768534,,,,,,,,,,,,,,,,,,,,,,,,,,,,,,,,,,0,0,0,0,0,0,0,0,0,0,0,0,0,0,0,0,,,,,,,,,,,
170,646494,1745087768554,0.0,186.02,,-0.02,0.11,0.89,3.0,0.0,0.0,0.89,1.13,79.0,11476.0,0.1,1.4,,5.11,0.953,95.2,,65.8,5.0,,,,,,,,,,,,0,0,0,0,0,0,0,0,0,0,0,0,0,0,0,0,,,,,0.0,,,,,,
171,646514,1745087768574,,,,,,,,,,,,,,,,,,,,,,,5.0,0.0,5.0,5.0,0.0,0.0,0.0,0.0,2.26,,,0,0,0,0,0,0,0,0,0,0,0,0,0,0,0,0,0.0,,,,,39.240139,-77.965355,8.15,34.0,3.0,0.8
172,646534,1745087768594,0.0,186.02,,-0.02,0.21,0.92,2.0,0.0,0.0,0.94,1.13,83.0,11116.0,0.2,1.4,,5.11,0.953,95.2,,65.2,5.0,,,,,,,,,,,,0,0,0,0,0,0,0,0,0,0,0,0,0,0,0,0,,,,,0.0,,,,,,
173,646554,1745087768613,,,,,,,,,,,,,,,,,,,,,,,,,,,,,,,,,,0,0,0,0,0,0,0,0,0,0,0,0,0,0,0,0,,,,,,,,,,,
174,646574,1745087768633,0.0,186.02,,-0.04,0.14,0.89,3.0,-1.0,0.0,0.9,1.13,80.0,11116.0,0.2,1.4,,4.68,1.028,95.2,,65.2,5.0,,,,,,,,,,,,0,0,0,0,0,0,0,0,0,0,0,0,0,0,0,0,,,,,0.0,,,,,,
175,646594,1745087768653,,,,,,,,,,,,,,,,,,,,,,,,,,,,,,,,,,0,0,0,0,0,0,0,0,0,0,0,0,0,0,0,0,,,,,,,,,,,
176,646614,1745087768673,0.0,186.02,,-0.07,0.18,0.86,3.0,-1.0,0.0,0.88,1.13,78.0,10796.0,0.1,1.4,,4.47,1.061,95.2,,64.7,5.0,5.0,0.0,5.0,5.0,0.0,0.0,0.0,0.0,2.26,,,0,0,0,0,0,0,0,0,0,0,0,0,0,0,0,0,0.0,,,,0.0,39.240135,-77.965355,8.12,34.0,3.0,0.8
177,646634,1745087768693,,,,,,,,,,,,,,,,,,,,,,,,,,,,,,,,,,0,0,0,0,0,0,0,0,0,0,0,0,0,0,0,0,,,,,,,,,,,
178,646654,1745087768713,0.0,186.02,,-0.09,0.25,0.86,3.0,-1.0,1.0,0.9,1.13,80.0,10457.0,0.0,1.4,,4.49,1.046,95.2,,64.7,5.0,,,,,,,,,,,,0,0,0,0,0,0,0,0,0,0,0,0,0,0,0,0,,,,,0.0,,,,,,
179,646674,1745087768733,,,,,,,,,,,,,,,,,,,,,,,,,,,,,,,,,,0,0,0,0,0,0,0,0,0,0,0,0,0,0,0,0,,,,,,,,,,,
180,646694,1745087768753,0.0,186.02,,-0.09,0.26,0.97,3.0,-1.0,1.0,1.0,1.13,89.0,10128.0,0.0,1.4,,4.43,1.027,95.2,,64.7,5.0,,,,,,,,,,,,0,0,0,0,0,0,0,0,0,0,0,0,0,0,0,0,,,,,0.0,,,,,,
181,646714,1745087768773,,,,,,,,,,,,,,,,,,,,,,,5.0,0.0,5.0,5.0,0.0,0.0,0.0,0.0,2.26,,,0,0,0,0,0,0,0,0,0,0,0,0,0,0,0,0,0.0,,,,,39.240135,-77.965363,7.85,34.0,3.0,0.8
182,646734,1745087768793,0.0,186.02,,-0.04,0.28,0.98,3.0,-1.0,1.0,1.02,1.13,90.0,9814.0,9.8,1.4,,4.43,1.027,95.2,,65.4,5.0,,,,,,,,,,,,0,0,0,0,0,0,0,0,0,0,0,0,0,0,0,0,,,,,0.0,,,,,,
183,646754,1745087768813,,,,,,,,,,,,,,,,,,,,,,,,,,,,,,,,,,0,0,0,0,0,0,0,0,0,0,0,0,0,0,0,0,,,,,,,,,,,
184,646774,1745087768833,0.0,185.77,,-0.03,0.28,0.93,4.0,0.0,0.0,0.97,1.13,86.0,9814.0,9.8,1.4,,5.26,1.009,95.2,,65.4,5.0,,,,,,,,,,,,0,0,0,0,0,0,0,0,0,0,0,0,0,0,0,0,,,,,0.0,,,,,,
185,646794,1745087768853,,,,,,,,,,,,,,,,,,,,,,,,,,,,,,,,,,0,0,0,0,0,0,0,0,0,0,0,0,0,0,0,0,,,,,,,,,,,
186,646814,1745087768873,0.0,185.77,,-0.07,0.16,0.96,3.0,0.0,0.0,0.98,1.13,86.0,9357.0,13.9,1.83,,6.14,1.004,95.2,,63.0,5.0,5.0,0.0,5.0,4.0,0.0,0.0,0.0,0.0,2.26,,,0,0,0,0,0,0,0,0,0,0,0,0,0,0,0,0,0.0,,,,0.0,39.240135,-77.965363,7.68,34.0,3.0,0.8
187,646834,1745087768893,,,,,,,,,,,,,,,,,,,,,,,,,,,,,,,,,,0,0,0,0,0,0,0,0,0,0,0,0,0,0,0,0,,,,,,,,,,,
188,646854,1745087768913,0.0,185.65,,-0.1,0.08,1.02,4.0,0.0,0.0,1.02,1.13,91.0,8971.0,14.6,2.04,,6.9,1.094,95.2,,63.0,5.0,,,,,,,,,,,,0,0,0,0,0,0,0,0,0,0,0,0,0,0,0,0,,,,,0.0,,,,,,
189,646874,1745087768933,,,,,,,,,,,,,,,,,,,,,,,,,,,,,,,,,,0,0,0,0,0,0,0,0,0,0,0,0,0,0,0,0,,,,,,,,,,,
190,646894,1745087768953,0.0,185.52,,-0.09,-0.1,1.06,3.0,0.0,0.0,1.07,1.13,95.0,8877.0,15.0,2.37,,7.61,1.25,95.2,,63.0,5.0,,,,,,,,,,,,0,0,0,0,0,0,0,0,0,0,0,0,0,0,0,0,,,,,0.0,,,,,,
191,646914,1745087768973,,,,,,,,,,,,,,,,,,,,,,,5.0,0.0,5.0,5.0,0.0,0.0,0.0,0.0,2.26,,,0,0,0,0,0,0,0,0,0,0,0,0,0,0,0,0,0.0,,,,,39.240131,-77.965363,7.45,34.0,3.0,0.8
192,646934,1745087768993,0.0,185.27,,-0.11,-0.19,1.07,2.0,0.0,0.0,1.09,1.13,97.0,8976.0,1.1,1.78,,7.61,1.25,95.2,,63.2,5.0,,,,,,,,,,,,0,0,0,0,0,0,0,0,0,0,0,0,0,0,0,0,,,,,0.0,,,,,,
193,646954,1745087769005,,,,,,,,,,,,,,,,,,,,,,,,,,,,,,,,,,0,0,0,0,0,0,0,0,0,0,0,0,0,0,0,0,,,,,,,,,,,
194,646974,1745087769025,0.0,185.14,,-0.11,-0.23,1.05,1.0,0.0,0.0,1.08,1.13,96.0,8976.0,1.1,1.78,,6.99,1.251,95.2,,63.2,5.0,,,,,,,,,,,,0,0,0,0,0,0,0,0,0,0,0,0,0,0,0,0,,,,,0.0,,,,,,
195,646994,1745087769045,,,,,,,,,,,,,,,,,,,,,,,,,,,,,,,,,,0,0,0,0,0,0,0,0,0,0,0,0,0,0,0,0,,,,,,,,,,,
196,647014,1745087769065,0.0,185.02,,-0.09,-0.17,1.08,2.0,0.0,0.0,1.1,1.13,98.0,8658.0,0.0,1.4,,5.99,1.187,95.2,,61.0,5.0,5.0,0.0,4.0,5.0,0.0,0.0,0.0,0.0,2.26,,,0,0,0,0,0,0,0,0,0,0,0,0,0,0,0,0,0.0,,,,0.0,39.240131,-77.96537,7.18,34.0,3.0,0.8
197,647034,1745087769085,,,,,,,,,,,,,,,,,,,,,,,,,,,,,,,,,,0,0,0,0,0,0,0,0,0,0,0,0,0,0,0,0,,,,,,,,,,,
198,647054,1745087769113,0.0,185.02,,-0.07,-0.05,1.03,1.0,0.0,0.0,1.03,1.13,92.0,8150.0,0.0,1.4,,5.62,1.12,95.2,,61.0,5.0,,,,,,,,,,,,0,0,0,0,0,0,0,0,0,0,0,0,0,0,0,0,,,,,0.0,,,,,,
199,647074,1745087769133,,,,,,,,,,,,,,,,,,,,,,,,,,,,,,,,,,0,0,0,0,0,0,0,0,0,0,0,0,0,0,0,0,,,,,,,,,,,
200,647094,1745087769153,0.0,184.89,,-0.09,0.01,1.01,0.0,0.0,1.0,1.01,1.13,89.0,7546.0,0.0,1.4,,5.55,1.247,95.2,,61.0,5.0,,,,,,,,,,,,0,0,0,0,0,0,0,0,0,0,0,0,0,0,0,0,,,,,0.0,,,,,,
201,647114,1745087769173,,,,,,,,,,,,,,,,,,,,,,,4.0,0.0,4.0,4.0,0.0,0.0,0.0,0.0,2.26,,,0,0,0,0,0,0,0,0,0,0,0,0,0,0,0,0,0.0,,,,,39.240128,-77.96537,7.01,34.0,3.0,0.8
202,647134,1745087769193,0.0,184.89,,-0.05,0.06,1.02,0.0,0.0,0.0,1.02,1.13,90.0,7027.0,0.0,1.4,,5.55,1.247,95.2,,56.1,5.0,,,,,,,,,,,,0,0,0,0,0,0,0,0,0,0,0,0,0,0,0,0,,,,,0.0,,,,,,
203,647154,1745087769211,,,,,,,,,,,,,,,,,,,,,,,,,,,,,,,,,,0,0,0,0,0,0,0,0,0,0,0,0,0,0,0,0,,,,,,,,,,,
204,647174,1745087769231,0.0,184.89,,-0.06,-0.04,0.98,0.0,0.0,0.0,0.98,1.13,87.0,7027.0,0.0,1.4,,5.74,1.247,95.2,,56.1,5.0,,,,,,,,,,,,0,0,0,0,0,0,0,0,0,0,0,0,0,0,0,0,,,,,0.0,,,,,,
205,647194,1745087769251,,,,,,,,,,,,,,,,,,,,,,,,,,,,,,,,,,0,0,0,0,0,0,0,0,0,0,0,0,0,0,0,0,,,,,,,,,,,
206,647214,1745087769271,0.0,184.77,,-0.03,0.04,1.09,1.0,0.0,0.0,1.09,1.13,97.0,6501.0,5.6,1.86,,6.63,1.247,95.2,,53.7,5.0,4.0,0.0,4.0,4.0,0.0,0.0,0.0,0.0,2.26,,,0,0,0,0,0,0,0,0,0,0,0,0,0,0,0,0,0.0,,,,0.0,39.240128,-77.96537,6.84,34.0,3.0,0.8
207,647234,1745087769291,,,,,,,,,,,,,,,,,,,,,,,,,,,,,,,,,,0,0,0,0,0,0,0,0,0,0,0,0,0,0,0,0,,,,,,,,,,,
208,647254,1745087769315,0.0,184.89,,-0.03,-0.01,1.07,2.0,0.0,-1.0,1.07,1.13,95.0,5967.0,6.6,2.12,,7.69,1.248,95.2,,53.7,5.0,,,,,,,,,,,,0,0,0,0,0,0,0,0,0,0,0,0,0,0,0,0,,,,,0.0,,,,,,
209,647274,1745087769335,,,,,,,,,,,,,,,,,,,,,,,,,,,,,,,,,,0,0,0,0,0,0,0,0,0,0,0,0,0,0,0,0,,,,,,,,,,,
210,647294,1745087769355,0.0,184.89,,-0.03,0.05,1.11,1.0,0.0,0.0,1.11,1.13,98.0,5507.0,6.6,2.13,,8.77,1.249,95.2,,53.7,5.0,,,,,,,,,,,,0,0,0,0,0,0,0,0,0,0,0,0,0,0,0,0,,,,,0.0,,,,,,
211,647314,1745087769375,,,,,,,,,,,,,,,,,,,,,,,4.0,0.0,4.0,4.0,0.0,0.0,0.0,0.0,2.26,,,0,0,0,0,0,0,0,0,0,0,0,0,0,0,0,0,0.0,,,,,39.240128,-77.96537,6.72,34.0,3.0,0.8
212,647334,1745087769395,0.0,184.89,,-0.04,0.05,1.05,1.0,0.0,-1.0,1.05,1.13,93.0,5149.0,10.5,2.16,,8.77,1.249,95.2,,45.8,5.0,,,,,,,,,,,,0,0,0,0,0,0,0,0,0,0,0,0,0,0,0,0,,,,,0.0,,,,,,
213,647354,1745087769413,,,,,,,,,,,,,,,,,,,,,,,,,,,,,,,,,,0,0,0,0,0,0,0,0,0,0,0,0,0,0,0,0,,,,,,,,,,,
214,647374,1745087769433,0.0,185.02,,-0.01,0.04,1.07,1.0,0.0,0.0,1.07,1.13,95.0,5149.0,10.5,2.16,,9.93,1.249,95.2,,45.8,5.0,,,,,,,,,,,,0,0,0,0,0,0,0,0,0,0,0,0,0,0,0,0,,,,,0.0,,,,,,
215,647394,1745087769453,,,,,,,,,,,,,,,,,,,,,,,,,,,,,,,,,,0,0,0,0,0,0,0,0,0,0,0,0,0,0,0,0,,,,,,,,,,,
216,647414,1745087769473,0.0,185.02,13.64,0.01,0.1,1.13,1.0,0.0,0.0,1.13,1.13,100.0,4714.0,15.3,2.79,15.0,11.22,1.25,95.2,169.0,36.4,5.0,4.0,0.0,4.0,4.0,0.0,0.0,0.0,0.0,2.26,0.0,0.0,0,0,0,0,0,0,0,0,0,0,0,0,0,0,0,0,0.0,0.0,0.0,0.0,0.0,39.240124,-77.965378,6.85,34.0,3.0,0.8
217,647434,1745087769493,,,,,,,,,,,,,,,,,,,,,,,,,,,,,,,,,,0,0,0,0,0,0,0,0,0,0,0,0,0,0,0,0,,,,,,,,,,,
218,647454,1745087769513,0.0,185.02,,0.01,0.03,1.02,1.0,0.0,0.0,1.02,1.13,90.0,4249.0,18.0,3.86,,12.33,1.222,95.2,,36.4,5.0,,,,,,,,,,,,0,0,0,0,0,0,0,0,0,0,0,0,0,0,0,0,,,,,0.0,,,,,,
219,647474,1745087769533,,,,,,,,,,,,,,,,,,,,,,,,,,,,,,,,,,0,0,0,0,0,0,0,0,0,0,0,0,0,0,0,0,,,,,,,,,,,
220,647494,1745087769553,0.0,185.02,,0.01,0.07,1.03,1.0,0.0,0.0,1.04,1.13,92.0,4036.0,18.8,4.05,,13.04,1.196,95.2,,36.4,5.0,,,,,,,,,,,,0,0,0,0,0,0,0,0,0,0,0,0,0,0,0,0,,,,,0.0,,,,,,
221,647514,1745087769573,,,,,,,,,,,,,,,,,,,,,,,4.0,0.0,4.0,4.0,0.0,0.0,0.0,0.0,2.26,,,0,0,0,0,0,0,0,0,0,0,0,0,0,0,0,0,0.0,,,,,39.240124,-77.965378,7.03,34.0,3.0,0.8
222,647534,1745087769593,0.0,184.89,,-0.0,0.08,1.05,1.0,0.0,0.0,1.05,1.13,93.0,3843.0,19.1,4.18,,13.04,1.196,95.2,,31.4,5.0,,,,,,,,,,,,0,0,0,0,0,0,0,0,0,0,0,0,0,0,0,0,,,,,0.0,,,,,,
223,647554,1745087769614,,,,,,,,,,,,,,,,,,,,,,,,,,,,,,,,,,0,0,0,0,0,0,0,0,0,0,0,0,0,0,0,0,,,,,,,,,,,
224,647574,1745087769634,0.0,184.77,,-0.01,0.05,1.03,0.0,0.0,0.0,1.03,1.13,91.0,3843.0,19.1,4.18,,13.32,1.248,95.2,,31.4,5.0,,,,,,,,,,,,0,0,0,0,0,0,0,0,0,0,0,0,0,0,0,0,,,,,0.0,,,,,,
225,647594,1745087769654,,,,,,,,,,,,,,,,,,,,,,,,,,,,,,,,,,0,0,0,0,0,0,0,0,0,0,0,0,0,0,0,0,,,,,,,,,,,
226,647614,1745087769674,0.0,184.77,,-0.03,0.02,1.0,1.0,0.0,0.0,1.0,1.13,89.0,3882.0,19.1,4.27,,13.39,1.247,95.2,,30.2,5.0,4.0,0.0,4.0,4.0,0.0,0.0,0.0,0.0,2.26,,,0,0,0,0,0,0,0,0,0,0,0,0,0,0,0,0,0.0,,,,0.0,39.240124,-77.965378,7.09,34.0,3.0,0.8
227,647634,1745087769694,,,,,,,,,,,,,,,,,,,,,,,,,,,,,,,,,,0,0,0,0,0,0,0,0,0,0,0,0,0,0,0,0,,,,,,,,,,,
228,647654,1745087769714,0.0,184.77,,-0.02,-0.01,1.0,1.0,0.0,0.0,1.0,1.13,89.0,3797.0,19.1,4.24,,13.49,1.247,95.2,,30.2,5.0,,,,,,,,,,,,0,0,0,0,0,0,0,0,0,0,0,0,0,0,0,0,,,,,0.0,,,,,,
229,647674,1745087769734,,,,,,,,,,,,,,,,,,,,,,,,,,,,,,,,,,0,0,0,0,0,0,0,0,0,0,0,0,0,0,0,0,,,,,,,,,,,
230,647694,1745087769754,0.0,184.77,,-0.02,-0.04,1.0,1.0,0.0,0.0,1.0,1.13,89.0,3893.0,19.0,4.28,,13.44,1.247,95.2,,30.2,5.0,,,,,,,,,,,,0,0,0,0,0,0,0,0,0,0,0,0,0,0,0,0,,,,,0.0,,,,,,
231,647714,1745087769774,,,,,,,,,,,,,,,,,,,,,,,5.0,0.0,5.0,4.0,0.0,0.0,0.0,0.0,2.26,,,0,0,0,0,0,0,0,0,0,0,0,0,0,0,0,0,0.0,,,,,39.240124,-77.965378,7.18,34.0,3.0,0.8
232,647734,1745087769794,0.0,184.64,,0.01,0.01,1.02,1.0,0.0,0.0,1.02,1.13,90.0,3818.0,19.1,4.23,,13.44,1.247,95.2,,30.5,5.0,,,,,,,,,,,,0,0,0,0,0,0,0,0,0,0,0,0,0,0,0,0,,,,,0.0,,,,,,
233,647754,1745087769812,,,,,,,,,,,,,,,,,,,,,,,,,,,,,,,,,,0,0,0,0,0,0,0,0,0,0,0,0,0,0,0,0,,,,,,,,,,,
234,647774,1745087769832,0.0,184.64,,0.01,0.1,1.04,1.0,0.0,0.0,1.04,1.13,92.0,3818.0,19.1,4.23,,13.53,1.248,95.2,,30.5,5.0,,,,,,,,,,,,0,0,0,0,0,0,0,0,0,0,0,0,0,0,0,0,,,,,0.0,,,,,,
235,647794,1745087769852,,,,,,,,,,,,,,,,,,,,,,,,,,,,,,,,,,0,0,0,0,0,0,0,0,0,0,0,0,0,0,0,0,,,,,,,,,,,
236,647814,1745087769872,0.0,184.64,,-0.0,0.03,1.01,0.0,0.0,0.0,1.01,1.13,89.0,3972.0,19.3,4.23,,13.55,1.249,95.2,,31.2,5.0,4.0,0.0,5.0,5.0,0.0,0.0,0.0,0.0,2.26,,,0,0,0,0,0,0,0,0,0,0,0,0,0,0,0,0,0.0,,,,0.0,39.240124,-77.965385,7.28,34.0,3.0,0.8
237,647834,1745087769892,,,,,,,,,,,,,,,,,,,,,,,,,,,,,,,,,,0,0,0,0,0,0,0,0,0,0,0,0,0,0,0,0,,,,,,,,,,,
238,647854,1745087769914,0.0,184.77,,-0.0,-0.03,0.95,1.0,0.0,0.0,0.95,1.13,84.0,4002.0,19.4,4.22,,13.49,1.249,95.2,,31.2,5.0,,,,,,,,,,,,0,0,0,0,0,0,0,0,0,0,0,0,0,0,0,0,,,,,0.0,,,,,,
239,647874,1745087769934,,,,,,,,,,,,,,,,,,,,,,,,,,,,,,,,,,0,0,0,0,0,0,0,0,0,0,0,0,0,0,0,0,,,,,,,,,,,
240,647894,1745087769954,0.0,184.77,,0.01,-0.0,0.97,1.0,0.0,0.0,0.97,1.13,86.0,3901.0,19.5,4.17,,13.49,1.212,95.2,,31.2,5.0,,,,,,,,,,,,0,0,0,0,0,0,0,0,0,0,0,0,0,0,0,0,,,,,0.0,,,,,,
241,647914,1745087769974,,,,,,,,,,,,,,,,,,,,,,,5.0,0.0,5.0,5.0,0.0,0.0,0.0,0.0,2.26,,,0,0,0,0,0,0,0,0,0,0,0,0,0,0,0,0,0.0,,,,,39.24012,-77.965385,7.42,34.0,3.0,0.8
242,647934,1745087769994,0.0,184.64,,0.0,0.07,0.98,1.0,0.0,0.0,0.99,1.13,87.0,3821.0,19.5,4.24,,13.49,1.212,95.2,,30.7,5.0,,,,,,,,,,,,0,0,0,0,0,0,0,0,0,0,0,0,0,0,0,0,,,,,0.0,,,,,,
243,647954,1745087770006,,,,,,,,,,,,,,,,,,,,,,,,,,,,,,,,,,0,0,0,0,0,0,0,0,0,0,0,0,0,0,0,0,,,,,,,,,,,
244,647974,1745087770026,0.0,184.77,,-0.0,0.07,1.01,1.0,0.0,0.0,1.01,1.13,89.0,3821.0,19.5,4.24,,13.47,1.166,95.2,,30.7,5.0,,,,,,,,,,,,0,0,0,0,0,0,0,0,0,0,0,0,0,0,0,0,,,,,0.0,,,,,,
245,647994,1745087770046,,,,,,,,,,,,,,,,,,,,,,,,,,,,,,,,,,0,0,0,0,0,0,0,0,0,0,0,0,0,0,0,0,,,,,,,,,,,
246,648014,1745087770066,0.0,184.77,,-0.02,0.06,1.03,0.0,0.0,1.0,1.03,1.13,91.0,3886.0,19.5,4.29,,13.43,1.183,95.2,,30.2,5.0,5.0,0.0,5.0,5.0,0.0,0.0,0.0,0.0,2.26,,,0,0,0,0,0,0,0,0,0,0,0,0,0,0,0,0,0.0,,,,0.0,39.24012,-77.965385,7.45,36.0,3.0,0.8
247,648034,1745087770086,,,,,,,,,,,,,,,,,,,,,,,,,,,,,,,,,,0,0,0,0,0,0,0,0,0,0,0,0,0,0,0,0,,,,,,,,,,,
248,648054,1745087770108,0.0,184.77,,-0.03,-0.03,1.0,1.0,0.0,0.0,1.01,1.13,89.0,3939.0,16.6,4.17,,13.49,1.227,95.2,,30.2,5.0,,,,,,,,,,,,0,0,0,0,0,0,0,0,0,0,0,0,0,0,0,0,,,,,0.0,,,,,,
249,648074,1745087770128,,,,,,,,,,,,,,,,,,,,,,,,,,,,,,,,,,0,0,0,0,0,0,0,0,0,0,0,0,0,0,0,0,,,,,,,,,,,
250,648094,1745087770148,0.0,184.77,,-0.03,-0.05,1.01,1.0,0.0,0.0,1.02,1.13,90.0,3828.0,15.8,4.12,,13.4,1.149,95.2,,30.2,5.0,,,,,,,,,,,,0,0,0,0,0,0,0,0,0,0,0,0,0,0,0,0,,,,,0.0,,,,,,
251,648114,1745087770168,,,,,,,,,,,,,,,,,,,,,,,5.0,0.0,5.0,5.0,0.0,0.0,0.0,0.0,2.26,,,0,0,0,0,0,0,0,0,0,0,0,0,0,0,0,0,0.0,,,,,39.240116,-77.965385,7.57,36.0,3.0,0.8
252,648134,1745087770188,0.0,184.77,,-0.02,-0.01,1.01,1.0,0.0,0.0,1.01,1.13,90.0,3624.0,15.5,4.16,,13.4,1.149,95.2,,29.3,5.0,,,,,,,,,,,,0,0,0,0,0,0,0,0,0,0,0,0,0,0,0,0,,,,,0.0,,,,,,
253,648154,1745087770214,,,,,,,,,,,,,,,,,,,,,,,,,,,,,,,,,,0,0,0,0,0,0,0,0,0,0,0,0,0,0,0,0,,,,,,,,,,,
254,648174,1745087770234,0.0,184.77,,-0.01,0.08,1.01,0.0,0.0,1.0,1.02,1.13,90.0,3624.0,15.5,4.16,,13.43,1.009,95.2,,29.3,5.0,,,,,,,,,,,,0,0,0,0,0,0,0,0,0,0,0,0,0,0,0,0,,,,,0.0,,,,,,
255,648194,1745087770254,,,,,,,,,,,,,,,,,,,,,,,,,,,,,,,,,,0,0,0,0,0,0,0,0,0,0,0,0,0,0,0,0,,,,,,,,,,,
256,648214,1745087770274,0.0,184.77,,-0.02,-0.0,1.0,2.0,0.0,0.0,1.0,1.13,88.0,3519.0,15.3,4.26,,13.49,0.967,95.2,,26.7,5.0,5.0,0.0,5.0,5.0,0.0,0.0,0.0,0.0,2.26,,,0,0,0,0,0,0,0,0,0,0,0,0,0,0,0,0,0.0,,,,0.0,39.240116,-77.965393,7.68,36.0,3.0,0.8
257,648234,1745087770294,,,,,,,,,,,,,,,,,,,,,,,,,,,,,,,,,,0,0,0,0,0,0,0,0,0,0,0,0,0,0,0,0,,,,,,,,,,,
258,648254,1745087770314,0.0,184.89,,0.01,0.06,0.97,1.0,0.0,0.0,0.97,1.13,86.0,3300.0,15.4,4.34,,13.6,0.965,95.2,,26.7,5.0,,,,,,,,,,,,0,0,0,0,0,0,0,0,0,0,0,0,0,0,0,0,,,,,0.0,,,,,,
259,648274,1745087770334,,,,,,,,,,,,,,,,,,,,,,,,,,,,,,,,,,0,0,0,0,0,0,0,0,0,0,0,0,0,0,0,0,,,,,,,,,,,
260,648294,1745087770354,0.0,184.89,,0.01,-0.0,1.04,1.0,0.0,0.0,1.04,1.13,92.0,3286.0,15.4,4.39,,13.63,0.992,95.2,,26.7,5.0,,,,,,,,,,,,0,0,0,0,0,0,0,0,0,0,0,0,0,0,0,0,,,,,0.0,,,,,,
261,648314,1745087770374,,,,,,,,,,,,,,,,,,,,,,,5.0,0.0,5.0,5.0,0.0,0.0,0.0,0.0,2.26,,,0,0,0,0,0,0,0,0,0,0,0,0,0,0,0,0,0.0,,,,,39.240116,-77.965393,8.01,36.0,3.0,0.8
262,648334,1745087770394,0.0,184.89,,0.01,-0.03,1.01,1.0,0.0,0.0,1.01,1.13,89.0,3243.0,15.3,4.41,,13.63,0.992,95.2,,24.9,5.0,,,,,,,,,,,,0,0,0,0,0,0,0,0,0,0,0,0,0,0,0,0,,,,,0.0,,,,,,
263,648354,1745087770414,,,,,,,,,,,,,,,,,,,,,,,,,,,,,,,,,,0,0,0,0,0,0,0,0,0,0,0,0,0,0,0,0,,,,,,,,,,,
264,648374,1745087770434,0.0,185.02,,0.03,-0.03,1.05,0.0,0.0,1.0,1.05,1.13,93.0,3243.0,15.3,4.41,,13.61,1.035,95.2,,24.9,5.0,,,,,,,,,,,,0,0,0,0,0,0,0,0,0,0,0,0,0,0,0,0,,,,,0.0,,,,,,
265,648394,1745087770454,,,,,,,,,,,,,,,,,,,,,,,,,,,,,,,,,,0,0,0,0,0,0,0,0,0,0,0,0,0,0,0,0,,,,,,,,,,,
266,648414,1745087770474,0.0,185.02,13.71,0.01,-0.07,1.03,1.0,0.0,0.0,1.03,1.13,91.0,3334.0,15.3,4.3,15.0,13.63,1.086,95.2,167.0,26.0,5.0,5.0,0.0,5.0,5.0,0.0,0.0,0.0,0.0,2.26,0.0,0.0,0,0,0,0,0,0,0,0,0,0,0,0,0,0,0,0,0.0,0.0,0.0,0.0,0.0,39.240112,-77.965393,8.32,36.0,3.0,0.8
267,648434,1745087770494,,,,,,,,,,,,,,,,,,,,,,,,,,,,,,,,,,0,0,0,0,0,0,0,0,0,0,0,0,0,0,0,0,,,,,,,,,,,
268,648454,1745087770510,0.0,185.14,,0.04,0.05,0.98,0.0,0.0,0.0,0.98,1.13,86.0,3316.0,15.4,4.37,,13.61,1.094,95.2,,26.0,5.0,,,,,,,,,,,,0,0,0,0,0,0,0,0,0,0,0,0,0,0,0,0,,,,,0.0,,,,,,
269,648474,1745087770530,,,,,,,,,,,,,,,,,,,,,,,,,,,,,,,,,,0,0,0,0,0,0,0,0,0,0,0,0,0,0,0,0,,,,,,,,,,,
270,648494,1745087770550,0.0,185.14,,0.06,0.05,1.02,0.0,-1.0,1.0,1.02,1.13,90.0,3136.0,15.4,4.39,,13.61,1.081,95.2,,26.0,5.0,,,,,,,,,,,,0,0,0,0,0,0,0,0,0,0,0,0,0,0,0,0,,,,,0.0,,,,,,
271,648514,1745087770570,,,,,,,,,,,,,,,,,,,,,,,6.0,0.0,5.0,6.0,0.0,0.0,0.0,0.0,2.26,,,0,0,0,0,0,0,0,0,0,0,0,0,0,0,0,0,0.0,,,,,39.240112,-77.965393,8.66,36.0,3.0,0.8
272,648534,1745087770590,0.0,185.14,,0.04,-0.02,1.08,0.0,0.0,1.0,1.08,1.13,95.0,3050.0,15.4,4.42,,13.61,1.081,95.2,,24.3,5.0,,,,,,,,,,,,0,0,0,0,0,0,0,0,0,0,0,0,0,0,0,0,,,,,0.0,,,,,,
273,648554,1745087770609,,,,,,,,,,,,,,,,,,,,,,,,,,,,,,,,,,0,0,0,0,0,0,0,0,0,0,0,0,0,0,0,0,,,,,,,,,,,
274,648574,1745087770629,0.0,185.27,,0.03,-0.08,1.15,0.0,0.0,1.0,1.15,1.15,100.0,3050.0,15.4,4.42,,13.71,1.057,95.2,,24.3,5.0,,,,,,,,,,,,0,0,0,0,0,0,0,0,0,0,0,0,0,0,0,0,,,,,0.0,,,,,,
275,648594,1745087770649,,,,,,,,,,,,,,,,,,,,,,,,,,,,,,,,,,0,0,0,0,0,0,0,0,0,0,0,0,0,0,0,0,,,,,,,,,,,
276,648614,1745087770669,0.0,185.27,,-0.0,-0.13,1.15,1.0,0.0,0.0,1.15,1.15,100.0,3048.0,15.5,4.51,,13.71,1.061,95.2,,24.0,5.0,6.0,0.0,6.0,6.0,0.0,0.0,0.0,0.0,2.26,,,0,0,0,0,0,0,0,0,0,0,0,0,0,0,0,0,0.0,,,,0.0,39.240108,-77.965393,8.9,36.0,3.0,0.8
277,648634,1745087770689,,,,,,,,,,,,,,,,,,,,,,,,,,,,,,,,,,0,0,0,0,0,0,0,0,0,0,0,0,0,0,0,0,,,,,,,,,,,
278,648654,1745087770709,0.0,185.27,,0.01,-0.03,1.07,1.0,0.0,0.0,1.07,1.15,93.0,3258.0,15.3,4.46,,13.67,1.103,95.2,,24.0,5.0,,,,,,,,,,,,0,0,0,0,0,0,0,0,0,0,0,0,0,0,0,0,,,,,0.0,,,,,,
279,648674,1745087770729,,,,,,,,,,,,,,,,,,,,,,,,,,,,,,,,,,0,0,0,0,0,0,0,0,0,0,0,0,0,0,0,0,,,,,,,,,,,
280,648694,1745087770749,0.0,185.27,,0.03,0.02,1.05,1.0,0.0,1.0,1.05,1.15,91.0,3126.0,15.3,4.39,,13.71,1.095,95.2,,24.0,5.0,,,,,,,,,,,,0,0,0,0,0,0,0,0,0,0,0,0,0,0,0,0,,,,,0.0,,,,,,
281,648714,1745087770769,,,,,,,,,,,,,,,,,,,,,,,6.0,0.0,6.0,6.0,0.0,0.0,0.0,0.0,2.26,,,0,0,0,0,0,0,0,0,0,0,0,0,0,0,0,0,0.0,,,,,39.240108,-77.965393,9.09,36.0,3.0,0.8
282,648734,1745087770789,0.0,185.27,,0.03,0.0,1.07,0.0,0.0,1.0,1.07,1.15,93.0,3138.0,15.2,4.47,,13.71,1.095,95.2,,24.6,5.0,,,,,,,,,,,,0,0,0,0,0,0,0,0,0,0,0,0,0,0,0,0,,,,,0.0,,,,,,
283,648754,1745087770809,,,,,,,,,,,,,,,,,,,,,,,,,,,,,,,,,,0,0,0,0,0,0,0,0,0,0,0,0,0,0,0,0,,,,,,,,,,,
284,648774,1745087770829,0.0,185.27,,0.02,-0.1,1.09,1.0,0.0,1.0,1.1,1.15,95.0,3138.0,15.2,4.47,,13.69,1.066,95.2,,24.6,5.0,,,,,,,,,,,,0,0,0,0,0,0,0,0,0,0,0,0,0,0,0,0,,,,,0.0,,,,,,
285,648794,1745087770849,,,,,,,,,,,,,,,,,,,,,,,,,,,,,,,,,,0,0,0,0,0,0,0,0,0,0,0,0,0,0,0,0,,,,,,,,,,,
286,648814,1745087770869,0.0,185.39,,0.05,-0.02,1.07,0.0,0.0,1.0,1.07,1.15,93.0,3390.0,15.3,4.42,,13.67,1.055,95.2,,26.3,5.0,6.0,0.0,6.0,6.0,0.0,0.0,0.0,0.0,2.26,,,0,0,0,0,0,0,0,0,0,0,0,0,0,0,0,0,0.0,,,,0.0,39.240105,-77.965393,9.51,36.0,3.0,0.8
287,648834,1745087770889,,,,,,,,,,,,,,,,,,,,,,,,,,,,,,,,,,0,0,0,0,0,0,0,0,0,0,0,0,0,0,0,0,,,,,,,,,,,
288,648854,1745087770913,0.0,185.27,,0.04,-0.06,1.06,1.0,0.0,0.0,1.06,1.15,92.0,3410.0,15.4,4.3,,13.65,1.037,95.2,,26.3,5.0,,,,,,,,,,,,0,0,0,0,0,0,0,0,0,0,0,0,0,0,0,0,,,,,0.0,,,,,,
289,648874,1745087770933,,,,,,,,,,,,,,,,,,,,,,,,,,,,,,,,,,0,0,0,0,0,0,0,0,0,0,0,0,0,0,0,0,,,,,,,,,,,
290,648894,1745087770953,0.0,185.39,,0.05,0.0,1.06,0.0,0.0,1.0,1.06,1.15,92.0,3400.0,15.4,4.33,,13.64,0.989,95.2,,26.3,5.0,,,,,,,,,,,,0,0,0,0,0,0,0,0,0,0,0,0,0,0,0,0,,,,,0.0,,,,,,
291,648914,1745087770973,,,,,,,,,,,,,,,,,,,,,,,6.0,0.0,6.0,7.0,0.0,0.0,0.0,0.0,2.26,,,0,0,0,0,0,0,0,0,0,0,0,0,0,0,0,0,0.0,,,,,39.240105,-77.965401,9.78,36.0,3.0,0.8
292,648934,1745087770993,0.0,185.39,,0.04,-0.04,1.11,0.0,0.0,1.0,1.11,1.15,96.0,3199.0,15.5,4.36,,13.64,0.989,95.2,,25.4,5.0,,,,,,,,,,,,0,0,0,0,0,0,0,0,0,0,0,0,0,0,0,0,,,,,0.0,,,,,,
293,648954,1745087771005,,,,,,,,,,,,,,,,,,,,,,,,,,,,,,,,,,0,0,0,0,0,0,0,0,0,0,0,0,0,0,0,0,,,,,,,,,,,
294,648974,1745087771025,0.0,185.52,,0.02,-0.07,1.07,1.0,0.0,0.0,1.07,1.15,93.0,3199.0,15.5,4.36,,13.67,1.004,95.2,,25.4,5.0,,,,,,,,,,,,0,0,0,0,0,0,0,0,0,0,0,0,0,0,0,0,,,,,0.0,,,,,,
295,648994,1745087771045,,,,,,,,,,,,,,,,,,,,,,,,,,,,,,,,,,0,0,0,0,0,0,0,0,0,0,0,0,0,0,0,0,,,,,,,,,,,
296,649014,1745087771065,0.0,185.52,,0.03,0.0,1.01,1.0,0.0,0.0,1.01,1.15,87.0,3081.0,15.4,4.4,,13.75,1.019,95.2,,23.7,5.0,7.0,0.0,7.0,6.0,0.0,0.0,0.0,0.0,2.26,,,0,0,0,0,0,0,0,0,0,0,0,0,0,0,0,0,0.0,,,,0.0,39.240105,-77.965401,10.18,36.0,3.0,0.8
297,649034,1745087771085,,,,,,,,,,,,,,,,,,,,,,,,,,,,,,,,,,0,0,0,0,0,0,0,0,0,0,0,0,0,0,0,0,,,,,,,,,,,
298,649054,1745087771113,0.0,185.39,,0.02,0.01,0.99,1.0,0.0,0.0,0.99,1.15,86.0,2989.0,15.4,4.5,,13.72,1.042,95.2,,23.7,5.0,,,,,,,,,,,,0,0,0,0,0,0,0,0,0,0,0,0,0,0,0,0,,,,,0.0,,,,,,
299,649074,1745087771133,,,,,,,,,,,,,,,,,,,,,,,,,,,,,,,,,,0,0,0,0,0,0,0,0,0,0,0,0,0,0,0,0,,,,,,,,,,,
300,649094,1745087771153,0.0,185.52,,0.02,-0.01,1.03,1.0,0.0,0.0,1.03,1.15,90.0,2912.0,15.3,4.48,,13.8,1.061,95.2,,23.7,5.0,,,,,,,,,,,,0,0,0,0,0,0,0,0,0,0,0,0,0,0,0,0,,,,,0.0,,,,,,
301,649114,1745087771173,,,,,,,,,,,,,,,,,,,,,,,7.0,0.0,7.0,6.0,0.0,247.0,0.0,0.0,2.26,,,0,0,0,0,0,0,0,0,0,0,0,0,0,0,0,0,0.0,,,,,39.240101,-77.965401,10.48,36.0,3.0,0.8
302,649134,1745087771193,0.0,185.52,,0.02,-0.0,1.05,1.0,0.0,0.0,1.05,1.15,91.0,2802.0,15.3,4.45,,13.8,1.061,95.2,,21.4,5.0,,,,,,,,,,,,0,0,0,0,0,0,0,0,0,0,0,0,0,0,0,0,,,,,0.0,,,,,,
303,649154,1745087771211,,,,,,,,,,,,,,,,,,,,,,,,,,,,,,,,,,0,0,0,0,0,0,0,0,0,0,0,0,0,0,0,0,,,,,,,,,,,
304,649174,1745087771231,0.0,185.52,,0.02,-0.03,1.01,1.0,0.0,0.0,1.01,1.15,88.0,2802.0,15.3,4.45,,13.86,1.072,95.2,,21.4,5.0,,,,,,,,,,,,0,0,0,0,0,0,0,0,0,0,0,0,0,0,0,0,,,,,0.0,,,,,,
305,649194,1745087771251,,,,,,,,,,,,,,,,,,,,,,,,,,,,,,,,,,0,0,0,0,0,0,0,0,0,0,0,0,0,0,0,0,,,,,,,,,,,
306,649214,1745087771271,0.0,185.65,,-0.0,-0.03,1.06,1.0,0.0,0.0,1.06,1.15,92.0,2738.0,15.2,4.44,,13.9,1.083,95.2,,21.9,5.0,7.0,0.0,7.0,7.0,0.0,19.0,0.0,0.0,2.26,,,0,0,0,0,0,0,0,0,0,0,0,0,0,0,0,0,0.0,,,,0.0,39.240101,-77.965408,10.9,36.0,3.0,0.8
307,649234,1745087771291,,,,,,,,,,,,,,,,,,,,,,,,,,,,,,,,,,0,0,0,0,0,0,0,0,0,0,0,0,0,0,0,0,,,,,,,,,,,
308,649254,1745087771313,0.0,185.65,,-0.01,-0.07,1.15,2.0,0.0,0.0,1.15,1.15,100.0,2861.0,15.2,4.48,,13.82,1.111,95.2,,21.9,5.0,,,,,,,,,,,,0,0,0,0,0,0,0,0,0,0,0,0,0,0,0,0,,,,,0.0,,,,,,
309,649274,1745087771333,,,,,,,,,,,,,,,,,,,,,,,,,,,,,,,,,,0,0,0,0,0,0,0,0,0,0,0,0,0,0,0,0,,,,,,,,,,,
310,649294,1745087771353,0.0,185.65,,-0.03,-0.13,1.2,2.0,0.0,0.0,1.21,1.21,100.0,3089.0,15.2,4.5,,13.71,1.017,95.2,,21.9,5.0,,,,,,,,,,,,0,0,0,0,0,0,0,0,0,0,0,0,0,0,0,0,,,,,0.0,,,,,,
311,649314,1745087771373,,,,,,,,,,,,,,,,,,,,,,,7.0,0.0,7.0,7.0,0.0,57.0,0.0,0.0,2.26,,,0,0,0,0,0,0,0,0,0,0,0,0,0,0,0,0,0.0,,,,,39.240097,-77.965408,11.21,36.0,3.0,0.8
312,649334,1745087771393,0.0,185.65,,-0.05,-0.13,1.17,2.0,0.0,-1.0,1.18,1.21,97.0,3191.0,15.2,4.49,,13.71,1.017,95.2,,23.5,5.0,,,,,,,,,,,,0,0,0,0,0,0,0,0,0,0,0,0,0,0,0,0,,,,,0.0,,,,,,
313,649354,1745087771413,,,,,,,,,,,,,,,,,,,,,,,,,,,,,,,,,,0,0,0,0,0,0,0,0,0,0,0,0,0,0,0,0,,,,,,,,,,,
314,649374,1745087771433,0.0,185.65,,-0.01,-0.03,1.07,2.0,0.0,-1.0,1.08,1.21,89.0,3191.0,15.2,4.49,,13.71,0.936,95.2,,23.5,5.0,,,,,,,,,,,,0,0,0,0,0,0,0,0,0,0,0,0,0,0,0,0,,,,,0.0,,,,,,
315,649394,1745087771453,,,,,,,,,,,,,,,,,,,,,,,,,,,,,,,,,,0,0,0,0,0,0,0,0,0,0,0,0,0,0,0,0,,,,,,,,,,,
316,649414,1745087771473,0.0,185.65,13.7,0.01,-0.0,1.07,2.0,0.0,0.0,1.07,1.21,89.0,3172.0,15.3,4.37,15.0,13.68,0.916,95.2,167.0,24.8,5.0,8.0,0.0,7.0,7.0,0.0,239.0,0.0,0.0,2.26,0.0,0.0,0,0,0,0,0,0,0,0,0,0,0,0,0,0,0,0,0.0,0.0,0.0,0.0,0.0,39.240097,-77.965416,11.58,36.0,3.0,0.8
317,649434,1745087771493,,,,,,,,,,,,,,,,,,,,,,,,,,,,,,,,,,0,0,0,0,0,0,0,0,0,0,0,0,0,0,0,0,,,,,,,,,,,
318,649454,1745087771515,0.0,185.77,,0.01,-0.05,1.13,1.0,0.0,0.0,1.13,1.13,100.0,3127.0,15.4,4.47,,13.68,0.951,95.2,,24.8,5.0,,,,,,,,,,,,0,0,0,0,0,0,0,0,0,0,0,0,0,0,0,0,,,,,0.0,,,,,,
319,649474,1745087771535,,,,,,,,,,,,,,,,,,,,,,,,,,,,,,,,,,0,0,0,0,0,0,0,0,0,0,0,0,0,0,0,0,,,,,,,,,,,
320,649494,1745087771555,0.0,185.77,,0.02,-0.08,1.08,2.0,0.0,0.0,1.09,1.13,96.0,3296.0,15.3,4.43,,13.65,0.983,95.2,,24.8,5.0,,,,,,,,,,,,0,0,0,0,0,0,0,0,0,0,0,0,0,0,0,0,,,,,0.0,,,,,,
321,649514,1745087771575,,,,,,,,,,,,,,,,,,,,,,,8.0,0.0,8.0,8.0,0.0,53.0,0.0,0.0,2.26,,,0,0,0,0,0,0,0,0,0,0,0,0,0,0,0,0,0.0,,,,,39.240093,-77.965416,12.0,36.0,3.0,0.8
322,649534,1745087771595,0.0,185.77,,0.03,-0.05,1.12,1.0,0.0,0.0,1.12,1.13,99.0,3309.0,12.8,4.26,,13.65,0.983,95.2,,26.3,5.0,,,,,,,,,,,,0,0,0,0,0,0,0,0,0,0,0,0,0,0,0,0,,,,,0.0,,,,,,
323,649554,1745087771614,,,,,,,,,,,,,,,,,,,,,,,,,,,,,,,,,,0,0,0,0,0,0,0,0,0,0,0,0,0,0,0,0,,,,,,,,,,,
324,649574,1745087771634,0.0,185.9,,0.02,-0.11,1.14,1.0,0.0,0.0,1.14,1.14,100.0,3309.0,12.8,4.26,,13.6,0.976,95.2,,26.3,5.0,,,,,,,,,,,,0,0,0,0,0,0,0,0,0,0,0,0,0,0,0,0,,,,,0.0,,,,,,
325,649594,1745087771654,,,,,,,,,,,,,,,,,,,,,,,,,,,,,,,,,,0,0,0,0,0,0,0,0,0,0,0,0,0,0,0,0,,,,,,,,,,,
326,649614,1745087771674,0.0,185.9,,-0.0,-0.15,1.17,1.0,0.0,0.0,1.18,1.18,100.0,3143.0,10.8,4.25,,13.52,0.976,95.2,,23.3,5.0,8.0,0.0,8.0,8.0,0.0,34.0,0.0,0.0,2.26,,,0,0,0,0,0,0,0,0,0,0,0,0,0,0,0,0,0.0,,,,0.0,39.240089,-77.965416,12.4,36.0,3.0,0.8
327,649634,1745087771694,,,,,,,,,,,,,,,,,,,,,,,,,,,,,,,,,,0,0,0,0,0,0,0,0,0,0,0,0,0,0,0,0,,,,,,,,,,,
328,649654,1745087771714,0.0,185.9,,-0.03,-0.15,1.19,2.0,0.0,-1.0,1.2,1.2,100.0,2990.0,10.6,4.28,,13.55,0.992,95.2,,23.3,5.0,,,,,,,,,,,,0,0,0,0,0,0,0,0,0,0,0,0,0,0,0,0,,,,,0.0,,,,,,
329,649674,1745087771734,,,,,,,,,,,,,,,,,,,,,,,,,,,,,,,,,,0,0,0,0,0,0,0,0,0,0,0,0,0,0,0,0,,,,,,,,,,,
330,649694,1745087771754,0.0,186.02,,-0.04,-0.19,1.22,2.0,0.0,-1.0,1.23,1.23,100.0,2915.0,8.3,4.23,,13.53,1.014,95.2,,23.3,5.0,,,,,,,,,,,,0,0,0,0,0,0,0,0,0,0,0,0,0,0,0,0,,,,,0.0,,,,,,
331,649714,1745087771774,,,,,,,,,,,,,,,,,,,,,,,8.0,0.0,8.0,9.0,0.0,24.0,0.0,0.0,2.26,,,0,0,0,0,0,0,0,0,0,0,0,0,0,0,0,0,0.0,,,,,39.240089,-77.965424,12.89,36.0,3.0,0.8
332,649734,1745087771794,0.0,186.02,,-0.06,-0.21,1.26,2.0,0.0,-1.0,1.28,1.28,100.0,2921.0,7.3,4.13,,13.53,1.014,95.2,,22.9,5.0,,,,,,,,,,,,0,0,0,0,0,0,0,0,0,0,0,0,0,0,0,0,,,,,0.0,,,,,,
333,649754,1745087771812,,,,,,,,,,,,,,,,,,,,,,,,,,,,,,,,,,0,0,0,0,0,0,0,0,0,0,0,0,0,0,0,0,,,,,,,,,,,
334,649774,1745087771832,0.0,186.02,,-0.03,-0.2,1.29,1.0,0.0,0.0,1.31,1.31,100.0,2921.0,7.3,4.13,,13.47,1.002,95.2,,22.9,5.0,,,,,,,,,,,,0,0,0,0,0,0,0,0,0,0,0,0,0,0,0,0,,,,,0.0,,,,,,
335,649794,1745087771852,,,,,,,,,,,,,,,,,,,,,,,,,,,,,,,,,,0,0,0,0,0,0,0,0,0,0,0,0,0,0,0,0,,,,,,,,,,,
336,649814,1745087771872,0.0,186.02,,-0.02,-0.19,1.23,2.0,0.0,0.0,1.25,1.31,95.0,2812.0,7.2,4.02,,13.48,0.979,95.2,,21.3,5.0,9.0,0.0,9.0,9.0,0.0,40.0,0.0,0.0,2.26,,,0,0,0,0,0,0,0,0,0,0,0,0,0,0,0,0,1.0,,,,0.0,39.240086,-77.965424,13.21,36.0,3.0,0.8
337,649834,1745087771892,,,,,,,,,,,,,,,,,,,,,,,,,,,,,,,,,,0,0,0,0,0,0,0,0,0,0,0,0,0,0,0,0,,,,,,,,,,,
338,649854,1745087771912,0.0,185.9,,-0.01,-0.14,1.19,2.0,0.0,0.0,1.2,1.31,92.0,2609.0,7.1,3.84,,13.56,0.965,95.2,,21.3,5.0,,,,,,,,,,,,0,0,0,0,0,0,0,0,0,0,0,0,0,0,0,0,,,,,0.0,,,,,,
339,649874,1745087771932,,,,,,,,,,,,,,,,,,,,,,,,,,,,,,,,,,0,0,0,0,0,0,0,0,0,0,0,0,0,0,0,0,,,,,,,,,,,
340,649894,1745087771952,0.0,186.02,,-0.0,-0.11,1.17,1.0,0.0,0.0,1.18,1.31,90.0,2367.0,7.1,3.64,,13.72,0.968,95.2,,21.3,5.0,,,,,,,,,,,,0,0,0,0,0,0,0,0,0,0,0,0,0,0,0,0,,,,,0.0,,,,,,
341,649914,1745087771972,,,,,,,,,,,,,,,,,,,,,,,9.0,0.0,9.0,9.0,0.0,0.0,0.0,0.0,2.26,,,0,0,0,0,0,0,0,0,0,0,0,0,0,0,0,0,1.0,,,,,39.240082,-77.965431,13.54,36.0,3.0,0.8
342,649934,1745087771992,0.0,186.02,,0.0,-0.12,1.15,1.0,0.0,0.0,1.15,1.31,88.0,2180.0,7.2,3.6,,13.72,0.968,95.2,,17.7,5.0,,,,,,,,,,,,0,0,0,0,0,0,0,0,0,0,0,0,0,0,0,0,,,,,0.0,,,,,,
343,649954,1745087772006,,,,,,,,,,,,,,,,,,,,,,,,,,,,,,,,,,0,0,0,0,0,0,0,0,0,0,0,0,0,0,0,0,,,,,,,,,,,
344,649974,1745087772026,0.0,186.02,,-0.01,-0.11,1.13,1.0,0.0,0.0,1.13,1.31,87.0,2180.0,7.2,3.6,,13.8,0.961,95.2,,17.7,5.0,,,,,,,,,,,,0,0,0,0,0,0,0,0,0,0,0,0,0,0,0,0,,,,,0.0,,,,,,
345,649994,1745087772046,,,,,,,,,,,,,,,,,,,,,,,,,,,,,,,,,,0,0,0,0,0,0,0,0,0,0,0,0,0,0,0,0,,,,,,,,,,,
346,650014,1745087772066,0.0,186.02,,-0.01,-0.13,1.12,1.0,0.0,0.0,1.13,1.31,86.0,2034.0,7.3,3.46,,13.96,0.962,95.2,,16.6,5.0,9.0,0.0,9.0,9.0,0.0,0.0,0.0,0.0,2.25,,,0,0,0,0,0,0,0,0,0,0,0,0,0,0,0,0,2.0,,,,0.0,39.240082,-77.965431,13.89,35.0,3.0,0.8
347,650034,1745087772086,,,,,,,,,,,,,,,,,,,,,,,,,,,,,,,,,,0,0,0,0,0,0,0,0,0,0,0,0,0,0,0,0,,,,,,,,,,,
348,650054,1745087772112,0.0,186.15,,-0.02,-0.11,1.11,1.0,0.0,-1.0,1.12,1.31,85.0,2017.0,7.3,3.34,,13.9,0.965,95.2,,16.6,5.0,,,,,,,,,,,,0,0,0,0,0,0,0,0,0,0,0,0,0,0,0,0,,,,,0.0,,,,,,
349,650074,1745087772132,,,,,,,,,,,,,,,,,,,,,,,,,,,,,,,,,,0,0,0,0,0,0,0,0,0,0,0,0,0,0,0,0,,,,,,,,,,,
350,650094,1745087772152,0.0,186.15,,-0.04,-0.11,1.09,2.0,0.0,-1.0,1.1,1.31,84.0,2015.0,7.3,3.33,,13.9,0.979,95.2,,16.6,5.0,,,,,,,,,,,,0,0,0,0,0,0,0,0,0,0,0,0,0,0,0,0,,,,,0.0,,,,,,
351,650114,1745087772172,,,,,,,,,,,,,,,,,,,,,,,9.0,0.0,9.0,9.0,0.0,249.0,0.0,0.0,2.26,,,0,0,0,0,0,0,0,0,0,0,0,0,0,0,0,0,2.0,,,,,39.240078,-77.965431,14.02,35.0,3.0,0.8
352,650134,1745087772192,0.0,186.15,,-0.04,-0.08,1.09,1.0,0.0,0.0,1.1,1.31,84.0,2050.0,7.3,3.3,,13.9,0.979,95.2,,15.8,5.0,,,,,,,,,,,,0,0,0,0,0,0,0,0,0,0,0,0,0,0,0,0,,,,,0.0,,,,,,
353,650154,1745087772212,,,,,,,,,,,,,,,,,,,,,,,,,,,,,,,,,,0,0,0,0,0,0,0,0,0,0,0,0,0,0,0,0,,,,,,,,,,,
354,650174,1745087772232,0.0,186.15,,-0.06,-0.08,1.08,1.0,0.0,0.0,1.08,1.31,83.0,2050.0,7.3,3.3,,13.92,1.003,95.2,,15.8,5.0,,,,,,,,,,,,0,0,0,0,0,0,0,0,0,0,0,0,0,0,0,0,,,,,0.0,,,,,,
355,650194,1745087772252,,,,,,,,,,,,,,,,,,,,,,,,,,,,,,,,,,0,0,0,0,0,0,0,0,0,0,0,0,0,0,0,0,,,,,,,,,,,
356,650214,1745087772272,0.0,186.15,,-0.07,-0.04,1.06,1.0,0.0,0.0,1.07,1.31,81.0,2066.0,7.2,3.29,,13.88,1.025,95.2,,15.9,5.0,9.0,0.0,9.0,9.0,0.0,249.0,0.0,0.0,2.26,,,0,0,0,0,0,0,0,0,0,0,0,0,0,0,0,0,0.0,,,,0.0,39.240078,-77.965431,13.91,36.0,3.0,0.8
357,650234,1745087772292,,,,,,,,,,,,,,,,,,,,,,,,,,,,,,,,,,0,0,0,0,0,0,0,0,0,0,0,0,0,0,0,0,,,,,,,,,,,
358,650254,1745087772314,0.0,186.15,,-0.09,-0.04,1.06,1.0,0.0,0.0,1.06,1.31,81.0,2112.0,7.2,3.27,,13.96,1.067,95.2,,15.9,5.0,,,,,,,,,,,,0,0,0,0,0,0,0,0,0,0,0,0,0,0,0,0,,,,,0.0,,,,,,
359,650274,1745087772334,,,,,,,,,,,,,,,,,,,,,,,,,,,,,,,,,,0,0,0,0,0,0,0,0,0,0,0,0,0,0,0,0,,,,,,,,,,,
360,650294,1745087772354,0.0,186.27,,-0.1,-0.04,1.05,1.0,0.0,0.0,1.05,1.31,80.0,2061.0,8.2,3.27,,13.92,1.124,95.2,,15.9,5.0,,,,,,,,,,,,0,0,0,0,0,0,0,0,0,0,0,0,0,0,0,0,,,,,0.0,,,,,,
361,650314,1745087772374,,,,,,,,,,,,,,,,,,,,,,,8.0,0.0,8.0,8.0,0.0,8.0,0.0,0.0,2.26,,,0,0,0,0,0,0,0,0,0,0,0,0,0,0,0,0,0.0,,,,,39.240074,-77.965439,13.56,36.0,3.0,0.8
362,650334,1745087772394,0.0,186.27,,-0.1,-0.01,1.05,1.0,0.0,0.0,1.05,1.31,80.0,2101.0,8.3,3.35,,13.92,1.124,95.2,,17.0,5.0,,,,,,,,,,,,0,0,0,0,0,0,0,0,0,0,0,0,0,0,0,0,,,,,0.0,,,,,,
363,650354,1745087772414,,,,,,,,,,,,,,,,,,,,,,,,,,,,,,,,,,0,0,0,0,0,0,0,0,0,0,0,0,0,0,0,0,,,,,,,,,,,
364,650374,1745087772434,0.0,186.27,,-0.09,0.0,1.04,1.0,0.0,0.0,1.04,1.31,80.0,2101.0,8.3,3.35,,14.02,1.155,95.2,,17.0,5.0,,,,,,,,,,,,0,0,0,0,0,0,0,0,0,0,0,0,0,0,0,0,,,,,0.0,,,,,,
365,650394,1745087772454,,,,,,,,,,,,,,,,,,,,,,,,,,,,,,,,,,0,0,0,0,0,0,0,0,0,0,0,0,0,0,0,0,,,,,,,,,,,
366,650414,1745087772474,0.0,186.27,13.71,-0.09,-0.03,1.02,1.0,0.0,0.0,1.03,1.31,78.0,2055.0,8.4,3.36,15.0,13.96,1.166,95.2,167.0,16.2,5.0,8.0,0.0,8.0,8.0,0.0,240.0,0.0,0.0,2.26,0.0,0.0,0,0,0,0,0,0,0,0,0,0,0,0,0,0,0,0,0.0,0.0,0.0,0.0,0.0,39.24007,-77.965439,13.37,36.0,3.0,0.8
367,650434,1745087772494,,,,,,,,,,,,,,,,,,,,,,,,,,,,,,,,,,0,0,0,0,0,0,0,0,0,0,0,0,0,0,0,0,,,,,,,,,,,
368,650454,1745087772514,0.0,186.15,,-0.08,-0.03,1.0,1.0,0.0,0.0,1.0,1.31,77.0,0.0,8.6,3.48,,14.0,1.189,95.2,,16.2,5.0,,,,,,,,,,,,0,0,0,0,0,0,0,0,0,0,0,0,0,0,0,0,,,,,0.0,,,,,,
369,650474,1745087772534,,,,,,,,,,,,,,,,,,,,,,,,,,,,,,,,,,0,0,0,0,0,0,0,0,0,0,0,0,0,0,0,0,,,,,,,,,,,
370,650494,1745087772554,0.0,186.15,,-0.07,-0.0,0.98,1.0,0.0,0.0,0.99,1.31,75.0,2023.0,8.7,3.46,,14.0,1.241,95.2,,16.2,5.0,,,,,,,,,,,,0,0,0,0,0,0,0,0,0,0,0,0,0,0,0,0,,,,,0.0,,,,,,
371,650514,1745087772574,,,,,,,,,,,,,,,,,,,,,,,8.0,0.0,8.0,9.0,0.0,0.0,0.0,0.0,2.26,,,0,0,0,0,0,0,0,0,0,0,0,0,0,0,0,0,0.0,,,,,39.240067,-77.965446,13.33,36.0,3.0,0.8
372,650534,1745087772594,0.0,186.27,,-0.06,-0.01,0.99,1.0,0.0,0.0,0.99,1.31,76.0,2217.0,8.8,3.24,,14.0,1.241,95.2,,16.7,5.0,,,,,,,,,,,,0,0,0,0,0,0,0,0,0,0,0,0,0,0,0,0,,,,,0.0,,,,,,
373,650554,1745087772613,,,,,,,,,,,,,,,,,,,,,,,,,,,,,,,,,,0,0,0,0,0,0,0,0,0,0,0,0,0,0,0,0,,,,,,,,,,,
374,650574,1745087772633,0.0,186.27,,-0.06,-0.0,1.0,1.0,0.0,0.0,1.01,1.31,77.0,2217.0,8.8,3.24,,14.0,1.251,95.2,,16.7,5.0,,,,,,,,,,,,0,0,0,0,0,0,0,0,0,0,0,0,0,0,0,0,,,,,0.0,,,,,,
375,650594,1745087772653,,,,,,,,,,,,,,,,,,,,,,,,,,,,,,,,,,0,0,0,0,0,0,0,0,0,0,0,0,0,0,0,0,,,,,,,,,,,
376,650614,1745087772673,0.0,186.27,,-0.07,0.02,1.01,1.0,0.0,0.0,1.01,1.31,77.0,2099.0,8.9,3.32,,13.99,1.228,95.2,,16.0,5.0,9.0,0.0,9.0,9.0,0.0,241.0,0.0,0.0,2.26,,,0,0,0,0,0,0,0,0,0,0,0,0,0,0,0,0,2.0,,,,0.0,39.240067,-77.965446,13.31,36.0,3.0,0.8
377,650634,1745087772693,,,,,,,,,,,,,,,,,,,,,,,,,,,,,,,,,,0,0,0,0,0,0,0,0,0,0,0,0,0,0,0,0,,,,,,,,,,,
378,650654,1745087772713,0.0,186.4,,-0.09,-0.0,1.01,1.0,0.0,0.0,1.02,1.31,78.0,2062.0,9.0,3.26,,14.02,1.17,95.2,,16.0,5.0,,,,,,,,,,,,0,0,0,0,0,0,0,0,0,0,0,0,0,0,0,0,,,,,0.0,,,,,,
379,650674,1745087772733,,,,,,,,,,,,,,,,,,,,,,,,,,,,,,,,,,0,0,0,0,0,0,0,0,0,0,0,0,0,0,0,0,,,,,,,,,,,
380,650694,1745087772753,0.0,186.4,,-0.09,-0.0,1.0,1.0,0.0,0.0,1.0,1.31,76.0,1919.0,9.0,3.31,,14.06,1.137,95.2,,16.0,5.0,,,,,,,,,,,,0,0,0,0,0,0,0,0,0,0,0,0,0,0,0,0,,,,,0.0,,,,,,
381,650714,1745087772773,,,,,,,,,,,,,,,,,,,,,,,8.0,0.0,9.0,8.0,0.0,0.0,0.0,0.0,2.26,,,0,0,0,0,0,0,0,0,0,0,0,0,0,0,0,0,2.0,,,,,39.240063,-77.965454,13.6,36.0,3.0,0.8
382,650734,1745087772793,0.0,186.4,,-0.11,-0.01,1.02,1.0,0.0,0.0,1.02,1.31,78.0,1862.0,9.0,3.3,,14.06,1.137,95.2,,15.7,5.0,,,,,,,,,,,,0,0,0,0,0,0,0,0,0,0,0,0,0,0,0,0,,,,,0.0,,,,,,
383,650754,1745087772813,,,,,,,,,,,,,,,,,,,,,,,,,,,,,,,,,,0,0,0,0,0,0,0,0,0,0,0,0,0,0,0,0,,,,,,,,,,,
384,650774,1745087772833,0.0,186.4,,-0.1,-0.01,1.02,1.0,0.0,0.0,1.02,1.31,78.0,1862.0,9.0,3.3,,14.03,1.172,95.2,,15.7,5.0,,,,,,,,,,,,0,0,0,0,0,0,0,0,0,0,0,0,0,0,0,0,,,,,0.0,,,,,,
