,Interval,Utc,FrontBP,SteerAng,Battery,AccelX,AccelY,AccelZ,Yaw,Pitch,Roll,Gsum,GsumMax,GsumPct,RPM,TPS,InjectorPW,Baro,MAP,Lambda,IAT,EngineTemp,EOP,EOT,WSFR,WSFL,WSRR,WSRL,TCSet,TCSlip,TCComp,TCCut,Analog8,OilTemp,AA_On,ThermLF1,ThermLF2,ThermRR1,ThermRR2,ThermLF3,ThermLF4,ThermLF5,ThermLF6,ThermLF7,ThermLF8,ThermRR3,ThermRR4,ThermRR5,ThermRR6,ThermRR7,ThermRR8,Gear,AA_On1,AA_LowDrag,Fuel_Mix,AA_Packages,Latitude,Longitude,Speed,GPSSats,GPSQual,GPSDOP
0,598628,1745084324817,0.0,178.73,,-0.05,-0.06,0.94,0.0,0.0,0.0,0.94,0.94,100.0,4884.0,5.6,3.16,,11.96,0.815,86.2,,67.3,5.0,,,,,,,,,,,,0,0,0,0,0,0,0,0,0,0,0,0,0,0,0,0,,,,,0.0,,,,,,
1,598648,1745084324837,,,,,,,,,,,,,,,,,,,,,,,,,,,,,,,,,,0,0,0,0,0,0,0,0,0,0,0,0,0,0,0,0,,,,,,,,,,,
2,598668,1745084324857,0.0,178.86,,-0.04,-0.06,0.93,0.0,0.0,0.0,0.93,0.94,98.0,4973.0,5.7,3.15,,12.0,0.813,86.2,,64.6,5.0,,,,,,,,,,,,0,0,0,0,0,0,0,0,0,0,0,0,0,0,0,0,,,,,0.0,,,,,,
3,598688,1745084324877,,,,,,,,,,,,,,,,,,,,,,,,,,,,,,,,,,0,0,0,0,0,0,0,0,0,0,0,0,0,0,0,0,,,,,,,,,,,
4,598708,1745084324897,0.0,178.86,13.89,-0.05,-0.07,0.94,0.0,0.0,0.0,0.94,0.94,100.0,5043.0,5.7,3.16,15.0,12.0,0.813,84.4,137.0,64.6,5.0,0.0,0.0,0.0,0.0,0.0,0.0,0.0,0.0,2.26,0.0,0.0,0,0,0,0,0,0,0,0,0,0,0,0,0,0,0,0,0.0,0.0,0.0,0.0,0.0,39.239887,-77.965652,0.05,30.0,3.0,0.9
5,598728,1745084324917,,,,,,,,,,,,,,,,,,,,,,,,,,,,,,,,,,0,0,0,0,0,0,0,0,0,0,0,0,0,0,0,0,,,,,,,,,,,
6,598748,1745084324937,0.0,178.86,,-0.04,-0.05,0.98,1.0,0.0,0.0,0.98,0.98,100.0,5043.0,5.7,3.16,,11.89,0.814,84.4,,66.0,5.0,,,,,,,,,,,,0,0,0,0,0,0,0,0,0,0,0,0,0,0,0,0,,,,,0.0,,,,,,
7,598768,1745084324957,,,,,,,,,,,,,,,,,,,,,,,,,,,,,,,,,,0,0,0,0,0,0,0,0,0,0,0,0,0,0,0,0,,,,,,,,,,,
8,598788,1745084324977,0.0,178.73,,-0.02,-0.05,0.96,1.0,0.0,0.0,0.96,0.98,98.0,4972.0,5.7,3.12,,11.81,0.815,84.4,,66.0,5.0,,,,,,,,,,,,0,0,0,0,0,0,0,0,0,0,0,0,0,0,0,0,,,,,0.0,,,,,,
9,598808,1745084324997,,,,,,,,,,,,,,,,,,,,,,,0.0,0.0,0.0,0.0,0.0,0.0,0.0,0.0,2.26,,,0,0,0,0,0,0,0,0,0,0,0,0,0,0,0,0,0.0,,,,,39.239887,-77.965652,0.47,30.0,3.0,0.9
10,598828,1745084325007,0.0,178.73,,-0.04,-0.05,0.98,1.0,0.0,0.0,0.98,0.98,100.0,4941.0,5.8,3.06,,11.85,0.818,84.4,,66.0,5.0,,,,,,,,,,,,0,0,0,0,0,0,0,0,0,0,0,0,0,0,0,0,,,,,0.0,,,,,,
11,598848,1745084325027,,,,,,,,,,,,,,,,,,,,,,,,,,,,,,,,,,0,0,0,0,0,0,0,0,0,0,0,0,0,0,0,0,,,,,,,,,,,
12,598868,1745084325047,0.0,178.86,,-0.0,-0.04,0.93,0.0,0.0,0.0,0.93,0.98,95.0,4858.0,5.9,3.08,,11.93,0.814,84.4,,64.3,5.0,,,,,,,,,,,,0,0,0,0,0,0,0,0,0,0,0,0,0,0,0,0,,,,,0.0,,,,,,
13,598888,1745084325067,,,,,,,,,,,,,,,,,,,,,,,,,,,,,,,,,,0,0,0,0,0,0,0,0,0,0,0,0,0,0,0,0,,,,,,,,,,,
14,598908,1745084325087,0.0,178.86,,-0.01,0.0,1.01,2.0,0.0,0.0,1.01,1.01,100.0,4720.0,5.7,3.09,,11.93,0.814,84.4,,64.3,5.0,0.0,0.0,0.0,0.0,0.0,0.0,0.0,0.0,2.26,,,0,0,0,0,0,0,0,0,0,0,0,0,0,0,0,0,0.0,,,,0.0,39.239887,-77.965652,0.33,30.0,3.0,0.9
15,598928,1745084325111,,,,,,,,,,,,,,,,,,,,,,,,,,,,,,,,,,0,0,0,0,0,0,0,0,0,0,0,0,0,0,0,0,,,,,,,,,,,
16,598948,1745084325131,0.0,178.86,,-0.05,-0.01,1.05,1.0,0.0,0.0,1.05,1.05,100.0,4720.0,5.7,3.09,,11.95,0.814,84.4,,62.2,5.0,,,,,,,,,,,,0,0,0,0,0,0,0,0,0,0,0,0,0,0,0,0,,,,,0.0,,,,,,
17,598968,1745084325151,,,,,,,,,,,,,,,,,,,,,,,,,,,,,,,,,,0,0,0,0,0,0,0,0,0,0,0,0,0,0,0,0,,,,,,,,,,,
18,598988,1745084325171,0.0,178.73,,-0.08,0.0,1.09,1.0,0.0,1.0,1.09,1.09,100.0,4570.0,5.5,3.1,,11.92,0.814,84.4,,62.2,5.0,,,,,,,,,,,,0,0,0,0,0,0,0,0,0,0,0,0,0,0,0,0,,,,,0.0,,,,,,
19,599008,1745084325191,,,,,,,,,,,,,,,,,,,,,,,0.0,0.0,0.0,0.0,0.0,0.0,0.0,0.0,2.26,,,0,0,0,0,0,0,0,0,0,0,0,0,0,0,0,0,0.0,,,,,39.239887,-77.965652,0.17,30.0,3.0,0.9
20,599028,1745084325215,0.0,178.73,,-0.11,0.05,1.13,0.0,0.0,1.0,1.13,1.13,100.0,4475.0,5.5,3.11,,12.08,0.813,84.4,,62.2,5.0,,,,,,,,,,,,0,0,0,0,0,0,0,0,0,0,0,0,0,0,0,0,,,,,0.0,,,,,,
21,599048,1745084325235,,,,,,,,,,,,,,,,,,,,,,,,,,,,,,,,,,0,0,0,0,0,0,0,0,0,0,0,0,0,0,0,0,,,,,,,,,,,
22,599068,1745084325255,0.0,178.73,,-0.08,0.1,1.16,2.0,0.0,1.0,1.16,1.16,100.0,4352.0,5.5,3.28,,12.11,0.817,84.4,,58.9,5.0,,,,,,,,,,,,0,0,0,0,0,0,0,0,0,0,0,0,0,0,0,0,,,,,0.0,,,,,,
23,599088,1745084325275,,,,,,,,,,,,,,,,,,,,,,,,,,,,,,,,,,0,0,0,0,0,0,0,0,0,0,0,0,0,0,0,0,,,,,,,,,,,
24,599108,1745084325295,0.0,178.86,,-0.05,-0.0,1.04,2.0,0.0,0.0,1.04,1.16,90.0,4305.0,5.5,3.29,,12.11,0.817,84.4,,58.9,5.0,0.0,0.0,0.0,0.0,0.0,0.0,0.0,0.0,2.26,,,0,0,0,0,0,0,0,0,0,0,0,0,0,0,0,0,0.0,,,,0.0,39.239887,-77.965652,0.59,30.0,3.0,0.9
25,599128,1745084325317,,,,,,,,,,,,,,,,,,,,,,,,,,,,,,,,,,0,0,0,0,0,0,0,0,0,0,0,0,0,0,0,0,,,,,,,,,,,
26,599148,1745084325337,0.0,178.73,,-0.07,-0.03,1.01,1.0,0.0,0.0,1.02,1.16,87.0,4305.0,5.5,3.29,,12.17,0.831,84.4,,56.4,5.0,,,,,,,,,,,,0,0,0,0,0,0,0,0,0,0,0,0,0,0,0,0,,,,,0.0,,,,,,
27,599168,1745084325357,,,,,,,,,,,,,,,,,,,,,,,,,,,,,,,,,,0,0,0,0,0,0,0,0,0,0,0,0,0,0,0,0,,,,,,,,,,,
28,599188,1745084325377,0.0,178.73,,-0.05,0.09,1.07,1.0,0.0,1.0,1.07,1.16,92.0,4224.0,5.6,3.29,,12.16,0.844,84.4,,56.4,5.0,,,,,,,,,,,,0,0,0,0,0,0,0,0,0,0,0,0,0,0,0,0,,,,,0.0,,,,,,
29,599208,1745084325397,,,,,,,,,,,,,,,,,,,,,,,0.0,0.0,0.0,0.0,0.0,0.0,0.0,0.0,2.26,,,0,0,0,0,0,0,0,0,0,0,0,0,0,0,0,0,0.0,,,,,39.239887,-77.965652,0.55,30.0,3.0,0.9
30,599228,1745084325417,0.0,178.73,,-0.06,0.02,1.03,1.0,0.0,0.0,1.03,1.16,88.0,4088.0,5.6,3.29,,12.17,0.857,84.4,,56.4,5.0,,,,,,,,,,,,0,0,0,0,0,0,0,0,0,0,0,0,0,0,0,0,,,,,0.0,,,,,,
31,599248,1745084325437,,,,,,,,,,,,,,,,,,,,,,,,,,,,,,,,,,0,0,0,0,0,0,0,0,0,0,0,0,0,0,0,0,,,,,,,,,,,
32,599268,1745084325457,0.0,178.73,,-0.04,0.04,1.02,1.0,0.0,0.0,1.02,1.16,88.0,4036.0,5.5,3.3,,12.33,0.894,84.4,,55.3,5.0,,,,,,,,,,,,0,0,0,0,0,0,0,0,0,0,0,0,0,0,0,0,,,,,0.0,,,,,,
33,599288,1745084325477,,,,,,,,,,,,,,,,,,,,,,,,,,,,,,,,,,0,0,0,0,0,0,0,0,0,0,0,0,0,0,0,0,,,,,,,,,,,
34,599308,1745084325497,0.0,178.73,,-0.05,0.12,1.07,2.0,0.0,1.0,1.08,1.16,93.0,3891.0,5.5,3.5,,12.33,0.894,84.4,,55.3,5.0,0.0,0.0,0.0,0.0,0.0,0.0,0.0,0.0,2.26,,,0,0,0,0,0,0,0,0,0,0,0,0,0,0,0,0,0.0,,,,0.0,39.239887,-77.965652,0.44,30.0,3.0,0.9
35,599328,1745084325517,,,,,,,,,,,,,,,,,,,,,,,,,,,,,,,,,,0,0,0,0,0,0,0,0,0,0,0,0,0,0,0,0,,,,,,,,,,,
36,599348,1745084325537,0.0,178.73,,-0.04,0.1,1.08,2.0,0.0,1.0,1.08,1.16,93.0,3891.0,5.5,3.5,,12.36,0.934,84.4,,54.2,5.0,,,,,,,,,,,,0,0,0,0,0,0,0,0,0,0,0,0,0,0,0,0,,,,,0.0,,,,,,
37,599368,1745084325557,,,,,,,,,,,,,,,,,,,,,,,,,,,,,,,,,,0,0,0,0,0,0,0,0,0,0,0,0,0,0,0,0,,,,,,,,,,,
38,599388,1745084325577,0.0,178.61,,-0.03,0.05,1.07,2.0,0.0,1.0,1.08,1.16,93.0,3762.0,5.5,3.5,,12.48,0.923,84.4,,54.2,5.0,,,,,,,,,,,,0,0,0,0,0,0,0,0,0,0,0,0,0,0,0,0,,,,,0.0,,,,,,
39,599408,1745084325597,,,,,,,,,,,,,,,,,,,,,,,0.0,0.0,0.0,0.0,0.0,0.0,0.0,0.0,2.26,,,0,0,0,0,0,0,0,0,0,0,0,0,0,0,0,0,0.0,,,,,39.239887,-77.965652,0.58,30.0,3.0,0.9
40,599428,1745084325617,0.0,178.61,,-0.03,0.02,1.07,2.0,0.0,1.0,1.07,1.16,92.0,3817.0,5.4,3.51,,12.56,0.96,84.4,,54.2,5.0,,,,,,,,,,,,0,0,0,0,0,0,0,0,0,0,0,0,0,0,0,0,,,,,0.0,,,,,,
41,599448,1745084325637,,,,,,,,,,,,,,,,,,,,,,,,,,,,,,,,,,0,0,0,0,0,0,0,0,0,0,0,0,0,0,0,0,,,,,,,,,,,
42,599468,1745084325657,0.0,178.61,,-0.03,0.03,1.07,2.0,0.0,1.0,1.07,1.16,92.0,3724.0,5.4,3.53,,12.6,1.023,84.4,,53.9,5.0,,,,,,,,,,,,0,0,0,0,0,0,0,0,0,0,0,0,0,0,0,0,,,,,0.0,,,,,,
43,599488,1745084325677,,,,,,,,,,,,,,,,,,,,,,,,,,,,,,,,,,0,0,0,0,0,0,0,0,0,0,0,0,0,0,0,0,,,,,,,,,,,
44,599508,1745084325697,0.0,178.61,,-0.02,0.06,1.04,1.0,0.0,1.0,1.04,1.16,89.0,3611.0,5.5,3.54,,12.6,1.023,84.4,,53.9,5.0,0.0,0.0,0.0,0.0,0.0,0.0,0.0,0.0,2.26,,,0,0,0,0,0,0,0,0,0,0,0,0,0,0,0,0,0.0,,,,0.0,39.239887,-77.965652,0.64,30.0,3.0,0.9
45,599528,1745084325716,,,,,,,,,,,,,,,,,,,,,,,,,,,,,,,,,,0,0,0,0,0,0,0,0,0,0,0,0,0,0,0,0,,,,,,,,,,,
46,599548,1745084325736,0.0,178.61,,-0.01,-0.03,1.02,-1.0,0.0,0.0,1.02,1.16,87.0,3611.0,5.5,3.54,,12.72,0.941,84.4,,50.1,5.0,,,,,,,,,,,,0,0,0,0,0,0,0,0,0,0,0,0,0,0,0,0,,,,,0.0,,,,,,
47,599568,1745084325756,,,,,,,,,,,,,,,,,,,,,,,,,,,,,,,,,,0,0,0,0,0,0,0,0,0,0,0,0,0,0,0,0,,,,,,,,,,,
48,599588,1745084325776,0.0,178.48,,-0.03,-0.02,1.07,3.0,0.0,0.0,1.07,1.16,92.0,3512.0,5.4,3.55,,12.85,0.921,84.4,,50.1,5.0,,,,,,,,,,,,0,0,0,0,0,0,0,0,0,0,0,0,0,0,0,0,,,,,0.0,,,,,,
49,599608,1745084325796,,,,,,,,,,,,,,,,,,,,,,,0.0,0.0,0.0,0.0,0.0,0.0,0.0,0.0,2.26,,,0,0,0,0,0,0,0,0,0,0,0,0,0,0,0,0,0.0,,,,,39.239887,-77.965652,0.75,30.0,3.0,0.9
50,599628,1745084325816,0.0,178.48,,-0.02,-0.06,1.01,-1.0,0.0,0.0,1.01,1.16,87.0,3347.0,5.5,3.49,,13.01,0.961,84.4,,50.1,5.0,,,,,,,,,,,,0,0,0,0,0,0,0,0,0,0,0,0,0,0,0,0,,,,,0.0,,,,,,
51,599648,1745084325836,,,,,,,,,,,,,,,,,,,,,,,,,,,,,,,,,,0,0,0,0,0,0,0,0,0,0,0,0,0,0,0,0,,,,,,,,,,,
52,599668,1745084325856,0.0,178.48,,-0.04,0.05,0.98,2.0,0.0,0.0,0.98,1.16,85.0,3187.0,5.6,3.52,,13.08,0.989,84.4,,45.9,5.0,,,,,,,,,,,,0,0,0,0,0,0,0,0,0,0,0,0,0,0,0,0,,,,,0.0,,,,,,
53,599688,1745084325876,,,,,,,,,,,,,,,,,,,,,,,,,,,,,,,,,,0,0,0,0,0,0,0,0,0,0,0,0,0,0,0,0,,,,,,,,,,,
54,599708,1745084325896,0.0,178.48,13.92,-0.04,0.11,0.96,5.0,-1.0,1.0,0.97,1.16,83.0,2983.0,9.0,3.62,15.0,13.08,0.989,84.4,137.0,45.9,5.0,0.0,0.0,0.0,0.0,0.0,0.0,0.0,0.0,2.26,0.0,0.0,0,0,0,0,0,0,0,0,0,0,0,0,0,0,0,0,0.0,0.0,0.0,0.0,0.0,39.239887,-77.965652,0.81,30.0,3.0,0.9
55,599728,1745084325916,,,,,,,,,,,,,,,,,,,,,,,,,,,,,,,,,,0,0,0,0,0,0,0,0,0,0,0,0,0,0,0,0,,,,,,,,,,,
56,599748,1745084325936,0.0,178.48,,-0.04,0.16,0.92,8.0,-1.0,1.0,0.94,1.16,81.0,2983.0,9.0,3.62,,13.36,0.993,84.4,,39.6,5.0,,,,,,,,,,,,0,0,0,0,0,0,0,0,0,0,0,0,0,0,0,0,,,,,0.0,,,,,,
57,599768,1745084325956,,,,,,,,,,,,,,,,,,,,,,,,,,,,,,,,,,0,0,0,0,0,0,0,0,0,0,0,0,0,0,0,0,,,,,,,,,,,
58,599788,1745084325976,0.0,178.48,,-0.05,0.15,0.91,7.0,-1.0,0.0,0.92,1.16,79.0,2865.0,11.9,3.71,,13.63,0.986,84.4,,39.6,5.0,,,,,,,,,,,,0,0,0,0,0,0,0,0,0,0,0,0,0,0,0,0,,,,,0.0,,,,,,
59,599808,1745084325996,,,,,,,,,,,,,,,,,,,,,,,0.0,0.0,1.0,0.0,0.0,0.0,0.0,0.0,2.26,,,0,0,0,0,0,0,0,0,0,0,0,0,0,0,0,0,0.0,,,,,39.239887,-77.965652,0.99,30.0,3.0,0.9
60,599828,1745084326008,0.0,178.48,,-0.05,0.13,0.92,6.0,-1.0,0.0,0.93,1.16,80.0,2728.0,12.7,3.73,,13.79,0.974,84.4,,39.6,5.0,,,,,,,,,,,,0,0,0,0,0,0,0,0,0,0,0,0,0,0,0,0,,,,,0.0,,,,,,
61,599848,1745084326028,,,,,,,,,,,,,,,,,,,,,,,,,,,,,,,,,,0,0,0,0,0,0,0,0,0,0,0,0,0,0,0,0,,,,,,,,,,,
62,599868,1745084326048,0.0,178.36,,-0.05,0.12,0.92,5.0,0.0,0.0,0.92,1.16,79.0,2635.0,12.8,3.73,,13.84,1.011,84.4,,34.0,5.0,,,,,,,,,,,,0,0,0,0,0,0,0,0,0,0,0,0,0,0,0,0,,,,,0.0,,,,,,
63,599888,1745084326068,,,,,,,,,,,,,,,,,,,,,,,,,,,,,,,,,,0,0,0,0,0,0,0,0,0,0,0,0,0,0,0,0,,,,,,,,,,,
64,599908,1745084326088,0.0,178.48,,-0.04,0.09,0.93,5.0,0.0,0.0,0.94,1.16,80.0,2561.0,12.8,3.63,,13.84,1.011,84.4,,34.0,5.0,1.0,0.0,1.0,0.0,0.0,0.0,0.0,0.0,2.26,,,0,0,0,0,0,0,0,0,0,0,0,0,0,0,0,0,0.0,,,,0.0,39.239887,-77.96566,1.03,30.0,3.0,0.9
65,599928,1745084326118,,,,,,,,,,,,,,,,,,,,,,,,,,,,,,,,,,0,0,0,0,0,0,0,0,0,0,0,0,0,0,0,0,,,,,,,,,,,
66,599948,1745084326138,0.0,178.48,,-0.02,0.05,0.96,5.0,0.0,0.0,0.96,1.16,82.0,2561.0,12.8,3.63,,13.9,1.101,84.4,,31.5,5.0,,,,,,,,,,,,0,0,0,0,0,0,0,0,0,0,0,0,0,0,0,0,,,,,0.0,,,,,,
67,599968,1745084326158,,,,,,,,,,,,,,,,,,,,,,,,,,,,,,,,,,0,0,0,0,0,0,0,0,0,0,0,0,0,0,0,0,,,,,,,,,,,
68,599988,1745084326178,0.0,178.48,,-0.02,0.02,0.97,4.0,0.0,0.0,0.97,1.16,84.0,2482.0,12.9,3.63,,13.94,1.172,84.4,,31.5,5.0,,,,,,,,,,,,0,0,0,0,0,0,0,0,0,0,0,0,0,0,0,0,,,,,0.0,,,,,,
69,600008,1745084326198,,,,,,,,,,,,,,,,,,,,,,,1.0,0.0,1.0,1.0,0.0,0.0,0.0,0.0,2.26,,,0,0,0,0,0,0,0,0,0,0,0,0,0,0,0,0,0.0,,,,,39.239887,-77.96566,1.13,30.0,3.0,0.9
70,600028,1745084326216,0.0,178.36,,-0.04,0.02,0.97,4.0,0.0,0.0,0.97,1.16,84.0,2331.0,18.2,4.1,,14.04,1.218,84.4,,31.5,5.0,,,,,,,,,,,,0,0,0,0,0,0,0,0,0,0,0,0,0,0,0,0,,,,,0.0,,,,,,
71,600048,1745084326236,,,,,,,,,,,,,,,,,,,,,,,,,,,,,,,,,,0,0,0,0,0,0,0,0,0,0,0,0,0,0,0,0,,,,,,,,,,,
72,600068,1745084326256,0.0,178.36,,-0.03,0.02,0.97,4.0,0.0,0.0,0.97,1.16,83.0,2349.0,20.8,4.63,,14.07,1.226,84.4,,28.5,5.0,,,,,,,,,,,,0,0,0,0,0,0,0,0,0,0,0,0,0,0,0,0,,,,,0.0,,,,,,
73,600088,1745084326276,,,,,,,,,,,,,,,,,,,,,,,,,,,,,,,,,,0,0,0,0,0,0,0,0,0,0,0,0,0,0,0,0,,,,,,,,,,,
74,600108,1745084326296,0.0,178.36,,-0.06,0.04,0.95,4.0,0.0,0.0,0.95,1.16,82.0,2515.0,21.4,4.62,,14.07,1.226,84.4,,28.5,5.0,1.0,0.0,1.0,1.0,0.0,0.0,0.0,0.0,2.26,,,0,0,0,0,0,0,0,0,0,0,0,0,0,0,0,0,0.0,,,,0.0,39.239887,-77.96566,1.3,30.0,3.0,0.9
75,600128,1745084326318,,,,,,,,,,,,,,,,,,,,,,,,,,,,,,,,,,0,0,0,0,0,0,0,0,0,0,0,0,0,0,0,0,,,,,,,,,,,
76,600148,1745084326338,0.0,178.61,,-0.05,0.02,0.99,4.0,0.0,0.0,0.99,1.16,85.0,2515.0,21.4,4.62,,14.04,1.235,84.4,,32.2,5.0,,,,,,,,,,,,0,0,0,0,0,0,0,0,0,0,0,0,0,0,0,0,,,,,0.0,,,,,,
77,600168,1745084326358,,,,,,,,,,,,,,,,,,,,,,,,,,,,,,,,,,0,0,0,0,0,0,0,0,0,0,0,0,0,0,0,0,,,,,,,,,,,
78,600188,1745084326378,0.0,178.48,,-0.07,0.06,0.95,5.0,-1.0,0.0,0.96,1.16,82.0,2692.0,21.7,4.62,,14.03,1.235,84.4,,32.2,5.0,,,,,,,,,,,,0,0,0,0,0,0,0,0,0,0,0,0,0,0,0,0,,,,,0.0,,,,,,
79,600208,1745084326398,,,,,,,,,,,,,,,,,,,,,,,1.0,0.0,1.0,1.0,0.0,0.0,0.0,0.0,2.26,,,0,0,0,0,0,0,0,0,0,0,0,0,0,0,0,0,0.0,,,,,39.239887,-77.96566,1.4,30.0,3.0,0.9
80,600228,1745084326418,0.0,178.48,,-0.09,0.12,0.89,5.0,-1.0,0.0,0.9,1.16,78.0,2851.0,22.1,4.6,,14.02,1.234,84.4,,32.2,5.0,,,,,,,,,,,,0,0,0,0,0,0,0,0,0,0,0,0,0,0,0,0,,,,,0.0,,,,,,
81,600248,1745084326438,,,,,,,,,,,,,,,,,,,,,,,,,,,,,,,,,,0,0,0,0,0,0,0,0,0,0,0,0,0,0,0,0,,,,,,,,,,,
82,600268,1745084326458,0.0,178.48,,-0.11,0.22,0.84,5.0,-1.0,0.0,0.87,1.16,75.0,3015.0,22.3,4.57,,13.95,1.204,84.4,,39.3,5.0,,,,,,,,,,,,0,0,0,0,0,0,0,0,0,0,0,0,0,0,0,0,,,,,0.0,,,,,,
83,600288,1745084326478,,,,,,,,,,,,,,,,,,,,,,,,,,,,,,,,,,0,0,0,0,0,0,0,0,0,0,0,0,0,0,0,0,,,,,,,,,,,
84,600308,1745084326498,0.0,178.48,,-0.13,0.24,0.89,8.0,-1.0,1.0,0.93,1.16,80.0,3340.0,22.3,4.55,,13.95,1.204,84.4,,39.3,5.0,1.0,0.0,1.0,1.0,0.0,0.0,0.0,0.0,2.26,,,0,0,0,0,0,0,0,0,0,0,0,0,0,0,0,0,0.0,,,,0.0,39.239887,-77.96566,1.12,30.0,3.0,0.9
85,600328,1745084326518,,,,,,,,,,,,,,,,,,,,,,,,,,,,,,,,,,0,0,0,0,0,0,0,0,0,0,0,0,0,0,0,0,,,,,,,,,,,
86,600348,1745084326538,0.0,178.48,,-0.12,0.25,0.86,5.0,-1.0,0.0,0.9,1.16,77.0,3340.0,22.3,4.55,,13.86,1.187,84.4,,45.7,5.0,,,,,,,,,,,,0,0,0,0,0,0,0,0,0,0,0,0,0,0,0,0,,,,,0.0,,,,,,
87,600368,1745084326558,,,,,,,,,,,,,,,,,,,,,,,,,,,,,,,,,,0,0,0,0,0,0,0,0,0,0,0,0,0,0,0,0,,,,,,,,,,,
88,600388,1745084326578,0.0,178.48,,-0.13,0.23,0.89,5.0,-1.0,0.0,0.93,1.16,80.0,3678.0,21.0,4.5,,13.82,1.178,84.4,,45.7,5.0,,,,,,,,,,,,0,0,0,0,0,0,0,0,0,0,0,0,0,0,0,0,,,,,0.0,,,,,,
89,600408,1745084326598,,,,,,,,,,,,,,,,,,,,,,,1.0,0.0,1.0,1.0,0.0,0.0,0.0,0.0,2.26,,,0,0,0,0,0,0,0,0,0,0,0,0,0,0,0,0,0.0,,,,,39.239887,-77.96566,0.84,30.0,3.0,0.9
90,600428,1745084326618,0.0,178.48,,-0.14,0.1,0.86,4.0,-1.0,0.0,0.88,1.16,75.0,3963.0,17.9,4.31,,13.59,1.221,84.4,,45.7,5.0,,,,,,,,,,,,0,0,0,0,0,0,0,0,0,0,0,0,0,0,0,0,,,,,0.0,,,,,,
91,600448,1745084326638,,,,,,,,,,,,,,,,,,,,,,,,,,,,,,,,,,0,0,0,0,0,0,0,0,0,0,0,0,0,0,0,0,,,,,,,,,,,
92,600468,1745084326658,0.0,178.48,,-0.15,0.18,0.96,5.0,-1.0,1.0,0.99,1.16,85.0,4280.0,16.1,4.15,,13.41,1.126,84.4,,58.4,5.0,,,,,,,,,,,,0,0,0,0,0,0,0,0,0,0,0,0,0,0,0,0,,,,,0.0,,,,,,
93,600488,1745084326678,,,,,,,,,,,,,,,,,,,,,,,,,,,,,,,,,,0,0,0,0,0,0,0,0,0,0,0,0,0,0,0,0,,,,,,,,,,,
94,600508,1745084326698,0.0,178.61,,-0.12,0.18,0.94,5.0,-1.0,0.0,0.97,1.16,83.0,4302.0,15.8,3.47,,13.41,1.126,84.4,,58.4,5.0,1.0,0.0,1.0,1.0,0.0,0.0,0.0,0.0,2.26,,,0,0,0,0,0,0,0,0,0,0,0,0,0,0,0,0,0.0,,,,0.0,39.239883,-77.96566,0.79,30.0,3.0,0.9
95,600528,1745084326717,,,,,,,,,,,,,,,,,,,,,,,,,,,,,,,,,,0,0,0,0,0,0,0,0,0,0,0,0,0,0,0,0,,,,,,,,,,,
96,600548,1745084326737,0.0,178.48,,-0.08,0.06,0.84,4.0,-1.0,0.0,0.85,1.16,73.0,4302.0,15.8,3.47,,13.21,1.033,84.4,,61.7,5.0,,,,,,,,,,,,0,0,0,0,0,0,0,0,0,0,0,0,0,0,0,0,,,,,0.0,,,,,,
97,600568,1745084326757,,,,,,,,,,,,,,,,,,,,,,,,,,,,,,,,,,0,0,0,0,0,0,0,0,0,0,0,0,0,0,0,0,,,,,,,,,,,
98,600588,1745084326777,0.0,178.61,,-0.09,-0.03,0.81,2.0,0.0,0.0,0.81,1.16,70.0,4347.0,15.7,3.47,,13.23,1.017,84.4,,61.7,5.0,,,,,,,,,,,,0,0,0,0,0,0,0,0,0,0,0,0,0,0,0,0,,,,,0.0,,,,,,
99,600608,1745084326797,,,,,,,,,,,,,,,,,,,,,,,0.0,0.0,1.0,1.0,0.0,0.0,0.0,0.0,2.26,,,0,0,0,0,0,0,0,0,0,0,0,0,0,0,0,0,0.0,,,,,39.239883,-77.96566,0.54,30.0,3.0,0.9
100,600628,1745084326817,0.0,178.61,,-0.12,0.05,0.9,2.0,0.0,0.0,0.91,1.16,78.0,4351.0,15.8,3.46,,13.28,1.069,84.4,,61.7,5.0,,,,,,,,,,,,0,0,0,0,0,0,0,0,0,0,0,0,0,0,0,0,,,,,0.0,,,,,,
101,600648,1745084326837,,,,,,,,,,,,,,,,,,,,,,,,,,,,,,,,,,0,0,0,0,0,0,0,0,0,0,0,0,0,0,0,0,,,,,,,,,,,
102,600668,1745084326857,0.0,178.61,,-0.12,0.12,1.01,3.0,0.0,0.0,1.02,1.16,88.0,4321.0,15.9,3.45,,13.24,1.163,84.4,,62.7,5.0,,,,,,,,,,,,0,0,0,0,0,0,0,0,0,0,0,0,0,0,0,0,,,,,0.0,,,,,,
103,600688,1745084326877,,,,,,,,,,,,,,,,,,,,,,,,,,,,,,,,,,0,0,0,0,0,0,0,0,0,0,0,0,0,0,0,0,,,,,,,,,,,
104,600708,1745084326897,0.0,178.61,13.87,-0.1,0.11,0.97,3.0,0.0,0.0,0.98,1.16,84.0,4350.0,15.9,3.46,15.0,13.24,1.163,84.4,137.0,62.7,5.0,0.0,0.0,1.0,1.0,0.0,0.0,0.0,0.0,2.26,0.0,0.0,0,0,0,0,0,0,0,0,0,0,0,0,0,0,0,0,0.0,0.0,0.0,0.0,0.0,39.239883,-77.96566,0.34,30.0,3.0,0.9
105,600728,1745084326917,,,,,,,,,,,,,,,,,,,,,,,,,,,,,,,,,,0,0,0,0,0,0,0,0,0,0,0,0,0,0,0,0,,,,,,,,,,,
106,600748,1745084326937,0.0,178.61,,-0.06,0.03,0.94,3.0,0.0,0.0,0.94,1.16,81.0,4350.0,15.9,3.46,,13.23,1.199,84.4,,64.4,5.0,,,,,,,,,,,,0,0,0,0,0,0,0,0,0,0,0,0,0,0,0,0,,,,,0.0,,,,,,
107,600768,1745084326957,,,,,,,,,,,,,,,,,,,,,,,,,,,,,,,,,,0,0,0,0,0,0,0,0,0,0,0,0,0,0,0,0,,,,,,,,,,,
108,600788,1745084326977,0.0,178.61,,-0.08,0.06,0.98,4.0,0.0,0.0,0.99,1.16,85.0,4724.0,15.9,3.5,,13.27,1.106,84.4,,64.4,5.0,,,,,,,,,,,,0,0,0,0,0,0,0,0,0,0,0,0,0,0,0,0,,,,,0.0,,,,,,
109,600808,1745084326997,,,,,,,,,,,,,,,,,,,,,,,0.0,0.0,1.0,1.0,0.0,0.0,0.0,0.0,2.26,,,0,0,0,0,0,0,0,0,0,0,0,0,0,0,0,0,0.0,,,,,39.239883,-77.96566,0.16,30.0,3.0,0.9
110,600828,1745084327011,0.0,178.48,,-0.05,0.04,0.99,3.0,0.0,0.0,0.99,1.16,85.0,5022.0,15.9,3.56,,13.09,0.998,84.4,,64.4,5.0,,,,,,,,,,,,0,0,0,0,0,0,0,0,0,0,0,0,0,0,0,0,,,,,0.0,,,,,,
111,600848,1745084327031,,,,,,,,,,,,,,,,,,,,,,,,,,,,,,,,,,0,0,0,0,0,0,0,0,0,0,0,0,0,0,0,0,,,,,,,,,,,
112,600868,1745084327051,0.0,178.48,,-0.04,0.03,1.0,3.0,0.0,0.0,1.0,1.16,86.0,5253.0,15.7,3.6,,13.01,0.936,84.4,,69.1,5.0,,,,,,,,,,,,0,0,0,0,0,0,0,0,0,0,0,0,0,0,0,0,,,,,0.0,,,,,,
113,600888,1745084327071,,,,,,,,,,,,,,,,,,,,,,,,,,,,,,,,,,0,0,0,0,0,0,0,0,0,0,0,0,0,0,0,0,,,,,,,,,,,
114,600908,1745084327091,0.0,178.48,,-0.06,0.01,0.97,2.0,0.0,0.0,0.98,1.16,84.0,5545.0,15.8,3.61,,13.01,0.936,84.4,,69.1,5.0,0.0,0.0,1.0,1.0,0.0,0.0,0.0,0.0,2.26,,,0,0,0,0,0,0,0,0,0,0,0,0,0,0,0,0,0.0,,,,0.0,39.239883,-77.96566,0.0,30.0,3.0,0.9
115,600928,1745084327117,,,,,,,,,,,,,,,,,,,,,,,,,,,,,,,,,,0,0,0,0,0,0,0,0,0,0,0,0,0,0,0,0,,,,,,,,,,,
116,600948,1745084327137,0.0,178.48,,-0.03,0.02,1.09,3.0,0.0,0.0,1.1,1.16,94.0,5545.0,15.8,3.61,,12.93,0.917,84.4,,70.5,5.0,,,,,,,,,,,,0,0,0,0,0,0,0,0,0,0,0,0,0,0,0,0,,,,,0.0,,,,,,
117,600968,1745084327157,,,,,,,,,,,,,,,,,,,,,,,,,,,,,,,,,,0,0,0,0,0,0,0,0,0,0,0,0,0,0,0,0,,,,,,,,,,,
118,600988,1745084327177,0.0,178.61,,-0.03,-0.01,1.18,3.0,0.0,0.0,1.18,1.18,100.0,5981.0,15.7,3.64,,12.41,0.903,84.4,,70.5,5.0,,,,,,,,,,,,0,0,0,0,0,0,0,0,0,0,0,0,0,0,0,0,,,,,0.0,,,,,,
119,601008,1745084327197,,,,,,,,,,,,,,,,,,,,,,,0.0,0.0,0.0,1.0,0.0,0.0,0.0,0.0,2.26,,,0,0,0,0,0,0,0,0,0,0,0,0,0,0,0,0,0.0,,,,,39.239883,-77.96566,0.09,30.0,3.0,0.9
120,601028,1745084327215,0.0,178.61,,-0.04,0.04,1.13,2.0,0.0,0.0,1.13,1.18,96.0,6582.0,15.8,4.03,,11.92,0.934,84.4,,70.5,5.0,,,,,,,,,,,,0,0,0,0,0,0,0,0,0,0,0,0,0,0,0,0,,,,,0.0,,,,,,
121,601048,1745084327235,,,,,,,,,,,,,,,,,,,,,,,,,,,,,,,,,,0,0,0,0,0,0,0,0,0,0,0,0,0,0,0,0,,,,,,,,,,,
122,601068,1745084327255,0.0,178.48,,-0.01,-0.13,1.1,3.0,0.0,0.0,1.11,1.18,94.0,7015.0,15.3,4.91,,11.18,0.96,84.4,,73.6,5.0,,,,,,,,,,,,0,0,0,0,0,0,0,0,0,0,0,0,0,0,0,0,,,,,0.0,,,,,,
123,601088,1745084327275,,,,,,,,,,,,,,,,,,,,,,,,,,,,,,,,,,0,0,0,0,0,0,0,0,0,0,0,0,0,0,0,0,,,,,,,,,,,
124,601108,1745084327295,0.0,178.48,,-0.02,-0.07,1.09,2.0,0.0,0.0,1.09,1.18,93.0,7830.0,10.7,3.43,,11.18,0.96,84.4,,73.6,5.0,0.0,0.0,0.0,1.0,0.0,0.0,0.0,0.0,2.26,,,0,0,0,0,0,0,0,0,0,0,0,0,0,0,0,0,0.0,,,,0.0,39.239883,-77.96566,0.11,30.0,3.0,0.9
125,601128,1745084327319,,,,,,,,,,,,,,,,,,,,,,,,,,,,,,,,,,0,0,0,0,0,0,0,0,0,0,0,0,0,0,0,0,,,,,,,,,,,
126,601148,1745084327339,0.0,178.61,,-0.01,-0.02,1.08,2.0,0.0,0.0,1.08,1.18,92.0,7830.0,10.7,3.43,,10.46,0.919,84.4,,76.0,5.0,,,,,,,,,,,,0,0,0,0,0,0,0,0,0,0,0,0,0,0,0,0,,,,,0.0,,,,,,
127,601168,1745084327359,,,,,,,,,,,,,,,,,,,,,,,,,,,,,,,,,,0,0,0,0,0,0,0,0,0,0,0,0,0,0,0,0,,,,,,,,,,,
128,601188,1745084327379,0.0,178.61,,-0.03,0.07,1.06,1.0,0.0,0.0,1.06,1.18,90.0,8296.0,5.6,2.76,,9.35,0.806,84.4,,76.0,5.0,,,,,,,,,,,,0,0,0,0,0,0,0,0,0,0,0,0,0,0,0,0,,,,,0.0,,,,,,
129,601208,1745084327399,,,,,,,,,,,,,,,,,,,,,,,0.0,0.0,0.0,1.0,0.0,0.0,0.0,0.0,2.26,,,0,0,0,0,0,0,0,0,0,0,0,0,0,0,0,0,0.0,,,,,39.239883,-77.96566,0.04,30.0,3.0,0.9
130,601228,1745084327419,0.0,178.61,,-0.01,-0.08,1.1,1.0,0.0,0.0,1.1,1.18,94.0,8806.0,5.6,2.4,,8.47,0.735,84.4,,76.0,5.0,,,,,,,,,,,,0,0,0,0,0,0,0,0,0,0,0,0,0,0,0,0,,,,,0.0,,,,,,
131,601248,1745084327439,,,,,,,,,,,,,,,,,,,,,,,,,,,,,,,,,,0,0,0,0,0,0,0,0,0,0,0,0,0,0,0,0,,,,,,,,,,,
132,601268,1745084327459,0.0,178.61,,-0.03,-0.04,1.04,-1.0,0.0,0.0,1.04,1.18,89.0,9221.0,6.1,2.19,,7.77,0.721,84.4,,76.7,5.0,,,,,,,,,,,,0,0,0,0,0,0,0,0,0,0,0,0,0,0,0,0,,,,,0.0,,,,,,
133,601288,1745084327479,,,,,,,,,,,,,,,,,,,,,,,,,,,,,,,,,,0,0,0,0,0,0,0,0,0,0,0,0,0,0,0,0,,,,,,,,,,,
134,601308,1745084327499,0.0,178.61,,-0.04,-0.05,1.0,-1.0,0.0,0.0,1.01,1.18,86.0,9485.0,6.6,2.02,,7.77,0.721,84.4,,76.7,5.0,0.0,0.0,0.0,1.0,0.0,0.0,0.0,0.0,2.26,,,0,0,0,0,0,0,0,0,0,0,0,0,0,0,0,0,0.0,,,,0.0,39.239883,-77.96566,0.04,30.0,3.0,0.9
135,601328,1745084327517,,,,,,,,,,,,,,,,,,,,,,,,,,,,,,,,,,0,0,0,0,0,0,0,0,0,0,0,0,0,0,0,0,,,,,,,,,,,
136,601348,1745084327537,0.0,178.61,,-0.03,0.08,0.97,-1.0,0.0,0.0,0.98,1.18,83.0,9485.0,6.6,2.02,,7.25,0.732,84.4,,73.8,5.0,,,,,,,,,,,,0,0,0,0,0,0,0,0,0,0,0,0,0,0,0,0,,,,,0.0,,,,,,
137,601368,1745084327557,,,,,,,,,,,,,,,,,,,,,,,,,,,,,,,,,,0,0,0,0,0,0,0,0,0,0,0,0,0,0,0,0,,,,,,,,,,,
138,601388,1745084327577,0.0,178.61,,-0.03,0.15,0.96,-1.0,0.0,0.0,0.98,1.18,83.0,9640.0,6.9,1.92,,6.9,0.747,84.4,,73.8,5.0,,,,,,,,,,,,0,0,0,0,0,0,0,0,0,0,0,0,0,0,0,0,,,,,0.0,,,,,,
139,601408,1745084327597,,,,,,,,,,,,,,,,,,,,,,,0.0,0.0,0.0,1.0,0.0,0.0,0.0,0.0,2.26,,,0,0,0,0,0,0,0,0,0,0,0,0,0,0,0,0,0.0,,,,,39.239883,-77.96566,0.04,30.0,3.0,0.9
140,601428,1745084327619,0.0,178.61,,0.0,0.15,0.99,0.0,0.0,0.0,1.01,1.18,86.0,9654.0,7.1,1.82,,6.76,0.762,84.4,,73.8,5.0,,,,,,,,,,,,0,0,0,0,0,0,0,0,0,0,0,0,0,0,0,0,,,,,0.0,,,,,,
141,601448,1745084327639,,,,,,,,,,,,,,,,,,,,,,,,,,,,,,,,,,0,0,0,0,0,0,0,0,0,0,0,0,0,0,0,0,,,,,,,,,,,
142,601468,1745084327659,0.0,178.61,,-0.01,0.03,0.97,-1.0,0.0,0.0,0.97,1.18,83.0,9617.0,4.8,1.66,,6.46,0.782,84.4,,72.5,5.0,,,,,,,,,,,,0,0,0,0,0,0,0,0,0,0,0,0,0,0,0,0,,,,,0.0,,,,,,
143,601488,1745084327679,,,,,,,,,,,,,,,,,,,,,,,,,,,,,,,,,,0,0,0,0,0,0,0,0,0,0,0,0,0,0,0,0,,,,,,,,,,,
144,601508,1745084327699,0.0,178.61,,-0.01,0.05,0.99,-1.0,0.0,0.0,0.99,1.18,85.0,9495.0,3.9,1.51,,6.46,0.782,84.4,,72.5,5.0,0.0,0.0,0.0,1.0,0.0,0.0,0.0,0.0,2.27,,,0,0,0,0,0,0,0,0,0,0,0,0,0,0,0,0,0.0,,,,0.0,39.239883,-77.96566,0.08,30.0,3.0,0.9
145,601528,1745084327716,,,,,,,,,,,,,,,,,,,,,,,,,,,,,,,,,,0,0,0,0,0,0,0,0,0,0,0,0,0,0,0,0,,,,,,,,,,,
146,601548,1745084327736,0.0,178.61,,0.02,0.21,0.98,-1.0,0.0,0.0,1.0,1.18,85.0,9495.0,3.9,1.51,,6.15,0.798,84.4,,72.2,5.0,,,,,,,,,,,,0,0,0,0,0,0,0,0,0,0,0,0,0,0,0,0,,,,,0.0,,,,,,
147,601568,1745084327756,,,,,,,,,,,,,,,,,,,,,,,,,,,,,,,,,,0,0,0,0,0,0,0,0,0,0,0,0,0,0,0,0,,,,,,,,,,,
148,601588,1745084327776,0.0,178.61,,-0.0,-0.08,0.96,0.0,-1.0,0.0,0.97,1.18,82.0,9293.0,3.6,1.4,,6.02,0.816,84.4,,72.2,5.0,,,,,,,,,,,,0,0,0,0,0,0,0,0,0,0,0,0,0,0,0,0,,,,,0.0,,,,,,
149,601608,1745084327796,,,,,,,,,,,,,,,,,,,,,,,0.0,0.0,0.0,0.0,0.0,0.0,0.0,0.0,2.26,,,0,0,0,0,0,0,0,0,0,0,0,0,0,0,0,0,0.0,,,,,39.239883,-77.96566,0.27,30.0,3.0,0.9
150,601628,1745084327818,0.0,178.61,,-0.02,-0.25,1.01,1.0,0.0,0.0,1.04,1.18,89.0,9032.0,3.6,1.4,,5.88,0.848,84.4,,72.2,5.0,,,,,,,,,,,,0,0,0,0,0,0,0,0,0,0,0,0,0,0,0,0,,,,,0.0,,,,,,
151,601648,1745084327838,,,,,,,,,,,,,,,,,,,,,,,,,,,,,,,,,,0,0,0,0,0,0,0,0,0,0,0,0,0,0,0,0,,,,,,,,,,,
152,601668,1745084327858,0.0,178.61,,-0.05,-0.24,0.98,0.0,0.0,0.0,1.01,1.18,86.0,8758.0,3.7,1.4,,5.95,0.89,84.4,,69.4,5.0,,,,,,,,,,,,0,0,0,0,0,0,0,0,0,0,0,0,0,0,0,0,,,,,0.0,,,,,,
153,601688,1745084327878,,,,,,,,,,,,,,,,,,,,,,,,,,,,,,,,,,0,0,0,0,0,0,0,0,0,0,0,0,0,0,0,0,,,,,,,,,,,
154,601708,1745084327898,0.0,178.61,13.81,-0.02,-0.19,1.02,1.0,0.0,0.0,1.04,1.18,88.0,8417.0,4.0,1.42,15.0,5.95,0.89,84.4,137.0,69.4,5.0,0.0,0.0,0.0,0.0,0.0,0.0,0.0,0.0,2.26,0.0,0.0,0,0,0,0,0,0,0,0,0,0,0,0,0,0,0,0,0.0,0.0,0.0,0.0,0.0,39.239883,-77.96566,0.38,30.0,3.0,0.9
155,601728,1745084327918,,,,,,,,,,,,,,,,,,,,,,,,,,,,,,,,,,0,0,0,0,0,0,0,0,0,0,0,0,0,0,0,0,,,,,,,,,,,
156,601748,1745084327938,0.0,178.61,,-0.04,-0.17,1.02,1.0,0.0,0.0,1.04,1.18,88.0,8417.0,4.0,1.42,,6.12,0.919,84.4,,64.7,5.0,,,,,,,,,,,,0,0,0,0,0,0,0,0,0,0,0,0,0,0,0,0,,,,,0.0,,,,,,
157,601768,1745084327958,,,,,,,,,,,,,,,,,,,,,,,,,,,,,,,,,,0,0,0,0,0,0,0,0,0,0,0,0,0,0,0,0,,,,,,,,,,,
158,601788,1745084327978,0.0,178.61,,-0.04,-0.05,1.01,0.0,0.0,0.0,1.02,1.18,87.0,8071.0,4.3,1.67,,6.22,0.94,84.4,,64.7,5.0,,,,,,,,,,,,0,0,0,0,0,0,0,0,0,0,0,0,0,0,0,0,,,,,0.0,,,,,,
159,601808,1745084327998,,,,,,,,,,,,,,,,,,,,,,,0.0,0.0,0.0,0.0,0.0,0.0,0.0,0.0,2.26,,,0,0,0,0,0,0,0,0,0,0,0,0,0,0,0,0,0.0,,,,,39.239883,-77.96566,0.52,30.0,3.0,0.9
160,601828,1745084328010,0.0,178.61,,-0.06,-0.11,1.0,0.0,0.0,0.0,1.01,1.18,85.0,7730.0,4.8,1.84,,6.4,0.982,84.4,,64.7,5.0,,,,,,,,,,,,0,0,0,0,0,0,0,0,0,0,0,0,0,0,0,0,,,,,0.0,,,,,,
161,601848,1745084328030,,,,,,,,,,,,,,,,,,,,,,,,,,,,,,,,,,0,0,0,0,0,0,0,0,0,0,0,0,0,0,0,0,,,,,,,,,,,
162,601868,1745084328050,0.0,178.73,,-0.08,-0.17,1.0,1.0,0.0,0.0,1.02,1.18,87.0,7422.0,5.5,1.97,,6.7,0.997,84.4,,64.1,5.0,,,,,,,,,,,,0,0,0,0,0,0,0,0,0,0,0,0,0,0,0,0,,,,,0.0,,,,,,
163,601888,1745084328070,,,,,,,,,,,,,,,,,,,,,,,,,,,,,,,,,,0,0,0,0,0,0,0,0,0,0,0,0,0,0,0,0,,,,,,,,,,,
164,601908,1745084328090,0.0,178.73,,-0.07,-0.02,1.04,1.0,0.0,1.0,1.04,1.18,88.0,7136.0,5.3,2.04,,6.7,0.997,84.4,,64.1,5.0,0.0,0.0,0.0,0.0,0.0,0.0,0.0,0.0,2.26,,,0,0,0,0,0,0,0,0,0,0,0,0,0,0,0,0,0.0,,,,0.0,39.239883,-77.96566,0.71,30.0,3.0,0.9
165,601928,1745084328114,,,,,,,,,,,,,,,,,,,,,,,,,,,,,,,,,,0,0,0,0,0,0,0,0,0,0,0,0,0,0,0,0,,,,,,,,,,,
166,601948,1745084328134,0.0,178.73,,-0.08,-0.03,1.01,0.0,0.0,1.0,1.01,1.18,86.0,7136.0,5.3,2.04,,7.02,0.992,84.4,,63.3,5.0,,,,,,,,,,,,0,0,0,0,0,0,0,0,0,0,0,0,0,0,0,0,,,,,0.0,,,,,,
167,601968,1745084328154,,,,,,,,,,,,,,,,,,,,,,,,,,,,,,,,,,0,0,0,0,0,0,0,0,0,0,0,0,0,0,0,0,,,,,,,,,,,
168,601988,1745084328174,0.0,178.61,,-0.05,-0.07,1.0,1.0,0.0,0.0,1.0,1.18,85.0,6843.0,5.3,2.26,,7.46,0.978,84.4,,63.3,5.0,,,,,,,,,,,,0,0,0,0,0,0,0,0,0,0,0,0,0,0,0,0,,,,,0.0,,,,,,
169,602008,1745084328194,,,,,,,,,,,,,,,,,,,,,,,0.0,0.0,0.0,0.0,0.0,0.0,0.0,0.0,2.27,,,0,0,0,0,0,0,0,0,0,0,0,0,0,0,0,0,0.0,,,,,39.239883,-77.96566,0.77,30.0,3.0,0.9
170,602028,1745084328218,0.0,178.61,,-0.02,-0.01,1.01,2.0,0.0,0.0,1.01,1.18,86.0,6574.0,5.4,2.34,,7.94,0.963,84.4,,63.3,5.0,,,,,,,,,,,,0,0,0,0,0,0,0,0,0,0,0,0,0,0,0,0,,,,,0.0,,,,,,
171,602048,1745084328238,,,,,,,,,,,,,,,,,,,,,,,,,,,,,,,,,,0,0,0,0,0,0,0,0,0,0,0,0,0,0,0,0,,,,,,,,,,,
172,602068,1745084328258,0.0,178.48,,-0.03,-0.06,1.04,1.0,0.0,1.0,1.05,1.18,89.0,6294.0,5.1,2.37,,8.49,0.957,84.4,,65.1,5.0,,,,,,,,,,,,0,0,0,0,0,0,0,0,0,0,0,0,0,0,0,0,,,,,0.0,,,,,,
173,602088,1745084328278,,,,,,,,,,,,,,,,,,,,,,,,,,,,,,,,,,0,0,0,0,0,0,0,0,0,0,0,0,0,0,0,0,,,,,,,,,,,
174,602108,1745084328298,0.0,178.48,,-0.02,-0.08,1.02,0.0,0.0,1.0,1.03,1.18,87.0,5957.0,4.8,2.42,,8.49,0.957,84.4,,65.1,5.0,1.0,0.0,0.0,0.0,0.0,0.0,0.0,0.0,2.27,,,0,0,0,0,0,0,0,0,0,0,0,0,0,0,0,0,0.0,,,,0.0,39.239883,-77.96566,1.09,30.0,3.0,0.9
175,602128,1745084328318,,,,,,,,,,,,,,,,,,,,,,,,,,,,,,,,,,0,0,0,0,0,0,0,0,0,0,0,0,0,0,0,0,,,,,,,,,,,
176,602148,1745084328338,0.0,178.48,,-0.02,-0.02,1.08,0.0,0.0,1.0,1.08,1.18,92.0,5957.0,4.8,2.42,,8.97,0.953,84.4,,61.0,5.0,,,,,,,,,,,,0,0,0,0,0,0,0,0,0,0,0,0,0,0,0,0,,,,,0.0,,,,,,
177,602168,1745084328358,,,,,,,,,,,,,,,,,,,,,,,,,,,,,,,,,,0,0,0,0,0,0,0,0,0,0,0,0,0,0,0,0,,,,,,,,,,,
178,602188,1745084328378,0.0,178.61,,-0.02,0.04,1.09,-1.0,0.0,1.0,1.09,1.18,93.0,5725.0,4.6,2.53,,9.48,0.96,84.4,,61.0,5.0,,,,,,,,,,,,0,0,0,0,0,0,0,0,0,0,0,0,0,0,0,0,,,,,0.0,,,,,,
179,602208,1745084328398,,,,,,,,,,,,,,,,,,,,,,,1.0,0.0,1.0,1.0,0.0,0.0,0.0,0.0,2.26,,,0,0,0,0,0,0,0,0,0,0,0,0,0,0,0,0,0.0,,,,,39.239883,-77.96566,1.17,30.0,3.0,0.9
180,602228,1745084328418,0.0,178.61,,-0.01,0.01,1.08,0.0,0.0,1.0,1.08,1.18,92.0,5396.0,4.5,2.43,,9.9,0.966,84.4,,61.0,5.0,,,,,,,,,,,,0,0,0,0,0,0,0,0,0,0,0,0,0,0,0,0,,,,,0.0,,,,,,
181,602248,1745084328438,,,,,,,,,,,,,,,,,,,,,,,,,,,,,,,,,,0,0,0,0,0,0,0,0,0,0,0,0,0,0,0,0,,,,,,,,,,,
182,602268,1745084328458,0.0,178.73,,-0.02,-0.0,1.07,0.0,0.0,1.0,1.07,1.18,91.0,5136.0,4.4,2.53,,10.4,0.952,84.4,,62.5,5.0,,,,,,,,,,,,0,0,0,0,0,0,0,0,0,0,0,0,0,0,0,0,,,,,0.0,,,,,,
183,602288,1745084328478,,,,,,,,,,,,,,,,,,,,,,,,,,,,,,,,,,0,0,0,0,0,0,0,0,0,0,0,0,0,0,0,0,,,,,,,,,,,
184,602308,1745084328498,0.0,178.73,,0.01,-0.01,1.07,1.0,0.0,1.0,1.07,1.18,91.0,4863.0,4.3,2.58,,10.4,0.952,84.4,,62.5,5.0,1.0,0.0,1.0,1.0,0.0,0.0,0.0,0.0,2.26,,,0,0,0,0,0,0,0,0,0,0,0,0,0,0,0,0,0.0,,,,0.0,39.239883,-77.96566,1.38,30.0,3.0,0.9
185,602328,1745084328518,,,,,,,,,,,,,,,,,,,,,,,,,,,,,,,,,,0,0,0,0,0,0,0,0,0,0,0,0,0,0,0,0,,,,,,,,,,,
186,602348,1745084328538,0.0,178.73,,-0.02,0.09,1.14,1.0,0.0,1.0,1.15,1.18,97.0,4863.0,4.3,2.58,,10.73,0.957,84.4,,60.0,5.0,,,,,,,,,,,,0,0,0,0,0,0,0,0,0,0,0,0,0,0,0,0,,,,,0.0,,,,,,
187,602368,1745084328558,,,,,,,,,,,,,,,,,,,,,,,,,,,,,,,,,,0,0,0,0,0,0,0,0,0,0,0,0,0,0,0,0,,,,,,,,,,,
188,602388,1745084328578,0.0,178.86,,-0.05,0.16,1.23,2.0,0.0,1.0,1.24,1.24,100.0,4576.0,4.2,3.2,,11.06,0.968,84.4,,60.0,5.0,,,,,,,,,,,,0,0,0,0,0,0,0,0,0,0,0,0,0,0,0,0,,,,,0.0,,,,,,
189,602408,1745084328598,,,,,,,,,,,,,,,,,,,,,,,1.0,0.0,1.0,1.0,0.0,0.0,0.0,0.0,2.26,,,0,0,0,0,0,0,0,0,0,0,0,0,0,0,0,0,0.0,,,,,39.239883,-77.96566,1.54,30.0,3.0,0.9
190,602428,1745084328618,0.0,178.86,,-0.03,0.21,1.23,3.0,0.0,1.0,1.25,1.25,100.0,4352.0,4.1,3.47,,11.29,0.985,84.4,,60.0,5.0,,,,,,,,,,,,0,0,0,0,0,0,0,0,0,0,0,0,0,0,0,0,,,,,0.0,,,,,,
191,602448,1745084328638,,,,,,,,,,,,,,,,,,,,,,,,,,,,,,,,,,0,0,0,0,0,0,0,0,0,0,0,0,0,0,0,0,,,,,,,,,,,
192,602468,1745084328658,0.0,178.86,,-0.02,0.07,1.13,2.0,0.0,1.0,1.13,1.25,91.0,4229.0,3.9,3.47,,11.49,1.01,84.4,,57.3,5.0,,,,,,,,,,,,0,0,0,0,0,0,0,0,0,0,0,0,0,0,0,0,,,,,0.0,,,,,,
193,602488,1745084328678,,,,,,,,,,,,,,,,,,,,,,,,,,,,,,,,,,0,0,0,0,0,0,0,0,0,0,0,0,0,0,0,0,,,,,,,,,,,
194,602508,1745084328698,0.0,178.86,,-0.02,0.17,1.18,2.0,0.0,1.0,1.19,1.25,95.0,4090.0,4.6,3.48,,11.49,1.01,84.4,,57.3,5.0,1.0,0.0,1.0,1.0,0.0,0.0,0.0,0.0,2.26,,,0,0,0,0,0,0,0,0,0,0,0,0,0,0,0,0,0.0,,,,0.0,39.239883,-77.96566,1.52,30.0,3.0,0.9
195,602528,1745084328717,,,,,,,,,,,,,,,,,,,,,,,,,,,,,,,,,,0,0,0,0,0,0,0,0,0,0,0,0,0,0,0,0,,,,,,,,,,,
196,602548,1745084328737,0.0,178.86,,-0.02,0.15,1.15,2.0,0.0,1.0,1.16,1.25,93.0,4090.0,4.6,3.48,,11.75,1.013,84.4,,56.3,5.0,,,,,,,,,,,,0,0,0,0,0,0,0,0,0,0,0,0,0,0,0,0,,,,,0.0,,,,,,
197,602568,1745084328757,,,,,,,,,,,,,,,,,,,,,,,,,,,,,,,,,,0,0,0,0,0,0,0,0,0,0,0,0,0,0,0,0,,,,,,,,,,,
198,602588,1745084328777,0.0,178.86,,-0.01,0.16,1.13,2.0,0.0,1.0,1.14,1.25,92.0,3805.0,5.2,3.5,,12.13,1.016,84.4,,56.3,5.0,,,,,,,,,,,,0,0,0,0,0,0,0,0,0,0,0,0,0,0,0,0,,,,,0.0,,,,,,
199,602608,1745084328797,,,,,,,,,,,,,,,,,,,,,,,1.0,0.0,1.0,1.0,0.0,0.0,0.0,0.0,2.26,,,0,0,0,0,0,0,0,0,0,0,0,0,0,0,0,0,0.0,,,,,39.239883,-77.96566,1.78,30.0,3.0,0.9
200,602628,1745084328817,0.0,178.73,,-0.0,0.18,1.06,2.0,0.0,1.0,1.07,1.25,86.0,3657.0,6.1,3.57,,12.43,1.004,84.4,,56.3,5.0,,,,,,,,,,,,0,0,0,0,0,0,0,0,0,0,0,0,0,0,0,0,,,,,0.0,,,,,,
201,602648,1745084328837,,,,,,,,,,,,,,,,,,,,,,,,,,,,,,,,,,0,0,0,0,0,0,0,0,0,0,0,0,0,0,0,0,,,,,,,,,,,
202,602668,1745084328857,0.0,178.61,,0.0,0.04,1.08,1.0,0.0,0.0,1.08,1.25,87.0,3454.0,6.3,3.6,,12.76,1.02,84.4,,49.0,5.0,,,,,,,,,,,,0,0,0,0,0,0,0,0,0,0,0,0,0,0,0,0,,,,,0.0,,,,,,
203,602688,1745084328877,,,,,,,,,,,,,,,,,,,,,,,,,,,,,,,,,,0,0,0,0,0,0,0,0,0,0,0,0,0,0,0,0,,,,,,,,,,,
204,602708,1745084328897,0.0,178.61,13.81,-0.01,0.18,1.01,2.0,0.0,0.0,1.02,1.25,82.0,3258.0,6.5,3.38,15.0,12.76,1.02,86.2,137.0,49.0,5.0,1.0,0.0,1.0,1.0,0.0,0.0,0.0,0.0,2.26,0.0,0.0,0,0,0,0,0,0,0,0,0,0,0,0,0,0,0,0,0.0,0.0,0.0,0.0,0.0,39.239883,-77.96566,1.94,30.0,3.0,0.9
205,602728,1745084328917,,,,,,,,,,,,,,,,,,,,,,,,,,,,,,,,,,0,0,0,0,0,0,0,0,0,0,0,0,0,0,0,0,,,,,,,,,,,
206,602748,1745084328937,0.0,178.48,,-0.01,0.16,1.05,4.0,0.0,0.0,1.07,1.25,86.0,3258.0,6.5,3.38,,12.99,1.035,86.2,,42.9,5.0,,,,,,,,,,,,0,0,0,0,0,0,0,0,0,0,0,0,0,0,0,0,,,,,0.0,,,,,,
207,602768,1745084328957,,,,,,,,,,,,,,,,,,,,,,,,,,,,,,,,,,0,0,0,0,0,0,0,0,0,0,0,0,0,0,0,0,,,,,,,,,,,
208,602788,1745084328977,0.0,178.36,,-0.01,0.09,1.09,5.0,0.0,0.0,1.1,1.25,88.0,3177.0,7.6,3.39,,13.16,1.048,86.2,,42.9,5.0,,,,,,,,,,,,0,0,0,0,0,0,0,0,0,0,0,0,0,0,0,0,,,,,0.0,,,,,,
209,602808,1745084328997,,,,,,,,,,,,,,,,,,,,,,,1.0,0.0,1.0,1.0,0.0,0.0,0.0,0.0,2.26,,,0,0,0,0,0,0,0,0,0,0,0,0,0,0,0,0,0.0,,,,,39.239883,-77.96566,1.94,30.0,3.0,0.9
210,602828,1745084329009,0.0,178.36,,-0.03,0.08,1.08,7.0,0.0,0.0,1.09,1.25,87.0,2852.0,8.2,3.47,,13.43,1.056,86.2,,42.9,5.0,,,,,,,,,,,,0,0,0,0,0,0,0,0,0,0,0,0,0,0,0,0,,,,,0.0,,,,,,
211,602848,1745084329029,,,,,,,,,,,,,,,,,,,,,,,,,,,,,,,,,,0,0,0,0,0,0,0,0,0,0,0,0,0,0,0,0,,,,,,,,,,,
212,602868,1745084329049,0.0,178.36,,-0.02,0.06,1.07,6.0,0.0,0.0,1.07,1.25,86.0,2686.0,8.4,3.43,,13.6,1.055,86.2,,37.5,5.0,,,,,,,,,,,,0,0,0,0,0,0,0,0,0,0,0,0,0,0,0,0,,,,,0.0,,,,,,
213,602888,1745084329069,,,,,,,,,,,,,,,,,,,,,,,,,,,,,,,,,,0,0,0,0,0,0,0,0,0,0,0,0,0,0,0,0,,,,,,,,,,,
214,602908,1745084329089,0.0,178.36,,-0.01,0.02,1.09,6.0,0.0,0.0,1.09,1.25,87.0,2707.0,8.6,3.41,,13.6,1.055,86.2,,37.5,5.0,1.0,0.0,1.0,1.0,0.0,0.0,0.0,0.0,2.26,,,0,0,0,0,0,0,0,0,0,0,0,0,0,0,0,0,0.0,,,,0.0,39.239883,-77.96566,2.06,30.0,3.0,0.9
215,602928,1745084329115,,,,,,,,,,,,,,,,,,,,,,,,,,,,,,,,,,0,0,0,0,0,0,0,0,0,0,0,0,0,0,0,0,,,,,,,,,,,
216,602948,1745084329135,0.0,178.23,,-0.02,0.07,1.04,6.0,-1.0,0.0,1.05,1.25,84.0,2707.0,8.6,3.41,,13.72,1.091,86.2,,35.2,5.0,,,,,,,,,,,,0,0,0,0,0,0,0,0,0,0,0,0,0,0,0,0,,,,,0.0,,,,,,
217,602968,1745084329155,,,,,,,,,,,,,,,,,,,,,,,,,,,,,,,,,,0,0,0,0,0,0,0,0,0,0,0,0,0,0,0,0,,,,,,,,,,,
218,602988,1745084329175,0.0,178.23,,-0.03,0.05,1.06,4.0,-1.0,0.0,1.06,1.25,86.0,2690.0,8.5,3.42,,13.68,1.241,86.2,,35.2,5.0,,,,,,,,,,,,0,0,0,0,0,0,0,0,0,0,0,0,0,0,0,0,,,,,0.0,,,,,,
219,603008,1745084329195,,,,,,,,,,,,,,,,,,,,,,,1.0,0.0,1.0,1.0,0.0,0.0,0.0,0.0,2.26,,,0,0,0,0,0,0,0,0,0,0,0,0,0,0,0,0,0.0,,,,,39.239883,-77.96566,2.1,30.0,3.0,0.9
220,603028,1745084329211,0.0,178.23,,-0.04,0.07,1.04,5.0,0.0,0.0,1.05,1.25,84.0,2633.0,8.5,3.26,,13.71,1.249,86.2,,35.2,5.0,,,,,,,,,,,,0,0,0,0,0,0,0,0,0,0,0,0,0,0,0,0,,,,,0.0,,,,,,
221,603048,1745084329231,,,,,,,,,,,,,,,,,,,,,,,,,,,,,,,,,,0,0,0,0,0,0,0,0,0,0,0,0,0,0,0,0,,,,,,,,,,,
222,603068,1745084329251,0.0,178.1,,-0.04,0.05,1.07,3.0,0.0,0.0,1.07,1.25,86.0,2618.0,9.9,3.26,,13.77,1.245,86.2,,32.5,5.0,,,,,,,,,,,,0,0,0,0,0,0,0,0,0,0,0,0,0,0,0,0,,,,,0.0,,,,,,
223,603088,1745084329271,,,,,,,,,,,,,,,,,,,,,,,,,,,,,,,,,,0,0,0,0,0,0,0,0,0,0,0,0,0,0,0,0,,,,,,,,,,,
224,603108,1745084329291,0.0,178.1,,-0.06,0.05,1.04,3.0,0.0,0.0,1.04,1.25,83.0,2612.0,10.1,3.27,,13.77,1.245,86.2,,32.5,5.0,1.0,0.0,1.0,1.0,0.0,0.0,0.0,0.0,2.27,,,0,0,0,0,0,0,0,0,0,0,0,0,0,0,0,0,0.0,,,,0.0,39.239883,-77.96566,2.31,30.0,3.0,0.9
225,603128,1745084329317,,,,,,,,,,,,,,,,,,,,,,,,,,,,,,,,,,0,0,0,0,0,0,0,0,0,0,0,0,0,0,0,0,,,,,,,,,,,
226,603148,1745084329337,0.0,178.1,,-0.07,0.06,1.03,4.0,0.0,0.0,1.03,1.25,83.0,2612.0,10.1,3.27,,13.8,1.208,86.2,,32.0,5.0,,,,,,,,,,,,0,0,0,0,0,0,0,0,0,0,0,0,0,0,0,0,,,,,0.0,,,,,,
227,603168,1745084329357,,,,,,,,,,,,,,,,,,,,,,,,,,,,,,,,,,0,0,0,0,0,0,0,0,0,0,0,0,0,0,0,0,,,,,,,,,,,
228,603188,1745084329377,0.0,178.1,,-0.07,0.05,1.04,2.0,0.0,0.0,1.04,1.25,83.0,2522.0,10.4,3.27,,13.9,1.249,86.2,,32.0,5.0,,,,,,,,,,,,0,0,0,0,0,0,0,0,0,0,0,0,0,0,0,0,,,,,0.0,,,,,,
229,603208,1745084329397,,,,,,,,,,,,,,,,,,,,,,,1.0,0.0,1.0,1.0,0.0,0.0,0.0,0.0,2.26,,,0,0,0,0,0,0,0,0,0,0,0,0,0,0,0,0,0.0,,,,,39.239883,-77.96566,2.02,30.0,3.0,0.9
230,603228,1745084329417,0.0,178.1,,-0.08,0.08,1.01,3.0,0.0,0.0,1.02,1.25,82.0,2610.0,10.6,3.27,,13.83,1.252,86.2,,32.0,5.0,,,,,,,,,,,,0,0,0,0,0,0,0,0,0,0,0,0,0,0,0,0,,,,,0.0,,,,,,
231,603248,1745084329437,,,,,,,,,,,,,,,,,,,,,,,,,,,,,,,,,,0,0,0,0,0,0,0,0,0,0,0,0,0,0,0,0,,,,,,,,,,,
232,603268,1745084329457,0.0,178.1,,-0.08,0.06,1.03,2.0,0.0,0.0,1.03,1.25,83.0,2597.0,10.7,3.27,,13.82,1.252,86.2,,32.6,5.0,,,,,,,,,,,,0,0,0,0,0,0,0,0,0,0,0,0,0,0,0,0,,,,,0.0,,,,,,
233,603288,1745084329477,,,,,,,,,,,,,,,,,,,,,,,,,,,,,,,,,,0,0,0,0,0,0,0,0,0,0,0,0,0,0,0,0,,,,,,,,,,,
234,603308,1745084329497,0.0,178.1,,-0.1,0.08,1.01,2.0,0.0,0.0,1.02,1.25,82.0,2598.0,10.7,3.27,,13.82,1.252,86.2,,32.6,5.0,1.0,0.0,1.0,1.0,0.0,0.0,0.0,0.0,2.26,,,0,0,0,0,0,0,0,0,0,0,0,0,0,0,0,0,0.0,,,,0.0,39.239883,-77.96566,1.96,30.0,3.0,0.9
235,603328,1745084329517,,,,,,,,,,,,,,,,,,,,,,,,,,,,,,,,,,0,0,0,0,0,0,0,0,0,0,0,0,0,0,0,0,,,,,,,,,,,
236,603348,1745084329537,0.0,178.1,,-0.09,0.07,1.02,2.0,0.0,0.0,1.02,1.25,82.0,2598.0,10.7,3.27,,13.8,1.25,86.2,,32.4,5.0,,,,,,,,,,,,0,0,0,0,0,0,0,0,0,0,0,0,0,0,0,0,,,,,0.0,,,,,,
237,603368,1745084329557,,,,,,,,,,,,,,,,,,,,,,,,,,,,,,,,,,0,0,0,0,0,0,0,0,0,0,0,0,0,0,0,0,,,,,,,,,,,
238,603388,1745084329577,0.0,177.98,,-0.08,0.04,1.02,1.0,0.0,0.0,1.03,1.25,82.0,2450.0,10.7,3.27,,13.88,1.249,86.2,,32.4,5.0,,,,,,,,,,,,0,0,0,0,0,0,0,0,0,0,0,0,0,0,0,0,,,,,0.0,,,,,,
239,603408,1745084329597,,,,,,,,,,,,,,,,,,,,,,,1.0,0.0,1.0,1.0,0.0,0.0,0.0,0.0,2.26,,,0,0,0,0,0,0,0,0,0,0,0,0,0,0,0,0,0.0,,,,,39.239883,-77.965668,1.71,30.0,3.0,0.9
240,603428,1745084329619,0.0,177.98,,-0.1,0.04,0.99,1.0,0.0,0.0,1.0,1.25,80.0,2454.0,10.6,3.44,,13.9,1.249,86.2,,32.4,5.0,,,,,,,,,,,,0,0,0,0,0,0,0,0,0,0,0,0,0,0,0,0,,,,,0.0,,,,,,
241,603448,1745084329639,,,,,,,,,,,,,,,,,,,,,,,,,,,,,,,,,,0,0,0,0,0,0,0,0,0,0,0,0,0,0,0,0,,,,,,,,,,,
242,603468,1745084329659,0.0,177.98,,-0.09,0.05,0.98,1.0,0.0,0.0,0.99,1.25,79.0,2435.0,11.9,3.43,,13.96,1.249,86.2,,32.2,5.0,,,,,,,,,,,,0,0,0,0,0,0,0,0,0,0,0,0,0,0,0,0,,,,,0.0,,,,,,
243,603488,1745084329679,,,,,,,,,,,,,,,,,,,,,,,,,,,,,,,,,,0,0,0,0,0,0,0,0,0,0,0,0,0,0,0,0,,,,,,,,,,,
244,603508,1745084329699,0.0,178.1,,-0.1,0.05,1.0,1.0,0.0,0.0,1.0,1.25,80.0,2435.0,15.9,3.84,,13.96,1.249,86.2,,32.2,5.0,1.0,0.0,1.0,1.0,0.0,0.0,0.0,0.0,2.27,,,0,0,0,0,0,0,0,0,0,0,0,0,0,0,0,0,0.0,,,,0.0,39.239883,-77.965668,1.59,30.0,3.0,0.9
245,603528,1745084329718,,,,,,,,,,,,,,,,,,,,,,,,,,,,,,,,,,0,0,0,0,0,0,0,0,0,0,0,0,0,0,0,0,,,,,,,,,,,
246,603548,1745084329738,0.0,178.1,,-0.1,0.04,0.99,1.0,0.0,0.0,0.99,1.25,80.0,2435.0,15.9,3.84,,14.07,1.249,86.2,,31.8,5.0,,,,,,,,,,,,0,0,0,0,0,0,0,0,0,0,0,0,0,0,0,0,,,,,0.0,,,,,,
247,603568,1745084329758,,,,,,,,,,,,,,,,,,,,,,,,,,,,,,,,,,0,0,0,0,0,0,0,0,0,0,0,0,0,0,0,0,,,,,,,,,,,
248,603588,1745084329778,0.0,177.98,,-0.11,0.03,0.98,2.0,0.0,0.0,0.99,1.25,79.0,2406.0,17.5,4.42,,14.08,1.251,86.2,,31.8,5.0,,,,,,,,,,,,0,0,0,0,0,0,0,0,0,0,0,0,0,0,0,0,,,,,0.0,,,,,,
249,603608,1745084329798,,,,,,,,,,,,,,,,,,,,,,,1.0,0.0,1.0,1.0,0.0,0.0,0.0,0.0,2.26,,,0,0,0,0,0,0,0,0,0,0,0,0,0,0,0,0,0.0,,,,,39.239883,-77.965668,1.49,30.0,3.0,0.9
250,603628,1745084329816,0.0,178.1,,-0.09,-0.01,1.01,1.0,0.0,0.0,1.02,1.25,82.0,2471.0,17.9,4.48,,14.08,1.252,86.2,,31.8,5.0,,,,,,,,,,,,0,0,0,0,0,0,0,0,0,0,0,0,0,0,0,0,,,,,0.0,,,,,,
251,603648,1745084329836,,,,,,,,,,,,,,,,,,,,,,,,,,,,,,,,,,0,0,0,0,0,0,0,0,0,0,0,0,0,0,0,0,,,,,,,,,,,
252,603668,1745084329856,0.0,178.1,,-0.1,0.0,0.97,2.0,0.0,0.0,0.98,1.25,79.0,2602.0,18.2,4.51,,14.04,1.252,86.2,,33.6,5.0,,,,,,,,,,,,0,0,0,0,0,0,0,0,0,0,0,0,0,0,0,0,,,,,0.0,,,,,,
253,603688,1745084329876,,,,,,,,,,,,,,,,,,,,,,,,,,,,,,,,,,0,0,0,0,0,0,0,0,0,0,0,0,0,0,0,0,,,,,,,,,,,
254,603708,1745084329896,0.0,178.1,13.78,-0.1,-0.02,0.98,0.0,0.0,0.0,0.99,1.25,79.0,2701.0,18.3,4.52,15.0,14.04,1.252,86.2,137.0,33.6,5.0,1.0,0.0,1.0,1.0,0.0,0.0,0.0,0.0,2.26,0.0,0.0,0,0,0,0,0,0,0,0,0,0,0,0,0,0,0,0,0.0,0.0,0.0,0.0,0.0,39.23988,-77.965668,1.15,30.0,3.0,0.9
255,603728,1745084329918,,,,,,,,,,,,,,,,,,,,,,,,,,,,,,,,,,0,0,0,0,0,0,0,0,0,0,0,0,0,0,0,0,,,,,,,,,,,
256,603748,1745084329938,0.0,178.1,,-0.09,-0.08,0.94,-5.0,0.0,0.0,0.94,1.25,76.0,2701.0,18.3,4.52,,14.02,1.252,86.2,,38.8,5.0,,,,,,,,,,,,0,0,0,0,0,0,0,0,0,0,0,0,0,0,0,0,,,,,0.0,,,,,,
257,603768,1745084329958,,,,,,,,,,,,,,,,,,,,,,,,,,,,,,,,,,0,0,0,0,0,0,0,0,0,0,0,0,0,0,0,0,,,,,,,,,,,
258,603788,1745084329978,0.0,177.98,,-0.12,0.05,0.89,-5.0,0.0,0.0,0.9,1.25,73.0,3182.0,18.5,4.53,,13.84,1.252,86.2,,38.8,5.0,,,,,,,,,,,,0,0,0,0,0,0,0,0,0,0,0,0,0,0,0,0,,,,,0.0,,,,,,
259,603808,1745084329998,,,,,,,,,,,,,,,,,,,,,,,1.0,0.0,1.0,1.0,0.0,0.0,0.0,0.0,2.26,,,0,0,0,0,0,0,0,0,0,0,0,0,0,0,0,0,0.0,,,,,39.23988,-77.965668,0.89,30.0,3.0,0.9
260,603828,1745084330008,0.0,178.1,,-0.11,-0.05,0.96,-3.0,0.0,0.0,0.97,1.25,78.0,3311.0,18.6,4.45,,13.82,1.25,86.2,,38.8,5.0,,,,,,,,,,,,0,0,0,0,0,0,0,0,0,0,0,0,0,0,0,0,,,,,0.0,,,,,,
261,603848,1745084330028,,,,,,,,,,,,,,,,,,,,,,,,,,,,,,,,,,0,0,0,0,0,0,0,0,0,0,0,0,0,0,0,0,,,,,,,,,,,
262,603868,1745084330048,0.0,177.98,,-0.12,0.04,0.94,-3.0,0.0,0.0,0.95,1.25,76.0,3510.0,18.6,4.43,,13.73,1.198,86.2,,45.0,5.0,,,,,,,,,,,,0,0,0,0,0,0,0,0,0,0,0,0,0,0,0,0,,,,,0.0,,,,,,
263,603888,1745084330068,,,,,,,,,,,,,,,,,,,,,,,,,,,,,,,,,,0,0,0,0,0,0,0,0,0,0,0,0,0,0,0,0,,,,,,,,,,,
264,603908,1745084330088,0.0,178.1,,-0.11,0.03,0.92,-5.0,0.0,0.0,0.92,1.25,74.0,3535.0,18.5,4.39,,13.73,1.198,86.2,,45.0,5.0,1.0,0.0,1.0,1.0,0.0,0.0,0.0,0.0,2.26,,,0,0,0,0,0,0,0,0,0,0,0,0,0,0,0,0,0.0,,,,0.0,39.23988,-77.965668,0.74,30.0,3.0,0.9
265,603928,1745084330110,,,,,,,,,,,,,,,,,,,,,,,,,,,,,,,,,,0,0,0,0,0,0,0,0,0,0,0,0,0,0,0,0,,,,,,,,,,,
266,603948,1745084330130,0.0,178.1,,-0.11,-0.0,0.94,-4.0,0.0,0.0,0.94,1.25,76.0,3535.0,18.5,4.39,,13.67,1.164,86.2,,49.1,5.0,,,,,,,,,,,,0,0,0,0,0,0,0,0,0,0,0,0,0,0,0,0,,,,,0.0,,,,,,
267,603968,1745084330150,,,,,,,,,,,,,,,,,,,,,,,,,,,,,,,,,,0,0,0,0,0,0,0,0,0,0,0,0,0,0,0,0,,,,,,,,,,,
268,603988,1745084330170,0.0,178.1,,-0.11,0.05,0.96,-3.0,0.0,0.0,0.96,1.25,77.0,3699.0,18.4,4.36,,13.63,1.189,86.2,,49.1,5.0,,,,,,,,,,,,0,0,0,0,0,0,0,0,0,0,0,0,0,0,0,0,,,,,0.0,,,,,,
269,604008,1745084330190,,,,,,,,,,,,,,,,,,,,,,,1.0,0.0,1.0,1.0,0.0,0.0,0.0,0.0,2.27,,,0,0,0,0,0,0,0,0,0,0,0,0,0,0,0,0,0.0,,,,,39.23988,-77.965668,0.58,30.0,3.0,0.9
270,604028,1745084330218,0.0,178.1,,-0.12,0.06,0.99,-2.0,0.0,0.0,1.0,1.25,80.0,4054.0,18.4,4.27,,13.63,1.228,86.2,,49.1,5.0,,,,,,,,,,,,0,0,0,0,0,0,0,0,0,0,0,0,0,0,0,0,,,,,0.0,,,,,,
271,604048,1745084330238,,,,,,,,,,,,,,,,,,,,,,,,,,,,,,,,,,0,0,0,0,0,0,0,0,0,0,0,0,0,0,0,0,,,,,,,,,,,
272,604068,1745084330258,0.0,178.1,,-0.09,0.06,0.98,-2.0,0.0,0.0,0.98,1.25,79.0,4164.0,18.4,4.26,,13.52,1.17,86.2,,56.9,5.0,,,,,,,,,,,,0,0,0,0,0,0,0,0,0,0,0,0,0,0,0,0,,,,,0.0,,,,,,
273,604088,1745084330278,,,,,,,,,,,,,,,,,,,,,,,,,,,,,,,,,,0,0,0,0,0,0,0,0,0,0,0,0,0,0,0,0,,,,,,,,,,,
274,604108,1745084330298,0.0,178.1,,-0.09,-0.02,0.96,-3.0,0.0,0.0,0.97,1.25,78.0,4229.0,18.4,3.83,,13.52,1.17,86.2,,56.9,5.0,1.0,0.0,1.0,1.0,0.0,0.0,0.0,0.0,2.27,,,0,0,0,0,0,0,0,0,0,0,0,0,0,0,0,0,0.0,,,,0.0,39.23988,-77.965668,0.27,30.0,3.0,0.9
275,604128,1745084330318,,,,,,,,,,,,,,,,,,,,,,,,,,,,,,,,,,0,0,0,0,0,0,0,0,0,0,0,0,0,0,0,0,,,,,,,,,,,
276,604148,1745084330338,0.0,178.1,,-0.1,0.12,1.03,-2.0,0.0,0.0,1.04,1.25,84.0,4229.0,18.4,3.83,,13.43,1.115,86.2,,59.2,5.0,,,,,,,,,,,,0,0,0,0,0,0,0,0,0,0,0,0,0,0,0,0,,,,,0.0,,,,,,
277,604168,1745084330358,,,,,,,,,,,,,,,,,,,,,,,,,,,,,,,,,,0,0,0,0,0,0,0,0,0,0,0,0,0,0,0,0,,,,,,,,,,,
278,604188,1745084330378,0.0,178.1,,-0.08,-0.02,0.92,-3.0,0.0,0.0,0.93,1.25,74.0,4149.0,18.5,3.84,,13.49,1.122,86.2,,59.2,5.0,,,,,,,,,,,,0,0,0,0,0,0,0,0,0,0,0,0,0,0,0,0,,,,,0.0,,,,,,
279,604208,1745084330398,,,,,,,,,,,,,,,,,,,,,,,1.0,0.0,1.0,1.0,0.0,0.0,0.0,0.0,2.26,,,0,0,0,0,0,0,0,0,0,0,0,0,0,0,0,0,0.0,,,,,39.23988,-77.965668,0.08,30.0,3.0,0.9
280,604228,1745084330418,0.0,178.1,,-0.11,0.06,1.0,-2.0,0.0,0.0,1.0,1.25,81.0,4212.0,18.5,3.84,,13.43,1.167,86.2,,59.2,5.0,,,,,,,,,,,,0,0,0,0,0,0,0,0,0,0,0,0,0,0,0,0,,,,,0.0,,,,,,
281,604248,1745084330438,,,,,,,,,,,,,,,,,,,,,,,,,,,,,,,,,,0,0,0,0,0,0,0,0,0,0,0,0,0,0,0,0,,,,,,,,,,,
282,604268,1745084330458,0.0,178.1,,-0.08,0.08,1.01,-1.0,0.0,0.0,1.02,1.25,82.0,4250.0,18.5,3.84,,13.45,1.225,86.2,,58.9,5.0,,,,,,,,,,,,0,0,0,0,0,0,0,0,0,0,0,0,0,0,0,0,,,,,0.0,,,,,,
283,604288,1745084330478,,,,,,,,,,,,,,,,,,,,,,,,,,,,,,,,,,0,0,0,0,0,0,0,0,0,0,0,0,0,0,0,0,,,,,,,,,,,
284,604308,1745084330498,0.0,177.98,,-0.06,-0.05,0.94,-2.0,0.0,0.0,0.94,1.25,76.0,4250.0,18.6,3.84,,13.45,1.225,86.2,,58.9,5.0,1.0,0.0,1.0,1.0,0.0,0.0,0.0,0.0,2.26,,,0,0,0,0,0,0,0,0,0,0,0,0,0,0,0,0,0.0,,,,0.0,39.23988,-77.965668,0.16,30.0,3.0,0.9
285,604328,1745084330518,,,,,,,,,,,,,,,,,,,,,,,,,,,,,,,,,,0,0,0,0,0,0,0,0,0,0,0,0,0,0,0,0,,,,,,,,,,,
286,604348,1745084330538,0.0,177.98,,-0.09,0.06,1.02,-2.0,0.0,0.0,1.02,1.25,82.0,4250.0,18.6,3.84,,13.43,1.25,86.2,,59.7,5.0,,,,,,,,,,,,0,0,0,0,0,0,0,0,0,0,0,0,0,0,0,0,,,,,0.0,,,,,,
287,604368,1745084330558,,,,,,,,,,,,,,,,,,,,,,,,,,,,,,,,,,0,0,0,0,0,0,0,0,0,0,0,0,0,0,0,0,,,,,,,,,,,
288,604388,1745084330578,0.0,177.98,,-0.08,0.11,1.05,0.0,0.0,0.0,1.06,1.25,85.0,4397.0,18.6,3.86,,13.36,1.249,86.2,,59.7,5.0,,,,,,,,,,,,0,0,0,0,0,0,0,0,0,0,0,0,0,0,0,0,,,,,0.0,,,,,,
289,604408,1745084330598,,,,,,,,,,,,,,,,,,,,,,,1.0,0.0,0.0,1.0,0.0,0.0,0.0,0.0,2.26,,,0,0,0,0,0,0,0,0,0,0,0,0,0,0,0,0,0.0,,,,,39.23988,-77.965668,0.0,30.0,3.0,0.9
290,604428,1745084330618,0.0,177.98,,-0.03,0.04,1.0,1.0,0.0,0.0,1.0,1.25,80.0,4407.0,18.4,3.87,,13.37,1.22,86.2,,59.7,5.0,,,,,,,,,,,,0,0,0,0,0,0,0,0,0,0,0,0,0,0,0,0,,,,,0.0,,,,,,
291,604448,1745084330638,,,,,,,,,,,,,,,,,,,,,,,,,,,,,,,,,,0,0,0,0,0,0,0,0,0,0,0,0,0,0,0,0,,,,,,,,,,,
292,604468,1745084330658,0.0,177.98,,-0.0,-0.01,0.91,1.0,0.0,0.0,0.91,1.25,73.0,4428.0,18.4,3.87,,13.37,1.108,86.2,,63.1,5.0,,,,,,,,,,,,0,0,0,0,0,0,0,0,0,0,0,0,0,0,0,0,,,,,0.0,,,,,,
293,604488,1745084330678,,,,,,,,,,,,,,,,,,,,,,,,,,,,,,,,,,0,0,0,0,0,0,0,0,0,0,0,0,0,0,0,0,,,,,,,,,,,
294,604508,1745084330698,0.0,177.98,,0.03,-0.04,0.92,2.0,0.0,0.0,0.92,1.25,74.0,4579.0,18.4,3.87,,13.37,1.108,86.2,,63.1,5.0,1.0,0.0,0.0,1.0,0.0,0.0,0.0,0.0,2.27,,,0,0,0,0,0,0,0,0,0,0,0,0,0,0,0,0,0.0,,,,0.0,39.23988,-77.965668,0.07,30.0,3.0,0.9
295,604528,1745084330717,,,,,,,,,,,,,,,,,,,,,,,,,,,,,,,,,,0,0,0,0,0,0,0,0,0,0,0,0,0,0,0,0,,,,,,,,,,,
296,604548,1745084330737,0.0,177.98,,0.02,0.02,0.99,3.0,0.0,0.0,0.99,1.25,79.0,4579.0,18.4,3.87,,13.39,1.075,86.2,,64.5,5.0,,,,,,,,,,,,0,0,0,0,0,0,0,0,0,0,0,0,0,0,0,0,,,,,0.0,,,,,,
297,604568,1745084330757,,,,,,,,,,,,,,,,,,,,,,,,,,,,,,,,,,0,0,0,0,0,0,0,0,0,0,0,0,0,0,0,0,,,,,,,,,,,
298,604588,1745084330777,0.0,177.98,,0.0,0.03,0.98,1.0,0.0,0.0,0.98,1.25,78.0,4723.0,18.3,3.89,,13.4,1.053,86.2,,64.5,5.0,,,,,,,,,,,,0,0,0,0,0,0,0,0,0,0,0,0,0,0,0,0,,,,,0.0,,,,,,
299,604608,1745084330797,,,,,,,,,,,,,,,,,,,,,,,1.0,0.0,0.0,1.0,0.0,0.0,0.0,0.0,2.27,,,0,0,0,0,0,0,0,0,0,0,0,0,0,0,0,0,0.0,,,,,39.23988,-77.965668,0.13,30.0,3.0,0.9
300,604628,1745084330817,0.0,177.98,,-0.02,0.02,0.97,1.0,0.0,0.0,0.97,1.25,78.0,5065.0,18.3,3.9,,13.32,0.991,86.2,,64.5,5.0,,,,,,,,,,,,0,0,0,0,0,0,0,0,0,0,0,0,0,0,0,0,,,,,0.0,,,,,,
301,604648,1745084330837,,,,,,,,,,,,,,,,,,,,,,,,,,,,,,,,,,0,0,0,0,0,0,0,0,0,0,0,0,0,0,0,0,,,,,,,,,,,
302,604668,1745084330857,0.0,177.98,,0.0,0.03,0.99,2.0,0.0,0.0,0.99,1.25,80.0,5410.0,18.5,3.72,,13.29,0.926,86.2,,66.3,5.0,,,,,,,,,,,,0,0,0,0,0,0,0,0,0,0,0,0,0,0,0,0,,,,,0.0,,,,,,
303,604688,1745084330877,,,,,,,,,,,,,,,,,,,,,,,,,,,,,,,,,,0,0,0,0,0,0,0,0,0,0,0,0,0,0,0,0,,,,,,,,,,,
304,604708,1745084330897,0.0,177.85,13.77,-0.03,-0.02,0.88,2.0,0.0,0.0,0.88,1.25,71.0,5801.0,18.5,3.74,15.0,13.29,0.926,84.4,138.0,66.3,5.0,1.0,0.0,0.0,1.0,0.0,0.0,0.0,0.0,2.26,0.0,0.0,0,0,0,0,0,0,0,0,0,0,0,0,0,0,0,0,0.0,0.0,0.0,0.0,0.0,39.23988,-77.965668,0.11,30.0,3.0,0.9
305,604728,1745084330917,,,,,,,,,,,,,,,,,,,,,,,,,,,,,,,,,,0,0,0,0,0,0,0,0,0,0,0,0,0,0,0,0,,,,,,,,,,,
306,604748,1745084330937,0.0,177.98,,-0.05,-0.04,0.81,2.0,0.0,0.0,0.81,1.25,65.0,5801.0,18.5,3.74,,12.99,0.907,84.4,,69.5,5.0,,,,,,,,,,,,0,0,0,0,0,0,0,0,0,0,0,0,0,0,0,0,,,,,0.0,,,,,,
307,604768,1745084330957,,,,,,,,,,,,,,,,,,,,,,,,,,,,,,,,,,0,0,0,0,0,0,0,0,0,0,0,0,0,0,0,0,,,,,,,,,,,
308,604788,1745084330977,0.0,177.85,,-0.04,-0.08,0.84,2.0,0.0,-1.0,0.85,1.25,68.0,6292.0,18.6,3.99,,12.44,0.925,84.4,,69.5,5.0,,,,,,,,,,,,0,0,0,0,0,0,0,0,0,0,0,0,0,0,0,0,,,,,0.0,,,,,,
309,604808,1745084330997,,,,,,,,,,,,,,,,,,,,,,,1.0,0.0,0.0,1.0,0.0,0.0,0.0,0.0,2.26,,,0,0,0,0,0,0,0,0,0,0,0,0,0,0,0,0,0.0,,,,,39.23988,-77.965668,0.05,30.0,3.0,0.9
310,604828,1745084331009,0.0,177.85,,-0.03,-0.14,0.83,2.0,0.0,0.0,0.84,1.25,67.0,6775.0,18.7,4.63,,12.08,0.97,84.4,,69.5,5.0,,,,,,,,,,,,0,0,0,0,0,0,0,0,0,0,0,0,0,0,0,0,,,,,0.0,,,,,,
311,604848,1745084331029,,,,,,,,,,,,,,,,,,,,,,,,,,,,,,,,,,0,0,0,0,0,0,0,0,0,0,0,0,0,0,0,0,,,,,,,,,,,
312,604868,1745084331049,0.0,177.85,,-0.07,0.03,0.85,2.0,0.0,0.0,0.85,1.25,68.0,7477.0,18.8,5.19,,11.56,0.988,84.4,,73.4,5.0,,,,,,,,,,,,0,0,0,0,0,0,0,0,0,0,0,0,0,0,0,0,,,,,0.0,,,,,,
313,604888,1745084331069,,,,,,,,,,,,,,,,,,,,,,,,,,,,,,,,,,0,0,0,0,0,0,0,0,0,0,0,0,0,0,0,0,,,,,,,,,,,
314,604908,1745084331089,0.0,177.98,,-0.06,0.04,0.87,2.0,0.0,0.0,0.88,1.25,70.0,8279.0,18.5,4.89,,11.56,0.988,84.4,,73.4,5.0,1.0,0.0,0.0,1.0,0.0,0.0,0.0,0.0,2.27,,,0,0,0,0,0,0,0,0,0,0,0,0,0,0,0,0,0.0,,,,0.0,39.23988,-77.965668,0.0,30.0,3.0,0.9
315,604928,1745084331117,,,,,,,,,,,,,,,,,,,,,,,,,,,,,,,,,,0,0,0,0,0,0,0,0,0,0,0,0,0,0,0,0,,,,,,,,,,,
316,604948,1745084331137,0.0,177.98,,-0.03,0.13,0.93,2.0,0.0,0.0,0.94,1.25,75.0,8279.0,18.5,4.89,,11.08,0.93,84.4,,78.4,5.0,,,,,,,,,,,,0,0,0,0,0,0,0,0,0,0,0,0,0,0,0,0,,,,,0.0,,,,,,
317,604968,1745084331157,,,,,,,,,,,,,,,,,,,,,,,,,,,,,,,,,,0,0,0,0,0,0,0,0,0,0,0,0,0,0,0,0,,,,,,,,,,,
318,604988,1745084331177,0.0,177.98,,-0.02,0.2,0.98,2.0,0.0,0.0,1.0,1.25,80.0,9293.0,12.7,3.05,,9.97,0.802,84.4,,78.4,5.0,,,,,,,,,,,,0,0,0,0,0,0,0,0,0,0,0,0,0,0,0,0,,,,,0.0,,,,,,
319,605008,1745084331197,,,,,,,,,,,,,,,,,,,,,,,1.0,0.0,0.0,1.0,0.0,0.0,0.0,0.0,2.26,,,0,0,0,0,0,0,0,0,0,0,0,0,0,0,0,0,0.0,,,,,39.23988,-77.965668,0.04,30.0,3.0,0.9
320,605028,1745084331217,0.0,177.98,,-0.01,0.22,0.95,2.0,0.0,0.0,0.98,1.25,79.0,10103.0,9.0,2.39,,8.62,0.748,84.4,,78.4,5.0,,,,,,,,,,,,0,0,0,0,0,0,0,0,0,0,0,0,0,0,0,0,,,,,0.0,,,,,,
321,605048,1745084331237,,,,,,,,,,,,,,,,,,,,,,,,,,,,,,,,,,0,0,0,0,0,0,0,0,0,0,0,0,0,0,0,0,,,,,,,,,,,
322,605068,1745084331257,0.0,177.98,,0.01,0.26,0.93,1.0,0.0,0.0,0.97,1.25,78.0,10615.0,9.1,2.07,,7.86,0.774,84.4,,72.8,5.0,,,,,,,,,,,,0,0,0,0,0,0,0,0,0,0,0,0,0,0,0,0,,,,,0.0,,,,,,
323,605088,1745084331277,,,,,,,,,,,,,,,,,,,,,,,,,,,,,,,,,,0,0,0,0,0,0,0,0,0,0,0,0,0,0,0,0,,,,,,,,,,,
324,605108,1745084331297,0.0,178.1,,-0.0,0.13,0.92,1.0,0.0,0.0,0.93,1.25,74.0,10869.0,9.4,2.0,,7.86,0.774,84.4,,72.8,5.0,1.0,0.0,0.0,1.0,0.0,0.0,0.0,0.0,2.27,,,0,0,0,0,0,0,0,0,0,0,0,0,0,0,0,0,0.0,,,,0.0,39.23988,-77.965668,0.05,30.0,3.0,0.9
325,605128,1745084331317,,,,,,,,,,,,,,,,,,,,,,,,,,,,,,,,,,0,0,0,0,0,0,0,0,0,0,0,0,0,0,0,0,,,,,,,,,,,
326,605248,1745084331439,,,,,,,,,,,,,,,,,,,,,,,,,,,,,,,,,,0,0,0,0,0,0,0,0,0,0,0,0,0,0,0,0,,,,,,,,,,,
327,605428,1745084331619,0.0,178.1,,-0.03,-0.07,0.91,1.0,0.0,0.0,0.92,1.25,74.0,10583.0,11.1,1.85,,6.66,0.965,84.4,,73.0,5.0,,,,,,,,,,,,0,0,0,0,0,0,0,0,0,0,0,0,0,0,0,0,,,,,0.0,,,,,,
328,605448,1745084331639,,,,,,,,,,,,,,,,,,,,,,,,,,,,,,,,,,0,0,0,0,0,0,0,0,0,0,0,0,0,0,0,0,,,,,,,,,,,
329,605468,1745084331659,0.0,178.1,,-0.03,0.0,0.95,1.0,0.0,0.0,0.95,1.25,76.0,10409.0,10.9,1.9,,6.83,0.989,84.4,,72.2,5.0,,,,,,,,,,,,0,0,0,0,0,0,0,0,0,0,0,0,0,0,0,0,,,,,0.0,,,,,,
330,605508,1745084331699,0.0,177.98,,-0.01,-0.29,0.98,2.0,0.0,0.0,1.02,1.25,82.0,10259.0,11.0,1.88,,6.83,0.989,84.4,,72.2,5.0,1.0,0.0,0.0,1.0,0.0,0.0,0.0,0.0,2.27,,,0,0,0,0,0,0,0,0,0,0,0,0,0,0,0,0,0.0,,,,0.0,39.23988,-77.965668,0.19,30.0,3.0,0.9
331,605528,1745084331716,,,,,,,,,,,,,,,,,,,,,,,,,,,,,,,,,,0,0,0,0,0,0,0,0,0,0,0,0,0,0,0,0,,,,,,,,,,,
332,605608,1745084331796,,,,,,,,,,,,,,,,,,,,,,,1.0,0.0,0.0,0.0,0.0,0.0,0.0,0.0,2.27,,,0,0,0,0,0,0,0,0,0,0,0,0,0,0,0,0,0.0,,,,,39.23988,-77.965668,0.37,30.0,3.0,0.9
333,605628,1745084331816,0.0,177.98,,0.01,-0.17,0.9,1.0,0.0,0.0,0.92,1.25,74.0,9918.0,11.0,1.97,,7.11,1.03,84.4,,71.6,5.0,,,,,,,,,,,,0,0,0,0,0,0,0,0,0,0,0,0,0,0,0,0,,,,,0.0,,,,,,
334,605648,1745084331836,,,,,,,,,,,,,,,,,,,,,,,,,,,,,,,,,,0,0,0,0,0,0,0,0,0,0,0,0,0,0,0,0,,,,,,,,,,,
335,605668,1745084331856,0.0,177.85,,0.02,-0.2,0.88,1.0,-1.0,0.0,0.9,1.25,72.0,9723.0,11.1,1.98,,7.1,1.044,84.4,,71.6,5.0,,,,,,,,,,,,0,0,0,0,0,0,0,0,0,0,0,0,0,0,0,0,,,,,0.0,,,,,,
336,605688,1745084331876,,,,,,,,,,,,,,,,,,,,,,,,,,,,,,,,,,0,0,0,0,0,0,0,0,0,0,0,0,0,0,0,0,,,,,,,,,,,
337,605708,1745084331896,0.0,177.85,13.79,0.02,-0.2,0.92,1.0,0.0,0.0,0.94,1.25,75.0,9562.0,11.2,2.07,15.0,7.1,1.044,84.4,138.0,71.6,5.0,0.0,0.0,0.0,0.0,0.0,0.0,0.0,0.0,2.26,0.0,0.0,0,0,0,0,0,0,0,0,0,0,0,0,0,0,0,0,0.0,0.0,0.0,0.0,0.0,39.23988,-77.965668,0.53,30.0,3.0,0.9
338,605728,1745084331916,,,,,,,,,,,,,,,,,,,,,,,,,,,,,,,,,,0,0,0,0,0,0,0,0,0,0,0,0,0,0,0,0,,,,,,,,,,,
339,605748,1745084331936,0.0,177.73,,-0.0,-0.09,0.86,1.0,-1.0,0.0,0.87,1.25,70.0,9562.0,11.2,2.07,,7.19,1.059,84.4,,70.8,5.0,,,,,,,,,,,,0,0,0,0,0,0,0,0,0,0,0,0,0,0,0,0,,,,,0.0,,,,,,
340,605768,1745084331956,,,,,,,,,,,,,,,,,,,,,,,,,,,,,,,,,,0,0,0,0,0,0,0,0,0,0,0,0,0,0,0,0,,,,,,,,,,,
341,605788,1745084331976,0.0,177.6,,0.01,-0.25,0.93,1.0,0.0,0.0,0.96,1.25,77.0,9422.0,11.3,2.07,,7.34,1.075,84.4,,70.8,5.0,,,,,,,,,,,,0,0,0,0,0,0,0,0,0,0,0,0,0,0,0,0,,,,,0.0,,,,,,
342,605808,1745084331996,,,,,,,,,,,,,,,,,,,,,,,0.0,0.0,0.0,0.0,0.0,0.0,0.0,0.0,2.26,,,0,0,0,0,0,0,0,0,0,0,0,0,0,0,0,0,0.0,,,,,39.23988,-77.965668,0.69,30.0,3.0,0.9
343,605828,1745084332010,0.0,177.48,,0.04,0.04,0.91,1.0,0.0,0.0,0.91,1.25,73.0,9307.0,11.2,2.14,,7.27,1.069,84.4,,70.8,5.0,,,,,,,,,,,,0,0,0,0,0,0,0,0,0,0,0,0,0,0,0,0,,,,,0.0,,,,,,
344,605848,1745084332030,,,,,,,,,,,,,,,,,,,,,,,,,,,,,,,,,,0,0,0,0,0,0,0,0,0,0,0,0,0,0,0,0,,,,,,,,,,,
345,605868,1745084332050,0.0,177.48,,0.0,-0.18,0.89,1.0,0.0,0.0,0.9,1.25,73.0,9200.0,11.2,2.2,,7.35,1.067,84.4,,68.1,5.0,,,,,,,,,,,,0,0,0,0,0,0,0,0,0,0,0,0,0,0,0,0,,,,,0.0,,,,,,
346,605888,1745084332070,,,,,,,,,,,,,,,,,,,,,,,,,,,,,,,,,,0,0,0,0,0,0,0,0,0,0,0,0,0,0,0,0,,,,,,,,,,,
347,605908,1745084332090,0.0,177.35,,0.01,-0.41,0.98,2.0,0.0,0.0,1.06,1.25,85.0,9090.0,11.2,2.21,,7.35,1.067,84.4,,68.1,5.0,0.0,0.0,0.0,0.0,0.0,0.0,0.0,0.0,2.26,,,0,0,0,0,0,0,0,0,0,0,0,0,0,0,0,0,0.0,,,,0.0,39.23988,-77.965668,0.78,30.0,3.0,0.9
348,605928,1745084332116,,,,,,,,,,,,,,,,,,,,,,,,,,,,,,,,,,0,0,0,0,0,0,0,0,0,0,0,0,0,0,0,0,,,,,,,,,,,
349,605948,1745084332136,0.0,177.22,,0.01,-0.45,1.06,2.0,0.0,-1.0,1.16,1.25,93.0,9090.0,11.2,2.21,,7.49,1.07,84.4,,71.8,5.0,,,,,,,,,,,,0,0,0,0,0,0,0,0,0,0,0,0,0,0,0,0,,,,,0.0,,,,,,
350,605968,1745084332156,,,,,,,,,,,,,,,,,,,,,,,,,,,,,,,,,,0,0,0,0,0,0,0,0,0,0,0,0,0,0,0,0,,,,,,,,,,,
351,605988,1745084332176,0.0,177.22,,0.01,-0.55,1.13,2.0,0.0,-1.0,1.26,1.26,100.0,8967.0,11.2,2.26,,7.51,1.067,84.4,,71.8,5.0,,,,,,,,,,,,0,0,0,0,0,0,0,0,0,0,0,0,0,0,0,0,,,,,0.0,,,,,,
352,606008,1745084332196,,,,,,,,,,,,,,,,,,,,,,,0.0,0.0,0.0,0.0,0.0,0.0,0.0,0.0,2.26,,,0,0,0,0,0,0,0,0,0,0,0,0,0,0,0,0,0.0,,,,,39.23988,-77.965668,0.92,30.0,3.0,0.9
353,606028,1745084332218,0.0,177.1,,-0.02,-0.65,1.11,2.0,0.0,-1.0,1.29,1.29,100.0,8853.0,11.2,2.29,,7.63,1.064,84.4,,71.8,5.0,,,,,,,,,,,,0,0,0,0,0,0,0,0,0,0,0,0,0,0,0,0,,,,,0.0,,,,,,
354,606048,1745084332238,,,,,,,,,,,,,,,,,,,,,,,,,,,,,,,,,,0,0,0,0,0,0,0,0,0,0,0,0,0,0,0,0,,,,,,,,,,,
355,606068,1745084332258,0.0,177.22,,-0.04,-0.52,1.05,2.0,0.0,0.0,1.17,1.29,91.0,8765.0,11.3,2.34,,7.87,1.05,84.4,,68.0,5.0,,,,,,,,,,,,0,0,0,0,0,0,0,0,0,0,0,0,0,0,0,0,,,,,0.0,,,,,,
356,606088,1745084332278,,,,,,,,,,,,,,,,,,,,,,,,,,,,,,,,,,0,0,0,0,0,0,0,0,0,0,0,0,0,0,0,0,,,,,,,,,,,
357,606108,1745084332298,0.0,177.22,,0.0,-0.4,1.08,2.0,0.0,0.0,1.15,1.29,89.0,8687.0,11.4,2.42,,7.87,1.05,84.4,,68.0,5.0,0.0,0.0,1.0,1.0,0.0,0.0,0.0,0.0,2.27,,,0,0,0,0,0,0,0,0,0,0,0,0,0,0,0,0,0.0,,,,0.0,39.23988,-77.965668,1.02,30.0,3.0,0.9
358,606128,1745084332316,,,,,,,,,,,,,,,,,,,,,,,,,,,,,,,,,,0,0,0,0,0,0,0,0,0,0,0,0,0,0,0,0,,,,,,,,,,,
359,606148,1745084332336,0.0,177.1,,-0.0,-0.37,1.11,1.0,0.0,0.0,1.17,1.29,91.0,8687.0,11.4,2.42,,8.01,1.043,84.4,,70.7,5.0,,,,,,,,,,,,0,0,0,0,0,0,0,0,0,0,0,0,0,0,0,0,,,,,0.0,,,,,,
360,606168,1745084332356,,,,,,,,,,,,,,,,,,,,,,,,,,,,,,,,,,0,0,0,0,0,0,0,0,0,0,0,0,0,0,0,0,,,,,,,,,,,
361,606188,1745084332376,0.0,177.1,,0.0,-0.43,1.11,1.0,0.0,0.0,1.19,1.29,92.0,8589.0,11.5,2.48,,8.01,1.047,84.4,,70.7,5.0,,,,,,,,,,,,0,0,0,0,0,0,0,0,0,0,0,0,0,0,0,0,,,,,0.0,,,,,,
362,606208,1745084332396,,,,,,,,,,,,,,,,,,,,,,,1.0,0.0,1.0,1.0,0.0,0.0,0.0,0.0,2.26,,,0,0,0,0,0,0,0,0,0,0,0,0,0,0,0,0,0.0,,,,,39.23988,-77.965668,1.11,30.0,3.0,0.9
363,606228,1745084332418,0.0,177.1,,0.03,-0.36,1.1,1.0,0.0,0.0,1.16,1.29,90.0,8537.0,11.5,2.55,,8.06,1.041,84.4,,70.7,5.0,,,,,,,,,,,,0,0,0,0,0,0,0,0,0,0,0,0,0,0,0,0,,,,,0.0,,,,,,
364,606248,1745084332438,,,,,,,,,,,,,,,,,,,,,,,,,,,,,,,,,,0,0,0,0,0,0,0,0,0,0,0,0,0,0,0,0,,,,,,,,,,,
365,606268,1745084332458,0.0,176.97,,-0.01,-0.27,1.03,1.0,0.0,0.0,1.07,1.29,83.0,8511.0,11.5,2.62,,8.15,1.039,84.4,,68.9,5.0,,,,,,,,,,,,0,0,0,0,0,0,0,0,0,0,0,0,0,0,0,0,,,,,0.0,,,,,,
366,606288,1745084332478,,,,,,,,,,,,,,,,,,,,,,,,,,,,,,,,,,0,0,0,0,0,0,0,0,0,0,0,0,0,0,0,0,,,,,,,,,,,
367,606308,1745084332498,0.0,177.1,,-0.0,-0.3,1.04,1.0,0.0,0.0,1.08,1.29,84.0,8442.0,11.5,2.63,,8.15,1.039,84.4,,68.9,5.0,1.0,0.0,1.0,1.0,0.0,0.0,0.0,0.0,2.26,,,0,0,0,0,0,0,0,0,0,0,0,0,0,0,0,0,0.0,,,,0.0,39.23988,-77.965668,1.28,30.0,3.0,0.9
368,606328,1745084332516,,,,,,,,,,,,,,,,,,,,,,,,,,,,,,,,,,0,0,0,0,0,0,0,0,0,0,0,0,0,0,0,0,,,,,,,,,,,
369,606348,1745084332536,0.0,176.97,,0.02,-0.25,1.04,1.0,0.0,0.0,1.07,1.29,83.0,8442.0,11.5,2.63,,8.29,1.031,84.4,,70.4,5.0,,,,,,,,,,,,0,0,0,0,0,0,0,0,0,0,0,0,0,0,0,0,,,,,0.0,,,,,,
370,606368,1745084332556,,,,,,,,,,,,,,,,,,,,,,,,,,,,,,,,,,0,0,0,0,0,0,0,0,0,0,0,0,0,0,0,0,,,,,,,,,,,
371,606388,1745084332576,0.0,176.97,,0.0,-0.17,1.03,1.0,0.0,0.0,1.04,1.29,81.0,8436.0,11.5,2.67,,8.31,1.025,84.4,,70.4,5.0,,,,,,,,,,,,0,0,0,0,0,0,0,0,0,0,0,0,0,0,0,0,,,,,0.0,,,,,,
372,606408,1745084332596,,,,,,,,,,,,,,,,,,,,,,,1.0,0.0,1.0,1.0,0.0,0.0,0.0,0.0,2.26,,,0,0,0,0,0,0,0,0,0,0,0,0,0,0,0,0,0.0,,,,,39.23988,-77.965668,1.38,30.0,3.0,0.9
373,606428,1745084332618,0.0,176.85,,-0.0,-0.25,1.01,1.0,0.0,0.0,1.04,1.29,81.0,8458.0,11.5,2.75,,8.33,1.021,84.4,,70.4,5.0,,,,,,,,,,,,0,0,0,0,0,0,0,0,0,0,0,0,0,0,0,0,,,,,0.0,,,,,,
374,606448,1745084332638,,,,,,,,,,,,,,,,,,,,,,,,,,,,,,,,,,0,0,0,0,0,0,0,0,0,0,0,0,0,0,0,0,,,,,,,,,,,
375,606468,1745084332658,0.0,176.85,,0.03,-0.27,1.05,1.0,0.0,0.0,1.09,1.29,85.0,8517.0,11.5,2.75,,8.39,1.009,84.4,,70.1,5.0,,,,,,,,,,,,0,0,0,0,0,0,0,0,0,0,0,0,0,0,0,0,,,,,0.0,,,,,,
376,606488,1745084332678,,,,,,,,,,,,,,,,,,,,,,,,,,,,,,,,,,0,0,0,0,0,0,0,0,0,0,0,0,0,0,0,0,,,,,,,,,,,
377,606508,1745084332698,0.0,176.85,,-0.01,-0.14,0.98,0.0,0.0,0.0,0.99,1.29,77.0,8594.0,11.6,2.7,,8.39,1.009,84.4,,70.1,5.0,1.0,0.0,1.0,1.0,0.0,0.0,0.0,0.0,2.27,,,0,0,0,0,0,0,0,0,0,0,0,0,0,0,0,0,0.0,,,,0.0,39.23988,-77.965668,1.55,30.0,3.0,0.9
378,606528,1745084332717,,,,,,,,,,,,,,,,,,,,,,,,,,,,,,,,,,0,0,0,0,0,0,0,0,0,0,0,0,0,0,0,0,,,,,,,,,,,
379,606548,1745084332737,0.0,176.85,,0.01,-0.19,1.02,0.0,0.0,0.0,1.04,1.29,81.0,8594.0,11.6,2.7,,8.31,1.002,84.4,,71.6,5.0,,,,,,,,,,,,0,0,0,0,0,0,0,0,0,0,0,0,0,0,0,0,,,,,0.0,,,,,,
380,606568,1745084332757,,,,,,,,,,,,,,,,,,,,,,,,,,,,,,,,,,0,0,0,0,0,0,0,0,0,0,0,0,0,0,0,0,,,,,,,,,,,
381,606588,1745084332777,0.0,176.85,,-0.01,-0.11,0.98,-1.0,0.0,0.0,0.98,1.29,76.0,8625.0,11.8,2.68,,8.41,0.997,84.4,,71.6,5.0,,,,,,,,,,,,0,0,0,0,0,0,0,0,0,0,0,0,0,0,0,0,,,,,0.0,,,,,,
382,606608,1745084332797,,,,,,,,,,,,,,,,,,,,,,,1.0,0.0,1.0,1.0,0.0,0.0,0.0,0.0,2.26,,,0,0,0,0,0,0,0,0,0,0,0,0,0,0,0,0,0.0,,,,,39.23988,-77.965668,1.68,30.0,3.0,0.9
383,606628,1745084332817,0.0,176.72,,0.02,-0.14,1.02,0.0,0.0,0.0,1.03,1.29,80.0,8655.0,12.1,2.65,,8.45,0.993,84.4,,71.6,5.0,,,,,,,,,,,,0,0,0,0,0,0,0,0,0,0,0,0,0,0,0,0,,,,,0.0,,,,,,
384,606648,1745084332837,,,,,,,,,,,,,,,,,,,,,,,,,,,,,,,,,,0,0,0,0,0,0,0,0,0,0,0,0,0,0,0,0,,,,,,,,,,,
385,606668,1745084332857,0.0,176.6,,0.02,-0.15,0.97,0.0,0.0,0.0,0.98,1.29,76.0,8741.0,12.6,2.66,,8.5,1.002,84.4,,72.2,5.0,,,,,,,,,,,,0,0,0,0,0,0,0,0,0,0,0,0,0,0,0,0,,,,,0.0,,,,,,
386,606688,1745084332877,,,,,,,,,,,,,,,,,,,,,,,,,,,,,,,,,,0,0,0,0,0,0,0,0,0,0,0,0,0,0,0,0,,,,,,,,,,,
