,Interval,Utc,FrontBP,SteerAng,Battery,AccelX,AccelY,AccelZ,Yaw,Pitch,Roll,Gsum,GsumMax,GsumPct,RPM,TPS,InjectorPW,Baro,MAP,Lambda,IAT,EngineTemp,EOP,EOT,WSFR,WSFL,WSRR,WSRL,TCSet,TCSlip,TCComp,TCCut,Analog8,OilTemp,AA_On,ThermLF1,ThermLF2,ThermRR1,ThermRR2,ThermLF3,ThermLF4,ThermLF5,ThermLF6,ThermLF7,ThermLF8,ThermRR3,ThermRR4,ThermRR5,ThermRR6,ThermRR7,ThermRR8,Gear,AA_On1,AA_LowDrag,Fuel_Mix,AA_Packages,Latitude,Longitude,Speed,GPSSats,GPSQual,GPSDOP
0,1140428,1745084866622,0.0,183.38,,-0.09,-0.2,1.01,0.0,0.0,0.0,1.04,1.04,100.0,9833.0,14.5,1.89,,5.75,0.975,89.8,,62.3,5.0,,,,,,,,,,,,0,0,0,0,0,0,0,0,0,0,0,0,0,0,0,0,,,,,0.0,,,,,,
1,1140448,1745084866642,,,,,,,,,,,,,,,,,,,,,,,,,,,,,,,,,,0,0,0,0,0,0,0,0,0,0,0,0,0,0,0,0,,,,,,,,,,,
2,1140468,1745084866662,0.0,183.38,,-0.08,-0.2,1.05,0.0,0.0,0.0,1.07,1.07,100.0,9859.0,16.3,2.3,,6.08,1.0,89.8,,62.3,5.0,,,,,,,,,,,,0,0,0,0,0,0,0,0,0,0,0,0,0,0,0,0,,,,,0.0,,,,,,
3,1140488,1745084866682,,,,,,,,,,,,,,,,,,,,,,,,,,,,,,,,,,0,0,0,0,0,0,0,0,0,0,0,0,0,0,0,0,,,,,,,,,,,
4,1140508,1745084866702,0.0,183.26,,-0.05,-0.11,1.04,-1.0,0.0,0.0,1.05,1.07,98.0,10004.0,16.9,2.47,,6.52,0.97,89.8,,62.9,5.0,0.0,0.0,0.0,0.0,0.0,0.0,0.0,0.0,2.26,,,0,0,0,0,0,0,0,0,0,0,0,0,0,0,0,0,0.0,,,,0.0,39.238998,-77.965324,0.07,31.0,3.0,0.9
5,1140528,1745084866722,,,,,,,,,,,,,,,,,,,,,,,,,,,,,,,,,,0,0,0,0,0,0,0,0,0,0,0,0,0,0,0,0,,,,,,,,,,,
6,1140548,1745084866742,0.0,183.01,,-0.07,-0.04,1.13,-1.0,0.0,0.0,1.13,1.13,100.0,10139.0,17.9,2.62,,6.52,0.97,89.8,,62.9,5.0,,,,,,,,,,,,0,0,0,0,0,0,0,0,0,0,0,0,0,0,0,0,,,,,0.0,,,,,,
7,1140568,1745084866762,,,,,,,,,,,,,,,,,,,,,,,,,,,,,,,,,,0,0,0,0,0,0,0,0,0,0,0,0,0,0,0,0,,,,,,,,,,,
8,1140588,1745084866782,0.0,182.76,,-0.06,-0.06,1.01,-1.0,0.0,0.0,1.02,1.13,90.0,10139.0,17.9,2.62,,6.63,0.901,89.8,,63.8,5.0,,,,,,,,,,,,0,0,0,0,0,0,0,0,0,0,0,0,0,0,0,0,,,,,0.0,,,,,,
9,1140608,1745084866802,,,,,,,,,,,,,,,,,,,,,,,0.0,0.0,0.0,0.0,0.0,0.0,0.0,0.0,2.26,,,0,0,0,0,0,0,0,0,0,0,0,0,0,0,0,0,0.0,,,,,39.238998,-77.965324,0.1,31.0,3.0,0.9
10,1140628,1745084866822,0.0,182.63,,-0.05,-0.22,0.95,-1.0,0.0,0.0,0.98,1.13,86.0,10271.0,15.3,2.51,,6.68,0.855,89.8,,63.8,5.0,,,,,,,,,,,,0,0,0,0,0,0,0,0,0,0,0,0,0,0,0,0,,,,,0.0,,,,,,
11,1140648,1745084866842,,,,,,,,,,,,,,,,,,,,,,,,,,,,,,,,,,0,0,0,0,0,0,0,0,0,0,0,0,0,0,0,0,,,,,,,,,,,
12,1140668,1745084866862,0.0,182.63,,-0.05,-0.22,1.02,0.0,0.0,0.0,1.05,1.13,93.0,10321.0,15.0,2.3,,6.48,0.831,89.8,,63.8,5.0,,,,,,,,,,,,0,0,0,0,0,0,0,0,0,0,0,0,0,0,0,0,,,,,0.0,,,,,,
13,1140688,1745084866882,,,,,,,,,,,,,,,,,,,,,,,,,,,,,,,,,,0,0,0,0,0,0,0,0,0,0,0,0,0,0,0,0,,,,,,,,,,,
14,1140708,1745084866902,0.0,182.5,13.51,0.01,-0.3,1.01,0.0,0.0,0.0,1.05,1.13,93.0,10199.0,13.3,1.99,15.0,6.39,0.845,89.8,153.0,62.3,5.0,0.0,0.0,0.0,0.0,0.0,0.0,0.0,0.0,2.25,0.0,0.0,0,0,0,0,0,0,0,0,0,0,0,0,0,0,0,0,0.0,0.0,0.0,0.0,0.0,39.238998,-77.965324,0.1,31.0,3.0,0.9
15,1140728,1745084866920,,,,,,,,,,,,,,,,,,,,,,,,,,,,,,,,,,0,0,0,0,0,0,0,0,0,0,0,0,0,0,0,0,,,,,,,,,,,
16,1140748,1745084866940,0.0,182.5,,0.01,-0.27,1.04,-1.0,0.0,0.0,1.07,1.13,95.0,9951.0,19.4,2.82,,6.39,0.845,89.8,,62.3,5.0,,,,,,,,,,,,0,0,0,0,0,0,0,0,0,0,0,0,0,0,0,0,,,,,0.0,,,,,,
17,1140768,1745084866960,,,,,,,,,,,,,,,,,,,,,,,,,,,,,,,,,,0,0,0,0,0,0,0,0,0,0,0,0,0,0,0,0,,,,,,,,,,,
18,1140788,1745084866980,0.0,182.38,,0.03,-0.28,1.07,-2.0,0.0,0.0,1.1,1.13,98.0,9951.0,19.4,2.82,,6.31,0.855,89.8,,62.8,5.0,,,,,,,,,,,,0,0,0,0,0,0,0,0,0,0,0,0,0,0,0,0,,,,,0.0,,,,,,
19,1140808,1745084867000,,,,,,,,,,,,,,,,,,,,,,,0.0,0.0,0.0,0.0,0.0,0.0,0.0,0.0,2.26,,,0,0,0,0,0,0,0,0,0,0,0,0,0,0,0,0,0.0,,,,,39.238998,-77.965324,0.25,31.0,3.0,0.9
20,1140828,1745084867014,0.0,182.25,,0.02,-0.2,1.03,-1.0,0.0,0.0,1.05,1.13,93.0,9685.0,7.7,1.79,,6.16,0.876,89.8,,62.8,5.0,,,,,,,,,,,,0,0,0,0,0,0,0,0,0,0,0,0,0,0,0,0,,,,,0.0,,,,,,
21,1140848,1745084867034,,,,,,,,,,,,,,,,,,,,,,,,,,,,,,,,,,0,0,0,0,0,0,0,0,0,0,0,0,0,0,0,0,,,,,,,,,,,
22,1140868,1745084867054,0.0,182.13,,0.05,-0.45,1.08,0.0,0.0,0.0,1.17,1.17,100.0,9278.0,11.9,1.92,,6.28,0.903,89.8,,62.8,5.0,,,,,,,,,,,,0,0,0,0,0,0,0,0,0,0,0,0,0,0,0,0,,,,,0.0,,,,,,
23,1140888,1745084867074,,,,,,,,,,,,,,,,,,,,,,,,,,,,,,,,,,0,0,0,0,0,0,0,0,0,0,0,0,0,0,0,0,,,,,,,,,,,
24,1140908,1745084867094,0.0,182.0,,0.1,-0.48,1.11,1.0,0.0,0.0,1.21,1.21,100.0,8949.0,16.7,2.05,,6.22,0.957,89.8,,61.8,5.0,0.0,0.0,0.0,0.0,0.0,0.0,0.0,0.0,2.26,,,0,0,0,0,0,0,0,0,0,0,0,0,0,0,0,0,0.0,,,,0.0,39.238998,-77.965324,0.72,31.0,3.0,0.9
25,1140928,1745084867116,,,,,,,,,,,,,,,,,,,,,,,,,,,,,,,,,,0,0,0,0,0,0,0,0,0,0,0,0,0,0,0,0,,,,,,,,,,,
26,1140948,1745084867136,0.0,181.88,,0.08,-0.54,1.07,0.0,0.0,0.0,1.2,1.21,99.0,8637.0,18.6,2.4,,6.22,0.957,89.8,,61.8,5.0,,,,,,,,,,,,0,0,0,0,0,0,0,0,0,0,0,0,0,0,0,0,,,,,0.0,,,,,,
27,1140968,1745084867156,,,,,,,,,,,,,,,,,,,,,,,,,,,,,,,,,,0,0,0,0,0,0,0,0,0,0,0,0,0,0,0,0,,,,,,,,,,,
28,1140988,1745084867176,0.0,181.75,,0.08,-0.4,1.09,0.0,0.0,0.0,1.17,1.21,96.0,8637.0,18.6,2.4,,6.52,1.01,89.8,,61.4,5.0,,,,,,,,,,,,0,0,0,0,0,0,0,0,0,0,0,0,0,0,0,0,,,,,0.0,,,,,,
29,1141008,1745084867201,,,,,,,,,,,,,,,,,,,,,,,0.0,0.0,1.0,1.0,0.0,0.0,0.0,0.0,2.26,,,0,0,0,0,0,0,0,0,0,0,0,0,0,0,0,0,0.0,,,,,39.238998,-77.965317,1.55,31.0,3.0,0.9
30,1141028,1745084867221,0.0,181.62,,0.09,-0.36,1.1,0.0,0.0,0.0,1.16,1.21,96.0,8365.0,14.7,2.19,,6.7,0.981,89.8,,61.4,5.0,,,,,,,,,,,,0,0,0,0,0,0,0,0,0,0,0,0,0,0,0,0,,,,,0.0,,,,,,
31,1141048,1745084867241,,,,,,,,,,,,,,,,,,,,,,,,,,,,,,,,,,0,0,0,0,0,0,0,0,0,0,0,0,0,0,0,0,,,,,,,,,,,
32,1141068,1745084867261,0.0,181.5,,0.07,-0.3,1.06,-1.0,0.0,0.0,1.1,1.21,91.0,8099.0,16.3,2.33,,6.87,0.935,89.8,,61.4,5.0,,,,,,,,,,,,0,0,0,0,0,0,0,0,0,0,0,0,0,0,0,0,,,,,0.0,,,,,,
33,1141088,1745084867281,,,,,,,,,,,,,,,,,,,,,,,,,,,,,,,,,,0,0,0,0,0,0,0,0,0,0,0,0,0,0,0,0,,,,,,,,,,,
34,1141108,1745084867301,0.0,181.25,,0.06,-0.41,1.08,-1.0,0.0,1.0,1.16,1.21,96.0,7846.0,13.5,2.61,,7.04,0.907,89.8,,62.1,5.0,1.0,0.0,1.0,1.0,0.0,0.0,0.0,0.0,2.26,,,0,0,0,0,0,0,0,0,0,0,0,0,0,0,0,0,0.0,,,,0.0,39.239002,-77.965317,2.14,31.0,3.0,0.9
35,1141128,1745084867321,,,,,,,,,,,,,,,,,,,,,,,,,,,,,,,,,,0,0,0,0,0,0,0,0,0,0,0,0,0,0,0,0,,,,,,,,,,,
36,1141148,1745084867341,0.0,181.25,,0.09,-0.36,1.09,1.0,0.0,0.0,1.16,1.21,95.0,7486.0,8.1,2.74,,7.04,0.907,89.8,,62.1,5.0,,,,,,,,,,,,0,0,0,0,0,0,0,0,0,0,0,0,0,0,0,0,,,,,0.0,,,,,,
37,1141168,1745084867361,,,,,,,,,,,,,,,,,,,,,,,,,,,,,,,,,,0,0,0,0,0,0,0,0,0,0,0,0,0,0,0,0,,,,,,,,,,,
38,1141188,1745084867381,0.0,181.12,,0.1,-0.45,1.1,2.0,0.0,0.0,1.2,1.21,99.0,7486.0,8.1,2.74,,7.22,0.906,89.8,,60.0,5.0,,,,,,,,,,,,0,0,0,0,0,0,0,0,0,0,0,0,0,0,0,0,,,,,0.0,,,,,,
39,1141208,1745084867401,,,,,,,,,,,,,,,,,,,,,,,1.0,0.0,1.0,2.0,0.0,0.0,0.0,0.0,2.26,,,0,0,0,0,0,0,0,0,0,0,0,0,0,0,0,0,0.0,,,,,39.239002,-77.965317,2.51,31.0,3.0,0.9
40,1141228,1745084867421,0.0,180.87,,0.09,-0.42,1.07,1.0,0.0,0.0,1.15,1.21,95.0,7198.0,6.5,2.6,,7.39,0.922,89.8,,60.0,5.0,,,,,,,,,,,,0,0,0,0,0,0,0,0,0,0,0,0,0,0,0,0,,,,,0.0,,,,,,
41,1141248,1745084867441,,,,,,,,,,,,,,,,,,,,,,,,,,,,,,,,,,0,0,0,0,0,0,0,0,0,0,0,0,0,0,0,0,,,,,,,,,,,
42,1141268,1745084867461,0.0,180.62,,0.08,-0.43,1.03,1.0,0.0,0.0,1.12,1.21,92.0,6934.0,6.2,2.65,,7.67,0.923,89.8,,60.0,5.0,,,,,,,,,,,,0,0,0,0,0,0,0,0,0,0,0,0,0,0,0,0,,,,,0.0,,,,,,
43,1141288,1745084867481,,,,,,,,,,,,,,,,,,,,,,,,,,,,,,,,,,0,0,0,0,0,0,0,0,0,0,0,0,0,0,0,0,,,,,,,,,,,
44,1141308,1745084867501,0.0,180.37,,0.09,-0.34,1.05,-1.0,0.0,0.0,1.1,1.21,91.0,6667.0,10.2,3.05,,8.1,0.887,89.8,,57.9,5.0,2.0,0.0,2.0,2.0,0.0,0.0,0.0,0.0,2.26,,,0,0,0,0,0,0,0,0,0,0,0,0,0,0,0,0,0.0,,,,0.0,39.239002,-77.965317,2.97,31.0,3.0,0.9
45,1141328,1745084867521,,,,,,,,,,,,,,,,,,,,,,,,,,,,,,,,,,0,0,0,0,0,0,0,0,0,0,0,0,0,0,0,0,,,,,,,,,,,
46,1141348,1745084867541,0.0,180.24,,0.06,-0.37,0.99,-1.0,0.0,0.0,1.06,1.21,88.0,6282.0,15.0,2.89,,8.1,0.887,91.6,,57.9,5.0,,,,,,,,,,,,0,0,0,0,0,0,0,0,0,0,0,0,0,0,0,0,,,,,0.0,,,,,,
47,1141368,1745084867561,,,,,,,,,,,,,,,,,,,,,,,,,,,,,,,,,,0,0,0,0,0,0,0,0,0,0,0,0,0,0,0,0,,,,,,,,,,,
48,1141388,1745084867581,0.0,180.12,,0.07,-0.34,1.09,0.0,0.0,0.0,1.15,1.21,95.0,6282.0,15.0,2.89,,8.77,0.862,91.6,,54.1,5.0,,,,,,,,,,,,0,0,0,0,0,0,0,0,0,0,0,0,0,0,0,0,,,,,0.0,,,,,,
49,1141408,1745084867601,,,,,,,,,,,,,,,,,,,,,,,2.0,0.0,2.0,2.0,0.0,0.0,0.0,0.0,2.26,,,0,0,0,0,0,0,0,0,0,0,0,0,0,0,0,0,0.0,,,,,39.239002,-77.965317,3.38,31.0,3.0,0.9
50,1141428,1745084867621,0.0,180.12,,0.08,-0.29,1.16,1.0,0.0,-1.0,1.2,1.21,99.0,6031.0,15.7,3.0,,9.92,0.848,91.6,,54.1,5.0,,,,,,,,,,,,0,0,0,0,0,0,0,0,0,0,0,0,0,0,0,0,,,,,0.0,,,,,,
51,1141448,1745084867641,,,,,,,,,,,,,,,,,,,,,,,,,,,,,,,,,,0,0,0,0,0,0,0,0,0,0,0,0,0,0,0,0,,,,,,,,,,,
52,1141468,1745084867661,0.0,179.99,,0.04,-0.28,1.07,-1.0,0.0,-1.0,1.1,1.21,91.0,5753.0,16.9,3.03,,10.85,0.844,91.6,,54.1,5.0,,,,,,,,,,,,0,0,0,0,0,0,0,0,0,0,0,0,0,0,0,0,,,,,0.0,,,,,,
53,1141488,1745084867681,,,,,,,,,,,,,,,,,,,,,,,,,,,,,,,,,,0,0,0,0,0,0,0,0,0,0,0,0,0,0,0,0,,,,,,,,,,,
54,1141508,1745084867701,0.0,179.99,,0.05,-0.22,1.08,-2.0,0.0,-1.0,1.1,1.21,91.0,5479.0,15.8,3.78,,11.79,0.877,91.6,,49.4,5.0,2.0,0.0,2.0,3.0,0.0,0.0,0.0,0.0,2.26,,,0,0,0,0,0,0,0,0,0,0,0,0,0,0,0,0,0.0,,,,0.0,39.239002,-77.965317,3.82,31.0,3.0,0.9
55,1141528,1745084867721,,,,,,,,,,,,,,,,,,,,,,,,,,,,,,,,,,0,0,0,0,0,0,0,0,0,0,0,0,0,0,0,0,,,,,,,,,,,
56,1141548,1745084867741,0.0,179.86,,0.04,-0.18,1.07,-3.0,0.0,0.0,1.09,1.21,90.0,5212.0,15.5,3.67,,11.79,0.877,91.6,,49.4,5.0,,,,,,,,,,,,0,0,0,0,0,0,0,0,0,0,0,0,0,0,0,0,,,,,0.0,,,,,,
57,1141568,1745084867761,,,,,,,,,,,,,,,,,,,,,,,,,,,,,,,,,,0,0,0,0,0,0,0,0,0,0,0,0,0,0,0,0,,,,,,,,,,,
58,1141588,1745084867781,0.0,179.99,,0.05,-0.12,1.06,-3.0,0.0,0.0,1.07,1.21,88.0,5212.0,15.5,3.67,,12.27,0.922,91.6,,44.0,5.0,,,,,,,,,,,,0,0,0,0,0,0,0,0,0,0,0,0,0,0,0,0,,,,,0.0,,,,,,
59,1141608,1745084867801,,,,,,,,,,,,,,,,,,,,,,,2.0,0.0,2.0,3.0,0.0,0.0,0.0,0.0,2.26,,,0,0,0,0,0,0,0,0,0,0,0,0,0,0,0,0,0.0,,,,,39.239002,-77.965317,4.24,31.0,3.0,0.9
60,1141628,1745084867821,0.0,179.86,,0.09,-0.12,1.05,-4.0,0.0,0.0,1.06,1.21,88.0,4995.0,15.2,3.58,,12.55,0.969,91.6,,44.0,5.0,,,,,,,,,,,,0,0,0,0,0,0,0,0,0,0,0,0,0,0,0,0,,,,,0.0,,,,,,
61,1141648,1745084867841,,,,,,,,,,,,,,,,,,,,,,,,,,,,,,,,,,0,0,0,0,0,0,0,0,0,0,0,0,0,0,0,0,,,,,,,,,,,
62,1141668,1745084867861,0.0,179.86,,0.06,-0.09,1.09,-4.0,0.0,0.0,1.09,1.21,90.0,4800.0,15.0,3.54,,12.75,0.933,91.6,,44.0,5.0,,,,,,,,,,,,0,0,0,0,0,0,0,0,0,0,0,0,0,0,0,0,,,,,0.0,,,,,,
63,1141688,1745084867881,,,,,,,,,,,,,,,,,,,,,,,,,,,,,,,,,,0,0,0,0,0,0,0,0,0,0,0,0,0,0,0,0,,,,,,,,,,,
64,1141708,1745084867901,0.0,179.86,13.62,0.0,-0.09,1.09,-6.0,0.0,1.0,1.09,1.21,90.0,4601.0,15.0,3.57,15.0,12.89,0.969,91.6,153.0,40.5,5.0,3.0,0.0,3.0,3.0,0.0,0.0,0.0,0.0,2.26,0.0,0.0,0,0,0,0,0,0,0,0,0,0,0,0,0,0,0,0,0.0,0.0,0.0,0.0,0.0,39.239002,-77.965317,4.61,31.0,3.0,0.9
65,1141728,1745084867921,,,,,,,,,,,,,,,,,,,,,,,,,,,,,,,,,,0,0,0,0,0,0,0,0,0,0,0,0,0,0,0,0,,,,,,,,,,,
66,1141748,1745084867941,0.0,179.86,,-0.02,-0.0,1.14,-7.0,0.0,1.0,1.14,1.21,94.0,4343.0,14.8,3.6,,12.89,0.969,91.6,,40.5,5.0,,,,,,,,,,,,0,0,0,0,0,0,0,0,0,0,0,0,0,0,0,0,,,,,0.0,,,,,,
67,1141768,1745084867961,,,,,,,,,,,,,,,,,,,,,,,,,,,,,,,,,,0,0,0,0,0,0,0,0,0,0,0,0,0,0,0,0,,,,,,,,,,,
68,1141788,1745084867981,0.0,179.86,,0.0,-0.04,1.07,-8.0,0.0,1.0,1.07,1.21,89.0,4343.0,14.8,3.6,,12.93,0.979,91.6,,36.8,5.0,,,,,,,,,,,,0,0,0,0,0,0,0,0,0,0,0,0,0,0,0,0,,,,,0.0,,,,,,
69,1141808,1745084868001,,,,,,,,,,,,,,,,,,,,,,,3.0,0.0,3.0,4.0,0.0,0.0,0.0,0.0,2.26,,,0,0,0,0,0,0,0,0,0,0,0,0,0,0,0,0,0.0,,,,,39.239002,-77.965317,4.61,31.0,3.0,0.9
70,1141828,1745084868015,0.0,179.86,,0.01,-0.02,1.06,-9.0,0.0,1.0,1.06,1.21,88.0,3967.0,14.7,3.64,,13.12,1.005,91.6,,36.8,5.0,,,,,,,,,,,,0,0,0,0,0,0,0,0,0,0,0,0,0,0,0,0,,,,,0.0,,,,,,
71,1141848,1745084868035,,,,,,,,,,,,,,,,,,,,,,,,,,,,,,,,,,0,0,0,0,0,0,0,0,0,0,0,0,0,0,0,0,,,,,,,,,,,
72,1141868,1745084868055,0.0,179.86,,0.03,-0.03,1.09,-11.0,0.0,1.0,1.09,1.21,90.0,3615.0,22.7,4.67,,13.64,1.079,91.6,,36.8,5.0,,,,,,,,,,,,0,0,0,0,0,0,0,0,0,0,0,0,0,0,0,0,,,,,0.0,,,,,,
73,1141888,1745084868075,,,,,,,,,,,,,,,,,,,,,,,,,,,,,,,,,,0,0,0,0,0,0,0,0,0,0,0,0,0,0,0,0,,,,,,,,,,,
74,1141908,1745084868103,0.0,179.86,,0.02,-0.02,1.05,-11.0,0.0,1.0,1.05,1.21,87.0,3481.0,29.8,4.8,,13.98,1.202,91.6,,31.2,5.0,3.0,0.0,3.0,4.0,0.0,0.0,0.0,0.0,2.26,,,0,0,0,0,0,0,0,0,0,0,0,0,0,0,0,0,0.0,,,,0.0,39.239006,-77.965309,5.43,31.0,3.0,0.9
75,1141928,1745084868123,,,,,,,,,,,,,,,,,,,,,,,,,,,,,,,,,,0,0,0,0,0,0,0,0,0,0,0,0,0,0,0,0,,,,,,,,,,,
76,1141948,1745084868143,0.0,179.74,,-0.02,-0.09,1.03,-12.0,0.0,1.0,1.04,1.21,86.0,3442.0,33.0,5.11,,13.98,1.202,91.6,,31.2,5.0,,,,,,,,,,,,0,0,0,0,0,0,0,0,0,0,0,0,0,0,0,0,,,,,0.0,,,,,,
77,1141968,1745084868163,,,,,,,,,,,,,,,,,,,,,,,,,,,,,,,,,,0,0,0,0,0,0,0,0,0,0,0,0,0,0,0,0,,,,,,,,,,,
78,1141988,1745084868183,0.0,179.61,,-0.01,0.01,1.1,-12.0,0.0,1.0,1.1,1.21,90.0,3442.0,33.0,5.11,,14.14,1.249,91.6,,29.6,5.0,,,,,,,,,,,,0,0,0,0,0,0,0,0,0,0,0,0,0,0,0,0,,,,,0.0,,,,,,
79,1142008,1745084868202,,,,,,,,,,,,,,,,,,,,,,,3.0,0.0,3.0,4.0,0.0,0.0,0.0,0.0,2.25,,,0,0,0,0,0,0,0,0,0,0,0,0,0,0,0,0,0.0,,,,,39.239006,-77.965309,5.77,31.0,3.0,0.9
80,1142028,1745084868222,0.0,179.49,,0.02,-0.01,1.05,-13.0,0.0,1.0,1.05,1.21,87.0,4335.0,37.0,4.31,,14.03,1.249,91.6,,29.6,5.0,,,,,,,,,,,,0,0,0,0,0,0,0,0,0,0,0,0,0,0,0,0,,,,,0.0,,,,,,
81,1142048,1745084868242,,,,,,,,,,,,,,,,,,,,,,,,,,,,,,,,,,0,0,0,0,0,0,0,0,0,0,0,0,0,0,0,0,,,,,,,,,,,
82,1142068,1745084868262,0.0,179.36,,-0.02,0.03,1.08,-13.0,0.0,1.0,1.08,1.21,89.0,4752.0,38.9,4.28,,13.96,1.107,91.6,,29.6,5.0,,,,,,,,,,,,0,0,0,0,0,0,0,0,0,0,0,0,0,0,0,0,,,,,0.0,,,,,,
83,1142088,1745084868282,,,,,,,,,,,,,,,,,,,,,,,,,,,,,,,,,,0,0,0,0,0,0,0,0,0,0,0,0,0,0,0,0,,,,,,,,,,,
84,1142108,1745084868302,0.0,179.24,,-0.03,0.02,1.03,-14.0,0.0,1.0,1.03,1.21,85.0,5303.0,39.4,4.4,,13.96,0.996,91.6,,37.6,5.0,3.0,0.0,3.0,4.0,0.0,0.0,0.0,0.0,2.26,,,0,0,0,0,0,0,0,0,0,0,0,0,0,0,0,0,0.0,,,,0.0,39.239006,-77.965309,5.81,31.0,3.0,0.9
85,1142128,1745084868322,,,,,,,,,,,,,,,,,,,,,,,,,,,,,,,,,,0,0,0,0,0,0,0,0,0,0,0,0,0,0,0,0,,,,,,,,,,,
86,1142148,1745084868342,0.0,179.24,,-0.04,-0.06,0.99,-15.0,0.0,1.0,1.0,1.21,82.0,5980.0,40.0,4.65,,13.96,0.996,91.6,,37.6,5.0,,,,,,,,,,,,0,0,0,0,0,0,0,0,0,0,0,0,0,0,0,0,,,,,0.0,,,,,,
87,1142168,1745084868362,,,,,,,,,,,,,,,,,,,,,,,,,,,,,,,,,,0,0,0,0,0,0,0,0,0,0,0,0,0,0,0,0,,,,,,,,,,,
88,1142188,1745084868382,0.0,178.98,,-0.04,-0.1,0.96,-15.0,0.0,1.0,0.96,1.21,79.0,5980.0,40.0,4.65,,13.72,1.001,91.6,,47.9,5.0,,,,,,,,,,,,0,0,0,0,0,0,0,0,0,0,0,0,0,0,0,0,,,,,0.0,,,,,,
89,1142208,1745084868402,,,,,,,,,,,,,,,,,,,,,,,3.0,0.0,3.0,4.0,0.0,0.0,0.0,0.0,2.26,,,0,0,0,0,0,0,0,0,0,0,0,0,0,0,0,0,0.0,,,,,39.239006,-77.965309,5.71,31.0,3.0,0.9
90,1142228,1745084868422,0.0,178.86,,-0.09,-0.08,0.98,-16.0,0.0,1.0,0.99,1.21,82.0,6578.0,40.2,5.16,,13.59,1.018,91.6,,47.9,5.0,,,,,,,,,,,,0,0,0,0,0,0,0,0,0,0,0,0,0,0,0,0,,,,,0.0,,,,,,
91,1142248,1745084868442,,,,,,,,,,,,,,,,,,,,,,,,,,,,,,,,,,0,0,0,0,0,0,0,0,0,0,0,0,0,0,0,0,,,,,,,,,,,
92,1142268,1745084868462,0.0,178.86,,-0.08,-0.07,0.99,-16.0,0.0,1.0,1.0,1.21,82.0,7668.0,24.7,5.3,,12.57,1.105,91.6,,47.9,5.0,,,,,,,,,,,,0,0,0,0,0,0,0,0,0,0,0,0,0,0,0,0,,,,,0.0,,,,,,
93,1142288,1745084868482,,,,,,,,,,,,,,,,,,,,,,,,,,,,,,,,,,0,0,0,0,0,0,0,0,0,0,0,0,0,0,0,0,,,,,,,,,,,
94,1142308,1745084868502,0.0,178.86,,-0.05,-0.04,1.02,-16.0,0.0,1.0,1.02,1.21,85.0,9030.0,12.7,4.3,,10.69,0.953,91.6,,62.6,5.0,3.0,0.0,3.0,4.0,0.0,0.0,0.0,0.0,2.26,,,0,0,0,0,0,0,0,0,0,0,0,0,0,0,0,0,0.0,,,,0.0,39.239006,-77.965309,5.48,31.0,3.0,0.9
95,1142328,1745084868522,,,,,,,,,,,,,,,,,,,,,,,,,,,,,,,,,,0,0,0,0,0,0,0,0,0,0,0,0,0,0,0,0,,,,,,,,,,,
96,1142348,1745084868542,0.0,178.86,,-0.1,-0.03,0.94,-17.0,0.0,1.0,0.95,1.21,78.0,10167.0,9.2,2.52,,10.69,0.953,91.6,,62.6,5.0,,,,,,,,,,,,0,0,0,0,0,0,0,0,0,0,0,0,0,0,0,0,,,,,0.0,,,,,,
97,1142368,1745084868562,,,,,,,,,,,,,,,,,,,,,,,,,,,,,,,,,,0,0,0,0,0,0,0,0,0,0,0,0,0,0,0,0,,,,,,,,,,,
98,1142388,1745084868582,0.0,178.73,,-0.08,-0.05,0.88,-16.0,0.0,1.0,0.89,1.21,73.0,10167.0,9.2,2.52,,9.21,0.811,91.6,,64.5,5.0,,,,,,,,,,,,0,0,0,0,0,0,0,0,0,0,0,0,0,0,0,0,,,,,0.0,,,,,,
99,1142408,1745084868602,,,,,,,,,,,,,,,,,,,,,,,3.0,0.0,3.0,4.0,0.0,0.0,0.0,0.0,2.26,,,0,0,0,0,0,0,0,0,0,0,0,0,0,0,0,0,0.0,,,,,39.23901,-77.965309,5.25,31.0,3.0,0.9
100,1142428,1745084868622,0.0,178.73,,-0.09,0.05,0.93,-17.0,0.0,1.0,0.93,1.21,77.0,10762.0,8.9,2.2,,8.02,0.8,91.6,,64.5,5.0,,,,,,,,,,,,0,0,0,0,0,0,0,0,0,0,0,0,0,0,0,0,,,,,0.0,,,,,,
101,1142448,1745084868642,,,,,,,,,,,,,,,,,,,,,,,,,,,,,,,,,,0,0,0,0,0,0,0,0,0,0,0,0,0,0,0,0,,,,,,,,,,,
102,1142468,1745084868662,0.0,178.73,,-0.07,0.05,0.97,-17.0,1.0,1.0,0.97,1.21,80.0,11163.0,13.9,2.31,,7.74,0.861,91.6,,64.5,5.0,,,,,,,,,,,,0,0,0,0,0,0,0,0,0,0,0,0,0,0,0,0,,,,,0.0,,,,,,
103,1142488,1745084868682,,,,,,,,,,,,,,,,,,,,,,,,,,,,,,,,,,0,0,0,0,0,0,0,0,0,0,0,0,0,0,0,0,,,,,,,,,,,
104,1142508,1745084868702,0.0,178.48,,-0.07,0.12,0.97,-16.0,1.0,1.0,0.98,1.21,81.0,11424.0,21.7,2.69,,8.09,0.955,91.6,,64.6,5.0,3.0,0.0,3.0,4.0,0.0,0.0,0.0,0.0,2.26,,,0,0,0,0,0,0,0,0,0,0,0,0,0,0,0,0,0.0,,,,0.0,39.23901,-77.965302,5.07,31.0,3.0,0.9
105,1142528,1745084868722,,,,,,,,,,,,,,,,,,,,,,,,,,,,,,,,,,0,0,0,0,0,0,0,0,0,0,0,0,0,0,0,0,,,,,,,,,,,
106,1142548,1745084868742,0.0,178.36,,-0.07,-0.07,0.99,-16.0,1.0,0.0,1.0,1.21,82.0,11770.0,23.6,2.89,,8.09,0.955,91.6,,64.6,5.0,,,,,,,,,,,,0,0,0,0,0,0,0,0,0,0,0,0,0,0,0,0,,,,,0.0,,,,,,
107,1142568,1745084868762,,,,,,,,,,,,,,,,,,,,,,,,,,,,,,,,,,0,0,0,0,0,0,0,0,0,0,0,0,0,0,0,0,,,,,,,,,,,
108,1142588,1745084868782,0.0,178.23,,-0.09,-0.22,1.01,-15.0,1.0,0.0,1.04,1.21,86.0,11770.0,23.6,2.89,,8.39,0.977,91.6,,63.7,5.0,,,,,,,,,,,,0,0,0,0,0,0,0,0,0,0,0,0,0,0,0,0,,,,,0.0,,,,,,
109,1142608,1745084868802,,,,,,,,,,,,,,,,,,,,,,,3.0,0.0,3.0,4.0,0.0,0.0,0.0,0.0,2.26,,,0,0,0,0,0,0,0,0,0,0,0,0,0,0,0,0,0.0,,,,,39.23901,-77.965302,5.04,31.0,3.0,0.9
110,1142628,1745084868822,0.0,178.1,,-0.12,-0.24,1.02,-15.0,1.0,0.0,1.05,1.21,87.0,12080.0,16.1,2.3,,7.54,0.944,91.6,,63.7,5.0,,,,,,,,,,,,0,0,0,0,0,0,0,0,0,0,0,0,0,0,0,0,,,,,0.0,,,,,,
111,1142648,1745084868842,,,,,,,,,,,,,,,,,,,,,,,,,,,,,,,,,,0,0,0,0,0,0,0,0,0,0,0,0,0,0,0,0,,,,,,,,,,,
112,1142668,1745084868862,0.0,178.1,,-0.16,-0.32,1.04,-14.0,1.0,1.0,1.1,1.21,91.0,11964.0,6.1,1.73,,6.16,0.894,91.6,,63.7,5.0,,,,,,,,,,,,0,0,0,0,0,0,0,0,0,0,0,0,0,0,0,0,,,,,0.0,,,,,,
113,1142688,1745084868882,,,,,,,,,,,,,,,,,,,,,,,,,,,,,,,,,,0,0,0,0,0,0,0,0,0,0,0,0,0,0,0,0,,,,,,,,,,,
114,1142708,1745084868902,0.0,178.1,13.6,-0.16,-0.26,0.98,-14.0,1.0,1.0,1.02,1.21,84.0,11694.0,6.1,1.48,15.0,5.51,0.871,91.6,155.0,64.6,5.0,3.0,0.0,3.0,4.0,0.0,0.0,0.0,0.0,2.26,0.0,0.0,0,0,0,0,0,0,0,0,0,0,0,0,0,0,0,0,0.0,0.0,0.0,0.0,0.0,39.23901,-77.965302,4.86,31.0,3.0,0.9
115,1142728,1745084868922,,,,,,,,,,,,,,,,,,,,,,,,,,,,,,,,,,0,0,0,0,0,0,0,0,0,0,0,0,0,0,0,0,,,,,,,,,,,
116,1142748,1745084868942,0.0,178.23,,-0.13,-0.23,0.97,-16.0,1.0,1.0,1.01,1.21,83.0,11326.0,13.7,1.67,,5.51,0.871,91.6,,64.6,5.0,,,,,,,,,,,,0,0,0,0,0,0,0,0,0,0,0,0,0,0,0,0,,,,,0.0,,,,,,
117,1142768,1745084868962,,,,,,,,,,,,,,,,,,,,,,,,,,,,,,,,,,0,0,0,0,0,0,0,0,0,0,0,0,0,0,0,0,,,,,,,,,,,
118,1142788,1745084868982,0.0,178.23,,-0.12,-0.16,0.9,-17.0,0.0,1.0,0.92,1.21,76.0,11326.0,13.7,1.67,,5.59,0.861,91.6,,64.4,5.0,,,,,,,,,,,,0,0,0,0,0,0,0,0,0,0,0,0,0,0,0,0,,,,,0.0,,,,,,
119,1142808,1745084869002,,,,,,,,,,,,,,,,,,,,,,,3.0,0.0,3.0,4.0,0.0,0.0,0.0,0.0,2.26,,,0,0,0,0,0,0,0,0,0,0,0,0,0,0,0,0,0.0,,,,,39.23901,-77.965302,4.86,31.0,3.0,0.9
120,1142828,1745084869014,0.0,178.1,,-0.1,-0.14,1.0,-16.0,0.0,1.0,1.02,1.21,84.0,10954.0,17.7,1.94,,6.2,0.958,91.6,,64.4,5.0,,,,,,,,,,,,0,0,0,0,0,0,0,0,0,0,0,0,0,0,0,0,,,,,0.0,,,,,,
121,1142848,1745084869034,,,,,,,,,,,,,,,,,,,,,,,,,,,,,,,,,,0,0,0,0,0,0,0,0,0,0,0,0,0,0,0,0,,,,,,,,,,,
122,1142868,1745084869054,0.0,178.1,,-0.1,-0.12,1.02,-17.0,0.0,1.0,1.03,1.21,85.0,10610.0,19.5,2.24,,6.58,1.028,91.6,,64.4,5.0,,,,,,,,,,,,0,0,0,0,0,0,0,0,0,0,0,0,0,0,0,0,,,,,0.0,,,,,,
123,1142888,1745084869074,,,,,,,,,,,,,,,,,,,,,,,,,,,,,,,,,,0,0,0,0,0,0,0,0,0,0,0,0,0,0,0,0,,,,,,,,,,,
124,1142908,1745084869094,0.0,178.1,,-0.06,-0.14,1.11,-18.0,0.0,1.0,1.12,1.21,92.0,10309.0,23.7,2.41,,7.29,0.999,91.6,,64.4,5.0,3.0,0.0,3.0,4.0,0.0,0.0,0.0,0.0,2.26,,,0,0,0,0,0,0,0,0,0,0,0,0,0,0,0,0,0.0,,,,0.0,39.23901,-77.965302,5.03,31.0,3.0,0.9
125,1142928,1745084869118,,,,,,,,,,,,,,,,,,,,,,,,,,,,,,,,,,0,0,0,0,0,0,0,0,0,0,0,0,0,0,0,0,,,,,,,,,,,
126,1142948,1745084869138,0.0,178.1,,-0.03,-0.17,1.05,-18.0,0.0,1.0,1.07,1.21,88.0,10085.0,28.6,2.66,,7.29,0.999,91.6,,64.4,5.0,,,,,,,,,,,,0,0,0,0,0,0,0,0,0,0,0,0,0,0,0,0,,,,,0.0,,,,,,
127,1142968,1745084869158,,,,,,,,,,,,,,,,,,,,,,,,,,,,,,,,,,0,0,0,0,0,0,0,0,0,0,0,0,0,0,0,0,,,,,,,,,,,
128,1142988,1745084869178,0.0,177.98,,-0.02,-0.13,1.04,-19.0,0.0,1.0,1.05,1.21,86.0,10085.0,28.6,2.66,,8.13,0.969,91.6,,64.2,5.0,,,,,,,,,,,,0,0,0,0,0,0,0,0,0,0,0,0,0,0,0,0,,,,,0.0,,,,,,
129,1143008,1745084869201,,,,,,,,,,,,,,,,,,,,,,,4.0,0.0,3.0,4.0,0.0,0.0,0.0,0.0,2.25,,,0,0,0,0,0,0,0,0,0,0,0,0,0,0,0,0,0.0,,,,,39.23901,-77.965294,5.8,31.0,3.0,0.9
130,1143028,1745084869221,0.0,177.98,,-0.02,-0.11,1.08,-19.0,1.0,1.0,1.09,1.21,90.0,9925.0,23.7,2.95,,8.86,0.979,91.6,,64.2,5.0,,,,,,,,,,,,0,0,0,0,0,0,0,0,0,0,0,0,0,0,0,0,,,,,0.0,,,,,,
131,1143048,1745084869241,,,,,,,,,,,,,,,,,,,,,,,,,,,,,,,,,,0,0,0,0,0,0,0,0,0,0,0,0,0,0,0,0,,,,,,,,,,,
132,1143068,1745084869261,0.0,177.85,,-0.0,-0.17,1.14,-19.0,1.0,1.0,1.16,1.21,95.0,9853.0,23.0,3.14,,9.22,1.024,91.6,,64.2,5.0,,,,,,,,,,,,0,0,0,0,0,0,0,0,0,0,0,0,0,0,0,0,,,,,0.0,,,,,,
133,1143088,1745084869281,,,,,,,,,,,,,,,,,,,,,,,,,,,,,,,,,,0,0,0,0,0,0,0,0,0,0,0,0,0,0,0,0,,,,,,,,,,,
134,1143108,1745084869301,0.0,177.85,,0.01,-0.19,1.14,-20.0,1.0,1.0,1.15,1.21,95.0,9868.0,23.7,3.2,,9.42,1.051,91.6,,65.2,5.0,4.0,0.0,4.0,5.0,0.0,0.0,0.0,0.0,2.26,,,0,0,0,0,0,0,0,0,0,0,0,0,0,0,0,0,0.0,,,,0.0,39.23901,-77.965294,6.6,31.0,3.0,0.9
135,1143128,1745084869321,,,,,,,,,,,,,,,,,,,,,,,,,,,,,,,,,,0,0,0,0,0,0,0,0,0,0,0,0,0,0,0,0,,,,,,,,,,,
136,1143148,1745084869341,0.0,177.73,,0.0,-0.17,1.08,-20.0,0.0,1.0,1.1,1.21,91.0,9916.0,23.4,3.24,,9.42,1.051,91.6,,65.2,5.0,,,,,,,,,,,,0,0,0,0,0,0,0,0,0,0,0,0,0,0,0,0,,,,,0.0,,,,,,
137,1143168,1745084869361,,,,,,,,,,,,,,,,,,,,,,,,,,,,,,,,,,0,0,0,0,0,0,0,0,0,0,0,0,0,0,0,0,,,,,,,,,,,
138,1143188,1745084869381,0.0,177.6,,0.03,0.02,1.1,-21.0,1.0,1.0,1.1,1.21,91.0,9916.0,23.4,3.24,,9.52,1.048,91.6,,64.2,5.0,,,,,,,,,,,,0,0,0,0,0,0,0,0,0,0,0,0,0,0,0,0,,,,,0.0,,,,,,
139,1143208,1745084869401,,,,,,,,,,,,,,,,,,,,,,,4.0,0.0,4.0,6.0,0.0,0.0,0.0,0.0,2.26,,,0,0,0,0,0,0,0,0,0,0,0,0,0,0,0,0,0.0,,,,,39.23901,-77.965294,6.6,31.0,3.0,0.9
140,1143228,1745084869419,0.0,177.48,,0.0,-0.07,1.06,-22.0,1.0,0.0,1.07,1.21,88.0,10002.0,24.7,3.29,,9.56,1.047,91.6,,64.2,5.0,,,,,,,,,,,,0,0,0,0,0,0,0,0,0,0,0,0,0,0,0,0,,,,,0.0,,,,,,
141,1143248,1745084869439,,,,,,,,,,,,,,,,,,,,,,,,,,,,,,,,,,0,0,0,0,0,0,0,0,0,0,0,0,0,0,0,0,,,,,,,,,,,
142,1143268,1745084869459,0.0,177.48,,0.01,-0.15,1.02,-23.0,1.0,0.0,1.04,1.21,85.0,10141.0,24.7,3.26,,9.7,1.032,91.6,,64.2,5.0,,,,,,,,,,,,0,0,0,0,0,0,0,0,0,0,0,0,0,0,0,0,,,,,0.0,,,,,,
143,1143288,1745084869479,,,,,,,,,,,,,,,,,,,,,,,,,,,,,,,,,,0,0,0,0,0,0,0,0,0,0,0,0,0,0,0,0,,,,,,,,,,,
144,1143308,1745084869501,0.0,177.48,,0.03,-0.23,0.97,-25.0,1.0,0.0,1.0,1.21,82.0,10295.0,23.4,3.29,,9.35,1.009,91.6,,64.1,5.0,5.0,0.0,5.0,6.0,0.0,0.0,0.0,0.0,2.26,,,0,0,0,0,0,0,0,0,0,0,0,0,0,0,0,0,0.0,,,,0.0,39.23901,-77.965286,7.9,31.0,3.0,0.9
145,1143328,1745084869521,,,,,,,,,,,,,,,,,,,,,,,,,,,,,,,,,,0,0,0,0,0,0,0,0,0,0,0,0,0,0,0,0,,,,,,,,,,,
146,1143348,1745084869541,0.0,177.35,,-0.02,-0.24,0.96,-26.0,1.0,0.0,0.99,1.21,82.0,10385.0,20.9,3.27,,9.35,1.009,91.6,,64.1,5.0,,,,,,,,,,,,0,0,0,0,0,0,0,0,0,0,0,0,0,0,0,0,,,,,0.0,,,,,,
147,1143368,1745084869561,,,,,,,,,,,,,,,,,,,,,,,,,,,,,,,,,,0,0,0,0,0,0,0,0,0,0,0,0,0,0,0,0,,,,,,,,,,,
148,1143388,1745084869581,0.0,177.22,,-0.04,-0.17,1.06,-27.0,1.0,1.0,1.07,1.21,88.0,10385.0,20.9,3.27,,8.69,1.004,91.6,,64.8,5.0,,,,,,,,,,,,0,0,0,0,0,0,0,0,0,0,0,0,0,0,0,0,,,,,0.0,,,,,,
149,1143408,1745084869601,,,,,,,,,,,,,,,,,,,,,,,5.0,0.0,5.0,7.0,0.0,0.0,0.0,0.0,2.26,,,0,0,0,0,0,0,0,0,0,0,0,0,0,0,0,0,0.0,,,,,39.23901,-77.965286,7.9,31.0,3.0,0.9
150,1143428,1745084869619,0.0,177.1,,-0.06,-0.21,1.07,-28.0,1.0,0.0,1.1,1.21,90.0,10452.0,23.8,2.83,,8.17,0.955,91.6,,64.8,5.0,,,,,,,,,,,,0,0,0,0,0,0,0,0,0,0,0,0,0,0,0,0,,,,,0.0,,,,,,
151,1143448,1745084869639,,,,,,,,,,,,,,,,,,,,,,,,,,,,,,,,,,0,0,0,0,0,0,0,0,0,0,0,0,0,0,0,0,,,,,,,,,,,
152,1143468,1745084869659,0.0,176.97,,-0.09,-0.25,1.14,-29.0,2.0,0.0,1.17,1.21,97.0,10411.0,22.4,2.87,,7.99,0.891,91.6,,64.8,5.0,,,,,,,,,,,,0,0,0,0,0,0,0,0,0,0,0,0,0,0,0,0,,,,,0.0,,,,,,
153,1143488,1745084869679,,,,,,,,,,,,,,,,,,,,,,,,,,,,,,,,,,0,0,0,0,0,0,0,0,0,0,0,0,0,0,0,0,,,,,,,,,,,
154,1143508,1745084869701,0.0,176.97,,-0.05,-0.24,1.14,-31.0,2.0,1.0,1.17,1.21,96.0,10337.0,26.7,2.7,,7.83,0.877,91.6,,63.6,5.0,6.0,0.0,5.0,7.0,0.0,0.0,0.0,0.0,2.26,,,0,0,0,0,0,0,0,0,0,0,0,0,0,0,0,0,0.0,,,,0.0,39.23901,-77.965279,8.8,31.0,3.0,0.9
155,1143528,1745084869721,,,,,,,,,,,,,,,,,,,,,,,,,,,,,,,,,,0,0,0,0,0,0,0,0,0,0,0,0,0,0,0,0,,,,,,,,,,,
156,1143548,1745084869741,0.0,176.97,,-0.03,-0.29,1.03,-34.0,1.0,1.0,1.07,1.21,89.0,10257.0,20.0,2.9,,7.83,0.877,91.6,,63.6,5.0,,,,,,,,,,,,0,0,0,0,0,0,0,0,0,0,0,0,0,0,0,0,,,,,0.0,,,,,,
157,1143568,1745084869761,,,,,,,,,,,,,,,,,,,,,,,,,,,,,,,,,,0,0,0,0,0,0,0,0,0,0,0,0,0,0,0,0,,,,,,,,,,,
158,1143588,1745084869781,0.0,176.97,,-0.06,-0.43,0.96,-34.0,1.0,0.0,1.05,1.21,87.0,10257.0,20.0,2.9,,7.81,0.865,91.6,,64.4,5.0,,,,,,,,,,,,0,0,0,0,0,0,0,0,0,0,0,0,0,0,0,0,,,,,0.0,,,,,,
159,1143608,1745084869801,,,,,,,,,,,,,,,,,,,,,,,6.0,0.0,5.0,8.0,0.0,0.0,0.0,0.0,2.26,,,0,0,0,0,0,0,0,0,0,0,0,0,0,0,0,0,0.0,,,,,39.23901,-77.965279,9.52,31.0,3.0,0.9
160,1143628,1745084869821,0.0,176.85,,-0.05,-0.41,0.9,-36.0,2.0,0.0,0.99,1.21,81.0,10164.0,21.5,2.89,,7.59,0.872,91.6,,64.4,5.0,,,,,,,,,,,,0,0,0,0,0,0,0,0,0,0,0,0,0,0,0,0,,,,,0.0,,,,,,
161,1143648,1745084869841,,,,,,,,,,,,,,,,,,,,,,,,,,,,,,,,,,0,0,0,0,0,0,0,0,0,0,0,0,0,0,0,0,,,,,,,,,,,
162,1143668,1745084869861,0.0,176.85,,-0.05,-0.24,0.9,-37.0,2.0,1.0,0.93,1.21,77.0,10020.0,18.2,2.77,,7.38,0.849,91.6,,64.4,5.0,,,,,,,,,,,,0,0,0,0,0,0,0,0,0,0,0,0,0,0,0,0,,,,,0.0,,,,,,
163,1143688,1745084869881,,,,,,,,,,,,,,,,,,,,,,,,,,,,,,,,,,0,0,0,0,0,0,0,0,0,0,0,0,0,0,0,0,,,,,,,,,,,
164,1143708,1745084869901,0.0,176.85,13.66,-0.1,-0.3,0.83,-37.0,1.0,0.0,0.89,1.21,73.0,9848.0,15.5,2.58,15.0,7.04,0.824,91.6,155.0,63.7,5.0,6.0,0.0,6.0,8.0,0.0,0.0,0.0,0.0,2.26,0.0,0.0,0,0,0,0,0,0,0,0,0,0,0,0,0,0,0,0,0.0,0.0,0.0,0.0,0.0,39.239006,-77.965271,10.02,31.0,3.0,0.9
165,1143728,1745084869921,,,,,,,,,,,,,,,,,,,,,,,,,,,,,,,,,,0,0,0,0,0,0,0,0,0,0,0,0,0,0,0,0,,,,,,,,,,,
166,1143748,1745084869941,0.0,176.72,,-0.08,-0.31,0.83,-39.0,1.0,0.0,0.89,1.21,73.0,9625.0,11.6,2.24,,7.04,0.824,91.6,,63.7,5.0,,,,,,,,,,,,0,0,0,0,0,0,0,0,0,0,0,0,0,0,0,0,,,,,0.0,,,,,,
167,1143768,1745084869961,,,,,,,,,,,,,,,,,,,,,,,,,,,,,,,,,,0,0,0,0,0,0,0,0,0,0,0,0,0,0,0,0,,,,,,,,,,,
168,1143788,1745084869981,0.0,176.6,,-0.08,-0.49,0.86,-40.0,1.0,0.0,1.0,1.21,82.0,9625.0,11.6,2.24,,6.92,0.801,91.6,,63.4,5.0,,,,,,,,,,,,0,0,0,0,0,0,0,0,0,0,0,0,0,0,0,0,,,,,0.0,,,,,,
169,1143808,1745084870001,,,,,,,,,,,,,,,,,,,,,,,7.0,0.0,6.0,8.0,0.0,0.0,0.0,0.0,2.26,,,0,0,0,0,0,0,0,0,0,0,0,0,0,0,0,0,0.0,,,,,39.239006,-77.965271,10.02,31.0,3.0,0.9
170,1143828,1745084870015,0.0,176.47,,-0.1,-0.23,0.87,-42.0,1.0,1.0,0.9,1.21,75.0,9365.0,14.3,2.16,,6.8,0.794,91.6,,63.4,5.0,,,,,,,,,,,,0,0,0,0,0,0,0,0,0,0,0,0,0,0,0,0,,,,,0.0,,,,,,
171,1143848,1745084870035,,,,,,,,,,,,,,,,,,,,,,,,,,,,,,,,,,0,0,0,0,0,0,0,0,0,0,0,0,0,0,0,0,,,,,,,,,,,
172,1143868,1745084870055,0.0,176.47,,-0.12,-0.19,0.84,-44.0,0.0,1.0,0.87,1.21,72.0,9057.0,17.6,2.24,,6.88,0.835,91.6,,63.4,5.0,,,,,,,,,,,,0,0,0,0,0,0,0,0,0,0,0,0,0,0,0,0,,,,,0.0,,,,,,
173,1143888,1745084870075,,,,,,,,,,,,,,,,,,,,,,,,,,,,,,,,,,0,0,0,0,0,0,0,0,0,0,0,0,0,0,0,0,,,,,,,,,,,
174,1143908,1745084870103,0.0,176.34,,-0.14,-0.17,0.85,-45.0,0.0,2.0,0.87,1.21,72.0,8737.0,18.4,2.23,,6.92,0.874,91.6,,63.4,5.0,7.0,0.0,6.0,8.0,0.0,0.0,0.0,0.0,2.26,,,0,0,0,0,0,0,0,0,0,0,0,0,0,0,0,0,0.0,,,,0.0,39.239002,-77.965271,11.33,31.0,3.0,0.9
175,1143928,1745084870123,,,,,,,,,,,,,,,,,,,,,,,,,,,,,,,,,,0,0,0,0,0,0,0,0,0,0,0,0,0,0,0,0,,,,,,,,,,,
176,1143948,1745084870143,0.0,176.09,,-0.14,-0.23,0.85,-47.0,0.0,1.0,0.89,1.21,73.0,8297.0,17.8,2.81,,6.92,0.874,91.6,,63.4,5.0,,,,,,,,,,,,0,0,0,0,0,0,0,0,0,0,0,0,0,0,0,0,,,,,0.0,,,,,,
177,1143968,1745084870163,,,,,,,,,,,,,,,,,,,,,,,,,,,,,,,,,,0,0,0,0,0,0,0,0,0,0,0,0,0,0,0,0,,,,,,,,,,,
178,1143988,1745084870183,0.0,175.97,,-0.14,-0.29,0.86,-47.0,1.0,1.0,0.92,1.21,76.0,8297.0,17.8,2.81,,7.18,0.878,91.6,,61.7,5.0,,,,,,,,,,,,0,0,0,0,0,0,0,0,0,0,0,0,0,0,0,0,,,,,0.0,,,,,,
179,1144008,1745084870203,,,,,,,,,,,,,,,,,,,,,,,7.0,0.0,6.0,9.0,0.0,38.0,0.0,0.0,2.26,,,0,0,0,0,0,0,0,0,0,0,0,0,0,0,0,0,0.0,,,,,39.239002,-77.965271,11.3,31.0,3.0,0.9
180,1144028,1745084870223,0.0,175.97,,-0.14,-0.23,0.85,-49.0,1.0,1.0,0.89,1.21,73.0,7919.0,12.6,2.33,,7.18,0.898,91.6,,61.7,5.0,,,,,,,,,,,,0,0,0,0,0,0,0,0,0,0,0,0,0,0,0,0,,,,,0.0,,,,,,
181,1144048,1745084870243,,,,,,,,,,,,,,,,,,,,,,,,,,,,,,,,,,0,0,0,0,0,0,0,0,0,0,0,0,0,0,0,0,,,,,,,,,,,
182,1144068,1745084870263,0.0,175.97,,-0.12,-0.14,0.89,-50.0,0.0,1.0,0.91,1.21,75.0,7481.0,7.2,2.49,,7.1,0.876,91.6,,61.7,5.0,,,,,,,,,,,,0,0,0,0,0,0,0,0,0,0,0,0,0,0,0,0,,,,,0.0,,,,,,
183,1144088,1745084870283,,,,,,,,,,,,,,,,,,,,,,,,,,,,,,,,,,0,0,0,0,0,0,0,0,0,0,0,0,0,0,0,0,,,,,,,,,,,
184,1144108,1745084870303,0.0,175.97,,-0.15,-0.17,0.88,-50.0,1.0,1.0,0.91,1.21,75.0,7018.0,15.1,2.5,,7.34,0.895,91.6,,60.1,5.0,7.0,0.0,7.0,9.0,0.0,70.0,0.0,0.0,2.26,,,0,0,0,0,0,0,0,0,0,0,0,0,0,0,0,0,0.0,,,,0.0,39.239002,-77.965271,11.3,31.0,3.0,0.9
185,1144128,1745084870320,,,,,,,,,,,,,,,,,,,,,,,,,,,,,,,,,,0,0,0,0,0,0,0,0,0,0,0,0,0,0,0,0,,,,,,,,,,,
186,1144148,1745084870340,0.0,175.97,,-0.11,-0.1,0.9,-51.0,1.0,1.0,0.92,1.21,76.0,6378.0,4.5,2.19,,7.34,0.895,91.6,,60.1,5.0,,,,,,,,,,,,0,0,0,0,0,0,0,0,0,0,0,0,0,0,0,0,,,,,0.0,,,,,,
187,1144168,1745084870360,,,,,,,,,,,,,,,,,,,,,,,,,,,,,,,,,,0,0,0,0,0,0,0,0,0,0,0,0,0,0,0,0,,,,,,,,,,,
188,1144188,1745084870380,0.0,175.97,,-0.11,0.01,1.02,-53.0,1.0,2.0,1.02,1.21,84.0,6378.0,4.5,2.19,,7.73,0.908,91.6,,54.6,5.0,,,,,,,,,,,,0,0,0,0,0,0,0,0,0,0,0,0,0,0,0,0,,,,,0.0,,,,,,
189,1144208,1745084870400,,,,,,,,,,,,,,,,,,,,,,,7.0,0.0,7.0,10.0,0.0,21.0,0.0,0.0,2.26,,,0,0,0,0,0,0,0,0,0,0,0,0,0,0,0,0,0.0,,,,,39.238998,-77.965263,12.08,31.0,3.0,0.9
190,1144228,1745084870420,0.0,175.84,,-0.1,-0.0,1.02,-53.0,1.0,2.0,1.03,1.21,85.0,5804.0,11.8,2.17,,8.43,0.863,91.6,,54.6,5.0,,,,,,,,,,,,0,0,0,0,0,0,0,0,0,0,0,0,0,0,0,0,,,,,0.0,,,,,,
191,1144248,1745084870440,,,,,,,,,,,,,,,,,,,,,,,,,,,,,,,,,,0,0,0,0,0,0,0,0,0,0,0,0,0,0,0,0,,,,,,,,,,,
192,1144268,1745084870460,0.0,175.84,,-0.09,-0.04,1.07,-54.0,1.0,2.0,1.08,1.21,89.0,5180.0,6.2,2.1,,9.25,0.81,91.6,,54.6,5.0,,,,,,,,,,,,0,0,0,0,0,0,0,0,0,0,0,0,0,0,0,0,,,,,0.0,,,,,,
193,1144288,1745084870480,,,,,,,,,,,,,,,,,,,,,,,,,,,,,,,,,,0,0,0,0,0,0,0,0,0,0,0,0,0,0,0,0,,,,,,,,,,,
194,1144308,1745084870500,0.0,175.97,,-0.14,0.02,1.13,-55.0,1.0,2.0,1.13,1.21,94.0,4596.0,12.9,2.28,,10.76,0.795,91.6,,44.6,5.0,8.0,0.0,7.0,10.0,0.0,14.0,0.0,0.0,2.26,,,0,0,0,0,0,0,0,0,0,0,0,0,0,0,0,0,0.0,,,,0.0,39.238998,-77.965263,12.49,31.0,3.0,0.9
195,1144328,1745084870520,,,,,,,,,,,,,,,,,,,,,,,,,,,,,,,,,,0,0,0,0,0,0,0,0,0,0,0,0,0,0,0,0,,,,,,,,,,,
196,1144348,1745084870540,0.0,175.97,,-0.12,-0.1,1.06,-56.0,1.0,2.0,1.07,1.21,89.0,4080.0,17.7,3.55,,10.76,0.795,91.6,,44.6,5.0,,,,,,,,,,,,0,0,0,0,0,0,0,0,0,0,0,0,0,0,0,0,,,,,0.0,,,,,,
197,1144368,1745084870560,,,,,,,,,,,,,,,,,,,,,,,,,,,,,,,,,,0,0,0,0,0,0,0,0,0,0,0,0,0,0,0,0,,,,,,,,,,,
198,1144388,1745084870580,0.0,176.09,,-0.13,-0.13,1.09,-57.0,1.0,2.0,1.11,1.21,91.0,4080.0,17.7,3.55,,12.31,0.799,91.6,,34.4,5.0,,,,,,,,,,,,0,0,0,0,0,0,0,0,0,0,0,0,0,0,0,0,,,,,0.0,,,,,,
199,1144408,1745084870600,,,,,,,,,,,,,,,,,,,,,,,8.0,0.0,7.0,10.0,0.0,29.0,0.0,0.0,2.26,,,0,0,0,0,0,0,0,0,0,0,0,0,0,0,0,0,0.0,,,,,39.238995,-77.965263,12.61,31.0,3.0,0.9
200,1144428,1745084870620,0.0,176.22,,-0.12,-0.1,1.03,-58.0,1.0,2.0,1.04,1.21,86.0,3654.0,18.8,4.07,,13.28,0.838,91.6,,34.4,5.0,,,,,,,,,,,,0,0,0,0,0,0,0,0,0,0,0,0,0,0,0,0,,,,,0.0,,,,,,
201,1144448,1745084870640,,,,,,,,,,,,,,,,,,,,,,,,,,,,,,,,,,0,0,0,0,0,0,0,0,0,0,0,0,0,0,0,0,,,,,,,,,,,
202,1144468,1745084870660,0.0,176.22,,-0.12,-0.14,1.01,-59.0,1.0,2.0,1.03,1.21,85.0,3140.0,19.1,4.48,,13.79,0.955,91.6,,34.4,5.0,,,,,,,,,,,,0,0,0,0,0,0,0,0,0,0,0,0,0,0,0,0,,,,,0.0,,,,,,
203,1144488,1745084870680,,,,,,,,,,,,,,,,,,,,,,,,,,,,,,,,,,0,0,0,0,0,0,0,0,0,0,0,0,0,0,0,0,,,,,,,,,,,
204,1144508,1745084870702,0.0,176.34,,-0.13,-0.15,0.94,-60.0,1.0,2.0,0.96,1.21,79.0,2882.0,19.2,4.76,,13.92,1.033,91.6,,27.2,5.0,8.0,0.0,7.0,10.0,0.0,48.0,0.0,0.0,2.26,,,0,0,0,0,0,0,0,0,0,0,0,0,0,0,0,0,0.0,,,,0.0,39.238991,-77.965256,13.66,31.0,3.0,0.9
205,1144528,1745084870722,,,,,,,,,,,,,,,,,,,,,,,,,,,,,,,,,,0,0,0,0,0,0,0,0,0,0,0,0,0,0,0,0,,,,,,,,,,,
206,1144548,1745084870742,0.0,176.34,,-0.13,-0.19,0.96,-60.0,1.0,2.0,0.98,1.21,81.0,2704.0,19.9,4.77,,13.92,1.033,91.6,,27.2,5.0,,,,,,,,,,,,0,0,0,0,0,0,0,0,0,0,0,0,0,0,0,0,,,,,0.0,,,,,,
207,1144568,1745084870762,,,,,,,,,,,,,,,,,,,,,,,,,,,,,,,,,,0,0,0,0,0,0,0,0,0,0,0,0,0,0,0,0,,,,,,,,,,,
208,1144588,1745084870782,0.0,176.47,,-0.14,-0.21,0.94,-61.0,1.0,2.0,0.97,1.21,80.0,2704.0,19.9,4.77,,14.02,1.114,91.6,,22.4,5.0,,,,,,,,,,,,0,0,0,0,0,0,0,0,0,0,0,0,0,0,0,0,,,,,0.0,,,,,,
209,1144608,1745084870802,,,,,,,,,,,,,,,,,,,,,,,8.0,0.0,7.0,10.0,0.0,16.0,0.0,0.0,2.26,,,0,0,0,0,0,0,0,0,0,0,0,0,0,0,0,0,0.0,,,,,39.238991,-77.965256,13.66,31.0,3.0,0.9
210,1144628,1745084870820,0.0,176.6,,-0.15,-0.24,0.95,-61.0,2.0,2.0,0.99,1.21,82.0,2537.0,20.2,4.72,,14.08,1.175,91.6,,22.4,5.0,,,,,,,,,,,,0,0,0,0,0,0,0,0,0,0,0,0,0,0,0,0,,,,,0.0,,,,,,
211,1144648,1745084870840,,,,,,,,,,,,,,,,,,,,,,,,,,,,,,,,,,0,0,0,0,0,0,0,0,0,0,0,0,0,0,0,0,,,,,,,,,,,
212,1144668,1745084870860,0.0,176.6,,-0.17,-0.25,0.96,-61.0,1.0,2.0,1.01,1.21,83.0,2318.0,20.2,4.63,,14.14,1.194,91.6,,22.4,5.0,,,,,,,,,,,,0,0,0,0,0,0,0,0,0,0,0,0,0,0,0,0,,,,,0.0,,,,,,
213,1144688,1745084870880,,,,,,,,,,,,,,,,,,,,,,,,,,,,,,,,,,0,0,0,0,0,0,0,0,0,0,0,0,0,0,0,0,,,,,,,,,,,
214,1144708,1745084870902,0.0,176.6,13.64,-0.19,-0.27,0.98,-62.0,1.0,2.0,1.03,1.21,85.0,2105.0,25.1,4.62,15.0,14.15,1.19,91.6,153.0,19.6,5.0,8.0,0.0,7.0,10.0,0.0,89.0,0.0,0.0,2.26,0.0,0.0,0,0,0,0,0,0,0,0,0,0,0,0,0,0,0,0,2.0,0.0,0.0,0.0,0.0,39.238983,-77.965256,13.59,31.0,3.0,0.9
215,1144728,1745084870922,,,,,,,,,,,,,,,,,,,,,,,,,,,,,,,,,,0,0,0,0,0,0,0,0,0,0,0,0,0,0,0,0,,,,,,,,,,,
216,1144748,1745084870942,0.0,176.72,,-0.21,-0.3,0.99,-62.0,1.0,2.0,1.05,1.21,87.0,2029.0,38.0,4.72,,14.15,1.19,91.6,,19.6,5.0,,,,,,,,,,,,0,0,0,0,0,0,0,0,0,0,0,0,0,0,0,0,,,,,0.0,,,,,,
217,1144768,1745084870962,,,,,,,,,,,,,,,,,,,,,,,,,,,,,,,,,,0,0,0,0,0,0,0,0,0,0,0,0,0,0,0,0,,,,,,,,,,,
218,1144788,1745084870982,0.0,176.72,,-0.23,-0.3,0.98,-63.0,1.0,1.0,1.05,1.21,87.0,2029.0,38.0,4.72,,14.32,1.159,91.6,,18.0,5.0,,,,,,,,,,,,0,0,0,0,0,0,0,0,0,0,0,0,0,0,0,0,,,,,0.0,,,,,,
219,1144808,1745084871002,,,,,,,,,,,,,,,,,,,,,,,8.0,0.0,7.0,10.0,0.0,49.0,0.0,0.0,2.26,,,0,0,0,0,0,0,0,0,0,0,0,0,0,0,0,0,2.0,,,,,39.238983,-77.965256,13.59,31.0,3.0,0.9
220,1144828,1745084871014,0.0,176.85,,-0.22,-0.33,0.96,-63.0,2.0,1.0,1.04,1.21,86.0,2074.0,44.5,4.78,,14.27,1.127,91.6,,18.0,5.0,,,,,,,,,,,,0,0,0,0,0,0,0,0,0,0,0,0,0,0,0,0,,,,,0.0,,,,,,
221,1144848,1745084871034,,,,,,,,,,,,,,,,,,,,,,,,,,,,,,,,,,0,0,0,0,0,0,0,0,0,0,0,0,0,0,0,0,,,,,,,,,,,
222,1144868,1745084871054,0.0,176.85,,-0.2,-0.32,0.96,-63.0,2.0,1.0,1.03,1.21,85.0,2125.0,45.5,4.55,,14.34,1.106,91.6,,18.0,5.0,,,,,,,,,,,,0,0,0,0,0,0,0,0,0,0,0,0,0,0,0,0,,,,,0.0,,,,,,
223,1144888,1745084871074,,,,,,,,,,,,,,,,,,,,,,,,,,,,,,,,,,0,0,0,0,0,0,0,0,0,0,0,0,0,0,0,0,,,,,,,,,,,
224,1144908,1745084871102,0.0,176.97,,-0.21,-0.33,0.97,-63.0,1.0,1.0,1.05,1.21,87.0,2012.0,45.5,4.55,,14.28,1.102,91.6,,17.4,5.0,8.0,0.0,7.0,10.0,0.0,37.0,0.0,0.0,2.26,,,0,0,0,0,0,0,0,0,0,0,0,0,0,0,0,0,3.0,,,,0.0,39.238976,-77.965256,13.8,31.0,3.0,0.9
225,1144928,1745084871122,,,,,,,,,,,,,,,,,,,,,,,,,,,,,,,,,,0,0,0,0,0,0,0,0,0,0,0,0,0,0,0,0,,,,,,,,,,,
226,1144948,1745084871142,0.0,176.85,,-0.2,-0.36,0.98,-63.0,2.0,1.0,1.06,1.21,88.0,2128.0,45.5,4.49,,14.28,1.102,91.6,,17.4,5.0,,,,,,,,,,,,0,0,0,0,0,0,0,0,0,0,0,0,0,0,0,0,,,,,0.0,,,,,,
227,1144968,1745084871162,,,,,,,,,,,,,,,,,,,,,,,,,,,,,,,,,,0,0,0,0,0,0,0,0,0,0,0,0,0,0,0,0,,,,,,,,,,,
228,1144988,1745084871182,0.0,176.72,,-0.19,-0.38,1.0,-62.0,2.0,1.0,1.08,1.21,90.0,2128.0,45.5,4.49,,14.3,1.101,91.6,,17.2,5.0,,,,,,,,,,,,0,0,0,0,0,0,0,0,0,0,0,0,0,0,0,0,,,,,0.0,,,,,,
229,1145008,1745084871202,,,,,,,,,,,,,,,,,,,,,,,8.0,0.0,7.0,10.0,0.0,30.0,0.0,0.0,2.26,,,0,0,0,0,0,0,0,0,0,0,0,0,0,0,0,0,3.0,,,,,39.238976,-77.965256,13.8,31.0,3.0,0.9
230,1145028,1745084871217,0.0,176.6,,-0.2,-0.35,1.01,-61.0,2.0,1.0,1.08,1.21,89.0,2156.0,45.5,4.49,,14.26,1.104,91.6,,17.2,5.0,,,,,,,,,,,,0,0,0,0,0,0,0,0,0,0,0,0,0,0,0,0,,,,,0.0,,,,,,
231,1145048,1745084871237,,,,,,,,,,,,,,,,,,,,,,,,,,,,,,,,,,0,0,0,0,0,0,0,0,0,0,0,0,0,0,0,0,,,,,,,,,,,
232,1145068,1745084871257,0.0,176.34,,-0.19,-0.33,1.01,-61.0,2.0,1.0,1.08,1.21,89.0,2198.0,45.5,4.5,,14.28,1.1,91.6,,17.2,5.0,,,,,,,,,,,,0,0,0,0,0,0,0,0,0,0,0,0,0,0,0,0,,,,,0.0,,,,,,
233,1145088,1745084871277,,,,,,,,,,,,,,,,,,,,,,,,,,,,,,,,,,0,0,0,0,0,0,0,0,0,0,0,0,0,0,0,0,,,,,,,,,,,
234,1145108,1745084871301,0.0,176.09,,-0.17,-0.29,1.0,-59.0,2.0,1.0,1.06,1.21,87.0,2208.0,58.1,4.66,,14.28,1.105,91.6,,17.2,5.0,8.0,0.0,7.0,10.0,0.0,206.0,0.0,0.0,2.26,,,0,0,0,0,0,0,0,0,0,0,0,0,0,0,0,0,3.0,,,,0.0,39.238972,-77.965256,13.61,31.0,3.0,0.9
235,1145128,1745084871321,,,,,,,,,,,,,,,,,,,,,,,,,,,,,,,,,,0,0,0,0,0,0,0,0,0,0,0,0,0,0,0,0,,,,,,,,,,,
236,1145148,1745084871341,0.0,175.97,,-0.14,-0.31,1.01,-57.0,2.0,0.0,1.06,1.21,88.0,2066.0,72.1,4.68,,14.28,1.105,91.6,,17.2,5.0,,,,,,,,,,,,0,0,0,0,0,0,0,0,0,0,0,0,0,0,0,0,,,,,0.0,,,,,,
237,1145168,1745084871361,,,,,,,,,,,,,,,,,,,,,,,,,,,,,,,,,,0,0,0,0,0,0,0,0,0,0,0,0,0,0,0,0,,,,,,,,,,,
238,1145188,1745084871381,0.0,175.97,,-0.1,-0.28,1.0,-54.0,2.0,0.0,1.04,1.21,86.0,2066.0,72.1,4.68,,14.28,1.109,91.6,,16.1,5.0,,,,,,,,,,,,0,0,0,0,0,0,0,0,0,0,0,0,0,0,0,0,,,,,0.0,,,,,,
239,1145208,1745084871401,,,,,,,,,,,,,,,,,,,,,,,8.0,0.0,8.0,10.0,0.0,206.0,0.0,0.0,2.25,,,0,0,0,0,0,0,0,0,0,0,0,0,0,0,0,0,3.0,,,,,39.238968,-77.965256,13.82,31.0,3.0,0.9
240,1145228,1745084871421,0.0,175.97,,-0.09,-0.25,1.0,-52.0,2.0,0.0,1.03,1.21,85.0,2110.0,73.4,4.71,,14.31,1.128,91.6,,16.1,5.0,,,,,,,,,,,,0,0,0,0,0,0,0,0,0,0,0,0,0,0,0,0,,,,,0.0,,,,,,
241,1145248,1745084871441,,,,,,,,,,,,,,,,,,,,,,,,,,,,,,,,,,0,0,0,0,0,0,0,0,0,0,0,0,0,0,0,0,,,,,,,,,,,
242,1145268,1745084871461,0.0,175.97,,-0.08,-0.21,1.0,-50.0,1.0,0.0,1.02,1.21,84.0,2137.0,74.6,4.51,,14.28,1.134,91.6,,16.1,5.0,,,,,,,,,,,,0,0,0,0,0,0,0,0,0,0,0,0,0,0,0,0,,,,,0.0,,,,,,
243,1145288,1745084871481,,,,,,,,,,,,,,,,,,,,,,,,,,,,,,,,,,0,0,0,0,0,0,0,0,0,0,0,0,0,0,0,0,,,,,,,,,,,
244,1145308,1745084871501,0.0,176.09,,-0.08,-0.21,1.0,-47.0,1.0,0.0,1.02,1.21,84.0,2175.0,74.8,4.47,,14.34,1.134,91.6,,15.3,5.0,9.0,0.0,8.0,10.0,0.0,185.0,0.0,0.0,2.26,,,0,0,0,0,0,0,0,0,0,0,0,0,0,0,0,0,0.0,,,,0.0,39.238964,-77.965256,14.09,31.0,3.0,0.9
245,1145328,1745084871521,,,,,,,,,,,,,,,,,,,,,,,,,,,,,,,,,,0,0,0,0,0,0,0,0,0,0,0,0,0,0,0,0,,,,,,,,,,,
246,1145348,1745084871541,0.0,176.22,,-0.09,-0.22,0.99,-44.0,1.0,0.0,1.01,1.21,84.0,2135.0,74.9,4.48,,14.34,1.134,91.6,,15.3,5.0,,,,,,,,,,,,0,0,0,0,0,0,0,0,0,0,0,0,0,0,0,0,,,,,0.0,,,,,,
247,1145368,1745084871561,,,,,,,,,,,,,,,,,,,,,,,,,,,,,,,,,,0,0,0,0,0,0,0,0,0,0,0,0,0,0,0,0,,,,,,,,,,,
248,1145388,1745084871581,0.0,176.47,,-0.07,-0.25,0.97,-42.0,1.0,0.0,1.0,1.21,83.0,2135.0,74.9,4.48,,14.38,1.137,91.6,,16.1,5.0,,,,,,,,,,,,0,0,0,0,0,0,0,0,0,0,0,0,0,0,0,0,,,,,0.0,,,,,,
249,1145408,1745084871601,,,,,,,,,,,,,,,,,,,,,,,9.0,0.0,9.0,10.0,0.0,141.0,0.0,0.0,2.25,,,0,0,0,0,0,0,0,0,0,0,0,0,0,0,0,0,0.0,,,,,39.23896,-77.965263,14.45,31.0,3.0,0.9
250,1145428,1745084871621,0.0,176.72,,-0.05,-0.22,0.97,-40.0,1.0,0.0,0.99,0.99,100.0,2191.0,76.3,4.5,,14.34,1.138,91.6,,16.1,5.0,,,,,,,,,,,,0,0,0,0,0,0,0,0,0,0,0,0,0,0,0,0,,,,,0.0,,,,,,
251,1145448,1745084871641,,,,,,,,,,,,,,,,,,,,,,,,,,,,,,,,,,0,0,0,0,0,0,0,0,0,0,0,0,0,0,0,0,,,,,,,,,,,
252,1145468,1745084871661,0.0,176.85,,-0.03,-0.2,0.98,-38.0,1.0,0.0,1.0,1.0,100.0,2283.0,80.9,4.64,,14.3,1.14,91.6,,16.1,5.0,,,,,,,,,,,,0,0,0,0,0,0,0,0,0,0,0,0,0,0,0,0,,,,,0.0,,,,,,
253,1145488,1745084871681,,,,,,,,,,,,,,,,,,,,,,,,,,,,,,,,,,0,0,0,0,0,0,0,0,0,0,0,0,0,0,0,0,,,,,,,,,,,
254,1145508,1745084871701,0.0,177.1,,-0.01,-0.24,0.99,-36.0,1.0,0.0,1.02,1.02,100.0,2373.0,82.2,4.41,,14.31,1.13,91.6,,16.8,5.0,9.0,0.0,9.0,10.0,0.0,97.0,0.0,0.0,2.26,,,0,0,0,0,0,0,0,0,0,0,0,0,0,0,0,0,0.0,,,,0.0,39.23896,-77.965263,14.45,31.0,3.0,0.9
255,1145528,1745084871719,,,,,,,,,,,,,,,,,,,,,,,,,,,,,,,,,,0,0,0,0,0,0,0,0,0,0,0,0,0,0,0,0,,,,,,,,,,,
256,1145548,1745084871739,0.0,177.35,,-0.0,-0.22,0.98,-34.0,1.0,0.0,1.0,1.02,99.0,2319.0,82.3,4.36,,14.31,1.13,91.6,,16.8,5.0,,,,,,,,,,,,0,0,0,0,0,0,0,0,0,0,0,0,0,0,0,0,,,,,0.0,,,,,,
257,1145568,1745084871759,,,,,,,,,,,,,,,,,,,,,,,,,,,,,,,,,,0,0,0,0,0,0,0,0,0,0,0,0,0,0,0,0,,,,,,,,,,,
258,1145588,1745084871779,0.0,177.6,,-0.01,-0.23,0.99,-32.0,1.0,1.0,1.02,1.02,100.0,2319.0,82.3,4.36,,14.35,1.109,91.6,,17.2,5.0,,,,,,,,,,,,0,0,0,0,0,0,0,0,0,0,0,0,0,0,0,0,,,,,0.0,,,,,,
259,1145608,1745084871801,,,,,,,,,,,,,,,,,,,,,,,9.0,0.0,9.0,10.0,0.0,80.0,0.0,0.0,2.26,,,0,0,0,0,0,0,0,0,0,0,0,0,0,0,0,0,0.0,,,,,39.238953,-77.965263,15.03,31.0,3.0,0.9
260,1145628,1745084871821,0.0,177.85,,-0.01,-0.19,0.99,-31.0,1.0,0.0,1.01,1.02,99.0,2318.0,82.3,4.38,,14.32,1.102,91.6,,17.2,5.0,,,,,,,,,,,,0,0,0,0,0,0,0,0,0,0,0,0,0,0,0,0,,,,,0.0,,,,,,
261,1145648,1745084871841,,,,,,,,,,,,,,,,,,,,,,,,,,,,,,,,,,0,0,0,0,0,0,0,0,0,0,0,0,0,0,0,0,,,,,,,,,,,
262,1145668,1745084871861,0.0,177.98,,-0.02,-0.16,0.99,-31.0,1.0,0.0,1.01,1.02,99.0,2399.0,82.3,4.36,,14.31,1.107,91.6,,17.2,5.0,,,,,,,,,,,,0,0,0,0,0,0,0,0,0,0,0,0,0,0,0,0,,,,,0.0,,,,,,
263,1145688,1745084871881,,,,,,,,,,,,,,,,,,,,,,,,,,,,,,,,,,0,0,0,0,0,0,0,0,0,0,0,0,0,0,0,0,,,,,,,,,,,
264,1145708,1745084871901,0.0,178.1,13.7,-0.03,-0.22,0.99,-29.0,1.0,0.0,1.01,1.02,99.0,2439.0,82.3,4.35,15.0,14.32,1.116,91.6,153.0,18.1,5.0,9.0,0.0,9.0,10.0,0.0,127.0,0.0,0.0,2.26,0.0,0.0,0,0,0,0,0,0,0,0,0,0,0,0,0,0,0,0,2.0,0.0,0.0,0.0,0.0,39.238953,-77.965263,15.03,31.0,3.0,0.9
265,1145728,1745084871919,,,,,,,,,,,,,,,,,,,,,,,,,,,,,,,,,,0,0,0,0,0,0,0,0,0,0,0,0,0,0,0,0,,,,,,,,,,,
266,1145748,1745084871939,0.0,178.36,,-0.01,-0.22,0.99,-29.0,1.0,0.0,1.01,1.02,100.0,2401.0,72.9,4.51,,14.32,1.116,91.6,,18.1,5.0,,,,,,,,,,,,0,0,0,0,0,0,0,0,0,0,0,0,0,0,0,0,,,,,0.0,,,,,,
267,1145768,1745084871959,,,,,,,,,,,,,,,,,,,,,,,,,,,,,,,,,,0,0,0,0,0,0,0,0,0,0,0,0,0,0,0,0,,,,,,,,,,,
268,1145788,1745084871979,0.0,178.61,,-0.03,-0.2,0.98,-28.0,1.0,0.0,1.0,1.02,98.0,2401.0,72.9,4.51,,14.3,1.124,91.6,,18.5,5.0,,,,,,,,,,,,0,0,0,0,0,0,0,0,0,0,0,0,0,0,0,0,,,,,0.0,,,,,,
269,1145808,1745084871999,,,,,,,,,,,,,,,,,,,,,,,9.0,0.0,10.0,10.0,0.0,140.0,0.0,0.0,2.26,,,0,0,0,0,0,0,0,0,0,0,0,0,0,0,0,0,2.0,,,,,39.238953,-77.965271,15.02,31.0,3.0,0.9
270,1145828,1745084872013,0.0,178.73,,-0.04,-0.18,0.99,-27.0,1.0,0.0,1.01,1.02,99.0,2381.0,54.9,4.35,,14.27,1.132,91.6,,18.5,5.0,,,,,,,,,,,,0,0,0,0,0,0,0,0,0,0,0,0,0,0,0,0,,,,,0.0,,,,,,
271,1145848,1745084872033,,,,,,,,,,,,,,,,,,,,,,,,,,,,,,,,,,0,0,0,0,0,0,0,0,0,0,0,0,0,0,0,0,,,,,,,,,,,
272,1145868,1745084872053,0.0,178.86,,-0.01,-0.21,1.0,-26.0,1.0,0.0,1.02,1.02,100.0,2458.0,54.6,4.33,,14.3,1.142,91.6,,18.5,5.0,,,,,,,,,,,,0,0,0,0,0,0,0,0,0,0,0,0,0,0,0,0,,,,,0.0,,,,,,
273,1145888,1745084872073,,,,,,,,,,,,,,,,,,,,,,,,,,,,,,,,,,0,0,0,0,0,0,0,0,0,0,0,0,0,0,0,0,,,,,,,,,,,
274,1145908,1745084872093,0.0,179.11,,-0.03,-0.18,1.0,-27.0,1.0,1.0,1.02,1.02,100.0,2480.0,57.3,4.35,,14.28,1.135,91.6,,19.1,5.0,10.0,0.0,10.0,10.0,0.0,117.0,0.0,0.0,2.26,,,0,0,0,0,0,0,0,0,0,0,0,0,0,0,0,0,2.0,,,,0.0,39.238945,-77.965271,15.22,31.0,3.0,0.9
275,1145928,1745084872118,,,,,,,,,,,,,,,,,,,,,,,,,,,,,,,,,,0,0,0,0,0,0,0,0,0,0,0,0,0,0,0,0,,,,,,,,,,,
276,1145948,1745084872138,0.0,179.24,,-0.0,-0.25,1.0,-26.0,1.0,0.0,1.03,1.03,100.0,2458.0,64.6,4.61,,14.28,1.135,91.6,,19.1,5.0,,,,,,,,,,,,0,0,0,0,0,0,0,0,0,0,0,0,0,0,0,0,,,,,0.0,,,,,,
277,1145968,1745084872158,,,,,,,,,,,,,,,,,,,,,,,,,,,,,,,,,,0,0,0,0,0,0,0,0,0,0,0,0,0,0,0,0,,,,,,,,,,,
278,1145988,1745084872178,0.0,179.36,,-0.0,-0.23,1.02,-26.0,0.0,0.0,1.04,1.04,100.0,2458.0,64.6,4.61,,14.3,1.123,91.6,,19.2,5.0,,,,,,,,,,,,0,0,0,0,0,0,0,0,0,0,0,0,0,0,0,0,,,,,0.0,,,,,,
279,1146008,1745084872198,,,,,,,,,,,,,,,,,,,,,,,9.0,0.0,10.0,11.0,0.0,78.0,0.0,0.0,2.26,,,0,0,0,0,0,0,0,0,0,0,0,0,0,0,0,0,2.0,,,,,39.238941,-77.965271,15.35,31.0,3.0,0.9
280,1146028,1745084872219,0.0,179.49,,-0.01,-0.24,1.02,-26.0,0.0,0.0,1.05,1.05,100.0,2471.0,67.8,4.54,,14.31,1.132,91.6,,19.2,5.0,,,,,,,,,,,,0,0,0,0,0,0,0,0,0,0,0,0,0,0,0,0,,,,,0.0,,,,,,
281,1146048,1745084872239,,,,,,,,,,,,,,,,,,,,,,,,,,,,,,,,,,0,0,0,0,0,0,0,0,0,0,0,0,0,0,0,0,,,,,,,,,,,
282,1146068,1745084872259,0.0,179.61,,-0.0,-0.26,0.99,-27.0,1.0,0.0,1.02,1.05,98.0,2502.0,69.5,4.36,,14.31,1.138,91.6,,19.2,5.0,,,,,,,,,,,,0,0,0,0,0,0,0,0,0,0,0,0,0,0,0,0,,,,,0.0,,,,,,
283,1146088,1745084872279,,,,,,,,,,,,,,,,,,,,,,,,,,,,,,,,,,0,0,0,0,0,0,0,0,0,0,0,0,0,0,0,0,,,,,,,,,,,
284,1146108,1745084872302,0.0,179.61,,0.0,-0.31,0.99,-26.0,1.0,0.0,1.04,1.05,99.0,2545.0,68.4,4.34,,14.34,1.151,91.6,,19.2,5.0,10.0,0.0,10.0,11.0,0.0,137.0,0.0,0.0,2.26,,,0,0,0,0,0,0,0,0,0,0,0,0,0,0,0,0,2.0,,,,0.0,39.238934,-77.965271,15.76,32.0,3.0,0.9
285,1146128,1745084872322,,,,,,,,,,,,,,,,,,,,,,,,,,,,,,,,,,0,0,0,0,0,0,0,0,0,0,0,0,0,0,0,0,,,,,,,,,,,
286,1146148,1745084872342,0.0,179.61,,0.01,-0.3,1.01,-26.0,0.0,0.0,1.05,1.05,100.0,2541.0,68.5,4.33,,14.34,1.151,91.6,,19.2,5.0,,,,,,,,,,,,0,0,0,0,0,0,0,0,0,0,0,0,0,0,0,0,,,,,0.0,,,,,,
287,1146168,1745084872362,,,,,,,,,,,,,,,,,,,,,,,,,,,,,,,,,,0,0,0,0,0,0,0,0,0,0,0,0,0,0,0,0,,,,,,,,,,,
288,1146188,1745084872382,0.0,179.86,,-0.0,-0.24,1.01,-26.0,0.0,0.0,1.04,1.05,99.0,2541.0,68.5,4.33,,14.32,1.141,91.6,,19.5,5.0,,,,,,,,,,,,0,0,0,0,0,0,0,0,0,0,0,0,0,0,0,0,,,,,0.0,,,,,,
289,1146208,1745084872402,,,,,,,,,,,,,,,,,,,,,,,10.0,0.0,10.0,11.0,0.0,80.0,0.0,0.0,2.26,,,0,0,0,0,0,0,0,0,0,0,0,0,0,0,0,0,2.0,,,,,39.238934,-77.965279,15.99,32.0,3.0,0.9
290,1146228,1745084872422,0.0,179.86,,-0.0,-0.21,0.99,-25.0,0.0,0.0,1.02,1.05,96.0,2511.0,68.5,4.33,,14.32,1.126,91.6,,19.5,5.0,,,,,,,,,,,,0,0,0,0,0,0,0,0,0,0,0,0,0,0,0,0,,,,,0.0,,,,,,
291,1146248,1745084872442,,,,,,,,,,,,,,,,,,,,,,,,,,,,,,,,,,0,0,0,0,0,0,0,0,0,0,0,0,0,0,0,0,,,,,,,,,,,
292,1146268,1745084872462,0.0,180.12,,0.02,-0.22,1.01,-24.0,0.0,0.0,1.03,1.05,98.0,2578.0,68.6,4.33,,14.34,1.115,91.6,,19.5,5.0,,,,,,,,,,,,0,0,0,0,0,0,0,0,0,0,0,0,0,0,0,0,,,,,0.0,,,,,,
293,1146288,1745084872482,,,,,,,,,,,,,,,,,,,,,,,,,,,,,,,,,,0,0,0,0,0,0,0,0,0,0,0,0,0,0,0,0,,,,,,,,,,,
294,1146308,1745084872502,0.0,180.12,,0.03,-0.23,0.98,-23.0,1.0,0.0,1.01,1.05,95.0,2597.0,57.7,4.29,,14.28,1.122,91.6,,19.8,5.0,10.0,0.0,10.0,11.0,0.0,46.0,0.0,0.0,2.26,,,0,0,0,0,0,0,0,0,0,0,0,0,0,0,0,0,2.0,,,,0.0,39.238934,-77.965279,16.3,32.0,3.0,0.9
295,1146328,1745084872522,,,,,,,,,,,,,,,,,,,,,,,,,,,,,,,,,,0,0,0,0,0,0,0,0,0,0,0,0,0,0,0,0,,,,,,,,,,,
296,1146348,1745084872542,0.0,180.24,,0.03,-0.24,0.98,-22.0,1.0,0.0,1.01,1.05,96.0,2525.0,21.2,4.67,,14.28,1.122,91.6,,19.8,5.0,,,,,,,,,,,,0,0,0,0,0,0,0,0,0,0,0,0,0,0,0,0,,,,,0.0,,,,,,
297,1146368,1745084872562,,,,,,,,,,,,,,,,,,,,,,,,,,,,,,,,,,0,0,0,0,0,0,0,0,0,0,0,0,0,0,0,0,,,,,,,,,,,
298,1146388,1745084872582,0.0,180.49,,0.02,-0.21,0.96,-21.0,0.0,0.0,0.98,1.05,93.0,2525.0,21.2,4.67,,14.14,1.119,91.6,,20.4,5.0,,,,,,,,,,,,0,0,0,0,0,0,0,0,0,0,0,0,0,0,0,0,,,,,0.0,,,,,,
299,1146408,1745084872602,,,,,,,,,,,,,,,,,,,,,,,11.0,0.0,10.0,11.0,0.0,102.0,0.0,0.0,2.26,,,0,0,0,0,0,0,0,0,0,0,0,0,0,0,0,0,2.0,,,,,39.23893,-77.965286,16.59,32.0,3.0,0.9
300,1146428,1745084872622,0.0,180.62,,0.02,-0.22,0.95,-19.0,0.0,0.0,0.97,1.05,92.0,2509.0,3.4,3.72,,13.9,1.123,91.6,,20.4,5.0,,,,,,,,,,,,0,0,0,0,0,0,0,0,0,0,0,0,0,0,0,0,,,,,0.0,,,,,,
301,1146448,1745084872642,,,,,,,,,,,,,,,,,,,,,,,,,,,,,,,,,,0,0,0,0,0,0,0,0,0,0,0,0,0,0,0,0,,,,,,,,,,,
302,1146468,1745084872662,0.0,180.87,,0.03,-0.22,0.98,-18.0,0.0,0.0,1.01,1.05,96.0,2472.0,16.8,4.04,,14.04,1.128,91.6,,20.4,5.0,,,,,,,,,,,,0,0,0,0,0,0,0,0,0,0,0,0,0,0,0,0,,,,,0.0,,,,,,
303,1146488,1745084872682,,,,,,,,,,,,,,,,,,,,,,,,,,,,,,,,,,0,0,0,0,0,0,0,0,0,0,0,0,0,0,0,0,,,,,,,,,,,
304,1146508,1745084872702,0.0,181.0,,0.01,-0.19,0.98,-17.0,0.0,0.0,1.0,1.05,95.0,2449.0,44.0,4.95,,14.31,1.123,91.6,,20.3,5.0,11.0,0.0,10.0,11.0,0.0,52.0,0.0,0.0,2.26,,,0,0,0,0,0,0,0,0,0,0,0,0,0,0,0,0,2.0,,,,0.0,39.238926,-77.965286,17.02,32.0,3.0,0.9
305,1146528,1745084872722,,,,,,,,,,,,,,,,,,,,,,,,,,,,,,,,,,0,0,0,0,0,0,0,0,0,0,0,0,0,0,0,0,,,,,,,,,,,
306,1146548,1745084872742,0.0,181.12,,0.02,-0.15,1.0,-15.0,0.0,0.0,1.01,1.05,95.0,2617.0,66.1,4.78,,14.31,1.123,91.6,,20.3,5.0,,,,,,,,,,,,0,0,0,0,0,0,0,0,0,0,0,0,0,0,0,0,,,,,0.0,,,,,,
307,1146568,1745084872762,,,,,,,,,,,,,,,,,,,,,,,,,,,,,,,,,,0,0,0,0,0,0,0,0,0,0,0,0,0,0,0,0,,,,,,,,,,,
308,1146588,1745084872782,0.0,181.37,,0.02,-0.14,0.95,-14.0,0.0,0.0,0.96,1.05,91.0,2617.0,66.1,4.78,,14.3,1.118,91.6,,21.1,5.0,,,,,,,,,,,,0,0,0,0,0,0,0,0,0,0,0,0,0,0,0,0,,,,,0.0,,,,,,
309,1146608,1745084872802,,,,,,,,,,,,,,,,,,,,,,,11.0,0.0,11.0,11.0,0.0,12.0,0.0,0.0,2.26,,,0,0,0,0,0,0,0,0,0,0,0,0,0,0,0,0,2.0,,,,,39.238922,-77.965294,16.91,32.0,3.0,0.9
310,1146628,1745084872822,0.0,181.62,,0.05,-0.14,0.96,-13.0,0.0,0.0,0.97,1.05,92.0,2732.0,79.7,4.57,,14.27,1.114,91.6,,21.1,5.0,,,,,,,,,,,,0,0,0,0,0,0,0,0,0,0,0,0,0,0,0,0,,,,,0.0,,,,,,
311,1146648,1745084872842,,,,,,,,,,,,,,,,,,,,,,,,,,,,,,,,,,0,0,0,0,0,0,0,0,0,0,0,0,0,0,0,0,,,,,,,,,,,
312,1146668,1745084872862,0.0,181.75,,0.04,-0.11,0.97,-11.0,0.0,1.0,0.98,1.05,93.0,2692.0,85.6,4.56,,14.27,1.092,91.6,,21.1,5.0,,,,,,,,,,,,0,0,0,0,0,0,0,0,0,0,0,0,0,0,0,0,,,,,0.0,,,,,,
313,1146688,1745084872882,,,,,,,,,,,,,,,,,,,,,,,,,,,,,,,,,,0,0,0,0,0,0,0,0,0,0,0,0,0,0,0,0,,,,,,,,,,,
314,1146708,1745084872902,0.0,181.88,13.73,0.03,-0.07,1.0,-10.0,0.0,1.0,1.0,1.05,95.0,2633.0,87.7,4.66,15.0,14.3,1.08,91.6,155.0,21.1,5.0,11.0,0.0,11.0,11.0,0.0,244.0,0.0,0.0,2.26,0.0,0.0,0,0,0,0,0,0,0,0,0,0,0,0,0,0,0,0,2.0,0.0,0.0,0.0,0.0,39.238918,-77.965302,17.23,32.0,3.0,0.9
315,1146728,1745084872922,,,,,,,,,,,,,,,,,,,,,,,,,,,,,,,,,,0,0,0,0,0,0,0,0,0,0,0,0,0,0,0,0,,,,,,,,,,,
316,1146748,1745084872942,0.0,182.0,,0.03,-0.04,1.02,-9.0,0.0,1.0,1.02,1.05,97.0,2772.0,90.2,4.55,,14.3,1.08,91.6,,21.1,5.0,,,,,,,,,,,,0,0,0,0,0,0,0,0,0,0,0,0,0,0,0,0,,,,,0.0,,,,,,
317,1146768,1745084872962,,,,,,,,,,,,,,,,,,,,,,,,,,,,,,,,,,0,0,0,0,0,0,0,0,0,0,0,0,0,0,0,0,,,,,,,,,,,
318,1146788,1745084872982,0.0,182.25,,0.04,-0.04,0.95,-8.0,1.0,1.0,0.96,1.05,91.0,2772.0,90.2,4.55,,14.32,1.077,91.6,,21.5,5.0,,,,,,,,,,,,0,0,0,0,0,0,0,0,0,0,0,0,0,0,0,0,,,,,0.0,,,,,,
319,1146808,1745084873002,,,,,,,,,,,,,,,,,,,,,,,11.0,0.0,11.0,11.0,0.0,251.0,0.0,0.0,2.25,,,0,0,0,0,0,0,0,0,0,0,0,0,0,0,0,0,2.0,,,,,39.238918,-77.965302,17.23,32.0,3.0,0.9
320,1146828,1745084873016,0.0,182.38,,0.05,-0.06,0.99,-8.0,1.0,1.0,1.0,1.05,94.0,2821.0,90.5,4.46,,14.34,1.09,91.6,,21.5,5.0,,,,,,,,,,,,0,0,0,0,0,0,0,0,0,0,0,0,0,0,0,0,,,,,0.0,,,,,,
321,1146848,1745084873036,,,,,,,,,,,,,,,,,,,,,,,,,,,,,,,,,,0,0,0,0,0,0,0,0,0,0,0,0,0,0,0,0,,,,,,,,,,,
322,1146868,1745084873056,0.0,182.63,,0.04,-0.12,0.98,-8.0,1.0,1.0,0.99,1.05,94.0,2686.0,90.7,4.37,,14.35,1.084,91.6,,21.5,5.0,,,,,,,,,,,,0,0,0,0,0,0,0,0,0,0,0,0,0,0,0,0,,,,,0.0,,,,,,
323,1146888,1745084873076,,,,,,,,,,,,,,,,,,,,,,,,,,,,,,,,,,0,0,0,0,0,0,0,0,0,0,0,0,0,0,0,0,,,,,,,,,,,
324,1146908,1745084873102,0.0,182.88,,0.02,-0.11,0.95,-8.0,0.0,1.0,0.96,1.05,91.0,2685.0,90.8,4.35,,14.31,1.078,91.6,,21.8,5.0,11.0,0.0,11.0,11.0,0.0,11.0,0.0,0.0,2.26,,,0,0,0,0,0,0,0,0,0,0,0,0,0,0,0,0,2.0,,,,0.0,39.238911,-77.965309,17.85,32.0,3.0,0.9
325,1146928,1745084873122,,,,,,,,,,,,,,,,,,,,,,,,,,,,,,,,,,0,0,0,0,0,0,0,0,0,0,0,0,0,0,0,0,,,,,,,,,,,
326,1146948,1745084873142,0.0,183.13,,0.03,-0.14,1.01,-7.0,0.0,1.0,1.02,1.05,96.0,2736.0,91.0,4.15,,14.31,1.078,91.6,,21.8,5.0,,,,,,,,,,,,0,0,0,0,0,0,0,0,0,0,0,0,0,0,0,0,,,,,0.0,,,,,,
327,1146968,1745084873162,,,,,,,,,,,,,,,,,,,,,,,,,,,,,,,,,,0,0,0,0,0,0,0,0,0,0,0,0,0,0,0,0,,,,,,,,,,,
328,1146988,1745084873182,0.0,183.38,,0.02,-0.13,1.03,-6.0,1.0,1.0,1.03,1.05,98.0,2736.0,91.0,4.15,,14.28,1.068,91.6,,21.9,5.0,,,,,,,,,,,,0,0,0,0,0,0,0,0,0,0,0,0,0,0,0,0,,,,,0.0,,,,,,
329,1147008,1745084873202,,,,,,,,,,,,,,,,,,,,,,,12.0,0.0,12.0,12.0,0.0,42.0,0.0,0.0,2.26,,,0,0,0,0,0,0,0,0,0,0,0,0,0,0,0,0,2.0,,,,,39.238911,-77.965309,17.85,32.0,3.0,0.9
330,1147028,1745084873217,0.0,183.51,,0.02,-0.14,0.95,-6.0,0.0,1.0,0.96,1.05,91.0,2891.0,91.0,4.18,,14.28,1.072,91.6,,21.9,5.0,,,,,,,,,,,,0,0,0,0,0,0,0,0,0,0,0,0,0,0,0,0,,,,,0.0,,,,,,
331,1147048,1745084873237,,,,,,,,,,,,,,,,,,,,,,,,,,,,,,,,,,0,0,0,0,0,0,0,0,0,0,0,0,0,0,0,0,,,,,,,,,,,
332,1147068,1745084873257,0.0,183.63,,0.03,-0.1,0.92,-5.0,0.0,1.0,0.92,1.05,88.0,2897.0,72.2,4.15,,14.3,1.093,91.6,,21.9,5.0,,,,,,,,,,,,0,0,0,0,0,0,0,0,0,0,0,0,0,0,0,0,,,,,0.0,,,,,,
333,1147088,1745084873277,,,,,,,,,,,,,,,,,,,,,,,,,,,,,,,,,,0,0,0,0,0,0,0,0,0,0,0,0,0,0,0,0,,,,,,,,,,,
334,1147108,1745084873301,0.0,183.89,,0.03,-0.15,0.98,-5.0,0.0,0.0,1.0,1.05,94.0,2876.0,67.2,4.14,,14.3,1.126,91.6,,22.5,5.0,12.0,0.0,12.0,12.0,0.0,53.0,0.0,0.0,2.25,,,0,0,0,0,0,0,0,0,0,0,0,0,0,0,0,0,2.0,,,,0.0,39.238907,-77.965309,18.37,32.0,3.0,0.9
335,1147128,1745084873321,,,,,,,,,,,,,,,,,,,,,,,,,,,,,,,,,,0,0,0,0,0,0,0,0,0,0,0,0,0,0,0,0,,,,,,,,,,,
336,1147148,1745084873341,0.0,184.01,,0.03,-0.14,1.06,-5.0,0.0,0.0,1.07,1.07,100.0,2831.0,60.6,4.3,,14.3,1.126,91.6,,22.5,5.0,,,,,,,,,,,,0,0,0,0,0,0,0,0,0,0,0,0,0,0,0,0,,,,,0.0,,,,,,
337,1147168,1745084873361,,,,,,,,,,,,,,,,,,,,,,,,,,,,,,,,,,0,0,0,0,0,0,0,0,0,0,0,0,0,0,0,0,,,,,,,,,,,
338,1147188,1745084873381,0.0,184.14,,0.01,-0.12,1.01,-4.0,0.0,0.0,1.02,1.07,96.0,2831.0,60.6,4.3,,14.31,1.127,91.6,,22.5,5.0,,,,,,,,,,,,0,0,0,0,0,0,0,0,0,0,0,0,0,0,0,0,,,,,0.0,,,,,,
339,1147208,1745084873403,,,,,,,,,,,,,,,,,,,,,,,12.0,0.0,12.0,12.0,0.0,47.0,0.0,0.0,2.26,,,0,0,0,0,0,0,0,0,0,0,0,0,0,0,0,0,2.0,,,,,39.238903,-77.965317,18.77,32.0,3.0,0.9
340,1147228,1745084873423,0.0,184.39,,0.03,-0.06,0.99,-4.0,0.0,1.0,0.99,1.07,93.0,2843.0,60.3,4.28,,14.3,1.149,91.6,,22.5,5.0,,,,,,,,,,,,0,0,0,0,0,0,0,0,0,0,0,0,0,0,0,0,,,,,0.0,,,,,,
341,1147248,1745084873443,,,,,,,,,,,,,,,,,,,,,,,,,,,,,,,,,,0,0,0,0,0,0,0,0,0,0,0,0,0,0,0,0,,,,,,,,,,,
342,1147268,1745084873463,0.0,184.64,,0.06,-0.02,0.93,-4.0,0.0,1.0,0.93,1.07,88.0,2956.0,60.3,4.29,,14.24,1.172,91.6,,22.5,5.0,,,,,,,,,,,,0,0,0,0,0,0,0,0,0,0,0,0,0,0,0,0,,,,,0.0,,,,,,
343,1147288,1745084873483,,,,,,,,,,,,,,,,,,,,,,,,,,,,,,,,,,0,0,0,0,0,0,0,0,0,0,0,0,0,0,0,0,,,,,,,,,,,
344,1147308,1745084873503,0.0,185.02,,0.1,0.09,0.88,-4.0,0.0,1.0,0.89,1.07,83.0,3023.0,60.3,4.28,,14.27,1.178,91.6,,23.1,5.0,12.0,0.0,12.0,12.0,0.0,0.0,0.0,0.0,2.25,,,0,0,0,0,0,0,0,0,0,0,0,0,0,0,0,0,2.0,,,,0.0,39.238899,-77.965324,19.0,32.0,3.0,0.9
345,1147328,1745084873523,,,,,,,,,,,,,,,,,,,,,,,,,,,,,,,,,,0,0,0,0,0,0,0,0,0,0,0,0,0,0,0,0,,,,,,,,,,,
346,1147348,1745084873543,0.0,185.39,,0.1,0.15,0.8,-2.0,0.0,0.0,0.82,1.07,77.0,3048.0,60.3,4.27,,14.27,1.178,91.6,,23.1,5.0,,,,,,,,,,,,0,0,0,0,0,0,0,0,0,0,0,0,0,0,0,0,,,,,0.0,,,,,,
347,1147368,1745084873563,,,,,,,,,,,,,,,,,,,,,,,,,,,,,,,,,,0,0,0,0,0,0,0,0,0,0,0,0,0,0,0,0,,,,,,,,,,,
348,1147388,1745084873583,0.0,185.65,,0.12,0.17,0.76,-2.0,0.0,0.0,0.78,1.07,74.0,3048.0,60.3,4.27,,14.34,1.166,91.6,,24.1,5.0,,,,,,,,,,,,0,0,0,0,0,0,0,0,0,0,0,0,0,0,0,0,,,,,0.0,,,,,,
349,1147408,1745084873603,,,,,,,,,,,,,,,,,,,,,,,13.0,0.0,13.0,12.0,0.0,55.0,0.0,0.0,2.26,,,0,0,0,0,0,0,0,0,0,0,0,0,0,0,0,0,2.0,,,,,39.238895,-77.965324,19.45,32.0,3.0,0.9
350,1147428,1745084873623,0.0,185.9,,0.11,0.26,0.71,0.0,0.0,0.0,0.76,1.07,71.0,2912.0,58.5,4.24,,14.31,1.166,91.6,,24.1,5.0,,,,,,,,,,,,0,0,0,0,0,0,0,0,0,0,0,0,0,0,0,0,,,,,0.0,,,,,,
351,1147448,1745084873643,,,,,,,,,,,,,,,,,,,,,,,,,,,,,,,,,,0,0,0,0,0,0,0,0,0,0,0,0,0,0,0,0,,,,,,,,,,,
352,1147468,1745084873663,0.0,186.15,,0.1,0.31,0.65,1.0,0.0,0.0,0.73,1.07,69.0,2951.0,57.1,4.21,,14.26,1.157,91.6,,24.1,5.0,,,,,,,,,,,,0,0,0,0,0,0,0,0,0,0,0,0,0,0,0,0,,,,,0.0,,,,,,
353,1147488,1745084873683,,,,,,,,,,,,,,,,,,,,,,,,,,,,,,,,,,0,0,0,0,0,0,0,0,0,0,0,0,0,0,0,0,,,,,,,,,,,
354,1147508,1745084873703,0.0,186.27,,0.12,0.32,0.62,2.0,0.0,0.0,0.71,1.07,66.0,3076.0,56.8,4.22,,14.26,1.166,91.6,,24.1,5.0,13.0,0.0,13.0,13.0,0.0,241.0,0.0,0.0,2.26,,,0,0,0,0,0,0,0,0,0,0,0,0,0,0,0,0,2.0,,,,0.0,39.238892,-77.965332,19.71,32.0,3.0,0.9
355,1147528,1745084873723,,,,,,,,,,,,,,,,,,,,,,,,,,,,,,,,,,0,0,0,0,0,0,0,0,0,0,0,0,0,0,0,0,,,,,,,,,,,
356,1147548,1745084873743,0.0,186.53,,0.14,0.38,0.62,2.0,-1.0,0.0,0.75,1.07,70.0,3038.0,56.8,4.19,,14.26,1.166,91.6,,24.1,5.0,,,,,,,,,,,,0,0,0,0,0,0,0,0,0,0,0,0,0,0,0,0,,,,,0.0,,,,,,
357,1147568,1745084873763,,,,,,,,,,,,,,,,,,,,,,,,,,,,,,,,,,0,0,0,0,0,0,0,0,0,0,0,0,0,0,0,0,,,,,,,,,,,
358,1147588,1745084873783,0.0,186.65,,0.16,0.44,0.67,2.0,-1.0,1.0,0.82,0.82,100.0,3038.0,56.8,4.19,,14.34,1.158,91.6,,24.6,5.0,,,,,,,,,,,,0,0,0,0,0,0,0,0,0,0,0,0,0,0,0,0,,,,,0.0,,,,,,
359,1147608,1745084873801,,,,,,,,,,,,,,,,,,,,,,,13.0,0.0,13.0,13.0,0.0,42.0,0.0,0.0,2.26,,,0,0,0,0,0,0,0,0,0,0,0,0,0,0,0,0,2.0,,,,,39.238892,-77.96534,20.13,32.0,3.0,0.9
360,1147628,1745084873821,0.0,186.78,,0.18,0.33,0.8,3.0,-1.0,1.0,0.88,0.88,100.0,3051.0,56.8,4.19,,14.3,1.161,91.6,,24.6,5.0,,,,,,,,,,,,0,0,0,0,0,0,0,0,0,0,0,0,0,0,0,0,,,,,0.0,,,,,,
361,1147648,1745084873841,,,,,,,,,,,,,,,,,,,,,,,,,,,,,,,,,,0,0,0,0,0,0,0,0,0,0,0,0,0,0,0,0,,,,,,,,,,,
362,1147668,1745084873861,0.0,186.78,,0.15,0.19,0.8,4.0,0.0,0.0,0.83,0.88,95.0,3360.0,57.0,4.19,,14.26,1.174,91.6,,24.6,5.0,,,,,,,,,,,,0,0,0,0,0,0,0,0,0,0,0,0,0,0,0,0,,,,,0.0,,,,,,
363,1147688,1745084873881,,,,,,,,,,,,,,,,,,,,,,,,,,,,,,,,,,0,0,0,0,0,0,0,0,0,0,0,0,0,0,0,0,,,,,,,,,,,
364,1147708,1745084873903,0.0,186.78,13.79,0.11,0.23,0.77,4.0,-1.0,0.0,0.81,0.88,92.0,3119.0,57.8,4.21,15.0,14.31,1.182,91.6,155.0,25.6,5.0,14.0,0.0,13.0,13.0,0.0,5.0,0.0,0.0,2.26,0.0,0.0,0,0,0,0,0,0,0,0,0,0,0,0,0,0,0,0,2.0,0.0,0.0,0.0,0.0,39.238888,-77.96534,20.54,32.0,3.0,0.9
365,1147728,1745084873923,,,,,,,,,,,,,,,,,,,,,,,,,,,,,,,,,,0,0,0,0,0,0,0,0,0,0,0,0,0,0,0,0,,,,,,,,,,,
366,1147748,1745084873943,0.0,186.9,,0.1,0.3,0.72,5.0,-1.0,0.0,0.78,0.88,89.0,3089.0,59.5,4.21,,14.31,1.182,91.6,,25.6,5.0,,,,,,,,,,,,0,0,0,0,0,0,0,0,0,0,0,0,0,0,0,0,,,,,0.0,,,,,,
367,1147768,1745084873963,,,,,,,,,,,,,,,,,,,,,,,,,,,,,,,,,,0,0,0,0,0,0,0,0,0,0,0,0,0,0,0,0,,,,,,,,,,,
368,1147788,1745084873983,0.0,186.9,,0.13,0.29,0.79,4.0,-1.0,1.0,0.85,0.88,96.0,3089.0,59.5,4.21,,14.3,1.143,91.6,,25.3,5.0,,,,,,,,,,,,0,0,0,0,0,0,0,0,0,0,0,0,0,0,0,0,,,,,0.0,,,,,,
369,1147808,1745084874003,,,,,,,,,,,,,,,,,,,,,,,13.0,0.0,13.0,14.0,0.0,0.0,0.0,0.0,2.25,,,0,0,0,0,0,0,0,0,0,0,0,0,0,0,0,0,2.0,,,,,39.238888,-77.96534,20.54,32.0,3.0,0.9
370,1147828,1745084874015,0.0,186.9,,0.14,0.19,0.84,5.0,-1.0,0.0,0.87,0.88,99.0,3372.0,58.6,4.18,,14.24,1.12,91.6,,25.3,5.0,,,,,,,,,,,,0,0,0,0,0,0,0,0,0,0,0,0,0,0,0,0,,,,,0.0,,,,,,
371,1147848,1745084874035,,,,,,,,,,,,,,,,,,,,,,,,,,,,,,,,,,0,0,0,0,0,0,0,0,0,0,0,0,0,0,0,0,,,,,,,,,,,
372,1147868,1745084874055,0.0,187.03,,0.14,0.26,0.81,5.0,-1.0,0.0,0.86,0.88,98.0,3294.0,58.6,4.19,,14.27,1.148,91.6,,25.3,5.0,,,,,,,,,,,,0,0,0,0,0,0,0,0,0,0,0,0,0,0,0,0,,,,,0.0,,,,,,
373,1147888,1745084874075,,,,,,,,,,,,,,,,,,,,,,,,,,,,,,,,,,0,0,0,0,0,0,0,0,0,0,0,0,0,0,0,0,,,,,,,,,,,
374,1147908,1745084874101,0.0,187.15,,0.14,0.21,0.86,5.0,-1.0,0.0,0.89,0.89,100.0,3172.0,58.6,4.18,,14.26,1.187,91.6,,26.1,5.0,14.0,0.0,14.0,13.0,0.0,9.0,0.0,0.0,2.26,,,0,0,0,0,0,0,0,0,0,0,0,0,0,0,0,0,2.0,,,,0.0,39.238876,-77.965355,21.19,32.0,3.0,0.9
375,1147928,1745084874121,,,,,,,,,,,,,,,,,,,,,,,,,,,,,,,,,,0,0,0,0,0,0,0,0,0,0,0,0,0,0,0,0,,,,,,,,,,,
376,1147948,1745084874141,0.0,187.28,,0.11,0.12,0.87,7.0,-1.0,-1.0,0.89,0.89,99.0,3347.0,58.5,4.19,,14.26,1.187,91.6,,26.1,5.0,,,,,,,,,,,,0,0,0,0,0,0,0,0,0,0,0,0,0,0,0,0,,,,,0.0,,,,,,
377,1147968,1745084874161,,,,,,,,,,,,,,,,,,,,,,,,,,,,,,,,,,0,0,0,0,0,0,0,0,0,0,0,0,0,0,0,0,,,,,,,,,,,
378,1147988,1745084874181,0.0,187.66,,0.13,0.24,0.83,8.0,-1.0,-1.0,0.88,0.89,98.0,3347.0,58.5,4.19,,14.24,1.192,91.6,,26.9,5.0,,,,,,,,,,,,0,0,0,0,0,0,0,0,0,0,0,0,0,0,0,0,,,,,0.0,,,,,,
379,1148008,1745084874201,,,,,,,,,,,,,,,,,,,,,,,14.0,0.0,14.0,14.0,0.0,252.0,0.0,0.0,2.26,,,0,0,0,0,0,0,0,0,0,0,0,0,0,0,0,0,2.0,,,,,39.238873,-77.965355,21.49,32.0,3.0,0.9
