,Interval,Utc,FrontBP,SteerAng,Battery,AccelX,AccelY,AccelZ,Yaw,Pitch,Roll,Gsum,GsumMax,GsumPct,RPM,TPS,InjectorPW,Baro,MAP,Lambda,IAT,EngineTemp,EOP,EOT,WSFR,WSFL,WSRR,WSRL,TCSet,TCSlip,TCComp,TCCut,Analog8,OilTemp,AA_On,ThermLF1,ThermLF2,ThermRR1,ThermRR2,ThermLF3,ThermLF4,ThermLF5,ThermLF6,ThermLF7,ThermLF8,ThermRR3,ThermRR4,ThermRR5,ThermRR6,ThermRR7,ThermRR8,Gear,AA_On1,AA_LowDrag,Fuel_Mix,AA_Packages,Latitude,Longitude,Speed,GPSSats,GPSQual,GPSDOP
0,801953,1745090965636,,,,,,,,,,,,,,,,,,,,,,,,,,,,,,,,,,0,0,0,0,0,0,0,0,0,0,0,0,0,0,0,0,,,,,,,,,,,
1,801973,1745090965656,0.0,202.99,,-0.09,-0.0,0.96,0.0,0.0,0.0,0.96,0.96,100.0,8726.0,57.8,5.66,,13.29,1.085,98.8,,65.5,5.0,,,,,,,,,,,,0,0,0,0,0,0,0,0,0,0,0,0,0,0,0,0,,,,,0.0,,,,,,
2,801993,1745090965676,,,,,,,,,,,,,,,,,,,,,,,,,,,,,,,,,,0,0,0,0,0,0,0,0,0,0,0,0,0,0,0,0,,,,,,,,,,,
3,802013,1745090965696,0.0,202.99,,-0.05,-0.4,0.96,1.0,0.0,0.0,1.04,1.04,100.0,10354.0,51.0,5.04,,12.83,1.017,98.8,,65.5,5.0,,,,,,,,,,,,0,0,0,0,0,0,0,0,0,0,0,0,0,0,0,0,,,,,0.0,,,,,,
4,802033,1745090965718,,,,,,,,,,,,,,,,,,,,,,,0.0,0.0,0.0,0.0,0.0,0.0,0.0,0.0,2.27,,,0,0,0,0,0,0,0,0,0,0,0,0,0,0,0,0,0.0,,,,,39.240097,-77.964836,0.2,31.0,3.0,0.9
5,802053,1745090965738,0.0,202.99,,-0.02,-0.15,0.95,1.0,0.0,-1.0,0.96,1.04,93.0,11783.0,11.2,4.55,,9.86,0.996,98.8,,70.8,5.0,,,,,,,,,,,,0,0,0,0,0,0,0,0,0,0,0,0,0,0,0,0,,,,,0.0,,,,,,
6,802073,1745090965758,,,,,,,,,,,,,,,,,,,,,,,,,,,,,,,,,,0,0,0,0,0,0,0,0,0,0,0,0,0,0,0,0,,,,,,,,,,,
7,802093,1745090965778,0.0,202.99,,-0.04,-0.1,0.98,0.0,0.0,0.0,0.98,1.04,94.0,12188.0,3.0,1.98,,9.86,0.996,98.8,,70.8,5.0,,,,,,,,,,,,0,0,0,0,0,0,0,0,0,0,0,0,0,0,0,0,,,,,0.0,,,,,,
8,802113,1745090965798,,,,,,,,,,,,,,,,,,,,,,,,,,,,,,,,,,0,0,0,0,0,0,0,0,0,0,0,0,0,0,0,0,,,,,,,,,,,
9,802133,1745090965816,0.0,202.74,,-0.07,-0.13,0.95,1.0,0.0,0.0,0.96,1.04,92.0,12188.0,3.0,1.98,,7.27,0.979,98.8,,72.1,5.0,0.0,0.0,0.0,0.0,0.0,0.0,0.0,0.0,2.27,,,0,0,0,0,0,0,0,0,0,0,0,0,0,0,0,0,0.0,,,,0.0,39.240097,-77.964836,0.41,31.0,3.0,0.9
10,802153,1745090965836,,,,,,,,,,,,,,,,,,,,,,,,,,,,,,,,,,0,0,0,0,0,0,0,0,0,0,0,0,0,0,0,0,,,,,,,,,,,
11,802173,1745090965856,0.0,202.74,,-0.06,-0.15,0.86,2.0,-1.0,0.0,0.87,1.04,84.0,12149.0,4.6,1.72,,6.19,0.936,98.8,,72.1,5.0,,,,,,,,,,,,0,0,0,0,0,0,0,0,0,0,0,0,0,0,0,0,,,,,0.0,,,,,,
12,802193,1745090965876,,,,,,,,,,,,,,,,,,,,,,,,,,,,,,,,,,0,0,0,0,0,0,0,0,0,0,0,0,0,0,0,0,,,,,,,,,,,
13,802213,1745090965896,0.0,202.74,,-0.06,-0.22,0.78,3.0,-1.0,-1.0,0.81,1.04,78.0,11848.0,35.5,2.05,,7.99,0.942,98.8,,72.1,5.0,,,,,,,,,,,,0,0,0,0,0,0,0,0,0,0,0,0,0,0,0,0,,,,,0.0,,,,,,
14,802233,1745090965918,,,,,,,,,,,,,,,,,,,,,,,0.0,0.0,0.0,0.0,0.0,0.0,0.0,0.0,2.26,,,0,0,0,0,0,0,0,0,0,0,0,0,0,0,0,0,0.0,,,,,39.240097,-77.964836,0.32,31.0,3.0,0.9
15,802253,1745090965938,0.0,202.74,,-0.06,-0.17,0.84,2.0,-1.0,-1.0,0.86,1.04,82.0,11383.0,48.8,2.62,,10.1,1.025,98.8,,70.1,5.0,,,,,,,,,,,,0,0,0,0,0,0,0,0,0,0,0,0,0,0,0,0,,,,,0.0,,,,,,
16,802273,1745090965958,,,,,,,,,,,,,,,,,,,,,,,,,,,,,,,,,,0,0,0,0,0,0,0,0,0,0,0,0,0,0,0,0,,,,,,,,,,,
17,802293,1745090965978,0.0,202.61,,-0.06,-0.1,0.86,1.0,-1.0,-1.0,0.86,1.04,83.0,10853.0,50.3,3.97,,10.1,1.025,98.8,,70.1,5.0,,,,,,,,,,,,0,0,0,0,0,0,0,0,0,0,0,0,0,0,0,0,,,,,0.0,,,,,,
18,802313,1745090965998,,,,,,,,,,,,,,,,,,,,,,,,,,,,,,,,,,0,0,0,0,0,0,0,0,0,0,0,0,0,0,0,0,,,,,,,,,,,
19,802333,1745090966010,0.0,202.49,,-0.02,-0.47,0.93,1.0,-1.0,-1.0,1.04,1.04,100.0,10853.0,50.3,3.97,,11.96,1.225,98.8,,67.6,5.0,0.0,0.0,0.0,0.0,0.0,0.0,0.0,0.0,2.27,,,0,0,0,0,0,0,0,0,0,0,0,0,0,0,0,0,0.0,,,,0.0,39.240097,-77.964836,0.18,33.0,3.0,0.8
20,802353,1745090966030,,,,,,,,,,,,,,,,,,,,,,,,,,,,,,,,,,0,0,0,0,0,0,0,0,0,0,0,0,0,0,0,0,,,,,,,,,,,
21,802373,1745090966050,0.0,202.49,,-0.05,-0.54,0.91,2.0,-1.0,-1.0,1.05,1.05,100.0,10585.0,24.8,4.49,,10.93,1.252,98.8,,67.6,5.0,,,,,,,,,,,,0,0,0,0,0,0,0,0,0,0,0,0,0,0,0,0,,,,,0.0,,,,,,
22,802393,1745090966070,,,,,,,,,,,,,,,,,,,,,,,,,,,,,,,,,,0,0,0,0,0,0,0,0,0,0,0,0,0,0,0,0,,,,,,,,,,,
23,802413,1745090966090,0.0,202.61,,-0.04,-0.39,1.02,1.0,-1.0,-1.0,1.09,1.09,100.0,11395.0,1.8,1.4,,8.09,1.254,98.8,,67.6,5.0,,,,,,,,,,,,0,0,0,0,0,0,0,0,0,0,0,0,0,0,0,0,,,,,0.0,,,,,,
24,802433,1745090966108,,,,,,,,,,,,,,,,,,,,,,,0.0,0.0,0.0,0.0,0.0,0.0,0.0,0.0,2.27,,,0,0,0,0,0,0,0,0,0,0,0,0,0,0,0,0,0.0,,,,,39.240097,-77.964836,0.04,33.0,3.0,0.8
25,802453,1745090966128,0.0,202.49,,-0.04,-0.41,0.96,2.0,-1.0,-1.0,1.05,1.09,96.0,10989.0,0.9,1.4,,6.26,1.246,98.8,,70.3,5.0,,,,,,,,,,,,0,0,0,0,0,0,0,0,0,0,0,0,0,0,0,0,,,,,0.0,,,,,,
26,802473,1745090966148,,,,,,,,,,,,,,,,,,,,,,,,,,,,,,,,,,0,0,0,0,0,0,0,0,0,0,0,0,0,0,0,0,,,,,,,,,,,
27,802493,1745090966168,0.0,202.49,,-0.06,-0.16,0.9,1.0,-1.0,0.0,0.92,1.09,84.0,10416.0,15.3,2.09,,6.26,1.246,98.8,,70.3,5.0,,,,,,,,,,,,0,0,0,0,0,0,0,0,0,0,0,0,0,0,0,0,,,,,0.0,,,,,,
28,802513,1745090966188,,,,,,,,,,,,,,,,,,,,,,,,,,,,,,,,,,0,0,0,0,0,0,0,0,0,0,0,0,0,0,0,0,,,,,,,,,,,
29,802533,1745090966216,0.0,202.36,,-0.08,-0.1,0.95,1.0,-1.0,-1.0,0.96,1.09,88.0,10416.0,15.3,2.09,,6.62,1.175,98.8,,68.8,5.0,0.0,0.0,0.0,0.0,0.0,0.0,0.0,0.0,2.26,,,0,0,0,0,0,0,0,0,0,0,0,0,0,0,0,0,0.0,,,,0.0,39.240097,-77.964836,0.54,33.0,3.0,0.8
30,802553,1745090966236,,,,,,,,,,,,,,,,,,,,,,,,,,,,,,,,,,0,0,0,0,0,0,0,0,0,0,0,0,0,0,0,0,,,,,,,,,,,
31,802573,1745090966256,0.0,202.36,,-0.09,-0.08,0.88,2.0,-1.0,-1.0,0.89,1.09,82.0,10022.0,34.4,2.79,,8.89,1.253,98.8,,68.8,5.0,,,,,,,,,,,,0,0,0,0,0,0,0,0,0,0,0,0,0,0,0,0,,,,,0.0,,,,,,
32,802593,1745090966276,,,,,,,,,,,,,,,,,,,,,,,,,,,,,,,,,,0,0,0,0,0,0,0,0,0,0,0,0,0,0,0,0,,,,,,,,,,,
33,802613,1745090966296,0.0,202.24,,-0.1,-0.0,0.9,1.0,0.0,-1.0,0.91,1.09,83.0,9702.0,38.3,3.57,,10.56,1.252,98.8,,68.8,5.0,,,,,,,,,,,,0,0,0,0,0,0,0,0,0,0,0,0,0,0,0,0,,,,,0.0,,,,,,
34,802633,1745090966316,,,,,,,,,,,,,,,,,,,,,,,0.0,0.0,0.0,0.0,0.0,0.0,0.0,0.0,2.27,,,0,0,0,0,0,0,0,0,0,0,0,0,0,0,0,0,0.0,,,,,39.240097,-77.964836,0.21,33.0,3.0,0.8
35,802653,1745090966336,0.0,202.24,,-0.07,0.01,0.88,1.0,-1.0,-1.0,0.88,1.09,81.0,9477.0,38.8,4.86,,11.32,1.252,98.8,,66.3,5.0,,,,,,,,,,,,0,0,0,0,0,0,0,0,0,0,0,0,0,0,0,0,,,,,0.0,,,,,,
36,802673,1745090966356,,,,,,,,,,,,,,,,,,,,,,,,,,,,,,,,,,0,0,0,0,0,0,0,0,0,0,0,0,0,0,0,0,,,,,,,,,,,
37,802693,1745090966376,0.0,202.11,,-0.08,-0.07,0.9,1.0,-1.0,0.0,0.91,1.09,83.0,10155.0,16.3,4.07,,11.32,1.252,98.8,,66.3,5.0,,,,,,,,,,,,0,0,0,0,0,0,0,0,0,0,0,0,0,0,0,0,,,,,0.0,,,,,,
38,802713,1745090966396,,,,,,,,,,,,,,,,,,,,,,,,,,,,,,,,,,0,0,0,0,0,0,0,0,0,0,0,0,0,0,0,0,,,,,,,,,,,
39,802733,1745090966415,0.0,202.11,12.36,-0.11,-0.28,0.95,2.0,0.0,0.0,1.0,1.09,92.0,10155.0,16.3,4.07,15.0,9.9,1.251,98.8,153.0,69.6,5.0,0.0,0.0,0.0,0.0,0.0,0.0,0.0,0.0,2.27,0.0,0.0,0,0,0,0,0,0,0,0,0,0,0,0,0,0,0,0,0.0,0.0,0.0,0.0,0.0,39.240097,-77.964836,0.09,33.0,3.0,0.8
40,802753,1745090966435,,,,,,,,,,,,,,,,,,,,,,,,,,,,,,,,,,0,0,0,0,0,0,0,0,0,0,0,0,0,0,0,0,,,,,,,,,,,
41,802773,1745090966455,0.0,201.99,,-0.07,-0.23,1.02,2.0,0.0,-1.0,1.05,1.09,96.0,10927.0,10.0,2.41,,8.26,1.251,98.8,,69.6,5.0,,,,,,,,,,,,0,0,0,0,0,0,0,0,0,0,0,0,0,0,0,0,,,,,0.0,,,,,,
42,802793,1745090966475,,,,,,,,,,,,,,,,,,,,,,,,,,,,,,,,,,0,0,0,0,0,0,0,0,0,0,0,0,0,0,0,0,,,,,,,,,,,
43,802813,1745090966495,0.0,201.99,,-0.08,-0.16,0.96,3.0,0.0,-1.0,0.97,1.09,89.0,10885.0,24.6,2.9,,8.33,1.146,98.8,,69.6,5.0,,,,,,,,,,,,0,0,0,0,0,0,0,0,0,0,0,0,0,0,0,0,,,,,0.0,,,,,,
44,802833,1745090966517,,,,,,,,,,,,,,,,,,,,,,,0.0,0.0,0.0,0.0,0.0,0.0,0.0,0.0,2.26,,,0,0,0,0,0,0,0,0,0,0,0,0,0,0,0,0,0.0,,,,,39.240097,-77.964836,0.13,33.0,3.0,0.8
45,802853,1745090966537,0.0,201.99,,-0.11,-0.02,0.98,1.0,0.0,-1.0,0.98,1.09,90.0,10580.0,45.8,3.04,,10.22,1.13,98.8,,69.0,5.0,,,,,,,,,,,,0,0,0,0,0,0,0,0,0,0,0,0,0,0,0,0,,,,,0.0,,,,,,
46,802873,1745090966557,,,,,,,,,,,,,,,,,,,,,,,,,,,,,,,,,,0,0,0,0,0,0,0,0,0,0,0,0,0,0,0,0,,,,,,,,,,,
47,802893,1745090966577,0.0,201.99,,-0.15,-0.04,0.97,2.0,0.0,0.0,0.98,1.09,90.0,9991.0,51.0,4.97,,10.22,1.13,98.8,,69.0,5.0,,,,,,,,,,,,0,0,0,0,0,0,0,0,0,0,0,0,0,0,0,0,,,,,0.0,,,,,,
48,802913,1745090966597,,,,,,,,,,,,,,,,,,,,,,,,,,,,,,,,,,0,0,0,0,0,0,0,0,0,0,0,0,0,0,0,0,,,,,,,,,,,
49,802933,1745090966617,0.0,201.86,,-0.13,0.07,0.91,2.0,-1.0,-1.0,0.93,1.09,85.0,9991.0,51.0,4.97,,12.05,1.248,98.8,,66.9,5.0,0.0,0.0,0.0,0.0,0.0,0.0,0.0,0.0,2.26,,,0,0,0,0,0,0,0,0,0,0,0,0,0,0,0,0,0.0,,,,0.0,39.240097,-77.964836,0.0,33.0,3.0,0.8
50,802953,1745090966637,,,,,,,,,,,,,,,,,,,,,,,,,,,,,,,,,,0,0,0,0,0,0,0,0,0,0,0,0,0,0,0,0,,,,,,,,,,,
51,802973,1745090966657,0.0,201.99,,-0.16,0.24,0.88,1.0,0.0,0.0,0.93,1.09,85.0,10250.0,49.4,4.93,,12.25,1.254,98.8,,66.9,5.0,,,,,,,,,,,,0,0,0,0,0,0,0,0,0,0,0,0,0,0,0,0,,,,,0.0,,,,,,
52,802993,1745090966677,,,,,,,,,,,,,,,,,,,,,,,,,,,,,,,,,,0,0,0,0,0,0,0,0,0,0,0,0,0,0,0,0,,,,,,,,,,,
53,803013,1745090966697,0.0,201.99,,-0.14,0.25,1.02,1.0,0.0,0.0,1.06,1.09,97.0,11369.0,13.5,3.18,,10.08,1.253,98.8,,66.9,5.0,,,,,,,,,,,,0,0,0,0,0,0,0,0,0,0,0,0,0,0,0,0,,,,,0.0,,,,,,
54,803033,1745090966717,,,,,,,,,,,,,,,,,,,,,,,0.0,0.0,0.0,0.0,0.0,0.0,0.0,0.0,2.27,,,0,0,0,0,0,0,0,0,0,0,0,0,0,0,0,0,0.0,,,,,39.240097,-77.964836,0.08,33.0,3.0,0.8
55,803053,1745090966737,0.0,201.99,,-0.1,0.29,1.02,0.0,0.0,0.0,1.06,1.09,97.0,11876.0,2.6,1.66,,7.27,1.217,98.8,,71.9,5.0,,,,,,,,,,,,0,0,0,0,0,0,0,0,0,0,0,0,0,0,0,0,,,,,0.0,,,,,,
56,803073,1745090966757,,,,,,,,,,,,,,,,,,,,,,,,,,,,,,,,,,0,0,0,0,0,0,0,0,0,0,0,0,0,0,0,0,,,,,,,,,,,
57,803093,1745090966777,0.0,201.86,,-0.04,0.22,0.97,0.0,0.0,1.0,1.0,1.09,91.0,11435.0,7.3,1.68,,7.27,1.217,98.8,,71.9,5.0,,,,,,,,,,,,0,0,0,0,0,0,0,0,0,0,0,0,0,0,0,0,,,,,0.0,,,,,,
58,803113,1745090966797,,,,,,,,,,,,,,,,,,,,,,,,,,,,,,,,,,0,0,0,0,0,0,0,0,0,0,0,0,0,0,0,0,,,,,,,,,,,
59,803133,1745090966817,0.0,201.86,,-0.05,0.2,0.89,0.0,0.0,0.0,0.91,1.09,84.0,11435.0,7.3,1.68,,6.23,1.066,98.8,,68.7,5.0,0.0,0.0,0.0,0.0,0.0,0.0,0.0,0.0,2.27,,,0,0,0,0,0,0,0,0,0,0,0,0,0,0,0,0,0.0,,,,0.0,39.240097,-77.964836,0.04,33.0,3.0,0.8
60,803153,1745090966837,,,,,,,,,,,,,,,,,,,,,,,,,,,,,,,,,,0,0,0,0,0,0,0,0,0,0,0,0,0,0,0,0,,,,,,,,,,,
61,803173,1745090966857,0.0,201.86,,-0.08,0.12,0.96,0.0,0.0,0.0,0.97,1.09,89.0,10946.0,30.5,2.38,,8.31,1.142,98.8,,68.7,5.0,,,,,,,,,,,,0,0,0,0,0,0,0,0,0,0,0,0,0,0,0,0,,,,,0.0,,,,,,
62,803193,1745090966877,,,,,,,,,,,,,,,,,,,,,,,,,,,,,,,,,,0,0,0,0,0,0,0,0,0,0,0,0,0,0,0,0,,,,,,,,,,,
63,803213,1745090966897,0.0,201.86,,-0.08,-0.01,0.99,1.0,-1.0,0.0,0.99,1.09,91.0,10402.0,42.2,3.12,,10.3,1.252,98.8,,68.7,5.0,,,,,,,,,,,,0,0,0,0,0,0,0,0,0,0,0,0,0,0,0,0,,,,,0.0,,,,,,
64,803233,1745090966917,,,,,,,,,,,,,,,,,,,,,,,0.0,0.0,0.0,0.0,0.0,0.0,0.0,0.0,2.27,,,0,0,0,0,0,0,0,0,0,0,0,0,0,0,0,0,0.0,,,,,39.240097,-77.964836,0.11,33.0,3.0,0.8
65,803253,1745090966937,0.0,201.86,,-0.08,-0.02,1.0,2.0,-1.0,-1.0,1.0,1.09,92.0,9757.0,43.8,4.84,,11.56,1.252,98.8,,67.3,5.0,,,,,,,,,,,,0,0,0,0,0,0,0,0,0,0,0,0,0,0,0,0,,,,,0.0,,,,,,
66,803273,1745090966957,,,,,,,,,,,,,,,,,,,,,,,,,,,,,,,,,,0,0,0,0,0,0,0,0,0,0,0,0,0,0,0,0,,,,,,,,,,,
67,803293,1745090966977,0.0,201.86,,-0.07,-0.1,0.89,1.0,-1.0,-1.0,0.9,1.09,83.0,10197.0,28.7,2.35,,11.56,1.252,98.8,,67.3,5.0,,,,,,,,,,,,0,0,0,0,0,0,0,0,0,0,0,0,0,0,0,0,,,,,0.0,,,,,,
68,803313,1745090966997,,,,,,,,,,,,,,,,,,,,,,,,,,,,,,,,,,0,0,0,0,0,0,0,0,0,0,0,0,0,0,0,0,,,,,,,,,,,
69,803333,1745090967009,0.0,201.73,,-0.1,-0.05,0.92,2.0,-1.0,0.0,0.93,1.09,85.0,10197.0,28.7,2.35,,11.09,1.252,98.8,,67.3,5.0,0.0,0.0,0.0,0.0,0.0,0.0,0.0,0.0,2.26,,,0,0,0,0,0,0,0,0,0,0,0,0,0,0,0,0,0.0,,,,0.0,39.240097,-77.964836,0.08,33.0,3.0,0.8
70,803353,1745090967029,,,,,,,,,,,,,,,,,,,,,,,,,,,,,,,,,,0,0,0,0,0,0,0,0,0,0,0,0,0,0,0,0,,,,,,,,,,,
71,803373,1745090967049,0.0,201.73,,-0.12,-0.12,0.95,2.0,-1.0,-1.0,0.97,1.09,89.0,9946.0,3.5,2.55,,8.49,1.254,98.8,,67.3,5.0,,,,,,,,,,,,0,0,0,0,0,0,0,0,0,0,0,0,0,0,0,0,,,,,0.0,,,,,,
72,803393,1745090967069,,,,,,,,,,,,,,,,,,,,,,,,,,,,,,,,,,0,0,0,0,0,0,0,0,0,0,0,0,0,0,0,0,,,,,,,,,,,
73,803413,1745090967089,0.0,201.73,,-0.07,-0.03,0.93,1.0,-1.0,-1.0,0.93,1.09,86.0,9533.0,0.8,1.4,,6.92,1.255,98.8,,67.3,5.0,,,,,,,,,,,,0,0,0,0,0,0,0,0,0,0,0,0,0,0,0,0,,,,,0.0,,,,,,
74,803433,1745090967115,,,,,,,,,,,,,,,,,,,,,,,0.0,0.0,0.0,0.0,0.0,0.0,0.0,0.0,2.27,,,0,0,0,0,0,0,0,0,0,0,0,0,0,0,0,0,0.0,,,,,39.240097,-77.964836,0.04,33.0,3.0,0.8
75,803453,1745090967135,0.0,201.73,,-0.07,0.01,0.93,1.0,-1.0,-1.0,0.93,1.09,85.0,8866.0,8.7,2.22,,6.56,1.254,98.8,,65.2,5.0,,,,,,,,,,,,0,0,0,0,0,0,0,0,0,0,0,0,0,0,0,0,,,,,0.0,,,,,,
76,803473,1745090967155,,,,,,,,,,,,,,,,,,,,,,,,,,,,,,,,,,0,0,0,0,0,0,0,0,0,0,0,0,0,0,0,0,,,,,,,,,,,
77,803493,1745090967175,0.0,201.61,,-0.02,-0.03,0.94,1.0,0.0,-1.0,0.94,1.09,86.0,8419.0,28.5,3.09,,6.56,1.254,98.8,,65.2,5.0,,,,,,,,,,,,0,0,0,0,0,0,0,0,0,0,0,0,0,0,0,0,,,,,0.0,,,,,,
78,803513,1745090967195,,,,,,,,,,,,,,,,,,,,,,,,,,,,,,,,,,0,0,0,0,0,0,0,0,0,0,0,0,0,0,0,0,,,,,,,,,,,
79,803533,1745090967215,0.0,201.48,,-0.05,-0.05,0.95,1.0,0.0,-1.0,0.96,1.09,88.0,8419.0,28.5,3.09,,8.61,1.253,98.8,,63.8,5.0,0.0,0.0,0.0,0.0,0.0,0.0,0.0,0.0,2.27,,,0,0,0,0,0,0,0,0,0,0,0,0,0,0,0,0,0.0,,,,0.0,39.240097,-77.964836,0.04,33.0,3.0,0.8
80,803553,1745090967235,,,,,,,,,,,,,,,,,,,,,,,,,,,,,,,,,,0,0,0,0,0,0,0,0,0,0,0,0,0,0,0,0,,,,,,,,,,,
81,803573,1745090967255,0.0,201.36,,-0.03,-0.01,0.96,1.0,0.0,-1.0,0.96,1.09,88.0,8265.0,38.6,4.23,,11.12,1.252,98.8,,63.8,5.0,,,,,,,,,,,,0,0,0,0,0,0,0,0,0,0,0,0,0,0,0,0,,,,,0.0,,,,,,
82,803593,1745090967275,,,,,,,,,,,,,,,,,,,,,,,,,,,,,,,,,,0,0,0,0,0,0,0,0,0,0,0,0,0,0,0,0,,,,,,,,,,,
83,803613,1745090967295,0.0,201.23,,-0.07,0.08,0.87,1.0,-1.0,-1.0,0.88,1.09,80.0,8519.0,40.2,5.55,,12.2,1.252,98.8,,63.8,5.0,,,,,,,,,,,,0,0,0,0,0,0,0,0,0,0,0,0,0,0,0,0,,,,,0.0,,,,,,
84,803633,1745090967315,,,,,,,,,,,,,,,,,,,,,,,0.0,0.0,0.0,0.0,0.0,0.0,0.0,0.0,2.26,,,0,0,0,0,0,0,0,0,0,0,0,0,0,0,0,0,0.0,,,,,39.240097,-77.964836,0.0,33.0,3.0,0.8
85,803653,1745090967335,0.0,200.98,,-0.06,0.16,0.92,1.0,0.0,0.0,0.94,1.09,86.0,9445.0,40.6,5.18,,11.89,1.252,98.8,,65.5,5.0,,,,,,,,,,,,0,0,0,0,0,0,0,0,0,0,0,0,0,0,0,0,,,,,0.0,,,,,,
86,803673,1745090967355,,,,,,,,,,,,,,,,,,,,,,,,,,,,,,,,,,0,0,0,0,0,0,0,0,0,0,0,0,0,0,0,0,,,,,,,,,,,
87,803693,1745090967375,0.0,200.85,,-0.07,-0.24,1.05,1.0,0.0,-1.0,1.08,1.09,99.0,10531.0,40.6,4.93,,11.89,1.252,98.8,,65.5,5.0,,,,,,,,,,,,0,0,0,0,0,0,0,0,0,0,0,0,0,0,0,0,,,,,0.0,,,,,,
88,803713,1745090967395,,,,,,,,,,,,,,,,,,,,,,,,,,,,,,,,,,0,0,0,0,0,0,0,0,0,0,0,0,0,0,0,0,,,,,,,,,,,
89,803733,1745090967416,0.0,200.85,12.36,-0.05,-0.3,1.01,1.0,0.0,-1.0,1.05,1.09,96.0,10531.0,40.6,4.93,15.0,11.77,1.248,98.8,151.0,68.7,5.0,0.0,0.0,0.0,0.0,0.0,0.0,0.0,0.0,2.26,0.0,0.0,0,0,0,0,0,0,0,0,0,0,0,0,0,0,0,0,0.0,0.0,0.0,0.0,0.0,39.240097,-77.964836,0.04,33.0,3.0,0.8
90,803753,1745090967436,,,,,,,,,,,,,,,,,,,,,,,,,,,,,,,,,,0,0,0,0,0,0,0,0,0,0,0,0,0,0,0,0,,,,,,,,,,,
91,803773,1745090967456,0.0,200.73,,-0.05,-0.08,0.99,0.0,0.0,-1.0,0.99,1.09,91.0,11658.0,28.4,3.97,,10.72,1.147,98.8,,68.7,5.0,,,,,,,,,,,,0,0,0,0,0,0,0,0,0,0,0,0,0,0,0,0,,,,,0.0,,,,,,
92,803793,1745090967476,,,,,,,,,,,,,,,,,,,,,,,,,,,,,,,,,,0,0,0,0,0,0,0,0,0,0,0,0,0,0,0,0,,,,,,,,,,,
93,803813,1745090967496,0.0,200.73,,-0.12,-0.04,0.9,1.0,0.0,-1.0,0.91,1.09,83.0,12379.0,11.3,2.85,,8.41,1.071,98.8,,68.7,5.0,,,,,,,,,,,,0,0,0,0,0,0,0,0,0,0,0,0,0,0,0,0,,,,,0.0,,,,,,
94,803833,1745090967516,,,,,,,,,,,,,,,,,,,,,,,0.0,0.0,0.0,0.0,0.0,0.0,0.0,0.0,2.26,,,0,0,0,0,0,0,0,0,0,0,0,0,0,0,0,0,0.0,,,,,39.240097,-77.964836,0.04,33.0,3.0,0.8
95,803853,1745090967536,0.0,200.73,,-0.07,-0.09,0.94,1.0,0.0,-1.0,0.94,1.09,87.0,12566.0,4.9,1.97,,6.74,1.012,98.8,,71.7,5.0,,,,,,,,,,,,0,0,0,0,0,0,0,0,0,0,0,0,0,0,0,0,,,,,0.0,,,,,,
96,803873,1745090967556,,,,,,,,,,,,,,,,,,,,,,,,,,,,,,,,,,0,0,0,0,0,0,0,0,0,0,0,0,0,0,0,0,,,,,,,,,,,
97,803893,1745090967576,0.0,200.85,,-0.03,-0.04,0.99,1.0,0.0,-1.0,0.99,1.09,91.0,12352.0,2.8,1.4,,6.74,1.012,98.8,,71.7,5.0,,,,,,,,,,,,0,0,0,0,0,0,0,0,0,0,0,0,0,0,0,0,,,,,0.0,,,,,,
98,803913,1745090967596,,,,,,,,,,,,,,,,,,,,,,,,,,,,,,,,,,0,0,0,0,0,0,0,0,0,0,0,0,0,0,0,0,,,,,,,,,,,
99,803933,1745090967616,0.0,200.98,,-0.05,0.02,1.24,1.0,0.0,0.0,1.24,1.24,100.0,12352.0,2.8,1.4,,5.71,0.993,98.8,,68.8,5.0,0.0,0.0,0.0,0.0,0.0,0.0,0.0,0.0,2.27,,,0,0,0,0,0,0,0,0,0,0,0,0,0,0,0,0,0.0,,,,0.0,39.240097,-77.964836,0.0,33.0,3.0,0.8
100,803953,1745090967636,,,,,,,,,,,,,,,,,,,,,,,,,,,,,,,,,,0,0,0,0,0,0,0,0,0,0,0,0,0,0,0,0,,,,,,,,,,,
101,803973,1745090967656,0.0,200.98,,0.0,0.1,1.22,1.0,0.0,0.0,1.22,1.24,99.0,11860.0,1.1,1.4,,5.08,1.012,97.0,,68.8,5.0,,,,,,,,,,,,0,0,0,0,0,0,0,0,0,0,0,0,0,0,0,0,,,,,0.0,,,,,,
102,803993,1745090967676,,,,,,,,,,,,,,,,,,,,,,,,,,,,,,,,,,0,0,0,0,0,0,0,0,0,0,0,0,0,0,0,0,,,,,,,,,,,
103,804013,1745090967696,0.0,201.11,,0.0,0.01,1.15,2.0,0.0,0.0,1.15,1.24,93.0,11289.0,1.1,1.4,,4.72,1.115,97.0,,68.8,5.0,,,,,,,,,,,,0,0,0,0,0,0,0,0,0,0,0,0,0,0,0,0,,,,,0.0,,,,,,
104,804033,1745090967716,,,,,,,,,,,,,,,,,,,,,,,0.0,0.0,0.0,0.0,0.0,0.0,0.0,0.0,2.27,,,0,0,0,0,0,0,0,0,0,0,0,0,0,0,0,0,0.0,,,,,39.240097,-77.964836,0.11,33.0,3.0,0.8
105,804053,1745090967736,0.0,201.23,,0.03,0.04,1.08,0.0,0.0,0.0,1.08,1.24,87.0,10744.0,1.1,1.4,,4.77,1.209,97.0,,69.0,5.0,,,,,,,,,,,,0,0,0,0,0,0,0,0,0,0,0,0,0,0,0,0,,,,,0.0,,,,,,
106,804073,1745090967756,,,,,,,,,,,,,,,,,,,,,,,,,,,,,,,,,,0,0,0,0,0,0,0,0,0,0,0,0,0,0,0,0,,,,,,,,,,,
107,804093,1745090967776,0.0,201.23,,0.05,0.06,1.07,0.0,0.0,0.0,1.07,1.24,87.0,10187.0,1.0,1.4,,4.77,1.209,97.0,,69.0,5.0,,,,,,,,,,,,0,0,0,0,0,0,0,0,0,0,0,0,0,0,0,0,,,,,0.0,,,,,,
108,804113,1745090967796,,,,,,,,,,,,,,,,,,,,,,,,,,,,,,,,,,0,0,0,0,0,0,0,0,0,0,0,0,0,0,0,0,,,,,,,,,,,
109,804133,1745090967816,0.0,201.36,,0.08,0.22,1.1,1.0,0.0,0.0,1.12,1.24,91.0,10187.0,1.0,1.4,,4.55,1.252,97.0,,66.7,5.0,0.0,0.0,0.0,0.0,0.0,0.0,0.0,0.0,2.27,,,0,0,0,0,0,0,0,0,0,0,0,0,0,0,0,0,0.0,,,,0.0,39.240097,-77.964836,0.04,33.0,3.0,0.8
110,804153,1745090967836,,,,,,,,,,,,,,,,,,,,,,,,,,,,,,,,,,0,0,0,0,0,0,0,0,0,0,0,0,0,0,0,0,,,,,,,,,,,
111,804173,1745090967856,0.0,201.48,,0.04,0.29,1.04,1.0,0.0,0.0,1.08,1.24,87.0,9685.0,1.0,1.4,,4.52,1.253,97.0,,66.7,5.0,,,,,,,,,,,,0,0,0,0,0,0,0,0,0,0,0,0,0,0,0,0,,,,,0.0,,,,,,
112,804193,1745090967876,,,,,,,,,,,,,,,,,,,,,,,,,,,,,,,,,,0,0,0,0,0,0,0,0,0,0,0,0,0,0,0,0,,,,,,,,,,,
113,804213,1745090967896,0.0,201.48,,0.02,0.31,1.04,2.0,0.0,0.0,1.08,1.24,88.0,9083.0,1.0,1.4,,4.51,1.253,97.0,,66.7,5.0,,,,,,,,,,,,0,0,0,0,0,0,0,0,0,0,0,0,0,0,0,0,,,,,0.0,,,,,,
114,804233,1745090967916,,,,,,,,,,,,,,,,,,,,,,,0.0,0.0,0.0,0.0,0.0,0.0,0.0,0.0,2.27,,,0,0,0,0,0,0,0,0,0,0,0,0,0,0,0,0,0.0,,,,,39.240097,-77.964836,0.04,33.0,3.0,0.8
115,804253,1745090967936,0.0,201.48,,0.01,0.31,1.0,1.0,0.0,0.0,1.04,1.24,84.0,8543.0,1.1,1.4,,4.6,1.253,97.0,,64.2,5.0,,,,,,,,,,,,0,0,0,0,0,0,0,0,0,0,0,0,0,0,0,0,,,,,0.0,,,,,,
116,804273,1745090967956,,,,,,,,,,,,,,,,,,,,,,,,,,,,,,,,,,0,0,0,0,0,0,0,0,0,0,0,0,0,0,0,0,,,,,,,,,,,
117,804293,1745090967976,0.0,201.36,,0.01,0.34,1.01,1.0,0.0,0.0,1.07,1.24,86.0,7971.0,1.5,1.4,,4.6,1.253,97.0,,64.2,5.0,,,,,,,,,,,,0,0,0,0,0,0,0,0,0,0,0,0,0,0,0,0,,,,,0.0,,,,,,
118,804313,1745090967996,,,,,,,,,,,,,,,,,,,,,,,,,,,,,,,,,,0,0,0,0,0,0,0,0,0,0,0,0,0,0,0,0,,,,,,,,,,,
119,804333,1745090968010,0.0,201.11,,0.02,0.42,0.97,-2.0,0.0,0.0,1.06,1.24,85.0,7971.0,1.5,1.4,,4.91,1.252,97.0,,62.8,5.0,0.0,0.0,0.0,0.0,0.0,0.0,0.0,0.0,2.27,,,0,0,0,0,0,0,0,0,0,0,0,0,0,0,0,0,0.0,,,,0.0,39.240097,-77.964836,0.0,33.0,3.0,0.8
120,804353,1745090968030,,,,,,,,,,,,,,,,,,,,,,,,,,,,,,,,,,0,0,0,0,0,0,0,0,0,0,0,0,0,0,0,0,,,,,,,,,,,
121,804373,1745090968050,0.0,201.11,,0.05,0.49,1.0,-4.0,0.0,1.0,1.12,1.24,90.0,7456.0,7.0,1.65,,5.58,1.252,97.0,,62.8,5.0,,,,,,,,,,,,0,0,0,0,0,0,0,0,0,0,0,0,0,0,0,0,,,,,0.0,,,,,,
122,804393,1745090968070,,,,,,,,,,,,,,,,,,,,,,,,,,,,,,,,,,0,0,0,0,0,0,0,0,0,0,0,0,0,0,0,0,,,,,,,,,,,
123,804413,1745090968090,0.0,201.11,,0.03,0.45,0.99,-4.0,0.0,1.0,1.09,1.24,88.0,6949.0,12.5,2.3,,6.8,1.254,97.0,,62.8,5.0,,,,,,,,,,,,0,0,0,0,0,0,0,0,0,0,0,0,0,0,0,0,,,,,0.0,,,,,,
124,804433,1745090968116,,,,,,,,,,,,,,,,,,,,,,,0.0,0.0,0.0,0.0,0.0,0.0,0.0,0.0,2.27,,,0,0,0,0,0,0,0,0,0,0,0,0,0,0,0,0,0.0,,,,,39.240097,-77.964836,0.0,33.0,3.0,0.8
125,804453,1745090968136,0.0,200.98,,0.0,0.38,1.03,-3.0,0.0,1.0,1.1,1.24,89.0,6672.0,13.4,2.78,,8.23,1.254,97.0,,60.6,5.0,,,,,,,,,,,,0,0,0,0,0,0,0,0,0,0,0,0,0,0,0,0,,,,,0.0,,,,,,
126,804473,1745090968156,,,,,,,,,,,,,,,,,,,,,,,,,,,,,,,,,,0,0,0,0,0,0,0,0,0,0,0,0,0,0,0,0,,,,,,,,,,,
127,804493,1745090968176,0.0,201.11,,0.01,0.34,0.99,-2.0,0.0,1.0,1.05,1.24,85.0,6582.0,13.7,3.05,,8.23,1.254,97.0,,60.6,5.0,,,,,,,,,,,,0,0,0,0,0,0,0,0,0,0,0,0,0,0,0,0,,,,,0.0,,,,,,
128,804513,1745090968196,,,,,,,,,,,,,,,,,,,,,,,,,,,,,,,,,,0,0,0,0,0,0,0,0,0,0,0,0,0,0,0,0,,,,,,,,,,,
129,804533,1745090968214,0.0,201.11,,-0.02,0.23,0.97,-1.0,0.0,0.0,1.0,1.24,81.0,6582.0,13.7,3.05,,9.07,1.253,97.0,,61.1,5.0,0.0,0.0,0.0,0.0,0.0,0.0,0.0,0.0,2.27,,,0,0,0,0,0,0,0,0,0,0,0,0,0,0,0,0,0.0,,,,0.0,39.240097,-77.964836,0.05,33.0,3.0,0.8
130,804553,1745090968234,,,,,,,,,,,,,,,,,,,,,,,,,,,,,,,,,,0,0,0,0,0,0,0,0,0,0,0,0,0,0,0,0,,,,,,,,,,,
131,804573,1745090968254,0.0,201.11,,0.02,0.22,0.98,-3.0,0.0,0.0,1.0,1.24,81.0,6513.0,13.8,3.26,,9.7,1.253,97.0,,61.1,5.0,,,,,,,,,,,,0,0,0,0,0,0,0,0,0,0,0,0,0,0,0,0,,,,,0.0,,,,,,
132,804593,1745090968274,,,,,,,,,,,,,,,,,,,,,,,,,,,,,,,,,,0,0,0,0,0,0,0,0,0,0,0,0,0,0,0,0,,,,,,,,,,,
133,804613,1745090968294,0.0,201.11,,0.04,0.22,1.0,-2.0,0.0,1.0,1.03,1.24,83.0,6518.0,13.8,3.38,,10.05,1.252,97.0,,61.1,5.0,,,,,,,,,,,,0,0,0,0,0,0,0,0,0,0,0,0,0,0,0,0,,,,,0.0,,,,,,
134,804633,1745090968316,,,,,,,,,,,,,,,,,,,,,,,0.0,0.0,0.0,0.0,0.0,0.0,0.0,0.0,2.26,,,0,0,0,0,0,0,0,0,0,0,0,0,0,0,0,0,0.0,,,,,39.240097,-77.964836,0.08,33.0,3.0,0.8
135,804653,1745090968336,0.0,201.36,,-0.02,0.13,0.98,-2.0,0.0,0.0,0.99,1.24,80.0,6459.0,13.8,3.44,,10.28,1.177,97.0,,61.1,5.0,,,,,,,,,,,,0,0,0,0,0,0,0,0,0,0,0,0,0,0,0,0,,,,,0.0,,,,,,
136,804673,1745090968356,,,,,,,,,,,,,,,,,,,,,,,,,,,,,,,,,,0,0,0,0,0,0,0,0,0,0,0,0,0,0,0,0,,,,,,,,,,,
137,804693,1745090968376,0.0,201.48,,0.01,0.13,1.02,-2.0,0.0,0.0,1.03,1.24,83.0,6299.0,13.8,3.43,,10.28,1.177,97.0,,61.1,5.0,,,,,,,,,,,,0,0,0,0,0,0,0,0,0,0,0,0,0,0,0,0,,,,,0.0,,,,,,
138,804713,1745090968396,,,,,,,,,,,,,,,,,,,,,,,,,,,,,,,,,,0,0,0,0,0,0,0,0,0,0,0,0,0,0,0,0,,,,,,,,,,,
139,804733,1745090968415,0.0,201.61,12.49,-0.04,0.14,1.05,-1.0,0.0,0.0,1.06,1.24,86.0,6299.0,13.8,3.43,15.0,10.62,1.152,97.0,151.0,60.9,5.0,0.0,0.0,0.0,0.0,0.0,0.0,0.0,0.0,2.26,0.0,0.0,0,0,0,0,0,0,0,0,0,0,0,0,0,0,0,0,0.0,0.0,0.0,0.0,0.0,39.240097,-77.964836,0.05,33.0,3.0,0.8
140,804753,1745090968435,,,,,,,,,,,,,,,,,,,,,,,,,,,,,,,,,,0,0,0,0,0,0,0,0,0,0,0,0,0,0,0,0,,,,,,,,,,,
141,804773,1745090968455,0.0,201.61,,0.01,0.09,0.99,-1.0,0.0,0.0,1.0,1.24,81.0,6349.0,13.8,3.48,,10.6,1.198,97.0,,60.9,5.0,,,,,,,,,,,,0,0,0,0,0,0,0,0,0,0,0,0,0,0,0,0,,,,,0.0,,,,,,
142,804793,1745090968475,,,,,,,,,,,,,,,,,,,,,,,,,,,,,,,,,,0,0,0,0,0,0,0,0,0,0,0,0,0,0,0,0,,,,,,,,,,,
143,804813,1745090968495,0.0,201.73,,-0.02,0.04,1.06,-1.0,0.0,0.0,1.06,1.24,85.0,6326.0,10.8,3.4,,10.5,1.182,97.0,,60.9,5.0,,,,,,,,,,,,0,0,0,0,0,0,0,0,0,0,0,0,0,0,0,0,,,,,0.0,,,,,,
144,804833,1745090968517,,,,,,,,,,,,,,,,,,,,,,,0.0,0.0,0.0,0.0,0.0,0.0,0.0,0.0,2.27,,,0,0,0,0,0,0,0,0,0,0,0,0,0,0,0,0,0.0,,,,,39.240097,-77.964836,0.08,33.0,3.0,0.8
145,804853,1745090968537,0.0,201.86,,0.02,0.06,0.94,0.0,0.0,0.0,0.95,1.24,76.0,6308.0,10.5,3.3,,10.28,1.137,97.0,,60.0,5.0,,,,,,,,,,,,0,0,0,0,0,0,0,0,0,0,0,0,0,0,0,0,,,,,0.0,,,,,,
146,804873,1745090968557,,,,,,,,,,,,,,,,,,,,,,,,,,,,,,,,,,0,0,0,0,0,0,0,0,0,0,0,0,0,0,0,0,,,,,,,,,,,
147,804893,1745090968577,0.0,201.99,,0.08,0.06,1.01,-1.0,0.0,0.0,1.02,1.24,82.0,6230.0,10.4,3.24,,10.28,1.137,97.0,,60.0,5.0,,,,,,,,,,,,0,0,0,0,0,0,0,0,0,0,0,0,0,0,0,0,,,,,0.0,,,,,,
148,804913,1745090968597,,,,,,,,,,,,,,,,,,,,,,,,,,,,,,,,,,0,0,0,0,0,0,0,0,0,0,0,0,0,0,0,0,,,,,,,,,,,
149,804933,1745090968617,0.0,201.99,,0.01,0.01,0.99,-1.0,0.0,0.0,0.99,1.24,80.0,6230.0,10.4,3.24,,10.22,1.158,97.0,,60.2,5.0,0.0,0.0,0.0,0.0,0.0,0.0,0.0,0.0,2.27,,,0,0,0,0,0,0,0,0,0,0,0,0,0,0,0,0,0.0,,,,0.0,39.240097,-77.964836,0.0,33.0,3.0,0.8
150,804953,1745090968637,,,,,,,,,,,,,,,,,,,,,,,,,,,,,,,,,,0,0,0,0,0,0,0,0,0,0,0,0,0,0,0,0,,,,,,,,,,,
151,804973,1745090968657,0.0,202.11,,0.02,-0.01,0.9,0.0,0.0,0.0,0.9,1.24,73.0,6252.0,10.4,3.23,,10.22,1.223,98.8,,60.2,5.0,,,,,,,,,,,,0,0,0,0,0,0,0,0,0,0,0,0,0,0,0,0,,,,,0.0,,,,,,
152,804993,1745090968677,,,,,,,,,,,,,,,,,,,,,,,,,,,,,,,,,,0,0,0,0,0,0,0,0,0,0,0,0,0,0,0,0,,,,,,,,,,,
153,805013,1745090968697,0.0,202.11,,0.06,0.01,1.0,0.0,0.0,0.0,1.0,1.24,81.0,6185.0,10.4,3.18,,10.21,1.218,98.8,,60.2,5.0,,,,,,,,,,,,0,0,0,0,0,0,0,0,0,0,0,0,0,0,0,0,,,,,0.0,,,,,,
154,805033,1745090968717,,,,,,,,,,,,,,,,,,,,,,,0.0,0.0,0.0,0.0,0.0,0.0,0.0,0.0,2.27,,,0,0,0,0,0,0,0,0,0,0,0,0,0,0,0,0,0.0,,,,,39.240097,-77.964836,0.04,33.0,3.0,0.8
155,805053,1745090968737,0.0,202.24,,0.09,0.04,1.14,0.0,0.0,0.0,1.14,1.24,92.0,6046.0,10.4,3.08,,10.34,1.16,98.8,,59.8,5.0,,,,,,,,,,,,0,0,0,0,0,0,0,0,0,0,0,0,0,0,0,0,,,,,0.0,,,,,,
156,805073,1745090968757,,,,,,,,,,,,,,,,,,,,,,,,,,,,,,,,,,0,0,0,0,0,0,0,0,0,0,0,0,0,0,0,0,,,,,,,,,,,
157,805093,1745090968777,0.0,202.24,,0.1,0.04,1.19,0.0,0.0,0.0,1.2,1.24,97.0,5821.0,10.4,3.06,,10.34,1.16,98.8,,59.8,5.0,,,,,,,,,,,,0,0,0,0,0,0,0,0,0,0,0,0,0,0,0,0,,,,,0.0,,,,,,
158,805113,1745090968797,,,,,,,,,,,,,,,,,,,,,,,,,,,,,,,,,,0,0,0,0,0,0,0,0,0,0,0,0,0,0,0,0,,,,,,,,,,,
159,805133,1745090968817,0.0,202.24,,0.04,-0.03,1.09,1.0,0.0,0.0,1.09,1.24,88.0,5821.0,10.4,3.06,,10.53,1.179,98.8,,57.9,5.0,0.0,0.0,0.0,0.0,0.0,0.0,0.0,0.0,2.27,,,0,0,0,0,0,0,0,0,0,0,0,0,0,0,0,0,0.0,,,,0.0,39.240097,-77.964836,0.04,33.0,3.0,0.8
160,805153,1745090968837,,,,,,,,,,,,,,,,,,,,,,,,,,,,,,,,,,0,0,0,0,0,0,0,0,0,0,0,0,0,0,0,0,,,,,,,,,,,
161,805173,1745090968857,0.0,202.36,,0.05,-0.02,1.12,0.0,0.0,0.0,1.13,1.24,91.0,5668.0,10.4,3.05,,10.68,1.239,98.8,,57.9,5.0,,,,,,,,,,,,0,0,0,0,0,0,0,0,0,0,0,0,0,0,0,0,,,,,0.0,,,,,,
162,805193,1745090968877,,,,,,,,,,,,,,,,,,,,,,,,,,,,,,,,,,0,0,0,0,0,0,0,0,0,0,0,0,0,0,0,0,,,,,,,,,,,
163,805213,1745090968897,0.0,202.36,,0.04,-0.06,1.11,0.0,0.0,0.0,1.11,1.24,90.0,5477.0,10.3,3.17,,10.88,1.253,98.8,,57.9,5.0,,,,,,,,,,,,0,0,0,0,0,0,0,0,0,0,0,0,0,0,0,0,,,,,0.0,,,,,,
164,805233,1745090968917,,,,,,,,,,,,,,,,,,,,,,,0.0,0.0,0.0,0.0,0.0,0.0,0.0,0.0,2.27,,,0,0,0,0,0,0,0,0,0,0,0,0,0,0,0,0,0.0,,,,,39.240097,-77.964836,0.04,33.0,3.0,0.8
165,805253,1745090968937,0.0,202.36,,0.03,-0.13,1.09,0.0,0.0,0.0,1.1,1.24,89.0,5239.0,10.3,3.74,,11.17,1.252,98.8,,53.0,5.0,,,,,,,,,,,,0,0,0,0,0,0,0,0,0,0,0,0,0,0,0,0,,,,,0.0,,,,,,
166,805273,1745090968957,,,,,,,,,,,,,,,,,,,,,,,,,,,,,,,,,,0,0,0,0,0,0,0,0,0,0,0,0,0,0,0,0,,,,,,,,,,,
167,805293,1745090968977,0.0,202.49,,0.03,-0.13,1.06,0.0,0.0,0.0,1.07,1.24,87.0,5124.0,10.3,3.7,,11.17,1.252,98.8,,53.0,5.0,,,,,,,,,,,,0,0,0,0,0,0,0,0,0,0,0,0,0,0,0,0,,,,,0.0,,,,,,
168,805313,1745090968997,,,,,,,,,,,,,,,,,,,,,,,,,,,,,,,,,,0,0,0,0,0,0,0,0,0,0,0,0,0,0,0,0,,,,,,,,,,,
169,805333,1745090969009,0.0,202.49,,-0.0,-0.06,1.04,0.0,0.0,0.0,1.04,1.24,84.0,5124.0,10.3,3.7,,11.28,1.253,98.8,,49.5,5.0,0.0,0.0,0.0,0.0,0.0,0.0,0.0,0.0,2.26,,,0,0,0,0,0,0,0,0,0,0,0,0,0,0,0,0,0.0,,,,0.0,39.240097,-77.964836,0.07,33.0,3.0,0.8
170,805353,1745090969029,,,,,,,,,,,,,,,,,,,,,,,,,,,,,,,,,,0,0,0,0,0,0,0,0,0,0,0,0,0,0,0,0,,,,,,,,,,,
171,805373,1745090969049,0.0,202.49,,0.0,-0.03,1.04,1.0,0.0,0.0,1.04,1.24,84.0,5011.0,10.3,3.65,,11.41,1.253,98.8,,49.5,5.0,,,,,,,,,,,,0,0,0,0,0,0,0,0,0,0,0,0,0,0,0,0,,,,,0.0,,,,,,
172,805393,1745090969069,,,,,,,,,,,,,,,,,,,,,,,,,,,,,,,,,,0,0,0,0,0,0,0,0,0,0,0,0,0,0,0,0,,,,,,,,,,,
173,805413,1745090969089,0.0,202.61,,-0.01,-0.09,1.01,0.0,0.0,0.0,1.01,1.24,82.0,4898.0,10.3,3.63,,11.58,1.255,98.8,,49.5,5.0,,,,,,,,,,,,0,0,0,0,0,0,0,0,0,0,0,0,0,0,0,0,,,,,0.0,,,,,,
174,805433,1745090969117,,,,,,,,,,,,,,,,,,,,,,,0.0,0.0,0.0,0.0,0.0,0.0,0.0,0.0,2.26,,,0,0,0,0,0,0,0,0,0,0,0,0,0,0,0,0,0.0,,,,,39.240097,-77.964836,0.04,33.0,3.0,0.8
175,805453,1745090969137,0.0,202.61,,0.0,-0.09,1.01,0.0,0.0,0.0,1.02,1.24,82.0,4790.0,10.0,3.63,,11.72,1.253,98.8,,46.9,5.0,,,,,,,,,,,,0,0,0,0,0,0,0,0,0,0,0,0,0,0,0,0,,,,,0.0,,,,,,
176,805473,1745090969157,,,,,,,,,,,,,,,,,,,,,,,,,,,,,,,,,,0,0,0,0,0,0,0,0,0,0,0,0,0,0,0,0,,,,,,,,,,,
177,805493,1745090969177,0.0,202.61,,-0.03,-0.01,1.08,0.0,0.0,0.0,1.08,1.24,87.0,4641.0,10.1,3.67,,11.72,1.253,98.8,,46.9,5.0,,,,,,,,,,,,0,0,0,0,0,0,0,0,0,0,0,0,0,0,0,0,,,,,0.0,,,,,,
178,805513,1745090969197,,,,,,,,,,,,,,,,,,,,,,,,,,,,,,,,,,0,0,0,0,0,0,0,0,0,0,0,0,0,0,0,0,,,,,,,,,,,
179,805533,1745090969217,0.0,202.49,,-0.06,0.01,1.09,-1.0,0.0,1.0,1.09,1.24,88.0,4641.0,10.1,3.67,,11.83,1.253,98.8,,44.2,5.0,0.0,0.0,0.0,0.0,0.0,0.0,0.0,0.0,2.26,,,0,0,0,0,0,0,0,0,0,0,0,0,0,0,0,0,0.0,,,,0.0,39.240097,-77.964836,0.0,33.0,3.0,0.8
180,805553,1745090969237,,,,,,,,,,,,,,,,,,,,,,,,,,,,,,,,,,0,0,0,0,0,0,0,0,0,0,0,0,0,0,0,0,,,,,,,,,,,
181,805573,1745090969257,0.0,202.49,,-0.1,-0.05,1.05,-1.0,0.0,1.0,1.06,1.24,85.0,4533.0,10.2,3.7,,11.95,1.25,98.8,,44.2,5.0,,,,,,,,,,,,0,0,0,0,0,0,0,0,0,0,0,0,0,0,0,0,,,,,0.0,,,,,,
182,805593,1745090969277,,,,,,,,,,,,,,,,,,,,,,,,,,,,,,,,,,0,0,0,0,0,0,0,0,0,0,0,0,0,0,0,0,,,,,,,,,,,
183,805613,1745090969297,0.0,202.61,,-0.14,0.03,1.12,-2.0,0.0,1.0,1.13,1.24,91.0,4452.0,10.3,3.73,,12.07,1.251,98.8,,44.2,5.0,,,,,,,,,,,,0,0,0,0,0,0,0,0,0,0,0,0,0,0,0,0,,,,,0.0,,,,,,
184,805633,1745090969317,,,,,,,,,,,,,,,,,,,,,,,0.0,0.0,0.0,0.0,0.0,0.0,0.0,0.0,2.26,,,0,0,0,0,0,0,0,0,0,0,0,0,0,0,0,0,0.0,,,,,39.240097,-77.964836,0.0,33.0,3.0,0.8
185,805653,1745090969337,0.0,202.61,,-0.14,0.1,1.21,-3.0,0.0,2.0,1.22,1.24,99.0,4335.0,10.2,3.77,,12.17,1.251,98.8,,41.0,5.0,,,,,,,,,,,,0,0,0,0,0,0,0,0,0,0,0,0,0,0,0,0,,,,,0.0,,,,,,
186,805673,1745090969357,,,,,,,,,,,,,,,,,,,,,,,,,,,,,,,,,,0,0,0,0,0,0,0,0,0,0,0,0,0,0,0,0,,,,,,,,,,,
187,805693,1745090969377,0.0,202.61,,-0.1,0.08,1.13,-2.0,0.0,1.0,1.14,1.24,92.0,4314.0,10.3,3.78,,12.17,1.251,98.8,,41.0,5.0,,,,,,,,,,,,0,0,0,0,0,0,0,0,0,0,0,0,0,0,0,0,,,,,0.0,,,,,,
188,805713,1745090969397,,,,,,,,,,,,,,,,,,,,,,,,,,,,,,,,,,0,0,0,0,0,0,0,0,0,0,0,0,0,0,0,0,,,,,,,,,,,
189,805733,1745090969414,0.0,202.49,12.56,-0.1,0.03,1.07,-2.0,0.0,1.0,1.07,1.24,87.0,4314.0,10.3,3.78,15.0,12.28,1.251,98.8,149.0,39.4,5.0,0.0,0.0,0.0,0.0,0.0,0.0,0.0,0.0,2.26,0.0,0.0,0,0,0,0,0,0,0,0,0,0,0,0,0,0,0,0,0.0,0.0,0.0,0.0,0.0,39.240097,-77.964836,0.0,33.0,3.0,0.8
190,805753,1745090969434,,,,,,,,,,,,,,,,,,,,,,,,,,,,,,,,,,0,0,0,0,0,0,0,0,0,0,0,0,0,0,0,0,,,,,,,,,,,
191,805773,1745090969454,0.0,202.49,,-0.08,0.12,1.12,-2.0,0.0,1.0,1.13,1.24,91.0,4179.0,10.3,3.82,,12.29,1.25,98.8,,39.4,5.0,,,,,,,,,,,,0,0,0,0,0,0,0,0,0,0,0,0,0,0,0,0,,,,,0.0,,,,,,
192,805793,1745090969474,,,,,,,,,,,,,,,,,,,,,,,,,,,,,,,,,,0,0,0,0,0,0,0,0,0,0,0,0,0,0,0,0,,,,,,,,,,,
193,805813,1745090969494,0.0,202.49,,-0.08,0.01,1.07,-1.0,0.0,1.0,1.07,1.24,86.0,4067.0,10.3,3.82,,12.44,1.251,98.8,,39.4,5.0,,,,,,,,,,,,0,0,0,0,0,0,0,0,0,0,0,0,0,0,0,0,,,,,0.0,,,,,,
194,805833,1745090969516,,,,,,,,,,,,,,,,,,,,,,,0.0,0.0,0.0,0.0,0.0,0.0,0.0,0.0,2.27,,,0,0,0,0,0,0,0,0,0,0,0,0,0,0,0,0,0.0,,,,,39.240097,-77.964836,0.0,33.0,3.0,0.8
195,805853,1745090969536,0.0,202.49,,-0.06,0.08,1.05,-1.0,0.0,1.0,1.06,1.24,85.0,4067.0,10.5,3.86,,12.51,1.251,98.8,,37.1,5.0,,,,,,,,,,,,0,0,0,0,0,0,0,0,0,0,0,0,0,0,0,0,,,,,0.0,,,,,,
196,805873,1745090969556,,,,,,,,,,,,,,,,,,,,,,,,,,,,,,,,,,0,0,0,0,0,0,0,0,0,0,0,0,0,0,0,0,,,,,,,,,,,
197,805893,1745090969576,0.0,202.36,,-0.06,0.11,1.12,-2.0,0.0,1.0,1.13,1.24,91.0,4027.0,10.4,3.85,,12.51,1.251,98.8,,37.1,5.0,,,,,,,,,,,,0,0,0,0,0,0,0,0,0,0,0,0,0,0,0,0,,,,,0.0,,,,,,
198,805913,1745090969596,,,,,,,,,,,,,,,,,,,,,,,,,,,,,,,,,,0,0,0,0,0,0,0,0,0,0,0,0,0,0,0,0,,,,,,,,,,,
199,805933,1745090969616,0.0,202.36,,-0.07,0.03,1.04,-1.0,0.0,1.0,1.04,1.24,84.0,4027.0,10.4,3.85,,12.55,1.252,98.8,,36.7,5.0,0.0,0.0,0.0,0.0,0.0,0.0,0.0,0.0,2.26,,,0,0,0,0,0,0,0,0,0,0,0,0,0,0,0,0,0.0,,,,0.0,39.240097,-77.964836,0.04,33.0,3.0,0.8
200,805953,1745090969636,,,,,,,,,,,,,,,,,,,,,,,,,,,,,,,,,,0,0,0,0,0,0,0,0,0,0,0,0,0,0,0,0,,,,,,,,,,,
201,805973,1745090969656,0.0,202.49,,-0.06,0.03,1.01,0.0,0.0,0.0,1.02,1.24,82.0,3933.0,10.5,3.86,,12.64,1.254,98.8,,36.7,5.0,,,,,,,,,,,,0,0,0,0,0,0,0,0,0,0,0,0,0,0,0,0,,,,,0.0,,,,,,
202,805993,1745090969676,,,,,,,,,,,,,,,,,,,,,,,,,,,,,,,,,,0,0,0,0,0,0,0,0,0,0,0,0,0,0,0,0,,,,,,,,,,,
203,806013,1745090969696,0.0,202.36,,-0.04,0.11,1.05,-1.0,0.0,1.0,1.05,1.24,85.0,3927.0,10.5,3.86,,12.65,1.253,98.8,,36.7,5.0,,,,,,,,,,,,0,0,0,0,0,0,0,0,0,0,0,0,0,0,0,0,,,,,0.0,,,,,,
204,806033,1745090969716,,,,,,,,,,,,,,,,,,,,,,,0.0,0.0,0.0,0.0,0.0,0.0,0.0,0.0,2.26,,,0,0,0,0,0,0,0,0,0,0,0,0,0,0,0,0,0.0,,,,,39.240097,-77.964836,0.04,33.0,3.0,0.8
205,806053,1745090969736,0.0,202.36,,-0.04,0.12,1.06,-1.0,0.0,1.0,1.07,1.24,86.0,3880.0,10.6,3.86,,12.67,1.252,98.8,,35.5,5.0,,,,,,,,,,,,0,0,0,0,0,0,0,0,0,0,0,0,0,0,0,0,,,,,0.0,,,,,,
206,806073,1745090969756,,,,,,,,,,,,,,,,,,,,,,,,,,,,,,,,,,0,0,0,0,0,0,0,0,0,0,0,0,0,0,0,0,,,,,,,,,,,
207,806093,1745090969776,0.0,202.36,,-0.03,0.06,1.05,-1.0,0.0,1.0,1.05,1.24,85.0,3790.0,10.6,3.85,,12.67,1.252,98.8,,35.5,5.0,,,,,,,,,,,,0,0,0,0,0,0,0,0,0,0,0,0,0,0,0,0,,,,,0.0,,,,,,
208,806113,1745090969796,,,,,,,,,,,,,,,,,,,,,,,,,,,,,,,,,,0,0,0,0,0,0,0,0,0,0,0,0,0,0,0,0,,,,,,,,,,,
209,806133,1745090969816,0.0,202.36,,-0.04,0.04,1.04,-1.0,0.0,1.0,1.04,1.24,84.0,3790.0,10.6,3.85,,12.68,1.25,98.8,,34.0,5.0,0.0,0.0,0.0,0.0,0.0,0.0,0.0,0.0,2.26,,,0,0,0,0,0,0,0,0,0,0,0,0,0,0,0,0,0.0,,,,0.0,39.240097,-77.964836,0.0,33.0,3.0,0.8
210,806153,1745090969836,,,,,,,,,,,,,,,,,,,,,,,,,,,,,,,,,,0,0,0,0,0,0,0,0,0,0,0,0,0,0,0,0,,,,,,,,,,,
211,806173,1745090969856,0.0,202.36,,-0.05,0.02,1.05,-1.0,0.0,1.0,1.05,1.24,85.0,3821.0,10.5,3.85,,12.8,1.251,98.8,,34.0,5.0,,,,,,,,,,,,0,0,0,0,0,0,0,0,0,0,0,0,0,0,0,0,,,,,0.0,,,,,,
212,806193,1745090969876,,,,,,,,,,,,,,,,,,,,,,,,,,,,,,,,,,0,0,0,0,0,0,0,0,0,0,0,0,0,0,0,0,,,,,,,,,,,
213,806213,1745090969896,0.0,202.36,,-0.04,0.01,1.04,-1.0,0.0,1.0,1.04,1.24,84.0,3760.0,10.5,3.86,,12.75,1.25,98.8,,34.0,5.0,,,,,,,,,,,,0,0,0,0,0,0,0,0,0,0,0,0,0,0,0,0,,,,,0.0,,,,,,
214,806233,1745090969916,,,,,,,,,,,,,,,,,,,,,,,0.0,0.0,0.0,0.0,0.0,0.0,0.0,0.0,2.27,,,0,0,0,0,0,0,0,0,0,0,0,0,0,0,0,0,0.0,,,,,39.240097,-77.964836,0.0,33.0,3.0,0.8
215,806253,1745090969936,0.0,202.36,,-0.05,0.02,1.03,-1.0,0.0,1.0,1.03,1.24,83.0,3752.0,10.4,3.85,,12.81,1.251,98.8,,33.1,5.0,,,,,,,,,,,,0,0,0,0,0,0,0,0,0,0,0,0,0,0,0,0,,,,,0.0,,,,,,
216,806273,1745090969956,,,,,,,,,,,,,,,,,,,,,,,,,,,,,,,,,,0,0,0,0,0,0,0,0,0,0,0,0,0,0,0,0,,,,,,,,,,,
217,806293,1745090969976,0.0,202.36,,-0.05,0.01,1.02,-1.0,0.0,1.0,1.02,1.24,82.0,3703.0,10.5,3.84,,12.81,1.251,98.8,,33.1,5.0,,,,,,,,,,,,0,0,0,0,0,0,0,0,0,0,0,0,0,0,0,0,,,,,0.0,,,,,,
218,806313,1745090969996,,,,,,,,,,,,,,,,,,,,,,,,,,,,,,,,,,0,0,0,0,0,0,0,0,0,0,0,0,0,0,0,0,,,,,,,,,,,
219,806333,1745090970010,0.0,202.36,,-0.05,0.01,1.04,-1.0,0.0,1.0,1.04,1.24,84.0,3703.0,10.5,3.84,,12.79,1.25,98.8,,32.9,5.0,0.0,0.0,0.0,0.0,0.0,0.0,0.0,0.0,2.27,,,0,0,0,0,0,0,0,0,0,0,0,0,0,0,0,0,0.0,,,,0.0,39.240097,-77.964836,0.05,33.0,3.0,0.8
220,806353,1745090970030,,,,,,,,,,,,,,,,,,,,,,,,,,,,,,,,,,0,0,0,0,0,0,0,0,0,0,0,0,0,0,0,0,,,,,,,,,,,
221,806373,1745090970050,0.0,202.36,,-0.03,0.02,1.03,-1.0,0.0,1.0,1.03,1.24,83.0,3732.0,10.4,3.85,,12.87,1.251,98.8,,32.9,5.0,,,,,,,,,,,,0,0,0,0,0,0,0,0,0,0,0,0,0,0,0,0,,,,,0.0,,,,,,
222,806393,1745090970070,,,,,,,,,,,,,,,,,,,,,,,,,,,,,,,,,,0,0,0,0,0,0,0,0,0,0,0,0,0,0,0,0,,,,,,,,,,,
223,806413,1745090970090,0.0,202.36,,-0.03,0.03,0.98,-1.0,0.0,0.0,0.98,1.24,79.0,3626.0,10.5,3.84,,12.93,1.252,98.8,,32.9,5.0,,,,,,,,,,,,0,0,0,0,0,0,0,0,0,0,0,0,0,0,0,0,,,,,0.0,,,,,,
224,806433,1745090970118,,,,,,,,,,,,,,,,,,,,,,,0.0,0.0,0.0,0.0,0.0,0.0,0.0,0.0,2.26,,,0,0,0,0,0,0,0,0,0,0,0,0,0,0,0,0,0.0,,,,,39.240097,-77.964836,0.13,33.0,3.0,0.8
225,806453,1745090970138,0.0,202.36,,-0.05,-0.02,0.97,0.0,0.0,0.0,0.97,1.24,79.0,3651.0,10.4,3.84,,12.92,1.253,98.8,,32.0,5.0,,,,,,,,,,,,0,0,0,0,0,0,0,0,0,0,0,0,0,0,0,0,,,,,0.0,,,,,,
226,806473,1745090970158,,,,,,,,,,,,,,,,,,,,,,,,,,,,,,,,,,0,0,0,0,0,0,0,0,0,0,0,0,0,0,0,0,,,,,,,,,,,
227,806493,1745090970178,0.0,202.49,,-0.06,-0.05,0.99,-1.0,0.0,0.0,0.99,1.24,80.0,3575.0,10.6,3.83,,12.92,1.253,98.8,,32.0,5.0,,,,,,,,,,,,0,0,0,0,0,0,0,0,0,0,0,0,0,0,0,0,,,,,0.0,,,,,,
228,806513,1745090970198,,,,,,,,,,,,,,,,,,,,,,,,,,,,,,,,,,0,0,0,0,0,0,0,0,0,0,0,0,0,0,0,0,,,,,,,,,,,
229,806533,1745090970214,0.0,202.49,,-0.07,-0.02,1.01,-1.0,0.0,0.0,1.01,1.24,82.0,3575.0,10.6,3.83,,12.99,1.254,98.8,,31.8,5.0,0.0,0.0,0.0,0.0,0.0,0.0,0.0,0.0,2.26,,,0,0,0,0,0,0,0,0,0,0,0,0,0,0,0,0,0.0,,,,0.0,39.240097,-77.964836,0.04,33.0,3.0,0.8
230,806553,1745090970234,,,,,,,,,,,,,,,,,,,,,,,,,,,,,,,,,,0,0,0,0,0,0,0,0,0,0,0,0,0,0,0,0,,,,,,,,,,,
231,806573,1745090970254,0.0,202.49,,-0.05,0.02,1.02,-1.0,0.0,0.0,1.02,1.24,82.0,3613.0,10.5,3.82,,12.97,1.252,98.8,,31.8,5.0,,,,,,,,,,,,0,0,0,0,0,0,0,0,0,0,0,0,0,0,0,0,,,,,0.0,,,,,,
232,806593,1745090970274,,,,,,,,,,,,,,,,,,,,,,,,,,,,,,,,,,0,0,0,0,0,0,0,0,0,0,0,0,0,0,0,0,,,,,,,,,,,
233,806613,1745090970294,0.0,202.36,,-0.03,0.01,0.98,-1.0,0.0,0.0,0.98,1.24,79.0,3591.0,10.6,3.82,,12.99,1.251,98.8,,31.8,5.0,,,,,,,,,,,,0,0,0,0,0,0,0,0,0,0,0,0,0,0,0,0,,,,,0.0,,,,,,
234,806633,1745090970316,,,,,,,,,,,,,,,,,,,,,,,0.0,0.0,0.0,0.0,0.0,0.0,0.0,0.0,2.26,,,0,0,0,0,0,0,0,0,0,0,0,0,0,0,0,0,0.0,,,,,39.240097,-77.964836,0.04,33.0,3.0,0.8
235,806653,1745090970336,0.0,202.49,,-0.05,-0.05,0.97,0.0,0.0,0.0,0.97,1.24,78.0,3590.0,10.5,3.81,,12.99,1.25,98.8,,31.7,5.0,,,,,,,,,,,,0,0,0,0,0,0,0,0,0,0,0,0,0,0,0,0,,,,,0.0,,,,,,
236,806673,1745090970356,,,,,,,,,,,,,,,,,,,,,,,,,,,,,,,,,,0,0,0,0,0,0,0,0,0,0,0,0,0,0,0,0,,,,,,,,,,,
237,806693,1745090970376,0.0,202.49,,-0.06,-0.05,1.0,0.0,0.0,0.0,1.0,1.24,81.0,3541.0,10.4,3.81,,12.99,1.25,98.8,,31.7,5.0,,,,,,,,,,,,0,0,0,0,0,0,0,0,0,0,0,0,0,0,0,0,,,,,0.0,,,,,,
238,806713,1745090970396,,,,,,,,,,,,,,,,,,,,,,,,,,,,,,,,,,0,0,0,0,0,0,0,0,0,0,0,0,0,0,0,0,,,,,,,,,,,
239,806733,1745090970415,0.0,202.36,12.55,-0.06,0.04,1.01,-1.0,0.0,0.0,1.01,1.24,81.0,3541.0,10.4,3.81,15.0,13.08,1.251,98.8,149.0,31.4,5.0,0.0,0.0,0.0,0.0,0.0,0.0,0.0,0.0,2.27,0.0,0.0,0,0,0,0,0,0,0,0,0,0,0,0,0,0,0,0,0.0,0.0,0.0,0.0,0.0,39.240097,-77.964836,0.08,33.0,3.0,0.8
240,806753,1745090970435,,,,,,,,,,,,,,,,,,,,,,,,,,,,,,,,,,0,0,0,0,0,0,0,0,0,0,0,0,0,0,0,0,,,,,,,,,,,
241,806773,1745090970455,0.0,202.36,,-0.04,0.03,0.98,-1.0,0.0,0.0,0.98,1.24,79.0,3586.0,10.4,3.81,,13.04,1.251,98.8,,31.4,5.0,,,,,,,,,,,,0,0,0,0,0,0,0,0,0,0,0,0,0,0,0,0,,,,,0.0,,,,,,
242,806793,1745090970475,,,,,,,,,,,,,,,,,,,,,,,,,,,,,,,,,,0,0,0,0,0,0,0,0,0,0,0,0,0,0,0,0,,,,,,,,,,,
243,806813,1745090970495,0.0,202.36,,-0.07,-0.01,0.95,0.0,0.0,0.0,0.96,1.24,77.0,3553.0,10.5,3.81,,13.04,1.252,98.8,,31.4,5.0,,,,,,,,,,,,0,0,0,0,0,0,0,0,0,0,0,0,0,0,0,0,,,,,0.0,,,,,,
244,806833,1745090970517,,,,,,,,,,,,,,,,,,,,,,,0.0,0.0,0.0,0.0,0.0,0.0,0.0,0.0,2.27,,,0,0,0,0,0,0,0,0,0,0,0,0,0,0,0,0,0.0,,,,,39.240097,-77.964836,0.05,33.0,3.0,0.8
245,806853,1745090970537,0.0,202.36,,-0.09,0.0,1.0,0.0,0.0,0.0,1.01,1.24,81.0,3563.0,10.4,3.8,,13.01,1.25,98.8,,31.3,5.0,,,,,,,,,,,,0,0,0,0,0,0,0,0,0,0,0,0,0,0,0,0,,,,,0.0,,,,,,
246,806873,1745090970557,,,,,,,,,,,,,,,,,,,,,,,,,,,,,,,,,,0,0,0,0,0,0,0,0,0,0,0,0,0,0,0,0,,,,,,,,,,,
247,806893,1745090970577,0.0,202.36,,-0.07,0.08,1.0,-1.0,0.0,0.0,1.0,1.24,81.0,3516.0,10.5,3.8,,13.01,1.25,98.8,,31.3,5.0,,,,,,,,,,,,0,0,0,0,0,0,0,0,0,0,0,0,0,0,0,0,,,,,0.0,,,,,,
248,806913,1745090970597,,,,,,,,,,,,,,,,,,,,,,,,,,,,,,,,,,0,0,0,0,0,0,0,0,0,0,0,0,0,0,0,0,,,,,,,,,,,
249,806933,1745090970617,0.0,202.36,,-0.05,0.06,0.98,0.0,0.0,0.0,0.99,1.24,80.0,3516.0,10.5,3.8,,13.05,1.252,98.8,,31.1,5.0,0.0,0.0,0.0,0.0,0.0,0.0,0.0,0.0,2.26,,,0,0,0,0,0,0,0,0,0,0,0,0,0,0,0,0,0.0,,,,0.0,39.240097,-77.964836,0.05,33.0,3.0,0.8
250,806953,1745090970637,,,,,,,,,,,,,,,,,,,,,,,,,,,,,,,,,,0,0,0,0,0,0,0,0,0,0,0,0,0,0,0,0,,,,,,,,,,,
251,806973,1745090970657,0.0,202.49,,-0.08,-0.09,0.97,0.0,0.0,0.0,0.98,1.24,79.0,3590.0,10.4,3.8,,13.01,1.253,98.8,,31.1,5.0,,,,,,,,,,,,0,0,0,0,0,0,0,0,0,0,0,0,0,0,0,0,,,,,0.0,,,,,,
252,806993,1745090970677,,,,,,,,,,,,,,,,,,,,,,,,,,,,,,,,,,0,0,0,0,0,0,0,0,0,0,0,0,0,0,0,0,,,,,,,,,,,
253,807013,1745090970697,0.0,202.49,,-0.06,-0.07,1.02,0.0,0.0,0.0,1.02,1.24,83.0,3545.0,10.6,3.78,,13.0,1.253,98.8,,31.1,5.0,,,,,,,,,,,,0,0,0,0,0,0,0,0,0,0,0,0,0,0,0,0,,,,,0.0,,,,,,
254,807033,1745090970717,,,,,,,,,,,,,,,,,,,,,,,0.0,0.0,0.0,0.0,0.0,0.0,0.0,0.0,2.26,,,0,0,0,0,0,0,0,0,0,0,0,0,0,0,0,0,0.0,,,,,39.240097,-77.964836,0.07,33.0,3.0,0.8
255,807053,1745090970737,0.0,202.49,,-0.04,-0.03,1.0,0.0,0.0,0.0,1.0,1.24,81.0,3573.0,10.6,3.78,,13.04,1.252,98.8,,31.1,5.0,,,,,,,,,,,,0,0,0,0,0,0,0,0,0,0,0,0,0,0,0,0,,,,,0.0,,,,,,
256,807073,1745090970757,,,,,,,,,,,,,,,,,,,,,,,,,,,,,,,,,,0,0,0,0,0,0,0,0,0,0,0,0,0,0,0,0,,,,,,,,,,,
257,807093,1745090970777,0.0,202.49,,-0.05,-0.05,0.97,0.0,0.0,0.0,0.97,1.24,78.0,3528.0,10.7,3.78,,13.04,1.252,98.8,,31.1,5.0,,,,,,,,,,,,0,0,0,0,0,0,0,0,0,0,0,0,0,0,0,0,,,,,0.0,,,,,,
258,807113,1745090970797,,,,,,,,,,,,,,,,,,,,,,,,,,,,,,,,,,0,0,0,0,0,0,0,0,0,0,0,0,0,0,0,0,,,,,,,,,,,
259,807133,1745090970817,0.0,202.49,,-0.06,-0.11,0.99,0.0,0.0,0.0,1.0,1.24,81.0,3528.0,10.7,3.78,,13.07,1.251,98.8,,31.5,5.0,0.0,0.0,0.0,0.0,0.0,0.0,0.0,0.0,2.26,,,0,0,0,0,0,0,0,0,0,0,0,0,0,0,0,0,0.0,,,,0.0,39.240097,-77.964836,0.05,33.0,3.0,0.8
260,807153,1745090970837,,,,,,,,,,,,,,,,,,,,,,,,,,,,,,,,,,0,0,0,0,0,0,0,0,0,0,0,0,0,0,0,0,,,,,,,,,,,
261,807173,1745090970857,0.0,202.49,,-0.06,-0.05,1.01,0.0,0.0,0.0,1.01,1.24,82.0,3556.0,10.5,3.78,,13.09,1.251,98.8,,31.5,5.0,,,,,,,,,,,,0,0,0,0,0,0,0,0,0,0,0,0,0,0,0,0,,,,,0.0,,,,,,
262,807193,1745090970877,,,,,,,,,,,,,,,,,,,,,,,,,,,,,,,,,,0,0,0,0,0,0,0,0,0,0,0,0,0,0,0,0,,,,,,,,,,,
263,807213,1745090970897,0.0,202.49,,-0.04,-0.05,0.96,0.0,0.0,0.0,0.96,1.24,77.0,3456.0,10.5,3.78,,13.09,1.251,98.8,,31.5,5.0,,,,,,,,,,,,0,0,0,0,0,0,0,0,0,0,0,0,0,0,0,0,,,,,0.0,,,,,,
264,807233,1745090970917,,,,,,,,,,,,,,,,,,,,,,,0.0,0.0,0.0,0.0,0.0,0.0,0.0,0.0,2.27,,,0,0,0,0,0,0,0,0,0,0,0,0,0,0,0,0,0.0,,,,,39.240097,-77.964836,0.07,33.0,3.0,0.8
265,807253,1745090970937,0.0,202.49,,-0.07,-0.17,0.97,1.0,0.0,0.0,0.99,1.24,80.0,3561.0,10.5,3.79,,13.08,1.252,98.8,,31.2,5.0,,,,,,,,,,,,0,0,0,0,0,0,0,0,0,0,0,0,0,0,0,0,,,,,0.0,,,,,,
266,807273,1745090970957,,,,,,,,,,,,,,,,,,,,,,,,,,,,,,,,,,0,0,0,0,0,0,0,0,0,0,0,0,0,0,0,0,,,,,,,,,,,
267,807293,1745090970977,0.0,202.61,,-0.07,-0.13,1.01,0.0,0.0,0.0,1.02,1.24,82.0,3540.0,10.5,3.77,,13.08,1.252,98.8,,31.2,5.0,,,,,,,,,,,,0,0,0,0,0,0,0,0,0,0,0,0,0,0,0,0,,,,,0.0,,,,,,
268,807313,1745090970997,,,,,,,,,,,,,,,,,,,,,,,,,,,,,,,,,,0,0,0,0,0,0,0,0,0,0,0,0,0,0,0,0,,,,,,,,,,,
269,807333,1745090971009,0.0,202.61,,-0.04,-0.06,0.99,0.0,0.0,0.0,0.99,1.24,80.0,3540.0,10.5,3.77,,13.04,1.25,98.8,,31.4,5.0,0.0,0.0,0.0,0.0,0.0,0.0,0.0,0.0,2.26,,,0,0,0,0,0,0,0,0,0,0,0,0,0,0,0,0,0.0,,,,0.0,39.240097,-77.964836,0.04,33.0,3.0,0.8
270,807353,1745090971029,,,,,,,,,,,,,,,,,,,,,,,,,,,,,,,,,,0,0,0,0,0,0,0,0,0,0,0,0,0,0,0,0,,,,,,,,,,,
271,807373,1745090971049,0.0,202.61,,-0.04,-0.05,0.97,0.0,0.0,0.0,0.97,1.24,78.0,3570.0,10.5,3.78,,13.01,1.251,98.8,,31.4,5.0,,,,,,,,,,,,0,0,0,0,0,0,0,0,0,0,0,0,0,0,0,0,,,,,0.0,,,,,,
272,807393,1745090971069,,,,,,,,,,,,,,,,,,,,,,,,,,,,,,,,,,0,0,0,0,0,0,0,0,0,0,0,0,0,0,0,0,,,,,,,,,,,
273,807413,1745090971089,0.0,202.61,,-0.06,-0.09,1.0,0.0,0.0,0.0,1.01,1.24,81.0,3504.0,10.4,3.77,,13.04,1.252,98.8,,31.4,5.0,,,,,,,,,,,,0,0,0,0,0,0,0,0,0,0,0,0,0,0,0,0,,,,,0.0,,,,,,
274,807433,1745090971109,,,,,,,,,,,,,,,,,,,,,,,0.0,0.0,0.0,0.0,0.0,0.0,0.0,0.0,2.26,,,0,0,0,0,0,0,0,0,0,0,0,0,0,0,0,0,0.0,,,,,39.240097,-77.964836,0.04,33.0,3.0,0.8
275,807453,1745090971129,0.0,202.61,,-0.04,-0.04,1.02,0.0,0.0,0.0,1.02,1.24,83.0,3542.0,10.5,3.79,,13.11,1.253,98.8,,31.4,5.0,,,,,,,,,,,,0,0,0,0,0,0,0,0,0,0,0,0,0,0,0,0,,,,,0.0,,,,,,
276,807473,1745090971149,,,,,,,,,,,,,,,,,,,,,,,,,,,,,,,,,,0,0,0,0,0,0,0,0,0,0,0,0,0,0,0,0,,,,,,,,,,,
277,807493,1745090971169,0.0,202.61,,-0.03,-0.07,0.95,0.0,-1.0,0.0,0.95,1.24,77.0,3459.0,10.5,3.78,,13.11,1.253,98.8,,31.4,5.0,,,,,,,,,,,,0,0,0,0,0,0,0,0,0,0,0,0,0,0,0,0,,,,,0.0,,,,,,
278,807513,1745090971189,,,,,,,,,,,,,,,,,,,,,,,,,,,,,,,,,,0,0,0,0,0,0,0,0,0,0,0,0,0,0,0,0,,,,,,,,,,,
279,807533,1745090971217,0.0,202.61,,-0.06,-0.12,1.01,0.0,0.0,0.0,1.02,1.24,82.0,3459.0,10.5,3.78,,13.07,1.254,98.8,,31.2,5.0,0.0,0.0,0.0,0.0,0.0,0.0,0.0,0.0,2.26,,,0,0,0,0,0,0,0,0,0,0,0,0,0,0,0,0,0.0,,,,0.0,39.240097,-77.964836,0.05,33.0,3.0,0.8
280,807553,1745090971237,,,,,,,,,,,,,,,,,,,,,,,,,,,,,,,,,,0,0,0,0,0,0,0,0,0,0,0,0,0,0,0,0,,,,,,,,,,,
281,807573,1745090971257,0.0,202.61,,-0.03,-0.0,1.0,0.0,0.0,0.0,1.0,1.24,81.0,3445.0,10.6,3.79,,13.13,1.251,98.8,,31.2,5.0,,,,,,,,,,,,0,0,0,0,0,0,0,0,0,0,0,0,0,0,0,0,,,,,0.0,,,,,,
282,807593,1745090971277,,,,,,,,,,,,,,,,,,,,,,,,,,,,,,,,,,0,0,0,0,0,0,0,0,0,0,0,0,0,0,0,0,,,,,,,,,,,
283,807613,1745090971297,0.0,202.61,,-0.03,-0.03,0.96,0.0,0.0,0.0,0.96,1.24,77.0,3481.0,10.7,3.79,,13.11,1.252,98.8,,31.2,5.0,,,,,,,,,,,,0,0,0,0,0,0,0,0,0,0,0,0,0,0,0,0,,,,,0.0,,,,,,
284,807633,1745090971317,,,,,,,,,,,,,,,,,,,,,,,0.0,0.0,0.0,0.0,0.0,0.0,0.0,0.0,2.26,,,0,0,0,0,0,0,0,0,0,0,0,0,0,0,0,0,0.0,,,,,39.240097,-77.964836,0.05,33.0,3.0,0.8
285,807653,1745090971337,0.0,202.61,,-0.06,-0.01,1.02,0.0,0.0,0.0,1.02,1.24,82.0,3454.0,10.5,3.79,,13.15,1.25,98.8,,31.5,5.0,,,,,,,,,,,,0,0,0,0,0,0,0,0,0,0,0,0,0,0,0,0,,,,,0.0,,,,,,
286,807673,1745090971357,,,,,,,,,,,,,,,,,,,,,,,,,,,,,,,,,,0,0,0,0,0,0,0,0,0,0,0,0,0,0,0,0,,,,,,,,,,,
287,807693,1745090971377,0.0,202.61,,-0.03,0.08,1.0,0.0,0.0,0.0,1.01,1.24,81.0,3575.0,10.5,3.39,,13.15,1.25,98.8,,31.5,5.0,,,,,,,,,,,,0,0,0,0,0,0,0,0,0,0,0,0,0,0,0,0,,,,,0.0,,,,,,
288,807713,1745090971397,,,,,,,,,,,,,,,,,,,,,,,,,,,,,,,,,,0,0,0,0,0,0,0,0,0,0,0,0,0,0,0,0,,,,,,,,,,,
289,807733,1745090971416,0.0,202.49,12.59,-0.07,-0.01,1.0,0.0,0.0,0.0,1.01,1.24,81.0,3575.0,10.5,3.39,15.0,13.03,1.25,98.8,149.0,30.4,5.0,0.0,0.0,0.0,0.0,0.0,0.0,0.0,0.0,2.27,0.0,0.0,0,0,0,0,0,0,0,0,0,0,0,0,0,0,0,0,0.0,0.0,0.0,0.0,0.0,39.240097,-77.964836,0.07,33.0,3.0,0.8
290,807753,1745090971436,,,,,,,,,,,,,,,,,,,,,,,,,,,,,,,,,,0,0,0,0,0,0,0,0,0,0,0,0,0,0,0,0,,,,,,,,,,,
291,807773,1745090971456,0.0,202.49,,-0.04,0.09,0.95,0.0,0.0,0.0,0.96,1.24,77.0,3312.0,10.5,3.79,,13.19,1.252,98.8,,30.4,5.0,,,,,,,,,,,,0,0,0,0,0,0,0,0,0,0,0,0,0,0,0,0,,,,,0.0,,,,,,
292,807793,1745090971476,,,,,,,,,,,,,,,,,,,,,,,,,,,,,,,,,,0,0,0,0,0,0,0,0,0,0,0,0,0,0,0,0,,,,,,,,,,,
293,807813,1745090971496,0.0,202.49,,-0.05,0.03,1.03,0.0,0.0,0.0,1.03,1.24,83.0,3350.0,10.5,3.38,,13.15,1.252,98.8,,30.4,5.0,,,,,,,,,,,,0,0,0,0,0,0,0,0,0,0,0,0,0,0,0,0,,,,,0.0,,,,,,
294,807833,1745090971516,,,,,,,,,,,,,,,,,,,,,,,0.0,0.0,0.0,0.0,0.0,0.0,0.0,0.0,2.27,,,0,0,0,0,0,0,0,0,0,0,0,0,0,0,0,0,0.0,,,,,39.240097,-77.964836,0.05,33.0,3.0,0.8
295,807853,1745090971536,0.0,202.49,,-0.08,-0.03,1.04,0.0,0.0,0.0,1.04,1.24,84.0,3182.0,10.5,3.79,,13.19,1.252,98.8,,28.5,5.0,,,,,,,,,,,,0,0,0,0,0,0,0,0,0,0,0,0,0,0,0,0,,,,,0.0,,,,,,
296,807873,1745090971556,,,,,,,,,,,,,,,,,,,,,,,,,,,,,,,,,,0,0,0,0,0,0,0,0,0,0,0,0,0,0,0,0,,,,,,,,,,,
297,807893,1745090971576,0.0,202.49,,-0.09,-0.04,0.96,1.0,0.0,-1.0,0.97,1.24,78.0,3054.0,10.5,3.79,,13.19,1.252,98.8,,28.5,5.0,,,,,,,,,,,,0,0,0,0,0,0,0,0,0,0,0,0,0,0,0,0,,,,,0.0,,,,,,
298,807913,1745090971596,,,,,,,,,,,,,,,,,,,,,,,,,,,,,,,,,,0,0,0,0,0,0,0,0,0,0,0,0,0,0,0,0,,,,,,,,,,,
299,807933,1745090971616,0.0,202.49,,-0.06,0.01,0.87,1.0,0.0,-1.0,0.87,1.24,70.0,3054.0,10.5,3.79,,13.31,1.254,98.8,,27.0,5.0,0.0,0.0,0.0,0.0,0.0,0.0,0.0,0.0,2.26,,,0,0,0,0,0,0,0,0,0,0,0,0,0,0,0,0,0.0,,,,0.0,39.240097,-77.964836,0.0,33.0,3.0,0.8
300,807953,1745090971636,,,,,,,,,,,,,,,,,,,,,,,,,,,,,,,,,,0,0,0,0,0,0,0,0,0,0,0,0,0,0,0,0,,,,,,,,,,,
301,807973,1745090971656,0.0,202.49,,-0.03,0.09,0.84,1.0,0.0,-1.0,0.84,1.24,68.0,3091.0,10.5,3.8,,13.35,1.254,98.8,,27.0,5.0,,,,,,,,,,,,0,0,0,0,0,0,0,0,0,0,0,0,0,0,0,0,,,,,0.0,,,,,,
302,807993,1745090971676,,,,,,,,,,,,,,,,,,,,,,,,,,,,,,,,,,0,0,0,0,0,0,0,0,0,0,0,0,0,0,0,0,,,,,,,,,,,
303,808013,1745090971696,0.0,202.49,,-0.01,0.13,0.83,1.0,-1.0,0.0,0.84,1.24,68.0,3077.0,10.6,3.8,,13.28,1.254,98.8,,27.0,5.0,,,,,,,,,,,,0,0,0,0,0,0,0,0,0,0,0,0,0,0,0,0,,,,,0.0,,,,,,
304,808033,1745090971714,,,,,,,,,,,,,,,,,,,,,,,0.0,0.0,0.0,0.0,0.0,0.0,0.0,0.0,2.27,,,0,0,0,0,0,0,0,0,0,0,0,0,0,0,0,0,0.0,,,,,39.240097,-77.964836,0.1,33.0,3.0,0.8
305,808053,1745090971734,0.0,202.49,,0.02,0.17,0.83,0.0,-1.0,0.0,0.85,1.24,68.0,2979.0,10.6,3.8,,13.37,1.253,98.8,,27.0,5.0,,,,,,,,,,,,0,0,0,0,0,0,0,0,0,0,0,0,0,0,0,0,,,,,0.0,,,,,,
306,808073,1745090971754,,,,,,,,,,,,,,,,,,,,,,,,,,,,,,,,,,0,0,0,0,0,0,0,0,0,0,0,0,0,0,0,0,,,,,,,,,,,
307,808093,1745090971774,0.0,202.61,,0.03,0.17,0.87,0.0,-1.0,1.0,0.89,1.24,72.0,3053.0,10.8,3.8,,13.37,1.253,98.8,,27.0,5.0,,,,,,,,,,,,0,0,0,0,0,0,0,0,0,0,0,0,0,0,0,0,,,,,0.0,,,,,,
308,808113,1745090971794,,,,,,,,,,,,,,,,,,,,,,,,,,,,,,,,,,0,0,0,0,0,0,0,0,0,0,0,0,0,0,0,0,,,,,,,,,,,
309,808133,1745090971816,0.0,202.49,,0.04,0.13,0.93,-1.0,-1.0,1.0,0.94,1.24,76.0,3053.0,10.8,3.8,,13.41,1.25,98.8,,26.5,5.0,0.0,0.0,0.0,0.0,0.0,0.0,0.0,0.0,2.26,,,0,0,0,0,0,0,0,0,0,0,0,0,0,0,0,0,0.0,,,,0.0,39.240097,-77.964836,0.09,33.0,3.0,0.8
310,808153,1745090971836,,,,,,,,,,,,,,,,,,,,,,,,,,,,,,,,,,0,0,0,0,0,0,0,0,0,0,0,0,0,0,0,0,,,,,,,,,,,
311,808173,1745090971856,0.0,202.49,,0.02,0.04,1.01,-1.0,-1.0,1.0,1.02,1.24,82.0,3156.0,19.5,4.38,,13.63,1.252,98.8,,26.5,5.0,,,,,,,,,,,,0,0,0,0,0,0,0,0,0,0,0,0,0,0,0,0,,,,,0.0,,,,,,
312,808193,1745090971876,,,,,,,,,,,,,,,,,,,,,,,,,,,,,,,,,,0,0,0,0,0,0,0,0,0,0,0,0,0,0,0,0,,,,,,,,,,,
313,808213,1745090971896,0.0,202.49,,-0.01,-0.03,1.02,0.0,0.0,0.0,1.02,1.24,82.0,3145.0,24.3,4.44,,13.84,1.253,98.8,,26.5,5.0,,,,,,,,,,,,0,0,0,0,0,0,0,0,0,0,0,0,0,0,0,0,,,,,0.0,,,,,,
314,808233,1745090971916,,,,,,,,,,,,,,,,,,,,,,,0.0,0.0,0.0,0.0,0.0,0.0,0.0,0.0,2.26,,,0,0,0,0,0,0,0,0,0,0,0,0,0,0,0,0,0.0,,,,,39.240097,-77.964836,0.04,33.0,3.0,0.8
315,808253,1745090971936,0.0,202.49,,0.0,0.08,0.98,0.0,0.0,0.0,0.98,1.24,79.0,3228.0,26.3,4.34,,13.88,1.252,98.8,,29.0,5.0,,,,,,,,,,,,0,0,0,0,0,0,0,0,0,0,0,0,0,0,0,0,,,,,0.0,,,,,,
316,808273,1745090971956,,,,,,,,,,,,,,,,,,,,,,,,,,,,,,,,,,0,0,0,0,0,0,0,0,0,0,0,0,0,0,0,0,,,,,,,,,,,
317,808293,1745090971976,0.0,202.49,,-0.02,-0.08,0.97,0.0,0.0,0.0,0.97,1.24,79.0,3510.0,26.7,4.17,,13.88,1.252,98.8,,29.0,5.0,,,,,,,,,,,,0,0,0,0,0,0,0,0,0,0,0,0,0,0,0,0,,,,,0.0,,,,,,
318,808313,1745090971996,,,,,,,,,,,,,,,,,,,,,,,,,,,,,,,,,,0,0,0,0,0,0,0,0,0,0,0,0,0,0,0,0,,,,,,,,,,,
319,808333,1745090972008,0.0,202.61,,-0.02,-0.04,0.96,0.0,0.0,0.0,0.96,1.24,78.0,3510.0,26.7,4.17,,13.86,1.252,98.8,,33.9,5.0,0.0,0.0,0.0,0.0,0.0,0.0,0.0,0.0,2.27,,,0,0,0,0,0,0,0,0,0,0,0,0,0,0,0,0,0.0,,,,0.0,39.240097,-77.964836,0.04,33.0,3.0,0.8
320,808353,1745090972028,,,,,,,,,,,,,,,,,,,,,,,,,,,,,,,,,,0,0,0,0,0,0,0,0,0,0,0,0,0,0,0,0,,,,,,,,,,,
321,808373,1745090972048,0.0,202.49,,-0.0,-0.06,0.93,1.0,0.0,0.0,0.93,1.24,75.0,3744.0,26.7,4.22,,13.79,1.252,98.8,,33.9,5.0,,,,,,,,,,,,0,0,0,0,0,0,0,0,0,0,0,0,0,0,0,0,,,,,0.0,,,,,,
322,808393,1745090972068,,,,,,,,,,,,,,,,,,,,,,,,,,,,,,,,,,0,0,0,0,0,0,0,0,0,0,0,0,0,0,0,0,,,,,,,,,,,
323,808413,1745090972088,0.0,202.49,,-0.03,-0.09,0.93,0.0,0.0,0.0,0.94,1.24,76.0,4207.0,21.8,4.24,,13.53,1.253,98.8,,33.9,5.0,,,,,,,,,,,,0,0,0,0,0,0,0,0,0,0,0,0,0,0,0,0,,,,,0.0,,,,,,
324,808433,1745090972116,,,,,,,,,,,,,,,,,,,,,,,0.0,0.0,0.0,0.0,0.0,0.0,0.0,0.0,2.26,,,0,0,0,0,0,0,0,0,0,0,0,0,0,0,0,0,0.0,,,,,39.240097,-77.964836,0.0,33.0,3.0,0.8
325,808453,1745090972136,0.0,202.49,,-0.09,-0.01,1.0,0.0,0.0,0.0,1.0,1.24,81.0,4389.0,10.6,3.78,,12.95,1.254,98.8,,40.0,5.0,,,,,,,,,,,,0,0,0,0,0,0,0,0,0,0,0,0,0,0,0,0,,,,,0.0,,,,,,
326,808473,1745090972156,,,,,,,,,,,,,,,,,,,,,,,,,,,,,,,,,,0,0,0,0,0,0,0,0,0,0,0,0,0,0,0,0,,,,,,,,,,,
327,808493,1745090972176,0.0,202.49,,-0.1,0.09,1.09,-1.0,0.0,1.0,1.09,1.24,88.0,4440.0,6.8,3.56,,12.95,1.254,98.8,,40.0,5.0,,,,,,,,,,,,0,0,0,0,0,0,0,0,0,0,0,0,0,0,0,0,,,,,0.0,,,,,,
328,808513,1745090972196,,,,,,,,,,,,,,,,,,,,,,,,,,,,,,,,,,0,0,0,0,0,0,0,0,0,0,0,0,0,0,0,0,,,,,,,,,,,
329,808533,1745090972216,0.0,202.49,,-0.09,0.14,1.16,-2.0,0.0,1.0,1.17,1.24,95.0,4440.0,6.8,3.56,,12.51,1.242,98.8,,41.2,5.0,0.0,0.0,0.0,0.0,0.0,0.0,0.0,0.0,2.27,,,0,0,0,0,0,0,0,0,0,0,0,0,0,0,0,0,0.0,,,,0.0,39.240097,-77.964836,0.13,33.0,3.0,0.8
330,808553,1745090972236,,,,,,,,,,,,,,,,,,,,,,,,,,,,,,,,,,0,0,0,0,0,0,0,0,0,0,0,0,0,0,0,0,,,,,,,,,,,
331,808573,1745090972256,0.0,202.49,,-0.05,0.16,1.13,-1.0,0.0,1.0,1.14,1.24,92.0,4365.0,6.5,3.53,,12.25,1.211,98.8,,41.2,5.0,,,,,,,,,,,,0,0,0,0,0,0,0,0,0,0,0,0,0,0,0,0,,,,,0.0,,,,,,
332,808593,1745090972276,,,,,,,,,,,,,,,,,,,,,,,,,,,,,,,,,,0,0,0,0,0,0,0,0,0,0,0,0,0,0,0,0,,,,,,,,,,,
333,808613,1745090972296,0.0,202.61,,-0.02,0.17,1.06,-1.0,0.0,1.0,1.08,1.24,87.0,4428.0,6.4,3.5,,12.0,1.252,98.8,,41.2,5.0,,,,,,,,,,,,0,0,0,0,0,0,0,0,0,0,0,0,0,0,0,0,,,,,0.0,,,,,,
334,808633,1745090972318,,,,,,,,,,,,,,,,,,,,,,,0.0,0.0,0.0,0.0,0.0,0.0,0.0,0.0,2.26,,,0,0,0,0,0,0,0,0,0,0,0,0,0,0,0,0,0.0,,,,,39.240097,-77.964836,0.05,33.0,3.0,0.8
335,808653,1745090972338,0.0,202.74,,0.01,0.06,0.95,0.0,0.0,0.0,0.95,1.24,77.0,4346.0,6.4,3.51,,11.95,1.245,98.8,,41.0,5.0,,,,,,,,,,,,0,0,0,0,0,0,0,0,0,0,0,0,0,0,0,0,,,,,0.0,,,,,,
336,808673,1745090972358,,,,,,,,,,,,,,,,,,,,,,,,,,,,,,,,,,0,0,0,0,0,0,0,0,0,0,0,0,0,0,0,0,,,,,,,,,,,
337,808693,1745090972378,0.0,202.61,,0.01,-0.02,0.91,1.0,0.0,0.0,0.91,1.24,73.0,4374.0,8.1,3.51,,11.95,1.245,98.8,,41.0,5.0,,,,,,,,,,,,0,0,0,0,0,0,0,0,0,0,0,0,0,0,0,0,,,,,0.0,,,,,,
338,808713,1745090972398,,,,,,,,,,,,,,,,,,,,,,,,,,,,,,,,,,0,0,0,0,0,0,0,0,0,0,0,0,0,0,0,0,,,,,,,,,,,
339,808733,1745090972417,0.0,202.61,12.62,-0.04,0.04,1.02,0.0,0.0,0.0,1.02,1.24,82.0,4374.0,8.1,3.51,15.0,12.0,1.212,98.8,149.0,39.6,5.0,0.0,0.0,0.0,0.0,0.0,0.0,0.0,0.0,2.27,0.0,0.0,0,0,0,0,0,0,0,0,0,0,0,0,0,0,0,0,0.0,0.0,0.0,0.0,0.0,39.240097,-77.964836,0.07,33.0,3.0,0.8
340,808753,1745090972437,,,,,,,,,,,,,,,,,,,,,,,,,,,,,,,,,,0,0,0,0,0,0,0,0,0,0,0,0,0,0,0,0,,,,,,,,,,,
341,808773,1745090972457,0.0,202.61,,-0.03,0.02,0.98,0.0,0.0,0.0,0.98,1.24,79.0,4272.0,12.5,3.71,,12.35,1.187,98.8,,39.6,5.0,,,,,,,,,,,,0,0,0,0,0,0,0,0,0,0,0,0,0,0,0,0,,,,,0.0,,,,,,
342,808793,1745090972477,,,,,,,,,,,,,,,,,,,,,,,,,,,,,,,,,,0,0,0,0,0,0,0,0,0,0,0,0,0,0,0,0,,,,,,,,,,,
343,808813,1745090972497,0.0,202.61,,-0.04,-0.02,0.94,0.0,0.0,0.0,0.94,1.24,76.0,4208.0,14.3,3.78,,12.68,1.2,98.8,,39.6,5.0,,,,,,,,,,,,0,0,0,0,0,0,0,0,0,0,0,0,0,0,0,0,,,,,0.0,,,,,,
344,808833,1745090972517,,,,,,,,,,,,,,,,,,,,,,,0.0,0.0,0.0,0.0,0.0,0.0,0.0,0.0,2.27,,,0,0,0,0,0,0,0,0,0,0,0,0,0,0,0,0,0.0,,,,,39.240097,-77.964836,0.19,33.0,3.0,0.8
345,808853,1745090972537,0.0,202.74,,-0.02,0.04,1.01,0.0,0.0,0.0,1.01,1.24,82.0,4103.0,14.9,3.8,,12.92,1.238,98.8,,38.5,5.0,,,,,,,,,,,,0,0,0,0,0,0,0,0,0,0,0,0,0,0,0,0,,,,,0.0,,,,,,
346,808873,1745090972557,,,,,,,,,,,,,,,,,,,,,,,,,,,,,,,,,,0,0,0,0,0,0,0,0,0,0,0,0,0,0,0,0,,,,,,,,,,,
347,808893,1745090972577,0.0,202.74,,-0.02,-0.05,0.96,0.0,0.0,0.0,0.96,1.24,77.0,4134.0,15.1,3.81,,12.92,1.238,98.8,,38.5,5.0,,,,,,,,,,,,0,0,0,0,0,0,0,0,0,0,0,0,0,0,0,0,,,,,0.0,,,,,,
348,808913,1745090972597,,,,,,,,,,,,,,,,,,,,,,,,,,,,,,,,,,0,0,0,0,0,0,0,0,0,0,0,0,0,0,0,0,,,,,,,,,,,
349,808933,1745090972617,0.0,202.74,,-0.01,0.08,1.05,0.0,0.0,0.0,1.05,1.24,85.0,4134.0,15.1,3.81,,12.97,1.253,98.8,,37.5,5.0,0.0,0.0,0.0,0.0,0.0,0.0,0.0,0.0,2.26,,,0,0,0,0,0,0,0,0,0,0,0,0,0,0,0,0,0.0,,,,0.0,39.240097,-77.964836,0.08,33.0,3.0,0.8
350,808953,1745090972637,,,,,,,,,,,,,,,,,,,,,,,,,,,,,,,,,,0,0,0,0,0,0,0,0,0,0,0,0,0,0,0,0,,,,,,,,,,,
351,808973,1745090972657,0.0,202.74,,-0.03,-0.04,0.96,0.0,0.0,0.0,0.96,1.24,78.0,4147.0,15.3,3.81,,13.01,1.254,98.8,,37.5,5.0,,,,,,,,,,,,0,0,0,0,0,0,0,0,0,0,0,0,0,0,0,0,,,,,0.0,,,,,,
352,808993,1745090972677,,,,,,,,,,,,,,,,,,,,,,,,,,,,,,,,,,0,0,0,0,0,0,0,0,0,0,0,0,0,0,0,0,,,,,,,,,,,
353,809013,1745090972697,0.0,202.61,,-0.06,0.05,1.06,0.0,0.0,0.0,1.06,1.24,86.0,4157.0,15.4,3.82,,13.03,1.254,98.8,,37.5,5.0,,,,,,,,,,,,0,0,0,0,0,0,0,0,0,0,0,0,0,0,0,0,,,,,0.0,,,,,,
354,809033,1745090972717,,,,,,,,,,,,,,,,,,,,,,,0.0,0.0,0.0,0.0,0.0,0.0,0.0,0.0,2.27,,,0,0,0,0,0,0,0,0,0,0,0,0,0,0,0,0,0.0,,,,,39.240097,-77.964836,0.18,33.0,3.0,0.8
355,809053,1745090972737,0.0,202.61,,-0.05,-0.04,0.93,0.0,0.0,0.0,0.93,1.24,75.0,4118.0,15.5,3.83,,12.99,1.253,98.8,,38.0,5.0,,,,,,,,,,,,0,0,0,0,0,0,0,0,0,0,0,0,0,0,0,0,,,,,0.0,,,,,,
356,809073,1745090972757,,,,,,,,,,,,,,,,,,,,,,,,,,,,,,,,,,0,0,0,0,0,0,0,0,0,0,0,0,0,0,0,0,,,,,,,,,,,
357,809093,1745090972777,0.0,202.61,,-0.06,0.04,1.03,0.0,0.0,0.0,1.03,1.24,83.0,4177.0,15.4,3.83,,12.99,1.253,98.8,,38.0,5.0,,,,,,,,,,,,0,0,0,0,0,0,0,0,0,0,0,0,0,0,0,0,,,,,0.0,,,,,,
358,809113,1745090972797,,,,,,,,,,,,,,,,,,,,,,,,,,,,,,,,,,0,0,0,0,0,0,0,0,0,0,0,0,0,0,0,0,,,,,,,,,,,
359,809133,1745090972817,0.0,202.61,,-0.03,-0.04,0.94,1.0,0.0,0.0,0.94,1.24,76.0,4177.0,15.4,3.83,,12.93,1.254,98.8,,38.0,5.0,0.0,0.0,0.0,0.0,0.0,0.0,0.0,0.0,2.26,,,0,0,0,0,0,0,0,0,0,0,0,0,0,0,0,0,0.0,,,,0.0,39.240097,-77.964836,0.11,33.0,3.0,0.8
360,809153,1745090972837,,,,,,,,,,,,,,,,,,,,,,,,,,,,,,,,,,0,0,0,0,0,0,0,0,0,0,0,0,0,0,0,0,,,,,,,,,,,
361,809173,1745090972857,0.0,202.61,,-0.05,-0.01,1.01,0.0,0.0,0.0,1.01,1.24,82.0,4193.0,15.3,3.82,,12.95,1.254,98.8,,38.0,5.0,,,,,,,,,,,,0,0,0,0,0,0,0,0,0,0,0,0,0,0,0,0,,,,,0.0,,,,,,
362,809193,1745090972877,,,,,,,,,,,,,,,,,,,,,,,,,,,,,,,,,,0,0,0,0,0,0,0,0,0,0,0,0,0,0,0,0,,,,,,,,,,,
363,809213,1745090972897,0.0,202.49,,-0.04,0.0,1.0,0.0,0.0,0.0,1.0,1.24,81.0,4144.0,15.3,3.83,,12.99,1.253,98.8,,38.0,5.0,,,,,,,,,,,,0,0,0,0,0,0,0,0,0,0,0,0,0,0,0,0,,,,,0.0,,,,,,
364,809233,1745090972917,,,,,,,,,,,,,,,,,,,,,,,0.0,0.0,0.0,0.0,0.0,0.0,0.0,0.0,2.27,,,0,0,0,0,0,0,0,0,0,0,0,0,0,0,0,0,0.0,,,,,39.240097,-77.964836,0.13,33.0,3.0,0.8
365,809253,1745090972937,0.0,202.61,,-0.06,-0.05,0.97,0.0,0.0,0.0,0.97,1.24,78.0,4114.0,15.2,3.82,,12.96,1.253,98.8,,37.8,5.0,,,,,,,,,,,,0,0,0,0,0,0,0,0,0,0,0,0,0,0,0,0,,,,,0.0,,,,,,
366,809273,1745090972957,,,,,,,,,,,,,,,,,,,,,,,,,,,,,,,,,,0,0,0,0,0,0,0,0,0,0,0,0,0,0,0,0,,,,,,,,,,,
367,809293,1745090972977,0.0,202.61,,-0.05,0.02,1.01,0.0,0.0,0.0,1.01,1.24,82.0,4197.0,15.2,3.82,,12.96,1.253,98.8,,37.8,5.0,,,,,,,,,,,,0,0,0,0,0,0,0,0,0,0,0,0,0,0,0,0,,,,,0.0,,,,,,
368,809313,1745090972997,,,,,,,,,,,,,,,,,,,,,,,,,,,,,,,,,,0,0,0,0,0,0,0,0,0,0,0,0,0,0,0,0,,,,,,,,,,,
369,809333,1745090973011,0.0,202.61,,-0.04,-0.1,0.92,0.0,0.0,0.0,0.93,1.24,75.0,4197.0,15.2,3.82,,12.93,1.252,98.8,,37.7,5.0,0.0,0.0,0.0,0.0,0.0,0.0,0.0,0.0,2.26,,,0,0,0,0,0,0,0,0,0,0,0,0,0,0,0,0,0.0,,,,0.0,39.240097,-77.964836,0.15,33.0,3.0,0.8
370,809353,1745090973031,,,,,,,,,,,,,,,,,,,,,,,,,,,,,,,,,,0,0,0,0,0,0,0,0,0,0,0,0,0,0,0,0,,,,,,,,,,,
371,809373,1745090973051,0.0,202.74,,-0.03,0.03,1.02,0.0,0.0,0.0,1.02,1.24,83.0,4170.0,15.3,3.82,,12.99,1.253,98.8,,37.7,5.0,,,,,,,,,,,,0,0,0,0,0,0,0,0,0,0,0,0,0,0,0,0,,,,,0.0,,,,,,
372,809393,1745090973071,,,,,,,,,,,,,,,,,,,,,,,,,,,,,,,,,,0,0,0,0,0,0,0,0,0,0,0,0,0,0,0,0,,,,,,,,,,,
373,809413,1745090973091,0.0,202.61,,-0.02,-0.06,0.92,1.0,0.0,0.0,0.92,1.24,74.0,4167.0,15.3,3.82,,12.96,1.253,98.8,,37.7,5.0,,,,,,,,,,,,0,0,0,0,0,0,0,0,0,0,0,0,0,0,0,0,,,,,0.0,,,,,,
374,809433,1745090973117,,,,,,,,,,,,,,,,,,,,,,,0.0,0.0,0.0,0.0,0.0,0.0,0.0,0.0,2.26,,,0,0,0,0,0,0,0,0,0,0,0,0,0,0,0,0,0.0,,,,,39.240097,-77.964836,0.07,33.0,3.0,0.8
375,809453,1745090973137,0.0,202.61,,-0.04,-0.13,0.87,0.0,0.0,0.0,0.89,1.24,71.0,4368.0,15.4,3.84,,12.85,1.254,98.8,,38.7,5.0,,,,,,,,,,,,0,0,0,0,0,0,0,0,0,0,0,0,0,0,0,0,,,,,0.0,,,,,,
376,809473,1745090973157,,,,,,,,,,,,,,,,,,,,,,,,,,,,,,,,,,0,0,0,0,0,0,0,0,0,0,0,0,0,0,0,0,,,,,,,,,,,
377,809493,1745090973177,0.0,202.61,,-0.06,-0.13,0.89,0.0,0.0,0.0,0.9,1.24,73.0,4451.0,15.3,3.85,,12.85,1.254,98.8,,38.7,5.0,,,,,,,,,,,,0,0,0,0,0,0,0,0,0,0,0,0,0,0,0,0,,,,,0.0,,,,,,
378,809513,1745090973197,,,,,,,,,,,,,,,,,,,,,,,,,,,,,,,,,,0,0,0,0,0,0,0,0,0,0,0,0,0,0,0,0,,,,,,,,,,,
379,809533,1745090973217,0.0,202.49,,-0.1,-0.19,0.87,-1.0,0.0,0.0,0.89,1.24,72.0,4451.0,15.3,3.85,,12.88,1.255,98.8,,41.3,5.0,0.0,0.0,0.0,0.0,0.0,0.0,0.0,0.0,2.26,,,0,0,0,0,0,0,0,0,0,0,0,0,0,0,0,0,0.0,,,,0.0,39.240097,-77.964836,0.05,33.0,3.0,0.8
380,809553,1745090973237,,,,,,,,,,,,,,,,,,,,,,,,,,,,,,,,,,0,0,0,0,0,0,0,0,0,0,0,0,0,0,0,0,,,,,,,,,,,
381,809573,1745090973257,0.0,202.49,,-0.08,-0.26,0.81,-1.0,0.0,0.0,0.86,1.24,69.0,4588.0,15.5,3.85,,12.83,1.251,98.8,,41.3,5.0,,,,,,,,,,,,0,0,0,0,0,0,0,0,0,0,0,0,0,0,0,0,,,,,0.0,,,,,,
382,809593,1745090973277,,,,,,,,,,,,,,,,,,,,,,,,,,,,,,,,,,0,0,0,0,0,0,0,0,0,0,0,0,0,0,0,0,,,,,,,,,,,
383,809613,1745090973297,0.0,202.49,,-0.05,-0.33,0.75,0.0,0.0,0.0,0.82,1.24,66.0,4606.0,15.3,3.86,,12.81,1.253,98.8,,41.3,5.0,,,,,,,,,,,,0,0,0,0,0,0,0,0,0,0,0,0,0,0,0,0,,,,,0.0,,,,,,
384,809633,1745090973317,,,,,,,,,,,,,,,,,,,,,,,0.0,0.0,0.0,0.0,0.0,0.0,0.0,0.0,2.26,,,0,0,0,0,0,0,0,0,0,0,0,0,0,0,0,0,0.0,,,,,39.240097,-77.964836,0.11,33.0,3.0,0.8
