,Interval,Utc,FrontBP,SteerAng,Battery,AccelX,AccelY,AccelZ,Yaw,Pitch,Roll,Gsum,GsumMax,GsumPct,RPM,TPS,InjectorPW,Baro,MAP,Lambda,IAT,EngineTemp,EOP,EOT,WSFR,WSFL,WSRR,WSRL,TCSet,TCSlip,TCComp,TCCut,Analog8,OilTemp,AA_On,ThermLF1,ThermLF2,ThermRR1,ThermRR2,ThermLF3,ThermLF4,ThermLF5,ThermLF6,ThermLF7,ThermLF8,ThermRR3,ThermRR4,ThermRR5,ThermRR6,ThermRR7,ThermRR8,Gear,AA_On1,AA_LowDrag,Fuel_Mix,AA_Packages,Latitude,Longitude,Speed,GPSSats,GPSQual,GPSDOP
0,873353,1745091037029,,,,,,,,,,,,,,,,,,,,,,,,,,,,,,,,,,0.0,0.0,0.0,0.0,0.0,0.0,0.0,0.0,0.0,0.0,0.0,0.0,0.0,0.0,0.0,0.0,,,,,,,,,,,
1,873373,1745091037049,0.0,202.36,,-0.11,0.05,1.09,-1.0,0.0,1.0,1.1,1.1,100.0,5015.0,11.6,3.64,,12.33,0.991,95.2,,43.9,5.0,,,,,,,,,,,,0.0,0.0,0.0,0.0,0.0,0.0,0.0,0.0,0.0,0.0,0.0,0.0,0.0,0.0,0.0,0.0,,,,,0.0,,,,,,
2,873393,1745091037069,,,,,,,,,,,,,,,,,,,,,,,,,,,,,,,,,,0.0,0.0,0.0,0.0,0.0,0.0,0.0,0.0,0.0,0.0,0.0,0.0,0.0,0.0,0.0,0.0,,,,,,,,,,,
3,873413,1745091037089,0.0,202.24,,-0.07,0.03,1.08,-1.0,0.0,1.0,1.09,1.1,99.0,5131.0,11.6,3.68,,12.15,1.009,95.2,,43.9,5.0,,,,,,,,,,,,0.0,0.0,0.0,0.0,0.0,0.0,0.0,0.0,0.0,0.0,0.0,0.0,0.0,0.0,0.0,0.0,,,,,0.0,,,,,,
4,873433,1745091037117,,,,,,,,,,,,,,,,,,,,,,,0.0,0.0,0.0,0.0,0.0,0.0,0.0,0.0,2.26,,,0.0,0.0,0.0,0.0,0.0,0.0,0.0,0.0,0.0,0.0,0.0,0.0,0.0,0.0,0.0,0.0,0.0,,,,,39.240097,-77.964836,0.04,33.0,3.0,0.8
5,873453,1745091037137,0.0,202.24,,-0.08,0.01,1.09,-1.0,0.0,1.0,1.09,1.1,99.0,5263.0,11.5,3.73,,12.24,1.077,95.2,,44.7,5.0,,,,,,,,,,,,0.0,0.0,0.0,0.0,0.0,0.0,0.0,0.0,0.0,0.0,0.0,0.0,0.0,0.0,0.0,0.0,,,,,0.0,,,,,,
6,873473,1745091037157,,,,,,,,,,,,,,,,,,,,,,,,,,,,,,,,,,0.0,0.0,0.0,0.0,0.0,0.0,0.0,0.0,0.0,0.0,0.0,0.0,0.0,0.0,0.0,0.0,,,,,,,,,,,
7,873493,1745091037177,0.0,202.24,,-0.1,-0.03,1.02,0.0,0.0,0.0,1.03,1.1,94.0,5490.0,11.5,3.86,,12.24,1.077,95.2,,44.7,5.0,,,,,,,,,,,,0.0,0.0,0.0,0.0,0.0,0.0,0.0,0.0,0.0,0.0,0.0,0.0,0.0,0.0,0.0,0.0,,,,,0.0,,,,,,
8,873513,1745091037197,,,,,,,,,,,,,,,,,,,,,,,,,,,,,,,,,,0.0,0.0,0.0,0.0,0.0,0.0,0.0,0.0,0.0,0.0,0.0,0.0,0.0,0.0,0.0,0.0,,,,,,,,,,,
9,873533,1745091037219,0.0,202.24,,-0.07,0.04,1.06,-1.0,0.0,1.0,1.07,1.1,97.0,5490.0,11.5,3.86,,12.03,1.043,95.2,,49.7,5.0,0.0,0.0,0.0,0.0,0.0,0.0,0.0,0.0,2.26,,,0.0,0.0,0.0,0.0,0.0,0.0,0.0,0.0,0.0,0.0,0.0,0.0,0.0,0.0,0.0,0.0,0.0,,,,0.0,39.240097,-77.964836,0.04,33.0,3.0,0.8
10,873553,1745091037239,,,,,,,,,,,,,,,,,,,,,,,,,,,,,,,,,,0.0,0.0,0.0,0.0,0.0,0.0,0.0,0.0,0.0,0.0,0.0,0.0,0.0,0.0,0.0,0.0,,,,,,,,,,,
11,873573,1745091037259,0.0,202.24,,-0.1,-0.07,0.97,1.0,0.0,0.0,0.98,1.1,89.0,5700.0,11.5,3.94,,11.79,0.952,95.2,,49.7,5.0,,,,,,,,,,,,0.0,0.0,0.0,0.0,0.0,0.0,0.0,0.0,0.0,0.0,0.0,0.0,0.0,0.0,0.0,0.0,,,,,0.0,,,,,,
12,873593,1745091037279,,,,,,,,,,,,,,,,,,,,,,,,,,,,,,,,,,0.0,0.0,0.0,0.0,0.0,0.0,0.0,0.0,0.0,0.0,0.0,0.0,0.0,0.0,0.0,0.0,,,,,,,,,,,
13,873613,1745091037299,0.0,202.24,,-0.12,-0.18,0.88,1.0,0.0,-1.0,0.91,1.1,83.0,5950.0,11.5,4.01,,11.48,0.955,95.2,,49.7,5.0,,,,,,,,,,,,0.0,0.0,0.0,0.0,0.0,0.0,0.0,0.0,0.0,0.0,0.0,0.0,0.0,0.0,0.0,0.0,,,,,0.0,,,,,,
14,873633,1745091037317,,,,,,,,,,,,,,,,,,,,,,,0.0,0.0,0.0,0.0,0.0,0.0,0.0,0.0,2.26,,,0.0,0.0,0.0,0.0,0.0,0.0,0.0,0.0,0.0,0.0,0.0,0.0,0.0,0.0,0.0,0.0,0.0,,,,,39.240097,-77.964836,0.0,33.0,3.0,0.8
15,873653,1745091037337,0.0,202.24,,-0.1,-0.1,0.92,0.0,0.0,0.0,0.94,1.1,85.0,6393.0,11.6,4.29,,11.14,1.006,95.2,,54.6,5.0,,,,,,,,,,,,0.0,0.0,0.0,0.0,0.0,0.0,0.0,0.0,0.0,0.0,0.0,0.0,0.0,0.0,0.0,0.0,,,,,0.0,,,,,,
16,873673,1745091037357,,,,,,,,,,,,,,,,,,,,,,,,,,,,,,,,,,0.0,0.0,0.0,0.0,0.0,0.0,0.0,0.0,0.0,0.0,0.0,0.0,0.0,0.0,0.0,0.0,,,,,,,,,,,
17,873693,1745091037377,0.0,202.24,,-0.14,-0.13,0.93,1.0,0.0,0.0,0.95,1.1,86.0,6961.0,11.6,3.6,,11.14,1.006,95.2,,54.6,5.0,,,,,,,,,,,,0.0,0.0,0.0,0.0,0.0,0.0,0.0,0.0,0.0,0.0,0.0,0.0,0.0,0.0,0.0,0.0,,,,,0.0,,,,,,
18,873713,1745091037397,,,,,,,,,,,,,,,,,,,,,,,,,,,,,,,,,,0.0,0.0,0.0,0.0,0.0,0.0,0.0,0.0,0.0,0.0,0.0,0.0,0.0,0.0,0.0,0.0,,,,,,,,,,,
19,873733,1745091037418,0.0,202.11,13.08,-0.12,-0.0,0.95,0.0,0.0,0.0,0.95,1.1,87.0,6961.0,11.6,3.6,15.0,10.49,0.937,95.2,167.0,64.4,5.0,0.0,0.0,0.0,0.0,0.0,0.0,0.0,0.0,2.26,0.0,0.0,0.0,0.0,0.0,0.0,0.0,0.0,0.0,0.0,0.0,0.0,0.0,0.0,0.0,0.0,0.0,0.0,0.0,0.0,0.0,0.0,0.0,39.240097,-77.964836,0.11,33.0,3.0,0.8
20,873753,1745091037438,,,,,,,,,,,,,,,,,,,,,,,,,,,,,,,,,,0.0,0.0,0.0,0.0,0.0,0.0,0.0,0.0,0.0,0.0,0.0,0.0,0.0,0.0,0.0,0.0,,,,,,,,,,,
21,873773,1745091037458,0.0,202.11,,-0.11,0.04,0.93,0.0,0.0,0.0,0.94,1.1,85.0,7461.0,11.6,3.41,,9.96,0.908,95.2,,64.4,5.0,,,,,,,,,,,,0.0,0.0,0.0,0.0,0.0,0.0,0.0,0.0,0.0,0.0,0.0,0.0,0.0,0.0,0.0,0.0,,,,,0.0,,,,,,
22,873793,1745091037478,,,,,,,,,,,,,,,,,,,,,,,,,,,,,,,,,,0.0,0.0,0.0,0.0,0.0,0.0,0.0,0.0,0.0,0.0,0.0,0.0,0.0,0.0,0.0,0.0,,,,,,,,,,,
23,873813,1745091037498,0.0,202.11,,-0.12,0.09,0.96,0.0,0.0,0.0,0.97,1.1,88.0,8050.0,12.5,3.14,,9.65,0.908,95.2,,64.4,5.0,,,,,,,,,,,,0.0,0.0,0.0,0.0,0.0,0.0,0.0,0.0,0.0,0.0,0.0,0.0,0.0,0.0,0.0,0.0,,,,,0.0,,,,,,
24,873833,1745091037516,,,,,,,,,,,,,,,,,,,,,,,0.0,0.0,0.0,0.0,0.0,0.0,0.0,0.0,2.26,,,0.0,0.0,0.0,0.0,0.0,0.0,0.0,0.0,0.0,0.0,0.0,0.0,0.0,0.0,0.0,0.0,0.0,,,,,39.240097,-77.964836,0.12,33.0,3.0,0.8
25,873853,1745091037536,0.0,202.11,,-0.05,-0.02,0.98,1.0,0.0,0.0,0.98,1.1,89.0,8715.0,9.5,2.87,,8.81,0.901,95.2,,61.1,5.0,,,,,,,,,,,,0.0,0.0,0.0,0.0,0.0,0.0,0.0,0.0,0.0,0.0,0.0,0.0,0.0,0.0,0.0,0.0,,,,,0.0,,,,,,
26,873873,1745091037556,,,,,,,,,,,,,,,,,,,,,,,,,,,,,,,,,,0.0,0.0,0.0,0.0,0.0,0.0,0.0,0.0,0.0,0.0,0.0,0.0,0.0,0.0,0.0,0.0,,,,,,,,,,,
27,873893,1745091037576,0.0,201.99,,-0.03,0.1,1.02,0.0,-1.0,0.0,1.03,1.1,93.0,9422.0,3.0,1.49,,8.81,0.901,95.2,,61.1,5.0,,,,,,,,,,,,0.0,0.0,0.0,0.0,0.0,0.0,0.0,0.0,0.0,0.0,0.0,0.0,0.0,0.0,0.0,0.0,,,,,0.0,,,,,,
28,873913,1745091037596,,,,,,,,,,,,,,,,,,,,,,,,,,,,,,,,,,0.0,0.0,0.0,0.0,0.0,0.0,0.0,0.0,0.0,0.0,0.0,0.0,0.0,0.0,0.0,0.0,,,,,,,,,,,
29,873933,1745091037618,0.0,201.86,,-0.08,-0.1,1.0,1.0,0.0,0.0,1.01,1.1,91.0,9422.0,3.0,1.49,,7.58,0.881,95.2,,65.5,5.0,0.0,0.0,0.0,0.0,0.0,0.0,0.0,0.0,2.26,,,0.0,0.0,0.0,0.0,0.0,0.0,0.0,0.0,0.0,0.0,0.0,0.0,0.0,0.0,0.0,0.0,0.0,,,,0.0,39.240097,-77.964836,0.08,33.0,3.0,0.8
30,873953,1745091037638,,,,,,,,,,,,,,,,,,,,,,,,,,,,,,,,,,0.0,0.0,0.0,0.0,0.0,0.0,0.0,0.0,0.0,0.0,0.0,0.0,0.0,0.0,0.0,0.0,,,,,,,,,,,
31,873973,1745091037658,0.0,201.73,,-0.1,-0.02,0.95,0.0,0.0,0.0,0.96,1.1,87.0,9552.0,0.2,1.4,,6.42,0.871,95.2,,65.5,5.0,,,,,,,,,,,,0.0,0.0,0.0,0.0,0.0,0.0,0.0,0.0,0.0,0.0,0.0,0.0,0.0,0.0,0.0,0.0,,,,,0.0,,,,,,
32,873993,1745091037678,,,,,,,,,,,,,,,,,,,,,,,,,,,,,,,,,,0.0,0.0,0.0,0.0,0.0,0.0,0.0,0.0,0.0,0.0,0.0,0.0,0.0,0.0,0.0,0.0,,,,,,,,,,,
33,874013,1745091037698,0.0,201.48,,-0.03,-0.16,1.03,1.0,-1.0,0.0,1.05,1.1,95.0,9204.0,0.3,1.4,,5.71,0.914,95.2,,65.5,5.0,,,,,,,,,,,,0.0,0.0,0.0,0.0,0.0,0.0,0.0,0.0,0.0,0.0,0.0,0.0,0.0,0.0,0.0,0.0,,,,,0.0,,,,,,
34,874033,1745091037718,,,,,,,,,,,,,,,,,,,,,,,0.0,0.0,0.0,0.0,0.0,0.0,0.0,0.0,2.26,,,0.0,0.0,0.0,0.0,0.0,0.0,0.0,0.0,0.0,0.0,0.0,0.0,0.0,0.0,0.0,0.0,0.0,,,,,39.240097,-77.964836,0.1,33.0,3.0,0.8
35,874053,1745091037738,0.0,201.36,,0.04,-0.22,1.08,1.0,0.0,0.0,1.1,1.1,100.0,8965.0,0.3,1.4,,5.42,1.113,95.2,,61.7,5.0,,,,,,,,,,,,0.0,0.0,0.0,0.0,0.0,0.0,0.0,0.0,0.0,0.0,0.0,0.0,0.0,0.0,0.0,0.0,,,,,0.0,,,,,,
36,874073,1745091037758,,,,,,,,,,,,,,,,,,,,,,,,,,,,,,,,,,0.0,0.0,0.0,0.0,0.0,0.0,0.0,0.0,0.0,0.0,0.0,0.0,0.0,0.0,0.0,0.0,,,,,,,,,,,
37,874093,1745091037778,0.0,201.11,,0.02,-0.18,1.06,1.0,0.0,0.0,1.07,1.1,98.0,8792.0,0.3,1.4,,5.42,1.113,95.2,,61.7,5.0,,,,,,,,,,,,0.0,0.0,0.0,0.0,0.0,0.0,0.0,0.0,0.0,0.0,0.0,0.0,0.0,0.0,0.0,0.0,,,,,0.0,,,,,,
38,874113,1745091037798,,,,,,,,,,,,,,,,,,,,,,,,,,,,,,,,,,0.0,0.0,0.0,0.0,0.0,0.0,0.0,0.0,0.0,0.0,0.0,0.0,0.0,0.0,0.0,0.0,,,,,,,,,,,
39,874133,1745091037818,0.0,201.11,,-0.04,-0.09,1.09,1.0,0.0,0.0,1.09,1.1,99.0,8792.0,0.3,1.4,,5.28,1.25,95.2,,61.0,5.0,0.0,0.0,0.0,0.0,0.0,0.0,0.0,0.0,2.26,,,0.0,0.0,0.0,0.0,0.0,0.0,0.0,0.0,0.0,0.0,0.0,0.0,0.0,0.0,0.0,0.0,0.0,,,,0.0,39.240097,-77.964836,0.59,33.0,3.0,0.8
40,874153,1745091037838,,,,,,,,,,,,,,,,,,,,,,,,,,,,,,,,,,0.0,0.0,0.0,0.0,0.0,0.0,0.0,0.0,0.0,0.0,0.0,0.0,0.0,0.0,0.0,0.0,,,,,,,,,,,
41,874173,1745091037858,0.0,200.85,,-0.03,-0.1,1.06,0.0,0.0,0.0,1.07,1.1,97.0,8566.0,6.2,1.61,,5.54,1.216,95.2,,61.0,5.0,,,,,,,,,,,,0.0,0.0,0.0,0.0,0.0,0.0,0.0,0.0,0.0,0.0,0.0,0.0,0.0,0.0,0.0,0.0,,,,,0.0,,,,,,
42,874193,1745091037878,,,,,,,,,,,,,,,,,,,,,,,,,,,,,,,,,,0.0,0.0,0.0,0.0,0.0,0.0,0.0,0.0,0.0,0.0,0.0,0.0,0.0,0.0,0.0,0.0,,,,,,,,,,,
43,874213,1745091037898,0.0,200.6,,-0.02,-0.09,1.03,0.0,0.0,0.0,1.04,1.1,94.0,8294.0,11.6,1.98,,6.47,1.107,95.2,,61.0,5.0,,,,,,,,,,,,0.0,0.0,0.0,0.0,0.0,0.0,0.0,0.0,0.0,0.0,0.0,0.0,0.0,0.0,0.0,0.0,,,,,0.0,,,,,,
44,874233,1745091037918,,,,,,,,,,,,,,,,,,,,,,,0.0,0.0,0.0,0.0,0.0,0.0,0.0,0.0,2.26,,,0.0,0.0,0.0,0.0,0.0,0.0,0.0,0.0,0.0,0.0,0.0,0.0,0.0,0.0,0.0,0.0,0.0,,,,,39.240097,-77.964836,0.31,33.0,3.0,0.8
45,874253,1745091037938,0.0,200.35,,-0.04,-0.05,1.05,0.0,0.0,0.0,1.05,1.1,96.0,8161.0,13.6,2.31,,7.35,1.139,95.2,,61.1,5.0,,,,,,,,,,,,0.0,0.0,0.0,0.0,0.0,0.0,0.0,0.0,0.0,0.0,0.0,0.0,0.0,0.0,0.0,0.0,,,,,0.0,,,,,,
46,874273,1745091037958,,,,,,,,,,,,,,,,,,,,,,,,,,,,,,,,,,0.0,0.0,0.0,0.0,0.0,0.0,0.0,0.0,0.0,0.0,0.0,0.0,0.0,0.0,0.0,0.0,,,,,,,,,,,
47,874293,1745091037978,0.0,200.1,,-0.03,-0.05,1.05,0.0,0.0,0.0,1.05,1.1,96.0,8118.0,15.9,2.54,,7.35,1.139,95.2,,61.1,5.0,,,,,,,,,,,,0.0,0.0,0.0,0.0,0.0,0.0,0.0,0.0,0.0,0.0,0.0,0.0,0.0,0.0,0.0,0.0,,,,,0.0,,,,,,
48,874313,1745091037998,,,,,,,,,,,,,,,,,,,,,,,,,,,,,,,,,,0.0,0.0,0.0,0.0,0.0,0.0,0.0,0.0,0.0,0.0,0.0,0.0,0.0,0.0,0.0,0.0,,,,,,,,,,,
49,874333,1745091038010,0.0,199.85,,-0.03,-0.14,1.05,1.0,0.0,0.0,1.06,1.1,96.0,8118.0,15.9,2.54,,8.13,1.155,95.2,,61.1,5.0,0.0,0.0,0.0,0.0,0.0,0.0,0.0,0.0,2.26,,,0.0,0.0,0.0,0.0,0.0,0.0,0.0,0.0,0.0,0.0,0.0,0.0,0.0,0.0,0.0,0.0,0.0,,,,0.0,39.240097,-77.964836,0.0,33.0,3.0,0.8
50,874353,1745091038030,,,,,,,,,,,,,,,,,,,,,,,,,,,,,,,,,,0.0,0.0,0.0,0.0,0.0,0.0,0.0,0.0,0.0,0.0,0.0,0.0,0.0,0.0,0.0,0.0,,,,,,,,,,,
51,874373,1745091038050,0.0,199.72,,-0.03,-0.14,1.03,1.0,0.0,0.0,1.04,1.1,95.0,8103.0,16.5,2.84,,8.73,1.118,95.2,,61.1,5.0,,,,,,,,,,,,0.0,0.0,0.0,0.0,0.0,0.0,0.0,0.0,0.0,0.0,0.0,0.0,0.0,0.0,0.0,0.0,,,,,0.0,,,,,,
52,874393,1745091038070,,,,,,,,,,,,,,,,,,,,,,,,,,,,,,,,,,0.0,0.0,0.0,0.0,0.0,0.0,0.0,0.0,0.0,0.0,0.0,0.0,0.0,0.0,0.0,0.0,,,,,,,,,,,
53,874413,1745091038090,0.0,199.6,,-0.03,-0.08,1.04,1.0,0.0,0.0,1.04,1.1,95.0,8281.0,7.1,2.62,,8.39,1.107,95.2,,61.1,5.0,,,,,,,,,,,,0.0,0.0,0.0,0.0,0.0,0.0,0.0,0.0,0.0,0.0,0.0,0.0,0.0,0.0,0.0,0.0,,,,,0.0,,,,,,
54,874433,1745091038118,,,,,,,,,,,,,,,,,,,,,,,0.0,0.0,0.0,0.0,0.0,0.0,0.0,0.0,2.26,,,0.0,0.0,0.0,0.0,0.0,0.0,0.0,0.0,0.0,0.0,0.0,0.0,0.0,0.0,0.0,0.0,0.0,,,,,39.240097,-77.964836,0.0,33.0,3.0,0.8
55,874453,1745091038138,0.0,199.47,,-0.05,-0.09,1.02,1.0,0.0,0.0,1.02,1.1,93.0,8420.0,0.1,1.4,,7.11,1.081,95.2,,63.3,5.0,,,,,,,,,,,,0.0,0.0,0.0,0.0,0.0,0.0,0.0,0.0,0.0,0.0,0.0,0.0,0.0,0.0,0.0,0.0,,,,,0.0,,,,,,
56,874473,1745091038158,,,,,,,,,,,,,,,,,,,,,,,,,,,,,,,,,,0.0,0.0,0.0,0.0,0.0,0.0,0.0,0.0,0.0,0.0,0.0,0.0,0.0,0.0,0.0,0.0,,,,,,,,,,,
57,874493,1745091038178,0.0,199.1,,-0.06,-0.22,1.0,1.0,0.0,0.0,1.03,1.1,94.0,7878.0,0.0,1.4,,7.11,1.081,95.2,,63.3,5.0,,,,,,,,,,,,0.0,0.0,0.0,0.0,0.0,0.0,0.0,0.0,0.0,0.0,0.0,0.0,0.0,0.0,0.0,0.0,,,,,0.0,,,,,,
58,874513,1745091038198,,,,,,,,,,,,,,,,,,,,,,,,,,,,,,,,,,0.0,0.0,0.0,0.0,0.0,0.0,0.0,0.0,0.0,0.0,0.0,0.0,0.0,0.0,0.0,0.0,,,,,,,,,,,
59,874533,1745091038218,0.0,199.1,,-0.04,-0.27,1.06,3.0,0.0,-1.0,1.09,1.1,99.0,7878.0,0.0,1.4,,6.35,1.05,95.2,,59.5,5.0,0.0,0.0,0.0,0.0,0.0,0.0,0.0,0.0,2.26,,,0.0,0.0,0.0,0.0,0.0,0.0,0.0,0.0,0.0,0.0,0.0,0.0,0.0,0.0,0.0,0.0,0.0,,,,0.0,39.240097,-77.964836,0.1,33.0,3.0,0.8
60,874553,1745091038238,,,,,,,,,,,,,,,,,,,,,,,,,,,,,,,,,,0.0,0.0,0.0,0.0,0.0,0.0,0.0,0.0,0.0,0.0,0.0,0.0,0.0,0.0,0.0,0.0,,,,,,,,,,,
61,874573,1745091038258,0.0,199.22,,-0.07,-0.32,1.0,3.0,0.0,-1.0,1.05,1.1,95.0,7387.0,0.0,1.4,,6.06,1.129,95.2,,59.5,5.0,,,,,,,,,,,,0.0,0.0,0.0,0.0,0.0,0.0,0.0,0.0,0.0,0.0,0.0,0.0,0.0,0.0,0.0,0.0,,,,,0.0,,,,,,
62,874593,1745091038278,,,,,,,,,,,,,,,,,,,,,,,,,,,,,,,,,,0.0,0.0,0.0,0.0,0.0,0.0,0.0,0.0,0.0,0.0,0.0,0.0,0.0,0.0,0.0,0.0,,,,,,,,,,,
63,874613,1745091038298,0.0,199.35,,-0.05,-0.28,1.0,3.0,0.0,-1.0,1.04,1.1,95.0,6896.0,0.0,1.4,,6.27,1.25,95.2,,59.5,5.0,,,,,,,,,,,,0.0,0.0,0.0,0.0,0.0,0.0,0.0,0.0,0.0,0.0,0.0,0.0,0.0,0.0,0.0,0.0,,,,,0.0,,,,,,
64,874633,1745091038318,,,,,,,,,,,,,,,,,,,,,,,0.0,0.0,0.0,0.0,0.0,0.0,0.0,0.0,2.25,,,0.0,0.0,0.0,0.0,0.0,0.0,0.0,0.0,0.0,0.0,0.0,0.0,0.0,0.0,0.0,0.0,0.0,,,,,39.240097,-77.964836,0.1,33.0,3.0,0.8
65,874653,1745091038338,0.0,199.47,,-0.03,-0.22,1.06,3.0,0.0,-1.0,1.08,1.1,98.0,6484.0,8.4,2.0,,7.14,1.25,95.2,,54.6,5.0,,,,,,,,,,,,0.0,0.0,0.0,0.0,0.0,0.0,0.0,0.0,0.0,0.0,0.0,0.0,0.0,0.0,0.0,0.0,,,,,0.0,,,,,,
66,874673,1745091038358,,,,,,,,,,,,,,,,,,,,,,,,,,,,,,,,,,0.0,0.0,0.0,0.0,0.0,0.0,0.0,0.0,0.0,0.0,0.0,0.0,0.0,0.0,0.0,0.0,,,,,,,,,,,
67,874693,1745091038378,0.0,199.72,,-0.08,-0.1,1.13,2.0,0.0,0.0,1.14,1.14,100.0,6126.0,13.8,2.41,,7.14,1.25,95.2,,54.6,5.0,,,,,,,,,,,,0.0,0.0,0.0,0.0,0.0,0.0,0.0,0.0,0.0,0.0,0.0,0.0,0.0,0.0,0.0,0.0,,,,,0.0,,,,,,
68,874713,1745091038398,,,,,,,,,,,,,,,,,,,,,,,,,,,,,,,,,,0.0,0.0,0.0,0.0,0.0,0.0,0.0,0.0,0.0,0.0,0.0,0.0,0.0,0.0,0.0,0.0,,,,,,,,,,,
69,874733,1745091038418,0.0,199.85,13.12,-0.12,-0.05,1.2,2.0,0.0,0.0,1.2,1.2,100.0,6126.0,13.8,2.41,15.0,8.67,1.251,95.2,167.0,53.6,5.0,0.0,0.0,0.0,0.0,0.0,0.0,0.0,0.0,2.26,0.0,0.0,0.0,0.0,0.0,0.0,0.0,0.0,0.0,0.0,0.0,0.0,0.0,0.0,0.0,0.0,0.0,0.0,0.0,0.0,0.0,0.0,0.0,39.240097,-77.964836,0.0,33.0,3.0,0.8
70,874753,1745091038438,,,,,,,,,,,,,,,,,,,,,,,,,,,,,,,,,,0.0,0.0,0.0,0.0,0.0,0.0,0.0,0.0,0.0,0.0,0.0,0.0,0.0,0.0,0.0,0.0,,,,,,,,,,,
71,874773,1745091038458,0.0,199.97,,-0.08,-0.03,1.24,2.0,0.0,-1.0,1.24,1.24,100.0,5858.0,15.1,2.8,,10.08,1.25,95.2,,53.6,5.0,,,,,,,,,,,,0.0,0.0,0.0,0.0,0.0,0.0,0.0,0.0,0.0,0.0,0.0,0.0,0.0,0.0,0.0,0.0,,,,,0.0,,,,,,
72,874793,1745091038478,,,,,,,,,,,,,,,,,,,,,,,,,,,,,,,,,,0.0,0.0,0.0,0.0,0.0,0.0,0.0,0.0,0.0,0.0,0.0,0.0,0.0,0.0,0.0,0.0,,,,,,,,,,,
73,874813,1745091038498,0.0,200.23,,-0.1,-0.11,1.12,2.0,0.0,-1.0,1.13,1.24,91.0,0.0,15.3,3.17,,10.97,1.248,95.2,,53.6,5.0,,,,,,,,,,,,0.0,0.0,0.0,0.0,0.0,0.0,0.0,0.0,0.0,0.0,0.0,0.0,0.0,0.0,0.0,0.0,,,,,0.0,,,,,,
74,874833,1745091038517,,,,,,,,,,,,,,,,,,,,,,,0.0,0.0,0.0,0.0,0.0,0.0,0.0,0.0,2.26,,,0.0,0.0,0.0,0.0,0.0,0.0,0.0,0.0,0.0,0.0,0.0,0.0,0.0,0.0,0.0,0.0,0.0,,,,,39.240097,-77.964836,0.04,33.0,3.0,0.8
75,874853,1745091038537,0.0,200.48,,-0.08,-0.05,1.16,2.0,0.0,0.0,1.16,1.24,93.0,5537.0,8.9,3.79,,11.13,1.248,95.2,,52.1,5.0,,,,,,,,,,,,0.0,0.0,0.0,0.0,0.0,0.0,0.0,0.0,0.0,0.0,0.0,0.0,0.0,0.0,0.0,0.0,,,,,0.0,,,,,,
76,874873,1745091038557,,,,,,,,,,,,,,,,,,,,,,,,,,,,,,,,,,0.0,0.0,0.0,0.0,0.0,0.0,0.0,0.0,0.0,0.0,0.0,0.0,0.0,0.0,0.0,0.0,,,,,,,,,,,
77,874893,1745091038577,0.0,200.6,,-0.09,-0.03,1.11,1.0,0.0,0.0,1.11,1.24,89.0,5407.0,0.0,1.53,,11.13,1.248,95.2,,52.1,5.0,,,,,,,,,,,,0.0,0.0,0.0,0.0,0.0,0.0,0.0,0.0,0.0,0.0,0.0,0.0,0.0,0.0,0.0,0.0,,,,,0.0,,,,,,
78,874913,1745091038597,,,,,,,,,,,,,,,,,,,,,,,,,,,,,,,,,,0.0,0.0,0.0,0.0,0.0,0.0,0.0,0.0,0.0,0.0,0.0,0.0,0.0,0.0,0.0,0.0,,,,,,,,,,,
79,874933,1745091038617,0.0,200.73,,-0.08,-0.03,1.06,1.0,0.0,0.0,1.06,1.24,85.0,5407.0,0.0,1.53,,10.48,1.247,95.2,,47.5,5.0,0.0,0.0,0.0,0.0,0.0,0.0,0.0,0.0,2.26,,,0.0,0.0,0.0,0.0,0.0,0.0,0.0,0.0,0.0,0.0,0.0,0.0,0.0,0.0,0.0,0.0,0.0,,,,0.0,39.240097,-77.964836,0.0,33.0,3.0,0.8
80,874953,1745091038637,,,,,,,,,,,,,,,,,,,,,,,,,,,,,,,,,,0.0,0.0,0.0,0.0,0.0,0.0,0.0,0.0,0.0,0.0,0.0,0.0,0.0,0.0,0.0,0.0,,,,,,,,,,,
81,874973,1745091038657,0.0,200.85,,-0.1,0.01,1.07,1.0,0.0,0.0,1.08,1.24,87.0,5124.0,0.0,1.54,,9.98,1.246,95.2,,47.5,5.0,,,,,,,,,,,,0.0,0.0,0.0,0.0,0.0,0.0,0.0,0.0,0.0,0.0,0.0,0.0,0.0,0.0,0.0,0.0,,,,,0.0,,,,,,
82,874993,1745091038677,,,,,,,,,,,,,,,,,,,,,,,,,,,,,,,,,,0.0,0.0,0.0,0.0,0.0,0.0,0.0,0.0,0.0,0.0,0.0,0.0,0.0,0.0,0.0,0.0,,,,,,,,,,,
83,875013,1745091038697,0.0,201.11,,-0.08,-0.05,1.02,1.0,0.0,0.0,1.03,1.24,83.0,4778.0,0.0,1.63,,9.8,1.223,95.2,,47.5,5.0,,,,,,,,,,,,0.0,0.0,0.0,0.0,0.0,0.0,0.0,0.0,0.0,0.0,0.0,0.0,0.0,0.0,0.0,0.0,,,,,0.0,,,,,,
84,875033,1745091038717,,,,,,,,,,,,,,,,,,,,,,,0.0,0.0,0.0,0.0,0.0,0.0,0.0,0.0,2.26,,,0.0,0.0,0.0,0.0,0.0,0.0,0.0,0.0,0.0,0.0,0.0,0.0,0.0,0.0,0.0,0.0,0.0,,,,,39.240097,-77.964836,0.0,33.0,3.0,0.8
85,875053,1745091038737,0.0,201.23,,-0.09,-0.13,0.97,1.0,0.0,0.0,0.98,1.24,79.0,4384.0,1.0,1.86,,9.93,1.246,95.2,,41.6,5.0,,,,,,,,,,,,0.0,0.0,0.0,0.0,0.0,0.0,0.0,0.0,0.0,0.0,0.0,0.0,0.0,0.0,0.0,0.0,,,,,0.0,,,,,,
86,875073,1745091038757,,,,,,,,,,,,,,,,,,,,,,,,,,,,,,,,,,0.0,0.0,0.0,0.0,0.0,0.0,0.0,0.0,0.0,0.0,0.0,0.0,0.0,0.0,0.0,0.0,,,,,,,,,,,
87,875093,1745091038777,0.0,201.36,,-0.08,-0.05,1.0,1.0,0.0,0.0,1.01,1.24,81.0,4071.0,12.6,2.84,,9.93,1.246,95.2,,41.6,5.0,,,,,,,,,,,,0.0,0.0,0.0,0.0,0.0,0.0,0.0,0.0,0.0,0.0,0.0,0.0,0.0,0.0,0.0,0.0,,,,,0.0,,,,,,
88,875113,1745091038797,,,,,,,,,,,,,,,,,,,,,,,,,,,,,,,,,,0.0,0.0,0.0,0.0,0.0,0.0,0.0,0.0,0.0,0.0,0.0,0.0,0.0,0.0,0.0,0.0,,,,,,,,,,,
89,875133,1745091038817,0.0,201.48,,-0.07,-0.06,1.0,1.0,0.0,0.0,1.0,1.24,81.0,4071.0,12.6,2.84,,11.12,1.25,95.2,,33.9,5.0,0.0,0.0,0.0,0.0,0.0,0.0,0.0,0.0,2.26,,,0.0,0.0,0.0,0.0,0.0,0.0,0.0,0.0,0.0,0.0,0.0,0.0,0.0,0.0,0.0,0.0,0.0,,,,0.0,39.240097,-77.964836,0.05,33.0,3.0,0.8
90,875153,1745091038837,,,,,,,,,,,,,,,,,,,,,,,,,,,,,,,,,,0.0,0.0,0.0,0.0,0.0,0.0,0.0,0.0,0.0,0.0,0.0,0.0,0.0,0.0,0.0,0.0,,,,,,,,,,,
91,875173,1745091038857,0.0,201.61,,-0.08,-0.1,1.0,0.0,0.0,0.0,1.01,1.24,81.0,3778.0,20.6,4.06,,12.59,1.25,95.2,,33.9,5.0,,,,,,,,,,,,0.0,0.0,0.0,0.0,0.0,0.0,0.0,0.0,0.0,0.0,0.0,0.0,0.0,0.0,0.0,0.0,,,,,0.0,,,,,,
92,875193,1745091038877,,,,,,,,,,,,,,,,,,,,,,,,,,,,,,,,,,0.0,0.0,0.0,0.0,0.0,0.0,0.0,0.0,0.0,0.0,0.0,0.0,0.0,0.0,0.0,0.0,,,,,,,,,,,
93,875213,1745091038897,0.0,201.73,,-0.07,-0.15,0.91,1.0,0.0,-1.0,0.93,1.24,74.0,3984.0,24.3,4.31,,13.28,1.251,95.2,,33.9,5.0,,,,,,,,,,,,0.0,0.0,0.0,0.0,0.0,0.0,0.0,0.0,0.0,0.0,0.0,0.0,0.0,0.0,0.0,0.0,,,,,0.0,,,,,,
94,875233,1745091038919,,,,,,,,,,,,,,,,,,,,,,,0.0,0.0,0.0,0.0,0.0,0.0,0.0,0.0,2.26,,,0.0,0.0,0.0,0.0,0.0,0.0,0.0,0.0,0.0,0.0,0.0,0.0,0.0,0.0,0.0,0.0,0.0,,,,,39.240097,-77.964836,0.04,33.0,3.0,0.8
95,875253,1745091038939,0.0,201.86,,-0.09,-0.13,0.94,0.0,0.0,0.0,0.95,1.24,77.0,4267.0,24.7,4.25,,13.43,1.25,95.2,,34.5,5.0,,,,,,,,,,,,0.0,0.0,0.0,0.0,0.0,0.0,0.0,0.0,0.0,0.0,0.0,0.0,0.0,0.0,0.0,0.0,,,,,0.0,,,,,,
96,875273,1745091038959,,,,,,,,,,,,,,,,,,,,,,,,,,,,,,,,,,0.0,0.0,0.0,0.0,0.0,0.0,0.0,0.0,0.0,0.0,0.0,0.0,0.0,0.0,0.0,0.0,,,,,,,,,,,
97,875293,1745091038979,0.0,201.86,,-0.08,-0.03,1.04,0.0,0.0,0.0,1.05,1.24,84.0,4352.0,22.6,4.16,,13.43,1.25,95.2,,34.5,5.0,,,,,,,,,,,,0.0,0.0,0.0,0.0,0.0,0.0,0.0,0.0,0.0,0.0,0.0,0.0,0.0,0.0,0.0,0.0,,,,,0.0,,,,,,
98,875313,1745091038999,,,,,,,,,,,,,,,,,,,,,,,,,,,,,,,,,,0.0,0.0,0.0,0.0,0.0,0.0,0.0,0.0,0.0,0.0,0.0,0.0,0.0,0.0,0.0,0.0,,,,,,,,,,,
99,875333,1745091039011,0.0,201.99,,-0.05,-0.03,1.01,1.0,0.0,0.0,1.01,1.24,81.0,4352.0,22.6,4.16,,13.33,1.249,95.2,,37.3,5.0,0.0,0.0,0.0,0.0,0.0,0.0,0.0,0.0,2.26,,,0.0,0.0,0.0,0.0,0.0,0.0,0.0,0.0,0.0,0.0,0.0,0.0,0.0,0.0,0.0,0.0,0.0,,,,0.0,39.240097,-77.964836,0.04,33.0,3.0,0.8
100,875353,1745091039031,,,,,,,,,,,,,,,,,,,,,,,,,,,,,,,,,,0.0,0.0,0.0,0.0,0.0,0.0,0.0,0.0,0.0,0.0,0.0,0.0,0.0,0.0,0.0,0.0,,,,,,,,,,,
101,875373,1745091039051,0.0,201.99,,-0.03,-0.12,0.89,1.0,0.0,-1.0,0.9,1.24,72.0,4331.0,2.7,3.58,,12.52,1.249,95.2,,37.3,5.0,,,,,,,,,,,,0.0,0.0,0.0,0.0,0.0,0.0,0.0,0.0,0.0,0.0,0.0,0.0,0.0,0.0,0.0,0.0,,,,,0.0,,,,,,
102,875393,1745091039071,,,,,,,,,,,,,,,,,,,,,,,,,,,,,,,,,,0.0,0.0,0.0,0.0,0.0,0.0,0.0,0.0,0.0,0.0,0.0,0.0,0.0,0.0,0.0,0.0,,,,,,,,,,,
103,875413,1745091039091,0.0,201.99,,-0.04,-0.1,0.91,1.0,0.0,0.0,0.92,1.24,74.0,4292.0,0.0,2.38,,11.68,1.247,95.2,,37.3,5.0,,,,,,,,,,,,0.0,0.0,0.0,0.0,0.0,0.0,0.0,0.0,0.0,0.0,0.0,0.0,0.0,0.0,0.0,0.0,,,,,0.0,,,,,,
104,875433,1745091039113,,,,,,,,,,,,,,,,,,,,,,,0.0,0.0,0.0,0.0,0.0,0.0,0.0,0.0,2.26,,,0.0,0.0,0.0,0.0,0.0,0.0,0.0,0.0,0.0,0.0,0.0,0.0,0.0,0.0,0.0,0.0,0.0,,,,,39.240097,-77.964836,0.08,33.0,3.0,0.8
105,875453,1745091039133,0.0,202.11,,-0.04,-0.05,0.95,1.0,0.0,0.0,0.95,1.24,76.0,4186.0,0.0,2.37,,11.16,1.247,95.2,,36.9,5.0,,,,,,,,,,,,0.0,0.0,0.0,0.0,0.0,0.0,0.0,0.0,0.0,0.0,0.0,0.0,0.0,0.0,0.0,0.0,,,,,0.0,,,,,,
106,875473,1745091039153,,,,,,,,,,,,,,,,,,,,,,,,,,,,,,,,,,0.0,0.0,0.0,0.0,0.0,0.0,0.0,0.0,0.0,0.0,0.0,0.0,0.0,0.0,0.0,0.0,,,,,,,,,,,
107,875493,1745091039173,0.0,202.11,,-0.03,-0.04,1.0,0.0,0.0,0.0,1.0,1.24,80.0,3901.0,0.0,2.39,,11.16,1.247,95.2,,36.9,5.0,,,,,,,,,,,,0.0,0.0,0.0,0.0,0.0,0.0,0.0,0.0,0.0,0.0,0.0,0.0,0.0,0.0,0.0,0.0,,,,,0.0,,,,,,
108,875513,1745091039193,,,,,,,,,,,,,,,,,,,,,,,,,,,,,,,,,,0.0,0.0,0.0,0.0,0.0,0.0,0.0,0.0,0.0,0.0,0.0,0.0,0.0,0.0,0.0,0.0,,,,,,,,,,,
109,875533,1745091039211,0.0,202.11,,-0.03,-0.02,1.0,0.0,0.0,0.0,1.0,1.24,80.0,3901.0,0.0,2.39,,11.06,1.249,95.2,,32.3,5.0,0.0,0.0,0.0,0.0,0.0,0.0,0.0,0.0,2.26,,,0.0,0.0,0.0,0.0,0.0,0.0,0.0,0.0,0.0,0.0,0.0,0.0,0.0,0.0,0.0,0.0,0.0,,,,0.0,39.240097,-77.964836,0.08,33.0,3.0,0.8
110,875553,1745091039231,,,,,,,,,,,,,,,,,,,,,,,,,,,,,,,,,,0.0,0.0,0.0,0.0,0.0,0.0,0.0,0.0,0.0,0.0,0.0,0.0,0.0,0.0,0.0,0.0,,,,,,,,,,,
111,875573,1745091039251,0.0,202.11,,-0.01,-0.02,0.96,0.0,0.0,0.0,0.96,1.24,77.0,3734.0,5.4,3.54,,11.36,1.249,95.2,,32.3,5.0,,,,,,,,,,,,0.0,0.0,0.0,0.0,0.0,0.0,0.0,0.0,0.0,0.0,0.0,0.0,0.0,0.0,0.0,0.0,,,,,0.0,,,,,,
112,875593,1745091039271,,,,,,,,,,,,,,,,,,,,,,,,,,,,,,,,,,0.0,0.0,0.0,0.0,0.0,0.0,0.0,0.0,0.0,0.0,0.0,0.0,0.0,0.0,0.0,0.0,,,,,,,,,,,
113,875613,1745091039291,0.0,201.99,,-0.03,-0.01,0.96,0.0,0.0,0.0,0.96,1.24,78.0,3603.0,10.2,3.74,,12.24,1.251,95.2,,32.3,5.0,,,,,,,,,,,,0.0,0.0,0.0,0.0,0.0,0.0,0.0,0.0,0.0,0.0,0.0,0.0,0.0,0.0,0.0,0.0,,,,,0.0,,,,,,
114,875633,1745091039317,,,,,,,,,,,,,,,,,,,,,,,0.0,0.0,0.0,0.0,0.0,0.0,0.0,0.0,2.26,,,0.0,0.0,0.0,0.0,0.0,0.0,0.0,0.0,0.0,0.0,0.0,0.0,0.0,0.0,0.0,0.0,0.0,,,,,39.240097,-77.964836,0.0,33.0,3.0,0.8
115,875653,1745091039337,0.0,201.99,,-0.04,-0.02,0.97,1.0,0.0,0.0,0.97,1.24,78.0,3711.0,11.8,3.82,,12.64,1.251,95.2,,31.0,5.0,,,,,,,,,,,,0.0,0.0,0.0,0.0,0.0,0.0,0.0,0.0,0.0,0.0,0.0,0.0,0.0,0.0,0.0,0.0,,,,,0.0,,,,,,
116,875673,1745091039357,,,,,,,,,,,,,,,,,,,,,,,,,,,,,,,,,,0.0,0.0,0.0,0.0,0.0,0.0,0.0,0.0,0.0,0.0,0.0,0.0,0.0,0.0,0.0,0.0,,,,,,,,,,,
117,875693,1745091039377,0.0,202.11,,-0.05,-0.05,0.94,1.0,0.0,0.0,0.94,1.24,76.0,3715.0,12.5,3.82,,12.64,1.251,95.2,,31.0,5.0,,,,,,,,,,,,0.0,0.0,0.0,0.0,0.0,0.0,0.0,0.0,0.0,0.0,0.0,0.0,0.0,0.0,0.0,0.0,,,,,0.0,,,,,,
118,875713,1745091039397,,,,,,,,,,,,,,,,,,,,,,,,,,,,,,,,,,0.0,0.0,0.0,0.0,0.0,0.0,0.0,0.0,0.0,0.0,0.0,0.0,0.0,0.0,0.0,0.0,,,,,,,,,,,
119,875733,1745091039416,0.0,202.11,13.16,-0.06,-0.07,0.94,1.0,0.0,0.0,0.94,1.24,76.0,3715.0,12.5,3.82,15.0,12.93,1.25,95.2,169.0,31.0,5.0,0.0,0.0,0.0,0.0,0.0,0.0,0.0,0.0,2.26,0.0,0.0,0.0,0.0,0.0,0.0,0.0,0.0,0.0,0.0,0.0,0.0,0.0,0.0,0.0,0.0,0.0,0.0,0.0,0.0,0.0,0.0,0.0,39.240097,-77.964836,0.05,33.0,3.0,0.8
120,875753,1745091039436,,,,,,,,,,,,,,,,,,,,,,,,,,,,,,,,,,0.0,0.0,0.0,0.0,0.0,0.0,0.0,0.0,0.0,0.0,0.0,0.0,0.0,0.0,0.0,0.0,,,,,,,,,,,
121,875773,1745091039456,0.0,202.11,,-0.07,-0.08,0.96,1.0,0.0,0.0,0.96,1.24,77.0,3660.0,12.7,3.82,,13.11,1.221,95.2,,31.0,5.0,,,,,,,,,,,,0.0,0.0,0.0,0.0,0.0,0.0,0.0,0.0,0.0,0.0,0.0,0.0,0.0,0.0,0.0,0.0,,,,,0.0,,,,,,
122,875793,1745091039476,,,,,,,,,,,,,,,,,,,,,,,,,,,,,,,,,,0.0,0.0,0.0,0.0,0.0,0.0,0.0,0.0,0.0,0.0,0.0,0.0,0.0,0.0,0.0,0.0,,,,,,,,,,,
123,875813,1745091039496,0.0,202.24,,-0.05,-0.09,0.96,0.0,0.0,0.0,0.96,1.24,77.0,3721.0,12.9,3.83,,13.05,1.182,95.2,,31.0,5.0,,,,,,,,,,,,0.0,0.0,0.0,0.0,0.0,0.0,0.0,0.0,0.0,0.0,0.0,0.0,0.0,0.0,0.0,0.0,,,,,0.0,,,,,,
124,875833,1745091039514,,,,,,,,,,,,,,,,,,,,,,,0.0,0.0,0.0,0.0,0.0,0.0,0.0,0.0,2.26,,,0.0,0.0,0.0,0.0,0.0,0.0,0.0,0.0,0.0,0.0,0.0,0.0,0.0,0.0,0.0,0.0,0.0,,,,,39.240097,-77.964836,0.07,33.0,3.0,0.8
125,875853,1745091039534,0.0,202.24,,-0.05,-0.08,0.97,0.0,0.0,0.0,0.97,1.24,78.0,3684.0,12.7,3.83,,13.03,1.198,95.2,,31.0,5.0,,,,,,,,,,,,0.0,0.0,0.0,0.0,0.0,0.0,0.0,0.0,0.0,0.0,0.0,0.0,0.0,0.0,0.0,0.0,,,,,0.0,,,,,,
126,875873,1745091039554,,,,,,,,,,,,,,,,,,,,,,,,,,,,,,,,,,0.0,0.0,0.0,0.0,0.0,0.0,0.0,0.0,0.0,0.0,0.0,0.0,0.0,0.0,0.0,0.0,,,,,,,,,,,
127,875893,1745091039574,0.0,202.24,,-0.04,-0.0,1.02,0.0,0.0,0.0,1.03,1.24,82.0,3706.0,12.7,3.84,,13.03,1.198,95.2,,31.0,5.0,,,,,,,,,,,,0.0,0.0,0.0,0.0,0.0,0.0,0.0,0.0,0.0,0.0,0.0,0.0,0.0,0.0,0.0,0.0,,,,,0.0,,,,,,
128,875913,1745091039594,,,,,,,,,,,,,,,,,,,,,,,,,,,,,,,,,,0.0,0.0,0.0,0.0,0.0,0.0,0.0,0.0,0.0,0.0,0.0,0.0,0.0,0.0,0.0,0.0,,,,,,,,,,,
129,875933,1745091039614,0.0,202.24,,-0.04,0.02,1.03,0.0,0.0,0.0,1.03,1.24,83.0,3706.0,12.7,3.84,,13.07,1.238,95.2,,31.1,5.0,0.0,0.0,0.0,0.0,0.0,0.0,0.0,0.0,2.26,,,0.0,0.0,0.0,0.0,0.0,0.0,0.0,0.0,0.0,0.0,0.0,0.0,0.0,0.0,0.0,0.0,0.0,,,,0.0,39.240097,-77.964836,0.04,33.0,3.0,0.8
130,875953,1745091039634,,,,,,,,,,,,,,,,,,,,,,,,,,,,,,,,,,0.0,0.0,0.0,0.0,0.0,0.0,0.0,0.0,0.0,0.0,0.0,0.0,0.0,0.0,0.0,0.0,,,,,,,,,,,
131,875973,1745091039654,0.0,202.24,,-0.05,0.02,1.02,0.0,0.0,0.0,1.02,1.24,82.0,3646.0,12.6,3.83,,13.11,1.246,97.0,,31.1,5.0,,,,,,,,,,,,0.0,0.0,0.0,0.0,0.0,0.0,0.0,0.0,0.0,0.0,0.0,0.0,0.0,0.0,0.0,0.0,,,,,0.0,,,,,,
132,875993,1745091039674,,,,,,,,,,,,,,,,,,,,,,,,,,,,,,,,,,0.0,0.0,0.0,0.0,0.0,0.0,0.0,0.0,0.0,0.0,0.0,0.0,0.0,0.0,0.0,0.0,,,,,,,,,,,
133,876013,1745091039694,0.0,202.36,,-0.05,0.01,1.03,0.0,0.0,0.0,1.04,1.24,83.0,3696.0,12.5,3.84,,13.03,1.247,97.0,,31.1,5.0,,,,,,,,,,,,0.0,0.0,0.0,0.0,0.0,0.0,0.0,0.0,0.0,0.0,0.0,0.0,0.0,0.0,0.0,0.0,,,,,0.0,,,,,,
134,876033,1745091039714,,,,,,,,,,,,,,,,,,,,,,,0.0,0.0,0.0,0.0,0.0,0.0,0.0,0.0,2.26,,,0.0,0.0,0.0,0.0,0.0,0.0,0.0,0.0,0.0,0.0,0.0,0.0,0.0,0.0,0.0,0.0,0.0,,,,,39.240097,-77.964836,0.04,33.0,3.0,0.8
135,876053,1745091039734,0.0,202.36,,-0.03,0.02,1.04,0.0,0.0,0.0,1.04,1.24,83.0,3657.0,12.5,3.84,,13.08,1.249,97.0,,31.0,5.0,,,,,,,,,,,,0.0,0.0,0.0,0.0,0.0,0.0,0.0,0.0,0.0,0.0,0.0,0.0,0.0,0.0,0.0,0.0,,,,,0.0,,,,,,
136,876073,1745091039754,,,,,,,,,,,,,,,,,,,,,,,,,,,,,,,,,,0.0,0.0,0.0,0.0,0.0,0.0,0.0,0.0,0.0,0.0,0.0,0.0,0.0,0.0,0.0,0.0,,,,,,,,,,,
137,876093,1745091039774,0.0,202.36,,-0.02,-0.0,1.02,0.0,0.0,0.0,1.02,1.24,82.0,3747.0,12.6,3.83,,13.08,1.249,97.0,,31.0,5.0,,,,,,,,,,,,0.0,0.0,0.0,0.0,0.0,0.0,0.0,0.0,0.0,0.0,0.0,0.0,0.0,0.0,0.0,0.0,,,,,0.0,,,,,,
138,876113,1745091039794,,,,,,,,,,,,,,,,,,,,,,,,,,,,,,,,,,0.0,0.0,0.0,0.0,0.0,0.0,0.0,0.0,0.0,0.0,0.0,0.0,0.0,0.0,0.0,0.0,,,,,,,,,,,
139,876133,1745091039818,0.0,202.36,,-0.01,-0.0,1.03,0.0,0.0,0.0,1.03,1.24,83.0,3747.0,12.6,3.83,,13.08,1.25,97.0,,31.4,5.0,0.0,0.0,0.0,0.0,0.0,0.0,0.0,0.0,2.26,,,0.0,0.0,0.0,0.0,0.0,0.0,0.0,0.0,0.0,0.0,0.0,0.0,0.0,0.0,0.0,0.0,0.0,,,,0.0,39.240097,-77.964836,0.1,33.0,3.0,0.8
140,876153,1745091039838,,,,,,,,,,,,,,,,,,,,,,,,,,,,,,,,,,0.0,0.0,0.0,0.0,0.0,0.0,0.0,0.0,0.0,0.0,0.0,0.0,0.0,0.0,0.0,0.0,,,,,,,,,,,
141,876173,1745091039858,0.0,202.36,,-0.01,-0.02,1.04,0.0,0.0,0.0,1.04,1.24,84.0,3739.0,12.5,3.84,,13.07,1.252,97.0,,31.4,5.0,,,,,,,,,,,,0.0,0.0,0.0,0.0,0.0,0.0,0.0,0.0,0.0,0.0,0.0,0.0,0.0,0.0,0.0,0.0,,,,,0.0,,,,,,
142,876193,1745091039878,,,,,,,,,,,,,,,,,,,,,,,,,,,,,,,,,,0.0,0.0,0.0,0.0,0.0,0.0,0.0,0.0,0.0,0.0,0.0,0.0,0.0,0.0,0.0,0.0,,,,,,,,,,,
143,876213,1745091039898,0.0,202.36,,-0.01,-0.0,1.03,0.0,0.0,0.0,1.03,1.24,83.0,3725.0,12.7,3.83,,13.0,1.252,97.0,,31.4,5.0,,,,,,,,,,,,0.0,0.0,0.0,0.0,0.0,0.0,0.0,0.0,0.0,0.0,0.0,0.0,0.0,0.0,0.0,0.0,,,,,0.0,,,,,,
144,876233,1745091039918,,,,,,,,,,,,,,,,,,,,,,,0.0,0.0,0.0,0.0,0.0,0.0,0.0,0.0,2.26,,,0.0,0.0,0.0,0.0,0.0,0.0,0.0,0.0,0.0,0.0,0.0,0.0,0.0,0.0,0.0,0.0,0.0,,,,,39.240097,-77.964836,0.04,33.0,3.0,0.8
145,876253,1745091039938,0.0,202.49,,-0.03,0.03,1.01,0.0,0.0,0.0,1.01,1.24,81.0,3785.0,12.8,3.83,,13.0,1.251,97.0,,31.6,5.0,,,,,,,,,,,,0.0,0.0,0.0,0.0,0.0,0.0,0.0,0.0,0.0,0.0,0.0,0.0,0.0,0.0,0.0,0.0,,,,,0.0,,,,,,
146,876273,1745091039958,,,,,,,,,,,,,,,,,,,,,,,,,,,,,,,,,,0.0,0.0,0.0,0.0,0.0,0.0,0.0,0.0,0.0,0.0,0.0,0.0,0.0,0.0,0.0,0.0,,,,,,,,,,,
147,876293,1745091039978,0.0,202.49,,-0.04,0.04,1.03,0.0,0.0,0.0,1.03,1.24,83.0,3750.0,12.7,3.83,,13.0,1.251,97.0,,31.6,5.0,,,,,,,,,,,,0.0,0.0,0.0,0.0,0.0,0.0,0.0,0.0,0.0,0.0,0.0,0.0,0.0,0.0,0.0,0.0,,,,,0.0,,,,,,
148,876313,1745091039998,,,,,,,,,,,,,,,,,,,,,,,,,,,,,,,,,,0.0,0.0,0.0,0.0,0.0,0.0,0.0,0.0,0.0,0.0,0.0,0.0,0.0,0.0,0.0,0.0,,,,,,,,,,,
149,876333,1745091040010,0.0,202.36,,-0.04,0.05,1.05,0.0,0.0,0.0,1.05,1.24,85.0,3750.0,12.7,3.83,,13.07,1.25,97.0,,31.9,5.0,0.0,0.0,0.0,0.0,0.0,0.0,0.0,0.0,2.26,,,0.0,0.0,0.0,0.0,0.0,0.0,0.0,0.0,0.0,0.0,0.0,0.0,0.0,0.0,0.0,0.0,0.0,,,,0.0,39.240097,-77.964836,0.0,33.0,3.0,0.8
150,876353,1745091040030,,,,,,,,,,,,,,,,,,,,,,,,,,,,,,,,,,0.0,0.0,0.0,0.0,0.0,0.0,0.0,0.0,0.0,0.0,0.0,0.0,0.0,0.0,0.0,0.0,,,,,,,,,,,
151,876373,1745091040050,0.0,202.36,,-0.03,0.04,1.05,0.0,0.0,0.0,1.05,1.24,85.0,3836.0,12.8,3.83,,12.93,1.248,97.0,,31.9,5.0,,,,,,,,,,,,0.0,0.0,0.0,0.0,0.0,0.0,0.0,0.0,0.0,0.0,0.0,0.0,0.0,0.0,0.0,0.0,,,,,0.0,,,,,,
152,876393,1745091040070,,,,,,,,,,,,,,,,,,,,,,,,,,,,,,,,,,0.0,0.0,0.0,0.0,0.0,0.0,0.0,0.0,0.0,0.0,0.0,0.0,0.0,0.0,0.0,0.0,,,,,,,,,,,
153,876413,1745091040090,0.0,202.49,,-0.02,0.0,1.04,0.0,0.0,0.0,1.04,1.24,84.0,3778.0,12.7,3.82,,13.0,1.246,97.0,,31.9,5.0,,,,,,,,,,,,0.0,0.0,0.0,0.0,0.0,0.0,0.0,0.0,0.0,0.0,0.0,0.0,0.0,0.0,0.0,0.0,,,,,0.0,,,,,,
154,876433,1745091040112,,,,,,,,,,,,,,,,,,,,,,,0.0,0.0,0.0,0.0,0.0,0.0,0.0,0.0,2.26,,,0.0,0.0,0.0,0.0,0.0,0.0,0.0,0.0,0.0,0.0,0.0,0.0,0.0,0.0,0.0,0.0,0.0,,,,,39.240097,-77.964836,0.04,33.0,3.0,0.8
155,876453,1745091040132,0.0,202.36,,-0.04,-0.04,1.0,0.0,0.0,0.0,1.0,1.24,80.0,3813.0,12.6,3.81,,12.96,1.247,97.0,,32.5,5.0,,,,,,,,,,,,0.0,0.0,0.0,0.0,0.0,0.0,0.0,0.0,0.0,0.0,0.0,0.0,0.0,0.0,0.0,0.0,,,,,0.0,,,,,,
156,876473,1745091040152,,,,,,,,,,,,,,,,,,,,,,,,,,,,,,,,,,0.0,0.0,0.0,0.0,0.0,0.0,0.0,0.0,0.0,0.0,0.0,0.0,0.0,0.0,0.0,0.0,,,,,,,,,,,
157,876493,1745091040172,0.0,202.36,,-0.06,-0.08,0.95,0.0,0.0,0.0,0.96,1.24,77.0,3909.0,12.6,3.82,,12.96,1.247,97.0,,32.5,5.0,,,,,,,,,,,,0.0,0.0,0.0,0.0,0.0,0.0,0.0,0.0,0.0,0.0,0.0,0.0,0.0,0.0,0.0,0.0,,,,,0.0,,,,,,
158,876513,1745091040192,,,,,,,,,,,,,,,,,,,,,,,,,,,,,,,,,,0.0,0.0,0.0,0.0,0.0,0.0,0.0,0.0,0.0,0.0,0.0,0.0,0.0,0.0,0.0,0.0,,,,,,,,,,,
159,876533,1745091040216,0.0,202.36,,-0.05,-0.07,0.96,1.0,0.0,0.0,0.97,1.24,78.0,3909.0,12.6,3.82,,12.93,1.247,97.0,,33.0,5.0,0.0,0.0,0.0,0.0,0.0,0.0,0.0,0.0,2.26,,,0.0,0.0,0.0,0.0,0.0,0.0,0.0,0.0,0.0,0.0,0.0,0.0,0.0,0.0,0.0,0.0,0.0,,,,0.0,39.240097,-77.964836,0.0,33.0,3.0,0.8
160,876553,1745091040236,,,,,,,,,,,,,,,,,,,,,,,,,,,,,,,,,,0.0,0.0,0.0,0.0,0.0,0.0,0.0,0.0,0.0,0.0,0.0,0.0,0.0,0.0,0.0,0.0,,,,,,,,,,,
161,876573,1745091040256,0.0,202.36,,-0.05,-0.01,1.01,0.0,0.0,0.0,1.01,1.24,81.0,3833.0,12.6,3.81,,13.0,1.248,97.0,,33.0,5.0,,,,,,,,,,,,0.0,0.0,0.0,0.0,0.0,0.0,0.0,0.0,0.0,0.0,0.0,0.0,0.0,0.0,0.0,0.0,,,,,0.0,,,,,,
162,876593,1745091040276,,,,,,,,,,,,,,,,,,,,,,,,,,,,,,,,,,0.0,0.0,0.0,0.0,0.0,0.0,0.0,0.0,0.0,0.0,0.0,0.0,0.0,0.0,0.0,0.0,,,,,,,,,,,
163,876613,1745091040296,0.0,202.36,,-0.05,0.0,1.06,0.0,0.0,0.0,1.06,1.24,85.0,3914.0,12.5,3.81,,12.95,1.25,97.0,,33.0,5.0,,,,,,,,,,,,0.0,0.0,0.0,0.0,0.0,0.0,0.0,0.0,0.0,0.0,0.0,0.0,0.0,0.0,0.0,0.0,,,,,0.0,,,,,,
164,876633,1745091040318,,,,,,,,,,,,,,,,,,,,,,,0.0,0.0,0.0,0.0,0.0,0.0,0.0,0.0,2.26,,,0.0,0.0,0.0,0.0,0.0,0.0,0.0,0.0,0.0,0.0,0.0,0.0,0.0,0.0,0.0,0.0,0.0,,,,,39.240097,-77.964836,0.0,33.0,3.0,0.8
165,876653,1745091040338,0.0,202.36,,-0.06,-0.02,1.05,0.0,0.0,0.0,1.05,1.24,84.0,3869.0,12.6,3.81,,12.99,1.251,97.0,,33.0,5.0,,,,,,,,,,,,0.0,0.0,0.0,0.0,0.0,0.0,0.0,0.0,0.0,0.0,0.0,0.0,0.0,0.0,0.0,0.0,,,,,0.0,,,,,,
166,876673,1745091040358,,,,,,,,,,,,,,,,,,,,,,,,,,,,,,,,,,0.0,0.0,0.0,0.0,0.0,0.0,0.0,0.0,0.0,0.0,0.0,0.0,0.0,0.0,0.0,0.0,,,,,,,,,,,
167,876693,1745091040378,0.0,202.36,,-0.06,-0.08,0.98,0.0,0.0,0.0,0.99,1.24,79.0,3907.0,9.7,3.74,,12.99,1.251,97.0,,33.0,5.0,,,,,,,,,,,,0.0,0.0,0.0,0.0,0.0,0.0,0.0,0.0,0.0,0.0,0.0,0.0,0.0,0.0,0.0,0.0,,,,,0.0,,,,,,
168,876713,1745091040398,,,,,,,,,,,,,,,,,,,,,,,,,,,,,,,,,,0.0,0.0,0.0,0.0,0.0,0.0,0.0,0.0,0.0,0.0,0.0,0.0,0.0,0.0,0.0,0.0,,,,,,,,,,,
169,876733,1745091040418,0.0,202.36,13.15,-0.02,-0.04,1.01,1.0,0.0,0.0,1.01,1.24,81.0,3907.0,9.7,3.74,15.0,12.8,1.251,97.0,169.0,33.6,5.0,0.0,0.0,0.0,0.0,0.0,0.0,0.0,0.0,2.26,0.0,0.0,0.0,0.0,0.0,0.0,0.0,0.0,0.0,0.0,0.0,0.0,0.0,0.0,0.0,0.0,0.0,0.0,0.0,0.0,0.0,0.0,0.0,39.240097,-77.964836,0.0,33.0,3.0,0.8
170,876753,1745091040438,,,,,,,,,,,,,,,,,,,,,,,,,,,,,,,,,,0.0,0.0,0.0,0.0,0.0,0.0,0.0,0.0,0.0,0.0,0.0,0.0,0.0,0.0,0.0,0.0,,,,,,,,,,,
171,876773,1745091040458,0.0,202.36,,-0.0,0.08,1.09,0.0,0.0,0.0,1.09,1.24,88.0,3961.0,7.4,3.64,,12.59,1.252,97.0,,33.6,5.0,,,,,,,,,,,,0.0,0.0,0.0,0.0,0.0,0.0,0.0,0.0,0.0,0.0,0.0,0.0,0.0,0.0,0.0,0.0,,,,,0.0,,,,,,
172,876793,1745091040478,,,,,,,,,,,,,,,,,,,,,,,,,,,,,,,,,,0.0,0.0,0.0,0.0,0.0,0.0,0.0,0.0,0.0,0.0,0.0,0.0,0.0,0.0,0.0,0.0,,,,,,,,,,,
173,876813,1745091040498,0.0,202.36,,0.0,0.02,1.08,0.0,0.0,0.0,1.08,1.24,87.0,3876.0,6.5,3.6,,12.4,1.245,97.0,,33.6,5.0,,,,,,,,,,,,0.0,0.0,0.0,0.0,0.0,0.0,0.0,0.0,0.0,0.0,0.0,0.0,0.0,0.0,0.0,0.0,,,,,0.0,,,,,,
174,876833,1745091040515,,,,,,,,,,,,,,,,,,,,,,,0.0,0.0,0.0,0.0,0.0,0.0,0.0,0.0,2.26,,,0.0,0.0,0.0,0.0,0.0,0.0,0.0,0.0,0.0,0.0,0.0,0.0,0.0,0.0,0.0,0.0,0.0,,,,,39.240097,-77.964836,0.0,33.0,3.0,0.8
175,876853,1745091040535,0.0,202.36,,-0.02,-0.03,1.03,0.0,0.0,0.0,1.04,1.24,83.0,3863.0,6.3,3.58,,12.35,1.226,97.0,,32.7,5.0,,,,,,,,,,,,0.0,0.0,0.0,0.0,0.0,0.0,0.0,0.0,0.0,0.0,0.0,0.0,0.0,0.0,0.0,0.0,,,,,0.0,,,,,,
176,876873,1745091040555,,,,,,,,,,,,,,,,,,,,,,,,,,,,,,,,,,0.0,0.0,0.0,0.0,0.0,0.0,0.0,0.0,0.0,0.0,0.0,0.0,0.0,0.0,0.0,0.0,,,,,,,,,,,
177,876893,1745091040575,0.0,202.36,,-0.04,-0.04,1.01,0.0,0.0,0.0,1.01,1.24,81.0,3824.0,6.3,3.6,,12.35,1.226,97.0,,32.7,5.0,,,,,,,,,,,,0.0,0.0,0.0,0.0,0.0,0.0,0.0,0.0,0.0,0.0,0.0,0.0,0.0,0.0,0.0,0.0,,,,,0.0,,,,,,
178,876913,1745091040595,,,,,,,,,,,,,,,,,,,,,,,,,,,,,,,,,,0.0,0.0,0.0,0.0,0.0,0.0,0.0,0.0,0.0,0.0,0.0,0.0,0.0,0.0,0.0,0.0,,,,,,,,,,,
179,876933,1745091040615,0.0,202.24,,-0.05,-0.06,1.01,0.0,0.0,0.0,1.01,1.24,81.0,3824.0,6.3,3.6,,12.25,1.215,97.0,,32.0,5.0,0.0,0.0,0.0,0.0,0.0,0.0,0.0,0.0,2.26,,,0.0,0.0,0.0,0.0,0.0,0.0,0.0,0.0,0.0,0.0,0.0,0.0,0.0,0.0,0.0,0.0,0.0,,,,0.0,39.240097,-77.964836,0.04,33.0,3.0,0.8
180,876953,1745091040635,,,,,,,,,,,,,,,,,,,,,,,,,,,,,,,,,,0.0,0.0,0.0,0.0,0.0,0.0,0.0,0.0,0.0,0.0,0.0,0.0,0.0,0.0,0.0,0.0,,,,,,,,,,,
181,876973,1745091040655,0.0,202.24,,-0.05,-0.05,1.0,0.0,0.0,0.0,1.01,1.24,81.0,3779.0,6.1,3.58,,12.24,1.224,97.0,,32.0,5.0,,,,,,,,,,,,0.0,0.0,0.0,0.0,0.0,0.0,0.0,0.0,0.0,0.0,0.0,0.0,0.0,0.0,0.0,0.0,,,,,0.0,,,,,,
182,876993,1745091040675,,,,,,,,,,,,,,,,,,,,,,,,,,,,,,,,,,0.0,0.0,0.0,0.0,0.0,0.0,0.0,0.0,0.0,0.0,0.0,0.0,0.0,0.0,0.0,0.0,,,,,,,,,,,
183,877013,1745091040695,0.0,202.24,,-0.05,-0.02,0.99,0.0,0.0,0.0,0.99,1.24,80.0,3753.0,6.1,3.59,,12.27,1.225,97.0,,32.0,5.0,,,,,,,,,,,,0.0,0.0,0.0,0.0,0.0,0.0,0.0,0.0,0.0,0.0,0.0,0.0,0.0,0.0,0.0,0.0,,,,,0.0,,,,,,
184,877033,1745091040713,,,,,,,,,,,,,,,,,,,,,,,0.0,0.0,0.0,0.0,0.0,0.0,0.0,0.0,2.27,,,0.0,0.0,0.0,0.0,0.0,0.0,0.0,0.0,0.0,0.0,0.0,0.0,0.0,0.0,0.0,0.0,0.0,,,,,39.240097,-77.964836,0.05,33.0,3.0,0.8
185,877053,1745091040733,0.0,202.36,,-0.06,0.01,1.0,0.0,0.0,0.0,1.0,1.24,80.0,3685.0,6.1,3.59,,12.32,1.207,97.0,,31.4,5.0,,,,,,,,,,,,0.0,0.0,0.0,0.0,0.0,0.0,0.0,0.0,0.0,0.0,0.0,0.0,0.0,0.0,0.0,0.0,,,,,0.0,,,,,,
186,877073,1745091040753,,,,,,,,,,,,,,,,,,,,,,,,,,,,,,,,,,0.0,0.0,0.0,0.0,0.0,0.0,0.0,0.0,0.0,0.0,0.0,0.0,0.0,0.0,0.0,0.0,,,,,,,,,,,
187,877093,1745091040773,0.0,202.36,,-0.05,0.03,1.01,0.0,0.0,0.0,1.01,1.24,81.0,3655.0,6.0,3.59,,12.32,1.207,97.0,,31.4,5.0,,,,,,,,,,,,0.0,0.0,0.0,0.0,0.0,0.0,0.0,0.0,0.0,0.0,0.0,0.0,0.0,0.0,0.0,0.0,,,,,0.0,,,,,,
188,877113,1745091040793,,,,,,,,,,,,,,,,,,,,,,,,,,,,,,,,,,0.0,0.0,0.0,0.0,0.0,0.0,0.0,0.0,0.0,0.0,0.0,0.0,0.0,0.0,0.0,0.0,,,,,,,,,,,
189,877133,1745091040817,0.0,202.36,,-0.04,0.01,0.97,0.0,0.0,0.0,0.97,1.24,78.0,3655.0,6.0,3.59,,12.37,1.206,97.0,,30.6,5.0,0.0,0.0,0.0,0.0,0.0,0.0,0.0,0.0,2.26,,,0.0,0.0,0.0,0.0,0.0,0.0,0.0,0.0,0.0,0.0,0.0,0.0,0.0,0.0,0.0,0.0,0.0,,,,0.0,39.240097,-77.964836,0.04,33.0,3.0,0.8
190,877153,1745091040837,,,,,,,,,,,,,,,,,,,,,,,,,,,,,,,,,,0.0,0.0,0.0,0.0,0.0,0.0,0.0,0.0,0.0,0.0,0.0,0.0,0.0,0.0,0.0,0.0,,,,,,,,,,,
191,877173,1745091040857,0.0,202.36,,-0.06,-0.07,0.96,1.0,0.0,0.0,0.96,1.24,78.0,3576.0,6.1,3.6,,12.41,1.196,97.0,,30.6,5.0,,,,,,,,,,,,0.0,0.0,0.0,0.0,0.0,0.0,0.0,0.0,0.0,0.0,0.0,0.0,0.0,0.0,0.0,0.0,,,,,0.0,,,,,,
192,877193,1745091040877,,,,,,,,,,,,,,,,,,,,,,,,,,,,,,,,,,0.0,0.0,0.0,0.0,0.0,0.0,0.0,0.0,0.0,0.0,0.0,0.0,0.0,0.0,0.0,0.0,,,,,,,,,,,
193,877213,1745091040897,0.0,202.49,,-0.06,-0.06,0.97,0.0,0.0,0.0,0.97,1.24,78.0,3516.0,6.2,3.6,,12.53,1.204,97.0,,30.6,5.0,,,,,,,,,,,,0.0,0.0,0.0,0.0,0.0,0.0,0.0,0.0,0.0,0.0,0.0,0.0,0.0,0.0,0.0,0.0,,,,,0.0,,,,,,
194,877233,1745091040917,,,,,,,,,,,,,,,,,,,,,,,0.0,0.0,0.0,0.0,0.0,0.0,0.0,0.0,2.26,,,0.0,0.0,0.0,0.0,0.0,0.0,0.0,0.0,0.0,0.0,0.0,0.0,0.0,0.0,0.0,0.0,0.0,,,,,39.240097,-77.964836,0.04,33.0,3.0,0.8
195,877253,1745091040937,0.0,202.36,,-0.06,-0.05,0.97,0.0,0.0,0.0,0.97,1.24,78.0,3708.0,6.2,3.59,,12.45,1.23,97.0,,30.8,5.0,,,,,,,,,,,,0.0,0.0,0.0,0.0,0.0,0.0,0.0,0.0,0.0,0.0,0.0,0.0,0.0,0.0,0.0,0.0,,,,,0.0,,,,,,
196,877273,1745091040957,,,,,,,,,,,,,,,,,,,,,,,,,,,,,,,,,,0.0,0.0,0.0,0.0,0.0,0.0,0.0,0.0,0.0,0.0,0.0,0.0,0.0,0.0,0.0,0.0,,,,,,,,,,,
197,877293,1745091040977,0.0,202.36,,-0.05,-0.03,1.01,0.0,0.0,0.0,1.01,1.24,81.0,3690.0,6.1,3.6,,12.45,1.23,97.0,,30.8,5.0,,,,,,,,,,,,0.0,0.0,0.0,0.0,0.0,0.0,0.0,0.0,0.0,0.0,0.0,0.0,0.0,0.0,0.0,0.0,,,,,0.0,,,,,,
198,877313,1745091040997,,,,,,,,,,,,,,,,,,,,,,,,,,,,,,,,,,0.0,0.0,0.0,0.0,0.0,0.0,0.0,0.0,0.0,0.0,0.0,0.0,0.0,0.0,0.0,0.0,,,,,,,,,,,
199,877333,1745091041009,0.0,202.36,,-0.04,0.01,1.01,0.0,0.0,0.0,1.01,1.24,82.0,3690.0,6.1,3.6,,12.45,1.205,97.0,,30.6,5.0,0.0,0.0,0.0,0.0,0.0,0.0,0.0,0.0,2.26,,,0.0,0.0,0.0,0.0,0.0,0.0,0.0,0.0,0.0,0.0,0.0,0.0,0.0,0.0,0.0,0.0,0.0,,,,0.0,39.240097,-77.964836,0.04,33.0,3.0,0.8
200,877353,1745091041029,,,,,,,,,,,,,,,,,,,,,,,,,,,,,,,,,,0.0,0.0,0.0,0.0,0.0,0.0,0.0,0.0,0.0,0.0,0.0,0.0,0.0,0.0,0.0,0.0,,,,,,,,,,,
201,877373,1745091041049,0.0,202.36,,-0.03,0.01,0.98,0.0,0.0,0.0,0.98,1.24,79.0,3607.0,6.1,3.6,,12.44,1.106,97.0,,30.6,5.0,,,,,,,,,,,,0.0,0.0,0.0,0.0,0.0,0.0,0.0,0.0,0.0,0.0,0.0,0.0,0.0,0.0,0.0,0.0,,,,,0.0,,,,,,
202,877393,1745091041069,,,,,,,,,,,,,,,,,,,,,,,,,,,,,,,,,,0.0,0.0,0.0,0.0,0.0,0.0,0.0,0.0,0.0,0.0,0.0,0.0,0.0,0.0,0.0,0.0,,,,,,,,,,,
203,877413,1745091041089,0.0,202.36,,-0.04,-0.09,0.96,1.0,0.0,0.0,0.97,1.24,78.0,3544.0,6.1,3.6,,12.52,1.078,97.0,,30.6,5.0,,,,,,,,,,,,0.0,0.0,0.0,0.0,0.0,0.0,0.0,0.0,0.0,0.0,0.0,0.0,0.0,0.0,0.0,0.0,,,,,0.0,,,,,,
204,877433,1745091041113,,,,,,,,,,,,,,,,,,,,,,,0.0,0.0,0.0,0.0,0.0,0.0,0.0,0.0,2.26,,,0.0,0.0,0.0,0.0,0.0,0.0,0.0,0.0,0.0,0.0,0.0,0.0,0.0,0.0,0.0,0.0,0.0,,,,,39.240097,-77.964836,0.04,33.0,3.0,0.8
205,877453,1745091041133,0.0,202.36,,-0.06,-0.03,1.01,0.0,0.0,0.0,1.02,1.24,82.0,3463.0,6.1,3.61,,12.57,1.111,97.0,,29.4,5.0,,,,,,,,,,,,0.0,0.0,0.0,0.0,0.0,0.0,0.0,0.0,0.0,0.0,0.0,0.0,0.0,0.0,0.0,0.0,,,,,0.0,,,,,,
206,877473,1745091041153,,,,,,,,,,,,,,,,,,,,,,,,,,,,,,,,,,0.0,0.0,0.0,0.0,0.0,0.0,0.0,0.0,0.0,0.0,0.0,0.0,0.0,0.0,0.0,0.0,,,,,,,,,,,
207,877493,1745091041173,0.0,202.36,,-0.04,-0.05,0.96,1.0,0.0,0.0,0.96,1.24,77.0,3434.0,5.9,3.63,,12.57,1.111,97.0,,29.4,5.0,,,,,,,,,,,,0.0,0.0,0.0,0.0,0.0,0.0,0.0,0.0,0.0,0.0,0.0,0.0,0.0,0.0,0.0,0.0,,,,,0.0,,,,,,
208,877513,1745091041193,,,,,,,,,,,,,,,,,,,,,,,,,,,,,,,,,,0.0,0.0,0.0,0.0,0.0,0.0,0.0,0.0,0.0,0.0,0.0,0.0,0.0,0.0,0.0,0.0,,,,,,,,,,,
209,877533,1745091041219,0.0,202.36,,-0.04,-0.06,1.04,0.0,0.0,0.0,1.04,1.24,83.0,3434.0,5.9,3.63,,12.67,1.145,97.0,,28.0,5.0,0.0,0.0,0.0,0.0,0.0,0.0,0.0,0.0,2.26,,,0.0,0.0,0.0,0.0,0.0,0.0,0.0,0.0,0.0,0.0,0.0,0.0,0.0,0.0,0.0,0.0,0.0,,,,0.0,39.240097,-77.964836,0.05,33.0,3.0,0.8
210,877553,1745091041239,,,,,,,,,,,,,,,,,,,,,,,,,,,,,,,,,,0.0,0.0,0.0,0.0,0.0,0.0,0.0,0.0,0.0,0.0,0.0,0.0,0.0,0.0,0.0,0.0,,,,,,,,,,,
211,877573,1745091041259,0.0,202.36,,-0.04,-0.07,0.96,1.0,0.0,0.0,0.96,1.24,77.0,3333.0,5.9,3.61,,12.63,1.154,97.0,,28.0,5.0,,,,,,,,,,,,0.0,0.0,0.0,0.0,0.0,0.0,0.0,0.0,0.0,0.0,0.0,0.0,0.0,0.0,0.0,0.0,,,,,0.0,,,,,,
212,877593,1745091041279,,,,,,,,,,,,,,,,,,,,,,,,,,,,,,,,,,0.0,0.0,0.0,0.0,0.0,0.0,0.0,0.0,0.0,0.0,0.0,0.0,0.0,0.0,0.0,0.0,,,,,,,,,,,
213,877613,1745091041299,0.0,202.36,,-0.02,-0.0,0.96,0.0,0.0,0.0,0.96,1.24,77.0,3283.0,5.9,3.64,,12.75,1.163,97.0,,28.0,5.0,,,,,,,,,,,,0.0,0.0,0.0,0.0,0.0,0.0,0.0,0.0,0.0,0.0,0.0,0.0,0.0,0.0,0.0,0.0,,,,,0.0,,,,,,
214,877633,1745091041317,,,,,,,,,,,,,,,,,,,,,,,0.0,0.0,0.0,0.0,0.0,0.0,0.0,0.0,2.26,,,0.0,0.0,0.0,0.0,0.0,0.0,0.0,0.0,0.0,0.0,0.0,0.0,0.0,0.0,0.0,0.0,0.0,,,,,39.240097,-77.964836,0.04,33.0,3.0,0.8
215,877653,1745091041337,0.0,202.36,,-0.03,-0.05,1.03,0.0,0.0,0.0,1.03,1.24,83.0,3275.0,5.8,3.63,,12.67,1.168,97.0,,26.9,5.0,,,,,,,,,,,,0.0,0.0,0.0,0.0,0.0,0.0,0.0,0.0,0.0,0.0,0.0,0.0,0.0,0.0,0.0,0.0,,,,,0.0,,,,,,
216,877673,1745091041357,,,,,,,,,,,,,,,,,,,,,,,,,,,,,,,,,,0.0,0.0,0.0,0.0,0.0,0.0,0.0,0.0,0.0,0.0,0.0,0.0,0.0,0.0,0.0,0.0,,,,,,,,,,,
217,877693,1745091041377,0.0,202.36,,-0.03,-0.04,0.95,0.0,0.0,0.0,0.96,1.24,77.0,3411.0,5.9,3.63,,12.67,1.168,97.0,,26.9,5.0,,,,,,,,,,,,0.0,0.0,0.0,0.0,0.0,0.0,0.0,0.0,0.0,0.0,0.0,0.0,0.0,0.0,0.0,0.0,,,,,0.0,,,,,,
218,877713,1745091041397,,,,,,,,,,,,,,,,,,,,,,,,,,,,,,,,,,0.0,0.0,0.0,0.0,0.0,0.0,0.0,0.0,0.0,0.0,0.0,0.0,0.0,0.0,0.0,0.0,,,,,,,,,,,
219,877733,1745091041419,0.0,202.49,13.15,-0.05,-0.12,1.01,0.0,0.0,0.0,1.02,1.24,82.0,3411.0,5.9,3.63,15.0,12.75,1.18,97.0,169.0,28.3,5.0,0.0,0.0,0.0,0.0,0.0,0.0,0.0,0.0,2.26,0.0,0.0,0.0,0.0,0.0,0.0,0.0,0.0,0.0,0.0,0.0,0.0,0.0,0.0,0.0,0.0,0.0,0.0,0.0,0.0,0.0,0.0,0.0,39.240097,-77.964836,0.0,33.0,3.0,0.8
220,877753,1745091041439,,,,,,,,,,,,,,,,,,,,,,,,,,,,,,,,,,0.0,0.0,0.0,0.0,0.0,0.0,0.0,0.0,0.0,0.0,0.0,0.0,0.0,0.0,0.0,0.0,,,,,,,,,,,
221,877773,1745091041459,0.0,202.36,,-0.02,0.01,0.99,0.0,0.0,0.0,0.99,1.24,79.0,3455.0,6.0,3.61,,12.75,1.249,97.0,,28.3,5.0,,,,,,,,,,,,0.0,0.0,0.0,0.0,0.0,0.0,0.0,0.0,0.0,0.0,0.0,0.0,0.0,0.0,0.0,0.0,,,,,0.0,,,,,,
222,877793,1745091041479,,,,,,,,,,,,,,,,,,,,,,,,,,,,,,,,,,0.0,0.0,0.0,0.0,0.0,0.0,0.0,0.0,0.0,0.0,0.0,0.0,0.0,0.0,0.0,0.0,,,,,,,,,,,
223,877813,1745091041499,0.0,202.36,,-0.05,-0.12,1.0,0.0,0.0,0.0,1.01,1.24,81.0,3372.0,6.0,3.63,,12.73,1.222,97.0,,28.3,5.0,,,,,,,,,,,,0.0,0.0,0.0,0.0,0.0,0.0,0.0,0.0,0.0,0.0,0.0,0.0,0.0,0.0,0.0,0.0,,,,,0.0,,,,,,
224,877833,1745091041514,,,,,,,,,,,,,,,,,,,,,,,0.0,0.0,0.0,0.0,0.0,0.0,0.0,0.0,2.26,,,0.0,0.0,0.0,0.0,0.0,0.0,0.0,0.0,0.0,0.0,0.0,0.0,0.0,0.0,0.0,0.0,0.0,,,,,39.240097,-77.964836,0.0,33.0,3.0,0.8
225,877853,1745091041534,0.0,202.49,,-0.04,-0.02,0.95,0.0,0.0,0.0,0.95,1.24,77.0,3329.0,6.0,3.62,,12.77,1.12,97.0,,28.0,5.0,,,,,,,,,,,,0.0,0.0,0.0,0.0,0.0,0.0,0.0,0.0,0.0,0.0,0.0,0.0,0.0,0.0,0.0,0.0,,,,,0.0,,,,,,
226,877873,1745091041554,,,,,,,,,,,,,,,,,,,,,,,,,,,,,,,,,,0.0,0.0,0.0,0.0,0.0,0.0,0.0,0.0,0.0,0.0,0.0,0.0,0.0,0.0,0.0,0.0,,,,,,,,,,,
227,877893,1745091041574,0.0,202.36,,-0.03,-0.06,1.03,0.0,0.0,0.0,1.03,1.24,83.0,3280.0,5.9,3.64,,12.77,1.12,97.0,,28.0,5.0,,,,,,,,,,,,0.0,0.0,0.0,0.0,0.0,0.0,0.0,0.0,0.0,0.0,0.0,0.0,0.0,0.0,0.0,0.0,,,,,0.0,,,,,,
228,877913,1745091041594,,,,,,,,,,,,,,,,,,,,,,,,,,,,,,,,,,0.0,0.0,0.0,0.0,0.0,0.0,0.0,0.0,0.0,0.0,0.0,0.0,0.0,0.0,0.0,0.0,,,,,,,,,,,
229,877933,1745091041614,0.0,202.36,,-0.05,-0.08,0.98,0.0,0.0,0.0,0.98,1.24,79.0,3280.0,5.9,3.64,,12.68,1.078,97.0,,27.2,5.0,0.0,0.0,0.0,0.0,0.0,0.0,0.0,0.0,2.26,,,0.0,0.0,0.0,0.0,0.0,0.0,0.0,0.0,0.0,0.0,0.0,0.0,0.0,0.0,0.0,0.0,0.0,,,,0.0,39.240097,-77.964836,0.04,33.0,3.0,0.8
230,877953,1745091041634,,,,,,,,,,,,,,,,,,,,,,,,,,,,,,,,,,0.0,0.0,0.0,0.0,0.0,0.0,0.0,0.0,0.0,0.0,0.0,0.0,0.0,0.0,0.0,0.0,,,,,,,,,,,
231,877973,1745091041654,0.0,202.36,,-0.04,-0.01,0.97,0.0,0.0,0.0,0.97,1.24,78.0,0.0,5.9,3.62,,12.71,1.117,97.0,,27.2,5.0,,,,,,,,,,,,0.0,0.0,0.0,0.0,0.0,0.0,0.0,0.0,0.0,0.0,0.0,0.0,0.0,0.0,0.0,0.0,,,,,0.0,,,,,,
232,877993,1745091041674,,,,,,,,,,,,,,,,,,,,,,,,,,,,,,,,,,0.0,0.0,0.0,0.0,0.0,0.0,0.0,0.0,0.0,0.0,0.0,0.0,0.0,0.0,0.0,0.0,,,,,,,,,,,
233,878013,1745091041694,0.0,202.36,,-0.03,-0.03,1.02,0.0,0.0,0.0,1.02,1.24,82.0,3158.0,5.8,3.63,,12.76,1.164,97.0,,27.2,5.0,,,,,,,,,,,,0.0,0.0,0.0,0.0,0.0,0.0,0.0,0.0,0.0,0.0,0.0,0.0,0.0,0.0,0.0,0.0,,,,,0.0,,,,,,
234,878033,1745091041714,,,,,,,,,,,,,,,,,,,,,,,0.0,0.0,0.0,0.0,0.0,0.0,0.0,0.0,2.26,,,0.0,0.0,0.0,0.0,0.0,0.0,0.0,0.0,0.0,0.0,0.0,0.0,0.0,0.0,0.0,0.0,0.0,,,,,39.240097,-77.964836,0.0,33.0,3.0,0.8
235,878053,1745091041734,0.0,202.36,,-0.06,-0.08,1.07,0.0,0.0,0.0,1.08,1.24,87.0,3182.0,5.8,3.64,,12.83,1.222,97.0,,25.9,5.0,,,,,,,,,,,,0.0,0.0,0.0,0.0,0.0,0.0,0.0,0.0,0.0,0.0,0.0,0.0,0.0,0.0,0.0,0.0,,,,,0.0,,,,,,
236,878073,1745091041754,,,,,,,,,,,,,,,,,,,,,,,,,,,,,,,,,,0.0,0.0,0.0,0.0,0.0,0.0,0.0,0.0,0.0,0.0,0.0,0.0,0.0,0.0,0.0,0.0,,,,,,,,,,,
237,878093,1745091041774,0.0,202.36,,-0.08,-0.11,1.04,0.0,0.0,0.0,1.05,1.24,85.0,3112.0,5.8,3.63,,12.83,1.222,97.0,,25.9,5.0,,,,,,,,,,,,0.0,0.0,0.0,0.0,0.0,0.0,0.0,0.0,0.0,0.0,0.0,0.0,0.0,0.0,0.0,0.0,,,,,0.0,,,,,,
238,878113,1745091041794,,,,,,,,,,,,,,,,,,,,,,,,,,,,,,,,,,0.0,0.0,0.0,0.0,0.0,0.0,0.0,0.0,0.0,0.0,0.0,0.0,0.0,0.0,0.0,0.0,,,,,,,,,,,
239,878133,1745091041816,0.0,202.36,,-0.08,-0.11,0.95,1.0,0.0,-1.0,0.96,1.24,77.0,3112.0,5.8,3.63,,12.77,1.22,97.0,,25.4,5.0,0.0,0.0,0.0,0.0,0.0,0.0,0.0,0.0,2.26,,,0.0,0.0,0.0,0.0,0.0,0.0,0.0,0.0,0.0,0.0,0.0,0.0,0.0,0.0,0.0,0.0,0.0,,,,0.0,39.240097,-77.964836,0.05,33.0,3.0,0.8
240,878153,1745091041836,,,,,,,,,,,,,,,,,,,,,,,,,,,,,,,,,,0.0,0.0,0.0,0.0,0.0,0.0,0.0,0.0,0.0,0.0,0.0,0.0,0.0,0.0,0.0,0.0,,,,,,,,,,,
241,878173,1745091041856,0.0,202.24,,-0.07,-0.05,0.87,1.0,0.0,-1.0,0.87,1.24,70.0,3029.0,5.8,3.65,,12.89,1.237,97.0,,25.4,5.0,,,,,,,,,,,,0.0,0.0,0.0,0.0,0.0,0.0,0.0,0.0,0.0,0.0,0.0,0.0,0.0,0.0,0.0,0.0,,,,,0.0,,,,,,
242,878193,1745091041876,,,,,,,,,,,,,,,,,,,,,,,,,,,,,,,,,,0.0,0.0,0.0,0.0,0.0,0.0,0.0,0.0,0.0,0.0,0.0,0.0,0.0,0.0,0.0,0.0,,,,,,,,,,,
243,878213,1745091041896,0.0,202.24,,-0.06,-0.01,0.83,1.0,0.0,-1.0,0.83,1.24,67.0,3054.0,5.8,3.65,,12.89,1.251,97.0,,25.4,5.0,,,,,,,,,,,,0.0,0.0,0.0,0.0,0.0,0.0,0.0,0.0,0.0,0.0,0.0,0.0,0.0,0.0,0.0,0.0,,,,,0.0,,,,,,
244,878233,1745091041916,,,,,,,,,,,,,,,,,,,,,,,0.0,0.0,0.0,0.0,0.0,0.0,0.0,0.0,2.26,,,0.0,0.0,0.0,0.0,0.0,0.0,0.0,0.0,0.0,0.0,0.0,0.0,0.0,0.0,0.0,0.0,0.0,,,,,39.240097,-77.964836,0.07,33.0,3.0,0.8
245,878253,1745091041936,0.0,202.24,,-0.04,0.06,0.8,1.0,-1.0,0.0,0.8,1.24,65.0,3068.0,5.9,3.64,,12.95,1.239,97.0,,24.6,5.0,,,,,,,,,,,,0.0,0.0,0.0,0.0,0.0,0.0,0.0,0.0,0.0,0.0,0.0,0.0,0.0,0.0,0.0,0.0,,,,,0.0,,,,,,
246,878273,1745091041956,,,,,,,,,,,,,,,,,,,,,,,,,,,,,,,,,,0.0,0.0,0.0,0.0,0.0,0.0,0.0,0.0,0.0,0.0,0.0,0.0,0.0,0.0,0.0,0.0,,,,,,,,,,,
247,878293,1745091041976,0.0,202.36,,-0.03,0.07,0.85,0.0,-1.0,0.0,0.86,1.24,69.0,3186.0,5.9,3.65,,12.95,1.239,97.0,,24.6,5.0,,,,,,,,,,,,0.0,0.0,0.0,0.0,0.0,0.0,0.0,0.0,0.0,0.0,0.0,0.0,0.0,0.0,0.0,0.0,,,,,0.0,,,,,,
248,878313,1745091041996,,,,,,,,,,,,,,,,,,,,,,,,,,,,,,,,,,0.0,0.0,0.0,0.0,0.0,0.0,0.0,0.0,0.0,0.0,0.0,0.0,0.0,0.0,0.0,0.0,,,,,,,,,,,
249,878333,1745091042010,0.0,202.36,,-0.04,-0.04,0.86,1.0,0.0,0.0,0.86,1.24,70.0,3186.0,5.9,3.65,,12.92,1.226,97.0,,27.3,5.0,0.0,0.0,0.0,0.0,0.0,0.0,0.0,0.0,2.26,,,0.0,0.0,0.0,0.0,0.0,0.0,0.0,0.0,0.0,0.0,0.0,0.0,0.0,0.0,0.0,0.0,0.0,,,,0.0,39.240097,-77.964836,0.0,33.0,3.0,0.8
250,878353,1745091042030,,,,,,,,,,,,,,,,,,,,,,,,,,,,,,,,,,0.0,0.0,0.0,0.0,0.0,0.0,0.0,0.0,0.0,0.0,0.0,0.0,0.0,0.0,0.0,0.0,,,,,,,,,,,
251,878373,1745091042050,0.0,202.24,,-0.04,0.06,0.87,0.0,-1.0,0.0,0.87,1.24,70.0,3358.0,5.9,3.64,,12.81,1.239,97.0,,27.3,5.0,,,,,,,,,,,,0.0,0.0,0.0,0.0,0.0,0.0,0.0,0.0,0.0,0.0,0.0,0.0,0.0,0.0,0.0,0.0,,,,,0.0,,,,,,
252,878393,1745091042070,,,,,,,,,,,,,,,,,,,,,,,,,,,,,,,,,,0.0,0.0,0.0,0.0,0.0,0.0,0.0,0.0,0.0,0.0,0.0,0.0,0.0,0.0,0.0,0.0,,,,,,,,,,,
253,878413,1745091042090,0.0,202.36,,-0.05,-0.05,0.9,0.0,0.0,0.0,0.9,1.24,73.0,3319.0,6.0,3.64,,12.77,1.204,97.0,,27.3,5.0,,,,,,,,,,,,0.0,0.0,0.0,0.0,0.0,0.0,0.0,0.0,0.0,0.0,0.0,0.0,0.0,0.0,0.0,0.0,,,,,0.0,,,,,,
254,878433,1745091042118,,,,,,,,,,,,,,,,,,,,,,,0.0,0.0,0.0,0.0,0.0,0.0,0.0,0.0,2.26,,,0.0,0.0,0.0,0.0,0.0,0.0,0.0,0.0,0.0,0.0,0.0,0.0,0.0,0.0,0.0,0.0,0.0,,,,,39.240097,-77.964836,0.06,33.0,3.0,0.8
255,878453,1745091042138,0.0,202.36,,-0.03,-0.0,0.94,0.0,0.0,0.0,0.94,1.24,75.0,3409.0,5.9,3.64,,12.79,1.163,97.0,,27.6,5.0,,,,,,,,,,,,0.0,0.0,0.0,0.0,0.0,0.0,0.0,0.0,0.0,0.0,0.0,0.0,0.0,0.0,0.0,0.0,,,,,0.0,,,,,,
256,878473,1745091042158,,,,,,,,,,,,,,,,,,,,,,,,,,,,,,,,,,0.0,0.0,0.0,0.0,0.0,0.0,0.0,0.0,0.0,0.0,0.0,0.0,0.0,0.0,0.0,0.0,,,,,,,,,,,
257,878493,1745091042178,0.0,202.36,,-0.02,-0.03,0.88,0.0,-1.0,0.0,0.88,1.24,71.0,3573.0,5.7,3.63,,12.79,1.163,97.0,,27.6,5.0,,,,,,,,,,,,0.0,0.0,0.0,0.0,0.0,0.0,0.0,0.0,0.0,0.0,0.0,0.0,0.0,0.0,0.0,0.0,,,,,0.0,,,,,,
258,878513,1745091042198,,,,,,,,,,,,,,,,,,,,,,,,,,,,,,,,,,0.0,0.0,0.0,0.0,0.0,0.0,0.0,0.0,0.0,0.0,0.0,0.0,0.0,0.0,0.0,0.0,,,,,,,,,,,
259,878533,1745091042218,0.0,202.36,,-0.06,-0.11,0.92,0.0,0.0,0.0,0.92,1.24,74.0,3573.0,5.7,3.63,,12.71,1.156,97.0,,29.0,5.0,0.0,0.0,0.0,0.0,0.0,0.0,0.0,0.0,2.26,,,0.0,0.0,0.0,0.0,0.0,0.0,0.0,0.0,0.0,0.0,0.0,0.0,0.0,0.0,0.0,0.0,0.0,,,,0.0,39.240097,-77.964836,0.0,33.0,3.0,0.8
260,878553,1745091042238,,,,,,,,,,,,,,,,,,,,,,,,,,,,,,,,,,0.0,0.0,0.0,0.0,0.0,0.0,0.0,0.0,0.0,0.0,0.0,0.0,0.0,0.0,0.0,0.0,,,,,,,,,,,
261,878573,1745091042258,0.0,202.36,,-0.04,-0.07,0.95,0.0,0.0,0.0,0.95,1.24,76.0,3501.0,5.8,3.63,,12.64,1.115,97.0,,29.0,5.0,,,,,,,,,,,,0.0,0.0,0.0,0.0,0.0,0.0,0.0,0.0,0.0,0.0,0.0,0.0,0.0,0.0,0.0,0.0,,,,,0.0,,,,,,
262,878593,1745091042278,,,,,,,,,,,,,,,,,,,,,,,,,,,,,,,,,,0.0,0.0,0.0,0.0,0.0,0.0,0.0,0.0,0.0,0.0,0.0,0.0,0.0,0.0,0.0,0.0,,,,,,,,,,,
263,878613,1745091042298,0.0,202.36,,-0.04,-0.08,0.91,0.0,0.0,0.0,0.91,1.24,73.0,3462.0,5.7,3.62,,12.63,1.116,97.0,,29.0,5.0,,,,,,,,,,,,0.0,0.0,0.0,0.0,0.0,0.0,0.0,0.0,0.0,0.0,0.0,0.0,0.0,0.0,0.0,0.0,,,,,0.0,,,,,,
264,878633,1745091042318,,,,,,,,,,,,,,,,,,,,,,,0.0,0.0,0.0,0.0,0.0,0.0,0.0,0.0,2.26,,,0.0,0.0,0.0,0.0,0.0,0.0,0.0,0.0,0.0,0.0,0.0,0.0,0.0,0.0,0.0,0.0,0.0,,,,,39.240097,-77.964836,0.0,33.0,3.0,0.8
265,878653,1745091042338,0.0,202.49,,-0.05,-0.05,0.98,0.0,0.0,0.0,0.99,1.24,79.0,3384.0,5.7,3.62,,12.69,1.115,97.0,,28.2,5.0,,,,,,,,,,,,0.0,0.0,0.0,0.0,0.0,0.0,0.0,0.0,0.0,0.0,0.0,0.0,0.0,0.0,0.0,0.0,,,,,0.0,,,,,,
266,878673,1745091042358,,,,,,,,,,,,,,,,,,,,,,,,,,,,,,,,,,0.0,0.0,0.0,0.0,0.0,0.0,0.0,0.0,0.0,0.0,0.0,0.0,0.0,0.0,0.0,0.0,,,,,,,,,,,
267,878693,1745091042378,0.0,202.49,,-0.05,-0.04,0.92,1.0,0.0,0.0,0.93,1.24,74.0,3350.0,5.9,3.62,,12.69,1.115,97.0,,28.2,5.0,,,,,,,,,,,,0.0,0.0,0.0,0.0,0.0,0.0,0.0,0.0,0.0,0.0,0.0,0.0,0.0,0.0,0.0,0.0,,,,,0.0,,,,,,
268,878713,1745091042398,,,,,,,,,,,,,,,,,,,,,,,,,,,,,,,,,,0.0,0.0,0.0,0.0,0.0,0.0,0.0,0.0,0.0,0.0,0.0,0.0,0.0,0.0,0.0,0.0,,,,,,,,,,,
269,878733,1745091042418,0.0,202.49,13.17,-0.03,0.0,0.98,0.0,0.0,0.0,0.98,1.24,79.0,3350.0,5.9,3.62,15.0,12.68,1.11,97.0,169.0,27.5,5.0,0.0,0.0,0.0,0.0,0.0,0.0,0.0,0.0,2.26,0.0,0.0,0.0,0.0,0.0,0.0,0.0,0.0,0.0,0.0,0.0,0.0,0.0,0.0,0.0,0.0,0.0,0.0,0.0,0.0,0.0,0.0,0.0,39.240097,-77.964836,0.39,33.0,3.0,0.8
270,878753,1745091042438,,,,,,,,,,,,,,,,,,,,,,,,,,,,,,,,,,0.0,0.0,0.0,0.0,0.0,0.0,0.0,0.0,0.0,0.0,0.0,0.0,0.0,0.0,0.0,0.0,,,,,,,,,,,
271,878773,1745091042458,0.0,202.49,,-0.05,-0.07,0.99,1.0,0.0,0.0,1.0,1.24,80.0,3284.0,5.9,3.64,,12.69,1.126,97.0,,27.5,5.0,,,,,,,,,,,,0.0,0.0,0.0,0.0,0.0,0.0,0.0,0.0,0.0,0.0,0.0,0.0,0.0,0.0,0.0,0.0,,,,,0.0,,,,,,
272,878793,1745091042478,,,,,,,,,,,,,,,,,,,,,,,,,,,,,,,,,,0.0,0.0,0.0,0.0,0.0,0.0,0.0,0.0,0.0,0.0,0.0,0.0,0.0,0.0,0.0,0.0,,,,,,,,,,,
273,878813,1745091042498,0.0,202.49,,-0.04,0.03,0.94,1.0,0.0,0.0,0.94,1.24,76.0,3248.0,5.9,3.62,,12.76,1.143,97.0,,27.5,5.0,,,,,,,,,,,,0.0,0.0,0.0,0.0,0.0,0.0,0.0,0.0,0.0,0.0,0.0,0.0,0.0,0.0,0.0,0.0,,,,,0.0,,,,,,
274,878833,1745091042513,,,,,,,,,,,,,,,,,,,,,,,0.0,0.0,0.0,0.0,0.0,0.0,0.0,0.0,2.26,,,0.0,0.0,0.0,0.0,0.0,0.0,0.0,0.0,0.0,0.0,0.0,0.0,0.0,0.0,0.0,0.0,0.0,,,,,39.240097,-77.964836,0.42,33.0,3.0,0.8
275,878853,1745091042533,0.0,202.49,,-0.06,-0.04,0.95,1.0,0.0,-1.0,0.95,1.24,77.0,3501.0,5.9,3.63,,12.71,1.183,97.0,,27.4,5.0,,,,,,,,,,,,0.0,0.0,0.0,0.0,0.0,0.0,0.0,0.0,0.0,0.0,0.0,0.0,0.0,0.0,0.0,0.0,,,,,0.0,,,,,,
276,878873,1745091042553,,,,,,,,,,,,,,,,,,,,,,,,,,,,,,,,,,0.0,0.0,0.0,0.0,0.0,0.0,0.0,0.0,0.0,0.0,0.0,0.0,0.0,0.0,0.0,0.0,,,,,,,,,,,
277,878893,1745091042573,0.0,202.49,,-0.03,0.1,0.97,0.0,0.0,0.0,0.98,1.24,79.0,3416.0,5.9,3.63,,12.71,1.183,97.0,,27.4,5.0,,,,,,,,,,,,0.0,0.0,0.0,0.0,0.0,0.0,0.0,0.0,0.0,0.0,0.0,0.0,0.0,0.0,0.0,0.0,,,,,0.0,,,,,,
278,878913,1745091042593,,,,,,,,,,,,,,,,,,,,,,,,,,,,,,,,,,0.0,0.0,0.0,0.0,0.0,0.0,0.0,0.0,0.0,0.0,0.0,0.0,0.0,0.0,0.0,0.0,,,,,,,,,,,
279,878933,1745091042615,0.0,202.36,,-0.04,-0.02,0.93,1.0,0.0,0.0,0.93,1.24,75.0,3416.0,5.9,3.63,,12.72,1.222,97.0,,28.5,5.0,0.0,0.0,0.0,0.0,0.0,0.0,0.0,0.0,2.26,,,0.0,0.0,0.0,0.0,0.0,0.0,0.0,0.0,0.0,0.0,0.0,0.0,0.0,0.0,0.0,0.0,0.0,,,,0.0,39.240097,-77.964836,0.13,33.0,3.0,0.8
280,878953,1745091042635,,,,,,,,,,,,,,,,,,,,,,,,,,,,,,,,,,0.0,0.0,0.0,0.0,0.0,0.0,0.0,0.0,0.0,0.0,0.0,0.0,0.0,0.0,0.0,0.0,,,,,,,,,,,
281,878973,1745091042655,0.0,202.36,,-0.04,0.06,0.95,0.0,0.0,0.0,0.95,1.24,76.0,3394.0,5.8,3.63,,12.75,1.165,97.0,,28.5,5.0,,,,,,,,,,,,0.0,0.0,0.0,0.0,0.0,0.0,0.0,0.0,0.0,0.0,0.0,0.0,0.0,0.0,0.0,0.0,,,,,0.0,,,,,,
282,878993,1745091042675,,,,,,,,,,,,,,,,,,,,,,,,,,,,,,,,,,0.0,0.0,0.0,0.0,0.0,0.0,0.0,0.0,0.0,0.0,0.0,0.0,0.0,0.0,0.0,0.0,,,,,,,,,,,
283,879013,1745091042695,0.0,202.36,,-0.06,-0.03,0.96,1.0,0.0,0.0,0.96,1.24,78.0,3288.0,5.8,3.62,,12.72,1.138,97.0,,28.5,5.0,,,,,,,,,,,,0.0,0.0,0.0,0.0,0.0,0.0,0.0,0.0,0.0,0.0,0.0,0.0,0.0,0.0,0.0,0.0,,,,,0.0,,,,,,
284,879033,1745091042715,,,,,,,,,,,,,,,,,,,,,,,0.0,0.0,0.0,0.0,0.0,0.0,0.0,0.0,2.26,,,0.0,0.0,0.0,0.0,0.0,0.0,0.0,0.0,0.0,0.0,0.0,0.0,0.0,0.0,0.0,0.0,0.0,,,,,39.240097,-77.964836,0.13,33.0,3.0,0.8
285,879053,1745091042735,0.0,202.49,,-0.05,0.03,0.91,1.0,-1.0,0.0,0.91,1.24,73.0,3284.0,5.7,3.64,,12.77,1.122,97.0,,27.7,5.0,,,,,,,,,,,,0.0,0.0,0.0,0.0,0.0,0.0,0.0,0.0,0.0,0.0,0.0,0.0,0.0,0.0,0.0,0.0,,,,,0.0,,,,,,
286,879073,1745091042755,,,,,,,,,,,,,,,,,,,,,,,,,,,,,,,,,,0.0,0.0,0.0,0.0,0.0,0.0,0.0,0.0,0.0,0.0,0.0,0.0,0.0,0.0,0.0,0.0,,,,,,,,,,,
287,879093,1745091042775,0.0,202.49,,-0.05,-0.0,0.99,0.0,0.0,0.0,0.99,1.24,80.0,3321.0,5.7,3.63,,12.77,1.122,97.0,,27.7,5.0,,,,,,,,,,,,0.0,0.0,0.0,0.0,0.0,0.0,0.0,0.0,0.0,0.0,0.0,0.0,0.0,0.0,0.0,0.0,,,,,0.0,,,,,,
288,879113,1745091042795,,,,,,,,,,,,,,,,,,,,,,,,,,,,,,,,,,0.0,0.0,0.0,0.0,0.0,0.0,0.0,0.0,0.0,0.0,0.0,0.0,0.0,0.0,0.0,0.0,,,,,,,,,,,
289,879133,1745091042817,0.0,202.49,,-0.06,-0.05,0.94,1.0,0.0,0.0,0.94,1.24,76.0,3321.0,5.7,3.63,,12.71,1.139,97.0,,27.2,5.0,0.0,0.0,0.0,0.0,0.0,0.0,0.0,0.0,2.26,,,0.0,0.0,0.0,0.0,0.0,0.0,0.0,0.0,0.0,0.0,0.0,0.0,0.0,0.0,0.0,0.0,0.0,,,,0.0,39.240097,-77.964836,0.0,33.0,3.0,0.8
290,879153,1745091042837,,,,,,,,,,,,,,,,,,,,,,,,,,,,,,,,,,0.0,0.0,0.0,0.0,0.0,0.0,0.0,0.0,0.0,0.0,0.0,0.0,0.0,0.0,0.0,0.0,,,,,,,,,,,
291,879173,1745091042857,0.0,202.49,,-0.04,0.01,0.95,0.0,0.0,0.0,0.95,1.24,76.0,3257.0,5.7,3.62,,12.8,1.157,97.0,,27.2,5.0,,,,,,,,,,,,0.0,0.0,0.0,0.0,0.0,0.0,0.0,0.0,0.0,0.0,0.0,0.0,0.0,0.0,0.0,0.0,,,,,0.0,,,,,,
292,879193,1745091042877,,,,,,,,,,,,,,,,,,,,,,,,,,,,,,,,,,0.0,0.0,0.0,0.0,0.0,0.0,0.0,0.0,0.0,0.0,0.0,0.0,0.0,0.0,0.0,0.0,,,,,,,,,,,
293,879213,1745091042897,0.0,202.49,,-0.05,-0.04,1.02,0.0,0.0,0.0,1.02,1.24,82.0,3272.0,5.8,3.64,,12.79,1.172,97.0,,27.2,5.0,,,,,,,,,,,,0.0,0.0,0.0,0.0,0.0,0.0,0.0,0.0,0.0,0.0,0.0,0.0,0.0,0.0,0.0,0.0,,,,,0.0,,,,,,
294,879233,1745091042919,,,,,,,,,,,,,,,,,,,,,,,0.0,0.0,0.0,0.0,0.0,0.0,0.0,0.0,2.26,,,0.0,0.0,0.0,0.0,0.0,0.0,0.0,0.0,0.0,0.0,0.0,0.0,0.0,0.0,0.0,0.0,0.0,,,,,39.240097,-77.964836,0.04,33.0,3.0,0.8
295,879253,1745091042939,0.0,202.36,,-0.07,-0.07,0.94,1.0,0.0,-1.0,0.94,1.24,76.0,3250.0,5.9,3.62,,12.75,1.181,97.0,,26.9,5.0,,,,,,,,,,,,0.0,0.0,0.0,0.0,0.0,0.0,0.0,0.0,0.0,0.0,0.0,0.0,0.0,0.0,0.0,0.0,,,,,0.0,,,,,,
296,879273,1745091042959,,,,,,,,,,,,,,,,,,,,,,,,,,,,,,,,,,0.0,0.0,0.0,0.0,0.0,0.0,0.0,0.0,0.0,0.0,0.0,0.0,0.0,0.0,0.0,0.0,,,,,,,,,,,
297,879293,1745091042979,0.0,202.36,,-0.04,0.01,0.95,0.0,-1.0,0.0,0.95,1.24,76.0,3215.0,5.9,3.63,,12.75,1.181,97.0,,26.9,5.0,,,,,,,,,,,,0.0,0.0,0.0,0.0,0.0,0.0,0.0,0.0,0.0,0.0,0.0,0.0,0.0,0.0,0.0,0.0,,,,,0.0,,,,,,
298,879313,1745091042999,,,,,,,,,,,,,,,,,,,,,,,,,,,,,,,,,,0.0,0.0,0.0,0.0,0.0,0.0,0.0,0.0,0.0,0.0,0.0,0.0,0.0,0.0,0.0,0.0,,,,,,,,,,,
299,879333,1745091043011,0.0,202.36,,-0.04,-0.04,1.01,0.0,0.0,0.0,1.01,1.24,82.0,3215.0,5.9,3.63,,12.79,1.183,97.0,,26.5,5.0,0.0,0.0,0.0,0.0,0.0,0.0,0.0,0.0,2.26,,,0.0,0.0,0.0,0.0,0.0,0.0,0.0,0.0,0.0,0.0,0.0,0.0,0.0,0.0,0.0,0.0,0.0,,,,0.0,39.240097,-77.964836,0.04,33.0,3.0,0.8
300,879353,1745091043031,,,,,,,,,,,,,,,,,,,,,,,,,,,,,,,,,,0.0,0.0,0.0,0.0,0.0,0.0,0.0,0.0,0.0,0.0,0.0,0.0,0.0,0.0,0.0,0.0,,,,,,,,,,,
301,879373,1745091043051,0.0,202.36,,-0.05,-0.02,0.96,1.0,0.0,0.0,0.96,1.24,77.0,3223.0,6.0,3.65,,12.79,1.191,97.0,,26.5,5.0,,,,,,,,,,,,0.0,0.0,0.0,0.0,0.0,0.0,0.0,0.0,0.0,0.0,0.0,0.0,0.0,0.0,0.0,0.0,,,,,0.0,,,,,,
302,879393,1745091043071,,,,,,,,,,,,,,,,,,,,,,,,,,,,,,,,,,0.0,0.0,0.0,0.0,0.0,0.0,0.0,0.0,0.0,0.0,0.0,0.0,0.0,0.0,0.0,0.0,,,,,,,,,,,
303,879413,1745091043091,0.0,202.36,,-0.07,-0.02,1.01,0.0,0.0,0.0,1.01,1.24,82.0,3433.0,5.9,3.63,,12.79,1.236,97.0,,26.5,5.0,,,,,,,,,,,,0.0,0.0,0.0,0.0,0.0,0.0,0.0,0.0,0.0,0.0,0.0,0.0,0.0,0.0,0.0,0.0,,,,,0.0,,,,,,
304,879433,1745091043117,,,,,,,,,,,,,,,,,,,,,,,0.0,0.0,0.0,0.0,0.0,0.0,0.0,0.0,2.26,,,0.0,0.0,0.0,0.0,0.0,0.0,0.0,0.0,0.0,0.0,0.0,0.0,0.0,0.0,0.0,0.0,0.0,,,,,39.240097,-77.964836,0.05,33.0,3.0,0.8
305,879453,1745091043137,0.0,202.36,,-0.03,0.04,1.01,-1.0,-1.0,0.0,1.01,1.24,81.0,3494.0,5.8,3.63,,12.72,1.197,97.0,,28.8,5.0,,,,,,,,,,,,0.0,0.0,0.0,0.0,0.0,0.0,0.0,0.0,0.0,0.0,0.0,0.0,0.0,0.0,0.0,0.0,,,,,0.0,,,,,,
306,879473,1745091043157,,,,,,,,,,,,,,,,,,,,,,,,,,,,,,,,,,0.0,0.0,0.0,0.0,0.0,0.0,0.0,0.0,0.0,0.0,0.0,0.0,0.0,0.0,0.0,0.0,,,,,,,,,,,
307,879493,1745091043177,0.0,202.36,,-0.03,0.04,0.96,0.0,-1.0,0.0,0.96,1.24,77.0,3594.0,5.7,3.62,,12.72,1.197,97.0,,28.8,5.0,,,,,,,,,,,,0.0,0.0,0.0,0.0,0.0,0.0,0.0,0.0,0.0,0.0,0.0,0.0,0.0,0.0,0.0,0.0,,,,,0.0,,,,,,
308,879513,1745091043197,,,,,,,,,,,,,,,,,,,,,,,,,,,,,,,,,,0.0,0.0,0.0,0.0,0.0,0.0,0.0,0.0,0.0,0.0,0.0,0.0,0.0,0.0,0.0,0.0,,,,,,,,,,,
309,879533,1745091043213,0.0,202.36,,-0.06,-0.04,0.96,0.0,0.0,0.0,0.97,1.24,78.0,3594.0,5.7,3.62,,12.64,1.119,97.0,,30.1,5.0,0.0,0.0,0.0,0.0,0.0,0.0,0.0,0.0,2.26,,,0.0,0.0,0.0,0.0,0.0,0.0,0.0,0.0,0.0,0.0,0.0,0.0,0.0,0.0,0.0,0.0,0.0,,,,0.0,39.240097,-77.964836,0.04,33.0,3.0,0.8
310,879553,1745091043233,,,,,,,,,,,,,,,,,,,,,,,,,,,,,,,,,,0.0,0.0,0.0,0.0,0.0,0.0,0.0,0.0,0.0,0.0,0.0,0.0,0.0,0.0,0.0,0.0,,,,,,,,,,,
311,879573,1745091043253,0.0,202.36,,-0.06,-0.01,1.0,-1.0,0.0,0.0,1.0,1.24,80.0,3548.0,5.7,3.61,,12.63,1.074,97.0,,30.1,5.0,,,,,,,,,,,,0.0,0.0,0.0,0.0,0.0,0.0,0.0,0.0,0.0,0.0,0.0,0.0,0.0,0.0,0.0,0.0,,,,,0.0,,,,,,
312,879593,1745091043273,,,,,,,,,,,,,,,,,,,,,,,,,,,,,,,,,,0.0,0.0,0.0,0.0,0.0,0.0,0.0,0.0,0.0,0.0,0.0,0.0,0.0,0.0,0.0,0.0,,,,,,,,,,,
313,879613,1745091043293,0.0,202.49,,-0.05,0.04,0.98,0.0,0.0,0.0,0.98,1.24,79.0,3522.0,5.7,3.61,,12.57,1.092,97.0,,30.1,5.0,,,,,,,,,,,,0.0,0.0,0.0,0.0,0.0,0.0,0.0,0.0,0.0,0.0,0.0,0.0,0.0,0.0,0.0,0.0,,,,,0.0,,,,,,
314,879633,1745091043317,,,,,,,,,,,,,,,,,,,,,,,0.0,0.0,0.0,0.0,0.0,0.0,0.0,0.0,2.26,,,0.0,0.0,0.0,0.0,0.0,0.0,0.0,0.0,0.0,0.0,0.0,0.0,0.0,0.0,0.0,0.0,0.0,,,,,39.240097,-77.964836,0.05,33.0,3.0,0.8
315,879653,1745091043337,0.0,202.36,,-0.07,-0.07,0.95,0.0,0.0,0.0,0.96,1.24,77.0,3453.0,5.7,3.6,,12.63,1.103,97.0,,28.9,5.0,,,,,,,,,,,,0.0,0.0,0.0,0.0,0.0,0.0,0.0,0.0,0.0,0.0,0.0,0.0,0.0,0.0,0.0,0.0,,,,,0.0,,,,,,
316,879673,1745091043357,,,,,,,,,,,,,,,,,,,,,,,,,,,,,,,,,,0.0,0.0,0.0,0.0,0.0,0.0,0.0,0.0,0.0,0.0,0.0,0.0,0.0,0.0,0.0,0.0,,,,,,,,,,,
317,879693,1745091043377,0.0,202.36,,-0.08,-0.05,0.99,0.0,0.0,0.0,1.0,1.24,80.0,3431.0,5.8,3.62,,12.63,1.103,97.0,,28.9,5.0,,,,,,,,,,,,0.0,0.0,0.0,0.0,0.0,0.0,0.0,0.0,0.0,0.0,0.0,0.0,0.0,0.0,0.0,0.0,,,,,0.0,,,,,,
318,879713,1745091043397,,,,,,,,,,,,,,,,,,,,,,,,,,,,,,,,,,0.0,0.0,0.0,0.0,0.0,0.0,0.0,0.0,0.0,0.0,0.0,0.0,0.0,0.0,0.0,0.0,,,,,,,,,,,
