,Interval,Utc,FrontBP,SteerAng,Battery,AccelX,AccelY,AccelZ,Yaw,Pitch,Roll,Gsum,GsumMax,GsumPct,RPM,TPS,InjectorPW,Baro,MAP,Lambda,IAT,EngineTemp,EOP,EOT,WSFR,WSFL,WSRR,WSRL,TCSet,TCSlip,TCComp,TCCut,Analog8,OilTemp,AA_On,ThermLF1,ThermLF2,ThermRR1,ThermRR2,ThermLF3,ThermLF4,ThermLF5,ThermLF6,ThermLF7,ThermLF8,ThermRR3,ThermRR4,ThermRR5,ThermRR6,ThermRR7,ThermRR8,Gear,AA_On1,AA_LowDrag,Fuel_Mix,AA_Packages,Latitude,Longitude,Speed,GPSSats,GPSQual,GPSDOP
0,2024834,1745089146901,,,,,,,,,,,,,,,,,,,,,,,,,,,,,,,,,,0,0,0,0,0,0,0,0,0,0,0,0,0,0,0,0,,,,,,,,,,,
1,2024854,1745089146921,0.0,190.05,,0.09,-0.42,0.5,4.0,0.0,-3.0,0.66,0.66,100.0,4568.0,13.1,3.69,,12.72,1.065,91.6,,32.8,5.0,,,,,,,,,,,,0,0,0,0,0,0,0,0,0,0,0,0,0,0,0,0,,,,,0.0,,,,,,
2,2024874,1745089146941,,,,,,,,,,,,,,,,,,,,,,,,,,,,,,,,,,0,0,0,0,0,0,0,0,0,0,0,0,0,0,0,0,,,,,,,,,,,
3,2024894,1745089146961,0.0,190.05,,0.11,-0.33,0.57,4.0,0.0,-2.0,0.67,0.67,100.0,4549.0,13.1,3.72,,12.65,1.065,91.6,,32.8,5.0,,,,,,,,,,,,0,0,0,0,0,0,0,0,0,0,0,0,0,0,0,0,,,,,0.0,,,,,,
4,2024914,1745089146981,,,,,,,,,,,,,,,,,,,,,,,0.0,0.0,0.0,0.0,0.0,0.0,0.0,0.0,2.26,,,0,0,0,0,0,0,0,0,0,0,0,0,0,0,0,0,0.0,,,,,39.23996,-77.965584,0.04,33.0,3.0,0.9
5,2024934,1745089146992,0.0,189.92,,0.12,-0.25,0.65,3.0,0.0,-2.0,0.7,0.7,100.0,4543.0,13.0,3.73,,12.65,1.065,91.6,,32.7,5.0,,,,,,,,,,,,0,0,0,0,0,0,0,0,0,0,0,0,0,0,0,0,,,,,0.0,,,,,,
6,2024954,1745089147012,,,,,,,,,,,,,,,,,,,,,,,,,,,,,,,,,,0,0,0,0,0,0,0,0,0,0,0,0,0,0,0,0,,,,,,,,,,,
7,2024974,1745089147032,0.0,189.92,,0.13,-0.16,0.75,3.0,0.0,-2.0,0.78,0.78,100.0,4543.0,13.0,3.73,,12.71,1.11,91.6,,32.7,5.0,,,,,,,,,,,,0,0,0,0,0,0,0,0,0,0,0,0,0,0,0,0,,,,,0.0,,,,,,
8,2024994,1745089147052,,,,,,,,,,,,,,,,,,,,,,,,,,,,,,,,,,0,0,0,0,0,0,0,0,0,0,0,0,0,0,0,0,,,,,,,,,,,
9,2025014,1745089147072,0.0,189.92,,0.12,-0.07,0.84,3.0,0.0,-1.0,0.86,0.86,100.0,4548.0,13.0,3.72,,12.71,1.145,91.6,,32.8,5.0,0.0,0.0,0.0,0.0,0.0,0.0,0.0,0.0,2.26,,,0,0,0,0,0,0,0,0,0,0,0,0,0,0,0,0,0.0,,,,0.0,39.23996,-77.965584,0.0,33.0,3.0,0.9
10,2025034,1745089147096,,,,,,,,,,,,,,,,,,,,,,,,,,,,,,,,,,0,0,0,0,0,0,0,0,0,0,0,0,0,0,0,0,,,,,,,,,,,
11,2025054,1745089147116,0.0,189.92,,0.11,-0.01,0.96,2.0,0.0,-1.0,0.97,0.97,100.0,4530.0,13.0,3.72,,12.69,1.136,91.6,,32.8,5.0,,,,,,,,,,,,0,0,0,0,0,0,0,0,0,0,0,0,0,0,0,0,,,,,0.0,,,,,,
12,2025074,1745089147136,,,,,,,,,,,,,,,,,,,,,,,,,,,,,,,,,,0,0,0,0,0,0,0,0,0,0,0,0,0,0,0,0,,,,,,,,,,,
13,2025094,1745089147156,0.0,189.92,,0.1,0.08,1.04,2.0,0.0,-1.0,1.05,1.05,100.0,4462.0,13.1,3.73,,12.69,1.131,91.6,,32.8,5.0,,,,,,,,,,,,0,0,0,0,0,0,0,0,0,0,0,0,0,0,0,0,,,,,0.0,,,,,,
14,2025114,1745089147176,,,,,,,,,,,,,,,,,,,,,,,0.0,0.0,0.0,0.0,0.0,0.0,0.0,0.0,2.26,,,0,0,0,0,0,0,0,0,0,0,0,0,0,0,0,0,0.0,,,,,39.23996,-77.965584,0.04,33.0,3.0,0.9
15,2025134,1745089147198,0.0,189.92,,0.08,0.12,1.14,2.0,0.0,0.0,1.15,1.15,100.0,4501.0,13.1,3.69,,12.69,1.131,91.6,,32.4,5.0,,,,,,,,,,,,0,0,0,0,0,0,0,0,0,0,0,0,0,0,0,0,,,,,0.0,,,,,,
16,2025154,1745089147218,,,,,,,,,,,,,,,,,,,,,,,,,,,,,,,,,,0,0,0,0,0,0,0,0,0,0,0,0,0,0,0,0,,,,,,,,,,,
17,2025174,1745089147238,0.0,189.79,,0.08,0.2,1.2,1.0,0.0,0.0,1.22,1.22,100.0,4501.0,13.1,3.69,,12.73,1.151,91.6,,32.4,5.0,,,,,,,,,,,,0,0,0,0,0,0,0,0,0,0,0,0,0,0,0,0,,,,,0.0,,,,,,
18,2025194,1745089147258,,,,,,,,,,,,,,,,,,,,,,,,,,,,,,,,,,0,0,0,0,0,0,0,0,0,0,0,0,0,0,0,0,,,,,,,,,,,
19,2025214,1745089147278,0.0,189.92,,0.08,0.23,1.26,1.0,0.0,0.0,1.28,1.28,100.0,4454.0,13.1,3.74,,12.67,1.139,91.6,,31.9,5.0,0.0,0.0,0.0,0.0,0.0,0.0,0.0,0.0,2.26,,,0,0,0,0,0,0,0,0,0,0,0,0,0,0,0,0,0.0,,,,0.0,39.23996,-77.965584,0.07,33.0,3.0,0.9
20,2025234,1745089147302,,,,,,,,,,,,,,,,,,,,,,,,,,,,,,,,,,0,0,0,0,0,0,0,0,0,0,0,0,0,0,0,0,,,,,,,,,,,
21,2025254,1745089147322,0.0,189.79,,0.09,0.26,1.28,1.0,0.0,0.0,1.31,1.31,100.0,4501.0,13.1,3.77,,12.68,1.14,91.6,,31.9,5.0,,,,,,,,,,,,0,0,0,0,0,0,0,0,0,0,0,0,0,0,0,0,,,,,0.0,,,,,,
22,2025274,1745089147342,,,,,,,,,,,,,,,,,,,,,,,,,,,,,,,,,,0,0,0,0,0,0,0,0,0,0,0,0,0,0,0,0,,,,,,,,,,,
23,2025294,1745089147362,0.0,189.79,,0.1,0.27,1.29,1.0,0.0,0.0,1.32,1.32,100.0,4497.0,13.1,3.77,,12.68,1.128,91.6,,31.9,5.0,,,,,,,,,,,,0,0,0,0,0,0,0,0,0,0,0,0,0,0,0,0,,,,,0.0,,,,,,
24,2025314,1745089147382,,,,,,,,,,,,,,,,,,,,,,,0.0,0.0,0.0,0.0,0.0,0.0,0.0,0.0,2.26,,,0,0,0,0,0,0,0,0,0,0,0,0,0,0,0,0,0.0,,,,,39.23996,-77.965584,0.07,33.0,3.0,0.9
25,2025334,1745089147402,0.0,189.92,,0.12,0.27,1.26,2.0,0.0,0.0,1.3,1.32,98.0,4477.0,13.1,3.79,,12.68,1.128,91.6,,32.4,5.0,,,,,,,,,,,,0,0,0,0,0,0,0,0,0,0,0,0,0,0,0,0,,,,,0.0,,,,,,
26,2025354,1745089147422,,,,,,,,,,,,,,,,,,,,,,,,,,,,,,,,,,0,0,0,0,0,0,0,0,0,0,0,0,0,0,0,0,,,,,,,,,,,
27,2025374,1745089147442,0.0,189.92,,0.15,0.24,1.18,2.0,0.0,0.0,1.21,1.32,92.0,4477.0,13.1,3.79,,12.71,1.128,91.6,,32.4,5.0,,,,,,,,,,,,0,0,0,0,0,0,0,0,0,0,0,0,0,0,0,0,,,,,0.0,,,,,,
28,2025394,1745089147462,,,,,,,,,,,,,,,,,,,,,,,,,,,,,,,,,,0,0,0,0,0,0,0,0,0,0,0,0,0,0,0,0,,,,,,,,,,,
29,2025414,1745089147482,0.0,189.79,13.53,0.17,0.22,1.14,2.0,0.0,0.0,1.17,1.32,88.0,4623.0,13.0,3.72,15.0,12.75,1.165,91.6,171.0,33.5,5.0,0.0,0.0,0.0,0.0,0.0,0.0,0.0,0.0,2.26,0.0,0.0,0,0,0,0,0,0,0,0,0,0,0,0,0,0,0,0,0.0,0.0,0.0,0.0,0.0,39.23996,-77.965584,0.11,33.0,3.0,0.9
30,2025434,1745089147502,,,,,,,,,,,,,,,,,,,,,,,,,,,,,,,,,,0,0,0,0,0,0,0,0,0,0,0,0,0,0,0,0,,,,,,,,,,,
31,2025454,1745089147522,0.0,189.79,,0.15,0.24,1.19,1.0,0.0,0.0,1.22,1.32,92.0,4685.0,12.8,3.64,,12.61,1.083,91.6,,33.5,5.0,,,,,,,,,,,,0,0,0,0,0,0,0,0,0,0,0,0,0,0,0,0,,,,,0.0,,,,,,
32,2025474,1745089147542,,,,,,,,,,,,,,,,,,,,,,,,,,,,,,,,,,0,0,0,0,0,0,0,0,0,0,0,0,0,0,0,0,,,,,,,,,,,
33,2025494,1745089147562,0.0,189.79,,0.09,0.21,1.17,1.0,0.0,0.0,1.19,1.32,90.0,4766.0,12.8,3.55,,12.76,0.95,91.6,,33.5,5.0,,,,,,,,,,,,0,0,0,0,0,0,0,0,0,0,0,0,0,0,0,0,,,,,0.0,,,,,,
34,2025514,1745089147582,,,,,,,,,,,,,,,,,,,,,,,0.0,0.0,0.0,0.0,0.0,0.0,0.0,0.0,2.26,,,0,0,0,0,0,0,0,0,0,0,0,0,0,0,0,0,0.0,,,,,39.23996,-77.965584,0.05,33.0,3.0,0.9
35,2025534,1745089147602,0.0,189.79,,0.11,0.12,1.08,2.0,0.0,0.0,1.09,1.32,82.0,4702.0,13.0,3.52,,12.76,0.95,91.6,,34.6,5.0,,,,,,,,,,,,0,0,0,0,0,0,0,0,0,0,0,0,0,0,0,0,,,,,0.0,,,,,,
36,2025554,1745089147622,,,,,,,,,,,,,,,,,,,,,,,,,,,,,,,,,,0,0,0,0,0,0,0,0,0,0,0,0,0,0,0,0,,,,,,,,,,,
37,2025574,1745089147642,0.0,189.67,,0.1,0.11,1.12,1.0,0.0,0.0,1.13,1.32,85.0,4702.0,13.0,3.52,,12.64,0.924,91.6,,34.6,5.0,,,,,,,,,,,,0,0,0,0,0,0,0,0,0,0,0,0,0,0,0,0,,,,,0.0,,,,,,
38,2025594,1745089147662,,,,,,,,,,,,,,,,,,,,,,,,,,,,,,,,,,0,0,0,0,0,0,0,0,0,0,0,0,0,0,0,0,,,,,,,,,,,
39,2025614,1745089147682,0.0,189.67,,0.04,0.09,1.1,1.0,0.0,0.0,1.1,1.32,83.0,4726.0,13.1,3.49,,12.65,0.936,91.6,,35.1,5.0,0.0,0.0,0.0,0.0,0.0,0.0,0.0,0.0,2.26,,,0,0,0,0,0,0,0,0,0,0,0,0,0,0,0,0,0.0,,,,0.0,39.23996,-77.965584,0.0,33.0,3.0,0.9
40,2025634,1745089147700,,,,,,,,,,,,,,,,,,,,,,,,,,,,,,,,,,0,0,0,0,0,0,0,0,0,0,0,0,0,0,0,0,,,,,,,,,,,
41,2025654,1745089147720,0.0,189.42,,0.08,0.04,1.05,1.0,0.0,0.0,1.06,1.32,80.0,4770.0,13.0,3.45,,12.63,0.984,91.6,,35.1,5.0,,,,,,,,,,,,0,0,0,0,0,0,0,0,0,0,0,0,0,0,0,0,,,,,0.0,,,,,,
42,2025674,1745089147740,,,,,,,,,,,,,,,,,,,,,,,,,,,,,,,,,,0,0,0,0,0,0,0,0,0,0,0,0,0,0,0,0,,,,,,,,,,,
43,2025694,1745089147760,0.0,189.54,,0.04,0.09,1.1,0.0,0.0,0.0,1.1,1.32,83.0,4808.0,13.0,3.5,,12.67,1.022,91.6,,35.1,5.0,,,,,,,,,,,,0,0,0,0,0,0,0,0,0,0,0,0,0,0,0,0,,,,,0.0,,,,,,
44,2025714,1745089147780,,,,,,,,,,,,,,,,,,,,,,,0.0,0.0,0.0,0.0,0.0,0.0,0.0,0.0,2.26,,,0,0,0,0,0,0,0,0,0,0,0,0,0,0,0,0,0.0,,,,,39.23996,-77.965584,0.0,33.0,3.0,0.9
45,2025734,1745089147802,0.0,189.42,,0.03,0.05,1.03,1.0,0.0,0.0,1.04,1.32,78.0,4725.0,13.0,3.5,,12.67,1.022,91.6,,35.0,5.0,,,,,,,,,,,,0,0,0,0,0,0,0,0,0,0,0,0,0,0,0,0,,,,,0.0,,,,,,
46,2025754,1745089147822,,,,,,,,,,,,,,,,,,,,,,,,,,,,,,,,,,0,0,0,0,0,0,0,0,0,0,0,0,0,0,0,0,,,,,,,,,,,
47,2025774,1745089147842,0.0,189.54,,0.06,0.04,1.0,1.0,0.0,0.0,1.01,1.32,76.0,4725.0,13.0,3.5,,12.59,1.001,91.6,,35.0,5.0,,,,,,,,,,,,0,0,0,0,0,0,0,0,0,0,0,0,0,0,0,0,,,,,0.0,,,,,,
48,2025794,1745089147862,,,,,,,,,,,,,,,,,,,,,,,,,,,,,,,,,,0,0,0,0,0,0,0,0,0,0,0,0,0,0,0,0,,,,,,,,,,,
49,2025814,1745089147882,0.0,189.54,,0.01,0.08,1.02,0.0,0.0,0.0,1.02,1.32,77.0,4755.0,13.1,3.53,,12.57,0.95,91.6,,35.2,5.0,0.0,0.0,0.0,0.0,0.0,0.0,0.0,0.0,2.26,,,0,0,0,0,0,0,0,0,0,0,0,0,0,0,0,0,0.0,,,,0.0,39.23996,-77.965584,0.04,33.0,3.0,0.9
50,2025834,1745089147900,,,,,,,,,,,,,,,,,,,,,,,,,,,,,,,,,,0,0,0,0,0,0,0,0,0,0,0,0,0,0,0,0,,,,,,,,,,,
51,2025854,1745089147920,0.0,189.54,,0.0,0.04,0.98,0.0,0.0,0.0,0.98,1.32,74.0,4839.0,13.0,3.4,,12.63,0.95,91.6,,35.2,5.0,,,,,,,,,,,,0,0,0,0,0,0,0,0,0,0,0,0,0,0,0,0,,,,,0.0,,,,,,
52,2025874,1745089147940,,,,,,,,,,,,,,,,,,,,,,,,,,,,,,,,,,0,0,0,0,0,0,0,0,0,0,0,0,0,0,0,0,,,,,,,,,,,
53,2025894,1745089147960,0.0,189.54,,-0.04,0.06,0.98,0.0,0.0,0.0,0.98,1.32,74.0,4861.0,12.9,3.39,,12.56,0.958,91.6,,35.2,5.0,,,,,,,,,,,,0,0,0,0,0,0,0,0,0,0,0,0,0,0,0,0,,,,,0.0,,,,,,
54,2025914,1745089147980,,,,,,,,,,,,,,,,,,,,,,,0.0,0.0,0.0,0.0,0.0,0.0,0.0,0.0,2.26,,,0,0,0,0,0,0,0,0,0,0,0,0,0,0,0,0,0.0,,,,,39.23996,-77.965584,0.0,33.0,3.0,0.9
55,2025934,1745089147993,0.0,189.54,,0.01,0.02,0.96,0.0,0.0,0.0,0.96,1.32,73.0,4861.0,12.9,3.39,,12.56,0.958,91.6,,35.5,5.0,,,,,,,,,,,,0,0,0,0,0,0,0,0,0,0,0,0,0,0,0,0,,,,,0.0,,,,,,
56,2025954,1745089148013,,,,,,,,,,,,,,,,,,,,,,,,,,,,,,,,,,0,0,0,0,0,0,0,0,0,0,0,0,0,0,0,0,,,,,,,,,,,
57,2025974,1745089148033,0.0,189.54,,-0.04,0.06,1.01,0.0,0.0,0.0,1.02,1.32,77.0,4853.0,12.8,3.45,,12.6,1.002,91.6,,35.5,5.0,,,,,,,,,,,,0,0,0,0,0,0,0,0,0,0,0,0,0,0,0,0,,,,,0.0,,,,,,
58,2025994,1745089148053,,,,,,,,,,,,,,,,,,,,,,,,,,,,,,,,,,0,0,0,0,0,0,0,0,0,0,0,0,0,0,0,0,,,,,,,,,,,
59,2026014,1745089148073,0.0,189.54,,-0.04,-0.03,0.96,0.0,0.0,0.0,0.96,1.32,73.0,4771.0,12.8,3.46,,12.61,1.087,91.6,,34.8,5.0,0.0,0.0,0.0,0.0,0.0,0.0,0.0,0.0,2.26,,,0,0,0,0,0,0,0,0,0,0,0,0,0,0,0,0,0.0,,,,0.0,39.23996,-77.965584,0.09,33.0,3.0,0.9
60,2026034,1745089148101,,,,,,,,,,,,,,,,,,,,,,,,,,,,,,,,,,0,0,0,0,0,0,0,0,0,0,0,0,0,0,0,0,,,,,,,,,,,
61,2026054,1745089148121,0.0,189.54,,-0.0,-0.05,0.95,0.0,0.0,0.0,0.96,1.32,72.0,4704.0,13.0,3.51,,12.61,1.151,91.6,,34.8,5.0,,,,,,,,,,,,0,0,0,0,0,0,0,0,0,0,0,0,0,0,0,0,,,,,0.0,,,,,,
62,2026074,1745089148141,,,,,,,,,,,,,,,,,,,,,,,,,,,,,,,,,,0,0,0,0,0,0,0,0,0,0,0,0,0,0,0,0,,,,,,,,,,,
63,2026094,1745089148161,0.0,189.54,,-0.03,0.04,1.04,0.0,0.0,0.0,1.04,1.32,78.0,4659.0,13.0,3.55,,12.6,1.177,91.6,,34.8,5.0,,,,,,,,,,,,0,0,0,0,0,0,0,0,0,0,0,0,0,0,0,0,,,,,0.0,,,,,,
64,2026114,1745089148181,,,,,,,,,,,,,,,,,,,,,,,0.0,0.0,0.0,0.0,0.0,0.0,0.0,0.0,2.26,,,0,0,0,0,0,0,0,0,0,0,0,0,0,0,0,0,0.0,,,,,39.23996,-77.965584,0.04,33.0,3.0,0.9
65,2026134,1745089148201,0.0,189.54,,-0.08,0.05,1.06,-1.0,0.0,0.0,1.06,1.32,80.0,4616.0,13.0,3.57,,12.6,1.177,91.6,,34.1,5.0,,,,,,,,,,,,0,0,0,0,0,0,0,0,0,0,0,0,0,0,0,0,,,,,0.0,,,,,,
66,2026154,1745089148221,,,,,,,,,,,,,,,,,,,,,,,,,,,,,,,,,,0,0,0,0,0,0,0,0,0,0,0,0,0,0,0,0,,,,,,,,,,,
67,2026174,1745089148241,0.0,189.54,,-0.08,-0.02,0.99,-1.0,0.0,0.0,0.99,1.32,75.0,4616.0,13.0,3.57,,12.6,1.192,91.6,,34.1,5.0,,,,,,,,,,,,0,0,0,0,0,0,0,0,0,0,0,0,0,0,0,0,,,,,0.0,,,,,,
68,2026194,1745089148261,,,,,,,,,,,,,,,,,,,,,,,,,,,,,,,,,,0,0,0,0,0,0,0,0,0,0,0,0,0,0,0,0,,,,,,,,,,,
69,2026214,1745089148281,0.0,189.54,,-0.04,-0.07,0.91,0.0,0.0,0.0,0.91,1.32,69.0,4598.0,13.0,3.6,,12.64,1.176,91.6,,33.6,5.0,0.0,0.0,0.0,0.0,0.0,0.0,0.0,0.0,2.26,,,0,0,0,0,0,0,0,0,0,0,0,0,0,0,0,0,0.0,,,,0.0,39.23996,-77.965584,0.04,33.0,3.0,0.9
70,2026234,1745089148301,,,,,,,,,,,,,,,,,,,,,,,,,,,,,,,,,,0,0,0,0,0,0,0,0,0,0,0,0,0,0,0,0,,,,,,,,,,,
71,2026254,1745089148321,0.0,189.54,,0.0,-0.1,0.86,1.0,0.0,-1.0,0.86,1.32,65.0,4559.0,13.0,3.64,,12.65,1.172,91.6,,33.6,5.0,,,,,,,,,,,,0,0,0,0,0,0,0,0,0,0,0,0,0,0,0,0,,,,,0.0,,,,,,
72,2026274,1745089148341,,,,,,,,,,,,,,,,,,,,,,,,,,,,,,,,,,0,0,0,0,0,0,0,0,0,0,0,0,0,0,0,0,,,,,,,,,,,
73,2026294,1745089148361,0.0,189.67,,0.05,-0.02,0.88,2.0,0.0,-1.0,0.88,1.32,67.0,4510.0,13.1,3.67,,12.59,1.16,91.6,,33.6,5.0,,,,,,,,,,,,0,0,0,0,0,0,0,0,0,0,0,0,0,0,0,0,,,,,0.0,,,,,,
74,2026314,1745089148381,,,,,,,,,,,,,,,,,,,,,,,0.0,0.0,0.0,0.0,0.0,0.0,0.0,0.0,2.26,,,0,0,0,0,0,0,0,0,0,0,0,0,0,0,0,0,0.0,,,,,39.23996,-77.965584,0.32,33.0,3.0,0.9
75,2026334,1745089148401,0.0,189.67,,0.07,0.0,0.89,2.0,0.0,-1.0,0.9,1.32,68.0,4569.0,13.0,3.68,,12.59,1.16,91.6,,32.9,5.0,,,,,,,,,,,,0,0,0,0,0,0,0,0,0,0,0,0,0,0,0,0,,,,,0.0,,,,,,
76,2026354,1745089148421,,,,,,,,,,,,,,,,,,,,,,,,,,,,,,,,,,0,0,0,0,0,0,0,0,0,0,0,0,0,0,0,0,,,,,,,,,,,
77,2026374,1745089148441,0.0,189.67,,0.08,0.08,0.98,2.0,0.0,-1.0,0.98,1.32,74.0,4569.0,13.0,3.68,,12.64,1.158,91.6,,32.9,5.0,,,,,,,,,,,,0,0,0,0,0,0,0,0,0,0,0,0,0,0,0,0,,,,,0.0,,,,,,
78,2026394,1745089148461,,,,,,,,,,,,,,,,,,,,,,,,,,,,,,,,,,0,0,0,0,0,0,0,0,0,0,0,0,0,0,0,0,,,,,,,,,,,
79,2026414,1745089148481,0.0,189.67,13.59,0.07,0.14,1.07,1.0,0.0,0.0,1.08,1.32,82.0,4544.0,12.8,3.72,15.0,12.64,1.152,91.6,171.0,32.9,5.0,0.0,0.0,0.0,0.0,0.0,0.0,0.0,0.0,2.26,0.0,0.0,0,0,0,0,0,0,0,0,0,0,0,0,0,0,0,0,0.0,0.0,0.0,0.0,0.0,39.23996,-77.965584,0.35,33.0,3.0,0.9
80,2026434,1745089148503,,,,,,,,,,,,,,,,,,,,,,,,,,,,,,,,,,0,0,0,0,0,0,0,0,0,0,0,0,0,0,0,0,,,,,,,,,,,
81,2026454,1745089148523,0.0,189.67,,0.06,0.21,1.16,1.0,0.0,0.0,1.18,1.32,89.0,4530.0,12.8,3.73,,12.65,1.155,91.6,,32.5,5.0,,,,,,,,,,,,0,0,0,0,0,0,0,0,0,0,0,0,0,0,0,0,,,,,0.0,,,,,,
82,2026474,1745089148543,,,,,,,,,,,,,,,,,,,,,,,,,,,,,,,,,,0,0,0,0,0,0,0,0,0,0,0,0,0,0,0,0,,,,,,,,,,,
83,2026494,1745089148563,0.0,189.67,,0.04,0.25,1.25,0.0,0.0,1.0,1.27,1.32,96.0,4550.0,12.9,3.72,,12.67,1.157,91.6,,32.5,5.0,,,,,,,,,,,,0,0,0,0,0,0,0,0,0,0,0,0,0,0,0,0,,,,,0.0,,,,,,
84,2026514,1745089148583,,,,,,,,,,,,,,,,,,,,,,,0.0,0.0,0.0,0.0,0.0,0.0,0.0,0.0,2.26,,,0,0,0,0,0,0,0,0,0,0,0,0,0,0,0,0,0.0,,,,,39.23996,-77.965584,0.04,33.0,3.0,0.9
85,2026534,1745089148601,0.0,189.67,,-0.03,0.24,1.25,-1.0,0.0,1.0,1.27,1.32,96.0,4662.0,13.0,3.61,,12.67,1.157,91.6,,33.8,5.0,,,,,,,,,,,,0,0,0,0,0,0,0,0,0,0,0,0,0,0,0,0,,,,,0.0,,,,,,
86,2026554,1745089148621,,,,,,,,,,,,,,,,,,,,,,,,,,,,,,,,,,0,0,0,0,0,0,0,0,0,0,0,0,0,0,0,0,,,,,,,,,,,
87,2026574,1745089148641,0.0,189.67,,-0.04,0.17,1.19,-1.0,0.0,1.0,1.2,1.32,90.0,4662.0,13.0,3.61,,12.64,1.183,91.6,,33.8,5.0,,,,,,,,,,,,0,0,0,0,0,0,0,0,0,0,0,0,0,0,0,0,,,,,0.0,,,,,,
88,2026594,1745089148661,,,,,,,,,,,,,,,,,,,,,,,,,,,,,,,,,,0,0,0,0,0,0,0,0,0,0,0,0,0,0,0,0,,,,,,,,,,,
89,2026614,1745089148681,0.0,189.54,,-0.06,0.06,1.11,0.0,0.0,0.0,1.12,1.32,84.0,4628.0,13.0,3.64,,12.71,1.122,91.6,,33.7,5.0,0.0,0.0,0.0,0.0,0.0,0.0,0.0,0.0,2.25,,,0,0,0,0,0,0,0,0,0,0,0,0,0,0,0,0,0.0,,,,0.0,39.23996,-77.965584,0.0,33.0,3.0,0.9
90,2026634,1745089148701,,,,,,,,,,,,,,,,,,,,,,,,,,,,,,,,,,0,0,0,0,0,0,0,0,0,0,0,0,0,0,0,0,,,,,,,,,,,
91,2026654,1745089148721,0.0,189.67,,-0.03,-0.05,1.0,1.0,0.0,0.0,1.01,1.32,76.0,4592.0,13.1,3.61,,12.69,1.06,91.6,,33.7,5.0,,,,,,,,,,,,0,0,0,0,0,0,0,0,0,0,0,0,0,0,0,0,,,,,0.0,,,,,,
92,2026674,1745089148741,,,,,,,,,,,,,,,,,,,,,,,,,,,,,,,,,,0,0,0,0,0,0,0,0,0,0,0,0,0,0,0,0,,,,,,,,,,,
93,2026694,1745089148761,0.0,189.67,,0.01,-0.12,0.91,1.0,0.0,-1.0,0.92,1.32,69.0,4540.0,13.0,3.66,,12.61,1.087,91.6,,33.7,5.0,,,,,,,,,,,,0,0,0,0,0,0,0,0,0,0,0,0,0,0,0,0,,,,,0.0,,,,,,
94,2026714,1745089148781,,,,,,,,,,,,,,,,,,,,,,,0.0,0.0,0.0,0.0,0.0,0.0,0.0,0.0,2.26,,,0,0,0,0,0,0,0,0,0,0,0,0,0,0,0,0,0.0,,,,,39.23996,-77.965584,0.08,33.0,3.0,0.9
95,2026734,1745089148801,0.0,189.67,,0.05,-0.1,0.88,1.0,0.0,-1.0,0.89,1.32,67.0,4535.0,13.0,3.66,,12.61,1.087,91.6,,33.2,5.0,,,,,,,,,,,,0,0,0,0,0,0,0,0,0,0,0,0,0,0,0,0,,,,,0.0,,,,,,
96,2026754,1745089148821,,,,,,,,,,,,,,,,,,,,,,,,,,,,,,,,,,0,0,0,0,0,0,0,0,0,0,0,0,0,0,0,0,,,,,,,,,,,
97,2026774,1745089148841,0.0,189.67,,0.07,-0.05,0.91,1.0,0.0,0.0,0.91,1.32,69.0,4535.0,13.0,3.66,,12.67,1.119,91.6,,33.2,5.0,,,,,,,,,,,,0,0,0,0,0,0,0,0,0,0,0,0,0,0,0,0,,,,,0.0,,,,,,
98,2026794,1745089148861,,,,,,,,,,,,,,,,,,,,,,,,,,,,,,,,,,0,0,0,0,0,0,0,0,0,0,0,0,0,0,0,0,,,,,,,,,,,
99,2026814,1745089148881,0.0,189.54,,0.08,0.04,1.0,1.0,0.0,0.0,1.01,1.32,76.0,4544.0,13.0,3.65,,12.64,1.143,91.6,,32.5,5.0,0.0,0.0,0.0,0.0,0.0,0.0,0.0,0.0,2.26,,,0,0,0,0,0,0,0,0,0,0,0,0,0,0,0,0,0.0,,,,0.0,39.23996,-77.965584,0.13,33.0,3.0,0.9
100,2026834,1745089148903,,,,,,,,,,,,,,,,,,,,,,,,,,,,,,,,,,0,0,0,0,0,0,0,0,0,0,0,0,0,0,0,0,,,,,,,,,,,
101,2026854,1745089148923,0.0,189.54,,0.08,0.11,1.06,0.0,0.0,1.0,1.07,1.32,81.0,4564.0,12.9,3.65,,12.63,1.162,91.6,,32.5,5.0,,,,,,,,,,,,0,0,0,0,0,0,0,0,0,0,0,0,0,0,0,0,,,,,0.0,,,,,,
102,2026874,1745089148943,,,,,,,,,,,,,,,,,,,,,,,,,,,,,,,,,,0,0,0,0,0,0,0,0,0,0,0,0,0,0,0,0,,,,,,,,,,,
103,2026894,1745089148963,0.0,189.54,,0.03,0.16,1.16,-1.0,0.0,1.0,1.17,1.32,88.0,4568.0,12.9,3.72,,12.69,1.154,91.6,,32.5,5.0,,,,,,,,,,,,0,0,0,0,0,0,0,0,0,0,0,0,0,0,0,0,,,,,0.0,,,,,,
104,2026914,1745089148983,,,,,,,,,,,,,,,,,,,,,,,0.0,0.0,0.0,0.0,0.0,0.0,0.0,0.0,2.26,,,0,0,0,0,0,0,0,0,0,0,0,0,0,0,0,0,0.0,,,,,39.23996,-77.965584,0.05,33.0,3.0,0.9
105,2026934,1745089148992,0.0,189.54,,-0.01,0.21,1.23,-2.0,0.0,2.0,1.25,1.32,94.0,4521.0,12.8,3.73,,12.69,1.154,91.6,,32.7,5.0,,,,,,,,,,,,0,0,0,0,0,0,0,0,0,0,0,0,0,0,0,0,,,,,0.0,,,,,,
106,2026954,1745089149012,,,,,,,,,,,,,,,,,,,,,,,,,,,,,,,,,,0,0,0,0,0,0,0,0,0,0,0,0,0,0,0,0,,,,,,,,,,,
107,2026974,1745089149032,0.0,189.42,,-0.06,0.25,1.3,-3.0,0.0,2.0,1.32,1.32,100.0,4521.0,12.8,3.73,,12.65,1.157,91.6,,32.7,5.0,,,,,,,,,,,,0,0,0,0,0,0,0,0,0,0,0,0,0,0,0,0,,,,,0.0,,,,,,
108,2026994,1745089149052,,,,,,,,,,,,,,,,,,,,,,,,,,,,,,,,,,0,0,0,0,0,0,0,0,0,0,0,0,0,0,0,0,,,,,,,,,,,
109,2027014,1745089149072,0.0,189.42,,-0.1,0.28,1.34,-4.0,0.0,2.0,1.37,1.37,100.0,4532.0,13.0,3.74,,12.72,1.136,91.6,,33.0,5.0,0.0,0.0,0.0,0.0,0.0,0.0,0.0,0.0,2.26,,,0,0,0,0,0,0,0,0,0,0,0,0,0,0,0,0,0.0,,,,0.0,39.23996,-77.965584,0.07,33.0,3.0,0.9
110,2027034,1745089149100,,,,,,,,,,,,,,,,,,,,,,,,,,,,,,,,,,0,0,0,0,0,0,0,0,0,0,0,0,0,0,0,0,,,,,,,,,,,
111,2027054,1745089149120,0.0,189.42,,-0.15,0.3,1.38,-4.0,0.0,3.0,1.42,1.42,100.0,4517.0,13.1,3.74,,12.67,1.133,91.6,,33.0,5.0,,,,,,,,,,,,0,0,0,0,0,0,0,0,0,0,0,0,0,0,0,0,,,,,0.0,,,,,,
112,2027074,1745089149140,,,,,,,,,,,,,,,,,,,,,,,,,,,,,,,,,,0,0,0,0,0,0,0,0,0,0,0,0,0,0,0,0,,,,,,,,,,,
113,2027094,1745089149160,0.0,189.42,,-0.18,0.32,1.4,-5.0,0.0,3.0,1.44,1.44,100.0,4490.0,13.1,3.71,,12.76,1.151,91.6,,33.0,5.0,,,,,,,,,,,,0,0,0,0,0,0,0,0,0,0,0,0,0,0,0,0,,,,,0.0,,,,,,
114,2027114,1745089149180,,,,,,,,,,,,,,,,,,,,,,,0.0,0.0,0.0,0.0,0.0,0.0,0.0,0.0,2.26,,,0,0,0,0,0,0,0,0,0,0,0,0,0,0,0,0,0.0,,,,,39.23996,-77.965584,0.09,33.0,3.0,0.9
115,2027134,1745089149200,0.0,189.42,,-0.22,0.34,1.43,-5.0,0.0,3.0,1.49,1.49,100.0,4450.0,13.0,3.73,,12.76,1.151,91.6,,32.5,5.0,,,,,,,,,,,,0,0,0,0,0,0,0,0,0,0,0,0,0,0,0,0,,,,,0.0,,,,,,
116,2027154,1745089149220,,,,,,,,,,,,,,,,,,,,,,,,,,,,,,,,,,0,0,0,0,0,0,0,0,0,0,0,0,0,0,0,0,,,,,,,,,,,
117,2027174,1745089149240,0.0,189.42,,-0.23,0.36,1.47,-6.0,0.0,3.0,1.53,1.53,100.0,4450.0,13.0,3.73,,12.69,1.147,91.6,,32.5,5.0,,,,,,,,,,,,0,0,0,0,0,0,0,0,0,0,0,0,0,0,0,0,,,,,0.0,,,,,,
118,2027194,1745089149260,,,,,,,,,,,,,,,,,,,,,,,,,,,,,,,,,,0,0,0,0,0,0,0,0,0,0,0,0,0,0,0,0,,,,,,,,,,,
119,2027214,1745089149280,0.0,189.29,,-0.26,0.37,1.51,-6.0,0.0,4.0,1.58,1.58,100.0,4474.0,13.0,3.72,,12.69,1.145,91.6,,32.1,5.0,0.0,0.0,0.0,0.0,0.0,0.0,0.0,0.0,2.26,,,0,0,0,0,0,0,0,0,0,0,0,0,0,0,0,0,0.0,,,,0.0,39.23996,-77.965584,0.18,34.0,3.0,0.9
120,2027234,1745089149302,,,,,,,,,,,,,,,,,,,,,,,,,,,,,,,,,,0,0,0,0,0,0,0,0,0,0,0,0,0,0,0,0,,,,,,,,,,,
121,2027254,1745089149322,0.0,189.17,,-0.25,0.41,1.54,-7.0,0.0,4.0,1.62,1.62,100.0,4444.0,13.0,3.75,,12.61,1.136,91.6,,32.1,5.0,,,,,,,,,,,,0,0,0,0,0,0,0,0,0,0,0,0,0,0,0,0,,,,,0.0,,,,,,
122,2027274,1745089149342,,,,,,,,,,,,,,,,,,,,,,,,,,,,,,,,,,0,0,0,0,0,0,0,0,0,0,0,0,0,0,0,0,,,,,,,,,,,
123,2027294,1745089149362,0.0,189.17,,-0.26,0.43,1.59,-7.0,0.0,4.0,1.67,1.67,100.0,4500.0,13.0,3.79,,12.69,1.133,91.6,,32.1,5.0,,,,,,,,,,,,0,0,0,0,0,0,0,0,0,0,0,0,0,0,0,0,,,,,0.0,,,,,,
124,2027314,1745089149382,,,,,,,,,,,,,,,,,,,,,,,0.0,0.0,0.0,0.0,0.0,0.0,0.0,0.0,2.26,,,0,0,0,0,0,0,0,0,0,0,0,0,0,0,0,0,0.0,,,,,39.23996,-77.965584,0.08,34.0,3.0,0.9
125,2027334,1745089149402,0.0,189.17,,-0.24,0.46,1.62,-7.0,0.0,4.0,1.7,1.7,100.0,4518.0,13.0,3.75,,12.69,1.133,91.6,,32.5,5.0,,,,,,,,,,,,0,0,0,0,0,0,0,0,0,0,0,0,0,0,0,0,,,,,0.0,,,,,,
126,2027354,1745089149422,,,,,,,,,,,,,,,,,,,,,,,,,,,,,,,,,,0,0,0,0,0,0,0,0,0,0,0,0,0,0,0,0,,,,,,,,,,,
127,2027374,1745089149442,0.0,189.17,,-0.23,0.47,1.66,-7.0,0.0,4.0,1.74,1.74,100.0,4518.0,13.0,3.75,,12.71,1.149,91.6,,32.5,5.0,,,,,,,,,,,,0,0,0,0,0,0,0,0,0,0,0,0,0,0,0,0,,,,,0.0,,,,,,
128,2027394,1745089149462,,,,,,,,,,,,,,,,,,,,,,,,,,,,,,,,,,0,0,0,0,0,0,0,0,0,0,0,0,0,0,0,0,,,,,,,,,,,
129,2027414,1745089149482,0.0,189.17,13.62,-0.22,0.51,1.68,-7.0,0.0,4.0,1.77,1.77,100.0,4521.0,12.8,3.77,15.0,12.67,1.133,91.6,171.0,32.7,5.0,0.0,0.0,0.0,0.0,0.0,0.0,0.0,0.0,2.26,0.0,0.0,0,0,0,0,0,0,0,0,0,0,0,0,0,0,0,0,0.0,0.0,0.0,0.0,0.0,39.23996,-77.965584,0.04,34.0,3.0,0.9
130,2027434,1745089149502,,,,,,,,,,,,,,,,,,,,,,,,,,,,,,,,,,0,0,0,0,0,0,0,0,0,0,0,0,0,0,0,0,,,,,,,,,,,
131,2027454,1745089149522,0.0,189.17,,-0.23,0.52,1.7,-7.0,0.0,4.0,1.79,1.79,100.0,4536.0,12.9,3.73,,12.69,1.118,91.6,,32.7,5.0,,,,,,,,,,,,0,0,0,0,0,0,0,0,0,0,0,0,0,0,0,0,,,,,0.0,,,,,,
132,2027474,1745089149542,,,,,,,,,,,,,,,,,,,,,,,,,,,,,,,,,,0,0,0,0,0,0,0,0,0,0,0,0,0,0,0,0,,,,,,,,,,,
133,2027494,1745089149562,0.0,189.17,,-0.23,0.54,1.71,-7.0,0.0,5.0,1.81,1.81,100.0,4465.0,13.0,3.72,,12.68,1.134,91.6,,32.7,5.0,,,,,,,,,,,,0,0,0,0,0,0,0,0,0,0,0,0,0,0,0,0,,,,,0.0,,,,,,
134,2027514,1745089149582,,,,,,,,,,,,,,,,,,,,,,,0.0,0.0,0.0,0.0,0.0,0.0,0.0,0.0,2.26,,,0,0,0,0,0,0,0,0,0,0,0,0,0,0,0,0,0.0,,,,,39.23996,-77.965584,0.04,34.0,3.0,0.9
135,2027534,1745089149602,0.0,189.04,,-0.26,0.45,1.65,-7.0,0.0,4.0,1.73,1.81,96.0,4626.0,13.0,3.59,,12.68,1.134,91.6,,33.1,5.0,,,,,,,,,,,,0,0,0,0,0,0,0,0,0,0,0,0,0,0,0,0,,,,,0.0,,,,,,
136,2027554,1745089149622,,,,,,,,,,,,,,,,,,,,,,,,,,,,,,,,,,0,0,0,0,0,0,0,0,0,0,0,0,0,0,0,0,,,,,,,,,,,
137,2027574,1745089149642,0.0,189.04,,-0.23,0.29,1.52,-6.0,0.0,4.0,1.56,1.81,86.0,4626.0,13.0,3.59,,12.68,1.147,91.6,,33.1,5.0,,,,,,,,,,,,0,0,0,0,0,0,0,0,0,0,0,0,0,0,0,0,,,,,0.0,,,,,,
138,2027594,1745089149662,,,,,,,,,,,,,,,,,,,,,,,,,,,,,,,,,,0,0,0,0,0,0,0,0,0,0,0,0,0,0,0,0,,,,,,,,,,,
139,2027614,1745089149682,0.0,189.04,,-0.16,0.24,1.45,-5.0,0.0,3.0,1.48,1.81,82.0,4710.0,13.0,3.59,,12.71,1.007,91.6,,33.1,5.0,0.0,0.0,0.0,0.0,0.0,0.0,0.0,0.0,2.26,,,0,0,0,0,0,0,0,0,0,0,0,0,0,0,0,0,0.0,,,,0.0,39.23996,-77.965584,0.11,34.0,3.0,0.9
140,2027634,1745089149702,,,,,,,,,,,,,,,,,,,,,,,,,,,,,,,,,,0,0,0,0,0,0,0,0,0,0,0,0,0,0,0,0,,,,,,,,,,,
141,2027654,1745089149722,0.0,188.91,,-0.19,0.21,1.4,-5.0,0.0,3.0,1.43,1.81,79.0,4847.0,13.0,3.46,,12.65,0.929,91.6,,34.6,5.0,,,,,,,,,,,,0,0,0,0,0,0,0,0,0,0,0,0,0,0,0,0,,,,,0.0,,,,,,
142,2027674,1745089149742,,,,,,,,,,,,,,,,,,,,,,,,,,,,,,,,,,0,0,0,0,0,0,0,0,0,0,0,0,0,0,0,0,,,,,,,,,,,
143,2027694,1745089149762,0.0,189.04,,-0.14,0.22,1.35,-4.0,0.0,2.0,1.38,1.81,76.0,4902.0,13.1,3.37,,12.67,0.908,91.6,,34.6,5.0,,,,,,,,,,,,0,0,0,0,0,0,0,0,0,0,0,0,0,0,0,0,,,,,0.0,,,,,,
144,2027714,1745089149782,,,,,,,,,,,,,,,,,,,,,,,0.0,0.0,0.0,0.0,0.0,0.0,0.0,0.0,2.26,,,0,0,0,0,0,0,0,0,0,0,0,0,0,0,0,0,0.0,,,,,39.23996,-77.965584,0.05,34.0,3.0,0.9
145,2027734,1745089149802,0.0,188.91,,-0.16,0.21,1.29,-4.0,0.0,2.0,1.31,1.81,73.0,4882.0,13.7,3.4,,12.67,0.908,91.6,,35.9,5.0,,,,,,,,,,,,0,0,0,0,0,0,0,0,0,0,0,0,0,0,0,0,,,,,0.0,,,,,,
146,2027754,1745089149822,,,,,,,,,,,,,,,,,,,,,,,,,,,,,,,,,,0,0,0,0,0,0,0,0,0,0,0,0,0,0,0,0,,,,,,,,,,,
147,2027774,1745089149842,0.0,188.91,,-0.11,0.19,1.27,-3.0,0.0,2.0,1.29,1.81,71.0,4882.0,13.7,3.4,,12.55,0.927,91.6,,35.9,5.0,,,,,,,,,,,,0,0,0,0,0,0,0,0,0,0,0,0,0,0,0,0,,,,,0.0,,,,,,
148,2027794,1745089149862,,,,,,,,,,,,,,,,,,,,,,,,,,,,,,,,,,0,0,0,0,0,0,0,0,0,0,0,0,0,0,0,0,,,,,,,,,,,
149,2027814,1745089149882,0.0,188.91,,-0.1,0.14,1.23,-3.0,0.0,2.0,1.24,1.81,69.0,0.0,14.7,3.58,,12.68,0.95,91.6,,36.9,5.0,0.0,0.0,0.0,0.0,0.0,0.0,0.0,0.0,2.26,,,0,0,0,0,0,0,0,0,0,0,0,0,0,0,0,0,0.0,,,,0.0,39.23996,-77.965584,0.06,34.0,3.0,0.9
150,2027834,1745089149902,,,,,,,,,,,,,,,,,,,,,,,,,,,,,,,,,,0,0,0,0,0,0,0,0,0,0,0,0,0,0,0,0,,,,,,,,,,,
151,2027854,1745089149922,0.0,188.91,,-0.11,0.14,1.2,-3.0,0.0,1.0,1.22,1.81,67.0,5071.0,16.3,3.48,,12.72,0.954,91.6,,36.9,5.0,,,,,,,,,,,,0,0,0,0,0,0,0,0,0,0,0,0,0,0,0,0,,,,,0.0,,,,,,
152,2027874,1745089149942,,,,,,,,,,,,,,,,,,,,,,,,,,,,,,,,,,0,0,0,0,0,0,0,0,0,0,0,0,0,0,0,0,,,,,,,,,,,
153,2027894,1745089149962,0.0,188.79,,-0.07,0.14,1.19,-3.0,0.0,1.0,1.2,1.81,67.0,4934.0,17.0,3.48,,12.8,0.971,91.6,,36.9,5.0,,,,,,,,,,,,0,0,0,0,0,0,0,0,0,0,0,0,0,0,0,0,,,,,0.0,,,,,,
154,2027914,1745089149982,,,,,,,,,,,,,,,,,,,,,,,0.0,0.0,0.0,0.0,0.0,0.0,0.0,0.0,2.26,,,0,0,0,0,0,0,0,0,0,0,0,0,0,0,0,0,0.0,,,,,39.23996,-77.965584,0.04,34.0,3.0,0.9
155,2027934,1745089149991,0.0,188.79,,-0.1,0.09,1.15,-2.0,0.0,1.0,1.15,1.81,64.0,4797.0,17.9,3.55,,12.8,0.971,91.6,,36.0,5.0,,,,,,,,,,,,0,0,0,0,0,0,0,0,0,0,0,0,0,0,0,0,,,,,0.0,,,,,,
156,2027954,1745089150011,,,,,,,,,,,,,,,,,,,,,,,,,,,,,,,,,,0,0,0,0,0,0,0,0,0,0,0,0,0,0,0,0,,,,,,,,,,,
157,2027974,1745089150031,0.0,188.91,,-0.05,0.04,1.11,-2.0,0.0,1.0,1.11,1.81,61.0,4797.0,17.9,3.55,,12.95,0.987,91.6,,36.0,5.0,,,,,,,,,,,,0,0,0,0,0,0,0,0,0,0,0,0,0,0,0,0,,,,,0.0,,,,,,
158,2027994,1745089150051,,,,,,,,,,,,,,,,,,,,,,,,,,,,,,,,,,0,0,0,0,0,0,0,0,0,0,0,0,0,0,0,0,,,,,,,,,,,
159,2028014,1745089150071,0.0,188.91,,-0.08,0.14,1.14,-2.0,0.0,1.0,1.15,1.81,64.0,4781.0,20.0,3.65,,13.09,0.984,91.6,,35.0,5.0,0.0,0.0,0.0,0.0,0.0,0.0,0.0,0.0,2.26,,,0,0,0,0,0,0,0,0,0,0,0,0,0,0,0,0,0.0,,,,0.0,39.23996,-77.965584,0.04,34.0,3.0,0.9
160,2028034,1745089150099,,,,,,,,,,,,,,,,,,,,,,,,,,,,,,,,,,0,0,0,0,0,0,0,0,0,0,0,0,0,0,0,0,,,,,,,,,,,
161,2028054,1745089150119,0.0,188.91,,-0.07,0.08,1.06,-1.0,0.0,1.0,1.07,1.81,59.0,4802.0,20.9,3.74,,13.24,0.983,89.8,,35.0,5.0,,,,,,,,,,,,0,0,0,0,0,0,0,0,0,0,0,0,0,0,0,0,,,,,0.0,,,,,,
162,2028074,1745089150139,,,,,,,,,,,,,,,,,,,,,,,,,,,,,,,,,,0,0,0,0,0,0,0,0,0,0,0,0,0,0,0,0,,,,,,,,,,,
163,2028094,1745089150159,0.0,188.91,,-0.05,0.07,1.09,-1.0,0.0,1.0,1.09,1.81,60.0,4821.0,22.3,3.83,,13.32,0.982,89.8,,35.0,5.0,,,,,,,,,,,,0,0,0,0,0,0,0,0,0,0,0,0,0,0,0,0,,,,,0.0,,,,,,
164,2028114,1745089150179,,,,,,,,,,,,,,,,,,,,,,,0.0,0.0,0.0,0.0,0.0,0.0,0.0,0.0,2.26,,,0,0,0,0,0,0,0,0,0,0,0,0,0,0,0,0,0.0,,,,,39.23996,-77.965584,0.05,34.0,3.0,0.9
165,2028134,1745089150199,0.0,188.91,,-0.08,0.05,1.04,-1.0,0.0,0.0,1.05,1.81,58.0,4900.0,22.9,3.93,,13.32,0.982,89.8,,35.3,5.0,,,,,,,,,,,,0,0,0,0,0,0,0,0,0,0,0,0,0,0,0,0,,,,,0.0,,,,,,
166,2028154,1745089150219,,,,,,,,,,,,,,,,,,,,,,,,,,,,,,,,,,0,0,0,0,0,0,0,0,0,0,0,0,0,0,0,0,,,,,,,,,,,
167,2028174,1745089150239,0.0,188.91,,-0.07,0.07,1.04,-1.0,0.0,0.0,1.04,1.81,58.0,4900.0,22.9,3.93,,13.28,0.982,89.8,,35.3,5.0,,,,,,,,,,,,0,0,0,0,0,0,0,0,0,0,0,0,0,0,0,0,,,,,0.0,,,,,,
168,2028194,1745089150259,,,,,,,,,,,,,,,,,,,,,,,,,,,,,,,,,,0,0,0,0,0,0,0,0,0,0,0,0,0,0,0,0,,,,,,,,,,,
169,2028214,1745089150279,0.0,189.04,,-0.07,0.07,1.0,-1.0,0.0,0.0,1.01,1.81,56.0,5196.0,23.0,3.85,,13.32,0.999,89.8,,37.9,5.0,0.0,0.0,0.0,0.0,0.0,0.0,0.0,0.0,2.26,,,0,0,0,0,0,0,0,0,0,0,0,0,0,0,0,0,0.0,,,,0.0,39.23996,-77.965584,0.04,34.0,3.0,0.9
170,2028234,1745089150303,,,,,,,,,,,,,,,,,,,,,,,,,,,,,,,,,,0,0,0,0,0,0,0,0,0,0,0,0,0,0,0,0,,,,,,,,,,,
171,2028254,1745089150323,0.0,189.04,,-0.07,0.1,1.08,-1.0,0.0,0.0,1.09,1.81,60.0,5675.0,23.2,3.87,,13.19,0.988,89.8,,37.9,5.0,,,,,,,,,,,,0,0,0,0,0,0,0,0,0,0,0,0,0,0,0,0,,,,,0.0,,,,,,
172,2028274,1745089150343,,,,,,,,,,,,,,,,,,,,,,,,,,,,,,,,,,0,0,0,0,0,0,0,0,0,0,0,0,0,0,0,0,,,,,,,,,,,
173,2028294,1745089150363,0.0,188.91,,-0.04,0.06,1.14,0.0,0.0,0.0,1.14,1.81,63.0,6026.0,23.4,3.85,,12.85,0.945,89.8,,37.9,5.0,,,,,,,,,,,,0,0,0,0,0,0,0,0,0,0,0,0,0,0,0,0,,,,,0.0,,,,,,
174,2028314,1745089150383,,,,,,,,,,,,,,,,,,,,,,,0.0,0.0,0.0,0.0,0.0,0.0,0.0,0.0,2.26,,,0,0,0,0,0,0,0,0,0,0,0,0,0,0,0,0,0.0,,,,,39.23996,-77.965584,0.08,34.0,3.0,0.9
175,2028334,1745089150401,0.0,188.91,,-0.05,0.02,1.1,0.0,0.0,0.0,1.1,1.81,61.0,6447.0,23.3,4.19,,12.85,0.945,89.8,,43.4,5.0,,,,,,,,,,,,0,0,0,0,0,0,0,0,0,0,0,0,0,0,0,0,,,,,0.0,,,,,,
176,2028354,1745089150421,,,,,,,,,,,,,,,,,,,,,,,,,,,,,,,,,,0,0,0,0,0,0,0,0,0,0,0,0,0,0,0,0,,,,,,,,,,,
177,2028374,1745089150441,0.0,188.91,,-0.03,0.01,1.06,0.0,0.0,0.0,1.06,1.81,59.0,6447.0,23.3,4.19,,12.52,0.979,89.8,,43.4,5.0,,,,,,,,,,,,0,0,0,0,0,0,0,0,0,0,0,0,0,0,0,0,,,,,0.0,,,,,,
178,2028394,1745089150461,,,,,,,,,,,,,,,,,,,,,,,,,,,,,,,,,,0,0,0,0,0,0,0,0,0,0,0,0,0,0,0,0,,,,,,,,,,,
179,2028414,1745089150481,0.0,188.91,13.6,-0.01,0.03,1.11,1.0,0.0,0.0,1.11,1.81,62.0,6829.0,23.4,4.47,15.0,12.21,1.049,89.8,171.0,47.9,5.0,0.0,0.0,0.0,0.0,0.0,0.0,0.0,0.0,2.26,0.0,0.0,0,0,0,0,0,0,0,0,0,0,0,0,0,0,0,0,0.0,0.0,0.0,0.0,0.0,39.23996,-77.965584,0.04,34.0,3.0,0.9
180,2028434,1745089150501,,,,,,,,,,,,,,,,,,,,,,,,,,,,,,,,,,0,0,0,0,0,0,0,0,0,0,0,0,0,0,0,0,,,,,,,,,,,
181,2028454,1745089150521,0.0,188.91,,-0.03,0.1,1.11,2.0,0.0,0.0,1.12,1.81,62.0,7557.0,23.9,4.72,,11.88,1.079,89.8,,47.9,5.0,,,,,,,,,,,,0,0,0,0,0,0,0,0,0,0,0,0,0,0,0,0,,,,,0.0,,,,,,
182,2028474,1745089150541,,,,,,,,,,,,,,,,,,,,,,,,,,,,,,,,,,0,0,0,0,0,0,0,0,0,0,0,0,0,0,0,0,,,,,,,,,,,
183,2028494,1745089150561,0.0,188.79,,-0.03,0.06,1.07,0.0,0.0,0.0,1.07,1.81,59.0,8602.0,25.0,4.68,,11.38,1.008,89.8,,47.9,5.0,,,,,,,,,,,,0,0,0,0,0,0,0,0,0,0,0,0,0,0,0,0,,,,,0.0,,,,,,
184,2028514,1745089150581,,,,,,,,,,,,,,,,,,,,,,,0.0,0.0,0.0,0.0,0.0,0.0,0.0,0.0,2.25,,,0,0,0,0,0,0,0,0,0,0,0,0,0,0,0,0,0.0,,,,,39.23996,-77.965584,0.07,34.0,3.0,0.9
185,2028534,1745089150603,0.0,188.79,,-0.03,0.13,1.13,0.0,0.0,1.0,1.14,1.81,63.0,9991.0,25.4,4.66,,11.38,1.008,89.8,,59.2,5.0,,,,,,,,,,,,0,0,0,0,0,0,0,0,0,0,0,0,0,0,0,0,,,,,0.0,,,,,,
186,2028554,1745089150623,,,,,,,,,,,,,,,,,,,,,,,,,,,,,,,,,,0,0,0,0,0,0,0,0,0,0,0,0,0,0,0,0,,,,,,,,,,,
187,2028574,1745089150643,0.0,188.79,,-0.02,0.24,1.02,-1.0,0.0,1.0,1.05,1.81,58.0,9991.0,25.4,4.66,,10.78,0.839,89.8,,59.2,5.0,,,,,,,,,,,,0,0,0,0,0,0,0,0,0,0,0,0,0,0,0,0,,,,,0.0,,,,,,
188,2028594,1745089150663,,,,,,,,,,,,,,,,,,,,,,,,,,,,,,,,,,0,0,0,0,0,0,0,0,0,0,0,0,0,0,0,0,,,,,,,,,,,
189,2028614,1745089150683,0.0,188.66,,-0.08,0.24,1.17,-1.0,0.0,1.0,1.19,1.81,66.0,11171.0,25.5,3.44,,10.36,0.806,89.8,,55.0,5.0,0.0,0.0,0.0,0.0,0.0,0.0,0.0,0.0,2.26,,,0,0,0,0,0,0,0,0,0,0,0,0,0,0,0,0,0.0,,,,0.0,39.23996,-77.965584,0.12,34.0,3.0,0.9
190,2028634,1745089150703,,,,,,,,,,,,,,,,,,,,,,,,,,,,,,,,,,0,0,0,0,0,0,0,0,0,0,0,0,0,0,0,0,,,,,,,,,,,
191,2028654,1745089150723,0.0,188.66,,-0.13,0.3,1.34,-1.0,0.0,1.0,1.38,1.81,76.0,12126.0,25.7,3.24,,9.85,0.818,89.8,,55.0,5.0,,,,,,,,,,,,0,0,0,0,0,0,0,0,0,0,0,0,0,0,0,0,,,,,0.0,,,,,,
192,2028674,1745089150743,,,,,,,,,,,,,,,,,,,,,,,,,,,,,,,,,,0,0,0,0,0,0,0,0,0,0,0,0,0,0,0,0,,,,,,,,,,,
193,2028694,1745089150763,0.0,188.66,,-0.11,0.26,1.34,-1.0,0.0,1.0,1.37,1.81,76.0,12820.0,26.2,2.64,,9.57,0.829,89.8,,55.0,5.0,,,,,,,,,,,,0,0,0,0,0,0,0,0,0,0,0,0,0,0,0,0,,,,,0.0,,,,,,
194,2028714,1745089150783,,,,,,,,,,,,,,,,,,,,,,,0.0,0.0,0.0,0.0,0.0,0.0,0.0,0.0,2.26,,,0,0,0,0,0,0,0,0,0,0,0,0,0,0,0,0,0.0,,,,,39.23996,-77.965584,0.11,34.0,3.0,0.9
195,2028734,1745089150803,0.0,188.66,,-0.1,0.29,1.27,-1.0,0.0,1.0,1.31,1.81,72.0,12791.0,30.4,2.45,,9.57,0.829,89.8,,65.2,5.0,,,,,,,,,,,,0,0,0,0,0,0,0,0,0,0,0,0,0,0,0,0,,,,,0.0,,,,,,
196,2028754,1745089150823,,,,,,,,,,,,,,,,,,,,,,,,,,,,,,,,,,0,0,0,0,0,0,0,0,0,0,0,0,0,0,0,0,,,,,,,,,,,
197,2028774,1745089150843,0.0,188.66,,-0.03,0.17,1.27,-1.0,0.0,1.0,1.29,1.81,71.0,12791.0,30.4,2.45,,9.68,0.861,89.8,,65.2,5.0,,,,,,,,,,,,0,0,0,0,0,0,0,0,0,0,0,0,0,0,0,0,,,,,0.0,,,,,,
198,2028794,1745089150863,,,,,,,,,,,,,,,,,,,,,,,,,,,,,,,,,,0,0,0,0,0,0,0,0,0,0,0,0,0,0,0,0,,,,,,,,,,,
199,2028814,1745089150883,0.0,188.54,,0.02,0.17,1.25,-2.0,0.0,2.0,1.26,1.81,70.0,11642.0,33.3,2.63,,10.26,1.028,89.8,,62.0,5.0,0.0,0.0,0.0,0.0,0.0,0.0,0.0,0.0,2.26,,,0,0,0,0,0,0,0,0,0,0,0,0,0,0,0,0,0.0,,,,0.0,39.23996,-77.965584,0.0,34.0,3.0,0.9
200,2028834,1745089150901,,,,,,,,,,,,,,,,,,,,,,,,,,,,,,,,,,0,0,0,0,0,0,0,0,0,0,0,0,0,0,0,0,,,,,,,,,,,
201,2028854,1745089150921,0.0,188.54,,0.08,0.16,1.19,0.0,0.0,1.0,1.21,1.81,67.0,10238.0,33.7,3.35,,10.8,1.243,89.8,,62.0,5.0,,,,,,,,,,,,0,0,0,0,0,0,0,0,0,0,0,0,0,0,0,0,,,,,0.0,,,,,,
202,2028874,1745089150941,,,,,,,,,,,,,,,,,,,,,,,,,,,,,,,,,,0,0,0,0,0,0,0,0,0,0,0,0,0,0,0,0,,,,,,,,,,,
203,2028894,1745089150961,0.0,188.41,,0.13,0.06,1.13,-1.0,1.0,1.0,1.14,1.81,63.0,9025.0,34.4,4.61,,11.38,1.248,89.8,,62.0,5.0,,,,,,,,,,,,0,0,0,0,0,0,0,0,0,0,0,0,0,0,0,0,,,,,0.0,,,,,,
204,2028914,1745089150981,,,,,,,,,,,,,,,,,,,,,,,0.0,0.0,0.0,0.0,0.0,0.0,0.0,0.0,2.27,,,0,0,0,0,0,0,0,0,0,0,0,0,0,0,0,0,0.0,,,,,39.23996,-77.965584,0.52,34.0,3.0,0.9
205,2028934,1745089150992,0.0,188.16,,0.23,-0.07,1.12,-1.0,1.0,1.0,1.14,1.81,63.0,9025.0,34.4,4.61,,11.38,1.248,89.8,,58.0,5.0,,,,,,,,,,,,0,0,0,0,0,0,0,0,0,0,0,0,0,0,0,0,,,,,0.0,,,,,,
206,2028954,1745089151012,,,,,,,,,,,,,,,,,,,,,,,,,,,,,,,,,,0,0,0,0,0,0,0,0,0,0,0,0,0,0,0,0,,,,,,,,,,,
207,2028974,1745089151032,0.0,188.03,,0.32,0.02,1.11,0.0,1.0,1.0,1.16,1.81,64.0,8193.0,35.4,5.63,,12.15,1.248,89.8,,58.0,5.0,,,,,,,,,,,,0,0,0,0,0,0,0,0,0,0,0,0,0,0,0,0,,,,,0.0,,,,,,
208,2028994,1745089151052,,,,,,,,,,,,,,,,,,,,,,,,,,,,,,,,,,0,0,0,0,0,0,0,0,0,0,0,0,0,0,0,0,,,,,,,,,,,
209,2029014,1745089151072,0.0,187.91,,0.39,-0.03,1.09,1.0,1.0,0.0,1.15,1.81,64.0,7327.0,36.9,6.09,,12.63,1.0,89.8,,50.8,5.0,1.0,0.0,2.0,3.0,0.0,0.0,0.0,0.0,2.26,,,0,0,0,0,0,0,0,0,0,0,0,0,0,0,0,0,0.0,,,,0.0,39.23996,-77.965584,2.07,34.0,3.0,0.9
210,2029034,1745089151100,,,,,,,,,,,,,,,,,,,,,,,,,,,,,,,,,,0,0,0,0,0,0,0,0,0,0,0,0,0,0,0,0,,,,,,,,,,,
211,2029054,1745089151120,0.0,187.78,,0.45,-0.07,1.05,1.0,1.0,0.0,1.14,1.81,63.0,6433.0,37.4,5.66,,13.16,0.877,91.6,,50.8,5.0,,,,,,,,,,,,0,0,0,0,0,0,0,0,0,0,0,0,0,0,0,0,,,,,0.0,,,,,,
212,2029074,1745089151140,,,,,,,,,,,,,,,,,,,,,,,,,,,,,,,,,,0,0,0,0,0,0,0,0,0,0,0,0,0,0,0,0,,,,,,,,,,,
213,2029094,1745089151160,0.0,187.66,,0.48,-0.1,1.0,1.0,1.0,0.0,1.11,1.81,62.0,5398.0,43.9,4.69,,13.95,0.831,91.6,,50.8,5.0,,,,,,,,,,,,0,0,0,0,0,0,0,0,0,0,0,0,0,0,0,0,,,,,0.0,,,,,,
214,2029114,1745089151180,,,,,,,,,,,,,,,,,,,,,,,4.0,0.0,7.0,5.0,0.0,0.0,0.0,0.0,2.26,,,0,0,0,0,0,0,0,0,0,0,0,0,0,0,0,0,0.0,,,,,39.239956,-77.965584,6.84,34.0,3.0,0.9
215,2029134,1745089151200,0.0,187.66,,0.57,-0.11,0.99,1.0,0.0,0.0,1.15,1.81,64.0,4323.0,49.5,5.24,,13.95,0.831,91.6,,35.9,5.0,,,,,,,,,,,,0,0,0,0,0,0,0,0,0,0,0,0,0,0,0,0,,,,,0.0,,,,,,
216,2029154,1745089151220,,,,,,,,,,,,,,,,,,,,,,,,,,,,,,,,,,0,0,0,0,0,0,0,0,0,0,0,0,0,0,0,0,,,,,,,,,,,
217,2029174,1745089151240,0.0,187.53,,0.62,-0.08,0.97,0.0,0.0,0.0,1.15,1.81,64.0,4323.0,49.5,5.24,,14.23,0.82,91.6,,35.9,5.0,,,,,,,,,,,,0,0,0,0,0,0,0,0,0,0,0,0,0,0,0,0,,,,,0.0,,,,,,
218,2029194,1745089151260,,,,,,,,,,,,,,,,,,,,,,,,,,,,,,,,,,0,0,0,0,0,0,0,0,0,0,0,0,0,0,0,0,,,,,,,,,,,
219,2029214,1745089151280,0.0,187.53,,0.65,-0.17,1.0,0.0,1.0,0.0,1.21,1.81,67.0,3636.0,55.5,4.75,,14.34,0.803,91.6,,24.8,5.0,6.0,0.0,17.0,16.0,0.0,182.0,0.0,0.0,2.26,,,0,0,0,0,0,0,0,0,0,0,0,0,0,0,0,0,0.0,,,,0.0,39.239956,-77.965584,10.18,34.0,3.0,0.9
220,2029234,1745089151302,,,,,,,,,,,,,,,,,,,,,,,,,,,,,,,,,,0,0,0,0,0,0,0,0,0,0,0,0,0,0,0,0,,,,,,,,,,,
221,2029254,1745089151322,0.0,187.41,,0.67,-0.15,1.03,0.0,1.0,0.0,1.24,1.81,68.0,2801.0,57.5,4.19,,14.28,0.784,91.6,,24.8,5.0,,,,,,,,,,,,0,0,0,0,0,0,0,0,0,0,0,0,0,0,0,0,,,,,0.0,,,,,,
222,2029274,1745089151342,,,,,,,,,,,,,,,,,,,,,,,,,,,,,,,,,,0,0,0,0,0,0,0,0,0,0,0,0,0,0,0,0,,,,,,,,,,,
223,2029294,1745089151362,0.0,187.53,,0.58,-0.13,1.04,0.0,0.0,0.0,1.2,1.81,66.0,2344.0,57.6,4.27,,14.38,0.788,91.6,,24.8,5.0,,,,,,,,,,,,0,0,0,0,0,0,0,0,0,0,0,0,0,0,0,0,,,,,0.0,,,,,,
224,2029314,1745089151382,,,,,,,,,,,,,,,,,,,,,,,8.0,0.0,13.0,11.0,0.0,7.0,0.0,0.0,2.26,,,0,0,0,0,0,0,0,0,0,0,0,0,0,0,0,0,0.0,,,,,39.239952,-77.965591,13.19,34.0,3.0,0.9
225,2029334,1745089151402,0.0,187.53,,0.51,-0.09,1.02,0.0,-1.0,-1.0,1.14,1.81,63.0,1850.0,66.5,4.57,,14.38,0.788,91.6,,15.1,5.0,,,,,,,,,,,,0,0,0,0,0,0,0,0,0,0,0,0,0,0,0,0,,,,,0.0,,,,,,
226,2029354,1745089151422,,,,,,,,,,,,,,,,,,,,,,,,,,,,,,,,,,0,0,0,0,0,0,0,0,0,0,0,0,0,0,0,0,,,,,,,,,,,
227,2029374,1745089151442,0.0,187.53,,0.45,-0.11,1.04,0.0,-1.0,0.0,1.14,1.81,63.0,1850.0,66.5,4.57,,14.36,0.793,91.6,,15.1,5.0,,,,,,,,,,,,0,0,0,0,0,0,0,0,0,0,0,0,0,0,0,0,,,,,0.0,,,,,,
228,2029394,1745089151462,,,,,,,,,,,,,,,,,,,,,,,,,,,,,,,,,,0,0,0,0,0,0,0,0,0,0,0,0,0,0,0,0,,,,,,,,,,,
229,2029414,1745089151482,0.0,187.78,13.58,0.36,-0.09,1.03,1.0,-1.0,0.0,1.09,1.81,60.0,1876.0,75.5,4.69,15.0,14.35,0.791,91.6,171.0,14.7,5.0,10.0,0.0,9.0,9.0,0.0,249.0,0.0,0.0,2.26,0.0,0.0,0,0,0,0,0,0,0,0,0,0,0,0,0,0,0,0,0.0,0.0,0.0,0.0,0.0,39.239948,-77.965591,16.57,34.0,3.0,0.9
230,2029434,1745089151502,,,,,,,,,,,,,,,,,,,,,,,,,,,,,,,,,,0,0,0,0,0,0,0,0,0,0,0,0,0,0,0,0,,,,,,,,,,,
231,2029454,1745089151522,0.0,187.78,,0.32,-0.07,1.01,2.0,-1.0,0.0,1.06,1.81,59.0,2323.0,75.5,4.57,,14.3,0.788,91.6,,14.7,5.0,,,,,,,,,,,,0,0,0,0,0,0,0,0,0,0,0,0,0,0,0,0,,,,,0.0,,,,,,
232,2029474,1745089151542,,,,,,,,,,,,,,,,,,,,,,,,,,,,,,,,,,0,0,0,0,0,0,0,0,0,0,0,0,0,0,0,0,,,,,,,,,,,
233,2029494,1745089151562,0.0,187.78,,0.27,-0.1,1.01,2.0,-1.0,0.0,1.05,1.81,58.0,2754.0,75.6,4.33,,14.3,0.793,91.6,,14.7,5.0,,,,,,,,,,,,0,0,0,0,0,0,0,0,0,0,0,0,0,0,0,0,,,,,0.0,,,,,,
234,2029514,1745089151582,,,,,,,,,,,,,,,,,,,,,,,10.0,0.0,10.0,9.0,0.0,0.0,0.0,0.0,2.26,,,0,0,0,0,0,0,0,0,0,0,0,0,0,0,0,0,3.0,,,,,39.239944,-77.965591,16.06,34.0,3.0,0.9
235,2029534,1745089151602,0.0,187.78,,0.28,-0.11,1.05,3.0,-1.0,0.0,1.09,1.81,61.0,3135.0,75.6,4.09,,14.3,0.793,91.6,,19.4,5.0,,,,,,,,,,,,0,0,0,0,0,0,0,0,0,0,0,0,0,0,0,0,,,,,0.0,,,,,,
236,2029554,1745089151622,,,,,,,,,,,,,,,,,,,,,,,,,,,,,,,,,,0,0,0,0,0,0,0,0,0,0,0,0,0,0,0,0,,,,,,,,,,,
237,2029574,1745089151642,0.0,187.66,,0.32,-0.12,1.09,3.0,0.0,0.0,1.15,1.81,63.0,3135.0,75.6,4.09,,14.32,0.779,91.6,,19.4,5.0,,,,,,,,,,,,0,0,0,0,0,0,0,0,0,0,0,0,0,0,0,0,,,,,0.0,,,,,,
238,2029594,1745089151662,,,,,,,,,,,,,,,,,,,,,,,,,,,,,,,,,,0,0,0,0,0,0,0,0,0,0,0,0,0,0,0,0,,,,,,,,,,,
239,2029614,1745089151682,0.0,187.53,,0.28,-0.09,1.08,2.0,0.0,0.0,1.12,1.81,62.0,2843.0,75.6,4.11,,14.35,0.761,91.6,,17.5,5.0,9.0,0.0,10.0,10.0,0.0,6.0,0.0,0.0,2.26,,,0,0,0,0,0,0,0,0,0,0,0,0,0,0,0,0,3.0,,,,0.0,39.239944,-77.965591,15.08,34.0,3.0,0.9
240,2029634,1745089151702,,,,,,,,,,,,,,,,,,,,,,,,,,,,,,,,,,0,0,0,0,0,0,0,0,0,0,0,0,0,0,0,0,,,,,,,,,,,
241,2029654,1745089151722,0.0,187.66,,0.22,-0.07,1.06,1.0,-1.0,0.0,1.08,1.81,60.0,2187.0,74.7,4.42,,14.31,0.757,91.6,,17.5,5.0,,,,,,,,,,,,0,0,0,0,0,0,0,0,0,0,0,0,0,0,0,0,,,,,0.0,,,,,,
242,2029674,1745089151742,,,,,,,,,,,,,,,,,,,,,,,,,,,,,,,,,,0,0,0,0,0,0,0,0,0,0,0,0,0,0,0,0,,,,,,,,,,,
243,2029694,1745089151762,0.0,187.53,,0.18,-0.06,1.06,1.0,-1.0,0.0,1.07,1.81,59.0,2407.0,76.2,4.47,,14.3,0.775,91.6,,17.5,5.0,,,,,,,,,,,,0,0,0,0,0,0,0,0,0,0,0,0,0,0,0,0,,,,,0.0,,,,,,
244,2029714,1745089151782,,,,,,,,,,,,,,,,,,,,,,,11.0,0.0,11.0,11.0,0.0,0.0,0.0,0.0,2.26,,,0,0,0,0,0,0,0,0,0,0,0,0,0,0,0,0,0.0,,,,,39.239944,-77.965599,15.93,34.0,3.0,0.9
245,2029734,1745089151802,0.0,187.53,,0.16,-0.03,1.03,1.0,-1.0,-1.0,1.04,1.81,58.0,2886.0,76.2,4.25,,14.3,0.775,91.6,,17.7,5.0,,,,,,,,,,,,0,0,0,0,0,0,0,0,0,0,0,0,0,0,0,0,,,,,0.0,,,,,,
246,2029754,1745089151822,,,,,,,,,,,,,,,,,,,,,,,,,,,,,,,,,,0,0,0,0,0,0,0,0,0,0,0,0,0,0,0,0,,,,,,,,,,,
247,2029774,1745089151842,0.0,187.53,,0.19,-0.07,1.04,0.0,-1.0,-1.0,1.06,1.81,59.0,2886.0,76.2,4.25,,14.26,0.801,91.6,,17.7,5.0,,,,,,,,,,,,0,0,0,0,0,0,0,0,0,0,0,0,0,0,0,0,,,,,0.0,,,,,,
248,2029794,1745089151862,,,,,,,,,,,,,,,,,,,,,,,,,,,,,,,,,,0,0,0,0,0,0,0,0,0,0,0,0,0,0,0,0,,,,,,,,,,,
249,2029814,1745089151882,0.0,187.41,,0.16,-0.05,1.0,0.0,-1.0,0.0,1.01,1.81,56.0,2767.0,76.2,4.26,,14.3,0.816,91.6,,18.9,5.0,11.0,0.0,11.0,11.0,0.0,12.0,0.0,0.0,2.26,,,0,0,0,0,0,0,0,0,0,0,0,0,0,0,0,0,0.0,,,,0.0,39.239941,-77.965599,17.15,34.0,3.0,0.9
250,2029834,1745089151902,,,,,,,,,,,,,,,,,,,,,,,,,,,,,,,,,,0,0,0,0,0,0,0,0,0,0,0,0,0,0,0,0,,,,,,,,,,,
251,2029854,1745089151922,0.0,187.53,,0.12,-0.03,1.03,0.0,-1.0,0.0,1.03,1.81,57.0,2650.0,76.1,4.36,,14.31,0.812,91.6,,18.9,5.0,,,,,,,,,,,,0,0,0,0,0,0,0,0,0,0,0,0,0,0,0,0,,,,,0.0,,,,,,
252,2029874,1745089151942,,,,,,,,,,,,,,,,,,,,,,,,,,,,,,,,,,0,0,0,0,0,0,0,0,0,0,0,0,0,0,0,0,,,,,,,,,,,
253,2029894,1745089151962,0.0,187.41,,0.11,-0.02,1.01,-1.0,-1.0,0.0,1.02,1.81,56.0,2731.0,76.2,4.34,,14.32,0.837,91.6,,18.9,5.0,,,,,,,,,,,,0,0,0,0,0,0,0,0,0,0,0,0,0,0,0,0,,,,,0.0,,,,,,
254,2029914,1745089151982,,,,,,,,,,,,,,,,,,,,,,,11.0,0.0,11.0,11.0,0.0,37.0,0.0,0.0,2.26,,,0,0,0,0,0,0,0,0,0,0,0,0,0,0,0,0,2.0,,,,,39.239937,-77.965607,16.9,34.0,3.0,0.9
255,2029934,1745089151993,0.0,187.53,,0.09,0.04,1.0,0.0,-1.0,0.0,1.0,1.81,55.0,2814.0,76.2,4.29,,14.32,0.837,91.6,,19.2,5.0,,,,,,,,,,,,0,0,0,0,0,0,0,0,0,0,0,0,0,0,0,0,,,,,0.0,,,,,,
256,2029954,1745089152013,,,,,,,,,,,,,,,,,,,,,,,,,,,,,,,,,,0,0,0,0,0,0,0,0,0,0,0,0,0,0,0,0,,,,,,,,,,,
257,2029974,1745089152033,0.0,187.53,,0.1,0.03,1.03,0.0,-1.0,0.0,1.03,1.81,57.0,2814.0,76.2,4.29,,14.32,0.929,91.6,,19.2,5.0,,,,,,,,,,,,0,0,0,0,0,0,0,0,0,0,0,0,0,0,0,0,,,,,0.0,,,,,,
258,2029994,1745089152053,,,,,,,,,,,,,,,,,,,,,,,,,,,,,,,,,,0,0,0,0,0,0,0,0,0,0,0,0,0,0,0,0,,,,,,,,,,,
259,2030014,1745089152073,0.0,187.66,,0.11,0.07,0.98,1.0,-1.0,0.0,0.99,1.81,55.0,2660.0,76.2,4.21,,14.34,0.996,91.6,,18.9,5.0,11.0,0.0,11.0,11.0,0.0,0.0,0.0,0.0,2.26,,,0,0,0,0,0,0,0,0,0,0,0,0,0,0,0,0,2.0,,,,0.0,39.239933,-77.965607,17.65,34.0,3.0,0.9
260,2030034,1745089152095,,,,,,,,,,,,,,,,,,,,,,,,,,,,,,,,,,0,0,0,0,0,0,0,0,0,0,0,0,0,0,0,0,,,,,,,,,,,
261,2030054,1745089152115,0.0,187.78,,0.09,0.06,0.98,1.0,-1.0,0.0,0.99,1.81,55.0,2701.0,76.2,4.23,,14.28,1.046,91.6,,18.9,5.0,,,,,,,,,,,,0,0,0,0,0,0,0,0,0,0,0,0,0,0,0,0,,,,,0.0,,,,,,
262,2030074,1745089152135,,,,,,,,,,,,,,,,,,,,,,,,,,,,,,,,,,0,0,0,0,0,0,0,0,0,0,0,0,0,0,0,0,,,,,,,,,,,
263,2030094,1745089152155,0.0,187.78,,0.1,-0.01,1.04,2.0,-1.0,0.0,1.04,1.81,58.0,2749.0,76.2,4.19,,14.27,1.059,91.6,,18.9,5.0,,,,,,,,,,,,0,0,0,0,0,0,0,0,0,0,0,0,0,0,0,0,,,,,0.0,,,,,,
264,2030114,1745089152175,,,,,,,,,,,,,,,,,,,,,,,11.0,0.0,12.0,11.0,0.0,180.0,0.0,0.0,2.26,,,0,0,0,0,0,0,0,0,0,0,0,0,0,0,0,0,2.0,,,,,39.239929,-77.965614,17.92,34.0,3.0,0.9
265,2030134,1745089152201,0.0,187.91,,0.09,-0.02,1.04,2.0,-1.0,0.0,1.04,1.81,57.0,2900.0,76.2,4.23,,14.27,1.059,91.6,,19.8,5.0,,,,,,,,,,,,0,0,0,0,0,0,0,0,0,0,0,0,0,0,0,0,,,,,0.0,,,,,,
266,2030154,1745089152221,,,,,,,,,,,,,,,,,,,,,,,,,,,,,,,,,,0,0,0,0,0,0,0,0,0,0,0,0,0,0,0,0,,,,,,,,,,,
267,2030174,1745089152241,0.0,187.91,,0.1,0.04,0.97,2.0,-1.0,0.0,0.97,1.81,54.0,2900.0,76.2,4.23,,14.28,1.08,91.6,,19.8,5.0,,,,,,,,,,,,0,0,0,0,0,0,0,0,0,0,0,0,0,0,0,0,,,,,0.0,,,,,,
268,2030194,1745089152261,,,,,,,,,,,,,,,,,,,,,,,,,,,,,,,,,,0,0,0,0,0,0,0,0,0,0,0,0,0,0,0,0,,,,,,,,,,,
269,2030214,1745089152281,0.0,188.03,,0.08,0.03,0.97,3.0,-1.0,0.0,0.97,1.81,54.0,2876.0,76.2,4.23,,14.28,1.106,91.6,,19.8,5.0,12.0,0.0,12.0,12.0,0.0,180.0,0.0,0.0,2.26,,,0,0,0,0,0,0,0,0,0,0,0,0,0,0,0,0,2.0,,,,0.0,39.239925,-77.965622,18.1,34.0,3.0,0.9
270,2030234,1745089152301,,,,,,,,,,,,,,,,,,,,,,,,,,,,,,,,,,0,0,0,0,0,0,0,0,0,0,0,0,0,0,0,0,,,,,,,,,,,
271,2030254,1745089152321,0.0,188.03,,0.07,-0.05,1.03,3.0,-1.0,0.0,1.03,1.81,57.0,2858.0,76.2,4.23,,14.32,1.132,91.6,,20.1,5.0,,,,,,,,,,,,0,0,0,0,0,0,0,0,0,0,0,0,0,0,0,0,,,,,0.0,,,,,,
272,2030274,1745089152341,,,,,,,,,,,,,,,,,,,,,,,,,,,,,,,,,,0,0,0,0,0,0,0,0,0,0,0,0,0,0,0,0,,,,,,,,,,,
273,2030294,1745089152361,0.0,188.03,,0.08,-0.06,1.05,3.0,-1.0,0.0,1.05,1.81,58.0,2858.0,76.2,4.13,,14.31,1.14,91.6,,20.1,5.0,,,,,,,,,,,,0,0,0,0,0,0,0,0,0,0,0,0,0,0,0,0,,,,,0.0,,,,,,
274,2030314,1745089152381,,,,,,,,,,,,,,,,,,,,,,,12.0,0.0,12.0,12.0,0.0,34.0,0.0,0.0,2.26,,,0,0,0,0,0,0,0,0,0,0,0,0,0,0,0,0,2.0,,,,,39.239922,-77.965622,18.56,34.0,3.0,0.9
275,2030334,1745089152401,0.0,188.03,,0.09,0.02,1.03,2.0,0.0,1.0,1.04,1.81,57.0,2884.0,76.2,4.09,,14.31,1.14,91.6,,20.4,5.0,,,,,,,,,,,,0,0,0,0,0,0,0,0,0,0,0,0,0,0,0,0,,,,,0.0,,,,,,
276,2030354,1745089152421,,,,,,,,,,,,,,,,,,,,,,,,,,,,,,,,,,0,0,0,0,0,0,0,0,0,0,0,0,0,0,0,0,,,,,,,,,,,
277,2030374,1745089152441,0.0,188.16,,0.09,0.07,0.97,2.0,0.0,1.0,0.98,1.81,54.0,2884.0,76.2,4.09,,14.28,1.135,91.6,,20.4,5.0,,,,,,,,,,,,0,0,0,0,0,0,0,0,0,0,0,0,0,0,0,0,,,,,0.0,,,,,,
278,2030394,1745089152461,,,,,,,,,,,,,,,,,,,,,,,,,,,,,,,,,,0,0,0,0,0,0,0,0,0,0,0,0,0,0,0,0,,,,,,,,,,,
279,2030414,1745089152481,0.0,188.16,13.62,0.1,0.12,0.89,2.0,-1.0,1.0,0.9,1.81,50.0,2959.0,76.1,4.17,15.0,14.26,1.124,91.6,171.0,20.6,5.0,12.0,0.0,12.0,12.0,0.0,229.0,0.0,0.0,2.26,0.0,0.0,0,0,0,0,0,0,0,0,0,0,0,0,0,0,0,0,2.0,0.0,0.0,0.0,0.0,39.239918,-77.96563,18.73,34.0,3.0,0.9
280,2030434,1745089152501,,,,,,,,,,,,,,,,,,,,,,,,,,,,,,,,,,0,0,0,0,0,0,0,0,0,0,0,0,0,0,0,0,,,,,,,,,,,
281,2030454,1745089152521,0.0,188.16,,0.09,0.13,0.81,2.0,-1.0,1.0,0.83,1.81,46.0,2996.0,76.1,4.14,,14.34,1.137,91.6,,20.6,5.0,,,,,,,,,,,,0,0,0,0,0,0,0,0,0,0,0,0,0,0,0,0,,,,,0.0,,,,,,
282,2030474,1745089152541,,,,,,,,,,,,,,,,,,,,,,,,,,,,,,,,,,0,0,0,0,0,0,0,0,0,0,0,0,0,0,0,0,,,,,,,,,,,
283,2030494,1745089152561,0.0,188.16,,0.09,0.13,0.75,2.0,-1.0,1.0,0.76,1.81,42.0,2932.0,76.2,4.09,,14.31,1.147,91.6,,20.6,5.0,,,,,,,,,,,,0,0,0,0,0,0,0,0,0,0,0,0,0,0,0,0,,,,,0.0,,,,,,
284,2030514,1745089152581,,,,,,,,,,,,,,,,,,,,,,,12.0,0.0,12.0,12.0,0.0,80.0,0.0,0.0,2.25,,,0,0,0,0,0,0,0,0,0,0,0,0,0,0,0,0,2.0,,,,,39.239914,-77.96563,19.06,34.0,3.0,0.9
285,2030534,1745089152603,0.0,188.29,,0.07,0.17,0.7,2.0,-1.0,1.0,0.73,1.81,40.0,2941.0,76.2,4.1,,14.31,1.147,91.6,,20.8,5.0,,,,,,,,,,,,0,0,0,0,0,0,0,0,0,0,0,0,0,0,0,0,,,,,0.0,,,,,,
286,2030554,1745089152623,,,,,,,,,,,,,,,,,,,,,,,,,,,,,,,,,,0,0,0,0,0,0,0,0,0,0,0,0,0,0,0,0,,,,,,,,,,,
287,2030574,1745089152643,0.0,188.29,,0.07,0.17,0.65,3.0,0.0,0.0,0.68,1.81,37.0,2941.0,76.2,4.1,,14.3,1.154,91.6,,20.8,5.0,,,,,,,,,,,,0,0,0,0,0,0,0,0,0,0,0,0,0,0,0,0,,,,,0.0,,,,,,
288,2030594,1745089152663,,,,,,,,,,,,,,,,,,,,,,,,,,,,,,,,,,0,0,0,0,0,0,0,0,0,0,0,0,0,0,0,0,,,,,,,,,,,
289,2030614,1745089152683,0.0,188.29,,0.07,0.18,0.61,3.0,0.0,0.0,0.64,1.81,35.0,3077.0,76.2,4.1,,14.24,1.162,91.6,,21.4,5.0,12.0,0.0,13.0,12.0,0.0,45.0,0.0,0.0,2.26,,,0,0,0,0,0,0,0,0,0,0,0,0,0,0,0,0,2.0,,,,0.0,39.23991,-77.96563,19.36,34.0,3.0,0.9
290,2030634,1745089152701,,,,,,,,,,,,,,,,,,,,,,,,,,,,,,,,,,0,0,0,0,0,0,0,0,0,0,0,0,0,0,0,0,,,,,,,,,,,
291,2030654,1745089152721,0.0,188.41,,0.11,0.23,0.6,3.0,-1.0,1.0,0.65,1.81,36.0,3122.0,76.2,4.09,,14.3,1.158,91.6,,21.4,5.0,,,,,,,,,,,,0,0,0,0,0,0,0,0,0,0,0,0,0,0,0,0,,,,,0.0,,,,,,
292,2030674,1745089152741,,,,,,,,,,,,,,,,,,,,,,,,,,,,,,,,,,0,0,0,0,0,0,0,0,0,0,0,0,0,0,0,0,,,,,,,,,,,
293,2030694,1745089152761,0.0,188.41,,0.13,0.31,0.65,2.0,0.0,1.0,0.73,1.81,41.0,3030.0,76.2,4.12,,14.32,1.178,91.6,,21.4,5.0,,,,,,,,,,,,0,0,0,0,0,0,0,0,0,0,0,0,0,0,0,0,,,,,0.0,,,,,,
294,2030714,1745089152781,,,,,,,,,,,,,,,,,,,,,,,13.0,0.0,13.0,13.0,0.0,231.0,0.0,0.0,2.26,,,0,0,0,0,0,0,0,0,0,0,0,0,0,0,0,0,2.0,,,,,39.239906,-77.965637,19.67,34.0,3.0,0.9
295,2030734,1745089152801,0.0,188.54,,0.14,0.31,0.74,2.0,0.0,2.0,0.81,1.81,45.0,3051.0,76.1,4.12,,14.32,1.178,91.6,,21.5,5.0,,,,,,,,,,,,0,0,0,0,0,0,0,0,0,0,0,0,0,0,0,0,,,,,0.0,,,,,,
296,2030754,1745089152821,,,,,,,,,,,,,,,,,,,,,,,,,,,,,,,,,,0,0,0,0,0,0,0,0,0,0,0,0,0,0,0,0,,,,,,,,,,,
297,2030774,1745089152841,0.0,188.54,,0.13,0.24,0.82,3.0,-1.0,2.0,0.87,1.81,48.0,3051.0,76.1,4.12,,14.28,1.19,91.6,,21.5,5.0,,,,,,,,,,,,0,0,0,0,0,0,0,0,0,0,0,0,0,0,0,0,,,,,0.0,,,,,,
298,2030794,1745089152861,,,,,,,,,,,,,,,,,,,,,,,,,,,,,,,,,,0,0,0,0,0,0,0,0,0,0,0,0,0,0,0,0,,,,,,,,,,,
299,2030814,1745089152881,0.0,188.54,,0.11,0.16,0.9,3.0,0.0,1.0,0.92,1.81,51.0,3159.0,76.1,4.09,,14.27,1.198,91.6,,22.0,5.0,13.0,0.0,13.0,13.0,0.0,241.0,0.0,0.0,2.26,,,0,0,0,0,0,0,0,0,0,0,0,0,0,0,0,0,2.0,,,,0.0,39.239906,-77.965637,20.01,34.0,3.0,0.9
300,2030834,1745089152903,,,,,,,,,,,,,,,,,,,,,,,,,,,,,,,,,,0,0,0,0,0,0,0,0,0,0,0,0,0,0,0,0,,,,,,,,,,,
301,2030854,1745089152923,0.0,188.66,,0.09,0.19,0.85,4.0,-1.0,0.0,0.87,1.81,48.0,3121.0,76.1,4.13,,14.32,1.2,91.6,,22.0,5.0,,,,,,,,,,,,0,0,0,0,0,0,0,0,0,0,0,0,0,0,0,0,,,,,0.0,,,,,,
302,2030874,1745089152943,,,,,,,,,,,,,,,,,,,,,,,,,,,,,,,,,,0,0,0,0,0,0,0,0,0,0,0,0,0,0,0,0,,,,,,,,,,,
303,2030894,1745089152963,0.0,188.66,,0.1,0.25,0.82,4.0,-1.0,1.0,0.86,1.81,48.0,3127.0,76.2,4.14,,14.26,1.209,91.6,,22.0,5.0,,,,,,,,,,,,0,0,0,0,0,0,0,0,0,0,0,0,0,0,0,0,,,,,0.0,,,,,,
304,2030914,1745089152983,,,,,,,,,,,,,,,,,,,,,,,13.0,0.0,13.0,12.0,0.0,10.0,0.0,0.0,2.26,,,0,0,0,0,0,0,0,0,0,0,0,0,0,0,0,0,2.0,,,,,39.239902,-77.965645,20.43,34.0,3.0,0.9
305,2030934,1745089152992,0.0,188.79,,0.1,0.27,0.87,4.0,-1.0,1.0,0.91,1.81,51.0,3216.0,76.2,4.11,,14.26,1.209,91.6,,22.2,5.0,,,,,,,,,,,,0,0,0,0,0,0,0,0,0,0,0,0,0,0,0,0,,,,,0.0,,,,,,
306,2030954,1745089153012,,,,,,,,,,,,,,,,,,,,,,,,,,,,,,,,,,0,0,0,0,0,0,0,0,0,0,0,0,0,0,0,0,,,,,,,,,,,
307,2030974,1745089153032,0.0,188.79,,0.08,0.18,0.95,5.0,-1.0,0.0,0.97,1.81,54.0,3216.0,76.2,4.11,,14.27,1.223,91.6,,22.2,5.0,,,,,,,,,,,,0,0,0,0,0,0,0,0,0,0,0,0,0,0,0,0,,,,,0.0,,,,,,
308,2030994,1745089153052,,,,,,,,,,,,,,,,,,,,,,,,,,,,,,,,,,0,0,0,0,0,0,0,0,0,0,0,0,0,0,0,0,,,,,,,,,,,
309,2031014,1745089153072,0.0,188.66,,0.06,0.2,0.9,6.0,-1.0,0.0,0.93,1.81,51.0,3176.0,76.2,4.15,,14.3,1.245,91.6,,22.6,5.0,14.0,0.0,13.0,13.0,0.0,20.0,0.0,0.0,2.25,,,0,0,0,0,0,0,0,0,0,0,0,0,0,0,0,0,2.0,,,,0.0,39.239895,-77.965652,20.76,34.0,3.0,0.9
310,2031034,1745089153102,,,,,,,,,,,,,,,,,,,,,,,,,,,,,,,,,,0,0,0,0,0,0,0,0,0,0,0,0,0,0,0,0,,,,,,,,,,,
311,2031054,1745089153122,0.0,188.79,,0.09,0.23,0.92,5.0,-1.0,1.0,0.96,1.81,53.0,3249.0,76.3,4.16,,14.26,1.238,89.8,,22.6,5.0,,,,,,,,,,,,0,0,0,0,0,0,0,0,0,0,0,0,0,0,0,0,,,,,0.0,,,,,,
312,2031074,1745089153142,,,,,,,,,,,,,,,,,,,,,,,,,,,,,,,,,,0,0,0,0,0,0,0,0,0,0,0,0,0,0,0,0,,,,,,,,,,,
313,2031094,1745089153162,0.0,188.66,,0.08,0.15,1.01,5.0,-1.0,0.0,1.02,1.81,56.0,3259.0,76.2,4.13,,14.26,1.238,89.8,,22.6,5.0,,,,,,,,,,,,0,0,0,0,0,0,0,0,0,0,0,0,0,0,0,0,,,,,0.0,,,,,,
314,2031114,1745089153182,,,,,,,,,,,,,,,,,,,,,,,14.0,0.0,13.0,13.0,0.0,246.0,0.0,0.0,2.26,,,0,0,0,0,0,0,0,0,0,0,0,0,0,0,0,0,2.0,,,,,39.239891,-77.965652,20.92,34.0,3.0,0.9
315,2031134,1745089153202,0.0,188.66,,0.06,0.11,0.96,6.0,-1.0,0.0,0.97,0.97,100.0,3221.0,76.2,4.16,,14.26,1.242,89.8,,22.8,5.0,,,,,,,,,,,,0,0,0,0,0,0,0,0,0,0,0,0,0,0,0,0,,,,,0.0,,,,,,
316,2031154,1745089153222,,,,,,,,,,,,,,,,,,,,,,,,,,,,,,,,,,0,0,0,0,0,0,0,0,0,0,0,0,0,0,0,0,,,,,,,,,,,
317,2031174,1745089153242,0.0,188.79,,0.07,0.11,0.97,6.0,-1.0,0.0,0.98,0.98,100.0,3221.0,76.2,4.16,,14.3,1.246,89.8,,22.8,5.0,,,,,,,,,,,,0,0,0,0,0,0,0,0,0,0,0,0,0,0,0,0,,,,,0.0,,,,,,
318,2031194,1745089153262,,,,,,,,,,,,,,,,,,,,,,,,,,,,,,,,,,0,0,0,0,0,0,0,0,0,0,0,0,0,0,0,0,,,,,,,,,,,
319,2031214,1745089153282,0.0,188.79,,0.05,0.07,0.99,7.0,0.0,0.0,0.99,0.99,100.0,3281.0,76.2,4.18,,14.24,1.235,89.8,,23.6,5.0,13.0,0.0,13.0,13.0,0.0,14.0,0.0,0.0,2.26,,,0,0,0,0,0,0,0,0,0,0,0,0,0,0,0,0,2.0,,,,0.0,39.239887,-77.96566,21.28,34.0,3.0,0.9
320,2031234,1745089153302,,,,,,,,,,,,,,,,,,,,,,,,,,,,,,,,,,0,0,0,0,0,0,0,0,0,0,0,0,0,0,0,0,,,,,,,,,,,
321,2031254,1745089153322,0.0,188.79,,0.08,0.2,0.97,7.0,-1.0,0.0,1.0,1.0,100.0,3352.0,76.1,4.16,,14.27,1.22,89.8,,23.6,5.0,,,,,,,,,,,,0,0,0,0,0,0,0,0,0,0,0,0,0,0,0,0,,,,,0.0,,,,,,
322,2031274,1745089153342,,,,,,,,,,,,,,,,,,,,,,,,,,,,,,,,,,0,0,0,0,0,0,0,0,0,0,0,0,0,0,0,0,,,,,,,,,,,
323,2031294,1745089153362,0.0,188.66,,0.07,0.07,1.01,7.0,-1.0,0.0,1.01,1.01,100.0,3285.0,76.1,4.17,,14.35,1.224,89.8,,23.6,5.0,,,,,,,,,,,,0,0,0,0,0,0,0,0,0,0,0,0,0,0,0,0,,,,,0.0,,,,,,
324,2031314,1745089153382,,,,,,,,,,,,,,,,,,,,,,,14.0,0.0,14.0,14.0,0.0,242.0,0.0,0.0,2.26,,,0,0,0,0,0,0,0,0,0,0,0,0,0,0,0,0,2.0,,,,,39.239883,-77.965668,21.45,34.0,3.0,0.9
325,2031334,1745089153402,0.0,188.66,,0.08,0.15,0.97,7.0,-1.0,0.0,0.98,1.01,97.0,3413.0,76.1,4.17,,14.35,1.224,89.8,,23.6,5.0,,,,,,,,,,,,0,0,0,0,0,0,0,0,0,0,0,0,0,0,0,0,,,,,0.0,,,,,,
326,2031354,1745089153422,,,,,,,,,,,,,,,,,,,,,,,,,,,,,,,,,,0,0,0,0,0,0,0,0,0,0,0,0,0,0,0,0,,,,,,,,,,,
327,2031374,1745089153442,0.0,188.66,,0.07,0.04,1.0,7.0,0.0,0.0,1.0,1.01,99.0,3413.0,76.1,4.17,,14.24,1.234,89.8,,23.6,5.0,,,,,,,,,,,,0,0,0,0,0,0,0,0,0,0,0,0,0,0,0,0,,,,,0.0,,,,,,
328,2031394,1745089153462,,,,,,,,,,,,,,,,,,,,,,,,,,,,,,,,,,0,0,0,0,0,0,0,0,0,0,0,0,0,0,0,0,,,,,,,,,,,
329,2031414,1745089153482,0.0,188.66,13.63,0.06,0.12,0.95,7.0,0.0,0.0,0.96,1.01,95.0,3347.0,76.1,4.19,15.0,14.31,1.212,89.8,171.0,23.7,5.0,14.0,0.0,14.0,14.0,0.0,14.0,0.0,0.0,2.26,0.0,0.0,0,0,0,0,0,0,0,0,0,0,0,0,0,0,0,0,2.0,0.0,0.0,0.0,0.0,39.23988,-77.965668,21.74,34.0,3.0,0.9
330,2031434,1745089153502,,,,,,,,,,,,,,,,,,,,,,,,,,,,,,,,,,0,0,0,0,0,0,0,0,0,0,0,0,0,0,0,0,,,,,,,,,,,
331,2031454,1745089153522,0.0,188.79,,0.05,0.01,1.01,6.0,0.0,1.0,1.01,1.01,99.0,3339.0,76.2,4.2,,14.26,1.211,89.8,,23.7,5.0,,,,,,,,,,,,0,0,0,0,0,0,0,0,0,0,0,0,0,0,0,0,,,,,0.0,,,,,,
332,2031474,1745089153542,,,,,,,,,,,,,,,,,,,,,,,,,,,,,,,,,,0,0,0,0,0,0,0,0,0,0,0,0,0,0,0,0,,,,,,,,,,,
333,2031494,1745089153562,0.0,188.66,,0.06,0.14,0.97,6.0,-1.0,1.0,0.98,1.01,97.0,3470.0,76.2,4.18,,14.3,1.233,89.8,,23.7,5.0,,,,,,,,,,,,0,0,0,0,0,0,0,0,0,0,0,0,0,0,0,0,,,,,0.0,,,,,,
334,2031514,1745089153582,,,,,,,,,,,,,,,,,,,,,,,14.0,0.0,14.0,14.0,0.0,0.0,0.0,0.0,2.26,,,0,0,0,0,0,0,0,0,0,0,0,0,0,0,0,0,2.0,,,,,39.239876,-77.965668,22.06,34.0,3.0,0.9
335,2031534,1745089153602,0.0,188.66,,0.03,0.06,1.01,6.0,-1.0,0.0,1.02,1.02,100.0,3377.0,76.2,4.22,,14.3,1.233,89.8,,24.3,5.0,,,,,,,,,,,,0,0,0,0,0,0,0,0,0,0,0,0,0,0,0,0,,,,,0.0,,,,,,
336,2031554,1745089153622,,,,,,,,,,,,,,,,,,,,,,,,,,,,,,,,,,0,0,0,0,0,0,0,0,0,0,0,0,0,0,0,0,,,,,,,,,,,
337,2031574,1745089153642,0.0,188.54,,0.05,0.12,1.01,5.0,0.0,1.0,1.02,1.02,100.0,3377.0,76.2,4.22,,14.27,1.232,89.8,,24.3,5.0,,,,,,,,,,,,0,0,0,0,0,0,0,0,0,0,0,0,0,0,0,0,,,,,0.0,,,,,,
338,2031594,1745089153662,,,,,,,,,,,,,,,,,,,,,,,,,,,,,,,,,,0,0,0,0,0,0,0,0,0,0,0,0,0,0,0,0,,,,,,,,,,,
339,2031614,1745089153682,0.0,188.54,,0.05,0.1,0.98,5.0,0.0,0.0,0.99,1.02,97.0,3490.0,76.2,4.19,,14.3,1.226,89.8,,24.7,5.0,14.0,0.0,14.0,14.0,0.0,9.0,0.0,0.0,2.26,,,0,0,0,0,0,0,0,0,0,0,0,0,0,0,0,0,2.0,,,,0.0,39.239868,-77.965675,22.33,34.0,3.0,0.9
340,2031634,1745089153702,,,,,,,,,,,,,,,,,,,,,,,,,,,,,,,,,,0,0,0,0,0,0,0,0,0,0,0,0,0,0,0,0,,,,,,,,,,,
341,2031654,1745089153722,0.0,188.54,,0.04,0.02,1.0,5.0,0.0,0.0,1.0,1.02,98.0,3470.0,76.2,4.23,,14.31,1.232,89.8,,24.7,5.0,,,,,,,,,,,,0,0,0,0,0,0,0,0,0,0,0,0,0,0,0,0,,,,,0.0,,,,,,
342,2031674,1745089153742,,,,,,,,,,,,,,,,,,,,,,,,,,,,,,,,,,0,0,0,0,0,0,0,0,0,0,0,0,0,0,0,0,,,,,,,,,,,
343,2031694,1745089153762,0.0,188.41,,0.06,0.03,1.07,4.0,0.0,0.0,1.08,1.08,100.0,3684.0,76.1,4.26,,14.27,1.246,89.8,,24.7,5.0,,,,,,,,,,,,0,0,0,0,0,0,0,0,0,0,0,0,0,0,0,0,,,,,0.0,,,,,,
344,2031714,1745089153782,,,,,,,,,,,,,,,,,,,,,,,14.0,0.0,14.0,14.0,0.0,27.0,0.0,0.0,2.26,,,0,0,0,0,0,0,0,0,0,0,0,0,0,0,0,0,2.0,,,,,39.239864,-77.965675,22.61,34.0,3.0,0.9
345,2031734,1745089153802,0.0,188.41,,0.08,0.1,1.04,4.0,0.0,0.0,1.04,1.08,97.0,3407.0,71.2,4.23,,14.27,1.246,89.8,,25.2,5.0,,,,,,,,,,,,0,0,0,0,0,0,0,0,0,0,0,0,0,0,0,0,,,,,0.0,,,,,,
346,2031754,1745089153822,,,,,,,,,,,,,,,,,,,,,,,,,,,,,,,,,,0,0,0,0,0,0,0,0,0,0,0,0,0,0,0,0,,,,,,,,,,,
347,2031774,1745089153842,0.0,188.29,,0.04,0.02,1.02,4.0,0.0,0.0,1.02,1.08,95.0,3407.0,71.2,4.23,,14.26,1.237,89.8,,25.2,5.0,,,,,,,,,,,,0,0,0,0,0,0,0,0,0,0,0,0,0,0,0,0,,,,,0.0,,,,,,
348,2031794,1745089153862,,,,,,,,,,,,,,,,,,,,,,,,,,,,,,,,,,0,0,0,0,0,0,0,0,0,0,0,0,0,0,0,0,,,,,,,,,,,
349,2031814,1745089153882,0.0,188.29,,0.04,0.02,1.0,3.0,0.0,0.0,1.0,1.08,93.0,3672.0,70.5,4.22,,14.22,1.17,89.8,,26.3,5.0,15.0,0.0,15.0,15.0,0.0,22.0,0.0,0.0,2.26,,,0,0,0,0,0,0,0,0,0,0,0,0,0,0,0,0,2.0,,,,0.0,39.239861,-77.965683,22.8,34.0,3.0,0.9
350,2031834,1745089153902,,,,,,,,,,,,,,,,,,,,,,,,,,,,,,,,,,0,0,0,0,0,0,0,0,0,0,0,0,0,0,0,0,,,,,,,,,,,
351,2031854,1745089153922,0.0,188.29,,0.02,0.1,1.05,2.0,-1.0,0.0,1.05,1.08,98.0,3889.0,70.3,4.36,,14.3,1.167,89.8,,26.3,5.0,,,,,,,,,,,,0,0,0,0,0,0,0,0,0,0,0,0,0,0,0,0,,,,,0.0,,,,,,
352,2031874,1745089153942,,,,,,,,,,,,,,,,,,,,,,,,,,,,,,,,,,0,0,0,0,0,0,0,0,0,0,0,0,0,0,0,0,,,,,,,,,,,
353,2031894,1745089153962,0.0,188.29,,0.04,0.1,0.96,2.0,-1.0,-1.0,0.97,1.08,90.0,4285.0,70.3,4.7,,14.2,1.197,89.8,,26.3,5.0,,,,,,,,,,,,0,0,0,0,0,0,0,0,0,0,0,0,0,0,0,0,,,,,0.0,,,,,,
354,2031914,1745089153982,,,,,,,,,,,,,,,,,,,,,,,14.0,0.0,14.0,15.0,0.0,238.0,0.0,0.0,2.26,,,0,0,0,0,0,0,0,0,0,0,0,0,0,0,0,0,0.0,,,,,39.239857,-77.965691,23.33,34.0,3.0,0.9
355,2031934,1745089153993,0.0,188.29,,0.06,0.01,0.91,3.0,-1.0,-1.0,0.92,1.08,85.0,4644.0,70.1,4.88,,14.2,1.197,89.8,,30.7,5.0,,,,,,,,,,,,0,0,0,0,0,0,0,0,0,0,0,0,0,0,0,0,,,,,0.0,,,,,,
356,2031954,1745089154013,,,,,,,,,,,,,,,,,,,,,,,,,,,,,,,,,,0,0,0,0,0,0,0,0,0,0,0,0,0,0,0,0,,,,,,,,,,,
357,2031974,1745089154033,0.0,188.29,,0.02,0.07,0.99,3.0,0.0,-1.0,0.99,1.08,92.0,4644.0,70.1,4.88,,14.2,1.226,89.8,,30.7,5.0,,,,,,,,,,,,0,0,0,0,0,0,0,0,0,0,0,0,0,0,0,0,,,,,0.0,,,,,,
358,2031994,1745089154053,,,,,,,,,,,,,,,,,,,,,,,,,,,,,,,,,,0,0,0,0,0,0,0,0,0,0,0,0,0,0,0,0,,,,,,,,,,,
359,2032014,1745089154073,0.0,188.16,,0.03,0.11,0.99,2.0,0.0,0.0,1.0,1.08,93.0,4913.0,69.6,5.32,,14.19,1.243,89.8,,35.8,5.0,14.0,0.0,14.0,14.0,0.0,28.0,0.0,0.0,2.26,,,0,0,0,0,0,0,0,0,0,0,0,0,0,0,0,0,0.0,,,,0.0,39.239849,-77.965691,23.14,34.0,3.0,0.9
360,2032034,1745089154097,,,,,,,,,,,,,,,,,,,,,,,,,,,,,,,,,,0,0,0,0,0,0,0,0,0,0,0,0,0,0,0,0,,,,,,,,,,,
361,2032054,1745089154117,0.0,188.29,,-0.01,0.06,0.95,2.0,0.0,0.0,0.95,1.08,88.0,5392.0,69.4,5.38,,14.16,1.205,91.6,,35.8,5.0,,,,,,,,,,,,0,0,0,0,0,0,0,0,0,0,0,0,0,0,0,0,,,,,0.0,,,,,,
362,2032074,1745089154137,,,,,,,,,,,,,,,,,,,,,,,,,,,,,,,,,,0,0,0,0,0,0,0,0,0,0,0,0,0,0,0,0,,,,,,,,,,,
363,2032094,1745089154157,0.0,188.16,,-0.02,0.01,0.92,2.0,-1.0,-1.0,0.92,1.08,86.0,6206.0,63.3,4.95,,13.96,1.147,91.6,,35.8,5.0,,,,,,,,,,,,0,0,0,0,0,0,0,0,0,0,0,0,0,0,0,0,,,,,0.0,,,,,,
364,2032114,1745089154177,,,,,,,,,,,,,,,,,,,,,,,14.0,0.0,14.0,14.0,0.0,233.0,0.0,0.0,2.26,,,0,0,0,0,0,0,0,0,0,0,0,0,0,0,0,0,0.0,,,,,39.239845,-77.965698,22.92,33.0,3.0,0.9
365,2032134,1745089154199,0.0,188.03,,-0.01,-0.08,0.9,2.0,-1.0,-1.0,0.9,1.08,84.0,6962.0,41.3,5.06,,13.96,1.147,91.6,,45.0,5.0,,,,,,,,,,,,0,0,0,0,0,0,0,0,0,0,0,0,0,0,0,0,,,,,0.0,,,,,,
366,2032154,1745089154219,,,,,,,,,,,,,,,,,,,,,,,,,,,,,,,,,,0,0,0,0,0,0,0,0,0,0,0,0,0,0,0,0,,,,,,,,,,,
367,2032174,1745089154239,0.0,188.03,,-0.02,-0.15,0.96,2.0,0.0,-1.0,0.98,1.08,91.0,6962.0,41.3,5.06,,13.36,1.043,91.6,,45.0,5.0,,,,,,,,,,,,0,0,0,0,0,0,0,0,0,0,0,0,0,0,0,0,,,,,0.0,,,,,,
368,2032194,1745089154259,,,,,,,,,,,,,,,,,,,,,,,,,,,,,,,,,,0,0,0,0,0,0,0,0,0,0,0,0,0,0,0,0,,,,,,,,,,,
369,2032214,1745089154279,0.0,188.03,,-0.04,-0.1,0.94,0.0,0.0,0.0,0.94,1.08,88.0,8214.0,32.1,5.48,,12.52,1.029,91.6,,58.9,5.0,14.0,0.0,14.0,14.0,0.0,0.0,0.0,0.0,2.26,,,0,0,0,0,0,0,0,0,0,0,0,0,0,0,0,0,0.0,,,,0.0,39.239841,-77.965698,22.73,33.0,3.0,0.9
370,2032234,1745089154301,,,,,,,,,,,,,,,,,,,,,,,,,,,,,,,,,,0,0,0,0,0,0,0,0,0,0,0,0,0,0,0,0,,,,,,,,,,,
371,2032254,1745089154321,0.0,188.03,,-0.06,-0.1,0.92,-1.0,0.0,0.0,0.93,1.08,86.0,9723.0,25.8,4.62,,11.46,0.888,91.6,,58.9,5.0,,,,,,,,,,,,0,0,0,0,0,0,0,0,0,0,0,0,0,0,0,0,,,,,0.0,,,,,,
372,2032274,1745089154341,,,,,,,,,,,,,,,,,,,,,,,,,,,,,,,,,,0,0,0,0,0,0,0,0,0,0,0,0,0,0,0,0,,,,,,,,,,,
373,2032294,1745089154361,0.0,187.91,,-0.07,-0.14,0.96,-1.0,0.0,1.0,0.97,1.08,90.0,10890.0,16.5,3.6,,9.86,0.816,91.6,,58.9,5.0,,,,,,,,,,,,0,0,0,0,0,0,0,0,0,0,0,0,0,0,0,0,,,,,0.0,,,,,,
374,2032314,1745089154381,,,,,,,,,,,,,,,,,,,,,,,14.0,0.0,14.0,14.0,0.0,247.0,0.0,0.0,2.26,,,0,0,0,0,0,0,0,0,0,0,0,0,0,0,0,0,0.0,,,,,39.239838,-77.965706,22.38,33.0,3.0,0.9
375,2032334,1745089154401,0.0,187.91,,-0.07,-0.03,0.97,-1.0,0.0,1.0,0.97,1.08,90.0,11700.0,3.3,1.82,,9.86,0.816,91.6,,59.5,5.0,,,,,,,,,,,,0,0,0,0,0,0,0,0,0,0,0,0,0,0,0,0,,,,,0.0,,,,,,
376,2032354,1745089154421,,,,,,,,,,,,,,,,,,,,,,,,,,,,,,,,,,0,0,0,0,0,0,0,0,0,0,0,0,0,0,0,0,,,,,,,,,,,
377,2032374,1745089154441,0.0,187.91,,0.0,0.1,1.01,0.0,0.0,1.0,1.01,1.08,94.0,11700.0,3.3,1.82,,7.93,0.774,91.6,,59.5,5.0,,,,,,,,,,,,0,0,0,0,0,0,0,0,0,0,0,0,0,0,0,0,,,,,0.0,,,,,,
378,2032394,1745089154461,,,,,,,,,,,,,,,,,,,,,,,,,,,,,,,,,,0,0,0,0,0,0,0,0,0,0,0,0,0,0,0,0,,,,,,,,,,,
379,2032414,1745089154481,0.0,187.91,13.52,-0.02,0.08,1.07,1.0,0.0,1.0,1.08,1.08,100.0,11933.0,1.0,1.4,15.0,6.44,0.765,91.6,173.0,60.0,5.0,14.0,0.0,14.0,14.0,0.0,20.0,0.0,0.0,2.26,0.0,0.0,0,0,0,0,0,0,0,0,0,0,0,0,0,0,0,0,0.0,0.0,0.0,0.0,0.0,39.23983,-77.965714,22.09,33.0,3.0,0.9
380,2032434,1745089154501,,,,,,,,,,,,,,,,,,,,,,,,,,,,,,,,,,0,0,0,0,0,0,0,0,0,0,0,0,0,0,0,0,,,,,,,,,,,
381,2032454,1745089154521,0.0,187.78,,-0.06,-0.04,1.12,2.0,0.0,1.0,1.13,1.13,100.0,11876.0,1.0,1.4,,5.76,0.802,91.6,,60.0,5.0,,,,,,,,,,,,0,0,0,0,0,0,0,0,0,0,0,0,0,0,0,0,,,,,0.0,,,,,,
