,Interval,Utc,FrontBP,SteerAng,Battery,AccelX,AccelY,AccelZ,Yaw,Pitch,Roll,Gsum,GsumMax,GsumPct,RPM,TPS,InjectorPW,Baro,MAP,Lambda,IAT,EngineTemp,EOP,EOT,WSFR,WSFL,WSRR,WSRL,TCSet,TCSlip,TCComp,TCCut,Analog8,OilTemp,AA_On,ThermLF1,ThermLF2,ThermRR1,ThermRR2,ThermLF3,ThermLF4,ThermLF5,ThermLF6,ThermLF7,ThermLF8,ThermRR3,ThermRR4,ThermRR5,ThermRR6,ThermRR7,ThermRR8,Gear,AA_On1,AA_LowDrag,Fuel_Mix,AA_Packages,Latitude,Longitude,Speed,GPSSats,GPSQual,GPSDOP
0,2166834,1745089288905,,,,,,,,,,,,,,,,,,,,,,,,,,,,,,,,,,0,0,0,0,0,0,0,0,0,0,0,0,0,0,0,0,,,,,,,,,,,
1,2166854,1745089288925,0.0,183.51,,0.05,-0.12,0.8,2.0,0.0,-1.0,0.81,0.81,100.0,4489.0,14.2,3.47,,12.72,1.011,95.2,,28.2,5.0,,,,,,,,,,,,0,0,0,0,0,0,0,0,0,0,0,0,0,0,0,0,,,,,0.0,,,,,,
2,2166874,1745089288945,,,,,,,,,,,,,,,,,,,,,,,,,,,,,,,,,,0,0,0,0,0,0,0,0,0,0,0,0,0,0,0,0,,,,,,,,,,,
3,2166894,1745089288965,0.0,183.51,,0.08,-0.11,0.74,2.0,0.0,-1.0,0.75,0.81,93.0,4463.0,14.1,3.49,,12.79,1.02,95.2,,28.2,5.0,,,,,,,,,,,,0,0,0,0,0,0,0,0,0,0,0,0,0,0,0,0,,,,,0.0,,,,,,
4,2166914,1745089288985,,,,,,,,,,,,,,,,,,,,,,,0.0,0.0,0.0,0.0,0.0,0.0,0.0,0.0,2.26,,,0,0,0,0,0,0,0,0,0,0,0,0,0,0,0,0,0.0,,,,,39.239918,-77.96563,0.04,34.0,3.0,0.9
5,2166934,1745089288997,0.0,183.63,,0.1,-0.18,0.66,3.0,0.0,-2.0,0.7,0.81,86.0,4424.0,14.0,3.48,,12.68,1.02,95.2,,28.2,5.0,,,,,,,,,,,,0,0,0,0,0,0,0,0,0,0,0,0,0,0,0,0,,,,,0.0,,,,,,
6,2166954,1745089289017,,,,,,,,,,,,,,,,,,,,,,,,,,,,,,,,,,0,0,0,0,0,0,0,0,0,0,0,0,0,0,0,0,,,,,,,,,,,
7,2166974,1745089289037,0.0,183.63,,0.1,-0.23,0.63,3.0,0.0,-2.0,0.68,0.81,84.0,4419.0,14.0,3.53,,12.68,1.02,95.2,,26.9,5.0,,,,,,,,,,,,0,0,0,0,0,0,0,0,0,0,0,0,0,0,0,0,,,,,0.0,,,,,,
8,2166994,1745089289057,,,,,,,,,,,,,,,,,,,,,,,,,,,,,,,,,,0,0,0,0,0,0,0,0,0,0,0,0,0,0,0,0,,,,,,,,,,,
9,2167014,1745089289077,0.0,183.63,,0.04,-0.19,0.72,2.0,0.0,-1.0,0.75,0.81,93.0,4419.0,14.0,3.53,,12.72,1.02,95.2,,26.9,5.0,0.0,0.0,0.0,0.0,0.0,0.0,0.0,0.0,2.26,,,0,0,0,0,0,0,0,0,0,0,0,0,0,0,0,0,0.0,,,,0.0,39.239918,-77.96563,0.04,34.0,3.0,0.9
10,2167034,1745089289101,,,,,,,,,,,,,,,,,,,,,,,,,,,,,,,,,,0,0,0,0,0,0,0,0,0,0,0,0,0,0,0,0,,,,,,,,,,,
11,2167054,1745089289121,0.0,183.51,,0.0,-0.09,0.85,1.0,0.0,-1.0,0.85,0.85,100.0,4336.0,14.1,3.53,,12.79,1.009,95.2,,26.7,5.0,,,,,,,,,,,,0,0,0,0,0,0,0,0,0,0,0,0,0,0,0,0,,,,,0.0,,,,,,
12,2167074,1745089289141,,,,,,,,,,,,,,,,,,,,,,,,,,,,,,,,,,0,0,0,0,0,0,0,0,0,0,0,0,0,0,0,0,,,,,,,,,,,
13,2167094,1745089289161,0.0,183.51,,0.04,-0.07,0.83,1.0,0.0,-1.0,0.84,0.85,98.0,4302.0,14.2,3.52,,12.83,1.044,95.2,,26.7,5.0,,,,,,,,,,,,0,0,0,0,0,0,0,0,0,0,0,0,0,0,0,0,,,,,0.0,,,,,,
14,2167114,1745089289181,,,,,,,,,,,,,,,,,,,,,,,0.0,0.0,0.0,0.0,0.0,0.0,0.0,0.0,2.26,,,0,0,0,0,0,0,0,0,0,0,0,0,0,0,0,0,0.0,,,,,39.239918,-77.96563,0.04,34.0,3.0,0.9
15,2167134,1745089289200,0.0,183.38,,0.02,-0.15,0.81,1.0,0.0,-1.0,0.82,0.85,97.0,4185.0,14.3,3.54,,12.85,1.042,95.2,,26.7,5.0,,,,,,,,,,,,0,0,0,0,0,0,0,0,0,0,0,0,0,0,0,0,,,,,0.0,,,,,,
16,2167154,1745089289220,,,,,,,,,,,,,,,,,,,,,,,,,,,,,,,,,,0,0,0,0,0,0,0,0,0,0,0,0,0,0,0,0,,,,,,,,,,,
17,2167174,1745089289240,0.0,183.51,,-0.01,-0.05,0.96,0.0,0.0,0.0,0.96,0.96,100.0,4192.0,14.9,3.64,,12.85,1.042,95.2,,26.1,5.0,,,,,,,,,,,,0,0,0,0,0,0,0,0,0,0,0,0,0,0,0,0,,,,,0.0,,,,,,
18,2167194,1745089289260,,,,,,,,,,,,,,,,,,,,,,,,,,,,,,,,,,0,0,0,0,0,0,0,0,0,0,0,0,0,0,0,0,,,,,,,,,,,
19,2167214,1745089289280,0.0,183.38,,0.01,-0.1,0.87,1.0,0.0,-1.0,0.88,0.96,92.0,4192.0,14.9,3.64,,12.85,1.009,95.2,,26.1,5.0,0.0,0.0,0.0,0.0,0.0,0.0,0.0,0.0,2.25,,,0,0,0,0,0,0,0,0,0,0,0,0,0,0,0,0,0.0,,,,0.0,39.239918,-77.96563,0.04,34.0,3.0,0.9
20,2167234,1745089289304,,,,,,,,,,,,,,,,,,,,,,,,,,,,,,,,,,0,0,0,0,0,0,0,0,0,0,0,0,0,0,0,0,,,,,,,,,,,
21,2167254,1745089289324,0.0,183.38,,-0.0,-0.13,0.87,1.0,0.0,0.0,0.88,0.96,92.0,4249.0,15.8,3.75,,12.84,1.011,95.2,,26.0,5.0,,,,,,,,,,,,0,0,0,0,0,0,0,0,0,0,0,0,0,0,0,0,,,,,0.0,,,,,,
22,2167274,1745089289344,,,,,,,,,,,,,,,,,,,,,,,,,,,,,,,,,,0,0,0,0,0,0,0,0,0,0,0,0,0,0,0,0,,,,,,,,,,,
23,2167294,1745089289364,0.0,183.26,,-0.01,-0.01,1.0,0.0,0.0,0.0,1.0,1.0,100.0,4258.0,16.9,3.84,,12.92,1.032,95.2,,26.0,5.0,,,,,,,,,,,,0,0,0,0,0,0,0,0,0,0,0,0,0,0,0,0,,,,,0.0,,,,,,
24,2167314,1745089289384,,,,,,,,,,,,,,,,,,,,,,,0.0,0.0,0.0,0.0,0.0,0.0,0.0,0.0,2.26,,,0,0,0,0,0,0,0,0,0,0,0,0,0,0,0,0,0.0,,,,,39.239918,-77.96563,0.05,34.0,3.0,0.9
25,2167334,1745089289402,0.0,183.26,,0.0,-0.04,0.91,1.0,0.0,0.0,0.91,1.0,91.0,4224.0,19.5,3.9,,13.15,1.069,95.2,,26.0,5.0,,,,,,,,,,,,0,0,0,0,0,0,0,0,0,0,0,0,0,0,0,0,,,,,0.0,,,,,,
26,2167354,1745089289422,,,,,,,,,,,,,,,,,,,,,,,,,,,,,,,,,,0,0,0,0,0,0,0,0,0,0,0,0,0,0,0,0,,,,,,,,,,,
27,2167374,1745089289442,0.0,183.26,,-0.0,-0.11,0.83,1.0,0.0,-1.0,0.83,1.0,84.0,4260.0,20.0,3.92,,13.15,1.069,95.2,,26.4,5.0,,,,,,,,,,,,0,0,0,0,0,0,0,0,0,0,0,0,0,0,0,0,,,,,0.0,,,,,,
28,2167394,1745089289462,,,,,,,,,,,,,,,,,,,,,,,,,,,,,,,,,,0,0,0,0,0,0,0,0,0,0,0,0,0,0,0,0,,,,,,,,,,,
29,2167414,1745089289482,0.0,183.13,13.45,-0.04,-0.05,0.9,0.0,0.0,0.0,0.9,1.0,91.0,4260.0,20.0,3.92,15.0,13.23,1.043,95.2,192.0,26.4,5.0,0.0,0.0,0.0,0.0,0.0,0.0,0.0,0.0,2.26,0.0,0.0,0,0,0,0,0,0,0,0,0,0,0,0,0,0,0,0,0.0,0.0,0.0,0.0,0.0,39.239918,-77.96563,0.04,34.0,3.0,0.9
30,2167434,1745089289504,,,,,,,,,,,,,,,,,,,,,,,,,,,,,,,,,,0,0,0,0,0,0,0,0,0,0,0,0,0,0,0,0,,,,,,,,,,,
31,2167454,1745089289524,0.0,183.01,,-0.1,-0.01,1.01,-1.0,0.0,0.0,1.01,1.01,100.0,4414.0,20.1,3.91,,13.23,1.033,95.2,,27.1,5.0,,,,,,,,,,,,0,0,0,0,0,0,0,0,0,0,0,0,0,0,0,0,,,,,0.0,,,,,,
32,2167474,1745089289544,,,,,,,,,,,,,,,,,,,,,,,,,,,,,,,,,,0,0,0,0,0,0,0,0,0,0,0,0,0,0,0,0,,,,,,,,,,,
33,2167494,1745089289564,0.0,183.01,,-0.12,0.08,1.08,-1.0,0.0,1.0,1.09,1.09,100.0,4473.0,20.1,3.88,,13.23,1.031,95.2,,27.1,5.0,,,,,,,,,,,,0,0,0,0,0,0,0,0,0,0,0,0,0,0,0,0,,,,,0.0,,,,,,
34,2167514,1745089289584,,,,,,,,,,,,,,,,,,,,,,,0.0,0.0,0.0,0.0,0.0,0.0,0.0,0.0,2.26,,,0,0,0,0,0,0,0,0,0,0,0,0,0,0,0,0,0.0,,,,,39.239918,-77.96563,0.11,34.0,3.0,0.9
35,2167534,1745089289604,0.0,182.88,,-0.16,0.1,1.15,-2.0,0.0,1.0,1.17,1.17,100.0,4575.0,20.1,3.82,,13.16,1.05,95.2,,27.1,5.0,,,,,,,,,,,,0,0,0,0,0,0,0,0,0,0,0,0,0,0,0,0,,,,,0.0,,,,,,
36,2167554,1745089289624,,,,,,,,,,,,,,,,,,,,,,,,,,,,,,,,,,0,0,0,0,0,0,0,0,0,0,0,0,0,0,0,0,,,,,,,,,,,
37,2167574,1745089289644,0.0,182.88,,-0.19,0.07,1.14,-3.0,0.0,2.0,1.16,1.17,99.0,4660.0,20.3,3.77,,13.16,1.05,95.2,,28.3,5.0,,,,,,,,,,,,0,0,0,0,0,0,0,0,0,0,0,0,0,0,0,0,,,,,0.0,,,,,,
38,2167594,1745089289664,,,,,,,,,,,,,,,,,,,,,,,,,,,,,,,,,,0,0,0,0,0,0,0,0,0,0,0,0,0,0,0,0,,,,,,,,,,,
39,2167614,1745089289684,0.0,182.88,,-0.17,-0.04,1.06,-2.0,0.0,1.0,1.07,1.17,92.0,4660.0,20.3,3.77,,13.21,1.11,95.2,,28.3,5.0,0.0,0.0,0.0,0.0,0.0,0.0,0.0,0.0,2.26,,,0,0,0,0,0,0,0,0,0,0,0,0,0,0,0,0,0.0,,,,0.0,39.239918,-77.96563,0.04,34.0,3.0,0.9
40,2167634,1745089289704,,,,,,,,,,,,,,,,,,,,,,,,,,,,,,,,,,0,0,0,0,0,0,0,0,0,0,0,0,0,0,0,0,,,,,,,,,,,
41,2167654,1745089289724,0.0,183.01,,-0.11,-0.05,1.02,-1.0,0.0,0.0,1.03,1.17,88.0,4717.0,20.4,3.7,,13.23,1.162,95.2,,28.9,5.0,,,,,,,,,,,,0,0,0,0,0,0,0,0,0,0,0,0,0,0,0,0,,,,,0.0,,,,,,
42,2167674,1745089289744,,,,,,,,,,,,,,,,,,,,,,,,,,,,,,,,,,0,0,0,0,0,0,0,0,0,0,0,0,0,0,0,0,,,,,,,,,,,
43,2167694,1745089289764,0.0,182.88,,-0.13,0.06,1.08,-2.0,0.0,1.0,1.09,1.17,93.0,4705.0,20.4,3.66,,13.21,1.221,95.2,,28.9,5.0,,,,,,,,,,,,0,0,0,0,0,0,0,0,0,0,0,0,0,0,0,0,,,,,0.0,,,,,,
44,2167714,1745089289784,,,,,,,,,,,,,,,,,,,,,,,0.0,0.0,0.0,0.0,0.0,0.0,0.0,0.0,2.26,,,0,0,0,0,0,0,0,0,0,0,0,0,0,0,0,0,0.0,,,,,39.239918,-77.96563,0.05,34.0,3.0,0.9
45,2167734,1745089289804,0.0,182.88,,-0.12,-0.02,1.02,-2.0,0.0,1.0,1.03,1.17,88.0,4718.0,20.4,3.65,,13.21,1.224,95.2,,28.9,5.0,,,,,,,,,,,,0,0,0,0,0,0,0,0,0,0,0,0,0,0,0,0,,,,,0.0,,,,,,
46,2167754,1745089289824,,,,,,,,,,,,,,,,,,,,,,,,,,,,,,,,,,0,0,0,0,0,0,0,0,0,0,0,0,0,0,0,0,,,,,,,,,,,
47,2167774,1745089289844,0.0,183.01,,-0.07,-0.07,0.97,-1.0,0.0,0.0,0.97,1.17,83.0,4763.0,20.4,3.61,,13.21,1.224,95.2,,29.8,5.0,,,,,,,,,,,,0,0,0,0,0,0,0,0,0,0,0,0,0,0,0,0,,,,,0.0,,,,,,
48,2167794,1745089289864,,,,,,,,,,,,,,,,,,,,,,,,,,,,,,,,,,0,0,0,0,0,0,0,0,0,0,0,0,0,0,0,0,,,,,,,,,,,
49,2167814,1745089289884,0.0,182.88,,-0.1,0.03,1.03,-1.0,0.0,1.0,1.03,1.17,88.0,4763.0,20.4,3.61,,13.21,1.247,93.4,,29.8,5.0,0.0,0.0,0.0,0.0,0.0,0.0,0.0,0.0,2.26,,,0,0,0,0,0,0,0,0,0,0,0,0,0,0,0,0,0.0,,,,0.0,39.239918,-77.96563,0.0,34.0,3.0,0.9
50,2167834,1745089289904,,,,,,,,,,,,,,,,,,,,,,,,,,,,,,,,,,0,0,0,0,0,0,0,0,0,0,0,0,0,0,0,0,,,,,,,,,,,
51,2167854,1745089289924,0.0,182.88,,-0.09,-0.05,0.98,0.0,0.0,0.0,0.98,1.17,84.0,4789.0,20.4,3.6,,13.2,1.239,93.4,,30.1,5.0,,,,,,,,,,,,0,0,0,0,0,0,0,0,0,0,0,0,0,0,0,0,,,,,0.0,,,,,,
52,2167874,1745089289944,,,,,,,,,,,,,,,,,,,,,,,,,,,,,,,,,,0,0,0,0,0,0,0,0,0,0,0,0,0,0,0,0,,,,,,,,,,,
53,2167894,1745089289964,0.0,182.88,,-0.1,0.01,1.02,-1.0,0.0,1.0,1.02,1.17,88.0,4916.0,20.3,3.55,,13.28,1.233,93.4,,30.1,5.0,,,,,,,,,,,,0,0,0,0,0,0,0,0,0,0,0,0,0,0,0,0,,,,,0.0,,,,,,
54,2167914,1745089289984,,,,,,,,,,,,,,,,,,,,,,,0.0,0.0,0.0,0.0,0.0,0.0,0.0,0.0,2.26,,,0,0,0,0,0,0,0,0,0,0,0,0,0,0,0,0,0.0,,,,,39.239918,-77.96563,0.05,34.0,3.0,0.9
55,2167934,1745089289996,0.0,182.88,,-0.07,-0.03,0.98,0.0,0.0,0.0,0.99,1.17,84.0,4936.0,20.4,3.57,,13.12,1.101,93.4,,30.1,5.0,,,,,,,,,,,,0,0,0,0,0,0,0,0,0,0,0,0,0,0,0,0,,,,,0.0,,,,,,
56,2167954,1745089290016,,,,,,,,,,,,,,,,,,,,,,,,,,,,,,,,,,0,0,0,0,0,0,0,0,0,0,0,0,0,0,0,0,,,,,,,,,,,
57,2167974,1745089290036,0.0,182.88,,-0.1,0.0,1.01,-1.0,0.0,1.0,1.01,1.17,87.0,4909.0,20.5,3.59,,13.12,1.101,93.4,,30.6,5.0,,,,,,,,,,,,0,0,0,0,0,0,0,0,0,0,0,0,0,0,0,0,,,,,0.0,,,,,,
58,2167994,1745089290056,,,,,,,,,,,,,,,,,,,,,,,,,,,,,,,,,,0,0,0,0,0,0,0,0,0,0,0,0,0,0,0,0,,,,,,,,,,,
59,2168014,1745089290076,0.0,182.88,,-0.06,-0.07,0.97,0.0,0.0,0.0,0.97,1.17,83.0,4909.0,20.5,3.59,,13.15,1.066,93.4,,30.6,5.0,0.0,0.0,0.0,0.0,0.0,0.0,0.0,0.0,2.26,,,0,0,0,0,0,0,0,0,0,0,0,0,0,0,0,0,0.0,,,,0.0,39.239918,-77.96563,0.04,33.0,3.0,0.9
60,2168034,1745089290100,,,,,,,,,,,,,,,,,,,,,,,,,,,,,,,,,,0,0,0,0,0,0,0,0,0,0,0,0,0,0,0,0,,,,,,,,,,,
61,2168054,1745089290120,0.0,182.88,,-0.1,-0.01,1.0,-1.0,0.0,0.0,1.01,1.17,86.0,4920.0,20.9,3.61,,13.16,1.029,93.4,,30.6,5.0,,,,,,,,,,,,0,0,0,0,0,0,0,0,0,0,0,0,0,0,0,0,,,,,0.0,,,,,,
62,2168074,1745089290140,,,,,,,,,,,,,,,,,,,,,,,,,,,,,,,,,,0,0,0,0,0,0,0,0,0,0,0,0,0,0,0,0,,,,,,,,,,,
63,2168094,1745089290160,0.0,182.88,,-0.05,-0.05,0.97,0.0,0.0,0.0,0.97,1.17,83.0,4901.0,21.7,3.67,,13.25,1.029,93.4,,30.6,5.0,,,,,,,,,,,,0,0,0,0,0,0,0,0,0,0,0,0,0,0,0,0,,,,,0.0,,,,,,
64,2168114,1745089290180,,,,,,,,,,,,,,,,,,,,,,,0.0,0.0,0.0,0.0,0.0,0.0,0.0,0.0,2.26,,,0,0,0,0,0,0,0,0,0,0,0,0,0,0,0,0,0.0,,,,,39.239918,-77.96563,0.0,32.0,3.0,0.9
65,2168134,1745089290203,0.0,182.88,,-0.08,-0.05,0.99,0.0,0.0,0.0,1.0,1.17,85.0,4919.0,23.5,3.83,,13.27,1.03,93.4,,30.6,5.0,,,,,,,,,,,,0,0,0,0,0,0,0,0,0,0,0,0,0,0,0,0,,,,,0.0,,,,,,
66,2168154,1745089290223,,,,,,,,,,,,,,,,,,,,,,,,,,,,,,,,,,0,0,0,0,0,0,0,0,0,0,0,0,0,0,0,0,,,,,,,,,,,
67,2168174,1745089290243,0.0,182.88,,-0.09,-0.02,0.98,0.0,0.0,0.0,0.98,1.17,84.0,5172.0,24.0,3.78,,13.27,1.03,93.4,,30.6,5.0,,,,,,,,,,,,0,0,0,0,0,0,0,0,0,0,0,0,0,0,0,0,,,,,0.0,,,,,,
68,2168194,1745089290263,,,,,,,,,,,,,,,,,,,,,,,,,,,,,,,,,,0,0,0,0,0,0,0,0,0,0,0,0,0,0,0,0,,,,,,,,,,,
69,2168214,1745089290283,0.0,182.88,,-0.09,-0.02,0.95,0.0,0.0,0.0,0.96,1.17,82.0,5172.0,24.0,3.78,,13.35,1.03,93.4,,30.6,5.0,0.0,0.0,0.0,0.0,0.0,0.0,0.0,0.0,2.25,,,0,0,0,0,0,0,0,0,0,0,0,0,0,0,0,0,0.0,,,,0.0,39.239918,-77.96563,0.11,32.0,3.0,0.9
70,2168234,1745089290303,,,,,,,,,,,,,,,,,,,,,,,,,,,,,,,,,,0,0,0,0,0,0,0,0,0,0,0,0,0,0,0,0,,,,,,,,,,,
71,2168254,1745089290323,0.0,182.88,,-0.1,-0.01,0.95,0.0,0.0,0.0,0.95,1.17,82.0,5319.0,25.0,4.02,,13.28,1.033,93.4,,33.3,5.0,,,,,,,,,,,,0,0,0,0,0,0,0,0,0,0,0,0,0,0,0,0,,,,,0.0,,,,,,
72,2168274,1745089290343,,,,,,,,,,,,,,,,,,,,,,,,,,,,,,,,,,0,0,0,0,0,0,0,0,0,0,0,0,0,0,0,0,,,,,,,,,,,
73,2168294,1745089290363,0.0,182.88,,-0.08,0.01,1.0,0.0,0.0,0.0,1.0,1.17,86.0,5376.0,25.8,4.18,,13.27,1.006,93.4,,33.3,5.0,,,,,,,,,,,,0,0,0,0,0,0,0,0,0,0,0,0,0,0,0,0,,,,,0.0,,,,,,
74,2168314,1745089290383,,,,,,,,,,,,,,,,,,,,,,,0.0,0.0,0.0,0.0,0.0,0.0,0.0,0.0,2.26,,,0,0,0,0,0,0,0,0,0,0,0,0,0,0,0,0,0.0,,,,,39.239918,-77.96563,0.09,32.0,3.0,0.9
75,2168334,1745089290403,0.0,182.76,,-0.1,-0.09,0.93,1.0,0.0,0.0,0.94,1.17,81.0,5688.0,27.0,4.43,,13.2,1.016,93.4,,33.3,5.0,,,,,,,,,,,,0,0,0,0,0,0,0,0,0,0,0,0,0,0,0,0,,,,,0.0,,,,,,
76,2168354,1745089290423,,,,,,,,,,,,,,,,,,,,,,,,,,,,,,,,,,0,0,0,0,0,0,0,0,0,0,0,0,0,0,0,0,,,,,,,,,,,
77,2168374,1745089290443,0.0,182.88,,-0.11,-0.13,0.89,1.0,0.0,0.0,0.91,1.17,78.0,6228.0,27.7,4.59,,13.2,1.016,93.4,,36.2,5.0,,,,,,,,,,,,0,0,0,0,0,0,0,0,0,0,0,0,0,0,0,0,,,,,0.0,,,,,,
78,2168394,1745089290463,,,,,,,,,,,,,,,,,,,,,,,,,,,,,,,,,,0,0,0,0,0,0,0,0,0,0,0,0,0,0,0,0,,,,,,,,,,,
79,2168414,1745089290483,0.0,182.76,13.39,-0.1,-0.16,0.9,0.0,0.0,0.0,0.92,1.17,79.0,6228.0,27.7,4.59,15.0,12.92,1.038,93.4,191.0,36.2,5.0,0.0,0.0,0.0,0.0,0.0,0.0,0.0,0.0,2.26,0.0,0.0,0,0,0,0,0,0,0,0,0,0,0,0,0,0,0,0,0.0,0.0,0.0,0.0,0.0,39.239918,-77.96563,0.04,32.0,3.0,0.9
80,2168434,1745089290503,,,,,,,,,,,,,,,,,,,,,,,,,,,,,,,,,,0,0,0,0,0,0,0,0,0,0,0,0,0,0,0,0,,,,,,,,,,,
81,2168454,1745089290523,0.0,182.76,,-0.1,-0.07,0.96,0.0,0.0,0.0,0.97,1.17,83.0,6831.0,27.7,5.08,,12.59,1.078,93.4,,43.1,5.0,,,,,,,,,,,,0,0,0,0,0,0,0,0,0,0,0,0,0,0,0,0,,,,,0.0,,,,,,
82,2168474,1745089290543,,,,,,,,,,,,,,,,,,,,,,,,,,,,,,,,,,0,0,0,0,0,0,0,0,0,0,0,0,0,0,0,0,,,,,,,,,,,
83,2168494,1745089290563,0.0,182.76,,-0.07,-0.01,0.94,-1.0,0.0,1.0,0.95,1.17,81.0,7501.0,28.3,5.19,,12.31,1.087,93.4,,43.1,5.0,,,,,,,,,,,,0,0,0,0,0,0,0,0,0,0,0,0,0,0,0,0,,,,,0.0,,,,,,
84,2168514,1745089290583,,,,,,,,,,,,,,,,,,,,,,,0.0,0.0,0.0,0.0,0.0,0.0,0.0,0.0,2.26,,,0,0,0,0,0,0,0,0,0,0,0,0,0,0,0,0,0.0,,,,,39.239918,-77.96563,0.09,32.0,3.0,0.9
85,2168534,1745089290603,0.0,182.63,,-0.04,-0.06,1.03,0.0,0.0,0.0,1.03,1.17,88.0,8466.0,30.4,4.84,,11.97,1.022,93.4,,43.1,5.0,,,,,,,,,,,,0,0,0,0,0,0,0,0,0,0,0,0,0,0,0,0,,,,,0.0,,,,,,
86,2168554,1745089290623,,,,,,,,,,,,,,,,,,,,,,,,,,,,,,,,,,0,0,0,0,0,0,0,0,0,0,0,0,0,0,0,0,,,,,,,,,,,
87,2168574,1745089290643,0.0,182.63,,-0.05,-0.02,1.14,1.0,0.0,1.0,1.14,1.17,98.0,9968.0,33.1,4.77,,11.97,1.022,93.4,,51.3,5.0,,,,,,,,,,,,0,0,0,0,0,0,0,0,0,0,0,0,0,0,0,0,,,,,0.0,,,,,,
88,2168594,1745089290663,,,,,,,,,,,,,,,,,,,,,,,,,,,,,,,,,,0,0,0,0,0,0,0,0,0,0,0,0,0,0,0,0,,,,,,,,,,,
89,2168614,1745089290683,0.0,182.63,,-0.03,-0.2,1.09,2.0,0.0,0.0,1.11,1.17,95.0,9968.0,33.1,4.77,,11.65,0.899,93.4,,51.3,5.0,0.0,0.0,0.0,0.0,0.0,0.0,0.0,0.0,2.26,,,0,0,0,0,0,0,0,0,0,0,0,0,0,0,0,0,0.0,,,,0.0,39.239918,-77.96563,0.11,32.0,3.0,0.9
90,2168634,1745089290705,,,,,,,,,,,,,,,,,,,,,,,,,,,,,,,,,,0,0,0,0,0,0,0,0,0,0,0,0,0,0,0,0,,,,,,,,,,,
91,2168654,1745089290725,0.0,182.63,,-0.03,-0.32,1.06,3.0,0.0,0.0,1.11,1.17,95.0,11329.0,34.3,3.72,,11.25,0.867,93.4,,50.8,5.0,,,,,,,,,,,,0,0,0,0,0,0,0,0,0,0,0,0,0,0,0,0,,,,,0.0,,,,,,
92,2168674,1745089290745,,,,,,,,,,,,,,,,,,,,,,,,,,,,,,,,,,0,0,0,0,0,0,0,0,0,0,0,0,0,0,0,0,,,,,,,,,,,
93,2168694,1745089290765,0.0,182.38,,-0.07,-0.21,1.0,3.0,0.0,-1.0,1.03,1.17,88.0,12400.0,36.6,3.75,,11.02,0.867,93.4,,50.8,5.0,,,,,,,,,,,,0,0,0,0,0,0,0,0,0,0,0,0,0,0,0,0,,,,,0.0,,,,,,
94,2168714,1745089290785,,,,,,,,,,,,,,,,,,,,,,,0.0,0.0,0.0,0.0,0.0,0.0,0.0,0.0,2.26,,,0,0,0,0,0,0,0,0,0,0,0,0,0,0,0,0,0.0,,,,,39.239918,-77.96563,0.0,32.0,3.0,0.9
95,2168734,1745089290805,0.0,182.38,,-0.02,-0.04,1.0,1.0,0.0,0.0,1.0,1.17,86.0,13258.0,38.7,3.21,,10.93,0.89,93.4,,50.8,5.0,,,,,,,,,,,,0,0,0,0,0,0,0,0,0,0,0,0,0,0,0,0,,,,,0.0,,,,,,
96,2168754,1745089290825,,,,,,,,,,,,,,,,,,,,,,,,,,,,,,,,,,0,0,0,0,0,0,0,0,0,0,0,0,0,0,0,0,,,,,,,,,,,
97,2168774,1745089290845,0.0,182.38,,-0.01,0.01,0.99,1.0,0.0,0.0,0.99,1.17,84.0,13863.0,43.9,3.61,,10.93,0.89,93.4,,60.0,5.0,,,,,,,,,,,,0,0,0,0,0,0,0,0,0,0,0,0,0,0,0,0,,,,,0.0,,,,,,
98,2168794,1745089290865,,,,,,,,,,,,,,,,,,,,,,,,,,,,,,,,,,0,0,0,0,0,0,0,0,0,0,0,0,0,0,0,0,,,,,,,,,,,
99,2168814,1745089290885,0.0,182.25,,-0.04,-0.02,1.03,1.0,0.0,0.0,1.03,1.17,88.0,13863.0,43.9,3.61,,11.13,0.958,91.6,,60.0,5.0,0.0,0.0,0.0,0.0,0.0,0.0,0.0,0.0,2.26,,,0,0,0,0,0,0,0,0,0,0,0,0,0,0,0,0,0.0,,,,0.0,39.239918,-77.96563,0.04,32.0,3.0,0.9
100,2168834,1745089290903,,,,,,,,,,,,,,,,,,,,,,,,,,,,,,,,,,0,0,0,0,0,0,0,0,0,0,0,0,0,0,0,0,,,,,,,,,,,
101,2168854,1745089290923,0.0,182.13,,-0.02,-0.07,1.0,0.0,0.0,1.0,1.01,1.17,86.0,13161.0,54.1,3.88,,11.69,1.01,91.6,,64.9,5.0,,,,,,,,,,,,0,0,0,0,0,0,0,0,0,0,0,0,0,0,0,0,,,,,0.0,,,,,,
102,2168874,1745089290943,,,,,,,,,,,,,,,,,,,,,,,,,,,,,,,,,,0,0,0,0,0,0,0,0,0,0,0,0,0,0,0,0,,,,,,,,,,,
103,2168894,1745089290963,0.0,182.13,,0.03,-0.15,0.98,0.0,0.0,1.0,0.99,1.17,85.0,12901.0,59.8,4.33,,12.48,1.246,91.6,,64.9,5.0,,,,,,,,,,,,0,0,0,0,0,0,0,0,0,0,0,0,0,0,0,0,,,,,0.0,,,,,,
104,2168914,1745089290983,,,,,,,,,,,,,,,,,,,,,,,0.0,0.0,0.0,0.0,0.0,0.0,0.0,0.0,2.26,,,0,0,0,0,0,0,0,0,0,0,0,0,0,0,0,0,0.0,,,,,39.239918,-77.96563,0.08,32.0,3.0,0.9
105,2168934,1745089290997,0.0,182.0,,0.1,-0.09,1.01,1.0,1.0,1.0,1.02,1.17,87.0,12755.0,61.2,4.42,,12.48,1.244,91.6,,64.9,5.0,,,,,,,,,,,,0,0,0,0,0,0,0,0,0,0,0,0,0,0,0,0,,,,,0.0,,,,,,
106,2168954,1745089291017,,,,,,,,,,,,,,,,,,,,,,,,,,,,,,,,,,0,0,0,0,0,0,0,0,0,0,0,0,0,0,0,0,,,,,,,,,,,
107,2168974,1745089291037,0.0,181.88,,0.2,-0.16,0.99,1.0,2.0,1.0,1.02,1.17,87.0,11497.0,62.4,4.0,,12.48,1.244,91.6,,60.7,5.0,,,,,,,,,,,,0,0,0,0,0,0,0,0,0,0,0,0,0,0,0,0,,,,,0.0,,,,,,
108,2168994,1745089291057,,,,,,,,,,,,,,,,,,,,,,,,,,,,,,,,,,0,0,0,0,0,0,0,0,0,0,0,0,0,0,0,0,,,,,,,,,,,
109,2169014,1745089291077,0.0,181.88,,0.26,-0.31,0.98,0.0,2.0,1.0,1.06,1.17,91.0,11497.0,62.4,4.0,,12.84,1.089,91.6,,60.7,5.0,0.0,0.0,0.0,0.0,0.0,0.0,0.0,0.0,2.26,,,0,0,0,0,0,0,0,0,0,0,0,0,0,0,0,0,0.0,,,,0.0,39.239918,-77.96563,0.4,32.0,3.0,0.9
110,2169034,1745089291100,,,,,,,,,,,,,,,,,,,,,,,,,,,,,,,,,,0,0,0,0,0,0,0,0,0,0,0,0,0,0,0,0,,,,,,,,,,,
111,2169054,1745089291120,0.0,181.62,,0.3,-0.43,0.98,-1.0,1.0,1.0,1.11,1.17,95.0,9704.0,62.0,5.38,,13.27,1.078,91.6,,53.8,5.0,,,,,,,,,,,,0,0,0,0,0,0,0,0,0,0,0,0,0,0,0,0,,,,,0.0,,,,,,
112,2169074,1745089291140,,,,,,,,,,,,,,,,,,,,,,,,,,,,,,,,,,0,0,0,0,0,0,0,0,0,0,0,0,0,0,0,0,,,,,,,,,,,
113,2169094,1745089291160,0.0,181.5,,0.36,-0.35,0.96,0.0,1.0,1.0,1.08,1.17,93.0,8379.0,62.6,5.26,,13.75,1.206,91.6,,53.8,5.0,,,,,,,,,,,,0,0,0,0,0,0,0,0,0,0,0,0,0,0,0,0,,,,,0.0,,,,,,
114,2169114,1745089291180,,,,,,,,,,,,,,,,,,,,,,,3.0,0.0,18.0,14.0,0.0,0.0,0.0,0.0,2.26,,,0,0,0,0,0,0,0,0,0,0,0,0,0,0,0,0,0.0,,,,,39.239918,-77.96563,2.44,32.0,3.0,0.9
115,2169134,1745089291202,0.0,181.25,,0.4,-0.12,0.98,-3.0,1.0,2.0,1.06,1.17,91.0,7304.0,70.2,5.49,,14.04,1.09,91.6,,53.8,5.0,,,,,,,,,,,,0,0,0,0,0,0,0,0,0,0,0,0,0,0,0,0,,,,,0.0,,,,,,
116,2169154,1745089291222,,,,,,,,,,,,,,,,,,,,,,,,,,,,,,,,,,0,0,0,0,0,0,0,0,0,0,0,0,0,0,0,0,,,,,,,,,,,
117,2169174,1745089291242,0.0,181.12,,0.45,-0.15,0.96,-2.0,1.0,1.0,1.07,1.17,91.0,6953.0,71.5,5.49,,14.04,1.09,91.6,,44.6,5.0,,,,,,,,,,,,0,0,0,0,0,0,0,0,0,0,0,0,0,0,0,0,,,,,0.0,,,,,,
118,2169194,1745089291262,,,,,,,,,,,,,,,,,,,,,,,,,,,,,,,,,,0,0,0,0,0,0,0,0,0,0,0,0,0,0,0,0,,,,,,,,,,,
119,2169214,1745089291282,0.0,181.0,,0.5,-0.13,1.01,-1.0,1.0,1.0,1.14,1.17,97.0,6953.0,71.5,5.49,,14.02,1.009,91.6,,44.6,5.0,6.0,0.0,30.0,28.0,0.0,0.0,0.0,0.0,2.26,,,0,0,0,0,0,0,0,0,0,0,0,0,0,0,0,0,0.0,,,,0.0,39.239918,-77.96563,7.46,32.0,3.0,0.9
120,2169234,1745089291304,,,,,,,,,,,,,,,,,,,,,,,,,,,,,,,,,,0,0,0,0,0,0,0,0,0,0,0,0,0,0,0,0,,,,,,,,,,,
121,2169254,1745089291324,0.0,181.12,,0.54,0.04,1.06,-1.0,1.0,1.0,1.19,1.19,100.0,6279.0,71.7,5.45,,14.18,1.029,91.6,,36.7,5.0,,,,,,,,,,,,0,0,0,0,0,0,0,0,0,0,0,0,0,0,0,0,,,,,0.0,,,,,,
122,2169274,1745089291344,,,,,,,,,,,,,,,,,,,,,,,,,,,,,,,,,,0,0,0,0,0,0,0,0,0,0,0,0,0,0,0,0,,,,,,,,,,,
123,2169294,1745089291364,0.0,181.12,,0.55,0.06,1.05,1.0,0.0,1.0,1.19,1.19,100.0,5886.0,71.9,5.47,,14.03,1.041,91.6,,36.7,5.0,,,,,,,,,,,,0,0,0,0,0,0,0,0,0,0,0,0,0,0,0,0,,,,,0.0,,,,,,
124,2169314,1745089291384,,,,,,,,,,,,,,,,,,,,,,,7.0,0.0,24.0,23.0,0.0,122.0,0.0,0.0,2.25,,,0,0,0,0,0,0,0,0,0,0,0,0,0,0,0,0,2.0,,,,,39.239914,-77.96563,9.96,32.0,3.0,0.9
125,2169334,1745089291404,0.0,181.0,,0.58,0.06,1.05,2.0,0.0,1.0,1.2,1.2,100.0,5373.0,71.9,5.49,,14.16,0.99,91.6,,36.7,5.0,,,,,,,,,,,,0,0,0,0,0,0,0,0,0,0,0,0,0,0,0,0,,,,,0.0,,,,,,
126,2169354,1745089291424,,,,,,,,,,,,,,,,,,,,,,,,,,,,,,,,,,0,0,0,0,0,0,0,0,0,0,0,0,0,0,0,0,,,,,,,,,,,
127,2169374,1745089291444,0.0,181.0,,0.64,0.12,1.08,2.0,0.0,1.0,1.27,1.27,100.0,4598.0,71.9,5.32,,14.16,0.99,91.6,,31.3,5.0,,,,,,,,,,,,0,0,0,0,0,0,0,0,0,0,0,0,0,0,0,0,,,,,0.0,,,,,,
128,2169394,1745089291464,,,,,,,,,,,,,,,,,,,,,,,,,,,,,,,,,,0,0,0,0,0,0,0,0,0,0,0,0,0,0,0,0,,,,,,,,,,,
129,2169414,1745089291484,0.0,181.0,13.43,0.7,0.07,1.05,3.0,0.0,1.0,1.27,1.27,100.0,4598.0,71.9,5.32,15.0,14.24,0.918,91.6,185.0,31.3,5.0,10.0,0.0,19.0,19.0,0.0,76.0,0.0,0.0,2.25,0.0,0.0,0,0,0,0,0,0,0,0,0,0,0,0,0,0,0,0,2.0,0.0,0.0,0.0,0.0,39.239914,-77.96563,13.36,32.0,3.0,0.9
130,2169434,1745089291504,,,,,,,,,,,,,,,,,,,,,,,,,,,,,,,,,,0,0,0,0,0,0,0,0,0,0,0,0,0,0,0,0,,,,,,,,,,,
131,2169454,1745089291524,0.0,181.0,,0.7,0.05,1.04,4.0,0.0,0.0,1.26,1.27,99.0,3792.0,71.8,4.66,,14.26,0.921,91.6,,20.4,5.0,,,,,,,,,,,,0,0,0,0,0,0,0,0,0,0,0,0,0,0,0,0,,,,,0.0,,,,,,
132,2169474,1745089291544,,,,,,,,,,,,,,,,,,,,,,,,,,,,,,,,,,0,0,0,0,0,0,0,0,0,0,0,0,0,0,0,0,,,,,,,,,,,
133,2169494,1745089291564,0.0,181.0,,0.61,0.06,1.06,4.0,-1.0,0.0,1.23,1.27,97.0,2712.0,71.8,4.03,,14.31,0.862,91.6,,20.4,5.0,,,,,,,,,,,,0,0,0,0,0,0,0,0,0,0,0,0,0,0,0,0,,,,,0.0,,,,,,
134,2169514,1745089291584,,,,,,,,,,,,,,,,,,,,,,,11.0,0.0,12.0,12.0,0.0,136.0,0.0,0.0,2.26,,,0,0,0,0,0,0,0,0,0,0,0,0,0,0,0,0,2.0,,,,,39.23991,-77.96563,16.15,32.0,3.0,0.9
135,2169534,1745089291604,0.0,181.0,,0.51,0.01,1.06,3.0,-1.0,0.0,1.17,1.27,93.0,2407.0,72.4,4.46,,14.27,0.831,91.6,,20.4,5.0,,,,,,,,,,,,0,0,0,0,0,0,0,0,0,0,0,0,0,0,0,0,,,,,0.0,,,,,,
136,2169554,1745089291624,,,,,,,,,,,,,,,,,,,,,,,,,,,,,,,,,,0,0,0,0,0,0,0,0,0,0,0,0,0,0,0,0,,,,,,,,,,,
137,2169574,1745089291644,0.0,181.0,,0.43,0.05,1.02,3.0,-1.0,0.0,1.11,1.27,88.0,2748.0,72.3,4.29,,14.27,0.831,91.6,,15.5,5.0,,,,,,,,,,,,0,0,0,0,0,0,0,0,0,0,0,0,0,0,0,0,,,,,0.0,,,,,,
138,2169594,1745089291664,,,,,,,,,,,,,,,,,,,,,,,,,,,,,,,,,,0,0,0,0,0,0,0,0,0,0,0,0,0,0,0,0,,,,,,,,,,,
139,2169614,1745089291684,0.0,181.0,,0.37,0.01,0.97,4.0,-1.0,0.0,1.04,1.27,82.0,2748.0,72.3,4.29,,14.26,0.842,91.6,,15.5,5.0,12.0,0.0,11.0,11.0,0.0,251.0,0.0,0.0,2.26,,,0,0,0,0,0,0,0,0,0,0,0,0,0,0,0,0,2.0,,,,0.0,39.239906,-77.965637,19.42,32.0,3.0,0.9
140,2169634,1745089291702,,,,,,,,,,,,,,,,,,,,,,,,,,,,,,,,,,0,0,0,0,0,0,0,0,0,0,0,0,0,0,0,0,,,,,,,,,,,
141,2169654,1745089291722,0.0,181.0,,0.4,0.07,0.92,3.0,0.0,0.0,1.0,1.27,79.0,3059.0,72.3,4.1,,14.27,0.853,91.6,,19.3,5.0,,,,,,,,,,,,0,0,0,0,0,0,0,0,0,0,0,0,0,0,0,0,,,,,0.0,,,,,,
142,2169674,1745089291742,,,,,,,,,,,,,,,,,,,,,,,,,,,,,,,,,,0,0,0,0,0,0,0,0,0,0,0,0,0,0,0,0,,,,,,,,,,,
143,2169694,1745089291762,0.0,180.87,,0.42,0.08,0.94,3.0,0.0,0.0,1.03,1.27,81.0,3223.0,72.9,4.14,,14.31,0.851,91.6,,19.3,5.0,,,,,,,,,,,,0,0,0,0,0,0,0,0,0,0,0,0,0,0,0,0,,,,,0.0,,,,,,
144,2169714,1745089291782,,,,,,,,,,,,,,,,,,,,,,,12.0,0.0,12.0,13.0,0.0,58.0,0.0,0.0,2.26,,,0,0,0,0,0,0,0,0,0,0,0,0,0,0,0,0,2.0,,,,,39.239906,-77.965637,18.82,32.0,3.0,0.9
145,2169734,1745089291804,0.0,181.0,,0.35,0.09,0.93,3.0,-1.0,0.0,1.0,1.27,79.0,2592.0,72.3,4.05,,14.28,0.863,91.6,,19.3,5.0,,,,,,,,,,,,0,0,0,0,0,0,0,0,0,0,0,0,0,0,0,0,,,,,0.0,,,,,,
146,2169754,1745089291824,,,,,,,,,,,,,,,,,,,,,,,,,,,,,,,,,,0,0,0,0,0,0,0,0,0,0,0,0,0,0,0,0,,,,,,,,,,,
147,2169774,1745089291844,0.0,181.0,,0.31,0.05,1.02,4.0,-1.0,0.0,1.07,1.27,84.0,2919.0,72.3,4.17,,14.28,0.863,91.6,,16.7,5.0,,,,,,,,,,,,0,0,0,0,0,0,0,0,0,0,0,0,0,0,0,0,,,,,0.0,,,,,,
148,2169794,1745089291864,,,,,,,,,,,,,,,,,,,,,,,,,,,,,,,,,,0,0,0,0,0,0,0,0,0,0,0,0,0,0,0,0,,,,,,,,,,,
149,2169814,1745089291884,0.0,181.0,,0.27,0.0,1.1,5.0,-1.0,0.0,1.14,1.27,90.0,2919.0,72.3,4.17,,14.24,0.928,95.2,,16.7,5.0,13.0,0.0,13.0,12.0,0.0,235.0,0.0,0.0,2.25,,,0,0,0,0,0,0,0,0,0,0,0,0,0,0,0,0,3.0,,,,0.0,39.239902,-77.965645,18.7,32.0,3.0,0.9
150,2169834,1745089291904,,,,,,,,,,,,,,,,,,,,,,,,,,,,,,,,,,0,0,0,0,0,0,0,0,0,0,0,0,0,0,0,0,,,,,,,,,,,
151,2169854,1745089291924,0.0,181.12,,0.24,0.03,1.07,6.0,0.0,0.0,1.1,1.27,87.0,3152.0,72.3,4.05,,14.27,0.987,95.2,,19.3,5.0,,,,,,,,,,,,0,0,0,0,0,0,0,0,0,0,0,0,0,0,0,0,,,,,0.0,,,,,,
152,2169874,1745089291944,,,,,,,,,,,,,,,,,,,,,,,,,,,,,,,,,,0,0,0,0,0,0,0,0,0,0,0,0,0,0,0,0,,,,,,,,,,,
153,2169894,1745089291964,0.0,181.25,,0.25,0.09,0.99,6.0,-1.0,0.0,1.02,1.27,81.0,3144.0,72.5,4.11,,14.28,1.031,95.2,,19.3,5.0,,,,,,,,,,,,0,0,0,0,0,0,0,0,0,0,0,0,0,0,0,0,,,,,0.0,,,,,,
154,2169914,1745089291984,,,,,,,,,,,,,,,,,,,,,,,13.0,0.0,13.0,13.0,0.0,44.0,0.0,0.0,2.26,,,0,0,0,0,0,0,0,0,0,0,0,0,0,0,0,0,3.0,,,,,39.239895,-77.965652,19.85,32.0,3.0,0.9
155,2169934,1745089291996,0.0,181.25,,0.23,0.15,0.91,7.0,-1.0,0.0,0.95,1.27,75.0,2940.0,72.3,4.08,,14.3,1.072,95.2,,19.3,5.0,,,,,,,,,,,,0,0,0,0,0,0,0,0,0,0,0,0,0,0,0,0,,,,,0.0,,,,,,
156,2169954,1745089292016,,,,,,,,,,,,,,,,,,,,,,,,,,,,,,,,,,0,0,0,0,0,0,0,0,0,0,0,0,0,0,0,0,,,,,,,,,,,
157,2169974,1745089292036,0.0,181.37,,0.21,0.22,0.85,7.0,-1.0,0.0,0.9,1.27,71.0,3076.0,72.5,4.06,,14.3,1.072,95.2,,18.3,5.0,,,,,,,,,,,,0,0,0,0,0,0,0,0,0,0,0,0,0,0,0,0,,,,,0.0,,,,,,
158,2169994,1745089292056,,,,,,,,,,,,,,,,,,,,,,,,,,,,,,,,,,0,0,0,0,0,0,0,0,0,0,0,0,0,0,0,0,,,,,,,,,,,
159,2170014,1745089292076,0.0,181.5,,0.21,0.27,0.84,7.0,-1.0,0.0,0.91,1.27,71.0,3076.0,72.5,4.06,,14.26,1.142,95.2,,18.3,5.0,13.0,0.0,13.0,13.0,0.0,21.0,0.0,0.0,2.26,,,0,0,0,0,0,0,0,0,0,0,0,0,0,0,0,0,2.0,,,,0.0,39.239891,-77.965652,19.59,33.0,3.0,0.9
160,2170034,1745089292103,,,,,,,,,,,,,,,,,,,,,,,,,,,,,,,,,,0,0,0,0,0,0,0,0,0,0,0,0,0,0,0,0,,,,,,,,,,,
161,2170054,1745089292123,0.0,181.5,,0.22,0.25,0.91,7.0,-1.0,1.0,0.97,1.27,77.0,3180.0,72.2,4.03,,14.32,1.166,95.2,,19.1,5.0,,,,,,,,,,,,0,0,0,0,0,0,0,0,0,0,0,0,0,0,0,0,,,,,0.0,,,,,,
162,2170074,1745089292143,,,,,,,,,,,,,,,,,,,,,,,,,,,,,,,,,,0,0,0,0,0,0,0,0,0,0,0,0,0,0,0,0,,,,,,,,,,,
163,2170094,1745089292163,0.0,181.62,,0.2,0.16,1.0,7.0,-1.0,0.0,1.03,1.27,81.0,3108.0,72.2,4.1,,14.27,1.182,95.2,,19.1,5.0,,,,,,,,,,,,0,0,0,0,0,0,0,0,0,0,0,0,0,0,0,0,,,,,0.0,,,,,,
164,2170114,1745089292183,,,,,,,,,,,,,,,,,,,,,,,13.0,0.0,13.0,13.0,0.0,26.0,0.0,0.0,2.26,,,0,0,0,0,0,0,0,0,0,0,0,0,0,0,0,0,2.0,,,,,39.239887,-77.96566,20.26,33.0,3.0,0.9
165,2170134,1745089292201,0.0,181.75,,0.2,0.17,0.94,8.0,-1.0,0.0,0.98,1.27,77.0,3202.0,72.2,4.05,,14.24,1.207,95.2,,19.1,5.0,,,,,,,,,,,,0,0,0,0,0,0,0,0,0,0,0,0,0,0,0,0,,,,,0.0,,,,,,
166,2170154,1745089292221,,,,,,,,,,,,,,,,,,,,,,,,,,,,,,,,,,0,0,0,0,0,0,0,0,0,0,0,0,0,0,0,0,,,,,,,,,,,
167,2170174,1745089292241,0.0,181.75,,0.22,0.21,0.95,8.0,-1.0,1.0,1.0,1.27,79.0,3321.0,72.2,4.16,,14.24,1.207,95.2,,19.9,5.0,,,,,,,,,,,,0,0,0,0,0,0,0,0,0,0,0,0,0,0,0,0,,,,,0.0,,,,,,
168,2170194,1745089292261,,,,,,,,,,,,,,,,,,,,,,,,,,,,,,,,,,0,0,0,0,0,0,0,0,0,0,0,0,0,0,0,0,,,,,,,,,,,
169,2170214,1745089292281,0.0,181.88,,0.18,0.18,1.01,8.0,-1.0,0.0,1.04,1.27,82.0,3321.0,72.2,4.16,,14.36,1.247,95.2,,19.9,5.0,13.0,0.0,14.0,14.0,0.0,246.0,0.0,0.0,2.26,,,0,0,0,0,0,0,0,0,0,0,0,0,0,0,0,0,2.0,,,,0.0,39.239883,-77.96566,20.57,33.0,3.0,0.9
170,2170234,1745089292303,,,,,,,,,,,,,,,,,,,,,,,,,,,,,,,,,,0,0,0,0,0,0,0,0,0,0,0,0,0,0,0,0,,,,,,,,,,,
171,2170254,1745089292323,0.0,182.0,,0.2,0.18,1.06,9.0,-1.0,0.0,1.09,1.27,86.0,3176.0,72.2,4.12,,14.27,1.218,95.2,,19.1,5.0,,,,,,,,,,,,0,0,0,0,0,0,0,0,0,0,0,0,0,0,0,0,,,,,0.0,,,,,,
172,2170274,1745089292343,,,,,,,,,,,,,,,,,,,,,,,,,,,,,,,,,,0,0,0,0,0,0,0,0,0,0,0,0,0,0,0,0,,,,,,,,,,,
173,2170294,1745089292363,0.0,182.13,,0.18,0.1,1.09,9.0,-1.0,0.0,1.11,1.27,88.0,3423.0,72.3,4.11,,14.27,1.13,95.2,,19.1,5.0,,,,,,,,,,,,0,0,0,0,0,0,0,0,0,0,0,0,0,0,0,0,,,,,0.0,,,,,,
174,2170314,1745089292383,,,,,,,,,,,,,,,,,,,,,,,14.0,0.0,14.0,14.0,0.0,242.0,0.0,0.0,2.26,,,0,0,0,0,0,0,0,0,0,0,0,0,0,0,0,0,2.0,,,,,39.23988,-77.965668,20.92,33.0,3.0,0.9
175,2170334,1745089292403,0.0,182.13,,0.16,0.13,1.02,9.0,-1.0,0.0,1.04,1.27,82.0,3299.0,72.3,4.16,,14.32,1.112,95.2,,19.1,5.0,,,,,,,,,,,,0,0,0,0,0,0,0,0,0,0,0,0,0,0,0,0,,,,,0.0,,,,,,
176,2170354,1745089292423,,,,,,,,,,,,,,,,,,,,,,,,,,,,,,,,,,0,0,0,0,0,0,0,0,0,0,0,0,0,0,0,0,,,,,,,,,,,
177,2170374,1745089292443,0.0,182.25,,0.15,0.13,1.06,9.0,-1.0,0.0,1.08,1.27,85.0,3404.0,72.4,4.12,,14.32,1.112,95.2,,20.5,5.0,,,,,,,,,,,,0,0,0,0,0,0,0,0,0,0,0,0,0,0,0,0,,,,,0.0,,,,,,
178,2170394,1745089292463,,,,,,,,,,,,,,,,,,,,,,,,,,,,,,,,,,0,0,0,0,0,0,0,0,0,0,0,0,0,0,0,0,,,,,,,,,,,
179,2170414,1745089292483,0.0,182.25,13.57,0.12,0.14,1.02,10.0,-1.0,0.0,1.04,1.27,82.0,3404.0,72.4,4.12,15.0,14.26,1.135,95.2,180.0,20.5,5.0,14.0,0.0,14.0,14.0,0.0,4.0,0.0,0.0,2.26,0.0,0.0,0,0,0,0,0,0,0,0,0,0,0,0,0,0,0,0,0.0,0.0,0.0,0.0,0.0,39.239876,-77.965668,21.83,33.0,3.0,0.9
180,2170434,1745089292503,,,,,,,,,,,,,,,,,,,,,,,,,,,,,,,,,,0,0,0,0,0,0,0,0,0,0,0,0,0,0,0,0,,,,,,,,,,,
181,2170454,1745089292523,0.0,182.38,,0.13,0.15,1.08,10.0,0.0,0.0,1.1,1.27,87.0,3433.0,72.4,4.16,,14.27,1.151,95.2,,20.7,5.0,,,,,,,,,,,,0,0,0,0,0,0,0,0,0,0,0,0,0,0,0,0,,,,,0.0,,,,,,
182,2170474,1745089292543,,,,,,,,,,,,,,,,,,,,,,,,,,,,,,,,,,0,0,0,0,0,0,0,0,0,0,0,0,0,0,0,0,,,,,,,,,,,
183,2170494,1745089292563,0.0,182.38,,0.12,0.18,1.02,10.0,-1.0,0.0,1.05,1.27,83.0,3392.0,72.3,4.18,,14.28,1.188,95.2,,20.7,5.0,,,,,,,,,,,,0,0,0,0,0,0,0,0,0,0,0,0,0,0,0,0,,,,,0.0,,,,,,
184,2170514,1745089292583,,,,,,,,,,,,,,,,,,,,,,,14.0,0.0,14.0,14.0,0.0,243.0,0.0,0.0,2.26,,,0,0,0,0,0,0,0,0,0,0,0,0,0,0,0,0,0.0,,,,,39.239872,-77.965668,22.04,33.0,3.0,0.9
185,2170534,1745089292603,0.0,182.38,,0.08,0.11,1.05,10.0,-1.0,0.0,1.06,1.27,84.0,3502.0,72.3,4.16,,14.24,1.201,95.2,,20.7,5.0,,,,,,,,,,,,0,0,0,0,0,0,0,0,0,0,0,0,0,0,0,0,,,,,0.0,,,,,,
186,2170554,1745089292623,,,,,,,,,,,,,,,,,,,,,,,,,,,,,,,,,,0,0,0,0,0,0,0,0,0,0,0,0,0,0,0,0,,,,,,,,,,,
187,2170574,1745089292643,0.0,182.5,,0.1,0.2,1.05,9.0,-1.0,1.0,1.07,1.27,84.0,3408.0,72.2,4.22,,14.24,1.201,95.2,,20.9,5.0,,,,,,,,,,,,0,0,0,0,0,0,0,0,0,0,0,0,0,0,0,0,,,,,0.0,,,,,,
188,2170594,1745089292663,,,,,,,,,,,,,,,,,,,,,,,,,,,,,,,,,,0,0,0,0,0,0,0,0,0,0,0,0,0,0,0,0,,,,,,,,,,,
189,2170614,1745089292683,0.0,182.5,,0.09,0.19,1.01,10.0,-1.0,0.0,1.03,1.27,81.0,3408.0,72.2,4.22,,14.27,1.224,95.2,,20.9,5.0,15.0,0.0,14.0,14.0,0.0,29.0,0.0,0.0,2.26,,,0,0,0,0,0,0,0,0,0,0,0,0,0,0,0,0,2.0,,,,0.0,39.239864,-77.965675,22.38,33.0,3.0,0.9
190,2170634,1745089292703,,,,,,,,,,,,,,,,,,,,,,,,,,,,,,,,,,0,0,0,0,0,0,0,0,0,0,0,0,0,0,0,0,,,,,,,,,,,
191,2170654,1745089292723,0.0,182.5,,0.08,0.16,1.04,8.0,0.0,0.0,1.05,1.27,83.0,3509.0,72.3,4.17,,14.3,1.247,95.2,,21.0,5.0,,,,,,,,,,,,0,0,0,0,0,0,0,0,0,0,0,0,0,0,0,0,,,,,0.0,,,,,,
192,2170674,1745089292743,,,,,,,,,,,,,,,,,,,,,,,,,,,,,,,,,,0,0,0,0,0,0,0,0,0,0,0,0,0,0,0,0,,,,,,,,,,,
193,2170694,1745089292763,0.0,182.5,,0.09,0.21,1.03,8.0,0.0,0.0,1.05,1.27,83.0,3465.0,72.3,4.22,,14.28,1.247,95.2,,21.0,5.0,,,,,,,,,,,,0,0,0,0,0,0,0,0,0,0,0,0,0,0,0,0,,,,,0.0,,,,,,
194,2170714,1745089292783,,,,,,,,,,,,,,,,,,,,,,,15.0,0.0,15.0,15.0,0.0,9.0,0.0,0.0,2.26,,,0,0,0,0,0,0,0,0,0,0,0,0,0,0,0,0,2.0,,,,,39.239864,-77.965675,22.56,33.0,3.0,0.9
195,2170734,1745089292803,0.0,182.5,,0.08,0.2,0.99,8.0,0.0,0.0,1.01,1.27,80.0,3602.0,72.3,4.22,,14.2,1.248,95.2,,21.0,5.0,,,,,,,,,,,,0,0,0,0,0,0,0,0,0,0,0,0,0,0,0,0,,,,,0.0,,,,,,
196,2170754,1745089292823,,,,,,,,,,,,,,,,,,,,,,,,,,,,,,,,,,0,0,0,0,0,0,0,0,0,0,0,0,0,0,0,0,,,,,,,,,,,
197,2170774,1745089292843,0.0,182.5,,0.05,0.15,1.02,8.0,0.0,0.0,1.03,1.27,81.0,3525.0,72.4,4.24,,14.2,1.248,95.2,,21.3,5.0,,,,,,,,,,,,0,0,0,0,0,0,0,0,0,0,0,0,0,0,0,0,,,,,0.0,,,,,,
198,2170794,1745089292863,,,,,,,,,,,,,,,,,,,,,,,,,,,,,,,,,,0,0,0,0,0,0,0,0,0,0,0,0,0,0,0,0,,,,,,,,,,,
199,2170814,1745089292883,0.0,182.5,,0.09,0.14,0.99,7.0,0.0,0.0,1.0,1.27,79.0,3525.0,72.4,4.24,,14.22,1.242,91.6,,21.3,5.0,14.0,0.0,14.0,15.0,0.0,18.0,0.0,0.0,2.26,,,0,0,0,0,0,0,0,0,0,0,0,0,0,0,0,0,2.0,,,,0.0,39.239857,-77.965683,22.9,33.0,3.0,0.9
200,2170834,1745089292905,,,,,,,,,,,,,,,,,,,,,,,,,,,,,,,,,,0,0,0,0,0,0,0,0,0,0,0,0,0,0,0,0,,,,,,,,,,,
201,2170854,1745089292925,0.0,182.63,,0.08,0.13,1.02,6.0,0.0,0.0,1.03,1.27,81.0,3799.0,72.3,4.26,,14.23,1.248,91.6,,21.9,5.0,,,,,,,,,,,,0,0,0,0,0,0,0,0,0,0,0,0,0,0,0,0,,,,,0.0,,,,,,
202,2170874,1745089292945,,,,,,,,,,,,,,,,,,,,,,,,,,,,,,,,,,0,0,0,0,0,0,0,0,0,0,0,0,0,0,0,0,,,,,,,,,,,
203,2170894,1745089292965,0.0,182.63,,0.07,0.18,0.99,5.0,-1.0,0.0,1.0,1.27,79.0,3490.0,72.3,4.25,,14.3,1.247,91.6,,21.9,5.0,,,,,,,,,,,,0,0,0,0,0,0,0,0,0,0,0,0,0,0,0,0,,,,,0.0,,,,,,
204,2170914,1745089292985,,,,,,,,,,,,,,,,,,,,,,,15.0,0.0,15.0,15.0,0.0,64.0,0.0,0.0,2.26,,,0,0,0,0,0,0,0,0,0,0,0,0,0,0,0,0,2.0,,,,,39.239853,-77.965691,23.33,33.0,3.0,0.9
205,2170934,1745089292995,0.0,182.63,,0.06,0.16,0.95,5.0,-1.0,0.0,0.97,1.27,76.0,3660.0,72.3,4.24,,14.2,1.192,91.6,,21.9,5.0,,,,,,,,,,,,0,0,0,0,0,0,0,0,0,0,0,0,0,0,0,0,,,,,0.0,,,,,,
206,2170954,1745089293015,,,,,,,,,,,,,,,,,,,,,,,,,,,,,,,,,,0,0,0,0,0,0,0,0,0,0,0,0,0,0,0,0,,,,,,,,,,,
207,2170974,1745089293035,0.0,182.63,,0.06,0.13,0.98,5.0,-1.0,0.0,0.99,1.27,78.0,3654.0,72.4,4.29,,14.2,1.192,91.6,,22.2,5.0,,,,,,,,,,,,0,0,0,0,0,0,0,0,0,0,0,0,0,0,0,0,,,,,0.0,,,,,,
208,2170994,1745089293055,,,,,,,,,,,,,,,,,,,,,,,,,,,,,,,,,,0,0,0,0,0,0,0,0,0,0,0,0,0,0,0,0,,,,,,,,,,,
209,2171014,1745089293075,0.0,182.5,,0.06,0.11,1.0,4.0,0.0,0.0,1.01,1.01,100.0,3654.0,72.4,4.29,,14.26,1.192,91.6,,22.2,5.0,15.0,0.0,15.0,15.0,0.0,22.0,0.0,0.0,2.26,,,0,0,0,0,0,0,0,0,0,0,0,0,0,0,0,0,2.0,,,,0.0,39.239845,-77.965691,23.68,34.0,3.0,0.8
210,2171034,1745089293101,,,,,,,,,,,,,,,,,,,,,,,,,,,,,,,,,,0,0,0,0,0,0,0,0,0,0,0,0,0,0,0,0,,,,,,,,,,,
211,2171054,1745089293121,0.0,182.5,,0.06,0.08,0.99,3.0,0.0,0.0,0.99,1.01,98.0,3793.0,72.3,4.29,,14.23,1.233,91.6,,22.3,5.0,,,,,,,,,,,,0,0,0,0,0,0,0,0,0,0,0,0,0,0,0,0,,,,,0.0,,,,,,
212,2171074,1745089293141,,,,,,,,,,,,,,,,,,,,,,,,,,,,,,,,,,0,0,0,0,0,0,0,0,0,0,0,0,0,0,0,0,,,,,,,,,,,
213,2171094,1745089293161,0.0,182.5,,0.03,0.06,0.95,3.0,0.0,-1.0,0.96,1.01,94.0,3663.0,72.3,4.3,,14.26,1.229,91.6,,22.3,5.0,,,,,,,,,,,,0,0,0,0,0,0,0,0,0,0,0,0,0,0,0,0,,,,,0.0,,,,,,
214,2171114,1745089293181,,,,,,,,,,,,,,,,,,,,,,,15.0,0.0,15.0,16.0,0.0,44.0,0.0,0.0,2.26,,,0,0,0,0,0,0,0,0,0,0,0,0,0,0,0,0,2.0,,,,,39.239841,-77.965698,23.98,34.0,3.0,0.8
215,2171134,1745089293198,0.0,182.5,,0.04,0.06,0.97,2.0,0.0,0.0,0.98,1.01,97.0,3831.0,72.3,4.29,,14.26,1.247,91.6,,22.3,5.0,,,,,,,,,,,,0,0,0,0,0,0,0,0,0,0,0,0,0,0,0,0,,,,,0.0,,,,,,
216,2171154,1745089293218,,,,,,,,,,,,,,,,,,,,,,,,,,,,,,,,,,0,0,0,0,0,0,0,0,0,0,0,0,0,0,0,0,,,,,,,,,,,
217,2171174,1745089293238,0.0,182.5,,0.07,0.09,1.03,1.0,0.0,0.0,1.03,1.03,100.0,3744.0,72.3,4.36,,14.26,1.247,91.6,,22.8,5.0,,,,,,,,,,,,0,0,0,0,0,0,0,0,0,0,0,0,0,0,0,0,,,,,0.0,,,,,,
218,2171194,1745089293258,,,,,,,,,,,,,,,,,,,,,,,,,,,,,,,,,,0,0,0,0,0,0,0,0,0,0,0,0,0,0,0,0,,,,,,,,,,,
219,2171214,1745089293278,0.0,182.5,,0.07,0.05,1.02,0.0,0.0,0.0,1.02,1.03,99.0,3744.0,72.3,4.36,,14.28,1.248,91.6,,22.8,5.0,16.0,0.0,16.0,15.0,0.0,239.0,0.0,0.0,2.26,,,0,0,0,0,0,0,0,0,0,0,0,0,0,0,0,0,2.0,,,,0.0,39.239838,-77.965698,24.29,34.0,3.0,0.8
220,2171234,1745089293302,,,,,,,,,,,,,,,,,,,,,,,,,,,,,,,,,,0,0,0,0,0,0,0,0,0,0,0,0,0,0,0,0,,,,,,,,,,,
221,2171254,1745089293322,0.0,182.5,,0.05,-0.05,0.98,-1.0,0.0,0.0,0.98,1.03,95.0,3795.0,57.2,4.06,,14.2,1.244,91.6,,23.4,5.0,,,,,,,,,,,,0,0,0,0,0,0,0,0,0,0,0,0,0,0,0,0,,,,,0.0,,,,,,
222,2171274,1745089293342,,,,,,,,,,,,,,,,,,,,,,,,,,,,,,,,,,0,0,0,0,0,0,0,0,0,0,0,0,0,0,0,0,,,,,,,,,,,
223,2171294,1745089293362,0.0,182.5,,0.11,-0.05,0.94,-1.0,1.0,0.0,0.95,1.03,92.0,4002.0,51.5,5.09,,14.18,1.244,91.6,,23.4,5.0,,,,,,,,,,,,0,0,0,0,0,0,0,0,0,0,0,0,0,0,0,0,,,,,0.0,,,,,,
224,2171314,1745089293382,,,,,,,,,,,,,,,,,,,,,,,16.0,0.0,16.0,17.0,0.0,21.0,0.0,0.0,2.26,,,0,0,0,0,0,0,0,0,0,0,0,0,0,0,0,0,2.0,,,,,39.23983,-77.965706,24.78,34.0,3.0,0.8
225,2171334,1745089293402,0.0,182.5,,0.1,-0.03,0.95,-1.0,1.0,1.0,0.96,1.03,93.0,3822.0,51.4,5.13,,14.19,1.09,91.6,,23.4,5.0,,,,,,,,,,,,0,0,0,0,0,0,0,0,0,0,0,0,0,0,0,0,,,,,0.0,,,,,,
226,2171354,1745089293422,,,,,,,,,,,,,,,,,,,,,,,,,,,,,,,,,,0,0,0,0,0,0,0,0,0,0,0,0,0,0,0,0,,,,,,,,,,,
227,2171374,1745089293442,0.0,182.5,,0.11,-0.02,0.98,-2.0,1.0,1.0,0.98,1.03,95.0,4148.0,51.3,5.14,,14.19,1.09,91.6,,23.2,5.0,,,,,,,,,,,,0,0,0,0,0,0,0,0,0,0,0,0,0,0,0,0,,,,,0.0,,,,,,
228,2171394,1745089293462,,,,,,,,,,,,,,,,,,,,,,,,,,,,,,,,,,0,0,0,0,0,0,0,0,0,0,0,0,0,0,0,0,,,,,,,,,,,
229,2171414,1745089293482,0.0,182.5,13.56,0.19,0.07,0.99,-2.0,1.0,1.0,1.01,1.03,98.0,4148.0,51.3,5.14,15.0,14.24,0.991,91.6,176.0,23.2,5.0,16.0,0.0,17.0,16.0,0.0,8.0,0.0,0.0,2.26,0.0,0.0,0,0,0,0,0,0,0,0,0,0,0,0,0,0,0,0,0.0,0.0,0.0,0.0,0.0,39.239826,-77.965714,25.16,34.0,3.0,0.8
230,2171434,1745089293504,,,,,,,,,,,,,,,,,,,,,,,,,,,,,,,,,,0,0,0,0,0,0,0,0,0,0,0,0,0,0,0,0,,,,,,,,,,,
231,2171454,1745089293524,0.0,182.5,,0.18,0.08,1.0,-2.0,1.0,1.0,1.02,1.03,99.0,4202.0,51.3,5.15,,14.14,0.943,91.6,,24.3,5.0,,,,,,,,,,,,0,0,0,0,0,0,0,0,0,0,0,0,0,0,0,0,,,,,0.0,,,,,,
232,2171474,1745089293544,,,,,,,,,,,,,,,,,,,,,,,,,,,,,,,,,,0,0,0,0,0,0,0,0,0,0,0,0,0,0,0,0,,,,,,,,,,,
233,2171494,1745089293564,0.0,182.5,,0.15,0.01,0.91,-2.0,0.0,0.0,0.92,1.03,89.0,3914.0,51.1,5.13,,14.19,0.883,91.6,,24.3,5.0,,,,,,,,,,,,0,0,0,0,0,0,0,0,0,0,0,0,0,0,0,0,,,,,0.0,,,,,,
234,2171514,1745089293584,,,,,,,,,,,,,,,,,,,,,,,17.0,0.0,17.0,17.0,0.0,32.0,0.0,0.0,2.26,,,0,0,0,0,0,0,0,0,0,0,0,0,0,0,0,0,0.0,,,,,39.239822,-77.965714,25.88,34.0,3.0,0.8
235,2171534,1745089293604,0.0,182.63,,0.16,0.08,1.01,-3.0,0.0,1.0,1.02,1.03,99.0,4114.0,50.2,5.24,,14.18,0.868,91.6,,24.3,5.0,,,,,,,,,,,,0,0,0,0,0,0,0,0,0,0,0,0,0,0,0,0,,,,,0.0,,,,,,
236,2171554,1745089293624,,,,,,,,,,,,,,,,,,,,,,,,,,,,,,,,,,0,0,0,0,0,0,0,0,0,0,0,0,0,0,0,0,,,,,,,,,,,
237,2171574,1745089293644,0.0,182.63,,0.18,0.08,0.98,-2.0,1.0,0.0,1.0,1.03,96.0,4264.0,50.0,5.17,,14.18,0.868,91.6,,25.8,5.0,,,,,,,,,,,,0,0,0,0,0,0,0,0,0,0,0,0,0,0,0,0,,,,,0.0,,,,,,
238,2171594,1745089293664,,,,,,,,,,,,,,,,,,,,,,,,,,,,,,,,,,0,0,0,0,0,0,0,0,0,0,0,0,0,0,0,0,,,,,,,,,,,
239,2171614,1745089293684,0.0,182.63,,0.13,0.04,0.97,-3.0,1.0,1.0,0.98,1.03,95.0,4264.0,50.0,5.17,,14.1,0.909,91.6,,25.8,5.0,17.0,0.0,18.0,17.0,0.0,0.0,0.0,0.0,2.26,,,0,0,0,0,0,0,0,0,0,0,0,0,0,0,0,0,2.0,,,,0.0,39.239815,-77.965714,26.74,34.0,3.0,0.8
240,2171634,1745089293704,,,,,,,,,,,,,,,,,,,,,,,,,,,,,,,,,,0,0,0,0,0,0,0,0,0,0,0,0,0,0,0,0,,,,,,,,,,,
241,2171654,1745089293724,0.0,182.63,,0.14,0.09,1.02,-4.0,1.0,1.0,1.04,1.04,100.0,4267.0,50.1,5.18,,14.14,0.951,91.6,,26.5,5.0,,,,,,,,,,,,0,0,0,0,0,0,0,0,0,0,0,0,0,0,0,0,,,,,0.0,,,,,,
242,2171674,1745089293744,,,,,,,,,,,,,,,,,,,,,,,,,,,,,,,,,,0,0,0,0,0,0,0,0,0,0,0,0,0,0,0,0,,,,,,,,,,,
243,2171694,1745089293764,0.0,182.63,,0.16,0.05,0.94,-3.0,0.0,0.0,0.95,1.04,92.0,4283.0,50.0,5.15,,14.2,1.031,91.6,,26.5,5.0,,,,,,,,,,,,0,0,0,0,0,0,0,0,0,0,0,0,0,0,0,0,,,,,0.0,,,,,,
244,2171714,1745089293784,,,,,,,,,,,,,,,,,,,,,,,18.0,0.0,18.0,17.0,0.0,47.0,0.0,0.0,2.26,,,0,0,0,0,0,0,0,0,0,0,0,0,0,0,0,0,2.0,,,,,39.239807,-77.965721,27.19,34.0,3.0,0.8
245,2171734,1745089293804,0.0,182.63,,0.11,0.06,0.95,-5.0,0.0,1.0,0.96,1.04,92.0,4173.0,50.1,5.15,,14.2,1.013,91.6,,26.5,5.0,,,,,,,,,,,,0,0,0,0,0,0,0,0,0,0,0,0,0,0,0,0,,,,,0.0,,,,,,
246,2171754,1745089293824,,,,,,,,,,,,,,,,,,,,,,,,,,,,,,,,,,0,0,0,0,0,0,0,0,0,0,0,0,0,0,0,0,,,,,,,,,,,
247,2171774,1745089293844,0.0,182.63,,0.1,0.11,1.08,-6.0,1.0,1.0,1.09,1.09,100.0,4328.0,50.1,5.14,,14.2,1.013,91.6,,25.8,5.0,,,,,,,,,,,,0,0,0,0,0,0,0,0,0,0,0,0,0,0,0,0,,,,,0.0,,,,,,
248,2171794,1745089293864,,,,,,,,,,,,,,,,,,,,,,,,,,,,,,,,,,0,0,0,0,0,0,0,0,0,0,0,0,0,0,0,0,,,,,,,,,,,
249,2171814,1745089293884,0.0,182.63,,0.12,0.15,1.1,-6.0,1.0,1.0,1.12,1.12,100.0,4328.0,50.1,5.14,,14.15,0.978,91.6,,25.8,5.0,17.0,0.0,18.0,18.0,0.0,39.0,0.0,0.0,2.26,,,0,0,0,0,0,0,0,0,0,0,0,0,0,0,0,0,2.0,,,,0.0,39.239803,-77.965729,27.73,34.0,3.0,0.8
250,2171834,1745089293904,,,,,,,,,,,,,,,,,,,,,,,,,,,,,,,,,,0,0,0,0,0,0,0,0,0,0,0,0,0,0,0,0,,,,,,,,,,,
251,2171854,1745089293924,0.0,182.63,,0.15,0.19,1.08,-6.0,1.0,1.0,1.11,1.12,99.0,4460.0,50.2,5.13,,14.12,1.002,91.6,,26.7,5.0,,,,,,,,,,,,0,0,0,0,0,0,0,0,0,0,0,0,0,0,0,0,,,,,0.0,,,,,,
252,2171874,1745089293944,,,,,,,,,,,,,,,,,,,,,,,,,,,,,,,,,,0,0,0,0,0,0,0,0,0,0,0,0,0,0,0,0,,,,,,,,,,,
253,2171894,1745089293964,0.0,182.63,,0.15,0.08,0.98,-6.0,1.0,0.0,1.0,1.12,89.0,4406.0,46.0,4.81,,14.11,1.019,91.6,,26.7,5.0,,,,,,,,,,,,0,0,0,0,0,0,0,0,0,0,0,0,0,0,0,0,,,,,0.0,,,,,,
254,2171914,1745089293984,,,,,,,,,,,,,,,,,,,,,,,17.0,0.0,18.0,18.0,0.0,228.0,0.0,0.0,2.26,,,0,0,0,0,0,0,0,0,0,0,0,0,0,0,0,0,2.0,,,,,39.239796,-77.965729,28.13,34.0,3.0,0.8
255,2171934,1745089293994,0.0,182.63,,0.17,0.01,0.9,-5.0,1.0,0.0,0.92,1.12,82.0,4611.0,45.5,4.84,,14.1,1.009,91.6,,26.7,5.0,,,,,,,,,,,,0,0,0,0,0,0,0,0,0,0,0,0,0,0,0,0,,,,,0.0,,,,,,
256,2171954,1745089294014,,,,,,,,,,,,,,,,,,,,,,,,,,,,,,,,,,0,0,0,0,0,0,0,0,0,0,0,0,0,0,0,0,,,,,,,,,,,
257,2171974,1745089294034,0.0,182.76,,0.16,-0.1,0.81,-4.0,1.0,-1.0,0.83,1.12,74.0,4355.0,39.6,4.38,,14.1,1.009,91.6,,27.2,5.0,,,,,,,,,,,,0,0,0,0,0,0,0,0,0,0,0,0,0,0,0,0,,,,,0.0,,,,,,
258,2171994,1745089294054,,,,,,,,,,,,,,,,,,,,,,,,,,,,,,,,,,0,0,0,0,0,0,0,0,0,0,0,0,0,0,0,0,,,,,,,,,,,
259,2172014,1745089294074,0.0,182.63,,0.14,-0.15,0.76,-3.0,0.0,-1.0,0.79,1.12,70.0,4355.0,39.6,4.38,,14.04,1.032,91.6,,27.2,5.0,18.0,0.0,18.0,18.0,0.0,57.0,0.0,0.0,2.26,,,0,0,0,0,0,0,0,0,0,0,0,0,0,0,0,0,2.0,,,,0.0,39.239792,-77.965736,28.62,34.0,3.0,0.8
260,2172034,1745089294099,,,,,,,,,,,,,,,,,,,,,,,,,,,,,,,,,,0,0,0,0,0,0,0,0,0,0,0,0,0,0,0,0,,,,,,,,,,,
261,2172054,1745089294119,0.0,182.76,,0.12,-0.27,0.71,-3.0,0.0,-1.0,0.76,1.12,68.0,4457.0,27.3,4.75,,13.72,0.988,91.6,,26.9,5.0,,,,,,,,,,,,0,0,0,0,0,0,0,0,0,0,0,0,0,0,0,0,,,,,0.0,,,,,,
262,2172074,1745089294139,,,,,,,,,,,,,,,,,,,,,,,,,,,,,,,,,,0,0,0,0,0,0,0,0,0,0,0,0,0,0,0,0,,,,,,,,,,,
263,2172094,1745089294159,0.0,182.76,,0.1,-0.35,0.65,-3.0,1.0,-2.0,0.75,1.12,67.0,4474.0,24.7,4.29,,13.51,1.017,91.6,,26.9,5.0,,,,,,,,,,,,0,0,0,0,0,0,0,0,0,0,0,0,0,0,0,0,,,,,0.0,,,,,,
264,2172114,1745089294179,,,,,,,,,,,,,,,,,,,,,,,18.0,0.0,19.0,19.0,0.0,29.0,0.0,0.0,2.26,,,0,0,0,0,0,0,0,0,0,0,0,0,0,0,0,0,2.0,,,,,39.239784,-77.965744,29.11,34.0,3.0,0.8
265,2172134,1745089294201,0.0,182.76,,0.07,-0.45,0.58,-2.0,0.0,-2.0,0.74,1.12,66.0,4450.0,23.3,4.13,,13.41,1.067,91.6,,26.9,5.0,,,,,,,,,,,,0,0,0,0,0,0,0,0,0,0,0,0,0,0,0,0,,,,,0.0,,,,,,
266,2172154,1745089294221,,,,,,,,,,,,,,,,,,,,,,,,,,,,,,,,,,0,0,0,0,0,0,0,0,0,0,0,0,0,0,0,0,,,,,,,,,,,
267,2172174,1745089294241,0.0,182.76,,0.08,-0.51,0.57,-2.0,0.0,-2.0,0.76,1.12,68.0,4521.0,19.6,3.85,,13.41,1.067,91.6,,27.1,5.0,,,,,,,,,,,,0,0,0,0,0,0,0,0,0,0,0,0,0,0,0,0,,,,,0.0,,,,,,
268,2172194,1745089294261,,,,,,,,,,,,,,,,,,,,,,,,,,,,,,,,,,0,0,0,0,0,0,0,0,0,0,0,0,0,0,0,0,,,,,,,,,,,
269,2172214,1745089294281,0.0,182.76,,0.04,-0.56,0.54,-3.0,1.0,-3.0,0.78,1.12,70.0,4521.0,19.6,3.85,,13.29,1.059,91.6,,27.1,5.0,19.0,0.0,19.0,19.0,0.0,66.0,0.0,0.0,2.26,,,0,0,0,0,0,0,0,0,0,0,0,0,0,0,0,0,2.0,,,,0.0,39.23978,-77.965752,29.49,34.0,3.0,0.8
270,2172234,1745089294303,,,,,,,,,,,,,,,,,,,,,,,,,,,,,,,,,,0,0,0,0,0,0,0,0,0,0,0,0,0,0,0,0,,,,,,,,,,,
271,2172254,1745089294323,0.0,182.88,,0.01,-0.49,0.57,-3.0,1.0,-2.0,0.75,1.12,67.0,4483.0,16.6,3.82,,13.2,1.046,91.6,,27.0,5.0,,,,,,,,,,,,0,0,0,0,0,0,0,0,0,0,0,0,0,0,0,0,,,,,0.0,,,,,,
272,2172274,1745089294343,,,,,,,,,,,,,,,,,,,,,,,,,,,,,,,,,,0,0,0,0,0,0,0,0,0,0,0,0,0,0,0,0,,,,,,,,,,,
273,2172294,1745089294363,0.0,183.01,,-0.05,-0.42,0.63,-4.0,0.0,-1.0,0.76,1.12,68.0,4442.0,0.1,2.53,,12.39,1.061,91.6,,27.0,5.0,,,,,,,,,,,,0,0,0,0,0,0,0,0,0,0,0,0,0,0,0,0,,,,,0.0,,,,,,
274,2172314,1745089294383,,,,,,,,,,,,,,,,,,,,,,,19.0,0.0,19.0,19.0,0.0,0.0,0.0,0.0,2.25,,,0,0,0,0,0,0,0,0,0,0,0,0,0,0,0,0,2.0,,,,,39.239773,-77.965752,29.54,34.0,3.0,0.8
275,2172334,1745089294403,0.0,183.13,,-0.11,-0.31,0.76,-4.0,0.0,-1.0,0.83,1.12,74.0,4340.0,0.0,2.5,,11.65,1.079,91.6,,27.0,5.0,,,,,,,,,,,,0,0,0,0,0,0,0,0,0,0,0,0,0,0,0,0,,,,,0.0,,,,,,
276,2172354,1745089294423,,,,,,,,,,,,,,,,,,,,,,,,,,,,,,,,,,0,0,0,0,0,0,0,0,0,0,0,0,0,0,0,0,,,,,,,,,,,
277,2172374,1745089294443,10.81,183.26,,-0.11,-0.3,0.76,-3.0,0.0,-1.0,0.82,0.82,100.0,4233.0,0.0,2.48,,11.65,1.079,91.6,,26.1,5.0,,,,,,,,,,,,0,0,0,0,0,0,0,0,0,0,0,0,0,0,0,0,,,,,0.0,,,,,,
278,2172394,1745089294463,,,,,,,,,,,,,,,,,,,,,,,,,,,,,,,,,,0,0,0,0,0,0,0,0,0,0,0,0,0,0,0,0,,,,,,,,,,,
279,2172414,1745089294483,22.12,183.38,13.63,-0.16,-0.29,0.78,-3.0,0.0,-1.0,0.85,0.85,100.0,4233.0,0.0,2.48,15.0,11.24,1.086,91.6,173.0,26.1,5.0,18.0,0.0,18.0,19.0,0.0,253.0,0.0,0.0,2.26,0.0,0.0,0,0,0,0,0,0,0,0,0,0,0,0,0,0,0,0,0.0,0.0,0.0,0.0,0.0,39.239765,-77.965752,29.43,34.0,3.0,0.8
280,2172434,1745089294503,,,,,,,,,,,,,,,,,,,,,,,,,,,,,,,,,,0,0,0,0,0,0,0,0,0,0,0,0,0,0,0,0,,,,,,,,,,,
281,2172454,1745089294523,34.69,183.51,,-0.18,-0.26,0.81,-2.0,0.0,-1.0,0.87,0.87,100.0,4138.0,0.0,2.41,,10.97,1.106,91.6,,24.7,5.0,,,,,,,,,,,,0,0,0,0,0,0,0,0,0,0,0,0,0,0,0,0,,,,,0.0,,,,,,
282,2172474,1745089294543,,,,,,,,,,,,,,,,,,,,,,,,,,,,,,,,,,0,0,0,0,0,0,0,0,0,0,0,0,0,0,0,0,,,,,,,,,,,
283,2172494,1745089294563,44.12,183.63,,-0.22,-0.19,0.89,-3.0,0.0,0.0,0.93,0.93,100.0,3998.0,0.0,2.18,,10.81,1.15,91.6,,24.7,5.0,,,,,,,,,,,,0,0,0,0,0,0,0,0,0,0,0,0,0,0,0,0,,,,,0.0,,,,,,
284,2172514,1745089294583,,,,,,,,,,,,,,,,,,,,,,,17.0,0.0,17.0,17.0,0.0,0.0,0.0,0.0,2.26,,,0,0,0,0,0,0,0,0,0,0,0,0,0,0,0,0,0.0,,,,,39.239761,-77.965759,28.87,34.0,3.0,0.8
285,2172534,1745089294603,52.29,183.63,,-0.25,-0.21,0.87,-3.0,0.0,0.0,0.93,0.93,99.0,3923.0,3.8,1.96,,11.0,1.221,91.6,,24.7,5.0,,,,,,,,,,,,0,0,0,0,0,0,0,0,0,0,0,0,0,0,0,0,,,,,0.0,,,,,,
286,2172554,1745089294623,,,,,,,,,,,,,,,,,,,,,,,,,,,,,,,,,,0,0,0,0,0,0,0,0,0,0,0,0,0,0,0,0,,,,,,,,,,,
287,2172574,1745089294643,60.46,183.76,,-0.27,-0.2,0.9,-3.0,0.0,0.0,0.96,0.96,100.0,3811.0,19.1,4.24,,11.0,1.221,91.6,,23.5,5.0,,,,,,,,,,,,0,0,0,0,0,0,0,0,0,0,0,0,0,0,0,0,,,,,0.0,,,,,,
288,2172594,1745089294663,,,,,,,,,,,,,,,,,,,,,,,,,,,,,,,,,,0,0,0,0,0,0,0,0,0,0,0,0,0,0,0,0,,,,,,,,,,,
289,2172614,1745089294683,66.11,183.76,,-0.28,-0.2,0.89,-2.0,0.0,0.0,0.95,0.96,99.0,3811.0,19.1,4.24,,12.37,1.245,91.6,,23.5,5.0,16.0,0.0,16.0,17.0,0.0,248.0,0.0,0.0,2.26,,,0,0,0,0,0,0,0,0,0,0,0,0,0,0,0,0,0.0,,,,0.0,39.239754,-77.965767,27.88,34.0,3.0,0.8
290,2172634,1745089294703,,,,,,,,,,,,,,,,,,,,,,,,,,,,,,,,,,0,0,0,0,0,0,0,0,0,0,0,0,0,0,0,0,,,,,,,,,,,
291,2172654,1745089294723,71.77,184.01,,-0.26,-0.15,0.91,-2.0,0.0,0.0,0.95,0.96,99.0,3801.0,19.8,4.27,,13.16,1.199,91.6,,23.5,5.0,,,,,,,,,,,,0,0,0,0,0,0,0,0,0,0,0,0,0,0,0,0,,,,,0.0,,,,,,
292,2172674,1745089294743,,,,,,,,,,,,,,,,,,,,,,,,,,,,,,,,,,0,0,0,0,0,0,0,0,0,0,0,0,0,0,0,0,,,,,,,,,,,
293,2172694,1745089294763,75.54,184.01,,-0.27,-0.04,0.97,-2.0,0.0,0.0,1.01,1.01,100.0,3973.0,20.1,4.17,,13.32,1.166,91.6,,23.5,5.0,,,,,,,,,,,,0,0,0,0,0,0,0,0,0,0,0,0,0,0,0,0,,,,,0.0,,,,,,
294,2172714,1745089294783,,,,,,,,,,,,,,,,,,,,,,,16.0,0.0,16.0,16.0,0.0,244.0,0.0,0.0,2.26,,,0,0,0,0,0,0,0,0,0,0,0,0,0,0,0,0,0.0,,,,,39.23975,-77.965775,26.48,34.0,3.0,0.8
295,2172734,1745089294803,79.94,184.14,,-0.27,-0.06,0.89,-1.0,0.0,0.0,0.93,1.01,93.0,4152.0,20.2,4.15,,13.36,1.142,91.6,,23.5,5.0,,,,,,,,,,,,0,0,0,0,0,0,0,0,0,0,0,0,0,0,0,0,,,,,0.0,,,,,,
296,2172754,1745089294823,,,,,,,,,,,,,,,,,,,,,,,,,,,,,,,,,,0,0,0,0,0,0,0,0,0,0,0,0,0,0,0,0,,,,,,,,,,,
297,2172774,1745089294843,85.6,184.26,,-0.3,-0.05,0.89,-2.0,0.0,0.0,0.94,1.01,93.0,4324.0,20.3,4.03,,13.36,1.142,91.6,,25.4,5.0,,,,,,,,,,,,0,0,0,0,0,0,0,0,0,0,0,0,0,0,0,0,,,,,0.0,,,,,,
298,2172794,1745089294863,,,,,,,,,,,,,,,,,,,,,,,,,,,,,,,,,,0,0,0,0,0,0,0,0,0,0,0,0,0,0,0,0,,,,,,,,,,,
299,2172814,1745089294883,89.37,184.26,,-0.36,0.02,0.97,-4.0,0.0,1.0,1.03,1.03,100.0,4324.0,20.3,4.03,,13.29,1.125,89.8,,25.4,5.0,16.0,0.0,15.0,15.0,0.0,252.0,0.0,0.0,2.26,,,0,0,0,0,0,0,0,0,0,0,0,0,0,0,0,0,0.0,,,,0.0,39.239746,-77.965782,24.72,34.0,3.0,0.8
300,2172834,1745089294903,,,,,,,,,,,,,,,,,,,,,,,,,,,,,,,,,,0,0,0,0,0,0,0,0,0,0,0,0,0,0,0,0,,,,,,,,,,,
301,2172854,1745089294923,92.51,184.26,,-0.41,0.09,1.04,-5.0,0.0,2.0,1.13,1.13,100.0,4384.0,20.6,3.89,,13.29,1.127,89.8,,27.4,5.0,,,,,,,,,,,,0,0,0,0,0,0,0,0,0,0,0,0,0,0,0,0,,,,,0.0,,,,,,
302,2172874,1745089294943,,,,,,,,,,,,,,,,,,,,,,,,,,,,,,,,,,0,0,0,0,0,0,0,0,0,0,0,0,0,0,0,0,,,,,,,,,,,
303,2172894,1745089294963,92.51,184.39,,-0.45,0.0,1.01,-5.0,0.0,2.0,1.1,1.13,98.0,4618.0,18.0,3.65,,13.16,1.14,89.8,,27.4,5.0,,,,,,,,,,,,0,0,0,0,0,0,0,0,0,0,0,0,0,0,0,0,,,,,0.0,,,,,,
304,2172914,1745089294983,,,,,,,,,,,,,,,,,,,,,,,14.0,0.0,14.0,14.0,0.0,0.0,0.0,0.0,2.26,,,0,0,0,0,0,0,0,0,0,0,0,0,0,0,0,0,0.0,,,,,39.239742,-77.965782,23.5,34.0,3.0,0.8
305,2172934,1745089294995,93.77,184.39,,-0.41,-0.07,0.92,-4.0,0.0,1.0,1.01,1.13,90.0,4653.0,15.8,3.6,,12.97,1.028,89.8,,27.4,5.0,,,,,,,,,,,,0,0,0,0,0,0,0,0,0,0,0,0,0,0,0,0,,,,,0.0,,,,,,
306,2172954,1745089295015,,,,,,,,,,,,,,,,,,,,,,,,,,,,,,,,,,0,0,0,0,0,0,0,0,0,0,0,0,0,0,0,0,,,,,,,,,,,
307,2172974,1745089295035,93.77,184.51,,-0.37,-0.06,0.88,-3.0,0.0,1.0,0.96,1.13,85.0,4679.0,13.6,3.4,,12.97,1.028,89.8,,28.2,5.0,,,,,,,,,,,,0,0,0,0,0,0,0,0,0,0,0,0,0,0,0,0,,,,,0.0,,,,,,
308,2172994,1745089295055,,,,,,,,,,,,,,,,,,,,,,,,,,,,,,,,,,0,0,0,0,0,0,0,0,0,0,0,0,0,0,0,0,,,,,,,,,,,
309,2173014,1745089295075,95.02,184.51,,-0.36,0.02,0.98,-3.0,0.0,1.0,1.04,1.13,93.0,4679.0,13.6,3.4,,12.76,0.99,89.8,,28.2,5.0,14.0,0.0,13.0,13.0,0.0,36.0,0.0,0.0,2.26,,,0,0,0,0,0,0,0,0,0,0,0,0,0,0,0,0,0.0,,,,0.0,39.239735,-77.96579,22.09,34.0,3.0,0.8
310,2173034,1745089295104,,,,,,,,,,,,,,,,,,,,,,,,,,,,,,,,,,0,0,0,0,0,0,0,0,0,0,0,0,0,0,0,0,,,,,,,,,,,
311,2173054,1745089295124,92.51,184.51,,-0.4,0.06,1.03,-4.0,0.0,2.0,1.1,1.13,98.0,4681.0,13.3,3.37,,12.63,1.006,89.8,,28.2,5.0,,,,,,,,,,,,0,0,0,0,0,0,0,0,0,0,0,0,0,0,0,0,,,,,0.0,,,,,,
312,2173074,1745089295144,,,,,,,,,,,,,,,,,,,,,,,,,,,,,,,,,,0,0,0,0,0,0,0,0,0,0,0,0,0,0,0,0,,,,,,,,,,,
313,2173094,1745089295164,87.48,184.51,,-0.39,0.03,0.97,-3.0,0.0,1.0,1.05,1.13,93.0,4656.0,11.8,3.3,,12.48,1.071,89.8,,28.2,5.0,,,,,,,,,,,,0,0,0,0,0,0,0,0,0,0,0,0,0,0,0,0,,,,,0.0,,,,,,
314,2173114,1745089295184,,,,,,,,,,,,,,,,,,,,,,,13.0,0.0,13.0,13.0,0.0,0.0,0.0,0.0,2.26,,,0,0,0,0,0,0,0,0,0,0,0,0,0,0,0,0,0.0,,,,,39.239731,-77.96579,20.96,34.0,3.0,0.8
315,2173134,1745089295202,83.71,184.64,,-0.36,-0.08,0.89,-1.0,0.0,0.0,0.97,1.13,86.0,4594.0,11.4,3.28,,12.43,1.14,89.8,,28.2,5.0,,,,,,,,,,,,0,0,0,0,0,0,0,0,0,0,0,0,0,0,0,0,,,,,0.0,,,,,,
316,2173154,1745089295222,,,,,,,,,,,,,,,,,,,,,,,,,,,,,,,,,,0,0,0,0,0,0,0,0,0,0,0,0,0,0,0,0,,,,,,,,,,,
317,2173174,1745089295242,76.8,184.64,,-0.31,-0.1,0.88,-1.0,0.0,0.0,0.94,1.13,83.0,4603.0,9.5,3.22,,12.43,1.14,89.8,,28.2,5.0,,,,,,,,,,,,0,0,0,0,0,0,0,0,0,0,0,0,0,0,0,0,,,,,0.0,,,,,,
318,2173194,1745089295262,,,,,,,,,,,,,,,,,,,,,,,,,,,,,,,,,,0,0,0,0,0,0,0,0,0,0,0,0,0,0,0,0,,,,,,,,,,,
319,2173214,1745089295282,72.4,184.64,,-0.27,-0.05,0.93,-1.0,0.0,0.0,0.97,1.13,86.0,4603.0,9.5,3.22,,12.33,1.175,89.8,,28.2,5.0,13.0,0.0,12.0,12.0,0.0,34.0,0.0,0.0,2.26,,,0,0,0,0,0,0,0,0,0,0,0,0,0,0,0,0,0.0,,,,0.0,39.239727,-77.96579,19.49,34.0,3.0,0.8
320,2173234,1745089295302,,,,,,,,,,,,,,,,,,,,,,,,,,,,,,,,,,0,0,0,0,0,0,0,0,0,0,0,0,0,0,0,0,,,,,,,,,,,
321,2173254,1745089295322,64.86,184.64,,-0.25,0.03,1.0,-1.0,0.0,1.0,1.03,1.13,91.0,4564.0,9.2,3.23,,12.19,1.2,89.8,,27.4,5.0,,,,,,,,,,,,0,0,0,0,0,0,0,0,0,0,0,0,0,0,0,0,,,,,0.0,,,,,,
322,2173274,1745089295342,,,,,,,,,,,,,,,,,,,,,,,,,,,,,,,,,,0,0,0,0,0,0,0,0,0,0,0,0,0,0,0,0,,,,,,,,,,,
323,2173294,1745089295362,57.32,184.51,,-0.22,0.08,1.04,0.0,0.0,1.0,1.06,1.13,94.0,4498.0,9.2,3.22,,12.23,1.196,89.8,,27.4,5.0,,,,,,,,,,,,0,0,0,0,0,0,0,0,0,0,0,0,0,0,0,0,,,,,0.0,,,,,,
324,2173314,1745089295382,,,,,,,,,,,,,,,,,,,,,,,12.0,0.0,12.0,12.0,0.0,11.0,0.0,0.0,2.26,,,0,0,0,0,0,0,0,0,0,0,0,0,0,0,0,0,0.0,,,,,39.239723,-77.965797,19.02,34.0,3.0,0.8
325,2173334,1745089295404,50.4,184.51,,-0.19,0.09,1.0,0.0,0.0,1.0,1.02,1.13,91.0,4421.0,9.3,3.26,,12.12,1.195,89.8,,27.4,5.0,,,,,,,,,,,,0,0,0,0,0,0,0,0,0,0,0,0,0,0,0,0,,,,,0.0,,,,,,
326,2173354,1745089295424,,,,,,,,,,,,,,,,,,,,,,,,,,,,,,,,,,0,0,0,0,0,0,0,0,0,0,0,0,0,0,0,0,,,,,,,,,,,
327,2173374,1745089295444,45.37,184.51,,-0.17,-0.06,0.89,1.0,0.0,0.0,0.9,1.13,80.0,4324.0,9.2,3.25,,12.12,1.195,89.8,,26.5,5.0,,,,,,,,,,,,0,0,0,0,0,0,0,0,0,0,0,0,0,0,0,0,,,,,0.0,,,,,,
328,2173394,1745089295464,,,,,,,,,,,,,,,,,,,,,,,,,,,,,,,,,,0,0,0,0,0,0,0,0,0,0,0,0,0,0,0,0,,,,,,,,,,,
329,2173414,1745089295484,42.86,184.39,13.65,-0.18,-0.12,0.87,1.0,0.0,0.0,0.89,1.13,79.0,4324.0,9.2,3.25,15.0,12.13,1.22,89.8,173.0,26.5,5.0,11.0,0.0,11.0,11.0,0.0,0.0,0.0,0.0,2.26,0.0,0.0,0,0,0,0,0,0,0,0,0,0,0,0,0,0,0,0,0.0,0.0,0.0,0.0,0.0,39.239719,-77.965805,18.46,34.0,3.0,0.8
330,2173434,1745089295504,,,,,,,,,,,,,,,,,,,,,,,,,,,,,,,,,,0,0,0,0,0,0,0,0,0,0,0,0,0,0,0,0,,,,,,,,,,,
331,2173454,1745089295524,41.6,184.51,,-0.22,0.01,1.01,0.0,0.0,1.0,1.04,1.13,92.0,4285.0,9.3,3.27,,12.2,1.218,89.8,,25.8,5.0,,,,,,,,,,,,0,0,0,0,0,0,0,0,0,0,0,0,0,0,0,0,,,,,0.0,,,,,,
332,2173474,1745089295544,,,,,,,,,,,,,,,,,,,,,,,,,,,,,,,,,,0,0,0,0,0,0,0,0,0,0,0,0,0,0,0,0,,,,,,,,,,,
333,2173494,1745089295564,42.23,184.51,,-0.21,-0.01,0.93,1.0,0.0,0.0,0.95,1.13,85.0,4260.0,9.2,3.3,,12.19,1.214,89.8,,25.8,5.0,,,,,,,,,,,,0,0,0,0,0,0,0,0,0,0,0,0,0,0,0,0,,,,,0.0,,,,,,
334,2173514,1745089295584,,,,,,,,,,,,,,,,,,,,,,,11.0,0.0,11.0,11.0,0.0,12.0,0.0,0.0,2.26,,,0,0,0,0,0,0,0,0,0,0,0,0,0,0,0,0,0.0,,,,,39.239716,-77.965805,17.95,34.0,3.0,0.8
335,2173534,1745089295604,45.37,184.51,,-0.24,-0.05,0.89,0.0,0.0,0.0,0.92,1.13,82.0,4211.0,9.2,3.35,,12.16,1.228,89.8,,25.8,5.0,,,,,,,,,,,,0,0,0,0,0,0,0,0,0,0,0,0,0,0,0,0,,,,,0.0,,,,,,
336,2173554,1745089295624,,,,,,,,,,,,,,,,,,,,,,,,,,,,,,,,,,0,0,0,0,0,0,0,0,0,0,0,0,0,0,0,0,,,,,,,,,,,
337,2173574,1745089295644,48.52,184.51,,-0.23,0.06,0.96,0.0,0.0,0.0,0.98,1.13,87.0,4132.0,9.2,3.34,,12.16,1.228,89.8,,25.4,5.0,,,,,,,,,,,,0,0,0,0,0,0,0,0,0,0,0,0,0,0,0,0,,,,,0.0,,,,,,
338,2173594,1745089295664,,,,,,,,,,,,,,,,,,,,,,,,,,,,,,,,,,0,0,0,0,0,0,0,0,0,0,0,0,0,0,0,0,,,,,,,,,,,
339,2173614,1745089295684,51.66,184.51,,-0.24,-0.04,0.91,0.0,0.0,0.0,0.94,1.13,84.0,4132.0,9.2,3.34,,12.23,1.234,89.8,,25.4,5.0,10.0,0.0,10.0,10.0,0.0,6.0,0.0,0.0,2.26,,,0,0,0,0,0,0,0,0,0,0,0,0,0,0,0,0,0.0,,,,0.0,39.239712,-77.965813,17.34,34.0,3.0,0.8
340,2173634,1745089295704,,,,,,,,,,,,,,,,,,,,,,,,,,,,,,,,,,0,0,0,0,0,0,0,0,0,0,0,0,0,0,0,0,,,,,,,,,,,
341,2173654,1745089295724,56.69,184.64,,-0.25,0.06,1.0,0.0,0.0,0.0,1.03,1.13,91.0,4112.0,9.1,3.35,,12.15,1.216,89.8,,25.4,5.0,,,,,,,,,,,,0,0,0,0,0,0,0,0,0,0,0,0,0,0,0,0,,,,,0.0,,,,,,
342,2173674,1745089295744,,,,,,,,,,,,,,,,,,,,,,,,,,,,,,,,,,0,0,0,0,0,0,0,0,0,0,0,0,0,0,0,0,,,,,,,,,,,
343,2173694,1745089295764,61.09,184.64,,-0.28,-0.03,0.92,0.0,0.0,0.0,0.96,1.13,85.0,4136.0,9.0,3.35,,12.23,1.224,89.8,,25.4,5.0,,,,,,,,,,,,0,0,0,0,0,0,0,0,0,0,0,0,0,0,0,0,,,,,0.0,,,,,,
344,2173714,1745089295784,,,,,,,,,,,,,,,,,,,,,,,10.0,0.0,10.0,10.0,0.0,7.0,0.0,0.0,2.26,,,0,0,0,0,0,0,0,0,0,0,0,0,0,0,0,0,0.0,,,,,39.239708,-77.965813,16.5,34.0,3.0,0.8
345,2173734,1745089295804,65.49,184.51,,-0.29,0.05,0.98,0.0,0.0,0.0,1.03,1.13,91.0,4102.0,10.6,3.44,,12.35,1.236,89.8,,25.4,5.0,,,,,,,,,,,,0,0,0,0,0,0,0,0,0,0,0,0,0,0,0,0,,,,,0.0,,,,,,
346,2173754,1745089295824,,,,,,,,,,,,,,,,,,,,,,,,,,,,,,,,,,0,0,0,0,0,0,0,0,0,0,0,0,0,0,0,0,,,,,,,,,,,
347,2173774,1745089295844,70.51,184.64,,-0.32,-0.0,0.97,-1.0,-1.0,1.0,1.02,1.13,90.0,4049.0,12.7,3.39,,12.35,1.236,89.8,,24.6,5.0,,,,,,,,,,,,0,0,0,0,0,0,0,0,0,0,0,0,0,0,0,0,,,,,0.0,,,,,,
348,2173794,1745089295864,,,,,,,,,,,,,,,,,,,,,,,,,,,,,,,,,,0,0,0,0,0,0,0,0,0,0,0,0,0,0,0,0,,,,,,,,,,,
349,2173814,1745089295884,73.03,184.64,,-0.32,-0.02,0.93,0.0,-1.0,0.0,0.99,1.13,88.0,4049.0,12.7,3.39,,12.61,1.22,88.0,,24.6,5.0,9.0,0.0,9.0,9.0,0.0,220.0,0.0,0.0,2.26,,,0,0,0,0,0,0,0,0,0,0,0,0,0,0,0,0,0.0,,,,0.0,39.239708,-77.96582,15.4,34.0,3.0,0.8
350,2173834,1745089295904,,,,,,,,,,,,,,,,,,,,,,,,,,,,,,,,,,0,0,0,0,0,0,0,0,0,0,0,0,0,0,0,0,,,,,,,,,,,
351,2173854,1745089295924,73.66,184.51,,-0.33,0.01,1.0,-1.0,-1.0,1.0,1.05,1.13,93.0,4079.0,14.4,3.44,,12.79,1.224,88.0,,24.1,5.0,,,,,,,,,,,,0,0,0,0,0,0,0,0,0,0,0,0,0,0,0,0,,,,,0.0,,,,,,
352,2173874,1745089295944,,,,,,,,,,,,,,,,,,,,,,,,,,,,,,,,,,0,0,0,0,0,0,0,0,0,0,0,0,0,0,0,0,,,,,,,,,,,
353,2173894,1745089295964,74.28,184.51,,-0.35,-0.05,0.9,0.0,0.0,0.0,0.97,1.13,86.0,4067.0,15.1,3.46,,13.01,1.217,88.0,,24.1,5.0,,,,,,,,,,,,0,0,0,0,0,0,0,0,0,0,0,0,0,0,0,0,,,,,0.0,,,,,,
354,2173914,1745089295984,,,,,,,,,,,,,,,,,,,,,,,8.0,0.0,8.0,8.0,0.0,248.0,0.0,0.0,2.26,,,0,0,0,0,0,0,0,0,0,0,0,0,0,0,0,0,0.0,,,,,39.239704,-77.96582,14.4,34.0,3.0,0.8
355,2173934,1745089295996,74.28,184.64,,-0.33,-0.0,0.93,0.0,0.0,0.0,0.98,1.13,87.0,3982.0,15.2,3.45,,13.0,1.231,88.0,,24.1,5.0,,,,,,,,,,,,0,0,0,0,0,0,0,0,0,0,0,0,0,0,0,0,,,,,0.0,,,,,,
356,2173954,1745089296016,,,,,,,,,,,,,,,,,,,,,,,,,,,,,,,,,,0,0,0,0,0,0,0,0,0,0,0,0,0,0,0,0,,,,,,,,,,,
357,2173974,1745089296036,73.66,184.51,,-0.34,0.01,0.95,0.0,0.0,0.0,1.0,1.13,89.0,3997.0,15.2,3.46,,13.0,1.231,88.0,,24.1,5.0,,,,,,,,,,,,0,0,0,0,0,0,0,0,0,0,0,0,0,0,0,0,,,,,0.0,,,,,,
358,2173994,1745089296056,,,,,,,,,,,,,,,,,,,,,,,,,,,,,,,,,,0,0,0,0,0,0,0,0,0,0,0,0,0,0,0,0,,,,,,,,,,,
359,2174434,1745089296503,,,,,,,,,,,,,,,,,,,,,,,,,,,,,,,,,,0,0,0,0,0,0,0,0,0,0,0,0,0,0,0,0,,,,,,,,,,,
360,2174454,1745089296523,70.51,184.51,,-0.35,0.07,1.02,-1.0,0.0,1.0,1.08,1.08,100.0,4352.0,4.1,3.25,,11.8,1.188,88.0,,25.8,5.0,,,,,,,,,,,,0,0,0,0,0,0,0,0,0,0,0,0,0,0,0,0,,,,,0.0,,,,,,
361,2174474,1745089296543,,,,,,,,,,,,,,,,,,,,,,,,,,,,,,,,,,0,0,0,0,0,0,0,0,0,0,0,0,0,0,0,0,,,,,,,,,,,
362,2174494,1745089296563,69.88,184.26,,-0.33,-0.04,0.9,0.0,0.0,0.0,0.96,1.08,88.0,4279.0,4.1,3.22,,11.68,1.173,88.0,,25.8,5.0,,,,,,,,,,,,0,0,0,0,0,0,0,0,0,0,0,0,0,0,0,0,,,,,0.0,,,,,,
363,2174514,1745089296583,,,,,,,,,,,,,,,,,,,,,,,4.0,0.0,4.0,4.0,0.0,0.0,0.0,0.0,2.26,,,0,0,0,0,0,0,0,0,0,0,0,0,0,0,0,0,0.0,,,,,39.239689,-77.965828,7.92,34.0,3.0,0.8
364,2174534,1745089296603,68.63,184.39,,-0.34,-0.0,0.94,0.0,0.0,0.0,1.0,1.08,92.0,4222.0,4.1,3.22,,11.58,1.164,88.0,,25.8,5.0,,,,,,,,,,,,0,0,0,0,0,0,0,0,0,0,0,0,0,0,0,0,,,,,0.0,,,,,,
365,2174554,1745089296623,,,,,,,,,,,,,,,,,,,,,,,,,,,,,,,,,,0,0,0,0,0,0,0,0,0,0,0,0,0,0,0,0,,,,,,,,,,,
366,2174574,1745089296643,66.74,184.26,,-0.31,0.03,0.95,0.0,0.0,0.0,1.0,1.08,92.0,4136.0,4.1,3.93,,11.58,1.164,88.0,,25.3,5.0,,,,,,,,,,,,0,0,0,0,0,0,0,0,0,0,0,0,0,0,0,0,,,,,0.0,,,,,,
367,2174594,1745089296663,,,,,,,,,,,,,,,,,,,,,,,,,,,,,,,,,,0,0,0,0,0,0,0,0,0,0,0,0,0,0,0,0,,,,,,,,,,,
368,2174614,1745089296683,66.11,184.26,,-0.33,0.04,0.99,-1.0,0.0,0.0,1.04,1.08,96.0,4136.0,4.1,3.93,,11.48,1.158,88.0,,25.3,5.0,4.0,0.0,4.0,4.0,0.0,0.0,0.0,0.0,2.26,,,0,0,0,0,0,0,0,0,0,0,0,0,0,0,0,0,0.0,,,,0.0,39.239685,-77.965828,6.92,34.0,3.0,0.8
369,2174634,1745089296703,,,,,,,,,,,,,,,,,,,,,,,,,,,,,,,,,,0,0,0,0,0,0,0,0,0,0,0,0,0,0,0,0,,,,,,,,,,,
370,2174654,1745089296723,65.49,184.26,,-0.32,-0.02,0.96,0.0,0.0,0.0,1.01,1.08,93.0,4088.0,4.0,3.95,,11.48,1.142,88.0,,24.5,5.0,,,,,,,,,,,,0,0,0,0,0,0,0,0,0,0,0,0,0,0,0,0,,,,,0.0,,,,,,
371,2174674,1745089296743,,,,,,,,,,,,,,,,,,,,,,,,,,,,,,,,,,0,0,0,0,0,0,0,0,0,0,0,0,0,0,0,0,,,,,,,,,,,
372,2174694,1745089296763,66.74,184.26,,-0.32,0.05,1.02,0.0,0.0,0.0,1.07,1.08,98.0,3996.0,3.9,3.9,,11.52,1.14,88.0,,24.5,5.0,,,,,,,,,,,,0,0,0,0,0,0,0,0,0,0,0,0,0,0,0,0,,,,,0.0,,,,,,
373,2174714,1745089296783,,,,,,,,,,,,,,,,,,,,,,,3.0,0.0,3.0,3.0,0.0,0.0,0.0,0.0,2.26,,,0,0,0,0,0,0,0,0,0,0,0,0,0,0,0,0,0.0,,,,,39.239685,-77.965828,5.38,34.0,3.0,0.8
374,2174734,1745089296803,68.0,184.26,,-0.31,0.08,1.04,0.0,0.0,0.0,1.09,1.09,100.0,3826.0,3.9,3.95,,11.67,1.115,88.0,,24.5,5.0,,,,,,,,,,,,0,0,0,0,0,0,0,0,0,0,0,0,0,0,0,0,,,,,0.0,,,,,,
375,2174754,1745089296823,,,,,,,,,,,,,,,,,,,,,,,,,,,,,,,,,,0,0,0,0,0,0,0,0,0,0,0,0,0,0,0,0,,,,,,,,,,,
376,2174774,1745089296843,68.63,184.26,,-0.3,0.07,1.02,0.0,0.0,0.0,1.07,1.09,98.0,3709.0,3.9,3.97,,11.67,1.115,88.0,,22.9,5.0,,,,,,,,,,,,0,0,0,0,0,0,0,0,0,0,0,0,0,0,0,0,,,,,0.0,,,,,,
377,2174794,1745089296863,,,,,,,,,,,,,,,,,,,,,,,,,,,,,,,,,,0,0,0,0,0,0,0,0,0,0,0,0,0,0,0,0,,,,,,,,,,,
378,2174814,1745089296883,69.88,184.26,,-0.32,0.04,0.98,0.0,0.0,0.0,1.04,1.09,95.0,3709.0,3.9,3.97,,11.76,1.076,82.6,,22.9,5.0,3.0,0.0,3.0,3.0,0.0,0.0,0.0,0.0,2.26,,,0,0,0,0,0,0,0,0,0,0,0,0,0,0,0,0,0.0,,,,0.0,39.239685,-77.965836,4.49,34.0,3.0,0.8
379,2174834,1745089296903,,,,,,,,,,,,,,,,,,,,,,,,,,,,,,,,,,0,0,0,0,0,0,0,0,0,0,0,0,0,0,0,0,,,,,,,,,,,
380,2174854,1745089296923,69.26,184.14,,-0.33,0.04,1.04,0.0,0.0,0.0,1.09,1.09,100.0,3543.0,4.0,3.95,,11.99,1.051,82.6,,20.8,5.0,,,,,,,,,,,,0,0,0,0,0,0,0,0,0,0,0,0,0,0,0,0,,,,,0.0,,,,,,
381,2174874,1745089296943,,,,,,,,,,,,,,,,,,,,,,,,,,,,,,,,,,0,0,0,0,0,0,0,0,0,0,0,0,0,0,0,0,,,,,,,,,,,
