,Interval,Utc,FrontBP,SteerAng,Battery,AccelX,AccelY,AccelZ,Yaw,Pitch,Roll,Gsum,GsumMax,GsumPct,RPM,TPS,InjectorPW,Baro,MAP,Lambda,IAT,EngineTemp,EOP,EOT,WSFR,WSFL,WSRR,WSRL,TCSet,TCSlip,TCComp,TCCut,Analog8,OilTemp,AA_On,ThermLF1,ThermLF2,ThermRR1,ThermRR2,ThermLF3,ThermLF4,ThermLF5,ThermLF6,ThermLF7,ThermLF8,ThermRR3,ThermRR4,ThermRR5,ThermRR6,ThermRR7,ThermRR8,Gear,AA_On1,AA_LowDrag,Fuel_Mix,AA_Packages,Latitude,Longitude,Speed,GPSSats,GPSQual,GPSDOP
0,601998,1745095314464,,,,,,,,,,,,,,,,,,,,,,,,,,,,,,,,,,0,0,0,0,0,0,0,0,0,0,0,0,0,0,0,0,,,,,,,,,,,
1,602018,1745095314484,0.0,204.63,,-0.03,0.12,0.96,0.0,0.0,0.0,0.96,0.96,100.0,3924.0,4.5,3.51,,12.03,1.209,95.2,,44.8,5.0,,,,,,,,,,,,0,0,0,0,0,0,0,0,0,0,0,0,0,0,0,0,,,,,0.0,,,,,,
2,602038,1745095314504,,,,,,,,,,,,,,,,,,,,,,,,,,,,,,,,,,0,0,0,0,0,0,0,0,0,0,0,0,0,0,0,0,,,,,,,,,,,
3,602058,1745095314524,0.0,204.63,,-0.04,0.08,0.99,-1.0,0.0,0.0,1.0,1.0,100.0,3954.0,4.7,3.51,,12.0,1.249,95.2,,44.8,5.0,,,,,,,,,,,,0,0,0,0,0,0,0,0,0,0,0,0,0,0,0,0,,,,,0.0,,,,,,
4,602078,1745095314544,,,,,,,,,,,,,,,,,,,,,,,0.0,0.0,0.0,0.0,0.0,0.0,0.0,0.0,2.26,,,0,0,0,0,0,0,0,0,0,0,0,0,0,0,0,0,0.0,,,,,39.240089,-77.965401,0.11,33.0,3.0,0.8
5,602098,1745095314564,0.0,204.5,,-0.06,0.0,0.96,-1.0,0.0,0.0,0.96,1.0,96.0,3914.0,4.5,3.51,,11.95,1.109,95.2,,44.8,5.0,,,,,,,,,,,,0,0,0,0,0,0,0,0,0,0,0,0,0,0,0,0,,,,,0.0,,,,,,
6,602118,1745095314584,,,,,,,,,,,,,,,,,,,,,,,,,,,,,,,,,,0,0,0,0,0,0,0,0,0,0,0,0,0,0,0,0,,,,,,,,,,,
7,602138,1745095314602,0.0,204.37,,-0.05,-0.02,0.94,0.0,0.0,0.0,0.94,1.0,94.0,3955.0,4.6,3.51,,11.96,1.027,95.2,,45.0,5.0,,,,,,,,,,,,0,0,0,0,0,0,0,0,0,0,0,0,0,0,0,0,,,,,0.0,,,,,,
8,602158,1745095314622,,,,,,,,,,,,,,,,,,,,,,,,,,,,,,,,,,0,0,0,0,0,0,0,0,0,0,0,0,0,0,0,0,,,,,,,,,,,
9,602178,1745095314642,0.0,204.37,,-0.05,0.07,0.97,0.0,0.0,0.0,0.98,1.0,98.0,3862.0,4.5,3.5,,11.96,1.027,95.2,,45.0,5.0,0.0,0.0,0.0,0.0,0.0,0.0,0.0,0.0,2.26,,,0,0,0,0,0,0,0,0,0,0,0,0,0,0,0,0,0.0,,,,0.0,39.240089,-77.965401,0.08,33.0,3.0,0.8
10,602198,1745095314662,,,,,,,,,,,,,,,,,,,,,,,,,,,,,,,,,,0,0,0,0,0,0,0,0,0,0,0,0,0,0,0,0,,,,,,,,,,,
11,602218,1745095314682,0.0,204.37,,-0.08,0.11,1.05,0.0,0.0,0.0,1.05,1.05,100.0,3862.0,4.5,3.5,,11.83,1.017,95.2,,44.1,5.0,,,,,,,,,,,,0,0,0,0,0,0,0,0,0,0,0,0,0,0,0,0,,,,,0.0,,,,,,
12,602238,1745095314704,,,,,,,,,,,,,,,,,,,,,,,,,,,,,,,,,,0,0,0,0,0,0,0,0,0,0,0,0,0,0,0,0,,,,,,,,,,,
13,602258,1745095314724,0.0,204.37,,-0.07,0.03,1.01,0.0,0.0,0.0,1.01,1.05,96.0,4000.0,4.6,3.5,,11.8,1.028,95.2,,44.1,5.0,,,,,,,,,,,,0,0,0,0,0,0,0,0,0,0,0,0,0,0,0,0,,,,,0.0,,,,,,
14,602278,1745095314744,,,,,,,,,,,,,,,,,,,,,,,0.0,0.0,0.0,0.0,0.0,0.0,0.0,0.0,2.26,,,0,0,0,0,0,0,0,0,0,0,0,0,0,0,0,0,0.0,,,,,39.240089,-77.965401,0.08,33.0,3.0,0.8
15,602298,1745095314764,0.0,204.5,,-0.07,0.0,1.0,0.0,0.0,0.0,1.0,1.05,95.0,3902.0,4.5,3.5,,11.77,1.078,95.2,,44.1,5.0,,,,,,,,,,,,0,0,0,0,0,0,0,0,0,0,0,0,0,0,0,0,,,,,0.0,,,,,,
16,602318,1745095314784,,,,,,,,,,,,,,,,,,,,,,,,,,,,,,,,,,0,0,0,0,0,0,0,0,0,0,0,0,0,0,0,0,,,,,,,,,,,
17,602338,1745095314804,0.0,204.37,,-0.05,-0.01,1.0,0.0,0.0,0.0,1.0,1.05,95.0,3758.0,4.3,3.5,,11.81,1.041,95.2,,43.7,5.0,,,,,,,,,,,,0,0,0,0,0,0,0,0,0,0,0,0,0,0,0,0,,,,,0.0,,,,,,
18,602358,1745095314824,,,,,,,,,,,,,,,,,,,,,,,,,,,,,,,,,,0,0,0,0,0,0,0,0,0,0,0,0,0,0,0,0,,,,,,,,,,,
19,602378,1745095314844,0.0,204.5,13.47,-0.05,-0.06,0.98,0.0,0.0,0.0,0.98,1.05,93.0,3781.0,4.3,3.5,15.0,11.81,1.041,95.2,142.0,43.7,5.0,0.0,0.0,0.0,0.0,0.0,0.0,0.0,0.0,2.26,0.0,0.0,0,0,0,0,0,0,0,0,0,0,0,0,0,0,0,0,0.0,0.0,0.0,0.0,0.0,39.240089,-77.965401,0.13,33.0,3.0,0.8
20,602398,1745095314864,,,,,,,,,,,,,,,,,,,,,,,,,,,,,,,,,,0,0,0,0,0,0,0,0,0,0,0,0,0,0,0,0,,,,,,,,,,,
21,602418,1745095314884,0.0,204.5,,-0.05,-0.07,0.99,0.0,0.0,0.0,0.99,1.05,94.0,3781.0,4.3,3.5,,11.93,1.044,95.2,,42.7,5.0,,,,,,,,,,,,0,0,0,0,0,0,0,0,0,0,0,0,0,0,0,0,,,,,0.0,,,,,,
22,602438,1745095314904,,,,,,,,,,,,,,,,,,,,,,,,,,,,,,,,,,0,0,0,0,0,0,0,0,0,0,0,0,0,0,0,0,,,,,,,,,,,
23,602458,1745095314924,0.0,204.37,,-0.05,-0.05,0.99,1.0,0.0,0.0,0.99,1.05,94.0,3790.0,4.4,3.5,,11.95,1.116,95.2,,42.7,5.0,,,,,,,,,,,,0,0,0,0,0,0,0,0,0,0,0,0,0,0,0,0,,,,,0.0,,,,,,
24,602478,1745095314944,,,,,,,,,,,,,,,,,,,,,,,0.0,0.0,0.0,0.0,0.0,0.0,0.0,0.0,2.26,,,0,0,0,0,0,0,0,0,0,0,0,0,0,0,0,0,0.0,,,,,39.240089,-77.965401,0.08,33.0,3.0,0.8
25,602498,1745095314964,0.0,204.37,,-0.05,-0.01,0.99,1.0,0.0,0.0,0.99,1.05,94.0,3824.0,4.4,3.51,,12.0,1.075,95.2,,42.7,5.0,,,,,,,,,,,,0,0,0,0,0,0,0,0,0,0,0,0,0,0,0,0,,,,,0.0,,,,,,
26,602518,1745095314984,,,,,,,,,,,,,,,,,,,,,,,,,,,,,,,,,,0,0,0,0,0,0,0,0,0,0,0,0,0,0,0,0,,,,,,,,,,,
27,602538,1745095314995,0.0,204.37,,-0.04,0.05,1.0,1.0,0.0,0.0,1.0,1.05,95.0,3778.0,4.5,3.51,,11.99,1.032,95.2,,43.2,5.0,,,,,,,,,,,,0,0,0,0,0,0,0,0,0,0,0,0,0,0,0,0,,,,,0.0,,,,,,
28,602558,1745095315015,,,,,,,,,,,,,,,,,,,,,,,,,,,,,,,,,,0,0,0,0,0,0,0,0,0,0,0,0,0,0,0,0,,,,,,,,,,,
29,602578,1745095315035,0.0,204.37,,-0.04,0.06,1.0,1.0,0.0,0.0,1.0,1.05,95.0,3810.0,4.5,3.51,,11.99,1.032,95.2,,43.2,5.0,0.0,0.0,0.0,0.0,0.0,0.0,0.0,0.0,2.26,,,0,0,0,0,0,0,0,0,0,0,0,0,0,0,0,0,0.0,,,,0.0,39.240089,-77.965401,0.04,34.0,3.0,0.8
30,602598,1745095315055,,,,,,,,,,,,,,,,,,,,,,,,,,,,,,,,,,0,0,0,0,0,0,0,0,0,0,0,0,0,0,0,0,,,,,,,,,,,
31,602618,1745095315075,0.0,204.37,,-0.03,0.05,1.01,0.0,0.0,0.0,1.01,1.05,96.0,3810.0,4.5,3.51,,12.0,1.015,95.2,,43.1,5.0,,,,,,,,,,,,0,0,0,0,0,0,0,0,0,0,0,0,0,0,0,0,,,,,0.0,,,,,,
32,602638,1745095315103,,,,,,,,,,,,,,,,,,,,,,,,,,,,,,,,,,0,0,0,0,0,0,0,0,0,0,0,0,0,0,0,0,,,,,,,,,,,
33,602658,1745095315123,0.0,204.37,,-0.04,0.02,1.04,0.0,0.0,0.0,1.04,1.05,98.0,3797.0,4.5,3.51,,12.03,1.022,95.2,,43.1,5.0,,,,,,,,,,,,0,0,0,0,0,0,0,0,0,0,0,0,0,0,0,0,,,,,0.0,,,,,,
34,602678,1745095315143,,,,,,,,,,,,,,,,,,,,,,,0.0,0.0,0.0,0.0,0.0,0.0,0.0,0.0,2.26,,,0,0,0,0,0,0,0,0,0,0,0,0,0,0,0,0,0.0,,,,,39.240089,-77.965401,0.07,34.0,3.0,0.8
35,602698,1745095315163,0.0,204.5,,-0.04,0.02,1.05,-1.0,0.0,0.0,1.05,1.05,99.0,3771.0,4.5,3.52,,11.99,1.029,95.2,,43.1,5.0,,,,,,,,,,,,0,0,0,0,0,0,0,0,0,0,0,0,0,0,0,0,,,,,0.0,,,,,,
36,602718,1745095315183,,,,,,,,,,,,,,,,,,,,,,,,,,,,,,,,,,0,0,0,0,0,0,0,0,0,0,0,0,0,0,0,0,,,,,,,,,,,
37,602738,1745095315201,0.0,204.5,,-0.04,-0.0,1.04,-1.0,0.0,0.0,1.04,1.05,99.0,3797.0,4.5,3.51,,12.03,1.03,95.2,,43.1,5.0,,,,,,,,,,,,0,0,0,0,0,0,0,0,0,0,0,0,0,0,0,0,,,,,0.0,,,,,,
38,602758,1745095315221,,,,,,,,,,,,,,,,,,,,,,,,,,,,,,,,,,0,0,0,0,0,0,0,0,0,0,0,0,0,0,0,0,,,,,,,,,,,
39,602778,1745095315241,0.0,204.37,,-0.05,-0.03,1.01,-1.0,0.0,0.0,1.01,1.05,96.0,3823.0,4.4,3.52,,12.03,1.03,95.2,,43.1,5.0,0.0,0.0,0.0,0.0,0.0,0.0,0.0,0.0,2.26,,,0,0,0,0,0,0,0,0,0,0,0,0,0,0,0,0,0.0,,,,0.0,39.240089,-77.965401,0.05,34.0,3.0,0.8
40,602798,1745095315261,,,,,,,,,,,,,,,,,,,,,,,,,,,,,,,,,,0,0,0,0,0,0,0,0,0,0,0,0,0,0,0,0,,,,,,,,,,,
41,602818,1745095315281,0.0,204.37,,-0.06,-0.01,1.0,0.0,0.0,0.0,1.01,1.05,95.0,3823.0,4.4,3.52,,11.99,1.025,95.2,,42.9,5.0,,,,,,,,,,,,0,0,0,0,0,0,0,0,0,0,0,0,0,0,0,0,,,,,0.0,,,,,,
42,602838,1745095315303,,,,,,,,,,,,,,,,,,,,,,,,,,,,,,,,,,0,0,0,0,0,0,0,0,0,0,0,0,0,0,0,0,,,,,,,,,,,
43,602858,1745095315323,0.0,204.37,,-0.04,0.06,1.04,0.0,0.0,0.0,1.04,1.05,99.0,3783.0,4.3,3.51,,12.03,1.032,95.2,,42.9,5.0,,,,,,,,,,,,0,0,0,0,0,0,0,0,0,0,0,0,0,0,0,0,,,,,0.0,,,,,,
44,602878,1745095315343,,,,,,,,,,,,,,,,,,,,,,,0.0,0.0,0.0,0.0,0.0,0.0,0.0,0.0,2.26,,,0,0,0,0,0,0,0,0,0,0,0,0,0,0,0,0,0.0,,,,,39.240089,-77.965401,0.06,34.0,3.0,0.8
45,602898,1745095315363,0.0,204.37,,-0.05,0.05,1.03,0.0,0.0,0.0,1.03,1.05,98.0,3717.0,4.3,3.51,,12.01,1.039,95.2,,42.9,5.0,,,,,,,,,,,,0,0,0,0,0,0,0,0,0,0,0,0,0,0,0,0,,,,,0.0,,,,,,
46,602918,1745095315383,,,,,,,,,,,,,,,,,,,,,,,,,,,,,,,,,,0,0,0,0,0,0,0,0,0,0,0,0,0,0,0,0,,,,,,,,,,,
47,602938,1745095315403,0.0,204.37,,-0.05,0.04,1.02,0.0,0.0,0.0,1.02,1.05,97.0,3751.0,4.3,3.52,,12.03,1.034,95.2,,42.4,5.0,,,,,,,,,,,,0,0,0,0,0,0,0,0,0,0,0,0,0,0,0,0,,,,,0.0,,,,,,
48,602958,1745095315423,,,,,,,,,,,,,,,,,,,,,,,,,,,,,,,,,,0,0,0,0,0,0,0,0,0,0,0,0,0,0,0,0,,,,,,,,,,,
49,602978,1745095315443,0.0,204.37,,-0.06,0.05,1.03,0.0,0.0,0.0,1.04,1.05,98.0,3763.0,4.4,3.51,,12.03,1.034,95.2,,42.4,5.0,0.0,0.0,0.0,0.0,0.0,0.0,0.0,0.0,2.26,,,0,0,0,0,0,0,0,0,0,0,0,0,0,0,0,0,0.0,,,,0.0,39.240089,-77.965401,0.07,34.0,3.0,0.8
50,602998,1745095315463,,,,,,,,,,,,,,,,,,,,,,,,,,,,,,,,,,0,0,0,0,0,0,0,0,0,0,0,0,0,0,0,0,,,,,,,,,,,
51,603018,1745095315483,0.0,204.37,,-0.06,0.0,1.02,1.0,0.0,0.0,1.02,1.05,97.0,3763.0,4.4,3.51,,12.09,1.053,95.2,,42.7,5.0,,,,,,,,,,,,0,0,0,0,0,0,0,0,0,0,0,0,0,0,0,0,,,,,0.0,,,,,,
52,603038,1745095315504,,,,,,,,,,,,,,,,,,,,,,,,,,,,,,,,,,0,0,0,0,0,0,0,0,0,0,0,0,0,0,0,0,,,,,,,,,,,
53,603058,1745095315524,0.0,204.37,,-0.06,0.02,1.02,0.0,0.0,0.0,1.02,1.05,97.0,3790.0,4.5,3.51,,11.99,1.055,95.2,,42.7,5.0,,,,,,,,,,,,0,0,0,0,0,0,0,0,0,0,0,0,0,0,0,0,,,,,0.0,,,,,,
54,603078,1745095315544,,,,,,,,,,,,,,,,,,,,,,,0.0,0.0,0.0,0.0,0.0,0.0,0.0,0.0,2.26,,,0,0,0,0,0,0,0,0,0,0,0,0,0,0,0,0,0.0,,,,,39.240089,-77.965401,0.15,34.0,3.0,0.8
55,603098,1745095315564,0.0,204.37,,-0.04,0.08,1.01,0.0,0.0,0.0,1.02,1.05,96.0,3695.0,4.5,3.52,,12.03,1.05,95.2,,42.7,5.0,,,,,,,,,,,,0,0,0,0,0,0,0,0,0,0,0,0,0,0,0,0,,,,,0.0,,,,,,
56,603118,1745095315584,,,,,,,,,,,,,,,,,,,,,,,,,,,,,,,,,,0,0,0,0,0,0,0,0,0,0,0,0,0,0,0,0,,,,,,,,,,,
57,603138,1745095315603,0.0,204.37,,-0.03,0.04,0.97,1.0,0.0,0.0,0.97,1.05,92.0,3507.0,4.5,3.53,,12.11,1.035,95.2,,40.8,5.0,,,,,,,,,,,,0,0,0,0,0,0,0,0,0,0,0,0,0,0,0,0,,,,,0.0,,,,,,
58,603158,1745095315623,,,,,,,,,,,,,,,,,,,,,,,,,,,,,,,,,,0,0,0,0,0,0,0,0,0,0,0,0,0,0,0,0,,,,,,,,,,,
59,603178,1745095315643,0.0,204.25,,-0.05,-0.01,0.95,1.0,0.0,-1.0,0.95,1.05,90.0,3627.0,4.5,3.53,,12.11,1.035,95.2,,40.8,5.0,0.0,0.0,0.0,0.0,0.0,0.0,0.0,0.0,2.26,,,0,0,0,0,0,0,0,0,0,0,0,0,0,0,0,0,0.0,,,,0.0,39.240089,-77.965401,0.05,34.0,3.0,0.8
60,603198,1745095315663,,,,,,,,,,,,,,,,,,,,,,,,,,,,,,,,,,0,0,0,0,0,0,0,0,0,0,0,0,0,0,0,0,,,,,,,,,,,
61,603218,1745095315683,0.0,204.37,,-0.06,-0.06,0.97,1.0,0.0,0.0,0.97,1.05,92.0,3627.0,4.5,3.53,,12.24,1.075,95.2,,40.4,5.0,,,,,,,,,,,,0,0,0,0,0,0,0,0,0,0,0,0,0,0,0,0,,,,,0.0,,,,,,
62,603238,1745095315703,,,,,,,,,,,,,,,,,,,,,,,,,,,,,,,,,,0,0,0,0,0,0,0,0,0,0,0,0,0,0,0,0,,,,,,,,,,,
63,603258,1745095315723,0.0,204.37,,-0.07,-0.05,1.0,1.0,0.0,0.0,1.0,1.05,95.0,3663.0,4.4,3.53,,12.17,1.141,95.2,,40.4,5.0,,,,,,,,,,,,0,0,0,0,0,0,0,0,0,0,0,0,0,0,0,0,,,,,0.0,,,,,,
64,603278,1745095315743,,,,,,,,,,,,,,,,,,,,,,,0.0,0.0,0.0,0.0,0.0,0.0,0.0,0.0,2.26,,,0,0,0,0,0,0,0,0,0,0,0,0,0,0,0,0,0.0,,,,,39.240089,-77.965401,0.24,34.0,3.0,0.8
65,603298,1745095315763,0.0,204.25,,-0.06,-0.0,1.01,0.0,0.0,0.0,1.01,1.05,96.0,3666.0,4.4,3.53,,12.28,1.118,95.2,,40.4,5.0,,,,,,,,,,,,0,0,0,0,0,0,0,0,0,0,0,0,0,0,0,0,,,,,0.0,,,,,,
66,603318,1745095315783,,,,,,,,,,,,,,,,,,,,,,,,,,,,,,,,,,0,0,0,0,0,0,0,0,0,0,0,0,0,0,0,0,,,,,,,,,,,
67,603338,1745095315803,0.0,204.25,,-0.06,0.05,1.02,0.0,0.0,0.0,1.03,1.05,97.0,3610.0,4.3,3.53,,12.23,1.063,95.2,,41.0,5.0,,,,,,,,,,,,0,0,0,0,0,0,0,0,0,0,0,0,0,0,0,0,,,,,0.0,,,,,,
68,603358,1745095315823,,,,,,,,,,,,,,,,,,,,,,,,,,,,,,,,,,0,0,0,0,0,0,0,0,0,0,0,0,0,0,0,0,,,,,,,,,,,
69,603378,1745095315843,0.0,204.25,13.47,-0.04,0.06,1.0,0.0,0.0,0.0,1.0,1.05,95.0,3602.0,4.3,3.53,15.0,12.23,1.063,95.2,142.0,41.0,5.0,0.0,0.0,0.0,0.0,0.0,0.0,0.0,0.0,2.26,0.0,0.0,0,0,0,0,0,0,0,0,0,0,0,0,0,0,0,0,0.0,0.0,0.0,0.0,0.0,39.240089,-77.965401,0.45,34.0,3.0,0.8
70,603398,1745095315863,,,,,,,,,,,,,,,,,,,,,,,,,,,,,,,,,,0,0,0,0,0,0,0,0,0,0,0,0,0,0,0,0,,,,,,,,,,,
71,603418,1745095315883,0.0,204.25,,-0.05,0.07,0.96,0.0,0.0,0.0,0.97,1.05,92.0,3602.0,4.3,3.53,,12.29,1.033,95.2,,40.4,5.0,,,,,,,,,,,,0,0,0,0,0,0,0,0,0,0,0,0,0,0,0,0,,,,,0.0,,,,,,
72,603438,1745095315903,,,,,,,,,,,,,,,,,,,,,,,,,,,,,,,,,,0,0,0,0,0,0,0,0,0,0,0,0,0,0,0,0,,,,,,,,,,,
73,603458,1745095315923,0.0,204.25,,-0.07,-0.01,0.99,1.0,0.0,0.0,0.99,1.05,94.0,3621.0,4.3,3.53,,12.33,1.018,95.2,,40.4,5.0,,,,,,,,,,,,0,0,0,0,0,0,0,0,0,0,0,0,0,0,0,0,,,,,0.0,,,,,,
74,603478,1745095315943,,,,,,,,,,,,,,,,,,,,,,,0.0,0.0,0.0,0.0,0.0,0.0,0.0,0.0,2.26,,,0,0,0,0,0,0,0,0,0,0,0,0,0,0,0,0,0.0,,,,,39.240089,-77.965401,0.22,34.0,3.0,0.8
75,603498,1745095315963,0.0,204.25,,-0.07,0.02,0.99,0.0,0.0,0.0,1.0,1.05,95.0,3536.0,4.4,3.53,,12.31,1.029,95.2,,40.4,5.0,,,,,,,,,,,,0,0,0,0,0,0,0,0,0,0,0,0,0,0,0,0,,,,,0.0,,,,,,
76,603518,1745095315983,,,,,,,,,,,,,,,,,,,,,,,,,,,,,,,,,,0,0,0,0,0,0,0,0,0,0,0,0,0,0,0,0,,,,,,,,,,,
77,603538,1745095315994,0.0,204.25,,-0.07,0.06,0.99,0.0,0.0,0.0,0.99,1.05,94.0,3642.0,4.5,3.53,,12.33,1.051,95.2,,40.3,5.0,,,,,,,,,,,,0,0,0,0,0,0,0,0,0,0,0,0,0,0,0,0,,,,,0.0,,,,,,
78,603558,1745095316014,,,,,,,,,,,,,,,,,,,,,,,,,,,,,,,,,,0,0,0,0,0,0,0,0,0,0,0,0,0,0,0,0,,,,,,,,,,,
79,603578,1745095316034,0.0,204.25,,-0.05,0.09,0.99,0.0,0.0,0.0,1.0,1.05,95.0,3651.0,4.5,3.53,,12.33,1.051,95.2,,40.3,5.0,0.0,0.0,0.0,0.0,0.0,0.0,0.0,0.0,2.26,,,0,0,0,0,0,0,0,0,0,0,0,0,0,0,0,0,0.0,,,,0.0,39.240089,-77.965401,0.18,34.0,3.0,0.8
80,603598,1745095316054,,,,,,,,,,,,,,,,,,,,,,,,,,,,,,,,,,0,0,0,0,0,0,0,0,0,0,0,0,0,0,0,0,,,,,,,,,,,
81,603618,1745095316074,0.0,204.25,,-0.04,0.06,0.93,0.0,0.0,0.0,0.94,1.05,89.0,3651.0,4.5,3.53,,12.24,1.07,95.2,,40.4,5.0,,,,,,,,,,,,0,0,0,0,0,0,0,0,0,0,0,0,0,0,0,0,,,,,0.0,,,,,,
82,603638,1745095316100,,,,,,,,,,,,,,,,,,,,,,,,,,,,,,,,,,0,0,0,0,0,0,0,0,0,0,0,0,0,0,0,0,,,,,,,,,,,
83,603658,1745095316120,0.0,204.25,,-0.06,-0.03,0.99,0.0,0.0,0.0,1.0,1.05,94.0,3491.0,4.5,3.54,,12.28,1.025,95.2,,40.4,5.0,,,,,,,,,,,,0,0,0,0,0,0,0,0,0,0,0,0,0,0,0,0,,,,,0.0,,,,,,
84,603678,1745095316140,,,,,,,,,,,,,,,,,,,,,,,0.0,0.0,0.0,0.0,0.0,0.0,0.0,0.0,2.25,,,0,0,0,0,0,0,0,0,0,0,0,0,0,0,0,0,0.0,,,,,39.240089,-77.965401,0.0,34.0,3.0,0.8
85,603698,1745095316160,0.0,204.25,,-0.03,0.08,0.96,0.0,0.0,0.0,0.97,1.05,92.0,3443.0,4.5,3.56,,12.29,1.032,95.2,,40.4,5.0,,,,,,,,,,,,0,0,0,0,0,0,0,0,0,0,0,0,0,0,0,0,,,,,0.0,,,,,,
86,603718,1745095316180,,,,,,,,,,,,,,,,,,,,,,,,,,,,,,,,,,0,0,0,0,0,0,0,0,0,0,0,0,0,0,0,0,,,,,,,,,,,
87,603738,1745095316202,0.0,204.25,,-0.04,0.01,1.04,0.0,0.0,0.0,1.04,1.05,99.0,3263.0,4.5,3.56,,12.43,1.057,95.2,,38.0,5.0,,,,,,,,,,,,0,0,0,0,0,0,0,0,0,0,0,0,0,0,0,0,,,,,0.0,,,,,,
88,603758,1745095316222,,,,,,,,,,,,,,,,,,,,,,,,,,,,,,,,,,0,0,0,0,0,0,0,0,0,0,0,0,0,0,0,0,,,,,,,,,,,
89,603778,1745095316242,0.0,204.25,,-0.05,0.01,0.96,1.0,0.0,0.0,0.96,1.05,91.0,3209.0,4.4,3.57,,12.43,1.057,95.2,,38.0,5.0,0.0,0.0,0.0,0.0,0.0,0.0,0.0,0.0,2.26,,,0,0,0,0,0,0,0,0,0,0,0,0,0,0,0,0,0.0,,,,0.0,39.240089,-77.965401,0.04,34.0,3.0,0.8
90,603798,1745095316262,,,,,,,,,,,,,,,,,,,,,,,,,,,,,,,,,,0,0,0,0,0,0,0,0,0,0,0,0,0,0,0,0,,,,,,,,,,,
91,603818,1745095316282,0.0,204.12,,-0.04,0.09,0.92,0.0,0.0,0.0,0.92,1.05,87.0,3209.0,4.4,3.57,,12.49,1.091,95.2,,35.1,5.0,,,,,,,,,,,,0,0,0,0,0,0,0,0,0,0,0,0,0,0,0,0,,,,,0.0,,,,,,
92,603838,1745095316304,,,,,,,,,,,,,,,,,,,,,,,,,,,,,,,,,,0,0,0,0,0,0,0,0,0,0,0,0,0,0,0,0,,,,,,,,,,,
93,603858,1745095316324,0.0,204.12,,-0.02,0.14,0.92,0.0,0.0,0.0,0.93,1.05,88.0,3151.0,4.3,3.59,,12.55,1.113,95.2,,35.1,5.0,,,,,,,,,,,,0,0,0,0,0,0,0,0,0,0,0,0,0,0,0,0,,,,,0.0,,,,,,
94,603878,1745095316344,,,,,,,,,,,,,,,,,,,,,,,0.0,0.0,0.0,0.0,0.0,0.0,0.0,0.0,2.26,,,0,0,0,0,0,0,0,0,0,0,0,0,0,0,0,0,0.0,,,,,39.240089,-77.965401,0.32,34.0,3.0,0.8
95,603898,1745095316364,0.0,204.12,,-0.02,0.13,0.96,0.0,0.0,1.0,0.97,1.05,92.0,3094.0,4.3,3.59,,12.6,1.143,95.2,,35.1,5.0,,,,,,,,,,,,0,0,0,0,0,0,0,0,0,0,0,0,0,0,0,0,,,,,0.0,,,,,,
96,603918,1745095316384,,,,,,,,,,,,,,,,,,,,,,,,,,,,,,,,,,0,0,0,0,0,0,0,0,0,0,0,0,0,0,0,0,,,,,,,,,,,
97,603938,1745095316402,0.0,204.12,,-0.04,0.01,1.06,0.0,0.0,1.0,1.06,1.06,100.0,3147.0,4.3,3.59,,12.64,1.155,95.2,,32.6,5.0,,,,,,,,,,,,0,0,0,0,0,0,0,0,0,0,0,0,0,0,0,0,,,,,0.0,,,,,,
98,603958,1745095316422,,,,,,,,,,,,,,,,,,,,,,,,,,,,,,,,,,0,0,0,0,0,0,0,0,0,0,0,0,0,0,0,0,,,,,,,,,,,
99,603978,1745095316442,0.0,204.25,,-0.03,0.04,0.97,0.0,0.0,0.0,0.98,1.06,92.0,3365.0,4.4,3.57,,12.64,1.155,95.2,,32.6,5.0,0.0,0.0,0.0,0.0,0.0,0.0,0.0,0.0,2.26,,,0,0,0,0,0,0,0,0,0,0,0,0,0,0,0,0,0.0,,,,0.0,39.240089,-77.965401,0.1,34.0,3.0,0.8
100,603998,1745095316462,,,,,,,,,,,,,,,,,,,,,,,,,,,,,,,,,,0,0,0,0,0,0,0,0,0,0,0,0,0,0,0,0,,,,,,,,,,,
101,604018,1745095316482,0.0,204.25,,-0.03,0.06,1.05,0.0,0.0,1.0,1.05,1.06,99.0,3365.0,4.4,3.57,,12.61,1.231,95.2,,36.4,5.0,,,,,,,,,,,,0,0,0,0,0,0,0,0,0,0,0,0,0,0,0,0,,,,,0.0,,,,,,
102,604038,1745095316502,,,,,,,,,,,,,,,,,,,,,,,,,,,,,,,,,,0,0,0,0,0,0,0,0,0,0,0,0,0,0,0,0,,,,,,,,,,,
103,604058,1745095316522,0.0,204.25,,-0.04,0.04,1.0,0.0,0.0,0.0,1.01,1.06,95.0,3308.0,4.5,3.58,,12.56,1.172,95.2,,36.4,5.0,,,,,,,,,,,,0,0,0,0,0,0,0,0,0,0,0,0,0,0,0,0,,,,,0.0,,,,,,
104,604078,1745095316542,,,,,,,,,,,,,,,,,,,,,,,0.0,0.0,0.0,0.0,0.0,0.0,0.0,0.0,2.25,,,0,0,0,0,0,0,0,0,0,0,0,0,0,0,0,0,0.0,,,,,39.240089,-77.965401,0.34,34.0,3.0,0.8
105,604098,1745095316562,0.0,204.25,,-0.03,0.1,0.95,0.0,0.0,0.0,0.96,1.06,91.0,3237.0,4.5,3.57,,12.59,1.093,95.2,,36.4,5.0,,,,,,,,,,,,0,0,0,0,0,0,0,0,0,0,0,0,0,0,0,0,,,,,0.0,,,,,,
106,604118,1745095316582,,,,,,,,,,,,,,,,,,,,,,,,,,,,,,,,,,0,0,0,0,0,0,0,0,0,0,0,0,0,0,0,0,,,,,,,,,,,
107,604138,1745095316602,0.0,204.12,,-0.03,0.08,1.03,0.0,0.0,1.0,1.03,1.06,97.0,3232.0,4.5,3.58,,12.56,1.09,95.2,,35.1,5.0,,,,,,,,,,,,0,0,0,0,0,0,0,0,0,0,0,0,0,0,0,0,,,,,0.0,,,,,,
108,604158,1745095316622,,,,,,,,,,,,,,,,,,,,,,,,,,,,,,,,,,0,0,0,0,0,0,0,0,0,0,0,0,0,0,0,0,,,,,,,,,,,
109,604178,1745095316642,0.0,204.25,,-0.07,0.02,1.04,0.0,0.0,0.0,1.05,1.06,99.0,3298.0,4.5,3.58,,12.56,1.09,95.2,,35.1,5.0,0.0,0.0,0.0,0.0,0.0,0.0,0.0,0.0,2.26,,,0,0,0,0,0,0,0,0,0,0,0,0,0,0,0,0,0.0,,,,0.0,39.240089,-77.965401,0.11,34.0,3.0,0.8
110,604198,1745095316662,,,,,,,,,,,,,,,,,,,,,,,,,,,,,,,,,,0,0,0,0,0,0,0,0,0,0,0,0,0,0,0,0,,,,,,,,,,,
111,604218,1745095316682,0.0,204.12,,-0.04,0.12,1.0,0.0,0.0,1.0,1.01,1.06,95.0,3298.0,4.5,3.58,,12.57,1.099,95.2,,36.1,5.0,,,,,,,,,,,,0,0,0,0,0,0,0,0,0,0,0,0,0,0,0,0,,,,,0.0,,,,,,
112,604238,1745095316704,,,,,,,,,,,,,,,,,,,,,,,,,,,,,,,,,,0,0,0,0,0,0,0,0,0,0,0,0,0,0,0,0,,,,,,,,,,,
113,604258,1745095316724,0.0,204.12,,-0.04,0.05,1.08,0.0,0.0,1.0,1.08,1.08,100.0,3336.0,4.5,3.57,,12.61,1.176,95.2,,36.1,5.0,,,,,,,,,,,,0,0,0,0,0,0,0,0,0,0,0,0,0,0,0,0,,,,,0.0,,,,,,
114,604278,1745095316744,,,,,,,,,,,,,,,,,,,,,,,0.0,0.0,0.0,0.0,0.0,0.0,0.0,0.0,2.26,,,0,0,0,0,0,0,0,0,0,0,0,0,0,0,0,0,0.0,,,,,39.240089,-77.965401,0.13,34.0,3.0,0.8
115,604298,1745095316764,0.0,204.12,,-0.05,0.03,1.01,0.0,0.0,0.0,1.02,1.08,94.0,3267.0,4.4,3.58,,12.56,1.179,95.2,,36.1,5.0,,,,,,,,,,,,0,0,0,0,0,0,0,0,0,0,0,0,0,0,0,0,,,,,0.0,,,,,,
116,604318,1745095316784,,,,,,,,,,,,,,,,,,,,,,,,,,,,,,,,,,0,0,0,0,0,0,0,0,0,0,0,0,0,0,0,0,,,,,,,,,,,
117,604338,1745095316804,0.0,204.25,,-0.04,0.07,1.01,0.0,0.0,1.0,1.01,1.08,94.0,3306.0,4.4,3.59,,12.53,1.104,95.2,,35.3,5.0,,,,,,,,,,,,0,0,0,0,0,0,0,0,0,0,0,0,0,0,0,0,,,,,0.0,,,,,,
118,604358,1745095316824,,,,,,,,,,,,,,,,,,,,,,,,,,,,,,,,,,0,0,0,0,0,0,0,0,0,0,0,0,0,0,0,0,,,,,,,,,,,
119,604378,1745095316844,0.0,204.25,13.49,-0.04,-0.01,0.98,0.0,0.0,0.0,0.99,1.08,91.0,3412.0,4.4,3.57,15.0,12.53,1.104,95.2,142.0,35.3,5.0,0.0,0.0,0.0,0.0,0.0,0.0,0.0,0.0,2.26,0.0,0.0,0,0,0,0,0,0,0,0,0,0,0,0,0,0,0,0,0.0,0.0,0.0,0.0,0.0,39.240089,-77.965401,0.08,34.0,3.0,0.8
120,604398,1745095316864,,,,,,,,,,,,,,,,,,,,,,,,,,,,,,,,,,0,0,0,0,0,0,0,0,0,0,0,0,0,0,0,0,,,,,,,,,,,
121,604418,1745095316884,0.0,204.12,,-0.04,0.03,1.03,0.0,0.0,1.0,1.03,1.08,96.0,3412.0,4.4,3.57,,12.56,1.104,95.2,,37.3,5.0,,,,,,,,,,,,0,0,0,0,0,0,0,0,0,0,0,0,0,0,0,0,,,,,0.0,,,,,,
122,604438,1745095316904,,,,,,,,,,,,,,,,,,,,,,,,,,,,,,,,,,0,0,0,0,0,0,0,0,0,0,0,0,0,0,0,0,,,,,,,,,,,
123,604458,1745095316924,0.0,204.12,,-0.04,0.03,0.99,0.0,0.0,0.0,1.0,1.08,92.0,3424.0,4.3,3.56,,12.55,1.098,95.2,,37.3,5.0,,,,,,,,,,,,0,0,0,0,0,0,0,0,0,0,0,0,0,0,0,0,,,,,0.0,,,,,,
124,604478,1745095316944,,,,,,,,,,,,,,,,,,,,,,,0.0,0.0,0.0,0.0,0.0,0.0,0.0,0.0,2.26,,,0,0,0,0,0,0,0,0,0,0,0,0,0,0,0,0,0.0,,,,,39.240089,-77.965401,0.07,34.0,3.0,0.8
125,604498,1745095316964,0.0,204.25,,-0.06,-0.03,1.01,0.0,0.0,0.0,1.01,1.08,93.0,3643.0,4.4,3.55,,12.39,1.074,95.2,,37.3,5.0,,,,,,,,,,,,0,0,0,0,0,0,0,0,0,0,0,0,0,0,0,0,,,,,0.0,,,,,,
126,604518,1745095316984,,,,,,,,,,,,,,,,,,,,,,,,,,,,,,,,,,0,0,0,0,0,0,0,0,0,0,0,0,0,0,0,0,,,,,,,,,,,
127,604538,1745095316995,0.0,204.25,,-0.06,0.03,1.05,0.0,0.0,0.0,1.06,1.08,98.0,3512.0,4.5,3.55,,12.33,1.143,95.2,,39.9,5.0,,,,,,,,,,,,0,0,0,0,0,0,0,0,0,0,0,0,0,0,0,0,,,,,0.0,,,,,,
128,604558,1745095317015,,,,,,,,,,,,,,,,,,,,,,,,,,,,,,,,,,0,0,0,0,0,0,0,0,0,0,0,0,0,0,0,0,,,,,,,,,,,
129,604578,1745095317035,0.0,204.25,,-0.04,0.1,1.0,0.0,0.0,1.0,1.01,1.08,93.0,3457.0,4.6,3.54,,12.33,1.143,95.2,,39.9,5.0,0.0,0.0,0.0,0.0,0.0,0.0,0.0,0.0,2.26,,,0,0,0,0,0,0,0,0,0,0,0,0,0,0,0,0,0.0,,,,0.0,39.240089,-77.965401,0.0,33.0,3.0,0.8
130,604598,1745095317055,,,,,,,,,,,,,,,,,,,,,,,,,,,,,,,,,,0,0,0,0,0,0,0,0,0,0,0,0,0,0,0,0,,,,,,,,,,,
131,604618,1745095317075,0.0,204.12,,-0.07,-0.01,1.06,0.0,0.0,0.0,1.06,1.08,98.0,3457.0,4.6,3.54,,12.4,1.07,95.2,,37.5,5.0,,,,,,,,,,,,0,0,0,0,0,0,0,0,0,0,0,0,0,0,0,0,,,,,0.0,,,,,,
132,604638,1745095317104,,,,,,,,,,,,,,,,,,,,,,,,,,,,,,,,,,0,0,0,0,0,0,0,0,0,0,0,0,0,0,0,0,,,,,,,,,,,
133,604658,1745095317124,0.0,204.12,,-0.05,0.07,0.98,0.0,0.0,0.0,0.98,1.08,91.0,3405.0,4.6,3.57,,12.43,1.025,95.2,,37.5,5.0,,,,,,,,,,,,0,0,0,0,0,0,0,0,0,0,0,0,0,0,0,0,,,,,0.0,,,,,,
134,604678,1745095317144,,,,,,,,,,,,,,,,,,,,,,,0.0,0.0,0.0,0.0,0.0,0.0,0.0,0.0,2.25,,,0,0,0,0,0,0,0,0,0,0,0,0,0,0,0,0,0.0,,,,,39.240089,-77.965401,0.0,33.0,3.0,0.8
135,604698,1745095317164,0.0,204.25,,-0.04,0.02,1.07,0.0,0.0,0.0,1.07,1.08,99.0,3273.0,4.6,3.57,,12.45,1.052,95.2,,37.5,5.0,,,,,,,,,,,,0,0,0,0,0,0,0,0,0,0,0,0,0,0,0,0,,,,,0.0,,,,,,
136,604718,1745095317184,,,,,,,,,,,,,,,,,,,,,,,,,,,,,,,,,,0,0,0,0,0,0,0,0,0,0,0,0,0,0,0,0,,,,,,,,,,,
137,604738,1745095317203,0.0,204.25,,-0.06,-0.02,1.06,0.0,0.0,0.0,1.06,1.08,98.0,3230.0,4.6,3.58,,12.52,1.098,95.2,,36.2,5.0,,,,,,,,,,,,0,0,0,0,0,0,0,0,0,0,0,0,0,0,0,0,,,,,0.0,,,,,,
138,604758,1745095317223,,,,,,,,,,,,,,,,,,,,,,,,,,,,,,,,,,0,0,0,0,0,0,0,0,0,0,0,0,0,0,0,0,,,,,,,,,,,
139,604778,1745095317243,0.0,204.12,,-0.05,0.02,0.96,0.0,0.0,0.0,0.96,1.08,88.0,3170.0,4.4,3.59,,12.52,1.098,95.2,,36.2,5.0,0.0,0.0,0.0,0.0,0.0,0.0,0.0,0.0,2.26,,,0,0,0,0,0,0,0,0,0,0,0,0,0,0,0,0,0.0,,,,0.0,39.240089,-77.965401,0.04,33.0,3.0,0.8
140,604798,1745095317263,,,,,,,,,,,,,,,,,,,,,,,,,,,,,,,,,,0,0,0,0,0,0,0,0,0,0,0,0,0,0,0,0,,,,,,,,,,,
141,604818,1745095317283,0.0,204.12,,-0.05,0.04,1.03,0.0,0.0,0.0,1.03,1.08,95.0,3170.0,4.4,3.59,,12.51,1.122,95.2,,36.5,5.0,,,,,,,,,,,,0,0,0,0,0,0,0,0,0,0,0,0,0,0,0,0,,,,,0.0,,,,,,
142,604838,1745095317303,,,,,,,,,,,,,,,,,,,,,,,,,,,,,,,,,,0,0,0,0,0,0,0,0,0,0,0,0,0,0,0,0,,,,,,,,,,,
143,604858,1745095317323,0.0,204.12,,-0.03,0.07,0.94,0.0,0.0,0.0,0.94,1.08,87.0,3353.0,4.4,3.58,,12.57,1.166,95.2,,36.5,5.0,,,,,,,,,,,,0,0,0,0,0,0,0,0,0,0,0,0,0,0,0,0,,,,,0.0,,,,,,
144,604878,1745095317343,,,,,,,,,,,,,,,,,,,,,,,0.0,0.0,0.0,0.0,0.0,0.0,0.0,0.0,2.26,,,0,0,0,0,0,0,0,0,0,0,0,0,0,0,0,0,0.0,,,,,39.240089,-77.965401,0.0,33.0,3.0,0.8
145,604898,1745095317363,0.0,204.0,,-0.06,-0.01,1.03,0.0,0.0,0.0,1.04,1.08,96.0,3431.0,4.3,3.57,,12.53,1.163,95.2,,36.5,5.0,,,,,,,,,,,,0,0,0,0,0,0,0,0,0,0,0,0,0,0,0,0,,,,,0.0,,,,,,
146,604918,1745095317383,,,,,,,,,,,,,,,,,,,,,,,,,,,,,,,,,,0,0,0,0,0,0,0,0,0,0,0,0,0,0,0,0,,,,,,,,,,,
147,604938,1745095317403,0.0,204.0,,-0.04,0.02,0.95,1.0,0.0,0.0,0.95,1.08,87.0,3299.0,4.3,3.57,,12.52,1.1,95.2,,37.1,5.0,,,,,,,,,,,,0,0,0,0,0,0,0,0,0,0,0,0,0,0,0,0,,,,,0.0,,,,,,
148,604958,1745095317423,,,,,,,,,,,,,,,,,,,,,,,,,,,,,,,,,,0,0,0,0,0,0,0,0,0,0,0,0,0,0,0,0,,,,,,,,,,,
149,604978,1745095317443,0.0,204.12,,-0.04,0.06,0.99,0.0,0.0,0.0,1.0,1.08,92.0,3262.0,4.3,3.58,,12.52,1.1,95.2,,37.1,5.0,0.0,0.0,0.0,0.0,0.0,0.0,0.0,0.0,2.26,,,0,0,0,0,0,0,0,0,0,0,0,0,0,0,0,0,0.0,,,,0.0,39.240089,-77.965401,0.04,33.0,3.0,0.8
150,604998,1745095317463,,,,,,,,,,,,,,,,,,,,,,,,,,,,,,,,,,0,0,0,0,0,0,0,0,0,0,0,0,0,0,0,0,,,,,,,,,,,
151,605018,1745095317483,0.0,204.12,,-0.06,-0.01,1.06,0.0,0.0,0.0,1.06,1.08,98.0,3262.0,4.3,3.58,,12.57,1.078,95.2,,34.8,5.0,,,,,,,,,,,,0,0,0,0,0,0,0,0,0,0,0,0,0,0,0,0,,,,,0.0,,,,,,
152,605038,1745095317503,,,,,,,,,,,,,,,,,,,,,,,,,,,,,,,,,,0,0,0,0,0,0,0,0,0,0,0,0,0,0,0,0,,,,,,,,,,,
153,605058,1745095317523,0.0,204.0,,-0.08,-0.04,1.03,1.0,0.0,0.0,1.04,1.08,96.0,3194.0,4.4,3.58,,12.55,1.076,95.2,,34.8,5.0,,,,,,,,,,,,0,0,0,0,0,0,0,0,0,0,0,0,0,0,0,0,,,,,0.0,,,,,,
154,605078,1745095317543,,,,,,,,,,,,,,,,,,,,,,,0.0,0.0,0.0,0.0,0.0,0.0,0.0,0.0,2.26,,,0,0,0,0,0,0,0,0,0,0,0,0,0,0,0,0,0.0,,,,,39.240089,-77.965401,0.05,33.0,3.0,0.8
155,605098,1745095317563,0.0,204.12,,-0.06,-0.01,0.94,1.0,0.0,0.0,0.94,1.08,87.0,3121.0,4.5,3.58,,12.6,1.079,95.2,,34.8,5.0,,,,,,,,,,,,0,0,0,0,0,0,0,0,0,0,0,0,0,0,0,0,,,,,0.0,,,,,,
156,605118,1745095317583,,,,,,,,,,,,,,,,,,,,,,,,,,,,,,,,,,0,0,0,0,0,0,0,0,0,0,0,0,0,0,0,0,,,,,,,,,,,
157,605138,1745095317603,0.0,204.0,,-0.04,0.06,0.86,0.0,0.0,0.0,0.86,1.08,80.0,3060.0,4.5,3.58,,12.67,1.094,95.2,,34.1,5.0,,,,,,,,,,,,0,0,0,0,0,0,0,0,0,0,0,0,0,0,0,0,,,,,0.0,,,,,,
158,605158,1745095317623,,,,,,,,,,,,,,,,,,,,,,,,,,,,,,,,,,0,0,0,0,0,0,0,0,0,0,0,0,0,0,0,0,,,,,,,,,,,
159,605178,1745095317643,0.0,204.0,,-0.03,0.13,0.83,0.0,0.0,0.0,0.84,1.08,78.0,3063.0,4.5,3.59,,12.67,1.094,95.2,,34.1,5.0,0.0,0.0,0.0,0.0,0.0,0.0,0.0,0.0,2.26,,,0,0,0,0,0,0,0,0,0,0,0,0,0,0,0,0,0.0,,,,0.0,39.240089,-77.965401,0.04,33.0,3.0,0.8
160,605198,1745095317663,,,,,,,,,,,,,,,,,,,,,,,,,,,,,,,,,,0,0,0,0,0,0,0,0,0,0,0,0,0,0,0,0,,,,,,,,,,,
161,605218,1745095317683,0.0,204.0,,-0.04,0.09,0.94,0.0,0.0,0.0,0.95,1.08,88.0,3063.0,4.5,3.59,,12.71,1.115,95.2,,34.4,5.0,,,,,,,,,,,,0,0,0,0,0,0,0,0,0,0,0,0,0,0,0,0,,,,,0.0,,,,,,
162,605238,1745095317705,,,,,,,,,,,,,,,,,,,,,,,,,,,,,,,,,,0,0,0,0,0,0,0,0,0,0,0,0,0,0,0,0,,,,,,,,,,,
163,605258,1745095317725,0.0,204.0,,-0.04,0.05,0.88,0.0,0.0,0.0,0.88,1.08,81.0,3265.0,4.5,3.58,,12.67,1.167,95.2,,34.4,5.0,,,,,,,,,,,,0,0,0,0,0,0,0,0,0,0,0,0,0,0,0,0,,,,,0.0,,,,,,
164,605278,1745095317745,,,,,,,,,,,,,,,,,,,,,,,0.0,0.0,0.0,0.0,0.0,0.0,0.0,0.0,2.26,,,0,0,0,0,0,0,0,0,0,0,0,0,0,0,0,0,0.0,,,,,39.240089,-77.965401,0.0,33.0,3.0,0.8
165,605298,1745095317765,0.0,204.12,,-0.04,0.07,0.97,0.0,0.0,0.0,0.98,1.08,90.0,3388.0,4.4,3.57,,12.65,1.178,95.2,,34.4,5.0,,,,,,,,,,,,0,0,0,0,0,0,0,0,0,0,0,0,0,0,0,0,,,,,0.0,,,,,,
166,605318,1745095317785,,,,,,,,,,,,,,,,,,,,,,,,,,,,,,,,,,0,0,0,0,0,0,0,0,0,0,0,0,0,0,0,0,,,,,,,,,,,
167,605338,1745095317803,0.0,204.0,,-0.04,0.03,0.89,1.0,0.0,0.0,0.89,1.08,82.0,3357.0,4.4,3.58,,12.59,1.092,95.2,,36.5,5.0,,,,,,,,,,,,0,0,0,0,0,0,0,0,0,0,0,0,0,0,0,0,,,,,0.0,,,,,,
168,605358,1745095317823,,,,,,,,,,,,,,,,,,,,,,,,,,,,,,,,,,0,0,0,0,0,0,0,0,0,0,0,0,0,0,0,0,,,,,,,,,,,
169,605378,1745095317843,0.0,204.12,13.47,-0.03,0.09,0.94,0.0,0.0,0.0,0.94,1.08,87.0,3276.0,4.3,3.57,15.0,12.59,1.092,95.2,142.0,36.5,5.0,0.0,0.0,0.0,0.0,0.0,0.0,0.0,0.0,2.26,0.0,0.0,0,0,0,0,0,0,0,0,0,0,0,0,0,0,0,0,0.0,0.0,0.0,0.0,0.0,39.240089,-77.965401,0.07,33.0,3.0,0.8
170,605398,1745095317863,,,,,,,,,,,,,,,,,,,,,,,,,,,,,,,,,,0,0,0,0,0,0,0,0,0,0,0,0,0,0,0,0,,,,,,,,,,,
171,605418,1745095317883,0.0,204.0,,-0.04,0.02,1.0,0.0,0.0,0.0,1.0,1.08,92.0,3276.0,4.3,3.57,,12.57,1.084,95.2,,35.7,5.0,,,,,,,,,,,,0,0,0,0,0,0,0,0,0,0,0,0,0,0,0,0,,,,,0.0,,,,,,
172,605438,1745095317905,,,,,,,,,,,,,,,,,,,,,,,,,,,,,,,,,,0,0,0,0,0,0,0,0,0,0,0,0,0,0,0,0,,,,,,,,,,,
173,605458,1745095317925,0.0,204.0,,-0.05,0.03,0.93,0.0,0.0,0.0,0.94,1.08,86.0,3238.0,4.3,3.58,,12.57,1.1,95.2,,35.7,5.0,,,,,,,,,,,,0,0,0,0,0,0,0,0,0,0,0,0,0,0,0,0,,,,,0.0,,,,,,
174,605478,1745095317945,,,,,,,,,,,,,,,,,,,,,,,0.0,0.0,0.0,0.0,0.0,0.0,0.0,0.0,2.26,,,0,0,0,0,0,0,0,0,0,0,0,0,0,0,0,0,0.0,,,,,39.240089,-77.965401,0.0,33.0,3.0,0.8
175,605498,1745095317965,0.0,204.12,,-0.04,0.1,0.88,0.0,0.0,0.0,0.88,1.08,82.0,3172.0,4.3,3.58,,12.61,1.096,95.2,,35.7,5.0,,,,,,,,,,,,0,0,0,0,0,0,0,0,0,0,0,0,0,0,0,0,,,,,0.0,,,,,,
176,605518,1745095317985,,,,,,,,,,,,,,,,,,,,,,,,,,,,,,,,,,0,0,0,0,0,0,0,0,0,0,0,0,0,0,0,0,,,,,,,,,,,
177,605538,1745095317996,0.0,204.0,,-0.02,0.17,0.87,0.0,0.0,0.0,0.89,1.08,82.0,3064.0,4.4,3.58,,12.61,1.111,95.2,,34.1,5.0,,,,,,,,,,,,0,0,0,0,0,0,0,0,0,0,0,0,0,0,0,0,,,,,0.0,,,,,,
178,605558,1745095318016,,,,,,,,,,,,,,,,,,,,,,,,,,,,,,,,,,0,0,0,0,0,0,0,0,0,0,0,0,0,0,0,0,,,,,,,,,,,
179,605578,1745095318036,0.0,204.0,,-0.01,0.15,0.92,0.0,0.0,1.0,0.94,1.08,87.0,3069.0,4.5,3.58,,12.61,1.111,95.2,,34.1,5.0,0.0,0.0,0.0,0.0,0.0,0.0,0.0,0.0,2.26,,,0,0,0,0,0,0,0,0,0,0,0,0,0,0,0,0,0.0,,,,0.0,39.240089,-77.965401,0.04,34.0,3.0,0.8
180,605598,1745095318056,,,,,,,,,,,,,,,,,,,,,,,,,,,,,,,,,,0,0,0,0,0,0,0,0,0,0,0,0,0,0,0,0,,,,,,,,,,,
181,605618,1745095318076,0.0,204.0,,-0.02,0.08,1.0,-1.0,0.0,1.0,1.0,1.08,92.0,3069.0,4.5,3.58,,12.73,1.135,95.2,,32.9,5.0,,,,,,,,,,,,0,0,0,0,0,0,0,0,0,0,0,0,0,0,0,0,,,,,0.0,,,,,,
182,605638,1745095318100,,,,,,,,,,,,,,,,,,,,,,,,,,,,,,,,,,0,0,0,0,0,0,0,0,0,0,0,0,0,0,0,0,,,,,,,,,,,
183,605658,1745095318120,0.0,204.0,,-0.02,0.0,1.06,-1.0,0.0,1.0,1.06,1.08,98.0,3079.0,4.5,3.6,,12.69,1.144,95.2,,32.9,5.0,,,,,,,,,,,,0,0,0,0,0,0,0,0,0,0,0,0,0,0,0,0,,,,,0.0,,,,,,
184,605678,1745095318140,,,,,,,,,,,,,,,,,,,,,,,0.0,0.0,0.0,0.0,0.0,0.0,0.0,0.0,2.26,,,0,0,0,0,0,0,0,0,0,0,0,0,0,0,0,0,0.0,,,,,39.240089,-77.965401,0.05,34.0,3.0,0.8
185,605698,1745095318160,0.0,204.0,,-0.02,-0.04,1.12,-1.0,0.0,1.0,1.12,1.12,100.0,3047.0,4.5,3.59,,12.75,1.152,95.2,,32.9,5.0,,,,,,,,,,,,0,0,0,0,0,0,0,0,0,0,0,0,0,0,0,0,,,,,0.0,,,,,,
186,605718,1745095318180,,,,,,,,,,,,,,,,,,,,,,,,,,,,,,,,,,0,0,0,0,0,0,0,0,0,0,0,0,0,0,0,0,,,,,,,,,,,
187,605738,1745095318204,0.0,204.0,,-0.02,-0.08,1.15,-1.0,0.0,1.0,1.15,1.15,100.0,2941.0,4.5,3.6,,12.83,1.177,95.2,,32.2,5.0,,,,,,,,,,,,0,0,0,0,0,0,0,0,0,0,0,0,0,0,0,0,,,,,0.0,,,,,,
188,605758,1745095318224,,,,,,,,,,,,,,,,,,,,,,,,,,,,,,,,,,0,0,0,0,0,0,0,0,0,0,0,0,0,0,0,0,,,,,,,,,,,
189,605778,1745095318244,0.0,204.0,,-0.01,-0.09,1.15,-1.0,0.0,1.0,1.16,1.16,100.0,2922.0,4.5,3.6,,12.83,1.177,95.2,,32.2,5.0,0.0,0.0,0.0,0.0,0.0,0.0,0.0,0.0,2.26,,,0,0,0,0,0,0,0,0,0,0,0,0,0,0,0,0,0.0,,,,0.0,39.240089,-77.965401,0.06,34.0,3.0,0.8
190,605798,1745095318264,,,,,,,,,,,,,,,,,,,,,,,,,,,,,,,,,,0,0,0,0,0,0,0,0,0,0,0,0,0,0,0,0,,,,,,,,,,,
191,605818,1745095318284,0.0,204.0,,0.01,-0.05,1.12,-1.0,0.0,1.0,1.12,1.16,97.0,2922.0,4.5,3.6,,12.88,1.183,95.2,,31.4,5.0,,,,,,,,,,,,0,0,0,0,0,0,0,0,0,0,0,0,0,0,0,0,,,,,0.0,,,,,,
192,605838,1745095318302,,,,,,,,,,,,,,,,,,,,,,,,,,,,,,,,,,0,0,0,0,0,0,0,0,0,0,0,0,0,0,0,0,,,,,,,,,,,
193,605858,1745095318322,0.0,204.0,,0.02,0.01,1.11,-1.0,0.0,1.0,1.11,1.16,96.0,2919.0,8.1,3.76,,12.99,1.18,95.2,,31.4,5.0,,,,,,,,,,,,0,0,0,0,0,0,0,0,0,0,0,0,0,0,0,0,,,,,0.0,,,,,,
194,605878,1745095318342,,,,,,,,,,,,,,,,,,,,,,,0.0,0.0,0.0,0.0,0.0,0.0,0.0,0.0,2.26,,,0,0,0,0,0,0,0,0,0,0,0,0,0,0,0,0,0.0,,,,,39.240089,-77.965401,0.04,34.0,3.0,0.8
195,605898,1745095318362,0.0,204.12,,-0.01,-0.08,1.16,-1.0,0.0,1.0,1.17,1.17,100.0,3160.0,10.4,3.86,,13.19,1.198,95.2,,31.4,5.0,,,,,,,,,,,,0,0,0,0,0,0,0,0,0,0,0,0,0,0,0,0,,,,,0.0,,,,,,
196,605918,1745095318382,,,,,,,,,,,,,,,,,,,,,,,,,,,,,,,,,,0,0,0,0,0,0,0,0,0,0,0,0,0,0,0,0,,,,,,,,,,,
197,605938,1745095318404,0.0,204.12,,-0.01,-0.02,1.07,-1.0,0.0,1.0,1.07,1.17,91.0,3274.0,10.6,3.8,,13.23,1.183,95.2,,35.5,5.0,,,,,,,,,,,,0,0,0,0,0,0,0,0,0,0,0,0,0,0,0,0,,,,,0.0,,,,,,
198,605958,1745095318424,,,,,,,,,,,,,,,,,,,,,,,,,,,,,,,,,,0,0,0,0,0,0,0,0,0,0,0,0,0,0,0,0,,,,,,,,,,,
199,605978,1745095318444,0.0,204.0,,-0.0,-0.02,1.13,-1.0,0.0,1.0,1.13,1.17,97.0,3350.0,10.7,3.8,,13.23,1.183,95.2,,35.5,5.0,0.0,0.0,0.0,0.0,0.0,0.0,0.0,0.0,2.26,,,0,0,0,0,0,0,0,0,0,0,0,0,0,0,0,0,0.0,,,,0.0,39.240089,-77.965401,0.05,34.0,3.0,0.8
200,605998,1745095318464,,,,,,,,,,,,,,,,,,,,,,,,,,,,,,,,,,0,0,0,0,0,0,0,0,0,0,0,0,0,0,0,0,,,,,,,,,,,
201,606018,1745095318484,0.0,204.0,,-0.01,-0.04,1.05,0.0,0.0,1.0,1.05,1.17,90.0,3350.0,10.7,3.8,,13.17,1.119,95.2,,36.3,5.0,,,,,,,,,,,,0,0,0,0,0,0,0,0,0,0,0,0,0,0,0,0,,,,,0.0,,,,,,
202,606038,1745095318504,,,,,,,,,,,,,,,,,,,,,,,,,,,,,,,,,,0,0,0,0,0,0,0,0,0,0,0,0,0,0,0,0,,,,,,,,,,,
203,606058,1745095318524,0.0,204.12,,-0.0,0.02,1.05,-1.0,0.0,1.0,1.05,1.17,90.0,3311.0,10.8,3.8,,13.13,1.12,95.2,,36.3,5.0,,,,,,,,,,,,0,0,0,0,0,0,0,0,0,0,0,0,0,0,0,0,,,,,0.0,,,,,,
204,606078,1745095318544,,,,,,,,,,,,,,,,,,,,,,,0.0,0.0,0.0,0.0,0.0,0.0,0.0,0.0,2.26,,,0,0,0,0,0,0,0,0,0,0,0,0,0,0,0,0,0.0,,,,,39.240089,-77.965401,0.0,34.0,3.0,0.8
205,606098,1745095318564,0.0,204.12,,-0.03,-0.06,1.05,0.0,0.0,0.0,1.05,1.17,90.0,3406.0,10.9,3.81,,13.2,1.127,95.2,,36.3,5.0,,,,,,,,,,,,0,0,0,0,0,0,0,0,0,0,0,0,0,0,0,0,,,,,0.0,,,,,,
206,606118,1745095318584,,,,,,,,,,,,,,,,,,,,,,,,,,,,,,,,,,0,0,0,0,0,0,0,0,0,0,0,0,0,0,0,0,,,,,,,,,,,
207,606138,1745095318604,0.0,204.12,,-0.01,0.04,1.05,-1.0,0.0,1.0,1.05,1.17,90.0,3379.0,10.9,3.8,,13.17,1.154,95.2,,36.9,5.0,,,,,,,,,,,,0,0,0,0,0,0,0,0,0,0,0,0,0,0,0,0,,,,,0.0,,,,,,
208,606158,1745095318624,,,,,,,,,,,,,,,,,,,,,,,,,,,,,,,,,,0,0,0,0,0,0,0,0,0,0,0,0,0,0,0,0,,,,,,,,,,,
209,606178,1745095318644,0.0,204.12,,-0.02,-0.06,1.04,0.0,0.0,0.0,1.04,1.17,89.0,3367.0,10.9,3.81,,13.17,1.154,95.2,,36.9,5.0,0.0,0.0,0.0,0.0,0.0,0.0,0.0,0.0,2.26,,,0,0,0,0,0,0,0,0,0,0,0,0,0,0,0,0,0.0,,,,0.0,39.240089,-77.965401,0.1,34.0,3.0,0.8
210,606198,1745095318664,,,,,,,,,,,,,,,,,,,,,,,,,,,,,,,,,,0,0,0,0,0,0,0,0,0,0,0,0,0,0,0,0,,,,,,,,,,,
211,606218,1745095318684,0.0,204.25,,-0.01,0.03,1.04,-1.0,0.0,1.0,1.04,1.17,89.0,3367.0,10.9,3.81,,13.2,1.173,95.2,,37.1,5.0,,,,,,,,,,,,0,0,0,0,0,0,0,0,0,0,0,0,0,0,0,0,,,,,0.0,,,,,,
212,606238,1745095318705,,,,,,,,,,,,,,,,,,,,,,,,,,,,,,,,,,0,0,0,0,0,0,0,0,0,0,0,0,0,0,0,0,,,,,,,,,,,
213,606258,1745095318725,0.0,204.25,,-0.03,-0.05,1.01,0.0,0.0,0.0,1.01,1.17,86.0,3398.0,10.9,3.81,,13.16,1.197,95.2,,37.1,5.0,,,,,,,,,,,,0,0,0,0,0,0,0,0,0,0,0,0,0,0,0,0,,,,,0.0,,,,,,
214,606278,1745095318745,,,,,,,,,,,,,,,,,,,,,,,0.0,0.0,0.0,0.0,0.0,0.0,0.0,0.0,2.26,,,0,0,0,0,0,0,0,0,0,0,0,0,0,0,0,0,0.0,,,,,39.240089,-77.965401,0.11,34.0,3.0,0.8
215,606298,1745095318765,0.0,204.37,,-0.01,0.04,1.0,-1.0,0.0,1.0,1.0,1.17,86.0,3333.0,10.9,3.81,,13.21,1.193,95.2,,37.1,5.0,,,,,,,,,,,,0,0,0,0,0,0,0,0,0,0,0,0,0,0,0,0,,,,,0.0,,,,,,
216,606318,1745095318785,,,,,,,,,,,,,,,,,,,,,,,,,,,,,,,,,,0,0,0,0,0,0,0,0,0,0,0,0,0,0,0,0,,,,,,,,,,,
217,606338,1745095318804,0.0,204.37,,-0.04,-0.02,1.02,0.0,0.0,0.0,1.02,1.17,88.0,3375.0,10.8,3.81,,13.21,1.211,95.2,,36.8,5.0,,,,,,,,,,,,0,0,0,0,0,0,0,0,0,0,0,0,0,0,0,0,,,,,0.0,,,,,,
218,606358,1745095318824,,,,,,,,,,,,,,,,,,,,,,,,,,,,,,,,,,0,0,0,0,0,0,0,0,0,0,0,0,0,0,0,0,,,,,,,,,,,
219,606378,1745095318844,0.0,204.25,13.49,-0.03,0.06,0.98,0.0,0.0,0.0,0.98,1.17,84.0,3369.0,10.7,3.81,15.0,13.21,1.211,95.2,142.0,36.8,5.0,0.0,0.0,0.0,0.0,0.0,0.0,0.0,0.0,2.26,0.0,0.0,0,0,0,0,0,0,0,0,0,0,0,0,0,0,0,0,0.0,0.0,0.0,0.0,0.0,39.240089,-77.965401,0.05,34.0,3.0,0.8
220,606398,1745095318864,,,,,,,,,,,,,,,,,,,,,,,,,,,,,,,,,,0,0,0,0,0,0,0,0,0,0,0,0,0,0,0,0,,,,,,,,,,,
221,606418,1745095318884,0.0,204.25,,-0.05,-0.01,1.03,0.0,0.0,0.0,1.03,1.17,88.0,3369.0,10.7,3.81,,13.2,1.216,95.2,,36.9,5.0,,,,,,,,,,,,0,0,0,0,0,0,0,0,0,0,0,0,0,0,0,0,,,,,0.0,,,,,,
222,606438,1745095318904,,,,,,,,,,,,,,,,,,,,,,,,,,,,,,,,,,0,0,0,0,0,0,0,0,0,0,0,0,0,0,0,0,,,,,,,,,,,
223,606458,1745095318924,0.0,204.12,,-0.02,0.11,0.98,0.0,0.0,1.0,0.99,1.17,85.0,3352.0,10.8,3.81,,13.21,1.216,95.2,,36.9,5.0,,,,,,,,,,,,0,0,0,0,0,0,0,0,0,0,0,0,0,0,0,0,,,,,0.0,,,,,,
224,606478,1745095318944,,,,,,,,,,,,,,,,,,,,,,,0.0,0.0,0.0,0.0,0.0,0.0,0.0,0.0,2.26,,,0,0,0,0,0,0,0,0,0,0,0,0,0,0,0,0,0.0,,,,,39.240089,-77.965401,0.05,34.0,3.0,0.8
225,606498,1745095318964,0.0,204.12,,-0.04,0.01,1.02,0.0,0.0,0.0,1.02,1.17,88.0,3406.0,10.7,3.8,,13.2,1.216,95.2,,36.9,5.0,,,,,,,,,,,,0,0,0,0,0,0,0,0,0,0,0,0,0,0,0,0,,,,,0.0,,,,,,
226,606518,1745095318984,,,,,,,,,,,,,,,,,,,,,,,,,,,,,,,,,,0,0,0,0,0,0,0,0,0,0,0,0,0,0,0,0,,,,,,,,,,,
227,606538,1745095318995,0.0,204.12,,-0.04,0.05,1.02,0.0,0.0,0.0,1.02,1.17,88.0,3497.0,10.9,3.8,,13.25,1.203,93.4,,37.1,5.0,,,,,,,,,,,,0,0,0,0,0,0,0,0,0,0,0,0,0,0,0,0,,,,,0.0,,,,,,
228,606558,1745095319015,,,,,,,,,,,,,,,,,,,,,,,,,,,,,,,,,,0,0,0,0,0,0,0,0,0,0,0,0,0,0,0,0,,,,,,,,,,,
229,606578,1745095319035,0.0,204.12,,-0.03,0.04,1.02,0.0,0.0,0.0,1.02,1.17,87.0,3767.0,11.0,3.8,,13.25,1.203,93.4,,37.1,5.0,0.0,0.0,0.0,0.0,0.0,0.0,0.0,0.0,2.26,,,0,0,0,0,0,0,0,0,0,0,0,0,0,0,0,0,0.0,,,,0.0,39.240089,-77.965401,0.05,33.0,3.0,0.8
230,606598,1745095319055,,,,,,,,,,,,,,,,,,,,,,,,,,,,,,,,,,0,0,0,0,0,0,0,0,0,0,0,0,0,0,0,0,,,,,,,,,,,
231,606618,1745095319075,0.0,204.12,,-0.02,0.03,1.01,0.0,0.0,0.0,1.01,1.17,87.0,3726.0,11.0,3.8,,13.04,1.249,93.4,,41.5,5.0,,,,,,,,,,,,0,0,0,0,0,0,0,0,0,0,0,0,0,0,0,0,,,,,0.0,,,,,,
232,606638,1745095319097,,,,,,,,,,,,,,,,,,,,,,,,,,,,,,,,,,0,0,0,0,0,0,0,0,0,0,0,0,0,0,0,0,,,,,,,,,,,
233,606658,1745095319117,0.0,204.12,,-0.03,0.03,1.0,0.0,0.0,0.0,1.0,1.17,86.0,3726.0,10.9,3.78,,12.91,1.192,93.4,,41.5,5.0,,,,,,,,,,,,0,0,0,0,0,0,0,0,0,0,0,0,0,0,0,0,,,,,0.0,,,,,,
234,606678,1745095319137,,,,,,,,,,,,,,,,,,,,,,,0.0,0.0,0.0,0.0,0.0,0.0,0.0,0.0,2.26,,,0,0,0,0,0,0,0,0,0,0,0,0,0,0,0,0,0.0,,,,,39.240089,-77.965401,0.07,33.0,3.0,0.8
235,606698,1745095319157,0.0,204.25,,-0.05,0.05,1.01,0.0,0.0,0.0,1.01,1.17,87.0,3765.0,10.9,3.78,,12.87,1.141,93.4,,42.1,5.0,,,,,,,,,,,,0,0,0,0,0,0,0,0,0,0,0,0,0,0,0,0,,,,,0.0,,,,,,
236,606718,1745095319177,,,,,,,,,,,,,,,,,,,,,,,,,,,,,,,,,,0,0,0,0,0,0,0,0,0,0,0,0,0,0,0,0,,,,,,,,,,,
237,606738,1745095319201,0.0,204.12,,-0.04,0.05,1.01,0.0,0.0,0.0,1.01,1.17,87.0,3693.0,10.9,3.78,,12.87,1.124,93.4,,42.1,5.0,,,,,,,,,,,,0,0,0,0,0,0,0,0,0,0,0,0,0,0,0,0,,,,,0.0,,,,,,
238,606758,1745095319221,,,,,,,,,,,,,,,,,,,,,,,,,,,,,,,,,,0,0,0,0,0,0,0,0,0,0,0,0,0,0,0,0,,,,,,,,,,,
239,606778,1745095319241,0.0,204.12,,-0.04,0.03,1.0,0.0,0.0,0.0,1.0,1.17,86.0,3739.0,10.9,3.77,,12.92,1.159,93.4,,42.1,5.0,0.0,0.0,0.0,0.0,0.0,0.0,0.0,0.0,2.26,,,0,0,0,0,0,0,0,0,0,0,0,0,0,0,0,0,0.0,,,,0.0,39.240089,-77.965401,0.0,33.0,3.0,0.8
240,606798,1745095319261,,,,,,,,,,,,,,,,,,,,,,,,,,,,,,,,,,0,0,0,0,0,0,0,0,0,0,0,0,0,0,0,0,,,,,,,,,,,
241,606818,1745095319281,0.0,204.12,,-0.03,0.02,1.0,0.0,0.0,0.0,1.0,1.17,85.0,3739.0,10.9,3.77,,12.92,1.159,93.4,,41.5,5.0,,,,,,,,,,,,0,0,0,0,0,0,0,0,0,0,0,0,0,0,0,0,,,,,0.0,,,,,,
242,606838,1745095319303,,,,,,,,,,,,,,,,,,,,,,,,,,,,,,,,,,0,0,0,0,0,0,0,0,0,0,0,0,0,0,0,0,,,,,,,,,,,
243,606858,1745095319323,0.0,204.12,,-0.02,-0.01,1.01,0.0,0.0,0.0,1.01,1.17,86.0,3719.0,10.8,3.78,,12.88,1.17,93.4,,41.5,5.0,,,,,,,,,,,,0,0,0,0,0,0,0,0,0,0,0,0,0,0,0,0,,,,,0.0,,,,,,
244,606878,1745095319343,,,,,,,,,,,,,,,,,,,,,,,0.0,0.0,0.0,0.0,0.0,0.0,0.0,0.0,2.26,,,0,0,0,0,0,0,0,0,0,0,0,0,0,0,0,0,0.0,,,,,39.240089,-77.965401,0.07,33.0,3.0,0.8
245,606898,1745095319363,0.0,204.12,,-0.02,0.01,0.99,0.0,0.0,0.0,0.99,1.17,85.0,3668.0,10.7,3.78,,12.84,1.182,93.4,,41.3,5.0,,,,,,,,,,,,0,0,0,0,0,0,0,0,0,0,0,0,0,0,0,0,,,,,0.0,,,,,,
246,606918,1745095319383,,,,,,,,,,,,,,,,,,,,,,,,,,,,,,,,,,0,0,0,0,0,0,0,0,0,0,0,0,0,0,0,0,,,,,,,,,,,
247,606938,1745095319405,0.0,204.12,,-0.03,0.03,0.96,1.0,0.0,0.0,0.96,1.17,82.0,3690.0,10.7,3.78,,12.91,1.204,93.4,,41.3,5.0,,,,,,,,,,,,0,0,0,0,0,0,0,0,0,0,0,0,0,0,0,0,,,,,0.0,,,,,,
248,606958,1745095319425,,,,,,,,,,,,,,,,,,,,,,,,,,,,,,,,,,0,0,0,0,0,0,0,0,0,0,0,0,0,0,0,0,,,,,,,,,,,
249,606978,1745095319445,0.0,204.12,,-0.05,0.0,0.95,1.0,0.0,0.0,0.95,1.17,82.0,3645.0,10.7,3.78,,12.93,1.2,93.4,,41.3,5.0,0.0,0.0,0.0,0.0,0.0,0.0,0.0,0.0,2.26,,,0,0,0,0,0,0,0,0,0,0,0,0,0,0,0,0,0.0,,,,0.0,39.240089,-77.965401,0.08,33.0,3.0,0.8
250,606998,1745095319465,,,,,,,,,,,,,,,,,,,,,,,,,,,,,,,,,,0,0,0,0,0,0,0,0,0,0,0,0,0,0,0,0,,,,,,,,,,,
251,607018,1745095319485,0.0,204.25,,-0.05,-0.03,0.97,1.0,0.0,0.0,0.97,1.17,83.0,3641.0,10.8,3.78,,12.93,1.2,93.4,,40.7,5.0,,,,,,,,,,,,0,0,0,0,0,0,0,0,0,0,0,0,0,0,0,0,,,,,0.0,,,,,,
252,607038,1745095319505,,,,,,,,,,,,,,,,,,,,,,,,,,,,,,,,,,0,0,0,0,0,0,0,0,0,0,0,0,0,0,0,0,,,,,,,,,,,
253,607058,1745095319525,0.0,204.12,,-0.06,0.01,1.0,0.0,0.0,0.0,1.0,1.17,86.0,3641.0,10.8,3.78,,12.95,1.214,93.4,,40.7,5.0,,,,,,,,,,,,0,0,0,0,0,0,0,0,0,0,0,0,0,0,0,0,,,,,0.0,,,,,,
254,607078,1745095319545,,,,,,,,,,,,,,,,,,,,,,,0.0,0.0,0.0,0.0,0.0,0.0,0.0,0.0,2.26,,,0,0,0,0,0,0,0,0,0,0,0,0,0,0,0,0,0.0,,,,,39.240089,-77.965401,0.1,33.0,3.0,0.8
255,607098,1745095319565,0.0,204.37,,-0.04,0.05,1.0,0.0,0.0,0.0,1.0,1.17,86.0,3557.0,10.9,3.78,,12.99,1.212,93.4,,40.7,5.0,,,,,,,,,,,,0,0,0,0,0,0,0,0,0,0,0,0,0,0,0,0,,,,,0.0,,,,,,
256,607118,1745095319585,,,,,,,,,,,,,,,,,,,,,,,,,,,,,,,,,,0,0,0,0,0,0,0,0,0,0,0,0,0,0,0,0,,,,,,,,,,,
257,607138,1745095319603,0.0,204.25,,-0.07,-0.08,1.03,0.0,0.0,0.0,1.03,1.17,88.0,3584.0,11.0,3.79,,13.0,1.212,93.4,,39.7,5.0,,,,,,,,,,,,0,0,0,0,0,0,0,0,0,0,0,0,0,0,0,0,,,,,0.0,,,,,,
258,607158,1745095319623,,,,,,,,,,,,,,,,,,,,,,,,,,,,,,,,,,0,0,0,0,0,0,0,0,0,0,0,0,0,0,0,0,,,,,,,,,,,
259,607178,1745095319643,0.0,204.25,,-0.09,-0.15,1.03,0.0,0.0,0.0,1.04,1.17,89.0,3514.0,10.9,3.8,,13.0,1.204,93.4,,39.7,5.0,0.0,0.0,0.0,0.0,0.0,0.0,0.0,0.0,2.26,,,0,0,0,0,0,0,0,0,0,0,0,0,0,0,0,0,0.0,,,,0.0,39.240089,-77.965401,0.0,33.0,3.0,0.8
260,607198,1745095319663,,,,,,,,,,,,,,,,,,,,,,,,,,,,,,,,,,0,0,0,0,0,0,0,0,0,0,0,0,0,0,0,0,,,,,,,,,,,
261,607218,1745095319683,0.0,204.12,,-0.1,-0.1,1.05,0.0,0.0,0.0,1.06,1.17,91.0,3514.0,10.9,3.8,,13.0,1.204,93.4,,39.5,5.0,,,,,,,,,,,,0,0,0,0,0,0,0,0,0,0,0,0,0,0,0,0,,,,,0.0,,,,,,
262,607238,1745095319705,,,,,,,,,,,,,,,,,,,,,,,,,,,,,,,,,,0,0,0,0,0,0,0,0,0,0,0,0,0,0,0,0,,,,,,,,,,,
263,607258,1745095319725,0.0,204.12,,-0.08,-0.02,1.05,0.0,0.0,1.0,1.06,1.17,90.0,3625.0,13.7,3.92,,13.17,1.211,93.4,,39.5,5.0,,,,,,,,,,,,0,0,0,0,0,0,0,0,0,0,0,0,0,0,0,0,,,,,0.0,,,,,,
264,607278,1745095319745,,,,,,,,,,,,,,,,,,,,,,,0.0,0.0,0.0,0.0,0.0,0.0,0.0,0.0,2.26,,,0,0,0,0,0,0,0,0,0,0,0,0,0,0,0,0,0.0,,,,,39.240089,-77.965401,0.0,33.0,3.0,0.8
265,607298,1745095319765,0.0,204.12,,-0.07,-0.01,1.05,0.0,0.0,0.0,1.05,1.17,90.0,3617.0,14.7,3.95,,13.16,1.193,93.4,,39.5,5.0,,,,,,,,,,,,0,0,0,0,0,0,0,0,0,0,0,0,0,0,0,0,,,,,0.0,,,,,,
266,607318,1745095319785,,,,,,,,,,,,,,,,,,,,,,,,,,,,,,,,,,0,0,0,0,0,0,0,0,0,0,0,0,0,0,0,0,,,,,,,,,,,
267,607338,1745095319805,0.0,204.25,,-0.06,-0.03,1.04,-1.0,0.0,0.0,1.05,1.17,90.0,3746.0,14.8,3.89,,13.24,1.194,93.4,,41.0,5.0,,,,,,,,,,,,0,0,0,0,0,0,0,0,0,0,0,0,0,0,0,0,,,,,0.0,,,,,,
268,607358,1745095319825,,,,,,,,,,,,,,,,,,,,,,,,,,,,,,,,,,0,0,0,0,0,0,0,0,0,0,0,0,0,0,0,0,,,,,,,,,,,
269,607378,1745095319845,0.0,204.25,13.52,-0.07,-0.06,1.03,-1.0,0.0,1.0,1.04,1.17,89.0,3845.0,14.9,3.88,15.0,13.24,1.194,93.4,142.0,41.0,5.0,0.0,0.0,0.0,0.0,0.0,0.0,0.0,0.0,2.26,0.0,0.0,0,0,0,0,0,0,0,0,0,0,0,0,0,0,0,0,0.0,0.0,0.0,0.0,0.0,39.240089,-77.965401,0.13,33.0,3.0,0.8
270,607398,1745095319865,,,,,,,,,,,,,,,,,,,,,,,,,,,,,,,,,,0,0,0,0,0,0,0,0,0,0,0,0,0,0,0,0,,,,,,,,,,,
271,607418,1745095319885,0.0,204.12,,-0.07,-0.09,0.96,0.0,0.0,0.0,0.97,1.17,83.0,3969.0,14.9,3.85,,13.35,1.201,93.4,,43.7,5.0,,,,,,,,,,,,0,0,0,0,0,0,0,0,0,0,0,0,0,0,0,0,,,,,0.0,,,,,,
272,607438,1745095319905,,,,,,,,,,,,,,,,,,,,,,,,,,,,,,,,,,0,0,0,0,0,0,0,0,0,0,0,0,0,0,0,0,,,,,,,,,,,
273,607458,1745095319925,0.0,204.0,,-0.07,0.0,0.98,0.0,0.0,0.0,0.98,1.17,84.0,3969.0,14.9,3.85,,13.11,1.18,93.4,,43.7,5.0,,,,,,,,,,,,0,0,0,0,0,0,0,0,0,0,0,0,0,0,0,0,,,,,0.0,,,,,,
274,607478,1745095319945,,,,,,,,,,,,,,,,,,,,,,,0.0,0.0,0.0,0.0,0.0,0.0,0.0,0.0,2.26,,,0,0,0,0,0,0,0,0,0,0,0,0,0,0,0,0,0.0,,,,,39.240093,-77.965401,0.08,33.0,3.0,0.8
275,607498,1745095319965,0.0,204.0,,-0.08,0.02,1.02,-1.0,0.0,0.0,1.02,1.17,88.0,4023.0,14.9,3.85,,13.09,1.091,93.4,,43.7,5.0,,,,,,,,,,,,0,0,0,0,0,0,0,0,0,0,0,0,0,0,0,0,,,,,0.0,,,,,,
276,607518,1745095319985,,,,,,,,,,,,,,,,,,,,,,,,,,,,,,,,,,0,0,0,0,0,0,0,0,0,0,0,0,0,0,0,0,,,,,,,,,,,
277,607538,1745095319996,0.0,204.0,,-0.09,-0.04,0.94,0.0,0.0,0.0,0.94,1.17,81.0,3950.0,15.0,3.84,,13.09,1.041,93.4,,44.5,5.0,,,,,,,,,,,,0,0,0,0,0,0,0,0,0,0,0,0,0,0,0,0,,,,,0.0,,,,,,
278,607558,1745095320016,,,,,,,,,,,,,,,,,,,,,,,,,,,,,,,,,,0,0,0,0,0,0,0,0,0,0,0,0,0,0,0,0,,,,,,,,,,,
279,607578,1745095320036,0.0,204.0,,-0.09,0.04,0.96,0.0,0.0,0.0,0.97,1.17,83.0,4040.0,15.1,3.84,,13.08,1.026,93.4,,44.5,5.0,0.0,0.0,0.0,0.0,0.0,0.0,0.0,0.0,2.26,,,0,0,0,0,0,0,0,0,0,0,0,0,0,0,0,0,0.0,,,,0.0,39.240093,-77.965401,0.04,34.0,3.0,0.8
280,607598,1745095320056,,,,,,,,,,,,,,,,,,,,,,,,,,,,,,,,,,0,0,0,0,0,0,0,0,0,0,0,0,0,0,0,0,,,,,,,,,,,
281,607618,1745095320076,0.0,204.0,,-0.09,0.03,0.98,0.0,0.0,0.0,0.99,1.17,84.0,4040.0,15.1,3.84,,13.08,1.026,93.4,,45.2,5.0,,,,,,,,,,,,0,0,0,0,0,0,0,0,0,0,0,0,0,0,0,0,,,,,0.0,,,,,,
282,607638,1745095320100,,,,,,,,,,,,,,,,,,,,,,,,,,,,,,,,,,0,0,0,0,0,0,0,0,0,0,0,0,0,0,0,0,,,,,,,,,,,
283,607658,1745095320120,0.0,203.87,,-0.08,-0.09,0.9,1.0,0.0,0.0,0.91,1.17,78.0,3992.0,15.1,3.84,,13.12,1.02,93.4,,45.2,5.0,,,,,,,,,,,,0,0,0,0,0,0,0,0,0,0,0,0,0,0,0,0,,,,,0.0,,,,,,
284,607678,1745095320140,,,,,,,,,,,,,,,,,,,,,,,0.0,0.0,0.0,0.0,0.0,0.0,0.0,0.0,2.26,,,0,0,0,0,0,0,0,0,0,0,0,0,0,0,0,0,0.0,,,,,39.240093,-77.965401,0.04,34.0,3.0,0.8
285,607698,1745095320160,0.0,204.0,,-0.12,0.01,1.01,0.0,0.0,0.0,1.02,1.17,87.0,4161.0,15.1,3.84,,13.01,1.042,93.4,,47.3,5.0,,,,,,,,,,,,0,0,0,0,0,0,0,0,0,0,0,0,0,0,0,0,,,,,0.0,,,,,,
286,607718,1745095320180,,,,,,,,,,,,,,,,,,,,,,,,,,,,,,,,,,0,0,0,0,0,0,0,0,0,0,0,0,0,0,0,0,,,,,,,,,,,
287,607738,1745095320200,0.0,203.87,,-0.07,-0.09,0.91,1.0,0.0,0.0,0.92,1.17,79.0,4190.0,15.1,3.84,,12.97,1.031,93.4,,47.3,5.0,,,,,,,,,,,,0,0,0,0,0,0,0,0,0,0,0,0,0,0,0,0,,,,,0.0,,,,,,
288,607758,1745095320220,,,,,,,,,,,,,,,,,,,,,,,,,,,,,,,,,,0,0,0,0,0,0,0,0,0,0,0,0,0,0,0,0,,,,,,,,,,,
289,607778,1745095320240,0.0,203.87,,-0.09,-0.12,0.91,0.0,0.0,0.0,0.92,1.17,79.0,4277.0,15.1,3.84,,12.95,1.043,93.4,,47.3,5.0,0.0,0.0,0.0,0.0,0.0,0.0,0.0,0.0,2.26,,,0,0,0,0,0,0,0,0,0,0,0,0,0,0,0,0,0.0,,,,0.0,39.240093,-77.965401,0.04,34.0,3.0,0.8
290,607798,1745095320260,,,,,,,,,,,,,,,,,,,,,,,,,,,,,,,,,,0,0,0,0,0,0,0,0,0,0,0,0,0,0,0,0,,,,,,,,,,,
291,607818,1745095320280,0.0,203.87,,-0.15,-0.03,1.02,0.0,0.0,0.0,1.03,1.17,88.0,4277.0,15.1,3.84,,12.95,1.043,93.4,,49.8,5.0,,,,,,,,,,,,0,0,0,0,0,0,0,0,0,0,0,0,0,0,0,0,,,,,0.0,,,,,,
292,607838,1745095320304,,,,,,,,,,,,,,,,,,,,,,,,,,,,,,,,,,0,0,0,0,0,0,0,0,0,0,0,0,0,0,0,0,,,,,,,,,,,
293,607858,1745095320324,0.0,203.87,,-0.2,-0.02,1.06,-1.0,0.0,0.0,1.08,1.17,93.0,4461.0,15.0,3.86,,12.84,1.112,93.4,,49.8,5.0,,,,,,,,,,,,0,0,0,0,0,0,0,0,0,0,0,0,0,0,0,0,,,,,0.0,,,,,,
294,607878,1745095320344,,,,,,,,,,,,,,,,,,,,,,,0.0,0.0,0.0,0.0,0.0,0.0,0.0,0.0,2.26,,,0,0,0,0,0,0,0,0,0,0,0,0,0,0,0,0,0.0,,,,,39.240093,-77.965401,0.04,34.0,3.0,0.8
295,607898,1745095320364,0.0,203.87,,-0.2,-0.11,1.0,0.0,0.0,0.0,1.02,1.17,88.0,4700.0,14.9,3.88,,12.83,1.103,93.4,,54.7,5.0,,,,,,,,,,,,0,0,0,0,0,0,0,0,0,0,0,0,0,0,0,0,,,,,0.0,,,,,,
296,607918,1745095320384,,,,,,,,,,,,,,,,,,,,,,,,,,,,,,,,,,0,0,0,0,0,0,0,0,0,0,0,0,0,0,0,0,,,,,,,,,,,
297,607938,1745095320404,0.0,204.0,,-0.17,-0.07,1.05,0.0,0.0,0.0,1.06,1.17,91.0,4849.0,14.9,3.88,,12.83,1.074,93.4,,54.7,5.0,,,,,,,,,,,,0,0,0,0,0,0,0,0,0,0,0,0,0,0,0,0,,,,,0.0,,,,,,
298,607958,1745095320424,,,,,,,,,,,,,,,,,,,,,,,,,,,,,,,,,,0,0,0,0,0,0,0,0,0,0,0,0,0,0,0,0,,,,,,,,,,,
299,607978,1745095320444,0.0,204.0,,-0.19,-0.06,1.02,0.0,0.0,0.0,1.04,1.17,89.0,4793.0,14.9,3.87,,12.75,0.983,93.4,,54.7,5.0,0.0,0.0,0.0,0.0,0.0,0.0,0.0,0.0,2.26,,,0,0,0,0,0,0,0,0,0,0,0,0,0,0,0,0,0.0,,,,0.0,39.240093,-77.965401,0.05,34.0,3.0,0.8
300,607998,1745095320464,,,,,,,,,,,,,,,,,,,,,,,,,,,,,,,,,,0,0,0,0,0,0,0,0,0,0,0,0,0,0,0,0,,,,,,,,,,,
301,608018,1745095320484,0.0,204.0,,-0.13,-0.11,0.99,1.0,0.0,0.0,1.0,1.17,86.0,4793.0,14.9,3.87,,12.75,0.983,93.4,,54.8,5.0,,,,,,,,,,,,0,0,0,0,0,0,0,0,0,0,0,0,0,0,0,0,,,,,0.0,,,,,,
302,608038,1745095320504,,,,,,,,,,,,,,,,,,,,,,,,,,,,,,,,,,0,0,0,0,0,0,0,0,0,0,0,0,0,0,0,0,,,,,,,,,,,
303,608058,1745095320524,0.0,203.87,,-0.16,0.01,1.06,0.0,0.0,0.0,1.07,1.17,92.0,4787.0,15.0,3.88,,12.72,0.942,93.4,,54.8,5.0,,,,,,,,,,,,0,0,0,0,0,0,0,0,0,0,0,0,0,0,0,0,,,,,0.0,,,,,,
304,608078,1745095320544,,,,,,,,,,,,,,,,,,,,,,,0.0,0.0,0.0,0.0,0.0,0.0,0.0,0.0,2.26,,,0,0,0,0,0,0,0,0,0,0,0,0,0,0,0,0,0.0,,,,,39.240093,-77.965401,0.04,34.0,3.0,0.8
305,608098,1745095320564,0.0,204.0,,-0.13,-0.06,1.01,0.0,0.0,0.0,1.02,1.17,88.0,4837.0,15.1,3.88,,12.71,1.017,93.4,,56.2,5.0,,,,,,,,,,,,0,0,0,0,0,0,0,0,0,0,0,0,0,0,0,0,,,,,0.0,,,,,,
306,608118,1745095320584,,,,,,,,,,,,,,,,,,,,,,,,,,,,,,,,,,0,0,0,0,0,0,0,0,0,0,0,0,0,0,0,0,,,,,,,,,,,
307,608138,1745095320604,0.0,204.0,,-0.14,-0.03,1.03,0.0,0.0,0.0,1.04,1.17,89.0,5039.0,15.1,3.9,,12.69,1.062,93.4,,56.2,5.0,,,,,,,,,,,,0,0,0,0,0,0,0,0,0,0,0,0,0,0,0,0,,,,,0.0,,,,,,
308,608158,1745095320624,,,,,,,,,,,,,,,,,,,,,,,,,,,,,,,,,,0,0,0,0,0,0,0,0,0,0,0,0,0,0,0,0,,,,,,,,,,,
309,608178,1745095320644,0.0,204.12,,-0.14,-0.08,1.01,0.0,0.0,0.0,1.02,1.17,88.0,5276.0,15.1,3.95,,12.65,1.011,93.4,,56.2,5.0,0.0,0.0,0.0,0.0,0.0,0.0,0.0,0.0,2.25,,,0,0,0,0,0,0,0,0,0,0,0,0,0,0,0,0,0.0,,,,0.0,39.240093,-77.965401,0.11,34.0,3.0,0.8
310,608198,1745095320664,,,,,,,,,,,,,,,,,,,,,,,,,,,,,,,,,,0,0,0,0,0,0,0,0,0,0,0,0,0,0,0,0,,,,,,,,,,,
311,608218,1745095320684,0.0,204.0,,-0.11,-0.04,1.07,0.0,0.0,0.0,1.08,1.17,93.0,5276.0,15.1,3.95,,12.65,1.011,93.4,,61.0,5.0,,,,,,,,,,,,0,0,0,0,0,0,0,0,0,0,0,0,0,0,0,0,,,,,0.0,,,,,,
312,608238,1745095320704,,,,,,,,,,,,,,,,,,,,,,,,,,,,,,,,,,0,0,0,0,0,0,0,0,0,0,0,0,0,0,0,0,,,,,,,,,,,
313,608258,1745095320724,0.0,204.0,,-0.07,-0.14,1.0,1.0,0.0,0.0,1.02,1.17,87.0,5568.0,15.1,4.01,,12.43,0.899,93.4,,61.0,5.0,,,,,,,,,,,,0,0,0,0,0,0,0,0,0,0,0,0,0,0,0,0,,,,,0.0,,,,,,
314,608278,1745095320744,,,,,,,,,,,,,,,,,,,,,,,0.0,0.0,0.0,0.0,0.0,0.0,0.0,0.0,2.25,,,0,0,0,0,0,0,0,0,0,0,0,0,0,0,0,0,0.0,,,,,39.240093,-77.965401,0.14,34.0,3.0,0.8
315,608298,1745095320764,0.0,204.0,,-0.01,-0.26,0.97,1.0,0.0,-1.0,1.01,1.17,86.0,6118.0,15.1,4.11,,11.84,0.877,93.4,,61.0,5.0,,,,,,,,,,,,0,0,0,0,0,0,0,0,0,0,0,0,0,0,0,0,,,,,0.0,,,,,,
316,608318,1745095320784,,,,,,,,,,,,,,,,,,,,,,,,,,,,,,,,,,0,0,0,0,0,0,0,0,0,0,0,0,0,0,0,0,,,,,,,,,,,
317,608338,1745095320804,0.0,203.87,,0.03,-0.38,0.96,1.0,0.0,-1.0,1.03,1.17,88.0,5965.0,15.0,4.06,,11.71,0.917,93.4,,62.6,5.0,,,,,,,,,,,,0,0,0,0,0,0,0,0,0,0,0,0,0,0,0,0,,,,,0.0,,,,,,
318,608358,1745095320824,,,,,,,,,,,,,,,,,,,,,,,,,,,,,,,,,,0,0,0,0,0,0,0,0,0,0,0,0,0,0,0,0,,,,,,,,,,,
319,608378,1745095320844,0.0,204.0,13.49,0.04,-0.46,0.85,1.0,0.0,-2.0,0.97,1.17,83.0,5852.0,15.0,4.03,15.0,11.71,0.917,93.4,144.0,62.6,5.0,0.0,0.0,0.0,0.0,0.0,0.0,0.0,0.0,2.26,0.0,0.0,0,0,0,0,0,0,0,0,0,0,0,0,0,0,0,0,0.0,0.0,0.0,0.0,0.0,39.240093,-77.965401,0.04,34.0,3.0,0.8
320,608398,1745095320864,,,,,,,,,,,,,,,,,,,,,,,,,,,,,,,,,,0,0,0,0,0,0,0,0,0,0,0,0,0,0,0,0,,,,,,,,,,,
321,608418,1745095320884,0.0,203.87,,0.07,-0.52,0.77,1.0,0.0,-2.0,0.93,1.17,79.0,5852.0,15.0,4.03,,11.84,0.955,93.4,,61.7,5.0,,,,,,,,,,,,0,0,0,0,0,0,0,0,0,0,0,0,0,0,0,0,,,,,0.0,,,,,,
322,608438,1745095320904,,,,,,,,,,,,,,,,,,,,,,,,,,,,,,,,,,0,0,0,0,0,0,0,0,0,0,0,0,0,0,0,0,,,,,,,,,,,
323,608458,1745095320924,0.0,203.87,,0.05,-0.55,0.81,1.0,0.0,-2.0,0.98,1.17,84.0,6259.0,15.0,4.18,,11.61,0.999,93.4,,61.7,5.0,,,,,,,,,,,,0,0,0,0,0,0,0,0,0,0,0,0,0,0,0,0,,,,,0.0,,,,,,
324,608478,1745095320944,,,,,,,,,,,,,,,,,,,,,,,0.0,0.0,0.0,0.0,0.0,0.0,0.0,0.0,2.26,,,0,0,0,0,0,0,0,0,0,0,0,0,0,0,0,0,0.0,,,,,39.240093,-77.965401,0.04,34.0,3.0,0.8
325,608498,1745095320964,0.0,203.87,,0.07,-0.36,0.84,1.0,0.0,-1.0,0.92,1.17,79.0,6810.0,15.0,4.65,,11.09,0.899,93.4,,61.7,5.0,,,,,,,,,,,,0,0,0,0,0,0,0,0,0,0,0,0,0,0,0,0,,,,,0.0,,,,,,
326,608518,1745095320984,,,,,,,,,,,,,,,,,,,,,,,,,,,,,,,,,,0,0,0,0,0,0,0,0,0,0,0,0,0,0,0,0,,,,,,,,,,,
327,608538,1745095320995,0.0,203.87,,0.04,-0.41,0.88,3.0,0.0,-2.0,0.97,1.17,83.0,7477.0,15.0,4.09,,10.58,0.868,93.4,,66.4,5.0,,,,,,,,,,,,0,0,0,0,0,0,0,0,0,0,0,0,0,0,0,0,,,,,0.0,,,,,,
328,608558,1745095321015,,,,,,,,,,,,,,,,,,,,,,,,,,,,,,,,,,0,0,0,0,0,0,0,0,0,0,0,0,0,0,0,0,,,,,,,,,,,
329,608578,1745095321035,0.0,203.87,,0.04,-0.28,0.92,2.0,0.0,-1.0,0.96,1.17,82.0,8135.0,15.9,3.35,,10.22,0.83,93.4,,66.4,5.0,0.0,0.0,0.0,0.0,0.0,0.0,0.0,0.0,2.26,,,0,0,0,0,0,0,0,0,0,0,0,0,0,0,0,0,0.0,,,,0.0,39.240093,-77.965401,0.0,34.0,3.0,0.8
330,608598,1745095321055,,,,,,,,,,,,,,,,,,,,,,,,,,,,,,,,,,0,0,0,0,0,0,0,0,0,0,0,0,0,0,0,0,,,,,,,,,,,
331,608618,1745095321075,0.0,203.87,,0.03,-0.14,0.92,2.0,0.0,-1.0,0.93,1.17,79.0,8135.0,15.9,3.35,,10.22,0.83,93.4,,70.3,5.0,,,,,,,,,,,,0,0,0,0,0,0,0,0,0,0,0,0,0,0,0,0,,,,,0.0,,,,,,
332,608638,1745095321101,,,,,,,,,,,,,,,,,,,,,,,,,,,,,,,,,,0,0,0,0,0,0,0,0,0,0,0,0,0,0,0,0,,,,,,,,,,,
333,608658,1745095321121,0.0,203.87,,0.02,-0.15,0.98,1.0,0.0,-1.0,0.99,1.17,85.0,8902.0,16.1,3.14,,9.74,0.774,93.4,,70.3,5.0,,,,,,,,,,,,0,0,0,0,0,0,0,0,0,0,0,0,0,0,0,0,,,,,0.0,,,,,,
334,608678,1745095321141,,,,,,,,,,,,,,,,,,,,,,,0.0,0.0,0.0,0.0,0.0,0.0,0.0,0.0,2.26,,,0,0,0,0,0,0,0,0,0,0,0,0,0,0,0,0,0.0,,,,,39.240093,-77.965401,0.26,34.0,3.0,0.8
335,608698,1745095321161,0.0,203.87,,0.01,-0.14,0.93,2.0,0.0,-1.0,0.94,1.17,80.0,9803.0,16.2,3.08,,8.87,0.773,93.4,,70.3,5.0,,,,,,,,,,,,0,0,0,0,0,0,0,0,0,0,0,0,0,0,0,0,,,,,0.0,,,,,,
336,608718,1745095321181,,,,,,,,,,,,,,,,,,,,,,,,,,,,,,,,,,0,0,0,0,0,0,0,0,0,0,0,0,0,0,0,0,,,,,,,,,,,
337,608738,1745095321203,0.0,203.75,,0.01,0.01,0.93,2.0,0.0,-1.0,0.93,1.17,80.0,10580.0,16.2,2.92,,8.54,0.805,93.4,,67.7,5.0,,,,,,,,,,,,0,0,0,0,0,0,0,0,0,0,0,0,0,0,0,0,,,,,0.0,,,,,,
338,608758,1745095321223,,,,,,,,,,,,,,,,,,,,,,,,,,,,,,,,,,0,0,0,0,0,0,0,0,0,0,0,0,0,0,0,0,,,,,,,,,,,
339,608778,1745095321243,0.0,203.75,,0.01,0.09,0.92,2.0,0.0,-1.0,0.93,1.17,79.0,11102.0,16.4,2.68,,8.09,0.824,93.4,,67.7,5.0,0.0,0.0,0.0,0.0,0.0,0.0,0.0,0.0,2.26,,,0,0,0,0,0,0,0,0,0,0,0,0,0,0,0,0,0.0,,,,0.0,39.240093,-77.965401,0.16,34.0,3.0,0.8
340,608798,1745095321263,,,,,,,,,,,,,,,,,,,,,,,,,,,,,,,,,,0,0,0,0,0,0,0,0,0,0,0,0,0,0,0,0,,,,,,,,,,,
341,608818,1745095321283,0.0,203.62,,0.01,0.17,0.93,2.0,0.0,-1.0,0.94,1.17,81.0,11102.0,16.4,2.68,,8.09,0.824,93.4,,66.4,5.0,,,,,,,,,,,,0,0,0,0,0,0,0,0,0,0,0,0,0,0,0,0,,,,,0.0,,,,,,
342,608838,1745095321303,,,,,,,,,,,,,,,,,,,,,,,,,,,,,,,,,,0,0,0,0,0,0,0,0,0,0,0,0,0,0,0,0,,,,,,,,,,,
343,608858,1745095321323,0.0,203.62,,-0.02,0.09,0.91,1.0,-1.0,0.0,0.91,1.17,78.0,11427.0,16.3,2.48,,7.86,0.817,93.4,,66.4,5.0,,,,,,,,,,,,0,0,0,0,0,0,0,0,0,0,0,0,0,0,0,0,,,,,0.0,,,,,,
344,608878,1745095321343,,,,,,,,,,,,,,,,,,,,,,,0.0,0.0,0.0,0.0,0.0,0.0,0.0,0.0,2.26,,,0,0,0,0,0,0,0,0,0,0,0,0,0,0,0,0,0.0,,,,,39.240093,-77.965401,0.08,34.0,3.0,0.8
345,608898,1745095321363,0.0,203.49,,-0.03,0.14,0.78,-1.0,-1.0,0.0,0.8,1.17,68.0,11746.0,16.2,2.37,,7.78,0.819,93.4,,66.4,5.0,,,,,,,,,,,,0,0,0,0,0,0,0,0,0,0,0,0,0,0,0,0,,,,,0.0,,,,,,
346,608918,1745095321383,,,,,,,,,,,,,,,,,,,,,,,,,,,,,,,,,,0,0,0,0,0,0,0,0,0,0,0,0,0,0,0,0,,,,,,,,,,,
347,608938,1745095321405,0.0,203.49,,-0.01,0.2,0.84,0.0,-1.0,0.0,0.86,1.17,74.0,11838.0,16.2,2.3,,7.55,0.824,93.4,,68.2,5.0,,,,,,,,,,,,0,0,0,0,0,0,0,0,0,0,0,0,0,0,0,0,,,,,0.0,,,,,,
348,608958,1745095321425,,,,,,,,,,,,,,,,,,,,,,,,,,,,,,,,,,0,0,0,0,0,0,0,0,0,0,0,0,0,0,0,0,,,,,,,,,,,
349,608978,1745095321445,0.0,203.37,,-0.01,0.32,1.04,1.0,0.0,0.0,1.09,1.17,93.0,11792.0,16.2,2.26,,7.46,0.87,93.4,,68.2,5.0,0.0,0.0,0.0,0.0,0.0,0.0,0.0,0.0,2.26,,,0,0,0,0,0,0,0,0,0,0,0,0,0,0,0,0,0.0,,,,0.0,39.240093,-77.965401,0.11,34.0,3.0,0.8
350,608998,1745095321465,,,,,,,,,,,,,,,,,,,,,,,,,,,,,,,,,,0,0,0,0,0,0,0,0,0,0,0,0,0,0,0,0,,,,,,,,,,,
351,609018,1745095321485,0.0,203.12,,0.03,0.35,1.08,3.0,0.0,0.0,1.14,1.17,97.0,11571.0,16.2,2.27,,7.46,0.87,93.4,,67.6,5.0,,,,,,,,,,,,0,0,0,0,0,0,0,0,0,0,0,0,0,0,0,0,,,,,0.0,,,,,,
352,609038,1745095321503,,,,,,,,,,,,,,,,,,,,,,,,,,,,,,,,,,0,0,0,0,0,0,0,0,0,0,0,0,0,0,0,0,,,,,,,,,,,
353,609058,1745095321523,0.0,202.99,,0.09,0.14,1.03,3.0,0.0,-1.0,1.05,1.17,90.0,11571.0,16.2,2.27,,7.53,0.906,93.4,,67.6,5.0,,,,,,,,,,,,0,0,0,0,0,0,0,0,0,0,0,0,0,0,0,0,,,,,0.0,,,,,,
354,609078,1745095321543,,,,,,,,,,,,,,,,,,,,,,,0.0,0.0,0.0,0.0,0.0,0.0,0.0,0.0,2.26,,,0,0,0,0,0,0,0,0,0,0,0,0,0,0,0,0,0.0,,,,,39.240093,-77.965401,0.2,34.0,3.0,0.8
355,609098,1745095321563,0.0,202.99,,0.12,0.17,1.02,3.0,0.0,-1.0,1.04,1.17,89.0,11089.0,16.3,2.43,,7.47,0.926,93.4,,67.6,5.0,,,,,,,,,,,,0,0,0,0,0,0,0,0,0,0,0,0,0,0,0,0,,,,,0.0,,,,,,
356,609118,1745095321583,,,,,,,,,,,,,,,,,,,,,,,,,,,,,,,,,,0,0,0,0,0,0,0,0,0,0,0,0,0,0,0,0,,,,,,,,,,,
357,609138,1745095321603,0.0,202.87,,0.12,0.23,0.98,3.0,0.0,-1.0,1.02,1.17,87.0,10494.0,16.3,2.56,,7.74,0.932,93.4,,65.8,5.0,,,,,,,,,,,,0,0,0,0,0,0,0,0,0,0,0,0,0,0,0,0,,,,,0.0,,,,,,
358,609158,1745095321623,,,,,,,,,,,,,,,,,,,,,,,,,,,,,,,,,,0,0,0,0,0,0,0,0,0,0,0,0,0,0,0,0,,,,,,,,,,,
359,609178,1745095321643,0.0,202.74,,0.11,0.16,0.95,2.0,0.0,-1.0,0.97,1.17,83.0,10008.0,15.2,2.48,,7.74,0.932,93.4,,65.8,5.0,0.0,0.0,0.0,0.0,0.0,0.0,0.0,0.0,2.25,,,0,0,0,0,0,0,0,0,0,0,0,0,0,0,0,0,0.0,,,,0.0,39.240093,-77.965401,0.85,34.0,3.0,0.8
360,609198,1745095321663,,,,,,,,,,,,,,,,,,,,,,,,,,,,,,,,,,0,0,0,0,0,0,0,0,0,0,0,0,0,0,0,0,,,,,,,,,,,
361,609218,1745095321683,0.0,202.74,,0.15,0.19,0.92,2.0,0.0,-1.0,0.95,1.17,81.0,10008.0,15.2,2.48,,7.53,0.949,93.4,,64.4,5.0,,,,,,,,,,,,0,0,0,0,0,0,0,0,0,0,0,0,0,0,0,0,,,,,0.0,,,,,,
362,609238,1745095321705,,,,,,,,,,,,,,,,,,,,,,,,,,,,,,,,,,0,0,0,0,0,0,0,0,0,0,0,0,0,0,0,0,,,,,,,,,,,
363,609258,1745095321725,0.0,202.74,,0.14,0.07,0.96,1.0,0.0,0.0,0.97,1.17,83.0,9687.0,14.8,2.41,,7.63,0.966,93.4,,64.4,5.0,,,,,,,,,,,,0,0,0,0,0,0,0,0,0,0,0,0,0,0,0,0,,,,,0.0,,,,,,
364,609278,1745095321745,,,,,,,,,,,,,,,,,,,,,,,0.0,0.0,1.0,0.0,0.0,0.0,0.0,0.0,2.26,,,0,0,0,0,0,0,0,0,0,0,0,0,0,0,0,0,0.0,,,,,39.240089,-77.965401,1.58,34.0,3.0,0.8
365,609298,1745095321765,0.0,202.61,,0.16,0.02,0.95,2.0,0.0,0.0,0.96,1.17,83.0,9627.0,14.6,2.42,,7.73,0.962,93.4,,64.4,5.0,,,,,,,,,,,,0,0,0,0,0,0,0,0,0,0,0,0,0,0,0,0,,,,,0.0,,,,,,
366,609318,1745095321785,,,,,,,,,,,,,,,,,,,,,,,,,,,,,,,,,,0,0,0,0,0,0,0,0,0,0,0,0,0,0,0,0,,,,,,,,,,,
367,609338,1745095321805,0.0,202.49,,0.14,0.01,0.97,1.0,0.0,0.0,0.98,1.17,84.0,9650.0,15.0,2.48,,7.71,0.954,93.4,,65.2,5.0,,,,,,,,,,,,0,0,0,0,0,0,0,0,0,0,0,0,0,0,0,0,,,,,0.0,,,,,,
368,609358,1745095321825,,,,,,,,,,,,,,,,,,,,,,,,,,,,,,,,,,0,0,0,0,0,0,0,0,0,0,0,0,0,0,0,0,,,,,,,,,,,
369,609378,1745095321845,0.0,202.24,13.46,0.13,0.1,0.98,1.0,0.0,0.0,0.99,1.17,85.0,9765.0,16.1,2.64,15.0,7.71,0.954,93.4,144.0,65.2,5.0,2.0,0.0,2.0,2.0,0.0,0.0,0.0,0.0,2.26,0.0,0.0,0,0,0,0,0,0,0,0,0,0,0,0,0,0,0,0,0.0,0.0,0.0,0.0,0.0,39.240089,-77.965401,3.29,34.0,3.0,0.8
370,609398,1745095321865,,,,,,,,,,,,,,,,,,,,,,,,,,,,,,,,,,0,0,0,0,0,0,0,0,0,0,0,0,0,0,0,0,,,,,,,,,,,
371,609418,1745095321885,0.0,202.11,,0.13,0.06,0.96,1.0,0.0,0.0,0.97,1.17,83.0,9765.0,16.1,2.64,,7.87,0.959,93.4,,65.7,5.0,,,,,,,,,,,,0,0,0,0,0,0,0,0,0,0,0,0,0,0,0,0,,,,,0.0,,,,,,
372,609438,1745095321905,,,,,,,,,,,,,,,,,,,,,,,,,,,,,,,,,,0,0,0,0,0,0,0,0,0,0,0,0,0,0,0,0,,,,,,,,,,,
373,609458,1745095321925,0.0,201.99,,0.13,0.03,0.97,1.0,0.0,0.0,0.98,1.17,84.0,9951.0,16.9,2.7,,8.06,0.983,93.4,,65.7,5.0,,,,,,,,,,,,0,0,0,0,0,0,0,0,0,0,0,0,0,0,0,0,,,,,0.0,,,,,,
374,609478,1745095321945,,,,,,,,,,,,,,,,,,,,,,,2.0,0.0,2.0,2.0,0.0,0.0,0.0,0.0,2.26,,,0,0,0,0,0,0,0,0,0,0,0,0,0,0,0,0,0.0,,,,,39.240089,-77.965401,3.18,34.0,3.0,0.8
375,609498,1745095321965,0.0,201.86,,0.12,0.09,0.99,1.0,0.0,0.0,1.0,1.17,86.0,10137.0,17.2,2.79,,8.02,0.991,93.4,,65.7,5.0,,,,,,,,,,,,0,0,0,0,0,0,0,0,0,0,0,0,0,0,0,0,,,,,0.0,,,,,,
376,609518,1745095321985,,,,,,,,,,,,,,,,,,,,,,,,,,,,,,,,,,0,0,0,0,0,0,0,0,0,0,0,0,0,0,0,0,,,,,,,,,,,
377,609538,1745095321996,0.0,201.73,,0.1,-0.05,1.06,2.0,0.0,0.0,1.06,1.17,91.0,10273.0,17.3,2.73,,8.13,0.992,93.4,,65.4,5.0,,,,,,,,,,,,0,0,0,0,0,0,0,0,0,0,0,0,0,0,0,0,,,,,0.0,,,,,,
378,609558,1745095322016,,,,,,,,,,,,,,,,,,,,,,,,,,,,,,,,,,0,0,0,0,0,0,0,0,0,0,0,0,0,0,0,0,,,,,,,,,,,
379,609578,1745095322036,0.0,201.61,,0.1,-0.11,0.98,2.0,0.0,-1.0,0.99,1.17,85.0,10440.0,17.4,2.76,,8.13,0.992,93.4,,65.4,5.0,2.0,0.0,2.0,2.0,0.0,0.0,0.0,0.0,2.26,,,0,0,0,0,0,0,0,0,0,0,0,0,0,0,0,0,0.0,,,,0.0,39.240089,-77.965401,3.33,35.0,3.0,0.8
380,609598,1745095322056,,,,,,,,,,,,,,,,,,,,,,,,,,,,,,,,,,0,0,0,0,0,0,0,0,0,0,0,0,0,0,0,0,,,,,,,,,,,
381,609618,1745095322076,0.0,201.48,,0.14,-0.1,1.04,2.0,0.0,0.0,1.05,1.17,90.0,10440.0,17.4,2.76,,8.13,0.992,93.4,,65.4,5.0,,,,,,,,,,,,0,0,0,0,0,0,0,0,0,0,0,0,0,0,0,0,,,,,0.0,,,,,,
382,609638,1745095322102,,,,,,,,,,,,,,,,,,,,,,,,,,,,,,,,,,0,0,0,0,0,0,0,0,0,0,0,0,0,0,0,0,,,,,,,,,,,
383,609658,1745095322122,0.0,201.36,,0.17,0.02,0.94,2.0,0.0,-1.0,0.96,1.17,82.0,10496.0,17.5,2.73,,8.1,0.996,93.4,,65.4,5.0,,,,,,,,,,,,0,0,0,0,0,0,0,0,0,0,0,0,0,0,0,0,,,,,0.0,,,,,,
384,609678,1745095322142,,,,,,,,,,,,,,,,,,,,,,,2.0,0.0,2.0,2.0,0.0,0.0,0.0,0.0,2.25,,,0,0,0,0,0,0,0,0,0,0,0,0,0,0,0,0,0.0,,,,,39.240089,-77.965401,3.58,35.0,3.0,0.8
385,609698,1745095322162,0.0,201.23,,0.18,0.0,0.93,2.0,0.0,-1.0,0.94,1.17,81.0,10236.0,17.5,2.72,,8.15,1.001,93.4,,65.4,5.0,,,,,,,,,,,,0,0,0,0,0,0,0,0,0,0,0,0,0,0,0,0,,,,,0.0,,,,,,
