,Interval,Utc,FrontBP,SteerAng,Battery,AccelX,AccelY,AccelZ,Yaw,Pitch,Roll,Gsum,GsumMax,GsumPct,RPM,TPS,InjectorPW,Baro,MAP,Lambda,IAT,EngineTemp,EOP,EOT,WSFR,WSFL,WSRR,WSRL,TCSet,TCSlip,TCComp,TCCut,Analog8,OilTemp,AA_On,ThermLF1,ThermLF2,ThermRR1,ThermRR2,ThermLF3,ThermLF4,ThermLF5,ThermLF6,ThermLF7,ThermLF8,ThermRR3,ThermRR4,ThermRR5,ThermRR6,ThermRR7,ThermRR8,Gear,AA_On1,AA_LowDrag,Fuel_Mix,AA_Packages,Latitude,Longitude,Speed,GPSSats,GPSQual,GPSDOP
0,556198,1745095268660,,,,,,,,,,,,,,,,,,,,,,,,,,,,,,,,,,0,0,0,0,0,0,0,0,0,0,0,0,0,0,0,0,,,,,,,,,,,
1,556218,1745095268680,0.0,207.39,,-0.09,-0.01,1.03,0.0,0.0,0.0,1.04,1.04,100.0,5338.0,19.0,3.99,,12.56,1.133,98.8,,58.5,5.0,,,,,,,,,,,,0,0,0,0,0,0,0,0,0,0,0,0,0,0,0,0,,,,,0.0,,,,,,
2,556238,1745095268700,,,,,,,,,,,,,,,,,,,,,,,,,,,,,,,,,,0,0,0,0,0,0,0,0,0,0,0,0,0,0,0,0,,,,,,,,,,,
3,556258,1745095268720,0.0,207.26,,-0.08,0.0,1.02,0.0,0.0,0.0,1.03,1.04,99.0,5162.0,18.9,3.97,,12.56,1.096,98.8,,58.5,5.0,,,,,,,,,,,,0,0,0,0,0,0,0,0,0,0,0,0,0,0,0,0,,,,,0.0,,,,,,
4,556278,1745095268740,,,,,,,,,,,,,,,,,,,,,,,0.0,0.0,0.0,0.0,0.0,0.0,0.0,0.0,2.26,,,0,0,0,0,0,0,0,0,0,0,0,0,0,0,0,0,0.0,,,,,39.240185,-77.964806,0.15,35.0,3.0,0.8
5,556298,1745095268760,0.0,207.26,,-0.04,0.03,1.09,0.0,0.0,0.0,1.09,1.09,100.0,5348.0,12.4,4.0,,12.45,1.18,98.8,,58.5,5.0,,,,,,,,,,,,0,0,0,0,0,0,0,0,0,0,0,0,0,0,0,0,,,,,0.0,,,,,,
6,556318,1745095268780,,,,,,,,,,,,,,,,,,,,,,,,,,,,,,,,,,0,0,0,0,0,0,0,0,0,0,0,0,0,0,0,0,,,,,,,,,,,
7,556338,1745095268800,0.0,207.26,,-0.01,-0.07,1.02,1.0,0.0,0.0,1.03,1.09,94.0,5794.0,0.0,1.62,,11.02,1.102,98.8,,61.9,5.0,,,,,,,,,,,,0,0,0,0,0,0,0,0,0,0,0,0,0,0,0,0,,,,,0.0,,,,,,
8,556358,1745095268820,,,,,,,,,,,,,,,,,,,,,,,,,,,,,,,,,,0,0,0,0,0,0,0,0,0,0,0,0,0,0,0,0,,,,,,,,,,,
9,556378,1745095268840,0.0,207.26,13.3,-0.02,-0.19,0.9,1.0,0.0,-1.0,0.92,1.09,84.0,5860.0,0.0,1.4,15.0,11.02,1.102,98.8,135.0,61.9,5.0,0.0,0.0,0.0,0.0,0.0,0.0,0.0,0.0,2.26,0.0,0.0,0,0,0,0,0,0,0,0,0,0,0,0,0,0,0,0,0.0,0.0,0.0,0.0,0.0,39.240185,-77.964806,0.14,35.0,3.0,0.8
10,556398,1745095268860,,,,,,,,,,,,,,,,,,,,,,,,,,,,,,,,,,0,0,0,0,0,0,0,0,0,0,0,0,0,0,0,0,,,,,,,,,,,
11,556418,1745095268880,0.0,207.14,,-0.07,-0.14,0.89,-1.0,0.0,0.0,0.9,1.09,83.0,5860.0,0.0,1.4,,10.06,1.026,98.8,,60.7,5.0,,,,,,,,,,,,0,0,0,0,0,0,0,0,0,0,0,0,0,0,0,0,,,,,0.0,,,,,,
12,556438,1745095268903,,,,,,,,,,,,,,,,,,,,,,,,,,,,,,,,,,0,0,0,0,0,0,0,0,0,0,0,0,0,0,0,0,,,,,,,,,,,
13,556458,1745095268923,0.0,207.14,,-0.06,-0.1,0.93,0.0,0.0,0.0,0.94,1.09,86.0,5639.0,0.0,1.4,,9.65,1.032,98.8,,60.7,5.0,,,,,,,,,,,,0,0,0,0,0,0,0,0,0,0,0,0,0,0,0,0,,,,,0.0,,,,,,
14,556478,1745095268943,,,,,,,,,,,,,,,,,,,,,,,0.0,0.0,0.0,0.0,0.0,0.0,0.0,0.0,2.27,,,0,0,0,0,0,0,0,0,0,0,0,0,0,0,0,0,0.0,,,,,39.240185,-77.964806,0.07,35.0,3.0,0.8
15,556498,1745095268963,0.0,207.26,,-0.05,-0.06,0.95,0.0,0.0,0.0,0.95,1.09,87.0,5455.0,0.0,1.4,,9.45,1.054,98.8,,60.7,5.0,,,,,,,,,,,,0,0,0,0,0,0,0,0,0,0,0,0,0,0,0,0,,,,,0.0,,,,,,
16,556518,1745095268983,,,,,,,,,,,,,,,,,,,,,,,,,,,,,,,,,,0,0,0,0,0,0,0,0,0,0,0,0,0,0,0,0,,,,,,,,,,,
17,556538,1745095268995,0.0,207.14,,-0.05,-0.05,0.92,0.0,0.0,0.0,0.92,1.09,85.0,5227.0,0.0,1.4,,9.41,1.1,98.8,,56.2,5.0,,,,,,,,,,,,0,0,0,0,0,0,0,0,0,0,0,0,0,0,0,0,,,,,0.0,,,,,,
18,556558,1745095269015,,,,,,,,,,,,,,,,,,,,,,,,,,,,,,,,,,0,0,0,0,0,0,0,0,0,0,0,0,0,0,0,0,,,,,,,,,,,
19,556578,1745095269035,0.0,207.14,,-0.08,0.03,0.97,0.0,0.0,0.0,0.97,1.09,89.0,4915.0,0.2,1.59,,9.41,1.1,98.8,,56.2,5.0,0.0,0.0,0.0,0.0,0.0,0.0,0.0,0.0,2.26,,,0,0,0,0,0,0,0,0,0,0,0,0,0,0,0,0,0.0,,,,0.0,39.240185,-77.964806,0.04,35.0,3.0,0.8
20,556598,1745095269055,,,,,,,,,,,,,,,,,,,,,,,,,,,,,,,,,,0,0,0,0,0,0,0,0,0,0,0,0,0,0,0,0,,,,,,,,,,,
21,556618,1745095269075,0.0,207.14,,-0.08,-0.05,0.91,0.0,0.0,0.0,0.91,1.09,84.0,4915.0,0.2,1.59,,9.45,1.166,98.8,,54.1,5.0,,,,,,,,,,,,0,0,0,0,0,0,0,0,0,0,0,0,0,0,0,0,,,,,0.0,,,,,,
22,556638,1745095269103,,,,,,,,,,,,,,,,,,,,,,,,,,,,,,,,,,0,0,0,0,0,0,0,0,0,0,0,0,0,0,0,0,,,,,,,,,,,
23,556658,1745095269123,0.0,207.14,,-0.04,-0.14,0.82,1.0,0.0,0.0,0.83,1.09,77.0,4662.0,0.5,1.68,,9.54,1.241,98.8,,54.1,5.0,,,,,,,,,,,,0,0,0,0,0,0,0,0,0,0,0,0,0,0,0,0,,,,,0.0,,,,,,
24,556678,1745095269143,,,,,,,,,,,,,,,,,,,,,,,0.0,0.0,0.0,0.0,0.0,0.0,0.0,0.0,2.26,,,0,0,0,0,0,0,0,0,0,0,0,0,0,0,0,0,0.0,,,,,39.240185,-77.964806,0.11,35.0,3.0,0.8
25,556698,1745095269163,0.0,207.14,,-0.0,-0.21,0.74,1.0,0.0,-1.0,0.77,1.09,71.0,4522.0,0.6,1.71,,9.73,1.252,98.8,,54.1,5.0,,,,,,,,,,,,0,0,0,0,0,0,0,0,0,0,0,0,0,0,0,0,,,,,0.0,,,,,,
26,556718,1745095269183,,,,,,,,,,,,,,,,,,,,,,,,,,,,,,,,,,0,0,0,0,0,0,0,0,0,0,0,0,0,0,0,0,,,,,,,,,,,
27,556738,1745095269203,0.0,207.14,,-0.04,-0.12,0.86,0.0,0.0,0.0,0.87,1.09,80.0,4264.0,0.5,1.73,,9.88,1.184,98.8,,54.0,5.0,,,,,,,,,,,,0,0,0,0,0,0,0,0,0,0,0,0,0,0,0,0,,,,,0.0,,,,,,
28,556758,1745095269223,,,,,,,,,,,,,,,,,,,,,,,,,,,,,,,,,,0,0,0,0,0,0,0,0,0,0,0,0,0,0,0,0,,,,,,,,,,,
29,556778,1745095269243,0.0,207.14,,-0.04,-0.19,0.84,1.0,0.0,-1.0,0.86,1.09,79.0,4036.0,0.9,1.87,,9.88,1.184,98.8,,54.0,5.0,0.0,0.0,0.0,0.0,0.0,0.0,0.0,0.0,2.26,,,0,0,0,0,0,0,0,0,0,0,0,0,0,0,0,0,0.0,,,,0.0,39.240185,-77.964806,0.05,35.0,3.0,0.8
30,556798,1745095269263,,,,,,,,,,,,,,,,,,,,,,,,,,,,,,,,,,0,0,0,0,0,0,0,0,0,0,0,0,0,0,0,0,,,,,,,,,,,
31,556818,1745095269283,0.0,207.14,,-0.05,-0.15,0.88,1.0,0.0,-1.0,0.89,1.09,82.0,4036.0,0.9,1.87,,10.04,1.138,98.8,,49.2,5.0,,,,,,,,,,,,0,0,0,0,0,0,0,0,0,0,0,0,0,0,0,0,,,,,0.0,,,,,,
32,556838,1745095269303,,,,,,,,,,,,,,,,,,,,,,,,,,,,,,,,,,0,0,0,0,0,0,0,0,0,0,0,0,0,0,0,0,,,,,,,,,,,
33,556858,1745095269323,0.0,207.14,,-0.06,-0.18,0.9,1.0,0.0,-1.0,0.92,1.09,84.0,3746.0,1.2,2.01,,10.36,1.146,98.8,,49.2,5.0,,,,,,,,,,,,0,0,0,0,0,0,0,0,0,0,0,0,0,0,0,0,,,,,0.0,,,,,,
34,556878,1745095269343,,,,,,,,,,,,,,,,,,,,,,,0.0,0.0,0.0,0.0,0.0,0.0,0.0,0.0,2.27,,,0,0,0,0,0,0,0,0,0,0,0,0,0,0,0,0,0.0,,,,,39.240185,-77.964806,0.08,35.0,3.0,0.8
35,556898,1745095269363,0.0,207.14,,-0.05,-0.09,0.95,0.0,0.0,0.0,0.96,1.09,88.0,3528.0,1.4,2.19,,10.7,1.195,98.8,,49.2,5.0,,,,,,,,,,,,0,0,0,0,0,0,0,0,0,0,0,0,0,0,0,0,,,,,0.0,,,,,,
36,556918,1745095269383,,,,,,,,,,,,,,,,,,,,,,,,,,,,,,,,,,0,0,0,0,0,0,0,0,0,0,0,0,0,0,0,0,,,,,,,,,,,
37,556938,1745095269403,0.0,207.01,,-0.05,-0.09,0.88,1.0,0.0,0.0,0.89,1.09,81.0,3392.0,1.5,2.58,,11.09,1.245,98.8,,42.4,5.0,,,,,,,,,,,,0,0,0,0,0,0,0,0,0,0,0,0,0,0,0,0,,,,,0.0,,,,,,
38,556958,1745095269423,,,,,,,,,,,,,,,,,,,,,,,,,,,,,,,,,,0,0,0,0,0,0,0,0,0,0,0,0,0,0,0,0,,,,,,,,,,,
39,556978,1745095269443,0.0,207.14,,-0.03,0.01,0.89,0.0,0.0,0.0,0.89,1.09,82.0,3232.0,1.7,2.98,,11.09,1.245,98.8,,42.4,5.0,0.0,0.0,0.0,0.0,0.0,0.0,0.0,0.0,2.27,,,0,0,0,0,0,0,0,0,0,0,0,0,0,0,0,0,0.0,,,,0.0,39.240185,-77.964806,0.08,35.0,3.0,0.8
40,556998,1745095269463,,,,,,,,,,,,,,,,,,,,,,,,,,,,,,,,,,0,0,0,0,0,0,0,0,0,0,0,0,0,0,0,0,,,,,,,,,,,
41,557018,1745095269483,0.0,207.14,,-0.01,-0.01,0.96,0.0,0.0,0.0,0.96,1.09,88.0,3232.0,1.7,2.98,,11.33,1.253,98.8,,37.4,5.0,,,,,,,,,,,,0,0,0,0,0,0,0,0,0,0,0,0,0,0,0,0,,,,,0.0,,,,,,
42,557038,1745095269499,,,,,,,,,,,,,,,,,,,,,,,,,,,,,,,,,,0,0,0,0,0,0,0,0,0,0,0,0,0,0,0,0,,,,,,,,,,,
43,557058,1745095269519,0.0,207.14,,-0.01,-0.05,1.0,0.0,0.0,0.0,1.0,1.09,92.0,3029.0,1.8,3.09,,11.64,1.255,98.8,,37.4,5.0,,,,,,,,,,,,0,0,0,0,0,0,0,0,0,0,0,0,0,0,0,0,,,,,0.0,,,,,,
44,557078,1745095269539,,,,,,,,,,,,,,,,,,,,,,,0.0,0.0,0.0,0.0,0.0,0.0,0.0,0.0,2.26,,,0,0,0,0,0,0,0,0,0,0,0,0,0,0,0,0,0.0,,,,,39.240185,-77.964806,0.08,35.0,3.0,0.8
45,557098,1745095269559,0.0,207.14,,-0.01,-0.02,0.98,0.0,0.0,1.0,0.98,1.09,90.0,2873.0,1.9,3.13,,11.91,1.256,98.8,,37.4,5.0,,,,,,,,,,,,0,0,0,0,0,0,0,0,0,0,0,0,0,0,0,0,,,,,0.0,,,,,,
46,557118,1745095269579,,,,,,,,,,,,,,,,,,,,,,,,,,,,,,,,,,0,0,0,0,0,0,0,0,0,0,0,0,0,0,0,0,,,,,,,,,,,
47,557138,1745095269599,0.0,207.14,,-0.01,-0.02,0.97,0.0,0.0,0.0,0.98,1.09,90.0,2712.0,2.1,3.17,,12.17,1.255,98.8,,32.3,5.0,,,,,,,,,,,,0,0,0,0,0,0,0,0,0,0,0,0,0,0,0,0,,,,,0.0,,,,,,
48,557158,1745095269619,,,,,,,,,,,,,,,,,,,,,,,,,,,,,,,,,,0,0,0,0,0,0,0,0,0,0,0,0,0,0,0,0,,,,,,,,,,,
49,557178,1745095269639,0.0,207.14,,-0.02,-0.01,0.97,0.0,0.0,0.0,0.97,1.09,90.0,2593.0,2.3,3.22,,12.17,1.255,98.8,,32.3,5.0,0.0,0.0,0.0,0.0,0.0,0.0,0.0,0.0,2.26,,,0,0,0,0,0,0,0,0,0,0,0,0,0,0,0,0,0.0,,,,0.0,39.240185,-77.964806,0.0,35.0,3.0,0.8
50,557198,1745095269659,,,,,,,,,,,,,,,,,,,,,,,,,,,,,,,,,,0,0,0,0,0,0,0,0,0,0,0,0,0,0,0,0,,,,,,,,,,,
51,557218,1745095269679,0.0,207.14,,-0.02,-0.03,0.99,0.0,0.0,0.0,0.99,1.09,91.0,2593.0,2.3,3.22,,12.43,1.253,98.8,,29.2,5.0,,,,,,,,,,,,0,0,0,0,0,0,0,0,0,0,0,0,0,0,0,0,,,,,0.0,,,,,,
52,557238,1745095269699,,,,,,,,,,,,,,,,,,,,,,,,,,,,,,,,,,0,0,0,0,0,0,0,0,0,0,0,0,0,0,0,0,,,,,,,,,,,
53,557258,1745095269719,0.0,207.01,,-0.03,-0.04,1.0,0.0,0.0,0.0,1.0,1.09,92.0,2477.0,2.4,3.29,,12.69,1.253,98.8,,29.2,5.0,,,,,,,,,,,,0,0,0,0,0,0,0,0,0,0,0,0,0,0,0,0,,,,,0.0,,,,,,
54,557278,1745095269739,,,,,,,,,,,,,,,,,,,,,,,0.0,0.0,0.0,0.0,0.0,0.0,0.0,0.0,2.26,,,0,0,0,0,0,0,0,0,0,0,0,0,0,0,0,0,0.0,,,,,39.240185,-77.964806,0.05,35.0,3.0,0.8
55,557298,1745095269759,0.0,207.01,,-0.03,-0.03,0.99,0.0,0.0,0.0,0.99,1.09,91.0,2294.0,3.4,3.36,,13.0,1.253,98.8,,29.2,5.0,,,,,,,,,,,,0,0,0,0,0,0,0,0,0,0,0,0,0,0,0,0,,,,,0.0,,,,,,
56,557318,1745095269779,,,,,,,,,,,,,,,,,,,,,,,,,,,,,,,,,,0,0,0,0,0,0,0,0,0,0,0,0,0,0,0,0,,,,,,,,,,,
57,557338,1745095269799,0.0,207.14,,-0.03,-0.04,1.0,0.0,0.0,0.0,1.0,1.09,92.0,2158.0,4.3,3.58,,13.31,1.252,98.8,,25.7,5.0,,,,,,,,,,,,0,0,0,0,0,0,0,0,0,0,0,0,0,0,0,0,,,,,0.0,,,,,,
58,557358,1745095269819,,,,,,,,,,,,,,,,,,,,,,,,,,,,,,,,,,0,0,0,0,0,0,0,0,0,0,0,0,0,0,0,0,,,,,,,,,,,
59,557378,1745095269839,0.0,207.14,13.3,-0.04,-0.03,1.01,0.0,0.0,0.0,1.01,1.09,93.0,2470.0,4.6,3.59,15.0,13.31,1.252,98.8,135.0,25.7,5.0,0.0,0.0,0.0,0.0,0.0,0.0,0.0,0.0,2.27,0.0,0.0,0,0,0,0,0,0,0,0,0,0,0,0,0,0,0,0,0.0,0.0,0.0,0.0,0.0,39.240185,-77.964806,0.34,35.0,3.0,0.8
60,557398,1745095269859,,,,,,,,,,,,,,,,,,,,,,,,,,,,,,,,,,0,0,0,0,0,0,0,0,0,0,0,0,0,0,0,0,,,,,,,,,,,
61,557418,1745095269879,0.0,207.14,,-0.04,-0.02,1.01,0.0,0.0,0.0,1.01,1.09,93.0,2470.0,4.6,3.59,,13.33,1.253,98.8,,26.9,5.0,,,,,,,,,,,,0,0,0,0,0,0,0,0,0,0,0,0,0,0,0,0,,,,,0.0,,,,,,
62,557438,1745095269904,,,,,,,,,,,,,,,,,,,,,,,,,,,,,,,,,,0,0,0,0,0,0,0,0,0,0,0,0,0,0,0,0,,,,,,,,,,,
63,557458,1745095269924,0.0,207.14,,-0.04,-0.01,1.0,0.0,0.0,0.0,1.01,1.09,92.0,2304.0,4.8,3.6,,13.41,1.253,98.8,,26.9,5.0,,,,,,,,,,,,0,0,0,0,0,0,0,0,0,0,0,0,0,0,0,0,,,,,0.0,,,,,,
64,557478,1745095269944,,,,,,,,,,,,,,,,,,,,,,,0.0,0.0,0.0,0.0,0.0,0.0,0.0,0.0,2.26,,,0,0,0,0,0,0,0,0,0,0,0,0,0,0,0,0,0.0,,,,,39.240185,-77.964806,0.5,35.0,3.0,0.8
65,557498,1745095269964,0.0,207.14,,-0.05,-0.0,1.01,0.0,0.0,0.0,1.01,1.09,93.0,2343.0,7.9,3.59,,13.53,1.253,98.8,,26.9,5.0,,,,,,,,,,,,0,0,0,0,0,0,0,0,0,0,0,0,0,0,0,0,,,,,0.0,,,,,,
66,557518,1745095269984,,,,,,,,,,,,,,,,,,,,,,,,,,,,,,,,,,0,0,0,0,0,0,0,0,0,0,0,0,0,0,0,0,,,,,,,,,,,
67,557538,1745095269994,0.0,207.14,,-0.05,-0.02,1.01,0.0,0.0,0.0,1.01,1.09,93.0,2493.0,8.1,3.58,,13.56,1.255,98.8,,27.2,5.0,,,,,,,,,,,,0,0,0,0,0,0,0,0,0,0,0,0,0,0,0,0,,,,,0.0,,,,,,
68,557558,1745095270014,,,,,,,,,,,,,,,,,,,,,,,,,,,,,,,,,,0,0,0,0,0,0,0,0,0,0,0,0,0,0,0,0,,,,,,,,,,,
69,557578,1745095270034,0.0,207.14,,-0.06,-0.01,0.99,0.0,0.0,0.0,0.99,1.09,91.0,2470.0,8.4,3.64,,13.56,1.255,98.8,,27.2,5.0,0.0,0.0,0.0,0.0,0.0,0.0,0.0,0.0,2.26,,,0,0,0,0,0,0,0,0,0,0,0,0,0,0,0,0,0.0,,,,0.0,39.240185,-77.964806,0.19,35.0,3.0,0.8
70,557598,1745095270054,,,,,,,,,,,,,,,,,,,,,,,,,,,,,,,,,,0,0,0,0,0,0,0,0,0,0,0,0,0,0,0,0,,,,,,,,,,,
71,557618,1745095270074,0.0,207.14,,-0.04,-0.0,0.97,0.0,0.0,0.0,0.97,1.09,89.0,2470.0,8.4,3.64,,13.59,1.256,98.8,,28.1,5.0,,,,,,,,,,,,0,0,0,0,0,0,0,0,0,0,0,0,0,0,0,0,,,,,0.0,,,,,,
72,557638,1745095270098,,,,,,,,,,,,,,,,,,,,,,,,,,,,,,,,,,0,0,0,0,0,0,0,0,0,0,0,0,0,0,0,0,,,,,,,,,,,
73,557658,1745095270118,0.0,207.01,,-0.05,0.01,0.97,0.0,0.0,0.0,0.97,1.09,89.0,2411.0,8.5,3.62,,13.59,1.255,98.8,,28.1,5.0,,,,,,,,,,,,0,0,0,0,0,0,0,0,0,0,0,0,0,0,0,0,,,,,0.0,,,,,,
74,557678,1745095270138,,,,,,,,,,,,,,,,,,,,,,,0.0,0.0,0.0,0.0,0.0,0.0,0.0,0.0,2.26,,,0,0,0,0,0,0,0,0,0,0,0,0,0,0,0,0,0.0,,,,,39.240185,-77.964806,0.07,35.0,3.0,0.8
75,557698,1745095270158,0.0,207.01,,-0.06,0.02,0.97,0.0,0.0,0.0,0.97,1.09,89.0,2285.0,8.7,3.61,,13.67,1.253,98.8,,28.1,5.0,,,,,,,,,,,,0,0,0,0,0,0,0,0,0,0,0,0,0,0,0,0,,,,,0.0,,,,,,
76,557718,1745095270178,,,,,,,,,,,,,,,,,,,,,,,,,,,,,,,,,,0,0,0,0,0,0,0,0,0,0,0,0,0,0,0,0,,,,,,,,,,,
77,557738,1745095270204,0.0,207.01,,-0.05,0.02,0.97,0.0,0.0,0.0,0.98,1.09,90.0,2318.0,8.6,3.6,,13.69,1.252,98.8,,27.0,5.0,,,,,,,,,,,,0,0,0,0,0,0,0,0,0,0,0,0,0,0,0,0,,,,,0.0,,,,,,
78,557758,1745095270224,,,,,,,,,,,,,,,,,,,,,,,,,,,,,,,,,,0,0,0,0,0,0,0,0,0,0,0,0,0,0,0,0,,,,,,,,,,,
79,557778,1745095270244,0.0,207.01,,-0.05,0.04,0.99,0.0,0.0,0.0,0.99,1.09,91.0,2299.0,8.5,3.6,,13.69,1.252,98.8,,27.0,5.0,0.0,0.0,0.0,0.0,0.0,0.0,0.0,0.0,2.26,,,0,0,0,0,0,0,0,0,0,0,0,0,0,0,0,0,0.0,,,,0.0,39.240185,-77.964806,0.0,35.0,3.0,0.8
80,557798,1745095270264,,,,,,,,,,,,,,,,,,,,,,,,,,,,,,,,,,0,0,0,0,0,0,0,0,0,0,0,0,0,0,0,0,,,,,,,,,,,
81,557818,1745095270284,0.0,207.01,,-0.06,0.03,0.97,0.0,0.0,0.0,0.97,1.09,89.0,2299.0,8.5,3.6,,13.72,1.252,98.8,,27.2,5.0,,,,,,,,,,,,0,0,0,0,0,0,0,0,0,0,0,0,0,0,0,0,,,,,0.0,,,,,,
82,557838,1745095270302,,,,,,,,,,,,,,,,,,,,,,,,,,,,,,,,,,0,0,0,0,0,0,0,0,0,0,0,0,0,0,0,0,,,,,,,,,,,
83,557858,1745095270322,0.0,207.14,,-0.06,0.03,0.98,0.0,0.0,0.0,0.98,1.09,90.0,2478.0,8.4,3.59,,13.64,1.251,98.8,,27.2,5.0,,,,,,,,,,,,0,0,0,0,0,0,0,0,0,0,0,0,0,0,0,0,,,,,0.0,,,,,,
84,557878,1745095270342,,,,,,,,,,,,,,,,,,,,,,,0.0,0.0,0.0,0.0,0.0,0.0,0.0,0.0,2.26,,,0,0,0,0,0,0,0,0,0,0,0,0,0,0,0,0,0.0,,,,,39.240185,-77.964806,0.08,35.0,3.0,0.8
85,557898,1745095270362,0.0,207.01,,-0.05,0.03,0.97,0.0,0.0,0.0,0.97,1.09,89.0,2520.0,8.6,3.65,,13.57,1.252,98.8,,27.2,5.0,,,,,,,,,,,,0,0,0,0,0,0,0,0,0,0,0,0,0,0,0,0,,,,,0.0,,,,,,
86,557918,1745095270382,,,,,,,,,,,,,,,,,,,,,,,,,,,,,,,,,,0,0,0,0,0,0,0,0,0,0,0,0,0,0,0,0,,,,,,,,,,,
87,557938,1745095270402,0.0,206.89,,-0.07,0.03,0.96,0.0,0.0,0.0,0.96,1.09,89.0,2434.0,8.6,3.64,,13.56,1.252,98.8,,28.4,5.0,,,,,,,,,,,,0,0,0,0,0,0,0,0,0,0,0,0,0,0,0,0,,,,,0.0,,,,,,
88,557958,1745095270422,,,,,,,,,,,,,,,,,,,,,,,,,,,,,,,,,,0,0,0,0,0,0,0,0,0,0,0,0,0,0,0,0,,,,,,,,,,,
89,557978,1745095270442,0.0,206.89,,-0.07,0.04,0.97,0.0,0.0,0.0,0.97,1.09,89.0,2452.0,8.6,3.64,,13.56,1.252,98.8,,28.4,5.0,0.0,0.0,0.0,0.0,0.0,0.0,0.0,0.0,2.26,,,0,0,0,0,0,0,0,0,0,0,0,0,0,0,0,0,0.0,,,,0.0,39.240185,-77.964806,0.09,35.0,3.0,0.8
90,557998,1745095270462,,,,,,,,,,,,,,,,,,,,,,,,,,,,,,,,,,0,0,0,0,0,0,0,0,0,0,0,0,0,0,0,0,,,,,,,,,,,
91,558018,1745095270482,0.0,206.89,,-0.07,0.02,0.99,0.0,0.0,0.0,0.99,1.09,91.0,2452.0,8.6,3.64,,13.57,1.252,98.8,,28.2,5.0,,,,,,,,,,,,0,0,0,0,0,0,0,0,0,0,0,0,0,0,0,0,,,,,0.0,,,,,,
92,558038,1745095270498,,,,,,,,,,,,,,,,,,,,,,,,,,,,,,,,,,0,0,0,0,0,0,0,0,0,0,0,0,0,0,0,0,,,,,,,,,,,
93,558058,1745095270518,0.0,206.89,,-0.07,0.01,0.99,0.0,0.0,0.0,0.99,1.09,91.0,2464.0,8.6,3.61,,13.59,1.253,98.8,,28.2,5.0,,,,,,,,,,,,0,0,0,0,0,0,0,0,0,0,0,0,0,0,0,0,,,,,0.0,,,,,,
94,558078,1745095270538,,,,,,,,,,,,,,,,,,,,,,,0.0,0.0,0.0,0.0,0.0,0.0,0.0,0.0,2.26,,,0,0,0,0,0,0,0,0,0,0,0,0,0,0,0,0,0.0,,,,,39.240185,-77.964806,0.08,35.0,3.0,0.8
95,558098,1745095270558,0.0,206.89,,-0.07,0.02,0.99,0.0,0.0,0.0,0.99,1.09,91.0,2442.0,8.6,3.61,,13.6,1.254,98.8,,28.2,5.0,,,,,,,,,,,,0,0,0,0,0,0,0,0,0,0,0,0,0,0,0,0,,,,,0.0,,,,,,
96,558118,1745095270578,,,,,,,,,,,,,,,,,,,,,,,,,,,,,,,,,,0,0,0,0,0,0,0,0,0,0,0,0,0,0,0,0,,,,,,,,,,,
97,558138,1745095270598,0.0,206.89,,-0.07,0.02,0.99,0.0,0.0,0.0,0.99,1.09,91.0,2358.0,15.1,3.62,,13.76,1.254,98.8,,27.3,5.0,,,,,,,,,,,,0,0,0,0,0,0,0,0,0,0,0,0,0,0,0,0,,,,,0.0,,,,,,
98,558158,1745095270618,,,,,,,,,,,,,,,,,,,,,,,,,,,,,,,,,,0,0,0,0,0,0,0,0,0,0,0,0,0,0,0,0,,,,,,,,,,,
99,558178,1745095270638,0.0,206.89,,-0.07,0.01,0.99,0.0,0.0,0.0,0.99,1.09,91.0,2305.0,21.8,4.49,,13.76,1.254,98.8,,27.3,5.0,0.0,0.0,0.0,0.0,0.0,0.0,0.0,0.0,2.26,,,0,0,0,0,0,0,0,0,0,0,0,0,0,0,0,0,0.0,,,,0.0,39.240185,-77.964806,0.07,35.0,3.0,0.8
100,558198,1745095270658,,,,,,,,,,,,,,,,,,,,,,,,,,,,,,,,,,0,0,0,0,0,0,0,0,0,0,0,0,0,0,0,0,,,,,,,,,,,
101,558218,1745095270678,0.0,206.89,,-0.06,-0.01,1.01,0.0,0.0,0.0,1.02,1.09,93.0,2305.0,21.8,4.49,,14.0,1.253,98.8,,26.4,5.0,,,,,,,,,,,,0,0,0,0,0,0,0,0,0,0,0,0,0,0,0,0,,,,,0.0,,,,,,
102,558238,1745095270701,,,,,,,,,,,,,,,,,,,,,,,,,,,,,,,,,,0,0,0,0,0,0,0,0,0,0,0,0,0,0,0,0,,,,,,,,,,,
103,558258,1745095270721,0.0,206.89,,-0.07,-0.01,1.02,0.0,0.0,0.0,1.02,1.09,94.0,2284.0,22.2,4.5,,14.04,1.252,98.8,,26.4,5.0,,,,,,,,,,,,0,0,0,0,0,0,0,0,0,0,0,0,0,0,0,0,,,,,0.0,,,,,,
104,558278,1745095270741,,,,,,,,,,,,,,,,,,,,,,,0.0,0.0,0.0,0.0,0.0,0.0,0.0,0.0,2.26,,,0,0,0,0,0,0,0,0,0,0,0,0,0,0,0,0,0.0,,,,,39.240185,-77.964806,0.08,35.0,3.0,0.8
105,558298,1745095270761,0.0,206.89,,-0.07,-0.0,1.01,0.0,0.0,0.0,1.01,1.09,93.0,2572.0,22.2,4.36,,13.98,1.251,98.8,,26.4,5.0,,,,,,,,,,,,0,0,0,0,0,0,0,0,0,0,0,0,0,0,0,0,,,,,0.0,,,,,,
106,558318,1745095270781,,,,,,,,,,,,,,,,,,,,,,,,,,,,,,,,,,0,0,0,0,0,0,0,0,0,0,0,0,0,0,0,0,,,,,,,,,,,
107,558338,1745095270798,0.0,206.89,,-0.08,-0.04,1.06,0.0,0.0,0.0,1.06,1.09,98.0,2613.0,22.3,4.34,,13.95,1.252,98.8,,28.7,5.0,,,,,,,,,,,,0,0,0,0,0,0,0,0,0,0,0,0,0,0,0,0,,,,,0.0,,,,,,
108,558358,1745095270818,,,,,,,,,,,,,,,,,,,,,,,,,,,,,,,,,,0,0,0,0,0,0,0,0,0,0,0,0,0,0,0,0,,,,,,,,,,,
109,558378,1745095270838,0.0,207.01,13.29,-0.09,-0.11,1.13,0.0,0.0,0.0,1.14,1.14,100.0,3033.0,22.3,4.29,15.0,13.95,1.252,98.8,135.0,28.7,5.0,0.0,0.0,0.0,0.0,0.0,0.0,0.0,0.0,2.27,0.0,0.0,0,0,0,0,0,0,0,0,0,0,0,0,0,0,0,0,0.0,0.0,0.0,0.0,0.0,39.240185,-77.964806,0.11,35.0,3.0,0.8
110,558398,1745095270858,,,,,,,,,,,,,,,,,,,,,,,,,,,,,,,,,,0,0,0,0,0,0,0,0,0,0,0,0,0,0,0,0,,,,,,,,,,,
111,558418,1745095270878,0.0,206.89,,-0.1,-0.18,1.12,1.0,0.0,-1.0,1.14,1.14,100.0,3033.0,22.3,4.29,,13.9,1.252,98.8,,35.7,5.0,,,,,,,,,,,,0,0,0,0,0,0,0,0,0,0,0,0,0,0,0,0,,,,,0.0,,,,,,
112,558438,1745095270903,,,,,,,,,,,,,,,,,,,,,,,,,,,,,,,,,,0,0,0,0,0,0,0,0,0,0,0,0,0,0,0,0,,,,,,,,,,,
113,558458,1745095270923,0.0,206.89,,-0.09,-0.12,1.14,0.0,0.0,0.0,1.15,1.15,100.0,3402.0,21.8,4.24,,13.84,1.252,98.8,,35.7,5.0,,,,,,,,,,,,0,0,0,0,0,0,0,0,0,0,0,0,0,0,0,0,,,,,0.0,,,,,,
114,558478,1745095270943,,,,,,,,,,,,,,,,,,,,,,,0.0,0.0,0.0,0.0,0.0,0.0,0.0,0.0,2.27,,,0,0,0,0,0,0,0,0,0,0,0,0,0,0,0,0,0.0,,,,,39.240185,-77.964806,0.07,35.0,3.0,0.8
115,558498,1745095270963,0.0,206.89,,-0.07,-0.07,1.09,0.0,0.0,0.0,1.1,1.15,96.0,3645.0,19.3,4.15,,13.61,1.252,98.8,,35.7,5.0,,,,,,,,,,,,0,0,0,0,0,0,0,0,0,0,0,0,0,0,0,0,,,,,0.0,,,,,,
116,558518,1745095270983,,,,,,,,,,,,,,,,,,,,,,,,,,,,,,,,,,0,0,0,0,0,0,0,0,0,0,0,0,0,0,0,0,,,,,,,,,,,
117,558538,1745095270995,0.0,206.89,,-0.05,-0.07,1.09,0.0,0.0,0.0,1.09,1.15,96.0,3585.0,18.9,4.07,,13.49,1.253,98.8,,43.8,5.0,,,,,,,,,,,,0,0,0,0,0,0,0,0,0,0,0,0,0,0,0,0,,,,,0.0,,,,,,
118,558558,1745095271015,,,,,,,,,,,,,,,,,,,,,,,,,,,,,,,,,,0,0,0,0,0,0,0,0,0,0,0,0,0,0,0,0,,,,,,,,,,,
119,558578,1745095271035,0.0,207.01,,-0.05,-0.04,1.1,0.0,0.0,0.0,1.1,1.15,96.0,3831.0,18.8,4.02,,13.49,1.253,98.8,,43.8,5.0,0.0,0.0,0.0,0.0,0.0,0.0,0.0,0.0,2.26,,,0,0,0,0,0,0,0,0,0,0,0,0,0,0,0,0,0.0,,,,0.0,39.240185,-77.964806,0.0,35.0,3.0,0.8
120,558598,1745095271055,,,,,,,,,,,,,,,,,,,,,,,,,,,,,,,,,,0,0,0,0,0,0,0,0,0,0,0,0,0,0,0,0,,,,,,,,,,,
121,558618,1745095271075,0.0,207.01,,-0.05,-0.06,1.1,0.0,0.0,0.0,1.1,1.15,96.0,3831.0,18.8,4.02,,13.41,1.247,98.8,,47.1,5.0,,,,,,,,,,,,0,0,0,0,0,0,0,0,0,0,0,0,0,0,0,0,,,,,0.0,,,,,,
122,558638,1745095271095,,,,,,,,,,,,,,,,,,,,,,,,,,,,,,,,,,0,0,0,0,0,0,0,0,0,0,0,0,0,0,0,0,,,,,,,,,,,
123,558658,1745095271115,0.0,207.01,,-0.07,-0.09,1.03,1.0,0.0,0.0,1.03,1.15,90.0,3858.0,17.5,3.96,,13.31,1.254,98.8,,47.1,5.0,,,,,,,,,,,,0,0,0,0,0,0,0,0,0,0,0,0,0,0,0,0,,,,,0.0,,,,,,
124,558678,1745095271135,,,,,,,,,,,,,,,,,,,,,,,0.0,0.0,0.0,0.0,0.0,0.0,0.0,0.0,2.26,,,0,0,0,0,0,0,0,0,0,0,0,0,0,0,0,0,0.0,,,,,39.240185,-77.964806,0.06,35.0,3.0,0.8
125,558698,1745095271155,0.0,207.01,,-0.07,-0.11,0.98,1.0,0.0,-1.0,0.99,1.15,86.0,3909.0,16.5,3.86,,13.23,1.253,98.8,,47.1,5.0,,,,,,,,,,,,0,0,0,0,0,0,0,0,0,0,0,0,0,0,0,0,,,,,0.0,,,,,,
126,558718,1745095271175,,,,,,,,,,,,,,,,,,,,,,,,,,,,,,,,,,0,0,0,0,0,0,0,0,0,0,0,0,0,0,0,0,,,,,,,,,,,
127,558738,1745095271201,0.0,206.89,,-0.07,-0.12,1.0,1.0,0.0,-1.0,1.01,1.15,88.0,3817.0,16.2,3.87,,13.19,1.251,98.8,,47.8,5.0,,,,,,,,,,,,0,0,0,0,0,0,0,0,0,0,0,0,0,0,0,0,,,,,0.0,,,,,,
128,558758,1745095271221,,,,,,,,,,,,,,,,,,,,,,,,,,,,,,,,,,0,0,0,0,0,0,0,0,0,0,0,0,0,0,0,0,,,,,,,,,,,
129,558778,1745095271241,0.0,207.01,,-0.08,-0.08,1.01,1.0,0.0,-1.0,1.02,1.15,89.0,3775.0,16.1,3.87,,13.19,1.251,98.8,,47.8,5.0,0.0,0.0,0.0,0.0,0.0,0.0,0.0,0.0,2.26,,,0,0,0,0,0,0,0,0,0,0,0,0,0,0,0,0,0.0,,,,0.0,39.240185,-77.964806,0.05,35.0,3.0,0.8
130,558798,1745095271261,,,,,,,,,,,,,,,,,,,,,,,,,,,,,,,,,,0,0,0,0,0,0,0,0,0,0,0,0,0,0,0,0,,,,,,,,,,,
131,558818,1745095271281,0.0,207.01,,-0.06,-0.01,1.02,1.0,0.0,0.0,1.02,1.15,89.0,3775.0,16.1,3.87,,13.25,1.251,98.8,,46.5,5.0,,,,,,,,,,,,0,0,0,0,0,0,0,0,0,0,0,0,0,0,0,0,,,,,0.0,,,,,,
132,558838,1745095271303,,,,,,,,,,,,,,,,,,,,,,,,,,,,,,,,,,0,0,0,0,0,0,0,0,0,0,0,0,0,0,0,0,,,,,,,,,,,
133,558858,1745095271323,0.0,207.01,,-0.05,0.07,1.04,0.0,0.0,0.0,1.04,1.15,91.0,3880.0,16.0,3.87,,13.23,1.252,98.8,,46.5,5.0,,,,,,,,,,,,0,0,0,0,0,0,0,0,0,0,0,0,0,0,0,0,,,,,0.0,,,,,,
134,558878,1745095271343,,,,,,,,,,,,,,,,,,,,,,,0.0,0.0,0.0,0.0,0.0,0.0,0.0,0.0,2.26,,,0,0,0,0,0,0,0,0,0,0,0,0,0,0,0,0,0.0,,,,,39.240185,-77.964806,0.0,35.0,3.0,0.8
135,558898,1745095271363,0.0,207.01,,-0.06,0.05,1.04,0.0,0.0,0.0,1.05,1.15,91.0,3801.0,16.0,3.86,,13.24,1.251,98.8,,46.5,5.0,,,,,,,,,,,,0,0,0,0,0,0,0,0,0,0,0,0,0,0,0,0,,,,,0.0,,,,,,
136,558918,1745095271383,,,,,,,,,,,,,,,,,,,,,,,,,,,,,,,,,,0,0,0,0,0,0,0,0,0,0,0,0,0,0,0,0,,,,,,,,,,,
137,558938,1745095271403,0.0,207.01,,-0.06,0.02,1.03,0.0,0.0,0.0,1.03,1.15,90.0,3850.0,15.9,3.87,,13.23,1.252,98.8,,46.6,5.0,,,,,,,,,,,,0,0,0,0,0,0,0,0,0,0,0,0,0,0,0,0,,,,,0.0,,,,,,
138,558958,1745095271423,,,,,,,,,,,,,,,,,,,,,,,,,,,,,,,,,,0,0,0,0,0,0,0,0,0,0,0,0,0,0,0,0,,,,,,,,,,,
139,558978,1745095271443,0.0,207.01,,-0.08,0.02,1.04,0.0,0.0,0.0,1.05,1.15,91.0,3833.0,15.9,3.87,,13.23,1.252,98.8,,46.6,5.0,0.0,0.0,0.0,0.0,0.0,0.0,0.0,0.0,2.27,,,0,0,0,0,0,0,0,0,0,0,0,0,0,0,0,0,0.0,,,,0.0,39.240185,-77.964806,0.0,35.0,3.0,0.8
140,558998,1745095271463,,,,,,,,,,,,,,,,,,,,,,,,,,,,,,,,,,0,0,0,0,0,0,0,0,0,0,0,0,0,0,0,0,,,,,,,,,,,
141,559018,1745095271483,0.0,207.01,,-0.07,-0.01,1.03,0.0,0.0,0.0,1.03,1.15,90.0,3833.0,15.9,3.87,,13.19,1.252,98.8,,46.2,5.0,,,,,,,,,,,,0,0,0,0,0,0,0,0,0,0,0,0,0,0,0,0,,,,,0.0,,,,,,
142,559038,1745095271501,,,,,,,,,,,,,,,,,,,,,,,,,,,,,,,,,,0,0,0,0,0,0,0,0,0,0,0,0,0,0,0,0,,,,,,,,,,,
143,559058,1745095271521,0.0,207.01,,-0.06,0.01,1.01,0.0,0.0,0.0,1.02,1.15,89.0,3736.0,15.9,3.86,,13.23,1.253,98.8,,46.2,5.0,,,,,,,,,,,,0,0,0,0,0,0,0,0,0,0,0,0,0,0,0,0,,,,,0.0,,,,,,
144,559078,1745095271541,,,,,,,,,,,,,,,,,,,,,,,0.0,0.0,0.0,0.0,0.0,0.0,0.0,0.0,2.26,,,0,0,0,0,0,0,0,0,0,0,0,0,0,0,0,0,0.0,,,,,39.240185,-77.964806,0.0,35.0,3.0,0.8
145,559098,1745095271561,0.0,207.14,,-0.04,0.04,1.0,0.0,0.0,0.0,1.0,1.15,87.0,3705.0,15.9,3.9,,13.27,1.253,98.8,,46.2,5.0,,,,,,,,,,,,0,0,0,0,0,0,0,0,0,0,0,0,0,0,0,0,,,,,0.0,,,,,,
146,559118,1745095271581,,,,,,,,,,,,,,,,,,,,,,,,,,,,,,,,,,0,0,0,0,0,0,0,0,0,0,0,0,0,0,0,0,,,,,,,,,,,
147,559138,1745095271599,0.0,207.01,,-0.03,0.0,0.96,1.0,0.0,0.0,0.96,1.15,84.0,3472.0,16.0,3.92,,13.41,1.254,98.8,,44.1,5.0,,,,,,,,,,,,0,0,0,0,0,0,0,0,0,0,0,0,0,0,0,0,,,,,0.0,,,,,,
148,559158,1745095271619,,,,,,,,,,,,,,,,,,,,,,,,,,,,,,,,,,0,0,0,0,0,0,0,0,0,0,0,0,0,0,0,0,,,,,,,,,,,
149,559178,1745095271639,0.0,207.01,,-0.03,0.03,1.03,0.0,0.0,0.0,1.03,1.15,90.0,3378.0,16.1,3.98,,13.41,1.254,98.8,,44.1,5.0,0.0,0.0,0.0,0.0,0.0,0.0,0.0,0.0,2.26,,,0,0,0,0,0,0,0,0,0,0,0,0,0,0,0,0,0.0,,,,0.0,39.240185,-77.964806,0.05,35.0,3.0,0.8
150,559198,1745095271659,,,,,,,,,,,,,,,,,,,,,,,,,,,,,,,,,,0,0,0,0,0,0,0,0,0,0,0,0,0,0,0,0,,,,,,,,,,,
151,559218,1745095271679,0.0,207.01,,-0.05,-0.02,1.03,1.0,0.0,0.0,1.04,1.15,90.0,3378.0,16.1,3.98,,13.52,1.254,98.8,,39.0,5.0,,,,,,,,,,,,0,0,0,0,0,0,0,0,0,0,0,0,0,0,0,0,,,,,0.0,,,,,,
152,559238,1745095271699,,,,,,,,,,,,,,,,,,,,,,,,,,,,,,,,,,0,0,0,0,0,0,0,0,0,0,0,0,0,0,0,0,,,,,,,,,,,
153,559258,1745095271719,0.0,207.01,,-0.06,-0.01,1.02,1.0,0.0,0.0,1.02,1.15,89.0,3484.0,16.1,4.03,,13.53,1.252,98.8,,39.0,5.0,,,,,,,,,,,,0,0,0,0,0,0,0,0,0,0,0,0,0,0,0,0,,,,,0.0,,,,,,
154,559278,1745095271739,,,,,,,,,,,,,,,,,,,,,,,0.0,0.0,0.0,0.0,0.0,0.0,0.0,0.0,2.27,,,0,0,0,0,0,0,0,0,0,0,0,0,0,0,0,0,0.0,,,,,39.240181,-77.964806,0.46,35.0,3.0,0.8
155,559298,1745095271759,0.0,207.26,,-0.06,-0.0,1.04,1.0,0.0,-1.0,1.04,1.15,91.0,2917.0,16.0,4.08,,13.59,1.251,98.8,,39.0,5.0,,,,,,,,,,,,0,0,0,0,0,0,0,0,0,0,0,0,0,0,0,0,,,,,0.0,,,,,,
156,559318,1745095271779,,,,,,,,,,,,,,,,,,,,,,,,,,,,,,,,,,0,0,0,0,0,0,0,0,0,0,0,0,0,0,0,0,,,,,,,,,,,
157,559338,1745095271799,0.0,207.14,,-0.06,-0.0,1.07,1.0,0.0,0.0,1.07,1.15,93.0,2781.0,15.9,4.12,,13.75,1.251,98.8,,34.4,5.0,,,,,,,,,,,,0,0,0,0,0,0,0,0,0,0,0,0,0,0,0,0,,,,,0.0,,,,,,
158,559358,1745095271819,,,,,,,,,,,,,,,,,,,,,,,,,,,,,,,,,,0,0,0,0,0,0,0,0,0,0,0,0,0,0,0,0,,,,,,,,,,,
159,559378,1745095271839,0.0,207.14,13.36,-0.07,0.01,1.03,1.0,0.0,0.0,1.03,1.15,90.0,2635.0,15.9,4.13,15.0,13.75,1.251,98.8,135.0,34.4,5.0,0.0,0.0,0.0,0.0,0.0,0.0,0.0,0.0,2.27,0.0,0.0,0,0,0,0,0,0,0,0,0,0,0,0,0,0,0,0,0.0,0.0,0.0,0.0,0.0,39.240181,-77.964806,0.75,35.0,3.0,0.8
160,559398,1745095271859,,,,,,,,,,,,,,,,,,,,,,,,,,,,,,,,,,0,0,0,0,0,0,0,0,0,0,0,0,0,0,0,0,,,,,,,,,,,
161,559418,1745095271879,0.0,207.14,,-0.06,0.02,1.03,1.0,0.0,0.0,1.03,1.15,90.0,2635.0,15.9,4.13,,13.86,1.251,98.8,,30.0,5.0,,,,,,,,,,,,0,0,0,0,0,0,0,0,0,0,0,0,0,0,0,0,,,,,0.0,,,,,,
162,559438,1745095271902,,,,,,,,,,,,,,,,,,,,,,,,,,,,,,,,,,0,0,0,0,0,0,0,0,0,0,0,0,0,0,0,0,,,,,,,,,,,
163,559458,1745095271922,0.0,207.01,,-0.08,0.01,1.01,1.0,0.0,0.0,1.02,1.15,89.0,2519.0,15.9,4.18,,13.83,1.251,98.8,,30.0,5.0,,,,,,,,,,,,0,0,0,0,0,0,0,0,0,0,0,0,0,0,0,0,,,,,0.0,,,,,,
164,559478,1745095271942,,,,,,,,,,,,,,,,,,,,,,,0.0,0.0,0.0,0.0,0.0,0.0,0.0,0.0,2.26,,,0,0,0,0,0,0,0,0,0,0,0,0,0,0,0,0,0.0,,,,,39.240185,-77.964806,1.03,35.0,3.0,0.8
165,559498,1745095271962,0.0,207.01,,-0.08,0.0,1.02,1.0,0.0,0.0,1.02,1.15,89.0,2647.0,15.8,4.17,,13.79,1.25,98.8,,30.0,5.0,,,,,,,,,,,,0,0,0,0,0,0,0,0,0,0,0,0,0,0,0,0,,,,,0.0,,,,,,
166,559518,1745095271982,,,,,,,,,,,,,,,,,,,,,,,,,,,,,,,,,,0,0,0,0,0,0,0,0,0,0,0,0,0,0,0,0,,,,,,,,,,,
167,559538,1745095271994,0.0,206.89,,-0.07,0.02,1.0,1.0,0.0,0.0,1.0,1.15,87.0,2678.0,15.9,4.18,,13.77,1.252,98.8,,29.5,5.0,,,,,,,,,,,,0,0,0,0,0,0,0,0,0,0,0,0,0,0,0,0,,,,,0.0,,,,,,
168,559558,1745095272014,,,,,,,,,,,,,,,,,,,,,,,,,,,,,,,,,,0,0,0,0,0,0,0,0,0,0,0,0,0,0,0,0,,,,,,,,,,,
169,559578,1745095272034,0.0,206.89,,-0.09,0.01,1.04,1.0,0.0,0.0,1.04,1.15,91.0,2723.0,15.9,4.17,,13.77,1.252,97.0,,29.5,5.0,0.0,0.0,0.0,0.0,0.0,0.0,0.0,0.0,2.26,,,0,0,0,0,0,0,0,0,0,0,0,0,0,0,0,0,0.0,,,,0.0,39.240185,-77.964806,1.08,35.0,3.0,0.8
170,559598,1745095272054,,,,,,,,,,,,,,,,,,,,,,,,,,,,,,,,,,0,0,0,0,0,0,0,0,0,0,0,0,0,0,0,0,,,,,,,,,,,
171,559618,1745095272074,0.0,206.89,,-0.08,0.04,1.0,1.0,0.0,0.0,1.0,1.15,87.0,2723.0,15.9,4.17,,13.72,1.252,97.0,,30.5,5.0,,,,,,,,,,,,0,0,0,0,0,0,0,0,0,0,0,0,0,0,0,0,,,,,0.0,,,,,,
172,559638,1745095272098,,,,,,,,,,,,,,,,,,,,,,,,,,,,,,,,,,0,0,0,0,0,0,0,0,0,0,0,0,0,0,0,0,,,,,,,,,,,
173,559658,1745095272118,0.0,206.76,,-0.08,0.04,0.95,2.0,0.0,0.0,0.95,1.15,83.0,2798.0,15.9,4.14,,13.71,1.255,97.0,,30.5,5.0,,,,,,,,,,,,0,0,0,0,0,0,0,0,0,0,0,0,0,0,0,0,,,,,0.0,,,,,,
174,559678,1745095272138,,,,,,,,,,,,,,,,,,,,,,,0.0,0.0,0.0,0.0,0.0,0.0,0.0,0.0,2.26,,,0,0,0,0,0,0,0,0,0,0,0,0,0,0,0,0,0.0,,,,,39.240185,-77.964806,0.89,35.0,3.0,0.8
175,559698,1745095272158,0.0,206.76,,-0.1,-0.01,0.97,1.0,0.0,0.0,0.97,1.15,85.0,2842.0,16.0,4.11,,13.71,1.255,97.0,,30.5,5.0,,,,,,,,,,,,0,0,0,0,0,0,0,0,0,0,0,0,0,0,0,0,,,,,0.0,,,,,,
176,559718,1745095272178,,,,,,,,,,,,,,,,,,,,,,,,,,,,,,,,,,0,0,0,0,0,0,0,0,0,0,0,0,0,0,0,0,,,,,,,,,,,
177,559738,1745095272200,0.0,206.76,,-0.13,-0.02,1.02,1.0,0.0,0.0,1.03,1.15,90.0,2896.0,16.0,4.09,,13.71,1.253,97.0,,33.4,5.0,,,,,,,,,,,,0,0,0,0,0,0,0,0,0,0,0,0,0,0,0,0,,,,,0.0,,,,,,
178,559758,1745095272220,,,,,,,,,,,,,,,,,,,,,,,,,,,,,,,,,,0,0,0,0,0,0,0,0,0,0,0,0,0,0,0,0,,,,,,,,,,,
179,559778,1745095272240,0.0,206.76,,-0.16,-0.05,1.02,2.0,0.0,-1.0,1.03,1.15,90.0,3126.0,16.1,4.09,,13.71,1.253,97.0,,33.4,5.0,1.0,0.0,1.0,0.0,0.0,0.0,0.0,0.0,2.26,,,0,0,0,0,0,0,0,0,0,0,0,0,0,0,0,0,0.0,,,,0.0,39.240185,-77.964806,0.76,35.0,3.0,0.8
180,559798,1745095272260,,,,,,,,,,,,,,,,,,,,,,,,,,,,,,,,,,0,0,0,0,0,0,0,0,0,0,0,0,0,0,0,0,,,,,,,,,,,
181,559818,1745095272280,0.0,206.64,,-0.16,0.01,0.93,2.0,0.0,-1.0,0.94,1.15,82.0,3126.0,16.1,4.09,,13.59,1.252,97.0,,36.1,5.0,,,,,,,,,,,,0,0,0,0,0,0,0,0,0,0,0,0,0,0,0,0,,,,,0.0,,,,,,
182,559838,1745095272304,,,,,,,,,,,,,,,,,,,,,,,,,,,,,,,,,,0,0,0,0,0,0,0,0,0,0,0,0,0,0,0,0,,,,,,,,,,,
183,559858,1745095272324,0.0,206.64,,-0.13,0.09,0.92,1.0,0.0,0.0,0.93,1.15,81.0,3201.0,16.0,4.05,,13.56,1.252,97.0,,36.1,5.0,,,,,,,,,,,,0,0,0,0,0,0,0,0,0,0,0,0,0,0,0,0,,,,,0.0,,,,,,
184,559878,1745095272344,,,,,,,,,,,,,,,,,,,,,,,1.0,0.0,1.0,0.0,0.0,0.0,0.0,0.0,2.27,,,0,0,0,0,0,0,0,0,0,0,0,0,0,0,0,0,0.0,,,,,39.240185,-77.964806,0.54,35.0,3.0,0.8
185,559898,1745095272364,0.0,206.64,,-0.14,-0.01,0.99,1.0,0.0,0.0,1.0,1.15,87.0,3214.0,15.9,4.02,,13.56,1.252,97.0,,36.1,5.0,,,,,,,,,,,,0,0,0,0,0,0,0,0,0,0,0,0,0,0,0,0,,,,,0.0,,,,,,
186,559918,1745095272384,,,,,,,,,,,,,,,,,,,,,,,,,,,,,,,,,,0,0,0,0,0,0,0,0,0,0,0,0,0,0,0,0,,,,,,,,,,,
187,559938,1745095272404,0.0,206.51,,-0.15,-0.02,0.94,1.0,0.0,-1.0,0.95,1.15,83.0,3338.0,16.0,4.03,,13.53,1.251,97.0,,38.6,5.0,,,,,,,,,,,,0,0,0,0,0,0,0,0,0,0,0,0,0,0,0,0,,,,,0.0,,,,,,
188,559958,1745095272424,,,,,,,,,,,,,,,,,,,,,,,,,,,,,,,,,,0,0,0,0,0,0,0,0,0,0,0,0,0,0,0,0,,,,,,,,,,,
189,559978,1745095272444,0.0,206.51,,-0.14,0.01,1.01,1.0,0.0,0.0,1.02,1.15,89.0,3365.0,16.0,3.98,,13.53,1.251,97.0,,38.6,5.0,1.0,0.0,1.0,0.0,0.0,0.0,0.0,0.0,2.26,,,0,0,0,0,0,0,0,0,0,0,0,0,0,0,0,0,0.0,,,,0.0,39.240185,-77.964806,0.34,35.0,3.0,0.8
190,559998,1745095272464,,,,,,,,,,,,,,,,,,,,,,,,,,,,,,,,,,0,0,0,0,0,0,0,0,0,0,0,0,0,0,0,0,,,,,,,,,,,
191,560018,1745095272484,0.0,206.51,,-0.16,-0.12,1.0,2.0,0.0,-1.0,1.02,1.15,89.0,3365.0,16.0,3.98,,13.55,1.252,97.0,,40.7,5.0,,,,,,,,,,,,0,0,0,0,0,0,0,0,0,0,0,0,0,0,0,0,,,,,0.0,,,,,,
192,560038,1745095272504,,,,,,,,,,,,,,,,,,,,,,,,,,,,,,,,,,0,0,0,0,0,0,0,0,0,0,0,0,0,0,0,0,,,,,,,,,,,
193,560058,1745095272524,0.0,206.51,,-0.16,-0.17,1.06,2.0,0.0,-1.0,1.09,1.15,95.0,3477.0,16.0,3.98,,13.52,1.252,97.0,,40.7,5.0,,,,,,,,,,,,0,0,0,0,0,0,0,0,0,0,0,0,0,0,0,0,,,,,0.0,,,,,,
194,560078,1745095272544,,,,,,,,,,,,,,,,,,,,,,,1.0,0.0,1.0,0.0,0.0,0.0,0.0,0.0,2.26,,,0,0,0,0,0,0,0,0,0,0,0,0,0,0,0,0,0.0,,,,,39.240185,-77.964806,0.18,35.0,3.0,0.8
195,560098,1745095272564,0.0,206.51,,-0.14,-0.04,1.05,1.0,0.0,0.0,1.06,1.15,93.0,3498.0,15.9,3.98,,13.52,1.253,97.0,,40.7,5.0,,,,,,,,,,,,0,0,0,0,0,0,0,0,0,0,0,0,0,0,0,0,,,,,0.0,,,,,,
196,560118,1745095272584,,,,,,,,,,,,,,,,,,,,,,,,,,,,,,,,,,0,0,0,0,0,0,0,0,0,0,0,0,0,0,0,0,,,,,,,,,,,
197,560138,1745095272604,0.0,206.51,,-0.13,-0.04,1.0,2.0,0.0,-1.0,1.01,1.15,88.0,3471.0,15.9,3.95,,13.47,1.254,97.0,,41.6,5.0,,,,,,,,,,,,0,0,0,0,0,0,0,0,0,0,0,0,0,0,0,0,,,,,0.0,,,,,,
198,560158,1745095272624,,,,,,,,,,,,,,,,,,,,,,,,,,,,,,,,,,0,0,0,0,0,0,0,0,0,0,0,0,0,0,0,0,,,,,,,,,,,
199,560178,1745095272644,0.0,206.51,,-0.14,-0.06,1.06,1.0,0.0,0.0,1.07,1.15,93.0,3496.0,16.0,3.96,,13.47,1.254,97.0,,41.6,5.0,1.0,0.0,1.0,0.0,0.0,0.0,0.0,0.0,2.26,,,0,0,0,0,0,0,0,0,0,0,0,0,0,0,0,0,0.0,,,,0.0,39.240185,-77.964806,0.12,35.0,3.0,0.8
200,560198,1745095272664,,,,,,,,,,,,,,,,,,,,,,,,,,,,,,,,,,0,0,0,0,0,0,0,0,0,0,0,0,0,0,0,0,,,,,,,,,,,
201,560218,1745095272684,0.0,206.51,,-0.12,0.02,1.05,0.0,0.0,0.0,1.05,1.15,92.0,3496.0,16.0,3.96,,13.52,1.254,97.0,,43.1,5.0,,,,,,,,,,,,0,0,0,0,0,0,0,0,0,0,0,0,0,0,0,0,,,,,0.0,,,,,,
202,560238,1745095272704,,,,,,,,,,,,,,,,,,,,,,,,,,,,,,,,,,0,0,0,0,0,0,0,0,0,0,0,0,0,0,0,0,,,,,,,,,,,
203,560258,1745095272724,0.0,206.39,,-0.13,-0.0,0.99,1.0,0.0,0.0,1.0,1.15,87.0,3676.0,16.1,3.92,,13.39,1.253,97.0,,43.1,5.0,,,,,,,,,,,,0,0,0,0,0,0,0,0,0,0,0,0,0,0,0,0,,,,,0.0,,,,,,
204,560278,1745095272744,,,,,,,,,,,,,,,,,,,,,,,1.0,0.0,1.0,0.0,0.0,0.0,0.0,0.0,2.26,,,0,0,0,0,0,0,0,0,0,0,0,0,0,0,0,0,0.0,,,,,39.240185,-77.964806,0.18,35.0,3.0,0.8
205,560298,1745095272764,0.0,206.39,,-0.12,-0.03,0.95,1.0,0.0,-1.0,0.96,1.15,84.0,3831.0,16.1,3.87,,13.25,1.244,97.0,,43.1,5.0,,,,,,,,,,,,0,0,0,0,0,0,0,0,0,0,0,0,0,0,0,0,,,,,0.0,,,,,,
206,560318,1745095272784,,,,,,,,,,,,,,,,,,,,,,,,,,,,,,,,,,0,0,0,0,0,0,0,0,0,0,0,0,0,0,0,0,,,,,,,,,,,
207,560338,1745095272802,0.0,206.39,,-0.11,0.07,0.99,1.0,0.0,0.0,1.0,1.15,87.0,3978.0,16.0,3.86,,13.28,1.18,97.0,,47.1,5.0,,,,,,,,,,,,0,0,0,0,0,0,0,0,0,0,0,0,0,0,0,0,,,,,0.0,,,,,,
208,560358,1745095272822,,,,,,,,,,,,,,,,,,,,,,,,,,,,,,,,,,0,0,0,0,0,0,0,0,0,0,0,0,0,0,0,0,,,,,,,,,,,
209,560378,1745095272842,0.0,206.39,13.37,-0.12,0.06,1.02,0.0,0.0,0.0,1.03,1.15,90.0,3948.0,16.0,3.83,15.0,13.28,1.18,97.0,135.0,47.1,5.0,1.0,0.0,1.0,0.0,0.0,0.0,0.0,0.0,2.26,0.0,0.0,0,0,0,0,0,0,0,0,0,0,0,0,0,0,0,0,0.0,0.0,0.0,0.0,0.0,39.240185,-77.964806,0.04,35.0,3.0,0.8
210,560398,1745095272862,,,,,,,,,,,,,,,,,,,,,,,,,,,,,,,,,,0,0,0,0,0,0,0,0,0,0,0,0,0,0,0,0,,,,,,,,,,,
211,560418,1745095272882,0.0,206.39,,-0.13,-0.02,0.94,0.0,0.0,0.0,0.95,1.15,83.0,3948.0,16.0,3.83,,13.17,1.193,97.0,,48.9,5.0,,,,,,,,,,,,0,0,0,0,0,0,0,0,0,0,0,0,0,0,0,0,,,,,0.0,,,,,,
212,560438,1745095272903,,,,,,,,,,,,,,,,,,,,,,,,,,,,,,,,,,0,0,0,0,0,0,0,0,0,0,0,0,0,0,0,0,,,,,,,,,,,
213,560458,1745095272923,0.0,206.39,,-0.12,0.01,0.95,1.0,0.0,0.0,0.96,1.15,84.0,3997.0,15.9,3.85,,13.17,1.192,97.0,,48.9,5.0,,,,,,,,,,,,0,0,0,0,0,0,0,0,0,0,0,0,0,0,0,0,,,,,0.0,,,,,,
214,560478,1745095272943,,,,,,,,,,,,,,,,,,,,,,,1.0,0.0,1.0,0.0,0.0,0.0,0.0,0.0,2.27,,,0,0,0,0,0,0,0,0,0,0,0,0,0,0,0,0,0.0,,,,,39.240185,-77.964806,0.12,35.0,3.0,0.8
215,560498,1745095272963,0.0,206.26,,-0.12,0.11,1.03,0.0,0.0,0.0,1.05,1.15,91.0,3946.0,15.8,3.86,,13.2,1.187,97.0,,48.9,5.0,,,,,,,,,,,,0,0,0,0,0,0,0,0,0,0,0,0,0,0,0,0,,,,,0.0,,,,,,
216,560518,1745095272983,,,,,,,,,,,,,,,,,,,,,,,,,,,,,,,,,,0,0,0,0,0,0,0,0,0,0,0,0,0,0,0,0,,,,,,,,,,,
217,560538,1745095272993,0.0,206.26,,-0.14,0.05,1.0,0.0,0.0,0.0,1.01,1.15,88.0,3961.0,15.9,3.83,,13.15,1.249,97.0,,48.9,5.0,,,,,,,,,,,,0,0,0,0,0,0,0,0,0,0,0,0,0,0,0,0,,,,,0.0,,,,,,
218,560558,1745095273013,,,,,,,,,,,,,,,,,,,,,,,,,,,,,,,,,,0,0,0,0,0,0,0,0,0,0,0,0,0,0,0,0,,,,,,,,,,,
219,560578,1745095273033,0.0,206.39,,-0.12,0.03,0.98,1.0,0.0,0.0,0.99,1.15,87.0,4027.0,15.9,3.83,,13.15,1.249,97.0,,48.9,5.0,1.0,0.0,1.0,0.0,0.0,0.0,0.0,0.0,2.26,,,0,0,0,0,0,0,0,0,0,0,0,0,0,0,0,0,0.0,,,,0.0,39.240185,-77.964806,0.14,35.0,3.0,0.8
220,560598,1745095273053,,,,,,,,,,,,,,,,,,,,,,,,,,,,,,,,,,0,0,0,0,0,0,0,0,0,0,0,0,0,0,0,0,,,,,,,,,,,
221,560618,1745095273073,0.0,206.26,,-0.11,0.14,1.07,0.0,0.0,0.0,1.08,1.15,95.0,4027.0,15.9,3.83,,13.12,1.252,97.0,,49.6,5.0,,,,,,,,,,,,0,0,0,0,0,0,0,0,0,0,0,0,0,0,0,0,,,,,0.0,,,,,,
222,560638,1745095273101,,,,,,,,,,,,,,,,,,,,,,,,,,,,,,,,,,0,0,0,0,0,0,0,0,0,0,0,0,0,0,0,0,,,,,,,,,,,
223,560658,1745095273121,0.0,206.26,,-0.12,0.08,1.03,0.0,0.0,0.0,1.04,1.15,91.0,4039.0,15.9,3.84,,13.15,1.232,97.0,,49.6,5.0,,,,,,,,,,,,0,0,0,0,0,0,0,0,0,0,0,0,0,0,0,0,,,,,0.0,,,,,,
224,560678,1745095273141,,,,,,,,,,,,,,,,,,,,,,,1.0,0.0,1.0,0.0,0.0,0.0,0.0,0.0,2.26,,,0,0,0,0,0,0,0,0,0,0,0,0,0,0,0,0,0.0,,,,,39.240185,-77.964806,0.05,34.0,3.0,0.8
225,560698,1745095273161,0.0,206.26,,-0.1,0.06,1.01,0.0,0.0,0.0,1.01,1.15,89.0,3932.0,15.9,3.83,,13.23,1.226,97.0,,49.6,5.0,,,,,,,,,,,,0,0,0,0,0,0,0,0,0,0,0,0,0,0,0,0,,,,,0.0,,,,,,
226,560718,1745095273181,,,,,,,,,,,,,,,,,,,,,,,,,,,,,,,,,,0,0,0,0,0,0,0,0,0,0,0,0,0,0,0,0,,,,,,,,,,,
227,560738,1745095273203,0.0,206.26,,-0.09,0.17,1.08,0.0,0.0,0.0,1.09,1.15,96.0,3996.0,16.1,3.84,,13.17,1.253,97.0,,48.8,5.0,,,,,,,,,,,,0,0,0,0,0,0,0,0,0,0,0,0,0,0,0,0,,,,,0.0,,,,,,
228,560758,1745095273223,,,,,,,,,,,,,,,,,,,,,,,,,,,,,,,,,,0,0,0,0,0,0,0,0,0,0,0,0,0,0,0,0,,,,,,,,,,,
229,560778,1745095273243,0.0,206.26,,-0.1,0.16,1.11,-1.0,0.0,1.0,1.12,1.15,98.0,3947.0,16.0,3.85,,13.17,1.253,97.0,,48.8,5.0,1.0,0.0,1.0,0.0,0.0,0.0,0.0,0.0,2.26,,,0,0,0,0,0,0,0,0,0,0,0,0,0,0,0,0,0.0,,,,0.0,39.240185,-77.964806,0.11,34.0,3.0,0.8
230,560798,1745095273263,,,,,,,,,,,,,,,,,,,,,,,,,,,,,,,,,,0,0,0,0,0,0,0,0,0,0,0,0,0,0,0,0,,,,,,,,,,,
231,560818,1745095273283,0.0,206.26,,-0.1,0.06,1.06,0.0,0.0,0.0,1.07,1.15,93.0,3947.0,16.0,3.85,,13.2,1.252,97.0,,47.9,5.0,,,,,,,,,,,,0,0,0,0,0,0,0,0,0,0,0,0,0,0,0,0,,,,,0.0,,,,,,
232,560838,1745095273303,,,,,,,,,,,,,,,,,,,,,,,,,,,,,,,,,,0,0,0,0,0,0,0,0,0,0,0,0,0,0,0,0,,,,,,,,,,,
233,560858,1745095273323,0.0,206.26,,-0.09,0.04,1.04,0.0,0.0,0.0,1.04,1.15,91.0,3859.0,16.0,3.85,,13.24,1.25,97.0,,47.9,5.0,,,,,,,,,,,,0,0,0,0,0,0,0,0,0,0,0,0,0,0,0,0,,,,,0.0,,,,,,
234,560878,1745095273343,,,,,,,,,,,,,,,,,,,,,,,1.0,0.0,1.0,0.0,0.0,0.0,0.0,0.0,2.26,,,0,0,0,0,0,0,0,0,0,0,0,0,0,0,0,0,0.0,,,,,39.240185,-77.964806,0.04,35.0,3.0,0.8
235,560898,1745095273363,0.0,206.26,,-0.07,0.02,1.03,0.0,0.0,0.0,1.03,1.15,90.0,3875.0,15.9,3.88,,13.16,1.251,97.0,,47.9,5.0,,,,,,,,,,,,0,0,0,0,0,0,0,0,0,0,0,0,0,0,0,0,,,,,0.0,,,,,,
236,560918,1745095273383,,,,,,,,,,,,,,,,,,,,,,,,,,,,,,,,,,0,0,0,0,0,0,0,0,0,0,0,0,0,0,0,0,,,,,,,,,,,
237,560938,1745095273403,0.0,206.26,,-0.05,0.01,1.03,1.0,0.0,0.0,1.03,1.15,90.0,3809.0,15.9,3.86,,13.23,1.25,97.0,,47.4,5.0,,,,,,,,,,,,0,0,0,0,0,0,0,0,0,0,0,0,0,0,0,0,,,,,0.0,,,,,,
238,560958,1745095273423,,,,,,,,,,,,,,,,,,,,,,,,,,,,,,,,,,0,0,0,0,0,0,0,0,0,0,0,0,0,0,0,0,,,,,,,,,,,
239,560978,1745095273443,0.0,206.26,,-0.04,-0.02,1.08,0.0,0.0,0.0,1.08,1.15,95.0,3647.0,15.9,3.91,,13.23,1.25,97.0,,47.4,5.0,1.0,0.0,1.0,0.0,0.0,0.0,0.0,0.0,2.26,,,0,0,0,0,0,0,0,0,0,0,0,0,0,0,0,0,0.0,,,,0.0,39.240185,-77.964806,0.04,35.0,3.0,0.8
240,560998,1745095273463,,,,,,,,,,,,,,,,,,,,,,,,,,,,,,,,,,0,0,0,0,0,0,0,0,0,0,0,0,0,0,0,0,,,,,,,,,,,
241,561018,1745095273483,0.0,206.26,,-0.0,0.08,1.02,0.0,0.0,0.0,1.02,1.15,89.0,3647.0,15.9,3.91,,13.33,1.25,97.0,,42.4,5.0,,,,,,,,,,,,0,0,0,0,0,0,0,0,0,0,0,0,0,0,0,0,,,,,0.0,,,,,,
242,561038,1745095273503,,,,,,,,,,,,,,,,,,,,,,,,,,,,,,,,,,0,0,0,0,0,0,0,0,0,0,0,0,0,0,0,0,,,,,,,,,,,
243,561058,1745095273523,0.0,206.26,,0.0,0.02,1.08,0.0,0.0,1.0,1.08,1.15,94.0,3266.0,15.9,3.97,,13.48,1.251,97.0,,42.4,5.0,,,,,,,,,,,,0,0,0,0,0,0,0,0,0,0,0,0,0,0,0,0,,,,,0.0,,,,,,
244,561078,1745095273543,,,,,,,,,,,,,,,,,,,,,,,1.0,0.0,0.0,0.0,0.0,0.0,0.0,0.0,2.26,,,0,0,0,0,0,0,0,0,0,0,0,0,0,0,0,0,0.0,,,,,39.240185,-77.964806,0.21,35.0,3.0,0.8
245,561098,1745095273563,0.0,206.13,,-0.0,-0.03,1.12,0.0,0.0,1.0,1.12,1.15,98.0,3014.0,15.9,2.65,,13.63,1.252,97.0,,42.4,5.0,,,,,,,,,,,,0,0,0,0,0,0,0,0,0,0,0,0,0,0,0,0,,,,,0.0,,,,,,
246,561118,1745095273583,,,,,,,,,,,,,,,,,,,,,,,,,,,,,,,,,,0,0,0,0,0,0,0,0,0,0,0,0,0,0,0,0,,,,,,,,,,,
247,561138,1745095273603,0.0,206.13,,0.01,-0.01,1.09,0.0,0.0,1.0,1.09,1.15,95.0,2843.0,15.9,4.08,,13.65,1.253,97.0,,35.1,5.0,,,,,,,,,,,,0,0,0,0,0,0,0,0,0,0,0,0,0,0,0,0,,,,,0.0,,,,,,
248,561158,1745095273623,,,,,,,,,,,,,,,,,,,,,,,,,,,,,,,,,,0,0,0,0,0,0,0,0,0,0,0,0,0,0,0,0,,,,,,,,,,,
249,561178,1745095273643,0.0,206.13,,0.02,-0.01,1.09,0.0,0.0,1.0,1.09,1.15,95.0,2685.0,16.0,4.16,,13.65,1.253,97.0,,35.1,5.0,0.0,0.0,0.0,0.0,0.0,0.0,0.0,0.0,2.26,,,0,0,0,0,0,0,0,0,0,0,0,0,0,0,0,0,0.0,,,,0.0,39.240185,-77.964806,0.71,35.0,3.0,0.8
250,561198,1745095273663,,,,,,,,,,,,,,,,,,,,,,,,,,,,,,,,,,0,0,0,0,0,0,0,0,0,0,0,0,0,0,0,0,,,,,,,,,,,
251,561218,1745095273683,0.0,206.26,,0.02,-0.01,1.06,0.0,0.0,1.0,1.07,1.15,93.0,2685.0,16.0,4.16,,13.77,1.252,97.0,,28.8,5.0,,,,,,,,,,,,0,0,0,0,0,0,0,0,0,0,0,0,0,0,0,0,,,,,0.0,,,,,,
252,561238,1745095273703,,,,,,,,,,,,,,,,,,,,,,,,,,,,,,,,,,0,0,0,0,0,0,0,0,0,0,0,0,0,0,0,0,,,,,,,,,,,
253,561258,1745095273723,0.0,206.26,,0.02,-0.0,1.04,0.0,0.0,0.0,1.04,1.15,91.0,2508.0,16.1,4.21,,13.87,1.253,97.0,,28.8,5.0,,,,,,,,,,,,0,0,0,0,0,0,0,0,0,0,0,0,0,0,0,0,,,,,0.0,,,,,,
254,561278,1745095273743,,,,,,,,,,,,,,,,,,,,,,,0.0,0.0,0.0,0.0,0.0,0.0,0.0,0.0,2.26,,,0,0,0,0,0,0,0,0,0,0,0,0,0,0,0,0,0.0,,,,,39.240185,-77.964806,1.13,35.0,3.0,0.8
255,561298,1745095273763,0.0,206.13,,0.02,-0.01,1.03,0.0,0.0,0.0,1.03,1.15,90.0,2284.0,16.1,4.26,,13.94,1.249,97.0,,28.8,5.0,,,,,,,,,,,,0,0,0,0,0,0,0,0,0,0,0,0,0,0,0,0,,,,,0.0,,,,,,
256,561318,1745095273783,,,,,,,,,,,,,,,,,,,,,,,,,,,,,,,,,,0,0,0,0,0,0,0,0,0,0,0,0,0,0,0,0,,,,,,,,,,,
257,561338,1745095273803,0.0,206.13,,0.02,-0.01,1.01,0.0,0.0,0.0,1.01,1.15,88.0,2062.0,16.1,4.34,,14.07,1.244,97.0,,23.9,5.0,,,,,,,,,,,,0,0,0,0,0,0,0,0,0,0,0,0,0,0,0,0,,,,,0.0,,,,,,
258,561358,1745095273823,,,,,,,,,,,,,,,,,,,,,,,,,,,,,,,,,,0,0,0,0,0,0,0,0,0,0,0,0,0,0,0,0,,,,,,,,,,,
259,561378,1745095273843,0.0,206.01,13.36,0.03,-0.02,1.01,0.0,0.0,0.0,1.01,1.15,88.0,1842.0,16.0,4.33,15.0,14.07,1.244,97.0,135.0,23.9,5.0,1.0,0.0,0.0,1.0,0.0,0.0,0.0,0.0,2.26,0.0,0.0,0,0,0,0,0,0,0,0,0,0,0,0,0,0,0,0,0.0,0.0,0.0,0.0,0.0,39.240185,-77.964806,1.49,35.0,3.0,0.8
260,561398,1745095273863,,,,,,,,,,,,,,,,,,,,,,,,,,,,,,,,,,0,0,0,0,0,0,0,0,0,0,0,0,0,0,0,0,,,,,,,,,,,
261,561418,1745095273883,0.0,206.01,,0.03,-0.02,1.01,0.0,0.0,0.0,1.01,1.15,88.0,1842.0,16.0,4.33,,14.18,1.25,97.0,,21.0,5.0,,,,,,,,,,,,0,0,0,0,0,0,0,0,0,0,0,0,0,0,0,0,,,,,0.0,,,,,,
262,561438,1745095273904,,,,,,,,,,,,,,,,,,,,,,,,,,,,,,,,,,0,0,0,0,0,0,0,0,0,0,0,0,0,0,0,0,,,,,,,,,,,
263,561458,1745095273924,0.0,205.88,,0.02,-0.01,1.03,0.0,0.0,0.0,1.03,1.15,90.0,1816.0,15.9,4.26,,14.1,1.251,97.0,,21.0,5.0,,,,,,,,,,,,0,0,0,0,0,0,0,0,0,0,0,0,0,0,0,0,,,,,0.0,,,,,,
264,561478,1745095273944,,,,,,,,,,,,,,,,,,,,,,,1.0,0.0,1.0,1.0,0.0,0.0,0.0,0.0,2.26,,,0,0,0,0,0,0,0,0,0,0,0,0,0,0,0,0,0.0,,,,,39.240185,-77.964806,1.85,35.0,3.0,0.8
265,561498,1745095273964,0.0,205.88,,0.01,0.01,1.04,1.0,0.0,0.0,1.04,1.15,91.0,1518.0,15.9,4.15,,14.19,1.251,97.0,,21.0,5.0,,,,,,,,,,,,0,0,0,0,0,0,0,0,0,0,0,0,0,0,0,0,,,,,0.0,,,,,,
266,561518,1745095273984,,,,,,,,,,,,,,,,,,,,,,,,,,,,,,,,,,0,0,0,0,0,0,0,0,0,0,0,0,0,0,0,0,,,,,,,,,,,
267,561538,1745095273994,0.0,205.76,,0.01,0.01,1.03,1.0,0.0,0.0,1.03,1.15,90.0,1269.0,15.9,4.11,,14.24,1.251,97.0,,17.0,5.0,,,,,,,,,,,,0,0,0,0,0,0,0,0,0,0,0,0,0,0,0,0,,,,,0.0,,,,,,
268,561558,1745095274014,,,,,,,,,,,,,,,,,,,,,,,,,,,,,,,,,,0,0,0,0,0,0,0,0,0,0,0,0,0,0,0,0,,,,,,,,,,,
269,561578,1745095274034,0.0,205.76,,0.01,0.0,1.02,1.0,0.0,0.0,1.02,1.15,89.0,1416.0,15.9,3.99,,14.24,1.251,97.0,,17.0,5.0,1.0,0.0,1.0,1.0,0.0,0.0,0.0,0.0,2.26,,,0,0,0,0,0,0,0,0,0,0,0,0,0,0,0,0,0.0,,,,0.0,39.240185,-77.964806,2.16,35.0,3.0,0.8
270,561598,1745095274054,,,,,,,,,,,,,,,,,,,,,,,,,,,,,,,,,,0,0,0,0,0,0,0,0,0,0,0,0,0,0,0,0,,,,,,,,,,,
271,561618,1745095274074,0.0,205.88,,0.02,-0.01,1.02,1.0,0.0,0.0,1.02,1.15,89.0,1416.0,15.9,3.99,,14.14,1.252,97.0,,15.4,5.0,,,,,,,,,,,,0,0,0,0,0,0,0,0,0,0,0,0,0,0,0,0,,,,,0.0,,,,,,
272,561638,1745095274104,,,,,,,,,,,,,,,,,,,,,,,,,,,,,,,,,,0,0,0,0,0,0,0,0,0,0,0,0,0,0,0,0,,,,,,,,,,,
273,561658,1745095274124,0.0,205.76,,0.03,-0.01,1.03,1.0,0.0,0.0,1.03,1.15,90.0,1219.0,15.9,4.06,,14.15,1.253,97.0,,15.4,5.0,,,,,,,,,,,,0,0,0,0,0,0,0,0,0,0,0,0,0,0,0,0,,,,,0.0,,,,,,
274,561678,1745095274144,,,,,,,,,,,,,,,,,,,,,,,1.0,0.0,1.0,1.0,0.0,0.0,0.0,0.0,2.26,,,0,0,0,0,0,0,0,0,0,0,0,0,0,0,0,0,0.0,,,,,39.240185,-77.964806,2.42,35.0,3.0,0.8
275,561698,1745095274164,0.0,205.76,,0.02,0.0,1.03,1.0,0.0,0.0,1.03,1.15,90.0,1316.0,15.9,3.97,,14.16,1.254,97.0,,15.4,5.0,,,,,,,,,,,,0,0,0,0,0,0,0,0,0,0,0,0,0,0,0,0,,,,,0.0,,,,,,
276,561718,1745095274184,,,,,,,,,,,,,,,,,,,,,,,,,,,,,,,,,,0,0,0,0,0,0,0,0,0,0,0,0,0,0,0,0,,,,,,,,,,,
277,561738,1745095274200,0.0,205.63,,-0.01,-0.01,1.03,1.0,0.0,0.0,1.03,1.15,90.0,1161.0,15.9,4.01,,14.19,1.254,97.0,,14.6,5.0,,,,,,,,,,,,0,0,0,0,0,0,0,0,0,0,0,0,0,0,0,0,,,,,0.0,,,,,,
278,561758,1745095274220,,,,,,,,,,,,,,,,,,,,,,,,,,,,,,,,,,0,0,0,0,0,0,0,0,0,0,0,0,0,0,0,0,,,,,,,,,,,
279,561778,1745095274240,0.0,205.63,,-0.04,-0.0,1.02,1.0,0.0,0.0,1.02,1.15,89.0,1456.0,16.1,3.93,,14.19,1.254,97.0,,14.6,5.0,2.0,0.0,1.0,1.0,0.0,0.0,0.0,0.0,2.26,,,0,0,0,0,0,0,0,0,0,0,0,0,0,0,0,0,0.0,,,,0.0,39.240185,-77.964806,2.54,35.0,3.0,0.8
280,561798,1745095274260,,,,,,,,,,,,,,,,,,,,,,,,,,,,,,,,,,0,0,0,0,0,0,0,0,0,0,0,0,0,0,0,0,,,,,,,,,,,
281,561818,1745095274280,0.0,205.63,,-0.07,0.0,1.03,1.0,0.0,0.0,1.03,1.15,90.0,1456.0,16.1,3.93,,14.15,1.253,97.0,,15.9,5.0,,,,,,,,,,,,0,0,0,0,0,0,0,0,0,0,0,0,0,0,0,0,,,,,0.0,,,,,,
282,561838,1745095274304,,,,,,,,,,,,,,,,,,,,,,,,,,,,,,,,,,0,0,0,0,0,0,0,0,0,0,0,0,0,0,0,0,,,,,,,,,,,
283,561858,1745095274324,0.0,205.63,,-0.08,0.02,1.01,1.0,0.0,0.0,1.01,1.15,88.0,1563.0,16.1,4.08,,14.15,1.249,97.0,,15.9,5.0,,,,,,,,,,,,0,0,0,0,0,0,0,0,0,0,0,0,0,0,0,0,,,,,0.0,,,,,,
284,561878,1745095274344,,,,,,,,,,,,,,,,,,,,,,,2.0,0.0,2.0,2.0,0.0,0.0,0.0,0.0,2.26,,,0,0,0,0,0,0,0,0,0,0,0,0,0,0,0,0,0.0,,,,,39.240185,-77.964806,2.6,35.0,3.0,0.8
285,561898,1745095274364,0.0,205.63,,-0.1,0.02,0.99,1.0,0.0,0.0,1.0,1.15,87.0,1575.0,16.0,4.11,,14.14,1.249,97.0,,15.9,5.0,,,,,,,,,,,,0,0,0,0,0,0,0,0,0,0,0,0,0,0,0,0,,,,,0.0,,,,,,
286,561918,1745095274384,,,,,,,,,,,,,,,,,,,,,,,,,,,,,,,,,,0,0,0,0,0,0,0,0,0,0,0,0,0,0,0,0,,,,,,,,,,,
287,561938,1745095274404,0.0,205.63,,-0.11,0.02,1.01,1.0,0.0,0.0,1.02,1.15,89.0,1821.0,16.0,4.27,,14.06,1.235,97.0,,19.1,5.0,,,,,,,,,,,,0,0,0,0,0,0,0,0,0,0,0,0,0,0,0,0,,,,,0.0,,,,,,
288,561958,1745095274424,,,,,,,,,,,,,,,,,,,,,,,,,,,,,,,,,,0,0,0,0,0,0,0,0,0,0,0,0,0,0,0,0,,,,,,,,,,,
289,561978,1745095274444,0.0,205.63,,-0.1,0.03,1.01,1.0,0.0,0.0,1.02,1.15,89.0,1928.0,15.8,4.27,,14.06,1.235,97.0,,19.1,5.0,2.0,0.0,2.0,1.0,0.0,0.0,0.0,0.0,2.27,,,0,0,0,0,0,0,0,0,0,0,0,0,0,0,0,0,0.0,,,,0.0,39.240185,-77.964813,2.43,35.0,3.0,0.8
290,561998,1745095274464,,,,,,,,,,,,,,,,,,,,,,,,,,,,,,,,,,0,0,0,0,0,0,0,0,0,0,0,0,0,0,0,0,,,,,,,,,,,
291,562018,1745095274484,0.0,205.63,,-0.1,0.03,1.01,1.0,0.0,0.0,1.02,1.15,89.0,1928.0,15.8,4.27,,14.04,1.222,97.0,,21.2,5.0,,,,,,,,,,,,0,0,0,0,0,0,0,0,0,0,0,0,0,0,0,0,,,,,0.0,,,,,,
292,562038,1745095274504,,,,,,,,,,,,,,,,,,,,,,,,,,,,,,,,,,0,0,0,0,0,0,0,0,0,0,0,0,0,0,0,0,,,,,,,,,,,
293,562058,1745095274524,0.0,205.51,,-0.1,0.04,1.03,1.0,0.0,0.0,1.04,1.15,91.0,2152.0,15.9,4.33,,13.98,1.218,97.0,,21.2,5.0,,,,,,,,,,,,0,0,0,0,0,0,0,0,0,0,0,0,0,0,0,0,,,,,0.0,,,,,,
294,562078,1745095274544,,,,,,,,,,,,,,,,,,,,,,,1.0,0.0,1.0,1.0,0.0,0.0,0.0,0.0,2.27,,,0,0,0,0,0,0,0,0,0,0,0,0,0,0,0,0,0.0,,,,,39.240185,-77.964813,2.3,35.0,3.0,0.8
295,562098,1745095274564,0.0,205.51,,-0.11,0.02,1.03,1.0,0.0,0.0,1.04,1.15,91.0,2334.0,15.8,4.3,,13.94,1.2,97.0,,21.2,5.0,,,,,,,,,,,,0,0,0,0,0,0,0,0,0,0,0,0,0,0,0,0,,,,,0.0,,,,,,
296,562118,1745095274584,,,,,,,,,,,,,,,,,,,,,,,,,,,,,,,,,,0,0,0,0,0,0,0,0,0,0,0,0,0,0,0,0,,,,,,,,,,,
297,562138,1745095274602,0.0,205.51,,-0.11,0.04,1.01,1.0,0.0,0.0,1.02,1.15,89.0,2510.0,15.8,4.26,,13.87,1.2,97.0,,25.2,5.0,,,,,,,,,,,,0,0,0,0,0,0,0,0,0,0,0,0,0,0,0,0,,,,,0.0,,,,,,
298,562158,1745095274622,,,,,,,,,,,,,,,,,,,,,,,,,,,,,,,,,,0,0,0,0,0,0,0,0,0,0,0,0,0,0,0,0,,,,,,,,,,,
299,562178,1745095274642,0.0,205.51,,-0.11,0.03,1.05,1.0,0.0,0.0,1.06,1.15,92.0,2649.0,15.9,4.21,,13.87,1.2,97.0,,25.2,5.0,1.0,0.0,1.0,1.0,0.0,0.0,0.0,0.0,2.26,,,0,0,0,0,0,0,0,0,0,0,0,0,0,0,0,0,0.0,,,,0.0,39.240185,-77.964813,2.11,35.0,3.0,0.8
300,562198,1745095274662,,,,,,,,,,,,,,,,,,,,,,,,,,,,,,,,,,0,0,0,0,0,0,0,0,0,0,0,0,0,0,0,0,,,,,,,,,,,
301,562218,1745095274682,0.0,205.51,,-0.11,0.06,1.01,1.0,0.0,0.0,1.02,1.15,89.0,2649.0,15.9,4.21,,13.79,1.203,97.0,,29.6,5.0,,,,,,,,,,,,0,0,0,0,0,0,0,0,0,0,0,0,0,0,0,0,,,,,0.0,,,,,,
302,562238,1745095274704,,,,,,,,,,,,,,,,,,,,,,,,,,,,,,,,,,0,0,0,0,0,0,0,0,0,0,0,0,0,0,0,0,,,,,,,,,,,
303,562258,1745095274724,0.0,205.51,,-0.1,0.08,0.96,1.0,0.0,0.0,0.97,1.15,85.0,2778.0,15.9,4.17,,13.73,1.21,97.0,,29.6,5.0,,,,,,,,,,,,0,0,0,0,0,0,0,0,0,0,0,0,0,0,0,0,,,,,0.0,,,,,,
304,562278,1745095274744,,,,,,,,,,,,,,,,,,,,,,,1.0,0.0,1.0,1.0,0.0,0.0,0.0,0.0,2.26,,,0,0,0,0,0,0,0,0,0,0,0,0,0,0,0,0,0.0,,,,,39.240185,-77.964813,1.95,35.0,3.0,0.8
305,562298,1745095274764,0.0,205.51,,-0.11,0.04,0.97,1.0,0.0,0.0,0.98,1.15,86.0,0.0,16.1,4.06,,13.67,1.218,97.0,,29.6,5.0,,,,,,,,,,,,0,0,0,0,0,0,0,0,0,0,0,0,0,0,0,0,,,,,0.0,,,,,,
306,562318,1745095274784,,,,,,,,,,,,,,,,,,,,,,,,,,,,,,,,,,0,0,0,0,0,0,0,0,0,0,0,0,0,0,0,0,,,,,,,,,,,
307,562338,1745095274804,0.0,205.51,,-0.11,0.03,1.0,1.0,0.0,0.0,1.01,1.15,88.0,2760.0,16.1,4.11,,13.72,1.251,97.0,,32.8,5.0,,,,,,,,,,,,0,0,0,0,0,0,0,0,0,0,0,0,0,0,0,0,,,,,0.0,,,,,,
308,562358,1745095274824,,,,,,,,,,,,,,,,,,,,,,,,,,,,,,,,,,0,0,0,0,0,0,0,0,0,0,0,0,0,0,0,0,,,,,,,,,,,
309,562378,1745095274844,0.0,205.38,13.38,-0.1,0.07,0.95,1.0,0.0,0.0,0.96,1.15,84.0,2729.0,16.0,4.14,15.0,13.72,1.251,97.0,135.0,32.8,5.0,1.0,0.0,1.0,1.0,0.0,0.0,0.0,0.0,2.26,0.0,0.0,0,0,0,0,0,0,0,0,0,0,0,0,0,0,0,0,0.0,0.0,0.0,0.0,0.0,39.240185,-77.964813,2.04,35.0,3.0,0.8
310,562398,1745095274864,,,,,,,,,,,,,,,,,,,,,,,,,,,,,,,,,,0,0,0,0,0,0,0,0,0,0,0,0,0,0,0,0,,,,,,,,,,,
311,562418,1745095274884,0.0,205.51,,-0.1,0.09,0.91,1.0,0.0,0.0,0.92,1.15,80.0,2729.0,16.0,4.14,,13.76,1.25,97.0,,32.5,5.0,,,,,,,,,,,,0,0,0,0,0,0,0,0,0,0,0,0,0,0,0,0,,,,,0.0,,,,,,
312,562438,1745095274903,,,,,,,,,,,,,,,,,,,,,,,,,,,,,,,,,,0,0,0,0,0,0,0,0,0,0,0,0,0,0,0,0,,,,,,,,,,,
313,562458,1745095274923,0.0,205.38,,-0.11,0.04,0.92,1.0,0.0,0.0,0.93,1.15,81.0,2895.0,16.0,4.14,,13.68,1.25,97.0,,32.5,5.0,,,,,,,,,,,,0,0,0,0,0,0,0,0,0,0,0,0,0,0,0,0,,,,,0.0,,,,,,
314,562478,1745095274943,,,,,,,,,,,,,,,,,,,,,,,1.0,0.0,1.0,1.0,0.0,0.0,0.0,0.0,2.27,,,0,0,0,0,0,0,0,0,0,0,0,0,0,0,0,0,0.0,,,,,39.240189,-77.964813,1.78,35.0,3.0,0.8
315,562498,1745095274963,0.0,205.38,,-0.12,-0.0,0.98,1.0,0.0,0.0,0.99,1.15,86.0,2900.0,15.9,4.13,,13.71,1.25,97.0,,32.5,5.0,,,,,,,,,,,,0,0,0,0,0,0,0,0,0,0,0,0,0,0,0,0,,,,,0.0,,,,,,
316,562518,1745095274983,,,,,,,,,,,,,,,,,,,,,,,,,,,,,,,,,,0,0,0,0,0,0,0,0,0,0,0,0,0,0,0,0,,,,,,,,,,,
317,562538,1745095274995,0.0,205.38,,-0.11,0.01,1.01,1.0,0.0,0.0,1.02,1.15,89.0,2806.0,15.9,4.12,,13.71,1.251,97.0,,32.7,5.0,,,,,,,,,,,,0,0,0,0,0,0,0,0,0,0,0,0,0,0,0,0,,,,,0.0,,,,,,
318,562558,1745095275015,,,,,,,,,,,,,,,,,,,,,,,,,,,,,,,,,,0,0,0,0,0,0,0,0,0,0,0,0,0,0,0,0,,,,,,,,,,,
319,562578,1745095275035,0.0,205.38,,-0.1,0.05,0.96,1.0,0.0,0.0,0.97,1.15,85.0,2809.0,15.9,4.12,,13.71,1.251,97.0,,32.7,5.0,1.0,0.0,1.0,1.0,0.0,0.0,0.0,0.0,2.27,,,0,0,0,0,0,0,0,0,0,0,0,0,0,0,0,0,0.0,,,,0.0,39.240189,-77.964813,1.52,34.0,3.0,0.8
320,562598,1745095275055,,,,,,,,,,,,,,,,,,,,,,,,,,,,,,,,,,0,0,0,0,0,0,0,0,0,0,0,0,0,0,0,0,,,,,,,,,,,
321,562618,1745095275075,0.0,205.51,,-0.08,0.07,0.9,1.0,0.0,0.0,0.91,1.15,79.0,2809.0,15.9,4.12,,13.71,1.25,97.0,,33.5,5.0,,,,,,,,,,,,0,0,0,0,0,0,0,0,0,0,0,0,0,0,0,0,,,,,0.0,,,,,,
322,562638,1745095275101,,,,,,,,,,,,,,,,,,,,,,,,,,,,,,,,,,0,0,0,0,0,0,0,0,0,0,0,0,0,0,0,0,,,,,,,,,,,
323,562658,1745095275121,0.0,205.38,,-0.07,0.07,0.84,1.0,0.0,0.0,0.84,1.15,73.0,2875.0,15.9,4.11,,13.75,1.252,97.0,,33.5,5.0,,,,,,,,,,,,0,0,0,0,0,0,0,0,0,0,0,0,0,0,0,0,,,,,0.0,,,,,,
324,562678,1745095275141,,,,,,,,,,,,,,,,,,,,,,,1.0,0.0,1.0,1.0,0.0,0.0,0.0,0.0,2.26,,,0,0,0,0,0,0,0,0,0,0,0,0,0,0,0,0,0.0,,,,,39.240189,-77.964813,1.53,34.0,3.0,0.8
325,562698,1745095275161,0.0,205.38,,-0.06,0.07,0.75,1.0,0.0,0.0,0.76,1.15,66.0,3028.0,16.0,4.1,,13.64,1.253,97.0,,33.5,5.0,,,,,,,,,,,,0,0,0,0,0,0,0,0,0,0,0,0,0,0,0,0,,,,,0.0,,,,,,
326,562718,1745095275181,,,,,,,,,,,,,,,,,,,,,,,,,,,,,,,,,,0,0,0,0,0,0,0,0,0,0,0,0,0,0,0,0,,,,,,,,,,,
327,562738,1745095275197,0.0,205.51,,-0.04,0.13,0.71,1.0,0.0,0.0,0.73,1.15,63.0,3113.0,19.8,4.09,,13.68,1.253,97.0,,34.9,5.0,,,,,,,,,,,,0,0,0,0,0,0,0,0,0,0,0,0,0,0,0,0,,,,,0.0,,,,,,
328,562758,1745095275217,,,,,,,,,,,,,,,,,,,,,,,,,,,,,,,,,,0,0,0,0,0,0,0,0,0,0,0,0,0,0,0,0,,,,,,,,,,,
329,562778,1745095275237,0.0,205.38,,-0.03,0.12,0.8,0.0,0.0,0.0,0.81,1.15,71.0,3157.0,22.7,4.29,,13.68,1.253,97.0,,34.9,5.0,1.0,0.0,1.0,1.0,0.0,0.0,0.0,0.0,2.26,,,0,0,0,0,0,0,0,0,0,0,0,0,0,0,0,0,0.0,,,,0.0,39.240189,-77.964813,1.38,34.0,3.0,0.8
330,562798,1745095275257,,,,,,,,,,,,,,,,,,,,,,,,,,,,,,,,,,0,0,0,0,0,0,0,0,0,0,0,0,0,0,0,0,,,,,,,,,,,
331,562818,1745095275277,0.0,205.38,,-0.06,0.08,0.78,1.0,0.0,0.0,0.79,1.15,69.0,3157.0,22.7,4.29,,13.8,1.253,97.0,,38.1,5.0,,,,,,,,,,,,0,0,0,0,0,0,0,0,0,0,0,0,0,0,0,0,,,,,0.0,,,,,,
332,562838,1745095275303,,,,,,,,,,,,,,,,,,,,,,,,,,,,,,,,,,0,0,0,0,0,0,0,0,0,0,0,0,0,0,0,0,,,,,,,,,,,
333,562858,1745095275323,0.0,205.51,,-0.07,0.07,0.81,1.0,0.0,0.0,0.81,1.15,71.0,3624.0,23.2,4.25,,13.77,1.251,97.0,,38.1,5.0,,,,,,,,,,,,0,0,0,0,0,0,0,0,0,0,0,0,0,0,0,0,,,,,0.0,,,,,,
334,562878,1745095275343,,,,,,,,,,,,,,,,,,,,,,,1.0,0.0,1.0,1.0,0.0,0.0,0.0,0.0,2.26,,,0,0,0,0,0,0,0,0,0,0,0,0,0,0,0,0,0.0,,,,,39.240189,-77.964813,1.42,34.0,3.0,0.8
335,562898,1745095275363,0.0,205.51,,-0.09,0.13,0.87,0.0,0.0,0.0,0.88,1.15,77.0,3819.0,23.3,4.23,,13.59,1.25,97.0,,38.1,5.0,,,,,,,,,,,,0,0,0,0,0,0,0,0,0,0,0,0,0,0,0,0,,,,,0.0,,,,,,
336,562918,1745095275383,,,,,,,,,,,,,,,,,,,,,,,,,,,,,,,,,,0,0,0,0,0,0,0,0,0,0,0,0,0,0,0,0,,,,,,,,,,,
337,562938,1745095275403,0.0,205.51,,-0.1,0.0,0.79,0.0,0.0,0.0,0.8,1.15,70.0,4040.0,23.2,4.22,,13.56,1.25,97.0,,47.5,5.0,,,,,,,,,,,,0,0,0,0,0,0,0,0,0,0,0,0,0,0,0,0,,,,,0.0,,,,,,
338,562958,1745095275423,,,,,,,,,,,,,,,,,,,,,,,,,,,,,,,,,,0,0,0,0,0,0,0,0,0,0,0,0,0,0,0,0,,,,,,,,,,,
339,562978,1745095275443,0.0,205.51,,-0.1,0.08,0.89,1.0,0.0,0.0,0.9,1.15,79.0,4180.0,23.2,4.21,,13.56,1.25,97.0,,47.5,5.0,1.0,0.0,1.0,1.0,0.0,0.0,0.0,0.0,2.26,,,0,0,0,0,0,0,0,0,0,0,0,0,0,0,0,0,0.0,,,,0.0,39.240189,-77.964813,1.24,34.0,3.0,0.8
340,562998,1745095275463,,,,,,,,,,,,,,,,,,,,,,,,,,,,,,,,,,0,0,0,0,0,0,0,0,0,0,0,0,0,0,0,0,,,,,,,,,,,
341,563018,1745095275483,0.0,205.51,,-0.09,-0.04,0.81,1.0,0.0,0.0,0.82,1.15,71.0,4180.0,23.2,4.21,,13.49,1.237,97.0,,52.0,5.0,,,,,,,,,,,,0,0,0,0,0,0,0,0,0,0,0,0,0,0,0,0,,,,,0.0,,,,,,
342,563038,1745095275504,,,,,,,,,,,,,,,,,,,,,,,,,,,,,,,,,,0,0,0,0,0,0,0,0,0,0,0,0,0,0,0,0,,,,,,,,,,,
343,563058,1745095275524,0.0,205.51,,-0.15,-0.01,0.88,0.0,0.0,0.0,0.89,1.15,78.0,4162.0,23.0,4.21,,13.48,1.217,97.0,,52.0,5.0,,,,,,,,,,,,0,0,0,0,0,0,0,0,0,0,0,0,0,0,0,0,,,,,0.0,,,,,,
344,563078,1745095275544,,,,,,,,,,,,,,,,,,,,,,,1.0,0.0,1.0,1.0,0.0,0.0,0.0,0.0,2.26,,,0,0,0,0,0,0,0,0,0,0,0,0,0,0,0,0,0.0,,,,,39.240189,-77.964813,1.01,34.0,3.0,0.8
345,563098,1745095275564,0.0,205.51,,-0.17,-0.06,0.85,0.0,0.0,0.0,0.86,1.15,75.0,4543.0,23.1,4.19,,13.41,1.248,97.0,,52.0,5.0,,,,,,,,,,,,0,0,0,0,0,0,0,0,0,0,0,0,0,0,0,0,,,,,0.0,,,,,,
346,563118,1745095275584,,,,,,,,,,,,,,,,,,,,,,,,,,,,,,,,,,0,0,0,0,0,0,0,0,0,0,0,0,0,0,0,0,,,,,,,,,,,
347,563138,1745095275603,0.0,205.51,,-0.13,-0.04,0.89,0.0,0.0,0.0,0.9,1.15,78.0,4899.0,23.1,4.15,,13.35,1.233,97.0,,59.2,5.0,,,,,,,,,,,,0,0,0,0,0,0,0,0,0,0,0,0,0,0,0,0,,,,,0.0,,,,,,
348,563158,1745095275623,,,,,,,,,,,,,,,,,,,,,,,,,,,,,,,,,,0,0,0,0,0,0,0,0,0,0,0,0,0,0,0,0,,,,,,,,,,,
349,563178,1745095275643,0.0,205.63,,-0.14,-0.04,0.87,0.0,0.0,0.0,0.89,1.15,77.0,5383.0,23.0,4.13,,13.35,1.233,97.0,,59.2,5.0,1.0,0.0,1.0,1.0,0.0,0.0,0.0,0.0,2.27,,,0,0,0,0,0,0,0,0,0,0,0,0,0,0,0,0,0.0,,,,0.0,39.240189,-77.964813,0.93,34.0,3.0,0.8
350,563198,1745095275663,,,,,,,,,,,,,,,,,,,,,,,,,,,,,,,,,,0,0,0,0,0,0,0,0,0,0,0,0,0,0,0,0,,,,,,,,,,,
351,563218,1745095275683,0.0,205.63,,-0.12,-0.03,0.92,0.0,0.0,0.0,0.93,1.15,81.0,5383.0,23.0,4.13,,13.24,1.051,97.0,,61.7,5.0,,,,,,,,,,,,0,0,0,0,0,0,0,0,0,0,0,0,0,0,0,0,,,,,0.0,,,,,,
352,563238,1745095275703,,,,,,,,,,,,,,,,,,,,,,,,,,,,,,,,,,0,0,0,0,0,0,0,0,0,0,0,0,0,0,0,0,,,,,,,,,,,
353,563258,1745095275723,0.0,205.63,,-0.11,-0.16,0.82,2.0,0.0,-1.0,0.85,1.15,74.0,5744.0,23.2,4.13,,12.73,0.994,97.0,,61.7,5.0,,,,,,,,,,,,0,0,0,0,0,0,0,0,0,0,0,0,0,0,0,0,,,,,0.0,,,,,,
354,563278,1745095275743,,,,,,,,,,,,,,,,,,,,,,,1.0,0.0,1.0,1.0,0.0,0.0,0.0,0.0,2.26,,,0,0,0,0,0,0,0,0,0,0,0,0,0,0,0,0,0.0,,,,,39.240189,-77.964813,0.81,34.0,3.0,0.8
355,563298,1745095275763,0.0,205.63,,-0.12,-0.15,0.86,1.0,0.0,-1.0,0.88,1.15,77.0,6191.0,23.2,4.22,,12.39,1.016,97.0,,61.7,5.0,,,,,,,,,,,,0,0,0,0,0,0,0,0,0,0,0,0,0,0,0,0,,,,,0.0,,,,,,
356,563318,1745095275783,,,,,,,,,,,,,,,,,,,,,,,,,,,,,,,,,,0,0,0,0,0,0,0,0,0,0,0,0,0,0,0,0,,,,,,,,,,,
357,563338,1745095275803,0.0,205.63,,-0.11,-0.16,0.86,2.0,0.0,-1.0,0.88,1.15,77.0,6765.0,23.3,4.86,,12.03,1.042,97.0,,64.4,5.0,,,,,,,,,,,,0,0,0,0,0,0,0,0,0,0,0,0,0,0,0,0,,,,,0.0,,,,,,
358,563358,1745095275823,,,,,,,,,,,,,,,,,,,,,,,,,,,,,,,,,,0,0,0,0,0,0,0,0,0,0,0,0,0,0,0,0,,,,,,,,,,,
359,563378,1745095275843,0.0,205.51,13.41,-0.08,-0.01,0.86,-1.0,0.0,0.0,0.86,1.15,75.0,7677.0,23.3,5.07,15.0,12.03,1.042,97.0,135.0,64.4,5.0,1.0,0.0,1.0,1.0,0.0,0.0,0.0,0.0,2.26,0.0,0.0,0,0,0,0,0,0,0,0,0,0,0,0,0,0,0,0,0.0,0.0,0.0,0.0,0.0,39.240189,-77.964821,0.81,34.0,3.0,0.8
360,563398,1745095275863,,,,,,,,,,,,,,,,,,,,,,,,,,,,,,,,,,0,0,0,0,0,0,0,0,0,0,0,0,0,0,0,0,,,,,,,,,,,
361,563418,1745095275883,0.0,205.63,,-0.08,-0.03,0.91,-1.0,0.0,0.0,0.91,1.15,79.0,7677.0,23.3,5.07,,11.76,1.016,97.0,,69.2,5.0,,,,,,,,,,,,0,0,0,0,0,0,0,0,0,0,0,0,0,0,0,0,,,,,0.0,,,,,,
362,563438,1745095275904,,,,,,,,,,,,,,,,,,,,,,,,,,,,,,,,,,0,0,0,0,0,0,0,0,0,0,0,0,0,0,0,0,,,,,,,,,,,
363,563458,1745095275924,0.0,205.51,,-0.04,-0.09,0.94,-1.0,0.0,0.0,0.94,1.15,82.0,8748.0,24.4,4.61,,11.14,0.907,97.0,,69.2,5.0,,,,,,,,,,,,0,0,0,0,0,0,0,0,0,0,0,0,0,0,0,0,,,,,0.0,,,,,,
364,563478,1745095275944,,,,,,,,,,,,,,,,,,,,,,,0.0,0.0,1.0,1.0,0.0,0.0,0.0,0.0,2.26,,,0,0,0,0,0,0,0,0,0,0,0,0,0,0,0,0,0.0,,,,,39.240189,-77.964821,0.57,34.0,3.0,0.8
365,563498,1745095275964,0.0,205.51,,-0.03,0.06,0.88,-1.0,0.0,0.0,0.88,1.15,77.0,9838.0,24.2,3.52,,10.25,0.781,97.0,,69.2,5.0,,,,,,,,,,,,0,0,0,0,0,0,0,0,0,0,0,0,0,0,0,0,,,,,0.0,,,,,,
366,563518,1745095275984,,,,,,,,,,,,,,,,,,,,,,,,,,,,,,,,,,0,0,0,0,0,0,0,0,0,0,0,0,0,0,0,0,,,,,,,,,,,
367,563538,1745095275994,0.0,205.38,,-0.03,0.14,0.86,-1.0,0.0,0.0,0.87,1.15,76.0,10701.0,24.2,3.48,,9.97,0.779,97.0,,70.5,5.0,,,,,,,,,,,,0,0,0,0,0,0,0,0,0,0,0,0,0,0,0,0,,,,,0.0,,,,,,
368,563558,1745095276014,,,,,,,,,,,,,,,,,,,,,,,,,,,,,,,,,,0,0,0,0,0,0,0,0,0,0,0,0,0,0,0,0,,,,,,,,,,,
369,563578,1745095276034,0.0,205.38,,0.03,0.31,0.83,-2.0,0.0,1.0,0.89,1.15,78.0,11300.0,24.2,3.42,,9.97,0.779,97.0,,70.5,5.0,0.0,0.0,1.0,0.0,0.0,0.0,0.0,0.0,2.26,,,0,0,0,0,0,0,0,0,0,0,0,0,0,0,0,0,0.0,,,,0.0,39.240189,-77.964821,0.64,33.0,3.0,0.8
370,563598,1745095276054,,,,,,,,,,,,,,,,,,,,,,,,,,,,,,,,,,0,0,0,0,0,0,0,0,0,0,0,0,0,0,0,0,,,,,,,,,,,
371,563618,1745095276074,0.0,205.38,,-0.02,0.11,0.84,-1.0,0.0,0.0,0.85,1.15,74.0,11300.0,24.2,3.42,,9.66,0.814,97.0,,69.2,5.0,,,,,,,,,,,,0,0,0,0,0,0,0,0,0,0,0,0,0,0,0,0,,,,,0.0,,,,,,
372,563638,1745095276098,,,,,,,,,,,,,,,,,,,,,,,,,,,,,,,,,,0,0,0,0,0,0,0,0,0,0,0,0,0,0,0,0,,,,,,,,,,,
373,563658,1745095276118,0.0,205.25,,-0.07,-0.19,0.86,1.0,0.0,0.0,0.88,1.15,77.0,11807.0,24.3,3.3,,9.35,0.802,97.0,,69.2,5.0,,,,,,,,,,,,0,0,0,0,0,0,0,0,0,0,0,0,0,0,0,0,,,,,0.0,,,,,,
374,563678,1745095276138,,,,,,,,,,,,,,,,,,,,,,,0.0,0.0,0.0,0.0,0.0,0.0,0.0,0.0,2.27,,,0,0,0,0,0,0,0,0,0,0,0,0,0,0,0,0,0.0,,,,,39.240189,-77.964821,1.15,33.0,3.0,0.8
375,563698,1745095276158,0.0,205.25,,-0.04,-0.21,0.83,0.0,0.0,-1.0,0.86,1.15,75.0,12241.0,24.2,3.01,,8.98,0.796,97.0,,69.2,5.0,,,,,,,,,,,,0,0,0,0,0,0,0,0,0,0,0,0,0,0,0,0,,,,,0.0,,,,,,
376,563718,1745095276178,,,,,,,,,,,,,,,,,,,,,,,,,,,,,,,,,,0,0,0,0,0,0,0,0,0,0,0,0,0,0,0,0,,,,,,,,,,,
377,563738,1745095276200,0.0,205.13,,-0.01,-0.11,0.77,1.0,0.0,-1.0,0.78,1.15,68.0,12451.0,24.2,2.76,,8.86,0.818,97.0,,70.1,5.0,,,,,,,,,,,,0,0,0,0,0,0,0,0,0,0,0,0,0,0,0,0,,,,,0.0,,,,,,
378,563758,1745095276220,,,,,,,,,,,,,,,,,,,,,,,,,,,,,,,,,,0,0,0,0,0,0,0,0,0,0,0,0,0,0,0,0,,,,,,,,,,,
379,563778,1745095276240,0.0,205.13,,0.01,-0.07,0.74,1.0,0.0,-1.0,0.74,1.15,65.0,12590.0,24.4,2.55,,8.86,0.818,97.0,,70.1,5.0,0.0,0.0,0.0,1.0,0.0,0.0,0.0,0.0,2.26,,,0,0,0,0,0,0,0,0,0,0,0,0,0,0,0,0,0.0,,,,0.0,39.240189,-77.964821,1.48,33.0,3.0,0.8
380,563798,1745095276260,,,,,,,,,,,,,,,,,,,,,,,,,,,,,,,,,,0,0,0,0,0,0,0,0,0,0,0,0,0,0,0,0,,,,,,,,,,,
381,563818,1745095276280,0.0,205.13,,0.06,-0.11,0.71,1.0,0.0,-1.0,0.72,1.15,63.0,12590.0,24.4,2.55,,8.57,0.87,97.0,,68.8,5.0,,,,,,,,,,,,0,0,0,0,0,0,0,0,0,0,0,0,0,0,0,0,,,,,0.0,,,,,,
382,563838,1745095276304,,,,,,,,,,,,,,,,,,,,,,,,,,,,,,,,,,0,0,0,0,0,0,0,0,0,0,0,0,0,0,0,0,,,,,,,,,,,
383,563858,1745095276324,0.0,205.13,,0.04,-0.01,0.89,1.0,0.0,0.0,0.89,1.15,78.0,12587.0,24.4,2.58,,8.55,0.929,97.0,,68.8,5.0,,,,,,,,,,,,0,0,0,0,0,0,0,0,0,0,0,0,0,0,0,0,,,,,0.0,,,,,,
384,563878,1745095276344,,,,,,,,,,,,,,,,,,,,,,,1.0,0.0,1.0,1.0,0.0,0.0,0.0,0.0,2.26,,,0,0,0,0,0,0,0,0,0,0,0,0,0,0,0,0,0.0,,,,,39.240189,-77.964821,1.8,33.0,3.0,0.8
