,Interval,Utc,FrontBP,SteerAng,Battery,AccelX,AccelY,AccelZ,Yaw,Pitch,Roll,Gsum,GsumMax,GsumPct,RPM,TPS,InjectorPW,Baro,MAP,Lambda,IAT,EngineTemp,EOP,EOT,WSFR,WSFL,WSRR,WSRL,TCSet,TCSlip,TCComp,TCCut,Analog8,OilTemp,AA_On,ThermLF1,ThermLF2,ThermRR1,ThermRR2,ThermLF3,ThermLF4,ThermLF5,ThermLF6,ThermLF7,ThermLF8,ThermRR3,ThermRR4,ThermRR5,ThermRR6,ThermRR7,ThermRR8,Gear,AA_On1,AA_LowDrag,Fuel_Mix,AA_Packages,Latitude,Longitude,Speed,GPSSats,GPSQual,GPSDOP
0,1425053,1745091588734,0.0,200.35,,-0.04,-0.02,1.0,0.0,0.0,0.0,1.0,1.0,100.0,4970.0,19.3,4.09,,12.77,1.248,102.4,,54.7,5.0,,,,,,,,,,,,0,0,0,0,0,0,0,0,0,0,0,0,0,0,0,0,,,,,0.0,,,,,,
1,1425073,1745091588754,,,,,,,,,,,,,,,,,,,,,,,,,,,,,,,,,,0,0,0,0,0,0,0,0,0,0,0,0,0,0,0,0,,,,,,,,,,,
2,1425093,1745091588774,0.0,200.23,,-0.03,-0.03,0.97,0.0,0.0,0.0,0.97,1.0,97.0,5064.0,19.4,4.09,,12.84,1.249,102.4,,54.7,5.0,,,,,,,,,,,,0,0,0,0,0,0,0,0,0,0,0,0,0,0,0,0,,,,,0.0,,,,,,
3,1425113,1745091588794,,,,,,,,,,,,,,,,,,,,,,,,,,,,,,,,,,0,0,0,0,0,0,0,0,0,0,0,0,0,0,0,0,,,,,,,,,,,
4,1425133,1745091588814,0.0,200.23,,-0.04,-0.04,0.99,0.0,0.0,0.0,0.99,1.0,99.0,5204.0,19.3,4.09,,12.84,1.249,102.4,,54.7,5.0,0.0,0.0,0.0,0.0,0.0,0.0,0.0,0.0,2.27,,,0,0,0,0,0,0,0,0,0,0,0,0,0,0,0,0,0.0,,,,0.0,39.239891,-77.965652,0.0,33.0,3.0,0.8
5,1425153,1745091588834,,,,,,,,,,,,,,,,,,,,,,,,,,,,,,,,,,0,0,0,0,0,0,0,0,0,0,0,0,0,0,0,0,,,,,,,,,,,
6,1425173,1745091588854,0.0,200.23,,-0.05,-0.05,0.98,0.0,0.0,0.0,0.99,1.0,99.0,5204.0,19.3,4.09,,12.72,1.235,102.4,,57.7,5.0,,,,,,,,,,,,0,0,0,0,0,0,0,0,0,0,0,0,0,0,0,0,,,,,0.0,,,,,,
7,1425193,1745091588874,,,,,,,,,,,,,,,,,,,,,,,,,,,,,,,,,,0,0,0,0,0,0,0,0,0,0,0,0,0,0,0,0,,,,,,,,,,,
8,1425213,1745091588894,0.0,200.23,,-0.03,-0.12,0.98,0.0,0.0,0.0,0.99,1.0,99.0,5273.0,19.4,4.08,,12.68,1.163,102.4,,57.7,5.0,,,,,,,,,,,,0,0,0,0,0,0,0,0,0,0,0,0,0,0,0,0,,,,,0.0,,,,,,
9,1425233,1745091588914,,,,,,,,,,,,,,,,,,,,,,,0.0,0.0,0.0,0.0,0.0,0.0,0.0,0.0,2.26,,,0,0,0,0,0,0,0,0,0,0,0,0,0,0,0,0,0.0,,,,,39.239891,-77.965652,0.08,33.0,3.0,0.8
10,1425253,1745091588934,0.0,200.23,,-0.01,-0.11,1.0,0.0,0.0,0.0,1.01,1.01,100.0,5418.0,19.5,4.07,,12.56,1.167,102.4,,57.7,5.0,,,,,,,,,,,,0,0,0,0,0,0,0,0,0,0,0,0,0,0,0,0,,,,,0.0,,,,,,
11,1425273,1745091588954,,,,,,,,,,,,,,,,,,,,,,,,,,,,,,,,,,0,0,0,0,0,0,0,0,0,0,0,0,0,0,0,0,,,,,,,,,,,
12,1425293,1745091588974,0.0,200.23,,-0.03,-0.08,1.0,0.0,0.0,0.0,1.0,1.01,100.0,5469.0,19.6,4.06,,12.51,1.157,102.4,,57.5,5.0,,,,,,,,,,,,0,0,0,0,0,0,0,0,0,0,0,0,0,0,0,0,,,,,0.0,,,,,,
13,1425313,1745091588994,,,,,,,,,,,,,,,,,,,,,,,,,,,,,,,,,,0,0,0,0,0,0,0,0,0,0,0,0,0,0,0,0,,,,,,,,,,,
14,1425333,1745091589005,0.0,200.23,,-0.04,-0.09,0.96,0.0,0.0,0.0,0.96,1.01,96.0,5522.0,19.5,4.06,,12.51,1.157,102.4,,57.5,5.0,0.0,0.0,0.0,0.0,0.0,0.0,0.0,0.0,2.26,,,0,0,0,0,0,0,0,0,0,0,0,0,0,0,0,0,0.0,,,,0.0,39.239891,-77.965652,0.07,33.0,3.0,0.8
15,1425353,1745091589025,,,,,,,,,,,,,,,,,,,,,,,,,,,,,,,,,,0,0,0,0,0,0,0,0,0,0,0,0,0,0,0,0,,,,,,,,,,,
16,1425373,1745091589045,0.0,200.23,,-0.02,-0.06,1.02,0.0,0.0,0.0,1.02,1.02,100.0,5522.0,19.5,4.06,,12.41,1.2,102.4,,57.7,5.0,,,,,,,,,,,,0,0,0,0,0,0,0,0,0,0,0,0,0,0,0,0,,,,,0.0,,,,,,
17,1425393,1745091589065,,,,,,,,,,,,,,,,,,,,,,,,,,,,,,,,,,0,0,0,0,0,0,0,0,0,0,0,0,0,0,0,0,,,,,,,,,,,
18,1425413,1745091589085,0.0,200.23,,-0.06,-0.07,0.98,0.0,0.0,0.0,0.99,1.02,96.0,5552.0,19.5,4.06,,12.37,1.23,102.4,,57.7,5.0,,,,,,,,,,,,0,0,0,0,0,0,0,0,0,0,0,0,0,0,0,0,,,,,0.0,,,,,,
19,1425433,1745091589109,,,,,,,,,,,,,,,,,,,,,,,0.0,0.0,0.0,0.0,0.0,0.0,0.0,0.0,2.26,,,0,0,0,0,0,0,0,0,0,0,0,0,0,0,0,0,0.0,,,,,39.239891,-77.965652,0.11,33.0,3.0,0.8
20,1425453,1745091589129,0.0,200.23,,-0.03,-0.08,1.0,0.0,0.0,0.0,1.0,1.02,98.0,5568.0,19.5,4.05,,12.44,1.247,102.4,,57.7,5.0,,,,,,,,,,,,0,0,0,0,0,0,0,0,0,0,0,0,0,0,0,0,,,,,0.0,,,,,,
21,1425473,1745091589149,,,,,,,,,,,,,,,,,,,,,,,,,,,,,,,,,,0,0,0,0,0,0,0,0,0,0,0,0,0,0,0,0,,,,,,,,,,,
22,1425493,1745091589169,0.0,200.23,,-0.05,-0.03,0.94,0.0,0.0,0.0,0.95,1.02,92.0,5673.0,19.5,4.04,,12.23,1.248,102.4,,58.1,5.0,,,,,,,,,,,,0,0,0,0,0,0,0,0,0,0,0,0,0,0,0,0,,,,,0.0,,,,,,
23,1425513,1745091589191,,,,,,,,,,,,,,,,,,,,,,,,,,,,,,,,,,0,0,0,0,0,0,0,0,0,0,0,0,0,0,0,0,,,,,,,,,,,
24,1425533,1745091589211,0.0,200.23,,-0.01,-0.02,1.04,0.0,0.0,0.0,1.04,1.04,100.0,5712.0,19.5,4.03,,12.23,1.248,100.6,,58.1,5.0,0.0,0.0,0.0,0.0,0.0,0.0,0.0,0.0,2.27,,,0,0,0,0,0,0,0,0,0,0,0,0,0,0,0,0,0.0,,,,0.0,39.239891,-77.965652,0.04,33.0,3.0,0.8
25,1425553,1745091589231,,,,,,,,,,,,,,,,,,,,,,,,,,,,,,,,,,0,0,0,0,0,0,0,0,0,0,0,0,0,0,0,0,,,,,,,,,,,
26,1425573,1745091589251,0.0,200.23,,0.0,-0.13,0.94,1.0,-1.0,-1.0,0.95,1.04,91.0,5712.0,19.5,4.03,,12.29,1.248,100.6,,58.3,5.0,,,,,,,,,,,,0,0,0,0,0,0,0,0,0,0,0,0,0,0,0,0,,,,,0.0,,,,,,
27,1425593,1745091589271,,,,,,,,,,,,,,,,,,,,,,,,,,,,,,,,,,0,0,0,0,0,0,0,0,0,0,0,0,0,0,0,0,,,,,,,,,,,
28,1425613,1745091589293,0.0,200.23,,-0.05,-0.13,0.8,0.0,-1.0,-1.0,0.81,1.04,78.0,5844.0,10.6,3.99,,11.58,1.25,100.6,,58.3,5.0,,,,,,,,,,,,0,0,0,0,0,0,0,0,0,0,0,0,0,0,0,0,,,,,0.0,,,,,,
29,1425633,1745091589313,,,,,,,,,,,,,,,,,,,,,,,0.0,0.0,0.0,0.0,0.0,0.0,0.0,0.0,2.27,,,0,0,0,0,0,0,0,0,0,0,0,0,0,0,0,0,0.0,,,,,39.239891,-77.965652,0.0,33.0,3.0,0.8
30,1425653,1745091589333,0.0,200.23,,-0.09,-0.09,0.71,0.0,-1.0,0.0,0.72,1.04,69.0,5968.0,9.3,3.92,,10.92,1.25,100.6,,58.3,5.0,,,,,,,,,,,,0,0,0,0,0,0,0,0,0,0,0,0,0,0,0,0,,,,,0.0,,,,,,
31,1425673,1745091589353,,,,,,,,,,,,,,,,,,,,,,,,,,,,,,,,,,0,0,0,0,0,0,0,0,0,0,0,0,0,0,0,0,,,,,,,,,,,
32,1425693,1745091589373,0.0,200.23,,-0.05,-0.14,0.75,-1.0,-1.0,-1.0,0.76,1.04,73.0,6349.0,9.2,3.16,,10.44,1.227,100.6,,59.5,5.0,,,,,,,,,,,,0,0,0,0,0,0,0,0,0,0,0,0,0,0,0,0,,,,,0.0,,,,,,
33,1425713,1745091589393,,,,,,,,,,,,,,,,,,,,,,,,,,,,,,,,,,0,0,0,0,0,0,0,0,0,0,0,0,0,0,0,0,,,,,,,,,,,
34,1425733,1745091589413,0.0,200.23,12.56,-0.05,-0.09,0.79,0.0,-1.0,-1.0,0.8,1.04,77.0,6723.0,9.2,3.26,15.0,10.44,1.227,100.6,160.0,59.5,5.0,0.0,0.0,0.0,0.0,0.0,0.0,0.0,0.0,2.26,0.0,0.0,0,0,0,0,0,0,0,0,0,0,0,0,0,0,0,0,0.0,0.0,0.0,0.0,0.0,39.239891,-77.965652,0.08,33.0,3.0,0.8
35,1425753,1745091589433,,,,,,,,,,,,,,,,,,,,,,,,,,,,,,,,,,0,0,0,0,0,0,0,0,0,0,0,0,0,0,0,0,,,,,,,,,,,
36,1425773,1745091589453,0.0,200.23,,-0.06,-0.04,0.81,-1.0,-1.0,0.0,0.82,1.04,79.0,6723.0,9.2,3.26,,9.98,1.026,100.6,,62.2,5.0,,,,,,,,,,,,0,0,0,0,0,0,0,0,0,0,0,0,0,0,0,0,,,,,0.0,,,,,,
37,1425793,1745091589473,,,,,,,,,,,,,,,,,,,,,,,,,,,,,,,,,,0,0,0,0,0,0,0,0,0,0,0,0,0,0,0,0,,,,,,,,,,,
38,1425813,1745091589495,0.0,200.1,,-0.06,-0.1,0.81,1.0,-1.0,-1.0,0.82,1.04,79.0,7026.0,9.3,3.25,,9.69,0.976,100.6,,62.2,5.0,,,,,,,,,,,,0,0,0,0,0,0,0,0,0,0,0,0,0,0,0,0,,,,,0.0,,,,,,
39,1425833,1745091589515,,,,,,,,,,,,,,,,,,,,,,,0.0,0.0,0.0,0.0,0.0,0.0,0.0,0.0,2.26,,,0,0,0,0,0,0,0,0,0,0,0,0,0,0,0,0,0.0,,,,,39.239891,-77.965652,0.06,33.0,3.0,0.8
40,1425853,1745091589535,0.0,199.97,,-0.07,-0.18,0.81,-1.0,-1.0,0.0,0.83,1.04,80.0,7324.0,9.3,3.12,,9.27,0.982,100.6,,62.2,5.0,,,,,,,,,,,,0,0,0,0,0,0,0,0,0,0,0,0,0,0,0,0,,,,,0.0,,,,,,
41,1425873,1745091589555,,,,,,,,,,,,,,,,,,,,,,,,,,,,,,,,,,0,0,0,0,0,0,0,0,0,0,0,0,0,0,0,0,,,,,,,,,,,
42,1425893,1745091589575,0.0,199.97,,-0.08,-0.18,0.85,0.0,-1.0,0.0,0.87,1.04,84.0,7684.0,8.5,2.92,,8.77,0.978,100.6,,62.8,5.0,,,,,,,,,,,,0,0,0,0,0,0,0,0,0,0,0,0,0,0,0,0,,,,,0.0,,,,,,
43,1425913,1745091589593,,,,,,,,,,,,,,,,,,,,,,,,,,,,,,,,,,0,0,0,0,0,0,0,0,0,0,0,0,0,0,0,0,,,,,,,,,,,
44,1425933,1745091589613,0.0,200.1,,-0.07,-0.08,0.85,0.0,-1.0,0.0,0.85,1.04,82.0,8100.0,7.9,2.73,,8.77,0.978,100.6,,62.8,5.0,0.0,0.0,0.0,0.0,0.0,0.0,0.0,0.0,2.26,,,0,0,0,0,0,0,0,0,0,0,0,0,0,0,0,0,0.0,,,,0.0,39.239891,-77.965652,0.11,33.0,3.0,0.8
45,1425953,1745091589633,,,,,,,,,,,,,,,,,,,,,,,,,,,,,,,,,,0,0,0,0,0,0,0,0,0,0,0,0,0,0,0,0,,,,,,,,,,,
46,1425973,1745091589653,0.0,199.97,,-0.06,-0.03,0.85,0.0,-1.0,0.0,0.85,1.04,82.0,8100.0,7.9,2.73,,8.34,0.962,100.6,,63.5,5.0,,,,,,,,,,,,0,0,0,0,0,0,0,0,0,0,0,0,0,0,0,0,,,,,0.0,,,,,,
47,1425993,1745091589673,,,,,,,,,,,,,,,,,,,,,,,,,,,,,,,,,,0,0,0,0,0,0,0,0,0,0,0,0,0,0,0,0,,,,,,,,,,,
48,1426013,1745091589693,0.0,199.97,,-0.05,-0.08,0.9,0.0,-1.0,0.0,0.91,1.04,87.0,8434.0,7.4,2.4,,7.82,0.937,100.6,,63.5,5.0,,,,,,,,,,,,0,0,0,0,0,0,0,0,0,0,0,0,0,0,0,0,,,,,0.0,,,,,,
49,1426033,1745091589713,,,,,,,,,,,,,,,,,,,,,,,0.0,0.0,0.0,0.0,0.0,0.0,0.0,0.0,2.27,,,0,0,0,0,0,0,0,0,0,0,0,0,0,0,0,0,0.0,,,,,39.239891,-77.965652,0.04,33.0,3.0,0.8
50,1426053,1745091589733,0.0,199.85,,-0.07,-0.07,0.88,-1.0,-1.0,0.0,0.89,1.04,85.0,8685.0,7.2,2.18,,7.35,0.929,100.6,,63.5,5.0,,,,,,,,,,,,0,0,0,0,0,0,0,0,0,0,0,0,0,0,0,0,,,,,0.0,,,,,,
51,1426073,1745091589753,,,,,,,,,,,,,,,,,,,,,,,,,,,,,,,,,,0,0,0,0,0,0,0,0,0,0,0,0,0,0,0,0,,,,,,,,,,,
52,1426093,1745091589773,0.0,199.85,,-0.05,0.06,0.9,0.0,-1.0,0.0,0.9,1.04,87.0,8783.0,7.0,2.05,,6.98,0.951,100.6,,64.5,5.0,,,,,,,,,,,,0,0,0,0,0,0,0,0,0,0,0,0,0,0,0,0,,,,,0.0,,,,,,
53,1426113,1745091589793,,,,,,,,,,,,,,,,,,,,,,,,,,,,,,,,,,0,0,0,0,0,0,0,0,0,0,0,0,0,0,0,0,,,,,,,,,,,
54,1426133,1745091589813,0.0,199.72,,-0.01,0.01,0.93,0.0,-1.0,0.0,0.93,1.04,89.0,8778.0,6.9,2.0,,6.98,0.951,100.6,,64.5,5.0,0.0,0.0,0.0,0.0,0.0,0.0,0.0,0.0,2.27,,,0,0,0,0,0,0,0,0,0,0,0,0,0,0,0,0,0.0,,,,0.0,39.239891,-77.965652,0.04,33.0,3.0,0.8
55,1426153,1745091589833,,,,,,,,,,,,,,,,,,,,,,,,,,,,,,,,,,0,0,0,0,0,0,0,0,0,0,0,0,0,0,0,0,,,,,,,,,,,
56,1426173,1745091589853,0.0,199.47,,-0.02,-0.04,0.91,0.0,-1.0,0.0,0.91,1.04,87.0,8778.0,6.9,2.0,,6.78,0.984,100.6,,62.8,5.0,,,,,,,,,,,,0,0,0,0,0,0,0,0,0,0,0,0,0,0,0,0,,,,,0.0,,,,,,
57,1426193,1745091589873,,,,,,,,,,,,,,,,,,,,,,,,,,,,,,,,,,0,0,0,0,0,0,0,0,0,0,0,0,0,0,0,0,,,,,,,,,,,
58,1426213,1745091589895,0.0,199.35,,-0.03,0.05,0.92,0.0,-1.0,0.0,0.92,1.04,89.0,8667.0,7.0,1.95,,6.55,1.027,100.6,,62.8,5.0,,,,,,,,,,,,0,0,0,0,0,0,0,0,0,0,0,0,0,0,0,0,,,,,0.0,,,,,,
59,1426233,1745091589915,,,,,,,,,,,,,,,,,,,,,,,0.0,0.0,0.0,0.0,0.0,0.0,0.0,0.0,2.26,,,0,0,0,0,0,0,0,0,0,0,0,0,0,0,0,0,0.0,,,,,39.239891,-77.965652,0.07,33.0,3.0,0.8
60,1426253,1745091589935,0.0,199.22,,-0.03,0.05,0.91,0.0,-1.0,0.0,0.91,1.04,87.0,8508.0,7.1,1.93,,6.54,1.062,100.6,,62.8,5.0,,,,,,,,,,,,0,0,0,0,0,0,0,0,0,0,0,0,0,0,0,0,,,,,0.0,,,,,,
61,1426273,1745091589955,,,,,,,,,,,,,,,,,,,,,,,,,,,,,,,,,,0,0,0,0,0,0,0,0,0,0,0,0,0,0,0,0,,,,,,,,,,,
62,1426293,1745091589975,0.0,199.1,,-0.02,0.02,0.9,-1.0,-1.0,0.0,0.9,1.04,86.0,8290.0,7.2,2.0,,6.54,1.103,100.6,,64.0,5.0,,,,,,,,,,,,0,0,0,0,0,0,0,0,0,0,0,0,0,0,0,0,,,,,0.0,,,,,,
63,1426313,1745091589995,,,,,,,,,,,,,,,,,,,,,,,,,,,,,,,,,,0,0,0,0,0,0,0,0,0,0,0,0,0,0,0,0,,,,,,,,,,,
64,1426333,1745091590006,0.0,198.84,,-0.02,0.02,0.92,0.0,0.0,0.0,0.92,1.04,89.0,8048.0,7.2,2.05,,6.54,1.103,100.6,,64.0,5.0,0.0,0.0,0.0,0.0,0.0,0.0,0.0,0.0,2.26,,,0,0,0,0,0,0,0,0,0,0,0,0,0,0,0,0,0.0,,,,0.0,39.239891,-77.96566,0.11,33.0,3.0,0.8
65,1426353,1745091590026,,,,,,,,,,,,,,,,,,,,,,,,,,,,,,,,,,0,0,0,0,0,0,0,0,0,0,0,0,0,0,0,0,,,,,,,,,,,
66,1426373,1745091590046,0.0,198.72,,-0.05,-0.11,0.93,-1.0,0.0,0.0,0.94,1.04,90.0,8048.0,7.2,2.05,,6.66,1.164,100.6,,63.2,5.0,,,,,,,,,,,,0,0,0,0,0,0,0,0,0,0,0,0,0,0,0,0,,,,,0.0,,,,,,
67,1426393,1745091590066,,,,,,,,,,,,,,,,,,,,,,,,,,,,,,,,,,0,0,0,0,0,0,0,0,0,0,0,0,0,0,0,0,,,,,,,,,,,
68,1426413,1745091590086,0.0,198.59,,-0.07,-0.12,0.94,0.0,0.0,0.0,0.95,1.04,91.0,7782.0,7.2,2.07,,6.7,1.221,100.6,,63.2,5.0,,,,,,,,,,,,0,0,0,0,0,0,0,0,0,0,0,0,0,0,0,0,,,,,0.0,,,,,,
69,1426433,1745091590106,,,,,,,,,,,,,,,,,,,,,,,0.0,0.0,0.0,0.0,0.0,0.0,0.0,0.0,2.26,,,0,0,0,0,0,0,0,0,0,0,0,0,0,0,0,0,0.0,,,,,39.239891,-77.96566,0.04,33.0,3.0,0.8
70,1426453,1745091590126,0.0,198.47,,-0.06,-0.2,0.99,1.0,0.0,0.0,1.01,1.04,97.0,7594.0,7.0,2.12,,6.87,1.248,100.6,,63.2,5.0,,,,,,,,,,,,0,0,0,0,0,0,0,0,0,0,0,0,0,0,0,0,,,,,0.0,,,,,,
71,1426473,1745091590146,,,,,,,,,,,,,,,,,,,,,,,,,,,,,,,,,,0,0,0,0,0,0,0,0,0,0,0,0,0,0,0,0,,,,,,,,,,,
72,1426493,1745091590166,0.0,198.47,,-0.07,-0.21,0.99,2.0,0.0,-1.0,1.01,1.04,97.0,7363.0,6.9,2.19,,7.08,1.248,100.6,,63.1,5.0,,,,,,,,,,,,0,0,0,0,0,0,0,0,0,0,0,0,0,0,0,0,,,,,0.0,,,,,,
73,1426513,1745091590192,,,,,,,,,,,,,,,,,,,,,,,,,,,,,,,,,,0,0,0,0,0,0,0,0,0,0,0,0,0,0,0,0,,,,,,,,,,,
74,1426533,1745091590212,0.0,198.47,,-0.1,-0.31,0.95,3.0,0.0,-1.0,1.01,1.04,97.0,7233.0,6.9,2.26,,7.08,1.248,100.6,,63.1,5.0,0.0,0.0,0.0,0.0,0.0,0.0,0.0,0.0,2.27,,,0,0,0,0,0,0,0,0,0,0,0,0,0,0,0,0,0.0,,,,0.0,39.239891,-77.96566,0.08,33.0,3.0,0.8
75,1426553,1745091590232,,,,,,,,,,,,,,,,,,,,,,,,,,,,,,,,,,0,0,0,0,0,0,0,0,0,0,0,0,0,0,0,0,,,,,,,,,,,
76,1426573,1745091590252,0.0,198.34,,-0.07,-0.14,1.01,1.0,0.0,-1.0,1.02,1.04,98.0,7233.0,6.9,2.26,,7.27,1.248,100.6,,61.8,5.0,,,,,,,,,,,,0,0,0,0,0,0,0,0,0,0,0,0,0,0,0,0,,,,,0.0,,,,,,
77,1426593,1745091590272,,,,,,,,,,,,,,,,,,,,,,,,,,,,,,,,,,0,0,0,0,0,0,0,0,0,0,0,0,0,0,0,0,,,,,,,,,,,
78,1426613,1745091590292,0.0,198.47,,-0.09,-0.25,0.96,3.0,0.0,-1.0,1.0,1.04,96.0,7109.0,6.9,2.3,,7.46,1.209,100.6,,61.8,5.0,,,,,,,,,,,,0,0,0,0,0,0,0,0,0,0,0,0,0,0,0,0,,,,,0.0,,,,,,
79,1426633,1745091590312,,,,,,,,,,,,,,,,,,,,,,,0.0,0.0,0.0,0.0,0.0,0.0,0.0,0.0,2.27,,,0,0,0,0,0,0,0,0,0,0,0,0,0,0,0,0,0.0,,,,,39.239891,-77.96566,0.04,33.0,3.0,0.8
80,1426653,1745091590332,0.0,198.47,,-0.07,-0.24,1.01,2.0,0.0,-1.0,1.04,1.04,100.0,7004.0,6.8,2.39,,7.55,1.136,100.6,,61.8,5.0,,,,,,,,,,,,0,0,0,0,0,0,0,0,0,0,0,0,0,0,0,0,,,,,0.0,,,,,,
81,1426673,1745091590352,,,,,,,,,,,,,,,,,,,,,,,,,,,,,,,,,,0,0,0,0,0,0,0,0,0,0,0,0,0,0,0,0,,,,,,,,,,,
82,1426693,1745091590372,0.0,198.47,,-0.08,-0.27,1.02,1.0,0.0,-1.0,1.06,1.06,100.0,6956.0,6.9,2.41,,7.73,1.109,100.6,,62.8,5.0,,,,,,,,,,,,0,0,0,0,0,0,0,0,0,0,0,0,0,0,0,0,,,,,0.0,,,,,,
83,1426713,1745091590392,,,,,,,,,,,,,,,,,,,,,,,,,,,,,,,,,,0,0,0,0,0,0,0,0,0,0,0,0,0,0,0,0,,,,,,,,,,,
84,1426733,1745091590412,0.0,198.59,12.56,-0.09,-0.31,0.99,2.0,0.0,-1.0,1.04,1.06,98.0,6883.0,6.8,2.42,15.0,7.73,1.109,100.6,158.0,62.8,5.0,0.0,0.0,0.0,0.0,0.0,0.0,0.0,0.0,2.26,0.0,0.0,0,0,0,0,0,0,0,0,0,0,0,0,0,0,0,0,0.0,0.0,0.0,0.0,0.0,39.239891,-77.96566,0.04,33.0,3.0,0.8
85,1426753,1745091590432,,,,,,,,,,,,,,,,,,,,,,,,,,,,,,,,,,0,0,0,0,0,0,0,0,0,0,0,0,0,0,0,0,,,,,,,,,,,
86,1426773,1745091590452,0.0,198.72,,-0.06,-0.33,0.99,2.0,0.0,0.0,1.04,1.06,99.0,6883.0,6.8,2.42,,7.97,1.082,100.6,,62.6,5.0,,,,,,,,,,,,0,0,0,0,0,0,0,0,0,0,0,0,0,0,0,0,,,,,0.0,,,,,,
87,1426793,1745091590472,,,,,,,,,,,,,,,,,,,,,,,,,,,,,,,,,,0,0,0,0,0,0,0,0,0,0,0,0,0,0,0,0,,,,,,,,,,,
88,1426813,1745091590494,0.0,198.84,,-0.09,-0.26,0.99,2.0,0.0,-1.0,1.03,1.06,97.0,6785.0,7.1,2.52,,8.17,1.072,100.6,,62.6,5.0,,,,,,,,,,,,0,0,0,0,0,0,0,0,0,0,0,0,0,0,0,0,,,,,0.0,,,,,,
89,1426833,1745091590514,,,,,,,,,,,,,,,,,,,,,,,0.0,0.0,0.0,0.0,0.0,0.0,0.0,0.0,2.26,,,0,0,0,0,0,0,0,0,0,0,0,0,0,0,0,0,0.0,,,,,39.239891,-77.96566,0.08,33.0,3.0,0.8
90,1426853,1745091590534,0.0,198.84,,-0.07,-0.26,1.01,2.0,0.0,-1.0,1.04,1.06,99.0,6727.0,7.5,2.58,,8.37,1.067,100.6,,62.6,5.0,,,,,,,,,,,,0,0,0,0,0,0,0,0,0,0,0,0,0,0,0,0,,,,,0.0,,,,,,
91,1426873,1745091590554,,,,,,,,,,,,,,,,,,,,,,,,,,,,,,,,,,0,0,0,0,0,0,0,0,0,0,0,0,0,0,0,0,,,,,,,,,,,
92,1426893,1745091590574,0.0,198.84,,-0.06,-0.23,1.0,1.0,0.0,-1.0,1.03,1.06,97.0,6641.0,7.6,2.63,,8.67,1.073,100.6,,61.6,5.0,,,,,,,,,,,,0,0,0,0,0,0,0,0,0,0,0,0,0,0,0,0,,,,,0.0,,,,,,
93,1426913,1745091590592,,,,,,,,,,,,,,,,,,,,,,,,,,,,,,,,,,0,0,0,0,0,0,0,0,0,0,0,0,0,0,0,0,,,,,,,,,,,
94,1426933,1745091590612,0.0,198.97,,-0.03,-0.15,1.02,1.0,0.0,0.0,1.03,1.06,97.0,6583.0,7.5,2.67,,8.67,1.073,100.6,,61.6,5.0,0.0,0.0,0.0,0.0,0.0,0.0,0.0,0.0,2.26,,,0,0,0,0,0,0,0,0,0,0,0,0,0,0,0,0,0.0,,,,0.0,39.239891,-77.96566,0.1,33.0,3.0,0.8
95,1426953,1745091590632,,,,,,,,,,,,,,,,,,,,,,,,,,,,,,,,,,0,0,0,0,0,0,0,0,0,0,0,0,0,0,0,0,,,,,,,,,,,
96,1426973,1745091590652,0.0,198.97,,-0.05,-0.2,0.98,1.0,0.0,0.0,1.0,1.06,95.0,6583.0,7.5,2.67,,8.82,1.089,100.6,,61.3,5.0,,,,,,,,,,,,0,0,0,0,0,0,0,0,0,0,0,0,0,0,0,0,,,,,0.0,,,,,,
97,1426993,1745091590672,,,,,,,,,,,,,,,,,,,,,,,,,,,,,,,,,,0,0,0,0,0,0,0,0,0,0,0,0,0,0,0,0,,,,,,,,,,,
98,1427013,1745091590694,0.0,198.97,,-0.07,-0.15,1.04,1.0,0.0,0.0,1.06,1.06,100.0,6445.0,7.4,2.65,,9.02,1.094,100.6,,61.3,5.0,,,,,,,,,,,,0,0,0,0,0,0,0,0,0,0,0,0,0,0,0,0,,,,,0.0,,,,,,
99,1427033,1745091590714,,,,,,,,,,,,,,,,,,,,,,,0.0,0.0,0.0,0.0,0.0,0.0,0.0,0.0,2.27,,,0,0,0,0,0,0,0,0,0,0,0,0,0,0,0,0,0.0,,,,,39.239891,-77.96566,0.0,33.0,3.0,0.8
100,1427053,1745091590734,0.0,199.1,,-0.06,-0.12,0.94,1.0,0.0,0.0,0.95,1.06,90.0,6367.0,7.5,2.68,,9.15,1.109,100.6,,61.3,5.0,,,,,,,,,,,,0,0,0,0,0,0,0,0,0,0,0,0,0,0,0,0,,,,,0.0,,,,,,
101,1427073,1745091590754,,,,,,,,,,,,,,,,,,,,,,,,,,,,,,,,,,0,0,0,0,0,0,0,0,0,0,0,0,0,0,0,0,,,,,,,,,,,
102,1427093,1745091590774,0.0,199.1,,0.02,-0.2,1.01,1.0,0.0,-1.0,1.03,1.06,98.0,6194.0,7.5,2.66,,9.37,1.115,100.6,,61.1,5.0,,,,,,,,,,,,0,0,0,0,0,0,0,0,0,0,0,0,0,0,0,0,,,,,0.0,,,,,,
103,1427113,1745091590794,,,,,,,,,,,,,,,,,,,,,,,,,,,,,,,,,,0,0,0,0,0,0,0,0,0,0,0,0,0,0,0,0,,,,,,,,,,,
104,1427133,1745091590814,0.0,199.22,,0.06,-0.2,1.15,1.0,0.0,-1.0,1.17,1.17,100.0,6060.0,7.5,2.66,,9.37,1.115,100.6,,61.1,5.0,0.0,0.0,0.0,0.0,0.0,0.0,0.0,0.0,2.27,,,0,0,0,0,0,0,0,0,0,0,0,0,0,0,0,0,0.0,,,,0.0,39.239891,-77.96566,0.09,33.0,3.0,0.8
105,1427153,1745091590834,,,,,,,,,,,,,,,,,,,,,,,,,,,,,,,,,,0,0,0,0,0,0,0,0,0,0,0,0,0,0,0,0,,,,,,,,,,,
106,1427173,1745091590854,0.0,199.22,,0.09,-0.19,1.27,1.0,0.0,-1.0,1.28,1.28,100.0,6060.0,7.5,2.66,,9.69,1.125,100.6,,59.9,5.0,,,,,,,,,,,,0,0,0,0,0,0,0,0,0,0,0,0,0,0,0,0,,,,,0.0,,,,,,
107,1427193,1745091590874,,,,,,,,,,,,,,,,,,,,,,,,,,,,,,,,,,0,0,0,0,0,0,0,0,0,0,0,0,0,0,0,0,,,,,,,,,,,
108,1427213,1745091590894,0.0,199.22,,0.13,-0.25,1.24,2.0,0.0,-1.0,1.27,1.28,99.0,5870.0,7.5,2.63,,9.93,1.15,100.6,,59.9,5.0,,,,,,,,,,,,0,0,0,0,0,0,0,0,0,0,0,0,0,0,0,0,,,,,0.0,,,,,,
109,1427233,1745091590914,,,,,,,,,,,,,,,,,,,,,,,0.0,0.0,0.0,0.0,0.0,0.0,0.0,0.0,2.26,,,0,0,0,0,0,0,0,0,0,0,0,0,0,0,0,0,0.0,,,,,39.239891,-77.96566,0.09,33.0,3.0,0.8
110,1427253,1745091590934,0.0,199.35,,0.08,-0.2,1.18,1.0,0.0,-1.0,1.2,1.28,93.0,5644.0,7.6,2.64,,10.21,1.143,100.6,,59.9,5.0,,,,,,,,,,,,0,0,0,0,0,0,0,0,0,0,0,0,0,0,0,0,,,,,0.0,,,,,,
111,1427273,1745091590954,,,,,,,,,,,,,,,,,,,,,,,,,,,,,,,,,,0,0,0,0,0,0,0,0,0,0,0,0,0,0,0,0,,,,,,,,,,,
112,1427293,1745091590974,0.0,199.35,,0.06,-0.14,1.16,1.0,0.0,-1.0,1.17,1.28,91.0,5402.0,7.7,2.62,,10.36,1.152,100.6,,58.4,5.0,,,,,,,,,,,,0,0,0,0,0,0,0,0,0,0,0,0,0,0,0,0,,,,,0.0,,,,,,
113,1427313,1745091590994,,,,,,,,,,,,,,,,,,,,,,,,,,,,,,,,,,0,0,0,0,0,0,0,0,0,0,0,0,0,0,0,0,,,,,,,,,,,
114,1427333,1745091591005,0.0,199.35,,0.03,-0.08,1.15,1.0,0.0,-1.0,1.15,1.28,90.0,5171.0,7.7,2.59,,10.36,1.152,100.6,,58.4,5.0,0.0,0.0,0.0,0.0,0.0,0.0,0.0,0.0,2.26,,,0,0,0,0,0,0,0,0,0,0,0,0,0,0,0,0,0.0,,,,0.0,39.239891,-77.96566,0.04,33.0,3.0,0.8
115,1427353,1745091591025,,,,,,,,,,,,,,,,,,,,,,,,,,,,,,,,,,0,0,0,0,0,0,0,0,0,0,0,0,0,0,0,0,,,,,,,,,,,
116,1427373,1745091591045,0.0,199.35,,0.06,-0.11,1.12,1.0,0.0,-1.0,1.13,1.28,88.0,5171.0,7.7,2.59,,10.65,1.195,100.6,,54.6,5.0,,,,,,,,,,,,0,0,0,0,0,0,0,0,0,0,0,0,0,0,0,0,,,,,0.0,,,,,,
117,1427393,1745091591065,,,,,,,,,,,,,,,,,,,,,,,,,,,,,,,,,,0,0,0,0,0,0,0,0,0,0,0,0,0,0,0,0,,,,,,,,,,,
118,1427413,1745091591091,0.0,199.35,,0.02,0.0,1.16,0.0,0.0,0.0,1.16,1.28,91.0,4888.0,7.6,2.78,,10.84,1.248,100.6,,54.6,5.0,,,,,,,,,,,,0,0,0,0,0,0,0,0,0,0,0,0,0,0,0,0,,,,,0.0,,,,,,
119,1427433,1745091591111,,,,,,,,,,,,,,,,,,,,,,,0.0,0.0,0.0,0.0,0.0,0.0,0.0,0.0,2.26,,,0,0,0,0,0,0,0,0,0,0,0,0,0,0,0,0,0.0,,,,,39.239891,-77.96566,0.08,33.0,3.0,0.8
120,1427453,1745091591131,0.0,199.35,,-0.03,-0.0,1.16,-1.0,0.0,0.0,1.16,1.28,91.0,4613.0,7.5,3.37,,11.08,1.248,100.6,,54.6,5.0,,,,,,,,,,,,0,0,0,0,0,0,0,0,0,0,0,0,0,0,0,0,,,,,0.0,,,,,,
121,1427473,1745091591151,,,,,,,,,,,,,,,,,,,,,,,,,,,,,,,,,,0,0,0,0,0,0,0,0,0,0,0,0,0,0,0,0,,,,,,,,,,,
122,1427493,1745091591171,0.0,199.22,,-0.09,-0.01,1.17,-2.0,0.0,1.0,1.18,1.28,92.0,4470.0,7.4,3.43,,11.37,1.249,100.6,,47.0,5.0,,,,,,,,,,,,0,0,0,0,0,0,0,0,0,0,0,0,0,0,0,0,,,,,0.0,,,,,,
123,1427513,1745091591193,,,,,,,,,,,,,,,,,,,,,,,,,,,,,,,,,,0,0,0,0,0,0,0,0,0,0,0,0,0,0,0,0,,,,,,,,,,,
124,1427533,1745091591213,0.0,199.35,,-0.14,0.05,1.2,-2.0,0.0,1.0,1.21,1.28,94.0,4425.0,8.3,3.46,,11.37,1.249,100.6,,47.0,5.0,0.0,0.0,0.0,0.0,0.0,0.0,0.0,0.0,2.27,,,0,0,0,0,0,0,0,0,0,0,0,0,0,0,0,0,0.0,,,,0.0,39.239891,-77.96566,0.07,33.0,3.0,0.8
125,1427553,1745091591233,,,,,,,,,,,,,,,,,,,,,,,,,,,,,,,,,,0,0,0,0,0,0,0,0,0,0,0,0,0,0,0,0,,,,,,,,,,,
126,1427573,1745091591253,0.0,199.35,,-0.17,0.14,1.27,-3.0,0.0,2.0,1.29,1.29,100.0,4425.0,8.3,3.46,,11.54,1.25,100.6,,45.6,5.0,,,,,,,,,,,,0,0,0,0,0,0,0,0,0,0,0,0,0,0,0,0,,,,,0.0,,,,,,
127,1427593,1745091591273,,,,,,,,,,,,,,,,,,,,,,,,,,,,,,,,,,0,0,0,0,0,0,0,0,0,0,0,0,0,0,0,0,,,,,,,,,,,
128,1427613,1745091591293,0.0,199.47,,-0.18,0.2,1.32,-3.0,0.0,2.0,1.35,1.35,100.0,4470.0,11.4,3.56,,11.91,1.251,100.6,,45.6,5.0,,,,,,,,,,,,0,0,0,0,0,0,0,0,0,0,0,0,0,0,0,0,,,,,0.0,,,,,,
129,1427633,1745091591313,,,,,,,,,,,,,,,,,,,,,,,0.0,0.0,0.0,0.0,0.0,0.0,0.0,0.0,2.27,,,0,0,0,0,0,0,0,0,0,0,0,0,0,0,0,0,0.0,,,,,39.239891,-77.96566,0.06,33.0,3.0,0.8
130,1427653,1745091591333,0.0,199.47,,-0.16,0.28,1.38,-3.0,0.0,2.0,1.42,1.42,100.0,4458.0,15.1,3.76,,12.32,1.187,100.6,,45.6,5.0,,,,,,,,,,,,0,0,0,0,0,0,0,0,0,0,0,0,0,0,0,0,,,,,0.0,,,,,,
131,1427673,1745091591353,,,,,,,,,,,,,,,,,,,,,,,,,,,,,,,,,,0,0,0,0,0,0,0,0,0,0,0,0,0,0,0,0,,,,,,,,,,,
132,1427693,1745091591373,0.0,199.47,,-0.12,0.27,1.34,-2.0,0.0,1.0,1.38,1.42,97.0,4371.0,16.4,3.86,,12.63,1.185,100.6,,45.9,5.0,,,,,,,,,,,,0,0,0,0,0,0,0,0,0,0,0,0,0,0,0,0,,,,,0.0,,,,,,
133,1427713,1745091591393,,,,,,,,,,,,,,,,,,,,,,,,,,,,,,,,,,0,0,0,0,0,0,0,0,0,0,0,0,0,0,0,0,,,,,,,,,,,
134,1427733,1745091591413,0.0,199.47,12.64,-0.08,0.18,1.21,-2.0,0.0,1.0,1.23,1.42,86.0,4172.0,16.6,3.86,15.0,12.63,1.185,100.6,155.0,45.9,5.0,0.0,0.0,0.0,0.0,0.0,0.0,0.0,0.0,2.26,0.0,0.0,0,0,0,0,0,0,0,0,0,0,0,0,0,0,0,0,0.0,0.0,0.0,0.0,0.0,39.239891,-77.96566,0.0,33.0,3.0,0.8
135,1427753,1745091591433,,,,,,,,,,,,,,,,,,,,,,,,,,,,,,,,,,0,0,0,0,0,0,0,0,0,0,0,0,0,0,0,0,,,,,,,,,,,
136,1427773,1745091591453,0.0,199.6,,-0.07,0.23,1.23,-2.0,0.0,1.0,1.25,1.42,88.0,4172.0,16.6,3.86,,12.81,1.228,100.6,,42.2,5.0,,,,,,,,,,,,0,0,0,0,0,0,0,0,0,0,0,0,0,0,0,0,,,,,0.0,,,,,,
137,1427793,1745091591473,,,,,,,,,,,,,,,,,,,,,,,,,,,,,,,,,,0,0,0,0,0,0,0,0,0,0,0,0,0,0,0,0,,,,,,,,,,,
138,1427813,1745091591493,0.0,199.47,,-0.07,0.14,1.15,-1.0,0.0,1.0,1.16,1.42,82.0,4073.0,16.7,3.85,,12.97,1.251,100.6,,42.2,5.0,,,,,,,,,,,,0,0,0,0,0,0,0,0,0,0,0,0,0,0,0,0,,,,,0.0,,,,,,
139,1427833,1745091591513,,,,,,,,,,,,,,,,,,,,,,,0.0,0.0,0.0,0.0,0.0,0.0,0.0,0.0,2.26,,,0,0,0,0,0,0,0,0,0,0,0,0,0,0,0,0,0.0,,,,,39.239891,-77.96566,0.04,33.0,3.0,0.8
140,1427853,1745091591533,0.0,199.47,,-0.05,0.18,1.15,-1.0,0.0,1.0,1.16,1.42,82.0,4088.0,16.7,3.84,,13.08,1.249,100.6,,42.2,5.0,,,,,,,,,,,,0,0,0,0,0,0,0,0,0,0,0,0,0,0,0,0,,,,,0.0,,,,,,
141,1427873,1745091591553,,,,,,,,,,,,,,,,,,,,,,,,,,,,,,,,,,0,0,0,0,0,0,0,0,0,0,0,0,0,0,0,0,,,,,,,,,,,
142,1427893,1745091591573,0.0,199.47,,-0.05,0.16,1.19,-1.0,0.0,1.0,1.2,1.42,84.0,3980.0,16.6,3.86,,13.11,1.249,100.6,,40.9,5.0,,,,,,,,,,,,0,0,0,0,0,0,0,0,0,0,0,0,0,0,0,0,,,,,0.0,,,,,,
143,1427913,1745091591595,,,,,,,,,,,,,,,,,,,,,,,,,,,,,,,,,,0,0,0,0,0,0,0,0,0,0,0,0,0,0,0,0,,,,,,,,,,,
144,1427933,1745091591615,0.0,199.6,,-0.05,0.09,1.12,-1.0,0.0,1.0,1.13,1.42,79.0,3889.0,16.6,3.86,,13.11,1.249,100.6,,40.9,5.0,0.0,0.0,0.0,0.0,0.0,0.0,0.0,0.0,2.26,,,0,0,0,0,0,0,0,0,0,0,0,0,0,0,0,0,0.0,,,,0.0,39.239891,-77.96566,0.04,33.0,3.0,0.8
145,1427953,1745091591635,,,,,,,,,,,,,,,,,,,,,,,,,,,,,,,,,,0,0,0,0,0,0,0,0,0,0,0,0,0,0,0,0,,,,,,,,,,,
146,1427973,1745091591655,0.0,199.6,,-0.04,0.09,1.08,-1.0,0.0,1.0,1.09,1.42,77.0,3889.0,16.6,3.86,,13.12,1.25,100.6,,38.9,5.0,,,,,,,,,,,,0,0,0,0,0,0,0,0,0,0,0,0,0,0,0,0,,,,,0.0,,,,,,
147,1427993,1745091591675,,,,,,,,,,,,,,,,,,,,,,,,,,,,,,,,,,0,0,0,0,0,0,0,0,0,0,0,0,0,0,0,0,,,,,,,,,,,
148,1428013,1745091591695,0.0,199.6,,-0.03,0.11,1.08,0.0,0.0,0.0,1.09,1.42,76.0,3884.0,16.6,3.89,,13.23,1.249,100.6,,38.9,5.0,,,,,,,,,,,,0,0,0,0,0,0,0,0,0,0,0,0,0,0,0,0,,,,,0.0,,,,,,
149,1428033,1745091591715,,,,,,,,,,,,,,,,,,,,,,,0.0,0.0,0.0,0.0,0.0,0.0,0.0,0.0,2.27,,,0,0,0,0,0,0,0,0,0,0,0,0,0,0,0,0,0.0,,,,,39.239891,-77.96566,0.08,33.0,3.0,0.8
150,1428053,1745091591735,0.0,199.6,,-0.03,0.15,1.08,0.0,0.0,1.0,1.09,1.42,77.0,3805.0,16.6,3.88,,13.23,1.249,100.6,,38.9,5.0,,,,,,,,,,,,0,0,0,0,0,0,0,0,0,0,0,0,0,0,0,0,,,,,0.0,,,,,,
151,1428073,1745091591755,,,,,,,,,,,,,,,,,,,,,,,,,,,,,,,,,,0,0,0,0,0,0,0,0,0,0,0,0,0,0,0,0,,,,,,,,,,,
152,1428093,1745091591775,0.0,199.6,,-0.04,0.15,1.08,-1.0,0.0,1.0,1.09,1.42,77.0,3849.0,16.6,3.89,,13.23,1.251,100.6,,37.8,5.0,,,,,,,,,,,,0,0,0,0,0,0,0,0,0,0,0,0,0,0,0,0,,,,,0.0,,,,,,
153,1428113,1745091591793,,,,,,,,,,,,,,,,,,,,,,,,,,,,,,,,,,0,0,0,0,0,0,0,0,0,0,0,0,0,0,0,0,,,,,,,,,,,
154,1428133,1745091591813,0.0,199.6,,-0.04,0.12,1.08,-1.0,0.0,1.0,1.09,1.42,77.0,3820.0,16.6,3.88,,13.23,1.251,100.6,,37.8,5.0,0.0,0.0,0.0,0.0,0.0,0.0,0.0,0.0,2.27,,,0,0,0,0,0,0,0,0,0,0,0,0,0,0,0,0,0.0,,,,0.0,39.239891,-77.96566,0.14,33.0,3.0,0.8
155,1428153,1745091591833,,,,,,,,,,,,,,,,,,,,,,,,,,,,,,,,,,0,0,0,0,0,0,0,0,0,0,0,0,0,0,0,0,,,,,,,,,,,
156,1428173,1745091591853,0.0,199.72,,-0.04,0.1,1.1,-1.0,0.0,1.0,1.11,1.42,78.0,3820.0,16.6,3.88,,13.24,1.252,100.6,,37.2,5.0,,,,,,,,,,,,0,0,0,0,0,0,0,0,0,0,0,0,0,0,0,0,,,,,0.0,,,,,,
157,1428193,1745091591873,,,,,,,,,,,,,,,,,,,,,,,,,,,,,,,,,,0,0,0,0,0,0,0,0,0,0,0,0,0,0,0,0,,,,,,,,,,,
158,1428213,1745091591895,0.0,199.6,,-0.03,0.08,1.09,-1.0,0.0,1.0,1.1,1.42,77.0,3744.0,16.6,3.91,,13.28,1.253,100.6,,37.2,5.0,,,,,,,,,,,,0,0,0,0,0,0,0,0,0,0,0,0,0,0,0,0,,,,,0.0,,,,,,
159,1428233,1745091591915,,,,,,,,,,,,,,,,,,,,,,,0.0,0.0,0.0,0.0,0.0,0.0,0.0,0.0,2.26,,,0,0,0,0,0,0,0,0,0,0,0,0,0,0,0,0,0.0,,,,,39.239891,-77.96566,0.08,33.0,3.0,0.8
160,1428253,1745091591935,0.0,199.6,,-0.04,0.04,1.07,-1.0,0.0,1.0,1.07,1.42,76.0,3810.0,16.7,3.92,,13.24,1.253,100.6,,37.2,5.0,,,,,,,,,,,,0,0,0,0,0,0,0,0,0,0,0,0,0,0,0,0,,,,,0.0,,,,,,
161,1428273,1745091591955,,,,,,,,,,,,,,,,,,,,,,,,,,,,,,,,,,0,0,0,0,0,0,0,0,0,0,0,0,0,0,0,0,,,,,,,,,,,
162,1428293,1745091591975,0.0,199.6,,-0.05,0.01,1.04,-1.0,0.0,0.0,1.04,1.42,73.0,3819.0,16.4,3.9,,13.21,1.252,100.6,,37.6,5.0,,,,,,,,,,,,0,0,0,0,0,0,0,0,0,0,0,0,0,0,0,0,,,,,0.0,,,,,,
163,1428313,1745091591995,,,,,,,,,,,,,,,,,,,,,,,,,,,,,,,,,,0,0,0,0,0,0,0,0,0,0,0,0,0,0,0,0,,,,,,,,,,,
164,1428333,1745091592006,0.0,199.6,,-0.07,-0.01,1.0,0.0,0.0,0.0,1.0,1.42,71.0,3861.0,15.8,3.86,,13.21,1.252,100.6,,37.6,5.0,0.0,0.0,0.0,0.0,0.0,0.0,0.0,0.0,2.27,,,0,0,0,0,0,0,0,0,0,0,0,0,0,0,0,0,0.0,,,,0.0,39.239891,-77.96566,0.04,33.0,3.0,0.8
165,1428353,1745091592026,,,,,,,,,,,,,,,,,,,,,,,,,,,,,,,,,,0,0,0,0,0,0,0,0,0,0,0,0,0,0,0,0,,,,,,,,,,,
166,1428373,1745091592046,0.0,199.72,,-0.06,-0.0,1.01,0.0,0.0,0.0,1.01,1.42,71.0,3861.0,15.8,3.86,,13.11,1.25,100.6,,38.3,5.0,,,,,,,,,,,,0,0,0,0,0,0,0,0,0,0,0,0,0,0,0,0,,,,,0.0,,,,,,
167,1428393,1745091592066,,,,,,,,,,,,,,,,,,,,,,,,,,,,,,,,,,0,0,0,0,0,0,0,0,0,0,0,0,0,0,0,0,,,,,,,,,,,
168,1428413,1745091592094,0.0,199.72,,-0.05,0.01,1.01,0.0,0.0,0.0,1.01,1.42,71.0,3800.0,15.7,3.85,,13.13,1.249,100.6,,38.3,5.0,,,,,,,,,,,,0,0,0,0,0,0,0,0,0,0,0,0,0,0,0,0,,,,,0.0,,,,,,
169,1428433,1745091592114,,,,,,,,,,,,,,,,,,,,,,,0.0,0.0,0.0,0.0,0.0,0.0,0.0,0.0,2.26,,,0,0,0,0,0,0,0,0,0,0,0,0,0,0,0,0,0.0,,,,,39.239891,-77.96566,0.04,33.0,3.0,0.8
170,1428453,1745091592134,0.0,199.72,,-0.04,0.0,1.01,0.0,0.0,0.0,1.01,1.42,71.0,3815.0,15.5,3.86,,13.19,1.25,100.6,,38.3,5.0,,,,,,,,,,,,0,0,0,0,0,0,0,0,0,0,0,0,0,0,0,0,,,,,0.0,,,,,,
171,1428473,1745091592154,,,,,,,,,,,,,,,,,,,,,,,,,,,,,,,,,,0,0,0,0,0,0,0,0,0,0,0,0,0,0,0,0,,,,,,,,,,,
172,1428493,1745091592174,0.0,199.72,,-0.04,-0.01,0.99,0.0,0.0,0.0,0.99,1.42,69.0,3788.0,15.5,3.87,,13.11,1.249,100.6,,37.5,5.0,,,,,,,,,,,,0,0,0,0,0,0,0,0,0,0,0,0,0,0,0,0,,,,,0.0,,,,,,
173,1428513,1745091592192,,,,,,,,,,,,,,,,,,,,,,,,,,,,,,,,,,0,0,0,0,0,0,0,0,0,0,0,0,0,0,0,0,,,,,,,,,,,
174,1428533,1745091592212,0.0,199.72,,-0.06,-0.0,0.98,0.0,0.0,0.0,0.99,1.42,69.0,3753.0,15.5,3.86,,13.11,1.249,100.6,,37.5,5.0,0.0,0.0,0.0,0.0,0.0,0.0,0.0,0.0,2.27,,,0,0,0,0,0,0,0,0,0,0,0,0,0,0,0,0,0.0,,,,0.0,39.239891,-77.96566,0.05,33.0,3.0,0.8
175,1428553,1745091592232,,,,,,,,,,,,,,,,,,,,,,,,,,,,,,,,,,0,0,0,0,0,0,0,0,0,0,0,0,0,0,0,0,,,,,,,,,,,
176,1428573,1745091592252,0.0,199.72,,-0.07,0.01,1.0,0.0,0.0,0.0,1.0,1.42,70.0,3753.0,15.5,3.86,,13.15,1.25,100.6,,37.3,5.0,,,,,,,,,,,,0,0,0,0,0,0,0,0,0,0,0,0,0,0,0,0,,,,,0.0,,,,,,
177,1428593,1745091592272,,,,,,,,,,,,,,,,,,,,,,,,,,,,,,,,,,0,0,0,0,0,0,0,0,0,0,0,0,0,0,0,0,,,,,,,,,,,
178,1428613,1745091592294,0.0,199.72,,-0.06,0.03,1.01,0.0,0.0,0.0,1.01,1.42,71.0,3790.0,15.5,3.87,,13.2,1.252,100.6,,37.3,5.0,,,,,,,,,,,,0,0,0,0,0,0,0,0,0,0,0,0,0,0,0,0,,,,,0.0,,,,,,
179,1428633,1745091592314,,,,,,,,,,,,,,,,,,,,,,,0.0,0.0,0.0,0.0,0.0,0.0,0.0,0.0,2.27,,,0,0,0,0,0,0,0,0,0,0,0,0,0,0,0,0,0.0,,,,,39.239891,-77.96566,0.15,33.0,3.0,0.8
180,1428653,1745091592334,0.0,199.72,,-0.06,0.07,1.0,1.0,0.0,0.0,1.01,1.42,71.0,3793.0,15.5,3.86,,13.17,1.252,100.6,,37.3,5.0,,,,,,,,,,,,0,0,0,0,0,0,0,0,0,0,0,0,0,0,0,0,,,,,0.0,,,,,,
181,1428673,1745091592354,,,,,,,,,,,,,,,,,,,,,,,,,,,,,,,,,,0,0,0,0,0,0,0,0,0,0,0,0,0,0,0,0,,,,,,,,,,,
182,1428693,1745091592374,0.0,199.6,,-0.06,0.07,1.0,0.0,0.0,0.0,1.01,1.42,71.0,3803.0,15.5,3.87,,13.15,1.253,100.6,,37.2,5.0,,,,,,,,,,,,0,0,0,0,0,0,0,0,0,0,0,0,0,0,0,0,,,,,0.0,,,,,,
183,1428713,1745091592394,,,,,,,,,,,,,,,,,,,,,,,,,,,,,,,,,,0,0,0,0,0,0,0,0,0,0,0,0,0,0,0,0,,,,,,,,,,,
184,1428733,1745091592414,0.0,199.72,12.65,-0.05,0.06,1.01,0.0,0.0,0.0,1.02,1.42,72.0,3731.0,15.5,3.86,15.0,13.15,1.253,100.6,153.0,37.2,5.0,0.0,0.0,0.0,0.0,0.0,0.0,0.0,0.0,2.26,0.0,0.0,0,0,0,0,0,0,0,0,0,0,0,0,0,0,0,0,0.0,0.0,0.0,0.0,0.0,39.239891,-77.96566,0.0,33.0,3.0,0.8
185,1428753,1745091592434,,,,,,,,,,,,,,,,,,,,,,,,,,,,,,,,,,0,0,0,0,0,0,0,0,0,0,0,0,0,0,0,0,,,,,,,,,,,
186,1428773,1745091592454,0.0,199.72,,-0.05,0.06,1.04,0.0,0.0,0.0,1.04,1.42,73.0,3731.0,15.5,3.86,,13.21,1.252,100.6,,37.0,5.0,,,,,,,,,,,,0,0,0,0,0,0,0,0,0,0,0,0,0,0,0,0,,,,,0.0,,,,,,
187,1428793,1745091592474,,,,,,,,,,,,,,,,,,,,,,,,,,,,,,,,,,0,0,0,0,0,0,0,0,0,0,0,0,0,0,0,0,,,,,,,,,,,
188,1428813,1745091592493,0.0,199.72,,-0.04,0.07,1.03,0.0,0.0,0.0,1.03,1.42,73.0,3821.0,15.6,3.87,,13.15,1.252,100.6,,37.0,5.0,,,,,,,,,,,,0,0,0,0,0,0,0,0,0,0,0,0,0,0,0,0,,,,,0.0,,,,,,
189,1428833,1745091592513,,,,,,,,,,,,,,,,,,,,,,,0.0,0.0,0.0,0.0,0.0,0.0,0.0,0.0,2.26,,,0,0,0,0,0,0,0,0,0,0,0,0,0,0,0,0,0.0,,,,,39.239891,-77.96566,0.07,33.0,3.0,0.8
190,1428853,1745091592533,0.0,199.72,,-0.02,0.05,1.02,0.0,0.0,0.0,1.02,1.42,72.0,3741.0,15.6,3.88,,13.13,1.25,100.6,,37.0,5.0,,,,,,,,,,,,0,0,0,0,0,0,0,0,0,0,0,0,0,0,0,0,,,,,0.0,,,,,,
191,1428873,1745091592553,,,,,,,,,,,,,,,,,,,,,,,,,,,,,,,,,,0,0,0,0,0,0,0,0,0,0,0,0,0,0,0,0,,,,,,,,,,,
192,1428893,1745091592573,0.0,199.72,,-0.02,0.05,1.02,0.0,0.0,0.0,1.02,1.42,72.0,3711.0,13.8,3.85,,13.13,1.249,100.6,,36.2,5.0,,,,,,,,,,,,0,0,0,0,0,0,0,0,0,0,0,0,0,0,0,0,,,,,0.0,,,,,,
193,1428913,1745091592594,,,,,,,,,,,,,,,,,,,,,,,,,,,,,,,,,,0,0,0,0,0,0,0,0,0,0,0,0,0,0,0,0,,,,,,,,,,,
194,1428933,1745091592614,0.0,199.72,,-0.01,0.05,1.02,0.0,0.0,0.0,1.02,1.42,72.0,3737.0,13.4,3.84,,13.13,1.249,100.6,,36.2,5.0,0.0,0.0,0.0,0.0,0.0,0.0,0.0,0.0,2.27,,,0,0,0,0,0,0,0,0,0,0,0,0,0,0,0,0,0.0,,,,0.0,39.239891,-77.96566,0.12,33.0,3.0,0.8
195,1428953,1745091592634,,,,,,,,,,,,,,,,,,,,,,,,,,,,,,,,,,0,0,0,0,0,0,0,0,0,0,0,0,0,0,0,0,,,,,,,,,,,
196,1428973,1745091592654,0.0,199.85,,-0.02,0.07,0.99,0.0,0.0,0.0,0.99,1.42,70.0,3737.0,13.4,3.84,,13.07,1.249,100.6,,36.3,5.0,,,,,,,,,,,,0,0,0,0,0,0,0,0,0,0,0,0,0,0,0,0,,,,,0.0,,,,,,
197,1428993,1745091592674,,,,,,,,,,,,,,,,,,,,,,,,,,,,,,,,,,0,0,0,0,0,0,0,0,0,0,0,0,0,0,0,0,,,,,,,,,,,
198,1429013,1745091592694,0.0,199.85,,-0.04,0.08,0.97,1.0,0.0,0.0,0.98,1.42,69.0,3674.0,13.4,3.84,,13.11,1.25,100.6,,36.3,5.0,,,,,,,,,,,,0,0,0,0,0,0,0,0,0,0,0,0,0,0,0,0,,,,,0.0,,,,,,
199,1429033,1745091592714,,,,,,,,,,,,,,,,,,,,,,,0.0,0.0,0.0,0.0,0.0,0.0,0.0,0.0,2.27,,,0,0,0,0,0,0,0,0,0,0,0,0,0,0,0,0,0.0,,,,,39.239891,-77.96566,0.04,33.0,3.0,0.8
200,1429053,1745091592734,0.0,199.85,,-0.05,0.06,0.97,1.0,0.0,0.0,0.98,1.42,69.0,3732.0,13.4,3.84,,13.04,1.25,100.6,,36.3,5.0,,,,,,,,,,,,0,0,0,0,0,0,0,0,0,0,0,0,0,0,0,0,,,,,0.0,,,,,,
201,1429073,1745091592754,,,,,,,,,,,,,,,,,,,,,,,,,,,,,,,,,,0,0,0,0,0,0,0,0,0,0,0,0,0,0,0,0,,,,,,,,,,,
202,1429093,1745091592774,0.0,199.72,,-0.04,0.02,0.96,1.0,0.0,0.0,0.97,1.42,68.0,3668.0,13.4,3.83,,13.04,1.25,100.6,,36.5,5.0,,,,,,,,,,,,0,0,0,0,0,0,0,0,0,0,0,0,0,0,0,0,,,,,0.0,,,,,,
203,1429113,1745091592794,,,,,,,,,,,,,,,,,,,,,,,,,,,,,,,,,,0,0,0,0,0,0,0,0,0,0,0,0,0,0,0,0,,,,,,,,,,,
204,1429133,1745091592814,0.0,199.72,,-0.04,0.0,0.95,1.0,0.0,0.0,0.95,1.42,67.0,3782.0,13.4,3.83,,13.04,1.25,100.6,,36.5,5.0,0.0,0.0,0.0,0.0,0.0,0.0,0.0,0.0,2.27,,,0,0,0,0,0,0,0,0,0,0,0,0,0,0,0,0,0.0,,,,0.0,39.239891,-77.96566,0.11,33.0,3.0,0.8
205,1429153,1745091592834,,,,,,,,,,,,,,,,,,,,,,,,,,,,,,,,,,0,0,0,0,0,0,0,0,0,0,0,0,0,0,0,0,,,,,,,,,,,
206,1429173,1745091592854,0.0,199.72,,-0.06,-0.06,0.96,0.0,0.0,0.0,0.96,1.42,68.0,3782.0,13.4,3.83,,12.96,1.252,100.6,,37.2,5.0,,,,,,,,,,,,0,0,0,0,0,0,0,0,0,0,0,0,0,0,0,0,,,,,0.0,,,,,,
207,1429193,1745091592874,,,,,,,,,,,,,,,,,,,,,,,,,,,,,,,,,,0,0,0,0,0,0,0,0,0,0,0,0,0,0,0,0,,,,,,,,,,,
208,1429213,1745091592894,0.0,199.72,,-0.06,-0.03,0.97,0.0,0.0,0.0,0.97,1.42,69.0,3765.0,13.5,3.83,,13.04,1.253,100.6,,37.2,5.0,,,,,,,,,,,,0,0,0,0,0,0,0,0,0,0,0,0,0,0,0,0,,,,,0.0,,,,,,
209,1429233,1745091592914,,,,,,,,,,,,,,,,,,,,,,,0.0,0.0,0.0,0.0,0.0,0.0,0.0,0.0,2.26,,,0,0,0,0,0,0,0,0,0,0,0,0,0,0,0,0,0.0,,,,,39.239891,-77.96566,0.0,33.0,3.0,0.8
210,1429253,1745091592934,0.0,199.72,,-0.05,0.01,0.99,0.0,0.0,0.0,0.99,1.42,69.0,3832.0,13.5,3.82,,13.0,1.253,100.6,,37.2,5.0,,,,,,,,,,,,0,0,0,0,0,0,0,0,0,0,0,0,0,0,0,0,,,,,0.0,,,,,,
211,1429273,1745091592954,,,,,,,,,,,,,,,,,,,,,,,,,,,,,,,,,,0,0,0,0,0,0,0,0,0,0,0,0,0,0,0,0,,,,,,,,,,,
212,1429293,1745091592974,0.0,199.85,,-0.04,0.06,1.0,0.0,0.0,0.0,1.0,1.42,70.0,3871.0,13.5,3.81,,12.96,1.252,100.6,,37.6,5.0,,,,,,,,,,,,0,0,0,0,0,0,0,0,0,0,0,0,0,0,0,0,,,,,0.0,,,,,,
213,1429313,1745091592994,,,,,,,,,,,,,,,,,,,,,,,,,,,,,,,,,,0,0,0,0,0,0,0,0,0,0,0,0,0,0,0,0,,,,,,,,,,,
214,1429333,1745091593005,0.0,199.85,,-0.04,0.03,1.01,0.0,0.0,0.0,1.01,1.42,71.0,3855.0,13.5,3.81,,12.96,1.252,100.6,,37.6,5.0,0.0,0.0,0.0,0.0,0.0,0.0,0.0,0.0,2.27,,,0,0,0,0,0,0,0,0,0,0,0,0,0,0,0,0,0.0,,,,0.0,39.239891,-77.96566,0.05,33.0,3.0,0.8
215,1429353,1745091593025,,,,,,,,,,,,,,,,,,,,,,,,,,,,,,,,,,0,0,0,0,0,0,0,0,0,0,0,0,0,0,0,0,,,,,,,,,,,
216,1429373,1745091593045,0.0,199.72,,-0.06,-0.03,0.99,0.0,0.0,0.0,0.99,1.42,70.0,3855.0,13.5,3.81,,12.99,1.25,100.6,,37.8,5.0,,,,,,,,,,,,0,0,0,0,0,0,0,0,0,0,0,0,0,0,0,0,,,,,0.0,,,,,,
217,1429393,1745091593065,,,,,,,,,,,,,,,,,,,,,,,,,,,,,,,,,,0,0,0,0,0,0,0,0,0,0,0,0,0,0,0,0,,,,,,,,,,,
218,1429413,1745091593093,0.0,199.72,,-0.04,-0.06,0.92,1.0,0.0,0.0,0.93,1.42,65.0,3921.0,13.4,3.81,,13.01,1.25,100.6,,37.8,5.0,,,,,,,,,,,,0,0,0,0,0,0,0,0,0,0,0,0,0,0,0,0,,,,,0.0,,,,,,
219,1429433,1745091593113,,,,,,,,,,,,,,,,,,,,,,,0.0,0.0,0.0,0.0,0.0,0.0,0.0,0.0,2.26,,,0,0,0,0,0,0,0,0,0,0,0,0,0,0,0,0,0.0,,,,,39.239891,-77.96566,0.0,33.0,3.0,0.8
220,1429453,1745091593133,0.0,199.85,,-0.06,-0.02,0.99,0.0,0.0,0.0,1.0,1.42,70.0,4132.0,13.3,3.8,,12.87,1.25,100.6,,37.8,5.0,,,,,,,,,,,,0,0,0,0,0,0,0,0,0,0,0,0,0,0,0,0,,,,,0.0,,,,,,
221,1429473,1745091593153,,,,,,,,,,,,,,,,,,,,,,,,,,,,,,,,,,0,0,0,0,0,0,0,0,0,0,0,0,0,0,0,0,,,,,,,,,,,
222,1429493,1745091593173,0.0,199.85,,-0.05,-0.12,0.89,1.0,0.0,-1.0,0.9,1.42,63.0,4039.0,13.3,3.78,,12.87,1.25,100.6,,41.2,5.0,,,,,,,,,,,,0,0,0,0,0,0,0,0,0,0,0,0,0,0,0,0,,,,,0.0,,,,,,
223,1429513,1745091593193,,,,,,,,,,,,,,,,,,,,,,,,,,,,,,,,,,0,0,0,0,0,0,0,0,0,0,0,0,0,0,0,0,,,,,,,,,,,
224,1429533,1745091593213,0.0,199.85,,-0.05,-0.02,0.97,0.0,0.0,0.0,0.97,1.42,68.0,4070.0,13.3,3.8,,12.87,1.25,100.6,,41.2,5.0,0.0,0.0,0.0,0.0,0.0,0.0,0.0,0.0,2.27,,,0,0,0,0,0,0,0,0,0,0,0,0,0,0,0,0,0.0,,,,0.0,39.239891,-77.96566,0.05,33.0,3.0,0.8
225,1429553,1745091593233,,,,,,,,,,,,,,,,,,,,,,,,,,,,,,,,,,0,0,0,0,0,0,0,0,0,0,0,0,0,0,0,0,,,,,,,,,,,
226,1429573,1745091593253,0.0,199.72,,-0.05,-0.09,0.92,0.0,0.0,0.0,0.93,1.42,65.0,4070.0,13.3,3.8,,12.81,1.214,100.6,,40.2,5.0,,,,,,,,,,,,0,0,0,0,0,0,0,0,0,0,0,0,0,0,0,0,,,,,0.0,,,,,,
227,1429593,1745091593273,,,,,,,,,,,,,,,,,,,,,,,,,,,,,,,,,,0,0,0,0,0,0,0,0,0,0,0,0,0,0,0,0,,,,,,,,,,,
228,1429613,1745091593293,0.0,199.72,,-0.02,-0.04,0.91,1.0,0.0,-1.0,0.91,1.42,64.0,4021.0,13.2,3.8,,12.83,1.239,100.6,,40.2,5.0,,,,,,,,,,,,0,0,0,0,0,0,0,0,0,0,0,0,0,0,0,0,,,,,0.0,,,,,,
229,1429633,1745091593313,,,,,,,,,,,,,,,,,,,,,,,0.0,0.0,0.0,0.0,0.0,0.0,0.0,0.0,2.27,,,0,0,0,0,0,0,0,0,0,0,0,0,0,0,0,0,0.0,,,,,39.239891,-77.96566,0.05,33.0,3.0,0.8
230,1429653,1745091593333,0.0,199.72,,-0.02,0.04,0.96,0.0,0.0,0.0,0.97,1.42,68.0,3980.0,13.2,3.8,,12.89,1.252,100.6,,40.2,5.0,,,,,,,,,,,,0,0,0,0,0,0,0,0,0,0,0,0,0,0,0,0,,,,,0.0,,,,,,
231,1429673,1745091593353,,,,,,,,,,,,,,,,,,,,,,,,,,,,,,,,,,0,0,0,0,0,0,0,0,0,0,0,0,0,0,0,0,,,,,,,,,,,
232,1429693,1745091593373,0.0,199.72,,-0.03,-0.03,0.94,0.0,0.0,0.0,0.94,1.42,67.0,3981.0,13.3,3.81,,12.88,1.253,100.6,,39.0,5.0,,,,,,,,,,,,0,0,0,0,0,0,0,0,0,0,0,0,0,0,0,0,,,,,0.0,,,,,,
233,1429713,1745091593393,,,,,,,,,,,,,,,,,,,,,,,,,,,,,,,,,,0,0,0,0,0,0,0,0,0,0,0,0,0,0,0,0,,,,,,,,,,,
234,1429733,1745091593413,0.0,199.72,12.7,-0.03,-0.07,0.9,1.0,-1.0,-1.0,0.9,1.42,63.0,3958.0,13.3,3.8,15.0,12.88,1.253,100.6,149.0,39.0,5.0,0.0,0.0,0.0,0.0,0.0,0.0,0.0,0.0,2.26,0.0,0.0,0,0,0,0,0,0,0,0,0,0,0,0,0,0,0,0,0.0,0.0,0.0,0.0,0.0,39.239891,-77.96566,0.07,33.0,3.0,0.8
235,1429753,1745091593433,,,,,,,,,,,,,,,,,,,,,,,,,,,,,,,,,,0,0,0,0,0,0,0,0,0,0,0,0,0,0,0,0,,,,,,,,,,,
236,1429773,1745091593453,0.0,199.72,,-0.02,-0.04,0.93,1.0,-1.0,-1.0,0.93,1.42,65.0,3958.0,13.3,3.8,,12.95,1.254,100.6,,39.0,5.0,,,,,,,,,,,,0,0,0,0,0,0,0,0,0,0,0,0,0,0,0,0,,,,,0.0,,,,,,
237,1429793,1745091593473,,,,,,,,,,,,,,,,,,,,,,,,,,,,,,,,,,0,0,0,0,0,0,0,0,0,0,0,0,0,0,0,0,,,,,,,,,,,
238,1429813,1745091593493,0.0,199.72,,-0.03,-0.05,0.98,0.0,0.0,0.0,0.98,1.42,69.0,3909.0,13.3,3.8,,12.92,1.252,100.6,,39.0,5.0,,,,,,,,,,,,0,0,0,0,0,0,0,0,0,0,0,0,0,0,0,0,,,,,0.0,,,,,,
239,1429833,1745091593513,,,,,,,,,,,,,,,,,,,,,,,0.0,0.0,0.0,0.0,0.0,0.0,0.0,0.0,2.27,,,0,0,0,0,0,0,0,0,0,0,0,0,0,0,0,0,0.0,,,,,39.239891,-77.96566,0.1,33.0,3.0,0.8
240,1429853,1745091593533,0.0,199.6,,-0.05,-0.14,0.9,1.0,0.0,-1.0,0.91,1.42,64.0,4008.0,13.4,3.8,,12.85,1.25,100.6,,39.0,5.0,,,,,,,,,,,,0,0,0,0,0,0,0,0,0,0,0,0,0,0,0,0,,,,,0.0,,,,,,
241,1429873,1745091593553,,,,,,,,,,,,,,,,,,,,,,,,,,,,,,,,,,0,0,0,0,0,0,0,0,0,0,0,0,0,0,0,0,,,,,,,,,,,
242,1429893,1745091593573,0.0,199.6,,-0.04,-0.1,0.88,1.0,0.0,-1.0,0.89,1.42,63.0,3983.0,13.2,3.8,,12.92,1.251,100.6,,39.4,5.0,,,,,,,,,,,,0,0,0,0,0,0,0,0,0,0,0,0,0,0,0,0,,,,,0.0,,,,,,
243,1429913,1745091593593,,,,,,,,,,,,,,,,,,,,,,,,,,,,,,,,,,0,0,0,0,0,0,0,0,0,0,0,0,0,0,0,0,,,,,,,,,,,
244,1429933,1745091593613,0.0,199.72,,-0.05,0.0,0.95,0.0,0.0,0.0,0.95,1.42,67.0,3945.0,13.1,3.8,,12.92,1.251,100.6,,39.4,5.0,0.0,0.0,0.0,0.0,0.0,0.0,0.0,0.0,2.27,,,0,0,0,0,0,0,0,0,0,0,0,0,0,0,0,0,0.0,,,,0.0,39.239891,-77.96566,0.0,33.0,3.0,0.8
245,1429953,1745091593633,,,,,,,,,,,,,,,,,,,,,,,,,,,,,,,,,,0,0,0,0,0,0,0,0,0,0,0,0,0,0,0,0,,,,,,,,,,,
246,1429973,1745091593653,0.0,199.72,,-0.07,-0.04,0.96,0.0,0.0,0.0,0.96,1.42,68.0,3945.0,13.1,3.8,,12.85,1.25,100.6,,38.9,5.0,,,,,,,,,,,,0,0,0,0,0,0,0,0,0,0,0,0,0,0,0,0,,,,,0.0,,,,,,
247,1429993,1745091593673,,,,,,,,,,,,,,,,,,,,,,,,,,,,,,,,,,0,0,0,0,0,0,0,0,0,0,0,0,0,0,0,0,,,,,,,,,,,
248,1430013,1745091593695,0.0,199.6,,-0.07,-0.09,0.87,1.0,0.0,-1.0,0.88,1.42,62.0,3966.0,13.2,3.81,,12.88,1.25,100.6,,38.9,5.0,,,,,,,,,,,,0,0,0,0,0,0,0,0,0,0,0,0,0,0,0,0,,,,,0.0,,,,,,
249,1430033,1745091593715,,,,,,,,,,,,,,,,,,,,,,,0.0,0.0,0.0,0.0,0.0,0.0,0.0,0.0,2.27,,,0,0,0,0,0,0,0,0,0,0,0,0,0,0,0,0,0.0,,,,,39.239891,-77.96566,0.0,33.0,3.0,0.8
250,1430053,1745091593735,0.0,199.6,,-0.08,0.03,0.96,0.0,0.0,0.0,0.96,1.42,68.0,4089.0,13.2,3.8,,12.89,1.249,100.6,,38.9,5.0,,,,,,,,,,,,0,0,0,0,0,0,0,0,0,0,0,0,0,0,0,0,,,,,0.0,,,,,,
251,1430073,1745091593755,,,,,,,,,,,,,,,,,,,,,,,,,,,,,,,,,,0,0,0,0,0,0,0,0,0,0,0,0,0,0,0,0,,,,,,,,,,,
252,1430093,1745091593775,0.0,199.6,,-0.08,-0.09,0.87,0.0,0.0,0.0,0.88,1.42,62.0,4046.0,13.1,3.79,,12.89,1.251,100.6,,40.3,5.0,,,,,,,,,,,,0,0,0,0,0,0,0,0,0,0,0,0,0,0,0,0,,,,,0.0,,,,,,
253,1430113,1745091593795,,,,,,,,,,,,,,,,,,,,,,,,,,,,,,,,,,0,0,0,0,0,0,0,0,0,0,0,0,0,0,0,0,,,,,,,,,,,
254,1430133,1745091593815,0.0,199.6,,-0.07,-0.02,0.91,0.0,-1.0,0.0,0.92,1.42,65.0,4097.0,13.1,3.8,,12.89,1.251,100.6,,40.3,5.0,0.0,0.0,0.0,0.0,0.0,0.0,0.0,0.0,2.27,,,0,0,0,0,0,0,0,0,0,0,0,0,0,0,0,0,0.0,,,,0.0,39.239891,-77.96566,0.04,33.0,3.0,0.8
255,1430153,1745091593835,,,,,,,,,,,,,,,,,,,,,,,,,,,,,,,,,,0,0,0,0,0,0,0,0,0,0,0,0,0,0,0,0,,,,,,,,,,,
256,1430173,1745091593855,0.0,199.6,,-0.08,-0.07,0.92,0.0,0.0,0.0,0.92,1.42,65.0,4097.0,13.1,3.8,,12.83,1.252,100.6,,40.6,5.0,,,,,,,,,,,,0,0,0,0,0,0,0,0,0,0,0,0,0,0,0,0,,,,,0.0,,,,,,
257,1430193,1745091593875,,,,,,,,,,,,,,,,,,,,,,,,,,,,,,,,,,0,0,0,0,0,0,0,0,0,0,0,0,0,0,0,0,,,,,,,,,,,
258,1430213,1745091593895,0.0,199.47,,-0.06,-0.1,0.86,1.0,-1.0,-1.0,0.87,1.42,61.0,4036.0,13.2,3.8,,12.84,1.252,100.6,,40.6,5.0,,,,,,,,,,,,0,0,0,0,0,0,0,0,0,0,0,0,0,0,0,0,,,,,0.0,,,,,,
259,1430233,1745091593915,,,,,,,,,,,,,,,,,,,,,,,0.0,0.0,0.0,0.0,0.0,0.0,0.0,0.0,2.27,,,0,0,0,0,0,0,0,0,0,0,0,0,0,0,0,0,0.0,,,,,39.239891,-77.96566,0.0,33.0,3.0,0.8
260,1430253,1745091593935,0.0,199.47,,-0.05,0.01,0.95,1.0,-1.0,0.0,0.95,1.42,67.0,3992.0,13.3,3.79,,12.95,1.253,100.6,,40.6,5.0,,,,,,,,,,,,0,0,0,0,0,0,0,0,0,0,0,0,0,0,0,0,,,,,0.0,,,,,,
261,1430273,1745091593955,,,,,,,,,,,,,,,,,,,,,,,,,,,,,,,,,,0,0,0,0,0,0,0,0,0,0,0,0,0,0,0,0,,,,,,,,,,,
262,1430293,1745091593975,0.0,199.6,,-0.05,-0.06,0.91,0.0,-1.0,0.0,0.91,1.42,64.0,4042.0,13.2,3.8,,12.85,1.252,100.6,,39.6,5.0,,,,,,,,,,,,0,0,0,0,0,0,0,0,0,0,0,0,0,0,0,0,,,,,0.0,,,,,,
263,1430313,1745091593995,,,,,,,,,,,,,,,,,,,,,,,,,,,,,,,,,,0,0,0,0,0,0,0,0,0,0,0,0,0,0,0,0,,,,,,,,,,,
264,1430333,1745091594006,0.0,199.6,,-0.03,-0.03,0.9,1.0,-1.0,-1.0,0.9,1.42,63.0,4024.0,13.3,3.8,,12.85,1.252,100.6,,39.6,5.0,0.0,0.0,0.0,0.0,0.0,0.0,0.0,0.0,2.26,,,0,0,0,0,0,0,0,0,0,0,0,0,0,0,0,0,0.0,,,,0.0,39.239891,-77.96566,0.0,33.0,3.0,0.8
265,1430353,1745091594026,,,,,,,,,,,,,,,,,,,,,,,,,,,,,,,,,,0,0,0,0,0,0,0,0,0,0,0,0,0,0,0,0,,,,,,,,,,,
266,1430373,1745091594046,0.0,199.47,,-0.02,0.06,0.97,0.0,-1.0,0.0,0.97,1.42,68.0,4024.0,13.3,3.8,,12.88,1.25,100.6,,39.8,5.0,,,,,,,,,,,,0,0,0,0,0,0,0,0,0,0,0,0,0,0,0,0,,,,,0.0,,,,,,
267,1430393,1745091594066,,,,,,,,,,,,,,,,,,,,,,,,,,,,,,,,,,0,0,0,0,0,0,0,0,0,0,0,0,0,0,0,0,,,,,,,,,,,
268,1430413,1745091594086,0.0,199.47,,-0.03,-0.0,0.94,0.0,0.0,0.0,0.94,1.42,66.0,3935.0,13.3,3.8,,12.92,1.251,100.6,,39.8,5.0,,,,,,,,,,,,0,0,0,0,0,0,0,0,0,0,0,0,0,0,0,0,,,,,0.0,,,,,,
269,1430433,1745091594108,,,,,,,,,,,,,,,,,,,,,,,0.0,0.0,0.0,0.0,0.0,0.0,0.0,0.0,2.27,,,0,0,0,0,0,0,0,0,0,0,0,0,0,0,0,0,0.0,,,,,39.239891,-77.96566,0.05,33.0,3.0,0.8
270,1430453,1745091594128,0.0,199.6,,-0.02,-0.05,0.9,1.0,0.0,-1.0,0.9,1.42,63.0,4005.0,10.1,3.76,,12.72,1.25,100.6,,39.8,5.0,,,,,,,,,,,,0,0,0,0,0,0,0,0,0,0,0,0,0,0,0,0,,,,,0.0,,,,,,
271,1430473,1745091594148,,,,,,,,,,,,,,,,,,,,,,,,,,,,,,,,,,0,0,0,0,0,0,0,0,0,0,0,0,0,0,0,0,,,,,,,,,,,
272,1430493,1745091594168,0.0,199.47,,-0.01,0.01,0.93,1.0,-1.0,-1.0,0.93,1.42,66.0,3943.0,9.5,3.7,,12.6,1.25,100.6,,39.3,5.0,,,,,,,,,,,,0,0,0,0,0,0,0,0,0,0,0,0,0,0,0,0,,,,,0.0,,,,,,
273,1430513,1745091594188,,,,,,,,,,,,,,,,,,,,,,,,,,,,,,,,,,0,0,0,0,0,0,0,0,0,0,0,0,0,0,0,0,,,,,,,,,,,
274,1430533,1745091594208,0.0,199.6,,-0.02,0.0,0.98,1.0,0.0,0.0,0.98,1.42,69.0,3895.0,9.3,3.7,,12.6,1.25,98.8,,39.3,5.0,0.0,0.0,0.0,0.0,0.0,0.0,0.0,0.0,2.27,,,0,0,0,0,0,0,0,0,0,0,0,0,0,0,0,0,0.0,,,,0.0,39.239891,-77.96566,0.05,33.0,3.0,0.8
275,1430553,1745091594228,,,,,,,,,,,,,,,,,,,,,,,,,,,,,,,,,,0,0,0,0,0,0,0,0,0,0,0,0,0,0,0,0,,,,,,,,,,,
276,1430573,1745091594248,0.0,199.6,,-0.04,-0.04,0.99,0.0,0.0,0.0,0.99,1.42,70.0,3895.0,9.3,3.7,,12.57,1.25,98.8,,38.9,5.0,,,,,,,,,,,,0,0,0,0,0,0,0,0,0,0,0,0,0,0,0,0,,,,,0.0,,,,,,
277,1430593,1745091594268,,,,,,,,,,,,,,,,,,,,,,,,,,,,,,,,,,0,0,0,0,0,0,0,0,0,0,0,0,0,0,0,0,,,,,,,,,,,
278,1430613,1745091594292,0.0,199.6,,-0.06,-0.08,0.95,1.0,0.0,-1.0,0.96,1.42,67.0,3922.0,9.2,3.69,,12.49,1.251,98.8,,38.9,5.0,,,,,,,,,,,,0,0,0,0,0,0,0,0,0,0,0,0,0,0,0,0,,,,,0.0,,,,,,
279,1430633,1745091594312,,,,,,,,,,,,,,,,,,,,,,,0.0,0.0,0.0,0.0,0.0,0.0,0.0,0.0,2.27,,,0,0,0,0,0,0,0,0,0,0,0,0,0,0,0,0,0.0,,,,,39.239891,-77.96566,0.0,33.0,3.0,0.8
280,1430653,1745091594332,0.0,199.6,,-0.06,-0.09,0.96,1.0,0.0,-1.0,0.96,1.42,68.0,3842.0,9.2,3.68,,12.56,1.252,98.8,,38.9,5.0,,,,,,,,,,,,0,0,0,0,0,0,0,0,0,0,0,0,0,0,0,0,,,,,0.0,,,,,,
281,1430673,1745091594352,,,,,,,,,,,,,,,,,,,,,,,,,,,,,,,,,,0,0,0,0,0,0,0,0,0,0,0,0,0,0,0,0,,,,,,,,,,,
282,1430693,1745091594372,0.0,199.6,,-0.05,-0.07,0.97,1.0,0.0,0.0,0.97,1.42,68.0,3795.0,9.2,3.69,,12.53,1.253,98.8,,37.8,5.0,,,,,,,,,,,,0,0,0,0,0,0,0,0,0,0,0,0,0,0,0,0,,,,,0.0,,,,,,
283,1430713,1745091594394,,,,,,,,,,,,,,,,,,,,,,,,,,,,,,,,,,0,0,0,0,0,0,0,0,0,0,0,0,0,0,0,0,,,,,,,,,,,
284,1430733,1745091594414,0.0,199.47,12.73,-0.04,-0.06,0.96,1.0,0.0,0.0,0.97,1.42,68.0,3822.0,9.2,3.69,15.0,12.53,1.253,98.8,147.0,37.8,5.0,0.0,0.0,0.0,0.0,0.0,0.0,0.0,0.0,2.26,0.0,0.0,0,0,0,0,0,0,0,0,0,0,0,0,0,0,0,0,0.0,0.0,0.0,0.0,0.0,39.239891,-77.96566,0.07,33.0,3.0,0.8
285,1430753,1745091594434,,,,,,,,,,,,,,,,,,,,,,,,,,,,,,,,,,0,0,0,0,0,0,0,0,0,0,0,0,0,0,0,0,,,,,,,,,,,
286,1430773,1745091594454,0.0,199.47,,-0.03,-0.07,0.96,1.0,0.0,-1.0,0.96,1.42,68.0,3822.0,9.2,3.69,,12.52,1.253,98.8,,37.2,5.0,,,,,,,,,,,,0,0,0,0,0,0,0,0,0,0,0,0,0,0,0,0,,,,,0.0,,,,,,
287,1430793,1745091594474,,,,,,,,,,,,,,,,,,,,,,,,,,,,,,,,,,0,0,0,0,0,0,0,0,0,0,0,0,0,0,0,0,,,,,,,,,,,
288,1430813,1745091594494,0.0,199.47,,-0.04,-0.03,0.97,1.0,0.0,0.0,0.97,1.42,68.0,3773.0,9.2,3.68,,12.51,1.252,98.8,,37.2,5.0,,,,,,,,,,,,0,0,0,0,0,0,0,0,0,0,0,0,0,0,0,0,,,,,0.0,,,,,,
289,1430833,1745091594514,,,,,,,,,,,,,,,,,,,,,,,0.0,0.0,0.0,0.0,0.0,0.0,0.0,0.0,2.27,,,0,0,0,0,0,0,0,0,0,0,0,0,0,0,0,0,0.0,,,,,39.239891,-77.96566,0.07,33.0,3.0,0.8
290,1430853,1745091594534,0.0,199.47,,-0.05,-0.01,0.98,1.0,0.0,0.0,0.98,1.42,69.0,3841.0,9.1,3.3,,12.53,1.251,98.8,,37.2,5.0,,,,,,,,,,,,0,0,0,0,0,0,0,0,0,0,0,0,0,0,0,0,,,,,0.0,,,,,,
291,1430873,1745091594554,,,,,,,,,,,,,,,,,,,,,,,,,,,,,,,,,,0,0,0,0,0,0,0,0,0,0,0,0,0,0,0,0,,,,,,,,,,,
292,1430893,1745091594574,0.0,199.35,,-0.06,0.0,0.98,1.0,0.0,0.0,0.98,1.42,69.0,3713.0,8.9,3.7,,12.65,1.251,98.8,,36.7,5.0,,,,,,,,,,,,0,0,0,0,0,0,0,0,0,0,0,0,0,0,0,0,,,,,0.0,,,,,,
293,1430913,1745091594594,,,,,,,,,,,,,,,,,,,,,,,,,,,,,,,,,,0,0,0,0,0,0,0,0,0,0,0,0,0,0,0,0,,,,,,,,,,,
294,1430933,1745091594614,0.0,199.47,,-0.07,-0.08,0.95,1.0,0.0,-1.0,0.96,1.42,67.0,3659.0,8.7,3.71,,12.65,1.251,98.8,,36.7,5.0,0.0,0.0,0.0,0.0,0.0,0.0,0.0,0.0,2.27,,,0,0,0,0,0,0,0,0,0,0,0,0,0,0,0,0,0.0,,,,0.0,39.239891,-77.96566,0.04,33.0,3.0,0.8
295,1430953,1745091594634,,,,,,,,,,,,,,,,,,,,,,,,,,,,,,,,,,0,0,0,0,0,0,0,0,0,0,0,0,0,0,0,0,,,,,,,,,,,
296,1430973,1745091594654,0.0,199.47,,-0.07,-0.07,1.0,1.0,0.0,-1.0,1.0,1.42,71.0,3659.0,8.7,3.71,,12.61,1.192,98.8,,35.4,5.0,,,,,,,,,,,,0,0,0,0,0,0,0,0,0,0,0,0,0,0,0,0,,,,,0.0,,,,,,
297,1430993,1745091594674,,,,,,,,,,,,,,,,,,,,,,,,,,,,,,,,,,0,0,0,0,0,0,0,0,0,0,0,0,0,0,0,0,,,,,,,,,,,
298,1431013,1745091594694,0.0,199.47,,-0.05,-0.02,1.0,1.0,0.0,0.0,1.0,1.42,71.0,3577.0,8.7,3.69,,12.72,1.107,98.8,,35.4,5.0,,,,,,,,,,,,0,0,0,0,0,0,0,0,0,0,0,0,0,0,0,0,,,,,0.0,,,,,,
299,1431033,1745091594714,,,,,,,,,,,,,,,,,,,,,,,0.0,0.0,0.0,0.0,0.0,0.0,0.0,0.0,2.27,,,0,0,0,0,0,0,0,0,0,0,0,0,0,0,0,0,0.0,,,,,39.239891,-77.96566,0.55,33.0,3.0,0.8
300,1431053,1745091594734,0.0,199.47,,-0.05,-0.04,0.95,1.0,0.0,-1.0,0.95,1.42,67.0,3500.0,8.7,3.7,,12.83,1.065,98.8,,35.4,5.0,,,,,,,,,,,,0,0,0,0,0,0,0,0,0,0,0,0,0,0,0,0,,,,,0.0,,,,,,
301,1431073,1745091594754,,,,,,,,,,,,,,,,,,,,,,,,,,,,,,,,,,0,0,0,0,0,0,0,0,0,0,0,0,0,0,0,0,,,,,,,,,,,
302,1431093,1745091594774,0.0,199.47,,-0.06,-0.07,0.99,1.0,0.0,0.0,1.0,1.42,70.0,3474.0,8.6,3.71,,12.91,1.055,98.8,,33.7,5.0,,,,,,,,,,,,0,0,0,0,0,0,0,0,0,0,0,0,0,0,0,0,,,,,0.0,,,,,,
303,1431113,1745091594794,,,,,,,,,,,,,,,,,,,,,,,,,,,,,,,,,,0,0,0,0,0,0,0,0,0,0,0,0,0,0,0,0,,,,,,,,,,,
304,1431133,1745091594814,0.0,199.47,,-0.05,0.03,0.98,0.0,0.0,0.0,0.99,1.42,69.0,3497.0,8.6,3.71,,12.91,1.055,98.8,,33.7,5.0,0.0,0.0,0.0,0.0,0.0,0.0,0.0,0.0,2.27,,,0,0,0,0,0,0,0,0,0,0,0,0,0,0,0,0,0.0,,,,0.0,39.239891,-77.96566,0.35,33.0,3.0,0.8
305,1431153,1745091594834,,,,,,,,,,,,,,,,,,,,,,,,,,,,,,,,,,0,0,0,0,0,0,0,0,0,0,0,0,0,0,0,0,,,,,,,,,,,
306,1431173,1745091594854,0.0,199.47,,-0.06,0.01,0.93,1.0,0.0,-1.0,0.94,1.42,66.0,3497.0,8.6,3.71,,12.88,1.093,98.8,,33.6,5.0,,,,,,,,,,,,0,0,0,0,0,0,0,0,0,0,0,0,0,0,0,0,,,,,0.0,,,,,,
307,1431193,1745091594874,,,,,,,,,,,,,,,,,,,,,,,,,,,,,,,,,,0,0,0,0,0,0,0,0,0,0,0,0,0,0,0,0,,,,,,,,,,,
308,1431213,1745091594894,0.0,199.35,,-0.05,0.05,1.01,0.0,0.0,0.0,1.01,1.42,71.0,3445.0,8.7,3.71,,12.87,1.153,98.8,,33.6,5.0,,,,,,,,,,,,0,0,0,0,0,0,0,0,0,0,0,0,0,0,0,0,,,,,0.0,,,,,,
309,1431233,1745091594914,,,,,,,,,,,,,,,,,,,,,,,0.0,0.0,0.0,0.0,0.0,0.0,0.0,0.0,2.27,,,0,0,0,0,0,0,0,0,0,0,0,0,0,0,0,0,0.0,,,,,39.239891,-77.96566,0.13,33.0,3.0,0.8
310,1431253,1745091594934,0.0,199.47,,-0.03,0.08,0.94,0.0,-1.0,0.0,0.94,1.42,66.0,3499.0,8.8,3.32,,12.87,1.201,98.8,,33.6,5.0,,,,,,,,,,,,0,0,0,0,0,0,0,0,0,0,0,0,0,0,0,0,,,,,0.0,,,,,,
311,1431273,1745091594954,,,,,,,,,,,,,,,,,,,,,,,,,,,,,,,,,,0,0,0,0,0,0,0,0,0,0,0,0,0,0,0,0,,,,,,,,,,,
312,1431293,1745091594974,0.0,199.47,,-0.04,0.04,1.01,0.0,0.0,0.0,1.02,1.42,71.0,3337.0,8.9,3.71,,12.91,1.248,98.8,,32.2,5.0,,,,,,,,,,,,0,0,0,0,0,0,0,0,0,0,0,0,0,0,0,0,,,,,0.0,,,,,,
313,1431313,1745091594994,,,,,,,,,,,,,,,,,,,,,,,,,,,,,,,,,,0,0,0,0,0,0,0,0,0,0,0,0,0,0,0,0,,,,,,,,,,,
314,1431333,1745091595005,0.0,199.47,,-0.06,0.01,0.98,1.0,0.0,0.0,0.98,1.42,69.0,3211.0,8.9,3.72,,12.91,1.248,98.8,,32.2,5.0,0.0,0.0,0.0,0.0,0.0,0.0,0.0,0.0,2.26,,,0,0,0,0,0,0,0,0,0,0,0,0,0,0,0,0,0.0,,,,0.0,39.239891,-77.96566,0.23,33.0,3.0,0.8
315,1431353,1745091595025,,,,,,,,,,,,,,,,,,,,,,,,,,,,,,,,,,0,0,0,0,0,0,0,0,0,0,0,0,0,0,0,0,,,,,,,,,,,
316,1431373,1745091595045,0.0,199.6,,-0.03,0.09,0.96,0.0,-1.0,0.0,0.96,1.42,68.0,3211.0,8.9,3.72,,13.01,1.251,98.8,,30.8,5.0,,,,,,,,,,,,0,0,0,0,0,0,0,0,0,0,0,0,0,0,0,0,,,,,0.0,,,,,,
317,1431393,1745091595065,,,,,,,,,,,,,,,,,,,,,,,,,,,,,,,,,,0,0,0,0,0,0,0,0,0,0,0,0,0,0,0,0,,,,,,,,,,,
318,1431413,1745091595085,0.0,199.47,,-0.02,0.04,1.01,0.0,0.0,0.0,1.01,1.42,71.0,3222.0,8.8,3.73,,12.99,1.251,98.8,,30.8,5.0,,,,,,,,,,,,0,0,0,0,0,0,0,0,0,0,0,0,0,0,0,0,,,,,0.0,,,,,,
319,1431433,1745091595107,,,,,,,,,,,,,,,,,,,,,,,0.0,0.0,0.0,0.0,0.0,0.0,0.0,0.0,2.27,,,0,0,0,0,0,0,0,0,0,0,0,0,0,0,0,0,0.0,,,,,39.239891,-77.96566,0.16,33.0,3.0,0.8
320,1431453,1745091595127,0.0,199.6,,-0.04,-0.01,1.05,0.0,0.0,0.0,1.05,1.42,74.0,3209.0,8.8,3.74,,13.0,1.251,98.8,,30.8,5.0,,,,,,,,,,,,0,0,0,0,0,0,0,0,0,0,0,0,0,0,0,0,,,,,0.0,,,,,,
321,1431473,1745091595147,,,,,,,,,,,,,,,,,,,,,,,,,,,,,,,,,,0,0,0,0,0,0,0,0,0,0,0,0,0,0,0,0,,,,,,,,,,,
322,1431493,1745091595167,0.0,199.6,,-0.06,-0.05,1.02,0.0,0.0,0.0,1.03,1.42,72.0,3078.0,8.8,3.74,,13.05,1.25,98.8,,30.0,5.0,,,,,,,,,,,,0,0,0,0,0,0,0,0,0,0,0,0,0,0,0,0,,,,,0.0,,,,,,
323,1431513,1745091595191,,,,,,,,,,,,,,,,,,,,,,,,,,,,,,,,,,0,0,0,0,0,0,0,0,0,0,0,0,0,0,0,0,,,,,,,,,,,
324,1431533,1745091595211,0.0,199.47,,-0.06,0.02,0.94,1.0,0.0,-1.0,0.94,1.42,66.0,3183.0,8.8,3.74,,13.05,1.25,98.8,,30.0,5.0,0.0,0.0,0.0,0.0,0.0,0.0,0.0,0.0,2.27,,,0,0,0,0,0,0,0,0,0,0,0,0,0,0,0,0,0.0,,,,0.0,39.239891,-77.96566,0.11,33.0,3.0,0.8
325,1431553,1745091595231,,,,,,,,,,,,,,,,,,,,,,,,,,,,,,,,,,0,0,0,0,0,0,0,0,0,0,0,0,0,0,0,0,,,,,,,,,,,
326,1431573,1745091595251,0.0,199.47,,-0.04,0.08,0.94,0.0,0.0,0.0,0.94,1.42,66.0,3183.0,8.8,3.74,,13.07,1.25,98.8,,29.5,5.0,,,,,,,,,,,,0,0,0,0,0,0,0,0,0,0,0,0,0,0,0,0,,,,,0.0,,,,,,
327,1431593,1745091595271,,,,,,,,,,,,,,,,,,,,,,,,,,,,,,,,,,0,0,0,0,0,0,0,0,0,0,0,0,0,0,0,0,,,,,,,,,,,
328,1431613,1745091595293,0.0,199.47,,-0.04,0.04,1.0,0.0,0.0,0.0,1.01,1.42,71.0,3190.0,8.7,3.74,,13.07,1.251,98.8,,29.5,5.0,,,,,,,,,,,,0,0,0,0,0,0,0,0,0,0,0,0,0,0,0,0,,,,,0.0,,,,,,
329,1431633,1745091595313,,,,,,,,,,,,,,,,,,,,,,,0.0,0.0,0.0,0.0,0.0,0.0,0.0,0.0,2.27,,,0,0,0,0,0,0,0,0,0,0,0,0,0,0,0,0,0.0,,,,,39.239891,-77.96566,0.3,33.0,3.0,0.8
330,1431653,1745091595333,0.0,199.47,,-0.07,-0.05,1.03,0.0,0.0,0.0,1.03,1.42,73.0,3143.0,8.8,3.74,,13.09,1.252,98.8,,29.5,5.0,,,,,,,,,,,,0,0,0,0,0,0,0,0,0,0,0,0,0,0,0,0,,,,,0.0,,,,,,
331,1431673,1745091595353,,,,,,,,,,,,,,,,,,,,,,,,,,,,,,,,,,0,0,0,0,0,0,0,0,0,0,0,0,0,0,0,0,,,,,,,,,,,
332,1431693,1745091595373,0.0,199.6,,-0.06,-0.0,0.96,0.0,0.0,0.0,0.96,1.42,68.0,3299.0,8.8,3.33,,13.0,1.253,98.8,,30.5,5.0,,,,,,,,,,,,0,0,0,0,0,0,0,0,0,0,0,0,0,0,0,0,,,,,0.0,,,,,,
333,1431713,1745091595393,,,,,,,,,,,,,,,,,,,,,,,,,,,,,,,,,,0,0,0,0,0,0,0,0,0,0,0,0,0,0,0,0,,,,,,,,,,,
334,1431733,1745091595413,0.0,199.6,12.74,-0.03,0.07,0.94,0.0,0.0,0.0,0.95,1.42,67.0,3114.0,8.9,3.73,15.0,13.0,1.253,98.8,146.0,30.5,5.0,0.0,0.0,0.0,0.0,0.0,0.0,0.0,0.0,2.27,0.0,0.0,0,0,0,0,0,0,0,0,0,0,0,0,0,0,0,0,0.0,0.0,0.0,0.0,0.0,39.239891,-77.96566,0.23,33.0,3.0,0.8
335,1431753,1745091595433,,,,,,,,,,,,,,,,,,,,,,,,,,,,,,,,,,0,0,0,0,0,0,0,0,0,0,0,0,0,0,0,0,,,,,,,,,,,
336,1431773,1745091595453,0.0,199.6,,-0.01,0.11,0.95,0.0,-1.0,0.0,0.95,1.42,67.0,3114.0,8.9,3.73,,13.05,1.254,98.8,,28.8,5.0,,,,,,,,,,,,0,0,0,0,0,0,0,0,0,0,0,0,0,0,0,0,,,,,0.0,,,,,,
337,1431793,1745091595473,,,,,,,,,,,,,,,,,,,,,,,,,,,,,,,,,,0,0,0,0,0,0,0,0,0,0,0,0,0,0,0,0,,,,,,,,,,,
338,1431813,1745091595495,0.0,199.6,,0.01,0.08,1.02,-1.0,-1.0,1.0,1.02,1.42,72.0,2967.0,9.0,3.74,,13.17,1.253,98.8,,28.8,5.0,,,,,,,,,,,,0,0,0,0,0,0,0,0,0,0,0,0,0,0,0,0,,,,,0.0,,,,,,
339,1431833,1745091595515,,,,,,,,,,,,,,,,,,,,,,,0.0,0.0,0.0,0.0,0.0,0.0,0.0,0.0,2.27,,,0,0,0,0,0,0,0,0,0,0,0,0,0,0,0,0,0.0,,,,,39.239891,-77.96566,0.08,33.0,3.0,0.8
340,1431853,1745091595535,0.0,199.6,,-0.01,-0.03,1.09,-1.0,0.0,1.0,1.09,1.42,77.0,3128.0,9.0,3.75,,13.16,1.25,98.8,,28.8,5.0,,,,,,,,,,,,0,0,0,0,0,0,0,0,0,0,0,0,0,0,0,0,,,,,0.0,,,,,,
341,1431873,1745091595555,,,,,,,,,,,,,,,,,,,,,,,,,,,,,,,,,,0,0,0,0,0,0,0,0,0,0,0,0,0,0,0,0,,,,,,,,,,,
342,1431893,1745091595575,0.0,199.6,,-0.02,-0.01,1.01,0.0,0.0,0.0,1.01,1.42,71.0,3254.0,13.1,3.84,,13.23,1.251,98.8,,30.2,5.0,,,,,,,,,,,,0,0,0,0,0,0,0,0,0,0,0,0,0,0,0,0,,,,,0.0,,,,,,
343,1431913,1745091595595,,,,,,,,,,,,,,,,,,,,,,,,,,,,,,,,,,0,0,0,0,0,0,0,0,0,0,0,0,0,0,0,0,,,,,,,,,,,
344,1431933,1745091595615,0.0,199.6,,-0.01,0.06,0.96,0.0,-1.0,0.0,0.97,1.42,68.0,3125.0,15.4,3.99,,13.23,1.251,98.8,,30.2,5.0,0.0,0.0,0.0,0.0,0.0,0.0,0.0,0.0,2.27,,,0,0,0,0,0,0,0,0,0,0,0,0,0,0,0,0,0.0,,,,0.0,39.239891,-77.96566,0.21,33.0,3.0,0.8
345,1431953,1745091595635,,,,,,,,,,,,,,,,,,,,,,,,,,,,,,,,,,0,0,0,0,0,0,0,0,0,0,0,0,0,0,0,0,,,,,,,,,,,
346,1431973,1745091595655,0.0,199.6,,0.01,0.07,0.99,0.0,-1.0,1.0,0.99,1.42,70.0,3125.0,15.4,3.99,,13.44,1.251,98.8,,30.4,5.0,,,,,,,,,,,,0,0,0,0,0,0,0,0,0,0,0,0,0,0,0,0,,,,,0.0,,,,,,
347,1431993,1745091595675,,,,,,,,,,,,,,,,,,,,,,,,,,,,,,,,,,0,0,0,0,0,0,0,0,0,0,0,0,0,0,0,0,,,,,,,,,,,
348,1432013,1745091595695,0.0,199.6,,-0.01,0.03,1.05,0.0,0.0,0.0,1.05,1.42,74.0,0.0,15.8,3.96,,13.44,1.251,98.8,,30.4,5.0,,,,,,,,,,,,0,0,0,0,0,0,0,0,0,0,0,0,0,0,0,0,,,,,0.0,,,,,,
349,1432033,1745091595715,,,,,,,,,,,,,,,,,,,,,,,0.0,0.0,0.0,0.0,0.0,0.0,0.0,0.0,2.27,,,0,0,0,0,0,0,0,0,0,0,0,0,0,0,0,0,0.0,,,,,39.239891,-77.96566,0.39,33.0,3.0,0.8
350,1432053,1745091595735,0.0,199.6,,-0.04,-0.03,1.1,0.0,0.0,0.0,1.1,1.42,77.0,3106.0,16.0,4.03,,13.52,1.251,98.8,,30.4,5.0,,,,,,,,,,,,0,0,0,0,0,0,0,0,0,0,0,0,0,0,0,0,,,,,0.0,,,,,,
351,1432073,1745091595755,,,,,,,,,,,,,,,,,,,,,,,,,,,,,,,,,,0,0,0,0,0,0,0,0,0,0,0,0,0,0,0,0,,,,,,,,,,,
352,1432093,1745091595775,0.0,199.6,,-0.07,-0.05,1.1,0.0,0.0,0.0,1.1,1.42,77.0,3027.0,15.9,4.07,,13.61,1.25,98.8,,28.8,5.0,,,,,,,,,,,,0,0,0,0,0,0,0,0,0,0,0,0,0,0,0,0,,,,,0.0,,,,,,
353,1432113,1745091595795,,,,,,,,,,,,,,,,,,,,,,,,,,,,,,,,,,0,0,0,0,0,0,0,0,0,0,0,0,0,0,0,0,,,,,,,,,,,
354,1432133,1745091595815,0.0,199.6,,-0.09,-0.03,1.02,0.0,0.0,0.0,1.02,1.42,72.0,3072.0,15.9,4.05,,13.61,1.25,98.8,,28.8,5.0,0.0,0.0,0.0,0.0,0.0,0.0,0.0,0.0,2.27,,,0,0,0,0,0,0,0,0,0,0,0,0,0,0,0,0,0.0,,,,0.0,39.239891,-77.96566,0.06,33.0,3.0,0.8
355,1432153,1745091595835,,,,,,,,,,,,,,,,,,,,,,,,,,,,,,,,,,0,0,0,0,0,0,0,0,0,0,0,0,0,0,0,0,,,,,,,,,,,
356,1432173,1745091595855,0.0,199.6,,-0.08,-0.01,0.92,1.0,0.0,-1.0,0.92,1.42,65.0,3072.0,15.9,4.05,,13.6,1.253,98.8,,28.5,5.0,,,,,,,,,,,,0,0,0,0,0,0,0,0,0,0,0,0,0,0,0,0,,,,,0.0,,,,,,
357,1432193,1745091595875,,,,,,,,,,,,,,,,,,,,,,,,,,,,,,,,,,0,0,0,0,0,0,0,0,0,0,0,0,0,0,0,0,,,,,,,,,,,
358,1432213,1745091595895,0.0,199.6,,-0.07,0.02,0.84,1.0,-1.0,-1.0,0.84,1.42,59.0,3091.0,16.0,4.09,,13.63,1.254,98.8,,28.5,5.0,,,,,,,,,,,,0,0,0,0,0,0,0,0,0,0,0,0,0,0,0,0,,,,,0.0,,,,,,
359,1432233,1745091595915,,,,,,,,,,,,,,,,,,,,,,,0.0,0.0,0.0,0.0,0.0,0.0,0.0,0.0,2.26,,,0,0,0,0,0,0,0,0,0,0,0,0,0,0,0,0,0.0,,,,,39.239891,-77.96566,0.5,33.0,3.0,0.8
360,1432253,1745091595935,0.0,199.6,,-0.06,0.04,0.78,1.0,-1.0,-1.0,0.78,1.42,55.0,3037.0,16.1,4.07,,13.6,1.253,98.8,,28.5,5.0,,,,,,,,,,,,0,0,0,0,0,0,0,0,0,0,0,0,0,0,0,0,,,,,0.0,,,,,,
361,1432273,1745091595955,,,,,,,,,,,,,,,,,,,,,,,,,,,,,,,,,,0,0,0,0,0,0,0,0,0,0,0,0,0,0,0,0,,,,,,,,,,,
362,1432293,1745091595975,0.0,199.6,,-0.04,0.09,0.75,1.0,-1.0,0.0,0.75,1.42,53.0,3022.0,16.1,4.07,,13.61,1.253,98.8,,28.9,5.0,,,,,,,,,,,,0,0,0,0,0,0,0,0,0,0,0,0,0,0,0,0,,,,,0.0,,,,,,
363,1432313,1745091595995,,,,,,,,,,,,,,,,,,,,,,,,,,,,,,,,,,0,0,0,0,0,0,0,0,0,0,0,0,0,0,0,0,,,,,,,,,,,
364,1432333,1745091596006,0.0,199.47,,-0.02,0.13,0.79,0.0,-1.0,0.0,0.8,1.42,56.0,3076.0,16.0,4.05,,13.61,1.253,98.8,,28.9,5.0,0.0,0.0,0.0,0.0,0.0,0.0,0.0,0.0,2.27,,,0,0,0,0,0,0,0,0,0,0,0,0,0,0,0,0,0.0,,,,0.0,39.239891,-77.96566,0.46,33.0,3.0,0.8
365,1432353,1745091596026,,,,,,,,,,,,,,,,,,,,,,,,,,,,,,,,,,0,0,0,0,0,0,0,0,0,0,0,0,0,0,0,0,,,,,,,,,,,
366,1432373,1745091596046,0.0,199.6,,-0.02,0.05,0.89,0.0,-1.0,0.0,0.89,1.42,63.0,3076.0,16.0,4.05,,13.59,1.25,98.8,,29.9,5.0,,,,,,,,,,,,0,0,0,0,0,0,0,0,0,0,0,0,0,0,0,0,,,,,0.0,,,,,,
367,1432393,1745091596066,,,,,,,,,,,,,,,,,,,,,,,,,,,,,,,,,,0,0,0,0,0,0,0,0,0,0,0,0,0,0,0,0,,,,,,,,,,,
368,1432413,1745091596092,0.0,199.47,,-0.03,0.01,0.86,1.0,-1.0,0.0,0.86,1.42,61.0,3268.0,16.0,4.04,,13.55,1.25,98.8,,29.9,5.0,,,,,,,,,,,,0,0,0,0,0,0,0,0,0,0,0,0,0,0,0,0,,,,,0.0,,,,,,
369,1432433,1745091596112,,,,,,,,,,,,,,,,,,,,,,,0.0,0.0,0.0,0.0,0.0,0.0,0.0,0.0,2.27,,,0,0,0,0,0,0,0,0,0,0,0,0,0,0,0,0,0.0,,,,,39.239891,-77.96566,0.62,33.0,3.0,0.8
370,1432453,1745091596132,0.0,199.6,,-0.03,0.05,0.91,0.0,-1.0,0.0,0.92,1.42,65.0,3309.0,15.9,4.01,,13.55,1.251,98.8,,29.9,5.0,,,,,,,,,,,,0,0,0,0,0,0,0,0,0,0,0,0,0,0,0,0,,,,,0.0,,,,,,
371,1432473,1745091596152,,,,,,,,,,,,,,,,,,,,,,,,,,,,,,,,,,0,0,0,0,0,0,0,0,0,0,0,0,0,0,0,0,,,,,,,,,,,
372,1432493,1745091596172,0.0,199.47,,-0.03,0.03,0.86,1.0,-1.0,0.0,0.86,1.42,61.0,3401.0,15.9,3.99,,13.53,1.251,98.8,,32.4,5.0,,,,,,,,,,,,0,0,0,0,0,0,0,0,0,0,0,0,0,0,0,0,,,,,0.0,,,,,,
373,1432513,1745091596194,,,,,,,,,,,,,,,,,,,,,,,,,,,,,,,,,,0,0,0,0,0,0,0,0,0,0,0,0,0,0,0,0,,,,,,,,,,,
374,1432533,1745091596214,0.0,199.47,,-0.03,0.07,0.94,0.0,-1.0,0.0,0.94,1.42,66.0,3470.0,16.0,3.99,,13.53,1.251,98.8,,32.4,5.0,0.0,0.0,0.0,0.0,0.0,0.0,0.0,0.0,2.27,,,0,0,0,0,0,0,0,0,0,0,0,0,0,0,0,0,0.0,,,,0.0,39.239891,-77.96566,0.11,33.0,3.0,0.8
375,1432553,1745091596234,,,,,,,,,,,,,,,,,,,,,,,,,,,,,,,,,,0,0,0,0,0,0,0,0,0,0,0,0,0,0,0,0,,,,,,,,,,,
376,1432573,1745091596254,0.0,199.6,,-0.02,0.07,0.9,0.0,-1.0,0.0,0.9,1.42,63.0,3470.0,16.0,3.99,,13.52,1.251,98.8,,33.6,5.0,,,,,,,,,,,,0,0,0,0,0,0,0,0,0,0,0,0,0,0,0,0,,,,,0.0,,,,,,
377,1432593,1745091596274,,,,,,,,,,,,,,,,,,,,,,,,,,,,,,,,,,0,0,0,0,0,0,0,0,0,0,0,0,0,0,0,0,,,,,,,,,,,
378,1432613,1745091596294,0.0,199.6,,-0.04,0.02,0.91,1.0,0.0,0.0,0.91,1.42,64.0,3477.0,16.0,3.96,,13.43,1.251,98.8,,33.6,5.0,,,,,,,,,,,,0,0,0,0,0,0,0,0,0,0,0,0,0,0,0,0,,,,,0.0,,,,,,
379,1432633,1745091596314,,,,,,,,,,,,,,,,,,,,,,,0.0,0.0,0.0,0.0,0.0,0.0,0.0,0.0,2.27,,,0,0,0,0,0,0,0,0,0,0,0,0,0,0,0,0,0.0,,,,,39.239891,-77.96566,0.04,33.0,3.0,0.8
380,1432653,1745091596334,0.0,199.6,,-0.05,0.02,0.93,0.0,0.0,0.0,0.93,1.42,66.0,3574.0,15.9,3.95,,13.39,1.252,98.8,,33.6,5.0,,,,,,,,,,,,0,0,0,0,0,0,0,0,0,0,0,0,0,0,0,0,,,,,0.0,,,,,,
381,1432673,1745091596354,,,,,,,,,,,,,,,,,,,,,,,,,,,,,,,,,,0,0,0,0,0,0,0,0,0,0,0,0,0,0,0,0,,,,,,,,,,,
382,1432693,1745091596374,0.0,199.6,,-0.06,0.06,0.94,0.0,0.0,0.0,0.94,1.42,66.0,3612.0,15.9,3.91,,13.37,1.253,98.8,,35.3,5.0,,,,,,,,,,,,0,0,0,0,0,0,0,0,0,0,0,0,0,0,0,0,,,,,0.0,,,,,,
