,Interval,Utc,FrontBP,SteerAng,Battery,AccelX,AccelY,AccelZ,Yaw,Pitch,Roll,Gsum,GsumMax,GsumPct,RPM,TPS,InjectorPW,Baro,MAP,Lambda,IAT,EngineTemp,EOP,EOT,WSFR,WSFL,WSRR,WSRL,TCSet,TCSlip,TCComp,TCCut,Analog8,OilTemp,AA_On,ThermLF1,ThermLF2,ThermRR1,ThermRR2,ThermLF3,ThermLF4,ThermLF5,ThermLF6,ThermLF7,ThermLF8,ThermRR3,ThermRR4,ThermRR5,ThermRR6,ThermRR7,ThermRR8,Gear,AA_On1,AA_LowDrag,Fuel_Mix,AA_Packages,Latitude,Longitude,Speed,GPSSats,GPSQual,GPSDOP
0,125898,1745094838362,0.0,200.48,,-0.08,0.62,1.56,0.0,0.0,1.0,1.68,1.68,100.0,4546.0,2.9,3.18,,10.9,0.887,95.2,,60.5,5.0,,,,,,,,,,,,0,0,0,0,0,0,0,0,0,0,0,0,0,0,0,0,,,,,0.0,,,,,,
1,125918,1745094838382,,,,,,,,,,,,,,,,,,,,,,,,,,,,,,,,,,0,0,0,0,0,0,0,0,0,0,0,0,0,0,0,0,,,,,,,,,,,
2,125938,1745094838400,0.0,200.48,,-0.08,0.67,1.6,1.0,0.0,1.0,1.74,1.74,100.0,4483.0,2.8,3.13,,10.97,0.885,93.4,,60.5,5.0,,,,,,,,,,,,0,0,0,0,0,0,0,0,0,0,0,0,0,0,0,0,,,,,0.0,,,,,,
3,125958,1745094838420,,,,,,,,,,,,,,,,,,,,,,,,,,,,,,,,,,0,0,0,0,0,0,0,0,0,0,0,0,0,0,0,0,,,,,,,,,,,
4,125978,1745094838440,0.0,200.48,,-0.06,0.68,1.61,1.0,0.0,1.0,1.75,1.75,100.0,4466.0,2.8,3.06,,11.01,0.89,93.4,,60.5,5.0,0.0,0.0,0.0,0.0,0.0,0.0,0.0,0.0,2.26,,,0,0,0,0,0,0,0,0,0,0,0,0,0,0,0,0,0.0,,,,0.0,39.240116,-77.964874,0.07,25.0,2.0,1.0
5,125998,1745094838460,,,,,,,,,,,,,,,,,,,,,,,,,,,,,,,,,,0,0,0,0,0,0,0,0,0,0,0,0,0,0,0,0,,,,,,,,,,,
6,126018,1745094838480,0.0,200.6,,-0.04,0.63,1.59,2.0,0.0,0.0,1.71,1.75,98.0,4435.0,2.7,3.06,,11.01,0.89,93.4,,59.2,5.0,,,,,,,,,,,,0,0,0,0,0,0,0,0,0,0,0,0,0,0,0,0,,,,,0.0,,,,,,
7,126038,1745094838501,,,,,,,,,,,,,,,,,,,,,,,,,,,,,,,,,,0,0,0,0,0,0,0,0,0,0,0,0,0,0,0,0,,,,,,,,,,,
8,126058,1745094838521,0.0,200.6,,-0.0,0.52,1.47,3.0,0.0,-1.0,1.55,1.75,89.0,4398.0,2.2,3.11,,10.97,0.889,93.4,,59.2,5.0,,,,,,,,,,,,0,0,0,0,0,0,0,0,0,0,0,0,0,0,0,0,,,,,0.0,,,,,,
9,126078,1745094838541,,,,,,,,,,,,,,,,,,,,,,,0.0,0.0,0.0,0.0,0.0,0.0,0.0,0.0,2.27,,,0,0,0,0,0,0,0,0,0,0,0,0,0,0,0,0,0.0,,,,,39.240116,-77.964874,0.08,25.0,2.0,1.0
10,126098,1745094838561,0.0,200.6,,0.03,0.38,1.32,3.0,0.0,-1.0,1.37,1.75,79.0,4398.0,2.2,3.11,,11.04,0.882,93.4,,58.7,5.0,,,,,,,,,,,,0,0,0,0,0,0,0,0,0,0,0,0,0,0,0,0,,,,,0.0,,,,,,
11,126118,1745094838581,,,,,,,,,,,,,,,,,,,,,,,,,,,,,,,,,,0,0,0,0,0,0,0,0,0,0,0,0,0,0,0,0,,,,,,,,,,,
12,126138,1745094838601,0.0,200.48,,0.0,0.25,1.25,3.0,0.0,-1.0,1.27,1.75,73.0,4400.0,0.8,2.42,,10.78,0.878,93.4,,58.7,5.0,,,,,,,,,,,,0,0,0,0,0,0,0,0,0,0,0,0,0,0,0,0,,,,,0.0,,,,,,
13,126158,1745094838621,,,,,,,,,,,,,,,,,,,,,,,,,,,,,,,,,,0,0,0,0,0,0,0,0,0,0,0,0,0,0,0,0,,,,,,,,,,,
14,126178,1745094838641,0.0,200.6,,-0.05,0.24,1.25,2.0,0.0,-1.0,1.27,1.75,73.0,4343.0,0.4,2.09,,10.72,0.882,93.4,,58.7,5.0,0.0,0.0,0.0,0.0,0.0,0.0,0.0,0.0,2.26,,,0,0,0,0,0,0,0,0,0,0,0,0,0,0,0,0,0.0,,,,0.0,39.240116,-77.964874,0.0,25.0,2.0,1.0
15,126198,1745094838661,,,,,,,,,,,,,,,,,,,,,,,,,,,,,,,,,,0,0,0,0,0,0,0,0,0,0,0,0,0,0,0,0,,,,,,,,,,,
16,126218,1745094838681,0.0,200.6,,-0.03,0.3,1.28,2.0,0.0,0.0,1.31,1.75,75.0,4256.0,0.0,1.85,,10.66,0.885,93.4,,56.8,5.0,,,,,,,,,,,,0,0,0,0,0,0,0,0,0,0,0,0,0,0,0,0,,,,,0.0,,,,,,
17,126238,1745094838702,,,,,,,,,,,,,,,,,,,,,,,,,,,,,,,,,,0,0,0,0,0,0,0,0,0,0,0,0,0,0,0,0,,,,,,,,,,,
18,126258,1745094838722,0.0,200.48,,-0.04,0.19,1.19,2.0,0.0,-1.0,1.21,1.75,69.0,4007.0,0.0,1.8,,10.66,0.885,93.4,,56.8,5.0,,,,,,,,,,,,0,0,0,0,0,0,0,0,0,0,0,0,0,0,0,0,,,,,0.0,,,,,,
19,126278,1745094838742,,,,,,,,,,,,,,,,,,,,,,,0.0,0.0,0.0,0.0,0.0,0.0,0.0,0.0,2.26,,,0,0,0,0,0,0,0,0,0,0,0,0,0,0,0,0,0.0,,,,,39.240116,-77.964874,0.04,25.0,2.0,1.0
20,126298,1745094838762,0.0,200.6,,-0.05,0.15,1.16,2.0,0.0,-1.0,1.17,1.75,67.0,4007.0,0.0,1.8,,10.57,0.898,93.4,,53.1,5.0,,,,,,,,,,,,0,0,0,0,0,0,0,0,0,0,0,0,0,0,0,0,,,,,0.0,,,,,,
21,126318,1745094838782,,,,,,,,,,,,,,,,,,,,,,,,,,,,,,,,,,0,0,0,0,0,0,0,0,0,0,0,0,0,0,0,0,,,,,,,,,,,
22,126338,1745094838801,0.0,200.6,,-0.04,0.13,1.15,1.0,0.0,0.0,1.16,1.75,67.0,3788.0,0.0,1.85,,10.74,0.952,93.4,,53.1,5.0,,,,,,,,,,,,0,0,0,0,0,0,0,0,0,0,0,0,0,0,0,0,,,,,0.0,,,,,,
23,126358,1745094838821,,,,,,,,,,,,,,,,,,,,,,,,,,,,,,,,,,0,0,0,0,0,0,0,0,0,0,0,0,0,0,0,0,,,,,,,,,,,
24,126378,1745094838841,0.0,200.6,13.36,-0.04,0.15,1.17,0.0,0.0,0.0,1.18,1.75,68.0,3617.0,0.0,2.07,15.0,10.94,1.03,93.4,106.0,53.1,5.0,0.0,0.0,0.0,0.0,0.0,0.0,0.0,0.0,2.26,0.0,0.0,0,0,0,0,0,0,0,0,0,0,0,0,0,0,0,0,0.0,0.0,0.0,0.0,0.0,39.240116,-77.964874,0.04,25.0,2.0,1.0
25,126398,1745094838861,,,,,,,,,,,,,,,,,,,,,,,,,,,,,,,,,,0,0,0,0,0,0,0,0,0,0,0,0,0,0,0,0,,,,,,,,,,,
26,126418,1745094838881,0.0,200.6,,-0.02,0.16,1.08,1.0,0.0,0.0,1.09,1.75,63.0,3432.0,0.0,2.58,,11.08,1.095,93.4,,50.7,5.0,,,,,,,,,,,,0,0,0,0,0,0,0,0,0,0,0,0,0,0,0,0,,,,,0.0,,,,,,
27,126438,1745094838901,,,,,,,,,,,,,,,,,,,,,,,,,,,,,,,,,,0,0,0,0,0,0,0,0,0,0,0,0,0,0,0,0,,,,,,,,,,,
28,126458,1745094838921,0.0,200.6,,-0.04,0.08,1.16,0.0,0.0,0.0,1.16,1.75,67.0,3267.0,0.0,2.67,,11.08,1.095,93.4,,50.7,5.0,,,,,,,,,,,,0,0,0,0,0,0,0,0,0,0,0,0,0,0,0,0,,,,,0.0,,,,,,
29,126478,1745094838941,,,,,,,,,,,,,,,,,,,,,,,0.0,0.0,0.0,0.0,0.0,0.0,0.0,0.0,2.26,,,0,0,0,0,0,0,0,0,0,0,0,0,0,0,0,0,0.0,,,,,39.240116,-77.964874,0.13,25.0,2.0,1.0
30,126498,1745094838961,0.0,200.6,,-0.06,0.04,1.11,1.0,0.0,0.0,1.11,1.75,64.0,3267.0,0.0,2.67,,11.32,1.146,93.4,,45.2,5.0,,,,,,,,,,,,0,0,0,0,0,0,0,0,0,0,0,0,0,0,0,0,,,,,0.0,,,,,,
31,126518,1745094838981,,,,,,,,,,,,,,,,,,,,,,,,,,,,,,,,,,0,0,0,0,0,0,0,0,0,0,0,0,0,0,0,0,,,,,,,,,,,
32,126538,1745094838993,0.0,200.6,,-0.05,0.06,1.01,1.0,0.0,0.0,1.01,1.75,58.0,3161.0,0.0,2.71,,11.49,1.173,93.4,,45.2,5.0,,,,,,,,,,,,0,0,0,0,0,0,0,0,0,0,0,0,0,0,0,0,,,,,0.0,,,,,,
33,126558,1745094839013,,,,,,,,,,,,,,,,,,,,,,,,,,,,,,,,,,0,0,0,0,0,0,0,0,0,0,0,0,0,0,0,0,,,,,,,,,,,
34,126578,1745094839033,0.0,200.6,,-0.03,0.09,0.94,1.0,0.0,0.0,0.95,1.75,54.0,2999.0,3.6,3.41,,12.01,1.16,93.4,,45.2,5.0,0.0,0.0,0.0,0.0,0.0,0.0,0.0,0.0,2.26,,,0,0,0,0,0,0,0,0,0,0,0,0,0,0,0,0,0.0,,,,0.0,39.240116,-77.964874,0.1,25.0,2.0,1.0
35,126598,1745094839053,,,,,,,,,,,,,,,,,,,,,,,,,,,,,,,,,,0,0,0,0,0,0,0,0,0,0,0,0,0,0,0,0,,,,,,,,,,,
36,126618,1745094839073,0.0,200.6,,-0.03,0.05,0.9,1.0,0.0,-1.0,0.9,1.75,52.0,2936.0,5.4,3.59,,12.43,1.117,93.4,,40.7,5.0,,,,,,,,,,,,0,0,0,0,0,0,0,0,0,0,0,0,0,0,0,0,,,,,0.0,,,,,,
37,126638,1745094839095,,,,,,,,,,,,,,,,,,,,,,,,,,,,,,,,,,0,0,0,0,0,0,0,0,0,0,0,0,0,0,0,0,,,,,,,,,,,
38,126658,1745094839115,0.0,200.6,,-0.04,0.01,0.9,1.0,0.0,-1.0,0.9,1.75,52.0,2871.0,5.9,3.63,,12.43,1.117,93.4,,40.7,5.0,,,,,,,,,,,,0,0,0,0,0,0,0,0,0,0,0,0,0,0,0,0,,,,,0.0,,,,,,
39,126678,1745094839135,,,,,,,,,,,,,,,,,,,,,,,0.0,0.0,0.0,0.0,0.0,0.0,0.0,0.0,2.26,,,0,0,0,0,0,0,0,0,0,0,0,0,0,0,0,0,0.0,,,,,39.240116,-77.964874,0.13,25.0,2.0,1.0
40,126698,1745094839155,0.0,200.6,,-0.05,-0.04,0.94,1.0,0.0,-1.0,0.94,1.75,54.0,2871.0,5.9,3.63,,12.71,1.082,93.4,,39.9,5.0,,,,,,,,,,,,0,0,0,0,0,0,0,0,0,0,0,0,0,0,0,0,,,,,0.0,,,,,,
41,126718,1745094839175,,,,,,,,,,,,,,,,,,,,,,,,,,,,,,,,,,0,0,0,0,0,0,0,0,0,0,0,0,0,0,0,0,,,,,,,,,,,
42,126738,1745094839199,0.0,200.6,,-0.06,-0.05,0.97,1.0,0.0,-1.0,0.98,1.75,56.0,2880.0,6.1,3.65,,12.87,1.048,93.4,,39.9,5.0,,,,,,,,,,,,0,0,0,0,0,0,0,0,0,0,0,0,0,0,0,0,,,,,0.0,,,,,,
43,126758,1745094839219,,,,,,,,,,,,,,,,,,,,,,,,,,,,,,,,,,0,0,0,0,0,0,0,0,0,0,0,0,0,0,0,0,,,,,,,,,,,
44,126778,1745094839239,0.0,200.6,,-0.05,-0.02,0.93,1.0,0.0,0.0,0.93,1.75,53.0,2706.0,6.1,3.64,,13.05,1.018,93.4,,39.9,5.0,0.0,0.0,0.0,0.0,0.0,0.0,0.0,0.0,2.26,,,0,0,0,0,0,0,0,0,0,0,0,0,0,0,0,0,0.0,,,,0.0,39.240116,-77.964874,0.05,25.0,2.0,1.0
45,126798,1745094839259,,,,,,,,,,,,,,,,,,,,,,,,,,,,,,,,,,0,0,0,0,0,0,0,0,0,0,0,0,0,0,0,0,,,,,,,,,,,
46,126818,1745094839279,0.0,200.73,,-0.05,-0.03,0.96,1.0,0.0,0.0,0.96,1.75,55.0,2884.0,6.2,3.64,,13.12,1.022,93.4,,36.5,5.0,,,,,,,,,,,,0,0,0,0,0,0,0,0,0,0,0,0,0,0,0,0,,,,,0.0,,,,,,
47,126838,1745094839301,,,,,,,,,,,,,,,,,,,,,,,,,,,,,,,,,,0,0,0,0,0,0,0,0,0,0,0,0,0,0,0,0,,,,,,,,,,,
48,126858,1745094839321,0.0,200.6,,-0.06,-0.01,0.93,1.0,0.0,0.0,0.94,1.75,54.0,2601.0,6.2,3.47,,13.12,1.022,93.4,,36.5,5.0,,,,,,,,,,,,0,0,0,0,0,0,0,0,0,0,0,0,0,0,0,0,,,,,0.0,,,,,,
49,126878,1745094839341,,,,,,,,,,,,,,,,,,,,,,,0.0,0.0,0.0,0.0,0.0,0.0,0.0,0.0,2.26,,,0,0,0,0,0,0,0,0,0,0,0,0,0,0,0,0,0.0,,,,,39.240116,-77.964874,0.04,25.0,2.0,1.0
50,126898,1745094839361,0.0,200.6,,-0.05,-0.03,0.93,1.0,0.0,0.0,0.93,1.75,53.0,2601.0,6.2,3.47,,13.24,1.06,93.4,,32.5,5.0,,,,,,,,,,,,0,0,0,0,0,0,0,0,0,0,0,0,0,0,0,0,,,,,0.0,,,,,,
51,126918,1745094839381,,,,,,,,,,,,,,,,,,,,,,,,,,,,,,,,,,0,0,0,0,0,0,0,0,0,0,0,0,0,0,0,0,,,,,,,,,,,
52,126938,1745094839401,0.0,200.73,,-0.07,-0.02,0.94,0.0,0.0,0.0,0.94,1.75,54.0,2375.0,4.5,3.62,,13.32,1.111,93.4,,32.5,5.0,,,,,,,,,,,,0,0,0,0,0,0,0,0,0,0,0,0,0,0,0,0,,,,,0.0,,,,,,
53,126958,1745094839421,,,,,,,,,,,,,,,,,,,,,,,,,,,,,,,,,,0,0,0,0,0,0,0,0,0,0,0,0,0,0,0,0,,,,,,,,,,,
54,126978,1745094839441,0.0,200.6,,-0.07,-0.02,0.93,0.0,0.0,0.0,0.94,1.75,54.0,2260.0,3.9,3.61,,13.36,1.166,93.4,,32.5,5.0,0.0,0.0,0.0,0.0,0.0,0.0,0.0,0.0,2.26,,,0,0,0,0,0,0,0,0,0,0,0,0,0,0,0,0,0.0,,,,0.0,39.240116,-77.964874,0.04,25.0,2.0,1.0
55,126998,1745094839461,,,,,,,,,,,,,,,,,,,,,,,,,,,,,,,,,,0,0,0,0,0,0,0,0,0,0,0,0,0,0,0,0,,,,,,,,,,,
56,127018,1745094839481,0.0,200.6,,-0.06,-0.02,0.93,0.0,0.0,0.0,0.93,1.75,53.0,2117.0,3.7,3.59,,13.48,1.247,93.4,,28.5,5.0,,,,,,,,,,,,0,0,0,0,0,0,0,0,0,0,0,0,0,0,0,0,,,,,0.0,,,,,,
57,127038,1745094839502,,,,,,,,,,,,,,,,,,,,,,,,,,,,,,,,,,0,0,0,0,0,0,0,0,0,0,0,0,0,0,0,0,,,,,,,,,,,
58,127058,1745094839522,0.0,200.6,,-0.05,-0.04,0.94,0.0,0.0,0.0,0.94,1.75,54.0,2166.0,3.6,3.6,,13.48,1.247,93.4,,28.5,5.0,,,,,,,,,,,,0,0,0,0,0,0,0,0,0,0,0,0,0,0,0,0,,,,,0.0,,,,,,
59,127078,1745094839542,,,,,,,,,,,,,,,,,,,,,,,0.0,0.0,0.0,0.0,0.0,0.0,0.0,0.0,2.26,,,0,0,0,0,0,0,0,0,0,0,0,0,0,0,0,0,0.0,,,,,39.240116,-77.964874,0.05,25.0,2.0,1.0
60,127098,1745094839562,0.0,200.6,,-0.04,-0.03,0.95,0.0,0.0,0.0,0.95,1.75,55.0,2166.0,3.6,3.6,,13.52,1.249,93.4,,27.4,5.0,,,,,,,,,,,,0,0,0,0,0,0,0,0,0,0,0,0,0,0,0,0,,,,,0.0,,,,,,
61,127118,1745094839582,,,,,,,,,,,,,,,,,,,,,,,,,,,,,,,,,,0,0,0,0,0,0,0,0,0,0,0,0,0,0,0,0,,,,,,,,,,,
62,127138,1745094839600,0.0,200.73,,-0.05,-0.03,0.96,0.0,0.0,0.0,0.96,1.75,55.0,1926.0,3.6,3.62,,13.65,1.249,93.4,,27.4,5.0,,,,,,,,,,,,0,0,0,0,0,0,0,0,0,0,0,0,0,0,0,0,,,,,0.0,,,,,,
63,127158,1745094839620,,,,,,,,,,,,,,,,,,,,,,,,,,,,,,,,,,0,0,0,0,0,0,0,0,0,0,0,0,0,0,0,0,,,,,,,,,,,
64,127178,1745094839640,0.0,200.73,,-0.06,-0.03,0.97,0.0,0.0,0.0,0.97,1.75,56.0,2085.0,3.7,3.64,,13.6,1.25,93.4,,27.4,5.0,0.0,0.0,0.0,0.0,0.0,0.0,0.0,0.0,2.26,,,0,0,0,0,0,0,0,0,0,0,0,0,0,0,0,0,0.0,,,,0.0,39.240116,-77.964874,0.07,25.0,2.0,1.0
65,127198,1745094839660,,,,,,,,,,,,,,,,,,,,,,,,,,,,,,,,,,0,0,0,0,0,0,0,0,0,0,0,0,0,0,0,0,,,,,,,,,,,
66,127218,1745094839680,0.0,200.73,,-0.06,-0.02,0.95,0.0,0.0,0.0,0.96,1.75,55.0,1901.0,9.6,3.65,,13.83,1.252,93.4,,25.6,5.0,,,,,,,,,,,,0,0,0,0,0,0,0,0,0,0,0,0,0,0,0,0,,,,,0.0,,,,,,
67,127238,1745094839700,,,,,,,,,,,,,,,,,,,,,,,,,,,,,,,,,,0,0,0,0,0,0,0,0,0,0,0,0,0,0,0,0,,,,,,,,,,,
68,127258,1745094839720,0.0,200.73,,-0.04,-0.02,0.97,0.0,0.0,0.0,0.97,1.75,56.0,1901.0,9.6,3.65,,13.83,1.252,93.4,,25.6,5.0,,,,,,,,,,,,0,0,0,0,0,0,0,0,0,0,0,0,0,0,0,0,,,,,0.0,,,,,,
69,127278,1745094839740,,,,,,,,,,,,,,,,,,,,,,,0.0,0.0,0.0,0.0,0.0,0.0,0.0,0.0,2.26,,,0,0,0,0,0,0,0,0,0,0,0,0,0,0,0,0,0.0,,,,,39.240116,-77.964874,0.07,25.0,2.0,1.0
70,127298,1745094839760,0.0,200.73,,-0.05,-0.01,0.96,0.0,0.0,0.0,0.96,1.75,55.0,1907.0,13.3,4.11,,13.99,1.252,93.4,,23.7,5.0,,,,,,,,,,,,0,0,0,0,0,0,0,0,0,0,0,0,0,0,0,0,,,,,0.0,,,,,,
71,127318,1745094839780,,,,,,,,,,,,,,,,,,,,,,,,,,,,,,,,,,0,0,0,0,0,0,0,0,0,0,0,0,0,0,0,0,,,,,,,,,,,
72,127338,1745094839800,0.0,200.73,,-0.04,-0.02,0.98,0.0,0.0,0.0,0.98,1.75,56.0,1786.0,13.9,3.93,,14.06,1.252,93.4,,23.7,5.0,,,,,,,,,,,,0,0,0,0,0,0,0,0,0,0,0,0,0,0,0,0,,,,,0.0,,,,,,
73,127358,1745094839820,,,,,,,,,,,,,,,,,,,,,,,,,,,,,,,,,,0,0,0,0,0,0,0,0,0,0,0,0,0,0,0,0,,,,,,,,,,,
74,127378,1745094839840,0.0,200.73,13.41,-0.06,-0.01,0.97,0.0,0.0,0.0,0.97,1.75,55.0,1786.0,14.0,3.98,15.0,14.03,1.252,93.4,106.0,23.7,5.0,0.0,0.0,0.0,0.0,0.0,0.0,0.0,0.0,2.26,0.0,0.0,0,0,0,0,0,0,0,0,0,0,0,0,0,0,0,0,0.0,0.0,0.0,0.0,0.0,39.240116,-77.964874,0.04,25.0,2.0,1.0
75,127398,1745094839860,,,,,,,,,,,,,,,,,,,,,,,,,,,,,,,,,,0,0,0,0,0,0,0,0,0,0,0,0,0,0,0,0,,,,,,,,,,,
76,127418,1745094839880,0.0,200.73,,-0.06,-0.01,0.99,0.0,0.0,0.0,0.99,1.75,57.0,1966.0,14.1,3.95,,14.03,1.25,93.4,,24.7,5.0,,,,,,,,,,,,0,0,0,0,0,0,0,0,0,0,0,0,0,0,0,0,,,,,0.0,,,,,,
77,127438,1745094839900,,,,,,,,,,,,,,,,,,,,,,,,,,,,,,,,,,0,0,0,0,0,0,0,0,0,0,0,0,0,0,0,0,,,,,,,,,,,
78,127458,1745094839920,0.0,200.73,,-0.07,-0.01,0.98,0.0,0.0,0.0,0.98,1.75,56.0,1950.0,14.0,3.99,,14.03,1.25,93.4,,24.7,5.0,,,,,,,,,,,,0,0,0,0,0,0,0,0,0,0,0,0,0,0,0,0,,,,,0.0,,,,,,
79,127478,1745094839940,,,,,,,,,,,,,,,,,,,,,,,0.0,0.0,0.0,0.0,0.0,0.0,0.0,0.0,2.26,,,0,0,0,0,0,0,0,0,0,0,0,0,0,0,0,0,0.0,,,,,39.240116,-77.964874,0.07,25.0,2.0,1.0
80,127498,1745094839960,0.0,200.73,,-0.05,-0.01,0.99,0.0,0.0,0.0,0.99,1.75,57.0,1950.0,14.0,3.99,,14.04,1.249,93.4,,24.4,5.0,,,,,,,,,,,,0,0,0,0,0,0,0,0,0,0,0,0,0,0,0,0,,,,,0.0,,,,,,
81,127518,1745094839980,,,,,,,,,,,,,,,,,,,,,,,,,,,,,,,,,,0,0,0,0,0,0,0,0,0,0,0,0,0,0,0,0,,,,,,,,,,,
82,127538,1745094839994,0.0,200.85,,-0.06,-0.01,0.98,0.0,0.0,0.0,0.98,1.75,56.0,1868.0,13.9,3.95,,14.07,1.249,93.4,,24.4,5.0,,,,,,,,,,,,0,0,0,0,0,0,0,0,0,0,0,0,0,0,0,0,,,,,0.0,,,,,,
83,127558,1745094840014,,,,,,,,,,,,,,,,,,,,,,,,,,,,,,,,,,0,0,0,0,0,0,0,0,0,0,0,0,0,0,0,0,,,,,,,,,,,
84,127578,1745094840034,0.0,200.85,,-0.04,-0.01,0.99,0.0,0.0,0.0,0.99,1.75,57.0,1793.0,13.8,4.0,,14.07,1.249,93.4,,24.4,5.0,0.0,0.0,0.0,0.0,0.0,0.0,0.0,0.0,2.26,,,0,0,0,0,0,0,0,0,0,0,0,0,0,0,0,0,0.0,,,,0.0,39.240116,-77.964874,0.1,24.0,2.0,1.1
85,127598,1745094840054,,,,,,,,,,,,,,,,,,,,,,,,,,,,,,,,,,0,0,0,0,0,0,0,0,0,0,0,0,0,0,0,0,,,,,,,,,,,
86,127618,1745094840074,0.0,200.85,,-0.05,-0.01,0.98,0.0,0.0,0.0,0.98,1.75,56.0,1945.0,14.0,3.96,,13.98,1.249,93.4,,25.2,5.0,,,,,,,,,,,,0,0,0,0,0,0,0,0,0,0,0,0,0,0,0,0,,,,,0.0,,,,,,
87,127638,1745094840096,,,,,,,,,,,,,,,,,,,,,,,,,,,,,,,,,,0,0,0,0,0,0,0,0,0,0,0,0,0,0,0,0,,,,,,,,,,,
88,127658,1745094840116,0.0,200.85,,-0.04,-0.02,0.97,0.0,0.0,0.0,0.97,1.75,56.0,1958.0,8.4,3.64,,13.98,1.249,93.4,,25.2,5.0,,,,,,,,,,,,0,0,0,0,0,0,0,0,0,0,0,0,0,0,0,0,,,,,0.0,,,,,,
89,127678,1745094840136,,,,,,,,,,,,,,,,,,,,,,,0.0,0.0,0.0,0.0,0.0,0.0,0.0,0.0,2.26,,,0,0,0,0,0,0,0,0,0,0,0,0,0,0,0,0,0.0,,,,,39.240116,-77.964874,0.15,24.0,2.0,1.1
90,127698,1745094840156,0.0,200.85,,-0.03,-0.01,0.98,0.0,0.0,0.0,0.98,1.75,56.0,1958.0,8.4,3.64,,13.96,1.25,93.4,,26.9,5.0,,,,,,,,,,,,0,0,0,0,0,0,0,0,0,0,0,0,0,0,0,0,,,,,0.0,,,,,,
91,127718,1745094840176,,,,,,,,,,,,,,,,,,,,,,,,,,,,,,,,,,0,0,0,0,0,0,0,0,0,0,0,0,0,0,0,0,,,,,,,,,,,
92,127738,1745094840198,0.0,200.85,,-0.03,-0.01,0.98,0.0,0.0,0.0,0.98,1.75,56.0,2186.0,5.3,3.63,,13.72,1.252,93.4,,26.9,5.0,,,,,,,,,,,,0,0,0,0,0,0,0,0,0,0,0,0,0,0,0,0,,,,,0.0,,,,,,
93,127758,1745094840218,,,,,,,,,,,,,,,,,,,,,,,,,,,,,,,,,,0,0,0,0,0,0,0,0,0,0,0,0,0,0,0,0,,,,,,,,,,,
94,127778,1745094840238,0.0,200.85,,-0.02,-0.02,0.98,0.0,0.0,0.0,0.98,1.75,56.0,2161.0,5.3,3.61,,13.73,1.253,93.4,,26.9,5.0,0.0,0.0,0.0,0.0,0.0,0.0,0.0,0.0,2.27,,,0,0,0,0,0,0,0,0,0,0,0,0,0,0,0,0,0.0,,,,0.0,39.240116,-77.964874,0.08,24.0,2.0,1.1
95,127798,1745094840258,,,,,,,,,,,,,,,,,,,,,,,,,,,,,,,,,,0,0,0,0,0,0,0,0,0,0,0,0,0,0,0,0,,,,,,,,,,,
96,127818,1745094840278,0.0,200.98,,-0.03,-0.02,0.98,0.0,0.0,0.0,0.98,1.75,56.0,1992.0,5.3,3.61,,13.73,1.253,93.4,,26.3,5.0,,,,,,,,,,,,0,0,0,0,0,0,0,0,0,0,0,0,0,0,0,0,,,,,0.0,,,,,,
97,127838,1745094840302,,,,,,,,,,,,,,,,,,,,,,,,,,,,,,,,,,0,0,0,0,0,0,0,0,0,0,0,0,0,0,0,0,,,,,,,,,,,
98,127858,1745094840322,0.0,200.98,,-0.03,-0.03,0.99,0.0,0.0,0.0,0.99,1.75,57.0,2001.0,5.4,3.61,,13.73,1.253,93.4,,26.3,5.0,,,,,,,,,,,,0,0,0,0,0,0,0,0,0,0,0,0,0,0,0,0,,,,,0.0,,,,,,
99,127878,1745094840342,,,,,,,,,,,,,,,,,,,,,,,0.0,0.0,0.0,0.0,0.0,0.0,0.0,0.0,2.26,,,0,0,0,0,0,0,0,0,0,0,0,0,0,0,0,0,0.0,,,,,39.240116,-77.964874,0.07,24.0,2.0,1.1
100,127898,1745094840362,0.0,200.85,,-0.03,-0.02,0.98,0.0,0.0,0.0,0.98,1.75,56.0,2001.0,5.4,3.61,,13.77,1.253,93.4,,26.2,5.0,,,,,,,,,,,,0,0,0,0,0,0,0,0,0,0,0,0,0,0,0,0,,,,,0.0,,,,,,
101,127918,1745094840382,,,,,,,,,,,,,,,,,,,,,,,,,,,,,,,,,,0,0,0,0,0,0,0,0,0,0,0,0,0,0,0,0,,,,,,,,,,,
102,127938,1745094840402,0.0,200.85,,-0.03,-0.02,0.99,0.0,0.0,0.0,0.99,1.75,57.0,1856.0,10.0,3.57,,13.92,1.252,95.2,,26.2,5.0,,,,,,,,,,,,0,0,0,0,0,0,0,0,0,0,0,0,0,0,0,0,,,,,0.0,,,,,,
103,127958,1745094840422,,,,,,,,,,,,,,,,,,,,,,,,,,,,,,,,,,0,0,0,0,0,0,0,0,0,0,0,0,0,0,0,0,,,,,,,,,,,
104,127978,1745094840442,0.0,200.85,,-0.04,-0.04,0.99,0.0,0.0,0.0,1.0,1.75,57.0,1924.0,14.4,3.82,,14.0,1.25,95.2,,26.2,5.0,0.0,0.0,0.0,0.0,0.0,0.0,0.0,0.0,2.26,,,0,0,0,0,0,0,0,0,0,0,0,0,0,0,0,0,0.0,,,,0.0,39.240116,-77.964874,0.04,24.0,2.0,1.1
105,127998,1745094840462,,,,,,,,,,,,,,,,,,,,,,,,,,,,,,,,,,0,0,0,0,0,0,0,0,0,0,0,0,0,0,0,0,,,,,,,,,,,
106,128018,1745094840482,0.0,200.98,,-0.03,-0.02,0.99,0.0,0.0,0.0,0.99,1.75,57.0,2251.0,15.0,4.2,,13.99,1.25,95.2,,28.8,5.0,,,,,,,,,,,,0,0,0,0,0,0,0,0,0,0,0,0,0,0,0,0,,,,,0.0,,,,,,
107,128038,1745094840501,,,,,,,,,,,,,,,,,,,,,,,,,,,,,,,,,,0,0,0,0,0,0,0,0,0,0,0,0,0,0,0,0,,,,,,,,,,,
108,128058,1745094840521,0.0,200.98,,-0.04,-0.01,0.99,0.0,0.0,0.0,0.99,1.75,57.0,2417.0,14.9,4.16,,13.99,1.25,95.2,,28.8,5.0,,,,,,,,,,,,0,0,0,0,0,0,0,0,0,0,0,0,0,0,0,0,,,,,0.0,,,,,,
109,128078,1745094840541,,,,,,,,,,,,,,,,,,,,,,,0.0,0.0,0.0,0.0,0.0,0.0,0.0,0.0,2.26,,,0,0,0,0,0,0,0,0,0,0,0,0,0,0,0,0,0.0,,,,,39.240116,-77.964874,0.04,24.0,2.0,1.1
110,128098,1745094840561,0.0,200.98,,-0.03,-0.02,1.0,0.0,0.0,0.0,1.0,1.75,57.0,2417.0,14.9,4.16,,13.92,1.25,95.2,,31.3,5.0,,,,,,,,,,,,0,0,0,0,0,0,0,0,0,0,0,0,0,0,0,0,,,,,0.0,,,,,,
111,128118,1745094840581,,,,,,,,,,,,,,,,,,,,,,,,,,,,,,,,,,0,0,0,0,0,0,0,0,0,0,0,0,0,0,0,0,,,,,,,,,,,
112,128138,1745094840601,0.0,200.98,,-0.04,-0.02,1.02,0.0,0.0,0.0,1.02,1.75,59.0,2413.0,14.9,4.14,,13.88,1.25,95.2,,31.3,5.0,,,,,,,,,,,,0,0,0,0,0,0,0,0,0,0,0,0,0,0,0,0,,,,,0.0,,,,,,
113,128158,1745094840621,,,,,,,,,,,,,,,,,,,,,,,,,,,,,,,,,,0,0,0,0,0,0,0,0,0,0,0,0,0,0,0,0,,,,,,,,,,,
114,128178,1745094840641,0.0,200.98,,-0.05,-0.03,1.03,0.0,0.0,0.0,1.03,1.75,59.0,2395.0,13.7,4.16,,13.84,1.25,95.2,,31.3,5.0,0.0,0.0,0.0,0.0,0.0,0.0,0.0,0.0,2.26,,,0,0,0,0,0,0,0,0,0,0,0,0,0,0,0,0,0.0,,,,0.0,39.240116,-77.964874,0.04,24.0,2.0,1.1
115,128198,1745094840661,,,,,,,,,,,,,,,,,,,,,,,,,,,,,,,,,,0,0,0,0,0,0,0,0,0,0,0,0,0,0,0,0,,,,,,,,,,,
116,128218,1745094840681,0.0,200.98,,-0.03,-0.03,1.02,0.0,0.0,0.0,1.02,1.75,58.0,2371.0,5.5,3.64,,13.68,1.251,95.2,,30.3,5.0,,,,,,,,,,,,0,0,0,0,0,0,0,0,0,0,0,0,0,0,0,0,,,,,0.0,,,,,,
117,128238,1745094840701,,,,,,,,,,,,,,,,,,,,,,,,,,,,,,,,,,0,0,0,0,0,0,0,0,0,0,0,0,0,0,0,0,,,,,,,,,,,
118,128258,1745094840721,0.0,200.98,,-0.03,-0.05,1.03,0.0,0.0,0.0,1.03,1.75,59.0,2325.0,0.5,3.39,,13.68,1.251,95.2,,30.3,5.0,,,,,,,,,,,,0,0,0,0,0,0,0,0,0,0,0,0,0,0,0,0,,,,,0.0,,,,,,
119,128278,1745094840741,,,,,,,,,,,,,,,,,,,,,,,0.0,0.0,0.0,0.0,0.0,0.0,0.0,0.0,2.27,,,0,0,0,0,0,0,0,0,0,0,0,0,0,0,0,0,0.0,,,,,39.240116,-77.964874,0.08,24.0,2.0,1.1
120,128298,1745094840761,0.0,200.85,,-0.04,-0.04,1.01,0.0,0.0,0.0,1.02,1.75,58.0,2325.0,0.5,3.39,,13.48,1.253,95.2,,33.0,5.0,,,,,,,,,,,,0,0,0,0,0,0,0,0,0,0,0,0,0,0,0,0,,,,,0.0,,,,,,
121,128318,1745094840781,,,,,,,,,,,,,,,,,,,,,,,,,,,,,,,,,,0,0,0,0,0,0,0,0,0,0,0,0,0,0,0,0,,,,,,,,,,,
122,128338,1745094840801,0.0,200.98,,-0.04,-0.06,1.03,0.0,0.0,0.0,1.03,1.75,59.0,2575.0,0.1,3.14,,13.23,1.253,95.2,,33.0,5.0,,,,,,,,,,,,0,0,0,0,0,0,0,0,0,0,0,0,0,0,0,0,,,,,0.0,,,,,,
123,128358,1745094840821,,,,,,,,,,,,,,,,,,,,,,,,,,,,,,,,,,0,0,0,0,0,0,0,0,0,0,0,0,0,0,0,0,,,,,,,,,,,
124,128378,1745094840841,0.0,200.85,13.34,-0.05,-0.06,1.04,0.0,0.0,0.0,1.04,1.75,60.0,2465.0,0.1,3.11,15.0,13.15,1.253,95.2,108.0,33.0,5.0,0.0,0.0,0.0,0.0,0.0,0.0,0.0,0.0,2.26,0.0,0.0,0,0,0,0,0,0,0,0,0,0,0,0,0,0,0,0,0.0,0.0,0.0,0.0,0.0,39.240116,-77.964874,0.05,24.0,2.0,1.1
125,128398,1745094840861,,,,,,,,,,,,,,,,,,,,,,,,,,,,,,,,,,0,0,0,0,0,0,0,0,0,0,0,0,0,0,0,0,,,,,,,,,,,
126,128418,1745094840881,0.0,200.85,,-0.04,-0.07,1.03,0.0,0.0,0.0,1.03,1.75,59.0,2346.0,1.1,3.17,,13.19,1.251,95.2,,30.5,5.0,,,,,,,,,,,,0,0,0,0,0,0,0,0,0,0,0,0,0,0,0,0,,,,,0.0,,,,,,
127,128438,1745094840901,,,,,,,,,,,,,,,,,,,,,,,,,,,,,,,,,,0,0,0,0,0,0,0,0,0,0,0,0,0,0,0,0,,,,,,,,,,,
128,128458,1745094840921,0.0,200.98,,-0.05,-0.06,1.02,0.0,0.0,0.0,1.02,1.75,58.0,2487.0,2.9,3.45,,13.19,1.251,95.2,,30.5,5.0,,,,,,,,,,,,0,0,0,0,0,0,0,0,0,0,0,0,0,0,0,0,,,,,0.0,,,,,,
129,128478,1745094840941,,,,,,,,,,,,,,,,,,,,,,,0.0,0.0,0.0,0.0,0.0,0.0,0.0,0.0,2.26,,,0,0,0,0,0,0,0,0,0,0,0,0,0,0,0,0,0.0,,,,,39.240116,-77.964874,0.04,24.0,2.0,1.1
130,128498,1745094840961,0.0,200.98,,-0.05,-0.06,1.01,0.0,0.0,0.0,1.01,1.75,58.0,2487.0,2.9,3.45,,13.24,1.25,95.2,,31.6,5.0,,,,,,,,,,,,0,0,0,0,0,0,0,0,0,0,0,0,0,0,0,0,,,,,0.0,,,,,,
131,128518,1745094840981,,,,,,,,,,,,,,,,,,,,,,,,,,,,,,,,,,0,0,0,0,0,0,0,0,0,0,0,0,0,0,0,0,,,,,,,,,,,
132,128538,1745094840993,0.0,200.98,,-0.04,-0.06,1.01,0.0,0.0,0.0,1.02,1.75,58.0,2437.0,3.2,3.49,,13.31,1.25,95.2,,31.6,5.0,,,,,,,,,,,,0,0,0,0,0,0,0,0,0,0,0,0,0,0,0,0,,,,,0.0,,,,,,
133,128558,1745094841013,,,,,,,,,,,,,,,,,,,,,,,,,,,,,,,,,,0,0,0,0,0,0,0,0,0,0,0,0,0,0,0,0,,,,,,,,,,,
134,128578,1745094841033,0.0,200.98,,-0.05,-0.07,1.04,0.0,0.0,0.0,1.04,1.75,60.0,2355.0,6.9,3.61,,13.49,1.249,95.2,,31.6,5.0,0.0,0.0,0.0,0.0,0.0,0.0,0.0,0.0,2.26,,,0,0,0,0,0,0,0,0,0,0,0,0,0,0,0,0,0.0,,,,0.0,39.240116,-77.964874,0.11,24.0,2.0,1.1
135,128598,1745094841053,,,,,,,,,,,,,,,,,,,,,,,,,,,,,,,,,,0,0,0,0,0,0,0,0,0,0,0,0,0,0,0,0,,,,,,,,,,,
136,128618,1745094841073,0.0,200.98,,-0.05,-0.06,1.02,0.0,0.0,0.0,1.02,1.75,59.0,2557.0,7.8,3.63,,13.57,1.249,95.2,,33.2,5.0,,,,,,,,,,,,0,0,0,0,0,0,0,0,0,0,0,0,0,0,0,0,,,,,0.0,,,,,,
137,128638,1745094841099,,,,,,,,,,,,,,,,,,,,,,,,,,,,,,,,,,0,0,0,0,0,0,0,0,0,0,0,0,0,0,0,0,,,,,,,,,,,
138,128658,1745094841119,0.0,200.98,,-0.06,-0.07,1.03,0.0,0.0,0.0,1.04,1.75,59.0,2585.0,7.8,3.64,,13.57,1.249,95.2,,33.2,5.0,,,,,,,,,,,,0,0,0,0,0,0,0,0,0,0,0,0,0,0,0,0,,,,,0.0,,,,,,
139,128678,1745094841139,,,,,,,,,,,,,,,,,,,,,,,0.0,0.0,0.0,0.0,0.0,0.0,0.0,0.0,2.27,,,0,0,0,0,0,0,0,0,0,0,0,0,0,0,0,0,0.0,,,,,39.240116,-77.964874,0.09,24.0,2.0,1.1
140,128698,1745094841159,0.0,200.98,,-0.05,-0.07,1.03,0.0,0.0,0.0,1.03,1.75,59.0,2585.0,7.8,3.64,,13.56,1.249,95.2,,33.4,5.0,,,,,,,,,,,,0,0,0,0,0,0,0,0,0,0,0,0,0,0,0,0,,,,,0.0,,,,,,
141,128718,1745094841179,,,,,,,,,,,,,,,,,,,,,,,,,,,,,,,,,,0,0,0,0,0,0,0,0,0,0,0,0,0,0,0,0,,,,,,,,,,,
142,128738,1745094841201,0.0,200.98,,-0.06,-0.06,1.02,0.0,0.0,0.0,1.03,1.75,59.0,2505.0,7.8,3.64,,13.6,1.231,95.2,,33.4,5.0,,,,,,,,,,,,0,0,0,0,0,0,0,0,0,0,0,0,0,0,0,0,,,,,0.0,,,,,,
143,128758,1745094841221,,,,,,,,,,,,,,,,,,,,,,,,,,,,,,,,,,0,0,0,0,0,0,0,0,0,0,0,0,0,0,0,0,,,,,,,,,,,
144,128778,1745094841241,0.0,200.98,,-0.05,-0.05,1.0,0.0,0.0,0.0,1.0,1.75,58.0,2442.0,7.8,3.62,,13.61,1.251,95.2,,33.4,5.0,0.0,0.0,0.0,0.0,0.0,0.0,0.0,0.0,2.27,,,0,0,0,0,0,0,0,0,0,0,0,0,0,0,0,0,0.0,,,,0.0,39.240116,-77.964874,0.04,24.0,2.0,1.1
145,128798,1745094841261,,,,,,,,,,,,,,,,,,,,,,,,,,,,,,,,,,0,0,0,0,0,0,0,0,0,0,0,0,0,0,0,0,,,,,,,,,,,
146,128818,1745094841281,0.0,200.98,,-0.04,-0.03,1.0,0.0,0.0,0.0,1.0,1.75,58.0,2403.0,7.9,3.6,,13.65,1.252,95.2,,31.7,5.0,,,,,,,,,,,,0,0,0,0,0,0,0,0,0,0,0,0,0,0,0,0,,,,,0.0,,,,,,
147,128838,1745094841301,,,,,,,,,,,,,,,,,,,,,,,,,,,,,,,,,,0,0,0,0,0,0,0,0,0,0,0,0,0,0,0,0,,,,,,,,,,,
148,128858,1745094841321,0.0,200.98,,-0.04,-0.04,1.0,0.0,0.0,0.0,1.0,1.75,57.0,2403.0,7.9,3.6,,13.65,1.252,95.2,,31.7,5.0,,,,,,,,,,,,0,0,0,0,0,0,0,0,0,0,0,0,0,0,0,0,,,,,0.0,,,,,,
149,128878,1745094841341,,,,,,,,,,,,,,,,,,,,,,,0.0,0.0,0.0,0.0,0.0,0.0,0.0,0.0,2.26,,,0,0,0,0,0,0,0,0,0,0,0,0,0,0,0,0,0.0,,,,,39.240116,-77.964874,0.06,24.0,2.0,1.1
150,128898,1745094841361,0.0,200.98,,-0.04,-0.04,1.02,0.0,0.0,0.0,1.02,1.75,59.0,2577.0,8.1,3.67,,13.61,1.252,95.2,,35.7,5.0,,,,,,,,,,,,0,0,0,0,0,0,0,0,0,0,0,0,0,0,0,0,,,,,0.0,,,,,,
151,128918,1745094841381,,,,,,,,,,,,,,,,,,,,,,,,,,,,,,,,,,0,0,0,0,0,0,0,0,0,0,0,0,0,0,0,0,,,,,,,,,,,
152,128938,1745094841403,0.0,200.98,,-0.04,-0.02,0.99,0.0,0.0,0.0,0.99,1.75,57.0,2658.0,8.1,3.7,,13.55,1.252,93.4,,35.7,5.0,,,,,,,,,,,,0,0,0,0,0,0,0,0,0,0,0,0,0,0,0,0,,,,,0.0,,,,,,
153,128958,1745094841423,,,,,,,,,,,,,,,,,,,,,,,,,,,,,,,,,,0,0,0,0,0,0,0,0,0,0,0,0,0,0,0,0,,,,,,,,,,,
154,128978,1745094841443,0.0,201.11,,-0.07,-0.05,1.03,0.0,0.0,0.0,1.04,1.75,59.0,2705.0,8.1,3.7,,13.47,1.25,93.4,,35.7,5.0,0.0,0.0,0.0,0.0,0.0,0.0,0.0,0.0,2.26,,,0,0,0,0,0,0,0,0,0,0,0,0,0,0,0,0,0.0,,,,0.0,39.240116,-77.964874,0.07,24.0,2.0,1.1
155,128998,1745094841463,,,,,,,,,,,,,,,,,,,,,,,,,,,,,,,,,,0,0,0,0,0,0,0,0,0,0,0,0,0,0,0,0,,,,,,,,,,,
156,129018,1745094841483,0.0,201.11,,-0.08,-0.08,1.1,0.0,0.0,0.0,1.1,1.75,63.0,3051.0,8.0,3.75,,13.37,1.249,93.4,,38.0,5.0,,,,,,,,,,,,0,0,0,0,0,0,0,0,0,0,0,0,0,0,0,0,,,,,0.0,,,,,,
157,129038,1745094841502,,,,,,,,,,,,,,,,,,,,,,,,,,,,,,,,,,0,0,0,0,0,0,0,0,0,0,0,0,0,0,0,0,,,,,,,,,,,
158,129058,1745094841522,0.0,200.98,,-0.12,-0.13,1.11,1.0,0.0,0.0,1.13,1.75,64.0,3067.0,8.0,3.77,,13.37,1.249,93.4,,38.0,5.0,,,,,,,,,,,,0,0,0,0,0,0,0,0,0,0,0,0,0,0,0,0,,,,,0.0,,,,,,
159,129078,1745094841542,,,,,,,,,,,,,,,,,,,,,,,0.0,0.0,0.0,0.0,0.0,0.0,0.0,0.0,2.26,,,0,0,0,0,0,0,0,0,0,0,0,0,0,0,0,0,0.0,,,,,39.240116,-77.964874,0.05,24.0,2.0,1.1
160,129098,1745094841562,0.0,200.98,,-0.14,-0.14,1.08,1.0,0.0,-1.0,1.1,1.75,63.0,3067.0,8.0,3.77,,13.32,1.249,93.4,,42.2,5.0,,,,,,,,,,,,0,0,0,0,0,0,0,0,0,0,0,0,0,0,0,0,,,,,0.0,,,,,,
161,129118,1745094841582,,,,,,,,,,,,,,,,,,,,,,,,,,,,,,,,,,0,0,0,0,0,0,0,0,0,0,0,0,0,0,0,0,,,,,,,,,,,
162,129138,1745094841602,0.0,200.98,,-0.13,-0.09,0.99,1.0,0.0,-1.0,1.0,1.75,57.0,3074.0,8.2,3.77,,13.27,1.249,93.4,,42.2,5.0,,,,,,,,,,,,0,0,0,0,0,0,0,0,0,0,0,0,0,0,0,0,,,,,0.0,,,,,,
163,129158,1745094841622,,,,,,,,,,,,,,,,,,,,,,,,,,,,,,,,,,0,0,0,0,0,0,0,0,0,0,0,0,0,0,0,0,,,,,,,,,,,
164,129178,1745094841642,0.0,200.98,,-0.1,0.01,0.92,1.0,0.0,0.0,0.92,1.75,53.0,3116.0,8.4,3.77,,13.2,1.225,93.4,,42.2,5.0,0.0,0.0,0.0,0.0,0.0,0.0,0.0,0.0,2.27,,,0,0,0,0,0,0,0,0,0,0,0,0,0,0,0,0,0.0,,,,0.0,39.240116,-77.964874,0.04,24.0,2.0,1.1
165,129198,1745094841662,,,,,,,,,,,,,,,,,,,,,,,,,,,,,,,,,,0,0,0,0,0,0,0,0,0,0,0,0,0,0,0,0,,,,,,,,,,,
166,129218,1745094841682,0.0,200.98,,-0.08,-0.02,1.0,0.0,0.0,0.0,1.01,1.75,58.0,3235.0,5.6,3.7,,13.07,1.226,93.4,,44.7,5.0,,,,,,,,,,,,0,0,0,0,0,0,0,0,0,0,0,0,0,0,0,0,,,,,0.0,,,,,,
167,129238,1745094841702,,,,,,,,,,,,,,,,,,,,,,,,,,,,,,,,,,0,0,0,0,0,0,0,0,0,0,0,0,0,0,0,0,,,,,,,,,,,
168,129258,1745094841722,0.0,200.85,,-0.1,-0.11,1.01,1.0,0.0,0.0,1.02,1.75,59.0,3223.0,3.5,3.49,,13.07,1.226,93.4,,44.7,5.0,,,,,,,,,,,,0,0,0,0,0,0,0,0,0,0,0,0,0,0,0,0,,,,,0.0,,,,,,
169,129278,1745094841742,,,,,,,,,,,,,,,,,,,,,,,0.0,0.0,0.0,0.0,0.0,0.0,0.0,0.0,2.27,,,0,0,0,0,0,0,0,0,0,0,0,0,0,0,0,0,0.0,,,,,39.240116,-77.964874,0.04,24.0,2.0,1.1
170,129298,1745094841762,0.0,200.85,,-0.08,-0.0,0.92,1.0,0.0,0.0,0.92,1.75,53.0,3223.0,3.5,3.49,,12.87,1.212,93.4,,44.9,5.0,,,,,,,,,,,,0,0,0,0,0,0,0,0,0,0,0,0,0,0,0,0,,,,,0.0,,,,,,
171,129318,1745094841782,,,,,,,,,,,,,,,,,,,,,,,,,,,,,,,,,,0,0,0,0,0,0,0,0,0,0,0,0,0,0,0,0,,,,,,,,,,,
172,129338,1745094841802,0.0,200.85,,-0.06,0.02,0.97,0.0,0.0,0.0,0.97,1.75,56.0,3241.0,3.3,3.47,,12.75,1.201,93.4,,44.9,5.0,,,,,,,,,,,,0,0,0,0,0,0,0,0,0,0,0,0,0,0,0,0,,,,,0.0,,,,,,
173,129358,1745094841822,,,,,,,,,,,,,,,,,,,,,,,,,,,,,,,,,,0,0,0,0,0,0,0,0,0,0,0,0,0,0,0,0,,,,,,,,,,,
174,129378,1745094841842,0.0,200.85,13.32,-0.09,-0.05,1.05,0.0,0.0,0.0,1.06,1.75,61.0,3162.0,1.3,3.04,15.0,12.65,1.19,93.4,108.0,44.9,5.0,0.0,0.0,0.0,0.0,0.0,0.0,0.0,0.0,2.26,0.0,0.0,0,0,0,0,0,0,0,0,0,0,0,0,0,0,0,0,0.0,0.0,0.0,0.0,0.0,39.240116,-77.964874,0.04,24.0,2.0,1.1
175,129398,1745094841862,,,,,,,,,,,,,,,,,,,,,,,,,,,,,,,,,,0,0,0,0,0,0,0,0,0,0,0,0,0,0,0,0,,,,,,,,,,,
176,129418,1745094841882,0.0,200.98,,-0.13,-0.11,1.09,0.0,0.0,0.0,1.1,1.75,63.0,3038.0,0.9,2.98,,12.51,1.18,93.4,,43.7,5.0,,,,,,,,,,,,0,0,0,0,0,0,0,0,0,0,0,0,0,0,0,0,,,,,0.0,,,,,,
177,129438,1745094841903,,,,,,,,,,,,,,,,,,,,,,,,,,,,,,,,,,0,0,0,0,0,0,0,0,0,0,0,0,0,0,0,0,,,,,,,,,,,
178,129458,1745094841923,0.0,200.98,,-0.14,-0.11,1.11,1.0,0.0,0.0,1.12,1.75,64.0,2901.0,0.8,3.0,,12.51,1.18,93.4,,43.7,5.0,,,,,,,,,,,,0,0,0,0,0,0,0,0,0,0,0,0,0,0,0,0,,,,,0.0,,,,,,
179,129478,1745094841943,,,,,,,,,,,,,,,,,,,,,,,0.0,0.0,0.0,0.0,0.0,0.0,0.0,0.0,2.26,,,0,0,0,0,0,0,0,0,0,0,0,0,0,0,0,0,0.0,,,,,39.240116,-77.964874,0.04,24.0,2.0,1.1
180,129498,1745094841963,0.0,200.98,,-0.13,-0.1,1.11,0.0,0.0,0.0,1.13,1.75,65.0,2901.0,0.8,3.0,,12.53,1.161,93.4,,39.2,5.0,,,,,,,,,,,,0,0,0,0,0,0,0,0,0,0,0,0,0,0,0,0,,,,,0.0,,,,,,
181,129518,1745094841983,,,,,,,,,,,,,,,,,,,,,,,,,,,,,,,,,,0,0,0,0,0,0,0,0,0,0,0,0,0,0,0,0,,,,,,,,,,,
182,129538,1745094841992,0.0,200.98,,-0.12,-0.06,1.05,0.0,0.0,0.0,1.06,1.75,61.0,2759.0,0.8,3.02,,12.61,1.14,93.4,,39.2,5.0,,,,,,,,,,,,0,0,0,0,0,0,0,0,0,0,0,0,0,0,0,0,,,,,0.0,,,,,,
183,129558,1745094842012,,,,,,,,,,,,,,,,,,,,,,,,,,,,,,,,,,0,0,0,0,0,0,0,0,0,0,0,0,0,0,0,0,,,,,,,,,,,
184,129578,1745094842032,0.0,200.98,,-0.12,-0.06,1.05,0.0,0.0,0.0,1.05,1.75,60.0,2807.0,0.7,3.08,,12.61,1.137,93.4,,39.2,5.0,0.0,0.0,0.0,0.0,0.0,0.0,0.0,0.0,2.26,,,0,0,0,0,0,0,0,0,0,0,0,0,0,0,0,0,0.0,,,,0.0,39.240116,-77.964874,0.13,24.0,2.0,1.1
185,129598,1745094842052,,,,,,,,,,,,,,,,,,,,,,,,,,,,,,,,,,0,0,0,0,0,0,0,0,0,0,0,0,0,0,0,0,,,,,,,,,,,
186,129618,1745094842072,0.0,200.85,,-0.11,-0.07,1.04,0.0,0.0,0.0,1.05,1.75,60.0,2704.0,0.7,3.1,,12.65,1.208,93.4,,37.2,5.0,,,,,,,,,,,,0,0,0,0,0,0,0,0,0,0,0,0,0,0,0,0,,,,,0.0,,,,,,
187,129638,1745094842102,,,,,,,,,,,,,,,,,,,,,,,,,,,,,,,,,,0,0,0,0,0,0,0,0,0,0,0,0,0,0,0,0,,,,,,,,,,,
188,129658,1745094842122,0.0,200.98,,-0.11,-0.06,1.03,0.0,0.0,0.0,1.04,1.75,59.0,2652.0,3.9,3.52,,12.65,1.208,93.4,,37.2,5.0,,,,,,,,,,,,0,0,0,0,0,0,0,0,0,0,0,0,0,0,0,0,,,,,0.0,,,,,,
189,129678,1745094842142,,,,,,,,,,,,,,,,,,,,,,,0.0,0.0,0.0,0.0,0.0,0.0,0.0,0.0,2.27,,,0,0,0,0,0,0,0,0,0,0,0,0,0,0,0,0,0.0,,,,,39.240116,-77.964874,0.04,24.0,2.0,1.1
190,129698,1745094842162,0.0,200.98,,-0.1,-0.05,1.03,0.0,0.0,0.0,1.04,1.75,59.0,2652.0,3.9,3.52,,12.88,1.176,93.4,,35.3,5.0,,,,,,,,,,,,0,0,0,0,0,0,0,0,0,0,0,0,0,0,0,0,,,,,0.0,,,,,,
191,129718,1745094842182,,,,,,,,,,,,,,,,,,,,,,,,,,,,,,,,,,0,0,0,0,0,0,0,0,0,0,0,0,0,0,0,0,,,,,,,,,,,
192,129738,1745094842198,0.0,200.98,,-0.08,0.01,1.03,0.0,0.0,1.0,1.04,1.75,59.0,2835.0,5.7,3.61,,13.11,1.128,93.4,,35.3,5.0,,,,,,,,,,,,0,0,0,0,0,0,0,0,0,0,0,0,0,0,0,0,,,,,0.0,,,,,,
193,129758,1745094842218,,,,,,,,,,,,,,,,,,,,,,,,,,,,,,,,,,0,0,0,0,0,0,0,0,0,0,0,0,0,0,0,0,,,,,,,,,,,
194,129778,1745094842238,0.0,200.98,,-0.07,0.0,1.08,-1.0,0.0,1.0,1.08,1.75,62.0,3085.0,6.8,3.69,,13.08,1.151,93.4,,35.3,5.0,0.0,0.0,0.0,0.0,0.0,0.0,0.0,0.0,2.27,,,0,0,0,0,0,0,0,0,0,0,0,0,0,0,0,0,0.0,,,,0.0,39.240116,-77.964874,0.05,24.0,2.0,1.1
195,129798,1745094842258,,,,,,,,,,,,,,,,,,,,,,,,,,,,,,,,,,0,0,0,0,0,0,0,0,0,0,0,0,0,0,0,0,,,,,,,,,,,
196,129818,1745094842278,0.0,200.98,,-0.06,0.0,1.1,-1.0,0.0,1.0,1.1,1.75,63.0,2997.0,7.2,3.71,,13.15,1.179,93.4,,41.8,5.0,,,,,,,,,,,,0,0,0,0,0,0,0,0,0,0,0,0,0,0,0,0,,,,,0.0,,,,,,
197,129838,1745094842302,,,,,,,,,,,,,,,,,,,,,,,,,,,,,,,,,,0,0,0,0,0,0,0,0,0,0,0,0,0,0,0,0,,,,,,,,,,,
198,129858,1745094842322,0.0,200.98,,-0.05,0.04,1.08,-1.0,0.0,1.0,1.08,1.75,62.0,2967.0,7.4,3.7,,13.15,1.179,93.4,,41.8,5.0,,,,,,,,,,,,0,0,0,0,0,0,0,0,0,0,0,0,0,0,0,0,,,,,0.0,,,,,,
199,129878,1745094842342,,,,,,,,,,,,,,,,,,,,,,,0.0,0.0,0.0,0.0,0.0,0.0,0.0,0.0,2.26,,,0,0,0,0,0,0,0,0,0,0,0,0,0,0,0,0,0.0,,,,,39.240116,-77.964874,0.0,24.0,2.0,1.1
200,129898,1745094842362,0.0,200.98,,-0.03,0.07,1.04,-1.0,0.0,1.0,1.04,1.75,60.0,2967.0,7.4,3.7,,13.13,1.174,93.4,,39.1,5.0,,,,,,,,,,,,0,0,0,0,0,0,0,0,0,0,0,0,0,0,0,0,,,,,0.0,,,,,,
201,129918,1745094842382,,,,,,,,,,,,,,,,,,,,,,,,,,,,,,,,,,0,0,0,0,0,0,0,0,0,0,0,0,0,0,0,0,,,,,,,,,,,
202,129938,1745094842402,0.0,200.98,,-0.04,0.04,1.04,-1.0,0.0,1.0,1.04,1.75,60.0,2844.0,7.5,3.7,,13.17,1.145,93.4,,39.1,5.0,,,,,,,,,,,,0,0,0,0,0,0,0,0,0,0,0,0,0,0,0,0,,,,,0.0,,,,,,
203,129958,1745094842422,,,,,,,,,,,,,,,,,,,,,,,,,,,,,,,,,,0,0,0,0,0,0,0,0,0,0,0,0,0,0,0,0,,,,,,,,,,,
204,129978,1745094842442,0.0,200.98,,-0.03,0.01,1.07,-1.0,0.0,1.0,1.07,1.75,61.0,2808.0,7.4,3.68,,13.25,1.145,93.4,,39.1,5.0,0.0,0.0,0.0,0.0,0.0,0.0,0.0,0.0,2.26,,,0,0,0,0,0,0,0,0,0,0,0,0,0,0,0,0,0.0,,,,0.0,39.240116,-77.964874,0.04,24.0,2.0,1.1
205,129998,1745094842462,,,,,,,,,,,,,,,,,,,,,,,,,,,,,,,,,,0,0,0,0,0,0,0,0,0,0,0,0,0,0,0,0,,,,,,,,,,,
206,130018,1745094842482,0.0,200.98,,-0.03,0.02,1.04,-1.0,0.0,1.0,1.04,1.75,59.0,2609.0,7.5,3.68,,13.35,1.187,93.4,,36.8,5.0,,,,,,,,,,,,0,0,0,0,0,0,0,0,0,0,0,0,0,0,0,0,,,,,0.0,,,,,,
207,130038,1745094842501,,,,,,,,,,,,,,,,,,,,,,,,,,,,,,,,,,0,0,0,0,0,0,0,0,0,0,0,0,0,0,0,0,,,,,,,,,,,
208,130058,1745094842521,0.0,200.98,,-0.04,0.02,1.04,0.0,0.0,1.0,1.04,1.75,60.0,2544.0,7.4,3.66,,13.35,1.187,93.4,,36.8,5.0,,,,,,,,,,,,0,0,0,0,0,0,0,0,0,0,0,0,0,0,0,0,,,,,0.0,,,,,,
209,130078,1745094842541,,,,,,,,,,,,,,,,,,,,,,,0.0,0.0,0.0,0.0,0.0,0.0,0.0,0.0,2.26,,,0,0,0,0,0,0,0,0,0,0,0,0,0,0,0,0,0.0,,,,,39.240116,-77.964874,0.12,24.0,2.0,1.1
210,130098,1745094842561,0.0,200.98,,-0.04,0.02,1.02,0.0,0.0,0.0,1.03,1.75,59.0,2544.0,7.4,3.66,,13.43,1.24,93.4,,34.6,5.0,,,,,,,,,,,,0,0,0,0,0,0,0,0,0,0,0,0,0,0,0,0,,,,,0.0,,,,,,
211,130118,1745094842581,,,,,,,,,,,,,,,,,,,,,,,,,,,,,,,,,,0,0,0,0,0,0,0,0,0,0,0,0,0,0,0,0,,,,,,,,,,,
212,130138,1745094842601,0.0,200.98,,-0.04,0.01,1.03,0.0,0.0,0.0,1.03,1.75,59.0,2537.0,5.1,3.63,,13.36,1.25,93.4,,34.6,5.0,,,,,,,,,,,,0,0,0,0,0,0,0,0,0,0,0,0,0,0,0,0,,,,,0.0,,,,,,
213,130158,1745094842621,,,,,,,,,,,,,,,,,,,,,,,,,,,,,,,,,,0,0,0,0,0,0,0,0,0,0,0,0,0,0,0,0,,,,,,,,,,,
214,130178,1745094842641,0.0,200.98,,-0.04,0.0,1.03,0.0,0.0,0.0,1.03,1.75,59.0,0.0,5.0,3.65,,13.33,1.25,93.4,,34.6,5.0,0.0,0.0,0.0,0.0,0.0,0.0,0.0,0.0,2.27,,,0,0,0,0,0,0,0,0,0,0,0,0,0,0,0,0,0.0,,,,0.0,39.240116,-77.964874,0.04,24.0,2.0,1.1
215,130198,1745094842661,,,,,,,,,,,,,,,,,,,,,,,,,,,,,,,,,,0,0,0,0,0,0,0,0,0,0,0,0,0,0,0,0,,,,,,,,,,,
216,130218,1745094842681,0.0,200.98,,-0.03,0.05,0.99,0.0,0.0,1.0,1.0,1.75,57.0,2624.0,5.0,3.63,,13.27,1.25,93.4,,33.0,5.0,,,,,,,,,,,,0,0,0,0,0,0,0,0,0,0,0,0,0,0,0,0,,,,,0.0,,,,,,
217,130238,1745094842703,,,,,,,,,,,,,,,,,,,,,,,,,,,,,,,,,,0,0,0,0,0,0,0,0,0,0,0,0,0,0,0,0,,,,,,,,,,,
218,130258,1745094842723,0.0,200.98,,-0.02,0.1,0.95,0.0,0.0,1.0,0.95,1.75,55.0,2954.0,4.9,3.64,,13.27,1.25,93.4,,33.0,5.0,,,,,,,,,,,,0,0,0,0,0,0,0,0,0,0,0,0,0,0,0,0,,,,,0.0,,,,,,
219,130278,1745094842743,,,,,,,,,,,,,,,,,,,,,,,0.0,0.0,0.0,0.0,0.0,0.0,0.0,0.0,2.26,,,0,0,0,0,0,0,0,0,0,0,0,0,0,0,0,0,0.0,,,,,39.240116,-77.964874,0.05,24.0,2.0,1.1
220,130298,1745094842763,0.0,200.98,,-0.0,0.11,0.88,0.0,0.0,0.0,0.88,1.75,51.0,2954.0,4.9,3.64,,13.16,1.252,93.4,,39.9,5.0,,,,,,,,,,,,0,0,0,0,0,0,0,0,0,0,0,0,0,0,0,0,,,,,0.0,,,,,,
221,130318,1745094842783,,,,,,,,,,,,,,,,,,,,,,,,,,,,,,,,,,0,0,0,0,0,0,0,0,0,0,0,0,0,0,0,0,,,,,,,,,,,
222,130338,1745094842801,0.0,200.98,,0.01,0.12,0.84,0.0,0.0,0.0,0.85,1.75,49.0,3054.0,5.4,3.64,,13.13,1.253,93.4,,39.9,5.0,,,,,,,,,,,,0,0,0,0,0,0,0,0,0,0,0,0,0,0,0,0,,,,,0.0,,,,,,
223,130358,1745094842821,,,,,,,,,,,,,,,,,,,,,,,,,,,,,,,,,,0,0,0,0,0,0,0,0,0,0,0,0,0,0,0,0,,,,,,,,,,,
224,130378,1745094842841,0.0,200.98,13.42,0.02,0.12,0.79,1.0,0.0,0.0,0.8,1.75,46.0,2932.0,7.2,3.71,15.0,13.2,1.192,93.4,108.0,39.9,5.0,0.0,0.0,0.0,0.0,0.0,0.0,0.0,0.0,2.26,0.0,0.0,0,0,0,0,0,0,0,0,0,0,0,0,0,0,0,0,0.0,0.0,0.0,0.0,0.0,39.240116,-77.964874,0.08,24.0,2.0,1.1
225,130398,1745094842861,,,,,,,,,,,,,,,,,,,,,,,,,,,,,,,,,,0,0,0,0,0,0,0,0,0,0,0,0,0,0,0,0,,,,,,,,,,,
226,130418,1745094842881,0.0,200.98,,0.02,0.11,0.76,1.0,0.0,0.0,0.77,1.75,44.0,2964.0,7.8,3.73,,13.23,1.108,93.4,,40.9,5.0,,,,,,,,,,,,0,0,0,0,0,0,0,0,0,0,0,0,0,0,0,0,,,,,0.0,,,,,,
227,130438,1745094842901,,,,,,,,,,,,,,,,,,,,,,,,,,,,,,,,,,0,0,0,0,0,0,0,0,0,0,0,0,0,0,0,0,,,,,,,,,,,
228,130458,1745094842921,0.0,200.98,,0.04,0.16,0.77,1.0,0.0,0.0,0.79,1.75,45.0,3321.0,8.0,3.74,,13.23,1.108,93.4,,40.9,5.0,,,,,,,,,,,,0,0,0,0,0,0,0,0,0,0,0,0,0,0,0,0,,,,,0.0,,,,,,
229,130478,1745094842941,,,,,,,,,,,,,,,,,,,,,,,0.0,0.0,0.0,0.0,0.0,0.0,0.0,0.0,2.26,,,0,0,0,0,0,0,0,0,0,0,0,0,0,0,0,0,0.0,,,,,39.240116,-77.964874,0.04,24.0,2.0,1.1
230,130498,1745094842961,0.0,200.98,,0.0,0.03,0.8,1.0,0.0,0.0,0.8,1.75,46.0,3321.0,8.0,3.74,,13.17,1.132,93.4,,47.1,5.0,,,,,,,,,,,,0,0,0,0,0,0,0,0,0,0,0,0,0,0,0,0,,,,,0.0,,,,,,
231,130518,1745094842981,,,,,,,,,,,,,,,,,,,,,,,,,,,,,,,,,,0,0,0,0,0,0,0,0,0,0,0,0,0,0,0,0,,,,,,,,,,,
232,130538,1745094842993,0.0,200.98,,0.02,0.09,0.85,0.0,0.0,0.0,0.85,1.75,49.0,3438.0,8.1,3.74,,13.09,1.147,93.4,,47.1,5.0,,,,,,,,,,,,0,0,0,0,0,0,0,0,0,0,0,0,0,0,0,0,,,,,0.0,,,,,,
233,130558,1745094843013,,,,,,,,,,,,,,,,,,,,,,,,,,,,,,,,,,0,0,0,0,0,0,0,0,0,0,0,0,0,0,0,0,,,,,,,,,,,
234,130578,1745094843033,0.0,200.98,,0.01,0.04,0.82,1.0,0.0,-1.0,0.82,1.75,47.0,3412.0,6.7,3.68,,13.01,1.1,93.4,,47.1,5.0,0.0,0.0,0.0,0.0,0.0,0.0,0.0,0.0,2.26,,,0,0,0,0,0,0,0,0,0,0,0,0,0,0,0,0,0.0,,,,0.0,39.240116,-77.964874,0.07,24.0,2.0,1.1
235,130598,1745094843053,,,,,,,,,,,,,,,,,,,,,,,,,,,,,,,,,,0,0,0,0,0,0,0,0,0,0,0,0,0,0,0,0,,,,,,,,,,,
236,130618,1745094843073,0.0,200.98,,-0.0,0.08,0.86,0.0,0.0,0.0,0.86,1.75,49.0,3446.0,5.2,3.64,,12.87,1.06,93.4,,48.0,5.0,,,,,,,,,,,,0,0,0,0,0,0,0,0,0,0,0,0,0,0,0,0,,,,,0.0,,,,,,
237,130638,1745094843101,,,,,,,,,,,,,,,,,,,,,,,,,,,,,,,,,,0,0,0,0,0,0,0,0,0,0,0,0,0,0,0,0,,,,,,,,,,,
238,130658,1745094843121,0.0,200.85,,0.01,0.03,0.83,1.0,0.0,0.0,0.83,1.75,47.0,3496.0,5.1,3.61,,12.87,1.06,93.4,,48.0,5.0,,,,,,,,,,,,0,0,0,0,0,0,0,0,0,0,0,0,0,0,0,0,,,,,0.0,,,,,,
239,130678,1745094843141,,,,,,,,,,,,,,,,,,,,,,,0.0,0.0,0.0,0.0,0.0,0.0,0.0,0.0,2.27,,,0,0,0,0,0,0,0,0,0,0,0,0,0,0,0,0,0.0,,,,,39.240116,-77.964874,0.08,24.0,2.0,1.1
240,130698,1745094843161,0.0,200.85,,-0.01,-0.05,0.85,1.0,0.0,-1.0,0.85,1.75,49.0,3496.0,5.1,3.61,,12.8,1.05,93.4,,50.7,5.0,,,,,,,,,,,,0,0,0,0,0,0,0,0,0,0,0,0,0,0,0,0,,,,,0.0,,,,,,
241,130718,1745094843181,,,,,,,,,,,,,,,,,,,,,,,,,,,,,,,,,,0,0,0,0,0,0,0,0,0,0,0,0,0,0,0,0,,,,,,,,,,,
242,130738,1745094843197,0.0,200.85,,-0.04,-0.05,0.9,1.0,0.0,0.0,0.9,1.75,52.0,3622.0,1.3,3.36,,12.45,1.104,93.4,,50.7,5.0,,,,,,,,,,,,0,0,0,0,0,0,0,0,0,0,0,0,0,0,0,0,,,,,0.0,,,,,,
243,130758,1745094843217,,,,,,,,,,,,,,,,,,,,,,,,,,,,,,,,,,0,0,0,0,0,0,0,0,0,0,0,0,0,0,0,0,,,,,,,,,,,
244,130778,1745094843237,0.0,200.98,,-0.01,0.04,0.91,0.0,0.0,0.0,0.91,1.75,52.0,3567.0,0.0,2.62,,12.15,1.051,93.4,,50.7,5.0,0.0,0.0,0.0,0.0,0.0,0.0,0.0,0.0,2.27,,,0,0,0,0,0,0,0,0,0,0,0,0,0,0,0,0,0.0,,,,0.0,39.240116,-77.964874,0.0,24.0,2.0,1.1
245,130798,1745094843257,,,,,,,,,,,,,,,,,,,,,,,,,,,,,,,,,,0,0,0,0,0,0,0,0,0,0,0,0,0,0,0,0,,,,,,,,,,,
246,130818,1745094843277,0.0,200.98,,-0.03,-0.01,0.88,1.0,0.0,0.0,0.88,1.75,51.0,3716.0,0.0,2.64,,12.05,1.003,93.4,,49.7,5.0,,,,,,,,,,,,0,0,0,0,0,0,0,0,0,0,0,0,0,0,0,0,,,,,0.0,,,,,,
247,130838,1745094843303,,,,,,,,,,,,,,,,,,,,,,,,,,,,,,,,,,0,0,0,0,0,0,0,0,0,0,0,0,0,0,0,0,,,,,,,,,,,
248,130858,1745094843323,0.0,200.85,,-0.03,0.07,0.95,0.0,0.0,0.0,0.95,1.75,54.0,3288.0,0.0,2.65,,12.05,1.003,93.4,,49.7,5.0,,,,,,,,,,,,0,0,0,0,0,0,0,0,0,0,0,0,0,0,0,0,,,,,0.0,,,,,,
249,130878,1745094843343,,,,,,,,,,,,,,,,,,,,,,,0.0,0.0,0.0,0.0,0.0,0.0,0.0,0.0,2.26,,,0,0,0,0,0,0,0,0,0,0,0,0,0,0,0,0,0.0,,,,,39.240116,-77.964874,0.13,24.0,2.0,1.1
250,130898,1745094843363,0.0,200.85,,-0.05,-0.02,1.01,1.0,0.0,0.0,1.01,1.75,58.0,3288.0,0.0,2.65,,11.96,1.012,93.4,,45.3,5.0,,,,,,,,,,,,0,0,0,0,0,0,0,0,0,0,0,0,0,0,0,0,,,,,0.0,,,,,,
251,130918,1745094843383,,,,,,,,,,,,,,,,,,,,,,,,,,,,,,,,,,0,0,0,0,0,0,0,0,0,0,0,0,0,0,0,0,,,,,,,,,,,
252,130938,1745094843403,0.0,200.85,,-0.08,-0.06,1.0,1.0,0.0,-1.0,1.01,1.75,58.0,3103.0,0.0,2.77,,12.05,1.066,93.4,,45.3,5.0,,,,,,,,,,,,0,0,0,0,0,0,0,0,0,0,0,0,0,0,0,0,,,,,0.0,,,,,,
253,130958,1745094843423,,,,,,,,,,,,,,,,,,,,,,,,,,,,,,,,,,0,0,0,0,0,0,0,0,0,0,0,0,0,0,0,0,,,,,,,,,,,
254,130978,1745094843443,0.0,200.98,,-0.06,-0.0,0.9,1.0,0.0,-1.0,0.9,1.75,52.0,3131.0,0.2,2.82,,12.12,1.119,93.4,,45.3,5.0,0.0,0.0,0.0,0.0,0.0,0.0,0.0,0.0,2.26,,,0,0,0,0,0,0,0,0,0,0,0,0,0,0,0,0,0.0,,,,0.0,39.240116,-77.964874,0.11,24.0,2.0,1.1
255,130998,1745094843463,,,,,,,,,,,,,,,,,,,,,,,,,,,,,,,,,,0,0,0,0,0,0,0,0,0,0,0,0,0,0,0,0,,,,,,,,,,,
256,131018,1745094843483,0.0,200.98,,-0.04,0.09,0.86,1.0,0.0,0.0,0.86,1.75,49.0,3074.0,0.4,2.86,,12.16,1.246,93.4,,44.2,5.0,,,,,,,,,,,,0,0,0,0,0,0,0,0,0,0,0,0,0,0,0,0,,,,,0.0,,,,,,
257,131038,1745094843502,,,,,,,,,,,,,,,,,,,,,,,,,,,,,,,,,,0,0,0,0,0,0,0,0,0,0,0,0,0,0,0,0,,,,,,,,,,,
258,131058,1745094843522,0.0,200.85,,-0.03,0.12,0.87,0.0,0.0,0.0,0.88,1.75,50.0,3051.0,0.9,2.88,,12.16,1.246,93.4,,44.2,5.0,,,,,,,,,,,,0,0,0,0,0,0,0,0,0,0,0,0,0,0,0,0,,,,,0.0,,,,,,
259,131078,1745094843542,,,,,,,,,,,,,,,,,,,,,,,0.0,0.0,0.0,0.0,0.0,0.0,0.0,0.0,2.26,,,0,0,0,0,0,0,0,0,0,0,0,0,0,0,0,0,0.0,,,,,39.240116,-77.964874,0.05,24.0,2.0,1.1
260,131098,1745094843562,0.0,200.85,,-0.01,0.11,0.91,0.0,0.0,1.0,0.91,1.75,52.0,3051.0,0.9,2.88,,12.29,1.249,93.4,,41.8,5.0,,,,,,,,,,,,0,0,0,0,0,0,0,0,0,0,0,0,0,0,0,0,,,,,0.0,,,,,,
261,131118,1745094843582,,,,,,,,,,,,,,,,,,,,,,,,,,,,,,,,,,0,0,0,0,0,0,0,0,0,0,0,0,0,0,0,0,,,,,,,,,,,
262,131138,1745094843602,0.0,200.85,,0.01,0.12,0.91,0.0,0.0,1.0,0.92,1.75,53.0,3023.0,2.1,3.18,,12.41,1.195,93.4,,41.8,5.0,,,,,,,,,,,,0,0,0,0,0,0,0,0,0,0,0,0,0,0,0,0,,,,,0.0,,,,,,
263,131158,1745094843622,,,,,,,,,,,,,,,,,,,,,,,,,,,,,,,,,,0,0,0,0,0,0,0,0,0,0,0,0,0,0,0,0,,,,,,,,,,,
264,131178,1745094843642,0.0,200.85,,0.02,0.14,0.87,0.0,0.0,1.0,0.88,1.75,50.0,2873.0,2.4,3.32,,12.55,1.175,93.4,,41.8,5.0,0.0,0.0,0.0,0.0,0.0,0.0,0.0,0.0,2.26,,,0,0,0,0,0,0,0,0,0,0,0,0,0,0,0,0,0.0,,,,0.0,39.240116,-77.964874,0.04,24.0,2.0,1.1
265,131198,1745094843662,,,,,,,,,,,,,,,,,,,,,,,,,,,,,,,,,,0,0,0,0,0,0,0,0,0,0,0,0,0,0,0,0,,,,,,,,,,,
266,131218,1745094843682,0.0,200.85,,0.02,0.14,0.84,0.0,0.0,0.0,0.85,1.75,49.0,2845.0,2.4,3.29,,12.59,1.127,93.4,,39.9,5.0,,,,,,,,,,,,0,0,0,0,0,0,0,0,0,0,0,0,0,0,0,0,,,,,0.0,,,,,,
267,131238,1745094843702,,,,,,,,,,,,,,,,,,,,,,,,,,,,,,,,,,0,0,0,0,0,0,0,0,0,0,0,0,0,0,0,0,,,,,,,,,,,
268,131258,1745094843722,0.0,200.85,,0.01,0.09,0.89,0.0,0.0,0.0,0.9,1.75,51.0,2674.0,2.4,3.32,,12.59,1.127,93.4,,39.9,5.0,,,,,,,,,,,,0,0,0,0,0,0,0,0,0,0,0,0,0,0,0,0,,,,,0.0,,,,,,
269,131278,1745094843742,,,,,,,,,,,,,,,,,,,,,,,0.0,0.0,0.0,0.0,0.0,0.0,0.0,0.0,2.26,,,0,0,0,0,0,0,0,0,0,0,0,0,0,0,0,0,0.0,,,,,39.240116,-77.964874,0.11,24.0,2.0,1.1
270,131298,1745094843762,0.0,200.85,,0.0,0.1,0.9,0.0,0.0,0.0,0.91,1.75,52.0,2674.0,2.4,3.32,,12.76,1.091,93.4,,35.6,5.0,,,,,,,,,,,,0,0,0,0,0,0,0,0,0,0,0,0,0,0,0,0,,,,,0.0,,,,,,
271,131318,1745094843782,,,,,,,,,,,,,,,,,,,,,,,,,,,,,,,,,,0,0,0,0,0,0,0,0,0,0,0,0,0,0,0,0,,,,,,,,,,,
272,131338,1745094843800,0.0,200.85,,-0.01,0.09,0.92,0.0,0.0,0.0,0.92,1.75,53.0,2530.0,2.4,3.35,,12.89,1.065,93.4,,35.6,5.0,,,,,,,,,,,,0,0,0,0,0,0,0,0,0,0,0,0,0,0,0,0,,,,,0.0,,,,,,
273,131358,1745094843820,,,,,,,,,,,,,,,,,,,,,,,,,,,,,,,,,,0,0,0,0,0,0,0,0,0,0,0,0,0,0,0,0,,,,,,,,,,,
274,131378,1745094843840,0.0,200.98,13.35,-0.01,0.07,0.94,0.0,0.0,0.0,0.95,1.75,54.0,2377.0,4.3,3.57,15.0,13.16,1.074,93.4,108.0,35.6,5.0,0.0,0.0,0.0,0.0,0.0,0.0,0.0,0.0,2.26,0.0,0.0,0,0,0,0,0,0,0,0,0,0,0,0,0,0,0,0,0.0,0.0,0.0,0.0,0.0,39.240116,-77.964874,0.04,24.0,2.0,1.1
275,131398,1745094843860,,,,,,,,,,,,,,,,,,,,,,,,,,,,,,,,,,0,0,0,0,0,0,0,0,0,0,0,0,0,0,0,0,,,,,,,,,,,
276,131418,1745094843880,0.0,200.98,,-0.03,0.06,0.93,0.0,0.0,0.0,0.94,1.75,54.0,2582.0,5.0,3.62,,13.29,1.108,93.4,,32.5,5.0,,,,,,,,,,,,0,0,0,0,0,0,0,0,0,0,0,0,0,0,0,0,,,,,0.0,,,,,,
277,131438,1745094843902,,,,,,,,,,,,,,,,,,,,,,,,,,,,,,,,,,0,0,0,0,0,0,0,0,0,0,0,0,0,0,0,0,,,,,,,,,,,
278,131458,1745094843922,0.0,200.98,,-0.01,0.06,0.93,0.0,0.0,0.0,0.94,1.75,54.0,2499.0,7.2,3.62,,13.29,1.108,93.4,,32.5,5.0,,,,,,,,,,,,0,0,0,0,0,0,0,0,0,0,0,0,0,0,0,0,,,,,0.0,,,,,,
279,131478,1745094843942,,,,,,,,,,,,,,,,,,,,,,,0.0,0.0,0.0,0.0,0.0,0.0,0.0,0.0,2.26,,,0,0,0,0,0,0,0,0,0,0,0,0,0,0,0,0,0.0,,,,,39.240116,-77.964874,0.04,24.0,2.0,1.1
280,131498,1745094843962,0.0,200.98,,-0.03,0.04,0.95,0.0,0.0,0.0,0.95,1.75,54.0,2499.0,7.2,3.62,,13.43,1.21,93.4,,33.6,5.0,,,,,,,,,,,,0,0,0,0,0,0,0,0,0,0,0,0,0,0,0,0,,,,,0.0,,,,,,
281,131518,1745094843982,,,,,,,,,,,,,,,,,,,,,,,,,,,,,,,,,,0,0,0,0,0,0,0,0,0,0,0,0,0,0,0,0,,,,,,,,,,,
282,131538,1745094843994,0.0,200.98,,-0.03,0.04,0.95,0.0,0.0,0.0,0.95,1.75,55.0,2493.0,9.3,3.66,,13.55,1.22,93.4,,33.6,5.0,,,,,,,,,,,,0,0,0,0,0,0,0,0,0,0,0,0,0,0,0,0,,,,,0.0,,,,,,
283,131558,1745094844014,,,,,,,,,,,,,,,,,,,,,,,,,,,,,,,,,,0,0,0,0,0,0,0,0,0,0,0,0,0,0,0,0,,,,,,,,,,,
284,131578,1745094844034,0.0,200.98,,-0.04,0.03,0.96,0.0,0.0,0.0,0.96,1.75,55.0,2401.0,9.4,3.66,,13.65,1.163,93.4,,33.6,5.0,0.0,0.0,0.0,0.0,0.0,0.0,0.0,0.0,2.26,,,0,0,0,0,0,0,0,0,0,0,0,0,0,0,0,0,0.0,,,,0.0,39.240116,-77.964874,0.0,24.0,2.0,1.1
285,131598,1745094844054,,,,,,,,,,,,,,,,,,,,,,,,,,,,,,,,,,0,0,0,0,0,0,0,0,0,0,0,0,0,0,0,0,,,,,,,,,,,
286,131618,1745094844074,0.0,200.85,,-0.04,0.02,0.97,0.0,0.0,0.0,0.97,1.75,55.0,2362.0,9.3,3.66,,13.71,1.148,93.4,,31.8,5.0,,,,,,,,,,,,0,0,0,0,0,0,0,0,0,0,0,0,0,0,0,0,,,,,0.0,,,,,,
287,131638,1745094844096,,,,,,,,,,,,,,,,,,,,,,,,,,,,,,,,,,0,0,0,0,0,0,0,0,0,0,0,0,0,0,0,0,,,,,,,,,,,
288,131658,1745094844116,0.0,200.85,,-0.04,0.0,1.0,0.0,0.0,0.0,1.0,1.75,57.0,2311.0,8.3,3.65,,13.71,1.148,93.4,,31.8,5.0,,,,,,,,,,,,0,0,0,0,0,0,0,0,0,0,0,0,0,0,0,0,,,,,0.0,,,,,,
289,131678,1745094844136,,,,,,,,,,,,,,,,,,,,,,,0.0,0.0,0.0,0.0,0.0,0.0,0.0,0.0,2.26,,,0,0,0,0,0,0,0,0,0,0,0,0,0,0,0,0,0.0,,,,,39.240116,-77.964874,0.05,24.0,2.0,1.1
290,131698,1745094844156,0.0,200.85,,-0.05,-0.01,1.01,0.0,0.0,0.0,1.01,1.75,58.0,2311.0,8.3,3.65,,13.71,1.174,93.4,,31.4,5.0,,,,,,,,,,,,0,0,0,0,0,0,0,0,0,0,0,0,0,0,0,0,,,,,0.0,,,,,,
291,131718,1745094844176,,,,,,,,,,,,,,,,,,,,,,,,,,,,,,,,,,0,0,0,0,0,0,0,0,0,0,0,0,0,0,0,0,,,,,,,,,,,
292,131738,1745094844198,0.0,200.98,,-0.05,-0.02,1.01,0.0,0.0,0.0,1.01,1.75,58.0,2306.0,2.9,3.64,,13.59,1.243,93.4,,31.4,5.0,,,,,,,,,,,,0,0,0,0,0,0,0,0,0,0,0,0,0,0,0,0,,,,,0.0,,,,,,
293,131758,1745094844218,,,,,,,,,,,,,,,,,,,,,,,,,,,,,,,,,,0,0,0,0,0,0,0,0,0,0,0,0,0,0,0,0,,,,,,,,,,,
294,131778,1745094844238,0.0,200.98,,-0.05,-0.02,1.0,0.0,0.0,0.0,1.0,1.75,58.0,2452.0,2.3,3.49,,13.33,1.251,93.4,,31.4,5.0,0.0,0.0,0.0,0.0,0.0,0.0,0.0,0.0,2.26,,,0,0,0,0,0,0,0,0,0,0,0,0,0,0,0,0,0.0,,,,0.0,39.240116,-77.964874,0.04,24.0,2.0,1.1
295,131798,1745094844258,,,,,,,,,,,,,,,,,,,,,,,,,,,,,,,,,,0,0,0,0,0,0,0,0,0,0,0,0,0,0,0,0,,,,,,,,,,,
296,131818,1745094844278,0.0,200.98,,-0.04,-0.01,0.99,0.0,0.0,0.0,1.0,1.75,57.0,2664.0,2.1,3.35,,13.16,1.252,93.4,,34.1,5.0,,,,,,,,,,,,0,0,0,0,0,0,0,0,0,0,0,0,0,0,0,0,,,,,0.0,,,,,,
297,131838,1745094844303,,,,,,,,,,,,,,,,,,,,,,,,,,,,,,,,,,0,0,0,0,0,0,0,0,0,0,0,0,0,0,0,0,,,,,,,,,,,
298,131858,1745094844323,0.0,200.98,,-0.05,-0.01,0.99,0.0,0.0,0.0,0.99,1.75,57.0,2673.0,2.1,3.34,,13.16,1.252,93.4,,34.1,5.0,,,,,,,,,,,,0,0,0,0,0,0,0,0,0,0,0,0,0,0,0,0,,,,,0.0,,,,,,
299,131878,1745094844343,,,,,,,,,,,,,,,,,,,,,,,0.0,0.0,0.0,0.0,0.0,0.0,0.0,0.0,2.26,,,0,0,0,0,0,0,0,0,0,0,0,0,0,0,0,0,0.0,,,,,39.240116,-77.964874,0.44,24.0,2.0,1.1
300,131898,1745094844363,0.0,200.98,,-0.05,-0.01,0.99,0.0,0.0,0.0,0.99,1.75,57.0,2673.0,2.1,3.34,,13.09,1.252,93.4,,35.3,5.0,,,,,,,,,,,,0,0,0,0,0,0,0,0,0,0,0,0,0,0,0,0,,,,,0.0,,,,,,
301,131918,1745094844383,,,,,,,,,,,,,,,,,,,,,,,,,,,,,,,,,,0,0,0,0,0,0,0,0,0,0,0,0,0,0,0,0,,,,,,,,,,,
302,131938,1745094844402,0.0,200.98,,-0.04,-0.01,0.99,0.0,0.0,0.0,0.99,1.75,57.0,2639.0,3.8,3.5,,13.13,1.216,93.4,,35.3,5.0,,,,,,,,,,,,0,0,0,0,0,0,0,0,0,0,0,0,0,0,0,0,,,,,0.0,,,,,,
303,131958,1745094844422,,,,,,,,,,,,,,,,,,,,,,,,,,,,,,,,,,0,0,0,0,0,0,0,0,0,0,0,0,0,0,0,0,,,,,,,,,,,
304,131978,1745094844442,0.0,200.98,,-0.05,-0.0,0.96,0.0,0.0,0.0,0.96,1.75,55.0,2722.0,5.4,3.62,,13.23,1.187,93.4,,35.3,5.0,0.0,0.0,0.0,0.0,0.0,0.0,0.0,0.0,2.26,,,0,0,0,0,0,0,0,0,0,0,0,0,0,0,0,0,0.0,,,,0.0,39.240116,-77.964874,0.34,24.0,2.0,1.1
305,131998,1745094844462,,,,,,,,,,,,,,,,,,,,,,,,,,,,,,,,,,0,0,0,0,0,0,0,0,0,0,0,0,0,0,0,0,,,,,,,,,,,
306,132018,1745094844482,0.0,201.11,,-0.05,-0.01,0.97,0.0,0.0,0.0,0.98,1.75,56.0,2695.0,6.1,3.64,,13.25,1.163,93.4,,36.4,5.0,,,,,,,,,,,,0,0,0,0,0,0,0,0,0,0,0,0,0,0,0,0,,,,,0.0,,,,,,
307,132038,1745094844499,,,,,,,,,,,,,,,,,,,,,,,,,,,,,,,,,,0,0,0,0,0,0,0,0,0,0,0,0,0,0,0,0,,,,,,,,,,,
308,132058,1745094844519,0.0,201.11,,-0.05,0.01,0.93,0.0,0.0,0.0,0.93,1.75,54.0,2711.0,7.2,3.66,,13.25,1.163,93.4,,36.4,5.0,,,,,,,,,,,,0,0,0,0,0,0,0,0,0,0,0,0,0,0,0,0,,,,,0.0,,,,,,
309,132078,1745094844539,,,,,,,,,,,,,,,,,,,,,,,0.0,0.0,0.0,0.0,0.0,0.0,0.0,0.0,2.26,,,0,0,0,0,0,0,0,0,0,0,0,0,0,0,0,0,0.0,,,,,39.240116,-77.964874,0.05,24.0,2.0,1.1
310,132098,1745094844559,0.0,200.98,,-0.05,-0.02,0.95,0.0,0.0,0.0,0.95,1.75,55.0,2711.0,7.2,3.66,,13.37,1.166,93.4,,37.4,5.0,,,,,,,,,,,,0,0,0,0,0,0,0,0,0,0,0,0,0,0,0,0,,,,,0.0,,,,,,
311,132118,1745094844579,,,,,,,,,,,,,,,,,,,,,,,,,,,,,,,,,,0,0,0,0,0,0,0,0,0,0,0,0,0,0,0,0,,,,,,,,,,,
312,132138,1745094844601,0.0,200.98,,-0.06,-0.05,0.99,0.0,0.0,0.0,0.99,1.75,57.0,2754.0,7.5,3.71,,13.37,1.193,93.4,,37.4,5.0,,,,,,,,,,,,0,0,0,0,0,0,0,0,0,0,0,0,0,0,0,0,,,,,0.0,,,,,,
313,132158,1745094844621,,,,,,,,,,,,,,,,,,,,,,,,,,,,,,,,,,0,0,0,0,0,0,0,0,0,0,0,0,0,0,0,0,,,,,,,,,,,
314,132178,1745094844641,0.0,201.11,,-0.06,-0.03,0.96,0.0,0.0,0.0,0.96,1.75,55.0,2685.0,7.4,3.7,,13.4,1.198,93.4,,37.4,5.0,0.0,0.0,0.0,0.0,0.0,0.0,0.0,0.0,2.26,,,0,0,0,0,0,0,0,0,0,0,0,0,0,0,0,0,0.0,,,,0.0,39.240116,-77.964874,0.08,24.0,2.0,1.1
315,132198,1745094844661,,,,,,,,,,,,,,,,,,,,,,,,,,,,,,,,,,0,0,0,0,0,0,0,0,0,0,0,0,0,0,0,0,,,,,,,,,,,
316,132218,1745094844681,0.0,201.11,,-0.06,-0.03,0.99,0.0,0.0,0.0,0.99,1.75,57.0,2574.0,4.7,3.67,,13.35,1.21,93.4,,35.5,5.0,,,,,,,,,,,,0,0,0,0,0,0,0,0,0,0,0,0,0,0,0,0,,,,,0.0,,,,,,
317,132238,1745094844699,,,,,,,,,,,,,,,,,,,,,,,,,,,,,,,,,,0,0,0,0,0,0,0,0,0,0,0,0,0,0,0,0,,,,,,,,,,,
318,132258,1745094844719,0.0,201.11,,-0.06,-0.03,0.99,0.0,0.0,0.0,0.99,1.75,57.0,2574.0,4.7,3.67,,13.35,1.21,93.4,,35.5,5.0,,,,,,,,,,,,0,0,0,0,0,0,0,0,0,0,0,0,0,0,0,0,,,,,0.0,,,,,,
319,132278,1745094844739,,,,,,,,,,,,,,,,,,,,,,,0.0,0.0,0.0,0.0,0.0,0.0,0.0,0.0,2.26,,,0,0,0,0,0,0,0,0,0,0,0,0,0,0,0,0,0.0,,,,,39.240116,-77.964874,0.21,24.0,2.0,1.1
320,132298,1745094844759,0.0,200.98,,-0.05,-0.02,0.98,0.0,0.0,0.0,0.98,1.75,56.0,2613.0,3.0,3.49,,13.23,1.229,93.4,,33.9,5.0,,,,,,,,,,,,0,0,0,0,0,0,0,0,0,0,0,0,0,0,0,0,,,,,0.0,,,,,,
321,132318,1745094844779,,,,,,,,,,,,,,,,,,,,,,,,,,,,,,,,,,0,0,0,0,0,0,0,0,0,0,0,0,0,0,0,0,,,,,,,,,,,
322,132338,1745094844801,0.0,201.11,,-0.06,-0.03,0.99,0.0,0.0,0.0,0.99,1.75,57.0,2536.0,2.9,3.47,,13.21,1.245,93.4,,33.9,5.0,,,,,,,,,,,,0,0,0,0,0,0,0,0,0,0,0,0,0,0,0,0,,,,,0.0,,,,,,
323,132358,1745094844821,,,,,,,,,,,,,,,,,,,,,,,,,,,,,,,,,,0,0,0,0,0,0,0,0,0,0,0,0,0,0,0,0,,,,,,,,,,,
324,132378,1745094844841,0.0,200.98,13.41,-0.05,-0.03,0.99,0.0,0.0,0.0,0.99,1.75,57.0,2445.0,2.8,3.47,15.0,13.25,1.252,93.4,110.0,33.9,5.0,0.0,0.0,0.0,0.0,0.0,0.0,0.0,0.0,2.27,0.0,0.0,0,0,0,0,0,0,0,0,0,0,0,0,0,0,0,0,0.0,0.0,0.0,0.0,0.0,39.240116,-77.964874,0.23,24.0,2.0,1.1
325,132398,1745094844861,,,,,,,,,,,,,,,,,,,,,,,,,,,,,,,,,,0,0,0,0,0,0,0,0,0,0,0,0,0,0,0,0,,,,,,,,,,,
326,132418,1745094844881,0.0,201.11,,-0.06,-0.03,0.99,-1.0,0.0,0.0,0.99,1.75,57.0,2351.0,5.2,3.61,,13.4,1.253,93.4,,30.7,5.0,,,,,,,,,,,,0,0,0,0,0,0,0,0,0,0,0,0,0,0,0,0,,,,,0.0,,,,,,
327,132438,1745094844901,,,,,,,,,,,,,,,,,,,,,,,,,,,,,,,,,,0,0,0,0,0,0,0,0,0,0,0,0,0,0,0,0,,,,,,,,,,,
328,132458,1745094844921,0.0,201.11,,-0.07,-0.03,0.97,0.0,0.0,0.0,0.98,1.75,56.0,2334.0,8.8,3.6,,13.4,1.253,93.4,,30.7,5.0,,,,,,,,,,,,0,0,0,0,0,0,0,0,0,0,0,0,0,0,0,0,,,,,0.0,,,,,,
329,132478,1745094844941,,,,,,,,,,,,,,,,,,,,,,,0.0,0.0,0.0,0.0,0.0,0.0,0.0,0.0,2.26,,,0,0,0,0,0,0,0,0,0,0,0,0,0,0,0,0,0.0,,,,,39.240116,-77.964874,0.11,24.0,2.0,1.1
330,132498,1745094844961,0.0,201.11,,-0.05,-0.02,0.97,0.0,0.0,0.0,0.97,1.75,56.0,2334.0,8.8,3.6,,13.64,1.253,93.4,,32.5,5.0,,,,,,,,,,,,0,0,0,0,0,0,0,0,0,0,0,0,0,0,0,0,,,,,0.0,,,,,,
331,132518,1745094844981,,,,,,,,,,,,,,,,,,,,,,,,,,,,,,,,,,0,0,0,0,0,0,0,0,0,0,0,0,0,0,0,0,,,,,,,,,,,
332,132538,1745094844993,0.0,200.98,,-0.06,-0.02,0.93,0.0,0.0,0.0,0.94,1.75,54.0,2594.0,10.8,3.72,,13.63,1.252,93.4,,32.5,5.0,,,,,,,,,,,,0,0,0,0,0,0,0,0,0,0,0,0,0,0,0,0,,,,,0.0,,,,,,
333,132558,1745094845013,,,,,,,,,,,,,,,,,,,,,,,,,,,,,,,,,,0,0,0,0,0,0,0,0,0,0,0,0,0,0,0,0,,,,,,,,,,,
334,132578,1745094845033,0.0,201.11,,-0.07,-0.03,0.93,0.0,0.0,0.0,0.93,1.75,53.0,2909.0,12.2,3.8,,13.59,1.25,93.4,,32.5,5.0,0.0,0.0,0.0,0.0,0.0,0.0,0.0,0.0,2.26,,,0,0,0,0,0,0,0,0,0,0,0,0,0,0,0,0,0.0,,,,0.0,39.240116,-77.964874,0.24,25.0,2.0,1.0
335,132598,1745094845053,,,,,,,,,,,,,,,,,,,,,,,,,,,,,,,,,,0,0,0,0,0,0,0,0,0,0,0,0,0,0,0,0,,,,,,,,,,,
336,132618,1745094845073,0.0,201.11,,-0.09,-0.07,0.92,0.0,0.0,0.0,0.93,1.75,53.0,3003.0,12.5,3.9,,13.53,1.234,93.4,,39.2,5.0,,,,,,,,,,,,0,0,0,0,0,0,0,0,0,0,0,0,0,0,0,0,,,,,0.0,,,,,,
337,132638,1745094845100,,,,,,,,,,,,,,,,,,,,,,,,,,,,,,,,,,0,0,0,0,0,0,0,0,0,0,0,0,0,0,0,0,,,,,,,,,,,
338,132658,1745094845120,0.0,201.11,,-0.08,-0.01,0.83,1.0,0.0,-1.0,0.83,1.75,48.0,3234.0,12.7,3.9,,13.53,1.234,93.4,,39.2,5.0,,,,,,,,,,,,0,0,0,0,0,0,0,0,0,0,0,0,0,0,0,0,,,,,0.0,,,,,,
339,132678,1745094845140,,,,,,,,,,,,,,,,,,,,,,,0.0,0.0,0.0,0.0,0.0,0.0,0.0,0.0,2.26,,,0,0,0,0,0,0,0,0,0,0,0,0,0,0,0,0,0.0,,,,,39.240116,-77.964874,0.18,25.0,2.0,1.0
340,132698,1745094845160,0.0,200.98,,-0.08,-0.05,0.9,0.0,0.0,0.0,0.91,1.75,52.0,3234.0,12.7,3.9,,13.47,1.14,93.4,,46.5,5.0,,,,,,,,,,,,0,0,0,0,0,0,0,0,0,0,0,0,0,0,0,0,,,,,0.0,,,,,,
341,132718,1745094845180,,,,,,,,,,,,,,,,,,,,,,,,,,,,,,,,,,0,0,0,0,0,0,0,0,0,0,0,0,0,0,0,0,,,,,,,,,,,
342,132738,1745094845199,0.0,201.11,,-0.09,-0.02,0.9,0.0,0.0,0.0,0.91,1.75,52.0,3546.0,12.0,3.89,,13.33,1.238,93.4,,46.5,5.0,,,,,,,,,,,,0,0,0,0,0,0,0,0,0,0,0,0,0,0,0,0,,,,,0.0,,,,,,
343,132758,1745094845219,,,,,,,,,,,,,,,,,,,,,,,,,,,,,,,,,,0,0,0,0,0,0,0,0,0,0,0,0,0,0,0,0,,,,,,,,,,,
344,132778,1745094845239,0.0,201.11,,-0.08,-0.01,0.91,0.0,0.0,0.0,0.92,1.75,53.0,3720.0,4.2,3.61,,12.88,1.223,93.4,,46.5,5.0,0.0,0.0,0.0,0.0,0.0,0.0,0.0,0.0,2.26,,,0,0,0,0,0,0,0,0,0,0,0,0,0,0,0,0,0.0,,,,0.0,39.240116,-77.964874,0.08,25.0,2.0,1.0
345,132798,1745094845259,,,,,,,,,,,,,,,,,,,,,,,,,,,,,,,,,,0,0,0,0,0,0,0,0,0,0,0,0,0,0,0,0,,,,,,,,,,,
346,132818,1745094845279,0.0,201.11,,-0.08,0.01,0.92,0.0,0.0,0.0,0.92,1.75,53.0,3745.0,1.9,3.25,,12.39,1.168,93.4,,52.8,5.0,,,,,,,,,,,,0,0,0,0,0,0,0,0,0,0,0,0,0,0,0,0,,,,,0.0,,,,,,
347,132838,1745094845301,,,,,,,,,,,,,,,,,,,,,,,,,,,,,,,,,,0,0,0,0,0,0,0,0,0,0,0,0,0,0,0,0,,,,,,,,,,,
348,132858,1745094845321,0.0,201.11,,-0.04,0.06,0.91,0.0,0.0,0.0,0.92,1.75,53.0,3686.0,0.0,2.57,,12.39,1.168,93.4,,52.8,5.0,,,,,,,,,,,,0,0,0,0,0,0,0,0,0,0,0,0,0,0,0,0,,,,,0.0,,,,,,
349,132878,1745094845341,,,,,,,,,,,,,,,,,,,,,,,0.0,0.0,0.0,0.0,0.0,0.0,0.0,0.0,2.26,,,0,0,0,0,0,0,0,0,0,0,0,0,0,0,0,0,0.0,,,,,39.240116,-77.964874,0.42,25.0,2.0,1.0
350,132898,1745094845361,0.0,200.98,,-0.04,0.03,0.9,0.0,0.0,0.0,0.91,1.75,52.0,3686.0,0.0,2.57,,12.11,1.123,93.4,,51.6,5.0,,,,,,,,,,,,0,0,0,0,0,0,0,0,0,0,0,0,0,0,0,0,,,,,0.0,,,,,,
351,132918,1745094845381,,,,,,,,,,,,,,,,,,,,,,,,,,,,,,,,,,0,0,0,0,0,0,0,0,0,0,0,0,0,0,0,0,,,,,,,,,,,
352,132938,1745094845401,0.0,200.98,,-0.07,-0.09,0.91,1.0,0.0,-1.0,0.92,1.75,53.0,3588.0,0.0,2.57,,11.91,1.137,93.4,,51.6,5.0,,,,,,,,,,,,0,0,0,0,0,0,0,0,0,0,0,0,0,0,0,0,,,,,0.0,,,,,,
353,132958,1745094845421,,,,,,,,,,,,,,,,,,,,,,,,,,,,,,,,,,0,0,0,0,0,0,0,0,0,0,0,0,0,0,0,0,,,,,,,,,,,
354,132978,1745094845441,0.0,201.11,,-0.04,0.02,0.93,0.0,0.0,0.0,0.93,1.75,53.0,3459.0,0.0,2.62,,11.81,1.143,93.4,,51.6,5.0,0.0,0.0,0.0,0.0,0.0,0.0,0.0,0.0,2.26,,,0,0,0,0,0,0,0,0,0,0,0,0,0,0,0,0,0.0,,,,0.0,39.240116,-77.964874,0.37,25.0,2.0,1.0
355,132998,1745094845461,,,,,,,,,,,,,,,,,,,,,,,,,,,,,,,,,,0,0,0,0,0,0,0,0,0,0,0,0,0,0,0,0,,,,,,,,,,,
356,133018,1745094845481,0.0,201.11,,-0.06,-0.08,0.96,1.0,0.0,0.0,0.97,1.75,55.0,3296.0,0.0,2.67,,11.81,1.133,93.4,,47.4,5.0,,,,,,,,,,,,0,0,0,0,0,0,0,0,0,0,0,0,0,0,0,0,,,,,0.0,,,,,,
357,133038,1745094845500,,,,,,,,,,,,,,,,,,,,,,,,,,,,,,,,,,0,0,0,0,0,0,0,0,0,0,0,0,0,0,0,0,,,,,,,,,,,
358,133058,1745094845520,0.0,201.11,,-0.04,0.01,0.89,0.0,0.0,0.0,0.89,1.75,51.0,3260.0,2.0,2.86,,11.81,1.133,93.4,,47.4,5.0,,,,,,,,,,,,0,0,0,0,0,0,0,0,0,0,0,0,0,0,0,0,,,,,0.0,,,,,,
359,133078,1745094845540,,,,,,,,,,,,,,,,,,,,,,,0.0,0.0,0.0,0.0,0.0,0.0,0.0,0.0,2.26,,,0,0,0,0,0,0,0,0,0,0,0,0,0,0,0,0,0.0,,,,,39.240116,-77.964874,0.04,25.0,2.0,1.0
360,133098,1745094845560,0.0,201.11,,-0.03,0.01,0.96,0.0,0.0,0.0,0.96,1.75,55.0,3260.0,2.0,2.86,,11.97,1.212,93.4,,44.7,5.0,,,,,,,,,,,,0,0,0,0,0,0,0,0,0,0,0,0,0,0,0,0,,,,,0.0,,,,,,
361,133118,1745094845580,,,,,,,,,,,,,,,,,,,,,,,,,,,,,,,,,,0,0,0,0,0,0,0,0,0,0,0,0,0,0,0,0,,,,,,,,,,,
362,133138,1745094845600,0.0,201.11,,-0.08,-0.07,1.02,0.0,0.0,0.0,1.02,1.75,59.0,3203.0,5.3,3.59,,12.35,1.16,93.4,,44.7,5.0,,,,,,,,,,,,0,0,0,0,0,0,0,0,0,0,0,0,0,0,0,0,,,,,0.0,,,,,,
363,133158,1745094845620,,,,,,,,,,,,,,,,,,,,,,,,,,,,,,,,,,0,0,0,0,0,0,0,0,0,0,0,0,0,0,0,0,,,,,,,,,,,
364,133178,1745094845640,0.0,201.11,,-0.08,-0.07,0.93,1.0,0.0,-1.0,0.94,1.75,54.0,3205.0,7.4,3.67,,12.67,1.051,93.4,,44.7,5.0,0.0,0.0,0.0,0.0,0.0,0.0,0.0,0.0,2.26,,,0,0,0,0,0,0,0,0,0,0,0,0,0,0,0,0,0.0,,,,0.0,39.240116,-77.964874,0.37,25.0,2.0,1.0
365,133198,1745094845660,,,,,,,,,,,,,,,,,,,,,,,,,,,,,,,,,,0,0,0,0,0,0,0,0,0,0,0,0,0,0,0,0,,,,,,,,,,,
366,133218,1745094845680,0.0,201.11,,-0.04,0.03,0.9,0.0,0.0,0.0,0.91,1.75,52.0,3166.0,9.6,3.76,,12.99,0.991,93.4,,44.6,5.0,,,,,,,,,,,,0,0,0,0,0,0,0,0,0,0,0,0,0,0,0,0,,,,,0.0,,,,,,
367,133238,1745094845700,,,,,,,,,,,,,,,,,,,,,,,,,,,,,,,,,,0,0,0,0,0,0,0,0,0,0,0,0,0,0,0,0,,,,,,,,,,,
368,133258,1745094845720,0.0,201.11,,-0.04,0.0,0.98,0.0,0.0,0.0,0.98,1.75,56.0,3166.0,9.6,3.76,,12.99,0.991,93.4,,44.6,5.0,,,,,,,,,,,,0,0,0,0,0,0,0,0,0,0,0,0,0,0,0,0,,,,,0.0,,,,,,
369,133278,1745094845740,,,,,,,,,,,,,,,,,,,,,,,0.0,0.0,0.0,0.0,0.0,0.0,0.0,0.0,2.27,,,0,0,0,0,0,0,0,0,0,0,0,0,0,0,0,0,0.0,,,,,39.240116,-77.964874,0.42,25.0,2.0,1.0
370,133298,1745094845760,0.0,200.98,,-0.07,-0.13,1.01,0.0,0.0,0.0,1.02,1.75,59.0,3246.0,10.2,3.8,,13.13,0.966,93.4,,43.5,5.0,,,,,,,,,,,,0,0,0,0,0,0,0,0,0,0,0,0,0,0,0,0,,,,,0.0,,,,,,
371,133318,1745094845780,,,,,,,,,,,,,,,,,,,,,,,,,,,,,,,,,,0,0,0,0,0,0,0,0,0,0,0,0,0,0,0,0,,,,,,,,,,,
372,133338,1745094845800,0.0,201.11,,-0.06,-0.08,0.93,1.0,0.0,0.0,0.94,1.75,54.0,3226.0,10.3,3.8,,13.13,0.971,93.4,,43.5,5.0,,,,,,,,,,,,0,0,0,0,0,0,0,0,0,0,0,0,0,0,0,0,,,,,0.0,,,,,,
373,133358,1745094845820,,,,,,,,,,,,,,,,,,,,,,,,,,,,,,,,,,0,0,0,0,0,0,0,0,0,0,0,0,0,0,0,0,,,,,,,,,,,
374,133378,1745094845840,0.0,201.11,13.42,-0.04,0.02,0.91,0.0,0.0,0.0,0.91,1.75,52.0,3123.0,5.8,3.74,15.0,13.08,0.972,93.4,110.0,43.5,5.0,0.0,0.0,0.0,0.0,0.0,0.0,0.0,0.0,2.26,0.0,0.0,0,0,0,0,0,0,0,0,0,0,0,0,0,0,0,0,0.0,0.0,0.0,0.0,0.0,39.240116,-77.964874,0.04,25.0,2.0,1.0
375,133398,1745094845860,,,,,,,,,,,,,,,,,,,,,,,,,,,,,,,,,,0,0,0,0,0,0,0,0,0,0,0,0,0,0,0,0,,,,,,,,,,,
376,133418,1745094845880,0.0,201.11,,-0.03,0.04,0.93,0.0,0.0,1.0,0.93,1.75,54.0,3072.0,0.4,3.34,,12.83,1.028,93.4,,43.1,5.0,,,,,,,,,,,,0,0,0,0,0,0,0,0,0,0,0,0,0,0,0,0,,,,,0.0,,,,,,
377,133438,1745094845903,,,,,,,,,,,,,,,,,,,,,,,,,,,,,,,,,,0,0,0,0,0,0,0,0,0,0,0,0,0,0,0,0,,,,,,,,,,,
378,133458,1745094845923,0.0,201.11,,-0.02,0.04,0.94,0.0,0.0,1.0,0.94,1.75,54.0,2919.0,0.0,2.88,,12.83,1.028,93.4,,43.1,5.0,,,,,,,,,,,,0,0,0,0,0,0,0,0,0,0,0,0,0,0,0,0,,,,,0.0,,,,,,
379,133478,1745094845943,,,,,,,,,,,,,,,,,,,,,,,0.0,0.0,0.0,0.0,0.0,0.0,0.0,0.0,2.26,,,0,0,0,0,0,0,0,0,0,0,0,0,0,0,0,0,0.0,,,,,39.240116,-77.964874,0.06,25.0,2.0,1.0
380,133498,1745094845963,0.0,201.11,,-0.01,0.06,0.91,0.0,0.0,1.0,0.91,1.75,52.0,2919.0,0.0,2.88,,12.53,1.108,93.4,,38.4,5.0,,,,,,,,,,,,0,0,0,0,0,0,0,0,0,0,0,0,0,0,0,0,,,,,0.0,,,,,,
381,133518,1745094845983,,,,,,,,,,,,,,,,,,,,,,,,,,,,,,,,,,0,0,0,0,0,0,0,0,0,0,0,0,0,0,0,0,,,,,,,,,,,
382,133538,1745094845992,0.0,201.11,,-0.01,0.01,0.95,0.0,0.0,0.0,0.95,1.75,55.0,2778.0,0.0,2.92,,12.49,1.217,93.4,,38.4,5.0,,,,,,,,,,,,0,0,0,0,0,0,0,0,0,0,0,0,0,0,0,0,,,,,0.0,,,,,,
383,133558,1745094846012,,,,,,,,,,,,,,,,,,,,,,,,,,,,,,,,,,0,0,0,0,0,0,0,0,0,0,0,0,0,0,0,0,,,,,,,,,,,
384,133578,1745094846032,0.0,201.23,,-0.02,0.01,0.96,0.0,0.0,0.0,0.96,1.75,55.0,2608.0,0.0,3.0,,12.55,1.25,93.4,,38.4,5.0,0.0,0.0,0.0,0.0,0.0,0.0,0.0,0.0,2.26,,,0,0,0,0,0,0,0,0,0,0,0,0,0,0,0,0,0.0,,,,0.0,39.240116,-77.964874,0.06,25.0,2.0,1.0
385,133598,1745094846052,,,,,,,,,,,,,,,,,,,,,,,,,,,,,,,,,,0,0,0,0,0,0,0,0,0,0,0,0,0,0,0,0,,,,,,,,,,,
