,Interval,Utc,FrontBP,SteerAng,Battery,AccelX,AccelY,AccelZ,Yaw,Pitch,Roll,Gsum,GsumMax,GsumPct,RPM,TPS,InjectorPW,Baro,MAP,Lambda,IAT,EngineTemp,EOP,EOT,WSFR,WSFL,WSRR,WSRL,TCSet,TCSlip,TCComp,TCCut,Analog8,OilTemp,AA_On,ThermLF1,ThermLF2,ThermRR1,ThermRR2,ThermLF3,ThermLF4,ThermLF5,ThermLF6,ThermLF7,ThermLF8,ThermRR3,ThermRR4,ThermRR5,ThermRR6,ThermRR7,ThermRR8,Gear,AA_On1,AA_LowDrag,Fuel_Mix,AA_Packages,Latitude,Longitude,Speed,GPSSats,GPSQual,GPSDOP
0,876010,1745065791782,,,,,,,,,,,,,,,,,,,,,,,,,,,,,,,,,,0,0,0,0,0,0,0,0,0,0,0,0,0,0,0,0,,,,,,,,,,,
1,876030,1745065791802,0.0,172.32,,-0.21,0.17,1.21,-1.0,0.0,1.0,1.24,1.24,100.0,5774.0,0.0,1.4,,8.82,1.066,73.6,,66.7,5.0,,,,,,,,,,,,0,0,0,0,0,0,0,0,0,0,0,0,0,0,0,0,,,,,0.0,,,,,,
2,876050,1745065791820,,,,,,,,,,,,,,,,,,,,,,,,,,,,,,,,,,0,0,0,0,0,0,0,0,0,0,0,0,0,0,0,0,,,,,,,,,,,
3,876070,1745065791840,0.0,172.32,,-0.17,0.1,1.19,-1.0,0.0,1.0,1.21,1.24,97.0,5774.0,0.0,1.4,,8.83,1.122,73.6,,66.7,5.0,,,,,,,,,,,,0,0,0,0,0,0,0,0,0,0,0,0,0,0,0,0,,,,,0.0,,,,,,
4,876090,1745065791860,,,,,,,,,,,,,,,,,,,,,,,0.0,0.0,0.0,0.0,0.0,0.0,0.0,0.0,2.25,,,0,0,0,0,0,0,0,0,0,0,0,0,0,0,0,0,0.0,,,,,39.239628,-77.964577,0.07,36.0,2.0,0.8
5,876110,1745065791880,0.0,172.2,,-0.16,0.09,1.18,0.0,0.0,1.0,1.2,1.24,96.0,5480.0,0.0,1.4,,9.01,1.234,73.6,,60.6,5.0,,,,,,,,,,,,0,0,0,0,0,0,0,0,0,0,0,0,0,0,0,0,,,,,0.0,,,,,,
6,876130,1745065791902,,,,,,,,,,,,,,,,,,,,,,,,,,,,,,,,,,0,0,0,0,0,0,0,0,0,0,0,0,0,0,0,0,,,,,,,,,,,
7,876150,1745065791922,0.0,172.2,,-0.18,0.14,1.2,-1.0,0.0,1.0,1.23,1.24,99.0,5087.0,0.0,1.48,,9.23,1.251,73.6,,60.6,5.0,,,,,,,,,,,,0,0,0,0,0,0,0,0,0,0,0,0,0,0,0,0,,,,,0.0,,,,,,
8,876170,1745065791942,,,,,,,,,,,,,,,,,,,,,,,,,,,,,,,,,,0,0,0,0,0,0,0,0,0,0,0,0,0,0,0,0,,,,,,,,,,,
9,876190,1745065791962,0.0,172.2,,-0.16,0.03,1.12,-1.0,0.0,1.0,1.13,1.24,91.0,4746.0,0.0,1.65,,9.48,1.251,73.6,,60.6,5.0,0.0,0.0,0.0,0.0,0.0,0.0,0.0,0.0,2.24,,,0,0,0,0,0,0,0,0,0,0,0,0,0,0,0,0,0.0,,,,0.0,39.239628,-77.964577,0.13,36.0,2.0,0.8
10,876210,1745065791982,,,,,,,,,,,,,,,,,,,,,,,,,,,,,,,,,,0,0,0,0,0,0,0,0,0,0,0,0,0,0,0,0,,,,,,,,,,,
11,876230,1745065792002,0.0,172.07,,-0.13,-0.06,1.03,0.0,0.0,0.0,1.04,1.24,84.0,4481.0,0.0,1.69,,9.48,1.251,73.6,,59.7,5.0,,,,,,,,,,,,0,0,0,0,0,0,0,0,0,0,0,0,0,0,0,0,,,,,0.0,,,,,,
12,876250,1745065792014,,,,,,,,,,,,,,,,,,,,,,,,,,,,,,,,,,0,0,0,0,0,0,0,0,0,0,0,0,0,0,0,0,,,,,,,,,,,
13,876270,1745065792034,0.0,172.07,,-0.14,-0.06,1.07,-1.0,0.0,1.0,1.08,1.24,87.0,4481.0,0.0,1.69,,9.73,1.251,73.6,,59.7,5.0,,,,,,,,,,,,0,0,0,0,0,0,0,0,0,0,0,0,0,0,0,0,,,,,0.0,,,,,,
14,876290,1745065792054,,,,,,,,,,,,,,,,,,,,,,,0.0,0.0,0.0,0.0,0.0,0.0,0.0,0.0,2.24,,,0,0,0,0,0,0,0,0,0,0,0,0,0,0,0,0,0.0,,,,,39.239628,-77.964577,0.25,35.0,2.0,0.8
15,876310,1745065792074,0.0,171.95,,-0.15,-0.08,1.02,0.0,0.0,0.0,1.04,1.24,83.0,4108.0,0.0,1.76,,9.98,1.25,73.6,,55.9,5.0,,,,,,,,,,,,0,0,0,0,0,0,0,0,0,0,0,0,0,0,0,0,,,,,0.0,,,,,,
16,876330,1745065792094,,,,,,,,,,,,,,,,,,,,,,,,,,,,,,,,,,0,0,0,0,0,0,0,0,0,0,0,0,0,0,0,0,,,,,,,,,,,
17,876350,1745065792118,0.0,172.07,,-0.15,-0.06,1.06,0.0,0.0,1.0,1.08,1.24,86.0,3776.0,2.8,1.86,,10.48,1.251,73.6,,55.9,5.0,,,,,,,,,,,,0,0,0,0,0,0,0,0,0,0,0,0,0,0,0,0,,,,,0.0,,,,,,
18,876370,1745065792138,,,,,,,,,,,,,,,,,,,,,,,,,,,,,,,,,,0,0,0,0,0,0,0,0,0,0,0,0,0,0,0,0,,,,,,,,,,,
19,876390,1745065792158,0.0,172.07,12.7,-0.12,-0.01,0.97,0.0,0.0,0.0,0.98,1.24,79.0,3423.0,12.9,4.02,15.0,11.93,1.249,73.6,183.0,55.9,5.0,0.0,0.0,0.0,0.0,0.0,0.0,0.0,0.0,2.24,0.0,1.0,0,0,0,0,0,0,0,0,0,0,0,0,0,0,0,0,0.0,0.0,0.0,0.0,0.0,39.239628,-77.964577,0.11,35.0,2.0,0.8
20,876410,1745065792178,,,,,,,,,,,,,,,,,,,,,,,,,,,,,,,,,,0,0,0,0,0,0,0,0,0,0,0,0,0,0,0,0,,,,,,,,,,,
21,876430,1745065792202,0.0,171.95,,-0.13,-0.07,1.05,0.0,0.0,0.0,1.06,1.24,85.0,3377.0,14.8,4.23,,11.93,1.249,73.6,,45.4,5.0,,,,,,,,,,,,0,0,0,0,0,0,0,0,0,0,0,0,0,0,0,0,,,,,0.0,,,,,,
22,876450,1745065792222,,,,,,,,,,,,,,,,,,,,,,,,,,,,,,,,,,0,0,0,0,0,0,0,0,0,0,0,0,0,0,0,0,,,,,,,,,,,
23,876470,1745065792242,0.0,172.07,,-0.1,-0.01,1.0,0.0,0.0,0.0,1.0,1.24,81.0,3377.0,14.8,4.23,,12.99,1.248,73.6,,45.4,5.0,,,,,,,,,,,,0,0,0,0,0,0,0,0,0,0,0,0,0,0,0,0,,,,,0.0,,,,,,
24,876490,1745065792262,,,,,,,,,,,,,,,,,,,,,,,0.0,0.0,0.0,0.0,0.0,0.0,0.0,0.0,2.24,,,0,0,0,0,0,0,0,0,0,0,0,0,0,0,0,0,0.0,,,,,39.239628,-77.964577,0.18,35.0,2.0,0.8
25,876510,1745065792282,0.0,172.07,,-0.12,-0.09,1.02,0.0,0.0,0.0,1.03,1.24,83.0,3450.0,15.0,4.17,,13.33,1.248,73.6,,46.2,5.0,,,,,,,,,,,,0,0,0,0,0,0,0,0,0,0,0,0,0,0,0,0,,,,,0.0,,,,,,
26,876530,1745065792302,,,,,,,,,,,,,,,,,,,,,,,,,,,,,,,,,,0,0,0,0,0,0,0,0,0,0,0,0,0,0,0,0,,,,,,,,,,,
27,876550,1745065792322,0.0,171.95,,-0.11,-0.05,1.02,0.0,0.0,1.0,1.02,1.24,82.0,3459.0,15.0,4.19,,13.47,1.248,73.6,,46.2,5.0,,,,,,,,,,,,0,0,0,0,0,0,0,0,0,0,0,0,0,0,0,0,,,,,0.0,,,,,,
28,876570,1745065792342,,,,,,,,,,,,,,,,,,,,,,,,,,,,,,,,,,0,0,0,0,0,0,0,0,0,0,0,0,0,0,0,0,,,,,,,,,,,
29,876590,1745065792362,0.0,172.07,,-0.1,-0.07,0.96,0.0,0.0,0.0,0.97,1.24,78.0,3458.0,15.0,4.17,,13.49,1.25,73.6,,46.2,5.0,0.0,0.0,0.0,0.0,0.0,0.0,0.0,0.0,2.25,,,0,0,0,0,0,0,0,0,0,0,0,0,0,0,0,0,0.0,,,,0.0,39.239628,-77.964577,0.0,35.0,2.0,0.8
30,876610,1745065792382,,,,,,,,,,,,,,,,,,,,,,,,,,,,,,,,,,0,0,0,0,0,0,0,0,0,0,0,0,0,0,0,0,,,,,,,,,,,
31,876630,1745065792402,0.0,172.07,,-0.1,-0.11,1.0,0.0,0.0,0.0,1.01,1.24,81.0,3542.0,11.3,4.11,,13.49,1.25,73.6,,46.6,5.0,,,,,,,,,,,,0,0,0,0,0,0,0,0,0,0,0,0,0,0,0,0,,,,,0.0,,,,,,
32,876650,1745065792422,,,,,,,,,,,,,,,,,,,,,,,,,,,,,,,,,,0,0,0,0,0,0,0,0,0,0,0,0,0,0,0,0,,,,,,,,,,,
33,876670,1745065792442,0.0,172.07,,-0.08,-0.1,1.0,0.0,0.0,0.0,1.01,1.24,81.0,3542.0,11.3,4.11,,13.35,1.25,73.6,,46.6,5.0,,,,,,,,,,,,0,0,0,0,0,0,0,0,0,0,0,0,0,0,0,0,,,,,0.0,,,,,,
34,876690,1745065792462,,,,,,,,,,,,,,,,,,,,,,,0.0,0.0,0.0,0.0,0.0,0.0,0.0,0.0,2.24,,,0,0,0,0,0,0,0,0,0,0,0,0,0,0,0,0,0.0,,,,,39.239628,-77.964577,0.08,35.0,2.0,0.8
35,876710,1745065792482,0.0,172.07,,-0.06,-0.04,1.04,0.0,0.0,1.0,1.05,1.24,84.0,3891.0,7.8,3.91,,13.01,1.252,73.6,,54.0,5.0,,,,,,,,,,,,0,0,0,0,0,0,0,0,0,0,0,0,0,0,0,0,,,,,0.0,,,,,,
36,876730,1745065792502,,,,,,,,,,,,,,,,,,,,,,,,,,,,,,,,,,0,0,0,0,0,0,0,0,0,0,0,0,0,0,0,0,,,,,,,,,,,
37,876750,1745065792522,0.0,172.07,,-0.06,-0.06,1.04,-1.0,0.0,1.0,1.05,1.24,84.0,3923.0,7.7,3.86,,12.76,1.216,73.6,,54.0,5.0,,,,,,,,,,,,0,0,0,0,0,0,0,0,0,0,0,0,0,0,0,0,,,,,0.0,,,,,,
38,876770,1745065792542,,,,,,,,,,,,,,,,,,,,,,,,,,,,,,,,,,0,0,0,0,0,0,0,0,0,0,0,0,0,0,0,0,,,,,,,,,,,
39,876790,1745065792562,0.0,172.07,,-0.05,-0.08,0.97,0.0,0.0,0.0,0.98,1.24,78.0,4049.0,7.6,3.84,,12.64,1.138,73.6,,54.0,5.0,0.0,0.0,0.0,0.0,0.0,0.0,0.0,0.0,2.24,,,0,0,0,0,0,0,0,0,0,0,0,0,0,0,0,0,0.0,,,,0.0,39.239628,-77.964577,0.11,35.0,2.0,0.8
40,876810,1745065792582,,,,,,,,,,,,,,,,,,,,,,,,,,,,,,,,,,0,0,0,0,0,0,0,0,0,0,0,0,0,0,0,0,,,,,,,,,,,
41,876830,1745065792601,0.0,172.07,,-0.07,-0.05,1.06,-1.0,0.0,1.0,1.06,1.24,86.0,4223.0,3.2,3.51,,12.64,1.138,73.6,,55.6,5.0,,,,,,,,,,,,0,0,0,0,0,0,0,0,0,0,0,0,0,0,0,0,,,,,0.0,,,,,,
42,876850,1745065792621,,,,,,,,,,,,,,,,,,,,,,,,,,,,,,,,,,0,0,0,0,0,0,0,0,0,0,0,0,0,0,0,0,,,,,,,,,,,
43,876870,1745065792641,0.0,172.2,,-0.06,-0.01,1.08,-1.0,0.0,1.0,1.08,1.24,87.0,4223.0,3.2,3.51,,12.36,1.158,73.6,,55.6,5.0,,,,,,,,,,,,0,0,0,0,0,0,0,0,0,0,0,0,0,0,0,0,,,,,0.0,,,,,,
44,876890,1745065792661,,,,,,,,,,,,,,,,,,,,,,,0.0,0.0,0.0,0.0,0.0,0.0,0.0,0.0,2.24,,,0,0,0,0,0,0,0,0,0,0,0,0,0,0,0,0,0.0,,,,,39.239628,-77.964577,0.09,35.0,2.0,0.8
45,876910,1745065792681,0.0,172.2,,-0.05,-0.05,0.99,0.0,0.0,0.0,1.0,1.24,80.0,4363.0,2.2,3.2,,12.04,1.098,73.6,,61.2,5.0,,,,,,,,,,,,0,0,0,0,0,0,0,0,0,0,0,0,0,0,0,0,,,,,0.0,,,,,,
46,876930,1745065792701,,,,,,,,,,,,,,,,,,,,,,,,,,,,,,,,,,0,0,0,0,0,0,0,0,0,0,0,0,0,0,0,0,,,,,,,,,,,
47,876950,1745065792721,0.0,172.07,,-0.03,-0.09,0.92,1.0,0.0,0.0,0.93,1.24,75.0,4467.0,1.9,3.1,,11.87,0.987,73.6,,61.2,5.0,,,,,,,,,,,,0,0,0,0,0,0,0,0,0,0,0,0,0,0,0,0,,,,,0.0,,,,,,
48,876970,1745065792741,,,,,,,,,,,,,,,,,,,,,,,,,,,,,,,,,,0,0,0,0,0,0,0,0,0,0,0,0,0,0,0,0,,,,,,,,,,,
49,876990,1745065792761,0.0,172.07,,-0.02,-0.14,0.85,1.0,0.0,-1.0,0.86,1.24,69.0,4415.0,1.7,3.03,,11.65,0.968,73.6,,61.2,5.0,0.0,0.0,0.0,0.0,0.0,0.0,0.0,0.0,2.24,,,0,0,0,0,0,0,0,0,0,0,0,0,0,0,0,0,0.0,,,,0.0,39.239628,-77.964577,0.11,35.0,2.0,0.8
50,877010,1745065792781,,,,,,,,,,,,,,,,,,,,,,,,,,,,,,,,,,0,0,0,0,0,0,0,0,0,0,0,0,0,0,0,0,,,,,,,,,,,
51,877030,1745065792801,0.0,172.07,,-0.03,-0.2,0.81,1.0,0.0,-1.0,0.83,1.24,67.0,4425.0,1.6,3.05,,11.65,0.968,73.6,,62.3,5.0,,,,,,,,,,,,0,0,0,0,0,0,0,0,0,0,0,0,0,0,0,0,,,,,0.0,,,,,,
52,877050,1745065792819,,,,,,,,,,,,,,,,,,,,,,,,,,,,,,,,,,0,0,0,0,0,0,0,0,0,0,0,0,0,0,0,0,,,,,,,,,,,
53,877070,1745065792839,0.0,172.07,,-0.05,-0.17,0.87,1.0,0.0,0.0,0.89,1.24,71.0,4425.0,1.6,3.05,,11.58,0.955,73.6,,62.3,5.0,,,,,,,,,,,,0,0,0,0,0,0,0,0,0,0,0,0,0,0,0,0,,,,,0.0,,,,,,
54,877090,1745065792859,,,,,,,,,,,,,,,,,,,,,,,0.0,0.0,0.0,0.0,0.0,0.0,0.0,0.0,2.25,,,0,0,0,0,0,0,0,0,0,0,0,0,0,0,0,0,0.0,,,,,39.239628,-77.964577,0.15,35.0,2.0,0.8
55,877110,1745065792879,0.0,172.07,,-0.05,-0.13,0.94,0.0,0.0,0.0,0.95,1.24,77.0,4377.0,1.5,3.05,,11.53,0.97,73.6,,61.3,5.0,,,,,,,,,,,,0,0,0,0,0,0,0,0,0,0,0,0,0,0,0,0,,,,,0.0,,,,,,
56,877130,1745065792901,,,,,,,,,,,,,,,,,,,,,,,,,,,,,,,,,,0,0,0,0,0,0,0,0,0,0,0,0,0,0,0,0,,,,,,,,,,,
57,877150,1745065792921,0.0,172.07,,-0.03,-0.1,0.96,0.0,0.0,0.0,0.97,1.24,78.0,4415.0,1.6,2.99,,11.52,1.028,73.6,,61.3,5.0,,,,,,,,,,,,0,0,0,0,0,0,0,0,0,0,0,0,0,0,0,0,,,,,0.0,,,,,,
58,877170,1745065792941,,,,,,,,,,,,,,,,,,,,,,,,,,,,,,,,,,0,0,0,0,0,0,0,0,0,0,0,0,0,0,0,0,,,,,,,,,,,
59,877190,1745065792961,0.0,172.07,,-0.0,-0.06,0.92,0.0,0.0,0.0,0.93,1.24,74.0,4432.0,1.5,2.98,,11.52,1.059,73.6,,61.3,5.0,0.0,0.0,0.0,0.0,0.0,0.0,0.0,0.0,2.24,,,0,0,0,0,0,0,0,0,0,0,0,0,0,0,0,0,0.0,,,,0.0,39.239628,-77.964577,0.08,35.0,2.0,0.8
60,877210,1745065792981,,,,,,,,,,,,,,,,,,,,,,,,,,,,,,,,,,0,0,0,0,0,0,0,0,0,0,0,0,0,0,0,0,,,,,,,,,,,
61,877230,1745065793001,0.0,172.07,,0.02,-0.03,0.89,1.0,0.0,0.0,0.89,1.24,72.0,4481.0,1.6,2.94,,11.52,1.059,73.6,,63.0,5.0,,,,,,,,,,,,0,0,0,0,0,0,0,0,0,0,0,0,0,0,0,0,,,,,0.0,,,,,,
62,877250,1745065793013,,,,,,,,,,,,,,,,,,,,,,,,,,,,,,,,,,0,0,0,0,0,0,0,0,0,0,0,0,0,0,0,0,,,,,,,,,,,
63,877270,1745065793033,0.0,172.07,,0.03,-0.07,0.84,1.0,0.0,0.0,0.85,1.24,68.0,4481.0,1.6,2.94,,11.46,1.019,73.6,,63.0,5.0,,,,,,,,,,,,0,0,0,0,0,0,0,0,0,0,0,0,0,0,0,0,,,,,0.0,,,,,,
64,877290,1745065793053,,,,,,,,,,,,,,,,,,,,,,,0.0,0.0,0.0,0.0,0.0,0.0,0.0,0.0,2.25,,,0,0,0,0,0,0,0,0,0,0,0,0,0,0,0,0,0.0,,,,,39.239628,-77.964577,0.23,37.0,2.0,0.7
65,877310,1745065793073,0.0,172.07,,0.0,-0.12,0.83,1.0,0.0,0.0,0.83,1.24,67.0,4354.0,1.6,2.98,,11.37,0.997,73.6,,60.3,5.0,,,,,,,,,,,,0,0,0,0,0,0,0,0,0,0,0,0,0,0,0,0,,,,,0.0,,,,,,
66,877330,1745065793093,,,,,,,,,,,,,,,,,,,,,,,,,,,,,,,,,,0,0,0,0,0,0,0,0,0,0,0,0,0,0,0,0,,,,,,,,,,,
67,877350,1745065793119,0.0,172.07,,0.0,-0.06,0.92,0.0,0.0,0.0,0.93,1.24,74.0,4249.0,1.7,2.94,,11.38,0.997,73.6,,60.3,5.0,,,,,,,,,,,,0,0,0,0,0,0,0,0,0,0,0,0,0,0,0,0,,,,,0.0,,,,,,
68,877370,1745065793139,,,,,,,,,,,,,,,,,,,,,,,,,,,,,,,,,,0,0,0,0,0,0,0,0,0,0,0,0,0,0,0,0,,,,,,,,,,,
69,877390,1745065793159,0.0,172.07,12.71,0.01,-0.03,0.92,1.0,0.0,0.0,0.93,1.24,74.0,4176.0,1.6,2.98,15.0,11.42,1.024,73.6,183.0,60.3,5.0,0.0,0.0,0.0,0.0,0.0,0.0,0.0,0.0,2.24,0.0,1.0,0,0,0,0,0,0,0,0,0,0,0,0,0,0,0,0,0.0,0.0,0.0,0.0,0.0,39.239628,-77.964577,0.13,37.0,2.0,0.7
70,877410,1745065793179,,,,,,,,,,,,,,,,,,,,,,,,,,,,,,,,,,0,0,0,0,0,0,0,0,0,0,0,0,0,0,0,0,,,,,,,,,,,
71,877430,1745065793201,0.0,171.95,,-0.02,-0.03,0.98,0.0,0.0,0.0,0.98,1.24,79.0,4171.0,1.6,2.94,,11.42,1.024,73.6,,58.9,5.0,,,,,,,,,,,,0,0,0,0,0,0,0,0,0,0,0,0,0,0,0,0,,,,,0.0,,,,,,
72,877450,1745065793221,,,,,,,,,,,,,,,,,,,,,,,,,,,,,,,,,,0,0,0,0,0,0,0,0,0,0,0,0,0,0,0,0,,,,,,,,,,,
73,877470,1745065793241,0.0,172.07,,-0.02,-0.02,0.94,1.0,0.0,0.0,0.94,1.24,75.0,4171.0,1.6,2.94,,11.4,1.09,73.6,,58.9,5.0,,,,,,,,,,,,0,0,0,0,0,0,0,0,0,0,0,0,0,0,0,0,,,,,0.0,,,,,,
74,877490,1745065793261,,,,,,,,,,,,,,,,,,,,,,,0.0,0.0,0.0,0.0,0.0,0.0,0.0,0.0,2.24,,,0,0,0,0,0,0,0,0,0,0,0,0,0,0,0,0,0.0,,,,,39.239628,-77.964577,0.0,37.0,2.0,0.7
75,877510,1745065793281,0.0,171.95,,-0.04,-0.01,0.98,0.0,0.0,0.0,0.99,1.24,79.0,4115.0,1.6,2.98,,11.45,1.128,73.6,,56.8,5.0,,,,,,,,,,,,0,0,0,0,0,0,0,0,0,0,0,0,0,0,0,0,,,,,0.0,,,,,,
76,877530,1745065793303,,,,,,,,,,,,,,,,,,,,,,,,,,,,,,,,,,0,0,0,0,0,0,0,0,0,0,0,0,0,0,0,0,,,,,,,,,,,
77,877550,1745065793323,0.0,172.07,,-0.03,-0.07,0.92,1.0,0.0,0.0,0.93,1.24,75.0,4066.0,1.5,2.94,,11.5,1.091,73.6,,56.8,5.0,,,,,,,,,,,,0,0,0,0,0,0,0,0,0,0,0,0,0,0,0,0,,,,,0.0,,,,,,
78,877570,1745065793343,,,,,,,,,,,,,,,,,,,,,,,,,,,,,,,,,,0,0,0,0,0,0,0,0,0,0,0,0,0,0,0,0,,,,,,,,,,,
79,877590,1745065793363,0.0,171.95,,-0.01,0.03,0.96,0.0,0.0,0.0,0.96,1.24,77.0,4001.0,1.4,2.97,,11.56,1.09,73.6,,56.8,5.0,0.0,0.0,0.0,0.0,0.0,0.0,0.0,0.0,2.24,,,0,0,0,0,0,0,0,0,0,0,0,0,0,0,0,0,0.0,,,,0.0,39.239628,-77.964577,0.11,37.0,2.0,0.7
80,877610,1745065793383,,,,,,,,,,,,,,,,,,,,,,,,,,,,,,,,,,0,0,0,0,0,0,0,0,0,0,0,0,0,0,0,0,,,,,,,,,,,
81,877630,1745065793403,0.0,171.95,,-0.02,-0.02,0.97,0.0,0.0,0.0,0.97,1.24,78.0,3960.0,1.3,2.9,,11.56,1.09,73.6,,55.7,5.0,,,,,,,,,,,,0,0,0,0,0,0,0,0,0,0,0,0,0,0,0,0,,,,,0.0,,,,,,
82,877650,1745065793423,,,,,,,,,,,,,,,,,,,,,,,,,,,,,,,,,,0,0,0,0,0,0,0,0,0,0,0,0,0,0,0,0,,,,,,,,,,,
83,877670,1745065793443,0.0,172.07,,-0.04,-0.05,0.94,0.0,0.0,0.0,0.94,1.24,76.0,3960.0,1.3,2.9,,11.57,1.104,73.6,,55.7,5.0,,,,,,,,,,,,0,0,0,0,0,0,0,0,0,0,0,0,0,0,0,0,,,,,0.0,,,,,,
84,877690,1745065793463,,,,,,,,,,,,,,,,,,,,,,,0.0,0.0,0.0,0.0,0.0,0.0,0.0,0.0,2.25,,,0,0,0,0,0,0,0,0,0,0,0,0,0,0,0,0,0.0,,,,,39.239628,-77.964577,0.08,37.0,2.0,0.7
85,877710,1745065793483,0.0,172.07,,-0.06,-0.05,0.93,0.0,0.0,0.0,0.93,1.24,75.0,3855.0,1.3,3.0,,11.75,1.127,73.6,,52.0,5.0,,,,,,,,,,,,0,0,0,0,0,0,0,0,0,0,0,0,0,0,0,0,,,,,0.0,,,,,,
86,877730,1745065793502,,,,,,,,,,,,,,,,,,,,,,,,,,,,,,,,,,0,0,0,0,0,0,0,0,0,0,0,0,0,0,0,0,,,,,,,,,,,
87,877750,1745065793522,0.0,172.07,,-0.06,-0.03,0.95,0.0,0.0,0.0,0.96,1.24,77.0,3803.0,1.4,3.02,,11.81,1.155,73.6,,52.0,5.0,,,,,,,,,,,,0,0,0,0,0,0,0,0,0,0,0,0,0,0,0,0,,,,,0.0,,,,,,
88,877770,1745065793542,,,,,,,,,,,,,,,,,,,,,,,,,,,,,,,,,,0,0,0,0,0,0,0,0,0,0,0,0,0,0,0,0,,,,,,,,,,,
89,877790,1745065793562,0.0,172.07,,-0.07,-0.01,0.97,0.0,0.0,0.0,0.97,1.24,78.0,3696.0,1.5,3.03,,11.92,1.218,73.6,,52.0,5.0,0.0,0.0,0.0,0.0,0.0,0.0,0.0,0.0,2.25,,,0,0,0,0,0,0,0,0,0,0,0,0,0,0,0,0,0.0,,,,0.0,39.239628,-77.964577,0.08,37.0,2.0,0.7
90,877810,1745065793582,,,,,,,,,,,,,,,,,,,,,,,,,,,,,,,,,,0,0,0,0,0,0,0,0,0,0,0,0,0,0,0,0,,,,,,,,,,,
91,877830,1745065793602,0.0,172.07,,-0.06,-0.01,0.97,0.0,0.0,0.0,0.98,1.24,78.0,3639.0,1.5,3.05,,11.92,1.218,73.6,,50.4,5.0,,,,,,,,,,,,0,0,0,0,0,0,0,0,0,0,0,0,0,0,0,0,,,,,0.0,,,,,,
92,877850,1745065793622,,,,,,,,,,,,,,,,,,,,,,,,,,,,,,,,,,0,0,0,0,0,0,0,0,0,0,0,0,0,0,0,0,,,,,,,,,,,
93,877870,1745065793642,0.0,172.07,,-0.04,0.04,0.96,0.0,0.0,0.0,0.96,1.24,77.0,3639.0,1.5,3.05,,11.99,1.234,73.6,,50.4,5.0,,,,,,,,,,,,0,0,0,0,0,0,0,0,0,0,0,0,0,0,0,0,,,,,0.0,,,,,,
94,877890,1745065793662,,,,,,,,,,,,,,,,,,,,,,,0.0,0.0,0.0,0.0,0.0,0.0,0.0,0.0,2.24,,,0,0,0,0,0,0,0,0,0,0,0,0,0,0,0,0,0.0,,,,,39.239628,-77.964577,0.23,37.0,2.0,0.7
95,877910,1745065793682,0.0,172.07,,-0.06,-0.05,0.95,0.0,0.0,0.0,0.95,1.24,76.0,3496.0,1.6,3.09,,12.12,1.23,73.6,,47.0,5.0,,,,,,,,,,,,0,0,0,0,0,0,0,0,0,0,0,0,0,0,0,0,,,,,0.0,,,,,,
96,877930,1745065793702,,,,,,,,,,,,,,,,,,,,,,,,,,,,,,,,,,0,0,0,0,0,0,0,0,0,0,0,0,0,0,0,0,,,,,,,,,,,
97,877950,1745065793722,0.0,172.07,,-0.05,-0.02,0.98,0.0,0.0,0.0,0.98,1.24,79.0,3438.0,1.5,3.12,,12.24,1.198,73.6,,47.0,5.0,,,,,,,,,,,,0,0,0,0,0,0,0,0,0,0,0,0,0,0,0,0,,,,,0.0,,,,,,
98,877970,1745065793742,,,,,,,,,,,,,,,,,,,,,,,,,,,,,,,,,,0,0,0,0,0,0,0,0,0,0,0,0,0,0,0,0,,,,,,,,,,,
99,877990,1745065793762,0.0,172.07,,-0.07,-0.05,0.95,0.0,0.0,0.0,0.96,1.24,77.0,3367.0,1.6,3.16,,12.32,1.188,73.6,,47.0,5.0,0.0,0.0,0.0,0.0,0.0,0.0,0.0,0.0,2.24,,,0,0,0,0,0,0,0,0,0,0,0,0,0,0,0,0,0.0,,,,0.0,39.239628,-77.964577,0.15,37.0,2.0,0.7
100,878010,1745065793782,,,,,,,,,,,,,,,,,,,,,,,,,,,,,,,,,,0,0,0,0,0,0,0,0,0,0,0,0,0,0,0,0,,,,,,,,,,,
101,878030,1745065793802,0.0,172.07,,-0.05,0.01,0.94,0.0,0.0,0.0,0.94,1.24,75.0,3207.0,1.5,3.2,,12.32,1.188,73.6,,44.6,5.0,,,,,,,,,,,,0,0,0,0,0,0,0,0,0,0,0,0,0,0,0,0,,,,,0.0,,,,,,
102,878050,1745065793822,,,,,,,,,,,,,,,,,,,,,,,,,,,,,,,,,,0,0,0,0,0,0,0,0,0,0,0,0,0,0,0,0,,,,,,,,,,,
103,878070,1745065793842,0.0,172.07,,-0.05,-0.01,1.0,0.0,0.0,0.0,1.0,1.24,81.0,3207.0,1.5,3.2,,12.43,1.159,73.6,,44.6,5.0,,,,,,,,,,,,0,0,0,0,0,0,0,0,0,0,0,0,0,0,0,0,,,,,0.0,,,,,,
104,878090,1745065793862,,,,,,,,,,,,,,,,,,,,,,,0.0,0.0,0.0,0.0,0.0,0.0,0.0,0.0,2.24,,,0,0,0,0,0,0,0,0,0,0,0,0,0,0,0,0,0.0,,,,,39.239628,-77.964577,0.11,37.0,2.0,0.7
105,878110,1745065793882,0.0,171.95,,-0.06,-0.05,1.07,0.0,0.0,0.0,1.07,1.24,86.0,3134.0,1.4,3.21,,12.49,1.15,73.6,,40.9,5.0,,,,,,,,,,,,0,0,0,0,0,0,0,0,0,0,0,0,0,0,0,0,,,,,0.0,,,,,,
106,878130,1745065793902,,,,,,,,,,,,,,,,,,,,,,,,,,,,,,,,,,0,0,0,0,0,0,0,0,0,0,0,0,0,0,0,0,,,,,,,,,,,
107,878150,1745065793922,0.0,171.95,,-0.06,-0.1,1.13,0.0,0.0,0.0,1.14,1.24,91.0,3006.0,1.3,3.26,,12.6,1.132,73.6,,40.9,5.0,,,,,,,,,,,,0,0,0,0,0,0,0,0,0,0,0,0,0,0,0,0,,,,,0.0,,,,,,
108,878170,1745065793942,,,,,,,,,,,,,,,,,,,,,,,,,,,,,,,,,,0,0,0,0,0,0,0,0,0,0,0,0,0,0,0,0,,,,,,,,,,,
109,878190,1745065793962,0.0,171.95,,-0.07,-0.14,1.2,0.0,0.0,1.0,1.21,1.24,97.0,2924.0,1.2,3.31,,12.73,1.131,73.6,,40.9,5.0,0.0,0.0,0.0,0.0,0.0,0.0,0.0,0.0,2.25,,,0,0,0,0,0,0,0,0,0,0,0,0,0,0,0,0,0.0,,,,0.0,39.239628,-77.964577,0.22,37.0,2.0,0.7
110,878210,1745065793982,,,,,,,,,,,,,,,,,,,,,,,,,,,,,,,,,,0,0,0,0,0,0,0,0,0,0,0,0,0,0,0,0,,,,,,,,,,,
111,878230,1745065794002,0.0,172.07,,-0.07,-0.18,1.24,-1.0,0.0,0.0,1.25,1.25,100.0,2951.0,1.2,3.24,,12.73,1.131,73.6,,39.3,5.0,,,,,,,,,,,,0,0,0,0,0,0,0,0,0,0,0,0,0,0,0,0,,,,,0.0,,,,,,
112,878250,1745065794014,,,,,,,,,,,,,,,,,,,,,,,,,,,,,,,,,,0,0,0,0,0,0,0,0,0,0,0,0,0,0,0,0,,,,,,,,,,,
113,878270,1745065794034,0.0,172.07,,-0.07,-0.18,1.29,-1.0,0.0,1.0,1.3,1.3,100.0,2951.0,1.2,3.24,,12.77,1.237,73.6,,39.3,5.0,,,,,,,,,,,,0,0,0,0,0,0,0,0,0,0,0,0,0,0,0,0,,,,,0.0,,,,,,
114,878290,1745065794054,,,,,,,,,,,,,,,,,,,,,,,0.0,0.0,0.0,0.0,0.0,0.0,0.0,0.0,2.25,,,0,0,0,0,0,0,0,0,0,0,0,0,0,0,0,0,0.0,,,,,39.239628,-77.964577,0.13,37.0,2.0,0.7
115,878310,1745065794074,0.0,172.07,,-0.08,-0.22,1.33,-1.0,0.0,0.0,1.35,1.35,100.0,3023.0,1.2,3.27,,12.79,1.251,73.6,,40.2,5.0,,,,,,,,,,,,0,0,0,0,0,0,0,0,0,0,0,0,0,0,0,0,,,,,0.0,,,,,,
116,878330,1745065794094,,,,,,,,,,,,,,,,,,,,,,,,,,,,,,,,,,0,0,0,0,0,0,0,0,0,0,0,0,0,0,0,0,,,,,,,,,,,
117,878350,1745065794120,0.0,172.07,,-0.11,-0.23,1.28,-1.0,0.0,0.0,1.31,1.35,97.0,3179.0,1.3,3.2,,12.73,1.251,73.6,,40.2,5.0,,,,,,,,,,,,0,0,0,0,0,0,0,0,0,0,0,0,0,0,0,0,,,,,0.0,,,,,,
118,878370,1745065794140,,,,,,,,,,,,,,,,,,,,,,,,,,,,,,,,,,0,0,0,0,0,0,0,0,0,0,0,0,0,0,0,0,,,,,,,,,,,
119,878390,1745065794160,0.0,171.95,12.69,-0.11,-0.18,1.18,0.0,0.0,0.0,1.2,1.35,89.0,3120.0,1.4,3.22,15.0,12.72,1.169,73.6,183.0,40.2,5.0,0.0,0.0,0.0,0.0,0.0,0.0,0.0,0.0,2.24,0.0,1.0,0,0,0,0,0,0,0,0,0,0,0,0,0,0,0,0,0.0,0.0,0.0,0.0,0.0,39.239628,-77.964577,0.08,37.0,2.0,0.7
120,878410,1745065794180,,,,,,,,,,,,,,,,,,,,,,,,,,,,,,,,,,0,0,0,0,0,0,0,0,0,0,0,0,0,0,0,0,,,,,,,,,,,
121,878430,1745065794200,0.0,171.95,,-0.09,-0.13,1.06,0.0,0.0,0.0,1.07,1.35,80.0,3100.0,1.4,3.27,,12.72,1.169,73.6,,39.5,5.0,,,,,,,,,,,,0,0,0,0,0,0,0,0,0,0,0,0,0,0,0,0,,,,,0.0,,,,,,
122,878450,1745065794218,,,,,,,,,,,,,,,,,,,,,,,,,,,,,,,,,,0,0,0,0,0,0,0,0,0,0,0,0,0,0,0,0,,,,,,,,,,,
123,878470,1745065794238,0.0,171.95,,-0.06,-0.08,0.99,0.0,0.0,0.0,0.99,1.35,73.0,3100.0,1.4,3.27,,12.8,1.143,73.6,,39.5,5.0,,,,,,,,,,,,0,0,0,0,0,0,0,0,0,0,0,0,0,0,0,0,,,,,0.0,,,,,,
124,878490,1745065794258,,,,,,,,,,,,,,,,,,,,,,,0.0,0.0,0.0,0.0,0.0,0.0,0.0,0.0,2.24,,,0,0,0,0,0,0,0,0,0,0,0,0,0,0,0,0,0.0,,,,,39.239628,-77.964577,0.15,37.0,2.0,0.7
125,878510,1745065794278,0.0,171.95,,-0.04,-0.05,0.93,0.0,0.0,0.0,0.93,1.35,69.0,3029.0,1.4,3.22,,12.81,1.248,73.6,,38.8,5.0,,,,,,,,,,,,0,0,0,0,0,0,0,0,0,0,0,0,0,0,0,0,,,,,0.0,,,,,,
126,878530,1745065794304,,,,,,,,,,,,,,,,,,,,,,,,,,,,,,,,,,0,0,0,0,0,0,0,0,0,0,0,0,0,0,0,0,,,,,,,,,,,
127,878550,1745065794324,0.0,171.95,,-0.01,-0.01,0.87,0.0,0.0,0.0,0.87,1.35,64.0,2991.0,1.4,3.31,,12.83,1.213,73.6,,38.8,5.0,,,,,,,,,,,,0,0,0,0,0,0,0,0,0,0,0,0,0,0,0,0,,,,,0.0,,,,,,
128,878570,1745065794344,,,,,,,,,,,,,,,,,,,,,,,,,,,,,,,,,,0,0,0,0,0,0,0,0,0,0,0,0,0,0,0,0,,,,,,,,,,,
129,878590,1745065794364,0.0,171.95,,0.0,0.01,0.84,0.0,0.0,0.0,0.84,1.35,62.0,3061.0,1.4,3.24,,12.84,1.189,73.6,,38.8,5.0,0.0,0.0,0.0,0.0,0.0,0.0,0.0,0.0,2.24,,,0,0,0,0,0,0,0,0,0,0,0,0,0,0,0,0,0.0,,,,0.0,39.239628,-77.964577,0.05,37.0,2.0,0.7
130,878610,1745065794384,,,,,,,,,,,,,,,,,,,,,,,,,,,,,,,,,,0,0,0,0,0,0,0,0,0,0,0,0,0,0,0,0,,,,,,,,,,,
131,878630,1745065794404,0.0,171.95,,0.01,0.0,0.8,0.0,0.0,0.0,0.8,1.35,59.0,2930.0,1.3,3.29,,12.84,1.189,73.6,,38.8,5.0,,,,,,,,,,,,0,0,0,0,0,0,0,0,0,0,0,0,0,0,0,0,,,,,0.0,,,,,,
132,878650,1745065794424,,,,,,,,,,,,,,,,,,,,,,,,,,,,,,,,,,0,0,0,0,0,0,0,0,0,0,0,0,0,0,0,0,,,,,,,,,,,
133,878670,1745065794444,0.0,172.07,,0.01,0.01,0.77,0.0,0.0,0.0,0.77,1.35,57.0,2930.0,1.3,3.29,,12.85,1.209,73.6,,38.8,5.0,,,,,,,,,,,,0,0,0,0,0,0,0,0,0,0,0,0,0,0,0,0,,,,,0.0,,,,,,
134,878690,1745065794464,,,,,,,,,,,,,,,,,,,,,,,0.0,0.0,0.0,0.0,0.0,0.0,0.0,0.0,2.24,,,0,0,0,0,0,0,0,0,0,0,0,0,0,0,0,0,0.0,,,,,39.239628,-77.964577,0.05,37.0,2.0,0.7
135,878710,1745065794484,0.0,171.95,,-0.02,-0.02,0.81,0.0,0.0,0.0,0.81,1.35,60.0,2823.0,1.2,3.31,,12.96,1.181,73.6,,36.0,5.0,,,,,,,,,,,,0,0,0,0,0,0,0,0,0,0,0,0,0,0,0,0,,,,,0.0,,,,,,
136,878730,1745065794504,,,,,,,,,,,,,,,,,,,,,,,,,,,,,,,,,,0,0,0,0,0,0,0,0,0,0,0,0,0,0,0,0,,,,,,,,,,,
137,878750,1745065794524,0.0,172.07,,-0.03,0.0,0.84,0.0,0.0,0.0,0.84,1.35,62.0,2744.0,1.1,3.33,,12.99,1.164,73.6,,36.0,5.0,,,,,,,,,,,,0,0,0,0,0,0,0,0,0,0,0,0,0,0,0,0,,,,,0.0,,,,,,
138,878770,1745065794544,,,,,,,,,,,,,,,,,,,,,,,,,,,,,,,,,,0,0,0,0,0,0,0,0,0,0,0,0,0,0,0,0,,,,,,,,,,,
139,878790,1745065794564,0.0,171.95,,-0.03,-0.01,0.86,0.0,0.0,0.0,0.86,1.35,64.0,2677.0,1.2,3.37,,13.07,1.175,73.6,,36.0,5.0,0.0,0.0,0.0,0.0,0.0,0.0,0.0,0.0,2.24,,,0,0,0,0,0,0,0,0,0,0,0,0,0,0,0,0,0.0,,,,0.0,39.239628,-77.964577,0.11,37.0,2.0,0.7
140,878810,1745065794584,,,,,,,,,,,,,,,,,,,,,,,,,,,,,,,,,,0,0,0,0,0,0,0,0,0,0,0,0,0,0,0,0,,,,,,,,,,,
141,878830,1745065794603,0.0,171.95,,-0.02,-0.02,0.88,0.0,0.0,0.0,0.88,1.35,65.0,2579.0,1.2,3.4,,13.07,1.175,73.6,,32.8,5.0,,,,,,,,,,,,0,0,0,0,0,0,0,0,0,0,0,0,0,0,0,0,,,,,0.0,,,,,,
142,878850,1745065794623,,,,,,,,,,,,,,,,,,,,,,,,,,,,,,,,,,0,0,0,0,0,0,0,0,0,0,0,0,0,0,0,0,,,,,,,,,,,
143,878870,1745065794643,0.0,172.07,,-0.02,-0.04,0.9,0.0,0.0,0.0,0.9,1.35,67.0,2579.0,1.2,3.4,,13.15,1.229,73.6,,32.8,5.0,,,,,,,,,,,,0,0,0,0,0,0,0,0,0,0,0,0,0,0,0,0,,,,,0.0,,,,,,
144,878890,1745065794663,,,,,,,,,,,,,,,,,,,,,,,0.0,0.0,0.0,0.0,0.0,0.0,0.0,0.0,2.24,,,0,0,0,0,0,0,0,0,0,0,0,0,0,0,0,0,0.0,,,,,39.239628,-77.964577,0.11,37.0,2.0,0.7
145,878910,1745065794683,0.0,172.07,,-0.03,-0.03,0.92,0.0,0.0,0.0,0.92,1.35,68.0,2505.0,1.2,3.41,,13.23,1.251,73.6,,30.5,5.0,,,,,,,,,,,,0,0,0,0,0,0,0,0,0,0,0,0,0,0,0,0,,,,,0.0,,,,,,
146,878930,1745065794703,,,,,,,,,,,,,,,,,,,,,,,,,,,,,,,,,,0,0,0,0,0,0,0,0,0,0,0,0,0,0,0,0,,,,,,,,,,,
147,878950,1745065794723,0.0,172.07,,-0.04,-0.02,0.92,0.0,0.0,0.0,0.92,1.35,68.0,2428.0,1.3,3.45,,13.29,1.252,73.6,,30.5,5.0,,,,,,,,,,,,0,0,0,0,0,0,0,0,0,0,0,0,0,0,0,0,,,,,0.0,,,,,,
148,878970,1745065794743,,,,,,,,,,,,,,,,,,,,,,,,,,,,,,,,,,0,0,0,0,0,0,0,0,0,0,0,0,0,0,0,0,,,,,,,,,,,
149,878990,1745065794763,0.0,171.95,,-0.03,-0.04,0.94,0.0,0.0,0.0,0.94,1.35,70.0,2382.0,1.3,3.48,,13.33,1.248,73.6,,30.5,5.0,0.0,0.0,0.0,0.0,0.0,0.0,0.0,0.0,2.24,,,0,0,0,0,0,0,0,0,0,0,0,0,0,0,0,0,0.0,,,,0.0,39.239628,-77.964577,0.07,37.0,2.0,0.7
150,879010,1745065794783,,,,,,,,,,,,,,,,,,,,,,,,,,,,,,,,,,0,0,0,0,0,0,0,0,0,0,0,0,0,0,0,0,,,,,,,,,,,
151,879030,1745065794801,0.0,172.07,,-0.03,-0.05,0.94,0.0,0.0,0.0,0.94,1.35,70.0,2350.0,1.3,3.51,,13.33,1.248,73.6,,29.1,5.0,,,,,,,,,,,,0,0,0,0,0,0,0,0,0,0,0,0,0,0,0,0,,,,,0.0,,,,,,
152,879050,1745065794821,,,,,,,,,,,,,,,,,,,,,,,,,,,,,,,,,,0,0,0,0,0,0,0,0,0,0,0,0,0,0,0,0,,,,,,,,,,,
153,879070,1745065794841,0.0,172.07,,-0.03,-0.04,0.93,0.0,0.0,0.0,0.93,1.35,69.0,2350.0,1.3,3.51,,13.37,1.248,73.6,,29.1,5.0,,,,,,,,,,,,0,0,0,0,0,0,0,0,0,0,0,0,0,0,0,0,,,,,0.0,,,,,,
154,879090,1745065794861,,,,,,,,,,,,,,,,,,,,,,,0.0,0.0,0.0,0.0,0.0,0.0,0.0,0.0,2.24,,,0,0,0,0,0,0,0,0,0,0,0,0,0,0,0,0,0.0,,,,,39.239628,-77.964577,0.09,37.0,2.0,0.7
155,879110,1745065794881,0.0,172.07,,-0.04,-0.05,0.96,0.0,0.0,0.0,0.96,1.35,71.0,2298.0,1.3,3.53,,13.49,1.247,73.6,,30.5,5.0,,,,,,,,,,,,0,0,0,0,0,0,0,0,0,0,0,0,0,0,0,0,,,,,0.0,,,,,,
156,879130,1745065794903,,,,,,,,,,,,,,,,,,,,,,,,,,,,,,,,,,0,0,0,0,0,0,0,0,0,0,0,0,0,0,0,0,,,,,,,,,,,
157,879150,1745065794923,0.0,172.07,,-0.04,-0.05,0.95,0.0,0.0,0.0,0.95,1.35,70.0,2513.0,1.3,3.45,,13.37,1.247,73.6,,30.5,5.0,,,,,,,,,,,,0,0,0,0,0,0,0,0,0,0,0,0,0,0,0,0,,,,,0.0,,,,,,
158,879170,1745065794943,,,,,,,,,,,,,,,,,,,,,,,,,,,,,,,,,,0,0,0,0,0,0,0,0,0,0,0,0,0,0,0,0,,,,,,,,,,,
159,879190,1745065794963,0.0,172.07,,-0.04,-0.04,0.96,0.0,0.0,0.0,0.96,1.35,71.0,2469.0,1.2,3.48,,13.39,1.248,73.6,,30.5,5.0,0.0,0.0,0.0,0.0,0.0,0.0,0.0,0.0,2.24,,,0,0,0,0,0,0,0,0,0,0,0,0,0,0,0,0,0.0,,,,0.0,39.239628,-77.964577,0.11,37.0,2.0,0.7
160,879210,1745065794983,,,,,,,,,,,,,,,,,,,,,,,,,,,,,,,,,,0,0,0,0,0,0,0,0,0,0,0,0,0,0,0,0,,,,,,,,,,,
161,879230,1745065795003,0.0,172.07,,-0.04,-0.05,0.97,0.0,0.0,0.0,0.97,1.35,72.0,2577.0,1.2,3.44,,13.39,1.248,73.6,,32.1,5.0,,,,,,,,,,,,0,0,0,0,0,0,0,0,0,0,0,0,0,0,0,0,,,,,0.0,,,,,,
162,879250,1745065795013,,,,,,,,,,,,,,,,,,,,,,,,,,,,,,,,,,0,0,0,0,0,0,0,0,0,0,0,0,0,0,0,0,,,,,,,,,,,
163,879270,1745065795033,0.0,172.2,,-0.05,-0.04,0.97,0.0,0.0,0.0,0.97,1.35,72.0,2577.0,1.2,3.44,,13.31,1.248,73.6,,32.1,5.0,,,,,,,,,,,,0,0,0,0,0,0,0,0,0,0,0,0,0,0,0,0,,,,,0.0,,,,,,
164,879290,1745065795053,,,,,,,,,,,,,,,,,,,,,,,0.0,0.0,0.0,0.0,0.0,0.0,0.0,0.0,2.25,,,0,0,0,0,0,0,0,0,0,0,0,0,0,0,0,0,0.0,,,,,39.239628,-77.964577,0.15,37.0,2.0,0.7
165,879310,1745065795073,0.0,172.07,,-0.06,-0.04,0.97,0.0,0.0,0.0,0.97,1.35,72.0,2550.0,1.1,3.46,,13.33,1.233,73.6,,31.3,5.0,,,,,,,,,,,,0,0,0,0,0,0,0,0,0,0,0,0,0,0,0,0,,,,,0.0,,,,,,
166,879330,1745065795093,,,,,,,,,,,,,,,,,,,,,,,,,,,,,,,,,,0,0,0,0,0,0,0,0,0,0,0,0,0,0,0,0,,,,,,,,,,,
167,879350,1745065795113,0.0,172.2,,-0.06,-0.04,1.0,0.0,0.0,0.0,1.0,1.35,74.0,2488.0,1.1,3.45,,13.37,1.181,73.6,,31.3,5.0,,,,,,,,,,,,0,0,0,0,0,0,0,0,0,0,0,0,0,0,0,0,,,,,0.0,,,,,,
168,879370,1745065795133,,,,,,,,,,,,,,,,,,,,,,,,,,,,,,,,,,0,0,0,0,0,0,0,0,0,0,0,0,0,0,0,0,,,,,,,,,,,
169,879390,1745065795153,0.0,172.07,12.7,-0.06,-0.05,1.01,0.0,0.0,0.0,1.01,1.35,75.0,2423.0,1.1,3.47,15.0,13.43,1.15,73.6,183.0,31.3,5.0,0.0,0.0,0.0,0.0,0.0,0.0,0.0,0.0,2.24,0.0,1.0,0,0,0,0,0,0,0,0,0,0,0,0,0,0,0,0,0.0,0.0,0.0,0.0,0.0,39.239628,-77.964577,0.51,37.0,2.0,0.7
170,879410,1745065795173,,,,,,,,,,,,,,,,,,,,,,,,,,,,,,,,,,0,0,0,0,0,0,0,0,0,0,0,0,0,0,0,0,,,,,,,,,,,
171,879430,1745065795193,0.0,172.07,,-0.05,-0.06,1.01,0.0,0.0,0.0,1.01,1.35,75.0,2356.0,1.3,3.47,,13.43,1.15,73.6,,29.1,5.0,,,,,,,,,,,,0,0,0,0,0,0,0,0,0,0,0,0,0,0,0,0,,,,,0.0,,,,,,
172,879450,1745065795219,,,,,,,,,,,,,,,,,,,,,,,,,,,,,,,,,,0,0,0,0,0,0,0,0,0,0,0,0,0,0,0,0,,,,,,,,,,,
173,879470,1745065795239,0.0,172.07,,-0.06,-0.06,1.0,0.0,0.0,0.0,1.01,1.35,74.0,2356.0,1.3,3.47,,13.44,1.158,73.6,,29.1,5.0,,,,,,,,,,,,0,0,0,0,0,0,0,0,0,0,0,0,0,0,0,0,,,,,0.0,,,,,,
174,879490,1745065795259,,,,,,,,,,,,,,,,,,,,,,,0.0,0.0,0.0,0.0,0.0,0.0,0.0,0.0,2.24,,,0,0,0,0,0,0,0,0,0,0,0,0,0,0,0,0,0.0,,,,,39.239628,-77.964577,0.36,37.0,2.0,0.7
175,879510,1745065795279,0.0,172.07,,-0.07,-0.04,1.01,0.0,0.0,0.0,1.01,1.35,75.0,2317.0,1.3,3.5,,13.45,1.189,73.6,,27.8,5.0,,,,,,,,,,,,0,0,0,0,0,0,0,0,0,0,0,0,0,0,0,0,,,,,0.0,,,,,,
176,879530,1745065795303,,,,,,,,,,,,,,,,,,,,,,,,,,,,,,,,,,0,0,0,0,0,0,0,0,0,0,0,0,0,0,0,0,,,,,,,,,,,
177,879550,1745065795323,0.0,172.07,,-0.07,-0.06,1.0,0.0,0.0,0.0,1.01,1.35,74.0,2260.0,1.3,3.53,,13.49,1.213,73.6,,27.8,5.0,,,,,,,,,,,,0,0,0,0,0,0,0,0,0,0,0,0,0,0,0,0,,,,,0.0,,,,,,
178,879570,1745065795343,,,,,,,,,,,,,,,,,,,,,,,,,,,,,,,,,,0,0,0,0,0,0,0,0,0,0,0,0,0,0,0,0,,,,,,,,,,,
179,879590,1745065795363,0.0,172.07,,-0.06,-0.06,1.0,0.0,0.0,0.0,1.0,1.35,74.0,2214.0,1.3,3.55,,13.57,1.236,73.6,,27.8,5.0,0.0,0.0,0.0,0.0,0.0,0.0,0.0,0.0,2.24,,,0,0,0,0,0,0,0,0,0,0,0,0,0,0,0,0,0.0,,,,0.0,39.239628,-77.964577,0.13,37.0,2.0,0.7
180,879610,1745065795383,,,,,,,,,,,,,,,,,,,,,,,,,,,,,,,,,,0,0,0,0,0,0,0,0,0,0,0,0,0,0,0,0,,,,,,,,,,,
181,879630,1745065795403,0.0,172.07,,-0.06,-0.05,1.0,0.0,0.0,0.0,1.0,1.35,74.0,2151.0,1.3,3.58,,13.57,1.236,73.6,,26.6,5.0,,,,,,,,,,,,0,0,0,0,0,0,0,0,0,0,0,0,0,0,0,0,,,,,0.0,,,,,,
182,879650,1745065795423,,,,,,,,,,,,,,,,,,,,,,,,,,,,,,,,,,0,0,0,0,0,0,0,0,0,0,0,0,0,0,0,0,,,,,,,,,,,
183,879670,1745065795443,0.0,172.07,,-0.06,-0.06,0.99,0.0,0.0,0.0,1.0,1.35,74.0,2151.0,1.3,3.58,,13.59,1.24,73.6,,26.6,5.0,,,,,,,,,,,,0,0,0,0,0,0,0,0,0,0,0,0,0,0,0,0,,,,,0.0,,,,,,
184,879690,1745065795463,,,,,,,,,,,,,,,,,,,,,,,0.0,0.0,0.0,0.0,0.0,0.0,0.0,0.0,2.24,,,0,0,0,0,0,0,0,0,0,0,0,0,0,0,0,0,0.0,,,,,39.239628,-77.964577,0.09,37.0,2.0,0.7
185,879710,1745065795483,0.0,172.07,,-0.05,-0.05,0.99,0.0,0.0,0.0,1.0,1.35,74.0,2057.0,1.2,3.56,,13.71,1.244,73.6,,25.5,5.0,,,,,,,,,,,,0,0,0,0,0,0,0,0,0,0,0,0,0,0,0,0,,,,,0.0,,,,,,
186,879730,1745065795502,,,,,,,,,,,,,,,,,,,,,,,,,,,,,,,,,,0,0,0,0,0,0,0,0,0,0,0,0,0,0,0,0,,,,,,,,,,,
187,879750,1745065795522,0.0,172.07,,-0.06,-0.05,0.98,0.0,0.0,0.0,0.98,1.35,73.0,1948.0,1.1,3.61,,13.68,1.248,73.6,,25.5,5.0,,,,,,,,,,,,0,0,0,0,0,0,0,0,0,0,0,0,0,0,0,0,,,,,0.0,,,,,,
188,879770,1745065795542,,,,,,,,,,,,,,,,,,,,,,,,,,,,,,,,,,0,0,0,0,0,0,0,0,0,0,0,0,0,0,0,0,,,,,,,,,,,
189,879790,1745065795562,0.0,172.07,,-0.06,-0.07,1.0,0.0,0.0,0.0,1.0,1.35,74.0,1991.0,1.1,3.63,,13.67,1.248,73.6,,25.5,5.0,0.0,0.0,0.0,0.0,0.0,0.0,0.0,0.0,2.24,,,0,0,0,0,0,0,0,0,0,0,0,0,0,0,0,0,0.0,,,,0.0,39.239628,-77.964577,0.13,37.0,2.0,0.7
190,879810,1745065795582,,,,,,,,,,,,,,,,,,,,,,,,,,,,,,,,,,0,0,0,0,0,0,0,0,0,0,0,0,0,0,0,0,,,,,,,,,,,
191,879830,1745065795602,0.0,172.07,,-0.06,-0.07,0.99,0.0,0.0,0.0,1.0,1.35,74.0,1948.0,6.0,3.78,,13.67,1.248,73.6,,23.7,5.0,,,,,,,,,,,,0,0,0,0,0,0,0,0,0,0,0,0,0,0,0,0,,,,,0.0,,,,,,
192,879850,1745065795622,,,,,,,,,,,,,,,,,,,,,,,,,,,,,,,,,,0,0,0,0,0,0,0,0,0,0,0,0,0,0,0,0,,,,,,,,,,,
193,879870,1745065795642,0.0,172.07,,-0.05,-0.06,1.0,0.0,0.0,0.0,1.0,1.35,74.0,1948.0,6.0,3.78,,13.82,1.249,73.6,,23.7,5.0,,,,,,,,,,,,0,0,0,0,0,0,0,0,0,0,0,0,0,0,0,0,,,,,0.0,,,,,,
194,879890,1745065795662,,,,,,,,,,,,,,,,,,,,,,,0.0,0.0,0.0,0.0,0.0,0.0,0.0,0.0,2.25,,,0,0,0,0,0,0,0,0,0,0,0,0,0,0,0,0,0.0,,,,,39.239628,-77.964577,0.16,37.0,2.0,0.7
195,879910,1745065795682,0.0,172.07,,-0.05,-0.06,0.98,0.0,0.0,0.0,0.99,1.35,73.0,1945.0,10.0,3.82,,14.0,1.251,73.6,,23.1,5.0,,,,,,,,,,,,0,0,0,0,0,0,0,0,0,0,0,0,0,0,0,0,,,,,0.0,,,,,,
196,879930,1745065795704,,,,,,,,,,,,,,,,,,,,,,,,,,,,,,,,,,0,0,0,0,0,0,0,0,0,0,0,0,0,0,0,0,,,,,,,,,,,
197,879950,1745065795724,0.0,172.07,,-0.05,-0.06,0.96,0.0,0.0,0.0,0.97,1.35,72.0,1875.0,11.1,3.83,,14.06,1.252,73.6,,23.1,5.0,,,,,,,,,,,,0,0,0,0,0,0,0,0,0,0,0,0,0,0,0,0,,,,,0.0,,,,,,
198,879970,1745065795744,,,,,,,,,,,,,,,,,,,,,,,,,,,,,,,,,,0,0,0,0,0,0,0,0,0,0,0,0,0,0,0,0,,,,,,,,,,,
199,879990,1745065795764,0.0,172.07,,-0.04,-0.09,0.98,0.0,0.0,0.0,0.98,1.35,73.0,1941.0,11.2,3.81,,14.0,1.252,73.6,,23.1,5.0,0.0,0.0,0.0,0.0,0.0,0.0,0.0,0.0,2.24,,,0,0,0,0,0,0,0,0,0,0,0,0,0,0,0,0,0.0,,,,0.0,39.239628,-77.964577,0.3,37.0,2.0,0.7
200,880010,1745065795784,,,,,,,,,,,,,,,,,,,,,,,,,,,,,,,,,,0,0,0,0,0,0,0,0,0,0,0,0,0,0,0,0,,,,,,,,,,,
201,880030,1745065795802,0.0,172.07,,-0.04,-0.11,0.96,0.0,0.0,0.0,0.97,1.35,72.0,2019.0,11.4,3.81,,14.0,1.252,73.6,,24.7,5.0,,,,,,,,,,,,0,0,0,0,0,0,0,0,0,0,0,0,0,0,0,0,,,,,0.0,,,,,,
202,880050,1745065795822,,,,,,,,,,,,,,,,,,,,,,,,,,,,,,,,,,0,0,0,0,0,0,0,0,0,0,0,0,0,0,0,0,,,,,,,,,,,
203,880070,1745065795842,0.0,172.2,,-0.02,-0.11,0.96,0.0,0.0,0.0,0.97,1.35,71.0,2019.0,11.4,3.81,,14.03,1.252,73.6,,24.7,5.0,,,,,,,,,,,,0,0,0,0,0,0,0,0,0,0,0,0,0,0,0,0,,,,,0.0,,,,,,
204,880090,1745065795862,,,,,,,,,,,,,,,,,,,,,,,0.0,0.0,0.0,0.0,0.0,0.0,0.0,0.0,2.24,,,0,0,0,0,0,0,0,0,0,0,0,0,0,0,0,0,0.0,,,,,39.239628,-77.964577,0.37,37.0,2.0,0.7
205,880110,1745065795882,0.0,172.2,,-0.03,-0.1,0.96,0.0,0.0,0.0,0.97,1.35,72.0,2360.0,11.5,3.84,,13.91,1.249,73.6,,28.6,5.0,,,,,,,,,,,,0,0,0,0,0,0,0,0,0,0,0,0,0,0,0,0,,,,,0.0,,,,,,
206,880130,1745065795902,,,,,,,,,,,,,,,,,,,,,,,,,,,,,,,,,,0,0,0,0,0,0,0,0,0,0,0,0,0,0,0,0,,,,,,,,,,,
207,880150,1745065795922,0.0,172.2,,-0.05,-0.08,0.95,0.0,0.0,0.0,0.95,1.35,70.0,2313.0,9.0,3.86,,13.84,1.25,73.6,,28.6,5.0,,,,,,,,,,,,0,0,0,0,0,0,0,0,0,0,0,0,0,0,0,0,,,,,0.0,,,,,,
208,880170,1745065795942,,,,,,,,,,,,,,,,,,,,,,,,,,,,,,,,,,0,0,0,0,0,0,0,0,0,0,0,0,0,0,0,0,,,,,,,,,,,
209,880190,1745065795962,0.0,172.07,,-0.05,-0.08,0.94,0.0,0.0,0.0,0.94,1.35,70.0,2441.0,5.5,3.85,,13.71,1.25,73.6,,28.6,5.0,0.0,0.0,0.0,0.0,0.0,0.0,0.0,0.0,2.24,,,0,0,0,0,0,0,0,0,0,0,0,0,0,0,0,0,0.0,,,,0.0,39.239628,-77.964577,0.42,37.0,2.0,0.7
210,880210,1745065795982,,,,,,,,,,,,,,,,,,,,,,,,,,,,,,,,,,0,0,0,0,0,0,0,0,0,0,0,0,0,0,0,0,,,,,,,,,,,
211,880230,1745065796002,0.0,172.2,,-0.07,-0.09,0.96,0.0,0.0,0.0,0.96,1.35,71.0,2440.0,4.9,3.84,,13.71,1.25,73.6,,30.6,5.0,,,,,,,,,,,,0,0,0,0,0,0,0,0,0,0,0,0,0,0,0,0,,,,,0.0,,,,,,
212,880250,1745065796010,,,,,,,,,,,,,,,,,,,,,,,,,,,,,,,,,,0,0,0,0,0,0,0,0,0,0,0,0,0,0,0,0,,,,,,,,,,,
213,880270,1745065796030,0.0,172.2,,-0.07,-0.07,0.95,0.0,0.0,0.0,0.95,1.35,71.0,2440.0,4.9,3.84,,13.64,1.236,73.6,,30.6,5.0,,,,,,,,,,,,0,0,0,0,0,0,0,0,0,0,0,0,0,0,0,0,,,,,0.0,,,,,,
214,880290,1745065796050,,,,,,,,,,,,,,,,,,,,,,,0.0,0.0,0.0,0.0,0.0,0.0,0.0,0.0,2.25,,,0,0,0,0,0,0,0,0,0,0,0,0,0,0,0,0,0.0,,,,,39.239628,-77.964577,0.09,38.0,2.0,0.7
215,880310,1745065796070,0.0,172.2,,-0.07,-0.08,0.96,0.0,0.0,0.0,0.96,1.35,71.0,2473.0,4.8,3.85,,13.63,1.195,73.6,,31.9,5.0,,,,,,,,,,,,0,0,0,0,0,0,0,0,0,0,0,0,0,0,0,0,,,,,0.0,,,,,,
216,880330,1745065796090,,,,,,,,,,,,,,,,,,,,,,,,,,,,,,,,,,0,0,0,0,0,0,0,0,0,0,0,0,0,0,0,0,,,,,,,,,,,
217,880350,1745065796120,0.0,172.2,,-0.06,-0.09,0.96,0.0,0.0,0.0,0.97,1.35,72.0,2521.0,4.7,3.84,,13.57,1.212,73.6,,31.9,5.0,,,,,,,,,,,,0,0,0,0,0,0,0,0,0,0,0,0,0,0,0,0,,,,,0.0,,,,,,
218,880370,1745065796140,,,,,,,,,,,,,,,,,,,,,,,,,,,,,,,,,,0,0,0,0,0,0,0,0,0,0,0,0,0,0,0,0,,,,,,,,,,,
219,880390,1745065796160,0.0,172.2,12.75,-0.06,-0.09,0.95,0.0,0.0,0.0,0.96,1.35,71.0,2515.0,4.7,3.84,15.0,13.55,1.235,73.6,183.0,31.9,5.0,0.0,0.0,0.0,0.0,0.0,0.0,0.0,0.0,2.25,0.0,1.0,0,0,0,0,0,0,0,0,0,0,0,0,0,0,0,0,0.0,0.0,0.0,0.0,0.0,39.239628,-77.964577,0.6,38.0,2.0,0.7
220,880410,1745065796180,,,,,,,,,,,,,,,,,,,,,,,,,,,,,,,,,,0,0,0,0,0,0,0,0,0,0,0,0,0,0,0,0,,,,,,,,,,,
221,880430,1745065796200,0.0,172.2,,-0.06,-0.1,0.99,0.0,0.0,0.0,0.99,1.35,74.0,2527.0,4.7,3.84,,13.55,1.235,73.6,,32.2,5.0,,,,,,,,,,,,0,0,0,0,0,0,0,0,0,0,0,0,0,0,0,0,,,,,0.0,,,,,,
222,880450,1745065796220,,,,,,,,,,,,,,,,,,,,,,,,,,,,,,,,,,0,0,0,0,0,0,0,0,0,0,0,0,0,0,0,0,,,,,,,,,,,
223,880470,1745065796240,0.0,172.2,,-0.06,-0.09,0.96,0.0,0.0,0.0,0.96,1.35,71.0,2527.0,4.7,3.84,,13.56,1.243,73.6,,32.2,5.0,,,,,,,,,,,,0,0,0,0,0,0,0,0,0,0,0,0,0,0,0,0,,,,,0.0,,,,,,
224,880490,1745065796260,,,,,,,,,,,,,,,,,,,,,,,0.0,0.0,0.0,0.0,0.0,0.0,0.0,0.0,2.24,,,0,0,0,0,0,0,0,0,0,0,0,0,0,0,0,0,0.0,,,,,39.239628,-77.964577,0.25,38.0,2.0,0.7
225,880510,1745065796280,0.0,172.2,,-0.06,-0.09,0.98,0.0,0.0,0.0,0.98,1.35,73.0,2569.0,4.8,3.84,,13.52,1.251,73.6,,33.2,5.0,,,,,,,,,,,,0,0,0,0,0,0,0,0,0,0,0,0,0,0,0,0,,,,,0.0,,,,,,
226,880530,1745065796302,,,,,,,,,,,,,,,,,,,,,,,,,,,,,,,,,,0,0,0,0,0,0,0,0,0,0,0,0,0,0,0,0,,,,,,,,,,,
227,880550,1745065796322,0.0,172.2,,-0.06,-0.07,0.96,0.0,0.0,0.0,0.96,1.35,71.0,2624.0,4.9,3.84,,13.44,1.245,73.6,,33.2,5.0,,,,,,,,,,,,0,0,0,0,0,0,0,0,0,0,0,0,0,0,0,0,,,,,0.0,,,,,,
228,880570,1745065796342,,,,,,,,,,,,,,,,,,,,,,,,,,,,,,,,,,0,0,0,0,0,0,0,0,0,0,0,0,0,0,0,0,,,,,,,,,,,
229,880590,1745065796362,0.0,172.07,,-0.06,-0.07,0.97,0.0,0.0,0.0,0.97,1.35,72.0,2740.0,4.9,3.84,,13.4,1.229,73.6,,33.2,5.0,0.0,0.0,0.0,0.0,0.0,0.0,0.0,0.0,2.24,,,0,0,0,0,0,0,0,0,0,0,0,0,0,0,0,0,0.0,,,,0.0,39.239628,-77.964577,0.06,38.0,2.0,0.7
230,880610,1745065796382,,,,,,,,,,,,,,,,,,,,,,,,,,,,,,,,,,0,0,0,0,0,0,0,0,0,0,0,0,0,0,0,0,,,,,,,,,,,
231,880630,1745065796402,0.0,172.07,,-0.06,-0.05,1.0,0.0,0.0,0.0,1.0,1.35,74.0,2735.0,4.9,3.85,,13.4,1.229,73.6,,34.1,5.0,,,,,,,,,,,,0,0,0,0,0,0,0,0,0,0,0,0,0,0,0,0,,,,,0.0,,,,,,
232,880650,1745065796422,,,,,,,,,,,,,,,,,,,,,,,,,,,,,,,,,,0,0,0,0,0,0,0,0,0,0,0,0,0,0,0,0,,,,,,,,,,,
233,880670,1745065796442,0.0,172.07,,-0.05,-0.04,0.96,0.0,0.0,0.0,0.97,1.35,71.0,2735.0,4.9,3.85,,13.39,1.226,73.6,,34.1,5.0,,,,,,,,,,,,0,0,0,0,0,0,0,0,0,0,0,0,0,0,0,0,,,,,0.0,,,,,,
234,880690,1745065796462,,,,,,,,,,,,,,,,,,,,,,,0.0,0.0,0.0,0.0,0.0,0.0,0.0,0.0,2.24,,,0,0,0,0,0,0,0,0,0,0,0,0,0,0,0,0,0.0,,,,,39.239628,-77.964577,0.39,38.0,2.0,0.7
235,880710,1745065796482,0.0,172.07,,-0.05,-0.07,1.0,0.0,0.0,0.0,1.01,1.35,75.0,2761.0,4.9,3.84,,13.39,1.216,73.6,,34.6,5.0,,,,,,,,,,,,0,0,0,0,0,0,0,0,0,0,0,0,0,0,0,0,,,,,0.0,,,,,,
236,880730,1745065796501,,,,,,,,,,,,,,,,,,,,,,,,,,,,,,,,,,0,0,0,0,0,0,0,0,0,0,0,0,0,0,0,0,,,,,,,,,,,
237,880750,1745065796521,0.0,172.2,,-0.06,-0.03,1.0,0.0,0.0,0.0,1.0,1.35,74.0,2706.0,4.9,3.84,,13.4,1.213,73.6,,34.6,5.0,,,,,,,,,,,,0,0,0,0,0,0,0,0,0,0,0,0,0,0,0,0,,,,,0.0,,,,,,
238,880770,1745065796541,,,,,,,,,,,,,,,,,,,,,,,,,,,,,,,,,,0,0,0,0,0,0,0,0,0,0,0,0,0,0,0,0,,,,,,,,,,,
239,880790,1745065796561,0.0,172.07,,-0.06,-0.01,0.96,0.0,0.0,0.0,0.96,1.35,71.0,2725.0,4.8,3.84,,13.43,1.216,73.6,,34.6,5.0,0.0,0.0,0.0,0.0,0.0,0.0,0.0,0.0,2.25,,,0,0,0,0,0,0,0,0,0,0,0,0,0,0,0,0,0.0,,,,0.0,39.239628,-77.964577,0.29,38.0,2.0,0.7
240,880810,1745065796581,,,,,,,,,,,,,,,,,,,,,,,,,,,,,,,,,,0,0,0,0,0,0,0,0,0,0,0,0,0,0,0,0,,,,,,,,,,,
241,880830,1745065796601,0.0,172.2,,-0.05,-0.08,1.01,0.0,0.0,0.0,1.01,1.35,75.0,2732.0,4.6,3.84,,13.43,1.216,73.6,,35.5,5.0,,,,,,,,,,,,0,0,0,0,0,0,0,0,0,0,0,0,0,0,0,0,,,,,0.0,,,,,,
242,880850,1745065796621,,,,,,,,,,,,,,,,,,,,,,,,,,,,,,,,,,0,0,0,0,0,0,0,0,0,0,0,0,0,0,0,0,,,,,,,,,,,
243,880870,1745065796641,0.0,172.2,,-0.05,-0.04,1.0,0.0,0.0,0.0,1.0,1.35,74.0,2732.0,4.6,3.84,,13.47,1.205,73.6,,35.5,5.0,,,,,,,,,,,,0,0,0,0,0,0,0,0,0,0,0,0,0,0,0,0,,,,,0.0,,,,,,
244,880890,1745065796661,,,,,,,,,,,,,,,,,,,,,,,0.0,0.0,0.0,0.0,0.0,0.0,0.0,0.0,2.24,,,0,0,0,0,0,0,0,0,0,0,0,0,0,0,0,0,0.0,,,,,39.239628,-77.964577,0.05,38.0,2.0,0.7
245,880910,1745065796681,0.0,172.07,,-0.04,-0.05,0.97,0.0,0.0,0.0,0.97,1.35,72.0,2743.0,4.6,3.84,,13.4,1.207,73.6,,35.5,5.0,,,,,,,,,,,,0,0,0,0,0,0,0,0,0,0,0,0,0,0,0,0,,,,,0.0,,,,,,
246,880930,1745065796703,,,,,,,,,,,,,,,,,,,,,,,,,,,,,,,,,,0,0,0,0,0,0,0,0,0,0,0,0,0,0,0,0,,,,,,,,,,,
247,880950,1745065796723,0.0,172.07,,-0.06,-0.04,0.96,0.0,0.0,0.0,0.97,1.35,71.0,2828.0,4.5,3.84,,13.35,1.202,73.6,,35.5,5.0,,,,,,,,,,,,0,0,0,0,0,0,0,0,0,0,0,0,0,0,0,0,,,,,0.0,,,,,,
248,880970,1745065796743,,,,,,,,,,,,,,,,,,,,,,,,,,,,,,,,,,0,0,0,0,0,0,0,0,0,0,0,0,0,0,0,0,,,,,,,,,,,
249,880990,1745065796763,0.0,172.2,,-0.06,-0.09,1.01,0.0,0.0,0.0,1.01,1.35,75.0,2869.0,4.5,3.84,,13.35,1.197,73.6,,35.5,5.0,0.0,0.0,0.0,0.0,0.0,0.0,0.0,0.0,2.25,,,0,0,0,0,0,0,0,0,0,0,0,0,0,0,0,0,0.0,,,,0.0,39.239628,-77.964577,0.11,38.0,2.0,0.7
250,881010,1745065796783,,,,,,,,,,,,,,,,,,,,,,,,,,,,,,,,,,0,0,0,0,0,0,0,0,0,0,0,0,0,0,0,0,,,,,,,,,,,
251,881030,1745065796803,0.0,172.2,,-0.07,-0.07,1.05,0.0,0.0,0.0,1.06,1.35,78.0,2862.0,4.6,3.84,,13.35,1.197,73.6,,36.5,5.0,,,,,,,,,,,,0,0,0,0,0,0,0,0,0,0,0,0,0,0,0,0,,,,,0.0,,,,,,
252,881050,1745065796823,,,,,,,,,,,,,,,,,,,,,,,,,,,,,,,,,,0,0,0,0,0,0,0,0,0,0,0,0,0,0,0,0,,,,,,,,,,,
253,881070,1745065796843,0.0,172.2,,-0.07,-0.03,1.07,0.0,0.0,0.0,1.07,1.35,79.0,2862.0,4.6,3.84,,13.31,1.188,73.6,,36.5,5.0,,,,,,,,,,,,0,0,0,0,0,0,0,0,0,0,0,0,0,0,0,0,,,,,0.0,,,,,,
254,881090,1745065796863,,,,,,,,,,,,,,,,,,,,,,,0.0,0.0,0.0,0.0,0.0,0.0,0.0,0.0,2.25,,,0,0,0,0,0,0,0,0,0,0,0,0,0,0,0,0,0.0,,,,,39.239628,-77.964577,0.08,38.0,2.0,0.7
255,881110,1745065796883,0.0,172.07,,-0.06,-0.0,1.06,0.0,0.0,1.0,1.06,1.35,79.0,2896.0,4.7,3.84,,13.31,1.179,73.6,,38.5,5.0,,,,,,,,,,,,0,0,0,0,0,0,0,0,0,0,0,0,0,0,0,0,,,,,0.0,,,,,,
256,881130,1745065796903,,,,,,,,,,,,,,,,,,,,,,,,,,,,,,,,,,0,0,0,0,0,0,0,0,0,0,0,0,0,0,0,0,,,,,,,,,,,
257,881150,1745065796923,0.0,172.2,,-0.06,0.03,1.06,0.0,0.0,1.0,1.06,1.35,79.0,3028.0,4.8,3.85,,13.27,1.18,73.6,,38.5,5.0,,,,,,,,,,,,0,0,0,0,0,0,0,0,0,0,0,0,0,0,0,0,,,,,0.0,,,,,,
258,881170,1745065796943,,,,,,,,,,,,,,,,,,,,,,,,,,,,,,,,,,0,0,0,0,0,0,0,0,0,0,0,0,0,0,0,0,,,,,,,,,,,
259,881190,1745065796963,0.0,172.2,,-0.06,0.05,1.1,0.0,0.0,1.0,1.1,1.35,81.0,3079.0,4.8,3.84,,13.17,1.186,73.6,,38.5,5.0,0.0,0.0,0.0,0.0,0.0,0.0,0.0,0.0,2.24,,,0,0,0,0,0,0,0,0,0,0,0,0,0,0,0,0,0.0,,,,0.0,39.239628,-77.964577,0.08,38.0,2.0,0.7
260,881210,1745065796983,,,,,,,,,,,,,,,,,,,,,,,,,,,,,,,,,,0,0,0,0,0,0,0,0,0,0,0,0,0,0,0,0,,,,,,,,,,,
261,881230,1745065797003,0.0,172.2,,-0.06,0.02,1.16,0.0,0.0,1.0,1.16,1.35,86.0,3092.0,4.8,3.84,,13.17,1.186,73.6,,39.6,5.0,,,,,,,,,,,,0,0,0,0,0,0,0,0,0,0,0,0,0,0,0,0,,,,,0.0,,,,,,
262,881250,1745065797015,,,,,,,,,,,,,,,,,,,,,,,,,,,,,,,,,,0,0,0,0,0,0,0,0,0,0,0,0,0,0,0,0,,,,,,,,,,,
263,881270,1745065797035,0.0,172.2,,-0.08,-0.03,1.2,0.0,0.0,1.0,1.21,1.35,89.0,3092.0,4.8,3.84,,13.15,1.187,73.6,,39.6,5.0,,,,,,,,,,,,0,0,0,0,0,0,0,0,0,0,0,0,0,0,0,0,,,,,0.0,,,,,,
264,881290,1745065797055,,,,,,,,,,,,,,,,,,,,,,,0.0,0.0,0.0,0.0,0.0,0.0,0.0,0.0,2.24,,,0,0,0,0,0,0,0,0,0,0,0,0,0,0,0,0,0.0,,,,,39.239628,-77.964577,0.08,37.0,2.0,0.7
265,881310,1745065797075,0.0,172.2,,-0.09,-0.04,1.11,0.0,0.0,1.0,1.12,1.35,83.0,3134.0,4.8,3.83,,13.09,1.195,73.6,,41.5,5.0,,,,,,,,,,,,0,0,0,0,0,0,0,0,0,0,0,0,0,0,0,0,,,,,0.0,,,,,,
266,881330,1745065797101,,,,,,,,,,,,,,,,,,,,,,,,,,,,,,,,,,0,0,0,0,0,0,0,0,0,0,0,0,0,0,0,0,,,,,,,,,,,
267,881350,1745065797121,0.0,172.2,,-0.06,0.02,1.05,0.0,0.0,1.0,1.05,1.35,78.0,3188.0,4.8,3.83,,13.04,1.201,73.6,,41.5,5.0,,,,,,,,,,,,0,0,0,0,0,0,0,0,0,0,0,0,0,0,0,0,,,,,0.0,,,,,,
268,881370,1745065797141,,,,,,,,,,,,,,,,,,,,,,,,,,,,,,,,,,0,0,0,0,0,0,0,0,0,0,0,0,0,0,0,0,,,,,,,,,,,
269,881390,1745065797161,0.0,172.2,12.7,-0.05,-0.0,1.09,0.0,0.0,1.0,1.09,1.35,81.0,3168.0,4.7,3.82,15.0,13.01,1.202,73.6,183.0,41.5,5.0,0.0,0.0,0.0,0.0,0.0,0.0,0.0,0.0,2.24,0.0,1.0,0,0,0,0,0,0,0,0,0,0,0,0,0,0,0,0,0.0,0.0,0.0,0.0,0.0,39.239628,-77.964577,0.04,37.0,2.0,0.7
270,881410,1745065797181,,,,,,,,,,,,,,,,,,,,,,,,,,,,,,,,,,0,0,0,0,0,0,0,0,0,0,0,0,0,0,0,0,,,,,,,,,,,
271,881430,1745065797201,0.0,172.32,,-0.07,-0.06,1.13,0.0,0.0,1.0,1.13,1.35,84.0,3162.0,4.5,3.81,,13.01,1.202,73.6,,42.1,5.0,,,,,,,,,,,,0,0,0,0,0,0,0,0,0,0,0,0,0,0,0,0,,,,,0.0,,,,,,
272,881450,1745065797219,,,,,,,,,,,,,,,,,,,,,,,,,,,,,,,,,,0,0,0,0,0,0,0,0,0,0,0,0,0,0,0,0,,,,,,,,,,,
273,881470,1745065797239,0.0,172.2,,-0.07,-0.04,1.05,0.0,0.0,0.0,1.06,1.35,78.0,3162.0,4.5,3.81,,13.03,1.215,73.6,,42.1,5.0,,,,,,,,,,,,0,0,0,0,0,0,0,0,0,0,0,0,0,0,0,0,,,,,0.0,,,,,,
274,881490,1745065797259,,,,,,,,,,,,,,,,,,,,,,,0.0,0.0,0.0,0.0,0.0,0.0,0.0,0.0,2.25,,,0,0,0,0,0,0,0,0,0,0,0,0,0,0,0,0,0.0,,,,,39.239628,-77.964577,0.04,37.0,2.0,0.7
275,881510,1745065797279,0.0,172.2,,-0.05,0.02,1.02,0.0,0.0,1.0,1.02,1.35,76.0,3220.0,4.0,3.79,,12.97,1.217,73.6,,41.8,5.0,,,,,,,,,,,,0,0,0,0,0,0,0,0,0,0,0,0,0,0,0,0,,,,,0.0,,,,,,
276,881530,1745065797305,,,,,,,,,,,,,,,,,,,,,,,,,,,,,,,,,,0,0,0,0,0,0,0,0,0,0,0,0,0,0,0,0,,,,,,,,,,,
277,881550,1745065797325,0.0,172.2,,-0.05,-0.0,1.08,0.0,0.0,1.0,1.08,1.35,80.0,3158.0,3.9,3.76,,12.95,1.215,73.6,,41.8,5.0,,,,,,,,,,,,0,0,0,0,0,0,0,0,0,0,0,0,0,0,0,0,,,,,0.0,,,,,,
278,881570,1745065797345,,,,,,,,,,,,,,,,,,,,,,,,,,,,,,,,,,0,0,0,0,0,0,0,0,0,0,0,0,0,0,0,0,,,,,,,,,,,
279,881590,1745065797365,0.0,172.2,,-0.07,-0.07,1.12,0.0,0.0,1.0,1.12,1.35,83.0,3147.0,3.9,3.75,,12.96,1.19,73.6,,41.8,5.0,0.0,0.0,0.0,0.0,0.0,0.0,0.0,0.0,2.24,,,0,0,0,0,0,0,0,0,0,0,0,0,0,0,0,0,0.0,,,,0.0,39.239628,-77.964577,0.04,37.0,2.0,0.7
280,881610,1745065797385,,,,,,,,,,,,,,,,,,,,,,,,,,,,,,,,,,0,0,0,0,0,0,0,0,0,0,0,0,0,0,0,0,,,,,,,,,,,
281,881630,1745065797403,0.0,172.2,,-0.09,-0.07,1.07,0.0,0.0,0.0,1.07,1.35,80.0,3191.0,3.9,3.75,,12.96,1.19,73.6,,41.4,5.0,,,,,,,,,,,,0,0,0,0,0,0,0,0,0,0,0,0,0,0,0,0,,,,,0.0,,,,,,
282,881650,1745065797423,,,,,,,,,,,,,,,,,,,,,,,,,,,,,,,,,,0,0,0,0,0,0,0,0,0,0,0,0,0,0,0,0,,,,,,,,,,,
283,881670,1745065797443,0.0,172.07,,-0.07,0.0,0.99,0.0,0.0,0.0,0.99,1.35,74.0,3191.0,3.9,3.75,,12.92,1.185,73.6,,41.4,5.0,,,,,,,,,,,,0,0,0,0,0,0,0,0,0,0,0,0,0,0,0,0,,,,,0.0,,,,,,
284,881690,1745065797463,,,,,,,,,,,,,,,,,,,,,,,0.0,0.0,0.0,0.0,0.0,0.0,0.0,0.0,2.24,,,0,0,0,0,0,0,0,0,0,0,0,0,0,0,0,0,0.0,,,,,39.239628,-77.964577,0.08,37.0,2.0,0.7
285,881710,1745065797483,0.0,171.95,,-0.05,0.01,1.05,0.0,0.0,1.0,1.05,1.35,78.0,3222.0,3.9,3.75,,12.91,1.177,73.6,,42.0,5.0,,,,,,,,,,,,0,0,0,0,0,0,0,0,0,0,0,0,0,0,0,0,,,,,0.0,,,,,,
286,881730,1745065797504,,,,,,,,,,,,,,,,,,,,,,,,,,,,,,,,,,0,0,0,0,0,0,0,0,0,0,0,0,0,0,0,0,,,,,,,,,,,
287,881750,1745065797524,0.0,172.07,,-0.07,-0.05,1.09,0.0,0.0,1.0,1.09,1.35,81.0,3176.0,3.9,3.76,,12.93,1.177,73.6,,42.0,5.0,,,,,,,,,,,,0,0,0,0,0,0,0,0,0,0,0,0,0,0,0,0,,,,,0.0,,,,,,
288,881770,1745065797544,,,,,,,,,,,,,,,,,,,,,,,,,,,,,,,,,,0,0,0,0,0,0,0,0,0,0,0,0,0,0,0,0,,,,,,,,,,,
289,881790,1745065797564,0.0,172.07,,-0.09,-0.07,1.05,0.0,0.0,0.0,1.06,1.35,78.0,3178.0,3.9,3.77,,12.93,1.175,73.6,,42.0,5.0,0.0,0.0,0.0,0.0,0.0,0.0,0.0,0.0,2.24,,,0,0,0,0,0,0,0,0,0,0,0,0,0,0,0,0,0.0,,,,0.0,39.239628,-77.964577,0.23,37.0,2.0,0.7
290,881810,1745065797584,,,,,,,,,,,,,,,,,,,,,,,,,,,,,,,,,,0,0,0,0,0,0,0,0,0,0,0,0,0,0,0,0,,,,,,,,,,,
291,881830,1745065797604,0.0,172.07,,-0.07,-0.01,0.96,0.0,0.0,0.0,0.96,1.35,71.0,3162.0,3.9,3.77,,12.93,1.175,73.6,,41.0,5.0,,,,,,,,,,,,0,0,0,0,0,0,0,0,0,0,0,0,0,0,0,0,,,,,0.0,,,,,,
292,881850,1745065797624,,,,,,,,,,,,,,,,,,,,,,,,,,,,,,,,,,0,0,0,0,0,0,0,0,0,0,0,0,0,0,0,0,,,,,,,,,,,
293,881870,1745065797644,0.0,172.07,,-0.05,0.05,0.95,0.0,0.0,0.0,0.95,1.35,70.0,3162.0,3.9,3.77,,12.92,1.173,73.6,,41.0,5.0,,,,,,,,,,,,0,0,0,0,0,0,0,0,0,0,0,0,0,0,0,0,,,,,0.0,,,,,,
294,881890,1745065797664,,,,,,,,,,,,,,,,,,,,,,,0.0,0.0,0.0,0.0,0.0,0.0,0.0,0.0,2.25,,,0,0,0,0,0,0,0,0,0,0,0,0,0,0,0,0,0.0,,,,,39.239628,-77.964577,0.04,37.0,2.0,0.7
295,881910,1745065797684,0.0,172.2,,-0.05,0.03,1.01,0.0,0.0,1.0,1.01,1.35,75.0,3103.0,3.8,3.77,,12.95,1.186,73.6,,40.9,5.0,,,,,,,,,,,,0,0,0,0,0,0,0,0,0,0,0,0,0,0,0,0,,,,,0.0,,,,,,
296,881930,1745065797704,,,,,,,,,,,,,,,,,,,,,,,,,,,,,,,,,,0,0,0,0,0,0,0,0,0,0,0,0,0,0,0,0,,,,,,,,,,,
297,881950,1745065797724,0.0,172.2,,-0.05,0.01,1.06,0.0,0.0,1.0,1.06,1.35,79.0,3120.0,3.7,3.73,,12.97,1.178,73.6,,40.9,5.0,,,,,,,,,,,,0,0,0,0,0,0,0,0,0,0,0,0,0,0,0,0,,,,,0.0,,,,,,
298,881970,1745065797744,,,,,,,,,,,,,,,,,,,,,,,,,,,,,,,,,,0,0,0,0,0,0,0,0,0,0,0,0,0,0,0,0,,,,,,,,,,,
299,881990,1745065797764,0.0,172.07,,-0.06,-0.05,1.12,0.0,0.0,1.0,1.12,1.35,83.0,3120.0,3.7,3.75,,12.96,1.161,73.6,,40.9,5.0,0.0,0.0,0.0,0.0,0.0,0.0,0.0,0.0,2.25,,,0,0,0,0,0,0,0,0,0,0,0,0,0,0,0,0,0.0,,,,0.0,39.239628,-77.964577,0.2,37.0,2.0,0.7
300,882010,1745065797784,,,,,,,,,,,,,,,,,,,,,,,,,,,,,,,,,,0,0,0,0,0,0,0,0,0,0,0,0,0,0,0,0,,,,,,,,,,,
301,882030,1745065797804,0.0,172.2,,-0.07,-0.09,1.15,0.0,0.0,0.0,1.16,1.35,86.0,3091.0,3.7,3.73,,12.96,1.161,73.6,,40.4,5.0,,,,,,,,,,,,0,0,0,0,0,0,0,0,0,0,0,0,0,0,0,0,,,,,0.0,,,,,,
302,882050,1745065797824,,,,,,,,,,,,,,,,,,,,,,,,,,,,,,,,,,0,0,0,0,0,0,0,0,0,0,0,0,0,0,0,0,,,,,,,,,,,
303,882070,1745065797844,0.0,172.2,,-0.09,-0.09,1.1,0.0,0.0,0.0,1.11,1.35,82.0,3091.0,3.7,3.73,,12.95,1.157,73.6,,40.4,5.0,,,,,,,,,,,,0,0,0,0,0,0,0,0,0,0,0,0,0,0,0,0,,,,,0.0,,,,,,
304,882090,1745065797864,,,,,,,,,,,,,,,,,,,,,,,0.0,0.0,0.0,0.0,0.0,0.0,0.0,0.0,2.25,,,0,0,0,0,0,0,0,0,0,0,0,0,0,0,0,0,0.0,,,,,39.239628,-77.964577,0.04,37.0,2.0,0.7
305,882110,1745065797884,0.0,172.2,,-0.08,-0.04,1.0,0.0,0.0,0.0,1.0,1.35,74.0,3101.0,3.8,3.75,,13.01,1.153,73.6,,40.7,5.0,,,,,,,,,,,,0,0,0,0,0,0,0,0,0,0,0,0,0,0,0,0,,,,,0.0,,,,,,
306,882130,1745065797904,,,,,,,,,,,,,,,,,,,,,,,,,,,,,,,,,,0,0,0,0,0,0,0,0,0,0,0,0,0,0,0,0,,,,,,,,,,,
307,882150,1745065797924,0.0,172.2,,-0.05,0.03,0.96,0.0,0.0,0.0,0.96,1.35,71.0,3137.0,3.8,3.73,,12.95,1.153,73.6,,40.7,5.0,,,,,,,,,,,,0,0,0,0,0,0,0,0,0,0,0,0,0,0,0,0,,,,,0.0,,,,,,
308,882170,1745065797944,,,,,,,,,,,,,,,,,,,,,,,,,,,,,,,,,,0,0,0,0,0,0,0,0,0,0,0,0,0,0,0,0,,,,,,,,,,,
309,882190,1745065797964,0.0,172.2,,-0.04,0.03,0.99,0.0,0.0,1.0,0.99,1.35,74.0,3095.0,3.9,3.77,,12.96,1.148,73.6,,40.7,5.0,0.0,0.0,0.0,0.0,0.0,0.0,0.0,0.0,2.24,,,0,0,0,0,0,0,0,0,0,0,0,0,0,0,0,0,0.0,,,,0.0,39.239628,-77.964577,0.11,37.0,2.0,0.7
310,882210,1745065797984,,,,,,,,,,,,,,,,,,,,,,,,,,,,,,,,,,0,0,0,0,0,0,0,0,0,0,0,0,0,0,0,0,,,,,,,,,,,
311,882230,1745065798004,0.0,172.2,,-0.04,-0.01,1.05,0.0,0.0,1.0,1.05,1.35,78.0,3066.0,3.9,3.73,,12.96,1.148,73.6,,40.5,5.0,,,,,,,,,,,,0,0,0,0,0,0,0,0,0,0,0,0,0,0,0,0,,,,,0.0,,,,,,
312,882250,1745065798014,,,,,,,,,,,,,,,,,,,,,,,,,,,,,,,,,,0,0,0,0,0,0,0,0,0,0,0,0,0,0,0,0,,,,,,,,,,,
313,882270,1745065798034,0.0,172.32,,-0.05,-0.07,1.1,0.0,0.0,0.0,1.11,1.35,82.0,3066.0,3.9,3.73,,13.0,1.155,73.6,,40.5,5.0,,,,,,,,,,,,0,0,0,0,0,0,0,0,0,0,0,0,0,0,0,0,,,,,0.0,,,,,,
314,882290,1745065798054,,,,,,,,,,,,,,,,,,,,,,,0.0,0.0,0.0,0.0,0.0,0.0,0.0,0.0,2.24,,,0,0,0,0,0,0,0,0,0,0,0,0,0,0,0,0,0.0,,,,,39.239628,-77.964577,0.08,37.0,2.0,0.7
315,882310,1745065798074,0.0,172.2,,-0.07,-0.11,1.1,0.0,0.0,0.0,1.11,1.35,82.0,3140.0,3.9,3.75,,12.95,1.163,73.6,,40.4,5.0,,,,,,,,,,,,0,0,0,0,0,0,0,0,0,0,0,0,0,0,0,0,,,,,0.0,,,,,,
316,882330,1745065798102,,,,,,,,,,,,,,,,,,,,,,,,,,,,,,,,,,0,0,0,0,0,0,0,0,0,0,0,0,0,0,0,0,,,,,,,,,,,
317,882350,1745065798122,0.0,172.2,,-0.04,-0.03,1.05,0.0,0.0,0.0,1.05,1.35,78.0,3159.0,3.8,3.73,,12.93,1.17,73.6,,40.4,5.0,,,,,,,,,,,,0,0,0,0,0,0,0,0,0,0,0,0,0,0,0,0,,,,,0.0,,,,,,
318,882370,1745065798142,,,,,,,,,,,,,,,,,,,,,,,,,,,,,,,,,,0,0,0,0,0,0,0,0,0,0,0,0,0,0,0,0,,,,,,,,,,,
319,882390,1745065798162,0.0,172.32,12.67,-0.05,-0.06,1.12,0.0,0.0,1.0,1.12,1.35,83.0,3255.0,3.8,3.76,15.0,12.93,1.234,73.6,183.0,40.4,5.0,0.0,0.0,0.0,0.0,0.0,0.0,0.0,0.0,2.24,0.0,1.0,0,0,0,0,0,0,0,0,0,0,0,0,0,0,0,0,0.0,0.0,0.0,0.0,0.0,39.239628,-77.964577,0.15,37.0,2.0,0.7
320,882410,1745065798182,,,,,,,,,,,,,,,,,,,,,,,,,,,,,,,,,,0,0,0,0,0,0,0,0,0,0,0,0,0,0,0,0,,,,,,,,,,,
321,882430,1745065798202,0.0,172.32,,-0.05,-0.06,1.03,0.0,0.0,0.0,1.03,1.35,76.0,3416.0,3.7,3.74,,12.93,1.234,73.6,,42.9,5.0,,,,,,,,,,,,0,0,0,0,0,0,0,0,0,0,0,0,0,0,0,0,,,,,0.0,,,,,,
322,882450,1745065798220,,,,,,,,,,,,,,,,,,,,,,,,,,,,,,,,,,0,0,0,0,0,0,0,0,0,0,0,0,0,0,0,0,,,,,,,,,,,
323,882470,1745065798240,0.0,172.32,,-0.07,-0.11,1.1,0.0,0.0,0.0,1.1,1.35,82.0,3416.0,3.7,3.74,,12.91,1.218,73.6,,42.9,5.0,,,,,,,,,,,,0,0,0,0,0,0,0,0,0,0,0,0,0,0,0,0,,,,,0.0,,,,,,
324,882490,1745065798260,,,,,,,,,,,,,,,,,,,,,,,0.0,0.0,0.0,0.0,0.0,0.0,0.0,0.0,2.24,,,0,0,0,0,0,0,0,0,0,0,0,0,0,0,0,0,0.0,,,,,39.239628,-77.964577,0.07,37.0,2.0,0.7
325,882510,1745065798280,0.0,172.32,,-0.04,-0.07,1.08,0.0,0.0,0.0,1.09,1.35,81.0,3476.0,3.6,3.75,,12.83,1.15,73.6,,46.4,5.0,,,,,,,,,,,,0,0,0,0,0,0,0,0,0,0,0,0,0,0,0,0,,,,,0.0,,,,,,
326,882530,1745065798304,,,,,,,,,,,,,,,,,,,,,,,,,,,,,,,,,,0,0,0,0,0,0,0,0,0,0,0,0,0,0,0,0,,,,,,,,,,,
327,882550,1745065798324,0.0,172.32,,-0.04,-0.07,1.04,0.0,0.0,0.0,1.04,1.35,77.0,3542.0,3.7,3.71,,12.75,1.047,73.6,,46.4,5.0,,,,,,,,,,,,0,0,0,0,0,0,0,0,0,0,0,0,0,0,0,0,,,,,0.0,,,,,,
328,882570,1745065798344,,,,,,,,,,,,,,,,,,,,,,,,,,,,,,,,,,0,0,0,0,0,0,0,0,0,0,0,0,0,0,0,0,,,,,,,,,,,
329,882590,1745065798364,0.0,172.2,,-0.07,-0.12,1.08,0.0,0.0,0.0,1.08,1.35,80.0,3480.0,3.7,3.69,,12.73,1.024,73.6,,46.4,5.0,0.0,0.0,0.0,0.0,0.0,0.0,0.0,0.0,2.25,,,0,0,0,0,0,0,0,0,0,0,0,0,0,0,0,0,0.0,,,,0.0,39.239628,-77.964577,0.07,37.0,2.0,0.7
330,882610,1745065798384,,,,,,,,,,,,,,,,,,,,,,,,,,,,,,,,,,0,0,0,0,0,0,0,0,0,0,0,0,0,0,0,0,,,,,,,,,,,
331,882630,1745065798404,0.0,172.2,,-0.05,-0.07,1.05,0.0,0.0,0.0,1.06,1.35,78.0,3474.0,3.7,3.7,,12.73,1.024,73.6,,46.5,5.0,,,,,,,,,,,,0,0,0,0,0,0,0,0,0,0,0,0,0,0,0,0,,,,,0.0,,,,,,
332,882650,1745065798424,,,,,,,,,,,,,,,,,,,,,,,,,,,,,,,,,,0,0,0,0,0,0,0,0,0,0,0,0,0,0,0,0,,,,,,,,,,,
333,882670,1745065798444,0.0,172.2,,-0.07,-0.12,1.02,0.0,0.0,0.0,1.03,1.35,76.0,3474.0,3.7,3.7,,12.73,1.044,73.6,,46.5,5.0,,,,,,,,,,,,0,0,0,0,0,0,0,0,0,0,0,0,0,0,0,0,,,,,0.0,,,,,,
334,882690,1745065798464,,,,,,,,,,,,,,,,,,,,,,,0.0,0.0,0.0,0.0,0.0,0.0,0.0,0.0,2.24,,,0,0,0,0,0,0,0,0,0,0,0,0,0,0,0,0,0.0,,,,,39.239628,-77.964577,0.1,37.0,2.0,0.7
335,882710,1745065798484,0.0,172.2,,-0.06,-0.09,1.05,0.0,0.0,0.0,1.05,1.35,78.0,3421.0,3.8,3.7,,12.76,1.059,73.6,,45.0,5.0,,,,,,,,,,,,0,0,0,0,0,0,0,0,0,0,0,0,0,0,0,0,,,,,0.0,,,,,,
336,882730,1745065798504,,,,,,,,,,,,,,,,,,,,,,,,,,,,,,,,,,0,0,0,0,0,0,0,0,0,0,0,0,0,0,0,0,,,,,,,,,,,
337,882750,1745065798524,0.0,172.2,,-0.08,-0.12,1.04,0.0,0.0,0.0,1.05,1.35,78.0,3359.0,3.9,3.7,,12.8,1.07,73.6,,45.0,5.0,,,,,,,,,,,,0,0,0,0,0,0,0,0,0,0,0,0,0,0,0,0,,,,,0.0,,,,,,
338,882770,1745065798544,,,,,,,,,,,,,,,,,,,,,,,,,,,,,,,,,,0,0,0,0,0,0,0,0,0,0,0,0,0,0,0,0,,,,,,,,,,,
339,882790,1745065798564,0.0,172.2,,-0.06,-0.05,0.99,0.0,0.0,0.0,1.0,1.35,74.0,3305.0,3.9,3.74,,12.84,1.119,73.6,,45.0,5.0,0.0,0.0,0.0,0.0,0.0,0.0,0.0,0.0,2.24,,,0,0,0,0,0,0,0,0,0,0,0,0,0,0,0,0,0.0,,,,0.0,39.239628,-77.964577,0.05,37.0,2.0,0.7
340,882810,1745065798584,,,,,,,,,,,,,,,,,,,,,,,,,,,,,,,,,,0,0,0,0,0,0,0,0,0,0,0,0,0,0,0,0,,,,,,,,,,,
341,882830,1745065798603,0.0,172.2,,-0.06,-0.09,1.06,0.0,0.0,0.0,1.07,1.35,79.0,3222.0,3.9,3.75,,12.84,1.119,73.6,,43.1,5.0,,,,,,,,,,,,0,0,0,0,0,0,0,0,0,0,0,0,0,0,0,0,,,,,0.0,,,,,,
342,882850,1745065798623,,,,,,,,,,,,,,,,,,,,,,,,,,,,,,,,,,0,0,0,0,0,0,0,0,0,0,0,0,0,0,0,0,,,,,,,,,,,
343,882870,1745065798643,0.0,172.32,,-0.07,-0.1,0.99,0.0,0.0,0.0,0.99,1.35,74.0,3222.0,3.9,3.75,,12.83,1.138,73.6,,43.1,5.0,,,,,,,,,,,,0,0,0,0,0,0,0,0,0,0,0,0,0,0,0,0,,,,,0.0,,,,,,
344,882890,1745065798663,,,,,,,,,,,,,,,,,,,,,,,0.0,0.0,0.0,0.0,0.0,0.0,0.0,0.0,2.24,,,0,0,0,0,0,0,0,0,0,0,0,0,0,0,0,0,0.0,,,,,39.239628,-77.964577,0.05,37.0,2.0,0.7
345,882910,1745065798683,0.0,172.2,,-0.07,-0.1,1.05,0.0,0.0,0.0,1.06,1.35,78.0,3390.0,3.8,3.72,,12.88,1.154,73.6,,44.7,5.0,,,,,,,,,,,,0,0,0,0,0,0,0,0,0,0,0,0,0,0,0,0,,,,,0.0,,,,,,
346,882930,1745065798703,,,,,,,,,,,,,,,,,,,,,,,,,,,,,,,,,,0,0,0,0,0,0,0,0,0,0,0,0,0,0,0,0,,,,,,,,,,,
347,882950,1745065798723,0.0,172.32,,-0.05,-0.04,1.0,0.0,0.0,0.0,1.0,1.35,74.0,3423.0,3.8,3.73,,12.83,1.199,73.6,,44.7,5.0,,,,,,,,,,,,0,0,0,0,0,0,0,0,0,0,0,0,0,0,0,0,,,,,0.0,,,,,,
348,882970,1745065798743,,,,,,,,,,,,,,,,,,,,,,,,,,,,,,,,,,0,0,0,0,0,0,0,0,0,0,0,0,0,0,0,0,,,,,,,,,,,
349,882990,1745065798763,0.0,172.32,,-0.07,-0.07,1.08,0.0,0.0,0.0,1.09,1.35,80.0,3358.0,3.7,3.72,,12.83,1.12,73.6,,44.7,5.0,0.0,0.0,0.0,0.0,0.0,0.0,0.0,0.0,2.24,,,0,0,0,0,0,0,0,0,0,0,0,0,0,0,0,0,0.0,,,,0.0,39.239628,-77.964577,0.08,37.0,2.0,0.7
350,883010,1745065798783,,,,,,,,,,,,,,,,,,,,,,,,,,,,,,,,,,0,0,0,0,0,0,0,0,0,0,0,0,0,0,0,0,,,,,,,,,,,
351,883030,1745065798803,0.0,172.2,,-0.05,-0.01,0.99,0.0,0.0,0.0,0.99,1.35,73.0,3362.0,3.6,3.72,,12.83,1.12,73.6,,44.4,5.0,,,,,,,,,,,,0,0,0,0,0,0,0,0,0,0,0,0,0,0,0,0,,,,,0.0,,,,,,
352,883050,1745065798823,,,,,,,,,,,,,,,,,,,,,,,,,,,,,,,,,,0,0,0,0,0,0,0,0,0,0,0,0,0,0,0,0,,,,,,,,,,,
353,883070,1745065798843,0.0,172.32,,-0.04,-0.03,1.07,0.0,0.0,0.0,1.07,1.35,79.0,3362.0,3.6,3.72,,12.83,1.057,73.6,,44.4,5.0,,,,,,,,,,,,0,0,0,0,0,0,0,0,0,0,0,0,0,0,0,0,,,,,0.0,,,,,,
354,883090,1745065798863,,,,,,,,,,,,,,,,,,,,,,,0.0,0.0,0.0,0.0,0.0,0.0,0.0,0.0,2.25,,,0,0,0,0,0,0,0,0,0,0,0,0,0,0,0,0,0.0,,,,,39.239628,-77.964577,0.07,37.0,2.0,0.7
355,883110,1745065798883,0.0,172.32,,-0.07,-0.05,1.05,0.0,0.0,0.0,1.06,1.35,78.0,3248.0,3.6,3.68,,12.83,1.009,73.6,,42.9,5.0,,,,,,,,,,,,0,0,0,0,0,0,0,0,0,0,0,0,0,0,0,0,,,,,0.0,,,,,,
356,883130,1745065798903,,,,,,,,,,,,,,,,,,,,,,,,,,,,,,,,,,0,0,0,0,0,0,0,0,0,0,0,0,0,0,0,0,,,,,,,,,,,
357,883150,1745065798923,0.0,172.2,,-0.06,-0.01,0.97,0.0,0.0,0.0,0.97,1.35,72.0,3193.0,3.6,3.76,,12.91,1.031,73.6,,42.9,5.0,,,,,,,,,,,,0,0,0,0,0,0,0,0,0,0,0,0,0,0,0,0,,,,,0.0,,,,,,
358,883170,1745065798943,,,,,,,,,,,,,,,,,,,,,,,,,,,,,,,,,,0,0,0,0,0,0,0,0,0,0,0,0,0,0,0,0,,,,,,,,,,,
359,883190,1745065798963,0.0,172.2,,-0.04,0.04,0.99,0.0,0.0,1.0,0.99,1.35,73.0,3214.0,3.7,3.73,,12.91,1.093,73.6,,42.9,5.0,0.0,0.0,0.0,0.0,0.0,0.0,0.0,0.0,2.25,,,0,0,0,0,0,0,0,0,0,0,0,0,0,0,0,0,0.0,,,,0.0,39.239628,-77.964577,0.13,37.0,2.0,0.7
360,883210,1745065798983,,,,,,,,,,,,,,,,,,,,,,,,,,,,,,,,,,0,0,0,0,0,0,0,0,0,0,0,0,0,0,0,0,,,,,,,,,,,
361,883230,1745065799003,0.0,172.32,,-0.05,-0.01,1.04,0.0,0.0,1.0,1.05,1.35,77.0,3141.0,3.8,3.74,,12.91,1.093,73.6,,41.5,5.0,,,,,,,,,,,,0,0,0,0,0,0,0,0,0,0,0,0,0,0,0,0,,,,,0.0,,,,,,
362,883250,1745065799013,,,,,,,,,,,,,,,,,,,,,,,,,,,,,,,,,,0,0,0,0,0,0,0,0,0,0,0,0,0,0,0,0,,,,,,,,,,,
363,883270,1745065799033,0.0,172.32,,-0.08,-0.04,1.08,0.0,0.0,0.0,1.09,1.35,80.0,3141.0,3.8,3.74,,12.89,1.125,73.6,,41.5,5.0,,,,,,,,,,,,0,0,0,0,0,0,0,0,0,0,0,0,0,0,0,0,,,,,0.0,,,,,,
364,883290,1745065799053,,,,,,,,,,,,,,,,,,,,,,,0.0,0.0,0.0,0.0,0.0,0.0,0.0,0.0,2.24,,,0,0,0,0,0,0,0,0,0,0,0,0,0,0,0,0,0.0,,,,,39.239628,-77.964577,0.04,35.0,2.0,0.8
365,883310,1745065799073,0.0,172.32,,-0.09,-0.03,1.01,0.0,0.0,0.0,1.02,1.35,75.0,3113.0,3.9,3.73,,12.95,1.143,73.6,,40.4,5.0,,,,,,,,,,,,0,0,0,0,0,0,0,0,0,0,0,0,0,0,0,0,,,,,0.0,,,,,,
366,883330,1745065799103,,,,,,,,,,,,,,,,,,,,,,,,,,,,,,,,,,0,0,0,0,0,0,0,0,0,0,0,0,0,0,0,0,,,,,,,,,,,
367,883350,1745065799123,0.0,172.32,,-0.07,0.01,0.93,0.0,0.0,0.0,0.94,1.35,69.0,3162.0,3.9,3.75,,12.92,1.158,73.6,,40.4,5.0,,,,,,,,,,,,0,0,0,0,0,0,0,0,0,0,0,0,0,0,0,0,,,,,0.0,,,,,,
368,883370,1745065799143,,,,,,,,,,,,,,,,,,,,,,,,,,,,,,,,,,0,0,0,0,0,0,0,0,0,0,0,0,0,0,0,0,,,,,,,,,,,
369,883390,1745065799163,0.0,172.32,12.76,-0.04,0.06,0.93,0.0,0.0,0.0,0.93,1.35,69.0,3124.0,3.8,3.73,15.0,12.95,1.153,73.6,183.0,40.4,5.0,0.0,0.0,0.0,0.0,0.0,0.0,0.0,0.0,2.24,0.0,1.0,0,0,0,0,0,0,0,0,0,0,0,0,0,0,0,0,0.0,0.0,0.0,0.0,0.0,39.239628,-77.964577,0.11,35.0,2.0,0.8
370,883410,1745065799183,,,,,,,,,,,,,,,,,,,,,,,,,,,,,,,,,,0,0,0,0,0,0,0,0,0,0,0,0,0,0,0,0,,,,,,,,,,,
371,883430,1745065799201,0.0,172.32,,-0.03,0.03,0.98,0.0,0.0,1.0,0.99,1.35,73.0,3101.0,3.9,3.75,,12.95,1.153,73.6,,40.5,5.0,,,,,,,,,,,,0,0,0,0,0,0,0,0,0,0,0,0,0,0,0,0,,,,,0.0,,,,,,
372,883450,1745065799221,,,,,,,,,,,,,,,,,,,,,,,,,,,,,,,,,,0,0,0,0,0,0,0,0,0,0,0,0,0,0,0,0,,,,,,,,,,,
373,883470,1745065799241,0.0,172.32,,-0.04,-0.03,1.04,0.0,0.0,1.0,1.04,1.35,77.0,3101.0,3.9,3.75,,12.96,1.148,73.6,,40.5,5.0,,,,,,,,,,,,0,0,0,0,0,0,0,0,0,0,0,0,0,0,0,0,,,,,0.0,,,,,,
374,883490,1745065799261,,,,,,,,,,,,,,,,,,,,,,,0.0,0.0,0.0,0.0,0.0,0.0,0.0,0.0,2.24,,,0,0,0,0,0,0,0,0,0,0,0,0,0,0,0,0,0.0,,,,,39.239628,-77.964577,0.06,35.0,2.0,0.8
375,883510,1745065799281,0.0,172.2,,-0.06,-0.08,1.08,0.0,0.0,0.0,1.08,1.35,80.0,3142.0,3.8,3.75,,12.96,1.158,73.6,,39.8,5.0,,,,,,,,,,,,0,0,0,0,0,0,0,0,0,0,0,0,0,0,0,0,,,,,0.0,,,,,,
376,883530,1745065799305,,,,,,,,,,,,,,,,,,,,,,,,,,,,,,,,,,0,0,0,0,0,0,0,0,0,0,0,0,0,0,0,0,,,,,,,,,,,
377,883550,1745065799325,0.0,172.2,,-0.08,-0.07,1.03,0.0,0.0,0.0,1.04,1.35,77.0,3143.0,3.7,3.75,,12.92,1.161,73.6,,39.8,5.0,,,,,,,,,,,,0,0,0,0,0,0,0,0,0,0,0,0,0,0,0,0,,,,,0.0,,,,,,
378,883570,1745065799345,,,,,,,,,,,,,,,,,,,,,,,,,,,,,,,,,,0,0,0,0,0,0,0,0,0,0,0,0,0,0,0,0,,,,,,,,,,,
379,883590,1745065799365,0.0,172.2,,-0.06,-0.02,0.96,0.0,0.0,0.0,0.97,1.35,71.0,3121.0,3.7,3.75,,12.96,1.164,73.6,,39.8,5.0,0.0,0.0,0.0,0.0,0.0,0.0,0.0,0.0,2.25,,,0,0,0,0,0,0,0,0,0,0,0,0,0,0,0,0,0.0,,,,0.0,39.239628,-77.964577,0.11,35.0,2.0,0.8
380,883610,1745065799385,,,,,,,,,,,,,,,,,,,,,,,,,,,,,,,,,,0,0,0,0,0,0,0,0,0,0,0,0,0,0,0,0,,,,,,,,,,,
381,883630,1745065799401,0.0,172.2,,-0.05,0.02,0.96,0.0,0.0,0.0,0.97,1.35,71.0,3188.0,3.6,3.71,,12.96,1.164,73.6,,40.8,5.0,,,,,,,,,,,,0,0,0,0,0,0,0,0,0,0,0,0,0,0,0,0,,,,,0.0,,,,,,
382,883650,1745065799421,,,,,,,,,,,,,,,,,,,,,,,,,,,,,,,,,,0,0,0,0,0,0,0,0,0,0,0,0,0,0,0,0,,,,,,,,,,,
383,883670,1745065799441,0.0,172.32,,-0.05,-0.03,1.03,0.0,0.0,1.0,1.04,1.35,77.0,3188.0,3.6,3.71,,12.96,1.175,73.6,,40.8,5.0,,,,,,,,,,,,0,0,0,0,0,0,0,0,0,0,0,0,0,0,0,0,,,,,0.0,,,,,,
384,883690,1745065799461,,,,,,,,,,,,,,,,,,,,,,,0.0,0.0,0.0,0.0,0.0,0.0,0.0,0.0,2.24,,,0,0,0,0,0,0,0,0,0,0,0,0,0,0,0,0,0.0,,,,,39.239628,-77.964577,0.04,35.0,2.0,0.8
385,883710,1745065799481,0.0,172.32,,-0.07,-0.09,1.06,0.0,0.0,0.0,1.06,1.35,79.0,3173.0,3.6,3.71,,12.89,1.183,73.6,,40.9,5.0,,,,,,,,,,,,0,0,0,0,0,0,0,0,0,0,0,0,0,0,0,0,,,,,0.0,,,,,,
