,Interval,Utc,FrontBP,SteerAng,Battery,AccelX,AccelY,AccelZ,Yaw,Pitch,Roll,Gsum,GsumMax,GsumPct,RPM,TPS,InjectorPW,Baro,MAP,Lambda,IAT,EngineTemp,EOP,EOT,WSFR,WSFL,WSRR,WSRL,TCSet,TCSlip,TCComp,TCCut,Analog8,OilTemp,AA_On,ThermLF1,ThermLF2,ThermRR1,ThermRR2,ThermLF3,ThermLF4,ThermLF5,ThermLF6,ThermLF7,ThermLF8,ThermRR3,ThermRR4,ThermRR5,ThermRR6,ThermRR7,ThermRR8,Gear,AA_On1,AA_LowDrag,Fuel_Mix,AA_Packages,Latitude,Longitude,Speed,GPSSats,GPSQual,GPSDOP
0,583698,1745095296162,0.0,204.63,,-0.06,-0.05,0.93,0.0,0.0,0.0,0.94,0.94,100.0,3802.0,3.0,3.45,,11.65,0.977,95.2,,45.3,5.0,,,,,,,,,,,,0,0,0,0,0,0,0,0,0,0,0,0,0,0,0,0,,,,,0.0,,,,,,
1,583718,1745095296182,,,,,,,,,,,,,,,,,,,,,,,,,,,,,,,,,,0,0,0,0,0,0,0,0,0,0,0,0,0,0,0,0,,,,,,,,,,,
2,583738,1745095296198,0.0,204.75,,-0.06,-0.05,0.95,-1.0,0.0,0.0,0.95,0.95,100.0,3716.0,3.0,3.46,,11.68,0.975,95.2,,43.9,5.0,,,,,,,,,,,,0,0,0,0,0,0,0,0,0,0,0,0,0,0,0,0,,,,,0.0,,,,,,
3,583758,1745095296218,,,,,,,,,,,,,,,,,,,,,,,,,,,,,,,,,,0,0,0,0,0,0,0,0,0,0,0,0,0,0,0,0,,,,,,,,,,,
4,583778,1745095296238,0.0,204.63,,-0.07,-0.07,0.96,-1.0,0.0,0.0,0.97,0.97,100.0,3666.0,3.0,3.47,,11.68,0.975,95.2,,43.9,5.0,0.0,0.0,0.0,0.0,0.0,0.0,0.0,0.0,2.25,,,0,0,0,0,0,0,0,0,0,0,0,0,0,0,0,0,0.0,,,,0.0,39.240089,-77.965401,0.18,32.0,3.0,0.8
5,583798,1745095296258,,,,,,,,,,,,,,,,,,,,,,,,,,,,,,,,,,0,0,0,0,0,0,0,0,0,0,0,0,0,0,0,0,,,,,,,,,,,
6,583818,1745095296278,0.0,204.63,,-0.05,-0.04,0.97,-1.0,0.0,1.0,0.97,0.97,100.0,3666.0,3.0,3.47,,11.77,0.975,95.2,,41.9,5.0,,,,,,,,,,,,0,0,0,0,0,0,0,0,0,0,0,0,0,0,0,0,,,,,0.0,,,,,,
7,583838,1745095296304,,,,,,,,,,,,,,,,,,,,,,,,,,,,,,,,,,0,0,0,0,0,0,0,0,0,0,0,0,0,0,0,0,,,,,,,,,,,
8,583858,1745095296324,0.0,204.63,,-0.04,-0.04,0.93,-1.0,0.0,0.0,0.93,0.97,96.0,3629.0,3.0,3.48,,11.83,0.973,95.2,,41.9,5.0,,,,,,,,,,,,0,0,0,0,0,0,0,0,0,0,0,0,0,0,0,0,,,,,0.0,,,,,,
9,583878,1745095296344,,,,,,,,,,,,,,,,,,,,,,,0.0,0.0,0.0,0.0,0.0,0.0,0.0,0.0,2.26,,,0,0,0,0,0,0,0,0,0,0,0,0,0,0,0,0,0.0,,,,,39.240089,-77.965401,0.22,32.0,3.0,0.8
10,583898,1745095296364,0.0,204.63,,-0.04,-0.06,0.92,0.0,0.0,0.0,0.93,0.97,95.0,3506.0,3.0,3.48,,11.97,0.972,95.2,,41.9,5.0,,,,,,,,,,,,0,0,0,0,0,0,0,0,0,0,0,0,0,0,0,0,,,,,0.0,,,,,,
11,583918,1745095296384,,,,,,,,,,,,,,,,,,,,,,,,,,,,,,,,,,0,0,0,0,0,0,0,0,0,0,0,0,0,0,0,0,,,,,,,,,,,
12,583938,1745095296402,0.0,204.63,,-0.04,-0.13,0.93,0.0,0.0,0.0,0.94,0.97,97.0,3658.0,3.0,3.47,,11.93,1.011,95.2,,41.2,5.0,,,,,,,,,,,,0,0,0,0,0,0,0,0,0,0,0,0,0,0,0,0,,,,,0.0,,,,,,
13,583958,1745095296422,,,,,,,,,,,,,,,,,,,,,,,,,,,,,,,,,,0,0,0,0,0,0,0,0,0,0,0,0,0,0,0,0,,,,,,,,,,,
14,583978,1745095296442,0.0,204.63,,-0.04,-0.11,0.93,0.0,0.0,0.0,0.93,0.97,96.0,3816.0,2.9,3.45,,11.93,1.011,95.2,,41.2,5.0,0.0,0.0,0.0,0.0,0.0,0.0,0.0,0.0,2.26,,,0,0,0,0,0,0,0,0,0,0,0,0,0,0,0,0,0.0,,,,0.0,39.240089,-77.965401,0.11,32.0,3.0,0.8
15,583998,1745095296462,,,,,,,,,,,,,,,,,,,,,,,,,,,,,,,,,,0,0,0,0,0,0,0,0,0,0,0,0,0,0,0,0,,,,,,,,,,,
16,584018,1745095296482,0.0,204.63,,-0.04,-0.07,0.94,1.0,0.0,0.0,0.94,0.97,97.0,3816.0,2.9,3.45,,11.87,1.016,95.2,,43.5,5.0,,,,,,,,,,,,0,0,0,0,0,0,0,0,0,0,0,0,0,0,0,0,,,,,0.0,,,,,,
17,584038,1745095296504,,,,,,,,,,,,,,,,,,,,,,,,,,,,,,,,,,0,0,0,0,0,0,0,0,0,0,0,0,0,0,0,0,,,,,,,,,,,
18,584058,1745095296524,0.0,204.63,,-0.05,-0.05,0.95,1.0,0.0,0.0,0.95,0.97,97.0,3804.0,2.8,3.44,,11.83,0.93,95.2,,43.5,5.0,,,,,,,,,,,,0,0,0,0,0,0,0,0,0,0,0,0,0,0,0,0,,,,,0.0,,,,,,
19,584078,1745095296544,,,,,,,,,,,,,,,,,,,,,,,0.0,0.0,0.0,0.0,0.0,0.0,0.0,0.0,2.26,,,0,0,0,0,0,0,0,0,0,0,0,0,0,0,0,0,0.0,,,,,39.240089,-77.965401,0.04,32.0,3.0,0.8
20,584098,1745095296564,0.0,204.63,,-0.07,-0.05,1.04,-1.0,0.0,1.0,1.04,1.04,100.0,3748.0,2.8,3.4,,11.76,0.886,95.2,,43.5,5.0,,,,,,,,,,,,0,0,0,0,0,0,0,0,0,0,0,0,0,0,0,0,,,,,0.0,,,,,,
21,584118,1745095296584,,,,,,,,,,,,,,,,,,,,,,,,,,,,,,,,,,0,0,0,0,0,0,0,0,0,0,0,0,0,0,0,0,,,,,,,,,,,
22,584138,1745095296604,0.0,204.63,,-0.07,-0.08,1.02,0.0,0.0,0.0,1.02,1.04,98.0,3696.0,2.8,3.39,,11.8,0.897,95.2,,42.3,5.0,,,,,,,,,,,,0,0,0,0,0,0,0,0,0,0,0,0,0,0,0,0,,,,,0.0,,,,,,
23,584158,1745095296624,,,,,,,,,,,,,,,,,,,,,,,,,,,,,,,,,,0,0,0,0,0,0,0,0,0,0,0,0,0,0,0,0,,,,,,,,,,,
24,584178,1745095296644,0.0,204.63,,-0.07,-0.11,1.05,0.0,0.0,0.0,1.06,1.06,100.0,3649.0,2.9,3.39,,11.8,0.897,95.2,,42.3,5.0,0.0,0.0,0.0,0.0,0.0,0.0,0.0,0.0,2.26,,,0,0,0,0,0,0,0,0,0,0,0,0,0,0,0,0,0.0,,,,0.0,39.240089,-77.965401,0.07,32.0,3.0,0.8
25,584198,1745095296664,,,,,,,,,,,,,,,,,,,,,,,,,,,,,,,,,,0,0,0,0,0,0,0,0,0,0,0,0,0,0,0,0,,,,,,,,,,,
26,584218,1745095296684,0.0,204.63,,-0.05,-0.05,1.07,-1.0,0.0,1.0,1.07,1.07,100.0,3649.0,2.9,3.39,,11.85,0.94,95.2,,40.4,5.0,,,,,,,,,,,,0,0,0,0,0,0,0,0,0,0,0,0,0,0,0,0,,,,,0.0,,,,,,
27,584238,1745095296704,,,,,,,,,,,,,,,,,,,,,,,,,,,,,,,,,,0,0,0,0,0,0,0,0,0,0,0,0,0,0,0,0,,,,,,,,,,,
28,584258,1745095296724,0.0,204.63,,-0.06,-0.1,1.03,0.0,0.0,0.0,1.03,1.07,96.0,3466.0,3.0,3.41,,11.97,0.974,95.2,,40.4,5.0,,,,,,,,,,,,0,0,0,0,0,0,0,0,0,0,0,0,0,0,0,0,,,,,0.0,,,,,,
29,584278,1745095296744,,,,,,,,,,,,,,,,,,,,,,,0.0,0.0,0.0,0.0,0.0,0.0,0.0,0.0,2.26,,,0,0,0,0,0,0,0,0,0,0,0,0,0,0,0,0,0.0,,,,,39.240089,-77.965401,0.0,32.0,3.0,0.8
30,584298,1745095296764,0.0,204.63,,-0.04,0.01,0.98,0.0,0.0,1.0,0.98,1.07,91.0,3279.0,3.0,3.46,,12.13,0.993,95.2,,40.4,5.0,,,,,,,,,,,,0,0,0,0,0,0,0,0,0,0,0,0,0,0,0,0,,,,,0.0,,,,,,
31,584318,1745095296784,,,,,,,,,,,,,,,,,,,,,,,,,,,,,,,,,,0,0,0,0,0,0,0,0,0,0,0,0,0,0,0,0,,,,,,,,,,,
32,584338,1745095296802,0.0,204.63,,-0.02,0.03,1.02,-1.0,0.0,1.0,1.02,1.07,95.0,3177.0,3.0,3.46,,12.23,1.023,95.2,,36.0,5.0,,,,,,,,,,,,0,0,0,0,0,0,0,0,0,0,0,0,0,0,0,0,,,,,0.0,,,,,,
33,584358,1745095296822,,,,,,,,,,,,,,,,,,,,,,,,,,,,,,,,,,0,0,0,0,0,0,0,0,0,0,0,0,0,0,0,0,,,,,,,,,,,
34,584378,1745095296842,0.0,204.63,13.38,-0.03,-0.05,1.09,-1.0,0.0,1.0,1.1,1.1,100.0,3227.0,3.0,3.53,15.0,12.23,1.023,95.2,140.0,36.0,5.0,0.0,0.0,0.0,0.0,0.0,0.0,0.0,0.0,2.26,0.0,0.0,0,0,0,0,0,0,0,0,0,0,0,0,0,0,0,0,0.0,0.0,0.0,0.0,0.0,39.240089,-77.965401,0.08,32.0,3.0,0.8
35,584398,1745095296862,,,,,,,,,,,,,,,,,,,,,,,,,,,,,,,,,,0,0,0,0,0,0,0,0,0,0,0,0,0,0,0,0,,,,,,,,,,,
36,584418,1745095296882,0.0,204.5,,-0.06,-0.12,1.12,-1.0,0.0,0.0,1.13,1.13,100.0,3227.0,3.0,3.53,,12.31,1.052,95.2,,34.6,5.0,,,,,,,,,,,,0,0,0,0,0,0,0,0,0,0,0,0,0,0,0,0,,,,,0.0,,,,,,
37,584438,1745095296904,,,,,,,,,,,,,,,,,,,,,,,,,,,,,,,,,,0,0,0,0,0,0,0,0,0,0,0,0,0,0,0,0,,,,,,,,,,,
38,584458,1745095296924,0.0,204.5,,-0.07,-0.12,1.1,0.0,0.0,0.0,1.11,1.13,98.0,3099.0,3.0,3.5,,12.39,1.189,95.2,,34.6,5.0,,,,,,,,,,,,0,0,0,0,0,0,0,0,0,0,0,0,0,0,0,0,,,,,0.0,,,,,,
39,584478,1745095296944,,,,,,,,,,,,,,,,,,,,,,,0.0,0.0,0.0,0.0,0.0,0.0,0.0,0.0,2.26,,,0,0,0,0,0,0,0,0,0,0,0,0,0,0,0,0,0.0,,,,,39.240089,-77.965401,0.04,32.0,3.0,0.8
40,584498,1745095296964,0.0,204.63,,-0.09,-0.08,1.1,0.0,0.0,0.0,1.11,1.13,98.0,3018.0,2.8,3.51,,12.45,1.162,95.2,,34.6,5.0,,,,,,,,,,,,0,0,0,0,0,0,0,0,0,0,0,0,0,0,0,0,,,,,0.0,,,,,,
41,584518,1745095296984,,,,,,,,,,,,,,,,,,,,,,,,,,,,,,,,,,0,0,0,0,0,0,0,0,0,0,0,0,0,0,0,0,,,,,,,,,,,
42,584538,1745095296995,0.0,204.63,,-0.09,-0.07,1.14,0.0,0.0,0.0,1.14,1.14,100.0,2854.0,2.7,3.48,,12.55,1.113,95.2,,32.4,5.0,,,,,,,,,,,,0,0,0,0,0,0,0,0,0,0,0,0,0,0,0,0,,,,,0.0,,,,,,
43,584558,1745095297015,,,,,,,,,,,,,,,,,,,,,,,,,,,,,,,,,,0,0,0,0,0,0,0,0,0,0,0,0,0,0,0,0,,,,,,,,,,,
44,584578,1745095297035,0.0,204.63,,-0.08,-0.04,1.12,0.0,0.0,0.0,1.13,1.14,99.0,2754.0,2.7,3.53,,12.55,1.113,95.2,,32.4,5.0,0.0,0.0,0.0,0.0,0.0,0.0,0.0,0.0,2.26,,,0,0,0,0,0,0,0,0,0,0,0,0,0,0,0,0,0.0,,,,0.0,39.240089,-77.965401,0.05,32.0,3.0,0.8
45,584598,1745095297055,,,,,,,,,,,,,,,,,,,,,,,,,,,,,,,,,,0,0,0,0,0,0,0,0,0,0,0,0,0,0,0,0,,,,,,,,,,,
46,584618,1745095297075,0.0,204.63,,-0.07,-0.03,1.1,0.0,0.0,0.0,1.1,1.14,96.0,2754.0,2.7,3.53,,12.71,1.094,95.2,,29.7,5.0,,,,,,,,,,,,0,0,0,0,0,0,0,0,0,0,0,0,0,0,0,0,,,,,0.0,,,,,,
47,584638,1745095297096,,,,,,,,,,,,,,,,,,,,,,,,,,,,,,,,,,0,0,0,0,0,0,0,0,0,0,0,0,0,0,0,0,,,,,,,,,,,
48,584658,1745095297116,0.0,204.63,,-0.07,-0.03,1.09,0.0,0.0,0.0,1.09,1.14,96.0,2655.0,2.7,3.55,,12.83,1.118,95.2,,29.7,5.0,,,,,,,,,,,,0,0,0,0,0,0,0,0,0,0,0,0,0,0,0,0,,,,,0.0,,,,,,
49,584678,1745095297136,,,,,,,,,,,,,,,,,,,,,,,0.0,0.0,0.0,0.0,0.0,0.0,0.0,0.0,2.26,,,0,0,0,0,0,0,0,0,0,0,0,0,0,0,0,0,0.0,,,,,39.240089,-77.965401,0.0,32.0,3.0,0.8
50,584698,1745095297156,0.0,204.63,,-0.05,-0.03,1.07,0.0,0.0,0.0,1.08,1.14,94.0,2580.0,2.8,3.53,,12.96,1.148,95.2,,29.7,5.0,,,,,,,,,,,,0,0,0,0,0,0,0,0,0,0,0,0,0,0,0,0,,,,,0.0,,,,,,
51,584718,1745095297176,,,,,,,,,,,,,,,,,,,,,,,,,,,,,,,,,,0,0,0,0,0,0,0,0,0,0,0,0,0,0,0,0,,,,,,,,,,,
52,584738,1745095297201,0.0,204.63,,-0.07,-0.02,1.06,0.0,0.0,0.0,1.06,1.14,93.0,2508.0,3.0,3.54,,13.03,1.161,95.2,,27.4,5.0,,,,,,,,,,,,0,0,0,0,0,0,0,0,0,0,0,0,0,0,0,0,,,,,0.0,,,,,,
53,584758,1745095297221,,,,,,,,,,,,,,,,,,,,,,,,,,,,,,,,,,0,0,0,0,0,0,0,0,0,0,0,0,0,0,0,0,,,,,,,,,,,
54,584778,1745095297241,0.0,204.63,,-0.06,-0.0,1.04,0.0,0.0,0.0,1.04,1.14,91.0,2417.0,2.9,3.55,,13.03,1.161,95.2,,27.4,5.0,0.0,0.0,0.0,0.0,0.0,0.0,0.0,0.0,2.26,,,0,0,0,0,0,0,0,0,0,0,0,0,0,0,0,0,0.0,,,,0.0,39.240089,-77.965401,0.05,33.0,3.0,0.8
55,584798,1745095297261,,,,,,,,,,,,,,,,,,,,,,,,,,,,,,,,,,0,0,0,0,0,0,0,0,0,0,0,0,0,0,0,0,,,,,,,,,,,
56,584818,1745095297281,0.0,204.5,,-0.07,-0.01,1.05,0.0,0.0,0.0,1.05,1.14,92.0,2417.0,2.9,3.55,,13.12,1.176,95.2,,25.6,5.0,,,,,,,,,,,,0,0,0,0,0,0,0,0,0,0,0,0,0,0,0,0,,,,,0.0,,,,,,
57,584838,1745095297303,,,,,,,,,,,,,,,,,,,,,,,,,,,,,,,,,,0,0,0,0,0,0,0,0,0,0,0,0,0,0,0,0,,,,,,,,,,,
58,584858,1745095297323,0.0,204.63,,-0.08,-0.0,1.04,0.0,0.0,0.0,1.04,1.14,91.0,2335.0,3.0,3.55,,13.24,1.181,95.2,,25.6,5.0,,,,,,,,,,,,0,0,0,0,0,0,0,0,0,0,0,0,0,0,0,0,,,,,0.0,,,,,,
59,584878,1745095297343,,,,,,,,,,,,,,,,,,,,,,,0.0,0.0,0.0,0.0,0.0,0.0,0.0,0.0,2.26,,,0,0,0,0,0,0,0,0,0,0,0,0,0,0,0,0,0.0,,,,,39.240089,-77.965401,0.0,33.0,3.0,0.8
60,584898,1745095297363,0.0,204.63,,-0.07,0.01,1.03,0.0,0.0,0.0,1.03,1.14,91.0,2284.0,3.0,3.58,,13.35,1.194,95.2,,25.6,5.0,,,,,,,,,,,,0,0,0,0,0,0,0,0,0,0,0,0,0,0,0,0,,,,,0.0,,,,,,
61,584918,1745095297383,,,,,,,,,,,,,,,,,,,,,,,,,,,,,,,,,,0,0,0,0,0,0,0,0,0,0,0,0,0,0,0,0,,,,,,,,,,,
62,584938,1745095297403,0.0,204.63,,-0.06,-0.0,1.03,0.0,0.0,0.0,1.03,1.14,90.0,2184.0,3.0,3.6,,13.39,1.19,95.2,,24.5,5.0,,,,,,,,,,,,0,0,0,0,0,0,0,0,0,0,0,0,0,0,0,0,,,,,0.0,,,,,,
63,584958,1745095297423,,,,,,,,,,,,,,,,,,,,,,,,,,,,,,,,,,0,0,0,0,0,0,0,0,0,0,0,0,0,0,0,0,,,,,,,,,,,
64,584978,1745095297443,0.0,204.63,,-0.06,-0.01,1.02,0.0,0.0,0.0,1.03,1.14,90.0,2120.0,2.8,3.61,,13.39,1.19,95.2,,24.5,5.0,0.0,0.0,0.0,0.0,0.0,0.0,0.0,0.0,2.26,,,0,0,0,0,0,0,0,0,0,0,0,0,0,0,0,0,0.0,,,,0.0,39.240089,-77.965401,0.0,33.0,3.0,0.8
65,584998,1745095297463,,,,,,,,,,,,,,,,,,,,,,,,,,,,,,,,,,0,0,0,0,0,0,0,0,0,0,0,0,0,0,0,0,,,,,,,,,,,
66,585018,1745095297483,0.0,204.63,,-0.05,0.0,1.04,0.0,0.0,0.0,1.04,1.14,91.0,2120.0,2.8,3.61,,13.43,1.181,95.2,,22.9,5.0,,,,,,,,,,,,0,0,0,0,0,0,0,0,0,0,0,0,0,0,0,0,,,,,0.0,,,,,,
67,585038,1745095297503,,,,,,,,,,,,,,,,,,,,,,,,,,,,,,,,,,0,0,0,0,0,0,0,0,0,0,0,0,0,0,0,0,,,,,,,,,,,
68,585058,1745095297523,0.0,204.63,,-0.05,0.0,1.03,0.0,0.0,0.0,1.03,1.14,90.0,2003.0,2.7,3.59,,13.48,1.177,95.2,,22.9,5.0,,,,,,,,,,,,0,0,0,0,0,0,0,0,0,0,0,0,0,0,0,0,,,,,0.0,,,,,,
69,585078,1745095297543,,,,,,,,,,,,,,,,,,,,,,,0.0,0.0,0.0,0.0,0.0,0.0,0.0,0.0,2.26,,,0,0,0,0,0,0,0,0,0,0,0,0,0,0,0,0,0.0,,,,,39.240089,-77.965401,0.04,33.0,3.0,0.8
70,585098,1745095297563,0.0,204.63,,-0.06,0.0,1.03,0.0,0.0,0.0,1.04,1.14,91.0,2006.0,2.7,3.64,,13.57,1.19,95.2,,22.9,5.0,,,,,,,,,,,,0,0,0,0,0,0,0,0,0,0,0,0,0,0,0,0,,,,,0.0,,,,,,
71,585118,1745095297583,,,,,,,,,,,,,,,,,,,,,,,,,,,,,,,,,,0,0,0,0,0,0,0,0,0,0,0,0,0,0,0,0,,,,,,,,,,,
72,585138,1745095297603,0.0,204.63,,-0.05,0.01,1.02,0.0,0.0,0.0,1.02,1.14,90.0,1942.0,2.7,3.61,,13.65,1.21,95.2,,20.8,5.0,,,,,,,,,,,,0,0,0,0,0,0,0,0,0,0,0,0,0,0,0,0,,,,,0.0,,,,,,
73,585158,1745095297623,,,,,,,,,,,,,,,,,,,,,,,,,,,,,,,,,,0,0,0,0,0,0,0,0,0,0,0,0,0,0,0,0,,,,,,,,,,,
74,585178,1745095297643,0.0,204.75,,-0.05,-0.0,1.03,0.0,0.0,0.0,1.03,1.14,90.0,1815.0,2.9,3.63,,13.65,1.21,95.2,,20.8,5.0,0.0,0.0,0.0,0.0,0.0,0.0,0.0,0.0,2.26,,,0,0,0,0,0,0,0,0,0,0,0,0,0,0,0,0,0.0,,,,0.0,39.240089,-77.965401,0.0,33.0,3.0,0.8
75,585198,1745095297663,,,,,,,,,,,,,,,,,,,,,,,,,,,,,,,,,,0,0,0,0,0,0,0,0,0,0,0,0,0,0,0,0,,,,,,,,,,,
76,585218,1745095297683,0.0,204.75,,-0.05,0.0,1.01,0.0,0.0,0.0,1.01,1.14,88.0,1815.0,2.9,3.63,,13.73,1.225,95.2,,19.9,5.0,,,,,,,,,,,,0,0,0,0,0,0,0,0,0,0,0,0,0,0,0,0,,,,,0.0,,,,,,
77,585238,1745095297703,,,,,,,,,,,,,,,,,,,,,,,,,,,,,,,,,,0,0,0,0,0,0,0,0,0,0,0,0,0,0,0,0,,,,,,,,,,,
78,585258,1745095297723,0.0,204.75,,-0.04,-0.01,1.01,0.0,0.0,0.0,1.01,1.14,88.0,1730.0,2.9,3.6,,13.82,1.247,95.2,,19.9,5.0,,,,,,,,,,,,0,0,0,0,0,0,0,0,0,0,0,0,0,0,0,0,,,,,0.0,,,,,,
79,585278,1745095297743,,,,,,,,,,,,,,,,,,,,,,,0.0,0.0,0.0,0.0,0.0,0.0,0.0,0.0,2.26,,,0,0,0,0,0,0,0,0,0,0,0,0,0,0,0,0,0.0,,,,,39.240089,-77.965401,0.04,33.0,3.0,0.8
80,585298,1745095297763,0.0,204.75,,-0.02,-0.01,1.01,0.0,0.0,0.0,1.01,1.14,89.0,1717.0,2.9,3.61,,13.79,1.25,95.2,,19.9,5.0,,,,,,,,,,,,0,0,0,0,0,0,0,0,0,0,0,0,0,0,0,0,,,,,0.0,,,,,,
81,585318,1745095297783,,,,,,,,,,,,,,,,,,,,,,,,,,,,,,,,,,0,0,0,0,0,0,0,0,0,0,0,0,0,0,0,0,,,,,,,,,,,
82,585338,1745095297803,0.0,204.75,,-0.03,-0.01,1.03,0.0,0.0,0.0,1.03,1.14,90.0,1599.0,2.9,3.63,,13.79,1.25,95.2,,17.7,5.0,,,,,,,,,,,,0,0,0,0,0,0,0,0,0,0,0,0,0,0,0,0,,,,,0.0,,,,,,
83,585358,1745095297823,,,,,,,,,,,,,,,,,,,,,,,,,,,,,,,,,,0,0,0,0,0,0,0,0,0,0,0,0,0,0,0,0,,,,,,,,,,,
84,585378,1745095297843,0.0,204.75,13.39,-0.04,-0.0,1.04,0.0,0.0,0.0,1.04,1.14,92.0,1521.0,2.9,3.61,15.0,13.79,1.25,95.2,140.0,17.7,5.0,0.0,0.0,0.0,0.0,0.0,0.0,0.0,0.0,2.26,0.0,0.0,0,0,0,0,0,0,0,0,0,0,0,0,0,0,0,0,0.0,0.0,0.0,0.0,0.0,39.240089,-77.965401,0.08,33.0,3.0,0.8
85,585398,1745095297863,,,,,,,,,,,,,,,,,,,,,,,,,,,,,,,,,,0,0,0,0,0,0,0,0,0,0,0,0,0,0,0,0,,,,,,,,,,,
86,585418,1745095297883,0.0,204.75,,-0.05,0.01,1.06,0.0,0.0,0.0,1.06,1.14,93.0,1521.0,2.9,3.61,,13.94,1.249,95.2,,17.1,5.0,,,,,,,,,,,,0,0,0,0,0,0,0,0,0,0,0,0,0,0,0,0,,,,,0.0,,,,,,
87,585438,1745095297904,,,,,,,,,,,,,,,,,,,,,,,,,,,,,,,,,,0,0,0,0,0,0,0,0,0,0,0,0,0,0,0,0,,,,,,,,,,,
88,585458,1745095297924,0.0,204.63,,-0.05,0.01,1.06,0.0,0.0,0.0,1.06,1.14,93.0,1542.0,2.9,3.61,,13.83,1.247,95.2,,17.1,5.0,,,,,,,,,,,,0,0,0,0,0,0,0,0,0,0,0,0,0,0,0,0,,,,,0.0,,,,,,
89,585478,1745095297944,,,,,,,,,,,,,,,,,,,,,,,0.0,0.0,0.0,0.0,0.0,0.0,0.0,0.0,2.26,,,0,0,0,0,0,0,0,0,0,0,0,0,0,0,0,0,0.0,,,,,39.240089,-77.965401,0.04,33.0,3.0,0.8
90,585498,1745095297964,0.0,204.63,,-0.04,0.01,1.06,0.0,0.0,0.0,1.06,1.14,93.0,1420.0,2.7,3.6,,13.99,1.246,95.2,,17.1,5.0,,,,,,,,,,,,0,0,0,0,0,0,0,0,0,0,0,0,0,0,0,0,,,,,0.0,,,,,,
91,585518,1745095297984,,,,,,,,,,,,,,,,,,,,,,,,,,,,,,,,,,0,0,0,0,0,0,0,0,0,0,0,0,0,0,0,0,,,,,,,,,,,
92,585538,1745095297994,0.0,204.63,,-0.03,0.01,1.06,0.0,0.0,0.0,1.06,1.14,93.0,1459.0,2.7,3.6,,13.95,1.246,95.2,,16.4,5.0,,,,,,,,,,,,0,0,0,0,0,0,0,0,0,0,0,0,0,0,0,0,,,,,0.0,,,,,,
93,585558,1745095298014,,,,,,,,,,,,,,,,,,,,,,,,,,,,,,,,,,0,0,0,0,0,0,0,0,0,0,0,0,0,0,0,0,,,,,,,,,,,
94,585578,1745095298034,0.0,204.63,,-0.03,-0.0,1.04,0.0,0.0,0.0,1.04,1.14,91.0,1354.0,2.7,3.59,,13.95,1.246,95.2,,16.4,5.0,0.0,0.0,0.0,0.0,0.0,0.0,0.0,0.0,2.26,,,0,0,0,0,0,0,0,0,0,0,0,0,0,0,0,0,0.0,,,,0.0,39.240089,-77.965401,0.04,32.0,3.0,0.8
95,585598,1745095298054,,,,,,,,,,,,,,,,,,,,,,,,,,,,,,,,,,0,0,0,0,0,0,0,0,0,0,0,0,0,0,0,0,,,,,,,,,,,
96,585618,1745095298074,0.0,204.63,,-0.04,0.01,1.02,0.0,0.0,0.0,1.03,1.14,90.0,1354.0,2.7,3.59,,13.98,1.248,95.2,,15.4,5.0,,,,,,,,,,,,0,0,0,0,0,0,0,0,0,0,0,0,0,0,0,0,,,,,0.0,,,,,,
97,585638,1745095298102,,,,,,,,,,,,,,,,,,,,,,,,,,,,,,,,,,0,0,0,0,0,0,0,0,0,0,0,0,0,0,0,0,,,,,,,,,,,
98,585658,1745095298122,0.0,204.63,,-0.04,0.0,1.01,0.0,0.0,0.0,1.01,1.14,89.0,1352.0,2.7,3.6,,13.95,1.238,95.2,,15.4,5.0,,,,,,,,,,,,0,0,0,0,0,0,0,0,0,0,0,0,0,0,0,0,,,,,0.0,,,,,,
99,585678,1745095298142,,,,,,,,,,,,,,,,,,,,,,,0.0,0.0,0.0,0.0,0.0,0.0,0.0,0.0,2.26,,,0,0,0,0,0,0,0,0,0,0,0,0,0,0,0,0,0.0,,,,,39.240089,-77.965401,0.0,32.0,3.0,0.8
100,585698,1745095298162,0.0,204.63,,-0.04,0.0,1.0,0.0,0.0,0.0,1.0,1.14,88.0,1243.0,2.8,3.6,,13.98,1.222,95.2,,15.4,5.0,,,,,,,,,,,,0,0,0,0,0,0,0,0,0,0,0,0,0,0,0,0,,,,,0.0,,,,,,
101,585718,1745095298182,,,,,,,,,,,,,,,,,,,,,,,,,,,,,,,,,,0,0,0,0,0,0,0,0,0,0,0,0,0,0,0,0,,,,,,,,,,,
102,585738,1745095298200,0.0,204.63,,-0.04,0.0,0.99,0.0,0.0,0.0,0.99,1.14,87.0,1144.0,2.8,3.6,,14.14,1.218,95.2,,14.1,5.0,,,,,,,,,,,,0,0,0,0,0,0,0,0,0,0,0,0,0,0,0,0,,,,,0.0,,,,,,
103,585758,1745095298220,,,,,,,,,,,,,,,,,,,,,,,,,,,,,,,,,,0,0,0,0,0,0,0,0,0,0,0,0,0,0,0,0,,,,,,,,,,,
104,585778,1745095298240,0.0,204.75,,-0.04,0.01,0.98,0.0,0.0,0.0,0.98,1.14,86.0,1049.0,2.9,3.61,,14.14,1.218,95.2,,14.1,5.0,0.0,0.0,0.0,0.0,0.0,0.0,0.0,0.0,2.26,,,0,0,0,0,0,0,0,0,0,0,0,0,0,0,0,0,0.0,,,,0.0,39.240089,-77.965401,0.11,32.0,3.0,0.8
105,585798,1745095298260,,,,,,,,,,,,,,,,,,,,,,,,,,,,,,,,,,0,0,0,0,0,0,0,0,0,0,0,0,0,0,0,0,,,,,,,,,,,
106,585818,1745095298280,0.0,204.75,,-0.04,0.01,0.98,0.0,0.0,0.0,0.98,1.14,86.0,1049.0,2.9,3.61,,14.02,1.242,95.2,,14.0,5.0,,,,,,,,,,,,0,0,0,0,0,0,0,0,0,0,0,0,0,0,0,0,,,,,0.0,,,,,,
107,585838,1745095298302,,,,,,,,,,,,,,,,,,,,,,,,,,,,,,,,,,0,0,0,0,0,0,0,0,0,0,0,0,0,0,0,0,,,,,,,,,,,
108,585858,1745095298322,0.0,204.63,,-0.04,0.01,0.97,0.0,0.0,0.0,0.98,1.14,85.0,1341.0,2.9,3.61,,14.08,1.25,95.2,,14.0,5.0,,,,,,,,,,,,0,0,0,0,0,0,0,0,0,0,0,0,0,0,0,0,,,,,0.0,,,,,,
109,585878,1745095298342,,,,,,,,,,,,,,,,,,,,,,,0.0,0.0,0.0,0.0,0.0,0.0,0.0,0.0,2.25,,,0,0,0,0,0,0,0,0,0,0,0,0,0,0,0,0,0.0,,,,,39.240089,-77.965401,0.0,32.0,3.0,0.8
110,585898,1745095298362,0.0,204.75,,-0.05,0.01,0.97,0.0,0.0,0.0,0.97,1.14,85.0,1120.0,2.9,3.6,,14.06,1.249,95.2,,14.0,5.0,,,,,,,,,,,,0,0,0,0,0,0,0,0,0,0,0,0,0,0,0,0,,,,,0.0,,,,,,
111,585918,1745095298382,,,,,,,,,,,,,,,,,,,,,,,,,,,,,,,,,,0,0,0,0,0,0,0,0,0,0,0,0,0,0,0,0,,,,,,,,,,,
112,585938,1745095298402,0.0,204.75,,-0.05,0.01,0.97,0.0,0.0,0.0,0.98,1.14,86.0,1221.0,3.6,3.63,,14.15,1.248,95.2,,14.1,5.0,,,,,,,,,,,,0,0,0,0,0,0,0,0,0,0,0,0,0,0,0,0,,,,,0.0,,,,,,
113,585958,1745095298422,,,,,,,,,,,,,,,,,,,,,,,,,,,,,,,,,,0,0,0,0,0,0,0,0,0,0,0,0,0,0,0,0,,,,,,,,,,,
114,585978,1745095298442,0.0,204.63,,-0.06,0.01,0.98,0.0,0.0,0.0,0.98,1.14,86.0,1075.0,3.6,3.64,,14.15,1.248,95.2,,14.1,5.0,0.0,0.0,0.0,0.0,0.0,0.0,0.0,0.0,2.26,,,0,0,0,0,0,0,0,0,0,0,0,0,0,0,0,0,0.0,,,,0.0,39.240089,-77.965401,0.04,32.0,3.0,0.8
115,585998,1745095298462,,,,,,,,,,,,,,,,,,,,,,,,,,,,,,,,,,0,0,0,0,0,0,0,0,0,0,0,0,0,0,0,0,,,,,,,,,,,
116,586018,1745095298482,0.0,204.75,,-0.07,0.02,0.98,0.0,0.0,0.0,0.98,1.14,86.0,1075.0,3.6,3.64,,14.14,1.247,95.2,,14.1,5.0,,,,,,,,,,,,0,0,0,0,0,0,0,0,0,0,0,0,0,0,0,0,,,,,0.0,,,,,,
117,586038,1745095298502,,,,,,,,,,,,,,,,,,,,,,,,,,,,,,,,,,0,0,0,0,0,0,0,0,0,0,0,0,0,0,0,0,,,,,,,,,,,
118,586058,1745095298522,0.0,204.63,,-0.06,0.01,0.98,0.0,0.0,0.0,0.99,1.14,86.0,1283.0,3.5,3.64,,14.14,1.243,95.2,,14.1,5.0,,,,,,,,,,,,0,0,0,0,0,0,0,0,0,0,0,0,0,0,0,0,,,,,0.0,,,,,,
119,586078,1745095298542,,,,,,,,,,,,,,,,,,,,,,,0.0,0.0,0.0,0.0,0.0,0.0,0.0,0.0,2.26,,,0,0,0,0,0,0,0,0,0,0,0,0,0,0,0,0,0.0,,,,,39.240089,-77.965401,0.0,32.0,3.0,0.8
120,586098,1745095298562,0.0,204.63,,-0.05,0.02,0.99,0.0,0.0,0.0,0.99,1.14,87.0,1086.0,3.5,3.66,,14.14,1.218,95.2,,14.1,5.0,,,,,,,,,,,,0,0,0,0,0,0,0,0,0,0,0,0,0,0,0,0,,,,,0.0,,,,,,
121,586118,1745095298582,,,,,,,,,,,,,,,,,,,,,,,,,,,,,,,,,,0,0,0,0,0,0,0,0,0,0,0,0,0,0,0,0,,,,,,,,,,,
122,586138,1745095298602,0.0,204.63,,-0.05,0.01,1.0,0.0,0.0,0.0,1.0,1.14,87.0,1197.0,3.5,3.66,,14.07,1.225,95.2,,13.6,5.0,,,,,,,,,,,,0,0,0,0,0,0,0,0,0,0,0,0,0,0,0,0,,,,,0.0,,,,,,
123,586158,1745095298622,,,,,,,,,,,,,,,,,,,,,,,,,,,,,,,,,,0,0,0,0,0,0,0,0,0,0,0,0,0,0,0,0,,,,,,,,,,,
124,586178,1745095298642,0.0,204.75,,-0.04,0.0,1.0,0.0,0.0,0.0,1.0,1.14,87.0,1054.0,3.6,3.66,,14.07,1.225,95.2,,13.6,5.0,0.0,0.0,0.0,0.0,0.0,0.0,0.0,0.0,2.26,,,0,0,0,0,0,0,0,0,0,0,0,0,0,0,0,0,0.0,,,,0.0,39.240089,-77.965401,0.04,32.0,3.0,0.8
125,586198,1745095298662,,,,,,,,,,,,,,,,,,,,,,,,,,,,,,,,,,0,0,0,0,0,0,0,0,0,0,0,0,0,0,0,0,,,,,,,,,,,
126,586218,1745095298682,0.0,204.63,,-0.04,0.01,0.99,0.0,0.0,0.0,0.99,1.14,87.0,1054.0,3.6,3.66,,14.06,1.234,95.2,,13.5,5.0,,,,,,,,,,,,0,0,0,0,0,0,0,0,0,0,0,0,0,0,0,0,,,,,0.0,,,,,,
127,586238,1745095298704,,,,,,,,,,,,,,,,,,,,,,,,,,,,,,,,,,0,0,0,0,0,0,0,0,0,0,0,0,0,0,0,0,,,,,,,,,,,
128,586258,1745095298724,0.0,204.63,,-0.04,0.0,0.99,0.0,0.0,0.0,0.99,1.14,87.0,1241.0,3.7,3.66,,14.03,1.246,95.2,,13.5,5.0,,,,,,,,,,,,0,0,0,0,0,0,0,0,0,0,0,0,0,0,0,0,,,,,0.0,,,,,,
129,586278,1745095298744,,,,,,,,,,,,,,,,,,,,,,,0.0,0.0,0.0,0.0,0.0,0.0,0.0,0.0,2.26,,,0,0,0,0,0,0,0,0,0,0,0,0,0,0,0,0,0.0,,,,,39.240089,-77.965401,0.04,32.0,3.0,0.8
130,586298,1745095298764,0.0,204.63,,-0.05,0.0,0.98,0.0,0.0,0.0,0.98,1.14,86.0,1041.0,3.7,3.64,,14.08,1.25,95.2,,13.5,5.0,,,,,,,,,,,,0,0,0,0,0,0,0,0,0,0,0,0,0,0,0,0,,,,,0.0,,,,,,
131,586318,1745095298784,,,,,,,,,,,,,,,,,,,,,,,,,,,,,,,,,,0,0,0,0,0,0,0,0,0,0,0,0,0,0,0,0,,,,,,,,,,,
132,586338,1745095298804,0.0,204.63,,-0.05,0.0,0.98,0.0,0.0,0.0,0.98,1.14,86.0,1216.0,3.7,3.65,,14.04,1.248,95.2,,13.1,5.0,,,,,,,,,,,,0,0,0,0,0,0,0,0,0,0,0,0,0,0,0,0,,,,,0.0,,,,,,
133,586358,1745095298824,,,,,,,,,,,,,,,,,,,,,,,,,,,,,,,,,,0,0,0,0,0,0,0,0,0,0,0,0,0,0,0,0,,,,,,,,,,,
134,586378,1745095298844,0.0,204.63,13.41,-0.05,0.01,0.98,0.0,0.0,0.0,0.98,1.14,86.0,1087.0,9.6,3.8,15.0,14.04,1.248,95.2,142.0,13.1,5.0,0.0,0.0,0.0,0.0,0.0,0.0,0.0,0.0,2.26,0.0,0.0,0,0,0,0,0,0,0,0,0,0,0,0,0,0,0,0,0.0,0.0,0.0,0.0,0.0,39.240089,-77.965401,0.1,32.0,3.0,0.8
135,586398,1745095298864,,,,,,,,,,,,,,,,,,,,,,,,,,,,,,,,,,0,0,0,0,0,0,0,0,0,0,0,0,0,0,0,0,,,,,,,,,,,
136,586418,1745095298884,0.0,204.63,,-0.06,0.01,0.99,0.0,0.0,0.0,0.99,1.14,87.0,1087.0,9.6,3.8,,14.15,1.247,95.2,,13.6,5.0,,,,,,,,,,,,0,0,0,0,0,0,0,0,0,0,0,0,0,0,0,0,,,,,0.0,,,,,,
137,586438,1745095298904,,,,,,,,,,,,,,,,,,,,,,,,,,,,,,,,,,0,0,0,0,0,0,0,0,0,0,0,0,0,0,0,0,,,,,,,,,,,
138,586458,1745095298924,0.0,204.63,,-0.06,0.01,0.98,0.0,0.0,0.0,0.98,1.14,86.0,1300.0,10.8,3.79,,14.11,1.247,95.2,,13.6,5.0,,,,,,,,,,,,0,0,0,0,0,0,0,0,0,0,0,0,0,0,0,0,,,,,0.0,,,,,,
139,586478,1745095298944,,,,,,,,,,,,,,,,,,,,,,,0.0,0.0,0.0,0.0,0.0,0.0,0.0,0.0,2.26,,,0,0,0,0,0,0,0,0,0,0,0,0,0,0,0,0,0.0,,,,,39.240089,-77.965401,0.07,32.0,3.0,0.8
140,586498,1745095298964,0.0,204.63,,-0.06,0.01,0.97,0.0,0.0,0.0,0.97,1.14,85.0,1158.0,10.7,3.76,,14.1,1.247,95.2,,13.6,5.0,,,,,,,,,,,,0,0,0,0,0,0,0,0,0,0,0,0,0,0,0,0,,,,,0.0,,,,,,
141,586518,1745095298984,,,,,,,,,,,,,,,,,,,,,,,,,,,,,,,,,,0,0,0,0,0,0,0,0,0,0,0,0,0,0,0,0,,,,,,,,,,,
142,586538,1745095298995,0.0,204.63,,-0.06,0.01,0.96,0.0,0.0,0.0,0.96,1.14,84.0,1420.0,10.6,3.8,,14.11,1.247,95.2,,14.2,5.0,,,,,,,,,,,,0,0,0,0,0,0,0,0,0,0,0,0,0,0,0,0,,,,,0.0,,,,,,
143,586558,1745095299015,,,,,,,,,,,,,,,,,,,,,,,,,,,,,,,,,,0,0,0,0,0,0,0,0,0,0,0,0,0,0,0,0,,,,,,,,,,,
144,586578,1745095299035,0.0,204.63,,-0.07,0.01,0.96,0.0,0.0,0.0,0.96,1.14,84.0,1353.0,10.6,3.73,,14.11,1.247,95.2,,14.2,5.0,0.0,0.0,0.0,0.0,0.0,0.0,0.0,0.0,2.26,,,0,0,0,0,0,0,0,0,0,0,0,0,0,0,0,0,0.0,,,,0.0,39.240089,-77.965401,0.04,32.0,3.0,0.8
145,586598,1745095299055,,,,,,,,,,,,,,,,,,,,,,,,,,,,,,,,,,0,0,0,0,0,0,0,0,0,0,0,0,0,0,0,0,,,,,,,,,,,
146,586618,1745095299075,0.0,204.63,,-0.07,0.01,0.95,0.0,0.0,0.0,0.95,1.14,84.0,1353.0,10.6,3.73,,14.12,1.249,95.2,,16.3,5.0,,,,,,,,,,,,0,0,0,0,0,0,0,0,0,0,0,0,0,0,0,0,,,,,0.0,,,,,,
147,586638,1745095299099,,,,,,,,,,,,,,,,,,,,,,,,,,,,,,,,,,0,0,0,0,0,0,0,0,0,0,0,0,0,0,0,0,,,,,,,,,,,
148,586658,1745095299119,0.0,204.63,,-0.08,0.03,0.94,0.0,0.0,0.0,0.94,1.14,82.0,1489.0,10.5,3.7,,14.08,1.25,95.2,,16.3,5.0,,,,,,,,,,,,0,0,0,0,0,0,0,0,0,0,0,0,0,0,0,0,,,,,0.0,,,,,,
149,586678,1745095299139,,,,,,,,,,,,,,,,,,,,,,,0.0,0.0,0.0,0.0,0.0,0.0,0.0,0.0,2.26,,,0,0,0,0,0,0,0,0,0,0,0,0,0,0,0,0,0.0,,,,,39.240089,-77.965401,0.0,32.0,3.0,0.8
150,586698,1745095299159,0.0,204.63,,-0.07,0.02,0.94,0.0,0.0,0.0,0.94,1.14,83.0,1661.0,10.6,3.72,,14.02,1.252,95.2,,16.3,5.0,,,,,,,,,,,,0,0,0,0,0,0,0,0,0,0,0,0,0,0,0,0,,,,,0.0,,,,,,
151,586718,1745095299179,,,,,,,,,,,,,,,,,,,,,,,,,,,,,,,,,,0,0,0,0,0,0,0,0,0,0,0,0,0,0,0,0,,,,,,,,,,,
152,586738,1745095299201,0.0,204.63,,-0.05,0.03,0.96,0.0,0.0,0.0,0.96,1.14,84.0,1620.0,10.7,3.68,,14.06,1.252,95.2,,17.0,5.0,,,,,,,,,,,,0,0,0,0,0,0,0,0,0,0,0,0,0,0,0,0,,,,,0.0,,,,,,
153,586758,1745095299221,,,,,,,,,,,,,,,,,,,,,,,,,,,,,,,,,,0,0,0,0,0,0,0,0,0,0,0,0,0,0,0,0,,,,,,,,,,,
154,586778,1745095299241,0.0,204.63,,-0.06,0.03,0.97,0.0,0.0,0.0,0.98,1.14,86.0,1668.0,10.8,3.66,,14.06,1.252,95.2,,17.0,5.0,0.0,0.0,0.0,0.0,0.0,0.0,0.0,0.0,2.26,,,0,0,0,0,0,0,0,0,0,0,0,0,0,0,0,0,0.0,,,,0.0,39.240089,-77.965401,0.0,32.0,3.0,0.8
155,586798,1745095299261,,,,,,,,,,,,,,,,,,,,,,,,,,,,,,,,,,0,0,0,0,0,0,0,0,0,0,0,0,0,0,0,0,,,,,,,,,,,
156,586818,1745095299281,0.0,204.63,,-0.07,0.03,0.96,0.0,0.0,0.0,0.96,1.14,84.0,1668.0,10.8,3.66,,14.11,1.252,95.2,,18.1,5.0,,,,,,,,,,,,0,0,0,0,0,0,0,0,0,0,0,0,0,0,0,0,,,,,0.0,,,,,,
157,586838,1745095299301,,,,,,,,,,,,,,,,,,,,,,,,,,,,,,,,,,0,0,0,0,0,0,0,0,0,0,0,0,0,0,0,0,,,,,,,,,,,
158,586858,1745095299321,0.0,204.63,,-0.06,0.02,0.97,0.0,0.0,0.0,0.97,1.14,85.0,1751.0,10.8,3.67,,14.06,1.252,95.2,,18.1,5.0,,,,,,,,,,,,0,0,0,0,0,0,0,0,0,0,0,0,0,0,0,0,,,,,0.0,,,,,,
159,586878,1745095299341,,,,,,,,,,,,,,,,,,,,,,,0.0,0.0,0.0,0.0,0.0,0.0,0.0,0.0,2.26,,,0,0,0,0,0,0,0,0,0,0,0,0,0,0,0,0,0.0,,,,,39.240089,-77.965401,0.0,32.0,3.0,0.8
160,586898,1745095299361,0.0,204.63,,-0.06,0.04,0.98,0.0,0.0,0.0,0.99,1.14,86.0,1781.0,10.8,3.67,,14.08,1.251,95.2,,18.1,5.0,,,,,,,,,,,,0,0,0,0,0,0,0,0,0,0,0,0,0,0,0,0,,,,,0.0,,,,,,
161,586918,1745095299381,,,,,,,,,,,,,,,,,,,,,,,,,,,,,,,,,,0,0,0,0,0,0,0,0,0,0,0,0,0,0,0,0,,,,,,,,,,,
162,586938,1745095299401,0.0,204.63,,-0.07,0.03,0.97,0.0,0.0,0.0,0.97,1.14,85.0,1702.0,10.8,3.65,,14.11,1.249,95.2,,18.6,5.0,,,,,,,,,,,,0,0,0,0,0,0,0,0,0,0,0,0,0,0,0,0,,,,,0.0,,,,,,
163,586958,1745095299421,,,,,,,,,,,,,,,,,,,,,,,,,,,,,,,,,,0,0,0,0,0,0,0,0,0,0,0,0,0,0,0,0,,,,,,,,,,,
164,586978,1745095299441,0.0,204.5,,-0.05,0.03,0.97,0.0,0.0,0.0,0.98,1.14,86.0,1747.0,10.7,3.63,,14.11,1.249,95.2,,18.6,5.0,0.0,0.0,0.0,0.0,0.0,0.0,0.0,0.0,2.26,,,0,0,0,0,0,0,0,0,0,0,0,0,0,0,0,0,0.0,,,,0.0,39.240089,-77.965401,0.04,32.0,3.0,0.8
165,586998,1745095299461,,,,,,,,,,,,,,,,,,,,,,,,,,,,,,,,,,0,0,0,0,0,0,0,0,0,0,0,0,0,0,0,0,,,,,,,,,,,
166,587018,1745095299481,0.0,204.5,,-0.05,0.03,0.98,0.0,0.0,0.0,0.98,1.14,86.0,1747.0,10.7,3.63,,14.06,1.248,95.2,,18.8,5.0,,,,,,,,,,,,0,0,0,0,0,0,0,0,0,0,0,0,0,0,0,0,,,,,0.0,,,,,,
167,587038,1745095299504,,,,,,,,,,,,,,,,,,,,,,,,,,,,,,,,,,0,0,0,0,0,0,0,0,0,0,0,0,0,0,0,0,,,,,,,,,,,
168,587058,1745095299524,0.0,204.5,,-0.06,0.05,0.96,0.0,0.0,0.0,0.97,1.14,85.0,1814.0,10.6,3.66,,14.0,1.248,95.2,,18.8,5.0,,,,,,,,,,,,0,0,0,0,0,0,0,0,0,0,0,0,0,0,0,0,,,,,0.0,,,,,,
169,587078,1745095299544,,,,,,,,,,,,,,,,,,,,,,,0.0,0.0,0.0,0.0,0.0,0.0,0.0,0.0,2.26,,,0,0,0,0,0,0,0,0,0,0,0,0,0,0,0,0,0.0,,,,,39.240089,-77.965401,0.04,32.0,3.0,0.8
170,587098,1745095299564,0.0,204.5,,-0.04,0.03,0.98,0.0,0.0,0.0,0.98,1.14,86.0,1795.0,10.6,3.66,,14.04,1.248,95.2,,18.8,5.0,,,,,,,,,,,,0,0,0,0,0,0,0,0,0,0,0,0,0,0,0,0,,,,,0.0,,,,,,
171,587118,1745095299584,,,,,,,,,,,,,,,,,,,,,,,,,,,,,,,,,,0,0,0,0,0,0,0,0,0,0,0,0,0,0,0,0,,,,,,,,,,,
172,587138,1745095299601,0.0,204.5,,-0.05,0.03,0.99,0.0,0.0,0.0,0.99,1.14,87.0,1727.0,10.7,3.65,,14.04,1.25,95.2,,19.0,5.0,,,,,,,,,,,,0,0,0,0,0,0,0,0,0,0,0,0,0,0,0,0,,,,,0.0,,,,,,
173,587158,1745095299621,,,,,,,,,,,,,,,,,,,,,,,,,,,,,,,,,,0,0,0,0,0,0,0,0,0,0,0,0,0,0,0,0,,,,,,,,,,,
174,587178,1745095299641,0.0,204.5,,-0.05,0.02,0.98,0.0,0.0,0.0,0.98,1.14,86.0,1764.0,10.7,3.63,,14.04,1.25,95.2,,19.0,5.0,0.0,0.0,0.0,0.0,0.0,0.0,0.0,0.0,2.26,,,0,0,0,0,0,0,0,0,0,0,0,0,0,0,0,0,0.0,,,,0.0,39.240089,-77.965401,0.04,32.0,3.0,0.8
175,587198,1745095299661,,,,,,,,,,,,,,,,,,,,,,,,,,,,,,,,,,0,0,0,0,0,0,0,0,0,0,0,0,0,0,0,0,,,,,,,,,,,
176,587218,1745095299681,0.0,204.5,,-0.05,0.02,0.99,0.0,0.0,0.0,0.99,1.14,86.0,1764.0,10.7,3.63,,13.99,1.251,95.2,,19.1,5.0,,,,,,,,,,,,0,0,0,0,0,0,0,0,0,0,0,0,0,0,0,0,,,,,0.0,,,,,,
177,587238,1745095299703,,,,,,,,,,,,,,,,,,,,,,,,,,,,,,,,,,0,0,0,0,0,0,0,0,0,0,0,0,0,0,0,0,,,,,,,,,,,
178,587258,1745095299723,0.0,204.5,,-0.05,0.03,0.97,0.0,0.0,0.0,0.98,1.14,86.0,1872.0,10.8,3.66,,13.98,1.25,95.2,,19.1,5.0,,,,,,,,,,,,0,0,0,0,0,0,0,0,0,0,0,0,0,0,0,0,,,,,0.0,,,,,,
179,587278,1745095299743,,,,,,,,,,,,,,,,,,,,,,,0.0,0.0,0.0,0.0,0.0,0.0,0.0,0.0,2.26,,,0,0,0,0,0,0,0,0,0,0,0,0,0,0,0,0,0.0,,,,,39.240089,-77.965401,0.04,32.0,3.0,0.8
180,587298,1745095299763,0.0,204.5,,-0.05,0.03,1.0,0.0,0.0,0.0,1.0,1.14,88.0,1900.0,10.9,3.63,,14.02,1.252,95.2,,19.1,5.0,,,,,,,,,,,,0,0,0,0,0,0,0,0,0,0,0,0,0,0,0,0,,,,,0.0,,,,,,
181,587318,1745095299783,,,,,,,,,,,,,,,,,,,,,,,,,,,,,,,,,,0,0,0,0,0,0,0,0,0,0,0,0,0,0,0,0,,,,,,,,,,,
182,587338,1745095299803,0.0,204.5,,-0.06,0.03,0.98,0.0,0.0,0.0,0.99,1.14,86.0,1824.0,9.2,3.58,,14.06,1.251,95.2,,19.8,5.0,,,,,,,,,,,,0,0,0,0,0,0,0,0,0,0,0,0,0,0,0,0,,,,,0.0,,,,,,
183,587358,1745095299823,,,,,,,,,,,,,,,,,,,,,,,,,,,,,,,,,,0,0,0,0,0,0,0,0,0,0,0,0,0,0,0,0,,,,,,,,,,,
184,587378,1745095299843,0.0,204.5,13.45,-0.04,0.02,1.0,0.0,0.0,0.0,1.0,1.14,88.0,1805.0,9.2,3.58,15.0,14.06,1.251,95.2,142.0,19.8,5.0,0.0,0.0,0.0,0.0,0.0,0.0,0.0,0.0,2.26,0.0,0.0,0,0,0,0,0,0,0,0,0,0,0,0,0,0,0,0,0.0,0.0,0.0,0.0,0.0,39.240089,-77.965401,0.04,32.0,3.0,0.8
185,587398,1745095299863,,,,,,,,,,,,,,,,,,,,,,,,,,,,,,,,,,0,0,0,0,0,0,0,0,0,0,0,0,0,0,0,0,,,,,,,,,,,
186,587418,1745095299883,0.0,204.5,,-0.04,0.02,0.98,0.0,0.0,0.0,0.98,1.14,86.0,1805.0,9.2,3.58,,14.02,1.251,95.2,,20.1,5.0,,,,,,,,,,,,0,0,0,0,0,0,0,0,0,0,0,0,0,0,0,0,,,,,0.0,,,,,,
187,587438,1745095299905,,,,,,,,,,,,,,,,,,,,,,,,,,,,,,,,,,0,0,0,0,0,0,0,0,0,0,0,0,0,0,0,0,,,,,,,,,,,
188,587458,1745095299925,0.0,204.63,,-0.03,0.03,0.99,0.0,0.0,0.0,0.99,1.14,87.0,1932.0,9.2,3.58,,13.94,1.249,95.2,,20.1,5.0,,,,,,,,,,,,0,0,0,0,0,0,0,0,0,0,0,0,0,0,0,0,,,,,0.0,,,,,,
189,587478,1745095299945,,,,,,,,,,,,,,,,,,,,,,,0.0,0.0,0.0,0.0,0.0,0.0,0.0,0.0,2.26,,,0,0,0,0,0,0,0,0,0,0,0,0,0,0,0,0,0.0,,,,,39.240089,-77.965401,0.0,32.0,3.0,0.8
190,587498,1745095299965,0.0,204.5,,-0.04,0.02,0.98,0.0,0.0,0.0,0.98,1.14,86.0,1916.0,9.2,3.59,,13.94,1.248,95.2,,20.1,5.0,,,,,,,,,,,,0,0,0,0,0,0,0,0,0,0,0,0,0,0,0,0,,,,,0.0,,,,,,
191,587518,1745095299985,,,,,,,,,,,,,,,,,,,,,,,,,,,,,,,,,,0,0,0,0,0,0,0,0,0,0,0,0,0,0,0,0,,,,,,,,,,,
192,587538,1745095299994,0.0,204.63,,-0.04,0.02,0.99,0.0,0.0,0.0,0.99,1.14,87.0,1831.0,9.1,3.57,,13.94,1.248,95.2,,19.6,5.0,,,,,,,,,,,,0,0,0,0,0,0,0,0,0,0,0,0,0,0,0,0,,,,,0.0,,,,,,
193,587558,1745095300014,,,,,,,,,,,,,,,,,,,,,,,,,,,,,,,,,,0,0,0,0,0,0,0,0,0,0,0,0,0,0,0,0,,,,,,,,,,,
194,587578,1745095300034,0.0,204.63,,-0.05,0.04,0.97,0.0,0.0,0.0,0.97,1.14,85.0,1826.0,9.0,3.57,,13.94,1.248,95.2,,19.6,5.0,0.0,0.0,0.0,0.0,0.0,0.0,0.0,0.0,2.26,,,0,0,0,0,0,0,0,0,0,0,0,0,0,0,0,0,0.0,,,,0.0,39.240089,-77.965401,0.1,32.0,3.0,0.8
195,587598,1745095300054,,,,,,,,,,,,,,,,,,,,,,,,,,,,,,,,,,0,0,0,0,0,0,0,0,0,0,0,0,0,0,0,0,,,,,,,,,,,
196,587618,1745095300074,0.0,204.63,,-0.04,0.03,1.0,0.0,0.0,0.0,1.0,1.14,87.0,1826.0,9.0,3.57,,13.96,1.248,95.2,,20.1,5.0,,,,,,,,,,,,0,0,0,0,0,0,0,0,0,0,0,0,0,0,0,0,,,,,0.0,,,,,,
197,587638,1745095300102,,,,,,,,,,,,,,,,,,,,,,,,,,,,,,,,,,0,0,0,0,0,0,0,0,0,0,0,0,0,0,0,0,,,,,,,,,,,
198,587658,1745095300122,0.0,204.5,,-0.05,0.04,0.99,0.0,0.0,0.0,0.99,1.14,87.0,1829.0,9.0,3.57,,13.92,1.249,95.2,,20.1,5.0,,,,,,,,,,,,0,0,0,0,0,0,0,0,0,0,0,0,0,0,0,0,,,,,0.0,,,,,,
199,587678,1745095300142,,,,,,,,,,,,,,,,,,,,,,,0.0,0.0,0.0,0.0,0.0,0.0,0.0,0.0,2.26,,,0,0,0,0,0,0,0,0,0,0,0,0,0,0,0,0,0.0,,,,,39.240089,-77.965401,0.1,32.0,3.0,0.8
200,587698,1745095300162,0.0,204.5,,-0.04,0.04,1.0,0.0,0.0,0.0,1.0,1.14,88.0,1937.0,9.0,3.59,,13.94,1.25,95.2,,20.1,5.0,,,,,,,,,,,,0,0,0,0,0,0,0,0,0,0,0,0,0,0,0,0,,,,,0.0,,,,,,
201,587718,1745095300182,,,,,,,,,,,,,,,,,,,,,,,,,,,,,,,,,,0,0,0,0,0,0,0,0,0,0,0,0,0,0,0,0,,,,,,,,,,,
202,587738,1745095300204,0.0,204.5,,-0.04,0.03,0.99,0.0,0.0,0.0,0.99,1.14,87.0,1925.0,9.1,3.57,,13.98,1.25,95.2,,19.8,5.0,,,,,,,,,,,,0,0,0,0,0,0,0,0,0,0,0,0,0,0,0,0,,,,,0.0,,,,,,
203,587758,1745095300224,,,,,,,,,,,,,,,,,,,,,,,,,,,,,,,,,,0,0,0,0,0,0,0,0,0,0,0,0,0,0,0,0,,,,,,,,,,,
204,587778,1745095300244,0.0,204.63,,-0.03,0.03,1.0,0.0,0.0,0.0,1.0,1.14,88.0,1853.0,9.2,3.56,,13.98,1.25,95.2,,19.8,5.0,0.0,0.0,0.0,0.0,0.0,0.0,0.0,0.0,2.26,,,0,0,0,0,0,0,0,0,0,0,0,0,0,0,0,0,0.0,,,,0.0,39.240089,-77.965401,0.0,32.0,3.0,0.8
205,587798,1745095300264,,,,,,,,,,,,,,,,,,,,,,,,,,,,,,,,,,0,0,0,0,0,0,0,0,0,0,0,0,0,0,0,0,,,,,,,,,,,
206,587818,1745095300284,0.0,204.63,,-0.04,0.02,0.99,0.0,0.0,0.0,0.99,1.14,86.0,1853.0,9.2,3.56,,14.04,1.251,95.2,,20.2,5.0,,,,,,,,,,,,0,0,0,0,0,0,0,0,0,0,0,0,0,0,0,0,,,,,0.0,,,,,,
207,587838,1745095300304,,,,,,,,,,,,,,,,,,,,,,,,,,,,,,,,,,0,0,0,0,0,0,0,0,0,0,0,0,0,0,0,0,,,,,,,,,,,
208,587858,1745095300324,0.0,204.63,,-0.04,0.02,1.0,0.0,0.0,0.0,1.0,1.14,88.0,1820.0,9.2,3.57,,14.02,1.251,95.2,,20.2,5.0,,,,,,,,,,,,0,0,0,0,0,0,0,0,0,0,0,0,0,0,0,0,,,,,0.0,,,,,,
209,587878,1745095300344,,,,,,,,,,,,,,,,,,,,,,,0.0,0.0,0.0,0.0,0.0,0.0,0.0,0.0,2.26,,,0,0,0,0,0,0,0,0,0,0,0,0,0,0,0,0,0.0,,,,,39.240089,-77.965401,0.13,32.0,3.0,0.8
210,587898,1745095300364,0.0,204.63,,-0.05,0.04,0.98,0.0,0.0,0.0,0.98,1.14,86.0,1892.0,9.2,3.58,,13.94,1.251,95.2,,20.2,5.0,,,,,,,,,,,,0,0,0,0,0,0,0,0,0,0,0,0,0,0,0,0,,,,,0.0,,,,,,
211,587918,1745095300384,,,,,,,,,,,,,,,,,,,,,,,,,,,,,,,,,,0,0,0,0,0,0,0,0,0,0,0,0,0,0,0,0,,,,,,,,,,,
212,587938,1745095300402,0.0,204.63,,-0.04,0.03,1.0,0.0,0.0,0.0,1.0,1.14,88.0,1896.0,9.2,3.6,,13.92,1.249,95.2,,19.4,5.0,,,,,,,,,,,,0,0,0,0,0,0,0,0,0,0,0,0,0,0,0,0,,,,,0.0,,,,,,
213,587958,1745095300422,,,,,,,,,,,,,,,,,,,,,,,,,,,,,,,,,,0,0,0,0,0,0,0,0,0,0,0,0,0,0,0,0,,,,,,,,,,,
214,587978,1745095300442,0.0,204.5,,-0.06,0.04,0.99,0.0,0.0,0.0,1.0,1.14,87.0,1817.0,9.2,3.57,,13.92,1.249,95.2,,19.4,5.0,0.0,0.0,0.0,0.0,0.0,0.0,0.0,0.0,2.26,,,0,0,0,0,0,0,0,0,0,0,0,0,0,0,0,0,0.0,,,,0.0,39.240089,-77.965401,0.11,32.0,3.0,0.8
215,587998,1745095300462,,,,,,,,,,,,,,,,,,,,,,,,,,,,,,,,,,0,0,0,0,0,0,0,0,0,0,0,0,0,0,0,0,,,,,,,,,,,
216,588018,1745095300482,0.0,204.63,,-0.04,0.03,1.0,0.0,0.0,0.0,1.0,1.14,88.0,1817.0,9.2,3.57,,13.94,1.247,95.2,,20.1,5.0,,,,,,,,,,,,0,0,0,0,0,0,0,0,0,0,0,0,0,0,0,0,,,,,0.0,,,,,,
217,588038,1745095300502,,,,,,,,,,,,,,,,,,,,,,,,,,,,,,,,,,0,0,0,0,0,0,0,0,0,0,0,0,0,0,0,0,,,,,,,,,,,
218,588058,1745095300522,0.0,204.5,,-0.05,0.03,0.98,0.0,0.0,0.0,0.98,1.14,86.0,1829.0,9.1,3.57,,13.95,1.248,95.2,,20.1,5.0,,,,,,,,,,,,0,0,0,0,0,0,0,0,0,0,0,0,0,0,0,0,,,,,0.0,,,,,,
219,588078,1745095300542,,,,,,,,,,,,,,,,,,,,,,,0.0,0.0,0.0,0.0,0.0,0.0,0.0,0.0,2.26,,,0,0,0,0,0,0,0,0,0,0,0,0,0,0,0,0,0.0,,,,,39.240089,-77.965401,0.07,32.0,3.0,0.8
220,588098,1745095300562,0.0,204.5,,-0.04,0.03,0.99,0.0,0.0,0.0,0.99,1.14,87.0,1842.0,9.0,3.56,,13.92,1.248,95.2,,20.1,5.0,,,,,,,,,,,,0,0,0,0,0,0,0,0,0,0,0,0,0,0,0,0,,,,,0.0,,,,,,
221,588118,1745095300582,,,,,,,,,,,,,,,,,,,,,,,,,,,,,,,,,,0,0,0,0,0,0,0,0,0,0,0,0,0,0,0,0,,,,,,,,,,,
222,588138,1745095300602,0.0,204.63,,-0.05,0.03,0.97,0.0,0.0,0.0,0.97,1.14,85.0,1914.0,9.0,3.59,,13.95,1.249,95.2,,19.8,5.0,,,,,,,,,,,,0,0,0,0,0,0,0,0,0,0,0,0,0,0,0,0,,,,,0.0,,,,,,
223,588158,1745095300622,,,,,,,,,,,,,,,,,,,,,,,,,,,,,,,,,,0,0,0,0,0,0,0,0,0,0,0,0,0,0,0,0,,,,,,,,,,,
224,588178,1745095300642,0.0,204.63,,-0.04,0.02,0.99,0.0,0.0,0.0,0.99,1.14,86.0,1902.0,9.0,3.58,,13.95,1.249,95.2,,19.8,5.0,0.0,0.0,0.0,0.0,0.0,0.0,0.0,0.0,2.26,,,0,0,0,0,0,0,0,0,0,0,0,0,0,0,0,0,0.0,,,,0.0,39.240089,-77.965401,0.3,33.0,3.0,0.8
225,588198,1745095300662,,,,,,,,,,,,,,,,,,,,,,,,,,,,,,,,,,0,0,0,0,0,0,0,0,0,0,0,0,0,0,0,0,,,,,,,,,,,
226,588218,1745095300682,0.0,204.63,,-0.06,0.03,0.97,0.0,0.0,0.0,0.97,1.14,85.0,1902.0,9.0,3.58,,13.98,1.25,95.2,,19.9,5.0,,,,,,,,,,,,0,0,0,0,0,0,0,0,0,0,0,0,0,0,0,0,,,,,0.0,,,,,,
227,588238,1745095300702,,,,,,,,,,,,,,,,,,,,,,,,,,,,,,,,,,0,0,0,0,0,0,0,0,0,0,0,0,0,0,0,0,,,,,,,,,,,
228,588258,1745095300722,0.0,204.5,,-0.05,0.01,0.99,0.0,0.0,0.0,0.99,1.14,87.0,1842.0,9.1,3.57,,14.04,1.251,95.2,,19.9,5.0,,,,,,,,,,,,0,0,0,0,0,0,0,0,0,0,0,0,0,0,0,0,,,,,0.0,,,,,,
229,588278,1745095300742,,,,,,,,,,,,,,,,,,,,,,,0.0,0.0,0.0,0.0,0.0,0.0,0.0,0.0,2.26,,,0,0,0,0,0,0,0,0,0,0,0,0,0,0,0,0,0.0,,,,,39.240089,-77.965401,0.22,33.0,3.0,0.8
230,588298,1745095300762,0.0,204.5,,-0.06,0.02,0.98,0.0,0.0,0.0,0.99,1.14,86.0,1850.0,9.2,3.56,,13.99,1.251,95.2,,19.9,5.0,,,,,,,,,,,,0,0,0,0,0,0,0,0,0,0,0,0,0,0,0,0,,,,,0.0,,,,,,
231,588318,1745095300782,,,,,,,,,,,,,,,,,,,,,,,,,,,,,,,,,,0,0,0,0,0,0,0,0,0,0,0,0,0,0,0,0,,,,,,,,,,,
232,588338,1745095300802,0.0,204.63,,-0.04,0.02,0.99,0.0,0.0,0.0,0.99,1.14,87.0,1914.0,9.2,3.58,,13.91,1.251,95.2,,20.0,5.0,,,,,,,,,,,,0,0,0,0,0,0,0,0,0,0,0,0,0,0,0,0,,,,,0.0,,,,,,
233,588358,1745095300822,,,,,,,,,,,,,,,,,,,,,,,,,,,,,,,,,,0,0,0,0,0,0,0,0,0,0,0,0,0,0,0,0,,,,,,,,,,,
234,588378,1745095300842,0.0,204.63,13.47,-0.05,0.01,0.98,0.0,0.0,0.0,0.98,1.14,86.0,1940.0,9.2,3.58,15.0,13.91,1.251,95.2,140.0,20.0,5.0,0.0,0.0,0.0,0.0,0.0,0.0,0.0,0.0,2.25,0.0,0.0,0,0,0,0,0,0,0,0,0,0,0,0,0,0,0,0,0.0,0.0,0.0,0.0,0.0,39.240089,-77.965401,0.05,33.0,3.0,0.8
235,588398,1745095300862,,,,,,,,,,,,,,,,,,,,,,,,,,,,,,,,,,0,0,0,0,0,0,0,0,0,0,0,0,0,0,0,0,,,,,,,,,,,
236,588418,1745095300882,0.0,204.63,,-0.04,0.02,0.99,0.0,0.0,0.0,0.99,1.14,87.0,1940.0,9.2,3.58,,13.9,1.25,95.2,,19.8,5.0,,,,,,,,,,,,0,0,0,0,0,0,0,0,0,0,0,0,0,0,0,0,,,,,0.0,,,,,,
237,588438,1745095300904,,,,,,,,,,,,,,,,,,,,,,,,,,,,,,,,,,0,0,0,0,0,0,0,0,0,0,0,0,0,0,0,0,,,,,,,,,,,
238,588458,1745095300924,0.0,204.63,,-0.04,0.01,0.98,0.0,0.0,0.0,0.98,1.14,86.0,1959.0,9.2,3.57,,13.92,1.249,95.2,,19.8,5.0,,,,,,,,,,,,0,0,0,0,0,0,0,0,0,0,0,0,0,0,0,0,,,,,0.0,,,,,,
239,588478,1745095300944,,,,,,,,,,,,,,,,,,,,,,,0.0,0.0,0.0,0.0,0.0,0.0,0.0,0.0,2.26,,,0,0,0,0,0,0,0,0,0,0,0,0,0,0,0,0,0.0,,,,,39.240089,-77.965401,0.04,33.0,3.0,0.8
240,588498,1745095300964,0.0,204.63,,-0.04,0.01,0.97,0.0,0.0,0.0,0.97,1.14,85.0,1891.0,9.2,3.56,,14.0,1.247,95.2,,19.8,5.0,,,,,,,,,,,,0,0,0,0,0,0,0,0,0,0,0,0,0,0,0,0,,,,,0.0,,,,,,
241,588518,1745095300984,,,,,,,,,,,,,,,,,,,,,,,,,,,,,,,,,,0,0,0,0,0,0,0,0,0,0,0,0,0,0,0,0,,,,,,,,,,,
242,588538,1745095300995,0.0,204.63,,-0.04,0.0,0.97,0.0,0.0,0.0,0.97,1.14,85.0,1883.0,9.1,3.56,,13.99,1.248,95.2,,20.7,5.0,,,,,,,,,,,,0,0,0,0,0,0,0,0,0,0,0,0,0,0,0,0,,,,,0.0,,,,,,
243,588558,1745095301015,,,,,,,,,,,,,,,,,,,,,,,,,,,,,,,,,,0,0,0,0,0,0,0,0,0,0,0,0,0,0,0,0,,,,,,,,,,,
244,588578,1745095301035,0.0,204.63,,-0.05,0.0,0.97,0.0,0.0,0.0,0.98,1.14,85.0,1943.0,8.9,3.57,,13.99,1.248,95.2,,20.7,5.0,0.0,0.0,0.0,0.0,0.0,0.0,0.0,0.0,2.26,,,0,0,0,0,0,0,0,0,0,0,0,0,0,0,0,0,0.0,,,,0.0,39.240089,-77.965401,0.24,33.0,3.0,0.8
245,588598,1745095301055,,,,,,,,,,,,,,,,,,,,,,,,,,,,,,,,,,0,0,0,0,0,0,0,0,0,0,0,0,0,0,0,0,,,,,,,,,,,
246,588618,1745095301075,0.0,204.5,,-0.05,-0.0,0.97,0.0,0.0,0.0,0.97,1.14,85.0,1943.0,8.9,3.57,,13.92,1.248,95.2,,19.8,5.0,,,,,,,,,,,,0,0,0,0,0,0,0,0,0,0,0,0,0,0,0,0,,,,,0.0,,,,,,
247,588638,1745095301105,,,,,,,,,,,,,,,,,,,,,,,,,,,,,,,,,,0,0,0,0,0,0,0,0,0,0,0,0,0,0,0,0,,,,,,,,,,,
248,588658,1745095301125,0.0,204.5,,-0.06,0.0,0.99,0.0,0.0,0.0,0.99,1.14,87.0,1889.0,9.0,3.59,,13.92,1.249,95.2,,19.8,5.0,,,,,,,,,,,,0,0,0,0,0,0,0,0,0,0,0,0,0,0,0,0,,,,,0.0,,,,,,
249,588678,1745095301145,,,,,,,,,,,,,,,,,,,,,,,0.0,0.0,0.0,0.0,0.0,0.0,0.0,0.0,2.26,,,0,0,0,0,0,0,0,0,0,0,0,0,0,0,0,0,0.0,,,,,39.240089,-77.965401,0.27,32.0,3.0,0.8
250,588698,1745095301165,0.0,204.63,,-0.05,0.0,0.98,0.0,0.0,0.0,0.98,1.14,86.0,1808.0,9.0,3.57,,13.92,1.251,95.2,,19.8,5.0,,,,,,,,,,,,0,0,0,0,0,0,0,0,0,0,0,0,0,0,0,0,,,,,0.0,,,,,,
251,588718,1745095301185,,,,,,,,,,,,,,,,,,,,,,,,,,,,,,,,,,0,0,0,0,0,0,0,0,0,0,0,0,0,0,0,0,,,,,,,,,,,
252,588738,1745095301203,0.0,204.5,,-0.05,0.0,0.99,0.0,0.0,0.0,0.99,1.14,87.0,1868.0,9.1,3.56,,13.96,1.25,95.2,,20.2,5.0,,,,,,,,,,,,0,0,0,0,0,0,0,0,0,0,0,0,0,0,0,0,,,,,0.0,,,,,,
253,588758,1745095301223,,,,,,,,,,,,,,,,,,,,,,,,,,,,,,,,,,0,0,0,0,0,0,0,0,0,0,0,0,0,0,0,0,,,,,,,,,,,
254,588778,1745095301243,0.0,204.63,,-0.05,-0.01,0.98,0.0,0.0,0.0,0.98,1.14,86.0,1810.0,9.2,3.57,,13.96,1.25,95.2,,20.2,5.0,0.0,0.0,0.0,0.0,0.0,0.0,0.0,0.0,2.26,,,0,0,0,0,0,0,0,0,0,0,0,0,0,0,0,0,0.0,,,,0.0,39.240089,-77.965401,0.4,32.0,3.0,0.8
255,588798,1745095301263,,,,,,,,,,,,,,,,,,,,,,,,,,,,,,,,,,0,0,0,0,0,0,0,0,0,0,0,0,0,0,0,0,,,,,,,,,,,
256,588818,1745095301283,0.0,204.63,,-0.05,0.0,0.98,0.0,0.0,0.0,0.98,1.14,86.0,1810.0,9.2,3.57,,13.94,1.25,95.2,,19.6,5.0,,,,,,,,,,,,0,0,0,0,0,0,0,0,0,0,0,0,0,0,0,0,,,,,0.0,,,,,,
257,588838,1745095301303,,,,,,,,,,,,,,,,,,,,,,,,,,,,,,,,,,0,0,0,0,0,0,0,0,0,0,0,0,0,0,0,0,,,,,,,,,,,
258,588858,1745095301323,0.0,204.63,,-0.05,-0.0,0.97,0.0,0.0,0.0,0.98,1.14,86.0,1900.0,9.2,3.59,,13.95,1.25,95.2,,19.6,5.0,,,,,,,,,,,,0,0,0,0,0,0,0,0,0,0,0,0,0,0,0,0,,,,,0.0,,,,,,
259,588878,1745095301343,,,,,,,,,,,,,,,,,,,,,,,0.0,0.0,0.0,0.0,0.0,0.0,0.0,0.0,2.26,,,0,0,0,0,0,0,0,0,0,0,0,0,0,0,0,0,0.0,,,,,39.240089,-77.965401,0.18,32.0,3.0,0.8
260,588898,1745095301363,0.0,204.63,,-0.05,-0.0,0.99,0.0,0.0,0.0,0.99,1.14,87.0,1911.0,9.2,3.59,,13.96,1.251,95.2,,19.6,5.0,,,,,,,,,,,,0,0,0,0,0,0,0,0,0,0,0,0,0,0,0,0,,,,,0.0,,,,,,
261,588918,1745095301383,,,,,,,,,,,,,,,,,,,,,,,,,,,,,,,,,,0,0,0,0,0,0,0,0,0,0,0,0,0,0,0,0,,,,,,,,,,,
262,588938,1745095301403,0.0,204.63,,-0.05,0.0,0.98,0.0,0.0,0.0,0.99,1.14,86.0,1866.0,9.2,3.55,,14.02,1.249,95.2,,19.8,5.0,,,,,,,,,,,,0,0,0,0,0,0,0,0,0,0,0,0,0,0,0,0,,,,,0.0,,,,,,
263,588958,1745095301423,,,,,,,,,,,,,,,,,,,,,,,,,,,,,,,,,,0,0,0,0,0,0,0,0,0,0,0,0,0,0,0,0,,,,,,,,,,,
264,588978,1745095301443,0.0,204.63,,-0.06,0.01,0.99,0.0,0.0,0.0,0.99,1.14,87.0,1885.0,9.2,3.56,,14.02,1.249,95.2,,19.8,5.0,0.0,0.0,0.0,0.0,0.0,0.0,0.0,0.0,2.26,,,0,0,0,0,0,0,0,0,0,0,0,0,0,0,0,0,0.0,,,,0.0,39.240089,-77.965401,0.0,32.0,3.0,0.8
265,588998,1745095301463,,,,,,,,,,,,,,,,,,,,,,,,,,,,,,,,,,0,0,0,0,0,0,0,0,0,0,0,0,0,0,0,0,,,,,,,,,,,
266,589018,1745095301483,0.0,204.5,,-0.05,0.01,1.0,0.0,0.0,0.0,1.0,1.14,87.0,1885.0,9.2,3.56,,13.95,1.248,95.2,,20.6,5.0,,,,,,,,,,,,0,0,0,0,0,0,0,0,0,0,0,0,0,0,0,0,,,,,0.0,,,,,,
267,589038,1745095301503,,,,,,,,,,,,,,,,,,,,,,,,,,,,,,,,,,0,0,0,0,0,0,0,0,0,0,0,0,0,0,0,0,,,,,,,,,,,
268,589058,1745095301523,0.0,204.63,,-0.06,0.01,1.0,0.0,0.0,0.0,1.0,1.14,87.0,1959.0,9.1,3.57,,13.87,1.248,95.2,,20.6,5.0,,,,,,,,,,,,0,0,0,0,0,0,0,0,0,0,0,0,0,0,0,0,,,,,0.0,,,,,,
269,589078,1745095301543,,,,,,,,,,,,,,,,,,,,,,,0.0,0.0,0.0,0.0,0.0,0.0,0.0,0.0,2.26,,,0,0,0,0,0,0,0,0,0,0,0,0,0,0,0,0,0.0,,,,,39.240089,-77.965401,0.05,32.0,3.0,0.8
270,589098,1745095301563,0.0,204.5,,-0.04,0.0,1.0,0.0,0.0,0.0,1.0,1.14,87.0,1932.0,9.0,3.57,,13.91,1.248,95.2,,20.6,5.0,,,,,,,,,,,,0,0,0,0,0,0,0,0,0,0,0,0,0,0,0,0,,,,,0.0,,,,,,
271,589118,1745095301583,,,,,,,,,,,,,,,,,,,,,,,,,,,,,,,,,,0,0,0,0,0,0,0,0,0,0,0,0,0,0,0,0,,,,,,,,,,,
272,589138,1745095301603,0.0,204.63,,-0.04,0.01,0.99,0.0,0.0,0.0,0.99,1.14,87.0,1887.0,9.0,3.59,,13.98,1.249,95.2,,19.8,5.0,,,,,,,,,,,,0,0,0,0,0,0,0,0,0,0,0,0,0,0,0,0,,,,,0.0,,,,,,
273,589158,1745095301623,,,,,,,,,,,,,,,,,,,,,,,,,,,,,,,,,,0,0,0,0,0,0,0,0,0,0,0,0,0,0,0,0,,,,,,,,,,,
274,589178,1745095301643,0.0,204.63,,-0.04,-0.01,1.0,0.0,0.0,0.0,1.0,1.14,87.0,1812.0,9.0,3.57,,13.98,1.249,95.2,,19.8,5.0,0.0,0.0,0.0,0.0,0.0,0.0,0.0,0.0,2.26,,,0,0,0,0,0,0,0,0,0,0,0,0,0,0,0,0,0.0,,,,0.0,39.240089,-77.965401,0.04,32.0,3.0,0.8
275,589198,1745095301663,,,,,,,,,,,,,,,,,,,,,,,,,,,,,,,,,,0,0,0,0,0,0,0,0,0,0,0,0,0,0,0,0,,,,,,,,,,,
276,589218,1745095301683,0.0,204.63,,-0.05,0.01,0.98,0.0,0.0,0.0,0.99,1.14,86.0,1812.0,9.0,3.57,,14.02,1.25,95.2,,20.4,5.0,,,,,,,,,,,,0,0,0,0,0,0,0,0,0,0,0,0,0,0,0,0,,,,,0.0,,,,,,
277,589238,1745095301703,,,,,,,,,,,,,,,,,,,,,,,,,,,,,,,,,,0,0,0,0,0,0,0,0,0,0,0,0,0,0,0,0,,,,,,,,,,,
278,589258,1745095301723,0.0,204.5,,-0.05,0.01,1.0,0.0,0.0,0.0,1.0,1.14,87.0,1846.0,9.1,3.57,,14.0,1.251,95.2,,20.4,5.0,,,,,,,,,,,,0,0,0,0,0,0,0,0,0,0,0,0,0,0,0,0,,,,,0.0,,,,,,
279,589278,1745095301743,,,,,,,,,,,,,,,,,,,,,,,0.0,0.0,0.0,0.0,0.0,0.0,0.0,0.0,2.26,,,0,0,0,0,0,0,0,0,0,0,0,0,0,0,0,0,0.0,,,,,39.240089,-77.965401,0.1,32.0,3.0,0.8
280,589298,1745095301763,0.0,204.5,,-0.06,0.02,0.98,0.0,0.0,0.0,0.98,1.14,86.0,1936.0,9.2,3.58,,13.94,1.252,95.2,,20.4,5.0,,,,,,,,,,,,0,0,0,0,0,0,0,0,0,0,0,0,0,0,0,0,,,,,0.0,,,,,,
281,589318,1745095301783,,,,,,,,,,,,,,,,,,,,,,,,,,,,,,,,,,0,0,0,0,0,0,0,0,0,0,0,0,0,0,0,0,,,,,,,,,,,
282,589338,1745095301803,0.0,204.5,,-0.05,0.01,1.0,0.0,0.0,0.0,1.0,1.14,88.0,1906.0,9.2,3.57,,13.95,1.252,95.2,,19.6,5.0,,,,,,,,,,,,0,0,0,0,0,0,0,0,0,0,0,0,0,0,0,0,,,,,0.0,,,,,,
283,589358,1745095301823,,,,,,,,,,,,,,,,,,,,,,,,,,,,,,,,,,0,0,0,0,0,0,0,0,0,0,0,0,0,0,0,0,,,,,,,,,,,
284,589378,1745095301843,0.0,204.5,13.47,-0.05,0.01,1.0,0.0,0.0,0.0,1.0,1.14,88.0,1845.0,9.3,3.57,15.0,13.95,1.252,95.2,140.0,19.6,5.0,0.0,0.0,0.0,0.0,0.0,0.0,0.0,0.0,2.26,0.0,0.0,0,0,0,0,0,0,0,0,0,0,0,0,0,0,0,0,0.0,0.0,0.0,0.0,0.0,39.240089,-77.965401,0.07,32.0,3.0,0.8
285,589398,1745095301863,,,,,,,,,,,,,,,,,,,,,,,,,,,,,,,,,,0,0,0,0,0,0,0,0,0,0,0,0,0,0,0,0,,,,,,,,,,,
286,589418,1745095301883,0.0,204.5,,-0.04,0.02,1.01,0.0,0.0,0.0,1.01,1.14,89.0,1845.0,9.3,3.57,,13.92,1.251,95.2,,20.6,5.0,,,,,,,,,,,,0,0,0,0,0,0,0,0,0,0,0,0,0,0,0,0,,,,,0.0,,,,,,
287,589438,1745095301904,,,,,,,,,,,,,,,,,,,,,,,,,,,,,,,,,,0,0,0,0,0,0,0,0,0,0,0,0,0,0,0,0,,,,,,,,,,,
288,589458,1745095301924,0.0,204.5,,-0.04,0.01,1.0,0.0,0.0,0.0,1.0,1.14,88.0,1916.0,9.2,3.54,,13.95,1.25,95.2,,20.6,5.0,,,,,,,,,,,,0,0,0,0,0,0,0,0,0,0,0,0,0,0,0,0,,,,,0.0,,,,,,
289,589478,1745095301944,,,,,,,,,,,,,,,,,,,,,,,0.0,0.0,0.0,0.0,0.0,0.0,0.0,0.0,2.26,,,0,0,0,0,0,0,0,0,0,0,0,0,0,0,0,0,0.0,,,,,39.240089,-77.965401,0.04,32.0,3.0,0.8
290,589498,1745095301964,0.0,204.5,,-0.04,0.02,1.0,0.0,0.0,0.0,1.0,1.14,88.0,1863.0,9.3,3.55,,13.96,1.249,95.2,,20.6,5.0,,,,,,,,,,,,0,0,0,0,0,0,0,0,0,0,0,0,0,0,0,0,,,,,0.0,,,,,,
291,589518,1745095301984,,,,,,,,,,,,,,,,,,,,,,,,,,,,,,,,,,0,0,0,0,0,0,0,0,0,0,0,0,0,0,0,0,,,,,,,,,,,
292,589538,1745095301994,0.0,204.5,,-0.03,0.02,0.99,0.0,0.0,0.0,0.99,1.14,87.0,1967.0,9.2,3.57,,13.94,1.249,95.2,,20.7,5.0,,,,,,,,,,,,0,0,0,0,0,0,0,0,0,0,0,0,0,0,0,0,,,,,0.0,,,,,,
293,589558,1745095302014,,,,,,,,,,,,,,,,,,,,,,,,,,,,,,,,,,0,0,0,0,0,0,0,0,0,0,0,0,0,0,0,0,,,,,,,,,,,
294,589578,1745095302034,0.0,204.5,,-0.04,0.03,0.99,0.0,0.0,0.0,0.99,1.14,86.0,1920.0,9.0,3.57,,13.94,1.249,95.2,,20.7,5.0,0.0,0.0,0.0,0.0,0.0,0.0,0.0,0.0,2.26,,,0,0,0,0,0,0,0,0,0,0,0,0,0,0,0,0,0.0,,,,0.0,39.240089,-77.965401,0.05,32.0,3.0,0.8
295,589598,1745095302054,,,,,,,,,,,,,,,,,,,,,,,,,,,,,,,,,,0,0,0,0,0,0,0,0,0,0,0,0,0,0,0,0,,,,,,,,,,,
296,589618,1745095302074,0.0,204.5,,-0.03,0.02,0.98,0.0,0.0,0.0,0.98,1.14,86.0,1920.0,9.0,3.57,,13.92,1.248,95.2,,21.6,5.0,,,,,,,,,,,,0,0,0,0,0,0,0,0,0,0,0,0,0,0,0,0,,,,,0.0,,,,,,
297,589638,1745095302098,,,,,,,,,,,,,,,,,,,,,,,,,,,,,,,,,,0,0,0,0,0,0,0,0,0,0,0,0,0,0,0,0,,,,,,,,,,,
298,589658,1745095302118,0.0,204.5,,-0.03,-0.02,1.02,0.0,0.0,0.0,1.02,1.14,89.0,2335.0,9.0,3.57,,13.8,1.249,95.2,,21.6,5.0,,,,,,,,,,,,0,0,0,0,0,0,0,0,0,0,0,0,0,0,0,0,,,,,0.0,,,,,,
299,589678,1745095302138,,,,,,,,,,,,,,,,,,,,,,,0.0,0.0,0.0,0.0,0.0,0.0,0.0,0.0,2.26,,,0,0,0,0,0,0,0,0,0,0,0,0,0,0,0,0,0.0,,,,,39.240089,-77.965401,0.05,32.0,3.0,0.8
300,589698,1745095302158,0.0,204.5,,-0.03,-0.01,1.0,0.0,0.0,0.0,1.0,1.14,87.0,2505.0,9.0,3.63,,13.72,1.25,95.2,,21.6,5.0,,,,,,,,,,,,0,0,0,0,0,0,0,0,0,0,0,0,0,0,0,0,,,,,0.0,,,,,,
301,589718,1745095302178,,,,,,,,,,,,,,,,,,,,,,,,,,,,,,,,,,0,0,0,0,0,0,0,0,0,0,0,0,0,0,0,0,,,,,,,,,,,
302,589738,1745095302204,0.0,204.5,,-0.03,-0.01,1.02,0.0,0.0,0.0,1.02,1.14,90.0,2648.0,9.0,3.69,,13.61,1.252,95.2,,26.3,5.0,,,,,,,,,,,,0,0,0,0,0,0,0,0,0,0,0,0,0,0,0,0,,,,,0.0,,,,,,
303,589758,1745095302224,,,,,,,,,,,,,,,,,,,,,,,,,,,,,,,,,,0,0,0,0,0,0,0,0,0,0,0,0,0,0,0,0,,,,,,,,,,,
304,589778,1745095302244,0.0,204.5,,-0.03,0.03,1.0,0.0,0.0,0.0,1.0,1.14,88.0,2717.0,9.0,3.7,,13.61,1.252,95.2,,26.3,5.0,0.0,0.0,0.0,0.0,0.0,0.0,0.0,0.0,2.26,,,0,0,0,0,0,0,0,0,0,0,0,0,0,0,0,0,0.0,,,,0.0,39.240089,-77.965401,0.11,32.0,3.0,0.8
305,589798,1745095302264,,,,,,,,,,,,,,,,,,,,,,,,,,,,,,,,,,0,0,0,0,0,0,0,0,0,0,0,0,0,0,0,0,,,,,,,,,,,
306,589818,1745095302284,0.0,204.5,,-0.03,0.02,1.03,0.0,0.0,0.0,1.03,1.14,90.0,2717.0,9.0,3.7,,13.57,1.226,95.2,,28.4,5.0,,,,,,,,,,,,0,0,0,0,0,0,0,0,0,0,0,0,0,0,0,0,,,,,0.0,,,,,,
307,589838,1745095302302,,,,,,,,,,,,,,,,,,,,,,,,,,,,,,,,,,0,0,0,0,0,0,0,0,0,0,0,0,0,0,0,0,,,,,,,,,,,
308,589858,1745095302322,0.0,204.5,,-0.03,0.03,1.0,0.0,0.0,0.0,1.0,1.14,88.0,2717.0,9.2,3.69,,13.53,1.213,95.2,,28.4,5.0,,,,,,,,,,,,0,0,0,0,0,0,0,0,0,0,0,0,0,0,0,0,,,,,0.0,,,,,,
309,589878,1745095302342,,,,,,,,,,,,,,,,,,,,,,,0.0,0.0,0.0,0.0,0.0,0.0,0.0,0.0,2.26,,,0,0,0,0,0,0,0,0,0,0,0,0,0,0,0,0,0.0,,,,,39.240089,-77.965401,0.05,32.0,3.0,0.8
310,589898,1745095302362,0.0,204.5,,-0.02,0.02,1.02,0.0,0.0,0.0,1.02,1.14,90.0,2589.0,9.2,3.71,,13.57,1.251,95.2,,28.4,5.0,,,,,,,,,,,,0,0,0,0,0,0,0,0,0,0,0,0,0,0,0,0,,,,,0.0,,,,,,
311,589918,1745095302382,,,,,,,,,,,,,,,,,,,,,,,,,,,,,,,,,,0,0,0,0,0,0,0,0,0,0,0,0,0,0,0,0,,,,,,,,,,,
312,589938,1745095302402,0.0,204.63,,-0.03,0.05,1.0,0.0,0.0,0.0,1.0,1.14,88.0,2635.0,9.2,3.71,,13.55,1.25,95.2,,28.6,5.0,,,,,,,,,,,,0,0,0,0,0,0,0,0,0,0,0,0,0,0,0,0,,,,,0.0,,,,,,
313,589958,1745095302422,,,,,,,,,,,,,,,,,,,,,,,,,,,,,,,,,,0,0,0,0,0,0,0,0,0,0,0,0,0,0,0,0,,,,,,,,,,,
314,589978,1745095302442,0.0,204.63,,-0.04,0.05,1.02,0.0,0.0,0.0,1.02,1.14,89.0,2624.0,9.2,3.71,,13.55,1.25,95.2,,28.6,5.0,0.0,0.0,0.0,0.0,0.0,0.0,0.0,0.0,2.26,,,0,0,0,0,0,0,0,0,0,0,0,0,0,0,0,0,0.0,,,,0.0,39.240089,-77.965401,0.04,32.0,3.0,0.8
315,589998,1745095302462,,,,,,,,,,,,,,,,,,,,,,,,,,,,,,,,,,0,0,0,0,0,0,0,0,0,0,0,0,0,0,0,0,,,,,,,,,,,
316,590018,1745095302482,0.0,204.63,,-0.03,0.06,0.99,0.0,0.0,0.0,0.99,1.14,87.0,2624.0,9.2,3.71,,13.59,1.249,95.2,,28.6,5.0,,,,,,,,,,,,0,0,0,0,0,0,0,0,0,0,0,0,0,0,0,0,,,,,0.0,,,,,,
317,590038,1745095302504,,,,,,,,,,,,,,,,,,,,,,,,,,,,,,,,,,0,0,0,0,0,0,0,0,0,0,0,0,0,0,0,0,,,,,,,,,,,
318,590058,1745095302524,0.0,204.5,,-0.03,0.06,1.0,0.0,0.0,0.0,1.01,1.14,88.0,2550.0,9.1,3.7,,13.59,1.249,95.2,,28.6,5.0,,,,,,,,,,,,0,0,0,0,0,0,0,0,0,0,0,0,0,0,0,0,,,,,0.0,,,,,,
319,590078,1745095302544,,,,,,,,,,,,,,,,,,,,,,,0.0,0.0,0.0,0.0,0.0,0.0,0.0,0.0,2.26,,,0,0,0,0,0,0,0,0,0,0,0,0,0,0,0,0,0.0,,,,,39.240089,-77.965401,0.07,32.0,3.0,0.8
320,590098,1745095302564,0.0,204.5,,-0.04,0.05,1.01,0.0,0.0,0.0,1.01,1.14,89.0,2632.0,8.9,3.71,,13.52,1.249,95.2,,28.6,5.0,,,,,,,,,,,,0,0,0,0,0,0,0,0,0,0,0,0,0,0,0,0,,,,,0.0,,,,,,
321,590118,1745095302584,,,,,,,,,,,,,,,,,,,,,,,,,,,,,,,,,,0,0,0,0,0,0,0,0,0,0,0,0,0,0,0,0,,,,,,,,,,,
322,590138,1745095302604,0.0,204.63,,-0.03,0.03,1.0,0.0,0.0,0.0,1.0,1.14,88.0,2679.0,8.9,3.69,,13.51,1.249,95.2,,28.6,5.0,,,,,,,,,,,,0,0,0,0,0,0,0,0,0,0,0,0,0,0,0,0,,,,,0.0,,,,,,
323,590158,1745095302624,,,,,,,,,,,,,,,,,,,,,,,,,,,,,,,,,,0,0,0,0,0,0,0,0,0,0,0,0,0,0,0,0,,,,,,,,,,,
324,590178,1745095302644,0.0,204.63,,-0.04,0.02,1.01,0.0,0.0,0.0,1.01,1.14,88.0,2721.0,8.9,3.69,,13.51,1.249,95.2,,28.6,5.0,0.0,0.0,0.0,0.0,0.0,0.0,0.0,0.0,2.26,,,0,0,0,0,0,0,0,0,0,0,0,0,0,0,0,0,0.0,,,,0.0,39.240089,-77.965401,0.0,32.0,3.0,0.8
325,590198,1745095302664,,,,,,,,,,,,,,,,,,,,,,,,,,,,,,,,,,0,0,0,0,0,0,0,0,0,0,0,0,0,0,0,0,,,,,,,,,,,
326,590218,1745095302684,0.0,204.63,,-0.03,0.02,0.97,0.0,0.0,0.0,0.97,1.14,85.0,2721.0,8.9,3.69,,13.48,1.251,95.2,,28.8,5.0,,,,,,,,,,,,0,0,0,0,0,0,0,0,0,0,0,0,0,0,0,0,,,,,0.0,,,,,,
327,590238,1745095302705,,,,,,,,,,,,,,,,,,,,,,,,,,,,,,,,,,0,0,0,0,0,0,0,0,0,0,0,0,0,0,0,0,,,,,,,,,,,
328,590258,1745095302725,0.0,204.63,,-0.03,-0.01,1.02,0.0,0.0,0.0,1.02,1.14,89.0,2753.0,8.9,3.71,,13.47,1.251,95.2,,28.8,5.0,,,,,,,,,,,,0,0,0,0,0,0,0,0,0,0,0,0,0,0,0,0,,,,,0.0,,,,,,
329,590278,1745095302745,,,,,,,,,,,,,,,,,,,,,,,0.0,0.0,0.0,0.0,0.0,0.0,0.0,0.0,2.26,,,0,0,0,0,0,0,0,0,0,0,0,0,0,0,0,0,0.0,,,,,39.240089,-77.965401,0.0,32.0,3.0,0.8
330,590298,1745095302765,0.0,204.5,,-0.04,0.0,1.0,0.0,0.0,0.0,1.0,1.14,88.0,2761.0,9.0,3.71,,13.48,1.252,95.2,,28.8,5.0,,,,,,,,,,,,0,0,0,0,0,0,0,0,0,0,0,0,0,0,0,0,,,,,0.0,,,,,,
331,590318,1745095302785,,,,,,,,,,,,,,,,,,,,,,,,,,,,,,,,,,0,0,0,0,0,0,0,0,0,0,0,0,0,0,0,0,,,,,,,,,,,
332,590338,1745095302804,0.0,204.63,,-0.04,0.01,0.99,0.0,0.0,0.0,0.99,1.14,87.0,2704.0,9.1,3.72,,13.51,1.252,95.2,,29.6,5.0,,,,,,,,,,,,0,0,0,0,0,0,0,0,0,0,0,0,0,0,0,0,,,,,0.0,,,,,,
333,590358,1745095302824,,,,,,,,,,,,,,,,,,,,,,,,,,,,,,,,,,0,0,0,0,0,0,0,0,0,0,0,0,0,0,0,0,,,,,,,,,,,
334,590378,1745095302844,0.0,204.63,13.51,-0.03,-0.0,1.03,0.0,0.0,0.0,1.03,1.14,90.0,2685.0,9.1,3.72,15.0,13.51,1.252,95.2,140.0,29.6,5.0,0.0,0.0,0.0,0.0,0.0,0.0,0.0,0.0,2.26,0.0,0.0,0,0,0,0,0,0,0,0,0,0,0,0,0,0,0,0,0.0,0.0,0.0,0.0,0.0,39.240089,-77.965401,0.04,32.0,3.0,0.8
335,590398,1745095302864,,,,,,,,,,,,,,,,,,,,,,,,,,,,,,,,,,0,0,0,0,0,0,0,0,0,0,0,0,0,0,0,0,,,,,,,,,,,
336,590418,1745095302884,0.0,204.5,,-0.03,0.01,0.99,0.0,0.0,0.0,0.99,1.14,87.0,2685.0,9.1,3.72,,13.49,1.252,95.2,,30.2,5.0,,,,,,,,,,,,0,0,0,0,0,0,0,0,0,0,0,0,0,0,0,0,,,,,0.0,,,,,,
337,590438,1745095302904,,,,,,,,,,,,,,,,,,,,,,,,,,,,,,,,,,0,0,0,0,0,0,0,0,0,0,0,0,0,0,0,0,,,,,,,,,,,
338,590458,1745095302924,0.0,204.5,,-0.03,0.01,0.97,0.0,0.0,0.0,0.97,1.14,85.0,2747.0,9.1,3.72,,13.52,1.25,95.2,,30.2,5.0,,,,,,,,,,,,0,0,0,0,0,0,0,0,0,0,0,0,0,0,0,0,,,,,0.0,,,,,,
339,590478,1745095302944,,,,,,,,,,,,,,,,,,,,,,,0.0,0.0,0.0,0.0,0.0,0.0,0.0,0.0,2.26,,,0,0,0,0,0,0,0,0,0,0,0,0,0,0,0,0,0.0,,,,,39.240089,-77.965401,0.0,32.0,3.0,0.8
340,590498,1745095302964,0.0,204.5,,-0.04,0.0,1.0,0.0,0.0,0.0,1.0,1.14,88.0,2772.0,9.1,3.72,,13.45,1.249,95.2,,30.2,5.0,,,,,,,,,,,,0,0,0,0,0,0,0,0,0,0,0,0,0,0,0,0,,,,,0.0,,,,,,
341,590518,1745095302984,,,,,,,,,,,,,,,,,,,,,,,,,,,,,,,,,,0,0,0,0,0,0,0,0,0,0,0,0,0,0,0,0,,,,,,,,,,,
342,590538,1745095302995,0.0,204.5,,-0.04,0.02,0.98,0.0,0.0,0.0,0.98,1.14,86.0,2765.0,9.0,3.71,,13.44,1.248,95.2,,29.5,5.0,,,,,,,,,,,,0,0,0,0,0,0,0,0,0,0,0,0,0,0,0,0,,,,,0.0,,,,,,
343,590558,1745095303015,,,,,,,,,,,,,,,,,,,,,,,,,,,,,,,,,,0,0,0,0,0,0,0,0,0,0,0,0,0,0,0,0,,,,,,,,,,,
344,590578,1745095303035,0.0,204.5,,-0.04,0.02,0.95,0.0,0.0,0.0,0.95,1.14,83.0,2797.0,9.0,3.71,,13.44,1.248,95.2,,29.5,5.0,0.0,0.0,0.0,0.0,0.0,0.0,0.0,0.0,2.26,,,0,0,0,0,0,0,0,0,0,0,0,0,0,0,0,0,0.0,,,,0.0,39.240089,-77.965401,0.04,33.0,3.0,0.8
345,590598,1745095303055,,,,,,,,,,,,,,,,,,,,,,,,,,,,,,,,,,0,0,0,0,0,0,0,0,0,0,0,0,0,0,0,0,,,,,,,,,,,
346,590618,1745095303075,0.0,204.5,,-0.04,0.01,1.0,0.0,0.0,0.0,1.0,1.14,88.0,2797.0,9.0,3.71,,13.44,1.248,95.2,,30.0,5.0,,,,,,,,,,,,0,0,0,0,0,0,0,0,0,0,0,0,0,0,0,0,,,,,0.0,,,,,,
347,590638,1745095303097,,,,,,,,,,,,,,,,,,,,,,,,,,,,,,,,,,0,0,0,0,0,0,0,0,0,0,0,0,0,0,0,0,,,,,,,,,,,
348,590658,1745095303117,0.0,204.5,,-0.05,-0.02,1.03,0.0,0.0,0.0,1.03,1.14,91.0,2778.0,8.9,3.72,,13.45,1.248,95.2,,30.0,5.0,,,,,,,,,,,,0,0,0,0,0,0,0,0,0,0,0,0,0,0,0,0,,,,,0.0,,,,,,
349,590678,1745095303137,,,,,,,,,,,,,,,,,,,,,,,0.0,0.0,0.0,0.0,0.0,0.0,0.0,0.0,2.26,,,0,0,0,0,0,0,0,0,0,0,0,0,0,0,0,0,0.0,,,,,39.240089,-77.965401,0.08,33.0,3.0,0.8
350,590698,1745095303157,0.0,204.5,,-0.04,0.02,1.01,0.0,0.0,0.0,1.01,1.14,89.0,2828.0,8.9,3.74,,13.41,1.25,95.2,,30.0,5.0,,,,,,,,,,,,0,0,0,0,0,0,0,0,0,0,0,0,0,0,0,0,,,,,0.0,,,,,,
351,590718,1745095303177,,,,,,,,,,,,,,,,,,,,,,,,,,,,,,,,,,0,0,0,0,0,0,0,0,0,0,0,0,0,0,0,0,,,,,,,,,,,
352,590738,1745095303201,0.0,204.63,,-0.02,0.05,0.95,0.0,0.0,0.0,0.95,1.14,83.0,2830.0,8.9,3.75,,13.45,1.251,95.2,,31.3,5.0,,,,,,,,,,,,0,0,0,0,0,0,0,0,0,0,0,0,0,0,0,0,,,,,0.0,,,,,,
353,590758,1745095303221,,,,,,,,,,,,,,,,,,,,,,,,,,,,,,,,,,0,0,0,0,0,0,0,0,0,0,0,0,0,0,0,0,,,,,,,,,,,
354,590778,1745095303241,0.0,204.63,,-0.02,0.03,0.92,0.0,0.0,0.0,0.92,1.14,80.0,2906.0,8.8,3.73,,13.45,1.251,95.2,,31.3,5.0,0.0,0.0,0.0,0.0,0.0,0.0,0.0,0.0,2.26,,,0,0,0,0,0,0,0,0,0,0,0,0,0,0,0,0,0.0,,,,0.0,39.240089,-77.965401,0.0,33.0,3.0,0.8
355,590798,1745095303261,,,,,,,,,,,,,,,,,,,,,,,,,,,,,,,,,,0,0,0,0,0,0,0,0,0,0,0,0,0,0,0,0,,,,,,,,,,,
356,590818,1745095303281,0.0,204.63,,-0.04,-0.0,0.94,0.0,0.0,0.0,0.95,1.14,83.0,2906.0,8.8,3.73,,13.36,1.251,95.2,,30.9,5.0,,,,,,,,,,,,0,0,0,0,0,0,0,0,0,0,0,0,0,0,0,0,,,,,0.0,,,,,,
357,590838,1745095303303,,,,,,,,,,,,,,,,,,,,,,,,,,,,,,,,,,0,0,0,0,0,0,0,0,0,0,0,0,0,0,0,0,,,,,,,,,,,
358,590858,1745095303323,0.0,204.63,,-0.06,-0.0,1.01,0.0,0.0,0.0,1.02,1.14,89.0,2903.0,8.9,3.73,,13.35,1.25,95.2,,30.9,5.0,,,,,,,,,,,,0,0,0,0,0,0,0,0,0,0,0,0,0,0,0,0,,,,,0.0,,,,,,
359,590878,1745095303343,,,,,,,,,,,,,,,,,,,,,,,0.0,0.0,0.0,0.0,0.0,0.0,0.0,0.0,2.26,,,0,0,0,0,0,0,0,0,0,0,0,0,0,0,0,0,0.0,,,,,39.240089,-77.965401,0.11,33.0,3.0,0.8
360,590898,1745095303363,0.0,204.63,,-0.07,-0.02,1.06,0.0,0.0,0.0,1.07,1.14,93.0,2881.0,9.0,3.75,,13.33,1.251,95.2,,30.9,5.0,,,,,,,,,,,,0,0,0,0,0,0,0,0,0,0,0,0,0,0,0,0,,,,,0.0,,,,,,
361,590918,1745095303383,,,,,,,,,,,,,,,,,,,,,,,,,,,,,,,,,,0,0,0,0,0,0,0,0,0,0,0,0,0,0,0,0,,,,,,,,,,,
362,590938,1745095303403,0.0,204.63,,-0.06,-0.03,1.08,0.0,0.0,0.0,1.08,1.14,95.0,2889.0,9.0,3.76,,13.37,1.25,95.2,,31.7,5.0,,,,,,,,,,,,0,0,0,0,0,0,0,0,0,0,0,0,0,0,0,0,,,,,0.0,,,,,,
363,590958,1745095303423,,,,,,,,,,,,,,,,,,,,,,,,,,,,,,,,,,0,0,0,0,0,0,0,0,0,0,0,0,0,0,0,0,,,,,,,,,,,
364,590978,1745095303443,0.0,204.63,,-0.04,-0.0,1.08,-1.0,0.0,1.0,1.08,1.14,94.0,2921.0,9.0,3.77,,13.37,1.25,95.2,,31.7,5.0,0.0,0.0,0.0,0.0,0.0,0.0,0.0,0.0,2.26,,,0,0,0,0,0,0,0,0,0,0,0,0,0,0,0,0,0.0,,,,0.0,39.240089,-77.965401,0.07,33.0,3.0,0.8
365,590998,1745095303463,,,,,,,,,,,,,,,,,,,,,,,,,,,,,,,,,,0,0,0,0,0,0,0,0,0,0,0,0,0,0,0,0,,,,,,,,,,,
366,591018,1745095303483,0.0,204.63,,-0.02,0.03,1.08,-1.0,0.0,1.0,1.08,1.14,95.0,2921.0,9.0,3.77,,13.35,1.249,95.2,,32.4,5.0,,,,,,,,,,,,0,0,0,0,0,0,0,0,0,0,0,0,0,0,0,0,,,,,0.0,,,,,,
367,591038,1745095303505,,,,,,,,,,,,,,,,,,,,,,,,,,,,,,,,,,0,0,0,0,0,0,0,0,0,0,0,0,0,0,0,0,,,,,,,,,,,
368,591058,1745095303525,0.0,204.5,,-0.0,0.05,1.1,-1.0,0.0,1.0,1.1,1.14,96.0,3032.0,9.0,3.77,,13.27,1.248,95.2,,32.4,5.0,,,,,,,,,,,,0,0,0,0,0,0,0,0,0,0,0,0,0,0,0,0,,,,,0.0,,,,,,
369,591078,1745095303545,,,,,,,,,,,,,,,,,,,,,,,0.0,0.0,0.0,0.0,0.0,0.0,0.0,0.0,2.26,,,0,0,0,0,0,0,0,0,0,0,0,0,0,0,0,0,0.0,,,,,39.240089,-77.965401,0.08,33.0,3.0,0.8
370,591098,1745095303565,0.0,204.5,,0.01,0.03,1.12,-1.0,0.0,1.0,1.12,1.14,98.0,3053.0,8.9,3.77,,13.24,1.248,95.2,,32.4,5.0,,,,,,,,,,,,0,0,0,0,0,0,0,0,0,0,0,0,0,0,0,0,,,,,0.0,,,,,,
371,591118,1745095303585,,,,,,,,,,,,,,,,,,,,,,,,,,,,,,,,,,0,0,0,0,0,0,0,0,0,0,0,0,0,0,0,0,,,,,,,,,,,
372,591138,1745095303603,0.0,204.63,,0.01,-0.02,1.16,-1.0,0.0,1.0,1.16,1.16,100.0,3026.0,8.5,3.76,,13.23,1.248,95.2,,33.5,5.0,,,,,,,,,,,,0,0,0,0,0,0,0,0,0,0,0,0,0,0,0,0,,,,,0.0,,,,,,
373,591158,1745095303623,,,,,,,,,,,,,,,,,,,,,,,,,,,,,,,,,,0,0,0,0,0,0,0,0,0,0,0,0,0,0,0,0,,,,,,,,,,,
374,591178,1745095303643,0.0,204.63,,-0.01,-0.08,1.21,-1.0,0.0,1.0,1.21,1.21,100.0,3112.0,8.1,3.75,,13.23,1.248,95.2,,33.5,5.0,0.0,0.0,0.0,0.0,0.0,0.0,0.0,0.0,2.26,,,0,0,0,0,0,0,0,0,0,0,0,0,0,0,0,0,0.0,,,,0.0,39.240089,-77.965401,0.07,33.0,3.0,0.8
375,591198,1745095303663,,,,,,,,,,,,,,,,,,,,,,,,,,,,,,,,,,0,0,0,0,0,0,0,0,0,0,0,0,0,0,0,0,,,,,,,,,,,
376,591218,1745095303683,0.0,204.63,,-0.03,-0.12,1.24,-1.0,0.0,1.0,1.25,1.25,100.0,3112.0,8.1,3.75,,13.13,1.249,95.2,,33.3,5.0,,,,,,,,,,,,0,0,0,0,0,0,0,0,0,0,0,0,0,0,0,0,,,,,0.0,,,,,,
377,591238,1745095303703,,,,,,,,,,,,,,,,,,,,,,,,,,,,,,,,,,0,0,0,0,0,0,0,0,0,0,0,0,0,0,0,0,,,,,,,,,,,
378,591258,1745095303723,0.0,204.5,,-0.06,-0.09,1.19,0.0,0.0,0.0,1.2,1.25,96.0,3400.0,8.0,3.75,,13.08,1.25,95.2,,33.3,5.0,,,,,,,,,,,,0,0,0,0,0,0,0,0,0,0,0,0,0,0,0,0,,,,,0.0,,,,,,
379,591278,1745095303743,,,,,,,,,,,,,,,,,,,,,,,0.0,0.0,0.0,0.0,0.0,0.0,0.0,0.0,2.26,,,0,0,0,0,0,0,0,0,0,0,0,0,0,0,0,0,0.0,,,,,39.240089,-77.965401,0.11,33.0,3.0,0.8
380,591298,1745095303763,0.0,204.5,,-0.07,-0.07,1.12,0.0,0.0,0.0,1.13,1.25,90.0,3030.0,8.1,3.73,,13.05,1.25,95.2,,33.3,5.0,,,,,,,,,,,,0,0,0,0,0,0,0,0,0,0,0,0,0,0,0,0,,,,,0.0,,,,,,
381,591318,1745095303783,,,,,,,,,,,,,,,,,,,,,,,,,,,,,,,,,,0,0,0,0,0,0,0,0,0,0,0,0,0,0,0,0,,,,,,,,,,,
382,591338,1745095303803,0.0,204.63,,-0.08,-0.05,1.05,0.0,0.0,0.0,1.05,1.25,84.0,2981.0,8.1,3.75,,13.17,1.251,95.2,,33.0,5.0,,,,,,,,,,,,0,0,0,0,0,0,0,0,0,0,0,0,0,0,0,0,,,,,0.0,,,,,,
383,591358,1745095303823,,,,,,,,,,,,,,,,,,,,,,,,,,,,,,,,,,0,0,0,0,0,0,0,0,0,0,0,0,0,0,0,0,,,,,,,,,,,
384,591378,1745095303843,0.0,204.63,13.53,-0.09,-0.04,1.01,0.0,0.0,0.0,1.01,1.25,81.0,2982.0,8.2,3.73,15.0,13.17,1.251,95.2,140.0,33.0,5.0,0.0,0.0,0.0,0.0,0.0,0.0,0.0,0.0,2.26,0.0,0.0,0,0,0,0,0,0,0,0,0,0,0,0,0,0,0,0,0.0,0.0,0.0,0.0,0.0,39.240089,-77.965401,0.04,33.0,3.0,0.8
385,591398,1745095303863,,,,,,,,,,,,,,,,,,,,,,,,,,,,,,,,,,0,0,0,0,0,0,0,0,0,0,0,0,0,0,0,0,,,,,,,,,,,
386,591418,1745095303883,0.0,204.63,,-0.1,-0.04,1.01,0.0,0.0,0.0,1.01,1.25,81.0,2982.0,8.2,3.73,,13.17,1.251,95.2,,31.8,5.0,,,,,,,,,,,,0,0,0,0,0,0,0,0,0,0,0,0,0,0,0,0,,,,,0.0,,,,,,
