,Interval,Utc,FrontBP,SteerAng,Battery,AccelX,AccelY,AccelZ,Yaw,Pitch,Roll,Gsum,GsumMax,GsumPct,RPM,TPS,InjectorPW,Baro,MAP,Lambda,IAT,EngineTemp,EOP,EOT,WSFR,WSFL,WSRR,WSRL,TCSet,TCSlip,TCComp,TCCut,Analog8,OilTemp,AA_On,ThermLF1,ThermLF2,ThermRR1,ThermRR2,ThermLF3,ThermLF4,ThermLF5,ThermLF6,ThermLF7,ThermLF8,ThermRR3,ThermRR4,ThermRR5,ThermRR6,ThermRR7,ThermRR8,Gear,AA_On1,AA_LowDrag,Fuel_Mix,AA_Packages,Latitude,Longitude,Speed,GPSSats,GPSQual,GPSDOP
0,632398,1745095344864,,,,,,,,,,,,,,,,,,,,,,,,,,,,,,,,,,0,0,0,0,0,0,0,0,0,0,0,0,0,0,0,0,,,,,,,,,,,
1,632418,1745095344884,7.67,202.36,,-0.01,0.06,1.01,0.0,0.0,0.0,1.01,1.01,100.0,4730.0,8.2,3.61,,12.04,1.052,95.2,,52.8,5.0,,,,,,,,,,,,0,0,0,0,0,0,0,0,0,0,0,0,0,0,0,0,,,,,0.0,,,,,,
2,632438,1745095344904,,,,,,,,,,,,,,,,,,,,,,,,,,,,,,,,,,0,0,0,0,0,0,0,0,0,0,0,0,0,0,0,0,,,,,,,,,,,
3,632458,1745095344924,6.41,202.24,,0.01,0.04,0.96,0.0,0.0,0.0,0.96,1.01,96.0,4730.0,8.2,3.61,,11.91,0.945,95.2,,52.8,5.0,,,,,,,,,,,,0,0,0,0,0,0,0,0,0,0,0,0,0,0,0,0,,,,,0.0,,,,,,
4,632478,1745095344944,,,,,,,,,,,,,,,,,,,,,,,0.0,0.0,0.0,0.0,0.0,0.0,0.0,0.0,2.26,,,0,0,0,0,0,0,0,0,0,0,0,0,0,0,0,0,0.0,,,,,39.239765,-77.965752,0.08,34.0,3.0,0.8
5,632498,1745095344964,7.04,202.24,,-0.01,0.07,1.03,0.0,0.0,0.0,1.03,1.03,100.0,4757.0,8.1,3.6,,11.83,0.908,95.2,,52.9,5.0,,,,,,,,,,,,0,0,0,0,0,0,0,0,0,0,0,0,0,0,0,0,,,,,0.0,,,,,,
6,632518,1745095344984,,,,,,,,,,,,,,,,,,,,,,,,,,,,,,,,,,0,0,0,0,0,0,0,0,0,0,0,0,0,0,0,0,,,,,,,,,,,
7,632538,1745095344995,7.04,202.24,,-0.04,0.03,1.0,0.0,0.0,0.0,1.0,1.03,97.0,4806.0,8.1,3.58,,11.79,0.924,95.2,,52.9,5.0,,,,,,,,,,,,0,0,0,0,0,0,0,0,0,0,0,0,0,0,0,0,,,,,0.0,,,,,,
8,632558,1745095345015,,,,,,,,,,,,,,,,,,,,,,,,,,,,,,,,,,0,0,0,0,0,0,0,0,0,0,0,0,0,0,0,0,,,,,,,,,,,
9,632578,1745095345035,8.92,202.24,,0.0,0.02,1.01,0.0,0.0,0.0,1.01,1.03,98.0,4800.0,8.2,3.56,,11.73,0.968,95.2,,52.9,5.0,0.0,0.0,0.0,0.0,0.0,0.0,0.0,0.0,2.26,,,0,0,0,0,0,0,0,0,0,0,0,0,0,0,0,0,0.0,,,,0.0,39.239765,-77.965752,0.05,34.0,3.0,0.8
10,632598,1745095345055,,,,,,,,,,,,,,,,,,,,,,,,,,,,,,,,,,0,0,0,0,0,0,0,0,0,0,0,0,0,0,0,0,,,,,,,,,,,
11,632618,1745095345075,8.3,202.24,,-0.05,0.07,1.03,-1.0,0.0,0.0,1.03,1.03,100.0,4812.0,8.2,3.57,,11.73,0.968,95.2,,53.6,5.0,,,,,,,,,,,,0,0,0,0,0,0,0,0,0,0,0,0,0,0,0,0,,,,,0.0,,,,,,
12,632638,1745095345099,,,,,,,,,,,,,,,,,,,,,,,,,,,,,,,,,,0,0,0,0,0,0,0,0,0,0,0,0,0,0,0,0,,,,,,,,,,,
13,632658,1745095345119,7.04,202.11,,-0.01,0.03,0.99,0.0,0.0,0.0,0.99,1.03,96.0,4812.0,8.2,3.57,,11.73,0.992,95.2,,53.6,5.0,,,,,,,,,,,,0,0,0,0,0,0,0,0,0,0,0,0,0,0,0,0,,,,,0.0,,,,,,
14,632678,1745095345139,,,,,,,,,,,,,,,,,,,,,,,0.0,0.0,0.0,0.0,0.0,0.0,0.0,0.0,2.26,,,0,0,0,0,0,0,0,0,0,0,0,0,0,0,0,0,0.0,,,,,39.239765,-77.965752,0.04,34.0,3.0,0.8
15,632698,1745095345159,7.04,202.11,,-0.05,0.07,1.04,-1.0,0.0,0.0,1.04,1.04,100.0,4833.0,8.2,3.55,,11.72,0.996,95.2,,53.8,5.0,,,,,,,,,,,,0,0,0,0,0,0,0,0,0,0,0,0,0,0,0,0,,,,,0.0,,,,,,
16,632718,1745095345179,,,,,,,,,,,,,,,,,,,,,,,,,,,,,,,,,,0,0,0,0,0,0,0,0,0,0,0,0,0,0,0,0,,,,,,,,,,,
17,632738,1745095345201,7.04,202.11,,-0.02,0.01,0.98,0.0,0.0,0.0,0.98,1.04,95.0,4843.0,8.1,3.53,,11.68,1.003,95.2,,53.8,5.0,,,,,,,,,,,,0,0,0,0,0,0,0,0,0,0,0,0,0,0,0,0,,,,,0.0,,,,,,
18,632758,1745095345221,,,,,,,,,,,,,,,,,,,,,,,,,,,,,,,,,,0,0,0,0,0,0,0,0,0,0,0,0,0,0,0,0,,,,,,,,,,,
19,632778,1745095345241,7.04,201.99,,-0.07,0.03,1.03,-1.0,0.0,0.0,1.03,1.04,99.0,4940.0,8.0,3.53,,11.73,1.029,95.2,,53.8,5.0,0.0,0.0,0.0,0.0,0.0,0.0,0.0,0.0,2.26,,,0,0,0,0,0,0,0,0,0,0,0,0,0,0,0,0,0.0,,,,0.0,39.239765,-77.965752,0.04,34.0,3.0,0.8
20,632798,1745095345261,,,,,,,,,,,,,,,,,,,,,,,,,,,,,,,,,,0,0,0,0,0,0,0,0,0,0,0,0,0,0,0,0,,,,,,,,,,,
21,632818,1745095345281,7.04,201.99,,-0.02,0.01,0.98,0.0,0.0,0.0,0.98,1.04,94.0,4925.0,8.0,3.52,,11.73,1.029,95.2,,53.9,5.0,,,,,,,,,,,,0,0,0,0,0,0,0,0,0,0,0,0,0,0,0,0,,,,,0.0,,,,,,
22,632838,1745095345303,,,,,,,,,,,,,,,,,,,,,,,,,,,,,,,,,,0,0,0,0,0,0,0,0,0,0,0,0,0,0,0,0,,,,,,,,,,,
23,632858,1745095345323,8.3,202.11,,-0.08,0.03,0.99,0.0,0.0,0.0,0.99,1.04,95.0,4925.0,8.0,3.52,,11.79,0.983,95.2,,53.9,5.0,,,,,,,,,,,,0,0,0,0,0,0,0,0,0,0,0,0,0,0,0,0,,,,,0.0,,,,,,
24,632878,1745095345343,,,,,,,,,,,,,,,,,,,,,,,0.0,0.0,0.0,0.0,0.0,0.0,0.0,0.0,2.26,,,0,0,0,0,0,0,0,0,0,0,0,0,0,0,0,0,0.0,,,,,39.239765,-77.965752,0.05,34.0,3.0,0.8
25,632898,1745095345363,7.67,202.11,,-0.02,0.02,0.97,0.0,0.0,0.0,0.97,1.04,94.0,4873.0,8.1,3.51,,11.71,0.917,95.2,,53.6,5.0,,,,,,,,,,,,0,0,0,0,0,0,0,0,0,0,0,0,0,0,0,0,,,,,0.0,,,,,,
26,632918,1745095345383,,,,,,,,,,,,,,,,,,,,,,,,,,,,,,,,,,0,0,0,0,0,0,0,0,0,0,0,0,0,0,0,0,,,,,,,,,,,
27,632938,1745095345403,5.78,202.11,,-0.07,0.07,1.01,0.0,0.0,0.0,1.02,1.04,98.0,4827.0,8.2,3.51,,11.72,0.924,95.2,,53.6,5.0,,,,,,,,,,,,0,0,0,0,0,0,0,0,0,0,0,0,0,0,0,0,,,,,0.0,,,,,,
28,632958,1745095345423,,,,,,,,,,,,,,,,,,,,,,,,,,,,,,,,,,0,0,0,0,0,0,0,0,0,0,0,0,0,0,0,0,,,,,,,,,,,
29,632978,1745095345443,7.04,202.11,,-0.03,0.02,0.98,0.0,0.0,0.0,0.98,1.04,95.0,4876.0,8.2,3.51,,11.77,0.967,95.2,,53.6,5.0,0.0,0.0,0.0,0.0,0.0,0.0,0.0,0.0,2.26,,,0,0,0,0,0,0,0,0,0,0,0,0,0,0,0,0,0.0,,,,0.0,39.239765,-77.965752,0.07,34.0,3.0,0.8
30,632998,1745095345463,,,,,,,,,,,,,,,,,,,,,,,,,,,,,,,,,,0,0,0,0,0,0,0,0,0,0,0,0,0,0,0,0,,,,,,,,,,,
31,633018,1745095345483,7.04,202.11,,-0.07,0.04,1.01,0.0,0.0,0.0,1.02,1.04,98.0,4893.0,8.2,3.49,,11.77,0.967,95.2,,54.6,5.0,,,,,,,,,,,,0,0,0,0,0,0,0,0,0,0,0,0,0,0,0,0,,,,,0.0,,,,,,
32,633038,1745095345503,,,,,,,,,,,,,,,,,,,,,,,,,,,,,,,,,,0,0,0,0,0,0,0,0,0,0,0,0,0,0,0,0,,,,,,,,,,,
33,633058,1745095345523,5.78,202.11,,-0.04,0.02,1.01,0.0,0.0,0.0,1.01,1.04,97.0,4893.0,8.2,3.49,,11.65,0.962,95.2,,54.6,5.0,,,,,,,,,,,,0,0,0,0,0,0,0,0,0,0,0,0,0,0,0,0,,,,,0.0,,,,,,
34,633078,1745095345543,,,,,,,,,,,,,,,,,,,,,,,0.0,0.0,0.0,0.0,0.0,0.0,0.0,0.0,2.25,,,0,0,0,0,0,0,0,0,0,0,0,0,0,0,0,0,0.0,,,,,39.239765,-77.965752,0.1,34.0,3.0,0.8
35,633098,1745095345563,5.15,201.99,,-0.09,0.05,1.0,0.0,0.0,0.0,1.01,1.04,97.0,4933.0,8.2,3.47,,11.64,0.922,95.2,,54.7,5.0,,,,,,,,,,,,0,0,0,0,0,0,0,0,0,0,0,0,0,0,0,0,,,,,0.0,,,,,,
36,633118,1745095345583,,,,,,,,,,,,,,,,,,,,,,,,,,,,,,,,,,0,0,0,0,0,0,0,0,0,0,0,0,0,0,0,0,,,,,,,,,,,
37,633138,1745095345603,4.52,201.86,,-0.05,0.04,0.99,0.0,0.0,0.0,0.99,1.04,96.0,4918.0,8.2,3.47,,11.64,0.952,95.2,,54.7,5.0,,,,,,,,,,,,0,0,0,0,0,0,0,0,0,0,0,0,0,0,0,0,,,,,0.0,,,,,,
38,633158,1745095345623,,,,,,,,,,,,,,,,,,,,,,,,,,,,,,,,,,0,0,0,0,0,0,0,0,0,0,0,0,0,0,0,0,,,,,,,,,,,
39,633178,1745095345643,5.15,201.99,,-0.07,0.04,0.97,0.0,0.0,0.0,0.98,1.04,94.0,4948.0,8.2,3.46,,11.6,0.987,95.2,,54.7,5.0,0.0,0.0,0.0,0.0,0.0,0.0,0.0,0.0,2.26,,,0,0,0,0,0,0,0,0,0,0,0,0,0,0,0,0,0.0,,,,0.0,39.239765,-77.965752,0.07,34.0,3.0,0.8
40,633198,1745095345663,,,,,,,,,,,,,,,,,,,,,,,,,,,,,,,,,,0,0,0,0,0,0,0,0,0,0,0,0,0,0,0,0,,,,,,,,,,,
41,633218,1745095345683,4.52,201.99,,-0.08,0.05,1.01,0.0,0.0,0.0,1.02,1.04,98.0,5021.0,8.1,3.46,,11.6,0.987,95.2,,55.2,5.0,,,,,,,,,,,,0,0,0,0,0,0,0,0,0,0,0,0,0,0,0,0,,,,,0.0,,,,,,
42,633238,1745095345703,,,,,,,,,,,,,,,,,,,,,,,,,,,,,,,,,,0,0,0,0,0,0,0,0,0,0,0,0,0,0,0,0,,,,,,,,,,,
43,633258,1745095345723,5.15,201.99,,-0.04,0.07,1.01,0.0,0.0,0.0,1.01,1.04,97.0,5021.0,8.1,3.46,,11.64,1.021,95.2,,55.2,5.0,,,,,,,,,,,,0,0,0,0,0,0,0,0,0,0,0,0,0,0,0,0,,,,,0.0,,,,,,
44,633278,1745095345743,,,,,,,,,,,,,,,,,,,,,,,0.0,0.0,0.0,0.0,0.0,0.0,0.0,0.0,2.26,,,0,0,0,0,0,0,0,0,0,0,0,0,0,0,0,0,0.0,,,,,39.239765,-77.965752,0.0,34.0,3.0,0.8
45,633298,1745095345763,4.52,201.99,,-0.03,0.05,1.0,0.0,0.0,0.0,1.01,1.04,97.0,5068.0,8.0,3.47,,11.68,0.955,95.2,,57.0,5.0,,,,,,,,,,,,0,0,0,0,0,0,0,0,0,0,0,0,0,0,0,0,,,,,0.0,,,,,,
46,633318,1745095345783,,,,,,,,,,,,,,,,,,,,,,,,,,,,,,,,,,0,0,0,0,0,0,0,0,0,0,0,0,0,0,0,0,,,,,,,,,,,
47,633338,1745095345805,5.15,201.99,,-0.04,0.04,1.0,0.0,0.0,0.0,1.0,1.04,96.0,5163.0,8.0,3.52,,11.61,0.915,95.2,,57.0,5.0,,,,,,,,,,,,0,0,0,0,0,0,0,0,0,0,0,0,0,0,0,0,,,,,0.0,,,,,,
48,633358,1745095345825,,,,,,,,,,,,,,,,,,,,,,,,,,,,,,,,,,0,0,0,0,0,0,0,0,0,0,0,0,0,0,0,0,,,,,,,,,,,
49,633378,1745095345845,4.52,201.99,13.42,-0.06,0.06,0.99,0.0,0.0,0.0,0.99,1.04,96.0,5148.0,8.0,3.51,15.0,11.57,0.895,95.2,147.0,57.0,5.0,0.0,0.0,0.0,0.0,0.0,0.0,0.0,0.0,2.26,0.0,0.0,0,0,0,0,0,0,0,0,0,0,0,0,0,0,0,0,0.0,0.0,0.0,0.0,0.0,39.239765,-77.965752,0.04,34.0,3.0,0.8
50,633398,1745095345865,,,,,,,,,,,,,,,,,,,,,,,,,,,,,,,,,,0,0,0,0,0,0,0,0,0,0,0,0,0,0,0,0,,,,,,,,,,,
51,633418,1745095345885,3.9,201.86,,-0.07,0.05,0.99,0.0,0.0,0.0,1.0,1.04,96.0,5120.0,8.2,3.5,,11.57,0.895,95.2,,56.8,5.0,,,,,,,,,,,,0,0,0,0,0,0,0,0,0,0,0,0,0,0,0,0,,,,,0.0,,,,,,
52,633438,1745095345905,,,,,,,,,,,,,,,,,,,,,,,,,,,,,,,,,,0,0,0,0,0,0,0,0,0,0,0,0,0,0,0,0,,,,,,,,,,,
53,633458,1745095345925,3.9,201.86,,-0.05,0.06,1.02,0.0,0.0,0.0,1.03,1.04,99.0,5120.0,8.2,3.5,,11.58,0.899,95.2,,56.8,5.0,,,,,,,,,,,,0,0,0,0,0,0,0,0,0,0,0,0,0,0,0,0,,,,,0.0,,,,,,
54,633478,1745095345945,,,,,,,,,,,,,,,,,,,,,,,0.0,0.0,0.0,0.0,0.0,0.0,0.0,0.0,2.26,,,0,0,0,0,0,0,0,0,0,0,0,0,0,0,0,0,0.0,,,,,39.239765,-77.965752,0.04,34.0,3.0,0.8
55,633498,1745095345965,4.52,201.86,,-0.04,0.07,1.01,0.0,0.0,0.0,1.01,1.04,97.0,4993.0,8.2,3.41,,11.52,0.939,95.2,,56.6,5.0,,,,,,,,,,,,0,0,0,0,0,0,0,0,0,0,0,0,0,0,0,0,,,,,0.0,,,,,,
56,633518,1745095345985,,,,,,,,,,,,,,,,,,,,,,,,,,,,,,,,,,0,0,0,0,0,0,0,0,0,0,0,0,0,0,0,0,,,,,,,,,,,
57,633538,1745095345996,3.9,201.86,,-0.05,0.02,0.98,0.0,0.0,0.0,0.98,1.04,95.0,5118.0,8.2,3.49,,11.58,0.979,95.2,,56.6,5.0,,,,,,,,,,,,0,0,0,0,0,0,0,0,0,0,0,0,0,0,0,0,,,,,0.0,,,,,,
58,633558,1745095346016,,,,,,,,,,,,,,,,,,,,,,,,,,,,,,,,,,0,0,0,0,0,0,0,0,0,0,0,0,0,0,0,0,,,,,,,,,,,
59,633578,1745095346036,3.9,201.86,,-0.05,0.09,0.99,0.0,0.0,0.0,1.0,1.04,96.0,5207.0,8.2,3.52,,11.65,0.969,95.2,,56.6,5.0,0.0,0.0,0.0,0.0,0.0,0.0,0.0,0.0,2.25,,,0,0,0,0,0,0,0,0,0,0,0,0,0,0,0,0,0.0,,,,0.0,39.239765,-77.965752,0.08,33.0,3.0,0.8
60,633598,1745095346056,,,,,,,,,,,,,,,,,,,,,,,,,,,,,,,,,,0,0,0,0,0,0,0,0,0,0,0,0,0,0,0,0,,,,,,,,,,,
61,633618,1745095346076,5.15,201.86,,-0.04,0.15,1.02,0.0,0.0,0.0,1.03,1.04,99.0,5207.0,8.2,3.52,,11.65,0.969,95.2,,59.1,5.0,,,,,,,,,,,,0,0,0,0,0,0,0,0,0,0,0,0,0,0,0,0,,,,,0.0,,,,,,
62,633638,1745095346102,,,,,,,,,,,,,,,,,,,,,,,,,,,,,,,,,,0,0,0,0,0,0,0,0,0,0,0,0,0,0,0,0,,,,,,,,,,,
63,633658,1745095346122,4.52,201.86,,-0.05,0.09,1.02,0.0,0.0,0.0,1.03,1.04,99.0,5343.0,8.2,3.59,,11.6,0.91,95.2,,59.1,5.0,,,,,,,,,,,,0,0,0,0,0,0,0,0,0,0,0,0,0,0,0,0,,,,,0.0,,,,,,
64,633678,1745095346142,,,,,,,,,,,,,,,,,,,,,,,0.0,0.0,0.0,0.0,0.0,0.0,0.0,0.0,2.26,,,0,0,0,0,0,0,0,0,0,0,0,0,0,0,0,0,0.0,,,,,39.239765,-77.965752,0.07,33.0,3.0,0.8
65,633698,1745095346162,6.41,201.86,,-0.06,0.05,0.95,0.0,0.0,0.0,0.95,1.04,92.0,5491.0,8.2,3.65,,11.45,0.875,95.2,,61.3,5.0,,,,,,,,,,,,0,0,0,0,0,0,0,0,0,0,0,0,0,0,0,0,,,,,0.0,,,,,,
66,633718,1745095346182,,,,,,,,,,,,,,,,,,,,,,,,,,,,,,,,,,0,0,0,0,0,0,0,0,0,0,0,0,0,0,0,0,,,,,,,,,,,
67,633738,1745095346202,7.67,201.86,,-0.07,0.1,1.01,-1.0,0.0,0.0,1.02,1.04,98.0,5689.0,8.0,3.74,,11.17,0.865,95.2,,61.3,5.0,,,,,,,,,,,,0,0,0,0,0,0,0,0,0,0,0,0,0,0,0,0,,,,,0.0,,,,,,
68,633758,1745095346222,,,,,,,,,,,,,,,,,,,,,,,,,,,,,,,,,,0,0,0,0,0,0,0,0,0,0,0,0,0,0,0,0,,,,,,,,,,,
69,633778,1745095346242,7.04,201.73,,-0.04,0.13,1.14,-1.0,0.0,1.0,1.14,1.14,100.0,5968.0,4.3,3.17,,10.65,0.869,95.2,,61.3,5.0,0.0,0.0,0.0,0.0,0.0,0.0,0.0,0.0,2.26,,,0,0,0,0,0,0,0,0,0,0,0,0,0,0,0,0,0.0,,,,0.0,39.239765,-77.965752,0.04,33.0,3.0,0.8
70,633798,1745095346262,,,,,,,,,,,,,,,,,,,,,,,,,,,,,,,,,,0,0,0,0,0,0,0,0,0,0,0,0,0,0,0,0,,,,,,,,,,,
71,633818,1745095346282,6.41,201.73,,-0.05,0.14,1.18,-1.0,0.0,1.0,1.19,1.19,100.0,6299.0,3.4,2.46,,10.65,0.869,95.2,,64.5,5.0,,,,,,,,,,,,0,0,0,0,0,0,0,0,0,0,0,0,0,0,0,0,,,,,0.0,,,,,,
72,633838,1745095346304,,,,,,,,,,,,,,,,,,,,,,,,,,,,,,,,,,0,0,0,0,0,0,0,0,0,0,0,0,0,0,0,0,,,,,,,,,,,
73,633858,1745095346324,5.15,201.73,,-0.03,0.13,1.12,-1.0,0.0,0.0,1.12,1.19,95.0,6299.0,3.4,2.46,,10.01,0.873,95.2,,64.5,5.0,,,,,,,,,,,,0,0,0,0,0,0,0,0,0,0,0,0,0,0,0,0,,,,,0.0,,,,,,
74,633878,1745095346344,,,,,,,,,,,,,,,,,,,,,,,0.0,0.0,0.0,0.0,0.0,0.0,0.0,0.0,2.26,,,0,0,0,0,0,0,0,0,0,0,0,0,0,0,0,0,0.0,,,,,39.239765,-77.965752,0.0,33.0,3.0,0.8
75,633898,1745095346364,3.9,201.86,,-0.03,0.07,1.08,0.0,0.0,0.0,1.08,1.19,91.0,6489.0,3.7,2.46,,9.45,0.879,95.2,,64.7,5.0,,,,,,,,,,,,0,0,0,0,0,0,0,0,0,0,0,0,0,0,0,0,,,,,0.0,,,,,,
76,633918,1745095346384,,,,,,,,,,,,,,,,,,,,,,,,,,,,,,,,,,0,0,0,0,0,0,0,0,0,0,0,0,0,0,0,0,,,,,,,,,,,
77,633938,1745095346402,3.9,201.73,,-0.03,0.06,1.08,0.0,0.0,0.0,1.08,1.19,91.0,6704.0,3.8,2.43,,9.02,0.931,95.2,,64.7,5.0,,,,,,,,,,,,0,0,0,0,0,0,0,0,0,0,0,0,0,0,0,0,,,,,0.0,,,,,,
78,633958,1745095346422,,,,,,,,,,,,,,,,,,,,,,,,,,,,,,,,,,0,0,0,0,0,0,0,0,0,0,0,0,0,0,0,0,,,,,,,,,,,
79,633978,1745095346442,3.27,201.73,,-0.03,0.1,1.08,0.0,0.0,0.0,1.08,1.19,91.0,6903.0,3.9,2.36,,9.02,0.931,95.2,,64.7,5.0,0.0,0.0,0.0,0.0,0.0,0.0,0.0,0.0,2.26,,,0,0,0,0,0,0,0,0,0,0,0,0,0,0,0,0,0.0,,,,0.0,39.239765,-77.965752,0.05,33.0,3.0,0.8
80,633998,1745095346462,,,,,,,,,,,,,,,,,,,,,,,,,,,,,,,,,,0,0,0,0,0,0,0,0,0,0,0,0,0,0,0,0,,,,,,,,,,,
81,634018,1745095346482,3.9,201.61,,-0.04,0.04,1.04,-1.0,0.0,0.0,1.04,1.19,88.0,7179.0,3.9,2.28,,8.46,0.972,95.2,,66.3,5.0,,,,,,,,,,,,0,0,0,0,0,0,0,0,0,0,0,0,0,0,0,0,,,,,0.0,,,,,,
82,634038,1745095346504,,,,,,,,,,,,,,,,,,,,,,,,,,,,,,,,,,0,0,0,0,0,0,0,0,0,0,0,0,0,0,0,0,,,,,,,,,,,
83,634058,1745095346524,1.38,201.61,,-0.04,0.18,1.08,0.0,0.0,1.0,1.09,1.19,92.0,7179.0,3.9,2.28,,8.18,0.98,95.2,,66.3,5.0,,,,,,,,,,,,0,0,0,0,0,0,0,0,0,0,0,0,0,0,0,0,,,,,0.0,,,,,,
84,634078,1745095346544,,,,,,,,,,,,,,,,,,,,,,,0.0,0.0,0.0,0.0,0.0,0.0,0.0,0.0,2.25,,,0,0,0,0,0,0,0,0,0,0,0,0,0,0,0,0,0.0,,,,,39.239765,-77.965752,0.11,33.0,3.0,0.8
85,634098,1745095346564,2.64,201.61,,-0.03,0.29,1.07,0.0,0.0,0.0,1.11,1.19,93.0,7396.0,3.9,2.2,,7.7,0.967,95.2,,67.3,5.0,,,,,,,,,,,,0,0,0,0,0,0,0,0,0,0,0,0,0,0,0,0,,,,,0.0,,,,,,
86,634118,1745095346584,,,,,,,,,,,,,,,,,,,,,,,,,,,,,,,,,,0,0,0,0,0,0,0,0,0,0,0,0,0,0,0,0,,,,,,,,,,,
87,634138,1745095346602,4.52,201.48,,-0.02,0.38,1.06,1.0,0.0,0.0,1.13,1.19,95.0,7577.0,4.0,2.08,,7.47,0.961,95.2,,67.3,5.0,,,,,,,,,,,,0,0,0,0,0,0,0,0,0,0,0,0,0,0,0,0,,,,,0.0,,,,,,
88,634158,1745095346622,,,,,,,,,,,,,,,,,,,,,,,,,,,,,,,,,,0,0,0,0,0,0,0,0,0,0,0,0,0,0,0,0,,,,,,,,,,,
89,634178,1745095346642,5.78,201.61,,-0.04,0.35,1.0,0.0,0.0,1.0,1.06,1.19,90.0,7720.0,3.9,2.01,,7.16,0.964,95.2,,67.3,5.0,0.0,0.0,0.0,0.0,0.0,0.0,0.0,0.0,2.26,,,0,0,0,0,0,0,0,0,0,0,0,0,0,0,0,0,0.0,,,,0.0,39.239765,-77.965752,0.0,33.0,3.0,0.8
90,634198,1745095346662,,,,,,,,,,,,,,,,,,,,,,,,,,,,,,,,,,0,0,0,0,0,0,0,0,0,0,0,0,0,0,0,0,,,,,,,,,,,
91,634218,1745095346682,5.15,201.48,,-0.02,0.33,1.01,1.0,0.0,0.0,1.06,1.19,89.0,7720.0,3.9,2.01,,7.16,0.964,95.2,,66.4,5.0,,,,,,,,,,,,0,0,0,0,0,0,0,0,0,0,0,0,0,0,0,0,,,,,0.0,,,,,,
92,634238,1745095346705,,,,,,,,,,,,,,,,,,,,,,,,,,,,,,,,,,0,0,0,0,0,0,0,0,0,0,0,0,0,0,0,0,,,,,,,,,,,
93,634258,1745095346725,5.78,201.48,,-0.03,0.45,1.01,1.0,0.0,0.0,1.1,1.19,93.0,7792.0,3.7,1.8,,6.98,0.968,95.2,,66.4,5.0,,,,,,,,,,,,0,0,0,0,0,0,0,0,0,0,0,0,0,0,0,0,,,,,0.0,,,,,,
94,634278,1745095346745,,,,,,,,,,,,,,,,,,,,,,,0.0,0.0,0.0,0.0,0.0,0.0,0.0,0.0,2.26,,,0,0,0,0,0,0,0,0,0,0,0,0,0,0,0,0,0.0,,,,,39.239765,-77.965752,0.05,33.0,3.0,0.8
95,634298,1745095346765,4.52,201.48,,-0.05,0.3,0.96,0.0,0.0,0.0,1.01,1.19,85.0,7792.0,3.6,1.82,,6.82,0.97,95.2,,64.4,5.0,,,,,,,,,,,,0,0,0,0,0,0,0,0,0,0,0,0,0,0,0,0,,,,,0.0,,,,,,
96,634318,1745095346785,,,,,,,,,,,,,,,,,,,,,,,,,,,,,,,,,,0,0,0,0,0,0,0,0,0,0,0,0,0,0,0,0,,,,,,,,,,,
97,634338,1745095346804,3.27,201.36,,-0.05,0.16,1.02,2.0,0.0,0.0,1.04,1.19,87.0,7749.0,3.6,1.66,,6.67,0.984,95.2,,64.4,5.0,,,,,,,,,,,,0,0,0,0,0,0,0,0,0,0,0,0,0,0,0,0,,,,,0.0,,,,,,
98,634358,1745095346824,,,,,,,,,,,,,,,,,,,,,,,,,,,,,,,,,,0,0,0,0,0,0,0,0,0,0,0,0,0,0,0,0,,,,,,,,,,,
99,634378,1745095346844,3.9,201.36,13.45,-0.04,0.27,1.01,2.0,0.0,0.0,1.05,1.19,88.0,7634.0,3.7,1.69,15.0,6.66,1.003,95.2,147.0,64.4,5.0,0.0,0.0,0.0,0.0,0.0,0.0,0.0,0.0,2.26,0.0,0.0,0,0,0,0,0,0,0,0,0,0,0,0,0,0,0,0,0.0,0.0,0.0,0.0,0.0,39.239765,-77.965752,0.0,33.0,3.0,0.8
100,634398,1745095346864,,,,,,,,,,,,,,,,,,,,,,,,,,,,,,,,,,0,0,0,0,0,0,0,0,0,0,0,0,0,0,0,0,,,,,,,,,,,
101,634418,1745095346884,3.9,201.36,,-0.05,0.38,1.0,1.0,0.0,0.0,1.07,1.19,90.0,7522.0,3.8,1.66,,6.66,1.003,95.2,,63.1,5.0,,,,,,,,,,,,0,0,0,0,0,0,0,0,0,0,0,0,0,0,0,0,,,,,0.0,,,,,,
102,634438,1745095346904,,,,,,,,,,,,,,,,,,,,,,,,,,,,,,,,,,0,0,0,0,0,0,0,0,0,0,0,0,0,0,0,0,,,,,,,,,,,
103,634458,1745095346924,4.52,201.36,,-0.04,0.43,1.01,1.0,0.0,0.0,1.1,1.19,92.0,7522.0,3.8,1.66,,6.63,1.037,95.2,,63.1,5.0,,,,,,,,,,,,0,0,0,0,0,0,0,0,0,0,0,0,0,0,0,0,,,,,0.0,,,,,,
104,634478,1745095346944,,,,,,,,,,,,,,,,,,,,,,,0.0,0.0,0.0,0.0,0.0,0.0,0.0,0.0,2.26,,,0,0,0,0,0,0,0,0,0,0,0,0,0,0,0,0,0.0,,,,,39.239765,-77.965752,0.08,33.0,3.0,0.8
105,634498,1745095346964,5.78,201.36,,-0.02,0.38,1.04,2.0,0.0,0.0,1.11,1.19,93.0,7350.0,3.9,1.73,,6.79,1.052,95.2,,60.5,5.0,,,,,,,,,,,,0,0,0,0,0,0,0,0,0,0,0,0,0,0,0,0,,,,,0.0,,,,,,
106,634518,1745095346984,,,,,,,,,,,,,,,,,,,,,,,,,,,,,,,,,,0,0,0,0,0,0,0,0,0,0,0,0,0,0,0,0,,,,,,,,,,,
107,634538,1745095346995,5.78,201.36,,-0.04,0.28,1.01,2.0,0.0,0.0,1.05,1.19,88.0,7239.0,3.9,1.82,,6.64,1.119,95.2,,60.5,5.0,,,,,,,,,,,,0,0,0,0,0,0,0,0,0,0,0,0,0,0,0,0,,,,,0.0,,,,,,
108,634558,1745095347015,,,,,,,,,,,,,,,,,,,,,,,,,,,,,,,,,,0,0,0,0,0,0,0,0,0,0,0,0,0,0,0,0,,,,,,,,,,,
109,634578,1745095347035,5.15,201.36,,-0.01,0.31,1.03,2.0,0.0,0.0,1.07,1.19,90.0,7095.0,3.9,1.89,,6.64,1.119,95.2,,60.5,5.0,0.0,0.0,0.0,0.0,0.0,0.0,0.0,0.0,2.26,,,0,0,0,0,0,0,0,0,0,0,0,0,0,0,0,0,0.0,,,,0.0,39.239765,-77.965752,0.0,33.0,3.0,0.8
110,634598,1745095347055,,,,,,,,,,,,,,,,,,,,,,,,,,,,,,,,,,0,0,0,0,0,0,0,0,0,0,0,0,0,0,0,0,,,,,,,,,,,
111,634618,1745095347075,6.41,201.23,,-0.04,0.25,1.03,1.0,0.0,0.0,1.06,1.19,89.0,6949.0,3.8,1.97,,6.98,1.124,95.2,,58.8,5.0,,,,,,,,,,,,0,0,0,0,0,0,0,0,0,0,0,0,0,0,0,0,,,,,0.0,,,,,,
112,634638,1745095347101,,,,,,,,,,,,,,,,,,,,,,,,,,,,,,,,,,0,0,0,0,0,0,0,0,0,0,0,0,0,0,0,0,,,,,,,,,,,
113,634658,1745095347121,7.04,201.23,,-0.04,0.19,1.01,1.0,0.0,0.0,1.02,1.19,86.0,6949.0,3.8,1.97,,7.15,1.077,95.2,,58.8,5.0,,,,,,,,,,,,0,0,0,0,0,0,0,0,0,0,0,0,0,0,0,0,,,,,0.0,,,,,,
114,634678,1745095347141,,,,,,,,,,,,,,,,,,,,,,,0.0,0.0,0.0,0.0,0.0,0.0,0.0,0.0,2.26,,,0,0,0,0,0,0,0,0,0,0,0,0,0,0,0,0,0.0,,,,,39.239765,-77.965752,0.0,33.0,3.0,0.8
115,634698,1745095347161,7.04,201.11,,-0.02,0.17,0.98,1.0,0.0,0.0,1.0,1.19,84.0,6792.0,3.8,2.0,,7.26,1.059,95.2,,58.6,5.0,,,,,,,,,,,,0,0,0,0,0,0,0,0,0,0,0,0,0,0,0,0,,,,,0.0,,,,,,
116,634718,1745095347181,,,,,,,,,,,,,,,,,,,,,,,,,,,,,,,,,,0,0,0,0,0,0,0,0,0,0,0,0,0,0,0,0,,,,,,,,,,,
117,634738,1745095347201,7.04,201.11,,0.0,0.17,0.98,1.0,0.0,0.0,1.0,1.19,84.0,6634.0,3.8,2.0,,7.47,1.051,95.2,,58.6,5.0,,,,,,,,,,,,0,0,0,0,0,0,0,0,0,0,0,0,0,0,0,0,,,,,0.0,,,,,,
118,634758,1745095347221,,,,,,,,,,,,,,,,,,,,,,,,,,,,,,,,,,0,0,0,0,0,0,0,0,0,0,0,0,0,0,0,0,,,,,,,,,,,
119,634778,1745095347241,7.04,201.11,,-0.03,0.08,0.96,1.0,0.0,0.0,0.96,1.19,81.0,6515.0,3.6,2.06,,7.62,1.042,95.2,,58.6,5.0,0.0,0.0,0.0,0.0,0.0,0.0,0.0,0.0,2.26,,,0,0,0,0,0,0,0,0,0,0,0,0,0,0,0,0,0.0,,,,0.0,39.239765,-77.965752,0.07,33.0,3.0,0.8
120,634798,1745095347261,,,,,,,,,,,,,,,,,,,,,,,,,,,,,,,,,,0,0,0,0,0,0,0,0,0,0,0,0,0,0,0,0,,,,,,,,,,,
121,634818,1745095347281,5.15,201.11,,-0.03,0.15,1.04,0.0,0.0,0.0,1.05,1.19,89.0,6305.0,3.7,2.02,,7.62,1.042,95.2,,57.4,5.0,,,,,,,,,,,,0,0,0,0,0,0,0,0,0,0,0,0,0,0,0,0,,,,,0.0,,,,,,
122,634838,1745095347303,,,,,,,,,,,,,,,,,,,,,,,,,,,,,,,,,,0,0,0,0,0,0,0,0,0,0,0,0,0,0,0,0,,,,,,,,,,,
123,634858,1745095347323,6.41,201.11,,-0.09,0.16,0.98,0.0,0.0,0.0,1.0,1.19,84.0,6305.0,3.7,2.02,,7.93,1.039,95.2,,57.4,5.0,,,,,,,,,,,,0,0,0,0,0,0,0,0,0,0,0,0,0,0,0,0,,,,,0.0,,,,,,
124,634878,1745095347343,,,,,,,,,,,,,,,,,,,,,,,0.0,0.0,0.0,0.0,0.0,0.0,0.0,0.0,2.26,,,0,0,0,0,0,0,0,0,0,0,0,0,0,0,0,0,0.0,,,,,39.239765,-77.965752,0.07,33.0,3.0,0.8
125,634898,1745095347363,5.78,201.11,,-0.1,0.06,0.85,1.0,0.0,0.0,0.86,1.19,72.0,6154.0,3.6,2.05,,8.13,1.048,95.2,,56.5,5.0,,,,,,,,,,,,0,0,0,0,0,0,0,0,0,0,0,0,0,0,0,0,,,,,0.0,,,,,,
126,634918,1745095347383,,,,,,,,,,,,,,,,,,,,,,,,,,,,,,,,,,0,0,0,0,0,0,0,0,0,0,0,0,0,0,0,0,,,,,,,,,,,
127,634938,1745095347403,5.78,201.23,,-0.12,-0.02,0.75,1.0,0.0,0.0,0.76,1.19,64.0,5973.0,3.7,2.09,,8.55,1.06,95.2,,56.5,5.0,,,,,,,,,,,,0,0,0,0,0,0,0,0,0,0,0,0,0,0,0,0,,,,,0.0,,,,,,
128,634958,1745095347423,,,,,,,,,,,,,,,,,,,,,,,,,,,,,,,,,,0,0,0,0,0,0,0,0,0,0,0,0,0,0,0,0,,,,,,,,,,,
129,634978,1745095347443,5.15,201.11,,-0.14,0.06,0.81,0.0,0.0,0.0,0.83,1.19,70.0,5726.0,3.8,2.14,,8.78,1.063,95.2,,56.5,5.0,0.0,0.0,0.0,0.0,0.0,0.0,0.0,0.0,2.26,,,0,0,0,0,0,0,0,0,0,0,0,0,0,0,0,0,0.0,,,,0.0,39.239765,-77.965752,0.06,33.0,3.0,0.8
130,634998,1745095347463,,,,,,,,,,,,,,,,,,,,,,,,,,,,,,,,,,0,0,0,0,0,0,0,0,0,0,0,0,0,0,0,0,,,,,,,,,,,
131,635018,1745095347483,5.15,201.23,,-0.13,0.07,0.83,1.0,0.0,0.0,0.84,1.19,71.0,5495.0,3.8,2.24,,8.78,1.063,95.2,,56.6,5.0,,,,,,,,,,,,0,0,0,0,0,0,0,0,0,0,0,0,0,0,0,0,,,,,0.0,,,,,,
132,635038,1745095347505,,,,,,,,,,,,,,,,,,,,,,,,,,,,,,,,,,0,0,0,0,0,0,0,0,0,0,0,0,0,0,0,0,,,,,,,,,,,
133,635058,1745095347525,5.15,201.11,,-0.11,0.1,0.89,0.0,0.0,0.0,0.91,1.19,76.0,5495.0,3.8,2.24,,9.09,1.057,95.2,,56.6,5.0,,,,,,,,,,,,0,0,0,0,0,0,0,0,0,0,0,0,0,0,0,0,,,,,0.0,,,,,,
134,635078,1745095347545,,,,,,,,,,,,,,,,,,,,,,,0.0,0.0,0.0,0.0,0.0,0.0,0.0,0.0,2.26,,,0,0,0,0,0,0,0,0,0,0,0,0,0,0,0,0,0.0,,,,,39.239765,-77.965752,0.04,33.0,3.0,0.8
135,635098,1745095347565,6.41,201.11,,-0.1,0.1,0.88,0.0,0.0,0.0,0.9,1.19,75.0,5366.0,3.7,2.34,,9.33,1.071,95.2,,56.5,5.0,,,,,,,,,,,,0,0,0,0,0,0,0,0,0,0,0,0,0,0,0,0,,,,,0.0,,,,,,
136,635118,1745095347585,,,,,,,,,,,,,,,,,,,,,,,,,,,,,,,,,,0,0,0,0,0,0,0,0,0,0,0,0,0,0,0,0,,,,,,,,,,,
137,635138,1745095347603,5.78,200.98,,-0.1,0.09,0.87,0.0,0.0,0.0,0.88,1.19,74.0,5187.0,3.6,2.37,,9.58,1.05,95.2,,56.5,5.0,,,,,,,,,,,,0,0,0,0,0,0,0,0,0,0,0,0,0,0,0,0,,,,,0.0,,,,,,
138,635158,1745095347623,,,,,,,,,,,,,,,,,,,,,,,,,,,,,,,,,,0,0,0,0,0,0,0,0,0,0,0,0,0,0,0,0,,,,,,,,,,,
139,635178,1745095347643,5.78,200.98,,-0.11,0.11,0.92,0.0,0.0,0.0,0.93,1.19,78.0,4983.0,3.6,2.4,,9.8,1.052,95.2,,56.5,5.0,0.0,0.0,0.0,0.0,0.0,0.0,0.0,0.0,2.26,,,0,0,0,0,0,0,0,0,0,0,0,0,0,0,0,0,0.0,,,,0.0,39.239765,-77.965752,0.1,33.0,3.0,0.8
140,635198,1745095347663,,,,,,,,,,,,,,,,,,,,,,,,,,,,,,,,,,0,0,0,0,0,0,0,0,0,0,0,0,0,0,0,0,,,,,,,,,,,
141,635218,1745095347683,5.15,201.11,,-0.09,0.07,0.9,0.0,0.0,0.0,0.91,1.19,76.0,4854.0,3.4,2.45,,9.8,1.052,95.2,,54.4,5.0,,,,,,,,,,,,0,0,0,0,0,0,0,0,0,0,0,0,0,0,0,0,,,,,0.0,,,,,,
142,635238,1745095347705,,,,,,,,,,,,,,,,,,,,,,,,,,,,,,,,,,0,0,0,0,0,0,0,0,0,0,0,0,0,0,0,0,,,,,,,,,,,
143,635258,1745095347725,6.41,200.98,,-0.1,0.13,0.97,0.0,0.0,0.0,0.98,1.19,83.0,4854.0,3.4,2.45,,9.97,1.05,95.2,,54.4,5.0,,,,,,,,,,,,0,0,0,0,0,0,0,0,0,0,0,0,0,0,0,0,,,,,0.0,,,,,,
144,635278,1745095347745,,,,,,,,,,,,,,,,,,,,,,,0.0,0.0,0.0,0.0,0.0,0.0,0.0,0.0,2.26,,,0,0,0,0,0,0,0,0,0,0,0,0,0,0,0,0,0.0,,,,,39.239765,-77.965752,0.05,33.0,3.0,0.8
145,635298,1745095347765,7.67,200.98,,-0.14,0.19,1.03,-1.0,0.0,1.0,1.06,1.19,89.0,4686.0,3.3,2.44,,10.12,1.036,95.2,,50.5,5.0,,,,,,,,,,,,0,0,0,0,0,0,0,0,0,0,0,0,0,0,0,0,,,,,0.0,,,,,,
146,635318,1745095347785,,,,,,,,,,,,,,,,,,,,,,,,,,,,,,,,,,0,0,0,0,0,0,0,0,0,0,0,0,0,0,0,0,,,,,,,,,,,
147,635338,1745095347805,8.92,200.98,,-0.17,0.25,1.1,-1.0,0.0,1.0,1.14,1.19,96.0,4485.0,3.2,2.42,,10.25,1.035,95.2,,50.5,5.0,,,,,,,,,,,,0,0,0,0,0,0,0,0,0,0,0,0,0,0,0,0,,,,,0.0,,,,,,
148,635358,1745095347825,,,,,,,,,,,,,,,,,,,,,,,,,,,,,,,,,,0,0,0,0,0,0,0,0,0,0,0,0,0,0,0,0,,,,,,,,,,,
149,635378,1745095347845,8.92,200.98,13.44,-0.18,0.32,1.19,-2.0,0.0,1.0,1.24,1.24,100.0,4326.0,3.1,2.42,15.0,10.46,1.091,95.2,147.0,50.5,5.0,0.0,0.0,0.0,0.0,0.0,0.0,0.0,0.0,2.26,0.0,0.0,0,0,0,0,0,0,0,0,0,0,0,0,0,0,0,0,0.0,0.0,0.0,0.0,0.0,39.239765,-77.965752,0.0,33.0,3.0,0.8
150,635398,1745095347865,,,,,,,,,,,,,,,,,,,,,,,,,,,,,,,,,,0,0,0,0,0,0,0,0,0,0,0,0,0,0,0,0,,,,,,,,,,,
151,635418,1745095347885,8.3,200.98,,-0.16,0.16,1.07,-1.0,0.0,1.0,1.09,1.24,88.0,4013.0,3.2,2.45,,10.46,1.091,95.2,,45.4,5.0,,,,,,,,,,,,0,0,0,0,0,0,0,0,0,0,0,0,0,0,0,0,,,,,0.0,,,,,,
152,635438,1745095347905,,,,,,,,,,,,,,,,,,,,,,,,,,,,,,,,,,0,0,0,0,0,0,0,0,0,0,0,0,0,0,0,0,,,,,,,,,,,
153,635458,1745095347925,7.04,200.85,,-0.14,0.13,1.03,0.0,0.0,0.0,1.05,1.24,84.0,4013.0,3.2,2.45,,10.64,1.104,95.2,,45.4,5.0,,,,,,,,,,,,0,0,0,0,0,0,0,0,0,0,0,0,0,0,0,0,,,,,0.0,,,,,,
154,635478,1745095347945,,,,,,,,,,,,,,,,,,,,,,,0.0,0.0,0.0,0.0,0.0,0.0,0.0,0.0,2.26,,,0,0,0,0,0,0,0,0,0,0,0,0,0,0,0,0,0.0,,,,,39.239765,-77.965752,0.05,33.0,3.0,0.8
155,635498,1745095347965,7.04,200.98,,-0.13,0.14,1.03,0.0,0.0,0.0,1.05,1.24,85.0,3891.0,3.1,2.69,,10.96,1.143,95.2,,39.8,5.0,,,,,,,,,,,,0,0,0,0,0,0,0,0,0,0,0,0,0,0,0,0,,,,,0.0,,,,,,
156,635518,1745095347985,,,,,,,,,,,,,,,,,,,,,,,,,,,,,,,,,,0,0,0,0,0,0,0,0,0,0,0,0,0,0,0,0,,,,,,,,,,,
157,635538,1745095347996,6.41,200.98,,-0.14,0.08,1.06,0.0,0.0,0.0,1.08,1.24,86.0,3618.0,3.0,3.18,,11.24,1.225,95.2,,39.8,5.0,,,,,,,,,,,,0,0,0,0,0,0,0,0,0,0,0,0,0,0,0,0,,,,,0.0,,,,,,
158,635558,1745095348016,,,,,,,,,,,,,,,,,,,,,,,,,,,,,,,,,,0,0,0,0,0,0,0,0,0,0,0,0,0,0,0,0,,,,,,,,,,,
159,635578,1745095348036,6.41,200.98,,-0.12,0.12,1.08,-1.0,0.0,1.0,1.1,1.24,88.0,3527.0,2.9,3.22,,11.24,1.225,95.2,,39.8,5.0,0.0,0.0,0.0,0.0,0.0,0.0,0.0,0.0,2.25,,,0,0,0,0,0,0,0,0,0,0,0,0,0,0,0,0,0.0,,,,0.0,39.239765,-77.965752,0.0,33.0,3.0,0.8
160,635598,1745095348056,,,,,,,,,,,,,,,,,,,,,,,,,,,,,,,,,,0,0,0,0,0,0,0,0,0,0,0,0,0,0,0,0,,,,,,,,,,,
161,635618,1745095348076,5.15,200.98,,-0.1,0.07,1.01,0.0,0.0,0.0,1.01,1.24,81.0,3384.0,2.8,3.24,,11.45,1.224,95.2,,36.1,5.0,,,,,,,,,,,,0,0,0,0,0,0,0,0,0,0,0,0,0,0,0,0,,,,,0.0,,,,,,
162,635638,1745095348104,,,,,,,,,,,,,,,,,,,,,,,,,,,,,,,,,,0,0,0,0,0,0,0,0,0,0,0,0,0,0,0,0,,,,,,,,,,,
163,635658,1745095348124,5.78,200.98,,-0.09,0.08,1.05,-1.0,0.0,1.0,1.05,1.24,85.0,3384.0,2.8,3.24,,11.68,1.23,95.2,,36.1,5.0,,,,,,,,,,,,0,0,0,0,0,0,0,0,0,0,0,0,0,0,0,0,,,,,0.0,,,,,,
164,635678,1745095348144,,,,,,,,,,,,,,,,,,,,,,,0.0,0.0,0.0,0.0,0.0,0.0,0.0,0.0,2.26,,,0,0,0,0,0,0,0,0,0,0,0,0,0,0,0,0,0.0,,,,,39.239765,-77.965752,0.04,33.0,3.0,0.8
165,635698,1745095348164,5.78,200.98,,-0.1,0.02,1.11,-1.0,0.0,1.0,1.11,1.24,89.0,3224.0,2.8,3.26,,11.89,1.204,95.2,,32.0,5.0,,,,,,,,,,,,0,0,0,0,0,0,0,0,0,0,0,0,0,0,0,0,,,,,0.0,,,,,,
166,635718,1745095348184,,,,,,,,,,,,,,,,,,,,,,,,,,,,,,,,,,0,0,0,0,0,0,0,0,0,0,0,0,0,0,0,0,,,,,,,,,,,
167,635738,1745095348204,4.52,200.98,,-0.12,-0.0,1.07,0.0,0.0,0.0,1.07,1.24,86.0,3241.0,2.7,3.29,,12.01,1.197,95.2,,32.0,5.0,,,,,,,,,,,,0,0,0,0,0,0,0,0,0,0,0,0,0,0,0,0,,,,,0.0,,,,,,
168,635758,1745095348224,,,,,,,,,,,,,,,,,,,,,,,,,,,,,,,,,,0,0,0,0,0,0,0,0,0,0,0,0,0,0,0,0,,,,,,,,,,,
169,635778,1745095348244,4.52,200.98,,-0.11,0.01,0.98,0.0,0.0,0.0,0.99,1.24,79.0,3135.0,2.6,3.28,,12.2,1.247,95.2,,32.0,5.0,0.0,0.0,0.0,0.0,0.0,0.0,0.0,0.0,2.26,,,0,0,0,0,0,0,0,0,0,0,0,0,0,0,0,0,0.0,,,,0.0,39.239765,-77.965752,0.0,33.0,3.0,0.8
170,635798,1745095348264,,,,,,,,,,,,,,,,,,,,,,,,,,,,,,,,,,0,0,0,0,0,0,0,0,0,0,0,0,0,0,0,0,,,,,,,,,,,
171,635818,1745095348284,3.27,200.98,,-0.09,0.04,0.9,0.0,0.0,0.0,0.9,1.24,73.0,3010.0,2.5,3.31,,12.2,1.247,95.2,,31.0,5.0,,,,,,,,,,,,0,0,0,0,0,0,0,0,0,0,0,0,0,0,0,0,,,,,0.0,,,,,,
172,635838,1745095348305,,,,,,,,,,,,,,,,,,,,,,,,,,,,,,,,,,0,0,0,0,0,0,0,0,0,0,0,0,0,0,0,0,,,,,,,,,,,
173,635858,1745095348325,3.9,200.85,,-0.1,0.03,0.86,0.0,0.0,0.0,0.86,1.24,69.0,3010.0,2.5,3.31,,12.31,1.244,95.2,,31.0,5.0,,,,,,,,,,,,0,0,0,0,0,0,0,0,0,0,0,0,0,0,0,0,,,,,0.0,,,,,,
174,635878,1745095348345,,,,,,,,,,,,,,,,,,,,,,,0.0,0.0,0.0,0.0,0.0,0.0,0.0,0.0,2.26,,,0,0,0,0,0,0,0,0,0,0,0,0,0,0,0,0,0.0,,,,,39.239765,-77.965752,0.05,33.0,3.0,0.8
175,635898,1745095348365,4.52,200.85,,-0.11,-0.01,0.9,0.0,0.0,0.0,0.91,1.24,73.0,2821.0,2.5,3.31,,12.45,1.186,95.2,,28.3,5.0,,,,,,,,,,,,0,0,0,0,0,0,0,0,0,0,0,0,0,0,0,0,,,,,0.0,,,,,,
176,635918,1745095348385,,,,,,,,,,,,,,,,,,,,,,,,,,,,,,,,,,0,0,0,0,0,0,0,0,0,0,0,0,0,0,0,0,,,,,,,,,,,
177,635938,1745095348404,3.9,200.85,,-0.11,0.01,0.92,0.0,0.0,0.0,0.93,1.24,74.0,2706.0,2.6,3.34,,12.63,1.141,95.2,,28.3,5.0,,,,,,,,,,,,0,0,0,0,0,0,0,0,0,0,0,0,0,0,0,0,,,,,0.0,,,,,,
178,635958,1745095348424,,,,,,,,,,,,,,,,,,,,,,,,,,,,,,,,,,0,0,0,0,0,0,0,0,0,0,0,0,0,0,0,0,,,,,,,,,,,
179,635978,1745095348444,5.15,200.85,,-0.1,0.02,0.94,0.0,0.0,0.0,0.95,1.24,76.0,2600.0,2.7,3.35,,12.77,1.126,95.2,,28.3,5.0,0.0,0.0,0.0,0.0,0.0,0.0,0.0,0.0,2.26,,,0,0,0,0,0,0,0,0,0,0,0,0,0,0,0,0,0.0,,,,0.0,39.239765,-77.965752,0.07,33.0,3.0,0.8
180,635998,1745095348464,,,,,,,,,,,,,,,,,,,,,,,,,,,,,,,,,,0,0,0,0,0,0,0,0,0,0,0,0,0,0,0,0,,,,,,,,,,,
181,636018,1745095348484,4.52,200.98,,-0.09,0.04,0.93,0.0,0.0,0.0,0.94,1.24,75.0,2501.0,2.7,3.36,,12.77,1.126,95.2,,25.9,5.0,,,,,,,,,,,,0,0,0,0,0,0,0,0,0,0,0,0,0,0,0,0,,,,,0.0,,,,,,
182,636038,1745095348504,,,,,,,,,,,,,,,,,,,,,,,,,,,,,,,,,,0,0,0,0,0,0,0,0,0,0,0,0,0,0,0,0,,,,,,,,,,,
183,636058,1745095348524,4.52,200.85,,-0.09,0.04,0.94,0.0,0.0,0.0,0.94,1.24,76.0,2501.0,2.7,3.36,,12.97,1.156,95.2,,25.9,5.0,,,,,,,,,,,,0,0,0,0,0,0,0,0,0,0,0,0,0,0,0,0,,,,,0.0,,,,,,
184,636078,1745095348544,,,,,,,,,,,,,,,,,,,,,,,0.0,0.0,0.0,0.0,0.0,0.0,0.0,0.0,2.26,,,0,0,0,0,0,0,0,0,0,0,0,0,0,0,0,0,0.0,,,,,39.239765,-77.965752,0.05,33.0,3.0,0.8
185,636098,1745095348564,5.15,200.98,,-0.08,0.03,0.94,0.0,0.0,0.0,0.95,1.24,76.0,2387.0,2.6,3.38,,13.08,1.197,95.2,,24.4,5.0,,,,,,,,,,,,0,0,0,0,0,0,0,0,0,0,0,0,0,0,0,0,,,,,0.0,,,,,,
186,636118,1745095348584,,,,,,,,,,,,,,,,,,,,,,,,,,,,,,,,,,0,0,0,0,0,0,0,0,0,0,0,0,0,0,0,0,,,,,,,,,,,
187,636138,1745095348604,5.78,200.98,,-0.06,0.03,0.95,0.0,0.0,0.0,0.95,1.24,77.0,2338.0,3.7,3.43,,13.21,1.198,95.2,,24.4,5.0,,,,,,,,,,,,0,0,0,0,0,0,0,0,0,0,0,0,0,0,0,0,,,,,0.0,,,,,,
188,636158,1745095348624,,,,,,,,,,,,,,,,,,,,,,,,,,,,,,,,,,0,0,0,0,0,0,0,0,0,0,0,0,0,0,0,0,,,,,,,,,,,
189,636178,1745095348644,5.15,200.85,,-0.07,0.03,0.96,0.0,0.0,0.0,0.97,1.24,78.0,2199.0,4.8,3.62,,13.4,1.218,95.2,,24.4,5.0,0.0,0.0,0.0,0.0,0.0,0.0,0.0,0.0,2.26,,,0,0,0,0,0,0,0,0,0,0,0,0,0,0,0,0,0.0,,,,0.0,39.239765,-77.965752,0.05,33.0,3.0,0.8
190,636198,1745095348664,,,,,,,,,,,,,,,,,,,,,,,,,,,,,,,,,,0,0,0,0,0,0,0,0,0,0,0,0,0,0,0,0,,,,,,,,,,,
191,636218,1745095348684,5.15,200.98,,-0.07,0.03,0.96,0.0,0.0,0.0,0.96,1.24,77.0,2145.0,4.8,3.62,,13.4,1.218,95.2,,22.3,5.0,,,,,,,,,,,,0,0,0,0,0,0,0,0,0,0,0,0,0,0,0,0,,,,,0.0,,,,,,
192,636238,1745095348704,,,,,,,,,,,,,,,,,,,,,,,,,,,,,,,,,,0,0,0,0,0,0,0,0,0,0,0,0,0,0,0,0,,,,,,,,,,,
193,636258,1745095348724,5.15,200.98,,-0.07,0.02,0.95,0.0,0.0,0.0,0.95,1.24,77.0,2145.0,4.8,3.62,,13.57,1.218,95.2,,22.3,5.0,,,,,,,,,,,,0,0,0,0,0,0,0,0,0,0,0,0,0,0,0,0,,,,,0.0,,,,,,
194,636278,1745095348744,,,,,,,,,,,,,,,,,,,,,,,0.0,0.0,0.0,0.0,0.0,0.0,0.0,0.0,2.26,,,0,0,0,0,0,0,0,0,0,0,0,0,0,0,0,0,0.0,,,,,39.239765,-77.965752,0.07,33.0,3.0,0.8
195,636298,1745095348764,6.41,200.98,,-0.06,0.01,0.96,0.0,0.0,0.0,0.96,1.24,77.0,2147.0,4.8,3.62,,13.57,1.219,95.2,,21.0,5.0,,,,,,,,,,,,0,0,0,0,0,0,0,0,0,0,0,0,0,0,0,0,,,,,0.0,,,,,,
196,636318,1745095348784,,,,,,,,,,,,,,,,,,,,,,,,,,,,,,,,,,0,0,0,0,0,0,0,0,0,0,0,0,0,0,0,0,,,,,,,,,,,
197,636338,1745095348804,5.78,200.98,,-0.04,0.0,0.96,0.0,0.0,0.0,0.96,1.24,77.0,2127.0,4.9,3.61,,13.67,1.226,95.2,,21.0,5.0,,,,,,,,,,,,0,0,0,0,0,0,0,0,0,0,0,0,0,0,0,0,,,,,0.0,,,,,,
198,636358,1745095348824,,,,,,,,,,,,,,,,,,,,,,,,,,,,,,,,,,0,0,0,0,0,0,0,0,0,0,0,0,0,0,0,0,,,,,,,,,,,
199,636378,1745095348844,6.41,200.98,13.48,-0.04,0.02,0.95,0.0,0.0,0.0,0.96,1.24,77.0,2062.0,4.9,3.63,15.0,13.67,1.235,95.2,147.0,21.0,5.0,0.0,0.0,0.0,0.0,0.0,0.0,0.0,0.0,2.26,0.0,0.0,0,0,0,0,0,0,0,0,0,0,0,0,0,0,0,0,0.0,0.0,0.0,0.0,0.0,39.239765,-77.965752,0.08,33.0,3.0,0.8
200,636398,1745095348864,,,,,,,,,,,,,,,,,,,,,,,,,,,,,,,,,,0,0,0,0,0,0,0,0,0,0,0,0,0,0,0,0,,,,,,,,,,,
201,636418,1745095348884,5.15,200.98,,-0.03,0.02,0.96,0.0,0.0,0.0,0.96,1.24,78.0,2001.0,5.0,3.62,,13.67,1.235,95.2,,20.2,5.0,,,,,,,,,,,,0,0,0,0,0,0,0,0,0,0,0,0,0,0,0,0,,,,,0.0,,,,,,
202,636438,1745095348902,,,,,,,,,,,,,,,,,,,,,,,,,,,,,,,,,,0,0,0,0,0,0,0,0,0,0,0,0,0,0,0,0,,,,,,,,,,,
203,636458,1745095348922,4.52,200.98,,-0.03,0.02,0.96,0.0,0.0,0.0,0.96,1.24,77.0,2001.0,5.0,3.62,,13.73,1.247,95.2,,20.2,5.0,,,,,,,,,,,,0,0,0,0,0,0,0,0,0,0,0,0,0,0,0,0,,,,,0.0,,,,,,
204,636478,1745095348942,,,,,,,,,,,,,,,,,,,,,,,0.0,0.0,0.0,0.0,0.0,0.0,0.0,0.0,2.26,,,0,0,0,0,0,0,0,0,0,0,0,0,0,0,0,0,0.0,,,,,39.239765,-77.965752,0.11,33.0,3.0,0.8
205,636498,1745095348962,5.15,200.98,,-0.02,0.03,0.96,0.0,0.0,0.0,0.96,1.24,77.0,1902.0,5.1,3.62,,13.83,1.25,95.2,,19.5,5.0,,,,,,,,,,,,0,0,0,0,0,0,0,0,0,0,0,0,0,0,0,0,,,,,0.0,,,,,,
206,636518,1745095348982,,,,,,,,,,,,,,,,,,,,,,,,,,,,,,,,,,0,0,0,0,0,0,0,0,0,0,0,0,0,0,0,0,,,,,,,,,,,
207,636538,1745095348995,5.78,200.98,,-0.03,0.01,0.96,0.0,0.0,0.0,0.97,1.24,78.0,1805.0,5.5,3.62,,13.88,1.251,95.2,,19.5,5.0,,,,,,,,,,,,0,0,0,0,0,0,0,0,0,0,0,0,0,0,0,0,,,,,0.0,,,,,,
208,636558,1745095349015,,,,,,,,,,,,,,,,,,,,,,,,,,,,,,,,,,0,0,0,0,0,0,0,0,0,0,0,0,0,0,0,0,,,,,,,,,,,
209,636578,1745095349035,6.41,200.85,,-0.04,0.01,0.98,0.0,0.0,0.0,0.98,1.24,79.0,1912.0,5.8,3.61,,13.87,1.251,95.2,,19.5,5.0,0.0,0.0,0.0,0.0,0.0,0.0,0.0,0.0,2.26,,,0,0,0,0,0,0,0,0,0,0,0,0,0,0,0,0,0.0,,,,0.0,39.239765,-77.965752,0.07,33.0,3.0,0.8
210,636598,1745095349055,,,,,,,,,,,,,,,,,,,,,,,,,,,,,,,,,,0,0,0,0,0,0,0,0,0,0,0,0,0,0,0,0,,,,,,,,,,,
211,636618,1745095349075,6.41,200.85,,-0.04,0.01,0.97,0.0,0.0,0.0,0.97,1.24,78.0,1892.0,5.9,3.61,,13.87,1.251,95.2,,18.7,5.0,,,,,,,,,,,,0,0,0,0,0,0,0,0,0,0,0,0,0,0,0,0,,,,,0.0,,,,,,
212,636638,1745095349103,,,,,,,,,,,,,,,,,,,,,,,,,,,,,,,,,,0,0,0,0,0,0,0,0,0,0,0,0,0,0,0,0,,,,,,,,,,,
213,636658,1745095349123,7.67,200.85,,-0.04,0.01,0.99,0.0,0.0,0.0,0.99,1.24,80.0,1892.0,5.9,3.61,,13.88,1.249,95.2,,18.7,5.0,,,,,,,,,,,,0,0,0,0,0,0,0,0,0,0,0,0,0,0,0,0,,,,,0.0,,,,,,
214,636678,1745095349143,,,,,,,,,,,,,,,,,,,,,,,0.0,0.0,0.0,0.0,0.0,0.0,0.0,0.0,2.26,,,0,0,0,0,0,0,0,0,0,0,0,0,0,0,0,0,0.0,,,,,39.239765,-77.965752,0.04,33.0,3.0,0.8
215,636698,1745095349163,7.67,200.85,,-0.04,0.01,0.98,0.0,0.0,0.0,0.98,1.24,79.0,1814.0,8.3,3.6,,13.94,1.248,95.2,,18.9,5.0,,,,,,,,,,,,0,0,0,0,0,0,0,0,0,0,0,0,0,0,0,0,,,,,0.0,,,,,,
216,636718,1745095349183,,,,,,,,,,,,,,,,,,,,,,,,,,,,,,,,,,0,0,0,0,0,0,0,0,0,0,0,0,0,0,0,0,,,,,,,,,,,
217,636738,1745095349203,6.41,200.85,,-0.02,0.02,0.99,0.0,0.0,0.0,0.99,1.24,79.0,1803.0,9.0,3.57,,13.96,1.248,95.2,,18.9,5.0,,,,,,,,,,,,0,0,0,0,0,0,0,0,0,0,0,0,0,0,0,0,,,,,0.0,,,,,,
218,636758,1745095349223,,,,,,,,,,,,,,,,,,,,,,,,,,,,,,,,,,0,0,0,0,0,0,0,0,0,0,0,0,0,0,0,0,,,,,,,,,,,
219,636778,1745095349243,6.41,200.85,,-0.04,0.02,0.98,0.0,0.0,0.0,0.98,1.24,79.0,1835.0,9.0,3.59,,13.95,1.248,95.2,,18.9,5.0,0.0,0.0,0.0,0.0,0.0,0.0,0.0,0.0,2.26,,,0,0,0,0,0,0,0,0,0,0,0,0,0,0,0,0,0.0,,,,0.0,39.239765,-77.965752,0.04,33.0,3.0,0.8
220,636798,1745095349263,,,,,,,,,,,,,,,,,,,,,,,,,,,,,,,,,,0,0,0,0,0,0,0,0,0,0,0,0,0,0,0,0,,,,,,,,,,,
221,636818,1745095349283,5.78,200.98,,-0.03,0.01,0.99,0.0,0.0,0.0,0.99,1.24,80.0,1887.0,9.1,3.59,,13.95,1.248,95.2,,18.1,5.0,,,,,,,,,,,,0,0,0,0,0,0,0,0,0,0,0,0,0,0,0,0,,,,,0.0,,,,,,
222,636838,1745095349305,,,,,,,,,,,,,,,,,,,,,,,,,,,,,,,,,,0,0,0,0,0,0,0,0,0,0,0,0,0,0,0,0,,,,,,,,,,,
223,636858,1745095349325,5.78,200.85,,-0.04,0.0,0.99,0.0,0.0,0.0,0.99,1.24,80.0,1887.0,9.1,3.59,,13.95,1.249,95.2,,18.1,5.0,,,,,,,,,,,,0,0,0,0,0,0,0,0,0,0,0,0,0,0,0,0,,,,,0.0,,,,,,
224,636878,1745095349345,,,,,,,,,,,,,,,,,,,,,,,0.0,0.0,0.0,0.0,0.0,0.0,0.0,0.0,2.26,,,0,0,0,0,0,0,0,0,0,0,0,0,0,0,0,0,0.0,,,,,39.239765,-77.965752,0.04,33.0,3.0,0.8
225,636898,1745095349365,5.78,200.98,,-0.03,0.01,0.98,0.0,0.0,0.0,0.99,1.24,79.0,1804.0,9.0,3.58,,13.96,1.25,95.2,,18.6,5.0,,,,,,,,,,,,0,0,0,0,0,0,0,0,0,0,0,0,0,0,0,0,,,,,0.0,,,,,,
226,636918,1745095349385,,,,,,,,,,,,,,,,,,,,,,,,,,,,,,,,,,0,0,0,0,0,0,0,0,0,0,0,0,0,0,0,0,,,,,,,,,,,
227,636938,1745095349405,6.41,200.98,,-0.03,-0.0,0.99,0.0,0.0,0.0,0.99,1.24,80.0,1770.0,9.2,3.57,,13.98,1.25,95.2,,18.6,5.0,,,,,,,,,,,,0,0,0,0,0,0,0,0,0,0,0,0,0,0,0,0,,,,,0.0,,,,,,
228,636958,1745095349425,,,,,,,,,,,,,,,,,,,,,,,,,,,,,,,,,,0,0,0,0,0,0,0,0,0,0,0,0,0,0,0,0,,,,,,,,,,,
229,636978,1745095349445,6.41,200.98,,-0.04,0.0,0.98,0.0,0.0,0.0,0.98,1.24,79.0,1865.0,9.3,3.61,,13.91,1.25,95.2,,18.6,5.0,0.0,0.0,0.0,0.0,0.0,0.0,0.0,0.0,2.26,,,0,0,0,0,0,0,0,0,0,0,0,0,0,0,0,0,0.0,,,,0.0,39.239765,-77.965752,0.0,33.0,3.0,0.8
230,636998,1745095349465,,,,,,,,,,,,,,,,,,,,,,,,,,,,,,,,,,0,0,0,0,0,0,0,0,0,0,0,0,0,0,0,0,,,,,,,,,,,
231,637018,1745095349485,5.15,200.85,,-0.03,0.01,0.99,0.0,0.0,0.0,0.99,1.24,80.0,1878.0,9.3,3.59,,13.91,1.25,95.2,,18.1,5.0,,,,,,,,,,,,0,0,0,0,0,0,0,0,0,0,0,0,0,0,0,0,,,,,0.0,,,,,,
232,637038,1745095349505,,,,,,,,,,,,,,,,,,,,,,,,,,,,,,,,,,0,0,0,0,0,0,0,0,0,0,0,0,0,0,0,0,,,,,,,,,,,
233,637058,1745095349525,5.15,200.85,,-0.05,0.04,0.97,0.0,0.0,0.0,0.97,1.24,78.0,1878.0,9.3,3.59,,13.92,1.25,95.2,,18.1,5.0,,,,,,,,,,,,0,0,0,0,0,0,0,0,0,0,0,0,0,0,0,0,,,,,0.0,,,,,,
234,637078,1745095349545,,,,,,,,,,,,,,,,,,,,,,,0.0,0.0,0.0,0.0,0.0,0.0,0.0,0.0,2.26,,,0,0,0,0,0,0,0,0,0,0,0,0,0,0,0,0,0.0,,,,,39.239765,-77.965752,0.0,33.0,3.0,0.8
235,637098,1745095349565,5.15,200.85,,-0.03,0.02,0.99,0.0,0.0,0.0,0.99,1.24,80.0,1842.0,9.3,3.61,,13.96,1.25,95.2,,18.6,5.0,,,,,,,,,,,,0,0,0,0,0,0,0,0,0,0,0,0,0,0,0,0,,,,,0.0,,,,,,
236,637118,1745095349585,,,,,,,,,,,,,,,,,,,,,,,,,,,,,,,,,,0,0,0,0,0,0,0,0,0,0,0,0,0,0,0,0,,,,,,,,,,,
237,637138,1745095349605,5.15,200.85,,-0.04,0.02,0.99,0.0,0.0,0.0,1.0,1.24,80.0,1781.0,15.9,4.03,,14.08,1.249,95.2,,18.6,5.0,,,,,,,,,,,,0,0,0,0,0,0,0,0,0,0,0,0,0,0,0,0,,,,,0.0,,,,,,
238,637158,1745095349625,,,,,,,,,,,,,,,,,,,,,,,,,,,,,,,,,,0,0,0,0,0,0,0,0,0,0,0,0,0,0,0,0,,,,,,,,,,,
239,637178,1745095349645,5.15,200.85,,-0.03,0.02,0.99,0.0,0.0,0.0,0.99,1.24,80.0,1817.0,17.1,4.47,,14.08,1.248,95.2,,18.6,5.0,0.0,0.0,0.0,0.0,0.0,0.0,0.0,0.0,2.26,,,0,0,0,0,0,0,0,0,0,0,0,0,0,0,0,0,0.0,,,,0.0,39.239765,-77.965752,0.08,33.0,3.0,0.8
240,637198,1745095349665,,,,,,,,,,,,,,,,,,,,,,,,,,,,,,,,,,0,0,0,0,0,0,0,0,0,0,0,0,0,0,0,0,,,,,,,,,,,
241,637218,1745095349685,5.15,200.98,,-0.03,0.02,0.99,0.0,0.0,0.0,0.99,1.24,79.0,1931.0,17.1,4.31,,14.08,1.248,95.2,,18.6,5.0,,,,,,,,,,,,0,0,0,0,0,0,0,0,0,0,0,0,0,0,0,0,,,,,0.0,,,,,,
242,637238,1745095349705,,,,,,,,,,,,,,,,,,,,,,,,,,,,,,,,,,0,0,0,0,0,0,0,0,0,0,0,0,0,0,0,0,,,,,,,,,,,
243,637258,1745095349725,5.78,200.98,,-0.02,0.03,0.99,0.0,0.0,0.0,0.99,1.24,79.0,1931.0,17.1,4.31,,14.08,1.247,95.2,,18.6,5.0,,,,,,,,,,,,0,0,0,0,0,0,0,0,0,0,0,0,0,0,0,0,,,,,0.0,,,,,,
244,637278,1745095349745,,,,,,,,,,,,,,,,,,,,,,,0.0,0.0,0.0,0.0,0.0,0.0,0.0,0.0,2.26,,,0,0,0,0,0,0,0,0,0,0,0,0,0,0,0,0,0.0,,,,,39.239765,-77.965752,0.16,33.0,3.0,0.8
245,637298,1745095349765,5.15,200.85,,-0.01,0.03,0.99,0.0,0.0,0.0,0.99,1.24,80.0,2069.0,17.0,4.35,,14.03,1.248,95.2,,19.8,5.0,,,,,,,,,,,,0,0,0,0,0,0,0,0,0,0,0,0,0,0,0,0,,,,,0.0,,,,,,
246,637318,1745095349785,,,,,,,,,,,,,,,,,,,,,,,,,,,,,,,,,,0,0,0,0,0,0,0,0,0,0,0,0,0,0,0,0,,,,,,,,,,,
247,637338,1745095349805,3.9,200.98,,0.0,0.03,0.98,0.0,0.0,0.0,0.98,1.24,79.0,2195.0,17.0,4.38,,14.06,1.248,95.2,,19.8,5.0,,,,,,,,,,,,0,0,0,0,0,0,0,0,0,0,0,0,0,0,0,0,,,,,0.0,,,,,,
248,637358,1745095349825,,,,,,,,,,,,,,,,,,,,,,,,,,,,,,,,,,0,0,0,0,0,0,0,0,0,0,0,0,0,0,0,0,,,,,,,,,,,
249,637378,1745095349845,4.52,200.85,13.48,-0.0,0.04,0.99,0.0,0.0,0.0,0.99,1.24,80.0,2298.0,17.0,4.36,15.0,14.02,1.25,95.2,147.0,19.8,5.0,0.0,0.0,0.0,0.0,0.0,0.0,0.0,0.0,2.26,0.0,0.0,0,0,0,0,0,0,0,0,0,0,0,0,0,0,0,0,0.0,0.0,0.0,0.0,0.0,39.239765,-77.965752,0.04,33.0,3.0,0.8
250,637398,1745095349865,,,,,,,,,,,,,,,,,,,,,,,,,,,,,,,,,,0,0,0,0,0,0,0,0,0,0,0,0,0,0,0,0,,,,,,,,,,,
251,637418,1745095349885,5.15,200.98,,-0.02,0.03,0.98,0.0,0.0,0.0,0.98,1.24,79.0,2298.0,17.0,4.36,,14.02,1.25,95.2,,22.8,5.0,,,,,,,,,,,,0,0,0,0,0,0,0,0,0,0,0,0,0,0,0,0,,,,,0.0,,,,,,
252,637438,1745095349905,,,,,,,,,,,,,,,,,,,,,,,,,,,,,,,,,,0,0,0,0,0,0,0,0,0,0,0,0,0,0,0,0,,,,,,,,,,,
253,637458,1745095349925,3.9,200.98,,-0.02,0.03,0.97,0.0,0.0,0.0,0.97,1.24,78.0,2458.0,17.2,4.33,,13.95,1.25,95.2,,22.8,5.0,,,,,,,,,,,,0,0,0,0,0,0,0,0,0,0,0,0,0,0,0,0,,,,,0.0,,,,,,
254,637478,1745095349945,,,,,,,,,,,,,,,,,,,,,,,0.0,0.0,0.0,0.0,0.0,0.0,0.0,0.0,2.26,,,0,0,0,0,0,0,0,0,0,0,0,0,0,0,0,0,0.0,,,,,39.239765,-77.965752,0.08,33.0,3.0,0.8
255,637498,1745095349965,3.9,200.98,,-0.03,0.03,1.0,0.0,0.0,0.0,1.0,1.24,80.0,2568.0,17.2,4.3,,13.92,1.245,95.2,,25.2,5.0,,,,,,,,,,,,0,0,0,0,0,0,0,0,0,0,0,0,0,0,0,0,,,,,0.0,,,,,,
256,637518,1745095349985,,,,,,,,,,,,,,,,,,,,,,,,,,,,,,,,,,0,0,0,0,0,0,0,0,0,0,0,0,0,0,0,0,,,,,,,,,,,
257,637538,1745095349996,5.15,200.98,,-0.02,0.04,0.99,0.0,0.0,0.0,1.0,1.24,80.0,2716.0,17.3,4.27,,13.86,1.228,95.2,,25.2,5.0,,,,,,,,,,,,0,0,0,0,0,0,0,0,0,0,0,0,0,0,0,0,,,,,0.0,,,,,,
258,637558,1745095350016,,,,,,,,,,,,,,,,,,,,,,,,,,,,,,,,,,0,0,0,0,0,0,0,0,0,0,0,0,0,0,0,0,,,,,,,,,,,
259,637578,1745095350036,3.9,200.98,,-0.02,0.06,0.94,0.0,0.0,0.0,0.94,1.24,76.0,2847.0,17.4,4.23,,13.8,1.228,95.2,,25.2,5.0,0.0,0.0,0.0,0.0,0.0,0.0,0.0,0.0,2.26,,,0,0,0,0,0,0,0,0,0,0,0,0,0,0,0,0,0.0,,,,0.0,39.239765,-77.965752,0.0,35.0,3.0,0.8
260,637598,1745095350056,,,,,,,,,,,,,,,,,,,,,,,,,,,,,,,,,,0,0,0,0,0,0,0,0,0,0,0,0,0,0,0,0,,,,,,,,,,,
261,637618,1745095350076,3.27,200.98,,-0.03,0.06,0.87,0.0,0.0,0.0,0.87,1.24,70.0,0.0,17.5,4.12,,13.8,1.228,95.2,,28.3,5.0,,,,,,,,,,,,0,0,0,0,0,0,0,0,0,0,0,0,0,0,0,0,,,,,0.0,,,,,,
262,637638,1745095350100,,,,,,,,,,,,,,,,,,,,,,,,,,,,,,,,,,0,0,0,0,0,0,0,0,0,0,0,0,0,0,0,0,,,,,,,,,,,
263,637658,1745095350120,4.52,200.98,,-0.05,0.06,0.83,0.0,0.0,0.0,0.83,1.24,67.0,0.0,17.5,4.12,,13.76,1.211,95.2,,28.3,5.0,,,,,,,,,,,,0,0,0,0,0,0,0,0,0,0,0,0,0,0,0,0,,,,,0.0,,,,,,
264,637678,1745095350140,,,,,,,,,,,,,,,,,,,,,,,0.0,0.0,0.0,0.0,0.0,0.0,0.0,0.0,2.26,,,0,0,0,0,0,0,0,0,0,0,0,0,0,0,0,0,0.0,,,,,39.239765,-77.965752,0.04,35.0,3.0,0.8
265,637698,1745095350160,3.9,200.98,,-0.07,0.03,0.82,1.0,0.0,0.0,0.83,1.24,67.0,2933.0,17.7,4.16,,13.83,1.229,95.2,,29.7,5.0,,,,,,,,,,,,0,0,0,0,0,0,0,0,0,0,0,0,0,0,0,0,,,,,0.0,,,,,,
266,637718,1745095350180,,,,,,,,,,,,,,,,,,,,,,,,,,,,,,,,,,0,0,0,0,0,0,0,0,0,0,0,0,0,0,0,0,,,,,,,,,,,
267,637738,1745095350204,3.9,200.98,,-0.09,0.01,0.85,0.0,0.0,0.0,0.85,1.24,69.0,2994.0,17.6,4.21,,13.8,1.153,95.2,,29.7,5.0,,,,,,,,,,,,0,0,0,0,0,0,0,0,0,0,0,0,0,0,0,0,,,,,0.0,,,,,,
268,637758,1745095350224,,,,,,,,,,,,,,,,,,,,,,,,,,,,,,,,,,0,0,0,0,0,0,0,0,0,0,0,0,0,0,0,0,,,,,,,,,,,
269,637778,1745095350244,3.9,200.85,,-0.11,-0.01,0.87,1.0,0.0,0.0,0.88,1.24,70.0,3036.0,17.4,4.21,,13.73,1.059,95.2,,29.7,5.0,0.0,0.0,0.0,0.0,0.0,0.0,0.0,0.0,2.26,,,0,0,0,0,0,0,0,0,0,0,0,0,0,0,0,0,0.0,,,,0.0,39.239765,-77.965752,0.05,35.0,3.0,0.8
270,637798,1745095350264,,,,,,,,,,,,,,,,,,,,,,,,,,,,,,,,,,0,0,0,0,0,0,0,0,0,0,0,0,0,0,0,0,,,,,,,,,,,
271,637818,1745095350284,2.64,200.98,,-0.12,-0.02,0.88,1.0,0.0,0.0,0.89,1.24,71.0,2992.0,17.4,4.16,,13.73,1.059,95.2,,30.4,5.0,,,,,,,,,,,,0,0,0,0,0,0,0,0,0,0,0,0,0,0,0,0,,,,,0.0,,,,,,
272,637838,1745095350302,,,,,,,,,,,,,,,,,,,,,,,,,,,,,,,,,,0,0,0,0,0,0,0,0,0,0,0,0,0,0,0,0,,,,,,,,,,,
273,637858,1745095350322,3.27,200.98,,-0.13,-0.02,0.85,1.0,0.0,-1.0,0.86,1.24,69.0,2992.0,17.4,4.16,,13.82,1.033,95.2,,30.4,5.0,,,,,,,,,,,,0,0,0,0,0,0,0,0,0,0,0,0,0,0,0,0,,,,,0.0,,,,,,
274,637878,1745095350342,,,,,,,,,,,,,,,,,,,,,,,0.0,0.0,0.0,0.0,0.0,0.0,0.0,0.0,2.26,,,0,0,0,0,0,0,0,0,0,0,0,0,0,0,0,0,0.0,,,,,39.239765,-77.965752,0.04,35.0,3.0,0.8
275,637898,1745095350362,2.64,200.98,,-0.14,-0.01,0.83,1.0,0.0,-1.0,0.84,1.24,67.0,3022.0,17.4,4.16,,13.79,1.0,95.2,,30.5,5.0,,,,,,,,,,,,0,0,0,0,0,0,0,0,0,0,0,0,0,0,0,0,,,,,0.0,,,,,,
276,637918,1745095350382,,,,,,,,,,,,,,,,,,,,,,,,,,,,,,,,,,0,0,0,0,0,0,0,0,0,0,0,0,0,0,0,0,,,,,,,,,,,
277,637938,1745095350404,2.64,200.98,,-0.13,0.04,0.76,1.0,0.0,-1.0,0.77,1.24,62.0,3186.0,17.5,4.17,,13.68,1.009,95.2,,30.5,5.0,,,,,,,,,,,,0,0,0,0,0,0,0,0,0,0,0,0,0,0,0,0,,,,,0.0,,,,,,
278,637958,1745095350424,,,,,,,,,,,,,,,,,,,,,,,,,,,,,,,,,,0,0,0,0,0,0,0,0,0,0,0,0,0,0,0,0,,,,,,,,,,,
279,637978,1745095350444,2.01,200.98,,-0.11,0.07,0.84,0.0,0.0,0.0,0.85,1.24,68.0,3293.0,17.6,4.12,,13.59,1.078,95.2,,30.5,5.0,0.0,0.0,0.0,0.0,0.0,0.0,0.0,0.0,2.26,,,0,0,0,0,0,0,0,0,0,0,0,0,0,0,0,0,0.0,,,,0.0,39.239765,-77.965752,0.04,35.0,3.0,0.8
280,637998,1745095350464,,,,,,,,,,,,,,,,,,,,,,,,,,,,,,,,,,0,0,0,0,0,0,0,0,0,0,0,0,0,0,0,0,,,,,,,,,,,
281,638018,1745095350484,1.38,200.98,,-0.11,-0.0,0.82,1.0,0.0,-1.0,0.83,1.24,67.0,3358.0,17.6,4.07,,13.59,1.078,95.2,,33.4,5.0,,,,,,,,,,,,0,0,0,0,0,0,0,0,0,0,0,0,0,0,0,0,,,,,0.0,,,,,,
282,638038,1745095350504,,,,,,,,,,,,,,,,,,,,,,,,,,,,,,,,,,0,0,0,0,0,0,0,0,0,0,0,0,0,0,0,0,,,,,,,,,,,
283,638058,1745095350524,0.0,200.98,,-0.12,0.04,0.9,0.0,0.0,0.0,0.91,1.24,73.0,3358.0,17.6,4.07,,13.6,1.131,95.2,,33.4,5.0,,,,,,,,,,,,0,0,0,0,0,0,0,0,0,0,0,0,0,0,0,0,,,,,0.0,,,,,,
284,638078,1745095350544,,,,,,,,,,,,,,,,,,,,,,,0.0,0.0,0.0,0.0,0.0,0.0,0.0,0.0,2.26,,,0,0,0,0,0,0,0,0,0,0,0,0,0,0,0,0,0.0,,,,,39.239765,-77.965752,0.0,35.0,3.0,0.8
285,638098,1745095350564,0.0,200.98,,-0.09,0.11,0.89,0.0,0.0,0.0,0.9,1.24,72.0,3517.0,17.6,4.07,,13.57,1.185,95.2,,36.2,5.0,,,,,,,,,,,,0,0,0,0,0,0,0,0,0,0,0,0,0,0,0,0,,,,,0.0,,,,,,
286,638118,1745095350584,,,,,,,,,,,,,,,,,,,,,,,,,,,,,,,,,,0,0,0,0,0,0,0,0,0,0,0,0,0,0,0,0,,,,,,,,,,,
287,638138,1745095350604,0.0,200.98,,-0.08,0.1,0.87,0.0,0.0,0.0,0.88,1.24,71.0,3553.0,17.6,4.03,,13.56,1.207,95.2,,36.2,5.0,,,,,,,,,,,,0,0,0,0,0,0,0,0,0,0,0,0,0,0,0,0,,,,,0.0,,,,,,
288,638158,1745095350624,,,,,,,,,,,,,,,,,,,,,,,,,,,,,,,,,,0,0,0,0,0,0,0,0,0,0,0,0,0,0,0,0,,,,,,,,,,,
289,638178,1745095350644,0.0,200.98,,-0.09,0.05,0.88,1.0,0.0,0.0,0.89,1.24,71.0,3672.0,17.6,4.03,,13.48,1.222,95.2,,36.2,5.0,0.0,0.0,0.0,0.0,0.0,0.0,0.0,0.0,2.26,,,0,0,0,0,0,0,0,0,0,0,0,0,0,0,0,0,0.0,,,,0.0,39.239765,-77.965752,0.0,35.0,3.0,0.8
290,638198,1745095350664,,,,,,,,,,,,,,,,,,,,,,,,,,,,,,,,,,0,0,0,0,0,0,0,0,0,0,0,0,0,0,0,0,,,,,,,,,,,
291,638218,1745095350684,0.0,200.98,,-0.09,0.1,0.91,0.0,0.0,0.0,0.92,1.24,74.0,3783.0,17.5,3.97,,13.48,1.222,95.2,,38.5,5.0,,,,,,,,,,,,0,0,0,0,0,0,0,0,0,0,0,0,0,0,0,0,,,,,0.0,,,,,,
292,638238,1745095350704,,,,,,,,,,,,,,,,,,,,,,,,,,,,,,,,,,0,0,0,0,0,0,0,0,0,0,0,0,0,0,0,0,,,,,,,,,,,
293,638258,1745095350724,0.0,201.11,,-0.07,0.11,0.96,0.0,0.0,0.0,0.97,1.24,78.0,3783.0,17.5,3.97,,13.4,1.216,95.2,,38.5,5.0,,,,,,,,,,,,0,0,0,0,0,0,0,0,0,0,0,0,0,0,0,0,,,,,0.0,,,,,,
294,638278,1745095350744,,,,,,,,,,,,,,,,,,,,,,,0.0,0.0,0.0,0.0,0.0,0.0,0.0,0.0,2.26,,,0,0,0,0,0,0,0,0,0,0,0,0,0,0,0,0,0.0,,,,,39.239765,-77.965752,0.04,35.0,3.0,0.8
295,638298,1745095350764,0.0,201.11,,-0.06,0.11,1.0,0.0,0.0,0.0,1.01,1.24,81.0,3866.0,17.4,3.94,,13.31,1.11,95.2,,38.5,5.0,,,,,,,,,,,,0,0,0,0,0,0,0,0,0,0,0,0,0,0,0,0,,,,,0.0,,,,,,
296,638318,1745095350784,,,,,,,,,,,,,,,,,,,,,,,,,,,,,,,,,,0,0,0,0,0,0,0,0,0,0,0,0,0,0,0,0,,,,,,,,,,,
297,638338,1745095350804,0.0,200.98,,-0.05,0.01,0.91,0.0,0.0,0.0,0.91,1.24,73.0,4004.0,17.4,3.95,,13.37,1.074,95.2,,40.8,5.0,,,,,,,,,,,,0,0,0,0,0,0,0,0,0,0,0,0,0,0,0,0,,,,,0.0,,,,,,
298,638358,1745095350824,,,,,,,,,,,,,,,,,,,,,,,,,,,,,,,,,,0,0,0,0,0,0,0,0,0,0,0,0,0,0,0,0,,,,,,,,,,,
299,638378,1745095350844,0.0,200.98,13.47,-0.03,0.12,1.0,0.0,0.0,0.0,1.01,1.24,81.0,4073.0,17.4,3.93,15.0,13.25,1.088,95.2,147.0,40.8,5.0,0.0,0.0,0.0,0.0,0.0,0.0,0.0,0.0,2.26,0.0,0.0,0,0,0,0,0,0,0,0,0,0,0,0,0,0,0,0,0.0,0.0,0.0,0.0,0.0,39.239765,-77.965752,0.08,35.0,3.0,0.8
300,638398,1745095350864,,,,,,,,,,,,,,,,,,,,,,,,,,,,,,,,,,0,0,0,0,0,0,0,0,0,0,0,0,0,0,0,0,,,,,,,,,,,
301,638418,1745095350884,0.0,200.98,,-0.03,0.01,0.94,0.0,0.0,0.0,0.94,1.24,75.0,4115.0,17.6,3.93,,13.25,1.088,95.2,,43.4,5.0,,,,,,,,,,,,0,0,0,0,0,0,0,0,0,0,0,0,0,0,0,0,,,,,0.0,,,,,,
302,638438,1745095350904,,,,,,,,,,,,,,,,,,,,,,,,,,,,,,,,,,0,0,0,0,0,0,0,0,0,0,0,0,0,0,0,0,,,,,,,,,,,
303,638458,1745095350924,0.0,200.85,,-0.04,0.1,1.05,0.0,0.0,0.0,1.05,1.24,85.0,4115.0,17.6,3.93,,13.15,1.097,95.2,,43.4,5.0,,,,,,,,,,,,0,0,0,0,0,0,0,0,0,0,0,0,0,0,0,0,,,,,0.0,,,,,,
304,638478,1745095350944,,,,,,,,,,,,,,,,,,,,,,,0.0,0.0,0.0,0.0,0.0,0.0,0.0,0.0,2.26,,,0,0,0,0,0,0,0,0,0,0,0,0,0,0,0,0,0.0,,,,,39.239765,-77.965752,0.0,35.0,3.0,0.8
305,638498,1745095350964,0.0,200.85,,-0.03,-0.01,0.94,1.0,0.0,0.0,0.94,1.24,75.0,4180.0,17.6,3.92,,13.17,1.128,95.2,,44.5,5.0,,,,,,,,,,,,0,0,0,0,0,0,0,0,0,0,0,0,0,0,0,0,,,,,0.0,,,,,,
306,638518,1745095350984,,,,,,,,,,,,,,,,,,,,,,,,,,,,,,,,,,0,0,0,0,0,0,0,0,0,0,0,0,0,0,0,0,,,,,,,,,,,
307,638538,1745095350993,0.0,200.85,,-0.07,0.06,1.0,0.0,0.0,0.0,1.0,1.24,81.0,4252.0,17.6,3.93,,13.16,1.204,95.2,,44.5,5.0,,,,,,,,,,,,0,0,0,0,0,0,0,0,0,0,0,0,0,0,0,0,,,,,0.0,,,,,,
308,638558,1745095351013,,,,,,,,,,,,,,,,,,,,,,,,,,,,,,,,,,0,0,0,0,0,0,0,0,0,0,0,0,0,0,0,0,,,,,,,,,,,
309,638578,1745095351033,0.0,200.85,,-0.04,0.14,1.09,0.0,0.0,0.0,1.1,1.24,88.0,4337.0,21.7,4.13,,13.33,1.249,95.2,,44.5,5.0,0.0,0.0,0.0,0.0,0.0,0.0,0.0,0.0,2.26,,,0,0,0,0,0,0,0,0,0,0,0,0,0,0,0,0,0.0,,,,0.0,39.239765,-77.965752,0.04,33.0,3.0,0.8
310,638598,1745095351053,,,,,,,,,,,,,,,,,,,,,,,,,,,,,,,,,,0,0,0,0,0,0,0,0,0,0,0,0,0,0,0,0,,,,,,,,,,,
311,638618,1745095351073,0.0,200.85,,-0.04,0.17,1.17,0.0,0.0,1.0,1.18,1.24,95.0,4599.0,22.5,4.14,,13.33,1.249,95.2,,47.5,5.0,,,,,,,,,,,,0,0,0,0,0,0,0,0,0,0,0,0,0,0,0,0,,,,,0.0,,,,,,
312,638638,1745095351097,,,,,,,,,,,,,,,,,,,,,,,,,,,,,,,,,,0,0,0,0,0,0,0,0,0,0,0,0,0,0,0,0,,,,,,,,,,,
313,638658,1745095351117,0.0,200.85,,-0.06,0.23,1.16,-2.0,0.0,1.0,1.19,1.24,95.0,4599.0,22.5,4.14,,13.39,1.249,95.2,,47.5,5.0,,,,,,,,,,,,0,0,0,0,0,0,0,0,0,0,0,0,0,0,0,0,,,,,0.0,,,,,,
314,638678,1745095351137,,,,,,,,,,,,,,,,,,,,,,,0.0,0.0,0.0,0.0,0.0,0.0,0.0,0.0,2.26,,,0,0,0,0,0,0,0,0,0,0,0,0,0,0,0,0,0.0,,,,,39.239765,-77.965752,0.04,33.0,3.0,0.8
315,638698,1745095351157,0.0,200.85,,-0.06,0.22,1.14,-1.0,0.0,1.0,1.17,1.24,94.0,0.0,22.7,4.13,,13.28,1.192,95.2,,54.2,5.0,,,,,,,,,,,,0,0,0,0,0,0,0,0,0,0,0,0,0,0,0,0,,,,,0.0,,,,,,
316,638718,1745095351177,,,,,,,,,,,,,,,,,,,,,,,,,,,,,,,,,,0,0,0,0,0,0,0,0,0,0,0,0,0,0,0,0,,,,,,,,,,,
317,638738,1745095351199,0.0,200.73,,-0.05,0.23,1.16,-1.0,0.0,1.0,1.18,1.24,95.0,5138.0,22.7,4.12,,13.2,1.157,95.2,,54.2,5.0,,,,,,,,,,,,0,0,0,0,0,0,0,0,0,0,0,0,0,0,0,0,,,,,0.0,,,,,,
318,638758,1745095351219,,,,,,,,,,,,,,,,,,,,,,,,,,,,,,,,,,0,0,0,0,0,0,0,0,0,0,0,0,0,0,0,0,,,,,,,,,,,
319,638778,1745095351239,0.0,200.73,,-0.03,0.17,1.1,-1.0,0.0,1.0,1.11,1.24,90.0,5015.0,22.0,4.09,,13.12,1.05,95.2,,54.2,5.0,0.0,0.0,0.0,0.0,0.0,0.0,0.0,0.0,2.26,,,0,0,0,0,0,0,0,0,0,0,0,0,0,0,0,0,0.0,,,,0.0,39.239765,-77.965752,0.05,33.0,3.0,0.8
320,638798,1745095351259,,,,,,,,,,,,,,,,,,,,,,,,,,,,,,,,,,0,0,0,0,0,0,0,0,0,0,0,0,0,0,0,0,,,,,,,,,,,
321,638818,1745095351279,0.0,200.73,,-0.06,0.19,1.12,-1.0,0.0,1.0,1.13,1.24,91.0,4912.0,18.7,4.0,,13.12,1.05,95.2,,53.7,5.0,,,,,,,,,,,,0,0,0,0,0,0,0,0,0,0,0,0,0,0,0,0,,,,,0.0,,,,,,
322,638838,1745095351303,,,,,,,,,,,,,,,,,,,,,,,,,,,,,,,,,,0,0,0,0,0,0,0,0,0,0,0,0,0,0,0,0,,,,,,,,,,,
323,638858,1745095351323,0.0,200.73,,-0.02,0.15,1.1,-1.0,0.0,1.0,1.11,1.24,89.0,4912.0,18.7,4.0,,13.05,1.038,95.2,,53.7,5.0,,,,,,,,,,,,0,0,0,0,0,0,0,0,0,0,0,0,0,0,0,0,,,,,0.0,,,,,,
324,638878,1745095351343,,,,,,,,,,,,,,,,,,,,,,,0.0,0.0,0.0,0.0,0.0,0.0,0.0,0.0,2.26,,,0,0,0,0,0,0,0,0,0,0,0,0,0,0,0,0,0.0,,,,,39.239765,-77.965752,0.11,33.0,3.0,0.8
325,638898,1745095351363,0.0,200.73,,-0.02,0.13,1.08,-1.0,0.0,1.0,1.08,1.24,87.0,5043.0,17.4,4.01,,13.04,1.112,95.2,,55.7,5.0,,,,,,,,,,,,0,0,0,0,0,0,0,0,0,0,0,0,0,0,0,0,,,,,0.0,,,,,,
326,638918,1745095351383,,,,,,,,,,,,,,,,,,,,,,,,,,,,,,,,,,0,0,0,0,0,0,0,0,0,0,0,0,0,0,0,0,,,,,,,,,,,
327,638938,1745095351403,0.0,200.73,,-0.05,0.11,1.05,-1.0,0.0,1.0,1.06,1.24,85.0,5364.0,17.4,4.05,,12.88,1.036,95.2,,55.7,5.0,,,,,,,,,,,,0,0,0,0,0,0,0,0,0,0,0,0,0,0,0,0,,,,,0.0,,,,,,
328,638958,1745095351423,,,,,,,,,,,,,,,,,,,,,,,,,,,,,,,,,,0,0,0,0,0,0,0,0,0,0,0,0,0,0,0,0,,,,,,,,,,,
329,638978,1745095351443,0.0,200.73,,-0.04,0.18,1.16,0.0,0.0,1.0,1.18,1.24,95.0,5807.0,17.3,4.06,,12.4,0.933,95.2,,55.7,5.0,0.0,0.0,0.0,0.0,0.0,0.0,0.0,0.0,2.26,,,0,0,0,0,0,0,0,0,0,0,0,0,0,0,0,0,0.0,,,,0.0,39.239765,-77.965752,0.04,33.0,3.0,0.8
330,638998,1745095351463,,,,,,,,,,,,,,,,,,,,,,,,,,,,,,,,,,0,0,0,0,0,0,0,0,0,0,0,0,0,0,0,0,,,,,,,,,,,
331,639018,1745095351483,0.0,200.73,,-0.05,0.22,1.21,-1.0,0.0,1.0,1.23,1.24,99.0,6333.0,17.4,4.33,,12.4,0.933,95.2,,64.5,5.0,,,,,,,,,,,,0,0,0,0,0,0,0,0,0,0,0,0,0,0,0,0,,,,,0.0,,,,,,
332,639038,1745095351505,,,,,,,,,,,,,,,,,,,,,,,,,,,,,,,,,,0,0,0,0,0,0,0,0,0,0,0,0,0,0,0,0,,,,,,,,,,,
333,639058,1745095351525,0.0,200.73,,-0.04,0.19,1.17,-1.0,0.0,1.0,1.19,1.24,95.0,6333.0,17.4,4.33,,11.96,0.915,95.2,,64.5,5.0,,,,,,,,,,,,0,0,0,0,0,0,0,0,0,0,0,0,0,0,0,0,,,,,0.0,,,,,,
334,639078,1745095351545,,,,,,,,,,,,,,,,,,,,,,,0.0,0.0,0.0,0.0,0.0,0.0,0.0,0.0,2.26,,,0,0,0,0,0,0,0,0,0,0,0,0,0,0,0,0,0.0,,,,,39.239765,-77.965752,0.34,33.0,3.0,0.8
335,639098,1745095351565,0.0,200.73,,-0.03,0.12,1.11,-1.0,0.0,1.0,1.11,1.24,89.0,6820.0,17.4,4.91,,11.52,0.936,95.2,,65.8,5.0,,,,,,,,,,,,0,0,0,0,0,0,0,0,0,0,0,0,0,0,0,0,,,,,0.0,,,,,,
336,639118,1745095351585,,,,,,,,,,,,,,,,,,,,,,,,,,,,,,,,,,0,0,0,0,0,0,0,0,0,0,0,0,0,0,0,0,,,,,,,,,,,
337,639138,1745095351603,0.0,200.73,,-0.03,0.21,1.09,-1.0,0.0,1.0,1.11,1.24,90.0,7366.0,17.5,5.09,,11.13,0.942,95.2,,65.8,5.0,,,,,,,,,,,,0,0,0,0,0,0,0,0,0,0,0,0,0,0,0,0,,,,,0.0,,,,,,
338,639158,1745095351623,,,,,,,,,,,,,,,,,,,,,,,,,,,,,,,,,,0,0,0,0,0,0,0,0,0,0,0,0,0,0,0,0,,,,,,,,,,,
339,639178,1745095351643,0.0,200.6,,-0.05,0.17,1.08,0.0,0.0,0.0,1.1,1.24,88.0,8113.0,16.9,4.03,,10.56,0.918,95.2,,65.8,5.0,0.0,0.0,0.0,0.0,0.0,0.0,0.0,0.0,2.26,,,0,0,0,0,0,0,0,0,0,0,0,0,0,0,0,0,0.0,,,,0.0,39.239765,-77.965752,0.23,33.0,3.0,0.8
340,639198,1745095351663,,,,,,,,,,,,,,,,,,,,,,,,,,,,,,,,,,0,0,0,0,0,0,0,0,0,0,0,0,0,0,0,0,,,,,,,,,,,
341,639218,1745095351683,0.0,200.35,,0.0,-0.04,1.13,-1.0,0.0,1.0,1.13,1.24,91.0,8113.0,16.9,4.03,,10.56,0.918,95.2,,65.9,5.0,,,,,,,,,,,,0,0,0,0,0,0,0,0,0,0,0,0,0,0,0,0,,,,,0.0,,,,,,
342,639238,1745095351703,,,,,,,,,,,,,,,,,,,,,,,,,,,,,,,,,,0,0,0,0,0,0,0,0,0,0,0,0,0,0,0,0,,,,,,,,,,,
343,639258,1745095351723,0.0,200.35,,0.06,0.1,1.11,0.0,0.0,0.0,1.11,1.24,89.0,9037.0,15.9,3.19,,9.86,0.78,95.2,,65.9,5.0,,,,,,,,,,,,0,0,0,0,0,0,0,0,0,0,0,0,0,0,0,0,,,,,0.0,,,,,,
344,639278,1745095351743,,,,,,,,,,,,,,,,,,,,,,,0.0,0.0,0.0,0.0,0.0,0.0,0.0,0.0,2.26,,,0,0,0,0,0,0,0,0,0,0,0,0,0,0,0,0,0.0,,,,,39.239765,-77.965752,0.07,33.0,3.0,0.8
345,639298,1745095351763,0.0,200.48,,0.04,0.06,1.09,1.0,0.0,0.0,1.1,1.24,88.0,9949.0,15.6,3.05,,9.09,0.759,95.2,,69.1,5.0,,,,,,,,,,,,0,0,0,0,0,0,0,0,0,0,0,0,0,0,0,0,,,,,0.0,,,,,,
346,639318,1745095351783,,,,,,,,,,,,,,,,,,,,,,,,,,,,,,,,,,0,0,0,0,0,0,0,0,0,0,0,0,0,0,0,0,,,,,,,,,,,
347,639338,1745095351803,0.0,200.35,,0.0,0.13,1.1,1.0,0.0,0.0,1.1,1.24,89.0,10635.0,15.7,2.86,,8.43,0.804,95.2,,69.1,5.0,,,,,,,,,,,,0,0,0,0,0,0,0,0,0,0,0,0,0,0,0,0,,,,,0.0,,,,,,
348,639358,1745095351823,,,,,,,,,,,,,,,,,,,,,,,,,,,,,,,,,,0,0,0,0,0,0,0,0,0,0,0,0,0,0,0,0,,,,,,,,,,,
349,639378,1745095351843,0.0,200.23,13.49,0.0,0.17,1.03,1.0,-1.0,0.0,1.04,1.24,84.0,11213.0,15.7,2.61,15.0,7.95,0.832,95.2,147.0,69.1,5.0,0.0,0.0,0.0,0.0,0.0,0.0,0.0,0.0,2.26,0.0,0.0,0,0,0,0,0,0,0,0,0,0,0,0,0,0,0,0,0.0,0.0,0.0,0.0,0.0,39.239765,-77.965752,0.29,33.0,3.0,0.8
350,639398,1745095351863,,,,,,,,,,,,,,,,,,,,,,,,,,,,,,,,,,0,0,0,0,0,0,0,0,0,0,0,0,0,0,0,0,,,,,,,,,,,
351,639418,1745095351883,0.0,200.23,,-0.0,0.13,1.02,0.0,-1.0,0.0,1.02,1.24,82.0,11606.0,15.6,2.42,,7.95,0.832,95.2,,66.2,5.0,,,,,,,,,,,,0,0,0,0,0,0,0,0,0,0,0,0,0,0,0,0,,,,,0.0,,,,,,
352,639438,1745095351905,,,,,,,,,,,,,,,,,,,,,,,,,,,,,,,,,,0,0,0,0,0,0,0,0,0,0,0,0,0,0,0,0,,,,,,,,,,,
353,639458,1745095351925,0.0,200.1,,-0.04,0.12,1.01,1.0,0.0,0.0,1.02,1.24,82.0,11606.0,15.6,2.42,,7.77,0.835,95.2,,66.2,5.0,,,,,,,,,,,,0,0,0,0,0,0,0,0,0,0,0,0,0,0,0,0,,,,,0.0,,,,,,
354,639478,1745095351945,,,,,,,,,,,,,,,,,,,,,,,0.0,0.0,0.0,0.0,0.0,0.0,0.0,0.0,2.26,,,0,0,0,0,0,0,0,0,0,0,0,0,0,0,0,0,0.0,,,,,39.239765,-77.965752,0.19,33.0,3.0,0.8
355,639498,1745095351965,0.0,199.97,,-0.03,0.1,0.91,1.0,0.0,0.0,0.91,1.24,73.0,11752.0,14.7,2.24,,7.41,0.846,95.2,,66.2,5.0,,,,,,,,,,,,0,0,0,0,0,0,0,0,0,0,0,0,0,0,0,0,,,,,0.0,,,,,,
356,639518,1745095351985,,,,,,,,,,,,,,,,,,,,,,,,,,,,,,,,,,0,0,0,0,0,0,0,0,0,0,0,0,0,0,0,0,,,,,,,,,,,
357,639538,1745095351996,0.0,199.85,,-0.07,0.26,0.84,0.0,0.0,0.0,0.88,1.24,71.0,11786.0,14.4,2.13,,7.14,0.86,95.2,,67.8,5.0,,,,,,,,,,,,0,0,0,0,0,0,0,0,0,0,0,0,0,0,0,0,,,,,0.0,,,,,,
358,639558,1745095352016,,,,,,,,,,,,,,,,,,,,,,,,,,,,,,,,,,0,0,0,0,0,0,0,0,0,0,0,0,0,0,0,0,,,,,,,,,,,
359,639578,1745095352036,0.0,199.85,,-0.1,0.26,1.01,-1.0,0.0,0.0,1.05,1.24,84.0,11773.0,10.4,2.02,,6.8,0.9,95.2,,67.8,5.0,0.0,0.0,0.0,0.0,0.0,0.0,0.0,0.0,2.26,,,0,0,0,0,0,0,0,0,0,0,0,0,0,0,0,0,0.0,,,,0.0,39.239765,-77.965752,0.1,33.0,3.0,0.8
360,639598,1745095352056,,,,,,,,,,,,,,,,,,,,,,,,,,,,,,,,,,0,0,0,0,0,0,0,0,0,0,0,0,0,0,0,0,,,,,,,,,,,
361,639618,1745095352076,0.0,199.85,,-0.08,0.32,1.13,-1.0,0.0,1.0,1.18,1.24,95.0,11682.0,3.8,1.49,,6.8,0.9,95.2,,66.9,5.0,,,,,,,,,,,,0,0,0,0,0,0,0,0,0,0,0,0,0,0,0,0,,,,,0.0,,,,,,
362,639638,1745095352100,,,,,,,,,,,,,,,,,,,,,,,,,,,,,,,,,,0,0,0,0,0,0,0,0,0,0,0,0,0,0,0,0,,,,,,,,,,,
363,639658,1745095352120,0.0,199.72,,-0.01,0.2,1.07,-1.0,-1.0,0.0,1.08,1.24,87.0,11682.0,3.8,1.49,,5.88,0.938,95.2,,66.9,5.0,,,,,,,,,,,,0,0,0,0,0,0,0,0,0,0,0,0,0,0,0,0,,,,,0.0,,,,,,
364,639678,1745095352140,,,,,,,,,,,,,,,,,,,,,,,0.0,0.0,0.0,0.0,0.0,0.0,0.0,0.0,2.26,,,0,0,0,0,0,0,0,0,0,0,0,0,0,0,0,0,0.0,,,,,39.239765,-77.965752,0.04,33.0,3.0,0.8
365,639698,1745095352160,0.0,199.72,,-0.01,0.13,1.05,0.0,0.0,0.0,1.06,1.24,85.0,11406.0,3.3,1.4,,5.28,0.94,95.2,,64.8,5.0,,,,,,,,,,,,0,0,0,0,0,0,0,0,0,0,0,0,0,0,0,0,,,,,0.0,,,,,,
366,639718,1745095352180,,,,,,,,,,,,,,,,,,,,,,,,,,,,,,,,,,0,0,0,0,0,0,0,0,0,0,0,0,0,0,0,0,,,,,,,,,,,
367,639738,1745095352202,0.0,199.6,,-0.01,0.14,1.03,0.0,0.0,0.0,1.03,1.24,83.0,10999.0,3.6,1.4,,4.97,0.957,95.2,,64.8,5.0,,,,,,,,,,,,0,0,0,0,0,0,0,0,0,0,0,0,0,0,0,0,,,,,0.0,,,,,,
368,639758,1745095352222,,,,,,,,,,,,,,,,,,,,,,,,,,,,,,,,,,0,0,0,0,0,0,0,0,0,0,0,0,0,0,0,0,,,,,,,,,,,
369,639778,1745095352242,0.0,199.47,,-0.02,0.01,1.14,0.0,0.0,0.0,1.14,1.24,91.0,10660.0,3.7,1.4,,5.12,1.032,95.2,,64.8,5.0,0.0,0.0,0.0,0.0,0.0,0.0,0.0,0.0,2.26,,,0,0,0,0,0,0,0,0,0,0,0,0,0,0,0,0,0.0,,,,0.0,39.239765,-77.965752,0.19,33.0,3.0,0.8
370,639798,1745095352262,,,,,,,,,,,,,,,,,,,,,,,,,,,,,,,,,,0,0,0,0,0,0,0,0,0,0,0,0,0,0,0,0,,,,,,,,,,,
371,639818,1745095352282,0.0,199.35,,-0.05,-0.01,1.12,1.0,0.0,0.0,1.12,1.24,90.0,10288.0,3.8,1.4,,5.12,1.032,95.2,,65.6,5.0,,,,,,,,,,,,0,0,0,0,0,0,0,0,0,0,0,0,0,0,0,0,,,,,0.0,,,,,,
372,639838,1745095352304,,,,,,,,,,,,,,,,,,,,,,,,,,,,,,,,,,0,0,0,0,0,0,0,0,0,0,0,0,0,0,0,0,,,,,,,,,,,
373,639858,1745095352324,0.0,199.35,,-0.06,0.04,1.14,0.0,0.0,0.0,1.14,1.24,91.0,10288.0,3.8,1.4,,5.2,1.051,95.2,,65.6,5.0,,,,,,,,,,,,0,0,0,0,0,0,0,0,0,0,0,0,0,0,0,0,,,,,0.0,,,,,,
374,639878,1745095352344,,,,,,,,,,,,,,,,,,,,,,,0.0,0.0,0.0,0.0,0.0,0.0,0.0,0.0,2.27,,,0,0,0,0,0,0,0,0,0,0,0,0,0,0,0,0,0.0,,,,,39.239765,-77.965752,0.09,33.0,3.0,0.8
375,639898,1745095352364,0.0,199.22,,-0.03,0.12,1.12,-1.0,0.0,0.0,1.13,1.24,91.0,9960.0,3.9,1.4,,5.2,1.047,95.2,,63.4,5.0,,,,,,,,,,,,0,0,0,0,0,0,0,0,0,0,0,0,0,0,0,0,,,,,0.0,,,,,,
376,639918,1745095352384,,,,,,,,,,,,,,,,,,,,,,,,,,,,,,,,,,0,0,0,0,0,0,0,0,0,0,0,0,0,0,0,0,,,,,,,,,,,
377,639938,1745095352402,0.0,199.1,,-0.03,-0.03,1.14,0.0,-1.0,0.0,1.14,1.24,92.0,9479.0,5.5,1.4,,5.3,1.075,95.2,,63.4,5.0,,,,,,,,,,,,0,0,0,0,0,0,0,0,0,0,0,0,0,0,0,0,,,,,0.0,,,,,,
378,639958,1745095352422,,,,,,,,,,,,,,,,,,,,,,,,,,,,,,,,,,0,0,0,0,0,0,0,0,0,0,0,0,0,0,0,0,,,,,,,,,,,
379,639978,1745095352442,0.0,198.97,,-0.04,-0.05,1.12,1.0,0.0,0.0,1.13,1.24,90.0,8866.0,8.1,1.64,,5.58,1.149,95.2,,63.4,5.0,0.0,0.0,0.0,0.0,0.0,0.0,0.0,0.0,2.26,,,0,0,0,0,0,0,0,0,0,0,0,0,0,0,0,0,0.0,,,,0.0,39.239765,-77.965752,0.23,33.0,3.0,0.8
380,639998,1745095352462,,,,,,,,,,,,,,,,,,,,,,,,,,,,,,,,,,0,0,0,0,0,0,0,0,0,0,0,0,0,0,0,0,,,,,,,,,,,
381,640018,1745095352482,0.0,198.84,,-0.04,-0.04,1.09,1.0,-1.0,0.0,1.09,1.24,88.0,8378.0,8.7,1.85,,5.58,1.149,95.2,,60.6,5.0,,,,,,,,,,,,0,0,0,0,0,0,0,0,0,0,0,0,0,0,0,0,,,,,0.0,,,,,,
382,640038,1745095352504,,,,,,,,,,,,,,,,,,,,,,,,,,,,,,,,,,0,0,0,0,0,0,0,0,0,0,0,0,0,0,0,0,,,,,,,,,,,
383,640058,1745095352524,0.0,198.72,,-0.04,0.03,1.1,1.0,0.0,0.0,1.1,1.24,89.0,8378.0,8.7,1.85,,6.06,1.251,95.2,,60.6,5.0,,,,,,,,,,,,0,0,0,0,0,0,0,0,0,0,0,0,0,0,0,0,,,,,0.0,,,,,,
384,640078,1745095352544,,,,,,,,,,,,,,,,,,,,,,,0.0,0.0,0.0,0.0,0.0,0.0,0.0,0.0,2.26,,,0,0,0,0,0,0,0,0,0,0,0,0,0,0,0,0,0.0,,,,,39.239765,-77.965752,0.13,33.0,3.0,0.8
385,640098,1745095352564,0.0,198.47,,-0.04,-0.01,1.1,1.0,0.0,0.0,1.1,1.24,89.0,7985.0,12.4,2.12,,6.8,1.251,95.2,,61.6,5.0,,,,,,,,,,,,0,0,0,0,0,0,0,0,0,0,0,0,0,0,0,0,,,,,0.0,,,,,,
