,Interval,Utc,FrontBP,SteerAng,Battery,AccelX,AccelY,AccelZ,Yaw,Pitch,Roll,Gsum,GsumMax,GsumPct,RPM,TPS,InjectorPW,Baro,MAP,Lambda,IAT,EngineTemp,EOP,EOT,WSFR,WSFL,WSRR,WSRL,TCSet,TCSlip,TCComp,TCCut,Analog8,OilTemp,AA_On,ThermLF1,ThermLF2,ThermRR1,ThermRR2,ThermLF3,ThermLF4,ThermLF5,ThermLF6,ThermLF7,ThermLF8,ThermRR3,ThermRR4,ThermRR5,ThermRR6,ThermRR7,ThermRR8,Gear,AA_On1,AA_LowDrag,Fuel_Mix,AA_Packages,Latitude,Longitude,Speed,GPSSats,GPSQual,GPSDOP
0,1404209,1745076677468,,,,,,,,,,,,,,,,,,,,,,,,,,,,,,,,,,0,0,0,0,0,0,0,0,0,0,0,0,0,0,0,0,,,,,,,,,,,
1,1404229,1745076677488,0.0,175.47,,-0.04,-0.09,0.95,0.0,0.0,0.0,0.96,0.96,100.0,4006.0,10.6,3.94,,13.03,1.241,84.4,,49.3,5.0,,,,,,,,,,,,0,0,0,0,0,0,0,0,0,0,0,0,0,0,0,0,,,,,0.0,,,,,,
2,1404249,1745076677508,,,,,,,,,,,,,,,,,,,,,,,,,,,,,,,,,,0,0,0,0,0,0,0,0,0,0,0,0,0,0,0,0,,,,,,,,,,,
3,1404269,1745076677528,0.0,175.59,,-0.06,0.02,1.04,-1.0,0.0,0.0,1.04,1.04,100.0,4138.0,10.5,3.9,,13.03,1.241,84.4,,53.1,5.0,,,,,,,,,,,,0,0,0,0,0,0,0,0,0,0,0,0,0,0,0,0,,,,,0.0,,,,,,
4,1404289,1745076677548,,,,,,,,,,,,,,,,,,,,,,,0.0,0.0,0.0,0.0,0.0,0.0,0.0,0.0,2.26,,,0,0,0,0,0,0,0,0,0,0,0,0,0,0,0,0,0.0,,,,,39.239567,-77.964607,0.11,30.0,3.0,0.8
5,1404309,1745076677568,0.0,175.59,,-0.04,-0.12,0.99,-1.0,0.0,0.0,1.0,1.04,96.0,4138.0,10.5,3.9,,12.93,1.173,84.4,,53.1,5.0,,,,,,,,,,,,0,0,0,0,0,0,0,0,0,0,0,0,0,0,0,0,,,,,0.0,,,,,,
6,1404329,1745076677588,,,,,,,,,,,,,,,,,,,,,,,,,,,,,,,,,,0,0,0,0,0,0,0,0,0,0,0,0,0,0,0,0,,,,,,,,,,,
7,1404349,1745076677607,0.0,175.72,,-0.03,-0.12,0.98,0.0,0.0,0.0,0.99,1.04,96.0,3954.0,10.5,3.9,,12.97,1.039,84.4,,51.4,5.0,,,,,,,,,,,,0,0,0,0,0,0,0,0,0,0,0,0,0,0,0,0,,,,,0.0,,,,,,
8,1404369,1745076677627,,,,,,,,,,,,,,,,,,,,,,,,,,,,,,,,,,0,0,0,0,0,0,0,0,0,0,0,0,0,0,0,0,,,,,,,,,,,
9,1404389,1745076677647,0.0,175.72,13.62,-0.01,-0.1,1.0,0.0,0.0,0.0,1.01,1.04,97.0,3687.0,10.5,3.91,15.0,13.04,0.986,84.4,133.0,51.4,5.0,0.0,0.0,0.0,0.0,0.0,0.0,0.0,0.0,2.26,0.0,0.0,0,0,0,0,0,0,0,0,0,0,0,0,0,0,0,0,0.0,0.0,0.0,0.0,0.0,39.239567,-77.964607,0.21,30.0,3.0,0.8
10,1404409,1745076677667,,,,,,,,,,,,,,,,,,,,,,,,,,,,,,,,,,0,0,0,0,0,0,0,0,0,0,0,0,0,0,0,0,,,,,,,,,,,
11,1404429,1745076677687,0.0,175.72,,-0.02,-0.07,1.05,-1.0,0.0,1.0,1.05,1.05,100.0,3522.0,10.5,3.92,,13.16,0.999,84.4,,51.4,5.0,,,,,,,,,,,,0,0,0,0,0,0,0,0,0,0,0,0,0,0,0,0,,,,,0.0,,,,,,
12,1404449,1745076677707,,,,,,,,,,,,,,,,,,,,,,,,,,,,,,,,,,0,0,0,0,0,0,0,0,0,0,0,0,0,0,0,0,,,,,,,,,,,
13,1404469,1745076677727,0.0,175.72,,-0.01,-0.05,0.97,0.0,0.0,0.0,0.97,1.05,93.0,3332.0,10.6,3.92,,13.16,0.999,84.4,,45.4,5.0,,,,,,,,,,,,0,0,0,0,0,0,0,0,0,0,0,0,0,0,0,0,,,,,0.0,,,,,,
14,1404489,1745076677747,,,,,,,,,,,,,,,,,,,,,,,0.0,0.0,0.0,0.0,0.0,0.0,0.0,0.0,2.26,,,0,0,0,0,0,0,0,0,0,0,0,0,0,0,0,0,0.0,,,,,39.239567,-77.964607,0.36,30.0,3.0,0.8
15,1404509,1745076677767,0.0,175.72,,0.01,-0.01,0.93,0.0,0.0,0.0,0.93,1.05,89.0,3332.0,10.6,3.92,,13.29,1.061,84.4,,45.4,5.0,,,,,,,,,,,,0,0,0,0,0,0,0,0,0,0,0,0,0,0,0,0,,,,,0.0,,,,,,
16,1404529,1745076677787,,,,,,,,,,,,,,,,,,,,,,,,,,,,,,,,,,0,0,0,0,0,0,0,0,0,0,0,0,0,0,0,0,,,,,,,,,,,
17,1404549,1745076677807,0.0,175.72,,0.04,0.03,0.89,0.0,0.0,0.0,0.89,1.05,85.0,2999.0,10.7,3.92,,13.41,1.137,84.4,,38.2,5.0,,,,,,,,,,,,0,0,0,0,0,0,0,0,0,0,0,0,0,0,0,0,,,,,0.0,,,,,,
18,1404569,1745076677827,,,,,,,,,,,,,,,,,,,,,,,,,,,,,,,,,,0,0,0,0,0,0,0,0,0,0,0,0,0,0,0,0,,,,,,,,,,,
19,1404589,1745076677847,0.0,175.72,,0.04,0.02,0.88,0.0,0.0,0.0,0.88,1.05,84.0,2777.0,10.6,3.93,,13.63,1.191,84.4,,38.2,5.0,0.0,0.0,0.0,0.0,0.0,0.0,0.0,0.0,2.26,,,0,0,0,0,0,0,0,0,0,0,0,0,0,0,0,0,0.0,,,,0.0,39.239567,-77.964607,0.66,30.0,3.0,0.8
20,1404609,1745076677867,,,,,,,,,,,,,,,,,,,,,,,,,,,,,,,,,,0,0,0,0,0,0,0,0,0,0,0,0,0,0,0,0,,,,,,,,,,,
21,1404629,1745076677887,0.0,175.72,,0.03,0.02,0.89,0.0,0.0,0.0,0.89,1.05,85.0,2588.0,10.6,3.88,,13.75,1.209,84.4,,38.2,5.0,,,,,,,,,,,,0,0,0,0,0,0,0,0,0,0,0,0,0,0,0,0,,,,,0.0,,,,,,
22,1404649,1745076677908,,,,,,,,,,,,,,,,,,,,,,,,,,,,,,,,,,0,0,0,0,0,0,0,0,0,0,0,0,0,0,0,0,,,,,,,,,,,
23,1404669,1745076677928,0.0,175.72,,0.03,0.01,0.91,0.0,0.0,0.0,0.91,1.05,87.0,2406.0,10.6,3.83,,13.75,1.209,84.4,,32.1,5.0,,,,,,,,,,,,0,0,0,0,0,0,0,0,0,0,0,0,0,0,0,0,,,,,0.0,,,,,,
24,1404689,1745076677948,,,,,,,,,,,,,,,,,,,,,,,0.0,0.0,0.0,0.0,0.0,0.0,0.0,0.0,2.26,,,0,0,0,0,0,0,0,0,0,0,0,0,0,0,0,0,0.0,,,,,39.239567,-77.964607,0.92,30.0,3.0,0.8
25,1404709,1745076677968,0.0,175.72,,0.0,0.01,0.91,0.0,0.0,0.0,0.91,1.05,87.0,2406.0,10.6,3.83,,13.88,1.216,84.4,,32.1,5.0,,,,,,,,,,,,0,0,0,0,0,0,0,0,0,0,0,0,0,0,0,0,,,,,0.0,,,,,,
26,1404729,1745076677988,,,,,,,,,,,,,,,,,,,,,,,,,,,,,,,,,,0,0,0,0,0,0,0,0,0,0,0,0,0,0,0,0,,,,,,,,,,,
27,1404749,1745076677999,0.0,175.72,,-0.0,-0.01,0.92,0.0,0.0,0.0,0.92,1.05,88.0,2172.0,10.6,3.77,,14.0,1.24,84.4,,26.9,5.0,,,,,,,,,,,,0,0,0,0,0,0,0,0,0,0,0,0,0,0,0,0,,,,,0.0,,,,,,
28,1404769,1745076678019,,,,,,,,,,,,,,,,,,,,,,,,,,,,,,,,,,0,0,0,0,0,0,0,0,0,0,0,0,0,0,0,0,,,,,,,,,,,
29,1404789,1745076678039,0.0,175.72,,-0.01,-0.03,0.93,0.0,0.0,0.0,0.93,1.05,89.0,1940.0,10.5,3.7,,14.08,1.247,84.4,,26.9,5.0,1.0,0.0,1.0,0.0,0.0,0.0,0.0,0.0,2.26,,,0,0,0,0,0,0,0,0,0,0,0,0,0,0,0,0,0.0,,,,0.0,39.239567,-77.964607,1.31,30.0,3.0,0.8
30,1404809,1745076678059,,,,,,,,,,,,,,,,,,,,,,,,,,,,,,,,,,0,0,0,0,0,0,0,0,0,0,0,0,0,0,0,0,,,,,,,,,,,
31,1404829,1745076678079,0.0,175.72,,-0.03,-0.01,0.92,0.0,0.0,0.0,0.92,1.05,88.0,1966.0,10.5,3.68,,13.96,1.248,84.4,,26.9,5.0,,,,,,,,,,,,0,0,0,0,0,0,0,0,0,0,0,0,0,0,0,0,,,,,0.0,,,,,,
32,1404849,1745076678103,,,,,,,,,,,,,,,,,,,,,,,,,,,,,,,,,,0,0,0,0,0,0,0,0,0,0,0,0,0,0,0,0,,,,,,,,,,,
33,1404869,1745076678123,0.0,175.72,,-0.04,-0.01,0.94,0.0,0.0,0.0,0.95,1.05,90.0,1994.0,10.5,3.69,,13.96,1.248,84.4,,23.2,5.0,,,,,,,,,,,,0,0,0,0,0,0,0,0,0,0,0,0,0,0,0,0,,,,,0.0,,,,,,
34,1404889,1745076678143,,,,,,,,,,,,,,,,,,,,,,,1.0,0.0,1.0,1.0,0.0,0.0,0.0,0.0,2.26,,,0,0,0,0,0,0,0,0,0,0,0,0,0,0,0,0,0.0,,,,,39.239567,-77.964607,1.54,30.0,3.0,0.8
35,1404909,1745076678163,0.0,175.72,,-0.05,-0.01,0.96,0.0,0.0,0.0,0.96,1.05,91.0,1994.0,10.5,3.69,,13.99,1.249,84.4,,23.2,5.0,,,,,,,,,,,,0,0,0,0,0,0,0,0,0,0,0,0,0,0,0,0,,,,,0.0,,,,,,
36,1404929,1745076678183,,,,,,,,,,,,,,,,,,,,,,,,,,,,,,,,,,0,0,0,0,0,0,0,0,0,0,0,0,0,0,0,0,,,,,,,,,,,
37,1404949,1745076678205,0.0,175.72,,-0.07,-0.0,0.95,0.0,0.0,0.0,0.95,1.05,91.0,2069.0,10.5,3.65,,14.02,1.25,84.4,,23.9,5.0,,,,,,,,,,,,0,0,0,0,0,0,0,0,0,0,0,0,0,0,0,0,,,,,0.0,,,,,,
38,1404969,1745076678225,,,,,,,,,,,,,,,,,,,,,,,,,,,,,,,,,,0,0,0,0,0,0,0,0,0,0,0,0,0,0,0,0,,,,,,,,,,,
39,1404989,1745076678245,0.0,175.59,,-0.08,-0.01,0.95,0.0,0.0,0.0,0.95,1.05,91.0,2025.0,10.6,3.65,,13.99,1.251,84.4,,23.9,5.0,1.0,0.0,1.0,1.0,0.0,0.0,0.0,0.0,2.26,,,0,0,0,0,0,0,0,0,0,0,0,0,0,0,0,0,0.0,,,,0.0,39.239567,-77.964607,1.45,30.0,3.0,0.8
40,1405009,1745076678265,,,,,,,,,,,,,,,,,,,,,,,,,,,,,,,,,,0,0,0,0,0,0,0,0,0,0,0,0,0,0,0,0,,,,,,,,,,,
41,1405029,1745076678285,0.0,175.59,,-0.07,-0.0,0.95,0.0,0.0,0.0,0.95,1.05,91.0,2073.0,10.7,3.66,,14.06,1.239,84.4,,23.9,5.0,,,,,,,,,,,,0,0,0,0,0,0,0,0,0,0,0,0,0,0,0,0,,,,,0.0,,,,,,
42,1405049,1745076678305,,,,,,,,,,,,,,,,,,,,,,,,,,,,,,,,,,0,0,0,0,0,0,0,0,0,0,0,0,0,0,0,0,,,,,,,,,,,
43,1405069,1745076678325,0.0,175.47,,-0.07,-0.01,0.95,0.0,0.0,0.0,0.95,1.05,91.0,2170.0,10.7,3.67,,14.06,1.239,84.4,,25.6,5.0,,,,,,,,,,,,0,0,0,0,0,0,0,0,0,0,0,0,0,0,0,0,,,,,0.0,,,,,,
44,1405089,1745076678345,,,,,,,,,,,,,,,,,,,,,,,1.0,0.0,1.0,1.0,0.0,0.0,0.0,0.0,2.25,,,0,0,0,0,0,0,0,0,0,0,0,0,0,0,0,0,0.0,,,,,39.239567,-77.964607,1.36,30.0,3.0,0.8
45,1405109,1745076678365,0.0,175.34,,-0.07,-0.04,0.96,0.0,0.0,0.0,0.96,1.05,92.0,2170.0,10.7,3.67,,14.0,1.248,84.4,,25.6,5.0,,,,,,,,,,,,0,0,0,0,0,0,0,0,0,0,0,0,0,0,0,0,,,,,0.0,,,,,,
46,1405129,1745076678385,,,,,,,,,,,,,,,,,,,,,,,,,,,,,,,,,,0,0,0,0,0,0,0,0,0,0,0,0,0,0,0,0,,,,,,,,,,,
47,1405149,1745076678405,0.0,175.34,,-0.07,-0.03,0.96,0.0,0.0,0.0,0.97,1.05,92.0,2262.0,10.7,3.7,,13.95,1.245,84.4,,27.8,5.0,,,,,,,,,,,,0,0,0,0,0,0,0,0,0,0,0,0,0,0,0,0,,,,,0.0,,,,,,
48,1405169,1745076678425,,,,,,,,,,,,,,,,,,,,,,,,,,,,,,,,,,0,0,0,0,0,0,0,0,0,0,0,0,0,0,0,0,,,,,,,,,,,
49,1405189,1745076678445,0.0,175.21,,-0.07,-0.05,0.98,0.0,0.0,0.0,0.98,1.05,94.0,2361.0,10.7,3.74,,13.94,1.251,84.4,,27.8,5.0,1.0,0.0,1.0,1.0,0.0,0.0,0.0,0.0,2.26,,,0,0,0,0,0,0,0,0,0,0,0,0,0,0,0,0,0.0,,,,0.0,39.239567,-77.964607,1.31,30.0,3.0,0.8
50,1405209,1745076678465,,,,,,,,,,,,,,,,,,,,,,,,,,,,,,,,,,0,0,0,0,0,0,0,0,0,0,0,0,0,0,0,0,,,,,,,,,,,
51,1405229,1745076678485,0.0,175.09,,-0.08,-0.05,0.99,0.0,0.0,0.0,0.99,1.05,95.0,2418.0,10.8,3.75,,13.94,1.251,84.4,,27.8,5.0,,,,,,,,,,,,0,0,0,0,0,0,0,0,0,0,0,0,0,0,0,0,,,,,0.0,,,,,,
52,1405249,1745076678507,,,,,,,,,,,,,,,,,,,,,,,,,,,,,,,,,,0,0,0,0,0,0,0,0,0,0,0,0,0,0,0,0,,,,,,,,,,,
53,1405269,1745076678527,0.0,175.09,,-0.08,-0.04,0.97,0.0,0.0,0.0,0.98,1.05,93.0,2486.0,10.8,3.75,,13.92,1.249,84.4,,29.3,5.0,,,,,,,,,,,,0,0,0,0,0,0,0,0,0,0,0,0,0,0,0,0,,,,,0.0,,,,,,
54,1405289,1745076678547,,,,,,,,,,,,,,,,,,,,,,,1.0,0.0,1.0,1.0,0.0,0.0,0.0,0.0,2.26,,,0,0,0,0,0,0,0,0,0,0,0,0,0,0,0,0,0.0,,,,,39.239567,-77.964607,1.18,30.0,3.0,0.8
55,1405309,1745076678567,0.0,175.09,,-0.08,-0.03,1.0,0.0,0.0,0.0,1.0,1.05,96.0,2486.0,10.8,3.75,,13.91,1.249,84.4,,29.3,5.0,,,,,,,,,,,,0,0,0,0,0,0,0,0,0,0,0,0,0,0,0,0,,,,,0.0,,,,,,
56,1405329,1745076678587,,,,,,,,,,,,,,,,,,,,,,,,,,,,,,,,,,0,0,0,0,0,0,0,0,0,0,0,0,0,0,0,0,,,,,,,,,,,
57,1405349,1745076678606,0.0,174.96,,-0.08,-0.01,0.95,0.0,0.0,0.0,0.95,1.05,91.0,2531.0,10.9,3.79,,13.83,1.248,84.4,,31.4,5.0,,,,,,,,,,,,0,0,0,0,0,0,0,0,0,0,0,0,0,0,0,0,,,,,0.0,,,,,,
58,1405369,1745076678626,,,,,,,,,,,,,,,,,,,,,,,,,,,,,,,,,,0,0,0,0,0,0,0,0,0,0,0,0,0,0,0,0,,,,,,,,,,,
59,1405389,1745076678646,0.0,174.96,13.64,-0.06,0.04,0.89,0.0,0.0,0.0,0.89,1.05,85.0,2984.0,10.8,3.85,15.0,13.67,1.248,84.4,133.0,31.4,5.0,1.0,0.0,1.0,1.0,0.0,0.0,0.0,0.0,2.26,0.0,0.0,0,0,0,0,0,0,0,0,0,0,0,0,0,0,0,0,0.0,0.0,0.0,0.0,0.0,39.239567,-77.964607,0.99,30.0,3.0,0.8
60,1405409,1745076678666,,,,,,,,,,,,,,,,,,,,,,,,,,,,,,,,,,0,0,0,0,0,0,0,0,0,0,0,0,0,0,0,0,,,,,,,,,,,
61,1405429,1745076678686,0.0,174.96,,-0.05,0.1,0.92,0.0,0.0,1.0,0.92,1.05,88.0,3167.0,10.9,3.89,,13.61,1.25,84.4,,31.4,5.0,,,,,,,,,,,,0,0,0,0,0,0,0,0,0,0,0,0,0,0,0,0,,,,,0.0,,,,,,
62,1405449,1745076678709,,,,,,,,,,,,,,,,,,,,,,,,,,,,,,,,,,0,0,0,0,0,0,0,0,0,0,0,0,0,0,0,0,,,,,,,,,,,
63,1405469,1745076678729,0.0,174.96,,-0.09,0.01,1.0,0.0,0.0,1.0,1.01,1.05,96.0,3250.0,11.0,3.87,,13.61,1.25,84.4,,38.8,5.0,,,,,,,,,,,,0,0,0,0,0,0,0,0,0,0,0,0,0,0,0,0,,,,,0.0,,,,,,
64,1405489,1745076678749,,,,,,,,,,,,,,,,,,,,,,,1.0,0.0,1.0,1.0,0.0,0.0,0.0,0.0,2.26,,,0,0,0,0,0,0,0,0,0,0,0,0,0,0,0,0,0.0,,,,,39.239563,-77.964607,0.83,30.0,3.0,0.8
65,1405509,1745076678769,0.0,174.84,,-0.07,0.05,0.91,0.0,0.0,0.0,0.91,1.05,87.0,3250.0,11.0,3.87,,13.53,1.216,84.4,,38.8,5.0,,,,,,,,,,,,0,0,0,0,0,0,0,0,0,0,0,0,0,0,0,0,,,,,0.0,,,,,,
66,1405529,1745076678789,,,,,,,,,,,,,,,,,,,,,,,,,,,,,,,,,,0,0,0,0,0,0,0,0,0,0,0,0,0,0,0,0,,,,,,,,,,,
67,1405549,1745076678806,0.0,174.84,,-0.09,-0.01,1.0,0.0,0.0,1.0,1.0,1.05,95.0,3354.0,11.2,3.88,,13.49,1.223,84.4,,38.8,5.0,,,,,,,,,,,,0,0,0,0,0,0,0,0,0,0,0,0,0,0,0,0,,,,,0.0,,,,,,
68,1405569,1745076678826,,,,,,,,,,,,,,,,,,,,,,,,,,,,,,,,,,0,0,0,0,0,0,0,0,0,0,0,0,0,0,0,0,,,,,,,,,,,
69,1405589,1745076678846,0.0,174.84,,-0.08,-0.02,0.92,1.0,0.0,0.0,0.93,1.05,89.0,3305.0,11.3,3.88,,13.48,1.248,84.4,,41.4,5.0,1.0,0.0,1.0,1.0,0.0,0.0,0.0,0.0,2.26,,,0,0,0,0,0,0,0,0,0,0,0,0,0,0,0,0,0.0,,,,0.0,39.239563,-77.964607,0.89,30.0,3.0,0.8
70,1405609,1745076678866,,,,,,,,,,,,,,,,,,,,,,,,,,,,,,,,,,0,0,0,0,0,0,0,0,0,0,0,0,0,0,0,0,,,,,,,,,,,
71,1405629,1745076678886,0.0,174.71,,-0.1,-0.04,0.99,0.0,0.0,0.0,1.0,1.05,95.0,3530.0,11.4,3.88,,13.47,1.25,84.4,,41.4,5.0,,,,,,,,,,,,0,0,0,0,0,0,0,0,0,0,0,0,0,0,0,0,,,,,0.0,,,,,,
72,1405649,1745076678906,,,,,,,,,,,,,,,,,,,,,,,,,,,,,,,,,,0,0,0,0,0,0,0,0,0,0,0,0,0,0,0,0,,,,,,,,,,,
73,1405669,1745076678926,0.0,174.71,,-0.07,0.06,0.98,-1.0,0.0,1.0,0.98,1.05,94.0,3530.0,11.4,3.88,,13.47,1.25,84.4,,44.0,5.0,,,,,,,,,,,,0,0,0,0,0,0,0,0,0,0,0,0,0,0,0,0,,,,,0.0,,,,,,
74,1405689,1745076678946,,,,,,,,,,,,,,,,,,,,,,,1.0,0.0,1.0,0.0,0.0,0.0,0.0,0.0,2.26,,,0,0,0,0,0,0,0,0,0,0,0,0,0,0,0,0,0.0,,,,,39.239563,-77.964607,0.71,30.0,3.0,0.8
75,1405709,1745076678966,0.0,174.84,,-0.1,0.03,0.94,0.0,0.0,0.0,0.95,1.05,90.0,3480.0,11.4,3.87,,13.4,1.25,84.4,,44.0,5.0,,,,,,,,,,,,0,0,0,0,0,0,0,0,0,0,0,0,0,0,0,0,,,,,0.0,,,,,,
76,1405729,1745076678986,,,,,,,,,,,,,,,,,,,,,,,,,,,,,,,,,,0,0,0,0,0,0,0,0,0,0,0,0,0,0,0,0,,,,,,,,,,,
77,1405749,1745076678998,0.0,174.71,,-0.11,0.03,1.01,0.0,0.0,0.0,1.01,1.05,97.0,3465.0,11.5,3.87,,13.43,1.241,84.4,,44.7,5.0,,,,,,,,,,,,0,0,0,0,0,0,0,0,0,0,0,0,0,0,0,0,,,,,0.0,,,,,,
78,1405769,1745076679018,,,,,,,,,,,,,,,,,,,,,,,,,,,,,,,,,,0,0,0,0,0,0,0,0,0,0,0,0,0,0,0,0,,,,,,,,,,,
79,1405789,1745076679038,0.0,174.71,,-0.09,0.12,0.98,0.0,0.0,1.0,1.0,1.05,95.0,3534.0,11.6,3.87,,13.39,1.189,84.4,,44.7,5.0,0.0,0.0,1.0,0.0,0.0,0.0,0.0,0.0,2.26,,,0,0,0,0,0,0,0,0,0,0,0,0,0,0,0,0,0.0,,,,0.0,39.239563,-77.964607,0.49,29.0,3.0,0.8
80,1405809,1745076679058,,,,,,,,,,,,,,,,,,,,,,,,,,,,,,,,,,0,0,0,0,0,0,0,0,0,0,0,0,0,0,0,0,,,,,,,,,,,
81,1405829,1745076679078,0.0,174.71,,-0.08,0.08,0.96,0.0,0.0,0.0,0.97,1.05,92.0,3521.0,11.5,3.88,,13.4,1.215,84.4,,44.7,5.0,,,,,,,,,,,,0,0,0,0,0,0,0,0,0,0,0,0,0,0,0,0,,,,,0.0,,,,,,
82,1405849,1745076679102,,,,,,,,,,,,,,,,,,,,,,,,,,,,,,,,,,0,0,0,0,0,0,0,0,0,0,0,0,0,0,0,0,,,,,,,,,,,
83,1405869,1745076679122,0.0,174.59,,-0.1,-0.03,0.96,0.0,0.0,0.0,0.97,1.05,92.0,3620.0,11.5,3.88,,13.4,1.215,84.4,,45.4,5.0,,,,,,,,,,,,0,0,0,0,0,0,0,0,0,0,0,0,0,0,0,0,,,,,0.0,,,,,,
84,1405889,1745076679142,,,,,,,,,,,,,,,,,,,,,,,0.0,0.0,0.0,0.0,0.0,0.0,0.0,0.0,2.26,,,0,0,0,0,0,0,0,0,0,0,0,0,0,0,0,0,0.0,,,,,39.239563,-77.964607,0.47,29.0,3.0,0.8
85,1405909,1745076679162,0.0,174.59,,-0.1,-0.03,1.0,0.0,0.0,0.0,1.0,1.05,96.0,3620.0,11.5,3.88,,13.31,1.245,84.4,,45.4,5.0,,,,,,,,,,,,0,0,0,0,0,0,0,0,0,0,0,0,0,0,0,0,,,,,0.0,,,,,,
86,1405929,1745076679182,,,,,,,,,,,,,,,,,,,,,,,,,,,,,,,,,,0,0,0,0,0,0,0,0,0,0,0,0,0,0,0,0,,,,,,,,,,,
87,1405949,1745076679206,0.0,174.59,,-0.1,-0.01,1.01,0.0,0.0,0.0,1.01,1.05,97.0,3626.0,11.6,3.88,,13.31,1.249,84.4,,46.7,5.0,,,,,,,,,,,,0,0,0,0,0,0,0,0,0,0,0,0,0,0,0,0,,,,,0.0,,,,,,
88,1405969,1745076679226,,,,,,,,,,,,,,,,,,,,,,,,,,,,,,,,,,0,0,0,0,0,0,0,0,0,0,0,0,0,0,0,0,,,,,,,,,,,
89,1405989,1745076679246,0.0,174.46,,-0.1,0.03,1.0,0.0,0.0,0.0,1.0,1.05,96.0,3673.0,11.8,3.88,,13.32,1.251,84.4,,46.7,5.0,0.0,0.0,0.0,0.0,0.0,0.0,0.0,0.0,2.26,,,0,0,0,0,0,0,0,0,0,0,0,0,0,0,0,0,0.0,,,,0.0,39.239563,-77.964607,0.26,29.0,3.0,0.8
90,1406009,1745076679266,,,,,,,,,,,,,,,,,,,,,,,,,,,,,,,,,,0,0,0,0,0,0,0,0,0,0,0,0,0,0,0,0,,,,,,,,,,,
91,1406029,1745076679286,0.0,174.46,,-0.09,0.03,1.02,0.0,0.0,0.0,1.03,1.05,98.0,3636.0,14.9,3.93,,13.45,1.252,84.4,,46.7,5.0,,,,,,,,,,,,0,0,0,0,0,0,0,0,0,0,0,0,0,0,0,0,,,,,0.0,,,,,,
92,1406049,1745076679306,,,,,,,,,,,,,,,,,,,,,,,,,,,,,,,,,,0,0,0,0,0,0,0,0,0,0,0,0,0,0,0,0,,,,,,,,,,,
93,1406069,1745076679326,0.0,174.46,,-0.09,0.04,1.05,0.0,0.0,0.0,1.05,1.05,100.0,3636.0,14.9,3.93,,13.45,1.252,84.4,,47.5,5.0,,,,,,,,,,,,0,0,0,0,0,0,0,0,0,0,0,0,0,0,0,0,,,,,0.0,,,,,,
94,1406089,1745076679346,,,,,,,,,,,,,,,,,,,,,,,0.0,0.0,0.0,0.0,0.0,0.0,0.0,0.0,2.26,,,0,0,0,0,0,0,0,0,0,0,0,0,0,0,0,0,0.0,,,,,39.239563,-77.964607,0.18,29.0,3.0,0.8
95,1406109,1745076679366,0.0,174.46,,-0.09,-0.01,1.03,0.0,0.0,0.0,1.04,1.05,98.0,3783.0,16.4,3.96,,13.45,1.252,84.4,,47.5,5.0,,,,,,,,,,,,0,0,0,0,0,0,0,0,0,0,0,0,0,0,0,0,,,,,0.0,,,,,,
96,1406129,1745076679386,,,,,,,,,,,,,,,,,,,,,,,,,,,,,,,,,,0,0,0,0,0,0,0,0,0,0,0,0,0,0,0,0,,,,,,,,,,,
97,1406149,1745076679408,0.0,174.46,,-0.11,-0.08,0.97,0.0,0.0,0.0,0.98,1.05,93.0,3889.0,17.2,3.98,,13.48,1.252,84.4,,49.5,5.0,,,,,,,,,,,,0,0,0,0,0,0,0,0,0,0,0,0,0,0,0,0,,,,,0.0,,,,,,
98,1406169,1745076679428,,,,,,,,,,,,,,,,,,,,,,,,,,,,,,,,,,0,0,0,0,0,0,0,0,0,0,0,0,0,0,0,0,,,,,,,,,,,
99,1406189,1745076679448,0.0,174.46,,-0.11,-0.09,0.93,0.0,0.0,0.0,0.94,1.05,89.0,3876.0,17.4,3.98,,13.52,1.231,84.4,,49.5,5.0,0.0,0.0,0.0,0.0,0.0,0.0,0.0,0.0,2.26,,,0,0,0,0,0,0,0,0,0,0,0,0,0,0,0,0,0.0,,,,0.0,39.239563,-77.964607,0.09,29.0,3.0,0.8
100,1406209,1745076679468,,,,,,,,,,,,,,,,,,,,,,,,,,,,,,,,,,0,0,0,0,0,0,0,0,0,0,0,0,0,0,0,0,,,,,,,,,,,
101,1406229,1745076679488,0.0,174.46,,-0.12,-0.1,0.95,0.0,0.0,0.0,0.96,1.05,91.0,3928.0,17.5,4.01,,13.49,1.237,84.4,,49.5,5.0,,,,,,,,,,,,0,0,0,0,0,0,0,0,0,0,0,0,0,0,0,0,,,,,0.0,,,,,,
102,1406249,1745076679507,,,,,,,,,,,,,,,,,,,,,,,,,,,,,,,,,,0,0,0,0,0,0,0,0,0,0,0,0,0,0,0,0,,,,,,,,,,,
103,1406269,1745076679527,0.0,174.46,,-0.11,-0.03,1.03,0.0,0.0,0.0,1.03,1.05,98.0,3928.0,17.5,4.01,,13.49,1.237,84.4,,51.0,5.0,,,,,,,,,,,,0,0,0,0,0,0,0,0,0,0,0,0,0,0,0,0,,,,,0.0,,,,,,
104,1406289,1745076679547,,,,,,,,,,,,,,,,,,,,,,,0.0,0.0,0.0,0.0,0.0,0.0,0.0,0.0,2.26,,,0,0,0,0,0,0,0,0,0,0,0,0,0,0,0,0,0.0,,,,,39.239563,-77.964607,0.08,29.0,3.0,0.8
105,1406309,1745076679567,0.0,174.46,,-0.13,-0.07,1.02,-1.0,0.0,1.0,1.03,1.05,97.0,3974.0,17.6,4.01,,13.52,1.249,82.6,,51.0,5.0,,,,,,,,,,,,0,0,0,0,0,0,0,0,0,0,0,0,0,0,0,0,,,,,0.0,,,,,,
106,1406329,1745076679587,,,,,,,,,,,,,,,,,,,,,,,,,,,,,,,,,,0,0,0,0,0,0,0,0,0,0,0,0,0,0,0,0,,,,,,,,,,,
107,1406349,1745076679607,0.0,174.46,,-0.11,-0.1,1.01,0.0,0.0,0.0,1.02,1.05,96.0,3955.0,17.6,3.98,,13.52,1.248,82.6,,52.4,5.0,,,,,,,,,,,,0,0,0,0,0,0,0,0,0,0,0,0,0,0,0,0,,,,,0.0,,,,,,
108,1406369,1745076679627,,,,,,,,,,,,,,,,,,,,,,,,,,,,,,,,,,0,0,0,0,0,0,0,0,0,0,0,0,0,0,0,0,,,,,,,,,,,
109,1406389,1745076679647,0.0,174.46,13.64,-0.1,0.02,1.09,-1.0,0.0,1.0,1.09,1.09,100.0,4040.0,17.6,3.98,15.0,13.44,1.247,82.6,133.0,52.4,5.0,0.0,0.0,0.0,0.0,0.0,0.0,0.0,0.0,2.26,0.0,0.0,0,0,0,0,0,0,0,0,0,0,0,0,0,0,0,0,0.0,0.0,0.0,0.0,0.0,39.239563,-77.964607,0.09,29.0,3.0,0.8
110,1406409,1745076679667,,,,,,,,,,,,,,,,,,,,,,,,,,,,,,,,,,0,0,0,0,0,0,0,0,0,0,0,0,0,0,0,0,,,,,,,,,,,
111,1406429,1745076679687,0.0,174.46,,-0.11,-0.01,1.1,-1.0,0.0,1.0,1.1,1.1,100.0,3988.0,17.6,3.99,,13.51,1.246,82.6,,52.4,5.0,,,,,,,,,,,,0,0,0,0,0,0,0,0,0,0,0,0,0,0,0,0,,,,,0.0,,,,,,
112,1406449,1745076679707,,,,,,,,,,,,,,,,,,,,,,,,,,,,,,,,,,0,0,0,0,0,0,0,0,0,0,0,0,0,0,0,0,,,,,,,,,,,
113,1406469,1745076679727,0.0,174.46,,-0.11,-0.08,1.05,0.0,0.0,0.0,1.06,1.1,96.0,3937.0,17.7,4.01,,13.51,1.246,82.6,,51.1,5.0,,,,,,,,,,,,0,0,0,0,0,0,0,0,0,0,0,0,0,0,0,0,,,,,0.0,,,,,,
114,1406489,1745076679747,,,,,,,,,,,,,,,,,,,,,,,0.0,0.0,0.0,0.0,0.0,0.0,0.0,0.0,2.26,,,0,0,0,0,0,0,0,0,0,0,0,0,0,0,0,0,0.0,,,,,39.239563,-77.964607,0.08,29.0,3.0,0.8
115,1406509,1745076679767,0.0,174.46,,-0.08,-0.01,1.08,0.0,0.0,0.0,1.08,1.1,98.0,3937.0,17.7,4.01,,13.56,1.234,82.6,,51.1,5.0,,,,,,,,,,,,0,0,0,0,0,0,0,0,0,0,0,0,0,0,0,0,,,,,0.0,,,,,,
116,1406529,1745076679787,,,,,,,,,,,,,,,,,,,,,,,,,,,,,,,,,,0,0,0,0,0,0,0,0,0,0,0,0,0,0,0,0,,,,,,,,,,,
117,1406549,1745076679807,0.0,174.46,,-0.09,0.01,1.13,-1.0,0.0,1.0,1.14,1.14,100.0,3993.0,17.8,3.99,,13.48,1.25,82.6,,51.9,5.0,,,,,,,,,,,,0,0,0,0,0,0,0,0,0,0,0,0,0,0,0,0,,,,,0.0,,,,,,
118,1406569,1745076679827,,,,,,,,,,,,,,,,,,,,,,,,,,,,,,,,,,0,0,0,0,0,0,0,0,0,0,0,0,0,0,0,0,,,,,,,,,,,
119,1406589,1745076679847,0.0,174.46,,-0.08,-0.04,1.11,-1.0,0.0,1.0,1.11,1.14,98.0,3897.0,17.9,3.98,,13.51,1.153,82.6,,51.9,5.0,0.0,0.0,0.0,0.0,0.0,0.0,0.0,0.0,2.26,,,0,0,0,0,0,0,0,0,0,0,0,0,0,0,0,0,0.0,,,,0.0,39.239563,-77.964607,0.17,29.0,3.0,0.8
120,1406609,1745076679867,,,,,,,,,,,,,,,,,,,,,,,,,,,,,,,,,,0,0,0,0,0,0,0,0,0,0,0,0,0,0,0,0,,,,,,,,,,,
121,1406629,1745076679887,0.0,174.46,,-0.07,-0.08,1.09,-1.0,0.0,0.0,1.09,1.14,96.0,3754.0,18.0,4.04,,13.55,1.107,82.6,,51.9,5.0,,,,,,,,,,,,0,0,0,0,0,0,0,0,0,0,0,0,0,0,0,0,,,,,0.0,,,,,,
122,1406649,1745076679907,,,,,,,,,,,,,,,,,,,,,,,,,,,,,,,,,,0,0,0,0,0,0,0,0,0,0,0,0,0,0,0,0,,,,,,,,,,,
123,1406669,1745076679927,0.0,174.46,,-0.07,-0.09,1.05,0.0,0.0,0.0,1.06,1.14,93.0,3754.0,18.0,4.04,,13.55,1.107,82.6,,48.5,5.0,,,,,,,,,,,,0,0,0,0,0,0,0,0,0,0,0,0,0,0,0,0,,,,,0.0,,,,,,
124,1406689,1745076679947,,,,,,,,,,,,,,,,,,,,,,,0.0,0.0,0.0,0.0,0.0,0.0,0.0,0.0,2.25,,,0,0,0,0,0,0,0,0,0,0,0,0,0,0,0,0,0.0,,,,,39.239563,-77.964607,0.34,29.0,3.0,0.8
125,1406709,1745076679967,0.0,174.46,,-0.07,-0.1,1.0,1.0,0.0,0.0,1.01,1.14,89.0,3754.0,18.1,4.07,,13.63,1.142,82.6,,48.5,5.0,,,,,,,,,,,,0,0,0,0,0,0,0,0,0,0,0,0,0,0,0,0,,,,,0.0,,,,,,
126,1406729,1745076679987,,,,,,,,,,,,,,,,,,,,,,,,,,,,,,,,,,0,0,0,0,0,0,0,0,0,0,0,0,0,0,0,0,,,,,,,,,,,
127,1406749,1745076680001,0.0,174.59,,-0.06,-0.08,1.01,1.0,0.0,0.0,1.01,1.14,89.0,3910.0,18.1,4.02,,13.59,1.129,82.6,,49.9,5.0,,,,,,,,,,,,0,0,0,0,0,0,0,0,0,0,0,0,0,0,0,0,,,,,0.0,,,,,,
128,1406769,1745076680021,,,,,,,,,,,,,,,,,,,,,,,,,,,,,,,,,,0,0,0,0,0,0,0,0,0,0,0,0,0,0,0,0,,,,,,,,,,,
129,1406789,1745076680041,0.0,174.46,,-0.05,-0.05,1.01,1.0,0.0,0.0,1.01,1.14,89.0,3801.0,18.1,4.05,,13.55,1.081,82.6,,49.9,5.0,0.0,0.0,0.0,0.0,0.0,0.0,0.0,0.0,2.26,,,0,0,0,0,0,0,0,0,0,0,0,0,0,0,0,0,0.0,,,,0.0,39.239563,-77.964607,0.47,29.0,3.0,0.8
130,1406809,1745076680061,,,,,,,,,,,,,,,,,,,,,,,,,,,,,,,,,,0,0,0,0,0,0,0,0,0,0,0,0,0,0,0,0,,,,,,,,,,,
131,1406829,1745076680081,0.0,174.46,,-0.02,-0.03,1.02,1.0,0.0,0.0,1.02,1.14,89.0,3740.0,18.1,4.04,,13.56,1.094,82.6,,49.9,5.0,,,,,,,,,,,,0,0,0,0,0,0,0,0,0,0,0,0,0,0,0,0,,,,,0.0,,,,,,
132,1406849,1745076680109,,,,,,,,,,,,,,,,,,,,,,,,,,,,,,,,,,0,0,0,0,0,0,0,0,0,0,0,0,0,0,0,0,,,,,,,,,,,
133,1406869,1745076680129,0.0,174.46,,-0.02,-0.11,1.02,0.0,0.0,0.0,1.02,1.14,90.0,3633.0,18.0,4.09,,13.56,1.094,82.6,,47.4,5.0,,,,,,,,,,,,0,0,0,0,0,0,0,0,0,0,0,0,0,0,0,0,,,,,0.0,,,,,,
134,1406889,1745076680149,,,,,,,,,,,,,,,,,,,,,,,0.0,0.0,0.0,0.0,0.0,0.0,0.0,0.0,2.26,,,0,0,0,0,0,0,0,0,0,0,0,0,0,0,0,0,0.0,,,,,39.239563,-77.964607,0.89,29.0,3.0,0.8
135,1406909,1745076680169,0.0,174.46,,-0.01,-0.08,1.06,-1.0,0.0,1.0,1.07,1.14,94.0,3633.0,18.0,4.09,,13.6,1.121,82.6,,47.4,5.0,,,,,,,,,,,,0,0,0,0,0,0,0,0,0,0,0,0,0,0,0,0,,,,,0.0,,,,,,
136,1406929,1745076680189,,,,,,,,,,,,,,,,,,,,,,,,,,,,,,,,,,0,0,0,0,0,0,0,0,0,0,0,0,0,0,0,0,,,,,,,,,,,
137,1406949,1745076680209,0.0,174.46,,0.01,-0.03,0.99,0.0,0.0,0.0,0.99,1.14,87.0,3461.0,17.9,4.14,,13.69,1.134,82.6,,44.2,5.0,,,,,,,,,,,,0,0,0,0,0,0,0,0,0,0,0,0,0,0,0,0,,,,,0.0,,,,,,
138,1406969,1745076680229,,,,,,,,,,,,,,,,,,,,,,,,,,,,,,,,,,0,0,0,0,0,0,0,0,0,0,0,0,0,0,0,0,,,,,,,,,,,
139,1406989,1745076680249,0.0,174.33,,-0.01,-0.14,0.99,0.0,0.0,0.0,1.0,1.14,88.0,3553.0,17.8,4.14,,13.67,1.228,82.6,,44.2,5.0,1.0,0.0,1.0,0.0,0.0,0.0,0.0,0.0,2.26,,,0,0,0,0,0,0,0,0,0,0,0,0,0,0,0,0,0.0,,,,0.0,39.239563,-77.964607,1.11,29.0,3.0,0.8
140,1407009,1745076680269,,,,,,,,,,,,,,,,,,,,,,,,,,,,,,,,,,0,0,0,0,0,0,0,0,0,0,0,0,0,0,0,0,,,,,,,,,,,
141,1407029,1745076680289,0.0,174.33,,0.01,-0.11,1.04,-1.0,0.0,1.0,1.05,1.14,92.0,3436.0,18.8,4.13,,13.67,1.228,82.6,,44.2,5.0,,,,,,,,,,,,0,0,0,0,0,0,0,0,0,0,0,0,0,0,0,0,,,,,0.0,,,,,,
142,1407049,1745076680309,,,,,,,,,,,,,,,,,,,,,,,,,,,,,,,,,,0,0,0,0,0,0,0,0,0,0,0,0,0,0,0,0,,,,,,,,,,,
143,1407069,1745076680329,0.0,174.33,,0.04,-0.06,1.01,0.0,0.0,0.0,1.01,1.14,89.0,3579.0,25.1,4.4,,13.79,1.164,82.6,,43.7,5.0,,,,,,,,,,,,0,0,0,0,0,0,0,0,0,0,0,0,0,0,0,0,,,,,0.0,,,,,,
144,1407089,1745076680349,,,,,,,,,,,,,,,,,,,,,,,1.0,0.0,1.0,1.0,0.0,0.0,0.0,0.0,2.26,,,0,0,0,0,0,0,0,0,0,0,0,0,0,0,0,0,0.0,,,,,39.239563,-77.964607,1.5,29.0,3.0,0.8
145,1407109,1745076680369,0.0,174.33,,0.03,-0.19,1.0,1.0,0.0,0.0,1.02,1.14,90.0,3579.0,25.1,4.4,,13.9,1.121,82.6,,43.7,5.0,,,,,,,,,,,,0,0,0,0,0,0,0,0,0,0,0,0,0,0,0,0,,,,,0.0,,,,,,
146,1407129,1745076680389,,,,,,,,,,,,,,,,,,,,,,,,,,,,,,,,,,0,0,0,0,0,0,0,0,0,0,0,0,0,0,0,0,,,,,,,,,,,
147,1407149,1745076680409,0.0,174.33,,0.05,-0.16,1.01,1.0,0.0,0.0,1.02,1.14,90.0,3610.0,26.1,4.28,,13.96,1.139,82.6,,47.3,5.0,,,,,,,,,,,,0,0,0,0,0,0,0,0,0,0,0,0,0,0,0,0,,,,,0.0,,,,,,
148,1407169,1745076680429,,,,,,,,,,,,,,,,,,,,,,,,,,,,,,,,,,0,0,0,0,0,0,0,0,0,0,0,0,0,0,0,0,,,,,,,,,,,
149,1407189,1745076680449,0.0,174.33,,0.06,-0.04,1.1,0.0,0.0,0.0,1.11,1.14,97.0,3898.0,26.7,4.29,,13.8,1.091,82.6,,47.3,5.0,1.0,0.0,1.0,1.0,0.0,0.0,0.0,0.0,2.26,,,0,0,0,0,0,0,0,0,0,0,0,0,0,0,0,0,0.0,,,,0.0,39.239563,-77.964607,1.98,29.0,3.0,0.8
150,1407209,1745076680469,,,,,,,,,,,,,,,,,,,,,,,,,,,,,,,,,,0,0,0,0,0,0,0,0,0,0,0,0,0,0,0,0,,,,,,,,,,,
151,1407229,1745076680489,0.0,174.46,,0.07,-0.13,1.0,0.0,0.0,0.0,1.01,1.14,89.0,4199.0,27.4,4.38,,13.79,1.065,82.6,,47.3,5.0,,,,,,,,,,,,0,0,0,0,0,0,0,0,0,0,0,0,0,0,0,0,,,,,0.0,,,,,,
152,1407249,1745076680509,,,,,,,,,,,,,,,,,,,,,,,,,,,,,,,,,,0,0,0,0,0,0,0,0,0,0,0,0,0,0,0,0,,,,,,,,,,,
153,1407269,1745076680529,0.0,174.33,,0.03,-0.08,1.02,0.0,0.0,0.0,1.02,1.14,90.0,4202.0,27.8,4.39,,13.79,1.065,82.6,,54.0,5.0,,,,,,,,,,,,0,0,0,0,0,0,0,0,0,0,0,0,0,0,0,0,,,,,0.0,,,,,,
154,1407289,1745076680549,,,,,,,,,,,,,,,,,,,,,,,2.0,0.0,2.0,2.0,0.0,0.0,0.0,0.0,2.26,,,0,0,0,0,0,0,0,0,0,0,0,0,0,0,0,0,0.0,,,,,39.239563,-77.964607,2.37,29.0,3.0,0.8
155,1407309,1745076680569,0.0,174.33,,0.07,-0.05,1.06,0.0,0.0,0.0,1.06,1.14,93.0,4202.0,27.8,4.39,,13.75,1.002,82.6,,54.0,5.0,,,,,,,,,,,,0,0,0,0,0,0,0,0,0,0,0,0,0,0,0,0,,,,,0.0,,,,,,
156,1407329,1745076680589,,,,,,,,,,,,,,,,,,,,,,,,,,,,,,,,,,0,0,0,0,0,0,0,0,0,0,0,0,0,0,0,0,,,,,,,,,,,
157,1407349,1745076680608,0.0,174.33,,0.09,-0.13,0.98,1.0,0.0,0.0,1.0,1.14,88.0,4239.0,28.0,4.43,,13.76,0.993,82.6,,56.3,5.0,,,,,,,,,,,,0,0,0,0,0,0,0,0,0,0,0,0,0,0,0,0,,,,,0.0,,,,,,
158,1407369,1745076680628,,,,,,,,,,,,,,,,,,,,,,,,,,,,,,,,,,0,0,0,0,0,0,0,0,0,0,0,0,0,0,0,0,,,,,,,,,,,
159,1407389,1745076680648,0.0,174.33,13.66,0.07,-0.16,0.94,0.0,0.0,0.0,0.96,1.14,84.0,4345.0,28.2,4.46,15.0,13.73,1.052,82.6,133.0,56.3,5.0,2.0,0.0,2.0,2.0,0.0,0.0,0.0,0.0,2.25,0.0,0.0,0,0,0,0,0,0,0,0,0,0,0,0,0,0,0,0,0.0,0.0,0.0,0.0,0.0,39.239563,-77.964607,2.83,29.0,3.0,0.8
160,1407409,1745076680668,,,,,,,,,,,,,,,,,,,,,,,,,,,,,,,,,,0,0,0,0,0,0,0,0,0,0,0,0,0,0,0,0,,,,,,,,,,,
161,1407429,1745076680688,0.0,174.33,,0.04,-0.11,0.98,0.0,0.0,0.0,0.99,1.14,87.0,4372.0,28.2,4.5,,13.75,1.086,82.6,,56.3,5.0,,,,,,,,,,,,0,0,0,0,0,0,0,0,0,0,0,0,0,0,0,0,,,,,0.0,,,,,,
162,1407449,1745076680708,,,,,,,,,,,,,,,,,,,,,,,,,,,,,,,,,,0,0,0,0,0,0,0,0,0,0,0,0,0,0,0,0,,,,,,,,,,,
163,1407469,1745076680728,0.0,174.33,,0.04,-0.02,1.08,0.0,0.0,0.0,1.08,1.14,95.0,4346.0,28.2,4.48,,13.75,1.086,82.6,,56.8,5.0,,,,,,,,,,,,0,0,0,0,0,0,0,0,0,0,0,0,0,0,0,0,,,,,0.0,,,,,,
164,1407489,1745076680748,,,,,,,,,,,,,,,,,,,,,,,2.0,0.0,2.0,2.0,0.0,0.0,0.0,0.0,2.26,,,0,0,0,0,0,0,0,0,0,0,0,0,0,0,0,0,0.0,,,,,39.239559,-77.964607,3.39,29.0,3.0,0.8
165,1407509,1745076680768,0.0,174.21,,0.08,-0.03,1.02,0.0,0.0,0.0,1.02,1.14,90.0,4346.0,28.2,4.48,,13.72,1.094,82.6,,56.8,5.0,,,,,,,,,,,,0,0,0,0,0,0,0,0,0,0,0,0,0,0,0,0,,,,,0.0,,,,,,
166,1407529,1745076680788,,,,,,,,,,,,,,,,,,,,,,,,,,,,,,,,,,0,0,0,0,0,0,0,0,0,0,0,0,0,0,0,0,,,,,,,,,,,
167,1407549,1745076680808,0.0,174.33,,0.14,-0.07,0.97,0.0,0.0,0.0,0.99,1.14,87.0,4381.0,28.2,4.48,,13.79,1.079,82.6,,56.8,5.0,,,,,,,,,,,,0,0,0,0,0,0,0,0,0,0,0,0,0,0,0,0,,,,,0.0,,,,,,
168,1407569,1745076680828,,,,,,,,,,,,,,,,,,,,,,,,,,,,,,,,,,0,0,0,0,0,0,0,0,0,0,0,0,0,0,0,0,,,,,,,,,,,
169,1407589,1745076680848,0.0,174.21,,0.21,-0.05,0.98,0.0,0.0,0.0,1.01,1.14,88.0,4556.0,28.2,4.6,,13.77,1.079,82.6,,59.4,5.0,3.0,0.0,3.0,3.0,0.0,0.0,0.0,0.0,2.26,,,0,0,0,0,0,0,0,0,0,0,0,0,0,0,0,0,0.0,,,,0.0,39.239559,-77.964607,3.94,29.0,3.0,0.8
170,1407609,1745076680868,,,,,,,,,,,,,,,,,,,,,,,,,,,,,,,,,,0,0,0,0,0,0,0,0,0,0,0,0,0,0,0,0,,,,,,,,,,,
171,1407629,1745076680888,0.0,174.21,,0.25,-0.05,1.04,0.0,0.0,0.0,1.08,1.14,95.0,4558.0,28.1,4.59,,13.77,1.079,82.6,,59.4,5.0,,,,,,,,,,,,0,0,0,0,0,0,0,0,0,0,0,0,0,0,0,0,,,,,0.0,,,,,,
172,1407649,1745076680908,,,,,,,,,,,,,,,,,,,,,,,,,,,,,,,,,,0,0,0,0,0,0,0,0,0,0,0,0,0,0,0,0,,,,,,,,,,,
173,1407669,1745076680928,0.0,174.33,,0.27,-0.05,1.06,1.0,0.0,0.0,1.09,1.14,96.0,4558.0,28.1,4.59,,13.87,0.944,82.6,,59.4,5.0,,,,,,,,,,,,0,0,0,0,0,0,0,0,0,0,0,0,0,0,0,0,,,,,0.0,,,,,,
174,1407689,1745076680948,,,,,,,,,,,,,,,,,,,,,,,3.0,0.0,3.0,3.0,0.0,0.0,0.0,0.0,2.26,,,0,0,0,0,0,0,0,0,0,0,0,0,0,0,0,0,0.0,,,,,39.239559,-77.964607,4.7,29.0,3.0,0.8
175,1407709,1745076680968,0.0,174.33,,0.32,-0.07,1.01,1.0,0.0,0.0,1.06,1.14,93.0,4406.0,28.1,4.52,,13.8,0.872,82.6,,59.4,5.0,,,,,,,,,,,,0,0,0,0,0,0,0,0,0,0,0,0,0,0,0,0,,,,,0.0,,,,,,
176,1407729,1745076680988,,,,,,,,,,,,,,,,,,,,,,,,,,,,,,,,,,0,0,0,0,0,0,0,0,0,0,0,0,0,0,0,0,,,,,,,,,,,
177,1407749,1745076681000,0.0,174.33,,0.34,-0.15,0.94,2.0,0.0,-1.0,1.01,1.14,89.0,4401.0,27.7,4.48,,13.75,0.846,82.6,,57.5,5.0,,,,,,,,,,,,0,0,0,0,0,0,0,0,0,0,0,0,0,0,0,0,,,,,0.0,,,,,,
178,1407769,1745076681020,,,,,,,,,,,,,,,,,,,,,,,,,,,,,,,,,,0,0,0,0,0,0,0,0,0,0,0,0,0,0,0,0,,,,,,,,,,,
179,1407789,1745076681040,0.0,174.33,,0.32,-0.13,0.96,1.0,0.0,0.0,1.02,1.14,90.0,4228.0,27.6,4.45,,13.8,0.839,82.6,,57.5,5.0,4.0,0.0,4.0,4.0,0.0,0.0,0.0,0.0,2.26,,,0,0,0,0,0,0,0,0,0,0,0,0,0,0,0,0,0.0,,,,0.0,39.239555,-77.964607,5.72,30.0,3.0,0.8
180,1407809,1745076681060,,,,,,,,,,,,,,,,,,,,,,,,,,,,,,,,,,0,0,0,0,0,0,0,0,0,0,0,0,0,0,0,0,,,,,,,,,,,
181,1407829,1745076681080,0.0,174.33,,0.34,-0.16,0.95,2.0,0.0,-1.0,1.02,1.14,89.0,4121.0,26.6,4.36,,13.8,0.832,82.6,,57.5,5.0,,,,,,,,,,,,0,0,0,0,0,0,0,0,0,0,0,0,0,0,0,0,,,,,0.0,,,,,,
182,1407849,1745076681108,,,,,,,,,,,,,,,,,,,,,,,,,,,,,,,,,,0,0,0,0,0,0,0,0,0,0,0,0,0,0,0,0,,,,,,,,,,,
183,1407869,1745076681128,0.0,174.33,,0.34,-0.05,0.99,1.0,0.0,0.0,1.04,1.14,92.0,4121.0,26.6,4.36,,13.8,0.832,82.6,,52.8,5.0,,,,,,,,,,,,0,0,0,0,0,0,0,0,0,0,0,0,0,0,0,0,,,,,0.0,,,,,,
184,1407889,1745076681148,,,,,,,,,,,,,,,,,,,,,,,5.0,0.0,5.0,5.0,0.0,0.0,0.0,0.0,2.26,,,0,0,0,0,0,0,0,0,0,0,0,0,0,0,0,0,0.0,,,,,39.239555,-77.964615,6.74,30.0,3.0,0.8
185,1407909,1745076681168,0.0,174.33,,0.34,-0.06,1.0,1.0,0.0,0.0,1.06,1.14,93.0,3888.0,25.4,4.32,,13.83,0.831,82.6,,52.8,5.0,,,,,,,,,,,,0,0,0,0,0,0,0,0,0,0,0,0,0,0,0,0,,,,,0.0,,,,,,
186,1407929,1745076681188,,,,,,,,,,,,,,,,,,,,,,,,,,,,,,,,,,0,0,0,0,0,0,0,0,0,0,0,0,0,0,0,0,,,,,,,,,,,
187,1407949,1745076681204,0.0,174.33,,0.34,-0.11,0.95,2.0,0.0,-1.0,1.02,1.14,89.0,3616.0,25.0,4.31,,13.8,0.845,82.6,,46.0,5.0,,,,,,,,,,,,0,0,0,0,0,0,0,0,0,0,0,0,0,0,0,0,,,,,0.0,,,,,,
188,1407969,1745076681224,,,,,,,,,,,,,,,,,,,,,,,,,,,,,,,,,,0,0,0,0,0,0,0,0,0,0,0,0,0,0,0,0,,,,,,,,,,,
189,1407989,1745076681244,0.0,174.33,,0.31,-0.2,1.02,1.0,0.0,0.0,1.09,1.14,96.0,3443.0,24.6,4.31,,13.9,0.86,82.6,,46.0,5.0,6.0,0.0,6.0,6.0,0.0,0.0,0.0,0.0,2.26,,,0,0,0,0,0,0,0,0,0,0,0,0,0,0,0,0,0.0,,,,0.0,39.239552,-77.964615,8.7,30.0,3.0,0.8
190,1408009,1745076681264,,,,,,,,,,,,,,,,,,,,,,,,,,,,,,,,,,0,0,0,0,0,0,0,0,0,0,0,0,0,0,0,0,,,,,,,,,,,
191,1408029,1745076681284,0.0,174.33,,0.33,-0.13,0.95,2.0,0.0,0.0,1.01,1.14,89.0,3263.0,23.7,4.31,,13.96,0.862,82.6,,46.0,5.0,,,,,,,,,,,,0,0,0,0,0,0,0,0,0,0,0,0,0,0,0,0,,,,,0.0,,,,,,
192,1408049,1745076681306,,,,,,,,,,,,,,,,,,,,,,,,,,,,,,,,,,0,0,0,0,0,0,0,0,0,0,0,0,0,0,0,0,,,,,,,,,,,
193,1408069,1745076681326,0.0,174.21,,0.33,-0.09,0.88,2.0,1.0,-1.0,0.95,1.14,83.0,2986.0,22.4,4.33,,13.96,0.862,82.6,,39.8,5.0,,,,,,,,,,,,0,0,0,0,0,0,0,0,0,0,0,0,0,0,0,0,,,,,0.0,,,,,,
194,1408089,1745076681346,,,,,,,,,,,,,,,,,,,,,,,7.0,0.0,7.0,7.0,0.0,0.0,0.0,0.0,2.26,,,0,0,0,0,0,0,0,0,0,0,0,0,0,0,0,0,0.0,,,,,39.239552,-77.964615,9.84,30.0,3.0,0.8
195,1408109,1745076681366,0.0,174.21,,0.34,-0.07,0.92,2.0,1.0,-1.0,0.98,1.14,86.0,2986.0,22.4,4.33,,14.02,0.867,82.6,,39.8,5.0,,,,,,,,,,,,0,0,0,0,0,0,0,0,0,0,0,0,0,0,0,0,,,,,0.0,,,,,,
196,1408129,1745076681386,,,,,,,,,,,,,,,,,,,,,,,,,,,,,,,,,,0,0,0,0,0,0,0,0,0,0,0,0,0,0,0,0,,,,,,,,,,,
197,1408149,1745076681406,0.0,174.21,,0.33,-0.09,0.93,2.0,0.0,-1.0,0.99,1.14,87.0,2543.0,20.9,4.39,,14.12,0.863,82.6,,30.0,5.0,,,,,,,,,,,,0,0,0,0,0,0,0,0,0,0,0,0,0,0,0,0,,,,,0.0,,,,,,
198,1408169,1745076681426,,,,,,,,,,,,,,,,,,,,,,,,,,,,,,,,,,0,0,0,0,0,0,0,0,0,0,0,0,0,0,0,0,,,,,,,,,,,
199,1408189,1745076681446,0.0,174.21,,0.32,-0.06,0.93,2.0,1.0,-1.0,0.99,1.14,87.0,1953.0,18.9,4.47,,14.23,0.855,82.6,,30.0,5.0,7.0,0.0,8.0,8.0,0.0,0.0,0.0,0.0,2.26,,,0,0,0,0,0,0,0,0,0,0,0,0,0,0,0,0,0.0,,,,0.0,39.239548,-77.964615,11.74,30.0,3.0,0.8
200,1408209,1745076681466,,,,,,,,,,,,,,,,,,,,,,,,,,,,,,,,,,0,0,0,0,0,0,0,0,0,0,0,0,0,0,0,0,,,,,,,,,,,
201,1408229,1745076681486,0.0,174.33,,0.28,-0.06,0.94,2.0,0.0,-1.0,0.98,1.14,86.0,1620.0,16.7,4.43,,14.28,0.857,82.6,,30.0,5.0,,,,,,,,,,,,0,0,0,0,0,0,0,0,0,0,0,0,0,0,0,0,,,,,0.0,,,,,,
202,1408249,1745076681506,,,,,,,,,,,,,,,,,,,,,,,,,,,,,,,,,,0,0,0,0,0,0,0,0,0,0,0,0,0,0,0,0,,,,,,,,,,,
203,1408269,1745076681526,0.0,174.33,,0.21,-0.05,0.94,1.0,0.0,-1.0,0.97,1.14,85.0,1313.0,16.6,4.25,,14.28,0.857,82.6,,19.5,5.0,,,,,,,,,,,,0,0,0,0,0,0,0,0,0,0,0,0,0,0,0,0,,,,,0.0,,,,,,
204,1408289,1745076681546,,,,,,,,,,,,,,,,,,,,,,,8.0,0.0,8.0,8.0,0.0,8.0,0.0,0.0,2.26,,,0,0,0,0,0,0,0,0,0,0,0,0,0,0,0,0,3.0,,,,,39.239548,-77.964615,12.61,30.0,3.0,0.8
205,1408309,1745076681566,0.0,174.33,,0.16,-0.06,0.94,1.0,0.0,-1.0,0.95,1.14,84.0,1313.0,16.6,4.25,,14.19,0.867,82.6,,19.5,5.0,,,,,,,,,,,,0,0,0,0,0,0,0,0,0,0,0,0,0,0,0,0,,,,,0.0,,,,,,
206,1408329,1745076681586,,,,,,,,,,,,,,,,,,,,,,,,,,,,,,,,,,0,0,0,0,0,0,0,0,0,0,0,0,0,0,0,0,,,,,,,,,,,
207,1408349,1745076681605,0.0,174.21,,0.17,-0.07,0.94,1.0,1.0,-1.0,0.96,1.14,84.0,1599.0,16.6,4.06,,14.18,0.883,82.6,,20.9,5.0,,,,,,,,,,,,0,0,0,0,0,0,0,0,0,0,0,0,0,0,0,0,,,,,0.0,,,,,,
208,1408369,1745076681625,,,,,,,,,,,,,,,,,,,,,,,,,,,,,,,,,,0,0,0,0,0,0,0,0,0,0,0,0,0,0,0,0,,,,,,,,,,,
209,1408389,1745076681645,0.0,174.21,13.68,0.14,-0.07,0.96,1.0,0.0,-1.0,0.97,1.14,85.0,1843.0,14.6,4.33,15.0,14.22,0.903,82.6,133.0,20.9,5.0,8.0,0.0,8.0,9.0,0.0,51.0,0.0,0.0,2.26,0.0,0.0,0,0,0,0,0,0,0,0,0,0,0,0,0,0,0,0,3.0,0.0,0.0,0.0,0.0,39.239544,-77.964615,12.87,30.0,3.0,0.8
210,1408409,1745076681665,,,,,,,,,,,,,,,,,,,,,,,,,,,,,,,,,,0,0,0,0,0,0,0,0,0,0,0,0,0,0,0,0,,,,,,,,,,,
211,1408429,1745076681685,0.0,174.21,,0.12,-0.09,1.0,1.0,0.0,-1.0,1.01,1.14,88.0,1547.0,12.9,3.86,,14.23,0.915,82.6,,20.9,5.0,,,,,,,,,,,,0,0,0,0,0,0,0,0,0,0,0,0,0,0,0,0,,,,,0.0,,,,,,
212,1408449,1745076681705,,,,,,,,,,,,,,,,,,,,,,,,,,,,,,,,,,0,0,0,0,0,0,0,0,0,0,0,0,0,0,0,0,,,,,,,,,,,
213,1408469,1745076681725,0.0,174.21,,0.11,-0.07,1.01,1.0,0.0,-1.0,1.02,1.14,90.0,1597.0,12.8,3.87,,14.23,0.915,82.6,,19.2,5.0,,,,,,,,,,,,0,0,0,0,0,0,0,0,0,0,0,0,0,0,0,0,,,,,0.0,,,,,,
214,1408489,1745076681745,,,,,,,,,,,,,,,,,,,,,,,8.0,0.0,8.0,8.0,0.0,8.0,0.0,0.0,2.26,,,0,0,0,0,0,0,0,0,0,0,0,0,0,0,0,0,4.0,,,,,39.23954,-77.964622,12.81,30.0,3.0,0.8
215,1408509,1745076681765,0.0,174.21,,0.11,-0.07,1.03,1.0,0.0,0.0,1.04,1.14,91.0,1597.0,12.8,3.87,,14.2,0.923,82.6,,19.2,5.0,,,,,,,,,,,,0,0,0,0,0,0,0,0,0,0,0,0,0,0,0,0,,,,,0.0,,,,,,
216,1408529,1745076681785,,,,,,,,,,,,,,,,,,,,,,,,,,,,,,,,,,0,0,0,0,0,0,0,0,0,0,0,0,0,0,0,0,,,,,,,,,,,
217,1408549,1745076681805,0.0,174.21,,0.05,-0.06,1.01,1.0,0.0,0.0,1.01,1.14,89.0,1633.0,12.6,3.9,,14.22,0.939,82.6,,19.3,5.0,,,,,,,,,,,,0,0,0,0,0,0,0,0,0,0,0,0,0,0,0,0,,,,,0.0,,,,,,
218,1408569,1745076681825,,,,,,,,,,,,,,,,,,,,,,,,,,,,,,,,,,0,0,0,0,0,0,0,0,0,0,0,0,0,0,0,0,,,,,,,,,,,
219,1408589,1745076681845,0.0,174.08,,0.09,-0.09,1.01,1.0,0.0,0.0,1.02,1.14,89.0,1911.0,12.5,3.86,,14.06,0.945,82.6,,19.3,5.0,8.0,0.0,8.0,9.0,0.0,232.0,0.0,0.0,2.26,,,0,0,0,0,0,0,0,0,0,0,0,0,0,0,0,0,4.0,,,,0.0,39.239536,-77.964622,13.12,30.0,3.0,0.8
220,1408609,1745076681865,,,,,,,,,,,,,,,,,,,,,,,,,,,,,,,,,,0,0,0,0,0,0,0,0,0,0,0,0,0,0,0,0,,,,,,,,,,,
221,1408629,1745076681885,0.0,174.08,,0.1,-0.08,1.0,1.0,0.0,0.0,1.01,1.14,89.0,1839.0,9.5,3.84,,14.16,0.927,82.6,,19.3,5.0,,,,,,,,,,,,0,0,0,0,0,0,0,0,0,0,0,0,0,0,0,0,,,,,0.0,,,,,,
222,1408649,1745076681907,,,,,,,,,,,,,,,,,,,,,,,,,,,,,,,,,,0,0,0,0,0,0,0,0,0,0,0,0,0,0,0,0,,,,,,,,,,,
223,1408669,1745076681927,0.0,174.21,,0.06,-0.07,0.99,1.0,0.0,0.0,1.0,1.14,88.0,1504.0,7.4,3.6,,14.16,0.927,82.6,,20.1,5.0,,,,,,,,,,,,0,0,0,0,0,0,0,0,0,0,0,0,0,0,0,0,,,,,0.0,,,,,,
224,1408689,1745076681947,,,,,,,,,,,,,,,,,,,,,,,9.0,0.0,9.0,8.0,0.0,249.0,0.0,0.0,2.26,,,0,0,0,0,0,0,0,0,0,0,0,0,0,0,0,0,3.0,,,,,39.239532,-77.964622,13.16,30.0,3.0,0.8
225,1408709,1745076681967,0.0,174.08,,0.03,-0.09,1.0,1.0,0.0,0.0,1.01,1.14,88.0,1504.0,7.4,3.6,,14.15,0.924,82.6,,20.1,5.0,,,,,,,,,,,,0,0,0,0,0,0,0,0,0,0,0,0,0,0,0,0,,,,,0.0,,,,,,
226,1408729,1745076681987,,,,,,,,,,,,,,,,,,,,,,,,,,,,,,,,,,0,0,0,0,0,0,0,0,0,0,0,0,0,0,0,0,,,,,,,,,,,
227,1408749,1745076681995,0.0,174.21,,0.01,-0.09,1.01,1.0,0.0,0.0,1.01,1.14,89.0,1379.0,7.4,3.66,,14.11,0.93,82.6,,18.9,5.0,,,,,,,,,,,,0,0,0,0,0,0,0,0,0,0,0,0,0,0,0,0,,,,,0.0,,,,,,
228,1408769,1745076682015,,,,,,,,,,,,,,,,,,,,,,,,,,,,,,,,,,0,0,0,0,0,0,0,0,0,0,0,0,0,0,0,0,,,,,,,,,,,
229,1408789,1745076682035,0.0,174.08,,0.0,-0.11,0.99,1.0,0.0,0.0,1.0,1.14,88.0,1822.0,7.4,3.64,,14.06,0.945,82.6,,18.9,5.0,9.0,0.0,9.0,9.0,0.0,249.0,0.0,0.0,2.26,,,0,0,0,0,0,0,0,0,0,0,0,0,0,0,0,0,3.0,,,,0.0,39.239529,-77.964622,13.78,30.0,3.0,0.8
230,1408809,1745076682055,,,,,,,,,,,,,,,,,,,,,,,,,,,,,,,,,,0,0,0,0,0,0,0,0,0,0,0,0,0,0,0,0,,,,,,,,,,,
231,1408829,1745076682075,0.0,174.21,,0.01,-0.09,0.99,1.0,0.0,0.0,1.0,1.14,88.0,2022.0,7.1,3.61,,14.08,0.932,82.6,,18.9,5.0,,,,,,,,,,,,0,0,0,0,0,0,0,0,0,0,0,0,0,0,0,0,,,,,0.0,,,,,,
232,1408849,1745076682103,,,,,,,,,,,,,,,,,,,,,,,,,,,,,,,,,,0,0,0,0,0,0,0,0,0,0,0,0,0,0,0,0,,,,,,,,,,,
233,1408869,1745076682123,0.0,174.21,,0.01,-0.08,0.98,1.0,0.0,0.0,0.99,1.14,87.0,2003.0,0.9,3.64,,14.08,0.932,82.6,,22.8,5.0,,,,,,,,,,,,0,0,0,0,0,0,0,0,0,0,0,0,0,0,0,0,,,,,0.0,,,,,,
234,1408889,1745076682143,,,,,,,,,,,,,,,,,,,,,,,8.0,0.0,9.0,9.0,0.0,7.0,0.0,0.0,2.26,,,0,0,0,0,0,0,0,0,0,0,0,0,0,0,0,0,2.0,,,,,39.239529,-77.96463,13.56,30.0,3.0,0.8
235,1408909,1745076682163,0.0,174.21,,0.01,-0.09,0.99,1.0,0.0,0.0,1.0,1.14,88.0,2003.0,0.9,3.64,,14.1,0.933,82.6,,22.8,5.0,,,,,,,,,,,,0,0,0,0,0,0,0,0,0,0,0,0,0,0,0,0,,,,,0.0,,,,,,
236,1408929,1745076682183,,,,,,,,,,,,,,,,,,,,,,,,,,,,,,,,,,0,0,0,0,0,0,0,0,0,0,0,0,0,0,0,0,,,,,,,,,,,
237,1408949,1745076682205,0.0,174.21,,0.01,-0.07,1.01,1.0,0.0,0.0,1.01,1.14,89.0,1769.0,0.0,3.41,,13.99,0.948,82.6,,20.5,5.0,,,,,,,,,,,,0,0,0,0,0,0,0,0,0,0,0,0,0,0,0,0,,,,,0.0,,,,,,
238,1408969,1745076682225,,,,,,,,,,,,,,,,,,,,,,,,,,,,,,,,,,0,0,0,0,0,0,0,0,0,0,0,0,0,0,0,0,,,,,,,,,,,
239,1408989,1745076682245,0.0,174.21,,-0.01,-0.07,1.0,1.0,0.0,0.0,1.0,1.14,88.0,1663.0,0.0,3.41,,13.95,0.957,82.6,,20.5,5.0,9.0,0.0,9.0,9.0,0.0,7.0,0.0,0.0,2.26,,,0,0,0,0,0,0,0,0,0,0,0,0,0,0,0,0,2.0,,,,0.0,39.239525,-77.96463,13.78,30.0,3.0,0.8
240,1409009,1745076682265,,,,,,,,,,,,,,,,,,,,,,,,,,,,,,,,,,0,0,0,0,0,0,0,0,0,0,0,0,0,0,0,0,,,,,,,,,,,
241,1409029,1745076682285,0.0,174.21,,-0.02,-0.08,1.0,1.0,0.0,0.0,1.01,1.14,88.0,1723.0,0.0,3.41,,13.9,0.943,82.6,,20.5,5.0,,,,,,,,,,,,0,0,0,0,0,0,0,0,0,0,0,0,0,0,0,0,,,,,0.0,,,,,,
242,1409049,1745076682305,,,,,,,,,,,,,,,,,,,,,,,,,,,,,,,,,,0,0,0,0,0,0,0,0,0,0,0,0,0,0,0,0,,,,,,,,,,,
243,1409069,1745076682325,0.0,174.08,,-0.02,-0.07,1.01,1.0,0.0,1.0,1.01,1.14,89.0,1853.0,0.0,3.41,,13.9,0.943,82.6,,21.0,5.0,,,,,,,,,,,,0,0,0,0,0,0,0,0,0,0,0,0,0,0,0,0,,,,,0.0,,,,,,
244,1409089,1745076682345,,,,,,,,,,,,,,,,,,,,,,,9.0,0.0,9.0,9.0,0.0,241.0,0.0,0.0,2.26,,,0,0,0,0,0,0,0,0,0,0,0,0,0,0,0,0,3.0,,,,,39.239521,-77.96463,13.93,30.0,3.0,0.8
245,1409109,1745076682365,0.0,174.08,,-0.03,-0.08,1.01,1.0,0.0,0.0,1.01,1.14,89.0,1853.0,0.0,3.41,,13.92,0.948,82.6,,21.0,5.0,,,,,,,,,,,,0,0,0,0,0,0,0,0,0,0,0,0,0,0,0,0,,,,,0.0,,,,,,
246,1409129,1745076682385,,,,,,,,,,,,,,,,,,,,,,,,,,,,,,,,,,0,0,0,0,0,0,0,0,0,0,0,0,0,0,0,0,,,,,,,,,,,
247,1409149,1745076682405,0.0,174.46,,-0.06,-0.04,1.0,0.0,0.0,0.0,1.0,1.14,88.0,2053.0,0.0,3.38,,13.77,0.951,82.6,,22.5,5.0,,,,,,,,,,,,0,0,0,0,0,0,0,0,0,0,0,0,0,0,0,0,,,,,0.0,,,,,,
248,1409169,1745076682425,,,,,,,,,,,,,,,,,,,,,,,,,,,,,,,,,,0,0,0,0,0,0,0,0,0,0,0,0,0,0,0,0,,,,,,,,,,,
249,1409189,1745076682445,0.0,174.59,,-0.07,-0.05,1.0,0.0,-1.0,0.0,1.01,1.14,89.0,1963.0,0.0,3.34,,13.6,0.96,82.6,,22.5,5.0,9.0,0.0,9.0,9.0,0.0,241.0,0.0,0.0,2.26,,,0,0,0,0,0,0,0,0,0,0,0,0,0,0,0,0,3.0,,,,0.0,39.239517,-77.96463,13.81,30.0,3.0,0.8
250,1409209,1745076682465,,,,,,,,,,,,,,,,,,,,,,,,,,,,,,,,,,0,0,0,0,0,0,0,0,0,0,0,0,0,0,0,0,,,,,,,,,,,
251,1409229,1745076682485,0.0,174.84,,-0.07,-0.06,1.01,0.0,-1.0,0.0,1.02,1.14,89.0,2009.0,0.0,3.36,,13.64,0.968,82.6,,22.5,5.0,,,,,,,,,,,,0,0,0,0,0,0,0,0,0,0,0,0,0,0,0,0,,,,,0.0,,,,,,
252,1409249,1745076682507,,,,,,,,,,,,,,,,,,,,,,,,,,,,,,,,,,0,0,0,0,0,0,0,0,0,0,0,0,0,0,0,0,,,,,,,,,,,
253,1409269,1745076682527,0.0,174.96,,-0.08,-0.05,1.01,-1.0,-1.0,0.0,1.02,1.14,89.0,1999.0,0.0,3.35,,13.64,0.968,82.6,,23.6,5.0,,,,,,,,,,,,0,0,0,0,0,0,0,0,0,0,0,0,0,0,0,0,,,,,0.0,,,,,,
254,1409289,1745076682547,,,,,,,,,,,,,,,,,,,,,,,8.0,0.0,8.0,8.0,0.0,233.0,0.0,0.0,2.26,,,0,0,0,0,0,0,0,0,0,0,0,0,0,0,0,0,2.0,,,,,39.239513,-77.96463,13.6,30.0,3.0,0.8
255,1409309,1745076682567,0.0,175.21,,-0.1,-0.06,1.0,-1.0,-1.0,-1.0,1.01,1.14,88.0,1999.0,0.0,3.35,,13.65,0.975,82.6,,23.6,5.0,,,,,,,,,,,,0,0,0,0,0,0,0,0,0,0,0,0,0,0,0,0,,,,,0.0,,,,,,
256,1409329,1745076682587,,,,,,,,,,,,,,,,,,,,,,,,,,,,,,,,,,0,0,0,0,0,0,0,0,0,0,0,0,0,0,0,0,,,,,,,,,,,
257,1409349,1745076682606,0.0,175.34,,-0.1,-0.04,1.01,-1.0,-1.0,0.0,1.01,1.14,89.0,2059.0,0.0,3.37,,13.53,0.976,82.6,,23.4,5.0,,,,,,,,,,,,0,0,0,0,0,0,0,0,0,0,0,0,0,0,0,0,,,,,0.0,,,,,,
258,1409369,1745076682626,,,,,,,,,,,,,,,,,,,,,,,,,,,,,,,,,,0,0,0,0,0,0,0,0,0,0,0,0,0,0,0,0,,,,,,,,,,,
259,1409389,1745076682646,0.0,175.34,13.75,-0.11,-0.04,1.0,-1.0,-1.0,0.0,1.01,1.14,89.0,2039.0,0.0,3.36,15.0,13.6,0.987,82.6,133.0,23.4,5.0,8.0,0.0,8.0,8.0,0.0,249.0,0.0,0.0,2.26,0.0,0.0,0,0,0,0,0,0,0,0,0,0,0,0,0,0,0,0,2.0,0.0,0.0,0.0,0.0,39.23951,-77.964638,13.51,30.0,3.0,0.8
260,1409409,1745076682666,,,,,,,,,,,,,,,,,,,,,,,,,,,,,,,,,,0,0,0,0,0,0,0,0,0,0,0,0,0,0,0,0,,,,,,,,,,,
261,1409429,1745076682686,0.0,175.47,,-0.12,-0.02,1.0,-1.0,-1.0,0.0,1.01,1.14,88.0,2102.0,0.0,3.33,,13.47,0.984,82.6,,23.4,5.0,,,,,,,,,,,,0,0,0,0,0,0,0,0,0,0,0,0,0,0,0,0,,,,,0.0,,,,,,
262,1409449,1745076682708,,,,,,,,,,,,,,,,,,,,,,,,,,,,,,,,,,0,0,0,0,0,0,0,0,0,0,0,0,0,0,0,0,,,,,,,,,,,
263,1409469,1745076682728,0.0,175.59,,-0.12,-0.04,1.01,-1.0,0.0,0.0,1.02,1.14,89.0,2035.0,0.0,3.34,,13.47,0.984,82.6,,23.8,5.0,,,,,,,,,,,,0,0,0,0,0,0,0,0,0,0,0,0,0,0,0,0,,,,,0.0,,,,,,
264,1409489,1745076682748,,,,,,,,,,,,,,,,,,,,,,,8.0,0.0,8.0,8.0,0.0,248.0,0.0,0.0,2.26,,,0,0,0,0,0,0,0,0,0,0,0,0,0,0,0,0,2.0,,,,,39.239506,-77.964638,13.43,30.0,3.0,0.8
265,1409509,1745076682768,0.0,175.59,,-0.12,-0.06,1.01,-1.0,0.0,0.0,1.02,1.14,89.0,2035.0,0.0,3.34,,13.51,0.972,82.6,,23.8,5.0,,,,,,,,,,,,0,0,0,0,0,0,0,0,0,0,0,0,0,0,0,0,,,,,0.0,,,,,,
266,1409529,1745076682788,,,,,,,,,,,,,,,,,,,,,,,,,,,,,,,,,,0,0,0,0,0,0,0,0,0,0,0,0,0,0,0,0,,,,,,,,,,,
267,1409549,1745076682806,0.0,175.59,,-0.13,-0.04,1.0,-1.0,0.0,0.0,1.01,1.14,88.0,1930.0,0.0,3.34,,13.57,0.975,82.6,,23.3,5.0,,,,,,,,,,,,0,0,0,0,0,0,0,0,0,0,0,0,0,0,0,0,,,,,0.0,,,,,,
268,1409569,1745076682826,,,,,,,,,,,,,,,,,,,,,,,,,,,,,,,,,,0,0,0,0,0,0,0,0,0,0,0,0,0,0,0,0,,,,,,,,,,,
269,1409589,1745076682846,0.0,175.59,,-0.13,-0.02,1.0,-1.0,0.0,0.0,1.01,1.14,88.0,1977.0,0.0,3.37,,13.56,0.979,82.6,,23.3,5.0,8.0,0.0,8.0,8.0,0.0,33.0,0.0,0.0,2.27,,,0,0,0,0,0,0,0,0,0,0,0,0,0,0,0,0,2.0,,,,0.0,39.239506,-77.964638,13.23,30.0,3.0,0.8
270,1409609,1745076682866,,,,,,,,,,,,,,,,,,,,,,,,,,,,,,,,,,0,0,0,0,0,0,0,0,0,0,0,0,0,0,0,0,,,,,,,,,,,
271,1409629,1745076682886,0.0,175.59,,-0.13,-0.03,1.01,-2.0,0.0,0.0,1.01,1.14,89.0,2218.0,0.0,3.28,,13.49,0.994,82.6,,23.3,5.0,,,,,,,,,,,,0,0,0,0,0,0,0,0,0,0,0,0,0,0,0,0,,,,,0.0,,,,,,
272,1409649,1745076682906,,,,,,,,,,,,,,,,,,,,,,,,,,,,,,,,,,0,0,0,0,0,0,0,0,0,0,0,0,0,0,0,0,,,,,,,,,,,
273,1409669,1745076682926,0.0,175.47,,-0.12,-0.01,1.0,-1.0,1.0,0.0,1.0,1.14,88.0,2423.0,0.0,3.23,,13.49,0.994,82.6,,25.5,5.0,,,,,,,,,,,,0,0,0,0,0,0,0,0,0,0,0,0,0,0,0,0,,,,,0.0,,,,,,
274,1409689,1745076682946,,,,,,,,,,,,,,,,,,,,,,,8.0,0.0,8.0,8.0,0.0,8.0,0.0,0.0,2.26,,,0,0,0,0,0,0,0,0,0,0,0,0,0,0,0,0,0.0,,,,,39.239502,-77.964638,13.05,30.0,3.0,0.8
275,1409709,1745076682966,0.0,175.47,,-0.12,-0.02,1.01,-1.0,1.0,0.0,1.01,1.14,89.0,2423.0,0.0,3.23,,13.39,1.099,82.6,,25.5,5.0,,,,,,,,,,,,0,0,0,0,0,0,0,0,0,0,0,0,0,0,0,0,,,,,0.0,,,,,,
276,1409729,1745076682986,,,,,,,,,,,,,,,,,,,,,,,,,,,,,,,,,,0,0,0,0,0,0,0,0,0,0,0,0,0,0,0,0,,,,,,,,,,,
277,1409749,1745076682996,0.0,175.47,,-0.12,-0.03,0.99,-1.0,1.0,0.0,1.0,1.14,88.0,2385.0,0.0,3.19,,13.41,1.063,82.6,,28.4,5.0,,,,,,,,,,,,0,0,0,0,0,0,0,0,0,0,0,0,0,0,0,0,,,,,0.0,,,,,,
278,1409769,1745076683016,,,,,,,,,,,,,,,,,,,,,,,,,,,,,,,,,,0,0,0,0,0,0,0,0,0,0,0,0,0,0,0,0,,,,,,,,,,,
279,1409789,1745076683036,0.0,175.47,,-0.12,-0.01,0.99,-2.0,1.0,0.0,0.99,1.14,87.0,2488.0,0.7,3.21,,13.41,0.974,82.6,,28.4,5.0,8.0,0.0,8.0,8.0,0.0,8.0,0.0,0.0,2.26,,,0,0,0,0,0,0,0,0,0,0,0,0,0,0,0,0,0.0,,,,0.0,39.239498,-77.964638,12.83,30.0,3.0,0.8
280,1409809,1745076683056,,,,,,,,,,,,,,,,,,,,,,,,,,,,,,,,,,0,0,0,0,0,0,0,0,0,0,0,0,0,0,0,0,,,,,,,,,,,
281,1409829,1745076683076,0.0,175.47,,-0.13,-0.03,0.98,-1.0,1.0,0.0,0.99,1.14,87.0,2416.0,1.0,3.29,,13.47,0.929,82.6,,28.4,5.0,,,,,,,,,,,,0,0,0,0,0,0,0,0,0,0,0,0,0,0,0,0,,,,,0.0,,,,,,
282,1409849,1745076683104,,,,,,,,,,,,,,,,,,,,,,,,,,,,,,,,,,0,0,0,0,0,0,0,0,0,0,0,0,0,0,0,0,,,,,,,,,,,
283,1409869,1745076683124,0.0,175.47,,-0.12,-0.02,0.98,-2.0,1.0,0.0,0.98,1.14,86.0,2348.0,0.0,3.2,,13.47,0.929,82.6,,28.0,5.0,,,,,,,,,,,,0,0,0,0,0,0,0,0,0,0,0,0,0,0,0,0,,,,,0.0,,,,,,
284,1409889,1745076683144,,,,,,,,,,,,,,,,,,,,,,,8.0,0.0,8.0,8.0,0.0,26.0,0.0,0.0,2.26,,,0,0,0,0,0,0,0,0,0,0,0,0,0,0,0,0,0.0,,,,,39.239494,-77.964638,12.67,30.0,3.0,0.8
285,1409909,1745076683164,0.0,175.47,,-0.12,-0.03,0.97,-2.0,1.0,0.0,0.98,1.14,86.0,2348.0,0.0,3.2,,13.44,0.906,82.6,,28.0,5.0,,,,,,,,,,,,0,0,0,0,0,0,0,0,0,0,0,0,0,0,0,0,,,,,0.0,,,,,,
286,1409929,1745076683184,,,,,,,,,,,,,,,,,,,,,,,,,,,,,,,,,,0,0,0,0,0,0,0,0,0,0,0,0,0,0,0,0,,,,,,,,,,,
287,1409949,1745076683206,0.0,175.47,,-0.13,-0.03,0.99,-2.0,1.0,0.0,1.0,1.14,88.0,2233.0,0.0,3.25,,13.36,0.906,82.6,,26.4,5.0,,,,,,,,,,,,0,0,0,0,0,0,0,0,0,0,0,0,0,0,0,0,,,,,0.0,,,,,,
288,1409969,1745076683226,,,,,,,,,,,,,,,,,,,,,,,,,,,,,,,,,,0,0,0,0,0,0,0,0,0,0,0,0,0,0,0,0,,,,,,,,,,,
289,1409989,1745076683246,0.0,175.47,,-0.13,-0.02,1.0,-2.0,1.0,0.0,1.01,1.14,89.0,2143.0,0.0,3.24,,13.36,0.94,82.6,,26.4,5.0,8.0,0.0,7.0,8.0,0.0,8.0,0.0,0.0,2.26,,,0,0,0,0,0,0,0,0,0,0,0,0,0,0,0,0,0.0,,,,0.0,39.239491,-77.964638,12.25,30.0,3.0,0.8
290,1410009,1745076683266,,,,,,,,,,,,,,,,,,,,,,,,,,,,,,,,,,0,0,0,0,0,0,0,0,0,0,0,0,0,0,0,0,,,,,,,,,,,
291,1410029,1745076683286,0.0,175.47,,-0.14,-0.03,1.0,-2.0,1.0,0.0,1.01,1.14,89.0,2026.0,0.0,3.28,,13.36,0.997,82.6,,26.4,5.0,,,,,,,,,,,,0,0,0,0,0,0,0,0,0,0,0,0,0,0,0,0,,,,,0.0,,,,,,
292,1410049,1745076683306,,,,,,,,,,,,,,,,,,,,,,,,,,,,,,,,,,0,0,0,0,0,0,0,0,0,0,0,0,0,0,0,0,,,,,,,,,,,
293,1410069,1745076683326,0.0,175.47,,-0.14,-0.03,1.0,-1.0,1.0,0.0,1.01,1.14,89.0,1861.0,0.0,3.36,,13.36,0.997,82.6,,24.1,5.0,,,,,,,,,,,,0,0,0,0,0,0,0,0,0,0,0,0,0,0,0,0,,,,,0.0,,,,,,
294,1410089,1745076683346,,,,,,,,,,,,,,,,,,,,,,,7.0,0.0,7.0,7.0,0.0,9.0,0.0,0.0,2.26,,,0,0,0,0,0,0,0,0,0,0,0,0,0,0,0,0,2.0,,,,,39.239487,-77.964638,11.97,30.0,3.0,0.8
295,1410109,1745076683366,0.0,175.47,,-0.15,-0.02,0.98,-2.0,1.0,0.0,0.99,1.14,87.0,1861.0,0.0,3.36,,13.44,1.075,82.6,,24.1,5.0,,,,,,,,,,,,0,0,0,0,0,0,0,0,0,0,0,0,0,0,0,0,,,,,0.0,,,,,,
296,1410129,1745076683386,,,,,,,,,,,,,,,,,,,,,,,,,,,,,,,,,,0,0,0,0,0,0,0,0,0,0,0,0,0,0,0,0,,,,,,,,,,,
297,1410149,1745076683406,0.0,175.47,,-0.15,-0.01,0.98,-2.0,1.0,0.0,0.99,1.14,87.0,1810.0,0.0,3.38,,13.55,1.132,82.6,,23.2,5.0,,,,,,,,,,,,0,0,0,0,0,0,0,0,0,0,0,0,0,0,0,0,,,,,0.0,,,,,,
298,1410169,1745076683426,,,,,,,,,,,,,,,,,,,,,,,,,,,,,,,,,,0,0,0,0,0,0,0,0,0,0,0,0,0,0,0,0,,,,,,,,,,,
299,1410189,1745076683446,0.0,175.47,,-0.14,-0.02,0.98,-2.0,1.0,0.0,0.99,1.14,87.0,2025.0,0.0,3.36,,13.53,1.177,82.6,,23.2,5.0,7.0,0.0,7.0,7.0,0.0,237.0,0.0,0.0,2.26,,,0,0,0,0,0,0,0,0,0,0,0,0,0,0,0,0,2.0,,,,0.0,39.239487,-77.964638,11.7,30.0,3.0,0.8
300,1410209,1745076683466,,,,,,,,,,,,,,,,,,,,,,,,,,,,,,,,,,0,0,0,0,0,0,0,0,0,0,0,0,0,0,0,0,,,,,,,,,,,
301,1410229,1745076683486,0.75,175.47,,-0.15,-0.02,0.98,-2.0,1.0,0.0,0.99,1.14,87.0,1892.0,0.1,3.35,,13.64,1.248,82.6,,23.2,5.0,,,,,,,,,,,,0,0,0,0,0,0,0,0,0,0,0,0,0,0,0,0,,,,,0.0,,,,,,
302,1410249,1745076683507,,,,,,,,,,,,,,,,,,,,,,,,,,,,,,,,,,0,0,0,0,0,0,0,0,0,0,0,0,0,0,0,0,,,,,,,,,,,
303,1410269,1745076683527,3.9,175.47,,-0.13,-0.04,0.98,-2.0,1.0,0.0,0.99,1.14,87.0,1851.0,2.0,3.53,,13.64,1.248,82.6,,22.9,5.0,,,,,,,,,,,,0,0,0,0,0,0,0,0,0,0,0,0,0,0,0,0,,,,,0.0,,,,,,
304,1410289,1745076683547,,,,,,,,,,,,,,,,,,,,,,,7.0,0.0,7.0,7.0,0.0,237.0,0.0,0.0,2.26,,,0,0,0,0,0,0,0,0,0,0,0,0,0,0,0,0,0.0,,,,,39.239487,-77.964645,11.32,30.0,3.0,0.8
305,1410309,1745076683567,5.15,175.47,,-0.15,-0.03,0.99,-2.0,1.0,0.0,1.0,1.14,88.0,1851.0,2.0,3.53,,13.76,1.251,82.6,,22.9,5.0,,,,,,,,,,,,0,0,0,0,0,0,0,0,0,0,0,0,0,0,0,0,,,,,0.0,,,,,,
306,1410329,1745076683587,,,,,,,,,,,,,,,,,,,,,,,,,,,,,,,,,,0,0,0,0,0,0,0,0,0,0,0,0,0,0,0,0,,,,,,,,,,,
307,1410349,1745076683605,7.04,175.47,,-0.16,-0.04,0.99,-2.0,1.0,0.0,1.01,1.14,89.0,1793.0,2.2,3.56,,13.87,1.251,82.6,,20.9,5.0,,,,,,,,,,,,0,0,0,0,0,0,0,0,0,0,0,0,0,0,0,0,,,,,0.0,,,,,,
308,1410369,1745076683625,,,,,,,,,,,,,,,,,,,,,,,,,,,,,,,,,,0,0,0,0,0,0,0,0,0,0,0,0,0,0,0,0,,,,,,,,,,,
309,1410389,1745076683645,11.44,175.34,13.73,-0.16,-0.02,1.0,-2.0,1.0,0.0,1.02,1.14,89.0,1844.0,4.3,3.71,15.0,13.92,1.206,82.6,133.0,20.9,5.0,7.0,0.0,6.0,7.0,0.0,0.0,0.0,0.0,2.26,0.0,0.0,0,0,0,0,0,0,0,0,0,0,0,0,0,0,0,0,0.0,0.0,0.0,0.0,0.0,39.239483,-77.964645,10.81,30.0,3.0,0.8
310,1410409,1745076683665,,,,,,,,,,,,,,,,,,,,,,,,,,,,,,,,,,0,0,0,0,0,0,0,0,0,0,0,0,0,0,0,0,,,,,,,,,,,
311,1410429,1745076683685,13.95,175.47,,-0.17,-0.01,1.02,-2.0,0.0,0.0,1.03,1.14,91.0,2162.0,4.5,3.7,,13.94,1.109,82.6,,20.9,5.0,,,,,,,,,,,,0,0,0,0,0,0,0,0,0,0,0,0,0,0,0,0,,,,,0.0,,,,,,
312,1410449,1745076683705,,,,,,,,,,,,,,,,,,,,,,,,,,,,,,,,,,0,0,0,0,0,0,0,0,0,0,0,0,0,0,0,0,,,,,,,,,,,
313,1410469,1745076683725,15.84,175.47,,-0.18,0.0,1.0,-2.0,0.0,0.0,1.01,1.14,89.0,2351.0,0.0,3.29,,13.94,1.109,82.6,,23.9,5.0,,,,,,,,,,,,0,0,0,0,0,0,0,0,0,0,0,0,0,0,0,0,,,,,0.0,,,,,,
314,1410489,1745076683745,,,,,,,,,,,,,,,,,,,,,,,6.0,0.0,6.0,6.0,0.0,0.0,0.0,0.0,2.26,,,0,0,0,0,0,0,0,0,0,0,0,0,0,0,0,0,0.0,,,,,39.239479,-77.964645,10.3,30.0,3.0,0.8
315,1410509,1745076683765,17.72,175.34,,-0.19,0.01,0.99,-2.0,0.0,0.0,1.01,1.14,88.0,2351.0,0.0,3.29,,13.67,1.018,82.6,,23.9,5.0,,,,,,,,,,,,0,0,0,0,0,0,0,0,0,0,0,0,0,0,0,0,,,,,0.0,,,,,,
316,1410529,1745076683785,,,,,,,,,,,,,,,,,,,,,,,,,,,,,,,,,,0,0,0,0,0,0,0,0,0,0,0,0,0,0,0,0,,,,,,,,,,,
317,1410549,1745076683805,18.98,175.47,,-0.19,-0.01,1.0,-2.0,0.0,0.0,1.02,1.14,89.0,2451.0,0.0,3.21,,13.44,0.958,82.6,,29.2,5.0,,,,,,,,,,,,0,0,0,0,0,0,0,0,0,0,0,0,0,0,0,0,,,,,0.0,,,,,,
318,1410569,1745076683825,,,,,,,,,,,,,,,,,,,,,,,,,,,,,,,,,,0,0,0,0,0,0,0,0,0,0,0,0,0,0,0,0,,,,,,,,,,,
319,1410589,1745076683845,20.86,175.47,,-0.19,-0.01,1.01,-2.0,0.0,0.0,1.02,1.14,90.0,2661.0,0.0,3.07,,13.15,0.949,82.6,,29.2,5.0,6.0,0.0,6.0,6.0,0.0,0.0,0.0,0.0,2.26,,,0,0,0,0,0,0,0,0,0,0,0,0,0,0,0,0,0.0,,,,0.0,39.239475,-77.964645,9.67,30.0,3.0,0.8
320,1410609,1745076683865,,,,,,,,,,,,,,,,,,,,,,,,,,,,,,,,,,0,0,0,0,0,0,0,0,0,0,0,0,0,0,0,0,,,,,,,,,,,
321,1410629,1745076683885,22.75,175.47,,-0.2,-0.03,1.0,-2.0,0.0,0.0,1.02,1.02,100.0,2660.0,0.0,3.05,,12.95,0.987,82.6,,29.2,5.0,,,,,,,,,,,,0,0,0,0,0,0,0,0,0,0,0,0,0,0,0,0,,,,,0.0,,,,,,
322,1410649,1745076683907,,,,,,,,,,,,,,,,,,,,,,,,,,,,,,,,,,0,0,0,0,0,0,0,0,0,0,0,0,0,0,0,0,,,,,,,,,,,
323,1410669,1745076683927,24.64,175.47,,-0.2,-0.03,0.99,-1.0,0.0,0.0,1.01,1.02,99.0,2550.0,0.0,3.09,,12.95,0.987,82.6,,30.6,5.0,,,,,,,,,,,,0,0,0,0,0,0,0,0,0,0,0,0,0,0,0,0,,,,,0.0,,,,,,
324,1410689,1745076683947,,,,,,,,,,,,,,,,,,,,,,,6.0,0.0,5.0,6.0,0.0,0.0,0.0,0.0,2.26,,,0,0,0,0,0,0,0,0,0,0,0,0,0,0,0,0,0.0,,,,,39.239475,-77.964645,9.28,30.0,3.0,0.8
325,1410709,1745076683967,27.78,175.47,,-0.21,-0.02,0.99,-2.0,0.0,0.0,1.01,1.02,100.0,2550.0,0.0,3.09,,12.95,0.995,82.6,,30.6,5.0,,,,,,,,,,,,0,0,0,0,0,0,0,0,0,0,0,0,0,0,0,0,,,,,0.0,,,,,,
326,1410729,1745076683987,,,,,,,,,,,,,,,,,,,,,,,,,,,,,,,,,,0,0,0,0,0,0,0,0,0,0,0,0,0,0,0,0,,,,,,,,,,,
327,1410749,1745076683997,30.92,175.47,,-0.21,-0.01,1.0,-1.0,0.0,0.0,1.02,1.02,100.0,2415.0,0.0,3.13,,13.03,0.988,82.6,,28.0,5.0,,,,,,,,,,,,0,0,0,0,0,0,0,0,0,0,0,0,0,0,0,0,,,,,0.0,,,,,,
328,1410769,1745076684017,,,,,,,,,,,,,,,,,,,,,,,,,,,,,,,,,,0,0,0,0,0,0,0,0,0,0,0,0,0,0,0,0,,,,,,,,,,,
329,1410789,1745076684037,34.06,175.47,,-0.23,-0.0,0.99,-1.0,0.0,0.0,1.02,1.02,100.0,2272.0,0.0,3.2,,13.08,0.987,82.6,,28.0,5.0,5.0,0.0,5.0,5.0,0.0,0.0,0.0,0.0,2.26,,,0,0,0,0,0,0,0,0,0,0,0,0,0,0,0,0,0.0,,,,0.0,39.239471,-77.964653,8.49,30.0,3.0,0.8
330,1410809,1745076684057,,,,,,,,,,,,,,,,,,,,,,,,,,,,,,,,,,0,0,0,0,0,0,0,0,0,0,0,0,0,0,0,0,,,,,,,,,,,
331,1410829,1745076684077,35.95,175.47,,-0.24,-0.0,1.0,-1.0,0.0,0.0,1.03,1.03,100.0,2117.0,0.0,3.27,,13.25,1.012,82.6,,28.0,5.0,,,,,,,,,,,,0,0,0,0,0,0,0,0,0,0,0,0,0,0,0,0,,,,,0.0,,,,,,
332,1410849,1745076684101,,,,,,,,,,,,,,,,,,,,,,,,,,,,,,,,,,0,0,0,0,0,0,0,0,0,0,0,0,0,0,0,0,,,,,,,,,,,
333,1410869,1745076684121,37.2,175.59,,-0.23,-0.0,1.0,-1.0,0.0,0.0,1.03,1.03,100.0,2008.0,0.0,3.29,,13.25,1.012,82.6,,25.0,5.0,,,,,,,,,,,,0,0,0,0,0,0,0,0,0,0,0,0,0,0,0,0,,,,,0.0,,,,,,
334,1410889,1745076684141,,,,,,,,,,,,,,,,,,,,,,,4.0,0.0,5.0,4.0,0.0,0.0,0.0,0.0,2.26,,,0,0,0,0,0,0,0,0,0,0,0,0,0,0,0,0,0.0,,,,,39.239468,-77.964653,7.86,30.0,3.0,0.8
335,1410909,1745076684161,39.09,175.47,,-0.22,0.01,0.99,-1.0,0.0,0.0,1.01,1.03,99.0,2008.0,0.0,3.29,,13.35,1.069,82.6,,25.0,5.0,,,,,,,,,,,,0,0,0,0,0,0,0,0,0,0,0,0,0,0,0,0,,,,,0.0,,,,,,
336,1410929,1745076684181,,,,,,,,,,,,,,,,,,,,,,,,,,,,,,,,,,0,0,0,0,0,0,0,0,0,0,0,0,0,0,0,0,,,,,,,,,,,
337,1410949,1745076684207,38.46,175.47,,-0.22,0.01,0.98,-1.0,0.0,0.0,1.0,1.03,98.0,2257.0,0.0,3.35,,13.36,1.127,82.6,,25.2,5.0,,,,,,,,,,,,0,0,0,0,0,0,0,0,0,0,0,0,0,0,0,0,,,,,0.0,,,,,,
338,1410969,1745076684227,,,,,,,,,,,,,,,,,,,,,,,,,,,,,,,,,,0,0,0,0,0,0,0,0,0,0,0,0,0,0,0,0,,,,,,,,,,,
339,1410989,1745076684247,39.09,175.47,,-0.22,0.01,0.98,-1.0,0.0,0.0,1.01,1.03,98.0,1988.0,0.0,3.29,,13.36,1.231,82.6,,25.2,5.0,4.0,0.0,4.0,4.0,0.0,0.0,0.0,0.0,2.26,,,0,0,0,0,0,0,0,0,0,0,0,0,0,0,0,0,0.0,,,,0.0,39.239468,-77.964653,7.09,30.0,3.0,0.8
340,1411009,1745076684267,,,,,,,,,,,,,,,,,,,,,,,,,,,,,,,,,,0,0,0,0,0,0,0,0,0,0,0,0,0,0,0,0,,,,,,,,,,,
341,1411029,1745076684287,38.46,175.47,,-0.21,0.0,0.98,-1.0,0.0,0.0,1.0,1.03,98.0,1914.0,0.0,3.33,,13.41,1.251,82.6,,25.2,5.0,,,,,,,,,,,,0,0,0,0,0,0,0,0,0,0,0,0,0,0,0,0,,,,,0.0,,,,,,
342,1411049,1745076684306,,,,,,,,,,,,,,,,,,,,,,,,,,,,,,,,,,0,0,0,0,0,0,0,0,0,0,0,0,0,0,0,0,,,,,,,,,,,
343,1411069,1745076684326,38.46,175.47,,-0.21,0.0,0.99,-1.0,0.0,0.0,1.01,1.03,98.0,1842.0,0.0,3.37,,13.41,1.251,82.6,,22.8,5.0,,,,,,,,,,,,0,0,0,0,0,0,0,0,0,0,0,0,0,0,0,0,,,,,0.0,,,,,,
344,1411089,1745076684346,,,,,,,,,,,,,,,,,,,,,,,4.0,0.0,4.0,4.0,0.0,0.0,0.0,0.0,2.26,,,0,0,0,0,0,0,0,0,0,0,0,0,0,0,0,0,0.0,,,,,39.239468,-77.964653,6.54,30.0,3.0,0.8
345,1411109,1745076684366,39.72,175.59,,-0.2,0.0,0.99,-1.0,0.0,0.0,1.01,1.03,99.0,1842.0,0.0,3.37,,13.55,1.243,82.6,,22.8,5.0,,,,,,,,,,,,0,0,0,0,0,0,0,0,0,0,0,0,0,0,0,0,,,,,0.0,,,,,,
346,1411129,1745076684386,,,,,,,,,,,,,,,,,,,,,,,,,,,,,,,,,,0,0,0,0,0,0,0,0,0,0,0,0,0,0,0,0,,,,,,,,,,,
347,1411149,1745076684407,36.58,175.47,,-0.21,0.01,0.97,-1.0,0.0,0.0,1.0,1.03,97.0,2007.0,0.0,3.31,,13.53,1.212,82.6,,22.5,5.0,,,,,,,,,,,,0,0,0,0,0,0,0,0,0,0,0,0,0,0,0,0,,,,,0.0,,,,,,
348,1411169,1745076684427,,,,,,,,,,,,,,,,,,,,,,,,,,,,,,,,,,0,0,0,0,0,0,0,0,0,0,0,0,0,0,0,0,,,,,,,,,,,
349,1411189,1745076684447,34.69,175.47,,-0.21,0.01,0.99,-1.0,0.0,0.0,1.01,1.03,99.0,1818.0,0.0,3.35,,13.63,1.225,82.6,,22.5,5.0,3.0,0.0,3.0,3.0,0.0,0.0,0.0,0.0,2.26,,,0,0,0,0,0,0,0,0,0,0,0,0,0,0,0,0,0.0,,,,0.0,39.239468,-77.964653,5.66,30.0,3.0,0.8
350,1411209,1745076684467,,,,,,,,,,,,,,,,,,,,,,,,,,,,,,,,,,0,0,0,0,0,0,0,0,0,0,0,0,0,0,0,0,,,,,,,,,,,
351,1411229,1745076684487,34.69,175.59,,-0.23,-0.0,0.99,-1.0,0.0,0.0,1.02,1.03,99.0,1793.0,0.0,3.38,,13.65,1.188,82.6,,22.5,5.0,,,,,,,,,,,,0,0,0,0,0,0,0,0,0,0,0,0,0,0,0,0,,,,,0.0,,,,,,
352,1411249,1745076684506,,,,,,,,,,,,,,,,,,,,,,,,,,,,,,,,,,0,0,0,0,0,0,0,0,0,0,0,0,0,0,0,0,,,,,,,,,,,
353,1411269,1745076684526,33.43,175.47,,-0.22,0.0,0.98,-1.0,0.0,0.0,1.01,1.03,98.0,1757.0,0.0,3.39,,13.65,1.188,82.6,,21.3,5.0,,,,,,,,,,,,0,0,0,0,0,0,0,0,0,0,0,0,0,0,0,0,,,,,0.0,,,,,,
354,1411289,1745076684546,,,,,,,,,,,,,,,,,,,,,,,3.0,0.0,3.0,3.0,0.0,0.0,0.0,0.0,2.27,,,0,0,0,0,0,0,0,0,0,0,0,0,0,0,0,0,0.0,,,,,39.239464,-77.964653,5.06,30.0,3.0,0.8
355,1411309,1745076684566,34.06,175.47,,-0.21,0.0,0.99,-1.0,0.0,0.0,1.01,1.03,98.0,1757.0,0.0,3.39,,13.72,1.15,82.6,,21.3,5.0,,,,,,,,,,,,0,0,0,0,0,0,0,0,0,0,0,0,0,0,0,0,,,,,0.0,,,,,,
356,1411329,1745076684586,,,,,,,,,,,,,,,,,,,,,,,,,,,,,,,,,,0,0,0,0,0,0,0,0,0,0,0,0,0,0,0,0,,,,,,,,,,,
357,1411349,1745076684606,34.69,175.47,,-0.2,0.01,1.0,-1.0,0.0,0.0,1.02,1.03,99.0,1651.0,0.0,3.41,,13.77,1.129,82.6,,19.8,5.0,,,,,,,,,,,,0,0,0,0,0,0,0,0,0,0,0,0,0,0,0,0,,,,,0.0,,,,,,
358,1411369,1745076684626,,,,,,,,,,,,,,,,,,,,,,,,,,,,,,,,,,0,0,0,0,0,0,0,0,0,0,0,0,0,0,0,0,,,,,,,,,,,
359,1411389,1745076684646,35.32,175.47,13.76,-0.19,0.01,1.01,-1.0,0.0,0.0,1.03,1.03,100.0,1522.0,0.0,3.41,15.0,13.84,1.123,82.6,133.0,19.8,5.0,3.0,0.0,3.0,3.0,0.0,0.0,0.0,0.0,2.26,0.0,0.0,0,0,0,0,0,0,0,0,0,0,0,0,0,0,0,0,0.0,0.0,0.0,0.0,0.0,39.239464,-77.964653,4.54,30.0,3.0,0.8
360,1411409,1745076684666,,,,,,,,,,,,,,,,,,,,,,,,,,,,,,,,,,0,0,0,0,0,0,0,0,0,0,0,0,0,0,0,0,,,,,,,,,,,
361,1411429,1745076684686,37.2,175.47,,-0.19,0.02,1.02,-1.0,0.0,0.0,1.04,1.04,100.0,1514.0,10.8,3.58,,14.0,1.13,82.6,,19.8,5.0,,,,,,,,,,,,0,0,0,0,0,0,0,0,0,0,0,0,0,0,0,0,,,,,0.0,,,,,,
362,1411449,1745076684706,,,,,,,,,,,,,,,,,,,,,,,,,,,,,,,,,,0,0,0,0,0,0,0,0,0,0,0,0,0,0,0,0,,,,,,,,,,,
363,1411469,1745076684726,37.83,175.47,,-0.19,0.03,1.02,-1.0,0.0,0.0,1.04,1.04,100.0,1897.0,14.2,4.18,,14.0,1.13,82.6,,20.6,5.0,,,,,,,,,,,,0,0,0,0,0,0,0,0,0,0,0,0,0,0,0,0,,,,,0.0,,,,,,
364,1411489,1745076684746,,,,,,,,,,,,,,,,,,,,,,,2.0,0.0,2.0,2.0,0.0,0.0,0.0,0.0,2.26,,,0,0,0,0,0,0,0,0,0,0,0,0,0,0,0,0,0.0,,,,,39.239464,-77.964653,3.81,30.0,3.0,0.8
365,1411509,1745076684766,40.35,175.47,,-0.2,0.02,1.02,-1.0,0.0,0.0,1.04,1.04,100.0,1897.0,14.2,4.18,,14.1,1.172,82.6,,20.6,5.0,,,,,,,,,,,,0,0,0,0,0,0,0,0,0,0,0,0,0,0,0,0,,,,,0.0,,,,,,
366,1411529,1745076684786,,,,,,,,,,,,,,,,,,,,,,,,,,,,,,,,,,0,0,0,0,0,0,0,0,0,0,0,0,0,0,0,0,,,,,,,,,,,
367,1411549,1745076684806,39.72,175.34,,-0.21,0.01,1.01,-1.0,0.0,0.0,1.03,1.04,99.0,2248.0,14.3,4.05,,14.04,1.25,82.6,,24.3,5.0,,,,,,,,,,,,0,0,0,0,0,0,0,0,0,0,0,0,0,0,0,0,,,,,0.0,,,,,,
368,1411569,1745076684826,,,,,,,,,,,,,,,,,,,,,,,,,,,,,,,,,,0,0,0,0,0,0,0,0,0,0,0,0,0,0,0,0,,,,,,,,,,,
369,1411589,1745076684846,41.6,175.34,,-0.21,0.02,1.0,-1.0,0.0,0.0,1.02,1.04,98.0,2374.0,9.2,3.68,,13.95,1.236,82.6,,24.3,5.0,2.0,0.0,2.0,2.0,0.0,0.0,0.0,0.0,2.26,,,0,0,0,0,0,0,0,0,0,0,0,0,0,0,0,0,0.0,,,,0.0,39.239464,-77.964653,3.29,30.0,3.0,0.8
370,1411609,1745076684866,,,,,,,,,,,,,,,,,,,,,,,,,,,,,,,,,,0,0,0,0,0,0,0,0,0,0,0,0,0,0,0,0,,,,,,,,,,,
371,1411629,1745076684886,41.6,175.47,,-0.22,0.01,1.0,-1.0,0.0,0.0,1.02,1.04,98.0,2471.0,7.8,3.67,,13.87,1.153,82.6,,24.3,5.0,,,,,,,,,,,,0,0,0,0,0,0,0,0,0,0,0,0,0,0,0,0,,,,,0.0,,,,,,
372,1411649,1745076684906,,,,,,,,,,,,,,,,,,,,,,,,,,,,,,,,,,0,0,0,0,0,0,0,0,0,0,0,0,0,0,0,0,,,,,,,,,,,
373,1411669,1745076684926,42.86,175.47,,-0.22,0.03,1.0,-1.0,0.0,0.0,1.02,1.04,98.0,2475.0,1.4,3.68,,13.87,1.153,82.6,,27.7,5.0,,,,,,,,,,,,0,0,0,0,0,0,0,0,0,0,0,0,0,0,0,0,,,,,0.0,,,,,,
374,1411689,1745076684946,,,,,,,,,,,,,,,,,,,,,,,1.0,0.0,2.0,2.0,0.0,0.0,0.0,0.0,2.26,,,0,0,0,0,0,0,0,0,0,0,0,0,0,0,0,0,0.0,,,,,39.23946,-77.964653,2.36,30.0,3.0,0.8
375,1411709,1745076684966,43.49,175.34,,-0.22,0.01,1.02,0.0,0.0,0.0,1.04,1.04,100.0,2475.0,1.4,3.68,,13.69,1.089,82.6,,27.7,5.0,,,,,,,,,,,,0,0,0,0,0,0,0,0,0,0,0,0,0,0,0,0,,,,,0.0,,,,,,
376,1411729,1745076684986,,,,,,,,,,,,,,,,,,,,,,,,,,,,,,,,,,0,0,0,0,0,0,0,0,0,0,0,0,0,0,0,0,,,,,,,,,,,
377,1411749,1745076684998,42.86,175.34,,-0.22,0.01,1.0,0.0,0.0,0.0,1.03,1.04,99.0,2500.0,0.0,3.18,,13.47,1.11,82.6,,28.5,5.0,,,,,,,,,,,,0,0,0,0,0,0,0,0,0,0,0,0,0,0,0,0,,,,,0.0,,,,,,
378,1411769,1745076685018,,,,,,,,,,,,,,,,,,,,,,,,,,,,,,,,,,0,0,0,0,0,0,0,0,0,0,0,0,0,0,0,0,,,,,,,,,,,
379,1411789,1745076685038,44.12,175.34,,-0.23,0.01,1.0,0.0,0.0,0.0,1.03,1.04,99.0,2364.0,0.0,3.18,,13.41,1.182,82.6,,28.5,5.0,1.0,0.0,1.0,1.0,0.0,0.0,0.0,0.0,2.26,,,0,0,0,0,0,0,0,0,0,0,0,0,0,0,0,0,0.0,,,,0.0,39.23946,-77.964661,1.79,30.0,3.0,0.8
380,1411809,1745076685058,,,,,,,,,,,,,,,,,,,,,,,,,,,,,,,,,,0,0,0,0,0,0,0,0,0,0,0,0,0,0,0,0,,,,,,,,,,,
381,1411829,1745076685078,44.12,175.47,,-0.24,0.0,1.01,0.0,0.0,0.0,1.03,1.04,99.0,2324.0,9.1,3.72,,13.75,1.248,82.6,,28.5,5.0,,,,,,,,,,,,0,0,0,0,0,0,0,0,0,0,0,0,0,0,0,0,,,,,0.0,,,,,,
