,Interval,Utc,FrontBP,SteerAng,Battery,AccelX,AccelY,AccelZ,Yaw,Pitch,Roll,Gsum,GsumMax,GsumPct,RPM,TPS,InjectorPW,Baro,MAP,Lambda,IAT,EngineTemp,EOP,EOT,WSFR,WSFL,WSRR,WSRL,TCSet,TCSlip,TCComp,TCCut,Analog8,OilTemp,AA_On,ThermLF1,ThermLF2,ThermRR1,ThermRR2,ThermLF3,ThermLF4,ThermLF5,ThermLF6,ThermLF7,ThermLF8,ThermRR3,ThermRR4,ThermRR5,ThermRR6,ThermRR7,ThermRR8,Gear,AA_On1,AA_LowDrag,Fuel_Mix,AA_Packages,Latitude,Longitude,Speed,GPSSats,GPSQual,GPSDOP
0,1491709,1745076764966,0.0,176.34,,-0.03,0.28,0.87,0.0,0.0,0.0,0.91,0.91,100.0,12636.0,27.8,2.76,,9.68,1.219,86.2,,69.9,5.0,,,,,,,,,,,,0,0,0,0,0,0,0,0,0,0,0,0,0,0,0,0,,,,,0.0,,,,,,
1,1491729,1745076764986,,,,,,,,,,,,,,,,,,,,,,,,,,,,,,,,,,0,0,0,0,0,0,0,0,0,0,0,0,0,0,0,0,,,,,,,,,,,
2,1491749,1745076764998,0.0,176.22,,-0.03,0.29,0.93,-1.0,0.0,0.0,0.97,0.97,100.0,12683.0,27.9,2.76,,9.66,1.231,86.2,,69.5,5.0,,,,,,,,,,,,0,0,0,0,0,0,0,0,0,0,0,0,0,0,0,0,,,,,0.0,,,,,,
3,1491769,1745076765018,,,,,,,,,,,,,,,,,,,,,,,,,,,,,,,,,,0,0,0,0,0,0,0,0,0,0,0,0,0,0,0,0,,,,,,,,,,,
4,1491789,1745076765038,0.0,176.22,,-0.07,0.24,0.91,-1.0,0.0,0.0,0.94,0.97,97.0,12566.0,29.0,2.82,,9.69,1.231,86.2,,69.5,5.0,0.0,0.0,0.0,0.0,0.0,0.0,0.0,0.0,2.26,,,0,0,0,0,0,0,0,0,0,0,0,0,0,0,0,0,0.0,,,,0.0,39.239239,-77.965454,0.15,30.0,3.0,0.8
5,1491809,1745076765058,,,,,,,,,,,,,,,,,,,,,,,,,,,,,,,,,,0,0,0,0,0,0,0,0,0,0,0,0,0,0,0,0,,,,,,,,,,,
6,1491829,1745076765078,0.0,176.22,,-0.05,0.26,0.88,-1.0,0.0,0.0,0.92,0.97,94.0,12461.0,30.4,2.83,,10.04,1.246,86.2,,69.5,5.0,,,,,,,,,,,,0,0,0,0,0,0,0,0,0,0,0,0,0,0,0,0,,,,,0.0,,,,,,
7,1491849,1745076765105,,,,,,,,,,,,,,,,,,,,,,,,,,,,,,,,,,0,0,0,0,0,0,0,0,0,0,0,0,0,0,0,0,,,,,,,,,,,
8,1491869,1745076765125,0.0,176.09,,-0.04,0.26,0.8,-1.0,0.0,0.0,0.84,0.97,86.0,12093.0,32.2,2.76,,10.04,1.246,86.2,,71.1,5.0,,,,,,,,,,,,0,0,0,0,0,0,0,0,0,0,0,0,0,0,0,0,,,,,0.0,,,,,,
9,1491889,1745076765145,,,,,,,,,,,,,,,,,,,,,,,0.0,0.0,0.0,0.0,0.0,0.0,0.0,0.0,2.26,,,0,0,0,0,0,0,0,0,0,0,0,0,0,0,0,0,0.0,,,,,39.239239,-77.965454,0.08,30.0,3.0,0.8
10,1491909,1745076765165,0.0,176.09,,-0.05,0.1,0.74,-1.0,0.0,0.0,0.75,0.97,77.0,12093.0,32.2,2.76,,10.26,1.246,86.2,,71.1,5.0,,,,,,,,,,,,0,0,0,0,0,0,0,0,0,0,0,0,0,0,0,0,,,,,0.0,,,,,,
11,1491929,1745076765185,,,,,,,,,,,,,,,,,,,,,,,,,,,,,,,,,,0,0,0,0,0,0,0,0,0,0,0,0,0,0,0,0,,,,,,,,,,,
12,1491949,1745076765206,0.0,175.97,,-0.02,0.12,0.8,-2.0,0.0,0.0,0.81,0.97,83.0,11470.0,32.8,2.92,,10.62,1.247,86.2,,69.5,5.0,,,,,,,,,,,,0,0,0,0,0,0,0,0,0,0,0,0,0,0,0,0,,,,,0.0,,,,,,
13,1491969,1745076765226,,,,,,,,,,,,,,,,,,,,,,,,,,,,,,,,,,0,0,0,0,0,0,0,0,0,0,0,0,0,0,0,0,,,,,,,,,,,
14,1491989,1745076765246,0.0,175.97,,-0.02,0.1,0.77,-2.0,0.0,0.0,0.78,0.97,80.0,10845.0,33.0,4.02,,11.04,1.249,86.2,,69.5,5.0,0.0,0.0,0.0,0.0,0.0,0.0,0.0,0.0,2.26,,,0,0,0,0,0,0,0,0,0,0,0,0,0,0,0,0,0.0,,,,0.0,39.239239,-77.965454,0.13,30.0,3.0,0.8
15,1492009,1745076765266,,,,,,,,,,,,,,,,,,,,,,,,,,,,,,,,,,0,0,0,0,0,0,0,0,0,0,0,0,0,0,0,0,,,,,,,,,,,
16,1492029,1745076765286,0.0,175.97,,-0.03,0.1,0.77,-1.0,0.0,0.0,0.78,0.97,80.0,10215.0,33.0,4.75,,11.17,1.249,86.2,,69.5,5.0,,,,,,,,,,,,0,0,0,0,0,0,0,0,0,0,0,0,0,0,0,0,,,,,0.0,,,,,,
17,1492049,1745076765306,,,,,,,,,,,,,,,,,,,,,,,,,,,,,,,,,,0,0,0,0,0,0,0,0,0,0,0,0,0,0,0,0,,,,,,,,,,,
18,1492069,1745076765326,0.0,175.97,,-0.02,0.14,0.77,-1.0,0.0,0.0,0.78,0.97,80.0,10747.0,33.1,4.3,,11.17,1.249,86.2,,69.4,5.0,,,,,,,,,,,,0,0,0,0,0,0,0,0,0,0,0,0,0,0,0,0,,,,,0.0,,,,,,
19,1492089,1745076765346,,,,,,,,,,,,,,,,,,,,,,,0.0,0.0,0.0,0.0,0.0,0.0,0.0,0.0,2.26,,,0,0,0,0,0,0,0,0,0,0,0,0,0,0,0,0,0.0,,,,,39.239239,-77.965454,0.29,30.0,3.0,0.8
20,1492109,1745076765366,0.0,175.84,,0.01,0.19,0.77,-1.0,0.0,0.0,0.8,0.97,82.0,10747.0,33.1,4.3,,11.28,1.248,86.2,,69.4,5.0,,,,,,,,,,,,0,0,0,0,0,0,0,0,0,0,0,0,0,0,0,0,,,,,0.0,,,,,,
21,1492129,1745076765386,,,,,,,,,,,,,,,,,,,,,,,,,,,,,,,,,,0,0,0,0,0,0,0,0,0,0,0,0,0,0,0,0,,,,,,,,,,,
22,1492149,1745076765406,0.0,175.84,,0.0,0.13,0.78,-2.0,0.0,0.0,0.79,0.97,81.0,11264.0,33.1,3.9,,11.28,1.078,86.2,,67.8,5.0,,,,,,,,,,,,0,0,0,0,0,0,0,0,0,0,0,0,0,0,0,0,,,,,0.0,,,,,,
23,1492169,1745076765426,,,,,,,,,,,,,,,,,,,,,,,,,,,,,,,,,,0,0,0,0,0,0,0,0,0,0,0,0,0,0,0,0,,,,,,,,,,,
24,1492189,1745076765446,0.0,175.84,,0.02,0.13,0.85,-1.0,-1.0,0.0,0.86,0.97,89.0,11773.0,34.3,3.82,,11.12,1.004,86.2,,67.8,5.0,0.0,0.0,0.0,0.0,0.0,0.0,0.0,0.0,2.25,,,0,0,0,0,0,0,0,0,0,0,0,0,0,0,0,0,0.0,,,,0.0,39.239239,-77.965454,0.8,30.0,3.0,0.8
25,1492209,1745076765466,,,,,,,,,,,,,,,,,,,,,,,,,,,,,,,,,,0,0,0,0,0,0,0,0,0,0,0,0,0,0,0,0,,,,,,,,,,,
26,1492229,1745076765486,0.0,175.84,,-0.01,0.17,0.81,-1.0,-1.0,-1.0,0.83,0.97,85.0,12676.0,42.2,4.13,,11.64,0.994,86.2,,67.8,5.0,,,,,,,,,,,,0,0,0,0,0,0,0,0,0,0,0,0,0,0,0,0,,,,,0.0,,,,,,
27,1492249,1745076765506,,,,,,,,,,,,,,,,,,,,,,,,,,,,,,,,,,0,0,0,0,0,0,0,0,0,0,0,0,0,0,0,0,,,,,,,,,,,
28,1492269,1745076765526,0.0,175.84,,0.03,0.14,0.81,-2.0,0.0,-1.0,0.82,0.97,84.0,13477.0,48.8,3.97,,11.64,0.994,86.2,,70.1,5.0,,,,,,,,,,,,0,0,0,0,0,0,0,0,0,0,0,0,0,0,0,0,,,,,0.0,,,,,,
29,1492289,1745076765546,,,,,,,,,,,,,,,,,,,,,,,0.0,0.0,0.0,0.0,0.0,0.0,0.0,0.0,2.26,,,0,0,0,0,0,0,0,0,0,0,0,0,0,0,0,0,0.0,,,,,39.239239,-77.965454,1.22,30.0,3.0,0.8
30,1492309,1745076765566,0.0,175.72,,0.0,0.13,0.8,-3.0,0.0,0.0,0.81,0.97,83.0,13477.0,48.8,3.97,,12.05,0.945,86.2,,70.1,5.0,,,,,,,,,,,,0,0,0,0,0,0,0,0,0,0,0,0,0,0,0,0,,,,,0.0,,,,,,
31,1492329,1745076765586,,,,,,,,,,,,,,,,,,,,,,,,,,,,,,,,,,0,0,0,0,0,0,0,0,0,0,0,0,0,0,0,0,,,,,,,,,,,
32,1492349,1745076765604,0.0,175.47,,-0.02,0.21,0.82,-2.0,0.0,0.0,0.85,0.97,87.0,13706.0,51.3,3.96,,12.29,0.965,86.2,,71.6,5.0,,,,,,,,,,,,0,0,0,0,0,0,0,0,0,0,0,0,0,0,0,0,,,,,0.0,,,,,,
33,1492369,1745076765624,,,,,,,,,,,,,,,,,,,,,,,,,,,,,,,,,,0,0,0,0,0,0,0,0,0,0,0,0,0,0,0,0,,,,,,,,,,,
34,1492389,1745076765644,0.0,175.34,13.51,-0.02,0.1,0.83,-2.0,0.0,0.0,0.84,0.97,86.0,12975.0,52.7,4.1,15.0,12.29,1.21,86.2,153.0,71.6,5.0,1.0,0.0,1.0,1.0,0.0,0.0,0.0,0.0,2.26,0.0,0.0,0,0,0,0,0,0,0,0,0,0,0,0,0,0,0,0,0.0,0.0,0.0,0.0,0.0,39.239239,-77.965454,1.36,30.0,3.0,0.8
35,1492409,1745076765664,,,,,,,,,,,,,,,,,,,,,,,,,,,,,,,,,,0,0,0,0,0,0,0,0,0,0,0,0,0,0,0,0,,,,,,,,,,,
36,1492429,1745076765684,0.0,175.21,,-0.02,0.0,0.82,-2.0,0.0,0.0,0.82,0.97,84.0,13005.0,50.8,4.06,,12.21,1.246,86.2,,71.6,5.0,,,,,,,,,,,,0,0,0,0,0,0,0,0,0,0,0,0,0,0,0,0,,,,,0.0,,,,,,
37,1492449,1745076765705,,,,,,,,,,,,,,,,,,,,,,,,,,,,,,,,,,0,0,0,0,0,0,0,0,0,0,0,0,0,0,0,0,,,,,,,,,,,
38,1492469,1745076765725,0.0,175.09,,0.06,0.05,0.82,-2.0,0.0,0.0,0.82,0.97,85.0,12733.0,42.1,4.02,,12.21,1.246,86.2,,70.1,5.0,,,,,,,,,,,,0,0,0,0,0,0,0,0,0,0,0,0,0,0,0,0,,,,,0.0,,,,,,
39,1492489,1745076765745,,,,,,,,,,,,,,,,,,,,,,,1.0,0.0,1.0,1.0,0.0,0.0,0.0,0.0,2.25,,,0,0,0,0,0,0,0,0,0,0,0,0,0,0,0,0,0.0,,,,,39.239235,-77.965454,1.43,30.0,3.0,0.8
40,1492509,1745076765765,0.0,174.84,,0.08,0.12,0.86,-3.0,0.0,0.0,0.87,0.97,89.0,12733.0,42.1,4.02,,11.91,1.192,86.2,,70.1,5.0,,,,,,,,,,,,0,0,0,0,0,0,0,0,0,0,0,0,0,0,0,0,,,,,0.0,,,,,,
41,1492529,1745076765785,,,,,,,,,,,,,,,,,,,,,,,,,,,,,,,,,,0,0,0,0,0,0,0,0,0,0,0,0,0,0,0,0,,,,,,,,,,,
42,1492549,1745076765805,0.0,174.71,,0.11,0.1,0.86,-5.0,0.0,1.0,0.87,0.97,90.0,12451.0,41.7,4.21,,11.69,1.094,86.2,,70.0,5.0,,,,,,,,,,,,0,0,0,0,0,0,0,0,0,0,0,0,0,0,0,0,,,,,0.0,,,,,,
43,1492569,1745076765825,,,,,,,,,,,,,,,,,,,,,,,,,,,,,,,,,,0,0,0,0,0,0,0,0,0,0,0,0,0,0,0,0,,,,,,,,,,,
44,1492589,1745076765845,0.0,174.71,,0.1,0.1,0.88,-6.0,1.0,1.0,0.89,0.97,92.0,12051.0,44.3,4.52,,12.07,1.026,86.2,,70.0,5.0,2.0,0.0,2.0,2.0,0.0,0.0,0.0,0.0,2.25,,,0,0,0,0,0,0,0,0,0,0,0,0,0,0,0,0,0.0,,,,0.0,39.239235,-77.965454,2.25,30.0,3.0,0.8
45,1492609,1745076765865,,,,,,,,,,,,,,,,,,,,,,,,,,,,,,,,,,0,0,0,0,0,0,0,0,0,0,0,0,0,0,0,0,,,,,,,,,,,
46,1492629,1745076765885,0.0,174.59,,0.09,-0.02,0.89,-7.0,0.0,2.0,0.89,0.97,92.0,11667.0,47.2,3.92,,12.31,0.969,86.2,,70.0,5.0,,,,,,,,,,,,0,0,0,0,0,0,0,0,0,0,0,0,0,0,0,0,,,,,0.0,,,,,,
47,1492649,1745076765906,,,,,,,,,,,,,,,,,,,,,,,,,,,,,,,,,,0,0,0,0,0,0,0,0,0,0,0,0,0,0,0,0,,,,,,,,,,,
48,1492669,1745076765926,0.0,174.46,,0.17,0.06,0.95,-8.0,0.0,2.0,0.96,0.97,99.0,10864.0,52.8,3.9,,12.31,0.969,86.2,,70.4,5.0,,,,,,,,,,,,0,0,0,0,0,0,0,0,0,0,0,0,0,0,0,0,,,,,0.0,,,,,,
49,1492689,1745076765946,,,,,,,,,,,,,,,,,,,,,,,3.0,0.0,4.0,4.0,0.0,0.0,0.0,0.0,2.26,,,0,0,0,0,0,0,0,0,0,0,0,0,0,0,0,0,0.0,,,,,39.239235,-77.965454,3.89,30.0,3.0,0.8
50,1492709,1745076765966,0.0,174.46,,0.2,0.04,0.93,-8.0,0.0,1.0,0.96,0.97,98.0,10864.0,52.8,3.9,,12.8,0.986,86.2,,70.4,5.0,,,,,,,,,,,,0,0,0,0,0,0,0,0,0,0,0,0,0,0,0,0,,,,,0.0,,,,,,
51,1492729,1745076765986,,,,,,,,,,,,,,,,,,,,,,,,,,,,,,,,,,0,0,0,0,0,0,0,0,0,0,0,0,0,0,0,0,,,,,,,,,,,
52,1492749,1745076765997,0.0,174.33,,0.23,-0.01,0.96,-9.0,0.0,1.0,0.99,0.99,100.0,9638.0,58.9,5.35,,13.28,1.134,86.2,,68.0,5.0,,,,,,,,,,,,0,0,0,0,0,0,0,0,0,0,0,0,0,0,0,0,,,,,0.0,,,,,,
53,1492769,1745076766017,,,,,,,,,,,,,,,,,,,,,,,,,,,,,,,,,,0,0,0,0,0,0,0,0,0,0,0,0,0,0,0,0,,,,,,,,,,,
54,1492789,1745076766037,0.0,174.33,,0.28,0.19,0.95,-11.0,0.0,2.0,1.0,1.0,100.0,9291.0,64.0,5.44,,13.67,1.238,86.2,,68.0,5.0,5.0,0.0,6.0,5.0,0.0,0.0,0.0,0.0,2.25,,,0,0,0,0,0,0,0,0,0,0,0,0,0,0,0,0,0.0,,,,0.0,39.239235,-77.965454,6.58,30.0,3.0,0.8
55,1492809,1745076766057,,,,,,,,,,,,,,,,,,,,,,,,,,,,,,,,,,0,0,0,0,0,0,0,0,0,0,0,0,0,0,0,0,,,,,,,,,,,
56,1492829,1745076766077,0.0,174.33,,0.33,0.18,0.91,-13.0,1.0,2.0,0.99,1.0,98.0,8914.0,76.9,5.71,,13.73,1.109,86.2,,68.0,5.0,,,,,,,,,,,,0,0,0,0,0,0,0,0,0,0,0,0,0,0,0,0,,,,,0.0,,,,,,
57,1492849,1745076766105,,,,,,,,,,,,,,,,,,,,,,,,,,,,,,,,,,0,0,0,0,0,0,0,0,0,0,0,0,0,0,0,0,,,,,,,,,,,
58,1492869,1745076766125,0.0,174.33,,0.4,0.2,0.94,-13.0,1.0,2.0,1.04,1.04,100.0,8789.0,87.2,5.72,,13.73,1.109,86.2,,66.7,5.0,,,,,,,,,,,,0,0,0,0,0,0,0,0,0,0,0,0,0,0,0,0,,,,,0.0,,,,,,
59,1492889,1745076766145,,,,,,,,,,,,,,,,,,,,,,,6.0,0.0,7.0,7.0,0.0,0.0,0.0,0.0,2.25,,,0,0,0,0,0,0,0,0,0,0,0,0,0,0,0,0,0.0,,,,,39.239231,-77.965454,8.99,30.0,3.0,0.8
60,1492909,1745076766165,0.0,174.08,,0.43,0.07,0.96,-13.0,1.0,1.0,1.06,1.06,100.0,8789.0,87.2,5.72,,14.03,1.04,86.2,,66.7,5.0,,,,,,,,,,,,0,0,0,0,0,0,0,0,0,0,0,0,0,0,0,0,,,,,0.0,,,,,,
61,1492929,1745076766185,,,,,,,,,,,,,,,,,,,,,,,,,,,,,,,,,,0,0,0,0,0,0,0,0,0,0,0,0,0,0,0,0,,,,,,,,,,,
62,1492949,1745076766203,0.0,174.08,,0.44,0.1,0.98,-14.0,1.0,1.0,1.08,1.08,100.0,8633.0,93.6,5.71,,13.94,0.981,86.2,,66.9,5.0,,,,,,,,,,,,0,0,0,0,0,0,0,0,0,0,0,0,0,0,0,0,,,,,0.0,,,,,,
63,1492969,1745076766223,,,,,,,,,,,,,,,,,,,,,,,,,,,,,,,,,,0,0,0,0,0,0,0,0,0,0,0,0,0,0,0,0,,,,,,,,,,,
64,1492989,1745076766243,0.0,173.96,,0.45,0.09,0.96,-16.0,1.0,1.0,1.07,1.08,99.0,8460.0,97.4,5.71,,13.9,0.94,86.2,,66.9,5.0,7.0,0.0,10.0,9.0,0.0,235.0,0.0,0.0,2.26,,,0,0,0,0,0,0,0,0,0,0,0,0,0,0,0,0,0.0,,,,0.0,39.239231,-77.965454,11.35,30.0,3.0,0.8
65,1493009,1745076766263,,,,,,,,,,,,,,,,,,,,,,,,,,,,,,,,,,0,0,0,0,0,0,0,0,0,0,0,0,0,0,0,0,,,,,,,,,,,
66,1493029,1745076766283,0.0,173.96,,0.48,0.02,0.97,-16.0,2.0,1.0,1.09,1.09,100.0,7967.0,99.3,5.67,,14.02,0.931,86.2,,66.9,5.0,,,,,,,,,,,,0,0,0,0,0,0,0,0,0,0,0,0,0,0,0,0,,,,,0.0,,,,,,
67,1493049,1745076766305,,,,,,,,,,,,,,,,,,,,,,,,,,,,,,,,,,0,0,0,0,0,0,0,0,0,0,0,0,0,0,0,0,,,,,,,,,,,
68,1493069,1745076766325,0.0,173.83,,0.54,-0.03,0.98,-17.0,2.0,2.0,1.12,1.12,100.0,6819.0,99.4,5.33,,14.02,0.931,86.2,,62.0,5.0,,,,,,,,,,,,0,0,0,0,0,0,0,0,0,0,0,0,0,0,0,0,,,,,0.0,,,,,,
69,1493089,1745076766345,,,,,,,,,,,,,,,,,,,,,,,9.0,0.0,22.0,21.0,0.0,30.0,0.0,0.0,2.26,,,0,0,0,0,0,0,0,0,0,0,0,0,0,0,0,0,0.0,,,,,39.239227,-77.965454,13.64,30.0,3.0,0.8
70,1493109,1745076766365,0.0,173.71,,0.58,-0.1,1.04,-20.0,1.0,2.0,1.19,1.19,100.0,6819.0,99.4,5.33,,14.1,0.932,86.2,,62.0,5.0,,,,,,,,,,,,0,0,0,0,0,0,0,0,0,0,0,0,0,0,0,0,,,,,0.0,,,,,,
71,1493129,1745076766385,,,,,,,,,,,,,,,,,,,,,,,,,,,,,,,,,,0,0,0,0,0,0,0,0,0,0,0,0,0,0,0,0,,,,,,,,,,,
72,1493149,1745076766405,0.0,173.58,,0.56,-0.14,1.0,-22.0,1.0,1.0,1.16,1.19,97.0,5385.0,99.4,4.87,,14.27,0.939,86.2,,50.8,5.0,,,,,,,,,,,,0,0,0,0,0,0,0,0,0,0,0,0,0,0,0,0,,,,,0.0,,,,,,
73,1493169,1745076766425,,,,,,,,,,,,,,,,,,,,,,,,,,,,,,,,,,0,0,0,0,0,0,0,0,0,0,0,0,0,0,0,0,,,,,,,,,,,
74,1493189,1745076766445,0.0,173.58,,0.6,-0.11,1.04,-24.0,1.0,1.0,1.2,1.2,100.0,4843.0,99.4,4.32,,14.28,0.929,86.2,,50.8,5.0,10.0,0.0,24.0,25.0,0.0,101.0,0.0,0.0,2.25,,,0,0,0,0,0,0,0,0,0,0,0,0,0,0,0,0,0.0,,,,0.0,39.239223,-77.965462,16.48,30.0,3.0,0.8
75,1493209,1745076766465,,,,,,,,,,,,,,,,,,,,,,,,,,,,,,,,,,0,0,0,0,0,0,0,0,0,0,0,0,0,0,0,0,,,,,,,,,,,
76,1493229,1745076766485,0.0,173.58,,0.58,-0.17,1.01,-26.0,1.0,1.0,1.18,1.2,98.0,4088.0,99.3,4.6,,14.38,0.87,86.2,,50.8,5.0,,,,,,,,,,,,0,0,0,0,0,0,0,0,0,0,0,0,0,0,0,0,,,,,0.0,,,,,,
77,1493249,1745076766505,,,,,,,,,,,,,,,,,,,,,,,,,,,,,,,,,,0,0,0,0,0,0,0,0,0,0,0,0,0,0,0,0,,,,,,,,,,,
78,1493269,1745076766525,0.0,173.58,,0.61,-0.16,1.04,-27.0,1.0,1.0,1.22,1.22,100.0,3604.0,99.3,4.65,,14.38,0.87,86.2,,38.9,5.0,,,,,,,,,,,,0,0,0,0,0,0,0,0,0,0,0,0,0,0,0,0,,,,,0.0,,,,,,
79,1493289,1745076766545,,,,,,,,,,,,,,,,,,,,,,,12.0,0.0,18.0,18.0,0.0,77.0,0.0,0.0,2.26,,,0,0,0,0,0,0,0,0,0,0,0,0,0,0,0,0,0.0,,,,,39.23922,-77.965462,19.48,30.0,3.0,0.8
80,1493309,1745076766565,0.0,173.58,,0.62,-0.19,0.99,-27.0,1.0,1.0,1.18,1.22,97.0,3604.0,99.3,4.65,,14.39,0.816,86.2,,38.9,5.0,,,,,,,,,,,,0,0,0,0,0,0,0,0,0,0,0,0,0,0,0,0,,,,,0.0,,,,,,
81,1493329,1745076766585,,,,,,,,,,,,,,,,,,,,,,,,,,,,,,,,,,0,0,0,0,0,0,0,0,0,0,0,0,0,0,0,0,,,,,,,,,,,
82,1493349,1745076766605,0.0,173.58,,0.57,-0.23,0.99,-26.0,1.0,1.0,1.17,1.22,96.0,2978.0,99.4,4.39,,14.32,0.813,86.2,,27.6,5.0,,,,,,,,,,,,0,0,0,0,0,0,0,0,0,0,0,0,0,0,0,0,,,,,0.0,,,,,,
83,1493369,1745076766625,,,,,,,,,,,,,,,,,,,,,,,,,,,,,,,,,,0,0,0,0,0,0,0,0,0,0,0,0,0,0,0,0,,,,,,,,,,,
84,1493389,1745076766645,0.0,173.71,13.58,0.49,-0.21,0.98,-25.0,0.0,0.0,1.11,1.22,92.0,2518.0,99.4,4.29,15.0,14.34,0.836,86.2,153.0,27.6,5.0,14.0,0.0,13.0,14.0,0.0,82.0,0.0,0.0,2.26,0.0,0.0,0,0,0,0,0,0,0,0,0,0,0,0,0,0,0,0,4.0,0.0,0.0,0.0,0.0,39.239212,-77.965462,21.39,30.0,3.0,0.8
85,1493409,1745076766665,,,,,,,,,,,,,,,,,,,,,,,,,,,,,,,,,,0,0,0,0,0,0,0,0,0,0,0,0,0,0,0,0,,,,,,,,,,,
86,1493429,1745076766685,0.0,173.96,,0.42,-0.16,0.94,-24.0,0.0,0.0,1.04,1.22,86.0,2736.0,99.4,4.29,,14.27,0.837,86.2,,27.6,5.0,,,,,,,,,,,,0,0,0,0,0,0,0,0,0,0,0,0,0,0,0,0,,,,,0.0,,,,,,
87,1493449,1745076766706,,,,,,,,,,,,,,,,,,,,,,,,,,,,,,,,,,0,0,0,0,0,0,0,0,0,0,0,0,0,0,0,0,,,,,,,,,,,
88,1493469,1745076766726,0.0,174.21,,0.4,-0.16,0.96,-22.0,1.0,-1.0,1.05,1.22,86.0,2969.0,99.4,4.28,,14.27,0.837,86.2,,25.2,5.0,,,,,,,,,,,,0,0,0,0,0,0,0,0,0,0,0,0,0,0,0,0,,,,,0.0,,,,,,
89,1493489,1745076766746,,,,,,,,,,,,,,,,,,,,,,,14.0,0.0,14.0,14.0,0.0,89.0,0.0,0.0,2.26,,,0,0,0,0,0,0,0,0,0,0,0,0,0,0,0,0,4.0,,,,,39.239208,-77.965469,22.82,30.0,3.0,0.8
90,1493509,1745076766766,0.0,174.33,,0.37,-0.22,1.02,-20.0,1.0,-1.0,1.1,1.22,91.0,2969.0,99.4,4.28,,14.36,0.822,86.2,,25.2,5.0,,,,,,,,,,,,0,0,0,0,0,0,0,0,0,0,0,0,0,0,0,0,,,,,0.0,,,,,,
91,1493529,1745076766786,,,,,,,,,,,,,,,,,,,,,,,,,,,,,,,,,,0,0,0,0,0,0,0,0,0,0,0,0,0,0,0,0,,,,,,,,,,,
92,1493549,1745076766806,0.0,174.46,,0.33,-0.16,1.06,-18.0,0.0,0.0,1.12,1.22,92.0,2810.0,99.4,4.28,,14.35,0.826,86.2,,25.2,5.0,,,,,,,,,,,,0,0,0,0,0,0,0,0,0,0,0,0,0,0,0,0,,,,,0.0,,,,,,
93,1493569,1745076766826,,,,,,,,,,,,,,,,,,,,,,,,,,,,,,,,,,0,0,0,0,0,0,0,0,0,0,0,0,0,0,0,0,,,,,,,,,,,
94,1493589,1745076766846,0.0,174.59,,0.3,-0.17,1.02,-16.0,0.0,0.0,1.08,1.22,89.0,2802.0,99.4,4.28,,14.3,0.838,86.2,,25.2,5.0,14.0,0.0,14.0,14.0,0.0,19.0,0.0,0.0,2.26,,,0,0,0,0,0,0,0,0,0,0,0,0,0,0,0,0,3.0,,,,0.0,39.239204,-77.965469,22.09,30.0,3.0,0.8
95,1493609,1745076766866,,,,,,,,,,,,,,,,,,,,,,,,,,,,,,,,,,0,0,0,0,0,0,0,0,0,0,0,0,0,0,0,0,,,,,,,,,,,
96,1493629,1745076766886,0.0,174.71,,0.27,-0.13,0.95,-15.0,0.0,0.0,1.0,1.22,82.0,2965.0,99.4,4.28,,14.28,0.911,86.2,,25.2,5.0,,,,,,,,,,,,0,0,0,0,0,0,0,0,0,0,0,0,0,0,0,0,,,,,0.0,,,,,,
97,1493649,1745076766906,,,,,,,,,,,,,,,,,,,,,,,,,,,,,,,,,,0,0,0,0,0,0,0,0,0,0,0,0,0,0,0,0,,,,,,,,,,,
98,1493669,1745076766926,0.0,174.71,,0.23,-0.09,0.9,-14.0,0.0,0.0,0.94,1.22,77.0,2988.0,99.4,4.27,,14.28,0.911,86.2,,25.6,5.0,,,,,,,,,,,,0,0,0,0,0,0,0,0,0,0,0,0,0,0,0,0,,,,,0.0,,,,,,
99,1493689,1745076766946,,,,,,,,,,,,,,,,,,,,,,,14.0,0.0,15.0,15.0,0.0,44.0,0.0,0.0,2.26,,,0,0,0,0,0,0,0,0,0,0,0,0,0,0,0,0,3.0,,,,,39.239201,-77.965469,23.18,30.0,3.0,0.8
100,1493709,1745076766966,0.0,174.71,,0.19,-0.06,0.88,-14.0,0.0,0.0,0.9,1.22,74.0,2988.0,99.4,4.27,,14.34,0.996,86.2,,25.6,5.0,,,,,,,,,,,,0,0,0,0,0,0,0,0,0,0,0,0,0,0,0,0,,,,,0.0,,,,,,
101,1493729,1745076766986,,,,,,,,,,,,,,,,,,,,,,,,,,,,,,,,,,0,0,0,0,0,0,0,0,0,0,0,0,0,0,0,0,,,,,,,,,,,
102,1493749,1745076766998,0.0,174.71,,0.15,-0.13,0.89,-13.0,0.0,0.0,0.91,1.22,75.0,2982.0,99.3,4.28,,14.35,1.037,86.2,,25.8,5.0,,,,,,,,,,,,0,0,0,0,0,0,0,0,0,0,0,0,0,0,0,0,,,,,0.0,,,,,,
103,1493769,1745076767018,,,,,,,,,,,,,,,,,,,,,,,,,,,,,,,,,,0,0,0,0,0,0,0,0,0,0,0,0,0,0,0,0,,,,,,,,,,,
104,1493789,1745076767038,0.0,174.71,,0.11,-0.19,0.94,-13.0,0.0,0.0,0.96,1.22,79.0,2892.0,99.4,4.28,,14.32,1.061,86.2,,25.8,5.0,14.0,0.0,14.0,15.0,0.0,72.0,0.0,0.0,2.25,,,0,0,0,0,0,0,0,0,0,0,0,0,0,0,0,0,3.0,,,,0.0,39.239193,-77.965469,22.82,30.0,3.0,0.8
105,1493809,1745076767058,,,,,,,,,,,,,,,,,,,,,,,,,,,,,,,,,,0,0,0,0,0,0,0,0,0,0,0,0,0,0,0,0,,,,,,,,,,,
106,1493829,1745076767078,0.0,174.84,,0.09,-0.26,1.01,-13.0,0.0,-1.0,1.04,1.22,86.0,2923.0,99.4,4.29,,14.3,1.075,86.2,,25.8,5.0,,,,,,,,,,,,0,0,0,0,0,0,0,0,0,0,0,0,0,0,0,0,,,,,0.0,,,,,,
107,1493849,1745076767104,,,,,,,,,,,,,,,,,,,,,,,,,,,,,,,,,,0,0,0,0,0,0,0,0,0,0,0,0,0,0,0,0,,,,,,,,,,,
108,1493869,1745076767124,0.0,174.84,,0.08,-0.28,0.96,-13.0,0.0,-1.0,1.0,1.22,82.0,3212.0,99.4,4.32,,14.3,1.075,86.2,,26.3,5.0,,,,,,,,,,,,0,0,0,0,0,0,0,0,0,0,0,0,0,0,0,0,,,,,0.0,,,,,,
109,1493889,1745076767144,,,,,,,,,,,,,,,,,,,,,,,14.0,0.0,15.0,15.0,0.0,51.0,0.0,0.0,2.26,,,0,0,0,0,0,0,0,0,0,0,0,0,0,0,0,0,3.0,,,,,39.239189,-77.965477,23.11,30.0,3.0,0.8
110,1493909,1745076767164,0.0,174.84,,0.06,-0.22,0.91,-13.0,1.0,-1.0,0.94,1.22,77.0,3212.0,99.4,4.32,,14.36,1.099,86.2,,26.3,5.0,,,,,,,,,,,,0,0,0,0,0,0,0,0,0,0,0,0,0,0,0,0,,,,,0.0,,,,,,
111,1493929,1745076767184,,,,,,,,,,,,,,,,,,,,,,,,,,,,,,,,,,0,0,0,0,0,0,0,0,0,0,0,0,0,0,0,0,,,,,,,,,,,
112,1493949,1745076767202,0.0,174.84,,0.07,-0.12,0.84,-13.0,0.0,-1.0,0.86,1.22,70.0,2940.0,99.4,4.32,,14.38,1.059,86.2,,26.0,5.0,,,,,,,,,,,,0,0,0,0,0,0,0,0,0,0,0,0,0,0,0,0,,,,,0.0,,,,,,
113,1493969,1745076767222,,,,,,,,,,,,,,,,,,,,,,,,,,,,,,,,,,0,0,0,0,0,0,0,0,0,0,0,0,0,0,0,0,,,,,,,,,,,
114,1493989,1745076767242,0.0,174.84,,0.09,-0.05,0.77,-13.0,0.0,-1.0,0.78,1.22,64.0,2979.0,99.4,4.32,,14.3,0.985,86.2,,26.0,5.0,15.0,0.0,15.0,15.0,0.0,31.0,0.0,0.0,2.26,,,0,0,0,0,0,0,0,0,0,0,0,0,0,0,0,0,0.0,,,,0.0,39.239185,-77.965485,23.36,30.0,3.0,0.8
115,1494009,1745076767262,,,,,,,,,,,,,,,,,,,,,,,,,,,,,,,,,,0,0,0,0,0,0,0,0,0,0,0,0,0,0,0,0,,,,,,,,,,,
116,1494029,1745076767282,0.0,174.96,,0.12,0.0,0.76,-13.0,0.0,-1.0,0.77,1.22,63.0,3155.0,99.4,4.29,,14.27,1.006,86.2,,26.0,5.0,,,,,,,,,,,,0,0,0,0,0,0,0,0,0,0,0,0,0,0,0,0,,,,,0.0,,,,,,
117,1494049,1745076767306,,,,,,,,,,,,,,,,,,,,,,,,,,,,,,,,,,0,0,0,0,0,0,0,0,0,0,0,0,0,0,0,0,,,,,,,,,,,
118,1494069,1745076767326,0.0,174.96,,0.12,-0.02,0.85,-12.0,0.0,0.0,0.86,1.22,70.0,3209.0,99.4,4.31,,14.27,1.006,86.2,,27.4,5.0,,,,,,,,,,,,0,0,0,0,0,0,0,0,0,0,0,0,0,0,0,0,,,,,0.0,,,,,,
119,1494089,1745076767346,,,,,,,,,,,,,,,,,,,,,,,16.0,0.0,16.0,16.0,0.0,40.0,0.0,0.0,2.26,,,0,0,0,0,0,0,0,0,0,0,0,0,0,0,0,0,0.0,,,,,39.239178,-77.965485,24.27,30.0,3.0,0.8
120,1494109,1745076767366,0.0,175.09,,0.11,-0.1,0.96,-12.0,0.0,0.0,0.97,1.22,80.0,3209.0,99.4,4.31,,14.35,1.028,86.2,,27.4,5.0,,,,,,,,,,,,0,0,0,0,0,0,0,0,0,0,0,0,0,0,0,0,,,,,0.0,,,,,,
121,1494129,1745076767386,,,,,,,,,,,,,,,,,,,,,,,,,,,,,,,,,,0,0,0,0,0,0,0,0,0,0,0,0,0,0,0,0,,,,,,,,,,,
122,1494149,1745076767408,0.0,175.21,,0.07,-0.15,0.93,-10.0,0.0,0.0,0.95,1.22,78.0,3108.0,99.3,4.37,,14.35,1.041,86.2,,27.7,5.0,,,,,,,,,,,,0,0,0,0,0,0,0,0,0,0,0,0,0,0,0,0,,,,,0.0,,,,,,
123,1494169,1745076767428,,,,,,,,,,,,,,,,,,,,,,,,,,,,,,,,,,0,0,0,0,0,0,0,0,0,0,0,0,0,0,0,0,,,,,,,,,,,
124,1494189,1745076767448,0.0,175.21,,0.08,-0.07,0.85,-9.0,0.0,-1.0,0.86,1.22,70.0,3232.0,99.4,4.33,,14.27,1.081,86.2,,27.7,5.0,15.0,0.0,16.0,16.0,0.0,248.0,0.0,0.0,2.26,,,0,0,0,0,0,0,0,0,0,0,0,0,0,0,0,0,3.0,,,,0.0,39.239174,-77.965492,24.45,30.0,3.0,0.8
125,1494209,1745076767468,,,,,,,,,,,,,,,,,,,,,,,,,,,,,,,,,,0,0,0,0,0,0,0,0,0,0,0,0,0,0,0,0,,,,,,,,,,,
126,1494229,1745076767488,0.0,175.34,,0.1,-0.01,0.89,-9.0,0.0,0.0,0.9,1.22,74.0,3253.0,99.4,4.35,,14.35,1.114,86.2,,27.7,5.0,,,,,,,,,,,,0,0,0,0,0,0,0,0,0,0,0,0,0,0,0,0,,,,,0.0,,,,,,
127,1494249,1745076767509,,,,,,,,,,,,,,,,,,,,,,,,,,,,,,,,,,0,0,0,0,0,0,0,0,0,0,0,0,0,0,0,0,,,,,,,,,,,
128,1494269,1745076767529,0.0,175.34,,0.11,-0.12,0.95,-8.0,0.0,0.0,0.96,1.22,79.0,3302.0,99.4,4.37,,14.35,1.114,86.2,,28.4,5.0,,,,,,,,,,,,0,0,0,0,0,0,0,0,0,0,0,0,0,0,0,0,,,,,0.0,,,,,,
129,1494289,1745076767549,,,,,,,,,,,,,,,,,,,,,,,16.0,0.0,16.0,16.0,0.0,38.0,0.0,0.0,2.25,,,0,0,0,0,0,0,0,0,0,0,0,0,0,0,0,0,3.0,,,,,39.23917,-77.9655,24.91,30.0,3.0,0.8
130,1494309,1745076767569,0.0,175.47,,0.13,-0.02,0.91,-7.0,0.0,0.0,0.92,1.22,75.0,3302.0,99.4,4.37,,14.34,1.124,86.2,,28.4,5.0,,,,,,,,,,,,0,0,0,0,0,0,0,0,0,0,0,0,0,0,0,0,,,,,0.0,,,,,,
131,1494329,1745076767589,,,,,,,,,,,,,,,,,,,,,,,,,,,,,,,,,,0,0,0,0,0,0,0,0,0,0,0,0,0,0,0,0,,,,,,,,,,,
132,1494349,1745076767608,0.0,175.47,,0.1,-0.0,0.93,-7.0,0.0,0.0,0.94,1.22,77.0,3270.0,99.4,4.42,,14.3,1.153,86.2,,28.6,5.0,,,,,,,,,,,,0,0,0,0,0,0,0,0,0,0,0,0,0,0,0,0,,,,,0.0,,,,,,
133,1494369,1745076767628,,,,,,,,,,,,,,,,,,,,,,,,,,,,,,,,,,0,0,0,0,0,0,0,0,0,0,0,0,0,0,0,0,,,,,,,,,,,
134,1494389,1745076767648,0.0,175.47,13.68,0.07,-0.09,0.99,-6.0,0.0,0.0,0.99,1.22,82.0,3143.0,99.4,4.29,15.0,14.32,1.07,86.2,153.0,28.6,5.0,16.0,0.0,16.0,17.0,0.0,232.0,0.0,0.0,2.26,0.0,0.0,0,0,0,0,0,0,0,0,0,0,0,0,0,0,0,0,3.0,0.0,0.0,0.0,0.0,39.239162,-77.9655,25.2,30.0,3.0,0.8
135,1494409,1745076767668,,,,,,,,,,,,,,,,,,,,,,,,,,,,,,,,,,0,0,0,0,0,0,0,0,0,0,0,0,0,0,0,0,,,,,,,,,,,
136,1494429,1745076767688,0.0,175.47,,0.07,0.01,0.95,-5.0,0.0,0.0,0.95,1.22,78.0,3342.0,99.3,4.43,,14.3,1.04,86.2,,28.6,5.0,,,,,,,,,,,,0,0,0,0,0,0,0,0,0,0,0,0,0,0,0,0,,,,,0.0,,,,,,
137,1494449,1745076767707,,,,,,,,,,,,,,,,,,,,,,,,,,,,,,,,,,0,0,0,0,0,0,0,0,0,0,0,0,0,0,0,0,,,,,,,,,,,
138,1494469,1745076767727,0.0,175.47,,0.07,-0.06,1.03,-4.0,0.0,0.0,1.04,1.22,85.0,3412.0,99.4,4.45,,14.3,1.04,86.2,,30.2,5.0,,,,,,,,,,,,0,0,0,0,0,0,0,0,0,0,0,0,0,0,0,0,,,,,0.0,,,,,,
139,1494489,1745076767747,,,,,,,,,,,,,,,,,,,,,,,17.0,0.0,17.0,17.0,0.0,25.0,0.0,0.0,2.26,,,0,0,0,0,0,0,0,0,0,0,0,0,0,0,0,0,3.0,,,,,39.239159,-77.965508,25.82,30.0,3.0,0.8
140,1494509,1745076767767,0.0,175.47,,0.02,-0.0,0.92,-3.0,0.0,-1.0,0.92,1.22,76.0,3412.0,99.4,4.45,,14.32,1.03,86.2,,30.2,5.0,,,,,,,,,,,,0,0,0,0,0,0,0,0,0,0,0,0,0,0,0,0,,,,,0.0,,,,,,
141,1494529,1745076767787,,,,,,,,,,,,,,,,,,,,,,,,,,,,,,,,,,0,0,0,0,0,0,0,0,0,0,0,0,0,0,0,0,,,,,,,,,,,
142,1494549,1745076767807,0.0,175.47,,0.06,0.07,0.97,-3.0,-1.0,0.0,0.97,0.97,100.0,0.0,99.4,4.57,,14.34,1.074,86.2,,29.9,5.0,,,,,,,,,,,,0,0,0,0,0,0,0,0,0,0,0,0,0,0,0,0,,,,,0.0,,,,,,
143,1494569,1745076767827,,,,,,,,,,,,,,,,,,,,,,,,,,,,,,,,,,0,0,0,0,0,0,0,0,0,0,0,0,0,0,0,0,,,,,,,,,,,
144,1494589,1745076767847,0.0,175.47,,0.03,0.01,0.96,-1.0,0.0,0.0,0.96,0.97,99.0,3297.0,99.4,4.46,,14.31,1.129,86.2,,29.9,5.0,17.0,0.0,17.0,17.0,0.0,240.0,0.0,0.0,2.26,,,0,0,0,0,0,0,0,0,0,0,0,0,0,0,0,0,0.0,,,,0.0,39.239151,-77.965508,25.85,30.0,3.0,0.8
145,1494609,1745076767867,,,,,,,,,,,,,,,,,,,,,,,,,,,,,,,,,,0,0,0,0,0,0,0,0,0,0,0,0,0,0,0,0,,,,,,,,,,,
146,1494629,1745076767887,0.0,175.47,,0.01,0.07,0.92,-1.0,0.0,0.0,0.92,0.97,94.0,3111.0,99.4,4.42,,14.32,1.005,86.2,,29.9,5.0,,,,,,,,,,,,0,0,0,0,0,0,0,0,0,0,0,0,0,0,0,0,,,,,0.0,,,,,,
147,1494649,1745076767907,,,,,,,,,,,,,,,,,,,,,,,,,,,,,,,,,,0,0,0,0,0,0,0,0,0,0,0,0,0,0,0,0,,,,,,,,,,,
148,1494669,1745076767927,0.0,175.59,,-0.02,0.06,0.91,0.0,0.0,0.0,0.92,0.97,94.0,2858.0,99.4,4.29,,14.32,1.005,86.2,,27.7,5.0,,,,,,,,,,,,0,0,0,0,0,0,0,0,0,0,0,0,0,0,0,0,,,,,0.0,,,,,,
149,1494689,1745076767947,,,,,,,,,,,,,,,,,,,,,,,17.0,0.0,16.0,16.0,0.0,28.0,0.0,0.0,2.26,,,0,0,0,0,0,0,0,0,0,0,0,0,0,0,0,0,0.0,,,,,39.239147,-77.965508,26.4,30.0,3.0,0.8
150,1494709,1745076767967,0.0,175.59,,-0.09,0.0,1.01,1.0,-1.0,-1.0,1.01,1.01,100.0,2858.0,99.4,4.29,,14.31,0.97,86.2,,27.7,5.0,,,,,,,,,,,,0,0,0,0,0,0,0,0,0,0,0,0,0,0,0,0,,,,,0.0,,,,,,
151,1494729,1745076767987,,,,,,,,,,,,,,,,,,,,,,,,,,,,,,,,,,0,0,0,0,0,0,0,0,0,0,0,0,0,0,0,0,,,,,,,,,,,
152,1494749,1745076767999,0.0,175.59,,-0.1,-0.06,1.0,2.0,-1.0,-1.0,1.01,1.01,100.0,3032.0,99.4,4.29,,14.31,1.022,86.2,,27.4,5.0,,,,,,,,,,,,0,0,0,0,0,0,0,0,0,0,0,0,0,0,0,0,,,,,0.0,,,,,,
153,1494769,1745076768019,,,,,,,,,,,,,,,,,,,,,,,,,,,,,,,,,,0,0,0,0,0,0,0,0,0,0,0,0,0,0,0,0,,,,,,,,,,,
154,1494789,1745076768039,0.0,175.59,,-0.09,0.02,0.97,1.0,0.0,0.0,0.97,1.01,96.0,3332.0,99.4,4.45,,14.31,1.234,86.2,,27.4,5.0,16.0,0.0,16.0,16.0,0.0,26.0,0.0,0.0,2.25,,,0,0,0,0,0,0,0,0,0,0,0,0,0,0,0,0,3.0,,,,0.0,39.239143,-77.965515,26.27,29.0,3.0,0.8
155,1494809,1745076768059,,,,,,,,,,,,,,,,,,,,,,,,,,,,,,,,,,0,0,0,0,0,0,0,0,0,0,0,0,0,0,0,0,,,,,,,,,,,
156,1494829,1745076768079,0.0,175.47,,-0.1,0.01,1.02,1.0,0.0,0.0,1.03,1.03,100.0,3137.0,99.4,4.39,,14.31,1.249,86.2,,27.4,5.0,,,,,,,,,,,,0,0,0,0,0,0,0,0,0,0,0,0,0,0,0,0,,,,,0.0,,,,,,
157,1494849,1745076768103,,,,,,,,,,,,,,,,,,,,,,,,,,,,,,,,,,0,0,0,0,0,0,0,0,0,0,0,0,0,0,0,0,,,,,,,,,,,
158,1494869,1745076768123,0.0,175.47,,-0.13,-0.06,1.07,1.0,-1.0,0.0,1.08,1.08,100.0,3111.0,99.4,4.32,,14.31,1.249,86.2,,28.2,5.0,,,,,,,,,,,,0,0,0,0,0,0,0,0,0,0,0,0,0,0,0,0,,,,,0.0,,,,,,
159,1494889,1745076768143,,,,,,,,,,,,,,,,,,,,,,,16.0,0.0,15.0,15.0,0.0,239.0,0.0,0.0,2.25,,,0,0,0,0,0,0,0,0,0,0,0,0,0,0,0,0,3.0,,,,,39.239136,-77.965523,25.46,29.0,3.0,0.8
160,1494909,1745076768163,0.0,175.47,,-0.17,-0.1,1.11,1.0,0.0,-1.0,1.13,1.13,100.0,3111.0,99.4,4.32,,14.31,1.249,86.2,,28.2,5.0,,,,,,,,,,,,0,0,0,0,0,0,0,0,0,0,0,0,0,0,0,0,,,,,0.0,,,,,,
161,1494929,1745076768183,,,,,,,,,,,,,,,,,,,,,,,,,,,,,,,,,,0,0,0,0,0,0,0,0,0,0,0,0,0,0,0,0,,,,,,,,,,,
162,1494949,1745076768203,0.0,175.47,,-0.21,-0.07,1.1,1.0,0.0,-1.0,1.12,1.13,99.0,3132.0,99.4,4.35,,14.31,1.248,86.2,,27.7,5.0,,,,,,,,,,,,0,0,0,0,0,0,0,0,0,0,0,0,0,0,0,0,,,,,0.0,,,,,,
163,1494969,1745076768223,,,,,,,,,,,,,,,,,,,,,,,,,,,,,,,,,,0,0,0,0,0,0,0,0,0,0,0,0,0,0,0,0,,,,,,,,,,,
164,1494989,1745076768243,0.0,175.47,,-0.23,-0.06,1.05,1.0,0.0,-1.0,1.08,1.13,95.0,3044.0,99.4,4.31,,14.3,1.246,86.2,,27.7,5.0,16.0,0.0,15.0,15.0,0.0,226.0,0.0,0.0,2.26,,,0,0,0,0,0,0,0,0,0,0,0,0,0,0,0,0,3.0,,,,0.0,39.239132,-77.96553,25.08,29.0,3.0,0.8
165,1495009,1745076768263,,,,,,,,,,,,,,,,,,,,,,,,,,,,,,,,,,0,0,0,0,0,0,0,0,0,0,0,0,0,0,0,0,,,,,,,,,,,
166,1495029,1745076768283,0.0,175.47,,-0.22,-0.03,0.97,1.0,-1.0,-1.0,1.0,1.13,88.0,3012.0,99.4,4.31,,14.31,1.247,86.2,,27.7,5.0,,,,,,,,,,,,0,0,0,0,0,0,0,0,0,0,0,0,0,0,0,0,,,,,0.0,,,,,,
167,1495049,1745076768308,,,,,,,,,,,,,,,,,,,,,,,,,,,,,,,,,,0,0,0,0,0,0,0,0,0,0,0,0,0,0,0,0,,,,,,,,,,,
168,1495069,1745076768328,0.0,175.59,,-0.23,-0.0,0.93,1.0,0.0,-1.0,0.96,1.13,85.0,2970.0,60.8,4.2,,14.31,1.247,86.2,,26.9,5.0,,,,,,,,,,,,0,0,0,0,0,0,0,0,0,0,0,0,0,0,0,0,,,,,0.0,,,,,,
169,1495089,1745076768348,,,,,,,,,,,,,,,,,,,,,,,15.0,0.0,15.0,15.0,0.0,248.0,0.0,0.0,2.26,,,0,0,0,0,0,0,0,0,0,0,0,0,0,0,0,0,3.0,,,,,39.239128,-77.96553,24.27,29.0,3.0,0.8
170,1495109,1745076768368,0.0,175.59,,-0.24,-0.0,0.9,1.0,0.0,-1.0,0.94,1.13,83.0,2970.0,60.8,4.2,,14.28,1.247,86.2,,26.9,5.0,,,,,,,,,,,,0,0,0,0,0,0,0,0,0,0,0,0,0,0,0,0,,,,,0.0,,,,,,
171,1495129,1745076768388,,,,,,,,,,,,,,,,,,,,,,,,,,,,,,,,,,0,0,0,0,0,0,0,0,0,0,0,0,0,0,0,0,,,,,,,,,,,
172,1495149,1745076768405,0.0,175.72,,-0.25,-0.02,0.9,1.0,0.0,-1.0,0.94,1.13,83.0,2975.0,3.3,4.24,,13.8,1.248,86.2,,26.3,5.0,,,,,,,,,,,,0,0,0,0,0,0,0,0,0,0,0,0,0,0,0,0,,,,,0.0,,,,,,
173,1495169,1745076768425,,,,,,,,,,,,,,,,,,,,,,,,,,,,,,,,,,0,0,0,0,0,0,0,0,0,0,0,0,0,0,0,0,,,,,,,,,,,
174,1495189,1745076768445,0.0,175.72,,-0.23,-0.02,0.86,2.0,0.0,-1.0,0.89,1.13,78.0,3057.0,3.3,3.34,,13.56,1.249,86.2,,26.3,5.0,15.0,0.0,15.0,15.0,0.0,247.0,0.0,0.0,2.26,,,0,0,0,0,0,0,0,0,0,0,0,0,0,0,0,0,3.0,,,,0.0,39.23912,-77.965538,23.74,29.0,3.0,0.8
175,1495209,1745076768465,,,,,,,,,,,,,,,,,,,,,,,,,,,,,,,,,,0,0,0,0,0,0,0,0,0,0,0,0,0,0,0,0,,,,,,,,,,,
176,1495229,1745076768485,0.0,175.72,,-0.18,0.08,0.81,1.0,0.0,-1.0,0.84,1.13,74.0,3137.0,37.5,5.03,,14.22,1.249,86.2,,26.3,5.0,,,,,,,,,,,,0,0,0,0,0,0,0,0,0,0,0,0,0,0,0,0,,,,,0.0,,,,,,
177,1495249,1745076768507,,,,,,,,,,,,,,,,,,,,,,,,,,,,,,,,,,0,0,0,0,0,0,0,0,0,0,0,0,0,0,0,0,,,,,,,,,,,
178,1495269,1745076768527,0.0,175.72,,-0.15,-0.02,0.87,1.0,0.0,-1.0,0.88,1.13,78.0,3677.0,79.7,5.06,,14.22,1.249,86.2,,28.0,5.0,,,,,,,,,,,,0,0,0,0,0,0,0,0,0,0,0,0,0,0,0,0,,,,,0.0,,,,,,
179,1495289,1745076768547,,,,,,,,,,,,,,,,,,,,,,,15.0,0.0,15.0,15.0,0.0,18.0,0.0,0.0,2.26,,,0,0,0,0,0,0,0,0,0,0,0,0,0,0,0,0,3.0,,,,,39.239117,-77.965538,23.26,29.0,3.0,0.8
180,1495309,1745076768567,0.0,175.84,,-0.03,0.03,0.88,1.0,1.0,0.0,0.88,1.13,78.0,3677.0,79.7,5.06,,14.26,1.249,84.4,,28.0,5.0,,,,,,,,,,,,0,0,0,0,0,0,0,0,0,0,0,0,0,0,0,0,,,,,0.0,,,,,,
181,1495329,1745076768587,,,,,,,,,,,,,,,,,,,,,,,,,,,,,,,,,,0,0,0,0,0,0,0,0,0,0,0,0,0,0,0,0,,,,,,,,,,,
182,1495349,1745076768609,0.0,175.72,,-0.02,0.06,0.92,0.0,0.0,0.0,0.92,1.13,82.0,3461.0,84.8,4.88,,14.39,1.249,84.4,,28.0,5.0,,,,,,,,,,,,0,0,0,0,0,0,0,0,0,0,0,0,0,0,0,0,,,,,0.0,,,,,,
183,1495369,1745076768629,,,,,,,,,,,,,,,,,,,,,,,,,,,,,,,,,,0,0,0,0,0,0,0,0,0,0,0,0,0,0,0,0,,,,,,,,,,,
184,1495389,1745076768649,0.0,175.84,13.74,-0.04,0.12,0.91,-1.0,0.0,1.0,0.92,1.13,82.0,2810.0,56.4,4.27,15.0,14.28,1.248,84.4,153.0,28.0,5.0,15.0,0.0,15.0,15.0,0.0,243.0,0.0,0.0,2.26,0.0,0.0,0,0,0,0,0,0,0,0,0,0,0,0,0,0,0,0,4.0,0.0,0.0,0.0,0.0,39.239109,-77.965546,23.22,29.0,3.0,0.8
185,1495409,1745076768669,,,,,,,,,,,,,,,,,,,,,,,,,,,,,,,,,,0,0,0,0,0,0,0,0,0,0,0,0,0,0,0,0,,,,,,,,,,,
186,1495429,1745076768689,0.0,175.84,,-0.03,0.03,0.98,-1.0,0.0,1.0,0.98,1.13,87.0,3177.0,22.2,4.32,,14.04,1.12,84.4,,28.0,5.0,,,,,,,,,,,,0,0,0,0,0,0,0,0,0,0,0,0,0,0,0,0,,,,,0.0,,,,,,
187,1495449,1745076768708,,,,,,,,,,,,,,,,,,,,,,,,,,,,,,,,,,0,0,0,0,0,0,0,0,0,0,0,0,0,0,0,0,,,,,,,,,,,
188,1495469,1745076768728,0.0,175.84,,-0.02,0.02,0.95,0.0,0.0,0.0,0.95,1.13,84.0,3272.0,33.0,4.55,,14.04,1.12,84.4,,28.4,5.0,,,,,,,,,,,,0,0,0,0,0,0,0,0,0,0,0,0,0,0,0,0,,,,,0.0,,,,,,
189,1495489,1745076768748,,,,,,,,,,,,,,,,,,,,,,,16.0,0.0,16.0,16.0,0.0,34.0,0.0,0.0,2.26,,,0,0,0,0,0,0,0,0,0,0,0,0,0,0,0,0,4.0,,,,,39.239105,-77.965553,24.51,29.0,3.0,0.8
190,1495509,1745076768768,0.0,175.84,,-0.01,0.07,0.87,0.0,0.0,0.0,0.87,1.13,77.0,3272.0,33.0,4.55,,14.15,1.033,84.4,,28.4,5.0,,,,,,,,,,,,0,0,0,0,0,0,0,0,0,0,0,0,0,0,0,0,,,,,0.0,,,,,,
191,1495529,1745076768788,,,,,,,,,,,,,,,,,,,,,,,,,,,,,,,,,,0,0,0,0,0,0,0,0,0,0,0,0,0,0,0,0,,,,,,,,,,,
192,1495549,1745076768808,0.0,175.72,,0.04,0.04,0.95,-1.0,0.0,1.0,0.95,1.13,84.0,3155.0,45.8,5.04,,14.27,0.99,84.4,,28.7,5.0,,,,,,,,,,,,0,0,0,0,0,0,0,0,0,0,0,0,0,0,0,0,,,,,0.0,,,,,,
193,1495569,1745076768828,,,,,,,,,,,,,,,,,,,,,,,,,,,,,,,,,,0,0,0,0,0,0,0,0,0,0,0,0,0,0,0,0,,,,,,,,,,,
194,1495589,1745076768848,0.0,175.84,,0.05,0.03,0.9,0.0,0.0,1.0,0.9,1.13,80.0,3277.0,35.2,4.79,,14.15,0.979,84.4,,28.7,5.0,17.0,0.0,16.0,16.0,0.0,29.0,0.0,0.0,2.26,,,0,0,0,0,0,0,0,0,0,0,0,0,0,0,0,0,3.0,,,,0.0,39.239101,-77.965553,24.79,29.0,3.0,0.8
195,1495609,1745076768868,,,,,,,,,,,,,,,,,,,,,,,,,,,,,,,,,,0,0,0,0,0,0,0,0,0,0,0,0,0,0,0,0,,,,,,,,,,,
196,1495629,1745076768888,0.0,175.72,,0.05,0.05,0.9,-1.0,0.0,1.0,0.9,1.13,80.0,3293.0,22.0,4.32,,14.04,0.983,84.4,,28.7,5.0,,,,,,,,,,,,0,0,0,0,0,0,0,0,0,0,0,0,0,0,0,0,,,,,0.0,,,,,,
197,1495649,1745076768908,,,,,,,,,,,,,,,,,,,,,,,,,,,,,,,,,,0,0,0,0,0,0,0,0,0,0,0,0,0,0,0,0,,,,,,,,,,,
198,1495669,1745076768928,0.0,175.84,,0.03,-0.03,0.96,-1.0,0.0,1.0,0.96,1.13,85.0,3307.0,43.3,4.66,,14.04,0.983,84.4,,29.3,5.0,,,,,,,,,,,,0,0,0,0,0,0,0,0,0,0,0,0,0,0,0,0,,,,,0.0,,,,,,
199,1495689,1745076768948,,,,,,,,,,,,,,,,,,,,,,,16.0,0.0,16.0,17.0,0.0,28.0,0.0,0.0,2.26,,,0,0,0,0,0,0,0,0,0,0,0,0,0,0,0,0,3.0,,,,,39.239094,-77.965553,25.53,29.0,3.0,0.8
200,1495709,1745076768968,0.0,175.84,,0.06,0.01,0.95,-1.0,0.0,1.0,0.95,1.13,84.0,3307.0,43.3,4.66,,14.27,0.962,84.4,,29.3,5.0,,,,,,,,,,,,0,0,0,0,0,0,0,0,0,0,0,0,0,0,0,0,,,,,0.0,,,,,,
201,1495729,1745076768988,,,,,,,,,,,,,,,,,,,,,,,,,,,,,,,,,,0,0,0,0,0,0,0,0,0,0,0,0,0,0,0,0,,,,,,,,,,,
202,1495749,1745076769000,0.0,175.72,,0.06,-0.08,0.93,1.0,0.0,1.0,0.93,1.13,83.0,3503.0,63.1,4.58,,14.27,0.946,84.4,,30.6,5.0,,,,,,,,,,,,0,0,0,0,0,0,0,0,0,0,0,0,0,0,0,0,,,,,0.0,,,,,,
203,1495769,1745076769020,,,,,,,,,,,,,,,,,,,,,,,,,,,,,,,,,,0,0,0,0,0,0,0,0,0,0,0,0,0,0,0,0,,,,,,,,,,,
204,1495789,1745076769040,0.0,175.84,,0.05,-0.04,0.97,0.0,0.0,1.0,0.97,1.13,86.0,3388.0,87.7,4.52,,14.3,0.94,84.4,,30.6,5.0,17.0,0.0,17.0,17.0,0.0,24.0,0.0,0.0,2.26,,,0,0,0,0,0,0,0,0,0,0,0,0,0,0,0,0,3.0,,,,0.0,39.23909,-77.965561,26.03,29.0,3.0,0.8
205,1495809,1745076769060,,,,,,,,,,,,,,,,,,,,,,,,,,,,,,,,,,0,0,0,0,0,0,0,0,0,0,0,0,0,0,0,0,,,,,,,,,,,
206,1495829,1745076769080,0.0,175.84,,0.04,-0.04,0.96,0.0,-1.0,1.0,0.96,1.13,85.0,3267.0,99.6,4.87,,14.27,0.945,84.4,,30.6,5.0,,,,,,,,,,,,0,0,0,0,0,0,0,0,0,0,0,0,0,0,0,0,,,,,0.0,,,,,,
207,1495849,1745076769104,,,,,,,,,,,,,,,,,,,,,,,,,,,,,,,,,,0,0,0,0,0,0,0,0,0,0,0,0,0,0,0,0,,,,,,,,,,,
208,1495869,1745076769124,0.0,175.84,,0.04,-0.03,1.02,0.0,-1.0,1.0,1.02,1.13,90.0,3493.0,99.6,4.43,,14.27,0.945,84.4,,29.7,5.0,,,,,,,,,,,,0,0,0,0,0,0,0,0,0,0,0,0,0,0,0,0,,,,,0.0,,,,,,
209,1495889,1745076769144,,,,,,,,,,,,,,,,,,,,,,,17.0,0.0,17.0,17.0,0.0,253.0,0.0,0.0,2.25,,,0,0,0,0,0,0,0,0,0,0,0,0,0,0,0,0,3.0,,,,,39.239086,-77.965561,26.93,29.0,3.0,0.8
210,1495909,1745076769164,0.0,175.84,,0.04,-0.01,0.97,1.0,0.0,1.0,0.97,1.13,86.0,3493.0,99.6,4.43,,14.34,0.974,84.4,,29.7,5.0,,,,,,,,,,,,0,0,0,0,0,0,0,0,0,0,0,0,0,0,0,0,,,,,0.0,,,,,,
211,1495929,1745076769184,,,,,,,,,,,,,,,,,,,,,,,,,,,,,,,,,,0,0,0,0,0,0,0,0,0,0,0,0,0,0,0,0,,,,,,,,,,,
212,1495949,1745076769208,0.0,175.72,,0.01,-0.06,0.97,2.0,0.0,0.0,0.97,1.13,86.0,3482.0,99.6,4.55,,14.28,1.0,84.4,,31.6,5.0,,,,,,,,,,,,0,0,0,0,0,0,0,0,0,0,0,0,0,0,0,0,,,,,0.0,,,,,,
213,1495969,1745076769228,,,,,,,,,,,,,,,,,,,,,,,,,,,,,,,,,,0,0,0,0,0,0,0,0,0,0,0,0,0,0,0,0,,,,,,,,,,,
214,1495989,1745076769248,0.0,175.72,,-0.01,-0.02,0.98,1.0,-1.0,1.0,0.98,0.98,100.0,3522.0,99.5,4.49,,14.31,1.057,84.4,,31.6,5.0,17.0,0.0,17.0,18.0,0.0,7.0,0.0,0.0,2.26,,,0,0,0,0,0,0,0,0,0,0,0,0,0,0,0,0,3.0,,,,0.0,39.239079,-77.965569,27.11,29.0,3.0,0.8
215,1496009,1745076769268,,,,,,,,,,,,,,,,,,,,,,,,,,,,,,,,,,0,0,0,0,0,0,0,0,0,0,0,0,0,0,0,0,,,,,,,,,,,
216,1496029,1745076769288,0.0,175.72,,0.0,0.01,0.96,1.0,-1.0,0.0,0.96,0.98,97.0,3473.0,37.6,4.97,,14.18,1.108,84.4,,31.6,5.0,,,,,,,,,,,,0,0,0,0,0,0,0,0,0,0,0,0,0,0,0,0,,,,,0.0,,,,,,
217,1496049,1745076769308,,,,,,,,,,,,,,,,,,,,,,,,,,,,,,,,,,0,0,0,0,0,0,0,0,0,0,0,0,0,0,0,0,,,,,,,,,,,
218,1496069,1745076769328,0.0,175.84,,-0.0,-0.09,0.94,2.0,-1.0,0.0,0.94,0.98,96.0,3612.0,25.6,4.28,,14.18,1.108,84.4,,31.3,5.0,,,,,,,,,,,,0,0,0,0,0,0,0,0,0,0,0,0,0,0,0,0,,,,,0.0,,,,,,
219,1496089,1745076769348,,,,,,,,,,,,,,,,,,,,,,,17.0,0.0,18.0,18.0,0.0,23.0,0.0,0.0,2.26,,,0,0,0,0,0,0,0,0,0,0,0,0,0,0,0,0,3.0,,,,,39.239071,-77.965576,27.52,29.0,3.0,0.8
220,1496109,1745076769368,0.0,175.97,,-0.01,-0.1,1.01,1.0,-1.0,0.0,1.01,1.01,100.0,3612.0,25.6,4.28,,13.99,1.148,84.4,,31.3,5.0,,,,,,,,,,,,0,0,0,0,0,0,0,0,0,0,0,0,0,0,0,0,,,,,0.0,,,,,,
221,1496129,1745076769388,,,,,,,,,,,,,,,,,,,,,,,,,,,,,,,,,,0,0,0,0,0,0,0,0,0,0,0,0,0,0,0,0,,,,,,,,,,,
222,1496149,1745076769408,0.0,175.97,,0.02,-0.04,1.03,1.0,-1.0,0.0,1.03,1.03,100.0,3484.0,31.5,4.48,,14.12,1.162,84.4,,31.7,5.0,,,,,,,,,,,,0,0,0,0,0,0,0,0,0,0,0,0,0,0,0,0,,,,,0.0,,,,,,
223,1496169,1745076769428,,,,,,,,,,,,,,,,,,,,,,,,,,,,,,,,,,0,0,0,0,0,0,0,0,0,0,0,0,0,0,0,0,,,,,,,,,,,
224,1496189,1745076769448,0.0,175.84,,0.06,0.01,1.01,1.0,0.0,0.0,1.01,1.03,98.0,3644.0,60.3,4.88,,14.27,1.149,84.4,,31.7,5.0,18.0,0.0,18.0,18.0,0.0,227.0,0.0,0.0,2.26,,,0,0,0,0,0,0,0,0,0,0,0,0,0,0,0,0,3.0,,,,0.0,39.239067,-77.965584,27.77,29.0,3.0,0.8
225,1496209,1745076769468,,,,,,,,,,,,,,,,,,,,,,,,,,,,,,,,,,0,0,0,0,0,0,0,0,0,0,0,0,0,0,0,0,,,,,,,,,,,
226,1496229,1745076769488,0.0,175.84,,0.07,0.03,1.03,1.0,0.0,0.0,1.04,1.04,100.0,3597.0,78.8,4.72,,14.34,1.138,84.4,,31.7,5.0,,,,,,,,,,,,0,0,0,0,0,0,0,0,0,0,0,0,0,0,0,0,,,,,0.0,,,,,,
227,1496249,1745076769508,,,,,,,,,,,,,,,,,,,,,,,,,,,,,,,,,,0,0,0,0,0,0,0,0,0,0,0,0,0,0,0,0,,,,,,,,,,,
228,1496269,1745076769528,0.0,175.84,,0.05,-0.07,1.02,1.0,0.0,-1.0,1.02,1.04,99.0,3677.0,85.8,4.59,,14.34,1.138,84.4,,32.7,5.0,,,,,,,,,,,,0,0,0,0,0,0,0,0,0,0,0,0,0,0,0,0,,,,,0.0,,,,,,
229,1496289,1745076769548,,,,,,,,,,,,,,,,,,,,,,,18.0,0.0,18.0,19.0,0.0,3.0,0.0,0.0,2.26,,,0,0,0,0,0,0,0,0,0,0,0,0,0,0,0,0,3.0,,,,,39.239059,-77.965584,28.11,29.0,3.0,0.8
230,1496309,1745076769568,0.0,175.97,,0.04,-0.1,1.03,0.0,-1.0,-1.0,1.04,1.04,100.0,3677.0,85.8,4.59,,14.3,1.137,84.4,,32.7,5.0,,,,,,,,,,,,0,0,0,0,0,0,0,0,0,0,0,0,0,0,0,0,,,,,0.0,,,,,,
231,1496329,1745076769588,,,,,,,,,,,,,,,,,,,,,,,,,,,,,,,,,,0,0,0,0,0,0,0,0,0,0,0,0,0,0,0,0,,,,,,,,,,,
232,1496349,1745076769608,0.0,175.84,,0.04,-0.06,1.05,0.0,0.0,-1.0,1.06,1.06,100.0,3583.0,91.3,4.53,,14.27,1.135,84.4,,32.8,5.0,,,,,,,,,,,,0,0,0,0,0,0,0,0,0,0,0,0,0,0,0,0,,,,,0.0,,,,,,
233,1496369,1745076769628,,,,,,,,,,,,,,,,,,,,,,,,,,,,,,,,,,0,0,0,0,0,0,0,0,0,0,0,0,0,0,0,0,,,,,,,,,,,
234,1496389,1745076769648,0.0,175.84,13.78,0.06,-0.08,1.01,0.0,-1.0,-1.0,1.01,1.06,96.0,3744.0,80.7,4.2,15.0,14.24,1.141,84.4,153.0,32.8,5.0,19.0,0.0,19.0,18.0,0.0,19.0,0.0,0.0,2.26,0.0,0.0,0,0,0,0,0,0,0,0,0,0,0,0,0,0,0,0,3.0,0.0,0.0,0.0,0.0,39.239052,-77.965591,28.49,30.0,3.0,0.8
235,1496409,1745076769668,,,,,,,,,,,,,,,,,,,,,,,,,,,,,,,,,,0,0,0,0,0,0,0,0,0,0,0,0,0,0,0,0,,,,,,,,,,,
236,1496429,1745076769688,0.0,175.84,,0.04,-0.03,1.01,0.0,-1.0,-1.0,1.01,1.06,96.0,3629.0,4.1,3.96,,13.68,1.162,84.4,,32.8,5.0,,,,,,,,,,,,0,0,0,0,0,0,0,0,0,0,0,0,0,0,0,0,,,,,0.0,,,,,,
237,1496449,1745076769707,,,,,,,,,,,,,,,,,,,,,,,,,,,,,,,,,,0,0,0,0,0,0,0,0,0,0,0,0,0,0,0,0,,,,,,,,,,,
238,1496469,1745076769727,0.0,175.97,,0.04,0.02,1.03,-1.0,-1.0,-1.0,1.03,1.06,98.0,3612.0,0.0,2.68,,13.68,1.162,84.4,,33.3,5.0,,,,,,,,,,,,0,0,0,0,0,0,0,0,0,0,0,0,0,0,0,0,,,,,0.0,,,,,,
239,1496489,1745076769747,,,,,,,,,,,,,,,,,,,,,,,19.0,0.0,18.0,19.0,0.0,33.0,0.0,0.0,2.26,,,0,0,0,0,0,0,0,0,0,0,0,0,0,0,0,0,3.0,,,,,39.239052,-77.965591,28.86,29.0,3.0,0.8
240,1496509,1745076769767,0.0,175.97,,0.04,-0.01,0.98,-1.0,-1.0,-1.0,0.98,1.06,93.0,3612.0,0.0,2.68,,12.93,1.126,84.4,,33.3,5.0,,,,,,,,,,,,0,0,0,0,0,0,0,0,0,0,0,0,0,0,0,0,,,,,0.0,,,,,,
241,1496529,1745076769787,,,,,,,,,,,,,,,,,,,,,,,,,,,,,,,,,,0,0,0,0,0,0,0,0,0,0,0,0,0,0,0,0,,,,,,,,,,,
242,1496549,1745076769807,0.0,175.84,,0.01,-0.02,0.99,0.0,-1.0,-1.0,0.99,1.06,94.0,3683.0,31.8,4.8,,13.87,1.092,84.4,,32.9,5.0,,,,,,,,,,,,0,0,0,0,0,0,0,0,0,0,0,0,0,0,0,0,,,,,0.0,,,,,,
243,1496569,1745076769827,,,,,,,,,,,,,,,,,,,,,,,,,,,,,,,,,,0,0,0,0,0,0,0,0,0,0,0,0,0,0,0,0,,,,,,,,,,,
244,1496589,1745076769847,0.0,175.84,,0.03,-0.03,1.06,-1.0,0.0,0.0,1.06,1.06,100.0,3809.0,85.4,5.2,,14.34,0.984,84.4,,32.9,5.0,18.0,0.0,18.0,18.0,0.0,239.0,0.0,0.0,2.26,,,0,0,0,0,0,0,0,0,0,0,0,0,0,0,0,0,3.0,,,,0.0,39.239044,-77.965599,29.37,29.0,3.0,0.8
245,1496609,1745076769867,,,,,,,,,,,,,,,,,,,,,,,,,,,,,,,,,,0,0,0,0,0,0,0,0,0,0,0,0,0,0,0,0,,,,,,,,,,,
246,1496629,1745076769887,0.0,175.97,,0.07,-0.05,1.0,0.0,0.0,0.0,1.01,1.06,95.0,4078.0,99.3,5.53,,14.22,0.923,84.4,,32.9,5.0,,,,,,,,,,,,0,0,0,0,0,0,0,0,0,0,0,0,0,0,0,0,,,,,0.0,,,,,,
247,1496649,1745076769909,,,,,,,,,,,,,,,,,,,,,,,,,,,,,,,,,,0,0,0,0,0,0,0,0,0,0,0,0,0,0,0,0,,,,,,,,,,,
248,1496669,1745076769929,0.0,175.97,,0.06,-0.08,1.01,0.0,0.0,-1.0,1.02,1.06,95.0,3743.0,97.9,4.72,,14.22,0.923,84.4,,36.7,5.0,,,,,,,,,,,,0,0,0,0,0,0,0,0,0,0,0,0,0,0,0,0,,,,,0.0,,,,,,
249,1496689,1745076769949,,,,,,,,,,,,,,,,,,,,,,,19.0,0.0,19.0,19.0,0.0,62.0,0.0,0.0,2.26,,,0,0,0,0,0,0,0,0,0,0,0,0,0,0,0,0,0.0,,,,,39.239037,-77.965607,29.24,29.0,3.0,0.8
250,1496709,1745076769969,0.0,175.97,,0.08,-0.09,0.99,0.0,0.0,-1.0,1.0,1.06,94.0,3743.0,97.9,4.72,,14.31,0.899,84.4,,36.7,5.0,,,,,,,,,,,,0,0,0,0,0,0,0,0,0,0,0,0,0,0,0,0,,,,,0.0,,,,,,
251,1496729,1745076769989,,,,,,,,,,,,,,,,,,,,,,,,,,,,,,,,,,0,0,0,0,0,0,0,0,0,0,0,0,0,0,0,0,,,,,,,,,,,
252,1496749,1745076769999,0.0,175.84,,0.09,-0.03,1.01,-1.0,0.0,-1.0,1.02,1.06,96.0,3879.0,17.7,4.61,,13.84,0.865,84.4,,35.6,5.0,,,,,,,,,,,,0,0,0,0,0,0,0,0,0,0,0,0,0,0,0,0,,,,,0.0,,,,,,
253,1496769,1745076770019,,,,,,,,,,,,,,,,,,,,,,,,,,,,,,,,,,0,0,0,0,0,0,0,0,0,0,0,0,0,0,0,0,,,,,,,,,,,
254,1496789,1745076770039,0.0,175.84,,0.09,-0.06,1.0,-1.0,0.0,-1.0,1.01,1.06,95.0,3848.0,0.0,2.51,,13.12,0.877,84.4,,35.6,5.0,20.0,0.0,19.0,20.0,0.0,57.0,0.0,0.0,2.26,,,0,0,0,0,0,0,0,0,0,0,0,0,0,0,0,0,0.0,,,,0.0,39.239033,-77.965607,30.18,29.0,3.0,0.8
255,1496809,1745076770059,,,,,,,,,,,,,,,,,,,,,,,,,,,,,,,,,,0,0,0,0,0,0,0,0,0,0,0,0,0,0,0,0,,,,,,,,,,,
256,1496829,1745076770079,0.0,175.84,,0.08,-0.08,0.99,-1.0,0.0,-1.0,0.99,1.06,94.0,3700.0,31.1,5.36,,13.77,0.916,84.4,,35.6,5.0,,,,,,,,,,,,0,0,0,0,0,0,0,0,0,0,0,0,0,0,0,0,,,,,0.0,,,,,,
257,1496849,1745076770103,,,,,,,,,,,,,,,,,,,,,,,,,,,,,,,,,,0,0,0,0,0,0,0,0,0,0,0,0,0,0,0,0,,,,,,,,,,,
258,1496869,1745076770123,0.0,175.84,,0.03,-0.12,0.97,0.0,0.0,-1.0,0.98,1.06,92.0,3968.0,78.0,5.04,,13.77,0.916,84.4,,33.8,5.0,,,,,,,,,,,,0,0,0,0,0,0,0,0,0,0,0,0,0,0,0,0,,,,,0.0,,,,,,
259,1496889,1745076770143,,,,,,,,,,,,,,,,,,,,,,,19.0,0.0,19.0,19.0,0.0,35.0,0.0,0.0,2.26,,,0,0,0,0,0,0,0,0,0,0,0,0,0,0,0,0,4.0,,,,,39.239025,-77.965614,30.95,29.0,3.0,0.8
260,1496909,1745076770163,0.0,175.84,,0.06,-0.05,1.08,-1.0,0.0,0.0,1.08,1.08,100.0,3968.0,78.0,5.04,,14.32,0.92,84.4,,33.8,5.0,,,,,,,,,,,,0,0,0,0,0,0,0,0,0,0,0,0,0,0,0,0,,,,,0.0,,,,,,
261,1496929,1745076770183,,,,,,,,,,,,,,,,,,,,,,,,,,,,,,,,,,0,0,0,0,0,0,0,0,0,0,0,0,0,0,0,0,,,,,,,,,,,
262,1496949,1745076770205,0.0,175.84,,0.11,-0.07,1.08,0.0,1.0,0.0,1.08,1.08,100.0,4395.0,85.3,5.35,,14.34,1.01,84.4,,39.4,5.0,,,,,,,,,,,,0,0,0,0,0,0,0,0,0,0,0,0,0,0,0,0,,,,,0.0,,,,,,
263,1496969,1745076770225,,,,,,,,,,,,,,,,,,,,,,,,,,,,,,,,,,0,0,0,0,0,0,0,0,0,0,0,0,0,0,0,0,,,,,,,,,,,
264,1496989,1745076770245,0.0,175.84,,0.09,-0.03,1.07,-1.0,0.0,0.0,1.07,1.08,99.0,3728.0,31.4,4.72,,14.06,1.07,84.4,,39.4,5.0,20.0,0.0,20.0,21.0,0.0,77.0,0.0,0.0,2.26,,,0,0,0,0,0,0,0,0,0,0,0,0,0,0,0,0,4.0,,,,0.0,39.239017,-77.965622,30.98,29.0,3.0,0.8
265,1497009,1745076770265,,,,,,,,,,,,,,,,,,,,,,,,,,,,,,,,,,0,0,0,0,0,0,0,0,0,0,0,0,0,0,0,0,,,,,,,,,,,
266,1497029,1745076770285,0.0,175.84,,0.06,-0.07,1.05,-1.0,-1.0,-1.0,1.05,1.08,97.0,4091.0,0.0,2.56,,12.92,0.96,84.4,,39.4,5.0,,,,,,,,,,,,0,0,0,0,0,0,0,0,0,0,0,0,0,0,0,0,,,,,0.0,,,,,,
267,1497049,1745076770307,,,,,,,,,,,,,,,,,,,,,,,,,,,,,,,,,,0,0,0,0,0,0,0,0,0,0,0,0,0,0,0,0,,,,,,,,,,,
268,1497069,1745076770327,0.0,175.84,,0.06,-0.09,0.99,0.0,0.0,-1.0,0.99,1.08,92.0,4018.0,15.9,4.38,,12.92,0.96,84.4,,36.4,5.0,,,,,,,,,,,,0,0,0,0,0,0,0,0,0,0,0,0,0,0,0,0,,,,,0.0,,,,,,
269,1497089,1745076770347,,,,,,,,,,,,,,,,,,,,,,,21.0,0.0,20.0,21.0,0.0,23.0,0.0,0.0,2.25,,,0,0,0,0,0,0,0,0,0,0,0,0,0,0,0,0,3.0,,,,,39.23901,-77.96563,31.85,29.0,3.0,0.8
270,1497109,1745076770367,0.0,175.84,,0.04,-0.01,1.02,0.0,0.0,0.0,1.02,1.08,94.0,4018.0,15.9,4.38,,13.08,0.883,84.4,,36.4,5.0,,,,,,,,,,,,0,0,0,0,0,0,0,0,0,0,0,0,0,0,0,0,,,,,0.0,,,,,,
271,1497129,1745076770387,,,,,,,,,,,,,,,,,,,,,,,,,,,,,,,,,,0,0,0,0,0,0,0,0,0,0,0,0,0,0,0,0,,,,,,,,,,,
272,1497149,1745076770407,0.0,175.84,,0.03,-0.07,0.92,0.0,0.0,0.0,0.93,1.08,86.0,3982.0,81.6,5.49,,14.32,0.899,84.4,,37.5,5.0,,,,,,,,,,,,0,0,0,0,0,0,0,0,0,0,0,0,0,0,0,0,,,,,0.0,,,,,,
273,1497169,1745076770427,,,,,,,,,,,,,,,,,,,,,,,,,,,,,,,,,,0,0,0,0,0,0,0,0,0,0,0,0,0,0,0,0,,,,,,,,,,,
274,1497189,1745076770447,0.0,175.72,,0.05,-0.11,0.93,0.0,0.0,0.0,0.94,0.94,100.0,4397.0,99.4,5.52,,14.31,0.99,84.4,,37.5,5.0,21.0,0.0,21.0,21.0,0.0,246.0,0.0,0.0,2.26,,,0,0,0,0,0,0,0,0,0,0,0,0,0,0,0,0,3.0,,,,0.0,39.239006,-77.96563,32.11,29.0,3.0,0.8
275,1497209,1745076770467,,,,,,,,,,,,,,,,,,,,,,,,,,,,,,,,,,0,0,0,0,0,0,0,0,0,0,0,0,0,0,0,0,,,,,,,,,,,
276,1497229,1745076770487,0.0,175.72,,0.04,-0.04,0.96,1.0,0.0,0.0,0.96,0.96,100.0,4163.0,98.3,4.63,,14.23,1.12,84.4,,37.5,5.0,,,,,,,,,,,,0,0,0,0,0,0,0,0,0,0,0,0,0,0,0,0,,,,,0.0,,,,,,
277,1497249,1745076770507,,,,,,,,,,,,,,,,,,,,,,,,,,,,,,,,,,0,0,0,0,0,0,0,0,0,0,0,0,0,0,0,0,,,,,,,,,,,
278,1497269,1745076770527,0.0,175.72,,0.01,-0.09,0.89,0.0,-1.0,0.0,0.9,0.96,94.0,4316.0,19.4,4.09,,14.23,1.12,84.4,,37.8,5.0,,,,,,,,,,,,0,0,0,0,0,0,0,0,0,0,0,0,0,0,0,0,,,,,0.0,,,,,,
279,1497289,1745076770547,,,,,,,,,,,,,,,,,,,,,,,21.0,0.0,21.0,22.0,0.0,6.0,0.0,0.0,2.26,,,0,0,0,0,0,0,0,0,0,0,0,0,0,0,0,0,3.0,,,,,39.238995,-77.965637,32.12,29.0,3.0,0.8
280,1497309,1745076770567,0.0,175.72,,0.01,-0.03,0.96,0.0,-1.0,0.0,0.96,0.96,100.0,4316.0,19.4,4.09,,13.86,1.019,84.4,,37.8,5.0,,,,,,,,,,,,0,0,0,0,0,0,0,0,0,0,0,0,0,0,0,0,,,,,0.0,,,,,,
281,1497329,1745076770587,,,,,,,,,,,,,,,,,,,,,,,,,,,,,,,,,,0,0,0,0,0,0,0,0,0,0,0,0,0,0,0,0,,,,,,,,,,,
282,1497349,1745076770609,0.0,175.72,,-0.0,-0.11,0.88,1.0,0.0,0.0,0.89,0.96,93.0,4096.0,6.3,3.67,,13.16,0.928,84.4,,37.6,5.0,,,,,,,,,,,,0,0,0,0,0,0,0,0,0,0,0,0,0,0,0,0,,,,,0.0,,,,,,
283,1497369,1745076770629,,,,,,,,,,,,,,,,,,,,,,,,,,,,,,,,,,0,0,0,0,0,0,0,0,0,0,0,0,0,0,0,0,,,,,,,,,,,
284,1497389,1745076770649,0.0,175.84,13.71,-0.0,-0.01,0.99,0.0,0.0,1.0,0.99,0.99,100.0,4133.0,19.4,4.13,15.0,13.33,0.935,84.4,155.0,37.6,5.0,21.0,0.0,21.0,20.0,0.0,241.0,0.0,0.0,2.26,0.0,0.0,0,0,0,0,0,0,0,0,0,0,0,0,0,0,0,0,3.0,0.0,0.0,0.0,0.0,39.238991,-77.965645,32.97,29.0,3.0,0.8
285,1497409,1745076770669,,,,,,,,,,,,,,,,,,,,,,,,,,,,,,,,,,0,0,0,0,0,0,0,0,0,0,0,0,0,0,0,0,,,,,,,,,,,
286,1497429,1745076770689,0.0,175.84,,0.0,0.05,1.01,0.0,0.0,1.0,1.01,1.01,100.0,4397.0,38.4,4.66,,14.04,0.992,84.4,,37.6,5.0,,,,,,,,,,,,0,0,0,0,0,0,0,0,0,0,0,0,0,0,0,0,,,,,0.0,,,,,,
287,1497449,1745076770708,,,,,,,,,,,,,,,,,,,,,,,,,,,,,,,,,,0,0,0,0,0,0,0,0,0,0,0,0,0,0,0,0,,,,,,,,,,,
288,1497469,1745076770728,0.0,175.84,,0.09,0.01,0.92,1.0,1.0,0.0,0.93,1.01,92.0,4477.0,49.4,5.51,,14.04,0.992,84.4,,39.6,5.0,,,,,,,,,,,,0,0,0,0,0,0,0,0,0,0,0,0,0,0,0,0,,,,,0.0,,,,,,
289,1497489,1745076770748,,,,,,,,,,,,,,,,,,,,,,,21.0,0.0,22.0,22.0,0.0,26.0,0.0,0.0,2.25,,,0,0,0,0,0,0,0,0,0,0,0,0,0,0,0,0,0.0,,,,,39.238983,-77.965652,33.2,29.0,3.0,0.8
290,1497509,1745076770768,0.0,175.84,,0.11,-0.06,0.86,1.0,1.0,0.0,0.87,1.01,86.0,4477.0,49.4,5.51,,14.19,1.048,84.4,,39.6,5.0,,,,,,,,,,,,0,0,0,0,0,0,0,0,0,0,0,0,0,0,0,0,,,,,0.0,,,,,,
291,1497529,1745076770788,,,,,,,,,,,,,,,,,,,,,,,,,,,,,,,,,,0,0,0,0,0,0,0,0,0,0,0,0,0,0,0,0,,,,,,,,,,,
292,1497549,1745076770808,0.0,175.84,,0.09,-0.12,0.83,1.0,0.0,0.0,0.84,1.01,84.0,4339.0,50.3,5.5,,14.19,1.034,84.4,,40.2,5.0,,,,,,,,,,,,0,0,0,0,0,0,0,0,0,0,0,0,0,0,0,0,,,,,0.0,,,,,,
293,1497569,1745076770828,,,,,,,,,,,,,,,,,,,,,,,,,,,,,,,,,,0,0,0,0,0,0,0,0,0,0,0,0,0,0,0,0,,,,,,,,,,,
294,1497589,1745076770848,0.0,175.84,,0.06,-0.14,0.85,0.0,0.0,0.0,0.87,1.01,86.0,4416.0,50.6,5.17,,14.22,0.976,84.4,,40.2,5.0,21.0,0.0,22.0,22.0,0.0,19.0,0.0,0.0,2.26,,,0,0,0,0,0,0,0,0,0,0,0,0,0,0,0,0,0.0,,,,0.0,39.238976,-77.965652,33.4,29.0,3.0,0.8
295,1497609,1745076770868,,,,,,,,,,,,,,,,,,,,,,,,,,,,,,,,,,0,0,0,0,0,0,0,0,0,0,0,0,0,0,0,0,,,,,,,,,,,
296,1497629,1745076770888,0.0,175.72,,0.04,-0.16,0.84,0.0,0.0,0.0,0.86,1.01,85.0,4496.0,50.5,5.16,,14.18,0.842,84.4,,40.2,5.0,,,,,,,,,,,,0,0,0,0,0,0,0,0,0,0,0,0,0,0,0,0,,,,,0.0,,,,,,
297,1497649,1745076770908,,,,,,,,,,,,,,,,,,,,,,,,,,,,,,,,,,0,0,0,0,0,0,0,0,0,0,0,0,0,0,0,0,,,,,,,,,,,
298,1497669,1745076770928,0.0,175.72,,-0.0,-0.16,0.86,-1.0,0.0,1.0,0.87,1.01,87.0,4491.0,49.8,5.18,,14.18,0.842,84.4,,40.7,5.0,,,,,,,,,,,,0,0,0,0,0,0,0,0,0,0,0,0,0,0,0,0,,,,,0.0,,,,,,
299,1497689,1745076770948,,,,,,,,,,,,,,,,,,,,,,,22.0,0.0,22.0,22.0,0.0,9.0,0.0,0.0,2.25,,,0,0,0,0,0,0,0,0,0,0,0,0,0,0,0,0,3.0,,,,,39.238972,-77.96566,34.39,29.0,3.0,0.8
300,1497709,1745076770968,0.0,175.84,,-0.02,-0.18,0.84,-1.0,0.0,0.0,0.86,1.01,85.0,4491.0,49.8,5.18,,14.26,0.777,84.4,,40.7,5.0,,,,,,,,,,,,0,0,0,0,0,0,0,0,0,0,0,0,0,0,0,0,,,,,0.0,,,,,,
301,1497729,1745076770988,,,,,,,,,,,,,,,,,,,,,,,,,,,,,,,,,,0,0,0,0,0,0,0,0,0,0,0,0,0,0,0,0,,,,,,,,,,,
302,1497749,1745076771000,0.0,175.84,,-0.04,-0.22,0.79,0.0,0.0,0.0,0.82,1.01,81.0,4577.0,49.4,5.19,,14.14,0.762,84.4,,41.9,5.0,,,,,,,,,,,,0,0,0,0,0,0,0,0,0,0,0,0,0,0,0,0,,,,,0.0,,,,,,
303,1497769,1745076771020,,,,,,,,,,,,,,,,,,,,,,,,,,,,,,,,,,0,0,0,0,0,0,0,0,0,0,0,0,0,0,0,0,,,,,,,,,,,
304,1497789,1745076771040,0.0,175.84,,-0.05,-0.24,0.71,0.0,0.0,0.0,0.75,1.01,75.0,4577.0,35.8,4.28,,14.1,0.756,84.4,,41.9,5.0,23.0,0.0,23.0,23.0,0.0,251.0,0.0,0.0,2.25,,,0,0,0,0,0,0,0,0,0,0,0,0,0,0,0,0,3.0,,,,0.0,39.23896,-77.965668,35.23,29.0,3.0,0.8
305,1497809,1745076771060,,,,,,,,,,,,,,,,,,,,,,,,,,,,,,,,,,0,0,0,0,0,0,0,0,0,0,0,0,0,0,0,0,,,,,,,,,,,
306,1497829,1745076771080,0.0,175.84,,0.02,-0.2,0.78,1.0,0.0,0.0,0.8,1.01,80.0,4734.0,23.4,4.49,,13.86,0.747,84.4,,41.9,5.0,,,,,,,,,,,,0,0,0,0,0,0,0,0,0,0,0,0,0,0,0,0,,,,,0.0,,,,,,
307,1497849,1745076771106,,,,,,,,,,,,,,,,,,,,,,,,,,,,,,,,,,0,0,0,0,0,0,0,0,0,0,0,0,0,0,0,0,,,,,,,,,,,
308,1497869,1745076771126,0.0,175.97,,0.04,-0.07,0.91,2.0,0.0,0.0,0.91,1.01,90.0,4498.0,11.1,3.82,,13.86,0.747,84.4,,42.8,5.0,,,,,,,,,,,,0,0,0,0,0,0,0,0,0,0,0,0,0,0,0,0,,,,,0.0,,,,,,
309,1497889,1745076771146,,,,,,,,,,,,,,,,,,,,,,,24.0,0.0,23.0,24.0,0.0,242.0,0.0,0.0,2.26,,,0,0,0,0,0,0,0,0,0,0,0,0,0,0,0,0,3.0,,,,,39.238953,-77.965668,35.93,29.0,3.0,0.8
310,1497909,1745076771166,0.0,176.09,,0.01,0.08,1.03,2.0,0.0,1.0,1.03,1.03,100.0,4498.0,11.1,3.82,,13.39,0.744,84.4,,42.8,5.0,,,,,,,,,,,,0,0,0,0,0,0,0,0,0,0,0,0,0,0,0,0,,,,,0.0,,,,,,
311,1497929,1745076771186,,,,,,,,,,,,,,,,,,,,,,,,,,,,,,,,,,0,0,0,0,0,0,0,0,0,0,0,0,0,0,0,0,,,,,,,,,,,
312,1497949,1745076771208,0.0,176.34,,-0.01,0.1,1.05,2.0,-1.0,1.0,1.06,1.06,100.0,4639.0,8.8,3.6,,13.07,0.75,84.4,,43.1,5.0,,,,,,,,,,,,0,0,0,0,0,0,0,0,0,0,0,0,0,0,0,0,,,,,0.0,,,,,,
313,1497969,1745076771228,,,,,,,,,,,,,,,,,,,,,,,,,,,,,,,,,,0,0,0,0,0,0,0,0,0,0,0,0,0,0,0,0,,,,,,,,,,,
314,1497989,1745076771248,0.0,176.47,,0.0,0.03,0.95,3.0,-1.0,1.0,0.95,1.06,90.0,4664.0,8.5,3.56,,12.96,0.76,84.4,,43.1,5.0,23.0,0.0,23.0,23.0,0.0,254.0,0.0,0.0,2.25,,,0,0,0,0,0,0,0,0,0,0,0,0,0,0,0,0,3.0,,,,0.0,39.238949,-77.965675,36.72,29.0,3.0,0.8
315,1498009,1745076771268,,,,,,,,,,,,,,,,,,,,,,,,,,,,,,,,,,0,0,0,0,0,0,0,0,0,0,0,0,0,0,0,0,,,,,,,,,,,
316,1498029,1745076771288,0.0,176.6,,0.03,-0.0,0.87,5.0,-1.0,1.0,0.87,1.06,82.0,4681.0,8.4,3.57,,12.89,0.761,84.4,,43.1,5.0,,,,,,,,,,,,0,0,0,0,0,0,0,0,0,0,0,0,0,0,0,0,,,,,0.0,,,,,,
317,1498049,1745076771306,,,,,,,,,,,,,,,,,,,,,,,,,,,,,,,,,,0,0,0,0,0,0,0,0,0,0,0,0,0,0,0,0,,,,,,,,,,,
318,1498069,1745076771326,0.0,176.72,,0.04,0.06,0.91,7.0,-1.0,0.0,0.91,1.06,86.0,4646.0,8.6,3.55,,12.89,0.761,84.4,,42.9,5.0,,,,,,,,,,,,0,0,0,0,0,0,0,0,0,0,0,0,0,0,0,0,,,,,0.0,,,,,,
319,1498089,1745076771346,,,,,,,,,,,,,,,,,,,,,,,24.0,0.0,23.0,24.0,0.0,248.0,0.0,0.0,2.26,,,0,0,0,0,0,0,0,0,0,0,0,0,0,0,0,0,3.0,,,,,39.238937,-77.965683,36.73,29.0,3.0,0.8
320,1498109,1745076771366,0.0,176.72,,0.01,0.16,1.0,7.0,-1.0,1.0,1.01,1.06,96.0,4646.0,8.6,3.55,,12.87,0.774,84.4,,42.9,5.0,,,,,,,,,,,,0,0,0,0,0,0,0,0,0,0,0,0,0,0,0,0,,,,,0.0,,,,,,
321,1498129,1745076771386,,,,,,,,,,,,,,,,,,,,,,,,,,,,,,,,,,0,0,0,0,0,0,0,0,0,0,0,0,0,0,0,0,,,,,,,,,,,
322,1498149,1745076771406,0.0,176.72,,-0.0,0.11,0.96,8.0,0.0,0.0,0.96,1.06,91.0,4669.0,11.1,3.66,,13.01,0.777,84.4,,43.2,5.0,,,,,,,,,,,,0,0,0,0,0,0,0,0,0,0,0,0,0,0,0,0,,,,,0.0,,,,,,
323,1498169,1745076771426,,,,,,,,,,,,,,,,,,,,,,,,,,,,,,,,,,0,0,0,0,0,0,0,0,0,0,0,0,0,0,0,0,,,,,,,,,,,
324,1498189,1745076771446,0.0,176.72,,0.04,0.11,0.91,9.0,-1.0,1.0,0.92,1.06,87.0,4704.0,13.8,3.85,,13.16,0.78,84.4,,43.2,5.0,24.0,0.0,24.0,23.0,0.0,237.0,0.0,0.0,2.26,,,0,0,0,0,0,0,0,0,0,0,0,0,0,0,0,0,3.0,,,,0.0,39.238934,-77.965691,36.84,29.0,3.0,0.8
325,1498209,1745076771466,,,,,,,,,,,,,,,,,,,,,,,,,,,,,,,,,,0,0,0,0,0,0,0,0,0,0,0,0,0,0,0,0,,,,,,,,,,,
326,1498229,1745076771486,0.0,176.72,,0.04,0.18,0.96,11.0,-1.0,0.0,0.98,0.98,100.0,4645.0,16.4,3.98,,13.39,0.784,84.4,,43.2,5.0,,,,,,,,,,,,0,0,0,0,0,0,0,0,0,0,0,0,0,0,0,0,,,,,0.0,,,,,,
327,1498249,1745076771508,,,,,,,,,,,,,,,,,,,,,,,,,,,,,,,,,,0,0,0,0,0,0,0,0,0,0,0,0,0,0,0,0,,,,,,,,,,,
328,1498269,1745076771528,0.0,176.72,,0.02,0.23,1.04,10.0,-1.0,0.0,1.06,1.06,100.0,4709.0,27.2,4.42,,13.39,0.784,84.4,,43.6,5.0,,,,,,,,,,,,0,0,0,0,0,0,0,0,0,0,0,0,0,0,0,0,,,,,0.0,,,,,,
329,1498289,1745076771548,,,,,,,,,,,,,,,,,,,,,,,24.0,0.0,24.0,23.0,0.0,32.0,0.0,0.0,2.26,,,0,0,0,0,0,0,0,0,0,0,0,0,0,0,0,0,3.0,,,,,39.238922,-77.965698,36.97,29.0,3.0,0.8
330,1498309,1745076771568,0.0,176.85,,0.03,0.19,0.94,11.0,-1.0,0.0,0.96,1.06,91.0,4709.0,27.2,4.42,,13.75,0.79,84.4,,43.6,5.0,,,,,,,,,,,,0,0,0,0,0,0,0,0,0,0,0,0,0,0,0,0,,,,,0.0,,,,,,
331,1498329,1745076771588,,,,,,,,,,,,,,,,,,,,,,,,,,,,,,,,,,0,0,0,0,0,0,0,0,0,0,0,0,0,0,0,0,,,,,,,,,,,
332,1498349,1745076771606,0.0,176.85,,0.09,0.21,1.03,12.0,-1.0,0.0,1.05,1.06,99.0,4746.0,32.0,5.0,,13.98,0.828,84.4,,44.0,5.0,,,,,,,,,,,,0,0,0,0,0,0,0,0,0,0,0,0,0,0,0,0,,,,,0.0,,,,,,
333,1498369,1745076771626,,,,,,,,,,,,,,,,,,,,,,,,,,,,,,,,,,0,0,0,0,0,0,0,0,0,0,0,0,0,0,0,0,,,,,,,,,,,
334,1498389,1745076771646,0.0,176.97,13.76,0.08,0.19,1.04,11.0,-1.0,0.0,1.06,1.06,100.0,4732.0,32.7,4.85,15.0,14.0,0.86,84.4,155.0,44.0,5.0,23.0,0.0,24.0,23.0,0.0,254.0,0.0,0.0,2.26,0.0,0.0,0,0,0,0,0,0,0,0,0,0,0,0,0,0,0,0,3.0,0.0,0.0,0.0,0.0,39.238914,-77.965706,37.03,29.0,3.0,0.8
335,1498409,1745076771666,,,,,,,,,,,,,,,,,,,,,,,,,,,,,,,,,,0,0,0,0,0,0,0,0,0,0,0,0,0,0,0,0,,,,,,,,,,,
336,1498429,1745076771686,0.0,176.97,,0.15,0.21,1.08,12.0,-1.0,0.0,1.11,1.11,100.0,4969.0,33.0,4.9,,14.0,0.88,84.4,,44.0,5.0,,,,,,,,,,,,0,0,0,0,0,0,0,0,0,0,0,0,0,0,0,0,,,,,0.0,,,,,,
337,1498449,1745076771707,,,,,,,,,,,,,,,,,,,,,,,,,,,,,,,,,,0,0,0,0,0,0,0,0,0,0,0,0,0,0,0,0,,,,,,,,,,,
338,1498469,1745076771727,0.0,176.97,,0.12,0.21,1.05,12.0,-1.0,0.0,1.07,1.11,97.0,4815.0,33.8,4.83,,14.0,0.88,84.4,,45.0,5.0,,,,,,,,,,,,0,0,0,0,0,0,0,0,0,0,0,0,0,0,0,0,,,,,0.0,,,,,,
339,1498489,1745076771747,,,,,,,,,,,,,,,,,,,,,,,24.0,0.0,25.0,23.0,0.0,11.0,0.0,0.0,2.25,,,0,0,0,0,0,0,0,0,0,0,0,0,0,0,0,0,0.0,,,,,39.238907,-77.965714,37.37,29.0,3.0,0.8
340,1498509,1745076771767,0.0,177.1,,0.15,0.24,0.98,13.0,-1.0,0.0,1.02,1.11,92.0,4815.0,33.8,4.83,,13.98,0.836,84.4,,45.0,5.0,,,,,,,,,,,,0,0,0,0,0,0,0,0,0,0,0,0,0,0,0,0,,,,,0.0,,,,,,
341,1498529,1745076771787,,,,,,,,,,,,,,,,,,,,,,,,,,,,,,,,,,0,0,0,0,0,0,0,0,0,0,0,0,0,0,0,0,,,,,,,,,,,
342,1498549,1745076771805,0.0,177.1,,0.15,0.22,1.0,13.0,-1.0,0.0,1.04,1.11,93.0,4963.0,34.4,4.8,,13.91,0.789,84.4,,46.0,5.0,,,,,,,,,,,,0,0,0,0,0,0,0,0,0,0,0,0,0,0,0,0,,,,,0.0,,,,,,
343,1498569,1745076771825,,,,,,,,,,,,,,,,,,,,,,,,,,,,,,,,,,0,0,0,0,0,0,0,0,0,0,0,0,0,0,0,0,,,,,,,,,,,
344,1498589,1745076771845,0.0,177.1,,0.14,0.21,1.02,13.0,-1.0,0.0,1.05,1.11,94.0,5048.0,34.0,4.87,,13.95,0.764,84.4,,46.0,5.0,25.0,0.0,25.0,25.0,0.0,33.0,0.0,0.0,2.26,,,0,0,0,0,0,0,0,0,0,0,0,0,0,0,0,0,0.0,,,,0.0,39.238899,-77.965714,38.26,29.0,3.0,0.8
345,1498609,1745076771865,,,,,,,,,,,,,,,,,,,,,,,,,,,,,,,,,,0,0,0,0,0,0,0,0,0,0,0,0,0,0,0,0,,,,,,,,,,,
346,1498629,1745076771885,0.0,177.22,,0.15,0.22,0.99,14.0,-1.0,0.0,1.02,1.11,92.0,4953.0,34.4,4.81,,13.94,0.76,84.4,,46.0,5.0,,,,,,,,,,,,0,0,0,0,0,0,0,0,0,0,0,0,0,0,0,0,,,,,0.0,,,,,,
347,1498649,1745076771905,,,,,,,,,,,,,,,,,,,,,,,,,,,,,,,,,,0,0,0,0,0,0,0,0,0,0,0,0,0,0,0,0,,,,,,,,,,,
348,1498669,1745076771925,0.0,177.22,,0.16,0.25,0.98,15.0,-1.0,0.0,1.03,1.11,93.0,5129.0,35.2,4.82,,13.94,0.76,84.4,,47.0,5.0,,,,,,,,,,,,0,0,0,0,0,0,0,0,0,0,0,0,0,0,0,0,,,,,0.0,,,,,,
349,1498689,1745076771945,,,,,,,,,,,,,,,,,,,,,,,26.0,0.0,26.0,25.0,0.0,8.0,0.0,0.0,2.26,,,0,0,0,0,0,0,0,0,0,0,0,0,0,0,0,0,3.0,,,,,39.238892,-77.965714,39.23,29.0,3.0,0.8
350,1498709,1745076771965,0.0,177.22,,0.15,0.26,1.01,16.0,-1.0,0.0,1.05,1.11,95.0,5129.0,35.2,4.82,,13.94,0.758,84.4,,47.0,5.0,,,,,,,,,,,,0,0,0,0,0,0,0,0,0,0,0,0,0,0,0,0,,,,,0.0,,,,,,
351,1498729,1745076771985,,,,,,,,,,,,,,,,,,,,,,,,,,,,,,,,,,0,0,0,0,0,0,0,0,0,0,0,0,0,0,0,0,,,,,,,,,,,
352,1498749,1745076771997,0.0,177.22,,0.15,0.28,0.98,16.0,-1.0,0.0,1.03,1.11,93.0,5125.0,35.7,4.81,,14.08,0.752,84.4,,47.4,5.0,,,,,,,,,,,,0,0,0,0,0,0,0,0,0,0,0,0,0,0,0,0,,,,,0.0,,,,,,
353,1498769,1745076772017,,,,,,,,,,,,,,,,,,,,,,,,,,,,,,,,,,0,0,0,0,0,0,0,0,0,0,0,0,0,0,0,0,,,,,,,,,,,
354,1498789,1745076772037,0.0,177.22,,0.17,0.31,0.97,16.0,-1.0,0.0,1.03,1.11,93.0,5200.0,36.1,4.8,,14.06,0.749,84.4,,47.4,5.0,27.0,0.0,26.0,26.0,0.0,15.0,0.0,0.0,2.26,,,0,0,0,0,0,0,0,0,0,0,0,0,0,0,0,0,3.0,,,,0.0,39.23888,-77.965721,40.13,30.0,3.0,0.8
355,1498809,1745076772057,,,,,,,,,,,,,,,,,,,,,,,,,,,,,,,,,,0,0,0,0,0,0,0,0,0,0,0,0,0,0,0,0,,,,,,,,,,,
356,1498829,1745076772077,0.0,177.22,,0.18,0.37,0.97,16.0,-1.0,0.0,1.05,1.11,95.0,5285.0,36.3,4.79,,13.9,0.749,84.4,,47.4,5.0,,,,,,,,,,,,0,0,0,0,0,0,0,0,0,0,0,0,0,0,0,0,,,,,0.0,,,,,,
357,1498849,1745076772105,,,,,,,,,,,,,,,,,,,,,,,,,,,,,,,,,,0,0,0,0,0,0,0,0,0,0,0,0,0,0,0,0,,,,,,,,,,,
358,1498869,1745076772125,0.0,177.35,,0.16,0.43,0.99,17.0,-1.0,0.0,1.09,1.11,98.0,5345.0,37.0,4.75,,13.9,0.749,84.4,,48.7,5.0,,,,,,,,,,,,0,0,0,0,0,0,0,0,0,0,0,0,0,0,0,0,,,,,0.0,,,,,,
359,1498889,1745076772145,,,,,,,,,,,,,,,,,,,,,,,26.0,0.0,27.0,26.0,0.0,15.0,0.0,0.0,2.26,,,0,0,0,0,0,0,0,0,0,0,0,0,0,0,0,0,3.0,,,,,39.238873,-77.965729,40.62,30.0,3.0,0.8
360,1498909,1745076772165,0.0,177.35,,0.2,0.46,0.96,17.0,-1.0,0.0,1.08,1.11,97.0,5345.0,37.0,4.75,,13.99,0.751,84.4,,48.7,5.0,,,,,,,,,,,,0,0,0,0,0,0,0,0,0,0,0,0,0,0,0,0,,,,,0.0,,,,,,
361,1498929,1745076772185,,,,,,,,,,,,,,,,,,,,,,,,,,,,,,,,,,0,0,0,0,0,0,0,0,0,0,0,0,0,0,0,0,,,,,,,,,,,
362,1498949,1745076772203,0.0,177.35,,0.22,0.45,0.97,16.0,-1.0,0.0,1.1,1.11,99.0,5383.0,37.5,4.71,,14.02,0.761,84.4,,50.5,5.0,,,,,,,,,,,,0,0,0,0,0,0,0,0,0,0,0,0,0,0,0,0,,,,,0.0,,,,,,
363,1498969,1745076772223,,,,,,,,,,,,,,,,,,,,,,,,,,,,,,,,,,0,0,0,0,0,0,0,0,0,0,0,0,0,0,0,0,,,,,,,,,,,
364,1498989,1745076772243,0.0,177.35,,0.2,0.39,0.94,17.0,-1.0,0.0,1.04,1.11,93.0,5493.0,37.8,4.74,,13.9,0.773,84.4,,50.5,5.0,27.0,0.0,27.0,28.0,0.0,20.0,0.0,0.0,2.26,,,0,0,0,0,0,0,0,0,0,0,0,0,0,0,0,0,3.0,,,,0.0,39.238861,-77.965729,41.54,30.0,3.0,0.8
365,1499009,1745076772263,,,,,,,,,,,,,,,,,,,,,,,,,,,,,,,,,,0,0,0,0,0,0,0,0,0,0,0,0,0,0,0,0,,,,,,,,,,,
366,1499029,1745076772283,0.0,177.35,,0.22,0.48,1.0,17.0,0.0,0.0,1.13,1.13,100.0,5535.0,38.3,4.68,,13.86,0.786,84.4,,50.5,5.0,,,,,,,,,,,,0,0,0,0,0,0,0,0,0,0,0,0,0,0,0,0,,,,,0.0,,,,,,
367,1499049,1745076772308,,,,,,,,,,,,,,,,,,,,,,,,,,,,,,,,,,0,0,0,0,0,0,0,0,0,0,0,0,0,0,0,0,,,,,,,,,,,
368,1499069,1745076772328,0.0,177.35,,0.21,0.25,0.91,18.0,-1.0,-1.0,0.96,1.13,86.0,5686.0,38.8,4.69,,13.86,0.786,84.4,,51.4,5.0,,,,,,,,,,,,0,0,0,0,0,0,0,0,0,0,0,0,0,0,0,0,,,,,0.0,,,,,,
369,1499089,1745076772348,,,,,,,,,,,,,,,,,,,,,,,28.0,0.0,28.0,29.0,0.0,29.0,0.0,0.0,2.25,,,0,0,0,0,0,0,0,0,0,0,0,0,0,0,0,0,3.0,,,,,39.238853,-77.965736,42.89,30.0,3.0,0.8
370,1499109,1745076772368,0.0,177.35,,0.26,0.38,1.01,16.0,0.0,0.0,1.11,1.13,99.0,5686.0,38.8,4.69,,13.86,0.798,84.4,,51.4,5.0,,,,,,,,,,,,0,0,0,0,0,0,0,0,0,0,0,0,0,0,0,0,,,,,0.0,,,,,,
371,1499129,1745076772388,,,,,,,,,,,,,,,,,,,,,,,,,,,,,,,,,,0,0,0,0,0,0,0,0,0,0,0,0,0,0,0,0,,,,,,,,,,,
372,1499149,1745076772407,0.0,177.35,,0.25,0.36,0.98,17.0,-1.0,0.0,1.07,1.07,100.0,5711.0,39.4,4.65,,13.86,0.809,84.4,,53.1,5.0,,,,,,,,,,,,0,0,0,0,0,0,0,0,0,0,0,0,0,0,0,0,,,,,0.0,,,,,,
373,1499169,1745076772427,,,,,,,,,,,,,,,,,,,,,,,,,,,,,,,,,,0,0,0,0,0,0,0,0,0,0,0,0,0,0,0,0,,,,,,,,,,,
374,1499189,1745076772447,0.0,177.22,,0.25,0.12,0.91,17.0,-1.0,-1.0,0.95,1.07,88.0,5790.0,40.6,4.6,,13.79,0.836,84.4,,53.1,5.0,28.0,0.0,29.0,29.0,0.0,57.0,0.0,0.0,2.26,,,0,0,0,0,0,0,0,0,0,0,0,0,0,0,0,0,3.0,,,,0.0,39.238838,-77.965744,44.1,30.0,3.0,0.8
375,1499209,1745076772467,,,,,,,,,,,,,,,,,,,,,,,,,,,,,,,,,,0,0,0,0,0,0,0,0,0,0,0,0,0,0,0,0,,,,,,,,,,,
376,1499229,1745076772487,0.0,177.22,,0.27,-0.04,0.93,16.0,-1.0,0.0,0.97,1.07,91.0,5963.0,40.1,4.64,,13.82,0.851,84.4,,53.1,5.0,,,,,,,,,,,,0,0,0,0,0,0,0,0,0,0,0,0,0,0,0,0,,,,,0.0,,,,,,
377,1499249,1745076772505,,,,,,,,,,,,,,,,,,,,,,,,,,,,,,,,,,0,0,0,0,0,0,0,0,0,0,0,0,0,0,0,0,,,,,,,,,,,
378,1499269,1745076772525,0.0,177.1,,0.28,-0.07,0.97,13.0,-1.0,1.0,1.02,1.07,95.0,5965.0,40.0,4.65,,13.82,0.851,84.4,,55.0,5.0,,,,,,,,,,,,0,0,0,0,0,0,0,0,0,0,0,0,0,0,0,0,,,,,0.0,,,,,,
379,1499289,1745076772545,,,,,,,,,,,,,,,,,,,,,,,30.0,0.0,29.0,30.0,0.0,93.0,0.0,0.0,2.26,,,0,0,0,0,0,0,0,0,0,0,0,0,0,0,0,0,3.0,,,,,39.238831,-77.965744,45.22,30.0,3.0,0.8
