,Interval,Utc,FrontBP,SteerAng,Battery,AccelX,AccelY,AccelZ,Yaw,Pitch,Roll,Gsum,GsumMax,GsumPct,RPM,TPS,InjectorPW,Baro,MAP,Lambda,IAT,EngineTemp,EOP,EOT,WSFR,WSFL,WSRR,WSRL,TCSet,TCSlip,TCComp,TCCut,Analog8,OilTemp,AA_On,ThermLF1,ThermLF2,ThermRR1,ThermRR2,ThermLF3,ThermLF4,ThermLF5,ThermLF6,ThermLF7,ThermLF8,ThermRR3,ThermRR4,ThermRR5,ThermRR6,ThermRR7,ThermRR8,Gear,AA_On1,AA_LowDrag,Fuel_Mix,AA_Packages,Latitude,Longitude,Speed,GPSSats,GPSQual,GPSDOP
0,2186109,1745077459385,0.0,183.89,,-0.0,-0.04,1.08,0.0,0.0,0.0,1.08,1.08,100.0,4948.0,0.0,2.44,,12.89,1.248,86.2,,58.6,5.0,,,,,,,,,,,,0,0,0,0,0,0,0,0,0,0,0,0,0,0,0,0,,,,,0.0,,,,,,
1,2186129,1745077459406,,,,,,,,,,,,,,,,,,,,,,,,,,,,,,,,,,0,0,0,0,0,0,0,0,0,0,0,0,0,0,0,0,,,,,,,,,,,
2,2186149,1745077459426,0.0,183.89,,-0.04,0.01,1.11,0.0,0.0,0.0,1.11,1.11,100.0,4948.0,0.0,2.44,,11.75,1.233,86.2,,58.6,5.0,,,,,,,,,,,,0,0,0,0,0,0,0,0,0,0,0,0,0,0,0,0,,,,,0.0,,,,,,
3,2186169,1745077459446,,,,,,,,,,,,,,,,,,,,,,,,,,,,,,,,,,0,0,0,0,0,0,0,0,0,0,0,0,0,0,0,0,,,,,,,,,,,
4,2186189,1745077459466,0.0,183.89,,-0.05,-0.07,1.03,0.0,0.0,0.0,1.04,1.11,94.0,4837.0,0.0,2.39,,11.13,1.135,86.2,,58.9,5.0,0.0,0.0,0.0,0.0,0.0,0.0,0.0,0.0,2.26,,,0,0,0,0,0,0,0,0,0,0,0,0,0,0,0,0,0.0,,,,0.0,39.239586,-77.9646,0.15,29.0,2.0,0.8
5,2186209,1745077459486,,,,,,,,,,,,,,,,,,,,,,,,,,,,,,,,,,0,0,0,0,0,0,0,0,0,0,0,0,0,0,0,0,,,,,,,,,,,
6,2186229,1745077459506,0.0,184.01,,-0.01,-0.13,0.96,1.0,0.0,0.0,0.97,1.11,87.0,4673.0,5.1,2.17,,11.1,1.096,86.2,,58.9,5.0,,,,,,,,,,,,0,0,0,0,0,0,0,0,0,0,0,0,0,0,0,0,,,,,0.0,,,,,,
7,2186249,1745077459526,,,,,,,,,,,,,,,,,,,,,,,,,,,,,,,,,,0,0,0,0,0,0,0,0,0,0,0,0,0,0,0,0,,,,,,,,,,,
8,2186269,1745077459546,0.0,184.01,,0.01,-0.14,1.0,1.0,0.0,0.0,1.01,1.11,91.0,4594.0,28.6,4.76,,12.96,1.165,86.2,,58.9,5.0,,,,,,,,,,,,0,0,0,0,0,0,0,0,0,0,0,0,0,0,0,0,,,,,0.0,,,,,,
9,2186289,1745077459566,,,,,,,,,,,,,,,,,,,,,,,0.0,0.0,0.0,0.0,0.0,0.0,0.0,0.0,2.26,,,0,0,0,0,0,0,0,0,0,0,0,0,0,0,0,0,0.0,,,,,39.239586,-77.9646,0.15,29.0,2.0,0.8
10,2186309,1745077459586,0.0,184.01,,-0.01,-0.15,0.98,1.0,0.0,0.0,1.0,1.11,90.0,5019.0,32.9,5.29,,12.96,1.165,86.2,,58.1,5.0,,,,,,,,,,,,0,0,0,0,0,0,0,0,0,0,0,0,0,0,0,0,,,,,0.0,,,,,,
11,2186329,1745077459604,,,,,,,,,,,,,,,,,,,,,,,,,,,,,,,,,,0,0,0,0,0,0,0,0,0,0,0,0,0,0,0,0,,,,,,,,,,,
12,2186349,1745077459624,0.0,184.01,,-0.02,-0.08,1.04,1.0,0.0,0.0,1.04,1.11,94.0,5019.0,32.9,5.29,,13.59,1.118,86.2,,58.1,5.0,,,,,,,,,,,,0,0,0,0,0,0,0,0,0,0,0,0,0,0,0,0,,,,,0.0,,,,,,
13,2186369,1745077459644,,,,,,,,,,,,,,,,,,,,,,,,,,,,,,,,,,0,0,0,0,0,0,0,0,0,0,0,0,0,0,0,0,,,,,,,,,,,
14,2186389,1745077459664,0.0,183.89,13.35,-0.0,-0.09,1.0,2.0,0.0,-1.0,1.0,1.11,90.0,5661.0,14.8,4.14,15.0,12.88,1.066,86.2,138.0,65.0,5.0,0.0,0.0,0.0,0.0,0.0,0.0,0.0,0.0,2.26,0.0,0.0,0,0,0,0,0,0,0,0,0,0,0,0,0,0,0,0,0.0,0.0,0.0,0.0,0.0,39.239586,-77.9646,0.05,29.0,2.0,0.8
15,2186409,1745077459684,,,,,,,,,,,,,,,,,,,,,,,,,,,,,,,,,,0,0,0,0,0,0,0,0,0,0,0,0,0,0,0,0,,,,,,,,,,,
16,2186429,1745077459704,0.0,183.89,,0.03,-0.1,1.04,2.0,0.0,-1.0,1.04,1.11,94.0,6138.0,0.0,1.4,,10.92,1.09,86.2,,65.0,5.0,,,,,,,,,,,,0,0,0,0,0,0,0,0,0,0,0,0,0,0,0,0,,,,,0.0,,,,,,
17,2186449,1745077459724,,,,,,,,,,,,,,,,,,,,,,,,,,,,,,,,,,0,0,0,0,0,0,0,0,0,0,0,0,0,0,0,0,,,,,,,,,,,
18,2186469,1745077459744,0.0,183.89,,0.04,-0.17,1.01,2.0,0.0,-1.0,1.02,1.11,92.0,5822.0,0.0,1.4,,10.06,1.069,86.2,,65.0,5.0,,,,,,,,,,,,0,0,0,0,0,0,0,0,0,0,0,0,0,0,0,0,,,,,0.0,,,,,,
19,2186489,1745077459764,,,,,,,,,,,,,,,,,,,,,,,0.0,0.0,0.0,0.0,0.0,0.0,0.0,0.0,2.26,,,0,0,0,0,0,0,0,0,0,0,0,0,0,0,0,0,0.0,,,,,39.239586,-77.9646,0.06,29.0,2.0,0.8
20,2186509,1745077459784,0.0,183.89,,0.01,-0.2,1.0,2.0,0.0,-1.0,1.02,1.11,92.0,5507.0,0.0,1.4,,10.06,1.069,86.2,,62.9,5.0,,,,,,,,,,,,0,0,0,0,0,0,0,0,0,0,0,0,0,0,0,0,,,,,0.0,,,,,,
21,2186529,1745077459804,,,,,,,,,,,,,,,,,,,,,,,,,,,,,,,,,,0,0,0,0,0,0,0,0,0,0,0,0,0,0,0,0,,,,,,,,,,,
22,2186549,1745077459824,0.0,183.76,,-0.0,-0.19,1.01,2.0,0.0,-1.0,1.02,1.11,92.0,5507.0,0.0,1.4,,9.64,1.132,86.2,,62.9,5.0,,,,,,,,,,,,0,0,0,0,0,0,0,0,0,0,0,0,0,0,0,0,,,,,0.0,,,,,,
23,2186569,1745077459844,,,,,,,,,,,,,,,,,,,,,,,,,,,,,,,,,,0,0,0,0,0,0,0,0,0,0,0,0,0,0,0,0,,,,,,,,,,,
24,2186589,1745077459864,0.0,183.76,,-0.01,-0.19,0.95,1.0,0.0,-1.0,0.97,1.11,88.0,5108.0,0.0,1.47,,9.42,1.247,86.2,,62.3,5.0,0.0,0.0,0.0,0.0,0.0,0.0,0.0,0.0,2.26,,,0,0,0,0,0,0,0,0,0,0,0,0,0,0,0,0,0.0,,,,0.0,39.239586,-77.9646,0.0,29.0,2.0,0.8
25,2186609,1745077459884,,,,,,,,,,,,,,,,,,,,,,,,,,,,,,,,,,0,0,0,0,0,0,0,0,0,0,0,0,0,0,0,0,,,,,,,,,,,
26,2186629,1745077459904,0.0,183.76,,0.02,-0.21,0.94,2.0,0.0,-1.0,0.96,1.11,87.0,4745.0,0.0,1.59,,9.42,1.249,86.2,,62.3,5.0,,,,,,,,,,,,0,0,0,0,0,0,0,0,0,0,0,0,0,0,0,0,,,,,0.0,,,,,,
27,2186649,1745077459924,,,,,,,,,,,,,,,,,,,,,,,,,,,,,,,,,,0,0,0,0,0,0,0,0,0,0,0,0,0,0,0,0,,,,,,,,,,,
28,2186669,1745077459944,0.0,183.76,,0.04,-0.25,0.9,2.0,0.0,-1.0,0.94,1.11,84.0,4387.0,0.0,1.61,,9.6,1.249,86.2,,62.3,5.0,,,,,,,,,,,,0,0,0,0,0,0,0,0,0,0,0,0,0,0,0,0,,,,,0.0,,,,,,
29,2186689,1745077459964,,,,,,,,,,,,,,,,,,,,,,,0.0,0.0,0.0,0.0,0.0,0.0,0.0,0.0,2.27,,,0,0,0,0,0,0,0,0,0,0,0,0,0,0,0,0,0.0,,,,,39.239586,-77.9646,0.04,29.0,2.0,0.8
30,2186709,1745077459984,0.0,183.76,,0.01,-0.3,0.87,2.0,0.0,-1.0,0.92,1.11,83.0,4117.0,15.7,2.85,,9.6,1.249,86.2,,52.7,5.0,,,,,,,,,,,,0,0,0,0,0,0,0,0,0,0,0,0,0,0,0,0,,,,,0.0,,,,,,
31,2186729,1745077460004,,,,,,,,,,,,,,,,,,,,,,,,,,,,,,,,,,0,0,0,0,0,0,0,0,0,0,0,0,0,0,0,0,,,,,,,,,,,
32,2186749,1745077460016,0.0,183.63,,0.02,-0.28,0.85,2.0,0.0,-1.0,0.9,1.11,81.0,4117.0,15.7,2.85,,10.9,1.249,86.2,,52.7,5.0,,,,,,,,,,,,0,0,0,0,0,0,0,0,0,0,0,0,0,0,0,0,,,,,0.0,,,,,,
33,2186769,1745077460036,,,,,,,,,,,,,,,,,,,,,,,,,,,,,,,,,,0,0,0,0,0,0,0,0,0,0,0,0,0,0,0,0,,,,,,,,,,,
34,2186789,1745077460056,0.0,183.76,,0.01,-0.21,0.89,2.0,0.0,-1.0,0.91,1.11,82.0,3911.0,24.7,4.55,,12.93,1.25,86.2,,45.5,5.0,0.0,0.0,0.0,0.0,0.0,0.0,0.0,0.0,2.26,,,0,0,0,0,0,0,0,0,0,0,0,0,0,0,0,0,0.0,,,,0.0,39.239586,-77.9646,0.0,29.0,2.0,0.8
35,2186809,1745077460076,,,,,,,,,,,,,,,,,,,,,,,,,,,,,,,,,,0,0,0,0,0,0,0,0,0,0,0,0,0,0,0,0,,,,,,,,,,,
36,2186829,1745077460104,0.0,183.76,,-0.02,-0.24,0.9,2.0,0.0,-1.0,0.93,1.11,84.0,4053.0,26.2,4.28,,13.63,1.251,86.2,,45.5,5.0,,,,,,,,,,,,0,0,0,0,0,0,0,0,0,0,0,0,0,0,0,0,,,,,0.0,,,,,,
37,2186849,1745077460124,,,,,,,,,,,,,,,,,,,,,,,,,,,,,,,,,,0,0,0,0,0,0,0,0,0,0,0,0,0,0,0,0,,,,,,,,,,,
38,2186869,1745077460144,0.0,183.63,,-0.0,-0.23,0.87,2.0,0.0,-1.0,0.9,1.11,81.0,4104.0,16.5,4.3,,13.45,1.251,86.2,,45.5,5.0,,,,,,,,,,,,0,0,0,0,0,0,0,0,0,0,0,0,0,0,0,0,,,,,0.0,,,,,,
39,2186889,1745077460164,,,,,,,,,,,,,,,,,,,,,,,0.0,0.0,0.0,0.0,0.0,0.0,0.0,0.0,2.26,,,0,0,0,0,0,0,0,0,0,0,0,0,0,0,0,0,0.0,,,,,39.239586,-77.9646,0.07,29.0,2.0,0.8
40,2186909,1745077460184,0.0,183.63,,-0.02,-0.17,0.91,1.0,0.0,-1.0,0.93,1.11,84.0,4160.0,0.0,2.47,,13.45,1.251,86.2,,47.9,5.0,,,,,,,,,,,,0,0,0,0,0,0,0,0,0,0,0,0,0,0,0,0,,,,,0.0,,,,,,
41,2186929,1745077460204,,,,,,,,,,,,,,,,,,,,,,,,,,,,,,,,,,0,0,0,0,0,0,0,0,0,0,0,0,0,0,0,0,,,,,,,,,,,
42,2186949,1745077460224,0.0,183.63,,-0.01,-0.18,0.88,2.0,0.0,-1.0,0.9,1.11,81.0,4160.0,0.0,2.47,,12.36,1.251,86.2,,47.9,5.0,,,,,,,,,,,,0,0,0,0,0,0,0,0,0,0,0,0,0,0,0,0,,,,,0.0,,,,,,
43,2186969,1745077460244,,,,,,,,,,,,,,,,,,,,,,,,,,,,,,,,,,0,0,0,0,0,0,0,0,0,0,0,0,0,0,0,0,,,,,,,,,,,
44,2186989,1745077460264,0.0,183.63,,0.0,-0.09,0.94,1.0,0.0,0.0,0.95,1.11,85.0,4032.0,0.0,2.44,,11.71,1.251,86.2,,46.2,5.0,0.0,0.0,0.0,0.0,0.0,0.0,0.0,0.0,2.26,,,0,0,0,0,0,0,0,0,0,0,0,0,0,0,0,0,0.0,,,,0.0,39.239586,-77.9646,0.04,29.0,2.0,0.8
45,2187009,1745077460284,,,,,,,,,,,,,,,,,,,,,,,,,,,,,,,,,,0,0,0,0,0,0,0,0,0,0,0,0,0,0,0,0,,,,,,,,,,,
46,2187029,1745077460307,0.0,183.51,,0.0,-0.08,0.94,1.0,0.0,0.0,0.95,1.11,85.0,3810.0,0.0,2.46,,11.38,1.25,86.2,,46.2,5.0,,,,,,,,,,,,0,0,0,0,0,0,0,0,0,0,0,0,0,0,0,0,,,,,0.0,,,,,,
47,2187049,1745077460327,,,,,,,,,,,,,,,,,,,,,,,,,,,,,,,,,,0,0,0,0,0,0,0,0,0,0,0,0,0,0,0,0,,,,,,,,,,,
48,2187069,1745077460347,0.0,183.51,,-0.01,-0.09,0.89,1.0,0.0,-1.0,0.9,1.11,81.0,3661.0,14.5,4.1,,12.13,1.249,86.2,,46.2,5.0,,,,,,,,,,,,0,0,0,0,0,0,0,0,0,0,0,0,0,0,0,0,,,,,0.0,,,,,,
49,2187089,1745077460367,,,,,,,,,,,,,,,,,,,,,,,0.0,0.0,0.0,0.0,0.0,0.0,0.0,0.0,2.26,,,0,0,0,0,0,0,0,0,0,0,0,0,0,0,0,0,0.0,,,,,39.239586,-77.9646,0.04,29.0,2.0,0.8
50,2187109,1745077460387,0.0,183.51,,-0.02,-0.19,0.91,1.0,0.0,-1.0,0.93,1.11,84.0,3567.0,28.9,4.61,,12.13,1.249,86.2,,40.8,5.0,,,,,,,,,,,,0,0,0,0,0,0,0,0,0,0,0,0,0,0,0,0,,,,,0.0,,,,,,
51,2187129,1745077460405,,,,,,,,,,,,,,,,,,,,,,,,,,,,,,,,,,0,0,0,0,0,0,0,0,0,0,0,0,0,0,0,0,,,,,,,,,,,
52,2187149,1745077460425,0.0,183.51,,0.0,-0.12,0.94,1.0,0.0,-1.0,0.94,1.11,85.0,3567.0,28.9,4.61,,13.67,1.249,86.2,,40.8,5.0,,,,,,,,,,,,0,0,0,0,0,0,0,0,0,0,0,0,0,0,0,0,,,,,0.0,,,,,,
53,2187169,1745077460445,,,,,,,,,,,,,,,,,,,,,,,,,,,,,,,,,,0,0,0,0,0,0,0,0,0,0,0,0,0,0,0,0,,,,,,,,,,,
54,2187189,1745077460465,0.0,183.51,,-0.02,-0.11,0.96,0.0,0.0,0.0,0.97,1.11,87.0,3952.0,30.4,4.98,,13.83,1.249,86.2,,46.4,5.0,0.0,0.0,0.0,0.0,0.0,0.0,0.0,0.0,2.26,,,0,0,0,0,0,0,0,0,0,0,0,0,0,0,0,0,0.0,,,,0.0,39.239586,-77.9646,0.07,29.0,2.0,0.8
55,2187209,1745077460485,,,,,,,,,,,,,,,,,,,,,,,,,,,,,,,,,,0,0,0,0,0,0,0,0,0,0,0,0,0,0,0,0,,,,,,,,,,,
56,2187229,1745077460505,0.0,183.63,,-0.07,-0.02,1.04,0.0,0.0,0.0,1.04,1.11,94.0,4415.0,31.1,4.68,,13.91,1.249,86.2,,46.4,5.0,,,,,,,,,,,,0,0,0,0,0,0,0,0,0,0,0,0,0,0,0,0,,,,,0.0,,,,,,
57,2187249,1745077460525,,,,,,,,,,,,,,,,,,,,,,,,,,,,,,,,,,0,0,0,0,0,0,0,0,0,0,0,0,0,0,0,0,,,,,,,,,,,
58,2187269,1745077460545,0.0,183.51,,-0.05,-0.05,1.0,0.0,0.0,0.0,1.01,1.11,91.0,4916.0,16.2,4.17,,13.25,1.25,86.2,,46.4,5.0,,,,,,,,,,,,0,0,0,0,0,0,0,0,0,0,0,0,0,0,0,0,,,,,0.0,,,,,,
59,2187289,1745077460565,,,,,,,,,,,,,,,,,,,,,,,0.0,0.0,0.0,0.0,0.0,0.0,0.0,0.0,2.26,,,0,0,0,0,0,0,0,0,0,0,0,0,0,0,0,0,0.0,,,,,39.239586,-77.9646,0.06,29.0,2.0,0.8
60,2187309,1745077460585,0.0,183.51,,-0.06,-0.02,0.99,0.0,0.0,0.0,1.0,1.11,90.0,5211.0,0.0,2.22,,13.25,1.25,86.2,,61.3,5.0,,,,,,,,,,,,0,0,0,0,0,0,0,0,0,0,0,0,0,0,0,0,,,,,0.0,,,,,,
61,2187329,1745077460605,,,,,,,,,,,,,,,,,,,,,,,,,,,,,,,,,,0,0,0,0,0,0,0,0,0,0,0,0,0,0,0,0,,,,,,,,,,,
62,2187349,1745077460625,0.0,183.51,,-0.08,0.0,1.0,0.0,0.0,0.0,1.0,1.11,90.0,5211.0,0.0,2.22,,11.89,1.249,86.2,,61.3,5.0,,,,,,,,,,,,0,0,0,0,0,0,0,0,0,0,0,0,0,0,0,0,,,,,0.0,,,,,,
63,2187369,1745077460645,,,,,,,,,,,,,,,,,,,,,,,,,,,,,,,,,,0,0,0,0,0,0,0,0,0,0,0,0,0,0,0,0,,,,,,,,,,,
64,2187389,1745077460665,0.0,183.51,13.44,-0.04,-0.06,1.01,0.0,0.0,0.0,1.02,1.11,92.0,5047.0,0.0,2.24,15.0,11.09,1.183,86.2,140.0,61.7,5.0,0.0,0.0,0.0,0.0,0.0,0.0,0.0,0.0,2.26,0.0,0.0,0,0,0,0,0,0,0,0,0,0,0,0,0,0,0,0,0.0,0.0,0.0,0.0,0.0,39.239586,-77.9646,0.08,29.0,2.0,0.8
65,2187409,1745077460685,,,,,,,,,,,,,,,,,,,,,,,,,,,,,,,,,,0,0,0,0,0,0,0,0,0,0,0,0,0,0,0,0,,,,,,,,,,,
66,2187429,1745077460705,0.0,183.51,,-0.08,0.02,1.04,-1.0,0.0,0.0,1.05,1.11,94.0,4810.0,0.0,1.77,,10.65,1.179,86.2,,61.7,5.0,,,,,,,,,,,,0,0,0,0,0,0,0,0,0,0,0,0,0,0,0,0,,,,,0.0,,,,,,
67,2187449,1745077460725,,,,,,,,,,,,,,,,,,,,,,,,,,,,,,,,,,0,0,0,0,0,0,0,0,0,0,0,0,0,0,0,0,,,,,,,,,,,
68,2187469,1745077460745,0.0,183.51,,-0.07,-0.06,0.97,0.0,0.0,0.0,0.97,1.11,88.0,4735.0,11.3,3.07,,11.22,1.251,86.2,,61.7,5.0,,,,,,,,,,,,0,0,0,0,0,0,0,0,0,0,0,0,0,0,0,0,,,,,0.0,,,,,,
69,2187489,1745077460765,,,,,,,,,,,,,,,,,,,,,,,0.0,0.0,0.0,0.0,0.0,0.0,0.0,0.0,2.26,,,0,0,0,0,0,0,0,0,0,0,0,0,0,0,0,0,0.0,,,,,39.239586,-77.9646,0.1,29.0,2.0,0.8
70,2187509,1745077460785,0.0,183.51,,-0.05,-0.14,0.88,0.0,0.0,0.0,0.89,1.11,80.0,4452.0,22.1,4.23,,11.22,1.251,86.2,,55.9,5.0,,,,,,,,,,,,0,0,0,0,0,0,0,0,0,0,0,0,0,0,0,0,,,,,0.0,,,,,,
71,2187529,1745077460805,,,,,,,,,,,,,,,,,,,,,,,,,,,,,,,,,,0,0,0,0,0,0,0,0,0,0,0,0,0,0,0,0,,,,,,,,,,,
72,2187549,1745077460825,0.0,183.63,,-0.03,-0.2,0.8,1.0,0.0,0.0,0.83,1.11,75.0,4452.0,22.1,4.23,,12.72,1.25,86.2,,55.9,5.0,,,,,,,,,,,,0,0,0,0,0,0,0,0,0,0,0,0,0,0,0,0,,,,,0.0,,,,,,
73,2187569,1745077460845,,,,,,,,,,,,,,,,,,,,,,,,,,,,,,,,,,0,0,0,0,0,0,0,0,0,0,0,0,0,0,0,0,,,,,,,,,,,
74,2187589,1745077460865,0.0,183.63,,0.0,-0.26,0.73,1.0,0.0,-1.0,0.78,1.11,70.0,4541.0,23.2,4.39,,13.33,1.249,86.2,,54.5,5.0,0.0,0.0,0.0,0.0,0.0,0.0,0.0,0.0,2.26,,,0,0,0,0,0,0,0,0,0,0,0,0,0,0,0,0,0.0,,,,0.0,39.239586,-77.9646,0.04,29.0,2.0,0.8
75,2187609,1745077460885,,,,,,,,,,,,,,,,,,,,,,,,,,,,,,,,,,0,0,0,0,0,0,0,0,0,0,0,0,0,0,0,0,,,,,,,,,,,
76,2187629,1745077460905,0.0,183.63,,0.03,-0.35,0.67,2.0,0.0,-1.0,0.76,1.11,68.0,4545.0,4.4,3.65,,12.79,1.248,86.2,,54.5,5.0,,,,,,,,,,,,0,0,0,0,0,0,0,0,0,0,0,0,0,0,0,0,,,,,0.0,,,,,,
77,2187649,1745077460925,,,,,,,,,,,,,,,,,,,,,,,,,,,,,,,,,,0,0,0,0,0,0,0,0,0,0,0,0,0,0,0,0,,,,,,,,,,,
78,2187669,1745077460945,0.0,183.63,,0.06,-0.4,0.61,2.0,0.0,-1.0,0.73,1.11,66.0,4494.0,0.0,2.4,,11.91,1.249,86.2,,54.5,5.0,,,,,,,,,,,,0,0,0,0,0,0,0,0,0,0,0,0,0,0,0,0,,,,,0.0,,,,,,
79,2187689,1745077460965,,,,,,,,,,,,,,,,,,,,,,,0.0,0.0,0.0,0.0,0.0,0.0,0.0,0.0,2.27,,,0,0,0,0,0,0,0,0,0,0,0,0,0,0,0,0,0.0,,,,,39.239586,-77.9646,0.0,29.0,2.0,0.8
80,2187709,1745077460985,0.0,183.51,,0.05,-0.47,0.56,3.0,0.0,-2.0,0.74,1.11,66.0,4300.0,0.0,2.39,,11.91,1.249,86.2,,53.4,5.0,,,,,,,,,,,,0,0,0,0,0,0,0,0,0,0,0,0,0,0,0,0,,,,,0.0,,,,,,
81,2187729,1745077461005,,,,,,,,,,,,,,,,,,,,,,,,,,,,,,,,,,0,0,0,0,0,0,0,0,0,0,0,0,0,0,0,0,,,,,,,,,,,
82,2187749,1745077461017,0.0,183.51,,0.03,-0.32,0.69,2.0,0.0,-1.0,0.77,1.11,69.0,4300.0,0.0,2.39,,11.29,1.249,86.2,,53.4,5.0,,,,,,,,,,,,0,0,0,0,0,0,0,0,0,0,0,0,0,0,0,0,,,,,0.0,,,,,,
83,2187769,1745077461037,,,,,,,,,,,,,,,,,,,,,,,,,,,,,,,,,,0,0,0,0,0,0,0,0,0,0,0,0,0,0,0,0,,,,,,,,,,,
84,2187789,1745077461057,0.0,183.51,,0.02,-0.42,0.67,2.0,0.0,-1.0,0.79,1.11,71.0,4100.0,0.0,2.39,,11.0,1.25,86.2,,47.6,5.0,0.0,0.0,0.0,0.0,0.0,0.0,0.0,0.0,2.27,,,0,0,0,0,0,0,0,0,0,0,0,0,0,0,0,0,0.0,,,,0.0,39.239586,-77.9646,0.05,29.0,2.0,0.8
85,2187809,1745077461077,,,,,,,,,,,,,,,,,,,,,,,,,,,,,,,,,,0,0,0,0,0,0,0,0,0,0,0,0,0,0,0,0,,,,,,,,,,,
86,2187829,1745077461103,0.0,183.51,,0.02,-0.36,0.7,2.0,0.0,-1.0,0.79,1.11,71.0,3943.0,17.0,3.97,,12.09,1.252,86.2,,47.6,5.0,,,,,,,,,,,,0,0,0,0,0,0,0,0,0,0,0,0,0,0,0,0,,,,,0.0,,,,,,
87,2187849,1745077461123,,,,,,,,,,,,,,,,,,,,,,,,,,,,,,,,,,0,0,0,0,0,0,0,0,0,0,0,0,0,0,0,0,,,,,,,,,,,
88,2187869,1745077461143,0.0,183.51,,0.03,-0.24,0.79,1.0,0.0,-1.0,0.83,1.11,75.0,3850.0,29.5,4.58,,13.56,1.251,86.2,,47.6,5.0,,,,,,,,,,,,0,0,0,0,0,0,0,0,0,0,0,0,0,0,0,0,,,,,0.0,,,,,,
89,2187889,1745077461163,,,,,,,,,,,,,,,,,,,,,,,0.0,0.0,0.0,0.0,0.0,0.0,0.0,0.0,2.26,,,0,0,0,0,0,0,0,0,0,0,0,0,0,0,0,0,0.0,,,,,39.239586,-77.9646,0.04,29.0,2.0,0.8
90,2187909,1745077461183,0.0,183.51,,0.02,-0.24,0.83,1.0,0.0,0.0,0.86,1.11,78.0,4031.0,30.7,4.52,,13.56,1.251,86.2,,44.9,5.0,,,,,,,,,,,,0,0,0,0,0,0,0,0,0,0,0,0,0,0,0,0,,,,,0.0,,,,,,
91,2187929,1745077461203,,,,,,,,,,,,,,,,,,,,,,,,,,,,,,,,,,0,0,0,0,0,0,0,0,0,0,0,0,0,0,0,0,,,,,,,,,,,
92,2187949,1745077461223,0.0,183.38,,0.01,-0.12,0.96,0.0,0.0,0.0,0.97,1.11,88.0,4031.0,30.7,4.52,,13.82,1.252,86.2,,44.9,5.0,,,,,,,,,,,,0,0,0,0,0,0,0,0,0,0,0,0,0,0,0,0,,,,,0.0,,,,,,
93,2187969,1745077461243,,,,,,,,,,,,,,,,,,,,,,,,,,,,,,,,,,0,0,0,0,0,0,0,0,0,0,0,0,0,0,0,0,,,,,,,,,,,
94,2187989,1745077461263,0.0,183.38,,-0.03,-0.08,1.0,0.0,0.0,0.0,1.0,1.11,90.0,4495.0,27.0,4.7,,13.68,1.251,86.2,,55.4,5.0,0.0,0.0,0.0,0.0,0.0,0.0,0.0,0.0,2.25,,,0,0,0,0,0,0,0,0,0,0,0,0,0,0,0,0,0.0,,,,0.0,39.239586,-77.9646,0.04,29.0,2.0,0.8
95,2188009,1745077461283,,,,,,,,,,,,,,,,,,,,,,,,,,,,,,,,,,0,0,0,0,0,0,0,0,0,0,0,0,0,0,0,0,,,,,,,,,,,
96,2188029,1745077461305,0.0,183.38,,-0.01,-0.11,0.99,0.0,0.0,0.0,0.99,1.11,89.0,4931.0,0.0,2.51,,12.39,1.25,86.2,,55.4,5.0,,,,,,,,,,,,0,0,0,0,0,0,0,0,0,0,0,0,0,0,0,0,,,,,0.0,,,,,,
97,2188049,1745077461325,,,,,,,,,,,,,,,,,,,,,,,,,,,,,,,,,,0,0,0,0,0,0,0,0,0,0,0,0,0,0,0,0,,,,,,,,,,,
98,2188069,1745077461345,0.0,183.38,,-0.04,-0.09,0.99,0.0,0.0,0.0,0.99,1.11,90.0,4935.0,0.0,2.34,,11.49,1.249,86.2,,55.4,5.0,,,,,,,,,,,,0,0,0,0,0,0,0,0,0,0,0,0,0,0,0,0,,,,,0.0,,,,,,
99,2188089,1745077461365,,,,,,,,,,,,,,,,,,,,,,,0.0,0.0,0.0,0.0,0.0,0.0,0.0,0.0,2.26,,,0,0,0,0,0,0,0,0,0,0,0,0,0,0,0,0,0.0,,,,,39.239586,-77.9646,0.16,29.0,2.0,0.8
100,2188109,1745077461385,0.0,183.38,,-0.0,-0.11,0.98,0.0,0.0,0.0,0.98,1.11,89.0,4797.0,0.0,2.33,,11.49,1.249,86.2,,60.1,5.0,,,,,,,,,,,,0,0,0,0,0,0,0,0,0,0,0,0,0,0,0,0,,,,,0.0,,,,,,
101,2188129,1745077461406,,,,,,,,,,,,,,,,,,,,,,,,,,,,,,,,,,0,0,0,0,0,0,0,0,0,0,0,0,0,0,0,0,,,,,,,,,,,
102,2188149,1745077461426,0.0,183.38,,-0.04,-0.02,1.06,0.0,0.0,0.0,1.06,1.11,96.0,4797.0,0.0,2.33,,11.0,1.212,86.2,,60.1,5.0,,,,,,,,,,,,0,0,0,0,0,0,0,0,0,0,0,0,0,0,0,0,,,,,0.0,,,,,,
103,2188169,1745077461446,,,,,,,,,,,,,,,,,,,,,,,,,,,,,,,,,,0,0,0,0,0,0,0,0,0,0,0,0,0,0,0,0,,,,,,,,,,,
104,2188189,1745077461466,0.0,183.38,,-0.08,-0.0,1.06,-1.0,0.0,1.0,1.06,1.11,96.0,4691.0,0.0,1.93,,10.68,1.248,86.2,,56.1,5.0,0.0,0.0,0.0,0.0,0.0,0.0,0.0,0.0,2.26,,,0,0,0,0,0,0,0,0,0,0,0,0,0,0,0,0,0.0,,,,0.0,39.239586,-77.9646,0.11,29.0,2.0,0.8
105,2188209,1745077461486,,,,,,,,,,,,,,,,,,,,,,,,,,,,,,,,,,0,0,0,0,0,0,0,0,0,0,0,0,0,0,0,0,,,,,,,,,,,
106,2188229,1745077461504,0.0,183.38,,-0.11,0.0,1.03,-1.0,0.0,1.0,1.04,1.11,94.0,4565.0,0.0,1.79,,10.54,1.203,86.2,,56.1,5.0,,,,,,,,,,,,0,0,0,0,0,0,0,0,0,0,0,0,0,0,0,0,,,,,0.0,,,,,,
107,2188249,1745077461524,,,,,,,,,,,,,,,,,,,,,,,,,,,,,,,,,,0,0,0,0,0,0,0,0,0,0,0,0,0,0,0,0,,,,,,,,,,,
108,2188269,1745077461544,0.0,183.38,,-0.12,0.12,1.1,-1.0,0.0,1.0,1.12,1.12,100.0,4230.0,6.1,3.25,,11.05,1.152,86.2,,56.1,5.0,,,,,,,,,,,,0,0,0,0,0,0,0,0,0,0,0,0,0,0,0,0,,,,,0.0,,,,,,
109,2188289,1745077461564,,,,,,,,,,,,,,,,,,,,,,,0.0,0.0,0.0,0.0,0.0,0.0,0.0,0.0,2.26,,,0,0,0,0,0,0,0,0,0,0,0,0,0,0,0,0,0.0,,,,,39.239586,-77.9646,0.04,29.0,2.0,0.8
110,2188309,1745077461584,0.0,183.38,,-0.11,0.0,1.03,-1.0,0.0,1.0,1.03,1.12,92.0,3995.0,8.8,3.68,,11.05,1.152,86.2,,49.1,5.0,,,,,,,,,,,,0,0,0,0,0,0,0,0,0,0,0,0,0,0,0,0,,,,,0.0,,,,,,
111,2188329,1745077461606,,,,,,,,,,,,,,,,,,,,,,,,,,,,,,,,,,0,0,0,0,0,0,0,0,0,0,0,0,0,0,0,0,,,,,,,,,,,
112,2188349,1745077461626,0.0,183.38,,-0.08,0.04,1.02,-1.0,0.0,1.0,1.03,1.12,92.0,3995.0,8.8,3.68,,11.8,1.189,86.2,,49.1,5.0,,,,,,,,,,,,0,0,0,0,0,0,0,0,0,0,0,0,0,0,0,0,,,,,0.0,,,,,,
113,2188369,1745077461646,,,,,,,,,,,,,,,,,,,,,,,,,,,,,,,,,,0,0,0,0,0,0,0,0,0,0,0,0,0,0,0,0,,,,,,,,,,,
114,2188389,1745077461666,0.0,183.38,13.45,-0.08,0.03,1.05,-1.0,0.0,1.0,1.05,1.12,94.0,4012.0,9.3,3.69,15.0,12.29,1.25,86.2,138.0,46.8,5.0,0.0,0.0,0.0,0.0,0.0,0.0,0.0,0.0,2.26,0.0,0.0,0,0,0,0,0,0,0,0,0,0,0,0,0,0,0,0,0.0,0.0,0.0,0.0,0.0,39.239586,-77.9646,0.08,29.0,2.0,0.8
115,2188409,1745077461686,,,,,,,,,,,,,,,,,,,,,,,,,,,,,,,,,,0,0,0,0,0,0,0,0,0,0,0,0,0,0,0,0,,,,,,,,,,,
116,2188429,1745077461706,0.0,183.51,,-0.06,-0.01,1.0,0.0,0.0,0.0,1.0,1.12,89.0,4111.0,9.4,3.7,,12.45,1.251,86.2,,46.8,5.0,,,,,,,,,,,,0,0,0,0,0,0,0,0,0,0,0,0,0,0,0,0,,,,,0.0,,,,,,
117,2188449,1745077461726,,,,,,,,,,,,,,,,,,,,,,,,,,,,,,,,,,0,0,0,0,0,0,0,0,0,0,0,0,0,0,0,0,,,,,,,,,,,
118,2188469,1745077461746,0.0,183.63,,-0.04,0.06,1.06,-1.0,0.0,1.0,1.07,1.12,96.0,3980.0,9.4,3.72,,12.56,1.251,86.2,,46.8,5.0,,,,,,,,,,,,0,0,0,0,0,0,0,0,0,0,0,0,0,0,0,0,,,,,0.0,,,,,,
119,2188489,1745077461766,,,,,,,,,,,,,,,,,,,,,,,0.0,0.0,0.0,0.0,0.0,0.0,0.0,0.0,2.26,,,0,0,0,0,0,0,0,0,0,0,0,0,0,0,0,0,0.0,,,,,39.239586,-77.9646,0.04,29.0,2.0,0.8
120,2188509,1745077461786,0.0,183.63,,-0.04,0.02,1.07,-1.0,0.0,1.0,1.07,1.12,96.0,3914.0,9.4,3.73,,12.56,1.251,86.2,,45.4,5.0,,,,,,,,,,,,0,0,0,0,0,0,0,0,0,0,0,0,0,0,0,0,,,,,0.0,,,,,,
121,2188529,1745077461806,,,,,,,,,,,,,,,,,,,,,,,,,,,,,,,,,,0,0,0,0,0,0,0,0,0,0,0,0,0,0,0,0,,,,,,,,,,,
122,2188549,1745077461826,0.0,183.63,,-0.04,-0.05,1.02,-1.0,0.0,1.0,1.02,1.12,91.0,3914.0,9.4,3.73,,12.73,1.22,86.2,,45.4,5.0,,,,,,,,,,,,0,0,0,0,0,0,0,0,0,0,0,0,0,0,0,0,,,,,0.0,,,,,,
123,2188569,1745077461846,,,,,,,,,,,,,,,,,,,,,,,,,,,,,,,,,,0,0,0,0,0,0,0,0,0,0,0,0,0,0,0,0,,,,,,,,,,,
124,2188589,1745077461866,0.0,183.63,,-0.02,-0.04,0.97,0.0,0.0,0.0,0.98,1.12,88.0,3877.0,9.4,3.76,,12.84,1.232,86.2,,43.6,5.0,0.0,0.0,0.0,0.0,0.0,0.0,0.0,0.0,2.27,,,0,0,0,0,0,0,0,0,0,0,0,0,0,0,0,0,0.0,,,,0.0,39.239586,-77.9646,0.04,29.0,2.0,0.8
125,2188609,1745077461886,,,,,,,,,,,,,,,,,,,,,,,,,,,,,,,,,,0,0,0,0,0,0,0,0,0,0,0,0,0,0,0,0,,,,,,,,,,,
126,2188629,1745077461906,0.0,183.63,,-0.03,-0.08,0.96,0.0,0.0,0.0,0.97,1.12,87.0,3815.0,9.3,3.76,,12.88,1.248,86.2,,43.6,5.0,,,,,,,,,,,,0,0,0,0,0,0,0,0,0,0,0,0,0,0,0,0,,,,,0.0,,,,,,
127,2188649,1745077461926,,,,,,,,,,,,,,,,,,,,,,,,,,,,,,,,,,0,0,0,0,0,0,0,0,0,0,0,0,0,0,0,0,,,,,,,,,,,
128,2188669,1745077461946,0.0,183.51,,-0.02,-0.03,0.97,0.0,0.0,0.0,0.97,1.12,87.0,3813.0,9.2,3.76,,12.93,1.249,86.2,,43.6,5.0,,,,,,,,,,,,0,0,0,0,0,0,0,0,0,0,0,0,0,0,0,0,,,,,0.0,,,,,,
129,2188689,1745077461966,,,,,,,,,,,,,,,,,,,,,,,0.0,0.0,0.0,0.0,0.0,0.0,0.0,0.0,2.26,,,0,0,0,0,0,0,0,0,0,0,0,0,0,0,0,0,0.0,,,,,39.239586,-77.9646,0.08,29.0,2.0,0.8
130,2188709,1745077461986,0.0,183.63,,-0.03,0.01,1.05,-1.0,0.0,1.0,1.05,1.12,94.0,3918.0,9.2,3.76,,12.93,1.249,86.2,,44.5,5.0,,,,,,,,,,,,0,0,0,0,0,0,0,0,0,0,0,0,0,0,0,0,,,,,0.0,,,,,,
131,2188729,1745077462006,,,,,,,,,,,,,,,,,,,,,,,,,,,,,,,,,,0,0,0,0,0,0,0,0,0,0,0,0,0,0,0,0,,,,,,,,,,,
132,2188749,1745077462016,0.0,183.51,,-0.07,-0.01,1.04,-1.0,0.0,1.0,1.04,1.12,93.0,3918.0,9.2,3.76,,12.81,1.248,86.2,,44.5,5.0,,,,,,,,,,,,0,0,0,0,0,0,0,0,0,0,0,0,0,0,0,0,,,,,0.0,,,,,,
133,2188769,1745077462036,,,,,,,,,,,,,,,,,,,,,,,,,,,,,,,,,,0,0,0,0,0,0,0,0,0,0,0,0,0,0,0,0,,,,,,,,,,,
134,2188789,1745077462056,0.0,183.51,,-0.06,-0.05,1.01,-1.0,0.0,0.0,1.01,1.12,91.0,3894.0,8.6,3.72,,12.68,1.25,86.2,,44.0,5.0,0.0,0.0,0.0,0.0,0.0,0.0,0.0,0.0,2.26,,,0,0,0,0,0,0,0,0,0,0,0,0,0,0,0,0,0.0,,,,0.0,39.239586,-77.9646,0.04,29.0,2.0,0.8
135,2188809,1745077462076,,,,,,,,,,,,,,,,,,,,,,,,,,,,,,,,,,0,0,0,0,0,0,0,0,0,0,0,0,0,0,0,0,,,,,,,,,,,
136,2188829,1745077462102,0.0,183.38,,-0.05,-0.05,1.0,0.0,0.0,0.0,1.0,1.12,90.0,3890.0,5.5,3.63,,12.59,1.237,86.2,,44.0,5.0,,,,,,,,,,,,0,0,0,0,0,0,0,0,0,0,0,0,0,0,0,0,,,,,0.0,,,,,,
137,2188849,1745077462122,,,,,,,,,,,,,,,,,,,,,,,,,,,,,,,,,,0,0,0,0,0,0,0,0,0,0,0,0,0,0,0,0,,,,,,,,,,,
138,2188869,1745077462142,0.0,183.26,,-0.03,-0.0,1.01,0.0,0.0,0.0,1.01,1.12,91.0,3834.0,5.2,3.59,,12.47,1.217,86.2,,44.0,5.0,,,,,,,,,,,,0,0,0,0,0,0,0,0,0,0,0,0,0,0,0,0,,,,,0.0,,,,,,
139,2188889,1745077462162,,,,,,,,,,,,,,,,,,,,,,,0.0,0.0,0.0,0.0,0.0,0.0,0.0,0.0,2.26,,,0,0,0,0,0,0,0,0,0,0,0,0,0,0,0,0,0.0,,,,,39.239586,-77.9646,0.04,29.0,2.0,0.8
140,2188909,1745077462182,0.0,183.26,,-0.03,-0.01,1.0,0.0,0.0,0.0,1.0,1.12,90.0,3821.0,5.2,3.59,,12.47,1.217,86.2,,43.4,5.0,,,,,,,,,,,,0,0,0,0,0,0,0,0,0,0,0,0,0,0,0,0,,,,,0.0,,,,,,
141,2188929,1745077462204,,,,,,,,,,,,,,,,,,,,,,,,,,,,,,,,,,0,0,0,0,0,0,0,0,0,0,0,0,0,0,0,0,,,,,,,,,,,
142,2188949,1745077462224,0.0,183.26,,-0.04,0.0,0.98,0.0,0.0,0.0,0.98,1.12,88.0,3821.0,5.2,3.59,,12.43,1.249,86.2,,43.4,5.0,,,,,,,,,,,,0,0,0,0,0,0,0,0,0,0,0,0,0,0,0,0,,,,,0.0,,,,,,
143,2188969,1745077462244,,,,,,,,,,,,,,,,,,,,,,,,,,,,,,,,,,0,0,0,0,0,0,0,0,0,0,0,0,0,0,0,0,,,,,,,,,,,
144,2188989,1745077462264,0.0,183.13,,-0.06,0.04,1.0,0.0,0.0,0.0,1.01,1.12,90.0,3699.0,5.3,3.58,,12.44,1.252,86.2,,42.9,5.0,0.0,0.0,0.0,0.0,0.0,0.0,0.0,0.0,2.26,,,0,0,0,0,0,0,0,0,0,0,0,0,0,0,0,0,0.0,,,,0.0,39.239586,-77.9646,0.04,29.0,2.0,0.8
145,2189009,1745077462284,,,,,,,,,,,,,,,,,,,,,,,,,,,,,,,,,,0,0,0,0,0,0,0,0,0,0,0,0,0,0,0,0,,,,,,,,,,,
146,2189029,1745077462306,0.0,183.13,,-0.05,0.03,1.03,0.0,0.0,0.0,1.03,1.12,92.0,3838.0,5.1,3.58,,12.39,1.25,86.2,,42.9,5.0,,,,,,,,,,,,0,0,0,0,0,0,0,0,0,0,0,0,0,0,0,0,,,,,0.0,,,,,,
147,2189049,1745077462326,,,,,,,,,,,,,,,,,,,,,,,,,,,,,,,,,,0,0,0,0,0,0,0,0,0,0,0,0,0,0,0,0,,,,,,,,,,,
148,2189069,1745077462346,0.0,183.13,,-0.05,0.03,1.03,0.0,0.0,0.0,1.03,1.12,92.0,3798.0,0.4,2.65,,12.09,1.249,86.2,,42.9,5.0,,,,,,,,,,,,0,0,0,0,0,0,0,0,0,0,0,0,0,0,0,0,,,,,0.0,,,,,,
149,2189089,1745077462366,,,,,,,,,,,,,,,,,,,,,,,0.0,0.0,0.0,0.0,0.0,0.0,0.0,0.0,2.27,,,0,0,0,0,0,0,0,0,0,0,0,0,0,0,0,0,0.0,,,,,39.239586,-77.9646,0.04,29.0,2.0,0.8
150,2189109,1745077462386,0.0,183.01,,-0.05,0.02,0.99,0.0,0.0,0.0,0.99,1.12,89.0,3686.0,0.0,2.55,,12.09,1.249,86.2,,42.4,5.0,,,,,,,,,,,,0,0,0,0,0,0,0,0,0,0,0,0,0,0,0,0,,,,,0.0,,,,,,
151,2189129,1745077462405,,,,,,,,,,,,,,,,,,,,,,,,,,,,,,,,,,0,0,0,0,0,0,0,0,0,0,0,0,0,0,0,0,,,,,,,,,,,
152,2189149,1745077462425,0.0,183.01,,-0.06,-0.03,0.96,0.0,0.0,0.0,0.96,1.12,86.0,3686.0,0.0,2.55,,11.85,1.226,86.2,,42.4,5.0,,,,,,,,,,,,0,0,0,0,0,0,0,0,0,0,0,0,0,0,0,0,,,,,0.0,,,,,,
153,2189169,1745077462445,,,,,,,,,,,,,,,,,,,,,,,,,,,,,,,,,,0,0,0,0,0,0,0,0,0,0,0,0,0,0,0,0,,,,,,,,,,,
154,2189189,1745077462465,0.0,183.01,,-0.06,0.0,1.04,-1.0,0.0,1.0,1.04,1.12,93.0,3503.0,0.0,2.62,,11.84,1.192,86.2,,38.0,5.0,0.0,0.0,0.0,0.0,0.0,0.0,0.0,0.0,2.27,,,0,0,0,0,0,0,0,0,0,0,0,0,0,0,0,0,0.0,,,,0.0,39.239586,-77.9646,0.04,29.0,2.0,0.8
155,2189209,1745077462485,,,,,,,,,,,,,,,,,,,,,,,,,,,,,,,,,,0,0,0,0,0,0,0,0,0,0,0,0,0,0,0,0,,,,,,,,,,,
156,2189229,1745077462505,0.0,183.13,,-0.07,-0.06,1.0,0.0,0.0,0.0,1.01,1.12,90.0,3382.0,0.0,2.67,,11.89,1.205,84.4,,38.0,5.0,,,,,,,,,,,,0,0,0,0,0,0,0,0,0,0,0,0,0,0,0,0,,,,,0.0,,,,,,
157,2189249,1745077462525,,,,,,,,,,,,,,,,,,,,,,,,,,,,,,,,,,0,0,0,0,0,0,0,0,0,0,0,0,0,0,0,0,,,,,,,,,,,
158,2189269,1745077462545,0.0,183.01,,-0.06,-0.0,0.93,0.0,0.0,0.0,0.93,1.12,84.0,3157.0,0.0,2.73,,12.01,1.248,84.4,,38.0,5.0,,,,,,,,,,,,0,0,0,0,0,0,0,0,0,0,0,0,0,0,0,0,,,,,0.0,,,,,,
159,2189289,1745077462565,,,,,,,,,,,,,,,,,,,,,,,0.0,0.0,0.0,0.0,0.0,0.0,0.0,0.0,2.26,,,0,0,0,0,0,0,0,0,0,0,0,0,0,0,0,0,0.0,,,,,39.239586,-77.9646,0.0,29.0,2.0,0.8
160,2189309,1745077462585,0.0,183.01,,-0.03,0.05,0.91,0.0,0.0,1.0,0.91,1.12,82.0,3003.0,0.0,2.82,,12.01,1.248,84.4,,34.1,5.0,,,,,,,,,,,,0,0,0,0,0,0,0,0,0,0,0,0,0,0,0,0,,,,,0.0,,,,,,
161,2189329,1745077462605,,,,,,,,,,,,,,,,,,,,,,,,,,,,,,,,,,0,0,0,0,0,0,0,0,0,0,0,0,0,0,0,0,,,,,,,,,,,
162,2189349,1745077462625,0.0,183.01,,-0.02,0.1,0.86,-1.0,0.0,1.0,0.86,1.12,77.0,3003.0,0.0,2.82,,12.09,1.251,84.4,,34.1,5.0,,,,,,,,,,,,0,0,0,0,0,0,0,0,0,0,0,0,0,0,0,0,,,,,0.0,,,,,,
163,2189369,1745077462645,,,,,,,,,,,,,,,,,,,,,,,,,,,,,,,,,,0,0,0,0,0,0,0,0,0,0,0,0,0,0,0,0,,,,,,,,,,,
164,2189389,1745077462665,0.0,182.88,13.44,-0.02,0.06,0.88,0.0,0.0,0.0,0.88,1.12,79.0,2878.0,0.0,2.9,15.0,12.21,1.252,84.4,138.0,30.1,5.0,0.0,0.0,0.0,0.0,0.0,0.0,0.0,0.0,2.26,0.0,0.0,0,0,0,0,0,0,0,0,0,0,0,0,0,0,0,0,0.0,0.0,0.0,0.0,0.0,39.239586,-77.9646,0.07,29.0,2.0,0.8
165,2189409,1745077462685,,,,,,,,,,,,,,,,,,,,,,,,,,,,,,,,,,0,0,0,0,0,0,0,0,0,0,0,0,0,0,0,0,,,,,,,,,,,
166,2189429,1745077462707,0.0,183.01,,-0.01,0.06,0.88,0.0,0.0,0.0,0.89,1.12,80.0,2725.0,0.0,2.94,,12.4,1.252,84.4,,30.1,5.0,,,,,,,,,,,,0,0,0,0,0,0,0,0,0,0,0,0,0,0,0,0,,,,,0.0,,,,,,
167,2189449,1745077462727,,,,,,,,,,,,,,,,,,,,,,,,,,,,,,,,,,0,0,0,0,0,0,0,0,0,0,0,0,0,0,0,0,,,,,,,,,,,
168,2189469,1745077462747,0.0,182.88,,-0.01,0.05,0.9,0.0,0.0,0.0,0.9,1.12,81.0,2613.0,0.0,3.04,,12.55,1.252,84.4,,30.1,5.0,,,,,,,,,,,,0,0,0,0,0,0,0,0,0,0,0,0,0,0,0,0,,,,,0.0,,,,,,
169,2189489,1745077462767,,,,,,,,,,,,,,,,,,,,,,,0.0,0.0,0.0,0.0,0.0,0.0,0.0,0.0,2.26,,,0,0,0,0,0,0,0,0,0,0,0,0,0,0,0,0,0.0,,,,,39.239586,-77.9646,0.0,29.0,2.0,0.8
170,2189509,1745077462787,0.0,183.01,,-0.02,0.04,0.91,0.0,0.0,0.0,0.91,1.12,82.0,2434.0,0.0,3.09,,12.55,1.252,84.4,,26.8,5.0,,,,,,,,,,,,0,0,0,0,0,0,0,0,0,0,0,0,0,0,0,0,,,,,0.0,,,,,,
171,2189529,1745077462803,,,,,,,,,,,,,,,,,,,,,,,,,,,,,,,,,,0,0,0,0,0,0,0,0,0,0,0,0,0,0,0,0,,,,,,,,,,,
172,2189549,1745077462823,0.0,182.88,,-0.04,0.03,0.92,0.0,0.0,0.0,0.93,1.12,83.0,2434.0,0.0,3.09,,12.77,1.25,84.4,,26.8,5.0,,,,,,,,,,,,0,0,0,0,0,0,0,0,0,0,0,0,0,0,0,0,,,,,0.0,,,,,,
173,2189569,1745077462843,,,,,,,,,,,,,,,,,,,,,,,,,,,,,,,,,,0,0,0,0,0,0,0,0,0,0,0,0,0,0,0,0,,,,,,,,,,,
174,2189589,1745077462863,0.0,182.88,,-0.05,0.04,0.93,0.0,0.0,0.0,0.94,1.12,84.0,2336.0,0.0,3.19,,13.0,1.249,84.4,,23.6,5.0,0.0,0.0,0.0,0.0,0.0,0.0,0.0,0.0,2.27,,,0,0,0,0,0,0,0,0,0,0,0,0,0,0,0,0,0.0,,,,0.0,39.239586,-77.9646,0.07,29.0,2.0,0.8
175,2189609,1745077462883,,,,,,,,,,,,,,,,,,,,,,,,,,,,,,,,,,0,0,0,0,0,0,0,0,0,0,0,0,0,0,0,0,,,,,,,,,,,
176,2189629,1745077462905,0.0,182.88,,-0.05,0.02,0.93,0.0,0.0,0.0,0.94,1.12,84.0,2211.0,0.0,3.22,,13.19,1.249,84.4,,23.6,5.0,,,,,,,,,,,,0,0,0,0,0,0,0,0,0,0,0,0,0,0,0,0,,,,,0.0,,,,,,
177,2189649,1745077462925,,,,,,,,,,,,,,,,,,,,,,,,,,,,,,,,,,0,0,0,0,0,0,0,0,0,0,0,0,0,0,0,0,,,,,,,,,,,
178,2189669,1745077462945,0.0,182.88,,-0.05,0.02,0.93,0.0,0.0,0.0,0.93,1.12,84.0,2102.0,0.0,3.3,,13.37,1.249,84.4,,23.6,5.0,,,,,,,,,,,,0,0,0,0,0,0,0,0,0,0,0,0,0,0,0,0,,,,,0.0,,,,,,
179,2189689,1745077462965,,,,,,,,,,,,,,,,,,,,,,,0.0,0.0,0.0,0.0,0.0,0.0,0.0,0.0,2.26,,,0,0,0,0,0,0,0,0,0,0,0,0,0,0,0,0,0.0,,,,,39.239586,-77.9646,0.04,29.0,2.0,0.8
180,2189709,1745077462985,0.0,182.88,,-0.04,0.02,0.95,0.0,0.0,0.0,0.95,1.12,85.0,1984.0,0.0,3.29,,13.37,1.249,84.4,,21.0,5.0,,,,,,,,,,,,0,0,0,0,0,0,0,0,0,0,0,0,0,0,0,0,,,,,0.0,,,,,,
181,2189729,1745077463005,,,,,,,,,,,,,,,,,,,,,,,,,,,,,,,,,,0,0,0,0,0,0,0,0,0,0,0,0,0,0,0,0,,,,,,,,,,,
182,2189749,1745077463015,0.0,182.88,,-0.05,0.0,0.94,0.0,0.0,0.0,0.94,1.12,84.0,1984.0,0.0,3.29,,13.49,1.249,84.4,,21.0,5.0,,,,,,,,,,,,0,0,0,0,0,0,0,0,0,0,0,0,0,0,0,0,,,,,0.0,,,,,,
183,2189769,1745077463035,,,,,,,,,,,,,,,,,,,,,,,,,,,,,,,,,,0,0,0,0,0,0,0,0,0,0,0,0,0,0,0,0,,,,,,,,,,,
184,2189789,1745077463055,0.0,182.88,,-0.04,0.0,0.97,0.0,0.0,0.0,0.97,1.12,87.0,1823.0,0.0,3.35,,13.63,1.25,84.4,,19.2,5.0,0.0,0.0,0.0,0.0,0.0,0.0,0.0,0.0,2.26,,,0,0,0,0,0,0,0,0,0,0,0,0,0,0,0,0,0.0,,,,0.0,39.239586,-77.9646,0.08,29.0,2.0,0.8
185,2189809,1745077463075,,,,,,,,,,,,,,,,,,,,,,,,,,,,,,,,,,0,0,0,0,0,0,0,0,0,0,0,0,0,0,0,0,,,,,,,,,,,
186,2189829,1745077463095,0.0,182.88,,-0.06,-0.01,0.99,0.0,0.0,0.0,0.99,1.12,88.0,1824.0,1.4,3.38,,13.75,1.252,84.4,,19.2,5.0,,,,,,,,,,,,0,0,0,0,0,0,0,0,0,0,0,0,0,0,0,0,,,,,0.0,,,,,,
187,2189849,1745077463117,,,,,,,,,,,,,,,,,,,,,,,,,,,,,,,,,,0,0,0,0,0,0,0,0,0,0,0,0,0,0,0,0,,,,,,,,,,,
188,2189869,1745077463137,0.0,182.88,,-0.07,-0.02,0.96,0.0,0.0,0.0,0.97,1.12,87.0,1719.0,2.4,3.57,,13.94,1.253,84.4,,19.2,5.0,,,,,,,,,,,,0,0,0,0,0,0,0,0,0,0,0,0,0,0,0,0,,,,,0.0,,,,,,
189,2189889,1745077463157,,,,,,,,,,,,,,,,,,,,,,,0.0,0.0,0.0,0.0,0.0,0.0,0.0,0.0,2.26,,,0,0,0,0,0,0,0,0,0,0,0,0,0,0,0,0,0.0,,,,,39.239586,-77.9646,0.05,29.0,2.0,0.8
190,2189909,1745077463177,0.0,182.88,,-0.08,-0.04,0.96,0.0,0.0,0.0,0.96,1.12,86.0,1641.0,2.6,3.57,,13.94,1.253,84.4,,17.3,5.0,,,,,,,,,,,,0,0,0,0,0,0,0,0,0,0,0,0,0,0,0,0,,,,,0.0,,,,,,
191,2189929,1745077463205,,,,,,,,,,,,,,,,,,,,,,,,,,,,,,,,,,0,0,0,0,0,0,0,0,0,0,0,0,0,0,0,0,,,,,,,,,,,
192,2189949,1745077463225,0.0,182.76,,-0.08,-0.04,0.98,0.0,0.0,0.0,0.99,1.12,88.0,1641.0,2.6,3.57,,14.06,1.252,84.4,,17.3,5.0,,,,,,,,,,,,0,0,0,0,0,0,0,0,0,0,0,0,0,0,0,0,,,,,0.0,,,,,,
193,2189969,1745077463245,,,,,,,,,,,,,,,,,,,,,,,,,,,,,,,,,,0,0,0,0,0,0,0,0,0,0,0,0,0,0,0,0,,,,,,,,,,,
194,2189989,1745077463265,0.0,182.76,,-0.1,-0.03,0.99,0.0,0.0,0.0,0.99,1.12,89.0,1673.0,2.7,3.58,,13.99,1.252,84.4,,17.5,5.0,0.0,0.0,0.0,0.0,0.0,0.0,0.0,0.0,2.26,,,0,0,0,0,0,0,0,0,0,0,0,0,0,0,0,0,0.0,,,,0.0,39.239586,-77.9646,0.06,29.0,2.0,0.8
195,2190009,1745077463285,,,,,,,,,,,,,,,,,,,,,,,,,,,,,,,,,,0,0,0,0,0,0,0,0,0,0,0,0,0,0,0,0,,,,,,,,,,,
196,2190029,1745077463305,0.0,182.76,,-0.11,-0.02,0.97,0.0,0.0,0.0,0.98,1.12,87.0,1703.0,2.7,3.59,,13.92,1.25,84.4,,17.5,5.0,,,,,,,,,,,,0,0,0,0,0,0,0,0,0,0,0,0,0,0,0,0,,,,,0.0,,,,,,
197,2190049,1745077463325,,,,,,,,,,,,,,,,,,,,,,,,,,,,,,,,,,0,0,0,0,0,0,0,0,0,0,0,0,0,0,0,0,,,,,,,,,,,
198,2190069,1745077463345,0.0,182.76,,-0.11,-0.02,0.96,0.0,0.0,0.0,0.97,1.12,87.0,1608.0,2.7,3.58,,14.0,1.249,84.4,,17.5,5.0,,,,,,,,,,,,0,0,0,0,0,0,0,0,0,0,0,0,0,0,0,0,,,,,0.0,,,,,,
199,2190089,1745077463365,,,,,,,,,,,,,,,,,,,,,,,0.0,0.0,0.0,0.0,0.0,0.0,0.0,0.0,2.26,,,0,0,0,0,0,0,0,0,0,0,0,0,0,0,0,0,0.0,,,,,39.239586,-77.9646,0.0,29.0,2.0,0.8
200,2190109,1745077463385,0.0,182.76,,-0.1,-0.02,0.96,0.0,0.0,0.0,0.97,1.12,87.0,1566.0,2.6,3.6,,14.0,1.249,84.4,,17.2,5.0,,,,,,,,,,,,0,0,0,0,0,0,0,0,0,0,0,0,0,0,0,0,,,,,0.0,,,,,,
201,2190129,1745077463404,,,,,,,,,,,,,,,,,,,,,,,,,,,,,,,,,,0,0,0,0,0,0,0,0,0,0,0,0,0,0,0,0,,,,,,,,,,,
202,2190149,1745077463424,0.0,182.76,,-0.07,-0.01,0.99,0.0,0.0,0.0,0.99,1.12,89.0,1566.0,2.6,3.6,,14.08,1.249,84.4,,17.2,5.0,,,,,,,,,,,,0,0,0,0,0,0,0,0,0,0,0,0,0,0,0,0,,,,,0.0,,,,,,
203,2190169,1745077463444,,,,,,,,,,,,,,,,,,,,,,,,,,,,,,,,,,0,0,0,0,0,0,0,0,0,0,0,0,0,0,0,0,,,,,,,,,,,
204,2190189,1745077463464,0.0,182.76,,-0.06,-0.02,0.99,0.0,0.0,0.0,1.0,1.12,89.0,1604.0,2.5,3.61,,13.96,1.249,84.4,,16.1,5.0,0.0,0.0,0.0,0.0,0.0,0.0,0.0,0.0,2.26,,,0,0,0,0,0,0,0,0,0,0,0,0,0,0,0,0,0.0,,,,0.0,39.239586,-77.9646,0.08,29.0,2.0,0.8
205,2190209,1745077463484,,,,,,,,,,,,,,,,,,,,,,,,,,,,,,,,,,0,0,0,0,0,0,0,0,0,0,0,0,0,0,0,0,,,,,,,,,,,
206,2190229,1745077463506,0.0,182.76,,-0.04,-0.03,1.01,0.0,0.0,0.0,1.01,1.12,91.0,1513.0,2.5,3.6,,14.08,1.249,84.4,,16.1,5.0,,,,,,,,,,,,0,0,0,0,0,0,0,0,0,0,0,0,0,0,0,0,,,,,0.0,,,,,,
207,2190249,1745077463526,,,,,,,,,,,,,,,,,,,,,,,,,,,,,,,,,,0,0,0,0,0,0,0,0,0,0,0,0,0,0,0,0,,,,,,,,,,,
208,2190269,1745077463546,0.0,182.76,,-0.03,-0.03,1.02,0.0,0.0,0.0,1.02,1.12,91.0,1473.0,2.5,3.6,,13.99,1.251,84.4,,16.1,5.0,,,,,,,,,,,,0,0,0,0,0,0,0,0,0,0,0,0,0,0,0,0,,,,,0.0,,,,,,
209,2190289,1745077463566,,,,,,,,,,,,,,,,,,,,,,,0.0,0.0,0.0,0.0,0.0,0.0,0.0,0.0,2.26,,,0,0,0,0,0,0,0,0,0,0,0,0,0,0,0,0,0.0,,,,,39.239586,-77.9646,0.05,29.0,2.0,0.8
210,2190309,1745077463586,0.0,182.76,,-0.03,-0.03,1.03,0.0,0.0,0.0,1.03,1.12,93.0,1595.0,2.5,3.61,,13.99,1.251,84.4,,15.5,5.0,,,,,,,,,,,,0,0,0,0,0,0,0,0,0,0,0,0,0,0,0,0,,,,,0.0,,,,,,
211,2190329,1745077463604,,,,,,,,,,,,,,,,,,,,,,,,,,,,,,,,,,0,0,0,0,0,0,0,0,0,0,0,0,0,0,0,0,,,,,,,,,,,
212,2190349,1745077463624,0.0,182.76,,-0.04,-0.03,1.05,0.0,0.0,0.0,1.05,1.12,94.0,1595.0,2.5,3.61,,14.0,1.252,84.4,,15.5,5.0,,,,,,,,,,,,0,0,0,0,0,0,0,0,0,0,0,0,0,0,0,0,,,,,0.0,,,,,,
213,2190369,1745077463644,,,,,,,,,,,,,,,,,,,,,,,,,,,,,,,,,,0,0,0,0,0,0,0,0,0,0,0,0,0,0,0,0,,,,,,,,,,,
214,2190389,1745077463664,0.0,182.76,13.35,-0.07,-0.02,1.03,0.0,0.0,0.0,1.04,1.12,93.0,1538.0,2.6,3.61,15.0,14.11,1.252,84.4,138.0,16.6,5.0,0.0,0.0,0.0,0.0,0.0,0.0,0.0,0.0,2.26,0.0,0.0,0,0,0,0,0,0,0,0,0,0,0,0,0,0,0,0,0.0,0.0,0.0,0.0,0.0,39.239586,-77.9646,0.04,29.0,2.0,0.8
215,2190409,1745077463684,,,,,,,,,,,,,,,,,,,,,,,,,,,,,,,,,,0,0,0,0,0,0,0,0,0,0,0,0,0,0,0,0,,,,,,,,,,,
216,2190429,1745077463704,0.0,182.76,,-0.08,-0.03,1.02,0.0,0.0,0.0,1.02,1.12,91.0,1597.0,2.7,3.61,,13.96,1.252,84.4,,16.6,5.0,,,,,,,,,,,,0,0,0,0,0,0,0,0,0,0,0,0,0,0,0,0,,,,,0.0,,,,,,
217,2190449,1745077463724,,,,,,,,,,,,,,,,,,,,,,,,,,,,,,,,,,0,0,0,0,0,0,0,0,0,0,0,0,0,0,0,0,,,,,,,,,,,
218,2190469,1745077463744,0.0,182.63,,-0.09,-0.03,0.99,0.0,0.0,0.0,0.99,1.12,89.0,1588.0,2.8,3.61,,14.08,1.252,84.4,,16.6,5.0,,,,,,,,,,,,0,0,0,0,0,0,0,0,0,0,0,0,0,0,0,0,,,,,0.0,,,,,,
219,2190489,1745077463764,,,,,,,,,,,,,,,,,,,,,,,0.0,0.0,0.0,0.0,0.0,0.0,0.0,0.0,2.26,,,0,0,0,0,0,0,0,0,0,0,0,0,0,0,0,0,0.0,,,,,39.239586,-77.9646,0.04,29.0,2.0,0.8
220,2190509,1745077463784,0.0,182.63,,-0.1,-0.03,0.97,0.0,0.0,0.0,0.98,1.12,88.0,1475.0,2.8,3.6,,14.08,1.252,84.4,,15.9,5.0,,,,,,,,,,,,0,0,0,0,0,0,0,0,0,0,0,0,0,0,0,0,,,,,0.0,,,,,,
221,2190529,1745077463804,,,,,,,,,,,,,,,,,,,,,,,,,,,,,,,,,,0,0,0,0,0,0,0,0,0,0,0,0,0,0,0,0,,,,,,,,,,,
222,2190549,1745077463824,0.0,182.63,,-0.1,-0.03,0.95,0.0,0.0,0.0,0.96,1.12,86.0,1475.0,2.8,3.6,,14.02,1.25,84.4,,15.9,5.0,,,,,,,,,,,,0,0,0,0,0,0,0,0,0,0,0,0,0,0,0,0,,,,,0.0,,,,,,
223,2190569,1745077463844,,,,,,,,,,,,,,,,,,,,,,,,,,,,,,,,,,0,0,0,0,0,0,0,0,0,0,0,0,0,0,0,0,,,,,,,,,,,
224,2190589,1745077463864,0.0,182.76,,-0.1,-0.03,0.93,0.0,0.0,0.0,0.94,1.12,84.0,1542.0,2.8,3.61,,14.06,1.249,84.4,,15.6,5.0,0.0,0.0,0.0,0.0,0.0,0.0,0.0,0.0,2.26,,,0,0,0,0,0,0,0,0,0,0,0,0,0,0,0,0,0.0,,,,0.0,39.239586,-77.9646,0.08,29.0,2.0,0.8
225,2190609,1745077463884,,,,,,,,,,,,,,,,,,,,,,,,,,,,,,,,,,0,0,0,0,0,0,0,0,0,0,0,0,0,0,0,0,,,,,,,,,,,
226,2190629,1745077463906,0.0,182.63,,-0.09,-0.03,0.92,0.0,0.0,0.0,0.92,1.12,83.0,1588.0,2.7,3.61,,14.02,1.249,84.4,,15.6,5.0,,,,,,,,,,,,0,0,0,0,0,0,0,0,0,0,0,0,0,0,0,0,,,,,0.0,,,,,,
227,2190649,1745077463926,,,,,,,,,,,,,,,,,,,,,,,,,,,,,,,,,,0,0,0,0,0,0,0,0,0,0,0,0,0,0,0,0,,,,,,,,,,,
228,2190669,1745077463946,0.0,182.63,,-0.09,-0.02,0.91,0.0,0.0,0.0,0.92,1.12,82.0,1512.0,2.6,3.62,,14.08,1.249,84.4,,15.6,5.0,,,,,,,,,,,,0,0,0,0,0,0,0,0,0,0,0,0,0,0,0,0,,,,,0.0,,,,,,
229,2190689,1745077463966,,,,,,,,,,,,,,,,,,,,,,,0.0,0.0,0.0,0.0,0.0,0.0,0.0,0.0,2.26,,,0,0,0,0,0,0,0,0,0,0,0,0,0,0,0,0,0.0,,,,,39.239586,-77.9646,0.04,29.0,2.0,0.8
230,2190709,1745077463986,0.0,182.63,,-0.08,-0.04,0.92,0.0,0.0,0.0,0.92,1.12,83.0,1561.0,2.6,3.61,,14.08,1.249,84.4,,16.1,5.0,,,,,,,,,,,,0,0,0,0,0,0,0,0,0,0,0,0,0,0,0,0,,,,,0.0,,,,,,
231,2190729,1745077464006,,,,,,,,,,,,,,,,,,,,,,,,,,,,,,,,,,0,0,0,0,0,0,0,0,0,0,0,0,0,0,0,0,,,,,,,,,,,
232,2190749,1745077464016,0.0,182.63,,-0.08,-0.02,0.92,0.0,0.0,0.0,0.92,1.12,83.0,1561.0,2.6,3.61,,14.0,1.248,84.4,,16.1,5.0,,,,,,,,,,,,0,0,0,0,0,0,0,0,0,0,0,0,0,0,0,0,,,,,0.0,,,,,,
233,2190769,1745077464036,,,,,,,,,,,,,,,,,,,,,,,,,,,,,,,,,,0,0,0,0,0,0,0,0,0,0,0,0,0,0,0,0,,,,,,,,,,,
234,2190789,1745077464056,0.0,182.5,,-0.07,-0.02,0.92,0.0,0.0,0.0,0.93,1.12,83.0,1435.0,2.6,3.62,,14.1,1.25,84.4,,16.1,5.0,0.0,0.0,0.0,0.0,0.0,0.0,0.0,0.0,2.27,,,0,0,0,0,0,0,0,0,0,0,0,0,0,0,0,0,0.0,,,,0.0,39.239586,-77.9646,0.04,29.0,2.0,0.8
235,2190809,1745077464076,,,,,,,,,,,,,,,,,,,,,,,,,,,,,,,,,,0,0,0,0,0,0,0,0,0,0,0,0,0,0,0,0,,,,,,,,,,,
236,2190829,1745077464106,0.0,182.5,,-0.06,-0.01,0.93,0.0,0.0,0.0,0.93,1.12,83.0,1488.0,2.6,3.6,,14.03,1.252,84.4,,16.1,5.0,,,,,,,,,,,,0,0,0,0,0,0,0,0,0,0,0,0,0,0,0,0,,,,,0.0,,,,,,
237,2190849,1745077464126,,,,,,,,,,,,,,,,,,,,,,,,,,,,,,,,,,0,0,0,0,0,0,0,0,0,0,0,0,0,0,0,0,,,,,,,,,,,
238,2190869,1745077464146,0.0,182.5,,-0.06,-0.03,0.94,0.0,0.0,1.0,0.94,1.12,84.0,1576.0,2.6,3.61,,14.0,1.252,84.4,,16.1,5.0,,,,,,,,,,,,0,0,0,0,0,0,0,0,0,0,0,0,0,0,0,0,,,,,0.0,,,,,,
239,2190889,1745077464166,,,,,,,,,,,,,,,,,,,,,,,0.0,0.0,0.0,0.0,0.0,0.0,0.0,0.0,2.26,,,0,0,0,0,0,0,0,0,0,0,0,0,0,0,0,0,0.0,,,,,39.239586,-77.9646,0.0,29.0,2.0,0.8
240,2190909,1745077464186,0.0,182.5,,-0.05,-0.04,0.95,0.0,0.0,1.0,0.95,1.12,85.0,1509.0,2.7,3.61,,14.0,1.252,84.4,,15.8,5.0,,,,,,,,,,,,0,0,0,0,0,0,0,0,0,0,0,0,0,0,0,0,,,,,0.0,,,,,,
241,2190929,1745077464206,,,,,,,,,,,,,,,,,,,,,,,,,,,,,,,,,,0,0,0,0,0,0,0,0,0,0,0,0,0,0,0,0,,,,,,,,,,,
242,2190949,1745077464226,0.0,182.5,,-0.04,-0.05,0.96,0.0,0.0,1.0,0.96,1.12,86.0,1509.0,2.7,3.61,,14.14,1.252,84.4,,15.8,5.0,,,,,,,,,,,,0,0,0,0,0,0,0,0,0,0,0,0,0,0,0,0,,,,,0.0,,,,,,
243,2190969,1745077464246,,,,,,,,,,,,,,,,,,,,,,,,,,,,,,,,,,0,0,0,0,0,0,0,0,0,0,0,0,0,0,0,0,,,,,,,,,,,
244,2190989,1745077464266,0.0,182.5,,-0.03,-0.06,0.97,0.0,0.0,1.0,0.98,1.12,87.0,1589.0,2.8,3.62,,13.96,1.252,84.4,,15.8,5.0,0.0,0.0,0.0,0.0,0.0,0.0,0.0,0.0,2.26,,,0,0,0,0,0,0,0,0,0,0,0,0,0,0,0,0,0.0,,,,0.0,39.239586,-77.9646,0.04,29.0,2.0,0.8
245,2191009,1745077464286,,,,,,,,,,,,,,,,,,,,,,,,,,,,,,,,,,0,0,0,0,0,0,0,0,0,0,0,0,0,0,0,0,,,,,,,,,,,
246,2191029,1745077464306,0.0,182.5,,-0.02,-0.06,0.99,0.0,0.0,1.0,0.99,1.12,89.0,1602.0,2.8,3.61,,14.07,1.251,84.4,,15.8,5.0,,,,,,,,,,,,0,0,0,0,0,0,0,0,0,0,0,0,0,0,0,0,,,,,0.0,,,,,,
247,2191049,1745077464326,,,,,,,,,,,,,,,,,,,,,,,,,,,,,,,,,,0,0,0,0,0,0,0,0,0,0,0,0,0,0,0,0,,,,,,,,,,,
248,2191069,1745077464346,0.0,182.38,,-0.01,-0.06,1.0,0.0,0.0,0.0,1.0,1.12,90.0,1522.0,2.8,3.61,,14.06,1.249,84.4,,15.8,5.0,,,,,,,,,,,,0,0,0,0,0,0,0,0,0,0,0,0,0,0,0,0,,,,,0.0,,,,,,
249,2191089,1745077464366,,,,,,,,,,,,,,,,,,,,,,,0.0,0.0,0.0,0.0,0.0,0.0,0.0,0.0,2.26,,,0,0,0,0,0,0,0,0,0,0,0,0,0,0,0,0,0.0,,,,,39.239586,-77.9646,0.05,29.0,2.0,0.8
250,2191109,1745077464386,0.0,182.5,,-0.01,-0.06,1.02,0.0,0.0,0.0,1.02,1.12,92.0,1598.0,2.7,3.61,,14.06,1.249,84.4,,16.7,5.0,,,,,,,,,,,,0,0,0,0,0,0,0,0,0,0,0,0,0,0,0,0,,,,,0.0,,,,,,
251,2191129,1745077464403,,,,,,,,,,,,,,,,,,,,,,,,,,,,,,,,,,0,0,0,0,0,0,0,0,0,0,0,0,0,0,0,0,,,,,,,,,,,
252,2191149,1745077464423,0.0,182.5,,-0.02,-0.05,1.04,0.0,0.0,0.0,1.04,1.12,94.0,1598.0,2.7,3.61,,14.02,1.249,84.4,,16.7,5.0,,,,,,,,,,,,0,0,0,0,0,0,0,0,0,0,0,0,0,0,0,0,,,,,0.0,,,,,,
253,2191169,1745077464443,,,,,,,,,,,,,,,,,,,,,,,,,,,,,,,,,,0,0,0,0,0,0,0,0,0,0,0,0,0,0,0,0,,,,,,,,,,,
254,2191189,1745077464463,0.0,182.38,,-0.05,-0.04,1.04,0.0,0.0,0.0,1.04,1.12,93.0,1606.0,2.6,3.62,,14.08,1.249,84.4,,16.3,5.0,0.0,0.0,0.0,0.0,0.0,0.0,0.0,0.0,2.27,,,0,0,0,0,0,0,0,0,0,0,0,0,0,0,0,0,0.0,,,,0.0,39.239586,-77.9646,0.0,29.0,2.0,0.8
255,2191209,1745077464483,,,,,,,,,,,,,,,,,,,,,,,,,,,,,,,,,,0,0,0,0,0,0,0,0,0,0,0,0,0,0,0,0,,,,,,,,,,,
256,2191229,1745077464503,0.0,182.5,,-0.07,-0.05,1.03,0.0,0.0,0.0,1.04,1.12,93.0,1522.0,2.6,3.62,,14.03,1.249,84.4,,16.3,5.0,,,,,,,,,,,,0,0,0,0,0,0,0,0,0,0,0,0,0,0,0,0,,,,,0.0,,,,,,
257,2191249,1745077464523,,,,,,,,,,,,,,,,,,,,,,,,,,,,,,,,,,0,0,0,0,0,0,0,0,0,0,0,0,0,0,0,0,,,,,,,,,,,
258,2191269,1745077464543,0.0,182.38,,-0.09,-0.06,1.03,0.0,0.0,0.0,1.03,1.12,93.0,1516.0,2.6,3.61,,14.06,1.25,84.4,,16.3,5.0,,,,,,,,,,,,0,0,0,0,0,0,0,0,0,0,0,0,0,0,0,0,,,,,0.0,,,,,,
259,2191289,1745077464563,,,,,,,,,,,,,,,,,,,,,,,0.0,0.0,0.0,0.0,0.0,0.0,0.0,0.0,2.27,,,0,0,0,0,0,0,0,0,0,0,0,0,0,0,0,0,0.0,,,,,39.239586,-77.9646,0.08,29.0,2.0,0.8
260,2191309,1745077464583,0.0,182.38,,-0.09,-0.05,1.04,0.0,0.0,0.0,1.05,1.12,94.0,1383.0,2.6,3.62,,14.06,1.25,84.4,,14.9,5.0,,,,,,,,,,,,0,0,0,0,0,0,0,0,0,0,0,0,0,0,0,0,,,,,0.0,,,,,,
261,2191329,1745077464603,,,,,,,,,,,,,,,,,,,,,,,,,,,,,,,,,,0,0,0,0,0,0,0,0,0,0,0,0,0,0,0,0,,,,,,,,,,,
262,2191349,1745077464623,0.0,182.38,,-0.11,-0.05,1.05,0.0,0.0,0.0,1.06,1.12,95.0,1383.0,2.6,3.62,,14.06,1.252,84.4,,14.9,5.0,,,,,,,,,,,,0,0,0,0,0,0,0,0,0,0,0,0,0,0,0,0,,,,,0.0,,,,,,
263,2191369,1745077464643,,,,,,,,,,,,,,,,,,,,,,,,,,,,,,,,,,0,0,0,0,0,0,0,0,0,0,0,0,0,0,0,0,,,,,,,,,,,
264,2191389,1745077464663,0.0,182.38,13.49,-0.11,-0.04,1.06,0.0,0.0,0.0,1.07,1.12,96.0,1483.0,2.6,3.6,15.0,14.07,1.252,84.4,138.0,15.6,5.0,0.0,0.0,0.0,0.0,0.0,0.0,0.0,0.0,2.26,0.0,0.0,0,0,0,0,0,0,0,0,0,0,0,0,0,0,0,0,0.0,0.0,0.0,0.0,0.0,39.239586,-77.9646,0.08,29.0,2.0,0.8
265,2191409,1745077464683,,,,,,,,,,,,,,,,,,,,,,,,,,,,,,,,,,0,0,0,0,0,0,0,0,0,0,0,0,0,0,0,0,,,,,,,,,,,
266,2191429,1745077464703,0.0,182.5,,-0.13,-0.03,1.06,0.0,0.0,0.0,1.07,1.12,96.0,1543.0,2.7,3.61,,14.0,1.253,84.4,,15.6,5.0,,,,,,,,,,,,0,0,0,0,0,0,0,0,0,0,0,0,0,0,0,0,,,,,0.0,,,,,,
267,2191449,1745077464723,,,,,,,,,,,,,,,,,,,,,,,,,,,,,,,,,,0,0,0,0,0,0,0,0,0,0,0,0,0,0,0,0,,,,,,,,,,,
268,2191469,1745077464743,0.0,182.38,,-0.14,-0.04,1.06,0.0,0.0,0.0,1.07,1.12,96.0,1468.0,2.8,3.61,,14.14,1.253,84.4,,15.6,5.0,,,,,,,,,,,,0,0,0,0,0,0,0,0,0,0,0,0,0,0,0,0,,,,,0.0,,,,,,
269,2191489,1745077464763,,,,,,,,,,,,,,,,,,,,,,,0.0,0.0,0.0,0.0,0.0,0.0,0.0,0.0,2.26,,,0,0,0,0,0,0,0,0,0,0,0,0,0,0,0,0,0.0,,,,,39.239586,-77.9646,0.04,29.0,2.0,0.8
270,2191509,1745077464783,0.0,182.38,,-0.14,-0.01,1.04,0.0,0.0,0.0,1.05,1.12,94.0,1807.0,2.8,3.6,,14.14,1.253,84.4,,16.4,5.0,,,,,,,,,,,,0,0,0,0,0,0,0,0,0,0,0,0,0,0,0,0,,,,,0.0,,,,,,
271,2191529,1745077464805,,,,,,,,,,,,,,,,,,,,,,,,,,,,,,,,,,0,0,0,0,0,0,0,0,0,0,0,0,0,0,0,0,,,,,,,,,,,
272,2191549,1745077464825,0.0,182.38,,-0.14,-0.02,1.03,0.0,0.0,0.0,1.03,1.12,93.0,1807.0,2.8,3.6,,13.98,1.251,84.4,,16.4,5.0,,,,,,,,,,,,0,0,0,0,0,0,0,0,0,0,0,0,0,0,0,0,,,,,0.0,,,,,,
273,2191569,1745077464845,,,,,,,,,,,,,,,,,,,,,,,,,,,,,,,,,,0,0,0,0,0,0,0,0,0,0,0,0,0,0,0,0,,,,,,,,,,,
274,2191589,1745077464865,0.0,182.38,,-0.13,-0.03,1.02,0.0,0.0,0.0,1.03,1.12,92.0,2014.0,2.8,3.58,,13.83,1.25,84.4,,20.4,5.0,0.0,0.0,0.0,0.0,0.0,0.0,0.0,0.0,2.27,,,0,0,0,0,0,0,0,0,0,0,0,0,0,0,0,0,0.0,,,,0.0,39.239586,-77.9646,0.0,29.0,2.0,0.8
275,2191609,1745077464885,,,,,,,,,,,,,,,,,,,,,,,,,,,,,,,,,,0,0,0,0,0,0,0,0,0,0,0,0,0,0,0,0,,,,,,,,,,,
276,2191629,1745077464905,0.0,182.38,,-0.12,-0.04,1.0,0.0,0.0,0.0,1.01,1.12,90.0,2099.0,2.7,3.58,,13.8,1.249,84.4,,20.4,5.0,,,,,,,,,,,,0,0,0,0,0,0,0,0,0,0,0,0,0,0,0,0,,,,,0.0,,,,,,
277,2191649,1745077464925,,,,,,,,,,,,,,,,,,,,,,,,,,,,,,,,,,0,0,0,0,0,0,0,0,0,0,0,0,0,0,0,0,,,,,,,,,,,
278,2191669,1745077464945,0.0,182.38,,-0.11,-0.06,0.99,0.0,0.0,0.0,0.99,1.12,89.0,2058.0,2.6,3.59,,13.84,1.249,84.4,,20.4,5.0,,,,,,,,,,,,0,0,0,0,0,0,0,0,0,0,0,0,0,0,0,0,,,,,0.0,,,,,,
279,2191689,1745077464965,,,,,,,,,,,,,,,,,,,,,,,0.0,0.0,0.0,0.0,0.0,0.0,0.0,0.0,2.26,,,0,0,0,0,0,0,0,0,0,0,0,0,0,0,0,0,0.0,,,,,39.239586,-77.9646,0.04,29.0,2.0,0.8
280,2191709,1745077464985,0.0,182.38,,-0.1,-0.08,0.99,0.0,0.0,0.0,1.0,1.12,90.0,1982.0,2.7,3.57,,13.84,1.249,84.4,,20.3,5.0,,,,,,,,,,,,0,0,0,0,0,0,0,0,0,0,0,0,0,0,0,0,,,,,0.0,,,,,,
281,2191729,1745077465005,,,,,,,,,,,,,,,,,,,,,,,,,,,,,,,,,,0,0,0,0,0,0,0,0,0,0,0,0,0,0,0,0,,,,,,,,,,,
282,2191749,1745077465015,0.0,182.38,,-0.09,-0.07,0.98,0.0,0.0,0.0,0.99,1.12,88.0,1982.0,2.7,3.57,,13.88,1.249,84.4,,20.3,5.0,,,,,,,,,,,,0,0,0,0,0,0,0,0,0,0,0,0,0,0,0,0,,,,,0.0,,,,,,
283,2191769,1745077465035,,,,,,,,,,,,,,,,,,,,,,,,,,,,,,,,,,0,0,0,0,0,0,0,0,0,0,0,0,0,0,0,0,,,,,,,,,,,
284,2191789,1745077465055,0.0,182.38,,-0.09,-0.07,1.0,0.0,0.0,0.0,1.0,1.12,90.0,1817.0,2.6,3.58,,13.91,1.25,84.4,,19.8,5.0,0.0,0.0,0.0,0.0,0.0,0.0,0.0,0.0,2.26,,,0,0,0,0,0,0,0,0,0,0,0,0,0,0,0,0,0.0,,,,0.0,39.239586,-77.9646,0.0,29.0,2.0,0.8
285,2191809,1745077465075,,,,,,,,,,,,,,,,,,,,,,,,,,,,,,,,,,0,0,0,0,0,0,0,0,0,0,0,0,0,0,0,0,,,,,,,,,,,
286,2191829,1745077465102,0.0,182.38,,-0.1,-0.08,0.99,0.0,0.0,0.0,1.0,1.12,89.0,1890.0,2.6,3.6,,13.82,1.248,84.4,,19.8,5.0,,,,,,,,,,,,0,0,0,0,0,0,0,0,0,0,0,0,0,0,0,0,,,,,0.0,,,,,,
287,2191849,1745077465122,,,,,,,,,,,,,,,,,,,,,,,,,,,,,,,,,,0,0,0,0,0,0,0,0,0,0,0,0,0,0,0,0,,,,,,,,,,,
288,2191869,1745077465142,0.0,182.25,,-0.08,-0.07,1.0,0.0,0.0,0.0,1.01,1.12,90.0,1911.0,2.7,3.59,,13.86,1.25,84.4,,19.8,5.0,,,,,,,,,,,,0,0,0,0,0,0,0,0,0,0,0,0,0,0,0,0,,,,,0.0,,,,,,
289,2191889,1745077465162,,,,,,,,,,,,,,,,,,,,,,,0.0,0.0,0.0,0.0,0.0,0.0,0.0,0.0,2.26,,,0,0,0,0,0,0,0,0,0,0,0,0,0,0,0,0,0.0,,,,,39.239586,-77.9646,0.05,29.0,2.0,0.8
290,2191909,1745077465182,0.0,182.25,,-0.09,-0.07,1.01,0.0,0.0,0.0,1.01,1.12,91.0,1882.0,2.8,3.6,,13.86,1.25,84.4,,18.7,5.0,,,,,,,,,,,,0,0,0,0,0,0,0,0,0,0,0,0,0,0,0,0,,,,,0.0,,,,,,
291,2191929,1745077465203,,,,,,,,,,,,,,,,,,,,,,,,,,,,,,,,,,0,0,0,0,0,0,0,0,0,0,0,0,0,0,0,0,,,,,,,,,,,
292,2191949,1745077465223,0.0,182.25,,-0.07,-0.08,1.0,0.0,0.0,0.0,1.01,1.12,90.0,1882.0,2.8,3.6,,13.91,1.252,84.4,,18.7,5.0,,,,,,,,,,,,0,0,0,0,0,0,0,0,0,0,0,0,0,0,0,0,,,,,0.0,,,,,,
293,2191969,1745077465243,,,,,,,,,,,,,,,,,,,,,,,,,,,,,,,,,,0,0,0,0,0,0,0,0,0,0,0,0,0,0,0,0,,,,,,,,,,,
294,2191989,1745077465263,0.0,182.25,,-0.07,-0.07,1.0,0.0,0.0,0.0,1.0,1.12,90.0,1806.0,2.9,3.57,,13.96,1.253,84.4,,19.1,5.0,0.0,0.0,0.0,0.0,0.0,0.0,0.0,0.0,2.26,,,0,0,0,0,0,0,0,0,0,0,0,0,0,0,0,0,0.0,,,,0.0,39.239586,-77.9646,0.07,29.0,2.0,0.8
295,2192009,1745077465283,,,,,,,,,,,,,,,,,,,,,,,,,,,,,,,,,,0,0,0,0,0,0,0,0,0,0,0,0,0,0,0,0,,,,,,,,,,,
296,2192029,1745077465305,0.0,182.25,,-0.07,-0.05,0.99,0.0,0.0,0.0,1.0,1.12,89.0,1760.0,2.9,3.61,,13.91,1.251,84.4,,19.1,5.0,,,,,,,,,,,,0,0,0,0,0,0,0,0,0,0,0,0,0,0,0,0,,,,,0.0,,,,,,
297,2192049,1745077465325,,,,,,,,,,,,,,,,,,,,,,,,,,,,,,,,,,0,0,0,0,0,0,0,0,0,0,0,0,0,0,0,0,,,,,,,,,,,
298,2192069,1745077465345,0.0,182.25,,-0.07,-0.06,1.01,0.0,0.0,0.0,1.02,1.12,91.0,1850.0,2.8,3.61,,13.91,1.25,84.4,,19.1,5.0,,,,,,,,,,,,0,0,0,0,0,0,0,0,0,0,0,0,0,0,0,0,,,,,0.0,,,,,,
299,2192089,1745077465365,,,,,,,,,,,,,,,,,,,,,,,0.0,0.0,0.0,0.0,0.0,0.0,0.0,0.0,2.26,,,0,0,0,0,0,0,0,0,0,0,0,0,0,0,0,0,0.0,,,,,39.239586,-77.9646,0.05,29.0,2.0,0.8
300,2192109,1745077465385,0.0,182.25,,-0.09,-0.06,1.01,0.0,0.0,0.0,1.01,1.12,91.0,1770.0,2.7,3.57,,13.91,1.25,84.4,,18.2,5.0,,,,,,,,,,,,0,0,0,0,0,0,0,0,0,0,0,0,0,0,0,0,,,,,0.0,,,,,,
301,2192129,1745077465402,,,,,,,,,,,,,,,,,,,,,,,,,,,,,,,,,,0,0,0,0,0,0,0,0,0,0,0,0,0,0,0,0,,,,,,,,,,,
302,2192149,1745077465422,0.0,182.25,,-0.1,-0.04,1.0,0.0,0.0,0.0,1.0,1.12,90.0,1770.0,2.7,3.57,,13.91,1.249,84.4,,18.2,5.0,,,,,,,,,,,,0,0,0,0,0,0,0,0,0,0,0,0,0,0,0,0,,,,,0.0,,,,,,
303,2192169,1745077465442,,,,,,,,,,,,,,,,,,,,,,,,,,,,,,,,,,0,0,0,0,0,0,0,0,0,0,0,0,0,0,0,0,,,,,,,,,,,
304,2192189,1745077465462,0.0,182.25,,-0.11,-0.03,0.98,0.0,0.0,0.0,0.99,1.12,89.0,1409.0,2.7,3.62,,14.08,1.249,84.4,,17.4,5.0,0.0,0.0,0.0,0.0,0.0,0.0,0.0,0.0,2.27,,,0,0,0,0,0,0,0,0,0,0,0,0,0,0,0,0,0.0,,,,0.0,39.239586,-77.9646,0.04,29.0,2.0,0.8
305,2192209,1745077465482,,,,,,,,,,,,,,,,,,,,,,,,,,,,,,,,,,0,0,0,0,0,0,0,0,0,0,0,0,0,0,0,0,,,,,,,,,,,
306,2192229,1745077465502,0.0,182.25,,-0.09,-0.04,0.98,0.0,0.0,0.0,0.98,1.12,88.0,1791.0,2.7,3.63,,13.96,1.249,84.4,,17.4,5.0,,,,,,,,,,,,0,0,0,0,0,0,0,0,0,0,0,0,0,0,0,0,,,,,0.0,,,,,,
307,2192249,1745077465522,,,,,,,,,,,,,,,,,,,,,,,,,,,,,,,,,,0,0,0,0,0,0,0,0,0,0,0,0,0,0,0,0,,,,,,,,,,,
308,2192269,1745077465542,0.0,182.25,,-0.09,-0.04,0.98,0.0,0.0,0.0,0.98,1.12,88.0,1822.0,2.7,3.6,,13.98,1.25,84.4,,17.4,5.0,,,,,,,,,,,,0,0,0,0,0,0,0,0,0,0,0,0,0,0,0,0,,,,,0.0,,,,,,
309,2192289,1745077465562,,,,,,,,,,,,,,,,,,,,,,,0.0,0.0,0.0,0.0,0.0,0.0,0.0,0.0,2.27,,,0,0,0,0,0,0,0,0,0,0,0,0,0,0,0,0,0.0,,,,,39.239586,-77.9646,0.04,29.0,2.0,0.8
310,2192309,1745077465582,0.0,182.25,,-0.08,-0.05,0.98,0.0,0.0,0.0,0.98,1.12,88.0,1790.0,2.7,3.6,,13.98,1.25,84.4,,18.3,5.0,,,,,,,,,,,,0,0,0,0,0,0,0,0,0,0,0,0,0,0,0,0,,,,,0.0,,,,,,
311,2192329,1745077465604,,,,,,,,,,,,,,,,,,,,,,,,,,,,,,,,,,0,0,0,0,0,0,0,0,0,0,0,0,0,0,0,0,,,,,,,,,,,
312,2192349,1745077465624,0.0,182.25,,-0.09,-0.05,0.99,0.0,0.0,0.0,0.99,1.12,89.0,1790.0,2.7,3.6,,14.03,1.252,84.4,,18.3,5.0,,,,,,,,,,,,0,0,0,0,0,0,0,0,0,0,0,0,0,0,0,0,,,,,0.0,,,,,,
313,2192369,1745077465644,,,,,,,,,,,,,,,,,,,,,,,,,,,,,,,,,,0,0,0,0,0,0,0,0,0,0,0,0,0,0,0,0,,,,,,,,,,,
314,2192389,1745077465664,0.0,182.13,13.55,-0.09,-0.05,0.98,0.0,0.0,0.0,0.98,1.12,88.0,1824.0,2.7,3.57,15.0,13.99,1.253,84.4,138.0,19.1,5.0,0.0,0.0,0.0,0.0,0.0,0.0,0.0,0.0,2.26,0.0,0.0,0,0,0,0,0,0,0,0,0,0,0,0,0,0,0,0,0.0,0.0,0.0,0.0,0.0,39.239586,-77.9646,0.04,29.0,2.0,0.8
315,2192409,1745077465684,,,,,,,,,,,,,,,,,,,,,,,,,,,,,,,,,,0,0,0,0,0,0,0,0,0,0,0,0,0,0,0,0,,,,,,,,,,,
316,2192429,1745077465704,0.0,182.25,,-0.09,-0.04,1.0,0.0,0.0,0.0,1.0,1.12,90.0,1893.0,2.7,3.59,,13.87,1.253,84.4,,19.1,5.0,,,,,,,,,,,,0,0,0,0,0,0,0,0,0,0,0,0,0,0,0,0,,,,,0.0,,,,,,
317,2192449,1745077465724,,,,,,,,,,,,,,,,,,,,,,,,,,,,,,,,,,0,0,0,0,0,0,0,0,0,0,0,0,0,0,0,0,,,,,,,,,,,
318,2192469,1745077465744,0.0,182.13,,-0.08,-0.05,0.99,0.0,0.0,0.0,0.99,1.12,89.0,1906.0,2.8,3.59,,13.86,1.252,84.4,,19.1,5.0,,,,,,,,,,,,0,0,0,0,0,0,0,0,0,0,0,0,0,0,0,0,,,,,0.0,,,,,,
319,2192489,1745077465764,,,,,,,,,,,,,,,,,,,,,,,0.0,0.0,0.0,0.0,0.0,0.0,0.0,0.0,2.26,,,0,0,0,0,0,0,0,0,0,0,0,0,0,0,0,0,0.0,,,,,39.239586,-77.9646,0.04,29.0,2.0,0.8
320,2192509,1745077465784,0.0,182.25,,-0.08,-0.05,0.99,0.0,0.0,0.0,1.0,1.12,89.0,1836.0,2.9,3.57,,13.86,1.252,84.4,,18.8,5.0,,,,,,,,,,,,0,0,0,0,0,0,0,0,0,0,0,0,0,0,0,0,,,,,0.0,,,,,,
321,2192529,1745077465804,,,,,,,,,,,,,,,,,,,,,,,,,,,,,,,,,,0,0,0,0,0,0,0,0,0,0,0,0,0,0,0,0,,,,,,,,,,,
322,2192549,1745077465824,0.0,182.13,,-0.08,-0.05,0.98,0.0,0.0,0.0,0.98,1.12,88.0,1836.0,2.9,3.57,,13.9,1.251,84.4,,18.8,5.0,,,,,,,,,,,,0,0,0,0,0,0,0,0,0,0,0,0,0,0,0,0,,,,,0.0,,,,,,
323,2192569,1745077465844,,,,,,,,,,,,,,,,,,,,,,,,,,,,,,,,,,0,0,0,0,0,0,0,0,0,0,0,0,0,0,0,0,,,,,,,,,,,
324,2192589,1745077465864,0.0,182.13,,-0.08,-0.06,1.0,0.0,0.0,0.0,1.0,1.12,90.0,1792.0,2.9,3.57,,13.92,1.249,84.4,,19.0,5.0,0.0,0.0,0.0,0.0,0.0,0.0,0.0,0.0,2.26,,,0,0,0,0,0,0,0,0,0,0,0,0,0,0,0,0,0.0,,,,0.0,39.239586,-77.9646,0.04,29.0,2.0,0.8
325,2192609,1745077465884,,,,,,,,,,,,,,,,,,,,,,,,,,,,,,,,,,0,0,0,0,0,0,0,0,0,0,0,0,0,0,0,0,,,,,,,,,,,
326,2192629,1745077465906,0.0,182.13,,-0.09,-0.04,0.98,0.0,0.0,0.0,0.98,1.12,88.0,1828.0,2.7,3.6,,13.86,1.249,84.4,,19.0,5.0,,,,,,,,,,,,0,0,0,0,0,0,0,0,0,0,0,0,0,0,0,0,,,,,0.0,,,,,,
327,2192649,1745077465926,,,,,,,,,,,,,,,,,,,,,,,,,,,,,,,,,,0,0,0,0,0,0,0,0,0,0,0,0,0,0,0,0,,,,,,,,,,,
328,2192669,1745077465946,0.0,182.13,,-0.08,-0.04,0.99,0.0,0.0,0.0,1.0,1.12,89.0,1874.0,2.7,3.6,,13.87,1.249,84.4,,19.0,5.0,,,,,,,,,,,,0,0,0,0,0,0,0,0,0,0,0,0,0,0,0,0,,,,,0.0,,,,,,
329,2192689,1745077465966,,,,,,,,,,,,,,,,,,,,,,,0.0,0.0,0.0,0.0,0.0,0.0,0.0,0.0,2.26,,,0,0,0,0,0,0,0,0,0,0,0,0,0,0,0,0,0.0,,,,,39.239586,-77.9646,0.0,29.0,2.0,0.8
330,2192709,1745077465986,0.0,182.13,,-0.08,-0.04,1.0,0.0,0.0,0.0,1.0,1.12,90.0,1878.0,2.7,3.6,,13.87,1.249,84.4,,18.5,5.0,,,,,,,,,,,,0,0,0,0,0,0,0,0,0,0,0,0,0,0,0,0,,,,,0.0,,,,,,
331,2192729,1745077466006,,,,,,,,,,,,,,,,,,,,,,,,,,,,,,,,,,0,0,0,0,0,0,0,0,0,0,0,0,0,0,0,0,,,,,,,,,,,
332,2192749,1745077466016,0.0,182.13,,-0.07,-0.05,0.99,0.0,0.0,0.0,1.0,1.12,90.0,1878.0,2.7,3.6,,13.91,1.249,84.4,,18.5,5.0,,,,,,,,,,,,0,0,0,0,0,0,0,0,0,0,0,0,0,0,0,0,,,,,0.0,,,,,,
333,2192769,1745077466036,,,,,,,,,,,,,,,,,,,,,,,,,,,,,,,,,,0,0,0,0,0,0,0,0,0,0,0,0,0,0,0,0,,,,,,,,,,,
334,2192789,1745077466056,0.0,182.0,,-0.07,-0.04,0.99,0.0,0.0,0.0,1.0,1.12,89.0,1813.0,2.7,3.59,,13.98,1.25,84.4,,19.2,5.0,0.0,0.0,0.0,0.0,0.0,0.0,0.0,0.0,2.26,,,0,0,0,0,0,0,0,0,0,0,0,0,0,0,0,0,0.0,,,,0.0,39.239586,-77.9646,0.04,29.0,2.0,0.8
335,2192809,1745077466076,,,,,,,,,,,,,,,,,,,,,,,,,,,,,,,,,,0,0,0,0,0,0,0,0,0,0,0,0,0,0,0,0,,,,,,,,,,,
336,2192829,1745077466104,0.0,182.0,,-0.06,-0.05,0.99,0.0,0.0,0.0,0.99,1.12,89.0,2011.0,2.7,3.58,,13.9,1.252,84.4,,19.2,5.0,,,,,,,,,,,,0,0,0,0,0,0,0,0,0,0,0,0,0,0,0,0,,,,,0.0,,,,,,
337,2192849,1745077466124,,,,,,,,,,,,,,,,,,,,,,,,,,,,,,,,,,0,0,0,0,0,0,0,0,0,0,0,0,0,0,0,0,,,,,,,,,,,
338,2192869,1745077466144,0.0,182.0,,-0.05,-0.05,0.98,0.0,0.0,0.0,0.99,1.12,89.0,2120.0,2.7,3.55,,13.76,1.253,84.4,,19.2,5.0,,,,,,,,,,,,0,0,0,0,0,0,0,0,0,0,0,0,0,0,0,0,,,,,0.0,,,,,,
339,2192889,1745077466164,,,,,,,,,,,,,,,,,,,,,,,0.0,0.0,0.0,0.0,0.0,0.0,0.0,0.0,2.26,,,0,0,0,0,0,0,0,0,0,0,0,0,0,0,0,0,0.0,,,,,39.239586,-77.9646,0.08,29.0,2.0,0.8
340,2192909,1745077466184,0.0,182.0,,-0.04,-0.08,0.99,0.0,0.0,0.0,1.0,1.12,89.0,2237.0,2.8,3.57,,13.76,1.253,84.4,,22.2,5.0,,,,,,,,,,,,0,0,0,0,0,0,0,0,0,0,0,0,0,0,0,0,,,,,0.0,,,,,,
341,2192929,1745077466204,,,,,,,,,,,,,,,,,,,,,,,,,,,,,,,,,,0,0,0,0,0,0,0,0,0,0,0,0,0,0,0,0,,,,,,,,,,,
342,2192949,1745077466224,0.0,182.0,,-0.05,-0.07,1.0,0.0,0.0,0.0,1.0,1.12,90.0,2237.0,2.8,3.57,,13.71,1.253,84.4,,22.2,5.0,,,,,,,,,,,,0,0,0,0,0,0,0,0,0,0,0,0,0,0,0,0,,,,,0.0,,,,,,
343,2192969,1745077466244,,,,,,,,,,,,,,,,,,,,,,,,,,,,,,,,,,0,0,0,0,0,0,0,0,0,0,0,0,0,0,0,0,,,,,,,,,,,
344,2192989,1745077466264,0.0,182.0,,-0.06,-0.06,1.01,0.0,0.0,0.0,1.01,1.12,91.0,2247.0,2.9,3.56,,13.72,1.253,84.4,,22.6,5.0,0.0,0.0,0.0,0.0,0.0,0.0,0.0,0.0,2.26,,,0,0,0,0,0,0,0,0,0,0,0,0,0,0,0,0,0.0,,,,0.0,39.239586,-77.9646,0.05,29.0,2.0,0.8
345,2193009,1745077466284,,,,,,,,,,,,,,,,,,,,,,,,,,,,,,,,,,0,0,0,0,0,0,0,0,0,0,0,0,0,0,0,0,,,,,,,,,,,
346,2193029,1745077466304,0.0,182.0,,-0.06,-0.05,1.0,0.0,0.0,0.0,1.01,1.12,90.0,2291.0,2.9,3.54,,13.68,1.252,84.4,,22.6,5.0,,,,,,,,,,,,0,0,0,0,0,0,0,0,0,0,0,0,0,0,0,0,,,,,0.0,,,,,,
347,2193049,1745077466324,,,,,,,,,,,,,,,,,,,,,,,,,,,,,,,,,,0,0,0,0,0,0,0,0,0,0,0,0,0,0,0,0,,,,,,,,,,,
348,2193069,1745077466344,0.0,181.88,,-0.06,-0.04,0.99,0.0,0.0,0.0,0.99,1.12,89.0,2291.0,2.9,3.57,,13.65,1.25,84.4,,22.6,5.0,,,,,,,,,,,,0,0,0,0,0,0,0,0,0,0,0,0,0,0,0,0,,,,,0.0,,,,,,
349,2193089,1745077466364,,,,,,,,,,,,,,,,,,,,,,,0.0,0.0,0.0,0.0,0.0,0.0,0.0,0.0,2.26,,,0,0,0,0,0,0,0,0,0,0,0,0,0,0,0,0,0.0,,,,,39.239586,-77.9646,0.04,29.0,2.0,0.8
350,2193109,1745077466384,0.0,182.0,,-0.06,-0.03,0.99,0.0,0.0,0.0,0.99,1.12,89.0,2293.0,2.8,3.56,,13.65,1.25,84.4,,22.9,5.0,,,,,,,,,,,,0,0,0,0,0,0,0,0,0,0,0,0,0,0,0,0,,,,,0.0,,,,,,
351,2193129,1745077466405,,,,,,,,,,,,,,,,,,,,,,,,,,,,,,,,,,0,0,0,0,0,0,0,0,0,0,0,0,0,0,0,0,,,,,,,,,,,
352,2193149,1745077466425,0.0,182.0,,-0.07,-0.02,1.01,0.0,0.0,0.0,1.01,1.12,90.0,2293.0,2.8,3.56,,13.68,1.25,84.4,,22.9,5.0,,,,,,,,,,,,0,0,0,0,0,0,0,0,0,0,0,0,0,0,0,0,,,,,0.0,,,,,,
353,2193169,1745077466445,,,,,,,,,,,,,,,,,,,,,,,,,,,,,,,,,,0,0,0,0,0,0,0,0,0,0,0,0,0,0,0,0,,,,,,,,,,,
354,2193189,1745077466465,0.0,182.0,,-0.07,-0.02,1.0,0.0,0.0,0.0,1.0,1.12,90.0,2270.0,2.7,3.56,,13.72,1.25,84.4,,22.7,5.0,0.0,0.0,0.0,0.0,0.0,0.0,0.0,0.0,2.27,,,0,0,0,0,0,0,0,0,0,0,0,0,0,0,0,0,0.0,,,,0.0,39.239586,-77.9646,0.04,29.0,2.0,0.8
355,2193209,1745077466485,,,,,,,,,,,,,,,,,,,,,,,,,,,,,,,,,,0,0,0,0,0,0,0,0,0,0,0,0,0,0,0,0,,,,,,,,,,,
356,2193229,1745077466503,0.0,182.0,,-0.06,-0.02,0.99,0.0,0.0,0.0,0.99,1.12,89.0,2289.0,2.7,3.56,,13.69,1.249,84.4,,22.7,5.0,,,,,,,,,,,,0,0,0,0,0,0,0,0,0,0,0,0,0,0,0,0,,,,,0.0,,,,,,
357,2193249,1745077466523,,,,,,,,,,,,,,,,,,,,,,,,,,,,,,,,,,0,0,0,0,0,0,0,0,0,0,0,0,0,0,0,0,,,,,,,,,,,
358,2193269,1745077466543,0.0,182.0,,-0.06,-0.0,0.99,0.0,0.0,0.0,0.99,1.12,89.0,2227.0,2.7,3.54,,13.69,1.251,84.4,,22.7,5.0,,,,,,,,,,,,0,0,0,0,0,0,0,0,0,0,0,0,0,0,0,0,,,,,0.0,,,,,,
359,2193289,1745077466563,,,,,,,,,,,,,,,,,,,,,,,0.0,0.0,0.0,0.0,0.0,0.0,0.0,0.0,2.27,,,0,0,0,0,0,0,0,0,0,0,0,0,0,0,0,0,0.0,,,,,39.239586,-77.9646,0.04,29.0,2.0,0.8
360,2193309,1745077466583,0.0,182.0,,-0.07,0.0,1.0,0.0,0.0,0.0,1.0,1.12,90.0,2256.0,2.7,3.54,,13.69,1.251,84.4,,23.4,5.0,,,,,,,,,,,,0,0,0,0,0,0,0,0,0,0,0,0,0,0,0,0,,,,,0.0,,,,,,
361,2193329,1745077466605,,,,,,,,,,,,,,,,,,,,,,,,,,,,,,,,,,0,0,0,0,0,0,0,0,0,0,0,0,0,0,0,0,,,,,,,,,,,
362,2193349,1745077466625,0.0,181.88,,-0.06,0.01,1.0,0.0,0.0,0.0,1.0,1.12,89.0,2256.0,2.7,3.54,,13.68,1.252,84.4,,23.4,5.0,,,,,,,,,,,,0,0,0,0,0,0,0,0,0,0,0,0,0,0,0,0,,,,,0.0,,,,,,
363,2193369,1745077466645,,,,,,,,,,,,,,,,,,,,,,,,,,,,,,,,,,0,0,0,0,0,0,0,0,0,0,0,0,0,0,0,0,,,,,,,,,,,
364,2193389,1745077466665,0.0,182.0,13.55,-0.06,-0.02,1.0,0.0,0.0,0.0,1.0,1.12,90.0,2298.0,2.7,3.53,15.0,13.72,1.253,84.4,138.0,23.4,5.0,0.0,0.0,0.0,0.0,0.0,0.0,0.0,0.0,2.26,0.0,0.0,0,0,0,0,0,0,0,0,0,0,0,0,0,0,0,0,0.0,0.0,0.0,0.0,0.0,39.239586,-77.9646,0.0,29.0,2.0,0.8
365,2193409,1745077466685,,,,,,,,,,,,,,,,,,,,,,,,,,,,,,,,,,0,0,0,0,0,0,0,0,0,0,0,0,0,0,0,0,,,,,,,,,,,
366,2193429,1745077466705,0.0,182.0,,-0.06,-0.04,1.0,0.0,0.0,0.0,1.01,1.12,90.0,2202.0,2.9,3.54,,13.77,1.252,84.4,,23.4,5.0,,,,,,,,,,,,0,0,0,0,0,0,0,0,0,0,0,0,0,0,0,0,,,,,0.0,,,,,,
367,2193449,1745077466725,,,,,,,,,,,,,,,,,,,,,,,,,,,,,,,,,,0,0,0,0,0,0,0,0,0,0,0,0,0,0,0,0,,,,,,,,,,,
368,2193469,1745077466745,0.0,181.88,,-0.08,-0.04,0.99,0.0,0.0,0.0,0.99,1.12,89.0,2212.0,3.0,3.54,,13.72,1.253,84.4,,23.4,5.0,,,,,,,,,,,,0,0,0,0,0,0,0,0,0,0,0,0,0,0,0,0,,,,,0.0,,,,,,
369,2193489,1745077466765,,,,,,,,,,,,,,,,,,,,,,,0.0,0.0,0.0,0.0,0.0,0.0,0.0,0.0,2.26,,,0,0,0,0,0,0,0,0,0,0,0,0,0,0,0,0,0.0,,,,,39.239586,-77.9646,0.08,29.0,2.0,0.8
370,2193509,1745077466785,0.0,182.0,,-0.07,-0.04,0.98,0.0,0.0,0.0,0.98,1.12,88.0,2245.0,3.0,3.54,,13.72,1.253,84.4,,23.5,5.0,,,,,,,,,,,,0,0,0,0,0,0,0,0,0,0,0,0,0,0,0,0,,,,,0.0,,,,,,
371,2193529,1745077466803,,,,,,,,,,,,,,,,,,,,,,,,,,,,,,,,,,0,0,0,0,0,0,0,0,0,0,0,0,0,0,0,0,,,,,,,,,,,
372,2193549,1745077466823,0.0,181.88,,-0.06,-0.05,0.99,0.0,0.0,0.0,0.99,1.12,89.0,2245.0,3.0,3.54,,13.72,1.251,84.4,,23.5,5.0,,,,,,,,,,,,0,0,0,0,0,0,0,0,0,0,0,0,0,0,0,0,,,,,0.0,,,,,,
373,2193569,1745077466843,,,,,,,,,,,,,,,,,,,,,,,,,,,,,,,,,,0,0,0,0,0,0,0,0,0,0,0,0,0,0,0,0,,,,,,,,,,,
374,2193589,1745077466863,0.0,181.88,,-0.06,-0.07,0.98,0.0,0.0,0.0,0.99,1.12,88.0,2233.0,6.6,3.66,,13.8,1.25,84.4,,24.0,5.0,0.0,0.0,0.0,0.0,0.0,0.0,0.0,0.0,2.26,,,0,0,0,0,0,0,0,0,0,0,0,0,0,0,0,0,0.0,,,,0.0,39.239586,-77.9646,0.05,29.0,2.0,0.8
375,2193609,1745077466883,,,,,,,,,,,,,,,,,,,,,,,,,,,,,,,,,,0,0,0,0,0,0,0,0,0,0,0,0,0,0,0,0,,,,,,,,,,,
376,2193629,1745077466905,0.0,181.88,,-0.07,-0.06,0.98,0.0,0.0,0.0,0.98,1.12,88.0,2288.0,7.9,3.64,,13.9,1.25,84.4,,24.0,5.0,,,,,,,,,,,,0,0,0,0,0,0,0,0,0,0,0,0,0,0,0,0,,,,,0.0,,,,,,
377,2193649,1745077466925,,,,,,,,,,,,,,,,,,,,,,,,,,,,,,,,,,0,0,0,0,0,0,0,0,0,0,0,0,0,0,0,0,,,,,,,,,,,
378,2193669,1745077466945,0.0,181.88,,-0.07,-0.08,1.0,0.0,0.0,0.0,1.0,1.12,90.0,2378.0,8.3,3.67,,13.87,1.251,84.4,,24.0,5.0,,,,,,,,,,,,0,0,0,0,0,0,0,0,0,0,0,0,0,0,0,0,,,,,0.0,,,,,,
379,2193689,1745077466965,,,,,,,,,,,,,,,,,,,,,,,0.0,0.0,0.0,0.0,0.0,0.0,0.0,0.0,2.26,,,0,0,0,0,0,0,0,0,0,0,0,0,0,0,0,0,0.0,,,,,39.239586,-77.9646,0.04,29.0,2.0,0.8
380,2193709,1745077466985,0.0,181.88,,-0.08,-0.1,0.99,0.0,0.0,0.0,1.0,1.12,90.0,2444.0,8.5,3.7,,13.87,1.251,84.4,,25.6,5.0,,,,,,,,,,,,0,0,0,0,0,0,0,0,0,0,0,0,0,0,0,0,,,,,0.0,,,,,,
381,2193729,1745077467005,,,,,,,,,,,,,,,,,,,,,,,,,,,,,,,,,,0,0,0,0,0,0,0,0,0,0,0,0,0,0,0,0,,,,,,,,,,,
382,2193749,1745077467015,0.0,181.88,,-0.08,-0.09,0.99,0.0,0.0,0.0,1.0,1.12,90.0,2444.0,8.5,3.7,,13.86,1.25,84.4,,25.6,5.0,,,,,,,,,,,,0,0,0,0,0,0,0,0,0,0,0,0,0,0,0,0,,,,,0.0,,,,,,
383,2193769,1745077467035,,,,,,,,,,,,,,,,,,,,,,,,,,,,,,,,,,0,0,0,0,0,0,0,0,0,0,0,0,0,0,0,0,,,,,,,,,,,
