,Interval,Utc,FrontBP,SteerAng,Battery,AccelX,AccelY,AccelZ,Yaw,Pitch,Roll,Gsum,GsumMax,GsumPct,RPM,TPS,InjectorPW,Baro,MAP,Lambda,IAT,EngineTemp,EOP,EOT,WSFR,WSFL,WSRR,WSRL,TCSet,TCSlip,TCComp,TCCut,Analog8,OilTemp,AA_On,ThermLF1,ThermLF2,ThermRR1,ThermRR2,ThermLF3,ThermLF4,ThermLF5,ThermLF6,ThermLF7,ThermLF8,ThermRR3,ThermRR4,ThermRR5,ThermRR6,ThermRR7,ThermRR8,Gear,AA_On1,AA_LowDrag,Fuel_Mix,AA_Packages,Latitude,Longitude,Speed,GPSSats,GPSQual,GPSDOP
0,2335709,1745077608987,0.0,181.25,,-0.09,-0.05,0.96,1.0,0.0,0.0,0.97,0.97,100.0,3623.0,10.0,3.89,,13.24,1.212,82.6,,31.5,5.0,,,,,,,,,,,,0,0,0,0,0,0,0,0,0,0,0,0,0,0,0,0,,,,,0.0,,,,,,
1,2335729,1745077609007,,,,,,,,,,,,,,,,,,,,,,,,,,,,,,,,,,0,0,0,0,0,0,0,0,0,0,0,0,0,0,0,0,,,,,,,,,,,
2,2335749,1745077609019,0.0,181.5,,-0.08,-0.07,0.97,0.0,0.0,0.0,0.97,0.97,100.0,3755.0,10.2,3.88,,13.24,1.212,82.6,,31.5,5.0,,,,,,,,,,,,0,0,0,0,0,0,0,0,0,0,0,0,0,0,0,0,,,,,0.0,,,,,,
3,2335769,1745077609039,,,,,,,,,,,,,,,,,,,,,,,,,,,,,,,,,,0,0,0,0,0,0,0,0,0,0,0,0,0,0,0,0,,,,,,,,,,,
4,2335789,1745077609059,0.0,181.5,,-0.07,-0.06,0.98,0.0,0.0,0.0,0.98,0.98,100.0,3755.0,10.2,3.88,,13.19,1.238,82.6,,34.6,5.0,0.0,0.0,0.0,0.0,0.0,0.0,0.0,0.0,2.25,,,0,0,0,0,0,0,0,0,0,0,0,0,0,0,0,0,0.0,,,,0.0,39.240173,-77.965271,0.04,29.0,3.0,0.8
5,2335809,1745077609079,,,,,,,,,,,,,,,,,,,,,,,,,,,,,,,,,,0,0,0,0,0,0,0,0,0,0,0,0,0,0,0,0,,,,,,,,,,,
6,2335829,1745077609104,0.0,181.5,,-0.07,-0.0,1.08,-1.0,0.0,1.0,1.08,1.08,100.0,3935.0,10.4,3.87,,13.07,1.251,82.6,,34.6,5.0,,,,,,,,,,,,0,0,0,0,0,0,0,0,0,0,0,0,0,0,0,0,,,,,0.0,,,,,,
7,2335849,1745077609124,,,,,,,,,,,,,,,,,,,,,,,,,,,,,,,,,,0,0,0,0,0,0,0,0,0,0,0,0,0,0,0,0,,,,,,,,,,,
8,2335869,1745077609144,0.0,181.5,,-0.07,-0.1,1.01,0.0,0.0,0.0,1.01,1.08,93.0,4028.0,10.5,3.85,,13.0,1.194,82.6,,34.6,5.0,,,,,,,,,,,,0,0,0,0,0,0,0,0,0,0,0,0,0,0,0,0,,,,,0.0,,,,,,
9,2335889,1745077609164,,,,,,,,,,,,,,,,,,,,,,,0.0,0.0,0.0,0.0,0.0,0.0,0.0,0.0,2.26,,,0,0,0,0,0,0,0,0,0,0,0,0,0,0,0,0,0.0,,,,,39.240173,-77.965271,0.07,29.0,3.0,0.8
10,2335909,1745077609184,0.0,181.5,,-0.04,-0.02,1.05,0.0,0.0,1.0,1.05,1.08,97.0,4017.0,10.5,3.85,,13.01,1.154,82.6,,36.0,5.0,,,,,,,,,,,,0,0,0,0,0,0,0,0,0,0,0,0,0,0,0,0,,,,,0.0,,,,,,
11,2335929,1745077609207,,,,,,,,,,,,,,,,,,,,,,,,,,,,,,,,,,0,0,0,0,0,0,0,0,0,0,0,0,0,0,0,0,,,,,,,,,,,
12,2335949,1745077609227,0.0,181.5,,-0.05,-0.09,1.03,0.0,0.0,0.0,1.03,1.08,95.0,4111.0,10.5,3.82,,13.01,1.154,82.6,,36.0,5.0,,,,,,,,,,,,0,0,0,0,0,0,0,0,0,0,0,0,0,0,0,0,,,,,0.0,,,,,,
13,2335969,1745077609247,,,,,,,,,,,,,,,,,,,,,,,,,,,,,,,,,,0,0,0,0,0,0,0,0,0,0,0,0,0,0,0,0,,,,,,,,,,,
14,2335989,1745077609267,0.0,181.5,,-0.03,-0.05,1.05,0.0,0.0,0.0,1.05,1.08,97.0,4111.0,10.5,3.82,,12.87,1.182,82.6,,37.4,5.0,0.0,0.0,0.0,0.0,0.0,0.0,0.0,0.0,2.26,,,0,0,0,0,0,0,0,0,0,0,0,0,0,0,0,0,0.0,,,,0.0,39.240173,-77.965271,0.0,29.0,3.0,0.8
15,2336009,1745077609287,,,,,,,,,,,,,,,,,,,,,,,,,,,,,,,,,,0,0,0,0,0,0,0,0,0,0,0,0,0,0,0,0,,,,,,,,,,,
16,2336029,1745077609307,0.0,181.5,,-0.05,-0.1,1.02,0.0,0.0,0.0,1.03,1.08,95.0,4171.0,10.4,3.83,,12.87,1.207,82.6,,37.4,5.0,,,,,,,,,,,,0,0,0,0,0,0,0,0,0,0,0,0,0,0,0,0,,,,,0.0,,,,,,
17,2336049,1745077609327,,,,,,,,,,,,,,,,,,,,,,,,,,,,,,,,,,0,0,0,0,0,0,0,0,0,0,0,0,0,0,0,0,,,,,,,,,,,
18,2336069,1745077609347,0.0,181.5,,-0.05,0.02,1.1,0.0,0.0,1.0,1.1,1.1,100.0,4215.0,10.5,3.81,,12.84,1.221,82.6,,37.4,5.0,,,,,,,,,,,,0,0,0,0,0,0,0,0,0,0,0,0,0,0,0,0,,,,,0.0,,,,,,
19,2336089,1745077609367,,,,,,,,,,,,,,,,,,,,,,,0.0,0.0,0.0,0.0,0.0,0.0,0.0,0.0,2.26,,,0,0,0,0,0,0,0,0,0,0,0,0,0,0,0,0,0.0,,,,,39.240173,-77.965271,0.04,29.0,3.0,0.8
20,2336109,1745077609387,0.0,181.5,,-0.04,-0.08,0.98,0.0,0.0,0.0,0.99,1.1,90.0,4197.0,10.5,3.8,,12.84,1.228,82.6,,38.5,5.0,,,,,,,,,,,,0,0,0,0,0,0,0,0,0,0,0,0,0,0,0,0,,,,,0.0,,,,,,
21,2336129,1745077609405,,,,,,,,,,,,,,,,,,,,,,,,,,,,,,,,,,0,0,0,0,0,0,0,0,0,0,0,0,0,0,0,0,,,,,,,,,,,
22,2336149,1745077609425,0.0,181.37,,-0.07,-0.05,1.02,0.0,0.0,0.0,1.02,1.1,93.0,4323.0,10.8,3.8,,12.84,1.228,82.6,,38.5,5.0,,,,,,,,,,,,0,0,0,0,0,0,0,0,0,0,0,0,0,0,0,0,,,,,0.0,,,,,,
23,2336169,1745077609445,,,,,,,,,,,,,,,,,,,,,,,,,,,,,,,,,,0,0,0,0,0,0,0,0,0,0,0,0,0,0,0,0,,,,,,,,,,,
24,2336189,1745077609465,0.0,181.37,,-0.09,0.06,1.14,-1.0,0.0,1.0,1.15,1.15,100.0,4323.0,10.8,3.8,,12.88,1.25,82.6,,39.9,5.0,0.0,0.0,0.0,0.0,0.0,0.0,0.0,0.0,2.26,,,0,0,0,0,0,0,0,0,0,0,0,0,0,0,0,0,0.0,,,,0.0,39.240173,-77.965271,0.06,29.0,3.0,0.8
25,2336209,1745077609485,,,,,,,,,,,,,,,,,,,,,,,,,,,,,,,,,,0,0,0,0,0,0,0,0,0,0,0,0,0,0,0,0,,,,,,,,,,,
26,2336229,1745077609506,0.0,181.5,,-0.08,0.09,1.16,-1.0,0.0,1.0,1.17,1.17,100.0,4403.0,11.2,3.78,,12.8,1.22,82.6,,39.9,5.0,,,,,,,,,,,,0,0,0,0,0,0,0,0,0,0,0,0,0,0,0,0,,,,,0.0,,,,,,
27,2336249,1745077609526,,,,,,,,,,,,,,,,,,,,,,,,,,,,,,,,,,0,0,0,0,0,0,0,0,0,0,0,0,0,0,0,0,,,,,,,,,,,
28,2336269,1745077609546,0.0,181.37,,-0.03,0.07,1.11,0.0,0.0,1.0,1.11,1.17,95.0,4413.0,11.6,3.77,,12.83,1.159,82.6,,39.9,5.0,,,,,,,,,,,,0,0,0,0,0,0,0,0,0,0,0,0,0,0,0,0,,,,,0.0,,,,,,
29,2336289,1745077609566,,,,,,,,,,,,,,,,,,,,,,,0.0,0.0,0.0,0.0,0.0,0.0,0.0,0.0,2.26,,,0,0,0,0,0,0,0,0,0,0,0,0,0,0,0,0,0.0,,,,,39.240173,-77.965271,0.04,29.0,3.0,0.8
30,2336309,1745077609586,0.0,181.37,,0.01,0.02,1.07,0.0,0.0,0.0,1.07,1.17,91.0,4573.0,12.0,3.77,,12.83,1.159,82.6,,40.5,5.0,,,,,,,,,,,,0,0,0,0,0,0,0,0,0,0,0,0,0,0,0,0,,,,,0.0,,,,,,
31,2336329,1745077609604,,,,,,,,,,,,,,,,,,,,,,,,,,,,,,,,,,0,0,0,0,0,0,0,0,0,0,0,0,0,0,0,0,,,,,,,,,,,
32,2336349,1745077609624,0.0,181.25,,0.03,0.09,1.15,0.0,0.0,1.0,1.15,1.17,98.0,4683.0,12.7,3.78,,12.91,1.197,82.6,,40.5,5.0,,,,,,,,,,,,0,0,0,0,0,0,0,0,0,0,0,0,0,0,0,0,,,,,0.0,,,,,,
33,2336369,1745077609644,,,,,,,,,,,,,,,,,,,,,,,,,,,,,,,,,,0,0,0,0,0,0,0,0,0,0,0,0,0,0,0,0,,,,,,,,,,,
34,2336389,1745077609664,0.0,181.25,13.59,-0.03,0.14,1.17,-1.0,0.0,1.0,1.17,1.17,100.0,4683.0,12.7,3.78,15.0,12.84,1.155,82.6,160.0,43.7,5.0,0.0,0.0,0.0,0.0,0.0,0.0,0.0,0.0,2.26,0.0,0.0,0,0,0,0,0,0,0,0,0,0,0,0,0,0,0,0,0.0,0.0,0.0,0.0,0.0,39.240173,-77.965271,0.04,29.0,3.0,0.8
35,2336409,1745077609684,,,,,,,,,,,,,,,,,,,,,,,,,,,,,,,,,,0,0,0,0,0,0,0,0,0,0,0,0,0,0,0,0,,,,,,,,,,,
36,2336429,1745077609706,0.0,181.25,,-0.06,0.03,1.1,0.0,0.0,1.0,1.1,1.17,93.0,4693.0,13.2,3.8,,12.88,1.09,82.6,,43.7,5.0,,,,,,,,,,,,0,0,0,0,0,0,0,0,0,0,0,0,0,0,0,0,,,,,0.0,,,,,,
37,2336449,1745077609726,,,,,,,,,,,,,,,,,,,,,,,,,,,,,,,,,,0,0,0,0,0,0,0,0,0,0,0,0,0,0,0,0,,,,,,,,,,,
38,2336469,1745077609746,0.0,181.25,,-0.02,0.03,1.11,0.0,0.0,0.0,1.11,1.17,94.0,4803.0,13.7,3.84,,12.97,1.075,82.6,,43.7,5.0,,,,,,,,,,,,0,0,0,0,0,0,0,0,0,0,0,0,0,0,0,0,,,,,0.0,,,,,,
39,2336489,1745077609766,,,,,,,,,,,,,,,,,,,,,,,0.0,0.0,0.0,0.0,0.0,0.0,0.0,0.0,2.26,,,0,0,0,0,0,0,0,0,0,0,0,0,0,0,0,0,0.0,,,,,39.240173,-77.965271,0.08,29.0,3.0,0.8
40,2336509,1745077609786,0.0,181.25,,-0.06,0.03,1.09,0.0,0.0,1.0,1.09,1.17,93.0,4853.0,13.8,3.84,,12.93,1.08,82.6,,45.6,5.0,,,,,,,,,,,,0,0,0,0,0,0,0,0,0,0,0,0,0,0,0,0,,,,,0.0,,,,,,
41,2336529,1745077609806,,,,,,,,,,,,,,,,,,,,,,,,,,,,,,,,,,0,0,0,0,0,0,0,0,0,0,0,0,0,0,0,0,,,,,,,,,,,
42,2336549,1745077609826,0.0,181.25,,-0.02,-0.09,1.02,0.0,0.0,0.0,1.02,1.17,87.0,4853.0,13.8,3.84,,12.93,1.08,82.6,,45.6,5.0,,,,,,,,,,,,0,0,0,0,0,0,0,0,0,0,0,0,0,0,0,0,,,,,0.0,,,,,,
43,2336569,1745077609846,,,,,,,,,,,,,,,,,,,,,,,,,,,,,,,,,,0,0,0,0,0,0,0,0,0,0,0,0,0,0,0,0,,,,,,,,,,,
44,2336589,1745077609866,0.0,181.25,,0.03,-0.09,1.01,1.0,0.0,0.0,1.01,1.17,86.0,4693.0,13.8,3.85,,13.0,1.097,82.6,,43.7,5.0,0.0,0.0,0.0,0.0,0.0,0.0,0.0,0.0,2.26,,,0,0,0,0,0,0,0,0,0,0,0,0,0,0,0,0,0.0,,,,0.0,39.240173,-77.965271,0.06,29.0,3.0,0.8
45,2336609,1745077609886,,,,,,,,,,,,,,,,,,,,,,,,,,,,,,,,,,0,0,0,0,0,0,0,0,0,0,0,0,0,0,0,0,,,,,,,,,,,
46,2336629,1745077609906,0.0,181.25,,0.07,-0.15,0.93,1.0,0.0,-1.0,0.94,1.17,80.0,4439.0,13.8,3.85,,12.99,1.087,82.6,,43.7,5.0,,,,,,,,,,,,0,0,0,0,0,0,0,0,0,0,0,0,0,0,0,0,,,,,0.0,,,,,,
47,2336649,1745077609926,,,,,,,,,,,,,,,,,,,,,,,,,,,,,,,,,,0,0,0,0,0,0,0,0,0,0,0,0,0,0,0,0,,,,,,,,,,,
48,2336669,1745077609946,0.0,181.12,,0.04,-0.14,0.96,1.0,0.0,0.0,0.97,1.17,83.0,4216.0,13.8,3.87,,13.05,1.107,82.6,,43.7,5.0,,,,,,,,,,,,0,0,0,0,0,0,0,0,0,0,0,0,0,0,0,0,,,,,0.0,,,,,,
49,2336689,1745077609966,,,,,,,,,,,,,,,,,,,,,,,0.0,0.0,0.0,0.0,0.0,0.0,0.0,0.0,2.26,,,0,0,0,0,0,0,0,0,0,0,0,0,0,0,0,0,0.0,,,,,39.240173,-77.965271,0.13,29.0,3.0,0.8
50,2336709,1745077609986,0.0,181.25,,0.04,-0.15,0.96,1.0,0.0,-1.0,0.97,1.17,83.0,4039.0,14.2,3.88,,13.11,1.213,82.6,,38.7,5.0,,,,,,,,,,,,0,0,0,0,0,0,0,0,0,0,0,0,0,0,0,0,,,,,0.0,,,,,,
51,2336729,1745077610006,,,,,,,,,,,,,,,,,,,,,,,,,,,,,,,,,,0,0,0,0,0,0,0,0,0,0,0,0,0,0,0,0,,,,,,,,,,,
52,2336749,1745077610016,0.0,181.25,,0.04,-0.16,0.99,1.0,0.0,0.0,1.0,1.17,85.0,3624.0,14.3,3.91,,13.11,1.213,82.6,,38.7,5.0,,,,,,,,,,,,0,0,0,0,0,0,0,0,0,0,0,0,0,0,0,0,,,,,0.0,,,,,,
53,2336769,1745077610036,,,,,,,,,,,,,,,,,,,,,,,,,,,,,,,,,,0,0,0,0,0,0,0,0,0,0,0,0,0,0,0,0,,,,,,,,,,,
54,2336789,1745077610056,0.0,181.25,,0.07,-0.08,1.02,0.0,0.0,0.0,1.02,1.17,87.0,3624.0,14.3,3.91,,13.37,1.198,82.6,,31.0,5.0,0.0,0.0,0.0,0.0,0.0,0.0,0.0,0.0,2.26,,,0,0,0,0,0,0,0,0,0,0,0,0,0,0,0,0,0.0,,,,0.0,39.240173,-77.965271,0.46,28.0,3.0,0.8
55,2336809,1745077610076,,,,,,,,,,,,,,,,,,,,,,,,,,,,,,,,,,0,0,0,0,0,0,0,0,0,0,0,0,0,0,0,0,,,,,,,,,,,
56,2336829,1745077610104,0.0,181.37,,0.06,-0.15,1.08,0.0,0.0,0.0,1.09,1.17,93.0,3299.0,14.4,3.98,,13.57,1.169,82.6,,31.0,5.0,,,,,,,,,,,,0,0,0,0,0,0,0,0,0,0,0,0,0,0,0,0,,,,,0.0,,,,,,
57,2336849,1745077610124,,,,,,,,,,,,,,,,,,,,,,,,,,,,,,,,,,0,0,0,0,0,0,0,0,0,0,0,0,0,0,0,0,,,,,,,,,,,
58,2336869,1745077610144,0.0,181.25,,0.07,-0.18,1.13,0.0,0.0,0.0,1.15,1.17,98.0,3047.0,14.5,4.04,,13.77,1.175,82.6,,31.0,5.0,,,,,,,,,,,,0,0,0,0,0,0,0,0,0,0,0,0,0,0,0,0,,,,,0.0,,,,,,
59,2336889,1745077610164,,,,,,,,,,,,,,,,,,,,,,,0.0,0.0,0.0,0.0,0.0,0.0,0.0,0.0,2.26,,,0,0,0,0,0,0,0,0,0,0,0,0,0,0,0,0,0.0,,,,,39.240173,-77.965271,1.01,28.0,3.0,0.8
60,2336909,1745077610184,0.0,181.25,,0.07,-0.18,1.08,0.0,0.0,0.0,1.1,1.17,93.0,2655.0,15.8,4.16,,13.95,1.197,82.6,,25.1,5.0,,,,,,,,,,,,0,0,0,0,0,0,0,0,0,0,0,0,0,0,0,0,,,,,0.0,,,,,,
61,2336929,1745077610206,,,,,,,,,,,,,,,,,,,,,,,,,,,,,,,,,,0,0,0,0,0,0,0,0,0,0,0,0,0,0,0,0,,,,,,,,,,,
62,2336949,1745077610226,0.0,181.12,,0.06,-0.16,1.06,0.0,0.0,0.0,1.08,1.17,92.0,2444.0,16.2,4.25,,13.95,1.197,82.6,,25.1,5.0,,,,,,,,,,,,0,0,0,0,0,0,0,0,0,0,0,0,0,0,0,0,,,,,0.0,,,,,,
63,2336969,1745077610246,,,,,,,,,,,,,,,,,,,,,,,,,,,,,,,,,,0,0,0,0,0,0,0,0,0,0,0,0,0,0,0,0,,,,,,,,,,,
64,2336989,1745077610266,0.0,181.12,,0.07,-0.15,1.03,0.0,0.0,0.0,1.05,1.17,89.0,2444.0,16.2,4.25,,14.04,1.203,82.6,,21.4,5.0,1.0,0.0,0.0,1.0,0.0,0.0,0.0,0.0,2.26,,,0,0,0,0,0,0,0,0,0,0,0,0,0,0,0,0,0.0,,,,0.0,39.240173,-77.965271,1.42,28.0,3.0,0.8
65,2337009,1745077610286,,,,,,,,,,,,,,,,,,,,,,,,,,,,,,,,,,0,0,0,0,0,0,0,0,0,0,0,0,0,0,0,0,,,,,,,,,,,
66,2337029,1745077610306,0.0,181.12,,0.07,-0.16,1.03,0.0,0.0,0.0,1.05,1.17,89.0,2210.0,20.4,4.37,,14.19,1.213,82.6,,21.4,5.0,,,,,,,,,,,,0,0,0,0,0,0,0,0,0,0,0,0,0,0,0,0,,,,,0.0,,,,,,
67,2337049,1745077610326,,,,,,,,,,,,,,,,,,,,,,,,,,,,,,,,,,0,0,0,0,0,0,0,0,0,0,0,0,0,0,0,0,,,,,,,,,,,
68,2337069,1745077610346,0.0,181.12,,0.09,-0.17,1.04,0.0,0.0,0.0,1.06,1.17,90.0,2170.0,30.3,4.61,,14.24,1.228,82.6,,21.4,5.0,,,,,,,,,,,,0,0,0,0,0,0,0,0,0,0,0,0,0,0,0,0,,,,,0.0,,,,,,
69,2337089,1745077610366,,,,,,,,,,,,,,,,,,,,,,,1.0,0.0,1.0,1.0,0.0,0.0,0.0,0.0,2.26,,,0,0,0,0,0,0,0,0,0,0,0,0,0,0,0,0,0.0,,,,,39.240173,-77.965271,1.88,28.0,3.0,0.8
70,2337109,1745077610386,0.0,181.12,,0.08,-0.14,1.04,0.0,0.0,0.0,1.05,1.17,89.0,1919.0,42.2,4.36,,14.24,1.231,82.6,,16.8,5.0,,,,,,,,,,,,0,0,0,0,0,0,0,0,0,0,0,0,0,0,0,0,,,,,0.0,,,,,,
71,2337129,1745077610406,,,,,,,,,,,,,,,,,,,,,,,,,,,,,,,,,,0,0,0,0,0,0,0,0,0,0,0,0,0,0,0,0,,,,,,,,,,,
72,2337149,1745077610426,0.0,181.12,,0.07,-0.13,1.03,0.0,0.0,0.0,1.04,1.17,88.0,2097.0,48.2,4.74,,14.24,1.231,82.6,,16.8,5.0,,,,,,,,,,,,0,0,0,0,0,0,0,0,0,0,0,0,0,0,0,0,,,,,0.0,,,,,,
73,2337169,1745077610446,,,,,,,,,,,,,,,,,,,,,,,,,,,,,,,,,,0,0,0,0,0,0,0,0,0,0,0,0,0,0,0,0,,,,,,,,,,,
74,2337189,1745077610466,0.0,181.25,,0.08,-0.12,1.04,-1.0,0.0,0.0,1.05,1.17,89.0,2097.0,48.2,4.74,,14.34,1.22,82.6,,17.1,5.0,1.0,0.0,1.0,1.0,0.0,0.0,0.0,0.0,2.26,,,0,0,0,0,0,0,0,0,0,0,0,0,0,0,0,0,0.0,,,,0.0,39.240173,-77.965271,2.44,28.0,3.0,0.8
75,2337209,1745077610486,,,,,,,,,,,,,,,,,,,,,,,,,,,,,,,,,,0,0,0,0,0,0,0,0,0,0,0,0,0,0,0,0,,,,,,,,,,,
76,2337229,1745077610505,0.0,181.25,,0.05,-0.14,1.03,-1.0,0.0,0.0,1.04,1.17,89.0,1855.0,48.2,4.55,,14.27,1.251,82.6,,17.1,5.0,,,,,,,,,,,,0,0,0,0,0,0,0,0,0,0,0,0,0,0,0,0,,,,,0.0,,,,,,
77,2337249,1745077610525,,,,,,,,,,,,,,,,,,,,,,,,,,,,,,,,,,0,0,0,0,0,0,0,0,0,0,0,0,0,0,0,0,,,,,,,,,,,
78,2337269,1745077610545,0.0,181.25,,0.03,-0.14,1.03,-1.0,0.0,0.0,1.04,1.17,89.0,2336.0,47.8,4.53,,14.31,1.172,82.6,,17.1,5.0,,,,,,,,,,,,0,0,0,0,0,0,0,0,0,0,0,0,0,0,0,0,,,,,0.0,,,,,,
79,2337289,1745077610565,,,,,,,,,,,,,,,,,,,,,,,2.0,0.0,2.0,2.0,0.0,0.0,0.0,0.0,2.26,,,0,0,0,0,0,0,0,0,0,0,0,0,0,0,0,0,0.0,,,,,39.240173,-77.965271,2.71,28.0,3.0,0.8
80,2337309,1745077610585,0.0,181.37,,0.01,-0.12,1.01,-1.0,0.0,0.0,1.02,1.17,87.0,2097.0,42.5,4.62,,14.31,1.172,82.6,,18.8,5.0,,,,,,,,,,,,0,0,0,0,0,0,0,0,0,0,0,0,0,0,0,0,,,,,0.0,,,,,,
81,2337329,1745077610605,,,,,,,,,,,,,,,,,,,,,,,,,,,,,,,,,,0,0,0,0,0,0,0,0,0,0,0,0,0,0,0,0,,,,,,,,,,,
82,2337349,1745077610625,0.0,181.37,,0.02,-0.11,1.0,-1.0,0.0,0.0,1.01,1.17,86.0,2227.0,42.3,4.65,,14.31,1.135,82.6,,18.8,5.0,,,,,,,,,,,,0,0,0,0,0,0,0,0,0,0,0,0,0,0,0,0,,,,,0.0,,,,,,
83,2337369,1745077610645,,,,,,,,,,,,,,,,,,,,,,,,,,,,,,,,,,0,0,0,0,0,0,0,0,0,0,0,0,0,0,0,0,,,,,,,,,,,
84,2337389,1745077610665,0.0,181.37,13.56,0.01,-0.13,1.01,-1.0,0.0,0.0,1.02,1.17,87.0,2227.0,42.3,4.65,15.0,14.28,1.071,82.6,160.0,20.3,5.0,2.0,0.0,2.0,2.0,0.0,0.0,0.0,0.0,2.25,0.0,0.0,0,0,0,0,0,0,0,0,0,0,0,0,0,0,0,0,0.0,0.0,0.0,0.0,0.0,39.240177,-77.965271,2.91,28.0,3.0,0.8
85,2337409,1745077610685,,,,,,,,,,,,,,,,,,,,,,,,,,,,,,,,,,0,0,0,0,0,0,0,0,0,0,0,0,0,0,0,0,,,,,,,,,,,
86,2337429,1745077610705,0.0,181.25,,0.0,-0.13,1.01,-1.0,0.0,0.0,1.02,1.17,87.0,2289.0,42.3,4.63,,14.28,1.01,82.6,,20.3,5.0,,,,,,,,,,,,0,0,0,0,0,0,0,0,0,0,0,0,0,0,0,0,,,,,0.0,,,,,,
87,2337449,1745077610725,,,,,,,,,,,,,,,,,,,,,,,,,,,,,,,,,,0,0,0,0,0,0,0,0,0,0,0,0,0,0,0,0,,,,,,,,,,,
88,2337469,1745077610745,0.0,181.25,,0.01,-0.13,1.03,-1.0,0.0,0.0,1.03,1.17,88.0,2334.0,42.2,4.63,,14.3,1.011,82.6,,20.3,5.0,,,,,,,,,,,,0,0,0,0,0,0,0,0,0,0,0,0,0,0,0,0,,,,,0.0,,,,,,
89,2337489,1745077610765,,,,,,,,,,,,,,,,,,,,,,,2.0,0.0,2.0,2.0,0.0,0.0,0.0,0.0,2.26,,,0,0,0,0,0,0,0,0,0,0,0,0,0,0,0,0,0.0,,,,,39.240177,-77.965271,3.08,28.0,3.0,0.8
90,2337509,1745077610785,0.0,181.25,,0.0,-0.14,1.04,-1.0,0.0,0.0,1.05,1.17,89.0,2354.0,42.2,4.63,,14.28,1.047,82.6,,21.0,5.0,,,,,,,,,,,,0,0,0,0,0,0,0,0,0,0,0,0,0,0,0,0,,,,,0.0,,,,,,
91,2337529,1745077610805,,,,,,,,,,,,,,,,,,,,,,,,,,,,,,,,,,0,0,0,0,0,0,0,0,0,0,0,0,0,0,0,0,,,,,,,,,,,
92,2337549,1745077610825,0.0,181.12,,-0.0,-0.13,1.02,-1.0,0.0,0.0,1.02,1.17,87.0,2428.0,42.2,4.63,,14.28,1.047,82.6,,21.0,5.0,,,,,,,,,,,,0,0,0,0,0,0,0,0,0,0,0,0,0,0,0,0,,,,,0.0,,,,,,
93,2337569,1745077610845,,,,,,,,,,,,,,,,,,,,,,,,,,,,,,,,,,0,0,0,0,0,0,0,0,0,0,0,0,0,0,0,0,,,,,,,,,,,
94,2337589,1745077610865,0.0,181.25,,-0.0,-0.13,1.02,-1.0,0.0,0.0,1.03,1.17,87.0,2428.0,42.2,4.63,,14.28,1.084,82.6,,22.3,5.0,2.0,0.0,2.0,2.0,0.0,0.0,0.0,0.0,2.26,,,0,0,0,0,0,0,0,0,0,0,0,0,0,0,0,0,0.0,,,,0.0,39.240177,-77.965271,3.22,28.0,3.0,0.8
95,2337609,1745077610885,,,,,,,,,,,,,,,,,,,,,,,,,,,,,,,,,,0,0,0,0,0,0,0,0,0,0,0,0,0,0,0,0,,,,,,,,,,,
96,2337629,1745077610905,0.0,181.25,,0.01,-0.13,1.01,-1.0,0.0,0.0,1.02,1.17,87.0,2513.0,38.3,4.5,,14.26,1.114,82.6,,22.3,5.0,,,,,,,,,,,,0,0,0,0,0,0,0,0,0,0,0,0,0,0,0,0,,,,,0.0,,,,,,
97,2337649,1745077610925,,,,,,,,,,,,,,,,,,,,,,,,,,,,,,,,,,0,0,0,0,0,0,0,0,0,0,0,0,0,0,0,0,,,,,,,,,,,
98,2337669,1745077610945,0.0,181.25,,-0.01,-0.16,1.03,-1.0,0.0,0.0,1.04,1.17,89.0,2584.0,38.3,4.45,,14.2,1.121,82.6,,22.3,5.0,,,,,,,,,,,,0,0,0,0,0,0,0,0,0,0,0,0,0,0,0,0,,,,,0.0,,,,,,
99,2337689,1745077610965,,,,,,,,,,,,,,,,,,,,,,,2.0,0.0,2.0,2.0,0.0,0.0,0.0,0.0,2.26,,,0,0,0,0,0,0,0,0,0,0,0,0,0,0,0,0,0.0,,,,,39.240177,-77.965263,3.48,28.0,3.0,0.8
100,2337709,1745077610985,0.0,181.12,,0.01,-0.11,0.97,-1.0,0.0,0.0,0.98,1.17,83.0,2815.0,38.1,4.43,,14.19,1.118,82.6,,23.6,5.0,,,,,,,,,,,,0,0,0,0,0,0,0,0,0,0,0,0,0,0,0,0,,,,,0.0,,,,,,
101,2337729,1745077611005,,,,,,,,,,,,,,,,,,,,,,,,,,,,,,,,,,0,0,0,0,0,0,0,0,0,0,0,0,0,0,0,0,,,,,,,,,,,
102,2337749,1745077611017,0.0,181.12,,0.03,-0.14,1.0,-1.0,0.0,0.0,1.01,1.17,86.0,2754.0,37.7,4.41,,14.19,1.118,82.6,,23.6,5.0,,,,,,,,,,,,0,0,0,0,0,0,0,0,0,0,0,0,0,0,0,0,,,,,0.0,,,,,,
103,2337769,1745077611037,,,,,,,,,,,,,,,,,,,,,,,,,,,,,,,,,,0,0,0,0,0,0,0,0,0,0,0,0,0,0,0,0,,,,,,,,,,,
104,2337789,1745077611057,0.0,181.12,,0.03,-0.13,0.96,-1.0,0.0,0.0,0.97,1.17,83.0,2754.0,37.7,4.41,,14.23,1.127,82.6,,21.6,5.0,2.0,0.0,2.0,2.0,0.0,0.0,0.0,0.0,2.26,,,0,0,0,0,0,0,0,0,0,0,0,0,0,0,0,0,0.0,,,,0.0,39.240177,-77.965263,3.67,28.0,3.0,0.8
105,2337809,1745077611077,,,,,,,,,,,,,,,,,,,,,,,,,,,,,,,,,,0,0,0,0,0,0,0,0,0,0,0,0,0,0,0,0,,,,,,,,,,,
106,2337829,1745077611103,0.0,181.12,,0.04,-0.13,0.96,-1.0,0.0,0.0,0.97,1.17,82.0,2522.0,37.7,4.4,,14.24,1.155,82.6,,21.6,5.0,,,,,,,,,,,,0,0,0,0,0,0,0,0,0,0,0,0,0,0,0,0,,,,,0.0,,,,,,
107,2337849,1745077611123,,,,,,,,,,,,,,,,,,,,,,,,,,,,,,,,,,0,0,0,0,0,0,0,0,0,0,0,0,0,0,0,0,,,,,,,,,,,
108,2337869,1745077611143,0.0,181.12,,0.07,-0.14,0.98,-1.0,0.0,0.0,0.99,1.17,85.0,2266.0,37.7,4.41,,14.28,1.172,82.6,,21.6,5.0,,,,,,,,,,,,0,0,0,0,0,0,0,0,0,0,0,0,0,0,0,0,,,,,0.0,,,,,,
109,2337889,1745077611163,,,,,,,,,,,,,,,,,,,,,,,3.0,0.0,3.0,3.0,0.0,0.0,0.0,0.0,2.26,,,0,0,0,0,0,0,0,0,0,0,0,0,0,0,0,0,0.0,,,,,39.240177,-77.965263,4.05,28.0,3.0,0.8
110,2337909,1745077611183,0.0,181.12,,0.06,-0.13,0.99,-1.0,0.0,0.0,1.0,1.17,85.0,1943.0,37.7,4.41,,14.26,1.199,82.6,,17.8,5.0,,,,,,,,,,,,0,0,0,0,0,0,0,0,0,0,0,0,0,0,0,0,,,,,0.0,,,,,,
111,2337929,1745077611205,,,,,,,,,,,,,,,,,,,,,,,,,,,,,,,,,,0,0,0,0,0,0,0,0,0,0,0,0,0,0,0,0,,,,,,,,,,,
112,2337949,1745077611225,0.0,181.12,,0.07,-0.12,0.98,-1.0,0.0,0.0,0.99,1.17,84.0,1497.0,37.7,4.34,,14.26,1.199,82.6,,17.8,5.0,,,,,,,,,,,,0,0,0,0,0,0,0,0,0,0,0,0,0,0,0,0,,,,,0.0,,,,,,
113,2337969,1745077611245,,,,,,,,,,,,,,,,,,,,,,,,,,,,,,,,,,0,0,0,0,0,0,0,0,0,0,0,0,0,0,0,0,,,,,,,,,,,
114,2337989,1745077611265,0.0,181.25,,0.06,-0.11,0.97,-1.0,0.0,0.0,0.98,1.17,84.0,1497.0,37.7,4.34,,14.38,1.231,82.6,,13.9,5.0,3.0,0.0,3.0,3.0,0.0,0.0,0.0,0.0,2.26,,,0,0,0,0,0,0,0,0,0,0,0,0,0,0,0,0,0.0,,,,0.0,39.240177,-77.965263,4.79,28.0,3.0,0.8
115,2338009,1745077611285,,,,,,,,,,,,,,,,,,,,,,,,,,,,,,,,,,0,0,0,0,0,0,0,0,0,0,0,0,0,0,0,0,,,,,,,,,,,
116,2338029,1745077611307,0.0,181.37,,0.03,-0.1,0.97,-1.0,0.0,0.0,0.98,1.17,83.0,1452.0,37.6,3.86,,14.38,1.225,82.6,,13.9,5.0,,,,,,,,,,,,0,0,0,0,0,0,0,0,0,0,0,0,0,0,0,0,,,,,0.0,,,,,,
117,2338049,1745077611327,,,,,,,,,,,,,,,,,,,,,,,,,,,,,,,,,,0,0,0,0,0,0,0,0,0,0,0,0,0,0,0,0,,,,,,,,,,,
118,2338069,1745077611347,0.0,181.37,,0.01,-0.11,0.97,-1.0,0.0,0.0,0.98,1.17,83.0,1452.0,39.7,3.86,,14.24,1.215,82.6,,13.9,5.0,,,,,,,,,,,,0,0,0,0,0,0,0,0,0,0,0,0,0,0,0,0,,,,,0.0,,,,,,
119,2338089,1745077611367,,,,,,,,,,,,,,,,,,,,,,,3.0,0.0,4.0,4.0,0.0,0.0,0.0,0.0,2.26,,,0,0,0,0,0,0,0,0,0,0,0,0,0,0,0,0,0.0,,,,,39.240181,-77.965263,5.44,28.0,3.0,0.8
120,2338109,1745077611387,0.0,181.25,,-0.01,-0.09,0.97,-1.0,0.0,0.0,0.97,1.17,83.0,907.0,44.3,3.99,,14.22,1.209,82.6,,10.1,5.0,,,,,,,,,,,,0,0,0,0,0,0,0,0,0,0,0,0,0,0,0,0,,,,,0.0,,,,,,
121,2338129,1745077611407,,,,,,,,,,,,,,,,,,,,,,,,,,,,,,,,,,0,0,0,0,0,0,0,0,0,0,0,0,0,0,0,0,,,,,,,,,,,
122,2338149,1745077611427,0.0,181.0,,-0.02,-0.09,0.97,-1.0,0.0,0.0,0.97,1.17,83.0,1236.0,44.6,3.57,,14.22,1.209,82.6,,10.1,5.0,,,,,,,,,,,,0,0,0,0,0,0,0,0,0,0,0,0,0,0,0,0,,,,,0.0,,,,,,
123,2338169,1745077611447,,,,,,,,,,,,,,,,,,,,,,,,,,,,,,,,,,0,0,0,0,0,0,0,0,0,0,0,0,0,0,0,0,,,,,,,,,,,
124,2338189,1745077611467,0.0,181.0,,-0.03,-0.1,0.97,-1.0,0.0,0.0,0.98,1.17,83.0,1236.0,44.6,3.57,,14.27,1.249,82.6,,11.4,5.0,4.0,0.0,4.0,4.0,0.0,0.0,0.0,0.0,2.26,,,0,0,0,0,0,0,0,0,0,0,0,0,0,0,0,0,0.0,,,,0.0,39.240181,-77.965256,5.8,28.0,3.0,0.8
125,2338209,1745077611487,,,,,,,,,,,,,,,,,,,,,,,,,,,,,,,,,,0,0,0,0,0,0,0,0,0,0,0,0,0,0,0,0,,,,,,,,,,,
126,2338229,1745077611507,0.0,180.87,,-0.03,-0.1,0.98,-1.0,0.0,0.0,0.98,1.17,84.0,1247.0,44.6,3.79,,14.38,1.241,82.6,,11.4,5.0,,,,,,,,,,,,0,0,0,0,0,0,0,0,0,0,0,0,0,0,0,0,,,,,0.0,,,,,,
127,2338249,1745077611527,,,,,,,,,,,,,,,,,,,,,,,,,,,,,,,,,,0,0,0,0,0,0,0,0,0,0,0,0,0,0,0,0,,,,,,,,,,,
128,2338269,1745077611547,0.0,180.87,,-0.05,-0.09,0.98,-1.0,0.0,0.0,0.99,1.17,84.0,1247.0,44.7,3.79,,14.36,1.214,82.6,,11.4,5.0,,,,,,,,,,,,0,0,0,0,0,0,0,0,0,0,0,0,0,0,0,0,,,,,0.0,,,,,,
129,2338289,1745077611567,,,,,,,,,,,,,,,,,,,,,,,3.0,0.0,3.0,4.0,0.0,0.0,0.0,0.0,2.26,,,0,0,0,0,0,0,0,0,0,0,0,0,0,0,0,0,0.0,,,,,39.240181,-77.965256,5.5,28.0,3.0,0.8
130,2338309,1745077611587,0.0,180.87,,-0.05,-0.08,0.98,-1.0,0.0,0.0,0.99,1.17,84.0,709.0,44.8,3.8,,14.35,1.201,82.6,,8.0,5.0,,,,,,,,,,,,0,0,0,0,0,0,0,0,0,0,0,0,0,0,0,0,,,,,0.0,,,,,,
131,2338329,1745077611606,,,,,,,,,,,,,,,,,,,,,,,,,,,,,,,,,,0,0,0,0,0,0,0,0,0,0,0,0,0,0,0,0,,,,,,,,,,,
132,2338349,1745077611626,0.0,181.0,,-0.06,-0.08,0.98,-1.0,0.0,0.0,0.99,1.17,84.0,709.0,44.8,3.8,,14.35,1.201,82.6,,8.0,5.0,,,,,,,,,,,,0,0,0,0,0,0,0,0,0,0,0,0,0,0,0,0,,,,,0.0,,,,,,
133,2338369,1745077611646,,,,,,,,,,,,,,,,,,,,,,,,,,,,,,,,,,0,0,0,0,0,0,0,0,0,0,0,0,0,0,0,0,,,,,,,,,,,
134,2338389,1745077611666,0.0,181.12,13.13,-0.06,-0.08,0.98,-1.0,0.0,0.0,0.99,1.17,84.0,709.0,44.8,3.8,15.0,14.35,1.194,82.6,160.0,6.5,5.0,3.0,0.0,3.0,3.0,0.0,0.0,0.0,0.0,2.26,0.0,0.0,0,0,0,0,0,0,0,0,0,0,0,0,0,0,0,0,0.0,0.0,0.0,0.0,0.0,39.240181,-77.965256,5.37,28.0,3.0,0.8
135,2338409,1745077611686,,,,,,,,,,,,,,,,,,,,,,,,,,,,,,,,,,0,0,0,0,0,0,0,0,0,0,0,0,0,0,0,0,,,,,,,,,,,
136,2338429,1745077611706,0.0,181.12,,-0.07,-0.08,0.99,-1.0,0.0,0.0,0.99,1.17,85.0,709.0,43.3,3.8,,14.35,1.188,82.6,,6.5,5.0,,,,,,,,,,,,0,0,0,0,0,0,0,0,0,0,0,0,0,0,0,0,,,,,0.0,,,,,,
137,2338449,1745077611726,,,,,,,,,,,,,,,,,,,,,,,,,,,,,,,,,,0,0,0,0,0,0,0,0,0,0,0,0,0,0,0,0,,,,,,,,,,,
138,2338469,1745077611746,0.0,181.12,,-0.08,-0.08,0.99,-1.0,0.0,0.0,1.0,1.17,85.0,709.0,32.6,3.8,,14.35,1.183,82.6,,6.5,5.0,,,,,,,,,,,,0,0,0,0,0,0,0,0,0,0,0,0,0,0,0,0,,,,,0.0,,,,,,
139,2338489,1745077611766,,,,,,,,,,,,,,,,,,,,,,,3.0,0.0,3.0,3.0,0.0,0.0,0.0,0.0,2.26,,,0,0,0,0,0,0,0,0,0,0,0,0,0,0,0,0,0.0,,,,,39.240181,-77.965256,5.12,28.0,3.0,0.8
140,2338509,1745077611786,0.0,181.0,,-0.08,-0.07,1.0,-1.0,0.0,0.0,1.0,1.17,85.0,709.0,18.4,3.8,,14.35,1.182,82.6,,6.5,5.0,,,,,,,,,,,,0,0,0,0,0,0,0,0,0,0,0,0,0,0,0,0,,,,,0.0,,,,,,
141,2338529,1745077611806,,,,,,,,,,,,,,,,,,,,,,,,,,,,,,,,,,0,0,0,0,0,0,0,0,0,0,0,0,0,0,0,0,,,,,,,,,,,
142,2338549,1745077611826,0.0,181.12,,-0.08,-0.07,0.99,-1.0,0.0,0.0,1.0,1.17,85.0,709.0,8.6,3.8,,14.35,1.182,82.6,,6.5,5.0,,,,,,,,,,,,0,0,0,0,0,0,0,0,0,0,0,0,0,0,0,0,,,,,0.0,,,,,,
143,2338569,1745077611846,,,,,,,,,,,,,,,,,,,,,,,,,,,,,,,,,,0,0,0,0,0,0,0,0,0,0,0,0,0,0,0,0,,,,,,,,,,,
144,2338589,1745077611866,0.0,181.12,,-0.08,-0.07,0.99,-1.0,0.0,0.0,1.0,1.17,85.0,709.0,8.6,3.8,,14.35,1.18,82.6,,6.5,5.0,3.0,0.0,3.0,3.0,0.0,0.0,0.0,0.0,2.26,,,0,0,0,0,0,0,0,0,0,0,0,0,0,0,0,0,0.0,,,,0.0,39.240181,-77.965248,5.02,28.0,3.0,0.8
145,2338609,1745077611886,,,,,,,,,,,,,,,,,,,,,,,,,,,,,,,,,,0,0,0,0,0,0,0,0,0,0,0,0,0,0,0,0,,,,,,,,,,,
146,2338629,1745077611906,0.0,181.0,,-0.09,-0.07,0.99,-1.0,0.0,0.0,1.0,1.17,85.0,709.0,7.3,3.8,,14.35,1.175,82.6,,6.5,5.0,,,,,,,,,,,,0,0,0,0,0,0,0,0,0,0,0,0,0,0,0,0,,,,,0.0,,,,,,
147,2338649,1745077611926,,,,,,,,,,,,,,,,,,,,,,,,,,,,,,,,,,0,0,0,0,0,0,0,0,0,0,0,0,0,0,0,0,,,,,,,,,,,
148,2338669,1745077611946,0.0,181.0,,-0.09,-0.07,0.99,-1.0,0.0,0.0,1.0,1.17,85.0,709.0,3.8,3.8,,14.35,1.17,82.6,,6.5,5.0,,,,,,,,,,,,0,0,0,0,0,0,0,0,0,0,0,0,0,0,0,0,,,,,0.0,,,,,,
149,2338689,1745077611966,,,,,,,,,,,,,,,,,,,,,,,3.0,0.0,3.0,3.0,0.0,0.0,0.0,0.0,2.26,,,0,0,0,0,0,0,0,0,0,0,0,0,0,0,0,0,0.0,,,,,39.240181,-77.965248,4.77,28.0,3.0,0.8
150,2338709,1745077611986,0.0,181.0,,-0.09,-0.07,0.99,-1.0,0.0,0.0,1.0,1.17,85.0,709.0,3.7,3.8,,14.35,1.166,82.6,,6.4,5.0,,,,,,,,,,,,0,0,0,0,0,0,0,0,0,0,0,0,0,0,0,0,,,,,0.0,,,,,,
151,2338729,1745077612006,,,,,,,,,,,,,,,,,,,,,,,,,,,,,,,,,,0,0,0,0,0,0,0,0,0,0,0,0,0,0,0,0,,,,,,,,,,,
152,2338749,1745077612018,0.0,180.87,,-0.1,-0.06,0.99,-1.0,0.0,0.0,1.0,1.17,85.0,709.0,1.0,3.8,,14.35,1.166,82.6,,6.4,5.0,,,,,,,,,,,,0,0,0,0,0,0,0,0,0,0,0,0,0,0,0,0,,,,,0.0,,,,,,
153,2338769,1745077612038,,,,,,,,,,,,,,,,,,,,,,,,,,,,,,,,,,0,0,0,0,0,0,0,0,0,0,0,0,0,0,0,0,,,,,,,,,,,
154,2338789,1745077612058,0.0,180.87,,-0.1,-0.07,0.99,-1.0,0.0,0.0,1.0,1.17,85.0,709.0,1.0,3.8,,14.35,1.162,82.6,,6.4,5.0,3.0,0.0,3.0,3.0,0.0,0.0,0.0,0.0,2.26,,,0,0,0,0,0,0,0,0,0,0,0,0,0,0,0,0,0.0,,,,0.0,39.240181,-77.965248,4.68,29.0,3.0,0.8
155,2338809,1745077612078,,,,,,,,,,,,,,,,,,,,,,,,,,,,,,,,,,0,0,0,0,0,0,0,0,0,0,0,0,0,0,0,0,,,,,,,,,,,
156,2338829,1745077612098,0.0,180.87,,-0.1,-0.07,0.99,-1.0,0.0,0.0,1.0,1.17,85.0,709.0,0.6,3.8,,14.35,1.158,82.6,,6.4,5.0,,,,,,,,,,,,0,0,0,0,0,0,0,0,0,0,0,0,0,0,0,0,,,,,0.0,,,,,,
157,2338849,1745077612120,,,,,,,,,,,,,,,,,,,,,,,,,,,,,,,,,,0,0,0,0,0,0,0,0,0,0,0,0,0,0,0,0,,,,,,,,,,,
158,2338869,1745077612140,0.0,180.74,,-0.1,-0.06,0.99,-1.0,0.0,0.0,1.0,1.17,85.0,709.0,0.0,3.8,,14.35,1.153,82.6,,6.4,5.0,,,,,,,,,,,,0,0,0,0,0,0,0,0,0,0,0,0,0,0,0,0,,,,,0.0,,,,,,
159,2338889,1745077612160,,,,,,,,,,,,,,,,,,,,,,,3.0,0.0,3.0,3.0,0.0,0.0,0.0,0.0,2.26,,,0,0,0,0,0,0,0,0,0,0,0,0,0,0,0,0,0.0,,,,,39.240181,-77.965248,4.34,29.0,3.0,0.8
160,2338909,1745077612180,0.0,180.74,,-0.1,-0.06,0.99,-1.0,0.0,0.0,1.0,1.17,85.0,709.0,0.0,3.8,,14.35,1.148,82.6,,6.3,5.0,,,,,,,,,,,,0,0,0,0,0,0,0,0,0,0,0,0,0,0,0,0,,,,,0.0,,,,,,
161,2338929,1745077612204,,,,,,,,,,,,,,,,,,,,,,,,,,,,,,,,,,0,0,0,0,0,0,0,0,0,0,0,0,0,0,0,0,,,,,,,,,,,
162,2338949,1745077612224,0.0,180.74,,-0.11,-0.06,0.99,-1.0,0.0,0.0,1.0,1.17,85.0,709.0,0.0,3.8,,14.35,1.148,82.6,,6.3,5.0,,,,,,,,,,,,0,0,0,0,0,0,0,0,0,0,0,0,0,0,0,0,,,,,0.0,,,,,,
163,2338969,1745077612244,,,,,,,,,,,,,,,,,,,,,,,,,,,,,,,,,,0,0,0,0,0,0,0,0,0,0,0,0,0,0,0,0,,,,,,,,,,,
164,2338989,1745077612264,0.0,180.74,,-0.11,-0.06,0.99,-1.0,0.0,0.0,1.0,1.17,85.0,709.0,0.0,3.8,,14.35,1.143,82.6,,6.2,5.0,3.0,0.0,3.0,3.0,0.0,0.0,0.0,0.0,2.26,,,0,0,0,0,0,0,0,0,0,0,0,0,0,0,0,0,0.0,,,,0.0,39.240181,-77.965248,4.24,29.0,3.0,0.8
165,2339009,1745077612284,,,,,,,,,,,,,,,,,,,,,,,,,,,,,,,,,,0,0,0,0,0,0,0,0,0,0,0,0,0,0,0,0,,,,,,,,,,,
166,2339029,1745077612307,0.0,180.74,,-0.11,-0.06,0.99,-1.0,0.0,0.0,1.0,1.17,85.0,709.0,0.0,3.8,,14.35,1.14,82.6,,6.2,5.0,,,,,,,,,,,,0,0,0,0,0,0,0,0,0,0,0,0,0,0,0,0,,,,,0.0,,,,,,
167,2339049,1745077612327,,,,,,,,,,,,,,,,,,,,,,,,,,,,,,,,,,0,0,0,0,0,0,0,0,0,0,0,0,0,0,0,0,,,,,,,,,,,
168,2339069,1745077612347,0.0,180.74,,-0.11,-0.06,0.99,-1.0,0.0,0.0,1.0,1.17,85.0,709.0,0.0,3.8,,14.35,1.135,82.6,,6.2,5.0,,,,,,,,,,,,0,0,0,0,0,0,0,0,0,0,0,0,0,0,0,0,,,,,0.0,,,,,,
169,2339089,1745077612367,,,,,,,,,,,,,,,,,,,,,,,2.0,0.0,3.0,3.0,0.0,0.0,0.0,0.0,2.26,,,0,0,0,0,0,0,0,0,0,0,0,0,0,0,0,0,0.0,,,,,39.240181,-77.96524,4.28,29.0,3.0,0.8
170,2339109,1745077612387,0.0,180.74,,-0.11,-0.05,0.99,-1.0,0.0,0.0,1.0,1.17,85.0,709.0,0.0,3.8,,14.35,1.126,82.6,,6.5,5.0,,,,,,,,,,,,0,0,0,0,0,0,0,0,0,0,0,0,0,0,0,0,,,,,0.0,,,,,,
171,2339129,1745077612406,,,,,,,,,,,,,,,,,,,,,,,,,,,,,,,,,,0,0,0,0,0,0,0,0,0,0,0,0,0,0,0,0,,,,,,,,,,,
172,2339149,1745077612426,0.0,180.74,,-0.12,-0.05,0.99,-1.0,0.0,0.0,1.0,1.17,85.0,709.0,0.0,3.8,,14.35,1.126,82.6,,6.5,5.0,,,,,,,,,,,,0,0,0,0,0,0,0,0,0,0,0,0,0,0,0,0,,,,,0.0,,,,,,
173,2339169,1745077612446,,,,,,,,,,,,,,,,,,,,,,,,,,,,,,,,,,0,0,0,0,0,0,0,0,0,0,0,0,0,0,0,0,,,,,,,,,,,
174,2339189,1745077612466,0.0,180.74,,-0.12,-0.05,0.99,-1.0,0.0,0.0,1.0,1.17,85.0,709.0,0.0,3.8,,14.35,1.127,82.6,,6.4,5.0,3.0,0.0,2.0,2.0,0.0,0.0,0.0,0.0,2.26,,,0,0,0,0,0,0,0,0,0,0,0,0,0,0,0,0,0.0,,,,0.0,39.240185,-77.96524,3.84,29.0,3.0,0.8
175,2339209,1745077612486,,,,,,,,,,,,,,,,,,,,,,,,,,,,,,,,,,0,0,0,0,0,0,0,0,0,0,0,0,0,0,0,0,,,,,,,,,,,
176,2339229,1745077612505,0.0,180.74,,-0.12,-0.05,0.99,-1.0,0.0,0.0,1.0,1.17,85.0,709.0,0.0,3.8,,14.35,1.123,82.6,,6.4,5.0,,,,,,,,,,,,0,0,0,0,0,0,0,0,0,0,0,0,0,0,0,0,,,,,0.0,,,,,,
177,2339249,1745077612525,,,,,,,,,,,,,,,,,,,,,,,,,,,,,,,,,,0,0,0,0,0,0,0,0,0,0,0,0,0,0,0,0,,,,,,,,,,,
178,2339269,1745077612545,0.0,180.74,,-0.13,-0.05,0.99,-1.0,0.0,0.0,1.0,1.17,85.0,709.0,0.0,3.8,,14.35,1.12,82.6,,6.4,5.0,,,,,,,,,,,,0,0,0,0,0,0,0,0,0,0,0,0,0,0,0,0,,,,,0.0,,,,,,
179,2339289,1745077612565,,,,,,,,,,,,,,,,,,,,,,,2.0,0.0,2.0,2.0,0.0,0.0,0.0,0.0,2.26,,,0,0,0,0,0,0,0,0,0,0,0,0,0,0,0,0,0.0,,,,,39.240185,-77.96524,3.7,29.0,3.0,0.8
180,2339309,1745077612585,0.0,180.74,,-0.13,-0.05,0.99,-1.0,0.0,0.0,1.0,1.17,85.0,709.0,0.0,3.8,,14.35,1.115,82.6,,6.4,5.0,,,,,,,,,,,,0,0,0,0,0,0,0,0,0,0,0,0,0,0,0,0,,,,,0.0,,,,,,
181,2339329,1745077612605,,,,,,,,,,,,,,,,,,,,,,,,,,,,,,,,,,0,0,0,0,0,0,0,0,0,0,0,0,0,0,0,0,,,,,,,,,,,
182,2339349,1745077612625,0.0,180.74,,-0.13,-0.05,0.99,-1.0,0.0,0.0,1.0,1.17,85.0,709.0,0.0,3.8,,14.35,1.115,82.6,,6.4,5.0,,,,,,,,,,,,0,0,0,0,0,0,0,0,0,0,0,0,0,0,0,0,,,,,0.0,,,,,,
183,2339369,1745077612645,,,,,,,,,,,,,,,,,,,,,,,,,,,,,,,,,,0,0,0,0,0,0,0,0,0,0,0,0,0,0,0,0,,,,,,,,,,,
184,2339389,1745077612665,0.0,180.74,13.01,-0.13,-0.05,0.99,0.0,0.0,0.0,1.0,1.17,85.0,709.0,0.0,3.8,15.0,14.35,1.112,82.6,160.0,6.5,5.0,2.0,0.0,2.0,2.0,0.0,0.0,0.0,0.0,2.26,0.0,0.0,0,0,0,0,0,0,0,0,0,0,0,0,0,0,0,0,0.0,0.0,0.0,0.0,0.0,39.240185,-77.96524,3.36,29.0,3.0,0.8
185,2339409,1745077612685,,,,,,,,,,,,,,,,,,,,,,,,,,,,,,,,,,0,0,0,0,0,0,0,0,0,0,0,0,0,0,0,0,,,,,,,,,,,
186,2339429,1745077612707,0.0,180.74,,-0.13,-0.05,0.99,-1.0,0.0,0.0,1.0,1.17,85.0,709.0,0.0,3.8,,14.35,1.109,82.6,,6.5,5.0,,,,,,,,,,,,0,0,0,0,0,0,0,0,0,0,0,0,0,0,0,0,,,,,0.0,,,,,,
187,2339449,1745077612727,,,,,,,,,,,,,,,,,,,,,,,,,,,,,,,,,,0,0,0,0,0,0,0,0,0,0,0,0,0,0,0,0,,,,,,,,,,,
188,2339469,1745077612747,0.0,180.62,,-0.13,-0.05,0.99,0.0,0.0,0.0,1.0,1.17,85.0,709.0,0.0,3.8,,14.35,1.106,82.6,,6.5,5.0,,,,,,,,,,,,0,0,0,0,0,0,0,0,0,0,0,0,0,0,0,0,,,,,0.0,,,,,,
189,2339489,1745077612767,,,,,,,,,,,,,,,,,,,,,,,2.0,0.0,2.0,2.0,0.0,0.0,0.0,0.0,2.26,,,0,0,0,0,0,0,0,0,0,0,0,0,0,0,0,0,0.0,,,,,39.240185,-77.96524,3.15,29.0,3.0,0.8
190,2339509,1745077612787,0.0,180.74,,-0.14,-0.05,0.99,0.0,0.0,0.0,1.0,1.17,85.0,709.0,0.0,3.8,,14.35,1.103,82.6,,6.5,5.0,,,,,,,,,,,,0,0,0,0,0,0,0,0,0,0,0,0,0,0,0,0,,,,,0.0,,,,,,
191,2339529,1745077612805,,,,,,,,,,,,,,,,,,,,,,,,,,,,,,,,,,0,0,0,0,0,0,0,0,0,0,0,0,0,0,0,0,,,,,,,,,,,
192,2339549,1745077612825,0.0,180.74,,-0.14,-0.05,0.99,0.0,0.0,0.0,1.0,1.17,85.0,709.0,0.0,3.8,,14.35,1.103,82.6,,6.5,5.0,,,,,,,,,,,,0,0,0,0,0,0,0,0,0,0,0,0,0,0,0,0,,,,,0.0,,,,,,
193,2339569,1745077612845,,,,,,,,,,,,,,,,,,,,,,,,,,,,,,,,,,0,0,0,0,0,0,0,0,0,0,0,0,0,0,0,0,,,,,,,,,,,
194,2339589,1745077612865,0.0,180.62,,-0.14,-0.05,0.99,0.0,0.0,0.0,1.0,1.17,85.0,709.0,0.0,3.8,,14.35,1.099,82.6,,6.5,5.0,2.0,0.0,2.0,2.0,0.0,0.0,0.0,0.0,2.26,,,0,0,0,0,0,0,0,0,0,0,0,0,0,0,0,0,0.0,,,,0.0,39.240185,-77.96524,2.8,29.0,3.0,0.8
195,2339609,1745077612885,,,,,,,,,,,,,,,,,,,,,,,,,,,,,,,,,,0,0,0,0,0,0,0,0,0,0,0,0,0,0,0,0,,,,,,,,,,,
196,2339629,1745077612907,0.0,180.74,,-0.14,-0.05,0.99,0.0,0.0,0.0,1.0,1.17,85.0,709.0,0.0,3.8,,14.35,1.096,82.6,,6.5,5.0,,,,,,,,,,,,0,0,0,0,0,0,0,0,0,0,0,0,0,0,0,0,,,,,0.0,,,,,,
197,2339649,1745077612927,,,,,,,,,,,,,,,,,,,,,,,,,,,,,,,,,,0,0,0,0,0,0,0,0,0,0,0,0,0,0,0,0,,,,,,,,,,,
198,2339669,1745077612947,0.0,180.74,,-0.14,-0.05,0.99,0.0,0.0,0.0,1.0,1.17,85.0,709.0,0.0,3.8,,14.35,1.095,82.6,,6.5,5.0,,,,,,,,,,,,0,0,0,0,0,0,0,0,0,0,0,0,0,0,0,0,,,,,0.0,,,,,,
199,2339689,1745077612967,,,,,,,,,,,,,,,,,,,,,,,2.0,0.0,2.0,2.0,0.0,0.0,0.0,0.0,2.26,,,0,0,0,0,0,0,0,0,0,0,0,0,0,0,0,0,0.0,,,,,39.240185,-77.965233,2.51,29.0,3.0,0.8
200,2339709,1745077612987,0.0,180.74,,-0.15,-0.05,0.99,0.0,0.0,0.0,1.01,1.17,86.0,709.0,0.0,3.8,,14.35,1.093,82.6,,6.3,5.0,,,,,,,,,,,,0,0,0,0,0,0,0,0,0,0,0,0,0,0,0,0,,,,,0.0,,,,,,
201,2339729,1745077613007,,,,,,,,,,,,,,,,,,,,,,,,,,,,,,,,,,0,0,0,0,0,0,0,0,0,0,0,0,0,0,0,0,,,,,,,,,,,
202,2339749,1745077613017,0.0,180.74,,-0.15,-0.05,0.99,0.0,0.0,0.0,1.0,1.17,85.0,709.0,0.0,3.8,,14.35,1.093,82.6,,6.3,5.0,,,,,,,,,,,,0,0,0,0,0,0,0,0,0,0,0,0,0,0,0,0,,,,,0.0,,,,,,
203,2339769,1745077613037,,,,,,,,,,,,,,,,,,,,,,,,,,,,,,,,,,0,0,0,0,0,0,0,0,0,0,0,0,0,0,0,0,,,,,,,,,,,
204,2339789,1745077613057,0.0,180.74,,-0.15,-0.05,0.99,0.0,0.0,0.0,1.0,1.17,85.0,709.0,0.0,3.8,,14.35,1.089,82.6,,6.3,5.0,1.0,0.0,1.0,1.0,0.0,0.0,0.0,0.0,2.26,,,0,0,0,0,0,0,0,0,0,0,0,0,0,0,0,0,0.0,,,,0.0,39.240185,-77.965233,2.13,29.0,3.0,0.8
205,2339809,1745077613077,,,,,,,,,,,,,,,,,,,,,,,,,,,,,,,,,,0,0,0,0,0,0,0,0,0,0,0,0,0,0,0,0,,,,,,,,,,,
206,2339829,1745077613103,0.0,180.74,,-0.15,-0.05,0.99,0.0,0.0,0.0,1.0,1.17,85.0,709.0,0.0,3.8,,14.35,1.09,82.6,,6.3,5.0,,,,,,,,,,,,0,0,0,0,0,0,0,0,0,0,0,0,0,0,0,0,,,,,0.0,,,,,,
207,2339849,1745077613123,,,,,,,,,,,,,,,,,,,,,,,,,,,,,,,,,,0,0,0,0,0,0,0,0,0,0,0,0,0,0,0,0,,,,,,,,,,,
208,2339869,1745077613143,0.0,180.74,,-0.15,-0.05,0.99,0.0,0.0,0.0,1.01,1.17,86.0,709.0,0.0,3.8,,14.35,1.088,82.6,,6.3,5.0,,,,,,,,,,,,0,0,0,0,0,0,0,0,0,0,0,0,0,0,0,0,,,,,0.0,,,,,,
209,2339889,1745077613163,,,,,,,,,,,,,,,,,,,,,,,1.0,0.0,1.0,1.0,0.0,0.0,0.0,0.0,2.26,,,0,0,0,0,0,0,0,0,0,0,0,0,0,0,0,0,0.0,,,,,39.240185,-77.965233,1.83,29.0,3.0,0.8
210,2339909,1745077613183,0.0,180.87,,-0.15,-0.05,0.99,0.0,0.0,0.0,1.0,1.17,85.0,709.0,0.0,3.8,,14.35,1.088,82.6,,6.5,5.0,,,,,,,,,,,,0,0,0,0,0,0,0,0,0,0,0,0,0,0,0,0,,,,,0.0,,,,,,
211,2339929,1745077613207,,,,,,,,,,,,,,,,,,,,,,,,,,,,,,,,,,0,0,0,0,0,0,0,0,0,0,0,0,0,0,0,0,,,,,,,,,,,
212,2339949,1745077613227,0.0,180.87,,-0.15,-0.05,0.99,0.0,0.0,0.0,1.0,1.17,85.0,709.0,0.0,3.8,,14.35,1.088,82.6,,6.5,5.0,,,,,,,,,,,,0,0,0,0,0,0,0,0,0,0,0,0,0,0,0,0,,,,,0.0,,,,,,
213,2339969,1745077613247,,,,,,,,,,,,,,,,,,,,,,,,,,,,,,,,,,0,0,0,0,0,0,0,0,0,0,0,0,0,0,0,0,,,,,,,,,,,
214,2339989,1745077613267,0.0,180.87,,-0.15,-0.05,0.99,0.0,0.0,0.0,1.0,1.17,85.0,709.0,0.0,3.8,,14.35,1.088,82.6,,6.6,5.0,1.0,0.0,1.0,1.0,0.0,0.0,0.0,0.0,2.26,,,0,0,0,0,0,0,0,0,0,0,0,0,0,0,0,0,0.0,,,,0.0,39.240185,-77.965233,1.54,29.0,3.0,0.8
215,2340009,1745077613287,,,,,,,,,,,,,,,,,,,,,,,,,,,,,,,,,,0,0,0,0,0,0,0,0,0,0,0,0,0,0,0,0,,,,,,,,,,,
216,2340029,1745077613305,0.0,180.87,,-0.15,-0.05,0.99,0.0,0.0,0.0,1.0,1.17,86.0,709.0,0.0,3.8,,14.35,1.086,82.6,,6.6,5.0,,,,,,,,,,,,0,0,0,0,0,0,0,0,0,0,0,0,0,0,0,0,,,,,0.0,,,,,,
217,2340049,1745077613325,,,,,,,,,,,,,,,,,,,,,,,,,,,,,,,,,,0,0,0,0,0,0,0,0,0,0,0,0,0,0,0,0,,,,,,,,,,,
218,2340069,1745077613345,0.0,180.87,,-0.15,-0.05,0.99,0.0,0.0,0.0,1.01,1.17,86.0,709.0,0.0,3.8,,14.35,1.086,82.6,,6.6,5.0,,,,,,,,,,,,0,0,0,0,0,0,0,0,0,0,0,0,0,0,0,0,,,,,0.0,,,,,,
219,2340089,1745077613365,,,,,,,,,,,,,,,,,,,,,,,1.0,0.0,1.0,1.0,0.0,0.0,0.0,0.0,2.26,,,0,0,0,0,0,0,0,0,0,0,0,0,0,0,0,0,0.0,,,,,39.240185,-77.965233,1.13,29.0,3.0,0.8
220,2340109,1745077613385,0.0,180.87,,-0.15,-0.04,0.99,0.0,0.0,0.0,1.0,1.17,86.0,0.0,0.0,4.77,,14.35,1.086,82.6,,6.3,5.0,,,,,,,,,,,,0,0,0,0,0,0,0,0,0,0,0,0,0,0,0,0,,,,,0.0,,,,,,
221,2340129,1745077613407,,,,,,,,,,,,,,,,,,,,,,,,,,,,,,,,,,0,0,0,0,0,0,0,0,0,0,0,0,0,0,0,0,,,,,,,,,,,
222,2340149,1745077613427,0.0,180.74,,-0.15,-0.04,0.99,0.0,0.0,0.0,1.0,1.17,85.0,0.0,0.0,4.77,,14.35,1.088,82.6,,6.3,5.0,,,,,,,,,,,,0,0,0,0,0,0,0,0,0,0,0,0,0,0,0,0,,,,,0.0,,,,,,
223,2340169,1745077613447,,,,,,,,,,,,,,,,,,,,,,,,,,,,,,,,,,0,0,0,0,0,0,0,0,0,0,0,0,0,0,0,0,,,,,,,,,,,
224,2340189,1745077613467,0.0,180.62,,-0.15,-0.04,0.99,0.0,0.0,0.0,1.01,1.17,86.0,0.0,0.0,4.77,,14.35,1.086,82.6,,6.4,5.0,1.0,0.0,1.0,1.0,0.0,0.0,0.0,0.0,2.26,,,0,0,0,0,0,0,0,0,0,0,0,0,0,0,0,0,0.0,,,,0.0,39.240185,-77.965233,0.82,29.0,3.0,0.8
225,2340209,1745077613487,,,,,,,,,,,,,,,,,,,,,,,,,,,,,,,,,,0,0,0,0,0,0,0,0,0,0,0,0,0,0,0,0,,,,,,,,,,,
226,2340229,1745077613506,0.0,180.49,,-0.15,-0.04,0.99,0.0,0.0,0.0,1.0,1.17,86.0,0.0,0.0,4.77,,14.35,1.086,82.6,,6.4,5.0,,,,,,,,,,,,0,0,0,0,0,0,0,0,0,0,0,0,0,0,0,0,,,,,0.0,,,,,,
227,2340249,1745077613526,,,,,,,,,,,,,,,,,,,,,,,,,,,,,,,,,,0,0,0,0,0,0,0,0,0,0,0,0,0,0,0,0,,,,,,,,,,,
228,2340269,1745077613546,0.0,180.49,,-0.15,-0.04,0.99,0.0,0.0,0.0,1.0,1.17,85.0,0.0,0.0,4.77,,14.35,1.084,82.6,,6.4,5.0,,,,,,,,,,,,0,0,0,0,0,0,0,0,0,0,0,0,0,0,0,0,,,,,0.0,,,,,,
229,2340289,1745077613566,,,,,,,,,,,,,,,,,,,,,,,1.0,0.0,1.0,1.0,0.0,0.0,0.0,0.0,2.26,,,0,0,0,0,0,0,0,0,0,0,0,0,0,0,0,0,0.0,,,,,39.240185,-77.965233,0.46,29.0,3.0,0.8
230,2340309,1745077613586,0.0,180.37,,-0.15,-0.04,0.99,0.0,0.0,0.0,1.0,1.17,85.0,0.0,0.0,4.77,,14.35,1.084,82.6,,6.5,5.0,,,,,,,,,,,,0,0,0,0,0,0,0,0,0,0,0,0,0,0,0,0,,,,,0.0,,,,,,
231,2340329,1745077613606,,,,,,,,,,,,,,,,,,,,,,,,,,,,,,,,,,0,0,0,0,0,0,0,0,0,0,0,0,0,0,0,0,,,,,,,,,,,
232,2340349,1745077613626,0.0,180.37,,-0.14,-0.04,0.99,0.0,0.0,0.0,1.0,1.17,85.0,0.0,0.0,4.77,,14.35,1.085,82.6,,6.5,5.0,,,,,,,,,,,,0,0,0,0,0,0,0,0,0,0,0,0,0,0,0,0,,,,,0.0,,,,,,
233,2340369,1745077613646,,,,,,,,,,,,,,,,,,,,,,,,,,,,,,,,,,0,0,0,0,0,0,0,0,0,0,0,0,0,0,0,0,,,,,,,,,,,
234,2340389,1745077613666,0.0,180.37,9.06,-0.13,-0.04,0.99,0.0,0.0,0.0,1.0,1.17,85.0,0.0,0.0,4.77,15.0,14.35,1.085,82.6,160.0,107.4,5.0,1.0,0.0,1.0,1.0,0.0,0.0,0.0,0.0,2.26,0.0,0.0,0,0,0,0,0,0,0,0,0,0,0,0,0,0,0,0,0.0,0.0,0.0,0.0,0.0,39.240185,-77.965233,0.13,29.0,3.0,0.8
235,2340409,1745077613686,,,,,,,,,,,,,,,,,,,,,,,,,,,,,,,,,,0,0,0,0,0,0,0,0,0,0,0,0,0,0,0,0,,,,,,,,,,,
236,2340429,1745077613706,0.0,180.49,,-0.12,-0.04,1.0,0.0,0.0,0.0,1.01,1.17,86.0,0.0,0.0,4.77,,14.35,1.085,82.6,,107.4,5.0,,,,,,,,,,,,0,0,0,0,0,0,0,0,0,0,0,0,0,0,0,0,,,,,0.0,,,,,,
237,2340449,1745077613726,,,,,,,,,,,,,,,,,,,,,,,,,,,,,,,,,,0,0,0,0,0,0,0,0,0,0,0,0,0,0,0,0,,,,,,,,,,,
238,2340469,1745077613746,0.0,180.37,,-0.11,-0.05,1.0,0.0,0.0,0.0,1.0,1.17,85.0,0.0,0.0,4.77,,14.34,1.086,82.6,,107.4,5.0,,,,,,,,,,,,0,0,0,0,0,0,0,0,0,0,0,0,0,0,0,0,,,,,0.0,,,,,,
239,2340489,1745077613766,,,,,,,,,,,,,,,,,,,,,,,1.0,0.0,1.0,1.0,0.0,0.0,0.0,0.0,2.26,,,0,0,0,0,0,0,0,0,0,0,0,0,0,0,0,0,0.0,,,,,39.240185,-77.965233,0.11,29.0,3.0,0.8
240,2340509,1745077613786,0.0,180.49,,-0.1,-0.05,1.0,0.0,0.0,0.0,1.0,1.17,85.0,0.0,0.0,4.77,,14.34,1.086,82.6,,107.4,5.0,,,,,,,,,,,,0,0,0,0,0,0,0,0,0,0,0,0,0,0,0,0,,,,,0.0,,,,,,
241,2340529,1745077613806,,,,,,,,,,,,,,,,,,,,,,,,,,,,,,,,,,0,0,0,0,0,0,0,0,0,0,0,0,0,0,0,0,,,,,,,,,,,
242,2340549,1745077613826,0.0,180.49,,-0.09,-0.05,0.99,0.0,0.0,0.0,1.0,1.17,85.0,0.0,0.0,4.77,,14.3,1.086,82.6,,107.4,5.0,,,,,,,,,,,,0,0,0,0,0,0,0,0,0,0,0,0,0,0,0,0,,,,,0.0,,,,,,
243,2340569,1745077613846,,,,,,,,,,,,,,,,,,,,,,,,,,,,,,,,,,0,0,0,0,0,0,0,0,0,0,0,0,0,0,0,0,,,,,,,,,,,
244,2340589,1745077613866,0.0,180.62,,-0.09,-0.05,0.99,0.0,0.0,0.0,1.0,1.17,85.0,0.0,0.0,4.77,,14.32,1.087,82.6,,107.4,5.0,1.0,0.0,1.0,1.0,0.0,0.0,0.0,0.0,2.26,,,0,0,0,0,0,0,0,0,0,0,0,0,0,0,0,0,0.0,,,,0.0,39.240185,-77.965233,0.16,29.0,3.0,0.8
245,2340609,1745077613886,,,,,,,,,,,,,,,,,,,,,,,,,,,,,,,,,,0,0,0,0,0,0,0,0,0,0,0,0,0,0,0,0,,,,,,,,,,,
246,2340629,1745077613908,0.0,180.62,,-0.09,-0.06,0.99,0.0,0.0,0.0,1.0,1.17,85.0,0.0,0.0,4.77,,14.32,1.081,82.6,,107.4,5.0,,,,,,,,,,,,0,0,0,0,0,0,0,0,0,0,0,0,0,0,0,0,,,,,0.0,,,,,,
247,2340649,1745077613928,,,,,,,,,,,,,,,,,,,,,,,,,,,,,,,,,,0,0,0,0,0,0,0,0,0,0,0,0,0,0,0,0,,,,,,,,,,,
248,2340669,1745077613948,0.0,180.62,,-0.08,-0.06,1.0,0.0,0.0,0.0,1.0,1.17,85.0,0.0,0.0,4.77,,14.26,1.077,82.6,,107.4,5.0,,,,,,,,,,,,0,0,0,0,0,0,0,0,0,0,0,0,0,0,0,0,,,,,0.0,,,,,,
249,2340689,1745077613968,,,,,,,,,,,,,,,,,,,,,,,1.0,0.0,1.0,1.0,0.0,0.0,0.0,0.0,2.26,,,0,0,0,0,0,0,0,0,0,0,0,0,0,0,0,0,0.0,,,,,39.240185,-77.965233,0.11,29.0,3.0,0.8
250,2340709,1745077613988,0.0,180.74,,-0.08,-0.05,0.99,0.0,0.0,0.0,1.0,1.17,85.0,0.0,0.0,4.77,,14.26,1.077,82.6,,107.4,5.0,,,,,,,,,,,,0,0,0,0,0,0,0,0,0,0,0,0,0,0,0,0,,,,,0.0,,,,,,
251,2340729,1745077614008,,,,,,,,,,,,,,,,,,,,,,,,,,,,,,,,,,0,0,0,0,0,0,0,0,0,0,0,0,0,0,0,0,,,,,,,,,,,
252,2340749,1745077614018,0.0,180.74,,-0.08,-0.06,0.99,0.0,0.0,0.0,1.0,1.17,85.0,0.0,0.0,4.77,,14.35,1.072,82.6,,107.4,5.0,,,,,,,,,,,,0,0,0,0,0,0,0,0,0,0,0,0,0,0,0,0,,,,,0.0,,,,,,
253,2340769,1745077614038,,,,,,,,,,,,,,,,,,,,,,,,,,,,,,,,,,0,0,0,0,0,0,0,0,0,0,0,0,0,0,0,0,,,,,,,,,,,
254,2340789,1745077614058,0.0,180.74,,-0.08,-0.06,0.99,0.0,0.0,0.0,1.0,1.17,85.0,0.0,0.0,4.77,,14.26,1.071,82.6,,107.4,5.0,1.0,0.0,1.0,1.0,0.0,0.0,0.0,0.0,2.26,,,0,0,0,0,0,0,0,0,0,0,0,0,0,0,0,0,0.0,,,,0.0,39.240185,-77.965233,0.05,29.0,3.0,0.8
255,2340809,1745077614078,,,,,,,,,,,,,,,,,,,,,,,,,,,,,,,,,,0,0,0,0,0,0,0,0,0,0,0,0,0,0,0,0,,,,,,,,,,,
256,2340829,1745077614104,2.01,180.74,,-0.08,-0.07,0.99,0.0,0.0,0.0,0.99,1.17,85.0,0.0,0.0,4.77,,14.28,1.073,82.6,,107.4,5.0,,,,,,,,,,,,0,0,0,0,0,0,0,0,0,0,0,0,0,0,0,0,,,,,0.0,,,,,,
257,2340849,1745077614124,,,,,,,,,,,,,,,,,,,,,,,,,,,,,,,,,,0,0,0,0,0,0,0,0,0,0,0,0,0,0,0,0,,,,,,,,,,,
258,2340869,1745077614144,3.27,180.74,,-0.08,-0.07,0.99,0.0,0.0,0.0,0.99,1.17,85.0,0.0,0.0,4.77,,14.36,1.07,82.6,,107.4,5.0,,,,,,,,,,,,0,0,0,0,0,0,0,0,0,0,0,0,0,0,0,0,,,,,0.0,,,,,,
259,2340889,1745077614164,,,,,,,,,,,,,,,,,,,,,,,1.0,0.0,1.0,1.0,0.0,0.0,0.0,0.0,2.26,,,0,0,0,0,0,0,0,0,0,0,0,0,0,0,0,0,0.0,,,,,39.240185,-77.965233,0.04,29.0,3.0,0.8
260,2340909,1745077614184,3.9,180.87,,-0.08,-0.06,0.99,0.0,0.0,0.0,0.99,1.17,84.0,0.0,0.0,4.77,,14.36,1.07,82.6,,107.4,5.0,,,,,,,,,,,,0,0,0,0,0,0,0,0,0,0,0,0,0,0,0,0,,,,,0.0,,,,,,
261,2340929,1745077614206,,,,,,,,,,,,,,,,,,,,,,,,,,,,,,,,,,0,0,0,0,0,0,0,0,0,0,0,0,0,0,0,0,,,,,,,,,,,
262,2340949,1745077614226,2.64,181.0,,-0.08,-0.06,0.99,0.0,0.0,0.0,0.99,1.17,84.0,0.0,0.0,4.77,,14.24,1.073,82.6,,107.4,5.0,,,,,,,,,,,,0,0,0,0,0,0,0,0,0,0,0,0,0,0,0,0,,,,,0.0,,,,,,
263,2340969,1745077614246,,,,,,,,,,,,,,,,,,,,,,,,,,,,,,,,,,0,0,0,0,0,0,0,0,0,0,0,0,0,0,0,0,,,,,,,,,,,
264,2340989,1745077614266,3.27,181.12,,-0.08,-0.06,0.98,0.0,0.0,0.0,0.99,1.17,84.0,0.0,0.0,4.76,,14.28,1.076,82.6,,107.4,5.0,1.0,0.0,1.0,1.0,0.0,0.0,0.0,0.0,2.26,,,0,0,0,0,0,0,0,0,0,0,0,0,0,0,0,0,0.0,,,,0.0,39.240185,-77.965233,0.07,29.0,3.0,0.8
265,2341009,1745077614286,,,,,,,,,,,,,,,,,,,,,,,,,,,,,,,,,,0,0,0,0,0,0,0,0,0,0,0,0,0,0,0,0,,,,,,,,,,,
266,2341029,1745077614306,4.52,181.25,,-0.07,-0.05,0.99,0.0,0.0,0.0,0.99,1.17,84.0,0.0,0.0,4.76,,14.35,1.079,82.6,,107.4,5.0,,,,,,,,,,,,0,0,0,0,0,0,0,0,0,0,0,0,0,0,0,0,,,,,0.0,,,,,,
267,2341049,1745077614326,,,,,,,,,,,,,,,,,,,,,,,,,,,,,,,,,,0,0,0,0,0,0,0,0,0,0,0,0,0,0,0,0,,,,,,,,,,,
268,2341069,1745077614346,2.64,181.37,,-0.06,-0.06,0.99,0.0,0.0,0.0,0.99,1.17,85.0,423.0,0.0,4.76,,14.22,1.083,82.6,,107.4,5.0,,,,,,,,,,,,0,0,0,0,0,0,0,0,0,0,0,0,0,0,0,0,,,,,0.0,,,,,,
269,2341089,1745077614366,,,,,,,,,,,,,,,,,,,,,,,1.0,0.0,1.0,1.0,0.0,0.0,0.0,0.0,2.26,,,0,0,0,0,0,0,0,0,0,0,0,0,0,0,0,0,0.0,,,,,39.240185,-77.965233,0.07,29.0,3.0,0.8
270,2341109,1745077614386,3.27,181.5,,-0.05,-0.06,0.99,0.0,0.0,0.0,0.99,1.17,85.0,423.0,0.0,4.76,,14.22,1.083,82.6,,107.4,5.0,,,,,,,,,,,,0,0,0,0,0,0,0,0,0,0,0,0,0,0,0,0,,,,,0.0,,,,,,
271,2341129,1745077614404,,,,,,,,,,,,,,,,,,,,,,,,,,,,,,,,,,0,0,0,0,0,0,0,0,0,0,0,0,0,0,0,0,,,,,,,,,,,
272,2341149,1745077614424,2.64,181.62,,-0.07,-0.06,0.99,0.0,0.0,0.0,0.99,1.17,85.0,423.0,0.0,4.76,,14.15,1.101,82.6,,107.4,5.0,,,,,,,,,,,,0,0,0,0,0,0,0,0,0,0,0,0,0,0,0,0,,,,,0.0,,,,,,
273,2341169,1745077614444,,,,,,,,,,,,,,,,,,,,,,,,,,,,,,,,,,0,0,0,0,0,0,0,0,0,0,0,0,0,0,0,0,,,,,,,,,,,
274,2341189,1745077614464,2.64,181.62,,-0.08,-0.06,0.99,0.0,0.0,0.0,0.99,1.17,84.0,1292.0,0.0,3.78,,14.02,1.132,82.6,,107.4,5.0,1.0,0.0,1.0,1.0,0.0,0.0,0.0,0.0,2.26,,,0,0,0,0,0,0,0,0,0,0,0,0,0,0,0,0,0.0,,,,0.0,39.240185,-77.965233,0.23,29.0,3.0,0.8
275,2341209,1745077614484,,,,,,,,,,,,,,,,,,,,,,,,,,,,,,,,,,0,0,0,0,0,0,0,0,0,0,0,0,0,0,0,0,,,,,,,,,,,
276,2341229,1745077614505,2.01,181.62,,-0.08,-0.07,0.98,0.0,0.0,0.0,0.99,1.17,84.0,1297.0,0.0,3.44,,14.0,1.25,82.6,,107.4,5.0,,,,,,,,,,,,0,0,0,0,0,0,0,0,0,0,0,0,0,0,0,0,,,,,0.0,,,,,,
277,2341249,1745077614525,,,,,,,,,,,,,,,,,,,,,,,,,,,,,,,,,,0,0,0,0,0,0,0,0,0,0,0,0,0,0,0,0,,,,,,,,,,,
278,2341269,1745077614545,0.13,181.75,,-0.08,-0.08,0.97,0.0,0.0,0.0,0.98,1.17,83.0,1310.0,0.0,3.44,,14.06,1.251,82.6,,107.4,5.0,,,,,,,,,,,,0,0,0,0,0,0,0,0,0,0,0,0,0,0,0,0,,,,,0.0,,,,,,
279,2341289,1745077614565,,,,,,,,,,,,,,,,,,,,,,,1.0,0.0,1.0,1.0,0.0,0.0,0.0,0.0,2.26,,,0,0,0,0,0,0,0,0,0,0,0,0,0,0,0,0,0.0,,,,,39.240185,-77.965233,0.05,29.0,3.0,0.8
280,2341309,1745077614585,0.0,181.75,,-0.08,-0.09,0.98,0.0,0.0,0.0,0.99,1.17,84.0,1266.0,0.0,3.44,,14.06,1.251,82.6,,107.5,5.0,,,,,,,,,,,,0,0,0,0,0,0,0,0,0,0,0,0,0,0,0,0,,,,,0.0,,,,,,
281,2341329,1745077614605,,,,,,,,,,,,,,,,,,,,,,,,,,,,,,,,,,0,0,0,0,0,0,0,0,0,0,0,0,0,0,0,0,,,,,,,,,,,
282,2341349,1745077614625,0.0,181.75,,-0.09,-0.07,1.0,0.0,0.0,0.0,1.0,1.17,85.0,1266.0,0.0,3.44,,14.11,1.251,82.6,,107.5,5.0,,,,,,,,,,,,0,0,0,0,0,0,0,0,0,0,0,0,0,0,0,0,,,,,0.0,,,,,,
283,2341369,1745077614645,,,,,,,,,,,,,,,,,,,,,,,,,,,,,,,,,,0,0,0,0,0,0,0,0,0,0,0,0,0,0,0,0,,,,,,,,,,,
284,2341389,1745077614665,0.0,181.75,12.57,-0.09,-0.07,1.0,0.0,0.0,0.0,1.0,1.17,86.0,1413.0,0.0,3.46,15.0,13.95,1.251,82.6,160.0,107.4,5.0,1.0,0.0,1.0,1.0,0.0,0.0,0.0,0.0,2.26,0.0,0.0,0,0,0,0,0,0,0,0,0,0,0,0,0,0,0,0,0.0,0.0,0.0,0.0,0.0,39.240185,-77.965233,0.14,29.0,3.0,0.8
285,2341409,1745077614685,,,,,,,,,,,,,,,,,,,,,,,,,,,,,,,,,,0,0,0,0,0,0,0,0,0,0,0,0,0,0,0,0,,,,,,,,,,,
286,2341429,1745077614708,0.0,181.75,,-0.08,-0.08,0.99,0.0,0.0,0.0,1.0,1.17,85.0,1319.0,0.0,3.44,,13.99,1.251,82.6,,107.4,5.0,,,,,,,,,,,,0,0,0,0,0,0,0,0,0,0,0,0,0,0,0,0,,,,,0.0,,,,,,
287,2341449,1745077614728,,,,,,,,,,,,,,,,,,,,,,,,,,,,,,,,,,0,0,0,0,0,0,0,0,0,0,0,0,0,0,0,0,,,,,,,,,,,
288,2341469,1745077614748,0.0,181.75,,-0.08,-0.08,0.98,0.0,0.0,0.0,0.99,1.17,84.0,1346.0,0.0,3.44,,14.0,1.25,82.6,,107.4,5.0,,,,,,,,,,,,0,0,0,0,0,0,0,0,0,0,0,0,0,0,0,0,,,,,0.0,,,,,,
289,2341489,1745077614768,,,,,,,,,,,,,,,,,,,,,,,1.0,0.0,1.0,1.0,0.0,0.0,0.0,0.0,2.26,,,0,0,0,0,0,0,0,0,0,0,0,0,0,0,0,0,0.0,,,,,39.240185,-77.965233,0.21,29.0,3.0,0.8
290,2341509,1745077614788,0.0,181.88,,-0.09,-0.07,1.01,0.0,0.0,0.0,1.01,1.17,86.0,1249.0,0.0,3.44,,14.0,1.25,82.6,,107.4,5.0,,,,,,,,,,,,0,0,0,0,0,0,0,0,0,0,0,0,0,0,0,0,,,,,0.0,,,,,,
291,2341529,1745077614805,,,,,,,,,,,,,,,,,,,,,,,,,,,,,,,,,,0,0,0,0,0,0,0,0,0,0,0,0,0,0,0,0,,,,,,,,,,,
292,2341549,1745077614825,0.0,181.88,,-0.09,-0.06,1.01,0.0,0.0,0.0,1.02,1.17,86.0,1249.0,0.0,3.44,,14.11,1.213,82.6,,107.4,5.0,,,,,,,,,,,,0,0,0,0,0,0,0,0,0,0,0,0,0,0,0,0,,,,,0.0,,,,,,
293,2341569,1745077614845,,,,,,,,,,,,,,,,,,,,,,,,,,,,,,,,,,0,0,0,0,0,0,0,0,0,0,0,0,0,0,0,0,,,,,,,,,,,
294,2341589,1745077614865,0.0,181.88,,-0.09,-0.07,1.0,0.0,0.0,0.0,1.01,1.17,86.0,1408.0,0.0,3.46,,14.04,1.183,82.6,,107.4,5.0,1.0,0.0,1.0,1.0,0.0,0.0,0.0,0.0,2.26,,,0,0,0,0,0,0,0,0,0,0,0,0,0,0,0,0,0.0,,,,0.0,39.240185,-77.965233,0.13,29.0,3.0,0.8
295,2341609,1745077614885,,,,,,,,,,,,,,,,,,,,,,,,,,,,,,,,,,0,0,0,0,0,0,0,0,0,0,0,0,0,0,0,0,,,,,,,,,,,
296,2341629,1745077614905,0.0,181.88,,-0.1,-0.06,0.99,0.0,0.0,0.0,1.0,1.17,85.0,1241.0,0.0,3.44,,14.02,1.164,82.6,,107.4,5.0,,,,,,,,,,,,0,0,0,0,0,0,0,0,0,0,0,0,0,0,0,0,,,,,0.0,,,,,,
297,2341649,1745077614925,,,,,,,,,,,,,,,,,,,,,,,,,,,,,,,,,,0,0,0,0,0,0,0,0,0,0,0,0,0,0,0,0,,,,,,,,,,,
298,2341669,1745077614945,0.0,181.88,,-0.08,-0.06,0.99,0.0,0.0,0.0,1.0,1.17,85.0,1321.0,0.0,3.46,,13.98,1.199,82.6,,107.4,5.0,,,,,,,,,,,,0,0,0,0,0,0,0,0,0,0,0,0,0,0,0,0,,,,,0.0,,,,,,
299,2341689,1745077614965,,,,,,,,,,,,,,,,,,,,,,,1.0,0.0,1.0,1.0,0.0,0.0,0.0,0.0,2.26,,,0,0,0,0,0,0,0,0,0,0,0,0,0,0,0,0,0.0,,,,,39.240185,-77.965233,0.23,29.0,3.0,0.8
300,2341709,1745077614985,0.0,181.88,,-0.06,-0.06,1.0,0.0,0.0,0.0,1.01,1.17,86.0,1425.0,0.0,3.45,,13.98,1.199,82.6,,107.4,5.0,,,,,,,,,,,,0,0,0,0,0,0,0,0,0,0,0,0,0,0,0,0,,,,,0.0,,,,,,
301,2341729,1745077615005,,,,,,,,,,,,,,,,,,,,,,,,,,,,,,,,,,0,0,0,0,0,0,0,0,0,0,0,0,0,0,0,0,,,,,,,,,,,
302,2341749,1745077615017,0.0,181.88,,-0.05,-0.06,1.0,0.0,0.0,0.0,1.01,1.17,86.0,1425.0,0.0,3.45,,14.04,1.213,82.6,,107.4,5.0,,,,,,,,,,,,0,0,0,0,0,0,0,0,0,0,0,0,0,0,0,0,,,,,0.0,,,,,,
303,2341769,1745077615037,,,,,,,,,,,,,,,,,,,,,,,,,,,,,,,,,,0,0,0,0,0,0,0,0,0,0,0,0,0,0,0,0,,,,,,,,,,,
304,2341789,1745077615057,0.0,181.88,,-0.06,-0.04,0.99,0.0,0.0,0.0,0.99,1.17,85.0,1311.0,10.3,3.77,,14.24,1.243,82.6,,107.5,5.0,1.0,0.0,1.0,1.0,0.0,0.0,0.0,0.0,2.26,,,0,0,0,0,0,0,0,0,0,0,0,0,0,0,0,0,0.0,,,,0.0,39.240185,-77.965233,0.07,29.0,3.0,0.8
305,2341809,1745077615077,,,,,,,,,,,,,,,,,,,,,,,,,,,,,,,,,,0,0,0,0,0,0,0,0,0,0,0,0,0,0,0,0,,,,,,,,,,,
306,2341829,1745077615107,0.0,181.88,,-0.06,-0.05,0.99,0.0,0.0,0.0,1.0,1.17,85.0,1377.0,15.8,4.05,,14.23,1.251,82.6,,107.5,5.0,,,,,,,,,,,,0,0,0,0,0,0,0,0,0,0,0,0,0,0,0,0,,,,,0.0,,,,,,
307,2341849,1745077615127,,,,,,,,,,,,,,,,,,,,,,,,,,,,,,,,,,0,0,0,0,0,0,0,0,0,0,0,0,0,0,0,0,,,,,,,,,,,
308,2341869,1745077615147,0.0,181.88,,-0.06,-0.05,1.01,0.0,0.0,0.0,1.01,1.17,86.0,1303.0,17.4,4.1,,14.19,1.251,82.6,,107.5,5.0,,,,,,,,,,,,0,0,0,0,0,0,0,0,0,0,0,0,0,0,0,0,,,,,0.0,,,,,,
309,2341889,1745077615167,,,,,,,,,,,,,,,,,,,,,,,1.0,0.0,1.0,1.0,0.0,0.0,0.0,0.0,2.26,,,0,0,0,0,0,0,0,0,0,0,0,0,0,0,0,0,0.0,,,,,39.240185,-77.965233,0.05,29.0,3.0,0.8
310,2341909,1745077615187,0.0,181.88,,-0.07,-0.04,1.04,0.0,0.0,0.0,1.04,1.17,88.0,1404.0,19.9,4.05,,14.19,1.251,82.6,,107.4,5.0,,,,,,,,,,,,0,0,0,0,0,0,0,0,0,0,0,0,0,0,0,0,,,,,0.0,,,,,,
311,2341929,1745077615205,,,,,,,,,,,,,,,,,,,,,,,,,,,,,,,,,,0,0,0,0,0,0,0,0,0,0,0,0,0,0,0,0,,,,,,,,,,,
312,2341949,1745077615225,0.0,181.75,,-0.07,-0.04,1.03,0.0,0.0,0.0,1.03,1.17,88.0,1404.0,19.9,4.05,,14.24,1.251,82.6,,107.4,5.0,,,,,,,,,,,,0,0,0,0,0,0,0,0,0,0,0,0,0,0,0,0,,,,,0.0,,,,,,
313,2341969,1745077615245,,,,,,,,,,,,,,,,,,,,,,,,,,,,,,,,,,0,0,0,0,0,0,0,0,0,0,0,0,0,0,0,0,,,,,,,,,,,
314,2341989,1745077615265,0.0,181.75,,-0.07,-0.04,1.02,0.0,0.0,0.0,1.03,1.17,87.0,2081.0,24.2,4.3,,14.15,1.249,82.6,,107.4,5.0,1.0,0.0,1.0,1.0,0.0,0.0,0.0,0.0,2.26,,,0,0,0,0,0,0,0,0,0,0,0,0,0,0,0,0,0.0,,,,0.0,39.240185,-77.965233,0.11,29.0,3.0,0.8
315,2342009,1745077615285,,,,,,,,,,,,,,,,,,,,,,,,,,,,,,,,,,0,0,0,0,0,0,0,0,0,0,0,0,0,0,0,0,,,,,,,,,,,
316,2342029,1745077615307,0.0,181.88,,-0.08,-0.03,1.01,0.0,0.0,0.0,1.02,1.17,87.0,2159.0,24.4,4.53,,14.2,1.249,82.6,,107.4,5.0,,,,,,,,,,,,0,0,0,0,0,0,0,0,0,0,0,0,0,0,0,0,,,,,0.0,,,,,,
317,2342049,1745077615327,,,,,,,,,,,,,,,,,,,,,,,,,,,,,,,,,,0,0,0,0,0,0,0,0,0,0,0,0,0,0,0,0,,,,,,,,,,,
318,2342069,1745077615347,0.0,181.88,,-0.08,-0.03,1.02,0.0,0.0,0.0,1.02,1.17,87.0,1991.0,24.5,4.42,,14.15,1.248,82.6,,107.4,5.0,,,,,,,,,,,,0,0,0,0,0,0,0,0,0,0,0,0,0,0,0,0,,,,,0.0,,,,,,
319,2342089,1745077615367,,,,,,,,,,,,,,,,,,,,,,,1.0,0.0,1.0,0.0,0.0,0.0,0.0,0.0,2.26,,,0,0,0,0,0,0,0,0,0,0,0,0,0,0,0,0,0.0,,,,,39.240185,-77.965233,0.38,29.0,3.0,0.8
320,2342109,1745077615387,0.0,181.88,,-0.07,-0.03,1.04,0.0,0.0,0.0,1.05,1.17,89.0,2224.0,14.6,4.5,,14.15,1.248,82.6,,107.4,5.0,,,,,,,,,,,,0,0,0,0,0,0,0,0,0,0,0,0,0,0,0,0,,,,,0.0,,,,,,
321,2342129,1745077615405,,,,,,,,,,,,,,,,,,,,,,,,,,,,,,,,,,0,0,0,0,0,0,0,0,0,0,0,0,0,0,0,0,,,,,,,,,,,
322,2342149,1745077615425,0.0,181.88,,-0.08,-0.01,1.03,-1.0,0.0,0.0,1.03,1.17,88.0,2224.0,14.6,4.5,,14.02,1.248,82.6,,107.4,5.0,,,,,,,,,,,,0,0,0,0,0,0,0,0,0,0,0,0,0,0,0,0,,,,,0.0,,,,,,
323,2342169,1745077615445,,,,,,,,,,,,,,,,,,,,,,,,,,,,,,,,,,0,0,0,0,0,0,0,0,0,0,0,0,0,0,0,0,,,,,,,,,,,
324,2342189,1745077615465,0.0,181.75,,-0.06,0.05,1.01,-1.0,0.0,1.0,1.01,1.17,86.0,2896.0,8.9,3.81,,13.77,1.248,82.6,,24.3,5.0,1.0,0.0,0.0,0.0,0.0,0.0,0.0,0.0,2.26,,,0,0,0,0,0,0,0,0,0,0,0,0,0,0,0,0,0.0,,,,0.0,39.240185,-77.965233,0.26,29.0,3.0,0.8
325,2342209,1745077615485,,,,,,,,,,,,,,,,,,,,,,,,,,,,,,,,,,0,0,0,0,0,0,0,0,0,0,0,0,0,0,0,0,,,,,,,,,,,
326,2342229,1745077615507,0.0,181.88,,-0.06,-0.01,1.07,-1.0,0.0,1.0,1.07,1.17,91.0,3144.0,1.3,3.65,,13.35,1.25,82.6,,24.3,5.0,,,,,,,,,,,,0,0,0,0,0,0,0,0,0,0,0,0,0,0,0,0,,,,,0.0,,,,,,
327,2342249,1745077615527,,,,,,,,,,,,,,,,,,,,,,,,,,,,,,,,,,0,0,0,0,0,0,0,0,0,0,0,0,0,0,0,0,,,,,,,,,,,
328,2342269,1745077615547,0.0,181.75,,-0.09,-0.08,1.11,-1.0,0.0,1.0,1.11,1.17,95.0,3141.0,0.0,2.83,,13.04,1.251,82.6,,24.3,5.0,,,,,,,,,,,,0,0,0,0,0,0,0,0,0,0,0,0,0,0,0,0,,,,,0.0,,,,,,
329,2342289,1745077615567,,,,,,,,,,,,,,,,,,,,,,,0.0,0.0,0.0,0.0,0.0,0.0,0.0,0.0,2.26,,,0,0,0,0,0,0,0,0,0,0,0,0,0,0,0,0,0.0,,,,,39.240185,-77.965233,0.04,29.0,3.0,0.8
330,2342309,1745077615587,0.0,181.75,,-0.11,-0.08,1.09,0.0,0.0,0.0,1.1,1.17,94.0,3072.0,5.4,3.73,,13.04,1.251,82.6,,27.4,5.0,,,,,,,,,,,,0,0,0,0,0,0,0,0,0,0,0,0,0,0,0,0,,,,,0.0,,,,,,
331,2342329,1745077615606,,,,,,,,,,,,,,,,,,,,,,,,,,,,,,,,,,0,0,0,0,0,0,0,0,0,0,0,0,0,0,0,0,,,,,,,,,,,
332,2342349,1745077615626,0.0,181.88,,-0.13,-0.09,1.09,0.0,0.0,0.0,1.1,1.17,93.0,3072.0,5.4,3.73,,13.12,1.251,82.6,,27.4,5.0,,,,,,,,,,,,0,0,0,0,0,0,0,0,0,0,0,0,0,0,0,0,,,,,0.0,,,,,,
333,2342369,1745077615646,,,,,,,,,,,,,,,,,,,,,,,,,,,,,,,,,,0,0,0,0,0,0,0,0,0,0,0,0,0,0,0,0,,,,,,,,,,,
334,2342389,1745077615666,0.0,181.88,13.4,-0.14,-0.11,1.1,0.0,0.0,0.0,1.11,1.17,94.0,2996.0,7.7,3.82,15.0,13.37,1.251,82.6,160.0,25.6,5.0,0.0,0.0,0.0,0.0,0.0,0.0,0.0,0.0,2.26,0.0,0.0,0,0,0,0,0,0,0,0,0,0,0,0,0,0,0,0,0.0,0.0,0.0,0.0,0.0,39.240185,-77.965233,0.25,29.0,3.0,0.8
335,2342409,1745077615686,,,,,,,,,,,,,,,,,,,,,,,,,,,,,,,,,,0,0,0,0,0,0,0,0,0,0,0,0,0,0,0,0,,,,,,,,,,,
336,2342429,1745077615706,0.0,181.88,,-0.16,-0.11,1.11,0.0,0.0,0.0,1.12,1.17,96.0,3010.0,7.1,3.77,,13.37,1.251,82.6,,25.6,5.0,,,,,,,,,,,,0,0,0,0,0,0,0,0,0,0,0,0,0,0,0,0,,,,,0.0,,,,,,
337,2342449,1745077615726,,,,,,,,,,,,,,,,,,,,,,,,,,,,,,,,,,0,0,0,0,0,0,0,0,0,0,0,0,0,0,0,0,,,,,,,,,,,
338,2342469,1745077615746,0.0,181.88,,-0.16,-0.14,1.16,0.0,0.0,0.0,1.18,1.18,100.0,2847.0,2.8,3.46,,13.32,1.25,82.6,,25.6,5.0,,,,,,,,,,,,0,0,0,0,0,0,0,0,0,0,0,0,0,0,0,0,,,,,0.0,,,,,,
339,2342489,1745077615766,,,,,,,,,,,,,,,,,,,,,,,0.0,0.0,0.0,0.0,0.0,0.0,0.0,0.0,2.26,,,0,0,0,0,0,0,0,0,0,0,0,0,0,0,0,0,0.0,,,,,39.240185,-77.965233,0.23,29.0,3.0,0.8
340,2342509,1745077615786,0.0,181.88,,-0.16,-0.17,1.2,1.0,0.0,0.0,1.22,1.22,100.0,3022.0,2.7,3.41,,13.32,1.25,82.6,,26.1,5.0,,,,,,,,,,,,0,0,0,0,0,0,0,0,0,0,0,0,0,0,0,0,,,,,0.0,,,,,,
341,2342529,1745077615806,,,,,,,,,,,,,,,,,,,,,,,,,,,,,,,,,,0,0,0,0,0,0,0,0,0,0,0,0,0,0,0,0,,,,,,,,,,,
342,2342549,1745077615826,0.0,181.88,,-0.17,-0.18,1.23,1.0,0.0,0.0,1.26,1.26,100.0,3022.0,2.7,3.41,,13.15,1.249,82.6,,26.1,5.0,,,,,,,,,,,,0,0,0,0,0,0,0,0,0,0,0,0,0,0,0,0,,,,,0.0,,,,,,
343,2342569,1745077615846,,,,,,,,,,,,,,,,,,,,,,,,,,,,,,,,,,0,0,0,0,0,0,0,0,0,0,0,0,0,0,0,0,,,,,,,,,,,
344,2342589,1745077615866,0.0,181.75,,-0.17,-0.18,1.26,1.0,0.0,0.0,1.28,1.28,100.0,2923.0,2.7,3.42,,13.13,1.247,82.6,,24.7,5.0,0.0,0.0,0.0,0.0,0.0,0.0,0.0,0.0,2.26,,,0,0,0,0,0,0,0,0,0,0,0,0,0,0,0,0,0.0,,,,0.0,39.240185,-77.965233,0.05,29.0,3.0,0.8
345,2342609,1745077615886,,,,,,,,,,,,,,,,,,,,,,,,,,,,,,,,,,0,0,0,0,0,0,0,0,0,0,0,0,0,0,0,0,,,,,,,,,,,
346,2342629,1745077615906,0.0,181.75,,-0.15,-0.19,1.27,0.0,0.0,0.0,1.29,1.29,100.0,2946.0,2.6,3.44,,13.17,1.248,82.6,,24.7,5.0,,,,,,,,,,,,0,0,0,0,0,0,0,0,0,0,0,0,0,0,0,0,,,,,0.0,,,,,,
347,2342649,1745077615926,,,,,,,,,,,,,,,,,,,,,,,,,,,,,,,,,,0,0,0,0,0,0,0,0,0,0,0,0,0,0,0,0,,,,,,,,,,,
348,2342669,1745077615946,0.0,181.75,,-0.13,-0.18,1.25,0.0,0.0,1.0,1.27,1.29,99.0,2928.0,2.7,3.45,,13.2,1.248,82.6,,24.7,5.0,,,,,,,,,,,,0,0,0,0,0,0,0,0,0,0,0,0,0,0,0,0,,,,,0.0,,,,,,
349,2342689,1745077615966,,,,,,,,,,,,,,,,,,,,,,,0.0,0.0,0.0,0.0,0.0,0.0,0.0,0.0,2.26,,,0,0,0,0,0,0,0,0,0,0,0,0,0,0,0,0,0.0,,,,,39.240185,-77.965233,0.22,29.0,3.0,0.8
350,2342709,1745077615986,0.0,181.75,,-0.11,-0.11,1.22,-1.0,0.0,1.0,1.23,1.29,95.0,2920.0,3.1,3.51,,13.2,1.248,82.6,,25.6,5.0,,,,,,,,,,,,0,0,0,0,0,0,0,0,0,0,0,0,0,0,0,0,,,,,0.0,,,,,,
351,2342729,1745077616006,,,,,,,,,,,,,,,,,,,,,,,,,,,,,,,,,,0,0,0,0,0,0,0,0,0,0,0,0,0,0,0,0,,,,,,,,,,,
352,2342749,1745077616018,0.0,181.75,,-0.1,-0.05,1.17,-1.0,0.0,1.0,1.17,1.29,91.0,2920.0,3.1,3.51,,13.24,1.25,82.6,,25.6,5.0,,,,,,,,,,,,0,0,0,0,0,0,0,0,0,0,0,0,0,0,0,0,,,,,0.0,,,,,,
353,2342769,1745077616038,,,,,,,,,,,,,,,,,,,,,,,,,,,,,,,,,,0,0,0,0,0,0,0,0,0,0,0,0,0,0,0,0,,,,,,,,,,,
354,2342789,1745077616058,0.0,181.62,,-0.08,-0.01,1.09,-1.0,0.0,1.0,1.09,1.29,85.0,2966.0,3.3,3.51,,13.2,1.251,82.6,,25.0,5.0,0.0,0.0,0.0,0.0,0.0,0.0,0.0,0.0,2.26,,,0,0,0,0,0,0,0,0,0,0,0,0,0,0,0,0,0.0,,,,0.0,39.240185,-77.965233,0.07,29.0,3.0,0.8
355,2342809,1745077616078,,,,,,,,,,,,,,,,,,,,,,,,,,,,,,,,,,0,0,0,0,0,0,0,0,0,0,0,0,0,0,0,0,,,,,,,,,,,
356,2342829,1745077616106,0.0,181.62,,-0.07,0.02,1.0,0.0,0.0,1.0,1.0,1.29,78.0,2944.0,3.5,3.55,,13.25,1.251,82.6,,25.0,5.0,,,,,,,,,,,,0,0,0,0,0,0,0,0,0,0,0,0,0,0,0,0,,,,,0.0,,,,,,
357,2342849,1745077616126,,,,,,,,,,,,,,,,,,,,,,,,,,,,,,,,,,0,0,0,0,0,0,0,0,0,0,0,0,0,0,0,0,,,,,,,,,,,
358,2342869,1745077616146,0.0,181.62,,-0.08,0.03,0.93,0.0,0.0,0.0,0.93,1.29,72.0,2906.0,3.6,3.54,,13.29,1.252,82.6,,25.0,5.0,,,,,,,,,,,,0,0,0,0,0,0,0,0,0,0,0,0,0,0,0,0,,,,,0.0,,,,,,
359,2342889,1745077616166,,,,,,,,,,,,,,,,,,,,,,,0.0,0.0,0.0,0.0,0.0,0.0,0.0,0.0,2.26,,,0,0,0,0,0,0,0,0,0,0,0,0,0,0,0,0,0.0,,,,,39.240185,-77.965233,0.06,29.0,3.0,0.8
360,2342909,1745077616186,0.0,181.62,,-0.08,0.02,0.89,0.0,0.0,0.0,0.89,1.29,69.0,2929.0,3.6,3.56,,13.29,1.252,82.6,,25.2,5.0,,,,,,,,,,,,0,0,0,0,0,0,0,0,0,0,0,0,0,0,0,0,,,,,0.0,,,,,,
361,2342929,1745077616202,,,,,,,,,,,,,,,,,,,,,,,,,,,,,,,,,,0,0,0,0,0,0,0,0,0,0,0,0,0,0,0,0,,,,,,,,,,,
362,2342949,1745077616222,0.0,181.75,,-0.09,0.0,0.86,0.0,0.0,0.0,0.87,1.29,67.0,2929.0,3.6,3.56,,13.27,1.252,82.6,,25.2,5.0,,,,,,,,,,,,0,0,0,0,0,0,0,0,0,0,0,0,0,0,0,0,,,,,0.0,,,,,,
363,2342969,1745077616242,,,,,,,,,,,,,,,,,,,,,,,,,,,,,,,,,,0,0,0,0,0,0,0,0,0,0,0,0,0,0,0,0,,,,,,,,,,,
364,2342989,1745077616262,0.0,181.62,,-0.1,0.01,0.82,1.0,0.0,-1.0,0.83,1.29,64.0,3035.0,3.7,3.58,,13.23,1.25,82.6,,25.8,5.0,0.0,0.0,0.0,0.0,0.0,0.0,0.0,0.0,2.26,,,0,0,0,0,0,0,0,0,0,0,0,0,0,0,0,0,0.0,,,,0.0,39.240185,-77.965233,0.09,29.0,3.0,0.8
365,2343009,1745077616282,,,,,,,,,,,,,,,,,,,,,,,,,,,,,,,,,,0,0,0,0,0,0,0,0,0,0,0,0,0,0,0,0,,,,,,,,,,,
366,2343029,1745077616308,0.0,181.62,,-0.1,0.02,0.77,1.0,0.0,-1.0,0.78,1.29,60.0,3038.0,3.7,3.58,,13.17,1.249,82.6,,25.8,5.0,,,,,,,,,,,,0,0,0,0,0,0,0,0,0,0,0,0,0,0,0,0,,,,,0.0,,,,,,
367,2343049,1745077616328,,,,,,,,,,,,,,,,,,,,,,,,,,,,,,,,,,0,0,0,0,0,0,0,0,0,0,0,0,0,0,0,0,,,,,,,,,,,
368,2343069,1745077616348,0.0,181.62,,-0.11,0.0,0.77,1.0,0.0,-1.0,0.78,1.29,60.0,3010.0,3.7,3.58,,13.19,1.248,82.6,,25.8,5.0,,,,,,,,,,,,0,0,0,0,0,0,0,0,0,0,0,0,0,0,0,0,,,,,0.0,,,,,,
369,2343089,1745077616368,,,,,,,,,,,,,,,,,,,,,,,0.0,0.0,0.0,0.0,0.0,0.0,0.0,0.0,2.26,,,0,0,0,0,0,0,0,0,0,0,0,0,0,0,0,0,0.0,,,,,39.240185,-77.965233,0.08,29.0,3.0,0.8
370,2343109,1745077616388,0.0,181.62,,-0.11,-0.01,0.75,1.0,0.0,-1.0,0.76,1.29,59.0,2980.0,3.6,3.6,,13.19,1.248,82.6,,26.1,5.0,,,,,,,,,,,,0,0,0,0,0,0,0,0,0,0,0,0,0,0,0,0,,,,,0.0,,,,,,
371,2343129,1745077616406,,,,,,,,,,,,,,,,,,,,,,,,,,,,,,,,,,0,0,0,0,0,0,0,0,0,0,0,0,0,0,0,0,,,,,,,,,,,
372,2343149,1745077616426,0.0,181.62,,-0.11,0.02,0.71,1.0,0.0,-1.0,0.72,1.29,55.0,2980.0,3.6,3.6,,13.2,1.248,82.6,,26.1,5.0,,,,,,,,,,,,0,0,0,0,0,0,0,0,0,0,0,0,0,0,0,0,,,,,0.0,,,,,,
373,2343169,1745077616446,,,,,,,,,,,,,,,,,,,,,,,,,,,,,,,,,,0,0,0,0,0,0,0,0,0,0,0,0,0,0,0,0,,,,,,,,,,,
374,2343189,1745077616466,0.0,181.62,,-0.1,0.06,0.66,1.0,0.0,-1.0,0.67,1.29,52.0,3077.0,3.5,3.6,,13.15,1.248,82.6,,26.1,5.0,0.0,0.0,0.0,0.0,0.0,0.0,0.0,0.0,2.26,,,0,0,0,0,0,0,0,0,0,0,0,0,0,0,0,0,0.0,,,,0.0,39.240185,-77.965233,0.2,29.0,3.0,0.8
375,2343209,1745077616486,,,,,,,,,,,,,,,,,,,,,,,,,,,,,,,,,,0,0,0,0,0,0,0,0,0,0,0,0,0,0,0,0,,,,,,,,,,,
376,2343229,1745077616505,0.0,181.62,,-0.08,0.12,0.63,1.0,0.0,-1.0,0.65,1.29,50.0,3084.0,3.5,3.58,,13.11,1.249,82.6,,26.1,5.0,,,,,,,,,,,,0,0,0,0,0,0,0,0,0,0,0,0,0,0,0,0,,,,,0.0,,,,,,
377,2343249,1745077616525,,,,,,,,,,,,,,,,,,,,,,,,,,,,,,,,,,0,0,0,0,0,0,0,0,0,0,0,0,0,0,0,0,,,,,,,,,,,
378,2343269,1745077616545,0.0,181.62,,-0.08,0.11,0.72,0.0,0.0,0.0,0.73,1.29,57.0,3208.0,3.5,3.55,,13.09,1.251,82.6,,26.1,5.0,,,,,,,,,,,,0,0,0,0,0,0,0,0,0,0,0,0,0,0,0,0,,,,,0.0,,,,,,
379,2343289,1745077616565,,,,,,,,,,,,,,,,,,,,,,,0.0,0.0,0.0,0.0,0.0,0.0,0.0,0.0,2.26,,,0,0,0,0,0,0,0,0,0,0,0,0,0,0,0,0,0.0,,,,,39.240185,-77.965233,0.28,29.0,3.0,0.8
380,2343309,1745077616585,0.0,181.5,,-0.08,0.07,0.69,1.0,0.0,-1.0,0.7,1.29,54.0,3389.0,3.6,3.52,,13.09,1.251,82.6,,28.6,5.0,,,,,,,,,,,,0,0,0,0,0,0,0,0,0,0,0,0,0,0,0,0,,,,,0.0,,,,,,
381,2343329,1745077616607,,,,,,,,,,,,,,,,,,,,,,,,,,,,,,,,,,0,0,0,0,0,0,0,0,0,0,0,0,0,0,0,0,,,,,,,,,,,
382,2343349,1745077616627,0.0,181.62,,-0.06,0.08,0.78,0.0,0.0,0.0,0.79,1.29,61.0,3389.0,3.6,3.52,,13.04,1.251,82.6,,28.6,5.0,,,,,,,,,,,,0,0,0,0,0,0,0,0,0,0,0,0,0,0,0,0,,,,,0.0,,,,,,
383,2343369,1745077616647,,,,,,,,,,,,,,,,,,,,,,,,,,,,,,,,,,0,0,0,0,0,0,0,0,0,0,0,0,0,0,0,0,,,,,,,,,,,
