,Interval,Utc,FrontBP,SteerAng,Battery,AccelX,AccelY,AccelZ,Yaw,Pitch,Roll,Gsum,GsumMax,GsumPct,RPM,TPS,InjectorPW,Baro,MAP,Lambda,IAT,EngineTemp,EOP,EOT,WSFR,WSFL,WSRR,WSRL,TCSet,TCSlip,TCComp,TCCut,Analog8,OilTemp,AA_On,ThermLF1,ThermLF2,ThermRR1,ThermRR2,ThermLF3,ThermLF4,ThermLF5,ThermLF6,ThermLF7,ThermLF8,ThermRR3,ThermRR4,ThermRR5,ThermRR6,ThermRR7,ThermRR8,Gear,AA_On1,AA_LowDrag,Fuel_Mix,AA_Packages,Latitude,Longitude,Speed,GPSSats,GPSQual,GPSDOP
0,2536109,1745077809389,0.0,183.89,,-0.09,-0.04,1.0,0.0,0.0,0.0,1.0,1.0,100.0,4252.0,20.7,4.13,,13.41,1.251,86.2,,42.3,5.0,,,,,,,,,,,,0,0,0,0,0,0,0,0,0,0,0,0,0,0,0,0,,,,,0.0,,,,,,
1,2536129,1745077809409,,,,,,,,,,,,,,,,,,,,,,,,,,,,,,,,,,0,0,0,0,0,0,0,0,0,0,0,0,0,0,0,0,,,,,,,,,,,
2,2536149,1745077809429,0.0,183.89,,-0.05,-0.07,0.96,1.0,0.0,0.0,0.96,1.0,96.0,4405.0,23.9,4.32,,13.41,1.251,86.2,,42.3,5.0,,,,,,,,,,,,0,0,0,0,0,0,0,0,0,0,0,0,0,0,0,0,,,,,0.0,,,,,,
3,2536169,1745077809449,,,,,,,,,,,,,,,,,,,,,,,,,,,,,,,,,,0,0,0,0,0,0,0,0,0,0,0,0,0,0,0,0,,,,,,,,,,,
4,2536189,1745077809469,0.0,183.89,,-0.0,-0.11,0.89,1.0,0.0,0.0,0.9,1.0,90.0,4405.0,23.9,4.32,,13.57,1.25,86.2,,44.6,5.0,0.0,0.0,0.0,0.0,0.0,0.0,0.0,0.0,2.26,,,0,0,0,0,0,0,0,0,0,0,0,0,0,0,0,0,0.0,,,,0.0,39.239735,-77.964531,0.05,28.0,3.0,0.9
5,2536209,1745077809489,,,,,,,,,,,,,,,,,,,,,,,,,,,,,,,,,,0,0,0,0,0,0,0,0,0,0,0,0,0,0,0,0,,,,,,,,,,,
6,2536229,1745077809509,0.0,183.89,,0.04,-0.09,0.93,1.0,0.0,0.0,0.94,1.0,93.0,4552.0,27.1,4.44,,13.6,1.251,86.2,,44.6,5.0,,,,,,,,,,,,0,0,0,0,0,0,0,0,0,0,0,0,0,0,0,0,,,,,0.0,,,,,,
7,2536249,1745077809529,,,,,,,,,,,,,,,,,,,,,,,,,,,,,,,,,,0,0,0,0,0,0,0,0,0,0,0,0,0,0,0,0,,,,,,,,,,,
8,2536269,1745077809549,0.0,183.89,,-0.0,-0.05,0.95,0.0,0.0,0.0,0.95,1.0,94.0,4743.0,31.8,4.84,,13.76,1.25,86.2,,44.6,5.0,,,,,,,,,,,,0,0,0,0,0,0,0,0,0,0,0,0,0,0,0,0,,,,,0.0,,,,,,
9,2536289,1745077809569,,,,,,,,,,,,,,,,,,,,,,,0.0,0.0,0.0,0.0,0.0,0.0,0.0,0.0,2.26,,,0,0,0,0,0,0,0,0,0,0,0,0,0,0,0,0,0.0,,,,,39.239735,-77.964531,0.04,28.0,3.0,0.9
10,2536309,1745077809589,0.0,183.89,,-0.01,-0.11,0.95,1.0,0.0,0.0,0.96,1.0,95.0,5217.0,33.8,4.93,,13.71,1.249,86.2,,49.9,5.0,,,,,,,,,,,,0,0,0,0,0,0,0,0,0,0,0,0,0,0,0,0,,,,,0.0,,,,,,
11,2536329,1745077809609,,,,,,,,,,,,,,,,,,,,,,,,,,,,,,,,,,0,0,0,0,0,0,0,0,0,0,0,0,0,0,0,0,,,,,,,,,,,
12,2536349,1745077809629,0.0,183.89,,-0.04,-0.14,0.89,1.0,0.0,0.0,0.9,1.0,90.0,5872.0,34.6,4.98,,13.71,1.249,86.2,,49.9,5.0,,,,,,,,,,,,0,0,0,0,0,0,0,0,0,0,0,0,0,0,0,0,,,,,0.0,,,,,,
13,2536369,1745077809649,,,,,,,,,,,,,,,,,,,,,,,,,,,,,,,,,,0,0,0,0,0,0,0,0,0,0,0,0,0,0,0,0,,,,,,,,,,,
14,2536389,1745077809669,0.0,183.76,13.25,-0.04,-0.18,0.89,1.0,0.0,-1.0,0.91,1.0,91.0,5872.0,34.6,4.98,15.0,13.41,1.24,86.2,158.0,63.8,5.0,0.0,0.0,0.0,0.0,0.0,0.0,0.0,0.0,2.26,0.0,0.0,0,0,0,0,0,0,0,0,0,0,0,0,0,0,0,0,0.0,0.0,0.0,0.0,0.0,39.239735,-77.964531,0.0,28.0,3.0,0.9
15,2536409,1745077809689,,,,,,,,,,,,,,,,,,,,,,,,,,,,,,,,,,0,0,0,0,0,0,0,0,0,0,0,0,0,0,0,0,,,,,,,,,,,
16,2536429,1745077809708,0.0,183.76,,-0.05,-0.22,0.89,1.0,0.0,-1.0,0.92,1.0,92.0,6719.0,34.8,5.66,,13.31,1.185,86.2,,63.8,5.0,,,,,,,,,,,,0,0,0,0,0,0,0,0,0,0,0,0,0,0,0,0,,,,,0.0,,,,,,
17,2536449,1745077809728,,,,,,,,,,,,,,,,,,,,,,,,,,,,,,,,,,0,0,0,0,0,0,0,0,0,0,0,0,0,0,0,0,,,,,,,,,,,
18,2536469,1745077809748,0.0,183.76,,-0.05,-0.28,0.92,1.0,0.0,-1.0,0.96,1.0,96.0,7971.0,35.7,5.77,,13.04,1.184,86.2,,63.8,5.0,,,,,,,,,,,,0,0,0,0,0,0,0,0,0,0,0,0,0,0,0,0,,,,,0.0,,,,,,
19,2536489,1745077809768,,,,,,,,,,,,,,,,,,,,,,,0.0,0.0,0.0,0.0,0.0,0.0,0.0,0.0,2.25,,,0,0,0,0,0,0,0,0,0,0,0,0,0,0,0,0,0.0,,,,,39.239735,-77.964531,0.0,28.0,3.0,0.9
20,2536509,1745077809788,0.0,183.76,,-0.01,-0.2,0.97,1.0,0.0,0.0,0.99,1.0,99.0,9592.0,36.3,5.17,,12.2,0.942,86.2,,73.0,5.0,,,,,,,,,,,,0,0,0,0,0,0,0,0,0,0,0,0,0,0,0,0,,,,,0.0,,,,,,
21,2536529,1745077809808,,,,,,,,,,,,,,,,,,,,,,,,,,,,,,,,,,0,0,0,0,0,0,0,0,0,0,0,0,0,0,0,0,,,,,,,,,,,
22,2536549,1745077809828,0.0,183.63,,-0.05,-0.07,0.98,0.0,0.0,0.0,0.98,1.0,98.0,11221.0,36.5,3.89,,12.2,0.942,86.2,,73.0,5.0,,,,,,,,,,,,0,0,0,0,0,0,0,0,0,0,0,0,0,0,0,0,,,,,0.0,,,,,,
23,2536569,1745077809848,,,,,,,,,,,,,,,,,,,,,,,,,,,,,,,,,,0,0,0,0,0,0,0,0,0,0,0,0,0,0,0,0,,,,,,,,,,,
24,2536589,1745077809868,0.0,183.63,,-0.08,-0.08,1.06,0.0,0.0,0.0,1.07,1.07,100.0,11221.0,36.5,3.89,,11.69,0.862,86.2,,74.7,5.0,0.0,0.0,0.0,0.0,0.0,0.0,0.0,0.0,2.25,,,0,0,0,0,0,0,0,0,0,0,0,0,0,0,0,0,0.0,,,,0.0,39.239735,-77.964531,0.0,28.0,3.0,0.9
25,2536609,1745077809888,,,,,,,,,,,,,,,,,,,,,,,,,,,,,,,,,,0,0,0,0,0,0,0,0,0,0,0,0,0,0,0,0,,,,,,,,,,,
26,2536629,1745077809909,0.0,183.63,,-0.06,-0.02,1.03,-1.0,0.0,0.0,1.03,1.07,97.0,12369.0,36.5,3.82,,11.29,0.852,86.2,,74.7,5.0,,,,,,,,,,,,0,0,0,0,0,0,0,0,0,0,0,0,0,0,0,0,,,,,0.0,,,,,,
27,2536649,1745077809929,,,,,,,,,,,,,,,,,,,,,,,,,,,,,,,,,,0,0,0,0,0,0,0,0,0,0,0,0,0,0,0,0,,,,,,,,,,,
28,2536669,1745077809949,0.0,183.51,,-0.08,-0.22,1.02,1.0,0.0,0.0,1.05,1.07,98.0,13134.0,36.8,3.29,,11.0,0.901,86.2,,74.7,5.0,,,,,,,,,,,,0,0,0,0,0,0,0,0,0,0,0,0,0,0,0,0,,,,,0.0,,,,,,
29,2536689,1745077809969,,,,,,,,,,,,,,,,,,,,,,,0.0,0.0,0.0,0.0,0.0,0.0,0.0,0.0,2.25,,,0,0,0,0,0,0,0,0,0,0,0,0,0,0,0,0,0.0,,,,,39.239735,-77.964531,0.0,28.0,3.0,0.9
30,2536709,1745077809989,0.0,183.51,,-0.02,-0.3,1.06,2.0,0.0,0.0,1.1,1.1,100.0,13456.0,37.0,2.96,,10.92,0.94,86.2,,75.3,5.0,,,,,,,,,,,,0,0,0,0,0,0,0,0,0,0,0,0,0,0,0,0,,,,,0.0,,,,,,
31,2536729,1745077810009,,,,,,,,,,,,,,,,,,,,,,,,,,,,,,,,,,0,0,0,0,0,0,0,0,0,0,0,0,0,0,0,0,,,,,,,,,,,
32,2536749,1745077810020,0.0,183.51,,-0.01,-0.31,1.07,2.0,0.0,-1.0,1.11,1.11,100.0,12905.0,37.2,2.81,,10.92,0.94,86.2,,75.3,5.0,,,,,,,,,,,,0,0,0,0,0,0,0,0,0,0,0,0,0,0,0,0,,,,,0.0,,,,,,
33,2536769,1745077810040,,,,,,,,,,,,,,,,,,,,,,,,,,,,,,,,,,0,0,0,0,0,0,0,0,0,0,0,0,0,0,0,0,,,,,,,,,,,
34,2536789,1745077810060,0.0,183.63,,-0.02,-0.28,0.96,1.0,0.0,-1.0,1.0,1.11,90.0,12905.0,37.2,2.81,,10.68,0.989,86.2,,74.1,5.0,0.0,0.0,0.0,0.0,0.0,0.0,0.0,0.0,2.26,,,0,0,0,0,0,0,0,0,0,0,0,0,0,0,0,0,0.0,,,,0.0,39.239735,-77.964531,0.26,28.0,3.0,0.9
35,2536809,1745077810080,,,,,,,,,,,,,,,,,,,,,,,,,,,,,,,,,,0,0,0,0,0,0,0,0,0,0,0,0,0,0,0,0,,,,,,,,,,,
36,2536829,1745077810104,0.0,183.76,,0.02,-0.21,0.98,1.0,0.0,-1.0,1.0,1.11,90.0,11453.0,37.2,3.92,,10.93,1.125,86.2,,74.1,5.0,,,,,,,,,,,,0,0,0,0,0,0,0,0,0,0,0,0,0,0,0,0,,,,,0.0,,,,,,
37,2536849,1745077810124,,,,,,,,,,,,,,,,,,,,,,,,,,,,,,,,,,0,0,0,0,0,0,0,0,0,0,0,0,0,0,0,0,,,,,,,,,,,
38,2536869,1745077810144,0.0,183.89,,0.06,-0.3,0.99,1.0,0.0,0.0,1.04,1.11,93.0,10830.0,37.4,4.07,,11.36,1.247,86.2,,74.1,5.0,,,,,,,,,,,,0,0,0,0,0,0,0,0,0,0,0,0,0,0,0,0,,,,,0.0,,,,,,
39,2536889,1745077810164,,,,,,,,,,,,,,,,,,,,,,,0.0,0.0,0.0,0.0,0.0,0.0,0.0,0.0,2.26,,,0,0,0,0,0,0,0,0,0,0,0,0,0,0,0,0,0.0,,,,,39.239735,-77.964531,1.08,28.0,3.0,0.9
40,2536909,1745077810184,0.0,183.89,,0.09,-0.34,0.97,1.0,0.0,0.0,1.03,1.11,93.0,10528.0,37.5,4.42,,11.56,1.224,86.2,,72.4,5.0,,,,,,,,,,,,0,0,0,0,0,0,0,0,0,0,0,0,0,0,0,0,,,,,0.0,,,,,,
41,2536929,1745077810206,,,,,,,,,,,,,,,,,,,,,,,,,,,,,,,,,,0,0,0,0,0,0,0,0,0,0,0,0,0,0,0,0,,,,,,,,,,,
42,2536949,1745077810226,0.0,183.76,,0.1,-0.39,0.96,0.0,0.0,0.0,1.04,1.11,94.0,10399.0,37.4,4.58,,11.56,1.224,86.2,,72.4,5.0,,,,,,,,,,,,0,0,0,0,0,0,0,0,0,0,0,0,0,0,0,0,,,,,0.0,,,,,,
43,2536969,1745077810246,,,,,,,,,,,,,,,,,,,,,,,,,,,,,,,,,,0,0,0,0,0,0,0,0,0,0,0,0,0,0,0,0,,,,,,,,,,,
44,2536989,1745077810266,0.0,183.76,,0.12,-0.44,0.99,2.0,0.0,0.0,1.08,1.11,97.0,10399.0,37.4,4.58,,11.6,1.105,86.2,,71.7,5.0,1.0,0.0,1.0,1.0,0.0,0.0,0.0,0.0,2.26,,,0,0,0,0,0,0,0,0,0,0,0,0,0,0,0,0,0.0,,,,0.0,39.239735,-77.964531,2.37,28.0,3.0,0.9
45,2537009,1745077810286,,,,,,,,,,,,,,,,,,,,,,,,,,,,,,,,,,0,0,0,0,0,0,0,0,0,0,0,0,0,0,0,0,,,,,,,,,,,
46,2537029,1745077810308,0.0,183.76,,0.13,-0.36,1.01,2.0,0.0,0.0,1.08,1.11,97.0,10402.0,37.4,4.59,,11.65,1.05,86.2,,71.7,5.0,,,,,,,,,,,,0,0,0,0,0,0,0,0,0,0,0,0,0,0,0,0,,,,,0.0,,,,,,
47,2537049,1745077810328,,,,,,,,,,,,,,,,,,,,,,,,,,,,,,,,,,0,0,0,0,0,0,0,0,0,0,0,0,0,0,0,0,,,,,,,,,,,
48,2537069,1745077810348,0.0,183.76,,0.17,-0.36,1.01,2.0,0.0,0.0,1.09,1.11,98.0,10411.0,37.4,4.58,,11.75,1.015,86.2,,71.7,5.0,,,,,,,,,,,,0,0,0,0,0,0,0,0,0,0,0,0,0,0,0,0,,,,,0.0,,,,,,
49,2537089,1745077810368,,,,,,,,,,,,,,,,,,,,,,,2.0,0.0,2.0,3.0,0.0,0.0,0.0,0.0,2.26,,,0,0,0,0,0,0,0,0,0,0,0,0,0,0,0,0,0.0,,,,,39.239735,-77.964531,4.75,28.0,3.0,0.9
50,2537109,1745077810388,0.0,183.76,,0.18,-0.32,1.06,1.0,0.0,0.0,1.12,1.12,100.0,10445.0,37.5,4.56,,11.72,0.999,86.2,,73.6,5.0,,,,,,,,,,,,0,0,0,0,0,0,0,0,0,0,0,0,0,0,0,0,,,,,0.0,,,,,,
51,2537129,1745077810408,,,,,,,,,,,,,,,,,,,,,,,,,,,,,,,,,,0,0,0,0,0,0,0,0,0,0,0,0,0,0,0,0,,,,,,,,,,,
52,2537149,1745077810428,0.0,183.63,,0.19,-0.32,1.04,0.0,0.0,0.0,1.11,1.12,99.0,10435.0,37.6,4.56,,11.72,0.999,86.2,,73.6,5.0,,,,,,,,,,,,0,0,0,0,0,0,0,0,0,0,0,0,0,0,0,0,,,,,0.0,,,,,,
53,2537169,1745077810448,,,,,,,,,,,,,,,,,,,,,,,,,,,,,,,,,,0,0,0,0,0,0,0,0,0,0,0,0,0,0,0,0,,,,,,,,,,,
54,2537189,1745077810468,0.0,183.63,,0.23,-0.22,1.04,0.0,0.0,0.0,1.08,1.12,97.0,10435.0,37.6,4.56,,11.81,0.986,86.2,,72.7,5.0,3.0,0.0,4.0,4.0,0.0,0.0,0.0,0.0,2.26,,,0,0,0,0,0,0,0,0,0,0,0,0,0,0,0,0,0.0,,,,0.0,39.239735,-77.964531,6.27,28.0,3.0,0.9
55,2537209,1745077810488,,,,,,,,,,,,,,,,,,,,,,,,,,,,,,,,,,0,0,0,0,0,0,0,0,0,0,0,0,0,0,0,0,,,,,,,,,,,
56,2537229,1745077810508,0.0,183.76,,0.25,-0.08,0.99,-1.0,0.0,0.0,1.02,1.12,91.0,10414.0,37.9,4.59,,11.83,0.984,86.2,,72.7,5.0,,,,,,,,,,,,0,0,0,0,0,0,0,0,0,0,0,0,0,0,0,0,,,,,0.0,,,,,,
57,2537249,1745077810528,,,,,,,,,,,,,,,,,,,,,,,,,,,,,,,,,,0,0,0,0,0,0,0,0,0,0,0,0,0,0,0,0,,,,,,,,,,,
58,2537269,1745077810548,0.0,183.63,,0.3,0.07,0.96,0.0,0.0,0.0,1.01,1.12,90.0,10435.0,38.3,4.59,,11.88,0.984,86.2,,72.7,5.0,,,,,,,,,,,,0,0,0,0,0,0,0,0,0,0,0,0,0,0,0,0,,,,,0.0,,,,,,
59,2537289,1745077810568,,,,,,,,,,,,,,,,,,,,,,,4.0,0.0,5.0,4.0,0.0,0.0,0.0,0.0,2.26,,,0,0,0,0,0,0,0,0,0,0,0,0,0,0,0,0,0.0,,,,,39.239731,-77.964531,8.1,28.0,3.0,0.9
60,2537309,1745077810588,0.0,183.63,,0.34,0.04,0.93,0.0,0.0,0.0,0.99,1.12,88.0,10455.0,38.4,4.58,,11.79,0.981,86.2,,73.6,5.0,,,,,,,,,,,,0,0,0,0,0,0,0,0,0,0,0,0,0,0,0,0,,,,,0.0,,,,,,
61,2537329,1745077810608,,,,,,,,,,,,,,,,,,,,,,,,,,,,,,,,,,0,0,0,0,0,0,0,0,0,0,0,0,0,0,0,0,,,,,,,,,,,
62,2537349,1745077810628,0.0,183.51,,0.36,-0.06,0.94,0.0,0.0,0.0,1.01,1.12,90.0,10452.0,38.4,4.58,,11.79,0.981,86.2,,73.6,5.0,,,,,,,,,,,,0,0,0,0,0,0,0,0,0,0,0,0,0,0,0,0,,,,,0.0,,,,,,
63,2537369,1745077810648,,,,,,,,,,,,,,,,,,,,,,,,,,,,,,,,,,0,0,0,0,0,0,0,0,0,0,0,0,0,0,0,0,,,,,,,,,,,
64,2537389,1745077810668,0.0,183.51,13.2,0.34,-0.1,0.96,0.0,0.0,0.0,1.03,1.12,91.0,10452.0,38.4,4.58,15.0,11.71,0.979,86.2,158.0,72.1,5.0,6.0,0.0,6.0,6.0,0.0,0.0,0.0,0.0,2.26,0.0,0.0,0,0,0,0,0,0,0,0,0,0,0,0,0,0,0,0,0.0,0.0,0.0,0.0,0.0,39.239727,-77.964531,9.28,28.0,3.0,0.9
65,2537409,1745077810688,,,,,,,,,,,,,,,,,,,,,,,,,,,,,,,,,,0,0,0,0,0,0,0,0,0,0,0,0,0,0,0,0,,,,,,,,,,,
66,2537429,1745077810709,0.0,183.51,,0.33,-0.33,0.96,1.0,0.0,0.0,1.07,1.12,95.0,10460.0,38.4,4.59,,11.85,0.977,86.2,,72.1,5.0,,,,,,,,,,,,0,0,0,0,0,0,0,0,0,0,0,0,0,0,0,0,,,,,0.0,,,,,,
67,2537449,1745077810729,,,,,,,,,,,,,,,,,,,,,,,,,,,,,,,,,,0,0,0,0,0,0,0,0,0,0,0,0,0,0,0,0,,,,,,,,,,,
68,2537469,1745077810749,0.0,183.51,,0.32,-0.38,0.98,1.0,0.0,0.0,1.1,1.12,98.0,10445.0,38.3,4.57,,11.87,0.98,86.2,,72.1,5.0,,,,,,,,,,,,0,0,0,0,0,0,0,0,0,0,0,0,0,0,0,0,,,,,0.0,,,,,,
69,2537489,1745077810769,,,,,,,,,,,,,,,,,,,,,,,7.0,0.0,7.0,7.0,0.0,44.0,0.0,0.0,2.26,,,0,0,0,0,0,0,0,0,0,0,0,0,0,0,0,0,0.0,,,,,39.239727,-77.964531,11.25,28.0,3.0,0.9
70,2537509,1745077810789,0.0,183.51,,0.32,-0.4,0.95,1.0,0.0,0.0,1.08,1.12,96.0,10419.0,38.2,4.61,,11.95,0.977,86.2,,71.1,5.0,,,,,,,,,,,,0,0,0,0,0,0,0,0,0,0,0,0,0,0,0,0,,,,,0.0,,,,,,
71,2537529,1745077810807,,,,,,,,,,,,,,,,,,,,,,,,,,,,,,,,,,0,0,0,0,0,0,0,0,0,0,0,0,0,0,0,0,,,,,,,,,,,
72,2537549,1745077810827,0.0,183.38,,0.32,-0.36,0.98,3.0,0.0,0.0,1.09,1.12,97.0,10419.0,35.2,4.5,,11.95,0.977,86.2,,71.1,5.0,,,,,,,,,,,,0,0,0,0,0,0,0,0,0,0,0,0,0,0,0,0,,,,,0.0,,,,,,
73,2537569,1745077810847,,,,,,,,,,,,,,,,,,,,,,,,,,,,,,,,,,0,0,0,0,0,0,0,0,0,0,0,0,0,0,0,0,,,,,,,,,,,
74,2537589,1745077810867,0.0,183.51,,0.32,-0.25,0.99,2.0,0.0,0.0,1.07,1.12,95.0,10419.0,35.2,4.5,,11.63,0.977,86.2,,71.6,5.0,8.0,0.0,8.0,8.0,0.0,86.0,0.0,0.0,2.26,,,0,0,0,0,0,0,0,0,0,0,0,0,0,0,0,0,0.0,,,,0.0,39.239727,-77.964531,12.71,28.0,3.0,0.9
75,2537629,1745077810907,0.0,183.51,,0.34,-0.21,0.97,2.0,0.0,0.0,1.05,1.12,93.0,10340.0,31.7,4.54,,11.33,0.96,86.2,,71.6,5.0,,,,,,,,,,,,0,0,0,0,0,0,0,0,0,0,0,0,0,0,0,0,,,,,0.0,,,,,,
76,2537729,1745077811007,,,,,,,,,,,,,,,,,,,,,,,,,,,,,,,,,,0,0,0,0,0,0,0,0,0,0,0,0,0,0,0,0,,,,,,,,,,,
77,2537749,1745077811017,0.0,183.38,,0.34,-0.13,1.01,1.0,0.0,0.0,1.07,1.12,96.0,9881.0,25.2,3.52,,10.65,0.912,86.2,,70.4,5.0,,,,,,,,,,,,0,0,0,0,0,0,0,0,0,0,0,0,0,0,0,0,,,,,0.0,,,,,,
78,2537769,1745077811037,,,,,,,,,,,,,,,,,,,,,,,,,,,,,,,,,,0,0,0,0,0,0,0,0,0,0,0,0,0,0,0,0,,,,,,,,,,,
79,2537809,1745077811077,,,,,,,,,,,,,,,,,,,,,,,,,,,,,,,,,,0,0,0,0,0,0,0,0,0,0,0,0,0,0,0,0,,,,,,,,,,,
80,2537829,1745077811103,0.0,183.51,,0.39,-0.09,1.01,2.0,0.0,0.0,1.09,1.12,97.0,9544.0,23.2,3.35,,10.02,0.958,86.2,,69.8,5.0,,,,,,,,,,,,0,0,0,0,0,0,0,0,0,0,0,0,0,0,0,0,,,,,0.0,,,,,,
81,2537909,1745077811183,0.0,183.38,,0.43,-0.04,1.05,1.0,0.0,1.0,1.14,1.14,100.0,8777.0,18.7,3.38,,9.78,0.987,86.2,,65.8,5.0,,,,,,,,,,,,0,0,0,0,0,0,0,0,0,0,0,0,0,0,0,0,,,,,0.0,,,,,,
82,2537929,1745077811207,,,,,,,,,,,,,,,,,,,,,,,,,,,,,,,,,,0,0,0,0,0,0,0,0,0,0,0,0,0,0,0,0,,,,,,,,,,,
83,2537949,1745077811227,0.0,183.26,,0.44,-0.08,1.06,1.0,0.0,1.0,1.15,1.15,100.0,8348.0,15.5,3.18,,9.78,0.987,86.2,,65.8,5.0,,,,,,,,,,,,0,0,0,0,0,0,0,0,0,0,0,0,0,0,0,0,,,,,0.0,,,,,,
84,2537969,1745077811247,,,,,,,,,,,,,,,,,,,,,,,,,,,,,,,,,,0,0,0,0,0,0,0,0,0,0,0,0,0,0,0,0,,,,,,,,,,,
85,2537989,1745077811267,0.0,182.63,,0.43,-0.12,1.03,-1.0,-1.0,1.0,1.12,1.15,98.0,8348.0,15.5,3.18,,9.82,0.948,86.2,,63.8,5.0,12.0,0.0,13.0,12.0,0.0,37.0,0.0,0.0,2.26,,,0,0,0,0,0,0,0,0,0,0,0,0,0,0,0,0,0.0,,,,0.0,39.239708,-77.964539,19.28,28.0,3.0,0.9
86,2538009,1745077811287,,,,,,,,,,,,,,,,,,,,,,,,,,,,,,,,,,0,0,0,0,0,0,0,0,0,0,0,0,0,0,0,0,,,,,,,,,,,
87,2538029,1745077811307,0.0,182.5,,0.41,-0.13,1.03,-1.0,-1.0,1.0,1.11,1.15,97.0,7700.0,10.8,3.13,,9.49,0.912,86.2,,63.8,5.0,,,,,,,,,,,,0,0,0,0,0,0,0,0,0,0,0,0,0,0,0,0,,,,,0.0,,,,,,
88,2538049,1745077811327,,,,,,,,,,,,,,,,,,,,,,,,,,,,,,,,,,0,0,0,0,0,0,0,0,0,0,0,0,0,0,0,0,,,,,,,,,,,
89,2538069,1745077811347,0.0,182.5,,0.44,-0.04,1.08,-2.0,-1.0,1.0,1.17,1.17,100.0,6878.0,7.3,3.02,,9.23,0.891,86.2,,63.8,5.0,,,,,,,,,,,,0,0,0,0,0,0,0,0,0,0,0,0,0,0,0,0,,,,,0.0,,,,,,
90,2538089,1745077811367,,,,,,,,,,,,,,,,,,,,,,,13.0,0.0,13.0,13.0,0.0,64.0,0.0,0.0,2.26,,,0,0,0,0,0,0,0,0,0,0,0,0,0,0,0,0,0.0,,,,,39.239704,-77.964546,21.24,28.0,3.0,0.9
91,2538109,1745077811387,0.0,182.5,,0.43,-0.03,1.15,-2.0,-1.0,1.0,1.23,1.23,100.0,5926.0,2.6,2.31,,9.09,0.9,86.2,,60.7,5.0,,,,,,,,,,,,0,0,0,0,0,0,0,0,0,0,0,0,0,0,0,0,,,,,0.0,,,,,,
92,2538129,1745077811409,,,,,,,,,,,,,,,,,,,,,,,,,,,,,,,,,,0,0,0,0,0,0,0,0,0,0,0,0,0,0,0,0,,,,,,,,,,,
93,2538149,1745077811429,0.0,182.63,,0.37,-0.01,1.15,-3.0,-1.0,1.0,1.21,1.23,98.0,4793.0,0.0,1.45,,9.09,0.9,86.2,,60.7,5.0,,,,,,,,,,,,0,0,0,0,0,0,0,0,0,0,0,0,0,0,0,0,,,,,0.0,,,,,,
94,2538169,1745077811449,,,,,,,,,,,,,,,,,,,,,,,,,,,,,,,,,,0,0,0,0,0,0,0,0,0,0,0,0,0,0,0,0,,,,,,,,,,,
95,2538189,1745077811469,0.0,182.63,,0.34,-0.06,1.14,-3.0,-1.0,1.0,1.19,1.23,97.0,4793.0,0.0,1.45,,9.33,0.901,86.2,,41.6,5.0,14.0,0.0,15.0,14.0,0.0,40.0,0.0,0.0,2.26,,,0,0,0,0,0,0,0,0,0,0,0,0,0,0,0,0,1.0,,,,0.0,39.2397,-77.964546,22.87,28.0,3.0,0.9
96,2538209,1745077811489,,,,,,,,,,,,,,,,,,,,,,,,,,,,,,,,,,0,0,0,0,0,0,0,0,0,0,0,0,0,0,0,0,,,,,,,,,,,
97,2538229,1745077811510,0.0,182.63,,0.27,-0.07,1.17,-3.0,-1.0,1.0,1.2,1.23,98.0,3673.0,0.0,1.62,,9.8,0.891,86.2,,41.6,5.0,,,,,,,,,,,,0,0,0,0,0,0,0,0,0,0,0,0,0,0,0,0,,,,,0.0,,,,,,
98,2538249,1745077811530,,,,,,,,,,,,,,,,,,,,,,,,,,,,,,,,,,0,0,0,0,0,0,0,0,0,0,0,0,0,0,0,0,,,,,,,,,,,
99,2538269,1745077811550,0.0,182.63,,0.2,-0.06,1.13,-3.0,-1.0,1.0,1.15,1.23,94.0,2728.0,0.0,1.98,,10.49,0.89,86.2,,41.6,5.0,,,,,,,,,,,,0,0,0,0,0,0,0,0,0,0,0,0,0,0,0,0,,,,,0.0,,,,,,
100,2538289,1745077811570,,,,,,,,,,,,,,,,,,,,,,,15.0,0.0,15.0,16.0,0.0,243.0,0.0,0.0,2.26,,,0,0,0,0,0,0,0,0,0,0,0,0,0,0,0,0,1.0,,,,,39.239693,-77.964546,24.22,28.0,3.0,0.9
101,2538309,1745077811590,0.0,182.76,,0.12,-0.04,1.12,-3.0,-1.0,0.0,1.13,1.23,92.0,2493.0,0.0,2.25,,11.14,0.894,86.2,,23.4,5.0,,,,,,,,,,,,0,0,0,0,0,0,0,0,0,0,0,0,0,0,0,0,,,,,0.0,,,,,,
102,2538329,1745077811609,,,,,,,,,,,,,,,,,,,,,,,,,,,,,,,,,,0,0,0,0,0,0,0,0,0,0,0,0,0,0,0,0,,,,,,,,,,,
103,2538349,1745077811629,0.0,182.76,,0.05,-0.05,1.09,-4.0,-1.0,0.0,1.09,1.23,89.0,2823.0,0.0,3.0,,11.14,0.894,86.2,,23.4,5.0,,,,,,,,,,,,0,0,0,0,0,0,0,0,0,0,0,0,0,0,0,0,,,,,0.0,,,,,,
104,2538369,1745077811649,,,,,,,,,,,,,,,,,,,,,,,,,,,,,,,,,,0,0,0,0,0,0,0,0,0,0,0,0,0,0,0,0,,,,,,,,,,,
105,2538389,1745077811669,0.0,182.76,13.24,0.0,-0.06,1.08,-4.0,-1.0,0.0,1.08,1.23,88.0,2823.0,0.0,3.0,15.0,11.46,0.903,86.2,158.0,25.4,5.0,15.0,0.0,14.0,15.0,0.0,223.0,0.0,0.0,2.26,0.0,0.0,0,0,0,0,0,0,0,0,0,0,0,0,0,0,0,0,3.0,0.0,0.0,0.0,0.0,39.239685,-77.964554,24.47,28.0,3.0,0.9
106,2538409,1745077811689,,,,,,,,,,,,,,,,,,,,,,,,,,,,,,,,,,0,0,0,0,0,0,0,0,0,0,0,0,0,0,0,0,,,,,,,,,,,
107,2538429,1745077811710,5.15,182.88,,-0.04,-0.1,1.12,-3.0,-1.0,0.0,1.13,1.23,92.0,2920.0,0.0,2.86,,11.61,0.93,86.2,,25.4,5.0,,,,,,,,,,,,0,0,0,0,0,0,0,0,0,0,0,0,0,0,0,0,,,,,0.0,,,,,,
108,2538449,1745077811730,,,,,,,,,,,,,,,,,,,,,,,,,,,,,,,,,,0,0,0,0,0,0,0,0,0,0,0,0,0,0,0,0,,,,,,,,,,,
109,2538469,1745077811750,8.3,182.88,,-0.08,-0.13,1.19,-4.0,0.0,0.0,1.2,1.23,98.0,2866.0,0.0,2.87,,11.75,0.966,86.2,,25.4,5.0,,,,,,,,,,,,0,0,0,0,0,0,0,0,0,0,0,0,0,0,0,0,,,,,0.0,,,,,,
110,2538489,1745077811770,,,,,,,,,,,,,,,,,,,,,,,14.0,0.0,14.0,15.0,0.0,252.0,0.0,0.0,2.26,,,0,0,0,0,0,0,0,0,0,0,0,0,0,0,0,0,3.0,,,,,39.239681,-77.964554,23.17,28.0,3.0,0.9
111,2538509,1745077811790,7.67,182.76,,-0.1,-0.15,1.21,-4.0,0.0,0.0,1.22,1.23,99.0,2962.0,0.0,2.87,,11.8,0.994,86.2,,26.2,5.0,,,,,,,,,,,,0,0,0,0,0,0,0,0,0,0,0,0,0,0,0,0,,,,,0.0,,,,,,
112,2538529,1745077811810,,,,,,,,,,,,,,,,,,,,,,,,,,,,,,,,,,0,0,0,0,0,0,0,0,0,0,0,0,0,0,0,0,,,,,,,,,,,
113,2538549,1745077811830,8.3,182.88,,-0.11,-0.11,1.17,-4.0,0.0,0.0,1.18,1.23,96.0,2834.0,0.0,2.9,,11.8,0.994,86.2,,26.2,5.0,,,,,,,,,,,,0,0,0,0,0,0,0,0,0,0,0,0,0,0,0,0,,,,,0.0,,,,,,
114,2538569,1745077811850,,,,,,,,,,,,,,,,,,,,,,,,,,,,,,,,,,0,0,0,0,0,0,0,0,0,0,0,0,0,0,0,0,,,,,,,,,,,
115,2538589,1745077811870,8.3,182.88,,-0.1,-0.1,1.14,-4.0,0.0,0.0,1.15,1.23,94.0,2834.0,0.0,2.9,,11.89,1.049,86.2,,24.6,5.0,14.0,0.0,14.0,14.0,0.0,14.0,0.0,0.0,2.26,,,0,0,0,0,0,0,0,0,0,0,0,0,0,0,0,0,3.0,,,,0.0,39.239677,-77.964554,22.32,28.0,3.0,0.9
116,2538609,1745077811890,,,,,,,,,,,,,,,,,,,,,,,,,,,,,,,,,,0,0,0,0,0,0,0,0,0,0,0,0,0,0,0,0,,,,,,,,,,,
117,2538629,1745077811910,8.92,182.88,,-0.12,-0.08,1.11,-4.0,0.0,0.0,1.12,1.23,91.0,2562.0,0.0,2.97,,12.11,1.043,86.2,,24.6,5.0,,,,,,,,,,,,0,0,0,0,0,0,0,0,0,0,0,0,0,0,0,0,,,,,0.0,,,,,,
118,2538649,1745077811930,,,,,,,,,,,,,,,,,,,,,,,,,,,,,,,,,,0,0,0,0,0,0,0,0,0,0,0,0,0,0,0,0,,,,,,,,,,,
119,2538669,1745077811950,8.92,182.88,,-0.12,-0.08,1.08,-3.0,0.0,1.0,1.09,1.23,89.0,2464.0,0.0,3.05,,12.31,1.044,86.2,,24.6,5.0,,,,,,,,,,,,0,0,0,0,0,0,0,0,0,0,0,0,0,0,0,0,,,,,0.0,,,,,,
120,2538689,1745077811970,,,,,,,,,,,,,,,,,,,,,,,14.0,0.0,14.0,13.0,0.0,31.0,0.0,0.0,2.26,,,0,0,0,0,0,0,0,0,0,0,0,0,0,0,0,0,3.0,,,,,39.23967,-77.964561,21.7,28.0,3.0,0.9
121,2538709,1745077811990,8.92,182.88,,-0.12,-0.09,1.08,-3.0,0.0,0.0,1.09,1.23,89.0,2250.0,0.0,3.13,,12.53,1.072,86.2,,21.9,5.0,,,,,,,,,,,,0,0,0,0,0,0,0,0,0,0,0,0,0,0,0,0,,,,,0.0,,,,,,
122,2538729,1745077812002,,,,,,,,,,,,,,,,,,,,,,,,,,,,,,,,,,0,0,0,0,0,0,0,0,0,0,0,0,0,0,0,0,,,,,,,,,,,
123,2538749,1745077812022,8.3,182.88,,-0.12,-0.1,1.07,-3.0,0.0,0.0,1.09,1.23,88.0,2497.0,0.0,3.18,,12.53,1.072,86.2,,21.9,5.0,,,,,,,,,,,,0,0,0,0,0,0,0,0,0,0,0,0,0,0,0,0,,,,,0.0,,,,,,
124,2538769,1745077812042,,,,,,,,,,,,,,,,,,,,,,,,,,,,,,,,,,0,0,0,0,0,0,0,0,0,0,0,0,0,0,0,0,,,,,,,,,,,
125,2538789,1745077812062,7.67,182.88,,-0.12,-0.07,1.06,-3.0,0.0,0.0,1.07,1.23,87.0,2497.0,0.0,3.18,,12.65,1.094,86.2,,21.9,5.0,13.0,0.0,13.0,13.0,0.0,251.0,0.0,0.0,2.26,,,0,0,0,0,0,0,0,0,0,0,0,0,0,0,0,0,4.0,,,,0.0,39.239666,-77.964561,21.5,28.0,3.0,0.9
126,2538809,1745077812082,,,,,,,,,,,,,,,,,,,,,,,,,,,,,,,,,,0,0,0,0,0,0,0,0,0,0,0,0,0,0,0,0,,,,,,,,,,,
127,2538829,1745077812108,9.55,182.88,,-0.12,-0.03,1.05,-3.0,-1.0,0.0,1.06,1.23,86.0,2432.0,0.0,3.09,,12.72,1.138,86.2,,21.9,5.0,,,,,,,,,,,,0,0,0,0,0,0,0,0,0,0,0,0,0,0,0,0,,,,,0.0,,,,,,
128,2538849,1745077812128,,,,,,,,,,,,,,,,,,,,,,,,,,,,,,,,,,0,0,0,0,0,0,0,0,0,0,0,0,0,0,0,0,,,,,,,,,,,
129,2538869,1745077812148,12.07,182.88,,-0.13,-0.04,1.06,-3.0,0.0,0.0,1.06,1.23,87.0,2363.0,0.0,3.18,,12.8,1.196,86.2,,21.9,5.0,,,,,,,,,,,,0,0,0,0,0,0,0,0,0,0,0,0,0,0,0,0,,,,,0.0,,,,,,
130,2538889,1745077812168,,,,,,,,,,,,,,,,,,,,,,,13.0,0.0,13.0,13.0,0.0,226.0,0.0,0.0,2.26,,,0,0,0,0,0,0,0,0,0,0,0,0,0,0,0,0,4.0,,,,,39.239662,-77.964561,21.06,28.0,3.0,0.9
131,2538909,1745077812188,15.21,183.01,,-0.14,-0.05,1.05,-2.0,0.0,0.0,1.06,1.23,86.0,2237.0,26.7,4.1,,13.9,1.184,86.2,,20.3,5.0,,,,,,,,,,,,0,0,0,0,0,0,0,0,0,0,0,0,0,0,0,0,,,,,0.0,,,,,,
132,2538929,1745077812208,,,,,,,,,,,,,,,,,,,,,,,,,,,,,,,,,,0,0,0,0,0,0,0,0,0,0,0,0,0,0,0,0,,,,,,,,,,,
133,2538949,1745077812228,17.72,183.01,,-0.15,-0.04,1.04,-2.0,0.0,0.0,1.05,1.23,85.0,2170.0,50.4,5.22,,13.9,1.184,86.2,,20.3,5.0,,,,,,,,,,,,0,0,0,0,0,0,0,0,0,0,0,0,0,0,0,0,,,,,0.0,,,,,,
134,2538969,1745077812248,,,,,,,,,,,,,,,,,,,,,,,,,,,,,,,,,,0,0,0,0,0,0,0,0,0,0,0,0,0,0,0,0,,,,,,,,,,,
135,2538989,1745077812268,22.12,183.01,,-0.15,-0.06,1.03,-2.0,-1.0,0.0,1.04,1.23,85.0,2170.0,50.4,5.22,,14.3,1.151,86.2,,19.1,5.0,12.0,0.0,13.0,13.0,0.0,0.0,0.0,0.0,2.26,,,0,0,0,0,0,0,0,0,0,0,0,0,0,0,0,0,4.0,,,,0.0,39.239655,-77.964561,20.65,28.0,3.0,0.9
136,2539009,1745077812288,,,,,,,,,,,,,,,,,,,,,,,,,,,,,,,,,,0,0,0,0,0,0,0,0,0,0,0,0,0,0,0,0,,,,,,,,,,,
137,2539029,1745077812310,26.52,183.01,,-0.17,-0.05,0.98,-2.0,0.0,0.0,1.0,1.23,81.0,2397.0,50.6,4.4,,14.27,1.119,86.2,,19.1,5.0,,,,,,,,,,,,0,0,0,0,0,0,0,0,0,0,0,0,0,0,0,0,,,,,0.0,,,,,,
138,2539049,1745077812330,,,,,,,,,,,,,,,,,,,,,,,,,,,,,,,,,,0,0,0,0,0,0,0,0,0,0,0,0,0,0,0,0,,,,,,,,,,,
139,2539069,1745077812350,30.92,183.13,,-0.19,-0.09,1.03,-2.0,0.0,0.0,1.05,1.23,86.0,2679.0,16.7,4.36,,13.99,1.128,86.2,,19.1,5.0,,,,,,,,,,,,0,0,0,0,0,0,0,0,0,0,0,0,0,0,0,0,,,,,0.0,,,,,,
140,2539089,1745077812370,,,,,,,,,,,,,,,,,,,,,,,13.0,0.0,12.0,12.0,0.0,234.0,0.0,0.0,2.26,,,0,0,0,0,0,0,0,0,0,0,0,0,0,0,0,0,4.0,,,,,39.239651,-77.964561,20.19,28.0,3.0,0.9
141,2539109,1745077812390,35.95,183.13,,-0.23,-0.13,1.03,-1.0,0.0,0.0,1.07,1.07,100.0,3088.0,0.0,2.96,,13.31,1.175,86.2,,25.0,5.0,,,,,,,,,,,,0,0,0,0,0,0,0,0,0,0,0,0,0,0,0,0,,,,,0.0,,,,,,
142,2539129,1745077812408,,,,,,,,,,,,,,,,,,,,,,,,,,,,,,,,,,0,0,0,0,0,0,0,0,0,0,0,0,0,0,0,0,,,,,,,,,,,
143,2539149,1745077812428,39.72,183.13,,-0.24,-0.07,0.96,-1.0,0.0,0.0,0.99,1.07,93.0,3142.0,0.0,2.81,,13.31,1.175,86.2,,25.0,5.0,,,,,,,,,,,,0,0,0,0,0,0,0,0,0,0,0,0,0,0,0,0,,,,,0.0,,,,,,
144,2539169,1745077812448,,,,,,,,,,,,,,,,,,,,,,,,,,,,,,,,,,0,0,0,0,0,0,0,0,0,0,0,0,0,0,0,0,,,,,,,,,,,
145,2539189,1745077812468,42.23,183.13,,-0.22,0.0,0.91,-1.0,0.0,0.0,0.94,1.07,88.0,3142.0,0.0,2.81,,12.81,1.213,86.2,,28.3,5.0,12.0,0.0,12.0,12.0,0.0,11.0,0.0,0.0,2.26,,,0,0,0,0,0,0,0,0,0,0,0,0,0,0,0,0,0.0,,,,0.0,39.239647,-77.964569,19.38,28.0,3.0,0.9
146,2539209,1745077812488,,,,,,,,,,,,,,,,,,,,,,,,,,,,,,,,,,0,0,0,0,0,0,0,0,0,0,0,0,0,0,0,0,,,,,,,,,,,
147,2539229,1745077812510,45.37,183.26,,-0.2,0.08,0.88,-2.0,0.0,0.0,0.9,1.07,85.0,3072.0,13.1,4.03,,13.15,1.212,86.2,,28.3,5.0,,,,,,,,,,,,0,0,0,0,0,0,0,0,0,0,0,0,0,0,0,0,,,,,0.0,,,,,,
148,2539249,1745077812530,,,,,,,,,,,,,,,,,,,,,,,,,,,,,,,,,,0,0,0,0,0,0,0,0,0,0,0,0,0,0,0,0,,,,,,,,,,,
149,2539269,1745077812550,45.37,183.26,,-0.19,0.13,0.87,-2.0,0.0,0.0,0.9,1.07,84.0,3038.0,30.2,4.51,,14.02,1.222,86.2,,28.3,5.0,,,,,,,,,,,,0,0,0,0,0,0,0,0,0,0,0,0,0,0,0,0,,,,,0.0,,,,,,
150,2539289,1745077812570,,,,,,,,,,,,,,,,,,,,,,,12.0,0.0,11.0,12.0,0.0,227.0,0.0,0.0,2.26,,,0,0,0,0,0,0,0,0,0,0,0,0,0,0,0,0,0.0,,,,,39.239643,-77.964569,18.71,28.0,3.0,0.9
151,2539309,1745077812590,48.52,183.38,,-0.24,0.02,0.92,-2.0,0.0,0.0,0.95,1.07,89.0,3213.0,16.6,4.23,,13.83,1.245,86.2,,28.8,5.0,,,,,,,,,,,,0,0,0,0,0,0,0,0,0,0,0,0,0,0,0,0,,,,,0.0,,,,,,
152,2539329,1745077812610,,,,,,,,,,,,,,,,,,,,,,,,,,,,,,,,,,0,0,0,0,0,0,0,0,0,0,0,0,0,0,0,0,,,,,,,,,,,
153,2539349,1745077812630,52.92,183.38,,-0.23,0.07,0.93,-3.0,0.0,1.0,0.96,1.07,90.0,3568.0,0.0,2.76,,13.83,1.245,86.2,,28.8,5.0,,,,,,,,,,,,0,0,0,0,0,0,0,0,0,0,0,0,0,0,0,0,,,,,0.0,,,,,,
154,2539369,1745077812650,,,,,,,,,,,,,,,,,,,,,,,,,,,,,,,,,,0,0,0,0,0,0,0,0,0,0,0,0,0,0,0,0,,,,,,,,,,,
155,2539389,1745077812670,56.06,183.38,13.32,-0.24,0.06,0.89,-2.0,0.0,0.0,0.92,1.07,86.0,3568.0,0.0,2.76,15.0,12.96,1.25,86.2,158.0,33.0,5.0,11.0,0.0,11.0,11.0,0.0,12.0,0.0,0.0,2.27,0.0,0.0,0,0,0,0,0,0,0,0,0,0,0,0,0,0,0,0,0.0,0.0,0.0,0.0,0.0,39.239639,-77.964569,17.96,28.0,3.0,0.9
156,2539409,1745077812690,,,,,,,,,,,,,,,,,,,,,,,,,,,,,,,,,,0,0,0,0,0,0,0,0,0,0,0,0,0,0,0,0,,,,,,,,,,,
157,2539429,1745077812709,57.32,183.51,,-0.27,0.01,0.98,-3.0,0.0,1.0,1.01,1.07,95.0,3502.0,0.0,2.65,,12.48,1.25,86.2,,33.0,5.0,,,,,,,,,,,,0,0,0,0,0,0,0,0,0,0,0,0,0,0,0,0,,,,,0.0,,,,,,
158,2539449,1745077812729,,,,,,,,,,,,,,,,,,,,,,,,,,,,,,,,,,0,0,0,0,0,0,0,0,0,0,0,0,0,0,0,0,,,,,,,,,,,
159,2539469,1745077812749,57.94,183.51,,-0.25,0.11,0.9,-2.0,0.0,0.0,0.94,1.07,88.0,3411.0,8.1,3.8,,12.72,1.25,86.2,,33.0,5.0,,,,,,,,,,,,0,0,0,0,0,0,0,0,0,0,0,0,0,0,0,0,,,,,0.0,,,,,,
160,2539489,1745077812769,,,,,,,,,,,,,,,,,,,,,,,11.0,0.0,10.0,11.0,0.0,27.0,0.0,0.0,2.26,,,0,0,0,0,0,0,0,0,0,0,0,0,0,0,0,0,0.0,,,,,39.239632,-77.964577,17.12,28.0,3.0,0.9
161,2539509,1745077812789,57.94,183.51,,-0.26,0.04,0.98,-2.0,0.0,1.0,1.02,1.07,95.0,3253.0,16.1,4.26,,13.51,1.251,86.2,,30.8,5.0,,,,,,,,,,,,0,0,0,0,0,0,0,0,0,0,0,0,0,0,0,0,,,,,0.0,,,,,,
162,2539529,1745077812809,,,,,,,,,,,,,,,,,,,,,,,,,,,,,,,,,,0,0,0,0,0,0,0,0,0,0,0,0,0,0,0,0,,,,,,,,,,,
163,2539549,1745077812829,57.32,183.51,,-0.26,0.06,0.91,-1.0,0.0,0.0,0.95,1.07,89.0,3323.0,12.5,4.29,,13.51,1.251,86.2,,30.8,5.0,,,,,,,,,,,,0,0,0,0,0,0,0,0,0,0,0,0,0,0,0,0,,,,,0.0,,,,,,
164,2539569,1745077812849,,,,,,,,,,,,,,,,,,,,,,,,,,,,,,,,,,0,0,0,0,0,0,0,0,0,0,0,0,0,0,0,0,,,,,,,,,,,
165,2539589,1745077812869,57.32,183.63,,-0.28,-0.04,0.97,-2.0,0.0,0.0,1.01,1.07,95.0,3323.0,12.5,4.29,,13.56,1.253,86.2,,31.2,5.0,10.0,0.0,10.0,10.0,0.0,216.0,0.0,0.0,2.26,,,0,0,0,0,0,0,0,0,0,0,0,0,0,0,0,0,1.0,,,,0.0,39.239628,-77.964577,16.27,28.0,3.0,0.9
166,2539609,1745077812889,,,,,,,,,,,,,,,,,,,,,,,,,,,,,,,,,,0,0,0,0,0,0,0,0,0,0,0,0,0,0,0,0,,,,,,,,,,,
167,2539629,1745077812909,59.2,183.63,,-0.26,0.03,0.98,-2.0,0.0,1.0,1.01,1.07,95.0,3538.0,0.0,2.73,,12.83,1.253,86.2,,31.2,5.0,,,,,,,,,,,,0,0,0,0,0,0,0,0,0,0,0,0,0,0,0,0,,,,,0.0,,,,,,
168,2539649,1745077812929,,,,,,,,,,,,,,,,,,,,,,,,,,,,,,,,,,0,0,0,0,0,0,0,0,0,0,0,0,0,0,0,0,,,,,,,,,,,
169,2539669,1745077812949,61.09,183.76,,-0.3,-0.02,0.97,-1.0,0.0,0.0,1.02,1.07,95.0,3487.0,0.0,2.65,,12.41,1.253,86.2,,31.2,5.0,,,,,,,,,,,,0,0,0,0,0,0,0,0,0,0,0,0,0,0,0,0,,,,,0.0,,,,,,
170,2539689,1745077812969,,,,,,,,,,,,,,,,,,,,,,,9.0,0.0,10.0,10.0,0.0,38.0,0.0,0.0,2.26,,,0,0,0,0,0,0,0,0,0,0,0,0,0,0,0,0,1.0,,,,,39.239628,-77.964577,15.47,28.0,3.0,0.9
171,2539709,1745077812989,61.71,183.76,,-0.28,0.0,1.0,-2.0,0.0,1.0,1.04,1.07,98.0,3394.0,0.0,2.7,,12.23,1.252,86.2,,31.5,5.0,,,,,,,,,,,,0,0,0,0,0,0,0,0,0,0,0,0,0,0,0,0,,,,,0.0,,,,,,
172,2539729,1745077813001,,,,,,,,,,,,,,,,,,,,,,,,,,,,,,,,,,0,0,0,0,0,0,0,0,0,0,0,0,0,0,0,0,,,,,,,,,,,
173,2539749,1745077813021,61.09,183.89,,-0.3,-0.04,1.06,-2.0,0.0,0.0,1.1,1.1,100.0,3184.0,15.7,4.07,,12.23,1.252,86.2,,31.5,5.0,,,,,,,,,,,,0,0,0,0,0,0,0,0,0,0,0,0,0,0,0,0,,,,,0.0,,,,,,
174,2539769,1745077813041,,,,,,,,,,,,,,,,,,,,,,,,,,,,,,,,,,0,0,0,0,0,0,0,0,0,0,0,0,0,0,0,0,,,,,,,,,,,
175,2539789,1745077813061,59.83,183.89,,-0.29,-0.05,0.97,-1.0,0.0,0.0,1.02,1.1,92.0,3184.0,15.7,4.07,,13.09,1.25,86.2,,29.9,5.0,9.0,0.0,9.0,9.0,0.0,7.0,0.0,0.0,2.26,,,0,0,0,0,0,0,0,0,0,0,0,0,0,0,0,0,0.0,,,,0.0,39.239624,-77.964577,14.88,28.0,3.0,0.9
176,2539809,1745077813081,,,,,,,,,,,,,,,,,,,,,,,,,,,,,,,,,,0,0,0,0,0,0,0,0,0,0,0,0,0,0,0,0,,,,,,,,,,,
177,2539829,1745077813110,57.94,184.01,,-0.27,-0.02,1.03,-2.0,0.0,0.0,1.07,1.1,97.0,3198.0,22.4,4.47,,13.83,1.25,86.2,,29.9,5.0,,,,,,,,,,,,0,0,0,0,0,0,0,0,0,0,0,0,0,0,0,0,,,,,0.0,,,,,,
178,2539849,1745077813130,,,,,,,,,,,,,,,,,,,,,,,,,,,,,,,,,,0,0,0,0,0,0,0,0,0,0,0,0,0,0,0,0,,,,,,,,,,,
179,2539869,1745077813150,55.43,184.01,,-0.26,0.02,0.97,-1.0,0.0,0.0,1.0,1.1,91.0,3442.0,17.8,4.28,,13.73,1.249,86.2,,29.9,5.0,,,,,,,,,,,,0,0,0,0,0,0,0,0,0,0,0,0,0,0,0,0,,,,,0.0,,,,,,
180,2539889,1745077813170,,,,,,,,,,,,,,,,,,,,,,,9.0,0.0,9.0,9.0,0.0,25.0,0.0,0.0,2.26,,,0,0,0,0,0,0,0,0,0,0,0,0,0,0,0,0,0.0,,,,,39.23962,-77.964584,13.96,28.0,3.0,0.9
181,2539909,1745077813190,55.43,184.01,,-0.28,-0.1,0.94,0.0,0.0,0.0,0.99,1.1,90.0,3568.0,2.9,3.6,,13.16,1.25,86.2,,33.1,5.0,,,,,,,,,,,,0,0,0,0,0,0,0,0,0,0,0,0,0,0,0,0,,,,,0.0,,,,,,
182,2539929,1745077813207,,,,,,,,,,,,,,,,,,,,,,,,,,,,,,,,,,0,0,0,0,0,0,0,0,0,0,0,0,0,0,0,0,,,,,,,,,,,
183,2539949,1745077813227,55.43,184.01,,-0.28,-0.11,0.95,0.0,0.0,0.0,1.0,1.1,91.0,3717.0,2.1,3.15,,13.16,1.25,86.2,,33.1,5.0,,,,,,,,,,,,0,0,0,0,0,0,0,0,0,0,0,0,0,0,0,0,,,,,0.0,,,,,,
184,2539969,1745077813247,,,,,,,,,,,,,,,,,,,,,,,,,,,,,,,,,,0,0,0,0,0,0,0,0,0,0,0,0,0,0,0,0,,,,,,,,,,,
185,2539989,1745077813267,56.69,184.14,,-0.29,-0.1,0.98,-1.0,0.0,0.0,1.02,1.1,93.0,3717.0,2.1,3.15,,12.68,1.251,86.2,,34.7,5.0,8.0,0.0,8.0,8.0,0.0,0.0,0.0,0.0,2.27,,,0,0,0,0,0,0,0,0,0,0,0,0,0,0,0,0,0.0,,,,0.0,39.239616,-77.964584,13.33,28.0,3.0,0.9
186,2540009,1745077813287,,,,,,,,,,,,,,,,,,,,,,,,,,,,,,,,,,0,0,0,0,0,0,0,0,0,0,0,0,0,0,0,0,,,,,,,,,,,
187,2540029,1745077813309,57.32,184.14,,-0.29,-0.06,1.02,-1.0,0.0,0.0,1.06,1.1,96.0,3660.0,2.6,3.15,,12.61,1.252,86.2,,34.7,5.0,,,,,,,,,,,,0,0,0,0,0,0,0,0,0,0,0,0,0,0,0,0,,,,,0.0,,,,,,
188,2540049,1745077813329,,,,,,,,,,,,,,,,,,,,,,,,,,,,,,,,,,0,0,0,0,0,0,0,0,0,0,0,0,0,0,0,0,,,,,,,,,,,
189,2540069,1745077813349,57.32,184.14,,-0.28,0.04,1.01,-2.0,0.0,1.0,1.05,1.1,95.0,3613.0,1.5,3.32,,12.49,1.252,86.2,,34.7,5.0,,,,,,,,,,,,0,0,0,0,0,0,0,0,0,0,0,0,0,0,0,0,,,,,0.0,,,,,,
190,2540089,1745077813369,,,,,,,,,,,,,,,,,,,,,,,8.0,0.0,8.0,8.0,0.0,27.0,0.0,0.0,2.26,,,0,0,0,0,0,0,0,0,0,0,0,0,0,0,0,0,0.0,,,,,39.239613,-77.964584,12.71,28.0,3.0,0.9
191,2540109,1745077813389,56.06,184.26,,-0.26,0.06,0.94,-1.0,0.0,0.0,0.98,1.1,89.0,3512.0,0.0,2.64,,12.19,1.252,86.2,,33.4,5.0,,,,,,,,,,,,0,0,0,0,0,0,0,0,0,0,0,0,0,0,0,0,,,,,0.0,,,,,,
192,2540129,1745077813409,,,,,,,,,,,,,,,,,,,,,,,,,,,,,,,,,,0,0,0,0,0,0,0,0,0,0,0,0,0,0,0,0,,,,,,,,,,,
193,2540149,1745077813429,56.06,184.26,,-0.26,0.04,1.03,-1.0,0.0,1.0,1.06,1.1,97.0,3375.0,0.0,2.69,,12.19,1.252,86.2,,33.4,5.0,,,,,,,,,,,,0,0,0,0,0,0,0,0,0,0,0,0,0,0,0,0,,,,,0.0,,,,,,
194,2540169,1745077813449,,,,,,,,,,,,,,,,,,,,,,,,,,,,,,,,,,0,0,0,0,0,0,0,0,0,0,0,0,0,0,0,0,,,,,,,,,,,
195,2540189,1745077813469,52.29,184.26,,-0.27,0.02,1.0,-1.0,-1.0,0.0,1.03,1.1,94.0,3375.0,0.0,2.69,,12.07,1.253,86.2,,30.7,5.0,7.0,0.0,7.0,7.0,0.0,0.0,0.0,0.0,2.26,,,0,0,0,0,0,0,0,0,0,0,0,0,0,0,0,0,0.0,,,,0.0,39.239609,-77.964584,11.87,28.0,3.0,0.9
196,2540209,1745077813489,,,,,,,,,,,,,,,,,,,,,,,,,,,,,,,,,,0,0,0,0,0,0,0,0,0,0,0,0,0,0,0,0,,,,,,,,,,,
197,2540229,1745077813509,46.63,184.26,,-0.24,0.06,0.93,-1.0,-1.0,0.0,0.96,1.1,87.0,3201.0,0.0,2.74,,12.05,1.251,86.2,,30.7,5.0,,,,,,,,,,,,0,0,0,0,0,0,0,0,0,0,0,0,0,0,0,0,,,,,0.0,,,,,,
198,2540249,1745077813529,,,,,,,,,,,,,,,,,,,,,,,,,,,,,,,,,,0,0,0,0,0,0,0,0,0,0,0,0,0,0,0,0,,,,,,,,,,,
199,2540269,1745077813549,38.46,184.14,,-0.21,0.12,0.87,-1.0,0.0,0.0,0.9,1.1,82.0,3063.0,0.0,2.79,,12.11,1.25,86.2,,30.7,5.0,,,,,,,,,,,,0,0,0,0,0,0,0,0,0,0,0,0,0,0,0,0,,,,,0.0,,,,,,
200,2540289,1745077813569,,,,,,,,,,,,,,,,,,,,,,,7.0,0.0,7.0,7.0,0.0,0.0,0.0,0.0,2.26,,,0,0,0,0,0,0,0,0,0,0,0,0,0,0,0,0,0.0,,,,,39.239609,-77.964592,11.29,28.0,3.0,0.9
201,2540309,1745077813589,29.66,184.14,,-0.19,0.13,0.83,0.0,0.0,0.0,0.86,1.1,78.0,2897.0,0.0,2.88,,12.19,1.25,86.2,,27.0,5.0,,,,,,,,,,,,0,0,0,0,0,0,0,0,0,0,0,0,0,0,0,0,,,,,0.0,,,,,,
202,2540329,1745077813609,,,,,,,,,,,,,,,,,,,,,,,,,,,,,,,,,,0,0,0,0,0,0,0,0,0,0,0,0,0,0,0,0,,,,,,,,,,,
203,2540349,1745077813629,22.12,184.14,,-0.18,0.1,0.88,0.0,0.0,0.0,0.9,1.1,82.0,2811.0,0.0,2.94,,12.19,1.25,86.2,,27.0,5.0,,,,,,,,,,,,0,0,0,0,0,0,0,0,0,0,0,0,0,0,0,0,,,,,0.0,,,,,,
204,2540369,1745077813649,,,,,,,,,,,,,,,,,,,,,,,,,,,,,,,,,,0,0,0,0,0,0,0,0,0,0,0,0,0,0,0,0,,,,,,,,,,,
205,2540389,1745077813669,15.21,184.14,13.37,-0.17,0.08,0.88,0.0,0.0,0.0,0.9,1.1,82.0,2811.0,0.0,2.94,15.0,12.35,1.25,86.2,158.0,24.9,5.0,7.0,0.0,7.0,7.0,0.0,0.0,0.0,0.0,2.27,0.0,0.0,0,0,0,0,0,0,0,0,0,0,0,0,0,0,0,0,0.0,0.0,0.0,0.0,0.0,39.239605,-77.964592,10.82,28.0,3.0,0.9
206,2540409,1745077813689,,,,,,,,,,,,,,,,,,,,,,,,,,,,,,,,,,0,0,0,0,0,0,0,0,0,0,0,0,0,0,0,0,,,,,,,,,,,
207,2540429,1745077813708,10.18,184.01,,-0.16,0.05,0.91,0.0,0.0,0.0,0.93,1.1,84.0,2693.0,0.0,2.98,,12.52,1.25,86.2,,24.9,5.0,,,,,,,,,,,,0,0,0,0,0,0,0,0,0,0,0,0,0,0,0,0,,,,,0.0,,,,,,
208,2540449,1745077813728,,,,,,,,,,,,,,,,,,,,,,,,,,,,,,,,,,0,0,0,0,0,0,0,0,0,0,0,0,0,0,0,0,,,,,,,,,,,
209,2540469,1745077813748,7.04,184.01,,-0.16,0.03,0.91,0.0,0.0,0.0,0.92,1.1,84.0,2580.0,3.0,3.2,,12.95,1.25,86.2,,24.9,5.0,,,,,,,,,,,,0,0,0,0,0,0,0,0,0,0,0,0,0,0,0,0,,,,,0.0,,,,,,
210,2540489,1745077813768,,,,,,,,,,,,,,,,,,,,,,,7.0,0.0,7.0,7.0,0.0,0.0,0.0,0.0,2.27,,,0,0,0,0,0,0,0,0,0,0,0,0,0,0,0,0,0.0,,,,,39.239605,-77.964592,10.56,28.0,3.0,0.9
211,2540509,1745077813788,2.64,184.01,,-0.14,0.01,0.92,0.0,0.0,0.0,0.93,1.1,84.0,2482.0,7.2,3.67,,13.47,1.252,86.2,,22.3,5.0,,,,,,,,,,,,0,0,0,0,0,0,0,0,0,0,0,0,0,0,0,0,,,,,0.0,,,,,,
212,2540529,1745077813808,,,,,,,,,,,,,,,,,,,,,,,,,,,,,,,,,,0,0,0,0,0,0,0,0,0,0,0,0,0,0,0,0,,,,,,,,,,,
213,2540549,1745077813828,0.13,184.01,,-0.14,0.02,0.94,0.0,0.0,0.0,0.95,1.1,86.0,2420.0,7.8,3.69,,13.47,1.252,86.2,,22.3,5.0,,,,,,,,,,,,0,0,0,0,0,0,0,0,0,0,0,0,0,0,0,0,,,,,0.0,,,,,,
214,2540569,1745077813848,,,,,,,,,,,,,,,,,,,,,,,,,,,,,,,,,,0,0,0,0,0,0,0,0,0,0,0,0,0,0,0,0,,,,,,,,,,,
215,2540589,1745077813868,0.0,184.01,,-0.14,0.01,0.94,0.0,0.0,0.0,0.95,1.1,86.0,2420.0,7.8,3.69,,13.71,1.253,86.2,,22.4,5.0,6.0,0.0,7.0,7.0,0.0,0.0,0.0,0.0,2.26,,,0,0,0,0,0,0,0,0,0,0,0,0,0,0,0,0,0.0,,,,0.0,39.239601,-77.964592,10.42,28.0,3.0,0.9
216,2540609,1745077813888,,,,,,,,,,,,,,,,,,,,,,,,,,,,,,,,,,0,0,0,0,0,0,0,0,0,0,0,0,0,0,0,0,,,,,,,,,,,
217,2540629,1745077813911,0.13,184.01,,-0.15,-0.02,0.96,0.0,0.0,0.0,0.97,1.1,88.0,2488.0,8.1,3.69,,13.77,1.253,86.2,,22.4,5.0,,,,,,,,,,,,0,0,0,0,0,0,0,0,0,0,0,0,0,0,0,0,,,,,0.0,,,,,,
218,2540649,1745077813931,,,,,,,,,,,,,,,,,,,,,,,,,,,,,,,,,,0,0,0,0,0,0,0,0,0,0,0,0,0,0,0,0,,,,,,,,,,,
219,2540669,1745077813951,0.13,184.01,,-0.14,-0.01,0.95,0.0,-1.0,0.0,0.96,1.1,87.0,2584.0,1.1,3.66,,13.57,1.253,86.2,,22.4,5.0,,,,,,,,,,,,0,0,0,0,0,0,0,0,0,0,0,0,0,0,0,0,,,,,0.0,,,,,,
220,2540689,1745077813971,,,,,,,,,,,,,,,,,,,,,,,6.0,0.0,6.0,6.0,0.0,0.0,0.0,0.0,2.26,,,0,0,0,0,0,0,0,0,0,0,0,0,0,0,0,0,0.0,,,,,39.239597,-77.9646,10.07,28.0,3.0,0.9
221,2540709,1745077813991,2.01,184.14,,-0.15,-0.01,0.98,0.0,-1.0,0.0,0.99,1.1,90.0,2649.0,0.0,3.04,,13.2,1.251,86.2,,24.0,5.0,,,,,,,,,,,,0,0,0,0,0,0,0,0,0,0,0,0,0,0,0,0,,,,,0.0,,,,,,
222,2540729,1745077814002,,,,,,,,,,,,,,,,,,,,,,,,,,,,,,,,,,0,0,0,0,0,0,0,0,0,0,0,0,0,0,0,0,,,,,,,,,,,
223,2540749,1745077814022,3.9,184.01,,-0.15,0.02,0.96,0.0,-1.0,0.0,0.97,1.1,88.0,2652.0,0.0,3.02,,13.2,1.251,86.2,,24.0,5.0,,,,,,,,,,,,0,0,0,0,0,0,0,0,0,0,0,0,0,0,0,0,,,,,0.0,,,,,,
224,2540769,1745077814042,,,,,,,,,,,,,,,,,,,,,,,,,,,,,,,,,,0,0,0,0,0,0,0,0,0,0,0,0,0,0,0,0,,,,,,,,,,,
225,2540789,1745077814062,8.3,184.14,,-0.15,0.03,0.96,0.0,-1.0,1.0,0.97,1.1,88.0,2652.0,0.0,3.02,,13.05,1.251,86.2,,23.5,5.0,6.0,0.0,6.0,6.0,0.0,0.0,0.0,0.0,2.26,,,0,0,0,0,0,0,0,0,0,0,0,0,0,0,0,0,0.0,,,,0.0,39.239594,-77.9646,9.81,28.0,3.0,0.9
226,2540809,1745077814082,,,,,,,,,,,,,,,,,,,,,,,,,,,,,,,,,,0,0,0,0,0,0,0,0,0,0,0,0,0,0,0,0,,,,,,,,,,,
227,2540829,1745077814104,9.55,184.14,,-0.16,0.03,0.98,0.0,-1.0,1.0,0.99,1.1,90.0,2540.0,0.0,3.05,,12.93,1.25,86.2,,23.5,5.0,,,,,,,,,,,,0,0,0,0,0,0,0,0,0,0,0,0,0,0,0,0,,,,,0.0,,,,,,
228,2540849,1745077814124,,,,,,,,,,,,,,,,,,,,,,,,,,,,,,,,,,0,0,0,0,0,0,0,0,0,0,0,0,0,0,0,0,,,,,,,,,,,
229,2540869,1745077814144,12.07,184.14,,-0.17,0.04,0.98,0.0,-1.0,1.0,0.99,1.1,90.0,2478.0,0.0,3.08,,12.97,1.25,86.2,,23.5,5.0,,,,,,,,,,,,0,0,0,0,0,0,0,0,0,0,0,0,0,0,0,0,,,,,0.0,,,,,,
230,2540889,1745077814164,,,,,,,,,,,,,,,,,,,,,,,6.0,0.0,6.0,6.0,0.0,0.0,0.0,0.0,2.26,,,0,0,0,0,0,0,0,0,0,0,0,0,0,0,0,0,0.0,,,,,39.239594,-77.9646,9.4,28.0,3.0,0.9
231,2540909,1745077814184,14.58,184.14,,-0.18,0.02,0.98,0.0,-1.0,1.0,1.0,1.1,91.0,2402.0,0.0,3.12,,13.01,1.25,86.2,,22.0,5.0,,,,,,,,,,,,0,0,0,0,0,0,0,0,0,0,0,0,0,0,0,0,,,,,0.0,,,,,,
232,2540929,1745077814206,,,,,,,,,,,,,,,,,,,,,,,,,,,,,,,,,,0,0,0,0,0,0,0,0,0,0,0,0,0,0,0,0,,,,,,,,,,,
233,2540949,1745077814226,15.21,184.14,,-0.18,0.03,0.97,0.0,-1.0,1.0,0.99,1.1,90.0,2307.0,0.0,3.15,,13.01,1.25,86.2,,22.0,5.0,,,,,,,,,,,,0,0,0,0,0,0,0,0,0,0,0,0,0,0,0,0,,,,,0.0,,,,,,
234,2540969,1745077814246,,,,,,,,,,,,,,,,,,,,,,,,,,,,,,,,,,0,0,0,0,0,0,0,0,0,0,0,0,0,0,0,0,,,,,,,,,,,
235,2540989,1745077814266,16.47,184.14,,-0.17,0.02,0.97,0.0,-1.0,1.0,0.98,1.1,89.0,2307.0,0.0,3.15,,13.09,1.25,86.2,,20.7,5.0,6.0,0.0,6.0,6.0,0.0,0.0,0.0,0.0,2.26,,,0,0,0,0,0,0,0,0,0,0,0,0,0,0,0,0,0.0,,,,0.0,39.23959,-77.9646,9.02,28.0,3.0,0.9
236,2541009,1745077814286,,,,,,,,,,,,,,,,,,,,,,,,,,,,,,,,,,0,0,0,0,0,0,0,0,0,0,0,0,0,0,0,0,,,,,,,,,,,
237,2541029,1745077814308,18.98,184.14,,-0.18,0.01,0.98,0.0,-1.0,1.0,1.0,1.1,91.0,2229.0,0.0,3.18,,13.23,1.251,86.2,,20.7,5.0,,,,,,,,,,,,0,0,0,0,0,0,0,0,0,0,0,0,0,0,0,0,,,,,0.0,,,,,,
238,2541049,1745077814328,,,,,,,,,,,,,,,,,,,,,,,,,,,,,,,,,,0,0,0,0,0,0,0,0,0,0,0,0,0,0,0,0,,,,,,,,,,,
239,2541069,1745077814348,21.49,184.14,,-0.18,-0.0,0.98,0.0,-1.0,1.0,1.0,1.1,91.0,2076.0,1.6,3.25,,13.4,1.253,86.2,,20.7,5.0,,,,,,,,,,,,0,0,0,0,0,0,0,0,0,0,0,0,0,0,0,0,,,,,0.0,,,,,,
240,2541089,1745077814368,,,,,,,,,,,,,,,,,,,,,,,5.0,0.0,5.0,5.0,0.0,0.0,0.0,0.0,2.26,,,0,0,0,0,0,0,0,0,0,0,0,0,0,0,0,0,0.0,,,,,39.239586,-77.9646,8.49,28.0,3.0,0.9
241,2541109,1745077814388,22.75,184.14,,-0.2,0.01,0.98,0.0,-1.0,1.0,1.0,1.1,90.0,1990.0,12.2,3.78,,13.94,1.253,86.2,,19.0,5.0,,,,,,,,,,,,0,0,0,0,0,0,0,0,0,0,0,0,0,0,0,0,,,,,0.0,,,,,,
242,2541129,1745077814410,,,,,,,,,,,,,,,,,,,,,,,,,,,,,,,,,,0,0,0,0,0,0,0,0,0,0,0,0,0,0,0,0,,,,,,,,,,,
243,2541149,1745077814430,25.26,184.14,,-0.2,0.01,0.99,0.0,-1.0,1.0,1.01,1.1,92.0,2002.0,17.0,4.47,,13.94,1.253,86.2,,19.0,5.0,,,,,,,,,,,,0,0,0,0,0,0,0,0,0,0,0,0,0,0,0,0,,,,,0.0,,,,,,
244,2541169,1745077814450,,,,,,,,,,,,,,,,,,,,,,,,,,,,,,,,,,0,0,0,0,0,0,0,0,0,0,0,0,0,0,0,0,,,,,,,,,,,
245,2541189,1745077814470,26.52,184.14,,-0.2,0.02,0.99,0.0,-1.0,1.0,1.01,1.1,92.0,2002.0,17.0,4.47,,14.14,1.253,86.2,,17.6,5.0,5.0,0.0,5.0,5.0,0.0,0.0,0.0,0.0,2.26,,,0,0,0,0,0,0,0,0,0,0,0,0,0,0,0,0,0.0,,,,0.0,39.239586,-77.9646,8.06,28.0,3.0,0.9
246,2541209,1745077814490,,,,,,,,,,,,,,,,,,,,,,,,,,,,,,,,,,0,0,0,0,0,0,0,0,0,0,0,0,0,0,0,0,,,,,,,,,,,
247,2541229,1745077814510,27.15,184.26,,-0.22,0.03,0.99,0.0,-1.0,1.0,1.02,1.1,92.0,2058.0,17.5,4.49,,14.08,1.251,86.2,,17.6,5.0,,,,,,,,,,,,0,0,0,0,0,0,0,0,0,0,0,0,0,0,0,0,,,,,0.0,,,,,,
248,2541249,1745077814530,,,,,,,,,,,,,,,,,,,,,,,,,,,,,,,,,,0,0,0,0,0,0,0,0,0,0,0,0,0,0,0,0,,,,,,,,,,,
249,2541269,1745077814550,27.78,184.26,,-0.24,0.03,0.98,0.0,-1.0,1.0,1.01,1.1,92.0,2184.0,17.0,4.46,,14.08,1.25,86.2,,17.6,5.0,,,,,,,,,,,,0,0,0,0,0,0,0,0,0,0,0,0,0,0,0,0,,,,,0.0,,,,,,
250,2541289,1745077814570,,,,,,,,,,,,,,,,,,,,,,,5.0,0.0,5.0,5.0,0.0,0.0,0.0,0.0,2.26,,,0,0,0,0,0,0,0,0,0,0,0,0,0,0,0,0,0.0,,,,,39.239586,-77.9646,7.44,28.0,3.0,0.9
251,2541309,1745077814590,28.41,184.26,,-0.23,0.01,0.98,0.0,-1.0,1.0,1.01,1.1,91.0,2423.0,11.3,3.73,,13.96,1.25,86.2,,19.4,5.0,,,,,,,,,,,,0,0,0,0,0,0,0,0,0,0,0,0,0,0,0,0,,,,,0.0,,,,,,
252,2541329,1745077814610,,,,,,,,,,,,,,,,,,,,,,,,,,,,,,,,,,0,0,0,0,0,0,0,0,0,0,0,0,0,0,0,0,,,,,,,,,,,
253,2541349,1745077814630,29.66,184.26,,-0.23,0.03,0.96,0.0,0.0,1.0,0.99,1.1,90.0,2548.0,10.5,3.74,,13.96,1.25,86.2,,19.4,5.0,,,,,,,,,,,,0,0,0,0,0,0,0,0,0,0,0,0,0,0,0,0,,,,,0.0,,,,,,
254,2541369,1745077814650,,,,,,,,,,,,,,,,,,,,,,,,,,,,,,,,,,0,0,0,0,0,0,0,0,0,0,0,0,0,0,0,0,,,,,,,,,,,
255,2541389,1745077814670,31.55,184.39,13.4,-0.23,0.02,1.0,0.0,-1.0,1.0,1.03,1.1,93.0,2548.0,10.5,3.74,15.0,13.88,1.25,86.2,158.0,22.4,5.0,4.0,0.0,4.0,4.0,0.0,0.0,0.0,0.0,2.26,0.0,0.0,0,0,0,0,0,0,0,0,0,0,0,0,0,0,0,0,0.0,0.0,0.0,0.0,0.0,39.239586,-77.9646,7.0,28.0,3.0,0.9
256,2541409,1745077814690,,,,,,,,,,,,,,,,,,,,,,,,,,,,,,,,,,0,0,0,0,0,0,0,0,0,0,0,0,0,0,0,0,,,,,,,,,,,
257,2541429,1745077814710,32.18,184.39,,-0.23,0.04,0.95,0.0,-1.0,1.0,0.98,1.1,89.0,2663.0,10.5,3.76,,13.79,1.251,86.2,,22.4,5.0,,,,,,,,,,,,0,0,0,0,0,0,0,0,0,0,0,0,0,0,0,0,,,,,0.0,,,,,,
258,2541449,1745077814730,,,,,,,,,,,,,,,,,,,,,,,,,,,,,,,,,,0,0,0,0,0,0,0,0,0,0,0,0,0,0,0,0,,,,,,,,,,,
259,2541469,1745077814750,34.69,184.39,,-0.24,0.01,0.99,0.0,0.0,1.0,1.02,1.1,92.0,2770.0,10.4,3.78,,13.76,1.249,86.2,,22.4,5.0,,,,,,,,,,,,0,0,0,0,0,0,0,0,0,0,0,0,0,0,0,0,,,,,0.0,,,,,,
260,2541489,1745077814770,,,,,,,,,,,,,,,,,,,,,,,4.0,0.0,4.0,4.0,0.0,0.0,0.0,0.0,2.27,,,0,0,0,0,0,0,0,0,0,0,0,0,0,0,0,0,0.0,,,,,39.239582,-77.9646,6.33,28.0,3.0,0.9
261,2541509,1745077814790,35.32,184.39,,-0.24,-0.02,1.04,0.0,0.0,1.0,1.07,1.1,97.0,2833.0,10.4,3.83,,13.72,1.25,86.2,,25.2,5.0,,,,,,,,,,,,0,0,0,0,0,0,0,0,0,0,0,0,0,0,0,0,,,,,0.0,,,,,,
262,2541529,1745077814809,,,,,,,,,,,,,,,,,,,,,,,,,,,,,,,,,,0,0,0,0,0,0,0,0,0,0,0,0,0,0,0,0,,,,,,,,,,,
263,2541549,1745077814829,36.58,184.39,,-0.24,-0.04,1.09,0.0,0.0,1.0,1.11,1.11,100.0,2925.0,8.2,3.82,,13.72,1.25,86.2,,25.2,5.0,,,,,,,,,,,,0,0,0,0,0,0,0,0,0,0,0,0,0,0,0,0,,,,,0.0,,,,,,
264,2541569,1745077814849,,,,,,,,,,,,,,,,,,,,,,,,,,,,,,,,,,0,0,0,0,0,0,0,0,0,0,0,0,0,0,0,0,,,,,,,,,,,
265,2541589,1745077814869,37.83,184.39,,-0.24,-0.06,1.13,-1.0,0.0,1.0,1.16,1.16,100.0,2925.0,8.2,3.82,,13.61,1.253,86.2,,27.1,5.0,4.0,0.0,4.0,4.0,0.0,0.0,0.0,0.0,2.26,,,0,0,0,0,0,0,0,0,0,0,0,0,0,0,0,0,0.0,,,,0.0,39.239582,-77.9646,5.76,28.0,3.0,0.9
266,2541609,1745077814889,,,,,,,,,,,,,,,,,,,,,,,,,,,,,,,,,,0,0,0,0,0,0,0,0,0,0,0,0,0,0,0,0,,,,,,,,,,,
267,2541629,1745077814909,37.83,184.39,,-0.25,-0.13,1.19,0.0,0.0,1.0,1.22,1.22,100.0,3077.0,3.8,3.62,,13.35,1.252,86.2,,27.1,5.0,,,,,,,,,,,,0,0,0,0,0,0,0,0,0,0,0,0,0,0,0,0,,,,,0.0,,,,,,
268,2541649,1745077814929,,,,,,,,,,,,,,,,,,,,,,,,,,,,,,,,,,0,0,0,0,0,0,0,0,0,0,0,0,0,0,0,0,,,,,,,,,,,
269,2541669,1745077814949,35.95,184.39,,-0.26,-0.19,1.19,0.0,0.0,0.0,1.23,1.23,100.0,3177.0,3.2,3.47,,13.11,1.253,86.2,,27.1,5.0,,,,,,,,,,,,0,0,0,0,0,0,0,0,0,0,0,0,0,0,0,0,,,,,0.0,,,,,,
270,2541689,1745077814969,,,,,,,,,,,,,,,,,,,,,,,3.0,0.0,3.0,3.0,0.0,0.0,0.0,0.0,2.26,,,0,0,0,0,0,0,0,0,0,0,0,0,0,0,0,0,0.0,,,,,39.239578,-77.9646,5.24,28.0,3.0,0.9
271,2541709,1745077814989,34.06,184.39,,-0.26,-0.16,1.09,1.0,0.0,0.0,1.13,1.23,92.0,3103.0,3.1,3.41,,13.01,1.252,86.2,,29.3,5.0,,,,,,,,,,,,0,0,0,0,0,0,0,0,0,0,0,0,0,0,0,0,,,,,0.0,,,,,,
272,2541729,1745077815001,,,,,,,,,,,,,,,,,,,,,,,,,,,,,,,,,,0,0,0,0,0,0,0,0,0,0,0,0,0,0,0,0,,,,,,,,,,,
273,2541749,1745077815021,29.66,184.39,,-0.22,-0.04,1.03,0.0,0.0,0.0,1.06,1.23,86.0,3125.0,3.0,3.4,,13.01,1.252,86.2,,29.3,5.0,,,,,,,,,,,,0,0,0,0,0,0,0,0,0,0,0,0,0,0,0,0,,,,,0.0,,,,,,
274,2541769,1745077815041,,,,,,,,,,,,,,,,,,,,,,,,,,,,,,,,,,0,0,0,0,0,0,0,0,0,0,0,0,0,0,0,0,,,,,,,,,,,
275,2541789,1745077815061,23.38,184.39,,-0.22,-0.06,1.08,0.0,0.0,1.0,1.1,1.23,89.0,3125.0,3.0,3.4,,12.95,1.25,86.2,,28.9,5.0,3.0,0.0,3.0,3.0,0.0,0.0,0.0,0.0,2.26,,,0,0,0,0,0,0,0,0,0,0,0,0,0,0,0,0,0.0,,,,0.0,39.239578,-77.9646,4.6,28.0,3.0,0.9
276,2541809,1745077815081,,,,,,,,,,,,,,,,,,,,,,,,,,,,,,,,,,0,0,0,0,0,0,0,0,0,0,0,0,0,0,0,0,,,,,,,,,,,
277,2541829,1745077815105,17.72,184.39,,-0.23,-0.13,1.13,0.0,0.0,0.0,1.16,1.23,94.0,3193.0,2.9,3.43,,12.89,1.251,86.2,,28.9,5.0,,,,,,,,,,,,0,0,0,0,0,0,0,0,0,0,0,0,0,0,0,0,,,,,0.0,,,,,,
278,2541849,1745077815125,,,,,,,,,,,,,,,,,,,,,,,,,,,,,,,,,,0,0,0,0,0,0,0,0,0,0,0,0,0,0,0,0,,,,,,,,,,,
279,2541869,1745077815145,12.07,184.39,,-0.24,-0.14,1.09,0.0,0.0,0.0,1.13,1.23,91.0,3135.0,2.8,3.43,,12.89,1.25,86.2,,28.9,5.0,,,,,,,,,,,,0,0,0,0,0,0,0,0,0,0,0,0,0,0,0,0,,,,,0.0,,,,,,
280,2541889,1745077815165,,,,,,,,,,,,,,,,,,,,,,,3.0,0.0,3.0,3.0,0.0,0.0,0.0,0.0,2.26,,,0,0,0,0,0,0,0,0,0,0,0,0,0,0,0,0,0.0,,,,,39.239578,-77.9646,4.22,28.0,3.0,0.9
281,2541909,1745077815185,7.67,184.39,,-0.21,-0.1,0.99,1.0,0.0,0.0,1.02,1.23,83.0,3124.0,2.8,3.41,,12.89,1.25,86.2,,29.2,5.0,,,,,,,,,,,,0,0,0,0,0,0,0,0,0,0,0,0,0,0,0,0,,,,,0.0,,,,,,
282,2541929,1745077815207,,,,,,,,,,,,,,,,,,,,,,,,,,,,,,,,,,0,0,0,0,0,0,0,0,0,0,0,0,0,0,0,0,,,,,,,,,,,
283,2541949,1745077815227,2.01,184.26,,-0.17,-0.03,0.95,0.0,0.0,0.0,0.97,1.23,78.0,3158.0,2.7,3.38,,12.89,1.25,86.2,,29.2,5.0,,,,,,,,,,,,0,0,0,0,0,0,0,0,0,0,0,0,0,0,0,0,,,,,0.0,,,,,,
284,2541969,1745077815247,,,,,,,,,,,,,,,,,,,,,,,,,,,,,,,,,,0,0,0,0,0,0,0,0,0,0,0,0,0,0,0,0,,,,,,,,,,,
285,2541989,1745077815267,0.0,184.26,,-0.15,-0.01,0.98,0.0,0.0,1.0,0.99,1.23,81.0,3158.0,2.7,3.38,,12.85,1.25,86.2,,28.5,5.0,3.0,0.0,2.0,2.0,0.0,0.0,0.0,0.0,2.27,,,0,0,0,0,0,0,0,0,0,0,0,0,0,0,0,0,0.0,,,,0.0,39.239574,-77.9646,3.81,28.0,3.0,0.9
286,2542009,1745077815287,,,,,,,,,,,,,,,,,,,,,,,,,,,,,,,,,,0,0,0,0,0,0,0,0,0,0,0,0,0,0,0,0,,,,,,,,,,,
287,2542029,1745077815311,0.0,184.26,,-0.14,-0.06,1.05,-1.0,0.0,1.0,1.06,1.23,86.0,3099.0,2.8,3.38,,12.89,1.252,86.2,,28.5,5.0,,,,,,,,,,,,0,0,0,0,0,0,0,0,0,0,0,0,0,0,0,0,,,,,0.0,,,,,,
288,2542049,1745077815331,,,,,,,,,,,,,,,,,,,,,,,,,,,,,,,,,,0,0,0,0,0,0,0,0,0,0,0,0,0,0,0,0,,,,,,,,,,,
289,2542069,1745077815351,0.0,184.26,,-0.16,-0.13,1.1,0.0,0.0,0.0,1.12,1.23,91.0,3101.0,2.8,3.37,,12.91,1.253,86.2,,28.5,5.0,,,,,,,,,,,,0,0,0,0,0,0,0,0,0,0,0,0,0,0,0,0,,,,,0.0,,,,,,
290,2542089,1745077815371,,,,,,,,,,,,,,,,,,,,,,,2.0,0.0,2.0,2.0,0.0,0.0,0.0,0.0,2.26,,,0,0,0,0,0,0,0,0,0,0,0,0,0,0,0,0,0.0,,,,,39.239574,-77.9646,3.71,28.0,3.0,0.9
291,2542109,1745077815391,0.0,184.14,,-0.17,-0.17,1.11,0.0,0.0,0.0,1.13,1.23,92.0,3103.0,2.8,3.39,,12.87,1.253,86.2,,28.3,5.0,,,,,,,,,,,,0,0,0,0,0,0,0,0,0,0,0,0,0,0,0,0,,,,,0.0,,,,,,
292,2542129,1745077815411,,,,,,,,,,,,,,,,,,,,,,,,,,,,,,,,,,0,0,0,0,0,0,0,0,0,0,0,0,0,0,0,0,,,,,,,,,,,
293,2542149,1745077815431,0.0,184.26,,-0.16,-0.13,1.03,1.0,0.0,0.0,1.05,1.23,85.0,3140.0,2.9,3.37,,12.87,1.253,86.2,,28.3,5.0,,,,,,,,,,,,0,0,0,0,0,0,0,0,0,0,0,0,0,0,0,0,,,,,0.0,,,,,,
294,2542169,1745077815451,,,,,,,,,,,,,,,,,,,,,,,,,,,,,,,,,,0,0,0,0,0,0,0,0,0,0,0,0,0,0,0,0,,,,,,,,,,,
295,2542189,1745077815471,0.0,184.14,,-0.14,-0.04,0.94,1.0,0.0,0.0,0.96,1.23,77.0,3140.0,2.9,3.37,,12.85,1.253,86.2,,29.0,5.0,2.0,0.0,2.0,2.0,0.0,0.0,0.0,0.0,2.26,,,0,0,0,0,0,0,0,0,0,0,0,0,0,0,0,0,0.0,,,,0.0,39.239574,-77.9646,3.6,28.0,3.0,0.9
296,2542209,1745077815491,,,,,,,,,,,,,,,,,,,,,,,,,,,,,,,,,,0,0,0,0,0,0,0,0,0,0,0,0,0,0,0,0,,,,,,,,,,,
297,2542229,1745077815512,0.0,184.14,,-0.13,-0.01,0.96,0.0,0.0,0.0,0.97,1.23,79.0,3119.0,3.0,3.37,,12.87,1.251,86.2,,29.0,5.0,,,,,,,,,,,,0,0,0,0,0,0,0,0,0,0,0,0,0,0,0,0,,,,,0.0,,,,,,
298,2542249,1745077815532,,,,,,,,,,,,,,,,,,,,,,,,,,,,,,,,,,0,0,0,0,0,0,0,0,0,0,0,0,0,0,0,0,,,,,,,,,,,
299,2542269,1745077815552,0.0,184.26,,-0.13,-0.03,1.03,0.0,0.0,1.0,1.03,1.23,84.0,3133.0,3.0,3.42,,12.89,1.25,86.2,,29.0,5.0,,,,,,,,,,,,0,0,0,0,0,0,0,0,0,0,0,0,0,0,0,0,,,,,0.0,,,,,,
300,2542289,1745077815572,,,,,,,,,,,,,,,,,,,,,,,2.0,0.0,2.0,2.0,0.0,0.0,0.0,0.0,2.26,,,0,0,0,0,0,0,0,0,0,0,0,0,0,0,0,0,0.0,,,,,39.239574,-77.9646,3.46,28.0,3.0,0.9
301,2542309,1745077815592,0.0,184.26,,-0.16,-0.1,1.09,0.0,0.0,0.0,1.1,1.23,90.0,3142.0,2.8,3.43,,12.85,1.25,86.2,,28.1,5.0,,,,,,,,,,,,0,0,0,0,0,0,0,0,0,0,0,0,0,0,0,0,,,,,0.0,,,,,,
302,2542329,1745077815611,,,,,,,,,,,,,,,,,,,,,,,,,,,,,,,,,,0,0,0,0,0,0,0,0,0,0,0,0,0,0,0,0,,,,,,,,,,,
303,2542349,1745077815631,0.0,184.26,,-0.18,-0.14,1.09,0.0,0.0,0.0,1.12,1.23,91.0,3096.0,2.7,3.42,,12.85,1.25,86.2,,28.1,5.0,,,,,,,,,,,,0,0,0,0,0,0,0,0,0,0,0,0,0,0,0,0,,,,,0.0,,,,,,
304,2542369,1745077815651,,,,,,,,,,,,,,,,,,,,,,,,,,,,,,,,,,0,0,0,0,0,0,0,0,0,0,0,0,0,0,0,0,,,,,,,,,,,
305,2542389,1745077815671,0.0,184.26,13.42,-0.17,-0.14,1.02,1.0,0.0,0.0,1.05,1.23,85.0,3096.0,2.7,3.42,15.0,12.89,1.25,86.2,158.0,28.6,5.0,2.0,0.0,2.0,2.0,0.0,0.0,0.0,0.0,2.26,0.0,0.0,0,0,0,0,0,0,0,0,0,0,0,0,0,0,0,0,0.0,0.0,0.0,0.0,0.0,39.239571,-77.9646,3.22,28.0,3.0,0.9
306,2542409,1745077815691,,,,,,,,,,,,,,,,,,,,,,,,,,,,,,,,,,0,0,0,0,0,0,0,0,0,0,0,0,0,0,0,0,,,,,,,,,,,
307,2542429,1745077815710,0.0,184.26,,-0.15,-0.08,0.92,1.0,0.0,-1.0,0.94,1.23,76.0,3068.0,2.7,3.42,,12.91,1.25,86.2,,28.6,5.0,,,,,,,,,,,,0,0,0,0,0,0,0,0,0,0,0,0,0,0,0,0,,,,,0.0,,,,,,
308,2542449,1745077815730,,,,,,,,,,,,,,,,,,,,,,,,,,,,,,,,,,0,0,0,0,0,0,0,0,0,0,0,0,0,0,0,0,,,,,,,,,,,
309,2542469,1745077815750,0.0,184.26,,-0.12,-0.01,0.85,1.0,0.0,-1.0,0.86,1.23,70.0,3100.0,2.7,3.39,,12.92,1.25,86.2,,28.6,5.0,,,,,,,,,,,,0,0,0,0,0,0,0,0,0,0,0,0,0,0,0,0,,,,,0.0,,,,,,
310,2542489,1745077815770,,,,,,,,,,,,,,,,,,,,,,,2.0,0.0,2.0,2.0,0.0,0.0,0.0,0.0,2.26,,,0,0,0,0,0,0,0,0,0,0,0,0,0,0,0,0,0.0,,,,,39.239571,-77.964607,3.04,28.0,3.0,0.9
311,2542509,1745077815790,0.0,184.14,,-0.09,0.05,0.84,1.0,0.0,0.0,0.85,1.23,69.0,3080.0,2.7,3.41,,12.92,1.252,86.2,,27.9,5.0,,,,,,,,,,,,0,0,0,0,0,0,0,0,0,0,0,0,0,0,0,0,,,,,0.0,,,,,,
312,2542529,1745077815810,,,,,,,,,,,,,,,,,,,,,,,,,,,,,,,,,,0,0,0,0,0,0,0,0,0,0,0,0,0,0,0,0,,,,,,,,,,,
313,2542549,1745077815830,0.0,184.26,,-0.07,0.1,0.84,0.0,0.0,0.0,0.85,1.23,69.0,3010.0,2.7,3.37,,12.92,1.252,86.2,,27.9,5.0,,,,,,,,,,,,0,0,0,0,0,0,0,0,0,0,0,0,0,0,0,0,,,,,0.0,,,,,,
314,2542569,1745077815850,,,,,,,,,,,,,,,,,,,,,,,,,,,,,,,,,,0,0,0,0,0,0,0,0,0,0,0,0,0,0,0,0,,,,,,,,,,,
315,2542589,1745077815870,0.0,184.14,,-0.06,0.14,0.87,0.0,0.0,1.0,0.88,1.23,71.0,3010.0,2.7,3.37,,12.96,1.253,86.2,,27.8,5.0,2.0,0.0,2.0,2.0,0.0,0.0,0.0,0.0,2.26,,,0,0,0,0,0,0,0,0,0,0,0,0,0,0,0,0,0.0,,,,0.0,39.239571,-77.964607,2.85,28.0,3.0,0.9
316,2542609,1745077815890,,,,,,,,,,,,,,,,,,,,,,,,,,,,,,,,,,0,0,0,0,0,0,0,0,0,0,0,0,0,0,0,0,,,,,,,,,,,
317,2542629,1745077815908,0.0,184.14,,-0.05,0.15,0.9,-1.0,0.0,1.0,0.91,1.23,74.0,3007.0,2.8,3.37,,12.95,1.252,86.2,,27.8,5.0,,,,,,,,,,,,0,0,0,0,0,0,0,0,0,0,0,0,0,0,0,0,,,,,0.0,,,,,,
318,2542649,1745077815928,,,,,,,,,,,,,,,,,,,,,,,,,,,,,,,,,,0,0,0,0,0,0,0,0,0,0,0,0,0,0,0,0,,,,,,,,,,,
319,2542669,1745077815948,0.0,184.14,,-0.05,0.15,0.92,-1.0,0.0,1.0,0.94,1.23,76.0,3039.0,2.9,3.4,,12.96,1.252,86.2,,27.8,5.0,,,,,,,,,,,,0,0,0,0,0,0,0,0,0,0,0,0,0,0,0,0,,,,,0.0,,,,,,
320,2542689,1745077815968,,,,,,,,,,,,,,,,,,,,,,,2.0,0.0,2.0,2.0,0.0,0.0,0.0,0.0,2.26,,,0,0,0,0,0,0,0,0,0,0,0,0,0,0,0,0,0.0,,,,,39.239571,-77.964607,2.78,28.0,3.0,0.9
321,2542709,1745077815988,0.0,184.14,,-0.04,0.16,0.94,-1.0,0.0,1.0,0.95,1.23,77.0,3017.0,2.9,3.38,,13.01,1.251,86.2,,27.3,5.0,,,,,,,,,,,,0,0,0,0,0,0,0,0,0,0,0,0,0,0,0,0,,,,,0.0,,,,,,
322,2542729,1745077816002,,,,,,,,,,,,,,,,,,,,,,,,,,,,,,,,,,0,0,0,0,0,0,0,0,0,0,0,0,0,0,0,0,,,,,,,,,,,
323,2542749,1745077816022,0.0,184.14,,-0.03,0.17,0.92,-2.0,0.0,2.0,0.94,1.23,76.0,2915.0,2.9,3.43,,13.01,1.251,86.2,,27.3,5.0,,,,,,,,,,,,0,0,0,0,0,0,0,0,0,0,0,0,0,0,0,0,,,,,0.0,,,,,,
324,2542769,1745077816042,,,,,,,,,,,,,,,,,,,,,,,,,,,,,,,,,,0,0,0,0,0,0,0,0,0,0,0,0,0,0,0,0,,,,,,,,,,,
325,2542789,1745077816062,0.0,184.14,,-0.02,0.18,0.88,-1.0,0.0,2.0,0.9,1.23,73.0,2915.0,2.9,3.43,,13.05,1.25,86.2,,26.9,5.0,2.0,0.0,2.0,2.0,0.0,0.0,0.0,0.0,2.26,,,0,0,0,0,0,0,0,0,0,0,0,0,0,0,0,0,0.0,,,,0.0,39.239567,-77.964607,2.53,28.0,3.0,0.9
326,2542809,1745077816082,,,,,,,,,,,,,,,,,,,,,,,,,,,,,,,,,,0,0,0,0,0,0,0,0,0,0,0,0,0,0,0,0,,,,,,,,,,,
327,2542829,1745077816106,0.0,184.01,,-0.01,0.2,0.83,-1.0,0.0,1.0,0.85,1.23,69.0,2898.0,2.8,3.4,,13.11,1.25,86.2,,26.9,5.0,,,,,,,,,,,,0,0,0,0,0,0,0,0,0,0,0,0,0,0,0,0,,,,,0.0,,,,,,
328,2542849,1745077816126,,,,,,,,,,,,,,,,,,,,,,,,,,,,,,,,,,0,0,0,0,0,0,0,0,0,0,0,0,0,0,0,0,,,,,,,,,,,
329,2542869,1745077816146,0.0,184.01,,-0.01,0.19,0.78,-1.0,0.0,1.0,0.8,1.23,65.0,2957.0,2.7,3.47,,13.07,1.25,86.2,,26.9,5.0,,,,,,,,,,,,0,0,0,0,0,0,0,0,0,0,0,0,0,0,0,0,,,,,0.0,,,,,,
330,2542889,1745077816166,,,,,,,,,,,,,,,,,,,,,,,1.0,0.0,1.0,1.0,0.0,0.0,0.0,0.0,2.27,,,0,0,0,0,0,0,0,0,0,0,0,0,0,0,0,0,0.0,,,,,39.239567,-77.964607,2.39,28.0,3.0,0.9
331,2542909,1745077816186,0.0,184.14,,-0.03,0.17,0.76,0.0,0.0,1.0,0.78,1.23,63.0,2952.0,2.7,3.45,,13.05,1.25,86.2,,26.4,5.0,,,,,,,,,,,,0,0,0,0,0,0,0,0,0,0,0,0,0,0,0,0,,,,,0.0,,,,,,
332,2542929,1745077816210,,,,,,,,,,,,,,,,,,,,,,,,,,,,,,,,,,0,0,0,0,0,0,0,0,0,0,0,0,0,0,0,0,,,,,,,,,,,
333,2542949,1745077816230,0.0,184.14,,-0.06,0.13,0.79,0.0,0.0,0.0,0.8,1.23,65.0,2859.0,2.7,3.4,,13.05,1.25,86.2,,26.4,5.0,,,,,,,,,,,,0,0,0,0,0,0,0,0,0,0,0,0,0,0,0,0,,,,,0.0,,,,,,
334,2542969,1745077816250,,,,,,,,,,,,,,,,,,,,,,,,,,,,,,,,,,0,0,0,0,0,0,0,0,0,0,0,0,0,0,0,0,,,,,,,,,,,
335,2542989,1745077816270,0.0,184.01,,-0.08,0.07,0.87,0.0,0.0,0.0,0.88,1.23,71.0,2859.0,2.7,3.4,,13.09,1.25,86.2,,26.7,5.0,1.0,0.0,1.0,1.0,0.0,0.0,0.0,0.0,2.27,,,0,0,0,0,0,0,0,0,0,0,0,0,0,0,0,0,0.0,,,,0.0,39.239567,-77.964607,2.22,28.0,3.0,0.9
336,2543009,1745077816290,,,,,,,,,,,,,,,,,,,,,,,,,,,,,,,,,,0,0,0,0,0,0,0,0,0,0,0,0,0,0,0,0,,,,,,,,,,,
337,2543029,1745077816311,0.0,184.14,,-0.1,0.02,0.95,0.0,0.0,0.0,0.96,1.23,78.0,2891.0,2.7,3.41,,13.17,1.251,86.2,,26.7,5.0,,,,,,,,,,,,0,0,0,0,0,0,0,0,0,0,0,0,0,0,0,0,,,,,0.0,,,,,,
338,2543049,1745077816331,,,,,,,,,,,,,,,,,,,,,,,,,,,,,,,,,,0,0,0,0,0,0,0,0,0,0,0,0,0,0,0,0,,,,,,,,,,,
339,2543069,1745077816351,0.0,184.01,,-0.1,0.0,0.99,0.0,0.0,1.0,0.99,1.23,81.0,2939.0,2.7,3.42,,13.13,1.252,86.2,,26.7,5.0,,,,,,,,,,,,0,0,0,0,0,0,0,0,0,0,0,0,0,0,0,0,,,,,0.0,,,,,,
340,2543089,1745077816371,,,,,,,,,,,,,,,,,,,,,,,1.0,0.0,1.0,1.0,0.0,0.0,0.0,0.0,2.26,,,0,0,0,0,0,0,0,0,0,0,0,0,0,0,0,0,0.0,,,,,39.239567,-77.964607,2.05,28.0,3.0,0.9
341,2543109,1745077816391,0.0,184.01,,-0.1,0.03,1.0,-1.0,0.0,1.0,1.0,1.23,81.0,2947.0,2.8,3.43,,13.08,1.252,86.2,,26.1,5.0,,,,,,,,,,,,0,0,0,0,0,0,0,0,0,0,0,0,0,0,0,0,,,,,0.0,,,,,,
342,2543129,1745077816410,,,,,,,,,,,,,,,,,,,,,,,,,,,,,,,,,,0,0,0,0,0,0,0,0,0,0,0,0,0,0,0,0,,,,,,,,,,,
343,2543149,1745077816430,0.0,184.01,,-0.09,0.06,0.99,-1.0,0.0,1.0,1.0,1.23,81.0,3019.0,2.9,3.4,,13.08,1.252,86.2,,26.1,5.0,,,,,,,,,,,,0,0,0,0,0,0,0,0,0,0,0,0,0,0,0,0,,,,,0.0,,,,,,
344,2543169,1745077816450,,,,,,,,,,,,,,,,,,,,,,,,,,,,,,,,,,0,0,0,0,0,0,0,0,0,0,0,0,0,0,0,0,,,,,,,,,,,
345,2543189,1745077816470,0.0,184.14,,-0.08,0.09,0.98,-1.0,0.0,1.0,0.99,1.23,80.0,3019.0,2.9,3.4,,13.03,1.253,86.2,,27.5,5.0,1.0,0.0,1.0,1.0,0.0,0.0,0.0,0.0,2.26,,,0,0,0,0,0,0,0,0,0,0,0,0,0,0,0,0,0.0,,,,0.0,39.239567,-77.964607,1.92,28.0,3.0,0.9
346,2543209,1745077816490,,,,,,,,,,,,,,,,,,,,,,,,,,,,,,,,,,0,0,0,0,0,0,0,0,0,0,0,0,0,0,0,0,,,,,,,,,,,
347,2543229,1745077816510,0.0,184.14,,-0.08,0.11,0.99,-1.0,0.0,1.0,1.0,1.23,81.0,2995.0,2.9,3.41,,13.04,1.251,86.2,,27.5,5.0,,,,,,,,,,,,0,0,0,0,0,0,0,0,0,0,0,0,0,0,0,0,,,,,0.0,,,,,,
348,2543249,1745077816530,,,,,,,,,,,,,,,,,,,,,,,,,,,,,,,,,,0,0,0,0,0,0,0,0,0,0,0,0,0,0,0,0,,,,,,,,,,,
349,2543269,1745077816550,0.0,184.14,,-0.08,0.1,1.02,-2.0,0.0,2.0,1.03,1.23,83.0,3000.0,2.9,3.37,,13.0,1.25,86.2,,27.5,5.0,,,,,,,,,,,,0,0,0,0,0,0,0,0,0,0,0,0,0,0,0,0,,,,,0.0,,,,,,
350,2543289,1745077816570,,,,,,,,,,,,,,,,,,,,,,,1.0,0.0,1.0,1.0,0.0,0.0,0.0,0.0,2.26,,,0,0,0,0,0,0,0,0,0,0,0,0,0,0,0,0,0.0,,,,,39.239567,-77.964607,1.74,28.0,3.0,0.9
351,2543309,1745077816590,0.0,184.14,,-0.08,0.07,1.06,-2.0,0.0,2.0,1.06,1.23,86.0,3091.0,2.8,3.44,,13.0,1.25,86.2,,27.4,5.0,,,,,,,,,,,,0,0,0,0,0,0,0,0,0,0,0,0,0,0,0,0,,,,,0.0,,,,,,
352,2543329,1745077816610,,,,,,,,,,,,,,,,,,,,,,,,,,,,,,,,,,0,0,0,0,0,0,0,0,0,0,0,0,0,0,0,0,,,,,,,,,,,
353,2543349,1745077816630,0.0,184.14,,-0.09,0.02,1.11,-2.0,0.0,2.0,1.11,1.23,90.0,3054.0,2.7,3.36,,13.0,1.25,86.2,,27.4,5.0,,,,,,,,,,,,0,0,0,0,0,0,0,0,0,0,0,0,0,0,0,0,,,,,0.0,,,,,,
354,2543369,1745077816650,,,,,,,,,,,,,,,,,,,,,,,,,,,,,,,,,,0,0,0,0,0,0,0,0,0,0,0,0,0,0,0,0,,,,,,,,,,,
355,2543389,1745077816670,0.0,184.26,13.41,-0.11,-0.05,1.16,-1.0,0.0,1.0,1.17,1.23,95.0,3054.0,2.7,3.36,15.0,12.92,1.25,86.2,160.0,28.2,5.0,1.0,0.0,1.0,1.0,0.0,0.0,0.0,0.0,2.27,0.0,0.0,0,0,0,0,0,0,0,0,0,0,0,0,0,0,0,0,0.0,0.0,0.0,0.0,0.0,39.239567,-77.964607,1.65,28.0,3.0,0.9
356,2543409,1745077816690,,,,,,,,,,,,,,,,,,,,,,,,,,,,,,,,,,0,0,0,0,0,0,0,0,0,0,0,0,0,0,0,0,,,,,,,,,,,
357,2543429,1745077816711,0.0,184.26,,-0.13,-0.11,1.21,-1.0,0.0,1.0,1.22,1.23,99.0,3045.0,2.7,3.41,,12.99,1.25,86.2,,28.2,5.0,,,,,,,,,,,,0,0,0,0,0,0,0,0,0,0,0,0,0,0,0,0,,,,,0.0,,,,,,
358,2543449,1745077816731,,,,,,,,,,,,,,,,,,,,,,,,,,,,,,,,,,0,0,0,0,0,0,0,0,0,0,0,0,0,0,0,0,,,,,,,,,,,
359,2543469,1745077816751,0.0,184.26,,-0.15,-0.14,1.21,-1.0,0.0,0.0,1.23,1.23,99.0,3101.0,2.7,3.4,,12.97,1.25,86.2,,28.2,5.0,,,,,,,,,,,,0,0,0,0,0,0,0,0,0,0,0,0,0,0,0,0,,,,,0.0,,,,,,
360,2543489,1745077816771,,,,,,,,,,,,,,,,,,,,,,,1.0,0.0,1.0,1.0,0.0,0.0,0.0,0.0,2.26,,,0,0,0,0,0,0,0,0,0,0,0,0,0,0,0,0,0.0,,,,,39.239567,-77.964607,1.36,28.0,3.0,0.9
361,2543509,1745077816791,0.0,184.26,,-0.16,-0.15,1.15,0.0,0.0,0.0,1.17,1.23,95.0,3084.0,2.7,3.42,,12.95,1.251,86.2,,27.6,5.0,,,,,,,,,,,,0,0,0,0,0,0,0,0,0,0,0,0,0,0,0,0,,,,,0.0,,,,,,
362,2543529,1745077816809,,,,,,,,,,,,,,,,,,,,,,,,,,,,,,,,,,0,0,0,0,0,0,0,0,0,0,0,0,0,0,0,0,,,,,,,,,,,
363,2543549,1745077816829,0.0,184.26,,-0.16,-0.13,1.06,0.0,0.0,0.0,1.08,1.23,88.0,3038.0,2.7,3.4,,12.95,1.251,86.2,,27.6,5.0,,,,,,,,,,,,0,0,0,0,0,0,0,0,0,0,0,0,0,0,0,0,,,,,0.0,,,,,,
364,2543569,1745077816849,,,,,,,,,,,,,,,,,,,,,,,,,,,,,,,,,,0,0,0,0,0,0,0,0,0,0,0,0,0,0,0,0,,,,,,,,,,,
365,2543589,1745077816869,0.0,184.14,,-0.14,-0.08,0.96,1.0,0.0,0.0,0.97,1.23,79.0,3038.0,2.7,3.4,,13.0,1.253,86.2,,28.1,5.0,1.0,0.0,1.0,1.0,0.0,0.0,0.0,0.0,2.26,,,0,0,0,0,0,0,0,0,0,0,0,0,0,0,0,0,0.0,,,,0.0,39.239567,-77.964607,1.31,28.0,3.0,0.9
366,2543609,1745077816889,,,,,,,,,,,,,,,,,,,,,,,,,,,,,,,,,,0,0,0,0,0,0,0,0,0,0,0,0,0,0,0,0,,,,,,,,,,,
367,2543629,1745077816911,0.0,184.14,,-0.12,-0.0,0.9,0.0,0.0,0.0,0.9,1.23,73.0,3023.0,2.9,3.4,,13.05,1.253,86.2,,28.1,5.0,,,,,,,,,,,,0,0,0,0,0,0,0,0,0,0,0,0,0,0,0,0,,,,,0.0,,,,,,
368,2543649,1745077816931,,,,,,,,,,,,,,,,,,,,,,,,,,,,,,,,,,0,0,0,0,0,0,0,0,0,0,0,0,0,0,0,0,,,,,,,,,,,
369,2543669,1745077816951,0.0,184.26,,-0.09,0.07,0.91,0.0,0.0,0.0,0.92,1.23,75.0,3131.0,3.0,3.4,,12.96,1.252,86.2,,28.1,5.0,,,,,,,,,,,,0,0,0,0,0,0,0,0,0,0,0,0,0,0,0,0,,,,,0.0,,,,,,
370,2543689,1745077816971,,,,,,,,,,,,,,,,,,,,,,,1.0,0.0,1.0,1.0,0.0,0.0,0.0,0.0,2.26,,,0,0,0,0,0,0,0,0,0,0,0,0,0,0,0,0,0.0,,,,,39.239567,-77.964607,1.15,28.0,3.0,0.9
371,2543709,1745077816991,0.0,184.14,,-0.08,0.03,0.97,-1.0,0.0,1.0,0.97,0.97,100.0,3096.0,3.0,3.43,,12.95,1.251,86.2,,28.3,5.0,,,,,,,,,,,,0,0,0,0,0,0,0,0,0,0,0,0,0,0,0,0,,,,,0.0,,,,,,
372,2543729,1745077817003,,,,,,,,,,,,,,,,,,,,,,,,,,,,,,,,,,0,0,0,0,0,0,0,0,0,0,0,0,0,0,0,0,,,,,,,,,,,
373,2543749,1745077817023,0.0,184.14,,-0.09,-0.04,1.03,-1.0,0.0,1.0,1.04,1.04,100.0,3046.0,3.0,3.43,,12.95,1.251,86.2,,28.3,5.0,,,,,,,,,,,,0,0,0,0,0,0,0,0,0,0,0,0,0,0,0,0,,,,,0.0,,,,,,
374,2543769,1745077817043,,,,,,,,,,,,,,,,,,,,,,,,,,,,,,,,,,0,0,0,0,0,0,0,0,0,0,0,0,0,0,0,0,,,,,,,,,,,
375,2543789,1745077817063,0.0,184.14,,-0.11,-0.11,1.08,0.0,0.0,0.0,1.09,1.09,100.0,3046.0,3.0,3.43,,12.97,1.25,86.2,,28.3,5.0,1.0,0.0,1.0,1.0,0.0,0.0,0.0,0.0,2.26,,,0,0,0,0,0,0,0,0,0,0,0,0,0,0,0,0,0.0,,,,0.0,39.239567,-77.964607,0.94,28.0,3.0,0.9
376,2543809,1745077817083,,,,,,,,,,,,,,,,,,,,,,,,,,,,,,,,,,0,0,0,0,0,0,0,0,0,0,0,0,0,0,0,0,,,,,,,,,,,
377,2543829,1745077817111,0.0,184.14,,-0.12,-0.14,1.04,0.0,0.0,0.0,1.05,1.09,97.0,3142.0,2.9,3.45,,12.96,1.25,86.2,,28.3,5.0,,,,,,,,,,,,0,0,0,0,0,0,0,0,0,0,0,0,0,0,0,0,,,,,0.0,,,,,,
378,2543849,1745077817131,,,,,,,,,,,,,,,,,,,,,,,,,,,,,,,,,,0,0,0,0,0,0,0,0,0,0,0,0,0,0,0,0,,,,,,,,,,,
379,2543869,1745077817151,0.0,184.26,,-0.12,-0.08,0.95,0.0,0.0,0.0,0.96,1.09,88.0,3142.0,2.8,3.42,,12.89,1.25,86.2,,28.3,5.0,,,,,,,,,,,,0,0,0,0,0,0,0,0,0,0,0,0,0,0,0,0,,,,,0.0,,,,,,
380,2543889,1745077817171,,,,,,,,,,,,,,,,,,,,,,,1.0,0.0,1.0,1.0,0.0,0.0,0.0,0.0,2.27,,,0,0,0,0,0,0,0,0,0,0,0,0,0,0,0,0,0.0,,,,,39.239567,-77.964607,0.88,28.0,3.0,0.9
381,2543909,1745077817191,0.0,184.14,,-0.09,0.01,0.91,0.0,0.0,0.0,0.92,1.09,84.0,3049.0,2.8,3.41,,12.97,1.25,86.2,,28.7,5.0,,,,,,,,,,,,0,0,0,0,0,0,0,0,0,0,0,0,0,0,0,0,,,,,0.0,,,,,,
