,Interval,Utc,FrontBP,SteerAng,Battery,AccelX,AccelY,AccelZ,Yaw,Pitch,Roll,Gsum,GsumMax,GsumPct,RPM,TPS,InjectorPW,Baro,MAP,Lambda,IAT,EngineTemp,EOP,EOT,WSFR,WSFL,WSRR,WSRL,TCSet,TCSlip,TCComp,TCCut,Analog8,OilTemp,AA_On,ThermLF1,ThermLF2,ThermRR1,ThermRR2,ThermLF3,ThermLF4,ThermLF5,ThermLF6,ThermLF7,ThermLF8,ThermRR3,ThermRR4,ThermRR5,ThermRR6,ThermRR7,ThermRR8,Gear,AA_On1,AA_LowDrag,Fuel_Mix,AA_Packages,Latitude,Longitude,Speed,GPSSats,GPSQual,GPSDOP
0,2958849,1745078232131,,,,,,,,,,,,,,,,,,,,,,,,,,,,,,,,,,0,0,0,0,0,0,0,0,0,0,0,0,0,0,0,0,,,,,,,,,,,
1,2958689,1745078231973,,,,,,,,,,,,,,,,,,,,,,,0.0,0.0,0.0,0.0,0.0,0.0,0.0,0.0,2.26,,,0,0,0,0,0,0,0,0,0,0,0,0,0,0,0,0,0.0,,,,,39.239613,-77.964584,0.04,29.0,3.0,0.8
2,2958709,1745078231993,0.0,186.65,,-0.24,0.18,1.08,-2.0,0.0,0.0,1.12,1.12,100.0,11783.0,17.0,2.24,,7.46,1.249,88.0,,73.8,5.0,,,,,,,,,,,,0,0,0,0,0,0,0,0,0,0,0,0,0,0,0,0,,,,,0.0,,,,,,
3,2958729,1745078232005,,,,,,,,,,,,,,,,,,,,,,,,,,,,,,,,,,0,0,0,0,0,0,0,0,0,0,0,0,0,0,0,0,,,,,,,,,,,
4,2958749,1745078232025,0.0,186.65,,-0.21,0.16,1.1,-1.0,0.0,0.0,1.13,1.13,100.0,11562.0,19.0,2.41,,7.86,1.251,88.0,,73.8,5.0,,,,,,,,,,,,0,0,0,0,0,0,0,0,0,0,0,0,0,0,0,0,,,,,0.0,,,,,,
5,2958769,1745078232045,,,,,,,,,,,,,,,,,,,,,,,,,,,,,,,,,,0,0,0,0,0,0,0,0,0,0,0,0,0,0,0,0,,,,,,,,,,,
6,2958789,1745078232065,0.0,186.65,,-0.19,0.12,1.13,-1.0,0.0,0.0,1.15,1.15,100.0,11424.0,21.7,2.7,,8.17,1.251,88.0,,71.8,5.0,0.0,0.0,0.0,0.0,0.0,0.0,0.0,0.0,2.26,,,0,0,0,0,0,0,0,0,0,0,0,0,0,0,0,0,0.0,,,,0.0,39.239613,-77.964584,0.07,29.0,3.0,0.8
7,2958809,1745078232085,,,,,,,,,,,,,,,,,,,,,,,,,,,,,,,,,,0,0,0,0,0,0,0,0,0,0,0,0,0,0,0,0,,,,,,,,,,,
8,2958829,1745078232111,0.0,186.78,,-0.19,-0.02,1.05,0.0,0.0,0.0,1.07,1.15,93.0,11544.0,29.0,2.66,,8.17,1.251,88.0,,71.8,5.0,,,,,,,,,,,,0,0,0,0,0,0,0,0,0,0,0,0,0,0,0,0,,,,,0.0,,,,,,
9,2958849,1745078232131,,,,,,,,,,,,,,,,,,,,,,,,,,,,,,,,,,0,0,0,0,0,0,0,0,0,0,0,0,0,0,0,0,,,,,,,,,,,
10,2958869,1745078232151,0.0,186.65,,-0.18,-0.07,1.08,0.0,0.0,0.0,1.09,1.15,95.0,11544.0,29.0,2.66,,9.26,1.251,88.0,,70.9,5.0,,,,,,,,,,,,0,0,0,0,0,0,0,0,0,0,0,0,0,0,0,0,,,,,0.0,,,,,,
11,2958889,1745078232171,,,,,,,,,,,,,,,,,,,,,,,0.0,0.0,0.0,0.0,0.0,0.0,0.0,0.0,2.26,,,0,0,0,0,0,0,0,0,0,0,0,0,0,0,0,0,0.0,,,,,39.239613,-77.964584,0.0,29.0,3.0,0.8
12,2958909,1745078232191,0.0,186.65,,-0.16,0.01,1.01,0.0,0.0,-1.0,1.03,1.15,89.0,11116.0,31.6,2.7,,9.96,1.193,88.0,,70.9,5.0,,,,,,,,,,,,0,0,0,0,0,0,0,0,0,0,0,0,0,0,0,0,,,,,0.0,,,,,,
13,2958929,1745078232212,,,,,,,,,,,,,,,,,,,,,,,,,,,,,,,,,,0,0,0,0,0,0,0,0,0,0,0,0,0,0,0,0,,,,,,,,,,,
14,2958949,1745078232232,0.0,186.9,,-0.13,-0.04,1.01,-1.0,0.0,0.0,1.02,1.15,89.0,10683.0,20.1,3.3,,9.57,1.249,88.0,,70.9,5.0,,,,,,,,,,,,0,0,0,0,0,0,0,0,0,0,0,0,0,0,0,0,,,,,0.0,,,,,,
15,2958969,1745078232252,,,,,,,,,,,,,,,,,,,,,,,,,,,,,,,,,,0,0,0,0,0,0,0,0,0,0,0,0,0,0,0,0,,,,,,,,,,,
16,2958989,1745078232272,0.0,186.78,,-0.14,-0.06,0.96,-1.0,0.0,0.0,0.97,1.15,84.0,11133.0,7.1,2.19,,8.11,1.248,88.0,,70.6,5.0,0.0,0.0,0.0,0.0,0.0,0.0,0.0,0.0,2.26,,,0,0,0,0,0,0,0,0,0,0,0,0,0,0,0,0,0.0,,,,0.0,39.239613,-77.964584,0.0,29.0,3.0,0.8
17,2959009,1745078232292,,,,,,,,,,,,,,,,,,,,,,,,,,,,,,,,,,0,0,0,0,0,0,0,0,0,0,0,0,0,0,0,0,,,,,,,,,,,
18,2959029,1745078232314,0.0,186.78,,-0.15,0.04,1.01,-1.0,0.0,0.0,1.02,1.15,89.0,11144.0,2.9,1.54,,8.11,1.248,88.0,,70.6,5.0,,,,,,,,,,,,0,0,0,0,0,0,0,0,0,0,0,0,0,0,0,0,,,,,0.0,,,,,,
19,2959049,1745078232334,,,,,,,,,,,,,,,,,,,,,,,,,,,,,,,,,,0,0,0,0,0,0,0,0,0,0,0,0,0,0,0,0,,,,,,,,,,,
20,2959069,1745078232354,0.0,186.78,,-0.14,-0.05,1.01,0.0,0.0,0.0,1.02,1.15,89.0,11144.0,2.9,1.54,,6.79,1.237,88.0,,69.5,5.0,,,,,,,,,,,,0,0,0,0,0,0,0,0,0,0,0,0,0,0,0,0,,,,,0.0,,,,,,
21,2959089,1745078232374,,,,,,,,,,,,,,,,,,,,,,,0.0,0.0,0.0,0.0,0.0,0.0,0.0,0.0,2.26,,,0,0,0,0,0,0,0,0,0,0,0,0,0,0,0,0,0.0,,,,,39.239613,-77.964584,0.0,29.0,3.0,0.8
22,2959109,1745078232394,0.0,186.65,,-0.14,-0.01,1.01,0.0,0.0,0.0,1.02,1.15,89.0,10484.0,2.3,1.4,,5.82,1.127,88.0,,69.5,5.0,,,,,,,,,,,,0,0,0,0,0,0,0,0,0,0,0,0,0,0,0,0,,,,,0.0,,,,,,
23,2959129,1745078232414,,,,,,,,,,,,,,,,,,,,,,,,,,,,,,,,,,0,0,0,0,0,0,0,0,0,0,0,0,0,0,0,0,,,,,,,,,,,
24,2959149,1745078232434,0.0,186.65,,-0.13,0.03,0.94,1.0,0.0,0.0,0.95,1.15,82.0,9786.0,11.1,1.8,,6.28,1.246,88.0,,69.5,5.0,,,,,,,,,,,,0,0,0,0,0,0,0,0,0,0,0,0,0,0,0,0,,,,,0.0,,,,,,
25,2959169,1745078232454,,,,,,,,,,,,,,,,,,,,,,,,,,,,,,,,,,0,0,0,0,0,0,0,0,0,0,0,0,0,0,0,0,,,,,,,,,,,
26,2959189,1745078232474,0.0,186.53,,-0.1,-0.11,1.0,1.0,0.0,0.0,1.01,1.15,88.0,9316.0,20.0,2.39,,7.55,1.25,88.0,,67.3,5.0,0.0,0.0,0.0,0.0,0.0,0.0,0.0,0.0,2.26,,,0,0,0,0,0,0,0,0,0,0,0,0,0,0,0,0,0.0,,,,0.0,39.239613,-77.964584,0.09,29.0,3.0,0.8
27,2959209,1745078232494,,,,,,,,,,,,,,,,,,,,,,,,,,,,,,,,,,0,0,0,0,0,0,0,0,0,0,0,0,0,0,0,0,,,,,,,,,,,
28,2959229,1745078232514,0.0,186.65,,-0.07,0.06,0.95,2.0,0.0,0.0,0.96,1.15,84.0,9295.0,23.2,2.74,,7.55,1.25,88.0,,67.3,5.0,,,,,,,,,,,,0,0,0,0,0,0,0,0,0,0,0,0,0,0,0,0,,,,,0.0,,,,,,
29,2959249,1745078232534,,,,,,,,,,,,,,,,,,,,,,,,,,,,,,,,,,0,0,0,0,0,0,0,0,0,0,0,0,0,0,0,0,,,,,,,,,,,
30,2959269,1745078232554,0.0,186.53,,-0.09,-0.06,1.02,1.0,0.0,0.0,1.02,1.15,89.0,9295.0,23.2,2.74,,8.77,1.252,88.0,,67.0,5.0,,,,,,,,,,,,0,0,0,0,0,0,0,0,0,0,0,0,0,0,0,0,,,,,0.0,,,,,,
31,2959289,1745078232574,,,,,,,,,,,,,,,,,,,,,,,0.0,0.0,0.0,0.0,0.0,0.0,0.0,0.0,2.26,,,0,0,0,0,0,0,0,0,0,0,0,0,0,0,0,0,0.0,,,,,39.239613,-77.964584,0.04,29.0,3.0,0.8
32,2959309,1745078232594,0.0,186.53,,-0.1,0.07,0.99,1.0,0.0,0.0,1.0,1.15,87.0,9416.0,24.2,3.03,,9.42,1.252,88.0,,67.0,5.0,,,,,,,,,,,,0,0,0,0,0,0,0,0,0,0,0,0,0,0,0,0,,,,,0.0,,,,,,
33,2959329,1745078232614,,,,,,,,,,,,,,,,,,,,,,,,,,,,,,,,,,0,0,0,0,0,0,0,0,0,0,0,0,0,0,0,0,,,,,,,,,,,
34,2959349,1745078232634,0.0,186.53,,-0.09,-0.08,0.96,2.0,0.0,0.0,0.97,1.15,84.0,9519.0,21.3,3.23,,9.29,1.252,88.0,,67.0,5.0,,,,,,,,,,,,0,0,0,0,0,0,0,0,0,0,0,0,0,0,0,0,,,,,0.0,,,,,,
35,2959369,1745078232654,,,,,,,,,,,,,,,,,,,,,,,,,,,,,,,,,,0,0,0,0,0,0,0,0,0,0,0,0,0,0,0,0,,,,,,,,,,,
36,2959389,1745078232674,0.0,186.4,13.14,-0.09,0.05,0.85,0.0,0.0,0.0,0.86,1.15,75.0,9842.0,17.6,3.09,15.0,8.89,1.251,88.0,164.0,67.4,5.0,0.0,0.0,0.0,0.0,0.0,0.0,0.0,0.0,2.26,0.0,0.0,0,0,0,0,0,0,0,0,0,0,0,0,0,0,0,0,0.0,0.0,0.0,0.0,0.0,39.239613,-77.964584,0.05,29.0,3.0,0.8
37,2959409,1745078232694,,,,,,,,,,,,,,,,,,,,,,,,,,,,,,,,,,0,0,0,0,0,0,0,0,0,0,0,0,0,0,0,0,,,,,,,,,,,
38,2959429,1745078232714,0.0,186.4,,-0.1,-0.17,0.88,0.0,0.0,0.0,0.9,1.15,78.0,10222.0,17.2,3.0,,8.89,1.251,88.0,,67.4,5.0,,,,,,,,,,,,0,0,0,0,0,0,0,0,0,0,0,0,0,0,0,0,,,,,0.0,,,,,,
39,2959449,1745078232734,,,,,,,,,,,,,,,,,,,,,,,,,,,,,,,,,,0,0,0,0,0,0,0,0,0,0,0,0,0,0,0,0,,,,,,,,,,,
40,2959469,1745078232754,0.0,186.27,,-0.12,-0.14,1.01,1.0,0.0,0.0,1.02,1.15,89.0,10222.0,17.2,3.0,,8.62,1.248,88.0,,68.9,5.0,,,,,,,,,,,,0,0,0,0,0,0,0,0,0,0,0,0,0,0,0,0,,,,,0.0,,,,,,
41,2959489,1745078232774,,,,,,,,,,,,,,,,,,,,,,,0.0,0.0,0.0,0.0,0.0,0.0,0.0,0.0,2.26,,,0,0,0,0,0,0,0,0,0,0,0,0,0,0,0,0,0.0,,,,,39.239613,-77.964584,0.08,29.0,3.0,0.8
42,2959509,1745078232794,0.0,186.27,,-0.1,-0.17,0.99,1.0,0.0,0.0,1.01,1.15,88.0,10615.0,16.4,2.83,,8.43,1.184,88.0,,68.9,5.0,,,,,,,,,,,,0,0,0,0,0,0,0,0,0,0,0,0,0,0,0,0,,,,,0.0,,,,,,
43,2959529,1745078232812,,,,,,,,,,,,,,,,,,,,,,,,,,,,,,,,,,0,0,0,0,0,0,0,0,0,0,0,0,0,0,0,0,,,,,,,,,,,
44,2959549,1745078232832,0.0,186.27,,-0.1,-0.18,1.01,1.0,0.0,0.0,1.03,1.15,90.0,11048.0,14.1,2.53,,7.79,1.12,88.0,,68.9,5.0,,,,,,,,,,,,0,0,0,0,0,0,0,0,0,0,0,0,0,0,0,0,,,,,0.0,,,,,,
45,2959569,1745078232852,,,,,,,,,,,,,,,,,,,,,,,,,,,,,,,,,,0,0,0,0,0,0,0,0,0,0,0,0,0,0,0,0,,,,,,,,,,,
46,2959589,1745078232872,0.0,186.15,,-0.11,-0.07,1.04,1.0,0.0,1.0,1.05,1.15,91.0,11169.0,13.1,2.21,,7.7,1.057,88.0,,67.0,5.0,0.0,0.0,0.0,0.0,0.0,0.0,0.0,0.0,2.26,,,0,0,0,0,0,0,0,0,0,0,0,0,0,0,0,0,0.0,,,,0.0,39.239613,-77.964584,0.06,29.0,3.0,0.8
47,2959609,1745078232892,,,,,,,,,,,,,,,,,,,,,,,,,,,,,,,,,,0,0,0,0,0,0,0,0,0,0,0,0,0,0,0,0,,,,,,,,,,,
48,2959629,1745078232912,0.0,186.27,,-0.09,-0.17,1.11,1.0,0.0,1.0,1.13,1.15,98.0,11127.0,12.6,2.09,,7.7,1.057,88.0,,67.0,5.0,,,,,,,,,,,,0,0,0,0,0,0,0,0,0,0,0,0,0,0,0,0,,,,,0.0,,,,,,
49,2959649,1745078232932,,,,,,,,,,,,,,,,,,,,,,,,,,,,,,,,,,0,0,0,0,0,0,0,0,0,0,0,0,0,0,0,0,,,,,,,,,,,
50,2959669,1745078232952,0.0,186.15,,-0.1,-0.11,1.03,1.0,0.0,1.0,1.04,1.15,91.0,11127.0,12.6,2.09,,7.26,1.073,88.0,,67.4,5.0,,,,,,,,,,,,0,0,0,0,0,0,0,0,0,0,0,0,0,0,0,0,,,,,0.0,,,,,,
51,2959689,1745078232972,,,,,,,,,,,,,,,,,,,,,,,0.0,0.0,0.0,0.0,0.0,0.0,0.0,0.0,2.26,,,0,0,0,0,0,0,0,0,0,0,0,0,0,0,0,0,0.0,,,,,39.239613,-77.964584,0.04,29.0,3.0,0.8
52,2959709,1745078232992,0.0,186.15,,-0.14,-0.15,1.11,1.0,0.0,1.0,1.13,1.15,99.0,10919.0,12.5,2.0,,6.94,1.118,88.0,,67.4,5.0,,,,,,,,,,,,0,0,0,0,0,0,0,0,0,0,0,0,0,0,0,0,,,,,0.0,,,,,,
53,2959729,1745078233004,,,,,,,,,,,,,,,,,,,,,,,,,,,,,,,,,,0,0,0,0,0,0,0,0,0,0,0,0,0,0,0,0,,,,,,,,,,,
54,2959749,1745078233024,0.0,186.02,,-0.14,-0.3,1.07,1.0,0.0,1.0,1.12,1.15,98.0,10666.0,12.3,2.02,,7.06,1.223,88.0,,67.4,5.0,,,,,,,,,,,,0,0,0,0,0,0,0,0,0,0,0,0,0,0,0,0,,,,,0.0,,,,,,
55,2959769,1745078233044,,,,,,,,,,,,,,,,,,,,,,,,,,,,,,,,,,0,0,0,0,0,0,0,0,0,0,0,0,0,0,0,0,,,,,,,,,,,
56,2959789,1745078233064,0.0,186.02,,-0.18,-0.28,1.11,2.0,0.0,1.0,1.16,1.16,100.0,10414.0,11.4,1.9,,6.87,1.252,88.0,,68.5,5.0,0.0,0.0,0.0,0.0,0.0,0.0,0.0,0.0,2.25,,,0,0,0,0,0,0,0,0,0,0,0,0,0,0,0,0,0.0,,,,0.0,39.239613,-77.964584,0.04,29.0,3.0,0.8
57,2959809,1745078233084,,,,,,,,,,,,,,,,,,,,,,,,,,,,,,,,,,0,0,0,0,0,0,0,0,0,0,0,0,0,0,0,0,,,,,,,,,,,
58,2959829,1745078233111,0.0,186.02,,-0.16,-0.19,1.11,1.0,0.0,0.0,1.14,1.16,98.0,10037.0,11.0,1.88,,6.87,1.252,88.0,,68.5,5.0,,,,,,,,,,,,0,0,0,0,0,0,0,0,0,0,0,0,0,0,0,0,,,,,0.0,,,,,,
59,2959849,1745078233131,,,,,,,,,,,,,,,,,,,,,,,,,,,,,,,,,,0,0,0,0,0,0,0,0,0,0,0,0,0,0,0,0,,,,,,,,,,,
60,2959869,1745078233151,0.0,186.02,,-0.16,-0.15,1.14,0.0,0.0,1.0,1.16,1.16,100.0,10037.0,11.0,1.88,,6.7,1.252,88.0,,67.9,5.0,,,,,,,,,,,,0,0,0,0,0,0,0,0,0,0,0,0,0,0,0,0,,,,,0.0,,,,,,
61,2959889,1745078233171,,,,,,,,,,,,,,,,,,,,,,,0.0,0.0,0.0,0.0,0.0,0.0,0.0,0.0,2.26,,,0,0,0,0,0,0,0,0,0,0,0,0,0,0,0,0,0.0,,,,,39.239613,-77.964584,0.05,29.0,3.0,0.8
62,2959909,1745078233191,0.0,186.02,,-0.1,-0.01,1.09,1.0,0.0,0.0,1.1,1.16,94.0,9702.0,10.8,1.93,,6.7,1.251,88.0,,67.9,5.0,,,,,,,,,,,,0,0,0,0,0,0,0,0,0,0,0,0,0,0,0,0,,,,,0.0,,,,,,
63,2959929,1745078233213,,,,,,,,,,,,,,,,,,,,,,,,,,,,,,,,,,0,0,0,0,0,0,0,0,0,0,0,0,0,0,0,0,,,,,,,,,,,
64,2959949,1745078233233,0.0,186.02,,-0.11,-0.06,1.08,-1.0,0.0,1.0,1.08,1.16,93.0,9253.0,10.8,1.98,,6.75,1.25,88.0,,67.9,5.0,,,,,,,,,,,,0,0,0,0,0,0,0,0,0,0,0,0,0,0,0,0,,,,,0.0,,,,,,
65,2959969,1745078233253,,,,,,,,,,,,,,,,,,,,,,,,,,,,,,,,,,0,0,0,0,0,0,0,0,0,0,0,0,0,0,0,0,,,,,,,,,,,
66,2959989,1745078233273,0.0,186.02,,-0.12,0.01,1.04,-1.0,0.0,1.0,1.05,1.16,90.0,8882.0,11.6,2.11,,6.94,1.25,88.0,,66.7,5.0,0.0,0.0,0.0,0.0,0.0,0.0,0.0,0.0,2.26,,,0,0,0,0,0,0,0,0,0,0,0,0,0,0,0,0,0.0,,,,0.0,39.239613,-77.964584,0.05,29.0,3.0,0.8
67,2960009,1745078233293,,,,,,,,,,,,,,,,,,,,,,,,,,,,,,,,,,0,0,0,0,0,0,0,0,0,0,0,0,0,0,0,0,,,,,,,,,,,
68,2960029,1745078233313,0.0,185.9,,-0.1,-0.11,1.04,-2.0,0.0,1.0,1.05,1.16,90.0,8307.0,13.1,2.3,,6.94,1.25,88.0,,66.7,5.0,,,,,,,,,,,,0,0,0,0,0,0,0,0,0,0,0,0,0,0,0,0,,,,,0.0,,,,,,
69,2960049,1745078233333,,,,,,,,,,,,,,,,,,,,,,,,,,,,,,,,,,0,0,0,0,0,0,0,0,0,0,0,0,0,0,0,0,,,,,,,,,,,
70,2960069,1745078233353,0.0,185.9,,-0.12,-0.08,1.07,-1.0,0.0,1.0,1.08,1.16,93.0,8307.0,13.1,2.3,,7.45,1.25,88.0,,62.9,5.0,,,,,,,,,,,,0,0,0,0,0,0,0,0,0,0,0,0,0,0,0,0,,,,,0.0,,,,,,
71,2960089,1745078233373,,,,,,,,,,,,,,,,,,,,,,,0.0,0.0,0.0,0.0,0.0,0.0,0.0,0.0,2.26,,,0,0,0,0,0,0,0,0,0,0,0,0,0,0,0,0,0.0,,,,,39.239613,-77.964584,0.07,29.0,3.0,0.8
72,2960109,1745078233393,0.0,185.77,,-0.11,-0.17,1.06,-3.0,0.0,1.0,1.08,1.16,93.0,7868.0,15.9,2.62,,8.27,1.25,88.0,,62.9,5.0,,,,,,,,,,,,0,0,0,0,0,0,0,0,0,0,0,0,0,0,0,0,,,,,0.0,,,,,,
73,2960129,1745078233413,,,,,,,,,,,,,,,,,,,,,,,,,,,,,,,,,,0,0,0,0,0,0,0,0,0,0,0,0,0,0,0,0,,,,,,,,,,,
74,2960149,1745078233433,0.0,185.77,,-0.11,-0.28,1.09,-2.0,0.0,1.0,1.13,1.16,97.0,7754.0,19.2,3.39,,9.29,1.249,88.0,,62.9,5.0,,,,,,,,,,,,0,0,0,0,0,0,0,0,0,0,0,0,0,0,0,0,,,,,0.0,,,,,,
75,2960169,1745078233453,,,,,,,,,,,,,,,,,,,,,,,,,,,,,,,,,,0,0,0,0,0,0,0,0,0,0,0,0,0,0,0,0,,,,,,,,,,,
76,2960189,1745078233473,0.0,185.77,,-0.1,-0.1,1.01,-2.0,0.0,1.0,1.02,1.16,88.0,7905.0,24.6,3.59,,10.4,1.25,88.0,,62.9,5.0,0.0,0.0,0.0,0.0,0.0,0.0,0.0,0.0,2.26,,,0,0,0,0,0,0,0,0,0,0,0,0,0,0,0,0,0.0,,,,0.0,39.239613,-77.964584,0.0,29.0,3.0,0.8
77,2960209,1745078233493,,,,,,,,,,,,,,,,,,,,,,,,,,,,,,,,,,0,0,0,0,0,0,0,0,0,0,0,0,0,0,0,0,,,,,,,,,,,
78,2960229,1745078233513,0.0,185.77,,-0.1,-0.13,1.0,-1.0,0.0,1.0,1.02,1.16,88.0,8345.0,28.7,4.43,,10.4,1.25,88.0,,62.9,5.0,,,,,,,,,,,,0,0,0,0,0,0,0,0,0,0,0,0,0,0,0,0,,,,,0.0,,,,,,
79,2960249,1745078233533,,,,,,,,,,,,,,,,,,,,,,,,,,,,,,,,,,0,0,0,0,0,0,0,0,0,0,0,0,0,0,0,0,,,,,,,,,,,
80,2960269,1745078233553,0.0,185.77,,-0.09,-0.0,0.98,-2.0,0.0,1.0,0.98,1.16,85.0,8345.0,28.7,4.43,,11.28,1.251,88.0,,65.4,5.0,,,,,,,,,,,,0,0,0,0,0,0,0,0,0,0,0,0,0,0,0,0,,,,,0.0,,,,,,
81,2960289,1745078233573,,,,,,,,,,,,,,,,,,,,,,,0.0,0.0,0.0,0.0,0.0,0.0,0.0,0.0,2.26,,,0,0,0,0,0,0,0,0,0,0,0,0,0,0,0,0,0.0,,,,,39.239613,-77.964584,0.08,29.0,3.0,0.8
82,2960309,1745078233593,0.0,185.52,,-0.11,-0.15,0.93,-1.0,0.0,0.0,0.95,1.16,81.0,9443.0,29.4,4.62,,11.09,1.159,88.0,,65.4,5.0,,,,,,,,,,,,0,0,0,0,0,0,0,0,0,0,0,0,0,0,0,0,,,,,0.0,,,,,,
83,2960329,1745078233615,,,,,,,,,,,,,,,,,,,,,,,,,,,,,,,,,,0,0,0,0,0,0,0,0,0,0,0,0,0,0,0,0,,,,,,,,,,,
84,2960349,1745078233635,0.0,185.52,,-0.05,-0.08,0.99,-1.0,0.0,1.0,0.99,1.16,85.0,10598.0,29.2,4.21,,10.57,1.049,88.0,,65.4,5.0,,,,,,,,,,,,0,0,0,0,0,0,0,0,0,0,0,0,0,0,0,0,,,,,0.0,,,,,,
85,2960369,1745078233655,,,,,,,,,,,,,,,,,,,,,,,,,,,,,,,,,,0,0,0,0,0,0,0,0,0,0,0,0,0,0,0,0,,,,,,,,,,,
86,2960389,1745078233675,0.0,185.39,13.04,-0.05,-0.12,0.97,0.0,0.0,1.0,0.98,1.16,84.0,11651.0,18.0,3.13,15.0,9.66,0.972,88.0,164.0,65.8,5.0,0.0,0.0,0.0,0.0,0.0,0.0,0.0,0.0,2.26,0.0,0.0,0,0,0,0,0,0,0,0,0,0,0,0,0,0,0,0,0.0,0.0,0.0,0.0,0.0,39.239613,-77.964584,0.07,29.0,3.0,0.8
87,2960409,1745078233695,,,,,,,,,,,,,,,,,,,,,,,,,,,,,,,,,,0,0,0,0,0,0,0,0,0,0,0,0,0,0,0,0,,,,,,,,,,,
88,2960429,1745078233715,0.0,185.39,,0.0,-0.13,0.88,0.0,0.0,0.0,0.89,1.16,77.0,12195.0,11.2,2.38,,9.66,0.972,88.0,,65.8,5.0,,,,,,,,,,,,0,0,0,0,0,0,0,0,0,0,0,0,0,0,0,0,,,,,0.0,,,,,,
89,2960449,1745078233735,,,,,,,,,,,,,,,,,,,,,,,,,,,,,,,,,,0,0,0,0,0,0,0,0,0,0,0,0,0,0,0,0,,,,,,,,,,,
90,2960469,1745078233755,0.0,185.39,,-0.0,-0.17,0.95,1.0,0.0,0.0,0.96,1.16,83.0,12195.0,11.2,2.38,,7.94,0.955,88.0,,66.4,5.0,,,,,,,,,,,,0,0,0,0,0,0,0,0,0,0,0,0,0,0,0,0,,,,,0.0,,,,,,
91,2960489,1745078233775,,,,,,,,,,,,,,,,,,,,,,,0.0,0.0,0.0,0.0,0.0,0.0,0.0,0.0,2.26,,,0,0,0,0,0,0,0,0,0,0,0,0,0,0,0,0,0.0,,,,,39.239613,-77.964584,0.04,29.0,3.0,0.8
92,2960509,1745078233795,0.0,185.39,,0.05,-0.16,0.96,1.0,0.0,0.0,0.98,1.16,84.0,12241.0,7.5,1.99,,6.78,0.994,88.0,,66.4,5.0,,,,,,,,,,,,0,0,0,0,0,0,0,0,0,0,0,0,0,0,0,0,,,,,0.0,,,,,,
93,2960529,1745078233813,,,,,,,,,,,,,,,,,,,,,,,,,,,,,,,,,,0,0,0,0,0,0,0,0,0,0,0,0,0,0,0,0,,,,,,,,,,,
94,2960549,1745078233833,0.0,185.39,,0.06,-0.15,0.9,1.0,0.0,1.0,0.91,1.16,78.0,12109.0,6.2,1.7,,6.11,1.029,88.0,,66.4,5.0,,,,,,,,,,,,0,0,0,0,0,0,0,0,0,0,0,0,0,0,0,0,,,,,0.0,,,,,,
95,2960569,1745078233853,,,,,,,,,,,,,,,,,,,,,,,,,,,,,,,,,,0,0,0,0,0,0,0,0,0,0,0,0,0,0,0,0,,,,,,,,,,,
96,2960589,1745078233873,0.0,185.39,,0.1,-0.06,0.88,1.0,0.0,1.0,0.89,1.16,77.0,11755.0,5.4,1.53,,5.68,1.06,88.0,,66.4,5.0,0.0,0.0,0.0,0.0,0.0,0.0,0.0,0.0,2.27,,,0,0,0,0,0,0,0,0,0,0,0,0,0,0,0,0,0.0,,,,0.0,39.239613,-77.964584,0.04,29.0,3.0,0.8
97,2960609,1745078233893,,,,,,,,,,,,,,,,,,,,,,,,,,,,,,,,,,0,0,0,0,0,0,0,0,0,0,0,0,0,0,0,0,,,,,,,,,,,
98,2960629,1745078233915,0.0,185.39,,0.07,-0.04,0.87,1.0,0.0,0.0,0.87,1.16,75.0,11185.0,5.2,1.41,,5.68,1.06,88.0,,66.4,5.0,,,,,,,,,,,,0,0,0,0,0,0,0,0,0,0,0,0,0,0,0,0,,,,,0.0,,,,,,
99,2960649,1745078233935,,,,,,,,,,,,,,,,,,,,,,,,,,,,,,,,,,0,0,0,0,0,0,0,0,0,0,0,0,0,0,0,0,,,,,,,,,,,
100,2960669,1745078233955,0.0,185.39,,0.09,0.03,0.86,1.0,0.0,1.0,0.87,1.16,74.0,11185.0,5.2,1.41,,5.44,1.118,88.0,,66.3,5.0,,,,,,,,,,,,0,0,0,0,0,0,0,0,0,0,0,0,0,0,0,0,,,,,0.0,,,,,,
101,2960689,1745078233975,,,,,,,,,,,,,,,,,,,,,,,0.0,0.0,0.0,0.0,0.0,0.0,0.0,0.0,2.26,,,0,0,0,0,0,0,0,0,0,0,0,0,0,0,0,0,0.0,,,,,39.239613,-77.964584,0.0,29.0,3.0,0.8
102,2960709,1745078233995,0.0,185.39,,0.1,0.17,0.9,0.0,0.0,1.0,0.92,1.16,79.0,10588.0,5.2,1.4,,5.42,1.241,88.0,,66.3,5.0,,,,,,,,,,,,0,0,0,0,0,0,0,0,0,0,0,0,0,0,0,0,,,,,0.0,,,,,,
103,2960729,1745078234005,,,,,,,,,,,,,,,,,,,,,,,,,,,,,,,,,,0,0,0,0,0,0,0,0,0,0,0,0,0,0,0,0,,,,,,,,,,,
104,2960749,1745078234025,0.0,185.39,,0.09,0.21,0.95,-1.0,0.0,1.0,0.98,1.16,84.0,9995.0,5.2,1.4,,5.6,1.252,88.0,,66.3,5.0,,,,,,,,,,,,0,0,0,0,0,0,0,0,0,0,0,0,0,0,0,0,,,,,0.0,,,,,,
105,2960769,1745078234045,,,,,,,,,,,,,,,,,,,,,,,,,,,,,,,,,,0,0,0,0,0,0,0,0,0,0,0,0,0,0,0,0,,,,,,,,,,,
106,2960789,1745078234065,0.0,185.39,,0.07,0.16,0.94,1.0,0.0,1.0,0.96,1.16,82.0,9357.0,5.4,1.45,,5.63,1.252,88.0,,66.9,5.0,0.0,0.0,0.0,0.0,0.0,0.0,0.0,0.0,2.26,,,0,0,0,0,0,0,0,0,0,0,0,0,0,0,0,0,0.0,,,,0.0,39.239613,-77.964584,0.04,29.0,3.0,0.8
107,2960809,1745078234085,,,,,,,,,,,,,,,,,,,,,,,,,,,,,,,,,,0,0,0,0,0,0,0,0,0,0,0,0,0,0,0,0,,,,,,,,,,,
108,2960829,1745078234113,0.0,185.52,,0.03,0.07,0.97,2.0,0.0,0.0,0.97,1.16,83.0,8690.0,8.9,1.77,,5.63,1.252,88.0,,66.9,5.0,,,,,,,,,,,,0,0,0,0,0,0,0,0,0,0,0,0,0,0,0,0,,,,,0.0,,,,,,
109,2960849,1745078234133,,,,,,,,,,,,,,,,,,,,,,,,,,,,,,,,,,0,0,0,0,0,0,0,0,0,0,0,0,0,0,0,0,,,,,,,,,,,
110,2960869,1745078234153,0.0,185.39,,0.0,0.13,0.97,3.0,0.0,0.0,0.98,1.16,85.0,8690.0,8.9,1.77,,5.96,1.252,88.0,,62.6,5.0,,,,,,,,,,,,0,0,0,0,0,0,0,0,0,0,0,0,0,0,0,0,,,,,0.0,,,,,,
111,2960889,1745078234173,,,,,,,,,,,,,,,,,,,,,,,0.0,0.0,0.0,0.0,0.0,0.0,0.0,0.0,2.26,,,0,0,0,0,0,0,0,0,0,0,0,0,0,0,0,0,0.0,,,,,39.239613,-77.964584,0.06,29.0,3.0,0.8
112,2960909,1745078234193,0.0,185.39,,0.0,0.05,0.95,2.0,0.0,0.0,0.96,1.16,82.0,8152.0,13.1,2.11,,6.78,1.251,88.0,,62.6,5.0,,,,,,,,,,,,0,0,0,0,0,0,0,0,0,0,0,0,0,0,0,0,,,,,0.0,,,,,,
113,2960929,1745078234212,,,,,,,,,,,,,,,,,,,,,,,,,,,,,,,,,,0,0,0,0,0,0,0,0,0,0,0,0,0,0,0,0,,,,,,,,,,,
114,2960949,1745078234232,0.0,185.52,,0.01,0.01,0.99,4.0,0.0,-1.0,0.99,1.16,85.0,7735.0,15.2,2.45,,7.83,1.25,88.0,,62.6,5.0,,,,,,,,,,,,0,0,0,0,0,0,0,0,0,0,0,0,0,0,0,0,,,,,0.0,,,,,,
115,2960969,1745078234252,,,,,,,,,,,,,,,,,,,,,,,,,,,,,,,,,,0,0,0,0,0,0,0,0,0,0,0,0,0,0,0,0,,,,,,,,,,,
116,2960989,1745078234272,0.0,185.39,,0.01,0.05,1.0,5.0,0.0,-1.0,1.0,1.16,86.0,7463.0,19.4,3.17,,9.14,1.25,88.0,,61.0,5.0,0.0,0.0,0.0,0.0,0.0,0.0,0.0,0.0,2.26,,,0,0,0,0,0,0,0,0,0,0,0,0,0,0,0,0,0.0,,,,0.0,39.239613,-77.964584,0.04,29.0,3.0,0.8
117,2961009,1745078234292,,,,,,,,,,,,,,,,,,,,,,,,,,,,,,,,,,0,0,0,0,0,0,0,0,0,0,0,0,0,0,0,0,,,,,,,,,,,
118,2961029,1745078234312,0.0,185.39,,-0.01,-0.11,1.02,6.0,0.0,-1.0,1.03,1.16,88.0,7537.0,24.8,3.68,,9.14,1.25,88.0,,61.0,5.0,,,,,,,,,,,,0,0,0,0,0,0,0,0,0,0,0,0,0,0,0,0,,,,,0.0,,,,,,
119,2961049,1745078234332,,,,,,,,,,,,,,,,,,,,,,,,,,,,,,,,,,0,0,0,0,0,0,0,0,0,0,0,0,0,0,0,0,,,,,,,,,,,
120,2961069,1745078234352,0.0,185.39,,-0.03,0.02,0.98,5.0,0.0,-1.0,0.98,1.16,84.0,7537.0,24.8,3.68,,10.3,1.25,88.0,,62.4,5.0,,,,,,,,,,,,0,0,0,0,0,0,0,0,0,0,0,0,0,0,0,0,,,,,0.0,,,,,,
121,2961089,1745078234372,,,,,,,,,,,,,,,,,,,,,,,0.0,0.0,0.0,0.0,0.0,0.0,0.0,0.0,2.26,,,0,0,0,0,0,0,0,0,0,0,0,0,0,0,0,0,0.0,,,,,39.239613,-77.964584,0.04,29.0,3.0,0.8
122,2961109,1745078234392,0.0,185.27,,-0.03,0.12,0.98,4.0,0.0,0.0,0.98,1.16,85.0,7914.0,27.2,4.94,,11.25,1.25,88.0,,62.4,5.0,,,,,,,,,,,,0,0,0,0,0,0,0,0,0,0,0,0,0,0,0,0,,,,,0.0,,,,,,
123,2961129,1745078234414,,,,,,,,,,,,,,,,,,,,,,,,,,,,,,,,,,0,0,0,0,0,0,0,0,0,0,0,0,0,0,0,0,,,,,,,,,,,
124,2961149,1745078234434,0.0,185.39,,0.01,0.23,0.96,3.0,0.0,0.0,0.99,1.16,85.0,8856.0,25.8,4.64,,11.1,1.175,88.0,,62.4,5.0,,,,,,,,,,,,0,0,0,0,0,0,0,0,0,0,0,0,0,0,0,0,,,,,0.0,,,,,,
125,2961169,1745078234454,,,,,,,,,,,,,,,,,,,,,,,,,,,,,,,,,,0,0,0,0,0,0,0,0,0,0,0,0,0,0,0,0,,,,,,,,,,,
126,2961189,1745078234474,0.0,185.27,,-0.05,0.12,1.06,2.0,0.0,0.0,1.07,1.16,92.0,10107.0,10.7,3.15,,9.45,0.994,88.0,,68.6,5.0,0.0,0.0,0.0,0.0,0.0,0.0,0.0,0.0,2.26,,,0,0,0,0,0,0,0,0,0,0,0,0,0,0,0,0,0.0,,,,0.0,39.239613,-77.964584,0.11,29.0,3.0,0.8
127,2961209,1745078234494,,,,,,,,,,,,,,,,,,,,,,,,,,,,,,,,,,0,0,0,0,0,0,0,0,0,0,0,0,0,0,0,0,,,,,,,,,,,
128,2961229,1745078234514,0.0,185.27,,-0.04,0.01,1.07,3.0,0.0,0.0,1.07,1.16,92.0,10693.0,4.1,2.0,,9.45,0.994,88.0,,68.6,5.0,,,,,,,,,,,,0,0,0,0,0,0,0,0,0,0,0,0,0,0,0,0,,,,,0.0,,,,,,
129,2961249,1745078234534,,,,,,,,,,,,,,,,,,,,,,,,,,,,,,,,,,0,0,0,0,0,0,0,0,0,0,0,0,0,0,0,0,,,,,,,,,,,
130,2961269,1745078234554,0.0,185.27,,-0.06,-0.03,1.05,2.0,0.0,0.0,1.05,1.16,90.0,10693.0,4.1,2.0,,7.67,0.94,88.0,,65.0,5.0,,,,,,,,,,,,0,0,0,0,0,0,0,0,0,0,0,0,0,0,0,0,,,,,0.0,,,,,,
131,2961289,1745078234574,,,,,,,,,,,,,,,,,,,,,,,0.0,0.0,0.0,0.0,0.0,0.0,0.0,0.0,2.26,,,0,0,0,0,0,0,0,0,0,0,0,0,0,0,0,0,0.0,,,,,39.239613,-77.964584,0.08,29.0,3.0,0.8
132,2961309,1745078234594,0.0,185.27,,-0.08,-0.08,1.02,3.0,0.0,0.0,1.03,1.16,88.0,10550.0,1.9,1.4,,6.46,0.983,88.0,,65.0,5.0,,,,,,,,,,,,0,0,0,0,0,0,0,0,0,0,0,0,0,0,0,0,,,,,0.0,,,,,,
133,2961329,1745078234614,,,,,,,,,,,,,,,,,,,,,,,,,,,,,,,,,,0,0,0,0,0,0,0,0,0,0,0,0,0,0,0,0,,,,,,,,,,,
134,2961349,1745078234634,0.0,185.27,,-0.09,0.02,1.07,3.0,0.0,0.0,1.07,1.16,92.0,9957.0,1.6,1.4,,5.86,1.068,88.0,,65.0,5.0,,,,,,,,,,,,0,0,0,0,0,0,0,0,0,0,0,0,0,0,0,0,,,,,0.0,,,,,,
135,2961369,1745078234654,,,,,,,,,,,,,,,,,,,,,,,,,,,,,,,,,,0,0,0,0,0,0,0,0,0,0,0,0,0,0,0,0,,,,,,,,,,,
136,2961389,1745078234674,0.0,185.27,13.19,-0.11,-0.01,1.01,2.0,0.0,0.0,1.02,1.16,87.0,9369.0,1.7,1.4,15.0,5.56,1.25,88.0,164.0,65.0,5.0,0.0,0.0,0.0,0.0,0.0,0.0,0.0,0.0,2.26,0.0,0.0,0,0,0,0,0,0,0,0,0,0,0,0,0,0,0,0,0.0,0.0,0.0,0.0,0.0,39.239613,-77.964584,0.05,29.0,3.0,0.8
137,2961409,1745078234694,,,,,,,,,,,,,,,,,,,,,,,,,,,,,,,,,,0,0,0,0,0,0,0,0,0,0,0,0,0,0,0,0,,,,,,,,,,,
138,2961429,1745078234715,0.0,185.39,,-0.14,0.08,0.96,1.0,0.0,0.0,0.97,1.16,83.0,8736.0,1.9,1.4,,5.56,1.25,88.0,,65.0,5.0,,,,,,,,,,,,0,0,0,0,0,0,0,0,0,0,0,0,0,0,0,0,,,,,0.0,,,,,,
139,2961449,1745078234735,,,,,,,,,,,,,,,,,,,,,,,,,,,,,,,,,,0,0,0,0,0,0,0,0,0,0,0,0,0,0,0,0,,,,,,,,,,,
140,2961469,1745078234755,0.0,185.27,,-0.13,-0.01,0.95,1.0,0.0,0.0,0.96,1.16,83.0,8736.0,1.9,1.4,,5.46,1.25,88.0,,63.9,5.0,,,,,,,,,,,,0,0,0,0,0,0,0,0,0,0,0,0,0,0,0,0,,,,,0.0,,,,,,
141,2961489,1745078234775,,,,,,,,,,,,,,,,,,,,,,,0.0,0.0,0.0,0.0,0.0,0.0,0.0,0.0,2.26,,,0,0,0,0,0,0,0,0,0,0,0,0,0,0,0,0,0.0,,,,,39.239613,-77.964584,0.09,29.0,3.0,0.8
142,2961509,1745078234795,0.0,185.27,,-0.13,0.14,0.96,2.0,0.0,0.0,0.98,1.16,84.0,8171.0,6.2,1.69,,5.82,1.25,88.0,,63.9,5.0,,,,,,,,,,,,0,0,0,0,0,0,0,0,0,0,0,0,0,0,0,0,,,,,0.0,,,,,,
143,2961529,1745078234814,,,,,,,,,,,,,,,,,,,,,,,,,,,,,,,,,,0,0,0,0,0,0,0,0,0,0,0,0,0,0,0,0,,,,,,,,,,,
144,2961549,1745078234834,0.0,185.27,,-0.11,0.18,0.92,0.0,0.0,0.0,0.95,1.16,81.0,7689.0,14.3,2.13,,6.99,1.25,88.0,,63.9,5.0,,,,,,,,,,,,0,0,0,0,0,0,0,0,0,0,0,0,0,0,0,0,,,,,0.0,,,,,,
145,2961569,1745078234854,,,,,,,,,,,,,,,,,,,,,,,,,,,,,,,,,,0,0,0,0,0,0,0,0,0,0,0,0,0,0,0,0,,,,,,,,,,,
146,2961589,1745078234874,0.0,185.14,,-0.1,0.34,0.96,0.0,0.0,1.0,1.03,1.16,88.0,7362.0,17.3,2.88,,8.59,1.25,88.0,,59.7,5.0,0.0,0.0,0.0,0.0,0.0,0.0,0.0,0.0,2.26,,,0,0,0,0,0,0,0,0,0,0,0,0,0,0,0,0,0.0,,,,0.0,39.239613,-77.964584,0.12,29.0,3.0,0.8
147,2961609,1745078234894,,,,,,,,,,,,,,,,,,,,,,,,,,,,,,,,,,0,0,0,0,0,0,0,0,0,0,0,0,0,0,0,0,,,,,,,,,,,
148,2961629,1745078234914,0.0,185.27,,-0.08,0.3,0.98,2.0,0.0,0.0,1.03,1.16,88.0,7348.0,17.7,3.48,,8.59,1.25,88.0,,59.7,5.0,,,,,,,,,,,,0,0,0,0,0,0,0,0,0,0,0,0,0,0,0,0,,,,,0.0,,,,,,
149,2961649,1745078234934,,,,,,,,,,,,,,,,,,,,,,,,,,,,,,,,,,0,0,0,0,0,0,0,0,0,0,0,0,0,0,0,0,,,,,,,,,,,
150,2961669,1745078234954,0.0,185.27,,-0.09,0.12,1.0,3.0,0.0,0.0,1.01,1.16,87.0,7348.0,17.7,3.48,,9.44,1.25,88.0,,60.2,5.0,,,,,,,,,,,,0,0,0,0,0,0,0,0,0,0,0,0,0,0,0,0,,,,,0.0,,,,,,
151,2961689,1745078234974,,,,,,,,,,,,,,,,,,,,,,,0.0,0.0,0.0,0.0,0.0,0.0,0.0,0.0,2.26,,,0,0,0,0,0,0,0,0,0,0,0,0,0,0,0,0,0.0,,,,,39.239613,-77.964584,0.04,29.0,3.0,0.8
152,2961709,1745078234994,0.0,185.14,,-0.11,0.18,0.99,3.0,0.0,0.0,1.01,1.16,87.0,7584.0,15.9,3.39,,9.96,1.252,88.0,,60.2,5.0,,,,,,,,,,,,0,0,0,0,0,0,0,0,0,0,0,0,0,0,0,0,,,,,0.0,,,,,,
153,2961729,1745078235006,,,,,,,,,,,,,,,,,,,,,,,,,,,,,,,,,,0,0,0,0,0,0,0,0,0,0,0,0,0,0,0,0,,,,,,,,,,,
154,2961749,1745078235026,0.0,185.14,,-0.11,0.17,0.99,2.0,0.0,0.0,1.01,1.16,87.0,7985.0,8.2,3.12,,9.38,1.154,88.0,,60.2,5.0,,,,,,,,,,,,0,0,0,0,0,0,0,0,0,0,0,0,0,0,0,0,,,,,0.0,,,,,,
155,2961769,1745078235046,,,,,,,,,,,,,,,,,,,,,,,,,,,,,,,,,,0,0,0,0,0,0,0,0,0,0,0,0,0,0,0,0,,,,,,,,,,,
156,2961789,1745078235066,0.0,185.27,,-0.12,0.16,0.94,1.0,0.0,0.0,0.96,1.16,83.0,8428.0,5.4,2.5,,8.49,1.059,88.0,,64.6,5.0,0.0,0.0,0.0,0.0,0.0,0.0,0.0,0.0,2.26,,,0,0,0,0,0,0,0,0,0,0,0,0,0,0,0,0,0.0,,,,0.0,39.239613,-77.964584,0.34,29.0,3.0,0.8
157,2961809,1745078235086,,,,,,,,,,,,,,,,,,,,,,,,,,,,,,,,,,0,0,0,0,0,0,0,0,0,0,0,0,0,0,0,0,,,,,,,,,,,
158,2961829,1745078235112,0.0,185.14,,-0.1,0.07,1.0,1.0,0.0,0.0,1.01,1.16,87.0,8667.0,5.1,2.14,,8.49,1.059,88.0,,64.6,5.0,,,,,,,,,,,,0,0,0,0,0,0,0,0,0,0,0,0,0,0,0,0,,,,,0.0,,,,,,
159,2961849,1745078235132,,,,,,,,,,,,,,,,,,,,,,,,,,,,,,,,,,0,0,0,0,0,0,0,0,0,0,0,0,0,0,0,0,,,,,,,,,,,
160,2961869,1745078235152,0.0,185.27,,-0.12,0.15,0.96,1.0,0.0,0.0,0.98,1.16,84.0,8667.0,5.1,2.14,,7.62,1.017,88.0,,64.7,5.0,,,,,,,,,,,,0,0,0,0,0,0,0,0,0,0,0,0,0,0,0,0,,,,,0.0,,,,,,
161,2961889,1745078235172,,,,,,,,,,,,,,,,,,,,,,,0.0,0.0,0.0,0.0,0.0,0.0,0.0,0.0,2.26,,,0,0,0,0,0,0,0,0,0,0,0,0,0,0,0,0,0.0,,,,,39.239613,-77.964584,0.31,29.0,3.0,0.8
162,2961909,1745078235192,0.0,185.14,,-0.1,0.05,0.97,0.0,0.0,1.0,0.98,1.16,84.0,8566.0,5.1,2.01,,7.12,1.025,88.0,,64.7,5.0,,,,,,,,,,,,0,0,0,0,0,0,0,0,0,0,0,0,0,0,0,0,,,,,0.0,,,,,,
163,2961929,1745078235213,,,,,,,,,,,,,,,,,,,,,,,,,,,,,,,,,,0,0,0,0,0,0,0,0,0,0,0,0,0,0,0,0,,,,,,,,,,,
164,2961949,1745078235233,0.0,185.02,,-0.09,0.0,0.99,0.0,0.0,1.0,0.99,1.16,85.0,8389.0,5.1,1.93,,6.84,1.096,88.0,,64.7,5.0,,,,,,,,,,,,0,0,0,0,0,0,0,0,0,0,0,0,0,0,0,0,,,,,0.0,,,,,,
165,2961969,1745078235253,,,,,,,,,,,,,,,,,,,,,,,,,,,,,,,,,,0,0,0,0,0,0,0,0,0,0,0,0,0,0,0,0,,,,,,,,,,,
166,2961989,1745078235273,0.0,185.02,,-0.09,0.08,0.96,0.0,0.0,1.0,0.97,1.16,83.0,8135.0,6.2,2.02,,6.88,1.191,88.0,,62.9,5.0,0.0,0.0,0.0,0.0,0.0,0.0,0.0,0.0,2.26,,,0,0,0,0,0,0,0,0,0,0,0,0,0,0,0,0,0.0,,,,0.0,39.239613,-77.964584,0.07,29.0,3.0,0.8
167,2962009,1745078235293,,,,,,,,,,,,,,,,,,,,,,,,,,,,,,,,,,0,0,0,0,0,0,0,0,0,0,0,0,0,0,0,0,,,,,,,,,,,
168,2962029,1745078235311,0.0,184.89,,-0.08,-0.07,0.98,2.0,0.0,0.0,0.99,1.16,85.0,7843.0,7.1,2.22,,6.88,1.191,88.0,,62.9,5.0,,,,,,,,,,,,0,0,0,0,0,0,0,0,0,0,0,0,0,0,0,0,,,,,0.0,,,,,,
169,2962049,1745078235331,,,,,,,,,,,,,,,,,,,,,,,,,,,,,,,,,,0,0,0,0,0,0,0,0,0,0,0,0,0,0,0,0,,,,,,,,,,,
170,2962069,1745078235351,0.0,184.77,,-0.08,-0.04,0.99,1.0,0.0,0.0,0.99,1.16,85.0,7843.0,7.1,2.22,,7.1,1.25,88.0,,61.3,5.0,,,,,,,,,,,,0,0,0,0,0,0,0,0,0,0,0,0,0,0,0,0,,,,,0.0,,,,,,
171,2962089,1745078235371,,,,,,,,,,,,,,,,,,,,,,,0.0,0.0,0.0,0.0,0.0,0.0,0.0,0.0,2.27,,,0,0,0,0,0,0,0,0,0,0,0,0,0,0,0,0,0.0,,,,,39.239613,-77.964584,0.0,29.0,3.0,0.8
172,2962109,1745078235391,0.0,184.77,,-0.08,-0.0,0.96,0.0,0.0,1.0,0.97,1.16,83.0,7751.0,7.3,2.35,,7.33,1.25,88.0,,61.3,5.0,,,,,,,,,,,,0,0,0,0,0,0,0,0,0,0,0,0,0,0,0,0,,,,,0.0,,,,,,
173,2962129,1745078235413,,,,,,,,,,,,,,,,,,,,,,,,,,,,,,,,,,0,0,0,0,0,0,0,0,0,0,0,0,0,0,0,0,,,,,,,,,,,
174,2962149,1745078235433,0.0,184.77,,-0.08,-0.1,0.97,1.0,0.0,0.0,0.98,1.16,84.0,7718.0,7.5,2.39,,7.54,1.251,88.0,,61.3,5.0,,,,,,,,,,,,0,0,0,0,0,0,0,0,0,0,0,0,0,0,0,0,,,,,0.0,,,,,,
175,2962169,1745078235453,,,,,,,,,,,,,,,,,,,,,,,,,,,,,,,,,,0,0,0,0,0,0,0,0,0,0,0,0,0,0,0,0,,,,,,,,,,,
176,2962189,1745078235473,0.0,184.77,,-0.07,-0.03,1.0,1.0,0.0,0.0,1.01,1.16,86.0,7749.0,7.5,2.42,,7.74,1.168,88.0,,62.0,5.0,0.0,0.0,0.0,0.0,0.0,0.0,0.0,0.0,2.27,,,0,0,0,0,0,0,0,0,0,0,0,0,0,0,0,0,0.0,,,,0.0,39.239613,-77.964584,0.0,29.0,3.0,0.8
177,2962209,1745078235493,,,,,,,,,,,,,,,,,,,,,,,,,,,,,,,,,,0,0,0,0,0,0,0,0,0,0,0,0,0,0,0,0,,,,,,,,,,,
178,2962229,1745078235513,0.0,184.64,,-0.08,0.01,0.96,0.0,0.0,0.0,0.96,1.16,83.0,7741.0,7.5,2.45,,7.74,1.168,88.0,,62.0,5.0,,,,,,,,,,,,0,0,0,0,0,0,0,0,0,0,0,0,0,0,0,0,,,,,0.0,,,,,,
179,2962249,1745078235533,,,,,,,,,,,,,,,,,,,,,,,,,,,,,,,,,,0,0,0,0,0,0,0,0,0,0,0,0,0,0,0,0,,,,,,,,,,,
180,2962269,1745078235553,0.0,184.64,,-0.07,-0.11,0.99,1.0,0.0,0.0,1.0,1.16,85.0,7741.0,7.5,2.45,,7.75,1.115,88.0,,61.5,5.0,,,,,,,,,,,,0,0,0,0,0,0,0,0,0,0,0,0,0,0,0,0,,,,,0.0,,,,,,
181,2962289,1745078235573,,,,,,,,,,,,,,,,,,,,,,,0.0,0.0,0.0,0.0,0.0,0.0,0.0,0.0,2.26,,,0,0,0,0,0,0,0,0,0,0,0,0,0,0,0,0,0.0,,,,,39.239613,-77.964584,0.04,29.0,3.0,0.8
182,2962309,1745078235593,0.0,184.64,,-0.06,0.07,0.99,-1.0,0.0,1.0,1.0,1.16,86.0,7765.0,7.5,2.46,,7.83,1.095,88.0,,61.5,5.0,,,,,,,,,,,,0,0,0,0,0,0,0,0,0,0,0,0,0,0,0,0,,,,,0.0,,,,,,
183,2962329,1745078235613,,,,,,,,,,,,,,,,,,,,,,,,,,,,,,,,,,0,0,0,0,0,0,0,0,0,0,0,0,0,0,0,0,,,,,,,,,,,
184,2962349,1745078235633,0.0,184.64,,-0.07,-0.03,0.96,0.0,0.0,0.0,0.96,1.16,82.0,7842.0,7.6,2.47,,7.74,1.086,88.0,,61.5,5.0,,,,,,,,,,,,0,0,0,0,0,0,0,0,0,0,0,0,0,0,0,0,,,,,0.0,,,,,,
185,2962369,1745078235653,,,,,,,,,,,,,,,,,,,,,,,,,,,,,,,,,,0,0,0,0,0,0,0,0,0,0,0,0,0,0,0,0,,,,,,,,,,,
186,2962389,1745078235673,0.0,184.77,13.18,-0.07,0.01,0.97,1.0,0.0,0.0,0.97,1.16,84.0,7875.0,7.6,2.5,15.0,7.75,1.083,88.0,164.0,61.6,5.0,0.0,0.0,0.0,0.0,0.0,0.0,0.0,0.0,2.26,0.0,0.0,0,0,0,0,0,0,0,0,0,0,0,0,0,0,0,0,0.0,0.0,0.0,0.0,0.0,39.239609,-77.964584,0.11,29.0,3.0,0.8
187,2962409,1745078235693,,,,,,,,,,,,,,,,,,,,,,,,,,,,,,,,,,0,0,0,0,0,0,0,0,0,0,0,0,0,0,0,0,,,,,,,,,,,
188,2962429,1745078235713,0.0,184.77,,-0.05,-0.12,0.98,1.0,0.0,0.0,0.99,1.16,85.0,7908.0,7.5,2.47,,7.75,1.083,88.0,,61.6,5.0,,,,,,,,,,,,0,0,0,0,0,0,0,0,0,0,0,0,0,0,0,0,,,,,0.0,,,,,,
189,2962449,1745078235733,,,,,,,,,,,,,,,,,,,,,,,,,,,,,,,,,,0,0,0,0,0,0,0,0,0,0,0,0,0,0,0,0,,,,,,,,,,,
190,2962469,1745078235753,0.0,184.77,,-0.07,-0.11,0.99,1.0,0.0,0.0,1.0,1.16,85.0,7908.0,7.5,2.47,,7.63,1.079,88.0,,63.3,5.0,,,,,,,,,,,,0,0,0,0,0,0,0,0,0,0,0,0,0,0,0,0,,,,,0.0,,,,,,
191,2962489,1745078235773,,,,,,,,,,,,,,,,,,,,,,,0.0,0.0,0.0,0.0,0.0,0.0,0.0,0.0,2.26,,,0,0,0,0,0,0,0,0,0,0,0,0,0,0,0,0,0.0,,,,,39.239609,-77.964584,0.11,29.0,3.0,0.8
192,2962509,1745078235793,0.0,184.51,,-0.08,-0.27,0.99,2.0,0.0,0.0,1.03,1.16,89.0,7966.0,7.4,2.47,,7.74,1.075,88.0,,63.3,5.0,,,,,,,,,,,,0,0,0,0,0,0,0,0,0,0,0,0,0,0,0,0,,,,,0.0,,,,,,
193,2962529,1745078235813,,,,,,,,,,,,,,,,,,,,,,,,,,,,,,,,,,0,0,0,0,0,0,0,0,0,0,0,0,0,0,0,0,,,,,,,,,,,
194,2962549,1745078235833,0.0,184.51,,-0.08,-0.28,0.97,1.0,0.0,0.0,1.01,1.16,87.0,7984.0,7.3,2.43,,7.7,1.073,88.0,,63.3,5.0,,,,,,,,,,,,0,0,0,0,0,0,0,0,0,0,0,0,0,0,0,0,,,,,0.0,,,,,,
195,2962569,1745078235853,,,,,,,,,,,,,,,,,,,,,,,,,,,,,,,,,,0,0,0,0,0,0,0,0,0,0,0,0,0,0,0,0,,,,,,,,,,,
196,2962589,1745078235873,0.0,184.51,,-0.1,-0.24,0.97,1.0,0.0,0.0,1.0,1.16,86.0,8004.0,7.2,2.41,,7.65,1.072,88.0,,62.8,5.0,0.0,0.0,0.0,0.0,0.0,0.0,0.0,0.0,2.27,,,0,0,0,0,0,0,0,0,0,0,0,0,0,0,0,0,0.0,,,,0.0,39.239609,-77.964584,0.05,29.0,3.0,0.8
197,2962609,1745078235893,,,,,,,,,,,,,,,,,,,,,,,,,,,,,,,,,,0,0,0,0,0,0,0,0,0,0,0,0,0,0,0,0,,,,,,,,,,,
198,2962629,1745078235913,0.0,184.64,,-0.12,-0.36,0.98,2.0,0.0,0.0,1.06,1.16,91.0,8009.0,7.2,2.41,,7.65,1.072,88.0,,62.8,5.0,,,,,,,,,,,,0,0,0,0,0,0,0,0,0,0,0,0,0,0,0,0,,,,,0.0,,,,,,
199,2962649,1745078235933,,,,,,,,,,,,,,,,,,,,,,,,,,,,,,,,,,0,0,0,0,0,0,0,0,0,0,0,0,0,0,0,0,,,,,,,,,,,
200,2962669,1745078235953,0.0,184.51,,-0.11,-0.4,0.98,2.0,0.0,0.0,1.07,1.16,92.0,8009.0,7.2,2.41,,7.65,1.066,88.0,,63.5,5.0,,,,,,,,,,,,0,0,0,0,0,0,0,0,0,0,0,0,0,0,0,0,,,,,0.0,,,,,,
201,2962689,1745078235973,,,,,,,,,,,,,,,,,,,,,,,0.0,0.0,0.0,0.0,0.0,0.0,0.0,0.0,2.26,,,0,0,0,0,0,0,0,0,0,0,0,0,0,0,0,0,0.0,,,,,39.239609,-77.964584,0.05,29.0,3.0,0.8
202,2962709,1745078235993,0.0,184.51,,-0.1,-0.38,0.97,2.0,0.0,0.0,1.05,1.16,90.0,8063.0,7.1,2.4,,7.62,1.068,88.0,,63.5,5.0,,,,,,,,,,,,0,0,0,0,0,0,0,0,0,0,0,0,0,0,0,0,,,,,0.0,,,,,,
203,2962729,1745078236005,,,,,,,,,,,,,,,,,,,,,,,,,,,,,,,,,,0,0,0,0,0,0,0,0,0,0,0,0,0,0,0,0,,,,,,,,,,,
204,2962749,1745078236025,0.0,184.64,,-0.11,-0.34,0.96,2.0,0.0,0.0,1.02,1.16,88.0,8067.0,7.2,2.38,,7.59,1.067,88.0,,63.5,5.0,,,,,,,,,,,,0,0,0,0,0,0,0,0,0,0,0,0,0,0,0,0,,,,,0.0,,,,,,
205,2962769,1745078236045,,,,,,,,,,,,,,,,,,,,,,,,,,,,,,,,,,0,0,0,0,0,0,0,0,0,0,0,0,0,0,0,0,,,,,,,,,,,
206,2962789,1745078236065,0.0,184.64,,-0.1,-0.3,0.97,3.0,0.0,-1.0,1.02,1.16,88.0,8128.0,7.2,2.36,,7.61,1.063,88.0,,64.0,5.0,0.0,0.0,0.0,0.0,0.0,0.0,0.0,0.0,2.26,,,0,0,0,0,0,0,0,0,0,0,0,0,0,0,0,0,0.0,,,,0.0,39.239609,-77.964584,0.0,29.0,3.0,0.8
207,2962809,1745078236085,,,,,,,,,,,,,,,,,,,,,,,,,,,,,,,,,,0,0,0,0,0,0,0,0,0,0,0,0,0,0,0,0,,,,,,,,,,,
208,2962829,1745078236111,0.0,184.77,,-0.1,-0.28,0.98,3.0,0.0,-1.0,1.02,1.16,88.0,8189.0,7.3,2.36,,7.61,1.063,88.0,,64.0,5.0,,,,,,,,,,,,0,0,0,0,0,0,0,0,0,0,0,0,0,0,0,0,,,,,0.0,,,,,,
209,2962849,1745078236131,,,,,,,,,,,,,,,,,,,,,,,,,,,,,,,,,,0,0,0,0,0,0,0,0,0,0,0,0,0,0,0,0,,,,,,,,,,,
210,2962869,1745078236151,0.0,184.77,,-0.09,-0.24,1.0,2.0,0.0,0.0,1.03,1.16,88.0,8189.0,7.3,2.36,,7.57,1.064,88.0,,63.2,5.0,,,,,,,,,,,,0,0,0,0,0,0,0,0,0,0,0,0,0,0,0,0,,,,,0.0,,,,,,
211,2962889,1745078236171,,,,,,,,,,,,,,,,,,,,,,,0.0,0.0,0.0,0.0,0.0,0.0,0.0,0.0,2.26,,,0,0,0,0,0,0,0,0,0,0,0,0,0,0,0,0,0.0,,,,,39.239609,-77.964584,0.05,29.0,3.0,0.8
212,2962909,1745078236191,0.0,184.77,,-0.09,-0.24,1.01,1.0,0.0,0.0,1.05,1.16,90.0,8190.0,7.3,2.32,,7.39,1.069,88.0,,63.2,5.0,,,,,,,,,,,,0,0,0,0,0,0,0,0,0,0,0,0,0,0,0,0,,,,,0.0,,,,,,
213,2962929,1745078236210,,,,,,,,,,,,,,,,,,,,,,,,,,,,,,,,,,0,0,0,0,0,0,0,0,0,0,0,0,0,0,0,0,,,,,,,,,,,
214,2962949,1745078236230,0.0,184.64,,-0.06,-0.28,1.02,0.0,0.0,0.0,1.06,1.16,91.0,8169.0,7.2,2.33,,7.46,1.068,88.0,,63.2,5.0,,,,,,,,,,,,0,0,0,0,0,0,0,0,0,0,0,0,0,0,0,0,,,,,0.0,,,,,,
215,2962969,1745078236250,,,,,,,,,,,,,,,,,,,,,,,,,,,,,,,,,,0,0,0,0,0,0,0,0,0,0,0,0,0,0,0,0,,,,,,,,,,,
216,2962989,1745078236270,0.0,184.64,,-0.06,-0.24,0.99,0.0,0.0,0.0,1.02,1.16,88.0,8122.0,7.2,2.32,,7.38,1.076,88.0,,62.7,5.0,0.0,0.0,0.0,0.0,0.0,0.0,0.0,0.0,2.27,,,0,0,0,0,0,0,0,0,0,0,0,0,0,0,0,0,0.0,,,,0.0,39.239609,-77.964584,0.04,29.0,3.0,0.8
217,2963009,1745078236290,,,,,,,,,,,,,,,,,,,,,,,,,,,,,,,,,,0,0,0,0,0,0,0,0,0,0,0,0,0,0,0,0,,,,,,,,,,,
218,2963029,1745078236314,0.0,184.77,,-0.08,-0.21,0.97,0.0,0.0,0.0,0.99,1.16,85.0,8108.0,7.2,2.35,,7.38,1.076,88.0,,62.7,5.0,,,,,,,,,,,,0,0,0,0,0,0,0,0,0,0,0,0,0,0,0,0,,,,,0.0,,,,,,
219,2963049,1745078236334,,,,,,,,,,,,,,,,,,,,,,,,,,,,,,,,,,0,0,0,0,0,0,0,0,0,0,0,0,0,0,0,0,,,,,,,,,,,
220,2963069,1745078236354,0.0,184.64,,-0.07,-0.15,0.99,1.0,0.0,0.0,1.0,1.16,86.0,8108.0,7.2,2.35,,7.47,1.094,88.0,,62.1,5.0,,,,,,,,,,,,0,0,0,0,0,0,0,0,0,0,0,0,0,0,0,0,,,,,0.0,,,,,,
221,2963089,1745078236374,,,,,,,,,,,,,,,,,,,,,,,0.0,0.0,0.0,0.0,0.0,0.0,0.0,0.0,2.27,,,0,0,0,0,0,0,0,0,0,0,0,0,0,0,0,0,0.0,,,,,39.239609,-77.964584,0.05,29.0,3.0,0.8
222,2963109,1745078236394,0.0,184.64,,-0.08,-0.17,0.98,2.0,0.0,0.0,1.0,1.16,86.0,8112.0,7.3,2.35,,7.45,1.088,88.0,,62.1,5.0,,,,,,,,,,,,0,0,0,0,0,0,0,0,0,0,0,0,0,0,0,0,,,,,0.0,,,,,,
223,2963129,1745078236412,,,,,,,,,,,,,,,,,,,,,,,,,,,,,,,,,,0,0,0,0,0,0,0,0,0,0,0,0,0,0,0,0,,,,,,,,,,,
224,2963149,1745078236432,0.0,184.64,,-0.07,-0.08,0.94,1.0,0.0,0.0,0.94,1.16,81.0,7980.0,7.6,2.37,,7.49,1.087,88.0,,62.1,5.0,,,,,,,,,,,,0,0,0,0,0,0,0,0,0,0,0,0,0,0,0,0,,,,,0.0,,,,,,
225,2963169,1745078236452,,,,,,,,,,,,,,,,,,,,,,,,,,,,,,,,,,0,0,0,0,0,0,0,0,0,0,0,0,0,0,0,0,,,,,,,,,,,
226,2963189,1745078236472,0.0,184.64,,-0.07,0.01,0.98,2.0,0.0,-1.0,0.98,1.16,84.0,8011.0,8.5,2.48,,7.74,1.116,88.0,,60.7,5.0,0.0,0.0,0.0,0.0,0.0,0.0,0.0,0.0,2.26,,,0,0,0,0,0,0,0,0,0,0,0,0,0,0,0,0,0.0,,,,0.0,39.239609,-77.964584,0.15,29.0,3.0,0.8
227,2963209,1745078236492,,,,,,,,,,,,,,,,,,,,,,,,,,,,,,,,,,0,0,0,0,0,0,0,0,0,0,0,0,0,0,0,0,,,,,,,,,,,
228,2963229,1745078236512,0.0,184.64,,-0.07,-0.01,0.98,2.0,0.0,0.0,0.98,1.16,84.0,8029.0,9.8,2.54,,7.74,1.116,88.0,,60.7,5.0,,,,,,,,,,,,0,0,0,0,0,0,0,0,0,0,0,0,0,0,0,0,,,,,0.0,,,,,,
229,2963249,1745078236532,,,,,,,,,,,,,,,,,,,,,,,,,,,,,,,,,,0,0,0,0,0,0,0,0,0,0,0,0,0,0,0,0,,,,,,,,,,,
230,2963269,1745078236552,0.0,184.64,,-0.04,-0.02,0.96,1.0,0.0,-1.0,0.97,1.16,83.0,8029.0,9.8,2.54,,7.89,1.096,88.0,,63.5,5.0,,,,,,,,,,,,0,0,0,0,0,0,0,0,0,0,0,0,0,0,0,0,,,,,0.0,,,,,,
231,2963289,1745078236572,,,,,,,,,,,,,,,,,,,,,,,0.0,0.0,0.0,0.0,0.0,0.0,0.0,0.0,2.26,,,0,0,0,0,0,0,0,0,0,0,0,0,0,0,0,0,0.0,,,,,39.239609,-77.964584,0.08,29.0,3.0,0.8
232,2963309,1745078236592,0.0,184.64,,-0.04,0.07,0.96,1.0,0.0,0.0,0.96,1.16,83.0,8109.0,10.8,2.59,,8.19,1.075,88.0,,63.5,5.0,,,,,,,,,,,,0,0,0,0,0,0,0,0,0,0,0,0,0,0,0,0,,,,,0.0,,,,,,
233,2963329,1745078236612,,,,,,,,,,,,,,,,,,,,,,,,,,,,,,,,,,0,0,0,0,0,0,0,0,0,0,0,0,0,0,0,0,,,,,,,,,,,
234,2963349,1745078236632,0.0,184.64,,-0.05,0.01,0.96,0.0,0.0,0.0,0.96,1.16,83.0,8207.0,11.3,2.62,,8.23,1.067,88.0,,63.5,5.0,,,,,,,,,,,,0,0,0,0,0,0,0,0,0,0,0,0,0,0,0,0,,,,,0.0,,,,,,
235,2963369,1745078236652,,,,,,,,,,,,,,,,,,,,,,,,,,,,,,,,,,0,0,0,0,0,0,0,0,0,0,0,0,0,0,0,0,,,,,,,,,,,
236,2963389,1745078236672,0.0,184.64,13.24,-0.07,-0.02,0.96,0.0,0.0,0.0,0.96,1.16,83.0,8267.0,12.7,2.71,15.0,8.49,1.069,88.0,164.0,62.4,5.0,0.0,0.0,0.0,0.0,0.0,0.0,0.0,0.0,2.26,0.0,0.0,0,0,0,0,0,0,0,0,0,0,0,0,0,0,0,0,0.0,0.0,0.0,0.0,0.0,39.239609,-77.964584,0.04,29.0,3.0,0.8
237,2963409,1745078236692,,,,,,,,,,,,,,,,,,,,,,,,,,,,,,,,,,0,0,0,0,0,0,0,0,0,0,0,0,0,0,0,0,,,,,,,,,,,
238,2963429,1745078236714,0.0,184.64,,-0.05,-0.04,0.96,0.0,0.0,0.0,0.96,1.16,83.0,8367.0,14.3,2.77,,8.49,1.069,88.0,,62.4,5.0,,,,,,,,,,,,0,0,0,0,0,0,0,0,0,0,0,0,0,0,0,0,,,,,0.0,,,,,,
239,2963449,1745078236734,,,,,,,,,,,,,,,,,,,,,,,,,,,,,,,,,,0,0,0,0,0,0,0,0,0,0,0,0,0,0,0,0,,,,,,,,,,,
240,2963469,1745078236754,0.0,184.77,,-0.06,0.04,0.98,0.0,0.0,0.0,0.98,1.16,84.0,8367.0,14.3,2.77,,8.71,1.066,88.0,,62.4,5.0,,,,,,,,,,,,0,0,0,0,0,0,0,0,0,0,0,0,0,0,0,0,,,,,0.0,,,,,,
241,2963489,1745078236774,,,,,,,,,,,,,,,,,,,,,,,0.0,0.0,0.0,0.0,0.0,0.0,0.0,0.0,2.26,,,0,0,0,0,0,0,0,0,0,0,0,0,0,0,0,0,0.0,,,,,39.239609,-77.964584,0.05,29.0,3.0,0.8
242,2963509,1745078236794,0.0,184.89,,-0.06,0.09,0.96,0.0,0.0,0.0,0.97,1.16,83.0,8436.0,15.5,2.9,,9.05,1.07,88.0,,62.4,5.0,,,,,,,,,,,,0,0,0,0,0,0,0,0,0,0,0,0,0,0,0,0,,,,,0.0,,,,,,
243,2963529,1745078236812,,,,,,,,,,,,,,,,,,,,,,,,,,,,,,,,,,0,0,0,0,0,0,0,0,0,0,0,0,0,0,0,0,,,,,,,,,,,
244,2963549,1745078236832,0.0,184.77,,-0.01,0.11,0.97,0.0,0.0,0.0,0.97,1.16,84.0,8392.0,16.0,2.95,,9.22,1.079,88.0,,62.4,5.0,,,,,,,,,,,,0,0,0,0,0,0,0,0,0,0,0,0,0,0,0,0,,,,,0.0,,,,,,
245,2963569,1745078236852,,,,,,,,,,,,,,,,,,,,,,,,,,,,,,,,,,0,0,0,0,0,0,0,0,0,0,0,0,0,0,0,0,,,,,,,,,,,
246,2963589,1745078236872,0.0,184.64,,0.01,0.13,1.0,1.0,0.0,0.0,1.0,1.16,86.0,8090.0,16.3,3.12,,9.57,1.072,88.0,,59.7,5.0,0.0,0.0,0.0,0.0,0.0,0.0,0.0,0.0,2.26,,,0,0,0,0,0,0,0,0,0,0,0,0,0,0,0,0,0.0,,,,0.0,39.239609,-77.964584,0.07,29.0,3.0,0.8
247,2963609,1745078236892,,,,,,,,,,,,,,,,,,,,,,,,,,,,,,,,,,0,0,0,0,0,0,0,0,0,0,0,0,0,0,0,0,,,,,,,,,,,
248,2963629,1745078236912,0.0,184.77,,0.05,0.21,0.97,-1.0,0.0,0.0,1.0,1.16,86.0,7579.0,16.6,3.35,,9.57,1.072,88.0,,59.7,5.0,,,,,,,,,,,,0,0,0,0,0,0,0,0,0,0,0,0,0,0,0,0,,,,,0.0,,,,,,
249,2963649,1745078236932,,,,,,,,,,,,,,,,,,,,,,,,,,,,,,,,,,0,0,0,0,0,0,0,0,0,0,0,0,0,0,0,0,,,,,,,,,,,
250,2963669,1745078236952,0.0,184.77,,0.08,0.2,0.97,0.0,0.0,0.0,0.99,1.16,85.0,7579.0,16.6,3.35,,9.86,1.064,88.0,,56.2,5.0,,,,,,,,,,,,0,0,0,0,0,0,0,0,0,0,0,0,0,0,0,0,,,,,0.0,,,,,,
251,2963689,1745078236972,,,,,,,,,,,,,,,,,,,,,,,0.0,0.0,0.0,0.0,0.0,0.0,0.0,0.0,2.26,,,0,0,0,0,0,0,0,0,0,0,0,0,0,0,0,0,0.0,,,,,39.239609,-77.964584,0.4,29.0,3.0,0.8
252,2963709,1745078236992,0.0,184.64,,0.16,0.14,1.05,0.0,0.0,0.0,1.07,1.16,92.0,6681.0,16.6,3.58,,10.4,1.071,88.0,,56.2,5.0,,,,,,,,,,,,0,0,0,0,0,0,0,0,0,0,0,0,0,0,0,0,,,,,0.0,,,,,,
253,2963729,1745078237004,,,,,,,,,,,,,,,,,,,,,,,,,,,,,,,,,,0,0,0,0,0,0,0,0,0,0,0,0,0,0,0,0,,,,,,,,,,,
254,2963749,1745078237024,0.0,184.77,,0.16,0.07,1.02,0.0,0.0,0.0,1.04,1.16,89.0,5627.0,16.6,3.63,,11.32,1.072,88.0,,56.2,5.0,,,,,,,,,,,,0,0,0,0,0,0,0,0,0,0,0,0,0,0,0,0,,,,,0.0,,,,,,
255,2963769,1745078237044,,,,,,,,,,,,,,,,,,,,,,,,,,,,,,,,,,0,0,0,0,0,0,0,0,0,0,0,0,0,0,0,0,,,,,,,,,,,
256,2963789,1745078237064,0.0,184.64,,0.14,0.04,0.98,0.0,0.0,0.0,0.99,1.16,85.0,4897.0,17.7,3.96,,12.27,1.102,88.0,,43.5,5.0,1.0,0.0,1.0,1.0,0.0,0.0,0.0,0.0,2.26,,,0,0,0,0,0,0,0,0,0,0,0,0,0,0,0,0,0.0,,,,0.0,39.239609,-77.964584,1.31,29.0,3.0,0.8
257,2963809,1745078237084,,,,,,,,,,,,,,,,,,,,,,,,,,,,,,,,,,0,0,0,0,0,0,0,0,0,0,0,0,0,0,0,0,,,,,,,,,,,
258,2963829,1745078237111,0.0,184.77,,0.16,-0.03,0.9,0.0,0.0,-1.0,0.92,1.16,79.0,4529.0,35.3,5.0,,12.27,1.102,88.0,,43.5,5.0,,,,,,,,,,,,0,0,0,0,0,0,0,0,0,0,0,0,0,0,0,0,,,,,0.0,,,,,,
259,2963849,1745078237131,,,,,,,,,,,,,,,,,,,,,,,,,,,,,,,,,,0,0,0,0,0,0,0,0,0,0,0,0,0,0,0,0,,,,,,,,,,,
260,2963869,1745078237151,0.0,184.64,,0.15,-0.13,0.85,1.0,0.0,-1.0,0.87,1.16,75.0,4529.0,35.3,5.0,,13.61,1.106,88.0,,35.3,5.0,,,,,,,,,,,,0,0,0,0,0,0,0,0,0,0,0,0,0,0,0,0,,,,,0.0,,,,,,
261,2963889,1745078237171,,,,,,,,,,,,,,,,,,,,,,,2.0,0.0,2.0,2.0,0.0,0.0,0.0,0.0,2.26,,,0,0,0,0,0,0,0,0,0,0,0,0,0,0,0,0,0.0,,,,,39.239609,-77.964584,2.84,29.0,3.0,0.8
262,2963909,1745078237191,0.0,184.64,,0.11,-0.18,0.82,1.0,0.0,-1.0,0.84,1.16,72.0,4464.0,45.2,4.91,,14.04,1.043,88.0,,35.3,5.0,,,,,,,,,,,,0,0,0,0,0,0,0,0,0,0,0,0,0,0,0,0,,,,,0.0,,,,,,
263,2963929,1745078237213,,,,,,,,,,,,,,,,,,,,,,,,,,,,,,,,,,0,0,0,0,0,0,0,0,0,0,0,0,0,0,0,0,,,,,,,,,,,
264,2963949,1745078237233,0.0,184.51,,0.06,-0.24,0.76,1.0,0.0,-1.0,0.8,1.16,68.0,4470.0,48.4,5.44,,14.12,1.034,88.0,,35.3,5.0,,,,,,,,,,,,0,0,0,0,0,0,0,0,0,0,0,0,0,0,0,0,,,,,0.0,,,,,,
265,2963969,1745078237253,,,,,,,,,,,,,,,,,,,,,,,,,,,,,,,,,,0,0,0,0,0,0,0,0,0,0,0,0,0,0,0,0,,,,,,,,,,,
266,2963989,1745078237273,0.0,184.39,,0.05,-0.18,0.8,1.0,0.0,-1.0,0.82,1.16,71.0,4790.0,48.6,5.39,,14.15,1.147,88.0,,37.0,5.0,2.0,0.0,2.0,2.0,0.0,0.0,0.0,0.0,2.26,,,0,0,0,0,0,0,0,0,0,0,0,0,0,0,0,0,0.0,,,,0.0,39.239609,-77.964584,3.62,29.0,3.0,0.8
267,2964009,1745078237293,,,,,,,,,,,,,,,,,,,,,,,,,,,,,,,,,,0,0,0,0,0,0,0,0,0,0,0,0,0,0,0,0,,,,,,,,,,,
268,2964029,1745078237313,0.0,184.39,,0.03,-0.17,0.83,1.0,0.0,-1.0,0.85,1.16,73.0,5307.0,48.7,5.17,,14.15,1.147,88.0,,37.0,5.0,,,,,,,,,,,,0,0,0,0,0,0,0,0,0,0,0,0,0,0,0,0,,,,,0.0,,,,,,
269,2964049,1745078237333,,,,,,,,,,,,,,,,,,,,,,,,,,,,,,,,,,0,0,0,0,0,0,0,0,0,0,0,0,0,0,0,0,,,,,,,,,,,
270,2964069,1745078237353,0.0,184.26,,-0.0,-0.2,0.8,1.0,0.0,-1.0,0.82,1.16,71.0,5307.0,48.7,5.17,,13.98,1.223,88.0,,42.4,5.0,,,,,,,,,,,,0,0,0,0,0,0,0,0,0,0,0,0,0,0,0,0,,,,,0.0,,,,,,
271,2964089,1745078237373,,,,,,,,,,,,,,,,,,,,,,,2.0,0.0,2.0,2.0,0.0,0.0,0.0,0.0,2.26,,,0,0,0,0,0,0,0,0,0,0,0,0,0,0,0,0,0.0,,,,,39.239609,-77.964584,3.46,29.0,3.0,0.8
272,2964109,1745078237393,0.0,184.26,,-0.04,-0.27,0.7,1.0,0.0,-1.0,0.75,1.16,65.0,5706.0,48.7,5.18,,13.98,1.217,88.0,,42.4,5.0,,,,,,,,,,,,0,0,0,0,0,0,0,0,0,0,0,0,0,0,0,0,,,,,0.0,,,,,,
273,2964129,1745078237411,,,,,,,,,,,,,,,,,,,,,,,,,,,,,,,,,,0,0,0,0,0,0,0,0,0,0,0,0,0,0,0,0,,,,,,,,,,,
274,2964149,1745078237431,0.0,184.26,,-0.06,-0.18,0.76,1.0,0.0,-1.0,0.78,1.16,67.0,6349.0,49.1,5.2,,13.79,1.223,88.0,,42.4,5.0,,,,,,,,,,,,0,0,0,0,0,0,0,0,0,0,0,0,0,0,0,0,,,,,0.0,,,,,,
275,2964169,1745078237451,,,,,,,,,,,,,,,,,,,,,,,,,,,,,,,,,,0,0,0,0,0,0,0,0,0,0,0,0,0,0,0,0,,,,,,,,,,,
276,2964189,1745078237471,0.0,184.26,,-0.07,-0.11,0.79,1.0,0.0,-1.0,0.8,1.16,69.0,7162.0,36.7,6.02,,13.39,1.206,88.0,,51.5,5.0,2.0,0.0,2.0,2.0,0.0,0.0,0.0,0.0,2.26,,,0,0,0,0,0,0,0,0,0,0,0,0,0,0,0,0,0.0,,,,0.0,39.239609,-77.964592,3.2,29.0,3.0,0.8
277,2964209,1745078237491,,,,,,,,,,,,,,,,,,,,,,,,,,,,,,,,,,0,0,0,0,0,0,0,0,0,0,0,0,0,0,0,0,,,,,,,,,,,
278,2964229,1745078237513,0.0,184.14,,-0.07,0.0,0.76,1.0,0.0,-1.0,0.76,1.16,65.0,8150.0,32.8,5.51,,13.39,1.206,88.0,,51.5,5.0,,,,,,,,,,,,0,0,0,0,0,0,0,0,0,0,0,0,0,0,0,0,,,,,0.0,,,,,,
279,2964249,1745078237533,,,,,,,,,,,,,,,,,,,,,,,,,,,,,,,,,,0,0,0,0,0,0,0,0,0,0,0,0,0,0,0,0,,,,,,,,,,,
280,2964269,1745078237553,0.0,184.14,,-0.11,0.1,0.75,1.0,0.0,-1.0,0.77,1.16,66.0,8150.0,32.8,5.51,,12.76,1.099,88.0,,61.8,5.0,,,,,,,,,,,,0,0,0,0,0,0,0,0,0,0,0,0,0,0,0,0,,,,,0.0,,,,,,
281,2964289,1745078237573,,,,,,,,,,,,,,,,,,,,,,,2.0,0.0,2.0,2.0,0.0,0.0,0.0,0.0,2.26,,,0,0,0,0,0,0,0,0,0,0,0,0,0,0,0,0,0.0,,,,,39.239609,-77.964592,3.03,29.0,3.0,0.8
282,2964309,1745078237593,0.0,184.26,,-0.06,0.15,0.76,0.0,0.0,0.0,0.78,1.16,67.0,9303.0,32.1,4.78,,12.17,0.978,88.0,,61.8,5.0,,,,,,,,,,,,0,0,0,0,0,0,0,0,0,0,0,0,0,0,0,0,,,,,0.0,,,,,,
283,2964329,1745078237611,,,,,,,,,,,,,,,,,,,,,,,,,,,,,,,,,,0,0,0,0,0,0,0,0,0,0,0,0,0,0,0,0,,,,,,,,,,,
284,2964349,1745078237631,0.0,184.14,,-0.02,0.12,0.81,-1.0,0.0,0.0,0.82,1.16,70.0,10565.0,30.9,4.46,,11.49,0.914,88.0,,61.8,5.0,,,,,,,,,,,,0,0,0,0,0,0,0,0,0,0,0,0,0,0,0,0,,,,,0.0,,,,,,
285,2964369,1745078237651,,,,,,,,,,,,,,,,,,,,,,,,,,,,,,,,,,0,0,0,0,0,0,0,0,0,0,0,0,0,0,0,0,,,,,,,,,,,
286,2964389,1745078237671,0.0,184.01,13.26,-0.0,-0.02,0.77,0.0,0.0,-1.0,0.77,1.16,66.0,10989.0,25.2,3.68,15.0,10.66,0.876,88.0,165.0,61.4,5.0,2.0,0.0,2.0,2.0,0.0,0.0,0.0,0.0,2.26,0.0,0.0,0,0,0,0,0,0,0,0,0,0,0,0,0,0,0,0,0.0,0.0,0.0,0.0,0.0,39.239609,-77.964592,2.94,29.0,3.0,0.8
287,2964409,1745078237691,,,,,,,,,,,,,,,,,,,,,,,,,,,,,,,,,,0,0,0,0,0,0,0,0,0,0,0,0,0,0,0,0,,,,,,,,,,,
288,2964429,1745078237713,0.0,184.01,,0.02,0.06,0.87,0.0,0.0,-1.0,0.87,1.16,75.0,11051.0,23.2,3.64,,10.66,0.876,88.0,,61.4,5.0,,,,,,,,,,,,0,0,0,0,0,0,0,0,0,0,0,0,0,0,0,0,,,,,0.0,,,,,,
289,2964449,1745078237733,,,,,,,,,,,,,,,,,,,,,,,,,,,,,,,,,,0,0,0,0,0,0,0,0,0,0,0,0,0,0,0,0,,,,,,,,,,,
290,2964469,1745078237753,0.0,183.89,,0.05,-0.01,0.92,0.0,0.0,-1.0,0.92,1.16,79.0,11051.0,23.2,3.64,,10.0,0.845,88.0,,59.6,5.0,,,,,,,,,,,,0,0,0,0,0,0,0,0,0,0,0,0,0,0,0,0,,,,,0.0,,,,,,
291,2964489,1745078237773,,,,,,,,,,,,,,,,,,,,,,,3.0,0.0,3.0,3.0,0.0,0.0,0.0,0.0,2.26,,,0,0,0,0,0,0,0,0,0,0,0,0,0,0,0,0,0.0,,,,,39.239609,-77.964592,3.23,29.0,3.0,0.8
292,2964509,1745078237793,0.0,183.89,,0.06,-0.1,0.93,1.0,0.0,-1.0,0.93,1.16,80.0,10938.0,22.8,3.48,,9.61,0.853,88.0,,59.6,5.0,,,,,,,,,,,,0,0,0,0,0,0,0,0,0,0,0,0,0,0,0,0,,,,,0.0,,,,,,
293,2964529,1745078237811,,,,,,,,,,,,,,,,,,,,,,,,,,,,,,,,,,0,0,0,0,0,0,0,0,0,0,0,0,0,0,0,0,,,,,,,,,,,
294,2964549,1745078237831,0.0,183.89,,0.1,-0.05,0.88,1.0,0.0,-1.0,0.89,1.16,76.0,10742.0,22.7,3.45,,9.78,0.87,88.0,,59.6,5.0,,,,,,,,,,,,0,0,0,0,0,0,0,0,0,0,0,0,0,0,0,0,,,,,0.0,,,,,,
295,2964569,1745078237851,,,,,,,,,,,,,,,,,,,,,,,,,,,,,,,,,,0,0,0,0,0,0,0,0,0,0,0,0,0,0,0,0,,,,,,,,,,,
296,2964589,1745078237871,0.0,183.89,,0.15,0.17,0.86,0.0,0.0,-1.0,0.89,1.16,77.0,10521.0,22.7,3.4,,9.64,0.904,88.0,,59.3,5.0,4.0,0.0,4.0,4.0,0.0,0.0,0.0,0.0,2.26,,,0,0,0,0,0,0,0,0,0,0,0,0,0,0,0,0,0.0,,,,0.0,39.239609,-77.964592,4.51,29.0,3.0,0.8
297,2964609,1745078237891,,,,,,,,,,,,,,,,,,,,,,,,,,,,,,,,,,0,0,0,0,0,0,0,0,0,0,0,0,0,0,0,0,,,,,,,,,,,
298,2964629,1745078237914,0.0,183.89,,0.16,0.13,0.84,-1.0,0.0,0.0,0.87,1.16,75.0,10262.0,22.8,3.31,,9.64,0.904,88.0,,59.3,5.0,,,,,,,,,,,,0,0,0,0,0,0,0,0,0,0,0,0,0,0,0,0,,,,,0.0,,,,,,
299,2964649,1745078237934,,,,,,,,,,,,,,,,,,,,,,,,,,,,,,,,,,0,0,0,0,0,0,0,0,0,0,0,0,0,0,0,0,,,,,,,,,,,
300,2964669,1745078237954,0.0,183.89,,0.18,-0.01,0.93,-1.0,0.0,0.0,0.95,1.16,81.0,10262.0,22.8,3.31,,9.65,0.932,88.0,,60.6,5.0,,,,,,,,,,,,0,0,0,0,0,0,0,0,0,0,0,0,0,0,0,0,,,,,0.0,,,,,,
301,2964689,1745078237974,,,,,,,,,,,,,,,,,,,,,,,5.0,0.0,5.0,5.0,0.0,0.0,0.0,0.0,2.26,,,0,0,0,0,0,0,0,0,0,0,0,0,0,0,0,0,0.0,,,,,39.239605,-77.964592,5.72,29.0,3.0,0.8
302,2964709,1745078237994,0.0,184.01,,0.19,-0.02,0.88,-1.0,0.0,0.0,0.9,1.16,77.0,10076.0,22.8,3.34,,9.66,0.961,88.0,,60.6,5.0,,,,,,,,,,,,0,0,0,0,0,0,0,0,0,0,0,0,0,0,0,0,,,,,0.0,,,,,,
303,2964729,1745078238005,,,,,,,,,,,,,,,,,,,,,,,,,,,,,,,,,,0,0,0,0,0,0,0,0,0,0,0,0,0,0,0,0,,,,,,,,,,,
304,2964749,1745078238025,0.0,183.89,,0.2,-0.04,0.89,-2.0,0.0,1.0,0.91,1.16,78.0,9870.0,23.3,3.3,,9.86,0.985,88.0,,60.6,5.0,,,,,,,,,,,,0,0,0,0,0,0,0,0,0,0,0,0,0,0,0,0,,,,,0.0,,,,,,
305,2964769,1745078238045,,,,,,,,,,,,,,,,,,,,,,,,,,,,,,,,,,0,0,0,0,0,0,0,0,0,0,0,0,0,0,0,0,,,,,,,,,,,
306,2964789,1745078238065,0.0,183.76,,0.23,-0.06,0.93,-2.0,0.0,0.0,0.96,1.16,82.0,9644.0,24.3,3.32,,9.93,0.999,88.0,,60.6,5.0,5.0,0.0,5.0,5.0,0.0,0.0,0.0,0.0,2.26,,,0,0,0,0,0,0,0,0,0,0,0,0,0,0,0,0,0.0,,,,0.0,39.239605,-77.964592,7.68,29.0,3.0,0.8
307,2964809,1745078238085,,,,,,,,,,,,,,,,,,,,,,,,,,,,,,,,,,0,0,0,0,0,0,0,0,0,0,0,0,0,0,0,0,,,,,,,,,,,
308,2964829,1745078238109,0.0,183.76,,0.23,-0.09,0.93,-2.0,0.0,1.0,0.96,1.16,83.0,9392.0,25.2,3.31,,9.93,0.999,88.0,,60.6,5.0,,,,,,,,,,,,0,0,0,0,0,0,0,0,0,0,0,0,0,0,0,0,,,,,0.0,,,,,,
309,2964849,1745078238129,,,,,,,,,,,,,,,,,,,,,,,,,,,,,,,,,,0,0,0,0,0,0,0,0,0,0,0,0,0,0,0,0,,,,,,,,,,,
310,2964869,1745078238149,0.0,183.76,,0.23,-0.15,0.98,-1.0,0.0,0.0,1.02,1.16,87.0,9392.0,25.2,3.31,,10.2,1.022,88.0,,60.4,5.0,,,,,,,,,,,,0,0,0,0,0,0,0,0,0,0,0,0,0,0,0,0,,,,,0.0,,,,,,
311,2964889,1745078238169,,,,,,,,,,,,,,,,,,,,,,,6.0,0.0,7.0,6.0,0.0,0.0,0.0,0.0,2.26,,,0,0,0,0,0,0,0,0,0,0,0,0,0,0,0,0,0.0,,,,,39.239601,-77.964592,9.23,29.0,3.0,0.8
312,2964909,1745078238189,0.0,183.76,,0.24,-0.23,1.04,-1.0,0.0,1.0,1.09,1.16,94.0,9067.0,25.8,3.31,,10.41,1.037,88.0,,60.4,5.0,,,,,,,,,,,,0,0,0,0,0,0,0,0,0,0,0,0,0,0,0,0,,,,,0.0,,,,,,
313,2964929,1745078238212,,,,,,,,,,,,,,,,,,,,,,,,,,,,,,,,,,0,0,0,0,0,0,0,0,0,0,0,0,0,0,0,0,,,,,,,,,,,
314,2964949,1745078238232,0.0,183.63,,0.23,-0.25,1.05,-1.0,0.0,1.0,1.11,1.16,95.0,8806.0,26.3,3.43,,10.72,1.049,88.0,,60.4,5.0,,,,,,,,,,,,0,0,0,0,0,0,0,0,0,0,0,0,0,0,0,0,,,,,0.0,,,,,,
315,2964969,1745078238252,,,,,,,,,,,,,,,,,,,,,,,,,,,,,,,,,,0,0,0,0,0,0,0,0,0,0,0,0,0,0,0,0,,,,,,,,,,,
316,2964989,1745078238272,0.0,183.63,,0.28,-0.22,1.07,0.0,0.0,1.0,1.13,1.16,97.0,8469.0,26.5,4.71,,11.01,1.053,88.0,,59.1,5.0,7.0,0.0,7.0,7.0,0.0,0.0,0.0,0.0,2.26,,,0,0,0,0,0,0,0,0,0,0,0,0,0,0,0,0,0.0,,,,0.0,39.239597,-77.964592,10.52,29.0,3.0,0.8
317,2965009,1745078238292,,,,,,,,,,,,,,,,,,,,,,,,,,,,,,,,,,0,0,0,0,0,0,0,0,0,0,0,0,0,0,0,0,,,,,,,,,,,
318,2965029,1745078238312,0.0,183.63,,0.27,-0.17,1.04,-1.0,0.0,1.0,1.09,1.16,94.0,8393.0,26.8,4.79,,11.01,1.053,88.0,,59.1,5.0,,,,,,,,,,,,0,0,0,0,0,0,0,0,0,0,0,0,0,0,0,0,,,,,0.0,,,,,,
319,2965049,1745078238332,,,,,,,,,,,,,,,,,,,,,,,,,,,,,,,,,,0,0,0,0,0,0,0,0,0,0,0,0,0,0,0,0,,,,,,,,,,,
320,2965069,1745078238352,0.0,183.63,,0.29,-0.17,1.01,0.0,-1.0,1.0,1.06,1.16,91.0,8393.0,26.8,4.79,,11.38,1.026,88.0,,58.4,5.0,,,,,,,,,,,,0,0,0,0,0,0,0,0,0,0,0,0,0,0,0,0,,,,,0.0,,,,,,
321,2965089,1745078238372,,,,,,,,,,,,,,,,,,,,,,,8.0,0.0,8.0,8.0,0.0,43.0,0.0,0.0,2.27,,,0,0,0,0,0,0,0,0,0,0,0,0,0,0,0,0,0.0,,,,,39.239597,-77.9646,11.93,29.0,3.0,0.8
322,2965109,1745078238392,0.0,183.51,,0.32,-0.12,1.01,0.0,0.0,1.0,1.07,1.16,92.0,8368.0,26.8,4.8,,11.37,0.924,88.0,,58.4,5.0,,,,,,,,,,,,0,0,0,0,0,0,0,0,0,0,0,0,0,0,0,0,,,,,0.0,,,,,,
323,2965129,1745078238412,,,,,,,,,,,,,,,,,,,,,,,,,,,,,,,,,,0,0,0,0,0,0,0,0,0,0,0,0,0,0,0,0,,,,,,,,,,,
324,2965149,1745078238432,0.0,183.51,,0.33,-0.17,1.01,-1.0,-1.0,1.0,1.07,1.16,92.0,8354.0,27.0,4.81,,11.53,0.867,88.0,,58.4,5.0,,,,,,,,,,,,0,0,0,0,0,0,0,0,0,0,0,0,0,0,0,0,,,,,0.0,,,,,,
325,2965169,1745078238452,,,,,,,,,,,,,,,,,,,,,,,,,,,,,,,,,,0,0,0,0,0,0,0,0,0,0,0,0,0,0,0,0,,,,,,,,,,,
326,2965189,1745078238472,0.0,183.51,,0.33,-0.18,0.99,0.0,-1.0,1.0,1.06,1.16,91.0,8296.0,26.9,4.85,,11.76,0.85,88.0,,58.8,5.0,9.0,0.0,9.0,9.0,0.0,60.0,0.0,0.0,2.26,,,0,0,0,0,0,0,0,0,0,0,0,0,0,0,0,0,0.0,,,,0.0,39.239594,-77.9646,13.54,29.0,3.0,0.8
327,2965209,1745078238492,,,,,,,,,,,,,,,,,,,,,,,,,,,,,,,,,,0,0,0,0,0,0,0,0,0,0,0,0,0,0,0,0,,,,,,,,,,,
328,2965229,1745078238512,0.0,183.51,,0.34,-0.18,1.01,1.0,-1.0,1.0,1.08,1.16,93.0,8208.0,27.1,4.9,,11.76,0.85,88.0,,58.8,5.0,,,,,,,,,,,,0,0,0,0,0,0,0,0,0,0,0,0,0,0,0,0,,,,,0.0,,,,,,
329,2965249,1745078238532,,,,,,,,,,,,,,,,,,,,,,,,,,,,,,,,,,0,0,0,0,0,0,0,0,0,0,0,0,0,0,0,0,,,,,,,,,,,
330,2965269,1745078238552,0.0,183.51,,0.35,-0.13,1.0,1.0,-1.0,1.0,1.07,1.16,92.0,8208.0,27.1,4.9,,11.84,0.838,88.0,,58.6,5.0,,,,,,,,,,,,0,0,0,0,0,0,0,0,0,0,0,0,0,0,0,0,,,,,0.0,,,,,,
331,2965289,1745078238572,,,,,,,,,,,,,,,,,,,,,,,10.0,0.0,11.0,11.0,0.0,60.0,0.0,0.0,2.26,,,0,0,0,0,0,0,0,0,0,0,0,0,0,0,0,0,0.0,,,,,39.23959,-77.9646,15.12,29.0,3.0,0.8
332,2965309,1745078238592,0.0,183.38,,0.36,-0.18,1.06,1.0,0.0,1.0,1.13,1.16,97.0,8070.0,26.8,4.98,,11.73,0.83,88.0,,58.6,5.0,,,,,,,,,,,,0,0,0,0,0,0,0,0,0,0,0,0,0,0,0,0,,,,,0.0,,,,,,
333,2965329,1745078238612,,,,,,,,,,,,,,,,,,,,,,,,,,,,,,,,,,0,0,0,0,0,0,0,0,0,0,0,0,0,0,0,0,,,,,,,,,,,
334,2965349,1745078238632,0.0,183.38,,0.37,-0.05,1.03,0.0,0.0,2.0,1.09,1.16,94.0,7876.0,25.6,5.05,,11.84,0.821,88.0,,58.6,5.0,,,,,,,,,,,,0,0,0,0,0,0,0,0,0,0,0,0,0,0,0,0,,,,,0.0,,,,,,
335,2965369,1745078238652,,,,,,,,,,,,,,,,,,,,,,,,,,,,,,,,,,0,0,0,0,0,0,0,0,0,0,0,0,0,0,0,0,,,,,,,,,,,
336,2965389,1745078238672,0.0,183.26,13.31,0.38,-0.16,1.03,0.0,0.0,2.0,1.11,1.16,96.0,7646.0,23.2,5.05,15.0,11.6,0.81,88.0,165.0,57.0,5.0,12.0,0.0,12.0,12.0,0.0,43.0,0.0,0.0,2.26,0.0,0.0,0,0,0,0,0,0,0,0,0,0,0,0,0,0,0,0,0.0,0.0,0.0,0.0,0.0,39.239586,-77.9646,17.01,29.0,3.0,0.8
337,2965409,1745078238692,,,,,,,,,,,,,,,,,,,,,,,,,,,,,,,,,,0,0,0,0,0,0,0,0,0,0,0,0,0,0,0,0,,,,,,,,,,,
338,2965429,1745078238712,0.0,183.13,,0.38,-0.34,1.03,0.0,0.0,1.0,1.15,1.16,99.0,7324.0,20.2,5.39,,11.6,0.81,88.0,,57.0,5.0,,,,,,,,,,,,0,0,0,0,0,0,0,0,0,0,0,0,0,0,0,0,,,,,0.0,,,,,,
339,2965449,1745078238732,,,,,,,,,,,,,,,,,,,,,,,,,,,,,,,,,,0,0,0,0,0,0,0,0,0,0,0,0,0,0,0,0,,,,,,,,,,,
340,2965469,1745078238752,0.0,183.13,,0.41,-0.23,1.03,1.0,0.0,1.0,1.13,1.16,97.0,7324.0,20.2,5.39,,11.45,0.797,88.0,,53.9,5.0,,,,,,,,,,,,0,0,0,0,0,0,0,0,0,0,0,0,0,0,0,0,,,,,0.0,,,,,,
341,2965489,1745078238772,,,,,,,,,,,,,,,,,,,,,,,12.0,0.0,13.0,13.0,0.0,85.0,0.0,0.0,2.26,,,0,0,0,0,0,0,0,0,0,0,0,0,0,0,0,0,0.0,,,,,39.239582,-77.9646,18.57,29.0,3.0,0.8
342,2965509,1745078238792,0.0,183.26,,0.4,-0.26,1.01,1.0,0.0,1.0,1.12,1.16,96.0,6809.0,19.0,5.38,,11.4,0.786,88.0,,53.9,5.0,,,,,,,,,,,,0,0,0,0,0,0,0,0,0,0,0,0,0,0,0,0,,,,,0.0,,,,,,
343,2965529,1745078238812,,,,,,,,,,,,,,,,,,,,,,,,,,,,,,,,,,0,0,0,0,0,0,0,0,0,0,0,0,0,0,0,0,,,,,,,,,,,
344,2965549,1745078238832,0.0,183.13,,0.4,-0.25,0.91,1.0,0.0,1.0,1.02,1.16,88.0,6228.0,15.4,4.42,,11.53,0.763,88.0,,53.9,5.0,,,,,,,,,,,,0,0,0,0,0,0,0,0,0,0,0,0,0,0,0,0,,,,,0.0,,,,,,
345,2965569,1745078238852,,,,,,,,,,,,,,,,,,,,,,,,,,,,,,,,,,0,0,0,0,0,0,0,0,0,0,0,0,0,0,0,0,,,,,,,,,,,
346,2965589,1745078238872,0.0,183.13,,0.41,-0.2,0.9,2.0,0.0,1.0,1.01,1.16,87.0,5515.0,10.5,3.89,,11.65,0.75,88.0,,45.8,5.0,14.0,0.0,14.0,15.0,0.0,20.0,0.0,0.0,2.26,,,0,0,0,0,0,0,0,0,0,0,0,0,0,0,0,0,0.0,,,,0.0,39.239578,-77.9646,20.46,29.0,3.0,0.8
347,2965609,1745078238892,,,,,,,,,,,,,,,,,,,,,,,,,,,,,,,,,,0,0,0,0,0,0,0,0,0,0,0,0,0,0,0,0,,,,,,,,,,,
348,2965629,1745078238912,0.0,183.13,,0.46,-0.22,0.89,3.0,0.0,0.0,1.03,1.16,88.0,4446.0,6.1,3.47,,11.65,0.75,88.0,,45.8,5.0,,,,,,,,,,,,0,0,0,0,0,0,0,0,0,0,0,0,0,0,0,0,,,,,0.0,,,,,,
349,2965649,1745078238932,,,,,,,,,,,,,,,,,,,,,,,,,,,,,,,,,,0,0,0,0,0,0,0,0,0,0,0,0,0,0,0,0,,,,,,,,,,,
350,2965669,1745078238952,0.0,183.26,,0.45,-0.22,0.94,3.0,0.0,0.0,1.06,1.16,91.0,4446.0,6.1,3.47,,11.89,0.762,88.0,,31.9,5.0,,,,,,,,,,,,0,0,0,0,0,0,0,0,0,0,0,0,0,0,0,0,,,,,0.0,,,,,,
351,2965689,1745078238972,,,,,,,,,,,,,,,,,,,,,,,15.0,0.0,15.0,14.0,0.0,4.0,0.0,0.0,2.26,,,0,0,0,0,0,0,0,0,0,0,0,0,0,0,0,0,0.0,,,,,39.239571,-77.9646,21.89,29.0,3.0,0.8
352,2965709,1745078238992,0.0,183.38,,0.4,-0.2,0.97,3.0,0.0,0.0,1.07,1.16,92.0,3306.0,0.4,2.91,,12.08,0.775,88.0,,31.9,5.0,,,,,,,,,,,,0,0,0,0,0,0,0,0,0,0,0,0,0,0,0,0,,,,,0.0,,,,,,
353,2965729,1745078239004,,,,,,,,,,,,,,,,,,,,,,,,,,,,,,,,,,0,0,0,0,0,0,0,0,0,0,0,0,0,0,0,0,,,,,,,,,,,
354,2965749,1745078239024,0.0,183.51,,0.35,-0.19,0.98,4.0,-1.0,0.0,1.06,1.16,91.0,2518.0,0.0,2.9,,12.37,0.783,88.0,,31.9,5.0,,,,,,,,,,,,0,0,0,0,0,0,0,0,0,0,0,0,0,0,0,0,,,,,0.0,,,,,,
355,2965769,1745078239044,,,,,,,,,,,,,,,,,,,,,,,,,,,,,,,,,,0,0,0,0,0,0,0,0,0,0,0,0,0,0,0,0,,,,,,,,,,,
356,2965789,1745078239064,0.0,183.51,,0.22,-0.14,0.97,4.0,-1.0,-1.0,1.0,1.16,86.0,2311.0,0.0,3.1,,12.63,0.785,88.0,,20.8,5.0,15.0,0.0,14.0,14.0,0.0,243.0,0.0,0.0,2.26,,,0,0,0,0,0,0,0,0,0,0,0,0,0,0,0,0,5.0,,,,0.0,39.239567,-77.964607,23.89,29.0,3.0,0.8
357,2965809,1745078239084,,,,,,,,,,,,,,,,,,,,,,,,,,,,,,,,,,0,0,0,0,0,0,0,0,0,0,0,0,0,0,0,0,,,,,,,,,,,
358,2965829,1745078239112,0.0,183.51,,0.16,-0.15,1.03,4.0,-1.0,-1.0,1.05,1.16,91.0,2735.0,0.0,3.1,,12.63,0.785,88.0,,20.8,5.0,,,,,,,,,,,,0,0,0,0,0,0,0,0,0,0,0,0,0,0,0,0,,,,,0.0,,,,,,
359,2965849,1745078239132,,,,,,,,,,,,,,,,,,,,,,,,,,,,,,,,,,0,0,0,0,0,0,0,0,0,0,0,0,0,0,0,0,,,,,,,,,,,
360,2965869,1745078239152,0.0,183.63,,0.13,-0.18,1.09,5.0,-1.0,-1.0,1.12,1.16,96.0,2735.0,0.0,3.1,,12.57,0.791,88.0,,21.2,5.0,,,,,,,,,,,,0,0,0,0,0,0,0,0,0,0,0,0,0,0,0,0,,,,,0.0,,,,,,
361,2965889,1745078239172,,,,,,,,,,,,,,,,,,,,,,,14.0,0.0,14.0,14.0,0.0,4.0,0.0,0.0,2.27,,,0,0,0,0,0,0,0,0,0,0,0,0,0,0,0,0,5.0,,,,,39.239563,-77.964607,23.73,29.0,3.0,0.8
362,2965909,1745078239192,0.0,183.51,,0.08,-0.21,1.14,5.0,-1.0,-1.0,1.16,1.16,100.0,3070.0,0.0,2.85,,12.48,0.807,88.0,,21.2,5.0,,,,,,,,,,,,0,0,0,0,0,0,0,0,0,0,0,0,0,0,0,0,,,,,0.0,,,,,,
363,2965929,1745078239209,,,,,,,,,,,,,,,,,,,,,,,,,,,,,,,,,,0,0,0,0,0,0,0,0,0,0,0,0,0,0,0,0,,,,,,,,,,,
364,2965949,1745078239229,0.0,183.51,,0.05,-0.2,1.19,5.0,-1.0,-1.0,1.2,1.2,100.0,2952.0,0.0,2.85,,12.44,0.844,88.0,,21.2,5.0,,,,,,,,,,,,0,0,0,0,0,0,0,0,0,0,0,0,0,0,0,0,,,,,0.0,,,,,,
365,2965969,1745078239249,,,,,,,,,,,,,,,,,,,,,,,,,,,,,,,,,,0,0,0,0,0,0,0,0,0,0,0,0,0,0,0,0,,,,,,,,,,,
366,2965989,1745078239269,0.0,183.63,,0.03,-0.22,1.22,5.0,-1.0,-1.0,1.24,1.24,100.0,2881.0,0.0,2.9,,12.4,0.856,88.0,,22.1,5.0,14.0,0.0,14.0,13.0,0.0,247.0,0.0,0.0,2.26,,,0,0,0,0,0,0,0,0,0,0,0,0,0,0,0,0,5.0,,,,0.0,39.239555,-77.964615,22.74,29.0,3.0,0.8
367,2966009,1745078239289,,,,,,,,,,,,,,,,,,,,,,,,,,,,,,,,,,0,0,0,0,0,0,0,0,0,0,0,0,0,0,0,0,,,,,,,,,,,
368,2966029,1745078239313,0.0,183.63,,0.03,-0.16,1.17,5.0,0.0,0.0,1.18,1.24,95.0,2773.0,0.0,2.95,,12.4,0.856,88.0,,22.1,5.0,,,,,,,,,,,,0,0,0,0,0,0,0,0,0,0,0,0,0,0,0,0,,,,,0.0,,,,,,
369,2966049,1745078239333,,,,,,,,,,,,,,,,,,,,,,,,,,,,,,,,,,0,0,0,0,0,0,0,0,0,0,0,0,0,0,0,0,,,,,,,,,,,
370,2966069,1745078239353,0.0,183.51,,0.0,-0.17,1.15,5.0,0.0,0.0,1.16,1.24,94.0,2773.0,0.0,2.95,,12.43,0.853,88.0,,21.0,5.0,,,,,,,,,,,,0,0,0,0,0,0,0,0,0,0,0,0,0,0,0,0,,,,,0.0,,,,,,
371,2966089,1745078239373,,,,,,,,,,,,,,,,,,,,,,,14.0,0.0,14.0,14.0,0.0,247.0,0.0,0.0,2.27,,,0,0,0,0,0,0,0,0,0,0,0,0,0,0,0,0,3.0,,,,,39.239548,-77.964615,22.37,29.0,3.0,0.8
372,2966109,1745078239393,0.0,183.51,,-0.03,-0.16,1.07,5.0,0.0,-1.0,1.09,1.24,88.0,2680.0,0.0,2.99,,12.51,0.874,88.0,,21.0,5.0,,,,,,,,,,,,0,0,0,0,0,0,0,0,0,0,0,0,0,0,0,0,,,,,0.0,,,,,,
373,2966129,1745078239413,,,,,,,,,,,,,,,,,,,,,,,,,,,,,,,,,,0,0,0,0,0,0,0,0,0,0,0,0,0,0,0,0,,,,,,,,,,,
374,2966149,1745078239433,0.0,183.51,,-0.04,-0.14,1.07,5.0,0.0,-1.0,1.08,1.24,87.0,2570.0,0.0,3.04,,12.56,0.938,88.0,,21.0,5.0,,,,,,,,,,,,0,0,0,0,0,0,0,0,0,0,0,0,0,0,0,0,,,,,0.0,,,,,,
375,2966169,1745078239453,,,,,,,,,,,,,,,,,,,,,,,,,,,,,,,,,,0,0,0,0,0,0,0,0,0,0,0,0,0,0,0,0,,,,,,,,,,,
376,2966189,1745078239473,0.0,183.51,,-0.05,-0.13,1.06,4.0,1.0,-1.0,1.06,1.24,86.0,2569.0,0.0,2.99,,12.61,1.052,88.0,,20.6,5.0,14.0,0.0,14.0,13.0,0.0,252.0,0.0,0.0,2.26,,,0,0,0,0,0,0,0,0,0,0,0,0,0,0,0,0,3.0,,,,0.0,39.239548,-77.964615,22.08,29.0,3.0,0.8
377,2966209,1745078239493,,,,,,,,,,,,,,,,,,,,,,,,,,,,,,,,,,0,0,0,0,0,0,0,0,0,0,0,0,0,0,0,0,,,,,,,,,,,
378,2966229,1745078239513,0.0,183.51,,-0.06,-0.12,1.07,4.0,1.0,-1.0,1.08,1.24,87.0,2543.0,0.0,3.05,,12.61,1.052,88.0,,20.6,5.0,,,,,,,,,,,,0,0,0,0,0,0,0,0,0,0,0,0,0,0,0,0,,,,,0.0,,,,,,
379,2966249,1745078239533,,,,,,,,,,,,,,,,,,,,,,,,,,,,,,,,,,0,0,0,0,0,0,0,0,0,0,0,0,0,0,0,0,,,,,,,,,,,
380,2966269,1745078239553,0.0,183.51,,-0.07,-0.08,1.04,3.0,0.0,0.0,1.04,1.24,85.0,2543.0,0.0,3.05,,12.72,1.145,88.0,,19.1,5.0,,,,,,,,,,,,0,0,0,0,0,0,0,0,0,0,0,0,0,0,0,0,,,,,0.0,,,,,,
381,2966289,1745078239573,,,,,,,,,,,,,,,,,,,,,,,13.0,0.0,14.0,14.0,0.0,20.0,0.0,0.0,2.26,,,0,0,0,0,0,0,0,0,0,0,0,0,0,0,0,0,3.0,,,,,39.23954,-77.964622,21.91,29.0,3.0,0.8
382,2966309,1745078239593,0.0,183.51,,-0.1,-0.05,1.04,2.0,0.0,0.0,1.04,1.24,84.0,2378.0,0.0,3.09,,12.85,1.118,88.0,,19.1,5.0,,,,,,,,,,,,0,0,0,0,0,0,0,0,0,0,0,0,0,0,0,0,,,,,0.0,,,,,,
383,2966329,1745078239613,,,,,,,,,,,,,,,,,,,,,,,,,,,,,,,,,,0,0,0,0,0,0,0,0,0,0,0,0,0,0,0,0,,,,,,,,,,,
