"Interval"|"ms"|0|0|1,"Utc"|"ms"|0|0|1,"FrontBP"|"psi"|-5.0|5.0|10,"SteerAng"|"Degrees"|-145|145|25,"Battery"|"Volts"|-5.0|20.0|1,"AccelX"|"G"|-3.0|3.0|25,"AccelY"|"G"|-3.0|3.0|25,"AccelZ"|"G"|-3.0|3.0|25,"Yaw"|"Deg/Sec"|-120|120|25,"Pitch"|"Deg/Sec"|-120|120|25,"Roll"|"Deg/Sec"|-120|120|25,"Gsum"|"G"|0.0|3.0|25,"GsumMax"|"G"|0.0|3.0|25,"GsumPct"|"%"|0|100|25,"RPM"|""|0|10000|25,"TPS"|"%"|0.0|100.0|25,"InjectorPW"|"ms"|0.0|100.0|25,"Baro"|"kPa"|0|105|1,"MAP"|"Psi"|0.0|255.0|25,"Lambda"|""|-2.0|2.0|25,"IAT"|"C"|0.0|200.0|25,"EngineTemp"|"C"|0|200|1,"EOP"|"PSI"|0.0|152.0|25,"EOT"|"F"|0|250|25,"WSFR"|"MPH"|0|150|10,"WSFL"|"MPH"|0|100|10,"WSRR"|"MPH"|0|100|10,"WSRL"|""|0|100|10,"TCSet"|"%"|0.0|100.0|10,"TCSlip"|"%"|0.0|100.0|10,"TCComp"|"deg"|0.0|50.0|10,"TCCut"|"%"|0.0|100.0|10,"Analog8"|""|0.0|5.0|10,"OilTemp"|"F"|0|300|1,"AA_On"|""|0.0|1.0|1,"ThermLF1"|"C"|0|400|50,"ThermLF2"|"C"|0|400|50,"ThermRR1"|"C"|0|400|50,"ThermRR2"|"C"|0|400|50,"ThermLF3"|"C"|0|400|50,"ThermLF4"|"C"|0|400|50,"ThermLF5"|"C"|0|400|50,"ThermLF6"|"C"|0|400|50,"ThermLF7"|"C"|0|400|50,"ThermLF8"|"C"|0|400|50,"ThermRR3"|"C"|0|400|50,"ThermRR4"|"C"|0|400|50,"ThermRR5"|"C"|0|400|50,"ThermRR6"|"C"|0|400|50,"ThermRR7"|"C"|0|400|50,"ThermRR8"|"C"|0|400|50,"Gear"|""|1|6|10,"AA_On"|""|0.0|1.0|1,"AA_LowDrag"|""|0|1|1,"Fuel_Mix"|""|-10|10|1,"AA_Packages"|""|0.0|1000.0|25,"Latitude"|"Degrees"|-180.0|180.0|10,"Longitude"|"Degrees"|-180.0|180.0|10,"Speed"|"kph"|0.0|150.0|10,"GPSSats"|""|0|20|10,"GPSQual"|""|0|5|10,"GPSDOP"|""|0.0|20.0|10
96195,0,,,,,,,,,,,,,,,,,,,,,,,,,,,,,,,,,,0,0,0,0,0,0,0,0,0,0,0,0,0,0,0,0,,,,,,,,,,,
96215,0,,135,,0.03,0.04,0.97,-1,-0,1,0.97,0.97,100,3931,0.0,1.71,,9.5,0.887,61.0,,37.2,5,,,,,,,,,,,,0,0,0,0,0,0,0,0,0,0,0,0,0,0,0,0,,,,,0.0,,,,,,
96235,0,,,,,,,,,,,,,,,,,,,,,,,,,,,,,,,,,,0,0,0,0,0,0,0,0,0,0,0,0,0,0,0,0,,,,,,,,,,,
96255,0,,135,,0.01,0.01,0.93,-0,-0,0,0.93,0.97,96,3565,0.0,1.88,,9.94,0.883,61.0,,37.5,5,,,,,,,,,,,,0,0,0,0,0,0,0,0,0,0,0,0,0,0,0,0,,,,,0.0,,,,,,
96275,0,0.0,,,,,,,,,,,,,,,,,,,,,,0,8,0,0,0.0,24.0,0.0,0.0,2.26,,,0,0,0,0,0,0,0,0,0,0,0,0,0,0,0,0,0,,,,,0.0,0.0,0.0,0,0,0.0
96295,0,,135,,0.02,0.04,0.9,-1,-0,0,0.9,0.97,92,3170,0.0,2.1,,10.4,0.895,61.0,,37.5,5,,,,,,,,,,,,0,0,0,0,0,0,0,0,0,0,0,0,0,0,0,0,,,,,0.0,,,,,,
96315,0,,,,,,,,,,,,,,,,,,,,,,,,,,,,,,,,,,0,0,0,0,0,0,0,0,0,0,0,0,0,0,0,0,,,,,,,,,,,
96335,0,,135,,0.02,0.01,0.87,-0,-0,0,0.87,0.97,89,2912,0.0,2.4,,10.92,0.933,61.0,,37.5,5,,,,,,,,,,,,0,0,0,0,0,0,0,0,0,0,0,0,0,0,0,0,,,,,0.0,,,,,,
96355,0,,,,,,,,,,,,,,,,,,,,,,,,,,,,,,,,,,0,0,0,0,0,0,0,0,0,0,0,0,0,0,0,0,,,,,,,,,,,
96375,0,0.0,135,13.4,0.02,0.01,0.92,-0,-0,0,0.92,0.97,94,2641,0.0,3.08,15,10.92,0.933,61.0,70,37.6,5,0,6,0,0,0.0,0.0,0.0,0.0,2.26,0,0.0,0,0,0,0,0,0,0,0,0,0,0,0,0,0,0,0,0,0.0,0,-0,0.0,0.0,0.0,0.0,0,0,0.0
96395,0,,,,,,,,,,,,,,,,,,,,,,,,,,,,,,,,,,0,0,0,0,0,0,0,0,0,0,0,0,0,0,0,0,,,,,,,,,,,
96415,0,,135,,0.02,-0.01,0.94,-0,-0,0,0.94,0.97,96,2641,0.0,3.08,,11.44,1.005,61.0,,37.6,5,,,,,,,,,,,,0,0,0,0,0,0,0,0,0,0,0,0,0,0,0,0,,,,,0.0,,,,,,
96435,0,,,,,,,,,,,,,,,,,,,,,,,,,,,,,,,,,,0,0,0,0,0,0,0,0,0,0,0,0,0,0,0,0,,,,,,,,,,,
96455,0,,135,,0.03,-0.0,0.94,-0,-0,0,0.94,0.97,97,2342,0.0,3.23,,11.97,1.056,61.0,,36.2,5,,,,,,,,,,,,0,0,0,0,0,0,0,0,0,0,0,0,0,0,0,0,,,,,0.0,,,,,,
96475,0,0.0,,,,,,,,,,,,,,,,,,,,,,0,11,0,0,0.0,24.0,0.0,0.0,2.26,,,0,0,0,0,0,0,0,0,0,0,0,0,0,0,0,0,0,,,,,0.0,0.0,0.0,0,0,0.0
96495,0,,135,,0.01,-0.01,0.95,-0,-0,0,0.95,0.97,98,2087,0.0,3.38,,12.43,1.089,61.0,,36.2,5,,,,,,,,,,,,0,0,0,0,0,0,0,0,0,0,0,0,0,0,0,0,,,,,0.0,,,,,,
96515,0,,,,,,,,,,,,,,,,,,,,,,,,,,,,,,,,,,0,0,0,0,0,0,0,0,0,0,0,0,0,0,0,0,,,,,,,,,,,
96535,0,,135,,-0.0,-0.02,0.96,-0,-0,0,0.96,0.97,99,1910,0.0,3.47,,12.89,1.1,61.0,,36.2,5,,,,,,,,,,,,0,0,0,0,0,0,0,0,0,0,0,0,0,0,0,0,,,,,0.0,,,,,,
96555,0,,,,,,,,,,,,,,,,,,,,,,,,,,,,,,,,,,0,0,0,0,0,0,0,0,0,0,0,0,0,0,0,0,,,,,,,,,,,
96575,0,0.0,135,,-0.01,-0.03,0.97,-0,-0,0,0.97,0.97,100,1546,0.0,3.6,,12.89,1.1,61.0,,35.0,5,0,9,0,0,0.0,24.0,0.0,0.0,2.26,,,0,0,0,0,0,0,0,0,0,0,0,0,0,0,0,0,0,,,,0.0,0.0,0.0,0.0,0,0,0.0
96595,0,,,,,,,,,,,,,,,,,,,,,,,,,,,,,,,,,,0,0,0,0,0,0,0,0,0,0,0,0,0,0,0,0,,,,,,,,,,,
96615,0,,135,,-0.01,-0.04,0.97,-0,-0,0,0.97,0.97,100,1546,0.0,3.6,,13.31,1.105,61.0,,35.0,5,,,,,,,,,,,,0,0,0,0,0,0,0,0,0,0,0,0,0,0,0,0,,,,,0.0,,,,,,
96635,0,,,,,,,,,,,,,,,,,,,,,,,,,,,,,,,,,,0,0,0,0,0,0,0,0,0,0,0,0,0,0,0,0,,,,,,,,,,,
96655,0,,135,,-0.01,-0.02,0.96,-0,-0,0,0.96,0.97,99,1362,0.0,3.65,,13.72,1.109,61.0,,34.1,5,,,,,,,,,,,,0,0,0,0,0,0,0,0,0,0,0,0,0,0,0,0,,,,,0.0,,,,,,
96675,0,0.0,,,,,,,,,,,,,,,,,,,,,,0,9,0,0,0.0,24.0,0.0,0.0,2.26,,,0,0,0,0,0,0,0,0,0,0,0,0,0,0,0,0,0,,,,,0.0,0.0,0.0,0,0,0.0
96695,0,,135,,-0.02,-0.03,0.96,-0,-0,0,0.97,0.97,99,1147,0.0,3.72,,13.9,1.114,61.0,,34.1,5,,,,,,,,,,,,0,0,0,0,0,0,0,0,0,0,0,0,0,0,0,0,,,,,0.0,,,,,,
96715,0,,,,,,,,,,,,,,,,,,,,,,,,,,,,,,,,,,0,0,0,0,0,0,0,0,0,0,0,0,0,0,0,0,,,,,,,,,,,
96735,0,,135,,-0.03,-0.02,0.98,-0,-0,0,0.98,0.98,100,1147,0.0,3.72,,14.03,1.116,61.0,,34.1,5,,,,,,,,,,,,0,0,0,0,0,0,0,0,0,0,0,0,0,0,0,0,,,,,0.0,,,,,,
96755,0,,,,,,,,,,,,,,,,,,,,,,,,,,,,,,,,,,0,0,0,0,0,0,0,0,0,0,0,0,0,0,0,0,,,,,,,,,,,
96775,0,0.0,135,,-0.03,-0.01,1.0,-0,-0,0,1.0,1.0,100,985,0.0,3.78,,14.03,1.116,61.0,,33.6,5,0,9,0,0,0.0,24.0,0.0,0.0,2.27,,,0,0,0,0,0,0,0,0,0,0,0,0,0,0,0,0,0,,,,0.0,0.0,0.0,0.0,0,0,0.0
96795,0,,,,,,,,,,,,,,,,,,,,,,,,,,,,,,,,,,0,0,0,0,0,0,0,0,0,0,0,0,0,0,0,0,,,,,,,,,,,
96815,0,,135,,-0.03,-0.0,1.0,-0,-0,0,1.0,1.0,100,985,0.0,3.78,,14.22,1.119,61.0,,33.6,5,,,,,,,,,,,,0,0,0,0,0,0,0,0,0,0,0,0,0,0,0,0,,,,,0.0,,,,,,
96835,0,,,,,,,,,,,,,,,,,,,,,,,,,,,,,,,,,,0,0,0,0,0,0,0,0,0,0,0,0,0,0,0,0,,,,,,,,,,,
96855,0,,135,,-0.04,-0.0,0.99,-0,-0,0,0.99,1.0,99,1043,0.0,3.84,,14.19,1.116,61.0,,38.3,5,,,,,,,,,,,,0,0,0,0,0,0,0,0,0,0,0,0,0,0,0,0,,,,,0.0,,,,,,
96875,0,0.0,,,,,,,,,,,,,,,,,,,,,,0,9,0,0,0.0,24.0,0.0,0.0,2.26,,,0,0,0,0,0,0,0,0,0,0,0,0,0,0,0,0,0,,,,,0.0,0.0,0.0,0,0,0.0
96895,0,,135,,-0.05,-0.0,1.0,-0,-0,0,1.0,1.0,100,1234,0.0,3.81,,14.14,1.123,61.0,,38.3,5,,,,,,,,,,,,0,0,0,0,0,0,0,0,0,0,0,0,0,0,0,0,,,,,0.0,,,,,,
96915,0,,,,,,,,,,,,,,,,,,,,,,,,,,,,,,,,,,0,0,0,0,0,0,0,0,0,0,0,0,0,0,0,0,,,,,,,,,,,
96935,0,,135,,-0.06,0.01,1.0,-0,-0,0,1.0,1.0,100,1263,0.0,3.76,,14.11,1.128,61.0,,38.3,5,,,,,,,,,,,,0,0,0,0,0,0,0,0,0,0,0,0,0,0,0,0,,,,,0.0,,,,,,
96955,0,,,,,,,,,,,,,,,,,,,,,,,,,,,,,,,,,,0,0,0,0,0,0,0,0,0,0,0,0,0,0,0,0,,,,,,,,,,,
96975,0,0.0,135,,-0.05,-0.01,1.0,-0,-0,0,1.0,1.0,99,1364,0.0,3.76,,14.11,1.128,61.0,,40.5,5,0,0,0,0,0.0,0.0,0.0,0.0,2.26,,,0,0,0,0,0,0,0,0,0,0,0,0,0,0,0,0,0,,,,0.0,0.0,0.0,0.0,0,0,0.0
96995,0,,,,,,,,,,,,,,,,,,,,,,,,,,,,,,,,,,0,0,0,0,0,0,0,0,0,0,0,0,0,0,0,0,,,,,,,,,,,
97015,0,,135,,-0.04,0.01,0.97,-0,-0,0,0.98,1.0,97,1364,0.0,3.76,,14.04,1.14,61.0,,40.5,5,,,,,,,,,,,,0,0,0,0,0,0,0,0,0,0,0,0,0,0,0,0,,,,,0.0,,,,,,
97035,0,,,,,,,,,,,,,,,,,,,,,,,,,,,,,,,,,,0,0,0,0,0,0,0,0,0,0,0,0,0,0,0,0,,,,,,,,,,,
97055,0,,135,,-0.06,0.02,0.96,-0,-0,0,0.96,1.0,96,1445,0.0,3.73,,14.16,1.153,61.0,,40.4,5,,,,,,,,,,,,0,0,0,0,0,0,0,0,0,0,0,0,0,0,0,0,,,,,0.0,,,,,,
97075,0,0.0,,,,,,,,,,,,,,,,,,,,,,0,0,0,0,0.0,0.0,0.0,0.0,2.26,,,0,0,0,0,0,0,0,0,0,0,0,0,0,0,0,0,0,,,,,0.0,0.0,0.0,0,0,0.0
97095,0,,135,,-0.09,0.01,0.96,0,-0,0,0.97,1.0,96,1443,0.0,3.71,,14.0,1.171,61.0,,40.4,5,,,,,,,,,,,,0,0,0,0,0,0,0,0,0,0,0,0,0,0,0,0,,,,,0.0,,,,,,
97115,0,,,,,,,,,,,,,,,,,,,,,,,,,,,,,,,,,,0,0,0,0,0,0,0,0,0,0,0,0,0,0,0,0,,,,,,,,,,,
97135,0,,135,,-0.11,-0.0,0.96,0,-0,-0,0.97,1.0,96,1472,0.0,3.71,,14.1,1.177,61.0,,40.4,5,,,,,,,,,,,,0,0,0,0,0,0,0,0,0,0,0,0,0,0,0,0,,,,,0.0,,,,,,
97155,0,,,,,,,,,,,,,,,,,,,,,,,,,,,,,,,,,,0,0,0,0,0,0,0,0,0,0,0,0,0,0,0,0,,,,,,,,,,,
97175,0,0.0,135,,-0.12,-0.02,0.98,0,-0,-0,0.99,1.0,98,1420,0.0,3.71,,14.1,1.177,61.0,,40.9,5,0,0,0,0,0.0,0.0,0.0,0.0,2.26,,,0,0,0,0,0,0,0,0,0,0,0,0,0,0,0,0,0,,,,0.0,0.0,0.0,0.0,0,0,0.0
97195,0,,,,,,,,,,,,,,,,,,,,,,,,,,,,,,,,,,0,0,0,0,0,0,0,0,0,0,0,0,0,0,0,0,,,,,,,,,,,
97215,0,,135,,-0.13,-0.03,0.98,1,-0,-0,0.99,1.0,99,1420,0.0,3.71,,13.99,1.188,61.0,,40.9,5,,,,,,,,,,,,0,0,0,0,0,0,0,0,0,0,0,0,0,0,0,0,,,,,0.0,,,,,,
97235,0,,,,,,,,,,,,,,,,,,,,,,,,,,,,,,,,,,0,0,0,0,0,0,0,0,0,0,0,0,0,0,0,0,,,,,,,,,,,
97255,0,,135,,-0.12,0.0,0.96,0,-0,-0,0.97,1.0,96,1597,0.0,3.7,,14.1,1.204,61.0,,43.6,5,,,,,,,,,,,,0,0,0,0,0,0,0,0,0,0,0,0,0,0,0,0,,,,,0.0,,,,,,
97275,0,0.0,,,,,,,,,,,,,,,,,,,,,,0,0,0,0,0.0,0.0,0.0,0.0,2.27,,,0,0,0,0,0,0,0,0,0,0,0,0,0,0,0,0,0,,,,,0.0,0.0,0.0,0,0,0.0
97295,0,,135,,-0.11,-0.01,0.95,0,-0,-0,0.95,1.0,95,1602,0.0,3.68,,13.95,1.244,61.0,,43.6,5,,,,,,,,,,,,0,0,0,0,0,0,0,0,0,0,0,0,0,0,0,0,,,,,0.0,,,,,,
97315,0,,,,,,,,,,,,,,,,,,,,,,,,,,,,,,,,,,0,0,0,0,0,0,0,0,0,0,0,0,0,0,0,0,,,,,,,,,,,
97335,0,,135,,-0.1,-0.01,0.93,0,-0,0,0.94,1.0,93,1508,0.0,3.68,,14.02,1.25,61.0,,43.6,5,,,,,,,,,,,,0,0,0,0,0,0,0,0,0,0,0,0,0,0,0,0,,,,,0.0,,,,,,
97355,0,,,,,,,,,,,,,,,,,,,,,,,,,,,,,,,,,,0,0,0,0,0,0,0,0,0,0,0,0,0,0,0,0,,,,,,,,,,,
97375,0,0.0,135,13.3,-0.09,-0.03,0.95,-0,-0,0,0.96,1.0,95,1643,0.0,3.68,15,14.02,1.25,61.0,70,42.4,5,0,0,0,0,0.0,0.0,0.0,0.0,2.27,0,0.0,0,0,0,0,0,0,0,0,0,0,0,0,0,0,0,0,0,0.0,0,-0,0.0,0.0,0.0,0.0,0,0,0.0
97395,0,,,,,,,,,,,,,,,,,,,,,,,,,,,,,,,,,,0,0,0,0,0,0,0,0,0,0,0,0,0,0,0,0,,,,,,,,,,,
97415,0,,135,,-0.06,-0.0,0.96,-0,-0,0,0.96,1.0,96,1643,0.0,3.68,,14.06,1.235,61.0,,42.4,5,,,,,,,,,,,,0,0,0,0,0,0,0,0,0,0,0,0,0,0,0,0,,,,,0.0,,,,,,
97435,0,,,,,,,,,,,,,,,,,,,,,,,,,,,,,,,,,,0,0,0,0,0,0,0,0,0,0,0,0,0,0,0,0,,,,,,,,,,,
97455,0,,135,,-0.05,-0.03,0.97,0,-0,0,0.97,1.0,97,1610,0.0,3.66,,13.94,1.243,61.0,,42.4,5,,,,,,,,,,,,0,0,0,0,0,0,0,0,0,0,0,0,0,0,0,0,,,,,0.0,,,,,,
97475,0,0.0,,,,,,,,,,,,,,,,,,,,,,0,0,0,0,0.0,0.0,0.0,0.0,2.26,,,0,0,0,0,0,0,0,0,0,0,0,0,0,0,0,0,0,,,,,0.0,0.0,0.0,0,0,0.0
97495,0,,135,,-0.06,-0.02,1.0,-0,-0,0,1.0,1.0,100,1576,0.0,3.68,,13.96,1.25,61.0,,42.4,5,,,,,,,,,,,,0,0,0,0,0,0,0,0,0,0,0,0,0,0,0,0,,,,,0.0,,,,,,
97515,0,,,,,,,,,,,,,,,,,,,,,,,,,,,,,,,,,,0,0,0,0,0,0,0,0,0,0,0,0,0,0,0,0,,,,,,,,,,,
97535,0,,135,,-0.08,-0.01,0.98,0,-0,-0,0.98,1.0,98,1621,0.0,3.66,,14.06,1.249,61.0,,42.4,5,,,,,,,,,,,,0,0,0,0,0,0,0,0,0,0,0,0,0,0,0,0,,,,,0.0,,,,,,
97555,0,,,,,,,,,,,,,,,,,,,,,,,,,,,,,,,,,,0,0,0,0,0,0,0,0,0,0,0,0,0,0,0,0,,,,,,,,,,,
97575,0,0.0,135,,-0.08,0.01,0.96,0,-0,0,0.97,1.0,96,1606,0.0,3.67,,14.06,1.249,61.0,,42.2,5,0,0,0,0,0.0,0.0,0.0,0.0,2.26,,,0,0,0,0,0,0,0,0,0,0,0,0,0,0,0,0,0,,,,0.0,0.0,0.0,0.0,0,0,0.0
97595,0,,,,,,,,,,,,,,,,,,,,,,,,,,,,,,,,,,0,0,0,0,0,0,0,0,0,0,0,0,0,0,0,0,,,,,,,,,,,
97615,0,,135,,-0.07,-0.0,0.98,-0,-0,0,0.98,1.0,98,1606,0.0,3.67,,13.96,1.252,61.0,,42.2,5,,,,,,,,,,,,0,0,0,0,0,0,0,0,0,0,0,0,0,0,0,0,,,,,0.0,,,,,,
97635,0,,,,,,,,,,,,,,,,,,,,,,,,,,,,,,,,,,0,0,0,0,0,0,0,0,0,0,0,0,0,0,0,0,,,,,,,,,,,
97655,0,,135,,-0.05,0.0,0.99,-0,-0,0,0.99,1.0,99,1671,0.0,3.66,,13.91,1.25,61.0,,43.1,5,,,,,,,,,,,,0,0,0,0,0,0,0,0,0,0,0,0,0,0,0,0,,,,,0.0,,,,,,
97675,0,0.0,,,,,,,,,,,,,,,,,,,,,,0,0,0,0,0.0,0.0,0.0,0.0,2.26,,,0,0,0,0,0,0,0,0,0,0,0,0,0,0,0,0,0,,,,,0.0,0.0,0.0,0,0,0.0
97695,0,,135,,-0.08,-0.0,1.01,-0,-0,0,1.01,1.01,100,1669,0.0,3.65,,13.95,1.247,61.0,,43.1,5,,,,,,,,,,,,0,0,0,0,0,0,0,0,0,0,0,0,0,0,0,0,,,,,0.0,,,,,,
97715,0,,,,,,,,,,,,,,,,,,,,,,,,,,,,,,,,,,0,0,0,0,0,0,0,0,0,0,0,0,0,0,0,0,,,,,,,,,,,
97735,0,,135,,-0.09,0.01,0.98,-0,-0,0,0.98,1.01,97,1649,0.0,3.66,,14.04,1.247,61.0,,43.1,5,,,,,,,,,,,,0,0,0,0,0,0,0,0,0,0,0,0,0,0,0,0,,,,,0.0,,,,,,
97755,0,,,,,,,,,,,,,,,,,,,,,,,,,,,,,,,,,,0,0,0,0,0,0,0,0,0,0,0,0,0,0,0,0,,,,,,,,,,,
97775,0,0.0,135,,-0.08,0.02,0.96,-0,-0,0,0.97,1.01,95,1593,0.0,3.65,,14.04,1.247,61.0,,41.5,5,0,0,0,0,0.0,0.0,0.0,0.0,2.26,,,0,0,0,0,0,0,0,0,0,0,0,0,0,0,0,0,0,,,,0.0,0.0,0.0,0.0,0,0,0.0
97795,0,,,,,,,,,,,,,,,,,,,,,,,,,,,,,,,,,,0,0,0,0,0,0,0,0,0,0,0,0,0,0,0,0,,,,,,,,,,,
97815,0,,135,,-0.07,-0.0,0.98,-0,-0,0,0.98,1.01,97,1593,0.0,3.65,,14.0,1.226,62.8,,41.5,5,,,,,,,,,,,,0,0,0,0,0,0,0,0,0,0,0,0,0,0,0,0,,,,,0.0,,,,,,
97835,0,,,,,,,,,,,,,,,,,,,,,,,,,,,,,,,,,,0,0,0,0,0,0,0,0,0,0,0,0,0,0,0,0,,,,,,,,,,,
97855,0,,135,,-0.06,-0.02,0.98,0,-0,0,0.98,1.01,96,1628,0.0,3.66,,13.94,1.213,62.8,,40.5,5,,,,,,,,,,,,0,0,0,0,0,0,0,0,0,0,0,0,0,0,0,0,,,,,0.0,,,,,,
97875,0,0.0,,,,,,,,,,,,,,,,,,,,,,0,0,0,0,0.0,0.0,0.0,0.0,2.27,,,0,0,0,0,0,0,0,0,0,0,0,0,0,0,0,0,0,,,,,0.0,0.0,0.0,0,0,0.0
97895,0,,135,,-0.05,-0.03,0.99,0,-0,0,1.0,1.01,98,1665,0.0,3.67,,14.03,1.207,62.8,,40.5,5,,,,,,,,,,,,0,0,0,0,0,0,0,0,0,0,0,0,0,0,0,0,,,,,0.0,,,,,,
97915,0,,,,,,,,,,,,,,,,,,,,,,,,,,,,,,,,,,0,0,0,0,0,0,0,0,0,0,0,0,0,0,0,0,,,,,,,,,,,
97935,0,,135,,-0.07,-0.03,1.02,-0,-0,0,1.02,1.02,100,1575,0.0,3.66,,14.06,1.221,62.8,,40.5,5,,,,,,,,,,,,0,0,0,0,0,0,0,0,0,0,0,0,0,0,0,0,,,,,0.0,,,,,,
97955,0,,,,,,,,,,,,,,,,,,,,,,,,,,,,,,,,,,0,0,0,0,0,0,0,0,0,0,0,0,0,0,0,0,,,,,,,,,,,
97975,0,0.0,135,,-0.09,-0.03,0.99,0,-0,-0,1.0,1.02,98,1612,0.0,3.68,,14.06,1.221,62.8,,40.4,5,0,0,0,0,0.0,0.0,0.0,0.0,2.26,,,0,0,0,0,0,0,0,0,0,0,0,0,0,0,0,0,0,,,,0.0,0.0,0.0,0.0,0,0,0.0
97995,0,,,,,,,,,,,,,,,,,,,,,,,,,,,,,,,,,,0,0,0,0,0,0,0,0,0,0,0,0,0,0,0,0,,,,,,,,,,,
98015,0,,135,,-0.08,-0.01,0.98,0,-0,0,0.99,1.02,97,1612,0.0,3.68,,13.95,1.227,62.8,,40.4,5,,,,,,,,,,,,0,0,0,0,0,0,0,0,0,0,0,0,0,0,0,0,,,,,0.0,,,,,,
98035,0,,,,,,,,,,,,,,,,,,,,,,,,,,,,,,,,,,0,0,0,0,0,0,0,0,0,0,0,0,0,0,0,0,,,,,,,,,,,
98055,0,,135,,-0.08,-0.0,0.97,-0,-0,0,0.98,1.02,96,1617,0.0,3.67,,14.06,1.221,62.8,,39.4,5,,,,,,,,,,,,0,0,0,0,0,0,0,0,0,0,0,0,0,0,0,0,,,,,0.0,,,,,,
98075,0,0.0,,,,,,,,,,,,,,,,,,,,,,0,0,0,0,0.0,0.0,0.0,0.0,2.26,,,0,0,0,0,0,0,0,0,0,0,0,0,0,0,0,0,0,,,,,0.0,0.0,0.0,0,0,0.0
98095,0,,135,,-0.06,-0.02,0.99,-0,-0,0,0.99,1.02,97,1628,0.0,3.67,,14.07,1.24,62.8,,39.4,5,,,,,,,,,,,,0,0,0,0,0,0,0,0,0,0,0,0,0,0,0,0,,,,,0.0,,,,,,
98115,0,,,,,,,,,,,,,,,,,,,,,,,,,,,,,,,,,,0,0,0,0,0,0,0,0,0,0,0,0,0,0,0,0,,,,,,,,,,,
98135,0,,135,,-0.04,-0.0,1.0,-0,-0,0,1.0,1.02,98,1574,0.0,3.67,,13.96,1.24,62.8,,39.4,5,,,,,,,,,,,,0,0,0,0,0,0,0,0,0,0,0,0,0,0,0,0,,,,,0.0,,,,,,
98155,0,,,,,,,,,,,,,,,,,,,,,,,,,,,,,,,,,,0,0,0,0,0,0,0,0,0,0,0,0,0,0,0,0,,,,,,,,,,,
98175,0,0.0,135,,-0.03,-0.0,1.01,-0,-0,0,1.01,1.02,98,1587,0.0,3.68,,13.96,1.24,62.8,,38.8,5,0,0,0,0,0.0,0.0,0.0,0.0,2.26,,,0,0,0,0,0,0,0,0,0,0,0,0,0,0,0,0,0,,,,0.0,0.0,0.0,0.0,0,0,0.0
98195,0,,,,,,,,,,,,,,,,,,,,,,,,,,,,,,,,,,0,0,0,0,0,0,0,0,0,0,0,0,0,0,0,0,,,,,,,,,,,
98215,0,,135,,-0.04,0.02,1.03,-0,-0,0,1.03,1.03,100,1587,0.0,3.68,,14.06,1.224,62.8,,38.8,5,,,,,,,,,,,,0,0,0,0,0,0,0,0,0,0,0,0,0,0,0,0,,,,,0.0,,,,,,
98235,0,,,,,,,,,,,,,,,,,,,,,,,,,,,,,,,,,,0,0,0,0,0,0,0,0,0,0,0,0,0,0,0,0,,,,,,,,,,,
98255,0,,135,,-0.06,0.01,1.0,-0,-0,0,1.01,1.03,97,1610,0.0,3.67,,14.06,1.236,62.8,,39.8,5,,,,,,,,,,,,0,0,0,0,0,0,0,0,0,0,0,0,0,0,0,0,,,,,0.0,,,,,,
98275,0,0.0,,,,,,,,,,,,,,,,,,,,,,0,0,0,0,0.0,0.0,0.0,0.0,2.27,,,0,0,0,0,0,0,0,0,0,0,0,0,0,0,0,0,0,,,,,0.0,0.0,0.0,0,0,0.0
98295,0,,135,,-0.06,0.04,0.98,-0,-0,0,0.98,1.03,95,1605,0.0,3.67,,13.98,1.24,62.8,,39.8,5,,,,,,,,,,,,0,0,0,0,0,0,0,0,0,0,0,0,0,0,0,0,,,,,0.0,,,,,,
98315,0,,,,,,,,,,,,,,,,,,,,,,,,,,,,,,,,,,0,0,0,0,0,0,0,0,0,0,0,0,0,0,0,0,,,,,,,,,,,
98335,0,,135,,-0.05,0.03,0.99,-0,-0,0,0.99,1.03,96,1643,0.0,3.67,,13.94,1.219,62.8,,39.8,5,,,,,,,,,,,,0,0,0,0,0,0,0,0,0,0,0,0,0,0,0,0,,,,,0.0,,,,,,
98355,0,,,,,,,,,,,,,,,,,,,,,,,,,,,,,,,,,,0,0,0,0,0,0,0,0,0,0,0,0,0,0,0,0,,,,,,,,,,,
98375,0,0.0,135,13.33,-0.03,0.02,1.0,0,-0,0,1.0,1.03,96,1605,0.0,3.66,15,13.94,1.219,62.8,70,39.6,5,0,0,0,0,0.0,0.0,0.0,0.0,2.27,0,0.0,0,0,0,0,0,0,0,0,0,0,0,0,0,0,0,0,0,0.0,0,-0,0.0,0.0,0.0,0.0,0,0,0.0
98395,0,,,,,,,,,,,,,,,,,,,,,,,,,,,,,,,,,,0,0,0,0,0,0,0,0,0,0,0,0,0,0,0,0,,,,,,,,,,,
98415,0,,135,,-0.03,-0.01,1.0,0,-0,0,1.01,1.03,97,1605,0.0,3.66,,14.07,1.213,62.8,,39.6,5,,,,,,,,,,,,0,0,0,0,0,0,0,0,0,0,0,0,0,0,0,0,,,,,0.0,,,,,,
98435,0,,,,,,,,,,,,,,,,,,,,,,,,,,,,,,,,,,0,0,0,0,0,0,0,0,0,0,0,0,0,0,0,0,,,,,,,,,,,
98455,0,,135,,-0.05,-0.03,0.99,0,-0,-0,0.99,1.03,96,1626,0.0,3.67,,14.04,1.212,62.8,,41.0,5,,,,,,,,,,,,0,0,0,0,0,0,0,0,0,0,0,0,0,0,0,0,,,,,0.0,,,,,,
98475,0,0.0,,,,,,,,,,,,,,,,,,,,,,0,1,0,0,0.0,0.0,0.0,0.0,2.26,,,0,0,0,0,0,0,0,0,0,0,0,0,0,0,0,0,0,,,,,0.0,0.0,0.0,0,0,0.0
98495,0,,135,,-0.05,0.0,0.97,0,-0,0,0.97,1.03,94,1677,0.0,3.66,,13.94,1.213,62.8,,41.0,5,,,,,,,,,,,,0,0,0,0,0,0,0,0,0,0,0,0,0,0,0,0,,,,,0.0,,,,,,
98515,0,,,,,,,,,,,,,,,,,,,,,,,,,,,,,,,,,,0,0,0,0,0,0,0,0,0,0,0,0,0,0,0,0,,,,,,,,,,,
98535,0,,135,,-0.06,-0.04,0.98,0,-0,0,0.98,1.03,95,1647,0.0,3.65,,13.95,1.215,62.8,,41.0,5,,,,,,,,,,,,0,0,0,0,0,0,0,0,0,0,0,0,0,0,0,0,,,,,0.0,,,,,,
98555,0,,,,,,,,,,,,,,,,,,,,,,,,,,,,,,,,,,0,0,0,0,0,0,0,0,0,0,0,0,0,0,0,0,,,,,,,,,,,
98575,0,0.0,135,,-0.04,-0.05,0.98,0,-0,0,0.98,1.03,95,1655,0.0,3.66,,13.95,1.215,62.8,,40.7,5,0,2,0,0,0.0,0.0,0.0,0.0,2.26,,,0,0,0,0,0,0,0,0,0,0,0,0,0,0,0,0,0,,,,0.0,0.0,0.0,0.0,0,0,0.0
98595,0,,,,,,,,,,,,,,,,,,,,,,,,,,,,,,,,,,0,0,0,0,0,0,0,0,0,0,0,0,0,0,0,0,,,,,,,,,,,
98615,0,,135,,-0.05,-0.04,0.99,0,-0,-0,0.99,1.03,96,1655,0.0,3.66,,14.04,1.204,62.8,,40.7,5,,,,,,,,,,,,0,0,0,0,0,0,0,0,0,0,0,0,0,0,0,0,,,,,0.0,,,,,,
98635,0,,,,,,,,,,,,,,,,,,,,,,,,,,,,,,,,,,0,0,0,0,0,0,0,0,0,0,0,0,0,0,0,0,,,,,,,,,,,
98655,0,,135,,-0.06,-0.02,0.96,1,-0,-0,0.96,1.03,93,1713,0.0,3.65,,14.03,1.201,62.8,,41.5,5,,,,,,,,,,,,0,0,0,0,0,0,0,0,0,0,0,0,0,0,0,0,,,,,0.0,,,,,,
98675,0,0.0,,,,,,,,,,,,,,,,,,,,,,0,4,0,0,0.0,0.0,0.0,0.0,2.26,,,0,0,0,0,0,0,0,0,0,0,0,0,0,0,0,0,0,,,,,0.0,0.0,0.0,0,0,0.0
98695,0,,135,,-0.05,-0.05,0.97,0,-0,-0,0.97,1.03,94,1732,0.0,3.65,,13.99,1.199,62.8,,41.5,5,,,,,,,,,,,,0,0,0,0,0,0,0,0,0,0,0,0,0,0,0,0,,,,,0.0,,,,,,
98715,0,,,,,,,,,,,,,,,,,,,,,,,,,,,,,,,,,,0,0,0,0,0,0,0,0,0,0,0,0,0,0,0,0,,,,,,,,,,,
98735,0,,135,,-0.03,-0.04,0.97,0,-0,-0,0.97,1.03,94,1631,0.0,3.66,,13.94,1.196,62.8,,41.5,5,,,,,,,,,,,,0,0,0,0,0,0,0,0,0,0,0,0,0,0,0,0,,,,,0.0,,,,,,
98755,0,,,,,,,,,,,,,,,,,,,,,,,,,,,,,,,,,,0,0,0,0,0,0,0,0,0,0,0,0,0,0,0,0,,,,,,,,,,,
98775,0,0.0,135,,-0.02,-0.03,1.0,-0,-0,0,1.0,1.03,97,1679,0.0,3.66,,13.94,1.196,62.8,,40.3,5,0,4,0,0,0.0,0.0,0.0,0.0,2.27,,,0,0,0,0,0,0,0,0,0,0,0,0,0,0,0,0,0,,,,0.0,0.0,0.0,0.0,0,0,0.0
98795,0,,,,,,,,,,,,,,,,,,,,,,,,,,,,,,,,,,0,0,0,0,0,0,0,0,0,0,0,0,0,0,0,0,,,,,,,,,,,
98815,0,,135,,-0.04,-0.01,0.98,0,-0,0,0.98,1.03,95,1679,0.0,3.66,,13.92,1.195,62.8,,40.3,5,,,,,,,,,,,,0,0,0,0,0,0,0,0,0,0,0,0,0,0,0,0,,,,,0.0,,,,,,
98835,0,,,,,,,,,,,,,,,,,,,,,,,,,,,,,,,,,,0,0,0,0,0,0,0,0,0,0,0,0,0,0,0,0,,,,,,,,,,,
98855,0,,135,,-0.04,-0.04,0.99,0,-0,0,0.99,1.03,96,1728,0.0,3.66,,13.98,1.192,62.8,,40.4,5,,,,,,,,,,,,0,0,0,0,0,0,0,0,0,0,0,0,0,0,0,0,,,,,0.0,,,,,,
98875,0,0.0,,,,,,,,,,,,,,,,,,,,,,0,4,0,0,0.0,0.0,0.0,0.0,2.27,,,0,0,0,0,0,0,0,0,0,0,0,0,0,0,0,0,0,,,,,0.0,0.0,0.0,0,0,0.0
98895,0,,135,,-0.02,-0.03,0.99,0,-0,0,0.99,1.03,96,1683,0.0,3.64,,14.06,1.194,62.8,,40.4,5,,,,,,,,,,,,0,0,0,0,0,0,0,0,0,0,0,0,0,0,0,0,,,,,0.0,,,,,,
98915,0,,,,,,,,,,,,,,,,,,,,,,,,,,,,,,,,,,0,0,0,0,0,0,0,0,0,0,0,0,0,0,0,0,,,,,,,,,,,
98935,0,,135,,-0.04,-0.02,1.01,0,-0,0,1.01,1.03,98,1637,0.0,3.65,,14.0,1.19,62.8,,40.4,5,,,,,,,,,,,,0,0,0,0,0,0,0,0,0,0,0,0,0,0,0,0,,,,,0.0,,,,,,
98955,0,,,,,,,,,,,,,,,,,,,,,,,,,,,,,,,,,,0,0,0,0,0,0,0,0,0,0,0,0,0,0,0,0,,,,,,,,,,,
98975,0,0.0,135,,-0.05,-0.02,0.99,0,-0,-0,0.99,1.03,96,1685,0.0,3.66,,14.0,1.19,62.8,,39.5,5,0,4,0,0,0.0,0.0,0.0,0.0,2.26,,,0,0,0,0,0,0,0,0,0,0,0,0,0,0,0,0,0,,,,0.0,0.0,0.0,0.0,0,0,0.0
98995,0,,,,,,,,,,,,,,,,,,,,,,,,,,,,,,,,,,0,0,0,0,0,0,0,0,0,0,0,0,0,0,0,0,,,,,,,,,,,
99015,0,,135,,-0.06,-0.02,0.98,0,-0,0,0.99,1.03,96,1685,0.0,3.66,,13.95,1.195,62.8,,39.5,5,,,,,,,,,,,,0,0,0,0,0,0,0,0,0,0,0,0,0,0,0,0,,,,,0.0,,,,,,
99035,0,,,,,,,,,,,,,,,,,,,,,,,,,,,,,,,,,,0,0,0,0,0,0,0,0,0,0,0,0,0,0,0,0,,,,,,,,,,,
99055,0,,135,,-0.04,-0.01,1.0,0,-0,0,1.0,1.03,96,1693,0.0,3.65,,13.94,1.205,62.8,,38.6,5,,,,,,,,,,,,0,0,0,0,0,0,0,0,0,0,0,0,0,0,0,0,,,,,0.0,,,,,,
99075,0,0.0,,,,,,,,,,,,,,,,,,,,,,0,8,0,0,0.0,0.0,0.0,0.0,2.26,,,0,0,0,0,0,0,0,0,0,0,0,0,0,0,0,0,0,,,,,0.0,0.0,0.0,0,0,0.0
99095,0,,135,,-0.03,-0.02,1.0,0,-0,0,1.0,1.03,97,1630,0.0,3.65,,14.06,1.194,62.8,,38.6,5,,,,,,,,,,,,0,0,0,0,0,0,0,0,0,0,0,0,0,0,0,0,,,,,0.0,,,,,,
99115,0,,,,,,,,,,,,,,,,,,,,,,,,,,,,,,,,,,0,0,0,0,0,0,0,0,0,0,0,0,0,0,0,0,,,,,,,,,,,
99135,0,,135,,-0.04,-0.01,1.01,0,-0,-0,1.01,1.03,98,1687,0.0,3.67,,14.04,1.186,62.8,,38.6,5,,,,,,,,,,,,0,0,0,0,0,0,0,0,0,0,0,0,0,0,0,0,,,,,0.0,,,,,,
99155,0,,,,,,,,,,,,,,,,,,,,,,,,,,,,,,,,,,0,0,0,0,0,0,0,0,0,0,0,0,0,0,0,0,,,,,,,,,,,
99175,0,0.0,135,,-0.06,0.0,0.99,0,-0,-0,0.99,1.03,96,1622,0.0,3.66,,14.04,1.186,62.8,,39.0,5,0,8,0,0,0.0,24.0,0.0,0.0,2.26,,,0,0,0,0,0,0,0,0,0,0,0,0,0,0,0,0,0,,,,0.0,0.0,0.0,0.0,0,0,0.0
99195,0,,,,,,,,,,,,,,,,,,,,,,,,,,,,,,,,,,0,0,0,0,0,0,0,0,0,0,0,0,0,0,0,0,,,,,,,,,,,
99215,0,,135,,-0.06,0.03,0.97,0,-0,-0,0.97,1.03,94,1622,0.0,3.66,,13.94,1.192,62.8,,39.0,5,,,,,,,,,,,,0,0,0,0,0,0,0,0,0,0,0,0,0,0,0,0,,,,,0.0,,,,,,
99235,0,,,,,,,,,,,,,,,,,,,,,,,,,,,,,,,,,,0,0,0,0,0,0,0,0,0,0,0,0,0,0,0,0,,,,,,,,,,,
99255,0,,135,,-0.06,0.04,0.96,0,-0,0,0.96,1.03,93,1514,0.0,3.67,,14.08,1.194,62.8,,38.1,5,,,,,,,,,,,,0,0,0,0,0,0,0,0,0,0,0,0,0,0,0,0,,,,,0.0,,,,,,
99275,0,0.0,,,,,,,,,,,,,,,,,,,,,,0,1,0,0,0.0,0.0,0.0,0.0,2.27,,,0,0,0,0,0,0,0,0,0,0,0,0,0,0,0,0,0,,,,,0.0,0.0,0.0,0,0,0.0
99295,0,,135,,-0.07,-0.0,0.97,0,-0,0,0.97,1.03,94,1637,0.0,3.67,,14.06,1.189,62.8,,38.1,5,,,,,,,,,,,,0,0,0,0,0,0,0,0,0,0,0,0,0,0,0,0,,,,,0.0,,,,,,
99315,0,,,,,,,,,,,,,,,,,,,,,,,,,,,,,,,,,,0,0,0,0,0,0,0,0,0,0,0,0,0,0,0,0,,,,,,,,,,,
99335,0,,135,,-0.04,0.01,0.99,0,-0,0,0.99,1.03,96,1581,0.0,3.67,,13.98,1.183,62.8,,38.1,5,,,,,,,,,,,,0,0,0,0,0,0,0,0,0,0,0,0,0,0,0,0,,,,,0.0,,,,,,
99355,0,,,,,,,,,,,,,,,,,,,,,,,,,,,,,,,,,,0,0,0,0,0,0,0,0,0,0,0,0,0,0,0,0,,,,,,,,,,,
99375,0,0.0,135,13.3,-0.03,0.03,1.01,0,-0,0,1.01,1.03,98,1590,0.0,3.68,15,13.98,1.183,62.8,70,37.9,5,0,1,0,0,0.0,0.0,0.0,0.0,2.27,0,0.0,0,0,0,0,0,0,0,0,0,0,0,0,0,0,0,0,0,0.0,0,-0,0.0,0.0,0.0,0.0,0,0,0.0
99395,0,,,,,,,,,,,,,,,,,,,,,,,,,,,,,,,,,,0,0,0,0,0,0,0,0,0,0,0,0,0,0,0,0,,,,,,,,,,,
99415,0,,135,,-0.04,0.02,1.03,0,-0,0,1.03,1.03,99,1590,0.0,3.68,,14.06,1.18,62.8,,37.9,5,,,,,,,,,,,,0,0,0,0,0,0,0,0,0,0,0,0,0,0,0,0,,,,,0.0,,,,,,
99435,0,,,,,,,,,,,,,,,,,,,,,,,,,,,,,,,,,,0,0,0,0,0,0,0,0,0,0,0,0,0,0,0,0,,,,,,,,,,,
99455,0,,135,,-0.06,0.01,1.03,0,-0,-0,1.04,1.04,100,1613,0.0,3.67,,14.04,1.188,62.8,,37.8,5,,,,,,,,,,,,0,0,0,0,0,0,0,0,0,0,0,0,0,0,0,0,,,,,0.0,,,,,,
99475,0,0.0,,,,,,,,,,,,,,,,,,,,,,0,1,0,0,0.0,0.0,0.0,0.0,2.27,,,0,0,0,0,0,0,0,0,0,0,0,0,0,0,0,0,0,,,,,0.0,0.0,0.0,0,0,0.0
99495,0,,135,,-0.08,0.02,1.01,1,-0,-0,1.01,1.04,98,1599,0.0,3.67,,13.98,1.21,62.8,,37.8,5,,,,,,,,,,,,0,0,0,0,0,0,0,0,0,0,0,0,0,0,0,0,,,,,0.0,,,,,,
99515,0,,,,,,,,,,,,,,,,,,,,,,,,,,,,,,,,,,0,0,0,0,0,0,0,0,0,0,0,0,0,0,0,0,,,,,,,,,,,
99535,0,,135,,-0.08,0.0,1.0,0,-0,-0,1.0,1.04,97,1642,0.0,3.67,,14.0,1.207,62.8,,37.8,5,,,,,,,,,,,,0,0,0,0,0,0,0,0,0,0,0,0,0,0,0,0,,,,,0.0,,,,,,
99555,0,,,,,,,,,,,,,,,,,,,,,,,,,,,,,,,,,,0,0,0,0,0,0,0,0,0,0,0,0,0,0,0,0,,,,,,,,,,,
99575,0,0.0,135,,-0.05,0.01,1.0,0,-0,0,1.0,1.04,96,1683,0.0,3.66,,14.0,1.207,62.8,,40.2,5,0,0,0,0,0.0,0.0,0.0,0.0,2.26,,,0,0,0,0,0,0,0,0,0,0,0,0,0,0,0,0,0,,,,0.0,0.0,0.0,0.0,0,0,0.0
99595,0,,,,,,,,,,,,,,,,,,,,,,,,,,,,,,,,,,0,0,0,0,0,0,0,0,0,0,0,0,0,0,0,0,,,,,,,,,,,
99615,0,,135,,-0.05,0.02,1.02,0,-0,0,1.02,1.04,98,1683,0.0,3.66,,14.06,1.189,62.8,,40.2,5,,,,,,,,,,,,0,0,0,0,0,0,0,0,0,0,0,0,0,0,0,0,,,,,0.0,,,,,,
99635,0,,,,,,,,,,,,,,,,,,,,,,,,,,,,,,,,,,0,0,0,0,0,0,0,0,0,0,0,0,0,0,0,0,,,,,,,,,,,
99655,0,,135,,-0.07,0.02,1.01,-0,-0,0,1.02,1.04,98,1645,0.0,3.66,,14.03,1.184,62.8,,39.7,5,,,,,,,,,,,,0,0,0,0,0,0,0,0,0,0,0,0,0,0,0,0,,,,,0.0,,,,,,
99675,0,0.0,,,,,,,,,,,,,,,,,,,,,,0,3,0,0,0.0,0.0,0.0,0.0,2.26,,,0,0,0,0,0,0,0,0,0,0,0,0,0,0,0,0,0,,,,,0.0,0.0,0.0,0,0,0.0
99695,0,,135,,-0.08,0.05,0.99,-0,-0,0,0.99,1.04,96,1645,0.0,3.66,,13.95,1.183,62.8,,39.7,5,,,,,,,,,,,,0,0,0,0,0,0,0,0,0,0,0,0,0,0,0,0,,,,,0.0,,,,,,
99715,0,,,,,,,,,,,,,,,,,,,,,,,,,,,,,,,,,,0,0,0,0,0,0,0,0,0,0,0,0,0,0,0,0,,,,,,,,,,,
99735,0,,135,,-0.07,0.04,0.97,-0,-0,0,0.98,1.04,94,1596,0.0,3.67,,14.04,1.172,62.8,,39.7,5,,,,,,,,,,,,0,0,0,0,0,0,0,0,0,0,0,0,0,0,0,0,,,,,0.0,,,,,,
99755,0,,,,,,,,,,,,,,,,,,,,,,,,,,,,,,,,,,0,0,0,0,0,0,0,0,0,0,0,0,0,0,0,0,,,,,,,,,,,
99775,0,0.0,135,,-0.07,0.01,0.99,-0,-0,0,0.99,1.04,96,1670,0.0,3.67,,14.04,1.172,62.8,,39.1,5,0,3,0,0,0.0,0.0,0.0,0.0,2.26,,,0,0,0,0,0,0,0,0,0,0,0,0,0,0,0,0,0,,,,0.0,0.0,0.0,0.0,0,0,0.0
99795,0,,,,,,,,,,,,,,,,,,,,,,,,,,,,,,,,,,0,0,0,0,0,0,0,0,0,0,0,0,0,0,0,0,,,,,,,,,,,
99815,0,,135,,-0.05,0.01,0.99,-0,-0,0,0.99,1.04,96,1670,0.0,3.67,,14.08,1.164,62.8,,39.1,5,,,,,,,,,,,,0,0,0,0,0,0,0,0,0,0,0,0,0,0,0,0,,,,,0.0,,,,,,
99835,0,,,,,,,,,,,,,,,,,,,,,,,,,,,,,,,,,,0,0,0,0,0,0,0,0,0,0,0,0,0,0,0,0,,,,,,,,,,,
99855,0,,135,,-0.04,0.02,1.01,0,-0,0,1.01,1.04,97,1586,0.0,3.66,,13.99,1.174,62.8,,38.3,5,,,,,,,,,,,,0,0,0,0,0,0,0,0,0,0,0,0,0,0,0,0,,,,,0.0,,,,,,
99875,0,0.0,,,,,,,,,,,,,,,,,,,,,,0,4,0,0,0.0,0.0,0.0,0.0,2.27,,,0,0,0,0,0,0,0,0,0,0,0,0,0,0,0,0,0,,,,,0.0,0.0,0.0,0,0,0.0
99895,0,,135,,-0.06,0.03,1.01,0,-0,0,1.01,1.04,97,1586,0.0,3.67,,14.02,1.18,62.8,,38.3,5,,,,,,,,,,,,0,0,0,0,0,0,0,0,0,0,0,0,0,0,0,0,,,,,0.0,,,,,,
99915,0,,,,,,,,,,,,,,,,,,,,,,,,,,,,,,,,,,0,0,0,0,0,0,0,0,0,0,0,0,0,0,0,0,,,,,,,,,,,
99935,0,,135,,-0.07,0.02,0.98,0,-0,-0,0.98,1.04,95,1659,0.0,3.67,,14.1,1.175,62.8,,38.3,5,,,,,,,,,,,,0,0,0,0,0,0,0,0,0,0,0,0,0,0,0,0,,,,,0.0,,,,,,
99955,0,,,,,,,,,,,,,,,,,,,,,,,,,,,,,,,,,,0,0,0,0,0,0,0,0,0,0,0,0,0,0,0,0,,,,,,,,,,,
99975,0,0.0,135,,-0.07,0.03,0.96,-0,-0,0,0.96,1.04,93,1622,0.0,3.67,,14.1,1.175,62.8,,38.7,5,0,4,0,0,0.0,0.0,0.0,0.0,2.27,,,0,0,0,0,0,0,0,0,0,0,0,0,0,0,0,0,0,,,,0.0,0.0,0.0,0.0,0,0,0.0
99995,0,,,,,,,,,,,,,,,,,,,,,,,,,,,,,,,,,,0,0,0,0,0,0,0,0,0,0,0,0,0,0,0,0,,,,,,,,,,,
100015,0,,135,,-0.07,-0.0,0.98,0,-0,0,0.98,1.04,95,1622,0.0,3.67,,14.04,1.178,62.8,,38.7,5,,,,,,,,,,,,0,0,0,0,0,0,0,0,0,0,0,0,0,0,0,0,,,,,0.0,,,,,,
100035,0,,,,,,,,,,,,,,,,,,,,,,,,,,,,,,,,,,0,0,0,0,0,0,0,0,0,0,0,0,0,0,0,0,,,,,,,,,,,
100055,0,,135,,-0.04,-0.01,0.98,0,-0,0,0.98,1.04,95,1608,0.0,3.67,,13.96,1.169,62.8,,38.5,5,,,,,,,,,,,,0,0,0,0,0,0,0,0,0,0,0,0,0,0,0,0,,,,,0.0,,,,,,
100075,0,0.0,,,,,,,,,,,,,,,,,,,,,,0,1,0,0,0.0,0.0,0.0,0.0,2.26,,,0,0,0,0,0,0,0,0,0,0,0,0,0,0,0,0,0,,,,,0.0,0.0,0.0,0,0,0.0
100095,0,,135,,-0.04,-0.02,1.0,0,-0,0,1.0,1.04,96,1644,0.0,3.67,,14.07,1.156,62.8,,38.5,5,,,,,,,,,,,,0,0,0,0,0,0,0,0,0,0,0,0,0,0,0,0,,,,,0.0,,,,,,
100115,0,,,,,,,,,,,,,,,,,,,,,,,,,,,,,,,,,,0,0,0,0,0,0,0,0,0,0,0,0,0,0,0,0,,,,,,,,,,,
100135,0,,135,,-0.06,-0.02,1.01,-0,-0,0,1.02,1.04,98,1598,0.0,3.67,,14.07,1.166,62.8,,38.5,5,,,,,,,,,,,,0,0,0,0,0,0,0,0,0,0,0,0,0,0,0,0,,,,,0.0,,,,,,
100155,0,,,,,,,,,,,,,,,,,,,,,,,,,,,,,,,,,,0,0,0,0,0,0,0,0,0,0,0,0,0,0,0,0,,,,,,,,,,,
100175,0,0.0,135,,-0.08,-0.03,1.0,0,-0,-0,1.0,1.04,97,1584,0.0,3.67,,14.07,1.166,62.8,,38.1,5,0,1,0,0,0.0,0.0,0.0,0.0,2.26,,,0,0,0,0,0,0,0,0,0,0,0,0,0,0,0,0,0,,,,0.0,0.0,0.0,0.0,0,0,0.0
100195,0,,,,,,,,,,,,,,,,,,,,,,,,,,,,,,,,,,0,0,0,0,0,0,0,0,0,0,0,0,0,0,0,0,,,,,,,,,,,
100215,0,,135,,-0.07,-0.0,0.98,-0,-0,0,0.99,1.04,95,1584,0.0,3.67,,13.99,1.173,62.8,,38.1,5,,,,,,,,,,,,0,0,0,0,0,0,0,0,0,0,0,0,0,0,0,0,,,,,0.0,,,,,,
100235,0,,,,,,,,,,,,,,,,,,,,,,,,,,,,,,,,,,0,0,0,0,0,0,0,0,0,0,0,0,0,0,0,0,,,,,,,,,,,
100255,0,,135,,-0.07,-0.01,0.98,-0,-0,0,0.99,1.04,95,1610,0.0,3.68,,14.04,1.158,62.8,,38.4,5,,,,,,,,,,,,0,0,0,0,0,0,0,0,0,0,0,0,0,0,0,0,,,,,0.0,,,,,,
100275,0,0.0,,,,,,,,,,,,,,,,,,,,,,0,1,0,0,0.0,0.0,0.0,0.0,2.26,,,0,0,0,0,0,0,0,0,0,0,0,0,0,0,0,0,0,,,,,0.0,0.0,0.0,0,0,0.0
100295,0,,135,,-0.07,-0.04,1.0,-0,-0,0,1.0,1.04,97,1593,0.0,3.67,,14.08,1.153,62.8,,38.4,5,,,,,,,,,,,,0,0,0,0,0,0,0,0,0,0,0,0,0,0,0,0,,,,,0.0,,,,,,
100315,0,,,,,,,,,,,,,,,,,,,,,,,,,,,,,,,,,,0,0,0,0,0,0,0,0,0,0,0,0,0,0,0,0,,,,,,,,,,,
100335,0,,135,,-0.04,-0.04,1.01,0,-0,0,1.01,1.04,97,1605,0.0,3.67,,13.96,1.151,62.8,,38.4,5,,,,,,,,,,,,0,0,0,0,0,0,0,0,0,0,0,0,0,0,0,0,,,,,0.0,,,,,,
100355,0,,,,,,,,,,,,,,,,,,,,,,,,,,,,,,,,,,0,0,0,0,0,0,0,0,0,0,0,0,0,0,0,0,,,,,,,,,,,
100375,0,0.0,135,13.33,-0.02,-0.02,1.01,-0,-0,0,1.01,1.04,97,1550,0.0,3.67,15,13.96,1.151,62.8,72,37.2,5,0,1,0,0,0.0,0.0,0.0,0.0,2.27,0,0.0,0,0,0,0,0,0,0,0,0,0,0,0,0,0,0,0,0,0.0,0,0,0.0,0.0,0.0,0.0,0,0,0.0
100395,0,,,,,,,,,,,,,,,,,,,,,,,,,,,,,,,,,,0,0,0,0,0,0,0,0,0,0,0,0,0,0,0,0,,,,,,,,,,,
100415,0,,135,,-0.03,-0.04,1.02,-0,-0,0,1.02,1.04,99,1550,0.0,3.67,,14.1,1.152,62.8,,37.2,5,,,,,,,,,,,,0,0,0,0,0,0,0,0,0,0,0,0,0,0,0,0,,,,,0.0,,,,,,
100435,0,,,,,,,,,,,,,,,,,,,,,,,,,,,,,,,,,,0,0,0,0,0,0,0,0,0,0,0,0,0,0,0,0,,,,,,,,,,,
100455,0,,135,,-0.05,-0.04,1.01,0,-0,-0,1.01,1.04,98,1665,0.0,3.67,,14.07,1.152,62.8,,38.8,5,,,,,,,,,,,,0,0,0,0,0,0,0,0,0,0,0,0,0,0,0,0,,,,,0.0,,,,,,
100475,0,0.0,,,,,,,,,,,,,,,,,,,,,,0,11,0,0,0.0,24.0,0.0,0.0,2.26,,,0,0,0,0,0,0,0,0,0,0,0,0,0,0,0,0,0,,,,,0.0,0.0,0.0,0,0,0.0
100495,0,,135,,-0.06,-0.03,0.99,0,-0,-0,0.99,1.04,96,1607,0.0,3.66,,13.98,1.157,62.8,,38.8,5,,,,,,,,,,,,0,0,0,0,0,0,0,0,0,0,0,0,0,0,0,0,,,,,0.0,,,,,,
100515,0,,,,,,,,,,,,,,,,,,,,,,,,,,,,,,,,,,0,0,0,0,0,0,0,0,0,0,0,0,0,0,0,0,,,,,,,,,,,
100535,0,,135,,-0.05,-0.02,0.97,0,-0,-0,0.97,1.04,94,1558,0.0,3.67,,14.11,1.153,62.8,,38.8,5,,,,,,,,,,,,0,0,0,0,0,0,0,0,0,0,0,0,0,0,0,0,,,,,0.0,,,,,,
100555,0,,,,,,,,,,,,,,,,,,,,,,,,,,,,,,,,,,0,0,0,0,0,0,0,0,0,0,0,0,0,0,0,0,,,,,,,,,,,
100575,0,0.0,135,,-0.05,-0.01,0.95,0,-0,0,0.95,1.04,92,1533,0.0,3.68,,14.11,1.153,62.8,,36.9,5,0,11,0,0,0.0,24.0,0.0,0.0,2.26,,,0,0,0,0,0,0,0,0,0,0,0,0,0,0,0,0,0,,,,0.0,0.0,0.0,0.0,0,0,0.0
100595,0,,,,,,,,,,,,,,,,,,,,,,,,,,,,,,,,,,0,0,0,0,0,0,0,0,0,0,0,0,0,0,0,0,,,,,,,,,,,
100615,0,,135,,-0.05,0.03,0.94,-0,-0,0,0.94,1.04,91,1533,0.0,3.68,,14.02,1.14,62.8,,36.9,5,,,,,,,,,,,,0,0,0,0,0,0,0,0,0,0,0,0,0,0,0,0,,,,,0.0,,,,,,
100635,0,,,,,,,,,,,,,,,,,,,,,,,,,,,,,,,,,,0,0,0,0,0,0,0,0,0,0,0,0,0,0,0,0,,,,,,,,,,,
100655,0,,135,,-0.05,0.04,0.93,-0,-0,0,0.94,1.04,90,1474,0.0,3.69,,14.16,1.148,62.8,,35.9,5,,,,,,,,,,,,0,0,0,0,0,0,0,0,0,0,0,0,0,0,0,0,,,,,0.0,,,,,,
100675,0,0.0,,,,,,,,,,,,,,,,,,,,,,0,1,0,0,0.0,0.0,0.0,0.0,2.26,,,0,0,0,0,0,0,0,0,0,0,0,0,0,0,0,0,0,,,,,0.0,0.0,0.0,0,0,0.0
100695,0,,135,,-0.06,0.04,0.92,-1,-0,1,0.93,1.04,89,1536,0.0,3.71,,14.04,1.153,62.8,,35.9,5,,,,,,,,,,,,0,0,0,0,0,0,0,0,0,0,0,0,0,0,0,0,,,,,0.0,,,,,,
100715,0,,,,,,,,,,,,,,,,,,,,,,,,,,,,,,,,,,0,0,0,0,0,0,0,0,0,0,0,0,0,0,0,0,,,,,,,,,,,
100735,0,,135,,-0.06,0.05,0.92,-1,-1,1,0.92,1.04,89,1517,0.0,3.68,,14.11,1.149,62.8,,35.9,5,,,,,,,,,,,,0,0,0,0,0,0,0,0,0,0,0,0,0,0,0,0,,,,,0.0,,,,,,
100755,0,,,,,,,,,,,,,,,,,,,,,,,,,,,,,,,,,,0,0,0,0,0,0,0,0,0,0,0,0,0,0,0,0,,,,,,,,,,,
100775,0,0.0,135,,-0.06,0.04,0.91,-1,-1,1,0.91,1.04,88,1528,0.0,3.69,,14.11,1.149,62.8,,36.1,5,0,1,0,0,0.0,0.0,0.0,0.0,2.26,,,0,0,0,0,0,0,0,0,0,0,0,0,0,0,0,0,0,,,,0.0,0.0,0.0,0.0,0,0,0.0
100795,0,,,,,,,,,,,,,,,,,,,,,,,,,,,,,,,,,,0,0,0,0,0,0,0,0,0,0,0,0,0,0,0,0,,,,,,,,,,,
100815,0,,135,,-0.06,0.05,0.91,-1,-1,1,0.91,1.04,88,1528,0.0,3.69,,14.07,1.156,62.8,,36.1,5,,,,,,,,,,,,0,0,0,0,0,0,0,0,0,0,0,0,0,0,0,0,,,,,0.0,,,,,,
100835,0,,,,,,,,,,,,,,,,,,,,,,,,,,,,,,,,,,0,0,0,0,0,0,0,0,0,0,0,0,0,0,0,0,,,,,,,,,,,
100855,0,,135,,-0.07,0.0,0.92,-1,-1,1,0.93,1.04,89,1553,0.0,3.69,,14.08,1.166,62.8,,37.3,5,,,,,,,,,,,,0,0,0,0,0,0,0,0,0,0,0,0,0,0,0,0,,,,,0.0,,,,,,
100875,0,0.0,,,,,,,,,,,,,,,,,,,,,,0,1,0,0,0.0,0.0,0.0,0.0,2.27,,,0,0,0,0,0,0,0,0,0,0,0,0,0,0,0,0,0,,,,,0.0,0.0,0.0,0,0,0.0
100895,0,,135,,-0.07,-0.03,0.95,-1,-1,1,0.95,1.04,92,1542,0.0,3.68,,14.1,1.159,62.8,,37.3,5,,,,,,,,,,,,0,0,0,0,0,0,0,0,0,0,0,0,0,0,0,0,,,,,0.0,,,,,,
100915,0,,,,,,,,,,,,,,,,,,,,,,,,,,,,,,,,,,0,0,0,0,0,0,0,0,0,0,0,0,0,0,0,0,,,,,,,,,,,
100935,0,,135,,-0.06,-0.05,0.97,-0,-1,1,0.98,1.04,94,1529,0.0,3.68,,14.03,1.147,62.8,,37.3,5,,,,,,,,,,,,0,0,0,0,0,0,0,0,0,0,0,0,0,0,0,0,,,,,0.0,,,,,,
100955,0,,,,,,,,,,,,,,,,,,,,,,,,,,,,,,,,,,0,0,0,0,0,0,0,0,0,0,0,0,0,0,0,0,,,,,,,,,,,
100975,0,0.0,135,,-0.03,-0.03,0.99,0,-1,0,0.99,1.04,95,1562,0.0,3.68,,14.03,1.147,62.8,,36.9,5,0,1,0,0,0.0,0.0,0.0,0.0,2.27,,,0,0,0,0,0,0,0,0,0,0,0,0,0,0,0,0,0,,,,0.0,0.0,0.0,0.0,0,0,0.0
100995,0,,,,,,,,,,,,,,,,,,,,,,,,,,,,,,,,,,0,0,0,0,0,0,0,0,0,0,0,0,0,0,0,0,,,,,,,,,,,
101015,0,,135,,-0.01,0.0,0.98,-0,-0,0,0.99,1.04,95,1562,0.0,3.68,,14.16,1.154,62.8,,36.9,5,,,,,,,,,,,,0,0,0,0,0,0,0,0,0,0,0,0,0,0,0,0,,,,,0.0,,,,,,
101035,0,,,,,,,,,,,,,,,,,,,,,,,,,,,,,,,,,,0,0,0,0,0,0,0,0,0,0,0,0,0,0,0,0,,,,,,,,,,,
101055,0,,135,,0.01,-0.01,0.98,-0,-0,0,0.98,1.04,95,1545,0.0,3.68,,14.03,1.155,62.8,,36.2,5,,,,,,,,,,,,0,0,0,0,0,0,0,0,0,0,0,0,0,0,0,0,,,,,0.0,,,,,,
101075,0,0.0,,,,,,,,,,,,,,,,,,,,,,0,1,0,0,0.0,0.0,0.0,0.0,2.26,,,0,0,0,0,0,0,0,0,0,0,0,0,0,0,0,0,0,,,,,0.0,0.0,0.0,0,0,0.0
101095,0,,135,,0.01,-0.02,0.98,-0,-0,0,0.98,1.04,95,1519,0.0,3.68,,14.12,1.15,62.8,,36.2,5,,,,,,,,,,,,0,0,0,0,0,0,0,0,0,0,0,0,0,0,0,0,,,,,0.0,,,,,,
101115,0,,,,,,,,,,,,,,,,,,,,,,,,,,,,,,,,,,0,0,0,0,0,0,0,0,0,0,0,0,0,0,0,0,,,,,,,,,,,
101135,0,,135,,-0.0,-0.0,1.01,-0,-0,0,1.01,1.04,98,1573,0.0,3.68,,14.06,1.15,62.8,,36.2,5,,,,,,,,,,,,0,0,0,0,0,0,0,0,0,0,0,0,0,0,0,0,,,,,0.0,,,,,,
101155,0,,,,,,,,,,,,,,,,,,,,,,,,,,,,,,,,,,0,0,0,0,0,0,0,0,0,0,0,0,0,0,0,0,,,,,,,,,,,
101175,0,0.0,135,,-0.03,-0.0,1.04,-0,-0,0,1.04,1.04,100,1556,0.0,3.68,,14.06,1.15,62.8,,36.8,5,0,1,0,0,0.0,0.0,0.0,0.0,2.26,,,0,0,0,0,0,0,0,0,0,0,0,0,0,0,0,0,0,,,,0.0,0.0,0.0,0.0,0,0,0.0
101195,0,,,,,,,,,,,,,,,,,,,,,,,,,,,,,,,,,,0,0,0,0,0,0,0,0,0,0,0,0,0,0,0,0,,,,,,,,,,,
101215,0,,135,,-0.06,-0.03,1.04,-0,-0,0,1.04,1.04,100,1556,0.0,3.68,,14.07,1.16,62.8,,36.8,5,,,,,,,,,,,,0,0,0,0,0,0,0,0,0,0,0,0,0,0,0,0,,,,,0.0,,,,,,
101235,0,,,,,,,,,,,,,,,,,,,,,,,,,,,,,,,,,,0,0,0,0,0,0,0,0,0,0,0,0,0,0,0,0,,,,,,,,,,,
101255,0,,135,,-0.07,-0.03,1.01,0,-0,-0,1.01,1.04,97,1550,0.0,3.68,,14.15,1.15,62.8,,37.7,5,,,,,,,,,,,,0,0,0,0,0,0,0,0,0,0,0,0,0,0,0,0,,,,,0.0,,,,,,
101275,0,0.0,,,,,,,,,,,,,,,,,,,,,,0,1,0,0,0.0,0.0,0.0,0.0,2.26,,,0,0,0,0,0,0,0,0,0,0,0,0,0,0,0,0,0,,,,,0.0,0.0,0.0,0,0,0.0
101295,0,,135,,-0.07,-0.0,0.99,0,-0,0,1.0,1.04,95,1575,0.0,3.68,,13.99,1.133,62.8,,37.7,5,,,,,,,,,,,,0,0,0,0,0,0,0,0,0,0,0,0,0,0,0,0,,,,,0.0,,,,,,
101315,0,,,,,,,,,,,,,,,,,,,,,,,,,,,,,,,,,,0,0,0,0,0,0,0,0,0,0,0,0,0,0,0,0,,,,,,,,,,,
101335,0,,135,,-0.06,0.01,0.97,-0,-0,0,0.97,1.04,93,1538,0.0,3.67,,14.12,1.135,62.8,,37.7,5,,,,,,,,,,,,0,0,0,0,0,0,0,0,0,0,0,0,0,0,0,0,,,,,0.0,,,,,,
101355,0,,,,,,,,,,,,,,,,,,,,,,,,,,,,,,,,,,0,0,0,0,0,0,0,0,0,0,0,0,0,0,0,0,,,,,,,,,,,
101375,0,0.0,135,13.26,-0.06,-0.02,0.96,-0,-0,0,0.96,1.04,92,1561,0.0,3.68,15,14.12,1.135,62.8,72,37.3,5,0,1,0,0,0.0,0.0,0.0,0.0,2.27,0,0.0,0,0,0,0,0,0,0,0,0,0,0,0,0,0,0,0,0,0.0,0,0,0.0,0.0,0.0,0.0,0,0,0.0
101395,0,,,,,,,,,,,,,,,,,,,,,,,,,,,,,,,,,,0,0,0,0,0,0,0,0,0,0,0,0,0,0,0,0,,,,,,,,,,,
101415,0,,135,,-0.06,-0.06,0.98,-0,-0,0,0.98,1.04,94,1561,0.0,3.68,,14.08,1.142,62.8,,37.3,5,,,,,,,,,,,,0,0,0,0,0,0,0,0,0,0,0,0,0,0,0,0,,,,,0.0,,,,,,
101435,0,,,,,,,,,,,,,,,,,,,,,,,,,,,,,,,,,,0,0,0,0,0,0,0,0,0,0,0,0,0,0,0,0,,,,,,,,,,,
101455,0,,135,,-0.03,-0.03,0.99,-0,-0,0,0.99,1.04,95,1586,0.0,3.68,,13.99,1.129,62.8,,37.4,5,,,,,,,,,,,,0,0,0,0,0,0,0,0,0,0,0,0,0,0,0,0,,,,,0.0,,,,,,
101475,0,0.0,,,,,,,,,,,,,,,,,,,,,,0,1,0,0,0.0,0.0,0.0,0.0,2.27,,,0,0,0,0,0,0,0,0,0,0,0,0,0,0,0,0,0,,,,,0.0,0.0,0.0,0,0,0.0
101495,0,,135,,-0.01,0.01,1.0,-0,-0,0,1.0,1.04,96,1518,0.0,3.67,,14.15,1.129,62.8,,37.4,5,,,,,,,,,,,,0,0,0,0,0,0,0,0,0,0,0,0,0,0,0,0,,,,,0.0,,,,,,
101515,0,,,,,,,,,,,,,,,,,,,,,,,,,,,,,,,,,,0,0,0,0,0,0,0,0,0,0,0,0,0,0,0,0,,,,,,,,,,,
101535,0,,135,,0.02,0.02,1.0,-0,-0,0,1.0,1.04,96,1543,0.0,3.69,,14.03,1.132,62.8,,37.4,5,,,,,,,,,,,,0,0,0,0,0,0,0,0,0,0,0,0,0,0,0,0,,,,,0.0,,,,,,
101555,0,,,,,,,,,,,,,,,,,,,,,,,,,,,,,,,,,,0,0,0,0,0,0,0,0,0,0,0,0,0,0,0,0,,,,,,,,,,,
101575,0,0.0,135,,0.02,0.04,0.99,-0,-0,0,0.99,1.04,95,1546,0.0,3.68,,14.03,1.132,62.8,,36.5,5,0,1,0,0,0.0,0.0,0.0,0.0,2.26,,,0,0,0,0,0,0,0,0,0,0,0,0,0,0,0,0,0,,,,0.0,0.0,0.0,0.0,0,0,0.0
101595,0,,,,,,,,,,,,,,,,,,,,,,,,,,,,,,,,,,0,0,0,0,0,0,0,0,0,0,0,0,0,0,0,0,,,,,,,,,,,
101615,0,,135,,0.02,-0.0,0.98,-0,-0,0,0.98,1.04,93,1546,0.0,3.68,,14.14,1.121,62.8,,36.5,5,,,,,,,,,,,,0,0,0,0,0,0,0,0,0,0,0,0,0,0,0,0,,,,,0.0,,,,,,
101635,0,,,,,,,,,,,,,,,,,,,,,,,,,,,,,,,,,,0,0,0,0,0,0,0,0,0,0,0,0,0,0,0,0,,,,,,,,,,,
101655,0,,135,,0.03,-0.01,0.97,-0,-0,0,0.97,1.04,93,1507,0.0,3.68,,14.04,1.115,62.8,,36.3,5,,,,,,,,,,,,0,0,0,0,0,0,0,0,0,0,0,0,0,0,0,0,,,,,0.0,,,,,,
101675,0,0.0,,,,,,,,,,,,,,,,,,,,,,0,1,0,0,0.0,0.0,0.0,0.0,2.26,,,0,0,0,0,0,0,0,0,0,0,0,0,0,0,0,0,0,,,,,0.0,0.0,0.0,0,0,0.0
101695,0,,135,,0.02,-0.02,0.97,0,-0,0,0.97,1.04,93,1543,0.0,3.69,,14.15,1.115,62.8,,36.3,5,,,,,,,,,,,,0,0,0,0,0,0,0,0,0,0,0,0,0,0,0,0,,,,,0.0,,,,,,
101715,0,,,,,,,,,,,,,,,,,,,,,,,,,,,,,,,,,,0,0,0,0,0,0,0,0,0,0,0,0,0,0,0,0,,,,,,,,,,,
101735,0,,135,,0.02,-0.02,0.96,-0,-0,0,0.96,1.04,92,1492,0.0,3.68,,14.03,1.108,62.8,,36.3,5,,,,,,,,,,,,0,0,0,0,0,0,0,0,0,0,0,0,0,0,0,0,,,,,0.0,,,,,,
101755,0,,,,,,,,,,,,,,,,,,,,,,,,,,,,,,,,,,0,0,0,0,0,0,0,0,0,0,0,0,0,0,0,0,,,,,,,,,,,
101775,0,0.0,135,,0.03,-0.03,0.95,-0,-0,0,0.95,1.04,91,1450,0.0,3.69,,14.03,1.108,62.8,,34.6,5,0,1,0,0,0.0,0.0,0.0,0.0,2.26,,,0,0,0,0,0,0,0,0,0,0,0,0,0,0,0,0,0,,,,0.0,0.0,0.0,0.0,0,0,0.0
101795,0,,,,,,,,,,,,,,,,,,,,,,,,,,,,,,,,,,0,0,0,0,0,0,0,0,0,0,0,0,0,0,0,0,,,,,,,,,,,
101815,0,,135,,0.04,-0.03,0.94,-0,-0,0,0.94,1.04,90,1450,0.0,3.69,,14.16,1.098,62.8,,34.6,5,,,,,,,,,,,,0,0,0,0,0,0,0,0,0,0,0,0,0,0,0,0,,,,,0.0,,,,,,
101835,0,,,,,,,,,,,,,,,,,,,,,,,,,,,,,,,,,,0,0,0,0,0,0,0,0,0,0,0,0,0,0,0,0,,,,,,,,,,,
101855,0,,135,,0.05,-0.02,0.95,-0,-0,0,0.95,1.04,91,1495,0.0,3.71,,14.03,1.099,62.8,,35.0,5,,,,,,,,,,,,0,0,0,0,0,0,0,0,0,0,0,0,0,0,0,0,,,,,0.0,,,,,,
101875,0,0.0,,,,,,,,,,,,,,,,,,,,,,0,1,0,0,0.0,0.0,0.0,0.0,2.27,,,0,0,0,0,0,0,0,0,0,0,0,0,0,0,0,0,0,,,,,0.0,0.0,0.0,0,0,0.0
101895,0,,135,,0.04,-0.01,0.97,-0,-0,0,0.97,1.04,93,1439,0.0,3.71,,14.18,1.107,62.8,,35.0,5,,,,,,,,,,,,0,0,0,0,0,0,0,0,0,0,0,0,0,0,0,0,,,,,0.0,,,,,,
101915,0,,,,,,,,,,,,,,,,,,,,,,,,,,,,,,,,,,0,0,0,0,0,0,0,0,0,0,0,0,0,0,0,0,,,,,,,,,,,
101935,0,,135,,0.03,-0.04,0.98,-0,-0,0,0.98,1.04,94,1436,0.0,3.71,,14.11,1.11,62.8,,35.0,5,,,,,,,,,,,,0,0,0,0,0,0,0,0,0,0,0,0,0,0,0,0,,,,,0.0,,,,,,
101955,0,,,,,,,,,,,,,,,,,,,,,,,,,,,,,,,,,,0,0,0,0,0,0,0,0,0,0,0,0,0,0,0,0,,,,,,,,,,,
101975,0,0.0,135,,0.02,-0.05,0.98,-0,-0,0,0.98,1.04,94,1446,0.0,3.71,,14.11,1.11,62.8,,34.4,5,0,1,0,0,0.0,0.0,0.0,0.0,2.27,,,0,0,0,0,0,0,0,0,0,0,0,0,0,0,0,0,0,,,,0.0,0.0,0.0,0.0,0,0,0.0
101995,0,,,,,,,,,,,,,,,,,,,,,,,,,,,,,,,,,,0,0,0,0,0,0,0,0,0,0,0,0,0,0,0,0,,,,,,,,,,,
102015,0,,135,,0.02,-0.03,0.97,-0,-0,0,0.98,1.04,93,1446,0.0,3.71,,14.07,1.109,62.8,,34.4,5,,,,,,,,,,,,0,0,0,0,0,0,0,0,0,0,0,0,0,0,0,0,,,,,0.0,,,,,,
102035,0,,,,,,,,,,,,,,,,,,,,,,,,,,,,,,,,,,0,0,0,0,0,0,0,0,0,0,0,0,0,0,0,0,,,,,,,,,,,
102055,0,,135,,-0.01,-0.02,0.97,0,-0,-0,0.97,1.04,93,1384,0.0,3.71,,14.2,1.112,62.8,,33.8,5,,,,,,,,,,,,0,0,0,0,0,0,0,0,0,0,0,0,0,0,0,0,,,,,0.0,,,,,,
102075,0,0.0,,,,,,,,,,,,,,,,,,,,,,0,1,0,0,0.0,0.0,0.0,0.0,2.26,,,0,0,0,0,0,0,0,0,0,0,0,0,0,0,0,0,0,,,,,0.0,0.0,0.0,0,0,0.0
102095,0,,135,,-0.04,-0.03,0.97,0,-0,-0,0.97,1.04,93,1382,0.0,3.73,,14.07,1.132,62.8,,33.8,5,,,,,,,,,,,,0,0,0,0,0,0,0,0,0,0,0,0,0,0,0,0,,,,,0.0,,,,,,
102115,0,,,,,,,,,,,,,,,,,,,,,,,,,,,,,,,,,,0,0,0,0,0,0,0,0,0,0,0,0,0,0,0,0,,,,,,,,,,,
102135,0,,135,,-0.06,-0.03,0.97,1,-0,-0,0.97,1.04,93,1493,0.0,3.69,,14.15,1.139,62.8,,33.8,5,,,,,,,,,,,,0,0,0,0,0,0,0,0,0,0,0,0,0,0,0,0,,,,,0.0,,,,,,
102155,0,,,,,,,,,,,,,,,,,,,,,,,,,,,,,,,,,,0,0,0,0,0,0,0,0,0,0,0,0,0,0,0,0,,,,,,,,,,,
102175,0,0.0,135,,-0.08,-0.05,0.98,1,-0,-0,0.99,1.04,95,1476,0.0,3.69,,14.15,1.139,62.8,,35.3,5,0,1,0,0,0.0,0.0,0.0,0.0,2.26,,,0,0,0,0,0,0,0,0,0,0,0,0,0,0,0,0,0,,,,0.0,0.0,0.0,0.0,0,0,0.0
102195,0,,,,,,,,,,,,,,,,,,,,,,,,,,,,,,,,,,0,0,0,0,0,0,0,0,0,0,0,0,0,0,0,0,,,,,,,,,,,
102215,0,,135,,-0.11,-0.07,0.97,1,-0,-1,0.98,1.04,94,1476,0.0,3.69,,14.07,1.132,62.8,,35.3,5,,,,,,,,,,,,0,0,0,0,0,0,0,0,0,0,0,0,0,0,0,0,,,,,0.0,,,,,,
102235,0,,,,,,,,,,,,,,,,,,,,,,,,,,,,,,,,,,0,0,0,0,0,0,0,0,0,0,0,0,0,0,0,0,,,,,,,,,,,
102255,0,,135,,-0.1,-0.04,0.95,1,-0,-1,0.96,1.04,92,1492,0.0,3.71,,14.12,1.135,62.8,,37.7,5,,,,,,,,,,,,0,0,0,0,0,0,0,0,0,0,0,0,0,0,0,0,,,,,0.0,,,,,,
102275,0,0.0,,,,,,,,,,,,,,,,,,,,,,0,4,0,0,0.0,0.0,0.0,0.0,2.26,,,0,0,0,0,0,0,0,0,0,0,0,0,0,0,0,0,0,,,,,0.0,0.0,0.0,0,0,0.0
102295,0,,135,,-0.09,-0.03,0.93,1,-0,-0,0.94,1.04,90,1591,0.0,3.67,,14.03,1.139,62.8,,37.7,5,,,,,,,,,,,,0,0,0,0,0,0,0,0,0,0,0,0,0,0,0,0,,,,,0.0,,,,,,
102315,0,,,,,,,,,,,,,,,,,,,,,,,,,,,,,,,,,,0,0,0,0,0,0,0,0,0,0,0,0,0,0,0,0,,,,,,,,,,,
102335,0,,135,,-0.09,-0.05,0.93,0,-0,-0,0.94,1.04,90,1593,0.0,3.67,,14.07,1.143,62.8,,37.7,5,,,,,,,,,,,,0,0,0,0,0,0,0,0,0,0,0,0,0,0,0,0,,,,,0.0,,,,,,
102355,0,,,,,,,,,,,,,,,,,,,,,,,,,,,,,,,,,,0,0,0,0,0,0,0,0,0,0,0,0,0,0,0,0,,,,,,,,,,,
102375,0,0.0,135,13.3,-0.08,-0.08,0.95,1,-0,-0,0.96,1.04,92,1579,0.0,3.67,15,14.07,1.143,62.8,72,38.4,5,0,2,0,0,0.0,0.0,0.0,0.0,2.26,0,0.0,0,0,0,0,0,0,0,0,0,0,0,0,0,0,0,0,0,0.0,0,0,0.0,0.0,0.0,0.0,0,0,0.0
102395,0,,,,,,,,,,,,,,,,,,,,,,,,,,,,,,,,,,0,0,0,0,0,0,0,0,0,0,0,0,0,0,0,0,,,,,,,,,,,
102415,0,,135,,-0.05,-0.06,0.96,0,-0,-0,0.97,1.04,92,1579,0.0,3.67,,14.11,1.129,62.8,,38.4,5,,,,,,,,,,,,0,0,0,0,0,0,0,0,0,0,0,0,0,0,0,0,,,,,0.0,,,,,,
102435,0,,,,,,,,,,,,,,,,,,,,,,,,,,,,,,,,,,0,0,0,0,0,0,0,0,0,0,0,0,0,0,0,0,,,,,,,,,,,
102455,0,,135,,-0.05,-0.05,0.97,0,-0,-0,0.98,1.04,94,1607,0.0,3.67,,13.99,1.119,62.8,,38.1,5,,,,,,,,,,,,0,0,0,0,0,0,0,0,0,0,0,0,0,0,0,0,,,,,0.0,,,,,,
102475,0,0.0,,,,,,,,,,,,,,,,,,,,,,0,7,0,0,0.0,24.0,0.0,0.0,2.27,,,0,0,0,0,0,0,0,0,0,0,0,0,0,0,0,0,0,,,,,0.0,0.0,0.0,0,0,0.0
102495,0,,135,,-0.06,-0.03,0.99,0,-0,-0,1.0,1.04,95,1560,0.0,3.67,,14.1,1.126,62.8,,38.1,5,,,,,,,,,,,,0,0,0,0,0,0,0,0,0,0,0,0,0,0,0,0,,,,,0.0,,,,,,
102515,0,,,,,,,,,,,,,,,,,,,,,,,,,,,,,,,,,,0,0,0,0,0,0,0,0,0,0,0,0,0,0,0,0,,,,,,,,,,,
102535,0,,135,,-0.08,-0.01,0.99,0,-0,-0,0.99,1.04,95,1621,0.0,3.68,,14.11,1.118,62.8,,38.1,5,,,,,,,,,,,,0,0,0,0,0,0,0,0,0,0,0,0,0,0,0,0,,,,,0.0,,,,,,
102555,0,,,,,,,,,,,,,,,,,,,,,,,,,,,,,,,,,,0,0,0,0,0,0,0,0,0,0,0,0,0,0,0,0,,,,,,,,,,,
102575,0,0.0,135,,-0.09,-0.01,0.97,1,-0,-0,0.98,1.04,94,1605,0.0,3.67,,14.11,1.118,62.8,,38.2,5,0,7,0,0,0.0,24.0,0.0,0.0,2.27,,,0,0,0,0,0,0,0,0,0,0,0,0,0,0,0,0,0,,,,0.0,0.0,0.0,0.0,0,0,0.0
102595,0,,,,,,,,,,,,,,,,,,,,,,,,,,,,,,,,,,0,0,0,0,0,0,0,0,0,0,0,0,0,0,0,0,,,,,,,,,,,
102615,0,,135,,-0.1,-0.0,0.96,1,-0,-1,0.97,1.04,93,1605,0.0,3.67,,14.02,1.106,62.8,,38.2,5,,,,,,,,,,,,0,0,0,0,0,0,0,0,0,0,0,0,0,0,0,0,,,,,0.0,,,,,,
102635,0,,,,,,,,,,,,,,,,,,,,,,,,,,,,,,,,,,0,0,0,0,0,0,0,0,0,0,0,0,0,0,0,0,,,,,,,,,,,
102655,0,,135,,-0.1,0.01,0.94,1,-0,-1,0.95,1.04,91,1508,0.0,3.71,,14.16,1.103,62.8,,37.6,5,,,,,,,,,,,,0,0,0,0,0,0,0,0,0,0,0,0,0,0,0,0,,,,,0.0,,,,,,
102675,0,0.0,,,,,,,,,,,,,,,,,,,,,,0,7,0,0,0.0,24.0,0.0,0.0,2.26,,,0,0,0,0,0,0,0,0,0,0,0,0,0,0,0,0,0,,,,,0.0,0.0,0.0,0,0,0.0
102695,0,,135,,-0.09,0.02,0.93,0,-0,-0,0.93,1.04,89,1598,0.0,3.69,,14.02,1.102,62.8,,37.6,5,,,,,,,,,,,,0,0,0,0,0,0,0,0,0,0,0,0,0,0,0,0,,,,,0.0,,,,,,
102715,0,,,,,,,,,,,,,,,,,,,,,,,,,,,,,,,,,,0,0,0,0,0,0,0,0,0,0,0,0,0,0,0,0,,,,,,,,,,,
102735,0,,135,,-0.08,0.03,0.93,0,-0,0,0.93,1.04,89,1555,0.0,3.67,,14.12,1.096,62.8,,37.6,5,,,,,,,,,,,,0,0,0,0,0,0,0,0,0,0,0,0,0,0,0,0,,,,,0.0,,,,,,
102755,0,,,,,,,,,,,,,,,,,,,,,,,,,,,,,,,,,,0,0,0,0,0,0,0,0,0,0,0,0,0,0,0,0,,,,,,,,,,,
102775,0,0.0,135,,-0.08,0.03,0.91,0,-0,0,0.92,1.04,88,1533,0.0,3.69,,14.12,1.096,62.8,,36.9,5,0,7,0,0,0.0,24.0,0.0,0.0,2.26,,,0,0,0,0,0,0,0,0,0,0,0,0,0,0,0,0,0,,,,0.0,0.0,0.0,0.0,0,0,0.0
102795,0,,,,,,,,,,,,,,,,,,,,,,,,,,,,,,,,,,0,0,0,0,0,0,0,0,0,0,0,0,0,0,0,0,,,,,,,,,,,
102815,0,,135,,-0.08,0.04,0.91,-0,-0,0,0.92,1.04,88,1533,0.0,3.69,,14.04,1.091,62.8,,36.9,5,,,,,,,,,,,,0,0,0,0,0,0,0,0,0,0,0,0,0,0,0,0,,,,,0.0,,,,,,
102835,0,,,,,,,,,,,,,,,,,,,,,,,,,,,,,,,,,,0,0,0,0,0,0,0,0,0,0,0,0,0,0,0,0,,,,,,,,,,,
102855,0,,135,,-0.07,0.05,0.91,-0,-0,1,0.91,1.04,87,1485,0.0,3.68,,14.16,1.092,62.8,,35.5,5,,,,,,,,,,,,0,0,0,0,0,0,0,0,0,0,0,0,0,0,0,0,,,,,0.0,,,,,,
102875,0,0.0,,,,,,,,,,,,,,,,,,,,,,0,7,0,0,0.0,24.0,0.0,0.0,2.26,,,0,0,0,0,0,0,0,0,0,0,0,0,0,0,0,0,0,,,,,0.0,0.0,0.0,0,0,0.0
102895,0,,135,,-0.06,0.07,0.9,-0,-0,1,0.91,1.04,87,1476,0.0,3.69,,14.06,1.083,62.8,,35.5,5,,,,,,,,,,,,0,0,0,0,0,0,0,0,0,0,0,0,0,0,0,0,,,,,0.0,,,,,,
102915,0,,,,,,,,,,,,,,,,,,,,,,,,,,,,,,,,,,0,0,0,0,0,0,0,0,0,0,0,0,0,0,0,0,,,,,,,,,,,
102935,0,,135,,-0.06,0.06,0.89,-0,-0,1,0.9,1.04,86,1494,0.0,3.71,,14.16,1.088,62.8,,35.5,5,,,,,,,,,,,,0,0,0,0,0,0,0,0,0,0,0,0,0,0,0,0,,,,,0.0,,,,,,
102955,0,,,,,,,,,,,,,,,,,,,,,,,,,,,,,,,,,,0,0,0,0,0,0,0,0,0,0,0,0,0,0,0,0,,,,,,,,,,,
102975,0,0.0,135,,-0.08,0.07,0.89,-0,-0,0,0.89,1.04,85,1447,0.0,3.69,,14.16,1.088,62.8,,35.0,5,0,7,0,0,0.0,24.0,0.0,0.0,2.26,,,0,0,0,0,0,0,0,0,0,0,0,0,0,0,0,0,0,,,,0.0,0.0,0.0,0.0,0,0,0.0
102995,0,,,,,,,,,,,,,,,,,,,,,,,,,,,,,,,,,,0,0,0,0,0,0,0,0,0,0,0,0,0,0,0,0,,,,,,,,,,,
103015,0,,135,,-0.1,0.04,0.91,-0,-0,0,0.92,1.04,88,1447,0.0,3.69,,14.07,1.099,62.8,,35.0,5,,,,,,,,,,,,0,0,0,0,0,0,0,0,0,0,0,0,0,0,0,0,,,,,0.0,,,,,,
103035,0,,,,,,,,,,,,,,,,,,,,,,,,,,,,,,,,,,0,0,0,0,0,0,0,0,0,0,0,0,0,0,0,0,,,,,,,,,,,
103055,0,,135,,-0.12,0.02,0.92,0,-0,0,0.93,1.04,89,1487,0.0,3.72,,14.16,1.108,62.8,,35.6,5,,,,,,,,,,,,0,0,0,0,0,0,0,0,0,0,0,0,0,0,0,0,,,,,0.0,,,,,,
103075,0,0.0,,,,,,,,,,,,,,,,,,,,,,0,7,0,0,0.0,24.0,0.0,0.0,2.27,,,0,0,0,0,0,0,0,0,0,0,0,0,0,0,0,0,0,,,,,0.0,0.0,0.0,0,0,0.0
103095,0,,135,,-0.12,-0.0,0.95,0,-0,0,0.96,1.04,92,1503,0.0,3.69,,14.08,1.109,62.8,,35.6,5,,,,,,,,,,,,0,0,0,0,0,0,0,0,0,0,0,0,0,0,0,0,,,,,0.0,,,,,,
103115,0,,,,,,,,,,,,,,,,,,,,,,,,,,,,,,,,,,0,0,0,0,0,0,0,0,0,0,0,0,0,0,0,0,,,,,,,,,,,
103135,0,,135,,-0.12,0.02,0.98,0,-0,0,0.99,1.04,94,1395,0.0,3.69,,14.07,1.109,62.8,,35.6,5,,,,,,,,,,,,0,0,0,0,0,0,0,0,0,0,0,0,0,0,0,0,,,,,0.0,,,,,,
103155,0,,,,,,,,,,,,,,,,,,,,,,,,,,,,,,,,,,0,0,0,0,0,0,0,0,0,0,0,0,0,0,0,0,,,,,,,,,,,
103175,0,0.0,135,,-0.11,0.06,1.0,-0,-0,0,1.0,1.04,96,1413,0.0,3.73,,14.07,1.109,62.8,,33.7,5,0,10,0,0,0.0,0.0,0.0,0.0,2.26,,,0,0,0,0,0,0,0,0,0,0,0,0,0,0,0,0,0,,,,0.0,0.0,0.0,0.0,0,0,0.0
103195,0,,,,,,,,,,,,,,,,,,,,,,,,,,,,,,,,,,0,0,0,0,0,0,0,0,0,0,0,0,0,0,0,0,,,,,,,,,,,
103215,0,,135,,-0.12,0.07,1.02,-0,-0,0,1.03,1.04,99,1413,0.0,3.73,,14.14,1.112,62.8,,33.7,5,,,,,,,,,,,,0,0,0,0,0,0,0,0,0,0,0,0,0,0,0,0,,,,,0.0,,,,,,
103235,0,,,,,,,,,,,,,,,,,,,,,,,,,,,,,,,,,,0,0,0,0,0,0,0,0,0,0,0,0,0,0,0,0,,,,,,,,,,,
103255,0,,135,,-0.14,0.05,1.05,-0,-0,0,1.06,1.06,100,1555,0.0,3.68,,14.1,1.122,62.8,,36.5,5,,,,,,,,,,,,0,0,0,0,0,0,0,0,0,0,0,0,0,0,0,0,,,,,0.0,,,,,,
103275,0,0.0,,,,,,,,,,,,,,,,,,,,,,0,9,0,0,0.0,24.0,0.0,0.0,2.26,,,0,0,0,0,0,0,0,0,0,0,0,0,0,0,0,0,0,,,,,0.0,0.0,0.0,0,0,0.0
103295,0,,135,,-0.14,0.02,1.07,-1,-0,0,1.08,1.08,100,1503,0.0,3.68,,14.11,1.111,62.8,,36.5,5,,,,,,,,,,,,0,0,0,0,0,0,0,0,0,0,0,0,0,0,0,0,,,,,0.0,,,,,,
103315,0,,,,,,,,,,,,,,,,,,,,,,,,,,,,,,,,,,0,0,0,0,0,0,0,0,0,0,0,0,0,0,0,0,,,,,,,,,,,
103335,0,,135,,-0.15,0.04,1.07,-1,-0,0,1.08,1.08,100,1489,0.0,3.69,,14.1,1.11,62.8,,36.5,5,,,,,,,,,,,,0,0,0,0,0,0,0,0,0,0,0,0,0,0,0,0,,,,,0.0,,,,,,
103355,0,,,,,,,,,,,,,,,,,,,,,,,,,,,,,,,,,,0,0,0,0,0,0,0,0,0,0,0,0,0,0,0,0,,,,,,,,,,,
103375,0,0.0,135,13.31,-0.16,0.02,1.07,-0,-0,0,1.08,1.08,100,1547,0.0,3.69,15,14.1,1.11,62.8,74,36.6,5,0,9,0,0,0.0,24.0,0.0,0.0,2.26,0,0.0,0,0,0,0,0,0,0,0,0,0,0,0,0,0,0,0,0,0.0,0,0,0.0,0.0,0.0,0.0,0,0,0.0
103395,0,,,,,,,,,,,,,,,,,,,,,,,,,,,,,,,,,,0,0,0,0,0,0,0,0,0,0,0,0,0,0,0,0,,,,,,,,,,,
103415,0,,135,,-0.17,0.01,1.09,-0,-0,0,1.11,1.11,100,1547,0.0,3.69,,14.07,1.109,62.8,,36.6,5,,,,,,,,,,,,0,0,0,0,0,0,0,0,0,0,0,0,0,0,0,0,,,,,0.0,,,,,,
103435,0,,,,,,,,,,,,,,,,,,,,,,,,,,,,,,,,,,0,0,0,0,0,0,0,0,0,0,0,0,0,0,0,0,,,,,,,,,,,
103455,0,,135,,-0.17,-0.01,1.1,-0,-0,-0,1.12,1.12,100,1492,0.0,3.69,,14.12,1.11,62.8,,36.2,5,,,,,,,,,,,,0,0,0,0,0,0,0,0,0,0,0,0,0,0,0,0,,,,,0.0,,,,,,
103475,0,0.0,,,,,,,,,,,,,,,,,,,,,,0,9,0,0,0.0,24.0,0.0,0.0,2.27,,,0,0,0,0,0,0,0,0,0,0,0,0,0,0,0,0,0,,,,,0.0,0.0,0.0,0,0,0.0
103495,0,,135,,-0.16,0.01,1.11,-1,-0,0,1.13,1.13,100,1495,0.0,3.69,,14.14,1.106,62.8,,36.2,5,,,,,,,,,,,,0,0,0,0,0,0,0,0,0,0,0,0,0,0,0,0,,,,,0.0,,,,,,
103515,0,,,,,,,,,,,,,,,,,,,,,,,,,,,,,,,,,,0,0,0,0,0,0,0,0,0,0,0,0,0,0,0,0,,,,,,,,,,,
103535,0,,135,,-0.13,0.01,1.09,-0,-0,0,1.09,1.13,97,1391,0.0,3.69,,14.06,1.1,62.8,,36.2,5,,,,,,,,,,,,0,0,0,0,0,0,0,0,0,0,0,0,0,0,0,0,,,,,0.0,,,,,,
103555,0,,,,,,,,,,,,,,,,,,,,,,,,,,,,,,,,,,0,0,0,0,0,0,0,0,0,0,0,0,0,0,0,0,,,,,,,,,,,
103575,0,0.0,135,,-0.09,0.04,1.08,-1,-0,0,1.08,1.13,96,1418,0.0,3.73,,14.06,1.1,62.8,,33.9,5,0,9,0,0,0.0,24.0,0.0,0.0,2.26,,,0,0,0,0,0,0,0,0,0,0,0,0,0,0,0,0,0,,,,0.0,0.0,0.0,0.0,0,0,0.0
103595,0,,,,,,,,,,,,,,,,,,,,,,,,,,,,,,,,,,0,0,0,0,0,0,0,0,0,0,0,0,0,0,0,0,,,,,,,,,,,
103615,0,,135,,-0.06,0.04,1.06,-1,-0,0,1.06,1.13,94,1418,0.0,3.73,,14.18,1.106,62.8,,33.9,5,,,,,,,,,,,,0,0,0,0,0,0,0,0,0,0,0,0,0,0,0,0,,,,,0.0,,,,,,
103635,0,,,,,,,,,,,,,,,,,,,,,,,,,,,,,,,,,,0,0,0,0,0,0,0,0,0,0,0,0,0,0,0,0,,,,,,,,,,,
103655,0,,135,,-0.04,0.04,1.04,-1,-0,0,1.04,1.13,93,1520,0.0,3.72,,14.04,1.106,62.8,,35.2,5,,,,,,,,,,,,0,0,0,0,0,0,0,0,0,0,0,0,0,0,0,0,,,,,0.0,,,,,,
103675,0,0.0,,,,,,,,,,,,,,,,,,,,,,0,9,0,0,0.0,24.0,0.0,0.0,2.26,,,0,0,0,0,0,0,0,0,0,0,0,0,0,0,0,0,0,,,,,0.0,0.0,0.0,0,0,0.0
103695,0,,135,,-0.05,0.04,1.05,-0,-0,0,1.05,1.13,93,1386,0.0,3.69,,14.16,1.097,62.8,,35.2,5,,,,,,,,,,,,0,0,0,0,0,0,0,0,0,0,0,0,0,0,0,0,,,,,0.0,,,,,,
103715,0,,,,,,,,,,,,,,,,,,,,,,,,,,,,,,,,,,0,0,0,0,0,0,0,0,0,0,0,0,0,0,0,0,,,,,,,,,,,
103735,0,,135,,-0.03,-0.01,1.06,0,-0,-0,1.07,1.13,95,1493,0.0,3.72,,14.06,1.104,62.8,,35.2,5,,,,,,,,,,,,0,0,0,0,0,0,0,0,0,0,0,0,0,0,0,0,,,,,0.0,,,,,,
103755,0,,,,,,,,,,,,,,,,,,,,,,,,,,,,,,,,,,0,0,0,0,0,0,0,0,0,0,0,0,0,0,0,0,,,,,,,,,,,
103775,0,0.0,135,,-0.02,0.0,1.06,0,-0,-0,1.06,1.13,95,1574,0.0,3.69,,14.06,1.104,62.8,,36.9,5,0,9,0,0,0.0,24.0,0.0,0.0,2.26,,,0,0,0,0,0,0,0,0,0,0,0,0,0,0,0,0,0,,,,0.0,0.0,0.0,0.0,0,0,0.0
103795,0,,,,,,,,,,,,,,,,,,,,,,,,,,,,,,,,,,0,0,0,0,0,0,0,0,0,0,0,0,0,0,0,0,,,,,,,,,,,
103815,0,,135,,-0.02,-0.0,1.07,0,-0,-0,1.07,1.13,95,1574,0.0,3.69,,14.15,1.11,62.8,,36.9,5,,,,,,,,,,,,0,0,0,0,0,0,0,0,0,0,0,0,0,0,0,0,,,,,0.0,,,,,,
103835,0,,,,,,,,,,,,,,,,,,,,,,,,,,,,,,,,,,0,0,0,0,0,0,0,0,0,0,0,0,0,0,0,0,,,,,,,,,,,
103855,0,,135,,-0.02,-0.03,1.06,0,-0,-0,1.06,1.13,94,1456,0.0,3.68,,14.1,1.108,62.8,,35.2,5,,,,,,,,,,,,0,0,0,0,0,0,0,0,0,0,0,0,0,0,0,0,,,,,0.0,,,,,,
103875,0,0.0,,,,,,,,,,,,,,,,,,,,,,0,9,0,0,0.0,24.0,0.0,0.0,2.26,,,0,0,0,0,0,0,0,0,0,0,0,0,0,0,0,0,0,,,,,0.0,0.0,0.0,0,0,0.0
103895,0,,135,,-0.03,-0.07,1.06,0,-0,-0,1.06,1.13,94,1502,0.0,3.72,,14.14,1.104,62.8,,35.2,5,,,,,,,,,,,,0,0,0,0,0,0,0,0,0,0,0,0,0,0,0,0,,,,,0.0,,,,,,
103915,0,,,,,,,,,,,,,,,,,,,,,,,,,,,,,,,,,,0,0,0,0,0,0,0,0,0,0,0,0,0,0,0,0,,,,,,,,,,,
103935,0,,135,,-0.03,-0.07,1.06,0,-0,-0,1.06,1.13,94,1482,0.0,3.69,,14.14,1.104,62.8,,35.2,5,,,,,,,,,,,,0,0,0,0,0,0,0,0,0,0,0,0,0,0,0,0,,,,,0.0,,,,,,
103955,0,,,,,,,,,,,,,,,,,,,,,,,,,,,,,,,,,,0,0,0,0,0,0,0,0,0,0,0,0,0,0,0,0,,,,,,,,,,,
103975,0,0.0,135,,-0.03,-0.04,1.04,0,-0,0,1.04,1.13,92,1386,0.0,3.69,,14.14,1.104,62.8,,34.1,5,0,0,0,0,0.0,24.0,0.0,0.0,2.26,,,0,0,0,0,0,0,0,0,0,0,0,0,0,0,0,0,0,,,,0.0,0.0,0.0,0.0,0,0,0.0
103995,0,,,,,,,,,,,,,,,,,,,,,,,,,,,,,,,,,,0,0,0,0,0,0,0,0,0,0,0,0,0,0,0,0,,,,,,,,,,,
104015,0,,135,,-0.03,-0.01,1.01,-0,-0,0,1.01,1.13,90,1386,0.0,3.69,,14.06,1.104,62.8,,34.1,5,,,,,,,,,,,,0,0,0,0,0,0,0,0,0,0,0,0,0,0,0,0,,,,,0.0,,,,,,
104035,0,,,,,,,,,,,,,,,,,,,,,,,,,,,,,,,,,,0,0,0,0,0,0,0,0,0,0,0,0,0,0,0,0,,,,,,,,,,,
104055,0,,135,,-0.02,0.02,0.99,-0,-0,1,0.99,1.13,88,1494,0.0,3.72,,14.16,1.098,62.8,,36.1,5,,,,,,,,,,,,0,0,0,0,0,0,0,0,0,0,0,0,0,0,0,0,,,,,0.0,,,,,,
104075,0,0.0,,,,,,,,,,,,,,,,,,,,,,0,0,0,0,0.0,0.0,0.0,0.0,2.26,,,0,0,0,0,0,0,0,0,0,0,0,0,0,0,0,0,0,,,,,0.0,0.0,0.0,0,0,0.0
104095,0,,135,,-0.04,0.0,0.98,-0,-0,1,0.98,1.13,87,1520,0.0,3.69,,14.03,1.092,62.8,,36.1,5,,,,,,,,,,,,0,0,0,0,0,0,0,0,0,0,0,0,0,0,0,0,,,,,0.0,,,,,,
104115,0,,,,,,,,,,,,,,,,,,,,,,,,,,,,,,,,,,0,0,0,0,0,0,0,0,0,0,0,0,0,0,0,0,,,,,,,,,,,
104135,0,,135,,-0.06,0.0,0.97,-0,-0,0,0.97,1.13,86,1432,0.0,3.72,,14.19,1.092,62.8,,36.1,5,,,,,,,,,,,,0,0,0,0,0,0,0,0,0,0,0,0,0,0,0,0,,,,,0.0,,,,,,
104155,0,,,,,,,,,,,,,,,,,,,,,,,,,,,,,,,,,,0,0,0,0,0,0,0,0,0,0,0,0,0,0,0,0,,,,,,,,,,,
104175,0,0.0,135,,-0.08,0.01,0.95,0,-0,0,0.96,1.13,85,1545,0.0,3.72,,14.19,1.092,62.8,,35.6,5,0,0,0,0,0.0,0.0,0.0,0.0,2.26,,,0,0,0,0,0,0,0,0,0,0,0,0,0,0,0,0,0,,,,0.0,0.0,0.0,0.0,0,0,0.0
104195,0,,,,,,,,,,,,,,,,,,,,,,,,,,,,,,,,,,0,0,0,0,0,0,0,0,0,0,0,0,0,0,0,0,,,,,,,,,,,
104215,0,,135,,-0.08,0.02,0.95,0,-0,0,0.95,1.13,84,1545,0.0,3.72,,14.06,1.096,62.8,,35.6,5,,,,,,,,,,,,0,0,0,0,0,0,0,0,0,0,0,0,0,0,0,0,,,,,0.0,,,,,,
104235,0,,,,,,,,,,,,,,,,,,,,,,,,,,,,,,,,,,0,0,0,0,0,0,0,0,0,0,0,0,0,0,0,0,,,,,,,,,,,
104255,0,,135,,-0.1,0.0,0.95,0,-0,0,0.95,1.13,85,1499,0.0,3.68,,14.16,1.09,62.8,,35.0,5,,,,,,,,,,,,0,0,0,0,0,0,0,0,0,0,0,0,0,0,0,0,,,,,0.0,,,,,,
104275,0,0.0,,,,,,,,,,,,,,,,,,,,,,0,0,0,0,0.0,0.0,0.0,0.0,2.26,,,0,0,0,0,0,0,0,0,0,0,0,0,0,0,0,0,0,,,,,0.0,0.0,0.0,0,0,0.0
104295,0,,135,,-0.12,-0.01,0.94,1,-0,-0,0.95,1.13,84,1439,0.0,3.69,,14.06,1.086,62.8,,35.0,5,,,,,,,,,,,,0,0,0,0,0,0,0,0,0,0,0,0,0,0,0,0,,,,,0.0,,,,,,
104315,0,,,,,,,,,,,,,,,,,,,,,,,,,,,,,,,,,,0,0,0,0,0,0,0,0,0,0,0,0,0,0,0,0,,,,,,,,,,,
104335,0,,135,,-0.12,-0.01,0.94,1,-0,-0,0.94,1.13,84,1553,0.0,3.69,,14.15,1.091,62.8,,35.0,5,,,,,,,,,,,,0,0,0,0,0,0,0,0,0,0,0,0,0,0,0,0,,,,,0.0,,,,,,
104355,0,,,,,,,,,,,,,,,,,,,,,,,,,,,,,,,,,,0,0,0,0,0,0,0,0,0,0,0,0,0,0,0,0,,,,,,,,,,,
104375,0,0.0,135,13.34,-0.13,-0.03,0.94,1,-0,-0,0.95,1.13,84,1428,0.0,3.68,15,14.15,1.091,62.8,74,35.4,5,0,0,0,0,0.0,0.0,0.0,0.0,2.26,0,0.0,0,0,0,0,0,0,0,0,0,0,0,0,0,0,0,0,0,0.0,0,0,0.0,0.0,0.0,0.0,0,0,0.0
104395,0,,,,,,,,,,,,,,,,,,,,,,,,,,,,,,,,,,0,0,0,0,0,0,0,0,0,0,0,0,0,0,0,0,,,,,,,,,,,
104415,0,,135,,-0.14,-0.05,0.95,1,-0,-0,0.96,1.13,85,1428,0.0,3.68,,14.06,1.094,62.8,,35.4,5,,,,,,,,,,,,0,0,0,0,0,0,0,0,0,0,0,0,0,0,0,0,,,,,0.0,,,,,,
104435,0,,,,,,,,,,,,,,,,,,,,,,,,,,,,,,,,,,0,0,0,0,0,0,0,0,0,0,0,0,0,0,0,0,,,,,,,,,,,
104455,0,,135,,-0.15,-0.05,0.96,1,-0,-1,0.97,1.13,86,1517,0.0,3.71,,14.18,1.088,62.8,,35.4,5,,,,,,,,,,,,0,0,0,0,0,0,0,0,0,0,0,0,0,0,0,0,,,,,0.0,,,,,,
104475,0,0.0,,,,,,,,,,,,,,,,,,,,,,0,0,0,0,0.0,0.0,0.0,0.0,2.26,,,0,0,0,0,0,0,0,0,0,0,0,0,0,0,0,0,0,,,,,0.0,0.0,0.0,0,0,0.0
104495,0,,135,,-0.14,-0.07,0.98,1,-0,-0,1.0,1.13,88,1502,0.0,3.69,,14.12,1.081,62.8,,35.4,5,,,,,,,,,,,,0,0,0,0,0,0,0,0,0,0,0,0,0,0,0,0,,,,,0.0,,,,,,
104515,0,,,,,,,,,,,,,,,,,,,,,,,,,,,,,,,,,,0,0,0,0,0,0,0,0,0,0,0,0,0,0,0,0,,,,,,,,,,,
104535,0,,135,,-0.13,-0.07,0.99,1,-0,-1,1.0,1.13,88,1408,0.0,3.73,,14.08,1.084,62.8,,35.4,5,,,,,,,,,,,,0,0,0,0,0,0,0,0,0,0,0,0,0,0,0,0,,,,,0.0,,,,,,
104555,0,,,,,,,,,,,,,,,,,,,,,,,,,,,,,,,,,,0,0,0,0,0,0,0,0,0,0,0,0,0,0,0,0,,,,,,,,,,,
104575,0,0.0,135,,-0.11,-0.05,0.97,1,-0,-0,0.98,1.13,87,1525,0.0,3.72,,14.08,1.084,62.8,,34.7,5,0,0,0,0,0.0,0.0,0.0,0.0,2.26,,,0,0,0,0,0,0,0,0,0,0,0,0,0,0,0,0,0,,,,0.0,0.0,0.0,0.0,0,0,0.0
104595,0,,,,,,,,,,,,,,,,,,,,,,,,,,,,,,,,,,0,0,0,0,0,0,0,0,0,0,0,0,0,0,0,0,,,,,,,,,,,
104615,0,,135,,-0.09,-0.05,0.96,1,-0,-0,0.97,1.13,86,1525,0.0,3.72,,14.16,1.09,62.8,,34.7,5,,,,,,,,,,,,0,0,0,0,0,0,0,0,0,0,0,0,0,0,0,0,,,,,0.0,,,,,,
104635,0,,,,,,,,,,,,,,,,,,,,,,,,,,,,,,,,,,0,0,0,0,0,0,0,0,0,0,0,0,0,0,0,0,,,,,,,,,,,
104655,0,,135,,-0.08,-0.04,0.97,1,-0,-0,0.97,1.13,86,1433,0.0,3.69,,14.07,1.093,62.8,,33.6,5,,,,,,,,,,,,0,0,0,0,0,0,0,0,0,0,0,0,0,0,0,0,,,,,0.0,,,,,,
104675,0,0.0,,,,,,,,,,,,,,,,,,,,,,0,0,0,0,0.0,0.0,0.0,0.0,2.26,,,0,0,0,0,0,0,0,0,0,0,0,0,0,0,0,0,0,,,,,0.0,0.0,0.0,0,0,0.0
104695,0,,135,,-0.07,-0.07,0.99,1,-0,-0,1.0,1.13,89,1382,0.0,3.72,,14.16,1.081,62.8,,33.6,5,,,,,,,,,,,,0,0,0,0,0,0,0,0,0,0,0,0,0,0,0,0,,,,,0.0,,,,,,
104715,0,,,,,,,,,,,,,,,,,,,,,,,,,,,,,,,,,,0,0,0,0,0,0,0,0,0,0,0,0,0,0,0,0,,,,,,,,,,,
104735,0,,135,,-0.06,-0.07,1.01,1,-0,-0,1.02,1.13,90,1483,0.0,3.72,,14.07,1.077,62.8,,33.6,5,,,,,,,,,,,,0,0,0,0,0,0,0,0,0,0,0,0,0,0,0,0,,,,,0.0,,,,,,
104755,0,,,,,,,,,,,,,,,,,,,,,,,,,,,,,,,,,,0,0,0,0,0,0,0,0,0,0,0,0,0,0,0,0,,,,,,,,,,,
104775,0,0.0,135,,-0.06,-0.08,1.01,1,-0,-0,1.02,1.13,91,1401,0.0,3.69,,14.07,1.077,62.8,,35.0,5,0,0,0,0,0.0,0.0,0.0,0.0,2.26,,,0,0,0,0,0,0,0,0,0,0,0,0,0,0,0,0,0,,,,0.0,0.0,0.0,0.0,0,0,0.0
104795,0,,,,,,,,,,,,,,,,,,,,,,,,,,,,,,,,,,0,0,0,0,0,0,0,0,0,0,0,0,0,0,0,0,,,,,,,,,,,
104815,0,,135,,-0.06,-0.06,1.0,1,-0,-0,1.01,1.13,89,1401,0.0,3.69,,14.1,1.08,62.8,,35.0,5,,,,,,,,,,,,0,0,0,0,0,0,0,0,0,0,0,0,0,0,0,0,,,,,0.0,,,,,,
104835,0,,,,,,,,,,,,,,,,,,,,,,,,,,,,,,,,,,0,0,0,0,0,0,0,0,0,0,0,0,0,0,0,0,,,,,,,,,,,
104855,0,,135,,-0.05,-0.05,0.99,1,-0,0,0.99,1.13,88,1447,0.0,3.72,,14.16,1.075,62.8,,35.2,5,,,,,,,,,,,,0,0,0,0,0,0,0,0,0,0,0,0,0,0,0,0,,,,,0.0,,,,,,
104875,0,0.0,,,,,,,,,,,,,,,,,,,,,,0,0,0,0,0.0,0.0,0.0,0.0,2.26,,,0,0,0,0,0,0,0,0,0,0,0,0,0,0,0,0,0,,,,,0.0,0.0,0.0,0,0,0.0
104895,0,,135,,-0.04,-0.03,0.98,0,-0,0,0.98,1.13,87,1480,0.0,3.71,,14.06,1.077,62.8,,35.2,5,,,,,,,,,,,,0,0,0,0,0,0,0,0,0,0,0,0,0,0,0,0,,,,,0.0,,,,,,
104915,0,,,,,,,,,,,,,,,,,,,,,,,,,,,,,,,,,,0,0,0,0,0,0,0,0,0,0,0,0,0,0,0,0,,,,,,,,,,,
104935,0,,135,,-0.06,-0.02,0.96,1,-0,0,0.96,1.13,85,1418,0.0,3.69,,14.19,1.085,62.8,,35.2,5,,,,,,,,,,,,0,0,0,0,0,0,0,0,0,0,0,0,0,0,0,0,,,,,0.0,,,,,,
104955,0,,,,,,,,,,,,,,,,,,,,,,,,,,,,,,,,,,0,0,0,0,0,0,0,0,0,0,0,0,0,0,0,0,,,,,,,,,,,
104975,0,0.0,135,,-0.07,-0.01,0.94,1,-0,0,0.94,1.13,83,1453,0.0,3.73,,14.19,1.085,62.8,,35.4,5,0,0,0,0,0.0,0.0,0.0,0.0,2.26,,,0,0,0,0,0,0,0,0,0,0,0,0,0,0,0,0,0,,,,0.0,0.0,0.0,0.0,0,0,0.0
104995,0,,,,,,,,,,,,,,,,,,,,,,,,,,,,,,,,,,0,0,0,0,0,0,0,0,0,0,0,0,0,0,0,0,,,,,,,,,,,
105015,0,,135,,-0.07,0.0,0.93,0,-0,0,0.93,1.13,83,1453,0.0,3.73,,14.04,1.089,62.8,,35.4,5,,,,,,,,,,,,0,0,0,0,0,0,0,0,0,0,0,0,0,0,0,0,,,,,0.0,,,,,,
105035,0,,,,,,,,,,,,,,,,,,,,,,,,,,,,,,,,,,0,0,0,0,0,0,0,0,0,0,0,0,0,0,0,0,,,,,,,,,,,
105055,0,,135,,-0.08,-0.02,0.96,0,-0,0,0.96,1.13,85,1448,0.0,3.68,,14.16,1.089,62.8,,33.4,5,,,,,,,,,,,,0,0,0,0,0,0,0,0,0,0,0,0,0,0,0,0,,,,,0.0,,,,,,
105075,0,0.0,,,,,,,,,,,,,,,,,,,,,,0,0,0,0,0.0,0.0,0.0,0.0,2.26,,,0,0,0,0,0,0,0,0,0,0,0,0,0,0,0,0,0,,,,,0.0,0.0,0.0,0,0,0.0
105095,0,,135,,-0.1,0.01,1.0,0,-0,0,1.0,1.13,89,1349,0.0,3.71,,14.14,1.083,62.8,,33.4,5,,,,,,,,,,,,0,0,0,0,0,0,0,0,0,0,0,0,0,0,0,0,,,,,0.0,,,,,,
105115,0,,,,,,,,,,,,,,,,,,,,,,,,,,,,,,,,,,0,0,0,0,0,0,0,0,0,0,0,0,0,0,0,0,,,,,,,,,,,
105135,0,,135,,-0.12,0.01,1.0,-0,-0,0,1.01,1.13,90,1542,0.0,3.73,,14.14,1.078,62.8,,33.4,5,,,,,,,,,,,,0,0,0,0,0,0,0,0,0,0,0,0,0,0,0,0,,,,,0.0,,,,,,
105155,0,,,,,,,,,,,,,,,,,,,,,,,,,,,,,,,,,,0,0,0,0,0,0,0,0,0,0,0,0,0,0,0,0,,,,,,,,,,,
105175,0,0.0,135,,-0.13,-0.0,1.0,0,-0,-0,1.0,1.13,89,1587,0.0,3.68,,14.14,1.078,62.8,,37.5,5,0,8,0,0,0.0,24.0,0.0,0.0,2.27,,,0,0,0,0,0,0,0,0,0,0,0,0,0,0,0,0,0,,,,0.0,0.0,0.0,0.0,0,0,0.0
105195,0,,,,,,,,,,,,,,,,,,,,,,,,,,,,,,,,,,0,0,0,0,0,0,0,0,0,0,0,0,0,0,0,0,,,,,,,,,,,
105215,0,,135,,-0.14,-0.01,1.01,0,-0,-0,1.01,1.13,90,1587,0.0,3.68,,14.04,1.078,62.8,,37.5,5,,,,,,,,,,,,0,0,0,0,0,0,0,0,0,0,0,0,0,0,0,0,,,,,0.0,,,,,,
105235,0,,,,,,,,,,,,,,,,,,,,,,,,,,,,,,,,,,0,0,0,0,0,0,0,0,0,0,0,0,0,0,0,0,,,,,,,,,,,
105255,0,,135,,-0.13,-0.0,0.98,0,-0,-0,0.99,1.13,88,1534,0.0,3.71,,14.18,1.078,62.8,,38.8,5,,,,,,,,,,,,0,0,0,0,0,0,0,0,0,0,0,0,0,0,0,0,,,,,0.0,,,,,,
105275,0,0.0,,,,,,,,,,,,,,,,,,,,,,0,8,0,0,0.0,24.0,0.0,0.0,2.26,,,0,0,0,0,0,0,0,0,0,0,0,0,0,0,0,0,0,,,,,0.0,0.0,0.0,0,0,0.0
105295,0,,135,,-0.11,0.01,0.97,-0,-0,-0,0.97,1.13,86,1634,0.0,3.68,,14.02,1.068,62.8,,38.8,5,,,,,,,,,,,,0,0,0,0,0,0,0,0,0,0,0,0,0,0,0,0,,,,,0.0,,,,,,
105315,0,,,,,,,,,,,,,,,,,,,,,,,,,,,,,,,,,,0,0,0,0,0,0,0,0,0,0,0,0,0,0,0,0,,,,,,,,,,,
105335,0,,135,,-0.1,0.01,0.95,-0,-0,0,0.95,1.13,85,1564,0.0,3.67,,14.12,1.066,62.8,,38.8,5,,,,,,,,,,,,0,0,0,0,0,0,0,0,0,0,0,0,0,0,0,0,,,,,0.0,,,,,,
105355,0,,,,,,,,,,,,,,,,,,,,,,,,,,,,,,,,,,0,0,0,0,0,0,0,0,0,0,0,0,0,0,0,0,,,,,,,,,,,
105375,0,0.0,135,13.29,-0.09,-0.01,0.96,-0,-0,0,0.96,1.13,86,1618,0.0,3.69,15,14.12,1.066,62.8,74,37.7,5,0,8,0,0,0.0,24.0,0.0,0.0,2.26,0,0.0,0,0,0,0,0,0,0,0,0,0,0,0,0,0,0,0,0,0.0,0,-0,0.0,0.0,0.0,0.0,0,0,0.0
105395,0,,,,,,,,,,,,,,,,,,,,,,,,,,,,,,,,,,0,0,0,0,0,0,0,0,0,0,0,0,0,0,0,0,,,,,,,,,,,
105415,0,,135,,-0.08,-0.03,0.99,-0,-0,0,0.99,1.13,88,1618,0.0,3.69,,14.11,1.069,62.8,,37.7,5,,,,,,,,,,,,0,0,0,0,0,0,0,0,0,0,0,0,0,0,0,0,,,,,0.0,,,,,,
105435,0,,,,,,,,,,,,,,,,,,,,,,,,,,,,,,,,,,0,0,0,0,0,0,0,0,0,0,0,0,0,0,0,0,,,,,,,,,,,
105455,0,,135,,-0.08,-0.02,0.99,-0,-0,0,1.0,1.13,89,1580,0.0,3.67,,14.02,1.064,62.8,,35.3,5,,,,,,,,,,,,0,0,0,0,0,0,0,0,0,0,0,0,0,0,0,0,,,,,0.0,,,,,,
105475,0,0.0,,,,,,,,,,,,,,,,,,,,,,0,8,0,0,0.0,24.0,0.0,0.0,2.26,,,0,0,0,0,0,0,0,0,0,0,0,0,0,0,0,0,0,,,,,0.0,0.0,0.0,0,0,0.0
105495,0,,135,,-0.08,-0.03,0.99,-0,-0,0,0.99,1.13,88,1405,0.0,3.68,,14.08,1.055,62.8,,35.3,5,,,,,,,,,,,,0,0,0,0,0,0,0,0,0,0,0,0,0,0,0,0,,,,,0.0,,,,,,
105515,0,,,,,,,,,,,,,,,,,,,,,,,,,,,,,,,,,,0,0,0,0,0,0,0,0,0,0,0,0,0,0,0,0,,,,,,,,,,,
105535,0,,135,,-0.07,-0.04,1.01,-0,-0,0,1.01,1.13,89,1435,0.0,3.72,,14.04,1.048,62.8,,35.3,5,,,,,,,,,,,,0,0,0,0,0,0,0,0,0,0,0,0,0,0,0,0,,,,,0.0,,,,,,
105555,0,,,,,,,,,,,,,,,,,,,,,,,,,,,,,,,,,,0,0,0,0,0,0,0,0,0,0,0,0,0,0,0,0,,,,,,,,,,,
105575,0,0.0,135,,-0.06,-0.05,1.02,0,-0,0,1.02,1.13,91,1517,0.0,3.67,,14.04,1.048,62.8,,38.4,5,0,0,0,0,0.0,0.0,0.0,0.0,2.27,,,0,0,0,0,0,0,0,0,0,0,0,0,0,0,0,0,0,,,,0.0,0.0,0.0,0.0,0,0,0.0
