"Interval"|"ms"|0|0|1,"Utc"|"ms"|0|0|1,"FrontBP"|"psi"|-5.0|5.0|25,"SteerAng"|"Degrees"|-145|145|25,"Battery"|"Volts"|-5.0|20.0|1,"AccelX"|"G"|-3.0|3.0|25,"AccelY"|"G"|-3.0|3.0|25,"AccelZ"|"G"|-3.0|3.0|25,"Yaw"|"Deg/Sec"|-120|120|25,"Pitch"|"Deg/Sec"|-120|120|25,"Roll"|"Deg/Sec"|-120|120|25,"Gsum"|"G"|0.0|3.0|25,"GsumMax"|"G"|0.0|3.0|25,"GsumPct"|"%"|0|100|25,"RPM"|""|0|10000|25,"TPS"|"%"|0.0|100.0|25,"InjectorPW"|"ms"|0.0|100.0|25,"Baro"|"kPa"|0|105|1,"MAP"|"Psi"|0.0|255.0|25,"Lambda"|""|-2.0|2.0|25,"IAT"|"C"|0.0|200.0|25,"EngineTemp"|"C"|0|200|1,"EOP"|"PSI"|0.0|152.0|25,"EOT"|"F"|0|250|25,"WSFR"|"MPH"|0|150|10,"WSFL"|"MPH"|0|100|10,"WSRR"|"MPH"|0|100|10,"WSRL"|""|0|100|10,"TCSet"|"%"|0.0|100.0|10,"TCSlip"|"%"|0.0|100.0|10,"TCComp"|"deg"|0.0|50.0|10,"TCCut"|"%"|0.0|100.0|10,"Analog8"|""|0.0|5.0|10,"OilTemp"|"F"|0|300|1,"AA_On"|""|0.0|1.0|1,"ThermLF1"|"C"|0|400|50,"ThermLF2"|"C"|0|400|50,"ThermRR1"|"C"|0|400|50,"ThermRR2"|"C"|0|400|50,"ThermLF3"|"C"|0|400|50,"ThermLF4"|"C"|0|400|50,"ThermLF5"|"C"|0|400|50,"ThermLF6"|"C"|0|400|50,"ThermLF7"|"C"|0|400|50,"ThermLF8"|"C"|0|400|50,"ThermRR3"|"C"|0|400|50,"ThermRR4"|"C"|0|400|50,"ThermRR5"|"C"|0|400|50,"ThermRR6"|"C"|0|400|50,"ThermRR7"|"C"|0|400|50,"ThermRR8"|"C"|0|400|50,"Gear"|""|1|6|10,"AA_On"|""|0.0|1.0|1,"AA_LowDrag"|""|0|1|1,"Fuel_Mix"|""|-10|10|1,"AA_Packages"|""|0.0|1000.0|25,"Latitude"|"Degrees"|-180.0|180.0|10,"Longitude"|"Degrees"|-180.0|180.0|10,"Speed"|"kph"|0.0|150.0|10,"GPSSats"|""|0|20|10,"GPSQual"|""|0|5|10,"GPSDOP"|""|0.0|20.0|10
545560,1744862944360,0.0,135,,-0.05,0.11,1.07,-1,-0,0,1.08,1.08,100,3498,4.9,3.86,,12.88,1.096,68.2,,38.1,5,,,,,,,,,,,,0,0,0,0,0,0,0,0,0,0,0,0,0,0,0,0,,,,,0.0,,,,,,
545580,1744862944380,,,,,,,,,,,,,,,,,,,,,,,,,,,,,,,,,,0,0,0,0,0,0,0,0,0,0,0,0,0,0,0,0,,,,,,,,,,,
545600,1744862944404,0.0,135,,-0.06,0.04,1.05,-0,-0,0,1.05,1.08,98,3603,4.9,3.83,,12.88,1.096,68.2,,38.1,5,,,,,,,,,,,,0,0,0,0,0,0,0,0,0,0,0,0,0,0,0,0,,,,,0.0,,,,,,
545620,1744862944424,,,,,,,,,,,,,,,,,,,,,,,,,,,,,,,,,,0,0,0,0,0,0,0,0,0,0,0,0,0,0,0,0,,,,,,,,,,,
545640,1744862944444,0.0,135,,-0.06,0.07,1.03,-0,-0,0,1.04,1.08,97,3603,4.9,3.83,,12.73,1.001,68.2,,38.7,5,0,0,0,0,0.0,0.0,0.0,0.0,2.26,,,0,0,0,0,0,0,0,0,0,0,0,0,0,0,0,0,0,,,,0.0,38.985832,-76.950859,0.11,34,3,0.9
545660,1744862944464,,,,,,,,,,,,,,,,,,,,,,,,,,,,,,,,,,0,0,0,0,0,0,0,0,0,0,0,0,0,0,0,0,,,,,,,,,,,
545680,1744862944484,0.0,135,,-0.07,0.1,1.03,-1,-0,0,1.03,1.08,96,3784,4.9,3.82,,12.61,0.968,68.2,,38.7,5,,,,,,,,,,,,0,0,0,0,0,0,0,0,0,0,0,0,0,0,0,0,,,,,0.0,,,,,,
545700,1744862944502,,,,,,,,,,,,,,,,,,,,,,,,,,,,,,,,,,0,0,0,0,0,0,0,0,0,0,0,0,0,0,0,0,,,,,,,,,,,
545720,1744862944522,0.0,135,,-0.08,0.04,1.05,-1,-0,1,1.05,1.08,98,3895,5.0,3.8,,12.44,0.96,68.2,,38.7,5,,,,,,,,,,,,0,0,0,0,0,0,0,0,0,0,0,0,0,0,0,0,,,,,0.0,,,,,,
545740,1744862944542,,,,,,,,,,,,,,,,,,,,,,,0,0,0,0,0.0,0.0,0.0,0.0,2.26,,,0,0,0,0,0,0,0,0,0,0,0,0,0,0,0,0,0,,,,,38.985832,-76.950859,0.08,34,3,0.9
545760,1744862944562,0.0,135,,-0.11,0.02,1.04,-1,-0,0,1.05,1.08,97,3888,5.1,3.78,,12.43,0.938,68.2,,39.3,5,,,,,,,,,,,,0,0,0,0,0,0,0,0,0,0,0,0,0,0,0,0,,,,,0.0,,,,,,
545780,1744862944582,,,,,,,,,,,,,,,,,,,,,,,,,,,,,,,,,,0,0,0,0,0,0,0,0,0,0,0,0,0,0,0,0,,,,,,,,,,,
545800,1744862944604,0.0,135,,-0.11,-0.0,1.06,-1,-0,0,1.06,1.08,99,3808,5.1,3.79,,12.43,0.938,68.2,,39.3,5,,,,,,,,,,,,0,0,0,0,0,0,0,0,0,0,0,0,0,0,0,0,,,,,0.0,,,,,,
545820,1744862944624,,,,,,,,,,,,,,,,,,,,,,,,,,,,,,,,,,0,0,0,0,0,0,0,0,0,0,0,0,0,0,0,0,,,,,,,,,,,
545840,1744862944644,0.0,135,,-0.1,0.02,1.06,-1,-0,0,1.06,1.08,99,3808,5.1,3.79,,12.35,0.925,68.2,,39.0,5,0,0,0,0,0.0,0.0,0.0,0.0,2.26,,,0,0,0,0,0,0,0,0,0,0,0,0,0,0,0,0,0,,,,0.0,38.985832,-76.950859,0.13,34,3,0.9
545860,1744862944664,,,,,,,,,,,,,,,,,,,,,,,,,,,,,,,,,,0,0,0,0,0,0,0,0,0,0,0,0,0,0,0,0,,,,,,,,,,,
545880,1744862944684,0.0,135,,-0.1,0.0,1.02,-0,-0,0,1.03,1.08,96,3679,5.2,3.8,,12.4,0.936,66.4,,39.0,5,,,,,,,,,,,,0,0,0,0,0,0,0,0,0,0,0,0,0,0,0,0,,,,,0.0,,,,,,
545900,1744862944703,,,,,,,,,,,,,,,,,,,,,,,,,,,,,,,,,,0,0,0,0,0,0,0,0,0,0,0,0,0,0,0,0,,,,,,,,,,,
545920,1744862944723,0.0,135,,-0.1,-0.02,0.99,-0,-0,-0,0.99,1.08,92,3786,5.1,3.79,,12.4,0.965,66.4,,39.0,5,,,,,,,,,,,,0,0,0,0,0,0,0,0,0,0,0,0,0,0,0,0,,,,,0.0,,,,,,
545940,1744862944743,,,,,,,,,,,,,,,,,,,,,,,0,0,0,0,0.0,0.0,0.0,0.0,2.26,,,0,0,0,0,0,0,0,0,0,0,0,0,0,0,0,0,0,,,,,38.985832,-76.950859,0.07,34,3,0.9
545960,1744862944763,0.0,135,,-0.09,-0.01,1.0,0,-0,-0,1.01,1.08,93,3836,5.1,3.79,,12.43,1.016,66.4,,39.1,5,,,,,,,,,,,,0,0,0,0,0,0,0,0,0,0,0,0,0,0,0,0,,,,,0.0,,,,,,
545980,1744862944783,,,,,,,,,,,,,,,,,,,,,,,,,,,,,,,,,,0,0,0,0,0,0,0,0,0,0,0,0,0,0,0,0,,,,,,,,,,,
546000,1744862944803,0.0,135,,-0.09,0.05,1.02,0,-0,0,1.03,1.08,96,3915,5.1,3.8,,12.43,1.016,66.4,,39.1,5,,,,,,,,,,,,0,0,0,0,0,0,0,0,0,0,0,0,0,0,0,0,,,,,0.0,,,,,,
546020,1744862944823,,,,,,,,,,,,,,,,,,,,,,,,,,,,,,,,,,0,0,0,0,0,0,0,0,0,0,0,0,0,0,0,0,,,,,,,,,,,
546040,1744862944843,0.0,135,,-0.08,0.07,1.06,-1,-0,1,1.07,1.08,99,3915,5.1,3.8,,12.35,0.949,66.4,,39.2,5,0,0,0,0,0.0,0.0,0.0,0.0,2.26,,,0,0,0,0,0,0,0,0,0,0,0,0,0,0,0,0,0,,,,0.0,38.985832,-76.950859,0.11,34,3,0.9
546060,1744862944863,,,,,,,,,,,,,,,,,,,,,,,,,,,,,,,,,,0,0,0,0,0,0,0,0,0,0,0,0,0,0,0,0,,,,,,,,,,,
546080,1744862944883,0.0,135,,-0.1,-0.01,1.06,-1,-0,1,1.06,1.08,99,3879,5.0,3.79,,12.36,0.9,66.4,,39.2,5,,,,,,,,,,,,0,0,0,0,0,0,0,0,0,0,0,0,0,0,0,0,,,,,0.0,,,,,,
546100,1744862944903,,,,,,,,,,,,,,,,,,,,,,,,,,,,,,,,,,0,0,0,0,0,0,0,0,0,0,0,0,0,0,0,0,,,,,,,,,,,
546120,1744862944923,0.0,135,,-0.1,-0.04,1.0,0,-0,0,1.01,1.08,94,3935,4.9,3.79,,12.33,0.882,66.4,,39.2,5,,,,,,,,,,,,0,0,0,0,0,0,0,0,0,0,0,0,0,0,0,0,,,,,0.0,,,,,,
546140,1744862944943,,,,,,,,,,,,,,,,,,,,,,,0,0,0,0,0.0,0.0,0.0,0.0,2.26,,,0,0,0,0,0,0,0,0,0,0,0,0,0,0,0,0,0,,,,,38.985832,-76.950859,0.1,34,3,0.9
546160,1744862944963,0.0,135,,-0.06,0.06,1.02,0,-0,0,1.02,1.08,95,3988,4.9,3.77,,12.21,0.88,66.4,,39.3,5,,,,,,,,,,,,0,0,0,0,0,0,0,0,0,0,0,0,0,0,0,0,,,,,0.0,,,,,,
546180,1744862944983,,,,,,,,,,,,,,,,,,,,,,,,,,,,,,,,,,0,0,0,0,0,0,0,0,0,0,0,0,0,0,0,0,,,,,,,,,,,
546200,1744862944995,0.0,135,,-0.07,0.04,1.04,-1,-0,1,1.04,1.08,97,3996,4.9,3.77,,12.21,0.88,66.4,,39.3,5,,,,,,,,,,,,0,0,0,0,0,0,0,0,0,0,0,0,0,0,0,0,,,,,0.0,,,,,,
546220,1744862945015,,,,,,,,,,,,,,,,,,,,,,,,,,,,,,,,,,0,0,0,0,0,0,0,0,0,0,0,0,0,0,0,0,,,,,,,,,,,
546240,1744862945035,0.0,135,14.01,-0.07,-0.01,0.98,-0,-0,0,0.99,1.08,92,3996,4.9,3.77,15,12.21,0.878,66.4,156,40.2,5,0,0,0,0,0.0,0.0,0.0,0.0,2.26,0,0.0,0,0,0,0,0,0,0,0,0,0,0,0,0,0,0,0,0,0.0,0,0,0.0,38.985832,-76.950859,0.11,33,3,0.9
546260,1744862945055,,,,,,,,,,,,,,,,,,,,,,,,,,,,,,,,,,0,0,0,0,0,0,0,0,0,0,0,0,0,0,0,0,,,,,,,,,,,
546280,1744862945075,0.0,135,,-0.04,0.13,1.02,-1,-0,1,1.03,1.08,96,4028,5.0,3.77,,12.2,0.876,66.4,,40.2,5,,,,,,,,,,,,0,0,0,0,0,0,0,0,0,0,0,0,0,0,0,0,,,,,0.0,,,,,,
546300,1744862945099,,,,,,,,,,,,,,,,,,,,,,,,,,,,,,,,,,0,0,0,0,0,0,0,0,0,0,0,0,0,0,0,0,,,,,,,,,,,
546320,1744862945119,0.0,135,,-0.07,0.01,0.99,-1,-0,1,0.99,1.08,92,4080,5.1,3.76,,12.05,0.879,66.4,,40.2,5,,,,,,,,,,,,0,0,0,0,0,0,0,0,0,0,0,0,0,0,0,0,,,,,0.0,,,,,,
546340,1744862945139,,,,,,,,,,,,,,,,,,,,,,,0,0,0,0,0.0,0.0,0.0,0.0,2.26,,,0,0,0,0,0,0,0,0,0,0,0,0,0,0,0,0,0,,,,,38.985832,-76.950859,0.19,33,3,0.9
546360,1744862945159,0.0,135,,-0.04,0.1,1.01,-0,-0,1,1.01,1.08,94,4069,5.1,3.74,,12.09,0.889,66.4,,40.1,5,,,,,,,,,,,,0,0,0,0,0,0,0,0,0,0,0,0,0,0,0,0,,,,,0.0,,,,,,
546380,1744862945179,,,,,,,,,,,,,,,,,,,,,,,,,,,,,,,,,,0,0,0,0,0,0,0,0,0,0,0,0,0,0,0,0,,,,,,,,,,,
546400,1744862945203,0.0,135,,-0.08,0.01,1.03,-1,-0,1,1.03,1.08,96,4070,5.1,3.73,,12.09,0.889,66.4,,40.1,5,,,,,,,,,,,,0,0,0,0,0,0,0,0,0,0,0,0,0,0,0,0,,,,,0.0,,,,,,
546420,1744862945223,,,,,,,,,,,,,,,,,,,,,,,,,,,,,,,,,,0,0,0,0,0,0,0,0,0,0,0,0,0,0,0,0,,,,,,,,,,,
546440,1744862945243,0.0,135,,-0.06,0.01,1.02,0,-0,0,1.03,1.08,95,4070,5.1,3.73,,12.04,0.886,66.4,,40.3,5,0,0,0,0,0.0,0.0,0.0,0.0,2.26,,,0,0,0,0,0,0,0,0,0,0,0,0,0,0,0,0,0,,,,0.0,38.985832,-76.950859,0.15,33,3,0.9
546460,1744862945263,,,,,,,,,,,,,,,,,,,,,,,,,,,,,,,,,,0,0,0,0,0,0,0,0,0,0,0,0,0,0,0,0,,,,,,,,,,,
546480,1744862945283,0.0,135,,-0.07,0.06,1.09,-1,-0,1,1.09,1.09,100,4067,5.1,3.74,,12.07,0.888,66.4,,40.3,5,,,,,,,,,,,,0,0,0,0,0,0,0,0,0,0,0,0,0,0,0,0,,,,,0.0,,,,,,
546500,1744862945303,,,,,,,,,,,,,,,,,,,,,,,,,,,,,,,,,,0,0,0,0,0,0,0,0,0,0,0,0,0,0,0,0,,,,,,,,,,,
546520,1744862945323,0.0,135,,-0.1,-0.03,1.04,0,-0,0,1.04,1.09,95,4084,5.1,3.76,,12.07,0.904,66.4,,40.3,5,,,,,,,,,,,,0,0,0,0,0,0,0,0,0,0,0,0,0,0,0,0,,,,,0.0,,,,,,
546540,1744862945343,,,,,,,,,,,,,,,,,,,,,,,0,0,0,0,0.0,0.0,0.0,0.0,2.26,,,0,0,0,0,0,0,0,0,0,0,0,0,0,0,0,0,0,,,,,38.985832,-76.950859,0.04,33,3,0.9
546560,1744862945363,0.0,135,,-0.08,0.05,1.08,-0,-0,1,1.08,1.09,99,4083,5.1,3.75,,12.04,0.904,66.4,,40.5,5,,,,,,,,,,,,0,0,0,0,0,0,0,0,0,0,0,0,0,0,0,0,,,,,0.0,,,,,,
546580,1744862945383,,,,,,,,,,,,,,,,,,,,,,,,,,,,,,,,,,0,0,0,0,0,0,0,0,0,0,0,0,0,0,0,0,,,,,,,,,,,
546600,1744862945403,0.0,135,,-0.12,-0.06,1.04,-0,-0,0,1.05,1.09,96,4012,5.0,3.75,,12.04,0.904,66.4,,40.5,5,,,,,,,,,,,,0,0,0,0,0,0,0,0,0,0,0,0,0,0,0,0,,,,,0.0,,,,,,
546620,1744862945423,,,,,,,,,,,,,,,,,,,,,,,,,,,,,,,,,,0,0,0,0,0,0,0,0,0,0,0,0,0,0,0,0,,,,,,,,,,,
546640,1744862945443,0.0,135,,-0.09,0.01,1.01,1,-0,-0,1.02,1.09,93,4012,5.0,3.75,,12.0,0.898,66.4,,39.7,5,0,0,0,0,0.0,0.0,0.0,0.0,2.26,,,0,0,0,0,0,0,0,0,0,0,0,0,0,0,0,0,0,,,,0.0,38.985832,-76.950859,0.07,33,3,0.9
546660,1744862945463,,,,,,,,,,,,,,,,,,,,,,,,,,,,,,,,,,0,0,0,0,0,0,0,0,0,0,0,0,0,0,0,0,,,,,,,,,,,
546680,1744862945483,0.0,135,,-0.1,0.02,1.03,-0,-0,0,1.04,1.09,95,4036,4.9,3.75,,12.07,0.893,66.4,,39.7,5,,,,,,,,,,,,0,0,0,0,0,0,0,0,0,0,0,0,0,0,0,0,,,,,0.0,,,,,,
546700,1744862945503,,,,,,,,,,,,,,,,,,,,,,,,,,,,,,,,,,0,0,0,0,0,0,0,0,0,0,0,0,0,0,0,0,,,,,,,,,,,
546720,1744862945523,0.0,135,,-0.11,-0.05,0.97,1,-0,-0,0.97,1.09,89,4034,4.9,3.74,,12.04,0.895,66.4,,39.7,5,,,,,,,,,,,,0,0,0,0,0,0,0,0,0,0,0,0,0,0,0,0,,,,,0.0,,,,,,
546740,1744862945543,,,,,,,,,,,,,,,,,,,,,,,0,0,0,0,0.0,0.0,0.0,0.0,2.26,,,0,0,0,0,0,0,0,0,0,0,0,0,0,0,0,0,0,,,,,38.985832,-76.950859,0.1,33,3,0.9
546760,1744862945563,0.0,135,,-0.07,0.09,0.98,1,-0,-0,0.99,1.09,90,4026,4.9,3.76,,12.01,0.889,66.4,,39.9,5,,,,,,,,,,,,0,0,0,0,0,0,0,0,0,0,0,0,0,0,0,0,,,,,0.0,,,,,,
546780,1744862945583,,,,,,,,,,,,,,,,,,,,,,,,,,,,,,,,,,0,0,0,0,0,0,0,0,0,0,0,0,0,0,0,0,,,,,,,,,,,
546800,1744862945603,0.0,135,,-0.08,0.01,0.98,0,-0,0,0.98,1.09,90,4002,5.0,3.76,,12.01,0.889,66.4,,39.9,5,,,,,,,,,,,,0,0,0,0,0,0,0,0,0,0,0,0,0,0,0,0,,,,,0.0,,,,,,
546820,1744862945623,,,,,,,,,,,,,,,,,,,,,,,,,,,,,,,,,,0,0,0,0,0,0,0,0,0,0,0,0,0,0,0,0,,,,,,,,,,,
546840,1744862945643,0.0,135,,-0.08,-0.02,0.93,1,-0,-1,0.94,1.09,86,4002,5.0,3.76,,12.07,0.88,66.4,,39.6,5,0,0,0,0,0.0,0.0,0.0,0.0,2.26,,,0,0,0,0,0,0,0,0,0,0,0,0,0,0,0,0,0,,,,0.0,38.985832,-76.950859,0.08,33,3,0.9
546860,1744862945663,,,,,,,,,,,,,,,,,,,,,,,,,,,,,,,,,,0,0,0,0,0,0,0,0,0,0,0,0,0,0,0,0,,,,,,,,,,,
546880,1744862945683,0.0,135,,-0.06,0.04,0.93,1,-0,-1,0.93,1.09,85,3943,5.1,3.76,,12.16,0.876,66.4,,39.6,5,,,,,,,,,,,,0,0,0,0,0,0,0,0,0,0,0,0,0,0,0,0,,,,,0.0,,,,,,
546900,1744862945704,,,,,,,,,,,,,,,,,,,,,,,,,,,,,,,,,,0,0,0,0,0,0,0,0,0,0,0,0,0,0,0,0,,,,,,,,,,,
546920,1744862945724,0.0,135,,-0.06,0.1,0.96,0,-0,-0,0.97,1.09,89,3924,5.1,3.77,,12.12,0.877,66.4,,39.6,5,,,,,,,,,,,,0,0,0,0,0,0,0,0,0,0,0,0,0,0,0,0,,,,,0.0,,,,,,
546940,1744862945744,,,,,,,,,,,,,,,,,,,,,,,0,0,0,0,0.0,0.0,0.0,0.0,2.26,,,0,0,0,0,0,0,0,0,0,0,0,0,0,0,0,0,0,,,,,38.985832,-76.950859,0.05,33,3,0.9
546960,1744862945764,0.0,135,,-0.1,0.01,0.94,0,-0,-0,0.94,1.09,86,3957,5.1,3.78,,12.16,0.877,66.4,,39.3,5,,,,,,,,,,,,0,0,0,0,0,0,0,0,0,0,0,0,0,0,0,0,,,,,0.0,,,,,,
546980,1744862945784,,,,,,,,,,,,,,,,,,,,,,,,,,,,,,,,,,0,0,0,0,0,0,0,0,0,0,0,0,0,0,0,0,,,,,,,,,,,
547000,1744862945804,0.0,135,,-0.09,-0.01,0.91,1,-0,-1,0.91,1.09,83,3959,5.1,3.78,,12.16,0.877,66.4,,39.3,5,,,,,,,,,,,,0,0,0,0,0,0,0,0,0,0,0,0,0,0,0,0,,,,,0.0,,,,,,
547020,1744862945824,,,,,,,,,,,,,,,,,,,,,,,,,,,,,,,,,,0,0,0,0,0,0,0,0,0,0,0,0,0,0,0,0,,,,,,,,,,,
547040,1744862945844,0.0,135,,-0.08,0.05,0.93,1,-0,-1,0.93,1.09,85,3959,5.1,3.78,,12.16,0.871,66.4,,39.6,5,0,0,0,0,0.0,0.0,0.0,0.0,2.26,,,0,0,0,0,0,0,0,0,0,0,0,0,0,0,0,0,0,,,,0.0,38.985832,-76.950859,0.08,33,3,0.9
547060,1744862945864,,,,,,,,,,,,,,,,,,,,,,,,,,,,,,,,,,0,0,0,0,0,0,0,0,0,0,0,0,0,0,0,0,,,,,,,,,,,
547080,1744862945884,0.0,135,,-0.08,0.06,0.97,-0,-0,-0,0.98,1.09,89,3933,5.1,3.78,,12.2,0.866,66.4,,39.6,5,,,,,,,,,,,,0,0,0,0,0,0,0,0,0,0,0,0,0,0,0,0,,,,,0.0,,,,,,
547100,1744862945904,,,,,,,,,,,,,,,,,,,,,,,,,,,,,,,,,,0,0,0,0,0,0,0,0,0,0,0,0,0,0,0,0,,,,,,,,,,,
547120,1744862945924,0.0,135,,-0.1,0.0,1.01,0,-0,-0,1.01,1.09,93,3858,5.0,3.79,,12.2,0.865,66.4,,39.6,5,,,,,,,,,,,,0,0,0,0,0,0,0,0,0,0,0,0,0,0,0,0,,,,,0.0,,,,,,
547140,1744862945944,,,,,,,,,,,,,,,,,,,,,,,0,0,0,0,0.0,0.0,0.0,0.0,2.26,,,0,0,0,0,0,0,0,0,0,0,0,0,0,0,0,0,0,,,,,38.985832,-76.950859,0.0,33,3,0.9
547160,1744862945964,0.0,135,,-0.11,-0.03,1.01,0,-0,-0,1.01,1.09,93,3878,5.0,3.78,,12.27,0.865,66.4,,39.4,5,,,,,,,,,,,,0,0,0,0,0,0,0,0,0,0,0,0,0,0,0,0,,,,,0.0,,,,,,
547180,1744862945984,,,,,,,,,,,,,,,,,,,,,,,,,,,,,,,,,,0,0,0,0,0,0,0,0,0,0,0,0,0,0,0,0,,,,,,,,,,,
547200,1744862945996,0.0,135,,-0.11,-0.05,0.99,0,-0,-0,1.0,1.09,92,3815,4.9,3.79,,12.27,0.865,66.4,,39.4,5,,,,,,,,,,,,0,0,0,0,0,0,0,0,0,0,0,0,0,0,0,0,,,,,0.0,,,,,,
547220,1744862946016,,,,,,,,,,,,,,,,,,,,,,,,,,,,,,,,,,0,0,0,0,0,0,0,0,0,0,0,0,0,0,0,0,,,,,,,,,,,
547240,1744862946036,0.0,135,14.03,-0.1,-0.06,0.98,0,-0,-0,0.99,1.09,90,3815,4.9,3.79,15,12.27,0.87,66.4,156,39.0,5,0,0,0,0,0.0,0.0,0.0,0.0,2.26,0,0.0,0,0,0,0,0,0,0,0,0,0,0,0,0,0,0,0,0,0.0,0,0,0.0,38.985832,-76.950859,0.11,33,3,0.9
547260,1744862946056,,,,,,,,,,,,,,,,,,,,,,,,,,,,,,,,,,0,0,0,0,0,0,0,0,0,0,0,0,0,0,0,0,,,,,,,,,,,
547280,1744862946076,0.0,135,,-0.1,-0.09,0.97,0,-0,-0,0.98,1.09,89,3781,4.8,3.79,,12.35,0.866,66.4,,39.0,5,,,,,,,,,,,,0,0,0,0,0,0,0,0,0,0,0,0,0,0,0,0,,,,,0.0,,,,,,
547300,1744862946102,,,,,,,,,,,,,,,,,,,,,,,,,,,,,,,,,,0,0,0,0,0,0,0,0,0,0,0,0,0,0,0,0,,,,,,,,,,,
547320,1744862946122,0.0,135,,-0.09,-0.08,0.99,0,-0,-0,0.99,1.09,91,3795,4.9,3.79,,12.33,0.869,66.4,,39.0,5,,,,,,,,,,,,0,0,0,0,0,0,0,0,0,0,0,0,0,0,0,0,,,,,0.0,,,,,,
547340,1744862946142,,,,,,,,,,,,,,,,,,,,,,,0,0,0,0,0.0,0.0,0.0,0.0,2.26,,,0,0,0,0,0,0,0,0,0,0,0,0,0,0,0,0,0,,,,,38.985832,-76.950859,0.07,33,3,0.9
547360,1744862946162,0.0,135,,-0.1,-0.1,1.01,0,-0,-0,1.02,1.09,93,3761,5.0,3.79,,12.39,0.869,66.4,,38.8,5,,,,,,,,,,,,0,0,0,0,0,0,0,0,0,0,0,0,0,0,0,0,,,,,0.0,,,,,,
547380,1744862946182,,,,,,,,,,,,,,,,,,,,,,,,,,,,,,,,,,0,0,0,0,0,0,0,0,0,0,0,0,0,0,0,0,,,,,,,,,,,
547400,1744862946200,0.0,135,,-0.08,-0.09,1.01,0,-0,-0,1.02,1.09,93,3742,5.0,3.79,,12.39,0.869,66.4,,38.8,5,,,,,,,,,,,,0,0,0,0,0,0,0,0,0,0,0,0,0,0,0,0,,,,,0.0,,,,,,
547420,1744862946220,,,,,,,,,,,,,,,,,,,,,,,,,,,,,,,,,,0,0,0,0,0,0,0,0,0,0,0,0,0,0,0,0,,,,,,,,,,,
547440,1744862946240,0.0,135,,-0.08,-0.13,1.01,0,-0,-0,1.02,1.09,93,3742,5.0,3.79,,12.39,0.865,66.4,,38.9,5,0,0,0,0,0.0,0.0,0.0,0.0,2.26,,,0,0,0,0,0,0,0,0,0,0,0,0,0,0,0,0,0,,,,0.0,38.985832,-76.950859,0.0,33,3,0.9
547460,1744862946260,,,,,,,,,,,,,,,,,,,,,,,,,,,,,,,,,,0,0,0,0,0,0,0,0,0,0,0,0,0,0,0,0,,,,,,,,,,,
547480,1744862946280,0.0,135,,-0.09,-0.13,1.03,0,-0,0,1.04,1.09,95,3684,5.0,3.79,,12.41,0.861,66.4,,38.9,5,,,,,,,,,,,,0,0,0,0,0,0,0,0,0,0,0,0,0,0,0,0,,,,,0.0,,,,,,
547500,1744862946302,,,,,,,,,,,,,,,,,,,,,,,,,,,,,,,,,,0,0,0,0,0,0,0,0,0,0,0,0,0,0,0,0,,,,,,,,,,,
547520,1744862946322,0.0,135,,-0.05,-0.02,1.04,-0,-0,0,1.04,1.09,95,3685,5.0,3.81,,12.47,0.862,66.4,,38.9,5,,,,,,,,,,,,0,0,0,0,0,0,0,0,0,0,0,0,0,0,0,0,,,,,0.0,,,,,,
547540,1744862946342,,,,,,,,,,,,,,,,,,,,,,,0,0,0,0,0.0,0.0,0.0,0.0,2.26,,,0,0,0,0,0,0,0,0,0,0,0,0,0,0,0,0,0,,,,,38.985832,-76.950859,0.04,33,3,0.9
547560,1744862946362,0.0,135,,-0.06,-0.06,1.04,-1,-0,0,1.05,1.09,96,3638,5.0,3.8,,12.47,0.866,66.4,,38.8,5,,,,,,,,,,,,0,0,0,0,0,0,0,0,0,0,0,0,0,0,0,0,,,,,0.0,,,,,,
547580,1744862946382,,,,,,,,,,,,,,,,,,,,,,,,,,,,,,,,,,0,0,0,0,0,0,0,0,0,0,0,0,0,0,0,0,,,,,,,,,,,
547600,1744862946404,0.0,135,,-0.06,-0.06,1.04,-0,-0,0,1.04,1.09,95,3686,5.0,3.81,,12.47,0.866,66.4,,38.8,5,,,,,,,,,,,,0,0,0,0,0,0,0,0,0,0,0,0,0,0,0,0,,,,,0.0,,,,,,
547620,1744862946424,,,,,,,,,,,,,,,,,,,,,,,,,,,,,,,,,,0,0,0,0,0,0,0,0,0,0,0,0,0,0,0,0,,,,,,,,,,,
547640,1744862946444,0.0,135,,-0.06,-0.07,1.01,0,-0,0,1.01,1.09,93,3686,5.0,3.81,,12.51,0.87,66.4,,38.8,5,0,0,0,0,0.0,0.0,0.0,0.0,2.27,,,0,0,0,0,0,0,0,0,0,0,0,0,0,0,0,0,0,,,,0.0,38.985832,-76.950859,0.05,33,3,0.9
547660,1744862946464,,,,,,,,,,,,,,,,,,,,,,,,,,,,,,,,,,0,0,0,0,0,0,0,0,0,0,0,0,0,0,0,0,,,,,,,,,,,
547680,1744862946484,0.0,135,,-0.08,-0.07,1.0,1,-0,-0,1.0,1.09,92,3638,4.8,3.8,,12.51,0.871,66.4,,38.8,5,,,,,,,,,,,,0,0,0,0,0,0,0,0,0,0,0,0,0,0,0,0,,,,,0.0,,,,,,
547700,1744862946504,,,,,,,,,,,,,,,,,,,,,,,,,,,,,,,,,,0,0,0,0,0,0,0,0,0,0,0,0,0,0,0,0,,,,,,,,,,,
547720,1744862946524,0.0,135,,-0.1,-0.12,1.02,1,-0,-0,1.03,1.09,95,3623,4.7,3.8,,12.49,0.873,66.4,,38.8,5,,,,,,,,,,,,0,0,0,0,0,0,0,0,0,0,0,0,0,0,0,0,,,,,0.0,,,,,,
547740,1744862946544,,,,,,,,,,,,,,,,,,,,,,,0,0,0,0,0.0,0.0,0.0,0.0,2.26,,,0,0,0,0,0,0,0,0,0,0,0,0,0,0,0,0,0,,,,,38.985832,-76.950859,0.16,33,3,0.9
547760,1744862946564,0.0,135,,-0.1,-0.1,1.04,0,-0,0,1.05,1.09,96,3631,4.7,3.8,,12.51,0.887,66.4,,38.5,5,,,,,,,,,,,,0,0,0,0,0,0,0,0,0,0,0,0,0,0,0,0,,,,,0.0,,,,,,
547780,1744862946584,,,,,,,,,,,,,,,,,,,,,,,,,,,,,,,,,,0,0,0,0,0,0,0,0,0,0,0,0,0,0,0,0,,,,,,,,,,,
547800,1744862946604,0.0,135,,-0.08,-0.0,1.04,-1,-0,1,1.04,1.09,95,3569,4.7,3.81,,12.51,0.887,66.4,,38.5,5,,,,,,,,,,,,0,0,0,0,0,0,0,0,0,0,0,0,0,0,0,0,,,,,0.0,,,,,,
547820,1744862946624,,,,,,,,,,,,,,,,,,,,,,,,,,,,,,,,,,0,0,0,0,0,0,0,0,0,0,0,0,0,0,0,0,,,,,,,,,,,
547840,1744862946644,0.0,135,,-0.06,0.03,0.97,-0,-0,0,0.97,1.09,88,3569,4.7,3.81,,12.56,0.89,66.4,,38.7,5,0,0,0,0,0.0,0.0,0.0,0.0,2.26,,,0,0,0,0,0,0,0,0,0,0,0,0,0,0,0,0,0,,,,0.0,38.985832,-76.950859,0.04,33,3,0.9
547860,1744862946664,,,,,,,,,,,,,,,,,,,,,,,,,,,,,,,,,,0,0,0,0,0,0,0,0,0,0,0,0,0,0,0,0,,,,,,,,,,,
547880,1744862946684,0.0,135,,-0.09,-0.09,1.04,0,-0,-0,1.05,1.09,96,3483,4.8,3.81,,12.61,0.895,66.4,,38.7,5,,,,,,,,,,,,0,0,0,0,0,0,0,0,0,0,0,0,0,0,0,0,,,,,0.0,,,,,,
547900,1744862946703,,,,,,,,,,,,,,,,,,,,,,,,,,,,,,,,,,0,0,0,0,0,0,0,0,0,0,0,0,0,0,0,0,,,,,,,,,,,
547920,1744862946723,0.0,135,,-0.06,0.01,0.97,-0,-0,0,0.97,1.09,89,3446,4.9,3.82,,12.69,0.897,66.4,,38.7,5,,,,,,,,,,,,0,0,0,0,0,0,0,0,0,0,0,0,0,0,0,0,,,,,0.0,,,,,,
547940,1744862946743,,,,,,,,,,,,,,,,,,,,,,,0,0,0,0,0.0,0.0,0.0,0.0,2.26,,,0,0,0,0,0,0,0,0,0,0,0,0,0,0,0,0,0,,,,,38.985832,-76.950859,0.07,33,3,0.9
547960,1744862946763,0.0,135,,-0.11,-0.08,1.02,0,-0,-0,1.03,1.09,94,3373,4.9,3.82,,12.79,0.892,66.4,,38.2,5,,,,,,,,,,,,0,0,0,0,0,0,0,0,0,0,0,0,0,0,0,0,,,,,0.0,,,,,,
547980,1744862946783,,,,,,,,,,,,,,,,,,,,,,,,,,,,,,,,,,0,0,0,0,0,0,0,0,0,0,0,0,0,0,0,0,,,,,,,,,,,
548000,1744862946801,0.0,135,,-0.07,0.03,0.97,-0,-0,1,0.98,1.09,89,3374,4.9,3.84,,12.79,0.892,66.4,,38.2,5,,,,,,,,,,,,0,0,0,0,0,0,0,0,0,0,0,0,0,0,0,0,,,,,0.0,,,,,,
548020,1744862946821,,,,,,,,,,,,,,,,,,,,,,,,,,,,,,,,,,0,0,0,0,0,0,0,0,0,0,0,0,0,0,0,0,,,,,,,,,,,
548040,1744862946841,0.0,135,,-0.09,-0.07,1.03,0,-0,0,1.03,1.09,94,3374,4.9,3.84,,12.84,0.881,66.4,,38.1,5,0,0,0,0,0.0,0.0,0.0,0.0,2.26,,,0,0,0,0,0,0,0,0,0,0,0,0,0,0,0,0,0,,,,0.0,38.985832,-76.950859,0.0,33,3,0.9
548060,1744862946861,,,,,,,,,,,,,,,,,,,,,,,,,,,,,,,,,,0,0,0,0,0,0,0,0,0,0,0,0,0,0,0,0,,,,,,,,,,,
548080,1744862946881,0.0,135,,-0.08,0.04,0.95,0,-0,0,0.95,1.09,87,3334,4.9,3.85,,12.85,0.881,66.4,,38.1,5,,,,,,,,,,,,0,0,0,0,0,0,0,0,0,0,0,0,0,0,0,0,,,,,0.0,,,,,,
548100,1744862946903,,,,,,,,,,,,,,,,,,,,,,,,,,,,,,,,,,0,0,0,0,0,0,0,0,0,0,0,0,0,0,0,0,,,,,,,,,,,
548120,1744862946923,0.0,135,,-0.08,0.04,0.98,-0,-0,0,0.98,1.09,90,3272,4.9,3.84,,12.84,0.882,66.4,,38.1,5,,,,,,,,,,,,0,0,0,0,0,0,0,0,0,0,0,0,0,0,0,0,,,,,0.0,,,,,,
548140,1744862946943,,,,,,,,,,,,,,,,,,,,,,,0,0,0,0,0.0,0.0,0.0,0.0,2.26,,,0,0,0,0,0,0,0,0,0,0,0,0,0,0,0,0,0,,,,,38.985832,-76.950859,0.04,33,3,0.9
548160,1744862946963,0.0,135,,-0.07,0.0,1.05,-0,-0,0,1.05,1.09,96,3147,4.9,3.86,,12.91,0.877,66.4,,38.5,5,,,,,,,,,,,,0,0,0,0,0,0,0,0,0,0,0,0,0,0,0,0,,,,,0.0,,,,,,
548180,1744862946983,,,,,,,,,,,,,,,,,,,,,,,,,,,,,,,,,,0,0,0,0,0,0,0,0,0,0,0,0,0,0,0,0,,,,,,,,,,,
548200,1744862946995,0.0,135,,-0.09,-0.01,1.09,0,-0,0,1.09,1.09,100,3142,4.8,3.86,,12.91,0.877,66.4,,38.5,5,,,,,,,,,,,,0,0,0,0,0,0,0,0,0,0,0,0,0,0,0,0,,,,,0.0,,,,,,
548220,1744862947015,,,,,,,,,,,,,,,,,,,,,,,,,,,,,,,,,,0,0,0,0,0,0,0,0,0,0,0,0,0,0,0,0,,,,,,,,,,,
548240,1744862947035,0.0,135,14.04,-0.11,0.0,1.05,0,-0,0,1.06,1.09,97,3142,4.8,3.86,15,12.93,0.872,66.4,156,37.8,5,0,0,0,0,0.0,0.0,0.0,0.0,2.26,0,0.0,0,0,0,0,0,0,0,0,0,0,0,0,0,0,0,0,0,0.0,0,-0,0.0,38.985832,-76.950859,0.08,35,3,0.8
548260,1744862947055,,,,,,,,,,,,,,,,,,,,,,,,,,,,,,,,,,0,0,0,0,0,0,0,0,0,0,0,0,0,0,0,0,,,,,,,,,,,
548280,1744862947075,0.0,135,,-0.13,-0.01,0.98,1,-0,-0,0.99,1.09,91,3116,4.7,3.86,,12.95,0.912,66.4,,37.8,5,,,,,,,,,,,,0,0,0,0,0,0,0,0,0,0,0,0,0,0,0,0,,,,,0.0,,,,,,
548300,1744862947099,,,,,,,,,,,,,,,,,,,,,,,,,,,,,,,,,,0,0,0,0,0,0,0,0,0,0,0,0,0,0,0,0,,,,,,,,,,,
548320,1744862947119,0.0,135,,-0.11,0.01,0.91,1,-0,-0,0.91,1.09,83,3049,4.6,3.86,,12.99,0.95,66.4,,37.8,5,,,,,,,,,,,,0,0,0,0,0,0,0,0,0,0,0,0,0,0,0,0,,,,,0.0,,,,,,
548340,1744862947139,,,,,,,,,,,,,,,,,,,,,,,0,0,0,0,0.0,0.0,0.0,0.0,2.26,,,0,0,0,0,0,0,0,0,0,0,0,0,0,0,0,0,0,,,,,38.985832,-76.950859,0.07,35,3,0.8
548360,1744862947159,0.0,135,,-0.08,0.05,0.88,0,-0,0,0.89,1.09,81,3092,4.7,3.86,,13.05,0.984,66.4,,37.9,5,,,,,,,,,,,,0,0,0,0,0,0,0,0,0,0,0,0,0,0,0,0,,,,,0.0,,,,,,
548380,1744862947179,,,,,,,,,,,,,,,,,,,,,,,,,,,,,,,,,,0,0,0,0,0,0,0,0,0,0,0,0,0,0,0,0,,,,,,,,,,,
548400,1744862947199,0.0,135,,-0.11,-0.04,0.95,1,-0,-0,0.95,1.09,87,3378,4.8,3.85,,13.05,0.984,66.4,,37.9,5,,,,,,,,,,,,0,0,0,0,0,0,0,0,0,0,0,0,0,0,0,0,,,,,0.0,,,,,,
548420,1744862947219,,,,,,,,,,,,,,,,,,,,,,,,,,,,,,,,,,0,0,0,0,0,0,0,0,0,0,0,0,0,0,0,0,,,,,,,,,,,
548440,1744862947239,0.0,135,,-0.09,0.01,0.95,0,-0,0,0.96,1.09,87,3378,4.8,3.85,,12.95,1.003,66.4,,38.5,5,0,0,0,0,0.0,0.0,0.0,0.0,2.26,,,0,0,0,0,0,0,0,0,0,0,0,0,0,0,0,0,0,,,,0.0,38.985832,-76.950859,0.38,35,3,0.8
548460,1744862947259,,,,,,,,,,,,,,,,,,,,,,,,,,,,,,,,,,0,0,0,0,0,0,0,0,0,0,0,0,0,0,0,0,,,,,,,,,,,
548480,1744862947279,0.0,135,,-0.07,0.04,0.95,0,-0,0,0.96,1.09,88,3646,4.9,3.84,,12.8,1.019,66.4,,38.5,5,,,,,,,,,,,,0,0,0,0,0,0,0,0,0,0,0,0,0,0,0,0,,,,,0.0,,,,,,
548500,1744862947303,,,,,,,,,,,,,,,,,,,,,,,,,,,,,,,,,,0,0,0,0,0,0,0,0,0,0,0,0,0,0,0,0,,,,,,,,,,,
548520,1744862947323,0.0,135,,-0.09,0.01,0.98,1,-0,0,0.99,1.09,90,3742,5.0,3.81,,12.6,1.027,66.4,,38.5,5,,,,,,,,,,,,0,0,0,0,0,0,0,0,0,0,0,0,0,0,0,0,,,,,0.0,,,,,,
548540,1744862947343,,,,,,,,,,,,,,,,,,,,,,,0,0,0,0,0.0,0.0,0.0,0.0,2.26,,,0,0,0,0,0,0,0,0,0,0,0,0,0,0,0,0,0,,,,,38.985832,-76.950859,0.12,35,3,0.8
548560,1744862947363,0.0,135,,-0.11,-0.02,0.97,1,-0,-0,0.98,1.09,89,3806,4.9,3.79,,12.57,0.922,66.4,,39.2,5,,,,,,,,,,,,0,0,0,0,0,0,0,0,0,0,0,0,0,0,0,0,,,,,0.0,,,,,,
548580,1744862947383,,,,,,,,,,,,,,,,,,,,,,,,,,,,,,,,,,0,0,0,0,0,0,0,0,0,0,0,0,0,0,0,0,,,,,,,,,,,
548600,1744862947403,0.0,135,,-0.1,-0.04,0.96,1,-0,-0,0.96,1.09,88,3898,4.9,3.79,,12.57,0.922,66.4,,39.2,5,,,,,,,,,,,,0,0,0,0,0,0,0,0,0,0,0,0,0,0,0,0,,,,,0.0,,,,,,
548620,1744862947423,,,,,,,,,,,,,,,,,,,,,,,,,,,,,,,,,,0,0,0,0,0,0,0,0,0,0,0,0,0,0,0,0,,,,,,,,,,,
548640,1744862947443,0.0,135,,-0.07,0.06,0.97,1,-0,0,0.98,1.09,89,3898,4.9,3.79,,12.39,0.871,66.4,,39.3,5,0,0,0,0,0.0,0.0,0.0,0.0,2.26,,,0,0,0,0,0,0,0,0,0,0,0,0,0,0,0,0,0,,,,0.0,38.985832,-76.950859,0.04,35,3,0.8
548660,1744862947463,,,,,,,,,,,,,,,,,,,,,,,,,,,,,,,,,,0,0,0,0,0,0,0,0,0,0,0,0,0,0,0,0,,,,,,,,,,,
548680,1744862947483,0.0,135,,-0.05,0.09,0.97,0,-0,0,0.97,1.09,89,3896,4.9,3.78,,12.35,0.867,66.4,,39.3,5,,,,,,,,,,,,0,0,0,0,0,0,0,0,0,0,0,0,0,0,0,0,,,,,0.0,,,,,,
548700,1744862947503,,,,,,,,,,,,,,,,,,,,,,,,,,,,,,,,,,0,0,0,0,0,0,0,0,0,0,0,0,0,0,0,0,,,,,,,,,,,
548720,1744862947523,0.0,135,,-0.06,0.09,0.93,0,-0,0,0.94,1.09,86,3801,4.9,3.79,,12.31,0.874,66.4,,39.3,5,,,,,,,,,,,,0,0,0,0,0,0,0,0,0,0,0,0,0,0,0,0,,,,,0.0,,,,,,
548740,1744862947543,,,,,,,,,,,,,,,,,,,,,,,0,0,0,0,0.0,0.0,0.0,0.0,2.26,,,0,0,0,0,0,0,0,0,0,0,0,0,0,0,0,0,0,,,,,38.985832,-76.950859,0.07,35,3,0.8
548760,1744862947563,0.0,135,,-0.09,0.04,0.94,1,-0,-0,0.95,1.09,87,3654,4.7,3.8,,12.39,0.874,66.4,,38.8,5,,,,,,,,,,,,0,0,0,0,0,0,0,0,0,0,0,0,0,0,0,0,,,,,0.0,,,,,,
548780,1744862947583,,,,,,,,,,,,,,,,,,,,,,,,,,,,,,,,,,0,0,0,0,0,0,0,0,0,0,0,0,0,0,0,0,,,,,,,,,,,
548800,1744862947603,0.0,135,,-0.08,0.03,0.96,1,-0,-0,0.97,1.09,89,3685,4.7,3.8,,12.39,0.874,66.4,,38.8,5,,,,,,,,,,,,0,0,0,0,0,0,0,0,0,0,0,0,0,0,0,0,,,,,0.0,,,,,,
548820,1744862947623,,,,,,,,,,,,,,,,,,,,,,,,,,,,,,,,,,0,0,0,0,0,0,0,0,0,0,0,0,0,0,0,0,,,,,,,,,,,
548840,1744862947643,0.0,135,,-0.07,0.06,0.95,1,-0,-0,0.95,1.09,87,3685,4.7,3.8,,12.43,0.893,66.4,,39.2,5,0,0,0,0,0.0,0.0,0.0,0.0,2.26,,,0,0,0,0,0,0,0,0,0,0,0,0,0,0,0,0,0,,,,0.0,38.985832,-76.950859,0.04,35,3,0.8
548860,1744862947663,,,,,,,,,,,,,,,,,,,,,,,,,,,,,,,,,,0,0,0,0,0,0,0,0,0,0,0,0,0,0,0,0,,,,,,,,,,,
548880,1744862947683,0.0,135,,-0.06,0.13,0.95,0,-0,0,0.96,1.09,88,3866,4.6,3.79,,12.43,1.003,66.4,,39.2,5,,,,,,,,,,,,0,0,0,0,0,0,0,0,0,0,0,0,0,0,0,0,,,,,0.0,,,,,,
548900,1744862947702,,,,,,,,,,,,,,,,,,,,,,,,,,,,,,,,,,0,0,0,0,0,0,0,0,0,0,0,0,0,0,0,0,,,,,,,,,,,
548920,1744862947722,0.0,135,,-0.06,0.12,0.99,-1,-0,1,1.0,1.09,91,3913,4.7,3.78,,12.31,0.971,66.4,,39.2,5,,,,,,,,,,,,0,0,0,0,0,0,0,0,0,0,0,0,0,0,0,0,,,,,0.0,,,,,,
548940,1744862947742,,,,,,,,,,,,,,,,,,,,,,,0,0,0,0,0.0,0.0,0.0,0.0,2.26,,,0,0,0,0,0,0,0,0,0,0,0,0,0,0,0,0,0,,,,,38.985832,-76.950859,0.05,35,3,0.8
548960,1744862947762,0.0,135,,-0.08,0.06,1.01,-0,-0,0,1.01,1.09,93,3766,4.7,3.77,,12.25,0.898,66.4,,39.2,5,,,,,,,,,,,,0,0,0,0,0,0,0,0,0,0,0,0,0,0,0,0,,,,,0.0,,,,,,
548980,1744862947782,,,,,,,,,,,,,,,,,,,,,,,,,,,,,,,,,,0,0,0,0,0,0,0,0,0,0,0,0,0,0,0,0,,,,,,,,,,,
549000,1744862947804,0.0,135,,-0.07,0.07,0.99,-0,-0,0,0.99,1.09,91,3680,4.8,3.77,,12.25,0.898,66.4,,39.2,5,,,,,,,,,,,,0,0,0,0,0,0,0,0,0,0,0,0,0,0,0,0,,,,,0.0,,,,,,
549020,1744862947824,,,,,,,,,,,,,,,,,,,,,,,,,,,,,,,,,,0,0,0,0,0,0,0,0,0,0,0,0,0,0,0,0,,,,,,,,,,,
549040,1744862947844,0.0,135,,-0.06,0.06,0.98,0,-0,0,0.99,1.09,90,3680,4.8,3.77,,12.35,0.886,66.4,,39.3,5,0,0,0,0,0.0,0.0,0.0,0.0,2.26,,,0,0,0,0,0,0,0,0,0,0,0,0,0,0,0,0,0,,,,0.0,38.985832,-76.950859,0.0,35,3,0.8
549060,1744862947864,,,,,,,,,,,,,,,,,,,,,,,,,,,,,,,,,,0,0,0,0,0,0,0,0,0,0,0,0,0,0,0,0,,,,,,,,,,,
549080,1744862947884,0.0,135,,-0.06,0.03,1.0,-0,-0,1,1.0,1.09,91,3832,4.9,3.79,,12.36,0.903,66.4,,39.3,5,,,,,,,,,,,,0,0,0,0,0,0,0,0,0,0,0,0,0,0,0,0,,,,,0.0,,,,,,
549100,1744862947904,,,,,,,,,,,,,,,,,,,,,,,,,,,,,,,,,,0,0,0,0,0,0,0,0,0,0,0,0,0,0,0,0,,,,,,,,,,,
549120,1744862947924,0.0,135,,-0.07,0.01,1.02,-0,-0,0,1.02,1.09,94,3774,4.9,3.79,,12.36,0.976,66.4,,39.3,5,,,,,,,,,,,,0,0,0,0,0,0,0,0,0,0,0,0,0,0,0,0,,,,,0.0,,,,,,
549140,1744862947944,,,,,,,,,,,,,,,,,,,,,,,0,0,0,0,0.0,0.0,0.0,0.0,2.26,,,0,0,0,0,0,0,0,0,0,0,0,0,0,0,0,0,0,,,,,38.985832,-76.950859,0.04,35,3,0.8
549160,1744862947964,0.0,135,,-0.06,0.01,1.02,-0,-0,1,1.02,1.09,94,3780,4.9,3.79,,12.37,0.936,66.4,,39.3,5,,,,,,,,,,,,0,0,0,0,0,0,0,0,0,0,0,0,0,0,0,0,,,,,0.0,,,,,,
549180,1744862947984,,,,,,,,,,,,,,,,,,,,,,,,,,,,,,,,,,0,0,0,0,0,0,0,0,0,0,0,0,0,0,0,0,,,,,,,,,,,
549200,1744862947996,0.0,135,,-0.05,0.01,1.01,0,-0,0,1.02,1.09,93,3722,4.9,3.78,,12.37,0.936,66.4,,39.3,5,,,,,,,,,,,,0,0,0,0,0,0,0,0,0,0,0,0,0,0,0,0,,,,,0.0,,,,,,
549220,1744862948016,,,,,,,,,,,,,,,,,,,,,,,,,,,,,,,,,,0,0,0,0,0,0,0,0,0,0,0,0,0,0,0,0,,,,,,,,,,,
549240,1744862948036,0.0,135,14.06,-0.05,-0.02,1.02,0,-0,0,1.02,1.09,94,3722,4.9,3.78,15,12.4,0.894,66.4,156,39.2,5,0,0,0,0,0.0,0.0,0.0,0.0,2.26,0,0.0,0,0,0,0,0,0,0,0,0,0,0,0,0,0,0,0,0,0.0,0,0,0.0,38.985832,-76.950859,0.04,34,3,0.9
549260,1744862948056,,,,,,,,,,,,,,,,,,,,,,,,,,,,,,,,,,0,0,0,0,0,0,0,0,0,0,0,0,0,0,0,0,,,,,,,,,,,
549280,1744862948076,0.0,135,,-0.06,-0.03,1.05,0,-0,1,1.06,1.09,97,3749,4.8,3.79,,12.44,0.873,66.4,,39.2,5,,,,,,,,,,,,0,0,0,0,0,0,0,0,0,0,0,0,0,0,0,0,,,,,0.0,,,,,,
549300,1744862948100,,,,,,,,,,,,,,,,,,,,,,,,,,,,,,,,,,0,0,0,0,0,0,0,0,0,0,0,0,0,0,0,0,,,,,,,,,,,
549320,1744862948120,0.0,135,,-0.05,-0.03,1.05,0,-0,1,1.05,1.09,96,3768,4.7,3.79,,12.36,0.87,66.4,,39.2,5,,,,,,,,,,,,0,0,0,0,0,0,0,0,0,0,0,0,0,0,0,0,,,,,0.0,,,,,,
549340,1744862948140,,,,,,,,,,,,,,,,,,,,,,,0,0,0,0,0.0,0.0,0.0,0.0,2.26,,,0,0,0,0,0,0,0,0,0,0,0,0,0,0,0,0,0,,,,,38.985832,-76.950859,0.07,34,3,0.9
549360,1744862948160,0.0,135,,-0.04,-0.03,1.03,1,-0,1,1.04,1.09,95,3721,4.7,3.79,,12.44,0.868,66.4,,39.2,5,,,,,,,,,,,,0,0,0,0,0,0,0,0,0,0,0,0,0,0,0,0,,,,,0.0,,,,,,
549380,1744862948180,,,,,,,,,,,,,,,,,,,,,,,,,,,,,,,,,,0,0,0,0,0,0,0,0,0,0,0,0,0,0,0,0,,,,,,,,,,,
549400,1744862948202,0.0,135,,-0.04,-0.03,1.02,1,-0,0,1.02,1.09,93,3692,4.6,3.79,,12.44,0.868,66.4,,39.2,5,,,,,,,,,,,,0,0,0,0,0,0,0,0,0,0,0,0,0,0,0,0,,,,,0.0,,,,,,
549420,1744862948222,,,,,,,,,,,,,,,,,,,,,,,,,,,,,,,,,,0,0,0,0,0,0,0,0,0,0,0,0,0,0,0,0,,,,,,,,,,,
549440,1744862948242,0.0,135,,-0.05,-0.06,1.01,1,-0,0,1.01,1.09,93,3692,4.6,3.79,,12.45,0.87,66.4,,39.0,5,0,0,0,0,0.0,0.0,0.0,0.0,2.26,,,0,0,0,0,0,0,0,0,0,0,0,0,0,0,0,0,0,,,,0.0,38.985832,-76.950859,0.0,34,3,0.9
549460,1744862948262,,,,,,,,,,,,,,,,,,,,,,,,,,,,,,,,,,0,0,0,0,0,0,0,0,0,0,0,0,0,0,0,0,,,,,,,,,,,
549480,1744862948282,0.0,135,,-0.06,-0.1,0.99,1,-0,-0,1.0,1.09,91,3693,4.6,3.79,,12.49,0.877,66.4,,39.0,5,,,,,,,,,,,,0,0,0,0,0,0,0,0,0,0,0,0,0,0,0,0,,,,,0.0,,,,,,
549500,1744862948304,,,,,,,,,,,,,,,,,,,,,,,,,,,,,,,,,,0,0,0,0,0,0,0,0,0,0,0,0,0,0,0,0,,,,,,,,,,,
549520,1744862948324,0.0,135,,-0.08,-0.16,1.03,1,-0,-0,1.04,1.09,96,3568,4.7,3.79,,12.52,0.875,66.4,,39.0,5,,,,,,,,,,,,0,0,0,0,0,0,0,0,0,0,0,0,0,0,0,0,,,,,0.0,,,,,,
549540,1744862948344,,,,,,,,,,,,,,,,,,,,,,,0,0,0,0,0.0,0.0,0.0,0.0,2.26,,,0,0,0,0,0,0,0,0,0,0,0,0,0,0,0,0,0,,,,,38.985832,-76.950859,0.07,34,3,0.9
549560,1744862948364,0.0,135,,-0.09,-0.13,1.03,0,-0,0,1.04,1.09,95,3536,4.8,3.8,,12.56,0.874,66.4,,38.9,5,,,,,,,,,,,,0,0,0,0,0,0,0,0,0,0,0,0,0,0,0,0,,,,,0.0,,,,,,
549580,1744862948384,,,,,,,,,,,,,,,,,,,,,,,,,,,,,,,,,,0,0,0,0,0,0,0,0,0,0,0,0,0,0,0,0,,,,,,,,,,,
549600,1744862948404,0.0,135,,-0.07,-0.09,1.01,-0,-0,0,1.02,1.09,93,3683,4.8,3.8,,12.56,0.874,66.4,,38.9,5,,,,,,,,,,,,0,0,0,0,0,0,0,0,0,0,0,0,0,0,0,0,,,,,0.0,,,,,,
549620,1744862948424,,,,,,,,,,,,,,,,,,,,,,,,,,,,,,,,,,0,0,0,0,0,0,0,0,0,0,0,0,0,0,0,0,,,,,,,,,,,
549640,1744862948444,0.0,135,,-0.07,-0.04,1.03,-0,-0,0,1.03,1.09,94,3683,4.8,3.8,,12.48,0.907,66.4,,38.5,5,0,0,0,0,0.0,0.0,0.0,0.0,2.26,,,0,0,0,0,0,0,0,0,0,0,0,0,0,0,0,0,0,,,,0.0,38.985832,-76.950859,0.04,34,3,0.9
549660,1744862948464,,,,,,,,,,,,,,,,,,,,,,,,,,,,,,,,,,0,0,0,0,0,0,0,0,0,0,0,0,0,0,0,0,,,,,,,,,,,
549680,1744862948484,0.0,135,,-0.08,-0.01,1.03,-0,-0,1,1.03,1.09,94,3692,4.9,3.8,,12.48,0.934,66.4,,38.5,5,,,,,,,,,,,,0,0,0,0,0,0,0,0,0,0,0,0,0,0,0,0,,,,,0.0,,,,,,
549700,1744862948504,,,,,,,,,,,,,,,,,,,,,,,,,,,,,,,,,,0,0,0,0,0,0,0,0,0,0,0,0,0,0,0,0,,,,,,,,,,,
549720,1744862948524,0.0,135,,-0.07,-0.0,1.03,-0,-0,1,1.03,1.09,95,3782,4.9,3.8,,12.45,0.913,66.4,,38.5,5,,,,,,,,,,,,0,0,0,0,0,0,0,0,0,0,0,0,0,0,0,0,,,,,0.0,,,,,,
549740,1744862948544,,,,,,,,,,,,,,,,,,,,,,,0,0,0,0,0.0,0.0,0.0,0.0,2.26,,,0,0,0,0,0,0,0,0,0,0,0,0,0,0,0,0,0,,,,,38.985832,-76.950859,0.05,34,3,0.9
549760,1744862948564,0.0,135,,-0.07,0.0,1.02,-0,-0,1,1.02,1.09,93,3768,4.9,3.79,,12.45,0.894,66.4,,38.8,5,,,,,,,,,,,,0,0,0,0,0,0,0,0,0,0,0,0,0,0,0,0,,,,,0.0,,,,,,
549780,1744862948584,,,,,,,,,,,,,,,,,,,,,,,,,,,,,,,,,,0,0,0,0,0,0,0,0,0,0,0,0,0,0,0,0,,,,,,,,,,,
549800,1744862948604,0.0,135,,-0.07,0.04,1.04,-0,-0,1,1.04,1.09,95,3720,4.8,3.79,,12.45,0.894,66.4,,38.8,5,,,,,,,,,,,,0,0,0,0,0,0,0,0,0,0,0,0,0,0,0,0,,,,,0.0,,,,,,
549820,1744862948624,,,,,,,,,,,,,,,,,,,,,,,,,,,,,,,,,,0,0,0,0,0,0,0,0,0,0,0,0,0,0,0,0,,,,,,,,,,,
549840,1744862948644,0.0,135,,-0.07,0.05,1.04,-0,-0,1,1.05,1.09,96,3720,4.8,3.79,,12.47,0.881,66.4,,38.8,5,0,0,0,0,0.0,0.0,0.0,0.0,2.26,,,0,0,0,0,0,0,0,0,0,0,0,0,0,0,0,0,0,,,,0.0,38.985832,-76.950859,0.05,34,3,0.9
549860,1744862948664,,,,,,,,,,,,,,,,,,,,,,,,,,,,,,,,,,0,0,0,0,0,0,0,0,0,0,0,0,0,0,0,0,,,,,,,,,,,
549880,1744862948684,0.0,135,,-0.07,0.05,1.04,-0,-0,1,1.04,1.09,95,3758,4.7,3.79,,12.4,0.883,66.4,,38.8,5,,,,,,,,,,,,0,0,0,0,0,0,0,0,0,0,0,0,0,0,0,0,,,,,0.0,,,,,,
549900,1744862948703,,,,,,,,,,,,,,,,,,,,,,,,,,,,,,,,,,0,0,0,0,0,0,0,0,0,0,0,0,0,0,0,0,,,,,,,,,,,
549920,1744862948723,0.0,135,,-0.08,0.04,1.0,-0,-0,0,1.01,1.09,92,3800,4.6,3.79,,12.44,0.887,66.4,,38.8,5,,,,,,,,,,,,0,0,0,0,0,0,0,0,0,0,0,0,0,0,0,0,,,,,0.0,,,,,,
549940,1744862948743,,,,,,,,,,,,,,,,,,,,,,,0,0,0,0,0.0,0.0,0.0,0.0,2.26,,,0,0,0,0,0,0,0,0,0,0,0,0,0,0,0,0,0,,,,,38.985832,-76.950859,0.1,34,3,0.9
549960,1744862948763,0.0,135,,-0.08,0.09,1.01,-0,-0,0,1.01,1.09,93,3721,4.7,3.78,,12.43,0.88,66.4,,38.8,5,,,,,,,,,,,,0,0,0,0,0,0,0,0,0,0,0,0,0,0,0,0,,,,,0.0,,,,,,
549980,1744862948783,,,,,,,,,,,,,,,,,,,,,,,,,,,,,,,,,,0,0,0,0,0,0,0,0,0,0,0,0,0,0,0,0,,,,,,,,,,,
550000,1744862948803,0.0,135,,-0.06,0.14,1.01,-1,-0,1,1.02,1.09,93,3639,4.6,3.79,,12.43,0.88,66.4,,38.8,5,,,,,,,,,,,,0,0,0,0,0,0,0,0,0,0,0,0,0,0,0,0,,,,,0.0,,,,,,
550020,1744862948823,,,,,,,,,,,,,,,,,,,,,,,,,,,,,,,,,,0,0,0,0,0,0,0,0,0,0,0,0,0,0,0,0,,,,,,,,,,,
550040,1744862948843,0.0,135,,-0.06,0.12,0.95,0,-0,0,0.96,1.09,87,3639,4.6,3.79,,12.44,0.881,66.4,,38.5,5,0,0,0,0,0.0,0.0,0.0,0.0,2.26,,,0,0,0,0,0,0,0,0,0,0,0,0,0,0,0,0,0,,,,0.0,38.985832,-76.950859,0.13,34,3,0.9
550060,1744862948863,,,,,,,,,,,,,,,,,,,,,,,,,,,,,,,,,,0,0,0,0,0,0,0,0,0,0,0,0,0,0,0,0,,,,,,,,,,,
550080,1744862948883,0.0,135,,-0.09,0.04,1.02,-0,-0,0,1.03,1.09,94,3523,4.8,3.79,,12.53,0.886,66.4,,38.5,5,,,,,,,,,,,,0,0,0,0,0,0,0,0,0,0,0,0,0,0,0,0,,,,,0.0,,,,,,
550100,1744862948903,,,,,,,,,,,,,,,,,,,,,,,,,,,,,,,,,,0,0,0,0,0,0,0,0,0,0,0,0,0,0,0,0,,,,,,,,,,,
550120,1744862948923,0.0,135,,-0.06,0.14,0.94,-0,-0,0,0.95,1.09,87,3406,4.8,3.81,,12.63,0.918,66.4,,38.5,5,,,,,,,,,,,,0,0,0,0,0,0,0,0,0,0,0,0,0,0,0,0,,,,,0.0,,,,,,
550140,1744862948943,,,,,,,,,,,,,,,,,,,,,,,0,0,0,0,0.0,0.0,0.0,0.0,2.26,,,0,0,0,0,0,0,0,0,0,0,0,0,0,0,0,0,0,,,,,38.985832,-76.950859,0.04,34,3,0.9
550160,1744862948963,0.0,135,,-0.08,0.01,1.02,-0,-0,0,1.02,1.09,94,3319,4.8,3.82,,12.75,0.985,66.4,,38.2,5,,,,,,,,,,,,0,0,0,0,0,0,0,0,0,0,0,0,0,0,0,0,,,,,0.0,,,,,,
550180,1744862948983,,,,,,,,,,,,,,,,,,,,,,,,,,,,,,,,,,0,0,0,0,0,0,0,0,0,0,0,0,0,0,0,0,,,,,,,,,,,
550200,1744862948993,0.0,135,,-0.09,-0.0,1.07,0,-0,0,1.07,1.09,98,3120,4.8,3.84,,12.75,0.985,66.4,,38.2,5,,,,,,,,,,,,0,0,0,0,0,0,0,0,0,0,0,0,0,0,0,0,,,,,0.0,,,,,,
550220,1744862949013,,,,,,,,,,,,,,,,,,,,,,,,,,,,,,,,,,0,0,0,0,0,0,0,0,0,0,0,0,0,0,0,0,,,,,,,,,,,
550240,1744862949033,0.0,135,14.09,-0.11,0.01,1.06,0,-0,0,1.07,1.09,98,3120,4.8,3.84,15,12.87,1.025,66.4,156,37.2,5,0,0,0,0,0.0,0.0,0.0,0.0,2.26,0,0.0,0,0,0,0,0,0,0,0,0,0,0,0,0,0,0,0,0,0.0,0,0,0.0,38.985832,-76.950859,0.0,35,3,0.8
550260,1744862949053,,,,,,,,,,,,,,,,,,,,,,,,,,,,,,,,,,0,0,0,0,0,0,0,0,0,0,0,0,0,0,0,0,,,,,,,,,,,
550280,1744862949073,0.0,135,,-0.14,-0.01,1.03,0,-0,-0,1.04,1.09,95,3064,4.8,3.86,,12.93,1.03,66.4,,37.2,5,,,,,,,,,,,,0,0,0,0,0,0,0,0,0,0,0,0,0,0,0,0,,,,,0.0,,,,,,
550300,1744862949099,,,,,,,,,,,,,,,,,,,,,,,,,,,,,,,,,,0,0,0,0,0,0,0,0,0,0,0,0,0,0,0,0,,,,,,,,,,,
550320,1744862949119,0.0,135,,-0.11,0.04,0.97,0,-0,-0,0.97,1.09,89,3054,4.9,3.88,,12.97,1.014,66.4,,37.2,5,,,,,,,,,,,,0,0,0,0,0,0,0,0,0,0,0,0,0,0,0,0,,,,,0.0,,,,,,
550340,1744862949139,,,,,,,,,,,,,,,,,,,,,,,0,0,0,0,0.0,0.0,0.0,0.0,2.26,,,0,0,0,0,0,0,0,0,0,0,0,0,0,0,0,0,0,,,,,38.985832,-76.950859,0.13,35,3,0.8
550360,1744862949159,0.0,135,,-0.12,-0.04,1.05,0,-0,0,1.06,1.09,97,3309,4.8,3.85,,12.99,1.042,66.4,,37.8,5,,,,,,,,,,,,0,0,0,0,0,0,0,0,0,0,0,0,0,0,0,0,,,,,0.0,,,,,,
550380,1744862949179,,,,,,,,,,,,,,,,,,,,,,,,,,,,,,,,,,0,0,0,0,0,0,0,0,0,0,0,0,0,0,0,0,,,,,,,,,,,
550400,1744862949199,0.0,135,,-0.08,0.08,0.98,0,-0,0,0.99,1.09,90,3457,4.7,3.85,,12.99,1.042,66.4,,37.8,5,,,,,,,,,,,,0,0,0,0,0,0,0,0,0,0,0,0,0,0,0,0,,,,,0.0,,,,,,
550420,1744862949219,,,,,,,,,,,,,,,,,,,,,,,,,,,,,,,,,,0,0,0,0,0,0,0,0,0,0,0,0,0,0,0,0,,,,,,,,,,,
550440,1744862949239,0.0,135,,-0.11,-0.05,1.04,1,-0,-0,1.05,1.09,96,3457,4.7,3.85,,12.87,0.993,66.4,,38.0,5,0,0,0,0,0.0,0.0,0.0,0.0,2.26,,,0,0,0,0,0,0,0,0,0,0,0,0,0,0,0,0,0,,,,0.0,38.985832,-76.950859,0.13,35,3,0.8
550460,1744862949259,,,,,,,,,,,,,,,,,,,,,,,,,,,,,,,,,,0,0,0,0,0,0,0,0,0,0,0,0,0,0,0,0,,,,,,,,,,,
550480,1744862949279,0.0,135,,-0.08,0.05,0.98,-0,-0,0,0.99,1.09,90,3407,4.6,3.84,,12.81,0.917,66.4,,38.0,5,,,,,,,,,,,,0,0,0,0,0,0,0,0,0,0,0,0,0,0,0,0,,,,,0.0,,,,,,
550500,1744862949303,,,,,,,,,,,,,,,,,,,,,,,,,,,,,,,,,,0,0,0,0,0,0,0,0,0,0,0,0,0,0,0,0,,,,,,,,,,,
550520,1744862949323,0.0,135,,-0.11,-0.04,1.05,0,-0,0,1.06,1.09,96,3354,4.7,3.84,,12.85,0.91,66.4,,38.0,5,,,,,,,,,,,,0,0,0,0,0,0,0,0,0,0,0,0,0,0,0,0,,,,,0.0,,,,,,
550540,1744862949343,,,,,,,,,,,,,,,,,,,,,,,0,0,0,0,0.0,0.0,0.0,0.0,2.26,,,0,0,0,0,0,0,0,0,0,0,0,0,0,0,0,0,0,,,,,38.985832,-76.950859,0.04,35,3,0.8
550560,1744862949363,0.0,135,,-0.1,-0.01,0.95,1,-0,-0,0.96,1.09,88,3294,4.7,3.84,,12.85,0.93,66.4,,37.6,5,,,,,,,,,,,,0,0,0,0,0,0,0,0,0,0,0,0,0,0,0,0,,,,,0.0,,,,,,
550580,1744862949383,,,,,,,,,,,,,,,,,,,,,,,,,,,,,,,,,,0,0,0,0,0,0,0,0,0,0,0,0,0,0,0,0,,,,,,,,,,,
550600,1744862949403,0.0,135,,-0.07,0.06,0.96,0,-0,0,0.97,1.09,88,3150,4.8,3.85,,12.85,0.93,66.4,,37.6,5,,,,,,,,,,,,0,0,0,0,0,0,0,0,0,0,0,0,0,0,0,0,,,,,0.0,,,,,,
550620,1744862949423,,,,,,,,,,,,,,,,,,,,,,,,,,,,,,,,,,0,0,0,0,0,0,0,0,0,0,0,0,0,0,0,0,,,,,,,,,,,
550640,1744862949443,0.0,135,,-0.06,0.01,1.02,-0,-0,0,1.02,1.09,93,3150,4.8,3.85,,12.93,0.958,66.4,,37.3,5,0,0,0,0,0.0,0.0,0.0,0.0,2.26,,,0,0,0,0,0,0,0,0,0,0,0,0,0,0,0,0,0,,,,0.0,38.985832,-76.950851,0.0,35,3,0.8
550660,1744862949463,,,,,,,,,,,,,,,,,,,,,,,,,,,,,,,,,,0,0,0,0,0,0,0,0,0,0,0,0,0,0,0,0,,,,,,,,,,,
550680,1744862949483,0.0,135,,-0.07,-0.03,1.07,-0,-0,0,1.07,1.09,98,3120,4.9,3.85,,12.96,1.0,66.4,,37.3,5,,,,,,,,,,,,0,0,0,0,0,0,0,0,0,0,0,0,0,0,0,0,,,,,0.0,,,,,,
550700,1744862949503,,,,,,,,,,,,,,,,,,,,,,,,,,,,,,,,,,0,0,0,0,0,0,0,0,0,0,0,0,0,0,0,0,,,,,,,,,,,
550720,1744862949523,0.0,135,,-0.09,-0.04,1.12,0,-0,0,1.12,1.12,100,3103,4.9,3.87,,12.99,1.021,66.4,,37.3,5,,,,,,,,,,,,0,0,0,0,0,0,0,0,0,0,0,0,0,0,0,0,,,,,0.0,,,,,,
550740,1744862949543,,,,,,,,,,,,,,,,,,,,,,,0,0,0,0,0.0,0.0,0.0,0.0,2.26,,,0,0,0,0,0,0,0,0,0,0,0,0,0,0,0,0,0,,,,,38.985832,-76.950851,0.07,35,3,0.8
550760,1744862949563,0.0,135,,-0.11,-0.05,1.13,0,-0,0,1.13,1.13,100,3058,4.9,3.87,,13.0,1.007,66.4,,37.5,5,,,,,,,,,,,,0,0,0,0,0,0,0,0,0,0,0,0,0,0,0,0,,,,,0.0,,,,,,
550780,1744862949583,,,,,,,,,,,,,,,,,,,,,,,,,,,,,,,,,,0,0,0,0,0,0,0,0,0,0,0,0,0,0,0,0,,,,,,,,,,,
550800,1744862949603,0.0,135,,-0.13,-0.06,1.08,0,-0,-0,1.09,1.13,96,3054,4.8,3.87,,13.0,1.007,66.4,,37.5,5,,,,,,,,,,,,0,0,0,0,0,0,0,0,0,0,0,0,0,0,0,0,,,,,0.0,,,,,,
550820,1744862949623,,,,,,,,,,,,,,,,,,,,,,,,,,,,,,,,,,0,0,0,0,0,0,0,0,0,0,0,0,0,0,0,0,,,,,,,,,,,
550840,1744862949643,0.0,135,,-0.13,-0.05,0.99,1,-0,-0,1.0,1.13,89,3054,4.8,3.87,,13.07,0.999,66.4,,36.8,5,0,0,0,0,0.0,0.0,0.0,0.0,2.26,,,0,0,0,0,0,0,0,0,0,0,0,0,0,0,0,0,0,,,,0.0,38.985832,-76.950851,0.05,35,3,0.8
550860,1744862949663,,,,,,,,,,,,,,,,,,,,,,,,,,,,,,,,,,0,0,0,0,0,0,0,0,0,0,0,0,0,0,0,0,,,,,,,,,,,
550880,1744862949683,0.0,135,,-0.12,-0.03,0.93,1,-0,-0,0.94,1.13,83,3101,4.8,3.87,,13.01,0.999,66.4,,36.8,5,,,,,,,,,,,,0,0,0,0,0,0,0,0,0,0,0,0,0,0,0,0,,,,,0.0,,,,,,
550900,1744862949704,,,,,,,,,,,,,,,,,,,,,,,,,,,,,,,,,,0,0,0,0,0,0,0,0,0,0,0,0,0,0,0,0,,,,,,,,,,,
550920,1744862949724,0.0,135,,-0.11,-0.01,0.87,1,-0,-0,0.88,1.13,77,3078,4.7,3.87,,13.03,1.013,66.4,,36.8,5,,,,,,,,,,,,0,0,0,0,0,0,0,0,0,0,0,0,0,0,0,0,,,,,0.0,,,,,,
550940,1744862949744,,,,,,,,,,,,,,,,,,,,,,,0,0,0,0,0.0,0.0,0.0,0.0,2.27,,,0,0,0,0,0,0,0,0,0,0,0,0,0,0,0,0,0,,,,,38.985832,-76.950851,0.04,35,3,0.8
550960,1744862949764,0.0,135,,-0.08,0.04,0.83,1,-0,-0,0.84,1.13,74,3040,4.6,3.87,,13.04,1.031,66.4,,37.1,5,,,,,,,,,,,,0,0,0,0,0,0,0,0,0,0,0,0,0,0,0,0,,,,,0.0,,,,,,
550980,1744862949784,,,,,,,,,,,,,,,,,,,,,,,,,,,,,,,,,,0,0,0,0,0,0,0,0,0,0,0,0,0,0,0,0,,,,,,,,,,,
551000,1744862949802,0.0,135,,-0.05,0.09,0.83,-0,-0,0,0.84,1.13,74,3027,4.7,3.87,,13.04,1.031,66.4,,37.1,5,,,,,,,,,,,,0,0,0,0,0,0,0,0,0,0,0,0,0,0,0,0,,,,,0.0,,,,,,
551020,1744862949822,,,,,,,,,,,,,,,,,,,,,,,,,,,,,,,,,,0,0,0,0,0,0,0,0,0,0,0,0,0,0,0,0,,,,,,,,,,,
551040,1744862949842,0.0,135,,-0.03,0.11,0.85,-0,-0,1,0.86,1.13,76,3027,4.7,3.87,,13.11,1.018,66.4,,36.7,5,0,0,0,0,0.0,0.0,0.0,0.0,2.26,,,0,0,0,0,0,0,0,0,0,0,0,0,0,0,0,0,0,,,,0.0,38.985832,-76.950851,0.09,35,3,0.8
551060,1744862949862,,,,,,,,,,,,,,,,,,,,,,,,,,,,,,,,,,0,0,0,0,0,0,0,0,0,0,0,0,0,0,0,0,,,,,,,,,,,
551080,1744862949882,0.0,135,,-0.02,0.11,0.89,-1,-0,1,0.9,1.13,79,3068,4.7,3.87,,13.07,1.02,66.4,,36.7,5,,,,,,,,,,,,0,0,0,0,0,0,0,0,0,0,0,0,0,0,0,0,,,,,0.0,,,,,,
551100,1744862949904,,,,,,,,,,,,,,,,,,,,,,,,,,,,,,,,,,0,0,0,0,0,0,0,0,0,0,0,0,0,0,0,0,,,,,,,,,,,
551120,1744862949924,0.0,135,,-0.01,0.09,0.94,-1,-0,1,0.94,1.13,83,3063,4.7,3.88,,13.11,1.025,66.4,,36.7,5,,,,,,,,,,,,0,0,0,0,0,0,0,0,0,0,0,0,0,0,0,0,,,,,0.0,,,,,,
551140,1744862949944,,,,,,,,,,,,,,,,,,,,,,,0,0,0,0,0.0,0.0,0.0,0.0,2.26,,,0,0,0,0,0,0,0,0,0,0,0,0,0,0,0,0,0,,,,,38.985832,-76.950851,0.04,35,3,0.8
551160,1744862949964,0.0,135,,-0.01,0.07,0.98,-1,-0,1,0.98,1.13,87,2987,4.8,3.87,,13.15,1.036,66.4,,37.0,5,,,,,,,,,,,,0,0,0,0,0,0,0,0,0,0,0,0,0,0,0,0,,,,,0.0,,,,,,
551180,1744862949984,,,,,,,,,,,,,,,,,,,,,,,,,,,,,,,,,,0,0,0,0,0,0,0,0,0,0,0,0,0,0,0,0,,,,,,,,,,,
551200,1744862949994,0.0,135,,-0.01,0.04,1.02,-1,-0,1,1.03,1.13,90,3009,4.9,3.86,,13.15,1.036,66.4,,37.0,5,,,,,,,,,,,,0,0,0,0,0,0,0,0,0,0,0,0,0,0,0,0,,,,,0.0,,,,,,
551220,1744862950014,,,,,,,,,,,,,,,,,,,,,,,,,,,,,,,,,,0,0,0,0,0,0,0,0,0,0,0,0,0,0,0,0,,,,,,,,,,,
551240,1744862950034,0.0,135,14.12,-0.02,0.02,1.06,-1,-0,1,1.06,1.13,93,3009,4.9,3.86,15,13.15,1.019,66.4,158,36.5,5,0,0,0,0,0.0,0.0,0.0,0.0,2.26,0,0.0,0,0,0,0,0,0,0,0,0,0,0,0,0,0,0,0,0,0.0,0,0,0.0,38.985832,-76.950851,0.0,33,3,0.9
551260,1744862950054,,,,,,,,,,,,,,,,,,,,,,,,,,,,,,,,,,0,0,0,0,0,0,0,0,0,0,0,0,0,0,0,0,,,,,,,,,,,
551280,1744862950074,0.0,135,,-0.01,0.01,1.07,-1,-0,1,1.07,1.13,95,2990,4.8,3.88,,13.15,1.008,66.4,,36.5,5,,,,,,,,,,,,0,0,0,0,0,0,0,0,0,0,0,0,0,0,0,0,,,,,0.0,,,,,,
551300,1744862950102,,,,,,,,,,,,,,,,,,,,,,,,,,,,,,,,,,0,0,0,0,0,0,0,0,0,0,0,0,0,0,0,0,,,,,,,,,,,
551320,1744862950122,0.0,135,,-0.01,0.01,1.09,-1,-0,1,1.09,1.13,96,2995,4.9,3.87,,13.19,1.007,66.4,,36.5,5,,,,,,,,,,,,0,0,0,0,0,0,0,0,0,0,0,0,0,0,0,0,,,,,0.0,,,,,,
551340,1744862950142,,,,,,,,,,,,,,,,,,,,,,,0,0,0,0,0.0,0.0,0.0,0.0,2.26,,,0,0,0,0,0,0,0,0,0,0,0,0,0,0,0,0,0,,,,,38.985832,-76.950851,0.07,33,3,0.9
551360,1744862950162,0.0,135,,-0.02,-0.01,1.17,-1,-0,2,1.17,1.17,100,3156,4.9,3.88,,13.12,1.015,66.4,,37.0,5,,,,,,,,,,,,0,0,0,0,0,0,0,0,0,0,0,0,0,0,0,0,,,,,0.0,,,,,,
551380,1744862950182,,,,,,,,,,,,,,,,,,,,,,,,,,,,,,,,,,0,0,0,0,0,0,0,0,0,0,0,0,0,0,0,0,,,,,,,,,,,
551400,1744862950200,0.0,135,,-0.01,0.11,1.07,-2,-0,2,1.07,1.17,92,3390,4.8,3.87,,13.12,1.015,66.4,,37.0,5,,,,,,,,,,,,0,0,0,0,0,0,0,0,0,0,0,0,0,0,0,0,,,,,0.0,,,,,,
551420,1744862950220,,,,,,,,,,,,,,,,,,,,,,,,,,,,,,,,,,0,0,0,0,0,0,0,0,0,0,0,0,0,0,0,0,,,,,,,,,,,
551440,1744862950240,0.0,135,,-0.04,-0.02,1.11,-1,-0,1,1.11,1.17,95,3390,4.8,3.87,,13.04,1.038,66.4,,37.7,5,0,0,0,0,0.0,0.0,0.0,0.0,2.26,,,0,0,0,0,0,0,0,0,0,0,0,0,0,0,0,0,0,,,,0.0,38.985832,-76.950851,0.08,33,3,0.9
551460,1744862950260,,,,,,,,,,,,,,,,,,,,,,,,,,,,,,,,,,0,0,0,0,0,0,0,0,0,0,0,0,0,0,0,0,,,,,,,,,,,
551480,1744862950280,0.0,135,,-0.05,-0.03,1.12,-1,-0,1,1.12,1.17,96,3504,4.7,3.84,,12.88,0.963,66.4,,37.7,5,,,,,,,,,,,,0,0,0,0,0,0,0,0,0,0,0,0,0,0,0,0,,,,,0.0,,,,,,
551500,1744862950304,,,,,,,,,,,,,,,,,,,,,,,,,,,,,,,,,,0,0,0,0,0,0,0,0,0,0,0,0,0,0,0,0,,,,,,,,,,,
551520,1744862950324,0.0,135,,-0.05,0.01,1.07,-1,-0,1,1.07,1.17,92,3696,4.6,3.83,,12.72,0.905,66.4,,37.7,5,,,,,,,,,,,,0,0,0,0,0,0,0,0,0,0,0,0,0,0,0,0,,,,,0.0,,,,,,
551540,1744862950344,,,,,,,,,,,,,,,,,,,,,,,0,0,0,0,0.0,0.0,0.0,0.0,2.26,,,0,0,0,0,0,0,0,0,0,0,0,0,0,0,0,0,0,,,,,38.985832,-76.950851,0.11,33,3,0.9
551560,1744862950364,0.0,135,,-0.06,0.06,1.07,-2,-0,1,1.07,1.17,92,3752,4.6,3.8,,12.6,0.896,66.4,,38.1,5,,,,,,,,,,,,0,0,0,0,0,0,0,0,0,0,0,0,0,0,0,0,,,,,0.0,,,,,,
551580,1744862950384,,,,,,,,,,,,,,,,,,,,,,,,,,,,,,,,,,0,0,0,0,0,0,0,0,0,0,0,0,0,0,0,0,,,,,,,,,,,
551600,1744862950404,0.0,135,,-0.06,0.04,1.07,-2,-0,1,1.07,1.17,92,3709,4.7,3.8,,12.6,0.896,66.4,,38.1,5,,,,,,,,,,,,0,0,0,0,0,0,0,0,0,0,0,0,0,0,0,0,,,,,0.0,,,,,,
551620,1744862950424,,,,,,,,,,,,,,,,,,,,,,,,,,,,,,,,,,0,0,0,0,0,0,0,0,0,0,0,0,0,0,0,0,,,,,,,,,,,
551640,1744862950444,0.0,135,,-0.04,0.08,1.04,-2,-0,1,1.04,1.17,89,3709,4.7,3.8,,12.49,0.911,66.4,,37.9,5,0,0,0,0,0.0,0.0,0.0,0.0,2.26,,,0,0,0,0,0,0,0,0,0,0,0,0,0,0,0,0,0,,,,0.0,38.985832,-76.950851,0.07,33,3,0.9
551660,1744862950464,,,,,,,,,,,,,,,,,,,,,,,,,,,,,,,,,,0,0,0,0,0,0,0,0,0,0,0,0,0,0,0,0,,,,,,,,,,,
551680,1744862950484,0.0,135,,-0.05,0.03,1.0,-1,-0,1,1.0,1.17,86,3582,4.7,3.8,,12.53,0.928,66.4,,37.9,5,,,,,,,,,,,,0,0,0,0,0,0,0,0,0,0,0,0,0,0,0,0,,,,,0.0,,,,,,
551700,1744862950504,,,,,,,,,,,,,,,,,,,,,,,,,,,,,,,,,,0,0,0,0,0,0,0,0,0,0,0,0,0,0,0,0,,,,,,,,,,,
551720,1744862950524,0.0,135,,-0.08,-0.04,1.08,-1,-0,1,1.08,1.17,93,3495,4.8,3.8,,12.61,0.939,66.4,,37.9,5,,,,,,,,,,,,0,0,0,0,0,0,0,0,0,0,0,0,0,0,0,0,,,,,0.0,,,,,,
551740,1744862950544,,,,,,,,,,,,,,,,,,,,,,,0,0,0,0,0.0,0.0,0.0,0.0,2.26,,,0,0,0,0,0,0,0,0,0,0,0,0,0,0,0,0,0,,,,,38.985832,-76.950851,0.13,33,3,0.9
551760,1744862950564,0.0,135,,-0.06,0.07,0.99,-1,-0,1,1.0,1.17,85,3338,4.9,3.82,,12.69,1.0,66.4,,37.5,5,,,,,,,,,,,,0,0,0,0,0,0,0,0,0,0,0,0,0,0,0,0,,,,,0.0,,,,,,
551780,1744862950584,,,,,,,,,,,,,,,,,,,,,,,,,,,,,,,,,,0,0,0,0,0,0,0,0,0,0,0,0,0,0,0,0,,,,,,,,,,,
551800,1744862950604,0.0,135,,-0.06,0.05,1.03,-1,-0,1,1.03,1.17,88,3211,4.9,3.84,,12.69,1.0,66.4,,37.5,5,,,,,,,,,,,,0,0,0,0,0,0,0,0,0,0,0,0,0,0,0,0,,,,,0.0,,,,,,
551820,1744862950624,,,,,,,,,,,,,,,,,,,,,,,,,,,,,,,,,,0,0,0,0,0,0,0,0,0,0,0,0,0,0,0,0,,,,,,,,,,,
551840,1744862950644,0.0,135,,-0.05,0.01,1.08,-1,-0,1,1.09,1.17,93,3211,4.9,3.84,,12.85,1.036,66.4,,36.8,5,0,0,0,0,0.0,0.0,0.0,0.0,2.26,,,0,0,0,0,0,0,0,0,0,0,0,0,0,0,0,0,0,,,,0.0,38.985832,-76.950851,0.05,33,3,0.9
551860,1744862950664,,,,,,,,,,,,,,,,,,,,,,,,,,,,,,,,,,0,0,0,0,0,0,0,0,0,0,0,0,0,0,0,0,,,,,,,,,,,
551880,1744862950684,0.0,135,,-0.07,-0.0,1.13,-1,-0,1,1.13,1.17,97,3142,4.9,3.86,,12.89,1.032,66.4,,36.8,5,,,,,,,,,,,,0,0,0,0,0,0,0,0,0,0,0,0,0,0,0,0,,,,,0.0,,,,,,
551900,1744862950703,,,,,,,,,,,,,,,,,,,,,,,,,,,,,,,,,,0,0,0,0,0,0,0,0,0,0,0,0,0,0,0,0,,,,,,,,,,,
551920,1744862950723,0.0,135,,-0.09,-0.0,1.16,-0,-0,0,1.16,1.17,99,3045,4.9,3.86,,12.95,1.003,66.4,,36.8,5,,,,,,,,,,,,0,0,0,0,0,0,0,0,0,0,0,0,0,0,0,0,,,,,0.0,,,,,,
551940,1744862950743,,,,,,,,,,,,,,,,,,,,,,,0,0,0,0,0.0,0.0,0.0,0.0,2.26,,,0,0,0,0,0,0,0,0,0,0,0,0,0,0,0,0,0,,,,,38.985832,-76.950851,0.04,33,3,0.9
551960,1744862950763,0.0,135,,-0.12,-0.01,1.18,-0,-0,0,1.18,1.18,100,2990,4.9,3.87,,13.08,0.974,66.4,,36.9,5,,,,,,,,,,,,0,0,0,0,0,0,0,0,0,0,0,0,0,0,0,0,,,,,0.0,,,,,,
551980,1744862950783,,,,,,,,,,,,,,,,,,,,,,,,,,,,,,,,,,0,0,0,0,0,0,0,0,0,0,0,0,0,0,0,0,,,,,,,,,,,
552000,1744862950803,0.0,135,,-0.14,-0.02,1.21,-0,0,0,1.22,1.22,100,2978,4.7,3.88,,13.08,0.974,66.4,,36.9,5,,,,,,,,,,,,0,0,0,0,0,0,0,0,0,0,0,0,0,0,0,0,,,,,0.0,,,,,,
552020,1744862950823,,,,,,,,,,,,,,,,,,,,,,,,,,,,,,,,,,0,0,0,0,0,0,0,0,0,0,0,0,0,0,0,0,,,,,,,,,,,
552040,1744862950843,0.0,135,,-0.15,-0.03,1.25,-0,0,0,1.26,1.26,100,2978,4.7,3.88,,13.13,0.968,66.4,,36.5,5,0,0,0,0,0.0,0.0,0.0,0.0,2.26,,,0,0,0,0,0,0,0,0,0,0,0,0,0,0,0,0,0,,,,0.0,38.985832,-76.950851,0.04,33,3,0.9
552060,1744862950863,,,,,,,,,,,,,,,,,,,,,,,,,,,,,,,,,,0,0,0,0,0,0,0,0,0,0,0,0,0,0,0,0,,,,,,,,,,,
552080,1744862950883,0.0,135,,-0.15,-0.06,1.3,0,0,0,1.31,1.31,100,2965,4.6,3.88,,13.17,0.971,66.4,,36.5,5,,,,,,,,,,,,0,0,0,0,0,0,0,0,0,0,0,0,0,0,0,0,,,,,0.0,,,,,,
552100,1744862950903,,,,,,,,,,,,,,,,,,,,,,,,,,,,,,,,,,0,0,0,0,0,0,0,0,0,0,0,0,0,0,0,0,,,,,,,,,,,
552120,1744862950923,0.0,135,,-0.14,-0.09,1.32,0,0,0,1.33,1.33,100,2954,4.6,3.88,,13.2,0.981,66.4,,36.6,5,,,,,,,,,,,,0,0,0,0,0,0,0,0,0,0,0,0,0,0,0,0,,,,,0.0,,,,,,
552140,1744862950943,,,,,,,,,,,,,,,,,,,,,,,0,0,0,0,0.0,0.0,0.0,0.0,2.26,,,0,0,0,0,0,0,0,0,0,0,0,0,0,0,0,0,0,,,,,38.985832,-76.950851,0.07,33,3,0.9
552160,1744862950963,0.0,135,,-0.13,-0.11,1.33,0,0,0,1.34,1.34,100,2953,4.7,3.88,,13.24,0.982,66.4,,36.6,5,,,,,,,,,,,,0,0,0,0,0,0,0,0,0,0,0,0,0,0,0,0,,,,,0.0,,,,,,
552180,1744862950983,,,,,,,,,,,,,,,,,,,,,,,,,,,,,,,,,,0,0,0,0,0,0,0,0,0,0,0,0,0,0,0,0,,,,,,,,,,,
552200,1744862950995,0.0,135,,-0.12,-0.11,1.33,-0,-0,1,1.34,1.34,100,2953,4.7,3.88,,13.2,0.982,66.4,,36.6,5,,,,,,,,,,,,0,0,0,0,0,0,0,0,0,0,0,0,0,0,0,0,,,,,0.0,,,,,,
552220,1744862951015,,,,,,,,,,,,,,,,,,,,,,,,,,,,,,,,,,0,0,0,0,0,0,0,0,0,0,0,0,0,0,0,0,,,,,,,,,,,
552240,1744862951035,0.0,135,14.14,-0.11,-0.12,1.34,-0,-0,1,1.35,1.35,100,3049,4.9,3.87,15,13.2,0.97,66.4,158,36.3,5,0,0,0,0,0.0,0.0,0.0,0.0,2.26,0,0.0,0,0,0,0,0,0,0,0,0,0,0,0,0,0,0,0,0,0.0,0,-0,0.0,38.985832,-76.950851,0.05,33,3,0.9
552260,1744862951055,,,,,,,,,,,,,,,,,,,,,,,,,,,,,,,,,,0,0,0,0,0,0,0,0,0,0,0,0,0,0,0,0,,,,,,,,,,,
552280,1744862951075,0.0,135,,-0.11,-0.14,1.35,-0,-0,1,1.36,1.36,100,3049,4.9,3.87,,13.16,0.979,66.4,,36.3,5,,,,,,,,,,,,0,0,0,0,0,0,0,0,0,0,0,0,0,0,0,0,,,,,0.0,,,,,,
552300,1744862951101,,,,,,,,,,,,,,,,,,,,,,,,,,,,,,,,,,0,0,0,0,0,0,0,0,0,0,0,0,0,0,0,0,,,,,,,,,,,
552320,1744862951121,0.0,135,,-0.11,-0.15,1.38,-0,-0,1,1.39,1.39,100,3048,4.9,3.88,,13.12,0.992,66.4,,36.8,5,,,,,,,,,,,,0,0,0,0,0,0,0,0,0,0,0,0,0,0,0,0,,,,,0.0,,,,,,
552340,1744862951141,,,,,,,,,,,,,,,,,,,,,,,0,0,0,0,0.0,0.0,0.0,0.0,2.26,,,0,0,0,0,0,0,0,0,0,0,0,0,0,0,0,0,0,,,,,38.985832,-76.950851,0.08,33,3,0.9
552360,1744862951161,0.0,135,,-0.12,-0.15,1.39,0,0,1,1.41,1.41,100,3069,4.9,3.87,,13.12,1.007,66.4,,36.8,5,,,,,,,,,,,,0,0,0,0,0,0,0,0,0,0,0,0,0,0,0,0,,,,,0.0,,,,,,
552380,1744862951181,,,,,,,,,,,,,,,,,,,,,,,,,,,,,,,,,,0,0,0,0,0,0,0,0,0,0,0,0,0,0,0,0,,,,,,,,,,,
552400,1744862951199,0.0,135,,-0.14,-0.15,1.35,0,0,0,1.36,1.41,97,3155,4.9,3.88,,13.05,1.026,66.4,,36.8,5,,,,,,,,,,,,0,0,0,0,0,0,0,0,0,0,0,0,0,0,0,0,,,,,0.0,,,,,,
552420,1744862951219,,,,,,,,,,,,,,,,,,,,,,,,,,,,,,,,,,0,0,0,0,0,0,0,0,0,0,0,0,0,0,0,0,,,,,,,,,,,
552440,1744862951239,0.0,135,,-0.14,-0.13,1.24,0,0,0,1.25,1.41,89,3121,4.9,3.86,,13.05,1.026,66.4,,36.6,5,0,0,0,0,0.0,0.0,0.0,0.0,2.26,,,0,0,0,0,0,0,0,0,0,0,0,0,0,0,0,0,0,,,,0.0,38.985832,-76.950851,0.11,33,3,0.9
552460,1744862951259,,,,,,,,,,,,,,,,,,,,,,,,,,,,,,,,,,0,0,0,0,0,0,0,0,0,0,0,0,0,0,0,0,,,,,,,,,,,
552480,1744862951279,0.0,135,,-0.13,-0.1,1.13,1,-0,0,1.14,1.41,81,3121,4.9,3.86,,13.04,1.035,66.4,,36.6,5,,,,,,,,,,,,0,0,0,0,0,0,0,0,0,0,0,0,0,0,0,0,,,,,0.0,,,,,,
552500,1744862951303,,,,,,,,,,,,,,,,,,,,,,,,,,,,,,,,,,0,0,0,0,0,0,0,0,0,0,0,0,0,0,0,0,,,,,,,,,,,
552520,1744862951323,0.0,135,,-0.09,-0.05,1.08,0,-0,0,1.09,1.41,77,3080,4.8,3.87,,13.05,1.038,66.4,,36.5,5,,,,,,,,,,,,0,0,0,0,0,0,0,0,0,0,0,0,0,0,0,0,,,,,0.0,,,,,,
552540,1744862951343,,,,,,,,,,,,,,,,,,,,,,,0,0,0,0,0.0,0.0,0.0,0.0,2.26,,,0,0,0,0,0,0,0,0,0,0,0,0,0,0,0,0,0,,,,,38.985832,-76.950851,0.14,33,3,0.9
552560,1744862951363,0.0,135,,-0.06,-0.01,1.09,-0,-0,1,1.09,1.41,78,3057,4.7,3.87,,13.05,1.036,66.4,,36.5,5,,,,,,,,,,,,0,0,0,0,0,0,0,0,0,0,0,0,0,0,0,0,,,,,0.0,,,,,,
552580,1744862951383,,,,,,,,,,,,,,,,,,,,,,,,,,,,,,,,,,0,0,0,0,0,0,0,0,0,0,0,0,0,0,0,0,,,,,,,,,,,
552600,1744862951403,0.0,135,,-0.04,-0.02,1.12,-0,-0,1,1.12,1.41,80,3073,4.6,3.87,,13.04,1.032,66.4,,36.5,5,,,,,,,,,,,,0,0,0,0,0,0,0,0,0,0,0,0,0,0,0,0,,,,,0.0,,,,,,
552620,1744862951423,,,,,,,,,,,,,,,,,,,,,,,,,,,,,,,,,,0,0,0,0,0,0,0,0,0,0,0,0,0,0,0,0,,,,,,,,,,,
552640,1744862951443,0.0,135,,-0.03,-0.05,1.16,-1,-0,1,1.16,1.41,83,3062,4.6,3.88,,13.04,1.032,66.4,,36.9,5,0,0,0,0,0.0,0.0,0.0,0.0,2.26,,,0,0,0,0,0,0,0,0,0,0,0,0,0,0,0,0,0,,,,0.0,38.985832,-76.950851,0.07,33,3,0.9
552660,1744862951463,,,,,,,,,,,,,,,,,,,,,,,,,,,,,,,,,,0,0,0,0,0,0,0,0,0,0,0,0,0,0,0,0,,,,,,,,,,,
552680,1744862951483,0.0,135,,-0.03,-0.08,1.19,-1,-0,1,1.19,1.41,85,3062,4.6,3.88,,13.08,1.027,66.4,,36.9,5,,,,,,,,,,,,0,0,0,0,0,0,0,0,0,0,0,0,0,0,0,0,,,,,0.0,,,,,,
552700,1744862951503,,,,,,,,,,,,,,,,,,,,,,,,,,,,,,,,,,0,0,0,0,0,0,0,0,0,0,0,0,0,0,0,0,,,,,,,,,,,
552720,1744862951523,0.0,135,,-0.03,-0.1,1.22,-1,-0,1,1.22,1.41,87,2966,4.6,3.87,,13.13,1.018,66.4,,36.4,5,,,,,,,,,,,,0,0,0,0,0,0,0,0,0,0,0,0,0,0,0,0,,,,,0.0,,,,,,
552740,1744862951543,,,,,,,,,,,,,,,,,,,,,,,0,0,0,0,0.0,0.0,0.0,0.0,2.26,,,0,0,0,0,0,0,0,0,0,0,0,0,0,0,0,0,0,,,,,38.985832,-76.950851,0.11,33,3,0.9
552760,1744862951563,0.0,135,,-0.03,-0.12,1.25,-1,-0,1,1.25,1.41,89,2952,4.7,3.88,,13.16,1.004,66.4,,36.4,5,,,,,,,,,,,,0,0,0,0,0,0,0,0,0,0,0,0,0,0,0,0,,,,,0.0,,,,,,
552780,1744862951583,,,,,,,,,,,,,,,,,,,,,,,,,,,,,,,,,,0,0,0,0,0,0,0,0,0,0,0,0,0,0,0,0,,,,,,,,,,,
552800,1744862951603,0.0,135,,-0.03,-0.13,1.28,-1,-0,1,1.29,1.41,92,3070,4.8,3.88,,13.16,1.004,66.4,,36.4,5,,,,,,,,,,,,0,0,0,0,0,0,0,0,0,0,0,0,0,0,0,0,,,,,0.0,,,,,,
552820,1744862951623,,,,,,,,,,,,,,,,,,,,,,,,,,,,,,,,,,0,0,0,0,0,0,0,0,0,0,0,0,0,0,0,0,,,,,,,,,,,
552840,1744862951643,0.0,135,,-0.05,-0.14,1.31,-1,-0,1,1.32,1.41,94,3070,4.8,3.88,,13.12,0.997,66.4,,36.7,5,0,0,0,0,0.0,0.0,0.0,0.0,2.26,,,0,0,0,0,0,0,0,0,0,0,0,0,0,0,0,0,0,,,,0.0,38.985832,-76.950851,0.09,33,3,0.9
552860,1744862951663,,,,,,,,,,,,,,,,,,,,,,,,,,,,,,,,,,0,0,0,0,0,0,0,0,0,0,0,0,0,0,0,0,,,,,,,,,,,
552880,1744862951683,0.0,135,,-0.06,-0.16,1.33,-0,-0,1,1.34,1.41,95,3011,4.8,3.88,,13.16,1.001,66.4,,36.7,5,,,,,,,,,,,,0,0,0,0,0,0,0,0,0,0,0,0,0,0,0,0,,,,,0.0,,,,,,
552900,1744862951704,,,,,,,,,,,,,,,,,,,,,,,,,,,,,,,,,,0,0,0,0,0,0,0,0,0,0,0,0,0,0,0,0,,,,,,,,,,,
552920,1744862951724,0.0,135,,-0.05,-0.09,1.22,-1,-0,1,1.22,1.41,87,3302,4.8,3.87,,13.11,1.011,66.4,,36.8,5,,,,,,,,,,,,0,0,0,0,0,0,0,0,0,0,0,0,0,0,0,0,,,,,0.0,,,,,,
552940,1744862951744,,,,,,,,,,,,,,,,,,,,,,,0,0,0,0,0.0,0.0,0.0,0.0,2.26,,,0,0,0,0,0,0,0,0,0,0,0,0,0,0,0,0,0,,,,,38.985832,-76.950851,0.15,33,3,0.9
552960,1744862951764,0.0,135,,-0.08,-0.17,1.27,-0,-0,1,1.29,1.41,91,3351,4.9,3.85,,13.0,1.079,66.4,,36.8,5,,,,,,,,,,,,0,0,0,0,0,0,0,0,0,0,0,0,0,0,0,0,,,,,0.0,,,,,,
552980,1744862951784,,,,,,,,,,,,,,,,,,,,,,,,,,,,,,,,,,0,0,0,0,0,0,0,0,0,0,0,0,0,0,0,0,,,,,,,,,,,
553000,1744862951802,0.0,135,,-0.09,-0.14,1.2,-0,-0,0,1.21,1.41,86,3193,4.8,3.85,,12.96,1.037,66.4,,36.8,5,,,,,,,,,,,,0,0,0,0,0,0,0,0,0,0,0,0,0,0,0,0,,,,,0.0,,,,,,
553020,1744862951822,,,,,,,,,,,,,,,,,,,,,,,,,,,,,,,,,,0,0,0,0,0,0,0,0,0,0,0,0,0,0,0,0,,,,,,,,,,,
553040,1744862951842,0.0,135,,-0.08,-0.11,1.09,0,-0,0,1.1,1.41,78,3104,4.7,3.86,,12.96,1.037,66.4,,36.8,5,0,0,0,0,0.0,0.0,0.0,0.0,2.26,,,0,0,0,0,0,0,0,0,0,0,0,0,0,0,0,0,0,,,,0.0,38.985832,-76.950851,0.57,33,3,0.9
553060,1744862951862,,,,,,,,,,,,,,,,,,,,,,,,,,,,,,,,,,0,0,0,0,0,0,0,0,0,0,0,0,0,0,0,0,,,,,,,,,,,
553080,1744862951882,0.0,135,,-0.05,-0.04,1.06,0,-0,1,1.06,1.41,76,3104,4.7,3.86,,13.01,0.958,66.4,,36.8,5,,,,,,,,,,,,0,0,0,0,0,0,0,0,0,0,0,0,0,0,0,0,,,,,0.0,,,,,,
553100,1744862951902,,,,,,,,,,,,,,,,,,,,,,,,,,,,,,,,,,0,0,0,0,0,0,0,0,0,0,0,0,0,0,0,0,,,,,,,,,,,
553120,1744862951922,0.0,135,,-0.03,-0.04,1.08,-1,-0,1,1.08,1.41,77,3122,4.6,3.87,,13.0,0.93,66.4,,36.5,5,,,,,,,,,,,,0,0,0,0,0,0,0,0,0,0,0,0,0,0,0,0,,,,,0.0,,,,,,
553140,1744862951942,,,,,,,,,,,,,,,,,,,,,,,0,0,0,0,0.0,0.0,0.0,0.0,2.26,,,0,0,0,0,0,0,0,0,0,0,0,0,0,0,0,0,0,,,,,38.985832,-76.950851,0.29,33,3,0.9
553160,1744862951962,0.0,135,,-0.02,-0.07,1.13,-1,-0,1,1.13,1.41,80,3101,4.6,3.87,,13.05,0.947,66.4,,36.5,5,,,,,,,,,,,,0,0,0,0,0,0,0,0,0,0,0,0,0,0,0,0,,,,,0.0,,,,,,
553180,1744862951982,,,,,,,,,,,,,,,,,,,,,,,,,,,,,,,,,,0,0,0,0,0,0,0,0,0,0,0,0,0,0,0,0,,,,,,,,,,,
553200,1744862951992,0.0,135,,-0.04,-0.09,1.17,-0,-0,1,1.18,1.41,84,3086,4.6,3.86,,13.05,0.947,66.4,,36.5,5,,,,,,,,,,,,0,0,0,0,0,0,0,0,0,0,0,0,0,0,0,0,,,,,0.0,,,,,,
553220,1744862952012,,,,,,,,,,,,,,,,,,,,,,,,,,,,,,,,,,0,0,0,0,0,0,0,0,0,0,0,0,0,0,0,0,,,,,,,,,,,
553240,1744862952032,0.0,135,14.1,-0.07,-0.1,1.17,-0,-0,1,1.18,1.41,84,3151,4.6,3.86,15,13.05,0.966,66.4,158,36.8,5,0,0,0,0,0.0,0.0,0.0,0.0,2.26,0,0.0,0,0,0,0,0,0,0,0,0,0,0,0,0,0,0,0,0,0.0,0,-0,0.0,38.985832,-76.950851,0.17,34,3,0.9
553260,1744862952052,,,,,,,,,,,,,,,,,,,,,,,,,,,,,,,,,,0,0,0,0,0,0,0,0,0,0,0,0,0,0,0,0,,,,,,,,,,,
553280,1744862952072,0.0,135,,-0.09,-0.09,1.09,0,-0,0,1.09,1.41,78,3151,4.6,3.86,,13.03,0.985,66.4,,36.8,5,,,,,,,,,,,,0,0,0,0,0,0,0,0,0,0,0,0,0,0,0,0,,,,,0.0,,,,,,
553300,1744862952098,,,,,,,,,,,,,,,,,,,,,,,,,,,,,,,,,,0,0,0,0,0,0,0,0,0,0,0,0,0,0,0,0,,,,,,,,,,,
553320,1744862952118,0.0,135,,-0.08,-0.06,1.01,0,-0,0,1.01,1.41,72,3131,4.7,3.85,,13.03,0.994,66.4,,36.7,5,,,,,,,,,,,,0,0,0,0,0,0,0,0,0,0,0,0,0,0,0,0,,,,,0.0,,,,,,
553340,1744862952138,,,,,,,,,,,,,,,,,,,,,,,0,0,0,0,0.0,0.0,0.0,0.0,2.26,,,0,0,0,0,0,0,0,0,0,0,0,0,0,0,0,0,0,,,,,38.985832,-76.950851,0.04,34,3,0.9
553360,1744862952158,0.0,135,,-0.06,-0.01,0.96,0,-0,0,0.96,1.41,68,3049,4.8,3.86,,13.07,0.995,66.4,,36.7,5,,,,,,,,,,,,0,0,0,0,0,0,0,0,0,0,0,0,0,0,0,0,,,,,0.0,,,,,,
553380,1744862952178,,,,,,,,,,,,,,,,,,,,,,,,,,,,,,,,,,0,0,0,0,0,0,0,0,0,0,0,0,0,0,0,0,,,,,,,,,,,
553400,1744862952200,0.0,135,,-0.03,0.03,0.93,0,-0,0,0.93,1.41,66,3024,4.8,3.86,,13.12,1.001,66.4,,36.7,5,,,,,,,,,,,,0,0,0,0,0,0,0,0,0,0,0,0,0,0,0,0,,,,,0.0,,,,,,
553420,1744862952220,,,,,,,,,,,,,,,,,,,,,,,,,,,,,,,,,,0,0,0,0,0,0,0,0,0,0,0,0,0,0,0,0,,,,,,,,,,,
553440,1744862952240,0.0,135,,-0.01,0.09,0.91,-0,-0,1,0.91,1.41,65,3020,4.8,3.87,,13.12,1.001,66.4,,36.3,5,0,0,0,0,0.0,0.0,0.0,0.0,2.26,,,0,0,0,0,0,0,0,0,0,0,0,0,0,0,0,0,0,,,,0.0,38.985832,-76.950851,0.43,34,3,0.9
553460,1744862952260,,,,,,,,,,,,,,,,,,,,,,,,,,,,,,,,,,0,0,0,0,0,0,0,0,0,0,0,0,0,0,0,0,,,,,,,,,,,
553480,1744862952280,0.0,135,,0.01,0.14,0.88,-0,-0,1,0.89,1.41,63,3020,4.8,3.87,,13.13,1.016,66.4,,36.3,5,,,,,,,,,,,,0,0,0,0,0,0,0,0,0,0,0,0,0,0,0,0,,,,,0.0,,,,,,
553500,1744862952302,,,,,,,,,,,,,,,,,,,,,,,,,,,,,,,,,,0,0,0,0,0,0,0,0,0,0,0,0,0,0,0,0,,,,,,,,,,,
553520,1744862952322,0.0,135,,0.03,0.18,0.85,-0,-0,1,0.87,1.41,62,2983,4.8,3.87,,13.16,1.003,66.4,,36.3,5,,,,,,,,,,,,0,0,0,0,0,0,0,0,0,0,0,0,0,0,0,0,,,,,0.0,,,,,,
553540,1744862952342,,,,,,,,,,,,,,,,,,,,,,,0,0,0,0,0.0,0.0,0.0,0.0,2.26,,,0,0,0,0,0,0,0,0,0,0,0,0,0,0,0,0,0,,,,,38.985832,-76.950851,0.15,34,3,0.9
553560,1744862952362,0.0,135,,0.05,0.21,0.82,0,-0,1,0.85,1.41,60,2992,4.8,3.88,,13.2,1.008,66.4,,36.3,5,,,,,,,,,,,,0,0,0,0,0,0,0,0,0,0,0,0,0,0,0,0,,,,,0.0,,,,,,
553580,1744862952382,,,,,,,,,,,,,,,,,,,,,,,,,,,,,,,,,,0,0,0,0,0,0,0,0,0,0,0,0,0,0,0,0,,,,,,,,,,,
553600,1744862952402,0.0,135,,0.06,0.24,0.79,0,-0,1,0.83,1.41,59,2949,4.7,3.88,,13.21,0.999,66.4,,36.3,5,,,,,,,,,,,,0,0,0,0,0,0,0,0,0,0,0,0,0,0,0,0,,,,,0.0,,,,,,
553620,1744862952422,,,,,,,,,,,,,,,,,,,,,,,,,,,,,,,,,,0,0,0,0,0,0,0,0,0,0,0,0,0,0,0,0,,,,,,,,,,,
553640,1744862952442,0.0,135,,0.06,0.24,0.74,1,-0,0,0.78,1.41,56,2967,4.6,3.88,,13.21,0.999,66.4,,36.0,5,0,0,0,0,0.0,0.0,0.0,0.0,2.26,,,0,0,0,0,0,0,0,0,0,0,0,0,0,0,0,0,0,,,,0.0,38.985832,-76.950851,0.07,34,3,0.9
553660,1744862952462,,,,,,,,,,,,,,,,,,,,,,,,,,,,,,,,,,0,0,0,0,0,0,0,0,0,0,0,0,0,0,0,0,,,,,,,,,,,
553680,1744862952482,0.0,135,,0.04,0.22,0.69,1,-0,-0,0.73,1.41,52,2967,4.6,3.88,,13.21,0.988,66.4,,36.0,5,,,,,,,,,,,,0,0,0,0,0,0,0,0,0,0,0,0,0,0,0,0,,,,,0.0,,,,,,
553700,1744862952500,,,,,,,,,,,,,,,,,,,,,,,,,,,,,,,,,,0,0,0,0,0,0,0,0,0,0,0,0,0,0,0,0,,,,,,,,,,,
553720,1744862952520,0.0,135,,0.03,0.19,0.65,1,-0,-0,0.68,1.41,48,3006,4.6,3.88,,13.2,0.996,66.4,,36.2,5,,,,,,,,,,,,0,0,0,0,0,0,0,0,0,0,0,0,0,0,0,0,,,,,0.0,,,,,,
553740,1744862952540,,,,,,,,,,,,,,,,,,,,,,,0,0,0,0,0.0,0.0,0.0,0.0,2.26,,,0,0,0,0,0,0,0,0,0,0,0,0,0,0,0,0,0,,,,,38.985832,-76.950851,0.41,34,3,0.9
553760,1744862952560,0.0,135,,0.0,0.13,0.63,2,-0,-1,0.64,1.41,46,2941,4.6,3.88,,13.23,1.001,66.4,,36.2,5,,,,,,,,,,,,0,0,0,0,0,0,0,0,0,0,0,0,0,0,0,0,,,,,0.0,,,,,,
553780,1744862952580,,,,,,,,,,,,,,,,,,,,,,,,,,,,,,,,,,0,0,0,0,0,0,0,0,0,0,0,0,0,0,0,0,,,,,,,,,,,
553800,1744862952604,0.0,135,,-0.03,0.08,0.65,1,-0,-1,0.66,1.41,47,2917,4.6,3.87,,13.29,0.995,66.4,,36.2,5,,,,,,,,,,,,0,0,0,0,0,0,0,0,0,0,0,0,0,0,0,0,,,,,0.0,,,,,,
553820,1744862952624,,,,,,,,,,,,,,,,,,,,,,,,,,,,,,,,,,0,0,0,0,0,0,0,0,0,0,0,0,0,0,0,0,,,,,,,,,,,
553840,1744862952644,0.0,135,,-0.07,0.06,0.72,1,-0,-1,0.73,1.41,52,2917,4.6,3.87,,13.29,0.995,66.4,,35.8,5,0,0,0,0,0.0,0.0,0.0,0.0,2.26,,,0,0,0,0,0,0,0,0,0,0,0,0,0,0,0,0,0,,,,0.0,38.985832,-76.950851,0.16,34,3,0.9
