"Interval"|"ms"|0|0|1,"Utc"|"ms"|0|0|1,"FrontBP"|"psi"|-5.0|5.0|25,"SteerAng"|"Degrees"|-145|145|25,"Battery"|"Volts"|-5.0|20.0|1,"AccelX"|"G"|-3.0|3.0|25,"AccelY"|"G"|-3.0|3.0|25,"AccelZ"|"G"|-3.0|3.0|25,"Yaw"|"Deg/Sec"|-120|120|25,"Pitch"|"Deg/Sec"|-120|120|25,"Roll"|"Deg/Sec"|-120|120|25,"Gsum"|"G"|0.0|3.0|25,"GsumMax"|"G"|0.0|3.0|25,"GsumPct"|"%"|0|100|25,"RPM"|""|0|10000|25,"TPS"|"%"|0.0|100.0|25,"InjectorPW"|"ms"|0.0|100.0|25,"Baro"|"kPa"|0|105|1,"MAP"|"Psi"|0.0|255.0|25,"Lambda"|""|-2.0|2.0|25,"IAT"|"C"|0.0|200.0|25,"EngineTemp"|"C"|0|200|1,"EOP"|"PSI"|0.0|152.0|25,"EOT"|"F"|0|250|25,"WSFR"|"MPH"|0|150|10,"WSFL"|"MPH"|0|100|10,"WSRR"|"MPH"|0|100|10,"WSRL"|""|0|100|10,"TCSet"|"%"|0.0|100.0|10,"TCSlip"|"%"|0.0|100.0|10,"TCComp"|"deg"|0.0|50.0|10,"TCCut"|"%"|0.0|100.0|10,"Analog8"|""|0.0|5.0|10,"OilTemp"|"F"|0|300|1,"AA_On"|""|0.0|1.0|1,"ThermLF1"|"C"|0|400|50,"ThermLF2"|"C"|0|400|50,"ThermRR1"|"C"|0|400|50,"ThermRR2"|"C"|0|400|50,"ThermLF3"|"C"|0|400|50,"ThermLF4"|"C"|0|400|50,"ThermLF5"|"C"|0|400|50,"ThermLF6"|"C"|0|400|50,"ThermLF7"|"C"|0|400|50,"ThermLF8"|"C"|0|400|50,"ThermRR3"|"C"|0|400|50,"ThermRR4"|"C"|0|400|50,"ThermRR5"|"C"|0|400|50,"ThermRR6"|"C"|0|400|50,"ThermRR7"|"C"|0|400|50,"ThermRR8"|"C"|0|400|50,"Gear"|""|1|6|10,"AA_On"|""|0.0|1.0|1,"AA_LowDrag"|""|0|1|1,"Fuel_Mix"|""|-10|10|1,"AA_Packages"|""|0.0|1000.0|25,"Latitude"|"Degrees"|-180.0|180.0|10,"Longitude"|"Degrees"|-180.0|180.0|10,"Speed"|"kph"|0.0|150.0|10,"GPSSats"|""|0|20|10,"GPSQual"|""|0|5|10,"GPSDOP"|""|0.0|20.0|10
740260,1744863139055,,,,,,,,,,,,,,,,,,,,,,,,,,,,,,,,,,0,0,0,0,0,0,0,0,0,0,0,0,0,0,0,0,,,,,,,,,,,
740280,1744863139075,0.0,135,,-0.11,-0.07,1.04,0,-0,-0,1.05,1.05,100,3115,5.1,3.86,,13.12,1.052,70.0,,33.9,5,,,,,,,,,,,,0,0,0,0,0,0,0,0,0,0,0,0,0,0,0,0,,,,,0.0,,,,,,
740300,1744863139099,,,,,,,,,,,,,,,,,,,,,,,,,,,,,,,,,,0,0,0,0,0,0,0,0,0,0,0,0,0,0,0,0,,,,,,,,,,,
740320,1744863139119,0.0,135,,-0.1,-0.04,0.96,0,-0,-0,0.96,1.05,92,3103,5.1,3.87,,13.11,1.05,70.0,,34.1,5,,,,,,,,,,,,0,0,0,0,0,0,0,0,0,0,0,0,0,0,0,0,,,,,0.0,,,,,,
740340,1744863139139,,,,,,,,,,,,,,,,,,,,,,,0,0,0,0,0.0,0.0,0.0,0.0,2.26,,,0,0,0,0,0,0,0,0,0,0,0,0,0,0,0,0,0,,,,,38.985832,-76.950851,0.0,36,3,0.8
740360,1744863139159,0.0,135,,-0.08,-0.04,0.92,0,-0,0,0.92,1.05,88,3083,5.1,3.86,,13.09,1.06,70.0,,34.1,5,,,,,,,,,,,,0,0,0,0,0,0,0,0,0,0,0,0,0,0,0,0,,,,,0.0,,,,,,
740380,1744863139179,,,,,,,,,,,,,,,,,,,,,,,,,,,,,,,,,,0,0,0,0,0,0,0,0,0,0,0,0,0,0,0,0,,,,,,,,,,,
740400,1744863139199,0.0,135,,-0.06,-0.02,0.96,0,-0,0,0.96,1.05,92,3091,5.0,3.87,,13.16,1.059,70.0,,34.1,5,,,,,,,,,,,,0,0,0,0,0,0,0,0,0,0,0,0,0,0,0,0,,,,,0.0,,,,,,
740420,1744863139219,,,,,,,,,,,,,,,,,,,,,,,,,,,,,,,,,,0,0,0,0,0,0,0,0,0,0,0,0,0,0,0,0,,,,,,,,,,,
740440,1744863139239,0.0,135,,-0.04,-0.03,1.03,-0,-0,0,1.03,1.05,98,3148,4.9,3.87,,13.16,1.059,70.0,,33.7,5,0,0,0,0,0.0,0.0,0.0,0.0,2.26,,,0,0,0,0,0,0,0,0,0,0,0,0,0,0,0,0,0,,,,0.0,38.985832,-76.950851,0.08,36,3,0.8
740460,1744863139259,,,,,,,,,,,,,,,,,,,,,,,,,,,,,,,,,,0,0,0,0,0,0,0,0,0,0,0,0,0,0,0,0,,,,,,,,,,,
740480,1744863139279,0.0,135,,-0.05,-0.06,1.07,-0,-0,0,1.07,1.07,100,3148,4.9,3.87,,13.09,1.053,70.0,,33.7,5,,,,,,,,,,,,0,0,0,0,0,0,0,0,0,0,0,0,0,0,0,0,,,,,0.0,,,,,,
740500,1744863139305,,,,,,,,,,,,,,,,,,,,,,,,,,,,,,,,,,0,0,0,0,0,0,0,0,0,0,0,0,0,0,0,0,,,,,,,,,,,
740520,1744863139325,0.0,135,,-0.08,-0.05,1.04,0,-0,0,1.04,1.07,98,3101,4.9,3.85,,13.11,1.05,70.0,,34.1,5,,,,,,,,,,,,0,0,0,0,0,0,0,0,0,0,0,0,0,0,0,0,,,,,0.0,,,,,,
740540,1744863139345,,,,,,,,,,,,,,,,,,,,,,,0,0,0,0,0.0,0.0,0.0,0.0,2.26,,,0,0,0,0,0,0,0,0,0,0,0,0,0,0,0,0,0,,,,,38.985832,-76.950851,0.05,36,3,0.8
740560,1744863139365,0.0,135,,-0.08,-0.03,0.96,0,-0,-0,0.96,1.07,90,3129,4.9,3.87,,13.12,1.054,70.0,,34.1,5,,,,,,,,,,,,0,0,0,0,0,0,0,0,0,0,0,0,0,0,0,0,,,,,0.0,,,,,,
740580,1744863139385,,,,,,,,,,,,,,,,,,,,,,,,,,,,,,,,,,0,0,0,0,0,0,0,0,0,0,0,0,0,0,0,0,,,,,,,,,,,
740600,1744863139403,0.0,135,,-0.06,0.0,0.95,0,-0,0,0.95,1.07,89,3148,5.0,3.85,,13.08,1.055,70.0,,34.1,5,,,,,,,,,,,,0,0,0,0,0,0,0,0,0,0,0,0,0,0,0,0,,,,,0.0,,,,,,
740620,1744863139423,,,,,,,,,,,,,,,,,,,,,,,,,,,,,,,,,,0,0,0,0,0,0,0,0,0,0,0,0,0,0,0,0,,,,,,,,,,,
740640,1744863139443,0.0,135,,-0.05,-0.0,1.02,-0,-0,0,1.02,1.07,96,3145,5.1,3.86,,13.08,1.055,70.0,,33.8,5,0,0,0,0,0.0,0.0,0.0,0.0,2.26,,,0,0,0,0,0,0,0,0,0,0,0,0,0,0,0,0,0,,,,0.0,38.985832,-76.950851,0.04,36,3,0.8
740660,1744863139463,,,,,,,,,,,,,,,,,,,,,,,,,,,,,,,,,,0,0,0,0,0,0,0,0,0,0,0,0,0,0,0,0,,,,,,,,,,,
740680,1744863139483,0.0,135,,-0.07,-0.04,1.07,0,-0,0,1.07,1.07,100,3145,5.1,3.86,,13.08,1.076,70.0,,33.8,5,,,,,,,,,,,,0,0,0,0,0,0,0,0,0,0,0,0,0,0,0,0,,,,,0.0,,,,,,
740700,1744863139503,,,,,,,,,,,,,,,,,,,,,,,,,,,,,,,,,,0,0,0,0,0,0,0,0,0,0,0,0,0,0,0,0,,,,,,,,,,,
740720,1744863139523,0.0,135,,-0.09,-0.01,1.01,0,-0,-0,1.01,1.07,95,3155,5.1,3.85,,13.09,1.068,70.0,,34.0,5,,,,,,,,,,,,0,0,0,0,0,0,0,0,0,0,0,0,0,0,0,0,,,,,0.0,,,,,,
740740,1744863139543,,,,,,,,,,,,,,,,,,,,,,,0,0,0,0,0.0,0.0,0.0,0.0,2.25,,,0,0,0,0,0,0,0,0,0,0,0,0,0,0,0,0,0,,,,,38.985832,-76.950851,0.04,36,3,0.8
740760,1744863139563,0.0,135,,-0.08,0.01,0.93,0,-0,-0,0.94,1.07,88,3176,5.1,3.85,,13.09,1.068,70.0,,34.0,5,,,,,,,,,,,,0,0,0,0,0,0,0,0,0,0,0,0,0,0,0,0,,,,,0.0,,,,,,
740780,1744863139583,,,,,,,,,,,,,,,,,,,,,,,,,,,,,,,,,,0,0,0,0,0,0,0,0,0,0,0,0,0,0,0,0,,,,,,,,,,,
740800,1744863139603,0.0,135,,-0.06,0.02,0.97,-0,-0,0,0.97,1.07,91,3175,5.1,3.85,,13.05,1.049,70.0,,34.0,5,,,,,,,,,,,,0,0,0,0,0,0,0,0,0,0,0,0,0,0,0,0,,,,,0.0,,,,,,
740820,1744863139623,,,,,,,,,,,,,,,,,,,,,,,,,,,,,,,,,,0,0,0,0,0,0,0,0,0,0,0,0,0,0,0,0,,,,,,,,,,,
740840,1744863139643,0.0,135,,-0.05,0.01,1.04,-0,-0,1,1.04,1.07,97,3100,5.1,3.86,,13.05,1.049,70.0,,34.3,5,0,0,0,0,0.0,0.0,0.0,0.0,2.26,,,0,0,0,0,0,0,0,0,0,0,0,0,0,0,0,0,0,,,,0.0,38.985832,-76.950851,0.07,36,3,0.8
740860,1744863139663,,,,,,,,,,,,,,,,,,,,,,,,,,,,,,,,,,0,0,0,0,0,0,0,0,0,0,0,0,0,0,0,0,,,,,,,,,,,
740880,1744863139683,0.0,135,,-0.07,-0.01,1.08,-0,-0,0,1.08,1.08,100,3100,5.1,3.86,,13.09,1.05,70.0,,34.3,5,,,,,,,,,,,,0,0,0,0,0,0,0,0,0,0,0,0,0,0,0,0,,,,,0.0,,,,,,
740900,1744863139703,,,,,,,,,,,,,,,,,,,,,,,,,,,,,,,,,,0,0,0,0,0,0,0,0,0,0,0,0,0,0,0,0,,,,,,,,,,,
740920,1744863139723,0.0,135,,-0.09,-0.02,1.05,0,-0,0,1.05,1.08,97,3147,5.1,3.87,,13.08,1.051,70.0,,33.6,5,,,,,,,,,,,,0,0,0,0,0,0,0,0,0,0,0,0,0,0,0,0,,,,,0.0,,,,,,
740940,1744863139743,,,,,,,,,,,,,,,,,,,,,,,0,0,0,0,0.0,0.0,0.0,0.0,2.26,,,0,0,0,0,0,0,0,0,0,0,0,0,0,0,0,0,0,,,,,38.985832,-76.950851,0.04,36,3,0.8
740960,1744863139763,0.0,135,,-0.1,0.01,0.97,1,-0,-0,0.98,1.08,91,3126,5.0,3.86,,13.08,1.056,70.0,,33.6,5,,,,,,,,,,,,0,0,0,0,0,0,0,0,0,0,0,0,0,0,0,0,,,,,0.0,,,,,,
740980,1744863139783,,,,,,,,,,,,,,,,,,,,,,,,,,,,,,,,,,0,0,0,0,0,0,0,0,0,0,0,0,0,0,0,0,,,,,,,,,,,
741000,1744863139803,0.0,135,,-0.09,0.04,0.99,-0,-0,0,0.99,1.08,92,3235,4.9,3.87,,13.12,1.041,70.0,,33.6,5,,,,,,,,,,,,0,0,0,0,0,0,0,0,0,0,0,0,0,0,0,0,,,,,0.0,,,,,,
741020,1744863139823,,,,,,,,,,,,,,,,,,,,,,,,,,,,,,,,,,0,0,0,0,0,0,0,0,0,0,0,0,0,0,0,0,,,,,,,,,,,
741040,1744863139843,0.0,135,,-0.08,0.02,0.98,-0,-0,0,0.98,1.08,91,3500,4.9,3.84,,13.12,1.041,70.0,,34.1,5,0,0,0,0,0.0,0.0,0.0,0.0,2.26,,,0,0,0,0,0,0,0,0,0,0,0,0,0,0,0,0,0,,,,0.0,38.985832,-76.950851,0.11,36,3,0.8
741060,1744863139863,,,,,,,,,,,,,,,,,,,,,,,,,,,,,,,,,,0,0,0,0,0,0,0,0,0,0,0,0,0,0,0,0,,,,,,,,,,,
741080,1744863139883,0.0,135,,-0.11,-0.05,1.02,-0,-0,0,1.03,1.08,95,3500,4.9,3.84,,12.99,1.082,70.0,,34.1,5,,,,,,,,,,,,0,0,0,0,0,0,0,0,0,0,0,0,0,0,0,0,,,,,0.0,,,,,,
741100,1744863139904,,,,,,,,,,,,,,,,,,,,,,,,,,,,,,,,,,0,0,0,0,0,0,0,0,0,0,0,0,0,0,0,0,,,,,,,,,,,
741120,1744863139924,0.0,135,,-0.07,-0.02,1.03,-1,-0,1,1.04,1.08,96,3570,4.9,3.82,,12.81,0.992,70.0,,34.3,5,,,,,,,,,,,,0,0,0,0,0,0,0,0,0,0,0,0,0,0,0,0,,,,,0.0,,,,,,
741140,1744863139944,,,,,,,,,,,,,,,,,,,,,,,0,0,0,0,0.0,0.0,0.0,0.0,2.26,,,0,0,0,0,0,0,0,0,0,0,0,0,0,0,0,0,0,,,,,38.985832,-76.950851,0.0,36,3,0.8
741160,1744863139964,0.0,135,,-0.05,0.04,1.0,-1,-0,1,1.0,1.08,93,3547,5.0,3.81,,12.76,0.936,70.0,,34.3,5,,,,,,,,,,,,0,0,0,0,0,0,0,0,0,0,0,0,0,0,0,0,,,,,0.0,,,,,,
741180,1744863139984,,,,,,,,,,,,,,,,,,,,,,,,,,,,,,,,,,0,0,0,0,0,0,0,0,0,0,0,0,0,0,0,0,,,,,,,,,,,
741200,1744863139996,0.0,135,,-0.07,-0.02,1.01,0,-0,0,1.02,1.08,94,3663,5.1,3.82,,12.72,0.954,70.0,,34.3,5,,,,,,,,,,,,0,0,0,0,0,0,0,0,0,0,0,0,0,0,0,0,,,,,0.0,,,,,,
741220,1744863140016,,,,,,,,,,,,,,,,,,,,,,,,,,,,,,,,,,0,0,0,0,0,0,0,0,0,0,0,0,0,0,0,0,,,,,,,,,,,
741240,1744863140036,0.0,135,14.2,-0.08,-0.01,1.04,-0,-0,0,1.04,1.08,97,3617,5.1,3.81,15,12.72,0.954,70.0,174,34.5,5,0,0,0,0,0.0,0.0,0.0,0.0,2.26,0,0.0,0,0,0,0,0,0,0,0,0,0,0,0,0,0,0,0,0,0.0,0,0,0.0,38.985832,-76.950851,0.0,36,3,0.8
741260,1744863140056,,,,,,,,,,,,,,,,,,,,,,,,,,,,,,,,,,0,0,0,0,0,0,0,0,0,0,0,0,0,0,0,0,,,,,,,,,,,
741280,1744863140076,0.0,135,,-0.08,0.03,1.08,-0,-0,0,1.08,1.08,100,3617,5.1,3.81,,12.72,1.053,70.0,,34.5,5,,,,,,,,,,,,0,0,0,0,0,0,0,0,0,0,0,0,0,0,0,0,,,,,0.0,,,,,,
741300,1744863140100,,,,,,,,,,,,,,,,,,,,,,,,,,,,,,,,,,0,0,0,0,0,0,0,0,0,0,0,0,0,0,0,0,,,,,,,,,,,
741320,1744863140120,0.0,135,,-0.08,0.1,1.1,-0,-0,0,1.1,1.1,100,3743,5.1,3.8,,12.67,1.042,70.0,,34.7,5,,,,,,,,,,,,0,0,0,0,0,0,0,0,0,0,0,0,0,0,0,0,,,,,0.0,,,,,,
741340,1744863140140,,,,,,,,,,,,,,,,,,,,,,,0,0,0,0,0.0,0.0,0.0,0.0,2.26,,,0,0,0,0,0,0,0,0,0,0,0,0,0,0,0,0,0,,,,,38.985832,-76.950851,0.04,36,3,0.8
741360,1744863140160,0.0,135,,-0.08,0.08,1.06,0,-0,0,1.06,1.1,96,3774,5.1,3.8,,12.68,1.015,70.0,,34.7,5,,,,,,,,,,,,0,0,0,0,0,0,0,0,0,0,0,0,0,0,0,0,,,,,0.0,,,,,,
741380,1744863140180,,,,,,,,,,,,,,,,,,,,,,,,,,,,,,,,,,0,0,0,0,0,0,0,0,0,0,0,0,0,0,0,0,,,,,,,,,,,
741400,1744863140200,0.0,135,,-0.09,0.02,1.02,1,-0,-0,1.02,1.1,92,3852,5.1,3.8,,12.56,0.962,70.0,,34.7,5,,,,,,,,,,,,0,0,0,0,0,0,0,0,0,0,0,0,0,0,0,0,,,,,0.0,,,,,,
741420,1744863140220,,,,,,,,,,,,,,,,,,,,,,,,,,,,,,,,,,0,0,0,0,0,0,0,0,0,0,0,0,0,0,0,0,,,,,,,,,,,
741440,1744863140240,0.0,135,,-0.07,0.06,1.02,0,-0,0,1.03,1.1,93,3834,5.1,3.79,,12.56,0.962,70.0,,35.0,5,0,0,0,0,0.0,0.0,0.0,0.0,2.27,,,0,0,0,0,0,0,0,0,0,0,0,0,0,0,0,0,0,,,,0.0,38.985832,-76.950851,0.04,36,3,0.8
741460,1744863140260,,,,,,,,,,,,,,,,,,,,,,,,,,,,,,,,,,0,0,0,0,0,0,0,0,0,0,0,0,0,0,0,0,,,,,,,,,,,
741480,1744863140280,0.0,135,,-0.06,0.13,1.06,-0,-0,1,1.07,1.1,97,3834,5.1,3.79,,12.53,0.921,70.0,,35.0,5,,,,,,,,,,,,0,0,0,0,0,0,0,0,0,0,0,0,0,0,0,0,,,,,0.0,,,,,,
741500,1744863140304,,,,,,,,,,,,,,,,,,,,,,,,,,,,,,,,,,0,0,0,0,0,0,0,0,0,0,0,0,0,0,0,0,,,,,,,,,,,
741520,1744863140324,0.0,135,,-0.09,0.02,1.08,0,-0,0,1.09,1.1,99,3951,5.0,3.78,,12.48,0.894,70.0,,35.6,5,,,,,,,,,,,,0,0,0,0,0,0,0,0,0,0,0,0,0,0,0,0,,,,,0.0,,,,,,
741540,1744863140344,,,,,,,,,,,,,,,,,,,,,,,0,0,0,0,0.0,0.0,0.0,0.0,2.26,,,0,0,0,0,0,0,0,0,0,0,0,0,0,0,0,0,0,,,,,38.985832,-76.950851,0.0,36,3,0.8
741560,1744863140364,0.0,135,,-0.1,-0.05,1.05,1,-0,0,1.06,1.1,96,3918,4.9,3.78,,12.41,0.877,70.0,,35.6,5,,,,,,,,,,,,0,0,0,0,0,0,0,0,0,0,0,0,0,0,0,0,,,,,0.0,,,,,,
741580,1744863140384,,,,,,,,,,,,,,,,,,,,,,,,,,,,,,,,,,0,0,0,0,0,0,0,0,0,0,0,0,0,0,0,0,,,,,,,,,,,
741600,1744863140404,0.0,135,,-0.08,-0.0,1.03,1,-0,0,1.03,1.1,94,3887,4.9,3.77,,12.32,0.871,70.0,,35.6,5,,,,,,,,,,,,0,0,0,0,0,0,0,0,0,0,0,0,0,0,0,0,,,,,0.0,,,,,,
741620,1744863140424,,,,,,,,,,,,,,,,,,,,,,,,,,,,,,,,,,0,0,0,0,0,0,0,0,0,0,0,0,0,0,0,0,,,,,,,,,,,
741640,1744863140444,0.0,135,,-0.07,0.02,1.08,0,-0,1,1.08,1.1,98,3987,4.8,3.77,,12.32,0.871,70.0,,35.4,5,0,0,0,0,0.0,0.0,0.0,0.0,2.26,,,0,0,0,0,0,0,0,0,0,0,0,0,0,0,0,0,0,,,,0.0,38.985832,-76.950851,0.04,36,3,0.8
741660,1744863140464,,,,,,,,,,,,,,,,,,,,,,,,,,,,,,,,,,0,0,0,0,0,0,0,0,0,0,0,0,0,0,0,0,,,,,,,,,,,
741680,1744863140484,0.0,135,,-0.1,-0.14,1.02,1,-0,0,1.04,1.1,94,3987,4.8,3.77,,12.37,0.906,70.0,,35.4,5,,,,,,,,,,,,0,0,0,0,0,0,0,0,0,0,0,0,0,0,0,0,,,,,0.0,,,,,,
741700,1744863140504,,,,,,,,,,,,,,,,,,,,,,,,,,,,,,,,,,0,0,0,0,0,0,0,0,0,0,0,0,0,0,0,0,,,,,,,,,,,
741720,1744863140524,0.0,135,,-0.07,-0.02,1.06,1,-0,0,1.06,1.1,96,4052,4.8,3.74,,12.16,0.931,70.0,,35.3,5,,,,,,,,,,,,0,0,0,0,0,0,0,0,0,0,0,0,0,0,0,0,,,,,0.0,,,,,,
741740,1744863140544,,,,,,,,,,,,,,,,,,,,,,,0,0,0,0,0.0,0.0,0.0,0.0,2.26,,,0,0,0,0,0,0,0,0,0,0,0,0,0,0,0,0,0,,,,,38.985832,-76.950851,0.04,36,3,0.8
741760,1744863140564,0.0,135,,-0.1,-0.14,1.05,1,-0,0,1.07,1.1,97,4117,4.7,3.71,,12.07,0.907,70.0,,35.3,5,,,,,,,,,,,,0,0,0,0,0,0,0,0,0,0,0,0,0,0,0,0,,,,,0.0,,,,,,
741780,1744863140584,,,,,,,,,,,,,,,,,,,,,,,,,,,,,,,,,,0,0,0,0,0,0,0,0,0,0,0,0,0,0,0,0,,,,,,,,,,,
741800,1744863140604,0.0,135,,-0.08,-0.01,1.08,1,-0,0,1.08,1.1,98,4089,4.6,3.7,,12.07,0.893,70.0,,35.3,5,,,,,,,,,,,,0,0,0,0,0,0,0,0,0,0,0,0,0,0,0,0,,,,,0.0,,,,,,
741820,1744863140624,,,,,,,,,,,,,,,,,,,,,,,,,,,,,,,,,,0,0,0,0,0,0,0,0,0,0,0,0,0,0,0,0,,,,,,,,,,,
741840,1744863140644,0.0,135,,-0.1,-0.09,1.07,0,-0,0,1.08,1.1,98,4135,4.5,3.7,,12.07,0.893,70.0,,35.7,5,0,0,0,0,0.0,0.0,0.0,0.0,2.26,,,0,0,0,0,0,0,0,0,0,0,0,0,0,0,0,0,0,,,,0.0,38.985832,-76.950851,0.0,36,3,0.8
741860,1744863140664,,,,,,,,,,,,,,,,,,,,,,,,,,,,,,,,,,0,0,0,0,0,0,0,0,0,0,0,0,0,0,0,0,,,,,,,,,,,
741880,1744863140684,0.0,135,,-0.1,-0.04,1.04,1,-0,-0,1.05,1.1,95,4135,4.5,3.7,,11.99,0.892,70.0,,35.7,5,,,,,,,,,,,,0,0,0,0,0,0,0,0,0,0,0,0,0,0,0,0,,,,,0.0,,,,,,
741900,1744863140704,,,,,,,,,,,,,,,,,,,,,,,,,,,,,,,,,,0,0,0,0,0,0,0,0,0,0,0,0,0,0,0,0,,,,,,,,,,,
741920,1744863140724,0.0,135,,-0.1,-0.05,1.05,0,-0,0,1.05,1.1,95,4097,4.3,3.7,,12.0,0.889,70.0,,36.2,5,,,,,,,,,,,,0,0,0,0,0,0,0,0,0,0,0,0,0,0,0,0,,,,,0.0,,,,,,
741940,1744863140744,,,,,,,,,,,,,,,,,,,,,,,0,0,0,0,0.0,0.0,0.0,0.0,2.26,,,0,0,0,0,0,0,0,0,0,0,0,0,0,0,0,0,0,,,,,38.985832,-76.950851,0.08,36,3,0.8
741960,1744863140764,0.0,135,,-0.09,-0.07,0.99,2,-0,-1,0.99,1.1,90,4061,3.3,3.6,,11.95,0.887,70.0,,36.2,5,,,,,,,,,,,,0,0,0,0,0,0,0,0,0,0,0,0,0,0,0,0,,,,,0.0,,,,,,
741980,1744863140784,,,,,,,,,,,,,,,,,,,,,,,,,,,,,,,,,,0,0,0,0,0,0,0,0,0,0,0,0,0,0,0,0,,,,,,,,,,,
742000,1744863140804,0.0,135,,-0.06,0.06,1.03,0,-0,0,1.03,1.1,94,4052,2.4,3.28,,11.75,0.88,70.0,,36.2,5,,,,,,,,,,,,0,0,0,0,0,0,0,0,0,0,0,0,0,0,0,0,,,,,0.0,,,,,,
742020,1744863140824,,,,,,,,,,,,,,,,,,,,,,,,,,,,,,,,,,0,0,0,0,0,0,0,0,0,0,0,0,0,0,0,0,,,,,,,,,,,
742040,1744863140844,0.0,135,,-0.08,-0.03,0.97,1,-0,-0,0.97,1.1,88,4038,2.2,3.17,,11.75,0.88,70.0,,35.6,5,0,0,0,0,0.0,0.0,0.0,0.0,2.26,,,0,0,0,0,0,0,0,0,0,0,0,0,0,0,0,0,0,,,,0.0,38.985832,-76.950851,0.05,36,3,0.8
742060,1744863140864,,,,,,,,,,,,,,,,,,,,,,,,,,,,,,,,,,0,0,0,0,0,0,0,0,0,0,0,0,0,0,0,0,,,,,,,,,,,
742080,1744863140884,0.0,135,,-0.04,0.09,0.96,1,-0,0,0.97,1.1,88,4038,2.2,3.17,,11.64,0.874,70.0,,35.6,5,,,,,,,,,,,,0,0,0,0,0,0,0,0,0,0,0,0,0,0,0,0,,,,,0.0,,,,,,
742100,1744863140903,,,,,,,,,,,,,,,,,,,,,,,,,,,,,,,,,,0,0,0,0,0,0,0,0,0,0,0,0,0,0,0,0,,,,,,,,,,,
742120,1744863140923,0.0,135,,-0.02,0.16,0.99,-1,-0,1,1.0,1.1,91,4001,2.0,3.16,,11.69,0.878,70.0,,36.2,5,,,,,,,,,,,,0,0,0,0,0,0,0,0,0,0,0,0,0,0,0,0,,,,,0.0,,,,,,
742140,1744863140943,,,,,,,,,,,,,,,,,,,,,,,0,0,0,0,0.0,0.0,0.0,0.0,2.26,,,0,0,0,0,0,0,0,0,0,0,0,0,0,0,0,0,0,,,,,38.985832,-76.950851,0.05,36,3,0.8
742160,1744863140963,0.0,135,,-0.05,0.07,0.95,-0,-0,0,0.95,1.1,86,3996,1.9,3.12,,11.67,0.878,70.0,,36.2,5,,,,,,,,,,,,0,0,0,0,0,0,0,0,0,0,0,0,0,0,0,0,,,,,0.0,,,,,,
742180,1744863140983,,,,,,,,,,,,,,,,,,,,,,,,,,,,,,,,,,0,0,0,0,0,0,0,0,0,0,0,0,0,0,0,0,,,,,,,,,,,
742200,1744863140995,0.0,135,,-0.02,0.13,0.93,0,-0,0,0.94,1.1,86,3938,1.8,3.07,,11.61,0.889,70.0,,36.2,5,,,,,,,,,,,,0,0,0,0,0,0,0,0,0,0,0,0,0,0,0,0,,,,,0.0,,,,,,
742220,1744863141015,,,,,,,,,,,,,,,,,,,,,,,,,,,,,,,,,,0,0,0,0,0,0,0,0,0,0,0,0,0,0,0,0,,,,,,,,,,,
742240,1744863141035,0.0,135,14.21,-0.0,0.24,0.95,-0,-0,1,0.98,1.1,89,3883,1.9,3.08,15,11.61,0.889,70.0,176,35.8,5,0,0,0,0,0.0,0.0,0.0,0.0,2.26,0,0.0,0,0,0,0,0,0,0,0,0,0,0,0,0,0,0,0,0,0.0,0,0,0.0,38.985832,-76.950851,0.0,36,3,0.8
742260,1744863141055,,,,,,,,,,,,,,,,,,,,,,,,,,,,,,,,,,0,0,0,0,0,0,0,0,0,0,0,0,0,0,0,0,,,,,,,,,,,
742280,1744863141075,0.0,135,,-0.02,0.19,0.96,-0,-0,1,0.98,1.1,89,3883,1.9,3.08,,11.72,0.892,70.0,,35.8,5,,,,,,,,,,,,0,0,0,0,0,0,0,0,0,0,0,0,0,0,0,0,,,,,0.0,,,,,,
742300,1744863141097,,,,,,,,,,,,,,,,,,,,,,,,,,,,,,,,,,0,0,0,0,0,0,0,0,0,0,0,0,0,0,0,0,,,,,,,,,,,
742320,1744863141117,0.0,135,,-0.03,0.12,0.97,-0,-0,1,0.98,1.1,89,3880,1.9,3.06,,11.67,0.888,70.0,,35.3,5,,,,,,,,,,,,0,0,0,0,0,0,0,0,0,0,0,0,0,0,0,0,,,,,0.0,,,,,,
742340,1744863141137,,,,,,,,,,,,,,,,,,,,,,,0,0,0,0,0.0,0.0,0.0,0.0,2.25,,,0,0,0,0,0,0,0,0,0,0,0,0,0,0,0,0,0,,,,,38.985832,-76.950851,0.04,36,3,0.8
742360,1744863141157,0.0,135,,-0.03,0.11,1.0,-0,-0,1,1.01,1.1,91,3792,1.9,3.08,,11.76,0.897,70.0,,35.3,5,,,,,,,,,,,,0,0,0,0,0,0,0,0,0,0,0,0,0,0,0,0,,,,,0.0,,,,,,
742380,1744863141177,,,,,,,,,,,,,,,,,,,,,,,,,,,,,,,,,,0,0,0,0,0,0,0,0,0,0,0,0,0,0,0,0,,,,,,,,,,,
742400,1744863141201,0.0,135,,-0.01,0.13,0.98,-1,-0,1,0.99,1.1,89,3725,1.8,3.06,,11.81,0.904,70.0,,35.3,5,,,,,,,,,,,,0,0,0,0,0,0,0,0,0,0,0,0,0,0,0,0,,,,,0.0,,,,,,
742420,1744863141221,,,,,,,,,,,,,,,,,,,,,,,,,,,,,,,,,,0,0,0,0,0,0,0,0,0,0,0,0,0,0,0,0,,,,,,,,,,,
742440,1744863141241,0.0,135,,-0.02,0.09,0.93,0,-0,0,0.94,1.1,85,3591,1.8,3.12,,11.81,0.904,70.0,,35.5,5,0,0,0,0,0.0,0.0,0.0,0.0,2.26,,,0,0,0,0,0,0,0,0,0,0,0,0,0,0,0,0,0,,,,0.0,38.985832,-76.950851,0.04,36,3,0.8
742460,1744863141261,,,,,,,,,,,,,,,,,,,,,,,,,,,,,,,,,,0,0,0,0,0,0,0,0,0,0,0,0,0,0,0,0,,,,,,,,,,,
742480,1744863141281,0.0,135,,-0.07,0.01,1.0,-0,-0,0,1.0,1.1,91,3591,1.8,3.12,,11.91,0.908,70.0,,35.5,5,,,,,,,,,,,,0,0,0,0,0,0,0,0,0,0,0,0,0,0,0,0,,,,,0.0,,,,,,
742500,1744863141303,,,,,,,,,,,,,,,,,,,,,,,,,,,,,,,,,,0,0,0,0,0,0,0,0,0,0,0,0,0,0,0,0,,,,,,,,,,,
742520,1744863141323,0.0,135,,-0.03,0.1,0.95,-1,-0,1,0.96,1.1,87,3482,1.7,3.18,,12.03,0.914,70.0,,34.9,5,,,,,,,,,,,,0,0,0,0,0,0,0,0,0,0,0,0,0,0,0,0,,,,,0.0,,,,,,
742540,1744863141343,,,,,,,,,,,,,,,,,,,,,,,0,0,0,0,0.0,0.0,0.0,0.0,2.26,,,0,0,0,0,0,0,0,0,0,0,0,0,0,0,0,0,0,,,,,38.985832,-76.950851,0.0,36,3,0.8
742560,1744863141363,0.0,135,,-0.05,0.03,1.02,-0,-0,0,1.02,1.1,92,3347,1.6,3.18,,12.19,0.925,70.0,,34.9,5,,,,,,,,,,,,0,0,0,0,0,0,0,0,0,0,0,0,0,0,0,0,,,,,0.0,,,,,,
742580,1744863141383,,,,,,,,,,,,,,,,,,,,,,,,,,,,,,,,,,0,0,0,0,0,0,0,0,0,0,0,0,0,0,0,0,,,,,,,,,,,
742600,1744863141405,0.0,135,,-0.04,0.12,0.94,-0,-0,0,0.95,1.1,86,3308,1.5,3.23,,12.27,0.934,70.0,,34.9,5,,,,,,,,,,,,0,0,0,0,0,0,0,0,0,0,0,0,0,0,0,0,,,,,0.0,,,,,,
742620,1744863141425,,,,,,,,,,,,,,,,,,,,,,,,,,,,,,,,,,0,0,0,0,0,0,0,0,0,0,0,0,0,0,0,0,,,,,,,,,,,
742640,1744863141445,0.0,135,,-0.05,0.07,1.01,-1,-0,1,1.01,1.1,92,3215,1.4,3.2,,12.27,0.934,70.0,,35.2,5,0,0,0,0,0.0,0.0,0.0,0.0,2.26,,,0,0,0,0,0,0,0,0,0,0,0,0,0,0,0,0,0,,,,0.0,38.985832,-76.950851,0.04,36,3,0.8
742660,1744863141465,,,,,,,,,,,,,,,,,,,,,,,,,,,,,,,,,,0,0,0,0,0,0,0,0,0,0,0,0,0,0,0,0,,,,,,,,,,,
742680,1744863141485,0.0,135,,-0.07,0.06,1.02,-0,-0,0,1.03,1.1,93,3215,1.4,3.2,,12.36,0.925,70.0,,35.2,5,,,,,,,,,,,,0,0,0,0,0,0,0,0,0,0,0,0,0,0,0,0,,,,,0.0,,,,,,
742700,1744863141503,,,,,,,,,,,,,,,,,,,,,,,,,,,,,,,,,,0,0,0,0,0,0,0,0,0,0,0,0,0,0,0,0,,,,,,,,,,,
742720,1744863141523,0.0,135,,-0.06,0.12,0.94,-0,-0,0,0.95,1.1,86,3238,1.4,3.24,,12.43,0.925,70.0,,35.1,5,,,,,,,,,,,,0,0,0,0,0,0,0,0,0,0,0,0,0,0,0,0,,,,,0.0,,,,,,
742740,1744863141543,,,,,,,,,,,,,,,,,,,,,,,0,0,0,0,0.0,0.0,0.0,0.0,2.26,,,0,0,0,0,0,0,0,0,0,0,0,0,0,0,0,0,0,,,,,38.985832,-76.950851,0.0,36,3,0.8
742760,1744863141563,0.0,135,,-0.05,0.08,0.96,-0,-0,1,0.96,1.1,87,3203,1.5,3.26,,12.52,0.939,70.0,,35.1,5,,,,,,,,,,,,0,0,0,0,0,0,0,0,0,0,0,0,0,0,0,0,,,,,0.0,,,,,,
742780,1744863141583,,,,,,,,,,,,,,,,,,,,,,,,,,,,,,,,,,0,0,0,0,0,0,0,0,0,0,0,0,0,0,0,0,,,,,,,,,,,
742800,1744863141603,0.0,135,,-0.03,0.06,1.04,-1,-0,1,1.05,1.1,95,3167,1.6,3.28,,12.53,0.961,70.0,,35.1,5,,,,,,,,,,,,0,0,0,0,0,0,0,0,0,0,0,0,0,0,0,0,,,,,0.0,,,,,,
742820,1744863141623,,,,,,,,,,,,,,,,,,,,,,,,,,,,,,,,,,0,0,0,0,0,0,0,0,0,0,0,0,0,0,0,0,,,,,,,,,,,
742840,1744863141643,0.0,135,,-0.05,0.05,1.03,-0,-0,0,1.03,1.1,94,3184,1.6,3.25,,12.53,0.961,70.0,,34.1,5,0,0,0,0,0.0,0.0,0.0,0.0,2.26,,,0,0,0,0,0,0,0,0,0,0,0,0,0,0,0,0,0,,,,0.0,38.985832,-76.950851,0.05,36,3,0.8
742860,1744863141663,,,,,,,,,,,,,,,,,,,,,,,,,,,,,,,,,,0,0,0,0,0,0,0,0,0,0,0,0,0,0,0,0,,,,,,,,,,,
742880,1744863141683,0.0,135,,-0.07,0.09,0.96,-0,-0,0,0.96,1.1,87,3184,1.6,3.25,,12.53,0.981,70.0,,34.1,5,,,,,,,,,,,,0,0,0,0,0,0,0,0,0,0,0,0,0,0,0,0,,,,,0.0,,,,,,
742900,1744863141703,,,,,,,,,,,,,,,,,,,,,,,,,,,,,,,,,,0,0,0,0,0,0,0,0,0,0,0,0,0,0,0,0,,,,,,,,,,,
742920,1744863141723,0.0,135,,-0.05,0.1,0.9,-0,-0,0,0.91,1.1,82,3100,1.6,3.28,,12.63,0.987,70.0,,33.5,5,,,,,,,,,,,,0,0,0,0,0,0,0,0,0,0,0,0,0,0,0,0,,,,,0.0,,,,,,
742940,1744863141743,,,,,,,,,,,,,,,,,,,,,,,0,0,0,0,0.0,0.0,0.0,0.0,2.26,,,0,0,0,0,0,0,0,0,0,0,0,0,0,0,0,0,0,,,,,38.985832,-76.950851,0.13,36,3,0.8
742960,1744863141763,0.0,135,,-0.03,0.1,0.86,-0,-0,0,0.87,1.1,79,3027,1.6,3.26,,12.65,0.998,70.0,,33.5,5,,,,,,,,,,,,0,0,0,0,0,0,0,0,0,0,0,0,0,0,0,0,,,,,0.0,,,,,,
742980,1744863141783,,,,,,,,,,,,,,,,,,,,,,,,,,,,,,,,,,0,0,0,0,0,0,0,0,0,0,0,0,0,0,0,0,,,,,,,,,,,
743000,1744863141805,0.0,135,,-0.01,0.09,0.83,-0,-0,0,0.84,1.1,76,2975,1.6,3.34,,12.68,0.984,70.0,,33.5,5,,,,,,,,,,,,0,0,0,0,0,0,0,0,0,0,0,0,0,0,0,0,,,,,0.0,,,,,,
743020,1744863141825,,,,,,,,,,,,,,,,,,,,,,,,,,,,,,,,,,0,0,0,0,0,0,0,0,0,0,0,0,0,0,0,0,,,,,,,,,,,
743040,1744863141845,0.0,135,,-0.02,0.08,0.82,-0,-0,0,0.83,1.1,75,2879,1.6,3.37,,12.68,0.984,70.0,,31.7,5,0,0,0,0,0.0,0.0,0.0,0.0,2.26,,,0,0,0,0,0,0,0,0,0,0,0,0,0,0,0,0,0,,,,0.0,38.985832,-76.950851,0.04,36,3,0.8
743060,1744863141865,,,,,,,,,,,,,,,,,,,,,,,,,,,,,,,,,,0,0,0,0,0,0,0,0,0,0,0,0,0,0,0,0,,,,,,,,,,,
743080,1744863141885,0.0,135,,-0.03,0.07,0.87,-0,-0,0,0.88,1.1,79,2879,1.6,3.37,,12.8,0.943,70.0,,31.7,5,,,,,,,,,,,,0,0,0,0,0,0,0,0,0,0,0,0,0,0,0,0,,,,,0.0,,,,,,
743100,1744863141904,,,,,,,,,,,,,,,,,,,,,,,,,,,,,,,,,,0,0,0,0,0,0,0,0,0,0,0,0,0,0,0,0,,,,,,,,,,,
743120,1744863141924,0.0,135,,-0.05,0.07,0.87,-0,-0,0,0.88,1.1,80,2764,1.5,3.41,,12.89,0.921,70.0,,29.2,5,,,,,,,,,,,,0,0,0,0,0,0,0,0,0,0,0,0,0,0,0,0,,,,,0.0,,,,,,
743140,1744863141944,,,,,,,,,,,,,,,,,,,,,,,0,0,0,0,0.0,0.0,0.0,0.0,2.26,,,0,0,0,0,0,0,0,0,0,0,0,0,0,0,0,0,0,,,,,38.985832,-76.950851,0.04,36,3,0.8
743160,1744863141964,0.0,135,,-0.04,0.05,0.9,-0,-0,0,0.91,1.1,82,2612,1.4,3.45,,13.04,0.952,70.0,,29.2,5,,,,,,,,,,,,0,0,0,0,0,0,0,0,0,0,0,0,0,0,0,0,,,,,0.0,,,,,,
743180,1744863141984,,,,,,,,,,,,,,,,,,,,,,,,,,,,,,,,,,0,0,0,0,0,0,0,0,0,0,0,0,0,0,0,0,,,,,,,,,,,
743200,1744863141996,0.0,135,,-0.05,0.06,0.9,-0,-0,0,0.91,1.1,82,2519,1.4,3.47,,13.16,1.009,70.0,,29.2,5,,,,,,,,,,,,0,0,0,0,0,0,0,0,0,0,0,0,0,0,0,0,,,,,0.0,,,,,,
743220,1744863142016,,,,,,,,,,,,,,,,,,,,,,,,,,,,,,,,,,0,0,0,0,0,0,0,0,0,0,0,0,0,0,0,0,,,,,,,,,,,
743240,1744863142036,0.0,135,14.11,-0.04,0.07,0.91,-0,-0,0,0.92,1.1,83,2400,1.4,3.49,15,13.16,1.009,70.0,176,26.6,5,0,0,0,0,0.0,0.0,0.0,0.0,2.26,0,0.0,0,0,0,0,0,0,0,0,0,0,0,0,0,0,0,0,0,0.0,0,0,0.0,38.985832,-76.950851,0.05,36,3,0.8
743260,1744863142056,,,,,,,,,,,,,,,,,,,,,,,,,,,,,,,,,,0,0,0,0,0,0,0,0,0,0,0,0,0,0,0,0,,,,,,,,,,,
743280,1744863142076,0.0,135,,-0.05,0.04,0.93,-0,-0,0,0.93,1.1,84,2400,1.4,3.49,,13.29,1.051,70.0,,26.6,5,,,,,,,,,,,,0,0,0,0,0,0,0,0,0,0,0,0,0,0,0,0,,,,,0.0,,,,,,
743300,1744863142102,,,,,,,,,,,,,,,,,,,,,,,,,,,,,,,,,,0,0,0,0,0,0,0,0,0,0,0,0,0,0,0,0,,,,,,,,,,,
743320,1744863142122,0.0,135,,-0.05,0.02,0.93,-0,-0,0,0.93,1.1,84,2279,1.5,3.52,,13.43,1.085,70.0,,24.0,5,,,,,,,,,,,,0,0,0,0,0,0,0,0,0,0,0,0,0,0,0,0,,,,,0.0,,,,,,
743340,1744863142142,,,,,,,,,,,,,,,,,,,,,,,0,0,0,0,0.0,0.0,0.0,0.0,2.26,,,0,0,0,0,0,0,0,0,0,0,0,0,0,0,0,0,0,,,,,38.985832,-76.950851,0.1,36,3,0.8
743360,1744863142162,0.0,135,,-0.04,0.01,0.95,-0,-0,0,0.95,1.1,86,2162,1.6,3.58,,13.51,1.087,70.0,,24.0,5,,,,,,,,,,,,0,0,0,0,0,0,0,0,0,0,0,0,0,0,0,0,,,,,0.0,,,,,,
743380,1744863142182,,,,,,,,,,,,,,,,,,,,,,,,,,,,,,,,,,0,0,0,0,0,0,0,0,0,0,0,0,0,0,0,0,,,,,,,,,,,
743400,1744863142202,0.0,135,,-0.04,-0.01,0.94,0,-0,0,0.94,1.1,86,2100,1.6,3.6,,13.69,1.084,70.0,,24.0,5,,,,,,,,,,,,0,0,0,0,0,0,0,0,0,0,0,0,0,0,0,0,,,,,0.0,,,,,,
743420,1744863142222,,,,,,,,,,,,,,,,,,,,,,,,,,,,,,,,,,0,0,0,0,0,0,0,0,0,0,0,0,0,0,0,0,,,,,,,,,,,
743440,1744863142242,0.0,135,,-0.05,0.01,0.95,0,-0,0,0.95,1.1,86,1906,1.6,3.66,,13.69,1.084,70.0,,20.7,5,0,0,0,0,0.0,0.0,0.0,0.0,2.26,,,0,0,0,0,0,0,0,0,0,0,0,0,0,0,0,0,0,,,,0.0,38.985832,-76.950851,0.04,36,3,0.8
743460,1744863142262,,,,,,,,,,,,,,,,,,,,,,,,,,,,,,,,,,0,0,0,0,0,0,0,0,0,0,0,0,0,0,0,0,,,,,,,,,,,
743480,1744863142282,0.0,135,,-0.05,0.03,0.95,-0,-0,0,0.95,1.1,86,1906,1.6,3.66,,13.8,1.09,70.0,,20.7,5,,,,,,,,,,,,0,0,0,0,0,0,0,0,0,0,0,0,0,0,0,0,,,,,0.0,,,,,,
743500,1744863142304,,,,,,,,,,,,,,,,,,,,,,,,,,,,,,,,,,0,0,0,0,0,0,0,0,0,0,0,0,0,0,0,0,,,,,,,,,,,
743520,1744863142324,0.0,135,,-0.03,0.02,0.97,-0,-0,0,0.97,1.1,88,1783,1.6,3.66,,14.08,1.099,70.0,,18.2,5,,,,,,,,,,,,0,0,0,0,0,0,0,0,0,0,0,0,0,0,0,0,,,,,0.0,,,,,,
743540,1744863142344,,,,,,,,,,,,,,,,,,,,,,,0,0,0,0,0.0,0.0,0.0,0.0,2.26,,,0,0,0,0,0,0,0,0,0,0,0,0,0,0,0,0,0,,,,,38.985832,-76.950851,0.07,36,3,0.8
743560,1744863142364,0.0,135,,-0.02,0.01,0.99,-0,-0,0,0.99,1.1,89,1580,1.7,3.71,,14.0,1.077,70.0,,18.2,5,,,,,,,,,,,,0,0,0,0,0,0,0,0,0,0,0,0,0,0,0,0,,,,,0.0,,,,,,
743580,1744863142384,,,,,,,,,,,,,,,,,,,,,,,,,,,,,,,,,,0,0,0,0,0,0,0,0,0,0,0,0,0,0,0,0,,,,,,,,,,,
743600,1744863142404,0.0,135,,-0.01,0.01,0.99,-0,-0,0,0.99,1.1,90,1505,1.6,3.71,,14.12,1.008,70.0,,18.2,5,,,,,,,,,,,,0,0,0,0,0,0,0,0,0,0,0,0,0,0,0,0,,,,,0.0,,,,,,
743620,1744863142424,,,,,,,,,,,,,,,,,,,,,,,,,,,,,,,,,,0,0,0,0,0,0,0,0,0,0,0,0,0,0,0,0,,,,,,,,,,,
743640,1744863142444,0.0,135,,-0.01,0.04,0.99,-0,-0,0,0.99,1.1,90,1413,1.5,3.73,,14.12,1.008,70.0,,16.0,5,0,0,0,0,0.0,0.0,0.0,0.0,2.26,,,0,0,0,0,0,0,0,0,0,0,0,0,0,0,0,0,0,,,,0.0,38.985832,-76.950851,0.1,36,3,0.8
743660,1744863142464,,,,,,,,,,,,,,,,,,,,,,,,,,,,,,,,,,0,0,0,0,0,0,0,0,0,0,0,0,0,0,0,0,,,,,,,,,,,
743680,1744863142484,0.0,135,,-0.02,0.03,0.98,0,-0,0,0.98,1.1,89,1413,1.5,3.73,,14.11,0.934,70.0,,16.0,5,,,,,,,,,,,,0,0,0,0,0,0,0,0,0,0,0,0,0,0,0,0,,,,,0.0,,,,,,
743700,1744863142504,,,,,,,,,,,,,,,,,,,,,,,,,,,,,,,,,,0,0,0,0,0,0,0,0,0,0,0,0,0,0,0,0,,,,,,,,,,,
743720,1744863142524,0.0,135,,-0.02,0.0,0.98,0,-0,0,0.98,1.1,89,1336,1.4,3.72,,14.18,0.899,70.0,,13.4,5,,,,,,,,,,,,0,0,0,0,0,0,0,0,0,0,0,0,0,0,0,0,,,,,0.0,,,,,,
743740,1744863142544,,,,,,,,,,,,,,,,,,,,,,,0,0,0,0,0.0,0.0,0.0,0.0,2.26,,,0,0,0,0,0,0,0,0,0,0,0,0,0,0,0,0,0,,,,,38.985832,-76.950851,0.0,36,3,0.8
743760,1744863142564,0.0,135,,-0.03,0.01,0.97,0,-0,0,0.97,1.1,88,1105,1.4,3.75,,14.22,0.887,70.0,,13.4,5,,,,,,,,,,,,0,0,0,0,0,0,0,0,0,0,0,0,0,0,0,0,,,,,0.0,,,,,,
743780,1744863142584,,,,,,,,,,,,,,,,,,,,,,,,,,,,,,,,,,0,0,0,0,0,0,0,0,0,0,0,0,0,0,0,0,,,,,,,,,,,
743800,1744863142604,0.0,135,,-0.03,0.02,0.97,0,-0,0,0.97,1.1,88,1308,1.4,3.77,,14.22,0.861,70.0,,13.4,5,,,,,,,,,,,,0,0,0,0,0,0,0,0,0,0,0,0,0,0,0,0,,,,,0.0,,,,,,
743820,1744863142624,,,,,,,,,,,,,,,,,,,,,,,,,,,,,,,,,,0,0,0,0,0,0,0,0,0,0,0,0,0,0,0,0,,,,,,,,,,,
743840,1744863142644,0.0,135,,-0.03,0.0,0.98,0,-0,0,0.98,1.1,89,1089,1.5,3.75,,14.22,0.861,70.0,,12.9,5,0,0,0,0,0.0,0.0,0.0,0.0,2.26,,,0,0,0,0,0,0,0,0,0,0,0,0,0,0,0,0,0,,,,0.0,38.985832,-76.950851,0.05,36,3,0.8
743860,1744863142664,,,,,,,,,,,,,,,,,,,,,,,,,,,,,,,,,,0,0,0,0,0,0,0,0,0,0,0,0,0,0,0,0,,,,,,,,,,,
743880,1744863142684,0.0,135,,-0.04,0.0,0.98,0,-0,0,0.98,1.1,89,1089,1.5,3.75,,14.34,0.84,70.0,,12.9,5,,,,,,,,,,,,0,0,0,0,0,0,0,0,0,0,0,0,0,0,0,0,,,,,0.0,,,,,,
743900,1744863142704,,,,,,,,,,,,,,,,,,,,,,,,,,,,,,,,,,0,0,0,0,0,0,0,0,0,0,0,0,0,0,0,0,,,,,,,,,,,
743920,1744863142724,0.0,135,,-0.04,0.01,0.98,0,-0,0,0.98,1.1,89,1235,1.6,3.75,,14.26,0.824,70.0,,12.9,5,,,,,,,,,,,,0,0,0,0,0,0,0,0,0,0,0,0,0,0,0,0,,,,,0.0,,,,,,
743940,1744863142744,,,,,,,,,,,,,,,,,,,,,,,0,0,0,0,0.0,0.0,0.0,0.0,2.26,,,0,0,0,0,0,0,0,0,0,0,0,0,0,0,0,0,0,,,,,38.985832,-76.950851,0.0,36,3,0.8
743960,1744863142764,0.0,135,,-0.07,0.0,0.98,0,-0,0,0.98,1.1,89,1095,1.6,3.74,,14.42,0.813,70.0,,12.9,5,,,,,,,,,,,,0,0,0,0,0,0,0,0,0,0,0,0,0,0,0,0,,,,,0.0,,,,,,
743980,1744863142784,,,,,,,,,,,,,,,,,,,,,,,,,,,,,,,,,,0,0,0,0,0,0,0,0,0,0,0,0,0,0,0,0,,,,,,,,,,,
744000,1744863142804,0.0,135,,-0.06,0.01,0.98,0,-0,0,0.98,1.1,89,1133,1.6,3.75,,14.36,0.807,70.0,,12.9,5,,,,,,,,,,,,0,0,0,0,0,0,0,0,0,0,0,0,0,0,0,0,,,,,0.0,,,,,,
744020,1744863142824,,,,,,,,,,,,,,,,,,,,,,,,,,,,,,,,,,0,0,0,0,0,0,0,0,0,0,0,0,0,0,0,0,,,,,,,,,,,
744040,1744863142844,0.0,135,,-0.07,-0.01,0.97,1,-0,0,0.97,1.1,88,1030,2.7,3.82,,14.36,0.807,70.0,,12.8,5,0,0,0,0,0.0,0.0,0.0,0.0,2.26,,,0,0,0,0,0,0,0,0,0,0,0,0,0,0,0,0,0,,,,0.0,38.985832,-76.950851,0.04,36,3,0.8
744060,1744863142864,,,,,,,,,,,,,,,,,,,,,,,,,,,,,,,,,,0,0,0,0,0,0,0,0,0,0,0,0,0,0,0,0,,,,,,,,,,,
744080,1744863142884,0.0,135,,-0.06,-0.01,0.97,0,-0,0,0.97,1.1,88,1030,2.7,3.82,,14.36,0.802,70.0,,12.8,5,,,,,,,,,,,,0,0,0,0,0,0,0,0,0,0,0,0,0,0,0,0,,,,,0.0,,,,,,
744100,1744863142903,,,,,,,,,,,,,,,,,,,,,,,,,,,,,,,,,,0,0,0,0,0,0,0,0,0,0,0,0,0,0,0,0,,,,,,,,,,,
744120,1744863142923,0.0,135,,-0.06,-0.02,0.97,0,-0,0,0.98,1.1,89,1288,2.8,3.85,,14.38,0.805,70.0,,13.2,5,,,,,,,,,,,,0,0,0,0,0,0,0,0,0,0,0,0,0,0,0,0,,,,,0.0,,,,,,
744140,1744863142943,,,,,,,,,,,,,,,,,,,,,,,0,0,0,0,0.0,0.0,0.0,0.0,2.26,,,0,0,0,0,0,0,0,0,0,0,0,0,0,0,0,0,0,,,,,38.985832,-76.950851,0.08,36,3,0.8
744160,1744863142963,0.0,135,,-0.06,-0.04,0.97,0,-0,0,0.97,1.1,88,1100,2.8,3.84,,14.32,0.829,70.0,,13.2,5,,,,,,,,,,,,0,0,0,0,0,0,0,0,0,0,0,0,0,0,0,0,,,,,0.0,,,,,,
744180,1744863142983,,,,,,,,,,,,,,,,,,,,,,,,,,,,,,,,,,0,0,0,0,0,0,0,0,0,0,0,0,0,0,0,0,,,,,,,,,,,
744200,1744863142995,0.0,135,,-0.06,-0.04,0.98,0,-0,0,0.98,1.1,89,1100,2.7,3.84,,14.35,0.844,70.0,,13.2,5,,,,,,,,,,,,0,0,0,0,0,0,0,0,0,0,0,0,0,0,0,0,,,,,0.0,,,,,,
744220,1744863143015,,,,,,,,,,,,,,,,,,,,,,,,,,,,,,,,,,0,0,0,0,0,0,0,0,0,0,0,0,0,0,0,0,,,,,,,,,,,
744240,1744863143035,0.0,135,13.58,-0.06,-0.04,0.98,0,-0,0,0.98,1.1,89,1025,2.7,3.85,15,14.35,0.844,70.0,176,12.6,5,0,0,0,0,0.0,0.0,0.0,0.0,2.26,0,0.0,0,0,0,0,0,0,0,0,0,0,0,0,0,0,0,0,0,0.0,0,0,0.0,38.985832,-76.950851,0.05,36,3,0.8
744260,1744863143055,,,,,,,,,,,,,,,,,,,,,,,,,,,,,,,,,,0,0,0,0,0,0,0,0,0,0,0,0,0,0,0,0,,,,,,,,,,,
744280,1744863143075,0.0,135,,-0.06,-0.03,0.98,0,-0,0,0.98,1.1,89,1025,2.7,3.85,,14.52,0.845,70.0,,12.6,5,,,,,,,,,,,,0,0,0,0,0,0,0,0,0,0,0,0,0,0,0,0,,,,,0.0,,,,,,
744300,1744863143101,,,,,,,,,,,,,,,,,,,,,,,,,,,,,,,,,,0,0,0,0,0,0,0,0,0,0,0,0,0,0,0,0,,,,,,,,,,,
744320,1744863143121,0.0,135,,-0.06,-0.02,0.98,0,-0,0,0.98,1.1,89,885,2.7,3.85,,14.63,0.844,70.0,,8.7,5,,,,,,,,,,,,0,0,0,0,0,0,0,0,0,0,0,0,0,0,0,0,,,,,0.0,,,,,,
744340,1744863143141,,,,,,,,,,,,,,,,,,,,,,,0,0,0,0,0.0,0.0,0.0,0.0,2.26,,,0,0,0,0,0,0,0,0,0,0,0,0,0,0,0,0,0,,,,,38.985832,-76.950851,0.05,36,3,0.8
744360,1744863143161,0.0,135,,-0.06,-0.02,0.98,0,-0,0,0.99,1.1,89,885,2.7,3.85,,14.58,0.846,70.0,,8.7,5,,,,,,,,,,,,0,0,0,0,0,0,0,0,0,0,0,0,0,0,0,0,,,,,0.0,,,,,,
744380,1744863143181,,,,,,,,,,,,,,,,,,,,,,,,,,,,,,,,,,0,0,0,0,0,0,0,0,0,0,0,0,0,0,0,0,,,,,,,,,,,
744400,1744863143199,0.0,135,,-0.07,-0.02,0.99,0,-0,0,0.99,1.1,90,885,2.7,3.85,,14.6,0.847,70.0,,8.7,5,,,,,,,,,,,,0,0,0,0,0,0,0,0,0,0,0,0,0,0,0,0,,,,,0.0,,,,,,
744420,1744863143219,,,,,,,,,,,,,,,,,,,,,,,,,,,,,,,,,,0,0,0,0,0,0,0,0,0,0,0,0,0,0,0,0,,,,,,,,,,,
744440,1744863143239,0.0,135,,-0.07,-0.02,0.99,0,-0,0,0.99,1.1,90,885,2.8,3.85,,14.6,0.847,70.0,,7.1,5,0,0,0,0,0.0,0.0,0.0,0.0,2.26,,,0,0,0,0,0,0,0,0,0,0,0,0,0,0,0,0,0,,,,0.0,38.985832,-76.950851,0.04,36,3,0.8
744460,1744863143259,,,,,,,,,,,,,,,,,,,,,,,,,,,,,,,,,,0,0,0,0,0,0,0,0,0,0,0,0,0,0,0,0,,,,,,,,,,,
744480,1744863143279,0.0,135,,-0.07,-0.02,0.99,0,-0,0,0.99,1.1,90,885,2.8,3.85,,14.67,0.85,70.0,,7.1,5,,,,,,,,,,,,0,0,0,0,0,0,0,0,0,0,0,0,0,0,0,0,,,,,0.0,,,,,,
744500,1744863143303,,,,,,,,,,,,,,,,,,,,,,,,,,,,,,,,,,0,0,0,0,0,0,0,0,0,0,0,0,0,0,0,0,,,,,,,,,,,
744520,1744863143323,0.0,135,,-0.07,-0.02,0.99,0,-0,0,1.0,1.1,90,885,2.8,3.85,,14.63,0.85,70.0,,6.6,5,,,,,,,,,,,,0,0,0,0,0,0,0,0,0,0,0,0,0,0,0,0,,,,,0.0,,,,,,
744540,1744863143343,,,,,,,,,,,,,,,,,,,,,,,0,0,0,0,0.0,0.0,0.0,0.0,2.26,,,0,0,0,0,0,0,0,0,0,0,0,0,0,0,0,0,0,,,,,38.985832,-76.950851,0.04,36,3,0.8
744560,1744863143363,0.0,135,,-0.07,-0.01,0.99,0,-0,0,1.0,1.1,90,885,2.8,3.85,,14.6,0.851,70.0,,6.6,5,,,,,,,,,,,,0,0,0,0,0,0,0,0,0,0,0,0,0,0,0,0,,,,,0.0,,,,,,
744580,1744863143383,,,,,,,,,,,,,,,,,,,,,,,,,,,,,,,,,,0,0,0,0,0,0,0,0,0,0,0,0,0,0,0,0,,,,,,,,,,,
744600,1744863143403,0.0,135,,-0.07,-0.01,0.99,0,-0,0,1.0,1.1,90,885,2.8,3.85,,14.6,0.852,70.0,,6.6,5,,,,,,,,,,,,0,0,0,0,0,0,0,0,0,0,0,0,0,0,0,0,,,,,0.0,,,,,,
744620,1744863143423,,,,,,,,,,,,,,,,,,,,,,,,,,,,,,,,,,0,0,0,0,0,0,0,0,0,0,0,0,0,0,0,0,,,,,,,,,,,
744640,1744863143443,0.0,135,,-0.07,-0.01,1.0,0,-0,0,1.0,1.1,90,885,2.9,3.85,,14.6,0.852,70.0,,6.6,5,0,0,0,0,0.0,0.0,0.0,0.0,2.26,,,0,0,0,0,0,0,0,0,0,0,0,0,0,0,0,0,0,,,,0.0,38.985832,-76.950851,0.08,36,3,0.8
744660,1744863143463,,,,,,,,,,,,,,,,,,,,,,,,,,,,,,,,,,0,0,0,0,0,0,0,0,0,0,0,0,0,0,0,0,,,,,,,,,,,
744680,1744863143483,0.0,135,,-0.07,-0.01,1.0,0,-0,0,1.0,1.1,91,885,2.9,3.85,,14.59,0.853,70.0,,6.6,5,,,,,,,,,,,,0,0,0,0,0,0,0,0,0,0,0,0,0,0,0,0,,,,,0.0,,,,,,
744700,1744863143505,,,,,,,,,,,,,,,,,,,,,,,,,,,,,,,,,,0,0,0,0,0,0,0,0,0,0,0,0,0,0,0,0,,,,,,,,,,,
744720,1744863143525,0.0,135,,-0.07,-0.01,1.0,0,-0,0,1.0,1.1,91,885,5.1,3.85,,14.59,0.853,70.0,,6.6,5,,,,,,,,,,,,0,0,0,0,0,0,0,0,0,0,0,0,0,0,0,0,,,,,0.0,,,,,,
744740,1744863143545,,,,,,,,,,,,,,,,,,,,,,,0,0,0,0,0.0,0.0,0.0,0.0,2.26,,,0,0,0,0,0,0,0,0,0,0,0,0,0,0,0,0,0,,,,,38.985832,-76.950851,0.0,36,3,0.8
744760,1744863143565,0.0,135,,-0.07,-0.01,1.0,0,-0,0,1.0,1.1,91,885,5.3,3.85,,14.59,0.851,70.0,,6.6,5,,,,,,,,,,,,0,0,0,0,0,0,0,0,0,0,0,0,0,0,0,0,,,,,0.0,,,,,,
744780,1744863143585,,,,,,,,,,,,,,,,,,,,,,,,,,,,,,,,,,0,0,0,0,0,0,0,0,0,0,0,0,0,0,0,0,,,,,,,,,,,
744800,1744863143603,0.0,135,,-0.07,-0.01,1.0,0,-0,0,1.0,1.1,91,885,5.3,3.85,,14.6,0.852,70.0,,6.6,5,,,,,,,,,,,,0,0,0,0,0,0,0,0,0,0,0,0,0,0,0,0,,,,,0.0,,,,,,
744820,1744863143623,,,,,,,,,,,,,,,,,,,,,,,,,,,,,,,,,,0,0,0,0,0,0,0,0,0,0,0,0,0,0,0,0,,,,,,,,,,,
744840,1744863143643,0.0,135,,-0.07,-0.01,1.0,0,-0,0,1.0,1.1,91,885,5.3,3.85,,14.6,0.852,70.0,,6.6,5,0,0,0,0,0.0,0.0,0.0,0.0,2.26,,,0,0,0,0,0,0,0,0,0,0,0,0,0,0,0,0,0,,,,0.0,38.985832,-76.950851,0.04,36,3,0.8
744860,1744863143663,,,,,,,,,,,,,,,,,,,,,,,,,,,,,,,,,,0,0,0,0,0,0,0,0,0,0,0,0,0,0,0,0,,,,,,,,,,,
744880,1744863143683,0.0,135,,-0.07,-0.0,1.0,0,-0,0,1.0,1.1,91,885,5.3,3.85,,14.6,0.851,70.0,,6.6,5,,,,,,,,,,,,0,0,0,0,0,0,0,0,0,0,0,0,0,0,0,0,,,,,0.0,,,,,,
744900,1744863143705,,,,,,,,,,,,,,,,,,,,,,,,,,,,,,,,,,0,0,0,0,0,0,0,0,0,0,0,0,0,0,0,0,,,,,,,,,,,
744920,1744863143725,0.0,135,,-0.07,-0.0,1.0,0,-0,0,1.0,1.1,91,885,5.3,3.85,,14.6,0.85,70.0,,6.6,5,,,,,,,,,,,,0,0,0,0,0,0,0,0,0,0,0,0,0,0,0,0,,,,,0.0,,,,,,
744940,1744863143745,,,,,,,,,,,,,,,,,,,,,,,0,0,0,0,0.0,0.0,0.0,0.0,2.26,,,0,0,0,0,0,0,0,0,0,0,0,0,0,0,0,0,0,,,,,38.985832,-76.950851,0.04,36,3,0.8
744960,1744863143765,0.0,135,,-0.07,-0.0,1.0,0,-0,0,1.0,1.1,91,885,5.4,3.85,,14.6,0.85,70.0,,6.6,5,,,,,,,,,,,,0,0,0,0,0,0,0,0,0,0,0,0,0,0,0,0,,,,,0.0,,,,,,
744980,1744863143785,,,,,,,,,,,,,,,,,,,,,,,,,,,,,,,,,,0,0,0,0,0,0,0,0,0,0,0,0,0,0,0,0,,,,,,,,,,,
745000,1744863143803,0.0,135,,-0.07,-0.0,1.0,0,-0,0,1.0,1.1,91,885,5.4,3.85,,14.6,0.85,70.0,,6.6,5,,,,,,,,,,,,0,0,0,0,0,0,0,0,0,0,0,0,0,0,0,0,,,,,0.0,,,,,,
745020,1744863143823,,,,,,,,,,,,,,,,,,,,,,,,,,,,,,,,,,0,0,0,0,0,0,0,0,0,0,0,0,0,0,0,0,,,,,,,,,,,
745040,1744863143843,0.0,135,,-0.07,-0.0,1.0,0,-0,0,1.0,1.1,91,885,5.4,3.85,,14.6,0.85,70.0,,6.6,5,0,0,0,0,0.0,0.0,0.0,0.0,2.26,,,0,0,0,0,0,0,0,0,0,0,0,0,0,0,0,0,0,,,,0.0,38.985832,-76.950851,0.0,36,3,0.8
745060,1744863143863,,,,,,,,,,,,,,,,,,,,,,,,,,,,,,,,,,0,0,0,0,0,0,0,0,0,0,0,0,0,0,0,0,,,,,,,,,,,
745080,1744863143883,0.0,135,,-0.07,-0.0,1.0,0,-0,0,1.0,1.1,91,885,5.4,3.85,,14.6,0.848,70.0,,6.6,5,,,,,,,,,,,,0,0,0,0,0,0,0,0,0,0,0,0,0,0,0,0,,,,,0.0,,,,,,
745100,1744863143904,,,,,,,,,,,,,,,,,,,,,,,,,,,,,,,,,,0,0,0,0,0,0,0,0,0,0,0,0,0,0,0,0,,,,,,,,,,,
745120,1744863143924,0.0,135,,-0.07,-0.0,1.0,0,-0,0,1.0,1.1,91,885,5.4,3.85,,14.6,0.848,70.0,,6.7,5,,,,,,,,,,,,0,0,0,0,0,0,0,0,0,0,0,0,0,0,0,0,,,,,0.0,,,,,,
745140,1744863143944,,,,,,,,,,,,,,,,,,,,,,,0,0,0,0,0.0,0.0,0.0,0.0,2.26,,,0,0,0,0,0,0,0,0,0,0,0,0,0,0,0,0,0,,,,,38.985832,-76.950851,0.0,36,3,0.8
745160,1744863143964,0.0,135,,-0.07,-0.0,1.0,0,-0,0,1.0,1.1,91,885,5.5,3.85,,14.59,0.848,70.0,,6.7,5,,,,,,,,,,,,0,0,0,0,0,0,0,0,0,0,0,0,0,0,0,0,,,,,0.0,,,,,,
745180,1744863143984,,,,,,,,,,,,,,,,,,,,,,,,,,,,,,,,,,0,0,0,0,0,0,0,0,0,0,0,0,0,0,0,0,,,,,,,,,,,
745200,1744863143994,0.0,135,,-0.07,-0.0,1.0,0,-0,0,1.0,1.1,91,885,5.5,3.85,,14.59,0.847,70.0,,6.7,5,,,,,,,,,,,,0,0,0,0,0,0,0,0,0,0,0,0,0,0,0,0,,,,,0.0,,,,,,
745220,1744863144014,,,,,,,,,,,,,,,,,,,,,,,,,,,,,,,,,,0,0,0,0,0,0,0,0,0,0,0,0,0,0,0,0,,,,,,,,,,,
745240,1744863144034,0.0,135,13.47,-0.07,-0.0,1.0,0,-0,0,1.0,1.1,91,885,5.4,3.85,15,14.59,0.847,70.0,176,6.5,5,0,0,0,0,0.0,0.0,0.0,0.0,2.26,0,0.0,0,0,0,0,0,0,0,0,0,0,0,0,0,0,0,0,0,0.0,0,0,0.0,38.985832,-76.950851,0.07,36,3,0.8
745260,1744863144054,,,,,,,,,,,,,,,,,,,,,,,,,,,,,,,,,,0,0,0,0,0,0,0,0,0,0,0,0,0,0,0,0,,,,,,,,,,,
745280,1744863144074,0.0,135,,-0.07,-0.0,1.0,0,-0,0,1.0,1.1,91,885,5.4,3.85,,14.6,0.846,70.0,,6.5,5,,,,,,,,,,,,0,0,0,0,0,0,0,0,0,0,0,0,0,0,0,0,,,,,0.0,,,,,,
745300,1744863144100,,,,,,,,,,,,,,,,,,,,,,,,,,,,,,,,,,0,0,0,0,0,0,0,0,0,0,0,0,0,0,0,0,,,,,,,,,,,
745320,1744863144120,0.0,135,,-0.07,-0.0,1.0,0,-0,0,1.0,1.1,91,885,5.4,3.85,,14.6,0.846,70.0,,6.6,5,,,,,,,,,,,,0,0,0,0,0,0,0,0,0,0,0,0,0,0,0,0,,,,,0.0,,,,,,
745340,1744863144140,,,,,,,,,,,,,,,,,,,,,,,0,0,0,0,0.0,0.0,0.0,0.0,2.26,,,0,0,0,0,0,0,0,0,0,0,0,0,0,0,0,0,0,,,,,38.985832,-76.950851,0.0,36,3,0.8
745360,1744863144160,0.0,135,,-0.07,-0.0,1.0,0,-0,0,1.0,1.1,91,885,5.3,3.85,,14.59,0.845,70.0,,6.6,5,,,,,,,,,,,,0,0,0,0,0,0,0,0,0,0,0,0,0,0,0,0,,,,,0.0,,,,,,
745380,1744863144180,,,,,,,,,,,,,,,,,,,,,,,,,,,,,,,,,,0,0,0,0,0,0,0,0,0,0,0,0,0,0,0,0,,,,,,,,,,,
745400,1744863144202,0.0,135,,-0.07,-0.0,1.0,0,-0,0,1.0,1.1,91,885,5.3,3.85,,14.6,0.845,70.0,,6.6,5,,,,,,,,,,,,0,0,0,0,0,0,0,0,0,0,0,0,0,0,0,0,,,,,0.0,,,,,,
745420,1744863144222,,,,,,,,,,,,,,,,,,,,,,,,,,,,,,,,,,0,0,0,0,0,0,0,0,0,0,0,0,0,0,0,0,,,,,,,,,,,
745440,1744863144242,0.0,135,,-0.07,-0.0,1.0,0,-0,0,1.0,1.1,91,885,5.4,3.85,,14.6,0.845,70.0,,6.5,5,0,0,0,0,0.0,0.0,0.0,0.0,2.26,,,0,0,0,0,0,0,0,0,0,0,0,0,0,0,0,0,0,,,,0.0,38.985832,-76.950851,0.0,36,3,0.8
745460,1744863144262,,,,,,,,,,,,,,,,,,,,,,,,,,,,,,,,,,0,0,0,0,0,0,0,0,0,0,0,0,0,0,0,0,,,,,,,,,,,
745480,1744863144282,0.0,135,,-0.07,-0.0,1.0,0,-0,0,1.0,1.1,91,885,5.4,3.85,,14.6,0.845,70.0,,6.5,5,,,,,,,,,,,,0,0,0,0,0,0,0,0,0,0,0,0,0,0,0,0,,,,,0.0,,,,,,
745500,1744863144304,,,,,,,,,,,,,,,,,,,,,,,,,,,,,,,,,,0,0,0,0,0,0,0,0,0,0,0,0,0,0,0,0,,,,,,,,,,,
745520,1744863144324,0.0,135,,-0.07,-0.0,1.0,0,-0,0,1.0,1.1,91,885,5.4,3.85,,14.6,0.844,70.0,,6.4,5,,,,,,,,,,,,0,0,0,0,0,0,0,0,0,0,0,0,0,0,0,0,,,,,0.0,,,,,,
745540,1744863144344,,,,,,,,,,,,,,,,,,,,,,,0,0,0,0,0.0,0.0,0.0,0.0,2.26,,,0,0,0,0,0,0,0,0,0,0,0,0,0,0,0,0,0,,,,,38.985832,-76.950851,0.04,36,3,0.8
745560,1744863144364,0.0,135,,-0.07,-0.0,1.0,0,-0,0,1.0,1.1,91,885,5.5,3.85,,14.6,0.844,70.0,,6.4,5,,,,,,,,,,,,0,0,0,0,0,0,0,0,0,0,0,0,0,0,0,0,,,,,0.0,,,,,,
745580,1744863144384,,,,,,,,,,,,,,,,,,,,,,,,,,,,,,,,,,0,0,0,0,0,0,0,0,0,0,0,0,0,0,0,0,,,,,,,,,,,
745600,1744863144404,0.0,135,,-0.07,-0.0,1.0,0,-0,0,1.0,1.1,91,885,5.5,3.85,,14.6,0.844,70.0,,6.4,5,,,,,,,,,,,,0,0,0,0,0,0,0,0,0,0,0,0,0,0,0,0,,,,,0.0,,,,,,
745620,1744863144424,,,,,,,,,,,,,,,,,,,,,,,,,,,,,,,,,,0,0,0,0,0,0,0,0,0,0,0,0,0,0,0,0,,,,,,,,,,,
745640,1744863144444,0.0,135,,-0.07,-0.0,1.0,0,-0,0,1.0,1.1,91,885,5.5,3.85,,14.6,0.844,70.0,,6.6,5,0,0,0,0,0.0,0.0,0.0,0.0,2.26,,,0,0,0,0,0,0,0,0,0,0,0,0,0,0,0,0,0,,,,0.0,38.985832,-76.950851,0.07,36,3,0.8
745660,1744863144464,,,,,,,,,,,,,,,,,,,,,,,,,,,,,,,,,,0,0,0,0,0,0,0,0,0,0,0,0,0,0,0,0,,,,,,,,,,,
745680,1744863144484,0.0,135,,-0.07,-0.0,1.0,0,-0,0,1.0,1.1,91,885,5.5,3.85,,14.59,0.843,70.0,,6.6,5,,,,,,,,,,,,0,0,0,0,0,0,0,0,0,0,0,0,0,0,0,0,,,,,0.0,,,,,,
745700,1744863144504,,,,,,,,,,,,,,,,,,,,,,,,,,,,,,,,,,0,0,0,0,0,0,0,0,0,0,0,0,0,0,0,0,,,,,,,,,,,
745720,1744863144524,0.0,135,,-0.07,-0.0,1.0,0,-0,0,1.0,1.1,91,885,5.5,3.85,,14.6,0.842,70.0,,6.5,5,,,,,,,,,,,,0,0,0,0,0,0,0,0,0,0,0,0,0,0,0,0,,,,,0.0,,,,,,
745740,1744863144544,,,,,,,,,,,,,,,,,,,,,,,0,0,0,0,0.0,0.0,0.0,0.0,2.26,,,0,0,0,0,0,0,0,0,0,0,0,0,0,0,0,0,0,,,,,38.985832,-76.950851,0.04,36,3,0.8
745760,1744863144564,0.0,135,,-0.07,-0.0,1.0,0,-0,0,1.0,1.1,91,885,5.5,3.85,,14.59,0.842,70.0,,6.5,5,,,,,,,,,,,,0,0,0,0,0,0,0,0,0,0,0,0,0,0,0,0,,,,,0.0,,,,,,
745780,1744863144584,,,,,,,,,,,,,,,,,,,,,,,,,,,,,,,,,,0,0,0,0,0,0,0,0,0,0,0,0,0,0,0,0,,,,,,,,,,,
745800,1744863144604,0.0,135,,-0.07,-0.0,1.0,0,-0,0,1.0,1.1,91,885,5.4,3.85,,14.6,0.842,70.0,,6.5,5,,,,,,,,,,,,0,0,0,0,0,0,0,0,0,0,0,0,0,0,0,0,,,,,0.0,,,,,,
745820,1744863144624,,,,,,,,,,,,,,,,,,,,,,,,,,,,,,,,,,0,0,0,0,0,0,0,0,0,0,0,0,0,0,0,0,,,,,,,,,,,
745840,1744863144644,0.0,135,,-0.07,-0.0,1.0,0,-0,0,1.0,1.1,91,885,5.4,3.85,,14.6,0.842,70.0,,6.8,5,0,0,0,0,0.0,0.0,0.0,0.0,2.26,,,0,0,0,0,0,0,0,0,0,0,0,0,0,0,0,0,0,,,,0.0,38.985832,-76.950851,0.04,36,3,0.8
745860,1744863144664,,,,,,,,,,,,,,,,,,,,,,,,,,,,,,,,,,0,0,0,0,0,0,0,0,0,0,0,0,0,0,0,0,,,,,,,,,,,
745880,1744863144684,0.0,135,,-0.07,-0.0,1.0,0,-0,0,1.0,1.1,91,885,5.4,3.85,,14.59,0.842,70.0,,6.8,5,,,,,,,,,,,,0,0,0,0,0,0,0,0,0,0,0,0,0,0,0,0,,,,,0.0,,,,,,
745900,1744863144704,,,,,,,,,,,,,,,,,,,,,,,,,,,,,,,,,,0,0,0,0,0,0,0,0,0,0,0,0,0,0,0,0,,,,,,,,,,,
745920,1744863144724,0.0,135,,-0.07,-0.0,1.0,0,-0,0,1.0,1.1,91,885,5.3,3.85,,14.6,0.841,70.0,,6.6,5,,,,,,,,,,,,0,0,0,0,0,0,0,0,0,0,0,0,0,0,0,0,,,,,0.0,,,,,,
745940,1744863144744,,,,,,,,,,,,,,,,,,,,,,,0,0,0,0,0.0,0.0,0.0,0.0,2.26,,,0,0,0,0,0,0,0,0,0,0,0,0,0,0,0,0,0,,,,,38.985832,-76.950851,0.04,36,3,0.8
745960,1744863144764,0.0,135,,-0.07,-0.0,1.0,0,-0,0,1.0,1.1,91,885,5.3,3.85,,14.59,0.841,70.0,,6.6,5,,,,,,,,,,,,0,0,0,0,0,0,0,0,0,0,0,0,0,0,0,0,,,,,0.0,,,,,,
745980,1744863144784,,,,,,,,,,,,,,,,,,,,,,,,,,,,,,,,,,0,0,0,0,0,0,0,0,0,0,0,0,0,0,0,0,,,,,,,,,,,
746000,1744863144804,0.0,135,,-0.07,-0.0,1.0,0,-0,0,1.0,1.1,91,885,5.4,3.85,,14.6,0.84,70.0,,6.6,5,,,,,,,,,,,,0,0,0,0,0,0,0,0,0,0,0,0,0,0,0,0,,,,,0.0,,,,,,
746020,1744863144824,,,,,,,,,,,,,,,,,,,,,,,,,,,,,,,,,,0,0,0,0,0,0,0,0,0,0,0,0,0,0,0,0,,,,,,,,,,,
746040,1744863144844,0.0,135,,-0.07,-0.0,1.0,0,-0,0,1.0,1.1,91,885,5.5,3.85,,14.6,0.84,70.0,,6.4,5,0,0,0,0,0.0,0.0,0.0,0.0,2.26,,,0,0,0,0,0,0,0,0,0,0,0,0,0,0,0,0,0,,,,0.0,38.985832,-76.950851,0.05,36,3,0.8
746060,1744863144864,,,,,,,,,,,,,,,,,,,,,,,,,,,,,,,,,,0,0,0,0,0,0,0,0,0,0,0,0,0,0,0,0,,,,,,,,,,,
746080,1744863144884,0.0,135,,-0.07,-0.0,1.0,0,-0,0,1.0,1.1,91,885,5.5,3.85,,14.6,0.841,70.0,,6.4,5,,,,,,,,,,,,0,0,0,0,0,0,0,0,0,0,0,0,0,0,0,0,,,,,0.0,,,,,,
746100,1744863144903,,,,,,,,,,,,,,,,,,,,,,,,,,,,,,,,,,0,0,0,0,0,0,0,0,0,0,0,0,0,0,0,0,,,,,,,,,,,
746120,1744863144923,0.0,135,,-0.07,-0.0,1.0,0,-0,0,1.0,1.1,91,0,5.5,3.82,,14.6,0.841,70.0,,6.6,5,,,,,,,,,,,,0,0,0,0,0,0,0,0,0,0,0,0,0,0,0,0,,,,,0.0,,,,,,
746140,1744863144943,,,,,,,,,,,,,,,,,,,,,,,0,0,0,0,0.0,0.0,0.0,0.0,2.26,,,0,0,0,0,0,0,0,0,0,0,0,0,0,0,0,0,0,,,,,38.985832,-76.950851,0.1,36,3,0.8
746160,1744863144963,0.0,135,,-0.07,-0.0,1.0,0,-0,0,1.0,1.1,91,0,5.5,3.82,,14.6,0.84,70.0,,6.6,5,,,,,,,,,,,,0,0,0,0,0,0,0,0,0,0,0,0,0,0,0,0,,,,,0.0,,,,,,
746180,1744863144983,,,,,,,,,,,,,,,,,,,,,,,,,,,,,,,,,,0,0,0,0,0,0,0,0,0,0,0,0,0,0,0,0,,,,,,,,,,,
746200,1744863144995,0.0,135,,-0.07,-0.0,1.0,0,-0,0,1.0,1.1,91,0,5.5,3.82,,14.6,0.84,70.0,,6.6,5,,,,,,,,,,,,0,0,0,0,0,0,0,0,0,0,0,0,0,0,0,0,,,,,0.0,,,,,,
746220,1744863145015,,,,,,,,,,,,,,,,,,,,,,,,,,,,,,,,,,0,0,0,0,0,0,0,0,0,0,0,0,0,0,0,0,,,,,,,,,,,
746240,1744863145035,0.0,135,13.61,-0.07,-0.0,1.0,0,-0,0,1.0,1.1,91,0,5.5,3.83,15,14.6,0.84,70.0,176,6.6,5,0,0,0,0,0.0,0.0,0.0,0.0,2.26,0,0.0,0,0,0,0,0,0,0,0,0,0,0,0,0,0,0,0,0,0.0,0,0,0.0,38.985832,-76.950851,0.04,36,3,0.8
746260,1744863145055,,,,,,,,,,,,,,,,,,,,,,,,,,,,,,,,,,0,0,0,0,0,0,0,0,0,0,0,0,0,0,0,0,,,,,,,,,,,
746280,1744863145075,0.0,135,,-0.07,-0.0,1.0,0,-0,0,1.0,1.1,91,0,5.5,3.83,,14.6,0.84,70.0,,6.6,5,,,,,,,,,,,,0,0,0,0,0,0,0,0,0,0,0,0,0,0,0,0,,,,,0.0,,,,,,
746300,1744863145101,,,,,,,,,,,,,,,,,,,,,,,,,,,,,,,,,,0,0,0,0,0,0,0,0,0,0,0,0,0,0,0,0,,,,,,,,,,,
746320,1744863145121,0.0,135,,-0.07,-0.0,1.0,0,-0,0,1.0,1.1,91,0,5.5,3.83,,14.6,0.84,70.0,,6.6,5,,,,,,,,,,,,0,0,0,0,0,0,0,0,0,0,0,0,0,0,0,0,,,,,0.0,,,,,,
746340,1744863145141,,,,,,,,,,,,,,,,,,,,,,,0,0,0,0,0.0,0.0,0.0,0.0,2.26,,,0,0,0,0,0,0,0,0,0,0,0,0,0,0,0,0,0,,,,,38.985832,-76.950851,0.07,36,3,0.8
746360,1744863145161,0.0,135,,-0.07,-0.0,1.0,0,-0,0,1.0,1.1,91,0,5.5,3.83,,14.59,0.839,70.0,,6.6,5,,,,,,,,,,,,0,0,0,0,0,0,0,0,0,0,0,0,0,0,0,0,,,,,0.0,,,,,,
746380,1744863145181,,,,,,,,,,,,,,,,,,,,,,,,,,,,,,,,,,0,0,0,0,0,0,0,0,0,0,0,0,0,0,0,0,,,,,,,,,,,
746400,1744863145201,0.0,135,,-0.07,-0.0,1.0,0,-0,0,1.0,1.1,91,0,5.4,3.83,,14.6,0.841,70.0,,6.6,5,,,,,,,,,,,,0,0,0,0,0,0,0,0,0,0,0,0,0,0,0,0,,,,,0.0,,,,,,
746420,1744863145221,,,,,,,,,,,,,,,,,,,,,,,,,,,,,,,,,,0,0,0,0,0,0,0,0,0,0,0,0,0,0,0,0,,,,,,,,,,,
746440,1744863145241,0.0,135,,-0.07,-0.0,1.0,0,-0,0,1.0,1.1,91,0,5.4,3.84,,14.6,0.841,70.0,,6.7,5,0,0,0,0,0.0,0.0,0.0,0.0,2.26,,,0,0,0,0,0,0,0,0,0,0,0,0,0,0,0,0,0,,,,0.0,38.985832,-76.950851,0.04,36,3,0.8
746460,1744863145261,,,,,,,,,,,,,,,,,,,,,,,,,,,,,,,,,,0,0,0,0,0,0,0,0,0,0,0,0,0,0,0,0,,,,,,,,,,,
746480,1744863145281,0.0,135,,-0.07,-0.0,1.0,0,-0,0,1.0,1.1,91,0,5.4,3.84,,14.6,0.84,70.0,,6.7,5,,,,,,,,,,,,0,0,0,0,0,0,0,0,0,0,0,0,0,0,0,0,,,,,0.0,,,,,,
746500,1744863145303,,,,,,,,,,,,,,,,,,,,,,,,,,,,,,,,,,0,0,0,0,0,0,0,0,0,0,0,0,0,0,0,0,,,,,,,,,,,
746520,1744863145323,0.0,135,,-0.07,-0.0,1.0,0,-0,0,1.0,1.1,91,0,5.4,3.84,,14.6,0.84,70.0,,6.6,5,,,,,,,,,,,,0,0,0,0,0,0,0,0,0,0,0,0,0,0,0,0,,,,,0.0,,,,,,
746540,1744863145343,,,,,,,,,,,,,,,,,,,,,,,0,0,0,0,0.0,0.0,0.0,0.0,2.26,,,0,0,0,0,0,0,0,0,0,0,0,0,0,0,0,0,0,,,,,38.985832,-76.950851,0.04,36,3,0.8
746560,1744863145363,0.0,135,,-0.07,-0.0,1.0,0,-0,0,1.0,1.1,91,0,5.5,3.84,,14.6,0.84,70.0,,6.6,5,,,,,,,,,,,,0,0,0,0,0,0,0,0,0,0,0,0,0,0,0,0,,,,,0.0,,,,,,
746580,1744863145383,,,,,,,,,,,,,,,,,,,,,,,,,,,,,,,,,,0,0,0,0,0,0,0,0,0,0,0,0,0,0,0,0,,,,,,,,,,,
746600,1744863145403,0.0,135,,-0.07,-0.0,1.0,0,-0,0,1.0,1.1,91,0,5.5,3.83,,14.6,0.84,70.0,,6.6,5,,,,,,,,,,,,0,0,0,0,0,0,0,0,0,0,0,0,0,0,0,0,,,,,0.0,,,,,,
746620,1744863145423,,,,,,,,,,,,,,,,,,,,,,,,,,,,,,,,,,0,0,0,0,0,0,0,0,0,0,0,0,0,0,0,0,,,,,,,,,,,
746640,1744863145443,0.0,135,,-0.07,-0.0,1.0,0,-0,0,1.0,1.1,91,0,5.5,3.83,,14.6,0.84,70.0,,6.4,5,0,0,0,0,0.0,0.0,0.0,0.0,2.26,,,0,0,0,0,0,0,0,0,0,0,0,0,0,0,0,0,0,,,,0.0,38.985832,-76.950851,0.04,36,3,0.8
746660,1744863145463,,,,,,,,,,,,,,,,,,,,,,,,,,,,,,,,,,0,0,0,0,0,0,0,0,0,0,0,0,0,0,0,0,,,,,,,,,,,
746680,1744863145483,0.0,135,,-0.07,-0.0,1.0,0,-0,0,1.0,1.1,91,0,5.5,3.83,,14.6,0.838,70.0,,6.4,5,,,,,,,,,,,,0,0,0,0,0,0,0,0,0,0,0,0,0,0,0,0,,,,,0.0,,,,,,
746700,1744863145503,,,,,,,,,,,,,,,,,,,,,,,,,,,,,,,,,,0,0,0,0,0,0,0,0,0,0,0,0,0,0,0,0,,,,,,,,,,,
746720,1744863145523,0.0,135,,-0.07,-0.0,1.0,0,-0,0,1.0,1.1,91,0,5.5,3.83,,14.6,0.84,70.0,,6.7,5,,,,,,,,,,,,0,0,0,0,0,0,0,0,0,0,0,0,0,0,0,0,,,,,0.0,,,,,,
746740,1744863145543,,,,,,,,,,,,,,,,,,,,,,,0,0,0,0,0.0,0.0,0.0,0.0,2.26,,,0,0,0,0,0,0,0,0,0,0,0,0,0,0,0,0,0,,,,,38.985832,-76.950851,0.04,36,3,0.8
746760,1744863145563,0.0,135,,-0.07,0.0,1.0,0,-0,0,1.0,1.1,91,0,5.6,3.83,,14.6,0.839,70.0,,6.7,5,,,,,,,,,,,,0,0,0,0,0,0,0,0,0,0,0,0,0,0,0,0,,,,,0.0,,,,,,
746780,1744863145583,,,,,,,,,,,,,,,,,,,,,,,,,,,,,,,,,,0,0,0,0,0,0,0,0,0,0,0,0,0,0,0,0,,,,,,,,,,,
746800,1744863145603,0.0,135,,-0.07,-0.0,1.0,0,-0,0,1.0,1.1,90,0,5.4,3.82,,14.59,0.839,70.0,,6.7,5,,,,,,,,,,,,0,0,0,0,0,0,0,0,0,0,0,0,0,0,0,0,,,,,0.0,,,,,,
746820,1744863145623,,,,,,,,,,,,,,,,,,,,,,,,,,,,,,,,,,0,0,0,0,0,0,0,0,0,0,0,0,0,0,0,0,,,,,,,,,,,
746840,1744863145643,0.0,135,,-0.07,-0.01,0.99,0,-0,0,1.0,1.1,90,0,5.5,3.82,,14.59,0.839,70.0,,107.4,5,0,0,0,0,0.0,0.0,0.0,0.0,2.26,,,0,0,0,0,0,0,0,0,0,0,0,0,0,0,0,0,0,,,,0.0,38.985832,-76.950851,0.05,36,3,0.8
746860,1744863145663,,,,,,,,,,,,,,,,,,,,,,,,,,,,,,,,,,0,0,0,0,0,0,0,0,0,0,0,0,0,0,0,0,,,,,,,,,,,
746880,1744863145683,0.0,135,,-0.07,-0.01,0.99,0,-0,0,1.0,1.1,90,0,5.5,3.82,,14.56,0.839,70.0,,107.4,5,,,,,,,,,,,,0,0,0,0,0,0,0,0,0,0,0,0,0,0,0,0,,,,,0.0,,,,,,
746900,1744863145703,,,,,,,,,,,,,,,,,,,,,,,,,,,,,,,,,,0,0,0,0,0,0,0,0,0,0,0,0,0,0,0,0,,,,,,,,,,,
746920,1744863145723,0.0,135,,-0.07,-0.01,1.0,0,-0,0,1.0,1.1,91,0,5.4,3.82,,14.59,0.839,70.0,,107.4,5,,,,,,,,,,,,0,0,0,0,0,0,0,0,0,0,0,0,0,0,0,0,,,,,0.0,,,,,,
746940,1744863145743,,,,,,,,,,,,,,,,,,,,,,,0,0,0,0,0.0,0.0,0.0,0.0,2.26,,,0,0,0,0,0,0,0,0,0,0,0,0,0,0,0,0,0,,,,,38.985832,-76.950851,0.05,36,3,0.8
746960,1744863145763,0.0,135,,-0.07,-0.02,1.0,0,-0,0,1.0,1.1,91,0,5.3,3.83,,14.51,0.839,70.0,,107.4,5,,,,,,,,,,,,0,0,0,0,0,0,0,0,0,0,0,0,0,0,0,0,,,,,0.0,,,,,,
746980,1744863145783,,,,,,,,,,,,,,,,,,,,,,,,,,,,,,,,,,0,0,0,0,0,0,0,0,0,0,0,0,0,0,0,0,,,,,,,,,,,
747000,1744863145803,0.0,135,,-0.07,-0.02,1.0,0,-0,0,1.0,1.1,90,0,5.4,3.83,,14.59,0.839,70.0,,107.4,5,,,,,,,,,,,,0,0,0,0,0,0,0,0,0,0,0,0,0,0,0,0,,,,,0.0,,,,,,
747020,1744863145823,,,,,,,,,,,,,,,,,,,,,,,,,,,,,,,,,,0,0,0,0,0,0,0,0,0,0,0,0,0,0,0,0,,,,,,,,,,,
747040,1744863145843,0.0,135,,-0.07,-0.02,1.0,-0,-0,0,1.0,1.1,90,0,5.3,3.83,,14.59,0.839,70.0,,107.4,5,0,0,0,0,0.0,0.0,0.0,0.0,2.26,,,0,0,0,0,0,0,0,0,0,0,0,0,0,0,0,0,0,,,,0.0,38.985832,-76.950859,0.07,36,3,0.8
747060,1744863145863,,,,,,,,,,,,,,,,,,,,,,,,,,,,,,,,,,0,0,0,0,0,0,0,0,0,0,0,0,0,0,0,0,,,,,,,,,,,
747080,1744863145883,0.0,135,,-0.07,-0.01,1.0,-0,-0,0,1.0,1.1,90,0,5.3,3.83,,14.54,0.839,70.0,,107.4,5,,,,,,,,,,,,0,0,0,0,0,0,0,0,0,0,0,0,0,0,0,0,,,,,0.0,,,,,,
747100,1744863145904,,,,,,,,,,,,,,,,,,,,,,,,,,,,,,,,,,0,0,0,0,0,0,0,0,0,0,0,0,0,0,0,0,,,,,,,,,,,
747120,1744863145924,0.0,135,,-0.07,-0.01,1.0,-0,-0,0,1.0,1.1,91,0,5.4,3.83,,14.52,0.839,70.0,,107.4,5,,,,,,,,,,,,0,0,0,0,0,0,0,0,0,0,0,0,0,0,0,0,,,,,0.0,,,,,,
747140,1744863145944,,,,,,,,,,,,,,,,,,,,,,,0,0,0,0,0.0,0.0,0.0,0.0,2.26,,,0,0,0,0,0,0,0,0,0,0,0,0,0,0,0,0,0,,,,,38.985832,-76.950859,0.07,36,3,0.8
747160,1744863145964,0.0,135,,-0.07,-0.01,1.0,-0,-0,0,1.01,1.1,91,0,5.5,3.83,,14.6,0.839,70.0,,107.4,5,,,,,,,,,,,,0,0,0,0,0,0,0,0,0,0,0,0,0,0,0,0,,,,,0.0,,,,,,
747180,1744863145984,,,,,,,,,,,,,,,,,,,,,,,,,,,,,,,,,,0,0,0,0,0,0,0,0,0,0,0,0,0,0,0,0,,,,,,,,,,,
747200,1744863145996,0.0,135,,-0.07,-0.0,1.01,-0,-0,0,1.01,1.1,92,0,5.5,3.82,,14.51,0.84,70.0,,107.4,5,,,,,,,,,,,,0,0,0,0,0,0,0,0,0,0,0,0,0,0,0,0,,,,,0.0,,,,,,
747220,1744863146016,,,,,,,,,,,,,,,,,,,,,,,,,,,,,,,,,,0,0,0,0,0,0,0,0,0,0,0,0,0,0,0,0,,,,,,,,,,,
747240,1744863146036,0.0,135,11.56,-0.07,-0.0,1.0,-0,-0,0,1.01,1.1,91,0,5.5,3.82,15,14.51,0.84,70.0,176,107.4,5,0,0,0,0,0.0,0.0,0.0,0.0,2.25,0,0.0,0,0,0,0,0,0,0,0,0,0,0,0,0,0,0,0,0,0.0,0,-0,0.0,38.985832,-76.950859,0.0,36,3,0.8
747260,1744863146056,,,,,,,,,,,,,,,,,,,,,,,,,,,,,,,,,,0,0,0,0,0,0,0,0,0,0,0,0,0,0,0,0,,,,,,,,,,,
747280,1744863146076,0.0,135,,-0.07,0.0,1.0,-0,-0,0,1.0,1.1,91,0,5.5,3.82,,14.5,0.841,70.0,,107.4,5,,,,,,,,,,,,0,0,0,0,0,0,0,0,0,0,0,0,0,0,0,0,,,,,0.0,,,,,,
747300,1744863146098,,,,,,,,,,,,,,,,,,,,,,,,,,,,,,,,,,0,0,0,0,0,0,0,0,0,0,0,0,0,0,0,0,,,,,,,,,,,
747320,1744863146118,0.0,135,,-0.08,-0.0,1.0,-0,-0,0,1.0,1.1,91,0,5.5,3.82,,14.51,0.841,70.0,,107.4,5,,,,,,,,,,,,0,0,0,0,0,0,0,0,0,0,0,0,0,0,0,0,,,,,0.0,,,,,,
747340,1744863146138,,,,,,,,,,,,,,,,,,,,,,,0,0,0,0,0.0,0.0,0.0,0.0,2.26,,,0,0,0,0,0,0,0,0,0,0,0,0,0,0,0,0,0,,,,,38.985832,-76.950859,0.05,36,3,0.8
747360,1744863146158,0.0,135,,-0.05,0.03,1.02,-0,-0,0,1.02,1.1,93,468,5.5,3.83,,14.5,0.844,70.0,,107.4,5,,,,,,,,,,,,0,0,0,0,0,0,0,0,0,0,0,0,0,0,0,0,,,,,0.0,,,,,,
747380,1744863146178,,,,,,,,,,,,,,,,,,,,,,,,,,,,,,,,,,0,0,0,0,0,0,0,0,0,0,0,0,0,0,0,0,,,,,,,,,,,
747400,1744863146202,0.0,135,,-0.06,0.01,1.03,-0,-0,0,1.03,1.1,93,982,5.5,3.88,,14.48,0.849,70.0,,107.4,5,,,,,,,,,,,,0,0,0,0,0,0,0,0,0,0,0,0,0,0,0,0,,,,,0.0,,,,,,
747420,1744863146222,,,,,,,,,,,,,,,,,,,,,,,,,,,,,,,,,,0,0,0,0,0,0,0,0,0,0,0,0,0,0,0,0,,,,,,,,,,,
747440,1744863146242,0.0,135,,-0.05,0.02,1.01,-0,-0,1,1.01,1.1,92,1313,5.4,3.91,,14.48,0.849,70.0,,107.4,5,0,0,0,0,0.0,0.0,0.0,0.0,2.26,,,0,0,0,0,0,0,0,0,0,0,0,0,0,0,0,0,0,,,,0.0,38.985832,-76.950859,0.05,36,3,0.8
747460,1744863146262,,,,,,,,,,,,,,,,,,,,,,,,,,,,,,,,,,0,0,0,0,0,0,0,0,0,0,0,0,0,0,0,0,,,,,,,,,,,
747480,1744863146282,0.0,135,,-0.08,0.02,1.01,-0,-0,0,1.01,1.1,92,1313,5.4,3.91,,14.31,0.881,70.0,,107.4,5,,,,,,,,,,,,0,0,0,0,0,0,0,0,0,0,0,0,0,0,0,0,,,,,0.0,,,,,,
747500,1744863146302,,,,,,,,,,,,,,,,,,,,,,,,,,,,,,,,,,0,0,0,0,0,0,0,0,0,0,0,0,0,0,0,0,,,,,,,,,,,
747520,1744863146322,0.0,135,,-0.07,0.06,0.99,-0,-0,1,0.99,1.1,90,1446,5.3,3.9,,14.32,0.902,70.0,,107.4,5,,,,,,,,,,,,0,0,0,0,0,0,0,0,0,0,0,0,0,0,0,0,,,,,0.0,,,,,,
747540,1744863146342,,,,,,,,,,,,,,,,,,,,,,,0,0,0,0,0.0,0.0,0.0,0.0,2.26,,,0,0,0,0,0,0,0,0,0,0,0,0,0,0,0,0,0,,,,,38.985832,-76.950859,0.0,36,3,0.8
747560,1744863146362,0.0,135,,-0.05,0.04,1.0,-1,-0,1,1.0,1.1,91,1651,5.3,3.89,,14.23,0.926,70.0,,107.4,5,,,,,,,,,,,,0,0,0,0,0,0,0,0,0,0,0,0,0,0,0,0,,,,,0.0,,,,,,
747580,1744863146382,,,,,,,,,,,,,,,,,,,,,,,,,,,,,,,,,,0,0,0,0,0,0,0,0,0,0,0,0,0,0,0,0,,,,,,,,,,,
747600,1744863146404,0.0,135,,-0.05,0.04,1.02,-0,-0,1,1.02,1.1,93,1767,5.3,3.87,,14.19,0.918,70.0,,107.4,5,,,,,,,,,,,,0,0,0,0,0,0,0,0,0,0,0,0,0,0,0,0,,,,,0.0,,,,,,
747620,1744863146424,,,,,,,,,,,,,,,,,,,,,,,,,,,,,,,,,,0,0,0,0,0,0,0,0,0,0,0,0,0,0,0,0,,,,,,,,,,,
747640,1744863146444,0.0,135,,-0.07,0.07,1.02,-0,-0,1,1.03,1.1,93,1707,5.5,3.88,,14.19,0.918,70.0,,107.4,5,0,0,0,0,0.0,0.0,0.0,0.0,2.26,,,0,0,0,0,0,0,0,0,0,0,0,0,0,0,0,0,0,,,,0.0,38.985832,-76.950859,0.04,36,3,0.8
747660,1744863146464,,,,,,,,,,,,,,,,,,,,,,,,,,,,,,,,,,0,0,0,0,0,0,0,0,0,0,0,0,0,0,0,0,,,,,,,,,,,
747680,1744863146484,0.0,135,,-0.07,0.09,0.99,-1,-0,1,1.0,1.1,90,1707,5.5,3.88,,14.23,0.912,70.0,,107.4,5,,,,,,,,,,,,0,0,0,0,0,0,0,0,0,0,0,0,0,0,0,0,,,,,0.0,,,,,,
747700,1744863146504,,,,,,,,,,,,,,,,,,,,,,,,,,,,,,,,,,0,0,0,0,0,0,0,0,0,0,0,0,0,0,0,0,,,,,,,,,,,
747720,1744863146524,0.0,135,,-0.04,0.06,0.99,-1,-0,1,1.0,1.1,90,1658,5.5,3.87,,14.32,0.915,70.0,,18.5,5,,,,,,,,,,,,0,0,0,0,0,0,0,0,0,0,0,0,0,0,0,0,,,,,0.0,,,,,,
747740,1744863146544,,,,,,,,,,,,,,,,,,,,,,,0,0,0,0,0.0,0.0,0.0,0.0,2.26,,,0,0,0,0,0,0,0,0,0,0,0,0,0,0,0,0,0,,,,,38.985832,-76.950859,0.0,36,3,0.8
747760,1744863146564,0.0,135,,-0.04,0.04,1.0,-0,-0,1,1.0,1.1,91,1677,5.5,3.87,,14.23,0.92,70.0,,18.5,5,,,,,,,,,,,,0,0,0,0,0,0,0,0,0,0,0,0,0,0,0,0,,,,,0.0,,,,,,
747780,1744863146584,,,,,,,,,,,,,,,,,,,,,,,,,,,,,,,,,,0,0,0,0,0,0,0,0,0,0,0,0,0,0,0,0,,,,,,,,,,,
747800,1744863146604,0.0,135,,-0.05,0.05,0.98,-0,-0,0,0.98,1.1,89,1754,5.5,3.87,,14.18,0.936,70.0,,18.5,5,,,,,,,,,,,,0,0,0,0,0,0,0,0,0,0,0,0,0,0,0,0,,,,,0.0,,,,,,
747820,1744863146624,,,,,,,,,,,,,,,,,,,,,,,,,,,,,,,,,,0,0,0,0,0,0,0,0,0,0,0,0,0,0,0,0,,,,,,,,,,,
747840,1744863146644,0.0,135,,-0.04,0.04,0.98,-0,-0,1,0.98,1.1,89,1781,5.5,3.88,,14.18,0.936,70.0,,18.2,5,0,0,0,0,0.0,0.0,0.0,0.0,2.26,,,0,0,0,0,0,0,0,0,0,0,0,0,0,0,0,0,0,,,,0.0,38.985832,-76.950859,0.04,36,3,0.8
747860,1744863146664,,,,,,,,,,,,,,,,,,,,,,,,,,,,,,,,,,0,0,0,0,0,0,0,0,0,0,0,0,0,0,0,0,,,,,,,,,,,
747880,1744863146684,0.0,135,,-0.02,0.04,0.98,-0,-0,1,0.98,1.1,89,1781,5.5,3.88,,14.19,0.977,71.8,,18.2,5,,,,,,,,,,,,0,0,0,0,0,0,0,0,0,0,0,0,0,0,0,0,,,,,0.0,,,,,,
747900,1744863146704,,,,,,,,,,,,,,,,,,,,,,,,,,,,,,,,,,0,0,0,0,0,0,0,0,0,0,0,0,0,0,0,0,,,,,,,,,,,
747920,1744863146724,0.0,135,,-0.04,0.05,0.98,-0,-0,0,0.98,1.1,89,1721,5.6,3.86,,14.19,1.044,71.8,,19.3,5,,,,,,,,,,,,0,0,0,0,0,0,0,0,0,0,0,0,0,0,0,0,,,,,0.0,,,,,,
747940,1744863146744,,,,,,,,,,,,,,,,,,,,,,,0,0,0,0,0.0,0.0,0.0,0.0,2.26,,,0,0,0,0,0,0,0,0,0,0,0,0,0,0,0,0,0,,,,,38.985832,-76.950859,0.04,36,3,0.8
747960,1744863146764,0.0,135,,-0.05,0.01,0.97,-0,-0,0,0.97,1.1,88,1786,5.5,3.86,,14.14,1.111,71.8,,19.3,5,,,,,,,,,,,,0,0,0,0,0,0,0,0,0,0,0,0,0,0,0,0,,,,,0.0,,,,,,
747980,1744863146784,,,,,,,,,,,,,,,,,,,,,,,,,,,,,,,,,,0,0,0,0,0,0,0,0,0,0,0,0,0,0,0,0,,,,,,,,,,,
748000,1744863146804,0.0,135,,-0.04,0.03,1.0,-0,-0,1,1.0,1.1,90,1783,5.4,3.87,,14.16,1.168,71.8,,19.3,5,,,,,,,,,,,,0,0,0,0,0,0,0,0,0,0,0,0,0,0,0,0,,,,,0.0,,,,,,
748020,1744863146824,,,,,,,,,,,,,,,,,,,,,,,,,,,,,,,,,,0,0,0,0,0,0,0,0,0,0,0,0,0,0,0,0,,,,,,,,,,,
748040,1744863146844,0.0,135,,-0.07,0.0,1.0,-0,-0,0,1.0,1.1,91,1717,5.3,3.86,,14.16,1.168,71.8,,18.8,5,0,0,0,0,0.0,0.0,0.0,0.0,2.26,,,0,0,0,0,0,0,0,0,0,0,0,0,0,0,0,0,0,,,,0.0,38.985832,-76.950859,0.11,36,3,0.8
748060,1744863146864,,,,,,,,,,,,,,,,,,,,,,,,,,,,,,,,,,0,0,0,0,0,0,0,0,0,0,0,0,0,0,0,0,,,,,,,,,,,
748080,1744863146884,0.0,135,,-0.06,0.01,0.99,0,-0,0,0.99,1.1,90,1717,5.3,3.86,,14.23,1.189,71.8,,18.8,5,,,,,,,,,,,,0,0,0,0,0,0,0,0,0,0,0,0,0,0,0,0,,,,,0.0,,,,,,
748100,1744863146903,,,,,,,,,,,,,,,,,,,,,,,,,,,,,,,,,,0,0,0,0,0,0,0,0,0,0,0,0,0,0,0,0,,,,,,,,,,,
748120,1744863146923,0.0,135,,-0.06,0.0,0.98,0,-0,0,0.98,1.1,89,1948,5.3,3.87,,14.14,1.217,71.8,,23.3,5,,,,,,,,,,,,0,0,0,0,0,0,0,0,0,0,0,0,0,0,0,0,,,,,0.0,,,,,,
748140,1744863146943,,,,,,,,,,,,,,,,,,,,,,,0,0,0,0,0.0,0.0,0.0,0.0,2.26,,,0,0,0,0,0,0,0,0,0,0,0,0,0,0,0,0,0,,,,,38.985832,-76.950859,0.14,36,3,0.8
748160,1744863146963,0.0,135,,-0.08,-0.0,0.99,0,-0,0,1.0,1.1,90,2186,5.4,3.86,,14.02,1.246,71.8,,23.3,5,,,,,,,,,,,,0,0,0,0,0,0,0,0,0,0,0,0,0,0,0,0,,,,,0.0,,,,,,
748180,1744863146983,,,,,,,,,,,,,,,,,,,,,,,,,,,,,,,,,,0,0,0,0,0,0,0,0,0,0,0,0,0,0,0,0,,,,,,,,,,,
748200,1744863146995,0.0,135,,-0.08,0.03,0.99,-0,-0,0,0.99,1.1,90,2340,5.4,3.86,,13.98,1.174,71.8,,23.3,5,,,,,,,,,,,,0,0,0,0,0,0,0,0,0,0,0,0,0,0,0,0,,,,,0.0,,,,,,
748220,1744863147015,,,,,,,,,,,,,,,,,,,,,,,,,,,,,,,,,,0,0,0,0,0,0,0,0,0,0,0,0,0,0,0,0,,,,,,,,,,,
748240,1744863147035,0.0,135,13.86,-0.07,0.02,1.02,0,-0,0,1.02,1.1,92,2514,5.5,3.88,15,13.98,1.174,71.8,176,26.9,5,0,0,0,0,0.0,0.0,0.0,0.0,2.26,0,0.0,0,0,0,0,0,0,0,0,0,0,0,0,0,0,0,0,0,0.0,0,-0,0.0,38.985832,-76.950859,0.07,36,3,0.8
748260,1744863147055,,,,,,,,,,,,,,,,,,,,,,,,,,,,,,,,,,0,0,0,0,0,0,0,0,0,0,0,0,0,0,0,0,,,,,,,,,,,
748280,1744863147075,0.0,135,,-0.06,0.02,0.98,0,-0,0,0.98,1.1,89,2514,5.5,3.88,,13.86,1.094,71.8,,26.9,5,,,,,,,,,,,,0,0,0,0,0,0,0,0,0,0,0,0,0,0,0,0,,,,,0.0,,,,,,
748300,1744863147099,,,,,,,,,,,,,,,,,,,,,,,,,,,,,,,,,,0,0,0,0,0,0,0,0,0,0,0,0,0,0,0,0,,,,,,,,,,,
748320,1744863147119,0.0,135,,-0.07,-0.0,0.99,0,-0,0,1.0,1.1,90,2629,5.5,3.88,,13.76,1.041,71.8,,29.3,5,,,,,,,,,,,,0,0,0,0,0,0,0,0,0,0,0,0,0,0,0,0,,,,,0.0,,,,,,
748340,1744863147139,,,,,,,,,,,,,,,,,,,,,,,0,0,0,0,0.0,0.0,0.0,0.0,2.26,,,0,0,0,0,0,0,0,0,0,0,0,0,0,0,0,0,0,,,,,38.985832,-76.950859,0.04,36,3,0.8
748360,1744863147159,0.0,135,,-0.07,0.01,0.99,0,-0,0,0.99,1.1,90,2655,5.5,3.88,,13.68,1.037,71.8,,29.3,5,,,,,,,,,,,,0,0,0,0,0,0,0,0,0,0,0,0,0,0,0,0,,,,,0.0,,,,,,
748380,1744863147179,,,,,,,,,,,,,,,,,,,,,,,,,,,,,,,,,,0,0,0,0,0,0,0,0,0,0,0,0,0,0,0,0,,,,,,,,,,,
748400,1744863147199,0.0,135,,-0.07,0.0,0.98,0,-0,0,0.98,1.1,89,2746,5.5,3.88,,13.63,1.076,71.8,,29.3,5,,,,,,,,,,,,0,0,0,0,0,0,0,0,0,0,0,0,0,0,0,0,,,,,0.0,,,,,,
748420,1744863147219,,,,,,,,,,,,,,,,,,,,,,,,,,,,,,,,,,0,0,0,0,0,0,0,0,0,0,0,0,0,0,0,0,,,,,,,,,,,
748440,1744863147239,0.0,135,,-0.07,-0.01,1.01,0,-0,0,1.01,1.1,92,2788,5.5,3.89,,13.63,1.076,71.8,,30.0,5,0,0,0,0,0.0,0.0,0.0,0.0,2.26,,,0,0,0,0,0,0,0,0,0,0,0,0,0,0,0,0,0,,,,0.0,38.985832,-76.950859,0.0,36,3,0.8
748460,1744863147259,,,,,,,,,,,,,,,,,,,,,,,,,,,,,,,,,,0,0,0,0,0,0,0,0,0,0,0,0,0,0,0,0,,,,,,,,,,,
748480,1744863147279,0.0,135,,-0.07,-0.01,1.03,0,-0,0,1.03,1.1,94,2788,5.5,3.89,,13.59,1.087,71.8,,30.0,5,,,,,,,,,,,,0,0,0,0,0,0,0,0,0,0,0,0,0,0,0,0,,,,,0.0,,,,,,
748500,1744863147303,,,,,,,,,,,,,,,,,,,,,,,,,,,,,,,,,,0,0,0,0,0,0,0,0,0,0,0,0,0,0,0,0,,,,,,,,,,,
748520,1744863147323,0.0,135,,-0.05,0.01,0.99,-0,-0,1,0.99,1.1,90,2878,5.5,3.89,,13.51,1.088,71.8,,32.5,5,,,,,,,,,,,,0,0,0,0,0,0,0,0,0,0,0,0,0,0,0,0,,,,,0.0,,,,,,
748540,1744863147343,,,,,,,,,,,,,,,,,,,,,,,0,0,0,0,0.0,0.0,0.0,0.0,2.26,,,0,0,0,0,0,0,0,0,0,0,0,0,0,0,0,0,0,,,,,38.985832,-76.950859,0.04,36,3,0.8
748560,1744863147363,0.0,135,,-0.02,0.02,0.93,-0,-0,1,0.94,1.1,85,2912,5.4,3.9,,13.48,1.101,71.8,,32.5,5,,,,,,,,,,,,0,0,0,0,0,0,0,0,0,0,0,0,0,0,0,0,,,,,0.0,,,,,,
748580,1744863147383,,,,,,,,,,,,,,,,,,,,,,,,,,,,,,,,,,0,0,0,0,0,0,0,0,0,0,0,0,0,0,0,0,,,,,,,,,,,
748600,1744863147403,0.0,135,,0.0,0.02,0.89,-0,-0,1,0.89,1.1,81,2969,5.4,3.91,,13.45,1.116,71.8,,32.5,5,,,,,,,,,,,,0,0,0,0,0,0,0,0,0,0,0,0,0,0,0,0,,,,,0.0,,,,,,
748620,1744863147423,,,,,,,,,,,,,,,,,,,,,,,,,,,,,,,,,,0,0,0,0,0,0,0,0,0,0,0,0,0,0,0,0,,,,,,,,,,,
748640,1744863147443,0.0,135,,0.01,0.04,0.89,-0,-0,1,0.89,1.1,81,3115,5.4,3.9,,13.45,1.116,71.8,,34.0,5,0,0,0,0,0.0,0.0,0.0,0.0,2.26,,,0,0,0,0,0,0,0,0,0,0,0,0,0,0,0,0,0,,,,0.0,38.985832,-76.950859,0.0,36,3,0.8
