"Interval"|"ms"|0|0|1,"Utc"|"ms"|0|0|1,"FrontBP"|"psi"|-5.0|5.0|25,"SteerAng"|"Degrees"|-145|145|25,"Battery"|"Volts"|-5.0|20.0|1,"AccelX"|"G"|-3.0|3.0|25,"AccelY"|"G"|-3.0|3.0|25,"AccelZ"|"G"|-3.0|3.0|25,"Yaw"|"Deg/Sec"|-120|120|25,"Pitch"|"Deg/Sec"|-120|120|25,"Roll"|"Deg/Sec"|-120|120|25,"Gsum"|"G"|0.0|3.0|25,"GsumMax"|"G"|0.0|3.0|25,"GsumPct"|"%"|0|100|25,"RPM"|""|0|10000|25,"TPS"|"%"|0.0|100.0|25,"InjectorPW"|"ms"|0.0|100.0|25,"Baro"|"kPa"|0|105|1,"MAP"|"Psi"|0.0|255.0|25,"Lambda"|""|-2.0|2.0|25,"IAT"|"C"|0.0|200.0|25,"EngineTemp"|"C"|0|200|1,"EOP"|"PSI"|0.0|152.0|25,"EOT"|"F"|0|250|25,"WSFR"|"MPH"|0|150|10,"WSFL"|"MPH"|0|100|10,"WSRR"|"MPH"|0|100|10,"WSRL"|""|0|100|10,"TCSet"|"%"|0.0|100.0|10,"TCSlip"|"%"|0.0|100.0|10,"TCComp"|"deg"|0.0|50.0|10,"TCCut"|"%"|0.0|100.0|10,"Analog8"|""|0.0|5.0|10,"OilTemp"|"F"|0|300|1,"AA_On"|""|0.0|1.0|1,"ThermLF1"|"C"|0|400|50,"ThermLF2"|"C"|0|400|50,"ThermRR1"|"C"|0|400|50,"ThermRR2"|"C"|0|400|50,"ThermLF3"|"C"|0|400|50,"ThermLF4"|"C"|0|400|50,"ThermLF5"|"C"|0|400|50,"ThermLF6"|"C"|0|400|50,"ThermLF7"|"C"|0|400|50,"ThermLF8"|"C"|0|400|50,"ThermRR3"|"C"|0|400|50,"ThermRR4"|"C"|0|400|50,"ThermRR5"|"C"|0|400|50,"ThermRR6"|"C"|0|400|50,"ThermRR7"|"C"|0|400|50,"ThermRR8"|"C"|0|400|50,"Gear"|""|1|6|10,"AA_On"|""|0.0|1.0|1,"AA_LowDrag"|""|0|1|1,"Fuel_Mix"|""|-10|10|1,"AA_Packages"|""|0.0|1000.0|25,"Latitude"|"Degrees"|-180.0|180.0|10,"Longitude"|"Degrees"|-180.0|180.0|10,"Speed"|"kph"|0.0|150.0|10,"GPSSats"|""|0|20|10,"GPSQual"|""|0|5|10,"GPSDOP"|""|0.0|20.0|10
761260,1744863160857,,,,,,,,,,,,,,,,,,,,,,,,,,,,,,,,,,0,0,0,0,0,0,0,0,0,0,0,0,0,0,0,0,,,,,,,,,,,
761280,1744863160877,0.0,135,,-0.04,0.04,0.91,-0,-0,0,0.92,0.92,100,3112,3.7,3.77,,12.99,1.093,71.8,,33.7,5,,,,,,,,,,,,0,0,0,0,0,0,0,0,0,0,0,0,0,0,0,0,,,,,0.0,,,,,,
761300,1744863160897,,,,,,,,,,,,,,,,,,,,,,,,,,,,,,,,,,0,0,0,0,0,0,0,0,0,0,0,0,0,0,0,0,,,,,,,,,,,
761320,1744863160917,0.0,135,,-0.02,0.03,0.99,-0,-0,1,0.99,0.99,100,3096,3.6,3.77,,13.03,1.1,71.8,,34.1,5,,,,,,,,,,,,0,0,0,0,0,0,0,0,0,0,0,0,0,0,0,0,,,,,0.0,,,,,,
761340,1744863160937,,,,,,,,,,,,,,,,,,,,,,,0,0,0,0,0.0,0.0,0.0,0.0,2.26,,,0,0,0,0,0,0,0,0,0,0,0,0,0,0,0,0,0,,,,,38.985832,-76.950851,0.04,36,3,0.8
761360,1744863160957,0.0,135,,-0.07,-0.04,1.04,0,-0,0,1.05,1.05,100,3065,3.6,3.77,,13.04,1.09,71.8,,34.1,5,,,,,,,,,,,,0,0,0,0,0,0,0,0,0,0,0,0,0,0,0,0,,,,,0.0,,,,,,
761380,1744863160977,,,,,,,,,,,,,,,,,,,,,,,,,,,,,,,,,,0,0,0,0,0,0,0,0,0,0,0,0,0,0,0,0,,,,,,,,,,,
761400,1744863160997,0.0,135,,-0.05,0.04,0.94,-0,-0,0,0.94,1.05,90,3361,3.6,3.71,,12.96,1.112,71.8,,34.1,5,,,,,,,,,,,,0,0,0,0,0,0,0,0,0,0,0,0,0,0,0,0,,,,,0.0,,,,,,
761420,1744863161010,,,,,,,,,,,,,,,,,,,,,,,,,,,,,,,,,,0,0,0,0,0,0,0,0,0,0,0,0,0,0,0,0,,,,,,,,,,,
761440,1744863161030,0.0,135,,-0.09,-0.07,1.01,0,-0,0,1.02,1.05,98,3417,3.7,3.68,,12.96,1.112,71.8,,38.2,5,0,0,0,0,0.0,0.0,0.0,0.0,2.25,,,0,0,0,0,0,0,0,0,0,0,0,0,0,0,0,0,0,,,,0.0,38.985832,-76.950851,0.18,35,3,0.8
761460,1744863161050,,,,,,,,,,,,,,,,,,,,,,,,,,,,,,,,,,0,0,0,0,0,0,0,0,0,0,0,0,0,0,0,0,,,,,,,,,,,
761480,1744863161070,0.0,135,,-0.06,-0.01,1.01,-1,-0,1,1.01,1.05,96,3417,3.7,3.68,,12.89,1.113,71.8,,38.2,5,,,,,,,,,,,,0,0,0,0,0,0,0,0,0,0,0,0,0,0,0,0,,,,,0.0,,,,,,
761500,1744863161094,,,,,,,,,,,,,,,,,,,,,,,,,,,,,,,,,,0,0,0,0,0,0,0,0,0,0,0,0,0,0,0,0,,,,,,,,,,,
761520,1744863161114,0.0,135,,-0.07,-0.03,1.01,0,-0,1,1.02,1.05,97,3620,3.8,3.64,,12.76,1.038,71.8,,42.6,5,,,,,,,,,,,,0,0,0,0,0,0,0,0,0,0,0,0,0,0,0,0,,,,,0.0,,,,,,
761540,1744863161134,,,,,,,,,,,,,,,,,,,,,,,0,0,0,0,0.0,0.0,0.0,0.0,2.26,,,0,0,0,0,0,0,0,0,0,0,0,0,0,0,0,0,0,,,,,38.985832,-76.950851,0.27,35,3,0.8
761560,1744863161154,0.0,135,,-0.08,-0.02,1.02,0,-0,1,1.03,1.05,98,3770,3.8,3.63,,12.55,1.048,71.8,,42.6,5,,,,,,,,,,,,0,0,0,0,0,0,0,0,0,0,0,0,0,0,0,0,,,,,0.0,,,,,,
761580,1744863161174,,,,,,,,,,,,,,,,,,,,,,,,,,,,,,,,,,0,0,0,0,0,0,0,0,0,0,0,0,0,0,0,0,,,,,,,,,,,
761600,1744863161196,0.0,135,,-0.06,-0.01,1.02,0,-0,1,1.02,1.05,97,3735,3.7,3.65,,12.44,1.013,71.8,,42.6,5,,,,,,,,,,,,0,0,0,0,0,0,0,0,0,0,0,0,0,0,0,0,,,,,0.0,,,,,,
761620,1744863161216,,,,,,,,,,,,,,,,,,,,,,,,,,,,,,,,,,0,0,0,0,0,0,0,0,0,0,0,0,0,0,0,0,,,,,,,,,,,
761640,1744863161236,0.0,135,,-0.04,0.03,1.0,0,-0,1,1.0,1.05,95,3607,3.8,3.69,,12.44,1.013,71.8,,42.0,5,0,0,0,0,0.0,0.0,0.0,0.0,2.26,,,0,0,0,0,0,0,0,0,0,0,0,0,0,0,0,0,0,,,,0.0,38.985832,-76.950851,0.3,35,3,0.8
761660,1744863161256,,,,,,,,,,,,,,,,,,,,,,,,,,,,,,,,,,0,0,0,0,0,0,0,0,0,0,0,0,0,0,0,0,,,,,,,,,,,
761680,1744863161276,0.0,135,,-0.05,0.0,0.98,1,-0,0,0.98,1.05,94,3607,3.8,3.69,,12.48,0.939,71.8,,42.0,5,,,,,,,,,,,,0,0,0,0,0,0,0,0,0,0,0,0,0,0,0,0,,,,,0.0,,,,,,
761700,1744863161298,,,,,,,,,,,,,,,,,,,,,,,,,,,,,,,,,,0,0,0,0,0,0,0,0,0,0,0,0,0,0,0,0,,,,,,,,,,,
761720,1744863161318,0.0,135,,-0.08,-0.08,1.03,1,-0,-0,1.04,1.05,99,3569,3.8,3.7,,12.49,0.962,71.8,,40.0,5,,,,,,,,,,,,0,0,0,0,0,0,0,0,0,0,0,0,0,0,0,0,,,,,0.0,,,,,,
761740,1744863161338,,,,,,,,,,,,,,,,,,,,,,,0,0,0,0,0.0,0.0,0.0,0.0,2.26,,,0,0,0,0,0,0,0,0,0,0,0,0,0,0,0,0,0,,,,,38.985832,-76.950851,0.04,35,3,0.8
761760,1744863161358,0.0,135,,-0.05,-0.01,1.01,-0,-0,1,1.02,1.05,97,3468,3.7,3.7,,12.57,1.033,71.8,,40.0,5,,,,,,,,,,,,0,0,0,0,0,0,0,0,0,0,0,0,0,0,0,0,,,,,0.0,,,,,,
761780,1744863161378,,,,,,,,,,,,,,,,,,,,,,,,,,,,,,,,,,0,0,0,0,0,0,0,0,0,0,0,0,0,0,0,0,,,,,,,,,,,
761800,1744863161398,0.0,135,,-0.06,-0.0,0.99,1,-0,-0,0.99,1.05,95,3403,3.7,3.72,,12.68,1.093,71.8,,40.0,5,,,,,,,,,,,,0,0,0,0,0,0,0,0,0,0,0,0,0,0,0,0,,,,,0.0,,,,,,
761820,1744863161418,,,,,,,,,,,,,,,,,,,,,,,,,,,,,,,,,,0,0,0,0,0,0,0,0,0,0,0,0,0,0,0,0,,,,,,,,,,,
761840,1744863161438,0.0,135,,-0.08,-0.03,1.06,0,-0,0,1.07,1.07,100,3486,3.6,3.72,,12.68,1.093,71.8,,39.6,5,0,0,0,0,0.0,0.0,0.0,0.0,2.26,,,0,0,0,0,0,0,0,0,0,0,0,0,0,0,0,0,0,,,,0.0,38.985832,-76.950851,0.04,35,3,0.8
761860,1744863161458,,,,,,,,,,,,,,,,,,,,,,,,,,,,,,,,,,0,0,0,0,0,0,0,0,0,0,0,0,0,0,0,0,,,,,,,,,,,
761880,1744863161478,0.0,135,,-0.03,0.11,1.01,-0,-0,1,1.01,1.07,95,3486,3.6,3.72,,12.67,1.131,71.8,,39.6,5,,,,,,,,,,,,0,0,0,0,0,0,0,0,0,0,0,0,0,0,0,0,,,,,0.0,,,,,,
761900,1744863161498,,,,,,,,,,,,,,,,,,,,,,,,,,,,,,,,,,0,0,0,0,0,0,0,0,0,0,0,0,0,0,0,0,,,,,,,,,,,
761920,1744863161518,0.0,135,,-0.06,0.01,1.02,1,-0,0,1.02,1.07,96,3469,3.6,3.69,,12.67,1.118,71.8,,38.6,5,,,,,,,,,,,,0,0,0,0,0,0,0,0,0,0,0,0,0,0,0,0,,,,,0.0,,,,,,
761940,1744863161538,,,,,,,,,,,,,,,,,,,,,,,0,0,0,0,0.0,0.0,0.0,0.0,2.26,,,0,0,0,0,0,0,0,0,0,0,0,0,0,0,0,0,0,,,,,38.985832,-76.950851,0.42,35,3,0.8
761960,1744863161558,0.0,135,,-0.05,0.07,1.01,-1,-0,1,1.01,1.07,95,3357,3.6,3.69,,12.69,1.031,71.8,,38.6,5,,,,,,,,,,,,0,0,0,0,0,0,0,0,0,0,0,0,0,0,0,0,,,,,0.0,,,,,,
761980,1744863161578,,,,,,,,,,,,,,,,,,,,,,,,,,,,,,,,,,0,0,0,0,0,0,0,0,0,0,0,0,0,0,0,0,,,,,,,,,,,
762000,1744863161598,0.0,135,,-0.07,0.01,1.05,0,-0,0,1.05,1.07,99,3282,3.7,3.71,,12.81,0.996,71.8,,38.6,5,,,,,,,,,,,,0,0,0,0,0,0,0,0,0,0,0,0,0,0,0,0,,,,,0.0,,,,,,
762020,1744863161618,,,,,,,,,,,,,,,,,,,,,,,,,,,,,,,,,,0,0,0,0,0,0,0,0,0,0,0,0,0,0,0,0,,,,,,,,,,,
762040,1744863161638,0.0,135,,-0.07,0.04,0.96,0,-0,0,0.97,1.07,91,3206,3.8,3.71,,12.81,0.996,71.8,,36.2,5,0,0,0,0,0.0,0.0,0.0,0.0,2.26,,,0,0,0,0,0,0,0,0,0,0,0,0,0,0,0,0,0,,,,0.0,38.985832,-76.950859,0.4,35,3,0.8
762060,1744863161658,,,,,,,,,,,,,,,,,,,,,,,,,,,,,,,,,,0,0,0,0,0,0,0,0,0,0,0,0,0,0,0,0,,,,,,,,,,,
762080,1744863161678,0.0,135,,-0.06,0.06,0.92,0,-0,0,0.93,1.07,87,3206,3.8,3.71,,12.85,1.02,71.8,,36.2,5,,,,,,,,,,,,0,0,0,0,0,0,0,0,0,0,0,0,0,0,0,0,,,,,0.0,,,,,,
762100,1744863161698,,,,,,,,,,,,,,,,,,,,,,,,,,,,,,,,,,0,0,0,0,0,0,0,0,0,0,0,0,0,0,0,0,,,,,,,,,,,
762120,1744863161718,0.0,135,,-0.09,-0.02,0.97,1,-0,-0,0.98,1.07,92,3289,3.8,3.71,,12.87,1.046,71.8,,37.2,5,,,,,,,,,,,,0,0,0,0,0,0,0,0,0,0,0,0,0,0,0,0,,,,,0.0,,,,,,
762140,1744863161738,,,,,,,,,,,,,,,,,,,,,,,0,0,0,0,0.0,0.0,0.0,0.0,2.26,,,0,0,0,0,0,0,0,0,0,0,0,0,0,0,0,0,0,,,,,38.985832,-76.950859,0.08,35,3,0.8
762160,1744863161758,0.0,135,,-0.07,0.03,0.98,-0,-0,1,0.99,1.07,92,3485,3.8,3.74,,12.84,1.1,71.8,,37.2,5,,,,,,,,,,,,0,0,0,0,0,0,0,0,0,0,0,0,0,0,0,0,,,,,0.0,,,,,,
762180,1744863161778,,,,,,,,,,,,,,,,,,,,,,,,,,,,,,,,,,0,0,0,0,0,0,0,0,0,0,0,0,0,0,0,0,,,,,,,,,,,
762200,1744863161798,0.0,135,,-0.04,0.07,0.96,1,-0,0,0.97,1.07,91,3587,3.8,3.72,,12.75,1.009,71.8,,37.2,5,,,,,,,,,,,,0,0,0,0,0,0,0,0,0,0,0,0,0,0,0,0,,,,,0.0,,,,,,
762220,1744863161818,,,,,,,,,,,,,,,,,,,,,,,,,,,,,,,,,,0,0,0,0,0,0,0,0,0,0,0,0,0,0,0,0,,,,,,,,,,,
762240,1744863161838,0.0,135,13.97,-0.05,-0.0,0.97,1,-0,0,0.97,1.07,91,3679,3.8,3.71,15,12.75,1.009,71.8,178,41.1,5,0,0,0,0,0.0,0.0,0.0,0.0,2.26,0,0.0,0,0,0,0,0,0,0,0,0,0,0,0,0,0,0,0,0,0.0,0,0,0.0,38.985832,-76.950859,0.05,35,3,0.8
762260,1744863161858,,,,,,,,,,,,,,,,,,,,,,,,,,,,,,,,,,0,0,0,0,0,0,0,0,0,0,0,0,0,0,0,0,,,,,,,,,,,
762280,1744863161878,0.0,135,,-0.06,-0.04,0.96,1,-0,-0,0.96,1.07,91,3679,3.8,3.71,,12.59,0.946,71.8,,41.1,5,,,,,,,,,,,,0,0,0,0,0,0,0,0,0,0,0,0,0,0,0,0,,,,,0.0,,,,,,
762300,1744863161898,,,,,,,,,,,,,,,,,,,,,,,,,,,,,,,,,,0,0,0,0,0,0,0,0,0,0,0,0,0,0,0,0,,,,,,,,,,,
762320,1744863161918,0.0,135,,-0.07,-0.07,1.02,1,-0,0,1.03,1.07,96,3608,3.7,3.69,,12.45,0.953,71.8,,40.4,5,,,,,,,,,,,,0,0,0,0,0,0,0,0,0,0,0,0,0,0,0,0,,,,,0.0,,,,,,
762340,1744863161938,,,,,,,,,,,,,,,,,,,,,,,0,0,0,0,0.0,0.0,0.0,0.0,2.26,,,0,0,0,0,0,0,0,0,0,0,0,0,0,0,0,0,0,,,,,38.985832,-76.950859,0.16,35,3,0.8
762360,1744863161958,0.0,135,,-0.05,0.02,1.01,-0,-0,1,1.01,1.07,95,3579,3.6,3.65,,12.52,0.98,71.8,,40.4,5,,,,,,,,,,,,0,0,0,0,0,0,0,0,0,0,0,0,0,0,0,0,,,,,0.0,,,,,,
762380,1744863161978,,,,,,,,,,,,,,,,,,,,,,,,,,,,,,,,,,0,0,0,0,0,0,0,0,0,0,0,0,0,0,0,0,,,,,,,,,,,
762400,1744863161998,0.0,135,,-0.04,0.02,0.95,1,-0,0,0.95,1.07,89,3501,3.5,3.62,,12.53,1.014,71.8,,40.4,5,,,,,,,,,,,,0,0,0,0,0,0,0,0,0,0,0,0,0,0,0,0,,,,,0.0,,,,,,
762420,1744863162009,,,,,,,,,,,,,,,,,,,,,,,,,,,,,,,,,,0,0,0,0,0,0,0,0,0,0,0,0,0,0,0,0,,,,,,,,,,,
762440,1744863162029,0.0,135,,-0.08,-0.09,1.03,1,-0,0,1.04,1.07,97,3442,3.5,3.64,,12.53,1.014,71.8,,39.2,5,0,0,0,0,0.0,0.0,0.0,0.0,2.26,,,0,0,0,0,0,0,0,0,0,0,0,0,0,0,0,0,0,,,,0.0,38.985832,-76.950859,0.0,35,3,0.8
762460,1744863162049,,,,,,,,,,,,,,,,,,,,,,,,,,,,,,,,,,0,0,0,0,0,0,0,0,0,0,0,0,0,0,0,0,,,,,,,,,,,
762480,1744863162069,0.0,135,,-0.04,0.04,0.98,-0,-0,0,0.98,1.07,92,3442,3.5,3.64,,12.63,1.055,71.8,,39.2,5,,,,,,,,,,,,0,0,0,0,0,0,0,0,0,0,0,0,0,0,0,0,,,,,0.0,,,,,,
762500,1744863162093,,,,,,,,,,,,,,,,,,,,,,,,,,,,,,,,,,0,0,0,0,0,0,0,0,0,0,0,0,0,0,0,0,,,,,,,,,,,
762520,1744863162113,0.0,135,,-0.06,-0.06,1.05,0,-0,0,1.06,1.07,99,3369,3.6,3.72,,12.72,1.088,71.8,,36.8,5,,,,,,,,,,,,0,0,0,0,0,0,0,0,0,0,0,0,0,0,0,0,,,,,0.0,,,,,,
762540,1744863162133,,,,,,,,,,,,,,,,,,,,,,,0,0,0,0,0.0,0.0,0.0,0.0,2.26,,,0,0,0,0,0,0,0,0,0,0,0,0,0,0,0,0,0,,,,,38.985832,-76.950859,0.41,35,3,0.8
762560,1744863162153,0.0,135,,-0.07,-0.03,1.01,0,-0,0,1.02,1.07,95,3218,3.7,3.7,,12.84,1.093,71.8,,36.8,5,,,,,,,,,,,,0,0,0,0,0,0,0,0,0,0,0,0,0,0,0,0,,,,,0.0,,,,,,
762580,1744863162173,,,,,,,,,,,,,,,,,,,,,,,,,,,,,,,,,,0,0,0,0,0,0,0,0,0,0,0,0,0,0,0,0,,,,,,,,,,,
762600,1744863162195,0.0,135,,-0.08,-0.03,0.94,0,-0,-0,0.94,1.07,88,3103,3.8,3.76,,12.93,1.067,71.8,,36.8,5,,,,,,,,,,,,0,0,0,0,0,0,0,0,0,0,0,0,0,0,0,0,,,,,0.0,,,,,,
762620,1744863162215,,,,,,,,,,,,,,,,,,,,,,,,,,,,,,,,,,0,0,0,0,0,0,0,0,0,0,0,0,0,0,0,0,,,,,,,,,,,
762640,1744863162235,0.0,135,,-0.08,-0.03,0.86,1,-0,-0,0.87,1.07,82,3059,3.8,3.75,,12.93,1.067,71.8,,33.6,5,0,0,0,0,0.0,0.0,0.0,0.0,2.25,,,0,0,0,0,0,0,0,0,0,0,0,0,0,0,0,0,0,,,,0.0,38.985832,-76.950859,0.13,35,3,0.8
762660,1744863162255,,,,,,,,,,,,,,,,,,,,,,,,,,,,,,,,,,0,0,0,0,0,0,0,0,0,0,0,0,0,0,0,0,,,,,,,,,,,
762680,1744863162275,0.0,135,,-0.06,-0.01,0.81,1,-0,-0,0.82,1.07,77,3059,3.8,3.75,,12.96,1.041,71.8,,33.6,5,,,,,,,,,,,,0,0,0,0,0,0,0,0,0,0,0,0,0,0,0,0,,,,,0.0,,,,,,
762700,1744863162297,,,,,,,,,,,,,,,,,,,,,,,,,,,,,,,,,,0,0,0,0,0,0,0,0,0,0,0,0,0,0,0,0,,,,,,,,,,,
762720,1744863162317,0.0,135,,-0.03,0.03,0.79,1,-0,-0,0.79,1.07,74,3019,3.8,3.77,,13.03,1.038,71.8,,33.3,5,,,,,,,,,,,,0,0,0,0,0,0,0,0,0,0,0,0,0,0,0,0,,,,,0.0,,,,,,
762740,1744863162337,,,,,,,,,,,,,,,,,,,,,,,0,0,0,0,0.0,0.0,0.0,0.0,2.26,,,0,0,0,0,0,0,0,0,0,0,0,0,0,0,0,0,0,,,,,38.985832,-76.950859,0.39,35,3,0.8
762760,1744863162357,0.0,135,,-0.01,0.08,0.81,1,-0,-0,0.81,1.07,76,3027,3.8,3.77,,13.07,1.031,71.8,,33.3,5,,,,,,,,,,,,0,0,0,0,0,0,0,0,0,0,0,0,0,0,0,0,,,,,0.0,,,,,,
762780,1744863162377,,,,,,,,,,,,,,,,,,,,,,,,,,,,,,,,,,0,0,0,0,0,0,0,0,0,0,0,0,0,0,0,0,,,,,,,,,,,
762800,1744863162397,0.0,135,,0.01,0.07,0.88,0,-0,0,0.88,1.07,82,3123,3.8,3.77,,13.05,1.036,71.8,,33.3,5,,,,,,,,,,,,0,0,0,0,0,0,0,0,0,0,0,0,0,0,0,0,,,,,0.0,,,,,,
762820,1744863162417,,,,,,,,,,,,,,,,,,,,,,,,,,,,,,,,,,0,0,0,0,0,0,0,0,0,0,0,0,0,0,0,0,,,,,,,,,,,
762840,1744863162437,0.0,135,,0.0,0.03,0.95,-0,-0,0,0.95,1.07,89,3164,3.7,3.77,,13.05,1.036,71.8,,34.1,5,0,0,0,0,0.0,0.0,0.0,0.0,2.26,,,0,0,0,0,0,0,0,0,0,0,0,0,0,0,0,0,0,,,,0.0,38.985832,-76.950859,0.24,35,3,0.8
762860,1744863162457,,,,,,,,,,,,,,,,,,,,,,,,,,,,,,,,,,0,0,0,0,0,0,0,0,0,0,0,0,0,0,0,0,,,,,,,,,,,
762880,1744863162477,0.0,135,,-0.03,0.02,0.96,0,-0,0,0.96,1.07,91,3164,3.7,3.77,,12.95,1.042,71.8,,34.1,5,,,,,,,,,,,,0,0,0,0,0,0,0,0,0,0,0,0,0,0,0,0,,,,,0.0,,,,,,
762900,1744863162497,,,,,,,,,,,,,,,,,,,,,,,,,,,,,,,,,,0,0,0,0,0,0,0,0,0,0,0,0,0,0,0,0,,,,,,,,,,,
762920,1744863162517,0.0,135,,-0.05,0.02,0.93,0,-0,0,0.93,1.07,88,3133,3.6,3.74,,12.99,1.053,71.8,,34.2,5,,,,,,,,,,,,0,0,0,0,0,0,0,0,0,0,0,0,0,0,0,0,,,,,0.0,,,,,,
762940,1744863162537,,,,,,,,,,,,,,,,,,,,,,,0,0,0,0,0.0,0.0,0.0,0.0,2.26,,,0,0,0,0,0,0,0,0,0,0,0,0,0,0,0,0,0,,,,,38.985832,-76.950859,0.56,35,3,0.8
762960,1744863162557,0.0,135,,-0.04,0.03,0.87,1,-0,-0,0.87,1.07,82,3120,3.5,3.7,,13.0,1.055,71.8,,34.2,5,,,,,,,,,,,,0,0,0,0,0,0,0,0,0,0,0,0,0,0,0,0,,,,,0.0,,,,,,
762980,1744863162577,,,,,,,,,,,,,,,,,,,,,,,,,,,,,,,,,,0,0,0,0,0,0,0,0,0,0,0,0,0,0,0,0,,,,,,,,,,,
763000,1744863162597,0.0,135,,-0.02,0.07,0.85,1,-0,0,0.85,1.07,80,3104,3.5,3.75,,12.99,1.058,71.8,,34.2,5,,,,,,,,,,,,0,0,0,0,0,0,0,0,0,0,0,0,0,0,0,0,,,,,0.0,,,,,,
763020,1744863162617,,,,,,,,,,,,,,,,,,,,,,,,,,,,,,,,,,0,0,0,0,0,0,0,0,0,0,0,0,0,0,0,0,,,,,,,,,,,
763040,1744863162637,0.0,135,,-0.01,0.09,0.88,0,-0,0,0.89,1.07,83,3054,3.6,3.72,,12.99,1.058,71.8,,33.6,5,0,0,0,0,0.0,0.0,0.0,0.0,2.26,,,0,0,0,0,0,0,0,0,0,0,0,0,0,0,0,0,0,,,,0.0,38.985832,-76.950859,0.25,35,3,0.8
763060,1744863162657,,,,,,,,,,,,,,,,,,,,,,,,,,,,,,,,,,0,0,0,0,0,0,0,0,0,0,0,0,0,0,0,0,,,,,,,,,,,
763080,1744863162677,0.0,135,,-0.0,0.07,0.95,-0,-0,1,0.96,1.07,90,3054,3.6,3.72,,13.0,1.07,71.8,,33.6,5,,,,,,,,,,,,0,0,0,0,0,0,0,0,0,0,0,0,0,0,0,0,,,,,0.0,,,,,,
763100,1744863162697,,,,,,,,,,,,,,,,,,,,,,,,,,,,,,,,,,0,0,0,0,0,0,0,0,0,0,0,0,0,0,0,0,,,,,,,,,,,
763120,1744863162717,0.0,135,,-0.02,0.04,1.02,-0,-0,1,1.03,1.07,96,3071,3.7,3.75,,13.05,1.071,71.8,,34.0,5,,,,,,,,,,,,0,0,0,0,0,0,0,0,0,0,0,0,0,0,0,0,,,,,0.0,,,,,,
763140,1744863162737,,,,,,,,,,,,,,,,,,,,,,,0,0,0,0,0.0,0.0,0.0,0.0,2.26,,,0,0,0,0,0,0,0,0,0,0,0,0,0,0,0,0,0,,,,,38.985832,-76.950859,0.11,35,3,0.8
763160,1744863162757,0.0,135,,-0.05,0.05,1.05,-0,-0,1,1.05,1.07,99,3145,3.8,3.73,,13.0,1.06,71.8,,34.0,5,,,,,,,,,,,,0,0,0,0,0,0,0,0,0,0,0,0,0,0,0,0,,,,,0.0,,,,,,
763180,1744863162777,,,,,,,,,,,,,,,,,,,,,,,,,,,,,,,,,,0,0,0,0,0,0,0,0,0,0,0,0,0,0,0,0,,,,,,,,,,,
763200,1744863162797,0.0,135,,-0.08,0.02,1.03,-0,-0,0,1.03,1.07,97,3093,3.8,3.73,,13.0,1.069,71.8,,34.0,5,,,,,,,,,,,,0,0,0,0,0,0,0,0,0,0,0,0,0,0,0,0,,,,,0.0,,,,,,
763220,1744863162817,,,,,,,,,,,,,,,,,,,,,,,,,,,,,,,,,,0,0,0,0,0,0,0,0,0,0,0,0,0,0,0,0,,,,,,,,,,,
763240,1744863162837,0.0,135,13.97,-0.1,-0.02,0.97,0,-0,-0,0.98,1.07,92,3020,3.8,3.78,15,13.0,1.069,71.8,178,33.6,5,0,0,0,0,0.0,0.0,0.0,0.0,2.26,0,0.0,0,0,0,0,0,0,0,0,0,0,0,0,0,0,0,0,0,0.0,0,0,0.0,38.985832,-76.950859,0.08,35,3,0.8
763260,1744863162857,,,,,,,,,,,,,,,,,,,,,,,,,,,,,,,,,,0,0,0,0,0,0,0,0,0,0,0,0,0,0,0,0,,,,,,,,,,,
763280,1744863162877,0.0,135,,-0.1,-0.04,0.9,1,-0,-0,0.91,1.07,85,3020,3.8,3.78,,13.05,1.079,71.8,,33.6,5,,,,,,,,,,,,0,0,0,0,0,0,0,0,0,0,0,0,0,0,0,0,,,,,0.0,,,,,,
763300,1744863162897,,,,,,,,,,,,,,,,,,,,,,,,,,,,,,,,,,0,0,0,0,0,0,0,0,0,0,0,0,0,0,0,0,,,,,,,,,,,
763320,1744863162917,0.0,135,,-0.11,-0.03,0.78,1,-0,-1,0.79,1.07,74,3063,3.8,3.79,,13.08,1.059,71.8,,32.7,5,,,,,,,,,,,,0,0,0,0,0,0,0,0,0,0,0,0,0,0,0,0,,,,,0.0,,,,,,
763340,1744863162937,,,,,,,,,,,,,,,,,,,,,,,0,0,0,0,0.0,0.0,0.0,0.0,2.26,,,0,0,0,0,0,0,0,0,0,0,0,0,0,0,0,0,0,,,,,38.985832,-76.950859,0.33,35,3,0.8
763360,1744863162957,0.0,135,,-0.08,-0.01,0.74,2,0,-1,0.74,1.07,70,3069,3.8,3.8,,13.05,1.052,71.8,,32.7,5,,,,,,,,,,,,0,0,0,0,0,0,0,0,0,0,0,0,0,0,0,0,,,,,0.0,,,,,,
763380,1744863162977,,,,,,,,,,,,,,,,,,,,,,,,,,,,,,,,,,0,0,0,0,0,0,0,0,0,0,0,0,0,0,0,0,,,,,,,,,,,
763400,1744863162997,0.0,135,,-0.13,-0.02,0.64,3,-1,-2,0.65,1.07,61,3007,3.5,3.72,,13.09,1.048,71.8,,32.7,5,,,,,,,,,,,,0,0,0,0,0,0,0,0,0,0,0,0,0,0,0,0,,,,,0.0,,,,,,
763420,1744863163008,,,,,,,,,,,,,,,,,,,,,,,,,,,,,,,,,,0,0,0,0,0,0,0,0,0,0,0,0,0,0,0,0,,,,,,,,,,,
763440,1744863163028,0.0,135,,-0.1,0.0,0.64,3,-0,-1,0.65,1.07,61,3027,3.8,3.8,,13.09,1.048,71.8,,33.0,5,0,0,0,0,0.0,0.0,0.0,0.0,2.26,,,0,0,0,0,0,0,0,0,0,0,0,0,0,0,0,0,0,,,,0.0,38.985832,-76.950859,0.61,35,3,0.8
763460,1744863163048,,,,,,,,,,,,,,,,,,,,,,,,,,,,,,,,,,0,0,0,0,0,0,0,0,0,0,0,0,0,0,0,0,,,,,,,,,,,
763480,1744863163068,0.0,135,,-0.06,0.09,0.64,2,-0,-1,0.65,1.07,61,3027,3.8,3.8,,13.12,1.046,71.8,,33.0,5,,,,,,,,,,,,0,0,0,0,0,0,0,0,0,0,0,0,0,0,0,0,,,,,0.0,,,,,,
763500,1744863163094,,,,,,,,,,,,,,,,,,,,,,,,,,,,,,,,,,0,0,0,0,0,0,0,0,0,0,0,0,0,0,0,0,,,,,,,,,,,
763520,1744863163114,0.0,135,,-0.05,0.1,0.71,1,-0,-0,0.72,1.07,67,3112,3.7,3.79,,13.03,1.057,71.8,,33.5,5,,,,,,,,,,,,0,0,0,0,0,0,0,0,0,0,0,0,0,0,0,0,,,,,0.0,,,,,,
763540,1744863163134,,,,,,,,,,,,,,,,,,,,,,,0,0,0,0,0.0,0.0,0.0,0.0,2.26,,,0,0,0,0,0,0,0,0,0,0,0,0,0,0,0,0,0,,,,,38.985832,-76.950859,0.2,35,3,0.8
763560,1744863163154,0.0,135,,-0.06,0.04,0.82,1,-0,-0,0.82,1.07,77,3124,3.7,3.8,,13.04,1.053,71.8,,33.5,5,,,,,,,,,,,,0,0,0,0,0,0,0,0,0,0,0,0,0,0,0,0,,,,,0.0,,,,,,
763580,1744863163174,,,,,,,,,,,,,,,,,,,,,,,,,,,,,,,,,,0,0,0,0,0,0,0,0,0,0,0,0,0,0,0,0,,,,,,,,,,,
763600,1744863163192,0.0,135,,-0.07,0.03,0.9,1,-0,-1,0.9,1.07,85,3095,3.8,3.75,,13.03,1.068,71.8,,33.5,5,,,,,,,,,,,,0,0,0,0,0,0,0,0,0,0,0,0,0,0,0,0,,,,,0.0,,,,,,
763620,1744863163212,,,,,,,,,,,,,,,,,,,,,,,,,,,,,,,,,,0,0,0,0,0,0,0,0,0,0,0,0,0,0,0,0,,,,,,,,,,,
763640,1744863163232,0.0,135,,-0.08,0.01,0.91,1,-0,-1,0.92,1.07,86,3165,3.9,3.79,,13.03,1.068,71.8,,34.1,5,0,0,0,0,0.0,0.0,0.0,0.0,2.26,,,0,0,0,0,0,0,0,0,0,0,0,0,0,0,0,0,0,,,,0.0,38.985832,-76.950859,0.28,35,3,0.8
763660,1744863163252,,,,,,,,,,,,,,,,,,,,,,,,,,,,,,,,,,0,0,0,0,0,0,0,0,0,0,0,0,0,0,0,0,,,,,,,,,,,
763680,1744863163272,0.0,135,,-0.09,0.03,0.84,1,-0,-1,0.85,1.07,80,3165,3.9,3.79,,13.04,1.066,71.8,,34.1,5,,,,,,,,,,,,0,0,0,0,0,0,0,0,0,0,0,0,0,0,0,0,,,,,0.0,,,,,,
763700,1744863163298,,,,,,,,,,,,,,,,,,,,,,,,,,,,,,,,,,0,0,0,0,0,0,0,0,0,0,0,0,0,0,0,0,,,,,,,,,,,
763720,1744863163318,0.0,135,,-0.08,0.07,0.8,1,-0,-0,0.81,1.07,76,3131,4.0,3.76,,12.96,1.077,71.8,,33.9,5,,,,,,,,,,,,0,0,0,0,0,0,0,0,0,0,0,0,0,0,0,0,,,,,0.0,,,,,,
763740,1744863163338,,,,,,,,,,,,,,,,,,,,,,,0,0,0,0,0.0,0.0,0.0,0.0,2.26,,,0,0,0,0,0,0,0,0,0,0,0,0,0,0,0,0,0,,,,,38.985832,-76.950859,0.09,35,3,0.8
763760,1744863163358,0.0,135,,-0.07,0.09,0.8,0,-0,0,0.81,1.07,76,3056,4.0,3.79,,13.03,1.059,71.8,,33.9,5,,,,,,,,,,,,0,0,0,0,0,0,0,0,0,0,0,0,0,0,0,0,,,,,0.0,,,,,,
763780,1744863163378,,,,,,,,,,,,,,,,,,,,,,,,,,,,,,,,,,0,0,0,0,0,0,0,0,0,0,0,0,0,0,0,0,,,,,,,,,,,
763800,1744863163398,0.0,135,,-0.07,0.07,0.86,0,-0,0,0.87,1.07,81,3060,4.0,3.76,,13.03,1.06,71.8,,33.9,5,,,,,,,,,,,,0,0,0,0,0,0,0,0,0,0,0,0,0,0,0,0,,,,,0.0,,,,,,
763820,1744863163418,,,,,,,,,,,,,,,,,,,,,,,,,,,,,,,,,,0,0,0,0,0,0,0,0,0,0,0,0,0,0,0,0,,,,,,,,,,,
763840,1744863163438,0.0,135,,-0.07,0.03,0.94,0,-0,0,0.95,1.07,89,3133,4.0,3.81,,13.03,1.06,71.8,,33.7,5,0,0,0,0,0.0,0.0,0.0,0.0,2.26,,,0,0,0,0,0,0,0,0,0,0,0,0,0,0,0,0,0,,,,0.0,38.985832,-76.950859,0.54,35,3,0.8
763860,1744863163458,,,,,,,,,,,,,,,,,,,,,,,,,,,,,,,,,,0,0,0,0,0,0,0,0,0,0,0,0,0,0,0,0,,,,,,,,,,,
763880,1744863163478,0.0,135,,-0.07,0.02,1.0,0,-0,0,1.0,1.07,94,3133,4.0,3.81,,13.01,1.064,71.8,,33.7,5,,,,,,,,,,,,0,0,0,0,0,0,0,0,0,0,0,0,0,0,0,0,,,,,0.0,,,,,,
763900,1744863163498,,,,,,,,,,,,,,,,,,,,,,,,,,,,,,,,,,0,0,0,0,0,0,0,0,0,0,0,0,0,0,0,0,,,,,,,,,,,
763920,1744863163518,0.0,135,,-0.08,0.01,0.96,1,-0,-0,0.96,1.07,90,3154,4.0,3.82,,12.97,1.062,71.8,,34.6,5,,,,,,,,,,,,0,0,0,0,0,0,0,0,0,0,0,0,0,0,0,0,,,,,0.0,,,,,,
763940,1744863163538,,,,,,,,,,,,,,,,,,,,,,,0,0,0,0,0.0,0.0,0.0,0.0,2.26,,,0,0,0,0,0,0,0,0,0,0,0,0,0,0,0,0,0,,,,,38.985832,-76.950859,0.4,35,3,0.8
763960,1744863163558,0.0,135,,-0.07,0.05,0.88,0,-0,0,0.89,1.07,83,3122,3.9,3.81,,13.0,1.056,71.8,,34.6,5,,,,,,,,,,,,0,0,0,0,0,0,0,0,0,0,0,0,0,0,0,0,,,,,0.0,,,,,,
763980,1744863163578,,,,,,,,,,,,,,,,,,,,,,,,,,,,,,,,,,0,0,0,0,0,0,0,0,0,0,0,0,0,0,0,0,,,,,,,,,,,
764000,1744863163598,0.0,135,,-0.06,0.05,0.9,0,-0,0,0.9,1.07,84,3187,3.8,3.81,,12.96,1.053,71.8,,34.6,5,,,,,,,,,,,,0,0,0,0,0,0,0,0,0,0,0,0,0,0,0,0,,,,,0.0,,,,,,
764020,1744863163618,,,,,,,,,,,,,,,,,,,,,,,,,,,,,,,,,,0,0,0,0,0,0,0,0,0,0,0,0,0,0,0,0,,,,,,,,,,,
764040,1744863163638,0.0,135,,-0.06,0.01,0.99,0,-0,0,0.99,1.07,93,3197,3.8,3.79,,12.96,1.053,71.8,,34.3,5,0,0,0,0,0.0,0.0,0.0,0.0,2.26,,,0,0,0,0,0,0,0,0,0,0,0,0,0,0,0,0,0,,,,0.0,38.985832,-76.950859,0.53,35,3,0.8
764060,1744863163658,,,,,,,,,,,,,,,,,,,,,,,,,,,,,,,,,,0,0,0,0,0,0,0,0,0,0,0,0,0,0,0,0,,,,,,,,,,,
764080,1744863163678,0.0,135,,-0.07,0.01,1.02,0,-0,0,1.02,1.07,96,3197,3.8,3.79,,12.93,1.057,70.0,,34.3,5,,,,,,,,,,,,0,0,0,0,0,0,0,0,0,0,0,0,0,0,0,0,,,,,0.0,,,,,,
764100,1744863163698,,,,,,,,,,,,,,,,,,,,,,,,,,,,,,,,,,0,0,0,0,0,0,0,0,0,0,0,0,0,0,0,0,,,,,,,,,,,
764120,1744863163718,0.0,135,,-0.08,0.02,0.97,0,-0,-0,0.97,1.07,91,3132,3.8,3.76,,12.96,1.047,70.0,,34.0,5,,,,,,,,,,,,0,0,0,0,0,0,0,0,0,0,0,0,0,0,0,0,,,,,0.0,,,,,,
764140,1744863163738,,,,,,,,,,,,,,,,,,,,,,,0,0,0,0,0.0,0.0,0.0,0.0,2.26,,,0,0,0,0,0,0,0,0,0,0,0,0,0,0,0,0,0,,,,,38.985832,-76.950859,0.33,35,3,0.8
764160,1744863163758,0.0,135,,-0.08,0.03,0.89,1,-0,-0,0.89,1.07,84,3131,3.9,3.79,,13.0,1.052,70.0,,34.0,5,,,,,,,,,,,,0,0,0,0,0,0,0,0,0,0,0,0,0,0,0,0,,,,,0.0,,,,,,
764180,1744863163778,,,,,,,,,,,,,,,,,,,,,,,,,,,,,,,,,,0,0,0,0,0,0,0,0,0,0,0,0,0,0,0,0,,,,,,,,,,,
764200,1744863163798,0.0,135,,-0.07,0.06,0.86,0,-0,0,0.87,1.07,82,3126,4.0,3.76,,12.97,1.07,70.0,,34.0,5,,,,,,,,,,,,0,0,0,0,0,0,0,0,0,0,0,0,0,0,0,0,,,,,0.0,,,,,,
764220,1744863163818,,,,,,,,,,,,,,,,,,,,,,,,,,,,,,,,,,0,0,0,0,0,0,0,0,0,0,0,0,0,0,0,0,,,,,,,,,,,
764240,1744863163838,0.0,135,13.99,-0.06,0.07,0.9,-0,-0,1,0.91,1.07,85,3067,4.0,3.76,15,12.97,1.07,70.0,178,33.9,5,0,0,0,0,0.0,0.0,0.0,0.0,2.26,0,0.0,0,0,0,0,0,0,0,0,0,0,0,0,0,0,0,0,0,0.0,0,0,0.0,38.985832,-76.950859,0.13,35,3,0.8
764260,1744863163858,,,,,,,,,,,,,,,,,,,,,,,,,,,,,,,,,,0,0,0,0,0,0,0,0,0,0,0,0,0,0,0,0,,,,,,,,,,,
764280,1744863163878,0.0,135,,-0.06,0.04,0.99,-0,-0,1,0.99,1.07,93,3067,4.0,3.76,,13.0,1.053,70.0,,33.9,5,,,,,,,,,,,,0,0,0,0,0,0,0,0,0,0,0,0,0,0,0,0,,,,,0.0,,,,,,
764300,1744863163897,,,,,,,,,,,,,,,,,,,,,,,,,,,,,,,,,,0,0,0,0,0,0,0,0,0,0,0,0,0,0,0,0,,,,,,,,,,,
764320,1744863163917,0.0,135,,-0.07,0.02,1.06,0,-0,0,1.06,1.07,99,3084,4.0,3.76,,13.07,1.054,70.0,,33.4,5,,,,,,,,,,,,0,0,0,0,0,0,0,0,0,0,0,0,0,0,0,0,,,,,0.0,,,,,,
764340,1744863163937,,,,,,,,,,,,,,,,,,,,,,,0,0,0,0,0.0,0.0,0.0,0.0,2.26,,,0,0,0,0,0,0,0,0,0,0,0,0,0,0,0,0,0,,,,,38.985832,-76.950859,0.11,35,3,0.8
764360,1744863163957,0.0,135,,-0.09,0.03,1.07,-0,-0,0,1.08,1.08,100,3139,3.9,3.82,,12.99,1.046,70.0,,33.4,5,,,,,,,,,,,,0,0,0,0,0,0,0,0,0,0,0,0,0,0,0,0,,,,,0.0,,,,,,
764380,1744863163977,,,,,,,,,,,,,,,,,,,,,,,,,,,,,,,,,,0,0,0,0,0,0,0,0,0,0,0,0,0,0,0,0,,,,,,,,,,,
764400,1744863163997,0.0,135,,-0.1,0.01,1.01,0,-0,0,1.02,1.08,94,3100,3.9,3.79,,13.0,1.064,70.0,,33.4,5,,,,,,,,,,,,0,0,0,0,0,0,0,0,0,0,0,0,0,0,0,0,,,,,0.0,,,,,,
764420,1744863164009,,,,,,,,,,,,,,,,,,,,,,,,,,,,,,,,,,0,0,0,0,0,0,0,0,0,0,0,0,0,0,0,0,,,,,,,,,,,
764440,1744863164029,0.0,135,,-0.09,0.02,0.93,1,-0,-0,0.93,1.08,86,3093,3.9,3.81,,13.0,1.064,70.0,,34.1,5,0,0,0,0,0.0,0.0,0.0,0.0,2.26,,,0,0,0,0,0,0,0,0,0,0,0,0,0,0,0,0,0,,,,0.0,38.985832,-76.950859,0.07,35,3,0.8
764460,1744863164049,,,,,,,,,,,,,,,,,,,,,,,,,,,,,,,,,,0,0,0,0,0,0,0,0,0,0,0,0,0,0,0,0,,,,,,,,,,,
764480,1744863164069,0.0,135,,-0.07,0.06,0.9,0,-0,0,0.9,1.08,84,3093,3.9,3.81,,13.03,1.059,70.0,,34.1,5,,,,,,,,,,,,0,0,0,0,0,0,0,0,0,0,0,0,0,0,0,0,,,,,0.0,,,,,,
764500,1744863164095,,,,,,,,,,,,,,,,,,,,,,,,,,,,,,,,,,0,0,0,0,0,0,0,0,0,0,0,0,0,0,0,0,,,,,,,,,,,
764520,1744863164115,0.0,135,,-0.05,0.07,0.94,-0,-0,1,0.95,1.08,88,3127,3.8,3.81,,12.97,1.052,70.0,,33.7,5,,,,,,,,,,,,0,0,0,0,0,0,0,0,0,0,0,0,0,0,0,0,,,,,0.0,,,,,,
764540,1744863164135,,,,,,,,,,,,,,,,,,,,,,,0,0,0,0,0.0,0.0,0.0,0.0,2.26,,,0,0,0,0,0,0,0,0,0,0,0,0,0,0,0,0,0,,,,,38.985832,-76.950859,0.05,35,3,0.8
764560,1744863164155,0.0,135,,-0.04,0.04,1.01,-0,-0,1,1.01,1.08,93,3106,3.8,3.81,,12.99,1.05,70.0,,33.7,5,,,,,,,,,,,,0,0,0,0,0,0,0,0,0,0,0,0,0,0,0,0,,,,,0.0,,,,,,
764580,1744863164175,,,,,,,,,,,,,,,,,,,,,,,,,,,,,,,,,,0,0,0,0,0,0,0,0,0,0,0,0,0,0,0,0,,,,,,,,,,,
764600,1744863164199,0.0,135,,-0.05,0.0,1.07,-0,-0,1,1.07,1.08,99,3079,3.8,3.8,,13.05,1.052,70.0,,33.7,5,,,,,,,,,,,,0,0,0,0,0,0,0,0,0,0,0,0,0,0,0,0,,,,,0.0,,,,,,
764620,1744863164219,,,,,,,,,,,,,,,,,,,,,,,,,,,,,,,,,,0,0,0,0,0,0,0,0,0,0,0,0,0,0,0,0,,,,,,,,,,,
764640,1744863164239,0.0,135,,-0.07,-0.01,1.1,0,-0,0,1.11,1.11,100,3077,3.8,3.82,,13.05,1.052,70.0,,34.0,5,0,0,0,0,0.0,0.0,0.0,0.0,2.26,,,0,0,0,0,0,0,0,0,0,0,0,0,0,0,0,0,0,,,,0.0,38.985832,-76.950859,0.04,35,3,0.8
764660,1744863164259,,,,,,,,,,,,,,,,,,,,,,,,,,,,,,,,,,0,0,0,0,0,0,0,0,0,0,0,0,0,0,0,0,,,,,,,,,,,
764680,1744863164279,0.0,135,,-0.05,0.06,1.02,0,-0,0,1.03,1.11,93,3077,3.8,3.82,,13.01,1.057,70.0,,34.0,5,,,,,,,,,,,,0,0,0,0,0,0,0,0,0,0,0,0,0,0,0,0,,,,,0.0,,,,,,
764700,1744863164297,,,,,,,,,,,,,,,,,,,,,,,,,,,,,,,,,,0,0,0,0,0,0,0,0,0,0,0,0,0,0,0,0,,,,,,,,,,,
764720,1744863164317,0.0,135,,-0.09,-0.06,1.08,0,-0,0,1.08,1.11,98,3399,3.9,3.78,,12.95,1.075,70.0,,37.7,5,,,,,,,,,,,,0,0,0,0,0,0,0,0,0,0,0,0,0,0,0,0,,,,,0.0,,,,,,
764740,1744863164337,,,,,,,,,,,,,,,,,,,,,,,0,0,0,0,0.0,0.0,0.0,0.0,2.26,,,0,0,0,0,0,0,0,0,0,0,0,0,0,0,0,0,0,,,,,38.985832,-76.950859,0.08,35,3,0.8
764760,1744863164357,0.0,135,,-0.04,0.06,1.05,-1,-0,1,1.06,1.11,96,3433,4.0,3.74,,12.89,1.062,70.0,,37.7,5,,,,,,,,,,,,0,0,0,0,0,0,0,0,0,0,0,0,0,0,0,0,,,,,0.0,,,,,,
764780,1744863164377,,,,,,,,,,,,,,,,,,,,,,,,,,,,,,,,,,0,0,0,0,0,0,0,0,0,0,0,0,0,0,0,0,,,,,,,,,,,
764800,1744863164397,0.0,135,,-0.05,0.06,1.01,-0,-0,0,1.01,1.11,92,3622,4.0,3.74,,12.73,0.997,70.0,,37.7,5,,,,,,,,,,,,0,0,0,0,0,0,0,0,0,0,0,0,0,0,0,0,,,,,0.0,,,,,,
764820,1744863164417,,,,,,,,,,,,,,,,,,,,,,,,,,,,,,,,,,0,0,0,0,0,0,0,0,0,0,0,0,0,0,0,0,,,,,,,,,,,
764840,1744863164437,0.0,135,,-0.06,0.05,1.02,-0,-0,1,1.03,1.11,93,3724,4.0,3.73,,12.73,0.997,70.0,,41.1,5,0,0,0,0,0.0,0.0,0.0,0.0,2.26,,,0,0,0,0,0,0,0,0,0,0,0,0,0,0,0,0,0,,,,0.0,38.985832,-76.950859,0.0,35,3,0.8
764860,1744863164457,,,,,,,,,,,,,,,,,,,,,,,,,,,,,,,,,,0,0,0,0,0,0,0,0,0,0,0,0,0,0,0,0,,,,,,,,,,,
764880,1744863164477,0.0,135,,-0.06,0.03,1.02,-1,-0,1,1.02,1.11,93,3724,4.0,3.73,,12.55,0.964,70.0,,41.1,5,,,,,,,,,,,,0,0,0,0,0,0,0,0,0,0,0,0,0,0,0,0,,,,,0.0,,,,,,
764900,1744863164499,,,,,,,,,,,,,,,,,,,,,,,,,,,,,,,,,,0,0,0,0,0,0,0,0,0,0,0,0,0,0,0,0,,,,,,,,,,,
764920,1744863164519,0.0,135,,-0.06,-0.02,0.99,0,-0,0,0.99,1.11,90,3726,3.9,3.7,,12.44,0.945,70.0,,41.5,5,,,,,,,,,,,,0,0,0,0,0,0,0,0,0,0,0,0,0,0,0,0,,,,,0.0,,,,,,
764940,1744863164539,,,,,,,,,,,,,,,,,,,,,,,0,0,0,0,0.0,0.0,0.0,0.0,2.26,,,0,0,0,0,0,0,0,0,0,0,0,0,0,0,0,0,0,,,,,38.985832,-76.950859,0.08,35,3,0.8
764960,1744863164559,0.0,135,,-0.08,-0.07,1.02,0,-0,-0,1.03,1.11,93,3610,3.9,3.73,,12.47,0.949,70.0,,41.5,5,,,,,,,,,,,,0,0,0,0,0,0,0,0,0,0,0,0,0,0,0,0,,,,,0.0,,,,,,
764980,1744863164579,,,,,,,,,,,,,,,,,,,,,,,,,,,,,,,,,,0,0,0,0,0,0,0,0,0,0,0,0,0,0,0,0,,,,,,,,,,,
765000,1744863164599,0.0,135,,-0.08,-0.04,1.05,-0,-0,0,1.05,1.11,95,3593,3.9,3.76,,12.49,0.965,70.0,,41.5,5,,,,,,,,,,,,0,0,0,0,0,0,0,0,0,0,0,0,0,0,0,0,,,,,0.0,,,,,,
765020,1744863164619,,,,,,,,,,,,,,,,,,,,,,,,,,,,,,,,,,0,0,0,0,0,0,0,0,0,0,0,0,0,0,0,0,,,,,,,,,,,
765040,1744863164639,0.0,135,,-0.04,0.05,1.01,-0,-0,0,1.01,1.11,92,3517,3.8,3.76,,12.49,0.965,70.0,,39.6,5,0,0,0,0,0.0,0.0,0.0,0.0,2.26,,,0,0,0,0,0,0,0,0,0,0,0,0,0,0,0,0,0,,,,0.0,38.985832,-76.950859,0.0,35,3,0.8
765060,1744863164659,,,,,,,,,,,,,,,,,,,,,,,,,,,,,,,,,,0,0,0,0,0,0,0,0,0,0,0,0,0,0,0,0,,,,,,,,,,,
765080,1744863164679,0.0,135,,-0.07,-0.06,1.02,0,-0,-0,1.03,1.11,93,3517,3.8,3.76,,12.55,0.996,70.0,,39.6,5,,,,,,,,,,,,0,0,0,0,0,0,0,0,0,0,0,0,0,0,0,0,,,,,0.0,,,,,,
765100,1744863164699,,,,,,,,,,,,,,,,,,,,,,,,,,,,,,,,,,0,0,0,0,0,0,0,0,0,0,0,0,0,0,0,0,,,,,,,,,,,
765120,1744863164719,0.0,135,,-0.05,0.02,1.0,-0,-0,0,1.0,1.11,90,3399,3.7,3.75,,12.68,1.059,70.0,,37.1,5,,,,,,,,,,,,0,0,0,0,0,0,0,0,0,0,0,0,0,0,0,0,,,,,0.0,,,,,,
765140,1744863164739,,,,,,,,,,,,,,,,,,,,,,,0,0,0,0,0.0,0.0,0.0,0.0,2.26,,,0,0,0,0,0,0,0,0,0,0,0,0,0,0,0,0,0,,,,,38.985832,-76.950859,0.12,35,3,0.8
765160,1744863164759,0.0,135,,-0.07,-0.06,1.07,-0,-0,0,1.07,1.11,97,3250,3.8,3.77,,12.75,1.055,70.0,,37.1,5,,,,,,,,,,,,0,0,0,0,0,0,0,0,0,0,0,0,0,0,0,0,,,,,0.0,,,,,,
765180,1744863164779,,,,,,,,,,,,,,,,,,,,,,,,,,,,,,,,,,0,0,0,0,0,0,0,0,0,0,0,0,0,0,0,0,,,,,,,,,,,
765200,1744863164799,0.0,135,,-0.08,-0.03,1.05,-0,-0,0,1.05,1.11,95,3171,3.8,3.77,,12.85,1.04,70.0,,37.1,5,,,,,,,,,,,,0,0,0,0,0,0,0,0,0,0,0,0,0,0,0,0,,,,,0.0,,,,,,
765220,1744863164819,,,,,,,,,,,,,,,,,,,,,,,,,,,,,,,,,,0,0,0,0,0,0,0,0,0,0,0,0,0,0,0,0,,,,,,,,,,,
765240,1744863164839,0.0,135,14.04,-0.08,-0.01,0.96,-0,-0,-0,0.97,1.11,87,3155,3.9,3.77,15,12.85,1.04,70.0,178,34.1,5,0,0,0,0,0.0,0.0,0.0,0.0,2.26,0,0.0,0,0,0,0,0,0,0,0,0,0,0,0,0,0,0,0,0,0.0,0,0,0.0,38.985832,-76.950859,0.09,35,3,0.8
765260,1744863164859,,,,,,,,,,,,,,,,,,,,,,,,,,,,,,,,,,0,0,0,0,0,0,0,0,0,0,0,0,0,0,0,0,,,,,,,,,,,
765280,1744863164879,0.0,135,,-0.07,-0.0,0.91,0,-0,0,0.91,1.11,83,3155,3.9,3.77,,12.89,1.026,70.0,,34.1,5,,,,,,,,,,,,0,0,0,0,0,0,0,0,0,0,0,0,0,0,0,0,,,,,0.0,,,,,,
765300,1744863164898,,,,,,,,,,,,,,,,,,,,,,,,,,,,,,,,,,0,0,0,0,0,0,0,0,0,0,0,0,0,0,0,0,,,,,,,,,,,
765320,1744863164918,0.0,135,,-0.05,0.03,0.91,-0,-0,0,0.91,1.11,83,3072,4.0,3.81,,12.93,0.994,70.0,,33.4,5,,,,,,,,,,,,0,0,0,0,0,0,0,0,0,0,0,0,0,0,0,0,,,,,0.0,,,,,,
765340,1744863164938,,,,,,,,,,,,,,,,,,,,,,,0,0,0,0,0.0,0.0,0.0,0.0,2.25,,,0,0,0,0,0,0,0,0,0,0,0,0,0,0,0,0,0,,,,,38.985832,-76.950859,0.07,35,3,0.8
765360,1744863164958,0.0,135,,-0.03,0.07,0.92,-1,-0,1,0.92,1.11,83,3026,3.9,3.75,,13.03,0.995,70.0,,33.4,5,,,,,,,,,,,,0,0,0,0,0,0,0,0,0,0,0,0,0,0,0,0,,,,,0.0,,,,,,
765380,1744863164978,,,,,,,,,,,,,,,,,,,,,,,,,,,,,,,,,,0,0,0,0,0,0,0,0,0,0,0,0,0,0,0,0,,,,,,,,,,,
765400,1744863164998,0.0,135,,-0.0,0.11,0.91,-1,-0,1,0.92,1.11,83,3029,4.0,3.81,,13.07,1.027,70.0,,33.4,5,,,,,,,,,,,,0,0,0,0,0,0,0,0,0,0,0,0,0,0,0,0,,,,,0.0,,,,,,
765420,1744863165010,,,,,,,,,,,,,,,,,,,,,,,,,,,,,,,,,,0,0,0,0,0,0,0,0,0,0,0,0,0,0,0,0,,,,,,,,,,,
765440,1744863165030,0.0,135,,0.02,0.16,0.9,-1,-0,1,0.92,1.11,83,3007,3.9,3.8,,13.07,1.027,70.0,,32.3,5,0,0,0,0,0.0,0.0,0.0,0.0,2.26,,,0,0,0,0,0,0,0,0,0,0,0,0,0,0,0,0,0,,,,0.0,38.985832,-76.950859,0.11,35,3,0.8
765460,1744863165050,,,,,,,,,,,,,,,,,,,,,,,,,,,,,,,,,,0,0,0,0,0,0,0,0,0,0,0,0,0,0,0,0,,,,,,,,,,,
765480,1744863165070,0.0,135,,0.01,0.09,0.99,-1,-0,1,0.99,1.11,90,3007,3.9,3.8,,13.08,1.037,70.0,,32.3,5,,,,,,,,,,,,0,0,0,0,0,0,0,0,0,0,0,0,0,0,0,0,,,,,0.0,,,,,,
765500,1744863165098,,,,,,,,,,,,,,,,,,,,,,,,,,,,,,,,,,0,0,0,0,0,0,0,0,0,0,0,0,0,0,0,0,,,,,,,,,,,
765520,1744863165118,0.0,135,,-0.01,0.09,0.97,-1,-0,1,0.97,1.11,88,3207,4.0,3.79,,13.05,1.072,70.0,,35.2,5,,,,,,,,,,,,0,0,0,0,0,0,0,0,0,0,0,0,0,0,0,0,,,,,0.0,,,,,,
765540,1744863165138,,,,,,,,,,,,,,,,,,,,,,,0,0,0,0,0.0,0.0,0.0,0.0,2.26,,,0,0,0,0,0,0,0,0,0,0,0,0,0,0,0,0,0,,,,,38.985832,-76.950859,0.04,35,3,0.8
765560,1744863165158,0.0,135,,-0.01,0.11,0.89,-0,-0,1,0.9,1.11,81,3205,3.9,3.79,,13.04,1.044,70.0,,35.2,5,,,,,,,,,,,,0,0,0,0,0,0,0,0,0,0,0,0,0,0,0,0,,,,,0.0,,,,,,
765580,1744863165178,,,,,,,,,,,,,,,,,,,,,,,,,,,,,,,,,,0,0,0,0,0,0,0,0,0,0,0,0,0,0,0,0,,,,,,,,,,,
765600,1744863165196,0.0,135,,-0.0,0.12,0.91,-1,-0,1,0.91,1.11,83,3151,3.7,3.82,,12.99,0.995,70.0,,35.2,5,,,,,,,,,,,,0,0,0,0,0,0,0,0,0,0,0,0,0,0,0,0,,,,,0.0,,,,,,
765620,1744863165216,,,,,,,,,,,,,,,,,,,,,,,,,,,,,,,,,,0,0,0,0,0,0,0,0,0,0,0,0,0,0,0,0,,,,,,,,,,,
765640,1744863165236,0.0,135,,-0.01,0.08,0.99,-1,-0,1,1.0,1.11,90,3133,3.7,3.79,,12.99,0.995,70.0,,34.1,5,0,0,0,0,0.0,0.0,0.0,0.0,2.26,,,0,0,0,0,0,0,0,0,0,0,0,0,0,0,0,0,0,,,,0.0,38.985832,-76.950859,0.09,35,3,0.8
765660,1744863165256,,,,,,,,,,,,,,,,,,,,,,,,,,,,,,,,,,0,0,0,0,0,0,0,0,0,0,0,0,0,0,0,0,,,,,,,,,,,
765680,1744863165276,0.0,135,,-0.01,0.03,1.0,-0,-0,0,1.0,1.11,91,3133,3.7,3.79,,12.97,0.975,70.0,,34.1,5,,,,,,,,,,,,0,0,0,0,0,0,0,0,0,0,0,0,0,0,0,0,,,,,0.0,,,,,,
765700,1744863165298,,,,,,,,,,,,,,,,,,,,,,,,,,,,,,,,,,0,0,0,0,0,0,0,0,0,0,0,0,0,0,0,0,,,,,,,,,,,
765720,1744863165318,0.0,135,,0.0,0.1,0.99,-1,-0,1,1.0,1.11,90,3414,3.7,3.74,,12.95,0.973,70.0,,36.6,5,,,,,,,,,,,,0,0,0,0,0,0,0,0,0,0,0,0,0,0,0,0,,,,,0.0,,,,,,
765740,1744863165338,,,,,,,,,,,,,,,,,,,,,,,0,0,0,0,0.0,0.0,0.0,0.0,2.26,,,0,0,0,0,0,0,0,0,0,0,0,0,0,0,0,0,0,,,,,38.985832,-76.950859,0.14,35,3,0.8
765760,1744863165358,0.0,135,,-0.02,0.02,1.0,-0,-0,0,1.0,1.11,90,3400,3.8,3.8,,12.89,1.021,70.0,,36.6,5,,,,,,,,,,,,0,0,0,0,0,0,0,0,0,0,0,0,0,0,0,0,,,,,0.0,,,,,,
765780,1744863165378,,,,,,,,,,,,,,,,,,,,,,,,,,,,,,,,,,0,0,0,0,0,0,0,0,0,0,0,0,0,0,0,0,,,,,,,,,,,
765800,1744863165398,0.0,135,,-0.01,0.1,0.97,-1,-0,1,0.98,1.11,89,3313,3.8,3.75,,12.91,0.989,70.0,,36.6,5,,,,,,,,,,,,0,0,0,0,0,0,0,0,0,0,0,0,0,0,0,0,,,,,0.0,,,,,,
765820,1744863165418,,,,,,,,,,,,,,,,,,,,,,,,,,,,,,,,,,0,0,0,0,0,0,0,0,0,0,0,0,0,0,0,0,,,,,,,,,,,
765840,1744863165438,0.0,135,,-0.04,0.01,1.05,-0,-0,0,1.05,1.11,95,3291,3.9,3.76,,12.91,0.989,70.0,,36.1,5,0,0,0,0,0.0,0.0,0.0,0.0,2.26,,,0,0,0,0,0,0,0,0,0,0,0,0,0,0,0,0,0,,,,0.0,38.985832,-76.950859,0.14,35,3,0.8
765860,1744863165458,,,,,,,,,,,,,,,,,,,,,,,,,,,,,,,,,,0,0,0,0,0,0,0,0,0,0,0,0,0,0,0,0,,,,,,,,,,,
765880,1744863165478,0.0,135,,-0.04,0.04,0.97,-0,-0,0,0.98,1.11,88,3291,3.9,3.76,,12.91,0.973,70.0,,36.1,5,,,,,,,,,,,,0,0,0,0,0,0,0,0,0,0,0,0,0,0,0,0,,,,,0.0,,,,,,
765900,1744863165498,,,,,,,,,,,,,,,,,,,,,,,,,,,,,,,,,,0,0,0,0,0,0,0,0,0,0,0,0,0,0,0,0,,,,,,,,,,,
765920,1744863165518,0.0,135,,-0.03,0.06,0.91,-0,-0,0,0.91,1.11,83,3147,4.0,3.81,,12.92,0.981,70.0,,34.4,5,,,,,,,,,,,,0,0,0,0,0,0,0,0,0,0,0,0,0,0,0,0,,,,,0.0,,,,,,
765940,1744863165538,,,,,,,,,,,,,,,,,,,,,,,0,0,0,0,0.0,0.0,0.0,0.0,2.26,,,0,0,0,0,0,0,0,0,0,0,0,0,0,0,0,0,0,,,,,38.985832,-76.950859,0.13,35,3,0.8
765960,1744863165558,0.0,135,,-0.02,0.07,0.94,-1,-0,1,0.94,1.11,85,3124,3.9,3.79,,12.99,0.99,70.0,,34.4,5,,,,,,,,,,,,0,0,0,0,0,0,0,0,0,0,0,0,0,0,0,0,,,,,0.0,,,,,,
765980,1744863165578,,,,,,,,,,,,,,,,,,,,,,,,,,,,,,,,,,0,0,0,0,0,0,0,0,0,0,0,0,0,0,0,0,,,,,,,,,,,
766000,1744863165598,0.0,135,,-0.01,0.04,1.01,-1,-0,1,1.01,1.11,92,3119,4.0,3.79,,13.03,1.003,70.0,,34.4,5,,,,,,,,,,,,0,0,0,0,0,0,0,0,0,0,0,0,0,0,0,0,,,,,0.0,,,,,,
766020,1744863165618,,,,,,,,,,,,,,,,,,,,,,,,,,,,,,,,,,0,0,0,0,0,0,0,0,0,0,0,0,0,0,0,0,,,,,,,,,,,
766040,1744863165638,0.0,135,,-0.02,0.01,1.07,-1,-0,1,1.07,1.11,97,3078,3.9,3.8,,13.03,1.003,70.0,,33.2,5,0,0,0,0,0.0,0.0,0.0,0.0,2.25,,,0,0,0,0,0,0,0,0,0,0,0,0,0,0,0,0,0,,,,0.0,38.985832,-76.950859,0.08,35,3,0.8
766060,1744863165658,,,,,,,,,,,,,,,,,,,,,,,,,,,,,,,,,,0,0,0,0,0,0,0,0,0,0,0,0,0,0,0,0,,,,,,,,,,,
766080,1744863165678,0.0,135,,-0.04,-0.03,1.13,-0,-0,1,1.13,1.13,100,3078,3.9,3.8,,13.01,1.014,70.0,,33.2,5,,,,,,,,,,,,0,0,0,0,0,0,0,0,0,0,0,0,0,0,0,0,,,,,0.0,,,,,,
766100,1744863165698,,,,,,,,,,,,,,,,,,,,,,,,,,,,,,,,,,0,0,0,0,0,0,0,0,0,0,0,0,0,0,0,0,,,,,,,,,,,
766120,1744863165718,0.0,135,,-0.07,-0.03,1.16,-0,-0,1,1.17,1.17,100,3036,3.8,3.82,,13.09,1.028,70.0,,32.4,5,,,,,,,,,,,,0,0,0,0,0,0,0,0,0,0,0,0,0,0,0,0,,,,,0.0,,,,,,
766140,1744863165738,,,,,,,,,,,,,,,,,,,,,,,0,0,0,0,0.0,0.0,0.0,0.0,2.25,,,0,0,0,0,0,0,0,0,0,0,0,0,0,0,0,0,0,,,,,38.985832,-76.950859,0.04,35,3,0.8
766160,1744863165758,0.0,135,,-0.09,-0.04,1.19,-0,-0,0,1.19,1.19,100,3002,3.8,3.8,,13.16,1.028,70.0,,32.4,5,,,,,,,,,,,,0,0,0,0,0,0,0,0,0,0,0,0,0,0,0,0,,,,,0.0,,,,,,
766180,1744863165778,,,,,,,,,,,,,,,,,,,,,,,,,,,,,,,,,,0,0,0,0,0,0,0,0,0,0,0,0,0,0,0,0,,,,,,,,,,,
766200,1744863165798,0.0,135,,-0.12,-0.05,1.2,-0,-0,0,1.2,1.2,100,3029,3.7,3.82,,13.12,1.017,70.0,,32.4,5,,,,,,,,,,,,0,0,0,0,0,0,0,0,0,0,0,0,0,0,0,0,,,,,0.0,,,,,,
766220,1744863165818,,,,,,,,,,,,,,,,,,,,,,,,,,,,,,,,,,0,0,0,0,0,0,0,0,0,0,0,0,0,0,0,0,,,,,,,,,,,
766240,1744863165838,0.0,135,14.05,-0.14,-0.05,1.2,0,0,0,1.21,1.21,100,3044,3.7,3.82,15,13.12,1.017,70.0,178,32.2,5,0,0,0,0,0.0,0.0,0.0,0.0,2.25,0,0.0,0,0,0,0,0,0,0,0,0,0,0,0,0,0,0,0,0,0.0,0,0,0.0,38.985832,-76.950859,0.04,35,3,0.8
766260,1744863165858,,,,,,,,,,,,,,,,,,,,,,,,,,,,,,,,,,0,0,0,0,0,0,0,0,0,0,0,0,0,0,0,0,,,,,,,,,,,
766280,1744863165878,0.0,135,,-0.16,-0.06,1.19,-0,0,0,1.2,1.21,100,3044,3.7,3.82,,13.16,1.013,70.0,,32.2,5,,,,,,,,,,,,0,0,0,0,0,0,0,0,0,0,0,0,0,0,0,0,,,,,0.0,,,,,,
766300,1744863165900,,,,,,,,,,,,,,,,,,,,,,,,,,,,,,,,,,0,0,0,0,0,0,0,0,0,0,0,0,0,0,0,0,,,,,,,,,,,
766320,1744863165920,0.0,135,,-0.18,-0.08,1.18,-0,0,-0,1.19,1.21,99,2975,3.8,3.78,,13.2,1.016,70.0,,32.2,5,,,,,,,,,,,,0,0,0,0,0,0,0,0,0,0,0,0,0,0,0,0,,,,,0.0,,,,,,
766340,1744863165940,,,,,,,,,,,,,,,,,,,,,,,0,0,0,0,0.0,0.0,0.0,0.0,2.24,,,0,0,0,0,0,0,0,0,0,0,0,0,0,0,0,0,0,,,,,38.985832,-76.950859,0.08,35,3,0.8
766360,1744863165960,0.0,135,,-0.19,-0.09,1.16,-0,0,-0,1.17,1.21,97,3002,3.9,3.8,,13.16,1.023,70.0,,32.2,5,,,,,,,,,,,,0,0,0,0,0,0,0,0,0,0,0,0,0,0,0,0,,,,,0.0,,,,,,
766380,1744863165980,,,,,,,,,,,,,,,,,,,,,,,,,,,,,,,,,,0,0,0,0,0,0,0,0,0,0,0,0,0,0,0,0,,,,,,,,,,,
766400,1744863165991,0.0,135,,-0.21,-0.1,1.11,0,0,-0,1.14,1.21,94,3055,3.9,3.8,,13.15,1.023,70.0,,32.2,5,,,,,,,,,,,,0,0,0,0,0,0,0,0,0,0,0,0,0,0,0,0,,,,,0.0,,,,,,
766420,1744863166011,,,,,,,,,,,,,,,,,,,,,,,,,,,,,,,,,,0,0,0,0,0,0,0,0,0,0,0,0,0,0,0,0,,,,,,,,,,,
766440,1744863166031,0.0,135,,-0.21,-0.12,1.05,0,0,-1,1.08,1.21,89,3004,3.9,3.81,,13.15,1.023,70.0,,32.5,5,0,0,0,0,0.0,0.0,0.0,0.0,2.25,,,0,0,0,0,0,0,0,0,0,0,0,0,0,0,0,0,0,,,,0.0,38.985832,-76.950859,0.04,35,3,0.8
766460,1744863166051,,,,,,,,,,,,,,,,,,,,,,,,,,,,,,,,,,0,0,0,0,0,0,0,0,0,0,0,0,0,0,0,0,,,,,,,,,,,
766480,1744863166071,0.0,135,,-0.21,-0.13,0.98,0,0,-1,1.01,1.21,84,3004,3.9,3.81,,13.15,1.031,70.0,,32.5,5,,,,,,,,,,,,0,0,0,0,0,0,0,0,0,0,0,0,0,0,0,0,,,,,0.0,,,,,,
766500,1744863166095,,,,,,,,,,,,,,,,,,,,,,,,,,,,,,,,,,0,0,0,0,0,0,0,0,0,0,0,0,0,0,0,0,,,,,,,,,,,
766520,1744863166115,0.0,135,,-0.21,-0.13,0.92,1,0,-1,0.95,1.21,79,2984,3.9,3.81,,13.19,1.033,70.0,,32.4,5,,,,,,,,,,,,0,0,0,0,0,0,0,0,0,0,0,0,0,0,0,0,,,,,0.0,,,,,,
766540,1744863166135,,,,,,,,,,,,,,,,,,,,,,,0,0,0,0,0.0,0.0,0.0,0.0,2.24,,,0,0,0,0,0,0,0,0,0,0,0,0,0,0,0,0,0,,,,,38.985832,-76.950859,0.05,35,3,0.8
766560,1744863166155,0.0,135,,-0.21,-0.13,0.87,1,0,-1,0.91,1.21,75,3022,4.0,3.84,,13.19,1.038,70.0,,32.4,5,,,,,,,,,,,,0,0,0,0,0,0,0,0,0,0,0,0,0,0,0,0,,,,,0.0,,,,,,
766580,1744863166175,,,,,,,,,,,,,,,,,,,,,,,,,,,,,,,,,,0,0,0,0,0,0,0,0,0,0,0,0,0,0,0,0,,,,,,,,,,,
766600,1744863166195,0.0,135,,-0.22,-0.14,0.84,1,0,-1,0.88,1.21,73,2985,3.9,3.84,,13.19,1.041,70.0,,32.4,5,,,,,,,,,,,,0,0,0,0,0,0,0,0,0,0,0,0,0,0,0,0,,,,,0.0,,,,,,
766620,1744863166215,,,,,,,,,,,,,,,,,,,,,,,,,,,,,,,,,,0,0,0,0,0,0,0,0,0,0,0,0,0,0,0,0,,,,,,,,,,,
766640,1744863166235,0.0,135,,-0.22,-0.14,0.88,1,0,-1,0.92,1.21,76,2956,3.8,3.82,,13.19,1.041,70.0,,31.4,5,0,0,0,0,0.0,0.0,0.0,0.0,2.25,,,0,0,0,0,0,0,0,0,0,0,0,0,0,0,0,0,0,,,,0.0,38.985832,-76.950859,0.08,35,3,0.8
766660,1744863166255,,,,,,,,,,,,,,,,,,,,,,,,,,,,,,,,,,0,0,0,0,0,0,0,0,0,0,0,0,0,0,0,0,,,,,,,,,,,
766680,1744863166275,0.0,135,,-0.23,-0.13,0.93,1,0,-1,0.97,1.21,80,2956,3.8,3.82,,13.23,1.033,70.0,,31.4,5,,,,,,,,,,,,0,0,0,0,0,0,0,0,0,0,0,0,0,0,0,0,,,,,0.0,,,,,,
766700,1744863166299,,,,,,,,,,,,,,,,,,,,,,,,,,,,,,,,,,0,0,0,0,0,0,0,0,0,0,0,0,0,0,0,0,,,,,,,,,,,
766720,1744863166319,0.0,135,,-0.23,-0.13,1.0,1,0,-1,1.03,1.21,85,2961,3.8,3.82,,13.23,1.038,70.0,,32.0,5,,,,,,,,,,,,0,0,0,0,0,0,0,0,0,0,0,0,0,0,0,0,,,,,0.0,,,,,,
766740,1744863166339,,,,,,,,,,,,,,,,,,,,,,,0,0,0,0,0.0,0.0,0.0,0.0,2.25,,,0,0,0,0,0,0,0,0,0,0,0,0,0,0,0,0,0,,,,,38.985832,-76.950859,0.12,35,3,0.8
766760,1744863166359,0.0,135,,-0.22,-0.13,1.06,1,0,-1,1.09,1.21,90,2951,3.7,3.82,,13.27,1.032,70.0,,32.0,5,,,,,,,,,,,,0,0,0,0,0,0,0,0,0,0,0,0,0,0,0,0,,,,,0.0,,,,,,
766780,1744863166379,,,,,,,,,,,,,,,,,,,,,,,,,,,,,,,,,,0,0,0,0,0,0,0,0,0,0,0,0,0,0,0,0,,,,,,,,,,,
766800,1744863166399,0.0,135,,-0.21,-0.13,1.11,1,0,-1,1.14,1.21,95,3008,3.8,3.8,,13.2,1.026,70.0,,32.0,5,,,,,,,,,,,,0,0,0,0,0,0,0,0,0,0,0,0,0,0,0,0,,,,,0.0,,,,,,
766820,1744863166419,,,,,,,,,,,,,,,,,,,,,,,,,,,,,,,,,,0,0,0,0,0,0,0,0,0,0,0,0,0,0,0,0,,,,,,,,,,,
766840,1744863166439,0.0,135,,-0.2,-0.15,1.16,1,0,-1,1.19,1.21,98,2987,3.9,3.82,,13.2,1.026,70.0,,31.8,5,0,0,0,0,0.0,0.0,0.0,0.0,2.25,,,0,0,0,0,0,0,0,0,0,0,0,0,0,0,0,0,0,,,,0.0,38.985832,-76.950859,0.05,35,3,0.8
766860,1744863166459,,,,,,,,,,,,,,,,,,,,,,,,,,,,,,,,,,0,0,0,0,0,0,0,0,0,0,0,0,0,0,0,0,,,,,,,,,,,
766880,1744863166479,0.0,135,,-0.18,-0.16,1.21,1,0,-1,1.23,1.23,100,2987,3.9,3.82,,13.2,1.024,70.0,,31.8,5,,,,,,,,,,,,0,0,0,0,0,0,0,0,0,0,0,0,0,0,0,0,,,,,0.0,,,,,,
766900,1744863166499,,,,,,,,,,,,,,,,,,,,,,,,,,,,,,,,,,0,0,0,0,0,0,0,0,0,0,0,0,0,0,0,0,,,,,,,,,,,
766920,1744863166519,0.0,135,,-0.18,-0.16,1.24,1,0,-1,1.26,1.26,100,3011,3.9,3.78,,13.21,1.026,70.0,,32.5,5,,,,,,,,,,,,0,0,0,0,0,0,0,0,0,0,0,0,0,0,0,0,,,,,0.0,,,,,,
766940,1744863166539,,,,,,,,,,,,,,,,,,,,,,,0,0,0,0,0.0,0.0,0.0,0.0,2.24,,,0,0,0,0,0,0,0,0,0,0,0,0,0,0,0,0,0,,,,,38.985832,-76.950859,0.04,35,3,0.8
766960,1744863166559,0.0,135,,-0.18,-0.15,1.27,1,0,-1,1.29,1.29,100,3007,3.9,3.78,,13.19,1.022,70.0,,32.5,5,,,,,,,,,,,,0,0,0,0,0,0,0,0,0,0,0,0,0,0,0,0,,,,,0.0,,,,,,
766980,1744863166579,,,,,,,,,,,,,,,,,,,,,,,,,,,,,,,,,,0,0,0,0,0,0,0,0,0,0,0,0,0,0,0,0,,,,,,,,,,,
767000,1744863166599,0.0,135,,-0.18,-0.13,1.29,1,0,-1,1.31,1.31,100,3039,3.9,3.8,,13.12,1.016,70.0,,32.5,5,,,,,,,,,,,,0,0,0,0,0,0,0,0,0,0,0,0,0,0,0,0,,,,,0.0,,,,,,
767020,1744863166619,,,,,,,,,,,,,,,,,,,,,,,,,,,,,,,,,,0,0,0,0,0,0,0,0,0,0,0,0,0,0,0,0,,,,,,,,,,,
767040,1744863166639,0.0,135,,-0.19,-0.12,1.31,1,0,-0,1.32,1.32,100,3006,3.9,3.78,,13.12,1.016,70.0,,32.2,5,0,0,0,0,0.0,0.0,0.0,0.0,2.26,,,0,0,0,0,0,0,0,0,0,0,0,0,0,0,0,0,0,,,,0.0,38.985832,-76.950859,0.08,35,3,0.8
767060,1744863166659,,,,,,,,,,,,,,,,,,,,,,,,,,,,,,,,,,0,0,0,0,0,0,0,0,0,0,0,0,0,0,0,0,,,,,,,,,,,
767080,1744863166679,0.0,135,,-0.19,-0.11,1.33,1,0,-0,1.35,1.35,100,3006,3.9,3.78,,13.15,1.012,70.0,,32.2,5,,,,,,,,,,,,0,0,0,0,0,0,0,0,0,0,0,0,0,0,0,0,,,,,0.0,,,,,,
767100,1744863166699,,,,,,,,,,,,,,,,,,,,,,,,,,,,,,,,,,0,0,0,0,0,0,0,0,0,0,0,0,0,0,0,0,,,,,,,,,,,
767120,1744863166719,0.0,135,,-0.19,-0.11,1.35,1,0,-0,1.37,1.37,100,2966,3.9,3.82,,13.17,1.026,70.0,,32.0,5,,,,,,,,,,,,0,0,0,0,0,0,0,0,0,0,0,0,0,0,0,0,,,,,0.0,,,,,,
767140,1744863166739,,,,,,,,,,,,,,,,,,,,,,,0,0,0,0,0.0,0.0,0.0,0.0,2.26,,,0,0,0,0,0,0,0,0,0,0,0,0,0,0,0,0,0,,,,,38.985832,-76.950859,0.0,35,3,0.8
767160,1744863166759,0.0,135,,-0.19,-0.12,1.37,1,0,-0,1.39,1.39,100,2941,3.9,3.84,,13.2,1.032,70.0,,32.0,5,,,,,,,,,,,,0,0,0,0,0,0,0,0,0,0,0,0,0,0,0,0,,,,,0.0,,,,,,
767180,1744863166779,,,,,,,,,,,,,,,,,,,,,,,,,,,,,,,,,,0,0,0,0,0,0,0,0,0,0,0,0,0,0,0,0,,,,,,,,,,,
767200,1744863166799,0.0,135,,-0.19,-0.13,1.4,1,0,-0,1.41,1.41,100,3020,3.8,3.82,,13.16,1.031,70.0,,32.0,5,,,,,,,,,,,,0,0,0,0,0,0,0,0,0,0,0,0,0,0,0,0,,,,,0.0,,,,,,
767220,1744863166819,,,,,,,,,,,,,,,,,,,,,,,,,,,,,,,,,,0,0,0,0,0,0,0,0,0,0,0,0,0,0,0,0,,,,,,,,,,,
767240,1744863166839,0.0,135,14.05,-0.18,-0.13,1.41,1,0,-0,1.43,1.43,100,3021,3.7,3.82,15,13.16,1.031,70.0,178,31.6,5,0,0,0,0,0.0,0.0,0.0,0.0,2.26,0,0.0,0,0,0,0,0,0,0,0,0,0,0,0,0,0,0,0,0,0.0,0,0,0.0,38.985832,-76.950859,0.04,35,3,0.8
767260,1744863166859,,,,,,,,,,,,,,,,,,,,,,,,,,,,,,,,,,0,0,0,0,0,0,0,0,0,0,0,0,0,0,0,0,,,,,,,,,,,
767280,1744863166879,0.0,135,,-0.18,-0.14,1.43,1,0,-0,1.45,1.45,100,3021,3.7,3.82,,13.15,1.027,70.0,,31.6,5,,,,,,,,,,,,0,0,0,0,0,0,0,0,0,0,0,0,0,0,0,0,,,,,0.0,,,,,,
767300,1744863166899,,,,,,,,,,,,,,,,,,,,,,,,,,,,,,,,,,0,0,0,0,0,0,0,0,0,0,0,0,0,0,0,0,,,,,,,,,,,
767320,1744863166919,0.0,135,,-0.19,-0.13,1.42,1,0,-0,1.44,1.45,100,3015,3.8,3.79,,13.12,1.026,70.0,,33.0,5,,,,,,,,,,,,0,0,0,0,0,0,0,0,0,0,0,0,0,0,0,0,,,,,0.0,,,,,,
767340,1744863166939,,,,,,,,,,,,,,,,,,,,,,,0,0,0,0,0.0,0.0,0.0,0.0,2.26,,,0,0,0,0,0,0,0,0,0,0,0,0,0,0,0,0,0,,,,,38.985832,-76.950859,0.08,35,3,0.8
767360,1744863166959,0.0,135,,-0.2,-0.12,1.37,1,0,-1,1.39,1.45,96,3085,3.8,3.79,,13.12,1.018,70.0,,33.0,5,,,,,,,,,,,,0,0,0,0,0,0,0,0,0,0,0,0,0,0,0,0,,,,,0.0,,,,,,
767380,1744863166979,,,,,,,,,,,,,,,,,,,,,,,,,,,,,,,,,,0,0,0,0,0,0,0,0,0,0,0,0,0,0,0,0,,,,,,,,,,,
767400,1744863166999,0.0,135,,-0.21,-0.13,1.29,1,0,-1,1.31,1.45,91,3079,3.8,3.78,,13.08,1.017,70.0,,33.0,5,,,,,,,,,,,,0,0,0,0,0,0,0,0,0,0,0,0,0,0,0,0,,,,,0.0,,,,,,
767420,1744863167010,,,,,,,,,,,,,,,,,,,,,,,,,,,,,,,,,,0,0,0,0,0,0,0,0,0,0,0,0,0,0,0,0,,,,,,,,,,,
767440,1744863167030,0.0,135,,-0.2,-0.12,1.17,1,0,-1,1.2,1.45,83,3076,3.9,3.8,,13.08,1.017,70.0,,32.7,5,0,0,0,0,0.0,0.0,0.0,0.0,2.26,,,0,0,0,0,0,0,0,0,0,0,0,0,0,0,0,0,0,,,,0.0,38.985832,-76.950859,0.07,35,3,0.8
767460,1744863167050,,,,,,,,,,,,,,,,,,,,,,,,,,,,,,,,,,0,0,0,0,0,0,0,0,0,0,0,0,0,0,0,0,,,,,,,,,,,
767480,1744863167070,0.0,135,,-0.18,-0.07,1.09,1,-0,-1,1.11,1.45,76,3076,3.9,3.8,,13.04,1.026,70.0,,32.7,5,,,,,,,,,,,,0,0,0,0,0,0,0,0,0,0,0,0,0,0,0,0,,,,,0.0,,,,,,
767500,1744863167090,,,,,,,,,,,,,,,,,,,,,,,,,,,,,,,,,,0,0,0,0,0,0,0,0,0,0,0,0,0,0,0,0,,,,,,,,,,,
767520,1744863167110,0.0,135,,-0.15,-0.03,1.08,0,-0,-0,1.09,1.45,75,3092,3.9,3.78,,13.08,1.041,70.0,,33.4,5,,,,,,,,,,,,0,0,0,0,0,0,0,0,0,0,0,0,0,0,0,0,,,,,0.0,,,,,,
767540,1744863167130,,,,,,,,,,,,,,,,,,,,,,,0,0,0,0,0.0,0.0,0.0,0.0,2.26,,,0,0,0,0,0,0,0,0,0,0,0,0,0,0,0,0,0,,,,,38.985832,-76.950859,0.11,35,3,0.8
767560,1744863167150,0.0,135,,-0.13,-0.02,1.1,0,-0,0,1.11,1.45,77,3090,3.9,3.8,,13.09,1.058,70.0,,33.4,5,,,,,,,,,,,,0,0,0,0,0,0,0,0,0,0,0,0,0,0,0,0,,,,,0.0,,,,,,
767580,1744863167170,,,,,,,,,,,,,,,,,,,,,,,,,,,,,,,,,,0,0,0,0,0,0,0,0,0,0,0,0,0,0,0,0,,,,,,,,,,,
767600,1744863167198,0.0,135,,-0.11,-0.03,1.14,0,-0,0,1.15,1.45,79,3065,4.0,3.77,,13.05,1.059,70.0,,33.4,5,,,,,,,,,,,,0,0,0,0,0,0,0,0,0,0,0,0,0,0,0,0,,,,,0.0,,,,,,
767620,1744863167218,,,,,,,,,,,,,,,,,,,,,,,,,,,,,,,,,,0,0,0,0,0,0,0,0,0,0,0,0,0,0,0,0,,,,,,,,,,,
767640,1744863167238,0.0,135,,-0.11,-0.07,1.19,0,-0,0,1.19,1.45,83,3038,3.9,3.8,,13.05,1.059,70.0,,33.1,5,0,0,0,0,0.0,0.0,0.0,0.0,2.26,,,0,0,0,0,0,0,0,0,0,0,0,0,0,0,0,0,0,,,,0.0,38.985832,-76.950859,0.05,35,3,0.8
767660,1744863167258,,,,,,,,,,,,,,,,,,,,,,,,,,,,,,,,,,0,0,0,0,0,0,0,0,0,0,0,0,0,0,0,0,,,,,,,,,,,
767680,1744863167278,0.0,135,,-0.11,-0.07,1.23,0,-0,0,1.24,1.45,86,3038,3.9,3.8,,13.05,1.057,70.0,,33.1,5,,,,,,,,,,,,0,0,0,0,0,0,0,0,0,0,0,0,0,0,0,0,,,,,0.0,,,,,,
767700,1744863167298,,,,,,,,,,,,,,,,,,,,,,,,,,,,,,,,,,0,0,0,0,0,0,0,0,0,0,0,0,0,0,0,0,,,,,,,,,,,
767720,1744863167318,0.0,135,,-0.12,-0.06,1.25,0,0,0,1.26,1.45,87,3047,3.8,3.8,,13.09,1.045,70.0,,33.0,5,,,,,,,,,,,,0,0,0,0,0,0,0,0,0,0,0,0,0,0,0,0,,,,,0.0,,,,,,
767740,1744863167338,,,,,,,,,,,,,,,,,,,,,,,0,0,0,0,0.0,0.0,0.0,0.0,2.26,,,0,0,0,0,0,0,0,0,0,0,0,0,0,0,0,0,0,,,,,38.985832,-76.950859,0.11,35,3,0.8
767760,1744863167358,0.0,135,,-0.13,-0.07,1.21,0,0,-0,1.22,1.45,85,3131,3.8,3.8,,13.05,1.035,70.0,,33.0,5,,,,,,,,,,,,0,0,0,0,0,0,0,0,0,0,0,0,0,0,0,0,,,,,0.0,,,,,,
767780,1744863167378,,,,,,,,,,,,,,,,,,,,,,,,,,,,,,,,,,0,0,0,0,0,0,0,0,0,0,0,0,0,0,0,0,,,,,,,,,,,
767800,1744863167398,0.0,135,,-0.13,-0.08,1.1,1,-0,-0,1.11,1.45,77,3079,3.7,3.76,,13.01,1.037,70.0,,33.0,5,,,,,,,,,,,,0,0,0,0,0,0,0,0,0,0,0,0,0,0,0,0,,,,,0.0,,,,,,
767820,1744863167418,,,,,,,,,,,,,,,,,,,,,,,,,,,,,,,,,,0,0,0,0,0,0,0,0,0,0,0,0,0,0,0,0,,,,,,,,,,,
767840,1744863167438,0.0,135,,-0.1,-0.02,1.02,0,-0,-0,1.03,1.45,71,3093,3.7,3.77,,13.01,1.037,70.0,,33.6,5,0,0,0,0,0.0,0.0,0.0,0.0,2.26,,,0,0,0,0,0,0,0,0,0,0,0,0,0,0,0,0,0,,,,0.0,38.985832,-76.950859,0.04,35,3,0.8
767860,1744863167458,,,,,,,,,,,,,,,,,,,,,,,,,,,,,,,,,,0,0,0,0,0,0,0,0,0,0,0,0,0,0,0,0,,,,,,,,,,,
767880,1744863167478,0.0,135,,-0.08,-0.01,1.06,-0,-0,0,1.06,1.45,73,3093,3.7,3.77,,13.05,1.033,70.0,,33.6,5,,,,,,,,,,,,0,0,0,0,0,0,0,0,0,0,0,0,0,0,0,0,,,,,0.0,,,,,,
767900,1744863167498,,,,,,,,,,,,,,,,,,,,,,,,,,,,,,,,,,0,0,0,0,0,0,0,0,0,0,0,0,0,0,0,0,,,,,,,,,,,
767920,1744863167518,0.0,135,,-0.07,-0.04,1.11,0,-0,0,1.12,1.45,77,3140,3.8,3.75,,13.03,1.036,70.0,,33.5,5,,,,,,,,,,,,0,0,0,0,0,0,0,0,0,0,0,0,0,0,0,0,,,,,0.0,,,,,,
767940,1744863167538,,,,,,,,,,,,,,,,,,,,,,,0,0,0,0,0.0,0.0,0.0,0.0,2.26,,,0,0,0,0,0,0,0,0,0,0,0,0,0,0,0,0,0,,,,,38.985832,-76.950859,0.13,35,3,0.8
767960,1744863167558,0.0,135,,-0.07,-0.05,1.16,0,-0,0,1.17,1.45,81,3081,3.8,3.78,,13.01,1.045,70.0,,33.5,5,,,,,,,,,,,,0,0,0,0,0,0,0,0,0,0,0,0,0,0,0,0,,,,,0.0,,,,,,
767980,1744863167578,,,,,,,,,,,,,,,,,,,,,,,,,,,,,,,,,,0,0,0,0,0,0,0,0,0,0,0,0,0,0,0,0,,,,,,,,,,,
768000,1744863167596,0.0,135,,-0.07,-0.06,1.21,0,-0,0,1.21,1.45,84,3017,3.9,3.76,,13.11,1.056,70.0,,33.5,5,,,,,,,,,,,,0,0,0,0,0,0,0,0,0,0,0,0,0,0,0,0,,,,,0.0,,,,,,
768020,1744863167616,,,,,,,,,,,,,,,,,,,,,,,,,,,,,,,,,,0,0,0,0,0,0,0,0,0,0,0,0,0,0,0,0,,,,,,,,,,,
768040,1744863167636,0.0,135,,-0.09,-0.05,1.24,0,0,0,1.25,1.45,86,3011,3.9,3.76,,13.11,1.056,70.0,,32.4,5,0,0,0,0,0.0,0.0,0.0,0.0,2.26,,,0,0,0,0,0,0,0,0,0,0,0,0,0,0,0,0,0,,,,0.0,38.985832,-76.950859,0.06,35,3,0.8
768060,1744863167656,,,,,,,,,,,,,,,,,,,,,,,,,,,,,,,,,,0,0,0,0,0,0,0,0,0,0,0,0,0,0,0,0,,,,,,,,,,,
768080,1744863167676,0.0,135,,-0.1,-0.04,1.27,0,0,0,1.27,1.45,88,3011,3.9,3.76,,13.12,1.056,70.0,,32.4,5,,,,,,,,,,,,0,0,0,0,0,0,0,0,0,0,0,0,0,0,0,0,,,,,0.0,,,,,,
768100,1744863167698,,,,,,,,,,,,,,,,,,,,,,,,,,,,,,,,,,0,0,0,0,0,0,0,0,0,0,0,0,0,0,0,0,,,,,,,,,,,
768120,1744863167718,0.0,135,,-0.12,-0.04,1.3,0,0,0,1.3,1.45,90,3029,3.9,3.82,,13.09,1.038,70.0,,32.1,5,,,,,,,,,,,,0,0,0,0,0,0,0,0,0,0,0,0,0,0,0,0,,,,,0.0,,,,,,
768140,1744863167738,,,,,,,,,,,,,,,,,,,,,,,0,0,0,0,0.0,0.0,0.0,0.0,2.26,,,0,0,0,0,0,0,0,0,0,0,0,0,0,0,0,0,0,,,,,38.985832,-76.950859,0.0,35,3,0.8
768160,1744863167758,0.0,135,,-0.13,-0.04,1.31,0,0,0,1.32,1.45,91,3032,3.9,3.8,,13.09,1.025,70.0,,32.1,5,,,,,,,,,,,,0,0,0,0,0,0,0,0,0,0,0,0,0,0,0,0,,,,,0.0,,,,,,
768180,1744863167778,,,,,,,,,,,,,,,,,,,,,,,,,,,,,,,,,,0,0,0,0,0,0,0,0,0,0,0,0,0,0,0,0,,,,,,,,,,,
768200,1744863167796,0.0,135,,-0.15,-0.04,1.31,0,0,0,1.32,1.45,91,2988,3.9,3.81,,13.13,1.022,70.0,,32.1,5,,,,,,,,,,,,0,0,0,0,0,0,0,0,0,0,0,0,0,0,0,0,,,,,0.0,,,,,,
768220,1744863167816,,,,,,,,,,,,,,,,,,,,,,,,,,,,,,,,,,0,0,0,0,0,0,0,0,0,0,0,0,0,0,0,0,,,,,,,,,,,
768240,1744863167836,0.0,135,14.06,-0.16,-0.04,1.3,0,0,-0,1.31,1.45,90,3021,3.9,3.81,15,13.13,1.022,70.0,178,32.8,5,0,0,0,0,0.0,0.0,0.0,0.0,2.26,0,0.0,0,0,0,0,0,0,0,0,0,0,0,0,0,0,0,0,0,0.0,0,0,0.0,38.985832,-76.950859,0.04,35,3,0.8
768260,1744863167856,,,,,,,,,,,,,,,,,,,,,,,,,,,,,,,,,,0,0,0,0,0,0,0,0,0,0,0,0,0,0,0,0,,,,,,,,,,,
768280,1744863167876,0.0,135,,-0.18,-0.04,1.26,0,0,-0,1.27,1.45,88,3021,3.9,3.81,,13.11,1.018,70.0,,32.8,5,,,,,,,,,,,,0,0,0,0,0,0,0,0,0,0,0,0,0,0,0,0,,,,,0.0,,,,,,
768300,1744863167897,,,,,,,,,,,,,,,,,,,,,,,,,,,,,,,,,,0,0,0,0,0,0,0,0,0,0,0,0,0,0,0,0,,,,,,,,,,,
768320,1744863167917,0.0,135,,-0.19,-0.07,1.22,0,0,-0,1.24,1.45,86,3031,4.2,3.84,,13.15,1.024,70.0,,32.3,5,,,,,,,,,,,,0,0,0,0,0,0,0,0,0,0,0,0,0,0,0,0,,,,,0.0,,,,,,
768340,1744863167937,,,,,,,,,,,,,,,,,,,,,,,0,0,0,0,0.0,0.0,0.0,0.0,2.26,,,0,0,0,0,0,0,0,0,0,0,0,0,0,0,0,0,0,,,,,38.985832,-76.950859,0.13,35,3,0.8
768360,1744863167957,0.0,135,,-0.2,-0.09,1.15,0,0,-1,1.18,1.45,81,3014,4.5,3.85,,13.15,1.026,70.0,,32.3,5,,,,,,,,,,,,0,0,0,0,0,0,0,0,0,0,0,0,0,0,0,0,,,,,0.0,,,,,,
768380,1744863167977,,,,,,,,,,,,,,,,,,,,,,,,,,,,,,,,,,0,0,0,0,0,0,0,0,0,0,0,0,0,0,0,0,,,,,,,,,,,
768400,1744863167997,0.0,135,,-0.21,-0.1,1.08,1,0,-1,1.11,1.45,77,2996,5.1,3.86,,13.24,1.029,70.0,,32.3,5,,,,,,,,,,,,0,0,0,0,0,0,0,0,0,0,0,0,0,0,0,0,,,,,0.0,,,,,,
768420,1744863168009,,,,,,,,,,,,,,,,,,,,,,,,,,,,,,,,,,0,0,0,0,0,0,0,0,0,0,0,0,0,0,0,0,,,,,,,,,,,
768440,1744863168029,0.0,135,,-0.2,-0.08,0.99,1,0,-1,1.02,1.45,70,3107,6.3,3.92,,13.24,1.029,70.0,,32.4,5,0,0,0,0,0.0,0.0,0.0,0.0,2.26,,,0,0,0,0,0,0,0,0,0,0,0,0,0,0,0,0,0,,,,0.0,38.985832,-76.950859,0.11,35,3,0.8
768460,1744863168049,,,,,,,,,,,,,,,,,,,,,,,,,,,,,,,,,,0,0,0,0,0,0,0,0,0,0,0,0,0,0,0,0,,,,,,,,,,,
768480,1744863168069,0.0,135,,-0.17,-0.03,0.94,0,-0,-1,0.96,1.45,66,3107,6.3,3.92,,13.29,1.036,70.0,,32.4,5,,,,,,,,,,,,0,0,0,0,0,0,0,0,0,0,0,0,0,0,0,0,,,,,0.0,,,,,,
768500,1744863168093,,,,,,,,,,,,,,,,,,,,,,,,,,,,,,,,,,0,0,0,0,0,0,0,0,0,0,0,0,0,0,0,0,,,,,,,,,,,
768520,1744863168113,0.0,135,,-0.16,-0.05,0.99,0,-0,-0,1.0,1.45,69,3154,7.0,3.94,,13.25,1.04,70.0,,33.8,5,,,,,,,,,,,,0,0,0,0,0,0,0,0,0,0,0,0,0,0,0,0,,,,,0.0,,,,,,
768540,1744863168133,,,,,,,,,,,,,,,,,,,,,,,0,0,0,0,0.0,0.0,0.0,0.0,2.26,,,0,0,0,0,0,0,0,0,0,0,0,0,0,0,0,0,0,,,,,38.985832,-76.950859,0.12,35,3,0.8
768560,1744863168153,0.0,135,,-0.15,-0.05,1.05,0,-0,-0,1.06,1.45,73,3174,7.1,3.94,,13.25,1.044,70.0,,33.8,5,,,,,,,,,,,,0,0,0,0,0,0,0,0,0,0,0,0,0,0,0,0,,,,,0.0,,,,,,
768580,1744863168173,,,,,,,,,,,,,,,,,,,,,,,,,,,,,,,,,,0,0,0,0,0,0,0,0,0,0,0,0,0,0,0,0,,,,,,,,,,,
768600,1744863168197,0.0,135,,-0.14,-0.01,0.96,1,-0,-1,0.97,1.45,67,3244,7.2,3.95,,13.32,1.054,70.0,,33.8,5,,,,,,,,,,,,0,0,0,0,0,0,0,0,0,0,0,0,0,0,0,0,,,,,0.0,,,,,,
768620,1744863168217,,,,,,,,,,,,,,,,,,,,,,,,,,,,,,,,,,0,0,0,0,0,0,0,0,0,0,0,0,0,0,0,0,,,,,,,,,,,
768640,1744863168237,0.0,135,,-0.12,-0.01,0.97,0,-0,-0,0.98,1.45,68,3269,7.2,3.94,,13.32,1.054,70.0,,34.5,5,0,0,0,0,0.0,0.0,0.0,0.0,2.26,,,0,0,0,0,0,0,0,0,0,0,0,0,0,0,0,0,0,,,,0.0,38.985832,-76.950859,0.08,35,3,0.8
768660,1744863168257,,,,,,,,,,,,,,,,,,,,,,,,,,,,,,,,,,0,0,0,0,0,0,0,0,0,0,0,0,0,0,0,0,,,,,,,,,,,
768680,1744863168277,0.0,135,,-0.12,-0.05,1.04,0,-0,-0,1.05,1.45,73,3269,7.2,3.94,,13.28,1.059,70.0,,34.5,5,,,,,,,,,,,,0,0,0,0,0,0,0,0,0,0,0,0,0,0,0,0,,,,,0.0,,,,,,
768700,1744863168297,,,,,,,,,,,,,,,,,,,,,,,,,,,,,,,,,,0,0,0,0,0,0,0,0,0,0,0,0,0,0,0,0,,,,,,,,,,,
768720,1744863168317,0.0,135,,-0.11,-0.02,0.98,0,-0,-0,0.99,1.45,68,3204,7.3,3.95,,13.29,1.065,70.0,,35.2,5,,,,,,,,,,,,0,0,0,0,0,0,0,0,0,0,0,0,0,0,0,0,,,,,0.0,,,,,,
768740,1744863168337,,,,,,,,,,,,,,,,,,,,,,,0,0,0,0,0.0,0.0,0.0,0.0,2.26,,,0,0,0,0,0,0,0,0,0,0,0,0,0,0,0,0,0,,,,,38.985832,-76.950859,0.0,35,3,0.8
768760,1744863168357,0.0,135,,-0.1,-0.02,0.98,0,-0,0,0.98,1.45,68,3277,7.3,3.95,,13.32,1.068,70.0,,35.2,5,,,,,,,,,,,,0,0,0,0,0,0,0,0,0,0,0,0,0,0,0,0,,,,,0.0,,,,,,
768780,1744863168377,,,,,,,,,,,,,,,,,,,,,,,,,,,,,,,,,,0,0,0,0,0,0,0,0,0,0,0,0,0,0,0,0,,,,,,,,,,,
768800,1744863168397,0.0,135,,-0.11,-0.08,1.05,0,-0,0,1.06,1.45,73,3270,7.2,3.95,,13.29,1.061,70.0,,35.2,5,,,,,,,,,,,,0,0,0,0,0,0,0,0,0,0,0,0,0,0,0,0,,,,,0.0,,,,,,
768820,1744863168417,,,,,,,,,,,,,,,,,,,,,,,,,,,,,,,,,,0,0,0,0,0,0,0,0,0,0,0,0,0,0,0,0,,,,,,,,,,,
768840,1744863168437,0.0,135,,-0.1,-0.07,0.98,0,-0,-0,0.98,1.45,68,3215,7.2,3.95,,13.29,1.061,70.0,,35.4,5,0,0,0,0,0.0,0.0,0.0,0.0,2.26,,,0,0,0,0,0,0,0,0,0,0,0,0,0,0,0,0,0,,,,0.0,38.985832,-76.950859,0.45,35,3,0.8
768860,1744863168457,,,,,,,,,,,,,,,,,,,,,,,,,,,,,,,,,,0,0,0,0,0,0,0,0,0,0,0,0,0,0,0,0,,,,,,,,,,,
768880,1744863168477,0.0,135,,-0.08,-0.01,0.98,-0,-0,0,0.98,1.45,68,3215,7.2,3.95,,13.32,1.066,70.0,,35.4,5,,,,,,,,,,,,0,0,0,0,0,0,0,0,0,0,0,0,0,0,0,0,,,,,0.0,,,,,,
768900,1744863168497,,,,,,,,,,,,,,,,,,,,,,,,,,,,,,,,,,0,0,0,0,0,0,0,0,0,0,0,0,0,0,0,0,,,,,,,,,,,
768920,1744863168517,0.0,135,,-0.1,-0.08,1.05,0,-0,0,1.06,1.45,73,3271,7.2,3.95,,13.32,1.05,70.0,,35.1,5,,,,,,,,,,,,0,0,0,0,0,0,0,0,0,0,0,0,0,0,0,0,,,,,0.0,,,,,,
768940,1744863168537,,,,,,,,,,,,,,,,,,,,,,,0,0,0,0,0.0,0.0,0.0,0.0,2.26,,,0,0,0,0,0,0,0,0,0,0,0,0,0,0,0,0,0,,,,,38.985832,-76.950859,0.55,35,3,0.8
768960,1744863168557,0.0,135,,-0.09,-0.05,0.98,1,-0,-0,0.98,1.45,68,3262,7.5,3.96,,13.32,1.047,70.0,,35.1,5,,,,,,,,,,,,0,0,0,0,0,0,0,0,0,0,0,0,0,0,0,0,,,,,0.0,,,,,,
768980,1744863168577,,,,,,,,,,,,,,,,,,,,,,,,,,,,,,,,,,0,0,0,0,0,0,0,0,0,0,0,0,0,0,0,0,,,,,,,,,,,
769000,1744863168597,0.0,135,,-0.08,-0.0,0.94,0,-0,0,0.95,1.45,66,3176,7.8,3.96,,13.37,1.039,70.0,,35.1,5,,,,,,,,,,,,0,0,0,0,0,0,0,0,0,0,0,0,0,0,0,0,,,,,0.0,,,,,,
769020,1744863168617,,,,,,,,,,,,,,,,,,,,,,,,,,,,,,,,,,0,0,0,0,0,0,0,0,0,0,0,0,0,0,0,0,,,,,,,,,,,
769040,1744863168637,0.0,135,,-0.09,-0.06,1.02,0,-0,0,1.02,1.45,71,3254,8.0,3.97,,13.37,1.039,70.0,,34.5,5,0,0,0,0,0.0,0.0,0.0,0.0,2.26,,,0,0,0,0,0,0,0,0,0,0,0,0,0,0,0,0,0,,,,0.0,38.985832,-76.950859,0.34,35,3,0.8
769060,1744863168657,,,,,,,,,,,,,,,,,,,,,,,,,,,,,,,,,,0,0,0,0,0,0,0,0,0,0,0,0,0,0,0,0,,,,,,,,,,,
769080,1744863168677,0.0,135,,-0.09,-0.07,1.01,0,-0,-0,1.02,1.45,70,3254,8.0,3.97,,13.39,1.042,70.0,,34.5,5,,,,,,,,,,,,0,0,0,0,0,0,0,0,0,0,0,0,0,0,0,0,,,,,0.0,,,,,,
769100,1744863168699,,,,,,,,,,,,,,,,,,,,,,,,,,,,,,,,,,0,0,0,0,0,0,0,0,0,0,0,0,0,0,0,0,,,,,,,,,,,
769120,1744863168719,0.0,135,,-0.07,0.0,0.96,-0,-0,0,0.96,1.45,67,3244,8.5,3.99,,13.43,1.053,70.0,,35.4,5,,,,,,,,,,,,0,0,0,0,0,0,0,0,0,0,0,0,0,0,0,0,,,,,0.0,,,,,,
769140,1744863168739,,,,,,,,,,,,,,,,,,,,,,,0,0,0,0,0.0,0.0,0.0,0.0,2.26,,,0,0,0,0,0,0,0,0,0,0,0,0,0,0,0,0,0,,,,,38.985832,-76.950859,0.2,35,3,0.8
769160,1744863168759,0.0,135,,-0.09,-0.08,1.03,0,-0,0,1.04,1.45,72,3291,8.7,3.98,,13.41,1.043,70.0,,35.4,5,,,,,,,,,,,,0,0,0,0,0,0,0,0,0,0,0,0,0,0,0,0,,,,,0.0,,,,,,
769180,1744863168779,,,,,,,,,,,,,,,,,,,,,,,,,,,,,,,,,,0,0,0,0,0,0,0,0,0,0,0,0,0,0,0,0,,,,,,,,,,,
769200,1744863168799,0.0,135,,-0.07,-0.0,0.93,0,-0,0,0.94,1.45,65,3376,9.1,4.0,,13.41,1.036,70.0,,35.4,5,,,,,,,,,,,,0,0,0,0,0,0,0,0,0,0,0,0,0,0,0,0,,,,,0.0,,,,,,
769220,1744863168819,,,,,,,,,,,,,,,,,,,,,,,,,,,,,,,,,,0,0,0,0,0,0,0,0,0,0,0,0,0,0,0,0,,,,,,,,,,,
769240,1744863168839,0.0,135,14.03,-0.1,-0.06,1.02,-0,-0,0,1.03,1.45,71,3341,10.6,4.04,15,13.41,1.036,70.0,178,36.4,5,0,0,0,0,0.0,0.0,0.0,0.0,2.26,0,0.0,0,0,0,0,0,0,0,0,0,0,0,0,0,0,0,0,0,0.0,0,0,0.0,38.985832,-76.950859,0.11,35,3,0.8
769260,1744863168859,,,,,,,,,,,,,,,,,,,,,,,,,,,,,,,,,,0,0,0,0,0,0,0,0,0,0,0,0,0,0,0,0,,,,,,,,,,,
769280,1744863168879,0.0,135,,-0.07,-0.01,0.93,0,-0,0,0.93,1.45,65,3341,10.6,4.04,,13.53,1.044,70.0,,36.4,5,,,,,,,,,,,,0,0,0,0,0,0,0,0,0,0,0,0,0,0,0,0,,,,,0.0,,,,,,
769300,1744863168898,,,,,,,,,,,,,,,,,,,,,,,,,,,,,,,,,,0,0,0,0,0,0,0,0,0,0,0,0,0,0,0,0,,,,,,,,,,,
769320,1744863168918,0.0,135,,-0.11,-0.09,1.02,0,-0,0,1.03,1.45,71,3381,12.2,4.08,,13.59,1.045,70.0,,36.5,5,,,,,,,,,,,,0,0,0,0,0,0,0,0,0,0,0,0,0,0,0,0,,,,,0.0,,,,,,
769340,1744863168938,,,,,,,,,,,,,,,,,,,,,,,0,0,0,0,0.0,0.0,0.0,0.0,2.26,,,0,0,0,0,0,0,0,0,0,0,0,0,0,0,0,0,0,,,,,38.985832,-76.950859,0.08,35,3,0.8
769360,1744863168958,0.0,135,,-0.07,0.05,0.98,-0,-0,0,0.99,1.45,68,3419,12.6,4.13,,13.63,1.05,70.0,,36.5,5,,,,,,,,,,,,0,0,0,0,0,0,0,0,0,0,0,0,0,0,0,0,,,,,0.0,,,,,,
769380,1744863168978,,,,,,,,,,,,,,,,,,,,,,,,,,,,,,,,,,0,0,0,0,0,0,0,0,0,0,0,0,0,0,0,0,,,,,,,,,,,
769400,1744863168998,0.0,135,,-0.08,-0.04,0.97,1,-0,-0,0.97,1.45,67,3556,12.9,4.14,,13.64,1.048,70.0,,36.5,5,,,,,,,,,,,,0,0,0,0,0,0,0,0,0,0,0,0,0,0,0,0,,,,,0.0,,,,,,
769420,1744863169008,,,,,,,,,,,,,,,,,,,,,,,,,,,,,,,,,,0,0,0,0,0,0,0,0,0,0,0,0,0,0,0,0,,,,,,,,,,,
769440,1744863169028,0.0,135,,-0.1,-0.04,1.03,1,-0,0,1.03,1.45,71,3612,13.7,4.15,,13.64,1.048,70.0,,38.3,5,0,0,0,0,0.0,0.0,0.0,0.0,2.26,,,0,0,0,0,0,0,0,0,0,0,0,0,0,0,0,0,0,,,,0.0,38.985832,-76.950859,0.05,35,3,0.8
769460,1744863169048,,,,,,,,,,,,,,,,,,,,,,,,,,,,,,,,,,0,0,0,0,0,0,0,0,0,0,0,0,0,0,0,0,,,,,,,,,,,
769480,1744863169068,0.0,135,,-0.09,-0.01,1.03,0,-0,0,1.03,1.45,71,3612,13.7,4.15,,13.57,1.057,70.0,,38.3,5,,,,,,,,,,,,0,0,0,0,0,0,0,0,0,0,0,0,0,0,0,0,,,,,0.0,,,,,,
769500,1744863169092,,,,,,,,,,,,,,,,,,,,,,,,,,,,,,,,,,0,0,0,0,0,0,0,0,0,0,0,0,0,0,0,0,,,,,,,,,,,
769520,1744863169112,0.0,135,,-0.09,-0.02,0.99,0,-0,0,0.99,1.45,69,3760,14.3,4.16,,13.55,1.064,70.0,,41.6,5,,,,,,,,,,,,0,0,0,0,0,0,0,0,0,0,0,0,0,0,0,0,,,,,0.0,,,,,,
769540,1744863169132,,,,,,,,,,,,,,,,,,,,,,,0,0,0,0,0.0,0.0,0.0,0.0,2.26,,,0,0,0,0,0,0,0,0,0,0,0,0,0,0,0,0,0,,,,,38.985832,-76.950859,0.05,35,3,0.8
769560,1744863169152,0.0,135,,-0.09,-0.05,0.95,0,-0,-0,0.96,1.45,66,3821,14.9,4.13,,13.55,1.084,70.0,,41.6,5,,,,,,,,,,,,0,0,0,0,0,0,0,0,0,0,0,0,0,0,0,0,,,,,0.0,,,,,,
