"Interval"|"ms"|0|0|1,"Utc"|"ms"|0|0|1,"FrontBP"|"psi"|-5.0|5.0|25,"SteerAng"|"Degrees"|-145|145|25,"Battery"|"Volts"|-5.0|20.0|1,"AccelX"|"G"|-3.0|3.0|25,"AccelY"|"G"|-3.0|3.0|25,"AccelZ"|"G"|-3.0|3.0|25,"Yaw"|"Deg/Sec"|-120|120|25,"Pitch"|"Deg/Sec"|-120|120|25,"Roll"|"Deg/Sec"|-120|120|25,"Gsum"|"G"|0.0|3.0|25,"GsumMax"|"G"|0.0|3.0|25,"GsumPct"|"%"|0|100|25,"RPM"|""|0|10000|25,"TPS"|"%"|0.0|100.0|25,"InjectorPW"|"ms"|0.0|100.0|25,"Baro"|"kPa"|0|105|1,"MAP"|"Psi"|0.0|255.0|25,"Lambda"|""|-2.0|2.0|25,"IAT"|"C"|0.0|200.0|25,"EngineTemp"|"C"|0|200|1,"EOP"|"PSI"|0.0|152.0|25,"EOT"|"F"|0|250|25,"WSFR"|"MPH"|0|150|10,"WSFL"|"MPH"|0|100|10,"WSRR"|"MPH"|0|100|10,"WSRL"|""|0|100|10,"TCSet"|"%"|0.0|100.0|10,"TCSlip"|"%"|0.0|100.0|10,"TCComp"|"deg"|0.0|50.0|10,"TCCut"|"%"|0.0|100.0|10,"Analog8"|""|0.0|5.0|10,"OilTemp"|"F"|0|300|1,"AA_On"|""|0.0|1.0|1,"ThermLF1"|"C"|0|400|50,"ThermLF2"|"C"|0|400|50,"ThermRR1"|"C"|0|400|50,"ThermRR2"|"C"|0|400|50,"ThermLF3"|"C"|0|400|50,"ThermLF4"|"C"|0|400|50,"ThermLF5"|"C"|0|400|50,"ThermLF6"|"C"|0|400|50,"ThermLF7"|"C"|0|400|50,"ThermLF8"|"C"|0|400|50,"ThermRR3"|"C"|0|400|50,"ThermRR4"|"C"|0|400|50,"ThermRR5"|"C"|0|400|50,"ThermRR6"|"C"|0|400|50,"ThermRR7"|"C"|0|400|50,"ThermRR8"|"C"|0|400|50,"Gear"|""|1|6|10,"AA_On"|""|0.0|1.0|1,"AA_LowDrag"|""|0|1|1,"Fuel_Mix"|""|-10|10|1,"AA_Packages"|""|0.0|1000.0|25,"Latitude"|"Degrees"|-180.0|180.0|10,"Longitude"|"Degrees"|-180.0|180.0|10,"Speed"|"kph"|0.0|150.0|10,"GPSSats"|""|0|20|10,"GPSQual"|""|0|5|10,"GPSDOP"|""|0.0|20.0|10
965560,1744863365157,0.0,135,,-0.08,0.09,1.13,0,-0,1,1.13,1.13,100,4026,7.5,3.89,,12.61,1.121,68.2,,34.8,5,,,,,,,,,,,,0,0,0,0,0,0,0,0,0,0,0,0,0,0,0,0,,,,,0.0,,,,,,
965580,1744863365177,,,,,,,,,,,,,,,,,,,,,,,,,,,,,,,,,,0,0,0,0,0,0,0,0,0,0,0,0,0,0,0,0,,,,,,,,,,,
965600,1744863365198,0.0,135,,-0.11,-0.03,1.09,0,-0,0,1.1,1.13,97,4074,7.6,3.88,,12.61,1.121,68.2,,34.8,5,,,,,,,,,,,,0,0,0,0,0,0,0,0,0,0,0,0,0,0,0,0,,,,,0.0,,,,,,
965620,1744863365218,,,,,,,,,,,,,,,,,,,,,,,,,,,,,,,,,,0,0,0,0,0,0,0,0,0,0,0,0,0,0,0,0,,,,,,,,,,,
965640,1744863365238,0.0,135,,-0.09,0.02,1.09,1,-0,0,1.1,1.13,97,4074,7.6,3.88,,12.55,1.123,68.2,,34.8,5,0,2,0,0,0.0,0.0,0.0,0.0,2.25,,,0,0,0,0,0,0,0,0,0,0,0,0,0,0,0,0,0,,,,0.0,38.985832,-76.950859,0.04,35,3,0.8
965660,1744863365258,,,,,,,,,,,,,,,,,,,,,,,,,,,,,,,,,,0,0,0,0,0,0,0,0,0,0,0,0,0,0,0,0,,,,,,,,,,,
965680,1744863365278,0.0,135,,-0.11,0.01,1.12,-1,-0,1,1.13,1.13,99,4037,7.7,3.84,,12.59,1.127,68.2,,35.2,5,,,,,,,,,,,,0,0,0,0,0,0,0,0,0,0,0,0,0,0,0,0,,,,,0.0,,,,,,
965700,1744863365300,,,,,,,,,,,,,,,,,,,,,,,,,,,,,,,,,,0,0,0,0,0,0,0,0,0,0,0,0,0,0,0,0,,,,,,,,,,,
965720,1744863365320,0.0,135,,-0.12,-0.02,1.07,1,-0,0,1.07,1.13,95,4099,7.7,3.82,,12.53,1.134,68.2,,35.2,5,,,,,,,,,,,,0,0,0,0,0,0,0,0,0,0,0,0,0,0,0,0,,,,,0.0,,,,,,
965740,1744863365340,,,,,,,,,,,,,,,,,,,,,,,0,2,0,0,0.0,0.0,0.0,0.0,2.26,,,0,0,0,0,0,0,0,0,0,0,0,0,0,0,0,0,0,,,,,38.985832,-76.950859,0.05,35,3,0.8
965760,1744863365360,0.0,135,,-0.12,-0.0,1.09,-1,-0,1,1.1,1.13,97,4136,7.7,3.83,,12.48,1.141,68.2,,35.2,5,,,,,,,,,,,,0,0,0,0,0,0,0,0,0,0,0,0,0,0,0,0,,,,,0.0,,,,,,
965780,1744863365380,,,,,,,,,,,,,,,,,,,,,,,,,,,,,,,,,,0,0,0,0,0,0,0,0,0,0,0,0,0,0,0,0,,,,,,,,,,,
965800,1744863365400,0.0,135,,-0.11,-0.04,1.04,1,-0,-0,1.05,1.13,92,4111,7.7,3.8,,12.48,1.141,68.2,,35.7,5,,,,,,,,,,,,0,0,0,0,0,0,0,0,0,0,0,0,0,0,0,0,,,,,0.0,,,,,,
965820,1744863365420,,,,,,,,,,,,,,,,,,,,,,,,,,,,,,,,,,0,0,0,0,0,0,0,0,0,0,0,0,0,0,0,0,,,,,,,,,,,
965840,1744863365440,0.0,135,,-0.1,-0.02,1.05,-0,-0,0,1.06,1.13,93,4111,7.7,3.8,,12.44,1.134,68.2,,35.7,5,0,2,0,0,0.0,0.0,0.0,0.0,2.26,,,0,0,0,0,0,0,0,0,0,0,0,0,0,0,0,0,0,,,,0.0,38.985832,-76.950859,0.0,35,3,0.8
965860,1744863365460,,,,,,,,,,,,,,,,,,,,,,,,,,,,,,,,,,0,0,0,0,0,0,0,0,0,0,0,0,0,0,0,0,,,,,,,,,,,
965880,1744863365480,0.0,135,,-0.08,0.05,1.04,1,-0,0,1.05,1.13,93,4141,7.7,3.81,,12.43,1.125,68.2,,35.3,5,,,,,,,,,,,,0,0,0,0,0,0,0,0,0,0,0,0,0,0,0,0,,,,,0.0,,,,,,
965900,1744863365500,,,,,,,,,,,,,,,,,,,,,,,,,,,,,,,,,,0,0,0,0,0,0,0,0,0,0,0,0,0,0,0,0,,,,,,,,,,,
965920,1744863365520,0.0,135,,-0.1,-0.03,1.03,-0,-0,0,1.03,1.13,91,4176,7.7,3.82,,12.4,1.111,68.2,,35.3,5,,,,,,,,,,,,0,0,0,0,0,0,0,0,0,0,0,0,0,0,0,0,,,,,0.0,,,,,,
965940,1744863365540,,,,,,,,,,,,,,,,,,,,,,,0,2,0,0,0.0,0.0,0.0,0.0,2.25,,,0,0,0,0,0,0,0,0,0,0,0,0,0,0,0,0,0,,,,,38.985832,-76.950859,0.11,35,3,0.8
965960,1744863365560,0.0,135,,-0.08,0.07,1.06,0,-0,0,1.06,1.13,94,4133,7.7,3.83,,12.36,1.109,68.2,,35.3,5,,,,,,,,,,,,0,0,0,0,0,0,0,0,0,0,0,0,0,0,0,0,,,,,0.0,,,,,,
965980,1744863365580,,,,,,,,,,,,,,,,,,,,,,,,,,,,,,,,,,0,0,0,0,0,0,0,0,0,0,0,0,0,0,0,0,,,,,,,,,,,
966000,1744863365600,0.0,135,,-0.12,-0.05,1.03,-0,-0,0,1.04,1.13,92,4105,7.7,3.81,,12.36,1.109,68.2,,35.6,5,,,,,,,,,,,,0,0,0,0,0,0,0,0,0,0,0,0,0,0,0,0,,,,,0.0,,,,,,
966020,1744863365620,,,,,,,,,,,,,,,,,,,,,,,,,,,,,,,,,,0,0,0,0,0,0,0,0,0,0,0,0,0,0,0,0,,,,,,,,,,,
966040,1744863365640,0.0,135,,-0.1,0.03,1.04,1,-0,-0,1.05,1.13,92,4105,7.7,3.81,,12.43,1.096,68.2,,35.6,5,0,0,0,0,0.0,0.0,0.0,0.0,2.26,,,0,0,0,0,0,0,0,0,0,0,0,0,0,0,0,0,0,,,,0.0,38.985832,-76.950859,0.13,35,3,0.8
966060,1744863365660,,,,,,,,,,,,,,,,,,,,,,,,,,,,,,,,,,0,0,0,0,0,0,0,0,0,0,0,0,0,0,0,0,,,,,,,,,,,
966080,1744863365680,0.0,135,,-0.12,-0.06,1.01,-0,-0,0,1.02,1.13,90,4097,7.6,3.81,,12.4,1.106,68.2,,35.3,5,,,,,,,,,,,,0,0,0,0,0,0,0,0,0,0,0,0,0,0,0,0,,,,,0.0,,,,,,
966100,1744863365700,,,,,,,,,,,,,,,,,,,,,,,,,,,,,,,,,,0,0,0,0,0,0,0,0,0,0,0,0,0,0,0,0,,,,,,,,,,,
966120,1744863365720,0.0,135,,-0.07,0.07,1.04,0,-0,-0,1.04,1.13,92,4173,7.6,3.83,,12.4,1.112,68.2,,35.3,5,,,,,,,,,,,,0,0,0,0,0,0,0,0,0,0,0,0,0,0,0,0,,,,,0.0,,,,,,
966140,1744863365740,,,,,,,,,,,,,,,,,,,,,,,0,0,0,0,0.0,0.0,0.0,0.0,2.26,,,0,0,0,0,0,0,0,0,0,0,0,0,0,0,0,0,0,,,,,38.985832,-76.950859,0.11,35,3,0.8
966160,1744863365760,0.0,135,,-0.08,-0.04,0.98,0,-0,0,0.99,1.13,87,4179,7.6,3.81,,12.33,1.121,68.2,,35.3,5,,,,,,,,,,,,0,0,0,0,0,0,0,0,0,0,0,0,0,0,0,0,,,,,0.0,,,,,,
966180,1744863365780,,,,,,,,,,,,,,,,,,,,,,,,,,,,,,,,,,0,0,0,0,0,0,0,0,0,0,0,0,0,0,0,0,,,,,,,,,,,
966200,1744863365800,0.0,135,,-0.05,0.13,1.05,-0,-0,0,1.06,1.13,94,4142,7.7,3.79,,12.33,1.121,68.2,,35.2,5,,,,,,,,,,,,0,0,0,0,0,0,0,0,0,0,0,0,0,0,0,0,,,,,0.0,,,,,,
966220,1744863365820,,,,,,,,,,,,,,,,,,,,,,,,,,,,,,,,,,0,0,0,0,0,0,0,0,0,0,0,0,0,0,0,0,,,,,,,,,,,
966240,1744863365840,0.0,135,13.8,-0.09,-0.05,0.99,0,-0,0,0.99,1.13,88,4142,7.7,3.79,15,12.4,1.111,68.2,178,35.2,5,0,0,0,0,0.0,0.0,0.0,0.0,2.25,0,0.0,0,0,0,0,0,0,0,0,0,0,0,0,0,0,0,0,0,0.0,0,0,0.0,38.985832,-76.950859,0.04,35,3,0.8
966260,1744863365860,,,,,,,,,,,,,,,,,,,,,,,,,,,,,,,,,,0,0,0,0,0,0,0,0,0,0,0,0,0,0,0,0,,,,,,,,,,,
966280,1744863365880,0.0,135,,-0.08,0.09,1.06,-0,-0,1,1.06,1.13,94,4174,7.7,3.83,,12.36,1.108,68.2,,35.6,5,,,,,,,,,,,,0,0,0,0,0,0,0,0,0,0,0,0,0,0,0,0,,,,,0.0,,,,,,
966300,1744863365900,,,,,,,,,,,,,,,,,,,,,,,,,,,,,,,,,,0,0,0,0,0,0,0,0,0,0,0,0,0,0,0,0,,,,,,,,,,,
966320,1744863365920,0.0,135,,-0.11,-0.09,0.97,1,-0,-0,0.98,1.13,87,4162,7.7,3.82,,12.4,1.101,68.2,,35.6,5,,,,,,,,,,,,0,0,0,0,0,0,0,0,0,0,0,0,0,0,0,0,,,,,0.0,,,,,,
966340,1744863365940,,,,,,,,,,,,,,,,,,,,,,,0,0,0,0,0.0,0.0,0.0,0.0,2.25,,,0,0,0,0,0,0,0,0,0,0,0,0,0,0,0,0,0,,,,,38.985832,-76.950859,0.0,35,3,0.8
966360,1744863365960,0.0,135,,-0.08,0.06,1.04,-0,-0,0,1.04,1.13,92,4124,7.7,3.8,,12.47,1.104,68.2,,35.6,5,,,,,,,,,,,,0,0,0,0,0,0,0,0,0,0,0,0,0,0,0,0,,,,,0.0,,,,,,
966380,1744863365980,,,,,,,,,,,,,,,,,,,,,,,,,,,,,,,,,,0,0,0,0,0,0,0,0,0,0,0,0,0,0,0,0,,,,,,,,,,,
966400,1744863365992,0.0,135,,-0.08,-0.04,0.96,1,-0,-0,0.97,1.13,86,4102,7.7,3.8,,12.47,1.104,68.2,,35.4,5,,,,,,,,,,,,0,0,0,0,0,0,0,0,0,0,0,0,0,0,0,0,,,,,0.0,,,,,,
966420,1744863366012,,,,,,,,,,,,,,,,,,,,,,,,,,,,,,,,,,0,0,0,0,0,0,0,0,0,0,0,0,0,0,0,0,,,,,,,,,,,
966440,1744863366032,0.0,135,,-0.05,0.09,1.04,-1,-0,1,1.05,1.13,93,4102,7.7,3.8,,12.33,1.099,68.2,,35.4,5,0,0,0,0,0.0,0.0,0.0,0.0,2.25,,,0,0,0,0,0,0,0,0,0,0,0,0,0,0,0,0,0,,,,0.0,38.985832,-76.950859,0.11,35,3,0.8
966460,1744863366052,,,,,,,,,,,,,,,,,,,,,,,,,,,,,,,,,,0,0,0,0,0,0,0,0,0,0,0,0,0,0,0,0,,,,,,,,,,,
966480,1744863366072,0.0,135,,-0.07,-0.05,0.98,0,-0,-0,0.98,1.13,87,4144,7.7,3.84,,12.31,1.098,68.2,,35.1,5,,,,,,,,,,,,0,0,0,0,0,0,0,0,0,0,0,0,0,0,0,0,,,,,0.0,,,,,,
966500,1744863366100,,,,,,,,,,,,,,,,,,,,,,,,,,,,,,,,,,0,0,0,0,0,0,0,0,0,0,0,0,0,0,0,0,,,,,,,,,,,
966520,1744863366120,0.0,135,,-0.04,0.1,1.06,-0,-0,1,1.07,1.13,94,4102,7.7,3.84,,12.36,1.096,68.2,,35.1,5,,,,,,,,,,,,0,0,0,0,0,0,0,0,0,0,0,0,0,0,0,0,,,,,0.0,,,,,,
966540,1744863366140,,,,,,,,,,,,,,,,,,,,,,,0,0,0,0,0.0,0.0,0.0,0.0,2.26,,,0,0,0,0,0,0,0,0,0,0,0,0,0,0,0,0,0,,,,,38.985832,-76.950859,0.05,35,3,0.8
966560,1744863366160,0.0,135,,-0.08,-0.08,1.0,0,-0,0,1.0,1.13,89,4072,7.6,3.82,,12.35,1.093,68.2,,35.1,5,,,,,,,,,,,,0,0,0,0,0,0,0,0,0,0,0,0,0,0,0,0,,,,,0.0,,,,,,
966580,1744863366180,,,,,,,,,,,,,,,,,,,,,,,,,,,,,,,,,,0,0,0,0,0,0,0,0,0,0,0,0,0,0,0,0,,,,,,,,,,,
966600,1744863366197,0.0,135,,-0.07,0.05,1.05,-0,-0,0,1.05,1.13,93,4061,7.5,3.82,,12.35,1.093,68.2,,35.4,5,,,,,,,,,,,,0,0,0,0,0,0,0,0,0,0,0,0,0,0,0,0,,,,,0.0,,,,,,
966620,1744863366217,,,,,,,,,,,,,,,,,,,,,,,,,,,,,,,,,,0,0,0,0,0,0,0,0,0,0,0,0,0,0,0,0,,,,,,,,,,,
966640,1744863366237,0.0,135,,-0.11,-0.11,1.0,-0,-0,0,1.01,1.13,89,4061,7.5,3.82,,12.35,1.093,68.2,,35.4,5,0,0,0,0,0.0,0.0,0.0,0.0,2.26,,,0,0,0,0,0,0,0,0,0,0,0,0,0,0,0,0,0,,,,0.0,38.985832,-76.950859,0.0,35,3,0.8
966660,1744863366257,,,,,,,,,,,,,,,,,,,,,,,,,,,,,,,,,,0,0,0,0,0,0,0,0,0,0,0,0,0,0,0,0,,,,,,,,,,,
966680,1744863366277,0.0,135,,-0.09,-0.01,1.02,1,-0,-0,1.02,1.13,90,4115,7.7,3.84,,12.4,1.11,68.2,,35.2,5,,,,,,,,,,,,0,0,0,0,0,0,0,0,0,0,0,0,0,0,0,0,,,,,0.0,,,,,,
966700,1744863366299,,,,,,,,,,,,,,,,,,,,,,,,,,,,,,,,,,0,0,0,0,0,0,0,0,0,0,0,0,0,0,0,0,,,,,,,,,,,
966720,1744863366319,0.0,135,,-0.12,-0.07,1.01,-0,-0,0,1.01,1.13,90,4052,7.7,3.83,,12.41,1.096,68.2,,35.2,5,,,,,,,,,,,,0,0,0,0,0,0,0,0,0,0,0,0,0,0,0,0,,,,,0.0,,,,,,
966740,1744863366339,,,,,,,,,,,,,,,,,,,,,,,0,0,0,0,0.0,0.0,0.0,0.0,2.26,,,0,0,0,0,0,0,0,0,0,0,0,0,0,0,0,0,0,,,,,38.985832,-76.950859,0.04,35,3,0.8
966760,1744863366359,0.0,135,,-0.1,-0.1,0.96,1,-0,-1,0.97,1.13,86,4037,7.8,3.83,,12.33,1.089,68.2,,35.2,5,,,,,,,,,,,,0,0,0,0,0,0,0,0,0,0,0,0,0,0,0,0,,,,,0.0,,,,,,
966780,1744863366379,,,,,,,,,,,,,,,,,,,,,,,,,,,,,,,,,,0,0,0,0,0,0,0,0,0,0,0,0,0,0,0,0,,,,,,,,,,,
966800,1744863366401,0.0,135,,-0.07,0.02,1.02,0,-0,0,1.02,1.13,90,4084,7.9,3.86,,12.33,1.089,68.2,,34.8,5,,,,,,,,,,,,0,0,0,0,0,0,0,0,0,0,0,0,0,0,0,0,,,,,0.0,,,,,,
966820,1744863366421,,,,,,,,,,,,,,,,,,,,,,,,,,,,,,,,,,0,0,0,0,0,0,0,0,0,0,0,0,0,0,0,0,,,,,,,,,,,
966840,1744863366441,0.0,135,,-0.08,-0.07,0.95,1,-0,-0,0.96,1.13,85,4084,7.9,3.86,,12.45,1.089,68.2,,34.8,5,0,0,0,0,0.0,0.0,0.0,0.0,2.25,,,0,0,0,0,0,0,0,0,0,0,0,0,0,0,0,0,0,,,,0.0,38.985832,-76.950859,0.1,35,3,0.8
966860,1744863366461,,,,,,,,,,,,,,,,,,,,,,,,,,,,,,,,,,0,0,0,0,0,0,0,0,0,0,0,0,0,0,0,0,,,,,,,,,,,
966880,1744863366481,0.0,135,,-0.04,0.11,1.01,0,-0,-0,1.01,1.13,90,4026,8.4,3.85,,12.51,1.098,68.2,,35.0,5,,,,,,,,,,,,0,0,0,0,0,0,0,0,0,0,0,0,0,0,0,0,,,,,0.0,,,,,,
966900,1744863366501,,,,,,,,,,,,,,,,,,,,,,,,,,,,,,,,,,0,0,0,0,0,0,0,0,0,0,0,0,0,0,0,0,,,,,,,,,,,
966920,1744863366521,0.0,135,,-0.06,-0.01,0.97,-0,-0,0,0.97,1.13,85,4037,9.2,3.9,,12.52,1.099,68.2,,35.0,5,,,,,,,,,,,,0,0,0,0,0,0,0,0,0,0,0,0,0,0,0,0,,,,,0.0,,,,,,
966940,1744863366541,,,,,,,,,,,,,,,,,,,,,,,0,0,0,0,0.0,0.0,0.0,0.0,2.26,,,0,0,0,0,0,0,0,0,0,0,0,0,0,0,0,0,0,,,,,38.985832,-76.950859,0.08,35,3,0.8
966960,1744863366561,0.0,135,,-0.03,0.08,1.0,1,-0,-0,1.0,1.13,89,4138,11.0,3.99,,12.63,1.094,68.2,,35.0,5,,,,,,,,,,,,0,0,0,0,0,0,0,0,0,0,0,0,0,0,0,0,,,,,0.0,,,,,,
966980,1744863366581,,,,,,,,,,,,,,,,,,,,,,,,,,,,,,,,,,0,0,0,0,0,0,0,0,0,0,0,0,0,0,0,0,,,,,,,,,,,
967000,1744863366601,0.0,135,,-0.06,-0.02,0.98,-0,-0,0,0.98,1.13,87,4178,13.4,4.06,,12.63,1.094,68.2,,35.2,5,,,,,,,,,,,,0,0,0,0,0,0,0,0,0,0,0,0,0,0,0,0,,,,,0.0,,,,,,
967020,1744863366621,,,,,,,,,,,,,,,,,,,,,,,,,,,,,,,,,,0,0,0,0,0,0,0,0,0,0,0,0,0,0,0,0,,,,,,,,,,,
967040,1744863366641,0.0,135,,-0.05,0.12,1.05,-0,-0,1,1.06,1.13,94,4178,13.4,4.06,,12.92,1.086,68.2,,35.2,5,0,0,0,0,0.0,0.0,0.0,0.0,2.25,,,0,0,0,0,0,0,0,0,0,0,0,0,0,0,0,0,0,,,,0.0,38.985832,-76.950859,0.11,35,3,0.8
967060,1744863366661,,,,,,,,,,,,,,,,,,,,,,,,,,,,,,,,,,0,0,0,0,0,0,0,0,0,0,0,0,0,0,0,0,,,,,,,,,,,
967080,1744863366681,0.0,135,,-0.07,-0.06,0.95,1,-0,-0,0.96,1.13,85,4173,14.7,4.09,,13.09,1.104,68.2,,36.2,5,,,,,,,,,,,,0,0,0,0,0,0,0,0,0,0,0,0,0,0,0,0,,,,,0.0,,,,,,
967100,1744863366701,,,,,,,,,,,,,,,,,,,,,,,,,,,,,,,,,,0,0,0,0,0,0,0,0,0,0,0,0,0,0,0,0,,,,,,,,,,,
967120,1744863366721,0.0,135,,-0.08,-0.08,0.94,-0,-0,0,0.95,1.13,84,4287,15.5,4.13,,13.25,1.115,68.2,,36.2,5,,,,,,,,,,,,0,0,0,0,0,0,0,0,0,0,0,0,0,0,0,0,,,,,0.0,,,,,,
967140,1744863366741,,,,,,,,,,,,,,,,,,,,,,,0,0,0,0,0.0,0.0,0.0,0.0,2.25,,,0,0,0,0,0,0,0,0,0,0,0,0,0,0,0,0,0,,,,,38.985832,-76.950859,0.04,35,3,0.8
967160,1744863366761,0.0,135,,-0.1,-0.01,0.98,-2,-0,1,0.98,1.13,87,4444,16.0,4.15,,13.37,1.131,68.2,,36.2,5,,,,,,,,,,,,0,0,0,0,0,0,0,0,0,0,0,0,0,0,0,0,,,,,0.0,,,,,,
967180,1744863366781,,,,,,,,,,,,,,,,,,,,,,,,,,,,,,,,,,0,0,0,0,0,0,0,0,0,0,0,0,0,0,0,0,,,,,,,,,,,
967200,1744863366801,0.0,135,,-0.13,0.09,1.02,-3,-0,2,1.03,1.13,91,4507,17.3,4.21,,13.37,1.131,68.2,,38.5,5,,,,,,,,,,,,0,0,0,0,0,0,0,0,0,0,0,0,0,0,0,0,,,,,0.0,,,,,,
967220,1744863366821,,,,,,,,,,,,,,,,,,,,,,,,,,,,,,,,,,0,0,0,0,0,0,0,0,0,0,0,0,0,0,0,0,,,,,,,,,,,
967240,1744863366841,0.0,135,13.87,-0.16,0.14,1.04,-4,-0,2,1.06,1.13,93,4507,17.3,4.21,15,13.39,1.148,68.2,178,38.5,5,0,0,0,0,0.0,0.0,0.0,0.0,2.26,0,0.0,0,0,0,0,0,0,0,0,0,0,0,0,0,0,0,0,0,0.0,0,0,0.0,38.985832,-76.950859,0.05,35,3,0.8
967260,1744863366861,,,,,,,,,,,,,,,,,,,,,,,,,,,,,,,,,,0,0,0,0,0,0,0,0,0,0,0,0,0,0,0,0,,,,,,,,,,,
967280,1744863366881,0.0,135,,-0.17,0.13,1.01,-4,-0,2,1.03,1.13,91,4583,18.5,4.26,,13.44,1.142,68.2,,40.2,5,,,,,,,,,,,,0,0,0,0,0,0,0,0,0,0,0,0,0,0,0,0,,,,,0.0,,,,,,
967300,1744863366899,,,,,,,,,,,,,,,,,,,,,,,,,,,,,,,,,,0,0,0,0,0,0,0,0,0,0,0,0,0,0,0,0,,,,,,,,,,,
967320,1744863366919,0.0,135,,-0.18,-0.0,0.93,-4,-0,2,0.95,1.13,84,4597,19.0,4.28,,13.52,1.127,68.2,,40.2,5,,,,,,,,,,,,0,0,0,0,0,0,0,0,0,0,0,0,0,0,0,0,,,,,0.0,,,,,,
967340,1744863366939,,,,,,,,,,,,,,,,,,,,,,,0,0,0,0,0.0,0.0,0.0,0.0,2.25,,,0,0,0,0,0,0,0,0,0,0,0,0,0,0,0,0,0,,,,,38.985832,-76.950859,0.08,35,3,0.8
967360,1744863366959,0.0,135,,-0.13,-0.12,0.85,-3,-0,2,0.87,1.13,77,4613,19.3,4.32,,13.53,1.131,68.2,,40.2,5,,,,,,,,,,,,0,0,0,0,0,0,0,0,0,0,0,0,0,0,0,0,,,,,0.0,,,,,,
967380,1744863366979,,,,,,,,,,,,,,,,,,,,,,,,,,,,,,,,,,0,0,0,0,0,0,0,0,0,0,0,0,0,0,0,0,,,,,,,,,,,
967400,1744863366993,0.0,135,,-0.1,-0.18,0.83,-2,-0,1,0.85,1.13,75,4599,19.5,4.33,,13.53,1.131,68.2,,39.8,5,,,,,,,,,,,,0,0,0,0,0,0,0,0,0,0,0,0,0,0,0,0,,,,,0.0,,,,,,
967420,1744863367013,,,,,,,,,,,,,,,,,,,,,,,,,,,,,,,,,,0,0,0,0,0,0,0,0,0,0,0,0,0,0,0,0,,,,,,,,,,,
967440,1744863367033,0.0,135,,-0.09,-0.11,0.93,-1,-0,1,0.94,1.13,83,4599,19.5,4.33,,13.53,1.121,68.2,,39.8,5,0,0,0,0,0.0,0.0,0.0,0.0,2.25,,,0,0,0,0,0,0,0,0,0,0,0,0,0,0,0,0,0,,,,0.0,38.985832,-76.950859,0.05,35,3,0.8
967460,1744863367053,,,,,,,,,,,,,,,,,,,,,,,,,,,,,,,,,,0,0,0,0,0,0,0,0,0,0,0,0,0,0,0,0,,,,,,,,,,,
967480,1744863367073,0.0,135,,-0.12,-0.04,0.95,-2,-0,1,0.96,1.13,85,4654,19.8,4.34,,13.59,1.119,68.2,,39.8,5,,,,,,,,,,,,0,0,0,0,0,0,0,0,0,0,0,0,0,0,0,0,,,,,0.0,,,,,,
967500,1744863367096,,,,,,,,,,,,,,,,,,,,,,,,,,,,,,,,,,0,0,0,0,0,0,0,0,0,0,0,0,0,0,0,0,,,,,,,,,,,
967520,1744863367116,0.0,135,,-0.08,-0.1,0.9,-1,-0,1,0.91,1.13,80,4724,20.0,4.35,,13.51,1.125,68.2,,39.8,5,,,,,,,,,,,,0,0,0,0,0,0,0,0,0,0,0,0,0,0,0,0,,,,,0.0,,,,,,
967540,1744863367136,,,,,,,,,,,,,,,,,,,,,,,0,0,0,0,0.0,0.0,0.0,0.0,2.27,,,0,0,0,0,0,0,0,0,0,0,0,0,0,0,0,0,0,,,,,38.985832,-76.950859,0.07,35,3,0.8
967560,1744863367156,0.0,135,,-0.1,-0.05,0.99,-1,-0,1,0.99,1.13,88,4820,20.2,4.36,,13.45,1.116,68.2,,39.8,5,,,,,,,,,,,,0,0,0,0,0,0,0,0,0,0,0,0,0,0,0,0,,,,,0.0,,,,,,
967580,1744863367176,,,,,,,,,,,,,,,,,,,,,,,,,,,,,,,,,,0,0,0,0,0,0,0,0,0,0,0,0,0,0,0,0,,,,,,,,,,,
967600,1744863367198,0.0,135,,-0.1,-0.1,0.92,-1,-0,1,0.93,1.13,82,4891,20.7,4.38,,13.45,1.116,68.2,,40.0,5,,,,,,,,,,,,0,0,0,0,0,0,0,0,0,0,0,0,0,0,0,0,,,,,0.0,,,,,,
967620,1744863367218,,,,,,,,,,,,,,,,,,,,,,,,,,,,,,,,,,0,0,0,0,0,0,0,0,0,0,0,0,0,0,0,0,,,,,,,,,,,
967640,1744863367238,0.0,135,,-0.13,-0.06,0.98,-1,-0,1,0.99,1.13,87,4891,20.7,4.38,,13.51,1.11,68.2,,40.0,5,0,0,0,0,0.0,0.0,0.0,0.0,2.26,,,0,0,0,0,0,0,0,0,0,0,0,0,0,0,0,0,0,,,,0.0,38.985832,-76.950859,0.04,35,3,0.8
967660,1744863367258,,,,,,,,,,,,,,,,,,,,,,,,,,,,,,,,,,0,0,0,0,0,0,0,0,0,0,0,0,0,0,0,0,,,,,,,,,,,
967680,1744863367278,0.0,135,,-0.09,-0.07,0.99,-1,-0,1,1.0,1.13,88,5050,21.4,4.4,,13.44,1.091,68.2,,40.9,5,,,,,,,,,,,,0,0,0,0,0,0,0,0,0,0,0,0,0,0,0,0,,,,,0.0,,,,,,
967700,1744863367300,,,,,,,,,,,,,,,,,,,,,,,,,,,,,,,,,,0,0,0,0,0,0,0,0,0,0,0,0,0,0,0,0,,,,,,,,,,,
967720,1744863367320,0.0,135,,-0.08,-0.09,0.98,-1,-0,1,0.99,1.13,88,5137,22.1,4.41,,13.51,1.096,66.4,,40.9,5,,,,,,,,,,,,0,0,0,0,0,0,0,0,0,0,0,0,0,0,0,0,,,,,0.0,,,,,,
967740,1744863367340,,,,,,,,,,,,,,,,,,,,,,,0,0,0,0,0.0,0.0,0.0,0.0,2.25,,,0,0,0,0,0,0,0,0,0,0,0,0,0,0,0,0,0,,,,,38.985832,-76.950859,0.0,35,3,0.8
967760,1744863367360,0.0,135,,-0.08,-0.07,0.99,-1,-0,1,0.99,1.13,88,5263,23.8,4.45,,13.43,1.086,66.4,,40.9,5,,,,,,,,,,,,0,0,0,0,0,0,0,0,0,0,0,0,0,0,0,0,,,,,0.0,,,,,,
967780,1744863367380,,,,,,,,,,,,,,,,,,,,,,,,,,,,,,,,,,0,0,0,0,0,0,0,0,0,0,0,0,0,0,0,0,,,,,,,,,,,
967800,1744863367400,0.0,135,,-0.09,-0.08,0.99,-1,-0,1,1.0,1.13,88,5415,25.6,4.7,,13.43,1.086,66.4,,41.5,5,,,,,,,,,,,,0,0,0,0,0,0,0,0,0,0,0,0,0,0,0,0,,,,,0.0,,,,,,
967820,1744863367420,,,,,,,,,,,,,,,,,,,,,,,,,,,,,,,,,,0,0,0,0,0,0,0,0,0,0,0,0,0,0,0,0,,,,,,,,,,,
967840,1744863367440,0.0,135,,-0.06,-0.08,0.96,0,-0,0,0.96,1.13,85,5415,25.6,4.7,,13.37,1.096,66.4,,41.5,5,0,0,0,0,0.0,0.0,0.0,0.0,2.26,,,0,0,0,0,0,0,0,0,0,0,0,0,0,0,0,0,0,,,,0.0,38.985832,-76.950859,0.05,35,3,0.8
967860,1744863367460,,,,,,,,,,,,,,,,,,,,,,,,,,,,,,,,,,0,0,0,0,0,0,0,0,0,0,0,0,0,0,0,0,,,,,,,,,,,
967880,1744863367480,0.0,135,,-0.07,-0.2,0.85,2,-0,-0,0.87,1.13,77,5683,26.2,4.77,,13.23,1.086,66.4,,43.0,5,,,,,,,,,,,,0,0,0,0,0,0,0,0,0,0,0,0,0,0,0,0,,,,,0.0,,,,,,
967900,1744863367500,,,,,,,,,,,,,,,,,,,,,,,,,,,,,,,,,,0,0,0,0,0,0,0,0,0,0,0,0,0,0,0,0,,,,,,,,,,,
967920,1744863367520,0.0,135,,-0.06,-0.19,0.86,3,-0,-1,0.88,1.13,78,6446,26.8,5.19,,13.08,1.165,66.4,,43.0,5,,,,,,,,,,,,0,0,0,0,0,0,0,0,0,0,0,0,0,0,0,0,,,,,0.0,,,,,,
967940,1744863367540,,,,,,,,,,,,,,,,,,,,,,,0,0,0,0,0.0,0.0,0.0,0.0,2.25,,,0,0,0,0,0,0,0,0,0,0,0,0,0,0,0,0,0,,,,,38.985832,-76.950859,0.1,35,3,0.8
967960,1744863367560,0.0,135,,-0.05,-0.2,0.88,1,-0,-0,0.9,1.13,80,7565,27.2,5.67,,12.49,1.074,66.4,,43.0,5,,,,,,,,,,,,0,0,0,0,0,0,0,0,0,0,0,0,0,0,0,0,,,,,0.0,,,,,,
967980,1744863367580,,,,,,,,,,,,,,,,,,,,,,,,,,,,,,,,,,0,0,0,0,0,0,0,0,0,0,0,0,0,0,0,0,,,,,,,,,,,
968000,1744863367600,0.0,135,,-0.08,0.09,0.83,-1,-0,1,0.83,1.13,74,9081,29.2,4.98,,12.49,1.074,66.4,,46.7,5,,,,,,,,,,,,0,0,0,0,0,0,0,0,0,0,0,0,0,0,0,0,,,,,0.0,,,,,,
968020,1744863367620,,,,,,,,,,,,,,,,,,,,,,,,,,,,,,,,,,0,0,0,0,0,0,0,0,0,0,0,0,0,0,0,0,,,,,,,,,,,
968040,1744863367640,0.0,135,,-0.03,0.1,0.86,-2,-0,1,0.87,1.13,77,9081,29.2,4.98,,12.11,0.964,66.4,,46.7,5,0,1,0,0,0.0,0.0,0.0,0.0,2.25,,,0,0,0,0,0,0,0,0,0,0,0,0,0,0,0,0,0,,,,0.0,38.985832,-76.950859,0.19,35,3,0.8
968060,1744863367660,,,,,,,,,,,,,,,,,,,,,,,,,,,,,,,,,,0,0,0,0,0,0,0,0,0,0,0,0,0,0,0,0,,,,,,,,,,,
968080,1744863367680,0.0,135,,-0.06,0.14,0.84,-1,-0,-1,0.86,1.13,76,10595,30.1,4.81,,11.53,0.798,66.4,,47.2,5,,,,,,,,,,,,0,0,0,0,0,0,0,0,0,0,0,0,0,0,0,0,,,,,0.0,,,,,,
968100,1744863367700,,,,,,,,,,,,,,,,,,,,,,,,,,,,,,,,,,0,0,0,0,0,0,0,0,0,0,0,0,0,0,0,0,,,,,,,,,,,
968120,1744863367720,0.0,135,,-0.1,0.12,0.83,-2,-0,0,0.85,1.13,75,11826,33.1,3.94,,11.2,0.781,66.4,,47.2,5,,,,,,,,,,,,0,0,0,0,0,0,0,0,0,0,0,0,0,0,0,0,,,,,0.0,,,,,,
968140,1744863367740,,,,,,,,,,,,,,,,,,,,,,,0,13,0,0,0.0,24.0,0.0,0.0,2.26,,,0,0,0,0,0,0,0,0,0,0,0,0,0,0,0,0,0,,,,,38.985832,-76.950859,0.04,35,3,0.8
968160,1744863367760,0.0,135,,-0.08,0.1,0.85,-1,-0,0,0.86,1.13,76,12942,36.1,3.71,,11.25,0.77,66.4,,47.2,5,,,,,,,,,,,,0,0,0,0,0,0,0,0,0,0,0,0,0,0,0,0,,,,,0.0,,,,,,
968180,1744863367780,,,,,,,,,,,,,,,,,,,,,,,,,,,,,,,,,,0,0,0,0,0,0,0,0,0,0,0,0,0,0,0,0,,,,,,,,,,,
968200,1744863367800,0.0,135,,-0.08,0.02,0.94,1,-0,-0,0.95,1.13,84,13871,40.4,3.76,,11.25,0.77,66.4,,51.2,5,,,,,,,,,,,,0,0,0,0,0,0,0,0,0,0,0,0,0,0,0,0,,,,,0.0,,,,,,
968220,1744863367820,,,,,,,,,,,,,,,,,,,,,,,,,,,,,,,,,,0,0,0,0,0,0,0,0,0,0,0,0,0,0,0,0,,,,,,,,,,,
968240,1744863367840,0.0,135,13.74,0.01,0.05,0.91,2,1,0,0.91,1.13,80,13871,40.4,3.76,15,11.4,0.794,66.4,178,51.2,5,0,3,0,0,0.0,0.0,0.0,0.0,2.25,0,0.0,0,0,0,0,0,0,0,0,0,0,0,0,0,0,0,0,0,0.0,0,0,0.0,38.985832,-76.950859,0.05,35,3,0.8
968260,1744863367860,,,,,,,,,,,,,,,,,,,,,,,,,,,,,,,,,,0,0,0,0,0,0,0,0,0,0,0,0,0,0,0,0,,,,,,,,,,,
968280,1744863367880,0.0,135,,0.12,0.04,0.85,1,2,1,0.86,1.13,76,12769,46.7,4.11,,11.83,0.847,66.4,,48.5,5,,,,,,,,,,,,0,0,0,0,0,0,0,0,0,0,0,0,0,0,0,0,,,,,0.0,,,,,,
968300,1744863367900,,,,,,,,,,,,,,,,,,,,,,,,,,,,,,,,,,0,0,0,0,0,0,0,0,0,0,0,0,0,0,0,0,,,,,,,,,,,
968320,1744863367920,0.0,135,,0.13,-0.09,0.86,1,2,0,0.88,1.13,77,11876,46.5,4.26,,12.33,1.224,66.4,,48.5,5,,,,,,,,,,,,0,0,0,0,0,0,0,0,0,0,0,0,0,0,0,0,,,,,0.0,,,,,,
968340,1744863367940,,,,,,,,,,,,,,,,,,,,,,,0,1,0,0,0.0,0.0,0.0,0.0,2.25,,,0,0,0,0,0,0,0,0,0,0,0,0,0,0,0,0,0,,,,,38.985832,-76.950859,0.24,35,3,0.8
968360,1744863367960,0.0,135,,0.13,-0.03,0.88,1,2,-0,0.89,1.13,78,10069,46.8,4.86,,12.75,1.122,66.4,,48.5,5,,,,,,,,,,,,0,0,0,0,0,0,0,0,0,0,0,0,0,0,0,0,,,,,0.0,,,,,,
968380,1744863367980,,,,,,,,,,,,,,,,,,,,,,,,,,,,,,,,,,0,0,0,0,0,0,0,0,0,0,0,0,0,0,0,0,,,,,,,,,,,
968400,1744863367992,0.0,135,,0.17,-0.09,0.88,1,1,-0,0.9,1.13,79,10321,48.0,4.91,,12.75,1.122,66.4,,47.7,5,,,,,,,,,,,,0,0,0,0,0,0,0,0,0,0,0,0,0,0,0,0,,,,,0.0,,,,,,
968420,1744863368012,,,,,,,,,,,,,,,,,,,,,,,,,,,,,,,,,,0,0,0,0,0,0,0,0,0,0,0,0,0,0,0,0,,,,,,,,,,,
968440,1744863368032,0.0,135,,0.19,-0.1,0.92,2,0,-1,0.94,1.13,83,10321,48.0,4.91,,12.87,1.08,66.4,,47.7,5,3,2,30,29,0.0,0.0,0.0,0.0,2.25,,,0,0,0,0,0,0,0,0,0,0,0,0,0,0,0,0,0,,,,0.0,38.985832,-76.950859,2.75,35,3,0.8
968460,1744863368052,,,,,,,,,,,,,,,,,,,,,,,,,,,,,,,,,,0,0,0,0,0,0,0,0,0,0,0,0,0,0,0,0,,,,,,,,,,,
968480,1744863368072,0.0,135,,0.26,-0.15,0.89,4,1,-1,0.94,1.13,83,11007,55.4,4.27,,13.15,1.074,66.4,,48.4,5,,,,,,,,,,,,0,0,0,0,0,0,0,0,0,0,0,0,0,0,0,0,,,,,0.0,,,,,,
968500,1744863368099,,,,,,,,,,,,,,,,,,,,,,,,,,,,,,,,,,0,0,0,0,0,0,0,0,0,0,0,0,0,0,0,0,,,,,,,,,,,
968520,1744863368119,0.0,135,,0.3,-0.18,0.87,3,1,-1,0.94,1.13,83,11135,60.7,4.48,,13.44,1.009,66.4,,48.4,5,,,,,,,,,,,,0,0,0,0,0,0,0,0,0,0,0,0,0,0,0,0,,,,,0.0,,,,,,
968540,1744863368139,,,,,,,,,,,,,,,,,,,,,,,4,4,30,29,0.0,0.0,0.0,0.0,2.26,,,0,0,0,0,0,0,0,0,0,0,0,0,0,0,0,0,0,,,,,38.985832,-76.950859,6.71,35,3,0.8
968560,1744863368159,0.0,135,,0.36,-0.05,0.92,4,1,-0,0.99,1.13,88,10885,60.6,4.7,,13.43,1.069,66.4,,48.4,5,,,,,,,,,,,,0,0,0,0,0,0,0,0,0,0,0,0,0,0,0,0,,,,,0.0,,,,,,
968580,1744863368179,,,,,,,,,,,,,,,,,,,,,,,,,,,,,,,,,,0,0,0,0,0,0,0,0,0,0,0,0,0,0,0,0,,,,,,,,,,,
968600,1744863368197,0.0,135,,0.38,-0.12,0.91,4,0,-1,0.99,1.13,88,11056,61.5,4.63,,13.43,1.069,66.4,,48.2,5,,,,,,,,,,,,0,0,0,0,0,0,0,0,0,0,0,0,0,0,0,0,,,,,0.0,,,,,,
968620,1744863368217,,,,,,,,,,,,,,,,,,,,,,,,,,,,,,,,,,0,0,0,0,0,0,0,0,0,0,0,0,0,0,0,0,,,,,,,,,,,
968640,1744863368237,0.0,135,,0.43,-0.2,0.93,5,0,-1,1.04,1.13,92,11056,61.5,4.63,,13.43,1.086,66.4,,48.2,5,6,5,32,33,0.0,0.0,0.0,0.0,2.26,,,0,0,0,0,0,0,0,0,0,0,0,0,0,0,0,0,0,,,,0.0,38.985832,-76.950859,8.76,35,3,0.8
968660,1744863368257,,,,,,,,,,,,,,,,,,,,,,,,,,,,,,,,,,0,0,0,0,0,0,0,0,0,0,0,0,0,0,0,0,,,,,,,,,,,
968680,1744863368277,0.0,135,,0.5,0.01,0.95,4,0,0,1.07,1.13,95,11235,62.3,4.64,,13.41,1.07,66.4,,48.3,5,,,,,,,,,,,,0,0,0,0,0,0,0,0,0,0,0,0,0,0,0,0,,,,,0.0,,,,,,
968700,1744863368299,,,,,,,,,,,,,,,,,,,,,,,,,,,,,,,,,,0,0,0,0,0,0,0,0,0,0,0,0,0,0,0,0,,,,,,,,,,,
968720,1744863368319,0.0,135,,0.56,-0.02,0.95,5,0,1,1.11,1.13,98,11403,61.9,4.48,,13.47,1.046,66.4,,48.3,5,,,,,,,,,,,,0,0,0,0,0,0,0,0,0,0,0,0,0,0,0,0,,,,,0.0,,,,,,
968740,1744863368339,,,,,,,,,,,,,,,,,,,,,,,7,16,34,34,0.0,225.0,0.0,0.0,2.25,,,0,0,0,0,0,0,0,0,0,0,0,0,0,0,0,0,1,,,,,38.985828,-76.950859,11.91,35,3,0.8
968760,1744863368359,0.0,135,,0.55,-0.17,0.95,6,0,0,1.11,1.13,98,11372,61.8,4.49,,13.28,1.037,66.4,,48.3,5,,,,,,,,,,,,0,0,0,0,0,0,0,0,0,0,0,0,0,0,0,0,,,,,0.0,,,,,,
968780,1744863368379,,,,,,,,,,,,,,,,,,,,,,,,,,,,,,,,,,0,0,0,0,0,0,0,0,0,0,0,0,0,0,0,0,,,,,,,,,,,
968800,1744863368399,0.0,135,,0.59,-0.14,0.94,7,0,0,1.12,1.13,99,11337,57.4,4.26,,13.28,1.037,66.4,,48.9,5,,,,,,,,,,,,0,0,0,0,0,0,0,0,0,0,0,0,0,0,0,0,,,,,0.0,,,,,,
968820,1744863368419,,,,,,,,,,,,,,,,,,,,,,,,,,,,,,,,,,0,0,0,0,0,0,0,0,0,0,0,0,0,0,0,0,,,,,,,,,,,
968840,1744863368439,0.0,135,,0.58,-0.14,0.96,6,0,0,1.13,1.13,100,11337,57.4,4.26,,13.29,1.048,66.4,,48.9,5,9,60,35,36,0.0,23.0,0.0,0.0,2.26,,,0,0,0,0,0,0,0,0,0,0,0,0,0,0,0,0,1,,,,0.0,38.985825,-76.950859,14.4,35,3,0.8
968860,1744863368459,,,,,,,,,,,,,,,,,,,,,,,,,,,,,,,,,,0,0,0,0,0,0,0,0,0,0,0,0,0,0,0,0,,,,,,,,,,,
968880,1744863368479,0.0,135,,0.6,-0.21,1.0,6,0,1,1.19,1.19,100,11157,51.7,4.1,,12.97,1.061,66.4,,48.3,5,,,,,,,,,,,,0,0,0,0,0,0,0,0,0,0,0,0,0,0,0,0,,,,,0.0,,,,,,
968900,1744863368499,,,,,,,,,,,,,,,,,,,,,,,,,,,,,,,,,,0,0,0,0,0,0,0,0,0,0,0,0,0,0,0,0,,,,,,,,,,,
968920,1744863368519,0.0,135,,0.61,-0.19,0.95,4,0,1,1.15,1.19,97,10869,49.2,4.19,,12.79,1.069,66.4,,48.3,5,,,,,,,,,,,,0,0,0,0,0,0,0,0,0,0,0,0,0,0,0,0,,,,,0.0,,,,,,
968940,1744863368539,,,,,,,,,,,,,,,,,,,,,,,11,57,35,35,0.0,13.0,0.0,0.0,2.25,,,0,0,0,0,0,0,0,0,0,0,0,0,0,0,0,0,0,,,,,38.985821,-76.950867,17.67,35,3,0.8
968960,1744863368559,0.0,135,,0.64,-0.29,0.97,3,0,1,1.2,1.2,100,10755,37.3,4.61,,12.25,1.102,66.4,,48.3,5,,,,,,,,,,,,0,0,0,0,0,0,0,0,0,0,0,0,0,0,0,0,,,,,0.0,,,,,,
968980,1744863368579,,,,,,,,,,,,,,,,,,,,,,,,,,,,,,,,,,0,0,0,0,0,0,0,0,0,0,0,0,0,0,0,0,,,,,,,,,,,
969000,1744863368599,0.0,135,,0.67,-0.26,0.97,1,0,1,1.2,1.2,100,10630,35.7,4.5,,12.25,1.102,66.4,,47.7,5,,,,,,,,,,,,0,0,0,0,0,0,0,0,0,0,0,0,0,0,0,0,,,,,0.0,,,,,,
969020,1744863368619,,,,,,,,,,,,,,,,,,,,,,,,,,,,,,,,,,0,0,0,0,0,0,0,0,0,0,0,0,0,0,0,0,,,,,,,,,,,
969040,1744863368639,0.0,135,,0.69,0.06,0.95,-1,0,1,1.18,1.2,98,10630,35.7,4.5,,11.73,1.075,66.4,,47.7,5,13,13,31,32,0.0,250.0,0.0,0.0,2.25,,,0,0,0,0,0,0,0,0,0,0,0,0,0,0,0,0,0,,,,0.0,38.985817,-76.950867,21.11,35,3,0.8
969060,1744863368659,,,,,,,,,,,,,,,,,,,,,,,,,,,,,,,,,,0,0,0,0,0,0,0,0,0,0,0,0,0,0,0,0,,,,,,,,,,,
969080,1744863368679,0.0,135,,0.75,0.29,0.96,-4,0,2,1.26,1.26,100,10523,35.3,4.67,,11.87,0.984,66.4,,47.1,5,,,,,,,,,,,,0,0,0,0,0,0,0,0,0,0,0,0,0,0,0,0,,,,,0.0,,,,,,
969100,1744863368699,,,,,,,,,,,,,,,,,,,,,,,,,,,,,,,,,,0,0,0,0,0,0,0,0,0,0,0,0,0,0,0,0,,,,,,,,,,,
969120,1744863368719,0.0,135,,0.75,0.32,1.0,-5,0,2,1.29,1.29,100,10455,35.4,4.74,,11.73,0.939,66.4,,47.1,5,,,,,,,,,,,,0,0,0,0,0,0,0,0,0,0,0,0,0,0,0,0,,,,,0.0,,,,,,
969140,1744863368739,,,,,,,,,,,,,,,,,,,,,,,15,113,31,30,0.0,56.0,0.0,0.0,2.25,,,0,0,0,0,0,0,0,0,0,0,0,0,0,0,0,0,1,,,,,38.985813,-76.950874,23.43,35,3,0.8
969160,1744863368759,0.0,135,,0.76,0.41,0.99,-6,0,2,1.31,1.31,100,10428,35.3,4.74,,11.75,0.905,66.4,,47.1,5,,,,,,,,,,,,0,0,0,0,0,0,0,0,0,0,0,0,0,0,0,0,,,,,0.0,,,,,,
969180,1744863368779,,,,,,,,,,,,,,,,,,,,,,,,,,,,,,,,,,0,0,0,0,0,0,0,0,0,0,0,0,0,0,0,0,,,,,,,,,,,
969200,1744863368799,0.0,135,,0.78,0.39,0.99,-7,0,1,1.32,1.32,100,10363,35.4,4.85,,11.75,0.905,66.4,,46.5,5,,,,,,,,,,,,0,0,0,0,0,0,0,0,0,0,0,0,0,0,0,0,,,,,0.0,,,,,,
969220,1744863368819,,,,,,,,,,,,,,,,,,,,,,,,,,,,,,,,,,0,0,0,0,0,0,0,0,0,0,0,0,0,0,0,0,,,,,,,,,,,
969240,1744863368839,0.0,135,13.78,0.77,0.09,1.0,-6,0,1,1.26,1.32,96,10363,35.4,4.85,15,11.76,0.882,66.4,178,46.5,5,17,19,31,30,0.0,20.0,0.0,0.0,2.25,0,0.0,0,0,0,0,0,0,0,0,0,0,0,0,0,0,0,0,1,0.0,0,0,0.0,38.985809,-76.950882,26.94,35,3,0.8
969260,1744863368859,,,,,,,,,,,,,,,,,,,,,,,,,,,,,,,,,,0,0,0,0,0,0,0,0,0,0,0,0,0,0,0,0,,,,,,,,,,,
969280,1744863368879,0.0,135,,0.78,-0.01,1.06,-7,-0,0,1.32,1.32,100,10252,28.1,4.97,,11.44,0.868,66.4,,46.0,5,,,,,,,,,,,,0,0,0,0,0,0,0,0,0,0,0,0,0,0,0,0,,,,,0.0,,,,,,
969300,1744863368899,,,,,,,,,,,,,,,,,,,,,,,,,,,,,,,,,,0,0,0,0,0,0,0,0,0,0,0,0,0,0,0,0,,,,,,,,,,,
969320,1744863368919,0.0,135,,0.78,0.11,1.04,-8,-0,0,1.31,1.32,99,10096,16.1,3.7,,10.08,0.851,66.4,,46.0,5,,,,,,,,,,,,0,0,0,0,0,0,0,0,0,0,0,0,0,0,0,0,,,,,0.0,,,,,,
969340,1744863368939,,,,,,,,,,,,,,,,,,,,,,,19,19,31,32,0.0,82.0,0.0,0.0,2.26,,,0,0,0,0,0,0,0,0,0,0,0,0,0,0,0,0,0,,,,,38.985806,-76.95089,29.94,35,3,0.8
969360,1744863368959,0.0,135,,0.82,0.11,1.06,-9,-0,-0,1.34,1.34,100,9729,5.2,2.66,,8.65,0.79,66.4,,46.0,5,,,,,,,,,,,,0,0,0,0,0,0,0,0,0,0,0,0,0,0,0,0,,,,,0.0,,,,,,
969380,1744863368979,,,,,,,,,,,,,,,,,,,,,,,,,,,,,,,,,,0,0,0,0,0,0,0,0,0,0,0,0,0,0,0,0,,,,,,,,,,,
969400,1744863368991,0.0,135,,0.86,0.1,1.0,-9,-0,-0,1.32,1.34,98,8851,0.0,1.4,,8.65,0.79,66.4,,44.7,5,,,,,,,,,,,,0,0,0,0,0,0,0,0,0,0,0,0,0,0,0,0,,,,,0.0,,,,,,
969420,1744863369011,,,,,,,,,,,,,,,,,,,,,,,,,,,,,,,,,,0,0,0,0,0,0,0,0,0,0,0,0,0,0,0,0,,,,,,,,,,,
969440,1744863369031,0.0,135,,0.85,0.04,0.98,-8,-0,-1,1.3,1.34,97,8851,0.0,1.4,,7.33,0.763,66.4,,44.7,5,22,11,30,26,0.0,196.0,0.0,0.0,2.26,,,0,0,0,0,0,0,0,0,0,0,0,0,0,0,0,0,0,,,,0.0,38.985798,-76.950897,33.7,35,3,0.8
969460,1744863369051,,,,,,,,,,,,,,,,,,,,,,,,,,,,,,,,,,0,0,0,0,0,0,0,0,0,0,0,0,0,0,0,0,,,,,,,,,,,
969480,1744863369071,0.0,135,,0.75,0.25,1.03,-8,-0,-0,1.31,1.34,97,7827,0.0,1.4,,6.86,0.787,66.4,,42.4,5,,,,,,,,,,,,0,0,0,0,0,0,0,0,0,0,0,0,0,0,0,0,,,,,0.0,,,,,,
969500,1744863369097,,,,,,,,,,,,,,,,,,,,,,,,,,,,,,,,,,0,0,0,0,0,0,0,0,0,0,0,0,0,0,0,0,,,,,,,,,,,
969520,1744863369117,0.0,135,,0.63,0.15,1.01,-4,-1,-1,1.2,1.34,89,7139,0.0,1.4,,6.55,0.857,66.4,,42.4,5,,,,,,,,,,,,0,0,0,0,0,0,0,0,0,0,0,0,0,0,0,0,,,,,0.0,,,,,,
969540,1744863369137,,,,,,,,,,,,,,,,,,,,,,,23,25,23,23,0.0,17.0,0.0,0.0,2.25,,,0,0,0,0,0,0,0,0,0,0,0,0,0,0,0,0,0,,,,,38.985794,-76.950897,36.89,35,3,0.8
969560,1744863369157,0.0,135,,0.58,0.3,1.01,-3,-1,-1,1.2,1.34,90,6975,0.0,1.4,,6.6,0.913,66.4,,42.4,5,,,,,,,,,,,,0,0,0,0,0,0,0,0,0,0,0,0,0,0,0,0,,,,,0.0,,,,,,
969580,1744863369177,,,,,,,,,,,,,,,,,,,,,,,,,,,,,,,,,,0,0,0,0,0,0,0,0,0,0,0,0,0,0,0,0,,,,,,,,,,,
969600,1744863369196,0.0,135,,0.45,0.33,0.99,-4,-1,-1,1.14,1.34,85,6889,0.0,1.4,,6.6,0.913,66.4,,45.0,5,,,,,,,,,,,,0,0,0,0,0,0,0,0,0,0,0,0,0,0,0,0,,,,,0.0,,,,,,
969620,1744863369216,,,,,,,,,,,,,,,,,,,,,,,,,,,,,,,,,,0,0,0,0,0,0,0,0,0,0,0,0,0,0,0,0,,,,,,,,,,,
969640,1744863369236,0.0,135,,0.3,0.07,0.98,0,-2,-2,1.02,1.34,76,6889,0.0,1.4,,6.79,0.96,66.4,,45.0,5,24,3,22,22,0.0,233.0,0.0,0.0,2.25,,,0,0,0,0,0,0,0,0,0,0,0,0,0,0,0,0,0,,,,0.0,38.985786,-76.950905,38.35,35,3,0.8
969660,1744863369256,,,,,,,,,,,,,,,,,,,,,,,,,,,,,,,,,,0,0,0,0,0,0,0,0,0,0,0,0,0,0,0,0,,,,,,,,,,,
969680,1744863369276,0.0,135,,0.27,0.09,0.98,-1,-1,-1,1.02,1.34,76,7398,11.3,2.52,,7.61,0.994,66.4,,47.3,5,,,,,,,,,,,,0,0,0,0,0,0,0,0,0,0,0,0,0,0,0,0,,,,,0.0,,,,,,
969700,1744863369300,,,,,,,,,,,,,,,,,,,,,,,,,,,,,,,,,,0,0,0,0,0,0,0,0,0,0,0,0,0,0,0,0,,,,,,,,,,,
969720,1744863369320,0.0,135,,0.17,0.08,0.98,0,-1,-1,0.99,1.34,74,7761,13.8,2.75,,8.42,1.031,64.6,,47.3,5,,,,,,,,,,,,0,0,0,0,0,0,0,0,0,0,0,0,0,0,0,0,,,,,0.0,,,,,,
969740,1744863369340,,,,,,,,,,,,,,,,,,,,,,,22,20,22,23,0.0,3.0,0.0,0.0,2.26,,,0,0,0,0,0,0,0,0,0,0,0,0,0,0,0,0,1,,,,,38.985779,-76.950912,35.53,35,3,0.8
969760,1744863369360,0.0,135,,0.09,-0.01,1.0,1,-1,-1,1.0,1.34,75,8054,14.1,2.82,,8.89,1.045,64.6,,47.3,5,,,,,,,,,,,,0,0,0,0,0,0,0,0,0,0,0,0,0,0,0,0,,,,,0.0,,,,,,
969780,1744863369380,,,,,,,,,,,,,,,,,,,,,,,,,,,,,,,,,,0,0,0,0,0,0,0,0,0,0,0,0,0,0,0,0,,,,,,,,,,,
969800,1744863369398,0.0,135,,0.15,-0.09,0.97,-1,-0,-1,0.98,1.34,73,8267,14.5,2.89,,8.89,1.045,64.6,,47.1,5,,,,,,,,,,,,0,0,0,0,0,0,0,0,0,0,0,0,0,0,0,0,,,,,0.0,,,,,,
969820,1744863369418,,,,,,,,,,,,,,,,,,,,,,,,,,,,,,,,,,0,0,0,0,0,0,0,0,0,0,0,0,0,0,0,0,,,,,,,,,,,
969840,1744863369438,0.0,135,,0.2,-0.06,0.96,-5,1,0,0.98,1.34,73,8267,14.5,2.89,,9.19,1.025,64.6,,47.1,5,22,10,24,24,0.0,33.0,0.0,0.0,2.26,,,0,0,0,0,0,0,0,0,0,0,0,0,0,0,0,0,1,,,,0.0,38.985775,-76.950928,35.13,35,3,0.8
969860,1744863369458,,,,,,,,,,,,,,,,,,,,,,,,,,,,,,,,,,0,0,0,0,0,0,0,0,0,0,0,0,0,0,0,0,,,,,,,,,,,
969880,1744863369478,0.0,135,,0.18,-0.11,0.97,-11,1,1,1.0,1.34,74,7649,13.8,2.96,,9.23,1.004,64.6,,42.7,5,,,,,,,,,,,,0,0,0,0,0,0,0,0,0,0,0,0,0,0,0,0,,,,,0.0,,,,,,
969900,1744863369500,,,,,,,,,,,,,,,,,,,,,,,,,,,,,,,,,,0,0,0,0,0,0,0,0,0,0,0,0,0,0,0,0,,,,,,,,,,,
969920,1744863369520,0.0,135,,0.13,0.12,0.99,-14,-0,2,1.0,1.34,75,7346,6.1,2.67,,8.81,1.005,64.6,,42.7,5,,,,,,,,,,,,0,0,0,0,0,0,0,0,0,0,0,0,0,0,0,0,,,,,0.0,,,,,,
969940,1744863369540,,,,,,,,,,,,,,,,,,,,,,,23,25,23,23,0.0,231.0,0.0,0.0,2.25,,,0,0,0,0,0,0,0,0,0,0,0,0,0,0,0,0,0,,,,,38.985767,-76.950935,35.48,35,3,0.8
969960,1744863369560,0.0,135,,0.11,0.14,0.98,-19,-0,3,1.0,1.0,100,7611,5.0,2.41,,8.3,1.026,64.6,,42.7,5,,,,,,,,,,,,0,0,0,0,0,0,0,0,0,0,0,0,0,0,0,0,,,,,0.0,,,,,,
969980,1744863369580,,,,,,,,,,,,,,,,,,,,,,,,,,,,,,,,,,0,0,0,0,0,0,0,0,0,0,0,0,0,0,0,0,,,,,,,,,,,
970000,1744863369600,0.0,135,,0.07,-0.12,0.99,-21,-0,3,1.0,1.0,100,7816,4.7,2.2,,8.3,1.026,64.6,,45.2,5,,,,,,,,,,,,0,0,0,0,0,0,0,0,0,0,0,0,0,0,0,0,,,,,0.0,,,,,,
970020,1744863369620,,,,,,,,,,,,,,,,,,,,,,,,,,,,,,,,,,0,0,0,0,0,0,0,0,0,0,0,0,0,0,0,0,,,,,,,,,,,
970040,1744863369640,0.0,135,,0.03,-0.09,0.95,-24,-1,2,0.96,1.0,96,7816,4.7,2.2,,8.02,1.019,64.6,,45.2,5,22,25,23,23,0.0,223.0,0.0,0.0,2.25,,,0,0,0,0,0,0,0,0,0,0,0,0,0,0,0,0,0,,,,0.0,38.98576,-76.950935,36.99,35,3,0.8
970060,1744863369660,,,,,,,,,,,,,,,,,,,,,,,,,,,,,,,,,,0,0,0,0,0,0,0,0,0,0,0,0,0,0,0,0,,,,,,,,,,,
970080,1744863369680,0.0,135,,-0.0,-0.2,0.96,-27,-1,3,0.98,1.0,98,7890,4.9,2.22,,7.82,1.026,64.6,,45.5,5,,,,,,,,,,,,0,0,0,0,0,0,0,0,0,0,0,0,0,0,0,0,,,,,0.0,,,,,,
970100,1744863369700,,,,,,,,,,,,,,,,,,,,,,,,,,,,,,,,,,0,0,0,0,0,0,0,0,0,0,0,0,0,0,0,0,,,,,,,,,,,
970120,1744863369720,0.0,135,,-0.04,-0.22,0.99,-27,0,2,1.01,1.01,100,7801,4.9,2.15,,7.63,1.034,64.6,,45.5,5,,,,,,,,,,,,0,0,0,0,0,0,0,0,0,0,0,0,0,0,0,0,,,,,0.0,,,,,,
970140,1744863369740,,,,,,,,,,,,,,,,,,,,,,,22,25,23,25,0.0,30.0,0.0,0.0,2.25,,,0,0,0,0,0,0,0,0,0,0,0,0,0,0,0,0,0,,,,,38.985756,-76.950951,36.31,35,3,0.8
970160,1744863369760,0.0,135,,-0.05,-0.18,0.98,-30,0,2,1.0,1.01,99,7629,7.8,2.27,,7.85,1.046,64.6,,45.5,5,,,,,,,,,,,,0,0,0,0,0,0,0,0,0,0,0,0,0,0,0,0,,,,,0.0,,,,,,
970180,1744863369780,,,,,,,,,,,,,,,,,,,,,,,,,,,,,,,,,,0,0,0,0,0,0,0,0,0,0,0,0,0,0,0,0,,,,,,,,,,,
970200,1744863369800,0.0,135,,-0.08,-0.2,0.96,-35,0,3,0.98,1.01,97,7587,12.8,2.71,,7.85,1.046,64.6,,45.7,5,,,,,,,,,,,,0,0,0,0,0,0,0,0,0,0,0,0,0,0,0,0,,,,,0.0,,,,,,
970220,1744863369820,,,,,,,,,,,,,,,,,,,,,,,,,,,,,,,,,,0,0,0,0,0,0,0,0,0,0,0,0,0,0,0,0,,,,,,,,,,,
970240,1744863369840,0.0,135,13.88,-0.14,-0.5,0.95,-40,0,4,1.08,1.08,100,7587,12.8,2.71,15,8.37,1.068,64.6,180,45.7,5,22,26,22,25,0.0,11.0,0.0,0.0,2.26,0,0.0,0,0,0,0,0,0,0,0,0,0,0,0,0,0,0,0,0,0.0,0,0,0.0,38.985748,-76.950958,36.56,35,3,0.8
970260,1744863369860,,,,,,,,,,,,,,,,,,,,,,,,,,,,,,,,,,0,0,0,0,0,0,0,0,0,0,0,0,0,0,0,0,,,,,,,,,,,
970280,1744863369880,0.0,135,,-0.19,-0.75,0.97,-42,-0,4,1.24,1.24,100,7683,13.7,2.79,,8.79,1.093,64.6,,47.3,5,,,,,,,,,,,,0,0,0,0,0,0,0,0,0,0,0,0,0,0,0,0,,,,,0.0,,,,,,
970300,1744863369900,,,,,,,,,,,,,,,,,,,,,,,,,,,,,,,,,,0,0,0,0,0,0,0,0,0,0,0,0,0,0,0,0,,,,,,,,,,,
970320,1744863369920,0.0,135,,-0.19,-0.68,0.93,-45,0,4,1.17,1.24,94,7816,11.5,2.87,,8.94,1.08,64.6,,47.3,5,,,,,,,,,,,,0,0,0,0,0,0,0,0,0,0,0,0,0,0,0,0,,,,,0.0,,,,,,
970340,1744863369940,,,,,,,,,,,,,,,,,,,,,,,22,25,22,24,0.0,11.0,0.0,0.0,2.26,,,0,0,0,0,0,0,0,0,0,0,0,0,0,0,0,0,0,,,,,38.985744,-76.950974,36.67,35,3,0.8
970360,1744863369960,0.0,135,,-0.19,-0.71,0.95,-47,0,3,1.2,1.24,97,8019,10.3,2.88,,8.75,1.083,64.6,,47.3,5,,,,,,,,,,,,0,0,0,0,0,0,0,0,0,0,0,0,0,0,0,0,,,,,0.0,,,,,,
970380,1744863369980,,,,,,,,,,,,,,,,,,,,,,,,,,,,,,,,,,0,0,0,0,0,0,0,0,0,0,0,0,0,0,0,0,,,,,,,,,,,
970400,1744863369992,0.0,135,,-0.18,-0.69,0.98,-49,1,3,1.21,1.24,98,8064,6.0,2.49,,8.75,1.083,64.6,,47.2,5,,,,,,,,,,,,0,0,0,0,0,0,0,0,0,0,0,0,0,0,0,0,,,,,0.0,,,,,,
970420,1744863370012,,,,,,,,,,,,,,,,,,,,,,,,,,,,,,,,,,0,0,0,0,0,0,0,0,0,0,0,0,0,0,0,0,,,,,,,,,,,
970440,1744863370032,0.0,135,,-0.17,-0.75,1.03,-50,1,3,1.28,1.28,100,8064,6.0,2.49,,8.43,1.05,64.6,,47.2,5,21,25,24,24,0.0,203.0,0.0,0.0,2.26,,,0,0,0,0,0,0,0,0,0,0,0,0,0,0,0,0,0,,,,0.0,38.985741,-76.950974,35.74,34,3,0.8
970460,1744863370052,,,,,,,,,,,,,,,,,,,,,,,,,,,,,,,,,,0,0,0,0,0,0,0,0,0,0,0,0,0,0,0,0,,,,,,,,,,,
970480,1744863370072,0.0,135,,-0.15,-0.72,1.03,-49,1,2,1.27,1.28,99,8060,3.0,1.59,,7.77,1.005,64.6,,48.3,5,,,,,,,,,,,,0,0,0,0,0,0,0,0,0,0,0,0,0,0,0,0,,,,,0.0,,,,,,
970500,1744863370096,,,,,,,,,,,,,,,,,,,,,,,,,,,,,,,,,,0,0,0,0,0,0,0,0,0,0,0,0,0,0,0,0,,,,,,,,,,,
970520,1744863370116,0.0,135,,-0.16,-0.56,1.03,-48,1,2,1.18,1.28,92,7554,9.1,2.43,,7.97,0.981,64.6,,48.3,5,,,,,,,,,,,,0,0,0,0,0,0,0,0,0,0,0,0,0,0,0,0,,,,,0.0,,,,,,
970540,1744863370136,,,,,,,,,,,,,,,,,,,,,,,22,25,22,27,0.0,8.0,0.0,0.0,2.26,,,0,0,0,0,0,0,0,0,0,0,0,0,0,0,0,0,0,,,,,38.985737,-76.950989,36.53,34,3,0.8
970560,1744863370156,0.0,135,,-0.15,-0.6,1.0,-45,1,-0,1.18,1.28,92,7328,16.5,2.78,,8.97,1.052,64.6,,48.3,5,,,,,,,,,,,,0,0,0,0,0,0,0,0,0,0,0,0,0,0,0,0,,,,,0.0,,,,,,
970580,1744863370176,,,,,,,,,,,,,,,,,,,,,,,,,,,,,,,,,,0,0,0,0,0,0,0,0,0,0,0,0,0,0,0,0,,,,,,,,,,,
970600,1744863370199,0.0,135,,-0.17,-0.9,1.0,-42,1,-1,1.36,1.36,100,7400,19.2,3.54,,8.97,1.052,64.6,,49.0,5,,,,,,,,,,,,0,0,0,0,0,0,0,0,0,0,0,0,0,0,0,0,,,,,0.0,,,,,,
970620,1744863370219,,,,,,,,,,,,,,,,,,,,,,,,,,,,,,,,,,0,0,0,0,0,0,0,0,0,0,0,0,0,0,0,0,,,,,,,,,,,
970640,1744863370239,0.0,135,,-0.23,-1.06,1.02,-41,1,-1,1.49,1.49,100,7400,19.2,3.54,,9.96,1.195,64.6,,49.0,5,22,24,22,25,0.0,35.0,0.0,0.0,2.25,,,0,0,0,0,0,0,0,0,0,0,0,0,0,0,0,0,0,,,,0.0,38.985733,-76.951004,37.32,34,3,0.8
970660,1744863370259,,,,,,,,,,,,,,,,,,,,,,,,,,,,,,,,,,0,0,0,0,0,0,0,0,0,0,0,0,0,0,0,0,,,,,,,,,,,
970680,1744863370279,0.0,135,,-0.2,-1.0,1.01,-40,1,-1,1.44,1.49,97,7725,19.7,3.81,,10.33,1.146,64.6,,49.0,5,,,,,,,,,,,,0,0,0,0,0,0,0,0,0,0,0,0,0,0,0,0,,,,,0.0,,,,,,
970700,1744863370299,,,,,,,,,,,,,,,,,,,,,,,,,,,,,,,,,,0,0,0,0,0,0,0,0,0,0,0,0,0,0,0,0,,,,,,,,,,,
970720,1744863370319,0.0,135,,-0.23,-0.94,1.03,-41,1,0,1.42,1.49,95,8293,18.5,3.63,,10.45,1.098,66.4,,49.0,5,,,,,,,,,,,,0,0,0,0,0,0,0,0,0,0,0,0,0,0,0,0,,,,,0.0,,,,,,
970740,1744863370339,,,,,,,,,,,,,,,,,,,,,,,23,24,23,25,0.0,155.0,0.0,0.0,2.26,,,0,0,0,0,0,0,0,0,0,0,0,0,0,0,0,0,1,,,,,38.985733,-76.951012,36.62,34,3,0.8
970760,1744863370359,0.0,135,,-0.17,-1.1,1.05,-42,2,1,1.53,1.53,100,8900,17.4,3.31,,9.89,1.009,66.4,,49.0,5,,,,,,,,,,,,0,0,0,0,0,0,0,0,0,0,0,0,0,0,0,0,,,,,0.0,,,,,,
970780,1744863370379,,,,,,,,,,,,,,,,,,,,,,,,,,,,,,,,,,0,0,0,0,0,0,0,0,0,0,0,0,0,0,0,0,,,,,,,,,,,
970800,1744863370401,0.0,135,,-0.1,-1.18,1.01,-44,2,-0,1.56,1.56,100,8811,6.9,2.92,,9.89,1.009,66.4,,49.3,5,,,,,,,,,,,,0,0,0,0,0,0,0,0,0,0,0,0,0,0,0,0,,,,,0.0,,,,,,
970820,1744863370421,,,,,,,,,,,,,,,,,,,,,,,,,,,,,,,,,,0,0,0,0,0,0,0,0,0,0,0,0,0,0,0,0,,,,,,,,,,,
970840,1744863370441,0.0,135,,-0.05,-1.25,1.03,-44,2,0,1.62,1.62,100,8811,6.9,2.92,,8.91,0.969,66.4,,49.3,5,21,25,26,27,0.0,53.0,0.0,0.0,2.25,,,0,0,0,0,0,0,0,0,0,0,0,0,0,0,0,0,1,,,,0.0,38.985733,-76.951027,36.05,34,3,0.8
970860,1744863370461,,,,,,,,,,,,,,,,,,,,,,,,,,,,,,,,,,0,0,0,0,0,0,0,0,0,0,0,0,0,0,0,0,,,,,,,,,,,
970880,1744863370481,0.0,135,,-0.09,-1.15,0.97,-44,1,0,1.51,1.62,93,8450,0.0,1.4,,7.78,0.965,66.4,,47.3,5,,,,,,,,,,,,0,0,0,0,0,0,0,0,0,0,0,0,0,0,0,0,,,,,0.0,,,,,,
970900,1744863370499,,,,,,,,,,,,,,,,,,,,,,,,,,,,,,,,,,0,0,0,0,0,0,0,0,0,0,0,0,0,0,0,0,,,,,,,,,,,
970920,1744863370519,0.0,135,,-0.15,-1.35,0.98,-45,1,0,1.67,1.67,100,7654,0.0,1.4,,6.99,0.942,66.4,,47.3,5,,,,,,,,,,,,0,0,0,0,0,0,0,0,0,0,0,0,0,0,0,0,,,,,0.0,,,,,,
970940,1744863370539,,,,,,,,,,,,,,,,,,,,,,,22,27,23,27,0.0,239.0,0.0,0.0,2.26,,,0,0,0,0,0,0,0,0,0,0,0,0,0,0,0,0,0,,,,,38.985733,-76.951042,38.5,34,3,0.8
970960,1744863370559,0.0,135,,-0.21,-1.43,0.94,-49,1,1,1.72,1.72,100,7279,0.0,1.4,,6.7,1.02,66.4,,47.3,5,,,,,,,,,,,,0,0,0,0,0,0,0,0,0,0,0,0,0,0,0,0,,,,,0.0,,,,,,
970980,1744863370579,,,,,,,,,,,,,,,,,,,,,,,,,,,,,,,,,,0,0,0,0,0,0,0,0,0,0,0,0,0,0,0,0,,,,,,,,,,,
971000,1744863370599,0.0,135,,-0.28,-1.33,0.96,-47,0,0,1.67,1.72,97,7092,0.0,1.4,,6.7,1.02,66.4,,47.9,5,,,,,,,,,,,,0,0,0,0,0,0,0,0,0,0,0,0,0,0,0,0,,,,,0.0,,,,,,
971020,1744863370619,,,,,,,,,,,,,,,,,,,,,,,,,,,,,,,,,,0,0,0,0,0,0,0,0,0,0,0,0,0,0,0,0,,,,,,,,,,,
971040,1744863370639,0.0,135,,-0.39,-1.55,0.92,-51,0,1,1.84,1.84,100,7092,0.0,1.4,,6.87,1.243,66.4,,47.9,5,23,27,21,25,0.0,145.0,0.0,0.0,2.25,,,0,0,0,0,0,0,0,0,0,0,0,0,0,0,0,0,0,,,,0.0,38.985733,-76.95105,39.06,34,3,0.8
971060,1744863370659,,,,,,,,,,,,,,,,,,,,,,,,,,,,,,,,,,0,0,0,0,0,0,0,0,0,0,0,0,0,0,0,0,,,,,,,,,,,
971080,1744863370679,0.0,135,,-0.46,-1.38,0.9,-55,0,1,1.71,1.84,93,7225,0.5,1.4,,6.87,1.249,66.4,,48.5,5,,,,,,,,,,,,0,0,0,0,0,0,0,0,0,0,0,0,0,0,0,0,,,,,0.0,,,,,,
971100,1744863370699,,,,,,,,,,,,,,,,,,,,,,,,,,,,,,,,,,0,0,0,0,0,0,0,0,0,0,0,0,0,0,0,0,,,,,,,,,,,
971120,1744863370719,0.0,135,,-0.49,-1.38,0.89,-55,1,0,1.71,1.84,93,7237,6.4,2.13,,7.22,1.248,66.4,,48.5,5,,,,,,,,,,,,0,0,0,0,0,0,0,0,0,0,0,0,0,0,0,0,,,,,0.0,,,,,,
971140,1744863370739,,,,,,,,,,,,,,,,,,,,,,,21,27,18,25,0.0,153.0,0.0,0.0,2.25,,,0,0,0,0,0,0,0,0,0,0,0,0,0,0,0,0,0,,,,,38.985737,-76.951057,36.38,34,3,0.8
971160,1744863370759,0.0,135,,-0.48,-1.13,0.93,-62,1,1,1.54,1.84,84,7180,8.2,2.45,,7.87,1.248,66.4,,48.5,5,,,,,,,,,,,,0,0,0,0,0,0,0,0,0,0,0,0,0,0,0,0,,,,,0.0,,,,,,
971180,1744863370779,,,,,,,,,,,,,,,,,,,,,,,,,,,,,,,,,,0,0,0,0,0,0,0,0,0,0,0,0,0,0,0,0,,,,,,,,,,,
971200,1744863370799,0.0,135,,-0.49,-1.35,0.95,-60,1,0,1.72,1.84,93,7265,8.8,2.59,,7.87,1.248,66.4,,48.4,5,,,,,,,,,,,,0,0,0,0,0,0,0,0,0,0,0,0,0,0,0,0,,,,,0.0,,,,,,
971220,1744863370819,,,,,,,,,,,,,,,,,,,,,,,,,,,,,,,,,,0,0,0,0,0,0,0,0,0,0,0,0,0,0,0,0,,,,,,,,,,,
971240,1744863370839,0.0,135,13.94,-0.51,-1.51,0.93,-61,1,0,1.85,1.85,100,7265,8.8,2.59,15,8.18,1.248,66.4,180,48.4,5,20,27,20,24,0.0,148.0,0.0,0.0,2.26,0,0.0,0,0,0,0,0,0,0,0,0,0,0,0,0,0,0,0,0,0.0,0,0,0.0,38.985741,-76.951073,33.87,34,3,0.8
971260,1744863370859,,,,,,,,,,,,,,,,,,,,,,,,,,,,,,,,,,0,0,0,0,0,0,0,0,0,0,0,0,0,0,0,0,,,,,,,,,,,
971280,1744863370879,0.0,135,,-0.49,-1.47,0.93,-64,2,-0,1.81,1.85,98,7408,12.6,2.75,,8.75,1.247,66.4,,49.0,5,,,,,,,,,,,,0,0,0,0,0,0,0,0,0,0,0,0,0,0,0,0,,,,,0.0,,,,,,
971300,1744863370901,,,,,,,,,,,,,,,,,,,,,,,,,,,,,,,,,,0,0,0,0,0,0,0,0,0,0,0,0,0,0,0,0,,,,,,,,,,,
971320,1744863370921,0.0,135,,-0.45,-1.2,0.93,-67,2,1,1.59,1.85,86,7385,20.8,3.54,,9.89,1.146,66.4,,49.0,5,,,,,,,,,,,,0,0,0,0,0,0,0,0,0,0,0,0,0,0,0,0,,,,,0.0,,,,,,
971340,1744863370941,,,,,,,,,,,,,,,,,,,,,,,20,24,20,23,0.0,211.0,0.0,0.0,2.26,,,0,0,0,0,0,0,0,0,0,0,0,0,0,0,0,0,0,,,,,38.985744,-76.95108,33.39,34,3,0.8
971360,1744863370961,0.0,135,,-0.39,-0.95,0.94,-69,2,0,1.39,1.85,75,7533,25.0,4.04,,10.86,1.13,66.4,,49.0,5,,,,,,,,,,,,0,0,0,0,0,0,0,0,0,0,0,0,0,0,0,0,,,,,0.0,,,,,,
971380,1744863370981,,,,,,,,,,,,,,,,,,,,,,,,,,,,,,,,,,0,0,0,0,0,0,0,0,0,0,0,0,0,0,0,0,,,,,,,,,,,
971400,1744863370993,0.0,135,,-0.32,-0.89,0.96,-66,2,0,1.34,1.85,73,8051,26.1,5.34,,10.86,1.13,66.4,,48.7,5,,,,,,,,,,,,0,0,0,0,0,0,0,0,0,0,0,0,0,0,0,0,,,,,0.0,,,,,,
971420,1744863371013,,,,,,,,,,,,,,,,,,,,,,,,,,,,,,,,,,0,0,0,0,0,0,0,0,0,0,0,0,0,0,0,0,,,,,,,,,,,
971440,1744863371033,0.0,135,,-0.24,-0.83,0.98,-63,3,0,1.31,1.85,71,8051,26.1,5.34,,11.38,1.112,66.4,,48.7,5,21,22,23,23,0.0,253.0,0.0,0.0,2.26,,,0,0,0,0,0,0,0,0,0,0,0,0,0,0,0,0,0,,,,0.0,38.985748,-76.951096,33.35,35,3,0.8
971460,1744863371053,,,,,,,,,,,,,,,,,,,,,,,,,,,,,,,,,,0,0,0,0,0,0,0,0,0,0,0,0,0,0,0,0,,,,,,,,,,,
971480,1744863371073,0.0,135,,-0.14,-0.92,0.95,-60,3,-0,1.33,1.85,72,8225,25.8,5.18,,11.58,0.999,66.4,,49.4,5,,,,,,,,,,,,0,0,0,0,0,0,0,0,0,0,0,0,0,0,0,0,,,,,0.0,,,,,,
971500,1744863371098,,,,,,,,,,,,,,,,,,,,,,,,,,,,,,,,,,0,0,0,0,0,0,0,0,0,0,0,0,0,0,0,0,,,,,,,,,,,
971520,1744863371118,0.0,135,,-0.11,-0.79,0.95,-58,2,0,1.24,1.85,67,8216,21.2,5.04,,11.34,0.874,66.4,,49.4,5,,,,,,,,,,,,0,0,0,0,0,0,0,0,0,0,0,0,0,0,0,0,,,,,0.0,,,,,,
971540,1744863371138,,,,,,,,,,,,,,,,,,,,,,,21,22,23,25,0.0,107.0,0.0,0.0,2.25,,,0,0,0,0,0,0,0,0,0,0,0,0,0,0,0,0,0,,,,,38.985756,-76.951096,34.68,35,3,0.8
971560,1744863371158,0.0,135,,-0.08,-0.73,0.95,-58,2,1,1.21,1.85,65,8370,13.0,3.33,,10.4,0.821,66.4,,49.4,5,,,,,,,,,,,,0,0,0,0,0,0,0,0,0,0,0,0,0,0,0,0,,,,,0.0,,,,,,
971580,1744863371178,,,,,,,,,,,,,,,,,,,,,,,,,,,,,,,,,,0,0,0,0,0,0,0,0,0,0,0,0,0,0,0,0,,,,,,,,,,,
971600,1744863371194,0.0,135,,-0.09,-0.84,0.93,-58,1,2,1.26,1.85,68,8545,9.6,3.08,,10.4,0.821,66.4,,48.8,5,,,,,,,,,,,,0,0,0,0,0,0,0,0,0,0,0,0,0,0,0,0,,,,,0.0,,,,,,
971620,1744863371214,,,,,,,,,,,,,,,,,,,,,,,,,,,,,,,,,,0,0,0,0,0,0,0,0,0,0,0,0,0,0,0,0,,,,,,,,,,,
971640,1744863371234,0.0,135,,-0.11,-0.81,0.95,-59,2,3,1.26,1.85,68,8545,9.6,3.08,,9.41,0.789,66.4,,48.8,5,22,22,27,25,0.0,201.0,0.0,0.0,2.25,,,0,0,0,0,0,0,0,0,0,0,0,0,0,0,0,0,1,,,,0.0,38.98576,-76.951103,37.44,35,3,0.8
971660,1744863371254,,,,,,,,,,,,,,,,,,,,,,,,,,,,,,,,,,0,0,0,0,0,0,0,0,0,0,0,0,0,0,0,0,,,,,,,,,,,
971680,1744863371274,0.0,135,,-0.12,-0.98,0.92,-59,2,3,1.35,1.85,73,8692,8.1,2.7,,8.65,0.793,66.4,,46.9,5,,,,,,,,,,,,0,0,0,0,0,0,0,0,0,0,0,0,0,0,0,0,,,,,0.0,,,,,,
971700,1744863371300,,,,,,,,,,,,,,,,,,,,,,,,,,,,,,,,,,0,0,0,0,0,0,0,0,0,0,0,0,0,0,0,0,,,,,,,,,,,
971720,1744863371320,0.0,135,,-0.11,-0.98,0.87,-60,2,3,1.32,1.85,71,8729,7.8,2.52,,8.13,0.826,66.4,,46.9,5,,,,,,,,,,,,0,0,0,0,0,0,0,0,0,0,0,0,0,0,0,0,,,,,0.0,,,,,,
971740,1744863371340,,,,,,,,,,,,,,,,,,,,,,,22,22,26,27,0.0,166.0,0.0,0.0,2.25,,,0,0,0,0,0,0,0,0,0,0,0,0,0,0,0,0,1,,,,,38.985767,-76.951118,38.04,35,3,0.8
971760,1744863371360,0.0,135,,-0.1,-0.98,0.92,-60,3,2,1.35,1.85,73,8599,4.8,2.24,,7.81,0.859,66.4,,46.9,5,,,,,,,,,,,,0,0,0,0,0,0,0,0,0,0,0,0,0,0,0,0,,,,,0.0,,,,,,
971780,1744863371380,,,,,,,,,,,,,,,,,,,,,,,,,,,,,,,,,,0,0,0,0,0,0,0,0,0,0,0,0,0,0,0,0,,,,,,,,,,,
971820,1744863371420,,,,,,,,,,,,,,,,,,,,,,,,,,,,,,,,,,0,0,0,0,0,0,0,0,0,0,0,0,0,0,0,0,,,,,,,,,,,
971920,1744863371520,0.0,135,,-0.21,-1.02,0.93,-54,1,1,1.39,1.39,100,7450,2.5,1.4,,6.96,0.998,66.4,,48.4,5,,,,,,,,,,,,0,0,0,0,0,0,0,0,0,0,0,0,0,0,0,0,,,,,0.0,,,,,,
972020,1744863371620,,,,,,,,,,,,,,,,,,,,,,,,,,,,,,,,,,0,0,0,0,0,0,0,0,0,0,0,0,0,0,0,0,,,,,,,,,,,
972100,1744863371698,,,,,,,,,,,,,,,,,,,,,,,,,,,,,,,,,,0,0,0,0,0,0,0,0,0,0,0,0,0,0,0,0,,,,,,,,,,,
972180,1744863371778,,,,,,,,,,,,,,,,,,,,,,,,,,,,,,,,,,0,0,0,0,0,0,0,0,0,0,0,0,0,0,0,0,,,,,,,,,,,
972200,1744863371800,0.0,135,,-0.57,-1.04,0.92,-70,1,1,1.5,1.54,97,6584,11.2,2.61,,7.47,1.248,66.4,,47.5,5,,,,,,,,,,,,0,0,0,0,0,0,0,0,0,0,0,0,0,0,0,0,,,,,0.0,,,,,,
972220,1744863371820,,,,,,,,,,,,,,,,,,,,,,,,,,,,,,,,,,0,0,0,0,0,0,0,0,0,0,0,0,0,0,0,0,,,,,,,,,,,
972240,1744863371840,0.0,135,13.99,-0.56,-1.13,0.91,-71,1,1,1.56,1.56,100,6584,11.2,2.61,15,8.47,1.249,66.4,180,47.5,5,20,22,17,21,0.0,18.0,0.0,0.0,2.26,0,0.0,0,0,0,0,0,0,0,0,0,0,0,0,0,0,0,0,1,0.0,0,0,0.0,38.985809,-76.951134,33.29,35,3,0.8
972260,1744863371860,,,,,,,,,,,,,,,,,,,,,,,,,,,,,,,,,,0,0,0,0,0,0,0,0,0,0,0,0,0,0,0,0,,,,,,,,,,,
972280,1744863371880,0.0,135,,-0.54,-1.14,0.93,-72,1,1,1.57,1.57,100,6630,19.7,3.28,,10.2,1.248,66.4,,46.7,5,,,,,,,,,,,,0,0,0,0,0,0,0,0,0,0,0,0,0,0,0,0,,,,,0.0,,,,,,
972300,1744863371898,,,,,,,,,,,,,,,,,,,,,,,,,,,,,,,,,,0,0,0,0,0,0,0,0,0,0,0,0,0,0,0,0,,,,,,,,,,,
972360,1744863371958,0.0,135,,-0.4,-0.77,0.95,-70,1,1,1.29,1.57,82,7680,25.3,5.46,,11.69,1.235,66.4,,46.7,5,,,,,,,,,,,,0,0,0,0,0,0,0,0,0,0,0,0,0,0,0,0,,,,,0.0,,,,,,
972380,1744863371978,,,,,,,,,,,,,,,,,,,,,,,,,,,,,,,,,,0,0,0,0,0,0,0,0,0,0,0,0,0,0,0,0,,,,,,,,,,,
972400,1744863371992,0.0,135,,-0.33,-0.84,0.96,-66,1,1,1.32,1.57,84,8428,26.3,5.09,,11.69,1.235,66.4,,47.2,5,,,,,,,,,,,,0,0,0,0,0,0,0,0,0,0,0,0,0,0,0,0,,,,,0.0,,,,,,
972420,1744863372012,,,,,,,,,,,,,,,,,,,,,,,,,,,,,,,,,,0,0,0,0,0,0,0,0,0,0,0,0,0,0,0,0,,,,,,,,,,,
972440,1744863372032,0.0,135,,-0.2,-0.93,0.99,-62,1,-0,1.37,1.57,87,8428,26.3,5.09,,11.57,1.024,66.4,,47.2,5,20,26,26,22,0.0,124.0,0.0,0.0,2.26,,,0,0,0,0,0,0,0,0,0,0,0,0,0,0,0,0,0,,,,0.0,38.985825,-76.951134,32.07,34,3,0.8
972460,1744863372052,,,,,,,,,,,,,,,,,,,,,,,,,,,,,,,,,,0,0,0,0,0,0,0,0,0,0,0,0,0,0,0,0,,,,,,,,,,,
972480,1744863372072,0.0,135,,-0.12,-0.9,0.99,-60,2,0,1.34,1.57,85,8463,20.7,4.93,,11.18,0.863,66.4,,47.5,5,,,,,,,,,,,,0,0,0,0,0,0,0,0,0,0,0,0,0,0,0,0,,,,,0.0,,,,,,
972500,1744863372097,,,,,,,,,,,,,,,,,,,,,,,,,,,,,,,,,,0,0,0,0,0,0,0,0,0,0,0,0,0,0,0,0,,,,,,,,,,,
972520,1744863372117,0.0,135,,-0.08,-1.03,1.0,-58,1,1,1.44,1.57,92,8222,7.2,3.18,,9.89,0.824,66.4,,47.5,5,,,,,,,,,,,,0,0,0,0,0,0,0,0,0,0,0,0,0,0,0,0,,,,,0.0,,,,,,
972540,1744863372137,,,,,,,,,,,,,,,,,,,,,,,21,26,24,24,0.0,13.0,0.0,0.0,2.26,,,0,0,0,0,0,0,0,0,0,0,0,0,0,0,0,0,0,,,,,38.985832,-76.951134,33.33,34,3,0.8
972560,1744863372157,0.0,135,,-0.07,-0.88,1.03,-57,1,1,1.35,1.57,86,7914,0.0,1.4,,8.59,0.801,66.4,,47.5,5,,,,,,,,,,,,0,0,0,0,0,0,0,0,0,0,0,0,0,0,0,0,,,,,0.0,,,,,,
972580,1744863372177,,,,,,,,,,,,,,,,,,,,,,,,,,,,,,,,,,0,0,0,0,0,0,0,0,0,0,0,0,0,0,0,0,,,,,,,,,,,
972600,1744863372199,0.0,135,,-0.09,-0.72,1.01,-58,1,2,1.24,1.57,79,7470,0.0,1.4,,8.59,0.801,66.4,,46.8,5,,,,,,,,,,,,0,0,0,0,0,0,0,0,0,0,0,0,0,0,0,0,,,,,0.0,,,,,,
972620,1744863372219,,,,,,,,,,,,,,,,,,,,,,,,,,,,,,,,,,0,0,0,0,0,0,0,0,0,0,0,0,0,0,0,0,,,,,,,,,,,
972640,1744863372239,0.0,135,,-0.1,-0.57,1.01,-58,0,2,1.17,1.57,74,7470,0.0,1.4,,7.71,0.802,66.4,,46.8,5,21,26,22,24,0.0,182.0,0.0,0.0,2.26,,,0,0,0,0,0,0,0,0,0,0,0,0,0,0,0,0,1,,,,0.0,38.985844,-76.951134,36.7,34,3,0.8
972660,1744863372259,,,,,,,,,,,,,,,,,,,,,,,,,,,,,,,,,,0,0,0,0,0,0,0,0,0,0,0,0,0,0,0,0,,,,,,,,,,,
972680,1744863372279,0.0,135,,-0.17,-0.62,1.04,-57,-0,3,1.23,1.57,78,7065,0.0,1.4,,7.42,0.884,66.4,,45.2,5,,,,,,,,,,,,0,0,0,0,0,0,0,0,0,0,0,0,0,0,0,0,,,,,0.0,,,,,,
972700,1744863372299,,,,,,,,,,,,,,,,,,,,,,,,,,,,,,,,,,0,0,0,0,0,0,0,0,0,0,0,0,0,0,0,0,,,,,,,,,,,
972720,1744863372319,0.0,135,,-0.26,-0.73,1.06,-58,-0,2,1.31,1.57,84,6706,0.0,1.4,,7.35,1.089,66.4,,45.2,5,,,,,,,,,,,,0,0,0,0,0,0,0,0,0,0,0,0,0,0,0,0,,,,,0.0,,,,,,
972740,1744863372339,,,,,,,,,,,,,,,,,,,,,,,21,26,21,24,0.0,161.0,0.0,0.0,2.25,,,0,0,0,0,0,0,0,0,0,0,0,0,0,0,0,0,1,,,,,38.985851,-76.951134,36.51,34,3,0.8
972760,1744863372359,0.0,135,,-0.34,-0.79,1.01,-59,-0,1,1.32,1.57,84,6700,10.6,2.55,,8.18,1.249,66.4,,45.2,5,,,,,,,,,,,,0,0,0,0,0,0,0,0,0,0,0,0,0,0,0,0,,,,,0.0,,,,,,
972780,1744863372379,,,,,,,,,,,,,,,,,,,,,,,,,,,,,,,,,,0,0,0,0,0,0,0,0,0,0,0,0,0,0,0,0,,,,,,,,,,,
972800,1744863372399,0.0,135,,-0.37,-0.79,1.0,-62,0,2,1.33,1.57,85,6831,28.6,4.32,,8.18,1.249,66.4,,45.9,5,,,,,,,,,,,,0,0,0,0,0,0,0,0,0,0,0,0,0,0,0,0,,,,,0.0,,,,,,
972820,1744863372419,,,,,,,,,,,,,,,,,,,,,,,,,,,,,,,,,,0,0,0,0,0,0,0,0,0,0,0,0,0,0,0,0,,,,,,,,,,,
972840,1744863372439,0.0,135,,-0.4,-1.04,1.01,-61,1,1,1.5,1.57,96,6831,28.6,4.32,,10.86,1.248,66.4,,45.9,5,20,26,18,23,0.0,145.0,0.0,0.0,2.26,,,0,0,0,0,0,0,0,0,0,0,0,0,0,0,0,0,0,,,,0.0,38.985859,-76.951126,34.99,34,3,0.8
972860,1744863372459,,,,,,,,,,,,,,,,,,,,,,,,,,,,,,,,,,0,0,0,0,0,0,0,0,0,0,0,0,0,0,0,0,,,,,,,,,,,
972880,1744863372479,0.0,135,,-0.39,-1.08,0.99,-61,1,1,1.52,1.57,97,7564,31.7,6.18,,12.15,1.246,66.4,,45.4,5,,,,,,,,,,,,0,0,0,0,0,0,0,0,0,0,0,0,0,0,0,0,,,,,0.0,,,,,,
972900,1744863372499,,,,,,,,,,,,,,,,,,,,,,,,,,,,,,,,,,0,0,0,0,0,0,0,0,0,0,0,0,0,0,0,0,,,,,,,,,,,
972920,1744863372519,0.0,135,,-0.28,-1.17,1.01,-59,2,0,1.57,1.57,100,8358,33.1,5.85,,12.2,1.212,66.4,,45.4,5,,,,,,,,,,,,0,0,0,0,0,0,0,0,0,0,0,0,0,0,0,0,,,,,0.0,,,,,,
972940,1744863372539,,,,,,,,,,,,,,,,,,,,,,,20,26,20,24,0.0,134.0,0.0,0.0,2.26,,,0,0,0,0,0,0,0,0,0,0,0,0,0,0,0,0,0,,,,,38.985867,-76.951118,32.49,34,3,0.8
972960,1744863372559,0.0,135,,-0.17,-1.08,0.99,-60,4,1,1.47,1.47,100,8783,32.9,5.27,,12.13,0.971,66.4,,45.4,5,,,,,,,,,,,,0,0,0,0,0,0,0,0,0,0,0,0,0,0,0,0,,,,,0.0,,,,,,
972980,1744863372579,,,,,,,,,,,,,,,,,,,,,,,,,,,,,,,,,,0,0,0,0,0,0,0,0,0,0,0,0,0,0,0,0,,,,,,,,,,,
973000,1744863372599,0.0,135,,-0.03,-1.02,0.97,-59,4,1,1.41,1.47,96,8640,26.2,4.96,,12.13,0.971,66.4,,46.4,5,,,,,,,,,,,,0,0,0,0,0,0,0,0,0,0,0,0,0,0,0,0,,,,,0.0,,,,,,
973020,1744863372619,,,,,,,,,,,,,,,,,,,,,,,,,,,,,,,,,,0,0,0,0,0,0,0,0,0,0,0,0,0,0,0,0,,,,,,,,,,,
973040,1744863372639,0.0,135,,0.04,-1.05,0.95,-57,4,1,1.41,1.47,96,8640,26.2,4.96,,11.64,0.867,66.4,,46.4,5,21,26,26,27,0.0,31.0,0.0,0.0,2.26,,,0,0,0,0,0,0,0,0,0,0,0,0,0,0,0,0,1,,,,0.0,38.985874,-76.951111,33.45,34,3,0.8
973060,1744863372659,,,,,,,,,,,,,,,,,,,,,,,,,,,,,,,,,,0,0,0,0,0,0,0,0,0,0,0,0,0,0,0,0,,,,,,,,,,,
973080,1744863372679,0.0,135,,0.05,-0.92,1.01,-56,3,2,1.37,1.47,93,8525,20.9,4.93,,11.02,0.848,66.4,,45.8,5,,,,,,,,,,,,0,0,0,0,0,0,0,0,0,0,0,0,0,0,0,0,,,,,0.0,,,,,,
973100,1744863372699,,,,,,,,,,,,,,,,,,,,,,,,,,,,,,,,,,0,0,0,0,0,0,0,0,0,0,0,0,0,0,0,0,,,,,,,,,,,
973120,1744863372719,0.0,135,,0.06,-0.99,1.04,-55,3,2,1.44,1.47,98,8727,18.8,4.19,,10.61,0.831,66.4,,45.8,5,,,,,,,,,,,,0,0,0,0,0,0,0,0,0,0,0,0,0,0,0,0,,,,,0.0,,,,,,
973140,1744863372739,,,,,,,,,,,,,,,,,,,,,,,23,26,25,25,0.0,58.0,0.0,0.0,2.26,,,0,0,0,0,0,0,0,0,0,0,0,0,0,0,0,0,1,,,,,38.985878,-76.951096,37.97,34,3,0.8
973160,1744863372759,0.0,135,,0.05,-1.11,1.03,-54,2,2,1.51,1.51,100,9014,14.3,3.22,,9.76,0.802,66.4,,45.8,5,,,,,,,,,,,,0,0,0,0,0,0,0,0,0,0,0,0,0,0,0,0,,,,,0.0,,,,,,
973180,1744863372779,,,,,,,,,,,,,,,,,,,,,,,,,,,,,,,,,,0,0,0,0,0,0,0,0,0,0,0,0,0,0,0,0,,,,,,,,,,,
973200,1744863372799,0.0,135,,0.05,-1.23,1.05,-54,2,2,1.62,1.62,100,9036,2.7,2.43,,9.76,0.802,66.4,,44.1,5,,,,,,,,,,,,0,0,0,0,0,0,0,0,0,0,0,0,0,0,0,0,,,,,0.0,,,,,,
973220,1744863372819,,,,,,,,,,,,,,,,,,,,,,,,,,,,,,,,,,0,0,0,0,0,0,0,0,0,0,0,0,0,0,0,0,,,,,,,,,,,
973240,1744863372839,0.0,135,13.92,0.03,-1.26,1.02,-53,1,2,1.62,1.62,100,9036,2.7,2.43,15,8.45,0.807,66.4,180,44.1,5,23,26,27,27,0.0,135.0,0.0,0.0,2.26,0,0.0,0,0,0,0,0,0,0,0,0,0,0,0,0,0,0,0,1,0.0,0,0,0.0,38.985882,-76.951096,39.41,34,3,0.8
973260,1744863372859,,,,,,,,,,,,,,,,,,,,,,,,,,,,,,,,,,0,0,0,0,0,0,0,0,0,0,0,0,0,0,0,0,,,,,,,,,,,
973280,1744863372879,0.0,135,,-0.03,-1.26,1.03,-53,0,2,1.63,1.63,100,8709,0.0,1.4,,7.35,0.838,66.4,,44.5,5,,,,,,,,,,,,0,0,0,0,0,0,0,0,0,0,0,0,0,0,0,0,,,,,0.0,,,,,,
973300,1744863372899,,,,,,,,,,,,,,,,,,,,,,,,,,,,,,,,,,0,0,0,0,0,0,0,0,0,0,0,0,0,0,0,0,,,,,,,,,,,
973320,1744863372919,0.0,135,,-0.07,-1.19,1.03,-54,-0,2,1.57,1.63,96,8411,0.0,1.4,,6.6,0.868,66.4,,44.5,5,,,,,,,,,,,,0,0,0,0,0,0,0,0,0,0,0,0,0,0,0,0,,,,,0.0,,,,,,
973340,1744863372939,,,,,,,,,,,,,,,,,,,,,,,23,26,24,26,0.0,39.0,0.0,0.0,2.26,,,0,0,0,0,0,0,0,0,0,0,0,0,0,0,0,0,1,,,,,38.985889,-76.95108,40.08,34,3,0.8
973360,1744863372959,0.0,135,,-0.13,-1.27,1.06,-55,-0,2,1.66,1.66,100,8092,0.0,1.4,,6.28,1.005,66.4,,44.5,5,,,,,,,,,,,,0,0,0,0,0,0,0,0,0,0,0,0,0,0,0,0,,,,,0.0,,,,,,
973380,1744863372979,,,,,,,,,,,,,,,,,,,,,,,,,,,,,,,,,,0,0,0,0,0,0,0,0,0,0,0,0,0,0,0,0,,,,,,,,,,,
973400,1744863372991,0.0,135,,-0.15,-1.19,1.04,-58,0,2,1.59,1.66,96,7930,1.7,1.4,,6.28,1.005,66.4,,45.4,5,,,,,,,,,,,,0,0,0,0,0,0,0,0,0,0,0,0,0,0,0,0,,,,,0.0,,,,,,
973420,1744863373011,,,,,,,,,,,,,,,,,,,,,,,,,,,,,,,,,,0,0,0,0,0,0,0,0,0,0,0,0,0,0,0,0,,,,,,,,,,,
973440,1744863373031,0.0,135,,-0.21,-1.28,1.04,-58,1,2,1.66,1.66,100,7930,1.7,1.4,,6.31,1.127,66.4,,45.4,5,24,26,24,27,0.0,69.0,0.0,0.0,2.26,,,0,0,0,0,0,0,0,0,0,0,0,0,0,0,0,0,0,,,,0.0,38.985893,-76.951065,41.22,33,3,0.9
973460,1744863373051,,,,,,,,,,,,,,,,,,,,,,,,,,,,,,,,,,0,0,0,0,0,0,0,0,0,0,0,0,0,0,0,0,,,,,,,,,,,
973480,1744863373071,0.0,135,,-0.26,-1.25,1.06,-56,1,0,1.66,1.66,100,7625,5.8,1.92,,6.74,1.153,66.4,,45.6,5,,,,,,,,,,,,0,0,0,0,0,0,0,0,0,0,0,0,0,0,0,0,,,,,0.0,,,,,,
973500,1744863373101,,,,,,,,,,,,,,,,,,,,,,,,,,,,,,,,,,0,0,0,0,0,0,0,0,0,0,0,0,0,0,0,0,,,,,,,,,,,
973520,1744863373121,0.0,135,,-0.33,-1.28,1.02,-58,2,-0,1.66,1.66,100,7797,6.3,2.08,,7.08,1.177,66.4,,45.6,5,,,,,,,,,,,,0,0,0,0,0,0,0,0,0,0,0,0,0,0,0,0,,,,,0.0,,,,,,
973540,1744863373141,,,,,,,,,,,,,,,,,,,,,,,21,26,22,25,0.0,209.0,0.0,0.0,2.26,,,0,0,0,0,0,0,0,0,0,0,0,0,0,0,0,0,0,,,,,38.985897,-76.951057,38.2,33,3,0.9
973560,1744863373161,0.0,135,,-0.37,-1.16,1.04,-59,1,0,1.6,1.66,96,8060,8.2,2.39,,7.45,1.249,66.4,,45.6,5,,,,,,,,,,,,0,0,0,0,0,0,0,0,0,0,0,0,0,0,0,0,,,,,0.0,,,,,,
973580,1744863373181,,,,,,,,,,,,,,,,,,,,,,,,,,,,,,,,,,0,0,0,0,0,0,0,0,0,0,0,0,0,0,0,0,,,,,,,,,,,
973600,1744863373198,0.0,135,,-0.37,-1.2,1.05,-58,1,-0,1.64,1.66,98,8217,10.0,2.47,,7.45,1.249,66.4,,45.6,5,,,,,,,,,,,,0,0,0,0,0,0,0,0,0,0,0,0,0,0,0,0,,,,,0.0,,,,,,
973620,1744863373218,,,,,,,,,,,,,,,,,,,,,,,,,,,,,,,,,,0,0,0,0,0,0,0,0,0,0,0,0,0,0,0,0,,,,,,,,,,,
973640,1744863373238,0.0,135,,-0.36,-1.11,1.05,-58,-0,-1,1.57,1.66,94,8217,10.0,2.47,,7.75,1.149,66.4,,45.6,5,22,26,23,24,0.0,55.0,0.0,0.0,2.26,,,0,0,0,0,0,0,0,0,0,0,0,0,0,0,0,0,1,,,,0.0,38.985901,-76.95105,36.87,34,3,0.9
973660,1744863373258,,,,,,,,,,,,,,,,,,,,,,,,,,,,,,,,,,0,0,0,0,0,0,0,0,0,0,0,0,0,0,0,0,,,,,,,,,,,
973680,1744863373278,0.0,135,,-0.38,-1.21,1.03,-59,-1,0,1.63,1.66,98,8341,12.1,2.55,,8.22,1.065,66.4,,45.6,5,,,,,,,,,,,,0,0,0,0,0,0,0,0,0,0,0,0,0,0,0,0,,,,,0.0,,,,,,
973700,1744863373300,,,,,,,,,,,,,,,,,,,,,,,,,,,,,,,,,,0,0,0,0,0,0,0,0,0,0,0,0,0,0,0,0,,,,,,,,,,,
973720,1744863373320,0.0,135,,-0.45,-1.25,0.98,-60,-1,2,1.65,1.66,99,8319,13.1,2.67,,8.41,1.026,66.4,,45.6,5,,,,,,,,,,,,0,0,0,0,0,0,0,0,0,0,0,0,0,0,0,0,,,,,0.0,,,,,,
973740,1744863373340,,,,,,,,,,,,,,,,,,,,,,,22,26,26,27,0.0,15.0,0.0,0.0,2.26,,,0,0,0,0,0,0,0,0,0,0,0,0,0,0,0,0,1,,,,,38.985901,-76.951035,36.59,34,3,0.9
973760,1744863373360,0.0,135,,-0.41,-1.25,0.96,-62,0,2,1.63,1.66,98,8387,13.7,2.74,,8.7,1.028,66.4,,45.6,5,,,,,,,,,,,,0,0,0,0,0,0,0,0,0,0,0,0,0,0,0,0,,,,,0.0,,,,,,
973780,1744863373380,,,,,,,,,,,,,,,,,,,,,,,,,,,,,,,,,,0,0,0,0,0,0,0,0,0,0,0,0,0,0,0,0,,,,,,,,,,,
973800,1744863373400,0.0,135,,-0.38,-1.17,0.96,-65,2,3,1.56,1.66,94,8532,13.8,2.79,,8.7,1.028,66.4,,45.2,5,,,,,,,,,,,,0,0,0,0,0,0,0,0,0,0,0,0,0,0,0,0,,,,,0.0,,,,,,
973820,1744863373420,,,,,,,,,,,,,,,,,,,,,,,,,,,,,,,,,,0,0,0,0,0,0,0,0,0,0,0,0,0,0,0,0,,,,,,,,,,,
973840,1744863373440,0.0,135,,-0.36,-1.24,0.96,-65,3,2,1.61,1.66,96,8532,13.8,2.79,,8.82,1.028,66.4,,45.2,5,21,26,23,25,0.0,243.0,0.0,0.0,2.26,,,0,0,0,0,0,0,0,0,0,0,0,0,0,0,0,0,1,,,,0.0,38.985901,-76.951019,35.89,34,3,0.9
973860,1744863373460,,,,,,,,,,,,,,,,,,,,,,,,,,,,,,,,,,0,0,0,0,0,0,0,0,0,0,0,0,0,0,0,0,,,,,,,,,,,
973880,1744863373480,0.0,135,,-0.29,-1.28,0.97,-66,3,4,1.63,1.66,98,8599,13.6,2.85,,8.83,1.036,66.4,,44.6,5,,,,,,,,,,,,0,0,0,0,0,0,0,0,0,0,0,0,0,0,0,0,,,,,0.0,,,,,,
973900,1744863373500,,,,,,,,,,,,,,,,,,,,,,,,,,,,,,,,,,0,0,0,0,0,0,0,0,0,0,0,0,0,0,0,0,,,,,,,,,,,
973920,1744863373520,0.0,135,,-0.28,-1.21,0.94,-63,2,3,1.56,1.56,100,8347,13.3,2.86,,8.91,1.039,66.4,,44.6,5,,,,,,,,,,,,0,0,0,0,0,0,0,0,0,0,0,0,0,0,0,0,,,,,0.0,,,,,,
973940,1744863373540,,,,,,,,,,,,,,,,,,,,,,,20,26,27,27,0.0,26.0,0.0,0.0,2.26,,,0,0,0,0,0,0,0,0,0,0,0,0,0,0,0,0,1,,,,,38.985901,-76.951012,35.59,34,3,0.9
973960,1744863373560,0.0,135,,-0.25,-1.17,0.98,-62,1,2,1.54,1.56,99,8121,13.3,2.87,,9.09,1.025,66.4,,44.6,5,,,,,,,,,,,,0,0,0,0,0,0,0,0,0,0,0,0,0,0,0,0,,,,,0.0,,,,,,
973980,1744863373580,,,,,,,,,,,,,,,,,,,,,,,,,,,,,,,,,,0,0,0,0,0,0,0,0,0,0,0,0,0,0,0,0,,,,,,,,,,,
974000,1744863373600,0.0,135,,-0.24,-1.11,0.96,-63,2,2,1.49,1.56,95,8172,13.5,2.93,,9.09,1.025,66.4,,44.7,5,,,,,,,,,,,,0,0,0,0,0,0,0,0,0,0,0,0,0,0,0,0,,,,,0.0,,,,,,
974020,1744863373620,,,,,,,,,,,,,,,,,,,,,,,,,,,,,,,,,,0,0,0,0,0,0,0,0,0,0,0,0,0,0,0,0,,,,,,,,,,,
974040,1744863373640,0.0,135,,-0.21,-1.13,0.97,-62,2,2,1.51,1.56,96,8172,13.5,2.93,,9.07,1.02,66.4,,44.7,5,22,26,23,24,0.0,7.0,0.0,0.0,2.26,,,0,0,0,0,0,0,0,0,0,0,0,0,0,0,0,0,1,,,,0.0,38.985897,-76.951004,37.48,34,3,0.9
974060,1744863373660,,,,,,,,,,,,,,,,,,,,,,,,,,,,,,,,,,0,0,0,0,0,0,0,0,0,0,0,0,0,0,0,0,,,,,,,,,,,
974080,1744863373680,0.0,135,,-0.22,-1.21,1.01,-61,1,2,1.59,1.59,100,8034,10.2,2.95,,9.02,1.029,66.4,,44.7,5,,,,,,,,,,,,0,0,0,0,0,0,0,0,0,0,0,0,0,0,0,0,,,,,0.0,,,,,,
974100,1744863373700,,,,,,,,,,,,,,,,,,,,,,,,,,,,,,,,,,0,0,0,0,0,0,0,0,0,0,0,0,0,0,0,0,,,,,,,,,,,
974120,1744863373720,0.0,135,,-0.23,-1.16,1.01,-61,1,2,1.56,1.59,98,8005,1.4,1.4,,8.14,1.028,66.4,,44.7,5,,,,,,,,,,,,0,0,0,0,0,0,0,0,0,0,0,0,0,0,0,0,,,,,0.0,,,,,,
974140,1744863373740,,,,,,,,,,,,,,,,,,,,,,,22,26,24,25,0.0,5.0,0.0,0.0,2.26,,,0,0,0,0,0,0,0,0,0,0,0,0,0,0,0,0,1,,,,,38.985893,-76.950989,37.21,34,3,0.9
