"Interval"|"ms"|0|0|1,"Utc"|"ms"|0|0|1,"FrontBP"|"psi"|-5.0|5.0|25,"SteerAng"|"Degrees"|-145|145|25,"Battery"|"Volts"|-5.0|20.0|1,"AccelX"|"G"|-3.0|3.0|25,"AccelY"|"G"|-3.0|3.0|25,"AccelZ"|"G"|-3.0|3.0|25,"Yaw"|"Deg/Sec"|-120|120|25,"Pitch"|"Deg/Sec"|-120|120|25,"Roll"|"Deg/Sec"|-120|120|25,"Gsum"|"G"|0.0|3.0|25,"GsumMax"|"G"|0.0|3.0|25,"GsumPct"|"%"|0|100|25,"RPM"|""|0|10000|25,"TPS"|"%"|0.0|100.0|25,"InjectorPW"|"ms"|0.0|100.0|25,"Baro"|"kPa"|0|105|1,"MAP"|"Psi"|0.0|255.0|25,"Lambda"|""|-2.0|2.0|25,"IAT"|"C"|0.0|200.0|25,"EngineTemp"|"C"|0|200|1,"EOP"|"PSI"|0.0|152.0|25,"EOT"|"F"|0|250|25,"WSFR"|"MPH"|0|150|10,"WSFL"|"MPH"|0|100|10,"WSRR"|"MPH"|0|100|10,"WSRL"|""|0|100|10,"TCSet"|"%"|0.0|100.0|10,"TCSlip"|"%"|0.0|100.0|10,"TCComp"|"deg"|0.0|50.0|10,"TCCut"|"%"|0.0|100.0|10,"Analog8"|""|0.0|5.0|10,"OilTemp"|"F"|0|300|1,"AA_On"|""|0.0|1.0|1,"ThermLF1"|"C"|0|400|50,"ThermLF2"|"C"|0|400|50,"ThermRR1"|"C"|0|400|50,"ThermRR2"|"C"|0|400|50,"ThermLF3"|"C"|0|400|50,"ThermLF4"|"C"|0|400|50,"ThermLF5"|"C"|0|400|50,"ThermLF6"|"C"|0|400|50,"ThermLF7"|"C"|0|400|50,"ThermLF8"|"C"|0|400|50,"ThermRR3"|"C"|0|400|50,"ThermRR4"|"C"|0|400|50,"ThermRR5"|"C"|0|400|50,"ThermRR6"|"C"|0|400|50,"ThermRR7"|"C"|0|400|50,"ThermRR8"|"C"|0|400|50,"Gear"|""|1|6|10,"AA_On"|""|0.0|1.0|1,"AA_LowDrag"|""|0|1|1,"Fuel_Mix"|""|-10|10|1,"AA_Packages"|""|0.0|1000.0|25,"Latitude"|"Degrees"|-180.0|180.0|10,"Longitude"|"Degrees"|-180.0|180.0|10,"Speed"|"kph"|0.0|150.0|10,"GPSSats"|""|0|20|10,"GPSQual"|""|0|5|10,"GPSDOP"|""|0.0|20.0|10
2335460,1744864735062,,,,,,,,,,,,,,,,,,,,,,,,,,,,,,,,,,0,0,0,0,0,0,0,0,0,0,0,0,0,0,0,0,,,,,,,,,,,
2335480,1744864735082,0.0,135,,-0.08,-0.11,1.0,0,-0,0,1.01,1.01,100,3851,7.0,3.87,,12.69,1.177,68.2,,32.8,5,,,,,,,,,,,,0,0,0,0,0,0,0,0,0,0,0,0,0,0,0,0,,,,,0.0,,,,,,
2335500,1744864735108,,,,,,,,,,,,,,,,,,,,,,,,,,,,,,,,,,0,0,0,0,0,0,0,0,0,0,0,0,0,0,0,0,,,,,,,,,,,
2335520,1744864735128,0.0,135,,-0.09,-0.13,0.96,0,-0,0,0.98,1.01,97,3797,7.0,3.87,,12.67,1.177,68.2,,32.8,5,,,,,,,,,,,,0,0,0,0,0,0,0,0,0,0,0,0,0,0,0,0,,,,,0.0,,,,,,
2335540,1744864735148,,,,,,,,,,,,,,,,,,,,,,,0,0,0,0,0.0,0.0,0.0,0.0,2.27,,,0,0,0,0,0,0,0,0,0,0,0,0,0,0,0,0,0,,,,,38.985832,-76.950859,0.15,36,3,0.8
2335560,1744864735168,0.0,135,,-0.1,-0.09,0.96,-0,-0,0,0.97,1.01,96,3852,6.9,3.88,,12.67,1.166,68.2,,32.8,5,,,,,,,,,,,,0,0,0,0,0,0,0,0,0,0,0,0,0,0,0,0,,,,,0.0,,,,,,
2335580,1744864735188,,,,,,,,,,,,,,,,,,,,,,,,,,,,,,,,,,0,0,0,0,0,0,0,0,0,0,0,0,0,0,0,0,,,,,,,,,,,
2335600,1744864735208,0.0,135,,-0.09,-0.05,0.99,-0,-0,0,0.99,1.01,98,3852,6.9,3.88,,12.67,1.166,68.2,,32.4,5,,,,,,,,,,,,0,0,0,0,0,0,0,0,0,0,0,0,0,0,0,0,,,,,0.0,,,,,,
2335620,1744864735228,,,,,,,,,,,,,,,,,,,,,,,,,,,,,,,,,,0,0,0,0,0,0,0,0,0,0,0,0,0,0,0,0,,,,,,,,,,,
2335640,1744864735248,0.0,135,,-0.1,-0.07,1.02,-0,-0,0,1.03,1.03,100,3850,7.0,3.87,,12.75,1.177,68.2,,32.4,5,0,0,0,0,0.0,0.0,0.0,0.0,2.26,,,0,0,0,0,0,0,0,0,0,0,0,0,0,0,0,0,0,,,,0.0,38.985832,-76.950859,0.08,36,3,0.8
2335660,1744864735268,,,,,,,,,,,,,,,,,,,,,,,,,,,,,,,,,,0,0,0,0,0,0,0,0,0,0,0,0,0,0,0,0,,,,,,,,,,,
2335680,1744864735292,0.0,135,,-0.09,-0.09,1.03,-0,-0,0,1.04,1.04,100,3828,7.1,3.88,,12.67,1.177,68.2,,32.5,5,,,,,,,,,,,,0,0,0,0,0,0,0,0,0,0,0,0,0,0,0,0,,,,,0.0,,,,,,
2335700,1744864735312,,,,,,,,,,,,,,,,,,,,,,,,,,,,,,,,,,0,0,0,0,0,0,0,0,0,0,0,0,0,0,0,0,,,,,,,,,,,
2335720,1744864735332,0.0,135,,-0.09,-0.09,1.0,-0,-0,0,1.01,1.04,97,3876,7.2,3.87,,12.68,1.179,68.2,,32.5,5,,,,,,,,,,,,0,0,0,0,0,0,0,0,0,0,0,0,0,0,0,0,,,,,0.0,,,,,,
2335740,1744864735352,,,,,,,,,,,,,,,,,,,,,,,0,0,0,0,0.0,0.0,0.0,0.0,2.26,,,0,0,0,0,0,0,0,0,0,0,0,0,0,0,0,0,0,,,,,38.985832,-76.950859,0.13,36,3,0.8
2335760,1744864735372,0.0,135,,-0.06,0.01,1.03,-1,-0,1,1.04,1.04,100,3840,7.2,3.87,,12.61,1.163,68.2,,32.5,5,,,,,,,,,,,,0,0,0,0,0,0,0,0,0,0,0,0,0,0,0,0,,,,,0.0,,,,,,
2335780,1744864735392,,,,,,,,,,,,,,,,,,,,,,,,,,,,,,,,,,0,0,0,0,0,0,0,0,0,0,0,0,0,0,0,0,,,,,,,,,,,
2335800,1744864735412,0.0,135,,-0.07,-0.01,1.02,-1,-0,1,1.02,1.04,98,3850,7.1,3.88,,12.61,1.163,68.2,,32.8,5,,,,,,,,,,,,0,0,0,0,0,0,0,0,0,0,0,0,0,0,0,0,,,,,0.0,,,,,,
2335820,1744864735432,,,,,,,,,,,,,,,,,,,,,,,,,,,,,,,,,,0,0,0,0,0,0,0,0,0,0,0,0,0,0,0,0,,,,,,,,,,,
2335840,1744864735452,0.0,135,,-0.09,0.05,1.02,1,-0,0,1.03,1.04,99,3850,7.1,3.88,,12.64,1.166,68.2,,32.8,5,0,0,0,0,0.0,0.0,0.0,0.0,2.26,,,0,0,0,0,0,0,0,0,0,0,0,0,0,0,0,0,0,,,,0.0,38.985832,-76.950859,0.22,36,3,0.8
2335860,1744864735472,,,,,,,,,,,,,,,,,,,,,,,,,,,,,,,,,,0,0,0,0,0,0,0,0,0,0,0,0,0,0,0,0,,,,,,,,,,,
2335880,1744864735491,0.0,135,,-0.09,0.08,1.04,0,-0,1,1.05,1.05,100,3838,7.0,3.87,,12.73,1.167,68.2,,32.4,5,,,,,,,,,,,,0,0,0,0,0,0,0,0,0,0,0,0,0,0,0,0,,,,,0.0,,,,,,
2335900,1744864735511,,,,,,,,,,,,,,,,,,,,,,,,,,,,,,,,,,0,0,0,0,0,0,0,0,0,0,0,0,0,0,0,0,,,,,,,,,,,
2335920,1744864735531,0.0,135,,-0.09,0.07,1.05,1,-0,1,1.05,1.05,100,3845,6.9,3.88,,12.65,1.17,68.2,,32.4,5,,,,,,,,,,,,0,0,0,0,0,0,0,0,0,0,0,0,0,0,0,0,,,,,0.0,,,,,,
2335940,1744864735551,,,,,,,,,,,,,,,,,,,,,,,0,0,0,0,0.0,0.0,0.0,0.0,2.26,,,0,0,0,0,0,0,0,0,0,0,0,0,0,0,0,0,0,,,,,38.985832,-76.950859,0.07,36,3,0.8
2335960,1744864735571,0.0,135,,-0.05,0.05,1.06,-2,-0,1,1.07,1.07,100,3887,6.9,3.87,,12.65,1.17,68.2,,32.4,5,,,,,,,,,,,,0,0,0,0,0,0,0,0,0,0,0,0,0,0,0,0,,,,,0.0,,,,,,
2335980,1744864735591,,,,,,,,,,,,,,,,,,,,,,,,,,,,,,,,,,0,0,0,0,0,0,0,0,0,0,0,0,0,0,0,0,,,,,,,,,,,
2336000,1744864735611,0.0,135,,-0.05,0.03,1.05,-2,-0,1,1.06,1.07,99,3803,6.9,3.87,,12.68,1.179,68.2,,32.7,5,,,,,,,,,,,,0,0,0,0,0,0,0,0,0,0,0,0,0,0,0,0,,,,,0.0,,,,,,
2336020,1744864735631,,,,,,,,,,,,,,,,,,,,,,,,,,,,,,,,,,0,0,0,0,0,0,0,0,0,0,0,0,0,0,0,0,,,,,,,,,,,
2336040,1744864735651,0.0,135,,-0.07,-0.0,1.02,-1,-0,0,1.02,1.07,96,3803,6.9,3.87,,12.61,1.158,68.2,,32.7,5,0,0,0,0,0.0,0.0,0.0,0.0,2.26,,,0,0,0,0,0,0,0,0,0,0,0,0,0,0,0,0,0,,,,0.0,38.985832,-76.950859,0.05,36,3,0.8
2336060,1744864735671,,,,,,,,,,,,,,,,,,,,,,,,,,,,,,,,,,0,0,0,0,0,0,0,0,0,0,0,0,0,0,0,0,,,,,,,,,,,
2336080,1744864735691,0.0,135,,-0.09,-0.02,0.98,-1,-0,0,0.98,1.07,92,3860,6.9,3.87,,12.64,1.153,68.2,,32.9,5,,,,,,,,,,,,0,0,0,0,0,0,0,0,0,0,0,0,0,0,0,0,,,,,0.0,,,,,,
2336100,1744864735709,,,,,,,,,,,,,,,,,,,,,,,,,,,,,,,,,,0,0,0,0,0,0,0,0,0,0,0,0,0,0,0,0,,,,,,,,,,,
2336120,1744864735729,0.0,135,,-0.08,0.01,0.99,-0,-0,0,1.0,1.07,93,3892,6.9,3.87,,12.71,1.157,68.2,,32.9,5,,,,,,,,,,,,0,0,0,0,0,0,0,0,0,0,0,0,0,0,0,0,,,,,0.0,,,,,,
2336140,1744864735749,,,,,,,,,,,,,,,,,,,,,,,0,0,0,0,0.0,0.0,0.0,0.0,2.26,,,0,0,0,0,0,0,0,0,0,0,0,0,0,0,0,0,0,,,,,38.985832,-76.950859,0.04,36,3,0.8
2336160,1744864735769,0.0,135,,-0.06,0.07,1.01,-0,-0,0,1.02,1.07,96,3841,7.1,3.87,,12.65,1.161,68.2,,32.9,5,,,,,,,,,,,,0,0,0,0,0,0,0,0,0,0,0,0,0,0,0,0,,,,,0.0,,,,,,
2336180,1744864735789,,,,,,,,,,,,,,,,,,,,,,,,,,,,,,,,,,0,0,0,0,0,0,0,0,0,0,0,0,0,0,0,0,,,,,,,,,,,
2336200,1744864735809,0.0,135,,-0.05,0.09,1.02,-1,-0,0,1.03,1.07,96,3831,7.2,3.87,,12.65,1.161,68.2,,32.7,5,,,,,,,,,,,,0,0,0,0,0,0,0,0,0,0,0,0,0,0,0,0,,,,,0.0,,,,,,
2336220,1744864735829,,,,,,,,,,,,,,,,,,,,,,,,,,,,,,,,,,0,0,0,0,0,0,0,0,0,0,0,0,0,0,0,0,,,,,,,,,,,
2336240,1744864735849,0.0,135,13.59,-0.05,0.08,1.03,-1,-0,1,1.03,1.07,97,3831,7.2,3.87,15,12.65,1.161,68.2,155,32.7,5,0,0,0,0,0.0,0.0,0.0,0.0,2.26,0,0.0,0,0,0,0,0,0,0,0,0,0,0,0,0,0,0,0,0,0.0,0,-0,0.0,38.985832,-76.950859,0.04,36,3,0.8
2336260,1744864735869,,,,,,,,,,,,,,,,,,,,,,,,,,,,,,,,,,0,0,0,0,0,0,0,0,0,0,0,0,0,0,0,0,,,,,,,,,,,
2336280,1744864735891,0.0,135,,-0.06,-0.02,1.03,-0,-0,0,1.03,1.07,97,3819,7.2,3.87,,12.64,1.154,68.2,,32.3,5,,,,,,,,,,,,0,0,0,0,0,0,0,0,0,0,0,0,0,0,0,0,,,,,0.0,,,,,,
2336300,1744864735911,,,,,,,,,,,,,,,,,,,,,,,,,,,,,,,,,,0,0,0,0,0,0,0,0,0,0,0,0,0,0,0,0,,,,,,,,,,,
2336320,1744864735931,0.0,135,,-0.08,-0.08,1.02,-0,-0,0,1.03,1.07,96,3857,7.1,3.88,,12.63,1.154,68.2,,32.3,5,,,,,,,,,,,,0,0,0,0,0,0,0,0,0,0,0,0,0,0,0,0,,,,,0.0,,,,,,
2336340,1744864735951,,,,,,,,,,,,,,,,,,,,,,,0,0,0,0,0.0,0.0,0.0,0.0,2.26,,,0,0,0,0,0,0,0,0,0,0,0,0,0,0,0,0,0,,,,,38.985832,-76.950859,0.07,36,3,0.8
2336360,1744864735971,0.0,135,,-0.1,-0.07,0.99,-0,-0,0,1.0,1.07,94,3898,7.0,3.87,,12.63,1.159,68.2,,32.3,5,,,,,,,,,,,,0,0,0,0,0,0,0,0,0,0,0,0,0,0,0,0,,,,,0.0,,,,,,
2336380,1744864735991,,,,,,,,,,,,,,,,,,,,,,,,,,,,,,,,,,0,0,0,0,0,0,0,0,0,0,0,0,0,0,0,0,,,,,,,,,,,
2336400,1744864735999,0.0,135,,-0.1,-0.07,0.99,1,-0,-0,1.0,1.07,94,3847,6.9,3.87,,12.63,1.159,68.2,,32.6,5,,,,,,,,,,,,0,0,0,0,0,0,0,0,0,0,0,0,0,0,0,0,,,,,0.0,,,,,,
2336420,1744864736019,,,,,,,,,,,,,,,,,,,,,,,,,,,,,,,,,,0,0,0,0,0,0,0,0,0,0,0,0,0,0,0,0,,,,,,,,,,,
2336440,1744864736039,0.0,135,,-0.08,-0.03,1.0,1,-0,0,1.01,1.07,94,3847,6.9,3.87,,12.59,1.165,68.2,,32.6,5,0,0,0,0,0.0,0.0,0.0,0.0,2.27,,,0,0,0,0,0,0,0,0,0,0,0,0,0,0,0,0,0,,,,0.0,38.985832,-76.950859,0.18,37,3,0.8
2336460,1744864736059,,,,,,,,,,,,,,,,,,,,,,,,,,,,,,,,,,0,0,0,0,0,0,0,0,0,0,0,0,0,0,0,0,,,,,,,,,,,
2336480,1744864736079,0.0,135,,-0.06,0.01,1.01,-0,-0,0,1.01,1.07,95,3870,6.9,3.87,,12.69,1.174,68.2,,32.5,5,,,,,,,,,,,,0,0,0,0,0,0,0,0,0,0,0,0,0,0,0,0,,,,,0.0,,,,,,
2336500,1744864736105,,,,,,,,,,,,,,,,,,,,,,,,,,,,,,,,,,0,0,0,0,0,0,0,0,0,0,0,0,0,0,0,0,,,,,,,,,,,
2336520,1744864736125,0.0,135,,-0.06,0.03,1.01,-1,-0,1,1.01,1.07,95,3799,6.9,3.87,,12.68,1.163,68.2,,32.5,5,,,,,,,,,,,,0,0,0,0,0,0,0,0,0,0,0,0,0,0,0,0,,,,,0.0,,,,,,
2336540,1744864736145,,,,,,,,,,,,,,,,,,,,,,,0,0,0,0,0.0,0.0,0.0,0.0,2.26,,,0,0,0,0,0,0,0,0,0,0,0,0,0,0,0,0,0,,,,,38.985832,-76.950859,0.16,37,3,0.8
2336560,1744864736165,0.0,135,,-0.07,0.0,0.99,-0,-0,0,1.0,1.07,93,3811,6.9,3.87,,12.68,1.158,68.2,,32.5,5,,,,,,,,,,,,0,0,0,0,0,0,0,0,0,0,0,0,0,0,0,0,,,,,0.0,,,,,,
2336580,1744864736185,,,,,,,,,,,,,,,,,,,,,,,,,,,,,,,,,,0,0,0,0,0,0,0,0,0,0,0,0,0,0,0,0,,,,,,,,,,,
2336600,1744864736205,0.0,135,,-0.07,-0.02,1.01,-0,-0,1,1.01,1.07,95,3811,6.9,3.87,,12.68,1.158,68.2,,32.1,5,,,,,,,,,,,,0,0,0,0,0,0,0,0,0,0,0,0,0,0,0,0,,,,,0.0,,,,,,
2336620,1744864736225,,,,,,,,,,,,,,,,,,,,,,,,,,,,,,,,,,0,0,0,0,0,0,0,0,0,0,0,0,0,0,0,0,,,,,,,,,,,
2336640,1744864736245,0.0,135,,-0.07,-0.03,1.04,0,-0,0,1.04,1.07,98,3785,6.9,3.87,,12.76,1.168,68.2,,32.1,5,0,0,0,0,0.0,0.0,0.0,0.0,2.26,,,0,0,0,0,0,0,0,0,0,0,0,0,0,0,0,0,0,,,,0.0,38.985832,-76.950859,0.11,37,3,0.8
2336660,1744864736265,,,,,,,,,,,,,,,,,,,,,,,,,,,,,,,,,,0,0,0,0,0,0,0,0,0,0,0,0,0,0,0,0,,,,,,,,,,,
2336680,1744864736285,0.0,135,,-0.07,-0.03,1.05,-0,-0,1,1.05,1.07,99,3801,7.0,3.87,,12.65,1.157,68.2,,32.1,5,,,,,,,,,,,,0,0,0,0,0,0,0,0,0,0,0,0,0,0,0,0,,,,,0.0,,,,,,
2336700,1744864736309,,,,,,,,,,,,,,,,,,,,,,,,,,,,,,,,,,0,0,0,0,0,0,0,0,0,0,0,0,0,0,0,0,,,,,,,,,,,
2336720,1744864736329,0.0,135,,-0.07,-0.05,1.03,-0,-0,0,1.03,1.07,97,3849,7.2,3.87,,12.71,1.16,68.2,,32.2,5,,,,,,,,,,,,0,0,0,0,0,0,0,0,0,0,0,0,0,0,0,0,,,,,0.0,,,,,,
2336740,1744864736349,,,,,,,,,,,,,,,,,,,,,,,0,0,0,0,0.0,0.0,0.0,0.0,2.26,,,0,0,0,0,0,0,0,0,0,0,0,0,0,0,0,0,0,,,,,38.985832,-76.950859,0.12,37,3,0.8
2336760,1744864736369,0.0,135,,-0.02,0.12,1.04,-1,-0,1,1.05,1.07,98,3817,7.2,3.87,,12.73,1.151,68.2,,32.2,5,,,,,,,,,,,,0,0,0,0,0,0,0,0,0,0,0,0,0,0,0,0,,,,,0.0,,,,,,
2336780,1744864736389,,,,,,,,,,,,,,,,,,,,,,,,,,,,,,,,,,0,0,0,0,0,0,0,0,0,0,0,0,0,0,0,0,,,,,,,,,,,
2336800,1744864736409,0.0,135,,-0.04,0.08,1.01,-0,-0,1,1.02,1.07,95,3854,7.2,3.89,,12.73,1.151,68.2,,32.1,5,,,,,,,,,,,,0,0,0,0,0,0,0,0,0,0,0,0,0,0,0,0,,,,,0.0,,,,,,
2336820,1744864736429,,,,,,,,,,,,,,,,,,,,,,,,,,,,,,,,,,0,0,0,0,0,0,0,0,0,0,0,0,0,0,0,0,,,,,,,,,,,
2336840,1744864736449,0.0,135,,-0.04,0.1,1.04,0,-0,1,1.04,1.07,98,3854,7.2,3.89,,12.65,1.141,68.2,,32.1,5,0,0,0,0,0.0,0.0,0.0,0.0,2.26,,,0,0,0,0,0,0,0,0,0,0,0,0,0,0,0,0,0,,,,0.0,38.985832,-76.950859,0.08,37,3,0.8
2336860,1744864736469,,,,,,,,,,,,,,,,,,,,,,,,,,,,,,,,,,0,0,0,0,0,0,0,0,0,0,0,0,0,0,0,0,,,,,,,,,,,
2336880,1744864736489,0.0,135,,-0.03,0.09,1.04,0,-0,1,1.05,1.07,98,3798,7.0,3.88,,12.73,1.155,68.2,,31.6,5,,,,,,,,,,,,0,0,0,0,0,0,0,0,0,0,0,0,0,0,0,0,,,,,0.0,,,,,,
2336900,1744864736510,,,,,,,,,,,,,,,,,,,,,,,,,,,,,,,,,,0,0,0,0,0,0,0,0,0,0,0,0,0,0,0,0,,,,,,,,,,,
2336920,1744864736530,0.0,135,,-0.02,0.1,1.04,-0,-0,1,1.05,1.07,98,3739,6.9,3.87,,12.72,1.182,68.2,,31.6,5,,,,,,,,,,,,0,0,0,0,0,0,0,0,0,0,0,0,0,0,0,0,,,,,0.0,,,,,,
2336940,1744864736550,,,,,,,,,,,,,,,,,,,,,,,0,0,0,0,0.0,0.0,0.0,0.0,2.27,,,0,0,0,0,0,0,0,0,0,0,0,0,0,0,0,0,0,,,,,38.985832,-76.950859,0.08,37,3,0.8
2336960,1744864736570,0.0,135,,-0.01,0.1,1.03,-0,-0,0,1.03,1.07,97,3804,6.9,3.88,,12.75,1.159,68.2,,31.6,5,,,,,,,,,,,,0,0,0,0,0,0,0,0,0,0,0,0,0,0,0,0,,,,,0.0,,,,,,
2336980,1744864736590,,,,,,,,,,,,,,,,,,,,,,,,,,,,,,,,,,0,0,0,0,0,0,0,0,0,0,0,0,0,0,0,0,,,,,,,,,,,
2337000,1744864736610,0.0,135,,-0.02,0.1,1.01,-0,-0,1,1.02,1.07,95,3788,6.9,3.88,,12.75,1.159,68.2,,31.9,5,,,,,,,,,,,,0,0,0,0,0,0,0,0,0,0,0,0,0,0,0,0,,,,,0.0,,,,,,
2337020,1744864736630,,,,,,,,,,,,,,,,,,,,,,,,,,,,,,,,,,0,0,0,0,0,0,0,0,0,0,0,0,0,0,0,0,,,,,,,,,,,
2337040,1744864736650,0.0,135,,-0.02,0.13,1.02,-1,-0,1,1.03,1.07,97,3788,6.9,3.88,,12.72,1.157,68.2,,31.9,5,0,0,0,0,0.0,0.0,0.0,0.0,2.27,,,0,0,0,0,0,0,0,0,0,0,0,0,0,0,0,0,0,,,,0.0,38.985832,-76.950859,0.05,37,3,0.8
2337060,1744864736670,,,,,,,,,,,,,,,,,,,,,,,,,,,,,,,,,,0,0,0,0,0,0,0,0,0,0,0,0,0,0,0,0,,,,,,,,,,,
2337080,1744864736690,0.0,135,,-0.03,0.1,1.03,-1,-0,1,1.03,1.07,97,3840,6.9,3.87,,12.69,1.171,68.2,,31.6,5,,,,,,,,,,,,0,0,0,0,0,0,0,0,0,0,0,0,0,0,0,0,,,,,0.0,,,,,,
2337100,1744864736710,,,,,,,,,,,,,,,,,,,,,,,,,,,,,,,,,,0,0,0,0,0,0,0,0,0,0,0,0,0,0,0,0,,,,,,,,,,,
2337120,1744864736730,0.0,135,,-0.03,0.09,1.04,-1,-0,1,1.04,1.07,98,3764,6.9,3.87,,12.72,1.169,68.2,,31.6,5,,,,,,,,,,,,0,0,0,0,0,0,0,0,0,0,0,0,0,0,0,0,,,,,0.0,,,,,,
2337140,1744864736750,,,,,,,,,,,,,,,,,,,,,,,0,0,0,0,0.0,0.0,0.0,0.0,2.26,,,0,0,0,0,0,0,0,0,0,0,0,0,0,0,0,0,0,,,,,38.985832,-76.950859,0.15,37,3,0.8
2337160,1744864736770,0.0,135,,-0.04,0.08,1.04,-0,-0,1,1.04,1.07,97,3815,7.1,3.88,,12.73,1.159,68.2,,31.6,5,,,,,,,,,,,,0,0,0,0,0,0,0,0,0,0,0,0,0,0,0,0,,,,,0.0,,,,,,
2337180,1744864736790,,,,,,,,,,,,,,,,,,,,,,,,,,,,,,,,,,0,0,0,0,0,0,0,0,0,0,0,0,0,0,0,0,,,,,,,,,,,
2337200,1744864736810,0.0,135,,-0.05,0.04,1.04,-0,-0,1,1.04,1.07,97,3815,7.1,3.88,,12.73,1.159,68.2,,31.9,5,,,,,,,,,,,,0,0,0,0,0,0,0,0,0,0,0,0,0,0,0,0,,,,,0.0,,,,,,
2337220,1744864736830,,,,,,,,,,,,,,,,,,,,,,,,,,,,,,,,,,0,0,0,0,0,0,0,0,0,0,0,0,0,0,0,0,,,,,,,,,,,
2337240,1744864736850,0.0,135,13.67,-0.06,0.04,1.05,-0,-0,0,1.05,1.07,99,3842,7.1,3.89,15,12.68,1.142,68.2,153,31.9,5,0,0,0,0,0.0,0.0,0.0,0.0,2.26,0,0.0,0,0,0,0,0,0,0,0,0,0,0,0,0,0,0,0,0,0.0,0,0,0.0,38.985832,-76.950859,0.05,37,3,0.8
2337260,1744864736870,,,,,,,,,,,,,,,,,,,,,,,,,,,,,,,,,,0,0,0,0,0,0,0,0,0,0,0,0,0,0,0,0,,,,,,,,,,,
2337280,1744864736890,0.0,135,,-0.07,-0.0,1.03,-0,-0,0,1.04,1.07,97,3789,7.2,3.87,,12.72,1.149,68.2,,31.9,5,,,,,,,,,,,,0,0,0,0,0,0,0,0,0,0,0,0,0,0,0,0,,,,,0.0,,,,,,
2337300,1744864736910,,,,,,,,,,,,,,,,,,,,,,,,,,,,,,,,,,0,0,0,0,0,0,0,0,0,0,0,0,0,0,0,0,,,,,,,,,,,
2337320,1744864736930,0.0,135,,-0.07,-0.04,1.01,-0,-0,0,1.01,1.07,95,3847,7.2,3.89,,12.72,1.155,68.2,,31.9,5,,,,,,,,,,,,0,0,0,0,0,0,0,0,0,0,0,0,0,0,0,0,,,,,0.0,,,,,,
2337340,1744864736950,,,,,,,,,,,,,,,,,,,,,,,0,0,0,0,0.0,0.0,0.0,0.0,2.26,,,0,0,0,0,0,0,0,0,0,0,0,0,0,0,0,0,0,,,,,38.985832,-76.950859,0.11,37,3,0.8
2337360,1744864736970,0.0,135,,-0.06,-0.01,0.99,0,-0,0,0.99,1.07,93,3824,7.1,3.89,,12.64,1.156,68.2,,31.9,5,,,,,,,,,,,,0,0,0,0,0,0,0,0,0,0,0,0,0,0,0,0,,,,,0.0,,,,,,
2337380,1744864736990,,,,,,,,,,,,,,,,,,,,,,,,,,,,,,,,,,0,0,0,0,0,0,0,0,0,0,0,0,0,0,0,0,,,,,,,,,,,
2337400,1744864737000,0.0,135,,-0.05,0.01,0.98,1,-0,0,0.98,1.07,92,3876,7.0,3.89,,12.64,1.156,68.2,,31.9,5,,,,,,,,,,,,0,0,0,0,0,0,0,0,0,0,0,0,0,0,0,0,,,,,0.0,,,,,,
2337420,1744864737020,,,,,,,,,,,,,,,,,,,,,,,,,,,,,,,,,,0,0,0,0,0,0,0,0,0,0,0,0,0,0,0,0,,,,,,,,,,,
2337440,1744864737040,0.0,135,,-0.05,0.05,0.98,-0,-0,0,0.99,1.07,92,3876,7.0,3.89,,12.65,1.156,68.2,,31.9,5,0,0,0,0,0.0,0.0,0.0,0.0,2.27,,,0,0,0,0,0,0,0,0,0,0,0,0,0,0,0,0,0,,,,0.0,38.985832,-76.950859,0.11,36,3,0.8
2337460,1744864737060,,,,,,,,,,,,,,,,,,,,,,,,,,,,,,,,,,0,0,0,0,0,0,0,0,0,0,0,0,0,0,0,0,,,,,,,,,,,
2337480,1744864737080,0.0,135,,-0.06,0.09,1.02,-1,-0,1,1.02,1.07,96,3871,6.9,3.88,,12.68,1.152,68.2,,31.9,5,,,,,,,,,,,,0,0,0,0,0,0,0,0,0,0,0,0,0,0,0,0,,,,,0.0,,,,,,
2337500,1744864737102,,,,,,,,,,,,,,,,,,,,,,,,,,,,,,,,,,0,0,0,0,0,0,0,0,0,0,0,0,0,0,0,0,,,,,,,,,,,
2337520,1744864737122,0.0,135,,-0.07,0.03,1.05,-0,-0,0,1.06,1.07,99,3835,6.9,3.88,,12.69,1.15,68.2,,31.7,5,,,,,,,,,,,,0,0,0,0,0,0,0,0,0,0,0,0,0,0,0,0,,,,,0.0,,,,,,
2337540,1744864737142,,,,,,,,,,,,,,,,,,,,,,,0,0,0,0,0.0,0.0,0.0,0.0,2.26,,,0,0,0,0,0,0,0,0,0,0,0,0,0,0,0,0,0,,,,,38.985832,-76.950859,0.04,36,3,0.8
2337560,1744864737162,0.0,135,,-0.07,-0.02,1.04,-0,-0,0,1.05,1.07,98,3888,6.9,3.88,,12.67,1.162,68.2,,31.7,5,,,,,,,,,,,,0,0,0,0,0,0,0,0,0,0,0,0,0,0,0,0,,,,,0.0,,,,,,
2337580,1744864737182,,,,,,,,,,,,,,,,,,,,,,,,,,,,,,,,,,0,0,0,0,0,0,0,0,0,0,0,0,0,0,0,0,,,,,,,,,,,
2337600,1744864737210,0.0,135,,-0.08,-0.04,1.01,-0,-0,0,1.01,1.07,95,3857,6.8,3.88,,12.67,1.162,68.2,,32.3,5,,,,,,,,,,,,0,0,0,0,0,0,0,0,0,0,0,0,0,0,0,0,,,,,0.0,,,,,,
2337620,1744864737230,,,,,,,,,,,,,,,,,,,,,,,,,,,,,,,,,,0,0,0,0,0,0,0,0,0,0,0,0,0,0,0,0,,,,,,,,,,,
2337640,1744864737250,0.0,135,,-0.07,0.0,1.0,0,-0,0,1.0,1.07,94,3857,6.8,3.88,,12.71,1.154,68.2,,32.3,5,0,0,0,0,0.0,0.0,0.0,0.0,2.26,,,0,0,0,0,0,0,0,0,0,0,0,0,0,0,0,0,0,,,,0.0,38.985832,-76.950859,0.07,36,3,0.8
2337660,1744864737270,,,,,,,,,,,,,,,,,,,,,,,,,,,,,,,,,,0,0,0,0,0,0,0,0,0,0,0,0,0,0,0,0,,,,,,,,,,,
2337680,1744864737290,0.0,135,,-0.07,-0.0,0.98,0,-0,-0,0.99,1.07,92,3834,6.9,3.88,,12.69,1.161,68.2,,32.1,5,,,,,,,,,,,,0,0,0,0,0,0,0,0,0,0,0,0,0,0,0,0,,,,,0.0,,,,,,
2337700,1744864737310,,,,,,,,,,,,,,,,,,,,,,,,,,,,,,,,,,0,0,0,0,0,0,0,0,0,0,0,0,0,0,0,0,,,,,,,,,,,
2337720,1744864737330,0.0,135,,-0.06,0.05,0.99,0,-0,0,0.99,1.07,93,3852,7.1,3.89,,12.65,1.157,68.2,,32.1,5,,,,,,,,,,,,0,0,0,0,0,0,0,0,0,0,0,0,0,0,0,0,,,,,0.0,,,,,,
2337740,1744864737350,,,,,,,,,,,,,,,,,,,,,,,0,0,0,0,0.0,0.0,0.0,0.0,2.26,,,0,0,0,0,0,0,0,0,0,0,0,0,0,0,0,0,0,,,,,38.985832,-76.950859,0.05,36,3,0.8
2337760,1744864737370,0.0,135,,-0.08,0.03,0.98,0,-0,-0,0.99,1.07,92,3805,7.1,3.88,,12.61,1.145,68.2,,32.1,5,,,,,,,,,,,,0,0,0,0,0,0,0,0,0,0,0,0,0,0,0,0,,,,,0.0,,,,,,
2337780,1744864737390,,,,,,,,,,,,,,,,,,,,,,,,,,,,,,,,,,0,0,0,0,0,0,0,0,0,0,0,0,0,0,0,0,,,,,,,,,,,
2337800,1744864737410,0.0,135,,-0.08,0.01,0.99,-0,-0,0,0.99,1.07,93,3827,7.1,3.88,,12.61,1.145,68.2,,31.5,5,,,,,,,,,,,,0,0,0,0,0,0,0,0,0,0,0,0,0,0,0,0,,,,,0.0,,,,,,
2337820,1744864737430,,,,,,,,,,,,,,,,,,,,,,,,,,,,,,,,,,0,0,0,0,0,0,0,0,0,0,0,0,0,0,0,0,,,,,,,,,,,
2337840,1744864737450,0.0,135,,-0.07,0.0,0.99,-0,-0,0,1.0,1.07,93,3827,7.1,3.88,,12.68,1.141,68.2,,31.5,5,0,0,0,0,0.0,0.0,0.0,0.0,2.26,,,0,0,0,0,0,0,0,0,0,0,0,0,0,0,0,0,0,,,,0.0,38.985832,-76.950859,0.0,36,3,0.8
2337860,1744864737470,,,,,,,,,,,,,,,,,,,,,,,,,,,,,,,,,,0,0,0,0,0,0,0,0,0,0,0,0,0,0,0,0,,,,,,,,,,,
2337880,1744864737490,0.0,135,,-0.08,0.01,0.99,0,-0,0,0.99,1.07,93,3746,7.1,3.89,,12.67,1.142,68.2,,31.2,5,,,,,,,,,,,,0,0,0,0,0,0,0,0,0,0,0,0,0,0,0,0,,,,,0.0,,,,,,
2337900,1744864737509,,,,,,,,,,,,,,,,,,,,,,,,,,,,,,,,,,0,0,0,0,0,0,0,0,0,0,0,0,0,0,0,0,,,,,,,,,,,
2337920,1744864737529,0.0,135,,-0.08,0.01,1.0,0,-0,0,1.0,1.07,94,3783,7.0,3.9,,12.67,1.142,68.2,,31.2,5,,,,,,,,,,,,0,0,0,0,0,0,0,0,0,0,0,0,0,0,0,0,,,,,0.0,,,,,,
2337940,1744864737549,,,,,,,,,,,,,,,,,,,,,,,0,0,0,0,0.0,0.0,0.0,0.0,2.27,,,0,0,0,0,0,0,0,0,0,0,0,0,0,0,0,0,0,,,,,38.985832,-76.950859,0.08,36,3,0.8
2337960,1744864737569,0.0,135,,-0.08,-0.0,1.03,0,-0,0,1.03,1.07,97,3767,6.8,3.89,,12.75,1.145,68.2,,31.2,5,,,,,,,,,,,,0,0,0,0,0,0,0,0,0,0,0,0,0,0,0,0,,,,,0.0,,,,,,
2337980,1744864737589,,,,,,,,,,,,,,,,,,,,,,,,,,,,,,,,,,0,0,0,0,0,0,0,0,0,0,0,0,0,0,0,0,,,,,,,,,,,
2338000,1744864737609,0.0,135,,-0.08,-0.02,1.04,0,-0,0,1.04,1.07,98,3767,6.8,3.89,,12.75,1.145,68.2,,31.4,5,,,,,,,,,,,,0,0,0,0,0,0,0,0,0,0,0,0,0,0,0,0,,,,,0.0,,,,,,
2338020,1744864737629,,,,,,,,,,,,,,,,,,,,,,,,,,,,,,,,,,0,0,0,0,0,0,0,0,0,0,0,0,0,0,0,0,,,,,,,,,,,
2338040,1744864737649,0.0,135,,-0.08,-0.06,1.02,0,-0,0,1.02,1.07,96,3836,6.9,3.89,,12.64,1.155,68.2,,31.4,5,0,0,0,0,0.0,0.0,0.0,0.0,2.26,,,0,0,0,0,0,0,0,0,0,0,0,0,0,0,0,0,0,,,,0.0,38.985832,-76.950859,0.04,36,3,0.8
2338060,1744864737669,,,,,,,,,,,,,,,,,,,,,,,,,,,,,,,,,,0,0,0,0,0,0,0,0,0,0,0,0,0,0,0,0,,,,,,,,,,,
2338080,1744864737691,0.0,135,,-0.1,-0.06,0.99,0,-0,-0,0.99,1.07,93,3857,6.9,3.89,,12.67,1.159,68.2,,31.6,5,,,,,,,,,,,,0,0,0,0,0,0,0,0,0,0,0,0,0,0,0,0,,,,,0.0,,,,,,
2338100,1744864737711,,,,,,,,,,,,,,,,,,,,,,,,,,,,,,,,,,0,0,0,0,0,0,0,0,0,0,0,0,0,0,0,0,,,,,,,,,,,
2338120,1744864737731,0.0,135,,-0.11,-0.09,0.96,0,-0,-0,0.97,1.07,91,3803,6.9,3.88,,12.75,1.152,68.2,,31.6,5,,,,,,,,,,,,0,0,0,0,0,0,0,0,0,0,0,0,0,0,0,0,,,,,0.0,,,,,,
2338140,1744864737751,,,,,,,,,,,,,,,,,,,,,,,0,0,0,0,0.0,0.0,0.0,0.0,2.26,,,0,0,0,0,0,0,0,0,0,0,0,0,0,0,0,0,0,,,,,38.985832,-76.950859,0.04,36,3,0.8
2338160,1744864737771,0.0,135,,-0.1,-0.09,0.99,1,-0,-0,1.0,1.07,94,3790,6.9,3.88,,12.67,1.147,68.2,,31.6,5,,,,,,,,,,,,0,0,0,0,0,0,0,0,0,0,0,0,0,0,0,0,,,,,0.0,,,,,,
2338180,1744864737791,,,,,,,,,,,,,,,,,,,,,,,,,,,,,,,,,,0,0,0,0,0,0,0,0,0,0,0,0,0,0,0,0,,,,,,,,,,,
2338200,1744864737809,0.0,135,,-0.1,-0.09,1.0,1,-0,-0,1.01,1.07,95,3729,7.0,3.89,,12.67,1.147,68.2,,31.2,5,,,,,,,,,,,,0,0,0,0,0,0,0,0,0,0,0,0,0,0,0,0,,,,,0.0,,,,,,
2338220,1744864737829,,,,,,,,,,,,,,,,,,,,,,,,,,,,,,,,,,0,0,0,0,0,0,0,0,0,0,0,0,0,0,0,0,,,,,,,,,,,
2338240,1744864737849,0.0,135,13.69,-0.09,-0.07,1.0,1,-0,-0,1.0,1.07,94,3729,7.0,3.89,15,12.73,1.155,68.2,153,31.2,5,0,0,0,0,0.0,0.0,0.0,0.0,2.26,0,0.0,0,0,0,0,0,0,0,0,0,0,0,0,0,0,0,0,0,0.0,0,0,0.0,38.985832,-76.950859,0.05,36,3,0.8
2338260,1744864737869,,,,,,,,,,,,,,,,,,,,,,,,,,,,,,,,,,0,0,0,0,0,0,0,0,0,0,0,0,0,0,0,0,,,,,,,,,,,
2338280,1744864737891,0.0,135,,-0.1,-0.09,0.98,1,-0,-0,0.99,1.07,93,3750,7.1,3.89,,12.71,1.145,68.2,,30.9,5,,,,,,,,,,,,0,0,0,0,0,0,0,0,0,0,0,0,0,0,0,0,,,,,0.0,,,,,,
2338300,1744864737911,,,,,,,,,,,,,,,,,,,,,,,,,,,,,,,,,,0,0,0,0,0,0,0,0,0,0,0,0,0,0,0,0,,,,,,,,,,,
2338320,1744864737931,0.0,135,,-0.09,-0.08,1.02,1,-0,-0,1.02,1.07,96,3730,7.1,3.89,,12.72,1.154,68.2,,30.9,5,,,,,,,,,,,,0,0,0,0,0,0,0,0,0,0,0,0,0,0,0,0,,,,,0.0,,,,,,
2338340,1744864737951,,,,,,,,,,,,,,,,,,,,,,,0,0,0,0,0.0,0.0,0.0,0.0,2.26,,,0,0,0,0,0,0,0,0,0,0,0,0,0,0,0,0,0,,,,,38.985832,-76.950859,0.04,36,3,0.8
2338360,1744864737971,0.0,135,,-0.1,-0.12,1.02,1,-0,-0,1.03,1.07,97,3675,7.2,3.9,,12.77,1.156,68.2,,30.9,5,,,,,,,,,,,,0,0,0,0,0,0,0,0,0,0,0,0,0,0,0,0,,,,,0.0,,,,,,
2338840,1744864738451,0.0,135,,-0.07,0.02,1.03,1,-0,0,1.03,1.07,96,3856,7.1,3.88,,12.63,1.092,66.4,,31.4,5,0,0,0,0,0.0,0.0,0.0,0.0,2.26,,,0,0,0,0,0,0,0,0,0,0,0,0,0,0,0,0,0,,,,0.0,38.985832,-76.950859,0.04,36,3,0.8
2338860,1744864738471,,,,,,,,,,,,,,,,,,,,,,,,,,,,,,,,,,0,0,0,0,0,0,0,0,0,0,0,0,0,0,0,0,,,,,,,,,,,
2338880,1744864738491,0.0,135,,-0.07,0.04,1.02,0,-0,0,1.03,1.07,96,3801,7.1,3.88,,12.63,1.12,66.4,,30.4,5,,,,,,,,,,,,0,0,0,0,0,0,0,0,0,0,0,0,0,0,0,0,,,,,0.0,,,,,,
2338900,1744864738509,,,,,,,,,,,,,,,,,,,,,,,,,,,,,,,,,,0,0,0,0,0,0,0,0,0,0,0,0,0,0,0,0,,,,,,,,,,,
2338920,1744864738529,0.0,135,,-0.08,0.05,0.98,0,-0,0,0.99,1.07,92,3817,7.1,3.89,,12.69,1.128,66.4,,30.4,5,,,,,,,,,,,,0,0,0,0,0,0,0,0,0,0,0,0,0,0,0,0,,,,,0.0,,,,,,
2338940,1744864738549,,,,,,,,,,,,,,,,,,,,,,,0,0,0,0,0.0,0.0,0.0,0.0,2.26,,,0,0,0,0,0,0,0,0,0,0,0,0,0,0,0,0,0,,,,,38.985832,-76.950859,0.05,36,3,0.8
2338960,1744864738569,0.0,135,,-0.08,0.02,1.0,0,-0,0,1.0,1.07,94,3786,6.9,3.88,,12.69,1.128,66.4,,30.4,5,,,,,,,,,,,,0,0,0,0,0,0,0,0,0,0,0,0,0,0,0,0,,,,,0.0,,,,,,
2338980,1744864738589,,,,,,,,,,,,,,,,,,,,,,,,,,,,,,,,,,0,0,0,0,0,0,0,0,0,0,0,0,0,0,0,0,,,,,,,,,,,
2339000,1744864738610,0.0,135,,-0.09,-0.0,1.03,0,-0,0,1.03,1.07,97,3839,6.9,3.89,,12.69,1.121,66.4,,30.6,5,,,,,,,,,,,,0,0,0,0,0,0,0,0,0,0,0,0,0,0,0,0,,,,,0.0,,,,,,
2339020,1744864738630,,,,,,,,,,,,,,,,,,,,,,,,,,,,,,,,,,0,0,0,0,0,0,0,0,0,0,0,0,0,0,0,0,,,,,,,,,,,
2339040,1744864738650,0.0,135,,-0.08,0.0,1.04,0,-0,0,1.04,1.07,98,3839,6.9,3.89,,12.69,1.117,66.4,,30.6,5,0,0,0,0,0.0,0.0,0.0,0.0,2.26,,,0,0,0,0,0,0,0,0,0,0,0,0,0,0,0,0,0,,,,0.0,38.985832,-76.950859,0.05,36,3,0.8
2339060,1744864738670,,,,,,,,,,,,,,,,,,,,,,,,,,,,,,,,,,0,0,0,0,0,0,0,0,0,0,0,0,0,0,0,0,,,,,,,,,,,
2339080,1744864738690,0.0,135,,-0.07,-0.04,1.03,0,-0,0,1.03,1.07,97,3764,6.9,3.88,,12.72,1.13,66.4,,30.8,5,,,,,,,,,,,,0,0,0,0,0,0,0,0,0,0,0,0,0,0,0,0,,,,,0.0,,,,,,
2339100,1744864738708,,,,,,,,,,,,,,,,,,,,,,,,,,,,,,,,,,0,0,0,0,0,0,0,0,0,0,0,0,0,0,0,0,,,,,,,,,,,
2339120,1744864738728,0.0,135,,-0.08,-0.06,1.01,0,-0,0,1.02,1.07,95,3814,6.9,3.89,,12.75,1.133,66.4,,30.8,5,,,,,,,,,,,,0,0,0,0,0,0,0,0,0,0,0,0,0,0,0,0,,,,,0.0,,,,,,
2339140,1744864738748,,,,,,,,,,,,,,,,,,,,,,,0,0,0,0,0.0,0.0,0.0,0.0,2.26,,,0,0,0,0,0,0,0,0,0,0,0,0,0,0,0,0,0,,,,,38.985832,-76.950859,0.06,36,3,0.8
2339160,1744864738768,0.0,135,,-0.09,-0.04,1.0,0,-0,0,1.01,1.07,94,3826,6.9,3.89,,12.69,1.14,66.4,,30.8,5,,,,,,,,,,,,0,0,0,0,0,0,0,0,0,0,0,0,0,0,0,0,,,,,0.0,,,,,,
2339180,1744864738788,,,,,,,,,,,,,,,,,,,,,,,,,,,,,,,,,,0,0,0,0,0,0,0,0,0,0,0,0,0,0,0,0,,,,,,,,,,,
2339200,1744864738810,0.0,135,,-0.09,-0.06,1.01,0,-0,0,1.02,1.07,96,3707,7.0,3.88,,12.69,1.14,66.4,,30.7,5,,,,,,,,,,,,0,0,0,0,0,0,0,0,0,0,0,0,0,0,0,0,,,,,0.0,,,,,,
2339220,1744864738830,,,,,,,,,,,,,,,,,,,,,,,,,,,,,,,,,,0,0,0,0,0,0,0,0,0,0,0,0,0,0,0,0,,,,,,,,,,,
2339240,1744864738850,0.0,135,13.7,-0.09,-0.05,1.0,0,-0,0,1.01,1.07,95,3707,7.0,3.88,15,12.71,1.133,66.4,153,30.7,5,0,0,0,0,0.0,0.0,0.0,0.0,2.26,0,0.0,0,0,0,0,0,0,0,0,0,0,0,0,0,0,0,0,0,0.0,0,0,0.0,38.985832,-76.950859,0.09,36,3,0.8
2339260,1744864738870,,,,,,,,,,,,,,,,,,,,,,,,,,,,,,,,,,0,0,0,0,0,0,0,0,0,0,0,0,0,0,0,0,,,,,,,,,,,
2339280,1744864738890,0.0,135,,-0.09,-0.04,0.99,0,-0,0,0.99,1.07,93,3745,7.1,3.88,,12.76,1.138,66.4,,30.3,5,,,,,,,,,,,,0,0,0,0,0,0,0,0,0,0,0,0,0,0,0,0,,,,,0.0,,,,,,
2339300,1744864738910,,,,,,,,,,,,,,,,,,,,,,,,,,,,,,,,,,0,0,0,0,0,0,0,0,0,0,0,0,0,0,0,0,,,,,,,,,,,
2339320,1744864738930,0.0,135,,-0.11,-0.02,0.97,0,-0,-0,0.97,1.07,91,3760,7.1,3.88,,12.76,1.144,66.4,,30.3,5,,,,,,,,,,,,0,0,0,0,0,0,0,0,0,0,0,0,0,0,0,0,,,,,0.0,,,,,,
2339340,1744864738950,,,,,,,,,,,,,,,,,,,,,,,0,0,0,0,0.0,0.0,0.0,0.0,2.26,,,0,0,0,0,0,0,0,0,0,0,0,0,0,0,0,0,0,,,,,38.985832,-76.950859,0.04,36,3,0.8
2339360,1744864738970,0.0,135,,-0.11,-0.05,0.97,1,-0,-0,0.98,1.07,92,3823,7.1,3.89,,12.71,1.142,66.4,,30.3,5,,,,,,,,,,,,0,0,0,0,0,0,0,0,0,0,0,0,0,0,0,0,,,,,0.0,,,,,,
2339380,1744864738990,,,,,,,,,,,,,,,,,,,,,,,,,,,,,,,,,,0,0,0,0,0,0,0,0,0,0,0,0,0,0,0,0,,,,,,,,,,,
2339400,1744864739002,0.0,135,,-0.1,-0.06,0.97,1,-0,-0,0.98,1.07,92,3797,7.1,3.9,,12.71,1.142,66.4,,31.2,5,,,,,,,,,,,,0,0,0,0,0,0,0,0,0,0,0,0,0,0,0,0,,,,,0.0,,,,,,
2339420,1744864739022,,,,,,,,,,,,,,,,,,,,,,,,,,,,,,,,,,0,0,0,0,0,0,0,0,0,0,0,0,0,0,0,0,,,,,,,,,,,
2339440,1744864739042,0.0,135,,-0.08,-0.03,0.97,1,-0,-0,0.97,1.07,91,3797,7.1,3.9,,12.77,1.129,66.4,,31.2,5,0,0,0,0,0.0,0.0,0.0,0.0,2.26,,,0,0,0,0,0,0,0,0,0,0,0,0,0,0,0,0,0,,,,0.0,38.985832,-76.950859,0.04,36,3,0.8
2339460,1744864739062,,,,,,,,,,,,,,,,,,,,,,,,,,,,,,,,,,0,0,0,0,0,0,0,0,0,0,0,0,0,0,0,0,,,,,,,,,,,
2339480,1744864739082,0.0,135,,-0.07,-0.01,0.96,1,-0,-0,0.96,1.07,90,3834,6.9,3.88,,12.69,1.124,66.4,,30.8,5,,,,,,,,,,,,0,0,0,0,0,0,0,0,0,0,0,0,0,0,0,0,,,,,0.0,,,,,,
2339500,1744864739110,,,,,,,,,,,,,,,,,,,,,,,,,,,,,,,,,,0,0,0,0,0,0,0,0,0,0,0,0,0,0,0,0,,,,,,,,,,,
2339520,1744864739130,0.0,135,,-0.07,0.01,0.96,0,-0,0,0.96,1.07,90,3798,6.9,3.88,,12.75,1.125,66.4,,30.8,5,,,,,,,,,,,,0,0,0,0,0,0,0,0,0,0,0,0,0,0,0,0,,,,,0.0,,,,,,
2339540,1744864739150,,,,,,,,,,,,,,,,,,,,,,,0,0,0,0,0.0,0.0,0.0,0.0,2.26,,,0,0,0,0,0,0,0,0,0,0,0,0,0,0,0,0,0,,,,,38.985832,-76.950859,0.12,36,3,0.8
2339560,1744864739170,0.0,135,,-0.07,0.05,0.98,0,-0,0,0.98,1.07,92,3743,6.9,3.9,,12.68,1.117,66.4,,30.8,5,,,,,,,,,,,,0,0,0,0,0,0,0,0,0,0,0,0,0,0,0,0,,,,,0.0,,,,,,
2339580,1744864739190,,,,,,,,,,,,,,,,,,,,,,,,,,,,,,,,,,0,0,0,0,0,0,0,0,0,0,0,0,0,0,0,0,,,,,,,,,,,
2339600,1744864739208,0.0,135,,-0.06,0.04,0.98,-0,-0,0,0.99,1.07,92,3812,6.9,3.88,,12.68,1.117,66.4,,30.6,5,,,,,,,,,,,,0,0,0,0,0,0,0,0,0,0,0,0,0,0,0,0,,,,,0.0,,,,,,
2339620,1744864739228,,,,,,,,,,,,,,,,,,,,,,,,,,,,,,,,,,0,0,0,0,0,0,0,0,0,0,0,0,0,0,0,0,,,,,,,,,,,
2339640,1744864739248,0.0,135,,-0.05,0.07,0.98,-0,-0,0,0.98,1.07,92,3812,6.9,3.88,,12.73,1.116,66.4,,30.6,5,0,0,0,0,0.0,0.0,0.0,0.0,2.26,,,0,0,0,0,0,0,0,0,0,0,0,0,0,0,0,0,0,,,,0.0,38.985832,-76.950859,0.08,36,3,0.8
2339660,1744864739268,,,,,,,,,,,,,,,,,,,,,,,,,,,,,,,,,,0,0,0,0,0,0,0,0,0,0,0,0,0,0,0,0,,,,,,,,,,,
2339680,1744864739288,0.0,135,,-0.07,0.06,0.99,-0,-0,1,0.99,1.07,93,3785,6.9,3.89,,12.71,1.123,66.4,,30.9,5,,,,,,,,,,,,0,0,0,0,0,0,0,0,0,0,0,0,0,0,0,0,,,,,0.0,,,,,,
2339700,1744864739310,,,,,,,,,,,,,,,,,,,,,,,,,,,,,,,,,,0,0,0,0,0,0,0,0,0,0,0,0,0,0,0,0,,,,,,,,,,,
2339720,1744864739330,0.0,135,,-0.07,0.01,1.0,-0,-0,0,1.0,1.07,94,3837,6.9,3.88,,12.69,1.119,66.4,,30.9,5,,,,,,,,,,,,0,0,0,0,0,0,0,0,0,0,0,0,0,0,0,0,,,,,0.0,,,,,,
2339740,1744864739350,,,,,,,,,,,,,,,,,,,,,,,0,0,0,0,0.0,0.0,0.0,0.0,2.26,,,0,0,0,0,0,0,0,0,0,0,0,0,0,0,0,0,0,,,,,38.985832,-76.950859,0.05,36,3,0.8
2339760,1744864739370,0.0,135,,-0.07,-0.01,1.03,0,-0,0,1.03,1.07,97,3758,7.1,3.89,,12.76,1.13,66.4,,30.9,5,,,,,,,,,,,,0,0,0,0,0,0,0,0,0,0,0,0,0,0,0,0,,,,,0.0,,,,,,
2339780,1744864739390,,,,,,,,,,,,,,,,,,,,,,,,,,,,,,,,,,0,0,0,0,0,0,0,0,0,0,0,0,0,0,0,0,,,,,,,,,,,
2339800,1744864739410,0.0,135,,-0.03,0.07,1.11,-2,-0,1,1.12,1.12,100,3758,7.1,3.89,,12.76,1.13,66.4,,30.1,5,,,,,,,,,,,,0,0,0,0,0,0,0,0,0,0,0,0,0,0,0,0,,,,,0.0,,,,,,
2339820,1744864739430,,,,,,,,,,,,,,,,,,,,,,,,,,,,,,,,,,0,0,0,0,0,0,0,0,0,0,0,0,0,0,0,0,,,,,,,,,,,
2339840,1744864739450,0.0,135,,-0.03,0.06,1.1,-1,-0,1,1.1,1.12,98,3719,7.2,3.89,,12.75,1.137,66.4,,30.1,5,0,0,0,0,0.0,0.0,0.0,0.0,2.26,,,0,0,0,0,0,0,0,0,0,0,0,0,0,0,0,0,0,,,,0.0,38.985832,-76.950859,0.04,36,3,0.8
2339860,1744864739470,,,,,,,,,,,,,,,,,,,,,,,,,,,,,,,,,,0,0,0,0,0,0,0,0,0,0,0,0,0,0,0,0,,,,,,,,,,,
2339880,1744864739490,0.0,135,,-0.03,0.02,1.08,-1,-0,1,1.09,1.12,97,3784,7.2,3.9,,12.71,1.137,66.4,,30.1,5,,,,,,,,,,,,0,0,0,0,0,0,0,0,0,0,0,0,0,0,0,0,,,,,0.0,,,,,,
2339900,1744864739509,,,,,,,,,,,,,,,,,,,,,,,,,,,,,,,,,,0,0,0,0,0,0,0,0,0,0,0,0,0,0,0,0,,,,,,,,,,,
2339920,1744864739529,0.0,135,,-0.03,0.04,1.1,-1,-0,1,1.1,1.12,98,3719,7.1,3.89,,12.76,1.134,66.4,,30.4,5,,,,,,,,,,,,0,0,0,0,0,0,0,0,0,0,0,0,0,0,0,0,,,,,0.0,,,,,,
2339940,1744864739549,,,,,,,,,,,,,,,,,,,,,,,0,0,0,0,0.0,0.0,0.0,0.0,2.26,,,0,0,0,0,0,0,0,0,0,0,0,0,0,0,0,0,0,,,,,38.985832,-76.950859,0.05,36,3,0.8
2339960,1744864739569,0.0,135,,-0.02,0.07,1.09,-1,-0,1,1.09,1.12,98,3723,7.0,3.91,,12.76,1.134,66.4,,30.4,5,,,,,,,,,,,,0,0,0,0,0,0,0,0,0,0,0,0,0,0,0,0,,,,,0.0,,,,,,
2339980,1744864739589,,,,,,,,,,,,,,,,,,,,,,,,,,,,,,,,,,0,0,0,0,0,0,0,0,0,0,0,0,0,0,0,0,,,,,,,,,,,
2340000,1744864739609,0.0,135,,-0.03,0.08,1.07,-0,-0,1,1.07,1.12,96,3708,7.0,3.89,,12.8,1.133,66.4,,29.9,5,,,,,,,,,,,,0,0,0,0,0,0,0,0,0,0,0,0,0,0,0,0,,,,,0.0,,,,,,
2340020,1744864739629,,,,,,,,,,,,,,,,,,,,,,,,,,,,,,,,,,0,0,0,0,0,0,0,0,0,0,0,0,0,0,0,0,,,,,,,,,,,
2340040,1744864739649,0.0,135,,-0.03,0.05,1.07,-0,-0,1,1.07,1.12,96,3708,7.0,3.89,,12.76,1.136,66.4,,29.9,5,0,0,0,0,0.0,0.0,0.0,0.0,2.27,,,0,0,0,0,0,0,0,0,0,0,0,0,0,0,0,0,0,,,,0.0,38.985832,-76.950859,0.11,36,3,0.8
2340060,1744864739669,,,,,,,,,,,,,,,,,,,,,,,,,,,,,,,,,,0,0,0,0,0,0,0,0,0,0,0,0,0,0,0,0,,,,,,,,,,,
2340080,1744864739689,0.0,135,,-0.04,0.03,1.09,0,-0,1,1.09,1.12,98,3785,6.9,3.9,,12.69,1.147,66.4,,30.8,5,,,,,,,,,,,,0,0,0,0,0,0,0,0,0,0,0,0,0,0,0,0,,,,,0.0,,,,,,
2340100,1744864739709,,,,,,,,,,,,,,,,,,,,,,,,,,,,,,,,,,0,0,0,0,0,0,0,0,0,0,0,0,0,0,0,0,,,,,,,,,,,
2340120,1744864739729,0.0,135,,-0.03,0.04,1.1,0,-0,1,1.1,1.12,99,3772,7.0,3.89,,12.8,1.143,66.4,,30.8,5,,,,,,,,,,,,0,0,0,0,0,0,0,0,0,0,0,0,0,0,0,0,,,,,0.0,,,,,,
2340140,1744864739749,,,,,,,,,,,,,,,,,,,,,,,0,0,0,0,0.0,0.0,0.0,0.0,2.26,,,0,0,0,0,0,0,0,0,0,0,0,0,0,0,0,0,0,,,,,38.985832,-76.950859,0.06,36,3,0.8
2340160,1744864739769,0.0,135,,-0.03,0.02,1.09,0,-0,1,1.09,1.12,97,3802,6.9,3.89,,12.69,1.135,66.4,,30.8,5,,,,,,,,,,,,0,0,0,0,0,0,0,0,0,0,0,0,0,0,0,0,,,,,0.0,,,,,,
2340180,1744864739789,,,,,,,,,,,,,,,,,,,,,,,,,,,,,,,,,,0,0,0,0,0,0,0,0,0,0,0,0,0,0,0,0,,,,,,,,,,,
2340200,1744864739809,0.0,135,,-0.04,0.0,1.07,-0,-0,1,1.07,1.12,96,3807,7.0,3.9,,12.69,1.135,66.4,,30.4,5,,,,,,,,,,,,0,0,0,0,0,0,0,0,0,0,0,0,0,0,0,0,,,,,0.0,,,,,,
2340220,1744864739829,,,,,,,,,,,,,,,,,,,,,,,,,,,,,,,,,,0,0,0,0,0,0,0,0,0,0,0,0,0,0,0,0,,,,,,,,,,,
2340240,1744864739849,0.0,135,13.71,-0.05,0.02,1.07,-0,-0,1,1.08,1.12,96,3807,7.0,3.9,15,12.72,1.122,66.4,153,30.4,5,0,0,0,0,0.0,0.0,0.0,0.0,2.26,0,0.0,0,0,0,0,0,0,0,0,0,0,0,0,0,0,0,0,0,0.0,0,-0,0.0,38.985832,-76.950859,0.06,36,3,0.8
2340260,1744864739869,,,,,,,,,,,,,,,,,,,,,,,,,,,,,,,,,,0,0,0,0,0,0,0,0,0,0,0,0,0,0,0,0,,,,,,,,,,,
2340280,1744864739889,0.0,135,,-0.05,0.0,1.07,-1,-0,1,1.07,1.12,96,3776,7.1,3.89,,12.72,1.119,66.4,,30.4,5,,,,,,,,,,,,0,0,0,0,0,0,0,0,0,0,0,0,0,0,0,0,,,,,0.0,,,,,,
2340300,1744864739909,,,,,,,,,,,,,,,,,,,,,,,,,,,,,,,,,,0,0,0,0,0,0,0,0,0,0,0,0,0,0,0,0,,,,,,,,,,,
2340320,1744864739929,0.0,135,,-0.05,-0.0,1.04,-1,-0,1,1.05,1.12,94,3801,7.2,3.89,,12.77,1.127,66.4,,30.4,5,,,,,,,,,,,,0,0,0,0,0,0,0,0,0,0,0,0,0,0,0,0,,,,,0.0,,,,,,
2340340,1744864739949,,,,,,,,,,,,,,,,,,,,,,,0,0,0,0,0.0,0.0,0.0,0.0,2.26,,,0,0,0,0,0,0,0,0,0,0,0,0,0,0,0,0,0,,,,,38.985832,-76.950859,0.04,36,3,0.8
2340360,1744864739969,0.0,135,,-0.07,-0.01,1.02,-1,-0,0,1.02,1.12,92,3751,7.2,3.91,,12.75,1.133,66.4,,30.4,5,,,,,,,,,,,,0,0,0,0,0,0,0,0,0,0,0,0,0,0,0,0,,,,,0.0,,,,,,
2340380,1744864739989,,,,,,,,,,,,,,,,,,,,,,,,,,,,,,,,,,0,0,0,0,0,0,0,0,0,0,0,0,0,0,0,0,,,,,,,,,,,
2340400,1744864740001,0.0,135,,-0.08,-0.02,1.0,-1,-0,0,1.0,1.12,90,3807,7.1,3.91,,12.75,1.133,66.4,,30.3,5,,,,,,,,,,,,0,0,0,0,0,0,0,0,0,0,0,0,0,0,0,0,,,,,0.0,,,,,,
2340420,1744864740021,,,,,,,,,,,,,,,,,,,,,,,,,,,,,,,,,,0,0,0,0,0,0,0,0,0,0,0,0,0,0,0,0,,,,,,,,,,,
2340440,1744864740041,0.0,135,,-0.09,-0.05,1.01,0,-0,0,1.01,1.12,91,3807,7.1,3.91,,12.72,1.121,66.4,,30.3,5,0,0,0,0,0.0,0.0,0.0,0.0,2.26,,,0,0,0,0,0,0,0,0,0,0,0,0,0,0,0,0,0,,,,0.0,38.985832,-76.950859,0.0,36,3,0.8
2340460,1744864740061,,,,,,,,,,,,,,,,,,,,,,,,,,,,,,,,,,0,0,0,0,0,0,0,0,0,0,0,0,0,0,0,0,,,,,,,,,,,
2340480,1744864740081,0.0,135,,-0.09,-0.07,1.0,0,-0,-0,1.01,1.12,90,3744,7.1,3.91,,12.72,1.111,66.4,,30.1,5,,,,,,,,,,,,0,0,0,0,0,0,0,0,0,0,0,0,0,0,0,0,,,,,0.0,,,,,,
2340500,1744864740107,,,,,,,,,,,,,,,,,,,,,,,,,,,,,,,,,,0,0,0,0,0,0,0,0,0,0,0,0,0,0,0,0,,,,,,,,,,,
2340520,1744864740127,0.0,135,,-0.09,-0.06,0.99,1,-0,-0,1.0,1.12,90,3735,6.9,3.89,,12.79,1.099,66.4,,30.1,5,,,,,,,,,,,,0,0,0,0,0,0,0,0,0,0,0,0,0,0,0,0,,,,,0.0,,,,,,
2340540,1744864740147,,,,,,,,,,,,,,,,,,,,,,,0,0,0,0,0.0,0.0,0.0,0.0,2.27,,,0,0,0,0,0,0,0,0,0,0,0,0,0,0,0,0,0,,,,,38.985832,-76.950859,0.18,36,3,0.8
2340560,1744864740167,0.0,135,,-0.1,-0.08,0.98,1,-0,-0,0.99,1.12,88,3796,6.9,3.9,,12.77,1.108,66.4,,30.1,5,,,,,,,,,,,,0,0,0,0,0,0,0,0,0,0,0,0,0,0,0,0,,,,,0.0,,,,,,
2340580,1744864740187,,,,,,,,,,,,,,,,,,,,,,,,,,,,,,,,,,0,0,0,0,0,0,0,0,0,0,0,0,0,0,0,0,,,,,,,,,,,
2340600,1744864740207,0.0,135,,-0.1,-0.07,1.0,1,-0,-0,1.01,1.12,90,3736,7.0,3.9,,12.77,1.108,66.4,,30.3,5,,,,,,,,,,,,0,0,0,0,0,0,0,0,0,0,0,0,0,0,0,0,,,,,0.0,,,,,,
2340620,1744864740227,,,,,,,,,,,,,,,,,,,,,,,,,,,,,,,,,,0,0,0,0,0,0,0,0,0,0,0,0,0,0,0,0,,,,,,,,,,,
2340640,1744864740247,0.0,135,,-0.1,-0.1,1.02,1,-0,-0,1.03,1.12,92,3736,7.0,3.9,,12.72,1.112,66.4,,30.3,5,0,0,0,0,0.0,0.0,0.0,0.0,2.26,,,0,0,0,0,0,0,0,0,0,0,0,0,0,0,0,0,0,,,,0.0,38.985832,-76.950859,0.08,36,3,0.8
2340660,1744864740267,,,,,,,,,,,,,,,,,,,,,,,,,,,,,,,,,,0,0,0,0,0,0,0,0,0,0,0,0,0,0,0,0,,,,,,,,,,,
2340680,1744864740291,0.0,135,,-0.1,-0.1,1.01,1,-0,-0,1.02,1.12,91,3740,7.0,3.89,,12.75,1.127,66.4,,30.2,5,,,,,,,,,,,,0,0,0,0,0,0,0,0,0,0,0,0,0,0,0,0,,,,,0.0,,,,,,
2340700,1744864740311,,,,,,,,,,,,,,,,,,,,,,,,,,,,,,,,,,0,0,0,0,0,0,0,0,0,0,0,0,0,0,0,0,,,,,,,,,,,
2340720,1744864740331,0.0,135,,-0.11,-0.11,0.99,1,-0,-0,1.0,1.12,90,3729,6.9,3.9,,12.8,1.12,66.4,,30.2,5,,,,,,,,,,,,0,0,0,0,0,0,0,0,0,0,0,0,0,0,0,0,,,,,0.0,,,,,,
2340740,1744864740351,,,,,,,,,,,,,,,,,,,,,,,0,0,0,0,0.0,0.0,0.0,0.0,2.26,,,0,0,0,0,0,0,0,0,0,0,0,0,0,0,0,0,0,,,,,38.985832,-76.950859,0.04,36,3,0.8
2340760,1744864740371,0.0,135,,-0.11,-0.1,1.01,2,-0,-0,1.02,1.12,91,3792,7.1,3.9,,12.75,1.112,66.4,,30.2,5,,,,,,,,,,,,0,0,0,0,0,0,0,0,0,0,0,0,0,0,0,0,,,,,0.0,,,,,,
2340780,1744864740391,,,,,,,,,,,,,,,,,,,,,,,,,,,,,,,,,,0,0,0,0,0,0,0,0,0,0,0,0,0,0,0,0,,,,,,,,,,,
2340800,1744864740411,0.0,135,,-0.13,-0.21,0.92,3,-0,-2,0.95,1.12,86,3804,7.2,3.9,,12.75,1.112,66.4,,30.5,5,,,,,,,,,,,,0,0,0,0,0,0,0,0,0,0,0,0,0,0,0,0,,,,,0.0,,,,,,
2340820,1744864740431,,,,,,,,,,,,,,,,,,,,,,,,,,,,,,,,,,0,0,0,0,0,0,0,0,0,0,0,0,0,0,0,0,,,,,,,,,,,
2340840,1744864740451,0.0,135,,-0.1,-0.14,0.94,3,-0,-1,0.95,1.12,85,3804,7.2,3.9,,12.75,1.106,66.4,,30.5,5,0,0,0,0,0.0,0.0,0.0,0.0,2.26,,,0,0,0,0,0,0,0,0,0,0,0,0,0,0,0,0,0,,,,0.0,38.985832,-76.950859,0.04,36,3,0.8
2340860,1744864740471,,,,,,,,,,,,,,,,,,,,,,,,,,,,,,,,,,0,0,0,0,0,0,0,0,0,0,0,0,0,0,0,0,,,,,,,,,,,
2340880,1744864740491,0.0,135,,-0.09,-0.11,0.93,3,-0,-1,0.94,1.12,85,3791,7.1,3.89,,12.69,1.128,66.4,,30.5,5,,,,,,,,,,,,0,0,0,0,0,0,0,0,0,0,0,0,0,0,0,0,,,,,0.0,,,,,,
2340900,1744864740509,,,,,,,,,,,,,,,,,,,,,,,,,,,,,,,,,,0,0,0,0,0,0,0,0,0,0,0,0,0,0,0,0,,,,,,,,,,,
2340920,1744864740529,0.0,135,,-0.08,-0.06,0.94,2,-0,-1,0.94,1.12,84,3832,7.1,3.91,,12.73,1.132,66.4,,30.5,5,,,,,,,,,,,,0,0,0,0,0,0,0,0,0,0,0,0,0,0,0,0,,,,,0.0,,,,,,
2340940,1744864740549,,,,,,,,,,,,,,,,,,,,,,,0,0,0,0,0.0,0.0,0.0,0.0,2.26,,,0,0,0,0,0,0,0,0,0,0,0,0,0,0,0,0,0,,,,,38.985832,-76.950859,0.11,36,3,0.8
2340960,1744864740569,0.0,135,,-0.08,-0.03,0.96,1,-0,-0,0.97,1.12,86,3794,7.1,3.9,,12.64,1.126,66.4,,30.5,5,,,,,,,,,,,,0,0,0,0,0,0,0,0,0,0,0,0,0,0,0,0,,,,,0.0,,,,,,
2340980,1744864740589,,,,,,,,,,,,,,,,,,,,,,,,,,,,,,,,,,0,0,0,0,0,0,0,0,0,0,0,0,0,0,0,0,,,,,,,,,,,
2341000,1744864740610,0.0,135,,-0.08,-0.05,0.96,1,-0,-0,0.97,1.12,87,3774,7.0,3.9,,12.64,1.126,66.4,,30.4,5,,,,,,,,,,,,0,0,0,0,0,0,0,0,0,0,0,0,0,0,0,0,,,,,0.0,,,,,,
2341020,1744864740630,,,,,,,,,,,,,,,,,,,,,,,,,,,,,,,,,,0,0,0,0,0,0,0,0,0,0,0,0,0,0,0,0,,,,,,,,,,,
2341040,1744864740650,0.0,135,,-0.08,-0.04,0.96,1,-0,-0,0.97,1.12,86,3774,7.0,3.9,,12.72,1.115,66.4,,30.4,5,0,0,0,0,0.0,0.0,0.0,0.0,2.27,,,0,0,0,0,0,0,0,0,0,0,0,0,0,0,0,0,0,,,,0.0,38.985832,-76.950859,0.04,36,3,0.8
2341060,1744864740670,,,,,,,,,,,,,,,,,,,,,,,,,,,,,,,,,,0,0,0,0,0,0,0,0,0,0,0,0,0,0,0,0,,,,,,,,,,,
2341080,1744864740690,0.0,135,,-0.1,-0.04,0.95,1,-0,-0,0.96,1.12,86,3755,6.9,3.91,,12.75,1.118,66.4,,30.2,5,,,,,,,,,,,,0,0,0,0,0,0,0,0,0,0,0,0,0,0,0,0,,,,,0.0,,,,,,
2341100,1744864740710,,,,,,,,,,,,,,,,,,,,,,,,,,,,,,,,,,0,0,0,0,0,0,0,0,0,0,0,0,0,0,0,0,,,,,,,,,,,
2341120,1744864740730,0.0,135,,-0.09,-0.05,0.97,1,-0,-0,0.98,1.12,88,3799,6.9,3.91,,12.71,1.118,66.4,,30.2,5,,,,,,,,,,,,0,0,0,0,0,0,0,0,0,0,0,0,0,0,0,0,,,,,0.0,,,,,,
2341140,1744864740750,,,,,,,,,,,,,,,,,,,,,,,0,0,0,0,0.0,0.0,0.0,0.0,2.27,,,0,0,0,0,0,0,0,0,0,0,0,0,0,0,0,0,0,,,,,38.985832,-76.950859,0.0,36,3,0.8
2341160,1744864740770,0.0,135,,-0.09,-0.07,0.99,1,-0,-0,1.0,1.12,90,3755,6.9,3.91,,12.71,1.113,66.4,,30.2,5,,,,,,,,,,,,0,0,0,0,0,0,0,0,0,0,0,0,0,0,0,0,,,,,0.0,,,,,,
2341180,1744864740790,,,,,,,,,,,,,,,,,,,,,,,,,,,,,,,,,,0,0,0,0,0,0,0,0,0,0,0,0,0,0,0,0,,,,,,,,,,,
2341200,1744864740810,0.0,135,,-0.08,-0.06,1.0,1,-0,0,1.01,1.12,90,3755,6.9,3.91,,12.71,1.113,66.4,,30.2,5,,,,,,,,,,,,0,0,0,0,0,0,0,0,0,0,0,0,0,0,0,0,,,,,0.0,,,,,,
2341220,1744864740830,,,,,,,,,,,,,,,,,,,,,,,,,,,,,,,,,,0,0,0,0,0,0,0,0,0,0,0,0,0,0,0,0,,,,,,,,,,,
2341240,1744864740850,0.0,135,13.72,-0.08,-0.06,1.01,1,-0,0,1.02,1.12,91,3764,6.9,3.9,15,12.79,1.103,66.4,153,30.2,5,0,0,0,0,0.0,0.0,0.0,0.0,2.26,0,0.0,0,0,0,0,0,0,0,0,0,0,0,0,0,0,0,0,0,0.0,0,-0,0.0,38.985832,-76.950859,0.08,36,3,0.8
2341260,1744864740870,,,,,,,,,,,,,,,,,,,,,,,,,,,,,,,,,,0,0,0,0,0,0,0,0,0,0,0,0,0,0,0,0,,,,,,,,,,,
2341280,1744864740890,0.0,135,,-0.09,-0.09,0.99,1,-0,-0,1.0,1.12,90,3857,7.0,3.89,,12.69,1.104,66.4,,30.1,5,,,,,,,,,,,,0,0,0,0,0,0,0,0,0,0,0,0,0,0,0,0,,,,,0.0,,,,,,
2341300,1744864740910,,,,,,,,,,,,,,,,,,,,,,,,,,,,,,,,,,0,0,0,0,0,0,0,0,0,0,0,0,0,0,0,0,,,,,,,,,,,
2341320,1744864740930,0.0,135,,-0.1,-0.06,1.0,0,-0,0,1.01,1.12,91,3752,7.1,3.9,,12.75,1.106,66.4,,30.1,5,,,,,,,,,,,,0,0,0,0,0,0,0,0,0,0,0,0,0,0,0,0,,,,,0.0,,,,,,
2341340,1744864740950,,,,,,,,,,,,,,,,,,,,,,,0,0,0,0,0.0,0.0,0.0,0.0,2.26,,,0,0,0,0,0,0,0,0,0,0,0,0,0,0,0,0,0,,,,,38.985832,-76.950859,0.05,36,3,0.8
2341360,1744864740970,0.0,135,,-0.1,-0.1,0.99,0,-0,0,1.0,1.12,90,3819,7.2,3.9,,12.76,1.094,66.4,,30.1,5,,,,,,,,,,,,0,0,0,0,0,0,0,0,0,0,0,0,0,0,0,0,,,,,0.0,,,,,,
2341380,1744864740990,,,,,,,,,,,,,,,,,,,,,,,,,,,,,,,,,,0,0,0,0,0,0,0,0,0,0,0,0,0,0,0,0,,,,,,,,,,,
2341400,1744864741000,0.0,135,,-0.1,-0.11,0.98,0,-0,0,0.99,1.12,89,3807,7.1,3.9,,12.76,1.094,66.4,,30.1,5,,,,,,,,,,,,0,0,0,0,0,0,0,0,0,0,0,0,0,0,0,0,,,,,0.0,,,,,,
2341420,1744864741020,,,,,,,,,,,,,,,,,,,,,,,,,,,,,,,,,,0,0,0,0,0,0,0,0,0,0,0,0,0,0,0,0,,,,,,,,,,,
2341440,1744864741040,0.0,135,,-0.08,-0.09,0.97,1,-0,-0,0.98,1.12,87,3807,7.1,3.9,,12.73,1.109,64.6,,30.1,5,0,0,0,0,0.0,0.0,0.0,0.0,2.26,,,0,0,0,0,0,0,0,0,0,0,0,0,0,0,0,0,0,,,,0.0,38.985832,-76.950859,0.07,36,3,0.8
2341460,1744864741060,,,,,,,,,,,,,,,,,,,,,,,,,,,,,,,,,,0,0,0,0,0,0,0,0,0,0,0,0,0,0,0,0,,,,,,,,,,,
2341480,1744864741080,0.0,135,,-0.08,-0.07,0.96,1,-0,-0,0.97,1.12,87,3861,7.1,3.89,,12.72,1.108,64.6,,30.3,5,,,,,,,,,,,,0,0,0,0,0,0,0,0,0,0,0,0,0,0,0,0,,,,,0.0,,,,,,
2341500,1744864741104,,,,,,,,,,,,,,,,,,,,,,,,,,,,,,,,,,0,0,0,0,0,0,0,0,0,0,0,0,0,0,0,0,,,,,,,,,,,
2341520,1744864741124,0.0,135,,-0.07,-0.05,0.96,1,-0,-0,0.97,1.12,87,3817,7.0,3.9,,12.69,1.093,64.6,,30.3,5,,,,,,,,,,,,0,0,0,0,0,0,0,0,0,0,0,0,0,0,0,0,,,,,0.0,,,,,,
2341540,1744864741144,,,,,,,,,,,,,,,,,,,,,,,0,0,0,0,0.0,0.0,0.0,0.0,2.26,,,0,0,0,0,0,0,0,0,0,0,0,0,0,0,0,0,0,,,,,38.985832,-76.950859,0.05,36,3,0.8
2341560,1744864741164,0.0,135,,-0.07,-0.01,0.98,0,-0,0,0.98,1.12,88,3774,7.0,3.9,,12.71,1.096,64.6,,30.3,5,,,,,,,,,,,,0,0,0,0,0,0,0,0,0,0,0,0,0,0,0,0,,,,,0.0,,,,,,
2341580,1744864741184,,,,,,,,,,,,,,,,,,,,,,,,,,,,,,,,,,0,0,0,0,0,0,0,0,0,0,0,0,0,0,0,0,,,,,,,,,,,
2341600,1744864741202,0.0,135,,-0.07,-0.01,1.0,-0,-0,0,1.0,1.12,89,3842,6.8,3.9,,12.71,1.096,64.6,,30.0,5,,,,,,,,,,,,0,0,0,0,0,0,0,0,0,0,0,0,0,0,0,0,,,,,0.0,,,,,,
2341620,1744864741222,,,,,,,,,,,,,,,,,,,,,,,,,,,,,,,,,,0,0,0,0,0,0,0,0,0,0,0,0,0,0,0,0,,,,,,,,,,,
2341640,1744864741242,0.0,135,,-0.06,0.0,1.0,-0,-0,0,1.01,1.12,90,3842,6.8,3.9,,12.75,1.101,64.6,,30.0,5,0,0,0,0,0.0,0.0,0.0,0.0,2.26,,,0,0,0,0,0,0,0,0,0,0,0,0,0,0,0,0,0,,,,0.0,38.985832,-76.950859,0.07,36,3,0.8
2341660,1744864741262,,,,,,,,,,,,,,,,,,,,,,,,,,,,,,,,,,0,0,0,0,0,0,0,0,0,0,0,0,0,0,0,0,,,,,,,,,,,
2341680,1744864741282,0.0,135,,-0.07,0.02,1.01,-0,-0,0,1.01,1.12,90,3767,6.9,3.9,,12.71,1.099,64.6,,29.7,5,,,,,,,,,,,,0,0,0,0,0,0,0,0,0,0,0,0,0,0,0,0,,,,,0.0,,,,,,
2341700,1744864741310,,,,,,,,,,,,,,,,,,,,,,,,,,,,,,,,,,0,0,0,0,0,0,0,0,0,0,0,0,0,0,0,0,,,,,,,,,,,
2341720,1744864741330,0.0,135,,-0.08,-0.03,1.01,-0,-0,0,1.02,1.12,91,3825,6.9,3.9,,12.69,1.099,64.6,,29.7,5,,,,,,,,,,,,0,0,0,0,0,0,0,0,0,0,0,0,0,0,0,0,,,,,0.0,,,,,,
2341740,1744864741350,,,,,,,,,,,,,,,,,,,,,,,0,0,0,0,0.0,0.0,0.0,0.0,2.26,,,0,0,0,0,0,0,0,0,0,0,0,0,0,0,0,0,0,,,,,38.985832,-76.950859,0.05,36,3,0.8
2341760,1744864741370,0.0,135,,-0.08,-0.03,1.04,0,-0,0,1.04,1.12,94,3786,7.0,3.9,,12.79,1.094,64.6,,29.7,5,,,,,,,,,,,,0,0,0,0,0,0,0,0,0,0,0,0,0,0,0,0,,,,,0.0,,,,,,
2341780,1744864741390,,,,,,,,,,,,,,,,,,,,,,,,,,,,,,,,,,0,0,0,0,0,0,0,0,0,0,0,0,0,0,0,0,,,,,,,,,,,
2341800,1744864741408,0.0,135,,-0.1,-0.11,1.04,-0,-0,0,1.05,1.12,94,3786,7.0,3.9,,12.79,1.094,64.6,,29.5,5,,,,,,,,,,,,0,0,0,0,0,0,0,0,0,0,0,0,0,0,0,0,,,,,0.0,,,,,,
2341820,1744864741428,,,,,,,,,,,,,,,,,,,,,,,,,,,,,,,,,,0,0,0,0,0,0,0,0,0,0,0,0,0,0,0,0,,,,,,,,,,,
2341840,1744864741448,0.0,135,,-0.09,-0.1,1.03,-0,-0,0,1.04,1.12,93,3768,7.1,3.9,,12.73,1.088,64.6,,29.5,5,0,0,0,0,0.0,0.0,0.0,0.0,2.26,,,0,0,0,0,0,0,0,0,0,0,0,0,0,0,0,0,0,,,,0.0,38.985832,-76.950859,0.04,36,3,0.8
2341860,1744864741468,,,,,,,,,,,,,,,,,,,,,,,,,,,,,,,,,,0,0,0,0,0,0,0,0,0,0,0,0,0,0,0,0,,,,,,,,,,,
2341880,1744864741488,0.0,135,,-0.1,-0.09,1.01,-1,-0,0,1.02,1.12,91,3761,7.2,3.9,,12.75,1.086,64.6,,29.2,5,,,,,,,,,,,,0,0,0,0,0,0,0,0,0,0,0,0,0,0,0,0,,,,,0.0,,,,,,
2341900,1744864741509,,,,,,,,,,,,,,,,,,,,,,,,,,,,,,,,,,0,0,0,0,0,0,0,0,0,0,0,0,0,0,0,0,,,,,,,,,,,
2341920,1744864741529,0.0,135,,-0.11,-0.07,1.0,-1,-0,1,1.01,1.12,91,3757,7.2,3.91,,12.73,1.099,64.6,,29.2,5,,,,,,,,,,,,0,0,0,0,0,0,0,0,0,0,0,0,0,0,0,0,,,,,0.0,,,,,,
2341940,1744864741549,,,,,,,,,,,,,,,,,,,,,,,0,0,0,0,0.0,0.0,0.0,0.0,2.26,,,0,0,0,0,0,0,0,0,0,0,0,0,0,0,0,0,0,,,,,38.985832,-76.950859,0.04,36,3,0.8
2341960,1744864741569,0.0,135,,-0.11,-0.12,0.99,-1,-0,0,1.01,1.12,90,3831,7.2,3.9,,12.75,1.105,64.6,,29.2,5,,,,,,,,,,,,0,0,0,0,0,0,0,0,0,0,0,0,0,0,0,0,,,,,0.0,,,,,,
2341980,1744864741591,,,,,,,,,,,,,,,,,,,,,,,,,,,,,,,,,,0,0,0,0,0,0,0,0,0,0,0,0,0,0,0,0,,,,,,,,,,,
2342000,1744864741611,0.0,135,,-0.11,-0.11,0.98,-1,-0,0,0.99,1.12,89,3779,7.1,3.91,,12.75,1.105,64.6,,29.9,5,,,,,,,,,,,,0,0,0,0,0,0,0,0,0,0,0,0,0,0,0,0,,,,,0.0,,,,,,
2342020,1744864741631,,,,,,,,,,,,,,,,,,,,,,,,,,,,,,,,,,0,0,0,0,0,0,0,0,0,0,0,0,0,0,0,0,,,,,,,,,,,
2342040,1744864741651,0.0,135,,-0.11,-0.09,0.97,-1,-0,0,0.98,1.12,88,3779,7.1,3.91,,12.72,1.112,64.6,,29.9,5,0,0,0,0,0.0,0.0,0.0,0.0,2.26,,,0,0,0,0,0,0,0,0,0,0,0,0,0,0,0,0,0,,,,0.0,38.985832,-76.950859,0.08,36,3,0.8
2342060,1744864741671,,,,,,,,,,,,,,,,,,,,,,,,,,,,,,,,,,0,0,0,0,0,0,0,0,0,0,0,0,0,0,0,0,,,,,,,,,,,
2342080,1744864741691,0.0,135,,-0.11,-0.1,0.96,-0,-0,0,0.97,1.12,87,3808,7.0,3.9,,12.68,1.109,64.6,,29.9,5,,,,,,,,,,,,0,0,0,0,0,0,0,0,0,0,0,0,0,0,0,0,,,,,0.0,,,,,,
2342100,1744864741711,,,,,,,,,,,,,,,,,,,,,,,,,,,,,,,,,,0,0,0,0,0,0,0,0,0,0,0,0,0,0,0,0,,,,,,,,,,,
2342120,1744864741731,0.0,135,,-0.1,-0.08,0.99,0,-0,-0,1.0,1.12,90,3799,6.9,3.9,,12.75,1.116,64.6,,29.9,5,,,,,,,,,,,,0,0,0,0,0,0,0,0,0,0,0,0,0,0,0,0,,,,,0.0,,,,,,
2342140,1744864741751,,,,,,,,,,,,,,,,,,,,,,,0,0,0,0,0.0,0.0,0.0,0.0,2.26,,,0,0,0,0,0,0,0,0,0,0,0,0,0,0,0,0,0,,,,,38.985832,-76.950859,0.05,36,3,0.8
2342160,1744864741771,0.0,135,,-0.09,-0.08,1.0,1,-0,-0,1.01,1.12,90,3779,7.0,3.9,,12.68,1.099,64.6,,29.9,5,,,,,,,,,,,,0,0,0,0,0,0,0,0,0,0,0,0,0,0,0,0,,,,,0.0,,,,,,
2342180,1744864741791,,,,,,,,,,,,,,,,,,,,,,,,,,,,,,,,,,0,0,0,0,0,0,0,0,0,0,0,0,0,0,0,0,,,,,,,,,,,
2342200,1744864741809,0.0,135,,-0.06,-0.02,1.0,0,-0,0,1.0,1.12,90,3814,6.9,3.89,,12.68,1.099,64.6,,29.7,5,,,,,,,,,,,,0,0,0,0,0,0,0,0,0,0,0,0,0,0,0,0,,,,,0.0,,,,,,
2342220,1744864741829,,,,,,,,,,,,,,,,,,,,,,,,,,,,,,,,,,0,0,0,0,0,0,0,0,0,0,0,0,0,0,0,0,,,,,,,,,,,
2342240,1744864741849,0.0,135,13.82,-0.05,0.0,0.98,0,-0,0,0.98,1.12,88,3814,6.9,3.89,15,12.77,1.093,64.6,153,29.7,5,0,0,0,0,0.0,0.0,0.0,0.0,2.26,0,0.0,0,0,0,0,0,0,0,0,0,0,0,0,0,0,0,0,0,0.0,0,-0,0.0,38.985832,-76.950859,0.08,36,3,0.8
2342260,1744864741869,,,,,,,,,,,,,,,,,,,,,,,,,,,,,,,,,,0,0,0,0,0,0,0,0,0,0,0,0,0,0,0,0,,,,,,,,,,,
2342280,1744864741891,0.0,135,,-0.06,0.0,0.97,0,-0,0,0.97,1.12,87,3736,7.0,3.9,,12.77,1.108,64.6,,28.9,5,,,,,,,,,,,,0,0,0,0,0,0,0,0,0,0,0,0,0,0,0,0,,,,,0.0,,,,,,
2342300,1744864741911,,,,,,,,,,,,,,,,,,,,,,,,,,,,,,,,,,0,0,0,0,0,0,0,0,0,0,0,0,0,0,0,0,,,,,,,,,,,
2342320,1744864741931,0.0,135,,-0.07,0.04,0.98,0,-0,0,0.99,1.12,88,3770,7.1,3.9,,12.75,1.107,64.6,,28.9,5,,,,,,,,,,,,0,0,0,0,0,0,0,0,0,0,0,0,0,0,0,0,,,,,0.0,,,,,,
2342340,1744864741951,,,,,,,,,,,,,,,,,,,,,,,0,0,0,0,0.0,0.0,0.0,0.0,2.26,,,0,0,0,0,0,0,0,0,0,0,0,0,0,0,0,0,0,,,,,38.985832,-76.950859,0.05,36,3,0.8
2342360,1744864741971,0.0,135,,-0.05,0.07,0.98,-0,-0,0,0.99,1.12,88,3753,7.2,3.9,,12.79,1.102,64.6,,28.9,5,,,,,,,,,,,,0,0,0,0,0,0,0,0,0,0,0,0,0,0,0,0,,,,,0.0,,,,,,
2342380,1744864741991,,,,,,,,,,,,,,,,,,,,,,,,,,,,,,,,,,0,0,0,0,0,0,0,0,0,0,0,0,0,0,0,0,,,,,,,,,,,
2342400,1744864742001,0.0,135,,-0.04,0.09,0.97,-1,-0,0,0.97,1.12,87,3825,7.2,3.9,,12.79,1.102,64.6,,29.7,5,,,,,,,,,,,,0,0,0,0,0,0,0,0,0,0,0,0,0,0,0,0,,,,,0.0,,,,,,
2342420,1744864742021,,,,,,,,,,,,,,,,,,,,,,,,,,,,,,,,,,0,0,0,0,0,0,0,0,0,0,0,0,0,0,0,0,,,,,,,,,,,
2342440,1744864742041,0.0,135,,-0.05,0.1,0.96,-1,-0,0,0.97,1.12,87,3825,7.2,3.9,,12.76,1.103,64.6,,29.7,5,0,0,0,0,0.0,0.0,0.0,0.0,2.26,,,0,0,0,0,0,0,0,0,0,0,0,0,0,0,0,0,0,,,,0.0,38.985832,-76.950859,0.04,36,3,0.8
2342460,1744864742061,,,,,,,,,,,,,,,,,,,,,,,,,,,,,,,,,,0,0,0,0,0,0,0,0,0,0,0,0,0,0,0,0,,,,,,,,,,,
2342480,1744864742081,0.0,135,,-0.05,0.13,0.99,-1,-0,1,1.0,1.12,89,3860,7.2,3.91,,12.69,1.092,64.6,,29.7,5,,,,,,,,,,,,0,0,0,0,0,0,0,0,0,0,0,0,0,0,0,0,,,,,0.0,,,,,,
2342500,1744864742103,,,,,,,,,,,,,,,,,,,,,,,,,,,,,,,,,,0,0,0,0,0,0,0,0,0,0,0,0,0,0,0,0,,,,,,,,,,,
2342520,1744864742123,0.0,135,,-0.05,0.08,1.01,-1,-0,0,1.01,1.12,91,3781,7.1,3.9,,12.73,1.095,64.6,,29.8,5,,,,,,,,,,,,0,0,0,0,0,0,0,0,0,0,0,0,0,0,0,0,,,,,0.0,,,,,,
2342540,1744864742143,,,,,,,,,,,,,,,,,,,,,,,0,0,0,0,0.0,0.0,0.0,0.0,2.26,,,0,0,0,0,0,0,0,0,0,0,0,0,0,0,0,0,0,,,,,38.985832,-76.950859,0.04,36,3,0.8
2342560,1744864742163,0.0,135,,-0.05,0.07,1.01,-1,-0,1,1.02,1.12,91,3784,7.0,3.9,,12.73,1.095,64.6,,29.8,5,,,,,,,,,,,,0,0,0,0,0,0,0,0,0,0,0,0,0,0,0,0,,,,,0.0,,,,,,
2342580,1744864742183,,,,,,,,,,,,,,,,,,,,,,,,,,,,,,,,,,0,0,0,0,0,0,0,0,0,0,0,0,0,0,0,0,,,,,,,,,,,
2342600,1744864742207,0.0,135,,-0.06,0.03,1.02,-0,-0,0,1.02,1.12,91,3768,6.9,3.91,,12.77,1.103,64.6,,29.6,5,,,,,,,,,,,,0,0,0,0,0,0,0,0,0,0,0,0,0,0,0,0,,,,,0.0,,,,,,
2342620,1744864742227,,,,,,,,,,,,,,,,,,,,,,,,,,,,,,,,,,0,0,0,0,0,0,0,0,0,0,0,0,0,0,0,0,,,,,,,,,,,
2342640,1744864742247,0.0,135,,-0.06,0.02,1.02,-0,-0,0,1.02,1.12,92,3768,6.9,3.91,,12.75,1.11,64.6,,29.6,5,0,0,0,0,0.0,0.0,0.0,0.0,2.27,,,0,0,0,0,0,0,0,0,0,0,0,0,0,0,0,0,0,,,,0.0,38.985832,-76.950859,0.04,36,3,0.8
2342660,1744864742267,,,,,,,,,,,,,,,,,,,,,,,,,,,,,,,,,,0,0,0,0,0,0,0,0,0,0,0,0,0,0,0,0,,,,,,,,,,,
2342680,1744864742291,0.0,135,,-0.06,0.04,1.05,-1,-0,1,1.05,1.12,94,3783,6.9,3.9,,12.72,1.101,64.6,,29.4,5,,,,,,,,,,,,0,0,0,0,0,0,0,0,0,0,0,0,0,0,0,0,,,,,0.0,,,,,,
2342700,1744864742311,,,,,,,,,,,,,,,,,,,,,,,,,,,,,,,,,,0,0,0,0,0,0,0,0,0,0,0,0,0,0,0,0,,,,,,,,,,,
2342720,1744864742331,0.0,135,,-0.04,0.05,1.05,-1,-0,1,1.05,1.12,94,3747,6.9,3.9,,12.77,1.099,64.6,,29.4,5,,,,,,,,,,,,0,0,0,0,0,0,0,0,0,0,0,0,0,0,0,0,,,,,0.0,,,,,,
2342740,1744864742351,,,,,,,,,,,,,,,,,,,,,,,0,0,0,0,0.0,0.0,0.0,0.0,2.26,,,0,0,0,0,0,0,0,0,0,0,0,0,0,0,0,0,0,,,,,38.985832,-76.950859,0.16,36,3,0.8
2342760,1744864742371,0.0,135,,-0.04,0.04,1.05,-1,-0,1,1.05,1.12,94,3796,6.8,3.91,,12.75,1.112,64.6,,29.4,5,,,,,,,,,,,,0,0,0,0,0,0,0,0,0,0,0,0,0,0,0,0,,,,,0.0,,,,,,
2342780,1744864742391,,,,,,,,,,,,,,,,,,,,,,,,,,,,,,,,,,0,0,0,0,0,0,0,0,0,0,0,0,0,0,0,0,,,,,,,,,,,
2342800,1744864742409,0.0,135,,-0.01,0.12,1.01,-1,-0,1,1.02,1.12,91,3778,6.9,3.9,,12.75,1.112,64.6,,29.3,5,,,,,,,,,,,,0,0,0,0,0,0,0,0,0,0,0,0,0,0,0,0,,,,,0.0,,,,,,
2342820,1744864742429,,,,,,,,,,,,,,,,,,,,,,,,,,,,,,,,,,0,0,0,0,0,0,0,0,0,0,0,0,0,0,0,0,,,,,,,,,,,
2342840,1744864742449,0.0,135,,-0.02,0.14,1.03,-1,-0,1,1.04,1.12,93,3778,6.9,3.9,,12.76,1.115,64.6,,29.3,5,0,0,0,0,0.0,0.0,0.0,0.0,2.26,,,0,0,0,0,0,0,0,0,0,0,0,0,0,0,0,0,0,,,,0.0,38.985832,-76.950859,0.18,36,3,0.8
2342860,1744864742469,,,,,,,,,,,,,,,,,,,,,,,,,,,,,,,,,,0,0,0,0,0,0,0,0,0,0,0,0,0,0,0,0,,,,,,,,,,,
2342880,1744864742489,0.0,135,,-0.02,0.13,1.04,-1,-0,1,1.04,1.12,94,3726,7.0,3.9,,12.73,1.12,64.6,,28.8,5,,,,,,,,,,,,0,0,0,0,0,0,0,0,0,0,0,0,0,0,0,0,,,,,0.0,,,,,,
2342900,1744864742508,,,,,,,,,,,,,,,,,,,,,,,,,,,,,,,,,,0,0,0,0,0,0,0,0,0,0,0,0,0,0,0,0,,,,,,,,,,,
2342920,1744864742528,0.0,135,,-0.01,0.13,1.03,-1,-0,1,1.04,1.12,93,3768,7.0,3.9,,12.73,1.118,64.6,,28.8,5,,,,,,,,,,,,0,0,0,0,0,0,0,0,0,0,0,0,0,0,0,0,,,,,0.0,,,,,,
2342940,1744864742548,,,,,,,,,,,,,,,,,,,,,,,0,0,0,0,0.0,0.0,0.0,0.0,2.26,,,0,0,0,0,0,0,0,0,0,0,0,0,0,0,0,0,0,,,,,38.985832,-76.950859,0.11,36,3,0.8
2342960,1744864742568,0.0,135,,-0.02,0.13,1.02,-1,-0,1,1.03,1.12,92,3721,7.0,3.91,,12.79,1.121,64.6,,28.8,5,,,,,,,,,,,,0,0,0,0,0,0,0,0,0,0,0,0,0,0,0,0,,,,,0.0,,,,,,
2342980,1744864742588,,,,,,,,,,,,,,,,,,,,,,,,,,,,,,,,,,0,0,0,0,0,0,0,0,0,0,0,0,0,0,0,0,,,,,,,,,,,
2343000,1744864742608,0.0,135,,-0.04,0.13,1.03,-1,-0,1,1.04,1.12,93,3794,6.9,3.9,,12.79,1.121,64.6,,29.5,5,,,,,,,,,,,,0,0,0,0,0,0,0,0,0,0,0,0,0,0,0,0,,,,,0.0,,,,,,
2343020,1744864742628,,,,,,,,,,,,,,,,,,,,,,,,,,,,,,,,,,0,0,0,0,0,0,0,0,0,0,0,0,0,0,0,0,,,,,,,,,,,
2343040,1744864742648,0.0,135,,-0.04,0.08,1.03,-1,-0,1,1.03,1.12,92,3794,6.9,3.9,,12.71,1.122,64.6,,29.5,5,0,0,0,0,0.0,0.0,0.0,0.0,2.26,,,0,0,0,0,0,0,0,0,0,0,0,0,0,0,0,0,0,,,,0.0,38.985832,-76.950859,0.12,36,3,0.8
2343060,1744864742668,,,,,,,,,,,,,,,,,,,,,,,,,,,,,,,,,,0,0,0,0,0,0,0,0,0,0,0,0,0,0,0,0,,,,,,,,,,,
2343080,1744864742688,0.0,135,,-0.05,0.07,1.01,-1,-0,1,1.02,1.12,91,3771,6.8,3.9,,12.72,1.108,64.6,,29.1,5,,,,,,,,,,,,0,0,0,0,0,0,0,0,0,0,0,0,0,0,0,0,,,,,0.0,,,,,,
2343100,1744864742710,,,,,,,,,,,,,,,,,,,,,,,,,,,,,,,,,,0,0,0,0,0,0,0,0,0,0,0,0,0,0,0,0,,,,,,,,,,,
2343120,1744864742730,0.0,135,,-0.06,0.06,1.0,-1,-0,0,1.0,1.12,90,3790,6.7,3.9,,12.73,1.107,64.6,,29.1,5,,,,,,,,,,,,0,0,0,0,0,0,0,0,0,0,0,0,0,0,0,0,,,,,0.0,,,,,,
2343140,1744864742750,,,,,,,,,,,,,,,,,,,,,,,0,0,0,0,0.0,0.0,0.0,0.0,2.27,,,0,0,0,0,0,0,0,0,0,0,0,0,0,0,0,0,0,,,,,38.985832,-76.950859,0.07,36,3,0.8
2343160,1744864742770,0.0,135,,-0.08,0.07,0.99,-1,-0,0,0.99,1.12,89,3778,6.6,3.89,,12.73,1.092,64.6,,29.1,5,,,,,,,,,,,,0,0,0,0,0,0,0,0,0,0,0,0,0,0,0,0,,,,,0.0,,,,,,
2343180,1744864742790,,,,,,,,,,,,,,,,,,,,,,,,,,,,,,,,,,0,0,0,0,0,0,0,0,0,0,0,0,0,0,0,0,,,,,,,,,,,
2343200,1744864742808,0.0,135,,-0.09,0.02,0.99,-1,-0,0,0.99,1.12,89,3750,6.6,3.89,,12.73,1.092,64.6,,29.3,5,,,,,,,,,,,,0,0,0,0,0,0,0,0,0,0,0,0,0,0,0,0,,,,,0.0,,,,,,
2343220,1744864742828,,,,,,,,,,,,,,,,,,,,,,,,,,,,,,,,,,0,0,0,0,0,0,0,0,0,0,0,0,0,0,0,0,,,,,,,,,,,
2343240,1744864742848,0.0,135,13.82,-0.09,-0.0,0.98,-0,-0,0,0.99,1.12,88,3750,6.6,3.89,15,12.72,1.089,64.6,153,29.3,5,0,0,0,0,0.0,0.0,0.0,0.0,2.26,0,0.0,0,0,0,0,0,0,0,0,0,0,0,0,0,0,0,0,0,0.0,0,-0,0.0,38.985832,-76.950859,0.0,36,3,0.8
2343260,1744864742868,,,,,,,,,,,,,,,,,,,,,,,,,,,,,,,,,,0,0,0,0,0,0,0,0,0,0,0,0,0,0,0,0,,,,,,,,,,,
2343280,1744864742888,0.0,135,,-0.09,-0.01,0.97,0,-0,0,0.97,1.12,87,3803,6.6,3.89,,12.73,1.096,64.6,,29.3,5,,,,,,,,,,,,0,0,0,0,0,0,0,0,0,0,0,0,0,0,0,0,,,,,0.0,,,,,,
2343300,1744864742910,,,,,,,,,,,,,,,,,,,,,,,,,,,,,,,,,,0,0,0,0,0,0,0,0,0,0,0,0,0,0,0,0,,,,,,,,,,,
2343320,1744864742930,0.0,135,,-0.09,-0.03,0.95,1,-0,-0,0.96,1.12,86,3753,6.8,3.89,,12.76,1.098,64.6,,29.3,5,,,,,,,,,,,,0,0,0,0,0,0,0,0,0,0,0,0,0,0,0,0,,,,,0.0,,,,,,
2343340,1744864742950,,,,,,,,,,,,,,,,,,,,,,,0,0,0,0,0.0,0.0,0.0,0.0,2.26,,,0,0,0,0,0,0,0,0,0,0,0,0,0,0,0,0,0,,,,,38.985832,-76.950859,0.08,36,3,0.8
2343360,1744864742970,0.0,135,,-0.08,-0.01,0.98,1,-0,-0,0.98,1.12,88,3826,6.9,3.89,,12.72,1.096,64.6,,29.3,5,,,,,,,,,,,,0,0,0,0,0,0,0,0,0,0,0,0,0,0,0,0,,,,,0.0,,,,,,
2343380,1744864742990,,,,,,,,,,,,,,,,,,,,,,,,,,,,,,,,,,0,0,0,0,0,0,0,0,0,0,0,0,0,0,0,0,,,,,,,,,,,
2343400,1744864743002,0.0,135,,-0.07,0.0,0.99,1,-0,-0,0.99,1.12,89,3759,6.9,3.88,,12.72,1.096,64.6,,29.5,5,,,,,,,,,,,,0,0,0,0,0,0,0,0,0,0,0,0,0,0,0,0,,,,,0.0,,,,,,
2343420,1744864743022,,,,,,,,,,,,,,,,,,,,,,,,,,,,,,,,,,0,0,0,0,0,0,0,0,0,0,0,0,0,0,0,0,,,,,,,,,,,
2343440,1744864743042,0.0,135,,-0.06,0.03,0.99,0,-0,0,0.99,1.12,89,3759,6.9,3.88,,12.79,1.099,64.6,,29.5,5,0,0,0,0,0.0,0.0,0.0,0.0,2.26,,,0,0,0,0,0,0,0,0,0,0,0,0,0,0,0,0,0,,,,0.0,38.985832,-76.950859,0.08,36,3,0.8
2343460,1744864743062,,,,,,,,,,,,,,,,,,,,,,,,,,,,,,,,,,0,0,0,0,0,0,0,0,0,0,0,0,0,0,0,0,,,,,,,,,,,
2343480,1744864743082,0.0,135,,-0.05,0.05,0.97,0,-0,0,0.98,1.12,87,3805,6.9,3.89,,12.75,1.114,64.6,,29.3,5,,,,,,,,,,,,0,0,0,0,0,0,0,0,0,0,0,0,0,0,0,0,,,,,0.0,,,,,,
2343500,1744864743108,,,,,,,,,,,,,,,,,,,,,,,,,,,,,,,,,,0,0,0,0,0,0,0,0,0,0,0,0,0,0,0,0,,,,,,,,,,,
2343520,1744864743128,0.0,135,,-0.06,0.05,0.97,-0,-0,0,0.97,1.12,87,3764,6.9,3.9,,12.76,1.105,64.6,,29.3,5,,,,,,,,,,,,0,0,0,0,0,0,0,0,0,0,0,0,0,0,0,0,,,,,0.0,,,,,,
2343540,1744864743148,,,,,,,,,,,,,,,,,,,,,,,0,0,0,0,0.0,0.0,0.0,0.0,2.26,,,0,0,0,0,0,0,0,0,0,0,0,0,0,0,0,0,0,,,,,38.985832,-76.950859,0.0,36,3,0.8
2343560,1744864743168,0.0,135,,-0.06,0.1,0.99,-1,-0,0,0.99,1.12,89,3771,6.9,3.9,,12.72,1.105,64.6,,29.3,5,,,,,,,,,,,,0,0,0,0,0,0,0,0,0,0,0,0,0,0,0,0,,,,,0.0,,,,,,
2343580,1744864743188,,,,,,,,,,,,,,,,,,,,,,,,,,,,,,,,,,0,0,0,0,0,0,0,0,0,0,0,0,0,0,0,0,,,,,,,,,,,
2343600,1744864743210,0.0,135,,-0.05,0.09,0.99,-1,-0,0,1.0,1.12,89,3805,6.8,3.9,,12.72,1.105,64.6,,29.1,5,,,,,,,,,,,,0,0,0,0,0,0,0,0,0,0,0,0,0,0,0,0,,,,,0.0,,,,,,
2343620,1744864743230,,,,,,,,,,,,,,,,,,,,,,,,,,,,,,,,,,0,0,0,0,0,0,0,0,0,0,0,0,0,0,0,0,,,,,,,,,,,
2343640,1744864743250,0.0,135,,-0.05,0.09,0.99,-1,-0,1,0.99,1.12,89,3805,6.8,3.9,,12.77,1.103,64.6,,29.1,5,0,0,0,0,0.0,0.0,0.0,0.0,2.26,,,0,0,0,0,0,0,0,0,0,0,0,0,0,0,0,0,0,,,,0.0,38.985832,-76.950859,0.04,36,3,0.8
2343660,1744864743270,,,,,,,,,,,,,,,,,,,,,,,,,,,,,,,,,,0,0,0,0,0,0,0,0,0,0,0,0,0,0,0,0,,,,,,,,,,,
2343680,1744864743290,0.0,135,,-0.07,0.07,0.98,-1,-0,1,0.98,1.12,88,3757,6.9,3.91,,12.76,1.095,64.6,,29.2,5,,,,,,,,,,,,0,0,0,0,0,0,0,0,0,0,0,0,0,0,0,0,,,,,0.0,,,,,,
2343700,1744864743310,,,,,,,,,,,,,,,,,,,,,,,,,,,,,,,,,,0,0,0,0,0,0,0,0,0,0,0,0,0,0,0,0,,,,,,,,,,,
2343720,1744864743330,0.0,135,,-0.07,0.05,0.99,-1,-0,1,1.0,1.12,89,3789,7.0,3.91,,12.71,1.09,64.6,,29.2,5,,,,,,,,,,,,0,0,0,0,0,0,0,0,0,0,0,0,0,0,0,0,,,,,0.0,,,,,,
2343740,1744864743350,,,,,,,,,,,,,,,,,,,,,,,0,0,0,0,0.0,0.0,0.0,0.0,2.27,,,0,0,0,0,0,0,0,0,0,0,0,0,0,0,0,0,0,,,,,38.985832,-76.950859,0.04,36,3,0.8
2343760,1744864743370,0.0,135,,-0.07,0.03,1.01,-1,-0,1,1.02,1.12,91,3754,7.1,3.91,,12.71,1.085,64.6,,29.2,5,,,,,,,,,,,,0,0,0,0,0,0,0,0,0,0,0,0,0,0,0,0,,,,,0.0,,,,,,
2343780,1744864743390,,,,,,,,,,,,,,,,,,,,,,,,,,,,,,,,,,0,0,0,0,0,0,0,0,0,0,0,0,0,0,0,0,,,,,,,,,,,
2343800,1744864743410,0.0,135,,-0.06,0.02,1.02,-0,-0,1,1.02,1.12,92,3754,7.1,3.91,,12.71,1.085,64.6,,29.2,5,,,,,,,,,,,,0,0,0,0,0,0,0,0,0,0,0,0,0,0,0,0,,,,,0.0,,,,,,
2343820,1744864743430,,,,,,,,,,,,,,,,,,,,,,,,,,,,,,,,,,0,0,0,0,0,0,0,0,0,0,0,0,0,0,0,0,,,,,,,,,,,
2343840,1744864743450,0.0,135,,-0.07,0.01,1.01,-0,-0,1,1.02,1.12,91,3756,7.2,3.91,,12.79,1.089,64.6,,29.2,5,0,0,0,0,0.0,0.0,0.0,0.0,2.26,,,0,0,0,0,0,0,0,0,0,0,0,0,0,0,0,0,0,,,,0.0,38.985832,-76.950859,0.04,36,3,0.8
2343860,1744864743470,,,,,,,,,,,,,,,,,,,,,,,,,,,,,,,,,,0,0,0,0,0,0,0,0,0,0,0,0,0,0,0,0,,,,,,,,,,,
2343880,1744864743490,0.0,135,,-0.07,-0.0,1.02,0,-0,0,1.03,1.12,92,3768,7.3,3.93,,12.75,1.097,64.6,,29.2,5,,,,,,,,,,,,0,0,0,0,0,0,0,0,0,0,0,0,0,0,0,0,,,,,0.0,,,,,,
2343900,1744864743507,,,,,,,,,,,,,,,,,,,,,,,,,,,,,,,,,,0,0,0,0,0,0,0,0,0,0,0,0,0,0,0,0,,,,,,,,,,,
2343920,1744864743527,0.0,135,,-0.06,-0.01,1.05,0,-0,0,1.05,1.12,94,3750,7.4,3.91,,12.71,1.111,64.6,,28.6,5,,,,,,,,,,,,0,0,0,0,0,0,0,0,0,0,0,0,0,0,0,0,,,,,0.0,,,,,,
2343940,1744864743547,,,,,,,,,,,,,,,,,,,,,,,0,0,0,0,0.0,0.0,0.0,0.0,2.26,,,0,0,0,0,0,0,0,0,0,0,0,0,0,0,0,0,0,,,,,38.985832,-76.950859,0.05,36,3,0.8
2343960,1744864743567,0.0,135,,-0.05,0.02,1.05,0,-0,0,1.05,1.12,94,3748,7.4,3.92,,12.71,1.111,64.6,,28.6,5,,,,,,,,,,,,0,0,0,0,0,0,0,0,0,0,0,0,0,0,0,0,,,,,0.0,,,,,,
2343980,1744864743587,,,,,,,,,,,,,,,,,,,,,,,,,,,,,,,,,,0,0,0,0,0,0,0,0,0,0,0,0,0,0,0,0,,,,,,,,,,,
2344000,1744864743609,0.0,135,,-0.05,0.03,1.04,1,-0,0,1.04,1.12,93,3711,7.4,3.93,,12.79,1.105,64.6,,28.9,5,,,,,,,,,,,,0,0,0,0,0,0,0,0,0,0,0,0,0,0,0,0,,,,,0.0,,,,,,
2344020,1744864743629,,,,,,,,,,,,,,,,,,,,,,,,,,,,,,,,,,0,0,0,0,0,0,0,0,0,0,0,0,0,0,0,0,,,,,,,,,,,
2344040,1744864743649,0.0,135,,-0.04,0.04,1.04,1,-0,0,1.04,1.12,93,3711,7.4,3.93,,12.81,1.103,64.6,,28.9,5,0,0,0,0,0.0,0.0,0.0,0.0,2.26,,,0,0,0,0,0,0,0,0,0,0,0,0,0,0,0,0,0,,,,0.0,38.985832,-76.950859,0.08,36,3,0.8
2344060,1744864743669,,,,,,,,,,,,,,,,,,,,,,,,,,,,,,,,,,0,0,0,0,0,0,0,0,0,0,0,0,0,0,0,0,,,,,,,,,,,
2344080,1744864743689,0.0,135,,-0.05,0.02,1.04,1,-0,0,1.04,1.12,93,3739,7.3,3.93,,12.77,1.123,64.6,,29.0,5,,,,,,,,,,,,0,0,0,0,0,0,0,0,0,0,0,0,0,0,0,0,,,,,0.0,,,,,,
2344100,1744864743709,,,,,,,,,,,,,,,,,,,,,,,,,,,,,,,,,,0,0,0,0,0,0,0,0,0,0,0,0,0,0,0,0,,,,,,,,,,,
2344120,1744864743729,0.0,135,,-0.05,0.0,1.02,1,-0,0,1.02,1.12,91,3725,7.2,3.93,,12.79,1.137,64.6,,29.0,5,,,,,,,,,,,,0,0,0,0,0,0,0,0,0,0,0,0,0,0,0,0,,,,,0.0,,,,,,
2344140,1744864743749,,,,,,,,,,,,,,,,,,,,,,,0,0,0,0,0.0,0.0,0.0,0.0,2.27,,,0,0,0,0,0,0,0,0,0,0,0,0,0,0,0,0,0,,,,,38.985832,-76.950859,0.07,36,3,0.8
