"Interval"|"ms"|0|0|1,"Utc"|"ms"|0|0|1,"FrontBP"|"psi"|-5.0|5.0|25,"SteerAng"|"Degrees"|-145|145|25,"Battery"|"Volts"|-5.0|20.0|1,"AccelX"|"G"|-3.0|3.0|25,"AccelY"|"G"|-3.0|3.0|25,"AccelZ"|"G"|-3.0|3.0|25,"Yaw"|"Deg/Sec"|-120|120|25,"Pitch"|"Deg/Sec"|-120|120|25,"Roll"|"Deg/Sec"|-120|120|25,"Gsum"|"G"|0.0|3.0|25,"GsumMax"|"G"|0.0|3.0|25,"GsumPct"|"%"|0|100|25,"RPM"|""|0|10000|25,"TPS"|"%"|0.0|100.0|25,"InjectorPW"|"ms"|0.0|100.0|25,"Baro"|"kPa"|0|105|1,"MAP"|"Psi"|0.0|255.0|25,"Lambda"|""|-2.0|2.0|25,"IAT"|"C"|0.0|200.0|25,"EngineTemp"|"C"|0|200|1,"EOP"|"PSI"|0.0|152.0|25,"EOT"|"F"|0|250|25,"WSFR"|"MPH"|0|150|10,"WSFL"|"MPH"|0|100|10,"WSRR"|"MPH"|0|100|10,"WSRL"|""|0|100|10,"TCSet"|"%"|0.0|100.0|10,"TCSlip"|"%"|0.0|100.0|10,"TCComp"|"deg"|0.0|50.0|10,"TCCut"|"%"|0.0|100.0|10,"Analog8"|""|0.0|5.0|10,"OilTemp"|"F"|0|300|1,"AA_On"|""|0.0|1.0|1,"ThermLF1"|"C"|0|400|50,"ThermLF2"|"C"|0|400|50,"ThermRR1"|"C"|0|400|50,"ThermRR2"|"C"|0|400|50,"ThermLF3"|"C"|0|400|50,"ThermLF4"|"C"|0|400|50,"ThermLF5"|"C"|0|400|50,"ThermLF6"|"C"|0|400|50,"ThermLF7"|"C"|0|400|50,"ThermLF8"|"C"|0|400|50,"ThermRR3"|"C"|0|400|50,"ThermRR4"|"C"|0|400|50,"ThermRR5"|"C"|0|400|50,"ThermRR6"|"C"|0|400|50,"ThermRR7"|"C"|0|400|50,"ThermRR8"|"C"|0|400|50,"Gear"|""|1|6|10,"AA_On"|""|0.0|1.0|1,"AA_LowDrag"|""|0|1|1,"Fuel_Mix"|""|-10|10|1,"AA_Packages"|""|0.0|1000.0|25,"Latitude"|"Degrees"|-180.0|180.0|10,"Longitude"|"Degrees"|-180.0|180.0|10,"Speed"|"kph"|0.0|150.0|10,"GPSSats"|""|0|20|10,"GPSQual"|""|0|5|10,"GPSDOP"|""|0.0|20.0|10
3333060,1744865732679,,,,,,,,,,,,,,,,,,,,,,,,,,,,,,,,,,0,0,0,0,0,0,0,0,0,0,0,0,0,0,0,0,,,,,,,,,,,
3333080,1744865732699,0.0,135,,-0.16,0.23,1.05,-4,-0,2,1.09,1.09,100,4460,9.2,3.76,,12.36,1.241,73.6,,32.1,5,,,,,,,,,,,,0,0,0,0,0,0,0,0,0,0,0,0,0,0,0,0,,,,,0.0,,,,,,
3333100,1744865732719,,,,,,,,,,,,,,,,,,,,,,,,,,,,,,,,,,0,0,0,0,0,0,0,0,0,0,0,0,0,0,0,0,,,,,,,,,,,
3333120,1744865732739,0.0,135,,-0.18,0.27,1.08,-5,-0,3,1.12,1.12,100,4480,9.9,3.8,,12.36,1.241,73.6,,32.1,5,,,,,,,,,,,,0,0,0,0,0,0,0,0,0,0,0,0,0,0,0,0,,,,,0.0,,,,,,
3333140,1744865732759,,,,,,,,,,,,,,,,,,,,,,,0,0,0,0,0.0,0.0,0.0,0.0,2.26,,,0,0,0,0,0,0,0,0,0,0,0,0,0,0,0,0,0,,,,,38.985832,-76.950851,0.12,33,3,0.8
3333160,1744865732779,0.0,135,,-0.2,0.31,1.09,-6,-0,3,1.15,1.15,100,4480,9.9,3.8,,12.41,1.216,73.6,,32.8,5,,,,,,,,,,,,0,0,0,0,0,0,0,0,0,0,0,0,0,0,0,0,,,,,0.0,,,,,,
3333180,1744865732799,,,,,,,,,,,,,,,,,,,,,,,,,,,,,,,,,,0,0,0,0,0,0,0,0,0,0,0,0,0,0,0,0,,,,,,,,,,,
3333200,1744865732819,0.0,135,,-0.22,0.35,1.11,-6,-0,3,1.18,1.18,100,4505,10.1,3.85,,12.48,1.207,73.6,,32.8,5,,,,,,,,,,,,0,0,0,0,0,0,0,0,0,0,0,0,0,0,0,0,,,,,0.0,,,,,,
3333220,1744865732839,,,,,,,,,,,,,,,,,,,,,,,,,,,,,,,,,,0,0,0,0,0,0,0,0,0,0,0,0,0,0,0,0,,,,,,,,,,,
3333240,1744865732859,0.0,135,13.36,-0.23,0.42,1.13,-7,-0,4,1.23,1.23,100,4489,10.2,3.84,15,12.51,1.243,73.6,169,32.8,5,0,0,0,0,0.0,0.0,0.0,0.0,2.26,0,0.0,0,0,0,0,0,0,0,0,0,0,0,0,0,0,0,0,0,0.0,0,0,0.0,38.985832,-76.950851,0.08,33,3,0.8
3333260,1744865732879,,,,,,,,,,,,,,,,,,,,,,,,,,,,,,,,,,0,0,0,0,0,0,0,0,0,0,0,0,0,0,0,0,,,,,,,,,,,
3333280,1744865732901,0.0,135,,-0.23,0.48,1.2,-8,-0,4,1.31,1.31,100,4476,10.3,3.85,,12.57,1.231,73.6,,32.1,5,,,,,,,,,,,,0,0,0,0,0,0,0,0,0,0,0,0,0,0,0,0,,,,,0.0,,,,,,
3333300,1744865732921,,,,,,,,,,,,,,,,,,,,,,,,,,,,,,,,,,0,0,0,0,0,0,0,0,0,0,0,0,0,0,0,0,,,,,,,,,,,
3333320,1744865732941,0.0,135,,-0.22,0.61,1.26,-8,-0,5,1.42,1.42,100,4486,10.3,3.86,,12.57,1.231,73.6,,32.1,5,,,,,,,,,,,,0,0,0,0,0,0,0,0,0,0,0,0,0,0,0,0,,,,,0.0,,,,,,
3333340,1744865732961,,,,,,,,,,,,,,,,,,,,,,,0,0,0,0,0.0,0.0,0.0,0.0,2.26,,,0,0,0,0,0,0,0,0,0,0,0,0,0,0,0,0,0,,,,,38.985832,-76.950851,0.07,33,3,0.8
3333360,1744865732981,0.0,135,,-0.21,0.69,1.34,-8,-0,5,1.52,1.52,100,4486,10.3,3.86,,12.59,1.237,73.6,,32.4,5,,,,,,,,,,,,0,0,0,0,0,0,0,0,0,0,0,0,0,0,0,0,,,,,0.0,,,,,,
3333380,1744865732991,,,,,,,,,,,,,,,,,,,,,,,,,,,,,,,,,,0,0,0,0,0,0,0,0,0,0,0,0,0,0,0,0,,,,,,,,,,,
3333400,1744865733011,0.0,135,,-0.19,0.8,1.39,-8,-0,5,1.61,1.61,100,4443,10.1,3.84,,12.53,1.242,73.6,,32.4,5,,,,,,,,,,,,0,0,0,0,0,0,0,0,0,0,0,0,0,0,0,0,,,,,0.0,,,,,,
3333420,1744865733031,,,,,,,,,,,,,,,,,,,,,,,,,,,,,,,,,,0,0,0,0,0,0,0,0,0,0,0,0,0,0,0,0,,,,,,,,,,,
3333440,1744865733051,0.0,135,,-0.17,0.79,1.42,-7,-0,5,1.64,1.64,100,4468,10.0,3.83,,12.49,1.236,73.6,,32.4,5,0,0,0,0,0.0,0.0,0.0,0.0,2.26,,,0,0,0,0,0,0,0,0,0,0,0,0,0,0,0,0,0,,,,0.0,38.985832,-76.950851,0.06,33,3,0.8
3333460,1744865733071,,,,,,,,,,,,,,,,,,,,,,,,,,,,,,,,,,0,0,0,0,0,0,0,0,0,0,0,0,0,0,0,0,,,,,,,,,,,
3333480,1744865733097,0.0,135,,-0.13,0.79,1.41,-6,-0,4,1.62,1.64,99,4430,9.8,3.81,,12.43,1.247,73.6,,32.2,5,,,,,,,,,,,,0,0,0,0,0,0,0,0,0,0,0,0,0,0,0,0,,,,,0.0,,,,,,
3333500,1744865733117,,,,,,,,,,,,,,,,,,,,,,,,,,,,,,,,,,0,0,0,0,0,0,0,0,0,0,0,0,0,0,0,0,,,,,,,,,,,
3333520,1744865733137,0.0,135,,-0.11,0.71,1.35,-4,-0,3,1.53,1.64,93,4469,9.7,3.84,,12.43,1.247,73.6,,32.2,5,,,,,,,,,,,,0,0,0,0,0,0,0,0,0,0,0,0,0,0,0,0,,,,,0.0,,,,,,
3333540,1744865733157,,,,,,,,,,,,,,,,,,,,,,,0,0,0,0,0.0,0.0,0.0,0.0,2.26,,,0,0,0,0,0,0,0,0,0,0,0,0,0,0,0,0,0,,,,,38.985832,-76.950851,0.13,33,3,0.8
3333560,1744865733177,0.0,135,,-0.08,0.55,1.26,-2,-0,2,1.38,1.64,84,4469,9.7,3.84,,12.49,1.24,73.6,,31.4,5,,,,,,,,,,,,0,0,0,0,0,0,0,0,0,0,0,0,0,0,0,0,,,,,0.0,,,,,,
3333580,1744865733197,,,,,,,,,,,,,,,,,,,,,,,,,,,,,,,,,,0,0,0,0,0,0,0,0,0,0,0,0,0,0,0,0,,,,,,,,,,,
3333600,1744865733217,0.0,135,,-0.07,0.38,1.14,-1,-0,1,1.21,1.64,74,4466,9.6,3.82,,12.47,1.226,71.8,,31.4,5,,,,,,,,,,,,0,0,0,0,0,0,0,0,0,0,0,0,0,0,0,0,,,,,0.0,,,,,,
3333620,1744865733237,,,,,,,,,,,,,,,,,,,,,,,,,,,,,,,,,,0,0,0,0,0,0,0,0,0,0,0,0,0,0,0,0,,,,,,,,,,,
3333640,1744865733257,0.0,135,,-0.06,0.12,1.05,1,-0,0,1.06,1.64,65,4435,9.5,3.82,,12.47,1.239,71.8,,31.4,5,0,0,0,0,0.0,0.0,0.0,0.0,2.26,,,0,0,0,0,0,0,0,0,0,0,0,0,0,0,0,0,0,,,,0.0,38.985832,-76.950851,0.04,33,3,0.8
3333660,1744865733277,,,,,,,,,,,,,,,,,,,,,,,,,,,,,,,,,,0,0,0,0,0,0,0,0,0,0,0,0,0,0,0,0,,,,,,,,,,,
3333680,1744865733299,0.0,135,,-0.08,0.05,1.01,-0,-0,0,1.02,1.64,62,4369,9.4,3.8,,12.52,1.227,71.8,,31.6,5,,,,,,,,,,,,0,0,0,0,0,0,0,0,0,0,0,0,0,0,0,0,,,,,0.0,,,,,,
3333700,1744865733319,,,,,,,,,,,,,,,,,,,,,,,,,,,,,,,,,,0,0,0,0,0,0,0,0,0,0,0,0,0,0,0,0,,,,,,,,,,,
3333720,1744865733339,0.0,135,,-0.11,0.1,1.03,-2,-0,1,1.04,1.64,64,4369,9.5,3.8,,12.52,1.227,71.8,,31.6,5,,,,,,,,,,,,0,0,0,0,0,0,0,0,0,0,0,0,0,0,0,0,,,,,0.0,,,,,,
3333740,1744865733359,,,,,,,,,,,,,,,,,,,,,,,0,0,0,0,0.0,0.0,0.0,0.0,2.26,,,0,0,0,0,0,0,0,0,0,0,0,0,0,0,0,0,0,,,,,38.985832,-76.950851,0.12,33,3,0.8
3333760,1744865733379,0.0,135,,-0.1,0.29,1.13,-3,-0,2,1.17,1.64,71,4369,9.5,3.8,,12.51,1.221,71.8,,31.3,5,,,,,,,,,,,,0,0,0,0,0,0,0,0,0,0,0,0,0,0,0,0,,,,,0.0,,,,,,
3333780,1744865733401,,,,,,,,,,,,,,,,,,,,,,,,,,,,,,,,,,0,0,0,0,0,0,0,0,0,0,0,0,0,0,0,0,,,,,,,,,,,
3333800,1744865733421,0.0,135,,-0.09,0.38,1.17,-2,-0,2,1.23,1.64,75,4344,9.5,3.81,,12.4,1.231,71.8,,31.3,5,,,,,,,,,,,,0,0,0,0,0,0,0,0,0,0,0,0,0,0,0,0,,,,,0.0,,,,,,
3333820,1744865733441,,,,,,,,,,,,,,,,,,,,,,,,,,,,,,,,,,0,0,0,0,0,0,0,0,0,0,0,0,0,0,0,0,,,,,,,,,,,
3333840,1744865733461,0.0,135,,-0.06,0.27,1.1,-0,-0,1,1.14,1.64,69,4387,9.5,3.82,,12.48,1.224,71.8,,31.3,5,0,0,0,0,0.0,0.0,0.0,0.0,2.25,,,0,0,0,0,0,0,0,0,0,0,0,0,0,0,0,0,0,,,,0.0,38.985832,-76.950851,0.08,33,3,0.8
3333860,1744865733481,,,,,,,,,,,,,,,,,,,,,,,,,,,,,,,,,,0,0,0,0,0,0,0,0,0,0,0,0,0,0,0,0,,,,,,,,,,,
3333880,1744865733498,0.0,135,,-0.06,0.07,1.04,0,-0,0,1.04,1.64,64,4325,9.5,3.83,,12.53,1.209,71.8,,31.4,5,,,,,,,,,,,,0,0,0,0,0,0,0,0,0,0,0,0,0,0,0,0,,,,,0.0,,,,,,
3333900,1744865733518,,,,,,,,,,,,,,,,,,,,,,,,,,,,,,,,,,0,0,0,0,0,0,0,0,0,0,0,0,0,0,0,0,,,,,,,,,,,
3333920,1744865733538,0.0,135,,-0.08,0.12,1.06,-2,-0,1,1.07,1.64,66,4325,9.5,3.85,,12.53,1.209,71.8,,31.4,5,,,,,,,,,,,,0,0,0,0,0,0,0,0,0,0,0,0,0,0,0,0,,,,,0.0,,,,,,
3333940,1744865733558,,,,,,,,,,,,,,,,,,,,,,,0,0,0,0,0.0,0.0,0.0,0.0,2.26,,,0,0,0,0,0,0,0,0,0,0,0,0,0,0,0,0,0,,,,,38.985832,-76.950851,0.0,33,3,0.8
3333960,1744865733578,0.0,135,,-0.06,0.26,1.13,-2,-0,2,1.16,1.64,71,4325,9.5,3.85,,12.53,1.215,71.8,,31.0,5,,,,,,,,,,,,0,0,0,0,0,0,0,0,0,0,0,0,0,0,0,0,,,,,0.0,,,,,,
3333980,1744865733598,,,,,,,,,,,,,,,,,,,,,,,,,,,,,,,,,,0,0,0,0,0,0,0,0,0,0,0,0,0,0,0,0,,,,,,,,,,,
3334000,1744865733618,0.0,135,,-0.05,0.22,1.09,-0,-0,1,1.11,1.64,68,4309,9.3,3.82,,12.51,1.223,71.8,,31.0,5,,,,,,,,,,,,0,0,0,0,0,0,0,0,0,0,0,0,0,0,0,0,,,,,0.0,,,,,,
3334020,1744865733638,,,,,,,,,,,,,,,,,,,,,,,,,,,,,,,,,,0,0,0,0,0,0,0,0,0,0,0,0,0,0,0,0,,,,,,,,,,,
3334040,1744865733658,0.0,135,,-0.06,0.0,0.99,1,-0,-0,0.99,1.64,61,4316,9.3,3.8,,12.47,1.207,71.8,,31.0,5,0,0,0,0,0.0,0.0,0.0,0.0,2.26,,,0,0,0,0,0,0,0,0,0,0,0,0,0,0,0,0,0,,,,0.0,38.985832,-76.950851,0.06,33,3,0.8
3334060,1744865733678,,,,,,,,,,,,,,,,,,,,,,,,,,,,,,,,,,0,0,0,0,0,0,0,0,0,0,0,0,0,0,0,0,,,,,,,,,,,
3334080,1744865733700,0.0,135,,-0.1,-0.09,0.96,-0,-0,0,0.97,1.64,59,4381,9.3,3.83,,12.49,1.216,71.8,,31.4,5,,,,,,,,,,,,0,0,0,0,0,0,0,0,0,0,0,0,0,0,0,0,,,,,0.0,,,,,,
3334100,1744865733720,,,,,,,,,,,,,,,,,,,,,,,,,,,,,,,,,,0,0,0,0,0,0,0,0,0,0,0,0,0,0,0,0,,,,,,,,,,,
3334120,1744865733740,0.0,135,,-0.11,0.09,1.04,-2,-0,1,1.05,1.64,64,4393,9.3,3.8,,12.49,1.216,71.8,,31.4,5,,,,,,,,,,,,0,0,0,0,0,0,0,0,0,0,0,0,0,0,0,0,,,,,0.0,,,,,,
3334140,1744865733760,,,,,,,,,,,,,,,,,,,,,,,0,0,0,0,0.0,0.0,0.0,0.0,2.26,,,0,0,0,0,0,0,0,0,0,0,0,0,0,0,0,0,0,,,,,38.985832,-76.950851,0.14,33,3,0.8
3334160,1744865733780,0.0,135,,-0.1,0.26,1.14,-2,-0,2,1.17,1.64,71,4393,9.3,3.8,,12.49,1.215,71.8,,30.9,5,,,,,,,,,,,,0,0,0,0,0,0,0,0,0,0,0,0,0,0,0,0,,,,,0.0,,,,,,
3334180,1744865733800,,,,,,,,,,,,,,,,,,,,,,,,,,,,,,,,,,0,0,0,0,0,0,0,0,0,0,0,0,0,0,0,0,,,,,,,,,,,
3334200,1744865733820,0.0,135,,-0.06,0.28,1.14,-1,-0,1,1.17,1.64,72,4408,9.3,3.79,,12.48,1.21,71.8,,30.9,5,,,,,,,,,,,,0,0,0,0,0,0,0,0,0,0,0,0,0,0,0,0,,,,,0.0,,,,,,
3334220,1744865733840,,,,,,,,,,,,,,,,,,,,,,,,,,,,,,,,,,0,0,0,0,0,0,0,0,0,0,0,0,0,0,0,0,,,,,,,,,,,
3334240,1744865733860,0.0,135,13.36,-0.05,0.16,1.05,1,-0,0,1.06,1.64,65,4359,9.4,3.78,15,12.55,1.221,71.8,169,30.9,5,0,0,0,0,0.0,0.0,0.0,0.0,2.26,0,0.0,0,0,0,0,0,0,0,0,0,0,0,0,0,0,0,0,0,0.0,0,0,0.0,38.985832,-76.950851,0.04,33,3,0.8
3334260,1744865733880,,,,,,,,,,,,,,,,,,,,,,,,,,,,,,,,,,0,0,0,0,0,0,0,0,0,0,0,0,0,0,0,0,,,,,,,,,,,
3334280,1744865733900,0.0,135,,-0.07,-0.05,0.95,2,-0,-1,0.96,1.64,59,4334,9.5,3.79,,12.53,1.221,71.8,,31.6,5,,,,,,,,,,,,0,0,0,0,0,0,0,0,0,0,0,0,0,0,0,0,,,,,0.0,,,,,,
3334300,1744865733920,,,,,,,,,,,,,,,,,,,,,,,,,,,,,,,,,,0,0,0,0,0,0,0,0,0,0,0,0,0,0,0,0,,,,,,,,,,,
3334320,1744865733940,0.0,135,,-0.08,-0.11,0.95,1,-0,-0,0.96,1.64,59,4338,10.0,3.83,,12.53,1.221,71.8,,31.6,5,,,,,,,,,,,,0,0,0,0,0,0,0,0,0,0,0,0,0,0,0,0,,,,,0.0,,,,,,
3334340,1744865733960,,,,,,,,,,,,,,,,,,,,,,,0,0,0,0,0.0,0.0,0.0,0.0,2.26,,,0,0,0,0,0,0,0,0,0,0,0,0,0,0,0,0,0,,,,,38.985832,-76.950851,0.05,33,3,0.8
3334360,1744865733980,0.0,135,,-0.09,0.06,1.02,-1,-0,1,1.03,1.64,63,4338,10.0,3.83,,12.51,1.207,71.8,,30.6,5,,,,,,,,,,,,0,0,0,0,0,0,0,0,0,0,0,0,0,0,0,0,,,,,0.0,,,,,,
3334380,1744865733992,,,,,,,,,,,,,,,,,,,,,,,,,,,,,,,,,,0,0,0,0,0,0,0,0,0,0,0,0,0,0,0,0,,,,,,,,,,,
3334400,1744865734012,0.0,135,,-0.08,0.2,1.09,-1,-0,1,1.11,1.64,68,4367,10.1,3.83,,12.57,1.214,71.8,,30.6,5,,,,,,,,,,,,0,0,0,0,0,0,0,0,0,0,0,0,0,0,0,0,,,,,0.0,,,,,,
3334420,1744865734032,,,,,,,,,,,,,,,,,,,,,,,,,,,,,,,,,,0,0,0,0,0,0,0,0,0,0,0,0,0,0,0,0,,,,,,,,,,,
3334440,1744865734052,0.0,135,,-0.06,0.16,1.05,1,-0,0,1.06,1.64,65,4378,10.2,3.85,,12.63,1.225,71.8,,30.6,5,0,0,0,0,0.0,0.0,0.0,0.0,2.26,,,0,0,0,0,0,0,0,0,0,0,0,0,0,0,0,0,0,,,,0.0,38.985832,-76.950851,0.04,34,3,0.8
3334460,1744865734072,,,,,,,,,,,,,,,,,,,,,,,,,,,,,,,,,,0,0,0,0,0,0,0,0,0,0,0,0,0,0,0,0,,,,,,,,,,,
3334480,1744865734094,0.0,135,,-0.07,0.04,1.0,-0,-0,0,1.0,1.64,61,4314,10.2,3.85,,12.69,1.216,71.8,,30.7,5,,,,,,,,,,,,0,0,0,0,0,0,0,0,0,0,0,0,0,0,0,0,,,,,0.0,,,,,,
3334500,1744865734114,,,,,,,,,,,,,,,,,,,,,,,,,,,,,,,,,,0,0,0,0,0,0,0,0,0,0,0,0,0,0,0,0,,,,,,,,,,,
3334520,1744865734134,0.0,135,,-0.1,-0.09,0.95,-1,-0,0,0.96,1.64,59,4336,10.2,3.84,,12.69,1.216,71.8,,30.7,5,,,,,,,,,,,,0,0,0,0,0,0,0,0,0,0,0,0,0,0,0,0,,,,,0.0,,,,,,
3334540,1744865734154,,,,,,,,,,,,,,,,,,,,,,,0,0,0,0,0.0,0.0,0.0,0.0,2.26,,,0,0,0,0,0,0,0,0,0,0,0,0,0,0,0,0,0,,,,,38.985832,-76.950851,0.0,34,3,0.8
3334560,1744865734174,0.0,135,,-0.12,0.03,1.01,-2,-0,1,1.02,1.64,62,4336,10.2,3.84,,12.64,1.223,71.8,,30.7,5,,,,,,,,,,,,0,0,0,0,0,0,0,0,0,0,0,0,0,0,0,0,,,,,0.0,,,,,,
3334580,1744865734196,,,,,,,,,,,,,,,,,,,,,,,,,,,,,,,,,,0,0,0,0,0,0,0,0,0,0,0,0,0,0,0,0,,,,,,,,,,,
3334600,1744865734216,0.0,135,,-0.12,0.21,1.1,-3,-0,2,1.13,1.64,69,4376,10.2,3.82,,12.6,1.243,71.8,,30.7,5,,,,,,,,,,,,0,0,0,0,0,0,0,0,0,0,0,0,0,0,0,0,,,,,0.0,,,,,,
3334620,1744865734236,,,,,,,,,,,,,,,,,,,,,,,,,,,,,,,,,,0,0,0,0,0,0,0,0,0,0,0,0,0,0,0,0,,,,,,,,,,,
3334640,1744865734256,0.0,135,,-0.09,0.37,1.18,-3,-0,2,1.24,1.64,75,4436,10.2,3.84,,12.65,1.225,71.8,,30.7,5,0,0,0,0,0.0,0.0,0.0,0.0,2.26,,,0,0,0,0,0,0,0,0,0,0,0,0,0,0,0,0,0,,,,0.0,38.985832,-76.950851,0.08,34,3,0.8
3334660,1744865734276,,,,,,,,,,,,,,,,,,,,,,,,,,,,,,,,,,0,0,0,0,0,0,0,0,0,0,0,0,0,0,0,0,,,,,,,,,,,
3334680,1744865734300,0.0,135,,-0.08,0.44,1.22,-1,-0,2,1.3,1.64,79,4478,10.2,3.82,,12.59,1.218,71.8,,30.7,5,,,,,,,,,,,,0,0,0,0,0,0,0,0,0,0,0,0,0,0,0,0,,,,,0.0,,,,,,
3334700,1744865734320,,,,,,,,,,,,,,,,,,,,,,,,,,,,,,,,,,0,0,0,0,0,0,0,0,0,0,0,0,0,0,0,0,,,,,,,,,,,
3334720,1744865734340,0.0,135,,-0.05,0.41,1.21,0,-0,1,1.28,1.64,78,4462,10.3,3.82,,12.59,1.218,71.8,,30.7,5,,,,,,,,,,,,0,0,0,0,0,0,0,0,0,0,0,0,0,0,0,0,,,,,0.0,,,,,,
3334740,1744865734360,,,,,,,,,,,,,,,,,,,,,,,0,0,0,0,0.0,0.0,0.0,0.0,2.26,,,0,0,0,0,0,0,0,0,0,0,0,0,0,0,0,0,0,,,,,38.985832,-76.950851,0.13,34,3,0.8
3334760,1744865734380,0.0,135,,-0.03,0.32,1.15,2,-0,-0,1.19,1.64,73,4462,10.3,3.82,,12.59,1.239,71.8,,31.0,5,,,,,,,,,,,,0,0,0,0,0,0,0,0,0,0,0,0,0,0,0,0,,,,,0.0,,,,,,
3334780,1744865734400,,,,,,,,,,,,,,,,,,,,,,,,,,,,,,,,,,0,0,0,0,0,0,0,0,0,0,0,0,0,0,0,0,,,,,,,,,,,
3334800,1744865734420,0.0,135,,-0.01,0.18,1.09,3,-0,-1,1.1,1.64,67,4478,10.4,3.83,,12.61,1.223,71.8,,31.0,5,,,,,,,,,,,,0,0,0,0,0,0,0,0,0,0,0,0,0,0,0,0,,,,,0.0,,,,,,
3334820,1744865734440,,,,,,,,,,,,,,,,,,,,,,,,,,,,,,,,,,0,0,0,0,0,0,0,0,0,0,0,0,0,0,0,0,,,,,,,,,,,
3334840,1744865734460,0.0,135,,0.01,0.07,1.01,4,-0,-2,1.01,1.64,62,4462,10.4,3.8,,12.57,1.228,71.8,,31.0,5,0,0,0,0,0.0,0.0,0.0,0.0,2.26,,,0,0,0,0,0,0,0,0,0,0,0,0,0,0,0,0,0,,,,0.0,38.985832,-76.950851,0.21,34,3,0.8
3334860,1744865734480,,,,,,,,,,,,,,,,,,,,,,,,,,,,,,,,,,0,0,0,0,0,0,0,0,0,0,0,0,0,0,0,0,,,,,,,,,,,
3334880,1744865734499,0.0,135,,0.0,-0.12,0.93,5,-0,-2,0.93,1.64,57,4412,10.4,3.82,,12.6,1.238,71.8,,31.0,5,,,,,,,,,,,,0,0,0,0,0,0,0,0,0,0,0,0,0,0,0,0,,,,,0.0,,,,,,
3334900,1744865734519,,,,,,,,,,,,,,,,,,,,,,,,,,,,,,,,,,0,0,0,0,0,0,0,0,0,0,0,0,0,0,0,0,,,,,,,,,,,
3334920,1744865734539,0.0,135,,0.02,-0.27,0.87,5,-0,-3,0.91,1.64,55,4427,10.4,3.82,,12.6,1.238,71.8,,31.0,5,,,,,,,,,,,,0,0,0,0,0,0,0,0,0,0,0,0,0,0,0,0,,,,,0.0,,,,,,
3334940,1744865734559,,,,,,,,,,,,,,,,,,,,,,,0,0,0,0,0.0,0.0,0.0,0.0,2.26,,,0,0,0,0,0,0,0,0,0,0,0,0,0,0,0,0,0,,,,,38.985832,-76.950851,0.29,34,3,0.8
3334960,1744865734579,0.0,135,,-0.0,-0.43,0.78,5,-0,-3,0.89,1.64,55,4427,10.4,3.82,,12.56,1.223,71.8,,30.8,5,,,,,,,,,,,,0,0,0,0,0,0,0,0,0,0,0,0,0,0,0,0,,,,,0.0,,,,,,
3334980,1744865734599,,,,,,,,,,,,,,,,,,,,,,,,,,,,,,,,,,0,0,0,0,0,0,0,0,0,0,0,0,0,0,0,0,,,,,,,,,,,
3335000,1744865734619,0.0,135,,0.01,-0.52,0.76,4,-0,-3,0.92,1.64,56,4488,10.2,3.83,,12.63,1.234,71.8,,30.8,5,,,,,,,,,,,,0,0,0,0,0,0,0,0,0,0,0,0,0,0,0,0,,,,,0.0,,,,,,
3335020,1744865734639,,,,,,,,,,,,,,,,,,,,,,,,,,,,,,,,,,0,0,0,0,0,0,0,0,0,0,0,0,0,0,0,0,,,,,,,,,,,
3335040,1744865734659,0.0,135,,-0.04,-0.58,0.72,2,-0,-2,0.93,1.64,57,4464,10.2,3.83,,12.57,1.223,71.8,,30.8,5,0,0,0,0,0.0,0.0,0.0,0.0,2.26,,,0,0,0,0,0,0,0,0,0,0,0,0,0,0,0,0,0,,,,0.0,38.985832,-76.950851,0.88,34,3,0.8
3335060,1744865734679,,,,,,,,,,,,,,,,,,,,,,,,,,,,,,,,,,0,0,0,0,0,0,0,0,0,0,0,0,0,0,0,0,,,,,,,,,,,
3335080,1744865734699,0.0,135,,-0.06,-0.55,0.73,1,-0,-1,0.92,1.64,56,4472,10.2,3.83,,12.59,1.212,71.8,,30.7,5,,,,,,,,,,,,0,0,0,0,0,0,0,0,0,0,0,0,0,0,0,0,,,,,0.0,,,,,,
3335100,1744865734719,,,,,,,,,,,,,,,,,,,,,,,,,,,,,,,,,,0,0,0,0,0,0,0,0,0,0,0,0,0,0,0,0,,,,,,,,,,,
3335120,1744865734739,0.0,135,,-0.1,-0.47,0.76,-1,-0,0,0.9,1.64,55,4470,10.2,3.81,,12.59,1.212,71.8,,30.7,5,,,,,,,,,,,,0,0,0,0,0,0,0,0,0,0,0,0,0,0,0,0,,,,,0.0,,,,,,
3335140,1744865734759,,,,,,,,,,,,,,,,,,,,,,,0,0,0,0,0.0,0.0,0.0,0.0,2.26,,,0,0,0,0,0,0,0,0,0,0,0,0,0,0,0,0,0,,,,,38.985832,-76.950851,0.72,34,3,0.8
3335160,1744865734779,0.0,135,,-0.12,-0.32,0.82,-2,-0,1,0.89,1.64,54,4470,10.2,3.81,,12.59,1.228,71.8,,30.8,5,,,,,,,,,,,,0,0,0,0,0,0,0,0,0,0,0,0,0,0,0,0,,,,,0.0,,,,,,
3335180,1744865734799,,,,,,,,,,,,,,,,,,,,,,,,,,,,,,,,,,0,0,0,0,0,0,0,0,0,0,0,0,0,0,0,0,,,,,,,,,,,
3335200,1744865734819,0.0,135,,-0.13,-0.09,0.91,-4,-0,2,0.92,1.64,56,4447,10.2,3.8,,12.57,1.221,71.8,,30.8,5,,,,,,,,,,,,0,0,0,0,0,0,0,0,0,0,0,0,0,0,0,0,,,,,0.0,,,,,,
3335220,1744865734839,,,,,,,,,,,,,,,,,,,,,,,,,,,,,,,,,,0,0,0,0,0,0,0,0,0,0,0,0,0,0,0,0,,,,,,,,,,,
3335240,1744865734859,0.0,135,13.36,-0.14,0.06,1.02,-4,-0,2,1.03,1.64,63,4413,10.4,3.81,15,12.68,1.22,71.8,169,30.8,5,0,0,0,0,0.0,0.0,0.0,0.0,2.26,0,0.0,0,0,0,0,0,0,0,0,0,0,0,0,0,0,0,0,0,0.0,0,-0,0.0,38.985832,-76.950851,0.31,34,3,0.8
3335260,1744865734879,,,,,,,,,,,,,,,,,,,,,,,,,,,,,,,,,,0,0,0,0,0,0,0,0,0,0,0,0,0,0,0,0,,,,,,,,,,,
3335280,1744865734901,0.0,135,,-0.12,0.24,1.12,-3,-0,2,1.15,1.64,70,4405,10.5,3.83,,12.6,1.228,71.8,,30.2,5,,,,,,,,,,,,0,0,0,0,0,0,0,0,0,0,0,0,0,0,0,0,,,,,0.0,,,,,,
3335300,1744865734921,,,,,,,,,,,,,,,,,,,,,,,,,,,,,,,,,,0,0,0,0,0,0,0,0,0,0,0,0,0,0,0,0,,,,,,,,,,,
3335320,1744865734941,0.0,135,,-0.1,0.28,1.15,-2,-0,2,1.19,1.64,73,4418,10.4,3.83,,12.6,1.228,71.8,,30.2,5,,,,,,,,,,,,0,0,0,0,0,0,0,0,0,0,0,0,0,0,0,0,,,,,0.0,,,,,,
3335340,1744865734961,,,,,,,,,,,,,,,,,,,,,,,0,0,0,0,0.0,0.0,0.0,0.0,2.26,,,0,0,0,0,0,0,0,0,0,0,0,0,0,0,0,0,0,,,,,38.985832,-76.950851,0.14,34,3,0.8
3335360,1744865734981,0.0,135,,-0.06,0.25,1.12,0,-0,0,1.15,1.64,70,4418,10.4,3.83,,12.63,1.218,71.8,,30.8,5,,,,,,,,,,,,0,0,0,0,0,0,0,0,0,0,0,0,0,0,0,0,,,,,0.0,,,,,,
3335380,1744865734993,,,,,,,,,,,,,,,,,,,,,,,,,,,,,,,,,,0,0,0,0,0,0,0,0,0,0,0,0,0,0,0,0,,,,,,,,,,,
3335400,1744865735013,0.0,135,,-0.05,0.13,1.06,1,-0,-0,1.07,1.64,65,4467,9.4,3.78,,12.52,1.21,71.8,,30.8,5,,,,,,,,,,,,0,0,0,0,0,0,0,0,0,0,0,0,0,0,0,0,,,,,0.0,,,,,,
3335420,1744865735033,,,,,,,,,,,,,,,,,,,,,,,,,,,,,,,,,,0,0,0,0,0,0,0,0,0,0,0,0,0,0,0,0,,,,,,,,,,,
3335440,1744865735053,0.0,135,,-0.03,-0.01,0.99,3,-0,-1,0.99,1.64,61,4476,8.6,3.71,,12.44,1.218,71.8,,30.8,5,0,0,0,0,0.0,0.0,0.0,0.0,2.26,,,0,0,0,0,0,0,0,0,0,0,0,0,0,0,0,0,0,,,,0.0,38.985832,-76.950851,0.51,34,3,0.8
3335460,1744865735073,,,,,,,,,,,,,,,,,,,,,,,,,,,,,,,,,,0,0,0,0,0,0,0,0,0,0,0,0,0,0,0,0,,,,,,,,,,,
3335480,1744865735099,0.0,135,,-0.01,-0.14,0.91,3,-0,-2,0.92,1.64,56,4488,8.5,3.69,,12.44,1.201,71.8,,31.2,5,,,,,,,,,,,,0,0,0,0,0,0,0,0,0,0,0,0,0,0,0,0,,,,,0.0,,,,,,
3335500,1744865735119,,,,,,,,,,,,,,,,,,,,,,,,,,,,,,,,,,0,0,0,0,0,0,0,0,0,0,0,0,0,0,0,0,,,,,,,,,,,
3335520,1744865735139,0.0,135,,0.0,-0.31,0.85,4,-0,-2,0.91,1.64,56,4484,8.4,3.68,,12.44,1.201,71.8,,31.2,5,,,,,,,,,,,,0,0,0,0,0,0,0,0,0,0,0,0,0,0,0,0,,,,,0.0,,,,,,
3335540,1744865735159,,,,,,,,,,,,,,,,,,,,,,,0,0,0,0,0.0,0.0,0.0,0.0,2.26,,,0,0,0,0,0,0,0,0,0,0,0,0,0,0,0,0,0,,,,,38.985832,-76.950851,0.18,34,3,0.8
3335560,1744865735179,0.0,135,,0.01,-0.41,0.77,4,-0,-3,0.87,1.64,53,4484,8.4,3.68,,12.36,1.197,71.8,,30.6,5,,,,,,,,,,,,0,0,0,0,0,0,0,0,0,0,0,0,0,0,0,0,,,,,0.0,,,,,,
3335580,1744865735201,,,,,,,,,,,,,,,,,,,,,,,,,,,,,,,,,,0,0,0,0,0,0,0,0,0,0,0,0,0,0,0,0,,,,,,,,,,,
3335600,1744865735221,0.0,135,,-0.01,-0.58,0.72,4,-0,-3,0.92,1.64,56,4423,8.4,3.69,,12.37,1.203,71.8,,30.6,5,,,,,,,,,,,,0,0,0,0,0,0,0,0,0,0,0,0,0,0,0,0,,,,,0.0,,,,,,
3335620,1744865735241,,,,,,,,,,,,,,,,,,,,,,,,,,,,,,,,,,0,0,0,0,0,0,0,0,0,0,0,0,0,0,0,0,,,,,,,,,,,
3335640,1744865735261,0.0,135,,-0.03,-0.56,0.72,2,-0,-2,0.91,1.64,56,4381,8.4,3.7,,12.27,1.185,71.8,,30.6,5,0,0,0,0,0.0,0.0,0.0,0.0,2.26,,,0,0,0,0,0,0,0,0,0,0,0,0,0,0,0,0,0,,,,0.0,38.985832,-76.950851,0.67,34,3,0.8
3335660,1744865735281,,,,,,,,,,,,,,,,,,,,,,,,,,,,,,,,,,0,0,0,0,0,0,0,0,0,0,0,0,0,0,0,0,,,,,,,,,,,
3335680,1744865735299,0.0,135,,-0.07,-0.42,0.79,-0,-0,-0,0.89,1.64,55,4419,8.5,3.74,,12.32,1.192,71.8,,30.6,5,,,,,,,,,,,,0,0,0,0,0,0,0,0,0,0,0,0,0,0,0,0,,,,,0.0,,,,,,
3335700,1744865735319,,,,,,,,,,,,,,,,,,,,,,,,,,,,,,,,,,0,0,0,0,0,0,0,0,0,0,0,0,0,0,0,0,,,,,,,,,,,
3335720,1744865735339,0.0,135,,-0.07,-0.17,0.91,-1,-0,0,0.93,1.64,57,4398,8.5,3.72,,12.32,1.192,71.8,,30.6,5,,,,,,,,,,,,0,0,0,0,0,0,0,0,0,0,0,0,0,0,0,0,,,,,0.0,,,,,,
3335740,1744865735359,,,,,,,,,,,,,,,,,,,,,,,0,0,0,0,0.0,0.0,0.0,0.0,2.26,,,0,0,0,0,0,0,0,0,0,0,0,0,0,0,0,0,0,,,,,38.985832,-76.950851,0.21,34,3,0.8
3335760,1744865735379,0.0,135,,-0.05,-0.02,0.98,1,-0,-0,0.98,1.64,60,4398,8.5,3.72,,12.39,1.19,71.8,,30.3,5,,,,,,,,,,,,0,0,0,0,0,0,0,0,0,0,0,0,0,0,0,0,,,,,0.0,,,,,,
3335780,1744865735401,,,,,,,,,,,,,,,,,,,,,,,,,,,,,,,,,,0,0,0,0,0,0,0,0,0,0,0,0,0,0,0,0,,,,,,,,,,,
3335800,1744865735421,0.0,135,,-0.03,-0.11,0.92,2,-0,-1,0.93,1.64,57,4379,8.7,3.76,,12.39,1.175,71.8,,30.3,5,,,,,,,,,,,,0,0,0,0,0,0,0,0,0,0,0,0,0,0,0,0,,,,,0.0,,,,,,
3335820,1744865735441,,,,,,,,,,,,,,,,,,,,,,,,,,,,,,,,,,0,0,0,0,0,0,0,0,0,0,0,0,0,0,0,0,,,,,,,,,,,
3335840,1744865735461,0.0,135,,-0.03,-0.28,0.87,2,-0,-1,0.92,1.64,56,4314,8.7,3.73,,12.39,1.181,71.8,,30.3,5,0,0,0,0,0.0,0.0,0.0,0.0,2.26,,,0,0,0,0,0,0,0,0,0,0,0,0,0,0,0,0,0,,,,0.0,38.985832,-76.950851,0.37,34,3,0.8
3335860,1744865735481,,,,,,,,,,,,,,,,,,,,,,,,,,,,,,,,,,0,0,0,0,0,0,0,0,0,0,0,0,0,0,0,0,,,,,,,,,,,
3335880,1744865735500,0.0,135,,-0.07,-0.26,0.88,-0,-0,0,0.92,1.64,56,4291,8.6,3.76,,12.41,1.191,71.8,,30.5,5,,,,,,,,,,,,0,0,0,0,0,0,0,0,0,0,0,0,0,0,0,0,,,,,0.0,,,,,,
3335900,1744865735520,,,,,,,,,,,,,,,,,,,,,,,,,,,,,,,,,,0,0,0,0,0,0,0,0,0,0,0,0,0,0,0,0,,,,,,,,,,,
3335920,1744865735540,0.0,135,,-0.07,-0.06,0.99,-1,-0,1,0.99,1.64,61,4368,8.6,3.76,,12.41,1.191,71.8,,30.5,5,,,,,,,,,,,,0,0,0,0,0,0,0,0,0,0,0,0,0,0,0,0,,,,,0.0,,,,,,
3335940,1744865735560,,,,,,,,,,,,,,,,,,,,,,,0,0,0,0,0.0,0.0,0.0,0.0,2.26,,,0,0,0,0,0,0,0,0,0,0,0,0,0,0,0,0,0,,,,,38.985832,-76.950851,0.44,34,3,0.8
3335960,1744865735580,0.0,135,,-0.05,0.06,1.01,1,-0,-0,1.01,1.64,62,4368,8.6,3.76,,12.4,1.184,71.8,,30.3,5,,,,,,,,,,,,0,0,0,0,0,0,0,0,0,0,0,0,0,0,0,0,,,,,0.0,,,,,,
3335980,1744865735598,,,,,,,,,,,,,,,,,,,,,,,,,,,,,,,,,,0,0,0,0,0,0,0,0,0,0,0,0,0,0,0,0,,,,,,,,,,,
3336000,1744865735618,0.0,135,,-0.05,-0.12,0.92,2,-0,-1,0.93,1.64,57,4344,8.5,3.77,,12.41,1.184,71.8,,30.3,5,,,,,,,,,,,,0,0,0,0,0,0,0,0,0,0,0,0,0,0,0,0,,,,,0.0,,,,,,
3336020,1744865735638,,,,,,,,,,,,,,,,,,,,,,,,,,,,,,,,,,0,0,0,0,0,0,0,0,0,0,0,0,0,0,0,0,,,,,,,,,,,
3336040,1744865735658,0.0,135,,-0.07,-0.25,0.87,0,-0,-0,0.91,1.64,56,4363,8.4,3.74,,12.44,1.188,71.8,,30.3,5,0,0,0,0,0.0,0.0,0.0,0.0,2.26,,,0,0,0,0,0,0,0,0,0,0,0,0,0,0,0,0,0,,,,0.0,38.985832,-76.950851,0.16,34,3,0.8
3336060,1744865735678,,,,,,,,,,,,,,,,,,,,,,,,,,,,,,,,,,0,0,0,0,0,0,0,0,0,0,0,0,0,0,0,0,,,,,,,,,,,
3336080,1744865735700,0.0,135,,-0.08,-0.07,0.96,-1,-0,1,0.97,1.64,59,4284,8.5,3.75,,12.41,1.181,71.8,,30.4,5,,,,,,,,,,,,0,0,0,0,0,0,0,0,0,0,0,0,0,0,0,0,,,,,0.0,,,,,,
3336100,1744865735720,,,,,,,,,,,,,,,,,,,,,,,,,,,,,,,,,,0,0,0,0,0,0,0,0,0,0,0,0,0,0,0,0,,,,,,,,,,,
3336120,1744865735740,0.0,135,,-0.06,0.04,1.0,1,-0,0,1.0,1.64,61,4271,8.5,3.76,,12.41,1.181,71.8,,30.4,5,,,,,,,,,,,,0,0,0,0,0,0,0,0,0,0,0,0,0,0,0,0,,,,,0.0,,,,,,
3336140,1744865735760,,,,,,,,,,,,,,,,,,,,,,,0,0,0,0,0.0,0.0,0.0,0.0,2.26,,,0,0,0,0,0,0,0,0,0,0,0,0,0,0,0,0,0,,,,,38.985832,-76.950851,0.65,34,3,0.8
3336160,1744865735780,0.0,135,,-0.06,-0.15,0.92,1,-0,-1,0.93,1.64,57,4271,8.5,3.76,,12.47,1.167,71.8,,30.1,5,,,,,,,,,,,,0,0,0,0,0,0,0,0,0,0,0,0,0,0,0,0,,,,,0.0,,,,,,
3336180,1744865735798,,,,,,,,,,,,,,,,,,,,,,,,,,,,,,,,,,0,0,0,0,0,0,0,0,0,0,0,0,0,0,0,0,,,,,,,,,,,
3336200,1744865735818,0.0,135,,-0.08,-0.16,0.94,-0,-0,0,0.96,1.64,58,4301,8.5,3.79,,12.45,1.165,71.8,,30.1,5,,,,,,,,,,,,0,0,0,0,0,0,0,0,0,0,0,0,0,0,0,0,,,,,0.0,,,,,,
3336220,1744865735838,,,,,,,,,,,,,,,,,,,,,,,,,,,,,,,,,,0,0,0,0,0,0,0,0,0,0,0,0,0,0,0,0,,,,,,,,,,,
3336240,1744865735858,0.0,135,13.37,-0.06,0.08,1.04,-0,-0,1,1.04,1.64,64,4321,8.6,3.77,15,12.51,1.179,71.8,169,30.1,5,0,0,0,0,0.0,0.0,0.0,0.0,2.26,0,0.0,0,0,0,0,0,0,0,0,0,0,0,0,0,0,0,0,0,0.0,0,-0,0.0,38.985832,-76.950851,0.21,34,3,0.8
3336260,1744865735878,,,,,,,,,,,,,,,,,,,,,,,,,,,,,,,,,,0,0,0,0,0,0,0,0,0,0,0,0,0,0,0,0,,,,,,,,,,,
3336280,1744865735900,0.0,135,,-0.06,0.04,1.0,2,-0,-0,1.0,1.64,61,4301,8.7,3.79,,12.51,1.187,71.8,,30.0,5,,,,,,,,,,,,0,0,0,0,0,0,0,0,0,0,0,0,0,0,0,0,,,,,0.0,,,,,,
3336300,1744865735920,,,,,,,,,,,,,,,,,,,,,,,,,,,,,,,,,,0,0,0,0,0,0,0,0,0,0,0,0,0,0,0,0,,,,,,,,,,,
3336320,1744865735940,0.0,135,,-0.07,-0.16,0.94,1,-0,-0,0.95,1.64,58,4259,8.7,3.77,,12.51,1.187,71.8,,30.0,5,,,,,,,,,,,,0,0,0,0,0,0,0,0,0,0,0,0,0,0,0,0,,,,,0.0,,,,,,
3336340,1744865735960,,,,,,,,,,,,,,,,,,,,,,,0,0,0,0,0.0,0.0,0.0,0.0,2.26,,,0,0,0,0,0,0,0,0,0,0,0,0,0,0,0,0,0,,,,,38.985832,-76.950851,0.46,34,3,0.8
3336360,1744865735980,0.0,135,,-0.07,0.02,1.01,-0,-0,1,1.01,1.64,62,4259,8.7,3.77,,12.49,1.18,71.8,,29.5,5,,,,,,,,,,,,0,0,0,0,0,0,0,0,0,0,0,0,0,0,0,0,,,,,0.0,,,,,,
3336380,1744865735992,,,,,,,,,,,,,,,,,,,,,,,,,,,,,,,,,,0,0,0,0,0,0,0,0,0,0,0,0,0,0,0,0,,,,,,,,,,,
3336400,1744865736012,0.0,135,,-0.06,0.1,1.02,2,-0,-0,1.03,1.64,63,4224,8.7,3.79,,12.44,1.187,71.8,,29.5,5,,,,,,,,,,,,0,0,0,0,0,0,0,0,0,0,0,0,0,0,0,0,,,,,0.0,,,,,,
3336420,1744865736032,,,,,,,,,,,,,,,,,,,,,,,,,,,,,,,,,,0,0,0,0,0,0,0,0,0,0,0,0,0,0,0,0,,,,,,,,,,,
3336440,1744865736052,0.0,135,,-0.09,-0.05,0.98,1,-0,-0,0.98,1.64,60,4284,8.6,3.79,,12.51,1.182,71.8,,29.5,5,0,0,0,0,0.0,0.0,0.0,0.0,2.26,,,0,0,0,0,0,0,0,0,0,0,0,0,0,0,0,0,0,,,,0.0,38.985832,-76.950851,0.05,34,3,0.8
3336460,1744865736072,,,,,,,,,,,,,,,,,,,,,,,,,,,,,,,,,,0,0,0,0,0,0,0,0,0,0,0,0,0,0,0,0,,,,,,,,,,,
3336480,1744865736096,0.0,135,,-0.07,0.1,1.05,-0,-0,1,1.06,1.64,65,4258,8.5,3.79,,12.47,1.178,71.8,,29.9,5,,,,,,,,,,,,0,0,0,0,0,0,0,0,0,0,0,0,0,0,0,0,,,,,0.0,,,,,,
3336500,1744865736116,,,,,,,,,,,,,,,,,,,,,,,,,,,,,,,,,,0,0,0,0,0,0,0,0,0,0,0,0,0,0,0,0,,,,,,,,,,,
3336520,1744865736136,0.0,135,,-0.07,0.01,0.99,1,-0,-0,1.0,1.64,61,4192,8.5,3.8,,12.47,1.178,71.8,,29.9,5,,,,,,,,,,,,0,0,0,0,0,0,0,0,0,0,0,0,0,0,0,0,,,,,0.0,,,,,,
3336540,1744865736156,,,,,,,,,,,,,,,,,,,,,,,0,0,0,0,0.0,0.0,0.0,0.0,2.26,,,0,0,0,0,0,0,0,0,0,0,0,0,0,0,0,0,0,,,,,38.985832,-76.950851,0.39,34,3,0.8
3336560,1744865736176,0.0,135,,-0.08,-0.02,1.0,0,-0,0,1.01,1.64,62,4192,8.5,3.8,,12.49,1.181,71.8,,29.6,5,,,,,,,,,,,,0,0,0,0,0,0,0,0,0,0,0,0,0,0,0,0,,,,,0.0,,,,,,
3336580,1744865736200,,,,,,,,,,,,,,,,,,,,,,,,,,,,,,,,,,0,0,0,0,0,0,0,0,0,0,0,0,0,0,0,0,,,,,,,,,,,
3336600,1744865736220,0.0,135,,-0.06,0.14,1.06,-1,-0,1,1.08,1.64,66,4195,8.5,3.79,,12.45,1.191,71.8,,29.6,5,,,,,,,,,,,,0,0,0,0,0,0,0,0,0,0,0,0,0,0,0,0,,,,,0.0,,,,,,
3336620,1744865736240,,,,,,,,,,,,,,,,,,,,,,,,,,,,,,,,,,0,0,0,0,0,0,0,0,0,0,0,0,0,0,0,0,,,,,,,,,,,
3336640,1744865736260,0.0,135,,-0.08,-0.07,0.96,1,-0,-1,0.97,1.64,59,4245,8.5,3.79,,12.49,1.173,71.8,,29.6,5,0,0,0,0,0.0,0.0,0.0,0.0,2.26,,,0,0,0,0,0,0,0,0,0,0,0,0,0,0,0,0,0,,,,0.0,38.985832,-76.950851,0.65,34,3,0.8
3336660,1744865736280,,,,,,,,,,,,,,,,,,,,,,,,,,,,,,,,,,0,0,0,0,0,0,0,0,0,0,0,0,0,0,0,0,,,,,,,,,,,
3336680,1744865736300,0.0,135,,-0.08,0.04,1.03,-0,-0,0,1.04,1.64,63,4215,8.5,3.82,,12.52,1.169,71.8,,29.8,5,,,,,,,,,,,,0,0,0,0,0,0,0,0,0,0,0,0,0,0,0,0,,,,,0.0,,,,,,
3336700,1744865736320,,,,,,,,,,,,,,,,,,,,,,,,,,,,,,,,,,0,0,0,0,0,0,0,0,0,0,0,0,0,0,0,0,,,,,,,,,,,
3336720,1744865736340,0.0,135,,-0.07,0.05,0.99,1,-0,-0,1.0,1.64,61,4171,8.6,3.8,,12.52,1.169,71.8,,29.8,5,,,,,,,,,,,,0,0,0,0,0,0,0,0,0,0,0,0,0,0,0,0,,,,,0.0,,,,,,
3336740,1744865736360,,,,,,,,,,,,,,,,,,,,,,,0,0,0,0,0.0,0.0,0.0,0.0,2.26,,,0,0,0,0,0,0,0,0,0,0,0,0,0,0,0,0,0,,,,,38.985832,-76.950851,0.15,34,3,0.8
3336760,1744865736380,0.0,135,,-0.08,-0.01,1.0,0,-0,0,1.01,1.64,62,4171,8.6,3.8,,12.53,1.183,71.8,,29.2,5,,,,,,,,,,,,0,0,0,0,0,0,0,0,0,0,0,0,0,0,0,0,,,,,0.0,,,,,,
3336780,1744865736400,,,,,,,,,,,,,,,,,,,,,,,,,,,,,,,,,,0,0,0,0,0,0,0,0,0,0,0,0,0,0,0,0,,,,,,,,,,,
3336800,1744865736420,0.0,135,,-0.06,0.13,1.03,-0,-0,1,1.04,1.64,64,4166,8.7,3.82,,12.48,1.197,71.8,,29.2,5,,,,,,,,,,,,0,0,0,0,0,0,0,0,0,0,0,0,0,0,0,0,,,,,0.0,,,,,,
3336820,1744865736440,,,,,,,,,,,,,,,,,,,,,,,,,,,,,,,,,,0,0,0,0,0,0,0,0,0,0,0,0,0,0,0,0,,,,,,,,,,,
3336840,1744865736460,0.0,135,,-0.1,-0.09,0.96,1,-0,-0,0.97,1.64,59,4201,8.7,3.83,,12.48,1.185,71.8,,29.2,5,0,0,0,0,0.0,0.0,0.0,0.0,2.26,,,0,0,0,0,0,0,0,0,0,0,0,0,0,0,0,0,0,,,,0.0,38.985832,-76.950851,0.78,34,3,0.8
3336860,1744865736480,,,,,,,,,,,,,,,,,,,,,,,,,,,,,,,,,,0,0,0,0,0,0,0,0,0,0,0,0,0,0,0,0,,,,,,,,,,,
3336880,1744865736499,0.0,135,,-0.08,0.05,1.02,-0,-0,0,1.02,1.64,62,4181,8.7,3.85,,12.49,1.171,71.8,,29.5,5,,,,,,,,,,,,0,0,0,0,0,0,0,0,0,0,0,0,0,0,0,0,,,,,0.0,,,,,,
3336900,1744865736519,,,,,,,,,,,,,,,,,,,,,,,,,,,,,,,,,,0,0,0,0,0,0,0,0,0,0,0,0,0,0,0,0,,,,,,,,,,,
3336920,1744865736539,0.0,135,,-0.09,-0.09,0.97,1,-0,-0,0.98,1.64,60,4123,8.6,3.83,,12.49,1.171,71.8,,29.5,5,,,,,,,,,,,,0,0,0,0,0,0,0,0,0,0,0,0,0,0,0,0,,,,,0.0,,,,,,
3336940,1744865736559,,,,,,,,,,,,,,,,,,,,,,,0,0,0,0,0.0,0.0,0.0,0.0,2.26,,,0,0,0,0,0,0,0,0,0,0,0,0,0,0,0,0,0,,,,,38.985832,-76.950851,0.51,34,3,0.8
3336960,1744865736579,0.0,135,,-0.06,0.09,1.04,-1,-0,1,1.04,1.64,64,4123,8.6,3.83,,12.57,1.175,71.8,,28.8,5,,,,,,,,,,,,0,0,0,0,0,0,0,0,0,0,0,0,0,0,0,0,,,,,0.0,,,,,,
3336980,1744865736599,,,,,,,,,,,,,,,,,,,,,,,,,,,,,,,,,,0,0,0,0,0,0,0,0,0,0,0,0,0,0,0,0,,,,,,,,,,,
3337000,1744865736619,0.0,135,,-0.07,-0.04,0.98,1,-0,-0,0.98,1.64,60,4139,8.5,3.82,,12.45,1.169,71.8,,28.8,5,,,,,,,,,,,,0,0,0,0,0,0,0,0,0,0,0,0,0,0,0,0,,,,,0.0,,,,,,
3337020,1744865736639,,,,,,,,,,,,,,,,,,,,,,,,,,,,,,,,,,0,0,0,0,0,0,0,0,0,0,0,0,0,0,0,0,,,,,,,,,,,
3337040,1744865736659,0.0,135,,-0.07,0.05,1.05,-1,-0,1,1.05,1.64,64,4173,8.5,3.83,,12.52,1.171,71.8,,28.8,5,0,0,0,0,0.0,0.0,0.0,0.0,2.26,,,0,0,0,0,0,0,0,0,0,0,0,0,0,0,0,0,0,,,,0.0,38.985832,-76.950851,0.25,34,3,0.8
3337060,1744865736679,,,,,,,,,,,,,,,,,,,,,,,,,,,,,,,,,,0,0,0,0,0,0,0,0,0,0,0,0,0,0,0,0,,,,,,,,,,,
3337080,1744865736699,0.0,135,,-0.07,0.02,1.0,0,-0,-0,1.0,1.64,61,4168,8.5,3.83,,12.53,1.168,71.8,,29.4,5,,,,,,,,,,,,0,0,0,0,0,0,0,0,0,0,0,0,0,0,0,0,,,,,0.0,,,,,,
3337100,1744865736719,,,,,,,,,,,,,,,,,,,,,,,,,,,,,,,,,,0,0,0,0,0,0,0,0,0,0,0,0,0,0,0,0,,,,,,,,,,,
3337120,1744865736739,0.0,135,,-0.1,-0.02,1.01,-1,-0,0,1.01,1.64,62,4134,8.5,3.81,,12.53,1.168,71.8,,29.4,5,,,,,,,,,,,,0,0,0,0,0,0,0,0,0,0,0,0,0,0,0,0,,,,,0.0,,,,,,
3337140,1744865736759,,,,,,,,,,,,,,,,,,,,,,,0,0,0,0,0.0,0.0,0.0,0.0,2.26,,,0,0,0,0,0,0,0,0,0,0,0,0,0,0,0,0,0,,,,,38.985832,-76.950851,0.71,34,3,0.8
3337160,1744865736779,0.0,135,,-0.07,0.05,1.0,0,-0,0,1.01,1.64,61,4134,8.5,3.81,,12.57,1.175,71.8,,28.9,5,,,,,,,,,,,,0,0,0,0,0,0,0,0,0,0,0,0,0,0,0,0,,,,,0.0,,,,,,
3337180,1744865736799,,,,,,,,,,,,,,,,,,,,,,,,,,,,,,,,,,0,0,0,0,0,0,0,0,0,0,0,0,0,0,0,0,,,,,,,,,,,
3337200,1744865736819,0.0,135,,-0.08,-0.02,1.0,-0,-0,0,1.01,1.64,61,4184,8.5,3.82,,12.53,1.188,71.8,,28.9,5,,,,,,,,,,,,0,0,0,0,0,0,0,0,0,0,0,0,0,0,0,0,,,,,0.0,,,,,,
3337220,1744865736839,,,,,,,,,,,,,,,,,,,,,,,,,,,,,,,,,,0,0,0,0,0,0,0,0,0,0,0,0,0,0,0,0,,,,,,,,,,,
3337240,1744865736859,0.0,135,13.42,-0.05,0.11,1.01,-0,-0,0,1.02,1.64,62,4163,8.6,3.84,15,12.55,1.17,71.8,169,28.9,5,0,0,0,0,0.0,0.0,0.0,0.0,2.26,0,0.0,0,0,0,0,0,0,0,0,0,0,0,0,0,0,0,0,0,0.0,0,0,0.0,38.985832,-76.950851,0.24,34,3,0.8
3337260,1744865736879,,,,,,,,,,,,,,,,,,,,,,,,,,,,,,,,,,0,0,0,0,0,0,0,0,0,0,0,0,0,0,0,0,,,,,,,,,,,
3337280,1744865736899,0.0,135,,-0.08,-0.02,1.0,-0,-0,0,1.01,1.64,61,4108,8.7,3.83,,12.57,1.17,71.8,,28.9,5,,,,,,,,,,,,0,0,0,0,0,0,0,0,0,0,0,0,0,0,0,0,,,,,0.0,,,,,,
3337300,1744865736919,,,,,,,,,,,,,,,,,,,,,,,,,,,,,,,,,,0,0,0,0,0,0,0,0,0,0,0,0,0,0,0,0,,,,,,,,,,,
3337320,1744865736939,0.0,135,,-0.05,0.12,1.03,-1,-0,1,1.04,1.64,64,4134,8.7,3.84,,12.57,1.17,71.8,,28.9,5,,,,,,,,,,,,0,0,0,0,0,0,0,0,0,0,0,0,0,0,0,0,,,,,0.0,,,,,,
3337340,1744865736959,,,,,,,,,,,,,,,,,,,,,,,0,0,0,0,0.0,0.0,0.0,0.0,2.26,,,0,0,0,0,0,0,0,0,0,0,0,0,0,0,0,0,0,,,,,38.985832,-76.950851,0.47,34,3,0.8
3337360,1744865736979,0.0,135,,-0.1,-0.06,0.99,-0,-0,0,1.0,1.64,61,4134,8.7,3.84,,12.57,1.165,71.8,,29.0,5,,,,,,,,,,,,0,0,0,0,0,0,0,0,0,0,0,0,0,0,0,0,,,,,0.0,,,,,,
3337380,1744865736991,,,,,,,,,,,,,,,,,,,,,,,,,,,,,,,,,,0,0,0,0,0,0,0,0,0,0,0,0,0,0,0,0,,,,,,,,,,,
3337400,1744865737011,0.0,135,,-0.07,0.08,1.04,-1,-0,1,1.04,1.64,64,4168,8.7,3.86,,12.49,1.176,71.8,,29.0,5,,,,,,,,,,,,0,0,0,0,0,0,0,0,0,0,0,0,0,0,0,0,,,,,0.0,,,,,,
3337420,1744865737031,,,,,,,,,,,,,,,,,,,,,,,,,,,,,,,,,,0,0,0,0,0,0,0,0,0,0,0,0,0,0,0,0,,,,,,,,,,,
3337440,1744865737051,0.0,135,,-0.09,-0.09,0.99,0,-0,-0,0.99,1.64,61,4142,8.6,3.84,,12.53,1.174,71.8,,29.0,5,0,0,0,0,0.0,0.0,0.0,0.0,2.25,,,0,0,0,0,0,0,0,0,0,0,0,0,0,0,0,0,0,,,,0.0,38.985832,-76.950851,0.23,34,3,0.8
3337460,1744865737071,,,,,,,,,,,,,,,,,,,,,,,,,,,,,,,,,,0,0,0,0,0,0,0,0,0,0,0,0,0,0,0,0,,,,,,,,,,,
3337480,1744865737099,0.0,135,,-0.07,-0.0,1.0,1,-0,-0,1.0,1.64,61,4080,8.5,3.84,,12.57,1.163,71.8,,29.1,5,,,,,,,,,,,,0,0,0,0,0,0,0,0,0,0,0,0,0,0,0,0,,,,,0.0,,,,,,
3337500,1744865737119,,,,,,,,,,,,,,,,,,,,,,,,,,,,,,,,,,0,0,0,0,0,0,0,0,0,0,0,0,0,0,0,0,,,,,,,,,,,
3337520,1744865737139,0.0,135,,-0.09,-0.11,0.96,0,-0,-0,0.97,1.64,59,4084,8.5,3.85,,12.57,1.163,71.8,,29.1,5,,,,,,,,,,,,0,0,0,0,0,0,0,0,0,0,0,0,0,0,0,0,,,,,0.0,,,,,,
3337540,1744865737159,,,,,,,,,,,,,,,,,,,,,,,0,0,0,0,0.0,0.0,0.0,0.0,2.27,,,0,0,0,0,0,0,0,0,0,0,0,0,0,0,0,0,0,,,,,38.985832,-76.950851,0.6,34,3,0.8
3337560,1744865737179,0.0,135,,-0.06,0.05,0.98,0,-0,-0,0.99,1.64,60,4084,8.5,3.85,,12.55,1.157,71.8,,28.8,5,,,,,,,,,,,,0,0,0,0,0,0,0,0,0,0,0,0,0,0,0,0,,,,,0.0,,,,,,
3337580,1744865737197,,,,,,,,,,,,,,,,,,,,,,,,,,,,,,,,,,0,0,0,0,0,0,0,0,0,0,0,0,0,0,0,0,,,,,,,,,,,
3337600,1744865737217,0.0,135,,-0.09,-0.09,0.97,0,-0,-0,0.98,1.64,60,4134,8.5,3.85,,12.55,1.165,71.8,,28.8,5,,,,,,,,,,,,0,0,0,0,0,0,0,0,0,0,0,0,0,0,0,0,,,,,0.0,,,,,,
3337620,1744865737237,,,,,,,,,,,,,,,,,,,,,,,,,,,,,,,,,,0,0,0,0,0,0,0,0,0,0,0,0,0,0,0,0,,,,,,,,,,,
3337640,1744865737257,0.0,135,,-0.06,0.05,0.99,0,-0,0,1.0,1.64,61,4102,8.5,3.83,,12.6,1.157,71.8,,28.8,5,0,0,0,0,0.0,0.0,0.0,0.0,2.26,,,0,0,0,0,0,0,0,0,0,0,0,0,0,0,0,0,0,,,,0.0,38.985832,-76.950851,0.59,34,3,0.8
3337660,1744865737277,,,,,,,,,,,,,,,,,,,,,,,,,,,,,,,,,,0,0,0,0,0,0,0,0,0,0,0,0,0,0,0,0,,,,,,,,,,,
3337680,1744865737299,0.0,135,,-0.1,-0.06,1.0,-1,-0,0,1.01,1.64,61,4078,8.4,3.84,,12.53,1.154,71.8,,28.6,5,,,,,,,,,,,,0,0,0,0,0,0,0,0,0,0,0,0,0,0,0,0,,,,,0.0,,,,,,
3337700,1744865737319,,,,,,,,,,,,,,,,,,,,,,,,,,,,,,,,,,0,0,0,0,0,0,0,0,0,0,0,0,0,0,0,0,,,,,,,,,,,
3337720,1744865737339,0.0,135,,-0.08,0.01,0.98,0,-0,-0,0.99,1.64,60,4138,8.6,3.85,,12.53,1.154,71.8,,28.6,5,,,,,,,,,,,,0,0,0,0,0,0,0,0,0,0,0,0,0,0,0,0,,,,,0.0,,,,,,
3337740,1744865737359,,,,,,,,,,,,,,,,,,,,,,,0,0,0,0,0.0,0.0,0.0,0.0,2.26,,,0,0,0,0,0,0,0,0,0,0,0,0,0,0,0,0,0,,,,,38.985832,-76.950851,0.13,34,3,0.8
3337760,1744865737379,0.0,135,,-0.11,-0.08,0.97,-0,-0,0,0.98,1.64,60,4138,8.6,3.85,,12.49,1.151,71.8,,28.9,5,,,,,,,,,,,,0,0,0,0,0,0,0,0,0,0,0,0,0,0,0,0,,,,,0.0,,,,,,
3337780,1744865737399,,,,,,,,,,,,,,,,,,,,,,,,,,,,,,,,,,0,0,0,0,0,0,0,0,0,0,0,0,0,0,0,0,,,,,,,,,,,
3337800,1744865737419,0.0,135,,-0.08,-0.02,0.98,1,-0,-0,0.98,1.64,60,4153,8.7,3.86,,12.55,1.161,71.8,,28.9,5,,,,,,,,,,,,0,0,0,0,0,0,0,0,0,0,0,0,0,0,0,0,,,,,0.0,,,,,,
3337820,1744865737439,,,,,,,,,,,,,,,,,,,,,,,,,,,,,,,,,,0,0,0,0,0,0,0,0,0,0,0,0,0,0,0,0,,,,,,,,,,,
3337840,1744865737459,0.0,135,,-0.09,-0.06,0.99,-0,-0,0,0.99,1.64,61,4117,8.7,3.83,,12.56,1.174,71.8,,28.9,5,0,0,0,0,0.0,0.0,0.0,0.0,2.26,,,0,0,0,0,0,0,0,0,0,0,0,0,0,0,0,0,0,,,,0.0,38.985832,-76.950851,0.08,34,3,0.8
3337860,1744865737479,,,,,,,,,,,,,,,,,,,,,,,,,,,,,,,,,,0,0,0,0,0,0,0,0,0,0,0,0,0,0,0,0,,,,,,,,,,,
3337880,1744865737498,0.0,135,,-0.07,-0.02,0.95,1,-0,-0,0.95,1.64,58,4048,8.7,3.87,,12.6,1.171,71.8,,28.5,5,,,,,,,,,,,,0,0,0,0,0,0,0,0,0,0,0,0,0,0,0,0,,,,,0.0,,,,,,
3337900,1744865737518,,,,,,,,,,,,,,,,,,,,,,,,,,,,,,,,,,0,0,0,0,0,0,0,0,0,0,0,0,0,0,0,0,,,,,,,,,,,
3337920,1744865737538,0.0,135,,-0.07,-0.01,1.01,-1,-0,1,1.01,1.64,62,4115,8.6,3.86,,12.6,1.171,71.8,,28.5,5,,,,,,,,,,,,0,0,0,0,0,0,0,0,0,0,0,0,0,0,0,0,,,,,0.0,,,,,,
3337940,1744865737558,,,,,,,,,,,,,,,,,,,,,,,0,0,0,0,0.0,0.0,0.0,0.0,2.26,,,0,0,0,0,0,0,0,0,0,0,0,0,0,0,0,0,0,,,,,38.985832,-76.950851,0.28,34,3,0.8
3337960,1744865737578,0.0,135,,-0.07,-0.08,0.97,1,-0,-0,0.97,1.64,60,4115,8.6,3.86,,12.61,1.17,71.8,,28.9,5,,,,,,,,,,,,0,0,0,0,0,0,0,0,0,0,0,0,0,0,0,0,,,,,0.0,,,,,,
3337980,1744865737600,,,,,,,,,,,,,,,,,,,,,,,,,,,,,,,,,,0,0,0,0,0,0,0,0,0,0,0,0,0,0,0,0,,,,,,,,,,,
3338000,1744865737620,0.0,135,,-0.05,0.04,1.05,-1,-0,1,1.05,1.64,64,4069,8.5,3.87,,12.6,1.168,71.8,,28.9,5,,,,,,,,,,,,0,0,0,0,0,0,0,0,0,0,0,0,0,0,0,0,,,,,0.0,,,,,,
3338020,1744865737640,,,,,,,,,,,,,,,,,,,,,,,,,,,,,,,,,,0,0,0,0,0,0,0,0,0,0,0,0,0,0,0,0,,,,,,,,,,,
3338040,1744865737660,0.0,135,,-0.09,-0.09,0.97,0,-0,0,0.98,1.64,60,4056,8.6,3.86,,12.53,1.169,71.8,,28.9,5,0,0,0,0,0.0,0.0,0.0,0.0,2.26,,,0,0,0,0,0,0,0,0,0,0,0,0,0,0,0,0,0,,,,0.0,38.985832,-76.950851,0.11,34,3,0.8
3338060,1744865737680,,,,,,,,,,,,,,,,,,,,,,,,,,,,,,,,,,0,0,0,0,0,0,0,0,0,0,0,0,0,0,0,0,,,,,,,,,,,
3338080,1744865737700,0.0,135,,-0.08,0.09,1.04,-1,-0,1,1.04,1.64,64,4128,8.6,3.88,,12.57,1.154,71.8,,28.8,5,,,,,,,,,,,,0,0,0,0,0,0,0,0,0,0,0,0,0,0,0,0,,,,,0.0,,,,,,
3338100,1744865737720,,,,,,,,,,,,,,,,,,,,,,,,,,,,,,,,,,0,0,0,0,0,0,0,0,0,0,0,0,0,0,0,0,,,,,,,,,,,
3338120,1744865737740,0.0,135,,-0.11,-0.11,0.95,0,-0,-0,0.96,1.64,59,4141,8.7,3.86,,12.57,1.154,71.8,,28.8,5,,,,,,,,,,,,0,0,0,0,0,0,0,0,0,0,0,0,0,0,0,0,,,,,0.0,,,,,,
3338140,1744865737760,,,,,,,,,,,,,,,,,,,,,,,0,0,0,0,0.0,0.0,0.0,0.0,2.26,,,0,0,0,0,0,0,0,0,0,0,0,0,0,0,0,0,0,,,,,38.985832,-76.950851,0.07,34,3,0.8
3338160,1744865737780,0.0,135,,-0.08,0.03,1.02,-1,-0,1,1.02,1.64,62,4141,8.7,3.86,,12.64,1.163,71.8,,28.2,5,,,,,,,,,,,,0,0,0,0,0,0,0,0,0,0,0,0,0,0,0,0,,,,,0.0,,,,,,
3338180,1744865737800,,,,,,,,,,,,,,,,,,,,,,,,,,,,,,,,,,0,0,0,0,0,0,0,0,0,0,0,0,0,0,0,0,,,,,,,,,,,
3338200,1744865737820,0.0,135,,-0.09,-0.12,0.97,0,-0,-0,0.98,1.64,60,4107,8.7,3.85,,12.61,1.162,71.8,,28.2,5,,,,,,,,,,,,0,0,0,0,0,0,0,0,0,0,0,0,0,0,0,0,,,,,0.0,,,,,,
3338220,1744865737840,,,,,,,,,,,,,,,,,,,,,,,,,,,,,,,,,,0,0,0,0,0,0,0,0,0,0,0,0,0,0,0,0,,,,,,,,,,,
3338240,1744865737860,0.0,135,13.35,-0.06,0.06,1.03,-1,-0,1,1.04,1.64,63,4146,8.8,3.86,15,12.57,1.152,71.8,169,28.2,5,0,0,0,0,0.0,0.0,0.0,0.0,2.26,0,0.0,0,0,0,0,0,0,0,0,0,0,0,0,0,0,0,0,0,0.0,0,-0,0.0,38.985832,-76.950851,0.36,34,3,0.8
3338260,1744865737880,,,,,,,,,,,,,,,,,,,,,,,,,,,,,,,,,,0,0,0,0,0,0,0,0,0,0,0,0,0,0,0,0,,,,,,,,,,,
3338280,1744865737900,0.0,135,,-0.08,-0.1,0.96,0,-0,-0,0.97,1.64,59,4160,8.9,3.86,,12.6,1.157,71.8,,28.1,5,,,,,,,,,,,,0,0,0,0,0,0,0,0,0,0,0,0,0,0,0,0,,,,,0.0,,,,,,
3338300,1744865737920,,,,,,,,,,,,,,,,,,,,,,,,,,,,,,,,,,0,0,0,0,0,0,0,0,0,0,0,0,0,0,0,0,,,,,,,,,,,
3338320,1744865737940,0.0,135,,-0.06,0.08,1.06,-1,-0,1,1.06,1.64,65,4137,8.9,3.85,,12.6,1.157,71.8,,28.1,5,,,,,,,,,,,,0,0,0,0,0,0,0,0,0,0,0,0,0,0,0,0,,,,,0.0,,,,,,
3338340,1744865737960,,,,,,,,,,,,,,,,,,,,,,,0,0,0,0,0.0,0.0,0.0,0.0,2.26,,,0,0,0,0,0,0,0,0,0,0,0,0,0,0,0,0,0,,,,,38.985832,-76.950851,0.13,34,3,0.8
3338360,1744865737980,0.0,135,,-0.08,-0.04,0.98,1,-0,-0,0.98,1.64,60,4137,8.9,3.85,,12.65,1.172,71.8,,28.6,5,,,,,,,,,,,,0,0,0,0,0,0,0,0,0,0,0,0,0,0,0,0,,,,,0.0,,,,,,
3338380,1744865737992,,,,,,,,,,,,,,,,,,,,,,,,,,,,,,,,,,0,0,0,0,0,0,0,0,0,0,0,0,0,0,0,0,,,,,,,,,,,
3338400,1744865738012,0.0,135,,-0.11,-0.08,0.98,-1,-0,0,0.99,1.64,60,4184,8.9,3.84,,12.61,1.178,71.8,,28.6,5,,,,,,,,,,,,0,0,0,0,0,0,0,0,0,0,0,0,0,0,0,0,,,,,0.0,,,,,,
3338420,1744865738032,,,,,,,,,,,,,,,,,,,,,,,,,,,,,,,,,,0,0,0,0,0,0,0,0,0,0,0,0,0,0,0,0,,,,,,,,,,,
3338440,1744865738052,0.0,135,,-0.07,0.06,1.02,0,-0,0,1.02,1.64,62,4227,8.8,3.84,,12.6,1.164,71.8,,28.6,5,0,0,0,0,0.0,0.0,0.0,0.0,2.26,,,0,0,0,0,0,0,0,0,0,0,0,0,0,0,0,0,0,,,,0.0,38.985832,-76.950851,0.15,34,3,0.8
3338460,1744865738072,,,,,,,,,,,,,,,,,,,,,,,,,,,,,,,,,,0,0,0,0,0,0,0,0,0,0,0,0,0,0,0,0,,,,,,,,,,,
3338480,1744865738096,0.0,135,,-0.08,-0.11,0.94,1,-0,-0,0.95,1.64,58,4276,8.7,3.84,,12.6,1.157,71.8,,28.7,5,,,,,,,,,,,,0,0,0,0,0,0,0,0,0,0,0,0,0,0,0,0,,,,,0.0,,,,,,
3338500,1744865738116,,,,,,,,,,,,,,,,,,,,,,,,,,,,,,,,,,0,0,0,0,0,0,0,0,0,0,0,0,0,0,0,0,,,,,,,,,,,
3338520,1744865738136,0.0,135,,-0.08,-0.01,1.01,-1,-0,1,1.01,1.64,62,4214,8.7,3.81,,12.6,1.157,71.8,,28.7,5,,,,,,,,,,,,0,0,0,0,0,0,0,0,0,0,0,0,0,0,0,0,,,,,0.0,,,,,,
3338540,1744865738156,,,,,,,,,,,,,,,,,,,,,,,0,0,0,0,0.0,0.0,0.0,0.0,2.26,,,0,0,0,0,0,0,0,0,0,0,0,0,0,0,0,0,0,,,,,38.985832,-76.950851,0.67,34,3,0.8
3338560,1744865738176,0.0,135,,-0.07,0.05,1.01,-0,-0,0,1.01,1.64,62,4214,8.7,3.81,,12.6,1.17,71.8,,28.7,5,,,,,,,,,,,,0,0,0,0,0,0,0,0,0,0,0,0,0,0,0,0,,,,,0.0,,,,,,
3338580,1744865738194,,,,,,,,,,,,,,,,,,,,,,,,,,,,,,,,,,0,0,0,0,0,0,0,0,0,0,0,0,0,0,0,0,,,,,,,,,,,
3338600,1744865738214,0.0,135,,-0.09,-0.15,0.95,0,-0,-0,0.96,1.64,59,4191,8.7,3.8,,12.6,1.163,70.0,,28.7,5,,,,,,,,,,,,0,0,0,0,0,0,0,0,0,0,0,0,0,0,0,0,,,,,0.0,,,,,,
3338620,1744865738234,,,,,,,,,,,,,,,,,,,,,,,,,,,,,,,,,,0,0,0,0,0,0,0,0,0,0,0,0,0,0,0,0,,,,,,,,,,,
3338640,1744865738254,0.0,135,,-0.08,0.05,1.03,-1,-0,1,1.03,1.64,63,4208,8.7,3.81,,12.57,1.165,70.0,,28.7,5,0,0,0,0,0.0,0.0,0.0,0.0,2.26,,,0,0,0,0,0,0,0,0,0,0,0,0,0,0,0,0,0,,,,0.0,38.985832,-76.950851,0.32,34,3,0.8
3338660,1744865738274,,,,,,,,,,,,,,,,,,,,,,,,,,,,,,,,,,0,0,0,0,0,0,0,0,0,0,0,0,0,0,0,0,,,,,,,,,,,
3338680,1744865738298,0.0,135,,-0.06,0.05,1.01,1,-0,-0,1.01,1.64,62,4267,8.7,3.81,,12.59,1.173,70.0,,28.5,5,,,,,,,,,,,,0,0,0,0,0,0,0,0,0,0,0,0,0,0,0,0,,,,,0.0,,,,,,
3338700,1744865738318,,,,,,,,,,,,,,,,,,,,,,,,,,,,,,,,,,0,0,0,0,0,0,0,0,0,0,0,0,0,0,0,0,,,,,,,,,,,
3338720,1744865738338,0.0,135,,-0.1,-0.14,0.94,1,-0,-0,0.96,1.64,59,4261,8.8,3.83,,12.59,1.173,70.0,,28.5,5,,,,,,,,,,,,0,0,0,0,0,0,0,0,0,0,0,0,0,0,0,0,,,,,0.0,,,,,,
3338740,1744865738358,,,,,,,,,,,,,,,,,,,,,,,0,0,0,0,0.0,0.0,0.0,0.0,2.26,,,0,0,0,0,0,0,0,0,0,0,0,0,0,0,0,0,0,,,,,38.985832,-76.950851,0.46,34,3,0.8
3338760,1744865738378,0.0,135,,-0.09,0.01,1.02,-1,-0,1,1.03,1.64,63,4261,8.8,3.83,,12.59,1.156,70.0,,28.4,5,,,,,,,,,,,,0,0,0,0,0,0,0,0,0,0,0,0,0,0,0,0,,,,,0.0,,,,,,
3338780,1744865738398,,,,,,,,,,,,,,,,,,,,,,,,,,,,,,,,,,0,0,0,0,0,0,0,0,0,0,0,0,0,0,0,0,,,,,,,,,,,
3338800,1744865738418,0.0,135,,-0.07,0.07,1.0,1,-0,-0,1.0,1.64,61,4249,8.9,3.8,,12.57,1.158,70.0,,28.4,5,,,,,,,,,,,,0,0,0,0,0,0,0,0,0,0,0,0,0,0,0,0,,,,,0.0,,,,,,
3338820,1744865738438,,,,,,,,,,,,,,,,,,,,,,,,,,,,,,,,,,0,0,0,0,0,0,0,0,0,0,0,0,0,0,0,0,,,,,,,,,,,
3338840,1744865738458,0.0,135,,-0.08,-0.12,0.92,0,-0,-0,0.94,1.64,57,4280,8.9,3.8,,12.51,1.168,70.0,,28.4,5,0,0,0,0,0.0,0.0,0.0,0.0,2.26,,,0,0,0,0,0,0,0,0,0,0,0,0,0,0,0,0,0,,,,0.0,38.985832,-76.950851,0.21,34,3,0.8
3338860,1744865738478,,,,,,,,,,,,,,,,,,,,,,,,,,,,,,,,,,0,0,0,0,0,0,0,0,0,0,0,0,0,0,0,0,,,,,,,,,,,
3338880,1744865738499,0.0,135,,-0.11,-0.04,0.97,-1,-0,1,0.98,1.64,60,4324,8.9,3.81,,12.52,1.163,70.0,,28.9,5,,,,,,,,,,,,0,0,0,0,0,0,0,0,0,0,0,0,0,0,0,0,,,,,0.0,,,,,,
3338900,1744865738519,,,,,,,,,,,,,,,,,,,,,,,,,,,,,,,,,,0,0,0,0,0,0,0,0,0,0,0,0,0,0,0,0,,,,,,,,,,,
3338920,1744865738539,0.0,135,,-0.07,0.11,1.03,-0,-0,0,1.04,1.64,63,4308,8.8,3.82,,12.52,1.163,70.0,,28.9,5,,,,,,,,,,,,0,0,0,0,0,0,0,0,0,0,0,0,0,0,0,0,,,,,0.0,,,,,,
3338940,1744865738559,,,,,,,,,,,,,,,,,,,,,,,0,0,0,0,0.0,0.0,0.0,0.0,2.25,,,0,0,0,0,0,0,0,0,0,0,0,0,0,0,0,0,0,,,,,38.985832,-76.950851,0.42,34,3,0.8
3338960,1744865738579,0.0,135,,-0.07,-0.03,0.95,1,-0,-0,0.95,1.64,58,4308,8.8,3.82,,12.55,1.159,70.0,,29.0,5,,,,,,,,,,,,0,0,0,0,0,0,0,0,0,0,0,0,0,0,0,0,,,,,0.0,,,,,,
3338980,1744865738597,,,,,,,,,,,,,,,,,,,,,,,,,,,,,,,,,,0,0,0,0,0,0,0,0,0,0,0,0,0,0,0,0,,,,,,,,,,,
3339000,1744865738617,0.0,135,,-0.11,-0.17,0.9,-0,-0,0,0.93,1.64,57,4277,8.7,3.8,,12.61,1.157,70.0,,29.0,5,,,,,,,,,,,,0,0,0,0,0,0,0,0,0,0,0,0,0,0,0,0,,,,,0.0,,,,,,
3339020,1744865738637,,,,,,,,,,,,,,,,,,,,,,,,,,,,,,,,,,0,0,0,0,0,0,0,0,0,0,0,0,0,0,0,0,,,,,,,,,,,
3339040,1744865738657,0.0,135,,-0.11,-0.01,0.99,-1,-0,1,0.99,1.64,61,4305,8.7,3.77,,12.59,1.16,70.0,,29.0,5,0,0,0,0,0.0,0.0,0.0,0.0,2.27,,,0,0,0,0,0,0,0,0,0,0,0,0,0,0,0,0,0,,,,0.0,38.985832,-76.950851,0.42,34,3,0.8
3339060,1744865738677,,,,,,,,,,,,,,,,,,,,,,,,,,,,,,,,,,0,0,0,0,0,0,0,0,0,0,0,0,0,0,0,0,,,,,,,,,,,
3339080,1744865738699,0.0,135,,-0.08,0.15,1.04,-0,-0,1,1.06,1.64,65,4316,8.7,3.77,,12.45,1.157,70.0,,28.2,5,,,,,,,,,,,,0,0,0,0,0,0,0,0,0,0,0,0,0,0,0,0,,,,,0.0,,,,,,
3339100,1744865738719,,,,,,,,,,,,,,,,,,,,,,,,,,,,,,,,,,0,0,0,0,0,0,0,0,0,0,0,0,0,0,0,0,,,,,,,,,,,
3339120,1744865738739,0.0,135,,-0.08,0.0,0.96,1,-0,-0,0.97,1.64,59,4311,8.7,3.79,,12.45,1.157,70.0,,28.2,5,,,,,,,,,,,,0,0,0,0,0,0,0,0,0,0,0,0,0,0,0,0,,,,,0.0,,,,,,
3339140,1744865738759,,,,,,,,,,,,,,,,,,,,,,,0,0,0,0,0.0,0.0,0.0,0.0,2.26,,,0,0,0,0,0,0,0,0,0,0,0,0,0,0,0,0,0,,,,,38.985832,-76.950851,0.18,34,3,0.8
3339160,1744865738779,0.0,135,,-0.1,-0.09,0.95,-0,-0,0,0.96,1.64,58,4311,8.7,3.79,,12.56,1.152,70.0,,28.3,5,,,,,,,,,,,,0,0,0,0,0,0,0,0,0,0,0,0,0,0,0,0,,,,,0.0,,,,,,
3339180,1744865738797,,,,,,,,,,,,,,,,,,,,,,,,,,,,,,,,,,0,0,0,0,0,0,0,0,0,0,0,0,0,0,0,0,,,,,,,,,,,
3339200,1744865738817,0.0,135,,-0.08,0.11,1.04,-0,-0,1,1.05,1.64,64,4273,8.7,3.82,,12.55,1.159,70.0,,28.3,5,,,,,,,,,,,,0,0,0,0,0,0,0,0,0,0,0,0,0,0,0,0,,,,,0.0,,,,,,
3339220,1744865738837,,,,,,,,,,,,,,,,,,,,,,,,,,,,,,,,,,0,0,0,0,0,0,0,0,0,0,0,0,0,0,0,0,,,,,,,,,,,
3339240,1744865738857,0.0,135,13.38,-0.08,-0.01,0.98,1,-0,-0,0.98,1.64,60,4219,8.9,3.81,15,12.59,1.155,70.0,169,28.3,5,0,0,0,0,0.0,0.0,0.0,0.0,2.26,0,0.0,0,0,0,0,0,0,0,0,0,0,0,0,0,0,0,0,0,0.0,0,-0,0.0,38.985832,-76.950851,0.92,34,3,0.8
3339260,1744865738877,,,,,,,,,,,,,,,,,,,,,,,,,,,,,,,,,,0,0,0,0,0,0,0,0,0,0,0,0,0,0,0,0,,,,,,,,,,,
3339280,1744865738899,0.0,135,,-0.11,-0.04,0.97,-1,-0,1,0.98,1.64,60,4227,9.4,3.83,,12.63,1.142,70.0,,28.2,5,,,,,,,,,,,,0,0,0,0,0,0,0,0,0,0,0,0,0,0,0,0,,,,,0.0,,,,,,
3339300,1744865738919,,,,,,,,,,,,,,,,,,,,,,,,,,,,,,,,,,0,0,0,0,0,0,0,0,0,0,0,0,0,0,0,0,,,,,,,,,,,
3339320,1744865738939,0.0,135,,-0.09,0.13,1.05,-1,-0,1,1.06,1.64,65,4275,9.6,3.85,,12.63,1.142,70.0,,28.2,5,,,,,,,,,,,,0,0,0,0,0,0,0,0,0,0,0,0,0,0,0,0,,,,,0.0,,,,,,
3339340,1744865738959,,,,,,,,,,,,,,,,,,,,,,,0,0,0,0,0.0,0.0,0.0,0.0,2.26,,,0,0,0,0,0,0,0,0,0,0,0,0,0,0,0,0,0,,,,,38.985832,-76.950851,0.24,34,3,0.8
3339360,1744865738979,0.0,135,,-0.08,0.04,0.99,1,-0,-0,0.99,1.64,60,4275,9.6,3.85,,12.61,1.145,70.0,,28.4,5,,,,,,,,,,,,0,0,0,0,0,0,0,0,0,0,0,0,0,0,0,0,,,,,0.0,,,,,,
3339380,1744865738991,,,,,,,,,,,,,,,,,,,,,,,,,,,,,,,,,,0,0,0,0,0,0,0,0,0,0,0,0,0,0,0,0,,,,,,,,,,,
3339400,1744865739011,0.0,135,,-0.1,-0.05,0.97,-1,-0,1,0.97,1.64,59,4276,10.2,3.88,,12.72,1.151,70.0,,28.4,5,,,,,,,,,,,,0,0,0,0,0,0,0,0,0,0,0,0,0,0,0,0,,,,,0.0,,,,,,
3339420,1744865739031,,,,,,,,,,,,,,,,,,,,,,,,,,,,,,,,,,0,0,0,0,0,0,0,0,0,0,0,0,0,0,0,0,,,,,,,,,,,
3339440,1744865739051,0.0,135,,-0.1,0.12,1.06,-1,-0,1,1.07,1.64,66,4257,10.5,3.89,,12.76,1.169,70.0,,28.4,5,0,0,0,0,0.0,0.0,0.0,0.0,2.26,,,0,0,0,0,0,0,0,0,0,0,0,0,0,0,0,0,0,,,,0.0,38.985832,-76.950851,0.11,34,3,0.8
3339460,1744865739071,,,,,,,,,,,,,,,,,,,,,,,,,,,,,,,,,,0,0,0,0,0,0,0,0,0,0,0,0,0,0,0,0,,,,,,,,,,,
3339480,1744865739091,0.0,135,,-0.07,0.09,1.02,1,-0,0,1.03,1.64,63,4247,10.6,3.92,,12.79,1.155,70.0,,28.3,5,,,,,,,,,,,,0,0,0,0,0,0,0,0,0,0,0,0,0,0,0,0,,,,,0.0,,,,,,
3339500,1744865739111,,,,,,,,,,,,,,,,,,,,,,,,,,,,,,,,,,0,0,0,0,0,0,0,0,0,0,0,0,0,0,0,0,,,,,,,,,,,
3339520,1744865739131,0.0,135,,-0.08,-0.08,0.96,-0,-0,0,0.96,1.64,59,4285,10.8,3.91,,12.79,1.155,70.0,,28.3,5,,,,,,,,,,,,0,0,0,0,0,0,0,0,0,0,0,0,0,0,0,0,,,,,0.0,,,,,,
3339540,1744865739151,,,,,,,,,,,,,,,,,,,,,,,0,0,0,0,0.0,0.0,0.0,0.0,2.27,,,0,0,0,0,0,0,0,0,0,0,0,0,0,0,0,0,0,,,,,38.985832,-76.950851,0.06,34,3,0.8
3339560,1744865739171,0.0,135,,-0.1,0.03,1.02,-2,-0,1,1.02,1.64,62,4285,10.8,3.91,,12.73,1.162,70.0,,28.2,5,,,,,,,,,,,,0,0,0,0,0,0,0,0,0,0,0,0,0,0,0,0,,,,,0.0,,,,,,
3339580,1744865739197,,,,,,,,,,,,,,,,,,,,,,,,,,,,,,,,,,0,0,0,0,0,0,0,0,0,0,0,0,0,0,0,0,,,,,,,,,,,
3339600,1744865739217,0.0,135,,-0.09,0.17,1.1,-1,-0,1,1.11,1.64,68,4360,10.8,3.91,,12.81,1.179,70.0,,28.2,5,,,,,,,,,,,,0,0,0,0,0,0,0,0,0,0,0,0,0,0,0,0,,,,,0.0,,,,,,
3339620,1744865739237,,,,,,,,,,,,,,,,,,,,,,,,,,,,,,,,,,0,0,0,0,0,0,0,0,0,0,0,0,0,0,0,0,,,,,,,,,,,
3339640,1744865739257,0.0,135,,-0.06,0.21,1.1,0,-0,0,1.13,1.64,69,4410,10.9,3.9,,12.77,1.178,70.0,,28.2,5,0,0,0,0,0.0,0.0,0.0,0.0,2.27,,,0,0,0,0,0,0,0,0,0,0,0,0,0,0,0,0,0,,,,0.0,38.985832,-76.950851,0.08,34,3,0.8
3339660,1744865739277,,,,,,,,,,,,,,,,,,,,,,,,,,,,,,,,,,0,0,0,0,0,0,0,0,0,0,0,0,0,0,0,0,,,,,,,,,,,
3339680,1744865739299,0.0,135,,-0.05,0.08,1.02,2,-0,-1,1.03,1.64,63,4421,10.9,3.9,,12.85,1.172,70.0,,28.5,5,,,,,,,,,,,,0,0,0,0,0,0,0,0,0,0,0,0,0,0,0,0,,,,,0.0,,,,,,
3339700,1744865739319,,,,,,,,,,,,,,,,,,,,,,,,,,,,,,,,,,0,0,0,0,0,0,0,0,0,0,0,0,0,0,0,0,,,,,,,,,,,
3339720,1744865739339,0.0,135,,-0.04,-0.14,0.94,2,-0,-1,0.95,1.64,58,4361,11.1,3.88,,12.85,1.172,70.0,,28.5,5,,,,,,,,,,,,0,0,0,0,0,0,0,0,0,0,0,0,0,0,0,0,,,,,0.0,,,,,,
3339740,1744865739359,,,,,,,,,,,,,,,,,,,,,,,0,0,0,0,0.0,0.0,0.0,0.0,2.26,,,0,0,0,0,0,0,0,0,0,0,0,0,0,0,0,0,0,,,,,38.985832,-76.950851,0.05,34,3,0.8
3339760,1744865739379,0.0,135,,-0.05,-0.26,0.88,1,-0,-1,0.92,1.64,56,4361,11.1,3.88,,12.79,1.184,70.0,,28.5,5,,,,,,,,,,,,0,0,0,0,0,0,0,0,0,0,0,0,0,0,0,0,,,,,0.0,,,,,,
3339780,1744865739399,,,,,,,,,,,,,,,,,,,,,,,,,,,,,,,,,,0,0,0,0,0,0,0,0,0,0,0,0,0,0,0,0,,,,,,,,,,,
3339800,1744865739419,0.0,135,,-0.08,-0.35,0.84,-1,-0,0,0.92,1.64,56,4430,11.1,3.88,,12.8,1.167,70.0,,28.5,5,,,,,,,,,,,,0,0,0,0,0,0,0,0,0,0,0,0,0,0,0,0,,,,,0.0,,,,,,
3339820,1744865739439,,,,,,,,,,,,,,,,,,,,,,,,,,,,,,,,,,0,0,0,0,0,0,0,0,0,0,0,0,0,0,0,0,,,,,,,,,,,
3339840,1744865739459,0.0,135,,-0.1,-0.3,0.85,-2,-0,1,0.91,1.64,55,4431,11.1,3.88,,12.79,1.171,70.0,,28.5,5,0,0,0,0,0.0,0.0,0.0,0.0,2.26,,,0,0,0,0,0,0,0,0,0,0,0,0,0,0,0,0,0,,,,0.0,38.985832,-76.950851,0.0,34,3,0.8
3339860,1744865739479,,,,,,,,,,,,,,,,,,,,,,,,,,,,,,,,,,0,0,0,0,0,0,0,0,0,0,0,0,0,0,0,0,,,,,,,,,,,
3339880,1744865739499,0.0,135,,-0.13,-0.23,0.87,-4,-0,2,0.91,1.64,56,4488,11.1,3.89,,12.71,1.171,70.0,,28.5,5,,,,,,,,,,,,0,0,0,0,0,0,0,0,0,0,0,0,0,0,0,0,,,,,0.0,,,,,,
3339900,1744865739519,,,,,,,,,,,,,,,,,,,,,,,,,,,,,,,,,,0,0,0,0,0,0,0,0,0,0,0,0,0,0,0,0,,,,,,,,,,,
3339920,1744865739539,0.0,135,,-0.14,-0.1,0.93,-5,-0,3,0.94,1.64,58,4486,10.6,3.86,,12.71,1.171,70.0,,28.5,5,,,,,,,,,,,,0,0,0,0,0,0,0,0,0,0,0,0,0,0,0,0,,,,,0.0,,,,,,
3339940,1744865739559,,,,,,,,,,,,,,,,,,,,,,,0,0,0,0,0.0,0.0,0.0,0.0,2.26,,,0,0,0,0,0,0,0,0,0,0,0,0,0,0,0,0,0,,,,,38.985832,-76.950851,0.0,34,3,0.8
3339960,1744865739579,0.0,135,,-0.17,0.05,1.0,-5,-0,3,1.01,1.64,62,4486,10.6,3.86,,12.71,1.171,70.0,,28.3,5,,,,,,,,,,,,0,0,0,0,0,0,0,0,0,0,0,0,0,0,0,0,,,,,0.0,,,,,,
3339980,1744865739598,,,,,,,,,,,,,,,,,,,,,,,,,,,,,,,,,,0,0,0,0,0,0,0,0,0,0,0,0,0,0,0,0,,,,,,,,,,,
3340000,1744865739618,0.0,135,,-0.17,0.22,1.08,-5,-0,3,1.11,1.64,68,4480,9.4,3.78,,12.55,1.17,70.0,,28.3,5,,,,,,,,,,,,0,0,0,0,0,0,0,0,0,0,0,0,0,0,0,0,,,,,0.0,,,,,,
3340020,1744865739638,,,,,,,,,,,,,,,,,,,,,,,,,,,,,,,,,,0,0,0,0,0,0,0,0,0,0,0,0,0,0,0,0,,,,,,,,,,,
3340040,1744865739658,0.0,135,,-0.16,0.35,1.18,-4,-0,3,1.24,1.64,76,4412,8.5,3.73,,12.53,1.174,70.0,,28.3,5,0,0,0,0,0.0,0.0,0.0,0.0,2.26,,,0,0,0,0,0,0,0,0,0,0,0,0,0,0,0,0,0,,,,0.0,38.985832,-76.950851,0.09,34,3,0.8
3340060,1744865739678,,,,,,,,,,,,,,,,,,,,,,,,,,,,,,,,,,0,0,0,0,0,0,0,0,0,0,0,0,0,0,0,0,,,,,,,,,,,
3340080,1744865739698,0.0,135,,-0.13,0.43,1.22,-3,-0,3,1.3,1.64,80,4403,7.5,3.68,,12.35,1.155,70.0,,28.5,5,,,,,,,,,,,,0,0,0,0,0,0,0,0,0,0,0,0,0,0,0,0,,,,,0.0,,,,,,
3340100,1744865739718,,,,,,,,,,,,,,,,,,,,,,,,,,,,,,,,,,0,0,0,0,0,0,0,0,0,0,0,0,0,0,0,0,,,,,,,,,,,
3340120,1744865739738,0.0,135,,-0.11,0.4,1.18,-1,-0,1,1.25,1.64,76,4377,7.3,3.69,,12.35,1.155,70.0,,28.5,5,,,,,,,,,,,,0,0,0,0,0,0,0,0,0,0,0,0,0,0,0,0,,,,,0.0,,,,,,
3340140,1744865739758,,,,,,,,,,,,,,,,,,,,,,,0,0,0,0,0.0,0.0,0.0,0.0,2.27,,,0,0,0,0,0,0,0,0,0,0,0,0,0,0,0,0,0,,,,,38.985832,-76.950851,0.08,34,3,0.8
3340160,1744865739778,0.0,135,,-0.11,0.15,1.07,0,-0,0,1.09,1.64,67,4377,7.3,3.69,,12.27,1.141,70.0,,27.9,5,,,,,,,,,,,,0,0,0,0,0,0,0,0,0,0,0,0,0,0,0,0,,,,,0.0,,,,,,
3340180,1744865739798,,,,,,,,,,,,,,,,,,,,,,,,,,,,,,,,,,0,0,0,0,0,0,0,0,0,0,0,0,0,0,0,0,,,,,,,,,,,
3340200,1744865739818,0.0,135,,-0.11,0.04,1.05,-1,-0,1,1.06,1.64,65,4357,7.3,3.72,,12.27,1.131,70.0,,27.9,5,,,,,,,,,,,,0,0,0,0,0,0,0,0,0,0,0,0,0,0,0,0,,,,,0.0,,,,,,
3340220,1744865739838,,,,,,,,,,,,,,,,,,,,,,,,,,,,,,,,,,0,0,0,0,0,0,0,0,0,0,0,0,0,0,0,0,,,,,,,,,,,
3340240,1744865739858,0.0,135,13.45,-0.09,0.18,1.08,-1,-0,1,1.1,1.64,67,4265,7.3,3.73,15,12.29,1.123,70.0,171,27.9,5,0,0,0,0,0.0,0.0,0.0,0.0,2.26,0,0.0,0,0,0,0,0,0,0,0,0,0,0,0,0,0,0,0,0,0.0,0,-0,0.0,38.985832,-76.950851,0.13,34,3,0.8
3340260,1744865739878,,,,,,,,,,,,,,,,,,,,,,,,,,,,,,,,,,0,0,0,0,0,0,0,0,0,0,0,0,0,0,0,0,,,,,,,,,,,
3340280,1744865739900,0.0,135,,-0.09,0.07,1.02,1,-0,0,1.02,1.64,63,4243,7.3,3.74,,12.31,1.119,70.0,,28.1,5,,,,,,,,,,,,0,0,0,0,0,0,0,0,0,0,0,0,0,0,0,0,,,,,0.0,,,,,,
3340300,1744865739920,,,,,,,,,,,,,,,,,,,,,,,,,,,,,,,,,,0,0,0,0,0,0,0,0,0,0,0,0,0,0,0,0,,,,,,,,,,,
3340320,1744865739940,0.0,135,,-0.1,0.11,1.06,-1,-0,1,1.07,1.64,65,4175,7.3,3.75,,12.31,1.119,70.0,,28.1,5,,,,,,,,,,,,0,0,0,0,0,0,0,0,0,0,0,0,0,0,0,0,,,,,0.0,,,,,,
3340340,1744865739960,,,,,,,,,,,,,,,,,,,,,,,0,0,0,0,0.0,0.0,0.0,0.0,2.26,,,0,0,0,0,0,0,0,0,0,0,0,0,0,0,0,0,0,,,,,38.985832,-76.950851,0.07,34,3,0.8
3340360,1744865739980,0.0,135,,-0.09,0.1,1.02,0,-0,0,1.03,1.64,63,4175,7.3,3.75,,12.28,1.117,70.0,,27.9,5,,,,,,,,,,,,0,0,0,0,0,0,0,0,0,0,0,0,0,0,0,0,,,,,0.0,,,,,,
3340380,1744865739992,,,,,,,,,,,,,,,,,,,,,,,,,,,,,,,,,,0,0,0,0,0,0,0,0,0,0,0,0,0,0,0,0,,,,,,,,,,,
3340400,1744865740012,0.0,135,,-0.09,0.08,1.04,-1,-0,1,1.05,1.64,64,4155,7.3,3.79,,12.33,1.101,70.0,,27.9,5,,,,,,,,,,,,0,0,0,0,0,0,0,0,0,0,0,0,0,0,0,0,,,,,0.0,,,,,,
3340420,1744865740032,,,,,,,,,,,,,,,,,,,,,,,,,,,,,,,,,,0,0,0,0,0,0,0,0,0,0,0,0,0,0,0,0,,,,,,,,,,,
3340440,1744865740052,0.0,135,,-0.08,0.06,1.0,0,-0,0,1.01,1.64,62,4111,7.2,3.79,,12.36,1.099,70.0,,27.9,5,0,0,0,0,0.0,0.0,0.0,0.0,2.26,,,0,0,0,0,0,0,0,0,0,0,0,0,0,0,0,0,0,,,,0.0,38.985832,-76.950851,0.09,34,3,0.8
3340460,1744865740072,,,,,,,,,,,,,,,,,,,,,,,,,,,,,,,,,,0,0,0,0,0,0,0,0,0,0,0,0,0,0,0,0,,,,,,,,,,,
3340480,1744865740096,0.0,135,,-0.07,0.14,1.06,-1,-0,1,1.07,1.64,66,4039,7.1,3.81,,12.36,1.097,70.0,,28.1,5,,,,,,,,,,,,0,0,0,0,0,0,0,0,0,0,0,0,0,0,0,0,,,,,0.0,,,,,,
3340500,1744865740116,,,,,,,,,,,,,,,,,,,,,,,,,,,,,,,,,,0,0,0,0,0,0,0,0,0,0,0,0,0,0,0,0,,,,,,,,,,,
3340520,1744865740136,0.0,135,,-0.08,0.02,1.0,0,-0,0,1.01,1.64,62,4045,7.1,3.81,,12.36,1.097,70.0,,28.1,5,,,,,,,,,,,,0,0,0,0,0,0,0,0,0,0,0,0,0,0,0,0,,,,,0.0,,,,,,
3340540,1744865740156,,,,,,,,,,,,,,,,,,,,,,,0,0,0,0,0.0,0.0,0.0,0.0,2.27,,,0,0,0,0,0,0,0,0,0,0,0,0,0,0,0,0,0,,,,,38.985832,-76.950851,0.05,34,3,0.8
3340560,1744865740176,0.0,135,,-0.05,0.17,1.06,-1,-0,1,1.07,1.64,65,4045,7.1,3.81,,12.28,1.102,70.0,,27.4,5,,,,,,,,,,,,0,0,0,0,0,0,0,0,0,0,0,0,0,0,0,0,,,,,0.0,,,,,,
3340580,1744865740198,,,,,,,,,,,,,,,,,,,,,,,,,,,,,,,,,,0,0,0,0,0,0,0,0,0,0,0,0,0,0,0,0,,,,,,,,,,,
3340600,1744865740218,0.0,135,,-0.09,0.03,1.07,-0,-0,1,1.07,1.64,65,4060,7.1,3.84,,12.31,1.114,70.0,,27.4,5,,,,,,,,,,,,0,0,0,0,0,0,0,0,0,0,0,0,0,0,0,0,,,,,0.0,,,,,,
3340620,1744865740238,,,,,,,,,,,,,,,,,,,,,,,,,,,,,,,,,,0,0,0,0,0,0,0,0,0,0,0,0,0,0,0,0,,,,,,,,,,,
3340640,1744865740258,0.0,135,,-0.08,0.01,1.04,1,-0,0,1.05,1.64,64,4001,7.1,3.82,,12.4,1.101,70.0,,27.4,5,0,0,0,0,0.0,0.0,0.0,0.0,2.26,,,0,0,0,0,0,0,0,0,0,0,0,0,0,0,0,0,0,,,,0.0,38.985832,-76.950851,0.08,34,3,0.8
3340660,1744865740278,,,,,,,,,,,,,,,,,,,,,,,,,,,,,,,,,,0,0,0,0,0,0,0,0,0,0,0,0,0,0,0,0,,,,,,,,,,,
3340680,1744865740300,0.0,135,,-0.06,0.12,1.08,-0,-0,1,1.08,1.64,66,3914,7.1,3.84,,12.43,1.092,70.0,,27.2,5,,,,,,,,,,,,0,0,0,0,0,0,0,0,0,0,0,0,0,0,0,0,,,,,0.0,,,,,,
3340700,1744865740320,,,,,,,,,,,,,,,,,,,,,,,,,,,,,,,,,,0,0,0,0,0,0,0,0,0,0,0,0,0,0,0,0,,,,,,,,,,,
3340720,1744865740340,0.0,135,,-0.06,0.09,1.09,-1,0,1,1.1,1.64,67,3876,7.2,3.84,,12.43,1.092,70.0,,27.2,5,,,,,,,,,,,,0,0,0,0,0,0,0,0,0,0,0,0,0,0,0,0,,,,,0.0,,,,,,
3340740,1744865740360,,,,,,,,,,,,,,,,,,,,,,,0,0,0,0,0.0,0.0,0.0,0.0,2.26,,,0,0,0,0,0,0,0,0,0,0,0,0,0,0,0,0,0,,,,,38.985832,-76.950851,0.07,34,3,0.8
3340760,1744865740380,0.0,135,,-0.06,0.07,1.09,-1,0,1,1.09,1.64,67,3876,7.2,3.84,,12.49,1.089,70.0,,27.3,5,,,,,,,,,,,,0,0,0,0,0,0,0,0,0,0,0,0,0,0,0,0,,,,,0.0,,,,,,
3340780,1744865740400,,,,,,,,,,,,,,,,,,,,,,,,,,,,,,,,,,0,0,0,0,0,0,0,0,0,0,0,0,0,0,0,0,,,,,,,,,,,
3340800,1744865740420,0.0,135,,-0.05,0.04,1.07,-0,0,1,1.07,1.64,66,3819,7.3,3.85,,12.57,1.09,70.0,,27.3,5,,,,,,,,,,,,0,0,0,0,0,0,0,0,0,0,0,0,0,0,0,0,,,,,0.0,,,,,,
3340820,1744865740440,,,,,,,,,,,,,,,,,,,,,,,,,,,,,,,,,,0,0,0,0,0,0,0,0,0,0,0,0,0,0,0,0,,,,,,,,,,,
3340840,1744865740460,0.0,135,,-0.06,0.03,1.06,-0,0,1,1.06,1.64,65,3789,7.3,3.87,,12.59,1.067,70.0,,27.3,5,0,0,0,0,0.0,0.0,0.0,0.0,2.26,,,0,0,0,0,0,0,0,0,0,0,0,0,0,0,0,0,0,,,,0.0,38.985832,-76.950851,0.19,34,3,0.8
3340860,1744865740480,,,,,,,,,,,,,,,,,,,,,,,,,,,,,,,,,,0,0,0,0,0,0,0,0,0,0,0,0,0,0,0,0,,,,,,,,,,,
3340880,1744865740499,0.0,135,,-0.07,0.05,1.06,-0,0,1,1.07,1.64,65,3719,7.3,3.87,,12.65,1.067,70.0,,27.3,5,,,,,,,,,,,,0,0,0,0,0,0,0,0,0,0,0,0,0,0,0,0,,,,,0.0,,,,,,
3340900,1744865740519,,,,,,,,,,,,,,,,,,,,,,,,,,,,,,,,,,0,0,0,0,0,0,0,0,0,0,0,0,0,0,0,0,,,,,,,,,,,
3340920,1744865740539,0.0,135,,-0.06,0.07,1.06,-1,0,1,1.06,1.64,65,3735,7.2,3.87,,12.65,1.067,70.0,,27.3,5,,,,,,,,,,,,0,0,0,0,0,0,0,0,0,0,0,0,0,0,0,0,,,,,0.0,,,,,,
3340940,1744865740559,,,,,,,,,,,,,,,,,,,,,,,0,0,0,0,0.0,0.0,0.0,0.0,2.26,,,0,0,0,0,0,0,0,0,0,0,0,0,0,0,0,0,0,,,,,38.985832,-76.950851,0.25,34,3,0.8
3340960,1744865740579,0.0,135,,-0.04,0.07,1.05,-1,0,1,1.05,1.64,64,3735,7.2,3.87,,12.64,1.064,70.0,,26.7,5,,,,,,,,,,,,0,0,0,0,0,0,0,0,0,0,0,0,0,0,0,0,,,,,0.0,,,,,,
3340980,1744865740599,,,,,,,,,,,,,,,,,,,,,,,,,,,,,,,,,,0,0,0,0,0,0,0,0,0,0,0,0,0,0,0,0,,,,,,,,,,,
3341000,1744865740619,0.0,135,,-0.04,0.06,1.05,-1,-0,1,1.05,1.64,64,3734,7.1,3.87,,12.72,1.068,70.0,,26.7,5,,,,,,,,,,,,0,0,0,0,0,0,0,0,0,0,0,0,0,0,0,0,,,,,0.0,,,,,,
3341020,1744865740639,,,,,,,,,,,,,,,,,,,,,,,,,,,,,,,,,,0,0,0,0,0,0,0,0,0,0,0,0,0,0,0,0,,,,,,,,,,,
3341040,1744865740659,0.0,135,,-0.04,0.04,1.05,-0,-0,1,1.06,1.64,65,3693,7.1,3.88,,12.64,1.067,70.0,,26.7,5,0,0,0,0,0.0,0.0,0.0,0.0,2.27,,,0,0,0,0,0,0,0,0,0,0,0,0,0,0,0,0,0,,,,0.0,38.985832,-76.950851,0.22,34,3,0.8
3341060,1744865740679,,,,,,,,,,,,,,,,,,,,,,,,,,,,,,,,,,0,0,0,0,0,0,0,0,0,0,0,0,0,0,0,0,,,,,,,,,,,
3341080,1744865740699,0.0,135,,-0.03,0.06,1.03,-0,-0,1,1.04,1.64,63,3713,7.1,3.87,,12.72,1.071,70.0,,26.6,5,,,,,,,,,,,,0,0,0,0,0,0,0,0,0,0,0,0,0,0,0,0,,,,,0.0,,,,,,
3341100,1744865740719,,,,,,,,,,,,,,,,,,,,,,,,,,,,,,,,,,0,0,0,0,0,0,0,0,0,0,0,0,0,0,0,0,,,,,,,,,,,
3341120,1744865740739,0.0,135,,-0.05,0.05,1.01,0,-0,1,1.01,1.64,62,3696,7.0,3.87,,12.72,1.071,70.0,,26.6,5,,,,,,,,,,,,0,0,0,0,0,0,0,0,0,0,0,0,0,0,0,0,,,,,0.0,,,,,,
3341140,1744865740759,,,,,,,,,,,,,,,,,,,,,,,0,0,0,0,0.0,0.0,0.0,0.0,2.27,,,0,0,0,0,0,0,0,0,0,0,0,0,0,0,0,0,0,,,,,38.985832,-76.950851,0.17,34,3,0.8
3341160,1744865740779,0.0,135,,-0.05,0.02,1.03,0,-0,1,1.03,1.64,63,3696,7.0,3.87,,12.69,1.078,70.0,,26.5,5,,,,,,,,,,,,0,0,0,0,0,0,0,0,0,0,0,0,0,0,0,0,,,,,0.0,,,,,,
3341180,1744865740797,,,,,,,,,,,,,,,,,,,,,,,,,,,,,,,,,,0,0,0,0,0,0,0,0,0,0,0,0,0,0,0,0,,,,,,,,,,,
3341200,1744865740817,0.0,135,,-0.05,-0.01,1.04,0,-0,1,1.04,1.64,64,3783,7.1,3.87,,12.67,1.095,70.0,,26.5,5,,,,,,,,,,,,0,0,0,0,0,0,0,0,0,0,0,0,0,0,0,0,,,,,0.0,,,,,,
3341220,1744865740837,,,,,,,,,,,,,,,,,,,,,,,,,,,,,,,,,,0,0,0,0,0,0,0,0,0,0,0,0,0,0,0,0,,,,,,,,,,,
3341240,1744865740857,0.0,135,13.47,-0.05,0.01,1.02,0,-0,1,1.02,1.64,63,3724,7.2,3.87,15,12.69,1.09,70.0,171,26.5,5,0,0,0,0,0.0,0.0,0.0,0.0,2.26,0,0.0,0,0,0,0,0,0,0,0,0,0,0,0,0,0,0,0,0,0.0,0,-0,0.0,38.985832,-76.950851,0.04,34,3,0.8
3341260,1744865740877,,,,,,,,,,,,,,,,,,,,,,,,,,,,,,,,,,0,0,0,0,0,0,0,0,0,0,0,0,0,0,0,0,,,,,,,,,,,
3341280,1744865740899,0.0,135,,-0.06,0.01,1.0,0,-0,0,1.0,1.64,61,3742,7.2,3.87,,12.69,1.077,70.0,,26.5,5,,,,,,,,,,,,0,0,0,0,0,0,0,0,0,0,0,0,0,0,0,0,,,,,0.0,,,,,,
