"Interval"|"ms"|0|0|1,"Utc"|"ms"|0|0|1,"FrontBP"|"psi"|-5.0|5.0|25,"SteerAng"|"Degrees"|-145|145|25,"Battery"|"Volts"|-5.0|20.0|1,"AccelX"|"G"|-3.0|3.0|25,"AccelY"|"G"|-3.0|3.0|25,"AccelZ"|"G"|-3.0|3.0|25,"Yaw"|"Deg/Sec"|-120|120|25,"Pitch"|"Deg/Sec"|-120|120|25,"Roll"|"Deg/Sec"|-120|120|25,"Gsum"|"G"|0.0|3.0|25,"GsumMax"|"G"|0.0|3.0|25,"GsumPct"|"%"|0|100|25,"RPM"|""|0|10000|25,"TPS"|"%"|0.0|100.0|25,"InjectorPW"|"ms"|0.0|100.0|25,"Baro"|"kPa"|0|105|1,"MAP"|"Psi"|0.0|255.0|25,"Lambda"|""|-2.0|2.0|25,"IAT"|"C"|0.0|200.0|25,"EngineTemp"|"C"|0|200|1,"EOP"|"PSI"|0.0|152.0|25,"EOT"|"F"|0|250|25,"WSFR"|"MPH"|0|150|10,"WSFL"|"MPH"|0|100|10,"WSRR"|"MPH"|0|100|10,"WSRL"|""|0|100|10,"TCSet"|"%"|0.0|100.0|10,"TCSlip"|"%"|0.0|100.0|10,"TCComp"|"deg"|0.0|50.0|10,"TCCut"|"%"|0.0|100.0|10,"Analog8"|""|0.0|5.0|10,"OilTemp"|"F"|0|300|1,"AA_On"|""|0.0|1.0|1,"ThermLF1"|"C"|0|400|50,"ThermLF2"|"C"|0|400|50,"ThermRR1"|"C"|0|400|50,"ThermRR2"|"C"|0|400|50,"ThermLF3"|"C"|0|400|50,"ThermLF4"|"C"|0|400|50,"ThermLF5"|"C"|0|400|50,"ThermLF6"|"C"|0|400|50,"ThermLF7"|"C"|0|400|50,"ThermLF8"|"C"|0|400|50,"ThermRR3"|"C"|0|400|50,"ThermRR4"|"C"|0|400|50,"ThermRR5"|"C"|0|400|50,"ThermRR6"|"C"|0|400|50,"ThermRR7"|"C"|0|400|50,"ThermRR8"|"C"|0|400|50,"Gear"|""|1|6|10,"AA_On"|""|0.0|1.0|1,"AA_LowDrag"|""|0|1|1,"Fuel_Mix"|""|-10|10|1,"AA_Packages"|""|0.0|1000.0|25,"Latitude"|"Degrees"|-180.0|180.0|10,"Longitude"|"Degrees"|-180.0|180.0|10,"Speed"|"kph"|0.0|150.0|10,"GPSSats"|""|0|20|10,"GPSQual"|""|0|5|10,"GPSDOP"|""|0.0|20.0|10
3534960,1744865934582,0.0,135,,-0.04,0.11,0.96,0,-0,-0,0.97,0.97,100,3793,10.9,4.02,,13.08,1.225,70.0,,25.0,5,,,,,,,,,,,,0,0,0,0,0,0,0,0,0,0,0,0,0,0,0,0,,,,,0.0,,,,,,
3534980,1744865934602,,,,,,,,,,,,,,,,,,,,,,,,,,,,,,,,,,0,0,0,0,0,0,0,0,0,0,0,0,0,0,0,0,,,,,,,,,,,
3535000,1744865934622,0.0,135,,-0.06,0.0,0.95,-0,-0,0,0.95,0.97,98,4070,11.1,4.01,,12.95,1.231,70.0,,25.0,5,,,,,,,,,,,,0,0,0,0,0,0,0,0,0,0,0,0,0,0,0,0,,,,,0.0,,,,,,
3535020,1744865934642,,,,,,,,,,,,,,,,,,,,,,,,,,,,,,,,,,0,0,0,0,0,0,0,0,0,0,0,0,0,0,0,0,,,,,,,,,,,
3535040,1744865934662,0.0,135,,-0.06,-0.06,0.89,1,-0,-1,0.9,0.97,92,4134,11.0,3.98,,12.88,1.205,70.0,,25.0,5,0,0,0,0,0.0,0.0,0.0,0.0,2.26,,,0,0,0,0,0,0,0,0,0,0,0,0,0,0,0,0,0,,,,0.0,38.985737,-76.9506,0.12,35,3,0.8
3535060,1744865934682,,,,,,,,,,,,,,,,,,,,,,,,,,,,,,,,,,0,0,0,0,0,0,0,0,0,0,0,0,0,0,0,0,,,,,,,,,,,
3535080,1744865934702,0.0,135,,-0.05,-0.03,0.94,-0,-0,0,0.95,0.97,97,4090,10.9,3.95,,12.81,1.181,70.0,,26.6,5,,,,,,,,,,,,0,0,0,0,0,0,0,0,0,0,0,0,0,0,0,0,,,,,0.0,,,,,,
3535100,1744865934722,,,,,,,,,,,,,,,,,,,,,,,,,,,,,,,,,,0,0,0,0,0,0,0,0,0,0,0,0,0,0,0,0,,,,,,,,,,,
3535120,1744865934742,0.0,135,,-0.03,0.11,1.0,-0,-0,0,1.01,1.01,100,4271,10.7,3.9,,12.81,1.181,70.0,,26.6,5,,,,,,,,,,,,0,0,0,0,0,0,0,0,0,0,0,0,0,0,0,0,,,,,0.0,,,,,,
3535140,1744865934762,,,,,,,,,,,,,,,,,,,,,,,0,0,0,0,0.0,0.0,0.0,0.0,2.26,,,0,0,0,0,0,0,0,0,0,0,0,0,0,0,0,0,0,,,,,38.985737,-76.9506,0.09,35,3,0.8
3535160,1744865934782,0.0,135,,-0.04,-0.04,0.92,1,-0,-0,0.92,1.01,91,4271,10.7,3.9,,12.71,1.173,70.0,,27.9,5,,,,,,,,,,,,0,0,0,0,0,0,0,0,0,0,0,0,0,0,0,0,,,,,0.0,,,,,,
3535180,1744865934799,,,,,,,,,,,,,,,,,,,,,,,,,,,,,,,,,,0,0,0,0,0,0,0,0,0,0,0,0,0,0,0,0,,,,,,,,,,,
3535200,1744865934819,0.0,135,,-0.06,-0.17,0.87,1,-0,-1,0.89,1.01,89,4333,10.7,3.92,,12.71,1.181,70.0,,27.9,5,,,,,,,,,,,,0,0,0,0,0,0,0,0,0,0,0,0,0,0,0,0,,,,,0.0,,,,,,
3535220,1744865934839,,,,,,,,,,,,,,,,,,,,,,,,,,,,,,,,,,0,0,0,0,0,0,0,0,0,0,0,0,0,0,0,0,,,,,,,,,,,
3535240,1744865934859,0.0,135,13.29,-0.07,0.0,0.95,-1,-0,0,0.95,1.01,95,4357,10.3,3.89,15,12.64,1.178,70.0,180,27.9,5,0,0,0,0,0.0,0.0,0.0,0.0,2.26,0,0.0,0,0,0,0,0,0,0,0,0,0,0,0,0,0,0,0,0,0.0,0,0,0.0,38.985737,-76.9506,0.04,35,3,0.8
3535260,1744865934879,,,,,,,,,,,,,,,,,,,,,,,,,,,,,,,,,,0,0,0,0,0,0,0,0,0,0,0,0,0,0,0,0,,,,,,,,,,,
3535280,1744865934901,0.0,135,,-0.08,0.14,1.07,-2,-0,1,1.08,1.08,100,4441,9.8,3.82,,12.56,1.172,70.0,,28.2,5,,,,,,,,,,,,0,0,0,0,0,0,0,0,0,0,0,0,0,0,0,0,,,,,0.0,,,,,,
3535300,1744865934921,,,,,,,,,,,,,,,,,,,,,,,,,,,,,,,,,,0,0,0,0,0,0,0,0,0,0,0,0,0,0,0,0,,,,,,,,,,,
3535320,1744865934941,0.0,135,,-0.06,0.27,1.15,-2,-0,1,1.18,1.18,100,4410,9.7,3.8,,12.56,1.172,70.0,,28.2,5,,,,,,,,,,,,0,0,0,0,0,0,0,0,0,0,0,0,0,0,0,0,,,,,0.0,,,,,,
3535340,1744865934961,,,,,,,,,,,,,,,,,,,,,,,0,0,0,0,0.0,0.0,0.0,0.0,2.26,,,0,0,0,0,0,0,0,0,0,0,0,0,0,0,0,0,0,,,,,38.985737,-76.9506,0.0,35,3,0.8
3535360,1744865934981,0.0,135,,-0.04,0.26,1.13,-1,-0,1,1.16,1.18,98,4410,9.7,3.8,,12.59,1.163,70.0,,27.6,5,,,,,,,,,,,,0,0,0,0,0,0,0,0,0,0,0,0,0,0,0,0,,,,,0.0,,,,,,
3535380,1744865934993,,,,,,,,,,,,,,,,,,,,,,,,,,,,,,,,,,0,0,0,0,0,0,0,0,0,0,0,0,0,0,0,0,,,,,,,,,,,
3535400,1744865935013,0.0,135,,-0.03,0.09,1.04,1,-0,0,1.04,1.18,89,4384,9.3,3.78,,12.51,1.138,70.0,,27.6,5,,,,,,,,,,,,0,0,0,0,0,0,0,0,0,0,0,0,0,0,0,0,,,,,0.0,,,,,,
3535420,1744865935033,,,,,,,,,,,,,,,,,,,,,,,,,,,,,,,,,,0,0,0,0,0,0,0,0,0,0,0,0,0,0,0,0,,,,,,,,,,,
3535440,1744865935053,0.0,135,,-0.02,-0.06,0.97,2,-0,-0,0.97,1.18,82,4384,9.3,3.77,,12.41,1.124,70.0,,27.6,5,0,0,0,0,0.0,0.0,0.0,0.0,2.26,,,0,0,0,0,0,0,0,0,0,0,0,0,0,0,0,0,0,,,,0.0,38.985737,-76.9506,0.07,35,3,0.8
3535460,1744865935073,,,,,,,,,,,,,,,,,,,,,,,,,,,,,,,,,,0,0,0,0,0,0,0,0,0,0,0,0,0,0,0,0,,,,,,,,,,,
3535480,1744865935101,0.0,135,,-0.05,-0.19,0.91,2,-0,-1,0.93,1.18,79,4403,9.4,3.8,,12.45,1.132,70.0,,28.3,5,,,,,,,,,,,,0,0,0,0,0,0,0,0,0,0,0,0,0,0,0,0,,,,,0.0,,,,,,
3535500,1744865935121,,,,,,,,,,,,,,,,,,,,,,,,,,,,,,,,,,0,0,0,0,0,0,0,0,0,0,0,0,0,0,0,0,,,,,,,,,,,
3535520,1744865935141,0.0,135,,-0.07,-0.11,0.94,0,-0,-0,0.95,1.18,80,4412,9.3,3.77,,12.45,1.132,70.0,,28.3,5,,,,,,,,,,,,0,0,0,0,0,0,0,0,0,0,0,0,0,0,0,0,,,,,0.0,,,,,,
3535540,1744865935161,,,,,,,,,,,,,,,,,,,,,,,0,0,0,0,0.0,0.0,0.0,0.0,2.26,,,0,0,0,0,0,0,0,0,0,0,0,0,0,0,0,0,0,,,,,38.985737,-76.9506,0.05,35,3,0.8
3535560,1744865935181,0.0,135,,-0.08,0.09,1.04,-2,-0,1,1.05,1.18,89,4412,9.3,3.77,,12.43,1.121,70.0,,28.0,5,,,,,,,,,,,,0,0,0,0,0,0,0,0,0,0,0,0,0,0,0,0,,,,,0.0,,,,,,
3535580,1744865935199,,,,,,,,,,,,,,,,,,,,,,,,,,,,,,,,,,0,0,0,0,0,0,0,0,0,0,0,0,0,0,0,0,,,,,,,,,,,
3535600,1744865935219,0.0,135,,-0.08,0.2,1.14,-2,-0,1,1.16,1.18,98,4434,9.3,3.78,,12.4,1.123,70.0,,28.0,5,,,,,,,,,,,,0,0,0,0,0,0,0,0,0,0,0,0,0,0,0,0,,,,,0.0,,,,,,
3535620,1744865935239,,,,,,,,,,,,,,,,,,,,,,,,,,,,,,,,,,0,0,0,0,0,0,0,0,0,0,0,0,0,0,0,0,,,,,,,,,,,
3535640,1744865935259,0.0,135,,-0.06,0.33,1.21,-2,-0,2,1.26,1.26,100,4417,9.4,3.75,,12.44,1.126,70.0,,28.0,5,0,0,0,0,0.0,0.0,0.0,0.0,2.26,,,0,0,0,0,0,0,0,0,0,0,0,0,0,0,0,0,0,,,,0.0,38.985737,-76.9506,0.04,35,3,0.8
3535660,1744865935279,,,,,,,,,,,,,,,,,,,,,,,,,,,,,,,,,,0,0,0,0,0,0,0,0,0,0,0,0,0,0,0,0,,,,,,,,,,,
3535680,1744865935301,0.0,135,,-0.05,0.31,1.2,-1,-0,1,1.24,1.26,99,4413,9.2,3.74,,12.36,1.132,70.0,,28.7,5,,,,,,,,,,,,0,0,0,0,0,0,0,0,0,0,0,0,0,0,0,0,,,,,0.0,,,,,,
3535700,1744865935321,,,,,,,,,,,,,,,,,,,,,,,,,,,,,,,,,,0,0,0,0,0,0,0,0,0,0,0,0,0,0,0,0,,,,,,,,,,,
3535720,1744865935341,0.0,135,,-0.03,0.2,1.12,1,-0,0,1.14,1.26,91,4340,8.2,3.71,,12.36,1.132,70.0,,28.7,5,,,,,,,,,,,,0,0,0,0,0,0,0,0,0,0,0,0,0,0,0,0,,,,,0.0,,,,,,
3535740,1744865935361,,,,,,,,,,,,,,,,,,,,,,,0,0,0,0,0.0,0.0,0.0,0.0,2.26,,,0,0,0,0,0,0,0,0,0,0,0,0,0,0,0,0,0,,,,,38.985737,-76.9506,0.0,35,3,0.8
3535760,1744865935381,0.0,135,,-0.04,0.0,1.02,1,-0,-0,1.03,1.26,82,4340,8.2,3.71,,12.29,1.133,70.0,,28.2,5,,,,,,,,,,,,0,0,0,0,0,0,0,0,0,0,0,0,0,0,0,0,,,,,0.0,,,,,,
3535780,1744865935403,,,,,,,,,,,,,,,,,,,,,,,,,,,,,,,,,,0,0,0,0,0,0,0,0,0,0,0,0,0,0,0,0,,,,,,,,,,,
3535800,1744865935423,0.0,135,,-0.07,-0.04,1.0,0,-0,0,1.0,1.26,80,4371,8.0,3.73,,12.29,1.135,70.0,,28.2,5,,,,,,,,,,,,0,0,0,0,0,0,0,0,0,0,0,0,0,0,0,0,,,,,0.0,,,,,,
3535820,1744865935443,,,,,,,,,,,,,,,,,,,,,,,,,,,,,,,,,,0,0,0,0,0,0,0,0,0,0,0,0,0,0,0,0,,,,,,,,,,,
3535840,1744865935463,0.0,135,,-0.07,0.12,1.08,-1,-0,1,1.09,1.26,87,4375,8.0,3.72,,12.25,1.133,70.0,,28.2,5,0,0,0,0,0.0,0.0,0.0,0.0,2.26,,,0,0,0,0,0,0,0,0,0,0,0,0,0,0,0,0,0,,,,0.0,38.985737,-76.9506,0.05,35,3,0.8
3535860,1744865935483,,,,,,,,,,,,,,,,,,,,,,,,,,,,,,,,,,0,0,0,0,0,0,0,0,0,0,0,0,0,0,0,0,,,,,,,,,,,
3535880,1744865935501,0.0,135,,-0.06,0.19,1.11,-1,-0,1,1.13,1.26,90,4352,8.0,3.74,,12.29,1.135,70.0,,28.0,5,,,,,,,,,,,,0,0,0,0,0,0,0,0,0,0,0,0,0,0,0,0,,,,,0.0,,,,,,
3535900,1744865935521,,,,,,,,,,,,,,,,,,,,,,,,,,,,,,,,,,0,0,0,0,0,0,0,0,0,0,0,0,0,0,0,0,,,,,,,,,,,
3535920,1744865935541,0.0,135,,-0.06,0.02,1.02,1,-0,-0,1.02,1.26,81,4276,8.0,3.72,,12.29,1.135,70.0,,28.0,5,,,,,,,,,,,,0,0,0,0,0,0,0,0,0,0,0,0,0,0,0,0,,,,,0.0,,,,,,
3535940,1744865935561,,,,,,,,,,,,,,,,,,,,,,,0,0,0,0,0.0,0.0,0.0,0.0,2.26,,,0,0,0,0,0,0,0,0,0,0,0,0,0,0,0,0,0,,,,,38.985737,-76.9506,0.04,35,3,0.8
3535960,1744865935581,0.0,135,,-0.06,-0.04,1.0,0,-0,0,1.0,1.26,80,4276,8.0,3.72,,12.2,1.127,70.0,,27.4,5,,,,,,,,,,,,0,0,0,0,0,0,0,0,0,0,0,0,0,0,0,0,,,,,0.0,,,,,,
3535980,1744865935603,,,,,,,,,,,,,,,,,,,,,,,,,,,,,,,,,,0,0,0,0,0,0,0,0,0,0,0,0,0,0,0,0,,,,,,,,,,,
3536000,1744865935623,0.0,135,,-0.05,0.14,1.1,-1,-0,1,1.11,1.26,88,4275,8.0,3.72,,12.28,1.128,70.0,,27.4,5,,,,,,,,,,,,0,0,0,0,0,0,0,0,0,0,0,0,0,0,0,0,,,,,0.0,,,,,,
3536020,1744865935643,,,,,,,,,,,,,,,,,,,,,,,,,,,,,,,,,,0,0,0,0,0,0,0,0,0,0,0,0,0,0,0,0,,,,,,,,,,,
3536040,1744865935663,0.0,135,,-0.05,0.13,1.06,0,-0,0,1.07,1.26,85,4311,8.2,3.75,,12.27,1.134,70.0,,27.4,5,0,0,0,0,0.0,0.0,0.0,0.0,2.26,,,0,0,0,0,0,0,0,0,0,0,0,0,0,0,0,0,0,,,,0.0,38.985737,-76.9506,0.04,35,3,0.8
3536060,1744865935683,,,,,,,,,,,,,,,,,,,,,,,,,,,,,,,,,,0,0,0,0,0,0,0,0,0,0,0,0,0,0,0,0,,,,,,,,,,,
3536080,1744865935700,0.0,135,,-0.05,-0.06,0.99,1,-0,-0,1.0,1.26,79,4291,8.0,3.75,,12.29,1.133,70.0,,27.4,5,,,,,,,,,,,,0,0,0,0,0,0,0,0,0,0,0,0,0,0,0,0,,,,,0.0,,,,,,
3536100,1744865935720,,,,,,,,,,,,,,,,,,,,,,,,,,,,,,,,,,0,0,0,0,0,0,0,0,0,0,0,0,0,0,0,0,,,,,,,,,,,
3536120,1744865935740,0.0,135,,-0.05,0.07,1.05,-1,-0,1,1.06,1.26,84,4225,8.0,3.74,,12.29,1.133,70.0,,27.4,5,,,,,,,,,,,,0,0,0,0,0,0,0,0,0,0,0,0,0,0,0,0,,,,,0.0,,,,,,
3536140,1744865935760,,,,,,,,,,,,,,,,,,,,,,,0,0,0,0,0.0,0.0,0.0,0.0,2.26,,,0,0,0,0,0,0,0,0,0,0,0,0,0,0,0,0,0,,,,,38.985737,-76.9506,0.08,35,3,0.8
3536160,1744865935780,0.0,135,,-0.04,0.14,1.07,0,-0,1,1.08,1.26,86,4225,8.0,3.74,,12.29,1.125,70.0,,27.1,5,,,,,,,,,,,,0,0,0,0,0,0,0,0,0,0,0,0,0,0,0,0,,,,,0.0,,,,,,
3536180,1744865935800,,,,,,,,,,,,,,,,,,,,,,,,,,,,,,,,,,0,0,0,0,0,0,0,0,0,0,0,0,0,0,0,0,,,,,,,,,,,
3536200,1744865935820,0.0,135,,-0.07,-0.06,0.98,1,-0,-0,0.98,1.26,78,4224,8.2,3.74,,12.27,1.128,70.0,,27.1,5,,,,,,,,,,,,0,0,0,0,0,0,0,0,0,0,0,0,0,0,0,0,,,,,0.0,,,,,,
3536220,1744865935840,,,,,,,,,,,,,,,,,,,,,,,,,,,,,,,,,,0,0,0,0,0,0,0,0,0,0,0,0,0,0,0,0,,,,,,,,,,,
3536240,1744865935860,0.0,135,13.38,-0.07,0.02,1.03,0,-0,0,1.03,1.26,82,4239,8.0,3.74,15,12.2,1.14,70.0,173,27.1,5,0,0,0,0,0.0,0.0,0.0,0.0,2.26,0,0.0,0,0,0,0,0,0,0,0,0,0,0,0,0,0,0,0,0,0.0,0,0,0.0,38.985737,-76.9506,0.04,35,3,0.8
3536260,1744865935880,,,,,,,,,,,,,,,,,,,,,,,,,,,,,,,,,,0,0,0,0,0,0,0,0,0,0,0,0,0,0,0,0,,,,,,,,,,,
3536280,1744865935900,0.0,135,,-0.04,0.14,1.06,0,-0,1,1.07,1.26,85,4280,8.0,3.76,,12.24,1.14,70.0,,27.0,5,,,,,,,,,,,,0,0,0,0,0,0,0,0,0,0,0,0,0,0,0,0,,,,,0.0,,,,,,
3536300,1744865935920,,,,,,,,,,,,,,,,,,,,,,,,,,,,,,,,,,0,0,0,0,0,0,0,0,0,0,0,0,0,0,0,0,,,,,,,,,,,
3536320,1744865935940,0.0,135,,-0.06,-0.01,0.98,1,-0,-0,0.98,1.26,78,4298,8.0,3.77,,12.24,1.14,70.0,,27.0,5,,,,,,,,,,,,0,0,0,0,0,0,0,0,0,0,0,0,0,0,0,0,,,,,0.0,,,,,,
3536340,1744865935960,,,,,,,,,,,,,,,,,,,,,,,0,0,0,0,0.0,0.0,0.0,0.0,2.25,,,0,0,0,0,0,0,0,0,0,0,0,0,0,0,0,0,0,,,,,38.985737,-76.9506,0.04,35,3,0.8
3536360,1744865935980,0.0,135,,-0.08,-0.06,0.98,0,-0,0,0.99,1.26,78,4298,8.0,3.77,,12.25,1.136,70.0,,27.2,5,,,,,,,,,,,,0,0,0,0,0,0,0,0,0,0,0,0,0,0,0,0,,,,,0.0,,,,,,
3536380,1744865935992,,,,,,,,,,,,,,,,,,,,,,,,,,,,,,,,,,0,0,0,0,0,0,0,0,0,0,0,0,0,0,0,0,,,,,,,,,,,
3536400,1744865936012,0.0,135,,-0.06,0.11,1.05,-0,-0,1,1.06,1.26,84,4252,7.9,3.73,,12.28,1.139,70.0,,27.2,5,,,,,,,,,,,,0,0,0,0,0,0,0,0,0,0,0,0,0,0,0,0,,,,,0.0,,,,,,
3536420,1744865936032,,,,,,,,,,,,,,,,,,,,,,,,,,,,,,,,,,0,0,0,0,0,0,0,0,0,0,0,0,0,0,0,0,,,,,,,,,,,
3536440,1744865936052,0.0,135,,-0.05,0.01,0.99,1,-0,-0,0.99,1.26,79,4248,7.9,3.75,,12.28,1.14,70.0,,27.2,5,0,0,0,0,0.0,0.0,0.0,0.0,2.26,,,0,0,0,0,0,0,0,0,0,0,0,0,0,0,0,0,0,,,,0.0,38.985737,-76.9506,0.15,35,3,0.8
3536460,1744865936072,,,,,,,,,,,,,,,,,,,,,,,,,,,,,,,,,,0,0,0,0,0,0,0,0,0,0,0,0,0,0,0,0,,,,,,,,,,,
3536480,1744865936096,0.0,135,,-0.08,-0.1,0.96,1,-0,-0,0.96,1.26,77,4294,7.9,3.75,,12.25,1.118,70.0,,27.3,5,,,,,,,,,,,,0,0,0,0,0,0,0,0,0,0,0,0,0,0,0,0,,,,,0.0,,,,,,
3536500,1744865936116,,,,,,,,,,,,,,,,,,,,,,,,,,,,,,,,,,0,0,0,0,0,0,0,0,0,0,0,0,0,0,0,0,,,,,,,,,,,
3536520,1744865936136,0.0,135,,-0.08,0.04,1.03,-0,-0,0,1.04,1.26,82,4290,8.0,3.76,,12.25,1.118,70.0,,27.3,5,,,,,,,,,,,,0,0,0,0,0,0,0,0,0,0,0,0,0,0,0,0,,,,,0.0,,,,,,
3536540,1744865936156,,,,,,,,,,,,,,,,,,,,,,,0,0,0,0,0.0,0.0,0.0,0.0,2.26,,,0,0,0,0,0,0,0,0,0,0,0,0,0,0,0,0,0,,,,,38.985737,-76.9506,0.11,35,3,0.8
3536560,1744865936176,0.0,135,,-0.06,0.03,0.99,1,-0,-0,0.99,1.26,79,4290,8.0,3.76,,12.27,1.116,70.0,,27.6,5,,,,,,,,,,,,0,0,0,0,0,0,0,0,0,0,0,0,0,0,0,0,,,,,0.0,,,,,,
3536580,1744865936202,,,,,,,,,,,,,,,,,,,,,,,,,,,,,,,,,,0,0,0,0,0,0,0,0,0,0,0,0,0,0,0,0,,,,,,,,,,,
3536600,1744865936222,0.0,135,,-0.06,-0.08,0.96,0,-0,0,0.97,1.26,77,4204,8.1,3.74,,12.27,1.114,70.0,,27.6,5,,,,,,,,,,,,0,0,0,0,0,0,0,0,0,0,0,0,0,0,0,0,,,,,0.0,,,,,,
3536620,1744865936242,,,,,,,,,,,,,,,,,,,,,,,,,,,,,,,,,,0,0,0,0,0,0,0,0,0,0,0,0,0,0,0,0,,,,,,,,,,,
3536640,1744865936262,0.0,135,,-0.07,0.03,1.05,-1,-0,1,1.05,1.26,84,4234,8.1,3.74,,12.29,1.119,70.0,,27.6,5,0,0,0,0,0.0,0.0,0.0,0.0,2.25,,,0,0,0,0,0,0,0,0,0,0,0,0,0,0,0,0,0,,,,0.0,38.985737,-76.9506,0.1,35,3,0.8
3536660,1744865936282,,,,,,,,,,,,,,,,,,,,,,,,,,,,,,,,,,0,0,0,0,0,0,0,0,0,0,0,0,0,0,0,0,,,,,,,,,,,
3536680,1744865936300,0.0,135,,-0.05,0.04,1.02,0,-0,0,1.03,1.26,82,4248,8.1,3.74,,12.23,1.125,70.0,,26.8,5,,,,,,,,,,,,0,0,0,0,0,0,0,0,0,0,0,0,0,0,0,0,,,,,0.0,,,,,,
3536700,1744865936320,,,,,,,,,,,,,,,,,,,,,,,,,,,,,,,,,,0,0,0,0,0,0,0,0,0,0,0,0,0,0,0,0,,,,,,,,,,,
3536720,1744865936340,0.0,135,,-0.06,-0.08,0.98,0,-0,-0,0.99,1.26,78,4274,8.2,3.77,,12.23,1.125,70.0,,26.8,5,,,,,,,,,,,,0,0,0,0,0,0,0,0,0,0,0,0,0,0,0,0,,,,,0.0,,,,,,
3536740,1744865936360,,,,,,,,,,,,,,,,,,,,,,,0,0,0,0,0.0,0.0,0.0,0.0,2.26,,,0,0,0,0,0,0,0,0,0,0,0,0,0,0,0,0,0,,,,,38.985737,-76.9506,0.05,35,3,0.8
3536760,1744865936380,0.0,135,,-0.05,0.06,1.07,-1,-0,1,1.07,1.26,85,4274,8.2,3.77,,12.23,1.137,70.0,,27.3,5,,,,,,,,,,,,0,0,0,0,0,0,0,0,0,0,0,0,0,0,0,0,,,,,0.0,,,,,,
3536780,1744865936402,,,,,,,,,,,,,,,,,,,,,,,,,,,,,,,,,,0,0,0,0,0,0,0,0,0,0,0,0,0,0,0,0,,,,,,,,,,,
3536800,1744865936422,0.0,135,,-0.05,0.06,1.04,0,-0,0,1.05,1.26,83,4281,8.0,3.76,,12.25,1.144,70.0,,27.3,5,,,,,,,,,,,,0,0,0,0,0,0,0,0,0,0,0,0,0,0,0,0,,,,,0.0,,,,,,
3536820,1744865936442,,,,,,,,,,,,,,,,,,,,,,,,,,,,,,,,,,0,0,0,0,0,0,0,0,0,0,0,0,0,0,0,0,,,,,,,,,,,
3536840,1744865936462,0.0,135,,-0.05,-0.13,0.98,1,-0,-0,0.99,1.26,78,4252,8.2,3.75,,12.24,1.133,70.0,,27.3,5,0,0,0,0,0.0,0.0,0.0,0.0,2.26,,,0,0,0,0,0,0,0,0,0,0,0,0,0,0,0,0,0,,,,0.0,38.985737,-76.9506,0.07,35,3,0.8
3536860,1744865936482,,,,,,,,,,,,,,,,,,,,,,,,,,,,,,,,,,0,0,0,0,0,0,0,0,0,0,0,0,0,0,0,0,,,,,,,,,,,
3536880,1744865936502,0.0,135,,-0.05,0.01,1.03,-1,-0,1,1.03,1.26,82,4261,9.0,3.79,,12.31,1.115,70.0,,27.1,5,,,,,,,,,,,,0,0,0,0,0,0,0,0,0,0,0,0,0,0,0,0,,,,,0.0,,,,,,
3536900,1744865936522,,,,,,,,,,,,,,,,,,,,,,,,,,,,,,,,,,0,0,0,0,0,0,0,0,0,0,0,0,0,0,0,0,,,,,,,,,,,
3536920,1744865936542,0.0,135,,-0.04,0.1,1.06,-0,-0,1,1.07,1.26,85,4304,10.1,3.88,,12.31,1.115,70.0,,27.1,5,,,,,,,,,,,,0,0,0,0,0,0,0,0,0,0,0,0,0,0,0,0,,,,,0.0,,,,,,
3536940,1744865936562,,,,,,,,,,,,,,,,,,,,,,,0,0,0,0,0.0,0.0,0.0,0.0,2.26,,,0,0,0,0,0,0,0,0,0,0,0,0,0,0,0,0,0,,,,,38.985737,-76.9506,0.1,35,3,0.8
3536960,1744865936582,0.0,135,,-0.04,-0.06,0.97,1,-0,-0,0.97,1.26,77,4304,10.1,3.88,,12.44,1.106,70.0,,27.1,5,,,,,,,,,,,,0,0,0,0,0,0,0,0,0,0,0,0,0,0,0,0,,,,,0.0,,,,,,
3536980,1744865936602,,,,,,,,,,,,,,,,,,,,,,,,,,,,,,,,,,0,0,0,0,0,0,0,0,0,0,0,0,0,0,0,0,,,,,,,,,,,
3537000,1744865936622,0.0,135,,-0.05,-0.15,0.94,1,-0,-0,0.95,1.26,76,4359,10.7,3.89,,12.63,1.123,70.0,,27.1,5,,,,,,,,,,,,0,0,0,0,0,0,0,0,0,0,0,0,0,0,0,0,,,,,0.0,,,,,,
3537020,1744865936642,,,,,,,,,,,,,,,,,,,,,,,,,,,,,,,,,,0,0,0,0,0,0,0,0,0,0,0,0,0,0,0,0,,,,,,,,,,,
3537040,1744865936662,0.0,135,,-0.07,-0.05,1.0,-1,-0,1,1.0,1.26,80,4355,11.1,3.91,,12.67,1.129,70.0,,27.1,5,0,0,0,0,0.0,0.0,0.0,0.0,2.26,,,0,0,0,0,0,0,0,0,0,0,0,0,0,0,0,0,0,,,,0.0,38.985737,-76.9506,0.08,35,3,0.8
3537060,1744865936682,,,,,,,,,,,,,,,,,,,,,,,,,,,,,,,,,,0,0,0,0,0,0,0,0,0,0,0,0,0,0,0,0,,,,,,,,,,,
3537080,1744865936701,0.0,135,,-0.07,0.08,1.08,-1,-0,1,1.08,1.26,86,4333,11.5,3.91,,12.69,1.141,70.0,,26.9,5,,,,,,,,,,,,0,0,0,0,0,0,0,0,0,0,0,0,0,0,0,0,,,,,0.0,,,,,,
3537100,1744865936721,,,,,,,,,,,,,,,,,,,,,,,,,,,,,,,,,,0,0,0,0,0,0,0,0,0,0,0,0,0,0,0,0,,,,,,,,,,,
3537120,1744865936741,0.0,135,,-0.04,0.15,1.11,-0,-0,1,1.12,1.26,89,4379,11.9,3.91,,12.69,1.141,70.0,,26.9,5,,,,,,,,,,,,0,0,0,0,0,0,0,0,0,0,0,0,0,0,0,0,,,,,0.0,,,,,,
3537140,1744865936761,,,,,,,,,,,,,,,,,,,,,,,0,0,0,0,0.0,0.0,0.0,0.0,2.25,,,0,0,0,0,0,0,0,0,0,0,0,0,0,0,0,0,0,,,,,38.985737,-76.9506,0.04,35,3,0.8
3537160,1744865936781,0.0,135,,-0.04,0.06,1.04,1,-0,-0,1.04,1.26,83,4379,11.9,3.91,,12.77,1.137,70.0,,27.0,5,,,,,,,,,,,,0,0,0,0,0,0,0,0,0,0,0,0,0,0,0,0,,,,,0.0,,,,,,
3537180,1744865936801,,,,,,,,,,,,,,,,,,,,,,,,,,,,,,,,,,0,0,0,0,0,0,0,0,0,0,0,0,0,0,0,0,,,,,,,,,,,
3537200,1744865936821,0.0,135,,-0.02,-0.1,0.97,2,-0,-1,0.98,1.26,78,4402,12.3,3.98,,12.8,1.133,70.0,,27.0,5,,,,,,,,,,,,0,0,0,0,0,0,0,0,0,0,0,0,0,0,0,0,,,,,0.0,,,,,,
3537220,1744865936841,,,,,,,,,,,,,,,,,,,,,,,,,,,,,,,,,,0,0,0,0,0,0,0,0,0,0,0,0,0,0,0,0,,,,,,,,,,,
3537240,1744865936861,0.0,135,13.37,-0.02,-0.21,0.9,2,-0,-1,0.93,1.26,74,4427,13.2,3.98,15,12.85,1.14,70.0,169,27.0,5,0,0,0,0,0.0,0.0,0.0,0.0,2.25,0,0.0,0,0,0,0,0,0,0,0,0,0,0,0,0,0,0,0,0,0.0,0,0,0.0,38.985737,-76.9506,0.04,35,3,0.8
3537260,1744865936881,,,,,,,,,,,,,,,,,,,,,,,,,,,,,,,,,,0,0,0,0,0,0,0,0,0,0,0,0,0,0,0,0,,,,,,,,,,,
3537280,1744865936901,0.0,135,,-0.04,-0.34,0.84,2,-0,-1,0.91,1.26,72,4509,15.6,4.07,,13.08,1.14,70.0,,27.3,5,,,,,,,,,,,,0,0,0,0,0,0,0,0,0,0,0,0,0,0,0,0,,,,,0.0,,,,,,
3537300,1744865936921,,,,,,,,,,,,,,,,,,,,,,,,,,,,,,,,,,0,0,0,0,0,0,0,0,0,0,0,0,0,0,0,0,,,,,,,,,,,
3537320,1744865936941,0.0,135,,-0.03,-0.4,0.8,1,-0,-1,0.89,1.26,71,4570,17.1,4.18,,13.08,1.14,70.0,,27.3,5,,,,,,,,,,,,0,0,0,0,0,0,0,0,0,0,0,0,0,0,0,0,,,,,0.0,,,,,,
3537340,1744865936961,,,,,,,,,,,,,,,,,,,,,,,0,0,0,0,0.0,0.0,0.0,0.0,2.26,,,0,0,0,0,0,0,0,0,0,0,0,0,0,0,0,0,0,,,,,38.985737,-76.9506,0.04,35,3,0.8
3537360,1744865936981,0.0,135,,-0.02,-0.48,0.75,2,-0,-1,0.89,1.26,71,4570,17.1,4.18,,13.2,1.128,70.0,,27.8,5,,,,,,,,,,,,0,0,0,0,0,0,0,0,0,0,0,0,0,0,0,0,,,,,0.0,,,,,,
3537380,1744865936993,,,,,,,,,,,,,,,,,,,,,,,,,,,,,,,,,,0,0,0,0,0,0,0,0,0,0,0,0,0,0,0,0,,,,,,,,,,,
3537400,1744865937013,0.0,135,,0.01,-0.5,0.74,2,-0,-2,0.89,1.26,71,4542,17.4,4.22,,13.29,1.134,70.0,,27.8,5,,,,,,,,,,,,0,0,0,0,0,0,0,0,0,0,0,0,0,0,0,0,,,,,0.0,,,,,,
3537420,1744865937033,,,,,,,,,,,,,,,,,,,,,,,,,,,,,,,,,,0,0,0,0,0,0,0,0,0,0,0,0,0,0,0,0,,,,,,,,,,,
3537440,1744865937053,0.0,135,,0.0,-0.34,0.86,2,-0,-1,0.92,1.26,73,4643,18.0,4.24,,13.32,1.146,70.0,,27.8,5,0,0,0,0,0.0,0.0,0.0,0.0,2.26,,,0,0,0,0,0,0,0,0,0,0,0,0,0,0,0,0,0,,,,0.0,38.985737,-76.9506,0.05,35,3,0.8
3537460,1744865937073,,,,,,,,,,,,,,,,,,,,,,,,,,,,,,,,,,0,0,0,0,0,0,0,0,0,0,0,0,0,0,0,0,,,,,,,,,,,
3537480,1744865937095,0.0,135,,-0.03,-0.31,0.85,1,-0,-1,0.9,1.26,72,4714,18.8,4.27,,13.35,1.155,70.0,,27.7,5,,,,,,,,,,,,0,0,0,0,0,0,0,0,0,0,0,0,0,0,0,0,,,,,0.0,,,,,,
3537500,1744865937115,,,,,,,,,,,,,,,,,,,,,,,,,,,,,,,,,,0,0,0,0,0,0,0,0,0,0,0,0,0,0,0,0,,,,,,,,,,,
3537520,1744865937135,0.0,135,,0.0,-0.32,0.87,2,-0,-1,0.92,1.26,74,4820,19.3,4.3,,13.35,1.155,70.0,,27.7,5,,,,,,,,,,,,0,0,0,0,0,0,0,0,0,0,0,0,0,0,0,0,,,,,0.0,,,,,,
3537540,1744865937155,,,,,,,,,,,,,,,,,,,,,,,0,0,0,0,0.0,0.0,0.0,0.0,2.26,,,0,0,0,0,0,0,0,0,0,0,0,0,0,0,0,0,0,,,,,38.985737,-76.9506,0.0,35,3,0.8
3537560,1744865937175,0.0,135,,-0.04,-0.25,0.87,1,-0,-1,0.9,1.26,72,4820,19.3,4.3,,13.31,1.172,70.0,,27.9,5,,,,,,,,,,,,0,0,0,0,0,0,0,0,0,0,0,0,0,0,0,0,,,,,0.0,,,,,,
3537580,1744865937197,,,,,,,,,,,,,,,,,,,,,,,,,,,,,,,,,,0,0,0,0,0,0,0,0,0,0,0,0,0,0,0,0,,,,,,,,,,,
3537600,1744865937217,0.0,135,,-0.02,-0.21,0.9,1,-0,-1,0.93,1.26,74,4897,19.6,4.29,,13.43,1.157,70.0,,27.9,5,,,,,,,,,,,,0,0,0,0,0,0,0,0,0,0,0,0,0,0,0,0,,,,,0.0,,,,,,
3537620,1744865937237,,,,,,,,,,,,,,,,,,,,,,,,,,,,,,,,,,0,0,0,0,0,0,0,0,0,0,0,0,0,0,0,0,,,,,,,,,,,
3537640,1744865937257,0.0,135,,-0.01,-0.23,0.92,1,-0,-1,0.95,1.26,75,5066,20.2,4.32,,13.32,1.168,70.0,,27.9,5,0,0,0,0,0.0,0.0,0.0,0.0,2.26,,,0,0,0,0,0,0,0,0,0,0,0,0,0,0,0,0,0,,,,0.0,38.985737,-76.9506,0.0,35,3,0.8
3537660,1744865937277,,,,,,,,,,,,,,,,,,,,,,,,,,,,,,,,,,0,0,0,0,0,0,0,0,0,0,0,0,0,0,0,0,,,,,,,,,,,
3537680,1744865937301,0.0,135,,-0.02,-0.17,0.9,1,-0,-1,0.91,1.26,73,5154,20.7,4.34,,13.37,1.191,70.0,,28.5,5,,,,,,,,,,,,0,0,0,0,0,0,0,0,0,0,0,0,0,0,0,0,,,,,0.0,,,,,,
3537700,1744865937321,,,,,,,,,,,,,,,,,,,,,,,,,,,,,,,,,,0,0,0,0,0,0,0,0,0,0,0,0,0,0,0,0,,,,,,,,,,,
3537720,1744865937341,0.0,135,,-0.02,-0.12,0.92,0,-0,-0,0.93,1.26,74,5295,20.9,4.34,,13.37,1.191,70.0,,28.5,5,,,,,,,,,,,,0,0,0,0,0,0,0,0,0,0,0,0,0,0,0,0,,,,,0.0,,,,,,
3537740,1744865937361,,,,,,,,,,,,,,,,,,,,,,,0,0,0,0,0.0,0.0,0.0,0.0,2.26,,,0,0,0,0,0,0,0,0,0,0,0,0,0,0,0,0,0,,,,,38.985737,-76.9506,0.08,35,3,0.8
3537760,1744865937381,0.0,135,,-0.03,-0.11,0.95,-0,-0,-0,0.96,1.26,76,5295,20.9,4.34,,13.21,1.179,70.0,,28.9,5,,,,,,,,,,,,0,0,0,0,0,0,0,0,0,0,0,0,0,0,0,0,,,,,0.0,,,,,,
3537780,1744865937401,,,,,,,,,,,,,,,,,,,,,,,,,,,,,,,,,,0,0,0,0,0,0,0,0,0,0,0,0,0,0,0,0,,,,,,,,,,,
3537800,1744865937421,0.0,135,,-0.01,-0.17,0.87,1,-0,-1,0.88,1.26,70,5456,22.1,4.36,,13.16,1.173,70.0,,28.9,5,,,,,,,,,,,,0,0,0,0,0,0,0,0,0,0,0,0,0,0,0,0,,,,,0.0,,,,,,
3537820,1744865937441,,,,,,,,,,,,,,,,,,,,,,,,,,,,,,,,,,0,0,0,0,0,0,0,0,0,0,0,0,0,0,0,0,,,,,,,,,,,
3537840,1744865937461,0.0,135,,-0.06,-0.15,0.89,-1,-0,0,0.91,1.26,72,5641,24.6,4.49,,13.07,1.19,70.0,,28.9,5,0,0,0,0,0.0,0.0,0.0,0.0,2.26,,,0,0,0,0,0,0,0,0,0,0,0,0,0,0,0,0,0,,,,0.0,38.985737,-76.9506,0.11,35,3,0.8
3537860,1744865937481,,,,,,,,,,,,,,,,,,,,,,,,,,,,,,,,,,0,0,0,0,0,0,0,0,0,0,0,0,0,0,0,0,,,,,,,,,,,
3537880,1744865937501,0.0,135,,-0.09,-0.0,0.95,-3,-0,1,0.95,1.26,76,6000,26.5,4.75,,13.07,1.207,70.0,,29.7,5,,,,,,,,,,,,0,0,0,0,0,0,0,0,0,0,0,0,0,0,0,0,,,,,0.0,,,,,,
3537900,1744865937521,,,,,,,,,,,,,,,,,,,,,,,,,,,,,,,,,,0,0,0,0,0,0,0,0,0,0,0,0,0,0,0,0,,,,,,,,,,,
3537920,1744865937541,0.0,135,,-0.09,-0.08,0.86,-3,-0,1,0.87,1.26,69,6414,28.5,5.26,,13.07,1.207,70.0,,29.7,5,,,,,,,,,,,,0,0,0,0,0,0,0,0,0,0,0,0,0,0,0,0,,,,,0.0,,,,,,
3537940,1744865937561,,,,,,,,,,,,,,,,,,,,,,,0,0,0,0,0.0,0.0,0.0,0.0,2.26,,,0,0,0,0,0,0,0,0,0,0,0,0,0,0,0,0,0,,,,,38.985737,-76.9506,0.13,35,3,0.8
3537960,1744865937581,0.0,135,,-0.07,-0.13,0.89,-3,-0,0,0.9,1.26,71,6414,28.5,5.26,,13.12,1.216,70.0,,30.9,5,,,,,,,,,,,,0,0,0,0,0,0,0,0,0,0,0,0,0,0,0,0,,,,,0.0,,,,,,
3537980,1744865937601,,,,,,,,,,,,,,,,,,,,,,,,,,,,,,,,,,0,0,0,0,0,0,0,0,0,0,0,0,0,0,0,0,,,,,,,,,,,
3538000,1744865937621,0.0,135,,-0.03,0.1,0.9,-4,-0,1,0.91,1.26,72,6707,31.8,5.83,,13.2,1.224,70.0,,30.9,5,,,,,,,,,,,,0,0,0,0,0,0,0,0,0,0,0,0,0,0,0,0,,,,,0.0,,,,,,
3538020,1744865937641,,,,,,,,,,,,,,,,,,,,,,,,,,,,,,,,,,0,0,0,0,0,0,0,0,0,0,0,0,0,0,0,0,,,,,,,,,,,
3538040,1744865937661,0.0,135,,-0.07,0.14,0.91,-2,-0,1,0.92,1.26,73,7666,35.9,6.13,,13.16,1.19,70.0,,30.9,5,0,0,0,0,0.0,0.0,0.0,0.0,2.26,,,0,0,0,0,0,0,0,0,0,0,0,0,0,0,0,0,0,,,,0.0,38.985737,-76.9506,0.11,35,3,0.8
3538060,1744865937681,,,,,,,,,,,,,,,,,,,,,,,,,,,,,,,,,,0,0,0,0,0,0,0,0,0,0,0,0,0,0,0,0,,,,,,,,,,,
3538080,1744865937700,0.0,135,,-0.06,-0.05,0.94,-3,-0,1,0.94,1.26,75,8709,41.6,5.58,,12.97,0.943,70.0,,32.3,5,,,,,,,,,,,,0,0,0,0,0,0,0,0,0,0,0,0,0,0,0,0,,,,,0.0,,,,,,
3538100,1744865937720,,,,,,,,,,,,,,,,,,,,,,,,,,,,,,,,,,0,0,0,0,0,0,0,0,0,0,0,0,0,0,0,0,,,,,,,,,,,
3538120,1744865937740,0.0,135,,-0.02,0.07,0.96,-2,0,1,0.97,1.26,77,9623,44.9,5.2,,12.97,0.943,70.0,,32.3,5,,,,,,,,,,,,0,0,0,0,0,0,0,0,0,0,0,0,0,0,0,0,,,,,0.0,,,,,,
3538140,1744865937760,,,,,,,,,,,,,,,,,,,,,,,0,0,0,0,0.0,0.0,0.0,0.0,2.26,,,0,0,0,0,0,0,0,0,0,0,0,0,0,0,0,0,0,,,,,38.985737,-76.9506,0.13,35,3,0.8
3538160,1744865937780,0.0,135,,-0.0,-0.12,0.92,-1,0,-0,0.93,1.26,74,9623,44.9,5.2,,12.93,0.879,70.0,,34.1,5,,,,,,,,,,,,0,0,0,0,0,0,0,0,0,0,0,0,0,0,0,0,,,,,0.0,,,,,,
3538180,1744865937802,,,,,,,,,,,,,,,,,,,,,,,,,,,,,,,,,,0,0,0,0,0,0,0,0,0,0,0,0,0,0,0,0,,,,,,,,,,,
3538200,1744865937822,0.0,135,,0.1,0.02,0.95,0,1,-0,0.95,1.26,76,10699,46.3,4.58,,12.85,0.94,68.2,,34.1,5,,,,,,,,,,,,0,0,0,0,0,0,0,0,0,0,0,0,0,0,0,0,,,,,0.0,,,,,,
3538220,1744865937842,,,,,,,,,,,,,,,,,,,,,,,,,,,,,,,,,,0,0,0,0,0,0,0,0,0,0,0,0,0,0,0,0,,,,,,,,,,,
3538240,1744865937862,0.0,135,13.21,0.19,-0.07,0.86,-1,1,0,0.88,1.26,70,11185,47.1,4.11,15,12.84,0.903,68.2,165,34.1,5,0,0,0,0,0.0,0.0,0.0,0.0,2.25,0,0.0,0,0,0,0,0,0,0,0,0,0,0,0,0,0,0,0,0,0.0,0,0,0.0,38.985737,-76.9506,0.35,35,3,0.8
3538260,1744865937882,,,,,,,,,,,,,,,,,,,,,,,,,,,,,,,,,,0,0,0,0,0,0,0,0,0,0,0,0,0,0,0,0,,,,,,,,,,,
3538280,1744865937902,0.0,135,,0.25,-0.19,0.91,-1,1,1,0.96,1.26,77,10775,47.3,4.26,,12.8,0.941,68.2,,36.2,5,,,,,,,,,,,,0,0,0,0,0,0,0,0,0,0,0,0,0,0,0,0,,,,,0.0,,,,,,
3538300,1744865937922,,,,,,,,,,,,,,,,,,,,,,,,,,,,,,,,,,0,0,0,0,0,0,0,0,0,0,0,0,0,0,0,0,,,,,,,,,,,
3538320,1744865937942,0.0,135,,0.35,-0.27,0.94,-1,2,1,1.04,1.26,83,9570,47.4,5.23,,12.8,0.941,68.2,,36.2,5,,,,,,,,,,,,0,0,0,0,0,0,0,0,0,0,0,0,0,0,0,0,,,,,0.0,,,,,,
3538340,1744865937962,,,,,,,,,,,,,,,,,,,,,,,0,0,0,2,0.0,0.0,0.0,0.0,2.26,,,0,0,0,0,0,0,0,0,0,0,0,0,0,0,0,0,0,,,,,38.985737,-76.9506,1.93,35,3,0.8
3538360,1744865937982,0.0,135,,0.42,-0.13,0.89,-3,1,1,1.0,1.26,79,9570,47.4,5.23,,13.01,1.023,68.2,,35.8,5,,,,,,,,,,,,0,0,0,0,0,0,0,0,0,0,0,0,0,0,0,0,,,,,0.0,,,,,,
3538380,1744865937992,,,,,,,,,,,,,,,,,,,,,,,,,,,,,,,,,,0,0,0,0,0,0,0,0,0,0,0,0,0,0,0,0,,,,,,,,,,,
3538400,1744865938012,0.0,135,,0.46,-0.12,0.93,-3,1,1,1.04,1.26,83,9656,47.5,5.24,,13.13,1.053,68.2,,35.8,5,,,,,,,,,,,,0,0,0,0,0,0,0,0,0,0,0,0,0,0,0,0,,,,,0.0,,,,,,
3538420,1744865938032,,,,,,,,,,,,,,,,,,,,,,,,,,,,,,,,,,0,0,0,0,0,0,0,0,0,0,0,0,0,0,0,0,,,,,,,,,,,
3538440,1744865938052,0.0,135,,0.46,-0.05,0.91,-3,1,2,1.02,1.26,81,10101,48.3,5.29,,13.01,1.035,68.2,,35.8,5,4,0,27,28,0.0,0.0,0.0,0.0,2.26,,,0,0,0,0,0,0,0,0,0,0,0,0,0,0,0,0,1,,,,0.0,38.985737,-76.9506,4.83,35,3,0.8
3538460,1744865938072,,,,,,,,,,,,,,,,,,,,,,,,,,,,,,,,,,0,0,0,0,0,0,0,0,0,0,0,0,0,0,0,0,,,,,,,,,,,
3538480,1744865938096,0.0,135,,0.48,-0.24,0.93,-4,1,1,1.07,1.26,85,10460,48.2,4.77,,13.01,0.971,68.2,,36.6,5,,,,,,,,,,,,0,0,0,0,0,0,0,0,0,0,0,0,0,0,0,0,,,,,0.0,,,,,,
3538500,1744865938116,,,,,,,,,,,,,,,,,,,,,,,,,,,,,,,,,,0,0,0,0,0,0,0,0,0,0,0,0,0,0,0,0,,,,,,,,,,,
3538520,1744865938136,0.0,135,,0.48,-0.37,0.99,-5,1,1,1.16,1.26,92,10443,28.3,4.94,,13.01,0.971,68.2,,36.6,5,,,,,,,,,,,,0,0,0,0,0,0,0,0,0,0,0,0,0,0,0,0,,,,,0.0,,,,,,
3538540,1744865938156,,,,,,,,,,,,,,,,,,,,,,,5,0,30,28,0.0,0.0,0.0,0.0,2.26,,,0,0,0,0,0,0,0,0,0,0,0,0,0,0,0,0,1,,,,,38.985737,-76.9506,9.44,35,3,0.8
3538560,1744865938176,0.0,135,,0.52,-0.35,0.97,-6,1,1,1.16,1.26,92,10443,28.3,4.94,,12.04,0.953,68.2,,37.1,5,,,,,,,,,,,,0,0,0,0,0,0,0,0,0,0,0,0,0,0,0,0,,,,,0.0,,,,,,
3538580,1744865938200,,,,,,,,,,,,,,,,,,,,,,,,,,,,,,,,,,0,0,0,0,0,0,0,0,0,0,0,0,0,0,0,0,,,,,,,,,,,
3538600,1744865938220,0.0,135,,0.58,-0.15,0.96,-7,1,1,1.13,1.26,90,10363,10.3,3.1,,9.69,0.945,68.2,,37.1,5,,,,,,,,,,,,0,0,0,0,0,0,0,0,0,0,0,0,0,0,0,0,,,,,0.0,,,,,,
3538620,1744865938240,,,,,,,,,,,,,,,,,,,,,,,,,,,,,,,,,,0,0,0,0,0,0,0,0,0,0,0,0,0,0,0,0,,,,,,,,,,,
3538640,1744865938260,0.0,135,,0.59,-0.26,0.92,-9,1,1,1.12,1.26,89,10022,8.3,2.49,,8.55,0.838,68.2,,37.1,5,7,0,30,31,0.0,127.0,0.0,0.0,2.26,,,0,0,0,0,0,0,0,0,0,0,0,0,0,0,0,0,1,,,,0.0,38.985737,-76.950592,11.95,35,3,0.8
3538660,1744865938280,,,,,,,,,,,,,,,,,,,,,,,,,,,,,,,,,,0,0,0,0,0,0,0,0,0,0,0,0,0,0,0,0,,,,,,,,,,,
3538680,1744865938302,0.0,135,,0.63,-0.27,0.98,-10,1,0,1.2,1.26,96,9443,7.9,2.37,,7.78,0.822,68.2,,36.4,5,,,,,,,,,,,,0,0,0,0,0,0,0,0,0,0,0,0,0,0,0,0,,,,,0.0,,,,,,
3538700,1744865938322,,,,,,,,,,,,,,,,,,,,,,,,,,,,,,,,,,0,0,0,0,0,0,0,0,0,0,0,0,0,0,0,0,,,,,,,,,,,
3538720,1744865938342,0.0,135,,0.67,-0.25,0.99,-13,1,0,1.22,1.26,97,8736,3.4,2.17,,7.78,0.822,68.2,,36.4,5,,,,,,,,,,,,0,0,0,0,0,0,0,0,0,0,0,0,0,0,0,0,,,,,0.0,,,,,,
3538740,1744865938362,,,,,,,,,,,,,,,,,,,,,,,9,0,28,28,0.0,16.0,0.0,0.0,2.26,,,0,0,0,0,0,0,0,0,0,0,0,0,0,0,0,0,1,,,,,38.985741,-76.950584,15.53,35,3,0.8
3538760,1744865938382,0.0,135,,0.67,-0.15,0.95,-17,1,0,1.17,1.26,93,8736,3.4,2.17,,7.38,0.853,68.2,,35.6,5,,,,,,,,,,,,0,0,0,0,0,0,0,0,0,0,0,0,0,0,0,0,,,,,0.0,,,,,,
3538780,1744865938402,,,,,,,,,,,,,,,,,,,,,,,,,,,,,,,,,,0,0,0,0,0,0,0,0,0,0,0,0,0,0,0,0,,,,,,,,,,,
3538800,1744865938422,0.0,135,,0.68,-0.16,0.95,-21,1,1,1.18,1.26,94,7712,0.0,1.4,,6.86,0.865,68.2,,35.6,5,,,,,,,,,,,,0,0,0,0,0,0,0,0,0,0,0,0,0,0,0,0,,,,,0.0,,,,,,
3538820,1744865938442,,,,,,,,,,,,,,,,,,,,,,,,,,,,,,,,,,0,0,0,0,0,0,0,0,0,0,0,0,0,0,0,0,,,,,,,,,,,
3538840,1744865938462,0.0,135,,0.74,-0.18,0.98,-22,1,-0,1.24,1.26,98,6351,0.0,1.4,,7.03,0.874,68.2,,35.6,5,10,0,23,22,0.0,133.0,0.0,0.0,2.26,,,0,0,0,0,0,0,0,0,0,0,0,0,0,0,0,0,0,,,,0.0,38.985741,-76.950584,18.25,35,3,0.8
3538860,1744865938482,,,,,,,,,,,,,,,,,,,,,,,,,,,,,,,,,,0,0,0,0,0,0,0,0,0,0,0,0,0,0,0,0,,,,,,,,,,,
3538880,1744865938502,0.0,135,,0.64,-0.18,0.99,-24,1,1,1.19,1.26,95,5211,0.0,1.4,,7.51,0.954,68.2,,34.2,5,,,,,,,,,,,,0,0,0,0,0,0,0,0,0,0,0,0,0,0,0,0,,,,,0.0,,,,,,
3538900,1744865938522,,,,,,,,,,,,,,,,,,,,,,,,,,,,,,,,,,0,0,0,0,0,0,0,0,0,0,0,0,0,0,0,0,,,,,,,,,,,
3538920,1744865938542,0.0,135,,0.55,-0.13,1.02,-24,-0,0,1.16,1.26,92,4102,0.0,1.43,,7.51,0.954,68.2,,34.2,5,,,,,,,,,,,,0,0,0,0,0,0,0,0,0,0,0,0,0,0,0,0,,,,,0.0,,,,,,
3538940,1744865938562,,,,,,,,,,,,,,,,,,,,,,,12,0,17,15,0.0,62.0,0.0,0.0,2.26,,,0,0,0,0,0,0,0,0,0,0,0,0,0,0,0,0,0,,,,,38.985744,-76.950577,21.39,35,3,0.8
3538960,1744865938582,0.0,135,,0.45,-0.19,1.0,-25,-0,-0,1.11,1.26,88,3819,3.5,1.43,,8.17,1.017,68.2,,27.6,5,,,,,,,,,,,,0,0,0,0,0,0,0,0,0,0,0,0,0,0,0,0,,,,,0.0,,,,,,
3538980,1744865938602,,,,,,,,,,,,,,,,,,,,,,,,,,,,,,,,,,0,0,0,0,0,0,0,0,0,0,0,0,0,0,0,0,,,,,,,,,,,
3539000,1744865938622,0.0,135,,0.32,-0.21,1.0,-25,0,-1,1.07,1.26,85,3819,3.5,1.58,,8.94,1.057,68.2,,27.6,5,,,,,,,,,,,,0,0,0,0,0,0,0,0,0,0,0,0,0,0,0,0,,,,,0.0,,,,,,
3539020,1744865938642,,,,,,,,,,,,,,,,,,,,,,,,,,,,,,,,,,0,0,0,0,0,0,0,0,0,0,0,0,0,0,0,0,,,,,,,,,,,
3539040,1744865938662,0.0,135,,0.2,-0.2,1.04,-24,0,-1,1.08,1.26,86,3745,16.8,2.98,,10.94,1.075,68.2,,27.6,5,14,0,13,15,0.0,55.0,0.0,0.0,2.26,,,0,0,0,0,0,0,0,0,0,0,0,0,0,0,0,0,2,,,,0.0,38.985744,-76.950577,23.74,35,3,0.8
3539060,1744865938682,,,,,,,,,,,,,,,,,,,,,,,,,,,,,,,,,,0,0,0,0,0,0,0,0,0,0,0,0,0,0,0,0,,,,,,,,,,,
3539080,1744865938702,0.0,135,,0.12,-0.11,1.09,-25,0,0,1.11,1.26,88,4416,20.4,4.24,,12.47,1.119,68.2,,26.0,5,,,,,,,,,,,,0,0,0,0,0,0,0,0,0,0,0,0,0,0,0,0,,,,,0.0,,,,,,
3539100,1744865938722,,,,,,,,,,,,,,,,,,,,,,,,,,,,,,,,,,0,0,0,0,0,0,0,0,0,0,0,0,0,0,0,0,,,,,,,,,,,
3539120,1744865938742,0.0,135,,0.07,0.04,1.1,-27,1,1,1.11,1.26,88,4755,21.4,4.34,,12.47,1.119,68.2,,26.0,5,,,,,,,,,,,,0,0,0,0,0,0,0,0,0,0,0,0,0,0,0,0,,,,,0.0,,,,,,
3539140,1744865938762,,,,,,,,,,,,,,,,,,,,,,,13,0,13,14,0.0,178.0,0.0,0.0,2.25,,,0,0,0,0,0,0,0,0,0,0,0,0,0,0,0,0,2,,,,,38.985748,-76.950569,21.81,35,3,0.8
3539160,1744865938782,0.0,135,,0.05,-0.08,1.04,-27,1,0,1.04,1.26,83,4755,21.4,4.34,,13.09,1.151,68.2,,31.2,5,,,,,,,,,,,,0,0,0,0,0,0,0,0,0,0,0,0,0,0,0,0,,,,,0.0,,,,,,
3539180,1744865938801,,,,,,,,,,,,,,,,,,,,,,,,,,,,,,,,,,0,0,0,0,0,0,0,0,0,0,0,0,0,0,0,0,,,,,,,,,,,
3539200,1744865938821,0.0,135,,0.02,-0.11,1.07,-26,1,0,1.07,1.26,85,4887,33.8,5.16,,13.87,1.165,68.2,,31.2,5,,,,,,,,,,,,0,0,0,0,0,0,0,0,0,0,0,0,0,0,0,0,,,,,0.0,,,,,,
3539220,1744865938841,,,,,,,,,,,,,,,,,,,,,,,,,,,,,,,,,,0,0,0,0,0,0,0,0,0,0,0,0,0,0,0,0,,,,,,,,,,,
3539240,1744865938861,0.0,135,13.4,0.11,-0.15,1.09,-26,1,0,1.1,1.26,88,5118,36.0,5.18,15,14.0,1.17,68.2,165,31.5,5,12,0,12,14,0.0,93.0,0.0,0.0,2.26,0,0.0,0,0,0,0,0,0,0,0,0,0,0,0,0,0,0,0,0,0.0,0,0,0.0,38.985748,-76.950554,19.66,35,3,0.8
3539260,1744865938881,,,,,,,,,,,,,,,,,,,,,,,,,,,,,,,,,,0,0,0,0,0,0,0,0,0,0,0,0,0,0,0,0,,,,,,,,,,,
3539280,1744865938901,0.0,135,,0.1,-0.16,1.03,-26,1,0,1.04,1.26,83,4895,36.1,5.02,,14.06,1.187,68.2,,31.5,5,,,,,,,,,,,,0,0,0,0,0,0,0,0,0,0,0,0,0,0,0,0,,,,,0.0,,,,,,
3539300,1744865938921,,,,,,,,,,,,,,,,,,,,,,,,,,,,,,,,,,0,0,0,0,0,0,0,0,0,0,0,0,0,0,0,0,,,,,,,,,,,
3539320,1744865938941,0.0,135,,0.05,-0.14,1.04,-26,1,1,1.05,1.26,83,4339,29.1,4.8,,14.06,1.187,68.2,,31.5,5,,,,,,,,,,,,0,0,0,0,0,0,0,0,0,0,0,0,0,0,0,0,,,,,0.0,,,,,,
3539340,1744865938961,,,,,,,,,,,,,,,,,,,,,,,13,0,15,14,0.0,130.0,0.0,0.0,2.26,,,0,0,0,0,0,0,0,0,0,0,0,0,0,0,0,0,0,,,,,38.985748,-76.950554,20.36,35,3,0.8
3539360,1744865938981,0.0,135,,0.05,-0.12,1.14,-28,0,1,1.15,1.26,91,4378,29.8,4.8,,14.02,1.183,68.2,,28.3,5,,,,,,,,,,,,0,0,0,0,0,0,0,0,0,0,0,0,0,0,0,0,,,,,0.0,,,,,,
3539380,1744865938993,,,,,,,,,,,,,,,,,,,,,,,,,,,,,,,,,,0,0,0,0,0,0,0,0,0,0,0,0,0,0,0,0,,,,,,,,,,,
3539400,1744865939013,0.0,135,,0.04,0.0,1.22,-29,1,2,1.22,1.26,97,4378,29.8,4.87,,13.95,1.093,68.2,,28.3,5,,,,,,,,,,,,0,0,0,0,0,0,0,0,0,0,0,0,0,0,0,0,,,,,0.0,,,,,,
3539420,1744865939033,,,,,,,,,,,,,,,,,,,,,,,,,,,,,,,,,,0,0,0,0,0,0,0,0,0,0,0,0,0,0,0,0,,,,,,,,,,,
3539440,1744865939053,0.0,135,,0.01,-0.07,1.18,-30,1,2,1.19,1.26,94,4652,29.7,5.0,,13.92,1.072,68.2,,29.7,5,14,0,13,15,0.0,111.0,0.0,0.0,2.26,,,0,0,0,0,0,0,0,0,0,0,0,0,0,0,0,0,0,,,,0.0,38.985748,-76.950539,22.86,35,3,0.8
3539460,1744865939073,,,,,,,,,,,,,,,,,,,,,,,,,,,,,,,,,,0,0,0,0,0,0,0,0,0,0,0,0,0,0,0,0,,,,,,,,,,,
3539480,1744865939099,0.0,135,,-0.0,-0.11,1.16,-30,1,2,1.16,1.26,93,4868,29.5,5.08,,13.86,1.092,68.2,,29.7,5,,,,,,,,,,,,0,0,0,0,0,0,0,0,0,0,0,0,0,0,0,0,,,,,0.0,,,,,,
3539500,1744865939119,,,,,,,,,,,,,,,,,,,,,,,,,,,,,,,,,,0,0,0,0,0,0,0,0,0,0,0,0,0,0,0,0,,,,,,,,,,,
3539520,1744865939139,0.0,135,,0.03,-0.16,1.12,-30,2,2,1.13,1.26,90,5026,29.4,5.11,,13.79,1.104,68.2,,29.7,5,,,,,,,,,,,,0,0,0,0,0,0,0,0,0,0,0,0,0,0,0,0,,,,,0.0,,,,,,
3539540,1744865939159,,,,,,,,,,,,,,,,,,,,,,,13,0,13,16,0.0,53.0,0.0,0.0,2.26,,,0,0,0,0,0,0,0,0,0,0,0,0,0,0,0,0,0,,,,,38.985748,-76.950539,22.07,35,3,0.8
3539560,1744865939179,0.0,135,,0.01,-0.19,1.09,-30,2,2,1.11,1.26,88,4843,29.5,5.1,,13.79,1.104,68.2,,30.2,5,,,,,,,,,,,,0,0,0,0,0,0,0,0,0,0,0,0,0,0,0,0,,,,,0.0,,,,,,
3539580,1744865939201,,,,,,,,,,,,,,,,,,,,,,,,,,,,,,,,,,0,0,0,0,0,0,0,0,0,0,0,0,0,0,0,0,,,,,,,,,,,
3539600,1744865939221,0.0,135,,0.01,-0.26,1.04,-30,2,1,1.07,1.26,85,4843,29.5,5.1,,13.94,1.095,68.2,,30.2,5,,,,,,,,,,,,0,0,0,0,0,0,0,0,0,0,0,0,0,0,0,0,,,,,0.0,,,,,,
3539620,1744865939241,,,,,,,,,,,,,,,,,,,,,,,,,,,,,,,,,,0,0,0,0,0,0,0,0,0,0,0,0,0,0,0,0,,,,,,,,,,,
3539640,1744865939261,0.0,135,,0.0,-0.16,1.1,-31,1,1,1.11,1.26,88,4703,28.9,4.98,,13.91,1.07,68.2,,29.5,5,13,0,14,15,0.0,114.0,0.0,0.0,2.26,,,0,0,0,0,0,0,0,0,0,0,0,0,0,0,0,0,0,,,,0.0,38.985748,-76.950531,22.32,35,3,0.8
3539660,1744865939281,,,,,,,,,,,,,,,,,,,,,,,,,,,,,,,,,,0,0,0,0,0,0,0,0,0,0,0,0,0,0,0,0,,,,,,,,,,,
3539680,1744865939301,0.0,135,,-0.01,-0.19,1.04,-31,1,1,1.06,1.26,84,4855,29.2,5.04,,13.91,1.051,68.2,,29.5,5,,,,,,,,,,,,0,0,0,0,0,0,0,0,0,0,0,0,0,0,0,0,,,,,0.0,,,,,,
3539700,1744865939321,,,,,,,,,,,,,,,,,,,,,,,,,,,,,,,,,,0,0,0,0,0,0,0,0,0,0,0,0,0,0,0,0,,,,,,,,,,,
3539720,1744865939341,0.0,135,,-0.01,-0.24,1.02,-31,2,1,1.04,1.26,83,5125,29.3,5.1,,13.86,1.055,68.2,,29.5,5,,,,,,,,,,,,0,0,0,0,0,0,0,0,0,0,0,0,0,0,0,0,,,,,0.0,,,,,,
3539740,1744865939361,,,,,,,,,,,,,,,,,,,,,,,15,0,14,15,0.0,164.0,0.0,0.0,2.26,,,0,0,0,0,0,0,0,0,0,0,0,0,0,0,0,0,0,,,,,38.985748,-76.950523,23.61,35,3,0.8
3539760,1744865939381,0.0,135,,0.01,-0.28,1.03,-32,2,1,1.06,1.26,85,5108,29.4,5.1,,13.86,1.055,68.2,,30.3,5,,,,,,,,,,,,0,0,0,0,0,0,0,0,0,0,0,0,0,0,0,0,,,,,0.0,,,,,,
3539780,1744865939401,,,,,,,,,,,,,,,,,,,,,,,,,,,,,,,,,,0,0,0,0,0,0,0,0,0,0,0,0,0,0,0,0,,,,,,,,,,,
3539800,1744865939421,0.0,135,,0.03,-0.32,1.03,-32,1,1,1.08,1.26,86,5108,29.4,5.1,,13.76,1.038,68.2,,30.3,5,,,,,,,,,,,,0,0,0,0,0,0,0,0,0,0,0,0,0,0,0,0,,,,,0.0,,,,,,
3539820,1744865939441,,,,,,,,,,,,,,,,,,,,,,,,,,,,,,,,,,0,0,0,0,0,0,0,0,0,0,0,0,0,0,0,0,,,,,,,,,,,
3539840,1744865939461,0.0,135,,-0.0,-0.32,0.99,-33,1,1,1.04,1.26,82,5005,26.3,4.84,,13.77,1.036,68.2,,30.3,5,14,0,15,16,0.0,100.0,0.0,0.0,2.26,,,0,0,0,0,0,0,0,0,0,0,0,0,0,0,0,0,0,,,,0.0,38.985748,-76.950516,23.13,35,3,0.8
3539860,1744865939481,,,,,,,,,,,,,,,,,,,,,,,,,,,,,,,,,,0,0,0,0,0,0,0,0,0,0,0,0,0,0,0,0,,,,,,,,,,,
3539880,1744865939501,0.0,135,,-0.01,-0.35,1.01,-33,2,1,1.07,1.26,85,5077,25.8,4.72,,13.67,1.052,68.2,,30.5,5,,,,,,,,,,,,0,0,0,0,0,0,0,0,0,0,0,0,0,0,0,0,,,,,0.0,,,,,,
3539900,1744865939521,,,,,,,,,,,,,,,,,,,,,,,,,,,,,,,,,,0,0,0,0,0,0,0,0,0,0,0,0,0,0,0,0,,,,,,,,,,,
3539920,1744865939541,0.0,135,,-0.02,-0.39,1.04,-33,2,1,1.11,1.26,88,5214,25.9,4.74,,13.52,1.048,68.2,,30.5,5,,,,,,,,,,,,0,0,0,0,0,0,0,0,0,0,0,0,0,0,0,0,,,,,0.0,,,,,,
3539940,1744865939561,,,,,,,,,,,,,,,,,,,,,,,14,0,15,16,0.0,105.0,0.0,0.0,2.26,,,0,0,0,0,0,0,0,0,0,0,0,0,0,0,0,0,0,,,,,38.985748,-76.950508,24.27,35,3,0.8
3539960,1744865939581,0.0,135,,-0.02,-0.38,1.0,-33,2,2,1.07,1.26,85,5226,25.2,4.69,,13.52,1.048,68.2,,30.6,5,,,,,,,,,,,,0,0,0,0,0,0,0,0,0,0,0,0,0,0,0,0,,,,,0.0,,,,,,
3539980,1744865939601,,,,,,,,,,,,,,,,,,,,,,,,,,,,,,,,,,0,0,0,0,0,0,0,0,0,0,0,0,0,0,0,0,,,,,,,,,,,
3540000,1744865939621,0.0,135,,-0.0,-0.35,1.0,-33,2,2,1.06,1.26,84,5226,25.2,4.69,,13.41,1.054,68.2,,30.6,5,,,,,,,,,,,,0,0,0,0,0,0,0,0,0,0,0,0,0,0,0,0,,,,,0.0,,,,,,
3540020,1744865939641,,,,,,,,,,,,,,,,,,,,,,,,,,,,,,,,,,0,0,0,0,0,0,0,0,0,0,0,0,0,0,0,0,,,,,,,,,,,
3540040,1744865939661,0.0,135,,-0.0,-0.31,1.03,-33,2,2,1.08,1.26,86,5164,18.8,4.32,,13.15,1.07,68.2,,31.1,5,14,0,15,17,0.0,95.0,0.0,0.0,2.25,,,0,0,0,0,0,0,0,0,0,0,0,0,0,0,0,0,0,,,,0.0,38.985744,-76.9505,23.97,35,3,0.8
3540060,1744865939681,,,,,,,,,,,,,,,,,,,,,,,,,,,,,,,,,,0,0,0,0,0,0,0,0,0,0,0,0,0,0,0,0,,,,,,,,,,,
3540080,1744865939700,0.0,135,,-0.0,-0.34,1.03,-33,1,2,1.08,1.26,86,5112,17.9,4.28,,13.03,1.091,68.2,,31.1,5,,,,,,,,,,,,0,0,0,0,0,0,0,0,0,0,0,0,0,0,0,0,,,,,0.0,,,,,,
3540100,1744865939720,,,,,,,,,,,,,,,,,,,,,,,,,,,,,,,,,,0,0,0,0,0,0,0,0,0,0,0,0,0,0,0,0,,,,,,,,,,,
3540120,1744865939740,0.0,135,,-0.01,-0.37,1.0,-33,1,2,1.07,1.26,85,5145,17.7,4.27,,13.03,1.091,68.2,,31.1,5,,,,,,,,,,,,0,0,0,0,0,0,0,0,0,0,0,0,0,0,0,0,,,,,0.0,,,,,,
3540140,1744865939760,,,,,,,,,,,,,,,,,,,,,,,15,0,15,17,0.0,105.0,0.0,0.0,2.26,,,0,0,0,0,0,0,0,0,0,0,0,0,0,0,0,0,0,,,,,38.985741,-76.950493,24.62,35,3,0.8
3540160,1744865939780,0.0,135,,-0.03,-0.36,0.99,-33,1,2,1.05,1.26,84,5163,17.3,4.26,,12.99,1.091,68.2,,31.1,5,,,,,,,,,,,,0,0,0,0,0,0,0,0,0,0,0,0,0,0,0,0,,,,,0.0,,,,,,
3540180,1744865939800,,,,,,,,,,,,,,,,,,,,,,,,,,,,,,,,,,0,0,0,0,0,0,0,0,0,0,0,0,0,0,0,0,,,,,,,,,,,
3540200,1744865939820,0.0,135,,-0.05,-0.36,1.0,-31,1,2,1.06,1.06,100,5163,17.3,4.26,,13.04,1.075,68.2,,31.1,5,,,,,,,,,,,,0,0,0,0,0,0,0,0,0,0,0,0,0,0,0,0,,,,,0.0,,,,,,
3540220,1744865939840,,,,,,,,,,,,,,,,,,,,,,,,,,,,,,,,,,0,0,0,0,0,0,0,0,0,0,0,0,0,0,0,0,,,,,,,,,,,
3540240,1744865939860,0.0,135,13.37,-0.05,-0.35,0.99,-30,1,2,1.06,1.06,100,5266,17.3,4.26,15,12.91,1.088,68.2,167,31.5,5,16,0,15,17,0.0,89.0,0.0,0.0,2.25,0,0.0,0,0,0,0,0,0,0,0,0,0,0,0,0,0,0,0,0,0.0,0,0,0.0,38.985741,-76.950485,25.33,35,3,0.8
3540260,1744865939880,,,,,,,,,,,,,,,,,,,,,,,,,,,,,,,,,,0,0,0,0,0,0,0,0,0,0,0,0,0,0,0,0,,,,,,,,,,,
3540280,1744865939900,0.0,135,,-0.03,-0.27,1.02,-30,1,2,1.06,1.06,100,5347,17.4,4.27,,12.83,1.071,68.2,,31.5,5,,,,,,,,,,,,0,0,0,0,0,0,0,0,0,0,0,0,0,0,0,0,,,,,0.0,,,,,,
3540300,1744865939920,,,,,,,,,,,,,,,,,,,,,,,,,,,,,,,,,,0,0,0,0,0,0,0,0,0,0,0,0,0,0,0,0,,,,,,,,,,,
3540320,1744865939940,0.0,135,,-0.03,-0.39,0.91,-28,1,2,0.99,1.06,93,5419,17.4,4.28,,12.83,1.071,68.2,,31.5,5,,,,,,,,,,,,0,0,0,0,0,0,0,0,0,0,0,0,0,0,0,0,,,,,0.0,,,,,,
3540340,1744865939960,,,,,,,,,,,,,,,,,,,,,,,16,0,15,16,0.0,8.0,0.0,0.0,2.26,,,0,0,0,0,0,0,0,0,0,0,0,0,0,0,0,0,0,,,,,38.985737,-76.950478,24.46,35,3,0.8
3540360,1744865939980,0.0,135,,-0.0,-0.37,0.9,-26,1,1,0.98,1.06,92,5353,17.3,4.27,,12.6,1.082,68.2,,31.4,5,,,,,,,,,,,,0,0,0,0,0,0,0,0,0,0,0,0,0,0,0,0,,,,,0.0,,,,,,
3540380,1744865939992,,,,,,,,,,,,,,,,,,,,,,,,,,,,,,,,,,0,0,0,0,0,0,0,0,0,0,0,0,0,0,0,0,,,,,,,,,,,
3540400,1744865940012,0.0,135,,-0.02,-0.34,0.91,-24,1,1,0.98,1.06,92,5353,17.3,4.27,,12.73,1.099,68.2,,31.4,5,,,,,,,,,,,,0,0,0,0,0,0,0,0,0,0,0,0,0,0,0,0,,,,,0.0,,,,,,
3540420,1744865940032,,,,,,,,,,,,,,,,,,,,,,,,,,,,,,,,,,0,0,0,0,0,0,0,0,0,0,0,0,0,0,0,0,,,,,,,,,,,
3540440,1744865940052,0.0,135,,-0.02,-0.27,0.94,-22,1,1,0.97,1.06,92,5290,9.1,3.98,,12.25,1.103,68.2,,31.0,5,16,0,16,16,0.0,95.0,0.0,0.0,2.26,,,0,0,0,0,0,0,0,0,0,0,0,0,0,0,0,0,1,,,,0.0,38.985733,-76.95047,24.86,34,3,0.8
3540460,1744865940072,,,,,,,,,,,,,,,,,,,,,,,,,,,,,,,,,,0,0,0,0,0,0,0,0,0,0,0,0,0,0,0,0,,,,,,,,,,,
3540480,1744865940102,0.0,135,,-0.01,-0.22,0.92,-19,1,0,0.95,1.06,90,5201,3.9,3.48,,11.83,1.09,68.2,,31.0,5,,,,,,,,,,,,0,0,0,0,0,0,0,0,0,0,0,0,0,0,0,0,,,,,0.0,,,,,,
3540500,1744865940122,,,,,,,,,,,,,,,,,,,,,,,,,,,,,,,,,,0,0,0,0,0,0,0,0,0,0,0,0,0,0,0,0,,,,,,,,,,,
3540520,1744865940142,0.0,135,,-0.0,-0.15,0.96,-16,1,0,0.97,1.06,92,5113,3.3,3.28,,11.83,1.09,68.2,,31.0,5,,,,,,,,,,,,0,0,0,0,0,0,0,0,0,0,0,0,0,0,0,0,,,,,0.0,,,,,,
3540540,1744865940162,,,,,,,,,,,,,,,,,,,,,,,16,0,16,15,0.0,30.0,0.0,0.0,2.26,,,0,0,0,0,0,0,0,0,0,0,0,0,0,0,0,0,1,,,,,38.985733,-76.950462,25.39,34,3,0.8
3540560,1744865940182,0.0,135,,0.02,-0.04,0.94,-13,1,-0,0.94,1.06,89,5009,3.0,3.29,,11.45,1.057,68.2,,30.1,5,,,,,,,,,,,,0,0,0,0,0,0,0,0,0,0,0,0,0,0,0,0,,,,,0.0,,,,,,
3540580,1744865940200,,,,,,,,,,,,,,,,,,,,,,,,,,,,,,,,,,0,0,0,0,0,0,0,0,0,0,0,0,0,0,0,0,,,,,,,,,,,
3540600,1744865940220,0.0,135,,-0.03,0.04,0.97,-9,0,-0,0.97,1.06,92,5009,3.0,3.29,,11.22,1.027,68.2,,30.1,5,,,,,,,,,,,,0,0,0,0,0,0,0,0,0,0,0,0,0,0,0,0,,,,,0.0,,,,,,
3540620,1744865940240,,,,,,,,,,,,,,,,,,,,,,,,,,,,,,,,,,0,0,0,0,0,0,0,0,0,0,0,0,0,0,0,0,,,,,,,,,,,
3540640,1744865940260,0.0,135,,-0.0,-0.01,0.94,-5,-0,-1,0.94,1.06,89,4869,2.9,3.25,,11.16,1.0,68.2,,30.1,5,16,0,16,16,0.0,248.0,0.0,0.0,2.26,,,0,0,0,0,0,0,0,0,0,0,0,0,0,0,0,0,0,,,,0.0,38.985729,-76.950455,25.49,34,3,0.8
3540660,1744865940280,,,,,,,,,,,,,,,,,,,,,,,,,,,,,,,,,,0,0,0,0,0,0,0,0,0,0,0,0,0,0,0,0,,,,,,,,,,,
3540680,1744865940300,0.0,135,,-0.09,0.13,0.98,-0,-0,-1,1.0,1.06,94,4781,2.9,3.22,,11.17,1.016,68.2,,29.5,5,,,,,,,,,,,,0,0,0,0,0,0,0,0,0,0,0,0,0,0,0,0,,,,,0.0,,,,,,
3540700,1744865940320,,,,,,,,,,,,,,,,,,,,,,,,,,,,,,,,,,0,0,0,0,0,0,0,0,0,0,0,0,0,0,0,0,,,,,,,,,,,
3540720,1744865940340,0.0,135,,-0.07,0.13,1.01,4,-1,-1,1.03,1.06,97,5003,4.0,3.35,,11.14,1.001,68.2,,29.5,5,,,,,,,,,,,,0,0,0,0,0,0,0,0,0,0,0,0,0,0,0,0,,,,,0.0,,,,,,
3540740,1744865940360,,,,,,,,,,,,,,,,,,,,,,,17,0,16,15,0.0,248.0,0.0,0.0,2.26,,,0,0,0,0,0,0,0,0,0,0,0,0,0,0,0,0,0,,,,,38.985725,-76.950455,25.44,34,3,0.8
3540760,1744865940380,0.0,135,,-0.08,0.2,0.99,7,-1,-1,1.01,1.06,95,5003,4.0,3.35,,11.14,1.001,68.2,,30.0,5,,,,,,,,,,,,0,0,0,0,0,0,0,0,0,0,0,0,0,0,0,0,,,,,0.0,,,,,,
3540780,1744865940402,,,,,,,,,,,,,,,,,,,,,,,,,,,,,,,,,,0,0,0,0,0,0,0,0,0,0,0,0,0,0,0,0,,,,,,,,,,,
3540800,1744865940422,0.0,135,,-0.09,0.28,0.96,11,-1,-1,1.0,1.06,94,5158,5.7,3.46,,11.14,0.993,68.2,,30.0,5,,,,,,,,,,,,0,0,0,0,0,0,0,0,0,0,0,0,0,0,0,0,,,,,0.0,,,,,,
3540820,1744865940442,,,,,,,,,,,,,,,,,,,,,,,,,,,,,,,,,,0,0,0,0,0,0,0,0,0,0,0,0,0,0,0,0,,,,,,,,,,,
3540840,1744865940462,0.0,135,,-0.09,0.32,0.97,14,-1,-1,1.03,1.06,97,5109,6.1,3.45,,11.29,0.984,68.2,,29.7,5,16,0,16,15,0.0,4.0,0.0,0.0,2.25,,,0,0,0,0,0,0,0,0,0,0,0,0,0,0,0,0,0,,,,0.0,38.985725,-76.950439,24.79,34,3,0.8
3540860,1744865940482,,,,,,,,,,,,,,,,,,,,,,,,,,,,,,,,,,0,0,0,0,0,0,0,0,0,0,0,0,0,0,0,0,,,,,,,,,,,
3540880,1744865940500,0.0,135,,-0.07,0.32,1.03,17,-1,-1,1.08,1.08,100,5002,6.1,3.43,,11.32,0.995,68.2,,29.7,5,,,,,,,,,,,,0,0,0,0,0,0,0,0,0,0,0,0,0,0,0,0,,,,,0.0,,,,,,
3540900,1744865940520,,,,,,,,,,,,,,,,,,,,,,,,,,,,,,,,,,0,0,0,0,0,0,0,0,0,0,0,0,0,0,0,0,,,,,,,,,,,
3540920,1744865940540,0.0,135,,-0.08,0.34,0.96,20,-1,-1,1.02,1.08,94,4901,6.4,3.46,,11.45,1.003,68.2,,29.7,5,,,,,,,,,,,,0,0,0,0,0,0,0,0,0,0,0,0,0,0,0,0,,,,,0.0,,,,,,
3540940,1744865940560,,,,,,,,,,,,,,,,,,,,,,,16,0,16,14,0.0,252.0,0.0,0.0,2.25,,,0,0,0,0,0,0,0,0,0,0,0,0,0,0,0,0,0,,,,,38.985722,-76.950432,23.94,34,3,0.8
3540960,1744865940580,0.0,135,,-0.06,0.35,1.0,24,-1,-1,1.06,1.08,98,4814,7.5,3.49,,11.45,1.003,68.2,,28.7,5,,,,,,,,,,,,0,0,0,0,0,0,0,0,0,0,0,0,0,0,0,0,,,,,0.0,,,,,,
3540980,1744865940600,,,,,,,,,,,,,,,,,,,,,,,,,,,,,,,,,,0,0,0,0,0,0,0,0,0,0,0,0,0,0,0,0,,,,,,,,,,,
3541000,1744865940620,0.0,135,,-0.1,0.47,1.05,26,-1,-1,1.16,1.16,100,4814,7.5,3.49,,11.57,1.005,68.2,,28.7,5,,,,,,,,,,,,0,0,0,0,0,0,0,0,0,0,0,0,0,0,0,0,,,,,0.0,,,,,,
3541020,1744865940640,,,,,,,,,,,,,,,,,,,,,,,,,,,,,,,,,,0,0,0,0,0,0,0,0,0,0,0,0,0,0,0,0,,,,,,,,,,,
3541040,1744865940660,0.0,135,,-0.1,0.41,0.97,27,-2,-1,1.06,1.16,92,4703,10.0,3.65,,11.91,1.006,68.2,,28.6,5,16,0,16,13,0.0,0.0,0.0,0.0,2.25,,,0,0,0,0,0,0,0,0,0,0,0,0,0,0,0,0,0,,,,0.0,38.985722,-76.950424,23.83,34,3,0.8
3541060,1744865940680,,,,,,,,,,,,,,,,,,,,,,,,,,,,,,,,,,0,0,0,0,0,0,0,0,0,0,0,0,0,0,0,0,,,,,,,,,,,
3541080,1744865940699,0.0,135,,-0.08,0.35,0.99,30,-2,-1,1.05,1.16,91,4767,14.1,3.95,,12.4,0.999,68.2,,28.6,5,,,,,,,,,,,,0,0,0,0,0,0,0,0,0,0,0,0,0,0,0,0,,,,,0.0,,,,,,
3541100,1744865940719,,,,,,,,,,,,,,,,,,,,,,,,,,,,,,,,,,0,0,0,0,0,0,0,0,0,0,0,0,0,0,0,0,,,,,,,,,,,
3541120,1744865940739,0.0,135,,-0.11,0.44,1.05,32,-2,-1,1.14,1.16,99,4804,18.1,4.23,,12.87,1.011,68.2,,28.6,5,,,,,,,,,,,,0,0,0,0,0,0,0,0,0,0,0,0,0,0,0,0,,,,,0.0,,,,,,
3541140,1744865940759,,,,,,,,,,,,,,,,,,,,,,,16,0,15,13,0.0,202.0,0.0,0.0,2.26,,,0,0,0,0,0,0,0,0,0,0,0,0,0,0,0,0,0,,,,,38.985718,-76.950417,23.48,34,3,0.8
3541160,1744865940779,0.0,135,,-0.1,0.33,0.98,33,-3,-1,1.04,1.16,90,4834,18.4,4.28,,12.87,1.011,68.2,,28.1,5,,,,,,,,,,,,0,0,0,0,0,0,0,0,0,0,0,0,0,0,0,0,,,,,0.0,,,,,,
3541180,1744865940799,,,,,,,,,,,,,,,,,,,,,,,,,,,,,,,,,,0,0,0,0,0,0,0,0,0,0,0,0,0,0,0,0,,,,,,,,,,,
3541200,1744865940819,0.0,135,,-0.11,0.43,1.04,35,-3,-1,1.13,1.16,98,4834,18.4,4.28,,13.11,1.046,68.2,,28.1,5,,,,,,,,,,,,0,0,0,0,0,0,0,0,0,0,0,0,0,0,0,0,,,,,0.0,,,,,,
3541220,1744865940839,,,,,,,,,,,,,,,,,,,,,,,,,,,,,,,,,,0,0,0,0,0,0,0,0,0,0,0,0,0,0,0,0,,,,,,,,,,,
3541240,1744865940859,0.0,135,13.32,-0.11,0.35,0.97,36,-3,-1,1.03,1.16,89,4889,18.8,4.28,15,13.24,1.081,68.2,169,28.1,5,15,0,15,14,0.0,214.0,0.0,0.0,2.26,0,0.0,0,0,0,0,0,0,0,0,0,0,0,0,0,0,0,0,0,0.0,0,0,0.0,38.985718,-76.950417,23.17,34,3,0.8
3541260,1744865940879,,,,,,,,,,,,,,,,,,,,,,,,,,,,,,,,,,0,0,0,0,0,0,0,0,0,0,0,0,0,0,0,0,,,,,,,,,,,
3541280,1744865940899,0.0,135,,-0.13,0.41,0.99,37,-3,-1,1.08,1.16,93,4976,19.2,4.31,,13.24,1.117,68.2,,28.4,5,,,,,,,,,,,,0,0,0,0,0,0,0,0,0,0,0,0,0,0,0,0,,,,,0.0,,,,,,
3541300,1744865940919,,,,,,,,,,,,,,,,,,,,,,,,,,,,,,,,,,0,0,0,0,0,0,0,0,0,0,0,0,0,0,0,0,,,,,,,,,,,
3541320,1744865940939,0.0,135,,-0.06,0.46,1.04,39,-2,-1,1.14,1.16,98,5018,19.2,4.3,,13.21,1.134,68.2,,28.4,5,,,,,,,,,,,,0,0,0,0,0,0,0,0,0,0,0,0,0,0,0,0,,,,,0.0,,,,,,
3541340,1744865940959,,,,,,,,,,,,,,,,,,,,,,,15,0,15,13,0.0,18.0,0.0,0.0,2.25,,,0,0,0,0,0,0,0,0,0,0,0,0,0,0,0,0,0,,,,,38.985718,-76.950409,23.31,34,3,0.8
3541360,1744865940979,0.0,135,,-0.08,0.5,1.02,39,-2,-1,1.13,1.16,98,4775,19.2,4.3,,13.21,1.134,68.2,,27.7,5,,,,,,,,,,,,0,0,0,0,0,0,0,0,0,0,0,0,0,0,0,0,,,,,0.0,,,,,,
3541380,1744865940993,,,,,,,,,,,,,,,,,,,,,,,,,,,,,,,,,,0,0,0,0,0,0,0,0,0,0,0,0,0,0,0,0,,,,,,,,,,,
3541400,1744865941013,0.0,135,,-0.08,0.42,0.95,41,-2,-1,1.04,1.16,90,4775,19.2,4.3,,13.37,1.132,68.2,,27.7,5,,,,,,,,,,,,0,0,0,0,0,0,0,0,0,0,0,0,0,0,0,0,,,,,0.0,,,,,,
3541420,1744865941033,,,,,,,,,,,,,,,,,,,,,,,,,,,,,,,,,,0,0,0,0,0,0,0,0,0,0,0,0,0,0,0,0,,,,,,,,,,,
3541440,1744865941053,0.0,135,,-0.08,0.31,0.88,42,-2,-1,0.94,1.16,81,4581,19.1,4.28,,13.39,1.122,68.2,,27.9,5,16,0,16,13,0.0,252.0,0.0,0.0,2.26,,,0,0,0,0,0,0,0,0,0,0,0,0,0,0,0,0,1,,,,0.0,38.985718,-76.950394,22.51,34,3,0.8
3541460,1744865941073,,,,,,,,,,,,,,,,,,,,,,,,,,,,,,,,,,0,0,0,0,0,0,0,0,0,0,0,0,0,0,0,0,,,,,,,,,,,
3541480,1744865941097,0.0,135,,-0.07,0.22,0.78,44,-2,-2,0.82,1.16,70,4591,19.2,4.29,,13.52,1.094,68.2,,27.9,5,,,,,,,,,,,,0,0,0,0,0,0,0,0,0,0,0,0,0,0,0,0,,,,,0.0,,,,,,
3541500,1744865941117,,,,,,,,,,,,,,,,,,,,,,,,,,,,,,,,,,0,0,0,0,0,0,0,0,0,0,0,0,0,0,0,0,,,,,,,,,,,
3541520,1744865941137,0.0,135,,-0.05,0.27,0.82,45,-2,-2,0.86,1.16,74,4701,19.4,4.31,,13.52,1.094,68.2,,27.9,5,,,,,,,,,,,,0,0,0,0,0,0,0,0,0,0,0,0,0,0,0,0,,,,,0.0,,,,,,
3541540,1744865941157,,,,,,,,,,,,,,,,,,,,,,,16,0,15,13,0.0,239.0,0.0,0.0,2.27,,,0,0,0,0,0,0,0,0,0,0,0,0,0,0,0,0,1,,,,,38.985722,-76.950386,23.4,34,3,0.8
3541560,1744865941177,0.0,135,,-0.07,0.45,0.94,46,-3,-1,1.05,1.16,90,4757,19.3,4.31,,13.53,1.099,68.2,,28.1,5,,,,,,,,,,,,0,0,0,0,0,0,0,0,0,0,0,0,0,0,0,0,,,,,0.0,,,,,,
3541580,1744865941199,,,,,,,,,,,,,,,,,,,,,,,,,,,,,,,,,,0,0,0,0,0,0,0,0,0,0,0,0,0,0,0,0,,,,,,,,,,,
3541600,1744865941219,0.0,135,,-0.08,0.43,0.89,46,-3,-1,0.99,1.16,86,4757,19.3,4.31,,13.36,1.101,68.2,,28.1,5,,,,,,,,,,,,0,0,0,0,0,0,0,0,0,0,0,0,0,0,0,0,,,,,0.0,,,,,,
3541620,1744865941239,,,,,,,,,,,,,,,,,,,,,,,,,,,,,,,,,,0,0,0,0,0,0,0,0,0,0,0,0,0,0,0,0,,,,,,,,,,,
3541640,1744865941259,0.0,135,,-0.06,0.39,0.88,48,-3,-2,0.96,1.16,83,4770,19.1,4.3,,13.41,1.104,68.2,,28.7,5,16,0,15,13,0.0,231.0,0.0,0.0,2.26,,,0,0,0,0,0,0,0,0,0,0,0,0,0,0,0,0,0,,,,0.0,38.985722,-76.950378,23.12,34,3,0.8
3541660,1744865941279,,,,,,,,,,,,,,,,,,,,,,,,,,,,,,,,,,0,0,0,0,0,0,0,0,0,0,0,0,0,0,0,0,,,,,,,,,,,
3541680,1744865941301,0.0,135,,-0.08,0.52,0.97,48,-2,-1,1.1,1.16,95,4802,19.2,4.31,,13.43,1.125,68.2,,28.7,5,,,,,,,,,,,,0,0,0,0,0,0,0,0,0,0,0,0,0,0,0,0,,,,,0.0,,,,,,
3541700,1744865941321,,,,,,,,,,,,,,,,,,,,,,,,,,,,,,,,,,0,0,0,0,0,0,0,0,0,0,0,0,0,0,0,0,,,,,,,,,,,
3541720,1744865941341,0.0,135,,-0.09,0.46,0.9,48,-2,-1,1.01,1.01,100,4715,19.2,4.3,,13.41,1.13,68.2,,28.7,5,,,,,,,,,,,,0,0,0,0,0,0,0,0,0,0,0,0,0,0,0,0,,,,,0.0,,,,,,
3541740,1744865941361,,,,,,,,,,,,,,,,,,,,,,,16,0,15,13,0.0,243.0,0.0,0.0,2.26,,,0,0,0,0,0,0,0,0,0,0,0,0,0,0,0,0,0,,,,,38.985725,-76.950378,22.59,34,3,0.8
3541760,1744865941381,0.0,135,,-0.06,0.37,0.86,48,-2,-1,0.94,1.01,93,4594,19.1,4.3,,13.41,1.13,68.2,,28.4,5,,,,,,,,,,,,0,0,0,0,0,0,0,0,0,0,0,0,0,0,0,0,,,,,0.0,,,,,,
3541780,1744865941401,,,,,,,,,,,,,,,,,,,,,,,,,,,,,,,,,,0,0,0,0,0,0,0,0,0,0,0,0,0,0,0,0,,,,,,,,,,,
3541800,1744865941421,0.0,135,,-0.04,0.33,0.84,50,-2,-2,0.9,1.01,89,4594,19.1,4.3,,13.51,1.113,68.2,,28.4,5,,,,,,,,,,,,0,0,0,0,0,0,0,0,0,0,0,0,0,0,0,0,,,,,0.0,,,,,,
3541820,1744865941441,,,,,,,,,,,,,,,,,,,,,,,,,,,,,,,,,,0,0,0,0,0,0,0,0,0,0,0,0,0,0,0,0,,,,,,,,,,,
3541840,1744865941461,0.0,135,,-0.03,0.47,0.91,51,-2,-2,1.03,1.03,100,4582,19.3,4.3,,13.48,1.1,68.2,,28.4,5,15,0,15,12,0.0,243.0,0.0,0.0,2.26,,,0,0,0,0,0,0,0,0,0,0,0,0,0,0,0,0,0,,,,0.0,38.985729,-76.950371,22.81,34,3,0.8
3541860,1744865941481,,,,,,,,,,,,,,,,,,,,,,,,,,,,,,,,,,0,0,0,0,0,0,0,0,0,0,0,0,0,0,0,0,,,,,,,,,,,
3541880,1744865941501,0.0,135,,-0.05,0.58,1.03,50,-1,-2,1.18,1.18,100,4601,19.3,4.3,,13.44,1.084,68.2,,28.3,5,,,,,,,,,,,,0,0,0,0,0,0,0,0,0,0,0,0,0,0,0,0,,,,,0.0,,,,,,
3541900,1744865941521,,,,,,,,,,,,,,,,,,,,,,,,,,,,,,,,,,0,0,0,0,0,0,0,0,0,0,0,0,0,0,0,0,,,,,,,,,,,
3541920,1744865941541,0.0,135,,-0.07,0.61,1.0,49,-1,-2,1.17,1.18,99,4678,19.4,4.32,,13.48,1.085,68.2,,28.3,5,,,,,,,,,,,,0,0,0,0,0,0,0,0,0,0,0,0,0,0,0,0,,,,,0.0,,,,,,
3541940,1744865941561,,,,,,,,,,,,,,,,,,,,,,,15,0,15,13,0.0,209.0,0.0,0.0,2.26,,,0,0,0,0,0,0,0,0,0,0,0,0,0,0,0,0,0,,,,,38.985733,-76.950363,22.93,34,3,0.8
3541960,1744865941581,0.0,135,,-0.03,0.52,0.92,49,-1,-2,1.06,1.18,89,4703,19.4,4.32,,13.48,1.085,68.2,,28.1,5,,,,,,,,,,,,0,0,0,0,0,0,0,0,0,0,0,0,0,0,0,0,,,,,0.0,,,,,,
3541980,1744865941601,,,,,,,,,,,,,,,,,,,,,,,,,,,,,,,,,,0,0,0,0,0,0,0,0,0,0,0,0,0,0,0,0,,,,,,,,,,,
3542000,1744865941621,0.0,135,,-0.01,0.55,0.97,51,-1,-3,1.11,1.18,94,4703,19.4,4.32,,13.47,1.092,68.2,,28.1,5,,,,,,,,,,,,0,0,0,0,0,0,0,0,0,0,0,0,0,0,0,0,,,,,0.0,,,,,,
3542020,1744865941641,,,,,,,,,,,,,,,,,,,,,,,,,,,,,,,,,,0,0,0,0,0,0,0,0,0,0,0,0,0,0,0,0,,,,,,,,,,,
3542040,1744865941661,0.0,135,,-0.04,0.69,1.05,50,-1,-2,1.26,1.26,100,4674,19.3,4.31,,13.48,1.101,68.2,,28.4,5,16,0,15,13,0.0,235.0,0.0,0.0,2.26,,,0,0,0,0,0,0,0,0,0,0,0,0,0,0,0,0,0,,,,0.0,38.985733,-76.950356,22.25,34,3,0.8
3542060,1744865941681,,,,,,,,,,,,,,,,,,,,,,,,,,,,,,,,,,0,0,0,0,0,0,0,0,0,0,0,0,0,0,0,0,,,,,,,,,,,
3542080,1744865941700,0.0,135,,-0.07,0.66,1.0,50,-1,-2,1.2,1.26,95,4609,19.4,4.31,,13.44,1.097,68.2,,28.4,5,,,,,,,,,,,,0,0,0,0,0,0,0,0,0,0,0,0,0,0,0,0,,,,,0.0,,,,,,
3542100,1744865941720,,,,,,,,,,,,,,,,,,,,,,,,,,,,,,,,,,0,0,0,0,0,0,0,0,0,0,0,0,0,0,0,0,,,,,,,,,,,
3542120,1744865941740,0.0,135,,-0.07,0.57,0.91,50,-1,-2,1.08,1.26,86,4608,19.2,4.3,,13.4,1.087,68.2,,28.4,5,,,,,,,,,,,,0,0,0,0,0,0,0,0,0,0,0,0,0,0,0,0,,,,,0.0,,,,,,
3542140,1744865941760,,,,,,,,,,,,,,,,,,,,,,,16,0,15,13,0.0,235.0,0.0,0.0,2.26,,,0,0,0,0,0,0,0,0,0,0,0,0,0,0,0,0,0,,,,,38.985737,-76.950348,22.85,34,3,0.8
3542160,1744865941780,0.0,135,,-0.05,0.44,0.87,51,-1,-3,0.97,1.26,77,4608,19.2,4.3,,13.4,1.087,68.2,,28.1,5,,,,,,,,,,,,0,0,0,0,0,0,0,0,0,0,0,0,0,0,0,0,,,,,0.0,,,,,,
3542180,1744865941800,,,,,,,,,,,,,,,,,,,,,,,,,,,,,,,,,,0,0,0,0,0,0,0,0,0,0,0,0,0,0,0,0,,,,,,,,,,,
3542200,1744865941820,0.0,135,,-0.03,0.51,0.93,53,-1,-4,1.06,1.26,84,4589,19.2,4.3,,13.48,1.072,68.2,,28.1,5,,,,,,,,,,,,0,0,0,0,0,0,0,0,0,0,0,0,0,0,0,0,,,,,0.0,,,,,,
3542220,1744865941840,,,,,,,,,,,,,,,,,,,,,,,,,,,,,,,,,,0,0,0,0,0,0,0,0,0,0,0,0,0,0,0,0,,,,,,,,,,,
3542240,1744865941860,0.0,135,13.47,-0.02,0.66,1.06,53,-1,-3,1.25,1.26,99,4629,19.2,4.3,15,13.52,1.071,68.2,169,28.2,5,16,0,15,13,0.0,221.0,0.0,0.0,2.26,0,0.0,0,0,0,0,0,0,0,0,0,0,0,0,0,0,0,0,0,0.0,0,0,0.0,38.985741,-76.950348,22.2,34,3,0.8
3542260,1744865941880,,,,,,,,,,,,,,,,,,,,,,,,,,,,,,,,,,0,0,0,0,0,0,0,0,0,0,0,0,0,0,0,0,,,,,,,,,,,
3542280,1744865941900,0.0,135,,-0.02,0.76,1.14,51,-2,-2,1.37,1.37,100,4646,19.1,4.29,,13.49,1.083,68.2,,28.2,5,,,,,,,,,,,,0,0,0,0,0,0,0,0,0,0,0,0,0,0,0,0,,,,,0.0,,,,,,
3542300,1744865941920,,,,,,,,,,,,,,,,,,,,,,,,,,,,,,,,,,0,0,0,0,0,0,0,0,0,0,0,0,0,0,0,0,,,,,,,,,,,
3542320,1744865941940,0.0,135,,-0.04,0.76,1.12,50,-2,-1,1.36,1.37,99,4576,19.2,4.3,,13.52,1.08,68.2,,28.2,5,,,,,,,,,,,,0,0,0,0,0,0,0,0,0,0,0,0,0,0,0,0,,,,,0.0,,,,,,
3542340,1744865941960,,,,,,,,,,,,,,,,,,,,,,,15,0,15,13,0.0,13.0,0.0,0.0,2.26,,,0,0,0,0,0,0,0,0,0,0,0,0,0,0,0,0,0,,,,,38.985748,-76.95034,22.17,34,3,0.8
3542360,1744865941980,0.0,135,,-0.05,0.76,1.15,49,-3,-0,1.38,1.38,100,4509,19.4,4.3,,13.52,1.08,68.2,,28.4,5,,,,,,,,,,,,0,0,0,0,0,0,0,0,0,0,0,0,0,0,0,0,,,,,0.0,,,,,,
3542380,1744865941992,,,,,,,,,,,,,,,,,,,,,,,,,,,,,,,,,,0,0,0,0,0,0,0,0,0,0,0,0,0,0,0,0,,,,,,,,,,,
3542400,1744865942012,0.0,135,,-0.07,0.75,1.15,47,-3,0,1.37,1.38,100,4509,19.4,4.3,,13.51,1.085,68.2,,28.4,5,,,,,,,,,,,,0,0,0,0,0,0,0,0,0,0,0,0,0,0,0,0,,,,,0.0,,,,,,
3542420,1744865942032,,,,,,,,,,,,,,,,,,,,,,,,,,,,,,,,,,0,0,0,0,0,0,0,0,0,0,0,0,0,0,0,0,,,,,,,,,,,
3542440,1744865942052,0.0,135,,-0.08,0.75,1.17,46,-4,1,1.39,1.39,100,4470,19.2,4.3,,13.6,1.088,68.2,,28.4,5,15,0,15,13,0.0,218.0,0.0,0.0,2.26,,,0,0,0,0,0,0,0,0,0,0,0,0,0,0,0,0,1,,,,0.0,38.985752,-76.95034,22.85,35,3,0.8
3542460,1744865942072,,,,,,,,,,,,,,,,,,,,,,,,,,,,,,,,,,0,0,0,0,0,0,0,0,0,0,0,0,0,0,0,0,,,,,,,,,,,
3542480,1744865942098,0.0,135,,-0.1,0.71,1.13,45,-4,1,1.34,1.39,96,4527,19.4,4.3,,13.52,1.078,68.2,,28.1,5,,,,,,,,,,,,0,0,0,0,0,0,0,0,0,0,0,0,0,0,0,0,,,,,0.0,,,,,,
3542500,1744865942118,,,,,,,,,,,,,,,,,,,,,,,,,,,,,,,,,,0,0,0,0,0,0,0,0,0,0,0,0,0,0,0,0,,,,,,,,,,,
3542520,1744865942138,0.0,135,,-0.12,0.61,1.05,45,-4,1,1.22,1.39,88,4542,19.2,4.3,,13.53,1.084,68.2,,28.1,5,,,,,,,,,,,,0,0,0,0,0,0,0,0,0,0,0,0,0,0,0,0,,,,,0.0,,,,,,
3542540,1744865942158,,,,,,,,,,,,,,,,,,,,,,,15,0,15,12,0.0,200.0,0.0,0.0,2.25,,,0,0,0,0,0,0,0,0,0,0,0,0,0,0,0,0,1,,,,,38.985756,-76.95034,22.71,35,3,0.8
3542560,1744865942178,0.0,135,,-0.11,0.5,0.97,45,-4,2,1.09,1.39,79,4536,19.4,4.3,,13.53,1.084,68.2,,28.2,5,,,,,,,,,,,,0,0,0,0,0,0,0,0,0,0,0,0,0,0,0,0,,,,,0.0,,,,,,
3542580,1744865942200,,,,,,,,,,,,,,,,,,,,,,,,,,,,,,,,,,0,0,0,0,0,0,0,0,0,0,0,0,0,0,0,0,,,,,,,,,,,
3542600,1744865942220,0.0,135,,-0.12,0.32,0.86,45,-4,1,0.92,1.39,66,4536,19.4,4.3,,13.53,1.088,68.2,,28.2,5,,,,,,,,,,,,0,0,0,0,0,0,0,0,0,0,0,0,0,0,0,0,,,,,0.0,,,,,,
3542620,1744865942240,,,,,,,,,,,,,,,,,,,,,,,,,,,,,,,,,,0,0,0,0,0,0,0,0,0,0,0,0,0,0,0,0,,,,,,,,,,,
3542640,1744865942260,0.0,135,,-0.12,0.19,0.77,46,-4,0,0.8,1.39,58,4493,19.2,4.29,,13.45,1.09,68.2,,27.8,5,15,0,15,12,0.0,42.0,0.0,0.0,2.26,,,0,0,0,0,0,0,0,0,0,0,0,0,0,0,0,0,0,,,,0.0,38.98576,-76.950333,22.13,35,3,0.8
3542660,1744865942280,,,,,,,,,,,,,,,,,,,,,,,,,,,,,,,,,,0,0,0,0,0,0,0,0,0,0,0,0,0,0,0,0,,,,,,,,,,,
3542680,1744865942302,0.0,135,,-0.14,0.09,0.67,47,-4,-0,0.69,1.39,50,4513,19.2,4.31,,13.53,1.092,68.2,,27.8,5,,,,,,,,,,,,0,0,0,0,0,0,0,0,0,0,0,0,0,0,0,0,,,,,0.0,,,,,,
3542700,1744865942322,,,,,,,,,,,,,,,,,,,,,,,,,,,,,,,,,,0,0,0,0,0,0,0,0,0,0,0,0,0,0,0,0,,,,,,,,,,,
3542720,1744865942342,0.0,135,,-0.13,-0.0,0.6,47,-4,-1,0.61,1.39,44,4532,19.2,4.3,,13.49,1.087,68.2,,27.8,5,,,,,,,,,,,,0,0,0,0,0,0,0,0,0,0,0,0,0,0,0,0,,,,,0.0,,,,,,
3542740,1744865942362,,,,,,,,,,,,,,,,,,,,,,,15,0,15,13,0.0,229.0,0.0,0.0,2.26,,,0,0,0,0,0,0,0,0,0,0,0,0,0,0,0,0,0,,,,,38.985767,-76.950333,22.57,35,3,0.8
3542760,1744865942382,0.0,135,,-0.14,-0.1,0.54,48,-4,-1,0.57,1.39,41,4588,19.1,4.29,,13.49,1.087,68.2,,27.7,5,,,,,,,,,,,,0,0,0,0,0,0,0,0,0,0,0,0,0,0,0,0,,,,,0.0,,,,,,
3542780,1744865942400,,,,,,,,,,,,,,,,,,,,,,,,,,,,,,,,,,0,0,0,0,0,0,0,0,0,0,0,0,0,0,0,0,,,,,,,,,,,
3542800,1744865942420,0.0,135,,-0.13,-0.15,0.49,49,-4,-2,0.52,1.39,38,4588,19.1,4.29,,13.57,1.094,68.2,,27.7,5,,,,,,,,,,,,0,0,0,0,0,0,0,0,0,0,0,0,0,0,0,0,,,,,0.0,,,,,,
3542820,1744865942440,,,,,,,,,,,,,,,,,,,,,,,,,,,,,,,,,,0,0,0,0,0,0,0,0,0,0,0,0,0,0,0,0,,,,,,,,,,,
3542840,1744865942460,0.0,135,,-0.12,-0.17,0.46,51,-3,-3,0.51,1.39,36,4557,19.2,4.3,,13.49,1.1,68.2,,27.7,5,15,0,15,13,0.0,221.0,0.0,0.0,2.26,,,0,0,0,0,0,0,0,0,0,0,0,0,0,0,0,0,1,,,,0.0,38.985775,-76.950333,21.98,35,3,0.8
3542860,1744865942480,,,,,,,,,,,,,,,,,,,,,,,,,,,,,,,,,,0,0,0,0,0,0,0,0,0,0,0,0,0,0,0,0,,,,,,,,,,,
3542880,1744865942502,0.0,135,,-0.08,-0.1,0.49,52,-3,-3,0.5,1.39,36,4497,19.3,4.29,,13.56,1.095,68.2,,27.7,5,,,,,,,,,,,,0,0,0,0,0,0,0,0,0,0,0,0,0,0,0,0,,,,,0.0,,,,,,
3542900,1744865942522,,,,,,,,,,,,,,,,,,,,,,,,,,,,,,,,,,0,0,0,0,0,0,0,0,0,0,0,0,0,0,0,0,,,,,,,,,,,
3542920,1744865942542,0.0,135,,-0.06,-0.13,0.49,53,-3,-3,0.51,1.39,37,4448,19.3,4.29,,13.48,1.074,68.2,,27.7,5,,,,,,,,,,,,0,0,0,0,0,0,0,0,0,0,0,0,0,0,0,0,,,,,0.0,,,,,,
3542940,1744865942562,,,,,,,,,,,,,,,,,,,,,,,15,0,15,13,0.0,0.0,0.0,0.0,2.25,,,0,0,0,0,0,0,0,0,0,0,0,0,0,0,0,0,1,,,,,38.985775,-76.950333,21.93,35,3,0.8
3542960,1744865942582,0.0,135,,-0.06,-0.17,0.46,53,-3,-3,0.49,1.39,35,4438,19.4,4.31,,13.48,1.074,68.2,,27.6,5,,,,,,,,,,,,0,0,0,0,0,0,0,0,0,0,0,0,0,0,0,0,,,,,0.0,,,,,,
3542980,1744865942602,,,,,,,,,,,,,,,,,,,,,,,,,,,,,,,,,,0,0,0,0,0,0,0,0,0,0,0,0,0,0,0,0,,,,,,,,,,,
3543000,1744865942622,0.0,135,,-0.09,-0.24,0.43,53,-2,-4,0.5,1.39,36,4438,19.4,4.31,,13.53,1.072,68.2,,27.6,5,,,,,,,,,,,,0,0,0,0,0,0,0,0,0,0,0,0,0,0,0,0,,,,,0.0,,,,,,
3543020,1744865942642,,,,,,,,,,,,,,,,,,,,,,,,,,,,,,,,,,0,0,0,0,0,0,0,0,0,0,0,0,0,0,0,0,,,,,,,,,,,
3543040,1744865942662,0.0,135,,-0.09,-0.31,0.41,53,-3,-4,0.52,1.39,37,4488,19.3,4.31,,13.48,1.072,68.2,,27.3,5,15,0,15,13,0.0,234.0,0.0,0.0,2.26,,,0,0,0,0,0,0,0,0,0,0,0,0,0,0,0,0,0,,,,0.0,38.985783,-76.950333,21.65,35,3,0.8
3543060,1744865942682,,,,,,,,,,,,,,,,,,,,,,,,,,,,,,,,,,0,0,0,0,0,0,0,0,0,0,0,0,0,0,0,0,,,,,,,,,,,
3543080,1744865942702,0.0,135,,-0.12,-0.35,0.37,53,-3,-4,0.52,1.39,38,4527,19.4,4.3,,13.52,1.093,68.2,,27.3,5,,,,,,,,,,,,0,0,0,0,0,0,0,0,0,0,0,0,0,0,0,0,,,,,0.0,,,,,,
3543100,1744865942722,,,,,,,,,,,,,,,,,,,,,,,,,,,,,,,,,,0,0,0,0,0,0,0,0,0,0,0,0,0,0,0,0,,,,,,,,,,,
3543120,1744865942742,0.0,135,,-0.11,-0.37,0.36,53,-3,-4,0.53,1.39,38,4504,19.4,4.29,,13.47,1.098,68.2,,27.3,5,,,,,,,,,,,,0,0,0,0,0,0,0,0,0,0,0,0,0,0,0,0,,,,,0.0,,,,,,
3543140,1744865942762,,,,,,,,,,,,,,,,,,,,,,,15,0,15,13,0.0,234.0,0.0,0.0,2.25,,,0,0,0,0,0,0,0,0,0,0,0,0,0,0,0,0,0,,,,,38.98579,-76.950333,22.2,35,3,0.8
