"Interval"|"ms"|0|0|1,"Utc"|"ms"|0|0|1,"FrontBP"|"psi"|-5.0|5.0|25,"SteerAng"|"Degrees"|-145|145|25,"Battery"|"Volts"|-5.0|20.0|1,"AccelX"|"G"|-3.0|3.0|25,"AccelY"|"G"|-3.0|3.0|25,"AccelZ"|"G"|-3.0|3.0|25,"Yaw"|"Deg/Sec"|-120|120|25,"Pitch"|"Deg/Sec"|-120|120|25,"Roll"|"Deg/Sec"|-120|120|25,"Gsum"|"G"|0.0|3.0|25,"GsumMax"|"G"|0.0|3.0|25,"GsumPct"|"%"|0|100|25,"RPM"|""|0|10000|25,"TPS"|"%"|0.0|100.0|25,"InjectorPW"|"ms"|0.0|100.0|25,"Baro"|"kPa"|0|105|1,"MAP"|"Psi"|0.0|255.0|25,"Lambda"|""|-2.0|2.0|25,"IAT"|"C"|0.0|200.0|25,"EngineTemp"|"C"|0|200|1,"EOP"|"PSI"|0.0|152.0|25,"EOT"|"F"|0|250|25,"WSFR"|"MPH"|0|150|10,"WSFL"|"MPH"|0|100|10,"WSRR"|"MPH"|0|100|10,"WSRL"|""|0|100|10,"TCSet"|"%"|0.0|100.0|10,"TCSlip"|"%"|0.0|100.0|10,"TCComp"|"deg"|0.0|50.0|10,"TCCut"|"%"|0.0|100.0|10,"Analog8"|""|0.0|5.0|10,"OilTemp"|"F"|0|300|1,"AA_On"|""|0.0|1.0|1,"ThermLF1"|"C"|0|400|50,"ThermLF2"|"C"|0|400|50,"ThermRR1"|"C"|0|400|50,"ThermRR2"|"C"|0|400|50,"ThermLF3"|"C"|0|400|50,"ThermLF4"|"C"|0|400|50,"ThermLF5"|"C"|0|400|50,"ThermLF6"|"C"|0|400|50,"ThermLF7"|"C"|0|400|50,"ThermLF8"|"C"|0|400|50,"ThermRR3"|"C"|0|400|50,"ThermRR4"|"C"|0|400|50,"ThermRR5"|"C"|0|400|50,"ThermRR6"|"C"|0|400|50,"ThermRR7"|"C"|0|400|50,"ThermRR8"|"C"|0|400|50,"AA_LowDrag"|""|0|1|1,"Gear"|""|1|6|10,"AA_On"|""|0.0|1.0|1,"AA_LowDrag"|""|0|1|1,"Fuel_Mix"|""|-10|10|1,"AA_Packages"|""|0.0|1000.0|25,"Latitude"|"Degrees"|-180.0|180.0|10,"Longitude"|"Degrees"|-180.0|180.0|10,"Speed"|"kph"|0.0|150.0|10,"Altitude"|"m"|0.0|4000.0|10,"GPSSats"|""|0|20|10,"GPSQual"|""|0|5|10,"GPSDOP"|""|0.0|20.0|10
334204,0,,,,,,,,,,,,,,,,,,,,,,,,,,,,,,,,,,0,0,0,0,0,0,0,0,0,0,0,0,0,0,0,0,,,,,,,,,,,,,
334224,0,0.0,3,,-0.05,-0.17,0.9,0,-0,-0,0.91,0.91,100,4207,0.0,2.78,,12.61,0.955,77.2,,63.2,5,,,,,,,,,,,,0,0,0,0,0,0,0,0,0,0,0,0,0,0,0,0,,,,,,0.0,,,,,,,
334244,0,,,,,,,,,,,,,,,,,,,,,,,,,,,,,,,,,,0,0,0,0,0,0,0,0,0,0,0,0,0,0,0,0,,,,,,,,,,,,,
334264,0,0.0,-7,,-0.05,0.03,0.95,-1,-0,-0,0.95,0.95,100,3975,0.0,2.63,,12.03,0.955,77.2,,63.2,5,,,,,,,,,,,,0,0,0,0,0,0,0,0,0,0,0,0,0,0,0,0,,,,,,0.0,,,,,,,
334284,0,,,,,,,,,,,,,,,,,,,,,,,0,146,0,0,0.0,24.0,0.0,0.0,2.25,,,0,0,0,0,0,0,0,0,0,0,0,0,0,0,0,0,,0,,,,,0.0,0.0,0.0,0.0,0,0,0.0
334304,0,0.0,7,,-0.06,0.09,0.94,-0,0,0,0.95,0.95,100,3816,1.6,3.27,,12.11,0.954,77.2,,63.2,5,,,,,,,,,,,,0,0,0,0,0,0,0,0,0,0,0,0,0,0,0,0,,,,,,0.0,,,,,,,
334324,0,,,,,,,,,,,,,,,,,,,,,,,,,,,,,,,,,,0,0,0,0,0,0,0,0,0,0,0,0,0,0,0,0,,,,,,,,,,,,,
334344,0,0.0,-10,,-0.07,0.07,0.92,-1,-0,1,0.92,0.95,97,3544,13.8,4.55,,12.11,0.954,77.2,,59.7,5,,,,,,,,,,,,0,0,0,0,0,0,0,0,0,0,0,0,0,0,0,0,,,,,,0.0,,,,,,,
334364,0,,,,,,,,,,,,,,,,,,,,,,,,,,,,,,,,,,0,0,0,0,0,0,0,0,0,0,0,0,0,0,0,0,,,,,,,,,,,,,
334384,0,0.0,-17,14.12,-0.09,0.27,0.94,-1,-1,2,0.98,0.98,100,3544,13.8,4.55,15,12.87,0.956,77.2,104,59.7,5,0,50,0,0,0.0,24.0,0.0,0.0,2.25,0,0.0,0,0,0,0,0,0,0,0,0,0,0,0,0,0,0,0,0,0,0.0,0,0,0.0,0.0,0.0,0.0,0.0,0,0,0.0
334404,0,,,,,,,,,,,,,,,,,,,,,,,,,,,,,,,,,,0,0,0,0,0,0,0,0,0,0,0,0,0,0,0,0,,,,,,,,,,,,,
334424,0,0.0,-17,,-0.1,0.2,0.98,-1,-1,-0,1.01,1.01,100,3454,27.7,4.58,,13.95,0.952,77.2,,56.3,5,,,,,,,,,,,,0,0,0,0,0,0,0,0,0,0,0,0,0,0,0,0,,,,,,0.0,,,,,,,
334444,0,,,,,,,,,,,,,,,,,,,,,,,,,,,,,,,,,,0,0,0,0,0,0,0,0,0,0,0,0,0,0,0,0,,,,,,,,,,,,,
334464,0,0.0,-7,,-0.06,0.33,0.98,-3,-1,-2,1.03,1.03,100,3579,40.4,4.29,,14.3,0.954,77.2,,56.3,5,,,,,,,,,,,,0,0,0,0,0,0,0,0,0,0,0,0,0,0,0,0,,,,,,0.0,,,,,,,
334484,0,,,,,,,,,,,,,,,,,,,,,,,0,5,0,0,0.0,24.0,0.0,0.0,2.24,,,0,0,0,0,0,0,0,0,0,0,0,0,0,0,0,0,,0,,,,,0.0,0.0,0.0,0.0,0,0,0.0
334504,0,0.0,-4,,-0.01,0.46,0.97,-2,-2,-0,1.08,1.08,100,3917,43.2,4.52,,14.38,0.956,77.2,,56.3,5,,,,,,,,,,,,0,0,0,0,0,0,0,0,0,0,0,0,0,0,0,0,,,,,,0.0,,,,,,,
334524,0,,,,,,,,,,,,,,,,,,,,,,,,,,,,,,,,,,0,0,0,0,0,0,0,0,0,0,0,0,0,0,0,0,,,,,,,,,,,,,
334544,0,0.0,-0,,-0.02,0.49,1.03,-3,-2,-1,1.13,1.13,100,4588,34.6,4.62,,14.38,0.956,77.2,,67.2,5,,,,,,,,,,,,0,0,0,0,0,0,0,0,0,0,0,0,0,0,0,0,,,,,,0.0,,,,,,,
334564,0,,,,,,,,,,,,,,,,,,,,,,,,,,,,,,,,,,0,0,0,0,0,0,0,0,0,0,0,0,0,0,0,0,,,,,,,,,,,,,
334584,0,0.0,-10,,-0.04,0.42,0.97,-2,-1,-0,1.06,1.13,93,4588,34.6,4.62,,14.1,0.952,77.2,,67.2,5,0,73,0,0,0.0,24.0,0.0,0.0,2.25,,,0,0,0,0,0,0,0,0,0,0,0,0,0,0,0,0,,0,,,,0.0,0.0,0.0,0.0,0.0,0,0,0.0
334604,0,,,,,,,,,,,,,,,,,,,,,,,,,,,,,,,,,,0,0,0,0,0,0,0,0,0,0,0,0,0,0,0,0,,,,,,,,,,,,,
334624,0,0.0,-10,,-0.05,0.38,0.98,-3,-2,-1,1.05,1.13,92,5036,9.9,3.56,,13.23,0.955,77.2,,74.1,5,,,,,,,,,,,,0,0,0,0,0,0,0,0,0,0,0,0,0,0,0,0,,,,,,0.0,,,,,,,
334644,0,,,,,,,,,,,,,,,,,,,,,,,,,,,,,,,,,,0,0,0,0,0,0,0,0,0,0,0,0,0,0,0,0,,,,,,,,,,,,,
334664,0,0.0,-0,,-0.04,0.28,0.98,-2,-2,-1,1.02,1.13,90,5157,0.3,2.64,,12.23,0.955,77.2,,74.1,5,,,,,,,,,,,,0,0,0,0,0,0,0,0,0,0,0,0,0,0,0,0,,,,,,0.0,,,,,,,
334684,0,,,,,,,,,,,,,,,,,,,,,,,0,24,0,0,0.0,0.0,0.0,0.0,2.25,,,0,0,0,0,0,0,0,0,0,0,0,0,0,0,0,0,,0,,,,,0.0,0.0,0.0,0.0,0,0,0.0
334704,0,0.0,-14,,-0.03,0.26,0.98,-3,-2,-2,1.02,1.13,90,5094,0.0,2.56,,11.48,0.954,77.2,,74.1,5,,,,,,,,,,,,0,0,0,0,0,0,0,0,0,0,0,0,0,0,0,0,,,,,,0.0,,,,,,,
334724,0,,,,,,,,,,,,,,,,,,,,,,,,,,,,,,,,,,0,0,0,0,0,0,0,0,0,0,0,0,0,0,0,0,,,,,,,,,,,,,
334744,0,0.0,-0,,-0.05,0.17,0.95,-2,-2,-2,0.96,1.13,85,5094,0.0,2.56,,11.48,0.954,77.2,,72.2,5,,,,,,,,,,,,0,0,0,0,0,0,0,0,0,0,0,0,0,0,0,0,,,,,,0.0,,,,,,,
334764,0,,,,,,,,,,,,,,,,,,,,,,,,,,,,,,,,,,0,0,0,0,0,0,0,0,0,0,0,0,0,0,0,0,,,,,,,,,,,,,
334784,0,0.0,-17,,-0.01,0.03,0.89,-2,-2,-2,0.89,1.13,79,4802,0.0,2.61,,11.05,0.956,77.2,,72.2,5,0,2,0,0,0.0,24.0,0.0,0.0,2.25,,,0,0,0,0,0,0,0,0,0,0,0,0,0,0,0,0,,0,,,,0.0,0.0,0.0,0.0,0.0,0,0,0.0
334804,0,,,,,,,,,,,,,,,,,,,,,,,,,,,,,,,,,,0,0,0,0,0,0,0,0,0,0,0,0,0,0,0,0,,,,,,,,,,,,,
334824,0,0.0,-21,,0.02,0.01,0.97,-2,-2,-2,0.97,1.13,86,4655,0.0,2.51,,10.88,0.952,77.2,,72.2,5,,,,,,,,,,,,0,0,0,0,0,0,0,0,0,0,0,0,0,0,0,0,,,,,,0.0,,,,,,,
334844,0,,,,,,,,,,,,,,,,,,,,,,,,,,,,,,,,,,0,0,0,0,0,0,0,0,0,0,0,0,0,0,0,0,,,,,,,,,,,,,
334864,0,0.0,-17,,0.03,-0.02,1.06,-1,-2,-2,1.06,1.13,93,4521,0.0,2.05,,10.69,0.953,77.2,,64.6,5,,,,,,,,,,,,0,0,0,0,0,0,0,0,0,0,0,0,0,0,0,0,,,,,,0.0,,,,,,,
334884,0,,,,,,,,,,,,,,,,,,,,,,,0,5,0,0,0.0,24.0,0.0,0.0,2.25,,,0,0,0,0,0,0,0,0,0,0,0,0,0,0,0,0,,0,,,,,0.0,0.0,0.0,0.0,0,0,0.0
334904,0,0.0,-21,,0.03,-0.02,1.03,-1,-1,-1,1.03,1.13,91,4201,5.9,3.0,,10.69,0.953,77.2,,64.6,5,,,,,,,,,,,,0,0,0,0,0,0,0,0,0,0,0,0,0,0,0,0,,,,,,0.0,,,,,,,
334924,0,,,,,,,,,,,,,,,,,,,,,,,,,,,,,,,,,,0,0,0,0,0,0,0,0,0,0,0,0,0,0,0,0,,,,,,,,,,,,,
334944,0,0.0,-17,,0.01,0.03,1.06,-1,-1,-2,1.06,1.13,93,4201,5.9,3.0,,11.16,0.954,77.2,,57.8,5,,,,,,,,,,,,0,0,0,0,0,0,0,0,0,0,0,0,0,0,0,0,,,,,,0.0,,,,,,,
334964,0,,,,,,,,,,,,,,,,,,,,,,,,,,,,,,,,,,0,0,0,0,0,0,0,0,0,0,0,0,0,0,0,0,,,,,,,,,,,,,
334984,0,0.0,-27,,0.02,0.05,1.08,-0,-1,-1,1.09,1.13,96,4109,28.2,4.99,,13.0,0.953,77.2,,57.8,5,0,18,0,0,0.0,24.0,0.0,0.0,2.25,,,0,0,0,0,0,0,0,0,0,0,0,0,0,0,0,0,,0,,,,0.0,0.0,0.0,0.0,0.0,0,0,0.0
335004,0,,,,,,,,,,,,,,,,,,,,,,,,,,,,,,,,,,0,0,0,0,0,0,0,0,0,0,0,0,0,0,0,0,,,,,,,,,,,,,
335024,0,0.0,-34,,0.0,0.03,1.07,-0,-1,-1,1.07,1.13,95,4709,42.0,4.37,,14.07,0.955,77.2,,57.8,5,,,,,,,,,,,,0,0,0,0,0,0,0,0,0,0,0,0,0,0,0,0,,,,,,0.0,,,,,,,
335044,0,,,,,,,,,,,,,,,,,,,,,,,,,,,,,,,,,,0,0,0,0,0,0,0,0,0,0,0,0,0,0,0,0,,,,,,,,,,,,,
335064,0,0.0,-24,,-0.0,0.03,1.11,-0,-1,-1,1.11,1.13,98,5266,45.1,5.42,,14.04,0.955,77.2,,72.3,5,,,,,,,,,,,,0,0,0,0,0,0,0,0,0,0,0,0,0,0,0,0,,,,,,0.0,,,,,,,
335084,0,,,,,,,,,,,,,,,,,,,,,,,0,136,0,0,0.0,0.0,0.0,0.0,2.25,,,0,0,0,0,0,0,0,0,0,0,0,0,0,0,0,0,,0,,,,,0.0,0.0,0.0,0.0,0,0,0.0
335104,0,0.0,-24,,-0.01,0.05,1.09,-0,-1,-0,1.09,1.13,96,6086,39.5,4.91,,14.04,0.955,77.2,,72.3,5,,,,,,,,,,,,0,0,0,0,0,0,0,0,0,0,0,0,0,0,0,0,,,,,,0.0,,,,,,,
335124,0,,,,,,,,,,,,,,,,,,,,,,,,,,,,,,,,,,0,0,0,0,0,0,0,0,0,0,0,0,0,0,0,0,,,,,,,,,,,,,
335144,0,0.0,-10,,-0.02,0.04,1.05,-1,-1,-1,1.05,1.13,93,6086,39.5,4.91,,13.57,0.953,77.2,,78.0,5,,,,,,,,,,,,0,0,0,0,0,0,0,0,0,0,0,0,0,0,0,0,,,,,,0.0,,,,,,,
335164,0,,,,,,,,,,,,,,,,,,,,,,,,,,,,,,,,,,0,0,0,0,0,0,0,0,0,0,0,0,0,0,0,0,,,,,,,,,,,,,
335184,0,0.0,-17,,-0.03,-0.02,1.05,-0,-1,-0,1.05,1.13,92,6844,15.8,4.89,,12.45,0.955,77.2,,78.0,5,0,44,0,0,0.0,24.0,0.0,0.0,2.25,,,0,0,0,0,0,0,0,0,0,0,0,0,0,0,0,0,,0,,,,0.0,0.0,0.0,0.0,0.0,0,0,0.0
335204,0,,,,,,,,,,,,,,,,,,,,,,,,,,,,,,,,,,0,0,0,0,0,0,0,0,0,0,0,0,0,0,0,0,,,,,,,,,,,,,
335224,0,0.0,-24,,-0.02,0.06,1.05,0,-1,0,1.06,1.13,93,7295,0.0,1.4,,10.42,0.951,77.2,,78.0,5,,,,,,,,,,,,0,0,0,0,0,0,0,0,0,0,0,0,0,0,0,0,,,,,,0.0,,,,,,,
335244,0,,,,,,,,,,,,,,,,,,,,,,,,,,,,,,,,,,0,0,0,0,0,0,0,0,0,0,0,0,0,0,0,0,,,,,,,,,,,,,
335264,0,0.0,-24,,-0.04,0.02,1.05,1,-1,0,1.05,1.13,92,7498,0.0,1.4,,8.98,0.955,77.2,,77.7,5,,,,,,,,,,,,0,0,0,0,0,0,0,0,0,0,0,0,0,0,0,0,,,,,,0.0,,,,,,,
335284,0,,,,,,,,,,,,,,,,,,,,,,,0,19,0,0,0.0,24.0,0.0,0.0,2.25,,,0,0,0,0,0,0,0,0,0,0,0,0,0,0,0,0,,0,,,,,0.0,0.0,0.0,0.0,0,0,0.0
335304,0,0.0,-31,,-0.06,0.09,1.05,1,-1,-0,1.06,1.13,93,7518,0.0,1.4,,8.98,0.955,77.2,,77.7,5,,,,,,,,,,,,0,0,0,0,0,0,0,0,0,0,0,0,0,0,0,0,,,,,,0.0,,,,,,,
335324,0,,,,,,,,,,,,,,,,,,,,,,,,,,,,,,,,,,0,0,0,0,0,0,0,0,0,0,0,0,0,0,0,0,,,,,,,,,,,,,
335344,0,0.0,-24,,-0.07,0.14,1.01,0,-1,-1,1.03,1.13,90,7518,0.0,1.4,,8.01,0.955,77.2,,76.4,5,,,,,,,,,,,,0,0,0,0,0,0,0,0,0,0,0,0,0,0,0,0,,,,,,0.0,,,,,,,
335364,0,,,,,,,,,,,,,,,,,,,,,,,,,,,,,,,,,,0,0,0,0,0,0,0,0,0,0,0,0,0,0,0,0,,,,,,,,,,,,,
335384,0,0.0,-21,14.12,-0.07,0.11,1.04,0,-1,-1,1.05,1.13,92,7445,0.0,1.4,15,7.39,0.954,77.2,104,76.4,5,0,12,0,0,0.0,24.0,0.0,0.0,2.25,0,0.0,0,0,0,0,0,0,0,0,0,0,0,0,0,0,0,0,0,0,0.0,0,0,0.0,0.0,0.0,0.0,0.0,0,0,0.0
335404,0,,,,,,,,,,,,,,,,,,,,,,,,,,,,,,,,,,0,0,0,0,0,0,0,0,0,0,0,0,0,0,0,0,,,,,,,,,,,,,
335424,0,0.0,-21,,-0.06,0.09,1.03,0,-1,-0,1.04,1.13,92,7266,0.0,1.4,,6.96,0.955,77.2,,76.4,5,,,,,,,,,,,,0,0,0,0,0,0,0,0,0,0,0,0,0,0,0,0,,,,,,0.0,,,,,,,
335444,0,,,,,,,,,,,,,,,,,,,,,,,,,,,,,,,,,,0,0,0,0,0,0,0,0,0,0,0,0,0,0,0,0,,,,,,,,,,,,,
335464,0,0.0,-27,,-0.04,0.09,1.05,0,-1,-1,1.06,1.13,93,7045,0.0,1.4,,6.82,0.952,77.2,,72.0,5,,,,,,,,,,,,0,0,0,0,0,0,0,0,0,0,0,0,0,0,0,0,,,,,,0.0,,,,,,,
335484,0,,,,,,,,,,,,,,,,,,,,,,,0,283,0,0,0.0,24.0,0.0,0.0,2.25,,,0,0,0,0,0,0,0,0,0,0,0,0,0,0,0,0,,0,,,,,0.0,0.0,0.0,0.0,0,0,0.0
335504,0,0.0,-17,,-0.05,0.11,1.07,0,-1,-0,1.08,1.13,95,6774,0.0,1.4,,6.82,0.952,77.2,,72.0,5,,,,,,,,,,,,0,0,0,0,0,0,0,0,0,0,0,0,0,0,0,0,,,,,,0.0,,,,,,,
335524,0,,,,,,,,,,,,,,,,,,,,,,,,,,,,,,,,,,0,0,0,0,0,0,0,0,0,0,0,0,0,0,0,0,,,,,,,,,,,,,
335544,0,0.0,-17,,-0.07,0.06,1.03,0,-1,-1,1.03,1.13,91,6774,0.0,1.4,,6.87,0.954,77.2,,64.8,5,,,,,,,,,,,,0,0,0,0,0,0,0,0,0,0,0,0,0,0,0,0,,,,,,0.0,,,,,,,
335564,0,,,,,,,,,,,,,,,,,,,,,,,,,,,,,,,,,,0,0,0,0,0,0,0,0,0,0,0,0,0,0,0,0,,,,,,,,,,,,,
335584,0,0.0,-41,,-0.05,0.05,1.03,0,-1,-0,1.03,1.13,91,6393,0.0,1.4,,7.03,0.956,77.2,,64.8,5,0,20,0,0,0.0,24.0,0.0,0.0,2.25,,,0,0,0,0,0,0,0,0,0,0,0,0,0,0,0,0,,0,,,,0.0,0.0,0.0,0.0,0.0,0,0,0.0
335604,0,,,,,,,,,,,,,,,,,,,,,,,,,,,,,,,,,,0,0,0,0,0,0,0,0,0,0,0,0,0,0,0,0,,,,,,,,,,,,,
335624,0,0.0,-24,,-0.04,0.05,1.04,1,-1,1,1.04,1.13,91,6056,0.0,1.4,,7.27,0.952,77.2,,64.8,5,,,,,,,,,,,,0,0,0,0,0,0,0,0,0,0,0,0,0,0,0,0,,,,,,0.0,,,,,,,
335644,0,,,,,,,,,,,,,,,,,,,,,,,,,,,,,,,,,,0,0,0,0,0,0,0,0,0,0,0,0,0,0,0,0,,,,,,,,,,,,,
335664,0,0.0,-38,,-0.02,0.0,0.94,1,-1,1,0.94,1.13,83,5733,5.5,2.22,,8.09,0.956,77.2,,59.2,5,,,,,,,,,,,,0,0,0,0,0,0,0,0,0,0,0,0,0,0,0,0,,,,,,0.0,,,,,,,
335684,0,,,,,,,,,,,,,,,,,,,,,,,0,62,0,0,0.0,24.0,0.0,0.0,2.25,,,0,0,0,0,0,0,0,0,0,0,0,0,0,0,0,0,,0,,,,,0.0,0.0,0.0,0.0,0,0,0.0
335704,0,0.0,-14,,-0.04,0.07,1.0,0,-1,1,1.0,1.13,88,5493,25.2,2.73,,8.09,0.956,77.2,,59.2,5,,,,,,,,,,,,0,0,0,0,0,0,0,0,0,0,0,0,0,0,0,0,,,,,,0.0,,,,,,,
335724,0,,,,,,,,,,,,,,,,,,,,,,,,,,,,,,,,,,0,0,0,0,0,0,0,0,0,0,0,0,0,0,0,0,,,,,,,,,,,,,
335744,0,0.0,-24,,-0.05,0.14,1.01,0,-1,1,1.03,1.13,90,5493,25.2,2.73,,10.72,0.955,77.2,,58.3,5,,,,,,,,,,,,0,0,0,0,0,0,0,0,0,0,0,0,0,0,0,0,,,,,,0.0,,,,,,,
335764,0,,,,,,,,,,,,,,,,,,,,,,,,,,,,,,,,,,0,0,0,0,0,0,0,0,0,0,0,0,0,0,0,0,,,,,,,,,,,,,
335784,0,0.0,-17,,-0.07,0.12,1.0,0,-1,1,1.01,1.13,89,5396,40.3,4.83,,13.31,0.953,77.2,,58.3,5,0,367,0,0,0.0,24.0,0.0,0.0,2.25,,,0,0,0,0,0,0,0,0,0,0,0,0,0,0,0,0,,0,,,,0.0,0.0,0.0,0.0,0.0,0,0,0.0
335804,0,,,,,,,,,,,,,,,,,,,,,,,,,,,,,,,,,,0,0,0,0,0,0,0,0,0,0,0,0,0,0,0,0,,,,,,,,,,,,,
335824,0,0.0,-31,,-0.04,-0.0,1.01,0,-1,1,1.01,1.13,89,5271,42.1,4.98,,13.95,0.955,77.2,,58.3,5,,,,,,,,,,,,0,0,0,0,0,0,0,0,0,0,0,0,0,0,0,0,,,,,,0.0,,,,,,,
335844,0,,,,,,,,,,,,,,,,,,,,,,,,,,,,,,,,,,0,0,0,0,0,0,0,0,0,0,0,0,0,0,0,0,,,,,,,,,,,,,
335864,0,0.0,-24,,-0.01,-0.05,1.02,1,-1,1,1.02,1.13,90,5223,27.2,4.73,,13.68,0.953,77.2,,57.8,5,,,,,,,,,,,,0,0,0,0,0,0,0,0,0,0,0,0,0,0,0,0,,,,,,0.0,,,,,,,
335884,0,,,,,,,,,,,,,,,,,,,,,,,0,41,0,0,0.0,24.0,0.0,0.0,2.25,,,0,0,0,0,0,0,0,0,0,0,0,0,0,0,0,0,,0,,,,,0.0,0.0,0.0,0.0,0,0,0.0
335904,0,0.0,-14,,-0.02,-0.03,1.04,1,-1,-0,1.04,1.13,92,5265,0.6,3.38,,13.68,0.953,77.2,,57.8,5,,,,,,,,,,,,0,0,0,0,0,0,0,0,0,0,0,0,0,0,0,0,,,,,,0.0,,,,,,,
335924,0,,,,,,,,,,,,,,,,,,,,,,,,,,,,,,,,,,0,0,0,0,0,0,0,0,0,0,0,0,0,0,0,0,,,,,,,,,,,,,
335944,0,0.0,-21,,-0.03,-0.0,1.05,0,-0,0,1.05,1.13,92,5265,0.6,3.38,,12.59,0.954,77.2,,61.2,5,,,,,,,,,,,,0,0,0,0,0,0,0,0,0,0,0,0,0,0,0,0,,,,,,0.0,,,,,,,
335964,0,,,,,,,,,,,,,,,,,,,,,,,,,,,,,,,,,,0,0,0,0,0,0,0,0,0,0,0,0,0,0,0,0,,,,,,,,,,,,,
335984,0,0.0,-21,,-0.04,-0.02,1.06,1,-1,0,1.06,1.13,93,5329,0.0,2.38,,11.46,0.956,77.2,,61.2,5,0,8,0,0,0.0,24.0,0.0,0.0,2.22,,,0,0,0,0,0,0,0,0,0,0,0,0,0,0,0,0,,0,,,,0.0,0.0,0.0,0.0,0.0,0,0,0.0
336004,0,,,,,,,,,,,,,,,,,,,,,,,,,,,,,,,,,,0,0,0,0,0,0,0,0,0,0,0,0,0,0,0,0,,,,,,,,,,,,,
336024,0,0.0,-24,,-0.05,0.0,1.01,0,-1,-0,1.01,1.13,89,5157,0.0,2.45,,10.82,0.951,77.2,,61.2,5,,,,,,,,,,,,0,0,0,0,0,0,0,0,0,0,0,0,0,0,0,0,,,,,,0.0,,,,,,,
336044,0,,,,,,,,,,,,,,,,,,,,,,,,,,,,,,,,,,0,0,0,0,0,0,0,0,0,0,0,0,0,0,0,0,,,,,,,,,,,,,
336064,0,0.0,-34,,-0.06,0.06,1.03,0,-1,0,1.03,1.13,91,4993,0.0,1.97,,10.76,0.952,77.2,,58.7,5,,,,,,,,,,,,0,0,0,0,0,0,0,0,0,0,0,0,0,0,0,0,,,,,,0.0,,,,,,,
336084,0,,,,,,,,,,,,,,,,,,,,,,,0,6,0,0,0.0,0.0,0.0,0.0,2.25,,,0,0,0,0,0,0,0,0,0,0,0,0,0,0,0,0,,0,,,,,0.0,0.0,0.0,0.0,0,0,0.0
336104,0,0.0,-21,,-0.03,-0.06,0.99,-0,-1,-0,0.99,1.13,87,4801,23.2,3.9,,10.76,0.952,77.2,,58.7,5,,,,,,,,,,,,0,0,0,0,0,0,0,0,0,0,0,0,0,0,0,0,,,,,,0.0,,,,,,,
336124,0,,,,,,,,,,,,,,,,,,,,,,,,,,,,,,,,,,0,0,0,0,0,0,0,0,0,0,0,0,0,0,0,0,,,,,,,,,,,,,
336144,0,0.0,-34,,-0.02,-0.27,1.03,-0,-1,-2,1.06,1.13,94,4801,23.2,3.9,,12.25,0.955,77.2,,57.3,5,,,,,,,,,,,,0,0,0,0,0,0,0,0,0,0,0,0,0,0,0,0,,,,,,0.0,,,,,,,
336164,0,,,,,,,,,,,,,,,,,,,,,,,,,,,,,,,,,,0,0,0,0,0,0,0,0,0,0,0,0,0,0,0,0,,,,,,,,,,,,,
336184,0,0.0,-48,,-0.04,-0.23,0.99,-1,-1,-2,1.02,1.13,90,4811,42.2,4.61,,13.96,0.953,77.2,,57.3,5,0,5,0,0,0.0,0.0,0.0,0.0,2.25,,,0,0,0,0,0,0,0,0,0,0,0,0,0,0,0,0,,0,,,,0.0,0.0,0.0,0.0,0.0,0,0,0.0
336204,0,,,,,,,,,,,,,,,,,,,,,,,,,,,,,,,,,,0,0,0,0,0,0,0,0,0,0,0,0,0,0,0,0,,,,,,,,,,,,,
336224,0,0.0,-27,,-0.05,-0.14,1.03,-1,-0,-2,1.04,1.13,92,4869,52.3,5.6,,14.32,0.955,77.2,,57.3,5,,,,,,,,,,,,0,0,0,0,0,0,0,0,0,0,0,0,0,0,0,0,,,,,,0.0,,,,,,,
336244,0,,,,,,,,,,,,,,,,,,,,,,,,,,,,,,,,,,0,0,0,0,0,0,0,0,0,0,0,0,0,0,0,0,,,,,,,,,,,,,
336264,0,0.0,-34,,-0.03,-0.1,1.01,0,-1,-1,1.02,1.13,90,5097,55.8,5.45,,14.26,0.952,77.2,,60.7,5,,,,,,,,,,,,0,0,0,0,0,0,0,0,0,0,0,0,0,0,0,0,,,,,,0.0,,,,,,,
336284,0,,,,,,,,,,,,,,,,,,,,,,,0,28,0,0,0.0,24.0,0.0,0.0,2.25,,,0,0,0,0,0,0,0,0,0,0,0,0,0,0,0,0,,0,,,,,0.0,0.0,0.0,0.0,0,0,0.0
336304,0,0.0,-48,,-0.03,-0.09,1.0,-0,-0,-1,1.01,1.13,89,5509,55.2,5.28,,14.26,0.952,77.2,,60.7,5,,,,,,,,,,,,0,0,0,0,0,0,0,0,0,0,0,0,0,0,0,0,,,,,,0.0,,,,,,,
336324,0,,,,,,,,,,,,,,,,,,,,,,,,,,,,,,,,,,0,0,0,0,0,0,0,0,0,0,0,0,0,0,0,0,,,,,,,,,,,,,
336344,0,0.0,-38,,-0.05,-0.1,1.04,-0,-0,-1,1.05,1.13,92,5509,55.2,5.28,,14.18,0.953,77.2,,71.2,5,,,,,,,,,,,,0,0,0,0,0,0,0,0,0,0,0,0,0,0,0,0,,,,,,0.0,,,,,,,
336364,0,,,,,,,,,,,,,,,,,,,,,,,,,,,,,,,,,,0,0,0,0,0,0,0,0,0,0,0,0,0,0,0,0,,,,,,,,,,,,,
336384,0,0.0,-41,14.1,-0.04,-0.03,1.06,0,-0,0,1.06,1.13,94,5652,33.9,4.64,15,13.71,0.955,77.2,104,71.2,5,0,7,0,0,0.0,24.0,0.0,0.0,2.25,0,0.0,0,0,0,0,0,0,0,0,0,0,0,0,0,0,0,0,0,0,0.0,0,0,0.0,0.0,0.0,0.0,0.0,0,0,0.0
336404,0,,,,,,,,,,,,,,,,,,,,,,,,,,,,,,,,,,0,0,0,0,0,0,0,0,0,0,0,0,0,0,0,0,,,,,,,,,,,,,
336424,0,0.0,-24,,-0.05,0.02,1.05,-1,-1,-1,1.06,1.13,93,6136,5.0,4.23,,12.12,0.951,77.2,,71.2,5,,,,,,,,,,,,0,0,0,0,0,0,0,0,0,0,0,0,0,0,0,0,,,,,,0.0,,,,,,,
336444,0,,,,,,,,,,,,,,,,,,,,,,,,,,,,,,,,,,0,0,0,0,0,0,0,0,0,0,0,0,0,0,0,0,,,,,,,,,,,,,
336464,0,0.0,-41,,-0.05,0.04,1.05,-1,-0,-1,1.05,1.13,93,6632,0.0,1.4,,10.5,0.955,77.2,,76.2,5,,,,,,,,,,,,0,0,0,0,0,0,0,0,0,0,0,0,0,0,0,0,,,,,,0.0,,,,,,,
336484,0,,,,,,,,,,,,,,,,,,,,,,,0,508,0,0,0.0,24.0,0.0,0.0,2.25,,,0,0,0,0,0,0,0,0,0,0,0,0,0,0,0,0,,0,,,,,0.0,0.0,0.0,0.0,0,0,0.0
336504,0,0.0,-48,,-0.06,0.01,1.05,-0,-1,-1,1.06,1.13,93,6760,0.0,1.4,,10.5,0.955,77.2,,76.2,5,,,,,,,,,,,,0,0,0,0,0,0,0,0,0,0,0,0,0,0,0,0,,,,,,0.0,,,,,,,
336524,0,,,,,,,,,,,,,,,,,,,,,,,,,,,,,,,,,,0,0,0,0,0,0,0,0,0,0,0,0,0,0,0,0,,,,,,,,,,,,,
336544,0,0.0,-38,,-0.06,-0.0,1.04,0,-1,-1,1.04,1.13,91,6760,0.0,1.4,,9.35,0.956,77.2,,76.5,5,,,,,,,,,,,,0,0,0,0,0,0,0,0,0,0,0,0,0,0,0,0,,,,,,0.0,,,,,,,
336564,0,,,,,,,,,,,,,,,,,,,,,,,,,,,,,,,,,,0,0,0,0,0,0,0,0,0,0,0,0,0,0,0,0,,,,,,,,,,,,,
336584,0,0.0,-34,,-0.06,-0.02,1.02,0,-1,-1,1.02,1.13,90,6776,0.0,1.4,,8.65,0.953,77.2,,76.5,5,0,74,0,0,0.0,24.0,0.0,0.0,2.25,,,0,0,0,0,0,0,0,0,0,0,0,0,0,0,0,0,,0,,,,0.0,0.0,0.0,0.0,0.0,0,0,0.0
336604,0,,,,,,,,,,,,,,,,,,,,,,,,,,,,,,,,,,0,0,0,0,0,0,0,0,0,0,0,0,0,0,0,0,,,,,,,,,,,,,
336624,0,0.0,-41,,-0.06,-0.0,1.01,-0,-1,-1,1.02,1.13,90,6764,14.1,3.24,,9.18,0.955,77.2,,76.5,5,,,,,,,,,,,,0,0,0,0,0,0,0,0,0,0,0,0,0,0,0,0,,,,,,0.0,,,,,,,
336644,0,,,,,,,,,,,,,,,,,,,,,,,,,,,,,,,,,,0,0,0,0,0,0,0,0,0,0,0,0,0,0,0,0,,,,,,,,,,,,,
336664,0,0.0,-27,,-0.07,-0.0,1.0,0,-1,-0,1.01,1.13,89,6916,38.0,4.05,,11.87,0.953,77.2,,75.9,5,,,,,,,,,,,,0,0,0,0,0,0,0,0,0,0,0,0,0,0,0,0,,,,,,0.0,,,,,,,
336684,0,,,,,,,,,,,,,,,,,,,,,,,0,14,0,0,0.0,24.0,0.0,0.0,2.25,,,0,0,0,0,0,0,0,0,0,0,0,0,0,0,0,0,,0,,,,,0.0,0.0,0.0,0.0,0,0,0.0
336704,0,0.0,-51,,-0.07,-0.1,1.03,0,-0,0,1.04,1.13,91,7279,52.1,5.38,,11.87,0.953,77.2,,75.9,5,,,,,,,,,,,,0,0,0,0,0,0,0,0,0,0,0,0,0,0,0,0,,,,,,0.0,,,,,,,
336724,0,,,,,,,,,,,,,,,,,,,,,,,,,,,,,,,,,,0,0,0,0,0,0,0,0,0,0,0,0,0,0,0,0,,,,,,,,,,,,,
336744,0,0.0,-38,,-0.09,-0.09,1.03,0,0,1,1.03,1.13,91,7279,52.1,5.38,,13.4,0.953,77.2,,78.3,5,,,,,,,,,,,,0,0,0,0,0,0,0,0,0,0,0,0,0,0,0,0,,,,,,0.0,,,,,,,
336764,0,,,,,,,,,,,,,,,,,,,,,,,,,,,,,,,,,,0,0,0,0,0,0,0,0,0,0,0,0,0,0,0,0,,,,,,,,,,,,,
336784,0,0.0,-27,,-0.09,-0.05,1.06,0,0,1,1.06,1.13,94,8153,54.5,4.66,,13.51,0.955,77.2,,78.3,5,0,162,0,0,0.0,24.0,0.0,0.0,2.25,,,0,0,0,0,0,0,0,0,0,0,0,0,0,0,0,0,,0,,,,0.0,0.0,0.0,0.0,0.0,0,0,0.0
336804,0,,,,,,,,,,,,,,,,,,,,,,,,,,,,,,,,,,0,0,0,0,0,0,0,0,0,0,0,0,0,0,0,0,,,,,,,,,,,,,
336824,0,0.0,-38,,-0.08,-0.05,1.0,0,-1,0,1.01,1.13,89,9416,38.8,5.04,,12.39,0.95,77.2,,78.3,5,,,,,,,,,,,,0,0,0,0,0,0,0,0,0,0,0,0,0,0,0,0,,,,,,0.0,,,,,,,
336844,0,,,,,,,,,,,,,,,,,,,,,,,,,,,,,,,,,,0,0,0,0,0,0,0,0,0,0,0,0,0,0,0,0,,,,,,,,,,,,,
336864,0,0.0,-51,,-0.09,-0.01,1.03,-1,-1,-1,1.03,1.13,91,10721,9.5,2.87,,9.93,0.953,77.2,,76.8,5,,,,,,,,,,,,0,0,0,0,0,0,0,0,0,0,0,0,0,0,0,0,,,,,,0.0,,,,,,,
336884,0,,,,,,,,,,,,,,,,,,,,,,,0,45,0,0,0.0,24.0,0.0,0.0,2.25,,,0,0,0,0,0,0,0,0,0,0,0,0,0,0,0,0,,0,,,,,0.0,0.0,0.0,0.0,0,0,0.0
336904,0,0.0,-55,,-0.1,-0.08,1.0,-1,-1,-0,1.0,1.13,88,11042,0.0,1.4,,9.93,0.953,77.2,,76.8,5,,,,,,,,,,,,0,0,0,0,0,0,0,0,0,0,0,0,0,0,0,0,,,,,,0.0,,,,,,,
336924,0,,,,,,,,,,,,,,,,,,,,,,,,,,,,,,,,,,0,0,0,0,0,0,0,0,0,0,0,0,0,0,0,0,,,,,,,,,,,,,
336944,0,0.0,-38,,-0.08,0.07,1.02,-1,-1,0,1.03,1.13,91,11042,0.0,1.4,,7.57,0.955,77.2,,75.0,5,,,,,,,,,,,,0,0,0,0,0,0,0,0,0,0,0,0,0,0,0,0,,,,,,0.0,,,,,,,
336964,0,,,,,,,,,,,,,,,,,,,,,,,,,,,,,,,,,,0,0,0,0,0,0,0,0,0,0,0,0,0,0,0,0,,,,,,,,,,,,,
336984,0,0.0,-21,,-0.1,0.02,1.01,-0,-0,0,1.01,1.13,89,10940,0.0,1.4,,6.32,0.953,77.2,,75.0,5,0,40,0,0,0.0,24.0,0.0,0.0,2.25,,,0,0,0,0,0,0,0,0,0,0,0,0,0,0,0,0,,0,,,,0.0,0.0,0.0,0.0,0.0,0,0,0.0
337004,0,,,,,,,,,,,,,,,,,,,,,,,,,,,,,,,,,,0,0,0,0,0,0,0,0,0,0,0,0,0,0,0,0,,,,,,,,,,,,,
337024,0,0.0,-41,,-0.11,0.34,1.06,-0,-0,2,1.12,1.13,99,10688,0.0,1.4,,5.59,0.955,77.2,,75.0,5,,,,,,,,,,,,0,0,0,0,0,0,0,0,0,0,0,0,0,0,0,0,,,,,,0.0,,,,,,,
337044,0,,,,,,,,,,,,,,,,,,,,,,,,,,,,,,,,,,0,0,0,0,0,0,0,0,0,0,0,0,0,0,0,0,,,,,,,,,,,,,
337064,0,0.0,-38,,-0.12,0.29,1.06,0,-0,2,1.1,1.13,97,10271,0.0,1.4,,5.2,0.952,77.2,,75.7,5,,,,,,,,,,,,0,0,0,0,0,0,0,0,0,0,0,0,0,0,0,0,,,,,,0.0,,,,,,,
337084,0,,,,,,,,,,,,,,,,,,,,,,,0,280,0,0,0.0,24.0,0.0,0.0,2.25,,,0,0,0,0,0,0,0,0,0,0,0,0,0,0,0,0,,0,,,,,0.0,0.0,0.0,0.0,0,0,0.0
337104,0,0.0,-41,,-0.12,0.24,1.02,0,-1,2,1.06,1.13,93,9857,0.0,1.4,,5.2,0.952,77.2,,75.7,5,,,,,,,,,,,,0,0,0,0,0,0,0,0,0,0,0,0,0,0,0,0,,,,,,0.0,,,,,,,
337124,0,,,,,,,,,,,,,,,,,,,,,,,,,,,,,,,,,,0,0,0,0,0,0,0,0,0,0,0,0,0,0,0,0,,,,,,,,,,,,,
337144,0,0.0,-38,,-0.1,0.13,1.09,0,-0,1,1.11,1.13,97,9857,0.0,1.4,,4.97,0.954,77.2,,71.7,5,,,,,,,,,,,,0,0,0,0,0,0,0,0,0,0,0,0,0,0,0,0,,,,,,0.0,,,,,,,
337164,0,,,,,,,,,,,,,,,,,,,,,,,,,,,,,,,,,,0,0,0,0,0,0,0,0,0,0,0,0,0,0,0,0,,,,,,,,,,,,,
337184,0,0.0,-21,,-0.11,0.16,1.05,-0,-1,1,1.06,1.13,94,9322,0.0,1.4,,4.84,0.956,77.2,,71.7,5,0,21,0,0,0.0,24.0,0.0,0.0,2.25,,,0,0,0,0,0,0,0,0,0,0,0,0,0,0,0,0,,0,,,,0.0,0.0,0.0,0.0,0.0,0,0,0.0
337204,0,,,,,,,,,,,,,,,,,,,,,,,,,,,,,,,,,,0,0,0,0,0,0,0,0,0,0,0,0,0,0,0,0,,,,,,,,,,,,,
337224,0,0.0,-38,,-0.1,0.21,1.01,-0,-1,1,1.03,1.13,91,8939,0.0,1.4,,4.93,0.952,77.2,,71.7,5,,,,,,,,,,,,0,0,0,0,0,0,0,0,0,0,0,0,0,0,0,0,,,,,,0.0,,,,,,,
337244,0,,,,,,,,,,,,,,,,,,,,,,,,,,,,,,,,,,0,0,0,0,0,0,0,0,0,0,0,0,0,0,0,0,,,,,,,,,,,,,
337264,0,0.0,-48,,-0.07,0.21,1.07,0,-1,0,1.1,1.13,97,8770,26.8,2.3,,7.14,0.955,77.2,,68.2,5,,,,,,,,,,,,0,0,0,0,0,0,0,0,0,0,0,0,0,0,0,0,,,,,,0.0,,,,,,,
337284,0,,,,,,,,,,,,,,,,,,,,,,,0,209,0,0,0.0,24.0,0.0,0.0,2.25,,,0,0,0,0,0,0,0,0,0,0,0,0,0,0,0,0,,0,,,,,0.0,0.0,0.0,0.0,0,0,0.0
337304,0,0.0,-38,,-0.05,0.2,1.16,1,-1,-0,1.18,1.18,100,8863,50.5,3.58,,7.14,0.955,77.2,,68.2,5,,,,,,,,,,,,0,0,0,0,0,0,0,0,0,0,0,0,0,0,0,0,,,,,,0.0,,,,,,,
337324,0,,,,,,,,,,,,,,,,,,,,,,,,,,,,,,,,,,0,0,0,0,0,0,0,0,0,0,0,0,0,0,0,0,,,,,,,,,,,,,
337344,0,0.0,-24,,-0.04,0.08,1.14,1,-1,-0,1.14,1.18,97,8863,50.5,3.58,,10.42,0.955,77.2,,70.2,5,,,,,,,,,,,,0,0,0,0,0,0,0,0,0,0,0,0,0,0,0,0,,,,,,0.0,,,,,,,
337364,0,,,,,,,,,,,,,,,,,,,,,,,,,,,,,,,,,,0,0,0,0,0,0,0,0,0,0,0,0,0,0,0,0,,,,,,,,,,,,,
337384,0,0.0,-41,14.01,-0.06,0.08,1.1,1,-1,-0,1.11,1.18,94,8617,60.0,5.14,15,12.64,0.952,77.2,104,70.2,5,0,26,0,0,0.0,24.0,0.0,0.0,2.25,0,0.0,0,0,0,0,0,0,0,0,0,0,0,0,0,0,0,0,0,0,0.0,0,0,0.0,0.0,0.0,0.0,0.0,0,0,0.0
337404,0,,,,,,,,,,,,,,,,,,,,,,,,,,,,,,,,,,0,0,0,0,0,0,0,0,0,0,0,0,0,0,0,0,,,,,,,,,,,,,
337424,0,0.0,-31,,-0.07,0.11,1.06,0,-1,0,1.07,1.18,91,8545,56.7,5.0,,13.11,0.955,77.2,,70.2,5,,,,,,,,,,,,0,0,0,0,0,0,0,0,0,0,0,0,0,0,0,0,,,,,,0.0,,,,,,,
337444,0,,,,,,,,,,,,,,,,,,,,,,,,,,,,,,,,,,0,0,0,0,0,0,0,0,0,0,0,0,0,0,0,0,,,,,,,,,,,,,
337464,0,0.0,-41,,-0.09,0.27,0.97,-0,-1,-0,1.01,1.18,86,8858,33.3,4.64,,12.28,0.95,77.2,,70.1,5,,,,,,,,,,,,0,0,0,0,0,0,0,0,0,0,0,0,0,0,0,0,,,,,,0.0,,,,,,,
337484,0,,,,,,,,,,,,,,,,,,,,,,,0,99,0,0,0.0,24.0,0.0,0.0,2.25,,,0,0,0,0,0,0,0,0,0,0,0,0,0,0,0,0,,0,,,,,0.0,0.0,0.0,0.0,0,0,0.0
337504,0,0.0,-44,,-0.1,0.28,0.99,-1,-1,-0,1.03,1.18,87,8858,33.3,4.64,,12.28,0.95,77.2,,70.1,5,,,,,,,,,,,,0,0,0,0,0,0,0,0,0,0,0,0,0,0,0,0,,,,,,0.0,,,,,,,
337524,0,,,,,,,,,,,,,,,,,,,,,,,,,,,,,,,,,,0,0,0,0,0,0,0,0,0,0,0,0,0,0,0,0,,,,,,,,,,,,,
337544,0,0.0,-24,,-0.09,0.39,0.98,-1,-1,-0,1.06,1.18,90,9940,2.4,1.46,,9.13,0.955,77.2,,73.0,5,,,,,,,,,,,,0,0,0,0,0,0,0,0,0,0,0,0,0,0,0,0,,,,,,0.0,,,,,,,
337564,0,,,,,,,,,,,,,,,,,,,,,,,,,,,,,,,,,,0,0,0,0,0,0,0,0,0,0,0,0,0,0,0,0,,,,,,,,,,,,,
337584,0,0.0,-44,,-0.1,0.37,0.96,-1,-1,-1,1.03,1.18,87,10201,0.0,1.4,,7.25,0.955,77.2,,73.0,5,0,137,0,0,0.0,24.0,0.0,0.0,2.25,,,0,0,0,0,0,0,0,0,0,0,0,0,0,0,0,0,,0,,,,0.0,0.0,0.0,0.0,0.0,0,0,0.0
337604,0,,,,,,,,,,,,,,,,,,,,,,,,,,,,,,,,,,0,0,0,0,0,0,0,0,0,0,0,0,0,0,0,0,,,,,,,,,,,,,
337624,0,0.0,-51,,-0.09,0.32,0.95,-1,-1,-0,1.01,1.18,86,10139,0.0,1.4,,6.24,0.953,77.2,,73.0,5,,,,,,,,,,,,0,0,0,0,0,0,0,0,0,0,0,0,0,0,0,0,,,,,,0.0,,,,,,,
337644,0,,,,,,,,,,,,,,,,,,,,,,,,,,,,,,,,,,0,0,0,0,0,0,0,0,0,0,0,0,0,0,0,0,,,,,,,,,,,,,
337664,0,0.0,-21,,-0.1,0.25,0.94,-1,-1,-0,0.98,1.18,83,9968,0.0,1.4,,6.24,0.953,77.2,,74.1,5,,,,,,,,,,,,0,0,0,0,0,0,0,0,0,0,0,0,0,0,0,0,,,,,,0.0,,,,,,,
337684,0,,,,,,,,,,,,,,,,,,,,,,,0,66,0,0,0.0,24.0,0.0,0.0,2.25,,,0,0,0,0,0,0,0,0,0,0,0,0,0,0,0,0,,0,,,,,0.0,0.0,0.0,0.0,0,0,0.0
337704,0,0.0,-41,,-0.11,0.3,0.91,-1,-1,0,0.97,1.18,82,9968,0.0,1.4,,5.71,0.955,77.2,,74.1,5,,,,,,,,,,,,0,0,0,0,0,0,0,0,0,0,0,0,0,0,0,0,,,,,,0.0,,,,,,,
337724,0,,,,,,,,,,,,,,,,,,,,,,,,,,,,,,,,,,0,0,0,0,0,0,0,0,0,0,0,0,0,0,0,0,,,,,,,,,,,,,
337744,0,0.0,-38,,-0.12,0.23,0.95,-1,-1,-0,0.98,1.18,83,9723,0.0,1.4,,5.36,0.952,77.2,,71.9,5,,,,,,,,,,,,0,0,0,0,0,0,0,0,0,0,0,0,0,0,0,0,,,,,,0.0,,,,,,,
337764,0,,,,,,,,,,,,,,,,,,,,,,,,,,,,,,,,,,0,0,0,0,0,0,0,0,0,0,0,0,0,0,0,0,,,,,,,,,,,,,
337784,0,0.0,-41,,-0.12,0.31,0.89,-1,-1,0,0.95,1.18,81,9433,0.0,1.4,,5.15,0.955,77.2,,71.9,5,0,63,0,0,0.0,24.0,0.0,0.0,2.25,,,0,0,0,0,0,0,0,0,0,0,0,0,0,0,0,0,,0,,,,0.0,0.0,0.0,0.0,0.0,0,0,0.0
337804,0,,,,,,,,,,,,,,,,,,,,,,,,,,,,,,,,,,0,0,0,0,0,0,0,0,0,0,0,0,0,0,0,0,,,,,,,,,,,,,
337824,0,0.0,-31,,-0.12,0.29,0.81,-1,-1,1,0.87,1.18,73,9124,0.0,1.4,,5.04,0.956,77.2,,71.9,5,,,,,,,,,,,,0,0,0,0,0,0,0,0,0,0,0,0,0,0,0,0,,,,,,0.0,,,,,,,
337844,0,,,,,,,,,,,,,,,,,,,,,,,,,,,,,,,,,,0,0,0,0,0,0,0,0,0,0,0,0,0,0,0,0,,,,,,,,,,,,,
337864,0,0.0,-48,,-0.12,0.33,0.72,-1,-2,1,0.8,1.18,68,8847,0.0,1.4,,5.04,0.956,77.2,,71.1,5,,,,,,,,,,,,0,0,0,0,0,0,0,0,0,0,0,0,0,0,0,0,,,,,,0.0,,,,,,,
337884,0,,,,,,,,,,,,,,,,,,,,,,,0,24,0,0,0.0,24.0,0.0,0.0,2.25,,,0,0,0,0,0,0,0,0,0,0,0,0,0,0,0,0,,0,,,,,0.0,0.0,0.0,0.0,0,0,0.0
337904,0,0.0,-48,,-0.1,0.25,0.79,-1,-2,0,0.83,1.18,70,8847,0.0,1.4,,5.01,0.952,75.4,,71.1,5,,,,,,,,,,,,0,0,0,0,0,0,0,0,0,0,0,0,0,0,0,0,,,,,,0.0,,,,,,,
337924,0,,,,,,,,,,,,,,,,,,,,,,,,,,,,,,,,,,0,0,0,0,0,0,0,0,0,0,0,0,0,0,0,0,,,,,,,,,,,,,
337944,0,0.0,-21,,-0.09,0.2,0.76,-1,-2,0,0.79,1.18,67,8514,0.0,1.4,,5.04,0.955,75.4,,68.0,5,,,,,,,,,,,,0,0,0,0,0,0,0,0,0,0,0,0,0,0,0,0,,,,,,0.0,,,,,,,
337964,0,,,,,,,,,,,,,,,,,,,,,,,,,,,,,,,,,,0,0,0,0,0,0,0,0,0,0,0,0,0,0,0,0,,,,,,,,,,,,,
337984,0,0.0,-41,,-0.08,0.14,0.77,-0,-2,0,0.78,1.18,66,8217,0.0,1.4,,5.12,0.952,75.4,,68.0,5,0,92,0,0,0.0,24.0,0.0,0.0,2.25,,,0,0,0,0,0,0,0,0,0,0,0,0,0,0,0,0,,0,,,,0.0,0.0,0.0,0.0,0.0,0,0,0.0
338004,0,,,,,,,,,,,,,,,,,,,,,,,,,,,,,,,,,,0,0,0,0,0,0,0,0,0,0,0,0,0,0,0,0,,,,,,,,,,,,,
338024,0,0.0,-41,,-0.1,0.2,0.74,-1,-2,0,0.77,1.18,65,7894,0.0,1.4,,5.23,0.953,75.4,,68.0,5,,,,,,,,,,,,0,0,0,0,0,0,0,0,0,0,0,0,0,0,0,0,,,,,,0.0,,,,,,,
338044,0,,,,,,,,,,,,,,,,,,,,,,,,,,,,,,,,,,0,0,0,0,0,0,0,0,0,0,0,0,0,0,0,0,,,,,,,,,,,,,
338064,0,0.0,-21,,-0.09,0.12,0.77,-0,-2,0,0.78,1.18,66,7528,0.0,1.4,,5.23,0.953,75.4,,63.5,5,,,,,,,,,,,,0,0,0,0,0,0,0,0,0,0,0,0,0,0,0,0,,,,,,0.0,,,,,,,
338084,0,,,,,,,,,,,,,,,,,,,,,,,0,93,0,0,0.0,24.0,0.0,0.0,2.25,,,0,0,0,0,0,0,0,0,0,0,0,0,0,0,0,0,,0,,,,,0.0,0.0,0.0,0.0,0,0,0.0
338104,0,0.0,-51,,-0.13,0.18,0.8,-0,-2,1,0.83,1.18,71,7528,0.0,1.4,,5.4,0.955,75.4,,63.5,5,,,,,,,,,,,,0,0,0,0,0,0,0,0,0,0,0,0,0,0,0,0,,,,,,0.0,,,,,,,
338124,0,,,,,,,,,,,,,,,,,,,,,,,,,,,,,,,,,,0,0,0,0,0,0,0,0,0,0,0,0,0,0,0,0,,,,,,,,,,,,,
338144,0,0.0,-34,,-0.1,0.22,0.8,-0,-2,1,0.84,1.18,71,7197,0.0,1.4,,5.62,0.952,75.4,,60.0,5,,,,,,,,,,,,0,0,0,0,0,0,0,0,0,0,0,0,0,0,0,0,,,,,,0.0,,,,,,,
338164,0,,,,,,,,,,,,,,,,,,,,,,,,,,,,,,,,,,0,0,0,0,0,0,0,0,0,0,0,0,0,0,0,0,,,,,,,,,,,,,
338184,0,0.0,-38,,-0.1,0.17,0.8,-0,-2,0,0.83,1.18,70,6861,0.0,1.4,,5.94,0.955,75.4,,60.0,5,0,20,0,0,0.0,24.0,0.0,0.0,2.25,,,0,0,0,0,0,0,0,0,0,0,0,0,0,0,0,0,,0,,,,0.0,0.0,0.0,0.0,0.0,0,0,0.0
338204,0,,,,,,,,,,,,,,,,,,,,,,,,,,,,,,,,,,0,0,0,0,0,0,0,0,0,0,0,0,0,0,0,0,,,,,,,,,,,,,
338224,0,0.0,-24,,-0.07,0.15,0.86,0,-2,1,0.88,1.18,74,6370,0.0,1.4,,6.31,0.956,75.4,,60.0,5,,,,,,,,,,,,0,0,0,0,0,0,0,0,0,0,0,0,0,0,0,0,,,,,,0.0,,,,,,,
338244,0,,,,,,,,,,,,,,,,,,,,,,,,,,,,,,,,,,0,0,0,0,0,0,0,0,0,0,0,0,0,0,0,0,,,,,,,,,,,,,
338264,0,0.0,-34,,-0.03,0.12,0.97,0,-1,1,0.98,1.18,83,5942,0.0,1.4,,6.31,0.956,75.4,,58.9,5,,,,,,,,,,,,0,0,0,0,0,0,0,0,0,0,0,0,0,0,0,0,,,,,,0.0,,,,,,,
338284,0,,,,,,,,,,,,,,,,,,,,,,,0,31,0,0,0.0,24.0,0.0,0.0,2.25,,,0,0,0,0,0,0,0,0,0,0,0,0,0,0,0,0,,0,,,,,0.0,0.0,0.0,0.0,0,0,0.0
338304,0,0.0,-48,,0.01,0.13,0.93,0,-1,1,0.94,1.18,80,5942,0.0,1.4,,6.75,0.951,75.4,,58.9,5,,,,,,,,,,,,0,0,0,0,0,0,0,0,0,0,0,0,0,0,0,0,,,,,,0.0,,,,,,,
338324,0,,,,,,,,,,,,,,,,,,,,,,,,,,,,,,,,,,0,0,0,0,0,0,0,0,0,0,0,0,0,0,0,0,,,,,,,,,,,,,
338344,0,0.0,-27,,-0.01,0.07,0.96,-0,-1,1,0.96,1.18,82,5480,0.0,1.4,,7.26,0.955,75.4,,57.5,5,,,,,,,,,,,,0,0,0,0,0,0,0,0,0,0,0,0,0,0,0,0,,,,,,0.0,,,,,,,
338364,0,,,,,,,,,,,,,,,,,,,,,,,,,,,,,,,,,,0,0,0,0,0,0,0,0,0,0,0,0,0,0,0,0,,,,,,,,,,,,,
338384,0,0.0,-41,14.1,0.0,0.1,1.01,-1,-1,-0,1.02,1.18,86,5091,0.0,1.4,15,7.78,0.953,75.4,106,57.5,5,0,862,0,0,0.0,24.0,0.0,0.0,2.25,0,0.0,0,0,0,0,0,0,0,0,0,0,0,0,0,0,0,0,0,0,0.0,0,0,0.0,0.0,0.0,0.0,0.0,0,0,0.0
338404,0,,,,,,,,,,,,,,,,,,,,,,,,,,,,,,,,,,0,0,0,0,0,0,0,0,0,0,0,0,0,0,0,0,,,,,,,,,,,,,
338424,0,0.0,-31,,-0.01,-0.0,1.05,-1,-1,-1,1.05,1.18,89,4667,19.6,2.49,,10.08,0.955,75.4,,57.5,5,,,,,,,,,,,,0,0,0,0,0,0,0,0,0,0,0,0,0,0,0,0,,,,,,0.0,,,,,,,
338444,0,,,,,,,,,,,,,,,,,,,,,,,,,,,,,,,,,,0,0,0,0,0,0,0,0,0,0,0,0,0,0,0,0,,,,,,,,,,,,,
338464,0,0.0,-38,,-0.02,-0.02,1.11,-0,-1,-1,1.11,1.18,94,4225,35.0,4.69,,10.08,0.955,75.4,,55.0,5,,,,,,,,,,,,0,0,0,0,0,0,0,0,0,0,0,0,0,0,0,0,,,,,,0.0,,,,,,,
338484,0,,,,,,,,,,,,,,,,,,,,,,,0,6,0,0,0.0,24.0,0.0,0.0,2.25,,,0,0,0,0,0,0,0,0,0,0,0,0,0,0,0,0,,0,,,,,0.0,0.0,0.0,0.0,0,0,0.0
338504,0,0.0,-38,,-0.02,0.17,1.08,-0,-2,1,1.09,1.18,93,4225,35.0,4.69,,12.99,0.956,75.4,,55.0,5,,,,,,,,,,,,0,0,0,0,0,0,0,0,0,0,0,0,0,0,0,0,,,,,,0.0,,,,,,,
338524,0,,,,,,,,,,,,,,,,,,,,,,,,,,,,,,,,,,0,0,0,0,0,0,0,0,0,0,0,0,0,0,0,0,,,,,,,,,,,,,
338544,0,0.0,-31,,-0.02,0.12,1.06,0,-1,1,1.07,1.18,91,4037,38.2,4.25,,14.06,0.953,75.4,,55.4,5,,,,,,,,,,,,0,0,0,0,0,0,0,0,0,0,0,0,0,0,0,0,,,,,,0.0,,,,,,,
338564,0,,,,,,,,,,,,,,,,,,,,,,,,,,,,,,,,,,0,0,0,0,0,0,0,0,0,0,0,0,0,0,0,0,,,,,,,,,,,,,
338584,0,0.0,-31,,-0.03,0.01,1.06,0,-1,0,1.06,1.18,90,3879,30.2,4.65,,13.98,0.955,75.4,,55.4,5,0,38,0,0,0.0,24.0,0.0,0.0,2.25,,,0,0,0,0,0,0,0,0,0,0,0,0,0,0,0,0,,0,,,,0.0,0.0,0.0,0.0,0.0,0,0,0.0
338604,0,,,,,,,,,,,,,,,,,,,,,,,,,,,,,,,,,,0,0,0,0,0,0,0,0,0,0,0,0,0,0,0,0,,,,,,,,,,,,,
338624,0,0.0,-34,,-0.04,-0.21,1.0,1,-1,-2,1.03,1.18,87,3675,10.0,4.31,,13.48,0.954,75.4,,55.4,5,,,,,,,,,,,,0,0,0,0,0,0,0,0,0,0,0,0,0,0,0,0,,,,,,0.0,,,,,,,
338644,0,,,,,,,,,,,,,,,,,,,,,,,,,,,,,,,,,,0,0,0,0,0,0,0,0,0,0,0,0,0,0,0,0,,,,,,,,,,,,,
338664,0,0.0,-31,,-0.06,0.14,1.03,3,-1,0,1.04,1.18,88,3613,0.0,3.0,,13.48,0.954,75.4,,54.1,5,,,,,,,,,,,,0,0,0,0,0,0,0,0,0,0,0,0,0,0,0,0,,,,,,0.0,,,,,,,
338684,0,,,,,,,,,,,,,,,,,,,,,,,0,26,0,0,0.0,24.0,0.0,0.0,2.25,,,0,0,0,0,0,0,0,0,0,0,0,0,0,0,0,0,,0,,,,,0.0,0.0,0.0,0.0,0,0,0.0
338704,0,0.0,-44,,-0.04,0.02,1.07,3,-1,-0,1.07,1.18,91,3613,0.0,3.0,,12.83,0.953,75.4,,54.1,5,,,,,,,,,,,,0,0,0,0,0,0,0,0,0,0,0,0,0,0,0,0,,,,,,0.0,,,,,,,
338724,0,,,,,,,,,,,,,,,,,,,,,,,,,,,,,,,,,,0,0,0,0,0,0,0,0,0,0,0,0,0,0,0,0,,,,,,,,,,,,,
338744,0,0.0,-38,,-0.05,0.17,1.03,1,-1,-1,1.05,1.18,89,3534,0.0,3.03,,12.43,0.956,75.4,,54.7,5,,,,,,,,,,,,0,0,0,0,0,0,0,0,0,0,0,0,0,0,0,0,,,,,,0.0,,,,,,,
338764,0,,,,,,,,,,,,,,,,,,,,,,,,,,,,,,,,,,0,0,0,0,0,0,0,0,0,0,0,0,0,0,0,0,,,,,,,,,,,,,
338784,0,0.0,-38,,-0.06,0.32,1.02,0,-1,0,1.07,1.18,91,3486,0.0,3.06,,12.29,0.953,75.4,,54.7,5,0,127,0,0,0.0,24.0,0.0,0.0,2.25,,,0,0,0,0,0,0,0,0,0,0,0,0,0,0,0,0,,0,,,,0.0,0.0,0.0,0.0,0.0,0,0,0.0
338804,0,,,,,,,,,,,,,,,,,,,,,,,,,,,,,,,,,,0,0,0,0,0,0,0,0,0,0,0,0,0,0,0,0,,,,,,,,,,,,,
338824,0,0.0,-51,,-0.07,0.29,1.06,-1,-1,-1,1.1,1.18,94,3428,8.7,4.03,,12.68,0.955,75.4,,54.7,5,,,,,,,,,,,,0,0,0,0,0,0,0,0,0,0,0,0,0,0,0,0,,,,,,0.0,,,,,,,
338844,0,,,,,,,,,,,,,,,,,,,,,,,,,,,,,,,,,,0,0,0,0,0,0,0,0,0,0,0,0,0,0,0,0,,,,,,,,,,,,,
338864,0,0.0,-55,,-0.07,0.26,1.01,-1,-1,-1,1.05,1.18,89,3277,17.3,4.5,,12.68,0.955,75.4,,56.1,5,,,,,,,,,,,,0,0,0,0,0,0,0,0,0,0,0,0,0,0,0,0,,,,,,0.0,,,,,,,
338884,0,,,,,,,,,,,,,,,,,,,,,,,0,22,0,0,0.0,24.0,0.0,0.0,2.25,,,0,0,0,0,0,0,0,0,0,0,0,0,0,0,0,0,,0,,,,,0.0,0.0,0.0,0.0,0,0,0.0
338904,0,0.0,-41,,-0.07,0.27,1.0,-1,-0,-1,1.03,1.18,88,3277,17.3,4.5,,13.52,0.956,77.2,,56.1,5,,,,,,,,,,,,0,0,0,0,0,0,0,0,0,0,0,0,0,0,0,0,,,,,,0.0,,,,,,,
338924,0,,,,,,,,,,,,,,,,,,,,,,,,,,,,,,,,,,0,0,0,0,0,0,0,0,0,0,0,0,0,0,0,0,,,,,,,,,,,,,
338944,0,0.0,-48,,-0.07,0.15,1.06,-1,-0,-1,1.08,1.18,91,3318,16.4,4.3,,13.77,0.951,77.2,,55.7,5,,,,,,,,,,,,0,0,0,0,0,0,0,0,0,0,0,0,0,0,0,0,,,,,,0.0,,,,,,,
338964,0,,,,,,,,,,,,,,,,,,,,,,,,,,,,,,,,,,0,0,0,0,0,0,0,0,0,0,0,0,0,0,0,0,,,,,,,,,,,,,
338984,0,0.0,-41,,-0.08,0.19,0.97,-1,-1,-1,1.0,1.18,85,3253,2.6,3.66,,13.4,0.953,77.2,,55.7,5,0,9,0,0,0.0,24.0,0.0,0.0,2.25,,,0,0,0,0,0,0,0,0,0,0,0,0,0,0,0,0,,0,,,,0.0,0.0,0.0,0.0,0.0,0,0,0.0
339004,0,,,,,,,,,,,,,,,,,,,,,,,,,,,,,,,,,,0,0,0,0,0,0,0,0,0,0,0,0,0,0,0,0,,,,,,,,,,,,,
339024,0,0.0,-41,,-0.09,0.19,0.96,-1,-0,-1,0.98,1.18,83,3157,0.0,3.32,,12.96,0.954,77.2,,55.7,5,,,,,,,,,,,,0,0,0,0,0,0,0,0,0,0,0,0,0,0,0,0,,,,,,0.0,,,,,,,
339044,0,,,,,,,,,,,,,,,,,,,,,,,,,,,,,,,,,,0,0,0,0,0,0,0,0,0,0,0,0,0,0,0,0,,,,,,,,,,,,,
339064,0,0.0,-48,,-0.07,0.11,1.06,-1,-0,-1,1.07,1.18,90,3219,0.0,3.36,,12.96,0.954,77.2,,54.8,5,,,,,,,,,,,,0,0,0,0,0,0,0,0,0,0,0,0,0,0,0,0,,,,,,0.0,,,,,,,
339084,0,,,,,,,,,,,,,,,,,,,,,,,0,139,0,0,0.0,24.0,0.0,0.0,2.25,,,0,0,0,0,0,0,0,0,0,0,0,0,0,0,0,0,,0,,,,,0.0,0.0,0.0,0.0,0,0,0.0
339104,0,0.0,-55,,-0.07,0.09,1.09,-1,-0,-0,1.09,1.18,93,3219,0.0,3.36,,12.72,0.955,77.2,,54.8,5,,,,,,,,,,,,0,0,0,0,0,0,0,0,0,0,0,0,0,0,0,0,,,,,,0.0,,,,,,,
339124,0,,,,,,,,,,,,,,,,,,,,,,,,,,,,,,,,,,0,0,0,0,0,0,0,0,0,0,0,0,0,0,0,0,,,,,,,,,,,,,
339144,0,0.0,-41,,-0.08,0.13,1.06,-1,-1,-0,1.07,1.18,91,3163,0.0,3.37,,12.51,0.956,77.2,,55.3,5,,,,,,,,,,,,0,0,0,0,0,0,0,0,0,0,0,0,0,0,0,0,,,,,,0.0,,,,,,,
339164,0,,,,,,,,,,,,,,,,,,,,,,,,,,,,,,,,,,0,0,0,0,0,0,0,0,0,0,0,0,0,0,0,0,,,,,,,,,,,,,
339184,0,0.0,-51,,-0.1,0.12,1.01,-1,-1,-1,1.03,1.18,87,3025,0.0,3.42,,12.47,0.954,77.2,,55.3,5,0,13,0,0,0.0,24.0,0.0,0.0,2.25,,,0,0,0,0,0,0,0,0,0,0,0,0,0,0,0,0,,0,,,,0.0,0.0,0.0,0.0,0.0,0,0,0.0
339204,0,,,,,,,,,,,,,,,,,,,,,,,,,,,,,,,,,,0,0,0,0,0,0,0,0,0,0,0,0,0,0,0,0,,,,,,,,,,,,,
339224,0,0.0,-51,,-0.11,0.13,1.02,-1,-1,-1,1.03,1.18,88,2937,0.0,3.5,,12.51,0.952,77.2,,55.3,5,,,,,,,,,,,,0,0,0,0,0,0,0,0,0,0,0,0,0,0,0,0,,,,,,0.0,,,,,,,
339244,0,,,,,,,,,,,,,,,,,,,,,,,,,,,,,,,,,,0,0,0,0,0,0,0,0,0,0,0,0,0,0,0,0,,,,,,,,,,,,,
339264,0,0.0,-48,,-0.11,0.1,1.05,-1,-1,-1,1.06,1.18,90,2807,0.0,3.48,,12.51,0.952,77.2,,54.4,5,,,,,,,,,,,,0,0,0,0,0,0,0,0,0,0,0,0,0,0,0,0,,,,,,0.0,,,,,,,
339284,0,,,,,,,,,,,,,,,,,,,,,,,0,3,0,0,0.0,0.0,0.0,0.0,2.25,,,0,0,0,0,0,0,0,0,0,0,0,0,0,0,0,0,,0,,,,,0.0,0.0,0.0,0.0,0,0,0.0
339304,0,0.0,-55,,-0.11,0.1,1.01,-1,-1,-1,1.03,1.18,87,2807,0.0,3.48,,12.55,0.955,77.2,,54.4,5,,,,,,,,,,,,0,0,0,0,0,0,0,0,0,0,0,0,0,0,0,0,,,,,,0.0,,,,,,,
339324,0,,,,,,,,,,,,,,,,,,,,,,,,,,,,,,,,,,0,0,0,0,0,0,0,0,0,0,0,0,0,0,0,0,,,,,,,,,,,,,
339344,0,0.0,-41,,-0.11,0.08,1.03,-1,-1,-1,1.04,1.18,88,2665,0.0,3.46,,12.67,0.953,77.2,,52.3,5,,,,,,,,,,,,0,0,0,0,0,0,0,0,0,0,0,0,0,0,0,0,,,,,,0.0,,,,,,,
339364,0,,,,,,,,,,,,,,,,,,,,,,,,,,,,,,,,,,0,0,0,0,0,0,0,0,0,0,0,0,0,0,0,0,,,,,,,,,,,,,
339384,0,0.0,-38,14.08,-0.1,0.06,1.0,-1,-1,-1,1.01,1.18,85,2655,0.0,3.48,15,12.75,0.956,77.2,106,52.3,5,0,9,0,0,0.0,24.0,0.0,0.0,2.25,0,0.0,0,0,0,0,0,0,0,0,0,0,0,0,0,0,0,0,0,0,0.0,0,0,0.0,0.0,0.0,0.0,0.0,0,0,0.0
339404,0,,,,,,,,,,,,,,,,,,,,,,,,,,,,,,,,,,0,0,0,0,0,0,0,0,0,0,0,0,0,0,0,0,,,,,,,,,,,,,
339424,0,0.0,-51,,-0.11,0.08,0.99,-1,-1,-1,1.0,1.18,85,2544,0.0,3.45,,12.88,0.954,77.2,,52.3,5,,,,,,,,,,,,0,0,0,0,0,0,0,0,0,0,0,0,0,0,0,0,,,,,,0.0,,,,,,,
339444,0,,,,,,,,,,,,,,,,,,,,,,,,,,,,,,,,,,0,0,0,0,0,0,0,0,0,0,0,0,0,0,0,0,,,,,,,,,,,,,
339464,0,0.0,-51,,-0.1,0.06,1.0,-1,-1,-1,1.01,1.18,85,2364,0.0,3.45,,12.88,0.954,77.2,,45.8,5,,,,,,,,,,,,0,0,0,0,0,0,0,0,0,0,0,0,0,0,0,0,,,,,,0.0,,,,,,,
339484,0,,,,,,,,,,,,,,,,,,,,,,,0,9,0,0,0.0,24.0,0.0,0.0,2.25,,,0,0,0,0,0,0,0,0,0,0,0,0,0,0,0,0,,0,,,,,0.0,0.0,0.0,0.0,0,0,0.0
339504,0,0.0,-51,,-0.1,0.06,1.0,-1,-1,-1,1.01,1.18,86,2364,0.0,3.45,,13.05,0.954,77.2,,45.8,5,,,,,,,,,,,,0,0,0,0,0,0,0,0,0,0,0,0,0,0,0,0,,,,,,0.0,,,,,,,
339524,0,,,,,,,,,,,,,,,,,,,,,,,,,,,,,,,,,,0,0,0,0,0,0,0,0,0,0,0,0,0,0,0,0,,,,,,,,,,,,,
339544,0,0.0,-38,,-0.09,0.03,1.01,-0,-1,-1,1.02,1.18,86,2146,6.5,3.66,,13.64,0.957,77.2,,38.4,5,,,,,,,,,,,,0,0,0,0,0,0,0,0,0,0,0,0,0,0,0,0,,,,,,0.0,,,,,,,
339564,0,,,,,,,,,,,,,,,,,,,,,,,,,,,,,,,,,,0,0,0,0,0,0,0,0,0,0,0,0,0,0,0,0,,,,,,,,,,,,,
339584,0,0.0,-38,,-0.09,0.03,1.0,-1,-1,-1,1.0,1.18,85,1984,13.0,4.09,,14.15,0.952,77.2,,38.4,5,0,256,0,0,0.0,24.0,0.0,0.0,2.25,,,0,0,0,0,0,0,0,0,0,0,0,0,0,0,0,0,,0,,,,0.0,0.0,0.0,0.0,0.0,0,0,0.0
339604,0,,,,,,,,,,,,,,,,,,,,,,,,,,,,,,,,,,0,0,0,0,0,0,0,0,0,0,0,0,0,0,0,0,,,,,,,,,,,,,
339624,0,0.0,-51,,-0.08,0.03,1.01,-0,-1,-1,1.01,1.18,86,1823,13.6,4.18,,14.32,0.956,77.2,,38.4,5,,,,,,,,,,,,0,0,0,0,0,0,0,0,0,0,0,0,0,0,0,0,,,,,,0.0,,,,,,,
339644,0,,,,,,,,,,,,,,,,,,,,,,,,,,,,,,,,,,0,0,0,0,0,0,0,0,0,0,0,0,0,0,0,0,,,,,,,,,,,,,
339664,0,0.0,-44,,-0.09,0.01,1.0,-1,-1,-0,1.0,1.18,85,1819,7.0,3.43,,14.32,0.956,77.2,,35.2,5,,,,,,,,,,,,0,0,0,0,0,0,0,0,0,0,0,0,0,0,0,0,,,,,,0.0,,,,,,,
339684,0,,,,,,,,,,,,,,,,,,,,,,,0,191,0,0,0.0,24.0,0.0,0.0,2.25,,,0,0,0,0,0,0,0,0,0,0,0,0,0,0,0,0,,0,,,,,0.0,0.0,0.0,0.0,0,0,0.0
339704,0,0.0,-55,,-0.08,0.04,1.01,-1,-1,-0,1.01,1.18,86,1819,7.0,3.43,,14.22,0.955,77.2,,35.2,5,,,,,,,,,,,,0,0,0,0,0,0,0,0,0,0,0,0,0,0,0,0,,,,,,0.0,,,,,,,
339724,0,,,,,,,,,,,,,,,,,,,,,,,,,,,,,,,,,,0,0,0,0,0,0,0,0,0,0,0,0,0,0,0,0,,,,,,,,,,,,,
339744,0,0.0,-38,,-0.09,0.05,0.98,-1,-1,-0,0.99,1.18,84,1910,0.0,3.47,,14.07,0.953,77.2,,32.9,5,,,,,,,,,,,,0,0,0,0,0,0,0,0,0,0,0,0,0,0,0,0,,,,,,0.0,,,,,,,
339764,0,,,,,,,,,,,,,,,,,,,,,,,,,,,,,,,,,,0,0,0,0,0,0,0,0,0,0,0,0,0,0,0,0,,,,,,,,,,,,,
339784,0,0.0,-44,,-0.06,0.01,0.98,-0,-1,-0,0.99,1.18,84,1800,0.0,3.4,,14.03,0.956,77.2,,32.9,5,0,8,0,0,0.0,24.0,0.0,0.0,2.25,,,0,0,0,0,0,0,0,0,0,0,0,0,0,0,0,0,,0,,,,0.0,0.0,0.0,0.0,0.0,0,0,0.0
339804,0,,,,,,,,,,,,,,,,,,,,,,,,,,,,,,,,,,0,0,0,0,0,0,0,0,0,0,0,0,0,0,0,0,,,,,,,,,,,,,
339824,0,0.0,-41,,-0.05,0.03,0.99,-0,-1,-0,1.0,1.18,84,1651,0.0,3.4,,13.96,0.952,77.2,,32.9,5,,,,,,,,,,,,0,0,0,0,0,0,0,0,0,0,0,0,0,0,0,0,,,,,,0.0,,,,,,,
339844,0,,,,,,,,,,,,,,,,,,,,,,,,,,,,,,,,,,0,0,0,0,0,0,0,0,0,0,0,0,0,0,0,0,,,,,,,,,,,,,
339864,0,0.0,-48,,-0.07,0.02,1.02,-0,-1,-0,1.02,1.18,86,1677,0.0,3.35,,13.96,0.952,77.2,,30.7,5,,,,,,,,,,,,0,0,0,0,0,0,0,0,0,0,0,0,0,0,0,0,,,,,,0.0,,,,,,,
339884,0,,,,,,,,,,,,,,,,,,,,,,,0,9,0,0,0.0,24.0,0.0,0.0,2.25,,,0,0,0,0,0,0,0,0,0,0,0,0,0,0,0,0,,0,,,,,0.0,0.0,0.0,0.0,0,0,0.0
339904,0,0.0,-51,,-0.09,0.02,1.03,-1,-1,-0,1.03,1.18,88,1677,0.0,3.35,,14.03,0.956,77.2,,30.7,5,,,,,,,,,,,,0,0,0,0,0,0,0,0,0,0,0,0,0,0,0,0,,,,,,0.0,,,,,,,
339924,0,,,,,,,,,,,,,,,,,,,,,,,,,,,,,,,,,,0,0,0,0,0,0,0,0,0,0,0,0,0,0,0,0,,,,,,,,,,,,,
339944,0,0.0,-38,,-0.1,0.03,1.03,-0,-1,-0,1.03,1.18,88,1561,0.0,3.31,,14.02,0.956,77.2,,27.9,5,,,,,,,,,,,,0,0,0,0,0,0,0,0,0,0,0,0,0,0,0,0,,,,,,0.0,,,,,,,
339964,0,,,,,,,,,,,,,,,,,,,,,,,,,,,,,,,,,,0,0,0,0,0,0,0,0,0,0,0,0,0,0,0,0,,,,,,,,,,,,,
339984,0,0.0,-38,,-0.1,0.03,1.05,0,-1,-0,1.06,1.18,90,1423,0.0,3.32,,14.14,0.952,77.2,,27.9,5,0,7,0,0,0.0,24.0,0.0,0.0,2.25,,,0,0,0,0,0,0,0,0,0,0,0,0,0,0,0,0,,0,,,,0.0,0.0,0.0,0.0,0.0,0,0,0.0
340004,0,,,,,,,,,,,,,,,,,,,,,,,,,,,,,,,,,,0,0,0,0,0,0,0,0,0,0,0,0,0,0,0,0,,,,,,,,,,,,,
340024,0,0.0,-48,,-0.1,0.03,1.06,0,-1,-0,1.07,1.18,91,1509,0.0,3.27,,14.04,0.955,77.2,,27.9,5,,,,,,,,,,,,0,0,0,0,0,0,0,0,0,0,0,0,0,0,0,0,,,,,,0.0,,,,,,,
340044,0,,,,,,,,,,,,,,,,,,,,,,,,,,,,,,,,,,0,0,0,0,0,0,0,0,0,0,0,0,0,0,0,0,,,,,,,,,,,,,
340064,0,0.0,-51,,-0.07,0.02,1.07,1,-1,-0,1.07,1.18,91,1350,0.0,3.31,,14.04,0.955,77.2,,25.6,5,,,,,,,,,,,,0,0,0,0,0,0,0,0,0,0,0,0,0,0,0,0,,,,,,0.0,,,,,,,
340084,0,,,,,,,,,,,,,,,,,,,,,,,0,6,0,0,0.0,24.0,0.0,0.0,2.25,,,0,0,0,0,0,0,0,0,0,0,0,0,0,0,0,0,,0,,,,,0.0,0.0,0.0,0.0,0,0,0.0
340104,0,0.0,-48,,-0.06,0.03,1.06,1,-1,-0,1.07,1.18,90,1350,0.0,3.31,,14.18,0.953,77.2,,25.6,5,,,,,,,,,,,,0,0,0,0,0,0,0,0,0,0,0,0,0,0,0,0,,,,,,0.0,,,,,,,
340124,0,,,,,,,,,,,,,,,,,,,,,,,,,,,,,,,,,,0,0,0,0,0,0,0,0,0,0,0,0,0,0,0,0,,,,,,,,,,,,,
340144,0,0.0,-44,,-0.06,0.03,1.05,1,-1,-0,1.05,1.18,89,1447,0.0,3.25,,14.26,0.952,77.2,,24.3,5,,,,,,,,,,,,0,0,0,0,0,0,0,0,0,0,0,0,0,0,0,0,,,,,,0.0,,,,,,,
340164,0,,,,,,,,,,,,,,,,,,,,,,,,,,,,,,,,,,0,0,0,0,0,0,0,0,0,0,0,0,0,0,0,0,,,,,,,,,,,,,
340184,0,0.0,-41,,-0.07,0.05,1.03,0,-1,-0,1.03,1.18,87,1440,11.7,4.12,,14.34,0.955,77.2,,24.3,5,0,6,0,0,0.0,24.0,0.0,0.0,2.25,,,0,0,0,0,0,0,0,0,0,0,0,0,0,0,0,0,,0,,,,0.0,0.0,0.0,0.0,0.0,0,0,0.0
340204,0,,,,,,,,,,,,,,,,,,,,,,,,,,,,,,,,,,0,0,0,0,0,0,0,0,0,0,0,0,0,0,0,0,,,,,,,,,,,,,
340224,0,0.0,-55,,-0.07,0.04,1.03,0,-1,-0,1.04,1.18,88,1276,18.0,4.42,,14.43,0.952,77.2,,24.3,5,,,,,,,,,,,,0,0,0,0,0,0,0,0,0,0,0,0,0,0,0,0,,,,,,0.0,,,,,,,
340244,0,,,,,,,,,,,,,,,,,,,,,,,,,,,,,,,,,,0,0,0,0,0,0,0,0,0,0,0,0,0,0,0,0,,,,,,,,,,,,,
340264,0,0.0,-44,,-0.07,0.04,1.05,0,-1,-0,1.05,1.18,89,1465,18.3,4.3,,14.43,0.952,77.2,,24.5,5,,,,,,,,,,,,0,0,0,0,0,0,0,0,0,0,0,0,0,0,0,0,,,,,,0.0,,,,,,,
340284,0,,,,,,,,,,,,,,,,,,,,,,,0,22,0,0,0.0,0.0,0.0,0.0,2.25,,,0,0,0,0,0,0,0,0,0,0,0,0,0,0,0,0,,0,,,,,0.0,0.0,0.0,0.0,0,0,0.0
340304,0,0.0,-48,,-0.07,0.03,1.05,0,-1,-0,1.05,1.18,89,1465,18.3,4.3,,14.54,0.956,77.2,,24.5,5,,,,,,,,,,,,0,0,0,0,0,0,0,0,0,0,0,0,0,0,0,0,,,,,,0.0,,,,,,,
340324,0,,,,,,,,,,,,,,,,,,,,,,,,,,,,,,,,,,0,0,0,0,0,0,0,0,0,0,0,0,0,0,0,0,,,,,,,,,,,,,
340344,0,0.0,-44,,-0.05,0.03,1.04,1,-1,-0,1.05,1.18,89,1341,9.7,4.14,,14.42,0.957,77.2,,27.2,5,,,,,,,,,,,,0,0,0,0,0,0,0,0,0,0,0,0,0,0,0,0,,,,,,0.0,,,,,,,
340364,0,,,,,,,,,,,,,,,,,,,,,,,,,,,,,,,,,,0,0,0,0,0,0,0,0,0,0,0,0,0,0,0,0,,,,,,,,,,,,,
340384,0,0.0,-48,14.06,-0.05,0.03,1.06,1,-1,-0,1.06,1.18,90,1605,0.5,3.49,15,14.28,0.952,77.2,106,27.2,5,0,12,0,0,0.0,24.0,0.0,0.0,2.25,0,0.0,0,0,0,0,0,0,0,0,0,0,0,0,0,0,0,0,0,0,0.0,0,0,0.0,0.0,0.0,0.0,0.0,0,0,0.0
340404,0,,,,,,,,,,,,,,,,,,,,,,,,,,,,,,,,,,0,0,0,0,0,0,0,0,0,0,0,0,0,0,0,0,,,,,,,,,,,,,
340424,0,0.0,-48,,-0.06,0.05,1.07,0,-1,-0,1.08,1.18,91,1605,0.0,3.31,,14.15,0.955,77.2,,27.2,5,,,,,,,,,,,,0,0,0,0,0,0,0,0,0,0,0,0,0,0,0,0,,,,,,0.0,,,,,,,
340444,0,,,,,,,,,,,,,,,,,,,,,,,,,,,,,,,,,,0,0,0,0,0,0,0,0,0,0,0,0,0,0,0,0,,,,,,,,,,,,,
340464,0,0.0,-48,,-0.07,0.05,1.09,0,-1,-0,1.1,1.18,93,1494,0.0,3.34,,14.15,0.955,77.2,,28.5,5,,,,,,,,,,,,0,0,0,0,0,0,0,0,0,0,0,0,0,0,0,0,,,,,,0.0,,,,,,,
340484,0,,,,,,,,,,,,,,,,,,,,,,,0,8,0,0,0.0,24.0,0.0,0.0,2.25,,,0,0,0,0,0,0,0,0,0,0,0,0,0,0,0,0,,0,,,,,0.0,0.0,0.0,0.0,0,0,0.0
340504,0,0.0,-48,,-0.09,0.05,1.11,0,-1,-1,1.11,1.18,94,1494,0.0,3.34,,14.24,0.954,77.2,,28.5,5,,,,,,,,,,,,0,0,0,0,0,0,0,0,0,0,0,0,0,0,0,0,,,,,,0.0,,,,,,,
340524,0,,,,,,,,,,,,,,,,,,,,,,,,,,,,,,,,,,0,0,0,0,0,0,0,0,0,0,0,0,0,0,0,0,,,,,,,,,,,,,
340544,0,0.0,-44,,-0.09,0.05,1.12,0,-1,-1,1.12,1.18,95,1559,0.0,3.31,,14.1,0.952,77.2,,26.6,5,,,,,,,,,,,,0,0,0,0,0,0,0,0,0,0,0,0,0,0,0,0,,,,,,0.0,,,,,,,
340564,0,,,,,,,,,,,,,,,,,,,,,,,,,,,,,,,,,,0,0,0,0,0,0,0,0,0,0,0,0,0,0,0,0,,,,,,,,,,,,,
340584,0,0.0,-38,,-0.1,0.05,1.13,0,-1,-1,1.14,1.18,97,1440,0.0,3.33,,14.22,0.955,77.2,,26.6,5,0,6,0,0,0.0,24.0,0.0,0.0,2.25,,,0,0,0,0,0,0,0,0,0,0,0,0,0,0,0,0,,0,,,,0.0,0.0,0.0,0.0,0.0,0,0,0.0
340604,0,,,,,,,,,,,,,,,,,,,,,,,,,,,,,,,,,,0,0,0,0,0,0,0,0,0,0,0,0,0,0,0,0,,,,,,,,,,,,,
340624,0,0.0,-51,,-0.1,0.05,1.14,1,-1,-1,1.14,1.18,97,1426,0.0,3.33,,14.08,0.953,77.2,,26.6,5,,,,,,,,,,,,0,0,0,0,0,0,0,0,0,0,0,0,0,0,0,0,,,,,,0.0,,,,,,,
340644,0,,,,,,,,,,,,,,,,,,,,,,,,,,,,,,,,,,0,0,0,0,0,0,0,0,0,0,0,0,0,0,0,0,,,,,,,,,,,,,
340664,0,0.0,-51,,-0.11,0.06,1.15,1,-1,-1,1.16,1.18,98,1529,0.0,3.28,,14.08,0.953,77.2,,26.3,5,,,,,,,,,,,,0,0,0,0,0,0,0,0,0,0,0,0,0,0,0,0,,,,,,0.0,,,,,,,
340684,0,,,,,,,,,,,,,,,,,,,,,,,0,26,0,0,0.0,0.0,0.0,0.0,2.25,,,0,0,0,0,0,0,0,0,0,0,0,0,0,0,0,0,,0,,,,,0.0,0.0,0.0,0.0,0,0,0.0
340704,0,0.0,-51,,-0.1,0.06,1.15,1,-1,-1,1.15,1.18,98,1529,0.0,3.28,,14.2,0.955,77.2,,26.3,5,,,,,,,,,,,,0,0,0,0,0,0,0,0,0,0,0,0,0,0,0,0,,,,,,0.0,,,,,,,
340724,0,,,,,,,,,,,,,,,,,,,,,,,,,,,,,,,,,,0,0,0,0,0,0,0,0,0,0,0,0,0,0,0,0,,,,,,,,,,,,,
340744,0,0.0,-41,,-0.1,0.05,1.14,1,-1,-1,1.15,1.18,97,1413,0.0,3.32,,14.11,0.956,77.2,,27.3,5,,,,,,,,,,,,0,0,0,0,0,0,0,0,0,0,0,0,0,0,0,0,,,,,,0.0,,,,,,,
340764,0,,,,,,,,,,,,,,,,,,,,,,,,,,,,,,,,,,0,0,0,0,0,0,0,0,0,0,0,0,0,0,0,0,,,,,,,,,,,,,
340784,0,0.0,-41,,-0.1,0.05,1.14,1,-1,-1,1.14,1.18,97,1528,0.0,3.28,,14.15,0.952,77.2,,27.3,5,0,8,0,0,0.0,24.0,0.0,0.0,2.25,,,0,0,0,0,0,0,0,0,0,0,0,0,0,0,0,0,,0,,,,0.0,0.0,0.0,0.0,0.0,0,0,0.0
340804,0,,,,,,,,,,,,,,,,,,,,,,,,,,,,,,,,,,0,0,0,0,0,0,0,0,0,0,0,0,0,0,0,0,,,,,,,,,,,,,
340824,0,0.0,-55,,-0.08,0.05,1.13,1,-1,-0,1.14,1.18,96,1367,0.0,3.3,,14.2,0.956,77.2,,27.3,5,,,,,,,,,,,,0,0,0,0,0,0,0,0,0,0,0,0,0,0,0,0,,,,,,0.0,,,,,,,
340844,0,,,,,,,,,,,,,,,,,,,,,,,,,,,,,,,,,,0,0,0,0,0,0,0,0,0,0,0,0,0,0,0,0,,,,,,,,,,,,,
340864,0,0.0,-51,,-0.07,0.04,1.1,0,-1,-0,1.11,1.18,94,1341,0.0,3.29,,14.2,0.956,77.2,,26.7,5,,,,,,,,,,,,0,0,0,0,0,0,0,0,0,0,0,0,0,0,0,0,,,,,,0.0,,,,,,,
340884,0,,,,,,,,,,,,,,,,,,,,,,,0,10,0,0,0.0,24.0,0.0,0.0,2.25,,,0,0,0,0,0,0,0,0,0,0,0,0,0,0,0,0,,0,,,,,0.0,0.0,0.0,0.0,0,0,0.0
340904,0,0.0,-58,,-0.06,0.04,1.07,0,-1,-0,1.08,1.18,91,1341,0.0,3.29,,14.12,0.954,77.2,,26.7,5,,,,,,,,,,,,0,0,0,0,0,0,0,0,0,0,0,0,0,0,0,0,,,,,,0.0,,,,,,,
340924,0,,,,,,,,,,,,,,,,,,,,,,,,,,,,,,,,,,0,0,0,0,0,0,0,0,0,0,0,0,0,0,0,0,,,,,,,,,,,,,
340944,0,0.0,-48,,-0.06,0.04,1.05,-0,-1,-0,1.06,1.18,90,1476,0.0,3.26,,14.23,0.955,77.2,,25.5,5,,,,,,,,,,,,0,0,0,0,0,0,0,0,0,0,0,0,0,0,0,0,,,,,,0.0,,,,,,,
340964,0,,,,,,,,,,,,,,,,,,,,,,,,,,,,,,,,,,0,0,0,0,0,0,0,0,0,0,0,0,0,0,0,0,,,,,,,,,,,,,
340984,0,0.0,-44,,-0.06,0.03,1.05,-0,-1,-0,1.05,1.18,89,1276,0.0,3.3,,14.31,0.957,77.2,,25.5,5,0,7,0,0,0.0,24.0,0.0,0.0,2.25,,,0,0,0,0,0,0,0,0,0,0,0,0,0,0,0,0,,0,,,,0.0,0.0,0.0,0.0,0.0,0,0,0.0
341004,0,,,,,,,,,,,,,,,,,,,,,,,,,,,,,,,,,,0,0,0,0,0,0,0,0,0,0,0,0,0,0,0,0,,,,,,,,,,,,,
341024,0,0.0,-58,,-0.06,0.03,1.05,0,-1,-0,1.05,1.18,89,1348,0.0,3.22,,14.26,0.954,77.2,,25.5,5,,,,,,,,,,,,0,0,0,0,0,0,0,0,0,0,0,0,0,0,0,0,,,,,,0.0,,,,,,,
341044,0,,,,,,,,,,,,,,,,,,,,,,,,,,,,,,,,,,0,0,0,0,0,0,0,0,0,0,0,0,0,0,0,0,,,,,,,,,,,,,
341064,0,0.0,-51,,-0.07,0.03,1.04,0,-1,0,1.04,1.18,88,1213,0.0,3.26,,14.26,0.954,77.2,,23.6,5,,,,,,,,,,,,0,0,0,0,0,0,0,0,0,0,0,0,0,0,0,0,,,,,,0.0,,,,,,,
341084,0,,,,,,,,,,,,,,,,,,,,,,,0,37,0,0,0.0,24.0,0.0,0.0,2.25,,,0,0,0,0,0,0,0,0,0,0,0,0,0,0,0,0,,0,,,,,0.0,0.0,0.0,0.0,0,0,0.0
341104,0,0.0,-61,,-0.08,0.04,1.02,0,-1,0,1.03,1.18,87,1213,0.0,3.26,,14.23,0.956,77.2,,23.6,5,,,,,,,,,,,,0,0,0,0,0,0,0,0,0,0,0,0,0,0,0,0,,,,,,0.0,,,,,,,
341124,0,,,,,,,,,,,,,,,,,,,,,,,,,,,,,,,,,,0,0,0,0,0,0,0,0,0,0,0,0,0,0,0,0,,,,,,,,,,,,,
341144,0,0.0,-51,,-0.07,0.03,1.03,0,-1,0,1.03,1.18,87,1402,0.0,3.21,,14.16,0.956,77.2,,23.2,5,,,,,,,,,,,,0,0,0,0,0,0,0,0,0,0,0,0,0,0,0,0,,,,,,0.0,,,,,,,
341164,0,,,,,,,,,,,,,,,,,,,,,,,,,,,,,,,,,,0,0,0,0,0,0,0,0,0,0,0,0,0,0,0,0,,,,,,,,,,,,,
341184,0,0.0,-55,,-0.06,0.02,1.02,1,-1,0,1.02,1.18,87,1224,0.0,3.27,,14.2,0.951,77.2,,23.2,5,0,29,0,0,0.0,24.0,0.0,0.0,2.25,,,0,0,0,0,0,0,0,0,0,0,0,0,0,0,0,0,,0,,,,0.0,0.0,0.0,0.0,0.0,0,0,0.0
341204,0,,,,,,,,,,,,,,,,,,,,,,,,,,,,,,,,,,0,0,0,0,0,0,0,0,0,0,0,0,0,0,0,0,,,,,,,,,,,,,
341224,0,0.0,-58,,-0.06,0.02,1.02,0,-1,0,1.02,1.18,87,1381,0.0,3.22,,14.23,0.954,77.2,,23.2,5,,,,,,,,,,,,0,0,0,0,0,0,0,0,0,0,0,0,0,0,0,0,,,,,,0.0,,,,,,,
341244,0,,,,,,,,,,,,,,,,,,,,,,,,,,,,,,,,,,0,0,0,0,0,0,0,0,0,0,0,0,0,0,0,0,,,,,,,,,,,,,
341264,0,0.0,-51,,-0.07,0.03,1.03,0,-1,-0,1.04,1.18,88,1210,0.0,3.27,,14.23,0.954,77.2,,22.8,5,,,,,,,,,,,,0,0,0,0,0,0,0,0,0,0,0,0,0,0,0,0,,,,,,0.0,,,,,,,
341284,0,,,,,,,,,,,,,,,,,,,,,,,0,38,0,0,0.0,24.0,0.0,0.0,2.25,,,0,0,0,0,0,0,0,0,0,0,0,0,0,0,0,0,,0,,,,,0.0,0.0,0.0,0.0,0,0,0.0
341304,0,0.0,-58,,-0.07,0.03,1.03,0,-1,-0,1.04,1.18,88,1210,0.0,3.27,,14.3,0.954,77.2,,22.8,5,,,,,,,,,,,,0,0,0,0,0,0,0,0,0,0,0,0,0,0,0,0,,,,,,0.0,,,,,,,
341324,0,,,,,,,,,,,,,,,,,,,,,,,,,,,,,,,,,,0,0,0,0,0,0,0,0,0,0,0,0,0,0,0,0,,,,,,,,,,,,,
341344,0,0.0,-51,,-0.07,0.03,1.02,0,-1,0,1.02,1.18,87,1392,0.0,3.21,,14.28,0.955,77.2,,23.0,5,,,,,,,,,,,,0,0,0,0,0,0,0,0,0,0,0,0,0,0,0,0,,,,,,0.0,,,,,,,
341364,0,,,,,,,,,,,,,,,,,,,,,,,,,,,,,,,,,,0,0,0,0,0,0,0,0,0,0,0,0,0,0,0,0,,,,,,,,,,,,,
341384,0,0.0,-44,13.95,-0.08,0.04,1.01,1,-1,0,1.01,1.18,86,1369,0.0,3.22,15,14.19,0.957,77.2,106,23.0,5,0,32,0,0,0.0,24.0,0.0,0.0,2.25,0,0.0,0,0,0,0,0,0,0,0,0,0,0,0,0,0,0,0,0,0,0.0,0,0,0.0,0.0,0.0,0.0,0.0,0,0,0.0
341404,0,,,,,,,,,,,,,,,,,,,,,,,,,,,,,,,,,,0,0,0,0,0,0,0,0,0,0,0,0,0,0,0,0,,,,,,,,,,,,,
341424,0,0.0,-48,,-0.06,0.03,1.01,1,-1,0,1.01,1.18,85,1210,0.0,3.26,,14.2,0.954,77.2,,23.0,5,,,,,,,,,,,,0,0,0,0,0,0,0,0,0,0,0,0,0,0,0,0,,,,,,0.0,,,,,,,
341444,0,,,,,,,,,,,,,,,,,,,,,,,,,,,,,,,,,,0,0,0,0,0,0,0,0,0,0,0,0,0,0,0,0,,,,,,,,,,,,,
341464,0,0.0,-61,,-0.05,0.02,1.02,1,-1,0,1.02,1.18,87,1399,0.0,3.21,,14.2,0.954,77.2,,23.1,5,,,,,,,,,,,,0,0,0,0,0,0,0,0,0,0,0,0,0,0,0,0,,,,,,0.0,,,,,,,
341484,0,,,,,,,,,,,,,,,,,,,,,,,0,41,0,0,0.0,0.0,0.0,0.0,2.25,,,0,0,0,0,0,0,0,0,0,0,0,0,0,0,0,0,,0,,,,,0.0,0.0,0.0,0.0,0,0,0.0
341504,0,0.0,-65,,-0.05,0.01,1.02,0,-1,0,1.02,1.18,86,1399,0.0,3.21,,14.18,0.955,77.2,,23.1,5,,,,,,,,,,,,0,0,0,0,0,0,0,0,0,0,0,0,0,0,0,0,,,,,,0.0,,,,,,,
341524,0,,,,,,,,,,,,,,,,,,,,,,,,,,,,,,,,,,0,0,0,0,0,0,0,0,0,0,0,0,0,0,0,0,,,,,,,,,,,,,
341544,0,0.0,-51,,-0.07,0.02,1.01,0,-1,0,1.02,1.18,86,1235,0.0,3.27,,14.22,0.955,77.2,,23.9,5,,,,,,,,,,,,0,0,0,0,0,0,0,0,0,0,0,0,0,0,0,0,,,,,,0.0,,,,,,,
341564,0,,,,,,,,,,,,,,,,,,,,,,,,,,,,,,,,,,0,0,0,0,0,0,0,0,0,0,0,0,0,0,0,0,,,,,,,,,,,,,
341584,0,0.0,-48,,-0.07,0.02,1.01,0,-1,0,1.01,1.18,86,1398,0.0,3.22,,14.27,0.951,77.2,,23.9,5,0,50,0,0,0.0,0.0,0.0,0.0,2.25,,,0,0,0,0,0,0,0,0,0,0,0,0,0,0,0,0,,0,,,,0.0,0.0,0.0,0.0,0.0,0,0,0.0
341604,0,,,,,,,,,,,,,,,,,,,,,,,,,,,,,,,,,,0,0,0,0,0,0,0,0,0,0,0,0,0,0,0,0,,,,,,,,,,,,,
341624,0,0.0,-61,,-0.06,-0.0,1.01,1,-1,0,1.01,1.18,85,1238,0.0,3.27,,14.27,0.955,77.2,,23.9,5,,,,,,,,,,,,0,0,0,0,0,0,0,0,0,0,0,0,0,0,0,0,,,,,,0.0,,,,,,,
341644,0,,,,,,,,,,,,,,,,,,,,,,,,,,,,,,,,,,0,0,0,0,0,0,0,0,0,0,0,0,0,0,0,0,,,,,,,,,,,,,
341664,0,0.0,-55,,-0.06,0.01,1.0,0,-1,0,1.0,1.18,85,1425,0.0,3.22,,14.27,0.955,77.2,,24.6,5,,,,,,,,,,,,0,0,0,0,0,0,0,0,0,0,0,0,0,0,0,0,,,,,,0.0,,,,,,,
341684,0,,,,,,,,,,,,,,,,,,,,,,,0,6,0,0,0.0,24.0,0.0,0.0,2.25,,,0,0,0,0,0,0,0,0,0,0,0,0,0,0,0,0,,0,,,,,0.0,0.0,0.0,0.0,0,0,0.0
341704,0,0.0,-65,,-0.08,0.02,1.0,0,-1,0,1.01,1.18,85,1425,0.0,3.22,,14.15,0.954,77.2,,24.6,5,,,,,,,,,,,,0,0,0,0,0,0,0,0,0,0,0,0,0,0,0,0,,,,,,0.0,,,,,,,
341724,0,,,,,,,,,,,,,,,,,,,,,,,,,,,,,,,,,,0,0,0,0,0,0,0,0,0,0,0,0,0,0,0,0,,,,,,,,,,,,,
341744,0,0.0,-44,,-0.09,0.02,1.02,0,-1,0,1.02,1.18,87,1258,0.0,3.28,,14.19,0.955,77.2,,25.0,5,,,,,,,,,,,,0,0,0,0,0,0,0,0,0,0,0,0,0,0,0,0,,,,,,0.0,,,,,,,
341764,0,,,,,,,,,,,,,,,,,,,,,,,,,,,,,,,,,,0,0,0,0,0,0,0,0,0,0,0,0,0,0,0,0,,,,,,,,,,,,,
341784,0,0.0,-51,,-0.09,0.01,1.02,0,-1,0,1.02,1.18,86,1398,0.0,3.23,,14.23,0.956,77.2,,25.0,5,0,26,0,0,0.0,24.0,0.0,0.0,2.25,,,0,0,0,0,0,0,0,0,0,0,0,0,0,0,0,0,,0,,,,0.0,0.0,0.0,0.0,0.0,0,0,0.0
341804,0,,,,,,,,,,,,,,,,,,,,,,,,,,,,,,,,,,0,0,0,0,0,0,0,0,0,0,0,0,0,0,0,0,,,,,,,,,,,,,
341824,0,0.0,-61,,-0.06,-0.03,1.0,1,-1,0,1.01,1.18,85,1237,0.0,3.27,,14.28,0.953,77.2,,25.0,5,,,,,,,,,,,,0,0,0,0,0,0,0,0,0,0,0,0,0,0,0,0,,,,,,0.0,,,,,,,
341844,0,,,,,,,,,,,,,,,,,,,,,,,,,,,,,,,,,,0,0,0,0,0,0,0,0,0,0,0,0,0,0,0,0,,,,,,,,,,,,,
341864,0,0.0,-51,,-0.06,-0.03,1.0,0,-1,0,1.0,1.18,85,1398,0.0,3.22,,14.28,0.953,77.2,,25.0,5,,,,,,,,,,,,0,0,0,0,0,0,0,0,0,0,0,0,0,0,0,0,,,,,,0.0,,,,,,,
341884,0,,,,,,,,,,,,,,,,,,,,,,,0,7,0,0,0.0,24.0,0.0,0.0,2.25,,,0,0,0,0,0,0,0,0,0,0,0,0,0,0,0,0,,0,,,,,0.0,0.0,0.0,0.0,0,0,0.0
341904,0,0.0,-65,,-0.07,-0.02,1.02,0,-1,-0,1.02,1.18,87,1398,0.0,3.22,,14.27,0.956,77.2,,25.0,5,,,,,,,,,,,,0,0,0,0,0,0,0,0,0,0,0,0,0,0,0,0,,,,,,0.0,,,,,,,
341924,0,,,,,,,,,,,,,,,,,,,,,,,,,,,,,,,,,,0,0,0,0,0,0,0,0,0,0,0,0,0,0,0,0,,,,,,,,,,,,,
341944,0,0.0,-55,,-0.08,-0.01,1.03,0,-1,-0,1.03,1.18,87,1381,0.0,3.22,,14.18,0.956,77.2,,24.5,5,,,,,,,,,,,,0,0,0,0,0,0,0,0,0,0,0,0,0,0,0,0,,,,,,0.0,,,,,,,
341964,0,,,,,,,,,,,,,,,,,,,,,,,,,,,,,,,,,,0,0,0,0,0,0,0,0,0,0,0,0,0,0,0,0,,,,,,,,,,,,,
341984,0,0.0,-58,,-0.07,-0.03,1.01,0,-1,-0,1.02,1.18,86,1212,0.0,3.27,,14.18,0.954,77.2,,24.5,5,0,8,0,0,0.0,24.0,0.0,0.0,2.25,,,0,0,0,0,0,0,0,0,0,0,0,0,0,0,0,0,,0,,,,0.0,0.0,0.0,0.0,0.0,0,0,0.0
342004,0,,,,,,,,,,,,,,,,,,,,,,,,,,,,,,,,,,0,0,0,0,0,0,0,0,0,0,0,0,0,0,0,0,,,,,,,,,,,,,
342024,0,0.0,-58,,-0.07,-0.02,1.0,0,-1,0,1.0,1.18,85,1399,0.0,3.21,,14.19,0.956,77.2,,24.5,5,,,,,,,,,,,,0,0,0,0,0,0,0,0,0,0,0,0,0,0,0,0,,,,,,0.0,,,,,,,
342044,0,,,,,,,,,,,,,,,,,,,,,,,,,,,,,,,,,,0,0,0,0,0,0,0,0,0,0,0,0,0,0,0,0,,,,,,,,,,,,,
342064,0,0.0,-51,,-0.06,-0.02,1.0,1,-1,0,1.0,1.18,85,1231,0.0,3.27,,14.19,0.956,77.2,,24.5,5,,,,,,,,,,,,0,0,0,0,0,0,0,0,0,0,0,0,0,0,0,0,,,,,,0.0,,,,,,,
342084,0,,,,,,,,,,,,,,,,,,,,,,,0,6,0,0,0.0,24.0,0.0,0.0,2.25,,,0,0,0,0,0,0,0,0,0,0,0,0,0,0,0,0,,0,,,,,0.0,0.0,0.0,0.0,0,0,0.0
342104,0,0.0,-65,,-0.04,-0.03,1.01,1,-1,0,1.01,1.18,86,1231,0.0,3.27,,14.27,0.954,77.2,,24.5,5,,,,,,,,,,,,0,0,0,0,0,0,0,0,0,0,0,0,0,0,0,0,,,,,,0.0,,,,,,,
342124,0,,,,,,,,,,,,,,,,,,,,,,,,,,,,,,,,,,0,0,0,0,0,0,0,0,0,0,0,0,0,0,0,0,,,,,,,,,,,,,
342144,0,0.0,-55,,-0.05,-0.03,1.02,0,-1,0,1.02,1.18,86,1373,0.0,3.22,,14.3,0.955,77.2,,23.7,5,,,,,,,,,,,,0,0,0,0,0,0,0,0,0,0,0,0,0,0,0,0,,,,,,0.0,,,,,,,
342164,0,,,,,,,,,,,,,,,,,,,,,,,,,,,,,,,,,,0,0,0,0,0,0,0,0,0,0,0,0,0,0,0,0,,,,,,,,,,,,,
342184,0,0.0,-55,,-0.06,-0.03,1.02,0,-1,0,1.03,1.18,87,1207,0.0,3.26,,14.28,0.957,77.2,,23.7,5,0,169,0,0,0.0,24.0,0.0,0.0,2.25,,,0,0,0,0,0,0,0,0,0,0,0,0,0,0,0,0,,0,,,,0.0,0.0,0.0,0.0,0.0,0,0,0.0
342204,0,,,,,,,,,,,,,,,,,,,,,,,,,,,,,,,,,,0,0,0,0,0,0,0,0,0,0,0,0,0,0,0,0,,,,,,,,,,,,,
342224,0,0.0,-65,,-0.07,-0.02,1.02,0,-1,-0,1.02,1.18,87,1385,0.0,3.21,,14.18,0.954,77.2,,23.7,5,,,,,,,,,,,,0,0,0,0,0,0,0,0,0,0,0,0,0,0,0,0,,,,,,0.0,,,,,,,
342244,0,,,,,,,,,,,,,,,,,,,,,,,,,,,,,,,,,,0,0,0,0,0,0,0,0,0,0,0,0,0,0,0,0,,,,,,,,,,,,,
342264,0,0.0,-61,,-0.06,-0.03,1.0,1,-1,-0,1.01,1.18,85,1225,0.0,3.27,,14.18,0.954,77.2,,23.5,5,,,,,,,,,,,,0,0,0,0,0,0,0,0,0,0,0,0,0,0,0,0,,,,,,0.0,,,,,,,
342284,0,,,,,,,,,,,,,,,,,,,,,,,0,6,0,0,0.0,0.0,0.0,0.0,2.25,,,0,0,0,0,0,0,0,0,0,0,0,0,0,0,0,0,,0,,,,,0.0,0.0,0.0,0.0,0,0,0.0
342304,0,0.0,-68,,-0.05,-0.04,0.99,1,-1,-0,0.99,1.18,84,1225,0.0,3.27,,14.19,0.956,77.2,,23.5,5,,,,,,,,,,,,0,0,0,0,0,0,0,0,0,0,0,0,0,0,0,0,,,,,,0.0,,,,,,,
342324,0,,,,,,,,,,,,,,,,,,,,,,,,,,,,,,,,,,0,0,0,0,0,0,0,0,0,0,0,0,0,0,0,0,,,,,,,,,,,,,
342344,0,0.0,-61,,-0.05,-0.03,1.0,0,-1,-0,1.0,1.18,85,1402,0.0,3.22,,14.2,0.956,77.2,,23.3,5,,,,,,,,,,,,0,0,0,0,0,0,0,0,0,0,0,0,0,0,0,0,,,,,,0.0,,,,,,,
342364,0,,,,,,,,,,,,,,,,,,,,,,,,,,,,,,,,,,0,0,0,0,0,0,0,0,0,0,0,0,0,0,0,0,,,,,,,,,,,,,
342384,0,0.0,-65,13.98,-0.06,-0.02,1.01,0,-1,-0,1.01,1.18,86,1244,0.0,3.27,15,14.3,0.955,77.2,108,23.3,5,0,5,0,0,0.0,24.0,0.0,0.0,2.25,0,0.0,0,0,0,0,0,0,0,0,0,0,0,0,0,0,0,0,0,0,0.0,0,0,0.0,0.0,0.0,0.0,0.0,0,0,0.0
342404,0,,,,,,,,,,,,,,,,,,,,,,,,,,,,,,,,,,0,0,0,0,0,0,0,0,0,0,0,0,0,0,0,0,,,,,,,,,,,,,
342424,0,0.0,-71,,-0.07,0.01,1.01,0,-1,-0,1.01,1.18,86,1414,0.0,3.22,,14.26,0.957,77.2,,23.3,5,,,,,,,,,,,,0,0,0,0,0,0,0,0,0,0,0,0,0,0,0,0,,,,,,0.0,,,,,,,
342444,0,,,,,,,,,,,,,,,,,,,,,,,,,,,,,,,,,,0,0,0,0,0,0,0,0,0,0,0,0,0,0,0,0,,,,,,,,,,,,,
342464,0,0.0,-58,,-0.06,-0.01,0.99,1,-1,-0,0.99,1.18,84,1409,0.0,3.23,,14.26,0.957,77.2,,23.5,5,,,,,,,,,,,,0,0,0,0,0,0,0,0,0,0,0,0,0,0,0,0,,,,,,0.0,,,,,,,
342484,0,,,,,,,,,,,,,,,,,,,,,,,0,6,0,0,0.0,24.0,0.0,0.0,2.25,,,0,0,0,0,0,0,0,0,0,0,0,0,0,0,0,0,,0,,,,,0.0,0.0,0.0,0.0,0,0,0.0
342504,0,0.0,-71,,-0.06,-0.01,0.97,0,-1,-0,0.98,1.18,83,1409,0.0,3.23,,14.15,0.954,77.2,,23.5,5,,,,,,,,,,,,0,0,0,0,0,0,0,0,0,0,0,0,0,0,0,0,,,,,,0.0,,,,,,,
342524,0,,,,,,,,,,,,,,,,,,,,,,,,,,,,,,,,,,0,0,0,0,0,0,0,0,0,0,0,0,0,0,0,0,,,,,,,,,,,,,
342544,0,0.0,-61,,-0.06,-0.02,0.98,0,-1,-0,0.98,1.18,84,1245,0.0,3.28,,14.15,0.954,77.2,,24.1,5,,,,,,,,,,,,0,0,0,0,0,0,0,0,0,0,0,0,0,0,0,0,,,,,,0.0,,,,,,,
342564,0,,,,,,,,,,,,,,,,,,,,,,,,,,,,,,,,,,0,0,0,0,0,0,0,0,0,0,0,0,0,0,0,0,,,,,,,,,,,,,
342584,0,0.0,-58,,-0.06,-0.01,0.99,0,-1,-0,0.99,1.18,84,1427,0.0,3.22,,14.23,0.956,77.2,,24.1,5,0,8,0,0,0.0,24.0,0.0,0.0,2.25,,,0,0,0,0,0,0,0,0,0,0,0,0,0,0,0,0,,0,,,,0.0,0.0,0.0,0.0,0.0,0,0,0.0
342604,0,,,,,,,,,,,,,,,,,,,,,,,,,,,,,,,,,,0,0,0,0,0,0,0,0,0,0,0,0,0,0,0,0,,,,,,,,,,,,,
342624,0,0.0,-68,,-0.06,-0.01,0.98,0,-1,-0,0.98,1.18,83,1257,0.0,3.28,,14.3,0.953,77.2,,24.1,5,,,,,,,,,,,,0,0,0,0,0,0,0,0,0,0,0,0,0,0,0,0,,,,,,0.0,,,,,,,
342644,0,,,,,,,,,,,,,,,,,,,,,,,,,,,,,,,,,,0,0,0,0,0,0,0,0,0,0,0,0,0,0,0,0,,,,,,,,,,,,,
342664,0,0.0,-65,,-0.07,0.0,0.97,0,-1,0,0.97,1.18,83,1398,0.0,3.23,,14.3,0.953,77.2,,24.4,5,,,,,,,,,,,,0,0,0,0,0,0,0,0,0,0,0,0,0,0,0,0,,,,,,0.0,,,,,,,
342684,0,,,,,,,,,,,,,,,,,,,,,,,0,7,0,0,0.0,24.0,0.0,0.0,2.25,,,0,0,0,0,0,0,0,0,0,0,0,0,0,0,0,0,,0,,,,,0.0,0.0,0.0,0.0,0,0,0.0
342704,0,0.0,-68,,-0.06,0.0,0.97,0,-1,-0,0.97,1.18,83,1398,0.0,3.23,,14.22,0.955,77.2,,24.4,5,,,,,,,,,,,,0,0,0,0,0,0,0,0,0,0,0,0,0,0,0,0,,,,,,0.0,,,,,,,
342724,0,,,,,,,,,,,,,,,,,,,,,,,,,,,,,,,,,,0,0,0,0,0,0,0,0,0,0,0,0,0,0,0,0,,,,,,,,,,,,,
342744,0,0.0,-75,,-0.04,-0.02,0.98,0,-1,-0,0.98,1.18,83,1237,0.0,3.27,,14.19,0.956,77.2,,24.9,5,,,,,,,,,,,,0,0,0,0,0,0,0,0,0,0,0,0,0,0,0,0,,,,,,0.0,,,,,,,
342764,0,,,,,,,,,,,,,,,,,,,,,,,,,,,,,,,,,,0,0,0,0,0,0,0,0,0,0,0,0,0,0,0,0,,,,,,,,,,,,,
342784,0,0.0,-68,,-0.03,-0.04,0.98,0,-1,-0,0.98,1.18,83,1418,0.0,3.22,,14.16,0.954,77.2,,24.9,5,0,7,0,0,0.0,0.0,0.0,0.0,2.25,,,0,0,0,0,0,0,0,0,0,0,0,0,0,0,0,0,,0,,,,0.0,0.0,0.0,0.0,0.0,0,0,0.0
342804,0,,,,,,,,,,,,,,,,,,,,,,,,,,,,,,,,,,0,0,0,0,0,0,0,0,0,0,0,0,0,0,0,0,,,,,,,,,,,,,
342824,0,0.0,-71,,-0.04,-0.02,0.97,0,-1,-0,0.97,1.18,82,1246,0.0,3.28,,14.24,0.956,77.2,,24.9,5,,,,,,,,,,,,0,0,0,0,0,0,0,0,0,0,0,0,0,0,0,0,,,,,,0.0,,,,,,,
342844,0,,,,,,,,,,,,,,,,,,,,,,,,,,,,,,,,,,0,0,0,0,0,0,0,0,0,0,0,0,0,0,0,0,,,,,,,,,,,,,
342864,0,0.0,-61,,-0.04,-0.01,0.97,0,-1,-0,0.97,1.18,82,1374,0.0,3.22,,14.24,0.956,77.2,,24.8,5,,,,,,,,,,,,0,0,0,0,0,0,0,0,0,0,0,0,0,0,0,0,,,,,,0.0,,,,,,,
342884,0,,,,,,,,,,,,,,,,,,,,,,,0,18,0,0,0.0,0.0,0.0,0.0,2.25,,,0,0,0,0,0,0,0,0,0,0,0,0,0,0,0,0,,0,,,,,0.0,0.0,0.0,0.0,0,0,0.0
342904,0,0.0,-75,,-0.03,-0.03,0.97,0,-1,0,0.97,1.18,82,1374,0.0,3.22,,14.26,0.955,77.2,,24.8,5,,,,,,,,,,,,0,0,0,0,0,0,0,0,0,0,0,0,0,0,0,0,,,,,,0.0,,,,,,,
342924,0,,,,,,,,,,,,,,,,,,,,,,,,,,,,,,,,,,0,0,0,0,0,0,0,0,0,0,0,0,0,0,0,0,,,,,,,,,,,,,
342944,0,0.0,-71,,-0.03,-0.03,0.96,0,-1,0,0.96,1.18,82,1168,0.0,3.26,,14.31,0.955,77.2,,24.0,5,,,,,,,,,,,,0,0,0,0,0,0,0,0,0,0,0,0,0,0,0,0,,,,,,0.0,,,,,,,
342964,0,,,,,,,,,,,,,,,,,,,,,,,,,,,,,,,,,,0,0,0,0,0,0,0,0,0,0,0,0,0,0,0,0,,,,,,,,,,,,,
342984,0,0.0,-68,,-0.02,-0.03,0.97,0,-1,0,0.97,1.18,82,1328,0.0,3.2,,14.34,0.957,77.2,,24.0,5,0,54,0,0,0.0,24.0,0.0,0.0,2.25,,,0,0,0,0,0,0,0,0,0,0,0,0,0,0,0,0,,0,,,,0.0,0.0,0.0,0.0,0.0,0,0,0.0
343004,0,,,,,,,,,,,,,,,,,,,,,,,,,,,,,,,,,,0,0,0,0,0,0,0,0,0,0,0,0,0,0,0,0,,,,,,,,,,,,,
343024,0,0.0,-71,,-0.02,-0.02,0.98,0,-1,0,0.98,1.18,83,1165,0.0,3.25,,14.26,0.953,77.2,,24.0,5,,,,,,,,,,,,0,0,0,0,0,0,0,0,0,0,0,0,0,0,0,0,,,,,,0.0,,,,,,,
343044,0,,,,,,,,,,,,,,,,,,,,,,,,,,,,,,,,,,0,0,0,0,0,0,0,0,0,0,0,0,0,0,0,0,,,,,,,,,,,,,
343064,0,0.0,-68,,-0.02,-0.01,0.98,0,-1,0,0.99,1.18,84,1386,0.0,3.2,,14.26,0.953,77.2,,24.5,5,,,,,,,,,,,,0,0,0,0,0,0,0,0,0,0,0,0,0,0,0,0,,,,,,0.0,,,,,,,
343084,0,,,,,,,,,,,,,,,,,,,,,,,0,8,0,0,0.0,24.0,0.0,0.0,2.25,,,0,0,0,0,0,0,0,0,0,0,0,0,0,0,0,0,,0,,,,,0.0,0.0,0.0,0.0,0,0,0.0
343104,0,0.0,-78,,-0.04,-0.01,1.0,0,-1,0,1.0,1.18,85,1386,0.0,3.2,,14.26,0.954,77.2,,24.5,5,,,,,,,,,,,,0,0,0,0,0,0,0,0,0,0,0,0,0,0,0,0,,,,,,0.0,,,,,,,
343124,0,,,,,,,,,,,,,,,,,,,,,,,,,,,,,,,,,,0,0,0,0,0,0,0,0,0,0,0,0,0,0,0,0,,,,,,,,,,,,,
343144,0,0.0,-61,,-0.05,-0.01,1.01,0,-1,0,1.01,1.18,85,1352,0.0,3.21,,14.15,0.955,77.2,,24.2,5,,,,,,,,,,,,0,0,0,0,0,0,0,0,0,0,0,0,0,0,0,0,,,,,,0.0,,,,,,,
343164,0,,,,,,,,,,,,,,,,,,,,,,,,,,,,,,,,,,0,0,0,0,0,0,0,0,0,0,0,0,0,0,0,0,,,,,,,,,,,,,
343184,0,0.0,-71,,-0.04,0.01,1.0,1,-1,0,1.0,1.18,85,1186,0.0,3.26,,14.19,0.954,77.2,,24.2,5,0,33,0,0,0.0,24.0,0.0,0.0,2.25,,,0,0,0,0,0,0,0,0,0,0,0,0,0,0,0,0,,0,,,,0.0,0.0,0.0,0.0,0.0,0,0,0.0
343204,0,,,,,,,,,,,,,,,,,,,,,,,,,,,,,,,,,,0,0,0,0,0,0,0,0,0,0,0,0,0,0,0,0,,,,,,,,,,,,,
343224,0,0.0,-78,,-0.05,0.0,0.98,1,-1,0,0.98,1.18,83,1410,0.0,3.2,,14.22,0.957,77.2,,24.2,5,,,,,,,,,,,,0,0,0,0,0,0,0,0,0,0,0,0,0,0,0,0,,,,,,0.0,,,,,,,
343244,0,,,,,,,,,,,,,,,,,,,,,,,,,,,,,,,,,,0,0,0,0,0,0,0,0,0,0,0,0,0,0,0,0,,,,,,,,,,,,,
343264,0,0.0,-75,,-0.05,0.01,0.99,1,-1,0,0.99,1.18,84,1256,0.0,3.28,,14.22,0.957,77.2,,24.6,5,,,,,,,,,,,,0,0,0,0,0,0,0,0,0,0,0,0,0,0,0,0,,,,,,0.0,,,,,,,
