"Interval"|"ms"|0|0|1,"Utc"|"ms"|0|0|1,"FrontBP"|"psi"|-5.0|5.0|25,"SteerAng"|"Degrees"|-145|145|25,"Battery"|"Volts"|-5.0|20.0|1,"AccelX"|"G"|-3.0|3.0|25,"AccelY"|"G"|-3.0|3.0|25,"AccelZ"|"G"|-3.0|3.0|25,"Yaw"|"Deg/Sec"|-120|120|25,"Pitch"|"Deg/Sec"|-120|120|25,"Roll"|"Deg/Sec"|-120|120|25,"Gsum"|"G"|0.0|3.0|25,"GsumMax"|"G"|0.0|3.0|25,"GsumPct"|"%"|0|100|25,"RPM"|""|0|10000|25,"TPS"|"%"|0.0|100.0|25,"InjectorPW"|"ms"|0.0|100.0|25,"Baro"|"kPa"|0|105|1,"MAP"|"Psi"|0.0|255.0|25,"Lambda"|""|-2.0|2.0|25,"IAT"|"C"|0.0|200.0|25,"EngineTemp"|"C"|0|200|1,"EOP"|"PSI"|0.0|152.0|25,"EOT"|"F"|0|250|25,"WSFR"|"MPH"|0|150|10,"WSFL"|"MPH"|0|100|10,"WSRR"|"MPH"|0|100|10,"WSRL"|""|0|100|10,"TCSet"|"%"|0.0|100.0|10,"TCSlip"|"%"|0.0|100.0|10,"TCComp"|"deg"|0.0|50.0|10,"TCCut"|"%"|0.0|100.0|10,"Analog8"|""|0.0|5.0|10,"OilTemp"|"F"|0|300|1,"AA_On"|""|0.0|1.0|1,"ThermLF1"|"C"|0|400|50,"ThermLF2"|"C"|0|400|50,"ThermRR1"|"C"|0|400|50,"ThermRR2"|"C"|0|400|50,"ThermLF3"|"C"|0|400|50,"ThermLF4"|"C"|0|400|50,"ThermLF5"|"C"|0|400|50,"ThermLF6"|"C"|0|400|50,"ThermLF7"|"C"|0|400|50,"ThermLF8"|"C"|0|400|50,"ThermRR3"|"C"|0|400|50,"ThermRR4"|"C"|0|400|50,"ThermRR5"|"C"|0|400|50,"ThermRR6"|"C"|0|400|50,"ThermRR7"|"C"|0|400|50,"ThermRR8"|"C"|0|400|50,"AA_LowDrag"|""|0|1|1,"Gear"|""|1|6|10,"AA_On"|""|0.0|1.0|1,"AA_LowDrag"|""|0|1|1,"Fuel_Mix"|""|-10|10|1,"AA_Packages"|""|0.0|1000.0|25,"Latitude"|"Degrees"|-180.0|180.0|10,"Longitude"|"Degrees"|-180.0|180.0|10,"Speed"|"kph"|0.0|150.0|10,"Altitude"|"m"|0.0|4000.0|10,"GPSSats"|""|0|20|10,"GPSQual"|""|0|5|10,"GPSDOP"|""|0.0|20.0|10
1717501,1746076495131,5.78,134,,-0.01,-0.04,0.9,-0,-1,-0,0.9,0.9,100,6459,9.7,3.46,,10.69,0.955,64.6,,70.9,5,,,,,,,,,,,,0,0,0,0,0,0,0,0,0,0,0,0,0,0,0,0,,,,,,0.0,,,,,,,
1717521,1746076495151,,,,,,,,,,,,,,,,,,,,,,,,,,,,,,,,,,0,0,0,0,0,0,0,0,0,0,0,0,0,0,0,0,,,,,,,,,,,,,
1717541,1746076495171,4.52,135,,-0.01,-0.06,0.92,0,-1,-0,0.92,0.92,100,6459,9.7,3.46,,10.57,0.954,64.6,,75.1,5,,,,,,,,,,,,0,0,0,0,0,0,0,0,0,0,0,0,0,0,0,0,,,,,,0.0,,,,,,,
1717561,1746076495191,,,,,,,,,,,,,,,,,,,,,,,,,,,,,,,,,,0,0,0,0,0,0,0,0,0,0,0,0,0,0,0,0,,,,,,,,,,,,,
1717581,1746076495211,3.9,134,,-0.02,-0.04,0.92,0,-1,-0,0.92,0.92,100,6616,9.7,3.58,,10.41,0.955,64.6,,75.1,5,0,0,0,0,0.0,0.0,0.0,0.0,2.27,,,0,0,0,0,0,0,0,0,0,0,0,0,0,0,0,0,,0,,,,0.0,38.993969,-76.93988,0.05,27.3,29,3,0.9
1717601,1746076495231,,,,,,,,,,,,,,,,,,,,,,,,,,,,,,,,,,0,0,0,0,0,0,0,0,0,0,0,0,0,0,0,0,,,,,,,,,,,,,
1717621,1746076495251,4.52,134,,-0.04,0.02,0.93,0,-1,-0,0.93,0.93,100,6736,8.7,3.57,,10.09,0.954,64.6,,75.1,5,,,,,,,,,,,,0,0,0,0,0,0,0,0,0,0,0,0,0,0,0,0,,,,,,0.0,,,,,,,
1717641,1746076495271,,,,,,,,,,,,,,,,,,,,,,,,,,,,,,,,,,0,0,0,0,0,0,0,0,0,0,0,0,0,0,0,0,,,,,,,,,,,,,
1717661,1746076495294,5.15,134,,-0.05,-0.01,0.92,0,-1,-0,0.92,0.93,99,6879,3.7,2.94,,9.35,0.955,64.6,,76.3,5,,,,,,,,,,,,0,0,0,0,0,0,0,0,0,0,0,0,0,0,0,0,,,,,,0.0,,,,,,,
1717681,1746076495314,,,,,,,,,,,,,,,,,,,,,,,0,0,0,0,0.0,0.0,0.0,0.0,2.27,,,0,0,0,0,0,0,0,0,0,0,0,0,0,0,0,0,,0,,,,,38.993969,-76.93988,0.04,27.3,29,3,0.9
1717701,1746076495334,6.41,134,,-0.03,-0.03,0.92,-1,-1,0,0.92,0.93,99,6932,1.6,1.4,,9.35,0.955,64.6,,76.3,5,,,,,,,,,,,,0,0,0,0,0,0,0,0,0,0,0,0,0,0,0,0,,,,,,0.0,,,,,,,
1717721,1746076495354,,,,,,,,,,,,,,,,,,,,,,,,,,,,,,,,,,0,0,0,0,0,0,0,0,0,0,0,0,0,0,0,0,,,,,,,,,,,,,
1717741,1746076495374,5.78,134,,-0.04,0.03,0.94,-0,-1,-0,0.94,0.94,100,6932,1.6,1.4,,8.77,0.955,64.6,,76.3,5,,,,,,,,,,,,0,0,0,0,0,0,0,0,0,0,0,0,0,0,0,0,,,,,,0.0,,,,,,,
1717761,1746076495394,,,,,,,,,,,,,,,,,,,,,,,,,,,,,,,,,,0,0,0,0,0,0,0,0,0,0,0,0,0,0,0,0,,,,,,,,,,,,,
1717781,1746076495414,5.78,134,,-0.04,0.06,0.91,0,-1,-0,0.92,0.94,97,6920,0.7,1.4,,8.25,0.954,64.6,,76.3,5,0,0,0,0,0.0,0.0,0.0,0.0,2.27,,,0,0,0,0,0,0,0,0,0,0,0,0,0,0,0,0,,0,,,,0.0,38.993969,-76.93988,0.06,27.3,29,3,0.9
1717801,1746076495434,,,,,,,,,,,,,,,,,,,,,,,,,,,,,,,,,,0,0,0,0,0,0,0,0,0,0,0,0,0,0,0,0,,,,,,,,,,,,,
1717821,1746076495454,5.78,133,,-0.03,0.0,0.91,-1,-1,0,0.91,0.94,97,6827,0.5,1.4,,7.98,0.955,64.6,,76.3,5,,,,,,,,,,,,0,0,0,0,0,0,0,0,0,0,0,0,0,0,0,0,,,,,,0.0,,,,,,,
1717841,1746076495474,,,,,,,,,,,,,,,,,,,,,,,,,,,,,,,,,,0,0,0,0,0,0,0,0,0,0,0,0,0,0,0,0,,,,,,,,,,,,,
1717861,1746076495494,5.15,134,,-0.03,-0.0,0.92,-1,-1,0,0.93,0.94,98,6638,8.0,2.52,,8.33,0.954,64.6,,72.7,5,,,,,,,,,,,,0,0,0,0,0,0,0,0,0,0,0,0,0,0,0,0,,,,,,0.0,,,,,,,
1717881,1746076495514,,,,,,,,,,,,,,,,,,,,,,,0,0,0,0,0.0,0.0,0.0,0.0,2.27,,,0,0,0,0,0,0,0,0,0,0,0,0,0,0,0,0,,0,,,,,38.993969,-76.93988,0.05,27.3,29,3,0.9
1717901,1746076495534,6.41,134,,-0.04,0.02,0.98,-0,-1,0,0.98,0.98,100,6527,13.7,2.99,,8.33,0.954,64.6,,72.7,5,,,,,,,,,,,,0,0,0,0,0,0,0,0,0,0,0,0,0,0,0,0,,,,,,0.0,,,,,,,
1717921,1746076495554,,,,,,,,,,,,,,,,,,,,,,,,,,,,,,,,,,0,0,0,0,0,0,0,0,0,0,0,0,0,0,0,0,,,,,,,,,,,,,
1717941,1746076495574,5.78,134,,-0.03,0.03,0.96,-0,-1,-0,0.96,0.98,98,6527,13.7,2.99,,9.42,0.954,64.6,,69.4,5,,,,,,,,,,,,0,0,0,0,0,0,0,0,0,0,0,0,0,0,0,0,,,,,,0.0,,,,,,,
1717961,1746076495594,,,,,,,,,,,,,,,,,,,,,,,,,,,,,,,,,,0,0,0,0,0,0,0,0,0,0,0,0,0,0,0,0,,,,,,,,,,,,,
1717981,1746076495614,7.67,134,,-0.04,0.03,0.93,0,-1,-0,0.94,0.98,95,6534,14.7,3.36,,10.17,0.954,64.6,,69.4,5,0,0,0,0,0.0,0.0,0.0,0.0,2.27,,,0,0,0,0,0,0,0,0,0,0,0,0,0,0,0,0,,0,,,,0.0,38.993969,-76.93988,0.07,27.3,29,3,0.9
1718001,1746076495634,,,,,,,,,,,,,,,,,,,,,,,,,,,,,,,,,,0,0,0,0,0,0,0,0,0,0,0,0,0,0,0,0,,,,,,,,,,,,,
1718021,1746076495654,6.41,134,,-0.05,0.0,0.95,-0,-1,-0,0.95,0.98,97,6563,14.8,3.39,,10.58,0.955,64.6,,69.4,5,,,,,,,,,,,,0,0,0,0,0,0,0,0,0,0,0,0,0,0,0,0,,,,,,0.0,,,,,,,
1718041,1746076495674,,,,,,,,,,,,,,,,,,,,,,,,,,,,,,,,,,0,0,0,0,0,0,0,0,0,0,0,0,0,0,0,0,,,,,,,,,,,,,
1718061,1746076495694,5.15,134,,-0.04,0.05,0.99,0,-1,-0,0.99,0.99,100,6538,8.9,3.64,,10.44,0.955,64.6,,69.8,5,,,,,,,,,,,,0,0,0,0,0,0,0,0,0,0,0,0,0,0,0,0,,,,,,0.0,,,,,,,
1718081,1746076495714,,,,,,,,,,,,,,,,,,,,,,,0,0,0,0,0.0,0.0,0.0,0.0,2.28,,,0,0,0,0,0,0,0,0,0,0,0,0,0,0,0,0,,0,,,,,38.993969,-76.93988,0.11,27.3,29,3,0.9
1718101,1746076495734,5.15,134,,-0.04,0.04,0.99,0,-1,-0,1.0,1.0,100,6700,2.0,2.09,,10.44,0.955,64.6,,69.8,5,,,,,,,,,,,,0,0,0,0,0,0,0,0,0,0,0,0,0,0,0,0,,,,,,0.0,,,,,,,
1718121,1746076495754,,,,,,,,,,,,,,,,,,,,,,,,,,,,,,,,,,0,0,0,0,0,0,0,0,0,0,0,0,0,0,0,0,,,,,,,,,,,,,
1718141,1746076495774,4.52,134,,-0.03,0.04,0.98,-0,-1,-0,0.98,1.0,98,6700,2.0,2.09,,9.5,0.954,64.6,,72.7,5,,,,,,,,,,,,0,0,0,0,0,0,0,0,0,0,0,0,0,0,0,0,,,,,,0.0,,,,,,,
1718161,1746076495794,,,,,,,,,,,,,,,,,,,,,,,,,,,,,,,,,,0,0,0,0,0,0,0,0,0,0,0,0,0,0,0,0,,,,,,,,,,,,,
1718181,1746076495814,5.78,134,,-0.03,0.04,0.96,-0,-1,-0,0.96,1.0,96,6782,0.0,1.4,,8.71,0.955,64.6,,72.7,5,0,0,0,0,0.0,0.0,0.0,0.0,2.27,,,0,0,0,0,0,0,0,0,0,0,0,0,0,0,0,0,,0,,,,0.0,38.993969,-76.93988,0.15,27.3,29,3,0.9
1718201,1746076495834,,,,,,,,,,,,,,,,,,,,,,,,,,,,,,,,,,0,0,0,0,0,0,0,0,0,0,0,0,0,0,0,0,,,,,,,,,,,,,
1718221,1746076495854,5.15,133,,-0.03,-0.02,0.92,-0,-1,-0,0.92,1.0,93,6489,0.0,1.4,,8.37,0.955,64.6,,72.7,5,,,,,,,,,,,,0,0,0,0,0,0,0,0,0,0,0,0,0,0,0,0,,,,,,0.0,,,,,,,
1718241,1746076495874,,,,,,,,,,,,,,,,,,,,,,,,,,,,,,,,,,0,0,0,0,0,0,0,0,0,0,0,0,0,0,0,0,,,,,,,,,,,,,
1718261,1746076495894,5.15,134,,-0.02,0.08,1.01,1,-1,-0,1.01,1.01,100,6290,0.0,1.4,,8.18,0.956,64.6,,68.5,5,,,,,,,,,,,,0,0,0,0,0,0,0,0,0,0,0,0,0,0,0,0,,,,,,0.0,,,,,,,
1718281,1746076495914,,,,,,,,,,,,,,,,,,,,,,,0,0,0,0,0.0,0.0,0.0,0.0,2.27,,,0,0,0,0,0,0,0,0,0,0,0,0,0,0,0,0,,0,,,,,38.993969,-76.93988,0.05,27.3,29,3,0.9
1718301,1746076495934,5.15,134,,-0.0,0.19,1.13,2,-1,-0,1.15,1.15,100,5979,0.0,1.4,,8.18,0.956,64.6,,68.5,5,,,,,,,,,,,,0,0,0,0,0,0,0,0,0,0,0,0,0,0,0,0,,,,,,0.0,,,,,,,
1718321,1746076495954,,,,,,,,,,,,,,,,,,,,,,,,,,,,,,,,,,0,0,0,0,0,0,0,0,0,0,0,0,0,0,0,0,,,,,,,,,,,,,
1718341,1746076495974,5.78,134,,0.05,0.23,1.2,4,-1,-0,1.22,1.22,100,5979,0.0,1.4,,8.22,0.955,64.6,,60.9,5,,,,,,,,,,,,0,0,0,0,0,0,0,0,0,0,0,0,0,0,0,0,,,,,,0.0,,,,,,,
1718361,1746076495994,,,,,,,,,,,,,,,,,,,,,,,,,,,,,,,,,,0,0,0,0,0,0,0,0,0,0,0,0,0,0,0,0,,,,,,,,,,,,,
1718381,1746076496006,5.15,134,13.95,0.01,0.18,1.17,3,-1,-0,1.18,1.22,96,5642,0.0,1.4,15,8.46,0.956,64.6,86,60.9,5,0,0,0,0,0.0,0.0,0.0,0.0,2.27,0,0.0,0,0,0,0,0,0,0,0,0,0,0,0,0,0,0,0,0,0,0.0,0,-0,0.0,38.993969,-76.93988,0.0,27.3,29,3,0.9
1718401,1746076496026,,,,,,,,,,,,,,,,,,,,,,,,,,,,,,,,,,0,0,0,0,0,0,0,0,0,0,0,0,0,0,0,0,,,,,,,,,,,,,
1718421,1746076496046,5.15,134,,0.02,0.11,1.13,3,-1,-0,1.13,1.22,93,5343,0.0,1.4,,8.74,0.955,64.6,,60.9,5,,,,,,,,,,,,0,0,0,0,0,0,0,0,0,0,0,0,0,0,0,0,,,,,,0.0,,,,,,,
1718441,1746076496066,,,,,,,,,,,,,,,,,,,,,,,,,,,,,,,,,,0,0,0,0,0,0,0,0,0,0,0,0,0,0,0,0,,,,,,,,,,,,,
1718461,1746076496096,5.15,134,,0.05,0.03,1.07,2,-1,-0,1.08,1.22,88,5047,0.0,1.56,,9.07,0.956,64.6,,57.7,5,,,,,,,,,,,,0,0,0,0,0,0,0,0,0,0,0,0,0,0,0,0,,,,,,0.0,,,,,,,
1718481,1746076496116,,,,,,,,,,,,,,,,,,,,,,,0,0,0,0,0.0,0.0,0.0,0.0,2.27,,,0,0,0,0,0,0,0,0,0,0,0,0,0,0,0,0,,0,,,,,38.993969,-76.93988,0.08,27.3,29,3,0.9
1718501,1746076496136,5.15,134,,-0.01,0.0,0.96,3,-1,-1,0.96,1.22,78,4719,0.0,1.7,,9.07,0.956,64.6,,57.7,5,,,,,,,,,,,,0,0,0,0,0,0,0,0,0,0,0,0,0,0,0,0,,,,,,0.0,,,,,,,
1718521,1746076496156,,,,,,,,,,,,,,,,,,,,,,,,,,,,,,,,,,0,0,0,0,0,0,0,0,0,0,0,0,0,0,0,0,,,,,,,,,,,,,
1718541,1746076496176,6.41,134,,-0.07,-0.02,0.86,4,-1,-1,0.86,1.22,71,4719,0.0,1.7,,9.27,0.955,64.6,,56.0,5,,,,,,,,,,,,0,0,0,0,0,0,0,0,0,0,0,0,0,0,0,0,,,,,,0.0,,,,,,,
1718561,1746076496194,,,,,,,,,,,,,,,,,,,,,,,,,,,,,,,,,,0,0,0,0,0,0,0,0,0,0,0,0,0,0,0,0,,,,,,,,,,,,,
1718581,1746076496214,5.15,133,,-0.04,-0.14,0.84,1,-1,-1,0.85,1.22,70,4385,3.7,2.2,,9.73,0.955,64.6,,56.0,5,0,0,0,0,0.0,0.0,0.0,0.0,2.27,,,0,0,0,0,0,0,0,0,0,0,0,0,0,0,0,0,,0,,,,0.0,38.993969,-76.93988,0.16,27.3,29,3,0.9
1718601,1746076496234,,,,,,,,,,,,,,,,,,,,,,,,,,,,,,,,,,0,0,0,0,0,0,0,0,0,0,0,0,0,0,0,0,,,,,,,,,,,,,
1718621,1746076496254,5.78,134,,-0.07,0.12,0.88,2,-1,-0,0.89,1.22,73,4029,7.6,2.86,,10.65,0.955,64.6,,56.0,5,,,,,,,,,,,,0,0,0,0,0,0,0,0,0,0,0,0,0,0,0,0,,,,,,0.0,,,,,,,
1718641,1746076496274,,,,,,,,,,,,,,,,,,,,,,,,,,,,,,,,,,0,0,0,0,0,0,0,0,0,0,0,0,0,0,0,0,,,,,,,,,,,,,
1718661,1746076496293,6.41,134,,-0.05,0.04,0.9,2,-1,-1,0.9,1.22,74,3802,11.6,4.37,,11.69,0.954,64.6,,55.7,5,,,,,,,,,,,,0,0,0,0,0,0,0,0,0,0,0,0,0,0,0,0,,,,,,0.0,,,,,,,
1718681,1746076496313,,,,,,,,,,,,,,,,,,,,,,,0,0,0,0,0.0,0.0,0.0,0.0,2.27,,,0,0,0,0,0,0,0,0,0,0,0,0,0,0,0,0,,0,,,,,38.993969,-76.93988,0.31,27.3,29,3,0.9
1718701,1746076496333,6.41,134,,-0.05,0.18,0.92,-1,-1,-0,0.93,1.22,76,3684,13.8,4.41,,11.69,0.954,64.6,,55.7,5,,,,,,,,,,,,0,0,0,0,0,0,0,0,0,0,0,0,0,0,0,0,,,,,,0.0,,,,,,,
1718721,1746076496353,,,,,,,,,,,,,,,,,,,,,,,,,,,,,,,,,,0,0,0,0,0,0,0,0,0,0,0,0,0,0,0,0,,,,,,,,,,,,,
1718741,1746076496373,6.41,134,,-0.04,0.26,0.96,-2,-1,0,1.0,1.22,81,3684,13.8,4.41,,12.53,0.955,64.6,,54.8,5,,,,,,,,,,,,0,0,0,0,0,0,0,0,0,0,0,0,0,0,0,0,,,,,,0.0,,,,,,,
1718761,1746076496395,,,,,,,,,,,,,,,,,,,,,,,,,,,,,,,,,,0,0,0,0,0,0,0,0,0,0,0,0,0,0,0,0,,,,,,,,,,,,,
1718781,1746076496415,4.52,134,,-0.02,0.15,0.95,-1,-1,-0,0.97,1.22,79,3642,14.2,4.45,,13.11,0.955,64.6,,54.8,5,0,0,0,0,0.0,0.0,0.0,0.0,2.27,,,0,0,0,0,0,0,0,0,0,0,0,0,0,0,0,0,,0,,,,0.0,38.993969,-76.93988,0.23,27.3,29,3,0.9
1718801,1746076496435,,,,,,,,,,,,,,,,,,,,,,,,,,,,,,,,,,0,0,0,0,0,0,0,0,0,0,0,0,0,0,0,0,,,,,,,,,,,,,
1718821,1746076496455,5.78,134,,-0.03,0.2,0.99,1,-1,0,1.01,1.22,82,3680,14.4,4.43,,13.33,0.955,64.6,,54.8,5,,,,,,,,,,,,0,0,0,0,0,0,0,0,0,0,0,0,0,0,0,0,,,,,,0.0,,,,,,,
1718841,1746076496475,,,,,,,,,,,,,,,,,,,,,,,,,,,,,,,,,,0,0,0,0,0,0,0,0,0,0,0,0,0,0,0,0,,,,,,,,,,,,,
1718861,1746076496493,5.15,134,,-0.05,0.07,0.93,2,-0,0,0.93,1.22,76,3551,14.4,4.41,,13.45,0.955,64.6,,55.2,5,,,,,,,,,,,,0,0,0,0,0,0,0,0,0,0,0,0,0,0,0,0,,,,,,0.0,,,,,,,
1718881,1746076496513,,,,,,,,,,,,,,,,,,,,,,,0,0,0,0,0.0,0.0,0.0,0.0,2.27,,,0,0,0,0,0,0,0,0,0,0,0,0,0,0,0,0,,0,,,,,38.993969,-76.93988,0.04,27.3,29,3,0.9
1718901,1746076496533,5.15,134,,-0.05,-0.02,1.02,3,-1,2,1.02,1.22,84,3473,14.5,4.39,,13.45,0.955,64.6,,55.2,5,,,,,,,,,,,,0,0,0,0,0,0,0,0,0,0,0,0,0,0,0,0,,,,,,0.0,,,,,,,
1718921,1746076496553,,,,,,,,,,,,,,,,,,,,,,,,,,,,,,,,,,0,0,0,0,0,0,0,0,0,0,0,0,0,0,0,0,,,,,,,,,,,,,
1718941,1746076496573,5.15,134,,-0.06,-0.03,1.05,3,0,0,1.05,1.22,86,3473,14.5,4.39,,13.53,0.954,64.6,,54.4,5,,,,,,,,,,,,0,0,0,0,0,0,0,0,0,0,0,0,0,0,0,0,,,,,,0.0,,,,,,,
1718961,1746076496595,,,,,,,,,,,,,,,,,,,,,,,,,,,,,,,,,,0,0,0,0,0,0,0,0,0,0,0,0,0,0,0,0,,,,,,,,,,,,,
1718981,1746076496615,4.52,134,,-0.05,-0.01,1.07,3,-0,1,1.08,1.22,88,3396,8.8,4.18,,13.52,0.955,64.6,,54.4,5,0,0,0,0,0.0,0.0,0.0,0.0,2.27,,,0,0,0,0,0,0,0,0,0,0,0,0,0,0,0,0,,0,,,,0.0,38.993969,-76.93988,0.16,27.3,29,3,0.9
1719001,1746076496635,,,,,,,,,,,,,,,,,,,,,,,,,,,,,,,,,,0,0,0,0,0,0,0,0,0,0,0,0,0,0,0,0,,,,,,,,,,,,,
1719021,1746076496655,6.41,133,,-0.05,0.07,0.95,3,0,1,0.95,1.22,78,3322,3.9,3.91,,13.2,0.955,64.6,,54.4,5,,,,,,,,,,,,0,0,0,0,0,0,0,0,0,0,0,0,0,0,0,0,,,,,,0.0,,,,,,,
1719041,1746076496675,,,,,,,,,,,,,,,,,,,,,,,,,,,,,,,,,,0,0,0,0,0,0,0,0,0,0,0,0,0,0,0,0,,,,,,,,,,,,,
1719061,1746076496695,6.41,134,,-0.05,0.0,1.06,3,-1,2,1.06,1.22,87,3254,3.7,3.78,,13.07,0.955,64.6,,54.4,5,,,,,,,,,,,,0,0,0,0,0,0,0,0,0,0,0,0,0,0,0,0,,,,,,0.0,,,,,,,
1719081,1746076496715,,,,,,,,,,,,,,,,,,,,,,,0,0,0,0,0.0,0.0,0.0,0.0,2.27,,,0,0,0,0,0,0,0,0,0,0,0,0,0,0,0,0,,0,,,,,38.993969,-76.93988,0.22,27.3,29,3,0.9
1719101,1746076496735,6.41,134,,-0.03,0.01,1.07,3,-1,2,1.07,1.22,88,3115,3.8,3.71,,13.07,0.955,64.6,,54.4,5,,,,,,,,,,,,0,0,0,0,0,0,0,0,0,0,0,0,0,0,0,0,,,,,,0.0,,,,,,,
1719121,1746076496755,,,,,,,,,,,,,,,,,,,,,,,,,,,,,,,,,,0,0,0,0,0,0,0,0,0,0,0,0,0,0,0,0,,,,,,,,,,,,,
1719141,1746076496775,5.78,134,,-0.03,-0.01,1.11,3,-1,1,1.11,1.22,91,3115,3.8,3.71,,13.04,0.955,64.6,,54.0,5,,,,,,,,,,,,0,0,0,0,0,0,0,0,0,0,0,0,0,0,0,0,,,,,,0.0,,,,,,,
1719161,1746076496795,,,,,,,,,,,,,,,,,,,,,,,,,,,,,,,,,,0,0,0,0,0,0,0,0,0,0,0,0,0,0,0,0,,,,,,,,,,,,,
1719181,1746076496815,6.41,134,,-0.03,-0.03,1.14,3,-1,1,1.14,1.22,93,2985,14.9,4.51,,13.53,0.955,64.6,,54.0,5,0,0,0,0,0.0,0.0,0.0,0.0,2.28,,,0,0,0,0,0,0,0,0,0,0,0,0,0,0,0,0,,0,,,,0.0,38.993969,-76.93988,0.18,27.3,29,3,0.9
1719201,1746076496835,,,,,,,,,,,,,,,,,,,,,,,,,,,,,,,,,,0,0,0,0,0,0,0,0,0,0,0,0,0,0,0,0,,,,,,,,,,,,,
1719221,1746076496855,6.41,134,,-0.05,-0.0,1.1,2,-1,1,1.11,1.22,90,2864,22.2,5.17,,14.08,0.955,64.6,,54.0,5,,,,,,,,,,,,0,0,0,0,0,0,0,0,0,0,0,0,0,0,0,0,,,,,,0.0,,,,,,,
1719241,1746076496875,,,,,,,,,,,,,,,,,,,,,,,,,,,,,,,,,,0,0,0,0,0,0,0,0,0,0,0,0,0,0,0,0,,,,,,,,,,,,,
1719261,1746076496895,5.78,134,,-0.04,-0.0,1.07,2,-1,1,1.07,1.22,88,2712,24.0,4.49,,14.27,0.956,64.6,,55.1,5,,,,,,,,,,,,0,0,0,0,0,0,0,0,0,0,0,0,0,0,0,0,,,,,,0.0,,,,,,,
1719281,1746076496915,,,,,,,,,,,,,,,,,,,,,,,0,0,0,0,0.0,0.0,0.0,0.0,2.27,,,0,0,0,0,0,0,0,0,0,0,0,0,0,0,0,0,,0,,,,,38.993969,-76.93988,0.0,27.3,29,3,0.9
1719301,1746076496935,5.15,134,,-0.03,-0.03,1.1,2,-1,1,1.11,1.22,90,2646,24.2,4.41,,14.27,0.956,64.6,,55.1,5,,,,,,,,,,,,0,0,0,0,0,0,0,0,0,0,0,0,0,0,0,0,,,,,,0.0,,,,,,,
1719321,1746076496955,,,,,,,,,,,,,,,,,,,,,,,,,,,,,,,,,,0,0,0,0,0,0,0,0,0,0,0,0,0,0,0,0,,,,,,,,,,,,,
1719341,1746076496975,5.78,134,,-0.04,-0.01,1.04,2,-1,0,1.04,1.22,85,2646,24.2,4.41,,14.32,0.955,64.6,,56.3,5,,,,,,,,,,,,0,0,0,0,0,0,0,0,0,0,0,0,0,0,0,0,,,,,,0.0,,,,,,,
1719361,1746076496995,,,,,,,,,,,,,,,,,,,,,,,,,,,,,,,,,,0,0,0,0,0,0,0,0,0,0,0,0,0,0,0,0,,,,,,,,,,,,,
1719381,1746076497007,5.15,134,13.93,-0.03,-0.01,1.07,1,-1,0,1.07,1.22,88,2662,29.5,4.47,15,14.35,0.955,64.6,86,56.3,5,0,0,0,0,0.0,0.0,0.0,0.0,2.27,0,0.0,0,0,0,0,0,0,0,0,0,0,0,0,0,0,0,0,0,0,0.0,0,-0,0.0,38.993969,-76.93988,0.08,27.3,29,3,0.9
1719401,1746076497027,,,,,,,,,,,,,,,,,,,,,,,,,,,,,,,,,,0,0,0,0,0,0,0,0,0,0,0,0,0,0,0,0,,,,,,,,,,,,,
1719421,1746076497047,4.52,134,,-0.03,-0.01,1.06,1,-1,0,1.06,1.22,87,2559,33.9,5.02,,14.44,0.956,64.6,,56.3,5,,,,,,,,,,,,0,0,0,0,0,0,0,0,0,0,0,0,0,0,0,0,,,,,,0.0,,,,,,,
1719441,1746076497067,,,,,,,,,,,,,,,,,,,,,,,,,,,,,,,,,,0,0,0,0,0,0,0,0,0,0,0,0,0,0,0,0,,,,,,,,,,,,,
1719461,1746076497093,5.15,134,,-0.03,-0.01,1.05,1,-1,0,1.05,1.22,86,2438,35.2,4.53,,14.44,0.955,64.6,,52.3,5,,,,,,,,,,,,0,0,0,0,0,0,0,0,0,0,0,0,0,0,0,0,,,,,,0.0,,,,,,,
1719481,1746076497113,,,,,,,,,,,,,,,,,,,,,,,0,0,0,0,0.0,0.0,0.0,0.0,2.27,,,0,0,0,0,0,0,0,0,0,0,0,0,0,0,0,0,,0,,,,,38.993969,-76.93988,0.04,27.3,29,3,0.9
1719501,1746076497133,4.52,134,,-0.02,-0.02,1.06,1,-1,0,1.06,1.22,86,2571,35.5,4.43,,14.44,0.955,64.6,,52.3,5,,,,,,,,,,,,0,0,0,0,0,0,0,0,0,0,0,0,0,0,0,0,,,,,,0.0,,,,,,,
1719521,1746076497153,,,,,,,,,,,,,,,,,,,,,,,,,,,,,,,,,,0,0,0,0,0,0,0,0,0,0,0,0,0,0,0,0,,,,,,,,,,,,,
1719541,1746076497173,4.52,134,,-0.03,-0.02,1.04,1,-1,0,1.04,1.22,85,2571,35.5,4.43,,14.44,0.955,64.6,,51.0,5,,,,,,,,,,,,0,0,0,0,0,0,0,0,0,0,0,0,0,0,0,0,,,,,,0.0,,,,,,,
1719561,1746076497193,,,,,,,,,,,,,,,,,,,,,,,,,,,,,,,,,,0,0,0,0,0,0,0,0,0,0,0,0,0,0,0,0,,,,,,,,,,,,,
1719581,1746076497213,4.52,134,,-0.03,-0.01,1.02,1,-1,0,1.02,1.22,84,2468,35.6,4.42,,14.48,0.955,64.6,,51.0,5,0,0,0,0,0.0,0.0,0.0,0.0,2.27,,,0,0,0,0,0,0,0,0,0,0,0,0,0,0,0,0,,0,,,,0.0,38.993969,-76.93988,0.05,27.3,29,3,0.9
1719601,1746076497233,,,,,,,,,,,,,,,,,,,,,,,,,,,,,,,,,,0,0,0,0,0,0,0,0,0,0,0,0,0,0,0,0,,,,,,,,,,,,,
1719621,1746076497253,4.52,134,,-0.03,-0.01,1.01,1,-1,0,1.01,1.22,83,2402,35.7,4.38,,14.46,0.955,64.6,,51.0,5,,,,,,,,,,,,0,0,0,0,0,0,0,0,0,0,0,0,0,0,0,0,,,,,,0.0,,,,,,,
1719641,1746076497273,,,,,,,,,,,,,,,,,,,,,,,,,,,,,,,,,,0,0,0,0,0,0,0,0,0,0,0,0,0,0,0,0,,,,,,,,,,,,,
1719661,1746076497292,5.15,134,,-0.04,-0.01,1.02,1,-1,0,1.02,1.22,83,2442,35.8,4.37,,14.46,0.956,64.6,,48.4,5,,,,,,,,,,,,0,0,0,0,0,0,0,0,0,0,0,0,0,0,0,0,,,,,,0.0,,,,,,,
1719681,1746076497312,,,,,,,,,,,,,,,,,,,,,,,0,0,0,0,0.0,0.0,0.0,0.0,2.27,,,0,0,0,0,0,0,0,0,0,0,0,0,0,0,0,0,,0,,,,,38.993969,-76.93988,0.0,27.3,29,3,0.9
1719701,1746076497332,4.52,134,,-0.04,-0.01,1.03,1,-1,0,1.03,1.22,84,2315,35.8,4.39,,14.46,0.956,64.6,,48.4,5,,,,,,,,,,,,0,0,0,0,0,0,0,0,0,0,0,0,0,0,0,0,,,,,,0.0,,,,,,,
1719721,1746076497352,,,,,,,,,,,,,,,,,,,,,,,,,,,,,,,,,,0,0,0,0,0,0,0,0,0,0,0,0,0,0,0,0,,,,,,,,,,,,,
1719741,1746076497372,3.9,134,,-0.04,-0.01,1.02,1,-1,0,1.02,1.22,84,2315,35.8,4.39,,14.5,0.955,64.6,,47.3,5,,,,,,,,,,,,0,0,0,0,0,0,0,0,0,0,0,0,0,0,0,0,,,,,,0.0,,,,,,,
1719761,1746076497394,,,,,,,,,,,,,,,,,,,,,,,,,,,,,,,,,,0,0,0,0,0,0,0,0,0,0,0,0,0,0,0,0,,,,,,,,,,,,,
1719781,1746076497414,5.78,134,,-0.05,-0.01,1.01,1,-1,-0,1.01,1.22,83,2199,35.6,4.38,,14.52,0.955,64.6,,47.3,5,0,0,0,0,0.0,0.0,0.0,0.0,2.28,,,0,0,0,0,0,0,0,0,0,0,0,0,0,0,0,0,,0,,,,0.0,38.993969,-76.93988,0.0,27.3,29,3,0.9
1719801,1746076497434,,,,,,,,,,,,,,,,,,,,,,,,,,,,,,,,,,0,0,0,0,0,0,0,0,0,0,0,0,0,0,0,0,,,,,,,,,,,,,
1719821,1746076497454,5.78,134,,-0.05,0.0,1.0,1,-1,0,1.0,1.22,82,2201,35.4,4.41,,14.55,0.955,64.6,,47.3,5,,,,,,,,,,,,0,0,0,0,0,0,0,0,0,0,0,0,0,0,0,0,,,,,,0.0,,,,,,,
1719841,1746076497474,,,,,,,,,,,,,,,,,,,,,,,,,,,,,,,,,,0,0,0,0,0,0,0,0,0,0,0,0,0,0,0,0,,,,,,,,,,,,,
1719861,1746076497492,6.41,134,,-0.04,0.0,0.99,1,-1,0,0.99,1.22,81,2255,35.4,4.42,,14.54,0.955,64.6,,47.2,5,,,,,,,,,,,,0,0,0,0,0,0,0,0,0,0,0,0,0,0,0,0,,,,,,0.0,,,,,,,
1719881,1746076497512,,,,,,,,,,,,,,,,,,,,,,,0,0,0,0,0.0,0.0,0.0,0.0,2.27,,,0,0,0,0,0,0,0,0,0,0,0,0,0,0,0,0,,0,,,,,38.993969,-76.93988,0.05,27.3,29,3,0.9
1719901,1746076497532,6.41,134,,-0.04,-0.0,1.02,0,-1,0,1.02,1.22,83,2227,35.3,4.45,,14.54,0.955,64.6,,47.2,5,,,,,,,,,,,,0,0,0,0,0,0,0,0,0,0,0,0,0,0,0,0,,,,,,0.0,,,,,,,
1719921,1746076497552,,,,,,,,,,,,,,,,,,,,,,,,,,,,,,,,,,0,0,0,0,0,0,0,0,0,0,0,0,0,0,0,0,,,,,,,,,,,,,
1719941,1746076497572,5.78,134,,-0.04,0.0,1.02,0,-1,0,1.02,1.22,83,2227,35.3,4.45,,14.5,0.955,64.6,,47.1,5,,,,,,,,,,,,0,0,0,0,0,0,0,0,0,0,0,0,0,0,0,0,,,,,,0.0,,,,,,,
1719961,1746076497592,,,,,,,,,,,,,,,,,,,,,,,,,,,,,,,,,,0,0,0,0,0,0,0,0,0,0,0,0,0,0,0,0,,,,,,,,,,,,,
1719981,1746076497612,5.15,134,,-0.03,0.0,1.01,0,-1,0,1.01,1.22,83,2219,35.3,4.43,,14.51,0.955,64.6,,47.1,5,0,0,0,0,0.0,0.0,0.0,0.0,2.27,,,0,0,0,0,0,0,0,0,0,0,0,0,0,0,0,0,,0,,,,0.0,38.993969,-76.93988,0.08,27.3,29,3,0.9
1720001,1746076497632,,,,,,,,,,,,,,,,,,,,,,,,,,,,,,,,,,0,0,0,0,0,0,0,0,0,0,0,0,0,0,0,0,,,,,,,,,,,,,
1720021,1746076497652,5.15,134,,-0.03,0.0,0.99,0,-1,0,0.99,1.22,81,2271,35.2,4.45,,14.51,0.955,64.6,,47.1,5,,,,,,,,,,,,0,0,0,0,0,0,0,0,0,0,0,0,0,0,0,0,,,,,,0.0,,,,,,,
1720041,1746076497672,,,,,,,,,,,,,,,,,,,,,,,,,,,,,,,,,,0,0,0,0,0,0,0,0,0,0,0,0,0,0,0,0,,,,,,,,,,,,,
1720061,1746076497694,6.41,134,,-0.04,0.01,0.98,0,-1,-0,0.98,1.22,80,2308,35.2,4.46,,14.52,0.956,64.6,,48.3,5,,,,,,,,,,,,0,0,0,0,0,0,0,0,0,0,0,0,0,0,0,0,,,,,,0.0,,,,,,,
1720081,1746076497714,,,,,,,,,,,,,,,,,,,,,,,0,0,0,0,0.0,0.0,0.0,0.0,2.27,,,0,0,0,0,0,0,0,0,0,0,0,0,0,0,0,0,,0,,,,,38.993969,-76.93988,0.0,27.3,29,3,0.9
1720101,1746076497734,6.41,134,,-0.04,0.01,1.01,0,-1,0,1.01,1.22,83,2483,35.4,4.43,,14.52,0.956,64.6,,48.3,5,,,,,,,,,,,,0,0,0,0,0,0,0,0,0,0,0,0,0,0,0,0,,,,,,0.0,,,,,,,
1720121,1746076497754,,,,,,,,,,,,,,,,,,,,,,,,,,,,,,,,,,0,0,0,0,0,0,0,0,0,0,0,0,0,0,0,0,,,,,,,,,,,,,
1720141,1746076497774,5.78,134,,-0.05,0.02,0.96,1,-1,-0,0.96,1.22,79,2483,35.4,4.43,,14.47,0.955,64.6,,53.3,5,,,,,,,,,,,,0,0,0,0,0,0,0,0,0,0,0,0,0,0,0,0,,,,,,0.0,,,,,,,
1720161,1746076497794,,,,,,,,,,,,,,,,,,,,,,,,,,,,,,,,,,0,0,0,0,0,0,0,0,0,0,0,0,0,0,0,0,,,,,,,,,,,,,
1720181,1746076497814,3.9,134,,-0.04,0.01,0.98,1,-1,-0,0.98,1.22,80,2765,46.1,4.93,,14.47,0.955,64.6,,53.3,5,0,0,0,0,0.0,0.0,0.0,0.0,2.27,,,0,0,0,0,0,0,0,0,0,0,0,0,0,0,0,0,,0,,,,0.0,38.993969,-76.93988,0.0,27.3,29,3,0.9
1720201,1746076497834,,,,,,,,,,,,,,,,,,,,,,,,,,,,,,,,,,0,0,0,0,0,0,0,0,0,0,0,0,0,0,0,0,,,,,,,,,,,,,
1720221,1746076497854,4.52,134,,-0.05,-0.01,1.05,0,-1,0,1.05,1.22,86,2743,48.7,5.01,,14.47,0.955,64.6,,53.3,5,,,,,,,,,,,,0,0,0,0,0,0,0,0,0,0,0,0,0,0,0,0,,,,,,0.0,,,,,,,
1720241,1746076497874,,,,,,,,,,,,,,,,,,,,,,,,,,,,,,,,,,0,0,0,0,0,0,0,0,0,0,0,0,0,0,0,0,,,,,,,,,,,,,
1720261,1746076497894,4.52,134,,-0.06,-0.03,1.13,-0,-2,0,1.13,1.22,92,3066,49.7,4.78,,14.5,0.956,64.6,,57.5,5,,,,,,,,,,,,0,0,0,0,0,0,0,0,0,0,0,0,0,0,0,0,,,,,,0.0,,,,,,,
1720281,1746076497914,,,,,,,,,,,,,,,,,,,,,,,0,0,0,0,0.0,0.0,0.0,0.0,2.27,,,0,0,0,0,0,0,0,0,0,0,0,0,0,0,0,0,,0,,,,,38.993969,-76.93988,0.05,27.3,29,3,0.9
1720301,1746076497934,4.52,134,,-0.06,-0.04,1.19,-1,-2,0,1.2,1.22,98,2997,50.6,4.64,,14.5,0.956,64.6,,57.5,5,,,,,,,,,,,,0,0,0,0,0,0,0,0,0,0,0,0,0,0,0,0,,,,,,0.0,,,,,,,
1720321,1746076497954,,,,,,,,,,,,,,,,,,,,,,,,,,,,,,,,,,0,0,0,0,0,0,0,0,0,0,0,0,0,0,0,0,,,,,,,,,,,,,
1720341,1746076497974,3.9,133,,-0.04,-0.04,1.21,-1,-2,0,1.21,1.22,99,2997,50.6,4.64,,14.48,0.956,64.6,,60.5,5,,,,,,,,,,,,0,0,0,0,0,0,0,0,0,0,0,0,0,0,0,0,,,,,,0.0,,,,,,,
1720361,1746076497994,,,,,,,,,,,,,,,,,,,,,,,,,,,,,,,,,,0,0,0,0,0,0,0,0,0,0,0,0,0,0,0,0,,,,,,,,,,,,,
1720381,1746076498008,3.9,134,13.94,-0.03,-0.05,1.2,-0,-2,0,1.2,1.22,98,2902,50.7,4.62,15,14.52,0.955,64.6,86,60.5,5,0,0,0,0,0.0,0.0,0.0,0.0,2.27,0,0.0,0,0,0,0,0,0,0,0,0,0,0,0,0,0,0,0,0,0,0.0,0,-0,0.0,38.993969,-76.93988,0.05,27.3,29,3,0.9
1720401,1746076498028,,,,,,,,,,,,,,,,,,,,,,,,,,,,,,,,,,0,0,0,0,0,0,0,0,0,0,0,0,0,0,0,0,,,,,,,,,,,,,
1720421,1746076498048,3.9,134,,-0.03,-0.04,1.18,-0,-2,0,1.19,1.22,97,2842,50.7,4.57,,14.51,0.955,64.6,,60.5,5,,,,,,,,,,,,0,0,0,0,0,0,0,0,0,0,0,0,0,0,0,0,,,,,,0.0,,,,,,,
1720441,1746076498068,,,,,,,,,,,,,,,,,,,,,,,,,,,,,,,,,,0,0,0,0,0,0,0,0,0,0,0,0,0,0,0,0,,,,,,,,,,,,,
1720461,1746076498096,3.9,134,,-0.03,-0.05,1.25,-0,-3,0,1.25,1.25,100,3151,50.7,4.57,,14.44,0.954,64.6,,61.4,5,,,,,,,,,,,,0,0,0,0,0,0,0,0,0,0,0,0,0,0,0,0,,,,,,0.0,,,,,,,
1720481,1746076498116,,,,,,,,,,,,,,,,,,,,,,,0,0,0,0,0.0,0.0,0.0,0.0,2.27,,,0,0,0,0,0,0,0,0,0,0,0,0,0,0,0,0,,0,,,,,38.993969,-76.93988,0.04,27.3,29,3,0.9
1720501,1746076498136,3.9,134,,-0.04,-0.07,1.3,-0,-3,1,1.31,1.31,100,3056,50.6,4.72,,14.44,0.954,64.6,,61.4,5,,,,,,,,,,,,0,0,0,0,0,0,0,0,0,0,0,0,0,0,0,0,,,,,,0.0,,,,,,,
1720521,1746076498156,,,,,,,,,,,,,,,,,,,,,,,,,,,,,,,,,,0,0,0,0,0,0,0,0,0,0,0,0,0,0,0,0,,,,,,,,,,,,,
1720541,1746076498176,4.52,134,,-0.02,-0.04,1.25,-1,-3,1,1.25,1.31,95,3056,50.6,4.72,,14.44,0.955,64.6,,63.9,5,,,,,,,,,,,,0,0,0,0,0,0,0,0,0,0,0,0,0,0,0,0,,,,,,0.0,,,,,,,
1720561,1746076498196,,,,,,,,,,,,,,,,,,,,,,,,,,,,,,,,,,0,0,0,0,0,0,0,0,0,0,0,0,0,0,0,0,,,,,,,,,,,,,
1720581,1746076498216,4.52,134,,-0.03,-0.03,1.09,-0,-2,0,1.09,1.31,83,3121,50.6,4.71,,14.47,0.955,66.4,,63.9,5,0,0,0,0,0.0,0.0,0.0,0.0,2.27,,,0,0,0,0,0,0,0,0,0,0,0,0,0,0,0,0,,0,,,,0.0,38.993969,-76.93988,0.04,27.3,29,3,0.9
1720601,1746076498236,,,,,,,,,,,,,,,,,,,,,,,,,,,,,,,,,,0,0,0,0,0,0,0,0,0,0,0,0,0,0,0,0,,,,,,,,,,,,,
1720621,1746076498256,5.15,133,,-0.03,-0.01,1.06,0,-1,-0,1.06,1.31,81,3220,50.6,4.66,,14.44,0.955,66.4,,63.9,5,,,,,,,,,,,,0,0,0,0,0,0,0,0,0,0,0,0,0,0,0,0,,,,,,0.0,,,,,,,
1720641,1746076498276,,,,,,,,,,,,,,,,,,,,,,,,,,,,,,,,,,0,0,0,0,0,0,0,0,0,0,0,0,0,0,0,0,,,,,,,,,,,,,
1720661,1746076498295,3.9,134,,-0.03,-0.04,1.17,-0,-2,0,1.17,1.31,89,3187,50.6,4.8,,14.46,0.955,66.4,,64.9,5,,,,,,,,,,,,0,0,0,0,0,0,0,0,0,0,0,0,0,0,0,0,,,,,,0.0,,,,,,,
1720681,1746076498315,,,,,,,,,,,,,,,,,,,,,,,0,0,0,0,0.0,0.0,0.0,0.0,2.27,,,0,0,0,0,0,0,0,0,0,0,0,0,0,0,0,0,,0,,,,,38.993969,-76.93988,0.0,27.3,29,3,0.9
1720701,1746076498335,2.64,134,,-0.01,-0.06,1.05,-1,-2,1,1.05,1.31,81,3274,50.6,4.85,,14.46,0.955,66.4,,64.9,5,,,,,,,,,,,,0,0,0,0,0,0,0,0,0,0,0,0,0,0,0,0,,,,,,0.0,,,,,,,
1720721,1746076498355,,,,,,,,,,,,,,,,,,,,,,,,,,,,,,,,,,0,0,0,0,0,0,0,0,0,0,0,0,0,0,0,0,,,,,,,,,,,,,
1720741,1746076498375,3.9,134,,-0.03,-0.01,1.07,0,-2,0,1.08,1.31,82,3274,50.6,4.85,,14.48,0.955,66.4,,63.6,5,,,,,,,,,,,,0,0,0,0,0,0,0,0,0,0,0,0,0,0,0,0,,,,,,0.0,,,,,,,
1720761,1746076498395,,,,,,,,,,,,,,,,,,,,,,,,,,,,,,,,,,0,0,0,0,0,0,0,0,0,0,0,0,0,0,0,0,,,,,,,,,,,,,
1720781,1746076498415,4.52,134,,-0.04,-0.02,1.0,-1,-1,1,1.0,1.31,76,3438,50.6,4.79,,14.43,0.955,66.4,,63.6,5,0,0,0,0,0.0,0.0,0.0,0.0,2.27,,,0,0,0,0,0,0,0,0,0,0,0,0,0,0,0,0,,0,,,,0.0,38.993969,-76.93988,0.04,27.3,29,3,0.9
1720801,1746076498435,,,,,,,,,,,,,,,,,,,,,,,,,,,,,,,,,,0,0,0,0,0,0,0,0,0,0,0,0,0,0,0,0,,,,,,,,,,,,,
1720821,1746076498455,2.64,133,,-0.03,-0.05,1.04,-1,-2,1,1.04,1.31,80,3453,50.6,4.99,,14.47,0.955,66.4,,63.6,5,,,,,,,,,,,,0,0,0,0,0,0,0,0,0,0,0,0,0,0,0,0,,,,,,0.0,,,,,,,
1720841,1746076498475,,,,,,,,,,,,,,,,,,,,,,,,,,,,,,,,,,0,0,0,0,0,0,0,0,0,0,0,0,0,0,0,0,,,,,,,,,,,,,
1720861,1746076498495,2.01,134,,-0.03,-0.09,1.08,0,-2,1,1.08,1.31,83,3667,50.6,5.0,,14.43,0.954,66.4,,68.5,5,,,,,,,,,,,,0,0,0,0,0,0,0,0,0,0,0,0,0,0,0,0,,,,,,0.0,,,,,,,
1720881,1746076498515,,,,,,,,,,,,,,,,,,,,,,,0,0,0,0,0.0,0.0,0.0,0.0,2.27,,,0,0,0,0,0,0,0,0,0,0,0,0,0,0,0,0,,0,,,,,38.993969,-76.93988,0.04,27.3,29,3,0.9
1720901,1746076498535,1.38,134,,-0.02,-0.25,1.07,1,-1,1,1.1,1.31,84,3716,50.6,5.19,,14.43,0.954,66.4,,68.5,5,,,,,,,,,,,,0,0,0,0,0,0,0,0,0,0,0,0,0,0,0,0,,,,,,0.0,,,,,,,
1720921,1746076498555,,,,,,,,,,,,,,,,,,,,,,,,,,,,,,,,,,0,0,0,0,0,0,0,0,0,0,0,0,0,0,0,0,,,,,,,,,,,,,
1720941,1746076498575,1.38,133,,-0.04,-0.21,1.08,0,-1,0,1.11,1.31,85,3716,50.6,5.19,,14.38,0.954,66.4,,67.7,5,,,,,,,,,,,,0,0,0,0,0,0,0,0,0,0,0,0,0,0,0,0,,,,,,0.0,,,,,,,
1720961,1746076498595,,,,,,,,,,,,,,,,,,,,,,,,,,,,,,,,,,0,0,0,0,0,0,0,0,0,0,0,0,0,0,0,0,,,,,,,,,,,,,
1720981,1746076498615,0.0,133,,-0.05,-0.17,1.13,-0,-2,-1,1.14,1.31,87,4008,50.6,5.22,,14.38,0.955,66.4,,67.7,5,0,0,0,0,0.0,0.0,0.0,0.0,2.27,,,0,0,0,0,0,0,0,0,0,0,0,0,0,0,0,0,,0,,,,0.0,38.993969,-76.93988,0.04,27.3,29,3,0.9
1721001,1746076498635,,,,,,,,,,,,,,,,,,,,,,,,,,,,,,,,,,0,0,0,0,0,0,0,0,0,0,0,0,0,0,0,0,,,,,,,,,,,,,
1721021,1746076498655,0.0,133,,-0.03,-0.12,0.98,-0,-1,0,0.99,1.31,76,4233,50.6,5.34,,14.35,0.955,66.4,,67.7,5,,,,,,,,,,,,0,0,0,0,0,0,0,0,0,0,0,0,0,0,0,0,,,,,,0.0,,,,,,,
1721041,1746076498675,,,,,,,,,,,,,,,,,,,,,,,,,,,,,,,,,,0,0,0,0,0,0,0,0,0,0,0,0,0,0,0,0,,,,,,,,,,,,,
1721061,1746076498695,0.0,133,,-0.02,-0.01,0.94,-0,-1,0,0.94,1.31,72,4757,50.6,5.32,,14.34,0.954,66.4,,70.0,5,,,,,,,,,,,,0,0,0,0,0,0,0,0,0,0,0,0,0,0,0,0,,,,,,0.0,,,,,,,
1721081,1746076498715,,,,,,,,,,,,,,,,,,,,,,,0,0,0,0,0.0,0.0,0.0,0.0,2.28,,,0,0,0,0,0,0,0,0,0,0,0,0,0,0,0,0,,0,,,,,38.993969,-76.93988,0.08,27.3,29,3,0.9
1721101,1746076498735,0.0,133,,-0.01,-0.05,0.95,0,-1,0,0.95,1.31,73,5260,50.6,5.31,,14.34,0.954,66.4,,70.0,5,,,,,,,,,,,,0,0,0,0,0,0,0,0,0,0,0,0,0,0,0,0,,,,,,0.0,,,,,,,
1721121,1746076498755,,,,,,,,,,,,,,,,,,,,,,,,,,,,,,,,,,0,0,0,0,0,0,0,0,0,0,0,0,0,0,0,0,,,,,,,,,,,,,
1721141,1746076498775,0.0,133,,-0.0,-0.14,0.94,1,-1,0,0.95,1.31,73,5260,50.6,5.31,,14.28,0.954,66.4,,74.3,5,,,,,,,,,,,,0,0,0,0,0,0,0,0,0,0,0,0,0,0,0,0,,,,,,0.0,,,,,,,
1721161,1746076498795,,,,,,,,,,,,,,,,,,,,,,,,,,,,,,,,,,0,0,0,0,0,0,0,0,0,0,0,0,0,0,0,0,,,,,,,,,,,,,
1721181,1746076498815,0.0,133,,0.0,-0.09,0.9,1,-1,0,0.9,1.31,69,5911,50.6,5.42,,13.98,0.954,66.4,,74.3,5,0,0,0,0,0.0,0.0,0.0,0.0,2.28,,,0,0,0,0,0,0,0,0,0,0,0,0,0,0,0,0,,0,,,,0.0,38.993969,-76.93988,0.05,27.3,29,3,0.9
1721201,1746076498835,,,,,,,,,,,,,,,,,,,,,,,,,,,,,,,,,,0,0,0,0,0,0,0,0,0,0,0,0,0,0,0,0,,,,,,,,,,,,,
1721221,1746076498855,0.0,133,,0.0,0.07,0.9,1,-1,0,0.9,1.31,69,6987,50.6,5.32,,13.91,0.954,66.4,,74.3,5,,,,,,,,,,,,0,0,0,0,0,0,0,0,0,0,0,0,0,0,0,0,,,,,,0.0,,,,,,,
1721241,1746076498875,,,,,,,,,,,,,,,,,,,,,,,,,,,,,,,,,,0,0,0,0,0,0,0,0,0,0,0,0,0,0,0,0,,,,,,,,,,,,,
1721261,1746076498895,0.0,133,,-0.01,-0.08,0.88,1,-1,-0,0.88,1.31,68,8550,50.6,4.71,,13.31,0.954,66.4,,79.1,5,,,,,,,,,,,,0,0,0,0,0,0,0,0,0,0,0,0,0,0,0,0,,,,,,0.0,,,,,,,
1721281,1746076498915,,,,,,,,,,,,,,,,,,,,,,,0,0,0,0,0.0,0.0,0.0,0.0,2.27,,,0,0,0,0,0,0,0,0,0,0,0,0,0,0,0,0,,0,,,,,38.993969,-76.93988,0.04,27.3,29,3,0.9
1721301,1746076498935,0.0,132,,0.0,-0.17,0.96,2,-1,-1,0.98,1.31,75,10227,50.6,5.16,,13.31,0.954,66.4,,79.1,5,,,,,,,,,,,,0,0,0,0,0,0,0,0,0,0,0,0,0,0,0,0,,,,,,0.0,,,,,,,
1721321,1746076498955,,,,,,,,,,,,,,,,,,,,,,,,,,,,,,,,,,0,0,0,0,0,0,0,0,0,0,0,0,0,0,0,0,,,,,,,,,,,,,
1721341,1746076498975,0.0,133,,-0.01,-0.3,0.97,2,-1,-1,1.01,1.31,77,10227,50.6,5.16,,12.89,0.953,66.4,,74.0,5,,,,,,,,,,,,0,0,0,0,0,0,0,0,0,0,0,0,0,0,0,0,,,,,,0.0,,,,,,,
1721361,1746076498995,,,,,,,,,,,,,,,,,,,,,,,,,,,,,,,,,,0,0,0,0,0,0,0,0,0,0,0,0,0,0,0,0,,,,,,,,,,,,,
1721381,1746076499007,0.0,133,13.81,0.0,-0.23,0.85,3,-1,-2,0.88,1.31,68,11523,50.6,3.95,15,12.51,0.954,66.4,88,74.0,5,0,0,0,0,0.0,0.0,0.0,0.0,2.27,0,0.0,0,0,0,0,0,0,0,0,0,0,0,0,0,0,0,0,0,0,0.0,0,-0,0.0,38.993969,-76.93988,0.15,27.3,29,3,0.9
1721401,1746076499027,,,,,,,,,,,,,,,,,,,,,,,,,,,,,,,,,,0,0,0,0,0,0,0,0,0,0,0,0,0,0,0,0,,,,,,,,,,,,,
1721421,1746076499047,0.0,133,,-0.0,-0.16,0.79,4,-1,-1,0.8,1.31,61,12534,50.5,4.32,,12.19,0.953,66.4,,74.0,5,,,,,,,,,,,,0,0,0,0,0,0,0,0,0,0,0,0,0,0,0,0,,,,,,0.0,,,,,,,
1721441,1746076499067,,,,,,,,,,,,,,,,,,,,,,,,,,,,,,,,,,0,0,0,0,0,0,0,0,0,0,0,0,0,0,0,0,,,,,,,,,,,,,
1721461,1746076499095,0.0,133,,0.03,-0.22,0.91,6,-1,-1,0.94,1.31,72,13396,50.5,4.04,,11.81,0.953,66.4,,75.7,5,,,,,,,,,,,,0,0,0,0,0,0,0,0,0,0,0,0,0,0,0,0,,,,,,0.0,,,,,,,
1721481,1746076499115,,,,,,,,,,,,,,,,,,,,,,,0,0,0,0,0.0,0.0,0.0,0.0,2.27,,,0,0,0,0,0,0,0,0,0,0,0,0,0,0,0,0,,0,,,,,38.993969,-76.93988,0.45,27.3,29,3,0.9
1721501,1746076499135,0.0,132,,0.05,-0.35,0.93,6,-1,-1,0.99,1.31,76,13816,50.6,3.82,,11.81,0.953,66.4,,75.7,5,,,,,,,,,,,,0,0,0,0,0,0,0,0,0,0,0,0,0,0,0,0,,,,,,0.0,,,,,,,
1721521,1746076499155,,,,,,,,,,,,,,,,,,,,,,,,,,,,,,,,,,0,0,0,0,0,0,0,0,0,0,0,0,0,0,0,0,,,,,,,,,,,,,
1721541,1746076499175,0.0,132,,0.09,-0.33,0.95,6,-1,-1,1.01,1.31,78,13816,50.6,3.82,,11.76,0.956,66.4,,74.5,5,,,,,,,,,,,,0,0,0,0,0,0,0,0,0,0,0,0,0,0,0,0,,,,,,0.0,,,,,,,
1721561,1746076499195,,,,,,,,,,,,,,,,,,,,,,,,,,,,,,,,,,0,0,0,0,0,0,0,0,0,0,0,0,0,0,0,0,,,,,,,,,,,,,
1721581,1746076499215,0.0,132,,0.04,-0.27,0.91,5,-1,-1,0.95,1.31,73,12893,50.5,4.13,,12.0,0.953,64.6,,74.5,5,0,0,0,0,0.0,0.0,0.0,0.0,2.27,,,0,0,0,0,0,0,0,0,0,0,0,0,0,0,0,0,,0,,,,0.0,38.993969,-76.93988,0.74,27.3,29,3,0.9
1721601,1746076499235,,,,,,,,,,,,,,,,,,,,,,,,,,,,,,,,,,0,0,0,0,0,0,0,0,0,0,0,0,0,0,0,0,,,,,,,,,,,,,
1721621,1746076499255,0.0,132,,0.03,-0.26,0.92,3,-1,-1,0.96,1.31,73,13227,50.5,4.02,,11.84,0.953,64.6,,74.5,5,,,,,,,,,,,,0,0,0,0,0,0,0,0,0,0,0,0,0,0,0,0,,,,,,0.0,,,,,,,
1721641,1746076499275,,,,,,,,,,,,,,,,,,,,,,,,,,,,,,,,,,0,0,0,0,0,0,0,0,0,0,0,0,0,0,0,0,,,,,,,,,,,,,
1721661,1746076499294,0.0,133,,0.06,-0.3,0.99,4,-1,-1,1.04,1.31,79,13591,50.6,3.98,,11.83,0.954,64.6,,75.8,5,,,,,,,,,,,,0,0,0,0,0,0,0,0,0,0,0,0,0,0,0,0,,,,,,0.0,,,,,,,
1721681,1746076499314,,,,,,,,,,,,,,,,,,,,,,,0,0,0,0,0.0,0.0,0.0,0.0,2.27,,,0,0,0,0,0,0,0,0,0,0,0,0,0,0,0,0,,0,,,,,38.993969,-76.93988,1.09,27.3,29,3,0.9
1721701,1746076499334,0.0,132,,0.05,-0.17,0.95,3,-1,-2,0.97,1.31,74,13880,50.6,3.89,,11.83,0.954,64.6,,75.8,5,,,,,,,,,,,,0,0,0,0,0,0,0,0,0,0,0,0,0,0,0,0,,,,,,0.0,,,,,,,
1721721,1746076499354,,,,,,,,,,,,,,,,,,,,,,,,,,,,,,,,,,0,0,0,0,0,0,0,0,0,0,0,0,0,0,0,0,,,,,,,,,,,,,
1721741,1746076499374,0.0,132,,0.03,0.03,0.94,3,-1,-1,0.94,1.31,72,13880,50.6,3.89,,11.58,0.956,64.6,,75.1,5,,,,,,,,,,,,0,0,0,0,0,0,0,0,0,0,0,0,0,0,0,0,,,,,,0.0,,,,,,,
1721761,1746076499394,,,,,,,,,,,,,,,,,,,,,,,,,,,,,,,,,,0,0,0,0,0,0,0,0,0,0,0,0,0,0,0,0,,,,,,,,,,,,,
1721781,1746076499414,0.0,132,,0.05,-0.08,0.92,3,-1,-2,0.92,1.31,71,12647,50.6,4.21,,11.79,0.953,64.6,,75.1,5,1,0,1,1,0.0,0.0,0.0,0.0,2.27,,,0,0,0,0,0,0,0,0,0,0,0,0,0,0,0,0,,0,,,,0.0,38.993969,-76.93988,1.39,27.3,29,3,0.9
1721801,1746076499434,,,,,,,,,,,,,,,,,,,,,,,,,,,,,,,,,,0,0,0,0,0,0,0,0,0,0,0,0,0,0,0,0,,,,,,,,,,,,,
1721821,1746076499454,0.0,132,,0.02,0.01,0.89,3,-1,-1,0.89,1.31,68,12524,50.6,4.32,,11.89,0.953,64.6,,75.1,5,,,,,,,,,,,,0,0,0,0,0,0,0,0,0,0,0,0,0,0,0,0,,,,,,0.0,,,,,,,
1721841,1746076499474,,,,,,,,,,,,,,,,,,,,,,,,,,,,,,,,,,0,0,0,0,0,0,0,0,0,0,0,0,0,0,0,0,,,,,,,,,,,,,
1721861,1746076499494,0.0,132,,0.04,-0.12,0.9,2,-1,-1,0.91,1.31,70,12218,50.6,4.07,,11.95,0.954,64.6,,75.2,5,,,,,,,,,,,,0,0,0,0,0,0,0,0,0,0,0,0,0,0,0,0,,,,,,0.0,,,,,,,
1721881,1746076499514,,,,,,,,,,,,,,,,,,,,,,,1,1,1,1,0.0,0.0,0.0,0.0,2.27,,,0,0,0,0,0,0,0,0,0,0,0,0,0,0,0,0,,0,,,,,38.993969,-76.93988,1.69,27.3,29,3,0.9
1721901,1746076499534,0.0,131,,0.08,-0.29,0.98,3,-1,-2,1.02,1.31,78,11914,48.5,3.79,,11.95,0.954,64.6,,75.2,5,,,,,,,,,,,,0,0,0,0,0,0,0,0,0,0,0,0,0,0,0,0,,,,,,0.0,,,,,,,
1721921,1746076499554,,,,,,,,,,,,,,,,,,,,,,,,,,,,,,,,,,0,0,0,0,0,0,0,0,0,0,0,0,0,0,0,0,,,,,,,,,,,,,
1721941,1746076499574,0.0,131,,0.07,-0.28,0.97,2,-1,-2,1.01,1.31,77,11914,48.5,3.79,,11.97,0.953,64.6,,72.7,5,,,,,,,,,,,,0,0,0,0,0,0,0,0,0,0,0,0,0,0,0,0,,,,,,0.0,,,,,,,
1721961,1746076499594,,,,,,,,,,,,,,,,,,,,,,,,,,,,,,,,,,0,0,0,0,0,0,0,0,0,0,0,0,0,0,0,0,,,,,,,,,,,,,
1721981,1746076499614,0.0,132,,0.13,-0.18,0.97,1,-1,-1,1.0,1.31,76,11272,45.0,4.2,,11.95,0.953,64.6,,72.7,5,1,1,1,2,0.0,0.0,0.0,0.0,2.27,,,0,0,0,0,0,0,0,0,0,0,0,0,0,0,0,0,,0,,,,0.0,38.993969,-76.93988,2.19,27.3,29,3,0.9
1722001,1746076499634,,,,,,,,,,,,,,,,,,,,,,,,,,,,,,,,,,0,0,0,0,0,0,0,0,0,0,0,0,0,0,0,0,,,,,,,,,,,,,
1722021,1746076499654,0.0,131,,0.14,-0.17,0.99,1,-1,-1,1.01,1.31,77,11272,45.0,4.2,,11.95,0.953,64.6,,72.7,5,,,,,,,,,,,,0,0,0,0,0,0,0,0,0,0,0,0,0,0,0,0,,,,,,0.0,,,,,,,
1722041,1746076499674,,,,,,,,,,,,,,,,,,,,,,,,,,,,,,,,,,0,0,0,0,0,0,0,0,0,0,0,0,0,0,0,0,,,,,,,,,,,,,
1722061,1746076499694,0.0,131,,0.18,-0.32,1.0,1,-1,-1,1.07,1.31,82,11272,45.0,4.2,,11.95,0.953,64.6,,72.7,5,,,,,,,,,,,,0,0,0,0,0,0,0,0,0,0,0,0,0,0,0,0,,,,,,0.0,,,,,,,
1722081,1746076499714,,,,,,,,,,,,,,,,,,,,,,,1,1,1,2,0.0,0.0,0.0,0.0,2.27,,,0,0,0,0,0,0,0,0,0,0,0,0,0,0,0,0,,0,,,,,38.993973,-76.93988,3.36,27.3,29,3,0.9
1722101,1746076499734,0.0,132,,0.24,-0.37,0.98,-0,-1,-1,1.07,1.31,82,11272,45.0,4.2,,11.95,0.953,64.6,,72.7,5,,,,,,,,,,,,0,0,0,0,0,0,0,0,0,0,0,0,0,0,0,0,,,,,,0.0,,,,,,,
1722121,1746076499754,,,,,,,,,,,,,,,,,,,,,,,,,,,,,,,,,,0,0,0,0,0,0,0,0,0,0,0,0,0,0,0,0,,,,,,,,,,,,,
1722141,1746076499774,0.0,131,,0.28,-0.43,0.98,-1,-1,-1,1.11,1.31,85,11272,45.0,4.2,,11.95,0.953,64.6,,72.7,5,,,,,,,,,,,,0,0,0,0,0,0,0,0,0,0,0,0,0,0,0,0,,,,,,0.0,,,,,,,
1722161,1746076499794,,,,,,,,,,,,,,,,,,,,,,,,,,,,,,,,,,0,0,0,0,0,0,0,0,0,0,0,0,0,0,0,0,,,,,,,,,,,,,
1722181,1746076499814,0.0,132,,0.26,-0.35,1.01,-1,-1,-1,1.1,1.31,84,11272,45.0,4.2,,11.95,0.953,64.6,,72.7,5,1,1,1,2,0.0,0.0,0.0,0.0,2.27,,,0,0,0,0,0,0,0,0,0,0,0,0,0,0,0,0,,0,,,,0.0,38.993973,-76.93988,4.69,27.4,29,3,0.9
1722201,1746076499834,,,,,,,,,,,,,,,,,,,,,,,,,,,,,,,,,,0,0,0,0,0,0,0,0,0,0,0,0,0,0,0,0,,,,,,,,,,,,,
1722221,1746076499854,0.0,131,,0.32,-0.31,0.98,-1,-1,-0,1.08,1.31,82,11272,45.0,4.2,,11.95,0.953,64.6,,72.7,5,,,,,,,,,,,,0,0,0,0,0,0,0,0,0,0,0,0,0,0,0,0,,,,,,0.0,,,,,,,
1722241,1746076499874,,,,,,,,,,,,,,,,,,,,,,,,,,,,,,,,,,0,0,0,0,0,0,0,0,0,0,0,0,0,0,0,0,,,,,,,,,,,,,
1722261,1746076499894,0.0,132,,0.29,-0.23,1.0,-2,-1,-0,1.06,1.31,81,11272,45.0,4.2,,11.95,0.953,64.6,,72.7,5,,,,,,,,,,,,0,0,0,0,0,0,0,0,0,0,0,0,0,0,0,0,,,,,,0.0,,,,,,,
1722281,1746076499914,,,,,,,,,,,,,,,,,,,,,,,1,1,1,2,0.0,0.0,0.0,0.0,2.27,,,0,0,0,0,0,0,0,0,0,0,0,0,0,0,0,0,,0,,,,,38.993973,-76.93988,7.58,27.4,29,3,0.9
1722301,1746076499934,0.0,132,,0.33,-0.24,0.98,-3,-1,-0,1.06,1.31,81,11272,45.0,4.2,,11.95,0.953,64.6,,72.7,5,,,,,,,,,,,,0,0,0,0,0,0,0,0,0,0,0,0,0,0,0,0,,,,,,0.0,,,,,,,
1722321,1746076499954,,,,,,,,,,,,,,,,,,,,,,,,,,,,,,,,,,0,0,0,0,0,0,0,0,0,0,0,0,0,0,0,0,,,,,,,,,,,,,
1722341,1746076499974,0.0,131,,0.33,-0.27,0.95,-3,-1,-0,1.04,1.31,79,11272,45.0,4.2,,11.95,0.953,64.6,,72.7,5,,,,,,,,,,,,0,0,0,0,0,0,0,0,0,0,0,0,0,0,0,0,,,,,,0.0,,,,,,,
1722361,1746076499994,,,,,,,,,,,,,,,,,,,,,,,,,,,,,,,,,,0,0,0,0,0,0,0,0,0,0,0,0,0,0,0,0,,,,,,,,,,,,,
1722381,1746076500006,0.0,132,13.81,0.33,-0.18,0.93,-3,-1,-0,1.0,1.31,77,11272,45.0,4.2,15,11.95,0.953,64.6,88,72.7,5,1,1,1,2,0.0,0.0,0.0,0.0,2.27,0,0.0,0,0,0,0,0,0,0,0,0,0,0,0,0,0,0,0,0,0,0.0,0,-0,0.0,38.993977,-76.93988,9.07,27.4,29,3,0.9
1722401,1746076500026,,,,,,,,,,,,,,,,,,,,,,,,,,,,,,,,,,0,0,0,0,0,0,0,0,0,0,0,0,0,0,0,0,,,,,,,,,,,,,
1722421,1746076500046,0.0,132,,0.3,-0.16,0.96,-3,-1,-0,1.01,1.31,78,11272,45.0,4.2,,11.95,0.953,64.6,,72.7,5,,,,,,,,,,,,0,0,0,0,0,0,0,0,0,0,0,0,0,0,0,0,,,,,,0.0,,,,,,,
1722441,1746076500066,,,,,,,,,,,,,,,,,,,,,,,,,,,,,,,,,,0,0,0,0,0,0,0,0,0,0,0,0,0,0,0,0,,,,,,,,,,,,,
1722461,1746076500094,0.0,132,,0.33,-0.19,0.98,-3,-1,0,1.05,1.31,80,11272,45.0,4.2,,11.95,0.953,64.6,,72.7,5,,,,,,,,,,,,0,0,0,0,0,0,0,0,0,0,0,0,0,0,0,0,,,,,,0.0,,,,,,,
1722481,1746076500114,,,,,,,,,,,,,,,,,,,,,,,1,1,1,2,0.0,0.0,0.0,0.0,2.27,,,0,0,0,0,0,0,0,0,0,0,0,0,0,0,0,0,,0,,,,,38.993977,-76.93988,11.03,27.4,29,3,0.9
1722501,1746076500134,0.0,132,,0.33,-0.21,0.96,-3,-1,-0,1.03,1.31,79,11272,45.0,4.2,,11.95,0.953,64.6,,72.7,5,,,,,,,,,,,,0,0,0,0,0,0,0,0,0,0,0,0,0,0,0,0,,,,,,0.0,,,,,,,
1722521,1746076500154,,,,,,,,,,,,,,,,,,,,,,,,,,,,,,,,,,0,0,0,0,0,0,0,0,0,0,0,0,0,0,0,0,,,,,,,,,,,,,
1722541,1746076500174,0.0,132,,0.37,-0.2,0.99,-5,-1,-0,1.08,1.31,82,11272,45.0,4.2,,11.95,0.953,64.6,,72.7,5,,,,,,,,,,,,0,0,0,0,0,0,0,0,0,0,0,0,0,0,0,0,,,,,,0.0,,,,,,,
1722561,1746076500194,,,,,,,,,,,,,,,,,,,,,,,,,,,,,,,,,,0,0,0,0,0,0,0,0,0,0,0,0,0,0,0,0,,,,,,,,,,,,,
1722581,1746076500214,0.0,132,,0.36,-0.18,1.05,-6,-1,-0,1.12,1.31,86,11272,45.0,4.2,,11.95,0.953,64.6,,72.7,5,1,1,1,2,0.0,0.0,0.0,0.0,2.27,,,0,0,0,0,0,0,0,0,0,0,0,0,0,0,0,0,,0,,,,0.0,38.99398,-76.93988,12.4,27.4,29,3,0.9
1722601,1746076500234,,,,,,,,,,,,,,,,,,,,,,,,,,,,,,,,,,0,0,0,0,0,0,0,0,0,0,0,0,0,0,0,0,,,,,,,,,,,,,
1722621,1746076500254,0.0,131,,0.41,-0.2,1.04,-7,-0,-0,1.14,1.31,87,11272,45.0,4.2,,11.95,0.953,64.6,,72.7,5,,,,,,,,,,,,0,0,0,0,0,0,0,0,0,0,0,0,0,0,0,0,,,,,,0.0,,,,,,,
1722641,1746076500274,,,,,,,,,,,,,,,,,,,,,,,,,,,,,,,,,,0,0,0,0,0,0,0,0,0,0,0,0,0,0,0,0,,,,,,,,,,,,,
1722661,1746076500293,0.0,131,,0.44,-0.23,1.02,-7,-0,-0,1.13,1.31,87,11272,45.0,4.2,,11.95,0.953,64.6,,72.7,5,,,,,,,,,,,,0,0,0,0,0,0,0,0,0,0,0,0,0,0,0,0,,,,,,0.0,,,,,,,
1722681,1746076500313,,,,,,,,,,,,,,,,,,,,,,,1,1,1,2,0.0,0.0,0.0,0.0,2.27,,,0,0,0,0,0,0,0,0,0,0,0,0,0,0,0,0,,0,,,,,38.993984,-76.939873,13.73,27.4,29,3,0.9
1722701,1746076500333,0.0,131,,0.46,-0.34,1.03,-8,-0,-0,1.18,1.31,90,11272,45.0,4.2,,11.95,0.953,64.6,,72.7,5,,,,,,,,,,,,0,0,0,0,0,0,0,0,0,0,0,0,0,0,0,0,,,,,,0.0,,,,,,,
1722721,1746076500353,,,,,,,,,,,,,,,,,,,,,,,,,,,,,,,,,,0,0,0,0,0,0,0,0,0,0,0,0,0,0,0,0,,,,,,,,,,,,,
1722741,1746076500373,0.0,131,,0.51,-0.2,1.07,-9,-0,-0,1.2,1.31,92,11272,45.0,4.2,,11.95,0.953,64.6,,72.7,5,,,,,,,,,,,,0,0,0,0,0,0,0,0,0,0,0,0,0,0,0,0,,,,,,0.0,,,,,,,
1722761,1746076500393,,,,,,,,,,,,,,,,,,,,,,,,,,,,,,,,,,0,0,0,0,0,0,0,0,0,0,0,0,0,0,0,0,,,,,,,,,,,,,
1722781,1746076500413,0.0,131,,0.47,-0.19,1.08,-10,-1,0,1.19,1.31,91,11272,45.0,4.2,,11.95,0.953,64.6,,72.7,5,1,1,1,2,0.0,0.0,0.0,0.0,2.27,,,0,0,0,0,0,0,0,0,0,0,0,0,0,0,0,0,,0,,,,0.0,38.993988,-76.939873,16.28,27.4,29,3,0.9
1722801,1746076500433,,,,,,,,,,,,,,,,,,,,,,,,,,,,,,,,,,0,0,0,0,0,0,0,0,0,0,0,0,0,0,0,0,,,,,,,,,,,,,
1722821,1746076500453,0.0,131,,0.47,-0.07,1.07,-10,-1,-1,1.17,1.31,90,11272,45.0,4.2,,11.95,0.953,64.6,,72.7,5,,,,,,,,,,,,0,0,0,0,0,0,0,0,0,0,0,0,0,0,0,0,,,,,,0.0,,,,,,,
1722841,1746076500473,,,,,,,,,,,,,,,,,,,,,,,,,,,,,,,,,,0,0,0,0,0,0,0,0,0,0,0,0,0,0,0,0,,,,,,,,,,,,,
1722861,1746076500493,0.0,131,,0.48,-0.11,1.04,-10,-1,-1,1.15,1.31,88,11272,45.0,4.2,,11.95,0.953,64.6,,72.7,5,,,,,,,,,,,,0,0,0,0,0,0,0,0,0,0,0,0,0,0,0,0,,,,,,0.0,,,,,,,
1722881,1746076500513,,,,,,,,,,,,,,,,,,,,,,,1,1,1,2,0.0,0.0,0.0,0.0,2.27,,,0,0,0,0,0,0,0,0,0,0,0,0,0,0,0,0,,0,,,,,38.993992,-76.939873,18.5,27.4,29,3,0.9
1722901,1746076500533,0.0,131,,0.48,-0.17,1.01,-10,-1,-1,1.14,1.31,87,11272,45.0,4.2,,11.95,0.953,64.6,,72.7,5,,,,,,,,,,,,0,0,0,0,0,0,0,0,0,0,0,0,0,0,0,0,,,,,,0.0,,,,,,,
1722921,1746076500553,,,,,,,,,,,,,,,,,,,,,,,,,,,,,,,,,,0,0,0,0,0,0,0,0,0,0,0,0,0,0,0,0,,,,,,,,,,,,,
1722941,1746076500573,0.0,132,,0.48,-0.41,1.0,-10,-1,-1,1.18,1.31,90,11272,45.0,4.2,,11.95,0.953,64.6,,72.7,5,,,,,,,,,,,,0,0,0,0,0,0,0,0,0,0,0,0,0,0,0,0,,,,,,0.0,,,,,,,
1722961,1746076500593,,,,,,,,,,,,,,,,,,,,,,,,,,,,,,,,,,0,0,0,0,0,0,0,0,0,0,0,0,0,0,0,0,,,,,,,,,,,,,
1722981,1746076500613,0.0,132,,0.52,-0.26,1.02,-10,-1,-0,1.18,1.31,90,11272,45.0,4.2,,11.95,0.953,64.6,,72.7,5,1,1,1,2,0.0,0.0,0.0,0.0,2.27,,,0,0,0,0,0,0,0,0,0,0,0,0,0,0,0,0,,0,,,,0.0,38.993996,-76.939873,19.61,27.4,29,3,0.9
1723001,1746076500633,,,,,,,,,,,,,,,,,,,,,,,,,,,,,,,,,,0,0,0,0,0,0,0,0,0,0,0,0,0,0,0,0,,,,,,,,,,,,,
1723021,1746076500653,0.0,131,,0.54,0.04,0.98,-12,-1,-0,1.12,1.31,86,11272,45.0,4.2,,11.95,0.953,64.6,,72.7,5,,,,,,,,,,,,0,0,0,0,0,0,0,0,0,0,0,0,0,0,0,0,,,,,,0.0,,,,,,,
1723041,1746076500673,,,,,,,,,,,,,,,,,,,,,,,,,,,,,,,,,,0,0,0,0,0,0,0,0,0,0,0,0,0,0,0,0,,,,,,,,,,,,,
1723061,1746076500695,0.0,131,,0.54,0.11,0.91,-13,-1,0,1.07,1.31,81,11272,45.0,4.2,,11.95,0.953,64.6,,72.7,5,,,,,,,,,,,,0,0,0,0,0,0,0,0,0,0,0,0,0,0,0,0,,,,,,0.0,,,,,,,
1723081,1746076500715,,,,,,,,,,,,,,,,,,,,,,,1,1,1,2,0.0,0.0,0.0,0.0,2.27,,,0,0,0,0,0,0,0,0,0,0,0,0,0,0,0,0,,0,,,,,38.994,-76.939865,21.72,27.4,29,3,0.9
1723101,1746076500735,0.0,132,,0.56,0.1,0.94,-13,-1,0,1.1,1.31,84,11272,45.0,4.2,,11.95,0.953,64.6,,72.7,5,,,,,,,,,,,,0,0,0,0,0,0,0,0,0,0,0,0,0,0,0,0,,,,,,0.0,,,,,,,
1723121,1746076500755,,,,,,,,,,,,,,,,,,,,,,,,,,,,,,,,,,0,0,0,0,0,0,0,0,0,0,0,0,0,0,0,0,,,,,,,,,,,,,
1723141,1746076500775,0.0,131,,0.56,-0.01,0.93,-13,-1,0,1.08,1.31,83,11272,45.0,4.2,,11.95,0.953,64.6,,72.7,5,,,,,,,,,,,,0,0,0,0,0,0,0,0,0,0,0,0,0,0,0,0,,,,,,0.0,,,,,,,
1723161,1746076500793,,,,,,,,,,,,,,,,,,,,,,,,,,,,,,,,,,0,0,0,0,0,0,0,0,0,0,0,0,0,0,0,0,,,,,,,,,,,,,
1723181,1746076500813,0.0,131,,0.53,0.01,0.97,-14,-1,1,1.11,1.31,85,11272,45.0,4.2,,11.95,0.953,64.6,,72.7,5,1,1,1,2,0.0,0.0,0.0,0.0,2.27,,,0,0,0,0,0,0,0,0,0,0,0,0,0,0,0,0,,0,,,,0.0,38.994007,-76.939865,23.79,27.4,29,3,0.9
1723201,1746076500833,,,,,,,,,,,,,,,,,,,,,,,,,,,,,,,,,,0,0,0,0,0,0,0,0,0,0,0,0,0,0,0,0,,,,,,,,,,,,,
1723221,1746076500853,0.0,131,,0.53,-0.07,0.98,-15,-1,1,1.11,1.31,85,10893,43.7,4.14,,10.45,0.955,64.6,,62.8,5,,,,,,,,,,,,0,0,0,0,0,0,0,0,0,0,0,0,0,0,0,0,,,,,,0.0,,,,,,,
1723241,1746076500873,,,,,,,,,,,,,,,,,,,,,,,,,,,,,,,,,,0,0,0,0,0,0,0,0,0,0,0,0,0,0,0,0,,,,,,,,,,,,,
1723261,1746076500895,0.0,132,,0.56,-0.12,0.96,-14,-1,1,1.12,1.31,86,7516,12.6,3.57,,10.01,0.955,64.6,,62.8,5,,,,,,,,,,,,0,0,0,0,0,0,0,0,0,0,0,0,0,0,0,0,,,,,,0.0,,,,,,,
1723281,1746076500915,,,,,,,,,,,,,,,,,,,,,,,16,26,28,28,0.0,184.0,0.0,0.0,2.27,,,0,0,0,0,0,0,0,0,0,0,0,0,0,0,0,0,,0,,,,,38.994015,-76.939865,26.77,27.4,29,3,0.9
1723301,1746076500935,0.0,131,,0.54,-0.07,0.98,-14,-1,1,1.12,1.31,85,6901,10.4,3.61,,9.7,0.955,64.6,,62.8,5,,,,,,,,,,,,0,0,0,0,0,0,0,0,0,0,0,0,0,0,0,0,,,,,,0.0,,,,,,,
1723321,1746076500955,,,,,,,,,,,,,,,,,,,,,,,,,,,,,,,,,,0,0,0,0,0,0,0,0,0,0,0,0,0,0,0,0,,,,,,,,,,,,,
1723341,1746076500975,0.0,131,,0.58,-0.1,0.98,-11,-2,2,1.14,1.31,88,6440,9.4,3.36,,9.7,0.955,64.6,,60.1,5,,,,,,,,,,,,0,0,0,0,0,0,0,0,0,0,0,0,0,0,0,0,,,,,,0.0,,,,,,,
1723361,1746076500995,,,,,,,,,,,,,,,,,,,,,,,,,,,,,,,,,,0,0,0,0,0,0,0,0,0,0,0,0,0,0,0,0,,,,,,,,,,,,,
1723381,1746076501007,0.13,132,13.78,0.54,-0.07,0.97,-9,-2,1,1.12,1.31,85,6440,9.4,3.36,15,9.84,0.954,64.6,88,60.1,5,18,50,19,20,0.0,188.0,0.0,0.0,2.27,0,0.0,0,0,0,0,0,0,0,0,0,0,0,0,0,0,0,0,0,0,0.0,0,-0,0.0,38.994019,-76.939858,29.03,27.4,30,3,0.9
1723401,1746076501027,,,,,,,,,,,,,,,,,,,,,,,,,,,,,,,,,,0,0,0,0,0,0,0,0,0,0,0,0,0,0,0,0,,,,,,,,,,,,,
1723421,1746076501047,2.64,131,,0.42,-0.07,0.96,-7,-3,0,1.05,1.31,81,5674,8.2,2.87,,10.25,0.955,64.6,,59.5,5,,,,,,,,,,,,0,0,0,0,0,0,0,0,0,0,0,0,0,0,0,0,,,,,,0.0,,,,,,,
1723441,1746076501067,,,,,,,,,,,,,,,,,,,,,,,,,,,,,,,,,,0,0,0,0,0,0,0,0,0,0,0,0,0,0,0,0,,,,,,,,,,,,,
1723461,1746076501087,6.41,132,,0.4,-0.01,0.96,-4,-3,-0,1.04,1.31,80,5581,8.0,2.85,,10.53,0.956,64.6,,59.5,5,,,,,,,,,,,,0,0,0,0,0,0,0,0,0,0,0,0,0,0,0,0,,,,,,0.0,,,,,,,
1723481,1746076501109,,,,,,,,,,,,,,,,,,,,,,,19,8,19,17,0.0,249.0,0.0,0.0,2.27,,,0,0,0,0,0,0,0,0,0,0,0,0,0,0,0,0,,0,,,,,38.994026,-76.939858,30.64,27.4,30,3,0.9
1723501,1746076501129,10.18,132,,0.35,0.09,0.99,-2,-3,-0,1.05,1.31,80,5585,7.9,2.87,,10.82,0.955,64.6,,59.5,5,,,,,,,,,,,,0,0,0,0,0,0,0,0,0,0,0,0,0,0,0,0,,,,,,0.0,,,,,,,
1723521,1746076501149,,,,,,,,,,,,,,,,,,,,,,,,,,,,,,,,,,0,0,0,0,0,0,0,0,0,0,0,0,0,0,0,0,,,,,,,,,,,,,
1723541,1746076501169,12.69,132,,0.26,0.26,0.91,-1,-3,2,0.98,1.31,75,5691,7.9,3.21,,10.82,0.955,64.6,,60.7,5,,,,,,,,,,,,0,0,0,0,0,0,0,0,0,0,0,0,0,0,0,0,,,,,,0.0,,,,,,,
1723561,1746076501193,,,,,,,,,,,,,,,,,,,,,,,,,,,,,,,,,,0,0,0,0,0,0,0,0,0,0,0,0,0,0,0,0,,,,,,,,,,,,,
1723581,1746076501213,15.21,132,,0.17,0.21,0.96,2,-4,2,1.0,1.31,76,5691,7.9,3.21,,10.77,0.955,64.6,,60.7,5,19,2,18,17,0.0,232.0,0.0,0.0,2.27,,,0,0,0,0,0,0,0,0,0,0,0,0,0,0,0,0,,0,,,,0.0,38.994034,-76.939858,28.99,27.4,30,3,0.9
1723601,1746076501233,,,,,,,,,,,,,,,,,,,,,,,,,,,,,,,,,,0,0,0,0,0,0,0,0,0,0,0,0,0,0,0,0,,,,,,,,,,,,,
1723621,1746076501253,10.81,132,,0.11,0.06,0.93,4,-3,1,0.94,1.31,72,6000,7.8,3.45,,10.64,0.955,64.6,,66.7,5,,,,,,,,,,,,0,0,0,0,0,0,0,0,0,0,0,0,0,0,0,0,,,,,,0.0,,,,,,,
1723641,1746076501273,,,,,,,,,,,,,,,,,,,,,,,,,,,,,,,,,,0,0,0,0,0,0,0,0,0,0,0,0,0,0,0,0,,,,,,,,,,,,,
1723661,1746076501294,8.3,132,,0.04,0.15,0.84,7,-2,2,0.85,1.31,65,6134,7.8,3.28,,10.37,0.954,64.6,,66.7,5,,,,,,,,,,,,0,0,0,0,0,0,0,0,0,0,0,0,0,0,0,0,,,,,,0.0,,,,,,,
1723681,1746076501314,,,,,,,,,,,,,,,,,,,,,,,18,52,18,17,0.0,248.0,0.0,0.0,2.27,,,0,0,0,0,0,0,0,0,0,0,0,0,0,0,0,0,,0,,,,,38.994038,-76.93985,28.26,27.4,30,3,0.9
1723701,1746076501334,5.78,132,,0.02,0.19,0.86,8,-1,1,0.89,1.31,68,6200,7.9,3.32,,10.37,0.955,64.6,,66.7,5,,,,,,,,,,,,0,0,0,0,0,0,0,0,0,0,0,0,0,0,0,0,,,,,,0.0,,,,,,,
1723721,1746076501354,,,,,,,,,,,,,,,,,,,,,,,,,,,,,,,,,,0,0,0,0,0,0,0,0,0,0,0,0,0,0,0,0,,,,,,,,,,,,,
1723741,1746076501374,3.27,131,,0.02,0.23,0.92,8,-2,2,0.95,1.31,73,6213,8.7,3.31,,10.37,0.955,64.6,,68.5,5,,,,,,,,,,,,0,0,0,0,0,0,0,0,0,0,0,0,0,0,0,0,,,,,,0.0,,,,,,,
1723761,1746076501394,,,,,,,,,,,,,,,,,,,,,,,,,,,,,,,,,,0,0,0,0,0,0,0,0,0,0,0,0,0,0,0,0,,,,,,,,,,,,,
1723781,1746076501414,1.38,132,,-0.01,0.24,0.9,8,-2,2,0.93,1.31,71,6213,8.7,3.31,,10.3,0.954,66.4,,68.5,5,18,17,18,18,0.0,249.0,0.0,0.0,2.27,,,0,0,0,0,0,0,0,0,0,0,0,0,0,0,0,0,,0,,,,0.0,38.994045,-76.93985,27.25,27.4,30,3,0.9
1723801,1746076501434,,,,,,,,,,,,,,,,,,,,,,,,,,,,,,,,,,0,0,0,0,0,0,0,0,0,0,0,0,0,0,0,0,,,,,,,,,,,,,
1723821,1746076501454,0.0,131,,-0.04,0.11,0.81,9,-1,2,0.82,1.31,63,6116,8.7,3.26,,10.4,0.955,66.4,,66.0,5,,,,,,,,,,,,0,0,0,0,0,0,0,0,0,0,0,0,0,0,0,0,,,,,,0.0,,,,,,,
1723841,1746076501474,,,,,,,,,,,,,,,,,,,,,,,,,,,,,,,,,,0,0,0,0,0,0,0,0,0,0,0,0,0,0,0,0,,,,,,,,,,,,,
1723861,1746076501494,0.0,132,,-0.08,0.08,0.91,8,-2,1,0.91,1.31,70,5777,8.9,3.04,,10.65,0.955,66.4,,66.0,5,,,,,,,,,,,,0,0,0,0,0,0,0,0,0,0,0,0,0,0,0,0,,,,,,0.0,,,,,,,
1723881,1746076501514,,,,,,,,,,,,,,,,,,,,,,,18,18,18,18,0.0,7.0,0.0,0.0,2.27,,,0,0,0,0,0,0,0,0,0,0,0,0,0,0,0,0,,0,,,,,38.994053,-76.93985,27.67,27.4,30,3,0.9
1723901,1746076501534,0.0,131,,-0.04,0.09,0.88,8,-2,1,0.89,1.31,68,5623,9.1,3.31,,10.85,0.955,66.4,,66.0,5,,,,,,,,,,,,0,0,0,0,0,0,0,0,0,0,0,0,0,0,0,0,,,,,,0.0,,,,,,,
1723921,1746076501554,,,,,,,,,,,,,,,,,,,,,,,,,,,,,,,,,,0,0,0,0,0,0,0,0,0,0,0,0,0,0,0,0,,,,,,,,,,,,,
1723941,1746076501574,0.0,131,,-0.08,0.16,0.98,6,-2,1,1.0,1.31,76,5617,9.2,3.75,,10.85,0.955,66.4,,60.5,5,,,,,,,,,,,,0,0,0,0,0,0,0,0,0,0,0,0,0,0,0,0,,,,,,0.0,,,,,,,
1723961,1746076501594,,,,,,,,,,,,,,,,,,,,,,,,,,,,,,,,,,0,0,0,0,0,0,0,0,0,0,0,0,0,0,0,0,,,,,,,,,,,,,
1723981,1746076501614,0.0,131,,-0.05,-0.05,0.9,7,-2,1,0.9,0.9,100,5617,9.2,3.75,,11.13,0.955,66.4,,60.5,5,17,18,17,18,0.0,50.0,0.0,0.0,2.27,,,0,0,0,0,0,0,0,0,0,0,0,0,0,0,0,0,,0,,,,0.0,38.994057,-76.939842,28.13,27.5,30,3,0.9
1724001,1746076501634,,,,,,,,,,,,,,,,,,,,,,,,,,,,,,,,,,0,0,0,0,0,0,0,0,0,0,0,0,0,0,0,0,,,,,,,,,,,,,
1724021,1746076501654,0.0,131,,-0.13,0.25,0.96,5,-1,1,1.0,1.0,100,5670,9.1,3.8,,11.3,0.955,66.4,,61.4,5,,,,,,,,,,,,0,0,0,0,0,0,0,0,0,0,0,0,0,0,0,0,,,,,,0.0,,,,,,,
1724041,1746076501674,,,,,,,,,,,,,,,,,,,,,,,,,,,,,,,,,,0,0,0,0,0,0,0,0,0,0,0,0,0,0,0,0,,,,,,,,,,,,,
1724061,1746076501694,0.0,131,,-0.09,0.27,1.07,1,-3,-0,1.11,1.11,100,5767,9.2,3.93,,11.18,0.954,66.4,,61.4,5,,,,,,,,,,,,0,0,0,0,0,0,0,0,0,0,0,0,0,0,0,0,,,,,,0.0,,,,,,,
1724081,1746076501714,,,,,,,,,,,,,,,,,,,,,,,17,18,18,18,0.0,7.0,0.0,0.0,2.27,,,0,0,0,0,0,0,0,0,0,0,0,0,0,0,0,0,,1,,,,,38.994064,-76.939842,27.62,27.5,30,3,0.9
1724101,1746076501734,0.0,131,,-0.03,0.18,1.07,0,-2,-0,1.08,1.11,98,5884,9.2,4.0,,11.12,0.955,66.4,,61.4,5,,,,,,,,,,,,0,0,0,0,0,0,0,0,0,0,0,0,0,0,0,0,,,,,,0.0,,,,,,,
1724121,1746076501754,,,,,,,,,,,,,,,,,,,,,,,,,,,,,,,,,,0,0,0,0,0,0,0,0,0,0,0,0,0,0,0,0,,,,,,,,,,,,,
1724141,1746076501774,0.0,132,,-0.01,0.16,1.01,1,-2,-1,1.02,1.11,92,6004,9.2,4.13,,11.12,0.955,66.4,,64.2,5,,,,,,,,,,,,0,0,0,0,0,0,0,0,0,0,0,0,0,0,0,0,,,,,,0.0,,,,,,,
1724161,1746076501794,,,,,,,,,,,,,,,,,,,,,,,,,,,,,,,,,,0,0,0,0,0,0,0,0,0,0,0,0,0,0,0,0,,,,,,,,,,,,,
1724181,1746076501814,0.0,131,,0.01,0.13,1.08,1,-2,-2,1.09,1.11,98,6004,9.2,4.13,,11.0,0.955,66.4,,64.2,5,17,17,17,18,0.0,225.0,0.0,0.0,2.27,,,0,0,0,0,0,0,0,0,0,0,0,0,0,0,0,0,,1,,,,0.0,38.994072,-76.939835,27.34,27.5,30,3,0.9
1724201,1746076501834,,,,,,,,,,,,,,,,,,,,,,,,,,,,,,,,,,0,0,0,0,0,0,0,0,0,0,0,0,0,0,0,0,,,,,,,,,,,,,
1724221,1746076501854,0.0,131,,0.05,0.11,1.16,-0,-1,-2,1.17,1.17,100,6119,9.2,3.86,,10.82,0.956,66.4,,65.3,5,,,,,,,,,,,,0,0,0,0,0,0,0,0,0,0,0,0,0,0,0,0,,,,,,0.0,,,,,,,
1724241,1746076501874,,,,,,,,,,,,,,,,,,,,,,,,,,,,,,,,,,0,0,0,0,0,0,0,0,0,0,0,0,0,0,0,0,,,,,,,,,,,,,
1724261,1746076501894,0.0,132,,0.08,-0.06,1.07,0,-2,-3,1.07,1.17,92,5850,9.0,3.4,,10.84,0.954,66.4,,65.3,5,,,,,,,,,,,,0,0,0,0,0,0,0,0,0,0,0,0,0,0,0,0,,,,,,0.0,,,,,,,
1724281,1746076501914,,,,,,,,,,,,,,,,,,,,,,,18,17,18,17,0.0,31.0,0.0,0.0,2.27,,,0,0,0,0,0,0,0,0,0,0,0,0,0,0,0,0,,1,,,,,38.994076,-76.939835,27.27,27.5,30,3,0.9
1724301,1746076501934,0.0,132,,0.01,0.12,1.11,0,-2,-2,1.12,1.17,96,5615,8.0,3.73,,11.05,0.955,66.4,,65.3,5,,,,,,,,,,,,0,0,0,0,0,0,0,0,0,0,0,0,0,0,0,0,,,,,,0.0,,,,,,,
1724321,1746076501954,,,,,,,,,,,,,,,,,,,,,,,,,,,,,,,,,,0,0,0,0,0,0,0,0,0,0,0,0,0,0,0,0,,,,,,,,,,,,,
1724341,1746076501974,0.0,132,,0.02,0.12,1.19,1,-2,-2,1.2,1.2,100,5667,9.4,3.83,,11.05,0.955,66.4,,60.6,5,,,,,,,,,,,,0,0,0,0,0,0,0,0,0,0,0,0,0,0,0,0,,,,,,0.0,,,,,,,
1724361,1746076501994,,,,,,,,,,,,,,,,,,,,,,,,,,,,,,,,,,0,0,0,0,0,0,0,0,0,0,0,0,0,0,0,0,,,,,,,,,,,,,
1724381,1746076502008,0.0,132,13.8,-0.0,0.11,1.2,1,-2,-2,1.21,1.21,100,5667,9.4,3.83,15,11.24,0.955,66.4,88,60.6,5,18,17,18,18,0.0,180.0,0.0,0.0,2.27,0,0.0,0,0,0,0,0,0,0,0,0,0,0,0,0,0,0,0,0,1,0.0,0,-0,0.0,38.994087,-76.939835,27.88,27.5,30,3,0.9
1724401,1746076502028,,,,,,,,,,,,,,,,,,,,,,,,,,,,,,,,,,0,0,0,0,0,0,0,0,0,0,0,0,0,0,0,0,,,,,,,,,,,,,
1724421,1746076502048,0.0,132,,-0.02,0.18,1.13,0,-1,-1,1.14,1.21,94,5775,9.6,3.92,,11.28,0.955,66.4,,63.7,5,,,,,,,,,,,,0,0,0,0,0,0,0,0,0,0,0,0,0,0,0,0,,,,,,0.0,,,,,,,
1724441,1746076502068,,,,,,,,,,,,,,,,,,,,,,,,,,,,,,,,,,0,0,0,0,0,0,0,0,0,0,0,0,0,0,0,0,,,,,,,,,,,,,
1724461,1746076502088,0.0,132,,-0.0,0.19,1.04,1,-1,-0,1.06,1.21,88,5951,9.6,4.05,,11.08,0.956,66.4,,63.7,5,,,,,,,,,,,,0,0,0,0,0,0,0,0,0,0,0,0,0,0,0,0,,,,,,0.0,,,,,,,
1724481,1746076502110,,,,,,,,,,,,,,,,,,,,,,,17,18,17,17,0.0,249.0,0.0,0.0,2.27,,,0,0,0,0,0,0,0,0,0,0,0,0,0,0,0,0,,1,,,,,38.994095,-76.939827,27.57,27.5,30,3,0.9
1724501,1746076502130,0.0,132,,-0.02,0.21,1.15,1,-1,-1,1.17,1.21,97,6021,9.6,4.05,,10.96,0.955,66.4,,63.7,5,,,,,,,,,,,,0,0,0,0,0,0,0,0,0,0,0,0,0,0,0,0,,,,,,0.0,,,,,,,
1724521,1746076502150,,,,,,,,,,,,,,,,,,,,,,,,,,,,,,,,,,0,0,0,0,0,0,0,0,0,0,0,0,0,0,0,0,,,,,,,,,,,,,
1724541,1746076502170,0.0,132,,0.01,0.23,1.0,3,3,0,1.03,1.21,85,5889,9.6,3.84,,10.96,0.955,66.4,,65.8,5,,,,,,,,,,,,0,0,0,0,0,0,0,0,0,0,0,0,0,0,0,0,,,,,,0.0,,,,,,,
1724561,1746076502194,,,,,,,,,,,,,,,,,,,,,,,,,,,,,,,,,,0,0,0,0,0,0,0,0,0,0,0,0,0,0,0,0,,,,,,,,,,,,,
1724581,1746076502214,0.0,132,,0.04,0.25,0.82,2,2,-0,0.86,1.21,71,5889,9.6,3.84,,10.96,0.954,66.4,,65.8,5,18,18,17,18,0.0,26.0,0.0,0.0,2.27,,,0,0,0,0,0,0,0,0,0,0,0,0,0,0,0,0,,1,,,,0.0,38.994099,-76.939827,27.48,27.5,30,3,0.9
1724601,1746076502234,,,,,,,,,,,,,,,,,,,,,,,,,,,,,,,,,,0,0,0,0,0,0,0,0,0,0,0,0,0,0,0,0,,,,,,,,,,,,,
1724621,1746076502254,0.0,132,,0.01,0.16,0.97,2,1,1,0.98,1.21,81,5735,9.5,3.76,,11.04,0.954,66.4,,63.1,5,,,,,,,,,,,,0,0,0,0,0,0,0,0,0,0,0,0,0,0,0,0,,,,,,0.0,,,,,,,
1724641,1746076502274,,,,,,,,,,,,,,,,,,,,,,,,,,,,,,,,,,0,0,0,0,0,0,0,0,0,0,0,0,0,0,0,0,,,,,,,,,,,,,
1724661,1746076502293,0.0,131,,-0.01,0.24,1.1,2,1,0,1.13,1.21,93,5857,9.7,3.91,,10.98,0.954,66.4,,63.1,5,,,,,,,,,,,,0,0,0,0,0,0,0,0,0,0,0,0,0,0,0,0,,,,,,0.0,,,,,,,
1724681,1746076502313,,,,,,,,,,,,,,,,,,,,,,,18,18,18,19,0.0,23.0,0.0,0.0,2.27,,,0,0,0,0,0,0,0,0,0,0,0,0,0,0,0,0,,0,,,,,38.994106,-76.939819,27.9,27.5,30,3,0.9
1724701,1746076502333,0.0,132,,-0.02,0.13,1.25,2,1,-1,1.25,1.25,100,5922,9.3,4.05,,10.98,0.955,66.4,,63.1,5,,,,,,,,,,,,0,0,0,0,0,0,0,0,0,0,0,0,0,0,0,0,,,,,,0.0,,,,,,,
1724721,1746076502353,,,,,,,,,,,,,,,,,,,,,,,,,,,,,,,,,,0,0,0,0,0,0,0,0,0,0,0,0,0,0,0,0,,,,,,,,,,,,,
1724741,1746076502373,0.0,131,,0.0,0.1,1.27,2,1,-0,1.27,1.27,100,5921,8.8,4.11,,10.98,0.955,66.4,,65.2,5,,,,,,,,,,,,0,0,0,0,0,0,0,0,0,0,0,0,0,0,0,0,,,,,,0.0,,,,,,,
1724761,1746076502393,,,,,,,,,,,,,,,,,,,,,,,,,,,,,,,,,,0,0,0,0,0,0,0,0,0,0,0,0,0,0,0,0,,,,,,,,,,,,,
1724781,1746076502413,0.0,132,,0.01,0.02,1.38,1,-1,-1,1.38,1.38,100,5921,8.8,4.11,,10.98,0.954,66.4,,65.2,5,18,17,18,17,0.0,197.0,0.0,0.0,2.27,,,0,0,0,0,0,0,0,0,0,0,0,0,0,0,0,0,,0,,,,0.0,38.994114,-76.939819,27.79,27.5,30,3,0.9
1724801,1746076502433,,,,,,,,,,,,,,,,,,,,,,,,,,,,,,,,,,0,0,0,0,0,0,0,0,0,0,0,0,0,0,0,0,,,,,,,,,,,,,
1724821,1746076502453,0.0,131,,0.03,0.09,1.23,2,-0,-0,1.23,1.38,89,5896,8.5,4.1,,10.92,0.955,66.4,,64.2,5,,,,,,,,,,,,0,0,0,0,0,0,0,0,0,0,0,0,0,0,0,0,,,,,,0.0,,,,,,,
1724841,1746076502473,,,,,,,,,,,,,,,,,,,,,,,,,,,,,,,,,,0,0,0,0,0,0,0,0,0,0,0,0,0,0,0,0,,,,,,,,,,,,,
1724861,1746076502495,0.0,131,,0.01,0.19,1.05,2,0,-0,1.07,1.38,77,5856,8.8,4.02,,10.9,0.955,66.4,,64.2,5,,,,,,,,,,,,0,0,0,0,0,0,0,0,0,0,0,0,0,0,0,0,,,,,,0.0,,,,,,,
1724881,1746076502515,,,,,,,,,,,,,,,,,,,,,,,18,18,18,18,0.0,3.0,0.0,0.0,2.27,,,0,0,0,0,0,0,0,0,0,0,0,0,0,0,0,0,,0,,,,,38.994118,-76.939819,27.82,27.5,30,3,0.9
1724901,1746076502535,0.0,132,,-0.01,0.1,1.13,1,-0,-1,1.14,1.38,82,5924,9.1,4.0,,11.01,0.955,66.4,,64.2,5,,,,,,,,,,,,0,0,0,0,0,0,0,0,0,0,0,0,0,0,0,0,,,,,,0.0,,,,,,,
1724921,1746076502555,,,,,,,,,,,,,,,,,,,,,,,,,,,,,,,,,,0,0,0,0,0,0,0,0,0,0,0,0,0,0,0,0,,,,,,,,,,,,,
1724941,1746076502575,0.0,132,,-0.02,-0.0,1.02,2,-1,-2,1.02,1.38,74,5967,8.9,4.0,,11.01,0.955,66.4,,65.0,5,,,,,,,,,,,,0,0,0,0,0,0,0,0,0,0,0,0,0,0,0,0,,,,,,0.0,,,,,,,
1724961,1746076502593,,,,,,,,,,,,,,,,,,,,,,,,,,,,,,,,,,0,0,0,0,0,0,0,0,0,0,0,0,0,0,0,0,,,,,,,,,,,,,
1724981,1746076502613,0.0,132,,-0.04,0.08,1.14,2,-2,-2,1.15,1.38,83,5967,8.9,4.0,,10.97,0.955,66.4,,65.0,5,18,18,18,18,0.0,68.0,0.0,0.0,2.27,,,0,0,0,0,0,0,0,0,0,0,0,0,0,0,0,0,,0,,,,0.0,38.994125,-76.939812,27.96,27.5,30,3,0.9
1725001,1746076502633,,,,,,,,,,,,,,,,,,,,,,,,,,,,,,,,,,0,0,0,0,0,0,0,0,0,0,0,0,0,0,0,0,,,,,,,,,,,,,
1725021,1746076502653,0.0,131,,-0.06,0.09,1.25,1,-3,-2,1.26,1.38,91,5918,9.0,3.85,,10.96,0.955,66.4,,64.4,5,,,,,,,,,,,,0,0,0,0,0,0,0,0,0,0,0,0,0,0,0,0,,,,,,0.0,,,,,,,
1725041,1746076502673,,,,,,,,,,,,,,,,,,,,,,,,,,,,,,,,,,0,0,0,0,0,0,0,0,0,0,0,0,0,0,0,0,,,,,,,,,,,,,
1725061,1746076502695,0.0,132,,-0.07,0.13,1.23,2,-2,-2,1.24,1.38,90,5905,9.2,3.95,,10.97,0.954,66.4,,64.4,5,,,,,,,,,,,,0,0,0,0,0,0,0,0,0,0,0,0,0,0,0,0,,,,,,0.0,,,,,,,
1725081,1746076502715,,,,,,,,,,,,,,,,,,,,,,,18,18,18,18,0.0,19.0,0.0,0.0,2.27,,,0,0,0,0,0,0,0,0,0,0,0,0,0,0,0,0,,1,,,,,38.994133,-76.939812,28.11,27.5,30,3,0.9
1725101,1746076502735,0.0,132,,-0.07,0.14,1.37,1,-2,-2,1.38,1.38,100,5962,9.1,3.87,,10.97,0.955,66.4,,64.4,5,,,,,,,,,,,,0,0,0,0,0,0,0,0,0,0,0,0,0,0,0,0,,,,,,0.0,,,,,,,
1725121,1746076502755,,,,,,,,,,,,,,,,,,,,,,,,,,,,,,,,,,0,0,0,0,0,0,0,0,0,0,0,0,0,0,0,0,,,,,,,,,,,,,
1725141,1746076502775,0.0,131,,-0.07,0.21,1.33,1,-2,-2,1.35,1.38,98,5956,8.6,3.56,,10.97,0.955,66.4,,65.2,5,,,,,,,,,,,,0,0,0,0,0,0,0,0,0,0,0,0,0,0,0,0,,,,,,0.0,,,,,,,
1725161,1746076502795,,,,,,,,,,,,,,,,,,,,,,,,,,,,,,,,,,0,0,0,0,0,0,0,0,0,0,0,0,0,0,0,0,,,,,,,,,,,,,
1725181,1746076502815,0.0,132,,-0.05,0.3,1.15,0,-1,-1,1.19,1.38,86,5956,8.6,3.56,,10.85,0.955,66.4,,65.2,5,18,19,18,17,0.0,249.0,0.0,0.0,2.27,,,0,0,0,0,0,0,0,0,0,0,0,0,0,0,0,0,,1,,,,0.0,38.994137,-76.939812,28.42,27.6,30,3,0.9
1725201,1746076502835,,,,,,,,,,,,,,,,,,,,,,,,,,,,,,,,,,0,0,0,0,0,0,0,0,0,0,0,0,0,0,0,0,,,,,,,,,,,,,
1725221,1746076502855,0.0,131,,-0.04,0.26,1.02,0,-1,-1,1.05,1.38,76,5915,8.8,4.0,,10.93,0.955,66.4,,65.2,5,,,,,,,,,,,,0,0,0,0,0,0,0,0,0,0,0,0,0,0,0,0,,,,,,0.0,,,,,,,
1725241,1746076502875,,,,,,,,,,,,,,,,,,,,,,,,,,,,,,,,,,0,0,0,0,0,0,0,0,0,0,0,0,0,0,0,0,,,,,,,,,,,,,
1725261,1746076502895,0.0,132,,-0.01,0.18,0.8,0,-0,-1,0.82,0.82,100,5988,8.8,3.9,,10.89,0.954,66.4,,65.2,5,,,,,,,,,,,,0,0,0,0,0,0,0,0,0,0,0,0,0,0,0,0,,,,,,0.0,,,,,,,
1725281,1746076502915,,,,,,,,,,,,,,,,,,,,,,,17,17,18,18,0.0,253.0,0.0,0.0,2.27,,,0,0,0,0,0,0,0,0,0,0,0,0,0,0,0,0,,1,,,,,38.994144,-76.939812,28.16,27.6,30,3,0.9
1725301,1746076502935,0.0,132,,0.04,0.17,0.66,0,0,-0,0.68,0.82,83,5982,9.0,3.49,,10.81,0.954,66.4,,65.2,5,,,,,,,,,,,,0,0,0,0,0,0,0,0,0,0,0,0,0,0,0,0,,,,,,0.0,,,,,,,
1725321,1746076502955,,,,,,,,,,,,,,,,,,,,,,,,,,,,,,,,,,0,0,0,0,0,0,0,0,0,0,0,0,0,0,0,0,,,,,,,,,,,,,
1725341,1746076502975,0.0,132,,0.02,0.2,0.52,-0,1,1,0.56,0.82,68,5947,9.2,3.73,,10.81,0.954,66.4,,65.3,5,,,,,,,,,,,,0,0,0,0,0,0,0,0,0,0,0,0,0,0,0,0,,,,,,0.0,,,,,,,
1725361,1746076502995,,,,,,,,,,,,,,,,,,,,,,,,,,,,,,,,,,0,0,0,0,0,0,0,0,0,0,0,0,0,0,0,0,,,,,,,,,,,,,
1725381,1746076503007,0.0,131,13.83,0.02,0.25,0.42,-0,2,1,0.49,0.82,59,5947,9.2,3.73,15,10.9,0.954,66.4,88,65.3,5,18,17,18,19,0.0,33.0,0.0,0.0,2.27,0,0.0,0,0,0,0,0,0,0,0,0,0,0,0,0,0,0,0,0,1,0.0,0,-0,0.0,38.994152,-76.939812,28.41,27.6,30,3,0.9
1725401,1746076503027,,,,,,,,,,,,,,,,,,,,,,,,,,,,,,,,,,0,0,0,0,0,0,0,0,0,0,0,0,0,0,0,0,,,,,,,,,,,,,
1725421,1746076503047,0.0,131,,0.02,0.29,0.41,-0,1,1,0.5,0.82,61,6011,8.9,3.58,,10.84,0.955,66.4,,65.7,5,,,,,,,,,,,,0,0,0,0,0,0,0,0,0,0,0,0,0,0,0,0,,,,,,0.0,,,,,,,
1725441,1746076503067,,,,,,,,,,,,,,,,,,,,,,,,,,,,,,,,,,0,0,0,0,0,0,0,0,0,0,0,0,0,0,0,0,,,,,,,,,,,,,
1725461,1746076503093,0.0,130,,0.03,0.31,0.51,4,1,1,0.59,0.82,72,5992,8.7,3.72,,10.88,0.954,66.4,,65.7,5,,,,,,,,,,,,0,0,0,0,0,0,0,0,0,0,0,0,0,0,0,0,,,,,,0.0,,,,,,,
1725481,1746076503113,,,,,,,,,,,,,,,,,,,,,,,18,19,18,17,0.0,22.0,0.0,0.0,2.27,,,0,0,0,0,0,0,0,0,0,0,0,0,0,0,0,0,,0,,,,,38.99416,-76.939804,28.41,27.6,30,3,0.9
1725501,1746076503133,0.0,131,,0.08,0.28,0.66,1,1,0,0.72,0.82,88,5996,8.9,3.57,,10.81,0.954,66.4,,65.7,5,,,,,,,,,,,,0,0,0,0,0,0,0,0,0,0,0,0,0,0,0,0,,,,,,0.0,,,,,,,
1725521,1746076503153,,,,,,,,,,,,,,,,,,,,,,,,,,,,,,,,,,0,0,0,0,0,0,0,0,0,0,0,0,0,0,0,0,,,,,,,,,,,,,
