"Interval"|"ms"|0|0|1,"Utc"|"ms"|0|0|1,"FrontBP"|"psi"|-5.0|5.0|25,"SteerAng"|"Degrees"|-145|145|25,"Battery"|"Volts"|-5.0|20.0|1,"AccelX"|"G"|-3.0|3.0|25,"AccelY"|"G"|-3.0|3.0|25,"AccelZ"|"G"|-3.0|3.0|25,"Yaw"|"Deg/Sec"|-120|120|25,"Pitch"|"Deg/Sec"|-120|120|25,"Roll"|"Deg/Sec"|-120|120|25,"Gsum"|"G"|0.0|3.0|25,"GsumMax"|"G"|0.0|3.0|25,"GsumPct"|"%"|0|100|25,"RPM"|""|0|10000|25,"TPS"|"%"|0.0|100.0|25,"InjectorPW"|"ms"|0.0|100.0|25,"Baro"|"kPa"|0|105|1,"MAP"|"Psi"|0.0|255.0|25,"Lambda"|""|-2.0|2.0|25,"IAT"|"C"|0.0|200.0|25,"EngineTemp"|"C"|0|200|1,"EOP"|"PSI"|0.0|152.0|25,"EOT"|"F"|0|250|25,"WSFR"|"MPH"|0|150|10,"WSFL"|"MPH"|0|100|10,"WSRR"|"MPH"|0|100|10,"WSRL"|""|0|100|10,"TCSet"|"%"|0.0|100.0|10,"TCSlip"|"%"|0.0|100.0|10,"TCComp"|"deg"|0.0|50.0|10,"TCCut"|"%"|0.0|100.0|10,"Analog8"|""|0.0|5.0|10,"OilTemp"|"F"|0|300|1,"AA_On"|""|0.0|1.0|1,"ThermLF1"|"C"|0|400|50,"ThermLF2"|"C"|0|400|50,"ThermRR1"|"C"|0|400|50,"ThermRR2"|"C"|0|400|50,"ThermLF3"|"C"|0|400|50,"ThermLF4"|"C"|0|400|50,"ThermLF5"|"C"|0|400|50,"ThermLF6"|"C"|0|400|50,"ThermLF7"|"C"|0|400|50,"ThermLF8"|"C"|0|400|50,"ThermRR3"|"C"|0|400|50,"ThermRR4"|"C"|0|400|50,"ThermRR5"|"C"|0|400|50,"ThermRR6"|"C"|0|400|50,"ThermRR7"|"C"|0|400|50,"ThermRR8"|"C"|0|400|50,"AA_LowDrag"|""|0|1|1,"Gear"|""|1|6|10,"AA_On"|""|0.0|1.0|1,"AA_LowDrag"|""|0|1|1,"Fuel_Mix"|""|-10|10|1,"AA_Packages"|""|0.0|1000.0|25,"Latitude"|"Degrees"|-180.0|180.0|10,"Longitude"|"Degrees"|-180.0|180.0|10,"Speed"|"kph"|0.0|150.0|10,"Altitude"|"m"|0.0|4000.0|10,"GPSSats"|""|0|20|10,"GPSQual"|""|0|5|10,"GPSDOP"|""|0.0|20.0|10
2323901,1746077101541,0.0,104,,-0.07,0.3,1.01,-1,-1,1,1.06,1.06,100,10975,0.6,1.4,,5.68,0.955,75.4,,54.5,5,,,,,,,,,,,,0,0,0,0,0,0,0,0,0,0,0,0,0,0,0,0,,,,,,0.0,,,,,,,
2323921,1746077101561,,,,,,,,,,,,,,,,,,,,,,,,,,,,,,,,,,0,0,0,0,0,0,0,0,0,0,0,0,0,0,0,0,,,,,,,,,,,,,
2323941,1746077101581,0.0,104,,-0.06,0.24,1.07,-1,-1,1,1.1,1.1,100,10975,0.6,1.4,,5.19,0.955,75.4,,55.2,5,,,,,,,,,,,,0,0,0,0,0,0,0,0,0,0,0,0,0,0,0,0,,,,,,0.0,,,,,,,
2323961,1746077101601,,,,,,,,,,,,,,,,,,,,,,,,,,,,,,,,,,0,0,0,0,0,0,0,0,0,0,0,0,0,0,0,0,,,,,,,,,,,,,
2323981,1746077101621,0.0,105,,-0.06,0.38,1.05,-2,-1,0,1.12,1.12,100,10455,0.4,1.4,,4.97,0.956,73.6,,55.2,5,0,0,0,0,0.0,0.0,0.0,0.0,2.25,,,0,0,0,0,0,0,0,0,0,0,0,0,0,0,0,0,,0,,,,0.0,38.994724,-76.939072,0.0,25.8,30,3,0.8
2324001,1746077101641,,,,,,,,,,,,,,,,,,,,,,,,,,,,,,,,,,0,0,0,0,0,0,0,0,0,0,0,0,0,0,0,0,,,,,,,,,,,,,
2324021,1746077101661,0.0,105,,-0.08,0.38,1.05,-1,-1,-0,1.11,1.12,100,9840,4.6,1.4,,5.26,0.952,73.6,,55.2,5,,,,,,,,,,,,0,0,0,0,0,0,0,0,0,0,0,0,0,0,0,0,,,,,,0.0,,,,,,,
2324041,1746077101681,,,,,,,,,,,,,,,,,,,,,,,,,,,,,,,,,,0,0,0,0,0,0,0,0,0,0,0,0,0,0,0,0,,,,,,,,,,,,,
2324061,1746077101701,0.0,105,,-0.07,0.2,0.89,-1,-1,0,0.91,1.12,82,9223,7.7,1.65,,5.84,0.95,73.6,,51.5,5,,,,,,,,,,,,0,0,0,0,0,0,0,0,0,0,0,0,0,0,0,0,,,,,,0.0,,,,,,,
2324081,1746077101721,,,,,,,,,,,,,,,,,,,,,,,0,0,0,0,0.0,0.0,0.0,0.0,2.25,,,0,0,0,0,0,0,0,0,0,0,0,0,0,0,0,0,,0,,,,,38.994724,-76.939072,0.04,25.9,30,3,0.8
2324101,1746077101741,0.0,104,,-0.08,0.17,0.78,-1,-1,0,0.81,1.12,72,8668,8.6,1.83,,5.84,0.95,73.6,,51.5,5,,,,,,,,,,,,0,0,0,0,0,0,0,0,0,0,0,0,0,0,0,0,,,,,,0.0,,,,,,,
2324121,1746077101761,,,,,,,,,,,,,,,,,,,,,,,,,,,,,,,,,,0,0,0,0,0,0,0,0,0,0,0,0,0,0,0,0,,,,,,,,,,,,,
2324141,1746077101781,0.0,104,,-0.05,0.2,0.81,-0,-0,0,0.83,1.12,75,8668,8.6,1.83,,6.35,0.95,73.6,,44.5,5,,,,,,,,,,,,0,0,0,0,0,0,0,0,0,0,0,0,0,0,0,0,,,,,,0.0,,,,,,,
2324161,1746077101801,,,,,,,,,,,,,,,,,,,,,,,,,,,,,,,,,,0,0,0,0,0,0,0,0,0,0,0,0,0,0,0,0,,,,,,,,,,,,,
2324181,1746077101821,0.0,103,,-0.08,0.22,0.84,-0,-1,1,0.87,1.12,78,8301,8.9,2.04,,6.96,0.953,73.6,,44.5,5,0,0,0,0,0.0,0.0,0.0,0.0,2.25,,,0,0,0,0,0,0,0,0,0,0,0,0,0,0,0,0,,0,,,,0.0,38.994724,-76.939072,0.05,25.9,30,3,0.8
2324201,1746077101841,,,,,,,,,,,,,,,,,,,,,,,,,,,,,,,,,,0,0,0,0,0,0,0,0,0,0,0,0,0,0,0,0,,,,,,,,,,,,,
2324221,1746077101861,0.0,104,,-0.09,0.11,0.89,1,-0,0,0.9,1.12,81,8103,9.9,2.29,,7.55,0.955,73.6,,44.5,5,,,,,,,,,,,,0,0,0,0,0,0,0,0,0,0,0,0,0,0,0,0,,,,,,0.0,,,,,,,
2324241,1746077101881,,,,,,,,,,,,,,,,,,,,,,,,,,,,,,,,,,0,0,0,0,0,0,0,0,0,0,0,0,0,0,0,0,,,,,,,,,,,,,
2324261,1746077101900,0.0,105,,-0.08,0.05,1.01,1,-1,0,1.01,1.12,91,7894,29.4,3.48,,9.72,0.953,73.6,,38.8,5,,,,,,,,,,,,0,0,0,0,0,0,0,0,0,0,0,0,0,0,0,0,,,,,,0.0,,,,,,,
2324281,1746077101920,,,,,,,,,,,,,,,,,,,,,,,0,0,0,0,0.0,0.0,0.0,0.0,2.25,,,0,0,0,0,0,0,0,0,0,0,0,0,0,0,0,0,,0,,,,,38.994724,-76.939072,0.04,25.9,30,3,0.8
2324301,1746077101940,0.0,104,,-0.05,-0.02,1.01,1,-1,-0,1.01,1.12,90,8344,49.1,5.11,,9.72,0.953,73.6,,38.8,5,,,,,,,,,,,,0,0,0,0,0,0,0,0,0,0,0,0,0,0,0,0,,,,,,0.0,,,,,,,
2324321,1746077101960,,,,,,,,,,,,,,,,,,,,,,,,,,,,,,,,,,0,0,0,0,0,0,0,0,0,0,0,0,0,0,0,0,,,,,,,,,,,,,
2324341,1746077101980,0.0,103,,-0.04,-0.33,1.11,3,-1,0,1.15,1.15,100,8344,49.1,5.11,,12.47,0.954,73.6,,45.5,5,,,,,,,,,,,,0,0,0,0,0,0,0,0,0,0,0,0,0,0,0,0,,,,,,0.0,,,,,,,
2324361,1746077101992,,,,,,,,,,,,,,,,,,,,,,,,,,,,,,,,,,0,0,0,0,0,0,0,0,0,0,0,0,0,0,0,0,,,,,,,,,,,,,
2324381,1746077102012,0.0,104,13.06,-0.0,-0.35,1.09,2,-1,-0,1.14,1.15,99,9245,59.5,5.67,15,13.36,0.954,73.6,221,45.5,5,0,0,0,0,0.0,0.0,0.0,0.0,2.24,0,0.0,0,0,0,0,0,0,0,0,0,0,0,0,0,0,0,0,0,0,0.0,0,0,0.0,38.994724,-76.939072,0.04,25.9,30,3,0.8
2324401,1746077102032,,,,,,,,,,,,,,,,,,,,,,,,,,,,,,,,,,0,0,0,0,0,0,0,0,0,0,0,0,0,0,0,0,,,,,,,,,,,,,
2324421,1746077102052,0.0,104,,-0.05,-0.11,1.02,0,-1,0,1.03,1.15,89,10311,61.2,5.66,,13.32,0.955,73.6,,45.5,5,,,,,,,,,,,,0,0,0,0,0,0,0,0,0,0,0,0,0,0,0,0,,,,,,0.0,,,,,,,
2324441,1746077102072,,,,,,,,,,,,,,,,,,,,,,,,,,,,,,,,,,0,0,0,0,0,0,0,0,0,0,0,0,0,0,0,0,,,,,,,,,,,,,
2324461,1746077102098,0.0,104,,-0.05,-0.06,0.98,1,-1,1,0.98,1.15,85,11508,37.2,4.06,,12.12,0.954,73.6,,52.7,5,,,,,,,,,,,,0,0,0,0,0,0,0,0,0,0,0,0,0,0,0,0,,,,,,0.0,,,,,,,
2324481,1746077102118,,,,,,,,,,,,,,,,,,,,,,,0,0,0,0,0.0,0.0,0.0,0.0,2.24,,,0,0,0,0,0,0,0,0,0,0,0,0,0,0,0,0,,0,,,,,38.994724,-76.939072,0.05,25.9,30,3,0.8
2324501,1746077102138,0.0,104,,-0.01,-0.05,0.95,0,-1,0,0.95,1.15,83,12109,9.6,2.91,,12.12,0.954,73.6,,52.7,5,,,,,,,,,,,,0,0,0,0,0,0,0,0,0,0,0,0,0,0,0,0,,,,,,0.0,,,,,,,
2324521,1746077102158,,,,,,,,,,,,,,,,,,,,,,,,,,,,,,,,,,0,0,0,0,0,0,0,0,0,0,0,0,0,0,0,0,,,,,,,,,,,,,
2324541,1746077102178,0.0,103,,0.01,-0.26,0.94,1,-1,-0,0.98,1.15,85,12109,9.6,2.91,,9.35,0.954,73.6,,52.0,5,,,,,,,,,,,,0,0,0,0,0,0,0,0,0,0,0,0,0,0,0,0,,,,,,0.0,,,,,,,
2324561,1746077102198,,,,,,,,,,,,,,,,,,,,,,,,,,,,,,,,,,0,0,0,0,0,0,0,0,0,0,0,0,0,0,0,0,,,,,,,,,,,,,
2324581,1746077102218,0.0,104,,-0.04,-0.44,0.94,1,-1,-1,1.04,1.15,90,12305,2.3,1.6,,7.35,0.956,73.6,,52.0,5,0,0,0,0,0.0,0.0,0.0,0.0,2.24,,,0,0,0,0,0,0,0,0,0,0,0,0,0,0,0,0,,0,,,,0.0,38.994724,-76.939072,0.05,25.9,30,3,0.8
2324601,1746077102238,,,,,,,,,,,,,,,,,,,,,,,,,,,,,,,,,,0,0,0,0,0,0,0,0,0,0,0,0,0,0,0,0,,,,,,,,,,,,,
2324621,1746077102258,0.0,104,,-0.07,-0.4,0.94,1,-1,-0,1.03,1.15,89,11820,0.9,1.4,,6.16,0.956,73.6,,52.0,5,,,,,,,,,,,,0,0,0,0,0,0,0,0,0,0,0,0,0,0,0,0,,,,,,0.0,,,,,,,
2324641,1746077102278,,,,,,,,,,,,,,,,,,,,,,,,,,,,,,,,,,0,0,0,0,0,0,0,0,0,0,0,0,0,0,0,0,,,,,,,,,,,,,
2324661,1746077102298,0.0,104,,-0.08,-0.24,0.96,1,-1,-0,0.99,1.15,86,11075,0.5,1.4,,5.66,0.954,73.6,,52.6,5,,,,,,,,,,,,0,0,0,0,0,0,0,0,0,0,0,0,0,0,0,0,,,,,,0.0,,,,,,,
2324681,1746077102318,,,,,,,,,,,,,,,,,,,,,,,0,0,0,0,0.0,0.0,0.0,0.0,2.24,,,0,0,0,0,0,0,0,0,0,0,0,0,0,0,0,0,,0,,,,,38.994724,-76.939072,0.04,25.9,30,3,0.8
2324701,1746077102338,0.0,103,,-0.03,-0.36,1.02,1,-1,-0,1.08,1.15,94,10399,0.4,1.4,,5.66,0.954,73.6,,52.6,5,,,,,,,,,,,,0,0,0,0,0,0,0,0,0,0,0,0,0,0,0,0,,,,,,0.0,,,,,,,
2324721,1746077102358,,,,,,,,,,,,,,,,,,,,,,,,,,,,,,,,,,0,0,0,0,0,0,0,0,0,0,0,0,0,0,0,0,,,,,,,,,,,,,
2324741,1746077102378,0.0,104,,0.0,-0.15,1.02,0,-1,-1,1.03,1.15,89,10399,0.4,1.4,,5.39,0.952,73.6,,53.3,5,,,,,,,,,,,,0,0,0,0,0,0,0,0,0,0,0,0,0,0,0,0,,,,,,0.0,,,,,,,
2324761,1746077102400,,,,,,,,,,,,,,,,,,,,,,,,,,,,,,,,,,0,0,0,0,0,0,0,0,0,0,0,0,0,0,0,0,,,,,,,,,,,,,
2324781,1746077102420,0.0,103,,-0.03,-0.32,1.05,0,-1,-2,1.1,1.15,95,9816,0.1,1.4,,5.23,0.954,73.6,,53.3,5,0,0,0,0,0.0,0.0,0.0,0.0,2.24,,,0,0,0,0,0,0,0,0,0,0,0,0,0,0,0,0,,0,,,,0.0,38.994724,-76.939072,0.06,25.9,30,3,0.8
2324801,1746077102440,,,,,,,,,,,,,,,,,,,,,,,,,,,,,,,,,,0,0,0,0,0,0,0,0,0,0,0,0,0,0,0,0,,,,,,,,,,,,,
2324821,1746077102460,0.0,104,,-0.05,-0.13,1.07,-1,-2,-2,1.08,1.15,93,9217,0.1,1.4,,5.11,0.956,73.6,,53.3,5,,,,,,,,,,,,0,0,0,0,0,0,0,0,0,0,0,0,0,0,0,0,,,,,,0.0,,,,,,,
2324841,1746077102480,,,,,,,,,,,,,,,,,,,,,,,,,,,,,,,,,,0,0,0,0,0,0,0,0,0,0,0,0,0,0,0,0,,,,,,,,,,,,,
2324861,1746077102500,0.0,104,,-0.01,-0.11,1.01,1,-1,-2,1.02,1.15,88,8680,0.4,1.4,,5.12,0.955,73.6,,43.0,5,,,,,,,,,,,,0,0,0,0,0,0,0,0,0,0,0,0,0,0,0,0,,,,,,0.0,,,,,,,
2324881,1746077102520,,,,,,,,,,,,,,,,,,,,,,,0,0,0,0,0.0,0.0,0.0,0.0,2.25,,,0,0,0,0,0,0,0,0,0,0,0,0,0,0,0,0,,0,,,,,38.994724,-76.939072,0.11,25.9,30,3,0.8
2324901,1746077102540,0.0,103,,-0.02,-0.22,1.09,-0,-2,-1,1.11,1.15,96,8150,0.4,1.4,,5.12,0.955,73.6,,43.0,5,,,,,,,,,,,,0,0,0,0,0,0,0,0,0,0,0,0,0,0,0,0,,,,,,0.0,,,,,,,
2324921,1746077102560,,,,,,,,,,,,,,,,,,,,,,,,,,,,,,,,,,0,0,0,0,0,0,0,0,0,0,0,0,0,0,0,0,,,,,,,,,,,,,
2324941,1746077102580,0.0,103,,-0.03,-0.16,1.2,-0,-2,-1,1.21,1.21,100,8150,0.4,1.4,,5.32,0.956,73.6,,36.2,5,,,,,,,,,,,,0,0,0,0,0,0,0,0,0,0,0,0,0,0,0,0,,,,,,0.0,,,,,,,
2324961,1746077102600,,,,,,,,,,,,,,,,,,,,,,,,,,,,,,,,,,0,0,0,0,0,0,0,0,0,0,0,0,0,0,0,0,,,,,,,,,,,,,
2324981,1746077102620,0.0,104,,-0.01,0.03,1.21,-0,-2,-1,1.21,1.21,99,7610,9.2,1.94,,6.24,0.957,75.4,,36.2,5,0,0,0,0,0.0,0.0,0.0,0.0,2.25,,,0,0,0,0,0,0,0,0,0,0,0,0,0,0,0,0,,0,,,,0.0,38.994724,-76.939072,0.0,25.9,30,3,0.8
2325001,1746077102640,,,,,,,,,,,,,,,,,,,,,,,,,,,,,,,,,,0,0,0,0,0,0,0,0,0,0,0,0,0,0,0,0,,,,,,,,,,,,,
2325021,1746077102660,0.0,104,,-0.03,-0.2,1.19,-0,-2,-1,1.2,1.21,99,7206,19.8,3.09,,8.45,0.951,75.4,,36.2,5,,,,,,,,,,,,0,0,0,0,0,0,0,0,0,0,0,0,0,0,0,0,,,,,,0.0,,,,,,,
2325041,1746077102680,,,,,,,,,,,,,,,,,,,,,,,,,,,,,,,,,,0,0,0,0,0,0,0,0,0,0,0,0,0,0,0,0,,,,,,,,,,,,,
2325061,1746077102700,0.0,104,,-0.02,-0.19,1.13,-0,-2,-2,1.15,1.21,95,7178,24.1,3.5,,10.36,0.949,75.4,,34.2,5,,,,,,,,,,,,0,0,0,0,0,0,0,0,0,0,0,0,0,0,0,0,,,,,,0.0,,,,,,,
2325081,1746077102720,,,,,,,,,,,,,,,,,,,,,,,0,0,0,0,0.0,0.0,0.0,0.0,2.24,,,0,0,0,0,0,0,0,0,0,0,0,0,0,0,0,0,,0,,,,,38.994724,-76.939072,0.1,25.9,30,3,0.8
2325101,1746077102740,0.0,104,,-0.02,-0.1,1.24,0,-2,-1,1.25,1.25,100,7305,27.8,5.29,,10.36,0.949,75.4,,34.2,5,,,,,,,,,,,,0,0,0,0,0,0,0,0,0,0,0,0,0,0,0,0,,,,,,0.0,,,,,,,
2325121,1746077102760,,,,,,,,,,,,,,,,,,,,,,,,,,,,,,,,,,0,0,0,0,0,0,0,0,0,0,0,0,0,0,0,0,,,,,,,,,,,,,
2325141,1746077102780,0.0,104,,-0.03,-0.13,1.26,0,-2,-1,1.27,1.27,100,7305,27.8,5.29,,11.56,0.953,75.4,,38.5,5,,,,,,,,,,,,0,0,0,0,0,0,0,0,0,0,0,0,0,0,0,0,,,,,,0.0,,,,,,,
2325161,1746077102800,,,,,,,,,,,,,,,,,,,,,,,,,,,,,,,,,,0,0,0,0,0,0,0,0,0,0,0,0,0,0,0,0,,,,,,,,,,,,,
2325181,1746077102820,0.0,104,,-0.03,-0.15,1.16,0,-2,-1,1.17,1.27,92,7737,28.9,5.07,,11.76,0.955,75.4,,38.5,5,0,0,0,0,0.0,0.0,0.0,0.0,2.25,,,0,0,0,0,0,0,0,0,0,0,0,0,0,0,0,0,,0,,,,0.0,38.994724,-76.939072,0.21,25.9,30,3,0.8
2325201,1746077102840,,,,,,,,,,,,,,,,,,,,,,,,,,,,,,,,,,0,0,0,0,0,0,0,0,0,0,0,0,0,0,0,0,,,,,,,,,,,,,
2325221,1746077102860,0.0,104,,-0.03,-0.05,1.19,0,-2,-2,1.2,1.27,94,8307,21.4,5.18,,11.37,0.955,75.4,,38.5,5,,,,,,,,,,,,0,0,0,0,0,0,0,0,0,0,0,0,0,0,0,0,,,,,,0.0,,,,,,,
2325241,1746077102880,,,,,,,,,,,,,,,,,,,,,,,,,,,,,,,,,,0,0,0,0,0,0,0,0,0,0,0,0,0,0,0,0,,,,,,,,,,,,,
2325261,1746077102899,0.0,104,,-0.01,-0.08,1.1,1,-1,-1,1.11,1.27,87,8719,4.0,2.85,,9.42,0.955,75.4,,42.2,5,,,,,,,,,,,,0,0,0,0,0,0,0,0,0,0,0,0,0,0,0,0,,,,,,0.0,,,,,,,
2325281,1746077102919,,,,,,,,,,,,,,,,,,,,,,,0,0,0,0,0.0,0.0,0.0,0.0,2.24,,,0,0,0,0,0,0,0,0,0,0,0,0,0,0,0,0,,0,,,,,38.994724,-76.939072,0.09,25.9,30,3,0.8
2325301,1746077102939,0.0,104,,-0.01,-0.21,1.02,1,-1,0,1.04,1.27,82,9059,0.5,1.4,,9.42,0.955,75.4,,42.2,5,,,,,,,,,,,,0,0,0,0,0,0,0,0,0,0,0,0,0,0,0,0,,,,,,0.0,,,,,,,
2325321,1746077102959,,,,,,,,,,,,,,,,,,,,,,,,,,,,,,,,,,0,0,0,0,0,0,0,0,0,0,0,0,0,0,0,0,,,,,,,,,,,,,
2325341,1746077102979,0.0,103,,0.02,-0.31,0.92,1,-1,1,0.97,1.27,76,9059,0.5,1.4,,7.71,0.956,75.4,,41.8,5,,,,,,,,,,,,0,0,0,0,0,0,0,0,0,0,0,0,0,0,0,0,,,,,,0.0,,,,,,,
2325361,1746077102991,,,,,,,,,,,,,,,,,,,,,,,,,,,,,,,,,,0,0,0,0,0,0,0,0,0,0,0,0,0,0,0,0,,,,,,,,,,,,,
2325381,1746077103011,0.0,103,13.18,-0.02,-0.29,0.93,0,-1,0,0.98,1.27,77,8487,0.2,1.4,15,6.63,0.955,75.4,219,41.8,5,0,0,0,0,0.0,0.0,0.0,0.0,2.24,0,0.0,0,0,0,0,0,0,0,0,0,0,0,0,0,0,0,0,0,0,0.0,0,0,0.0,38.994724,-76.939072,0.08,25.9,30,3,0.8
2325401,1746077103031,,,,,,,,,,,,,,,,,,,,,,,,,,,,,,,,,,0,0,0,0,0,0,0,0,0,0,0,0,0,0,0,0,,,,,,,,,,,,,
2325421,1746077103051,0.0,104,,-0.02,-0.28,0.97,1,-0,0,1.01,1.27,79,7910,0.0,1.4,,6.26,0.957,75.4,,41.8,5,,,,,,,,,,,,0,0,0,0,0,0,0,0,0,0,0,0,0,0,0,0,,,,,,0.0,,,,,,,
2325441,1746077103071,,,,,,,,,,,,,,,,,,,,,,,,,,,,,,,,,,0,0,0,0,0,0,0,0,0,0,0,0,0,0,0,0,,,,,,,,,,,,,
2325461,1746077103095,0.0,104,,-0.0,-0.24,0.92,1,-0,1,0.95,1.27,75,7431,4.2,1.4,,6.62,0.957,75.4,,37.2,5,,,,,,,,,,,,0,0,0,0,0,0,0,0,0,0,0,0,0,0,0,0,,,,,,0.0,,,,,,,
2325481,1746077103115,,,,,,,,,,,,,,,,,,,,,,,0,0,0,0,0.0,0.0,0.0,0.0,2.24,,,0,0,0,0,0,0,0,0,0,0,0,0,0,0,0,0,,0,,,,,38.994724,-76.939072,0.04,25.9,30,3,0.8
2325501,1746077103135,0.0,104,,-0.0,-0.16,0.89,2,-0,1,0.9,1.27,71,6948,15.1,2.52,,6.62,0.957,75.4,,37.2,5,,,,,,,,,,,,0,0,0,0,0,0,0,0,0,0,0,0,0,0,0,0,,,,,,0.0,,,,,,,
2325521,1746077103155,,,,,,,,,,,,,,,,,,,,,,,,,,,,,,,,,,0,0,0,0,0,0,0,0,0,0,0,0,0,0,0,0,,,,,,,,,,,,,
2325541,1746077103175,0.0,104,,-0.01,-0.14,0.87,2,-0,1,0.88,1.27,69,6948,15.1,2.52,,8.23,0.955,75.4,,31.4,5,,,,,,,,,,,,0,0,0,0,0,0,0,0,0,0,0,0,0,0,0,0,,,,,,0.0,,,,,,,
2325561,1746077103199,,,,,,,,,,,,,,,,,,,,,,,,,,,,,,,,,,0,0,0,0,0,0,0,0,0,0,0,0,0,0,0,0,,,,,,,,,,,,,
2325581,1746077103219,0.0,104,,0.01,-0.23,0.86,1,-0,0,0.89,1.27,70,6718,18.3,3.27,,9.84,0.951,75.4,,31.4,5,0,0,0,0,0.0,0.0,0.0,0.0,2.25,,,0,0,0,0,0,0,0,0,0,0,0,0,0,0,0,0,,0,,,,0.0,38.994724,-76.939072,0.0,25.9,30,3,0.8
2325601,1746077103239,,,,,,,,,,,,,,,,,,,,,,,,,,,,,,,,,,0,0,0,0,0,0,0,0,0,0,0,0,0,0,0,0,,,,,,,,,,,,,
2325621,1746077103259,0.0,104,,0.02,-0.17,0.88,1,-0,0,0.9,1.27,71,6759,18.6,3.5,,10.72,0.954,75.4,,31.4,5,,,,,,,,,,,,0,0,0,0,0,0,0,0,0,0,0,0,0,0,0,0,,,,,,0.0,,,,,,,
2325641,1746077103279,,,,,,,,,,,,,,,,,,,,,,,,,,,,,,,,,,0,0,0,0,0,0,0,0,0,0,0,0,0,0,0,0,,,,,,,,,,,,,
2325661,1746077103299,0.0,104,,0.01,-0.17,0.9,2,-1,0,0.91,1.27,72,6862,18.8,4.75,,11.22,0.955,75.4,,30.3,5,,,,,,,,,,,,0,0,0,0,0,0,0,0,0,0,0,0,0,0,0,0,,,,,,0.0,,,,,,,
2325681,1746077103319,,,,,,,,,,,,,,,,,,,,,,,0,0,0,0,0.0,0.0,0.0,0.0,2.24,,,0,0,0,0,0,0,0,0,0,0,0,0,0,0,0,0,,0,,,,,38.994724,-76.939072,0.1,25.9,30,3,0.8
2325701,1746077103339,0.0,104,,-0.01,-0.07,0.96,1,-1,0,0.96,1.27,76,7293,15.2,4.38,,11.22,0.955,75.4,,30.3,5,,,,,,,,,,,,0,0,0,0,0,0,0,0,0,0,0,0,0,0,0,0,,,,,,0.0,,,,,,,
2325721,1746077103359,,,,,,,,,,,,,,,,,,,,,,,,,,,,,,,,,,0,0,0,0,0,0,0,0,0,0,0,0,0,0,0,0,,,,,,,,,,,,,
2325741,1746077103379,0.0,104,,-0.01,-0.06,1.06,1,-1,0,1.06,1.27,84,7293,15.2,4.38,,10.8,0.955,75.4,,33.9,5,,,,,,,,,,,,0,0,0,0,0,0,0,0,0,0,0,0,0,0,0,0,,,,,,0.0,,,,,,,
2325761,1746077103399,,,,,,,,,,,,,,,,,,,,,,,,,,,,,,,,,,0,0,0,0,0,0,0,0,0,0,0,0,0,0,0,0,,,,,,,,,,,,,
2325781,1746077103419,0.0,104,,-0.01,-0.03,1.03,1,-1,-0,1.03,1.27,81,7712,7.8,3.3,,9.81,0.955,75.4,,33.9,5,0,0,0,0,0.0,0.0,0.0,0.0,2.25,,,0,0,0,0,0,0,0,0,0,0,0,0,0,0,0,0,,0,,,,0.0,38.994724,-76.939072,0.36,25.9,30,3,0.8
2325801,1746077103439,,,,,,,,,,,,,,,,,,,,,,,,,,,,,,,,,,0,0,0,0,0,0,0,0,0,0,0,0,0,0,0,0,,,,,,,,,,,,,
2325821,1746077103459,0.0,104,,-0.02,-0.0,1.07,1,-1,-0,1.07,1.27,84,8094,5.1,2.45,,8.82,0.957,75.4,,33.9,5,,,,,,,,,,,,0,0,0,0,0,0,0,0,0,0,0,0,0,0,0,0,,,,,,0.0,,,,,,,
2325841,1746077103479,,,,,,,,,,,,,,,,,,,,,,,,,,,,,,,,,,0,0,0,0,0,0,0,0,0,0,0,0,0,0,0,0,,,,,,,,,,,,,
2325861,1746077103499,0.0,104,,-0.03,0.02,1.04,1,-1,-0,1.04,1.27,82,8308,2.2,1.4,,7.97,0.955,75.4,,37.9,5,,,,,,,,,,,,0,0,0,0,0,0,0,0,0,0,0,0,0,0,0,0,,,,,,0.0,,,,,,,
2325881,1746077103519,,,,,,,,,,,,,,,,,,,,,,,0,0,0,0,0.0,0.0,0.0,0.0,2.24,,,0,0,0,0,0,0,0,0,0,0,0,0,0,0,0,0,,0,,,,,38.994724,-76.939072,0.38,25.9,30,3,0.8
2325901,1746077103539,0.0,104,,-0.04,0.1,1.03,1,-1,0,1.04,1.27,82,8001,0.0,1.4,,7.97,0.955,75.4,,37.9,5,,,,,,,,,,,,0,0,0,0,0,0,0,0,0,0,0,0,0,0,0,0,,,,,,0.0,,,,,,,
2325921,1746077103559,,,,,,,,,,,,,,,,,,,,,,,,,,,,,,,,,,0,0,0,0,0,0,0,0,0,0,0,0,0,0,0,0,,,,,,,,,,,,,
2325941,1746077103579,0.0,103,,-0.04,0.06,0.87,1,-0,-0,0.88,1.27,69,8001,0.0,1.4,,7.18,0.956,75.4,,34.6,5,,,,,,,,,,,,0,0,0,0,0,0,0,0,0,0,0,0,0,0,0,0,,,,,,0.0,,,,,,,
2325961,1746077103599,,,,,,,,,,,,,,,,,,,,,,,,,,,,,,,,,,0,0,0,0,0,0,0,0,0,0,0,0,0,0,0,0,,,,,,,,,,,,,
2325981,1746077103619,0.0,104,,-0.03,0.03,0.89,1,-1,-0,0.89,1.27,70,7447,0.0,1.4,,6.74,0.954,75.4,,34.6,5,0,0,0,0,0.0,0.0,0.0,0.0,2.25,,,0,0,0,0,0,0,0,0,0,0,0,0,0,0,0,0,,0,,,,0.0,38.994724,-76.939072,0.05,25.8,30,3,0.8
2326001,1746077103639,,,,,,,,,,,,,,,,,,,,,,,,,,,,,,,,,,0,0,0,0,0,0,0,0,0,0,0,0,0,0,0,0,,,,,,,,,,,,,
2326021,1746077103659,0.0,104,,-0.05,0.11,0.92,0,-0,-1,0.92,1.27,73,6964,0.0,1.4,,6.62,0.952,75.4,,34.6,5,,,,,,,,,,,,0,0,0,0,0,0,0,0,0,0,0,0,0,0,0,0,,,,,,0.0,,,,,,,
2326041,1746077103679,,,,,,,,,,,,,,,,,,,,,,,,,,,,,,,,,,0,0,0,0,0,0,0,0,0,0,0,0,0,0,0,0,,,,,,,,,,,,,
2326061,1746077103699,0.0,104,,-0.06,0.17,0.98,0,-1,0,1.0,1.27,78,6541,0.0,1.4,,6.8,0.951,75.4,,31.0,5,,,,,,,,,,,,0,0,0,0,0,0,0,0,0,0,0,0,0,0,0,0,,,,,,0.0,,,,,,,
2326081,1746077103719,,,,,,,,,,,,,,,,,,,,,,,0,0,0,0,0.0,0.0,0.0,0.0,2.25,,,0,0,0,0,0,0,0,0,0,0,0,0,0,0,0,0,,0,,,,,38.994724,-76.939072,0.1,25.8,30,3,0.8
2326101,1746077103739,0.0,104,,-0.07,0.13,1.1,-0,-2,0,1.11,1.27,87,6111,0.0,1.4,,6.8,0.951,75.4,,31.0,5,,,,,,,,,,,,0,0,0,0,0,0,0,0,0,0,0,0,0,0,0,0,,,,,,0.0,,,,,,,
2326121,1746077103759,,,,,,,,,,,,,,,,,,,,,,,,,,,,,,,,,,0,0,0,0,0,0,0,0,0,0,0,0,0,0,0,0,,,,,,,,,,,,,
2326141,1746077103779,0.0,104,,-0.06,0.18,1.21,-2,-2,-1,1.23,1.27,97,6111,0.0,1.4,,7.19,0.954,75.4,,27.3,5,,,,,,,,,,,,0,0,0,0,0,0,0,0,0,0,0,0,0,0,0,0,,,,,,0.0,,,,,,,
2326161,1746077103799,,,,,,,,,,,,,,,,,,,,,,,,,,,,,,,,,,0,0,0,0,0,0,0,0,0,0,0,0,0,0,0,0,,,,,,,,,,,,,
2326181,1746077103819,0.0,104,,-0.07,0.3,1.11,-2,-2,-2,1.15,1.27,91,5671,22.2,2.47,,9.78,0.956,75.4,,27.3,5,0,0,0,0,0.0,0.0,0.0,0.0,2.24,,,0,0,0,0,0,0,0,0,0,0,0,0,0,0,0,0,,0,,,,0.0,38.994724,-76.939072,0.04,25.8,30,3,0.8
2326201,1746077103839,,,,,,,,,,,,,,,,,,,,,,,,,,,,,,,,,,0,0,0,0,0,0,0,0,0,0,0,0,0,0,0,0,,,,,,,,,,,,,
2326221,1746077103859,0.0,104,,-0.06,0.28,1.07,-1,-2,-1,1.1,1.27,87,5342,38.0,4.9,,12.99,0.955,75.4,,27.3,5,,,,,,,,,,,,0,0,0,0,0,0,0,0,0,0,0,0,0,0,0,0,,,,,,0.0,,,,,,,
2326241,1746077103879,,,,,,,,,,,,,,,,,,,,,,,,,,,,,,,,,,0,0,0,0,0,0,0,0,0,0,0,0,0,0,0,0,,,,,,,,,,,,,
2326261,1746077103898,0.0,104,,-0.05,0.21,1.15,-1,-2,-1,1.17,1.27,92,5427,43.8,5.25,,13.96,0.955,75.4,,23.9,5,,,,,,,,,,,,0,0,0,0,0,0,0,0,0,0,0,0,0,0,0,0,,,,,,0.0,,,,,,,
2326281,1746077103918,,,,,,,,,,,,,,,,,,,,,,,0,0,0,0,0.0,0.0,0.0,0.0,2.24,,,0,0,0,0,0,0,0,0,0,0,0,0,0,0,0,0,,0,,,,,38.994724,-76.939072,0.15,25.8,30,3,0.8
2326301,1746077103938,0.0,104,,-0.06,0.22,0.98,-1,-2,-0,1.01,1.27,79,5844,44.0,5.28,,13.96,0.955,75.4,,23.9,5,,,,,,,,,,,,0,0,0,0,0,0,0,0,0,0,0,0,0,0,0,0,,,,,,0.0,,,,,,,
2326321,1746077103958,,,,,,,,,,,,,,,,,,,,,,,,,,,,,,,,,,0,0,0,0,0,0,0,0,0,0,0,0,0,0,0,0,,,,,,,,,,,,,
2326341,1746077103978,0.0,104,,-0.05,0.15,0.9,-2,-2,-0,0.92,1.27,72,5844,44.0,5.28,,13.92,0.956,75.4,,26.3,5,,,,,,,,,,,,0,0,0,0,0,0,0,0,0,0,0,0,0,0,0,0,,,,,,0.0,,,,,,,
2326361,1746077103998,,,,,,,,,,,,,,,,,,,,,,,,,,,,,,,,,,0,0,0,0,0,0,0,0,0,0,0,0,0,0,0,0,,,,,,,,,,,,,
2326381,1746077104010,0.0,103,13.18,-0.05,0.18,0.99,-2,-2,-1,1.01,1.27,79,6168,37.5,5.0,15,13.6,0.955,75.4,216,26.3,5,0,0,0,0,0.0,0.0,0.0,0.0,2.25,0,0.0,0,0,0,0,0,0,0,0,0,0,0,0,0,0,0,0,0,0,0.0,0,0,0.0,38.994724,-76.939072,0.04,25.8,30,3,0.8
2326401,1746077104030,,,,,,,,,,,,,,,,,,,,,,,,,,,,,,,,,,0,0,0,0,0,0,0,0,0,0,0,0,0,0,0,0,,,,,,,,,,,,,
2326421,1746077104050,0.0,104,,-0.05,0.13,0.99,-1,-2,-1,1.0,1.27,78,6744,19.6,4.97,,12.47,0.955,75.4,,26.3,5,,,,,,,,,,,,0,0,0,0,0,0,0,0,0,0,0,0,0,0,0,0,,,,,,0.0,,,,,,,
2326441,1746077104070,,,,,,,,,,,,,,,,,,,,,,,,,,,,,,,,,,0,0,0,0,0,0,0,0,0,0,0,0,0,0,0,0,,,,,,,,,,,,,
2326461,1746077104098,0.0,104,,-0.04,0.18,0.96,-1,-1,-0,0.98,1.27,77,7003,16.6,4.52,,11.88,0.955,75.4,,29.6,5,,,,,,,,,,,,0,0,0,0,0,0,0,0,0,0,0,0,0,0,0,0,,,,,,0.0,,,,,,,
2326481,1746077104118,,,,,,,,,,,,,,,,,,,,,,,0,0,0,0,0.0,0.0,0.0,0.0,2.24,,,0,0,0,0,0,0,0,0,0,0,0,0,0,0,0,0,,0,,,,,38.994724,-76.939072,0.1,25.8,30,3,0.8
2326501,1746077104138,0.0,103,,-0.07,0.34,0.97,-0,-2,-1,1.03,1.27,81,7205,22.8,4.86,,11.88,0.955,75.4,,29.6,5,,,,,,,,,,,,0,0,0,0,0,0,0,0,0,0,0,0,0,0,0,0,,,,,,0.0,,,,,,,
2326521,1746077104158,,,,,,,,,,,,,,,,,,,,,,,,,,,,,,,,,,0,0,0,0,0,0,0,0,0,0,0,0,0,0,0,0,,,,,,,,,,,,,
2326541,1746077104178,0.0,104,,-0.03,0.22,1.01,0,-1,-1,1.04,1.27,82,7205,22.8,4.86,,11.65,0.955,75.4,,31.6,5,,,,,,,,,,,,0,0,0,0,0,0,0,0,0,0,0,0,0,0,0,0,,,,,,0.0,,,,,,,
2326561,1746077104198,,,,,,,,,,,,,,,,,,,,,,,,,,,,,,,,,,0,0,0,0,0,0,0,0,0,0,0,0,0,0,0,0,,,,,,,,,,,,,
2326581,1746077104218,0.0,103,,-0.03,0.26,1.01,0,-1,-1,1.04,1.27,82,7468,43.7,5.54,,13.19,0.952,75.4,,31.6,5,0,0,0,0,0.0,0.0,0.0,0.0,2.25,,,0,0,0,0,0,0,0,0,0,0,0,0,0,0,0,0,,0,,,,0.0,38.994724,-76.939072,0.12,25.8,30,3,0.8
2326601,1746077104238,,,,,,,,,,,,,,,,,,,,,,,,,,,,,,,,,,0,0,0,0,0,0,0,0,0,0,0,0,0,0,0,0,,,,,,,,,,,,,
2326621,1746077104258,0.0,104,,0.0,0.13,0.98,0,-1,-1,0.99,1.27,78,8087,55.1,4.89,,13.59,0.95,75.4,,31.6,5,,,,,,,,,,,,0,0,0,0,0,0,0,0,0,0,0,0,0,0,0,0,,,,,,0.0,,,,,,,
2326641,1746077104278,,,,,,,,,,,,,,,,,,,,,,,,,,,,,,,,,,0,0,0,0,0,0,0,0,0,0,0,0,0,0,0,0,,,,,,,,,,,,,
2326661,1746077104298,0.0,103,,-0.01,0.12,1.05,0,-1,-1,1.06,1.27,83,8643,63.8,5.32,,13.71,0.954,75.4,,36.7,5,,,,,,,,,,,,0,0,0,0,0,0,0,0,0,0,0,0,0,0,0,0,,,,,,0.0,,,,,,,
2326681,1746077104318,,,,,,,,,,,,,,,,,,,,,,,0,0,0,0,0.0,0.0,0.0,0.0,2.25,,,0,0,0,0,0,0,0,0,0,0,0,0,0,0,0,0,,0,,,,,38.994724,-76.939072,0.07,25.8,30,3,0.8
2326701,1746077104338,0.0,103,,0.01,0.25,1.01,0,-1,-1,1.04,1.27,82,9365,65.1,5.73,,13.71,0.954,75.4,,36.7,5,,,,,,,,,,,,0,0,0,0,0,0,0,0,0,0,0,0,0,0,0,0,,,,,,0.0,,,,,,,
2326721,1746077104358,,,,,,,,,,,,,,,,,,,,,,,,,,,,,,,,,,0,0,0,0,0,0,0,0,0,0,0,0,0,0,0,0,,,,,,,,,,,,,
2326741,1746077104378,0.0,104,,-0.03,0.19,1.01,-1,-1,-1,1.03,1.27,81,9365,65.1,5.73,,13.44,0.955,75.4,,47.1,5,,,,,,,,,,,,0,0,0,0,0,0,0,0,0,0,0,0,0,0,0,0,,,,,,0.0,,,,,,,
2326761,1746077104400,,,,,,,,,,,,,,,,,,,,,,,,,,,,,,,,,,0,0,0,0,0,0,0,0,0,0,0,0,0,0,0,0,,,,,,,,,,,,,
2326781,1746077104420,0.0,104,,-0.02,0.16,1.09,-0,-1,-1,1.1,1.27,87,9960,64.3,5.67,,13.33,0.954,75.4,,47.1,5,0,0,0,0,0.0,0.0,0.0,0.0,2.24,,,0,0,0,0,0,0,0,0,0,0,0,0,0,0,0,0,,0,,,,0.0,38.994724,-76.939072,0.04,25.8,30,3,0.8
2326801,1746077104440,,,,,,,,,,,,,,,,,,,,,,,,,,,,,,,,,,0,0,0,0,0,0,0,0,0,0,0,0,0,0,0,0,,,,,,,,,,,,,
2326821,1746077104460,0.0,104,,-0.01,0.06,1.13,-0,-1,-2,1.13,1.27,89,10744,63.5,5.13,,13.36,0.955,75.4,,47.1,5,,,,,,,,,,,,0,0,0,0,0,0,0,0,0,0,0,0,0,0,0,0,,,,,,0.0,,,,,,,
2326841,1746077104480,,,,,,,,,,,,,,,,,,,,,,,,,,,,,,,,,,0,0,0,0,0,0,0,0,0,0,0,0,0,0,0,0,,,,,,,,,,,,,
2326861,1746077104500,0.0,104,,-0.04,-0.03,1.11,-1,-1,-1,1.11,1.27,88,12198,62.9,4.16,,12.97,0.954,75.4,,49.6,5,,,,,,,,,,,,0,0,0,0,0,0,0,0,0,0,0,0,0,0,0,0,,,,,,0.0,,,,,,,
2326881,1746077104520,,,,,,,,,,,,,,,,,,,,,,,0,0,0,0,0.0,0.0,0.0,0.0,2.24,,,0,0,0,0,0,0,0,0,0,0,0,0,0,0,0,0,,0,,,,,38.994724,-76.939072,0.11,25.8,30,3,0.8
2326901,1746077104540,0.0,103,,-0.04,0.15,1.17,-1,-1,-1,1.18,1.27,93,13009,62.9,4.61,,12.97,0.954,75.4,,49.6,5,,,,,,,,,,,,0,0,0,0,0,0,0,0,0,0,0,0,0,0,0,0,,,,,,0.0,,,,,,,
2326921,1746077104560,,,,,,,,,,,,,,,,,,,,,,,,,,,,,,,,,,0,0,0,0,0,0,0,0,0,0,0,0,0,0,0,0,,,,,,,,,,,,,
2326941,1746077104580,0.0,104,,-0.05,0.19,1.08,-2,-1,-1,1.1,1.27,87,13009,62.9,4.61,,12.77,0.954,75.4,,45.3,5,,,,,,,,,,,,0,0,0,0,0,0,0,0,0,0,0,0,0,0,0,0,,,,,,0.0,,,,,,,
2326961,1746077104598,,,,,,,,,,,,,,,,,,,,,,,,,,,,,,,,,,0,0,0,0,0,0,0,0,0,0,0,0,0,0,0,0,,,,,,,,,,,,,
2326981,1746077104618,0.0,104,,-0.02,0.08,1.16,-2,-2,-2,1.17,1.27,92,13914,63.3,4.54,,12.6,0.951,77.2,,45.3,5,0,0,0,0,0.0,0.0,0.0,0.0,2.24,,,0,0,0,0,0,0,0,0,0,0,0,0,0,0,0,0,,0,,,,0.0,38.994724,-76.939072,0.07,25.8,30,3,0.8
2327001,1746077104638,,,,,,,,,,,,,,,,,,,,,,,,,,,,,,,,,,0,0,0,0,0,0,0,0,0,0,0,0,0,0,0,0,,,,,,,,,,,,,
2327021,1746077104658,0.0,105,,-0.04,0.06,1.17,-2,-2,-1,1.17,1.27,92,13309,63.9,4.6,,12.6,0.95,77.2,,45.3,5,,,,,,,,,,,,0,0,0,0,0,0,0,0,0,0,0,0,0,0,0,0,,,,,,0.0,,,,,,,
2327041,1746077104678,,,,,,,,,,,,,,,,,,,,,,,,,,,,,,,,,,0,0,0,0,0,0,0,0,0,0,0,0,0,0,0,0,,,,,,,,,,,,,
2327061,1746077104698,0.0,105,,-0.03,0.04,1.15,-0,-1,-0,1.15,1.27,90,13353,64.1,4.63,,12.63,0.951,77.2,,43.5,5,,,,,,,,,,,,0,0,0,0,0,0,0,0,0,0,0,0,0,0,0,0,,,,,,0.0,,,,,,,
2327081,1746077104718,,,,,,,,,,,,,,,,,,,,,,,0,0,0,0,0.0,0.0,0.0,0.0,2.25,,,0,0,0,0,0,0,0,0,0,0,0,0,0,0,0,0,,0,,,,,38.994724,-76.939072,0.11,25.8,30,3,0.8
2327101,1746077104738,0.0,105,,0.01,0.01,1.03,-0,-0,-1,1.03,1.27,81,13867,64.2,4.59,,12.63,0.951,77.2,,43.5,5,,,,,,,,,,,,0,0,0,0,0,0,0,0,0,0,0,0,0,0,0,0,,,,,,0.0,,,,,,,
2327121,1746077104758,,,,,,,,,,,,,,,,,,,,,,,,,,,,,,,,,,0,0,0,0,0,0,0,0,0,0,0,0,0,0,0,0,,,,,,,,,,,,,
2327141,1746077104778,0.0,105,,0.08,0.01,1.04,-0,0,-1,1.04,1.27,82,13867,64.2,4.59,,12.61,0.954,77.2,,45.3,5,,,,,,,,,,,,0,0,0,0,0,0,0,0,0,0,0,0,0,0,0,0,,,,,,0.0,,,,,,,
2327161,1746077104800,,,,,,,,,,,,,,,,,,,,,,,,,,,,,,,,,,0,0,0,0,0,0,0,0,0,0,0,0,0,0,0,0,,,,,,,,,,,,,
2327181,1746077104820,0.0,104,,0.1,0.02,1.09,0,0,0,1.09,1.27,86,12552,64.2,4.71,,12.75,0.954,77.2,,45.3,5,0,0,0,0,0.0,0.0,0.0,0.0,2.25,,,0,0,0,0,0,0,0,0,0,0,0,0,0,0,0,0,,0,,,,0.0,38.994724,-76.939072,0.13,25.8,30,3,0.8
2327201,1746077104840,,,,,,,,,,,,,,,,,,,,,,,,,,,,,,,,,,0,0,0,0,0,0,0,0,0,0,0,0,0,0,0,0,,,,,,,,,,,,,
2327221,1746077104860,0.0,105,,0.12,0.04,1.07,0,0,1,1.07,1.27,85,12386,64.1,4.6,,12.84,0.954,77.2,,45.3,5,,,,,,,,,,,,0,0,0,0,0,0,0,0,0,0,0,0,0,0,0,0,,,,,,0.0,,,,,,,
2327241,1746077104880,,,,,,,,,,,,,,,,,,,,,,,,,,,,,,,,,,0,0,0,0,0,0,0,0,0,0,0,0,0,0,0,0,,,,,,,,,,,,,
2327261,1746077104897,0.0,104,,0.17,0.04,1.05,1,-0,1,1.06,1.27,83,12318,63.6,4.48,,12.89,0.954,77.2,,49.1,5,,,,,,,,,,,,0,0,0,0,0,0,0,0,0,0,0,0,0,0,0,0,,,,,,0.0,,,,,,,
2327281,1746077104917,,,,,,,,,,,,,,,,,,,,,,,0,0,1,0,0.0,0.0,0.0,0.0,2.24,,,0,0,0,0,0,0,0,0,0,0,0,0,0,0,0,0,,0,,,,,38.994724,-76.939072,1.35,25.8,30,3,0.8
2327301,1746077104937,0.0,103,,0.23,-0.08,1.02,1,-0,-0,1.05,1.27,82,12106,63.7,4.24,,12.89,0.954,77.2,,49.1,5,,,,,,,,,,,,0,0,0,0,0,0,0,0,0,0,0,0,0,0,0,0,,,,,,0.0,,,,,,,
2327321,1746077104957,,,,,,,,,,,,,,,,,,,,,,,,,,,,,,,,,,0,0,0,0,0,0,0,0,0,0,0,0,0,0,0,0,,,,,,,,,,,,,
2327341,1746077104977,0.0,105,,0.31,-0.04,1.0,2,-0,-1,1.05,1.27,83,12106,63.7,4.24,,12.92,0.955,77.2,,49.1,5,,,,,,,,,,,,0,0,0,0,0,0,0,0,0,0,0,0,0,0,0,0,,,,,,0.0,,,,,,,
2327361,1746077104991,,,,,,,,,,,,,,,,,,,,,,,,,,,,,,,,,,0,0,0,0,0,0,0,0,0,0,0,0,0,0,0,0,,,,,,,,,,,,,
2327381,1746077105011,0.0,104,13.27,0.37,-0.19,0.98,2,-0,-1,1.06,1.27,84,11648,63.8,4.24,15,13.07,0.954,77.2,212,49.1,5,2,0,3,3,0.0,0.0,0.0,0.0,2.25,0,0.0,0,0,0,0,0,0,0,0,0,0,0,0,0,0,0,0,0,0,0.0,0,0,0.0,38.994724,-76.939072,3.41,25.8,30,3,0.8
2327401,1746077105031,,,,,,,,,,,,,,,,,,,,,,,,,,,,,,,,,,0,0,0,0,0,0,0,0,0,0,0,0,0,0,0,0,,,,,,,,,,,,,
2327421,1746077105051,0.0,105,,0.41,-0.12,1.01,3,-1,-1,1.1,1.27,86,11040,63.5,4.61,,13.21,0.955,77.2,,49.1,5,,,,,,,,,,,,0,0,0,0,0,0,0,0,0,0,0,0,0,0,0,0,,,,,,0.0,,,,,,,
2327441,1746077105071,,,,,,,,,,,,,,,,,,,,,,,,,,,,,,,,,,0,0,0,0,0,0,0,0,0,0,0,0,0,0,0,0,,,,,,,,,,,,,
2327461,1746077105099,0.0,105,,0.48,-0.05,1.02,3,-1,-1,1.13,1.27,89,10827,63.7,4.84,,13.23,0.954,77.2,,49.1,5,,,,,,,,,,,,0,0,0,0,0,0,0,0,0,0,0,0,0,0,0,0,,,,,,0.0,,,,,,,
2327481,1746077105119,,,,,,,,,,,,,,,,,,,,,,,4,0,5,5,0.0,0.0,0.0,0.0,2.25,,,0,0,0,0,0,0,0,0,0,0,0,0,0,0,0,0,,0,,,,,38.994724,-76.939072,6.69,25.8,30,3,0.8
2327501,1746077105139,0.0,105,,0.59,-0.07,0.97,4,-1,-1,1.14,1.27,90,9848,59.3,5.41,,13.23,0.954,77.2,,49.1,5,,,,,,,,,,,,0,0,0,0,0,0,0,0,0,0,0,0,0,0,0,0,,,,,,0.0,,,,,,,
2327521,1746077105159,,,,,,,,,,,,,,,,,,,,,,,,,,,,,,,,,,0,0,0,0,0,0,0,0,0,0,0,0,0,0,0,0,,,,,,,,,,,,,
2327541,1746077105179,0.0,105,,0.65,-0.26,1.01,6,-0,-1,1.23,1.27,97,9848,59.3,5.41,,13.21,0.954,77.2,,47.0,5,,,,,,,,,,,,0,0,0,0,0,0,0,0,0,0,0,0,0,0,0,0,,,,,,0.0,,,,,,,
2327561,1746077105197,,,,,,,,,,,,,,,,,,,,,,,,,,,,,,,,,,0,0,0,0,0,0,0,0,0,0,0,0,0,0,0,0,,,,,,,,,,,,,
2327581,1746077105217,0.0,104,,0.71,-0.23,1.02,7,-1,-2,1.27,1.27,100,9326,52.1,5.21,,13.25,0.95,77.2,,47.0,5,7,0,15,15,0.0,0.0,0.0,0.0,2.24,,,0,0,0,0,0,0,0,0,0,0,0,0,0,0,0,0,,0,,,,0.0,38.994724,-76.939079,9.98,25.8,30,3,0.8
2327601,1746077105237,,,,,,,,,,,,,,,,,,,,,,,,,,,,,,,,,,0,0,0,0,0,0,0,0,0,0,0,0,0,0,0,0,,,,,,,,,,,,,
2327621,1746077105257,0.0,104,,0.71,-0.25,1.04,8,-1,-2,1.28,1.28,100,8496,50.6,4.83,,13.28,0.953,77.2,,47.0,5,,,,,,,,,,,,0,0,0,0,0,0,0,0,0,0,0,0,0,0,0,0,,,,,,0.0,,,,,,,
2327641,1746077105277,,,,,,,,,,,,,,,,,,,,,,,,,,,,,,,,,,0,0,0,0,0,0,0,0,0,0,0,0,0,0,0,0,,,,,,,,,,,,,
2327661,1746077105299,0.0,104,,0.73,-0.07,1.06,8,-1,-1,1.29,1.29,100,8272,49.9,4.77,,13.33,0.955,77.2,,40.3,5,,,,,,,,,,,,0,0,0,0,0,0,0,0,0,0,0,0,0,0,0,0,,,,,,0.0,,,,,,,
2327681,1746077105319,,,,,,,,,,,,,,,,,,,,,,,9,0,24,24,0.0,216.0,0.0,0.0,2.24,,,0,0,0,0,0,0,0,0,0,0,0,0,0,0,0,0,,0,,,,,38.994724,-76.939079,14.01,25.8,30,3,0.8
2327701,1746077105339,0.0,104,,0.74,0.0,1.04,9,-1,-1,1.27,1.29,99,8122,47.4,4.62,,13.33,0.955,77.2,,40.3,5,,,,,,,,,,,,0,0,0,0,0,0,0,0,0,0,0,0,0,0,0,0,,,,,,0.0,,,,,,,
2327721,1746077105359,,,,,,,,,,,,,,,,,,,,,,,,,,,,,,,,,,0,0,0,0,0,0,0,0,0,0,0,0,0,0,0,0,,,,,,,,,,,,,
2327741,1746077105379,0.0,104,,0.8,-0.29,1.06,10,-1,-1,1.35,1.35,100,8122,47.4,4.62,,13.64,0.955,77.2,,38.8,5,,,,,,,,,,,,0,0,0,0,0,0,0,0,0,0,0,0,0,0,0,0,,,,,,0.0,,,,,,,
2327761,1746077105399,,,,,,,,,,,,,,,,,,,,,,,,,,,,,,,,,,0,0,0,0,0,0,0,0,0,0,0,0,0,0,0,0,,,,,,,,,,,,,
2327781,1746077105419,0.0,104,,0.84,-0.5,1.04,10,-1,-1,1.43,1.43,100,7746,44.4,5.13,,13.57,0.955,77.2,,38.8,5,11,0,20,21,0.0,126.0,0.0,0.0,2.25,,,0,0,0,0,0,0,0,0,0,0,0,0,0,0,0,0,,1,,,,0.0,38.994724,-76.939087,16.69,25.8,30,3,0.8
2327801,1746077105439,,,,,,,,,,,,,,,,,,,,,,,,,,,,,,,,,,0,0,0,0,0,0,0,0,0,0,0,0,0,0,0,0,,,,,,,,,,,,,
2327821,1746077105459,0.0,104,,0.83,-0.54,1.02,10,-1,-1,1.42,1.43,99,7186,44.1,5.21,,13.35,0.955,77.2,,38.8,5,,,,,,,,,,,,0,0,0,0,0,0,0,0,0,0,0,0,0,0,0,0,,,,,,0.0,,,,,,,
2327841,1746077105479,,,,,,,,,,,,,,,,,,,,,,,,,,,,,,,,,,0,0,0,0,0,0,0,0,0,0,0,0,0,0,0,0,,,,,,,,,,,,,
2327861,1746077105499,0.0,104,,0.83,-0.55,1.02,9,-0,-1,1.43,1.43,100,6892,44.1,5.22,,13.82,0.955,77.2,,29.4,5,,,,,,,,,,,,0,0,0,0,0,0,0,0,0,0,0,0,0,0,0,0,,,,,,0.0,,,,,,,
2327881,1746077105519,,,,,,,,,,,,,,,,,,,,,,,13,0,18,20,0.0,105.0,0.0,0.0,2.24,,,0,0,0,0,0,0,0,0,0,0,0,0,0,0,0,0,,1,,,,,38.994724,-76.939095,20.3,25.8,30,3,0.8
2327901,1746077105539,0.0,104,,0.89,-0.58,0.96,10,-0,-1,1.43,1.43,100,6162,44.1,5.12,,13.82,0.955,77.2,,29.4,5,,,,,,,,,,,,0,0,0,0,0,0,0,0,0,0,0,0,0,0,0,0,,,,,,0.0,,,,,,,
2327921,1746077105559,,,,,,,,,,,,,,,,,,,,,,,,,,,,,,,,,,0,0,0,0,0,0,0,0,0,0,0,0,0,0,0,0,,,,,,,,,,,,,
2327941,1746077105579,0.0,105,,0.85,-0.59,0.95,9,-0,-1,1.4,1.43,98,6162,44.1,5.12,,13.98,0.955,77.2,,24.0,5,,,,,,,,,,,,0,0,0,0,0,0,0,0,0,0,0,0,0,0,0,0,,,,,,0.0,,,,,,,
2327961,1746077105599,,,,,,,,,,,,,,,,,,,,,,,,,,,,,,,,,,0,0,0,0,0,0,0,0,0,0,0,0,0,0,0,0,,,,,,,,,,,,,
2327981,1746077105619,0.0,104,,0.82,-0.56,0.93,7,-1,-1,1.36,1.43,95,5316,44.1,5.09,,14.19,0.952,79.0,,24.0,5,15,0,16,16,0.0,19.0,0.0,0.0,2.24,,,0,0,0,0,0,0,0,0,0,0,0,0,0,0,0,0,,1,,,,0.0,38.994724,-76.939102,23.73,25.9,30,3,0.8
2328001,1746077105639,,,,,,,,,,,,,,,,,,,,,,,,,,,,,,,,,,0,0,0,0,0,0,0,0,0,0,0,0,0,0,0,0,,,,,,,,,,,,,
2328021,1746077105659,0.0,104,,0.76,-0.27,1.03,5,-2,1,1.31,1.43,92,4949,44.2,5.04,,14.32,0.949,79.0,,24.0,5,,,,,,,,,,,,0,0,0,0,0,0,0,0,0,0,0,0,0,0,0,0,,,,,,0.0,,,,,,,
2328041,1746077105679,,,,,,,,,,,,,,,,,,,,,,,,,,,,,,,,,,0,0,0,0,0,0,0,0,0,0,0,0,0,0,0,0,,,,,,,,,,,,,
2328061,1746077105701,0.0,103,,0.68,-0.29,0.98,4,-3,-1,1.23,1.43,86,5326,44.7,5.15,,14.11,0.952,79.0,,21.5,5,,,,,,,,,,,,0,0,0,0,0,0,0,0,0,0,0,0,0,0,0,0,,,,,,0.0,,,,,,,
2328081,1746077105721,,,,,,,,,,,,,,,,,,,,,,,16,0,16,16,0.0,4.0,0.0,0.0,2.25,,,0,0,0,0,0,0,0,0,0,0,0,0,0,0,0,0,,1,,,,,38.994724,-76.939102,27.27,25.9,30,3,0.8
2328101,1746077105741,0.0,104,,0.67,0.01,1.0,4,-2,1,1.21,1.43,84,5869,45.4,5.14,,14.11,0.952,79.0,,21.5,5,,,,,,,,,,,,0,0,0,0,0,0,0,0,0,0,0,0,0,0,0,0,,,,,,0.0,,,,,,,
2328121,1746077105761,,,,,,,,,,,,,,,,,,,,,,,,,,,,,,,,,,0,0,0,0,0,0,0,0,0,0,0,0,0,0,0,0,,,,,,,,,,,,,
2328141,1746077105781,0.0,104,,0.64,0.33,1.03,2,-1,3,1.26,1.43,88,5869,45.4,5.14,,13.86,0.955,79.0,,24.7,5,,,,,,,,,,,,0,0,0,0,0,0,0,0,0,0,0,0,0,0,0,0,,,,,,0.0,,,,,,,
2328161,1746077105801,,,,,,,,,,,,,,,,,,,,,,,,,,,,,,,,,,0,0,0,0,0,0,0,0,0,0,0,0,0,0,0,0,,,,,,,,,,,,,
2328181,1746077105821,0.0,104,,0.62,0.41,1.1,3,-1,2,1.33,1.43,93,5967,45.5,5.15,,14.06,0.955,79.0,,24.7,5,18,0,18,18,0.0,40.0,0.0,0.0,2.25,,,0,0,0,0,0,0,0,0,0,0,0,0,0,0,0,0,,0,,,,0.0,38.994724,-76.939117,25.89,25.9,30,3,0.8
2328201,1746077105841,,,,,,,,,,,,,,,,,,,,,,,,,,,,,,,,,,0,0,0,0,0,0,0,0,0,0,0,0,0,0,0,0,,,,,,,,,,,,,
2328221,1746077105861,0.0,104,,0.55,0.18,1.06,1,-2,-0,1.21,1.43,85,5774,45.2,5.13,,14.03,0.955,79.0,,24.7,5,,,,,,,,,,,,0,0,0,0,0,0,0,0,0,0,0,0,0,0,0,0,,,,,,0.0,,,,,,,
2328241,1746077105881,,,,,,,,,,,,,,,,,,,,,,,,,,,,,,,,,,0,0,0,0,0,0,0,0,0,0,0,0,0,0,0,0,,,,,,,,,,,,,
2328261,1746077105900,0.0,104,,0.51,-0.06,1.09,2,-2,-2,1.21,1.43,84,6091,45.3,5.14,,13.92,0.955,79.0,,24.9,5,,,,,,,,,,,,0,0,0,0,0,0,0,0,0,0,0,0,0,0,0,0,,,,,,0.0,,,,,,,
2328281,1746077105920,,,,,,,,,,,,,,,,,,,,,,,18,0,19,18,0.0,35.0,0.0,0.0,2.24,,,0,0,0,0,0,0,0,0,0,0,0,0,0,0,0,0,,0,,,,,38.994724,-76.939125,28.16,25.9,30,3,0.8
2328301,1746077105940,0.0,104,,0.44,0.11,1.11,1,-2,-1,1.2,1.43,84,6277,45.7,5.19,,13.92,0.955,79.0,,24.9,5,,,,,,,,,,,,0,0,0,0,0,0,0,0,0,0,0,0,0,0,0,0,,,,,,0.0,,,,,,,
2328321,1746077105960,,,,,,,,,,,,,,,,,,,,,,,,,,,,,,,,,,0,0,0,0,0,0,0,0,0,0,0,0,0,0,0,0,,,,,,,,,,,,,
2328341,1746077105980,0.0,104,,0.47,-0.03,1.07,1,-1,-1,1.17,1.43,82,6277,45.7,5.19,,13.79,0.955,79.0,,28.8,5,,,,,,,,,,,,0,0,0,0,0,0,0,0,0,0,0,0,0,0,0,0,,,,,,0.0,,,,,,,
2328361,1746077105992,,,,,,,,,,,,,,,,,,,,,,,,,,,,,,,,,,0,0,0,0,0,0,0,0,0,0,0,0,0,0,0,0,,,,,,,,,,,,,
2328381,1746077106012,0.0,104,13.34,0.45,-0.05,1.03,1,-1,-1,1.12,1.43,79,6482,45.9,5.2,15,13.79,0.955,79.0,209,28.8,5,19,0,19,20,0.0,75.0,0.0,0.0,2.25,0,0.0,0,0,0,0,0,0,0,0,0,0,0,0,0,0,0,0,0,0,0.0,0,0,0.0,38.994724,-76.939133,28.88,25.9,30,3,0.8
2328401,1746077106032,,,,,,,,,,,,,,,,,,,,,,,,,,,,,,,,,,0,0,0,0,0,0,0,0,0,0,0,0,0,0,0,0,,,,,,,,,,,,,
2328421,1746077106052,0.0,105,,0.44,-0.06,1.03,-0,-1,-1,1.12,1.43,78,6628,45.9,5.21,,13.92,0.955,79.0,,28.8,5,,,,,,,,,,,,0,0,0,0,0,0,0,0,0,0,0,0,0,0,0,0,,,,,,0.0,,,,,,,
2328441,1746077106072,,,,,,,,,,,,,,,,,,,,,,,,,,,,,,,,,,0,0,0,0,0,0,0,0,0,0,0,0,0,0,0,0,,,,,,,,,,,,,
2328461,1746077106098,0.0,104,,0.43,-0.01,1.02,-1,-2,-0,1.11,1.43,78,6643,45.9,5.22,,13.91,0.955,79.0,,28.2,5,,,,,,,,,,,,0,0,0,0,0,0,0,0,0,0,0,0,0,0,0,0,,,,,,0.0,,,,,,,
2328481,1746077106118,,,,,,,,,,,,,,,,,,,,,,,19,0,20,21,0.0,57.0,0.0,0.0,2.25,,,0,0,0,0,0,0,0,0,0,0,0,0,0,0,0,0,,0,,,,,38.994724,-76.93914,30.69,25.9,30,3,0.8
2328501,1746077106138,0.0,104,,0.45,-0.16,1.02,-3,-2,-1,1.13,1.43,79,6884,45.5,5.24,,13.91,0.955,79.0,,28.2,5,,,,,,,,,,,,0,0,0,0,0,0,0,0,0,0,0,0,0,0,0,0,,,,,,0.0,,,,,,,
2328521,1746077106158,,,,,,,,,,,,,,,,,,,,,,,,,,,,,,,,,,0,0,0,0,0,0,0,0,0,0,0,0,0,0,0,0,,,,,,,,,,,,,
2328541,1746077106178,0.0,104,,0.45,-0.06,1.07,-2,-2,0,1.17,1.43,82,6884,45.5,5.24,,13.56,0.956,79.0,,28.9,5,,,,,,,,,,,,0,0,0,0,0,0,0,0,0,0,0,0,0,0,0,0,,,,,,0.0,,,,,,,
2328561,1746077106194,,,,,,,,,,,,,,,,,,,,,,,,,,,,,,,,,,0,0,0,0,0,0,0,0,0,0,0,0,0,0,0,0,,,,,,,,,,,,,
2328581,1746077106214,0.0,104,,0.48,-0.31,1.0,-3,-2,-0,1.15,1.43,81,7169,45.7,5.17,,13.76,0.954,79.0,,28.9,5,21,0,21,21,0.0,33.0,0.0,0.0,2.24,,,0,0,0,0,0,0,0,0,0,0,0,0,0,0,0,0,,1,,,,0.0,38.994724,-76.939148,32.64,26.0,30,3,0.8
2328601,1746077106234,,,,,,,,,,,,,,,,,,,,,,,,,,,,,,,,,,0,0,0,0,0,0,0,0,0,0,0,0,0,0,0,0,,,,,,,,,,,,,
2328621,1746077106254,0.0,105,,0.42,-0.11,0.98,-5,-2,0,1.07,1.43,75,7218,45.2,5.18,,13.67,0.952,79.0,,28.9,5,,,,,,,,,,,,0,0,0,0,0,0,0,0,0,0,0,0,0,0,0,0,,,,,,0.0,,,,,,,
2328641,1746077106274,,,,,,,,,,,,,,,,,,,,,,,,,,,,,,,,,,0,0,0,0,0,0,0,0,0,0,0,0,0,0,0,0,,,,,,,,,,,,,
2328661,1746077106300,0.0,104,,0.38,-0.03,0.98,-5,-1,0,1.05,1.43,73,7671,44.9,5.11,,13.31,0.953,79.0,,30.4,5,,,,,,,,,,,,0,0,0,0,0,0,0,0,0,0,0,0,0,0,0,0,,,,,,0.0,,,,,,,
2328681,1746077106320,,,,,,,,,,,,,,,,,,,,,,,22,0,22,23,0.0,28.0,0.0,0.0,2.25,,,0,0,0,0,0,0,0,0,0,0,0,0,0,0,0,0,,1,,,,,38.994724,-76.939163,34.3,26.0,30,3,0.8
2328701,1746077106340,0.0,103,,0.42,-0.3,0.95,-5,-1,-0,1.08,1.43,75,7704,44.8,5.13,,13.31,0.953,79.0,,30.4,5,,,,,,,,,,,,0,0,0,0,0,0,0,0,0,0,0,0,0,0,0,0,,,,,,0.0,,,,,,,
2328721,1746077106360,,,,,,,,,,,,,,,,,,,,,,,,,,,,,,,,,,0,0,0,0,0,0,0,0,0,0,0,0,0,0,0,0,,,,,,,,,,,,,
2328741,1746077106380,0.0,105,,0.43,-0.31,1.01,-3,-2,-1,1.14,1.43,80,7704,44.8,5.13,,13.31,0.955,79.0,,32.0,5,,,,,,,,,,,,0,0,0,0,0,0,0,0,0,0,0,0,0,0,0,0,,,,,,0.0,,,,,,,
2328761,1746077106400,,,,,,,,,,,,,,,,,,,,,,,,,,,,,,,,,,0,0,0,0,0,0,0,0,0,0,0,0,0,0,0,0,,,,,,,,,,,,,
2328781,1746077106420,0.0,103,,0.38,-0.37,0.97,-4,-2,-1,1.11,1.43,78,7843,44.8,5.11,,13.41,0.955,79.0,,32.0,5,22,0,24,24,0.0,89.0,0.0,0.0,2.25,,,0,0,0,0,0,0,0,0,0,0,0,0,0,0,0,0,,1,,,,0.0,38.994724,-76.939178,36.38,26.0,30,3,0.8
2328801,1746077106440,,,,,,,,,,,,,,,,,,,,,,,,,,,,,,,,,,0,0,0,0,0,0,0,0,0,0,0,0,0,0,0,0,,,,,,,,,,,,,
2328821,1746077106460,0.0,104,,0.38,-0.31,1.03,-5,-2,-0,1.14,1.43,80,8055,44.7,5.08,,13.25,0.955,79.0,,32.0,5,,,,,,,,,,,,0,0,0,0,0,0,0,0,0,0,0,0,0,0,0,0,,,,,,0.0,,,,,,,
2328841,1746077106480,,,,,,,,,,,,,,,,,,,,,,,,,,,,,,,,,,0,0,0,0,0,0,0,0,0,0,0,0,0,0,0,0,,,,,,,,,,,,,
2328861,1746077106500,0.0,104,,0.4,-0.34,0.99,-5,-2,-0,1.12,1.43,78,8311,44.5,5.07,,13.31,0.955,79.0,,36.9,5,,,,,,,,,,,,0,0,0,0,0,0,0,0,0,0,0,0,0,0,0,0,,,,,,0.0,,,,,,,
2328881,1746077106520,,,,,,,,,,,,,,,,,,,,,,,23,0,26,25,0.0,83.0,0.0,0.0,2.25,,,0,0,0,0,0,0,0,0,0,0,0,0,0,0,0,0,,1,,,,,38.994724,-76.939186,38.04,26.0,30,3,0.8
2328901,1746077106540,0.0,104,,0.41,-0.07,1.04,-7,-1,1,1.12,1.43,78,8461,44.0,5.08,,13.31,0.955,79.0,,36.9,5,,,,,,,,,,,,0,0,0,0,0,0,0,0,0,0,0,0,0,0,0,0,,,,,,0.0,,,,,,,
2328921,1746077106560,,,,,,,,,,,,,,,,,,,,,,,,,,,,,,,,,,0,0,0,0,0,0,0,0,0,0,0,0,0,0,0,0,,,,,,,,,,,,,
2328941,1746077106580,0.0,105,,0.43,-0.04,0.94,-8,-1,-0,1.04,1.04,100,8461,44.0,5.08,,13.24,0.955,79.0,,42.0,5,,,,,,,,,,,,0,0,0,0,0,0,0,0,0,0,0,0,0,0,0,0,,,,,,0.0,,,,,,,
2328961,1746077106600,,,,,,,,,,,,,,,,,,,,,,,,,,,,,,,,,,0,0,0,0,0,0,0,0,0,0,0,0,0,0,0,0,,,,,,,,,,,,,
2328981,1746077106620,0.0,104,,0.46,-0.14,0.93,-7,-1,0,1.05,1.05,100,8614,40.8,5.03,,12.96,0.955,77.2,,42.0,5,25,0,24,27,0.0,254.0,0.0,0.0,2.25,,,0,0,0,0,0,0,0,0,0,0,0,0,0,0,0,0,,1,,,,0.0,38.994728,-76.939201,39.04,26.0,30,3,0.8
2329001,1746077106640,,,,,,,,,,,,,,,,,,,,,,,,,,,,,,,,,,0,0,0,0,0,0,0,0,0,0,0,0,0,0,0,0,,,,,,,,,,,,,
2329021,1746077106660,0.0,104,,0.45,0.06,0.79,-7,-1,1,0.91,1.05,87,8828,38.1,5.24,,12.69,0.955,77.2,,42.0,5,,,,,,,,,,,,0,0,0,0,0,0,0,0,0,0,0,0,0,0,0,0,,,,,,0.0,,,,,,,
2329041,1746077106680,,,,,,,,,,,,,,,,,,,,,,,,,,,,,,,,,,0,0,0,0,0,0,0,0,0,0,0,0,0,0,0,0,,,,,,,,,,,,,
2329541,1746077107177,0.0,105,,0.46,-0.22,1.01,-7,0,0,1.13,1.13,100,10523,20.0,3.38,,9.54,0.955,77.2,,46.4,5,,,,,,,,,,,,0,0,0,0,0,0,0,0,0,0,0,0,0,0,0,0,,,,,,0.0,,,,,,,
2329561,1746077107199,,,,,,,,,,,,,,,,,,,,,,,,,,,,,,,,,,0,0,0,0,0,0,0,0,0,0,0,0,0,0,0,0,,,,,,,,,,,,,
2329581,1746077107219,0.0,104,,0.41,-0.33,1.08,-4,0,1,1.2,1.2,100,10625,20.1,3.22,,9.39,0.955,77.2,,46.4,5,31,0,32,33,0.0,19.0,0.0,0.0,2.25,,,0,0,0,0,0,0,0,0,0,0,0,0,0,0,0,0,,1,,,,0.0,38.994732,-76.939285,49.13,26.2,30,3,0.8
2329601,1746077107239,,,,,,,,,,,,,,,,,,,,,,,,,,,,,,,,,,0,0,0,0,0,0,0,0,0,0,0,0,0,0,0,0,,,,,,,,,,,,,
2329621,1746077107259,0.0,104,,0.39,-0.27,0.97,-6,-1,0,1.08,1.2,90,10696,19.9,3.12,,9.29,0.955,77.2,,46.4,5,,,,,,,,,,,,0,0,0,0,0,0,0,0,0,0,0,0,0,0,0,0,,,,,,0.0,,,,,,,
2329641,1746077107279,,,,,,,,,,,,,,,,,,,,,,,,,,,,,,,,,,0,0,0,0,0,0,0,0,0,0,0,0,0,0,0,0,,,,,,,,,,,,,
2329661,1746077107299,0.0,105,,0.35,-0.09,1.07,-3,-1,-0,1.13,1.2,94,10721,20.5,3.08,,9.26,0.955,77.2,,47.3,5,,,,,,,,,,,,0,0,0,0,0,0,0,0,0,0,0,0,0,0,0,0,,,,,,0.0,,,,,,,
2329681,1746077107319,,,,,,,,,,,,,,,,,,,,,,,32,0,33,33,0.0,81.0,0.0,0.0,2.24,,,0,0,0,0,0,0,0,0,0,0,0,0,0,0,0,0,,1,,,,,38.994732,-76.939301,50.54,26.2,30,3,0.8
2329701,1746077107339,0.0,105,,0.34,-0.18,1.06,-2,-1,-0,1.13,1.2,94,10893,20.7,2.92,,9.26,0.955,77.2,,47.3,5,,,,,,,,,,,,0,0,0,0,0,0,0,0,0,0,0,0,0,0,0,0,,,,,,0.0,,,,,,,
2329721,1746077107359,,,,,,,,,,,,,,,,,,,,,,,,,,,,,,,,,,0,0,0,0,0,0,0,0,0,0,0,0,0,0,0,0,,,,,,,,,,,,,
2329741,1746077107379,0.0,105,,0.3,-0.36,1.1,-1,-2,-1,1.2,1.2,100,10893,20.7,2.92,,9.15,0.95,77.2,,45.3,5,,,,,,,,,,,,0,0,0,0,0,0,0,0,0,0,0,0,0,0,0,0,,,,,,0.0,,,,,,,
2329761,1746077107399,,,,,,,,,,,,,,,,,,,,,,,,,,,,,,,,,,0,0,0,0,0,0,0,0,0,0,0,0,0,0,0,0,,,,,,,,,,,,,
2329781,1746077107419,0.0,105,,0.3,-0.33,1.11,-3,-2,1,1.2,1.2,100,10887,19.9,2.83,,9.11,0.952,77.2,,45.3,5,33,0,33,32,0.0,0.0,0.0,0.0,2.25,,,0,0,0,0,0,0,0,0,0,0,0,0,0,0,0,0,,1,,,,0.0,38.994732,-76.939316,51.47,26.2,30,3,0.8
2329801,1746077107439,,,,,,,,,,,,,,,,,,,,,,,,,,,,,,,,,,0,0,0,0,0,0,0,0,0,0,0,0,0,0,0,0,,,,,,,,,,,,,
2329821,1746077107459,0.0,104,,0.25,-0.42,1.06,-2,-1,-0,1.17,1.2,97,10943,20.7,2.81,,9.06,0.954,77.2,,45.3,5,,,,,,,,,,,,0,0,0,0,0,0,0,0,0,0,0,0,0,0,0,0,,,,,,0.0,,,,,,,
2329841,1746077107479,,,,,,,,,,,,,,,,,,,,,,,,,,,,,,,,,,0,0,0,0,0,0,0,0,0,0,0,0,0,0,0,0,,,,,,,,,,,,,
2329861,1746077107499,0.0,105,,0.2,-0.36,1.06,0,-0,-0,1.13,1.2,94,11034,20.9,2.81,,9.01,0.955,77.2,,47.0,5,,,,,,,,,,,,0,0,0,0,0,0,0,0,0,0,0,0,0,0,0,0,,,,,,0.0,,,,,,,
2329881,1746077107519,,,,,,,,,,,,,,,,,,,,,,,34,0,32,33,0.0,14.0,0.0,0.0,2.24,,,0,0,0,0,0,0,0,0,0,0,0,0,0,0,0,0,,1,,,,,38.994732,-76.939339,51.88,26.3,30,3,0.8
2329901,1746077107539,0.0,104,,0.24,-0.26,1.07,-1,-0,1,1.13,1.2,94,11045,20.9,2.79,,9.01,0.955,77.2,,47.0,5,,,,,,,,,,,,0,0,0,0,0,0,0,0,0,0,0,0,0,0,0,0,,,,,,0.0,,,,,,,
2329921,1746077107559,,,,,,,,,,,,,,,,,,,,,,,,,,,,,,,,,,0,0,0,0,0,0,0,0,0,0,0,0,0,0,0,0,,,,,,,,,,,,,
2329941,1746077107579,0.0,105,,0.15,-0.47,1.03,-1,-1,0,1.14,1.2,95,11045,20.9,2.79,,8.98,0.955,77.2,,48.0,5,,,,,,,,,,,,0,0,0,0,0,0,0,0,0,0,0,0,0,0,0,0,,,,,,0.0,,,,,,,
2329961,1746077107599,,,,,,,,,,,,,,,,,,,,,,,,,,,,,,,,,,0,0,0,0,0,0,0,0,0,0,0,0,0,0,0,0,,,,,,,,,,,,,
2329981,1746077107619,0.0,104,,0.1,-0.42,1.05,-1,-1,0,1.13,1.2,95,11081,17.9,2.68,,8.73,0.955,77.2,,48.0,5,32,0,34,33,0.0,20.0,0.0,0.0,2.25,,,0,0,0,0,0,0,0,0,0,0,0,0,0,0,0,0,,1,,,,0.0,38.994732,-76.939346,52.0,26.3,30,3,0.8
2330001,1746077107639,,,,,,,,,,,,,,,,,,,,,,,,,,,,,,,,,,0,0,0,0,0,0,0,0,0,0,0,0,0,0,0,0,,,,,,,,,,,,,
2330021,1746077107659,0.0,105,,0.12,-0.46,1.09,-1,-1,0,1.19,1.2,99,11070,12.9,2.33,,8.11,0.955,77.2,,48.0,5,,,,,,,,,,,,0,0,0,0,0,0,0,0,0,0,0,0,0,0,0,0,,,,,,0.0,,,,,,,
2330041,1746077107679,,,,,,,,,,,,,,,,,,,,,,,,,,,,,,,,,,0,0,0,0,0,0,0,0,0,0,0,0,0,0,0,0,,,,,,,,,,,,,
2330061,1746077107701,0.0,105,,0.09,-0.35,1.11,-1,-2,-0,1.17,1.2,97,11029,2.9,1.92,,6.84,0.956,77.2,,47.7,5,,,,,,,,,,,,0,0,0,0,0,0,0,0,0,0,0,0,0,0,0,0,,,,,,0.0,,,,,,,
2330081,1746077107721,,,,,,,,,,,,,,,,,,,,,,,33,0,33,33,0.0,4.0,0.0,0.0,2.25,,,0,0,0,0,0,0,0,0,0,0,0,0,0,0,0,0,,1,,,,,38.994732,-76.939369,52.38,26.3,30,3,0.8
2330101,1746077107741,13.95,105,,0.0,-0.41,1.11,1,-2,-1,1.19,1.2,99,10643,0.0,1.4,,6.84,0.956,77.2,,47.7,5,,,,,,,,,,,,0,0,0,0,0,0,0,0,0,0,0,0,0,0,0,0,,,,,,0.0,,,,,,,
2330121,1746077107761,,,,,,,,,,,,,,,,,,,,,,,,,,,,,,,,,,0,0,0,0,0,0,0,0,0,0,0,0,0,0,0,0,,,,,,,,,,,,,
2330141,1746077107781,40.98,105,,-0.08,-0.58,1.15,2,-2,-1,1.29,1.29,100,10643,0.0,1.4,,5.8,0.953,77.2,,46.3,5,,,,,,,,,,,,0,0,0,0,0,0,0,0,0,0,0,0,0,0,0,0,,,,,,0.0,,,,,,,
2330161,1746077107801,,,,,,,,,,,,,,,,,,,,,,,,,,,,,,,,,,0,0,0,0,0,0,0,0,0,0,0,0,0,0,0,0,,,,,,,,,,,,,
2330181,1746077107821,68.63,104,,-0.14,-0.36,1.08,0,-2,-1,1.15,1.29,89,10137,0.0,1.4,,5.35,0.95,77.2,,46.3,5,32,0,32,33,0.0,248.0,0.0,0.0,2.25,,,0,0,0,0,0,0,0,0,0,0,0,0,0,0,0,0,,0,,,,0.0,38.994732,-76.939384,52.44,26.4,30,3,0.8
2330201,1746077107841,,,,,,,,,,,,,,,,,,,,,,,,,,,,,,,,,,0,0,0,0,0,0,0,0,0,0,0,0,0,0,0,0,,,,,,,,,,,,,
2330221,1746077107861,92.51,105,,-0.21,-0.32,1.08,1,-2,-1,1.15,1.29,89,9763,0.0,1.4,,5.11,0.95,77.2,,46.3,5,,,,,,,,,,,,0,0,0,0,0,0,0,0,0,0,0,0,0,0,0,0,,,,,,0.0,,,,,,,
2330241,1746077107881,,,,,,,,,,,,,,,,,,,,,,,,,,,,,,,,,,0,0,0,0,0,0,0,0,0,0,0,0,0,0,0,0,,,,,,,,,,,,,
2330261,1746077107900,106.96,104,,-0.23,-0.4,1.08,-1,-2,-0,1.17,1.29,91,9489,0.0,1.4,,4.92,0.955,77.2,,46.5,5,,,,,,,,,,,,0,0,0,0,0,0,0,0,0,0,0,0,0,0,0,0,,,,,,0.0,,,,,,,
2330281,1746077107920,,,,,,,,,,,,,,,,,,,,,,,31,0,29,30,0.0,233.0,0.0,0.0,2.25,,,0,0,0,0,0,0,0,0,0,0,0,0,0,0,0,0,,0,,,,,38.994732,-76.9394,51.01,26.4,30,3,0.8
2330301,1746077107940,119.53,105,,-0.37,-0.09,1.09,-1,-3,-0,1.15,1.29,90,9328,0.0,1.4,,4.92,0.955,77.2,,46.5,5,,,,,,,,,,,,0,0,0,0,0,0,0,0,0,0,0,0,0,0,0,0,,,,,,0.0,,,,,,,
2330321,1746077107960,,,,,,,,,,,,,,,,,,,,,,,,,,,,,,,,,,0,0,0,0,0,0,0,0,0,0,0,0,0,0,0,0,,,,,,,,,,,,,
2330341,1746077107980,133.36,105,,-0.42,0.12,1.04,-1,-3,-1,1.13,1.29,88,9328,0.0,1.4,,4.8,0.956,77.2,,38.8,5,,,,,,,,,,,,0,0,0,0,0,0,0,0,0,0,0,0,0,0,0,0,,,,,,0.0,,,,,,,
2330361,1746077107992,,,,,,,,,,,,,,,,,,,,,,,,,,,,,,,,,,0,0,0,0,0,0,0,0,0,0,0,0,0,0,0,0,,,,,,,,,,,,,
2330381,1746077108012,140.9,105,13.48,-0.43,0.17,1.05,1,-3,-1,1.14,1.29,89,9105,0.0,1.4,15,4.76,0.956,77.2,205,38.8,5,29,0,29,28,0.0,208.0,0.0,0.0,2.25,0,0.0,0,0,0,0,0,0,0,0,0,0,0,0,0,0,0,0,0,0,0.0,0,0,0.0,38.994732,-76.939415,48.14,26.4,30,3,0.8
2330401,1746077108032,,,,,,,,,,,,,,,,,,,,,,,,,,,,,,,,,,0,0,0,0,0,0,0,0,0,0,0,0,0,0,0,0,,,,,,,,,,,,,
2330421,1746077108052,147.18,106,,-0.46,0.29,1.08,3,-3,-1,1.21,1.21,100,8896,0.0,1.4,,4.76,0.956,77.2,,38.8,5,,,,,,,,,,,,0,0,0,0,0,0,0,0,0,0,0,0,0,0,0,0,,,,,,0.0,,,,,,,
2330441,1746077108072,,,,,,,,,,,,,,,,,,,,,,,,,,,,,,,,,,0,0,0,0,0,0,0,0,0,0,0,0,0,0,0,0,,,,,,,,,,,,,
2330461,1746077108100,152.84,106,,-0.5,0.3,1.05,6,-3,-1,1.2,1.21,100,8672,0.0,1.4,,4.83,0.956,77.2,,43.7,5,,,,,,,,,,,,0,0,0,0,0,0,0,0,0,0,0,0,0,0,0,0,,,,,,0.0,,,,,,,
2330481,1746077108120,,,,,,,,,,,,,,,,,,,,,,,28,0,26,26,0.0,244.0,0.0,0.0,2.25,,,0,0,0,0,0,0,0,0,0,0,0,0,0,0,0,0,,0,,,,,38.994736,-76.93943,43.92,26.5,30,3,0.8
2330501,1746077108140,154.1,106,,-0.5,0.42,1.09,8,-2,-1,1.27,1.27,100,8444,0.0,1.4,,4.83,0.956,77.2,,43.7,5,,,,,,,,,,,,0,0,0,0,0,0,0,0,0,0,0,0,0,0,0,0,,,,,,0.0,,,,,,,
2330521,1746077108160,,,,,,,,,,,,,,,,,,,,,,,,,,,,,,,,,,0,0,0,0,0,0,0,0,0,0,0,0,0,0,0,0,,,,,,,,,,,,,
2330541,1746077108180,154.73,106,,-0.53,0.39,1.08,10,-2,-2,1.26,1.27,100,8444,0.0,1.4,,4.91,0.956,77.2,,36.2,5,,,,,,,,,,,,0,0,0,0,0,0,0,0,0,0,0,0,0,0,0,0,,,,,,0.0,,,,,,,
2330561,1746077108200,,,,,,,,,,,,,,,,,,,,,,,,,,,,,,,,,,0,0,0,0,0,0,0,0,0,0,0,0,0,0,0,0,,,,,,,,,,,,,
2330581,1746077108220,149.7,106,,-0.53,0.32,1.0,13,-2,-1,1.18,1.27,93,8211,0.0,1.4,,5.04,0.955,77.2,,36.2,5,26,0,25,23,0.0,233.0,0.0,0.0,2.24,,,0,0,0,0,0,0,0,0,0,0,0,0,0,0,0,0,,0,,,,0.0,38.994736,-76.939446,41.1,26.5,30,3,0.8
2330601,1746077108240,,,,,,,,,,,,,,,,,,,,,,,,,,,,,,,,,,0,0,0,0,0,0,0,0,0,0,0,0,0,0,0,0,,,,,,,,,,,,,
2330621,1746077108260,143.41,106,,-0.55,0.32,0.89,13,-1,-2,1.1,1.27,86,8040,0.0,1.4,,5.19,0.956,77.2,,36.2,5,,,,,,,,,,,,0,0,0,0,0,0,0,0,0,0,0,0,0,0,0,0,,,,,,0.0,,,,,,,
2330641,1746077108280,,,,,,,,,,,,,,,,,,,,,,,,,,,,,,,,,,0,0,0,0,0,0,0,0,0,0,0,0,0,0,0,0,,,,,,,,,,,,,
2330661,1746077108300,125.19,106,,-0.56,0.42,0.95,14,-1,-2,1.18,1.27,93,7871,1.5,1.4,,5.52,0.955,77.2,,35.7,5,,,,,,,,,,,,0,0,0,0,0,0,0,0,0,0,0,0,0,0,0,0,,,,,,0.0,,,,,,,
2330681,1746077108320,,,,,,,,,,,,,,,,,,,,,,,25,0,24,24,0.0,220.0,0.0,0.0,2.25,,,0,0,0,0,0,0,0,0,0,0,0,0,0,0,0,0,,0,,,,,38.994732,-76.939453,38.76,26.5,30,3,0.8
2330701,1746077108340,105.71,105,,-0.55,0.34,0.88,15,-1,-1,1.09,1.27,86,7742,2.5,1.4,,5.52,0.955,77.2,,35.7,5,,,,,,,,,,,,0,0,0,0,0,0,0,0,0,0,0,0,0,0,0,0,,,,,,0.0,,,,,,,
2330721,1746077108360,,,,,,,,,,,,,,,,,,,,,,,,,,,,,,,,,,0,0,0,0,0,0,0,0,0,0,0,0,0,0,0,0,,,,,,,,,,,,,
2330741,1746077108380,89.99,106,,-0.53,0.36,0.98,16,-1,-1,1.17,1.27,92,7742,2.5,1.4,,5.82,0.951,77.2,,32.3,5,,,,,,,,,,,,0,0,0,0,0,0,0,0,0,0,0,0,0,0,0,0,,,,,,0.0,,,,,,,
2330761,1746077108400,,,,,,,,,,,,,,,,,,,,,,,,,,,,,,,,,,0,0,0,0,0,0,0,0,0,0,0,0,0,0,0,0,,,,,,,,,,,,,
2330781,1746077108420,75.54,106,,-0.49,0.42,1.03,17,-1,-1,1.21,1.27,96,7646,7.7,1.96,,6.43,0.955,77.2,,32.3,5,24,0,23,23,0.0,243.0,0.0,0.0,2.25,,,0,0,0,0,0,0,0,0,0,0,0,0,0,0,0,0,,0,,,,0.0,38.994732,-76.939468,37.26,26.5,30,3,0.8
2330801,1746077108440,,,,,,,,,,,,,,,,,,,,,,,,,,,,,,,,,,0,0,0,0,0,0,0,0,0,0,0,0,0,0,0,0,,,,,,,,,,,,,
2330821,1746077108460,61.71,106,,-0.46,0.53,1.11,17,-1,-1,1.31,1.31,100,7656,10.8,2.29,,7.43,0.956,77.2,,32.3,5,,,,,,,,,,,,0,0,0,0,0,0,0,0,0,0,0,0,0,0,0,0,,,,,,0.0,,,,,,,
2330841,1746077108480,,,,,,,,,,,,,,,,,,,,,,,,,,,,,,,,,,0,0,0,0,0,0,0,0,0,0,0,0,0,0,0,0,,,,,,,,,,,,,
2330861,1746077108500,53.54,105,,-0.41,0.51,1.04,18,-1,0,1.23,1.31,94,7750,14.4,2.42,,8.41,0.955,77.2,,32.0,5,,,,,,,,,,,,0,0,0,0,0,0,0,0,0,0,0,0,0,0,0,0,,,,,,0.0,,,,,,,
2330881,1746077108520,,,,,,,,,,,,,,,,,,,,,,,24,0,23,22,0.0,0.0,0.0,0.0,2.25,,,0,0,0,0,0,0,0,0,0,0,0,0,0,0,0,0,,0,,,,,38.994732,-76.939484,36.22,26.6,30,3,0.8
2330901,1746077108540,51.66,106,,-0.39,0.55,1.1,18,-1,-0,1.29,1.31,99,7722,18.3,3.21,,8.41,0.955,77.2,,32.0,5,,,,,,,,,,,,0,0,0,0,0,0,0,0,0,0,0,0,0,0,0,0,,,,,,0.0,,,,,,,
2330921,1746077108560,,,,,,,,,,,,,,,,,,,,,,,,,,,,,,,,,,0,0,0,0,0,0,0,0,0,0,0,0,0,0,0,0,,,,,,,,,,,,,
2330941,1746077108580,48.52,106,,-0.37,0.61,1.08,18,-2,-1,1.3,1.31,99,7722,18.3,3.21,,9.48,0.955,77.2,,33.9,5,,,,,,,,,,,,0,0,0,0,0,0,0,0,0,0,0,0,0,0,0,0,,,,,,0.0,,,,,,,
2330961,1746077108600,,,,,,,,,,,,,,,,,,,,,,,,,,,,,,,,,,0,0,0,0,0,0,0,0,0,0,0,0,0,0,0,0,,,,,,,,,,,,,
2330981,1746077108620,43.49,106,,-0.35,0.66,1.11,18,-1,-1,1.34,1.34,100,7819,20.2,3.79,,10.16,0.955,77.2,,33.9,5,23,0,23,21,0.0,6.0,0.0,0.0,2.25,,,0,0,0,0,0,0,0,0,0,0,0,0,0,0,0,0,,0,,,,0.0,38.994732,-76.939499,35.64,26.6,30,3,0.8
2331001,1746077108640,,,,,,,,,,,,,,,,,,,,,,,,,,,,,,,,,,0,0,0,0,0,0,0,0,0,0,0,0,0,0,0,0,,,,,,,,,,,,,
2331021,1746077108660,41.6,105,,-0.3,0.68,1.0,19,2,-1,1.25,1.34,93,8314,22.0,3.83,,10.53,0.956,77.2,,33.9,5,,,,,,,,,,,,0,0,0,0,0,0,0,0,0,0,0,0,0,0,0,0,,,,,,0.0,,,,,,,
2331041,1746077108680,,,,,,,,,,,,,,,,,,,,,,,,,,,,,,,,,,0,0,0,0,0,0,0,0,0,0,0,0,0,0,0,0,,,,,,,,,,,,,
2331061,1746077108700,34.06,105,,-0.24,0.58,1.0,20,2,-0,1.18,1.34,88,8411,21.0,3.74,,10.56,0.951,77.2,,32.8,5,,,,,,,,,,,,0,0,0,0,0,0,0,0,0,0,0,0,0,0,0,0,,,,,,0.0,,,,,,,
2331081,1746077108720,,,,,,,,,,,,,,,,,,,,,,,23,0,24,27,0.0,26.0,0.0,0.0,2.25,,,0,0,0,0,0,0,0,0,0,0,0,0,0,0,0,0,,0,,,,,38.994732,-76.939499,34.98,26.6,30,3,0.8
2331101,1746077108740,26.52,105,,-0.13,0.52,0.95,20,2,0,1.09,1.34,81,8058,18.3,3.87,,10.56,0.951,77.2,,32.8,5,,,,,,,,,,,,0,0,0,0,0,0,0,0,0,0,0,0,0,0,0,0,,,,,,0.0,,,,,,,
2331121,1746077108760,,,,,,,,,,,,,,,,,,,,,,,,,,,,,,,,,,0,0,0,0,0,0,0,0,0,0,0,0,0,0,0,0,,,,,,,,,,,,,
2331141,1746077108780,20.86,106,,-0.05,0.38,1.02,20,1,-1,1.09,1.34,81,8058,18.3,3.87,,10.69,0.949,77.2,,33.6,5,,,,,,,,,,,,0,0,0,0,0,0,0,0,0,0,0,0,0,0,0,0,,,,,,0.0,,,,,,,
2331161,1746077108800,,,,,,,,,,,,,,,,,,,,,,,,,,,,,,,,,,0,0,0,0,0,0,0,0,0,0,0,0,0,0,0,0,,,,,,,,,,,,,
2331181,1746077108820,22.75,105,,-0.06,0.41,1.0,18,0,-2,1.08,1.34,81,7973,18.3,4.15,,10.84,0.955,77.2,,33.6,5,24,0,24,26,0.0,48.0,0.0,0.0,2.25,,,0,0,0,0,0,0,0,0,0,0,0,0,0,0,0,0,,0,,,,0.0,38.994728,-76.939514,37.28,26.6,30,3,0.8
2331201,1746077108840,,,,,,,,,,,,,,,,,,,,,,,,,,,,,,,,,,0,0,0,0,0,0,0,0,0,0,0,0,0,0,0,0,,,,,,,,,,,,,
2331221,1746077108860,30.92,104,,-0.03,0.38,0.96,19,-0,-2,1.03,1.34,77,8208,15.8,4.05,,10.53,0.955,77.2,,33.6,5,,,,,,,,,,,,0,0,0,0,0,0,0,0,0,0,0,0,0,0,0,0,,,,,,0.0,,,,,,,
2331241,1746077108880,,,,,,,,,,,,,,,,,,,,,,,,,,,,,,,,,,0,0,0,0,0,0,0,0,0,0,0,0,0,0,0,0,,,,,,,,,,,,,
2331261,1746077108899,42.86,106,,-0.02,0.31,1.03,19,1,-2,1.08,1.34,80,8449,11.3,3.26,,9.84,0.955,77.2,,32.3,5,,,,,,,,,,,,0,0,0,0,0,0,0,0,0,0,0,0,0,0,0,0,,,,,,0.0,,,,,,,
2331281,1746077108919,,,,,,,,,,,,,,,,,,,,,,,24,0,24,25,0.0,92.0,0.0,0.0,2.24,,,0,0,0,0,0,0,0,0,0,0,0,0,0,0,0,0,,0,,,,,38.994728,-76.939529,39.41,26.6,30,3,0.8
2331301,1746077108939,52.92,105,,-0.01,0.32,1.06,17,1,-1,1.11,1.34,83,8140,0.0,1.4,,9.84,0.955,77.2,,32.3,5,,,,,,,,,,,,0,0,0,0,0,0,0,0,0,0,0,0,0,0,0,0,,,,,,0.0,,,,,,,
2331321,1746077108959,,,,,,,,,,,,,,,,,,,,,,,,,,,,,,,,,,0,0,0,0,0,0,0,0,0,0,0,0,0,0,0,0,,,,,,,,,,,,,
2331341,1746077108979,58.57,105,,-0.06,0.33,1.01,16,-0,-1,1.07,1.34,79,8140,0.0,1.4,,8.69,0.956,77.2,,31.7,5,,,,,,,,,,,,0,0,0,0,0,0,0,0,0,0,0,0,0,0,0,0,,,,,,0.0,,,,,,,
2331361,1746077108991,,,,,,,,,,,,,,,,,,,,,,,,,,,,,,,,,,0,0,0,0,0,0,0,0,0,0,0,0,0,0,0,0,,,,,,,,,,,,,
2331381,1746077109011,68.63,106,13.55,-0.08,0.32,1.09,15,-3,-1,1.14,1.14,100,7488,0.0,1.4,15,7.71,0.956,77.2,205,31.7,5,24,0,25,23,0.0,229.0,0.0,0.0,2.25,0,0.0,0,0,0,0,0,0,0,0,0,0,0,0,0,0,0,0,0,0,0.0,0,0,0.0,38.994724,-76.939537,38.61,26.6,30,3,0.8
2331401,1746077109031,,,,,,,,,,,,,,,,,,,,,,,,,,,,,,,,,,0,0,0,0,0,0,0,0,0,0,0,0,0,0,0,0,,,,,,,,,,,,,
2331421,1746077109051,83.08,106,,-0.25,0.29,1.01,14,-4,-1,1.08,1.14,95,7034,0.0,1.4,,7.25,0.956,77.2,,31.7,5,,,,,,,,,,,,0,0,0,0,0,0,0,0,0,0,0,0,0,0,0,0,,,,,,0.0,,,,,,,
2331441,1746077109071,,,,,,,,,,,,,,,,,,,,,,,,,,,,,,,,,,0,0,0,0,0,0,0,0,0,0,0,0,0,0,0,0,,,,,,,,,,,,,
2331461,1746077109101,98.16,105,,-0.31,0.34,1.01,15,-3,-1,1.11,1.14,98,6716,0.0,1.4,,7.22,0.956,77.2,,29.3,5,,,,,,,,,,,,0,0,0,0,0,0,0,0,0,0,0,0,0,0,0,0,,,,,,0.0,,,,,,,
2331481,1746077109121,,,,,,,,,,,,,,,,,,,,,,,24,0,22,21,0.0,225.0,0.0,0.0,2.25,,,0,0,0,0,0,0,0,0,0,0,0,0,0,0,0,0,,0,,,,,38.99472,-76.939552,38.78,26.7,30,3,0.8
2331501,1746077109141,111.36,105,,-0.36,0.37,1.01,14,-3,-1,1.13,1.14,100,6560,0.0,1.4,,7.22,0.956,77.2,,29.3,5,,,,,,,,,,,,0,0,0,0,0,0,0,0,0,0,0,0,0,0,0,0,,,,,,0.0,,,,,,,
2331521,1746077109161,,,,,,,,,,,,,,,,,,,,,,,,,,,,,,,,,,0,0,0,0,0,0,0,0,0,0,0,0,0,0,0,0,,,,,,,,,,,,,
2331541,1746077109181,118.28,104,,-0.41,0.4,1.03,20,2,1,1.18,1.18,100,6560,0.0,1.4,,7.31,0.956,77.2,,27.0,5,,,,,,,,,,,,0,0,0,0,0,0,0,0,0,0,0,0,0,0,0,0,,,,,,0.0,,,,,,,
2331561,1746077109201,,,,,,,,,,,,,,,,,,,,,,,,,,,,,,,,,,0,0,0,0,0,0,0,0,0,0,0,0,0,0,0,0,,,,,,,,,,,,,
2331581,1746077109221,122.05,104,,-0.49,0.39,1.0,18,1,1,1.18,1.18,100,6536,0.0,1.4,,7.33,0.953,77.2,,27.0,5,22,0,19,19,0.0,158.0,0.0,0.0,2.25,,,0,0,0,0,0,0,0,0,0,0,0,0,0,0,0,0,,0,,,,0.0,38.994717,-76.939568,36.07,26.7,30,3,0.8
2331601,1746077109241,,,,,,,,,,,,,,,,,,,,,,,,,,,,,,,,,,0,0,0,0,0,0,0,0,0,0,0,0,0,0,0,0,,,,,,,,,,,,,
2331621,1746077109261,122.67,105,,-0.53,0.48,1.07,15,1,1,1.28,1.28,100,6461,52.3,4.53,,11.05,0.953,77.2,,27.0,5,,,,,,,,,,,,0,0,0,0,0,0,0,0,0,0,0,0,0,0,0,0,,,,,,0.0,,,,,,,
2331641,1746077109281,,,,,,,,,,,,,,,,,,,,,,,,,,,,,,,,,,0,0,0,0,0,0,0,0,0,0,0,0,0,0,0,0,,,,,,,,,,,,,
2331661,1746077109299,120.79,104,,-0.52,0.41,1.01,13,1,2,1.21,1.28,94,6652,87.0,6.97,,14.23,0.955,77.2,,27.7,5,,,,,,,,,,,,0,0,0,0,0,0,0,0,0,0,0,0,0,0,0,0,,,,,,0.0,,,,,,,
2331681,1746077109319,,,,,,,,,,,,,,,,,,,,,,,20,0,19,20,0.0,197.0,0.0,0.0,2.24,,,0,0,0,0,0,0,0,0,0,0,0,0,0,0,0,0,,0,,,,,38.994713,-76.939575,32.08,26.7,30,3,0.8
2331701,1746077109339,115.13,103,,-0.48,0.37,1.04,16,1,2,1.21,1.28,94,7462,89.1,6.41,,14.23,0.955,77.2,,27.7,5,,,,,,,,,,,,0,0,0,0,0,0,0,0,0,0,0,0,0,0,0,0,,,,,,0.0,,,,,,,
2331721,1746077109359,,,,,,,,,,,,,,,,,,,,,,,,,,,,,,,,,,0,0,0,0,0,0,0,0,0,0,0,0,0,0,0,0,,,,,,,,,,,,,
2331741,1746077109379,109.48,104,,-0.46,0.41,1.03,10,2,3,1.2,1.28,94,7462,89.1,6.41,,13.98,0.955,77.2,,32.0,5,,,,,,,,,,,,0,0,0,0,0,0,0,0,0,0,0,0,0,0,0,0,,,,,,0.0,,,,,,,
2331761,1746077109399,,,,,,,,,,,,,,,,,,,,,,,,,,,,,,,,,,0,0,0,0,0,0,0,0,0,0,0,0,0,0,0,0,,,,,,,,,,,,,
2331781,1746077109419,102.56,104,,-0.29,-0.01,1.05,4,2,3,1.09,1.28,85,8080,66.1,4.96,,13.88,0.955,77.2,,32.0,5,18,0,22,22,0.0,154.0,0.0,0.0,2.24,,,0,0,0,0,0,0,0,0,0,0,0,0,0,0,0,0,,0,,,,0.0,38.994709,-76.939583,29.47,26.8,30,3,0.8
2331801,1746077109439,,,,,,,,,,,,,,,,,,,,,,,,,,,,,,,,,,0,0,0,0,0,0,0,0,0,0,0,0,0,0,0,0,,,,,,,,,,,,,
2331821,1746077109459,95.02,104,,-0.2,-0.06,1.02,0,3,4,1.04,1.28,81,7325,23.3,5.26,,12.45,0.955,77.2,,32.0,5,,,,,,,,,,,,0,0,0,0,0,0,0,0,0,0,0,0,0,0,0,0,,,,,,0.0,,,,,,,
2331841,1746077109479,,,,,,,,,,,,,,,,,,,,,,,,,,,,,,,,,,0,0,0,0,0,0,0,0,0,0,0,0,0,0,0,0,,,,,,,,,,,,,
2331861,1746077109499,91.25,104,,-0.21,0.03,1.11,-5,1,3,1.13,1.28,88,6651,16.0,4.41,,12.08,0.955,77.2,,27.5,5,,,,,,,,,,,,0,0,0,0,0,0,0,0,0,0,0,0,0,0,0,0,,,,,,0.0,,,,,,,
2331881,1746077109519,,,,,,,,,,,,,,,,,,,,,,,19,0,21,22,0.0,147.0,0.0,0.0,2.25,,,0,0,0,0,0,0,0,0,0,0,0,0,0,0,0,0,,0,,,,,38.994709,-76.93959,31.44,26.8,30,3,0.8
2331901,1746077109539,95.02,102,,-0.23,0.11,1.14,-10,-0,2,1.17,1.28,91,6734,17.1,4.4,,12.08,0.955,77.2,,27.5,5,,,,,,,,,,,,0,0,0,0,0,0,0,0,0,0,0,0,0,0,0,0,,,,,,0.0,,,,,,,
2331921,1746077109559,,,,,,,,,,,,,,,,,,,,,,,,,,,,,,,,,,0,0,0,0,0,0,0,0,0,0,0,0,0,0,0,0,,,,,,,,,,,,,
2331941,1746077109579,103.19,103,,-0.31,-0.02,1.09,-14,-1,1,1.13,1.28,88,6734,17.1,4.4,,11.81,0.951,77.2,,26.9,5,,,,,,,,,,,,0,0,0,0,0,0,0,0,0,0,0,0,0,0,0,0,,,,,,0.0,,,,,,,
2331961,1746077109599,,,,,,,,,,,,,,,,,,,,,,,,,,,,,,,,,,0,0,0,0,0,0,0,0,0,0,0,0,0,0,0,0,,,,,,,,,,,,,
2331981,1746077109619,106.96,102,,-0.29,-0.25,1.07,-18,0,1,1.13,1.28,88,6969,17.4,4.61,,11.4,0.95,79.0,,26.9,5,18,0,20,21,0.0,95.0,0.0,0.0,2.25,,,0,0,0,0,0,0,0,0,0,0,0,0,0,0,0,0,,0,,,,0.0,38.994705,-76.939606,33.17,26.8,30,3,0.8
2332001,1746077109639,,,,,,,,,,,,,,,,,,,,,,,,,,,,,,,,,,0,0,0,0,0,0,0,0,0,0,0,0,0,0,0,0,,,,,,,,,,,,,
2332021,1746077109659,103.19,102,,-0.27,-0.1,1.08,-22,0,1,1.12,1.28,87,7034,17.3,4.68,,11.42,0.954,79.0,,26.9,5,,,,,,,,,,,,0,0,0,0,0,0,0,0,0,0,0,0,0,0,0,0,,,,,,0.0,,,,,,,
2332041,1746077109679,,,,,,,,,,,,,,,,,,,,,,,,,,,,,,,,,,0,0,0,0,0,0,0,0,0,0,0,0,0,0,0,0,,,,,,,,,,,,,
2332061,1746077109699,98.16,102,,-0.28,0.0,1.1,-25,-1,2,1.13,1.28,88,6831,8.4,3.97,,10.56,0.955,79.0,,27.7,5,,,,,,,,,,,,0,0,0,0,0,0,0,0,0,0,0,0,0,0,0,0,,,,,,0.0,,,,,,,
2332081,1746077109719,,,,,,,,,,,,,,,,,,,,,,,18,0,20,22,0.0,110.0,0.0,0.0,2.25,,,0,0,0,0,0,0,0,0,0,0,0,0,0,0,0,0,,0,,,,,38.994705,-76.939613,31.36,26.8,30,3,0.8
2332101,1746077109739,94.39,102,,-0.31,-0.13,1.06,-26,-1,1,1.11,1.28,86,6645,2.2,1.79,,10.56,0.955,79.0,,27.7,5,,,,,,,,,,,,0,0,0,0,0,0,0,0,0,0,0,0,0,0,0,0,,,,,,0.0,,,,,,,
2332121,1746077109759,,,,,,,,,,,,,,,,,,,,,,,,,,,,,,,,,,0,0,0,0,0,0,0,0,0,0,0,0,0,0,0,0,,,,,,,,,,,,,
2332141,1746077109779,88.74,102,,-0.38,-0.28,1.01,-29,-1,1,1.12,1.28,87,6645,2.2,1.79,,9.89,0.956,79.0,,27.3,5,,,,,,,,,,,,0,0,0,0,0,0,0,0,0,0,0,0,0,0,0,0,,,,,,0.0,,,,,,,
2332161,1746077109801,,,,,,,,,,,,,,,,,,,,,,,,,,,,,,,,,,0,0,0,0,0,0,0,0,0,0,0,0,0,0,0,0,,,,,,,,,,,,,
2332181,1746077109821,86.22,102,,-0.39,-0.39,1.06,-31,0,0,1.2,1.28,93,6431,2.2,1.69,,9.48,0.956,79.0,,27.3,5,19,0,19,21,0.0,90.0,0.0,0.0,2.25,,,0,0,0,0,0,0,0,0,0,0,0,0,0,0,0,0,,0,,,,0.0,38.994701,-76.939621,31.81,26.8,30,3,0.8
2332201,1746077109841,,,,,,,,,,,,,,,,,,,,,,,,,,,,,,,,,,0,0,0,0,0,0,0,0,0,0,0,0,0,0,0,0,,,,,,,,,,,,,
2332221,1746077109861,83.71,101,,-0.49,-0.34,1.06,-32,-0,-1,1.22,1.28,95,6136,2.0,1.72,,9.41,0.956,79.0,,27.3,5,,,,,,,,,,,,0,0,0,0,0,0,0,0,0,0,0,0,0,0,0,0,,,,,,0.0,,,,,,,
2332241,1746077109881,,,,,,,,,,,,,,,,,,,,,,,,,,,,,,,,,,0,0,0,0,0,0,0,0,0,0,0,0,0,0,0,0,,,,,,,,,,,,,
2332261,1746077109900,83.08,101,,-0.55,-0.35,1.09,-31,-1,-2,1.27,1.28,99,5863,1.8,1.76,,9.49,0.956,79.0,,25.1,5,,,,,,,,,,,,0,0,0,0,0,0,0,0,0,0,0,0,0,0,0,0,,,,,,0.0,,,,,,,
2332281,1746077109920,,,,,,,,,,,,,,,,,,,,,,,18,0,18,21,0.0,85.0,0.0,0.0,2.24,,,0,0,0,0,0,0,0,0,0,0,0,0,0,0,0,0,,0,,,,,38.994701,-76.939629,30.21,26.8,30,3,0.8
2332301,1746077109940,79.31,102,,-0.56,-0.32,1.07,-32,1,-1,1.25,1.28,97,5608,2.0,1.97,,9.49,0.956,79.0,,25.1,5,,,,,,,,,,,,0,0,0,0,0,0,0,0,0,0,0,0,0,0,0,0,,,,,,0.0,,,,,,,
2332321,1746077109960,,,,,,,,,,,,,,,,,,,,,,,,,,,,,,,,,,0,0,0,0,0,0,0,0,0,0,0,0,0,0,0,0,,,,,,,,,,,,,
2332341,1746077109980,77.43,102,,-0.63,-0.1,1.03,-31,-0,-1,1.21,1.28,94,5608,2.0,1.97,,9.73,0.956,79.0,,25.6,5,,,,,,,,,,,,0,0,0,0,0,0,0,0,0,0,0,0,0,0,0,0,,,,,,0.0,,,,,,,
2332361,1746077109992,,,,,,,,,,,,,,,,,,,,,,,,,,,,,,,,,,0,0,0,0,0,0,0,0,0,0,0,0,0,0,0,0,,,,,,,,,,,,,
2332381,1746077110012,76.17,101,13.55,-0.61,-0.18,1.08,-33,1,-2,1.25,1.28,97,5709,2.1,1.99,15,9.76,0.956,79.0,205,25.6,5,18,0,16,17,0.0,15.0,0.0,0.0,2.25,0,0.0,0,0,0,0,0,0,0,0,0,0,0,0,0,0,0,0,0,0,0.0,0,0,0.0,38.994701,-76.939644,29.31,26.9,29,3,0.9
