"Interval"|"ms"|0|0|1,"Utc"|"ms"|0|0|1,"FrontBP"|"psi"|-5.0|5.0|25,"SteerAng"|"Degrees"|-145|145|25,"Battery"|"Volts"|-5.0|20.0|1,"AccelX"|"G"|-3.0|3.0|25,"AccelY"|"G"|-3.0|3.0|25,"AccelZ"|"G"|-3.0|3.0|25,"Yaw"|"Deg/Sec"|-120|120|25,"Pitch"|"Deg/Sec"|-120|120|25,"Roll"|"Deg/Sec"|-120|120|25,"Gsum"|"G"|0.0|3.0|25,"GsumMax"|"G"|0.0|3.0|25,"GsumPct"|"%"|0|100|25,"RPM"|""|0|10000|25,"TPS"|"%"|0.0|100.0|25,"InjectorPW"|"ms"|0.0|100.0|25,"Baro"|"kPa"|0|105|1,"MAP"|"Psi"|0.0|255.0|25,"Lambda"|""|-2.0|2.0|25,"IAT"|"C"|0.0|200.0|25,"EngineTemp"|"C"|0|200|1,"EOP"|"PSI"|0.0|152.0|25,"EOT"|"F"|0|250|25,"WSFR"|"MPH"|0|150|10,"WSFL"|"MPH"|0|100|10,"WSRR"|"MPH"|0|100|10,"WSRL"|""|0|100|10,"TCSet"|"%"|0.0|100.0|10,"TCSlip"|"%"|0.0|100.0|10,"TCComp"|"deg"|0.0|50.0|10,"TCCut"|"%"|0.0|100.0|10,"Analog8"|""|0.0|5.0|10,"OilTemp"|"F"|0|300|1,"AA_On"|""|0.0|1.0|1,"ThermLF1"|"C"|0|400|50,"ThermLF2"|"C"|0|400|50,"ThermRR1"|"C"|0|400|50,"ThermRR2"|"C"|0|400|50,"ThermLF3"|"C"|0|400|50,"ThermLF4"|"C"|0|400|50,"ThermLF5"|"C"|0|400|50,"ThermLF6"|"C"|0|400|50,"ThermLF7"|"C"|0|400|50,"ThermLF8"|"C"|0|400|50,"ThermRR3"|"C"|0|400|50,"ThermRR4"|"C"|0|400|50,"ThermRR5"|"C"|0|400|50,"ThermRR6"|"C"|0|400|50,"ThermRR7"|"C"|0|400|50,"ThermRR8"|"C"|0|400|50,"AA_LowDrag"|""|0|1|1,"Gear"|""|1|6|10,"AA_On"|""|0.0|1.0|1,"AA_LowDrag"|""|0|1|1,"Fuel_Mix"|""|-10|10|1,"AA_Packages"|""|0.0|1000.0|25,"Latitude"|"Degrees"|-180.0|180.0|10,"Longitude"|"Degrees"|-180.0|180.0|10,"Speed"|"kph"|0.0|150.0|10,"Altitude"|"m"|0.0|4000.0|10,"GPSSats"|""|0|20|10,"GPSQual"|""|0|5|10,"GPSDOP"|""|0.0|20.0|10
3322301,1746078099945,0.0,127,,-0.07,-0.15,1.06,3,-1,3,1.07,1.07,100,10613,3.4,1.76,,7.58,0.95,91.6,,56.1,5,,,,,,,,,,,,0,0,0,0,0,0,0,0,0,0,0,0,0,0,0,0,,,,,,0.0,,,,,,,
3322321,1746078099965,,,,,,,,,,,,,,,,,,,,,,,,,,,,,,,,,,0,0,0,0,0,0,0,0,0,0,0,0,0,0,0,0,,,,,,,,,,,,,
3322341,1746078099985,0.0,126,,-0.08,-0.17,0.95,2,-1,2,0.97,1.07,91,10423,19.2,2.59,,7.58,0.95,91.6,,56.1,5,,,,,,,,,,,,0,0,0,0,0,0,0,0,0,0,0,0,0,0,0,0,,,,,,0.0,,,,,,,
3322361,1746078099999,,,,,,,,,,,,,,,,,,,,,,,,,,,,,,,,,,0,0,0,0,0,0,0,0,0,0,0,0,0,0,0,0,,,,,,,,,,,,,
3322381,1746078100019,0.0,127,13.04,-0.07,-0.14,0.92,0,-0,1,0.93,1.07,87,10194,52.1,3.49,15,7.58,0.95,91.6,210,56.0,5,0,0,0,0,0.0,0.0,0.0,0.0,2.24,0,0.0,0,0,0,0,0,0,0,0,0,0,0,0,0,0,0,0,0,0,0.0,0,0,0.0,38.994354,-76.939865,0.05,28.0,32,3,0.8
3322401,1746078100039,,,,,,,,,,,,,,,,,,,,,,,,,,,,,,,,,,0,0,0,0,0,0,0,0,0,0,0,0,0,0,0,0,,,,,,,,,,,,,
3322421,1746078100059,0.0,127,,-0.08,-0.19,1.06,-0,-1,0,1.08,1.08,100,10194,52.1,3.49,,10.44,0.954,91.6,,56.0,5,,,,,,,,,,,,0,0,0,0,0,0,0,0,0,0,0,0,0,0,0,0,,,,,,0.0,,,,,,,
3322441,1746078100079,,,,,,,,,,,,,,,,,,,,,,,,,,,,,,,,,,0,0,0,0,0,0,0,0,0,0,0,0,0,0,0,0,,,,,,,,,,,,,
3322461,1746078100105,0.0,128,,-0.07,-0.16,1.05,-1,-1,1,1.07,1.08,98,10015,61.2,5.49,,12.45,0.953,91.6,,54.1,5,,,,,,,,,,,,0,0,0,0,0,0,0,0,0,0,0,0,0,0,0,0,,,,,,0.0,,,,,,,
3322481,1746078100125,,,,,,,,,,,,,,,,,,,,,,,0,0,0,0,0.0,0.0,0.0,0.0,2.24,,,0,0,0,0,0,0,0,0,0,0,0,0,0,0,0,0,,0,,,,,38.994354,-76.939865,0.04,28.0,32,3,0.8
3322501,1746078100145,0.0,127,,-0.07,-0.11,1.04,-2,-1,-0,1.05,1.08,97,10378,42.3,4.95,,12.44,0.954,91.6,,54.1,5,,,,,,,,,,,,0,0,0,0,0,0,0,0,0,0,0,0,0,0,0,0,,,,,,0.0,,,,,,,
3322521,1746078100165,,,,,,,,,,,,,,,,,,,,,,,,,,,,,,,,,,0,0,0,0,0,0,0,0,0,0,0,0,0,0,0,0,,,,,,,,,,,,,
3322541,1746078100185,0.0,126,,-0.09,-0.26,1.0,-1,-1,0,1.04,1.08,96,10608,12.5,4.59,,10.04,0.954,91.6,,54.1,5,,,,,,,,,,,,0,0,0,0,0,0,0,0,0,0,0,0,0,0,0,0,,,,,,0.0,,,,,,,
3322561,1746078100205,,,,,,,,,,,,,,,,,,,,,,,,,,,,,,,,,,0,0,0,0,0,0,0,0,0,0,0,0,0,0,0,0,,,,,,,,,,,,,
3322581,1746078100225,0.0,127,,-0.08,-0.42,1.09,-0,-0,-1,1.17,1.17,100,10568,6.2,2.23,,10.04,0.954,91.6,,53.8,5,0,0,0,0,0.0,0.0,0.0,0.0,2.24,,,0,0,0,0,0,0,0,0,0,0,0,0,0,0,0,0,,0,,,,0.0,38.994354,-76.939865,0.04,28.0,32,3,0.8
3322601,1746078100245,,,,,,,,,,,,,,,,,,,,,,,,,,,,,,,,,,0,0,0,0,0,0,0,0,0,0,0,0,0,0,0,0,,,,,,,,,,,,,
3322621,1746078100265,0.0,127,,-0.08,-0.35,1.01,-0,-1,-1,1.07,1.17,91,10568,6.2,2.23,,8.17,0.954,91.6,,53.8,5,,,,,,,,,,,,0,0,0,0,0,0,0,0,0,0,0,0,0,0,0,0,,,,,,0.0,,,,,,,
3322641,1746078100285,,,,,,,,,,,,,,,,,,,,,,,,,,,,,,,,,,0,0,0,0,0,0,0,0,0,0,0,0,0,0,0,0,,,,,,,,,,,,,
3322661,1746078100305,0.0,127,,-0.08,-0.47,0.97,-1,-0,-2,1.08,1.17,92,10744,2.1,1.4,,6.76,0.955,91.6,,54.6,5,,,,,,,,,,,,0,0,0,0,0,0,0,0,0,0,0,0,0,0,0,0,,,,,,0.0,,,,,,,
3322681,1746078100325,,,,,,,,,,,,,,,,,,,,,,,0,0,0,0,0.0,0.0,0.0,0.0,2.25,,,0,0,0,0,0,0,0,0,0,0,0,0,0,0,0,0,,0,,,,,38.994354,-76.939865,0.04,28.0,32,3,0.8
3322701,1746078100345,0.0,127,,-0.09,-0.43,0.9,-1,-1,-1,1.0,1.17,85,10114,1.1,1.4,,5.88,0.952,91.6,,54.6,5,,,,,,,,,,,,0,0,0,0,0,0,0,0,0,0,0,0,0,0,0,0,,,,,,0.0,,,,,,,
3322721,1746078100365,,,,,,,,,,,,,,,,,,,,,,,,,,,,,,,,,,0,0,0,0,0,0,0,0,0,0,0,0,0,0,0,0,,,,,,,,,,,,,
3322741,1746078100385,0.0,126,,-0.09,-0.36,0.9,-0,-1,-1,0.97,1.17,83,9426,18.4,2.42,,6.67,0.955,91.6,,54.6,5,,,,,,,,,,,,0,0,0,0,0,0,0,0,0,0,0,0,0,0,0,0,,,,,,0.0,,,,,,,
3322761,1746078100407,,,,,,,,,,,,,,,,,,,,,,,,,,,,,,,,,,0,0,0,0,0,0,0,0,0,0,0,0,0,0,0,0,,,,,,,,,,,,,
3322781,1746078100427,0.0,127,,-0.1,-0.58,0.96,0,-1,-1,1.13,1.17,96,9113,41.2,3.35,,6.67,0.955,91.6,,54.3,5,0,0,0,0,0.0,0.0,0.0,0.0,2.25,,,0,0,0,0,0,0,0,0,0,0,0,0,0,0,0,0,,0,,,,0.0,38.994354,-76.939865,0.04,28.0,32,3,0.8
3322801,1746078100447,,,,,,,,,,,,,,,,,,,,,,,,,,,,,,,,,,0,0,0,0,0,0,0,0,0,0,0,0,0,0,0,0,,,,,,,,,,,,,
3322821,1746078100467,0.0,127,,-0.12,-0.56,0.97,0,-1,-2,1.13,1.17,96,9113,41.2,3.35,,9.62,0.954,91.6,,54.3,5,,,,,,,,,,,,0,0,0,0,0,0,0,0,0,0,0,0,0,0,0,0,,,,,,0.0,,,,,,,
3322841,1746078100487,,,,,,,,,,,,,,,,,,,,,,,,,,,,,,,,,,0,0,0,0,0,0,0,0,0,0,0,0,0,0,0,0,,,,,,,,,,,,,
3322861,1746078100507,0.0,127,,-0.11,-0.47,0.98,1,-1,-1,1.09,1.17,93,9351,43.1,4.87,,11.42,0.954,91.6,,53.3,5,,,,,,,,,,,,0,0,0,0,0,0,0,0,0,0,0,0,0,0,0,0,,,,,,0.0,,,,,,,
3322881,1746078100527,,,,,,,,,,,,,,,,,,,,,,,0,0,0,0,0.0,0.0,0.0,0.0,2.24,,,0,0,0,0,0,0,0,0,0,0,0,0,0,0,0,0,,0,,,,,38.994354,-76.939865,0.0,28.0,32,3,0.8
3322901,1746078100547,0.0,127,,-0.1,-0.48,0.95,1,-1,-1,1.07,1.17,91,10208,36.2,5.02,,11.41,0.955,91.6,,53.3,5,,,,,,,,,,,,0,0,0,0,0,0,0,0,0,0,0,0,0,0,0,0,,,,,,0.0,,,,,,,
3322921,1746078100567,,,,,,,,,,,,,,,,,,,,,,,,,,,,,,,,,,0,0,0,0,0,0,0,0,0,0,0,0,0,0,0,0,,,,,,,,,,,,,
3322941,1746078100587,0.0,126,,-0.09,-0.27,0.98,1,-0,-1,1.02,1.17,87,11312,12.0,3.09,,9.3,0.955,91.6,,53.3,5,,,,,,,,,,,,0,0,0,0,0,0,0,0,0,0,0,0,0,0,0,0,,,,,,0.0,,,,,,,
3322961,1746078100607,,,,,,,,,,,,,,,,,,,,,,,,,,,,,,,,,,0,0,0,0,0,0,0,0,0,0,0,0,0,0,0,0,,,,,,,,,,,,,
3322981,1746078100627,0.0,126,,-0.06,-0.23,1.03,1,-0,0,1.05,1.17,90,11600,5.8,2.1,,9.3,0.955,91.6,,48.7,5,0,0,0,0,0.0,0.0,0.0,0.0,2.24,,,0,0,0,0,0,0,0,0,0,0,0,0,0,0,0,0,,0,,,,0.0,38.994354,-76.939865,0.07,28.0,32,3,0.8
3323001,1746078100647,,,,,,,,,,,,,,,,,,,,,,,,,,,,,,,,,,0,0,0,0,0,0,0,0,0,0,0,0,0,0,0,0,,,,,,,,,,,,,
3323021,1746078100667,0.0,125,,-0.07,-0.17,0.97,1,-1,1,0.99,1.17,84,11600,5.8,2.1,,7.34,0.951,91.6,,48.7,5,,,,,,,,,,,,0,0,0,0,0,0,0,0,0,0,0,0,0,0,0,0,,,,,,0.0,,,,,,,
3323041,1746078100687,,,,,,,,,,,,,,,,,,,,,,,,,,,,,,,,,,0,0,0,0,0,0,0,0,0,0,0,0,0,0,0,0,,,,,,,,,,,,,
3323061,1746078100707,0.0,126,,-0.08,-0.13,0.97,1,-1,2,0.98,1.17,84,11386,3.6,1.54,,6.24,0.954,91.6,,52.3,5,,,,,,,,,,,,0,0,0,0,0,0,0,0,0,0,0,0,0,0,0,0,,,,,,0.0,,,,,,,
3323081,1746078100727,,,,,,,,,,,,,,,,,,,,,,,0,0,0,0,0.0,0.0,0.0,0.0,2.24,,,0,0,0,0,0,0,0,0,0,0,0,0,0,0,0,0,,0,,,,,38.994354,-76.939865,0.04,28.0,32,3,0.8
3323101,1746078100747,0.0,126,,-0.08,-0.12,0.93,1,-1,2,0.94,1.17,80,10744,3.3,1.4,,5.67,0.955,91.6,,52.3,5,,,,,,,,,,,,0,0,0,0,0,0,0,0,0,0,0,0,0,0,0,0,,,,,,0.0,,,,,,,
3323121,1746078100767,,,,,,,,,,,,,,,,,,,,,,,,,,,,,,,,,,0,0,0,0,0,0,0,0,0,0,0,0,0,0,0,0,,,,,,,,,,,,,
3323141,1746078100787,0.0,125,,-0.09,-0.02,0.83,1,-1,2,0.84,1.17,71,10000,5.9,1.4,,5.7,0.955,91.6,,52.3,5,,,,,,,,,,,,0,0,0,0,0,0,0,0,0,0,0,0,0,0,0,0,,,,,,0.0,,,,,,,
3323161,1746078100805,,,,,,,,,,,,,,,,,,,,,,,,,,,,,,,,,,0,0,0,0,0,0,0,0,0,0,0,0,0,0,0,0,,,,,,,,,,,,,
3323181,1746078100825,0.0,125,,-0.08,-0.06,0.81,0,-1,2,0.81,1.17,69,9309,21.4,2.43,,5.7,0.955,91.6,,51.6,5,0,0,0,0,0.0,0.0,0.0,0.0,2.25,,,0,0,0,0,0,0,0,0,0,0,0,0,0,0,0,0,,0,,,,0.0,38.994354,-76.939865,0.09,28.0,32,3,0.8
3323201,1746078100845,,,,,,,,,,,,,,,,,,,,,,,,,,,,,,,,,,0,0,0,0,0,0,0,0,0,0,0,0,0,0,0,0,,,,,,,,,,,,,
3323221,1746078100865,0.0,125,,-0.08,-0.14,0.9,1,-1,3,0.92,1.17,78,9309,21.4,2.43,,7.19,0.955,91.6,,51.6,5,,,,,,,,,,,,0,0,0,0,0,0,0,0,0,0,0,0,0,0,0,0,,,,,,0.0,,,,,,,
3323241,1746078100885,,,,,,,,,,,,,,,,,,,,,,,,,,,,,,,,,,0,0,0,0,0,0,0,0,0,0,0,0,0,0,0,0,,,,,,,,,,,,,
3323261,1746078100906,0.0,125,,-0.1,-0.18,0.91,2,-1,4,0.93,1.17,79,9236,24.0,2.72,,8.57,0.955,91.6,,51.6,5,,,,,,,,,,,,0,0,0,0,0,0,0,0,0,0,0,0,0,0,0,0,,,,,,0.0,,,,,,,
3323281,1746078100926,,,,,,,,,,,,,,,,,,,,,,,0,0,0,0,0.0,0.0,0.0,0.0,2.24,,,0,0,0,0,0,0,0,0,0,0,0,0,0,0,0,0,,0,,,,,38.994354,-76.939865,0.06,28.0,32,3,0.8
3323301,1746078100946,0.0,125,,-0.09,-0.23,0.96,3,-1,6,0.99,1.17,84,9242,16.9,3.03,,8.67,0.955,89.8,,52.2,5,,,,,,,,,,,,0,0,0,0,0,0,0,0,0,0,0,0,0,0,0,0,,,,,,0.0,,,,,,,
3323321,1746078100966,,,,,,,,,,,,,,,,,,,,,,,,,,,,,,,,,,0,0,0,0,0,0,0,0,0,0,0,0,0,0,0,0,,,,,,,,,,,,,
3323341,1746078100986,0.0,125,,-0.11,-0.16,0.86,2,-1,4,0.88,1.17,75,9584,8.0,2.16,,7.59,0.955,89.8,,52.2,5,,,,,,,,,,,,0,0,0,0,0,0,0,0,0,0,0,0,0,0,0,0,,,,,,0.0,,,,,,,
3323361,1746078100998,,,,,,,,,,,,,,,,,,,,,,,,,,,,,,,,,,0,0,0,0,0,0,0,0,0,0,0,0,0,0,0,0,,,,,,,,,,,,,
3323381,1746078101018,0.0,125,13.09,-0.11,-0.18,0.92,2,-1,4,0.94,1.17,80,9435,4.9,1.81,15,7.59,0.955,89.8,209,52.9,5,0,0,0,0,0.0,0.0,0.0,0.0,2.24,0,0.0,0,0,0,0,0,0,0,0,0,0,0,0,0,0,0,0,0,0,0.0,0,0,0.0,38.994354,-76.939865,0.19,28.0,32,3,0.8
3323401,1746078101038,,,,,,,,,,,,,,,,,,,,,,,,,,,,,,,,,,0,0,0,0,0,0,0,0,0,0,0,0,0,0,0,0,,,,,,,,,,,,,
3323421,1746078101058,0.0,125,,-0.11,-0.1,0.95,1,-1,3,0.96,1.17,81,9435,4.9,1.81,,6.62,0.951,89.8,,52.9,5,,,,,,,,,,,,0,0,0,0,0,0,0,0,0,0,0,0,0,0,0,0,,,,,,0.0,,,,,,,
3323441,1746078101078,,,,,,,,,,,,,,,,,,,,,,,,,,,,,,,,,,0,0,0,0,0,0,0,0,0,0,0,0,0,0,0,0,,,,,,,,,,,,,
3323461,1746078101100,0.0,126,,-0.11,-0.04,1.0,1,-2,3,1.01,1.17,86,8928,4.5,1.64,,6.11,0.955,89.8,,51.0,5,,,,,,,,,,,,0,0,0,0,0,0,0,0,0,0,0,0,0,0,0,0,,,,,,0.0,,,,,,,
3323481,1746078101120,,,,,,,,,,,,,,,,,,,,,,,0,0,0,0,0.0,0.0,0.0,0.0,2.24,,,0,0,0,0,0,0,0,0,0,0,0,0,0,0,0,0,,0,,,,,38.994354,-76.939865,0.07,28.0,32,3,0.8
3323501,1746078101140,0.0,125,,-0.11,-0.09,1.01,2,-2,3,1.02,1.17,87,8353,17.4,2.0,,7.03,0.955,89.8,,51.0,5,,,,,,,,,,,,0,0,0,0,0,0,0,0,0,0,0,0,0,0,0,0,,,,,,0.0,,,,,,,
3323521,1746078101160,,,,,,,,,,,,,,,,,,,,,,,,,,,,,,,,,,0,0,0,0,0,0,0,0,0,0,0,0,0,0,0,0,,,,,,,,,,,,,
3323541,1746078101180,0.0,125,,-0.11,-0.07,0.97,2,-2,3,0.98,1.17,84,7864,26.9,3.06,,9.19,0.954,89.8,,51.0,5,,,,,,,,,,,,0,0,0,0,0,0,0,0,0,0,0,0,0,0,0,0,,,,,,0.0,,,,,,,
3323561,1746078101206,,,,,,,,,,,,,,,,,,,,,,,,,,,,,,,,,,0,0,0,0,0,0,0,0,0,0,0,0,0,0,0,0,,,,,,,,,,,,,
3323581,1746078101226,0.0,125,,-0.1,-0.06,1.03,3,-2,3,1.03,1.17,88,7849,28.0,3.41,,9.19,0.954,89.8,,47.0,5,0,0,0,0,0.0,0.0,0.0,0.0,2.25,,,0,0,0,0,0,0,0,0,0,0,0,0,0,0,0,0,,0,,,,0.0,38.994354,-76.939865,0.08,28.0,32,3,0.8
3323601,1746078101246,,,,,,,,,,,,,,,,,,,,,,,,,,,,,,,,,,0,0,0,0,0,0,0,0,0,0,0,0,0,0,0,0,,,,,,,,,,,,,
3323621,1746078101266,0.0,126,,-0.1,-0.11,1.05,3,-2,3,1.06,1.17,91,7849,28.0,3.41,,10.68,0.955,89.8,,47.0,5,,,,,,,,,,,,0,0,0,0,0,0,0,0,0,0,0,0,0,0,0,0,,,,,,0.0,,,,,,,
3323641,1746078101286,,,,,,,,,,,,,,,,,,,,,,,,,,,,,,,,,,0,0,0,0,0,0,0,0,0,0,0,0,0,0,0,0,,,,,,,,,,,,,
3323661,1746078101306,0.0,125,,-0.1,-0.09,1.07,2,-2,3,1.08,1.17,92,8054,22.3,4.85,,10.9,0.953,89.8,,48.4,5,,,,,,,,,,,,0,0,0,0,0,0,0,0,0,0,0,0,0,0,0,0,,,,,,0.0,,,,,,,
3323681,1746078101326,,,,,,,,,,,,,,,,,,,,,,,0,0,0,0,0.0,0.0,0.0,0.0,2.24,,,0,0,0,0,0,0,0,0,0,0,0,0,0,0,0,0,,0,,,,,38.994354,-76.939865,0.0,28.0,32,3,0.8
3323701,1746078101346,0.0,125,,-0.09,-0.04,1.12,3,-2,3,1.12,1.17,95,8450,12.8,2.99,,9.8,0.95,89.8,,48.4,5,,,,,,,,,,,,0,0,0,0,0,0,0,0,0,0,0,0,0,0,0,0,,,,,,0.0,,,,,,,
3323721,1746078101366,,,,,,,,,,,,,,,,,,,,,,,,,,,,,,,,,,0,0,0,0,0,0,0,0,0,0,0,0,0,0,0,0,,,,,,,,,,,,,
3323741,1746078101386,0.0,125,,-0.09,-0.07,1.04,3,-1,3,1.05,1.17,89,8692,7.7,2.59,,9.8,0.95,89.8,,48.4,5,,,,,,,,,,,,0,0,0,0,0,0,0,0,0,0,0,0,0,0,0,0,,,,,,0.0,,,,,,,
3323761,1746078101406,,,,,,,,,,,,,,,,,,,,,,,,,,,,,,,,,,0,0,0,0,0,0,0,0,0,0,0,0,0,0,0,0,,,,,,,,,,,,,
3323781,1746078101426,0.0,125,,-0.09,0.02,1.03,3,-1,3,1.04,1.17,88,8710,6.5,2.22,,8.57,0.954,89.8,,49.7,5,0,0,0,0,0.0,0.0,0.0,0.0,2.24,,,0,0,0,0,0,0,0,0,0,0,0,0,0,0,0,0,,0,,,,0.0,38.994354,-76.939865,0.15,28.0,32,3,0.8
3323801,1746078101446,,,,,,,,,,,,,,,,,,,,,,,,,,,,,,,,,,0,0,0,0,0,0,0,0,0,0,0,0,0,0,0,0,,,,,,,,,,,,,
3323821,1746078101466,0.0,126,,-0.09,0.0,1.01,2,-1,3,1.01,1.17,86,8710,6.5,2.22,,7.69,0.955,89.8,,49.7,5,,,,,,,,,,,,0,0,0,0,0,0,0,0,0,0,0,0,0,0,0,0,,,,,,0.0,,,,,,,
3323841,1746078101486,,,,,,,,,,,,,,,,,,,,,,,,,,,,,,,,,,0,0,0,0,0,0,0,0,0,0,0,0,0,0,0,0,,,,,,,,,,,,,
3323861,1746078101506,0.0,126,,-0.08,-0.03,1.04,2,-1,3,1.05,1.17,89,8579,8.6,2.14,,7.33,0.955,89.8,,49.8,5,,,,,,,,,,,,0,0,0,0,0,0,0,0,0,0,0,0,0,0,0,0,,,,,,0.0,,,,,,,
3323881,1746078101526,,,,,,,,,,,,,,,,,,,,,,,0,0,0,0,0.0,0.0,0.0,0.0,2.24,,,0,0,0,0,0,0,0,0,0,0,0,0,0,0,0,0,,0,,,,,38.994354,-76.939865,0.06,28.0,32,3,0.8
3323901,1746078101546,0.0,125,,-0.1,0.0,0.95,2,-1,2,0.95,1.17,81,8331,19.6,2.94,,8.29,0.955,89.8,,49.8,5,,,,,,,,,,,,0,0,0,0,0,0,0,0,0,0,0,0,0,0,0,0,,,,,,0.0,,,,,,,
3323921,1746078101566,,,,,,,,,,,,,,,,,,,,,,,,,,,,,,,,,,0,0,0,0,0,0,0,0,0,0,0,0,0,0,0,0,,,,,,,,,,,,,
3323941,1746078101586,0.0,125,,-0.09,0.03,0.93,2,-1,2,0.93,1.17,80,8348,24.9,3.21,,9.69,0.955,89.8,,49.8,5,,,,,,,,,,,,0,0,0,0,0,0,0,0,0,0,0,0,0,0,0,0,,,,,,0.0,,,,,,,
3323961,1746078101606,,,,,,,,,,,,,,,,,,,,,,,,,,,,,,,,,,0,0,0,0,0,0,0,0,0,0,0,0,0,0,0,0,,,,,,,,,,,,,
3323981,1746078101626,0.0,125,,-0.09,-0.04,0.96,2,-1,1,0.96,1.17,82,8787,25.8,3.3,,9.69,0.955,89.8,,46.6,5,0,0,0,0,0.0,0.0,0.0,0.0,2.24,,,0,0,0,0,0,0,0,0,0,0,0,0,0,0,0,0,,0,,,,0.0,38.994354,-76.939865,0.08,28.0,32,3,0.8
3324001,1746078101646,,,,,,,,,,,,,,,,,,,,,,,,,,,,,,,,,,0,0,0,0,0,0,0,0,0,0,0,0,0,0,0,0,,,,,,,,,,,,,
3324021,1746078101666,0.0,125,,-0.1,-0.1,0.92,3,-1,1,0.93,1.17,79,8787,25.8,3.3,,10.26,0.954,89.8,,46.6,5,,,,,,,,,,,,0,0,0,0,0,0,0,0,0,0,0,0,0,0,0,0,,,,,,0.0,,,,,,,
3324041,1746078101686,,,,,,,,,,,,,,,,,,,,,,,,,,,,,,,,,,0,0,0,0,0,0,0,0,0,0,0,0,0,0,0,0,,,,,,,,,,,,,
3324061,1746078101706,0.0,126,,-0.1,-0.15,1.04,3,-1,2,1.05,1.17,90,9133,19.5,3.38,,9.96,0.952,89.8,,49.3,5,,,,,,,,,,,,0,0,0,0,0,0,0,0,0,0,0,0,0,0,0,0,,,,,,0.0,,,,,,,
3324081,1746078101726,,,,,,,,,,,,,,,,,,,,,,,0,0,0,0,0.0,0.0,0.0,0.0,2.24,,,0,0,0,0,0,0,0,0,0,0,0,0,0,0,0,0,,0,,,,,38.994354,-76.939865,0.04,28.0,32,3,0.8
3324101,1746078101746,0.0,125,,-0.07,-0.18,1.01,2,-1,0,1.03,1.17,88,9629,10.2,2.58,,8.46,0.955,89.8,,49.3,5,,,,,,,,,,,,0,0,0,0,0,0,0,0,0,0,0,0,0,0,0,0,,,,,,0.0,,,,,,,
3324121,1746078101766,,,,,,,,,,,,,,,,,,,,,,,,,,,,,,,,,,0,0,0,0,0,0,0,0,0,0,0,0,0,0,0,0,,,,,,,,,,,,,
3324141,1746078101786,0.0,125,,-0.06,-0.16,0.99,3,-1,2,1.0,1.17,85,9827,6.0,2.09,,7.27,0.955,89.8,,49.3,5,,,,,,,,,,,,0,0,0,0,0,0,0,0,0,0,0,0,0,0,0,0,,,,,,0.0,,,,,,,
3324161,1746078101806,,,,,,,,,,,,,,,,,,,,,,,,,,,,,,,,,,0,0,0,0,0,0,0,0,0,0,0,0,0,0,0,0,,,,,,,,,,,,,
3324181,1746078101826,0.0,125,,-0.07,-0.19,0.97,3,-1,2,0.99,1.17,85,9671,3.9,1.72,,7.27,0.955,89.8,,50.3,5,0,0,0,0,0.0,0.0,0.0,0.0,2.24,,,0,0,0,0,0,0,0,0,0,0,0,0,0,0,0,0,,0,,,,0.0,38.994354,-76.939865,0.04,28.0,32,3,0.8
3324201,1746078101846,,,,,,,,,,,,,,,,,,,,,,,,,,,,,,,,,,0,0,0,0,0,0,0,0,0,0,0,0,0,0,0,0,,,,,,,,,,,,,
3324221,1746078101866,0.0,125,,-0.07,-0.08,0.87,2,-1,1,0.88,1.17,75,9671,3.9,1.72,,6.43,0.955,89.8,,50.3,5,,,,,,,,,,,,0,0,0,0,0,0,0,0,0,0,0,0,0,0,0,0,,,,,,0.0,,,,,,,
3324241,1746078101886,,,,,,,,,,,,,,,,,,,,,,,,,,,,,,,,,,0,0,0,0,0,0,0,0,0,0,0,0,0,0,0,0,,,,,,,,,,,,,
3324261,1746078101905,0.0,126,,-0.07,-0.11,0.85,2,-1,1,0.86,1.17,74,9018,3.5,1.4,,5.94,0.955,89.8,,48.9,5,,,,,,,,,,,,0,0,0,0,0,0,0,0,0,0,0,0,0,0,0,0,,,,,,0.0,,,,,,,
3324281,1746078101925,,,,,,,,,,,,,,,,,,,,,,,0,0,0,0,0.0,0.0,0.0,0.0,2.25,,,0,0,0,0,0,0,0,0,0,0,0,0,0,0,0,0,,0,,,,,38.994354,-76.939865,0.11,28.0,32,3,0.8
3324301,1746078101945,0.0,126,,-0.07,-0.04,0.83,3,-1,2,0.83,1.17,71,8367,7.4,1.59,,6.08,0.951,89.8,,48.9,5,,,,,,,,,,,,0,0,0,0,0,0,0,0,0,0,0,0,0,0,0,0,,,,,,0.0,,,,,,,
3324321,1746078101965,,,,,,,,,,,,,,,,,,,,,,,,,,,,,,,,,,0,0,0,0,0,0,0,0,0,0,0,0,0,0,0,0,,,,,,,,,,,,,
3324341,1746078101985,0.0,125,,-0.06,-0.01,0.77,2,-1,2,0.77,1.17,66,7702,15.4,2.09,,7.2,0.954,89.8,,48.9,5,,,,,,,,,,,,0,0,0,0,0,0,0,0,0,0,0,0,0,0,0,0,,,,,,0.0,,,,,,,
3324361,1746078101997,,,,,,,,,,,,,,,,,,,,,,,,,,,,,,,,,,0,0,0,0,0,0,0,0,0,0,0,0,0,0,0,0,,,,,,,,,,,,,
3324381,1746078102017,0.0,125,13.19,-0.05,-0.08,0.79,2,-1,3,0.8,1.17,68,7240,22.3,2.91,15,7.2,0.954,89.8,207,48.4,5,0,0,0,0,0.0,0.0,0.0,0.0,2.25,0,0.0,0,0,0,0,0,0,0,0,0,0,0,0,0,0,0,0,0,0,0.0,0,0,0.0,38.994354,-76.939865,0.0,28.0,32,3,0.8
3324401,1746078102037,,,,,,,,,,,,,,,,,,,,,,,,,,,,,,,,,,0,0,0,0,0,0,0,0,0,0,0,0,0,0,0,0,,,,,,,,,,,,,
3324421,1746078102057,0.0,125,,-0.06,-0.06,0.82,2,-1,2,0.82,1.17,70,7240,22.3,2.91,,9.06,0.955,89.8,,48.4,5,,,,,,,,,,,,0,0,0,0,0,0,0,0,0,0,0,0,0,0,0,0,,,,,,0.0,,,,,,,
3324441,1746078102077,,,,,,,,,,,,,,,,,,,,,,,,,,,,,,,,,,0,0,0,0,0,0,0,0,0,0,0,0,0,0,0,0,,,,,,,,,,,,,
3324461,1746078102101,0.0,126,,-0.05,0.0,0.83,1,-1,2,0.83,1.17,70,7136,24.3,3.35,,10.72,0.954,89.8,,48.4,5,,,,,,,,,,,,0,0,0,0,0,0,0,0,0,0,0,0,0,0,0,0,,,,,,0.0,,,,,,,
3324481,1746078102121,,,,,,,,,,,,,,,,,,,,,,,0,0,0,0,0.0,0.0,0.0,0.0,2.24,,,0,0,0,0,0,0,0,0,0,0,0,0,0,0,0,0,,0,,,,,38.994354,-76.939865,0.04,28.0,32,3,0.8
3324501,1746078102141,0.0,126,,-0.06,-0.05,0.81,0,-1,2,0.81,1.17,69,7337,24.4,4.46,,11.24,0.954,89.8,,42.7,5,,,,,,,,,,,,0,0,0,0,0,0,0,0,0,0,0,0,0,0,0,0,,,,,,0.0,,,,,,,
3324521,1746078102161,,,,,,,,,,,,,,,,,,,,,,,,,,,,,,,,,,0,0,0,0,0,0,0,0,0,0,0,0,0,0,0,0,,,,,,,,,,,,,
3324541,1746078102181,0.0,125,,-0.05,-0.13,0.84,0,-1,2,0.85,1.17,73,7737,13.4,3.5,,10.46,0.954,89.8,,42.7,5,,,,,,,,,,,,0,0,0,0,0,0,0,0,0,0,0,0,0,0,0,0,,,,,,0.0,,,,,,,
3324561,1746078102201,,,,,,,,,,,,,,,,,,,,,,,,,,,,,,,,,,0,0,0,0,0,0,0,0,0,0,0,0,0,0,0,0,,,,,,,,,,,,,
3324581,1746078102221,0.0,125,,-0.05,-0.04,0.9,-0,-1,2,0.9,1.17,77,8057,6.1,2.64,,10.46,0.954,89.8,,45.9,5,0,0,0,0,0.0,0.0,0.0,0.0,2.25,,,0,0,0,0,0,0,0,0,0,0,0,0,0,0,0,0,,0,,,,0.0,38.994354,-76.939865,0.0,28.0,32,3,0.8
3324601,1746078102241,,,,,,,,,,,,,,,,,,,,,,,,,,,,,,,,,,0,0,0,0,0,0,0,0,0,0,0,0,0,0,0,0,,,,,,,,,,,,,
3324621,1746078102261,0.0,126,,-0.06,-0.04,0.9,1,-1,2,0.9,1.17,77,8057,6.1,2.64,,9.18,0.955,89.8,,45.9,5,,,,,,,,,,,,0,0,0,0,0,0,0,0,0,0,0,0,0,0,0,0,,,,,,0.0,,,,,,,
3324641,1746078102281,,,,,,,,,,,,,,,,,,,,,,,,,,,,,,,,,,0,0,0,0,0,0,0,0,0,0,0,0,0,0,0,0,,,,,,,,,,,,,
3324661,1746078102305,0.0,126,,-0.04,-0.04,0.94,1,-1,2,0.94,1.17,80,8234,3.8,2.01,,8.02,0.952,89.8,,47.9,5,,,,,,,,,,,,0,0,0,0,0,0,0,0,0,0,0,0,0,0,0,0,,,,,,0.0,,,,,,,
3324681,1746078102325,,,,,,,,,,,,,,,,,,,,,,,0,0,0,0,0.0,0.0,0.0,0.0,2.24,,,0,0,0,0,0,0,0,0,0,0,0,0,0,0,0,0,,0,,,,,38.994354,-76.939865,0.06,28.0,32,3,0.8
3324701,1746078102345,0.0,126,,-0.05,-0.05,0.89,2,-1,3,0.89,1.17,76,7985,5.4,2.05,,7.54,0.953,89.8,,47.9,5,,,,,,,,,,,,0,0,0,0,0,0,0,0,0,0,0,0,0,0,0,0,,,,,,0.0,,,,,,,
3324721,1746078102365,,,,,,,,,,,,,,,,,,,,,,,,,,,,,,,,,,0,0,0,0,0,0,0,0,0,0,0,0,0,0,0,0,,,,,,,,,,,,,
3324741,1746078102385,0.0,125,,-0.04,-0.09,0.94,2,-1,2,0.95,1.17,81,7607,17.8,2.43,,8.51,0.955,89.8,,47.9,5,,,,,,,,,,,,0,0,0,0,0,0,0,0,0,0,0,0,0,0,0,0,,,,,,0.0,,,,,,,
3324761,1746078102405,,,,,,,,,,,,,,,,,,,,,,,,,,,,,,,,,,0,0,0,0,0,0,0,0,0,0,0,0,0,0,0,0,,,,,,,,,,,,,
3324781,1746078102425,0.0,126,,-0.03,0.01,0.98,2,-1,1,0.98,1.17,83,7422,23.6,3.3,,8.51,0.955,89.8,,47.6,5,0,0,0,0,0.0,0.0,0.0,0.0,2.24,,,0,0,0,0,0,0,0,0,0,0,0,0,0,0,0,0,,0,,,,0.0,38.994354,-76.939865,0.04,28.0,32,3,0.8
3324801,1746078102445,,,,,,,,,,,,,,,,,,,,,,,,,,,,,,,,,,0,0,0,0,0,0,0,0,0,0,0,0,0,0,0,0,,,,,,,,,,,,,
3324821,1746078102465,0.0,125,,-0.03,0.06,1.04,2,-1,0,1.05,1.17,89,7422,23.6,3.3,,9.92,0.955,89.8,,47.6,5,,,,,,,,,,,,0,0,0,0,0,0,0,0,0,0,0,0,0,0,0,0,,,,,,0.0,,,,,,,
3324841,1746078102485,,,,,,,,,,,,,,,,,,,,,,,,,,,,,,,,,,0,0,0,0,0,0,0,0,0,0,0,0,0,0,0,0,,,,,,,,,,,,,
3324861,1746078102505,0.0,126,,-0.04,0.08,1.06,1,-1,1,1.06,1.17,90,7598,25.5,3.69,,10.96,0.955,89.8,,45.3,5,,,,,,,,,,,,0,0,0,0,0,0,0,0,0,0,0,0,0,0,0,0,,,,,,0.0,,,,,,,
3324881,1746078102525,,,,,,,,,,,,,,,,,,,,,,,0,0,0,0,0.0,0.0,0.0,0.0,2.25,,,0,0,0,0,0,0,0,0,0,0,0,0,0,0,0,0,,0,,,,,38.994354,-76.939865,0.0,28.0,32,3,0.8
3324901,1746078102545,0.0,126,,-0.04,0.02,1.01,1,-1,-1,1.01,1.17,86,7995,26.1,4.82,,11.22,0.954,89.8,,45.3,5,,,,,,,,,,,,0,0,0,0,0,0,0,0,0,0,0,0,0,0,0,0,,,,,,0.0,,,,,,,
3324921,1746078102565,,,,,,,,,,,,,,,,,,,,,,,,,,,,,,,,,,0,0,0,0,0,0,0,0,0,0,0,0,0,0,0,0,,,,,,,,,,,,,
3324941,1746078102585,0.0,126,,-0.04,-0.14,0.94,-1,-1,-2,0.95,1.17,81,8620,15.5,3.28,,11.22,0.954,89.8,,45.3,5,,,,,,,,,,,,0,0,0,0,0,0,0,0,0,0,0,0,0,0,0,0,,,,,,0.0,,,,,,,
3324961,1746078102605,,,,,,,,,,,,,,,,,,,,,,,,,,,,,,,,,,0,0,0,0,0,0,0,0,0,0,0,0,0,0,0,0,,,,,,,,,,,,,
3324981,1746078102625,0.0,126,,-0.05,-0.01,0.82,-2,-1,-3,0.83,1.17,70,8620,15.5,3.28,,10.42,0.95,89.8,,48.8,5,0,0,0,0,0.0,0.0,0.0,0.0,2.24,,,0,0,0,0,0,0,0,0,0,0,0,0,0,0,0,0,,0,,,,0.0,38.994354,-76.939865,0.0,28.0,32,3,0.8
3325001,1746078102645,,,,,,,,,,,,,,,,,,,,,,,,,,,,,,,,,,0,0,0,0,0,0,0,0,0,0,0,0,0,0,0,0,,,,,,,,,,,,,
3325021,1746078102665,0.0,126,,-0.05,-0.08,0.78,-2,-1,-2,0.78,1.17,67,9138,8.5,2.53,,8.85,0.951,89.8,,48.8,5,,,,,,,,,,,,0,0,0,0,0,0,0,0,0,0,0,0,0,0,0,0,,,,,,0.0,,,,,,,
3325041,1746078102685,,,,,,,,,,,,,,,,,,,,,,,,,,,,,,,,,,0,0,0,0,0,0,0,0,0,0,0,0,0,0,0,0,,,,,,,,,,,,,
3325061,1746078102707,0.0,126,,-0.05,-0.05,0.91,-2,-1,-2,0.91,1.17,78,9359,5.4,2.13,,7.49,0.955,89.8,,50.3,5,,,,,,,,,,,,0,0,0,0,0,0,0,0,0,0,0,0,0,0,0,0,,,,,,0.0,,,,,,,
3325081,1746078102727,,,,,,,,,,,,,,,,,,,,,,,0,0,0,0,0.0,0.0,0.0,0.0,2.24,,,0,0,0,0,0,0,0,0,0,0,0,0,0,0,0,0,,0,,,,,38.994354,-76.939865,0.1,28.0,32,3,0.8
3325101,1746078102747,0.0,126,,-0.05,-0.07,0.89,-3,-1,-2,0.9,1.17,76,9355,4.8,1.8,,6.71,0.955,89.8,,50.3,5,,,,,,,,,,,,0,0,0,0,0,0,0,0,0,0,0,0,0,0,0,0,,,,,,0.0,,,,,,,
3325121,1746078102767,,,,,,,,,,,,,,,,,,,,,,,,,,,,,,,,,,0,0,0,0,0,0,0,0,0,0,0,0,0,0,0,0,,,,,,,,,,,,,
3325141,1746078102787,0.0,126,,-0.03,-0.26,0.84,-3,-1,-3,0.88,1.17,75,8994,12.2,2.02,,6.84,0.955,89.8,,50.3,5,,,,,,,,,,,,0,0,0,0,0,0,0,0,0,0,0,0,0,0,0,0,,,,,,0.0,,,,,,,
3325161,1746078102805,,,,,,,,,,,,,,,,,,,,,,,,,,,,,,,,,,0,0,0,0,0,0,0,0,0,0,0,0,0,0,0,0,,,,,,,,,,,,,
3325181,1746078102825,0.0,126,,-0.05,-0.21,0.8,-3,-0,-3,0.83,1.17,71,8642,18.0,2.58,,6.84,0.955,89.8,,51.1,5,0,0,0,0,0.0,0.0,0.0,0.0,2.25,,,0,0,0,0,0,0,0,0,0,0,0,0,0,0,0,0,,0,,,,0.0,38.994354,-76.939873,0.08,28.0,32,3,0.8
3325201,1746078102845,,,,,,,,,,,,,,,,,,,,,,,,,,,,,,,,,,0,0,0,0,0,0,0,0,0,0,0,0,0,0,0,0,,,,,,,,,,,,,
3325221,1746078102865,0.0,126,,-0.04,-0.13,0.92,-2,-1,-2,0.93,1.17,79,8642,18.0,2.58,,7.83,0.955,89.8,,51.1,5,,,,,,,,,,,,0,0,0,0,0,0,0,0,0,0,0,0,0,0,0,0,,,,,,0.0,,,,,,,
3325241,1746078102885,,,,,,,,,,,,,,,,,,,,,,,,,,,,,,,,,,0,0,0,0,0,0,0,0,0,0,0,0,0,0,0,0,,,,,,,,,,,,,
3325261,1746078102904,0.0,125,,-0.07,-0.21,0.97,-1,-0,-1,0.99,1.17,84,8726,18.7,2.83,,8.54,0.955,89.8,,51.1,5,,,,,,,,,,,,0,0,0,0,0,0,0,0,0,0,0,0,0,0,0,0,,,,,,0.0,,,,,,,
3325281,1746078102924,,,,,,,,,,,,,,,,,,,,,,,0,0,0,0,0.0,0.0,0.0,0.0,2.24,,,0,0,0,0,0,0,0,0,0,0,0,0,0,0,0,0,,0,,,,,38.994354,-76.939873,0.04,28.0,32,3,0.8
3325301,1746078102944,0.0,126,,-0.07,-0.14,0.99,-0,-1,-1,1.0,1.17,85,9090,10.7,2.38,,8.1,0.951,89.8,,50.1,5,,,,,,,,,,,,0,0,0,0,0,0,0,0,0,0,0,0,0,0,0,0,,,,,,0.0,,,,,,,
3325321,1746078102964,,,,,,,,,,,,,,,,,,,,,,,,,,,,,,,,,,0,0,0,0,0,0,0,0,0,0,0,0,0,0,0,0,,,,,,,,,,,,,
3325341,1746078102984,0.0,125,,-0.06,-0.25,1.11,-0,-1,-1,1.13,1.17,97,9249,6.5,2.06,,7.19,0.954,89.8,,50.1,5,,,,,,,,,,,,0,0,0,0,0,0,0,0,0,0,0,0,0,0,0,0,,,,,,0.0,,,,,,,
3325361,1746078102998,,,,,,,,,,,,,,,,,,,,,,,,,,,,,,,,,,0,0,0,0,0,0,0,0,0,0,0,0,0,0,0,0,,,,,,,,,,,,,
3325381,1746078103018,0.0,126,13.24,-0.06,-0.2,1.19,-0,-1,-2,1.21,1.21,100,9100,5.9,1.8,15,7.19,0.954,89.8,205,51.5,5,0,0,0,0,0.0,0.0,0.0,0.0,2.24,0,0.0,0,0,0,0,0,0,0,0,0,0,0,0,0,0,0,0,0,0,0.0,0,0,0.0,38.994354,-76.939873,0.04,28.0,32,3,0.8
3325401,1746078103038,,,,,,,,,,,,,,,,,,,,,,,,,,,,,,,,,,0,0,0,0,0,0,0,0,0,0,0,0,0,0,0,0,,,,,,,,,,,,,
3325421,1746078103058,0.0,126,,-0.05,-0.15,1.25,0,-1,-2,1.26,1.26,100,9100,5.9,1.8,,6.52,0.955,89.8,,51.5,5,,,,,,,,,,,,0,0,0,0,0,0,0,0,0,0,0,0,0,0,0,0,,,,,,0.0,,,,,,,
3325441,1746078103078,,,,,,,,,,,,,,,,,,,,,,,,,,,,,,,,,,0,0,0,0,0,0,0,0,0,0,0,0,0,0,0,0,,,,,,,,,,,,,
3325461,1746078103102,0.0,126,,-0.05,-0.12,1.2,-0,-1,-2,1.21,1.26,96,8678,16.0,2.05,,7.06,0.955,89.8,,51.5,5,,,,,,,,,,,,0,0,0,0,0,0,0,0,0,0,0,0,0,0,0,0,,,,,,0.0,,,,,,,
3325481,1746078103122,,,,,,,,,,,,,,,,,,,,,,,0,0,0,0,0.0,0.0,0.0,0.0,2.24,,,0,0,0,0,0,0,0,0,0,0,0,0,0,0,0,0,,0,,,,,38.994354,-76.939873,0.0,28.0,32,3,0.8
3325501,1746078103142,0.0,126,,-0.04,-0.03,1.14,-1,-1,-3,1.14,1.26,91,8258,22.9,2.91,,8.69,0.955,89.8,,50.1,5,,,,,,,,,,,,0,0,0,0,0,0,0,0,0,0,0,0,0,0,0,0,,,,,,0.0,,,,,,,
3325521,1746078103162,,,,,,,,,,,,,,,,,,,,,,,,,,,,,,,,,,0,0,0,0,0,0,0,0,0,0,0,0,0,0,0,0,,,,,,,,,,,,,
3325541,1746078103182,0.0,126,,-0.03,-0.17,1.18,-1,-1,-3,1.2,1.26,95,8553,23.8,3.19,,9.73,0.954,89.8,,50.1,5,,,,,,,,,,,,0,0,0,0,0,0,0,0,0,0,0,0,0,0,0,0,,,,,,0.0,,,,,,,
3325561,1746078103204,,,,,,,,,,,,,,,,,,,,,,,,,,,,,,,,,,0,0,0,0,0,0,0,0,0,0,0,0,0,0,0,0,,,,,,,,,,,,,
3325581,1746078103224,0.0,126,,-0.06,-0.15,1.12,-1,-1,-2,1.13,1.26,90,9096,16.6,3.16,,9.73,0.954,89.8,,46.3,5,0,0,0,0,0.0,0.0,0.0,0.0,2.24,,,0,0,0,0,0,0,0,0,0,0,0,0,0,0,0,0,,0,,,,0.0,38.994354,-76.939873,0.0,28.0,32,3,0.8
3325601,1746078103244,,,,,,,,,,,,,,,,,,,,,,,,,,,,,,,,,,0,0,0,0,0,0,0,0,0,0,0,0,0,0,0,0,,,,,,,,,,,,,
3325621,1746078103264,0.0,125,,-0.07,-0.08,1.17,-0,-1,-1,1.18,1.26,94,9096,16.6,3.16,,9.33,0.95,89.8,,46.3,5,,,,,,,,,,,,0,0,0,0,0,0,0,0,0,0,0,0,0,0,0,0,,,,,,0.0,,,,,,,
3325641,1746078103284,,,,,,,,,,,,,,,,,,,,,,,,,,,,,,,,,,0,0,0,0,0,0,0,0,0,0,0,0,0,0,0,0,,,,,,,,,,,,,
3325661,1746078103306,0.0,126,,-0.06,-0.12,1.19,1,-1,-1,1.19,1.26,95,9681,11.4,2.39,,8.25,0.953,89.8,,46.3,5,,,,,,,,,,,,0,0,0,0,0,0,0,0,0,0,0,0,0,0,0,0,,,,,,0.0,,,,,,,
3325681,1746078103326,,,,,,,,,,,,,,,,,,,,,,,0,0,0,0,0.0,0.0,0.0,0.0,2.24,,,0,0,0,0,0,0,0,0,0,0,0,0,0,0,0,0,,0,,,,,38.994354,-76.939873,0.05,28.0,32,3,0.8
3325701,1746078103346,0.0,126,,-0.05,-0.28,1.21,1,-1,-1,1.24,1.26,99,9738,7.3,2.03,,7.3,0.955,89.8,,50.6,5,,,,,,,,,,,,0,0,0,0,0,0,0,0,0,0,0,0,0,0,0,0,,,,,,0.0,,,,,,,
3325721,1746078103366,,,,,,,,,,,,,,,,,,,,,,,,,,,,,,,,,,0,0,0,0,0,0,0,0,0,0,0,0,0,0,0,0,,,,,,,,,,,,,
3325741,1746078103386,0.0,126,,-0.06,-0.25,1.11,-0,-1,-1,1.14,1.26,90,9566,3.4,1.41,,6.4,0.955,89.8,,50.6,5,,,,,,,,,,,,0,0,0,0,0,0,0,0,0,0,0,0,0,0,0,0,,,,,,0.0,,,,,,,
3325761,1746078103406,,,,,,,,,,,,,,,,,,,,,,,,,,,,,,,,,,0,0,0,0,0,0,0,0,0,0,0,0,0,0,0,0,,,,,,,,,,,,,
3325781,1746078103426,0.0,126,,-0.06,-0.04,1.07,-1,-1,-1,1.07,1.26,85,9036,2.6,1.4,,6.4,0.955,89.8,,51.2,5,0,0,0,0,0.0,0.0,0.0,0.0,2.25,,,0,0,0,0,0,0,0,0,0,0,0,0,0,0,0,0,,0,,,,0.0,38.994354,-76.939873,0.1,28.0,32,3,0.8
3325801,1746078103446,,,,,,,,,,,,,,,,,,,,,,,,,,,,,,,,,,0,0,0,0,0,0,0,0,0,0,0,0,0,0,0,0,,,,,,,,,,,,,
3325821,1746078103466,0.0,126,,-0.07,-0.11,1.09,-1,-1,-2,1.09,1.26,87,9036,2.6,1.4,,5.83,0.956,89.8,,51.2,5,,,,,,,,,,,,0,0,0,0,0,0,0,0,0,0,0,0,0,0,0,0,,,,,,0.0,,,,,,,
3325841,1746078103486,,,,,,,,,,,,,,,,,,,,,,,,,,,,,,,,,,0,0,0,0,0,0,0,0,0,0,0,0,0,0,0,0,,,,,,,,,,,,,
3325861,1746078103506,0.0,126,,-0.06,-0.24,1.0,-1,-1,-2,1.03,1.26,82,8294,2.2,1.4,,5.66,0.955,89.8,,50.0,5,,,,,,,,,,,,0,0,0,0,0,0,0,0,0,0,0,0,0,0,0,0,,,,,,0.0,,,,,,,
3325881,1746078103526,,,,,,,,,,,,,,,,,,,,,,,0,0,0,0,0.0,0.0,0.0,0.0,2.25,,,0,0,0,0,0,0,0,0,0,0,0,0,0,0,0,0,,0,,,,,38.994354,-76.939873,0.04,28.0,32,3,0.8
3325901,1746078103546,0.0,126,,-0.03,-0.32,0.99,-2,-1,-2,1.04,1.26,83,7739,2.0,1.4,,5.7,0.956,89.8,,50.0,5,,,,,,,,,,,,0,0,0,0,0,0,0,0,0,0,0,0,0,0,0,0,,,,,,0.0,,,,,,,
3325921,1746078103566,,,,,,,,,,,,,,,,,,,,,,,,,,,,,,,,,,0,0,0,0,0,0,0,0,0,0,0,0,0,0,0,0,,,,,,,,,,,,,
3325941,1746078103586,0.0,126,,-0.05,-0.29,0.98,-1,-1,-2,1.03,1.26,82,7177,8.2,1.78,,6.34,0.954,89.8,,50.0,5,,,,,,,,,,,,0,0,0,0,0,0,0,0,0,0,0,0,0,0,0,0,,,,,,0.0,,,,,,,
3325961,1746078103606,,,,,,,,,,,,,,,,,,,,,,,,,,,,,,,,,,0,0,0,0,0,0,0,0,0,0,0,0,0,0,0,0,,,,,,,,,,,,,
3325981,1746078103626,0.0,126,,-0.05,-0.25,1.03,-0,-1,-1,1.06,1.26,84,6660,10.9,2.18,,6.34,0.954,89.8,,41.9,5,0,0,0,0,0.0,0.0,0.0,0.0,2.25,,,0,0,0,0,0,0,0,0,0,0,0,0,0,0,0,0,,0,,,,0.0,38.994354,-76.939873,0.0,28.0,32,3,0.8
3326001,1746078103646,,,,,,,,,,,,,,,,,,,,,,,,,,,,,,,,,,0,0,0,0,0,0,0,0,0,0,0,0,0,0,0,0,,,,,,,,,,,,,
3326021,1746078103666,0.0,126,,-0.06,-0.17,1.02,-0,-1,-1,1.03,1.26,82,6660,10.9,2.18,,7.54,0.951,89.8,,41.9,5,,,,,,,,,,,,0,0,0,0,0,0,0,0,0,0,0,0,0,0,0,0,,,,,,0.0,,,,,,,
3326041,1746078103686,,,,,,,,,,,,,,,,,,,,,,,,,,,,,,,,,,0,0,0,0,0,0,0,0,0,0,0,0,0,0,0,0,,,,,,,,,,,,,
3326061,1746078103708,0.0,126,,-0.07,-0.2,1.0,-0,-1,-1,1.02,1.26,81,6412,11.1,2.36,,8.49,0.955,89.8,,34.2,5,,,,,,,,,,,,0,0,0,0,0,0,0,0,0,0,0,0,0,0,0,0,,,,,,0.0,,,,,,,
3326081,1746078103728,,,,,,,,,,,,,,,,,,,,,,,0,0,0,0,0.0,0.0,0.0,0.0,2.24,,,0,0,0,0,0,0,0,0,0,0,0,0,0,0,0,0,,0,,,,,38.994354,-76.939873,0.08,28.0,32,3,0.8
3326101,1746078103748,0.0,126,,-0.08,-0.19,0.89,0,-1,0,0.91,1.26,73,6120,11.1,2.5,,9.09,0.956,89.8,,34.2,5,,,,,,,,,,,,0,0,0,0,0,0,0,0,0,0,0,0,0,0,0,0,,,,,,0.0,,,,,,,
3326121,1746078103768,,,,,,,,,,,,,,,,,,,,,,,,,,,,,,,,,,0,0,0,0,0,0,0,0,0,0,0,0,0,0,0,0,,,,,,,,,,,,,
3326141,1746078103788,0.0,126,,-0.08,-0.14,0.81,1,-0,1,0.82,1.26,65,5861,10.6,2.57,,9.66,0.955,89.8,,34.2,5,,,,,,,,,,,,0,0,0,0,0,0,0,0,0,0,0,0,0,0,0,0,,,,,,0.0,,,,,,,
3326161,1746078103806,,,,,,,,,,,,,,,,,,,,,,,,,,,,,,,,,,0,0,0,0,0,0,0,0,0,0,0,0,0,0,0,0,,,,,,,,,,,,,
3326181,1746078103826,0.0,126,,-0.09,-0.05,0.89,0,-1,0,0.89,1.26,71,5682,9.9,2.66,,9.66,0.955,89.8,,34.9,5,0,0,0,0,0.0,0.0,0.0,0.0,2.24,,,0,0,0,0,0,0,0,0,0,0,0,0,0,0,0,0,,0,,,,0.0,38.994354,-76.939873,0.08,28.0,32,3,0.8
3326201,1746078103846,,,,,,,,,,,,,,,,,,,,,,,,,,,,,,,,,,0,0,0,0,0,0,0,0,0,0,0,0,0,0,0,0,,,,,,,,,,,,,
3326221,1746078103866,0.0,126,,-0.09,-0.04,0.88,-0,-1,-0,0.88,1.26,70,5682,9.9,2.66,,10.14,0.955,89.8,,34.9,5,,,,,,,,,,,,0,0,0,0,0,0,0,0,0,0,0,0,0,0,0,0,,,,,,0.0,,,,,,,
3326241,1746078103886,,,,,,,,,,,,,,,,,,,,,,,,,,,,,,,,,,0,0,0,0,0,0,0,0,0,0,0,0,0,0,0,0,,,,,,,,,,,,,
3326261,1746078103907,0.0,126,,-0.09,-0.02,0.89,-0,-1,-0,0.89,1.26,71,5406,14.1,3.11,,11.02,0.955,89.8,,29.0,5,,,,,,,,,,,,0,0,0,0,0,0,0,0,0,0,0,0,0,0,0,0,,,,,,0.0,,,,,,,
3326281,1746078103927,,,,,,,,,,,,,,,,,,,,,,,0,0,0,0,0.0,0.0,0.0,0.0,2.24,,,0,0,0,0,0,0,0,0,0,0,0,0,0,0,0,0,,0,,,,,38.994354,-76.939873,0.08,28.0,32,3,0.8
3326301,1746078103947,0.0,126,,-0.09,0.0,0.89,1,-1,1,0.89,1.26,71,5176,14.5,3.63,,11.75,0.951,89.8,,29.0,5,,,,,,,,,,,,0,0,0,0,0,0,0,0,0,0,0,0,0,0,0,0,,,,,,0.0,,,,,,,
3326321,1746078103967,,,,,,,,,,,,,,,,,,,,,,,,,,,,,,,,,,0,0,0,0,0,0,0,0,0,0,0,0,0,0,0,0,,,,,,,,,,,,,
3326341,1746078103987,0.0,126,,-0.08,-0.17,0.93,0,-1,-0,0.95,1.26,75,5075,14.6,3.59,,12.2,0.954,89.8,,29.0,5,,,,,,,,,,,,0,0,0,0,0,0,0,0,0,0,0,0,0,0,0,0,,,,,,0.0,,,,,,,
3326361,1746078103997,,,,,,,,,,,,,,,,,,,,,,,,,,,,,,,,,,0,0,0,0,0,0,0,0,0,0,0,0,0,0,0,0,,,,,,,,,,,,,
3326381,1746078104017,0.0,126,13.34,-0.06,-0.14,0.93,0,-1,0,0.95,1.26,75,4953,8.0,3.02,15,12.2,0.954,89.8,201,23.8,5,0,0,0,0,0.0,0.0,0.0,0.0,2.25,0,0.0,0,0,0,0,0,0,0,0,0,0,0,0,0,0,0,0,0,0,0.0,0,0,0.0,38.994354,-76.939873,0.04,28.0,32,3,0.8
3326401,1746078104037,,,,,,,,,,,,,,,,,,,,,,,,,,,,,,,,,,0,0,0,0,0,0,0,0,0,0,0,0,0,0,0,0,,,,,,,,,,,,,
3326421,1746078104057,0.0,127,,-0.08,-0.08,0.94,1,-1,1,0.95,1.26,75,4953,8.0,3.02,,12.04,0.955,89.8,,23.8,5,,,,,,,,,,,,0,0,0,0,0,0,0,0,0,0,0,0,0,0,0,0,,,,,,0.0,,,,,,,
3326441,1746078104077,,,,,,,,,,,,,,,,,,,,,,,,,,,,,,,,,,0,0,0,0,0,0,0,0,0,0,0,0,0,0,0,0,,,,,,,,,,,,,
3326461,1746078104103,0.0,127,,-0.08,-0.05,0.89,2,-1,2,0.89,1.26,71,4818,3.3,3.25,,11.58,0.955,89.8,,22.2,5,,,,,,,,,,,,0,0,0,0,0,0,0,0,0,0,0,0,0,0,0,0,,,,,,0.0,,,,,,,
3326481,1746078104123,,,,,,,,,,,,,,,,,,,,,,,0,0,0,0,0.0,0.0,0.0,0.0,2.24,,,0,0,0,0,0,0,0,0,0,0,0,0,0,0,0,0,,0,,,,,38.994354,-76.939873,0.06,28.0,32,3,0.8
3326501,1746078104143,0.0,127,,-0.06,-0.05,0.95,3,-1,3,0.95,1.26,76,4665,2.1,3.1,,11.33,0.956,89.8,,22.2,5,,,,,,,,,,,,0,0,0,0,0,0,0,0,0,0,0,0,0,0,0,0,,,,,,0.0,,,,,,,
3326521,1746078104163,,,,,,,,,,,,,,,,,,,,,,,,,,,,,,,,,,0,0,0,0,0,0,0,0,0,0,0,0,0,0,0,0,,,,,,,,,,,,,
3326541,1746078104183,0.0,127,,-0.06,-0.04,1.03,3,-0,4,1.04,1.26,82,4480,2.1,3.14,,11.14,0.955,89.8,,22.2,5,,,,,,,,,,,,0,0,0,0,0,0,0,0,0,0,0,0,0,0,0,0,,,,,,0.0,,,,,,,
3326561,1746078104205,,,,,,,,,,,,,,,,,,,,,,,,,,,,,,,,,,0,0,0,0,0,0,0,0,0,0,0,0,0,0,0,0,,,,,,,,,,,,,
3326581,1746078104225,0.0,127,,-0.06,0.01,0.97,4,0,4,0.97,1.26,77,4278,9.3,3.59,,11.14,0.955,89.8,,20.5,5,0,0,0,0,0.0,0.0,0.0,0.0,2.24,,,0,0,0,0,0,0,0,0,0,0,0,0,0,0,0,0,,0,,,,0.0,38.994354,-76.939873,0.05,28.0,32,3,0.8
3326601,1746078104245,,,,,,,,,,,,,,,,,,,,,,,,,,,,,,,,,,0,0,0,0,0,0,0,0,0,0,0,0,0,0,0,0,,,,,,,,,,,,,
3326621,1746078104265,0.0,126,,-0.08,-0.01,0.92,3,-0,3,0.92,1.26,73,4278,9.3,3.59,,11.57,0.956,89.8,,20.5,5,,,,,,,,,,,,0,0,0,0,0,0,0,0,0,0,0,0,0,0,0,0,,,,,,0.0,,,,,,,
3326641,1746078104285,,,,,,,,,,,,,,,,,,,,,,,,,,,,,,,,,,0,0,0,0,0,0,0,0,0,0,0,0,0,0,0,0,,,,,,,,,,,,,
3326661,1746078104305,0.0,127,,-0.06,-0.21,0.95,1,-0,1,0.97,1.26,77,4171,13.5,4.27,,12.27,0.955,89.8,,19.5,5,,,,,,,,,,,,0,0,0,0,0,0,0,0,0,0,0,0,0,0,0,0,,,,,,0.0,,,,,,,
3326681,1746078104325,,,,,,,,,,,,,,,,,,,,,,,0,0,0,0,0.0,0.0,0.0,0.0,2.25,,,0,0,0,0,0,0,0,0,0,0,0,0,0,0,0,0,,0,,,,,38.994354,-76.939873,0.04,28.0,32,3,0.8
3326701,1746078104345,0.0,127,,-0.05,-0.34,0.96,-0,-0,-0,1.02,1.26,81,4077,15.9,4.39,,12.79,0.951,89.8,,19.5,5,,,,,,,,,,,,0,0,0,0,0,0,0,0,0,0,0,0,0,0,0,0,,,,,,0.0,,,,,,,
3326721,1746078104365,,,,,,,,,,,,,,,,,,,,,,,,,,,,,,,,,,0,0,0,0,0,0,0,0,0,0,0,0,0,0,0,0,,,,,,,,,,,,,
3326741,1746078104385,0.0,127,,-0.06,-0.29,0.84,1,-0,1,0.89,1.26,71,4040,16.8,4.46,,13.19,0.955,89.8,,19.5,5,,,,,,,,,,,,0,0,0,0,0,0,0,0,0,0,0,0,0,0,0,0,,,,,,0.0,,,,,,,
3326761,1746078104407,,,,,,,,,,,,,,,,,,,,,,,,,,,,,,,,,,0,0,0,0,0,0,0,0,0,0,0,0,0,0,0,0,,,,,,,,,,,,,
3326781,1746078104427,0.0,127,,-0.06,-0.24,1.0,2,-1,0,1.03,1.26,82,4082,16.9,4.37,,13.19,0.955,89.8,,19.0,5,0,0,0,0,0.0,0.0,0.0,0.0,2.24,,,0,0,0,0,0,0,0,0,0,0,0,0,0,0,0,0,,0,,,,0.0,38.994354,-76.939873,0.0,28.0,32,3,0.8
3326801,1746078104447,,,,,,,,,,,,,,,,,,,,,,,,,,,,,,,,,,0,0,0,0,0,0,0,0,0,0,0,0,0,0,0,0,,,,,,,,,,,,,
3326821,1746078104467,0.0,127,,-0.07,-0.33,0.9,1,-0,1,0.96,1.26,76,4082,16.9,4.37,,13.25,0.956,89.8,,19.0,5,,,,,,,,,,,,0,0,0,0,0,0,0,0,0,0,0,0,0,0,0,0,,,,,,0.0,,,,,,,
3326841,1746078104487,,,,,,,,,,,,,,,,,,,,,,,,,,,,,,,,,,0,0,0,0,0,0,0,0,0,0,0,0,0,0,0,0,,,,,,,,,,,,,
3326861,1746078104507,0.0,127,,-0.06,-0.11,0.99,-1,-1,-1,1.0,1.26,79,4178,11.9,4.35,,13.11,0.955,89.8,,19.1,5,,,,,,,,,,,,0,0,0,0,0,0,0,0,0,0,0,0,0,0,0,0,,,,,,0.0,,,,,,,
3326881,1746078104527,,,,,,,,,,,,,,,,,,,,,,,0,0,0,0,0.0,0.0,0.0,0.0,2.25,,,0,0,0,0,0,0,0,0,0,0,0,0,0,0,0,0,,0,,,,,38.994354,-76.939873,0.0,28.0,32,3,0.8
3326901,1746078104547,0.0,127,,-0.04,-0.15,0.92,-2,-0,-2,0.93,1.26,74,4126,10.2,4.1,,12.92,0.956,89.8,,19.1,5,,,,,,,,,,,,0,0,0,0,0,0,0,0,0,0,0,0,0,0,0,0,,,,,,0.0,,,,,,,
3326921,1746078104567,,,,,,,,,,,,,,,,,,,,,,,,,,,,,,,,,,0,0,0,0,0,0,0,0,0,0,0,0,0,0,0,0,,,,,,,,,,,,,
3326941,1746078104587,0.0,127,,-0.05,-0.17,0.97,-3,-0,-3,0.99,1.26,79,4059,10.3,4.09,,12.81,0.953,89.8,,19.1,5,,,,,,,,,,,,0,0,0,0,0,0,0,0,0,0,0,0,0,0,0,0,,,,,,0.0,,,,,,,
3326961,1746078104607,,,,,,,,,,,,,,,,,,,,,,,,,,,,,,,,,,0,0,0,0,0,0,0,0,0,0,0,0,0,0,0,0,,,,,,,,,,,,,
3326981,1746078104627,0.0,127,,-0.05,-0.14,0.86,-3,-0,-3,0.87,1.26,69,4056,21.4,4.79,,12.81,0.953,89.8,,19.2,5,0,0,0,0,0.0,0.0,0.0,0.0,2.24,,,0,0,0,0,0,0,0,0,0,0,0,0,0,0,0,0,,0,,,,0.0,38.994354,-76.939873,0.08,28.0,32,3,0.8
3327001,1746078104647,,,,,,,,,,,,,,,,,,,,,,,,,,,,,,,,,,0,0,0,0,0,0,0,0,0,0,0,0,0,0,0,0,,,,,,,,,,,,,
3327021,1746078104667,0.0,127,,-0.05,-0.07,0.97,-2,-0,-2,0.98,1.26,78,4056,21.4,4.79,,13.29,0.953,89.8,,19.2,5,,,,,,,,,,,,0,0,0,0,0,0,0,0,0,0,0,0,0,0,0,0,,,,,,0.0,,,,,,,
3327041,1746078104687,,,,,,,,,,,,,,,,,,,,,,,,,,,,,,,,,,0,0,0,0,0,0,0,0,0,0,0,0,0,0,0,0,,,,,,,,,,,,,
3327061,1746078104707,0.0,127,,-0.07,-0.09,0.86,-1,-0,-0,0.87,1.26,69,4165,26.3,4.94,,13.77,0.954,89.8,,19.0,5,,,,,,,,,,,,0,0,0,0,0,0,0,0,0,0,0,0,0,0,0,0,,,,,,0.0,,,,,,,
3327081,1746078104727,,,,,,,,,,,,,,,,,,,,,,,0,0,0,0,0.0,0.0,0.0,0.0,2.24,,,0,0,0,0,0,0,0,0,0,0,0,0,0,0,0,0,,0,,,,,38.994354,-76.939873,0.04,28.0,32,3,0.8
3327101,1746078104747,0.0,127,,-0.08,-0.08,0.84,0,-1,0,0.85,1.26,67,4302,26.4,4.75,,13.77,0.955,89.8,,19.0,5,,,,,,,,,,,,0,0,0,0,0,0,0,0,0,0,0,0,0,0,0,0,,,,,,0.0,,,,,,,
3327121,1746078104767,,,,,,,,,,,,,,,,,,,,,,,,,,,,,,,,,,0,0,0,0,0,0,0,0,0,0,0,0,0,0,0,0,,,,,,,,,,,,,
3327141,1746078104787,0.0,127,,-0.09,-0.08,0.84,-1,-1,1,0.85,1.26,67,4501,19.9,4.48,,13.6,0.955,89.8,,19.0,5,,,,,,,,,,,,0,0,0,0,0,0,0,0,0,0,0,0,0,0,0,0,,,,,,0.0,,,,,,,
3327161,1746078104807,,,,,,,,,,,,,,,,,,,,,,,,,,,,,,,,,,0,0,0,0,0,0,0,0,0,0,0,0,0,0,0,0,,,,,,,,,,,,,
3327181,1746078104827,0.0,127,,-0.1,-0.08,0.77,0,-1,2,0.78,1.26,62,4607,8.3,3.68,,13.6,0.955,89.8,,21.0,5,0,0,0,0,0.0,0.0,0.0,0.0,2.24,,,0,0,0,0,0,0,0,0,0,0,0,0,0,0,0,0,,0,,,,0.0,38.994354,-76.939873,0.0,28.0,32,3,0.8
3327201,1746078104847,,,,,,,,,,,,,,,,,,,,,,,,,,,,,,,,,,0,0,0,0,0,0,0,0,0,0,0,0,0,0,0,0,,,,,,,,,,,,,
3327221,1746078104867,0.0,127,,-0.08,-0.21,0.69,-1,-1,2,0.73,1.26,58,4607,8.3,3.68,,13.0,0.955,89.8,,21.0,5,,,,,,,,,,,,0,0,0,0,0,0,0,0,0,0,0,0,0,0,0,0,,,,,,0.0,,,,,,,
3327241,1746078104887,,,,,,,,,,,,,,,,,,,,,,,,,,,,,,,,,,0,0,0,0,0,0,0,0,0,0,0,0,0,0,0,0,,,,,,,,,,,,,
3327261,1746078104906,0.0,127,,-0.09,-0.1,0.66,-1,-1,2,0.67,1.26,53,4544,3.2,3.46,,12.32,0.955,89.8,,20.9,5,,,,,,,,,,,,0,0,0,0,0,0,0,0,0,0,0,0,0,0,0,0,,,,,,0.0,,,,,,,
3327281,1746078104926,,,,,,,,,,,,,,,,,,,,,,,0,0,0,0,0.0,0.0,0.0,0.0,2.25,,,0,0,0,0,0,0,0,0,0,0,0,0,0,0,0,0,,0,,,,,38.994354,-76.939873,0.0,28.0,32,3,0.8
3327301,1746078104946,0.0,127,,-0.07,-0.15,0.61,-1,-1,3,0.63,1.26,50,4478,2.7,3.37,,12.01,0.956,89.8,,20.9,5,,,,,,,,,,,,0,0,0,0,0,0,0,0,0,0,0,0,0,0,0,0,,,,,,0.0,,,,,,,
3327321,1746078104966,,,,,,,,,,,,,,,,,,,,,,,,,,,,,,,,,,0,0,0,0,0,0,0,0,0,0,0,0,0,0,0,0,,,,,,,,,,,,,
3327341,1746078104986,0.0,127,,-0.07,-0.14,0.57,-1,-1,3,0.59,1.26,47,4354,8.8,3.81,,12.01,0.953,89.8,,20.9,5,,,,,,,,,,,,0,0,0,0,0,0,0,0,0,0,0,0,0,0,0,0,,,,,,0.0,,,,,,,
3327361,1746078104998,,,,,,,,,,,,,,,,,,,,,,,,,,,,,,,,,,0,0,0,0,0,0,0,0,0,0,0,0,0,0,0,0,,,,,,,,,,,,,
3327381,1746078105018,0.0,127,13.39,-0.08,-0.21,0.68,-1,-1,2,0.72,1.26,57,4258,17.7,4.43,15,12.01,0.953,89.8,201,19.7,5,0,0,0,0,0.0,0.0,0.0,0.0,2.25,0,0.0,0,0,0,0,0,0,0,0,0,0,0,0,0,0,0,0,0,0,0.0,0,0,0.0,38.994354,-76.939873,0.04,28.0,32,3,0.8
3327401,1746078105038,,,,,,,,,,,,,,,,,,,,,,,,,,,,,,,,,,0,0,0,0,0,0,0,0,0,0,0,0,0,0,0,0,,,,,,,,,,,,,
3327421,1746078105058,0.0,128,,-0.08,-0.21,0.74,-0,-1,2,0.77,1.26,61,4258,17.7,4.43,,12.68,0.954,89.8,,19.7,5,,,,,,,,,,,,0,0,0,0,0,0,0,0,0,0,0,0,0,0,0,0,,,,,,0.0,,,,,,,
3327441,1746078105078,,,,,,,,,,,,,,,,,,,,,,,,,,,,,,,,,,0,0,0,0,0,0,0,0,0,0,0,0,0,0,0,0,,,,,,,,,,,,,
3327461,1746078105106,0.0,128,,-0.09,-0.19,0.7,-0,-1,1,0.73,1.26,58,4215,21.6,4.72,,13.36,0.955,89.8,,19.3,5,,,,,,,,,,,,0,0,0,0,0,0,0,0,0,0,0,0,0,0,0,0,,,,,,0.0,,,,,,,
3327481,1746078105126,,,,,,,,,,,,,,,,,,,,,,,0,0,0,0,0.0,0.0,0.0,0.0,2.24,,,0,0,0,0,0,0,0,0,0,0,0,0,0,0,0,0,,0,,,,,38.994354,-76.939873,0.05,28.0,32,3,0.8
3327501,1746078105146,0.0,127,,-0.09,-0.18,0.83,-0,-1,0,0.85,1.26,67,4262,21.9,4.69,,13.49,0.955,89.8,,19.3,5,,,,,,,,,,,,0,0,0,0,0,0,0,0,0,0,0,0,0,0,0,0,,,,,,0.0,,,,,,,
3327521,1746078105166,,,,,,,,,,,,,,,,,,,,,,,,,,,,,,,,,,0,0,0,0,0,0,0,0,0,0,0,0,0,0,0,0,,,,,,,,,,,,,
3327541,1746078105186,0.0,127,,-0.08,-0.17,0.98,1,-1,0,1.0,1.26,80,4387,16.2,4.3,,13.41,0.955,89.8,,19.3,5,,,,,,,,,,,,0,0,0,0,0,0,0,0,0,0,0,0,0,0,0,0,,,,,,0.0,,,,,,,
3327561,1746078105202,,,,,,,,,,,,,,,,,,,,,,,,,,,,,,,,,,0,0,0,0,0,0,0,0,0,0,0,0,0,0,0,0,,,,,,,,,,,,,
3327581,1746078105222,0.0,128,,-0.03,-0.11,1.03,0,-1,-0,1.03,1.26,82,4428,13.4,4.15,,13.41,0.955,89.8,,20.1,5,0,0,0,0,0.0,0.0,0.0,0.0,2.25,,,0,0,0,0,0,0,0,0,0,0,0,0,0,0,0,0,,0,,,,0.0,38.994354,-76.939873,0.04,28.0,32,3,0.8
3327601,1746078105242,,,,,,,,,,,,,,,,,,,,,,,,,,,,,,,,,,0,0,0,0,0,0,0,0,0,0,0,0,0,0,0,0,,,,,,,,,,,,,
3327621,1746078105262,0.0,128,,-0.03,-0.21,0.95,0,-0,0,0.97,1.26,77,4428,13.4,4.15,,13.15,0.954,89.8,,20.1,5,,,,,,,,,,,,0,0,0,0,0,0,0,0,0,0,0,0,0,0,0,0,,,,,,0.0,,,,,,,
3327641,1746078105282,,,,,,,,,,,,,,,,,,,,,,,,,,,,,,,,,,0,0,0,0,0,0,0,0,0,0,0,0,0,0,0,0,,,,,,,,,,,,,
3327661,1746078105306,0.0,128,,-0.03,-0.18,0.84,2,-0,2,0.86,1.26,68,4433,13.3,4.12,,12.93,0.95,89.8,,19.7,5,,,,,,,,,,,,0,0,0,0,0,0,0,0,0,0,0,0,0,0,0,0,,,,,,0.0,,,,,,,
3327681,1746078105326,,,,,,,,,,,,,,,,,,,,,,,0,0,0,0,0.0,0.0,0.0,0.0,2.24,,,0,0,0,0,0,0,0,0,0,0,0,0,0,0,0,0,,0,,,,,38.994354,-76.939873,0.11,28.0,32,3,0.8
3327701,1746078105346,0.0,128,,-0.04,-0.12,0.71,2,-1,2,0.73,1.26,58,4347,25.4,4.73,,13.53,0.954,89.8,,19.7,5,,,,,,,,,,,,0,0,0,0,0,0,0,0,0,0,0,0,0,0,0,0,,,,,,0.0,,,,,,,
3327721,1746078105366,,,,,,,,,,,,,,,,,,,,,,,,,,,,,,,,,,0,0,0,0,0,0,0,0,0,0,0,0,0,0,0,0,,,,,,,,,,,,,
3327741,1746078105386,0.0,128,,-0.05,-0.17,0.67,1,-1,1,0.69,1.26,55,4458,27.6,4.97,,13.79,0.955,89.8,,19.7,5,,,,,,,,,,,,0,0,0,0,0,0,0,0,0,0,0,0,0,0,0,0,,,,,,0.0,,,,,,,
3327761,1746078105406,,,,,,,,,,,,,,,,,,,,,,,,,,,,,,,,,,0,0,0,0,0,0,0,0,0,0,0,0,0,0,0,0,,,,,,,,,,,,,
3327781,1746078105426,0.0,127,,-0.04,-0.19,0.61,0,-1,1,0.64,1.26,51,4685,27.7,4.82,,13.79,0.955,89.8,,20.6,5,0,0,0,0,0.0,0.0,0.0,0.0,2.24,,,0,0,0,0,0,0,0,0,0,0,0,0,0,0,0,0,,0,,,,0.0,38.994354,-76.939873,0.0,28.0,32,3,0.8
3327801,1746078105446,,,,,,,,,,,,,,,,,,,,,,,,,,,,,,,,,,0,0,0,0,0,0,0,0,0,0,0,0,0,0,0,0,,,,,,,,,,,,,
3327821,1746078105466,0.0,128,,-0.03,-0.19,0.69,-2,-1,-0,0.72,1.26,57,4685,27.7,4.82,,13.86,0.956,89.8,,20.6,5,,,,,,,,,,,,0,0,0,0,0,0,0,0,0,0,0,0,0,0,0,0,,,,,,0.0,,,,,,,
3327841,1746078105486,,,,,,,,,,,,,,,,,,,,,,,,,,,,,,,,,,0,0,0,0,0,0,0,0,0,0,0,0,0,0,0,0,,,,,,,,,,,,,
3327861,1746078105506,0.0,128,,-0.03,-0.18,0.71,-2,-1,-0,0.73,1.26,58,4890,20.8,4.08,,13.56,0.955,89.8,,20.6,5,,,,,,,,,,,,0,0,0,0,0,0,0,0,0,0,0,0,0,0,0,0,,,,,,0.0,,,,,,,
3327881,1746078105526,,,,,,,,,,,,,,,,,,,,,,,0,0,0,0,0.0,0.0,0.0,0.0,2.24,,,0,0,0,0,0,0,0,0,0,0,0,0,0,0,0,0,,0,,,,,38.994354,-76.939873,0.04,28.0,32,3,0.8
3327901,1746078105546,0.0,128,,-0.04,-0.13,0.73,-2,-1,-1,0.74,1.26,59,5064,11.8,3.73,,12.89,0.955,89.8,,23.0,5,,,,,,,,,,,,0,0,0,0,0,0,0,0,0,0,0,0,0,0,0,0,,,,,,0.0,,,,,,,
3327921,1746078105566,,,,,,,,,,,,,,,,,,,,,,,,,,,,,,,,,,0,0,0,0,0,0,0,0,0,0,0,0,0,0,0,0,,,,,,,,,,,,,
3327941,1746078105586,0.0,128,,-0.05,-0.12,0.81,-2,-1,-2,0.82,1.26,65,5056,7.6,3.1,,12.37,0.955,89.8,,23.0,5,,,,,,,,,,,,0,0,0,0,0,0,0,0,0,0,0,0,0,0,0,0,,,,,,0.0,,,,,,,
3327961,1746078105606,,,,,,,,,,,,,,,,,,,,,,,,,,,,,,,,,,0,0,0,0,0,0,0,0,0,0,0,0,0,0,0,0,,,,,,,,,,,,,
3327981,1746078105626,0.0,127,,-0.05,-0.22,0.85,-3,-1,-1,0.88,1.26,70,4935,7.2,3.04,,12.37,0.955,89.8,,23.0,5,0,0,0,0,0.0,0.0,0.0,0.0,2.24,,,0,0,0,0,0,0,0,0,0,0,0,0,0,0,0,0,,0,,,,0.0,38.994354,-76.939873,0.07,28.0,32,3,0.8
3328001,1746078105646,,,,,,,,,,,,,,,,,,,,,,,,,,,,,,,,,,0,0,0,0,0,0,0,0,0,0,0,0,0,0,0,0,,,,,,,,,,,,,
3328021,1746078105666,0.0,128,,-0.06,-0.22,0.83,-2,-1,-1,0.86,1.26,68,4935,7.2,3.04,,12.09,0.954,89.8,,23.0,5,,,,,,,,,,,,0,0,0,0,0,0,0,0,0,0,0,0,0,0,0,0,,,,,,0.0,,,,,,,
3328041,1746078105686,,,,,,,,,,,,,,,,,,,,,,,,,,,,,,,,,,0,0,0,0,0,0,0,0,0,0,0,0,0,0,0,0,,,,,,,,,,,,,
3328061,1746078105706,0.0,128,,-0.06,-0.14,0.84,-1,-1,-0,0.85,1.26,68,4806,7.2,3.16,,11.93,0.953,89.8,,21.7,5,,,,,,,,,,,,0,0,0,0,0,0,0,0,0,0,0,0,0,0,0,0,,,,,,0.0,,,,,,,
3328081,1746078105726,,,,,,,,,,,,,,,,,,,,,,,0,0,0,0,0.0,0.0,0.0,0.0,2.24,,,0,0,0,0,0,0,0,0,0,0,0,0,0,0,0,0,,0,,,,,38.994354,-76.939873,0.04,28.0,32,3,0.8
3328101,1746078105746,0.0,128,,-0.05,-0.11,0.96,0,-1,-0,0.97,1.26,77,4665,13.2,3.94,,12.33,0.955,89.8,,21.7,5,,,,,,,,,,,,0,0,0,0,0,0,0,0,0,0,0,0,0,0,0,0,,,,,,0.0,,,,,,,
3328121,1746078105766,,,,,,,,,,,,,,,,,,,,,,,,,,,,,,,,,,0,0,0,0,0,0,0,0,0,0,0,0,0,0,0,0,,,,,,,,,,,,,
3328141,1746078105786,0.0,128,,-0.06,-0.06,1.09,-1,-1,-1,1.1,1.26,87,4569,18.8,3.99,,13.0,0.956,89.8,,21.7,5,,,,,,,,,,,,0,0,0,0,0,0,0,0,0,0,0,0,0,0,0,0,,,,,,0.0,,,,,,,
3328161,1746078105806,,,,,,,,,,,,,,,,,,,,,,,,,,,,,,,,,,0,0,0,0,0,0,0,0,0,0,0,0,0,0,0,0,,,,,,,,,,,,,
3328181,1746078105826,0.0,127,,-0.07,-0.01,1.12,-2,-1,-3,1.13,1.26,89,4573,20.1,4.11,,13.0,0.956,89.8,,20.5,5,0,0,0,0,0.0,0.0,0.0,0.0,2.24,,,0,0,0,0,0,0,0,0,0,0,0,0,0,0,0,0,,0,,,,0.0,38.994354,-76.939873,0.05,28.0,32,3,0.8
3328201,1746078105846,,,,,,,,,,,,,,,,,,,,,,,,,,,,,,,,,,0,0,0,0,0,0,0,0,0,0,0,0,0,0,0,0,,,,,,,,,,,,,
3328221,1746078105866,0.0,128,,-0.08,0.06,1.08,-2,-1,-4,1.08,1.26,86,4573,20.1,4.11,,13.29,0.955,89.8,,20.5,5,,,,,,,,,,,,0,0,0,0,0,0,0,0,0,0,0,0,0,0,0,0,,,,,,0.0,,,,,,,
3328241,1746078105886,,,,,,,,,,,,,,,,,,,,,,,,,,,,,,,,,,0,0,0,0,0,0,0,0,0,0,0,0,0,0,0,0,,,,,,,,,,,,,
3328261,1746078105905,0.0,128,,-0.1,0.11,1.06,-2,-2,-3,1.07,1.26,85,4572,20.1,4.12,,13.37,0.955,89.8,,20.7,5,,,,,,,,,,,,0,0,0,0,0,0,0,0,0,0,0,0,0,0,0,0,,,,,,0.0,,,,,,,
3328281,1746078105925,,,,,,,,,,,,,,,,,,,,,,,0,0,0,0,0.0,0.0,0.0,0.0,2.24,,,0,0,0,0,0,0,0,0,0,0,0,0,0,0,0,0,,0,,,,,38.994354,-76.939873,0.44,27.9,32,3,0.8
3328301,1746078105945,0.0,129,,-0.11,0.18,0.92,-2,-2,-2,0.94,1.26,75,4578,20.3,4.06,,13.44,0.951,89.8,,20.7,5,,,,,,,,,,,,0,0,0,0,0,0,0,0,0,0,0,0,0,0,0,0,,,,,,0.0,,,,,,,
3328321,1746078105965,,,,,,,,,,,,,,,,,,,,,,,,,,,,,,,,,,0,0,0,0,0,0,0,0,0,0,0,0,0,0,0,0,,,,,,,,,,,,,
3328341,1746078105985,0.0,129,,-0.07,-0.03,0.8,-3,-1,-3,0.8,1.26,64,4602,16.0,3.88,,13.21,0.953,89.8,,20.7,5,,,,,,,,,,,,0,0,0,0,0,0,0,0,0,0,0,0,0,0,0,0,,,,,,0.0,,,,,,,
3328361,1746078105997,,,,,,,,,,,,,,,,,,,,,,,,,,,,,,,,,,0,0,0,0,0,0,0,0,0,0,0,0,0,0,0,0,,,,,,,,,,,,,
3328381,1746078106017,0.0,128,13.4,-0.06,-0.13,0.78,-2,-1,-3,0.8,1.26,63,4602,16.0,3.88,15,13.21,0.953,89.8,200,20.8,5,0,0,0,0,0.0,0.0,0.0,0.0,2.24,0,0.0,0,0,0,0,0,0,0,0,0,0,0,0,0,0,0,0,0,0,0.0,0,0,0.0,38.994354,-76.939873,0.65,27.9,32,3,0.8
3328401,1746078106037,,,,,,,,,,,,,,,,,,,,,,,,,,,,,,,,,,0,0,0,0,0,0,0,0,0,0,0,0,0,0,0,0,,,,,,,,,,,,,
3328421,1746078106057,0.0,129,,-0.04,-0.07,0.86,-2,-1,-2,0.86,1.26,68,4582,11.3,3.88,,12.91,0.955,89.8,,20.8,5,,,,,,,,,,,,0,0,0,0,0,0,0,0,0,0,0,0,0,0,0,0,,,,,,0.0,,,,,,,
3328441,1746078106077,,,,,,,,,,,,,,,,,,,,,,,,,,,,,,,,,,0,0,0,0,0,0,0,0,0,0,0,0,0,0,0,0,,,,,,,,,,,,,
3328461,1746078106103,0.0,128,,-0.02,-0.03,0.93,-0,-1,-1,0.93,1.26,74,4533,9.0,3.67,,12.64,0.955,89.8,,20.8,5,,,,,,,,,,,,0,0,0,0,0,0,0,0,0,0,0,0,0,0,0,0,,,,,,0.0,,,,,,,
3328481,1746078106123,,,,,,,,,,,,,,,,,,,,,,,0,0,0,0,0.0,0.0,0.0,0.0,2.24,,,0,0,0,0,0,0,0,0,0,0,0,0,0,0,0,0,,0,,,,,38.994354,-76.939873,0.15,27.9,32,3,0.8
3328501,1746078106143,0.0,129,,-0.02,-0.0,0.91,0,-0,-1,0.91,1.26,72,4454,8.7,3.65,,12.49,0.956,89.8,,20.5,5,,,,,,,,,,,,0,0,0,0,0,0,0,0,0,0,0,0,0,0,0,0,,,,,,0.0,,,,,,,
3328521,1746078106163,,,,,,,,,,,,,,,,,,,,,,,,,,,,,,,,,,0,0,0,0,0,0,0,0,0,0,0,0,0,0,0,0,,,,,,,,,,,,,
3328541,1746078106183,0.0,128,,-0.03,-0.01,0.82,0,-0,-1,0.82,1.26,65,4366,14.0,3.98,,12.61,0.955,89.8,,20.5,5,,,,,,,,,,,,0,0,0,0,0,0,0,0,0,0,0,0,0,0,0,0,,,,,,0.0,,,,,,,
3328561,1746078106203,,,,,,,,,,,,,,,,,,,,,,,,,,,,,,,,,,0,0,0,0,0,0,0,0,0,0,0,0,0,0,0,0,,,,,,,,,,,,,
3328581,1746078106223,0.0,128,,-0.05,-0.03,0.81,1,-1,-0,0.82,1.26,65,4278,21.1,4.19,,12.61,0.955,89.8,,19.3,5,0,0,0,0,0.0,0.0,0.0,0.0,2.24,,,0,0,0,0,0,0,0,0,0,0,0,0,0,0,0,0,,0,,,,0.0,38.994354,-76.939873,0.05,27.9,32,3,0.8
3328601,1746078106243,,,,,,,,,,,,,,,,,,,,,,,,,,,,,,,,,,0,0,0,0,0,0,0,0,0,0,0,0,0,0,0,0,,,,,,,,,,,,,
3328621,1746078106263,0.0,129,,-0.05,-0.05,0.94,1,-1,0,0.94,1.26,75,4278,21.1,4.19,,13.31,0.955,89.8,,19.3,5,,,,,,,,,,,,0,0,0,0,0,0,0,0,0,0,0,0,0,0,0,0,,,,,,0.0,,,,,,,
3328641,1746078106283,,,,,,,,,,,,,,,,,,,,,,,,,,,,,,,,,,0,0,0,0,0,0,0,0,0,0,0,0,0,0,0,0,,,,,,,,,,,,,
3328661,1746078106305,0.0,128,,-0.05,-0.13,1.04,1,-1,-0,1.05,1.26,84,4336,22.2,4.33,,13.55,0.955,89.8,,19.9,5,,,,,,,,,,,,0,0,0,0,0,0,0,0,0,0,0,0,0,0,0,0,,,,,,0.0,,,,,,,
3328681,1746078106325,,,,,,,,,,,,,,,,,,,,,,,0,0,0,0,0.0,0.0,0.0,0.0,2.24,,,0,0,0,0,0,0,0,0,0,0,0,0,0,0,0,0,,0,,,,,38.994354,-76.939873,0.16,27.9,32,3,0.8
3328701,1746078106345,0.0,129,,-0.02,-0.26,1.11,1,-1,-1,1.14,1.26,91,4441,22.3,4.56,,13.59,0.952,89.8,,19.9,5,,,,,,,,,,,,0,0,0,0,0,0,0,0,0,0,0,0,0,0,0,0,,,,,,0.0,,,,,,,
3328721,1746078106365,,,,,,,,,,,,,,,,,,,,,,,,,,,,,,,,,,0,0,0,0,0,0,0,0,0,0,0,0,0,0,0,0,,,,,,,,,,,,,
3328741,1746078106385,0.0,129,,-0.01,-0.24,1.2,0,-0,-1,1.22,1.26,97,4596,19.8,4.41,,13.52,0.956,89.8,,19.9,5,,,,,,,,,,,,0,0,0,0,0,0,0,0,0,0,0,0,0,0,0,0,,,,,,0.0,,,,,,,
3328761,1746078106405,,,,,,,,,,,,,,,,,,,,,,,,,,,,,,,,,,0,0,0,0,0,0,0,0,0,0,0,0,0,0,0,0,,,,,,,,,,,,,
3328781,1746078106425,0.0,128,,-0.03,-0.28,1.26,-1,-1,-3,1.29,1.29,100,4658,14.7,4.21,,13.52,0.956,89.8,,20.9,5,0,0,0,0,0.0,0.0,0.0,0.0,2.25,,,0,0,0,0,0,0,0,0,0,0,0,0,0,0,0,0,,0,,,,0.0,38.994354,-76.939873,0.11,27.9,32,3,0.8
3328801,1746078106445,,,,,,,,,,,,,,,,,,,,,,,,,,,,,,,,,,0,0,0,0,0,0,0,0,0,0,0,0,0,0,0,0,,,,,,,,,,,,,
3328821,1746078106465,0.0,129,,-0.05,-0.31,1.2,-1,-1,-3,1.24,1.29,97,4658,14.7,4.21,,13.13,0.955,89.8,,20.9,5,,,,,,,,,,,,0,0,0,0,0,0,0,0,0,0,0,0,0,0,0,0,,,,,,0.0,,,,,,,
3328841,1746078106485,,,,,,,,,,,,,,,,,,,,,,,,,,,,,,,,,,0,0,0,0,0,0,0,0,0,0,0,0,0,0,0,0,,,,,,,,,,,,,
3328861,1746078106505,0.0,129,,-0.08,-0.2,1.05,-1,-1,-3,1.07,1.29,83,4641,13.9,4.12,,12.97,0.955,89.8,,20.6,5,,,,,,,,,,,,0,0,0,0,0,0,0,0,0,0,0,0,0,0,0,0,,,,,,0.0,,,,,,,
3328881,1746078106525,,,,,,,,,,,,,,,,,,,,,,,0,0,0,0,0.0,0.0,0.0,0.0,2.25,,,0,0,0,0,0,0,0,0,0,0,0,0,0,0,0,0,,0,,,,,38.994354,-76.939873,0.08,27.9,32,3,0.8
3328901,1746078106545,0.0,129,,-0.09,-0.08,0.91,-2,-1,-2,0.92,1.29,71,4604,13.8,4.11,,13.01,0.956,89.8,,20.6,5,,,,,,,,,,,,0,0,0,0,0,0,0,0,0,0,0,0,0,0,0,0,,,,,,0.0,,,,,,,
3328921,1746078106565,,,,,,,,,,,,,,,,,,,,,,,,,,,,,,,,,,0,0,0,0,0,0,0,0,0,0,0,0,0,0,0,0,,,,,,,,,,,,,
3328941,1746078106585,0.0,129,,-0.06,-0.21,0.83,-3,-0,-3,0.86,1.29,67,4583,16.4,3.92,,13.09,0.953,89.8,,20.6,5,,,,,,,,,,,,0,0,0,0,0,0,0,0,0,0,0,0,0,0,0,0,,,,,,0.0,,,,,,,
3328961,1746078106605,,,,,,,,,,,,,,,,,,,,,,,,,,,,,,,,,,0,0,0,0,0,0,0,0,0,0,0,0,0,0,0,0,,,,,,,,,,,,,
3328981,1746078106625,0.0,128,,-0.05,-0.16,0.83,-3,-0,-1,0.84,1.29,66,4583,16.4,3.92,,13.09,0.953,89.8,,20.3,5,0,0,0,0,0.0,0.0,0.0,0.0,2.24,,,0,0,0,0,0,0,0,0,0,0,0,0,0,0,0,0,,0,,,,0.0,38.994354,-76.939873,0.04,27.9,32,3,0.8
3329001,1746078106645,,,,,,,,,,,,,,,,,,,,,,,,,,,,,,,,,,0,0,0,0,0,0,0,0,0,0,0,0,0,0,0,0,,,,,,,,,,,,,
3329021,1746078106665,0.0,129,,-0.03,-0.09,0.91,-2,-0,-1,0.92,1.29,71,4567,18.3,3.95,,13.35,0.951,89.8,,20.3,5,,,,,,,,,,,,0,0,0,0,0,0,0,0,0,0,0,0,0,0,0,0,,,,,,0.0,,,,,,,
3329041,1746078106685,,,,,,,,,,,,,,,,,,,,,,,,,,,,,,,,,,0,0,0,0,0,0,0,0,0,0,0,0,0,0,0,0,,,,,,,,,,,,,
3329061,1746078106707,0.0,128,,-0.02,-0.08,1.02,-2,0,-2,1.02,1.29,79,4535,18.5,3.97,,13.33,0.955,89.8,,20.4,5,,,,,,,,,,,,0,0,0,0,0,0,0,0,0,0,0,0,0,0,0,0,,,,,,0.0,,,,,,,
3329081,1746078106727,,,,,,,,,,,,,,,,,,,,,,,0,0,0,0,0.0,0.0,0.0,0.0,2.24,,,0,0,0,0,0,0,0,0,0,0,0,0,0,0,0,0,,0,,,,,38.994354,-76.939873,0.07,27.9,32,3,0.8
3329101,1746078106747,0.0,129,,-0.03,-0.02,1.15,-2,-0,-2,1.15,1.29,90,4573,18.4,3.97,,13.32,0.955,89.8,,20.4,5,,,,,,,,,,,,0,0,0,0,0,0,0,0,0,0,0,0,0,0,0,0,,,,,,0.0,,,,,,,
3329121,1746078106767,,,,,,,,,,,,,,,,,,,,,,,,,,,,,,,,,,0,0,0,0,0,0,0,0,0,0,0,0,0,0,0,0,,,,,,,,,,,,,
3329141,1746078106787,0.0,129,,-0.05,-0.02,1.2,-3,-1,-3,1.2,1.29,93,4555,15.6,3.93,,13.24,0.955,89.8,,20.4,5,,,,,,,,,,,,0,0,0,0,0,0,0,0,0,0,0,0,0,0,0,0,,,,,,0.0,,,,,,,
3329161,1746078106805,,,,,,,,,,,,,,,,,,,,,,,,,,,,,,,,,,0,0,0,0,0,0,0,0,0,0,0,0,0,0,0,0,,,,,,,,,,,,,
3329181,1746078106825,0.0,128,,-0.07,-0.09,1.21,-2,-1,-3,1.22,1.29,94,4576,15.4,3.9,,13.24,0.955,89.8,,20.5,5,0,0,0,0,0.0,0.0,0.0,0.0,2.25,,,0,0,0,0,0,0,0,0,0,0,0,0,0,0,0,0,,0,,,,0.0,38.994354,-76.939873,0.19,27.9,32,3,0.8
3329201,1746078106845,,,,,,,,,,,,,,,,,,,,,,,,,,,,,,,,,,0,0,0,0,0,0,0,0,0,0,0,0,0,0,0,0,,,,,,,,,,,,,
3329221,1746078106865,0.0,129,,-0.07,-0.1,1.11,-0,-1,-2,1.12,1.29,87,4576,15.4,3.9,,13.09,0.955,89.8,,20.5,5,,,,,,,,,,,,0,0,0,0,0,0,0,0,0,0,0,0,0,0,0,0,,,,,,0.0,,,,,,,
3329241,1746078106885,,,,,,,,,,,,,,,,,,,,,,,,,,,,,,,,,,0,0,0,0,0,0,0,0,0,0,0,0,0,0,0,0,,,,,,,,,,,,,
3329261,1746078106906,0.0,129,,-0.08,-0.14,0.97,-0,-1,-1,0.98,1.29,76,4557,15.5,3.9,,13.04,0.955,89.8,,20.7,5,,,,,,,,,,,,0,0,0,0,0,0,0,0,0,0,0,0,0,0,0,0,,,,,,0.0,,,,,,,
3329281,1746078106926,,,,,,,,,,,,,,,,,,,,,,,0,0,0,0,0.0,0.0,0.0,0.0,2.25,,,0,0,0,0,0,0,0,0,0,0,0,0,0,0,0,0,,0,,,,,38.994354,-76.939873,0.18,27.9,32,3,0.8
3329301,1746078106946,0.0,129,,-0.07,0.04,0.87,-2,-1,-1,0.87,1.29,68,4566,15.5,3.9,,13.13,0.956,89.8,,20.7,5,,,,,,,,,,,,0,0,0,0,0,0,0,0,0,0,0,0,0,0,0,0,,,,,,0.0,,,,,,,
3329321,1746078106966,,,,,,,,,,,,,,,,,,,,,,,,,,,,,,,,,,0,0,0,0,0,0,0,0,0,0,0,0,0,0,0,0,,,,,,,,,,,,,
3329341,1746078106986,0.0,129,,-0.09,0.02,0.73,-1,-1,-0,0.74,1.29,57,4550,15.6,3.88,,13.07,0.953,89.8,,20.7,5,,,,,,,,,,,,0,0,0,0,0,0,0,0,0,0,0,0,0,0,0,0,,,,,,0.0,,,,,,,
3329361,1746078106998,,,,,,,,,,,,,,,,,,,,,,,,,,,,,,,,,,0,0,0,0,0,0,0,0,0,0,0,0,0,0,0,0,,,,,,,,,,,,,
3329381,1746078107018,0.0,129,13.39,-0.08,0.02,0.67,-0,-1,1,0.68,1.29,53,4532,15.5,3.89,15,13.07,0.953,89.8,200,20.2,5,0,0,0,0,0.0,0.0,0.0,0.0,2.24,0,0.0,0,0,0,0,0,0,0,0,0,0,0,0,0,0,0,0,0,0,0.0,0,0,0.0,38.994354,-76.939873,0.07,27.9,32,3,0.8
3329401,1746078107038,,,,,,,,,,,,,,,,,,,,,,,,,,,,,,,,,,0,0,0,0,0,0,0,0,0,0,0,0,0,0,0,0,,,,,,,,,,,,,
3329421,1746078107058,0.0,129,,-0.09,-0.0,0.55,1,-0,2,0.56,1.29,44,4532,15.5,3.89,,13.15,0.954,89.8,,20.2,5,,,,,,,,,,,,0,0,0,0,0,0,0,0,0,0,0,0,0,0,0,0,,,,,,0.0,,,,,,,
3329441,1746078107078,,,,,,,,,,,,,,,,,,,,,,,,,,,,,,,,,,0,0,0,0,0,0,0,0,0,0,0,0,0,0,0,0,,,,,,,,,,,,,
3329461,1746078107102,0.0,129,,-0.08,0.01,0.51,1,-0,3,0.52,1.29,40,4516,15.5,3.91,,13.07,0.955,89.8,,19.8,5,,,,,,,,,,,,0,0,0,0,0,0,0,0,0,0,0,0,0,0,0,0,,,,,,0.0,,,,,,,
3329481,1746078107122,,,,,,,,,,,,,,,,,,,,,,,0,0,0,0,0.0,0.0,0.0,0.0,2.25,,,0,0,0,0,0,0,0,0,0,0,0,0,0,0,0,0,,0,,,,,38.994354,-76.939873,0.04,27.9,32,3,0.8
3329501,1746078107142,0.0,129,,-0.08,0.04,0.46,1,-0,4,0.47,1.29,36,4472,15.6,3.92,,13.19,0.956,89.8,,19.8,5,,,,,,,,,,,,0,0,0,0,0,0,0,0,0,0,0,0,0,0,0,0,,,,,,0.0,,,,,,,
3329521,1746078107162,,,,,,,,,,,,,,,,,,,,,,,,,,,,,,,,,,0,0,0,0,0,0,0,0,0,0,0,0,0,0,0,0,,,,,,,,,,,,,
3329541,1746078107182,0.0,129,,-0.06,-0.01,0.41,-1,0,3,0.41,1.29,32,4460,15.5,3.92,,13.12,0.955,89.8,,19.8,5,,,,,,,,,,,,0,0,0,0,0,0,0,0,0,0,0,0,0,0,0,0,,,,,,0.0,,,,,,,
3329561,1746078107206,,,,,,,,,,,,,,,,,,,,,,,,,,,,,,,,,,0,0,0,0,0,0,0,0,0,0,0,0,0,0,0,0,,,,,,,,,,,,,
3329581,1746078107226,0.0,129,,-0.07,0.16,0.34,-1,-0,3,0.38,1.29,30,4422,15.6,3.91,,13.12,0.955,89.8,,19.8,5,0,0,0,0,0.0,0.0,0.0,0.0,2.25,,,0,0,0,0,0,0,0,0,0,0,0,0,0,0,0,0,,0,,,,0.0,38.994354,-76.939873,0.0,27.9,32,3,0.8
3329601,1746078107246,,,,,,,,,,,,,,,,,,,,,,,,,,,,,,,,,,0,0,0,0,0,0,0,0,0,0,0,0,0,0,0,0,,,,,,,,,,,,,
3329621,1746078107266,0.0,129,,-0.08,0.2,0.29,-1,-0,3,0.36,1.29,28,4422,15.6,3.91,,13.19,0.954,89.8,,19.8,5,,,,,,,,,,,,0,0,0,0,0,0,0,0,0,0,0,0,0,0,0,0,,,,,,0.0,,,,,,,
3329641,1746078107286,,,,,,,,,,,,,,,,,,,,,,,,,,,,,,,,,,0,0,0,0,0,0,0,0,0,0,0,0,0,0,0,0,,,,,,,,,,,,,
3329661,1746078107308,0.0,129,,-0.07,0.22,0.26,-0,-1,3,0.35,1.29,27,4436,15.6,3.92,,13.13,0.951,89.8,,20.3,5,,,,,,,,,,,,0,0,0,0,0,0,0,0,0,0,0,0,0,0,0,0,,,,,,0.0,,,,,,,
3329681,1746078107328,,,,,,,,,,,,,,,,,,,,,,,0,0,0,0,0.0,0.0,0.0,0.0,2.24,,,0,0,0,0,0,0,0,0,0,0,0,0,0,0,0,0,,0,,,,,38.994354,-76.939873,0.05,27.9,32,3,0.8
3329701,1746078107348,0.0,129,,-0.09,0.19,0.27,-0,-1,3,0.35,1.29,27,4490,15.5,3.95,,13.16,0.953,89.8,,20.3,5,,,,,,,,,,,,0,0,0,0,0,0,0,0,0,0,0,0,0,0,0,0,,,,,,0.0,,,,,,,
3329721,1746078107368,,,,,,,,,,,,,,,,,,,,,,,,,,,,,,,,,,0,0,0,0,0,0,0,0,0,0,0,0,0,0,0,0,,,,,,,,,,,,,
3329741,1746078107388,0.0,129,,-0.11,0.14,0.31,-1,-1,4,0.35,1.29,27,4488,15.5,3.94,,13.15,0.955,89.8,,20.3,5,,,,,,,,,,,,0,0,0,0,0,0,0,0,0,0,0,0,0,0,0,0,,,,,,0.0,,,,,,,
3329761,1746078107408,,,,,,,,,,,,,,,,,,,,,,,,,,,,,,,,,,0,0,0,0,0,0,0,0,0,0,0,0,0,0,0,0,,,,,,,,,,,,,
3329781,1746078107428,0.0,129,,-0.1,0.02,0.37,-1,-2,3,0.38,1.29,30,4482,15.6,3.95,,13.15,0.955,89.8,,19.8,5,0,0,0,0,0.0,0.0,0.0,0.0,2.25,,,0,0,0,0,0,0,0,0,0,0,0,0,0,0,0,0,,0,,,,0.0,38.994354,-76.939873,0.04,27.9,32,3,0.8
3329801,1746078107448,,,,,,,,,,,,,,,,,,,,,,,,,,,,,,,,,,0,0,0,0,0,0,0,0,0,0,0,0,0,0,0,0,,,,,,,,,,,,,
3329821,1746078107468,0.0,129,,-0.12,0.02,0.45,-1,-1,3,0.46,1.29,36,4482,15.6,3.95,,13.16,0.954,89.8,,19.8,5,,,,,,,,,,,,0,0,0,0,0,0,0,0,0,0,0,0,0,0,0,0,,,,,,0.0,,,,,,,
3329841,1746078107488,,,,,,,,,,,,,,,,,,,,,,,,,,,,,,,,,,0,0,0,0,0,0,0,0,0,0,0,0,0,0,0,0,,,,,,,,,,,,,
3329861,1746078107508,0.0,129,,-0.13,-0.01,0.56,-2,-2,1,0.57,1.29,45,4453,15.5,3.95,,13.25,0.955,89.8,,19.8,5,,,,,,,,,,,,0,0,0,0,0,0,0,0,0,0,0,0,0,0,0,0,,,,,,0.0,,,,,,,
3329881,1746078107528,,,,,,,,,,,,,,,,,,,,,,,0,0,0,0,0.0,0.0,0.0,0.0,2.24,,,0,0,0,0,0,0,0,0,0,0,0,0,0,0,0,0,,0,,,,,38.994354,-76.939873,0.11,27.9,32,3,0.8
3329901,1746078107548,0.0,129,,-0.13,0.02,0.7,-2,-2,-0,0.71,1.29,55,4419,15.5,3.95,,13.16,0.955,89.8,,19.8,5,,,,,,,,,,,,0,0,0,0,0,0,0,0,0,0,0,0,0,0,0,0,,,,,,0.0,,,,,,,
3329921,1746078107568,,,,,,,,,,,,,,,,,,,,,,,,,,,,,,,,,,0,0,0,0,0,0,0,0,0,0,0,0,0,0,0,0,,,,,,,,,,,,,
3329941,1746078107588,0.0,129,,-0.13,0.04,0.85,-1,-2,-1,0.86,1.29,67,4434,15.6,3.93,,13.2,0.956,89.8,,19.8,5,,,,,,,,,,,,0,0,0,0,0,0,0,0,0,0,0,0,0,0,0,0,,,,,,0.0,,,,,,,
3329961,1746078107608,,,,,,,,,,,,,,,,,,,,,,,,,,,,,,,,,,0,0,0,0,0,0,0,0,0,0,0,0,0,0,0,0,,,,,,,,,,,,,
3329981,1746078107628,0.0,129,,-0.13,0.12,1.01,-0,-2,-1,1.02,1.29,80,4492,15.5,3.93,,13.2,0.956,89.8,,20.2,5,0,0,0,0,0.0,0.0,0.0,0.0,2.24,,,0,0,0,0,0,0,0,0,0,0,0,0,0,0,0,0,,0,,,,0.0,38.994354,-76.939873,0.07,27.9,32,3,0.8
3330001,1746078107648,,,,,,,,,,,,,,,,,,,,,,,,,,,,,,,,,,0,0,0,0,0,0,0,0,0,0,0,0,0,0,0,0,,,,,,,,,,,,,
3330021,1746078107668,0.0,129,,-0.15,0.1,1.07,-1,-3,-2,1.08,1.29,84,4492,15.5,3.93,,13.12,0.954,89.8,,20.2,5,,,,,,,,,,,,0,0,0,0,0,0,0,0,0,0,0,0,0,0,0,0,,,,,,0.0,,,,,,,
3330041,1746078107688,,,,,,,,,,,,,,,,,,,,,,,,,,,,,,,,,,0,0,0,0,0,0,0,0,0,0,0,0,0,0,0,0,,,,,,,,,,,,,
3330061,1746078107708,0.0,129,,-0.16,0.03,1.14,-0,-2,-3,1.15,1.29,89,4527,15.5,3.93,,13.19,0.954,89.8,,20.4,5,,,,,,,,,,,,0,0,0,0,0,0,0,0,0,0,0,0,0,0,0,0,,,,,,0.0,,,,,,,
3330081,1746078107728,,,,,,,,,,,,,,,,,,,,,,,0,0,0,0,0.0,0.0,0.0,0.0,2.25,,,0,0,0,0,0,0,0,0,0,0,0,0,0,0,0,0,,0,,,,,38.994354,-76.939873,0.04,27.9,32,3,0.8
3330101,1746078107748,0.0,129,,-0.17,-0.03,1.15,-0,-2,-3,1.16,1.29,90,4543,15.6,3.94,,13.08,0.955,89.8,,20.4,5,,,,,,,,,,,,0,0,0,0,0,0,0,0,0,0,0,0,0,0,0,0,,,,,,0.0,,,,,,,
3330121,1746078107768,,,,,,,,,,,,,,,,,,,,,,,,,,,,,,,,,,0,0,0,0,0,0,0,0,0,0,0,0,0,0,0,0,,,,,,,,,,,,,
3330141,1746078107788,0.0,129,,-0.17,-0.04,1.19,0,-2,-3,1.2,1.29,93,4487,15.5,3.93,,13.17,0.956,89.8,,20.4,5,,,,,,,,,,,,0,0,0,0,0,0,0,0,0,0,0,0,0,0,0,0,,,,,,0.0,,,,,,,
3330161,1746078107808,,,,,,,,,,,,,,,,,,,,,,,,,,,,,,,,,,0,0,0,0,0,0,0,0,0,0,0,0,0,0,0,0,,,,,,,,,,,,,
3330181,1746078107828,0.0,129,,-0.18,-0.01,1.24,1,-3,-3,1.25,1.29,97,4494,15.6,3.9,,13.17,0.956,89.8,,19.8,5,0,0,0,0,0.0,0.0,0.0,0.0,2.25,,,0,0,0,0,0,0,0,0,0,0,0,0,0,0,0,0,,0,,,,0.0,38.994354,-76.939873,0.04,27.9,32,3,0.8
3330201,1746078107848,,,,,,,,,,,,,,,,,,,,,,,,,,,,,,,,,,0,0,0,0,0,0,0,0,0,0,0,0,0,0,0,0,,,,,,,,,,,,,
3330221,1746078107868,0.0,130,,-0.18,0.08,1.3,-1,-3,-5,1.31,1.31,100,4494,15.6,3.9,,13.08,0.955,89.8,,19.8,5,,,,,,,,,,,,0,0,0,0,0,0,0,0,0,0,0,0,0,0,0,0,,,,,,0.0,,,,,,,
3330241,1746078107888,,,,,,,,,,,,,,,,,,,,,,,,,,,,,,,,,,0,0,0,0,0,0,0,0,0,0,0,0,0,0,0,0,,,,,,,,,,,,,
3330261,1746078107909,0.0,129,,-0.18,0.05,1.36,-1,-2,-4,1.37,1.37,100,4466,15.6,3.9,,13.2,0.954,89.8,,19.8,5,,,,,,,,,,,,0,0,0,0,0,0,0,0,0,0,0,0,0,0,0,0,,,,,,0.0,,,,,,,
3330281,1746078107929,,,,,,,,,,,,,,,,,,,,,,,0,0,0,0,0.0,0.0,0.0,0.0,2.25,,,0,0,0,0,0,0,0,0,0,0,0,0,0,0,0,0,,0,,,,,38.994354,-76.939873,0.04,27.9,32,3,0.8
3330301,1746078107949,0.0,129,,-0.18,0.01,1.43,-1,-2,-5,1.44,1.44,100,4456,15.7,3.9,,13.16,0.951,89.8,,19.8,5,,,,,,,,,,,,0,0,0,0,0,0,0,0,0,0,0,0,0,0,0,0,,,,,,0.0,,,,,,,
3330321,1746078107969,,,,,,,,,,,,,,,,,,,,,,,,,,,,,,,,,,0,0,0,0,0,0,0,0,0,0,0,0,0,0,0,0,,,,,,,,,,,,,
3330341,1746078107989,0.0,129,,-0.15,-0.04,1.48,-2,-2,-6,1.49,1.49,100,4437,15.6,3.9,,13.15,0.954,89.8,,19.8,5,,,,,,,,,,,,0,0,0,0,0,0,0,0,0,0,0,0,0,0,0,0,,,,,,0.0,,,,,,,
