,Interval,Utc,ElapsedTime,FrontBP,SteerAng,Battery,AccelX,AccelY,AccelZ,Yaw,Pitch,Roll,Gsum,GsumMax,GsumPct,RPM,TPS,InjectorPW,Baro,MAP,Lambda,IAT,EngineTemp,EOP,EOT,WSFR,WSFL,WSRR,WSRL,TCSet,TCSlip,TCComp,TCCut,Analog8,OilTemp,AA_On,ThermLF1,ThermLF2,ThermRR1,ThermRR2,ThermLF3,ThermLF4,ThermLF5,ThermLF6,ThermLF7,ThermLF8,ThermRR3,ThermRR4,ThermRR5,ThermRR6,ThermRR7,ThermRR8,AA_LowDrag,Gear,AA_On1,AA_LowDrag1,Fuel_Mix,AA_Packages,Latitude,Longitude,Speed,Altitude,GPSSats,GPSQual,GPSDOP,LapCount,LapTime,Sector,SectorTime,PredTime,CurrentLap,Distance,SessionTime
0,3466323,1745297718494,0.0003,0.0,-83.0,,-0.13,0.02,1.02,-1.0,0.0,0.0,1.03,1.03,100.0,5744.0,0.9,1.89,,10.05,1.111,88.0,,54.2,5.0,,,,,,,,,,,,0,0,0,0,0,0,0,0,0,0,0,0,0,0,0,0,,,,,,0.0,,,,,,,,,,,,,,,
1,3466343,1745297718514,0.0006,,,,,,,,,,,,,,,,,,,,,,,,,,,,,,,,,,0,0,0,0,0,0,0,0,0,0,0,0,0,0,0,0,,,,,,,,,,,,,,,,,,,,,
2,3466363,1745297718534,0.001,0.0,-83.0,,-0.12,-0.06,0.96,-1.0,0.0,0.0,0.96,1.03,94.0,4952.0,9.4,3.08,,10.86,1.084,88.0,,48.5,5.0,,,,,,,,,,,,0,0,0,0,0,0,0,0,0,0,0,0,0,0,0,0,,,,,,0.0,,,,,,,,,,,,,,,
3,3466383,1745297718554,0.0013,,,,,,,,,,,,,,,,,,,,,,,,,,,,,,,,,,0,0,0,0,0,0,0,0,0,0,0,0,0,0,0,0,,,,,,,,,,,,,,,,,,,,,
4,3466403,1745297718574,0.0016,0.0,-83.0,13.37,-0.09,-0.08,0.99,0.0,0.0,0.0,1.0,1.03,97.0,4678.0,11.1,4.3,15.0,10.86,1.084,88.0,162.0,48.5,5.0,0.0,0.0,0.0,0.0,0.0,0.0,0.0,0.0,2.26,0.0,1.0,0,0,0,0,0,0,0,0,0,0,0,0,0,0,0,0,0.0,0.0,1.0,0.0,0.0,0.0,38.986023,-76.95002,0.0,48.6,33.0,3.0,0.8,0.0,0.0,-1.0,0.0,0.0,0.0,0.0,0.0016
5,3466423,1745297718594,0.002,,,,,,,,,,,,,,,,,,,,,,,,,,,,,,,,,,0,0,0,0,0,0,0,0,0,0,0,0,0,0,0,0,,,,,,,,,,,,,,,,,,,,,
6,3466443,1745297718614,0.0023,0.0,-72.0,,-0.1,0.0,1.09,-1.0,0.0,0.0,1.09,1.09,100.0,4678.0,11.1,4.3,,11.75,1.206,88.0,,42.0,5.0,,,,,,,,,,,,0,0,0,0,0,0,0,0,0,0,0,0,0,0,0,0,,,,,,0.0,,,,,,,,,,,,,,,
7,3466463,1745297718634,0.0026,,,,,,,,,,,,,,,,,,,,,,,,,,,,,,,,,,0,0,0,0,0,0,0,0,0,0,0,0,0,0,0,0,,,,,,,,,,,,,,,,,,,,,
8,3466483,1745297718654,0.003,0.0,-64.0,,-0.15,0.04,1.12,-2.0,0.0,1.0,1.13,1.13,100.0,4629.0,11.5,4.29,,12.09,1.249,88.0,,42.0,5.0,,,,,,,,,,,,0,0,0,0,0,0,0,0,0,0,0,0,0,0,0,0,,,,,,0.0,,,,,,,,,,,,,,,
9,3466503,1745297718674,0.0033,,,,,,,,,,,,,,,,,,,,,,,0.0,0.0,0.0,0.0,0.0,0.0,0.0,0.0,2.26,,,0,0,0,0,0,0,0,0,0,0,0,0,0,0,0,0,,0.0,,,,,38.986023,-76.95002,0.04,48.6,33.0,3.0,0.8,0.0,0.0,-1.0,0.0,,0.0,0.0,0.0033
10,3466523,1745297718694,0.0036,0.0,-80.0,,-0.17,-0.07,1.02,-1.0,0.0,0.0,1.04,1.13,92.0,4701.0,1.3,3.28,,11.99,1.221,88.0,,42.0,5.0,,,,,,,,,,,,0,0,0,0,0,0,0,0,0,0,0,0,0,0,0,0,,,,,,0.0,,,,,,,,,,,,,,,
11,3466543,1745297718714,0.004,,,,,,,,,,,,,,,,,,,,,,,,,,,,,,,,,,0,0,0,0,0,0,0,0,0,0,0,0,0,0,0,0,,,,,,,,,,,,,,,,,,,,,
12,3466563,1745297718734,0.0043,0.0,-72.0,,-0.12,-0.12,0.96,-1.0,0.0,0.0,0.98,1.13,87.0,4732.0,0.0,2.77,,11.38,1.1,88.0,,42.1,5.0,,,,,,,,,,,,0,0,0,0,0,0,0,0,0,0,0,0,0,0,0,0,,,,,,0.0,,,,,,,,,,,,,,,
13,3466583,1745297718754,0.0046,,,,,,,,,,,,,,,,,,,,,,,,,,,,,,,,,,0,0,0,0,0,0,0,0,0,0,0,0,0,0,0,0,,,,,,,,,,,,,,,,,,,,,
14,3466603,1745297718774,0.005,0.0,-64.0,,-0.07,-0.07,1.01,-1.0,0.0,0.0,1.01,1.13,90.0,4711.0,0.0,2.76,,11.38,1.1,88.0,,42.1,5.0,0.0,0.0,0.0,0.0,0.0,0.0,0.0,0.0,2.26,,,0,0,0,0,0,0,0,0,0,0,0,0,0,0,0,0,,0.0,,,,0.0,38.986023,-76.95002,0.04,48.6,33.0,3.0,0.8,0.0,0.0,-1.0,0.0,0.0,0.0,0.0,0.005
15,3466623,1745297718794,0.0053,,,,,,,,,,,,,,,,,,,,,,,,,,,,,,,,,,0,0,0,0,0,0,0,0,0,0,0,0,0,0,0,0,,,,,,,,,,,,,,,,,,,,,
16,3466643,1745297718814,0.0056,0.0,-83.0,,-0.11,0.02,1.08,-1.0,0.0,1.0,1.08,1.13,96.0,4711.0,0.0,2.76,,10.9,0.992,88.0,,42.3,5.0,,,,,,,,,,,,0,0,0,0,0,0,0,0,0,0,0,0,0,0,0,0,,,,,,0.0,,,,,,,,,,,,,,,
17,3466663,1745297718834,0.006,,,,,,,,,,,,,,,,,,,,,,,,,,,,,,,,,,0,0,0,0,0,0,0,0,0,0,0,0,0,0,0,0,,,,,,,,,,,,,,,,,,,,,
18,3466683,1745297718854,0.0063,0.0,-68.0,,-0.16,-0.07,1.05,-1.0,0.0,0.0,1.06,1.13,94.0,4665.0,0.0,2.18,,10.58,0.99,88.0,,42.3,5.0,,,,,,,,,,,,0,0,0,0,0,0,0,0,0,0,0,0,0,0,0,0,,,,,,0.0,,,,,,,,,,,,,,,
19,3466703,1745297718874,0.0066,,,,,,,,,,,,,,,,,,,,,,,0.0,0.0,0.0,0.0,0.0,0.0,0.0,0.0,2.26,,,0,0,0,0,0,0,0,0,0,0,0,0,0,0,0,0,,0.0,,,,,38.986023,-76.95002,0.04,48.6,33.0,3.0,0.8,0.0,0.0,-1.0,0.0,,0.0,0.0,0.0066
20,3466723,1745297718894,0.007,0.0,-64.0,,-0.17,-0.15,0.97,0.0,0.0,0.0,0.99,1.13,88.0,4613.0,0.0,2.09,,10.41,1.04,88.0,,42.3,5.0,,,,,,,,,,,,0,0,0,0,0,0,0,0,0,0,0,0,0,0,0,0,,,,,,0.0,,,,,,,,,,,,,,,
21,3466743,1745297718914,0.0073,,,,,,,,,,,,,,,,,,,,,,,,,,,,,,,,,,0,0,0,0,0,0,0,0,0,0,0,0,0,0,0,0,,,,,,,,,,,,,,,,,,,,,
22,3466763,1745297718934,0.0076,0.0,-68.0,,-0.18,-0.21,0.94,1.0,0.0,0.0,0.98,1.13,87.0,4427.0,0.0,2.07,,10.38,1.037,88.0,,40.4,5.0,,,,,,,,,,,,0,0,0,0,0,0,0,0,0,0,0,0,0,0,0,0,,,,,,0.0,,,,,,,,,,,,,,,
23,3466783,1745297718954,0.008,,,,,,,,,,,,,,,,,,,,,,,,,,,,,,,,,,0,0,0,0,0,0,0,0,0,0,0,0,0,0,0,0,,,,,,,,,,,,,,,,,,,,,
24,3466803,1745297718974,0.0083,0.0,-87.0,,-0.2,-0.1,1.03,0.0,0.0,0.0,1.05,1.13,93.0,4240.0,0.0,2.07,,10.38,1.037,88.0,,40.4,5.0,0.0,0.0,0.0,0.0,0.0,0.0,0.0,0.0,2.25,,,0,0,0,0,0,0,0,0,0,0,0,0,0,0,0,0,,0.0,,,,0.0,38.986023,-76.95002,0.05,48.6,33.0,3.0,0.8,0.0,0.0,-1.0,0.0,0.0,0.0,0.0,0.0083
25,3466823,1745297718994,0.0086,,,,,,,,,,,,,,,,,,,,,,,,,,,,,,,,,,0,0,0,0,0,0,0,0,0,0,0,0,0,0,0,0,,,,,,,,,,,,,,,,,,,,,
26,3466843,1745297719006,0.009,0.0,-76.0,,-0.18,-0.17,0.94,1.0,0.0,-1.0,0.98,1.13,87.0,4240.0,0.0,2.07,,10.36,1.033,88.0,,36.9,5.0,,,,,,,,,,,,0,0,0,0,0,0,0,0,0,0,0,0,0,0,0,0,,,,,,0.0,,,,,,,,,,,,,,,
27,3466863,1745297719026,0.0093,,,,,,,,,,,,,,,,,,,,,,,,,,,,,,,,,,0,0,0,0,0,0,0,0,0,0,0,0,0,0,0,0,,,,,,,,,,,,,,,,,,,,,
28,3466883,1745297719046,0.0096,0.0,-61.0,,-0.15,-0.07,0.97,0.0,0.0,0.0,0.99,1.13,87.0,4058.0,0.0,2.08,,10.41,1.075,88.0,,36.9,5.0,,,,,,,,,,,,0,0,0,0,0,0,0,0,0,0,0,0,0,0,0,0,,,,,,0.0,,,,,,,,,,,,,,,
29,3466903,1745297719066,0.01,,,,,,,,,,,,,,,,,,,,,,,0.0,0.0,0.0,0.0,0.0,0.0,0.0,0.0,2.26,,,0,0,0,0,0,0,0,0,0,0,0,0,0,0,0,0,,0.0,,,,,38.986023,-76.95002,0.04,48.6,33.0,3.0,0.8,0.0,0.0,-1.0,0.0,,0.0,0.0,0.01
30,3466923,1745297719086,0.0103,0.0,-95.0,,-0.15,-0.07,0.95,0.0,0.0,0.0,0.96,1.13,85.0,3801.0,0.1,2.17,,10.68,1.097,88.0,,36.9,5.0,,,,,,,,,,,,0,0,0,0,0,0,0,0,0,0,0,0,0,0,0,0,,,,,,0.0,,,,,,,,,,,,,,,
31,3466943,1745297719106,0.0106,,,,,,,,,,,,,,,,,,,,,,,,,,,,,,,,,,0,0,0,0,0,0,0,0,0,0,0,0,0,0,0,0,,,,,,,,,,,,,,,,,,,,,
32,3466963,1745297719126,0.011,0.0,-72.0,,-0.16,-0.07,1.0,0.0,0.0,0.0,1.02,1.13,90.0,3580.0,1.2,3.35,,11.12,1.147,88.0,,31.5,5.0,,,,,,,,,,,,0,0,0,0,0,0,0,0,0,0,0,0,0,0,0,0,,,,,,0.0,,,,,,,,,,,,,,,
33,3466983,1745297719146,0.0113,,,,,,,,,,,,,,,,,,,,,,,,,,,,,,,,,,0,0,0,0,0,0,0,0,0,0,0,0,0,0,0,0,,,,,,,,,,,,,,,,,,,,,
34,3467003,1745297719166,0.0116,0.0,-80.0,,-0.13,0.08,0.98,0.0,0.0,0.0,1.0,1.13,88.0,3378.0,1.4,3.45,,11.12,1.147,86.2,,31.5,5.0,0.0,0.0,0.0,0.0,0.0,0.0,0.0,0.0,2.26,,,0,0,0,0,0,0,0,0,0,0,0,0,0,0,0,0,,0.0,,,,0.0,38.986023,-76.95002,0.04,48.6,33.0,3.0,0.8,0.0,0.0,-1.0,0.0,0.0,0.0,0.0,0.0116
35,3467023,1745297719192,0.012,,,,,,,,,,,,,,,,,,,,,,,,,,,,,,,,,,0,0,0,0,0,0,0,0,0,0,0,0,0,0,0,0,,,,,,,,,,,,,,,,,,,,,
36,3467043,1745297719212,0.0123,0.0,-80.0,,-0.14,-0.03,1.03,0.0,0.0,0.0,1.04,1.13,92.0,3378.0,1.4,3.45,,11.53,1.225,86.2,,28.7,5.0,,,,,,,,,,,,0,0,0,0,0,0,0,0,0,0,0,0,0,0,0,0,,,,,,0.0,,,,,,,,,,,,,,,
37,3467063,1745297719232,0.0126,,,,,,,,,,,,,,,,,,,,,,,,,,,,,,,,,,0,0,0,0,0,0,0,0,0,0,0,0,0,0,0,0,,,,,,,,,,,,,,,,,,,,,
38,3467083,1745297719252,0.013,0.0,-68.0,,-0.15,0.0,0.95,0.0,0.0,0.0,0.96,1.13,85.0,3275.0,0.0,3.17,,11.58,1.252,86.2,,28.7,5.0,,,,,,,,,,,,0,0,0,0,0,0,0,0,0,0,0,0,0,0,0,0,,,,,,0.0,,,,,,,,,,,,,,,
39,3467103,1745297719272,0.0133,,,,,,,,,,,,,,,,,,,,,,,0.0,0.0,0.0,0.0,0.0,0.0,0.0,0.0,2.26,,,0,0,0,0,0,0,0,0,0,0,0,0,0,0,0,0,,0.0,,,,,38.986023,-76.95002,0.08,48.6,33.0,3.0,0.8,0.0,0.0,-1.0,0.0,,0.0,0.0,0.0133
40,3467123,1745297719294,0.0136,0.0,-83.0,,-0.12,0.06,0.91,0.0,0.0,0.0,0.92,1.13,82.0,3185.0,0.0,3.24,,11.68,1.252,86.2,,28.7,5.0,,,,,,,,,,,,0,0,0,0,0,0,0,0,0,0,0,0,0,0,0,0,,,,,,0.0,,,,,,,,,,,,,,,
41,3467143,1745297719314,0.014,,,,,,,,,,,,,,,,,,,,,,,,,,,,,,,,,,0,0,0,0,0,0,0,0,0,0,0,0,0,0,0,0,,,,,,,,,,,,,,,,,,,,,
42,3467163,1745297719334,0.0143,0.0,-68.0,,-0.1,0.09,0.88,0.0,0.0,0.0,0.89,1.13,79.0,2997.0,0.0,3.28,,11.83,1.252,86.2,,26.3,5.0,,,,,,,,,,,,0,0,0,0,0,0,0,0,0,0,0,0,0,0,0,0,,,,,,0.0,,,,,,,,,,,,,,,
43,3467183,1745297719354,0.0146,,,,,,,,,,,,,,,,,,,,,,,,,,,,,,,,,,0,0,0,0,0,0,0,0,0,0,0,0,0,0,0,0,,,,,,,,,,,,,,,,,,,,,
44,3467203,1745297719374,0.015,0.0,-68.0,,-0.09,0.09,0.84,0.0,0.0,0.0,0.85,1.13,76.0,2894.0,0.0,3.33,,11.83,1.252,86.2,,26.3,5.0,0.0,0.0,0.0,0.0,0.0,0.0,0.0,0.0,2.25,,,0,0,0,0,0,0,0,0,0,0,0,0,0,0,0,0,,0.0,,,,0.0,38.986023,-76.95002,0.05,48.6,33.0,3.0,0.8,0.0,0.0,-1.0,0.0,0.0,0.0,0.0,0.015
45,3467223,1745297719395,0.0153,,,,,,,,,,,,,,,,,,,,,,,,,,,,,,,,,,0,0,0,0,0,0,0,0,0,0,0,0,0,0,0,0,,,,,,,,,,,,,,,,,,,,,
46,3467243,1745297719415,0.0156,0.0,-72.0,,-0.11,0.04,0.87,1.0,0.0,0.0,0.88,1.13,78.0,2894.0,0.0,3.33,,11.97,1.252,86.2,,23.9,5.0,,,,,,,,,,,,0,0,0,0,0,0,0,0,0,0,0,0,0,0,0,0,,,,,,0.0,,,,,,,,,,,,,,,
47,3467263,1745297719435,0.016,,,,,,,,,,,,,,,,,,,,,,,,,,,,,,,,,,0,0,0,0,0,0,0,0,0,0,0,0,0,0,0,0,,,,,,,,,,,,,,,,,,,,,
48,3467283,1745297719455,0.0163,0.0,-68.0,,-0.11,0.04,0.91,0.0,0.0,0.0,0.92,1.13,82.0,2777.0,10.4,4.58,,12.68,1.231,86.2,,23.9,5.0,,,,,,,,,,,,0,0,0,0,0,0,0,0,0,0,0,0,0,0,0,0,,,,,,0.0,,,,,,,,,,,,,,,
49,3467303,1745297719475,0.0166,,,,,,,,,,,,,,,,,,,,,,,0.0,0.0,0.0,0.0,0.0,0.0,0.0,0.0,2.26,,,0,0,0,0,0,0,0,0,0,0,0,0,0,0,0,0,,0.0,,,,,38.986023,-76.95002,0.0,48.6,33.0,3.0,0.8,0.0,0.0,-1.0,0.0,,0.0,0.0,0.0166
50,3467323,1745297719493,0.017,0.0,-83.0,,-0.11,0.05,0.89,1.0,0.0,0.0,0.9,1.13,80.0,2743.0,19.3,5.25,,13.65,1.182,86.2,,23.9,5.0,,,,,,,,,,,,0,0,0,0,0,0,0,0,0,0,0,0,0,0,0,0,,,,,,0.0,,,,,,,,,,,,,,,
51,3467343,1745297719513,0.0173,,,,,,,,,,,,,,,,,,,,,,,,,,,,,,,,,,0,0,0,0,0,0,0,0,0,0,0,0,0,0,0,0,,,,,,,,,,,,,,,,,,,,,
52,3467363,1745297719533,0.0176,0.0,-72.0,,-0.12,0.02,0.9,1.0,0.0,0.0,0.91,1.13,80.0,2811.0,22.7,5.32,,14.07,1.169,86.2,,22.4,5.0,,,,,,,,,,,,0,0,0,0,0,0,0,0,0,0,0,0,0,0,0,0,,,,,,0.0,,,,,,,,,,,,,,,
53,3467383,1745297719553,0.018,,,,,,,,,,,,,,,,,,,,,,,,,,,,,,,,,,0,0,0,0,0,0,0,0,0,0,0,0,0,0,0,0,,,,,,,,,,,,,,,,,,,,,
54,3467403,1745297719573,0.0183,0.0,-80.0,13.43,-0.15,-0.02,0.87,1.0,0.0,-1.0,0.88,1.13,78.0,3054.0,22.8,5.07,15.0,14.07,1.169,86.2,164.0,22.4,5.0,0.0,0.0,0.0,0.0,0.0,0.0,0.0,0.0,2.26,0.0,1.0,0,0,0,0,0,0,0,0,0,0,0,0,0,0,0,0,0.0,0.0,1.0,0.0,0.0,0.0,38.986023,-76.95002,0.04,48.6,33.0,3.0,0.8,0.0,0.0,-1.0,0.0,0.0,0.0,0.0,0.0183
55,3467423,1745297719595,0.0187,,,,,,,,,,,,,,,,,,,,,,,,,,,,,,,,,,0,0,0,0,0,0,0,0,0,0,0,0,0,0,0,0,,,,,,,,,,,,,,,,,,,,,
56,3467443,1745297719615,0.019,0.0,-83.0,,-0.12,0.07,0.87,1.0,0.0,0.0,0.88,1.13,78.0,3054.0,22.8,5.07,,14.04,1.15,86.2,,27.2,5.0,,,,,,,,,,,,0,0,0,0,0,0,0,0,0,0,0,0,0,0,0,0,,,,,,0.0,,,,,,,,,,,,,,,
57,3467463,1745297719635,0.0193,,,,,,,,,,,,,,,,,,,,,,,,,,,,,,,,,,0,0,0,0,0,0,0,0,0,0,0,0,0,0,0,0,,,,,,,,,,,,,,,,,,,,,
58,3467483,1745297719655,0.0196,0.0,-64.0,,-0.11,-0.04,0.88,1.0,0.0,-1.0,0.89,1.13,79.0,3421.0,22.8,5.04,,13.99,1.126,86.2,,27.2,5.0,,,,,,,,,,,,0,0,0,0,0,0,0,0,0,0,0,0,0,0,0,0,,,,,,0.0,,,,,,,,,,,,,,,
59,3467503,1745297719675,0.02,,,,,,,,,,,,,,,,,,,,,,,0.0,0.0,0.0,0.0,0.0,0.0,0.0,0.0,2.25,,,0,0,0,0,0,0,0,0,0,0,0,0,0,0,0,0,,0.0,,,,,38.986023,-76.95002,0.04,48.6,33.0,3.0,0.8,0.0,0.0,-1.0,0.0,,0.0,0.0,0.02
60,3467523,1745297719693,0.0203,0.0,-83.0,,-0.11,-0.1,0.87,1.0,0.0,-1.0,0.88,1.13,78.0,3578.0,22.9,5.03,,13.95,1.134,86.2,,27.2,5.0,,,,,,,,,,,,0,0,0,0,0,0,0,0,0,0,0,0,0,0,0,0,,,,,,0.0,,,,,,,,,,,,,,,
61,3467543,1745297719713,0.0206,,,,,,,,,,,,,,,,,,,,,,,,,,,,,,,,,,0,0,0,0,0,0,0,0,0,0,0,0,0,0,0,0,,,,,,,,,,,,,,,,,,,,,
62,3467563,1745297719733,0.021,0.0,-64.0,,-0.11,0.01,0.95,0.0,0.0,0.0,0.96,1.13,85.0,4004.0,22.8,4.98,,13.77,1.142,86.2,,31.8,5.0,,,,,,,,,,,,0,0,0,0,0,0,0,0,0,0,0,0,0,0,0,0,,,,,,0.0,,,,,,,,,,,,,,,
63,3467583,1745297719753,0.0213,,,,,,,,,,,,,,,,,,,,,,,,,,,,,,,,,,0,0,0,0,0,0,0,0,0,0,0,0,0,0,0,0,,,,,,,,,,,,,,,,,,,,,
64,3467603,1745297719773,0.0216,0.0,-72.0,,-0.14,-0.15,0.84,1.0,0.0,-1.0,0.86,1.13,77.0,4114.0,19.4,4.88,,13.77,1.142,86.2,,31.8,5.0,0.0,0.0,0.0,0.0,0.0,0.0,0.0,0.0,2.26,,,0,0,0,0,0,0,0,0,0,0,0,0,0,0,0,0,,0.0,,,,0.0,38.986023,-76.95002,0.08,48.6,33.0,3.0,0.8,0.0,0.0,-1.0,0.0,0.0,0.0,0.0,0.0216
65,3467623,1745297719795,0.022,,,,,,,,,,,,,,,,,,,,,,,,,,,,,,,,,,0,0,0,0,0,0,0,0,0,0,0,0,0,0,0,0,,,,,,,,,,,,,,,,,,,,,
66,3467643,1745297719815,0.0223,0.0,-76.0,,-0.17,-0.05,0.92,0.0,0.0,0.0,0.93,1.13,83.0,4114.0,19.4,4.88,,13.65,1.152,86.2,,36.5,5.0,,,,,,,,,,,,0,0,0,0,0,0,0,0,0,0,0,0,0,0,0,0,,,,,,0.0,,,,,,,,,,,,,,,
67,3467663,1745297719835,0.0226,,,,,,,,,,,,,,,,,,,,,,,,,,,,,,,,,,0,0,0,0,0,0,0,0,0,0,0,0,0,0,0,0,,,,,,,,,,,,,,,,,,,,,
68,3467683,1745297719855,0.023,0.0,-68.0,,-0.16,0.05,1.05,-1.0,0.0,0.0,1.06,1.13,94.0,4358.0,6.1,4.22,,12.93,1.11,86.2,,36.5,5.0,,,,,,,,,,,,0,0,0,0,0,0,0,0,0,0,0,0,0,0,0,0,,,,,,0.0,,,,,,,,,,,,,,,
69,3467703,1745297719875,0.0233,,,,,,,,,,,,,,,,,,,,,,,0.0,0.0,0.0,0.0,0.0,0.0,0.0,0.0,2.25,,,0,0,0,0,0,0,0,0,0,0,0,0,0,0,0,0,,0.0,,,,,38.986023,-76.95002,0.0,48.7,33.0,3.0,0.8,0.0,0.0,-1.0,0.0,,0.0,0.0,0.0233
70,3467723,1745297719893,0.0236,0.0,-72.0,,-0.13,0.07,1.05,0.0,0.0,0.0,1.06,1.13,94.0,4379.0,0.0,2.82,,12.16,1.091,86.2,,36.5,5.0,,,,,,,,,,,,0,0,0,0,0,0,0,0,0,0,0,0,0,0,0,0,,,,,,0.0,,,,,,,,,,,,,,,
71,3467743,1745297719913,0.024,,,,,,,,,,,,,,,,,,,,,,,,,,,,,,,,,,0,0,0,0,0,0,0,0,0,0,0,0,0,0,0,0,,,,,,,,,,,,,,,,,,,,,
72,3467763,1745297719933,0.0243,0.0,-61.0,,-0.1,-0.05,0.94,0.0,0.0,0.0,0.95,1.13,84.0,4307.0,0.0,2.78,,11.67,1.088,86.2,,37.5,5.0,,,,,,,,,,,,0,0,0,0,0,0,0,0,0,0,0,0,0,0,0,0,,,,,,0.0,,,,,,,,,,,,,,,
73,3467783,1745297719953,0.0246,,,,,,,,,,,,,,,,,,,,,,,,,,,,,,,,,,0,0,0,0,0,0,0,0,0,0,0,0,0,0,0,0,,,,,,,,,,,,,,,,,,,,,
74,3467803,1745297719973,0.025,0.0,-64.0,,-0.12,0.06,1.04,-1.0,0.0,0.0,1.05,1.13,93.0,4191.0,0.0,2.75,,11.67,1.088,86.2,,37.5,5.0,0.0,0.0,0.0,0.0,0.0,0.0,0.0,0.0,2.25,,,0,0,0,0,0,0,0,0,0,0,0,0,0,0,0,0,,0.0,,,,0.0,38.986023,-76.95002,0.21,48.7,33.0,3.0,0.8,0.0,0.0,-1.0,0.0,0.0,0.0,0.0,0.025
75,3467823,1745297719993,0.0253,,,,,,,,,,,,,,,,,,,,,,,,,,,,,,,,,,0,0,0,0,0,0,0,0,0,0,0,0,0,0,0,0,,,,,,,,,,,,,,,,,,,,,
76,3467843,1745297720007,0.0256,0.0,-64.0,,-0.09,-0.02,0.99,0.0,0.0,0.0,1.0,1.13,88.0,4191.0,0.0,2.75,,11.38,1.066,86.2,,36.0,5.0,,,,,,,,,,,,0,0,0,0,0,0,0,0,0,0,0,0,0,0,0,0,,,,,,0.0,,,,,,,,,,,,,,,
77,3467863,1745297720027,0.026,,,,,,,,,,,,,,,,,,,,,,,,,,,,,,,,,,0,0,0,0,0,0,0,0,0,0,0,0,0,0,0,0,,,,,,,,,,,,,,,,,,,,,
78,3467883,1745297720047,0.0263,0.0,-61.0,,-0.09,0.07,1.09,-1.0,0.0,0.0,1.1,1.13,97.0,4063.0,0.0,2.74,,11.17,1.089,86.2,,36.0,5.0,,,,,,,,,,,,0,0,0,0,0,0,0,0,0,0,0,0,0,0,0,0,,,,,,0.0,,,,,,,,,,,,,,,
79,3467903,1745297720067,0.0266,,,,,,,,,,,,,,,,,,,,,,,0.0,0.0,0.0,0.0,0.0,0.0,0.0,0.0,2.26,,,0,0,0,0,0,0,0,0,0,0,0,0,0,0,0,0,,0.0,,,,,38.986023,-76.95002,0.16,48.7,33.0,3.0,0.8,0.0,0.0,-1.0,0.0,,0.0,0.0,0.0266
80,3467923,1745297720087,0.027,0.0,-72.0,,-0.11,-0.08,1.0,0.0,0.0,0.0,1.0,1.13,89.0,4124.0,0.0,2.75,,10.98,1.15,86.2,,36.0,5.0,,,,,,,,,,,,0,0,0,0,0,0,0,0,0,0,0,0,0,0,0,0,,,,,,0.0,,,,,,,,,,,,,,,
81,3467943,1745297720109,0.0273,,,,,,,,,,,,,,,,,,,,,,,,,,,,,,,,,,0,0,0,0,0,0,0,0,0,0,0,0,0,0,0,0,,,,,,,,,,,,,,,,,,,,,
82,3467963,1745297720129,0.0276,0.0,-57.0,,-0.1,-0.02,1.01,1.0,0.0,0.0,1.02,1.13,90.0,3962.0,0.0,2.66,,10.9,1.221,86.2,,35.0,5.0,,,,,,,,,,,,0,0,0,0,0,0,0,0,0,0,0,0,0,0,0,0,,,,,,0.0,,,,,,,,,,,,,,,
83,3467983,1745297720149,0.028,,,,,,,,,,,,,,,,,,,,,,,,,,,,,,,,,,0,0,0,0,0,0,0,0,0,0,0,0,0,0,0,0,,,,,,,,,,,,,,,,,,,,,
84,3468003,1745297720169,0.0283,0.0,-68.0,,-0.1,0.04,1.08,0.0,0.0,0.0,1.09,1.13,97.0,3926.0,0.0,2.74,,10.9,1.221,86.2,,35.0,5.0,0.0,0.0,0.0,0.0,0.0,0.0,0.0,0.0,2.26,,,0,0,0,0,0,0,0,0,0,0,0,0,0,0,0,0,,0.0,,,,0.0,38.986023,-76.95002,0.0,48.7,33.0,3.0,0.8,0.0,0.0,-1.0,0.0,0.0,0.0,0.0,0.0283
85,3468023,1745297720207,0.0286,,,,,,,,,,,,,,,,,,,,,,,,,,,,,,,,,,0,0,0,0,0,0,0,0,0,0,0,0,0,0,0,0,,,,,,,,,,,,,,,,,,,,,
86,3468043,1745297720299,0.029,0.0,-53.0,,-0.12,-0.0,1.1,0.0,0.0,0.0,1.11,1.13,98.0,3742.0,0.0,2.81,,11.06,1.171,86.2,,31.4,5.0,,,,,,,,,,,,0,0,0,0,0,0,0,0,0,0,0,0,0,0,0,0,,,,,,0.0,,,,,,,,,,,,,,,
87,3468063,1745297720319,0.0293,,,,,,,,,,,,,,,,,,,,,,,,,,,,,,,,,,0,0,0,0,0,0,0,0,0,0,0,0,0,0,0,0,,,,,,,,,,,,,,,,,,,,,
88,3468083,1745297720339,0.0296,0.0,-68.0,,-0.11,0.0,1.11,-1.0,0.0,0.0,1.12,1.13,99.0,3669.0,3.3,3.59,,11.52,1.109,86.2,,31.4,5.0,,,,,,,,,,,,0,0,0,0,0,0,0,0,0,0,0,0,0,0,0,0,,,,,,0.0,,,,,,,,,,,,,,,
89,3468103,1745297720359,0.03,,,,,,,,,,,,,,,,,,,,,,,0.0,0.0,0.0,0.0,0.0,0.0,0.0,0.0,2.26,,,0,0,0,0,0,0,0,0,0,0,0,0,0,0,0,0,,0.0,,,,,38.986023,-76.95002,0.26,48.7,33.0,3.0,0.8,0.0,0.0,-1.0,0.0,,0.0,0.0,0.03
90,3468123,1745297720379,0.0303,0.0,-68.0,,-0.11,0.03,1.09,-1.0,0.0,1.0,1.1,1.13,98.0,3661.0,4.8,3.98,,11.97,1.097,86.2,,31.4,5.0,,,,,,,,,,,,0,0,0,0,0,0,0,0,0,0,0,0,0,0,0,0,,,,,,0.0,,,,,,,,,,,,,,,
91,3468143,1745297720398,0.0306,,,,,,,,,,,,,,,,,,,,,,,,,,,,,,,,,,0,0,0,0,0,0,0,0,0,0,0,0,0,0,0,0,,,,,,,,,,,,,,,,,,,,,
92,3468163,1745297720418,0.031,0.0,-68.0,,-0.1,0.02,1.09,-1.0,0.0,1.0,1.1,1.13,97.0,3774.0,5.5,4.01,,11.97,1.097,86.2,,31.5,5.0,,,,,,,,,,,,0,0,0,0,0,0,0,0,0,0,0,0,0,0,0,0,,,,,,0.0,,,,,,,,,,,,,,,
93,3468183,1745297720438,0.0313,,,,,,,,,,,,,,,,,,,,,,,,,,,,,,,,,,0,0,0,0,0,0,0,0,0,0,0,0,0,0,0,0,,,,,,,,,,,,,,,,,,,,,
94,3468203,1745297720458,0.0316,0.0,-53.0,,-0.09,0.03,1.08,0.0,0.0,1.0,1.08,1.13,96.0,3774.0,5.5,4.01,,12.19,1.192,86.2,,31.5,5.0,0.0,0.0,0.0,0.0,0.0,0.0,0.0,0.0,2.26,,,0,0,0,0,0,0,0,0,0,0,0,0,0,0,0,0,,0.0,,,,0.0,38.986023,-76.95002,0.04,48.7,33.0,3.0,0.8,0.0,0.0,-1.0,0.0,0.0,0.0,0.0,0.0316
95,3468223,1745297720478,0.032,,,,,,,,,,,,,,,,,,,,,,,,,,,,,,,,,,0,0,0,0,0,0,0,0,0,0,0,0,0,0,0,0,,,,,,,,,,,,,,,,,,,,,
96,3468243,1745297720498,0.0323,0.0,-57.0,,-0.08,0.03,1.07,0.0,0.0,1.0,1.07,1.13,95.0,3716.0,4.4,3.99,,12.28,1.118,86.2,,31.0,5.0,,,,,,,,,,,,0,0,0,0,0,0,0,0,0,0,0,0,0,0,0,0,,,,,,0.0,,,,,,,,,,,,,,,
97,3468263,1745297720518,0.0326,,,,,,,,,,,,,,,,,,,,,,,,,,,,,,,,,,0,0,0,0,0,0,0,0,0,0,0,0,0,0,0,0,,,,,,,,,,,,,,,,,,,,,
98,3468283,1745297720538,0.033,0.0,-61.0,,-0.07,0.05,1.06,0.0,0.0,0.0,1.06,1.13,94.0,3634.0,0.0,2.87,,11.91,0.989,86.2,,31.0,5.0,,,,,,,,,,,,0,0,0,0,0,0,0,0,0,0,0,0,0,0,0,0,,,,,,0.0,,,,,,,,,,,,,,,
99,3468303,1745297720558,0.0333,,,,,,,,,,,,,,,,,,,,,,,0.0,0.0,0.0,0.0,0.0,0.0,0.0,0.0,2.26,,,0,0,0,0,0,0,0,0,0,0,0,0,0,0,0,0,,0.0,,,,,38.986023,-76.95002,0.31,48.7,33.0,3.0,0.8,0.0,0.0,-1.0,0.0,,0.0,0.0,0.0333
100,3468323,1745297720578,0.0336,0.0,-68.0,,-0.08,-0.04,1.01,0.0,0.0,0.0,1.01,1.13,90.0,3545.0,0.0,2.9,,11.76,0.974,86.2,,31.0,5.0,,,,,,,,,,,,0,0,0,0,0,0,0,0,0,0,0,0,0,0,0,0,,,,,,0.0,,,,,,,,,,,,,,,
101,3468343,1745297720598,0.034,,,,,,,,,,,,,,,,,,,,,,,,,,,,,,,,,,0,0,0,0,0,0,0,0,0,0,0,0,0,0,0,0,,,,,,,,,,,,,,,,,,,,,
102,3468363,1745297720618,0.0343,0.0,-57.0,,-0.08,-0.08,1.08,0.0,0.0,0.0,1.08,1.13,96.0,3450.0,0.0,2.92,,11.76,0.974,86.2,,29.6,5.0,,,,,,,,,,,,0,0,0,0,0,0,0,0,0,0,0,0,0,0,0,0,,,,,,0.0,,,,,,,,,,,,,,,
103,3468383,1745297720638,0.0347,,,,,,,,,,,,,,,,,,,,,,,,,,,,,,,,,,0,0,0,0,0,0,0,0,0,0,0,0,0,0,0,0,,,,,,,,,,,,,,,,,,,,,
104,3468403,1745297720658,0.035,0.0,-38.0,13.48,-0.08,-0.1,0.99,0.0,0.0,0.0,1.0,1.13,89.0,3450.0,0.0,2.92,15.0,11.73,1.011,86.2,165.0,29.6,5.0,0.0,0.0,0.0,0.0,0.0,0.0,0.0,0.0,2.26,0.0,1.0,0,0,0,0,0,0,0,0,0,0,0,0,0,0,0,0,0.0,0.0,1.0,0.0,0.0,0.0,38.986023,-76.95002,0.31,48.7,33.0,3.0,0.8,0.0,0.0,-1.0,0.0,0.0,0.0,0.0,0.035
105,3468423,1745297720678,0.0353,,,,,,,,,,,,,,,,,,,,,,,,,,,,,,,,,,0,0,0,0,0,0,0,0,0,0,0,0,0,0,0,0,,,,,,,,,,,,,,,,,,,,,
106,3468443,1745297720698,0.0356,0.0,-46.0,,-0.06,-0.05,1.02,0.0,0.0,0.0,1.02,1.13,90.0,3288.0,0.0,2.98,,11.79,1.061,86.2,,27.2,5.0,,,,,,,,,,,,0,0,0,0,0,0,0,0,0,0,0,0,0,0,0,0,,,,,,0.0,,,,,,,,,,,,,,,
107,3468463,1745297720718,0.036,,,,,,,,,,,,,,,,,,,,,,,,,,,,,,,,,,0,0,0,0,0,0,0,0,0,0,0,0,0,0,0,0,,,,,,,,,,,,,,,,,,,,,
108,3468483,1745297720738,0.0363,0.0,-53.0,,-0.06,-0.12,1.09,0.0,0.0,0.0,1.1,1.13,97.0,3186.0,0.0,3.05,,11.81,1.108,86.2,,27.2,5.0,,,,,,,,,,,,0,0,0,0,0,0,0,0,0,0,0,0,0,0,0,0,,,,,,0.0,,,,,,,,,,,,,,,
109,3468503,1745297720758,0.0366,,,,,,,,,,,,,,,,,,,,,,,0.0,0.0,0.0,0.0,0.0,0.0,0.0,0.0,2.26,,,0,0,0,0,0,0,0,0,0,0,0,0,0,0,0,0,,0.0,,,,,38.986023,-76.95002,0.12,48.7,33.0,3.0,0.8,0.0,0.0,-1.0,0.0,,0.0,0.0,0.0366
110,3468523,1745297720778,0.037,0.0,-46.0,,-0.07,-0.15,1.13,0.0,0.0,0.0,1.15,1.15,100.0,3088.0,0.0,3.08,,11.95,1.133,86.2,,27.2,5.0,,,,,,,,,,,,0,0,0,0,0,0,0,0,0,0,0,0,0,0,0,0,,,,,,0.0,,,,,,,,,,,,,,,
111,3468543,1745297720798,0.0373,,,,,,,,,,,,,,,,,,,,,,,,,,,,,,,,,,0,0,0,0,0,0,0,0,0,0,0,0,0,0,0,0,,,,,,,,,,,,,,,,,,,,,
112,3468563,1745297720818,0.0376,0.0,-57.0,,-0.07,-0.15,1.17,0.0,0.0,0.0,1.18,1.18,100.0,2900.0,0.5,3.13,,11.95,1.133,86.2,,25.1,5.0,,,,,,,,,,,,0,0,0,0,0,0,0,0,0,0,0,0,0,0,0,0,,,,,,0.0,,,,,,,,,,,,,,,
113,3468583,1745297720838,0.038,,,,,,,,,,,,,,,,,,,,,,,,,,,,,,,,,,0,0,0,0,0,0,0,0,0,0,0,0,0,0,0,0,,,,,,,,,,,,,,,,,,,,,
114,3468603,1745297720858,0.0383,0.0,-57.0,,-0.06,-0.14,1.17,0.0,0.0,1.0,1.18,1.18,99.0,2900.0,0.5,3.13,,12.28,1.157,86.2,,25.1,5.0,0.0,0.0,0.0,0.0,0.0,0.0,0.0,0.0,2.26,,,0,0,0,0,0,0,0,0,0,0,0,0,0,0,0,0,,0.0,,,,0.0,38.986023,-76.95002,0.18,48.7,33.0,3.0,0.8,0.0,0.0,-1.0,0.0,0.0,0.0,0.0,0.0383
115,3468623,1745297720878,0.0386,,,,,,,,,,,,,,,,,,,,,,,,,,,,,,,,,,0,0,0,0,0,0,0,0,0,0,0,0,0,0,0,0,,,,,,,,,,,,,,,,,,,,,
116,3468643,1745297720898,0.039,0.0,-46.0,,-0.04,-0.09,1.11,0.0,0.0,1.0,1.12,1.18,94.0,2818.0,2.3,3.53,,12.63,1.155,86.2,,23.4,5.0,,,,,,,,,,,,0,0,0,0,0,0,0,0,0,0,0,0,0,0,0,0,,,,,,0.0,,,,,,,,,,,,,,,
117,3468663,1745297720918,0.0393,,,,,,,,,,,,,,,,,,,,,,,,,,,,,,,,,,0,0,0,0,0,0,0,0,0,0,0,0,0,0,0,0,,,,,,,,,,,,,,,,,,,,,
118,3468683,1745297720938,0.0396,0.0,-46.0,,-0.05,-0.1,1.09,0.0,0.0,0.0,1.09,1.18,92.0,2770.0,3.0,3.71,,12.88,1.173,86.2,,23.4,5.0,,,,,,,,,,,,0,0,0,0,0,0,0,0,0,0,0,0,0,0,0,0,,,,,,0.0,,,,,,,,,,,,,,,
119,3468703,1745297720958,0.04,,,,,,,,,,,,,,,,,,,,,,,0.0,0.0,0.0,0.0,0.0,0.0,0.0,0.0,2.26,,,0,0,0,0,0,0,0,0,0,0,0,0,0,0,0,0,,0.0,,,,,38.986023,-76.95002,0.1,48.7,33.0,3.0,0.8,0.0,0.0,-1.0,0.0,,0.0,0.0,0.04
120,3468723,1745297720978,0.0403,0.0,-53.0,,-0.05,-0.09,1.09,0.0,0.0,0.0,1.09,1.18,92.0,2722.0,7.5,4.01,,13.23,1.172,86.2,,23.4,5.0,,,,,,,,,,,,0,0,0,0,0,0,0,0,0,0,0,0,0,0,0,0,,,,,,0.0,,,,,,,,,,,,,,,
121,3468743,1745297720998,0.0406,,,,,,,,,,,,,,,,,,,,,,,,,,,,,,,,,,0,0,0,0,0,0,0,0,0,0,0,0,0,0,0,0,,,,,,,,,,,,,,,,,,,,,
122,3468763,1745297721010,0.041,0.0,-57.0,,-0.04,-0.06,1.03,0.0,0.0,0.0,1.04,1.18,88.0,2782.0,9.4,4.07,,13.23,1.172,86.2,,22.3,5.0,,,,,,,,,,,,0,0,0,0,0,0,0,0,0,0,0,0,0,0,0,0,,,,,,0.0,,,,,,,,,,,,,,,
123,3468783,1745297721030,0.0413,,,,,,,,,,,,,,,,,,,,,,,,,,,,,,,,,,0,0,0,0,0,0,0,0,0,0,0,0,0,0,0,0,,,,,,,,,,,,,,,,,,,,,
124,3468803,1745297721050,0.0416,0.0,-46.0,,-0.06,-0.09,1.06,0.0,0.0,0.0,1.07,1.18,90.0,2782.0,9.4,4.07,,13.51,1.165,86.2,,22.3,5.0,0.0,0.0,0.0,0.0,0.0,0.0,0.0,0.0,2.26,,,0,0,0,0,0,0,0,0,0,0,0,0,0,0,0,0,,0.0,,,,0.0,38.986023,-76.95002,0.04,48.7,33.0,3.0,0.8,0.0,0.0,-1.0,0.0,0.0,0.0,0.0,0.0416
125,3468823,1745297721070,0.042,,,,,,,,,,,,,,,,,,,,,,,,,,,,,,,,,,0,0,0,0,0,0,0,0,0,0,0,0,0,0,0,0,,,,,,,,,,,,,,,,,,,,,
126,3468843,1745297721096,0.0423,0.0,-49.0,,-0.07,-0.11,1.11,0.0,0.0,0.0,1.12,1.18,95.0,2824.0,11.7,4.14,,13.68,1.176,86.2,,24.0,5.0,,,,,,,,,,,,0,0,0,0,0,0,0,0,0,0,0,0,0,0,0,0,,,,,,0.0,,,,,,,,,,,,,,,
127,3468863,1745297721116,0.0426,,,,,,,,,,,,,,,,,,,,,,,,,,,,,,,,,,0,0,0,0,0,0,0,0,0,0,0,0,0,0,0,0,,,,,,,,,,,,,,,,,,,,,
128,3468883,1745297721136,0.043,0.0,-57.0,,-0.08,-0.14,1.16,0.0,0.0,0.0,1.17,1.18,99.0,0.0,12.2,4.22,,13.67,1.164,86.2,,24.0,5.0,,,,,,,,,,,,0,0,0,0,0,0,0,0,0,0,0,0,0,0,0,0,,,,,,0.0,,,,,,,,,,,,,,,
129,3468903,1745297721156,0.0433,,,,,,,,,,,,,,,,,,,,,,,0.0,0.0,0.0,0.0,0.0,0.0,0.0,0.0,2.26,,,0,0,0,0,0,0,0,0,0,0,0,0,0,0,0,0,,0.0,,,,,38.986023,-76.95002,0.08,48.7,33.0,3.0,0.8,0.0,0.0,-1.0,0.0,,0.0,0.0,0.0433
130,3468923,1745297721176,0.0436,0.0,-46.0,,-0.07,-0.14,1.19,0.0,0.0,0.0,1.2,1.2,100.0,2930.0,0.0,3.94,,13.29,1.17,86.2,,24.0,5.0,,,,,,,,,,,,0,0,0,0,0,0,0,0,0,0,0,0,0,0,0,0,,,,,,0.0,,,,,,,,,,,,,,,
131,3468943,1745297721198,0.044,,,,,,,,,,,,,,,,,,,,,,,,,,,,,,,,,,0,0,0,0,0,0,0,0,0,0,0,0,0,0,0,0,,,,,,,,,,,,,,,,,,,,,
132,3468963,1745297721218,0.0443,0.0,-57.0,,-0.05,-0.17,1.21,0.0,0.0,0.0,1.23,1.23,100.0,3044.0,0.0,3.43,,13.29,1.17,86.2,,24.5,5.0,,,,,,,,,,,,0,0,0,0,0,0,0,0,0,0,0,0,0,0,0,0,,,,,,0.0,,,,,,,,,,,,,,,
133,3468983,1745297721238,0.0446,,,,,,,,,,,,,,,,,,,,,,,,,,,,,,,,,,0,0,0,0,0,0,0,0,0,0,0,0,0,0,0,0,,,,,,,,,,,,,,,,,,,,,
134,3469003,1745297721258,0.045,0.0,-68.0,,-0.04,-0.18,1.23,0.0,0.0,1.0,1.24,1.24,100.0,3044.0,0.0,3.43,,12.91,1.207,86.2,,24.5,5.0,0.0,0.0,0.0,0.0,0.0,0.0,0.0,0.0,2.26,,,0,0,0,0,0,0,0,0,0,0,0,0,0,0,0,0,,0.0,,,,0.0,38.986023,-76.95002,0.05,48.7,33.0,3.0,0.8,0.0,0.0,-1.0,0.0,0.0,0.0,0.0,0.045
135,3469023,1745297721278,0.0453,,,,,,,,,,,,,,,,,,,,,,,,,,,,,,,,,,0,0,0,0,0,0,0,0,0,0,0,0,0,0,0,0,,,,,,,,,,,,,,,,,,,,,
136,3469043,1745297721300,0.0457,0.0,-53.0,,-0.02,-0.17,1.22,0.0,0.0,1.0,1.24,1.24,99.0,3003.0,0.0,3.4,,12.73,1.225,86.2,,24.5,5.0,,,,,,,,,,,,0,0,0,0,0,0,0,0,0,0,0,0,0,0,0,0,,,,,,0.0,,,,,,,,,,,,,,,
137,3469063,1745297721320,0.046,,,,,,,,,,,,,,,,,,,,,,,,,,,,,,,,,,0,0,0,0,0,0,0,0,0,0,0,0,0,0,0,0,,,,,,,,,,,,,,,,,,,,,
138,3469083,1745297721340,0.0463,0.0,-64.0,,-0.01,-0.12,1.2,-1.0,0.0,1.0,1.21,1.24,97.0,2923.0,2.6,3.62,,12.81,1.243,86.2,,24.5,5.0,,,,,,,,,,,,0,0,0,0,0,0,0,0,0,0,0,0,0,0,0,0,,,,,,0.0,,,,,,,,,,,,,,,
139,3469103,1745297721360,0.0466,,,,,,,,,,,,,,,,,,,,,,,0.0,0.0,0.0,0.0,0.0,0.0,0.0,0.0,2.26,,,0,0,0,0,0,0,0,0,0,0,0,0,0,0,0,0,,0.0,,,,,38.986023,-76.95002,0.11,48.7,33.0,3.0,0.8,0.0,0.0,-1.0,0.0,,0.0,0.0,0.0466
140,3469123,1745297721380,0.047,0.0,-57.0,,0.02,-0.06,1.14,-1.0,0.0,1.0,1.14,1.24,92.0,2892.0,9.0,4.43,,13.29,1.252,86.2,,24.5,5.0,,,,,,,,,,,,0,0,0,0,0,0,0,0,0,0,0,0,0,0,0,0,,,,,,0.0,,,,,,,,,,,,,,,
141,3469143,1745297721399,0.0473,,,,,,,,,,,,,,,,,,,,,,,,,,,,,,,,,,0,0,0,0,0,0,0,0,0,0,0,0,0,0,0,0,,,,,,,,,,,,,,,,,,,,,
142,3469163,1745297721419,0.0476,0.0,-61.0,,0.02,-0.03,1.04,0.0,0.0,1.0,1.04,1.24,84.0,2988.0,12.8,4.63,,13.29,1.252,86.2,,23.8,5.0,,,,,,,,,,,,0,0,0,0,0,0,0,0,0,0,0,0,0,0,0,0,,,,,,0.0,,,,,,,,,,,,,,,
143,3469183,1745297721439,0.048,,,,,,,,,,,,,,,,,,,,,,,,,,,,,,,,,,0,0,0,0,0,0,0,0,0,0,0,0,0,0,0,0,,,,,,,,,,,,,,,,,,,,,
144,3469203,1745297721459,0.0483,0.0,-53.0,,0.01,0.01,0.97,0.0,0.0,1.0,0.97,1.24,78.0,2988.0,12.8,4.63,,13.63,1.249,86.2,,23.8,5.0,0.0,0.0,0.0,0.0,0.0,0.0,0.0,0.0,2.25,,,0,0,0,0,0,0,0,0,0,0,0,0,0,0,0,0,,0.0,,,,0.0,38.986023,-76.95002,0.07,48.7,33.0,3.0,0.8,0.0,0.0,-1.0,0.0,0.0,0.0,0.0,0.0483
145,3469223,1745297721479,0.0486,,,,,,,,,,,,,,,,,,,,,,,,,,,,,,,,,,0,0,0,0,0,0,0,0,0,0,0,0,0,0,0,0,,,,,,,,,,,,,,,,,,,,,
146,3469243,1745297721499,0.049,0.0,-46.0,,-0.0,0.05,1.0,-1.0,0.0,1.0,1.01,1.24,81.0,3140.0,13.7,4.67,,13.67,1.216,86.2,,26.4,5.0,,,,,,,,,,,,0,0,0,0,0,0,0,0,0,0,0,0,0,0,0,0,,,,,,0.0,,,,,,,,,,,,,,,
147,3469263,1745297721519,0.0493,,,,,,,,,,,,,,,,,,,,,,,,,,,,,,,,,,0,0,0,0,0,0,0,0,0,0,0,0,0,0,0,0,,,,,,,,,,,,,,,,,,,,,
148,3469283,1745297721539,0.0496,0.0,-61.0,,-0.01,0.01,0.97,0.0,0.0,0.0,0.97,1.24,78.0,3341.0,13.3,4.64,,13.63,1.179,86.2,,26.4,5.0,,,,,,,,,,,,0,0,0,0,0,0,0,0,0,0,0,0,0,0,0,0,,,,,,0.0,,,,,,,,,,,,,,,
149,3469303,1745297721559,0.05,,,,,,,,,,,,,,,,,,,,,,,0.0,0.0,0.0,0.0,0.0,0.0,0.0,0.0,2.26,,,0,0,0,0,0,0,0,0,0,0,0,0,0,0,0,0,,0.0,,,,,38.986023,-76.95002,0.04,48.7,33.0,3.0,0.8,0.0,0.0,-1.0,0.0,,0.0,0.0,0.05
150,3469323,1745297721579,0.0503,0.0,-49.0,,-0.03,-0.02,1.03,0.0,0.0,1.0,1.03,1.24,83.0,3534.0,0.0,3.49,,13.07,1.149,86.2,,26.4,5.0,,,,,,,,,,,,0,0,0,0,0,0,0,0,0,0,0,0,0,0,0,0,,,,,,0.0,,,,,,,,,,,,,,,
151,3469343,1745297721599,0.0506,,,,,,,,,,,,,,,,,,,,,,,,,,,,,,,,,,0,0,0,0,0,0,0,0,0,0,0,0,0,0,0,0,,,,,,,,,,,,,,,,,,,,,
152,3469363,1745297721619,0.051,0.0,-76.0,,-0.02,0.02,0.99,0.0,0.0,1.0,1.0,1.24,80.0,3474.0,0.0,3.13,,13.07,1.149,86.2,,29.4,5.0,,,,,,,,,,,,0,0,0,0,0,0,0,0,0,0,0,0,0,0,0,0,,,,,,0.0,,,,,,,,,,,,,,,
153,3469383,1745297721639,0.0513,,,,,,,,,,,,,,,,,,,,,,,,,,,,,,,,,,0,0,0,0,0,0,0,0,0,0,0,0,0,0,0,0,,,,,,,,,,,,,,,,,,,,,
154,3469403,1745297721659,0.0516,0.0,-57.0,13.54,-0.04,-0.05,0.98,0.0,0.0,0.0,0.98,1.24,79.0,3474.0,0.0,3.13,15.0,12.53,1.131,86.2,167.0,29.4,5.0,0.0,0.0,0.0,0.0,0.0,0.0,0.0,0.0,2.26,0.0,1.0,0,0,0,0,0,0,0,0,0,0,0,0,0,0,0,0,0.0,0.0,1.0,0.0,0.0,0.0,38.986023,-76.95002,0.04,48.7,33.0,3.0,0.8,0.0,0.0,-1.0,0.0,0.0,0.0,0.0,0.0516
155,3469423,1745297721679,0.052,,,,,,,,,,,,,,,,,,,,,,,,,,,,,,,,,,0,0,0,0,0,0,0,0,0,0,0,0,0,0,0,0,,,,,,,,,,,,,,,,,,,,,
156,3469443,1745297721699,0.0523,0.0,-68.0,,-0.04,-0.04,1.02,0.0,0.0,1.0,1.02,1.24,82.0,3445.0,0.0,3.15,,12.32,1.124,86.2,,28.4,5.0,,,,,,,,,,,,0,0,0,0,0,0,0,0,0,0,0,0,0,0,0,0,,,,,,0.0,,,,,,,,,,,,,,,
157,3469463,1745297721719,0.0526,,,,,,,,,,,,,,,,,,,,,,,,,,,,,,,,,,0,0,0,0,0,0,0,0,0,0,0,0,0,0,0,0,,,,,,,,,,,,,,,,,,,,,
158,3469483,1745297721739,0.053,0.0,-53.0,,-0.05,-0.1,0.98,0.0,0.0,0.0,0.99,1.24,79.0,3393.0,0.0,3.17,,12.21,1.106,86.2,,28.4,5.0,,,,,,,,,,,,0,0,0,0,0,0,0,0,0,0,0,0,0,0,0,0,,,,,,0.0,,,,,,,,,,,,,,,
159,3469503,1745297721759,0.0533,,,,,,,,,,,,,,,,,,,,,,,0.0,0.0,0.0,0.0,0.0,0.0,0.0,0.0,2.26,,,0,0,0,0,0,0,0,0,0,0,0,0,0,0,0,0,,0.0,,,,,38.986023,-76.95002,0.05,48.7,33.0,3.0,0.8,0.0,0.0,-1.0,0.0,,0.0,0.0,0.0533
160,3469523,1745297721779,0.0536,0.0,-57.0,,-0.04,-0.02,0.96,0.0,0.0,1.0,0.96,1.24,77.0,3235.0,0.0,3.21,,12.16,1.111,86.2,,28.4,5.0,,,,,,,,,,,,0,0,0,0,0,0,0,0,0,0,0,0,0,0,0,0,,,,,,0.0,,,,,,,,,,,,,,,
161,3469543,1745297721799,0.054,,,,,,,,,,,,,,,,,,,,,,,,,,,,,,,,,,0,0,0,0,0,0,0,0,0,0,0,0,0,0,0,0,,,,,,,,,,,,,,,,,,,,,
162,3469563,1745297721819,0.0543,0.0,-57.0,,-0.04,-0.07,1.03,0.0,0.0,1.0,1.03,1.24,83.0,3194.0,0.0,3.25,,12.16,1.111,86.2,,26.7,5.0,,,,,,,,,,,,0,0,0,0,0,0,0,0,0,0,0,0,0,0,0,0,,,,,,0.0,,,,,,,,,,,,,,,
163,3469583,1745297721839,0.0546,,,,,,,,,,,,,,,,,,,,,,,,,,,,,,,,,,0,0,0,0,0,0,0,0,0,0,0,0,0,0,0,0,,,,,,,,,,,,,,,,,,,,,
164,3469603,1745297721859,0.055,0.0,-53.0,,-0.06,-0.12,1.07,0.0,0.0,0.0,1.08,1.24,87.0,3194.0,0.0,3.25,,12.15,1.119,86.2,,26.7,5.0,0.0,0.0,0.0,0.0,0.0,0.0,0.0,0.0,2.26,,,0,0,0,0,0,0,0,0,0,0,0,0,0,0,0,0,,0.0,,,,0.0,38.986023,-76.95002,0.0,48.7,33.0,3.0,0.8,0.0,0.0,-1.0,0.0,0.0,0.0,0.0,0.055
165,3469623,1745297721879,0.0553,,,,,,,,,,,,,,,,,,,,,,,,,,,,,,,,,,0,0,0,0,0,0,0,0,0,0,0,0,0,0,0,0,,,,,,,,,,,,,,,,,,,,,
166,3469643,1745297721899,0.0556,0.0,-53.0,,-0.08,-0.12,1.08,0.0,0.0,0.0,1.09,1.24,88.0,3133.0,0.0,3.29,,12.15,1.136,86.2,,25.5,5.0,,,,,,,,,,,,0,0,0,0,0,0,0,0,0,0,0,0,0,0,0,0,,,,,,0.0,,,,,,,,,,,,,,,
167,3469663,1745297721919,0.056,,,,,,,,,,,,,,,,,,,,,,,,,,,,,,,,,,0,0,0,0,0,0,0,0,0,0,0,0,0,0,0,0,,,,,,,,,,,,,,,,,,,,,
168,3469683,1745297721939,0.0563,0.0,-68.0,,-0.1,-0.12,1.12,0.0,0.0,0.0,1.13,1.24,91.0,2956.0,0.0,3.33,,12.27,1.123,86.2,,25.5,5.0,,,,,,,,,,,,0,0,0,0,0,0,0,0,0,0,0,0,0,0,0,0,,,,,,0.0,,,,,,,,,,,,,,,
169,3469703,1745297721959,0.0566,,,,,,,,,,,,,,,,,,,,,,,0.0,0.0,0.0,0.0,0.0,0.0,0.0,0.0,2.26,,,0,0,0,0,0,0,0,0,0,0,0,0,0,0,0,0,,0.0,,,,,38.986023,-76.95002,0.04,48.7,33.0,3.0,0.8,0.0,0.0,-1.0,0.0,,0.0,0.0,0.0566
170,3469723,1745297721979,0.057,0.0,-64.0,,-0.1,-0.13,1.16,0.0,0.0,0.0,1.17,1.24,94.0,2863.0,0.0,3.38,,12.52,1.121,86.2,,25.5,5.0,,,,,,,,,,,,0,0,0,0,0,0,0,0,0,0,0,0,0,0,0,0,,,,,,0.0,,,,,,,,,,,,,,,
171,3469743,1745297721999,0.0573,,,,,,,,,,,,,,,,,,,,,,,,,,,,,,,,,,0,0,0,0,0,0,0,0,0,0,0,0,0,0,0,0,,,,,,,,,,,,,,,,,,,,,
172,3469763,1745297722009,0.0576,0.0,-57.0,,-0.09,-0.09,1.13,0.0,0.0,1.0,1.13,1.24,91.0,2809.0,0.3,3.53,,12.52,1.121,86.2,,23.6,5.0,,,,,,,,,,,,0,0,0,0,0,0,0,0,0,0,0,0,0,0,0,0,,,,,,0.0,,,,,,,,,,,,,,,
173,3469783,1745297722029,0.058,,,,,,,,,,,,,,,,,,,,,,,,,,,,,,,,,,0,0,0,0,0,0,0,0,0,0,0,0,0,0,0,0,,,,,,,,,,,,,,,,,,,,,
174,3469803,1745297722049,0.0583,0.0,-49.0,,-0.08,-0.07,1.08,0.0,0.0,0.0,1.09,1.24,88.0,2809.0,0.3,3.53,,12.65,1.118,86.2,,23.6,5.0,0.0,0.0,0.0,0.0,0.0,0.0,0.0,0.0,2.26,,,0,0,0,0,0,0,0,0,0,0,0,0,0,0,0,0,,0.0,,,,0.0,38.986019,-76.95002,0.0,48.7,33.0,3.0,0.8,0.0,0.0,-1.0,0.0,0.0,0.0,0.0,0.0583
175,3469823,1745297722069,0.0586,,,,,,,,,,,,,,,,,,,,,,,,,,,,,,,,,,0,0,0,0,0,0,0,0,0,0,0,0,0,0,0,0,,,,,,,,,,,,,,,,,,,,,
176,3469843,1745297722097,0.059,0.0,-46.0,,-0.08,-0.09,1.1,0.0,0.0,0.0,1.1,1.24,89.0,2763.0,0.7,3.59,,12.8,1.115,86.2,,22.3,5.0,,,,,,,,,,,,0,0,0,0,0,0,0,0,0,0,0,0,0,0,0,0,,,,,,0.0,,,,,,,,,,,,,,,
177,3469863,1745297722117,0.0593,,,,,,,,,,,,,,,,,,,,,,,,,,,,,,,,,,0,0,0,0,0,0,0,0,0,0,0,0,0,0,0,0,,,,,,,,,,,,,,,,,,,,,
178,3469883,1745297722137,0.0596,0.0,-61.0,,-0.07,-0.07,1.05,0.0,0.0,0.0,1.06,1.24,85.0,2695.0,0.7,3.62,,12.95,1.118,86.2,,22.3,5.0,,,,,,,,,,,,0,0,0,0,0,0,0,0,0,0,0,0,0,0,0,0,,,,,,0.0,,,,,,,,,,,,,,,
179,3469903,1745297722157,0.06,,,,,,,,,,,,,,,,,,,,,,,0.0,0.0,0.0,0.0,0.0,0.0,0.0,0.0,2.26,,,0,0,0,0,0,0,0,0,0,0,0,0,0,0,0,0,,0.0,,,,,38.986019,-76.95002,0.09,48.7,33.0,3.0,0.8,0.0,0.0,-1.0,0.0,,0.0,0.0,0.06
180,3469923,1745297722177,0.0603,0.0,-42.0,,-0.08,-0.07,1.07,0.0,0.0,0.0,1.08,1.24,87.0,2681.0,0.8,3.68,,12.97,1.12,86.2,,22.3,5.0,,,,,,,,,,,,0,0,0,0,0,0,0,0,0,0,0,0,0,0,0,0,,,,,,0.0,,,,,,,,,,,,,,,
181,3469943,1745297722195,0.0606,,,,,,,,,,,,,,,,,,,,,,,,,,,,,,,,,,0,0,0,0,0,0,0,0,0,0,0,0,0,0,0,0,,,,,,,,,,,,,,,,,,,,,
182,3469963,1745297722215,0.061,0.0,-68.0,,-0.08,-0.05,1.05,0.0,0.0,0.0,1.05,1.24,85.0,2635.0,0.7,3.68,,12.97,1.12,86.2,,22.1,5.0,,,,,,,,,,,,0,0,0,0,0,0,0,0,0,0,0,0,0,0,0,0,,,,,,0.0,,,,,,,,,,,,,,,
183,3469983,1745297722235,0.0613,,,,,,,,,,,,,,,,,,,,,,,,,,,,,,,,,,0,0,0,0,0,0,0,0,0,0,0,0,0,0,0,0,,,,,,,,,,,,,,,,,,,,,
184,3470003,1745297722255,0.0616,0.0,-72.0,,-0.08,-0.05,1.05,0.0,0.0,0.0,1.06,1.24,85.0,2635.0,0.7,3.68,,13.05,1.12,86.2,,22.1,5.0,0.0,0.0,0.0,0.0,0.0,0.0,0.0,0.0,2.26,,,0,0,0,0,0,0,0,0,0,0,0,0,0,0,0,0,,0.0,,,,0.0,38.986019,-76.95002,0.04,48.7,33.0,3.0,0.8,0.0,0.0,-1.0,0.0,0.0,0.0,0.0,0.0616
185,3470023,1745297722275,0.062,,,,,,,,,,,,,,,,,,,,,,,,,,,,,,,,,,0,0,0,0,0,0,0,0,0,0,0,0,0,0,0,0,,,,,,,,,,,,,,,,,,,,,
186,3470043,1745297722299,0.0623,0.0,-57.0,,-0.08,-0.04,1.04,0.0,0.0,0.0,1.04,1.24,84.0,2611.0,6.5,4.32,,13.37,1.137,86.2,,22.4,5.0,,,,,,,,,,,,0,0,0,0,0,0,0,0,0,0,0,0,0,0,0,0,,,,,,0.0,,,,,,,,,,,,,,,
187,3470063,1745297722319,0.0626,,,,,,,,,,,,,,,,,,,,,,,,,,,,,,,,,,0,0,0,0,0,0,0,0,0,0,0,0,0,0,0,0,,,,,,,,,,,,,,,,,,,,,
188,3470083,1745297722339,0.063,0.0,-61.0,,-0.09,-0.05,1.02,0.0,0.0,0.0,1.02,1.24,82.0,2634.0,10.9,4.41,,13.67,1.135,86.2,,22.4,5.0,,,,,,,,,,,,0,0,0,0,0,0,0,0,0,0,0,0,0,0,0,0,,,,,,0.0,,,,,,,,,,,,,,,
189,3470103,1745297722359,0.0633,,,,,,,,,,,,,,,,,,,,,,,0.0,0.0,0.0,0.0,0.0,0.0,0.0,0.0,2.26,,,0,0,0,0,0,0,0,0,0,0,0,0,0,0,0,0,,0.0,,,,,38.986019,-76.95002,0.05,48.7,33.0,3.0,0.8,0.0,0.0,-1.0,0.0,,0.0,0.0,0.0633
190,3470123,1745297722379,0.0636,0.0,-53.0,,-0.09,-0.07,1.07,0.0,0.0,0.0,1.08,1.24,87.0,2724.0,18.2,5.02,,14.03,1.124,86.2,,22.4,5.0,,,,,,,,,,,,0,0,0,0,0,0,0,0,0,0,0,0,0,0,0,0,,,,,,0.0,,,,,,,,,,,,,,,
191,3470143,1745297722398,0.064,,,,,,,,,,,,,,,,,,,,,,,,,,,,,,,,,,0,0,0,0,0,0,0,0,0,0,0,0,0,0,0,0,,,,,,,,,,,,,,,,,,,,,
192,3470163,1745297722418,0.0643,0.0,-64.0,,-0.09,-0.1,1.12,0.0,0.0,0.0,1.12,1.24,90.0,3062.0,18.5,4.99,,14.03,1.124,86.2,,23.5,5.0,,,,,,,,,,,,0,0,0,0,0,0,0,0,0,0,0,0,0,0,0,0,,,,,,0.0,,,,,,,,,,,,,,,
193,3470183,1745297722438,0.0646,,,,,,,,,,,,,,,,,,,,,,,,,,,,,,,,,,0,0,0,0,0,0,0,0,0,0,0,0,0,0,0,0,,,,,,,,,,,,,,,,,,,,,
194,3470203,1745297722458,0.065,0.0,-64.0,,-0.09,-0.16,1.15,0.0,0.0,0.0,1.16,1.24,93.0,3062.0,18.5,4.99,,13.96,1.119,86.2,,23.5,5.0,0.0,0.0,0.0,0.0,0.0,0.0,0.0,0.0,2.26,,,0,0,0,0,0,0,0,0,0,0,0,0,0,0,0,0,,0.0,,,,0.0,38.986019,-76.95002,0.0,48.7,33.0,3.0,0.8,0.0,0.0,-1.0,0.0,0.0,0.0,0.0,0.065
195,3470223,1745297722478,0.0653,,,,,,,,,,,,,,,,,,,,,,,,,,,,,,,,,,0,0,0,0,0,0,0,0,0,0,0,0,0,0,0,0,,,,,,,,,,,,,,,,,,,,,
196,3470243,1745297722498,0.0656,0.0,-49.0,,-0.07,-0.05,1.1,0.0,0.0,0.0,1.1,1.24,89.0,3304.0,18.8,4.88,,13.9,1.112,86.2,,28.5,5.0,,,,,,,,,,,,0,0,0,0,0,0,0,0,0,0,0,0,0,0,0,0,,,,,,0.0,,,,,,,,,,,,,,,
197,3470263,1745297722518,0.066,,,,,,,,,,,,,,,,,,,,,,,,,,,,,,,,,,0,0,0,0,0,0,0,0,0,0,0,0,0,0,0,0,,,,,,,,,,,,,,,,,,,,,
198,3470283,1745297722538,0.0663,0.0,-61.0,,-0.07,-0.04,1.05,0.0,0.0,0.0,1.05,1.24,85.0,3514.0,7.9,4.65,,13.53,1.114,86.2,,28.5,5.0,,,,,,,,,,,,0,0,0,0,0,0,0,0,0,0,0,0,0,0,0,0,,,,,,0.0,,,,,,,,,,,,,,,
199,3470303,1745297722558,0.0667,,,,,,,,,,,,,,,,,,,,,,,0.0,0.0,0.0,0.0,0.0,0.0,0.0,0.0,2.25,,,0,0,0,0,0,0,0,0,0,0,0,0,0,0,0,0,,0.0,,,,,38.986019,-76.95002,0.07,48.7,33.0,3.0,0.8,0.0,0.0,-1.0,0.0,,0.0,0.0,0.0667
200,3470323,1745297722578,0.067,0.0,-53.0,,-0.08,-0.03,1.04,0.0,0.0,0.0,1.04,1.24,84.0,3708.0,0.0,2.99,,12.77,1.106,86.2,,28.5,5.0,,,,,,,,,,,,0,0,0,0,0,0,0,0,0,0,0,0,0,0,0,0,,,,,,0.0,,,,,,,,,,,,,,,
201,3470343,1745297722598,0.0673,,,,,,,,,,,,,,,,,,,,,,,,,,,,,,,,,,0,0,0,0,0,0,0,0,0,0,0,0,0,0,0,0,,,,,,,,,,,,,,,,,,,,,
202,3470363,1745297722618,0.0676,0.0,-64.0,,-0.08,-0.02,1.03,0.0,0.0,0.0,1.03,1.24,83.0,3726.0,0.0,2.96,,12.77,1.106,86.2,,31.4,5.0,,,,,,,,,,,,0,0,0,0,0,0,0,0,0,0,0,0,0,0,0,0,,,,,,0.0,,,,,,,,,,,,,,,
203,3470383,1745297722638,0.068,,,,,,,,,,,,,,,,,,,,,,,,,,,,,,,,,,0,0,0,0,0,0,0,0,0,0,0,0,0,0,0,0,,,,,,,,,,,,,,,,,,,,,
204,3470403,1745297722658,0.0683,0.0,-80.0,13.56,-0.09,-0.05,1.0,1.0,0.0,0.0,1.01,1.24,81.0,3726.0,0.0,2.96,15.0,12.2,1.089,86.2,167.0,31.4,5.0,0.0,0.0,0.0,0.0,0.0,0.0,0.0,0.0,2.25,0.0,1.0,0,0,0,0,0,0,0,0,0,0,0,0,0,0,0,0,0.0,0.0,1.0,0.0,0.0,0.0,38.986019,-76.95002,0.04,48.7,33.0,3.0,0.8,0.0,0.0,-1.0,0.0,0.0,0.0,0.0,0.0683
205,3470423,1745297722678,0.0686,,,,,,,,,,,,,,,,,,,,,,,,,,,,,,,,,,0,0,0,0,0,0,0,0,0,0,0,0,0,0,0,0,,,,,,,,,,,,,,,,,,,,,
206,3470443,1745297722698,0.069,0.0,-42.0,,-0.1,-0.13,1.04,0.0,0.0,0.0,1.06,1.24,85.0,3613.0,0.0,2.94,,11.91,1.078,86.2,,30.5,5.0,,,,,,,,,,,,0,0,0,0,0,0,0,0,0,0,0,0,0,0,0,0,,,,,,0.0,,,,,,,,,,,,,,,
207,3470463,1745297722718,0.0693,,,,,,,,,,,,,,,,,,,,,,,,,,,,,,,,,,0,0,0,0,0,0,0,0,0,0,0,0,0,0,0,0,,,,,,,,,,,,,,,,,,,,,
208,3470483,1745297722738,0.0696,0.0,-53.0,,-0.09,-0.02,1.05,0.0,0.0,0.0,1.05,1.24,85.0,3536.0,0.0,2.99,,11.87,1.092,86.2,,30.5,5.0,,,,,,,,,,,,0,0,0,0,0,0,0,0,0,0,0,0,0,0,0,0,,,,,,0.0,,,,,,,,,,,,,,,
209,3470503,1745297722758,0.07,,,,,,,,,,,,,,,,,,,,,,,0.0,0.0,0.0,0.0,0.0,0.0,0.0,0.0,2.26,,,0,0,0,0,0,0,0,0,0,0,0,0,0,0,0,0,,0.0,,,,,38.986019,-76.95002,0.04,48.7,33.0,3.0,0.8,0.0,0.0,-1.0,0.0,,0.0,0.0,0.07
210,3470523,1745297722778,0.0703,0.0,-49.0,,-0.1,-0.04,1.0,1.0,0.0,0.0,1.0,1.24,81.0,3386.0,0.0,3.04,,11.93,1.132,86.2,,30.5,5.0,,,,,,,,,,,,0,0,0,0,0,0,0,0,0,0,0,0,0,0,0,0,,,,,,0.0,,,,,,,,,,,,,,,
211,3470543,1745297722798,0.0706,,,,,,,,,,,,,,,,,,,,,,,,,,,,,,,,,,0,0,0,0,0,0,0,0,0,0,0,0,0,0,0,0,,,,,,,,,,,,,,,,,,,,,
212,3470563,1745297722818,0.071,0.0,-57.0,,-0.08,0.03,1.04,0.0,0.0,0.0,1.04,1.24,84.0,3284.0,1.6,3.34,,11.93,1.132,86.2,,28.5,5.0,,,,,,,,,,,,0,0,0,0,0,0,0,0,0,0,0,0,0,0,0,0,,,,,,0.0,,,,,,,,,,,,,,,
213,3470583,1745297722838,0.0713,,,,,,,,,,,,,,,,,,,,,,,,,,,,,,,,,,0,0,0,0,0,0,0,0,0,0,0,0,0,0,0,0,,,,,,,,,,,,,,,,,,,,,
214,3470603,1745297722858,0.0716,0.0,-64.0,,-0.1,-0.08,1.04,0.0,0.0,0.0,1.05,1.24,84.0,3284.0,1.6,3.34,,12.19,1.176,86.2,,28.5,5.0,0.0,0.0,0.0,0.0,0.0,0.0,0.0,0.0,2.26,,,0,0,0,0,0,0,0,0,0,0,0,0,0,0,0,0,,0.0,,,,0.0,38.986019,-76.95002,0.0,48.7,33.0,3.0,0.8,0.0,0.0,-1.0,0.0,0.0,0.0,0.0,0.0716
215,3470623,1745297722878,0.072,,,,,,,,,,,,,,,,,,,,,,,,,,,,,,,,,,0,0,0,0,0,0,0,0,0,0,0,0,0,0,0,0,,,,,,,,,,,,,,,,,,,,,
216,3470643,1745297722898,0.0723,0.0,-53.0,,-0.08,0.01,1.03,0.0,0.0,0.0,1.04,1.24,83.0,3436.0,2.6,3.73,,12.39,1.213,86.2,,28.0,5.0,,,,,,,,,,,,0,0,0,0,0,0,0,0,0,0,0,0,0,0,0,0,,,,,,0.0,,,,,,,,,,,,,,,
217,3470663,1745297722918,0.0726,,,,,,,,,,,,,,,,,,,,,,,,,,,,,,,,,,0,0,0,0,0,0,0,0,0,0,0,0,0,0,0,0,,,,,,,,,,,,,,,,,,,,,
218,3470683,1745297722938,0.073,0.0,-61.0,,-0.09,-0.06,1.06,0.0,0.0,0.0,1.07,1.24,86.0,3289.0,2.7,3.72,,12.51,1.228,86.2,,28.0,5.0,,,,,,,,,,,,0,0,0,0,0,0,0,0,0,0,0,0,0,0,0,0,,,,,,0.0,,,,,,,,,,,,,,,
219,3470703,1745297722958,0.0733,,,,,,,,,,,,,,,,,,,,,,,0.0,0.0,0.0,0.0,0.0,0.0,0.0,0.0,2.26,,,0,0,0,0,0,0,0,0,0,0,0,0,0,0,0,0,,0.0,,,,,38.986019,-76.95002,0.0,48.7,33.0,3.0,0.8,0.0,0.0,-1.0,0.0,,0.0,0.0,0.0733
220,3470723,1745297722978,0.0736,0.0,-46.0,,-0.09,-0.01,0.98,0.0,0.0,0.0,0.98,1.24,79.0,3286.0,3.7,3.97,,12.68,1.118,86.2,,28.0,5.0,,,,,,,,,,,,0,0,0,0,0,0,0,0,0,0,0,0,0,0,0,0,,,,,,0.0,,,,,,,,,,,,,,,
221,3470743,1745297722998,0.074,,,,,,,,,,,,,,,,,,,,,,,,,,,,,,,,,,0,0,0,0,0,0,0,0,0,0,0,0,0,0,0,0,,,,,,,,,,,,,,,,,,,,,
222,3470763,1745297723010,0.0743,0.0,-61.0,,-0.06,0.01,1.05,0.0,0.0,0.0,1.05,1.24,84.0,3275.0,4.2,4.03,,12.68,1.118,86.2,,27.0,5.0,,,,,,,,,,,,0,0,0,0,0,0,0,0,0,0,0,0,0,0,0,0,,,,,,0.0,,,,,,,,,,,,,,,
223,3470783,1745297723030,0.0746,,,,,,,,,,,,,,,,,,,,,,,,,,,,,,,,,,0,0,0,0,0,0,0,0,0,0,0,0,0,0,0,0,,,,,,,,,,,,,,,,,,,,,
224,3470803,1745297723050,0.075,0.0,-57.0,,-0.09,-0.06,1.07,0.0,0.0,0.0,1.08,1.24,87.0,3275.0,4.2,4.03,,12.76,1.084,86.2,,27.0,5.0,0.0,0.0,0.0,0.0,0.0,0.0,0.0,0.0,2.25,,,0,0,0,0,0,0,0,0,0,0,0,0,0,0,0,0,,0.0,,,,0.0,38.986019,-76.95002,0.05,48.7,33.0,3.0,0.8,0.0,0.0,-1.0,0.0,0.0,0.0,0.0,0.075
225,3470823,1745297723070,0.0753,,,,,,,,,,,,,,,,,,,,,,,,,,,,,,,,,,0,0,0,0,0,0,0,0,0,0,0,0,0,0,0,0,,,,,,,,,,,,,,,,,,,,,
226,3470843,1745297723098,0.0756,0.0,-38.0,,-0.1,-0.04,0.99,0.0,0.0,0.0,0.99,1.24,80.0,3204.0,4.3,4.01,,12.87,1.057,86.2,,26.8,5.0,,,,,,,,,,,,0,0,0,0,0,0,0,0,0,0,0,0,0,0,0,0,,,,,,0.0,,,,,,,,,,,,,,,
227,3470863,1745297723118,0.076,,,,,,,,,,,,,,,,,,,,,,,,,,,,,,,,,,0,0,0,0,0,0,0,0,0,0,0,0,0,0,0,0,,,,,,,,,,,,,,,,,,,,,
228,3470883,1745297723138,0.0763,0.0,-38.0,,-0.08,0.01,0.99,0.0,0.0,0.0,0.99,1.24,80.0,3237.0,0.0,3.14,,12.57,1.065,86.2,,26.8,5.0,,,,,,,,,,,,0,0,0,0,0,0,0,0,0,0,0,0,0,0,0,0,,,,,,0.0,,,,,,,,,,,,,,,
229,3470903,1745297723158,0.0766,,,,,,,,,,,,,,,,,,,,,,,0.0,0.0,0.0,0.0,0.0,0.0,0.0,0.0,2.25,,,0,0,0,0,0,0,0,0,0,0,0,0,0,0,0,0,,0.0,,,,,38.986019,-76.95002,0.05,48.7,33.0,3.0,0.8,0.0,0.0,-1.0,0.0,,0.0,0.0,0.0766
230,3470923,1745297723178,0.077,0.0,-53.0,,-0.07,-0.02,1.07,0.0,0.0,0.0,1.07,1.24,86.0,3214.0,0.0,3.11,,12.35,1.069,86.2,,26.8,5.0,,,,,,,,,,,,0,0,0,0,0,0,0,0,0,0,0,0,0,0,0,0,,,,,,0.0,,,,,,,,,,,,,,,
231,3470943,1745297723192,0.0773,,,,,,,,,,,,,,,,,,,,,,,,,,,,,,,,,,0,0,0,0,0,0,0,0,0,0,0,0,0,0,0,0,,,,,,,,,,,,,,,,,,,,,
232,3470963,1745297723212,0.0777,0.0,-57.0,,-0.09,-0.07,1.13,0.0,0.0,0.0,1.13,1.24,91.0,3090.0,0.0,3.11,,12.35,1.069,86.2,,26.6,5.0,,,,,,,,,,,,0,0,0,0,0,0,0,0,0,0,0,0,0,0,0,0,,,,,,0.0,,,,,,,,,,,,,,,
233,3470983,1745297723232,0.078,,,,,,,,,,,,,,,,,,,,,,,,,,,,,,,,,,0,0,0,0,0,0,0,0,0,0,0,0,0,0,0,0,,,,,,,,,,,,,,,,,,,,,
234,3471003,1745297723252,0.0783,0.0,-57.0,,-0.11,-0.1,1.12,0.0,0.0,0.0,1.13,1.24,91.0,3090.0,0.0,3.11,,12.28,1.073,86.2,,26.6,5.0,0.0,0.0,0.0,0.0,0.0,0.0,0.0,0.0,2.26,,,0,0,0,0,0,0,0,0,0,0,0,0,0,0,0,0,,0.0,,,,0.0,38.986019,-76.95002,0.0,48.7,33.0,3.0,0.8,0.0,0.0,-1.0,0.0,0.0,0.0,0.0,0.0783
235,3471023,1745297723272,0.0786,,,,,,,,,,,,,,,,,,,,,,,,,,,,,,,,,,0,0,0,0,0,0,0,0,0,0,0,0,0,0,0,0,,,,,,,,,,,,,,,,,,,,,
236,3471043,1745297723298,0.079,0.0,-53.0,,-0.14,-0.09,1.1,0.0,0.0,0.0,1.11,1.24,89.0,3062.0,0.0,3.1,,12.25,1.087,86.2,,25.1,5.0,,,,,,,,,,,,0,0,0,0,0,0,0,0,0,0,0,0,0,0,0,0,,,,,,0.0,,,,,,,,,,,,,,,
237,3471063,1745297723318,0.0793,,,,,,,,,,,,,,,,,,,,,,,,,,,,,,,,,,0,0,0,0,0,0,0,0,0,0,0,0,0,0,0,0,,,,,,,,,,,,,,,,,,,,,
238,3471083,1745297723338,0.0796,0.0,-53.0,,-0.16,-0.09,1.1,0.0,0.0,0.0,1.11,1.24,89.0,2993.0,1.6,3.27,,12.47,1.107,86.2,,25.1,5.0,,,,,,,,,,,,0,0,0,0,0,0,0,0,0,0,0,0,0,0,0,0,,,,,,0.0,,,,,,,,,,,,,,,
239,3471103,1745297723358,0.08,,,,,,,,,,,,,,,,,,,,,,,0.0,0.0,0.0,0.0,0.0,0.0,0.0,0.0,2.26,,,0,0,0,0,0,0,0,0,0,0,0,0,0,0,0,0,,0.0,,,,,38.986019,-76.95002,0.05,48.7,33.0,3.0,0.8,0.0,0.0,-1.0,0.0,,0.0,0.0,0.08
240,3471123,1745297723378,0.0803,0.0,-53.0,,-0.18,-0.11,1.13,0.0,0.0,0.0,1.15,1.24,93.0,2928.0,6.6,4.05,,12.91,1.128,86.2,,25.1,5.0,,,,,,,,,,,,0,0,0,0,0,0,0,0,0,0,0,0,0,0,0,0,,,,,,0.0,,,,,,,,,,,,,,,
241,3471143,1745297723399,0.0806,,,,,,,,,,,,,,,,,,,,,,,,,,,,,,,,,,0,0,0,0,0,0,0,0,0,0,0,0,0,0,0,0,,,,,,,,,,,,,,,,,,,,,
242,3471163,1745297723419,0.081,0.0,-53.0,,-0.17,-0.12,1.18,0.0,0.0,0.0,1.2,1.24,97.0,2893.0,7.8,4.13,,12.91,1.128,86.2,,24.1,5.0,,,,,,,,,,,,0,0,0,0,0,0,0,0,0,0,0,0,0,0,0,0,,,,,,0.0,,,,,,,,,,,,,,,
243,3471183,1745297723439,0.0813,,,,,,,,,,,,,,,,,,,,,,,,,,,,,,,,,,0,0,0,0,0,0,0,0,0,0,0,0,0,0,0,0,,,,,,,,,,,,,,,,,,,,,
244,3471203,1745297723459,0.0816,0.0,-34.0,,-0.15,-0.14,1.21,0.0,0.0,0.0,1.23,1.24,99.0,2893.0,7.8,4.13,,13.25,1.143,86.2,,24.1,5.0,0.0,0.0,0.0,0.0,0.0,0.0,0.0,0.0,2.27,,,0,0,0,0,0,0,0,0,0,0,0,0,0,0,0,0,,0.0,,,,0.0,38.986019,-76.95002,0.08,48.7,33.0,3.0,0.8,0.0,0.0,-1.0,0.0,0.0,0.0,0.0,0.0816
245,3471223,1745297723479,0.082,,,,,,,,,,,,,,,,,,,,,,,,,,,,,,,,,,0,0,0,0,0,0,0,0,0,0,0,0,0,0,0,0,,,,,,,,,,,,,,,,,,,,,
246,3471243,1745297723497,0.0823,0.0,-46.0,,-0.12,-0.15,1.23,0.0,0.0,0.0,1.25,1.25,100.0,2929.0,8.0,4.14,,13.41,1.153,86.2,,24.7,5.0,,,,,,,,,,,,0,0,0,0,0,0,0,0,0,0,0,0,0,0,0,0,,,,,,0.0,,,,,,,,,,,,,,,
247,3471263,1745297723517,0.0826,,,,,,,,,,,,,,,,,,,,,,,,,,,,,,,,,,0,0,0,0,0,0,0,0,0,0,0,0,0,0,0,0,,,,,,,,,,,,,,,,,,,,,
248,3471283,1745297723537,0.083,0.0,-53.0,,-0.11,-0.21,1.27,0.0,0.0,0.0,1.29,1.29,100.0,3097.0,8.1,4.13,,13.39,1.147,86.2,,24.7,5.0,,,,,,,,,,,,0,0,0,0,0,0,0,0,0,0,0,0,0,0,0,0,,,,,,0.0,,,,,,,,,,,,,,,
249,3471303,1745297723557,0.0833,,,,,,,,,,,,,,,,,,,,,,,0.0,0.0,0.0,0.0,0.0,0.0,0.0,0.0,2.26,,,0,0,0,0,0,0,0,0,0,0,0,0,0,0,0,0,,0.0,,,,,38.986019,-76.95002,0.04,48.7,33.0,3.0,0.8,0.0,0.0,-1.0,0.0,,0.0,0.0,0.0833
250,3471323,1745297723577,0.0836,0.0,-46.0,,-0.13,-0.23,1.23,0.0,0.0,0.0,1.26,1.29,97.0,3201.0,8.3,4.13,,13.36,1.138,86.2,,24.7,5.0,,,,,,,,,,,,0,0,0,0,0,0,0,0,0,0,0,0,0,0,0,0,,,,,,0.0,,,,,,,,,,,,,,,
251,3471343,1745297723599,0.084,,,,,,,,,,,,,,,,,,,,,,,,,,,,,,,,,,0,0,0,0,0,0,0,0,0,0,0,0,0,0,0,0,,,,,,,,,,,,,,,,,,,,,
252,3471363,1745297723619,0.0843,0.0,-8.0,,-0.1,-0.09,1.14,0.0,0.0,0.0,1.14,1.29,88.0,3257.0,8.3,4.1,,13.36,1.138,86.2,,26.8,5.0,,,,,,,,,,,,0,0,0,0,0,0,0,0,0,0,0,0,0,0,0,0,,,,,,0.0,,,,,,,,,,,,,,,
253,3471383,1745297723639,0.0846,,,,,,,,,,,,,,,,,,,,,,,,,,,,,,,,,,0,0,0,0,0,0,0,0,0,0,0,0,0,0,0,0,,,,,,,,,,,,,,,,,,,,,
254,3471403,1745297723659,0.085,0.0,-46.0,13.62,-0.11,-0.19,1.19,0.0,0.0,0.0,1.21,1.29,93.0,3257.0,8.3,4.1,15.0,13.33,1.121,86.2,167.0,26.8,5.0,0.0,0.0,0.0,0.0,0.0,0.0,0.0,0.0,2.26,0.0,1.0,0,0,0,0,0,0,0,0,0,0,0,0,0,0,0,0,0.0,0.0,1.0,0.0,0.0,0.0,38.986019,-76.95002,0.0,48.7,33.0,3.0,0.8,0.0,0.0,-1.0,0.0,0.0,0.0,0.0,0.085
255,3471423,1745297723679,0.0853,,,,,,,,,,,,,,,,,,,,,,,,,,,,,,,,,,0,0,0,0,0,0,0,0,0,0,0,0,0,0,0,0,,,,,,,,,,,,,,,,,,,,,
256,3471443,1745297723699,0.0856,0.0,-34.0,,-0.1,-0.08,1.12,0.0,0.0,0.0,1.13,1.29,87.0,3407.0,8.4,4.09,,13.28,1.129,86.2,,28.3,5.0,,,,,,,,,,,,0,0,0,0,0,0,0,0,0,0,0,0,0,0,0,0,,,,,,0.0,,,,,,,,,,,,,,,
257,3471463,1745297723719,0.086,,,,,,,,,,,,,,,,,,,,,,,,,,,,,,,,,,0,0,0,0,0,0,0,0,0,0,0,0,0,0,0,0,,,,,,,,,,,,,,,,,,,,,
258,3471483,1745297723739,0.0863,0.0,-46.0,,-0.1,-0.19,1.13,0.0,0.0,0.0,1.15,1.29,89.0,3383.0,8.4,4.06,,13.27,1.126,86.2,,28.3,5.0,,,,,,,,,,,,0,0,0,0,0,0,0,0,0,0,0,0,0,0,0,0,,,,,,0.0,,,,,,,,,,,,,,,
259,3471503,1745297723759,0.0866,,,,,,,,,,,,,,,,,,,,,,,0.0,0.0,0.0,0.0,0.0,0.0,0.0,0.0,2.26,,,0,0,0,0,0,0,0,0,0,0,0,0,0,0,0,0,,0.0,,,,,38.986019,-76.95002,0.04,48.7,33.0,3.0,0.8,0.0,0.0,-1.0,0.0,,0.0,0.0,0.0866
260,3471523,1745297723779,0.087,0.0,-53.0,,-0.09,-0.08,1.13,0.0,0.0,0.0,1.14,1.29,88.0,3502.0,8.4,4.07,,13.24,1.126,86.2,,28.3,5.0,,,,,,,,,,,,0,0,0,0,0,0,0,0,0,0,0,0,0,0,0,0,,,,,,0.0,,,,,,,,,,,,,,,
261,3471543,1745297723799,0.0873,,,,,,,,,,,,,,,,,,,,,,,,,,,,,,,,,,0,0,0,0,0,0,0,0,0,0,0,0,0,0,0,0,,,,,,,,,,,,,,,,,,,,,
262,3471563,1745297723819,0.0876,0.0,-49.0,,-0.08,-0.02,1.06,0.0,0.0,0.0,1.06,1.29,82.0,3520.0,8.3,4.03,,13.24,1.126,86.2,,29.2,5.0,,,,,,,,,,,,0,0,0,0,0,0,0,0,0,0,0,0,0,0,0,0,,,,,,0.0,,,,,,,,,,,,,,,
263,3471583,1745297723839,0.088,,,,,,,,,,,,,,,,,,,,,,,,,,,,,,,,,,0,0,0,0,0,0,0,0,0,0,0,0,0,0,0,0,,,,,,,,,,,,,,,,,,,,,
264,3471603,1745297723859,0.0883,0.0,-42.0,,-0.11,-0.03,1.08,0.0,0.0,0.0,1.08,1.29,84.0,3520.0,8.3,4.03,,13.11,1.117,86.2,,29.2,5.0,0.0,0.0,0.0,0.0,0.0,0.0,0.0,0.0,2.26,,,0,0,0,0,0,0,0,0,0,0,0,0,0,0,0,0,,0.0,,,,0.0,38.986019,-76.95002,0.08,48.7,33.0,3.0,0.8,0.0,0.0,-1.0,0.0,0.0,0.0,0.0,0.0883
265,3471623,1745297723879,0.0887,,,,,,,,,,,,,,,,,,,,,,,,,,,,,,,,,,0,0,0,0,0,0,0,0,0,0,0,0,0,0,0,0,,,,,,,,,,,,,,,,,,,,,
266,3471643,1745297723899,0.089,0.0,-49.0,,-0.11,-0.02,1.1,-1.0,0.0,0.0,1.1,1.29,85.0,3547.0,3.0,3.6,,12.96,1.108,86.2,,29.4,5.0,,,,,,,,,,,,0,0,0,0,0,0,0,0,0,0,0,0,0,0,0,0,,,,,,0.0,,,,,,,,,,,,,,,
267,3471663,1745297723919,0.0893,,,,,,,,,,,,,,,,,,,,,,,,,,,,,,,,,,0,0,0,0,0,0,0,0,0,0,0,0,0,0,0,0,,,,,,,,,,,,,,,,,,,,,
268,3471683,1745297723939,0.0896,0.0,-53.0,,-0.08,0.0,1.07,0.0,0.0,0.0,1.07,1.29,83.0,3519.0,0.0,2.82,,12.48,1.113,86.2,,29.4,5.0,,,,,,,,,,,,0,0,0,0,0,0,0,0,0,0,0,0,0,0,0,0,,,,,,0.0,,,,,,,,,,,,,,,
269,3471703,1745297723959,0.09,,,,,,,,,,,,,,,,,,,,,,,0.0,0.0,0.0,0.0,0.0,0.0,0.0,0.0,2.26,,,0,0,0,0,0,0,0,0,0,0,0,0,0,0,0,0,,0.0,,,,,38.986019,-76.95002,0.04,48.7,33.0,3.0,0.8,0.0,0.0,-1.0,0.0,,0.0,0.0,0.09
270,3471723,1745297723979,0.0903,0.0,-34.0,,-0.09,-0.14,1.03,0.0,0.0,0.0,1.05,1.29,81.0,3452.0,0.0,2.83,,12.28,1.107,86.2,,29.4,5.0,,,,,,,,,,,,0,0,0,0,0,0,0,0,0,0,0,0,0,0,0,0,,,,,,0.0,,,,,,,,,,,,,,,
271,3471743,1745297723991,0.0906,,,,,,,,,,,,,,,,,,,,,,,,,,,,,,,,,,0,0,0,0,0,0,0,0,0,0,0,0,0,0,0,0,,,,,,,,,,,,,,,,,,,,,
272,3471763,1745297724011,0.091,0.0,-57.0,,-0.07,-0.09,1.04,0.0,0.0,0.0,1.04,1.29,81.0,3373.0,0.0,2.86,,12.28,1.107,86.2,,28.4,5.0,,,,,,,,,,,,0,0,0,0,0,0,0,0,0,0,0,0,0,0,0,0,,,,,,0.0,,,,,,,,,,,,,,,
273,3471783,1745297724031,0.0913,,,,,,,,,,,,,,,,,,,,,,,,,,,,,,,,,,0,0,0,0,0,0,0,0,0,0,0,0,0,0,0,0,,,,,,,,,,,,,,,,,,,,,
274,3471803,1745297724051,0.0916,0.0,-57.0,,-0.09,-0.16,1.07,0.0,0.0,0.0,1.09,1.29,84.0,3373.0,0.0,2.86,,12.16,1.099,86.2,,28.4,5.0,0.0,0.0,0.0,0.0,0.0,0.0,0.0,0.0,2.26,,,0,0,0,0,0,0,0,0,0,0,0,0,0,0,0,0,,0.0,,,,0.0,38.986019,-76.95002,0.04,48.7,33.0,3.0,0.8,0.0,0.0,-1.0,0.0,0.0,0.0,0.0,0.0916
275,3471823,1745297724071,0.092,,,,,,,,,,,,,,,,,,,,,,,,,,,,,,,,,,0,0,0,0,0,0,0,0,0,0,0,0,0,0,0,0,,,,,,,,,,,,,,,,,,,,,
276,3471843,1745297724091,0.0923,0.0,-46.0,,-0.1,-0.12,0.98,1.0,0.0,0.0,0.99,1.29,77.0,3244.0,0.0,2.88,,12.19,1.121,86.2,,26.8,5.0,,,,,,,,,,,,0,0,0,0,0,0,0,0,0,0,0,0,0,0,0,0,,,,,,0.0,,,,,,,,,,,,,,,
277,3471863,1745297724109,0.0926,,,,,,,,,,,,,,,,,,,,,,,,,,,,,,,,,,0,0,0,0,0,0,0,0,0,0,0,0,0,0,0,0,,,,,,,,,,,,,,,,,,,,,
278,3471883,1745297724129,0.093,0.0,-64.0,,-0.08,-0.04,0.95,0.0,0.0,0.0,0.95,1.29,73.0,3177.0,2.3,3.42,,12.4,1.155,86.2,,26.8,5.0,,,,,,,,,,,,0,0,0,0,0,0,0,0,0,0,0,0,0,0,0,0,,,,,,0.0,,,,,,,,,,,,,,,
279,3471903,1745297724149,0.0933,,,,,,,,,,,,,,,,,,,,,,,0.0,0.0,0.0,0.0,0.0,0.0,0.0,0.0,2.26,,,0,0,0,0,0,0,0,0,0,0,0,0,0,0,0,0,,0.0,,,,,38.986019,-76.95002,0.0,48.7,33.0,3.0,0.8,0.0,0.0,-1.0,0.0,,0.0,0.0,0.0933
280,3471923,1745297724169,0.0936,0.0,-53.0,,-0.06,-0.01,0.98,0.0,0.0,0.0,0.98,1.29,76.0,3115.0,3.9,3.6,,12.68,1.17,86.2,,26.8,5.0,,,,,,,,,,,,0,0,0,0,0,0,0,0,0,0,0,0,0,0,0,0,,,,,,0.0,,,,,,,,,,,,,,,
281,3471943,1745297724195,0.094,,,,,,,,,,,,,,,,,,,,,,,,,,,,,,,,,,0,0,0,0,0,0,0,0,0,0,0,0,0,0,0,0,,,,,,,,,,,,,,,,,,,,,
282,3471963,1745297724215,0.0943,0.0,-68.0,,-0.05,-0.03,1.04,1.0,0.0,0.0,1.05,1.29,81.0,3053.0,4.4,3.79,,12.68,1.17,86.2,,25.6,5.0,,,,,,,,,,,,0,0,0,0,0,0,0,0,0,0,0,0,0,0,0,0,,,,,,0.0,,,,,,,,,,,,,,,
283,3471983,1745297724235,0.0946,,,,,,,,,,,,,,,,,,,,,,,,,,,,,,,,,,0,0,0,0,0,0,0,0,0,0,0,0,0,0,0,0,,,,,,,,,,,,,,,,,,,,,
284,3472003,1745297724255,0.095,0.0,-64.0,,-0.04,-0.14,1.09,0.0,0.0,0.0,1.1,1.29,85.0,3053.0,4.4,3.79,,12.89,1.186,86.2,,25.6,5.0,0.0,0.0,0.0,0.0,0.0,0.0,0.0,0.0,2.26,,,0,0,0,0,0,0,0,0,0,0,0,0,0,0,0,0,,0.0,,,,0.0,38.986019,-76.95002,0.0,48.7,33.0,3.0,0.8,0.0,0.0,-1.0,0.0,0.0,0.0,0.0,0.095
285,3472023,1745297724275,0.0953,,,,,,,,,,,,,,,,,,,,,,,,,,,,,,,,,,0,0,0,0,0,0,0,0,0,0,0,0,0,0,0,0,,,,,,,,,,,,,,,,,,,,,
286,3472043,1745297724299,0.0956,0.0,-57.0,,-0.04,0.0,1.02,1.0,0.0,0.0,1.02,1.29,79.0,3394.0,4.8,3.79,,12.93,1.201,86.2,,27.6,5.0,,,,,,,,,,,,0,0,0,0,0,0,0,0,0,0,0,0,0,0,0,0,,,,,,0.0,,,,,,,,,,,,,,,
287,3472063,1745297724319,0.096,,,,,,,,,,,,,,,,,,,,,,,,,,,,,,,,,,0,0,0,0,0,0,0,0,0,0,0,0,0,0,0,0,,,,,,,,,,,,,,,,,,,,,
288,3472083,1745297724339,0.0963,0.0,-53.0,,-0.04,-0.13,1.06,0.0,0.0,0.0,1.07,1.29,82.0,3415.0,5.0,3.78,,12.89,1.225,86.2,,27.6,5.0,,,,,,,,,,,,0,0,0,0,0,0,0,0,0,0,0,0,0,0,0,0,,,,,,0.0,,,,,,,,,,,,,,,
289,3472103,1745297724359,0.0966,,,,,,,,,,,,,,,,,,,,,,,0.0,0.0,0.0,0.0,0.0,0.0,0.0,0.0,2.26,,,0,0,0,0,0,0,0,0,0,0,0,0,0,0,0,0,,0.0,,,,,38.986019,-76.95002,0.04,48.7,33.0,3.0,0.8,0.0,0.0,-1.0,0.0,,0.0,0.0,0.0966
290,3472123,1745297724379,0.097,0.0,-46.0,,-0.05,0.04,1.04,1.0,0.0,0.0,1.04,1.29,81.0,3383.0,5.1,3.77,,12.93,1.163,86.2,,27.6,5.0,,,,,,,,,,,,0,0,0,0,0,0,0,0,0,0,0,0,0,0,0,0,,,,,,0.0,,,,,,,,,,,,,,,
291,3472143,1745297724398,0.0973,,,,,,,,,,,,,,,,,,,,,,,,,,,,,,,,,,0,0,0,0,0,0,0,0,0,0,0,0,0,0,0,0,,,,,,,,,,,,,,,,,,,,,
292,3472163,1745297724418,0.0976,0.0,-61.0,,-0.05,-0.13,1.04,0.0,0.0,0.0,1.05,1.29,81.0,3423.0,8.0,3.87,,12.93,1.163,86.2,,28.0,5.0,,,,,,,,,,,,0,0,0,0,0,0,0,0,0,0,0,0,0,0,0,0,,,,,,0.0,,,,,,,,,,,,,,,
293,3472183,1745297724438,0.098,,,,,,,,,,,,,,,,,,,,,,,,,,,,,,,,,,0,0,0,0,0,0,0,0,0,0,0,0,0,0,0,0,,,,,,,,,,,,,,,,,,,,,
294,3472203,1745297724458,0.0983,0.0,-61.0,,-0.06,-0.01,1.03,1.0,0.0,0.0,1.03,1.29,80.0,3423.0,8.0,3.87,,13.09,1.121,86.2,,28.0,5.0,0.0,0.0,0.0,0.0,0.0,0.0,0.0,0.0,2.26,,,0,0,0,0,0,0,0,0,0,0,0,0,0,0,0,0,,0.0,,,,0.0,38.986019,-76.95002,0.0,48.7,33.0,3.0,0.8,0.0,0.0,-1.0,0.0,0.0,0.0,0.0,0.0983
295,3472223,1745297724478,0.0986,,,,,,,,,,,,,,,,,,,,,,,,,,,,,,,,,,0,0,0,0,0,0,0,0,0,0,0,0,0,0,0,0,,,,,,,,,,,,,,,,,,,,,
296,3472243,1745297724498,0.099,0.0,-46.0,,-0.06,-0.04,1.01,0.0,0.0,0.0,1.02,1.29,79.0,3392.0,9.2,3.91,,13.24,1.094,86.2,,28.5,5.0,,,,,,,,,,,,0,0,0,0,0,0,0,0,0,0,0,0,0,0,0,0,,,,,,0.0,,,,,,,,,,,,,,,
297,3472263,1745297724518,0.0993,,,,,,,,,,,,,,,,,,,,,,,,,,,,,,,,,,0,0,0,0,0,0,0,0,0,0,0,0,0,0,0,0,,,,,,,,,,,,,,,,,,,,,
298,3472283,1745297724538,0.0996,0.0,-53.0,,-0.07,-0.08,1.06,1.0,0.0,0.0,1.06,1.29,82.0,3437.0,9.5,3.92,,13.32,1.098,86.2,,28.5,5.0,,,,,,,,,,,,0,0,0,0,0,0,0,0,0,0,0,0,0,0,0,0,,,,,,0.0,,,,,,,,,,,,,,,
299,3472303,1745297724558,0.1,,,,,,,,,,,,,,,,,,,,,,,0.0,0.0,0.0,0.0,0.0,0.0,0.0,0.0,2.26,,,0,0,0,0,0,0,0,0,0,0,0,0,0,0,0,0,,0.0,,,,,38.986019,-76.95002,0.05,48.7,33.0,3.0,0.8,0.0,0.0,-1.0,0.0,,0.0,0.0,0.1
300,3472323,1745297724578,0.1003,0.0,-42.0,,-0.07,-0.03,0.98,0.0,0.0,0.0,0.98,1.29,76.0,3440.0,9.8,3.93,,13.32,1.109,86.2,,28.5,5.0,,,,,,,,,,,,0,0,0,0,0,0,0,0,0,0,0,0,0,0,0,0,,,,,,0.0,,,,,,,,,,,,,,,
301,3472343,1745297724598,0.1006,,,,,,,,,,,,,,,,,,,,,,,,,,,,,,,,,,0,0,0,0,0,0,0,0,0,0,0,0,0,0,0,0,,,,,,,,,,,,,,,,,,,,,
302,3472363,1745297724618,0.101,0.0,-64.0,,-0.06,-0.06,1.01,0.0,0.0,0.0,1.02,1.29,79.0,3568.0,10.1,3.93,,13.32,1.109,86.2,,28.9,5.0,,,,,,,,,,,,0,0,0,0,0,0,0,0,0,0,0,0,0,0,0,0,,,,,,0.0,,,,,,,,,,,,,,,
303,3472383,1745297724638,0.1013,,,,,,,,,,,,,,,,,,,,,,,,,,,,,,,,,,0,0,0,0,0,0,0,0,0,0,0,0,0,0,0,0,,,,,,,,,,,,,,,,,,,,,
304,3472403,1745297724658,0.1016,0.0,-64.0,13.65,-0.09,0.06,1.04,0.0,0.0,0.0,1.04,1.29,81.0,3568.0,10.1,3.93,15.0,13.33,1.121,86.2,167.0,28.9,5.0,0.0,0.0,0.0,0.0,0.0,0.0,0.0,0.0,2.25,0.0,1.0,0,0,0,0,0,0,0,0,0,0,0,0,0,0,0,0,0.0,0.0,1.0,0.0,0.0,0.0,38.986019,-76.95002,0.04,48.7,33.0,3.0,0.8,0.0,0.0,-1.0,0.0,0.0,0.0,0.0,0.1016
305,3472423,1745297724678,0.102,,,,,,,,,,,,,,,,,,,,,,,,,,,,,,,,,,0,0,0,0,0,0,0,0,0,0,0,0,0,0,0,0,,,,,,,,,,,,,,,,,,,,,
306,3472443,1745297724698,0.1023,0.0,-49.0,,-0.08,0.09,1.02,1.0,0.0,1.0,1.03,1.29,79.0,3593.0,10.2,3.92,,13.29,1.128,86.2,,30.0,5.0,,,,,,,,,,,,0,0,0,0,0,0,0,0,0,0,0,0,0,0,0,0,,,,,,0.0,,,,,,,,,,,,,,,
307,3472463,1745297724718,0.1026,,,,,,,,,,,,,,,,,,,,,,,,,,,,,,,,,,0,0,0,0,0,0,0,0,0,0,0,0,0,0,0,0,,,,,,,,,,,,,,,,,,,,,
308,3472483,1745297724738,0.103,0.0,-49.0,,-0.08,0.05,0.98,0.0,0.0,0.0,0.99,1.29,76.0,3651.0,10.2,3.92,,13.28,1.138,86.2,,30.0,5.0,,,,,,,,,,,,0,0,0,0,0,0,0,0,0,0,0,0,0,0,0,0,,,,,,0.0,,,,,,,,,,,,,,,
309,3472503,1745297724758,0.1033,,,,,,,,,,,,,,,,,,,,,,,0.0,0.0,0.0,0.0,0.0,0.0,0.0,0.0,2.26,,,0,0,0,0,0,0,0,0,0,0,0,0,0,0,0,0,,0.0,,,,,38.986019,-76.95002,0.04,48.7,33.0,3.0,0.8,0.0,0.0,-1.0,0.0,,0.0,0.0,0.1033
310,3472523,1745297724778,0.1036,0.0,-53.0,,-0.09,0.03,0.98,0.0,0.0,0.0,0.99,1.29,76.0,3684.0,9.9,3.91,,13.19,1.154,86.2,,30.0,5.0,,,,,,,,,,,,0,0,0,0,0,0,0,0,0,0,0,0,0,0,0,0,,,,,,0.0,,,,,,,,,,,,,,,
311,3472543,1745297724798,0.104,,,,,,,,,,,,,,,,,,,,,,,,,,,,,,,,,,0,0,0,0,0,0,0,0,0,0,0,0,0,0,0,0,,,,,,,,,,,,,,,,,,,,,
312,3472563,1745297724818,0.1043,0.0,-42.0,,-0.08,0.05,0.99,-1.0,0.0,0.0,0.99,1.29,77.0,3743.0,9.9,3.91,,13.19,1.154,86.2,,30.9,5.0,,,,,,,,,,,,0,0,0,0,0,0,0,0,0,0,0,0,0,0,0,0,,,,,,0.0,,,,,,,,,,,,,,,
313,3472583,1745297724838,0.1046,,,,,,,,,,,,,,,,,,,,,,,,,,,,,,,,,,0,0,0,0,0,0,0,0,0,0,0,0,0,0,0,0,,,,,,,,,,,,,,,,,,,,,
314,3472603,1745297724858,0.105,0.0,-64.0,,-0.08,0.04,0.97,-1.0,0.0,0.0,0.98,1.29,76.0,3743.0,9.9,3.91,,13.09,1.165,86.2,,30.9,5.0,0.0,0.0,0.0,0.0,0.0,0.0,0.0,0.0,2.26,,,0,0,0,0,0,0,0,0,0,0,0,0,0,0,0,0,,0.0,,,,0.0,38.986019,-76.95002,0.08,48.7,33.0,3.0,0.8,0.0,0.0,-1.0,0.0,0.0,0.0,0.0,0.105
315,3472623,1745297724878,0.1053,,,,,,,,,,,,,,,,,,,,,,,,,,,,,,,,,,0,0,0,0,0,0,0,0,0,0,0,0,0,0,0,0,,,,,,,,,,,,,,,,,,,,,
316,3472643,1745297724898,0.1056,0.0,-57.0,,-0.08,0.07,0.97,-1.0,0.0,0.0,0.97,1.29,75.0,3738.0,9.7,3.91,,13.11,1.152,86.2,,32.0,5.0,,,,,,,,,,,,0,0,0,0,0,0,0,0,0,0,0,0,0,0,0,0,,,,,,0.0,,,,,,,,,,,,,,,
317,3472663,1745297724918,0.106,,,,,,,,,,,,,,,,,,,,,,,,,,,,,,,,,,0,0,0,0,0,0,0,0,0,0,0,0,0,0,0,0,,,,,,,,,,,,,,,,,,,,,
318,3472683,1745297724938,0.1063,0.0,-49.0,,-0.08,0.08,1.01,-1.0,0.0,0.0,1.02,1.29,79.0,3845.0,9.7,3.9,,13.03,1.154,86.2,,32.0,5.0,,,,,,,,,,,,0,0,0,0,0,0,0,0,0,0,0,0,0,0,0,0,,,,,,0.0,,,,,,,,,,,,,,,
319,3472703,1745297724958,0.1066,,,,,,,,,,,,,,,,,,,,,,,0.0,0.0,0.0,0.0,0.0,0.0,0.0,0.0,2.26,,,0,0,0,0,0,0,0,0,0,0,0,0,0,0,0,0,,0.0,,,,,38.986019,-76.95002,0.08,48.7,33.0,3.0,0.8,0.0,0.0,-1.0,0.0,,0.0,0.0,0.1066
320,3472723,1745297724978,0.107,0.0,-53.0,,-0.1,0.03,1.05,-2.0,0.0,1.0,1.05,1.29,81.0,3875.0,9.7,3.9,,13.03,1.159,86.2,,32.0,5.0,,,,,,,,,,,,0,0,0,0,0,0,0,0,0,0,0,0,0,0,0,0,,,,,,0.0,,,,,,,,,,,,,,,
321,3472743,1745297724998,0.1073,,,,,,,,,,,,,,,,,,,,,,,,,,,,,,,,,,0,0,0,0,0,0,0,0,0,0,0,0,0,0,0,0,,,,,,,,,,,,,,,,,,,,,
322,3472763,1745297725010,0.1076,0.0,-64.0,,-0.11,-0.03,1.0,-2.0,0.0,0.0,1.01,1.29,78.0,3953.0,9.7,3.9,,13.03,1.159,86.2,,32.8,5.0,,,,,,,,,,,,0,0,0,0,0,0,0,0,0,0,0,0,0,0,0,0,,,,,,0.0,,,,,,,,,,,,,,,
323,3472783,1745297725030,0.108,,,,,,,,,,,,,,,,,,,,,,,,,,,,,,,,,,0,0,0,0,0,0,0,0,0,0,0,0,0,0,0,0,,,,,,,,,,,,,,,,,,,,,
324,3472803,1745297725050,0.1083,0.0,-38.0,,-0.1,0.02,1.0,0.0,0.0,0.0,1.0,1.29,77.0,3953.0,9.7,3.9,,12.96,1.151,86.2,,32.8,5.0,0.0,0.0,0.0,0.0,0.0,0.0,0.0,0.0,2.26,,,0,0,0,0,0,0,0,0,0,0,0,0,0,0,0,0,,0.0,,,,0.0,38.986019,-76.95002,0.51,48.7,33.0,3.0,0.8,0.0,0.0,-1.0,0.0,0.0,0.0,0.0,0.1083
325,3472823,1745297725070,0.1086,,,,,,,,,,,,,,,,,,,,,,,,,,,,,,,,,,0,0,0,0,0,0,0,0,0,0,0,0,0,0,0,0,,,,,,,,,,,,,,,,,,,,,
326,3472843,1745297725096,0.109,0.0,-53.0,,-0.08,0.08,1.06,1.0,0.0,0.0,1.07,1.29,83.0,3982.0,9.7,3.88,,12.91,1.145,86.2,,33.0,5.0,,,,,,,,,,,,0,0,0,0,0,0,0,0,0,0,0,0,0,0,0,0,,,,,,0.0,,,,,,,,,,,,,,,
327,3472863,1745297725116,0.1093,,,,,,,,,,,,,,,,,,,,,,,,,,,,,,,,,,0,0,0,0,0,0,0,0,0,0,0,0,0,0,0,0,,,,,,,,,,,,,,,,,,,,,
328,3472883,1745297725136,0.1096,0.0,-68.0,,-0.08,-0.03,1.02,1.0,0.0,1.0,1.03,1.29,79.0,3968.0,7.6,3.85,,12.87,1.14,86.2,,33.0,5.0,,,,,,,,,,,,0,0,0,0,0,0,0,0,0,0,0,0,0,0,0,0,,,,,,0.0,,,,,,,,,,,,,,,
329,3472903,1745297725156,0.11,,,,,,,,,,,,,,,,,,,,,,,0.0,0.0,0.0,0.0,0.0,0.0,0.0,0.0,2.26,,,0,0,0,0,0,0,0,0,0,0,0,0,0,0,0,0,,0.0,,,,,38.986019,-76.95002,0.29,48.7,33.0,3.0,0.8,0.0,0.0,-1.0,0.0,,0.0,0.0,0.11
330,3472923,1745297725176,0.1103,0.0,-64.0,,-0.06,-0.02,0.99,0.0,0.0,0.0,0.99,1.29,76.0,4013.0,2.0,3.56,,12.53,1.14,86.2,,33.0,5.0,,,,,,,,,,,,0,0,0,0,0,0,0,0,0,0,0,0,0,0,0,0,,,,,,0.0,,,,,,,,,,,,,,,
331,3472943,1745297725196,0.1106,,,,,,,,,,,,,,,,,,,,,,,,,,,,,,,,,,0,0,0,0,0,0,0,0,0,0,0,0,0,0,0,0,,,,,,,,,,,,,,,,,,,,,
332,3472963,1745297725216,0.111,0.0,-64.0,,-0.06,0.06,1.04,1.0,0.0,1.0,1.04,1.29,80.0,3939.0,1.5,2.95,,12.53,1.14,86.2,,33.7,5.0,,,,,,,,,,,,0,0,0,0,0,0,0,0,0,0,0,0,0,0,0,0,,,,,,0.0,,,,,,,,,,,,,,,
333,3472983,1745297725236,0.1113,,,,,,,,,,,,,,,,,,,,,,,,,,,,,,,,,,0,0,0,0,0,0,0,0,0,0,0,0,0,0,0,0,,,,,,,,,,,,,,,,,,,,,
334,3473003,1745297725256,0.1116,0.0,-49.0,,-0.06,0.06,1.04,2.0,0.0,1.0,1.05,1.29,81.0,3939.0,1.5,2.95,,12.2,1.144,86.2,,33.7,5.0,0.0,0.0,0.0,0.0,0.0,0.0,0.0,0.0,2.26,,,0,0,0,0,0,0,0,0,0,0,0,0,0,0,0,0,,0.0,,,,0.0,38.986019,-76.95002,0.11,48.7,33.0,3.0,0.8,0.0,0.0,-1.0,0.0,0.0,0.0,0.0,0.1116
