,Interval,Utc,FrontBP,SteerAng,Battery,AccelX,AccelY,AccelZ,Yaw,Pitch,Roll,Gsum,GsumMax,GsumPct,RPM,TPS,InjectorPW,Baro,MAP,Lambda,IAT,EngineTemp,EOP,EOT,WSFR,WSFL,WSRR,WSRL,TCSet,TCSlip,TCComp,TCCut,Analog8,OilTemp,AA_On,ThermLF1,ThermLF2,ThermRR1,ThermRR2,ThermLF3,ThermLF4,ThermLF5,ThermLF6,ThermLF7,ThermLF8,ThermRR3,ThermRR4,ThermRR5,ThermRR6,ThermRR7,ThermRR8,AA_LowDrag,Gear,AA_On1,AA_LowDrag1,Fuel_Mix,AA_Packages,Latitude,Longitude,Speed,Altitude,GPSSats,GPSQual,GPSDOP
0,238994,1745298699252,,,,,,,,,,,,,,,,,,,,,,,,,,,,,,,,,,0,0,0,0,0,0,0,0,0,0,0,0,0,0,0,0,,,,,,,,,,,,,
1,239014,1745298699272,0.0,-135.0,,-0.07,-0.11,0.88,2.0,0.0,-1.0,0.89,0.89,100.0,4296.0,0.0,2.03,,10.37,1.253,106.0,,39.1,5.0,,,,,,,,,,,,0,0,0,0,0,0,0,0,0,0,0,0,0,0,0,0,,,,,,0.0,,,,,,,
2,239034,1745298699292,,,,,,,,,,,,,,,,,,,,,,,,,,,,,,,,,,0,0,0,0,0,0,0,0,0,0,0,0,0,0,0,0,,,,,,,,,,,,,
3,239054,1745298699312,0.0,-135.0,,-0.09,-0.18,0.91,2.0,0.0,-1.0,0.93,0.93,100.0,4074.0,0.0,2.0,,10.28,1.254,106.0,,36.7,5.0,,,,,,,,,,,,0,0,0,0,0,0,0,0,0,0,0,0,0,0,0,0,,,,,,0.0,,,,,,,
4,239074,1745298699332,,,,,,,,,,,,,,,,,,,,,,,0.0,0.0,0.0,0.0,0.0,0.0,0.0,0.0,2.26,,,0,0,0,0,0,0,0,0,0,0,0,0,0,0,0,0,,0.0,,,,,38.986019,-76.95002,0.06,50.7,36.0,3.0,0.7
5,239094,1745298699352,0.0,-113.0,,-0.09,-0.14,0.92,2.0,0.0,-1.0,0.93,0.93,100.0,3807.0,0.0,2.05,,10.28,1.254,106.0,,36.7,5.0,,,,,,,,,,,,0,0,0,0,0,0,0,0,0,0,0,0,0,0,0,0,,,,,,0.0,,,,,,,
6,239114,1745298699372,,,,,,,,,,,,,,,,,,,,,,,,,,,,,,,,,,0,0,0,0,0,0,0,0,0,0,0,0,0,0,0,0,,,,,,,,,,,,,
7,239134,1745298699392,0.0,-129.0,,-0.07,-0.09,0.93,1.0,0.0,0.0,0.94,0.94,100.0,3807.0,0.0,2.05,,10.46,1.255,106.0,,30.8,5.0,,,,,,,,,,,,0,0,0,0,0,0,0,0,0,0,0,0,0,0,0,0,,,,,,0.0,,,,,,,
8,239154,1745298699412,,,,,,,,,,,,,,,,,,,,,,,,,,,,,,,,,,0,0,0,0,0,0,0,0,0,0,0,0,0,0,0,0,,,,,,,,,,,,,
9,239174,1745298699432,0.0,-113.0,,-0.09,-0.14,0.91,1.0,0.0,-1.0,0.93,0.94,99.0,3540.0,0.0,2.17,,10.72,1.253,106.0,,30.8,5.0,0.0,0.0,0.0,0.0,0.0,0.0,0.0,0.0,2.26,,,0,0,0,0,0,0,0,0,0,0,0,0,0,0,0,0,,0.0,,,,0.0,38.986019,-76.95002,0.04,50.7,36.0,3.0,0.7
10,239194,1745298699452,,,,,,,,,,,,,,,,,,,,,,,,,,,,,,,,,,0,0,0,0,0,0,0,0,0,0,0,0,0,0,0,0,,,,,,,,,,,,,
11,239214,1745298699472,0.0,-121.0,,-0.06,-0.02,0.89,1.0,0.0,0.0,0.89,0.94,95.0,3295.0,3.2,3.38,,11.29,1.252,106.0,,30.8,5.0,,,,,,,,,,,,0,0,0,0,0,0,0,0,0,0,0,0,0,0,0,0,,,,,,0.0,,,,,,,
12,239234,1745298699492,,,,,,,,,,,,,,,,,,,,,,,,,,,,,,,,,,0,0,0,0,0,0,0,0,0,0,0,0,0,0,0,0,,,,,,,,,,,,,
13,239254,1745298699514,0.0,-117.0,,-0.03,0.0,0.96,0.0,0.0,0.0,0.96,0.96,100.0,3037.0,15.9,4.49,,12.63,1.252,106.0,,27.0,5.0,,,,,,,,,,,,0,0,0,0,0,0,0,0,0,0,0,0,0,0,0,0,,,,,,0.0,,,,,,,
14,239274,1745298699534,,,,,,,,,,,,,,,,,,,,,,,0.0,0.0,0.0,0.0,0.0,0.0,0.0,0.0,2.25,,,0,0,0,0,0,0,0,0,0,0,0,0,0,0,0,0,,0.0,,,,,38.986019,-76.95002,0.0,50.7,36.0,3.0,0.7
15,239294,1745298699554,0.0,-113.0,,-0.04,-0.08,1.03,0.0,0.0,0.0,1.04,1.04,100.0,3105.0,20.4,4.93,,12.63,1.252,106.0,,27.0,5.0,,,,,,,,,,,,0,0,0,0,0,0,0,0,0,0,0,0,0,0,0,0,,,,,,0.0,,,,,,,
16,239314,1745298699574,,,,,,,,,,,,,,,,,,,,,,,,,,,,,,,,,,0,0,0,0,0,0,0,0,0,0,0,0,0,0,0,0,,,,,,,,,,,,,
17,239334,1745298699594,0.0,-113.0,,-0.06,-0.13,1.03,1.0,0.0,0.0,1.04,1.04,100.0,3105.0,20.4,4.93,,13.6,1.251,106.0,,26.3,5.0,,,,,,,,,,,,0,0,0,0,0,0,0,0,0,0,0,0,0,0,0,0,,,,,,0.0,,,,,,,
18,239354,1745298699614,,,,,,,,,,,,,,,,,,,,,,,,,,,,,,,,,,0,0,0,0,0,0,0,0,0,0,0,0,0,0,0,0,,,,,,,,,,,,,
19,239374,1745298699634,0.0,-121.0,,-0.06,-0.04,0.95,1.0,0.0,0.0,0.95,1.04,91.0,3225.0,20.8,4.79,,13.83,1.252,106.0,,26.3,5.0,0.0,0.0,0.0,0.0,0.0,0.0,0.0,0.0,2.26,,,0,0,0,0,0,0,0,0,0,0,0,0,0,0,0,0,,0.0,,,,0.0,38.986019,-76.95002,0.0,50.7,36.0,3.0,0.7
20,239394,1745298699654,,,,,,,,,,,,,,,,,,,,,,,,,,,,,,,,,,0,0,0,0,0,0,0,0,0,0,0,0,0,0,0,0,,,,,,,,,,,,,
21,239414,1745298699674,0.0,-121.0,,-0.08,-0.11,0.99,1.0,0.0,0.0,1.0,1.04,96.0,3392.0,0.0,4.21,,13.39,1.252,106.0,,26.3,5.0,,,,,,,,,,,,0,0,0,0,0,0,0,0,0,0,0,0,0,0,0,0,,,,,,0.0,,,,,,,
22,239434,1745298699694,,,,,,,,,,,,,,,,,,,,,,,,,,,,,,,,,,0,0,0,0,0,0,0,0,0,0,0,0,0,0,0,0,,,,,,,,,,,,,
23,239454,1745298699712,0.0,-132.0,,-0.07,-0.0,1.0,0.0,0.0,0.0,1.0,1.04,96.0,3556.0,0.0,3.0,,12.72,1.252,106.0,,29.0,5.0,,,,,,,,,,,,0,0,0,0,0,0,0,0,0,0,0,0,0,0,0,0,,,,,,0.0,,,,,,,
24,239474,1745298699732,,,,,,,,,,,,,,,,,,,,,,,0.0,0.0,0.0,0.0,0.0,0.0,0.0,0.0,2.26,,,0,0,0,0,0,0,0,0,0,0,0,0,0,0,0,0,,0.0,,,,,38.986019,-76.95002,0.04,50.7,36.0,3.0,0.7
25,239494,1745298699752,0.0,-106.0,,-0.07,0.04,0.94,0.0,0.0,0.0,0.94,1.04,91.0,3463.0,0.0,2.93,,12.72,1.252,106.0,,29.0,5.0,,,,,,,,,,,,0,0,0,0,0,0,0,0,0,0,0,0,0,0,0,0,,,,,,0.0,,,,,,,
26,239514,1745298699772,,,,,,,,,,,,,,,,,,,,,,,,,,,,,,,,,,0,0,0,0,0,0,0,0,0,0,0,0,0,0,0,0,,,,,,,,,,,,,
27,239534,1745298699792,0.0,-117.0,,-0.09,0.03,1.02,0.0,0.0,0.0,1.02,1.04,98.0,3463.0,0.0,2.93,,12.33,1.253,106.0,,28.9,5.0,,,,,,,,,,,,0,0,0,0,0,0,0,0,0,0,0,0,0,0,0,0,,,,,,0.0,,,,,,,
28,239554,1745298699815,,,,,,,,,,,,,,,,,,,,,,,,,,,,,,,,,,0,0,0,0,0,0,0,0,0,0,0,0,0,0,0,0,,,,,,,,,,,,,
29,239574,1745298699835,0.0,-113.0,13.17,-0.07,0.09,0.93,0.0,0.0,0.0,0.94,1.04,90.0,3391.0,0.0,2.97,15.0,12.23,1.239,104.2,165.0,28.9,5.0,0.0,0.0,0.0,0.0,0.0,0.0,0.0,0.0,2.26,0.0,1.0,0,0,0,0,0,0,0,0,0,0,0,0,0,0,0,0,0.0,0.0,1.0,0.0,0.0,0.0,38.986019,-76.95002,0.05,50.7,36.0,3.0,0.7
30,239594,1745298699855,,,,,,,,,,,,,,,,,,,,,,,,,,,,,,,,,,0,0,0,0,0,0,0,0,0,0,0,0,0,0,0,0,,,,,,,,,,,,,
31,239614,1745298699875,0.0,-129.0,,-0.08,0.02,1.02,0.0,0.0,0.0,1.02,1.04,98.0,3350.0,5.3,3.01,,12.37,1.243,104.2,,28.9,5.0,,,,,,,,,,,,0,0,0,0,0,0,0,0,0,0,0,0,0,0,0,0,,,,,,0.0,,,,,,,
32,239634,1745298699895,,,,,,,,,,,,,,,,,,,,,,,,,,,,,,,,,,0,0,0,0,0,0,0,0,0,0,0,0,0,0,0,0,,,,,,,,,,,,,
33,239654,1745298699915,0.0,-113.0,,-0.09,-0.0,0.95,1.0,0.0,0.0,0.95,1.04,92.0,3234.0,14.9,4.49,,13.19,1.25,104.2,,27.7,5.0,,,,,,,,,,,,0,0,0,0,0,0,0,0,0,0,0,0,0,0,0,0,,,,,,0.0,,,,,,,
34,239674,1745298699935,,,,,,,,,,,,,,,,,,,,,,,0.0,0.0,0.0,0.0,0.0,0.0,0.0,0.0,2.26,,,0,0,0,0,0,0,0,0,0,0,0,0,0,0,0,0,,0.0,,,,,38.986019,-76.95002,0.0,50.7,36.0,3.0,0.7
35,239694,1745298699955,0.0,-117.0,,-0.09,0.04,0.99,0.0,0.0,0.0,1.0,1.04,96.0,3435.0,16.2,4.61,,13.19,1.25,104.2,,27.7,5.0,,,,,,,,,,,,0,0,0,0,0,0,0,0,0,0,0,0,0,0,0,0,,,,,,0.0,,,,,,,
36,239714,1745298699975,,,,,,,,,,,,,,,,,,,,,,,,,,,,,,,,,,0,0,0,0,0,0,0,0,0,0,0,0,0,0,0,0,,,,,,,,,,,,,
37,239734,1745298699995,0.0,-129.0,,-0.08,0.05,0.95,0.0,0.0,0.0,0.95,1.04,91.0,3435.0,16.2,4.61,,13.57,1.251,104.2,,28.9,5.0,,,,,,,,,,,,0,0,0,0,0,0,0,0,0,0,0,0,0,0,0,0,,,,,,0.0,,,,,,,
38,239754,1745298700003,,,,,,,,,,,,,,,,,,,,,,,,,,,,,,,,,,0,0,0,0,0,0,0,0,0,0,0,0,0,0,0,0,,,,,,,,,,,,,
39,239774,1745298700023,0.0,-110.0,,-0.08,0.02,0.96,0.0,0.0,0.0,0.97,1.04,93.0,3511.0,16.4,4.42,,13.67,1.251,104.2,,28.9,5.0,0.0,0.0,0.0,0.0,0.0,0.0,0.0,0.0,2.26,,,0,0,0,0,0,0,0,0,0,0,0,0,0,0,0,0,,0.0,,,,0.0,38.986019,-76.95002,0.08,50.7,36.0,3.0,0.7
40,239794,1745298700043,,,,,,,,,,,,,,,,,,,,,,,,,,,,,,,,,,0,0,0,0,0,0,0,0,0,0,0,0,0,0,0,0,,,,,,,,,,,,,
41,239814,1745298700063,0.0,-129.0,,-0.09,-0.02,1.0,0.0,0.0,0.0,1.0,1.04,97.0,3680.0,0.0,2.9,,12.96,1.249,104.2,,28.9,5.0,,,,,,,,,,,,0,0,0,0,0,0,0,0,0,0,0,0,0,0,0,0,,,,,,0.0,,,,,,,
42,239834,1745298700083,,,,,,,,,,,,,,,,,,,,,,,,,,,,,,,,,,0,0,0,0,0,0,0,0,0,0,0,0,0,0,0,0,,,,,,,,,,,,,
43,239854,1745298700113,0.0,-117.0,,-0.09,0.01,0.99,0.0,0.0,0.0,1.0,1.04,96.0,3659.0,0.0,2.82,,12.45,1.208,104.2,,30.8,5.0,,,,,,,,,,,,0,0,0,0,0,0,0,0,0,0,0,0,0,0,0,0,,,,,,0.0,,,,,,,
44,239874,1745298700133,,,,,,,,,,,,,,,,,,,,,,,0.0,0.0,0.0,0.0,0.0,0.0,0.0,0.0,2.27,,,0,0,0,0,0,0,0,0,0,0,0,0,0,0,0,0,,0.0,,,,,38.986019,-76.95002,0.0,50.7,36.0,3.0,0.7
45,239894,1745298700153,0.0,-117.0,,-0.09,0.1,1.02,-1.0,0.0,0.0,1.03,1.04,99.0,3587.0,0.0,2.82,,12.45,1.208,104.2,,30.8,5.0,,,,,,,,,,,,0,0,0,0,0,0,0,0,0,0,0,0,0,0,0,0,,,,,,0.0,,,,,,,
46,239914,1745298700173,,,,,,,,,,,,,,,,,,,,,,,,,,,,,,,,,,0,0,0,0,0,0,0,0,0,0,0,0,0,0,0,0,,,,,,,,,,,,,
47,239934,1745298700193,0.0,-110.0,,-0.06,0.13,0.98,-1.0,0.0,0.0,0.99,1.04,95.0,3587.0,0.0,2.82,,12.09,1.192,104.2,,29.9,5.0,,,,,,,,,,,,0,0,0,0,0,0,0,0,0,0,0,0,0,0,0,0,,,,,,0.0,,,,,,,
48,239954,1745298700205,,,,,,,,,,,,,,,,,,,,,,,,,,,,,,,,,,0,0,0,0,0,0,0,0,0,0,0,0,0,0,0,0,,,,,,,,,,,,,
49,239974,1745298700225,0.0,-117.0,,-0.08,0.0,1.01,-1.0,0.0,0.0,1.02,1.04,98.0,3471.0,0.0,2.83,,11.96,1.209,104.2,,29.9,5.0,0.0,0.0,0.0,0.0,0.0,0.0,0.0,0.0,2.27,,,0,0,0,0,0,0,0,0,0,0,0,0,0,0,0,0,,0.0,,,,0.0,38.986019,-76.95002,0.04,50.7,36.0,3.0,0.7
50,239994,1745298700245,,,,,,,,,,,,,,,,,,,,,,,,,,,,,,,,,,0,0,0,0,0,0,0,0,0,0,0,0,0,0,0,0,,,,,,,,,,,,,
51,240014,1745298700265,0.0,-121.0,,-0.06,0.11,0.97,-1.0,0.0,0.0,0.98,1.04,94.0,3396.0,0.0,2.88,,12.04,1.239,104.2,,29.9,5.0,,,,,,,,,,,,0,0,0,0,0,0,0,0,0,0,0,0,0,0,0,0,,,,,,0.0,,,,,,,
52,240034,1745298700285,,,,,,,,,,,,,,,,,,,,,,,,,,,,,,,,,,0,0,0,0,0,0,0,0,0,0,0,0,0,0,0,0,,,,,,,,,,,,,
53,240054,1745298700313,0.0,-117.0,,-0.08,0.01,1.05,-1.0,0.0,0.0,1.06,1.06,100.0,3305.0,0.2,2.92,,12.16,1.254,104.2,,27.7,5.0,,,,,,,,,,,,0,0,0,0,0,0,0,0,0,0,0,0,0,0,0,0,,,,,,0.0,,,,,,,
54,240074,1745298700333,,,,,,,,,,,,,,,,,,,,,,,0.0,0.0,0.0,0.0,0.0,0.0,0.0,0.0,2.26,,,0,0,0,0,0,0,0,0,0,0,0,0,0,0,0,0,,0.0,,,,,38.986019,-76.95002,0.0,50.7,36.0,3.0,0.7
55,240094,1745298700353,0.0,-121.0,,-0.1,-0.02,1.01,0.0,0.0,0.0,1.01,1.06,96.0,3147.0,1.6,3.25,,12.16,1.254,104.2,,27.7,5.0,,,,,,,,,,,,0,0,0,0,0,0,0,0,0,0,0,0,0,0,0,0,,,,,,0.0,,,,,,,
56,240114,1745298700373,,,,,,,,,,,,,,,,,,,,,,,,,,,,,,,,,,0,0,0,0,0,0,0,0,0,0,0,0,0,0,0,0,,,,,,,,,,,,,
57,240134,1745298700393,0.0,-113.0,,-0.1,0.0,0.91,0.0,0.0,0.0,0.91,1.06,87.0,3147.0,1.6,3.25,,12.35,1.253,104.2,,26.0,5.0,,,,,,,,,,,,0,0,0,0,0,0,0,0,0,0,0,0,0,0,0,0,,,,,,0.0,,,,,,,
58,240154,1745298700413,,,,,,,,,,,,,,,,,,,,,,,,,,,,,,,,,,0,0,0,0,0,0,0,0,0,0,0,0,0,0,0,0,,,,,,,,,,,,,
59,240174,1745298700433,0.0,-102.0,,-0.09,0.04,0.84,1.0,0.0,0.0,0.85,1.06,80.0,3090.0,1.5,3.32,,12.47,1.252,104.2,,26.0,5.0,0.0,0.0,0.0,0.0,0.0,0.0,0.0,0.0,2.26,,,0,0,0,0,0,0,0,0,0,0,0,0,0,0,0,0,,0.0,,,,0.0,38.986019,-76.95002,0.04,50.7,36.0,3.0,0.7
60,240194,1745298700453,,,,,,,,,,,,,,,,,,,,,,,,,,,,,,,,,,0,0,0,0,0,0,0,0,0,0,0,0,0,0,0,0,,,,,,,,,,,,,
61,240214,1745298700473,0.0,-117.0,,-0.07,0.08,0.79,1.0,0.0,-1.0,0.8,1.06,76.0,3031.0,0.0,3.04,,12.37,1.251,104.2,,26.0,5.0,,,,,,,,,,,,0,0,0,0,0,0,0,0,0,0,0,0,0,0,0,0,,,,,,0.0,,,,,,,
62,240234,1745298700493,,,,,,,,,,,,,,,,,,,,,,,,,,,,,,,,,,0,0,0,0,0,0,0,0,0,0,0,0,0,0,0,0,,,,,,,,,,,,,
63,240254,1745298700515,0.0,-132.0,,-0.07,0.06,0.75,1.0,0.0,-1.0,0.76,1.06,72.0,2894.0,0.0,3.04,,12.35,1.251,104.2,,24.9,5.0,,,,,,,,,,,,0,0,0,0,0,0,0,0,0,0,0,0,0,0,0,0,,,,,,0.0,,,,,,,
64,240274,1745298700535,,,,,,,,,,,,,,,,,,,,,,,0.0,0.0,0.0,0.0,0.0,0.0,0.0,0.0,2.26,,,0,0,0,0,0,0,0,0,0,0,0,0,0,0,0,0,,0.0,,,,,38.986019,-76.95002,0.05,50.7,36.0,3.0,0.7
65,240294,1745298700555,0.0,-125.0,,-0.08,0.02,0.77,1.0,0.0,-1.0,0.78,1.06,74.0,2838.0,0.0,3.07,,12.35,1.251,104.2,,24.9,5.0,,,,,,,,,,,,0,0,0,0,0,0,0,0,0,0,0,0,0,0,0,0,,,,,,0.0,,,,,,,
66,240314,1745298700575,,,,,,,,,,,,,,,,,,,,,,,,,,,,,,,,,,0,0,0,0,0,0,0,0,0,0,0,0,0,0,0,0,,,,,,,,,,,,,
67,240334,1745298700595,0.0,-135.0,,-0.08,-0.01,0.84,1.0,0.0,-1.0,0.84,1.06,80.0,2838.0,0.0,3.07,,12.39,1.25,104.2,,23.3,5.0,,,,,,,,,,,,0,0,0,0,0,0,0,0,0,0,0,0,0,0,0,0,,,,,,0.0,,,,,,,
68,240354,1745298700615,,,,,,,,,,,,,,,,,,,,,,,,,,,,,,,,,,0,0,0,0,0,0,0,0,0,0,0,0,0,0,0,0,,,,,,,,,,,,,
69,240374,1745298700635,0.0,-106.0,,-0.08,-0.0,0.84,1.0,0.0,-1.0,0.84,1.06,80.0,2760.0,0.0,3.08,,12.47,1.25,104.2,,23.3,5.0,0.0,0.0,0.0,0.0,0.0,0.0,0.0,0.0,2.26,,,0,0,0,0,0,0,0,0,0,0,0,0,0,0,0,0,,0.0,,,,0.0,38.986019,-76.95002,0.08,50.7,36.0,3.0,0.7
70,240394,1745298700655,,,,,,,,,,,,,,,,,,,,,,,,,,,,,,,,,,0,0,0,0,0,0,0,0,0,0,0,0,0,0,0,0,,,,,,,,,,,,,
71,240414,1745298700675,0.0,-117.0,,-0.09,-0.01,0.87,1.0,0.0,-1.0,0.88,1.06,83.0,2650.0,11.6,3.79,,13.07,1.251,104.2,,23.3,5.0,,,,,,,,,,,,0,0,0,0,0,0,0,0,0,0,0,0,0,0,0,0,,,,,,0.0,,,,,,,
72,240434,1745298700695,,,,,,,,,,,,,,,,,,,,,,,,,,,,,,,,,,0,0,0,0,0,0,0,0,0,0,0,0,0,0,0,0,,,,,,,,,,,,,
73,240454,1745298700714,0.0,-117.0,,-0.09,0.0,0.87,1.0,0.0,0.0,0.88,1.06,83.0,2696.0,24.0,4.75,,14.03,1.251,104.2,,21.4,5.0,,,,,,,,,,,,0,0,0,0,0,0,0,0,0,0,0,0,0,0,0,0,,,,,,0.0,,,,,,,
74,240474,1745298700734,,,,,,,,,,,,,,,,,,,,,,,0.0,0.0,0.0,0.0,0.0,0.0,0.0,0.0,2.27,,,0,0,0,0,0,0,0,0,0,0,0,0,0,0,0,0,,0.0,,,,,38.986019,-76.95002,0.04,50.7,36.0,3.0,0.7
75,240494,1745298700754,0.0,-102.0,,-0.1,-0.0,0.85,1.0,0.0,-1.0,0.86,1.06,81.0,2847.0,28.2,4.74,,14.03,1.251,104.2,,21.4,5.0,,,,,,,,,,,,0,0,0,0,0,0,0,0,0,0,0,0,0,0,0,0,,,,,,0.0,,,,,,,
76,240514,1745298700774,,,,,,,,,,,,,,,,,,,,,,,,,,,,,,,,,,0,0,0,0,0,0,0,0,0,0,0,0,0,0,0,0,,,,,,,,,,,,,
77,240534,1745298700794,0.0,-121.0,,-0.12,-0.03,0.84,1.0,0.0,-1.0,0.85,1.06,81.0,2847.0,28.2,4.74,,14.2,1.253,104.2,,23.5,5.0,,,,,,,,,,,,0,0,0,0,0,0,0,0,0,0,0,0,0,0,0,0,,,,,,0.0,,,,,,,
78,240554,1745298700814,,,,,,,,,,,,,,,,,,,,,,,,,,,,,,,,,,0,0,0,0,0,0,0,0,0,0,0,0,0,0,0,0,,,,,,,,,,,,,
79,240574,1745298700834,0.0,-102.0,13.22,-0.11,0.06,0.79,1.0,0.0,-1.0,0.79,1.06,75.0,3067.0,29.2,4.52,15.0,14.23,1.253,104.2,167.0,23.5,5.0,0.0,0.0,0.0,0.0,0.0,0.0,0.0,0.0,2.26,0.0,1.0,0,0,0,0,0,0,0,0,0,0,0,0,0,0,0,0,0.0,0.0,1.0,0.0,0.0,0.0,38.986019,-76.95002,0.0,50.7,36.0,3.0,0.7
80,240594,1745298700854,,,,,,,,,,,,,,,,,,,,,,,,,,,,,,,,,,0,0,0,0,0,0,0,0,0,0,0,0,0,0,0,0,,,,,,,,,,,,,
81,240614,1745298700874,0.0,-135.0,,-0.11,-0.05,0.85,1.0,0.0,-1.0,0.86,1.06,82.0,3350.0,11.9,4.4,,13.88,1.253,104.2,,23.5,5.0,,,,,,,,,,,,0,0,0,0,0,0,0,0,0,0,0,0,0,0,0,0,,,,,,0.0,,,,,,,
82,240634,1745298700894,,,,,,,,,,,,,,,,,,,,,,,,,,,,,,,,,,0,0,0,0,0,0,0,0,0,0,0,0,0,0,0,0,,,,,,,,,,,,,
83,240654,1745298700914,0.0,-125.0,,-0.11,-0.02,0.88,0.0,0.0,0.0,0.89,1.06,84.0,3636.0,0.0,2.78,,12.95,1.252,104.2,,28.8,5.0,,,,,,,,,,,,0,0,0,0,0,0,0,0,0,0,0,0,0,0,0,0,,,,,,0.0,,,,,,,
84,240674,1745298700934,,,,,,,,,,,,,,,,,,,,,,,0.0,0.0,0.0,0.0,0.0,0.0,0.0,0.0,2.26,,,0,0,0,0,0,0,0,0,0,0,0,0,0,0,0,0,,0.0,,,,,38.986019,-76.95002,0.04,50.7,36.0,3.0,0.7
85,240694,1745298700954,0.0,-102.0,,-0.1,0.02,0.9,0.0,0.0,0.0,0.91,1.06,86.0,3623.0,0.0,2.71,,12.95,1.252,104.2,,28.8,5.0,,,,,,,,,,,,0,0,0,0,0,0,0,0,0,0,0,0,0,0,0,0,,,,,,0.0,,,,,,,
86,240714,1745298700974,,,,,,,,,,,,,,,,,,,,,,,,,,,,,,,,,,0,0,0,0,0,0,0,0,0,0,0,0,0,0,0,0,,,,,,,,,,,,,
87,240734,1745298700994,0.0,-106.0,,-0.08,0.06,0.9,0.0,0.0,0.0,0.9,1.06,85.0,3623.0,0.0,2.71,,12.45,1.251,104.2,,29.5,5.0,,,,,,,,,,,,0,0,0,0,0,0,0,0,0,0,0,0,0,0,0,0,,,,,,0.0,,,,,,,
88,240754,1745298701006,,,,,,,,,,,,,,,,,,,,,,,,,,,,,,,,,,0,0,0,0,0,0,0,0,0,0,0,0,0,0,0,0,,,,,,,,,,,,,
89,240774,1745298701026,0.0,-113.0,,-0.09,-0.07,0.88,1.0,0.0,-1.0,0.89,1.06,84.0,3558.0,0.0,2.71,,12.17,1.25,104.2,,29.5,5.0,0.0,0.0,0.0,0.0,0.0,0.0,0.0,0.0,2.26,,,0,0,0,0,0,0,0,0,0,0,0,0,0,0,0,0,,0.0,,,,0.0,38.986019,-76.95002,0.0,50.7,36.0,3.0,0.7
90,240794,1745298701046,,,,,,,,,,,,,,,,,,,,,,,,,,,,,,,,,,0,0,0,0,0,0,0,0,0,0,0,0,0,0,0,0,,,,,,,,,,,,,
91,240814,1745298701066,0.0,-113.0,,-0.07,-0.04,0.91,0.0,0.0,0.0,0.92,1.06,87.0,3414.0,0.0,2.73,,12.12,1.251,104.2,,29.5,5.0,,,,,,,,,,,,0,0,0,0,0,0,0,0,0,0,0,0,0,0,0,0,,,,,,0.0,,,,,,,
92,240834,1745298701086,,,,,,,,,,,,,,,,,,,,,,,,,,,,,,,,,,0,0,0,0,0,0,0,0,0,0,0,0,0,0,0,0,,,,,,,,,,,,,
93,240854,1745298701104,0.0,-110.0,,-0.09,-0.15,0.98,1.0,0.0,-1.0,1.0,1.06,95.0,3342.0,0.0,2.79,,12.16,1.251,104.2,,27.9,5.0,,,,,,,,,,,,0,0,0,0,0,0,0,0,0,0,0,0,0,0,0,0,,,,,,0.0,,,,,,,
94,240874,1745298701124,,,,,,,,,,,,,,,,,,,,,,,0.0,0.0,0.0,0.0,0.0,0.0,0.0,0.0,2.26,,,0,0,0,0,0,0,0,0,0,0,0,0,0,0,0,0,,0.0,,,,,38.986019,-76.95002,0.04,50.7,36.0,3.0,0.7
95,240894,1745298701144,0.0,-95.0,,-0.09,-0.08,0.89,1.0,0.0,-1.0,0.89,1.06,85.0,3284.0,0.0,2.83,,12.16,1.251,104.2,,27.9,5.0,,,,,,,,,,,,0,0,0,0,0,0,0,0,0,0,0,0,0,0,0,0,,,,,,0.0,,,,,,,
96,240914,1745298701164,,,,,,,,,,,,,,,,,,,,,,,,,,,,,,,,,,0,0,0,0,0,0,0,0,0,0,0,0,0,0,0,0,,,,,,,,,,,,,
97,240934,1745298701184,0.0,-106.0,,-0.08,-0.06,0.98,0.0,0.0,0.0,0.98,1.06,93.0,3284.0,0.0,2.83,,12.17,1.251,104.2,,27.7,5.0,,,,,,,,,,,,0,0,0,0,0,0,0,0,0,0,0,0,0,0,0,0,,,,,,0.0,,,,,,,
98,240954,1745298701214,,,,,,,,,,,,,,,,,,,,,,,,,,,,,,,,,,0,0,0,0,0,0,0,0,0,0,0,0,0,0,0,0,,,,,,,,,,,,,
99,240974,1745298701234,0.0,-117.0,,-0.11,-0.13,0.98,1.0,0.0,-1.0,1.0,1.06,95.0,3278.0,0.0,2.78,,12.15,1.252,104.2,,27.7,5.0,0.0,0.0,0.0,0.0,0.0,0.0,0.0,0.0,2.26,,,0,0,0,0,0,0,0,0,0,0,0,0,0,0,0,0,,0.0,,,,0.0,38.986019,-76.95002,0.04,50.7,36.0,3.0,0.7
100,240994,1745298701254,,,,,,,,,,,,,,,,,,,,,,,,,,,,,,,,,,0,0,0,0,0,0,0,0,0,0,0,0,0,0,0,0,,,,,,,,,,,,,
101,241014,1745298701274,0.0,-132.0,,-0.1,-0.05,0.88,1.0,0.0,-1.0,0.89,1.06,84.0,3203.0,0.0,2.85,,12.07,1.253,104.2,,27.7,5.0,,,,,,,,,,,,0,0,0,0,0,0,0,0,0,0,0,0,0,0,0,0,,,,,,0.0,,,,,,,
102,241034,1745298701294,,,,,,,,,,,,,,,,,,,,,,,,,,,,,,,,,,0,0,0,0,0,0,0,0,0,0,0,0,0,0,0,0,,,,,,,,,,,,,
103,241054,1745298701314,0.0,-125.0,,-0.08,-0.0,0.83,1.0,0.0,0.0,0.83,1.06,79.0,3045.0,0.0,2.88,,12.13,1.253,104.2,,26.0,5.0,,,,,,,,,,,,0,0,0,0,0,0,0,0,0,0,0,0,0,0,0,0,,,,,,0.0,,,,,,,
104,241074,1745298701334,,,,,,,,,,,,,,,,,,,,,,,0.0,0.0,0.0,0.0,0.0,0.0,0.0,0.0,2.26,,,0,0,0,0,0,0,0,0,0,0,0,0,0,0,0,0,,0.0,,,,,38.986019,-76.95002,0.0,50.7,36.0,3.0,0.7
105,241094,1745298701354,0.0,-117.0,,-0.06,0.03,0.81,1.0,0.0,0.0,0.81,1.06,77.0,2976.0,0.0,2.91,,12.13,1.253,104.2,,26.0,5.0,,,,,,,,,,,,0,0,0,0,0,0,0,0,0,0,0,0,0,0,0,0,,,,,,0.0,,,,,,,
106,241114,1745298701374,,,,,,,,,,,,,,,,,,,,,,,,,,,,,,,,,,0,0,0,0,0,0,0,0,0,0,0,0,0,0,0,0,,,,,,,,,,,,,
107,241134,1745298701394,0.0,-102.0,,-0.04,0.05,0.79,1.0,0.0,0.0,0.79,1.06,75.0,2976.0,0.0,2.91,,12.19,1.253,104.2,,24.5,5.0,,,,,,,,,,,,0,0,0,0,0,0,0,0,0,0,0,0,0,0,0,0,,,,,,0.0,,,,,,,
108,241154,1745298701414,,,,,,,,,,,,,,,,,,,,,,,,,,,,,,,,,,0,0,0,0,0,0,0,0,0,0,0,0,0,0,0,0,,,,,,,,,,,,,
109,241174,1745298701434,0.0,-102.0,,-0.06,0.01,0.81,1.0,0.0,-1.0,0.81,1.06,77.0,2859.0,0.0,2.98,,12.28,1.252,104.2,,24.5,5.0,0.0,0.0,0.0,0.0,0.0,0.0,0.0,0.0,2.26,,,0,0,0,0,0,0,0,0,0,0,0,0,0,0,0,0,,0.0,,,,0.0,38.986019,-76.95002,0.0,50.7,36.0,3.0,0.7
110,241194,1745298701454,,,,,,,,,,,,,,,,,,,,,,,,,,,,,,,,,,0,0,0,0,0,0,0,0,0,0,0,0,0,0,0,0,,,,,,,,,,,,,
111,241214,1745298701474,0.0,-121.0,,-0.06,-0.02,0.87,1.0,0.0,-1.0,0.87,1.06,83.0,2848.0,2.7,3.04,,12.45,1.251,104.2,,24.5,5.0,,,,,,,,,,,,0,0,0,0,0,0,0,0,0,0,0,0,0,0,0,0,,,,,,0.0,,,,,,,
112,241234,1745298701494,,,,,,,,,,,,,,,,,,,,,,,,,,,,,,,,,,0,0,0,0,0,0,0,0,0,0,0,0,0,0,0,0,,,,,,,,,,,,,
113,241254,1745298701514,0.0,-117.0,,-0.06,-0.01,0.87,1.0,0.0,0.0,0.87,1.06,82.0,2719.0,10.9,3.89,,13.23,1.251,104.2,,22.7,5.0,,,,,,,,,,,,0,0,0,0,0,0,0,0,0,0,0,0,0,0,0,0,,,,,,0.0,,,,,,,
114,241274,1745298701534,,,,,,,,,,,,,,,,,,,,,,,0.0,0.0,0.0,0.0,0.0,0.0,0.0,0.0,2.26,,,0,0,0,0,0,0,0,0,0,0,0,0,0,0,0,0,,0.0,,,,,38.986019,-76.95002,0.04,50.7,36.0,3.0,0.7
115,241294,1745298701554,0.0,-110.0,,-0.07,-0.01,0.89,1.0,0.0,-1.0,0.89,1.06,85.0,2743.0,18.0,4.45,,13.23,1.251,104.2,,22.7,5.0,,,,,,,,,,,,0,0,0,0,0,0,0,0,0,0,0,0,0,0,0,0,,,,,,0.0,,,,,,,
116,241314,1745298701574,,,,,,,,,,,,,,,,,,,,,,,,,,,,,,,,,,0,0,0,0,0,0,0,0,0,0,0,0,0,0,0,0,,,,,,,,,,,,,
117,241334,1745298701594,0.0,-102.0,,-0.07,-0.05,0.95,1.0,0.0,0.0,0.95,1.06,90.0,2743.0,18.0,4.45,,13.83,1.25,104.2,,22.8,5.0,,,,,,,,,,,,0,0,0,0,0,0,0,0,0,0,0,0,0,0,0,0,,,,,,0.0,,,,,,,
118,241354,1745298701614,,,,,,,,,,,,,,,,,,,,,,,,,,,,,,,,,,0,0,0,0,0,0,0,0,0,0,0,0,0,0,0,0,,,,,,,,,,,,,
119,241374,1745298701634,0.0,-113.0,,-0.06,-0.02,0.97,0.0,0.0,0.0,0.97,1.06,92.0,2800.0,19.2,4.46,,14.06,1.251,104.2,,22.8,5.0,0.0,0.0,0.0,0.0,0.0,0.0,0.0,0.0,2.26,,,0,0,0,0,0,0,0,0,0,0,0,0,0,0,0,0,,0.0,,,,0.0,38.986019,-76.95002,0.05,50.7,36.0,3.0,0.7
120,241394,1745298701654,,,,,,,,,,,,,,,,,,,,,,,,,,,,,,,,,,0,0,0,0,0,0,0,0,0,0,0,0,0,0,0,0,,,,,,,,,,,,,
121,241414,1745298701674,0.0,-132.0,,-0.06,-0.05,1.07,-1.0,0.0,1.0,1.08,1.08,100.0,2960.0,19.4,4.46,,13.98,1.25,104.2,,22.8,5.0,,,,,,,,,,,,0,0,0,0,0,0,0,0,0,0,0,0,0,0,0,0,,,,,,0.0,,,,,,,
122,241434,1745298701694,,,,,,,,,,,,,,,,,,,,,,,,,,,,,,,,,,0,0,0,0,0,0,0,0,0,0,0,0,0,0,0,0,,,,,,,,,,,,,
123,241454,1745298701714,0.0,-121.0,,-0.05,-0.04,1.03,-1.0,0.0,0.0,1.03,1.08,96.0,3601.0,7.1,4.03,,13.61,1.252,104.2,,26.2,5.0,,,,,,,,,,,,0,0,0,0,0,0,0,0,0,0,0,0,0,0,0,0,,,,,,0.0,,,,,,,
124,241474,1745298701734,,,,,,,,,,,,,,,,,,,,,,,0.0,0.0,0.0,0.0,0.0,0.0,0.0,0.0,2.26,,,0,0,0,0,0,0,0,0,0,0,0,0,0,0,0,0,,0.0,,,,,38.986019,-76.95002,0.08,50.7,36.0,3.0,0.7
125,241494,1745298701754,0.0,-95.0,,-0.04,-0.05,1.04,-1.0,0.0,0.0,1.04,1.08,96.0,3713.0,0.0,2.68,,13.61,1.252,104.2,,26.2,5.0,,,,,,,,,,,,0,0,0,0,0,0,0,0,0,0,0,0,0,0,0,0,,,,,,0.0,,,,,,,
126,241514,1745298701774,,,,,,,,,,,,,,,,,,,,,,,,,,,,,,,,,,0,0,0,0,0,0,0,0,0,0,0,0,0,0,0,0,,,,,,,,,,,,,
127,241534,1745298701794,0.0,-106.0,,-0.04,-0.07,1.04,0.0,0.0,0.0,1.04,1.08,97.0,3713.0,0.0,2.68,,12.77,1.253,104.2,,30.8,5.0,,,,,,,,,,,,0,0,0,0,0,0,0,0,0,0,0,0,0,0,0,0,,,,,,0.0,,,,,,,
128,241554,1745298701813,,,,,,,,,,,,,,,,,,,,,,,,,,,,,,,,,,0,0,0,0,0,0,0,0,0,0,0,0,0,0,0,0,,,,,,,,,,,,,
129,241574,1745298701833,0.0,-98.0,13.27,-0.04,-0.06,1.0,0.0,0.0,0.0,1.0,1.08,93.0,3737.0,0.0,2.65,15.0,12.25,1.24,104.2,167.0,30.8,5.0,0.0,0.0,0.0,0.0,0.0,0.0,0.0,0.0,2.26,0.0,1.0,0,0,0,0,0,0,0,0,0,0,0,0,0,0,0,0,0.0,0.0,1.0,0.0,0.0,0.0,38.986019,-76.95002,0.07,50.7,36.0,3.0,0.7
130,241594,1745298701853,,,,,,,,,,,,,,,,,,,,,,,,,,,,,,,,,,0,0,0,0,0,0,0,0,0,0,0,0,0,0,0,0,,,,,,,,,,,,,
131,241614,1745298701873,0.0,-121.0,,-0.06,-0.09,1.01,0.0,0.0,0.0,1.02,1.08,95.0,3608.0,0.0,2.65,,12.03,1.212,104.2,,30.8,5.0,,,,,,,,,,,,0,0,0,0,0,0,0,0,0,0,0,0,0,0,0,0,,,,,,0.0,,,,,,,
132,241634,1745298701893,,,,,,,,,,,,,,,,,,,,,,,,,,,,,,,,,,0,0,0,0,0,0,0,0,0,0,0,0,0,0,0,0,,,,,,,,,,,,,
133,241654,1745298701913,0.0,-121.0,,-0.05,-0.07,1.06,-1.0,0.0,0.0,1.06,1.08,99.0,3505.0,0.0,2.72,,11.92,1.233,104.2,,29.3,5.0,,,,,,,,,,,,0,0,0,0,0,0,0,0,0,0,0,0,0,0,0,0,,,,,,0.0,,,,,,,
134,241674,1745298701933,,,,,,,,,,,,,,,,,,,,,,,0.0,0.0,0.0,0.0,0.0,0.0,0.0,0.0,2.26,,,0,0,0,0,0,0,0,0,0,0,0,0,0,0,0,0,,0.0,,,,,38.986019,-76.95002,0.07,50.7,36.0,3.0,0.7
135,241694,1745298701953,0.0,-113.0,,-0.05,-0.08,0.96,0.0,0.0,0.0,0.97,1.08,90.0,3376.0,0.0,2.74,,11.92,1.233,104.2,,29.3,5.0,,,,,,,,,,,,0,0,0,0,0,0,0,0,0,0,0,0,0,0,0,0,,,,,,0.0,,,,,,,
136,241714,1745298701973,,,,,,,,,,,,,,,,,,,,,,,,,,,,,,,,,,0,0,0,0,0,0,0,0,0,0,0,0,0,0,0,0,,,,,,,,,,,,,
137,241734,1745298701993,0.0,-121.0,,-0.06,-0.01,0.94,0.0,0.0,0.0,0.94,1.08,87.0,3376.0,0.0,2.74,,11.95,1.251,104.2,,27.3,5.0,,,,,,,,,,,,0,0,0,0,0,0,0,0,0,0,0,0,0,0,0,0,,,,,,0.0,,,,,,,
138,241754,1745298702003,,,,,,,,,,,,,,,,,,,,,,,,,,,,,,,,,,0,0,0,0,0,0,0,0,0,0,0,0,0,0,0,0,,,,,,,,,,,,,
139,241774,1745298702023,0.0,-121.0,,-0.07,-0.1,1.0,0.0,0.0,0.0,1.0,1.08,93.0,3240.0,0.1,2.81,,12.07,1.25,104.2,,27.3,5.0,0.0,0.0,0.0,0.0,0.0,0.0,0.0,0.0,2.26,,,0,0,0,0,0,0,0,0,0,0,0,0,0,0,0,0,,0.0,,,,0.0,38.986019,-76.95002,0.04,50.7,36.0,3.0,0.7
140,241794,1745298702043,,,,,,,,,,,,,,,,,,,,,,,,,,,,,,,,,,0,0,0,0,0,0,0,0,0,0,0,0,0,0,0,0,,,,,,,,,,,,,
141,241814,1745298702063,0.0,-110.0,,-0.1,-0.11,0.99,0.0,0.0,-1.0,1.0,1.08,93.0,3160.0,3.4,3.48,,12.43,1.251,104.2,,27.3,5.0,,,,,,,,,,,,0,0,0,0,0,0,0,0,0,0,0,0,0,0,0,0,,,,,,0.0,,,,,,,
142,241834,1745298702083,,,,,,,,,,,,,,,,,,,,,,,,,,,,,,,,,,0,0,0,0,0,0,0,0,0,0,0,0,0,0,0,0,,,,,,,,,,,,,
143,241854,1745298702107,0.0,-106.0,,-0.12,-0.11,0.95,1.0,0.0,-1.0,0.96,1.08,90.0,3034.0,3.9,3.69,,12.72,1.251,104.2,,25.7,5.0,,,,,,,,,,,,0,0,0,0,0,0,0,0,0,0,0,0,0,0,0,0,,,,,,0.0,,,,,,,
144,241874,1745298702127,,,,,,,,,,,,,,,,,,,,,,,0.0,0.0,0.0,0.0,0.0,0.0,0.0,0.0,2.26,,,0,0,0,0,0,0,0,0,0,0,0,0,0,0,0,0,,0.0,,,,,38.986019,-76.95002,0.08,50.7,36.0,3.0,0.7
145,241894,1745298702147,0.0,-98.0,,-0.14,-0.09,0.9,1.0,0.0,-1.0,0.91,1.08,85.0,3047.0,4.1,3.74,,12.72,1.251,104.2,,25.7,5.0,,,,,,,,,,,,0,0,0,0,0,0,0,0,0,0,0,0,0,0,0,0,,,,,,0.0,,,,,,,
146,241914,1745298702167,,,,,,,,,,,,,,,,,,,,,,,,,,,,,,,,,,0,0,0,0,0,0,0,0,0,0,0,0,0,0,0,0,,,,,,,,,,,,,
147,241934,1745298702187,0.0,-113.0,,-0.15,-0.07,0.83,1.0,0.0,-1.0,0.85,1.08,79.0,3047.0,4.1,3.74,,12.92,1.251,104.2,,24.6,5.0,,,,,,,,,,,,0,0,0,0,0,0,0,0,0,0,0,0,0,0,0,0,,,,,,0.0,,,,,,,
148,241954,1745298702213,,,,,,,,,,,,,,,,,,,,,,,,,,,,,,,,,,0,0,0,0,0,0,0,0,0,0,0,0,0,0,0,0,,,,,,,,,,,,,
149,241974,1745298702233,0.0,-113.0,,-0.15,-0.05,0.76,1.0,0.0,-1.0,0.78,1.08,72.0,3054.0,0.0,3.54,,12.84,1.252,104.2,,24.6,5.0,0.0,0.0,0.0,0.0,0.0,0.0,0.0,0.0,2.26,,,0,0,0,0,0,0,0,0,0,0,0,0,0,0,0,0,,0.0,,,,0.0,38.986019,-76.95002,0.0,50.7,36.0,3.0,0.7
150,241994,1745298702253,,,,,,,,,,,,,,,,,,,,,,,,,,,,,,,,,,0,0,0,0,0,0,0,0,0,0,0,0,0,0,0,0,,,,,,,,,,,,,
151,242014,1745298702273,0.0,-113.0,,-0.13,-0.01,0.71,2.0,0.0,-1.0,0.72,1.08,67.0,3032.0,0.0,2.94,,12.64,1.253,104.2,,24.6,5.0,,,,,,,,,,,,0,0,0,0,0,0,0,0,0,0,0,0,0,0,0,0,,,,,,0.0,,,,,,,
152,242034,1745298702293,,,,,,,,,,,,,,,,,,,,,,,,,,,,,,,,,,0,0,0,0,0,0,0,0,0,0,0,0,0,0,0,0,,,,,,,,,,,,,
153,242054,1745298702311,0.0,-129.0,,-0.12,0.01,0.68,2.0,0.0,-1.0,0.69,1.08,64.0,2971.0,0.0,2.93,,12.52,1.253,104.2,,25.0,5.0,,,,,,,,,,,,0,0,0,0,0,0,0,0,0,0,0,0,0,0,0,0,,,,,,0.0,,,,,,,
154,242074,1745298702331,,,,,,,,,,,,,,,,,,,,,,,0.0,0.0,0.0,0.0,0.0,0.0,0.0,0.0,2.26,,,0,0,0,0,0,0,0,0,0,0,0,0,0,0,0,0,,0.0,,,,,38.986019,-76.95002,0.07,50.7,36.0,3.0,0.7
155,242094,1745298702351,0.0,-106.0,,-0.12,-0.01,0.67,2.0,0.0,-1.0,0.68,1.08,63.0,2901.0,0.0,2.97,,12.52,1.253,104.2,,25.0,5.0,,,,,,,,,,,,0,0,0,0,0,0,0,0,0,0,0,0,0,0,0,0,,,,,,0.0,,,,,,,
156,242114,1745298702371,,,,,,,,,,,,,,,,,,,,,,,,,,,,,,,,,,0,0,0,0,0,0,0,0,0,0,0,0,0,0,0,0,,,,,,,,,,,,,
157,242134,1745298702391,0.0,-98.0,,-0.14,-0.05,0.73,2.0,0.0,-1.0,0.74,1.08,69.0,2901.0,0.0,2.97,,12.49,1.253,104.2,,23.1,5.0,,,,,,,,,,,,0,0,0,0,0,0,0,0,0,0,0,0,0,0,0,0,,,,,,0.0,,,,,,,
158,242154,1745298702413,,,,,,,,,,,,,,,,,,,,,,,,,,,,,,,,,,0,0,0,0,0,0,0,0,0,0,0,0,0,0,0,0,,,,,,,,,,,,,
159,242174,1745298702433,0.0,-98.0,,-0.12,-0.05,0.79,2.0,0.0,-1.0,0.8,1.08,75.0,2810.0,0.0,3.03,,12.49,1.252,104.2,,23.1,5.0,0.0,0.0,0.0,0.0,0.0,0.0,0.0,0.0,2.26,,,0,0,0,0,0,0,0,0,0,0,0,0,0,0,0,0,,0.0,,,,0.0,38.986019,-76.95002,0.04,50.7,36.0,3.0,0.7
160,242194,1745298702453,,,,,,,,,,,,,,,,,,,,,,,,,,,,,,,,,,0,0,0,0,0,0,0,0,0,0,0,0,0,0,0,0,,,,,,,,,,,,,
161,242214,1745298702473,0.0,-106.0,,-0.12,-0.03,0.78,1.0,0.0,-1.0,0.79,1.08,74.0,2775.0,0.6,3.06,,12.64,1.251,104.2,,23.1,5.0,,,,,,,,,,,,0,0,0,0,0,0,0,0,0,0,0,0,0,0,0,0,,,,,,0.0,,,,,,,
162,242234,1745298702493,,,,,,,,,,,,,,,,,,,,,,,,,,,,,,,,,,0,0,0,0,0,0,0,0,0,0,0,0,0,0,0,0,,,,,,,,,,,,,
163,242254,1745298702511,0.0,-113.0,,-0.12,-0.04,0.83,1.0,0.0,-1.0,0.84,1.08,78.0,2725.0,4.7,3.68,,13.0,1.25,104.2,,22.4,5.0,,,,,,,,,,,,0,0,0,0,0,0,0,0,0,0,0,0,0,0,0,0,,,,,,0.0,,,,,,,
164,242274,1745298702531,,,,,,,,,,,,,,,,,,,,,,,0.0,0.0,0.0,0.0,0.0,0.0,0.0,0.0,2.26,,,0,0,0,0,0,0,0,0,0,0,0,0,0,0,0,0,,0.0,,,,,38.986019,-76.95002,0.05,50.7,36.0,3.0,0.7
165,242294,1745298702551,0.0,-98.0,,-0.12,-0.03,0.84,1.0,0.0,-1.0,0.84,1.08,79.0,2609.0,5.9,3.78,,13.0,1.25,104.2,,22.4,5.0,,,,,,,,,,,,0,0,0,0,0,0,0,0,0,0,0,0,0,0,0,0,,,,,,0.0,,,,,,,
166,242314,1745298702571,,,,,,,,,,,,,,,,,,,,,,,,,,,,,,,,,,0,0,0,0,0,0,0,0,0,0,0,0,0,0,0,0,,,,,,,,,,,,,
167,242334,1745298702591,0.0,-117.0,,-0.11,-0.03,0.86,1.0,0.0,-1.0,0.87,1.08,80.0,2609.0,5.9,3.78,,13.31,1.25,104.2,,22.1,5.0,,,,,,,,,,,,0,0,0,0,0,0,0,0,0,0,0,0,0,0,0,0,,,,,,0.0,,,,,,,
168,242354,1745298702613,,,,,,,,,,,,,,,,,,,,,,,,,,,,,,,,,,0,0,0,0,0,0,0,0,0,0,0,0,0,0,0,0,,,,,,,,,,,,,
169,242374,1745298702633,0.0,-110.0,,-0.11,-0.04,0.9,1.0,0.0,-1.0,0.9,1.08,84.0,2662.0,6.0,3.8,,13.43,1.25,104.2,,22.1,5.0,0.0,0.0,0.0,0.0,0.0,0.0,0.0,0.0,2.26,,,0,0,0,0,0,0,0,0,0,0,0,0,0,0,0,0,,0.0,,,,0.0,38.986019,-76.95002,0.04,50.7,36.0,3.0,0.7
170,242394,1745298702653,,,,,,,,,,,,,,,,,,,,,,,,,,,,,,,,,,0,0,0,0,0,0,0,0,0,0,0,0,0,0,0,0,,,,,,,,,,,,,
171,242414,1745298702673,0.0,-121.0,,-0.09,0.01,0.86,1.0,0.0,0.0,0.86,1.08,80.0,2739.0,0.0,3.1,,13.12,1.25,104.2,,22.1,5.0,,,,,,,,,,,,0,0,0,0,0,0,0,0,0,0,0,0,0,0,0,0,,,,,,0.0,,,,,,,
172,242434,1745298702693,,,,,,,,,,,,,,,,,,,,,,,,,,,,,,,,,,0,0,0,0,0,0,0,0,0,0,0,0,0,0,0,0,,,,,,,,,,,,,
173,242454,1745298702711,0.0,-113.0,,-0.1,-0.02,0.89,1.0,0.0,-1.0,0.9,1.08,83.0,2760.0,0.0,3.07,,12.91,1.252,104.2,,22.4,5.0,,,,,,,,,,,,0,0,0,0,0,0,0,0,0,0,0,0,0,0,0,0,,,,,,0.0,,,,,,,
174,242474,1745298702731,,,,,,,,,,,,,,,,,,,,,,,0.0,0.0,0.0,0.0,0.0,0.0,0.0,0.0,2.26,,,0,0,0,0,0,0,0,0,0,0,0,0,0,0,0,0,,0.0,,,,,38.986019,-76.95002,0.06,50.7,36.0,3.0,0.7
175,242494,1745298702751,0.0,-102.0,,-0.09,-0.03,0.93,1.0,0.0,0.0,0.93,1.08,87.0,2757.0,0.0,3.1,,12.91,1.252,104.2,,22.4,5.0,,,,,,,,,,,,0,0,0,0,0,0,0,0,0,0,0,0,0,0,0,0,,,,,,0.0,,,,,,,
176,242514,1745298702771,,,,,,,,,,,,,,,,,,,,,,,,,,,,,,,,,,0,0,0,0,0,0,0,0,0,0,0,0,0,0,0,0,,,,,,,,,,,,,
177,242534,1745298702791,0.0,-106.0,,-0.09,-0.01,0.9,1.0,0.0,0.0,0.91,1.08,84.0,2757.0,0.0,3.1,,12.84,1.253,104.2,,21.9,5.0,,,,,,,,,,,,0,0,0,0,0,0,0,0,0,0,0,0,0,0,0,0,,,,,,0.0,,,,,,,
178,242554,1745298702812,,,,,,,,,,,,,,,,,,,,,,,,,,,,,,,,,,0,0,0,0,0,0,0,0,0,0,0,0,0,0,0,0,,,,,,,,,,,,,
179,242574,1745298702832,0.0,-102.0,13.28,-0.08,-0.03,0.94,0.0,0.0,0.0,0.95,1.08,88.0,2687.0,3.7,3.37,15.0,12.95,1.253,102.4,167.0,21.9,5.0,0.0,0.0,0.0,0.0,0.0,0.0,0.0,0.0,2.26,0.0,1.0,0,0,0,0,0,0,0,0,0,0,0,0,0,0,0,0,0.0,0.0,1.0,0.0,0.0,0.0,38.986019,-76.95002,0.13,50.7,36.0,3.0,0.7
180,242594,1745298702852,,,,,,,,,,,,,,,,,,,,,,,,,,,,,,,,,,0,0,0,0,0,0,0,0,0,0,0,0,0,0,0,0,,,,,,,,,,,,,
181,242614,1745298702872,0.0,-113.0,,-0.09,-0.05,0.93,1.0,0.0,0.0,0.93,1.08,87.0,2635.0,10.8,3.89,,13.49,1.252,102.4,,21.9,5.0,,,,,,,,,,,,0,0,0,0,0,0,0,0,0,0,0,0,0,0,0,0,,,,,,0.0,,,,,,,
182,242634,1745298702892,,,,,,,,,,,,,,,,,,,,,,,,,,,,,,,,,,0,0,0,0,0,0,0,0,0,0,0,0,0,0,0,0,,,,,,,,,,,,,
183,242654,1745298702912,0.0,-113.0,,-0.09,-0.05,0.97,0.0,0.0,0.0,0.97,1.08,91.0,2680.0,12.7,3.96,,13.8,1.251,102.4,,21.1,5.0,,,,,,,,,,,,0,0,0,0,0,0,0,0,0,0,0,0,0,0,0,0,,,,,,0.0,,,,,,,
184,242674,1745298702932,,,,,,,,,,,,,,,,,,,,,,,0.0,0.0,0.0,0.0,0.0,0.0,0.0,0.0,2.26,,,0,0,0,0,0,0,0,0,0,0,0,0,0,0,0,0,,0.0,,,,,38.986019,-76.95002,0.09,50.7,36.0,3.0,0.7
185,242694,1745298702952,0.0,-106.0,,-0.08,-0.04,0.95,0.0,0.0,0.0,0.95,1.08,89.0,2739.0,13.0,4.05,,13.8,1.251,102.4,,21.1,5.0,,,,,,,,,,,,0,0,0,0,0,0,0,0,0,0,0,0,0,0,0,0,,,,,,0.0,,,,,,,
186,242714,1745298702972,,,,,,,,,,,,,,,,,,,,,,,,,,,,,,,,,,0,0,0,0,0,0,0,0,0,0,0,0,0,0,0,0,,,,,,,,,,,,,
187,242734,1745298702992,0.0,-117.0,,-0.07,-0.02,0.95,0.0,0.0,0.0,0.95,1.08,88.0,2739.0,13.0,4.05,,13.83,1.25,102.4,,23.1,5.0,,,,,,,,,,,,0,0,0,0,0,0,0,0,0,0,0,0,0,0,0,0,,,,,,0.0,,,,,,,
188,242754,1745298703002,,,,,,,,,,,,,,,,,,,,,,,,,,,,,,,,,,0,0,0,0,0,0,0,0,0,0,0,0,0,0,0,0,,,,,,,,,,,,,
189,242774,1745298703022,0.0,-121.0,,-0.09,-0.03,0.93,0.0,0.0,0.0,0.93,1.08,86.0,2832.0,0.0,3.07,,13.37,1.25,102.4,,23.1,5.0,0.0,0.0,0.0,0.0,0.0,0.0,0.0,0.0,2.26,,,0,0,0,0,0,0,0,0,0,0,0,0,0,0,0,0,,0.0,,,,0.0,38.986019,-76.95002,0.04,50.7,36.0,3.0,0.7
190,242794,1745298703042,,,,,,,,,,,,,,,,,,,,,,,,,,,,,,,,,,0,0,0,0,0,0,0,0,0,0,0,0,0,0,0,0,,,,,,,,,,,,,
191,242814,1745298703062,0.0,-102.0,,-0.1,-0.07,0.96,0.0,0.0,0.0,0.97,1.08,90.0,2904.0,0.0,3.02,,13.05,1.25,102.4,,23.1,5.0,,,,,,,,,,,,0,0,0,0,0,0,0,0,0,0,0,0,0,0,0,0,,,,,,0.0,,,,,,,
192,242834,1745298703082,,,,,,,,,,,,,,,,,,,,,,,,,,,,,,,,,,0,0,0,0,0,0,0,0,0,0,0,0,0,0,0,0,,,,,,,,,,,,,
193,242854,1745298703114,0.0,-113.0,,-0.1,-0.11,1.0,0.0,0.0,0.0,1.01,1.08,94.0,2892.0,0.0,3.05,,12.85,1.25,102.4,,23.1,5.0,,,,,,,,,,,,0,0,0,0,0,0,0,0,0,0,0,0,0,0,0,0,,,,,,0.0,,,,,,,
194,242874,1745298703134,,,,,,,,,,,,,,,,,,,,,,,0.0,0.0,0.0,0.0,0.0,0.0,0.0,0.0,2.26,,,0,0,0,0,0,0,0,0,0,0,0,0,0,0,0,0,,0.0,,,,,38.986019,-76.95002,0.05,50.7,36.0,3.0,0.7
195,242894,1745298703154,0.0,-106.0,,-0.1,-0.1,0.99,0.0,0.0,0.0,1.0,1.08,93.0,2807.0,0.0,3.04,,12.85,1.25,102.4,,23.1,5.0,,,,,,,,,,,,0,0,0,0,0,0,0,0,0,0,0,0,0,0,0,0,,,,,,0.0,,,,,,,
196,242914,1745298703174,,,,,,,,,,,,,,,,,,,,,,,,,,,,,,,,,,0,0,0,0,0,0,0,0,0,0,0,0,0,0,0,0,,,,,,,,,,,,,
197,242934,1745298703194,0.0,-106.0,,-0.11,-0.09,0.98,0.0,0.0,0.0,0.99,1.08,92.0,2807.0,0.0,3.04,,12.76,1.251,102.4,,22.5,5.0,,,,,,,,,,,,0,0,0,0,0,0,0,0,0,0,0,0,0,0,0,0,,,,,,0.0,,,,,,,
198,242954,1745298703210,,,,,,,,,,,,,,,,,,,,,,,,,,,,,,,,,,0,0,0,0,0,0,0,0,0,0,0,0,0,0,0,0,,,,,,,,,,,,,
199,242974,1745298703230,0.0,-106.0,,-0.1,-0.11,1.01,0.0,0.0,0.0,1.02,1.08,95.0,2769.0,0.0,3.09,,12.72,1.252,102.4,,22.5,5.0,0.0,0.0,0.0,0.0,0.0,0.0,0.0,0.0,2.26,,,0,0,0,0,0,0,0,0,0,0,0,0,0,0,0,0,,0.0,,,,0.0,38.986019,-76.95002,0.05,50.7,36.0,3.0,0.7
200,242994,1745298703250,,,,,,,,,,,,,,,,,,,,,,,,,,,,,,,,,,0,0,0,0,0,0,0,0,0,0,0,0,0,0,0,0,,,,,,,,,,,,,
201,243014,1745298703270,0.0,-110.0,,-0.1,-0.09,0.97,0.0,0.0,0.0,0.98,1.08,91.0,2671.0,0.0,3.07,,12.8,1.252,102.4,,22.5,5.0,,,,,,,,,,,,0,0,0,0,0,0,0,0,0,0,0,0,0,0,0,0,,,,,,0.0,,,,,,,
202,243034,1745298703290,,,,,,,,,,,,,,,,,,,,,,,,,,,,,,,,,,0,0,0,0,0,0,0,0,0,0,0,0,0,0,0,0,,,,,,,,,,,,,
203,243054,1745298703312,0.0,-113.0,,-0.09,-0.08,1.01,0.0,0.0,0.0,1.01,1.08,94.0,2543.0,0.0,3.12,,12.91,1.253,102.4,,21.8,5.0,,,,,,,,,,,,0,0,0,0,0,0,0,0,0,0,0,0,0,0,0,0,,,,,,0.0,,,,,,,
204,243074,1745298703332,,,,,,,,,,,,,,,,,,,,,,,0.0,0.0,0.0,0.0,0.0,0.0,0.0,0.0,2.26,,,0,0,0,0,0,0,0,0,0,0,0,0,0,0,0,0,,0.0,,,,,38.986019,-76.95002,0.09,50.7,36.0,3.0,0.7
205,243094,1745298703352,0.0,-95.0,,-0.1,-0.07,0.99,0.0,0.0,0.0,1.0,1.08,93.0,2575.0,0.0,3.14,,12.91,1.253,102.4,,21.8,5.0,,,,,,,,,,,,0,0,0,0,0,0,0,0,0,0,0,0,0,0,0,0,,,,,,0.0,,,,,,,
206,243114,1745298703372,,,,,,,,,,,,,,,,,,,,,,,,,,,,,,,,,,0,0,0,0,0,0,0,0,0,0,0,0,0,0,0,0,,,,,,,,,,,,,
207,243134,1745298703392,0.0,-102.0,,-0.09,-0.08,1.0,0.0,0.0,0.0,1.01,1.08,93.0,2575.0,0.0,3.14,,12.91,1.252,102.4,,20.8,5.0,,,,,,,,,,,,0,0,0,0,0,0,0,0,0,0,0,0,0,0,0,0,,,,,,0.0,,,,,,,
208,243154,1745298703412,,,,,,,,,,,,,,,,,,,,,,,,,,,,,,,,,,0,0,0,0,0,0,0,0,0,0,0,0,0,0,0,0,,,,,,,,,,,,,
209,243174,1745298703432,0.0,-98.0,,-0.08,-0.08,0.98,0.0,0.0,0.0,0.99,1.08,92.0,2490.0,0.0,3.16,,12.93,1.251,102.4,,20.8,5.0,0.0,0.0,0.0,0.0,0.0,0.0,0.0,0.0,2.26,,,0,0,0,0,0,0,0,0,0,0,0,0,0,0,0,0,,0.0,,,,0.0,38.986019,-76.95002,0.05,50.7,36.0,3.0,0.7
210,243194,1745298703452,,,,,,,,,,,,,,,,,,,,,,,,,,,,,,,,,,0,0,0,0,0,0,0,0,0,0,0,0,0,0,0,0,,,,,,,,,,,,,
211,243214,1745298703472,0.0,-102.0,,-0.09,-0.06,0.98,0.0,0.0,0.0,0.99,1.08,92.0,2497.0,0.0,3.16,,13.04,1.25,102.4,,20.8,5.0,,,,,,,,,,,,0,0,0,0,0,0,0,0,0,0,0,0,0,0,0,0,,,,,,0.0,,,,,,,
212,243234,1745298703492,,,,,,,,,,,,,,,,,,,,,,,,,,,,,,,,,,0,0,0,0,0,0,0,0,0,0,0,0,0,0,0,0,,,,,,,,,,,,,
213,243254,1745298703512,0.0,-117.0,,-0.08,-0.06,0.98,0.0,0.0,0.0,0.98,1.08,91.0,2416.0,4.8,3.6,,13.37,1.249,102.4,,20.1,5.0,,,,,,,,,,,,0,0,0,0,0,0,0,0,0,0,0,0,0,0,0,0,,,,,,0.0,,,,,,,
214,243274,1745298703532,,,,,,,,,,,,,,,,,,,,,,,0.0,0.0,0.0,0.0,0.0,0.0,0.0,0.0,2.26,,,0,0,0,0,0,0,0,0,0,0,0,0,0,0,0,0,,0.0,,,,,38.986019,-76.95002,0.06,50.7,36.0,3.0,0.7
215,243294,1745298703552,0.0,-102.0,,-0.08,-0.08,1.0,0.0,0.0,0.0,1.0,1.08,93.0,2395.0,6.6,3.8,,13.37,1.249,102.4,,20.1,5.0,,,,,,,,,,,,0,0,0,0,0,0,0,0,0,0,0,0,0,0,0,0,,,,,,0.0,,,,,,,
216,243314,1745298703572,,,,,,,,,,,,,,,,,,,,,,,,,,,,,,,,,,0,0,0,0,0,0,0,0,0,0,0,0,0,0,0,0,,,,,,,,,,,,,
217,243334,1745298703592,0.0,-102.0,,-0.09,-0.09,1.01,0.0,0.0,0.0,1.02,1.08,95.0,2395.0,6.6,3.8,,13.68,1.249,102.4,,20.0,5.0,,,,,,,,,,,,0,0,0,0,0,0,0,0,0,0,0,0,0,0,0,0,,,,,,0.0,,,,,,,
218,243354,1745298703612,,,,,,,,,,,,,,,,,,,,,,,,,,,,,,,,,,0,0,0,0,0,0,0,0,0,0,0,0,0,0,0,0,,,,,,,,,,,,,
219,243374,1745298703632,0.0,-113.0,,-0.08,-0.08,1.01,0.0,0.0,0.0,1.01,1.08,94.0,2443.0,7.4,3.81,,13.83,1.25,102.4,,20.0,5.0,0.0,0.0,0.0,0.0,0.0,0.0,0.0,0.0,2.26,,,0,0,0,0,0,0,0,0,0,0,0,0,0,0,0,0,,0.0,,,,0.0,38.986019,-76.95002,0.13,50.7,36.0,3.0,0.7
220,243394,1745298703652,,,,,,,,,,,,,,,,,,,,,,,,,,,,,,,,,,0,0,0,0,0,0,0,0,0,0,0,0,0,0,0,0,,,,,,,,,,,,,
221,243414,1745298703672,0.0,-98.0,,-0.09,-0.08,1.02,0.0,0.0,0.0,1.02,1.08,95.0,2498.0,0.4,3.8,,13.63,1.251,102.4,,20.0,5.0,,,,,,,,,,,,0,0,0,0,0,0,0,0,0,0,0,0,0,0,0,0,,,,,,0.0,,,,,,,
222,243434,1745298703692,,,,,,,,,,,,,,,,,,,,,,,,,,,,,,,,,,0,0,0,0,0,0,0,0,0,0,0,0,0,0,0,0,,,,,,,,,,,,,
223,243454,1745298703714,0.0,-125.0,,-0.08,-0.05,1.01,0.0,0.0,0.0,1.01,1.08,94.0,2702.0,0.0,3.17,,13.25,1.253,102.4,,21.0,5.0,,,,,,,,,,,,0,0,0,0,0,0,0,0,0,0,0,0,0,0,0,0,,,,,,0.0,,,,,,,
224,243474,1745298703734,,,,,,,,,,,,,,,,,,,,,,,0.0,0.0,0.0,0.0,0.0,0.0,0.0,0.0,2.26,,,0,0,0,0,0,0,0,0,0,0,0,0,0,0,0,0,,0.0,,,,,38.986019,-76.95002,0.13,50.7,36.0,3.0,0.7
225,243494,1745298703754,0.0,-91.0,,-0.09,-0.05,1.0,0.0,0.0,0.0,1.0,1.08,93.0,2716.0,0.0,3.13,,13.25,1.253,102.4,,21.0,5.0,,,,,,,,,,,,0,0,0,0,0,0,0,0,0,0,0,0,0,0,0,0,,,,,,0.0,,,,,,,
226,243514,1745298703774,,,,,,,,,,,,,,,,,,,,,,,,,,,,,,,,,,0,0,0,0,0,0,0,0,0,0,0,0,0,0,0,0,,,,,,,,,,,,,
227,243534,1745298703794,0.0,-95.0,,-0.08,-0.06,1.0,0.0,0.0,0.0,1.0,1.08,93.0,2716.0,0.0,3.13,,13.01,1.253,102.4,,21.1,5.0,,,,,,,,,,,,0,0,0,0,0,0,0,0,0,0,0,0,0,0,0,0,,,,,,0.0,,,,,,,
228,243554,1745298703813,,,,,,,,,,,,,,,,,,,,,,,,,,,,,,,,,,0,0,0,0,0,0,0,0,0,0,0,0,0,0,0,0,,,,,,,,,,,,,
229,243574,1745298703833,0.0,-110.0,13.28,-0.09,-0.06,1.0,0.0,0.0,0.0,1.01,1.08,94.0,2645.0,1.3,3.14,15.0,13.03,1.253,102.4,165.0,21.1,5.0,0.0,0.0,0.0,0.0,0.0,0.0,0.0,0.0,2.25,0.0,1.0,0,0,0,0,0,0,0,0,0,0,0,0,0,0,0,0,0.0,0.0,1.0,0.0,0.0,0.0,38.986019,-76.95002,0.08,50.7,36.0,3.0,0.7
230,243594,1745298703853,,,,,,,,,,,,,,,,,,,,,,,,,,,,,,,,,,0,0,0,0,0,0,0,0,0,0,0,0,0,0,0,0,,,,,,,,,,,,,
231,243614,1745298703873,0.0,-98.0,,-0.08,-0.05,0.99,0.0,0.0,0.0,0.99,1.08,92.0,2610.0,9.3,3.86,,13.52,1.252,102.4,,21.1,5.0,,,,,,,,,,,,0,0,0,0,0,0,0,0,0,0,0,0,0,0,0,0,,,,,,0.0,,,,,,,
232,243634,1745298703893,,,,,,,,,,,,,,,,,,,,,,,,,,,,,,,,,,0,0,0,0,0,0,0,0,0,0,0,0,0,0,0,0,,,,,,,,,,,,,
233,243654,1745298703913,0.0,-117.0,,-0.08,-0.04,0.99,0.0,0.0,0.0,0.99,1.08,92.0,2654.0,10.6,3.93,,13.71,1.25,102.4,,21.0,5.0,,,,,,,,,,,,0,0,0,0,0,0,0,0,0,0,0,0,0,0,0,0,,,,,,0.0,,,,,,,
234,243674,1745298703933,,,,,,,,,,,,,,,,,,,,,,,0.0,0.0,0.0,0.0,0.0,0.0,0.0,0.0,2.26,,,0,0,0,0,0,0,0,0,0,0,0,0,0,0,0,0,,0.0,,,,,38.986019,-76.95002,0.33,50.7,36.0,3.0,0.7
235,243694,1745298703953,0.0,-102.0,,-0.08,-0.06,1.01,0.0,0.0,0.0,1.02,1.08,94.0,2694.0,10.9,4.0,,13.71,1.25,102.4,,21.0,5.0,,,,,,,,,,,,0,0,0,0,0,0,0,0,0,0,0,0,0,0,0,0,,,,,,0.0,,,,,,,
236,243714,1745298703973,,,,,,,,,,,,,,,,,,,,,,,,,,,,,,,,,,0,0,0,0,0,0,0,0,0,0,0,0,0,0,0,0,,,,,,,,,,,,,
237,243734,1745298703993,0.0,-106.0,,-0.08,-0.05,1.0,0.0,0.0,0.0,1.0,1.08,93.0,2694.0,10.9,4.0,,13.8,1.249,102.4,,22.7,5.0,,,,,,,,,,,,0,0,0,0,0,0,0,0,0,0,0,0,0,0,0,0,,,,,,0.0,,,,,,,
238,243754,1745298704003,,,,,,,,,,,,,,,,,,,,,,,,,,,,,,,,,,0,0,0,0,0,0,0,0,0,0,0,0,0,0,0,0,,,,,,,,,,,,,
239,243774,1745298704023,0.0,-106.0,,-0.09,-0.04,0.95,0.0,0.0,0.0,0.96,1.08,89.0,2781.0,0.0,3.09,,13.41,1.25,102.4,,22.7,5.0,0.0,0.0,0.0,0.0,0.0,0.0,0.0,0.0,2.26,,,0,0,0,0,0,0,0,0,0,0,0,0,0,0,0,0,,0.0,,,,0.0,38.986019,-76.95002,0.64,50.7,36.0,3.0,0.7
240,243794,1745298704043,,,,,,,,,,,,,,,,,,,,,,,,,,,,,,,,,,0,0,0,0,0,0,0,0,0,0,0,0,0,0,0,0,,,,,,,,,,,,,
241,243814,1745298704063,0.0,-83.0,,-0.09,-0.08,1.0,0.0,0.0,0.0,1.0,1.08,93.0,2825.0,0.0,3.05,,13.11,1.25,102.4,,22.7,5.0,,,,,,,,,,,,0,0,0,0,0,0,0,0,0,0,0,0,0,0,0,0,,,,,,0.0,,,,,,,
242,243834,1745298704083,,,,,,,,,,,,,,,,,,,,,,,,,,,,,,,,,,0,0,0,0,0,0,0,0,0,0,0,0,0,0,0,0,,,,,,,,,,,,,
243,243854,1745298704111,0.0,-102.0,,-0.09,-0.08,1.02,0.0,0.0,0.0,1.02,1.08,95.0,2820.0,0.0,3.09,,12.91,1.25,102.4,,22.6,5.0,,,,,,,,,,,,0,0,0,0,0,0,0,0,0,0,0,0,0,0,0,0,,,,,,0.0,,,,,,,
244,243874,1745298704131,,,,,,,,,,,,,,,,,,,,,,,0.0,0.0,0.0,0.0,0.0,0.0,0.0,0.0,2.26,,,0,0,0,0,0,0,0,0,0,0,0,0,0,0,0,0,,0.0,,,,,38.986019,-76.95002,0.08,50.7,36.0,3.0,0.7
245,243894,1745298704151,0.0,-95.0,,-0.07,-0.04,0.96,0.0,0.0,0.0,0.97,1.08,90.0,2775.0,0.0,3.08,,12.91,1.25,102.4,,22.6,5.0,,,,,,,,,,,,0,0,0,0,0,0,0,0,0,0,0,0,0,0,0,0,,,,,,0.0,,,,,,,
246,243914,1745298704171,,,,,,,,,,,,,,,,,,,,,,,,,,,,,,,,,,0,0,0,0,0,0,0,0,0,0,0,0,0,0,0,0,,,,,,,,,,,,,
247,243934,1745298704191,0.0,-102.0,,-0.08,-0.07,1.0,0.0,0.0,0.0,1.01,1.08,93.0,2775.0,0.0,3.08,,12.88,1.252,102.4,,22.0,5.0,,,,,,,,,,,,0,0,0,0,0,0,0,0,0,0,0,0,0,0,0,0,,,,,,0.0,,,,,,,
248,243954,1745298704213,,,,,,,,,,,,,,,,,,,,,,,,,,,,,,,,,,0,0,0,0,0,0,0,0,0,0,0,0,0,0,0,0,,,,,,,,,,,,,
249,243974,1745298704233,0.0,-102.0,,-0.08,-0.04,0.98,0.0,0.0,0.0,0.99,1.08,92.0,2727.0,7.6,3.89,,13.28,1.253,102.4,,22.0,5.0,0.0,0.0,0.0,0.0,0.0,0.0,0.0,0.0,2.26,,,0,0,0,0,0,0,0,0,0,0,0,0,0,0,0,0,,0.0,,,,0.0,38.986019,-76.95002,0.0,50.7,36.0,3.0,0.7
250,243994,1745298704253,,,,,,,,,,,,,,,,,,,,,,,,,,,,,,,,,,0,0,0,0,0,0,0,0,0,0,0,0,0,0,0,0,,,,,,,,,,,,,
251,244014,1745298704273,0.0,-95.0,,-0.08,-0.03,0.97,0.0,0.0,0.0,0.97,1.08,90.0,2711.0,9.4,3.94,,13.56,1.253,102.4,,22.0,5.0,,,,,,,,,,,,0,0,0,0,0,0,0,0,0,0,0,0,0,0,0,0,,,,,,0.0,,,,,,,
252,244034,1745298704293,,,,,,,,,,,,,,,,,,,,,,,,,,,,,,,,,,0,0,0,0,0,0,0,0,0,0,0,0,0,0,0,0,,,,,,,,,,,,,
253,244054,1745298704313,0.0,-110.0,,-0.09,-0.07,1.01,0.0,0.0,0.0,1.02,1.08,94.0,2779.0,10.2,3.9,,13.69,1.253,102.4,,22.4,5.0,,,,,,,,,,,,0,0,0,0,0,0,0,0,0,0,0,0,0,0,0,0,,,,,,0.0,,,,,,,
254,244074,1745298704333,,,,,,,,,,,,,,,,,,,,,,,0.0,0.0,0.0,0.0,0.0,0.0,0.0,0.0,2.25,,,0,0,0,0,0,0,0,0,0,0,0,0,0,0,0,0,,0.0,,,,,38.986019,-76.95002,0.04,50.7,36.0,3.0,0.7
255,244094,1745298704353,0.0,-110.0,,-0.09,-0.09,1.06,0.0,0.0,0.0,1.07,1.08,99.0,2859.0,9.0,3.93,,13.69,1.253,102.4,,22.4,5.0,,,,,,,,,,,,0,0,0,0,0,0,0,0,0,0,0,0,0,0,0,0,,,,,,0.0,,,,,,,
256,244114,1745298704373,,,,,,,,,,,,,,,,,,,,,,,,,,,,,,,,,,0,0,0,0,0,0,0,0,0,0,0,0,0,0,0,0,,,,,,,,,,,,,
257,244134,1745298704393,0.0,-106.0,,-0.08,-0.13,1.1,0.0,0.0,0.0,1.12,1.12,100.0,2859.0,9.0,3.93,,13.68,1.252,102.4,,23.8,5.0,,,,,,,,,,,,0,0,0,0,0,0,0,0,0,0,0,0,0,0,0,0,,,,,,0.0,,,,,,,
258,244154,1745298704413,,,,,,,,,,,,,,,,,,,,,,,,,,,,,,,,,,0,0,0,0,0,0,0,0,0,0,0,0,0,0,0,0,,,,,,,,,,,,,
259,244174,1745298704433,0.0,-98.0,,-0.09,-0.19,1.16,0.0,0.0,0.0,1.18,1.18,100.0,3061.0,0.0,3.02,,13.16,1.251,102.4,,23.8,5.0,0.0,0.0,0.0,0.0,0.0,0.0,0.0,0.0,2.26,,,0,0,0,0,0,0,0,0,0,0,0,0,0,0,0,0,,0.0,,,,0.0,38.986019,-76.95002,0.04,50.7,36.0,3.0,0.7
260,244194,1745298704453,,,,,,,,,,,,,,,,,,,,,,,,,,,,,,,,,,0,0,0,0,0,0,0,0,0,0,0,0,0,0,0,0,,,,,,,,,,,,,
261,244214,1745298704473,0.0,-102.0,,-0.09,-0.22,1.2,0.0,0.0,0.0,1.22,1.22,100.0,3064.0,0.0,2.97,,12.83,1.25,102.4,,23.8,5.0,,,,,,,,,,,,0,0,0,0,0,0,0,0,0,0,0,0,0,0,0,0,,,,,,0.0,,,,,,,
262,244234,1745298704493,,,,,,,,,,,,,,,,,,,,,,,,,,,,,,,,,,0,0,0,0,0,0,0,0,0,0,0,0,0,0,0,0,,,,,,,,,,,,,
263,244254,1745298704513,0.0,-110.0,,-0.09,-0.25,1.23,0.0,0.0,0.0,1.26,1.26,100.0,2987.0,0.0,2.95,,12.69,1.25,102.4,,24.8,5.0,,,,,,,,,,,,0,0,0,0,0,0,0,0,0,0,0,0,0,0,0,0,,,,,,0.0,,,,,,,
264,244274,1745298704533,,,,,,,,,,,,,,,,,,,,,,,0.0,0.0,0.0,0.0,0.0,0.0,0.0,0.0,2.26,,,0,0,0,0,0,0,0,0,0,0,0,0,0,0,0,0,,0.0,,,,,38.986019,-76.95002,0.06,50.7,36.0,3.0,0.7
265,244294,1745298704553,0.0,-113.0,,-0.08,-0.25,1.25,0.0,0.0,1.0,1.28,1.28,100.0,2929.0,3.4,3.25,,12.69,1.25,102.4,,24.8,5.0,,,,,,,,,,,,0,0,0,0,0,0,0,0,0,0,0,0,0,0,0,0,,,,,,0.0,,,,,,,
266,244314,1745298704573,,,,,,,,,,,,,,,,,,,,,,,,,,,,,,,,,,0,0,0,0,0,0,0,0,0,0,0,0,0,0,0,0,,,,,,,,,,,,,
267,244334,1745298704593,0.0,-110.0,,-0.07,-0.2,1.21,0.0,0.0,1.0,1.23,1.28,96.0,2929.0,3.4,3.25,,12.88,1.25,102.4,,23.2,5.0,,,,,,,,,,,,0,0,0,0,0,0,0,0,0,0,0,0,0,0,0,0,,,,,,0.0,,,,,,,
268,244354,1745298704613,,,,,,,,,,,,,,,,,,,,,,,,,,,,,,,,,,0,0,0,0,0,0,0,0,0,0,0,0,0,0,0,0,,,,,,,,,,,,,
269,244374,1745298704633,0.0,-98.0,,-0.05,-0.15,1.14,0.0,0.0,1.0,1.15,1.28,90.0,2863.0,5.0,3.78,,13.13,1.25,102.4,,23.2,5.0,0.0,0.0,0.0,0.0,0.0,0.0,0.0,0.0,2.26,,,0,0,0,0,0,0,0,0,0,0,0,0,0,0,0,0,,0.0,,,,0.0,38.986019,-76.95002,0.07,50.7,36.0,3.0,0.7
270,244394,1745298704653,,,,,,,,,,,,,,,,,,,,,,,,,,,,,,,,,,0,0,0,0,0,0,0,0,0,0,0,0,0,0,0,0,,,,,,,,,,,,,
271,244414,1745298704673,0.0,-113.0,,-0.05,-0.14,1.08,0.0,0.0,0.0,1.09,1.28,85.0,2891.0,5.3,3.77,,13.23,1.251,102.4,,23.2,5.0,,,,,,,,,,,,0,0,0,0,0,0,0,0,0,0,0,0,0,0,0,0,,,,,,0.0,,,,,,,
272,244434,1745298704693,,,,,,,,,,,,,,,,,,,,,,,,,,,,,,,,,,0,0,0,0,0,0,0,0,0,0,0,0,0,0,0,0,,,,,,,,,,,,,
273,244454,1745298704713,0.0,-106.0,,-0.07,-0.14,1.05,0.0,0.0,0.0,1.06,1.28,83.0,2951.0,0.0,3.75,,13.04,1.253,102.4,,23.2,5.0,,,,,,,,,,,,0,0,0,0,0,0,0,0,0,0,0,0,0,0,0,0,,,,,,0.0,,,,,,,
274,244474,1745298704733,,,,,,,,,,,,,,,,,,,,,,,0.0,0.0,0.0,0.0,0.0,0.0,0.0,0.0,2.26,,,0,0,0,0,0,0,0,0,0,0,0,0,0,0,0,0,,0.0,,,,,38.986019,-76.95002,0.0,50.7,36.0,3.0,0.7
275,244494,1745298704753,0.0,-113.0,,-0.09,-0.15,1.04,0.0,0.0,0.0,1.05,1.28,82.0,2937.0,0.0,2.98,,13.04,1.253,102.4,,23.2,5.0,,,,,,,,,,,,0,0,0,0,0,0,0,0,0,0,0,0,0,0,0,0,,,,,,0.0,,,,,,,
276,244514,1745298704773,,,,,,,,,,,,,,,,,,,,,,,,,,,,,,,,,,0,0,0,0,0,0,0,0,0,0,0,0,0,0,0,0,,,,,,,,,,,,,
277,244534,1745298704793,0.0,-98.0,,-0.11,-0.16,1.06,0.0,0.0,0.0,1.08,1.28,84.0,2937.0,0.0,2.98,,12.87,1.252,102.4,,24.0,5.0,,,,,,,,,,,,0,0,0,0,0,0,0,0,0,0,0,0,0,0,0,0,,,,,,0.0,,,,,,,
278,244554,1745298704810,,,,,,,,,,,,,,,,,,,,,,,,,,,,,,,,,,0,0,0,0,0,0,0,0,0,0,0,0,0,0,0,0,,,,,,,,,,,,,
279,244574,1745298704830,0.0,-102.0,13.35,-0.13,-0.16,1.1,0.0,0.0,0.0,1.11,1.28,87.0,2919.0,0.0,2.98,15.0,12.75,1.253,102.4,164.0,24.0,5.0,0.0,0.0,0.0,0.0,0.0,0.0,0.0,0.0,2.26,0.0,1.0,0,0,0,0,0,0,0,0,0,0,0,0,0,0,0,0,0.0,0.0,1.0,0.0,0.0,0.0,38.986019,-76.95002,0.07,50.7,36.0,3.0,0.7
280,244594,1745298704850,,,,,,,,,,,,,,,,,,,,,,,,,,,,,,,,,,0,0,0,0,0,0,0,0,0,0,0,0,0,0,0,0,,,,,,,,,,,,,
281,244614,1745298704870,0.0,-87.0,,-0.13,-0.15,1.1,0.0,0.0,0.0,1.12,1.28,88.0,2884.0,0.0,3.02,,12.63,1.252,102.4,,24.0,5.0,,,,,,,,,,,,0,0,0,0,0,0,0,0,0,0,0,0,0,0,0,0,,,,,,0.0,,,,,,,
282,244634,1745298704890,,,,,,,,,,,,,,,,,,,,,,,,,,,,,,,,,,0,0,0,0,0,0,0,0,0,0,0,0,0,0,0,0,,,,,,,,,,,,,
283,244654,1745298704912,0.0,-117.0,,-0.12,-0.09,1.07,0.0,0.0,0.0,1.08,1.28,85.0,2830.0,0.5,3.04,,12.67,1.25,102.4,,22.8,5.0,,,,,,,,,,,,0,0,0,0,0,0,0,0,0,0,0,0,0,0,0,0,,,,,,0.0,,,,,,,
284,244674,1745298704932,,,,,,,,,,,,,,,,,,,,,,,0.0,0.0,0.0,0.0,0.0,0.0,0.0,0.0,2.26,,,0,0,0,0,0,0,0,0,0,0,0,0,0,0,0,0,,0.0,,,,,38.986019,-76.95002,0.0,50.7,36.0,3.0,0.7
285,244694,1745298704952,0.0,-106.0,,-0.13,-0.08,1.04,0.0,0.0,0.0,1.05,1.28,82.0,2808.0,6.5,3.62,,12.67,1.25,102.4,,22.8,5.0,,,,,,,,,,,,0,0,0,0,0,0,0,0,0,0,0,0,0,0,0,0,,,,,,0.0,,,,,,,
286,244714,1745298704972,,,,,,,,,,,,,,,,,,,,,,,,,,,,,,,,,,0,0,0,0,0,0,0,0,0,0,0,0,0,0,0,0,,,,,,,,,,,,,
287,244734,1745298704992,0.0,-106.0,,-0.13,-0.1,1.06,0.0,0.0,0.0,1.07,1.28,84.0,2808.0,6.5,3.62,,13.05,1.25,102.4,,22.8,5.0,,,,,,,,,,,,0,0,0,0,0,0,0,0,0,0,0,0,0,0,0,0,,,,,,0.0,,,,,,,
288,244754,1745298705002,,,,,,,,,,,,,,,,,,,,,,,,,,,,,,,,,,0,0,0,0,0,0,0,0,0,0,0,0,0,0,0,0,,,,,,,,,,,,,
289,244774,1745298705022,0.0,-110.0,,-0.11,-0.07,1.06,0.0,0.0,0.0,1.07,1.28,84.0,2760.0,9.7,3.91,,13.51,1.251,102.4,,22.8,5.0,0.0,0.0,0.0,0.0,0.0,0.0,0.0,0.0,2.26,,,0,0,0,0,0,0,0,0,0,0,0,0,0,0,0,0,,0.0,,,,0.0,38.986019,-76.95002,0.04,50.7,36.0,3.0,0.7
290,244794,1745298705042,,,,,,,,,,,,,,,,,,,,,,,,,,,,,,,,,,0,0,0,0,0,0,0,0,0,0,0,0,0,0,0,0,,,,,,,,,,,,,
291,244814,1745298705062,0.0,-110.0,,-0.09,-0.01,1.01,0.0,0.0,0.0,1.01,1.28,79.0,2824.0,10.2,3.95,,13.65,1.251,102.4,,22.8,5.0,,,,,,,,,,,,0,0,0,0,0,0,0,0,0,0,0,0,0,0,0,0,,,,,,0.0,,,,,,,
292,244834,1745298705082,,,,,,,,,,,,,,,,,,,,,,,,,,,,,,,,,,0,0,0,0,0,0,0,0,0,0,0,0,0,0,0,0,,,,,,,,,,,,,
293,244854,1745298705112,0.0,-110.0,,-0.07,0.01,0.94,0.0,0.0,0.0,0.94,1.28,73.0,2980.0,10.2,3.93,,13.65,1.251,102.4,,23.2,5.0,,,,,,,,,,,,0,0,0,0,0,0,0,0,0,0,0,0,0,0,0,0,,,,,,0.0,,,,,,,
294,244874,1745298705132,,,,,,,,,,,,,,,,,,,,,,,0.0,0.0,0.0,0.0,0.0,0.0,0.0,0.0,2.25,,,0,0,0,0,0,0,0,0,0,0,0,0,0,0,0,0,,0.0,,,,,38.986019,-76.95002,0.05,50.7,36.0,3.0,0.7
295,244894,1745298705152,0.0,-113.0,,-0.07,0.02,0.85,1.0,0.0,0.0,0.86,1.28,67.0,3067.0,10.2,3.96,,13.65,1.251,102.4,,23.2,5.0,,,,,,,,,,,,0,0,0,0,0,0,0,0,0,0,0,0,0,0,0,0,,,,,,0.0,,,,,,,
296,244914,1745298705172,,,,,,,,,,,,,,,,,,,,,,,,,,,,,,,,,,0,0,0,0,0,0,0,0,0,0,0,0,0,0,0,0,,,,,,,,,,,,,
297,244934,1745298705192,0.0,-91.0,,-0.05,0.04,0.82,1.0,0.0,0.0,0.82,1.28,64.0,3067.0,10.2,3.96,,13.6,1.252,102.4,,24.9,5.0,,,,,,,,,,,,0,0,0,0,0,0,0,0,0,0,0,0,0,0,0,0,,,,,,0.0,,,,,,,
298,244954,1745298705204,,,,,,,,,,,,,,,,,,,,,,,,,,,,,,,,,,0,0,0,0,0,0,0,0,0,0,0,0,0,0,0,0,,,,,,,,,,,,,
299,244974,1745298705224,0.0,-113.0,,-0.03,0.02,0.92,0.0,0.0,0.0,0.92,1.28,72.0,3186.0,8.9,3.92,,13.48,1.253,102.4,,24.9,5.0,0.0,0.0,0.0,0.0,0.0,0.0,0.0,0.0,2.25,,,0,0,0,0,0,0,0,0,0,0,0,0,0,0,0,0,,0.0,,,,0.0,38.986019,-76.95002,0.04,50.7,36.0,3.0,0.7
300,244994,1745298705244,,,,,,,,,,,,,,,,,,,,,,,,,,,,,,,,,,0,0,0,0,0,0,0,0,0,0,0,0,0,0,0,0,,,,,,,,,,,,,
301,245014,1745298705264,0.0,-102.0,,-0.05,-0.02,0.89,1.0,0.0,0.0,0.89,1.28,70.0,3275.0,0.0,3.29,,13.05,1.253,102.4,,24.9,5.0,,,,,,,,,,,,0,0,0,0,0,0,0,0,0,0,0,0,0,0,0,0,,,,,,0.0,,,,,,,
302,245034,1745298705284,,,,,,,,,,,,,,,,,,,,,,,,,,,,,,,,,,0,0,0,0,0,0,0,0,0,0,0,0,0,0,0,0,,,,,,,,,,,,,
303,245054,1745298705314,0.0,-117.0,,-0.04,0.03,0.95,0.0,0.0,0.0,0.95,1.28,75.0,3387.0,0.0,2.82,,12.64,1.253,102.4,,27.1,5.0,,,,,,,,,,,,0,0,0,0,0,0,0,0,0,0,0,0,0,0,0,0,,,,,,0.0,,,,,,,
304,245074,1745298705334,,,,,,,,,,,,,,,,,,,,,,,0.0,0.0,0.0,0.0,0.0,0.0,0.0,0.0,2.26,,,0,0,0,0,0,0,0,0,0,0,0,0,0,0,0,0,,0.0,,,,,38.986019,-76.95002,0.05,50.7,36.0,3.0,0.7
305,245094,1745298705354,0.0,-102.0,,-0.07,-0.05,0.96,1.0,0.0,0.0,0.97,1.28,76.0,3271.0,0.0,2.81,,12.64,1.253,102.4,,27.1,5.0,,,,,,,,,,,,0,0,0,0,0,0,0,0,0,0,0,0,0,0,0,0,,,,,,0.0,,,,,,,
306,245114,1745298705374,,,,,,,,,,,,,,,,,,,,,,,,,,,,,,,,,,0,0,0,0,0,0,0,0,0,0,0,0,0,0,0,0,,,,,,,,,,,,,
307,245134,1745298705394,0.0,-87.0,,-0.05,0.04,0.87,1.0,0.0,0.0,0.88,1.28,69.0,3271.0,0.0,2.81,,12.49,1.251,102.4,,26.1,5.0,,,,,,,,,,,,0,0,0,0,0,0,0,0,0,0,0,0,0,0,0,0,,,,,,0.0,,,,,,,
308,245154,1745298705414,,,,,,,,,,,,,,,,,,,,,,,,,,,,,,,,,,0,0,0,0,0,0,0,0,0,0,0,0,0,0,0,0,,,,,,,,,,,,,
309,245174,1745298705434,0.0,-83.0,,-0.03,0.04,0.94,0.0,0.0,0.0,0.94,1.28,74.0,3206.0,2.0,3.28,,12.52,1.25,102.4,,26.1,5.0,0.0,0.0,0.0,0.0,0.0,0.0,0.0,0.0,2.26,,,0,0,0,0,0,0,0,0,0,0,0,0,0,0,0,0,,0.0,,,,0.0,38.986019,-76.95002,0.0,50.7,36.0,3.0,0.7
310,245194,1745298705454,,,,,,,,,,,,,,,,,,,,,,,,,,,,,,,,,,0,0,0,0,0,0,0,0,0,0,0,0,0,0,0,0,,,,,,,,,,,,,
311,245214,1745298705474,0.0,-87.0,,-0.03,-0.04,1.02,0.0,0.0,0.0,1.02,1.28,80.0,3150.0,3.8,3.58,,12.69,1.249,102.4,,26.1,5.0,,,,,,,,,,,,0,0,0,0,0,0,0,0,0,0,0,0,0,0,0,0,,,,,,0.0,,,,,,,
312,245234,1745298705494,,,,,,,,,,,,,,,,,,,,,,,,,,,,,,,,,,0,0,0,0,0,0,0,0,0,0,0,0,0,0,0,0,,,,,,,,,,,,,
313,245254,1745298705514,0.0,-98.0,,-0.05,-0.09,1.07,0.0,0.0,0.0,1.08,1.28,84.0,3073.0,4.1,3.72,,12.85,1.249,102.4,,25.5,5.0,,,,,,,,,,,,0,0,0,0,0,0,0,0,0,0,0,0,0,0,0,0,,,,,,0.0,,,,,,,
314,245274,1745298705534,,,,,,,,,,,,,,,,,,,,,,,0.0,0.0,0.0,0.0,0.0,0.0,0.0,0.0,2.26,,,0,0,0,0,0,0,0,0,0,0,0,0,0,0,0,0,,0.0,,,,,38.986019,-76.95002,0.05,50.7,36.0,3.0,0.7
315,245294,1745298705554,0.0,-95.0,,-0.08,-0.11,1.08,0.0,0.0,0.0,1.09,1.28,86.0,3051.0,4.2,3.73,,12.85,1.249,102.4,,25.5,5.0,,,,,,,,,,,,0,0,0,0,0,0,0,0,0,0,0,0,0,0,0,0,,,,,,0.0,,,,,,,
316,245314,1745298705574,,,,,,,,,,,,,,,,,,,,,,,,,,,,,,,,,,0,0,0,0,0,0,0,0,0,0,0,0,0,0,0,0,,,,,,,,,,,,,
317,245334,1745298705594,0.0,-83.0,,-0.11,-0.11,1.03,1.0,0.0,0.0,1.04,1.28,82.0,3051.0,4.2,3.73,,13.0,1.25,102.4,,24.8,5.0,,,,,,,,,,,,0,0,0,0,0,0,0,0,0,0,0,0,0,0,0,0,,,,,,0.0,,,,,,,
318,245354,1745298705614,,,,,,,,,,,,,,,,,,,,,,,,,,,,,,,,,,0,0,0,0,0,0,0,0,0,0,0,0,0,0,0,0,,,,,,,,,,,,,
319,245374,1745298705634,0.0,-98.0,,-0.11,-0.05,0.94,1.0,0.0,0.0,0.94,1.28,74.0,3123.0,0.0,3.02,,12.8,1.251,102.4,,24.8,5.0,0.0,0.0,0.0,0.0,0.0,0.0,0.0,0.0,2.26,,,0,0,0,0,0,0,0,0,0,0,0,0,0,0,0,0,,0.0,,,,0.0,38.986019,-76.95002,0.06,50.7,36.0,3.0,0.7
320,245394,1745298705654,,,,,,,,,,,,,,,,,,,,,,,,,,,,,,,,,,0,0,0,0,0,0,0,0,0,0,0,0,0,0,0,0,,,,,,,,,,,,,
321,245414,1745298705674,0.0,-98.0,,-0.09,0.01,0.88,1.0,0.0,0.0,0.89,1.28,69.0,3069.0,0.0,2.91,,12.59,1.252,102.4,,24.8,5.0,,,,,,,,,,,,0,0,0,0,0,0,0,0,0,0,0,0,0,0,0,0,,,,,,0.0,,,,,,,
322,245434,1745298705694,,,,,,,,,,,,,,,,,,,,,,,,,,,,,,,,,,0,0,0,0,0,0,0,0,0,0,0,0,0,0,0,0,,,,,,,,,,,,,
323,245454,1745298705716,0.0,-106.0,,-0.07,0.06,0.86,1.0,0.0,0.0,0.87,1.28,68.0,3011.0,0.0,2.92,,12.59,1.252,102.4,,25.0,5.0,,,,,,,,,,,,0,0,0,0,0,0,0,0,0,0,0,0,0,0,0,0,,,,,,0.0,,,,,,,
324,245474,1745298705736,,,,,,,,,,,,,,,,,,,,,,,0.0,0.0,0.0,0.0,0.0,0.0,0.0,0.0,2.25,,,0,0,0,0,0,0,0,0,0,0,0,0,0,0,0,0,,0.0,,,,,38.986019,-76.95002,0.07,50.7,36.0,3.0,0.7
325,245494,1745298705756,0.0,-91.0,,-0.05,0.09,0.83,1.0,0.0,0.0,0.84,1.28,66.0,2963.0,3.5,3.64,,12.59,1.252,102.4,,25.0,5.0,,,,,,,,,,,,0,0,0,0,0,0,0,0,0,0,0,0,0,0,0,0,,,,,,0.0,,,,,,,
326,245514,1745298705776,,,,,,,,,,,,,,,,,,,,,,,,,,,,,,,,,,0,0,0,0,0,0,0,0,0,0,0,0,0,0,0,0,,,,,,,,,,,,,
327,245534,1745298705796,0.0,-98.0,,-0.04,0.09,0.79,1.0,0.0,0.0,0.79,1.28,62.0,2963.0,3.5,3.64,,12.77,1.252,102.4,,23.3,5.0,,,,,,,,,,,,0,0,0,0,0,0,0,0,0,0,0,0,0,0,0,0,,,,,,0.0,,,,,,,
328,245554,1745298705813,,,,,,,,,,,,,,,,,,,,,,,,,,,,,,,,,,0,0,0,0,0,0,0,0,0,0,0,0,0,0,0,0,,,,,,,,,,,,,
329,245574,1745298705833,0.0,-91.0,13.35,-0.06,0.04,0.77,1.0,0.0,-1.0,0.77,1.28,60.0,2950.0,8.0,3.83,15.0,13.12,1.252,100.6,164.0,23.3,5.0,0.0,0.0,0.0,0.0,0.0,0.0,0.0,0.0,2.26,0.0,1.0,0,0,0,0,0,0,0,0,0,0,0,0,0,0,0,0,0.0,0.0,1.0,0.0,0.0,0.0,38.986019,-76.95002,0.04,50.7,36.0,3.0,0.7
330,245594,1745298705853,,,,,,,,,,,,,,,,,,,,,,,,,,,,,,,,,,0,0,0,0,0,0,0,0,0,0,0,0,0,0,0,0,,,,,,,,,,,,,
331,245614,1745298705873,0.0,-83.0,,-0.08,0.01,0.75,1.0,0.0,-1.0,0.75,1.28,59.0,2958.0,9.8,3.91,,13.44,1.251,100.6,,23.3,5.0,,,,,,,,,,,,0,0,0,0,0,0,0,0,0,0,0,0,0,0,0,0,,,,,,0.0,,,,,,,
332,245634,1745298705893,,,,,,,,,,,,,,,,,,,,,,,,,,,,,,,,,,0,0,0,0,0,0,0,0,0,0,0,0,0,0,0,0,,,,,,,,,,,,,
333,245654,1745298705913,0.0,-102.0,,-0.09,0.03,0.69,2.0,0.0,-1.0,0.7,1.28,55.0,3033.0,10.1,3.95,,13.49,1.249,100.6,,24.6,5.0,,,,,,,,,,,,0,0,0,0,0,0,0,0,0,0,0,0,0,0,0,0,,,,,,0.0,,,,,,,
334,245674,1745298705933,,,,,,,,,,,,,,,,,,,,,,,0.0,0.0,0.0,0.0,0.0,0.0,0.0,0.0,2.26,,,0,0,0,0,0,0,0,0,0,0,0,0,0,0,0,0,,0.0,,,,,38.986019,-76.95002,0.07,50.7,36.0,3.0,0.7
335,245694,1745298705953,0.0,-98.0,,-0.07,0.12,0.69,1.0,0.0,-1.0,0.71,1.28,55.0,3208.0,9.5,3.94,,13.49,1.249,100.6,,24.6,5.0,,,,,,,,,,,,0,0,0,0,0,0,0,0,0,0,0,0,0,0,0,0,,,,,,0.0,,,,,,,
336,245714,1745298705973,,,,,,,,,,,,,,,,,,,,,,,,,,,,,,,,,,0,0,0,0,0,0,0,0,0,0,0,0,0,0,0,0,,,,,,,,,,,,,
337,245734,1745298705993,0.0,-98.0,,-0.07,0.07,0.82,0.0,0.0,0.0,0.83,1.28,65.0,3208.0,9.5,3.94,,13.48,1.249,100.6,,25.7,5.0,,,,,,,,,,,,0,0,0,0,0,0,0,0,0,0,0,0,0,0,0,0,,,,,,0.0,,,,,,,
338,245754,1745298706005,,,,,,,,,,,,,,,,,,,,,,,,,,,,,,,,,,0,0,0,0,0,0,0,0,0,0,0,0,0,0,0,0,,,,,,,,,,,,,
339,245774,1745298706025,0.0,-106.0,,-0.08,0.05,0.8,1.0,0.0,-1.0,0.8,1.28,63.0,3293.0,0.0,3.25,,12.99,1.25,100.6,,25.7,5.0,0.0,0.0,0.0,0.0,0.0,0.0,0.0,0.0,2.26,,,0,0,0,0,0,0,0,0,0,0,0,0,0,0,0,0,,0.0,,,,0.0,38.986019,-76.95002,0.07,50.7,36.0,3.0,0.7
340,245794,1745298706045,,,,,,,,,,,,,,,,,,,,,,,,,,,,,,,,,,0,0,0,0,0,0,0,0,0,0,0,0,0,0,0,0,,,,,,,,,,,,,
341,245814,1745298706065,0.0,-87.0,,-0.07,0.13,0.78,0.0,0.0,0.0,0.79,1.28,62.0,3265.0,0.0,2.84,,12.67,1.249,100.6,,25.7,5.0,,,,,,,,,,,,0,0,0,0,0,0,0,0,0,0,0,0,0,0,0,0,,,,,,0.0,,,,,,,
342,245834,1745298706085,,,,,,,,,,,,,,,,,,,,,,,,,,,,,,,,,,0,0,0,0,0,0,0,0,0,0,0,0,0,0,0,0,,,,,,,,,,,,,
343,245854,1745298706107,0.0,-110.0,,-0.06,0.02,0.91,0.0,0.0,0.0,0.91,1.28,71.0,3244.0,0.0,2.87,,12.45,1.251,100.6,,26.1,5.0,,,,,,,,,,,,0,0,0,0,0,0,0,0,0,0,0,0,0,0,0,0,,,,,,0.0,,,,,,,
344,245874,1745298706127,,,,,,,,,,,,,,,,,,,,,,,0.0,0.0,0.0,0.0,0.0,0.0,0.0,0.0,2.26,,,0,0,0,0,0,0,0,0,0,0,0,0,0,0,0,0,,0.0,,,,,38.986019,-76.95002,0.08,50.7,36.0,3.0,0.7
345,245894,1745298706147,0.0,-102.0,,-0.09,-0.01,0.92,0.0,0.0,0.0,0.92,1.28,72.0,3200.0,0.0,2.87,,12.45,1.251,100.6,,26.1,5.0,,,,,,,,,,,,0,0,0,0,0,0,0,0,0,0,0,0,0,0,0,0,,,,,,0.0,,,,,,,
346,245914,1745298706167,,,,,,,,,,,,,,,,,,,,,,,,,,,,,,,,,,0,0,0,0,0,0,0,0,0,0,0,0,0,0,0,0,,,,,,,,,,,,,
347,245934,1745298706187,0.0,-98.0,,-0.1,0.01,0.85,1.0,0.0,0.0,0.86,1.28,67.0,3200.0,0.0,2.87,,12.33,1.252,100.6,,25.6,5.0,,,,,,,,,,,,0,0,0,0,0,0,0,0,0,0,0,0,0,0,0,0,,,,,,0.0,,,,,,,
348,245954,1745298706211,,,,,,,,,,,,,,,,,,,,,,,,,,,,,,,,,,0,0,0,0,0,0,0,0,0,0,0,0,0,0,0,0,,,,,,,,,,,,,
349,245974,1745298706231,0.0,-98.0,,-0.1,0.04,0.79,1.0,0.0,-1.0,0.79,1.28,62.0,3091.0,0.0,2.88,,12.33,1.252,100.6,,25.6,5.0,0.0,0.0,0.0,0.0,0.0,0.0,0.0,0.0,2.26,,,0,0,0,0,0,0,0,0,0,0,0,0,0,0,0,0,,0.0,,,,0.0,38.986019,-76.95002,0.05,50.7,36.0,3.0,0.7
350,245994,1745298706251,,,,,,,,,,,,,,,,,,,,,,,,,,,,,,,,,,0,0,0,0,0,0,0,0,0,0,0,0,0,0,0,0,,,,,,,,,,,,,
351,246014,1745298706271,0.0,-91.0,,-0.08,0.06,0.74,1.0,0.0,-1.0,0.75,1.28,59.0,3043.0,1.2,3.18,,12.52,1.252,100.6,,25.6,5.0,,,,,,,,,,,,0,0,0,0,0,0,0,0,0,0,0,0,0,0,0,0,,,,,,0.0,,,,,,,
352,246034,1745298706291,,,,,,,,,,,,,,,,,,,,,,,,,,,,,,,,,,0,0,0,0,0,0,0,0,0,0,0,0,0,0,0,0,,,,,,,,,,,,,
353,246054,1745298706315,0.0,-110.0,,-0.09,0.05,0.73,2.0,0.0,-1.0,0.73,1.28,57.0,2944.0,1.9,3.29,,12.69,1.251,100.6,,24.0,5.0,,,,,,,,,,,,0,0,0,0,0,0,0,0,0,0,0,0,0,0,0,0,,,,,,0.0,,,,,,,
354,246074,1745298706335,,,,,,,,,,,,,,,,,,,,,,,0.0,0.0,0.0,0.0,0.0,0.0,0.0,0.0,2.26,,,0,0,0,0,0,0,0,0,0,0,0,0,0,0,0,0,,0.0,,,,,38.986019,-76.95002,0.0,50.7,36.0,3.0,0.7
355,246094,1745298706355,0.0,-106.0,,-0.11,0.02,0.75,2.0,0.0,-1.0,0.76,1.28,59.0,2925.0,2.1,3.36,,12.69,1.251,100.6,,24.0,5.0,,,,,,,,,,,,0,0,0,0,0,0,0,0,0,0,0,0,0,0,0,0,,,,,,0.0,,,,,,,
356,246114,1745298706375,,,,,,,,,,,,,,,,,,,,,,,,,,,,,,,,,,0,0,0,0,0,0,0,0,0,0,0,0,0,0,0,0,,,,,,,,,,,,,
357,246134,1745298706395,0.0,-91.0,,-0.12,-0.03,0.81,1.0,0.0,-1.0,0.81,1.28,64.0,2925.0,2.1,3.36,,12.8,1.25,100.6,,23.7,5.0,,,,,,,,,,,,0,0,0,0,0,0,0,0,0,0,0,0,0,0,0,0,,,,,,0.0,,,,,,,
358,246154,1745298706415,,,,,,,,,,,,,,,,,,,,,,,,,,,,,,,,,,0,0,0,0,0,0,0,0,0,0,0,0,0,0,0,0,,,,,,,,,,,,,
359,246174,1745298706435,0.0,-102.0,,-0.14,-0.05,0.88,1.0,0.0,-1.0,0.89,1.28,70.0,2880.0,0.0,3.01,,12.73,1.249,100.6,,23.7,5.0,0.0,0.0,0.0,0.0,0.0,0.0,0.0,0.0,2.26,,,0,0,0,0,0,0,0,0,0,0,0,0,0,0,0,0,,0.0,,,,0.0,38.986019,-76.95002,0.05,50.7,36.0,3.0,0.7
360,246194,1745298706455,,,,,,,,,,,,,,,,,,,,,,,,,,,,,,,,,,0,0,0,0,0,0,0,0,0,0,0,0,0,0,0,0,,,,,,,,,,,,,
361,246214,1745298706475,0.0,-91.0,,-0.14,-0.08,0.92,1.0,0.0,-1.0,0.93,1.28,73.0,2889.0,0.0,2.98,,12.67,1.249,100.6,,23.7,5.0,,,,,,,,,,,,0,0,0,0,0,0,0,0,0,0,0,0,0,0,0,0,,,,,,0.0,,,,,,,
362,246234,1745298706495,,,,,,,,,,,,,,,,,,,,,,,,,,,,,,,,,,0,0,0,0,0,0,0,0,0,0,0,0,0,0,0,0,,,,,,,,,,,,,
363,246254,1745298706515,0.0,-95.0,,-0.12,-0.05,0.9,1.0,0.0,0.0,0.91,1.28,71.0,2822.0,0.0,3.04,,12.6,1.25,100.6,,22.8,5.0,,,,,,,,,,,,0,0,0,0,0,0,0,0,0,0,0,0,0,0,0,0,,,,,,0.0,,,,,,,
364,246274,1745298706535,,,,,,,,,,,,,,,,,,,,,,,0.0,0.0,0.0,0.0,0.0,0.0,0.0,0.0,2.26,,,0,0,0,0,0,0,0,0,0,0,0,0,0,0,0,0,,0.0,,,,,38.986019,-76.95002,0.04,50.7,36.0,3.0,0.7
365,246294,1745298706555,0.0,-106.0,,-0.13,-0.05,0.9,1.0,0.0,-1.0,0.91,1.28,71.0,2742.0,0.0,3.07,,12.6,1.25,100.6,,22.8,5.0,,,,,,,,,,,,0,0,0,0,0,0,0,0,0,0,0,0,0,0,0,0,,,,,,0.0,,,,,,,
366,246314,1745298706575,,,,,,,,,,,,,,,,,,,,,,,,,,,,,,,,,,0,0,0,0,0,0,0,0,0,0,0,0,0,0,0,0,,,,,,,,,,,,,
367,246334,1745298706595,0.0,-95.0,,-0.12,-0.05,0.93,1.0,0.0,0.0,0.94,1.28,74.0,2742.0,0.0,3.07,,12.6,1.25,100.6,,21.7,5.0,,,,,,,,,,,,0,0,0,0,0,0,0,0,0,0,0,0,0,0,0,0,,,,,,0.0,,,,,,,
368,246354,1745298706615,,,,,,,,,,,,,,,,,,,,,,,,,,,,,,,,,,0,0,0,0,0,0,0,0,0,0,0,0,0,0,0,0,,,,,,,,,,,,,
369,246374,1745298706635,0.0,-117.0,,-0.11,-0.05,0.93,1.0,0.0,0.0,0.94,1.28,73.0,2691.0,1.5,3.2,,12.83,1.25,100.6,,21.7,5.0,0.0,0.0,0.0,0.0,0.0,0.0,0.0,0.0,2.27,,,0,0,0,0,0,0,0,0,0,0,0,0,0,0,0,0,,0.0,,,,0.0,38.986019,-76.95002,0.0,50.7,36.0,3.0,0.7
370,246394,1745298706655,,,,,,,,,,,,,,,,,,,,,,,,,,,,,,,,,,0,0,0,0,0,0,0,0,0,0,0,0,0,0,0,0,,,,,,,,,,,,,
371,246414,1745298706675,0.0,-87.0,,-0.1,-0.05,0.94,1.0,0.0,0.0,0.94,1.28,74.0,2610.0,6.7,3.74,,13.27,1.252,100.6,,21.7,5.0,,,,,,,,,,,,0,0,0,0,0,0,0,0,0,0,0,0,0,0,0,0,,,,,,0.0,,,,,,,
372,246434,1745298706695,,,,,,,,,,,,,,,,,,,,,,,,,,,,,,,,,,0,0,0,0,0,0,0,0,0,0,0,0,0,0,0,0,,,,,,,,,,,,,
373,246454,1745298706715,0.0,-113.0,,-0.1,-0.07,0.94,0.0,0.0,0.0,0.95,1.28,74.0,2613.0,9.6,3.81,,13.59,1.252,100.6,,20.7,5.0,,,,,,,,,,,,0,0,0,0,0,0,0,0,0,0,0,0,0,0,0,0,,,,,,0.0,,,,,,,
374,246474,1745298706735,,,,,,,,,,,,,,,,,,,,,,,0.0,0.0,0.0,0.0,0.0,0.0,0.0,0.0,2.26,,,0,0,0,0,0,0,0,0,0,0,0,0,0,0,0,0,,0.0,,,,,38.986019,-76.95002,0.08,50.7,36.0,3.0,0.7
375,246494,1745298706755,0.0,-110.0,,-0.1,-0.07,0.96,0.0,0.0,0.0,0.96,1.28,75.0,2571.0,10.8,3.88,,13.59,1.252,100.6,,20.7,5.0,,,,,,,,,,,,0,0,0,0,0,0,0,0,0,0,0,0,0,0,0,0,,,,,,0.0,,,,,,,
376,246514,1745298706775,,,,,,,,,,,,,,,,,,,,,,,,,,,,,,,,,,0,0,0,0,0,0,0,0,0,0,0,0,0,0,0,0,,,,,,,,,,,,,
377,246534,1745298706795,0.0,-129.0,,-0.09,-0.06,0.94,0.0,0.0,0.0,0.94,1.28,74.0,2571.0,10.8,3.88,,13.8,1.252,100.6,,21.5,5.0,,,,,,,,,,,,0,0,0,0,0,0,0,0,0,0,0,0,0,0,0,0,,,,,,0.0,,,,,,,
378,246554,1745298706814,,,,,,,,,,,,,,,,,,,,,,,,,,,,,,,,,,0,0,0,0,0,0,0,0,0,0,0,0,0,0,0,0,,,,,,,,,,,,,
