,Interval,Utc,ElapsedTime,FrontBP,SteerAng,Battery,AccelX,AccelY,AccelZ,Yaw,Pitch,Roll,Gsum,GsumMax,GsumPct,RPM,TPS,InjectorPW,Baro,MAP,Lambda,IAT,EngineTemp,EOP,EOT,WSFR,WSFL,WSRR,WSRL,TCSet,TCSlip,TCComp,TCCut,Analog8,OilTemp,AA_On,ThermLF1,ThermLF2,ThermRR1,ThermRR2,ThermLF3,ThermLF4,ThermLF5,ThermLF6,ThermLF7,ThermLF8,ThermRR3,ThermRR4,ThermRR5,ThermRR6,ThermRR7,ThermRR8,AA_LowDrag,Gear,AA_On1,AA_LowDrag1,Fuel_Mix,AA_Packages,Latitude,Longitude,Speed,Altitude,GPSSats,GPSQual,GPSDOP,LapCount,LapTime,Sector,SectorTime,PredTime,CurrentLap,Distance,SessionTime
0,3288023,1745297533212,0.0003,,,,,,,,,,,,,,,,,,,,,,,,,,,,,,,,,,0,0,0,0,0,0,0,0,0,0,0,0,0,0,0,0,,,,,,,,,,,,,,,,,,,,,
1,3288043,1745297533232,0.0006,0.0,-42.0,,-0.06,0.01,1.11,0.0,0.0,0.0,1.11,1.11,100.0,3857.0,11.7,4.32,,12.76,1.252,89.8,,38.6,5.0,,,,,,,,,,,,0,0,0,0,0,0,0,0,0,0,0,0,0,0,0,0,,,,,,0.0,,,,,,,,,,,,,,,
2,3288063,1745297533252,0.001,,,,,,,,,,,,,,,,,,,,,,,,,,,,,,,,,,0,0,0,0,0,0,0,0,0,0,0,0,0,0,0,0,,,,,,,,,,,,,,,,,,,,,
3,3288083,1745297533272,0.0013,0.0,-46.0,,-0.04,0.05,1.1,0.0,0.0,0.0,1.11,1.11,100.0,3803.0,0.0,2.82,,12.76,1.252,89.8,,38.6,5.0,,,,,,,,,,,,0,0,0,0,0,0,0,0,0,0,0,0,0,0,0,0,,,,,,0.0,,,,,,,,,,,,,,,
4,3288103,1745297533296,0.0016,,,,,,,,,,,,,,,,,,,,,,,0.0,0.0,0.0,0.0,0.0,0.0,0.0,0.0,2.26,,,0,0,0,0,0,0,0,0,0,0,0,0,0,0,0,0,,0.0,,,,,38.986023,-76.95002,0.0,48.1,33.0,3.0,0.8,0.0,0.0,-1.0,0.0,,0.0,0.0,0.0016
5,3288123,1745297533316,0.002,0.0,-64.0,,-0.04,0.03,1.07,0.0,0.0,0.0,1.07,1.11,96.0,3803.0,0.0,2.82,,12.23,1.253,89.8,,38.9,5.0,,,,,,,,,,,,0,0,0,0,0,0,0,0,0,0,0,0,0,0,0,0,,,,,,0.0,,,,,,,,,,,,,,,
6,3288143,1745297533336,0.0023,,,,,,,,,,,,,,,,,,,,,,,,,,,,,,,,,,0,0,0,0,0,0,0,0,0,0,0,0,0,0,0,0,,,,,,,,,,,,,,,,,,,,,
7,3288163,1745297533356,0.0026,0.0,-76.0,,-0.07,0.0,1.06,1.0,0.0,0.0,1.07,1.11,96.0,3730.0,0.0,2.82,,11.79,1.252,89.8,,38.9,5.0,,,,,,,,,,,,0,0,0,0,0,0,0,0,0,0,0,0,0,0,0,0,,,,,,0.0,,,,,,,,,,,,,,,
8,3288183,1745297533376,0.003,,,,,,,,,,,,,,,,,,,,,,,,,,,,,,,,,,0,0,0,0,0,0,0,0,0,0,0,0,0,0,0,0,,,,,,,,,,,,,,,,,,,,,
9,3288203,1745297533396,0.0033,0.0,-72.0,,-0.08,-0.05,1.1,0.0,0.0,0.0,1.1,1.11,99.0,3579.0,0.0,2.88,,11.61,1.253,89.8,,38.9,5.0,0.0,0.0,0.0,0.0,0.0,0.0,0.0,0.0,2.26,,,0,0,0,0,0,0,0,0,0,0,0,0,0,0,0,0,,0.0,,,,0.0,38.986023,-76.95002,0.0,48.1,33.0,3.0,0.8,0.0,0.0,-1.0,0.0,0.0,0.0,0.0,0.0033
10,3288223,1745297533416,0.0036,,,,,,,,,,,,,,,,,,,,,,,,,,,,,,,,,,0,0,0,0,0,0,0,0,0,0,0,0,0,0,0,0,,,,,,,,,,,,,,,,,,,,,
11,3288243,1745297533436,0.004,0.0,-57.0,,-0.07,0.03,1.1,0.0,0.0,1.0,1.1,1.11,99.0,3595.0,0.0,2.86,,11.58,1.252,89.8,,36.8,5.0,,,,,,,,,,,,0,0,0,0,0,0,0,0,0,0,0,0,0,0,0,0,,,,,,0.0,,,,,,,,,,,,,,,
12,3288263,1745297533456,0.0043,,,,,,,,,,,,,,,,,,,,,,,,,,,,,,,,,,0,0,0,0,0,0,0,0,0,0,0,0,0,0,0,0,,,,,,,,,,,,,,,,,,,,,
13,3288283,1745297533476,0.0046,0.0,-53.0,,-0.05,0.08,1.08,0.0,0.0,1.0,1.09,1.11,98.0,3568.0,0.0,2.87,,11.58,1.252,89.8,,36.8,5.0,,,,,,,,,,,,0,0,0,0,0,0,0,0,0,0,0,0,0,0,0,0,,,,,,0.0,,,,,,,,,,,,,,,
14,3288303,1745297533496,0.005,,,,,,,,,,,,,,,,,,,,,,,0.0,0.0,0.0,0.0,0.0,0.0,0.0,0.0,2.27,,,0,0,0,0,0,0,0,0,0,0,0,0,0,0,0,0,,0.0,,,,,38.986023,-76.95002,0.04,48.1,33.0,3.0,0.8,0.0,0.0,-1.0,0.0,,0.0,0.0,0.005
15,3288323,1745297533516,0.0053,0.0,-72.0,,-0.06,-0.04,1.03,0.0,0.0,0.0,1.03,1.11,93.0,3568.0,0.0,2.87,,11.57,1.252,89.8,,36.0,5.0,,,,,,,,,,,,0,0,0,0,0,0,0,0,0,0,0,0,0,0,0,0,,,,,,0.0,,,,,,,,,,,,,,,
16,3288343,1745297533536,0.0056,,,,,,,,,,,,,,,,,,,,,,,,,,,,,,,,,,0,0,0,0,0,0,0,0,0,0,0,0,0,0,0,0,,,,,,,,,,,,,,,,,,,,,
17,3288363,1745297533556,0.006,0.0,-64.0,,-0.04,-0.03,1.05,0.0,0.0,0.0,1.05,1.11,95.0,3496.0,0.0,2.89,,11.61,1.253,89.8,,36.0,5.0,,,,,,,,,,,,0,0,0,0,0,0,0,0,0,0,0,0,0,0,0,0,,,,,,0.0,,,,,,,,,,,,,,,
18,3288383,1745297533576,0.0063,,,,,,,,,,,,,,,,,,,,,,,,,,,,,,,,,,0,0,0,0,0,0,0,0,0,0,0,0,0,0,0,0,,,,,,,,,,,,,,,,,,,,,
19,3288403,1745297533596,0.0066,0.0,-64.0,13.39,-0.08,-0.1,1.1,0.0,0.0,0.0,1.1,1.11,100.0,3268.0,0.0,2.95,15.0,11.77,1.252,89.8,146.0,36.0,5.0,0.0,0.0,0.0,0.0,0.0,0.0,0.0,0.0,2.27,0.0,1.0,0,0,0,0,0,0,0,0,0,0,0,0,0,0,0,0,0.0,0.0,1.0,0.0,0.0,0.0,38.986023,-76.95002,0.05,48.1,33.0,3.0,0.8,0.0,0.0,-1.0,0.0,0.0,0.0,0.0,0.0066
20,3288423,1745297533616,0.007,,,,,,,,,,,,,,,,,,,,,,,,,,,,,,,,,,0,0,0,0,0,0,0,0,0,0,0,0,0,0,0,0,,,,,,,,,,,,,,,,,,,,,
21,3288443,1745297533636,0.0073,0.0,-53.0,,-0.11,-0.1,1.08,0.0,0.0,0.0,1.09,1.11,98.0,3146.0,0.0,3.04,,11.93,1.253,89.8,,32.4,5.0,,,,,,,,,,,,0,0,0,0,0,0,0,0,0,0,0,0,0,0,0,0,,,,,,0.0,,,,,,,,,,,,,,,
22,3288463,1745297533656,0.0076,,,,,,,,,,,,,,,,,,,,,,,,,,,,,,,,,,0,0,0,0,0,0,0,0,0,0,0,0,0,0,0,0,,,,,,,,,,,,,,,,,,,,,
23,3288483,1745297533676,0.008,0.0,-49.0,,-0.13,-0.13,1.07,0.0,0.0,0.0,1.09,1.11,98.0,3020.0,0.0,3.13,,11.93,1.253,89.8,,32.4,5.0,,,,,,,,,,,,0,0,0,0,0,0,0,0,0,0,0,0,0,0,0,0,,,,,,0.0,,,,,,,,,,,,,,,
24,3288503,1745297533696,0.0083,,,,,,,,,,,,,,,,,,,,,,,0.0,0.0,0.0,0.0,0.0,0.0,0.0,0.0,2.26,,,0,0,0,0,0,0,0,0,0,0,0,0,0,0,0,0,,0.0,,,,,38.986023,-76.95002,0.05,48.1,33.0,3.0,0.8,0.0,0.0,-1.0,0.0,,0.0,0.0,0.0083
25,3288523,1745297533716,0.0086,0.0,-61.0,,-0.14,-0.16,1.1,0.0,0.0,-1.0,1.13,1.13,100.0,3020.0,0.0,3.13,,12.07,1.255,89.8,,29.6,5.0,,,,,,,,,,,,0,0,0,0,0,0,0,0,0,0,0,0,0,0,0,0,,,,,,0.0,,,,,,,,,,,,,,,
26,3288543,1745297533736,0.009,,,,,,,,,,,,,,,,,,,,,,,,,,,,,,,,,,0,0,0,0,0,0,0,0,0,0,0,0,0,0,0,0,,,,,,,,,,,,,,,,,,,,,
27,3288563,1745297533756,0.0093,0.0,-68.0,,-0.13,-0.19,1.12,0.0,0.0,0.0,1.15,1.15,100.0,2834.0,0.0,3.13,,12.13,1.255,89.8,,29.6,5.0,,,,,,,,,,,,0,0,0,0,0,0,0,0,0,0,0,0,0,0,0,0,,,,,,0.0,,,,,,,,,,,,,,,
28,3288583,1745297533776,0.0096,,,,,,,,,,,,,,,,,,,,,,,,,,,,,,,,,,0,0,0,0,0,0,0,0,0,0,0,0,0,0,0,0,,,,,,,,,,,,,,,,,,,,,
29,3288603,1745297533796,0.01,0.0,-68.0,,-0.12,-0.16,1.07,0.0,0.0,0.0,1.09,1.15,95.0,2782.0,0.0,3.17,,12.25,1.254,89.8,,29.6,5.0,0.0,0.0,0.0,0.0,0.0,0.0,0.0,0.0,2.26,,,0,0,0,0,0,0,0,0,0,0,0,0,0,0,0,0,,0.0,,,,0.0,38.986023,-76.95002,0.05,48.1,33.0,3.0,0.8,0.0,0.0,-1.0,0.0,0.0,0.0,0.0,0.01
30,3288623,1745297533816,0.0103,,,,,,,,,,,,,,,,,,,,,,,,,,,,,,,,,,0,0,0,0,0,0,0,0,0,0,0,0,0,0,0,0,,,,,,,,,,,,,,,,,,,,,
31,3288643,1745297533836,0.0106,0.0,-64.0,,-0.12,-0.18,1.1,0.0,0.0,0.0,1.12,1.15,97.0,2625.0,0.0,3.22,,12.37,1.252,89.8,,26.9,5.0,,,,,,,,,,,,0,0,0,0,0,0,0,0,0,0,0,0,0,0,0,0,,,,,,0.0,,,,,,,,,,,,,,,
32,3288663,1745297533856,0.011,,,,,,,,,,,,,,,,,,,,,,,,,,,,,,,,,,0,0,0,0,0,0,0,0,0,0,0,0,0,0,0,0,,,,,,,,,,,,,,,,,,,,,
33,3288683,1745297533876,0.0113,0.0,-61.0,,-0.11,-0.15,1.06,0.0,0.0,0.0,1.07,1.15,94.0,2613.0,0.0,3.25,,12.37,1.252,89.8,,26.9,5.0,,,,,,,,,,,,0,0,0,0,0,0,0,0,0,0,0,0,0,0,0,0,,,,,,0.0,,,,,,,,,,,,,,,
34,3288703,1745297533896,0.0116,,,,,,,,,,,,,,,,,,,,,,,0.0,0.0,0.0,0.0,0.0,0.0,0.0,0.0,2.26,,,0,0,0,0,0,0,0,0,0,0,0,0,0,0,0,0,,0.0,,,,,38.986023,-76.95002,0.08,48.1,33.0,3.0,0.8,0.0,0.0,-1.0,0.0,,0.0,0.0,0.0116
35,3288723,1745297533916,0.012,0.0,-61.0,,-0.1,-0.11,1.05,0.0,0.0,0.0,1.06,1.15,92.0,2613.0,0.0,3.25,,12.49,1.252,89.8,,24.7,5.0,,,,,,,,,,,,0,0,0,0,0,0,0,0,0,0,0,0,0,0,0,0,,,,,,0.0,,,,,,,,,,,,,,,
36,3288743,1745297533936,0.0123,,,,,,,,,,,,,,,,,,,,,,,,,,,,,,,,,,0,0,0,0,0,0,0,0,0,0,0,0,0,0,0,0,,,,,,,,,,,,,,,,,,,,,
37,3288763,1745297533956,0.0126,0.0,-68.0,,-0.11,-0.12,1.05,0.0,0.0,0.0,1.06,1.15,92.0,2446.0,4.0,3.67,,12.99,1.253,89.8,,24.7,5.0,,,,,,,,,,,,0,0,0,0,0,0,0,0,0,0,0,0,0,0,0,0,,,,,,0.0,,,,,,,,,,,,,,,
38,3288783,1745297533976,0.013,,,,,,,,,,,,,,,,,,,,,,,,,,,,,,,,,,0,0,0,0,0,0,0,0,0,0,0,0,0,0,0,0,,,,,,,,,,,,,,,,,,,,,
39,3288803,1745297533996,0.0133,0.0,-46.0,,-0.1,-0.11,1.05,0.0,0.0,0.0,1.06,1.15,92.0,2435.0,6.6,3.92,,13.39,1.253,89.8,,24.7,5.0,0.0,0.0,0.0,0.0,0.0,0.0,0.0,0.0,2.27,,,0,0,0,0,0,0,0,0,0,0,0,0,0,0,0,0,,0.0,,,,0.0,38.986023,-76.95002,0.08,48.1,33.0,3.0,0.8,0.0,0.0,-1.0,0.0,0.0,0.0,0.0,0.0133
40,3288823,1745297534008,0.0136,,,,,,,,,,,,,,,,,,,,,,,,,,,,,,,,,,0,0,0,0,0,0,0,0,0,0,0,0,0,0,0,0,,,,,,,,,,,,,,,,,,,,,
41,3288843,1745297534028,0.014,0.0,-61.0,,-0.1,-0.09,1.04,0.0,0.0,0.0,1.05,1.15,91.0,2369.0,7.7,3.9,,13.64,1.253,89.8,,23.3,5.0,,,,,,,,,,,,0,0,0,0,0,0,0,0,0,0,0,0,0,0,0,0,,,,,,0.0,,,,,,,,,,,,,,,
42,3288863,1745297534048,0.0143,,,,,,,,,,,,,,,,,,,,,,,,,,,,,,,,,,0,0,0,0,0,0,0,0,0,0,0,0,0,0,0,0,,,,,,,,,,,,,,,,,,,,,
43,3288883,1745297534068,0.0146,0.0,-64.0,,-0.09,-0.1,1.05,0.0,0.0,0.0,1.06,1.15,92.0,2521.0,0.0,3.38,,13.64,1.253,89.8,,23.3,5.0,,,,,,,,,,,,0,0,0,0,0,0,0,0,0,0,0,0,0,0,0,0,,,,,,0.0,,,,,,,,,,,,,,,
44,3288903,1745297534506,0.015,,,,,,,,,,,,,,,,,,,,,,,0.0,0.0,0.0,0.0,0.0,0.0,0.0,0.0,2.27,,,0,0,0,0,0,0,0,0,0,0,0,0,0,0,0,0,,0.0,,,,,38.986023,-76.95002,0.0,48.1,33.0,3.0,0.8,0.0,0.0,-1.0,0.0,,0.0,0.0,0.015
45,3288923,1745297534526,0.0153,0.0,-53.0,,-0.12,-0.11,1.06,0.0,0.0,0.0,1.07,1.15,93.0,3632.0,0.0,2.65,,11.89,1.249,89.8,,23.3,5.0,,,,,,,,,,,,0,0,0,0,0,0,0,0,0,0,0,0,0,0,0,0,,,,,,0.0,,,,,,,,,,,,,,,
46,3288943,1745297534607,0.0156,,,,,,,,,,,,,,,,,,,,,,,,,,,,,,,,,,0,0,0,0,0,0,0,0,0,0,0,0,0,0,0,0,,,,,,,,,,,,,,,,,,,,,
47,3288963,1745297534627,0.016,0.0,-57.0,,-0.11,-0.1,1.1,0.0,0.0,0.0,1.11,1.15,97.0,3482.0,0.0,2.69,,11.89,1.249,89.8,,37.0,5.0,,,,,,,,,,,,0,0,0,0,0,0,0,0,0,0,0,0,0,0,0,0,,,,,,0.0,,,,,,,,,,,,,,,
48,3288983,1745297534647,0.0163,,,,,,,,,,,,,,,,,,,,,,,,,,,,,,,,,,0,0,0,0,0,0,0,0,0,0,0,0,0,0,0,0,,,,,,,,,,,,,,,,,,,,,
49,3289003,1745297534667,0.0166,0.0,-61.0,,-0.09,-0.1,0.99,0.0,0.0,0.0,1.0,1.15,87.0,3482.0,0.0,2.69,,11.83,1.237,89.8,,37.0,5.0,0.0,0.0,0.0,0.0,0.0,0.0,0.0,0.0,2.27,,,0,0,0,0,0,0,0,0,0,0,0,0,0,0,0,0,,0.0,,,,0.0,38.986023,-76.95002,0.05,48.1,33.0,3.0,0.8,0.0,0.0,-1.0,0.0,0.0,0.0,0.0,0.0166
50,3289023,1745297534687,0.017,,,,,,,,,,,,,,,,,,,,,,,,,,,,,,,,,,0,0,0,0,0,0,0,0,0,0,0,0,0,0,0,0,,,,,,,,,,,,,,,,,,,,,
51,3289043,1745297534707,0.0173,0.0,-53.0,,-0.08,-0.11,1.06,0.0,0.0,0.0,1.07,1.15,93.0,3339.0,0.0,2.77,,11.93,1.249,89.8,,33.1,5.0,,,,,,,,,,,,0,0,0,0,0,0,0,0,0,0,0,0,0,0,0,0,,,,,,0.0,,,,,,,,,,,,,,,
52,3289063,1745297534727,0.0176,,,,,,,,,,,,,,,,,,,,,,,,,,,,,,,,,,0,0,0,0,0,0,0,0,0,0,0,0,0,0,0,0,,,,,,,,,,,,,,,,,,,,,
53,3289083,1745297534747,0.018,0.0,-64.0,,-0.11,-0.18,1.07,0.0,0.0,0.0,1.09,1.15,95.0,3266.0,0.0,2.81,,11.96,1.255,89.8,,33.1,5.0,,,,,,,,,,,,0,0,0,0,0,0,0,0,0,0,0,0,0,0,0,0,,,,,,0.0,,,,,,,,,,,,,,,
54,3289103,1745297534767,0.0183,,,,,,,,,,,,,,,,,,,,,,,0.0,0.0,0.0,0.0,0.0,0.0,0.0,0.0,2.26,,,0,0,0,0,0,0,0,0,0,0,0,0,0,0,0,0,,0.0,,,,,38.986023,-76.95002,0.05,48.1,33.0,3.0,0.8,0.0,0.0,-1.0,0.0,,0.0,0.0,0.0183
55,3289123,1745297534787,0.0187,0.0,-57.0,,-0.13,-0.18,1.02,0.0,0.0,0.0,1.04,1.15,91.0,3103.0,0.0,2.85,,12.09,1.255,89.8,,33.1,5.0,,,,,,,,,,,,0,0,0,0,0,0,0,0,0,0,0,0,0,0,0,0,,,,,,0.0,,,,,,,,,,,,,,,
56,3289143,1745297534807,0.019,,,,,,,,,,,,,,,,,,,,,,,,,,,,,,,,,,0,0,0,0,0,0,0,0,0,0,0,0,0,0,0,0,,,,,,,,,,,,,,,,,,,,,
57,3289163,1745297534827,0.0193,0.0,-49.0,,-0.13,-0.15,0.95,1.0,0.0,-1.0,0.97,1.15,84.0,2995.0,0.0,2.9,,12.09,1.255,89.8,,31.1,5.0,,,,,,,,,,,,0,0,0,0,0,0,0,0,0,0,0,0,0,0,0,0,,,,,,0.0,,,,,,,,,,,,,,,
58,3289183,1745297534847,0.0196,,,,,,,,,,,,,,,,,,,,,,,,,,,,,,,,,,0,0,0,0,0,0,0,0,0,0,0,0,0,0,0,0,,,,,,,,,,,,,,,,,,,,,
59,3289203,1745297534867,0.02,0.0,-53.0,,-0.14,-0.14,0.93,1.0,0.0,-1.0,0.96,1.15,83.0,2995.0,0.0,2.9,,12.21,1.255,89.8,,31.1,5.0,0.0,0.0,0.0,0.0,0.0,0.0,0.0,0.0,2.26,,,0,0,0,0,0,0,0,0,0,0,0,0,0,0,0,0,,0.0,,,,0.0,38.986023,-76.95002,0.0,48.1,33.0,3.0,0.8,0.0,0.0,-1.0,0.0,0.0,0.0,0.0,0.02
60,3289223,1745297534887,0.0203,,,,,,,,,,,,,,,,,,,,,,,,,,,,,,,,,,0,0,0,0,0,0,0,0,0,0,0,0,0,0,0,0,,,,,,,,,,,,,,,,,,,,,
61,3289243,1745297534909,0.0206,0.0,-49.0,,-0.15,-0.17,0.98,1.0,0.0,-1.0,1.01,1.15,88.0,2936.0,0.0,2.97,,12.25,1.254,89.8,,28.4,5.0,,,,,,,,,,,,0,0,0,0,0,0,0,0,0,0,0,0,0,0,0,0,,,,,,0.0,,,,,,,,,,,,,,,
62,3289263,1745297534929,0.021,,,,,,,,,,,,,,,,,,,,,,,,,,,,,,,,,,0,0,0,0,0,0,0,0,0,0,0,0,0,0,0,0,,,,,,,,,,,,,,,,,,,,,
63,3289283,1745297534949,0.0213,0.0,-68.0,,-0.14,-0.16,1.0,1.0,0.0,-1.0,1.02,1.15,89.0,2833.0,0.0,3.01,,12.29,1.254,89.8,,28.4,5.0,,,,,,,,,,,,0,0,0,0,0,0,0,0,0,0,0,0,0,0,0,0,,,,,,0.0,,,,,,,,,,,,,,,
64,3289303,1745297534969,0.0216,,,,,,,,,,,,,,,,,,,,,,,0.0,0.0,0.0,0.0,0.0,0.0,0.0,0.0,2.27,,,0,0,0,0,0,0,0,0,0,0,0,0,0,0,0,0,,0.0,,,,,38.986023,-76.95002,0.04,48.1,33.0,3.0,0.8,0.0,0.0,-1.0,0.0,,0.0,0.0,0.0216
65,3289323,1745297534989,0.022,0.0,-53.0,,-0.11,-0.1,0.95,1.0,0.0,0.0,0.96,1.15,84.0,2738.0,0.0,3.06,,12.37,1.254,89.8,,28.4,5.0,,,,,,,,,,,,0,0,0,0,0,0,0,0,0,0,0,0,0,0,0,0,,,,,,0.0,,,,,,,,,,,,,,,
66,3289343,1745297534999,0.0223,,,,,,,,,,,,,,,,,,,,,,,,,,,,,,,,,,0,0,0,0,0,0,0,0,0,0,0,0,0,0,0,0,,,,,,,,,,,,,,,,,,,,,
67,3289363,1745297535019,0.0226,0.0,-53.0,,-0.11,-0.09,0.96,1.0,0.0,0.0,0.97,1.15,85.0,2731.0,0.0,3.03,,12.37,1.254,89.8,,28.4,5.0,,,,,,,,,,,,0,0,0,0,0,0,0,0,0,0,0,0,0,0,0,0,,,,,,0.0,,,,,,,,,,,,,,,
68,3289383,1745297535039,0.023,,,,,,,,,,,,,,,,,,,,,,,,,,,,,,,,,,0,0,0,0,0,0,0,0,0,0,0,0,0,0,0,0,,,,,,,,,,,,,,,,,,,,,
69,3289403,1745297535059,0.0233,0.0,-53.0,13.42,-0.1,-0.09,0.97,0.0,0.0,0.0,0.98,1.15,86.0,2731.0,0.0,3.03,15.0,12.45,1.253,89.8,146.0,28.4,5.0,0.0,0.0,0.0,0.0,0.0,0.0,0.0,0.0,2.27,0.0,1.0,0,0,0,0,0,0,0,0,0,0,0,0,0,0,0,0,0.0,0.0,1.0,0.0,0.0,0.0,38.986023,-76.95002,0.04,48.1,33.0,3.0,0.8,0.0,0.0,-1.0,0.0,0.0,0.0,0.0,0.0233
70,3289423,1745297535079,0.0236,,,,,,,,,,,,,,,,,,,,,,,,,,,,,,,,,,0,0,0,0,0,0,0,0,0,0,0,0,0,0,0,0,,,,,,,,,,,,,,,,,,,,,
71,3289443,1745297535109,0.024,0.0,-53.0,,-0.09,-0.07,0.96,0.0,0.0,0.0,0.96,1.15,84.0,2606.0,2.8,3.39,,12.76,1.252,89.8,,26.2,5.0,,,,,,,,,,,,0,0,0,0,0,0,0,0,0,0,0,0,0,0,0,0,,,,,,0.0,,,,,,,,,,,,,,,
72,3289463,1745297535129,0.0243,,,,,,,,,,,,,,,,,,,,,,,,,,,,,,,,,,0,0,0,0,0,0,0,0,0,0,0,0,0,0,0,0,,,,,,,,,,,,,,,,,,,,,
73,3289483,1745297535149,0.0246,0.0,-61.0,,-0.09,-0.07,0.97,0.0,0.0,0.0,0.98,1.15,85.0,2555.0,9.8,3.87,,13.35,1.252,88.0,,26.2,5.0,,,,,,,,,,,,0,0,0,0,0,0,0,0,0,0,0,0,0,0,0,0,,,,,,0.0,,,,,,,,,,,,,,,
74,3289503,1745297535169,0.025,,,,,,,,,,,,,,,,,,,,,,,0.0,0.0,0.0,0.0,0.0,0.0,0.0,0.0,2.26,,,0,0,0,0,0,0,0,0,0,0,0,0,0,0,0,0,,0.0,,,,,38.986023,-76.95002,0.08,48.1,33.0,3.0,0.8,0.0,0.0,-1.0,0.0,,0.0,0.0,0.025
75,3289523,1745297535189,0.0253,0.0,-53.0,,-0.08,-0.08,1.0,0.0,0.0,0.0,1.01,1.15,88.0,2456.0,10.6,3.92,,13.76,1.253,88.0,,26.2,5.0,,,,,,,,,,,,0,0,0,0,0,0,0,0,0,0,0,0,0,0,0,0,,,,,,0.0,,,,,,,,,,,,,,,
76,3289543,1745297535206,0.0256,,,,,,,,,,,,,,,,,,,,,,,,,,,,,,,,,,0,0,0,0,0,0,0,0,0,0,0,0,0,0,0,0,,,,,,,,,,,,,,,,,,,,,
77,3289563,1745297535226,0.026,0.0,-53.0,,-0.08,-0.05,0.98,0.0,0.0,0.0,0.98,1.15,86.0,2536.0,10.9,3.87,,13.76,1.253,88.0,,25.1,5.0,,,,,,,,,,,,0,0,0,0,0,0,0,0,0,0,0,0,0,0,0,0,,,,,,0.0,,,,,,,,,,,,,,,
78,3289583,1745297535246,0.0263,,,,,,,,,,,,,,,,,,,,,,,,,,,,,,,,,,0,0,0,0,0,0,0,0,0,0,0,0,0,0,0,0,,,,,,,,,,,,,,,,,,,,,
79,3289603,1745297535266,0.0266,0.0,-53.0,,-0.08,-0.06,1.0,0.0,0.0,0.0,1.01,1.15,88.0,2536.0,10.9,3.87,,13.87,1.255,88.0,,25.1,5.0,0.0,0.0,0.0,0.0,0.0,0.0,0.0,0.0,2.26,,,0,0,0,0,0,0,0,0,0,0,0,0,0,0,0,0,,0.0,,,,0.0,38.986023,-76.95002,0.04,48.1,33.0,3.0,0.8,0.0,0.0,-1.0,0.0,0.0,0.0,0.0,0.0266
80,3289623,1745297535286,0.027,,,,,,,,,,,,,,,,,,,,,,,,,,,,,,,,,,0,0,0,0,0,0,0,0,0,0,0,0,0,0,0,0,,,,,,,,,,,,,,,,,,,,,
81,3289643,1745297535308,0.0273,0.0,-53.0,,-0.08,-0.04,0.97,0.0,0.0,0.0,0.97,1.15,85.0,2569.0,0.0,3.81,,13.53,1.256,88.0,,25.9,5.0,,,,,,,,,,,,0,0,0,0,0,0,0,0,0,0,0,0,0,0,0,0,,,,,,0.0,,,,,,,,,,,,,,,
82,3289663,1745297535328,0.0276,,,,,,,,,,,,,,,,,,,,,,,,,,,,,,,,,,0,0,0,0,0,0,0,0,0,0,0,0,0,0,0,0,,,,,,,,,,,,,,,,,,,,,
83,3289683,1745297535348,0.028,0.0,-61.0,,-0.09,-0.05,1.0,0.0,0.0,0.0,1.01,1.15,88.0,2709.0,0.0,3.16,,13.17,1.256,88.0,,25.9,5.0,,,,,,,,,,,,0,0,0,0,0,0,0,0,0,0,0,0,0,0,0,0,,,,,,0.0,,,,,,,,,,,,,,,
84,3289703,1745297535368,0.0283,,,,,,,,,,,,,,,,,,,,,,,0.0,0.0,0.0,0.0,0.0,0.0,0.0,0.0,2.26,,,0,0,0,0,0,0,0,0,0,0,0,0,0,0,0,0,,0.0,,,,,38.986023,-76.95002,0.04,48.1,33.0,3.0,0.8,0.0,0.0,-1.0,0.0,,0.0,0.0,0.0283
85,3289723,1745297535388,0.0286,0.0,-53.0,,-0.08,-0.03,0.98,0.0,0.0,0.0,0.99,1.15,86.0,2660.0,0.0,3.14,,12.97,1.254,88.0,,25.9,5.0,,,,,,,,,,,,0,0,0,0,0,0,0,0,0,0,0,0,0,0,0,0,,,,,,0.0,,,,,,,,,,,,,,,
86,3289743,1745297535408,0.029,,,,,,,,,,,,,,,,,,,,,,,,,,,,,,,,,,0,0,0,0,0,0,0,0,0,0,0,0,0,0,0,0,,,,,,,,,,,,,,,,,,,,,
87,3289763,1745297535428,0.0293,0.0,-49.0,,-0.09,-0.06,1.01,0.0,0.0,0.0,1.02,1.15,89.0,2619.0,7.7,3.94,,12.97,1.254,88.0,,25.4,5.0,,,,,,,,,,,,0,0,0,0,0,0,0,0,0,0,0,0,0,0,0,0,,,,,,0.0,,,,,,,,,,,,,,,
88,3289783,1745297535448,0.0296,,,,,,,,,,,,,,,,,,,,,,,,,,,,,,,,,,0,0,0,0,0,0,0,0,0,0,0,0,0,0,0,0,,,,,,,,,,,,,,,,,,,,,
89,3289803,1745297535468,0.03,0.0,-61.0,,-0.08,-0.05,1.0,0.0,0.0,0.0,1.01,1.15,88.0,2619.0,7.7,3.94,,13.2,1.253,88.0,,25.4,5.0,0.0,0.0,0.0,0.0,0.0,0.0,0.0,0.0,2.27,,,0,0,0,0,0,0,0,0,0,0,0,0,0,0,0,0,,0.0,,,,0.0,38.986023,-76.95002,0.06,48.1,33.0,3.0,0.8,0.0,0.0,-1.0,0.0,0.0,0.0,0.0,0.03
90,3289823,1745297535488,0.0303,,,,,,,,,,,,,,,,,,,,,,,,,,,,,,,,,,0,0,0,0,0,0,0,0,0,0,0,0,0,0,0,0,,,,,,,,,,,,,,,,,,,,,
91,3289843,1745297535508,0.0306,0.0,-57.0,,-0.09,-0.04,0.99,0.0,0.0,0.0,1.0,1.15,87.0,2503.0,14.5,4.09,,13.83,1.254,88.0,,24.3,5.0,,,,,,,,,,,,0,0,0,0,0,0,0,0,0,0,0,0,0,0,0,0,,,,,,0.0,,,,,,,,,,,,,,,
92,3289863,1745297535528,0.031,,,,,,,,,,,,,,,,,,,,,,,,,,,,,,,,,,0,0,0,0,0,0,0,0,0,0,0,0,0,0,0,0,,,,,,,,,,,,,,,,,,,,,
93,3289883,1745297535548,0.0313,0.0,-64.0,,-0.08,-0.02,0.97,0.0,0.0,0.0,0.97,1.15,85.0,2475.0,22.2,4.78,,14.22,1.254,88.0,,24.3,5.0,,,,,,,,,,,,0,0,0,0,0,0,0,0,0,0,0,0,0,0,0,0,,,,,,0.0,,,,,,,,,,,,,,,
94,3289903,1745297535568,0.0316,,,,,,,,,,,,,,,,,,,,,,,0.0,0.0,0.0,0.0,0.0,0.0,0.0,0.0,2.27,,,0,0,0,0,0,0,0,0,0,0,0,0,0,0,0,0,,0.0,,,,,38.986023,-76.95002,0.13,48.1,33.0,3.0,0.8,0.0,0.0,-1.0,0.0,,0.0,0.0,0.0316
95,3289923,1745297535588,0.032,0.0,-53.0,,-0.08,-0.03,0.98,0.0,0.0,0.0,0.98,1.15,85.0,2583.0,23.2,4.73,,14.19,1.254,88.0,,24.3,5.0,,,,,,,,,,,,0,0,0,0,0,0,0,0,0,0,0,0,0,0,0,0,,,,,,0.0,,,,,,,,,,,,,,,
96,3289943,1745297535608,0.0323,,,,,,,,,,,,,,,,,,,,,,,,,,,,,,,,,,0,0,0,0,0,0,0,0,0,0,0,0,0,0,0,0,,,,,,,,,,,,,,,,,,,,,
97,3289963,1745297535628,0.0326,0.0,-61.0,,-0.1,-0.07,1.04,0.0,0.0,0.0,1.04,1.15,91.0,2871.0,23.4,4.46,,14.19,1.254,88.0,,27.3,5.0,,,,,,,,,,,,0,0,0,0,0,0,0,0,0,0,0,0,0,0,0,0,,,,,,0.0,,,,,,,,,,,,,,,
98,3289983,1745297535648,0.033,,,,,,,,,,,,,,,,,,,,,,,,,,,,,,,,,,0,0,0,0,0,0,0,0,0,0,0,0,0,0,0,0,,,,,,,,,,,,,,,,,,,,,
99,3290003,1745297535668,0.0333,0.0,-61.0,,-0.13,-0.13,1.06,0.0,0.0,0.0,1.08,1.15,94.0,2871.0,23.4,4.46,,14.11,1.253,88.0,,27.3,5.0,0.0,0.0,0.0,0.0,0.0,0.0,0.0,0.0,2.27,,,0,0,0,0,0,0,0,0,0,0,0,0,0,0,0,0,,0.0,,,,0.0,38.986023,-76.95002,0.04,48.1,33.0,3.0,0.8,0.0,0.0,-1.0,0.0,0.0,0.0,0.0,0.0333
100,3290023,1745297535688,0.0336,,,,,,,,,,,,,,,,,,,,,,,,,,,,,,,,,,0,0,0,0,0,0,0,0,0,0,0,0,0,0,0,0,,,,,,,,,,,,,,,,,,,,,
101,3290043,1745297535708,0.034,0.0,-57.0,,-0.13,-0.1,0.98,1.0,0.0,-1.0,0.99,1.15,87.0,3078.0,10.7,4.45,,13.83,1.252,88.0,,32.2,5.0,,,,,,,,,,,,0,0,0,0,0,0,0,0,0,0,0,0,0,0,0,0,,,,,,0.0,,,,,,,,,,,,,,,
102,3290063,1745297535728,0.0343,,,,,,,,,,,,,,,,,,,,,,,,,,,,,,,,,,0,0,0,0,0,0,0,0,0,0,0,0,0,0,0,0,,,,,,,,,,,,,,,,,,,,,
103,3290083,1745297535748,0.0347,0.0,-61.0,,-0.12,-0.07,1.02,0.0,0.0,0.0,1.03,1.15,90.0,3360.0,0.0,2.9,,13.16,1.254,88.0,,32.2,5.0,,,,,,,,,,,,0,0,0,0,0,0,0,0,0,0,0,0,0,0,0,0,,,,,,0.0,,,,,,,,,,,,,,,
104,3290103,1745297535768,0.035,,,,,,,,,,,,,,,,,,,,,,,0.0,0.0,0.0,0.0,0.0,0.0,0.0,0.0,2.27,,,0,0,0,0,0,0,0,0,0,0,0,0,0,0,0,0,,0.0,,,,,38.986023,-76.95002,0.04,48.1,33.0,3.0,0.8,0.0,0.0,-1.0,0.0,,0.0,0.0,0.035
105,3290123,1745297535788,0.0353,0.0,-42.0,,-0.12,-0.09,0.95,1.0,0.0,0.0,0.96,1.15,84.0,3376.0,0.0,2.8,,12.73,1.255,88.0,,32.2,5.0,,,,,,,,,,,,0,0,0,0,0,0,0,0,0,0,0,0,0,0,0,0,,,,,,0.0,,,,,,,,,,,,,,,
106,3290143,1745297535808,0.0356,,,,,,,,,,,,,,,,,,,,,,,,,,,,,,,,,,0,0,0,0,0,0,0,0,0,0,0,0,0,0,0,0,,,,,,,,,,,,,,,,,,,,,
107,3290163,1745297535828,0.036,0.0,-42.0,,-0.1,-0.04,1.0,0.0,0.0,0.0,1.01,1.15,88.0,3326.0,0.0,2.82,,12.73,1.255,88.0,,33.9,5.0,,,,,,,,,,,,0,0,0,0,0,0,0,0,0,0,0,0,0,0,0,0,,,,,,0.0,,,,,,,,,,,,,,,
108,3290183,1745297535848,0.0363,,,,,,,,,,,,,,,,,,,,,,,,,,,,,,,,,,0,0,0,0,0,0,0,0,0,0,0,0,0,0,0,0,,,,,,,,,,,,,,,,,,,,,
109,3290203,1745297535868,0.0366,0.0,-68.0,,-0.12,-0.1,1.02,0.0,0.0,0.0,1.03,1.15,90.0,3326.0,0.0,2.82,,12.48,1.255,88.0,,33.9,5.0,0.0,0.0,0.0,0.0,0.0,0.0,0.0,0.0,2.26,,,0,0,0,0,0,0,0,0,0,0,0,0,0,0,0,0,,0.0,,,,0.0,38.986023,-76.95002,0.04,48.1,33.0,3.0,0.8,0.0,0.0,-1.0,0.0,0.0,0.0,0.0,0.0366
110,3290223,1745297535888,0.037,,,,,,,,,,,,,,,,,,,,,,,,,,,,,,,,,,0,0,0,0,0,0,0,0,0,0,0,0,0,0,0,0,,,,,,,,,,,,,,,,,,,,,
111,3290243,1745297535906,0.0373,0.0,-64.0,,-0.11,-0.09,0.99,0.0,0.0,0.0,1.0,1.15,87.0,3246.0,0.0,2.85,,12.4,1.255,88.0,,31.9,5.0,,,,,,,,,,,,0,0,0,0,0,0,0,0,0,0,0,0,0,0,0,0,,,,,,0.0,,,,,,,,,,,,,,,
112,3290263,1745297535926,0.0376,,,,,,,,,,,,,,,,,,,,,,,,,,,,,,,,,,0,0,0,0,0,0,0,0,0,0,0,0,0,0,0,0,,,,,,,,,,,,,,,,,,,,,
113,3290283,1745297535946,0.038,0.0,-61.0,,-0.09,-0.05,0.9,1.0,0.0,0.0,0.9,1.15,79.0,3071.0,3.5,3.43,,12.64,1.253,88.0,,31.9,5.0,,,,,,,,,,,,0,0,0,0,0,0,0,0,0,0,0,0,0,0,0,0,,,,,,0.0,,,,,,,,,,,,,,,
114,3290303,1745297535966,0.0383,,,,,,,,,,,,,,,,,,,,,,,0.0,0.0,0.0,0.0,0.0,0.0,0.0,0.0,2.27,,,0,0,0,0,0,0,0,0,0,0,0,0,0,0,0,0,,0.0,,,,,38.986023,-76.95002,0.05,48.1,33.0,3.0,0.8,0.0,0.0,-1.0,0.0,,0.0,0.0,0.0383
115,3290323,1745297535986,0.0386,0.0,-61.0,,-0.07,0.02,0.85,2.0,0.0,0.0,0.85,1.15,74.0,3037.0,6.0,3.75,,12.95,1.254,88.0,,31.9,5.0,,,,,,,,,,,,0,0,0,0,0,0,0,0,0,0,0,0,0,0,0,0,,,,,,0.0,,,,,,,,,,,,,,,
116,3290343,1745297536000,0.039,,,,,,,,,,,,,,,,,,,,,,,,,,,,,,,,,,0,0,0,0,0,0,0,0,0,0,0,0,0,0,0,0,,,,,,,,,,,,,,,,,,,,,
117,3290363,1745297536020,0.0393,0.0,-57.0,,-0.06,0.09,0.82,3.0,0.0,0.0,0.82,1.15,72.0,3053.0,6.3,3.81,,12.95,1.254,88.0,,29.7,5.0,,,,,,,,,,,,0,0,0,0,0,0,0,0,0,0,0,0,0,0,0,0,,,,,,0.0,,,,,,,,,,,,,,,
118,3290383,1745297536040,0.0396,,,,,,,,,,,,,,,,,,,,,,,,,,,,,,,,,,0,0,0,0,0,0,0,0,0,0,0,0,0,0,0,0,,,,,,,,,,,,,,,,,,,,,
119,3290403,1745297536060,0.04,0.0,-61.0,13.48,-0.04,0.19,0.81,5.0,-1.0,0.0,0.83,1.15,73.0,3053.0,6.3,3.81,15.0,13.08,1.254,88.0,151.0,29.7,5.0,0.0,0.0,0.0,0.0,0.0,0.0,0.0,0.0,2.27,0.0,1.0,0,0,0,0,0,0,0,0,0,0,0,0,0,0,0,0,0.0,0.0,1.0,0.0,0.0,0.0,38.986023,-76.95002,0.05,48.1,33.0,3.0,0.8,0.0,0.0,-1.0,0.0,0.0,0.0,0.0,0.04
120,3290423,1745297536080,0.0403,,,,,,,,,,,,,,,,,,,,,,,,,,,,,,,,,,0,0,0,0,0,0,0,0,0,0,0,0,0,0,0,0,,,,,,,,,,,,,,,,,,,,,
121,3290443,1745297536106,0.0406,0.0,-57.0,,-0.03,0.06,0.91,4.0,0.0,0.0,0.92,1.15,80.0,3177.0,6.5,3.83,,13.16,1.254,88.0,,33.8,5.0,,,,,,,,,,,,0,0,0,0,0,0,0,0,0,0,0,0,0,0,0,0,,,,,,0.0,,,,,,,,,,,,,,,
122,3290463,1745297536126,0.041,,,,,,,,,,,,,,,,,,,,,,,,,,,,,,,,,,0,0,0,0,0,0,0,0,0,0,0,0,0,0,0,0,,,,,,,,,,,,,,,,,,,,,
123,3290483,1745297536146,0.0413,0.0,-61.0,,-0.04,0.14,0.84,4.0,0.0,0.0,0.85,1.15,74.0,3345.0,6.4,3.82,,13.11,1.255,88.0,,33.8,5.0,,,,,,,,,,,,0,0,0,0,0,0,0,0,0,0,0,0,0,0,0,0,,,,,,0.0,,,,,,,,,,,,,,,
124,3290503,1745297536166,0.0416,,,,,,,,,,,,,,,,,,,,,,,0.0,0.0,0.0,0.0,0.0,0.0,0.0,0.0,2.26,,,0,0,0,0,0,0,0,0,0,0,0,0,0,0,0,0,,0.0,,,,,38.986023,-76.95002,0.08,48.1,33.0,3.0,0.8,0.0,0.0,-1.0,0.0,,0.0,0.0,0.0416
125,3290523,1745297536186,0.042,0.0,-53.0,,-0.05,-0.04,0.9,4.0,0.0,0.0,0.9,1.15,79.0,3404.0,6.4,3.81,,13.05,1.254,88.0,,33.8,5.0,,,,,,,,,,,,0,0,0,0,0,0,0,0,0,0,0,0,0,0,0,0,,,,,,0.0,,,,,,,,,,,,,,,
126,3290543,1745297536205,0.0423,,,,,,,,,,,,,,,,,,,,,,,,,,,,,,,,,,0,0,0,0,0,0,0,0,0,0,0,0,0,0,0,0,,,,,,,,,,,,,,,,,,,,,
127,3290563,1745297536225,0.0426,0.0,-49.0,,-0.04,0.06,0.86,4.0,0.0,0.0,0.87,1.15,76.0,3362.0,6.4,3.8,,13.05,1.254,88.0,,34.6,5.0,,,,,,,,,,,,0,0,0,0,0,0,0,0,0,0,0,0,0,0,0,0,,,,,,0.0,,,,,,,,,,,,,,,
128,3290583,1745297536245,0.043,,,,,,,,,,,,,,,,,,,,,,,,,,,,,,,,,,0,0,0,0,0,0,0,0,0,0,0,0,0,0,0,0,,,,,,,,,,,,,,,,,,,,,
129,3290603,1745297536265,0.0433,0.0,-68.0,,-0.03,-0.09,0.92,2.0,0.0,0.0,0.93,1.15,81.0,3362.0,6.4,3.8,,13.08,1.255,88.0,,34.6,5.0,0.0,0.0,0.0,0.0,0.0,0.0,0.0,0.0,2.26,,,0,0,0,0,0,0,0,0,0,0,0,0,0,0,0,0,,0.0,,,,0.0,38.986023,-76.95002,0.05,48.1,33.0,3.0,0.8,0.0,0.0,-1.0,0.0,0.0,0.0,0.0,0.0433
130,3290623,1745297536285,0.0436,,,,,,,,,,,,,,,,,,,,,,,,,,,,,,,,,,0,0,0,0,0,0,0,0,0,0,0,0,0,0,0,0,,,,,,,,,,,,,,,,,,,,,
131,3290643,1745297536307,0.044,0.0,-57.0,,-0.06,0.07,0.92,4.0,0.0,0.0,0.92,1.15,80.0,3403.0,6.5,3.8,,13.03,1.247,88.0,,34.3,5.0,,,,,,,,,,,,0,0,0,0,0,0,0,0,0,0,0,0,0,0,0,0,,,,,,0.0,,,,,,,,,,,,,,,
132,3290663,1745297536327,0.0443,,,,,,,,,,,,,,,,,,,,,,,,,,,,,,,,,,0,0,0,0,0,0,0,0,0,0,0,0,0,0,0,0,,,,,,,,,,,,,,,,,,,,,
133,3290683,1745297536347,0.0446,0.0,-76.0,,-0.05,-0.07,0.95,2.0,0.0,0.0,0.95,1.15,83.0,3359.0,6.4,3.8,,13.03,1.226,88.0,,34.3,5.0,,,,,,,,,,,,0,0,0,0,0,0,0,0,0,0,0,0,0,0,0,0,,,,,,0.0,,,,,,,,,,,,,,,
134,3290703,1745297536367,0.045,,,,,,,,,,,,,,,,,,,,,,,0.0,0.0,0.0,0.0,0.0,0.0,0.0,0.0,2.27,,,0,0,0,0,0,0,0,0,0,0,0,0,0,0,0,0,,0.0,,,,,38.986023,-76.95002,0.07,48.1,33.0,3.0,0.8,0.0,0.0,-1.0,0.0,,0.0,0.0,0.045
135,3290723,1745297536387,0.0453,0.0,-53.0,,-0.06,0.07,0.91,4.0,0.0,0.0,0.91,1.15,79.0,3354.0,6.5,3.8,,13.04,1.22,88.0,,34.3,5.0,,,,,,,,,,,,0,0,0,0,0,0,0,0,0,0,0,0,0,0,0,0,,,,,,0.0,,,,,,,,,,,,,,,
136,3290743,1745297536407,0.0457,,,,,,,,,,,,,,,,,,,,,,,,,,,,,,,,,,0,0,0,0,0,0,0,0,0,0,0,0,0,0,0,0,,,,,,,,,,,,,,,,,,,,,
137,3290763,1745297536427,0.046,0.0,-49.0,,-0.05,-0.1,0.97,1.0,0.0,0.0,0.97,1.15,85.0,3378.0,6.6,3.8,,13.04,1.22,88.0,,33.2,5.0,,,,,,,,,,,,0,0,0,0,0,0,0,0,0,0,0,0,0,0,0,0,,,,,,0.0,,,,,,,,,,,,,,,
138,3290783,1745297536447,0.0463,,,,,,,,,,,,,,,,,,,,,,,,,,,,,,,,,,0,0,0,0,0,0,0,0,0,0,0,0,0,0,0,0,,,,,,,,,,,,,,,,,,,,,
139,3290803,1745297536467,0.0466,0.0,-61.0,,-0.07,0.03,0.89,3.0,0.0,0.0,0.89,1.15,78.0,3378.0,6.6,3.8,,13.03,1.229,88.0,,33.2,5.0,0.0,0.0,0.0,0.0,0.0,0.0,0.0,0.0,2.27,,,0,0,0,0,0,0,0,0,0,0,0,0,0,0,0,0,,0.0,,,,0.0,38.986023,-76.95002,0.07,48.1,33.0,3.0,0.8,0.0,0.0,-1.0,0.0,0.0,0.0,0.0,0.0466
140,3290823,1745297536487,0.047,,,,,,,,,,,,,,,,,,,,,,,,,,,,,,,,,,0,0,0,0,0,0,0,0,0,0,0,0,0,0,0,0,,,,,,,,,,,,,,,,,,,,,
141,3290843,1745297536507,0.0473,0.0,-61.0,,-0.06,-0.04,0.98,1.0,0.0,0.0,0.99,1.15,86.0,3316.0,6.6,3.8,,13.07,1.241,88.0,,33.4,5.0,,,,,,,,,,,,0,0,0,0,0,0,0,0,0,0,0,0,0,0,0,0,,,,,,0.0,,,,,,,,,,,,,,,
142,3290863,1745297536527,0.0476,,,,,,,,,,,,,,,,,,,,,,,,,,,,,,,,,,0,0,0,0,0,0,0,0,0,0,0,0,0,0,0,0,,,,,,,,,,,,,,,,,,,,,
143,3290883,1745297536547,0.048,0.0,-72.0,,-0.08,0.0,0.88,1.0,0.0,0.0,0.89,1.15,77.0,3369.0,0.0,2.84,,12.71,1.234,88.0,,33.4,5.0,,,,,,,,,,,,0,0,0,0,0,0,0,0,0,0,0,0,0,0,0,0,,,,,,0.0,,,,,,,,,,,,,,,
144,3290903,1745297536567,0.0483,,,,,,,,,,,,,,,,,,,,,,,0.0,0.0,0.0,0.0,0.0,0.0,0.0,0.0,2.27,,,0,0,0,0,0,0,0,0,0,0,0,0,0,0,0,0,,0.0,,,,,38.986023,-76.95002,0.15,48.1,33.0,3.0,0.8,0.0,0.0,-1.0,0.0,,0.0,0.0,0.0483
145,3290923,1745297536587,0.0486,0.0,-53.0,,-0.06,-0.04,0.97,2.0,0.0,0.0,0.97,1.15,84.0,3276.0,0.0,2.81,,12.45,1.233,88.0,,33.4,5.0,,,,,,,,,,,,0,0,0,0,0,0,0,0,0,0,0,0,0,0,0,0,,,,,,0.0,,,,,,,,,,,,,,,
146,3290943,1745297536607,0.049,,,,,,,,,,,,,,,,,,,,,,,,,,,,,,,,,,0,0,0,0,0,0,0,0,0,0,0,0,0,0,0,0,,,,,,,,,,,,,,,,,,,,,
147,3290963,1745297536627,0.0493,0.0,-57.0,,-0.06,-0.12,0.99,-1.0,0.0,0.0,1.0,1.15,87.0,3208.0,0.0,2.84,,12.45,1.233,88.0,,32.9,5.0,,,,,,,,,,,,0,0,0,0,0,0,0,0,0,0,0,0,0,0,0,0,,,,,,0.0,,,,,,,,,,,,,,,
148,3290983,1745297536647,0.0496,,,,,,,,,,,,,,,,,,,,,,,,,,,,,,,,,,0,0,0,0,0,0,0,0,0,0,0,0,0,0,0,0,,,,,,,,,,,,,,,,,,,,,
149,3291003,1745297536667,0.05,0.0,-68.0,,-0.09,-0.12,0.95,-2.0,0.0,0.0,0.96,1.15,84.0,3208.0,0.0,2.84,,12.36,1.225,88.0,,32.9,5.0,0.0,0.0,0.0,0.0,0.0,0.0,0.0,0.0,2.27,,,0,0,0,0,0,0,0,0,0,0,0,0,0,0,0,0,,0.0,,,,0.0,38.986023,-76.95002,0.04,48.1,33.0,3.0,0.8,0.0,0.0,-1.0,0.0,0.0,0.0,0.0,0.05
150,3291023,1745297536687,0.0503,,,,,,,,,,,,,,,,,,,,,,,,,,,,,,,,,,0,0,0,0,0,0,0,0,0,0,0,0,0,0,0,0,,,,,,,,,,,,,,,,,,,,,
151,3291043,1745297536707,0.0506,0.0,-68.0,,-0.11,-0.06,0.88,-2.0,0.0,-1.0,0.89,1.15,78.0,3094.0,0.0,2.92,,12.29,1.233,88.0,,30.4,5.0,,,,,,,,,,,,0,0,0,0,0,0,0,0,0,0,0,0,0,0,0,0,,,,,,0.0,,,,,,,,,,,,,,,
152,3291063,1745297536727,0.051,,,,,,,,,,,,,,,,,,,,,,,,,,,,,,,,,,0,0,0,0,0,0,0,0,0,0,0,0,0,0,0,0,,,,,,,,,,,,,,,,,,,,,
153,3291083,1745297536747,0.0513,0.0,-68.0,,-0.13,-0.06,0.86,-2.0,0.0,-1.0,0.88,1.15,76.0,3027.0,0.0,2.93,,12.35,1.248,88.0,,30.4,5.0,,,,,,,,,,,,0,0,0,0,0,0,0,0,0,0,0,0,0,0,0,0,,,,,,0.0,,,,,,,,,,,,,,,
154,3291103,1745297536767,0.0516,,,,,,,,,,,,,,,,,,,,,,,0.0,0.0,0.0,0.0,0.0,0.0,0.0,0.0,2.27,,,0,0,0,0,0,0,0,0,0,0,0,0,0,0,0,0,,0.0,,,,,38.986023,-76.95002,0.04,48.2,33.0,3.0,0.8,0.0,0.0,-1.0,0.0,,0.0,0.0,0.0516
155,3291123,1745297536787,0.052,0.0,-61.0,,-0.14,-0.07,0.9,-3.0,0.0,-1.0,0.91,1.15,79.0,2877.0,0.9,3.07,,12.53,1.254,88.0,,30.4,5.0,,,,,,,,,,,,0,0,0,0,0,0,0,0,0,0,0,0,0,0,0,0,,,,,,0.0,,,,,,,,,,,,,,,
156,3291143,1745297536807,0.0523,,,,,,,,,,,,,,,,,,,,,,,,,,,,,,,,,,0,0,0,0,0,0,0,0,0,0,0,0,0,0,0,0,,,,,,,,,,,,,,,,,,,,,
157,3291163,1745297536827,0.0526,0.0,-64.0,,-0.11,-0.11,0.96,-3.0,0.0,-1.0,0.97,1.15,84.0,2774.0,2.2,3.36,,12.53,1.254,88.0,,28.5,5.0,,,,,,,,,,,,0,0,0,0,0,0,0,0,0,0,0,0,0,0,0,0,,,,,,0.0,,,,,,,,,,,,,,,
158,3291183,1745297536847,0.053,,,,,,,,,,,,,,,,,,,,,,,,,,,,,,,,,,0,0,0,0,0,0,0,0,0,0,0,0,0,0,0,0,,,,,,,,,,,,,,,,,,,,,
159,3291203,1745297536867,0.0533,0.0,-64.0,,-0.11,-0.09,0.93,-2.0,0.0,0.0,0.94,1.15,82.0,2774.0,2.2,3.36,,12.79,1.253,88.0,,28.5,5.0,0.0,0.0,0.0,0.0,0.0,0.0,0.0,0.0,2.27,,,0,0,0,0,0,0,0,0,0,0,0,0,0,0,0,0,,0.0,,,,0.0,38.986023,-76.95002,0.18,48.2,33.0,3.0,0.8,0.0,0.0,-1.0,0.0,0.0,0.0,0.0,0.0533
160,3291223,1745297536887,0.0536,,,,,,,,,,,,,,,,,,,,,,,,,,,,,,,,,,0,0,0,0,0,0,0,0,0,0,0,0,0,0,0,0,,,,,,,,,,,,,,,,,,,,,
161,3291243,1745297536908,0.054,0.0,-57.0,,-0.1,-0.07,0.94,-2.0,0.0,0.0,0.95,1.15,83.0,2749.0,4.6,3.56,,13.03,1.256,88.0,,27.7,5.0,,,,,,,,,,,,0,0,0,0,0,0,0,0,0,0,0,0,0,0,0,0,,,,,,0.0,,,,,,,,,,,,,,,
162,3291263,1745297536928,0.0543,,,,,,,,,,,,,,,,,,,,,,,,,,,,,,,,,,0,0,0,0,0,0,0,0,0,0,0,0,0,0,0,0,,,,,,,,,,,,,,,,,,,,,
163,3291283,1745297536948,0.0546,0.0,-72.0,,-0.1,-0.02,0.88,-2.0,0.0,0.0,0.89,1.15,77.0,3016.0,7.5,3.82,,13.25,1.256,88.0,,27.7,5.0,,,,,,,,,,,,0,0,0,0,0,0,0,0,0,0,0,0,0,0,0,0,,,,,,0.0,,,,,,,,,,,,,,,
164,3291303,1745297536968,0.055,,,,,,,,,,,,,,,,,,,,,,,0.0,0.0,0.0,0.0,0.0,0.0,0.0,0.0,2.27,,,0,0,0,0,0,0,0,0,0,0,0,0,0,0,0,0,,0.0,,,,,38.986023,-76.95002,0.12,48.2,33.0,3.0,0.8,0.0,0.0,-1.0,0.0,,0.0,0.0,0.055
165,3291323,1745297536988,0.0553,0.0,-61.0,,-0.09,0.02,0.81,0.0,0.0,-1.0,0.82,1.15,71.0,3103.0,11.2,3.95,,13.45,1.254,88.0,,27.7,5.0,,,,,,,,,,,,0,0,0,0,0,0,0,0,0,0,0,0,0,0,0,0,,,,,,0.0,,,,,,,,,,,,,,,
166,3291343,1745297537001,0.0556,,,,,,,,,,,,,,,,,,,,,,,,,,,,,,,,,,0,0,0,0,0,0,0,0,0,0,0,0,0,0,0,0,,,,,,,,,,,,,,,,,,,,,
167,3291363,1745297537021,0.056,0.0,-53.0,,-0.06,0.12,0.85,2.0,0.0,0.0,0.86,1.15,75.0,3125.0,12.0,4.0,,13.45,1.254,88.0,,31.2,5.0,,,,,,,,,,,,0,0,0,0,0,0,0,0,0,0,0,0,0,0,0,0,,,,,,0.0,,,,,,,,,,,,,,,
168,3291383,1745297537041,0.0563,,,,,,,,,,,,,,,,,,,,,,,,,,,,,,,,,,0,0,0,0,0,0,0,0,0,0,0,0,0,0,0,0,,,,,,,,,,,,,,,,,,,,,
169,3291403,1745297537061,0.0566,0.0,-61.0,13.49,-0.04,-0.0,0.95,1.0,0.0,0.0,0.95,1.15,83.0,3125.0,12.0,4.0,15.0,13.56,1.255,88.0,153.0,31.2,5.0,0.0,0.0,0.0,0.0,0.0,0.0,0.0,0.0,2.27,0.0,1.0,0,0,0,0,0,0,0,0,0,0,0,0,0,0,0,0,0.0,0.0,1.0,0.0,0.0,0.0,38.986023,-76.95002,0.11,48.2,33.0,3.0,0.8,0.0,0.0,-1.0,0.0,0.0,0.0,0.0,0.0566
170,3291423,1745297537081,0.057,,,,,,,,,,,,,,,,,,,,,,,,,,,,,,,,,,0,0,0,0,0,0,0,0,0,0,0,0,0,0,0,0,,,,,,,,,,,,,,,,,,,,,
171,3291443,1745297537103,0.0573,0.0,-57.0,,-0.07,0.04,0.88,0.0,0.0,0.0,0.89,1.15,77.0,3296.0,12.0,4.01,,13.49,1.254,88.0,,32.7,5.0,,,,,,,,,,,,0,0,0,0,0,0,0,0,0,0,0,0,0,0,0,0,,,,,,0.0,,,,,,,,,,,,,,,
172,3291463,1745297537123,0.0576,,,,,,,,,,,,,,,,,,,,,,,,,,,,,,,,,,0,0,0,0,0,0,0,0,0,0,0,0,0,0,0,0,,,,,,,,,,,,,,,,,,,,,
173,3291483,1745297537143,0.058,0.0,-72.0,,-0.05,0.03,0.96,2.0,0.0,0.0,0.96,1.15,84.0,3328.0,0.0,2.84,,13.04,1.252,88.0,,32.7,5.0,,,,,,,,,,,,0,0,0,0,0,0,0,0,0,0,0,0,0,0,0,0,,,,,,0.0,,,,,,,,,,,,,,,
174,3291503,1745297537163,0.0583,,,,,,,,,,,,,,,,,,,,,,,0.0,0.0,0.0,0.0,0.0,0.0,0.0,0.0,2.27,,,0,0,0,0,0,0,0,0,0,0,0,0,0,0,0,0,,0.0,,,,,38.986023,-76.95002,0.06,48.2,33.0,3.0,0.8,0.0,0.0,-1.0,0.0,,0.0,0.0,0.0583
175,3291523,1745297537183,0.0586,0.0,-61.0,,-0.07,0.02,0.91,-1.0,0.0,0.0,0.91,1.15,80.0,3318.0,0.0,2.82,,12.69,1.242,88.0,,32.7,5.0,,,,,,,,,,,,0,0,0,0,0,0,0,0,0,0,0,0,0,0,0,0,,,,,,0.0,,,,,,,,,,,,,,,
176,3291543,1745297537206,0.059,,,,,,,,,,,,,,,,,,,,,,,,,,,,,,,,,,0,0,0,0,0,0,0,0,0,0,0,0,0,0,0,0,,,,,,,,,,,,,,,,,,,,,
177,3291563,1745297537226,0.0593,0.0,-53.0,,-0.07,0.1,0.88,2.0,0.0,0.0,0.89,1.15,78.0,3249.0,0.0,2.85,,12.69,1.242,88.0,,32.7,5.0,,,,,,,,,,,,0,0,0,0,0,0,0,0,0,0,0,0,0,0,0,0,,,,,,0.0,,,,,,,,,,,,,,,
178,3291583,1745297537246,0.0596,,,,,,,,,,,,,,,,,,,,,,,,,,,,,,,,,,0,0,0,0,0,0,0,0,0,0,0,0,0,0,0,0,,,,,,,,,,,,,,,,,,,,,
179,3291603,1745297537266,0.06,0.0,-61.0,,-0.04,0.09,0.96,3.0,0.0,0.0,0.97,1.15,84.0,3249.0,0.0,2.85,,12.43,1.243,88.0,,32.7,5.0,0.0,0.0,0.0,0.0,0.0,0.0,0.0,0.0,2.27,,,0,0,0,0,0,0,0,0,0,0,0,0,0,0,0,0,,0.0,,,,0.0,38.986023,-76.95002,0.11,48.2,33.0,3.0,0.8,0.0,0.0,-1.0,0.0,0.0,0.0,0.0,0.06
180,3291623,1745297537286,0.0603,,,,,,,,,,,,,,,,,,,,,,,,,,,,,,,,,,0,0,0,0,0,0,0,0,0,0,0,0,0,0,0,0,,,,,,,,,,,,,,,,,,,,,
181,3291643,1745297537306,0.0606,0.0,-61.0,,-0.02,0.0,1.03,2.0,0.0,0.0,1.03,1.15,90.0,3081.0,0.0,2.88,,12.33,1.255,88.0,,30.4,5.0,,,,,,,,,,,,0,0,0,0,0,0,0,0,0,0,0,0,0,0,0,0,,,,,,0.0,,,,,,,,,,,,,,,
182,3291663,1745297537326,0.061,,,,,,,,,,,,,,,,,,,,,,,,,,,,,,,,,,0,0,0,0,0,0,0,0,0,0,0,0,0,0,0,0,,,,,,,,,,,,,,,,,,,,,
183,3291683,1745297537346,0.0613,0.0,-68.0,,-0.01,-0.09,1.07,2.0,0.0,0.0,1.07,1.15,94.0,2976.0,0.0,2.92,,12.4,1.255,88.0,,30.4,5.0,,,,,,,,,,,,0,0,0,0,0,0,0,0,0,0,0,0,0,0,0,0,,,,,,0.0,,,,,,,,,,,,,,,
184,3291703,1745297537366,0.0616,,,,,,,,,,,,,,,,,,,,,,,0.0,0.0,0.0,0.0,0.0,0.0,0.0,0.0,2.27,,,0,0,0,0,0,0,0,0,0,0,0,0,0,0,0,0,,0.0,,,,,38.986023,-76.95002,0.0,48.2,33.0,3.0,0.8,0.0,0.0,-1.0,0.0,,0.0,0.0,0.0616
185,3291723,1745297537386,0.062,0.0,-31.0,,-0.01,-0.08,1.07,3.0,0.0,1.0,1.08,1.15,94.0,2907.0,0.0,2.97,,12.41,1.256,88.0,,30.4,5.0,,,,,,,,,,,,0,0,0,0,0,0,0,0,0,0,0,0,0,0,0,0,,,,,,0.0,,,,,,,,,,,,,,,
186,3291743,1745297537408,0.0623,,,,,,,,,,,,,,,,,,,,,,,,,,,,,,,,,,0,0,0,0,0,0,0,0,0,0,0,0,0,0,0,0,,,,,,,,,,,,,,,,,,,,,
187,3291763,1745297537428,0.0626,0.0,-53.0,,-0.02,-0.03,1.02,4.0,0.0,1.0,1.02,1.15,89.0,2852.0,0.0,3.02,,12.41,1.256,88.0,,27.8,5.0,,,,,,,,,,,,0,0,0,0,0,0,0,0,0,0,0,0,0,0,0,0,,,,,,0.0,,,,,,,,,,,,,,,
188,3291783,1745297537448,0.063,,,,,,,,,,,,,,,,,,,,,,,,,,,,,,,,,,0,0,0,0,0,0,0,0,0,0,0,0,0,0,0,0,,,,,,,,,,,,,,,,,,,,,
189,3291803,1745297537468,0.0633,0.0,-68.0,,-0.04,-0.01,1.01,2.0,0.0,0.0,1.02,1.15,89.0,2852.0,0.0,3.02,,12.41,1.256,88.0,,27.8,5.0,0.0,0.0,0.0,0.0,0.0,0.0,0.0,0.0,2.27,,,0,0,0,0,0,0,0,0,0,0,0,0,0,0,0,0,,0.0,,,,0.0,38.986023,-76.95002,0.08,48.2,33.0,3.0,0.8,0.0,0.0,-1.0,0.0,0.0,0.0,0.0,0.0633
190,3291823,1745297537488,0.0636,,,,,,,,,,,,,,,,,,,,,,,,,,,,,,,,,,0,0,0,0,0,0,0,0,0,0,0,0,0,0,0,0,,,,,,,,,,,,,,,,,,,,,
191,3291843,1745297537506,0.064,0.0,-61.0,,-0.03,-0.03,1.03,3.0,0.0,0.0,1.03,1.15,90.0,2743.0,0.0,3.04,,12.51,1.255,88.0,,26.7,5.0,,,,,,,,,,,,0,0,0,0,0,0,0,0,0,0,0,0,0,0,0,0,,,,,,0.0,,,,,,,,,,,,,,,
192,3291863,1745297537526,0.0643,,,,,,,,,,,,,,,,,,,,,,,,,,,,,,,,,,0,0,0,0,0,0,0,0,0,0,0,0,0,0,0,0,,,,,,,,,,,,,,,,,,,,,
193,3291883,1745297537546,0.0646,0.0,-61.0,,-0.04,-0.02,1.0,2.0,0.0,0.0,1.0,1.15,87.0,2738.0,0.2,3.1,,12.61,1.255,88.0,,26.7,5.0,,,,,,,,,,,,0,0,0,0,0,0,0,0,0,0,0,0,0,0,0,0,,,,,,0.0,,,,,,,,,,,,,,,
194,3291903,1745297537566,0.065,,,,,,,,,,,,,,,,,,,,,,,0.0,0.0,0.0,0.0,0.0,0.0,0.0,0.0,2.26,,,0,0,0,0,0,0,0,0,0,0,0,0,0,0,0,0,,0.0,,,,,38.986023,-76.95002,0.07,48.2,33.0,3.0,0.8,0.0,0.0,-1.0,0.0,,0.0,0.0,0.065
195,3291923,1745297537586,0.0653,0.0,-72.0,,-0.04,-0.02,1.0,2.0,0.0,0.0,1.01,1.15,88.0,2537.0,3.2,3.61,,12.96,1.254,88.0,,26.7,5.0,,,,,,,,,,,,0,0,0,0,0,0,0,0,0,0,0,0,0,0,0,0,,,,,,0.0,,,,,,,,,,,,,,,
196,3291943,1745297537606,0.0656,,,,,,,,,,,,,,,,,,,,,,,,,,,,,,,,,,0,0,0,0,0,0,0,0,0,0,0,0,0,0,0,0,,,,,,,,,,,,,,,,,,,,,
197,3291963,1745297537626,0.066,0.0,-53.0,,-0.05,-0.04,1.01,2.0,0.0,0.0,1.01,1.15,88.0,2484.0,5.9,3.76,,12.96,1.254,88.0,,25.4,5.0,,,,,,,,,,,,0,0,0,0,0,0,0,0,0,0,0,0,0,0,0,0,,,,,,0.0,,,,,,,,,,,,,,,
198,3291983,1745297537646,0.0663,,,,,,,,,,,,,,,,,,,,,,,,,,,,,,,,,,0,0,0,0,0,0,0,0,0,0,0,0,0,0,0,0,,,,,,,,,,,,,,,,,,,,,
199,3292003,1745297537666,0.0667,0.0,-61.0,,-0.05,-0.04,1.01,2.0,0.0,0.0,1.01,1.15,88.0,2484.0,5.9,3.76,,13.39,1.255,88.0,,25.4,5.0,0.0,0.0,0.0,0.0,0.0,0.0,0.0,0.0,2.27,,,0,0,0,0,0,0,0,0,0,0,0,0,0,0,0,0,,0.0,,,,0.0,38.986023,-76.95002,0.19,48.2,33.0,3.0,0.8,0.0,0.0,-1.0,0.0,0.0,0.0,0.0,0.0667
200,3292023,1745297537686,0.067,,,,,,,,,,,,,,,,,,,,,,,,,,,,,,,,,,0,0,0,0,0,0,0,0,0,0,0,0,0,0,0,0,,,,,,,,,,,,,,,,,,,,,
201,3292043,1745297537708,0.0673,0.0,-68.0,,-0.05,-0.05,1.02,1.0,0.0,0.0,1.02,1.15,89.0,2527.0,6.6,3.78,,13.61,1.255,88.0,,25.8,5.0,,,,,,,,,,,,0,0,0,0,0,0,0,0,0,0,0,0,0,0,0,0,,,,,,0.0,,,,,,,,,,,,,,,
202,3292063,1745297537728,0.0676,,,,,,,,,,,,,,,,,,,,,,,,,,,,,,,,,,0,0,0,0,0,0,0,0,0,0,0,0,0,0,0,0,,,,,,,,,,,,,,,,,,,,,
203,3292083,1745297537748,0.068,0.0,-68.0,,-0.05,-0.04,0.99,2.0,0.0,0.0,0.99,1.15,86.0,2587.0,6.6,3.8,,13.67,1.254,88.0,,25.8,5.0,,,,,,,,,,,,0,0,0,0,0,0,0,0,0,0,0,0,0,0,0,0,,,,,,0.0,,,,,,,,,,,,,,,
204,3292103,1745297537768,0.0683,,,,,,,,,,,,,,,,,,,,,,,0.0,0.0,0.0,0.0,0.0,0.0,0.0,0.0,2.27,,,0,0,0,0,0,0,0,0,0,0,0,0,0,0,0,0,,0.0,,,,,38.986023,-76.95002,0.11,48.2,33.0,3.0,0.8,0.0,0.0,-1.0,0.0,,0.0,0.0,0.0683
205,3292123,1745297537788,0.0686,0.0,-57.0,,-0.06,-0.1,1.03,0.0,0.0,0.0,1.03,1.15,90.0,2618.0,6.6,3.81,,13.71,1.254,88.0,,25.8,5.0,,,,,,,,,,,,0,0,0,0,0,0,0,0,0,0,0,0,0,0,0,0,,,,,,0.0,,,,,,,,,,,,,,,
206,3292143,1745297537808,0.069,,,,,,,,,,,,,,,,,,,,,,,,,,,,,,,,,,0,0,0,0,0,0,0,0,0,0,0,0,0,0,0,0,,,,,,,,,,,,,,,,,,,,,
207,3292163,1745297537828,0.0693,0.0,-57.0,,-0.06,-0.05,0.98,1.0,0.0,0.0,0.99,1.15,86.0,2632.0,3.2,3.8,,13.71,1.254,88.0,,25.9,5.0,,,,,,,,,,,,0,0,0,0,0,0,0,0,0,0,0,0,0,0,0,0,,,,,,0.0,,,,,,,,,,,,,,,
208,3292183,1745297537848,0.0696,,,,,,,,,,,,,,,,,,,,,,,,,,,,,,,,,,0,0,0,0,0,0,0,0,0,0,0,0,0,0,0,0,,,,,,,,,,,,,,,,,,,,,
209,3292203,1745297537868,0.07,0.0,-68.0,,-0.07,-0.05,1.02,0.0,0.0,0.0,1.02,1.15,89.0,2632.0,3.2,3.8,,13.52,1.255,88.0,,25.9,5.0,0.0,0.0,0.0,0.0,0.0,0.0,0.0,0.0,2.26,,,0,0,0,0,0,0,0,0,0,0,0,0,0,0,0,0,,0.0,,,,0.0,38.986023,-76.95002,0.05,48.2,33.0,3.0,0.8,0.0,0.0,-1.0,0.0,0.0,0.0,0.0,0.07
210,3292223,1745297537888,0.0703,,,,,,,,,,,,,,,,,,,,,,,,,,,,,,,,,,0,0,0,0,0,0,0,0,0,0,0,0,0,0,0,0,,,,,,,,,,,,,,,,,,,,,
211,3292243,1745297537907,0.0706,0.0,-57.0,,-0.06,-0.03,1.01,0.0,0.0,0.0,1.01,1.15,88.0,2731.0,1.1,3.33,,13.25,1.254,88.0,,26.1,5.0,,,,,,,,,,,,0,0,0,0,0,0,0,0,0,0,0,0,0,0,0,0,,,,,,0.0,,,,,,,,,,,,,,,
212,3292263,1745297537927,0.071,,,,,,,,,,,,,,,,,,,,,,,,,,,,,,,,,,0,0,0,0,0,0,0,0,0,0,0,0,0,0,0,0,,,,,,,,,,,,,,,,,,,,,
213,3292283,1745297537947,0.0713,0.0,-64.0,,-0.07,-0.05,0.99,0.0,0.0,0.0,1.0,1.15,87.0,2694.0,0.9,3.26,,13.11,1.255,88.0,,26.1,5.0,,,,,,,,,,,,0,0,0,0,0,0,0,0,0,0,0,0,0,0,0,0,,,,,,0.0,,,,,,,,,,,,,,,
214,3292303,1745297537967,0.0716,,,,,,,,,,,,,,,,,,,,,,,0.0,0.0,0.0,0.0,0.0,0.0,0.0,0.0,2.26,,,0,0,0,0,0,0,0,0,0,0,0,0,0,0,0,0,,0.0,,,,,38.986023,-76.95002,0.05,48.2,33.0,3.0,0.8,0.0,0.0,-1.0,0.0,,0.0,0.0,0.0716
215,3292323,1745297537987,0.072,0.0,-83.0,,-0.07,-0.06,1.02,0.0,0.0,0.0,1.02,1.15,89.0,2699.0,5.8,3.76,,13.25,1.256,88.0,,26.1,5.0,,,,,,,,,,,,0,0,0,0,0,0,0,0,0,0,0,0,0,0,0,0,,,,,,0.0,,,,,,,,,,,,,,,
216,3292343,1745297538000,0.0723,,,,,,,,,,,,,,,,,,,,,,,,,,,,,,,,,,0,0,0,0,0,0,0,0,0,0,0,0,0,0,0,0,,,,,,,,,,,,,,,,,,,,,
217,3292363,1745297538020,0.0726,0.0,-53.0,,-0.07,-0.03,1.0,0.0,0.0,0.0,1.0,1.15,87.0,2644.0,13.9,3.93,,13.25,1.256,88.0,,25.9,5.0,,,,,,,,,,,,0,0,0,0,0,0,0,0,0,0,0,0,0,0,0,0,,,,,,0.0,,,,,,,,,,,,,,,
218,3292383,1745297538040,0.073,,,,,,,,,,,,,,,,,,,,,,,,,,,,,,,,,,0,0,0,0,0,0,0,0,0,0,0,0,0,0,0,0,,,,,,,,,,,,,,,,,,,,,
219,3292403,1745297538060,0.0733,0.0,-83.0,13.55,-0.07,-0.05,1.03,0.0,0.0,0.0,1.03,1.15,90.0,2644.0,13.9,3.93,15.0,13.71,1.255,88.0,153.0,25.9,5.0,0.0,0.0,0.0,0.0,0.0,0.0,0.0,0.0,2.27,0.0,1.0,0,0,0,0,0,0,0,0,0,0,0,0,0,0,0,0,0.0,0.0,1.0,0.0,0.0,0.0,38.986023,-76.95002,0.0,48.2,33.0,3.0,0.8,0.0,0.0,-1.0,0.0,0.0,0.0,0.0,0.0733
220,3292423,1745297538080,0.0736,,,,,,,,,,,,,,,,,,,,,,,,,,,,,,,,,,0,0,0,0,0,0,0,0,0,0,0,0,0,0,0,0,,,,,,,,,,,,,,,,,,,,,
221,3292443,1745297538108,0.074,0.0,-61.0,,-0.07,-0.02,0.97,1.0,0.0,0.0,0.97,1.15,85.0,2666.0,19.6,4.5,,14.03,1.255,88.0,,27.3,5.0,,,,,,,,,,,,0,0,0,0,0,0,0,0,0,0,0,0,0,0,0,0,,,,,,0.0,,,,,,,,,,,,,,,
222,3292463,1745297538128,0.0743,,,,,,,,,,,,,,,,,,,,,,,,,,,,,,,,,,0,0,0,0,0,0,0,0,0,0,0,0,0,0,0,0,,,,,,,,,,,,,,,,,,,,,
223,3292483,1745297538148,0.0746,0.0,-68.0,,-0.08,-0.02,0.96,0.0,0.0,0.0,0.96,1.15,84.0,2752.0,24.7,4.49,,14.18,1.256,88.0,,27.3,5.0,,,,,,,,,,,,0,0,0,0,0,0,0,0,0,0,0,0,0,0,0,0,,,,,,0.0,,,,,,,,,,,,,,,
224,3292503,1745297538168,0.075,,,,,,,,,,,,,,,,,,,,,,,0.0,0.0,0.0,0.0,0.0,0.0,0.0,0.0,2.26,,,0,0,0,0,0,0,0,0,0,0,0,0,0,0,0,0,,0.0,,,,,38.986023,-76.95002,0.04,48.2,33.0,3.0,0.8,0.0,0.0,-1.0,0.0,,0.0,0.0,0.075
225,3292523,1745297538188,0.0753,0.0,-64.0,,-0.1,-0.08,0.97,-2.0,0.0,0.0,0.98,1.15,85.0,2865.0,27.3,4.42,,14.24,1.255,88.0,,27.3,5.0,,,,,,,,,,,,0,0,0,0,0,0,0,0,0,0,0,0,0,0,0,0,,,,,,0.0,,,,,,,,,,,,,,,
226,3292543,1745297538205,0.0756,,,,,,,,,,,,,,,,,,,,,,,,,,,,,,,,,,0,0,0,0,0,0,0,0,0,0,0,0,0,0,0,0,,,,,,,,,,,,,,,,,,,,,
227,3292563,1745297538225,0.076,0.0,-57.0,,-0.11,-0.06,0.89,-1.0,0.0,0.0,0.9,1.15,78.0,3253.0,28.3,4.32,,14.24,1.255,88.0,,29.9,5.0,,,,,,,,,,,,0,0,0,0,0,0,0,0,0,0,0,0,0,0,0,0,,,,,,0.0,,,,,,,,,,,,,,,
228,3292583,1745297538245,0.0763,,,,,,,,,,,,,,,,,,,,,,,,,,,,,,,,,,0,0,0,0,0,0,0,0,0,0,0,0,0,0,0,0,,,,,,,,,,,,,,,,,,,,,
229,3292603,1745297538265,0.0766,0.0,-72.0,,-0.08,-0.03,0.97,-1.0,0.0,0.0,0.97,1.15,85.0,3253.0,28.3,4.32,,14.18,1.255,88.0,,29.9,5.0,0.0,0.0,0.0,0.0,0.0,0.0,0.0,0.0,2.26,,,0,0,0,0,0,0,0,0,0,0,0,0,0,0,0,0,,0.0,,,,0.0,38.986023,-76.95002,0.07,48.2,33.0,3.0,0.8,0.0,0.0,-1.0,0.0,0.0,0.0,0.0,0.0766
230,3292623,1745297538285,0.077,,,,,,,,,,,,,,,,,,,,,,,,,,,,,,,,,,0,0,0,0,0,0,0,0,0,0,0,0,0,0,0,0,,,,,,,,,,,,,,,,,,,,,
231,3292643,1745297538307,0.0773,0.0,-61.0,,-0.08,0.01,0.94,0.0,0.0,0.0,0.94,1.15,82.0,3408.0,28.2,4.35,,14.14,1.254,88.0,,35.8,5.0,,,,,,,,,,,,0,0,0,0,0,0,0,0,0,0,0,0,0,0,0,0,,,,,,0.0,,,,,,,,,,,,,,,
232,3292663,1745297538327,0.0777,,,,,,,,,,,,,,,,,,,,,,,,,,,,,,,,,,0,0,0,0,0,0,0,0,0,0,0,0,0,0,0,0,,,,,,,,,,,,,,,,,,,,,
233,3292683,1745297538347,0.078,0.0,-76.0,,-0.08,-0.02,0.97,0.0,0.0,0.0,0.98,1.15,85.0,3744.0,15.6,4.22,,13.73,1.255,88.0,,35.8,5.0,,,,,,,,,,,,0,0,0,0,0,0,0,0,0,0,0,0,0,0,0,0,,,,,,0.0,,,,,,,,,,,,,,,
234,3292703,1745297538367,0.0783,,,,,,,,,,,,,,,,,,,,,,,0.0,0.0,0.0,0.0,0.0,0.0,0.0,0.0,2.26,,,0,0,0,0,0,0,0,0,0,0,0,0,0,0,0,0,,0.0,,,,,38.986023,-76.95002,0.0,48.2,33.0,3.0,0.8,0.0,0.0,-1.0,0.0,,0.0,0.0,0.0783
235,3292723,1745297538387,0.0786,0.0,-61.0,,-0.09,-0.05,1.01,0.0,0.0,0.0,1.02,1.15,89.0,3875.0,6.3,3.85,,13.25,1.255,88.0,,35.8,5.0,,,,,,,,,,,,0,0,0,0,0,0,0,0,0,0,0,0,0,0,0,0,,,,,,0.0,,,,,,,,,,,,,,,
236,3292743,1745297538405,0.079,,,,,,,,,,,,,,,,,,,,,,,,,,,,,,,,,,0,0,0,0,0,0,0,0,0,0,0,0,0,0,0,0,,,,,,,,,,,,,,,,,,,,,
237,3292763,1745297538425,0.0793,0.0,-53.0,,-0.09,-0.11,0.96,0.0,0.0,0.0,0.97,1.15,84.0,3922.0,0.7,3.01,,13.25,1.255,88.0,,39.4,5.0,,,,,,,,,,,,0,0,0,0,0,0,0,0,0,0,0,0,0,0,0,0,,,,,,0.0,,,,,,,,,,,,,,,
238,3292783,1745297538445,0.0796,,,,,,,,,,,,,,,,,,,,,,,,,,,,,,,,,,0,0,0,0,0,0,0,0,0,0,0,0,0,0,0,0,,,,,,,,,,,,,,,,,,,,,
239,3292803,1745297538465,0.08,0.0,-64.0,,-0.09,-0.08,0.97,0.0,0.0,0.0,0.98,1.15,85.0,3922.0,0.7,3.01,,12.61,1.254,88.0,,39.4,5.0,0.0,0.0,0.0,0.0,0.0,0.0,0.0,0.0,2.27,,,0,0,0,0,0,0,0,0,0,0,0,0,0,0,0,0,,0.0,,,,0.0,38.986023,-76.95002,0.05,48.2,33.0,3.0,0.8,0.0,0.0,-1.0,0.0,0.0,0.0,0.0,0.08
240,3292823,1745297538485,0.0803,,,,,,,,,,,,,,,,,,,,,,,,,,,,,,,,,,0,0,0,0,0,0,0,0,0,0,0,0,0,0,0,0,,,,,,,,,,,,,,,,,,,,,
241,3292843,1745297538507,0.0806,0.0,-53.0,,-0.08,-0.07,0.98,1.0,0.0,0.0,0.98,1.15,86.0,3852.0,0.0,2.57,,12.16,1.256,88.0,,39.1,5.0,,,,,,,,,,,,0,0,0,0,0,0,0,0,0,0,0,0,0,0,0,0,,,,,,0.0,,,,,,,,,,,,,,,
242,3292863,1745297538527,0.081,,,,,,,,,,,,,,,,,,,,,,,,,,,,,,,,,,0,0,0,0,0,0,0,0,0,0,0,0,0,0,0,0,,,,,,,,,,,,,,,,,,,,,
243,3292883,1745297538547,0.0813,0.0,-83.0,,-0.08,-0.14,0.97,0.0,0.0,0.0,0.99,1.15,86.0,3696.0,0.0,2.61,,11.88,1.256,88.0,,39.1,5.0,,,,,,,,,,,,0,0,0,0,0,0,0,0,0,0,0,0,0,0,0,0,,,,,,0.0,,,,,,,,,,,,,,,
244,3292903,1745297538567,0.0816,,,,,,,,,,,,,,,,,,,,,,,0.0,0.0,0.0,0.0,0.0,0.0,0.0,0.0,2.26,,,0,0,0,0,0,0,0,0,0,0,0,0,0,0,0,0,,0.0,,,,,38.986023,-76.95002,0.0,48.2,33.0,3.0,0.8,0.0,0.0,-1.0,0.0,,0.0,0.0,0.0816
245,3292923,1745297538587,0.082,0.0,-57.0,,-0.07,-0.07,1.02,-1.0,0.0,0.0,1.03,1.15,90.0,3603.0,0.0,2.68,,11.81,1.255,88.0,,39.1,5.0,,,,,,,,,,,,0,0,0,0,0,0,0,0,0,0,0,0,0,0,0,0,,,,,,0.0,,,,,,,,,,,,,,,
246,3292943,1745297538605,0.0823,,,,,,,,,,,,,,,,,,,,,,,,,,,,,,,,,,0,0,0,0,0,0,0,0,0,0,0,0,0,0,0,0,,,,,,,,,,,,,,,,,,,,,
247,3292963,1745297538625,0.0826,0.0,-57.0,,-0.06,-0.01,0.97,1.0,0.0,0.0,0.97,1.15,85.0,3444.0,0.0,2.7,,11.81,1.255,88.0,,36.3,5.0,,,,,,,,,,,,0,0,0,0,0,0,0,0,0,0,0,0,0,0,0,0,,,,,,0.0,,,,,,,,,,,,,,,
248,3292983,1745297538645,0.083,,,,,,,,,,,,,,,,,,,,,,,,,,,,,,,,,,0,0,0,0,0,0,0,0,0,0,0,0,0,0,0,0,,,,,,,,,,,,,,,,,,,,,
249,3293003,1745297538665,0.0833,0.0,-76.0,,-0.09,-0.12,0.98,0.0,0.0,0.0,1.0,1.15,87.0,3444.0,0.0,2.7,,11.89,1.255,88.0,,36.3,5.0,0.0,0.0,0.0,0.0,0.0,0.0,0.0,0.0,2.27,,,0,0,0,0,0,0,0,0,0,0,0,0,0,0,0,0,,0.0,,,,0.0,38.986023,-76.95002,0.05,48.2,33.0,3.0,0.8,0.0,0.0,-1.0,0.0,0.0,0.0,0.0,0.0833
250,3293023,1745297538685,0.0836,,,,,,,,,,,,,,,,,,,,,,,,,,,,,,,,,,0,0,0,0,0,0,0,0,0,0,0,0,0,0,0,0,,,,,,,,,,,,,,,,,,,,,
251,3293043,1745297538707,0.084,0.0,-57.0,,-0.1,-0.13,1.02,0.0,0.0,0.0,1.03,1.15,90.0,3493.0,33.2,4.59,,13.75,1.255,88.0,,34.4,5.0,,,,,,,,,,,,0,0,0,0,0,0,0,0,0,0,0,0,0,0,0,0,,,,,,0.0,,,,,,,,,,,,,,,
252,3293063,1745297538727,0.0843,,,,,,,,,,,,,,,,,,,,,,,,,,,,,,,,,,0,0,0,0,0,0,0,0,0,0,0,0,0,0,0,0,,,,,,,,,,,,,,,,,,,,,
253,3293083,1745297538747,0.0846,0.0,-68.0,,-0.11,-0.13,1.02,0.0,0.0,0.0,1.03,1.15,90.0,3618.0,64.4,4.93,,14.46,1.254,88.0,,34.4,5.0,,,,,,,,,,,,0,0,0,0,0,0,0,0,0,0,0,0,0,0,0,0,,,,,,0.0,,,,,,,,,,,,,,,
254,3293103,1745297538767,0.085,,,,,,,,,,,,,,,,,,,,,,,0.0,0.0,0.0,0.0,0.0,0.0,0.0,0.0,2.27,,,0,0,0,0,0,0,0,0,0,0,0,0,0,0,0,0,,0.0,,,,,38.986023,-76.95002,0.04,48.2,33.0,3.0,0.8,0.0,0.0,-1.0,0.0,,0.0,0.0,0.085
255,3293123,1745297538787,0.0853,0.0,-53.0,,-0.1,-0.18,0.95,0.0,0.0,0.0,0.97,1.15,85.0,4006.0,75.7,4.91,,14.43,1.254,88.0,,34.4,5.0,,,,,,,,,,,,0,0,0,0,0,0,0,0,0,0,0,0,0,0,0,0,,,,,,0.0,,,,,,,,,,,,,,,
256,3293143,1745297538807,0.0856,,,,,,,,,,,,,,,,,,,,,,,,,,,,,,,,,,0,0,0,0,0,0,0,0,0,0,0,0,0,0,0,0,,,,,,,,,,,,,,,,,,,,,
257,3293163,1745297538827,0.086,0.0,-53.0,,-0.15,-0.11,1.03,-1.0,0.0,0.0,1.05,1.15,91.0,4347.0,77.3,4.69,,14.43,1.254,88.0,,41.7,5.0,,,,,,,,,,,,0,0,0,0,0,0,0,0,0,0,0,0,0,0,0,0,,,,,,0.0,,,,,,,,,,,,,,,
258,3293183,1745297538847,0.0863,,,,,,,,,,,,,,,,,,,,,,,,,,,,,,,,,,0,0,0,0,0,0,0,0,0,0,0,0,0,0,0,0,,,,,,,,,,,,,,,,,,,,,
259,3293203,1745297538867,0.0866,0.0,-64.0,,-0.18,-0.12,1.04,-1.0,0.0,1.0,1.06,1.15,92.0,4347.0,77.3,4.69,,14.4,1.255,88.0,,41.7,5.0,0.0,0.0,0.0,0.0,0.0,0.0,0.0,0.0,2.27,,,0,0,0,0,0,0,0,0,0,0,0,0,0,0,0,0,,0.0,,,,0.0,38.986023,-76.95002,0.1,48.2,33.0,3.0,0.8,0.0,0.0,-1.0,0.0,0.0,0.0,0.0,0.0866
260,3293223,1745297538887,0.087,,,,,,,,,,,,,,,,,,,,,,,,,,,,,,,,,,0,0,0,0,0,0,0,0,0,0,0,0,0,0,0,0,,,,,,,,,,,,,,,,,,,,,
261,3293243,1745297538906,0.0873,0.0,-53.0,,-0.17,-0.2,0.98,0.0,0.0,0.0,1.02,1.15,89.0,4619.0,77.3,5.19,,14.43,1.255,88.0,,50.4,5.0,,,,,,,,,,,,0,0,0,0,0,0,0,0,0,0,0,0,0,0,0,0,,,,,,0.0,,,,,,,,,,,,,,,
262,3293263,1745297538926,0.0876,,,,,,,,,,,,,,,,,,,,,,,,,,,,,,,,,,0,0,0,0,0,0,0,0,0,0,0,0,0,0,0,0,,,,,,,,,,,,,,,,,,,,,
263,3293283,1745297538946,0.088,0.0,-72.0,,-0.18,-0.17,1.01,0.0,0.0,0.0,1.04,1.15,90.0,4849.0,77.2,5.48,,14.4,1.256,88.0,,50.4,5.0,,,,,,,,,,,,0,0,0,0,0,0,0,0,0,0,0,0,0,0,0,0,,,,,,0.0,,,,,,,,,,,,,,,
264,3293303,1745297538966,0.0883,,,,,,,,,,,,,,,,,,,,,,,0.0,0.0,0.0,0.0,0.0,0.0,0.0,0.0,2.27,,,0,0,0,0,0,0,0,0,0,0,0,0,0,0,0,0,,0.0,,,,,38.986023,-76.95002,0.05,48.2,33.0,3.0,0.8,0.0,0.0,-1.0,0.0,,0.0,0.0,0.0883
265,3293323,1745297538986,0.0887,0.0,-57.0,,-0.15,-0.2,0.99,0.0,0.0,0.0,1.03,1.15,89.0,5157.0,77.3,5.65,,14.35,1.255,88.0,,50.4,5.0,,,,,,,,,,,,0,0,0,0,0,0,0,0,0,0,0,0,0,0,0,0,,,,,,0.0,,,,,,,,,,,,,,,
266,3293343,1745297538999,0.089,,,,,,,,,,,,,,,,,,,,,,,,,,,,,,,,,,0,0,0,0,0,0,0,0,0,0,0,0,0,0,0,0,,,,,,,,,,,,,,,,,,,,,
267,3293363,1745297539019,0.0893,0.0,-42.0,,-0.16,-0.13,1.05,-1.0,0.0,1.0,1.07,1.15,93.0,5755.0,77.4,5.72,,14.35,1.255,88.0,,57.9,5.0,,,,,,,,,,,,0,0,0,0,0,0,0,0,0,0,0,0,0,0,0,0,,,,,,0.0,,,,,,,,,,,,,,,
268,3293383,1745297539039,0.0896,,,,,,,,,,,,,,,,,,,,,,,,,,,,,,,,,,0,0,0,0,0,0,0,0,0,0,0,0,0,0,0,0,,,,,,,,,,,,,,,,,,,,,
269,3293403,1745297539059,0.09,0.0,-57.0,13.54,-0.16,-0.14,1.08,-1.0,0.0,0.0,1.1,1.15,96.0,5755.0,77.4,5.72,15.0,14.32,1.255,88.0,153.0,57.9,5.0,0.0,0.0,0.0,0.0,0.0,0.0,0.0,0.0,2.27,0.0,1.0,0,0,0,0,0,0,0,0,0,0,0,0,0,0,0,0,0.0,0.0,1.0,0.0,0.0,0.0,38.986023,-76.95002,0.04,48.2,33.0,3.0,0.8,0.0,0.0,-1.0,0.0,0.0,0.0,0.0,0.09
270,3293423,1745297539079,0.0903,,,,,,,,,,,,,,,,,,,,,,,,,,,,,,,,,,0,0,0,0,0,0,0,0,0,0,0,0,0,0,0,0,,,,,,,,,,,,,,,,,,,,,
271,3293443,1745297539106,0.0906,0.0,-49.0,,-0.13,-0.15,1.06,0.0,0.0,0.0,1.08,1.15,94.0,6451.0,77.4,5.8,,14.35,1.254,88.0,,60.9,5.0,,,,,,,,,,,,0,0,0,0,0,0,0,0,0,0,0,0,0,0,0,0,,,,,,0.0,,,,,,,,,,,,,,,
272,3293463,1745297539126,0.091,,,,,,,,,,,,,,,,,,,,,,,,,,,,,,,,,,0,0,0,0,0,0,0,0,0,0,0,0,0,0,0,0,,,,,,,,,,,,,,,,,,,,,
273,3293483,1745297539146,0.0913,0.0,-57.0,,-0.13,-0.18,1.05,-1.0,0.0,0.0,1.08,1.15,94.0,7516.0,86.2,6.17,,14.32,1.237,88.0,,60.9,5.0,,,,,,,,,,,,0,0,0,0,0,0,0,0,0,0,0,0,0,0,0,0,,,,,,0.0,,,,,,,,,,,,,,,
274,3293503,1745297539166,0.0916,,,,,,,,,,,,,,,,,,,,,,,0.0,0.0,0.0,0.0,0.0,0.0,0.0,0.0,2.26,,,0,0,0,0,0,0,0,0,0,0,0,0,0,0,0,0,,0.0,,,,,38.986023,-76.95002,0.07,48.2,33.0,3.0,0.8,0.0,0.0,-1.0,0.0,,0.0,0.0,0.0916
275,3293523,1745297539186,0.092,0.0,-53.0,,-0.13,-0.14,0.98,0.0,0.0,0.0,1.0,1.15,87.0,9562.0,93.6,6.15,,13.92,1.057,88.0,,60.9,5.0,,,,,,,,,,,,0,0,0,0,0,0,0,0,0,0,0,0,0,0,0,0,,,,,,0.0,,,,,,,,,,,,,,,
276,3293543,1745297539208,0.0923,,,,,,,,,,,,,,,,,,,,,,,,,,,,,,,,,,0,0,0,0,0,0,0,0,0,0,0,0,0,0,0,0,,,,,,,,,,,,,,,,,,,,,
277,3293563,1745297539228,0.0926,0.0,-8.0,,-0.16,-0.19,0.93,1.0,0.0,0.0,0.97,1.15,84.0,11383.0,99.5,5.7,,13.92,1.057,88.0,,65.9,5.0,,,,,,,,,,,,0,0,0,0,0,0,0,0,0,0,0,0,0,0,0,0,,,,,,0.0,,,,,,,,,,,,,,,
278,3293583,1745297539248,0.093,,,,,,,,,,,,,,,,,,,,,,,,,,,,,,,,,,0,0,0,0,0,0,0,0,0,0,0,0,0,0,0,0,,,,,,,,,,,,,,,,,,,,,
279,3293603,1745297539268,0.0933,0.0,-38.0,,-0.14,-0.26,0.98,1.0,0.0,0.0,1.03,1.15,90.0,11383.0,99.5,5.7,,13.71,0.921,88.0,,65.9,5.0,0.0,0.0,0.0,0.0,0.0,0.0,0.0,0.0,2.26,,,0,0,0,0,0,0,0,0,0,0,0,0,0,0,0,0,,0.0,,,,0.0,38.986023,-76.95002,0.04,48.2,33.0,3.0,0.8,0.0,0.0,-1.0,0.0,0.0,0.0,0.0,0.0933
280,3293623,1745297539288,0.0936,,,,,,,,,,,,,,,,,,,,,,,,,,,,,,,,,,0,0,0,0,0,0,0,0,0,0,0,0,0,0,0,0,,,,,,,,,,,,,,,,,,,,,
281,3293643,1745297539308,0.094,0.0,-27.0,,-0.11,-0.32,1.05,3.0,0.0,0.0,1.1,1.15,96.0,13239.0,99.4,4.76,,13.36,0.865,88.0,,69.4,5.0,,,,,,,,,,,,0,0,0,0,0,0,0,0,0,0,0,0,0,0,0,0,,,,,,0.0,,,,,,,,,,,,,,,
282,3293663,1745297539328,0.0943,,,,,,,,,,,,,,,,,,,,,,,,,,,,,,,,,,0,0,0,0,0,0,0,0,0,0,0,0,0,0,0,0,,,,,,,,,,,,,,,,,,,,,
283,3293683,1745297539348,0.0946,0.0,-72.0,,-0.14,-0.15,0.94,2.0,0.0,0.0,0.96,1.15,84.0,13833.0,99.4,4.75,,13.44,0.865,88.0,,69.4,5.0,,,,,,,,,,,,0,0,0,0,0,0,0,0,0,0,0,0,0,0,0,0,,,,,,0.0,,,,,,,,,,,,,,,
284,3293703,1745297539368,0.095,,,,,,,,,,,,,,,,,,,,,,,0.0,0.0,0.0,0.0,0.0,0.0,0.0,0.0,2.26,,,0,0,0,0,0,0,0,0,0,0,0,0,0,0,0,0,,0.0,,,,,38.986023,-76.95002,0.04,48.2,33.0,3.0,0.8,0.0,0.0,-1.0,0.0,,0.0,0.0,0.095
285,3293723,1745297539388,0.0953,0.0,-31.0,,-0.14,-0.0,1.0,3.0,0.0,-1.0,1.01,1.15,88.0,13035.0,99.5,4.73,,13.65,1.095,88.0,,69.4,5.0,,,,,,,,,,,,0,0,0,0,0,0,0,0,0,0,0,0,0,0,0,0,,,,,,0.0,,,,,,,,,,,,,,,
286,3293743,1745297539408,0.0956,,,,,,,,,,,,,,,,,,,,,,,,,,,,,,,,,,0,0,0,0,0,0,0,0,0,0,0,0,0,0,0,0,,,,,,,,,,,,,,,,,,,,,
287,3293763,1745297539428,0.096,0.0,3.0,,-0.19,-0.17,0.95,4.0,-1.0,-2.0,0.98,1.15,86.0,13957.0,99.4,4.67,,13.65,1.095,88.0,,78.6,5.0,,,,,,,,,,,,0,0,0,0,0,0,0,0,0,0,0,0,0,0,0,0,,,,,,0.0,,,,,,,,,,,,,,,
288,3293783,1745297539448,0.0963,,,,,,,,,,,,,,,,,,,,,,,,,,,,,,,,,,0,0,0,0,0,0,0,0,0,0,0,0,0,0,0,0,,,,,,,,,,,,,,,,,,,,,
289,3293803,1745297539468,0.0966,0.0,-31.0,,-0.17,0.08,0.9,2.0,-1.0,-2.0,0.92,1.15,80.0,13957.0,99.4,4.67,,13.08,1.254,88.0,,78.6,5.0,0.0,0.0,0.0,0.0,0.0,0.0,0.0,0.0,2.26,,,0,0,0,0,0,0,0,0,0,0,0,0,0,0,0,0,,0.0,,,,0.0,38.986023,-76.95002,0.0,48.2,33.0,3.0,0.8,0.0,0.0,-1.0,0.0,0.0,0.0,0.0,0.0966
290,3293823,1745297539488,0.097,,,,,,,,,,,,,,,,,,,,,,,,,,,,,,,,,,0,0,0,0,0,0,0,0,0,0,0,0,0,0,0,0,,,,,,,,,,,,,,,,,,,,,
291,3293843,1745297539508,0.0973,0.0,-27.0,,-0.18,0.05,0.89,3.0,-1.0,-2.0,0.91,1.15,79.0,13200.0,99.5,4.68,,13.36,1.238,88.0,,81.7,5.0,,,,,,,,,,,,0,0,0,0,0,0,0,0,0,0,0,0,0,0,0,0,,,,,,0.0,,,,,,,,,,,,,,,
292,3293863,1745297539528,0.0976,,,,,,,,,,,,,,,,,,,,,,,,,,,,,,,,,,0,0,0,0,0,0,0,0,0,0,0,0,0,0,0,0,,,,,,,,,,,,,,,,,,,,,
293,3293883,1745297539548,0.098,0.0,-31.0,,-0.17,-0.09,0.92,5.0,-1.0,-1.0,0.94,1.15,82.0,13513.0,99.4,4.65,,13.31,1.254,88.0,,81.7,5.0,,,,,,,,,,,,0,0,0,0,0,0,0,0,0,0,0,0,0,0,0,0,,,,,,0.0,,,,,,,,,,,,,,,
294,3293903,1745297539568,0.0983,,,,,,,,,,,,,,,,,,,,,,,0.0,0.0,0.0,0.0,0.0,0.0,0.0,0.0,2.26,,,0,0,0,0,0,0,0,0,0,0,0,0,0,0,0,0,,0.0,,,,,38.986023,-76.95002,0.0,48.2,33.0,3.0,0.8,0.0,0.0,-1.0,0.0,,0.0,0.0,0.0983
295,3293923,1745297539588,0.0986,0.0,-38.0,,-0.17,0.01,0.91,6.0,-1.0,-2.0,0.93,1.15,81.0,13603.0,99.5,4.57,,13.35,1.256,88.0,,81.7,5.0,,,,,,,,,,,,0,0,0,0,0,0,0,0,0,0,0,0,0,0,0,0,,,,,,0.0,,,,,,,,,,,,,,,
296,3293943,1745297539608,0.099,,,,,,,,,,,,,,,,,,,,,,,,,,,,,,,,,,0,0,0,0,0,0,0,0,0,0,0,0,0,0,0,0,,,,,,,,,,,,,,,,,,,,,
297,3293963,1745297539628,0.0993,0.0,0.0,,-0.05,-0.01,0.94,5.0,0.0,-2.0,0.94,1.15,82.0,12417.0,99.4,5.03,,13.35,1.256,88.0,,81.4,5.0,,,,,,,,,,,,0,0,0,0,0,0,0,0,0,0,0,0,0,0,0,0,,,,,,0.0,,,,,,,,,,,,,,,
298,3293983,1745297539648,0.0996,,,,,,,,,,,,,,,,,,,,,,,,,,,,,,,,,,0,0,0,0,0,0,0,0,0,0,0,0,0,0,0,0,,,,,,,,,,,,,,,,,,,,,
299,3294003,1745297539668,0.1,0.0,-15.0,,0.07,-0.15,0.9,6.0,0.0,-2.0,0.91,1.15,80.0,12417.0,99.4,5.03,,13.47,1.248,88.0,,81.4,5.0,0.0,0.0,0.0,0.0,0.0,0.0,0.0,0.0,2.25,,,0,0,0,0,0,0,0,0,0,0,0,0,0,0,0,0,,0.0,,,,0.0,38.986023,-76.95002,0.0,48.2,33.0,3.0,0.8,0.0,0.0,-1.0,0.0,0.0,0.0,0.0,0.1
300,3294023,1745297539688,0.1003,,,,,,,,,,,,,,,,,,,,,,,,,,,,,,,,,,0,0,0,0,0,0,0,0,0,0,0,0,0,0,0,0,,,,,,,,,,,,,,,,,,,,,
301,3294043,1745297539708,0.1006,0.0,-8.0,,0.13,-0.42,0.92,5.0,0.0,-2.0,1.02,1.15,89.0,11882.0,99.6,5.22,,13.59,1.252,88.0,,74.7,5.0,,,,,,,,,,,,0,0,0,0,0,0,0,0,0,0,0,0,0,0,0,0,,,,,,0.0,,,,,,,,,,,,,,,
302,3294063,1745297539728,0.101,,,,,,,,,,,,,,,,,,,,,,,,,,,,,,,,,,0,0,0,0,0,0,0,0,0,0,0,0,0,0,0,0,,,,,,,,,,,,,,,,,,,,,
303,3294083,1745297539748,0.1013,0.0,-23.0,,0.16,-0.3,0.89,2.0,0.0,-2.0,0.95,1.15,83.0,11715.0,99.5,5.3,,13.68,1.25,88.0,,74.7,5.0,,,,,,,,,,,,0,0,0,0,0,0,0,0,0,0,0,0,0,0,0,0,,,,,,0.0,,,,,,,,,,,,,,,
304,3294103,1745297539768,0.1016,,,,,,,,,,,,,,,,,,,,,,,0.0,0.0,0.0,0.0,0.0,0.0,0.0,0.0,2.26,,,0,0,0,0,0,0,0,0,0,0,0,0,0,0,0,0,,0.0,,,,,38.986023,-76.95002,0.94,48.2,33.0,3.0,0.8,0.0,0.0,-1.0,0.0,,0.0,0.0,0.1016
305,3294123,1745297539788,0.102,0.0,-12.0,,0.18,-0.22,0.95,3.0,0.0,-2.0,0.99,1.15,86.0,11360.0,99.6,5.42,,13.76,1.123,88.0,,74.7,5.0,,,,,,,,,,,,0,0,0,0,0,0,0,0,0,0,0,0,0,0,0,0,,,,,,0.0,,,,,,,,,,,,,,,
306,3294143,1745297539806,0.1023,,,,,,,,,,,,,,,,,,,,,,,,,,,,,,,,,,0,0,0,0,0,0,0,0,0,0,0,0,0,0,0,0,,,,,,,,,,,,,,,,,,,,,
307,3294163,1745297539826,0.1026,0.0,-12.0,,0.19,-0.36,1.02,2.0,0.0,-2.0,1.1,1.15,96.0,11127.0,99.5,5.53,,13.76,1.123,88.0,,70.7,5.0,,,,,,,,,,,,0,0,0,0,0,0,0,0,0,0,0,0,0,0,0,0,,,,,,0.0,,,,,,,,,,,,,,,
308,3294183,1745297539846,0.103,,,,,,,,,,,,,,,,,,,,,,,,,,,,,,,,,,0,0,0,0,0,0,0,0,0,0,0,0,0,0,0,0,,,,,,,,,,,,,,,,,,,,,
309,3294203,1745297539866,0.1033,0.0,-12.0,,0.25,-0.21,1.01,4.0,0.0,-2.0,1.06,1.15,92.0,11127.0,99.5,5.53,,13.69,1.088,88.0,,70.7,5.0,3.0,0.0,25.0,22.0,0.0,0.0,0.0,0.0,2.26,,,0,0,0,0,0,0,0,0,0,0,0,0,0,0,0,0,,0.0,,,,0.0,38.986023,-76.95002,3.52,48.2,33.0,3.0,0.8,0.0,0.0,-1.0,0.0,0.0,0.0,0.0,0.1033
310,3294223,1745297539886,0.1036,,,,,,,,,,,,,,,,,,,,,,,,,,,,,,,,,,0,0,0,0,0,0,0,0,0,0,0,0,0,0,0,0,,,,,,,,,,,,,,,,,,,,,
311,3294243,1745297539908,0.104,0.0,-12.0,,0.26,-0.19,0.89,2.0,0.0,-1.0,0.95,1.15,83.0,11207.0,99.6,5.49,,13.92,1.024,88.0,,70.5,5.0,,,,,,,,,,,,0,0,0,0,0,0,0,0,0,0,0,0,0,0,0,0,,,,,,0.0,,,,,,,,,,,,,,,
312,3294263,1745297539928,0.1043,,,,,,,,,,,,,,,,,,,,,,,,,,,,,,,,,,0,0,0,0,0,0,0,0,0,0,0,0,0,0,0,0,,,,,,,,,,,,,,,,,,,,,
313,3294283,1745297539948,0.1046,0.0,-8.0,,0.29,-0.16,0.84,2.0,0.0,-1.0,0.91,1.15,79.0,11820.0,99.6,5.28,,13.68,0.994,88.0,,70.5,5.0,,,,,,,,,,,,0,0,0,0,0,0,0,0,0,0,0,0,0,0,0,0,,,,,,0.0,,,,,,,,,,,,,,,
314,3294303,1745297539968,0.105,,,,,,,,,,,,,,,,,,,,,,,4.0,0.0,38.0,36.0,0.0,0.0,0.0,0.0,2.26,,,0,0,0,0,0,0,0,0,0,0,0,0,0,0,0,0,,1.0,,,,,38.986027,-76.95002,6.94,48.2,33.0,3.0,0.8,0.0,0.0,-1.0,0.0,,0.0,0.0001,0.105
315,3294323,1745297539988,0.1053,0.0,-19.0,,0.3,-0.21,0.87,2.0,0.0,-1.0,0.94,1.15,82.0,12393.0,99.5,5.08,,13.69,0.99,88.0,,70.5,5.0,,,,,,,,,,,,0,0,0,0,0,0,0,0,0,0,0,0,0,0,0,0,,,,,,0.0,,,,,,,,,,,,,,,
316,3294343,1745297539998,0.1056,,,,,,,,,,,,,,,,,,,,,,,,,,,,,,,,,,0,0,0,0,0,0,0,0,0,0,0,0,0,0,0,0,,,,,,,,,,,,,,,,,,,,,
317,3294363,1745297540018,0.106,0.0,-8.0,,0.34,-0.23,0.88,2.0,0.0,-1.0,0.97,1.15,85.0,12733.0,99.6,4.86,,13.69,0.99,88.0,,76.1,5.0,,,,,,,,,,,,0,0,0,0,0,0,0,0,0,0,0,0,0,0,0,0,,,,,,0.0,,,,,,,,,,,,,,,
318,3294383,1745297540038,0.1063,,,,,,,,,,,,,,,,,,,,,,,,,,,,,,,,,,0,0,0,0,0,0,0,0,0,0,0,0,0,0,0,0,,,,,,,,,,,,,,,,,,,,,
319,3294403,1745297540058,0.1066,0.0,0.0,13.52,0.33,-0.23,0.89,2.0,0.0,0.0,0.98,1.15,85.0,12733.0,99.6,4.86,15.0,13.48,0.998,88.0,153.0,76.1,5.0,6.0,0.0,37.0,36.0,0.0,0.0,0.0,0.0,2.27,0.0,1.0,0,0,0,0,0,0,0,0,0,0,0,0,0,0,0,0,0.0,0.0,1.0,0.0,0.0,0.0,38.986027,-76.95002,8.58,48.2,33.0,3.0,0.8,0.0,0.0,-1.0,0.0,0.0,0.0,0.0003,0.1066
320,3294423,1745297540078,0.107,,,,,,,,,,,,,,,,,,,,,,,,,,,,,,,,,,0,0,0,0,0,0,0,0,0,0,0,0,0,0,0,0,,,,,,,,,,,,,,,,,,,,,
321,3294443,1745297540106,0.1073,0.0,-8.0,,0.36,-0.19,0.88,3.0,0.0,0.0,0.97,1.15,84.0,13058.0,99.5,4.74,,13.29,1.02,88.0,,76.7,5.0,,,,,,,,,,,,0,0,0,0,0,0,0,0,0,0,0,0,0,0,0,0,,,,,,0.0,,,,,,,,,,,,,,,
322,3294463,1745297540126,0.1076,,,,,,,,,,,,,,,,,,,,,,,,,,,,,,,,,,0,0,0,0,0,0,0,0,0,0,0,0,0,0,0,0,,,,,,,,,,,,,,,,,,,,,
323,3294483,1745297540146,0.108,0.0,-4.0,,0.36,-0.11,0.86,0.0,0.0,1.0,0.94,1.15,82.0,13270.0,99.6,4.67,,13.4,1.009,86.2,,76.7,5.0,,,,,,,,,,,,0,0,0,0,0,0,0,0,0,0,0,0,0,0,0,0,,,,,,0.0,,,,,,,,,,,,,,,
324,3294503,1745297540166,0.1083,,,,,,,,,,,,,,,,,,,,,,,7.0,0.0,39.0,40.0,0.0,0.0,0.0,0.0,2.27,,,0,0,0,0,0,0,0,0,0,0,0,0,0,0,0,0,,1.0,,,,,38.986027,-76.950027,10.38,48.2,33.0,3.0,0.8,0.0,0.0,-1.0,0.0,,0.0,0.0004,0.1083
325,3294523,1745297540186,0.1086,0.0,0.0,,0.36,-0.07,0.86,-1.0,0.0,1.0,0.94,1.15,82.0,13497.0,99.5,4.61,,13.43,1.031,86.2,,76.7,5.0,,,,,,,,,,,,0,0,0,0,0,0,0,0,0,0,0,0,0,0,0,0,,,,,,0.0,,,,,,,,,,,,,,,
326,3294543,1745297540203,0.109,,,,,,,,,,,,,,,,,,,,,,,,,,,,,,,,,,0,0,0,0,0,0,0,0,0,0,0,0,0,0,0,0,,,,,,,,,,,,,,,,,,,,,
327,3294563,1745297540223,0.1093,0.0,3.0,,0.37,-0.0,0.86,-1.0,0.0,1.0,0.93,1.15,81.0,13546.0,99.7,4.59,,13.43,1.031,86.2,,78.7,5.0,,,,,,,,,,,,0,0,0,0,0,0,0,0,0,0,0,0,0,0,0,0,,,,,,0.0,,,,,,,,,,,,,,,
328,3294583,1745297540243,0.1096,,,,,,,,,,,,,,,,,,,,,,,,,,,,,,,,,,0,0,0,0,0,0,0,0,0,0,0,0,0,0,0,0,,,,,,,,,,,,,,,,,,,,,
329,3294603,1745297540263,0.11,0.0,3.0,,0.36,-0.02,0.86,-1.0,0.0,1.0,0.93,1.15,82.0,13546.0,99.7,4.59,,13.17,1.029,86.2,,78.7,5.0,8.0,0.0,41.0,40.0,0.0,183.0,0.0,0.0,2.26,,,0,0,0,0,0,0,0,0,0,0,0,0,0,0,0,0,,1.0,,,,0.0,38.986031,-76.950027,12.44,48.2,33.0,3.0,0.8,0.0,0.0,-1.0,0.0,0.0,0.0,0.0007,0.11
330,3294623,1745297540283,0.1103,,,,,,,,,,,,,,,,,,,,,,,,,,,,,,,,,,0,0,0,0,0,0,0,0,0,0,0,0,0,0,0,0,,,,,,,,,,,,,,,,,,,,,
331,3294643,1745297540307,0.1106,0.0,5.0,,0.4,0.12,0.85,-2.0,0.0,2.0,0.95,1.15,82.0,13690.0,99.4,4.58,,13.07,1.026,86.2,,79.5,5.0,,,,,,,,,,,,0,0,0,0,0,0,0,0,0,0,0,0,0,0,0,0,,,,,,0.0,,,,,,,,,,,,,,,
332,3294663,1745297540327,0.111,,,,,,,,,,,,,,,,,,,,,,,,,,,,,,,,,,0,0,0,0,0,0,0,0,0,0,0,0,0,0,0,0,,,,,,,,,,,,,,,,,,,,,
333,3294683,1745297540347,0.1113,0.0,3.0,,0.47,0.05,0.93,1.0,0.0,1.0,1.05,1.15,91.0,13732.0,99.6,4.56,,13.23,1.014,86.2,,79.5,5.0,,,,,,,,,,,,0,0,0,0,0,0,0,0,0,0,0,0,0,0,0,0,,,,,,0.0,,,,,,,,,,,,,,,
