,Interval,Utc,FrontBP,SteerAng,Battery,AccelX,AccelY,AccelZ,Yaw,Pitch,Roll,Gsum,GsumMax,GsumPct,RPM,TPS,InjectorPW,Baro,MAP,Lambda,IAT,EngineTemp,EOP,EOT,WSFR,WSFL,WSRR,WSRL,TCSet,TCSlip,TCComp,TCCut,Analog8,OilTemp,AA_On,ThermLF1,ThermLF2,ThermRR1,ThermRR2,ThermLF3,ThermLF4,ThermLF5,ThermLF6,ThermLF7,ThermLF8,ThermRR3,ThermRR4,ThermRR5,ThermRR6,ThermRR7,ThermRR8,AA_LowDrag,Gear,AA_On1,AA_LowDrag1,Fuel_Mix,AA_Packages,Latitude,Longitude,Speed,Altitude,GPSSats,GPSQual,GPSDOP
0,3322301,1746078099945,0.0,127.0,,-0.07,-0.15,1.06,3.0,-1.0,3.0,1.07,1.07,100.0,10613.0,3.4,1.76,,7.58,0.95,91.6,,56.1,5.0,,,,,,,,,,,,0,0,0,0,0,0,0,0,0,0,0,0,0,0,0,0,,,,,,0.0,,,,,,,
1,3322321,1746078099965,,,,,,,,,,,,,,,,,,,,,,,,,,,,,,,,,,0,0,0,0,0,0,0,0,0,0,0,0,0,0,0,0,,,,,,,,,,,,,
2,3322341,1746078099985,0.0,126.0,,-0.08,-0.17,0.95,2.0,-1.0,2.0,0.97,1.07,91.0,10423.0,19.2,2.59,,7.58,0.95,91.6,,56.1,5.0,,,,,,,,,,,,0,0,0,0,0,0,0,0,0,0,0,0,0,0,0,0,,,,,,0.0,,,,,,,
3,3322361,1746078099999,,,,,,,,,,,,,,,,,,,,,,,,,,,,,,,,,,0,0,0,0,0,0,0,0,0,0,0,0,0,0,0,0,,,,,,,,,,,,,
4,3322381,1746078100019,0.0,127.0,13.04,-0.07,-0.14,0.92,0.0,0.0,1.0,0.93,1.07,87.0,10194.0,52.1,3.49,15.0,7.58,0.95,91.6,210.0,56.0,5.0,0.0,0.0,0.0,0.0,0.0,0.0,0.0,0.0,2.24,0.0,0.0,0,0,0,0,0,0,0,0,0,0,0,0,0,0,0,0,0.0,0.0,0.0,0.0,0.0,0.0,38.994354,-76.939865,0.05,28.0,32.0,3.0,0.8
5,3322401,1746078100039,,,,,,,,,,,,,,,,,,,,,,,,,,,,,,,,,,0,0,0,0,0,0,0,0,0,0,0,0,0,0,0,0,,,,,,,,,,,,,
6,3322421,1746078100059,0.0,127.0,,-0.08,-0.19,1.06,0.0,-1.0,0.0,1.08,1.08,100.0,10194.0,52.1,3.49,,10.44,0.954,91.6,,56.0,5.0,,,,,,,,,,,,0,0,0,0,0,0,0,0,0,0,0,0,0,0,0,0,,,,,,0.0,,,,,,,
7,3322441,1746078100079,,,,,,,,,,,,,,,,,,,,,,,,,,,,,,,,,,0,0,0,0,0,0,0,0,0,0,0,0,0,0,0,0,,,,,,,,,,,,,
8,3322461,1746078100105,0.0,128.0,,-0.07,-0.16,1.05,-1.0,-1.0,1.0,1.07,1.08,98.0,10015.0,61.2,5.49,,12.45,0.953,91.6,,54.1,5.0,,,,,,,,,,,,0,0,0,0,0,0,0,0,0,0,0,0,0,0,0,0,,,,,,0.0,,,,,,,
9,3322481,1746078100125,,,,,,,,,,,,,,,,,,,,,,,0.0,0.0,0.0,0.0,0.0,0.0,0.0,0.0,2.24,,,0,0,0,0,0,0,0,0,0,0,0,0,0,0,0,0,,0.0,,,,,38.994354,-76.939865,0.04,28.0,32.0,3.0,0.8
10,3322501,1746078100145,0.0,127.0,,-0.07,-0.11,1.04,-2.0,-1.0,0.0,1.05,1.08,97.0,10378.0,42.3,4.95,,12.44,0.954,91.6,,54.1,5.0,,,,,,,,,,,,0,0,0,0,0,0,0,0,0,0,0,0,0,0,0,0,,,,,,0.0,,,,,,,
11,3322521,1746078100165,,,,,,,,,,,,,,,,,,,,,,,,,,,,,,,,,,0,0,0,0,0,0,0,0,0,0,0,0,0,0,0,0,,,,,,,,,,,,,
12,3322541,1746078100185,0.0,126.0,,-0.09,-0.26,1.0,-1.0,-1.0,0.0,1.04,1.08,96.0,10608.0,12.5,4.59,,10.04,0.954,91.6,,54.1,5.0,,,,,,,,,,,,0,0,0,0,0,0,0,0,0,0,0,0,0,0,0,0,,,,,,0.0,,,,,,,
13,3322561,1746078100205,,,,,,,,,,,,,,,,,,,,,,,,,,,,,,,,,,0,0,0,0,0,0,0,0,0,0,0,0,0,0,0,0,,,,,,,,,,,,,
14,3322581,1746078100225,0.0,127.0,,-0.08,-0.42,1.09,0.0,0.0,-1.0,1.17,1.17,100.0,10568.0,6.2,2.23,,10.04,0.954,91.6,,53.8,5.0,0.0,0.0,0.0,0.0,0.0,0.0,0.0,0.0,2.24,,,0,0,0,0,0,0,0,0,0,0,0,0,0,0,0,0,,0.0,,,,0.0,38.994354,-76.939865,0.04,28.0,32.0,3.0,0.8
15,3322601,1746078100245,,,,,,,,,,,,,,,,,,,,,,,,,,,,,,,,,,0,0,0,0,0,0,0,0,0,0,0,0,0,0,0,0,,,,,,,,,,,,,
16,3322621,1746078100265,0.0,127.0,,-0.08,-0.35,1.01,0.0,-1.0,-1.0,1.07,1.17,91.0,10568.0,6.2,2.23,,8.17,0.954,91.6,,53.8,5.0,,,,,,,,,,,,0,0,0,0,0,0,0,0,0,0,0,0,0,0,0,0,,,,,,0.0,,,,,,,
17,3322641,1746078100285,,,,,,,,,,,,,,,,,,,,,,,,,,,,,,,,,,0,0,0,0,0,0,0,0,0,0,0,0,0,0,0,0,,,,,,,,,,,,,
18,3322661,1746078100305,0.0,127.0,,-0.08,-0.47,0.97,-1.0,0.0,-2.0,1.08,1.17,92.0,10744.0,2.1,1.4,,6.76,0.955,91.6,,54.6,5.0,,,,,,,,,,,,0,0,0,0,0,0,0,0,0,0,0,0,0,0,0,0,,,,,,0.0,,,,,,,
19,3322681,1746078100325,,,,,,,,,,,,,,,,,,,,,,,0.0,0.0,0.0,0.0,0.0,0.0,0.0,0.0,2.25,,,0,0,0,0,0,0,0,0,0,0,0,0,0,0,0,0,,0.0,,,,,38.994354,-76.939865,0.04,28.0,32.0,3.0,0.8
20,3322701,1746078100345,0.0,127.0,,-0.09,-0.43,0.9,-1.0,-1.0,-1.0,1.0,1.17,85.0,10114.0,1.1,1.4,,5.88,0.952,91.6,,54.6,5.0,,,,,,,,,,,,0,0,0,0,0,0,0,0,0,0,0,0,0,0,0,0,,,,,,0.0,,,,,,,
21,3322721,1746078100365,,,,,,,,,,,,,,,,,,,,,,,,,,,,,,,,,,0,0,0,0,0,0,0,0,0,0,0,0,0,0,0,0,,,,,,,,,,,,,
22,3322741,1746078100385,0.0,126.0,,-0.09,-0.36,0.9,0.0,-1.0,-1.0,0.97,1.17,83.0,9426.0,18.4,2.42,,6.67,0.955,91.6,,54.6,5.0,,,,,,,,,,,,0,0,0,0,0,0,0,0,0,0,0,0,0,0,0,0,,,,,,0.0,,,,,,,
23,3322761,1746078100407,,,,,,,,,,,,,,,,,,,,,,,,,,,,,,,,,,0,0,0,0,0,0,0,0,0,0,0,0,0,0,0,0,,,,,,,,,,,,,
24,3322781,1746078100427,0.0,127.0,,-0.1,-0.58,0.96,0.0,-1.0,-1.0,1.13,1.17,96.0,9113.0,41.2,3.35,,6.67,0.955,91.6,,54.3,5.0,0.0,0.0,0.0,0.0,0.0,0.0,0.0,0.0,2.25,,,0,0,0,0,0,0,0,0,0,0,0,0,0,0,0,0,,0.0,,,,0.0,38.994354,-76.939865,0.04,28.0,32.0,3.0,0.8
25,3322801,1746078100447,,,,,,,,,,,,,,,,,,,,,,,,,,,,,,,,,,0,0,0,0,0,0,0,0,0,0,0,0,0,0,0,0,,,,,,,,,,,,,
26,3322821,1746078100467,0.0,127.0,,-0.12,-0.56,0.97,0.0,-1.0,-2.0,1.13,1.17,96.0,9113.0,41.2,3.35,,9.62,0.954,91.6,,54.3,5.0,,,,,,,,,,,,0,0,0,0,0,0,0,0,0,0,0,0,0,0,0,0,,,,,,0.0,,,,,,,
27,3322841,1746078100487,,,,,,,,,,,,,,,,,,,,,,,,,,,,,,,,,,0,0,0,0,0,0,0,0,0,0,0,0,0,0,0,0,,,,,,,,,,,,,
28,3322861,1746078100507,0.0,127.0,,-0.11,-0.47,0.98,1.0,-1.0,-1.0,1.09,1.17,93.0,9351.0,43.1,4.87,,11.42,0.954,91.6,,53.3,5.0,,,,,,,,,,,,0,0,0,0,0,0,0,0,0,0,0,0,0,0,0,0,,,,,,0.0,,,,,,,
29,3322881,1746078100527,,,,,,,,,,,,,,,,,,,,,,,0.0,0.0,0.0,0.0,0.0,0.0,0.0,0.0,2.24,,,0,0,0,0,0,0,0,0,0,0,0,0,0,0,0,0,,0.0,,,,,38.994354,-76.939865,0.0,28.0,32.0,3.0,0.8
30,3322901,1746078100547,0.0,127.0,,-0.1,-0.48,0.95,1.0,-1.0,-1.0,1.07,1.17,91.0,10208.0,36.2,5.02,,11.41,0.955,91.6,,53.3,5.0,,,,,,,,,,,,0,0,0,0,0,0,0,0,0,0,0,0,0,0,0,0,,,,,,0.0,,,,,,,
31,3322921,1746078100567,,,,,,,,,,,,,,,,,,,,,,,,,,,,,,,,,,0,0,0,0,0,0,0,0,0,0,0,0,0,0,0,0,,,,,,,,,,,,,
32,3322941,1746078100587,0.0,126.0,,-0.09,-0.27,0.98,1.0,0.0,-1.0,1.02,1.17,87.0,11312.0,12.0,3.09,,9.3,0.955,91.6,,53.3,5.0,,,,,,,,,,,,0,0,0,0,0,0,0,0,0,0,0,0,0,0,0,0,,,,,,0.0,,,,,,,
33,3322961,1746078100607,,,,,,,,,,,,,,,,,,,,,,,,,,,,,,,,,,0,0,0,0,0,0,0,0,0,0,0,0,0,0,0,0,,,,,,,,,,,,,
34,3322981,1746078100627,0.0,126.0,,-0.06,-0.23,1.03,1.0,0.0,0.0,1.05,1.17,90.0,11600.0,5.8,2.1,,9.3,0.955,91.6,,48.7,5.0,0.0,0.0,0.0,0.0,0.0,0.0,0.0,0.0,2.24,,,0,0,0,0,0,0,0,0,0,0,0,0,0,0,0,0,,0.0,,,,0.0,38.994354,-76.939865,0.07,28.0,32.0,3.0,0.8
35,3323001,1746078100647,,,,,,,,,,,,,,,,,,,,,,,,,,,,,,,,,,0,0,0,0,0,0,0,0,0,0,0,0,0,0,0,0,,,,,,,,,,,,,
36,3323021,1746078100667,0.0,125.0,,-0.07,-0.17,0.97,1.0,-1.0,1.0,0.99,1.17,84.0,11600.0,5.8,2.1,,7.34,0.951,91.6,,48.7,5.0,,,,,,,,,,,,0,0,0,0,0,0,0,0,0,0,0,0,0,0,0,0,,,,,,0.0,,,,,,,
37,3323041,1746078100687,,,,,,,,,,,,,,,,,,,,,,,,,,,,,,,,,,0,0,0,0,0,0,0,0,0,0,0,0,0,0,0,0,,,,,,,,,,,,,
38,3323061,1746078100707,0.0,126.0,,-0.08,-0.13,0.97,1.0,-1.0,2.0,0.98,1.17,84.0,11386.0,3.6,1.54,,6.24,0.954,91.6,,52.3,5.0,,,,,,,,,,,,0,0,0,0,0,0,0,0,0,0,0,0,0,0,0,0,,,,,,0.0,,,,,,,
39,3323081,1746078100727,,,,,,,,,,,,,,,,,,,,,,,0.0,0.0,0.0,0.0,0.0,0.0,0.0,0.0,2.24,,,0,0,0,0,0,0,0,0,0,0,0,0,0,0,0,0,,0.0,,,,,38.994354,-76.939865,0.04,28.0,32.0,3.0,0.8
40,3323101,1746078100747,0.0,126.0,,-0.08,-0.12,0.93,1.0,-1.0,2.0,0.94,1.17,80.0,10744.0,3.3,1.4,,5.67,0.955,91.6,,52.3,5.0,,,,,,,,,,,,0,0,0,0,0,0,0,0,0,0,0,0,0,0,0,0,,,,,,0.0,,,,,,,
41,3323121,1746078100767,,,,,,,,,,,,,,,,,,,,,,,,,,,,,,,,,,0,0,0,0,0,0,0,0,0,0,0,0,0,0,0,0,,,,,,,,,,,,,
42,3323141,1746078100787,0.0,125.0,,-0.09,-0.02,0.83,1.0,-1.0,2.0,0.84,1.17,71.0,10000.0,5.9,1.4,,5.7,0.955,91.6,,52.3,5.0,,,,,,,,,,,,0,0,0,0,0,0,0,0,0,0,0,0,0,0,0,0,,,,,,0.0,,,,,,,
43,3323161,1746078100805,,,,,,,,,,,,,,,,,,,,,,,,,,,,,,,,,,0,0,0,0,0,0,0,0,0,0,0,0,0,0,0,0,,,,,,,,,,,,,
44,3323181,1746078100825,0.0,125.0,,-0.08,-0.06,0.81,0.0,-1.0,2.0,0.81,1.17,69.0,9309.0,21.4,2.43,,5.7,0.955,91.6,,51.6,5.0,0.0,0.0,0.0,0.0,0.0,0.0,0.0,0.0,2.25,,,0,0,0,0,0,0,0,0,0,0,0,0,0,0,0,0,,0.0,,,,0.0,38.994354,-76.939865,0.09,28.0,32.0,3.0,0.8
45,3323201,1746078100845,,,,,,,,,,,,,,,,,,,,,,,,,,,,,,,,,,0,0,0,0,0,0,0,0,0,0,0,0,0,0,0,0,,,,,,,,,,,,,
46,3323221,1746078100865,0.0,125.0,,-0.08,-0.14,0.9,1.0,-1.0,3.0,0.92,1.17,78.0,9309.0,21.4,2.43,,7.19,0.955,91.6,,51.6,5.0,,,,,,,,,,,,0,0,0,0,0,0,0,0,0,0,0,0,0,0,0,0,,,,,,0.0,,,,,,,
47,3323241,1746078100885,,,,,,,,,,,,,,,,,,,,,,,,,,,,,,,,,,0,0,0,0,0,0,0,0,0,0,0,0,0,0,0,0,,,,,,,,,,,,,
48,3323261,1746078100906,0.0,125.0,,-0.1,-0.18,0.91,2.0,-1.0,4.0,0.93,1.17,79.0,9236.0,24.0,2.72,,8.57,0.955,91.6,,51.6,5.0,,,,,,,,,,,,0,0,0,0,0,0,0,0,0,0,0,0,0,0,0,0,,,,,,0.0,,,,,,,
49,3323281,1746078100926,,,,,,,,,,,,,,,,,,,,,,,0.0,0.0,0.0,0.0,0.0,0.0,0.0,0.0,2.24,,,0,0,0,0,0,0,0,0,0,0,0,0,0,0,0,0,,0.0,,,,,38.994354,-76.939865,0.06,28.0,32.0,3.0,0.8
50,3323301,1746078100946,0.0,125.0,,-0.09,-0.23,0.96,3.0,-1.0,6.0,0.99,1.17,84.0,9242.0,16.9,3.03,,8.67,0.955,89.8,,52.2,5.0,,,,,,,,,,,,0,0,0,0,0,0,0,0,0,0,0,0,0,0,0,0,,,,,,0.0,,,,,,,
51,3323321,1746078100966,,,,,,,,,,,,,,,,,,,,,,,,,,,,,,,,,,0,0,0,0,0,0,0,0,0,0,0,0,0,0,0,0,,,,,,,,,,,,,
52,3323341,1746078100986,0.0,125.0,,-0.11,-0.16,0.86,2.0,-1.0,4.0,0.88,1.17,75.0,9584.0,8.0,2.16,,7.59,0.955,89.8,,52.2,5.0,,,,,,,,,,,,0,0,0,0,0,0,0,0,0,0,0,0,0,0,0,0,,,,,,0.0,,,,,,,
53,3323361,1746078100998,,,,,,,,,,,,,,,,,,,,,,,,,,,,,,,,,,0,0,0,0,0,0,0,0,0,0,0,0,0,0,0,0,,,,,,,,,,,,,
54,3323381,1746078101018,0.0,125.0,13.09,-0.11,-0.18,0.92,2.0,-1.0,4.0,0.94,1.17,80.0,9435.0,4.9,1.81,15.0,7.59,0.955,89.8,209.0,52.9,5.0,0.0,0.0,0.0,0.0,0.0,0.0,0.0,0.0,2.24,0.0,0.0,0,0,0,0,0,0,0,0,0,0,0,0,0,0,0,0,0.0,0.0,0.0,0.0,0.0,0.0,38.994354,-76.939865,0.19,28.0,32.0,3.0,0.8
55,3323401,1746078101038,,,,,,,,,,,,,,,,,,,,,,,,,,,,,,,,,,0,0,0,0,0,0,0,0,0,0,0,0,0,0,0,0,,,,,,,,,,,,,
56,3323421,1746078101058,0.0,125.0,,-0.11,-0.1,0.95,1.0,-1.0,3.0,0.96,1.17,81.0,9435.0,4.9,1.81,,6.62,0.951,89.8,,52.9,5.0,,,,,,,,,,,,0,0,0,0,0,0,0,0,0,0,0,0,0,0,0,0,,,,,,0.0,,,,,,,
57,3323441,1746078101078,,,,,,,,,,,,,,,,,,,,,,,,,,,,,,,,,,0,0,0,0,0,0,0,0,0,0,0,0,0,0,0,0,,,,,,,,,,,,,
58,3323461,1746078101100,0.0,126.0,,-0.11,-0.04,1.0,1.0,-2.0,3.0,1.01,1.17,86.0,8928.0,4.5,1.64,,6.11,0.955,89.8,,51.0,5.0,,,,,,,,,,,,0,0,0,0,0,0,0,0,0,0,0,0,0,0,0,0,,,,,,0.0,,,,,,,
59,3323481,1746078101120,,,,,,,,,,,,,,,,,,,,,,,0.0,0.0,0.0,0.0,0.0,0.0,0.0,0.0,2.24,,,0,0,0,0,0,0,0,0,0,0,0,0,0,0,0,0,,0.0,,,,,38.994354,-76.939865,0.07,28.0,32.0,3.0,0.8
60,3323501,1746078101140,0.0,125.0,,-0.11,-0.09,1.01,2.0,-2.0,3.0,1.02,1.17,87.0,8353.0,17.4,2.0,,7.03,0.955,89.8,,51.0,5.0,,,,,,,,,,,,0,0,0,0,0,0,0,0,0,0,0,0,0,0,0,0,,,,,,0.0,,,,,,,
61,3323521,1746078101160,,,,,,,,,,,,,,,,,,,,,,,,,,,,,,,,,,0,0,0,0,0,0,0,0,0,0,0,0,0,0,0,0,,,,,,,,,,,,,
62,3323541,1746078101180,0.0,125.0,,-0.11,-0.07,0.97,2.0,-2.0,3.0,0.98,1.17,84.0,7864.0,26.9,3.06,,9.19,0.954,89.8,,51.0,5.0,,,,,,,,,,,,0,0,0,0,0,0,0,0,0,0,0,0,0,0,0,0,,,,,,0.0,,,,,,,
63,3323561,1746078101206,,,,,,,,,,,,,,,,,,,,,,,,,,,,,,,,,,0,0,0,0,0,0,0,0,0,0,0,0,0,0,0,0,,,,,,,,,,,,,
64,3323581,1746078101226,0.0,125.0,,-0.1,-0.06,1.03,3.0,-2.0,3.0,1.03,1.17,88.0,7849.0,28.0,3.41,,9.19,0.954,89.8,,47.0,5.0,0.0,0.0,0.0,0.0,0.0,0.0,0.0,0.0,2.25,,,0,0,0,0,0,0,0,0,0,0,0,0,0,0,0,0,,0.0,,,,0.0,38.994354,-76.939865,0.08,28.0,32.0,3.0,0.8
65,3323601,1746078101246,,,,,,,,,,,,,,,,,,,,,,,,,,,,,,,,,,0,0,0,0,0,0,0,0,0,0,0,0,0,0,0,0,,,,,,,,,,,,,
66,3323621,1746078101266,0.0,126.0,,-0.1,-0.11,1.05,3.0,-2.0,3.0,1.06,1.17,91.0,7849.0,28.0,3.41,,10.68,0.955,89.8,,47.0,5.0,,,,,,,,,,,,0,0,0,0,0,0,0,0,0,0,0,0,0,0,0,0,,,,,,0.0,,,,,,,
67,3323641,1746078101286,,,,,,,,,,,,,,,,,,,,,,,,,,,,,,,,,,0,0,0,0,0,0,0,0,0,0,0,0,0,0,0,0,,,,,,,,,,,,,
68,3323661,1746078101306,0.0,125.0,,-0.1,-0.09,1.07,2.0,-2.0,3.0,1.08,1.17,92.0,8054.0,22.3,4.85,,10.9,0.953,89.8,,48.4,5.0,,,,,,,,,,,,0,0,0,0,0,0,0,0,0,0,0,0,0,0,0,0,,,,,,0.0,,,,,,,
69,3323681,1746078101326,,,,,,,,,,,,,,,,,,,,,,,0.0,0.0,0.0,0.0,0.0,0.0,0.0,0.0,2.24,,,0,0,0,0,0,0,0,0,0,0,0,0,0,0,0,0,,0.0,,,,,38.994354,-76.939865,0.0,28.0,32.0,3.0,0.8
70,3323701,1746078101346,0.0,125.0,,-0.09,-0.04,1.12,3.0,-2.0,3.0,1.12,1.17,95.0,8450.0,12.8,2.99,,9.8,0.95,89.8,,48.4,5.0,,,,,,,,,,,,0,0,0,0,0,0,0,0,0,0,0,0,0,0,0,0,,,,,,0.0,,,,,,,
71,3323721,1746078101366,,,,,,,,,,,,,,,,,,,,,,,,,,,,,,,,,,0,0,0,0,0,0,0,0,0,0,0,0,0,0,0,0,,,,,,,,,,,,,
72,3323741,1746078101386,0.0,125.0,,-0.09,-0.07,1.04,3.0,-1.0,3.0,1.05,1.17,89.0,8692.0,7.7,2.59,,9.8,0.95,89.8,,48.4,5.0,,,,,,,,,,,,0,0,0,0,0,0,0,0,0,0,0,0,0,0,0,0,,,,,,0.0,,,,,,,
73,3323761,1746078101406,,,,,,,,,,,,,,,,,,,,,,,,,,,,,,,,,,0,0,0,0,0,0,0,0,0,0,0,0,0,0,0,0,,,,,,,,,,,,,
74,3323781,1746078101426,0.0,125.0,,-0.09,0.02,1.03,3.0,-1.0,3.0,1.04,1.17,88.0,8710.0,6.5,2.22,,8.57,0.954,89.8,,49.7,5.0,0.0,0.0,0.0,0.0,0.0,0.0,0.0,0.0,2.24,,,0,0,0,0,0,0,0,0,0,0,0,0,0,0,0,0,,0.0,,,,0.0,38.994354,-76.939865,0.15,28.0,32.0,3.0,0.8
75,3323801,1746078101446,,,,,,,,,,,,,,,,,,,,,,,,,,,,,,,,,,0,0,0,0,0,0,0,0,0,0,0,0,0,0,0,0,,,,,,,,,,,,,
76,3323821,1746078101466,0.0,126.0,,-0.09,0.0,1.01,2.0,-1.0,3.0,1.01,1.17,86.0,8710.0,6.5,2.22,,7.69,0.955,89.8,,49.7,5.0,,,,,,,,,,,,0,0,0,0,0,0,0,0,0,0,0,0,0,0,0,0,,,,,,0.0,,,,,,,
77,3323841,1746078101486,,,,,,,,,,,,,,,,,,,,,,,,,,,,,,,,,,0,0,0,0,0,0,0,0,0,0,0,0,0,0,0,0,,,,,,,,,,,,,
78,3323861,1746078101506,0.0,126.0,,-0.08,-0.03,1.04,2.0,-1.0,3.0,1.05,1.17,89.0,8579.0,8.6,2.14,,7.33,0.955,89.8,,49.8,5.0,,,,,,,,,,,,0,0,0,0,0,0,0,0,0,0,0,0,0,0,0,0,,,,,,0.0,,,,,,,
79,3323881,1746078101526,,,,,,,,,,,,,,,,,,,,,,,0.0,0.0,0.0,0.0,0.0,0.0,0.0,0.0,2.24,,,0,0,0,0,0,0,0,0,0,0,0,0,0,0,0,0,,0.0,,,,,38.994354,-76.939865,0.06,28.0,32.0,3.0,0.8
80,3323901,1746078101546,0.0,125.0,,-0.1,0.0,0.95,2.0,-1.0,2.0,0.95,1.17,81.0,8331.0,19.6,2.94,,8.29,0.955,89.8,,49.8,5.0,,,,,,,,,,,,0,0,0,0,0,0,0,0,0,0,0,0,0,0,0,0,,,,,,0.0,,,,,,,
81,3323921,1746078101566,,,,,,,,,,,,,,,,,,,,,,,,,,,,,,,,,,0,0,0,0,0,0,0,0,0,0,0,0,0,0,0,0,,,,,,,,,,,,,
82,3323941,1746078101586,0.0,125.0,,-0.09,0.03,0.93,2.0,-1.0,2.0,0.93,1.17,80.0,8348.0,24.9,3.21,,9.69,0.955,89.8,,49.8,5.0,,,,,,,,,,,,0,0,0,0,0,0,0,0,0,0,0,0,0,0,0,0,,,,,,0.0,,,,,,,
83,3323961,1746078101606,,,,,,,,,,,,,,,,,,,,,,,,,,,,,,,,,,0,0,0,0,0,0,0,0,0,0,0,0,0,0,0,0,,,,,,,,,,,,,
84,3323981,1746078101626,0.0,125.0,,-0.09,-0.04,0.96,2.0,-1.0,1.0,0.96,1.17,82.0,8787.0,25.8,3.3,,9.69,0.955,89.8,,46.6,5.0,0.0,0.0,0.0,0.0,0.0,0.0,0.0,0.0,2.24,,,0,0,0,0,0,0,0,0,0,0,0,0,0,0,0,0,,0.0,,,,0.0,38.994354,-76.939865,0.08,28.0,32.0,3.0,0.8
85,3324001,1746078101646,,,,,,,,,,,,,,,,,,,,,,,,,,,,,,,,,,0,0,0,0,0,0,0,0,0,0,0,0,0,0,0,0,,,,,,,,,,,,,
86,3324021,1746078101666,0.0,125.0,,-0.1,-0.1,0.92,3.0,-1.0,1.0,0.93,1.17,79.0,8787.0,25.8,3.3,,10.26,0.954,89.8,,46.6,5.0,,,,,,,,,,,,0,0,0,0,0,0,0,0,0,0,0,0,0,0,0,0,,,,,,0.0,,,,,,,
87,3324041,1746078101686,,,,,,,,,,,,,,,,,,,,,,,,,,,,,,,,,,0,0,0,0,0,0,0,0,0,0,0,0,0,0,0,0,,,,,,,,,,,,,
88,3324061,1746078101706,0.0,126.0,,-0.1,-0.15,1.04,3.0,-1.0,2.0,1.05,1.17,90.0,9133.0,19.5,3.38,,9.96,0.952,89.8,,49.3,5.0,,,,,,,,,,,,0,0,0,0,0,0,0,0,0,0,0,0,0,0,0,0,,,,,,0.0,,,,,,,
89,3324081,1746078101726,,,,,,,,,,,,,,,,,,,,,,,0.0,0.0,0.0,0.0,0.0,0.0,0.0,0.0,2.24,,,0,0,0,0,0,0,0,0,0,0,0,0,0,0,0,0,,0.0,,,,,38.994354,-76.939865,0.04,28.0,32.0,3.0,0.8
90,3324101,1746078101746,0.0,125.0,,-0.07,-0.18,1.01,2.0,-1.0,0.0,1.03,1.17,88.0,9629.0,10.2,2.58,,8.46,0.955,89.8,,49.3,5.0,,,,,,,,,,,,0,0,0,0,0,0,0,0,0,0,0,0,0,0,0,0,,,,,,0.0,,,,,,,
91,3324121,1746078101766,,,,,,,,,,,,,,,,,,,,,,,,,,,,,,,,,,0,0,0,0,0,0,0,0,0,0,0,0,0,0,0,0,,,,,,,,,,,,,
92,3324141,1746078101786,0.0,125.0,,-0.06,-0.16,0.99,3.0,-1.0,2.0,1.0,1.17,85.0,9827.0,6.0,2.09,,7.27,0.955,89.8,,49.3,5.0,,,,,,,,,,,,0,0,0,0,0,0,0,0,0,0,0,0,0,0,0,0,,,,,,0.0,,,,,,,
93,3324161,1746078101806,,,,,,,,,,,,,,,,,,,,,,,,,,,,,,,,,,0,0,0,0,0,0,0,0,0,0,0,0,0,0,0,0,,,,,,,,,,,,,
94,3324181,1746078101826,0.0,125.0,,-0.07,-0.19,0.97,3.0,-1.0,2.0,0.99,1.17,85.0,9671.0,3.9,1.72,,7.27,0.955,89.8,,50.3,5.0,0.0,0.0,0.0,0.0,0.0,0.0,0.0,0.0,2.24,,,0,0,0,0,0,0,0,0,0,0,0,0,0,0,0,0,,0.0,,,,0.0,38.994354,-76.939865,0.04,28.0,32.0,3.0,0.8
95,3324201,1746078101846,,,,,,,,,,,,,,,,,,,,,,,,,,,,,,,,,,0,0,0,0,0,0,0,0,0,0,0,0,0,0,0,0,,,,,,,,,,,,,
96,3324221,1746078101866,0.0,125.0,,-0.07,-0.08,0.87,2.0,-1.0,1.0,0.88,1.17,75.0,9671.0,3.9,1.72,,6.43,0.955,89.8,,50.3,5.0,,,,,,,,,,,,0,0,0,0,0,0,0,0,0,0,0,0,0,0,0,0,,,,,,0.0,,,,,,,
97,3324241,1746078101886,,,,,,,,,,,,,,,,,,,,,,,,,,,,,,,,,,0,0,0,0,0,0,0,0,0,0,0,0,0,0,0,0,,,,,,,,,,,,,
98,3324261,1746078101905,0.0,126.0,,-0.07,-0.11,0.85,2.0,-1.0,1.0,0.86,1.17,74.0,9018.0,3.5,1.4,,5.94,0.955,89.8,,48.9,5.0,,,,,,,,,,,,0,0,0,0,0,0,0,0,0,0,0,0,0,0,0,0,,,,,,0.0,,,,,,,
99,3324281,1746078101925,,,,,,,,,,,,,,,,,,,,,,,0.0,0.0,0.0,0.0,0.0,0.0,0.0,0.0,2.25,,,0,0,0,0,0,0,0,0,0,0,0,0,0,0,0,0,,0.0,,,,,38.994354,-76.939865,0.11,28.0,32.0,3.0,0.8
100,3324301,1746078101945,0.0,126.0,,-0.07,-0.04,0.83,3.0,-1.0,2.0,0.83,1.17,71.0,8367.0,7.4,1.59,,6.08,0.951,89.8,,48.9,5.0,,,,,,,,,,,,0,0,0,0,0,0,0,0,0,0,0,0,0,0,0,0,,,,,,0.0,,,,,,,
101,3324321,1746078101965,,,,,,,,,,,,,,,,,,,,,,,,,,,,,,,,,,0,0,0,0,0,0,0,0,0,0,0,0,0,0,0,0,,,,,,,,,,,,,
102,3324341,1746078101985,0.0,125.0,,-0.06,-0.01,0.77,2.0,-1.0,2.0,0.77,1.17,66.0,7702.0,15.4,2.09,,7.2,0.954,89.8,,48.9,5.0,,,,,,,,,,,,0,0,0,0,0,0,0,0,0,0,0,0,0,0,0,0,,,,,,0.0,,,,,,,
103,3324361,1746078101997,,,,,,,,,,,,,,,,,,,,,,,,,,,,,,,,,,0,0,0,0,0,0,0,0,0,0,0,0,0,0,0,0,,,,,,,,,,,,,
104,3324381,1746078102017,0.0,125.0,13.19,-0.05,-0.08,0.79,2.0,-1.0,3.0,0.8,1.17,68.0,7240.0,22.3,2.91,15.0,7.2,0.954,89.8,207.0,48.4,5.0,0.0,0.0,0.0,0.0,0.0,0.0,0.0,0.0,2.25,0.0,0.0,0,0,0,0,0,0,0,0,0,0,0,0,0,0,0,0,0.0,0.0,0.0,0.0,0.0,0.0,38.994354,-76.939865,0.0,28.0,32.0,3.0,0.8
105,3324401,1746078102037,,,,,,,,,,,,,,,,,,,,,,,,,,,,,,,,,,0,0,0,0,0,0,0,0,0,0,0,0,0,0,0,0,,,,,,,,,,,,,
106,3324421,1746078102057,0.0,125.0,,-0.06,-0.06,0.82,2.0,-1.0,2.0,0.82,1.17,70.0,7240.0,22.3,2.91,,9.06,0.955,89.8,,48.4,5.0,,,,,,,,,,,,0,0,0,0,0,0,0,0,0,0,0,0,0,0,0,0,,,,,,0.0,,,,,,,
107,3324441,1746078102077,,,,,,,,,,,,,,,,,,,,,,,,,,,,,,,,,,0,0,0,0,0,0,0,0,0,0,0,0,0,0,0,0,,,,,,,,,,,,,
108,3324461,1746078102101,0.0,126.0,,-0.05,0.0,0.83,1.0,-1.0,2.0,0.83,1.17,70.0,7136.0,24.3,3.35,,10.72,0.954,89.8,,48.4,5.0,,,,,,,,,,,,0,0,0,0,0,0,0,0,0,0,0,0,0,0,0,0,,,,,,0.0,,,,,,,
109,3324481,1746078102121,,,,,,,,,,,,,,,,,,,,,,,0.0,0.0,0.0,0.0,0.0,0.0,0.0,0.0,2.24,,,0,0,0,0,0,0,0,0,0,0,0,0,0,0,0,0,,0.0,,,,,38.994354,-76.939865,0.04,28.0,32.0,3.0,0.8
110,3324501,1746078102141,0.0,126.0,,-0.06,-0.05,0.81,0.0,-1.0,2.0,0.81,1.17,69.0,7337.0,24.4,4.46,,11.24,0.954,89.8,,42.7,5.0,,,,,,,,,,,,0,0,0,0,0,0,0,0,0,0,0,0,0,0,0,0,,,,,,0.0,,,,,,,
111,3324521,1746078102161,,,,,,,,,,,,,,,,,,,,,,,,,,,,,,,,,,0,0,0,0,0,0,0,0,0,0,0,0,0,0,0,0,,,,,,,,,,,,,
112,3324541,1746078102181,0.0,125.0,,-0.05,-0.13,0.84,0.0,-1.0,2.0,0.85,1.17,73.0,7737.0,13.4,3.5,,10.46,0.954,89.8,,42.7,5.0,,,,,,,,,,,,0,0,0,0,0,0,0,0,0,0,0,0,0,0,0,0,,,,,,0.0,,,,,,,
113,3324561,1746078102201,,,,,,,,,,,,,,,,,,,,,,,,,,,,,,,,,,0,0,0,0,0,0,0,0,0,0,0,0,0,0,0,0,,,,,,,,,,,,,
114,3324581,1746078102221,0.0,125.0,,-0.05,-0.04,0.9,0.0,-1.0,2.0,0.9,1.17,77.0,8057.0,6.1,2.64,,10.46,0.954,89.8,,45.9,5.0,0.0,0.0,0.0,0.0,0.0,0.0,0.0,0.0,2.25,,,0,0,0,0,0,0,0,0,0,0,0,0,0,0,0,0,,0.0,,,,0.0,38.994354,-76.939865,0.0,28.0,32.0,3.0,0.8
115,3324601,1746078102241,,,,,,,,,,,,,,,,,,,,,,,,,,,,,,,,,,0,0,0,0,0,0,0,0,0,0,0,0,0,0,0,0,,,,,,,,,,,,,
116,3324621,1746078102261,0.0,126.0,,-0.06,-0.04,0.9,1.0,-1.0,2.0,0.9,1.17,77.0,8057.0,6.1,2.64,,9.18,0.955,89.8,,45.9,5.0,,,,,,,,,,,,0,0,0,0,0,0,0,0,0,0,0,0,0,0,0,0,,,,,,0.0,,,,,,,
117,3324641,1746078102281,,,,,,,,,,,,,,,,,,,,,,,,,,,,,,,,,,0,0,0,0,0,0,0,0,0,0,0,0,0,0,0,0,,,,,,,,,,,,,
118,3324661,1746078102305,0.0,126.0,,-0.04,-0.04,0.94,1.0,-1.0,2.0,0.94,1.17,80.0,8234.0,3.8,2.01,,8.02,0.952,89.8,,47.9,5.0,,,,,,,,,,,,0,0,0,0,0,0,0,0,0,0,0,0,0,0,0,0,,,,,,0.0,,,,,,,
119,3324681,1746078102325,,,,,,,,,,,,,,,,,,,,,,,0.0,0.0,0.0,0.0,0.0,0.0,0.0,0.0,2.24,,,0,0,0,0,0,0,0,0,0,0,0,0,0,0,0,0,,0.0,,,,,38.994354,-76.939865,0.06,28.0,32.0,3.0,0.8
120,3324701,1746078102345,0.0,126.0,,-0.05,-0.05,0.89,2.0,-1.0,3.0,0.89,1.17,76.0,7985.0,5.4,2.05,,7.54,0.953,89.8,,47.9,5.0,,,,,,,,,,,,0,0,0,0,0,0,0,0,0,0,0,0,0,0,0,0,,,,,,0.0,,,,,,,
121,3324721,1746078102365,,,,,,,,,,,,,,,,,,,,,,,,,,,,,,,,,,0,0,0,0,0,0,0,0,0,0,0,0,0,0,0,0,,,,,,,,,,,,,
122,3324741,1746078102385,0.0,125.0,,-0.04,-0.09,0.94,2.0,-1.0,2.0,0.95,1.17,81.0,7607.0,17.8,2.43,,8.51,0.955,89.8,,47.9,5.0,,,,,,,,,,,,0,0,0,0,0,0,0,0,0,0,0,0,0,0,0,0,,,,,,0.0,,,,,,,
123,3324761,1746078102405,,,,,,,,,,,,,,,,,,,,,,,,,,,,,,,,,,0,0,0,0,0,0,0,0,0,0,0,0,0,0,0,0,,,,,,,,,,,,,
124,3324781,1746078102425,0.0,126.0,,-0.03,0.01,0.98,2.0,-1.0,1.0,0.98,1.17,83.0,7422.0,23.6,3.3,,8.51,0.955,89.8,,47.6,5.0,0.0,0.0,0.0,0.0,0.0,0.0,0.0,0.0,2.24,,,0,0,0,0,0,0,0,0,0,0,0,0,0,0,0,0,,0.0,,,,0.0,38.994354,-76.939865,0.04,28.0,32.0,3.0,0.8
125,3324801,1746078102445,,,,,,,,,,,,,,,,,,,,,,,,,,,,,,,,,,0,0,0,0,0,0,0,0,0,0,0,0,0,0,0,0,,,,,,,,,,,,,
126,3324821,1746078102465,0.0,125.0,,-0.03,0.06,1.04,2.0,-1.0,0.0,1.05,1.17,89.0,7422.0,23.6,3.3,,9.92,0.955,89.8,,47.6,5.0,,,,,,,,,,,,0,0,0,0,0,0,0,0,0,0,0,0,0,0,0,0,,,,,,0.0,,,,,,,
127,3324841,1746078102485,,,,,,,,,,,,,,,,,,,,,,,,,,,,,,,,,,0,0,0,0,0,0,0,0,0,0,0,0,0,0,0,0,,,,,,,,,,,,,
128,3324861,1746078102505,0.0,126.0,,-0.04,0.08,1.06,1.0,-1.0,1.0,1.06,1.17,90.0,7598.0,25.5,3.69,,10.96,0.955,89.8,,45.3,5.0,,,,,,,,,,,,0,0,0,0,0,0,0,0,0,0,0,0,0,0,0,0,,,,,,0.0,,,,,,,
129,3324881,1746078102525,,,,,,,,,,,,,,,,,,,,,,,0.0,0.0,0.0,0.0,0.0,0.0,0.0,0.0,2.25,,,0,0,0,0,0,0,0,0,0,0,0,0,0,0,0,0,,0.0,,,,,38.994354,-76.939865,0.0,28.0,32.0,3.0,0.8
130,3324901,1746078102545,0.0,126.0,,-0.04,0.02,1.01,1.0,-1.0,-1.0,1.01,1.17,86.0,7995.0,26.1,4.82,,11.22,0.954,89.8,,45.3,5.0,,,,,,,,,,,,0,0,0,0,0,0,0,0,0,0,0,0,0,0,0,0,,,,,,0.0,,,,,,,
131,3324921,1746078102565,,,,,,,,,,,,,,,,,,,,,,,,,,,,,,,,,,0,0,0,0,0,0,0,0,0,0,0,0,0,0,0,0,,,,,,,,,,,,,
132,3324941,1746078102585,0.0,126.0,,-0.04,-0.14,0.94,-1.0,-1.0,-2.0,0.95,1.17,81.0,8620.0,15.5,3.28,,11.22,0.954,89.8,,45.3,5.0,,,,,,,,,,,,0,0,0,0,0,0,0,0,0,0,0,0,0,0,0,0,,,,,,0.0,,,,,,,
133,3324961,1746078102605,,,,,,,,,,,,,,,,,,,,,,,,,,,,,,,,,,0,0,0,0,0,0,0,0,0,0,0,0,0,0,0,0,,,,,,,,,,,,,
134,3324981,1746078102625,0.0,126.0,,-0.05,-0.01,0.82,-2.0,-1.0,-3.0,0.83,1.17,70.0,8620.0,15.5,3.28,,10.42,0.95,89.8,,48.8,5.0,0.0,0.0,0.0,0.0,0.0,0.0,0.0,0.0,2.24,,,0,0,0,0,0,0,0,0,0,0,0,0,0,0,0,0,,0.0,,,,0.0,38.994354,-76.939865,0.0,28.0,32.0,3.0,0.8
135,3325001,1746078102645,,,,,,,,,,,,,,,,,,,,,,,,,,,,,,,,,,0,0,0,0,0,0,0,0,0,0,0,0,0,0,0,0,,,,,,,,,,,,,
136,3325021,1746078102665,0.0,126.0,,-0.05,-0.08,0.78,-2.0,-1.0,-2.0,0.78,1.17,67.0,9138.0,8.5,2.53,,8.85,0.951,89.8,,48.8,5.0,,,,,,,,,,,,0,0,0,0,0,0,0,0,0,0,0,0,0,0,0,0,,,,,,0.0,,,,,,,
137,3325041,1746078102685,,,,,,,,,,,,,,,,,,,,,,,,,,,,,,,,,,0,0,0,0,0,0,0,0,0,0,0,0,0,0,0,0,,,,,,,,,,,,,
138,3325061,1746078102707,0.0,126.0,,-0.05,-0.05,0.91,-2.0,-1.0,-2.0,0.91,1.17,78.0,9359.0,5.4,2.13,,7.49,0.955,89.8,,50.3,5.0,,,,,,,,,,,,0,0,0,0,0,0,0,0,0,0,0,0,0,0,0,0,,,,,,0.0,,,,,,,
139,3325081,1746078102727,,,,,,,,,,,,,,,,,,,,,,,0.0,0.0,0.0,0.0,0.0,0.0,0.0,0.0,2.24,,,0,0,0,0,0,0,0,0,0,0,0,0,0,0,0,0,,0.0,,,,,38.994354,-76.939865,0.1,28.0,32.0,3.0,0.8
140,3325101,1746078102747,0.0,126.0,,-0.05,-0.07,0.89,-3.0,-1.0,-2.0,0.9,1.17,76.0,9355.0,4.8,1.8,,6.71,0.955,89.8,,50.3,5.0,,,,,,,,,,,,0,0,0,0,0,0,0,0,0,0,0,0,0,0,0,0,,,,,,0.0,,,,,,,
141,3325121,1746078102767,,,,,,,,,,,,,,,,,,,,,,,,,,,,,,,,,,0,0,0,0,0,0,0,0,0,0,0,0,0,0,0,0,,,,,,,,,,,,,
142,3325141,1746078102787,0.0,126.0,,-0.03,-0.26,0.84,-3.0,-1.0,-3.0,0.88,1.17,75.0,8994.0,12.2,2.02,,6.84,0.955,89.8,,50.3,5.0,,,,,,,,,,,,0,0,0,0,0,0,0,0,0,0,0,0,0,0,0,0,,,,,,0.0,,,,,,,
143,3325161,1746078102805,,,,,,,,,,,,,,,,,,,,,,,,,,,,,,,,,,0,0,0,0,0,0,0,0,0,0,0,0,0,0,0,0,,,,,,,,,,,,,
144,3325181,1746078102825,0.0,126.0,,-0.05,-0.21,0.8,-3.0,0.0,-3.0,0.83,1.17,71.0,8642.0,18.0,2.58,,6.84,0.955,89.8,,51.1,5.0,0.0,0.0,0.0,0.0,0.0,0.0,0.0,0.0,2.25,,,0,0,0,0,0,0,0,0,0,0,0,0,0,0,0,0,,0.0,,,,0.0,38.994354,-76.939873,0.08,28.0,32.0,3.0,0.8
145,3325201,1746078102845,,,,,,,,,,,,,,,,,,,,,,,,,,,,,,,,,,0,0,0,0,0,0,0,0,0,0,0,0,0,0,0,0,,,,,,,,,,,,,
146,3325221,1746078102865,0.0,126.0,,-0.04,-0.13,0.92,-2.0,-1.0,-2.0,0.93,1.17,79.0,8642.0,18.0,2.58,,7.83,0.955,89.8,,51.1,5.0,,,,,,,,,,,,0,0,0,0,0,0,0,0,0,0,0,0,0,0,0,0,,,,,,0.0,,,,,,,
147,3325241,1746078102885,,,,,,,,,,,,,,,,,,,,,,,,,,,,,,,,,,0,0,0,0,0,0,0,0,0,0,0,0,0,0,0,0,,,,,,,,,,,,,
148,3325261,1746078102904,0.0,125.0,,-0.07,-0.21,0.97,-1.0,0.0,-1.0,0.99,1.17,84.0,8726.0,18.7,2.83,,8.54,0.955,89.8,,51.1,5.0,,,,,,,,,,,,0,0,0,0,0,0,0,0,0,0,0,0,0,0,0,0,,,,,,0.0,,,,,,,
149,3325281,1746078102924,,,,,,,,,,,,,,,,,,,,,,,0.0,0.0,0.0,0.0,0.0,0.0,0.0,0.0,2.24,,,0,0,0,0,0,0,0,0,0,0,0,0,0,0,0,0,,0.0,,,,,38.994354,-76.939873,0.04,28.0,32.0,3.0,0.8
150,3325301,1746078102944,0.0,126.0,,-0.07,-0.14,0.99,0.0,-1.0,-1.0,1.0,1.17,85.0,9090.0,10.7,2.38,,8.1,0.951,89.8,,50.1,5.0,,,,,,,,,,,,0,0,0,0,0,0,0,0,0,0,0,0,0,0,0,0,,,,,,0.0,,,,,,,
151,3325321,1746078102964,,,,,,,,,,,,,,,,,,,,,,,,,,,,,,,,,,0,0,0,0,0,0,0,0,0,0,0,0,0,0,0,0,,,,,,,,,,,,,
152,3325341,1746078102984,0.0,125.0,,-0.06,-0.25,1.11,0.0,-1.0,-1.0,1.13,1.17,97.0,9249.0,6.5,2.06,,7.19,0.954,89.8,,50.1,5.0,,,,,,,,,,,,0,0,0,0,0,0,0,0,0,0,0,0,0,0,0,0,,,,,,0.0,,,,,,,
153,3325361,1746078102998,,,,,,,,,,,,,,,,,,,,,,,,,,,,,,,,,,0,0,0,0,0,0,0,0,0,0,0,0,0,0,0,0,,,,,,,,,,,,,
154,3325381,1746078103018,0.0,126.0,13.24,-0.06,-0.2,1.19,0.0,-1.0,-2.0,1.21,1.21,100.0,9100.0,5.9,1.8,15.0,7.19,0.954,89.8,205.0,51.5,5.0,0.0,0.0,0.0,0.0,0.0,0.0,0.0,0.0,2.24,0.0,0.0,0,0,0,0,0,0,0,0,0,0,0,0,0,0,0,0,0.0,0.0,0.0,0.0,0.0,0.0,38.994354,-76.939873,0.04,28.0,32.0,3.0,0.8
155,3325401,1746078103038,,,,,,,,,,,,,,,,,,,,,,,,,,,,,,,,,,0,0,0,0,0,0,0,0,0,0,0,0,0,0,0,0,,,,,,,,,,,,,
156,3325421,1746078103058,0.0,126.0,,-0.05,-0.15,1.25,0.0,-1.0,-2.0,1.26,1.26,100.0,9100.0,5.9,1.8,,6.52,0.955,89.8,,51.5,5.0,,,,,,,,,,,,0,0,0,0,0,0,0,0,0,0,0,0,0,0,0,0,,,,,,0.0,,,,,,,
157,3325441,1746078103078,,,,,,,,,,,,,,,,,,,,,,,,,,,,,,,,,,0,0,0,0,0,0,0,0,0,0,0,0,0,0,0,0,,,,,,,,,,,,,
158,3325461,1746078103102,0.0,126.0,,-0.05,-0.12,1.2,0.0,-1.0,-2.0,1.21,1.26,96.0,8678.0,16.0,2.05,,7.06,0.955,89.8,,51.5,5.0,,,,,,,,,,,,0,0,0,0,0,0,0,0,0,0,0,0,0,0,0,0,,,,,,0.0,,,,,,,
159,3325481,1746078103122,,,,,,,,,,,,,,,,,,,,,,,0.0,0.0,0.0,0.0,0.0,0.0,0.0,0.0,2.24,,,0,0,0,0,0,0,0,0,0,0,0,0,0,0,0,0,,0.0,,,,,38.994354,-76.939873,0.0,28.0,32.0,3.0,0.8
160,3325501,1746078103142,0.0,126.0,,-0.04,-0.03,1.14,-1.0,-1.0,-3.0,1.14,1.26,91.0,8258.0,22.9,2.91,,8.69,0.955,89.8,,50.1,5.0,,,,,,,,,,,,0,0,0,0,0,0,0,0,0,0,0,0,0,0,0,0,,,,,,0.0,,,,,,,
161,3325521,1746078103162,,,,,,,,,,,,,,,,,,,,,,,,,,,,,,,,,,0,0,0,0,0,0,0,0,0,0,0,0,0,0,0,0,,,,,,,,,,,,,
162,3325541,1746078103182,0.0,126.0,,-0.03,-0.17,1.18,-1.0,-1.0,-3.0,1.2,1.26,95.0,8553.0,23.8,3.19,,9.73,0.954,89.8,,50.1,5.0,,,,,,,,,,,,0,0,0,0,0,0,0,0,0,0,0,0,0,0,0,0,,,,,,0.0,,,,,,,
163,3325561,1746078103204,,,,,,,,,,,,,,,,,,,,,,,,,,,,,,,,,,0,0,0,0,0,0,0,0,0,0,0,0,0,0,0,0,,,,,,,,,,,,,
164,3325581,1746078103224,0.0,126.0,,-0.06,-0.15,1.12,-1.0,-1.0,-2.0,1.13,1.26,90.0,9096.0,16.6,3.16,,9.73,0.954,89.8,,46.3,5.0,0.0,0.0,0.0,0.0,0.0,0.0,0.0,0.0,2.24,,,0,0,0,0,0,0,0,0,0,0,0,0,0,0,0,0,,0.0,,,,0.0,38.994354,-76.939873,0.0,28.0,32.0,3.0,0.8
165,3325601,1746078103244,,,,,,,,,,,,,,,,,,,,,,,,,,,,,,,,,,0,0,0,0,0,0,0,0,0,0,0,0,0,0,0,0,,,,,,,,,,,,,
166,3325621,1746078103264,0.0,125.0,,-0.07,-0.08,1.17,0.0,-1.0,-1.0,1.18,1.26,94.0,9096.0,16.6,3.16,,9.33,0.95,89.8,,46.3,5.0,,,,,,,,,,,,0,0,0,0,0,0,0,0,0,0,0,0,0,0,0,0,,,,,,0.0,,,,,,,
167,3325641,1746078103284,,,,,,,,,,,,,,,,,,,,,,,,,,,,,,,,,,0,0,0,0,0,0,0,0,0,0,0,0,0,0,0,0,,,,,,,,,,,,,
168,3325661,1746078103306,0.0,126.0,,-0.06,-0.12,1.19,1.0,-1.0,-1.0,1.19,1.26,95.0,9681.0,11.4,2.39,,8.25,0.953,89.8,,46.3,5.0,,,,,,,,,,,,0,0,0,0,0,0,0,0,0,0,0,0,0,0,0,0,,,,,,0.0,,,,,,,
169,3325681,1746078103326,,,,,,,,,,,,,,,,,,,,,,,0.0,0.0,0.0,0.0,0.0,0.0,0.0,0.0,2.24,,,0,0,0,0,0,0,0,0,0,0,0,0,0,0,0,0,,0.0,,,,,38.994354,-76.939873,0.05,28.0,32.0,3.0,0.8
170,3325701,1746078103346,0.0,126.0,,-0.05,-0.28,1.21,1.0,-1.0,-1.0,1.24,1.26,99.0,9738.0,7.3,2.03,,7.3,0.955,89.8,,50.6,5.0,,,,,,,,,,,,0,0,0,0,0,0,0,0,0,0,0,0,0,0,0,0,,,,,,0.0,,,,,,,
171,3325721,1746078103366,,,,,,,,,,,,,,,,,,,,,,,,,,,,,,,,,,0,0,0,0,0,0,0,0,0,0,0,0,0,0,0,0,,,,,,,,,,,,,
172,3325741,1746078103386,0.0,126.0,,-0.06,-0.25,1.11,0.0,-1.0,-1.0,1.14,1.26,90.0,9566.0,3.4,1.41,,6.4,0.955,89.8,,50.6,5.0,,,,,,,,,,,,0,0,0,0,0,0,0,0,0,0,0,0,0,0,0,0,,,,,,0.0,,,,,,,
173,3325761,1746078103406,,,,,,,,,,,,,,,,,,,,,,,,,,,,,,,,,,0,0,0,0,0,0,0,0,0,0,0,0,0,0,0,0,,,,,,,,,,,,,
174,3325781,1746078103426,0.0,126.0,,-0.06,-0.04,1.07,-1.0,-1.0,-1.0,1.07,1.26,85.0,9036.0,2.6,1.4,,6.4,0.955,89.8,,51.2,5.0,0.0,0.0,0.0,0.0,0.0,0.0,0.0,0.0,2.25,,,0,0,0,0,0,0,0,0,0,0,0,0,0,0,0,0,,0.0,,,,0.0,38.994354,-76.939873,0.1,28.0,32.0,3.0,0.8
175,3325801,1746078103446,,,,,,,,,,,,,,,,,,,,,,,,,,,,,,,,,,0,0,0,0,0,0,0,0,0,0,0,0,0,0,0,0,,,,,,,,,,,,,
176,3325821,1746078103466,0.0,126.0,,-0.07,-0.11,1.09,-1.0,-1.0,-2.0,1.09,1.26,87.0,9036.0,2.6,1.4,,5.83,0.956,89.8,,51.2,5.0,,,,,,,,,,,,0,0,0,0,0,0,0,0,0,0,0,0,0,0,0,0,,,,,,0.0,,,,,,,
177,3325841,1746078103486,,,,,,,,,,,,,,,,,,,,,,,,,,,,,,,,,,0,0,0,0,0,0,0,0,0,0,0,0,0,0,0,0,,,,,,,,,,,,,
178,3325861,1746078103506,0.0,126.0,,-0.06,-0.24,1.0,-1.0,-1.0,-2.0,1.03,1.26,82.0,8294.0,2.2,1.4,,5.66,0.955,89.8,,50.0,5.0,,,,,,,,,,,,0,0,0,0,0,0,0,0,0,0,0,0,0,0,0,0,,,,,,0.0,,,,,,,
179,3325881,1746078103526,,,,,,,,,,,,,,,,,,,,,,,0.0,0.0,0.0,0.0,0.0,0.0,0.0,0.0,2.25,,,0,0,0,0,0,0,0,0,0,0,0,0,0,0,0,0,,0.0,,,,,38.994354,-76.939873,0.04,28.0,32.0,3.0,0.8
180,3325901,1746078103546,0.0,126.0,,-0.03,-0.32,0.99,-2.0,-1.0,-2.0,1.04,1.26,83.0,7739.0,2.0,1.4,,5.7,0.956,89.8,,50.0,5.0,,,,,,,,,,,,0,0,0,0,0,0,0,0,0,0,0,0,0,0,0,0,,,,,,0.0,,,,,,,
181,3325921,1746078103566,,,,,,,,,,,,,,,,,,,,,,,,,,,,,,,,,,0,0,0,0,0,0,0,0,0,0,0,0,0,0,0,0,,,,,,,,,,,,,
182,3325941,1746078103586,0.0,126.0,,-0.05,-0.29,0.98,-1.0,-1.0,-2.0,1.03,1.26,82.0,7177.0,8.2,1.78,,6.34,0.954,89.8,,50.0,5.0,,,,,,,,,,,,0,0,0,0,0,0,0,0,0,0,0,0,0,0,0,0,,,,,,0.0,,,,,,,
183,3325961,1746078103606,,,,,,,,,,,,,,,,,,,,,,,,,,,,,,,,,,0,0,0,0,0,0,0,0,0,0,0,0,0,0,0,0,,,,,,,,,,,,,
184,3325981,1746078103626,0.0,126.0,,-0.05,-0.25,1.03,0.0,-1.0,-1.0,1.06,1.26,84.0,6660.0,10.9,2.18,,6.34,0.954,89.8,,41.9,5.0,0.0,0.0,0.0,0.0,0.0,0.0,0.0,0.0,2.25,,,0,0,0,0,0,0,0,0,0,0,0,0,0,0,0,0,,0.0,,,,0.0,38.994354,-76.939873,0.0,28.0,32.0,3.0,0.8
185,3326001,1746078103646,,,,,,,,,,,,,,,,,,,,,,,,,,,,,,,,,,0,0,0,0,0,0,0,0,0,0,0,0,0,0,0,0,,,,,,,,,,,,,
186,3326021,1746078103666,0.0,126.0,,-0.06,-0.17,1.02,0.0,-1.0,-1.0,1.03,1.26,82.0,6660.0,10.9,2.18,,7.54,0.951,89.8,,41.9,5.0,,,,,,,,,,,,0,0,0,0,0,0,0,0,0,0,0,0,0,0,0,0,,,,,,0.0,,,,,,,
187,3326041,1746078103686,,,,,,,,,,,,,,,,,,,,,,,,,,,,,,,,,,0,0,0,0,0,0,0,0,0,0,0,0,0,0,0,0,,,,,,,,,,,,,
188,3326061,1746078103708,0.0,126.0,,-0.07,-0.2,1.0,0.0,-1.0,-1.0,1.02,1.26,81.0,6412.0,11.1,2.36,,8.49,0.955,89.8,,34.2,5.0,,,,,,,,,,,,0,0,0,0,0,0,0,0,0,0,0,0,0,0,0,0,,,,,,0.0,,,,,,,
189,3326081,1746078103728,,,,,,,,,,,,,,,,,,,,,,,0.0,0.0,0.0,0.0,0.0,0.0,0.0,0.0,2.24,,,0,0,0,0,0,0,0,0,0,0,0,0,0,0,0,0,,0.0,,,,,38.994354,-76.939873,0.08,28.0,32.0,3.0,0.8
190,3326101,1746078103748,0.0,126.0,,-0.08,-0.19,0.89,0.0,-1.0,0.0,0.91,1.26,73.0,6120.0,11.1,2.5,,9.09,0.956,89.8,,34.2,5.0,,,,,,,,,,,,0,0,0,0,0,0,0,0,0,0,0,0,0,0,0,0,,,,,,0.0,,,,,,,
191,3326121,1746078103768,,,,,,,,,,,,,,,,,,,,,,,,,,,,,,,,,,0,0,0,0,0,0,0,0,0,0,0,0,0,0,0,0,,,,,,,,,,,,,
192,3326141,1746078103788,0.0,126.0,,-0.08,-0.14,0.81,1.0,0.0,1.0,0.82,1.26,65.0,5861.0,10.6,2.57,,9.66,0.955,89.8,,34.2,5.0,,,,,,,,,,,,0,0,0,0,0,0,0,0,0,0,0,0,0,0,0,0,,,,,,0.0,,,,,,,
193,3326161,1746078103806,,,,,,,,,,,,,,,,,,,,,,,,,,,,,,,,,,0,0,0,0,0,0,0,0,0,0,0,0,0,0,0,0,,,,,,,,,,,,,
194,3326181,1746078103826,0.0,126.0,,-0.09,-0.05,0.89,0.0,-1.0,0.0,0.89,1.26,71.0,5682.0,9.9,2.66,,9.66,0.955,89.8,,34.9,5.0,0.0,0.0,0.0,0.0,0.0,0.0,0.0,0.0,2.24,,,0,0,0,0,0,0,0,0,0,0,0,0,0,0,0,0,,0.0,,,,0.0,38.994354,-76.939873,0.08,28.0,32.0,3.0,0.8
195,3326201,1746078103846,,,,,,,,,,,,,,,,,,,,,,,,,,,,,,,,,,0,0,0,0,0,0,0,0,0,0,0,0,0,0,0,0,,,,,,,,,,,,,
196,3326221,1746078103866,0.0,126.0,,-0.09,-0.04,0.88,0.0,-1.0,0.0,0.88,1.26,70.0,5682.0,9.9,2.66,,10.14,0.955,89.8,,34.9,5.0,,,,,,,,,,,,0,0,0,0,0,0,0,0,0,0,0,0,0,0,0,0,,,,,,0.0,,,,,,,
197,3326241,1746078103886,,,,,,,,,,,,,,,,,,,,,,,,,,,,,,,,,,0,0,0,0,0,0,0,0,0,0,0,0,0,0,0,0,,,,,,,,,,,,,
198,3326261,1746078103907,0.0,126.0,,-0.09,-0.02,0.89,0.0,-1.0,0.0,0.89,1.26,71.0,5406.0,14.1,3.11,,11.02,0.955,89.8,,29.0,5.0,,,,,,,,,,,,0,0,0,0,0,0,0,0,0,0,0,0,0,0,0,0,,,,,,0.0,,,,,,,
199,3326281,1746078103927,,,,,,,,,,,,,,,,,,,,,,,0.0,0.0,0.0,0.0,0.0,0.0,0.0,0.0,2.24,,,0,0,0,0,0,0,0,0,0,0,0,0,0,0,0,0,,0.0,,,,,38.994354,-76.939873,0.08,28.0,32.0,3.0,0.8
200,3326301,1746078103947,0.0,126.0,,-0.09,0.0,0.89,1.0,-1.0,1.0,0.89,1.26,71.0,5176.0,14.5,3.63,,11.75,0.951,89.8,,29.0,5.0,,,,,,,,,,,,0,0,0,0,0,0,0,0,0,0,0,0,0,0,0,0,,,,,,0.0,,,,,,,
201,3326321,1746078103967,,,,,,,,,,,,,,,,,,,,,,,,,,,,,,,,,,0,0,0,0,0,0,0,0,0,0,0,0,0,0,0,0,,,,,,,,,,,,,
202,3326341,1746078103987,0.0,126.0,,-0.08,-0.17,0.93,0.0,-1.0,0.0,0.95,1.26,75.0,5075.0,14.6,3.59,,12.2,0.954,89.8,,29.0,5.0,,,,,,,,,,,,0,0,0,0,0,0,0,0,0,0,0,0,0,0,0,0,,,,,,0.0,,,,,,,
203,3326361,1746078103997,,,,,,,,,,,,,,,,,,,,,,,,,,,,,,,,,,0,0,0,0,0,0,0,0,0,0,0,0,0,0,0,0,,,,,,,,,,,,,
204,3326381,1746078104017,0.0,126.0,13.34,-0.06,-0.14,0.93,0.0,-1.0,0.0,0.95,1.26,75.0,4953.0,8.0,3.02,15.0,12.2,0.954,89.8,201.0,23.8,5.0,0.0,0.0,0.0,0.0,0.0,0.0,0.0,0.0,2.25,0.0,0.0,0,0,0,0,0,0,0,0,0,0,0,0,0,0,0,0,0.0,0.0,0.0,0.0,0.0,0.0,38.994354,-76.939873,0.04,28.0,32.0,3.0,0.8
205,3326401,1746078104037,,,,,,,,,,,,,,,,,,,,,,,,,,,,,,,,,,0,0,0,0,0,0,0,0,0,0,0,0,0,0,0,0,,,,,,,,,,,,,
206,3326421,1746078104057,0.0,127.0,,-0.08,-0.08,0.94,1.0,-1.0,1.0,0.95,1.26,75.0,4953.0,8.0,3.02,,12.04,0.955,89.8,,23.8,5.0,,,,,,,,,,,,0,0,0,0,0,0,0,0,0,0,0,0,0,0,0,0,,,,,,0.0,,,,,,,
207,3326441,1746078104077,,,,,,,,,,,,,,,,,,,,,,,,,,,,,,,,,,0,0,0,0,0,0,0,0,0,0,0,0,0,0,0,0,,,,,,,,,,,,,
208,3326461,1746078104103,0.0,127.0,,-0.08,-0.05,0.89,2.0,-1.0,2.0,0.89,1.26,71.0,4818.0,3.3,3.25,,11.58,0.955,89.8,,22.2,5.0,,,,,,,,,,,,0,0,0,0,0,0,0,0,0,0,0,0,0,0,0,0,,,,,,0.0,,,,,,,
209,3326481,1746078104123,,,,,,,,,,,,,,,,,,,,,,,0.0,0.0,0.0,0.0,0.0,0.0,0.0,0.0,2.24,,,0,0,0,0,0,0,0,0,0,0,0,0,0,0,0,0,,0.0,,,,,38.994354,-76.939873,0.06,28.0,32.0,3.0,0.8
210,3326501,1746078104143,0.0,127.0,,-0.06,-0.05,0.95,3.0,-1.0,3.0,0.95,1.26,76.0,4665.0,2.1,3.1,,11.33,0.956,89.8,,22.2,5.0,,,,,,,,,,,,0,0,0,0,0,0,0,0,0,0,0,0,0,0,0,0,,,,,,0.0,,,,,,,
211,3326521,1746078104163,,,,,,,,,,,,,,,,,,,,,,,,,,,,,,,,,,0,0,0,0,0,0,0,0,0,0,0,0,0,0,0,0,,,,,,,,,,,,,
212,3326541,1746078104183,0.0,127.0,,-0.06,-0.04,1.03,3.0,0.0,4.0,1.04,1.26,82.0,4480.0,2.1,3.14,,11.14,0.955,89.8,,22.2,5.0,,,,,,,,,,,,0,0,0,0,0,0,0,0,0,0,0,0,0,0,0,0,,,,,,0.0,,,,,,,
213,3326561,1746078104205,,,,,,,,,,,,,,,,,,,,,,,,,,,,,,,,,,0,0,0,0,0,0,0,0,0,0,0,0,0,0,0,0,,,,,,,,,,,,,
214,3326581,1746078104225,0.0,127.0,,-0.06,0.01,0.97,4.0,0.0,4.0,0.97,1.26,77.0,4278.0,9.3,3.59,,11.14,0.955,89.8,,20.5,5.0,0.0,0.0,0.0,0.0,0.0,0.0,0.0,0.0,2.24,,,0,0,0,0,0,0,0,0,0,0,0,0,0,0,0,0,,0.0,,,,0.0,38.994354,-76.939873,0.05,28.0,32.0,3.0,0.8
215,3326601,1746078104245,,,,,,,,,,,,,,,,,,,,,,,,,,,,,,,,,,0,0,0,0,0,0,0,0,0,0,0,0,0,0,0,0,,,,,,,,,,,,,
216,3326621,1746078104265,0.0,126.0,,-0.08,-0.01,0.92,3.0,0.0,3.0,0.92,1.26,73.0,4278.0,9.3,3.59,,11.57,0.956,89.8,,20.5,5.0,,,,,,,,,,,,0,0,0,0,0,0,0,0,0,0,0,0,0,0,0,0,,,,,,0.0,,,,,,,
217,3326641,1746078104285,,,,,,,,,,,,,,,,,,,,,,,,,,,,,,,,,,0,0,0,0,0,0,0,0,0,0,0,0,0,0,0,0,,,,,,,,,,,,,
218,3326661,1746078104305,0.0,127.0,,-0.06,-0.21,0.95,1.0,0.0,1.0,0.97,1.26,77.0,4171.0,13.5,4.27,,12.27,0.955,89.8,,19.5,5.0,,,,,,,,,,,,0,0,0,0,0,0,0,0,0,0,0,0,0,0,0,0,,,,,,0.0,,,,,,,
219,3326681,1746078104325,,,,,,,,,,,,,,,,,,,,,,,0.0,0.0,0.0,0.0,0.0,0.0,0.0,0.0,2.25,,,0,0,0,0,0,0,0,0,0,0,0,0,0,0,0,0,,0.0,,,,,38.994354,-76.939873,0.04,28.0,32.0,3.0,0.8
220,3326701,1746078104345,0.0,127.0,,-0.05,-0.34,0.96,0.0,0.0,0.0,1.02,1.26,81.0,4077.0,15.9,4.39,,12.79,0.951,89.8,,19.5,5.0,,,,,,,,,,,,0,0,0,0,0,0,0,0,0,0,0,0,0,0,0,0,,,,,,0.0,,,,,,,
221,3326721,1746078104365,,,,,,,,,,,,,,,,,,,,,,,,,,,,,,,,,,0,0,0,0,0,0,0,0,0,0,0,0,0,0,0,0,,,,,,,,,,,,,
222,3326741,1746078104385,0.0,127.0,,-0.06,-0.29,0.84,1.0,0.0,1.0,0.89,1.26,71.0,4040.0,16.8,4.46,,13.19,0.955,89.8,,19.5,5.0,,,,,,,,,,,,0,0,0,0,0,0,0,0,0,0,0,0,0,0,0,0,,,,,,0.0,,,,,,,
223,3326761,1746078104407,,,,,,,,,,,,,,,,,,,,,,,,,,,,,,,,,,0,0,0,0,0,0,0,0,0,0,0,0,0,0,0,0,,,,,,,,,,,,,
224,3326781,1746078104427,0.0,127.0,,-0.06,-0.24,1.0,2.0,-1.0,0.0,1.03,1.26,82.0,4082.0,16.9,4.37,,13.19,0.955,89.8,,19.0,5.0,0.0,0.0,0.0,0.0,0.0,0.0,0.0,0.0,2.24,,,0,0,0,0,0,0,0,0,0,0,0,0,0,0,0,0,,0.0,,,,0.0,38.994354,-76.939873,0.0,28.0,32.0,3.0,0.8
225,3326801,1746078104447,,,,,,,,,,,,,,,,,,,,,,,,,,,,,,,,,,0,0,0,0,0,0,0,0,0,0,0,0,0,0,0,0,,,,,,,,,,,,,
226,3326821,1746078104467,0.0,127.0,,-0.07,-0.33,0.9,1.0,0.0,1.0,0.96,1.26,76.0,4082.0,16.9,4.37,,13.25,0.956,89.8,,19.0,5.0,,,,,,,,,,,,0,0,0,0,0,0,0,0,0,0,0,0,0,0,0,0,,,,,,0.0,,,,,,,
227,3326841,1746078104487,,,,,,,,,,,,,,,,,,,,,,,,,,,,,,,,,,0,0,0,0,0,0,0,0,0,0,0,0,0,0,0,0,,,,,,,,,,,,,
228,3326861,1746078104507,0.0,127.0,,-0.06,-0.11,0.99,-1.0,-1.0,-1.0,1.0,1.26,79.0,4178.0,11.9,4.35,,13.11,0.955,89.8,,19.1,5.0,,,,,,,,,,,,0,0,0,0,0,0,0,0,0,0,0,0,0,0,0,0,,,,,,0.0,,,,,,,
229,3326881,1746078104527,,,,,,,,,,,,,,,,,,,,,,,0.0,0.0,0.0,0.0,0.0,0.0,0.0,0.0,2.25,,,0,0,0,0,0,0,0,0,0,0,0,0,0,0,0,0,,0.0,,,,,38.994354,-76.939873,0.0,28.0,32.0,3.0,0.8
230,3326901,1746078104547,0.0,127.0,,-0.04,-0.15,0.92,-2.0,0.0,-2.0,0.93,1.26,74.0,4126.0,10.2,4.1,,12.92,0.956,89.8,,19.1,5.0,,,,,,,,,,,,0,0,0,0,0,0,0,0,0,0,0,0,0,0,0,0,,,,,,0.0,,,,,,,
231,3326921,1746078104567,,,,,,,,,,,,,,,,,,,,,,,,,,,,,,,,,,0,0,0,0,0,0,0,0,0,0,0,0,0,0,0,0,,,,,,,,,,,,,
232,3326941,1746078104587,0.0,127.0,,-0.05,-0.17,0.97,-3.0,0.0,-3.0,0.99,1.26,79.0,4059.0,10.3,4.09,,12.81,0.953,89.8,,19.1,5.0,,,,,,,,,,,,0,0,0,0,0,0,0,0,0,0,0,0,0,0,0,0,,,,,,0.0,,,,,,,
233,3326961,1746078104607,,,,,,,,,,,,,,,,,,,,,,,,,,,,,,,,,,0,0,0,0,0,0,0,0,0,0,0,0,0,0,0,0,,,,,,,,,,,,,
234,3326981,1746078104627,0.0,127.0,,-0.05,-0.14,0.86,-3.0,0.0,-3.0,0.87,1.26,69.0,4056.0,21.4,4.79,,12.81,0.953,89.8,,19.2,5.0,0.0,0.0,0.0,0.0,0.0,0.0,0.0,0.0,2.24,,,0,0,0,0,0,0,0,0,0,0,0,0,0,0,0,0,,0.0,,,,0.0,38.994354,-76.939873,0.08,28.0,32.0,3.0,0.8
235,3327001,1746078104647,,,,,,,,,,,,,,,,,,,,,,,,,,,,,,,,,,0,0,0,0,0,0,0,0,0,0,0,0,0,0,0,0,,,,,,,,,,,,,
236,3327021,1746078104667,0.0,127.0,,-0.05,-0.07,0.97,-2.0,0.0,-2.0,0.98,1.26,78.0,4056.0,21.4,4.79,,13.29,0.953,89.8,,19.2,5.0,,,,,,,,,,,,0,0,0,0,0,0,0,0,0,0,0,0,0,0,0,0,,,,,,0.0,,,,,,,
237,3327041,1746078104687,,,,,,,,,,,,,,,,,,,,,,,,,,,,,,,,,,0,0,0,0,0,0,0,0,0,0,0,0,0,0,0,0,,,,,,,,,,,,,
238,3327061,1746078104707,0.0,127.0,,-0.07,-0.09,0.86,-1.0,0.0,0.0,0.87,1.26,69.0,4165.0,26.3,4.94,,13.77,0.954,89.8,,19.0,5.0,,,,,,,,,,,,0,0,0,0,0,0,0,0,0,0,0,0,0,0,0,0,,,,,,0.0,,,,,,,
239,3327081,1746078104727,,,,,,,,,,,,,,,,,,,,,,,0.0,0.0,0.0,0.0,0.0,0.0,0.0,0.0,2.24,,,0,0,0,0,0,0,0,0,0,0,0,0,0,0,0,0,,0.0,,,,,38.994354,-76.939873,0.04,28.0,32.0,3.0,0.8
240,3327101,1746078104747,0.0,127.0,,-0.08,-0.08,0.84,0.0,-1.0,0.0,0.85,1.26,67.0,4302.0,26.4,4.75,,13.77,0.955,89.8,,19.0,5.0,,,,,,,,,,,,0,0,0,0,0,0,0,0,0,0,0,0,0,0,0,0,,,,,,0.0,,,,,,,
241,3327121,1746078104767,,,,,,,,,,,,,,,,,,,,,,,,,,,,,,,,,,0,0,0,0,0,0,0,0,0,0,0,0,0,0,0,0,,,,,,,,,,,,,
242,3327141,1746078104787,0.0,127.0,,-0.09,-0.08,0.84,-1.0,-1.0,1.0,0.85,1.26,67.0,4501.0,19.9,4.48,,13.6,0.955,89.8,,19.0,5.0,,,,,,,,,,,,0,0,0,0,0,0,0,0,0,0,0,0,0,0,0,0,,,,,,0.0,,,,,,,
243,3327161,1746078104807,,,,,,,,,,,,,,,,,,,,,,,,,,,,,,,,,,0,0,0,0,0,0,0,0,0,0,0,0,0,0,0,0,,,,,,,,,,,,,
244,3327181,1746078104827,0.0,127.0,,-0.1,-0.08,0.77,0.0,-1.0,2.0,0.78,1.26,62.0,4607.0,8.3,3.68,,13.6,0.955,89.8,,21.0,5.0,0.0,0.0,0.0,0.0,0.0,0.0,0.0,0.0,2.24,,,0,0,0,0,0,0,0,0,0,0,0,0,0,0,0,0,,0.0,,,,0.0,38.994354,-76.939873,0.0,28.0,32.0,3.0,0.8
245,3327201,1746078104847,,,,,,,,,,,,,,,,,,,,,,,,,,,,,,,,,,0,0,0,0,0,0,0,0,0,0,0,0,0,0,0,0,,,,,,,,,,,,,
246,3327221,1746078104867,0.0,127.0,,-0.08,-0.21,0.69,-1.0,-1.0,2.0,0.73,1.26,58.0,4607.0,8.3,3.68,,13.0,0.955,89.8,,21.0,5.0,,,,,,,,,,,,0,0,0,0,0,0,0,0,0,0,0,0,0,0,0,0,,,,,,0.0,,,,,,,
247,3327241,1746078104887,,,,,,,,,,,,,,,,,,,,,,,,,,,,,,,,,,0,0,0,0,0,0,0,0,0,0,0,0,0,0,0,0,,,,,,,,,,,,,
248,3327261,1746078104906,0.0,127.0,,-0.09,-0.1,0.66,-1.0,-1.0,2.0,0.67,1.26,53.0,4544.0,3.2,3.46,,12.32,0.955,89.8,,20.9,5.0,,,,,,,,,,,,0,0,0,0,0,0,0,0,0,0,0,0,0,0,0,0,,,,,,0.0,,,,,,,
249,3327281,1746078104926,,,,,,,,,,,,,,,,,,,,,,,0.0,0.0,0.0,0.0,0.0,0.0,0.0,0.0,2.25,,,0,0,0,0,0,0,0,0,0,0,0,0,0,0,0,0,,0.0,,,,,38.994354,-76.939873,0.0,28.0,32.0,3.0,0.8
250,3327301,1746078104946,0.0,127.0,,-0.07,-0.15,0.61,-1.0,-1.0,3.0,0.63,1.26,50.0,4478.0,2.7,3.37,,12.01,0.956,89.8,,20.9,5.0,,,,,,,,,,,,0,0,0,0,0,0,0,0,0,0,0,0,0,0,0,0,,,,,,0.0,,,,,,,
251,3327321,1746078104966,,,,,,,,,,,,,,,,,,,,,,,,,,,,,,,,,,0,0,0,0,0,0,0,0,0,0,0,0,0,0,0,0,,,,,,,,,,,,,
252,3327341,1746078104986,0.0,127.0,,-0.07,-0.14,0.57,-1.0,-1.0,3.0,0.59,1.26,47.0,4354.0,8.8,3.81,,12.01,0.953,89.8,,20.9,5.0,,,,,,,,,,,,0,0,0,0,0,0,0,0,0,0,0,0,0,0,0,0,,,,,,0.0,,,,,,,
253,3327361,1746078104998,,,,,,,,,,,,,,,,,,,,,,,,,,,,,,,,,,0,0,0,0,0,0,0,0,0,0,0,0,0,0,0,0,,,,,,,,,,,,,
254,3327381,1746078105018,0.0,127.0,13.39,-0.08,-0.21,0.68,-1.0,-1.0,2.0,0.72,1.26,57.0,4258.0,17.7,4.43,15.0,12.01,0.953,89.8,201.0,19.7,5.0,0.0,0.0,0.0,0.0,0.0,0.0,0.0,0.0,2.25,0.0,0.0,0,0,0,0,0,0,0,0,0,0,0,0,0,0,0,0,0.0,0.0,0.0,0.0,0.0,0.0,38.994354,-76.939873,0.04,28.0,32.0,3.0,0.8
255,3327401,1746078105038,,,,,,,,,,,,,,,,,,,,,,,,,,,,,,,,,,0,0,0,0,0,0,0,0,0,0,0,0,0,0,0,0,,,,,,,,,,,,,
256,3327421,1746078105058,0.0,128.0,,-0.08,-0.21,0.74,0.0,-1.0,2.0,0.77,1.26,61.0,4258.0,17.7,4.43,,12.68,0.954,89.8,,19.7,5.0,,,,,,,,,,,,0,0,0,0,0,0,0,0,0,0,0,0,0,0,0,0,,,,,,0.0,,,,,,,
257,3327441,1746078105078,,,,,,,,,,,,,,,,,,,,,,,,,,,,,,,,,,0,0,0,0,0,0,0,0,0,0,0,0,0,0,0,0,,,,,,,,,,,,,
258,3327461,1746078105106,0.0,128.0,,-0.09,-0.19,0.7,0.0,-1.0,1.0,0.73,1.26,58.0,4215.0,21.6,4.72,,13.36,0.955,89.8,,19.3,5.0,,,,,,,,,,,,0,0,0,0,0,0,0,0,0,0,0,0,0,0,0,0,,,,,,0.0,,,,,,,
259,3327481,1746078105126,,,,,,,,,,,,,,,,,,,,,,,0.0,0.0,0.0,0.0,0.0,0.0,0.0,0.0,2.24,,,0,0,0,0,0,0,0,0,0,0,0,0,0,0,0,0,,0.0,,,,,38.994354,-76.939873,0.05,28.0,32.0,3.0,0.8
260,3327501,1746078105146,0.0,127.0,,-0.09,-0.18,0.83,0.0,-1.0,0.0,0.85,1.26,67.0,4262.0,21.9,4.69,,13.49,0.955,89.8,,19.3,5.0,,,,,,,,,,,,0,0,0,0,0,0,0,0,0,0,0,0,0,0,0,0,,,,,,0.0,,,,,,,
261,3327521,1746078105166,,,,,,,,,,,,,,,,,,,,,,,,,,,,,,,,,,0,0,0,0,0,0,0,0,0,0,0,0,0,0,0,0,,,,,,,,,,,,,
262,3327541,1746078105186,0.0,127.0,,-0.08,-0.17,0.98,1.0,-1.0,0.0,1.0,1.26,80.0,4387.0,16.2,4.3,,13.41,0.955,89.8,,19.3,5.0,,,,,,,,,,,,0,0,0,0,0,0,0,0,0,0,0,0,0,0,0,0,,,,,,0.0,,,,,,,
263,3327561,1746078105202,,,,,,,,,,,,,,,,,,,,,,,,,,,,,,,,,,0,0,0,0,0,0,0,0,0,0,0,0,0,0,0,0,,,,,,,,,,,,,
264,3327581,1746078105222,0.0,128.0,,-0.03,-0.11,1.03,0.0,-1.0,0.0,1.03,1.26,82.0,4428.0,13.4,4.15,,13.41,0.955,89.8,,20.1,5.0,0.0,0.0,0.0,0.0,0.0,0.0,0.0,0.0,2.25,,,0,0,0,0,0,0,0,0,0,0,0,0,0,0,0,0,,0.0,,,,0.0,38.994354,-76.939873,0.04,28.0,32.0,3.0,0.8
265,3327601,1746078105242,,,,,,,,,,,,,,,,,,,,,,,,,,,,,,,,,,0,0,0,0,0,0,0,0,0,0,0,0,0,0,0,0,,,,,,,,,,,,,
266,3327621,1746078105262,0.0,128.0,,-0.03,-0.21,0.95,0.0,0.0,0.0,0.97,1.26,77.0,4428.0,13.4,4.15,,13.15,0.954,89.8,,20.1,5.0,,,,,,,,,,,,0,0,0,0,0,0,0,0,0,0,0,0,0,0,0,0,,,,,,0.0,,,,,,,
267,3327641,1746078105282,,,,,,,,,,,,,,,,,,,,,,,,,,,,,,,,,,0,0,0,0,0,0,0,0,0,0,0,0,0,0,0,0,,,,,,,,,,,,,
268,3327661,1746078105306,0.0,128.0,,-0.03,-0.18,0.84,2.0,0.0,2.0,0.86,1.26,68.0,4433.0,13.3,4.12,,12.93,0.95,89.8,,19.7,5.0,,,,,,,,,,,,0,0,0,0,0,0,0,0,0,0,0,0,0,0,0,0,,,,,,0.0,,,,,,,
269,3327681,1746078105326,,,,,,,,,,,,,,,,,,,,,,,0.0,0.0,0.0,0.0,0.0,0.0,0.0,0.0,2.24,,,0,0,0,0,0,0,0,0,0,0,0,0,0,0,0,0,,0.0,,,,,38.994354,-76.939873,0.11,28.0,32.0,3.0,0.8
270,3327701,1746078105346,0.0,128.0,,-0.04,-0.12,0.71,2.0,-1.0,2.0,0.73,1.26,58.0,4347.0,25.4,4.73,,13.53,0.954,89.8,,19.7,5.0,,,,,,,,,,,,0,0,0,0,0,0,0,0,0,0,0,0,0,0,0,0,,,,,,0.0,,,,,,,
271,3327721,1746078105366,,,,,,,,,,,,,,,,,,,,,,,,,,,,,,,,,,0,0,0,0,0,0,0,0,0,0,0,0,0,0,0,0,,,,,,,,,,,,,
272,3327741,1746078105386,0.0,128.0,,-0.05,-0.17,0.67,1.0,-1.0,1.0,0.69,1.26,55.0,4458.0,27.6,4.97,,13.79,0.955,89.8,,19.7,5.0,,,,,,,,,,,,0,0,0,0,0,0,0,0,0,0,0,0,0,0,0,0,,,,,,0.0,,,,,,,
273,3327761,1746078105406,,,,,,,,,,,,,,,,,,,,,,,,,,,,,,,,,,0,0,0,0,0,0,0,0,0,0,0,0,0,0,0,0,,,,,,,,,,,,,
274,3327781,1746078105426,0.0,127.0,,-0.04,-0.19,0.61,0.0,-1.0,1.0,0.64,1.26,51.0,4685.0,27.7,4.82,,13.79,0.955,89.8,,20.6,5.0,0.0,0.0,0.0,0.0,0.0,0.0,0.0,0.0,2.24,,,0,0,0,0,0,0,0,0,0,0,0,0,0,0,0,0,,0.0,,,,0.0,38.994354,-76.939873,0.0,28.0,32.0,3.0,0.8
275,3327801,1746078105446,,,,,,,,,,,,,,,,,,,,,,,,,,,,,,,,,,0,0,0,0,0,0,0,0,0,0,0,0,0,0,0,0,,,,,,,,,,,,,
276,3327821,1746078105466,0.0,128.0,,-0.03,-0.19,0.69,-2.0,-1.0,0.0,0.72,1.26,57.0,4685.0,27.7,4.82,,13.86,0.956,89.8,,20.6,5.0,,,,,,,,,,,,0,0,0,0,0,0,0,0,0,0,0,0,0,0,0,0,,,,,,0.0,,,,,,,
277,3327841,1746078105486,,,,,,,,,,,,,,,,,,,,,,,,,,,,,,,,,,0,0,0,0,0,0,0,0,0,0,0,0,0,0,0,0,,,,,,,,,,,,,
278,3327861,1746078105506,0.0,128.0,,-0.03,-0.18,0.71,-2.0,-1.0,0.0,0.73,1.26,58.0,4890.0,20.8,4.08,,13.56,0.955,89.8,,20.6,5.0,,,,,,,,,,,,0,0,0,0,0,0,0,0,0,0,0,0,0,0,0,0,,,,,,0.0,,,,,,,
279,3327881,1746078105526,,,,,,,,,,,,,,,,,,,,,,,0.0,0.0,0.0,0.0,0.0,0.0,0.0,0.0,2.24,,,0,0,0,0,0,0,0,0,0,0,0,0,0,0,0,0,,0.0,,,,,38.994354,-76.939873,0.04,28.0,32.0,3.0,0.8
280,3327901,1746078105546,0.0,128.0,,-0.04,-0.13,0.73,-2.0,-1.0,-1.0,0.74,1.26,59.0,5064.0,11.8,3.73,,12.89,0.955,89.8,,23.0,5.0,,,,,,,,,,,,0,0,0,0,0,0,0,0,0,0,0,0,0,0,0,0,,,,,,0.0,,,,,,,
281,3327921,1746078105566,,,,,,,,,,,,,,,,,,,,,,,,,,,,,,,,,,0,0,0,0,0,0,0,0,0,0,0,0,0,0,0,0,,,,,,,,,,,,,
282,3327941,1746078105586,0.0,128.0,,-0.05,-0.12,0.81,-2.0,-1.0,-2.0,0.82,1.26,65.0,5056.0,7.6,3.1,,12.37,0.955,89.8,,23.0,5.0,,,,,,,,,,,,0,0,0,0,0,0,0,0,0,0,0,0,0,0,0,0,,,,,,0.0,,,,,,,
283,3327961,1746078105606,,,,,,,,,,,,,,,,,,,,,,,,,,,,,,,,,,0,0,0,0,0,0,0,0,0,0,0,0,0,0,0,0,,,,,,,,,,,,,
284,3327981,1746078105626,0.0,127.0,,-0.05,-0.22,0.85,-3.0,-1.0,-1.0,0.88,1.26,70.0,4935.0,7.2,3.04,,12.37,0.955,89.8,,23.0,5.0,0.0,0.0,0.0,0.0,0.0,0.0,0.0,0.0,2.24,,,0,0,0,0,0,0,0,0,0,0,0,0,0,0,0,0,,0.0,,,,0.0,38.994354,-76.939873,0.07,28.0,32.0,3.0,0.8
285,3328001,1746078105646,,,,,,,,,,,,,,,,,,,,,,,,,,,,,,,,,,0,0,0,0,0,0,0,0,0,0,0,0,0,0,0,0,,,,,,,,,,,,,
286,3328021,1746078105666,0.0,128.0,,-0.06,-0.22,0.83,-2.0,-1.0,-1.0,0.86,1.26,68.0,4935.0,7.2,3.04,,12.09,0.954,89.8,,23.0,5.0,,,,,,,,,,,,0,0,0,0,0,0,0,0,0,0,0,0,0,0,0,0,,,,,,0.0,,,,,,,
287,3328041,1746078105686,,,,,,,,,,,,,,,,,,,,,,,,,,,,,,,,,,0,0,0,0,0,0,0,0,0,0,0,0,0,0,0,0,,,,,,,,,,,,,
288,3328061,1746078105706,0.0,128.0,,-0.06,-0.14,0.84,-1.0,-1.0,0.0,0.85,1.26,68.0,4806.0,7.2,3.16,,11.93,0.953,89.8,,21.7,5.0,,,,,,,,,,,,0,0,0,0,0,0,0,0,0,0,0,0,0,0,0,0,,,,,,0.0,,,,,,,
289,3328081,1746078105726,,,,,,,,,,,,,,,,,,,,,,,0.0,0.0,0.0,0.0,0.0,0.0,0.0,0.0,2.24,,,0,0,0,0,0,0,0,0,0,0,0,0,0,0,0,0,,0.0,,,,,38.994354,-76.939873,0.04,28.0,32.0,3.0,0.8
290,3328101,1746078105746,0.0,128.0,,-0.05,-0.11,0.96,0.0,-1.0,0.0,0.97,1.26,77.0,4665.0,13.2,3.94,,12.33,0.955,89.8,,21.7,5.0,,,,,,,,,,,,0,0,0,0,0,0,0,0,0,0,0,0,0,0,0,0,,,,,,0.0,,,,,,,
291,3328121,1746078105766,,,,,,,,,,,,,,,,,,,,,,,,,,,,,,,,,,0,0,0,0,0,0,0,0,0,0,0,0,0,0,0,0,,,,,,,,,,,,,
292,3328141,1746078105786,0.0,128.0,,-0.06,-0.06,1.09,-1.0,-1.0,-1.0,1.1,1.26,87.0,4569.0,18.8,3.99,,13.0,0.956,89.8,,21.7,5.0,,,,,,,,,,,,0,0,0,0,0,0,0,0,0,0,0,0,0,0,0,0,,,,,,0.0,,,,,,,
293,3328161,1746078105806,,,,,,,,,,,,,,,,,,,,,,,,,,,,,,,,,,0,0,0,0,0,0,0,0,0,0,0,0,0,0,0,0,,,,,,,,,,,,,
294,3328181,1746078105826,0.0,127.0,,-0.07,-0.01,1.12,-2.0,-1.0,-3.0,1.13,1.26,89.0,4573.0,20.1,4.11,,13.0,0.956,89.8,,20.5,5.0,0.0,0.0,0.0,0.0,0.0,0.0,0.0,0.0,2.24,,,0,0,0,0,0,0,0,0,0,0,0,0,0,0,0,0,,0.0,,,,0.0,38.994354,-76.939873,0.05,28.0,32.0,3.0,0.8
295,3328201,1746078105846,,,,,,,,,,,,,,,,,,,,,,,,,,,,,,,,,,0,0,0,0,0,0,0,0,0,0,0,0,0,0,0,0,,,,,,,,,,,,,
296,3328221,1746078105866,0.0,128.0,,-0.08,0.06,1.08,-2.0,-1.0,-4.0,1.08,1.26,86.0,4573.0,20.1,4.11,,13.29,0.955,89.8,,20.5,5.0,,,,,,,,,,,,0,0,0,0,0,0,0,0,0,0,0,0,0,0,0,0,,,,,,0.0,,,,,,,
297,3328241,1746078105886,,,,,,,,,,,,,,,,,,,,,,,,,,,,,,,,,,0,0,0,0,0,0,0,0,0,0,0,0,0,0,0,0,,,,,,,,,,,,,
298,3328261,1746078105905,0.0,128.0,,-0.1,0.11,1.06,-2.0,-2.0,-3.0,1.07,1.26,85.0,4572.0,20.1,4.12,,13.37,0.955,89.8,,20.7,5.0,,,,,,,,,,,,0,0,0,0,0,0,0,0,0,0,0,0,0,0,0,0,,,,,,0.0,,,,,,,
299,3328281,1746078105925,,,,,,,,,,,,,,,,,,,,,,,0.0,0.0,0.0,0.0,0.0,0.0,0.0,0.0,2.24,,,0,0,0,0,0,0,0,0,0,0,0,0,0,0,0,0,,0.0,,,,,38.994354,-76.939873,0.44,27.9,32.0,3.0,0.8
300,3328301,1746078105945,0.0,129.0,,-0.11,0.18,0.92,-2.0,-2.0,-2.0,0.94,1.26,75.0,4578.0,20.3,4.06,,13.44,0.951,89.8,,20.7,5.0,,,,,,,,,,,,0,0,0,0,0,0,0,0,0,0,0,0,0,0,0,0,,,,,,0.0,,,,,,,
301,3328321,1746078105965,,,,,,,,,,,,,,,,,,,,,,,,,,,,,,,,,,0,0,0,0,0,0,0,0,0,0,0,0,0,0,0,0,,,,,,,,,,,,,
302,3328341,1746078105985,0.0,129.0,,-0.07,-0.03,0.8,-3.0,-1.0,-3.0,0.8,1.26,64.0,4602.0,16.0,3.88,,13.21,0.953,89.8,,20.7,5.0,,,,,,,,,,,,0,0,0,0,0,0,0,0,0,0,0,0,0,0,0,0,,,,,,0.0,,,,,,,
303,3328361,1746078105997,,,,,,,,,,,,,,,,,,,,,,,,,,,,,,,,,,0,0,0,0,0,0,0,0,0,0,0,0,0,0,0,0,,,,,,,,,,,,,
304,3328381,1746078106017,0.0,128.0,13.4,-0.06,-0.13,0.78,-2.0,-1.0,-3.0,0.8,1.26,63.0,4602.0,16.0,3.88,15.0,13.21,0.953,89.8,200.0,20.8,5.0,0.0,0.0,0.0,0.0,0.0,0.0,0.0,0.0,2.24,0.0,0.0,0,0,0,0,0,0,0,0,0,0,0,0,0,0,0,0,0.0,0.0,0.0,0.0,0.0,0.0,38.994354,-76.939873,0.65,27.9,32.0,3.0,0.8
305,3328401,1746078106037,,,,,,,,,,,,,,,,,,,,,,,,,,,,,,,,,,0,0,0,0,0,0,0,0,0,0,0,0,0,0,0,0,,,,,,,,,,,,,
306,3328421,1746078106057,0.0,129.0,,-0.04,-0.07,0.86,-2.0,-1.0,-2.0,0.86,1.26,68.0,4582.0,11.3,3.88,,12.91,0.955,89.8,,20.8,5.0,,,,,,,,,,,,0,0,0,0,0,0,0,0,0,0,0,0,0,0,0,0,,,,,,0.0,,,,,,,
307,3328441,1746078106077,,,,,,,,,,,,,,,,,,,,,,,,,,,,,,,,,,0,0,0,0,0,0,0,0,0,0,0,0,0,0,0,0,,,,,,,,,,,,,
308,3328461,1746078106103,0.0,128.0,,-0.02,-0.03,0.93,0.0,-1.0,-1.0,0.93,1.26,74.0,4533.0,9.0,3.67,,12.64,0.955,89.8,,20.8,5.0,,,,,,,,,,,,0,0,0,0,0,0,0,0,0,0,0,0,0,0,0,0,,,,,,0.0,,,,,,,
309,3328481,1746078106123,,,,,,,,,,,,,,,,,,,,,,,0.0,0.0,0.0,0.0,0.0,0.0,0.0,0.0,2.24,,,0,0,0,0,0,0,0,0,0,0,0,0,0,0,0,0,,0.0,,,,,38.994354,-76.939873,0.15,27.9,32.0,3.0,0.8
310,3328501,1746078106143,0.0,129.0,,-0.02,-0.0,0.91,0.0,0.0,-1.0,0.91,1.26,72.0,4454.0,8.7,3.65,,12.49,0.956,89.8,,20.5,5.0,,,,,,,,,,,,0,0,0,0,0,0,0,0,0,0,0,0,0,0,0,0,,,,,,0.0,,,,,,,
311,3328521,1746078106163,,,,,,,,,,,,,,,,,,,,,,,,,,,,,,,,,,0,0,0,0,0,0,0,0,0,0,0,0,0,0,0,0,,,,,,,,,,,,,
312,3328541,1746078106183,0.0,128.0,,-0.03,-0.01,0.82,0.0,0.0,-1.0,0.82,1.26,65.0,4366.0,14.0,3.98,,12.61,0.955,89.8,,20.5,5.0,,,,,,,,,,,,0,0,0,0,0,0,0,0,0,0,0,0,0,0,0,0,,,,,,0.0,,,,,,,
313,3328561,1746078106203,,,,,,,,,,,,,,,,,,,,,,,,,,,,,,,,,,0,0,0,0,0,0,0,0,0,0,0,0,0,0,0,0,,,,,,,,,,,,,
314,3328581,1746078106223,0.0,128.0,,-0.05,-0.03,0.81,1.0,-1.0,0.0,0.82,1.26,65.0,4278.0,21.1,4.19,,12.61,0.955,89.8,,19.3,5.0,0.0,0.0,0.0,0.0,0.0,0.0,0.0,0.0,2.24,,,0,0,0,0,0,0,0,0,0,0,0,0,0,0,0,0,,0.0,,,,0.0,38.994354,-76.939873,0.05,27.9,32.0,3.0,0.8
315,3328601,1746078106243,,,,,,,,,,,,,,,,,,,,,,,,,,,,,,,,,,0,0,0,0,0,0,0,0,0,0,0,0,0,0,0,0,,,,,,,,,,,,,
316,3328621,1746078106263,0.0,129.0,,-0.05,-0.05,0.94,1.0,-1.0,0.0,0.94,1.26,75.0,4278.0,21.1,4.19,,13.31,0.955,89.8,,19.3,5.0,,,,,,,,,,,,0,0,0,0,0,0,0,0,0,0,0,0,0,0,0,0,,,,,,0.0,,,,,,,
317,3328641,1746078106283,,,,,,,,,,,,,,,,,,,,,,,,,,,,,,,,,,0,0,0,0,0,0,0,0,0,0,0,0,0,0,0,0,,,,,,,,,,,,,
318,3328661,1746078106305,0.0,128.0,,-0.05,-0.13,1.04,1.0,-1.0,0.0,1.05,1.26,84.0,4336.0,22.2,4.33,,13.55,0.955,89.8,,19.9,5.0,,,,,,,,,,,,0,0,0,0,0,0,0,0,0,0,0,0,0,0,0,0,,,,,,0.0,,,,,,,
319,3328681,1746078106325,,,,,,,,,,,,,,,,,,,,,,,0.0,0.0,0.0,0.0,0.0,0.0,0.0,0.0,2.24,,,0,0,0,0,0,0,0,0,0,0,0,0,0,0,0,0,,0.0,,,,,38.994354,-76.939873,0.16,27.9,32.0,3.0,0.8
320,3328701,1746078106345,0.0,129.0,,-0.02,-0.26,1.11,1.0,-1.0,-1.0,1.14,1.26,91.0,4441.0,22.3,4.56,,13.59,0.952,89.8,,19.9,5.0,,,,,,,,,,,,0,0,0,0,0,0,0,0,0,0,0,0,0,0,0,0,,,,,,0.0,,,,,,,
321,3328721,1746078106365,,,,,,,,,,,,,,,,,,,,,,,,,,,,,,,,,,0,0,0,0,0,0,0,0,0,0,0,0,0,0,0,0,,,,,,,,,,,,,
322,3328741,1746078106385,0.0,129.0,,-0.01,-0.24,1.2,0.0,0.0,-1.0,1.22,1.26,97.0,4596.0,19.8,4.41,,13.52,0.956,89.8,,19.9,5.0,,,,,,,,,,,,0,0,0,0,0,0,0,0,0,0,0,0,0,0,0,0,,,,,,0.0,,,,,,,
323,3328761,1746078106405,,,,,,,,,,,,,,,,,,,,,,,,,,,,,,,,,,0,0,0,0,0,0,0,0,0,0,0,0,0,0,0,0,,,,,,,,,,,,,
324,3328781,1746078106425,0.0,128.0,,-0.03,-0.28,1.26,-1.0,-1.0,-3.0,1.29,1.29,100.0,4658.0,14.7,4.21,,13.52,0.956,89.8,,20.9,5.0,0.0,0.0,0.0,0.0,0.0,0.0,0.0,0.0,2.25,,,0,0,0,0,0,0,0,0,0,0,0,0,0,0,0,0,,0.0,,,,0.0,38.994354,-76.939873,0.11,27.9,32.0,3.0,0.8
325,3328801,1746078106445,,,,,,,,,,,,,,,,,,,,,,,,,,,,,,,,,,0,0,0,0,0,0,0,0,0,0,0,0,0,0,0,0,,,,,,,,,,,,,
326,3328821,1746078106465,0.0,129.0,,-0.05,-0.31,1.2,-1.0,-1.0,-3.0,1.24,1.29,97.0,4658.0,14.7,4.21,,13.13,0.955,89.8,,20.9,5.0,,,,,,,,,,,,0,0,0,0,0,0,0,0,0,0,0,0,0,0,0,0,,,,,,0.0,,,,,,,
327,3328841,1746078106485,,,,,,,,,,,,,,,,,,,,,,,,,,,,,,,,,,0,0,0,0,0,0,0,0,0,0,0,0,0,0,0,0,,,,,,,,,,,,,
328,3328861,1746078106505,0.0,129.0,,-0.08,-0.2,1.05,-1.0,-1.0,-3.0,1.07,1.29,83.0,4641.0,13.9,4.12,,12.97,0.955,89.8,,20.6,5.0,,,,,,,,,,,,0,0,0,0,0,0,0,0,0,0,0,0,0,0,0,0,,,,,,0.0,,,,,,,
329,3328881,1746078106525,,,,,,,,,,,,,,,,,,,,,,,0.0,0.0,0.0,0.0,0.0,0.0,0.0,0.0,2.25,,,0,0,0,0,0,0,0,0,0,0,0,0,0,0,0,0,,0.0,,,,,38.994354,-76.939873,0.08,27.9,32.0,3.0,0.8
330,3328901,1746078106545,0.0,129.0,,-0.09,-0.08,0.91,-2.0,-1.0,-2.0,0.92,1.29,71.0,4604.0,13.8,4.11,,13.01,0.956,89.8,,20.6,5.0,,,,,,,,,,,,0,0,0,0,0,0,0,0,0,0,0,0,0,0,0,0,,,,,,0.0,,,,,,,
331,3328921,1746078106565,,,,,,,,,,,,,,,,,,,,,,,,,,,,,,,,,,0,0,0,0,0,0,0,0,0,0,0,0,0,0,0,0,,,,,,,,,,,,,
332,3328941,1746078106585,0.0,129.0,,-0.06,-0.21,0.83,-3.0,0.0,-3.0,0.86,1.29,67.0,4583.0,16.4,3.92,,13.09,0.953,89.8,,20.6,5.0,,,,,,,,,,,,0,0,0,0,0,0,0,0,0,0,0,0,0,0,0,0,,,,,,0.0,,,,,,,
333,3328961,1746078106605,,,,,,,,,,,,,,,,,,,,,,,,,,,,,,,,,,0,0,0,0,0,0,0,0,0,0,0,0,0,0,0,0,,,,,,,,,,,,,
334,3328981,1746078106625,0.0,128.0,,-0.05,-0.16,0.83,-3.0,0.0,-1.0,0.84,1.29,66.0,4583.0,16.4,3.92,,13.09,0.953,89.8,,20.3,5.0,0.0,0.0,0.0,0.0,0.0,0.0,0.0,0.0,2.24,,,0,0,0,0,0,0,0,0,0,0,0,0,0,0,0,0,,0.0,,,,0.0,38.994354,-76.939873,0.04,27.9,32.0,3.0,0.8
335,3329001,1746078106645,,,,,,,,,,,,,,,,,,,,,,,,,,,,,,,,,,0,0,0,0,0,0,0,0,0,0,0,0,0,0,0,0,,,,,,,,,,,,,
336,3329021,1746078106665,0.0,129.0,,-0.03,-0.09,0.91,-2.0,0.0,-1.0,0.92,1.29,71.0,4567.0,18.3,3.95,,13.35,0.951,89.8,,20.3,5.0,,,,,,,,,,,,0,0,0,0,0,0,0,0,0,0,0,0,0,0,0,0,,,,,,0.0,,,,,,,
337,3329041,1746078106685,,,,,,,,,,,,,,,,,,,,,,,,,,,,,,,,,,0,0,0,0,0,0,0,0,0,0,0,0,0,0,0,0,,,,,,,,,,,,,
338,3329061,1746078106707,0.0,128.0,,-0.02,-0.08,1.02,-2.0,0.0,-2.0,1.02,1.29,79.0,4535.0,18.5,3.97,,13.33,0.955,89.8,,20.4,5.0,,,,,,,,,,,,0,0,0,0,0,0,0,0,0,0,0,0,0,0,0,0,,,,,,0.0,,,,,,,
339,3329081,1746078106727,,,,,,,,,,,,,,,,,,,,,,,0.0,0.0,0.0,0.0,0.0,0.0,0.0,0.0,2.24,,,0,0,0,0,0,0,0,0,0,0,0,0,0,0,0,0,,0.0,,,,,38.994354,-76.939873,0.07,27.9,32.0,3.0,0.8
340,3329101,1746078106747,0.0,129.0,,-0.03,-0.02,1.15,-2.0,0.0,-2.0,1.15,1.29,90.0,4573.0,18.4,3.97,,13.32,0.955,89.8,,20.4,5.0,,,,,,,,,,,,0,0,0,0,0,0,0,0,0,0,0,0,0,0,0,0,,,,,,0.0,,,,,,,
341,3329121,1746078106767,,,,,,,,,,,,,,,,,,,,,,,,,,,,,,,,,,0,0,0,0,0,0,0,0,0,0,0,0,0,0,0,0,,,,,,,,,,,,,
342,3329141,1746078106787,0.0,129.0,,-0.05,-0.02,1.2,-3.0,-1.0,-3.0,1.2,1.29,93.0,4555.0,15.6,3.93,,13.24,0.955,89.8,,20.4,5.0,,,,,,,,,,,,0,0,0,0,0,0,0,0,0,0,0,0,0,0,0,0,,,,,,0.0,,,,,,,
343,3329161,1746078106805,,,,,,,,,,,,,,,,,,,,,,,,,,,,,,,,,,0,0,0,0,0,0,0,0,0,0,0,0,0,0,0,0,,,,,,,,,,,,,
344,3329181,1746078106825,0.0,128.0,,-0.07,-0.09,1.21,-2.0,-1.0,-3.0,1.22,1.29,94.0,4576.0,15.4,3.9,,13.24,0.955,89.8,,20.5,5.0,0.0,0.0,0.0,0.0,0.0,0.0,0.0,0.0,2.25,,,0,0,0,0,0,0,0,0,0,0,0,0,0,0,0,0,,0.0,,,,0.0,38.994354,-76.939873,0.19,27.9,32.0,3.0,0.8
345,3329201,1746078106845,,,,,,,,,,,,,,,,,,,,,,,,,,,,,,,,,,0,0,0,0,0,0,0,0,0,0,0,0,0,0,0,0,,,,,,,,,,,,,
346,3329221,1746078106865,0.0,129.0,,-0.07,-0.1,1.11,0.0,-1.0,-2.0,1.12,1.29,87.0,4576.0,15.4,3.9,,13.09,0.955,89.8,,20.5,5.0,,,,,,,,,,,,0,0,0,0,0,0,0,0,0,0,0,0,0,0,0,0,,,,,,0.0,,,,,,,
347,3329241,1746078106885,,,,,,,,,,,,,,,,,,,,,,,,,,,,,,,,,,0,0,0,0,0,0,0,0,0,0,0,0,0,0,0,0,,,,,,,,,,,,,
348,3329261,1746078106906,0.0,129.0,,-0.08,-0.14,0.97,0.0,-1.0,-1.0,0.98,1.29,76.0,4557.0,15.5,3.9,,13.04,0.955,89.8,,20.7,5.0,,,,,,,,,,,,0,0,0,0,0,0,0,0,0,0,0,0,0,0,0,0,,,,,,0.0,,,,,,,
349,3329281,1746078106926,,,,,,,,,,,,,,,,,,,,,,,0.0,0.0,0.0,0.0,0.0,0.0,0.0,0.0,2.25,,,0,0,0,0,0,0,0,0,0,0,0,0,0,0,0,0,,0.0,,,,,38.994354,-76.939873,0.18,27.9,32.0,3.0,0.8
350,3329301,1746078106946,0.0,129.0,,-0.07,0.04,0.87,-2.0,-1.0,-1.0,0.87,1.29,68.0,4566.0,15.5,3.9,,13.13,0.956,89.8,,20.7,5.0,,,,,,,,,,,,0,0,0,0,0,0,0,0,0,0,0,0,0,0,0,0,,,,,,0.0,,,,,,,
351,3329321,1746078106966,,,,,,,,,,,,,,,,,,,,,,,,,,,,,,,,,,0,0,0,0,0,0,0,0,0,0,0,0,0,0,0,0,,,,,,,,,,,,,
352,3329341,1746078106986,0.0,129.0,,-0.09,0.02,0.73,-1.0,-1.0,0.0,0.74,1.29,57.0,4550.0,15.6,3.88,,13.07,0.953,89.8,,20.7,5.0,,,,,,,,,,,,0,0,0,0,0,0,0,0,0,0,0,0,0,0,0,0,,,,,,0.0,,,,,,,
353,3329361,1746078106998,,,,,,,,,,,,,,,,,,,,,,,,,,,,,,,,,,0,0,0,0,0,0,0,0,0,0,0,0,0,0,0,0,,,,,,,,,,,,,
354,3329381,1746078107018,0.0,129.0,13.39,-0.08,0.02,0.67,0.0,-1.0,1.0,0.68,1.29,53.0,4532.0,15.5,3.89,15.0,13.07,0.953,89.8,200.0,20.2,5.0,0.0,0.0,0.0,0.0,0.0,0.0,0.0,0.0,2.24,0.0,0.0,0,0,0,0,0,0,0,0,0,0,0,0,0,0,0,0,0.0,0.0,0.0,0.0,0.0,0.0,38.994354,-76.939873,0.07,27.9,32.0,3.0,0.8
355,3329401,1746078107038,,,,,,,,,,,,,,,,,,,,,,,,,,,,,,,,,,0,0,0,0,0,0,0,0,0,0,0,0,0,0,0,0,,,,,,,,,,,,,
356,3329421,1746078107058,0.0,129.0,,-0.09,-0.0,0.55,1.0,0.0,2.0,0.56,1.29,44.0,4532.0,15.5,3.89,,13.15,0.954,89.8,,20.2,5.0,,,,,,,,,,,,0,0,0,0,0,0,0,0,0,0,0,0,0,0,0,0,,,,,,0.0,,,,,,,
357,3329441,1746078107078,,,,,,,,,,,,,,,,,,,,,,,,,,,,,,,,,,0,0,0,0,0,0,0,0,0,0,0,0,0,0,0,0,,,,,,,,,,,,,
358,3329461,1746078107102,0.0,129.0,,-0.08,0.01,0.51,1.0,0.0,3.0,0.52,1.29,40.0,4516.0,15.5,3.91,,13.07,0.955,89.8,,19.8,5.0,,,,,,,,,,,,0,0,0,0,0,0,0,0,0,0,0,0,0,0,0,0,,,,,,0.0,,,,,,,
359,3329481,1746078107122,,,,,,,,,,,,,,,,,,,,,,,0.0,0.0,0.0,0.0,0.0,0.0,0.0,0.0,2.25,,,0,0,0,0,0,0,0,0,0,0,0,0,0,0,0,0,,0.0,,,,,38.994354,-76.939873,0.04,27.9,32.0,3.0,0.8
360,3329501,1746078107142,0.0,129.0,,-0.08,0.04,0.46,1.0,0.0,4.0,0.47,1.29,36.0,4472.0,15.6,3.92,,13.19,0.956,89.8,,19.8,5.0,,,,,,,,,,,,0,0,0,0,0,0,0,0,0,0,0,0,0,0,0,0,,,,,,0.0,,,,,,,
361,3329521,1746078107162,,,,,,,,,,,,,,,,,,,,,,,,,,,,,,,,,,0,0,0,0,0,0,0,0,0,0,0,0,0,0,0,0,,,,,,,,,,,,,
362,3329541,1746078107182,0.0,129.0,,-0.06,-0.01,0.41,-1.0,0.0,3.0,0.41,1.29,32.0,4460.0,15.5,3.92,,13.12,0.955,89.8,,19.8,5.0,,,,,,,,,,,,0,0,0,0,0,0,0,0,0,0,0,0,0,0,0,0,,,,,,0.0,,,,,,,
363,3329561,1746078107206,,,,,,,,,,,,,,,,,,,,,,,,,,,,,,,,,,0,0,0,0,0,0,0,0,0,0,0,0,0,0,0,0,,,,,,,,,,,,,
364,3329581,1746078107226,0.0,129.0,,-0.07,0.16,0.34,-1.0,0.0,3.0,0.38,1.29,30.0,4422.0,15.6,3.91,,13.12,0.955,89.8,,19.8,5.0,0.0,0.0,0.0,0.0,0.0,0.0,0.0,0.0,2.25,,,0,0,0,0,0,0,0,0,0,0,0,0,0,0,0,0,,0.0,,,,0.0,38.994354,-76.939873,0.0,27.9,32.0,3.0,0.8
365,3329601,1746078107246,,,,,,,,,,,,,,,,,,,,,,,,,,,,,,,,,,0,0,0,0,0,0,0,0,0,0,0,0,0,0,0,0,,,,,,,,,,,,,
366,3329621,1746078107266,0.0,129.0,,-0.08,0.2,0.29,-1.0,0.0,3.0,0.36,1.29,28.0,4422.0,15.6,3.91,,13.19,0.954,89.8,,19.8,5.0,,,,,,,,,,,,0,0,0,0,0,0,0,0,0,0,0,0,0,0,0,0,,,,,,0.0,,,,,,,
367,3329641,1746078107286,,,,,,,,,,,,,,,,,,,,,,,,,,,,,,,,,,0,0,0,0,0,0,0,0,0,0,0,0,0,0,0,0,,,,,,,,,,,,,
368,3329661,1746078107308,0.0,129.0,,-0.07,0.22,0.26,0.0,-1.0,3.0,0.35,1.29,27.0,4436.0,15.6,3.92,,13.13,0.951,89.8,,20.3,5.0,,,,,,,,,,,,0,0,0,0,0,0,0,0,0,0,0,0,0,0,0,0,,,,,,0.0,,,,,,,
369,3329681,1746078107328,,,,,,,,,,,,,,,,,,,,,,,0.0,0.0,0.0,0.0,0.0,0.0,0.0,0.0,2.24,,,0,0,0,0,0,0,0,0,0,0,0,0,0,0,0,0,,0.0,,,,,38.994354,-76.939873,0.05,27.9,32.0,3.0,0.8
370,3329701,1746078107348,0.0,129.0,,-0.09,0.19,0.27,0.0,-1.0,3.0,0.35,1.29,27.0,4490.0,15.5,3.95,,13.16,0.953,89.8,,20.3,5.0,,,,,,,,,,,,0,0,0,0,0,0,0,0,0,0,0,0,0,0,0,0,,,,,,0.0,,,,,,,
371,3329721,1746078107368,,,,,,,,,,,,,,,,,,,,,,,,,,,,,,,,,,0,0,0,0,0,0,0,0,0,0,0,0,0,0,0,0,,,,,,,,,,,,,
372,3329741,1746078107388,0.0,129.0,,-0.11,0.14,0.31,-1.0,-1.0,4.0,0.35,1.29,27.0,4488.0,15.5,3.94,,13.15,0.955,89.8,,20.3,5.0,,,,,,,,,,,,0,0,0,0,0,0,0,0,0,0,0,0,0,0,0,0,,,,,,0.0,,,,,,,
373,3329761,1746078107408,,,,,,,,,,,,,,,,,,,,,,,,,,,,,,,,,,0,0,0,0,0,0,0,0,0,0,0,0,0,0,0,0,,,,,,,,,,,,,
374,3329781,1746078107428,0.0,129.0,,-0.1,0.02,0.37,-1.0,-2.0,3.0,0.38,1.29,30.0,4482.0,15.6,3.95,,13.15,0.955,89.8,,19.8,5.0,0.0,0.0,0.0,0.0,0.0,0.0,0.0,0.0,2.25,,,0,0,0,0,0,0,0,0,0,0,0,0,0,0,0,0,,0.0,,,,0.0,38.994354,-76.939873,0.04,27.9,32.0,3.0,0.8
