,Unnamed: 0,Interval,Utc,FrontBP,SteerAng,Battery,AccelX,AccelY,AccelZ,Yaw,Pitch,Roll,Gsum,GsumMax,GsumPct,RPM,TPS,InjectorPW,Baro,MAP,Lambda,IAT,EngineTemp,EOP,EOT,WSFR,WSFL,WSRR,WSRL,TCSet,TCSlip,TCComp,TCCut,Analog8,OilTemp,AA_On,ThermLF1,ThermLF2,ThermRR1,ThermRR2,ThermLF3,ThermLF4,ThermLF5,ThermLF6,ThermLF7,ThermLF8,ThermRR3,ThermRR4,ThermRR5,ThermRR6,ThermRR7,ThermRR8,AA_LowDrag,Gear,AA_On1,AA_LowDrag1,Fuel_Mix,AA_Packages,Latitude,Longitude,Speed,Altitude,GPSSats,GPSQual,GPSDOP,run,x,y,label
0,4,1717581,1746076495211,3.9,134.0,,-0.02,-0.04,0.92,0.0,-1.0,0.0,0.92,0.92,100.0,6616.0,9.7,3.58,,10.41,0.955,64.6,,75.1,5.0,0.0,0.0,0.0,0.0,0.0,0.0,0.0,0.0,2.27,,,0.0,0.0,0.0,0.0,0.0,0.0,0.0,0.0,0.0,0.0,0.0,0.0,0.0,0.0,0.0,0.0,,0.0,,,,0.0,38.993969,-76.93988,0.05,27.3,29.0,3.0,0.9,rc_1,-48.174552678999945,-49.35597976972626,unlabeled
1,9,1717681,1746076495314,,,,,,,,,,,,,,,,,,,,,,,0.0,0.0,0.0,0.0,0.0,0.0,0.0,0.0,2.27,,,0.0,0.0,0.0,0.0,0.0,0.0,0.0,0.0,0.0,0.0,0.0,0.0,0.0,0.0,0.0,0.0,,0.0,,,,,38.993969,-76.93988,0.04,27.3,29.0,3.0,0.9,rc_1,-48.174552678999945,-49.35597976972626,unlabeled
2,14,1717781,1746076495414,5.78,134.0,,-0.04,0.06,0.91,0.0,-1.0,0.0,0.92,0.94,97.0,6920.0,0.7,1.4,,8.25,0.954,64.6,,76.3,5.0,0.0,0.0,0.0,0.0,0.0,0.0,0.0,0.0,2.27,,,0.0,0.0,0.0,0.0,0.0,0.0,0.0,0.0,0.0,0.0,0.0,0.0,0.0,0.0,0.0,0.0,,0.0,,,,0.0,38.993969,-76.93988,0.06,27.3,29.0,3.0,0.9,rc_1,-48.174552678999945,-49.35597976972626,unlabeled
3,19,1717881,1746076495514,,,,,,,,,,,,,,,,,,,,,,,0.0,0.0,0.0,0.0,0.0,0.0,0.0,0.0,2.27,,,0.0,0.0,0.0,0.0,0.0,0.0,0.0,0.0,0.0,0.0,0.0,0.0,0.0,0.0,0.0,0.0,,0.0,,,,,38.993969,-76.93988,0.05,27.3,29.0,3.0,0.9,rc_1,-48.174552678999945,-49.35597976972626,unlabeled
4,24,1717981,1746076495614,7.67,134.0,,-0.04,0.03,0.93,0.0,-1.0,0.0,0.94,0.98,95.0,6534.0,14.7,3.36,,10.17,0.954,64.6,,69.4,5.0,0.0,0.0,0.0,0.0,0.0,0.0,0.0,0.0,2.27,,,0.0,0.0,0.0,0.0,0.0,0.0,0.0,0.0,0.0,0.0,0.0,0.0,0.0,0.0,0.0,0.0,,0.0,,,,0.0,38.993969,-76.93988,0.07,27.3,29.0,3.0,0.9,rc_1,-48.174552678999945,-49.35597976972626,unlabeled
5,29,1718081,1746076495714,,,,,,,,,,,,,,,,,,,,,,,0.0,0.0,0.0,0.0,0.0,0.0,0.0,0.0,2.28,,,0.0,0.0,0.0,0.0,0.0,0.0,0.0,0.0,0.0,0.0,0.0,0.0,0.0,0.0,0.0,0.0,,0.0,,,,,38.993969,-76.93988,0.11,27.3,29.0,3.0,0.9,rc_1,-48.174552678999945,-49.35597976972626,unlabeled
6,34,1718181,1746076495814,5.78,134.0,,-0.03,0.04,0.96,0.0,-1.0,0.0,0.96,1.0,96.0,6782.0,0.0,1.4,,8.71,0.955,64.6,,72.7,5.0,0.0,0.0,0.0,0.0,0.0,0.0,0.0,0.0,2.27,,,0.0,0.0,0.0,0.0,0.0,0.0,0.0,0.0,0.0,0.0,0.0,0.0,0.0,0.0,0.0,0.0,,0.0,,,,0.0,38.993969,-76.93988,0.15,27.3,29.0,3.0,0.9,rc_1,-48.174552678999945,-49.35597976972626,unlabeled
7,39,1718281,1746076495914,,,,,,,,,,,,,,,,,,,,,,,0.0,0.0,0.0,0.0,0.0,0.0,0.0,0.0,2.27,,,0.0,0.0,0.0,0.0,0.0,0.0,0.0,0.0,0.0,0.0,0.0,0.0,0.0,0.0,0.0,0.0,,0.0,,,,,38.993969,-76.93988,0.05,27.3,29.0,3.0,0.9,rc_1,-48.174552678999945,-49.35597976972626,unlabeled
8,44,1718381,1746076496006,5.15,134.0,13.95,0.01,0.18,1.17,3.0,-1.0,0.0,1.18,1.22,96.0,5642.0,0.0,1.4,15.0,8.46,0.956,64.6,86.0,60.9,5.0,0.0,0.0,0.0,0.0,0.0,0.0,0.0,0.0,2.27,0.0,0.0,0.0,0.0,0.0,0.0,0.0,0.0,0.0,0.0,0.0,0.0,0.0,0.0,0.0,0.0,0.0,0.0,0.0,0.0,0.0,0.0,0.0,0.0,38.993969,-76.93988,0.0,27.3,29.0,3.0,0.9,rc_1,-48.174552678999945,-49.35597976972626,unlabeled
9,49,1718481,1746076496116,,,,,,,,,,,,,,,,,,,,,,,0.0,0.0,0.0,0.0,0.0,0.0,0.0,0.0,2.27,,,0.0,0.0,0.0,0.0,0.0,0.0,0.0,0.0,0.0,0.0,0.0,0.0,0.0,0.0,0.0,0.0,,0.0,,,,,38.993969,-76.93988,0.08,27.3,29.0,3.0,0.9,rc_1,-48.174552678999945,-49.35597976972626,unlabeled
10,54,1718581,1746076496214,5.15,133.0,,-0.04,-0.14,0.84,1.0,-1.0,-1.0,0.85,1.22,70.0,4385.0,3.7,2.2,,9.73,0.955,64.6,,56.0,5.0,0.0,0.0,0.0,0.0,0.0,0.0,0.0,0.0,2.27,,,0.0,0.0,0.0,0.0,0.0,0.0,0.0,0.0,0.0,0.0,0.0,0.0,0.0,0.0,0.0,0.0,,0.0,,,,0.0,38.993969,-76.93988,0.16,27.3,29.0,3.0,0.9,rc_1,-48.174552678999945,-49.35597976972626,unlabeled
11,59,1718681,1746076496313,,,,,,,,,,,,,,,,,,,,,,,0.0,0.0,0.0,0.0,0.0,0.0,0.0,0.0,2.27,,,0.0,0.0,0.0,0.0,0.0,0.0,0.0,0.0,0.0,0.0,0.0,0.0,0.0,0.0,0.0,0.0,,0.0,,,,,38.993969,-76.93988,0.31,27.3,29.0,3.0,0.9,rc_1,-48.174552678999945,-49.35597976972626,unlabeled
12,64,1718781,1746076496415,4.52,134.0,,-0.02,0.15,0.95,-1.0,-1.0,0.0,0.97,1.22,79.0,3642.0,14.2,4.45,,13.11,0.955,64.6,,54.8,5.0,0.0,0.0,0.0,0.0,0.0,0.0,0.0,0.0,2.27,,,0.0,0.0,0.0,0.0,0.0,0.0,0.0,0.0,0.0,0.0,0.0,0.0,0.0,0.0,0.0,0.0,,0.0,,,,0.0,38.993969,-76.93988,0.23,27.3,29.0,3.0,0.9,rc_1,-48.174552678999945,-49.35597976972626,unlabeled
13,69,1718881,1746076496513,,,,,,,,,,,,,,,,,,,,,,,0.0,0.0,0.0,0.0,0.0,0.0,0.0,0.0,2.27,,,0.0,0.0,0.0,0.0,0.0,0.0,0.0,0.0,0.0,0.0,0.0,0.0,0.0,0.0,0.0,0.0,,0.0,,,,,38.993969,-76.93988,0.04,27.3,29.0,3.0,0.9,rc_1,-48.174552678999945,-49.35597976972626,unlabeled
14,74,1718981,1746076496615,4.52,134.0,,-0.05,-0.01,1.07,3.0,0.0,1.0,1.08,1.22,88.0,3396.0,8.8,4.18,,13.52,0.955,64.6,,54.4,5.0,0.0,0.0,0.0,0.0,0.0,0.0,0.0,0.0,2.27,,,0.0,0.0,0.0,0.0,0.0,0.0,0.0,0.0,0.0,0.0,0.0,0.0,0.0,0.0,0.0,0.0,,0.0,,,,0.0,38.993969,-76.93988,0.16,27.3,29.0,3.0,0.9,rc_1,-48.174552678999945,-49.35597976972626,unlabeled
15,79,1719081,1746076496715,,,,,,,,,,,,,,,,,,,,,,,0.0,0.0,0.0,0.0,0.0,0.0,0.0,0.0,2.27,,,0.0,0.0,0.0,0.0,0.0,0.0,0.0,0.0,0.0,0.0,0.0,0.0,0.0,0.0,0.0,0.0,,0.0,,,,,38.993969,-76.93988,0.22,27.3,29.0,3.0,0.9,rc_1,-48.174552678999945,-49.35597976972626,unlabeled
16,84,1719181,1746076496815,6.41,134.0,,-0.03,-0.03,1.14,3.0,-1.0,1.0,1.14,1.22,93.0,2985.0,14.9,4.51,,13.53,0.955,64.6,,54.0,5.0,0.0,0.0,0.0,0.0,0.0,0.0,0.0,0.0,2.28,,,0.0,0.0,0.0,0.0,0.0,0.0,0.0,0.0,0.0,0.0,0.0,0.0,0.0,0.0,0.0,0.0,,0.0,,,,0.0,38.993969,-76.93988,0.18,27.3,29.0,3.0,0.9,rc_1,-48.174552678999945,-49.35597976972626,unlabeled
17,89,1719281,1746076496915,,,,,,,,,,,,,,,,,,,,,,,0.0,0.0,0.0,0.0,0.0,0.0,0.0,0.0,2.27,,,0.0,0.0,0.0,0.0,0.0,0.0,0.0,0.0,0.0,0.0,0.0,0.0,0.0,0.0,0.0,0.0,,0.0,,,,,38.993969,-76.93988,0.0,27.3,29.0,3.0,0.9,rc_1,-48.174552678999945,-49.35597976972626,unlabeled
18,94,1719381,1746076497007,5.15,134.0,13.93,-0.03,-0.01,1.07,1.0,-1.0,0.0,1.07,1.22,88.0,2662.0,29.5,4.47,15.0,14.35,0.955,64.6,86.0,56.3,5.0,0.0,0.0,0.0,0.0,0.0,0.0,0.0,0.0,2.27,0.0,0.0,0.0,0.0,0.0,0.0,0.0,0.0,0.0,0.0,0.0,0.0,0.0,0.0,0.0,0.0,0.0,0.0,0.0,0.0,0.0,0.0,0.0,0.0,38.993969,-76.93988,0.08,27.3,29.0,3.0,0.9,rc_1,-48.174552678999945,-49.35597976972626,unlabeled
19,99,1719481,1746076497113,,,,,,,,,,,,,,,,,,,,,,,0.0,0.0,0.0,0.0,0.0,0.0,0.0,0.0,2.27,,,0.0,0.0,0.0,0.0,0.0,0.0,0.0,0.0,0.0,0.0,0.0,0.0,0.0,0.0,0.0,0.0,,0.0,,,,,38.993969,-76.93988,0.04,27.3,29.0,3.0,0.9,rc_1,-48.174552678999945,-49.35597976972626,unlabeled
20,104,1719581,1746076497213,4.52,134.0,,-0.03,-0.01,1.02,1.0,-1.0,0.0,1.02,1.22,84.0,2468.0,35.6,4.42,,14.48,0.955,64.6,,51.0,5.0,0.0,0.0,0.0,0.0,0.0,0.0,0.0,0.0,2.27,,,0.0,0.0,0.0,0.0,0.0,0.0,0.0,0.0,0.0,0.0,0.0,0.0,0.0,0.0,0.0,0.0,,0.0,,,,0.0,38.993969,-76.93988,0.05,27.3,29.0,3.0,0.9,rc_1,-48.174552678999945,-49.35597976972626,unlabeled
21,109,1719681,1746076497312,,,,,,,,,,,,,,,,,,,,,,,0.0,0.0,0.0,0.0,0.0,0.0,0.0,0.0,2.27,,,0.0,0.0,0.0,0.0,0.0,0.0,0.0,0.0,0.0,0.0,0.0,0.0,0.0,0.0,0.0,0.0,,0.0,,,,,38.993969,-76.93988,0.0,27.3,29.0,3.0,0.9,rc_1,-48.174552678999945,-49.35597976972626,unlabeled
22,114,1719781,1746076497414,5.78,134.0,,-0.05,-0.01,1.01,1.0,-1.0,0.0,1.01,1.22,83.0,2199.0,35.6,4.38,,14.52,0.955,64.6,,47.3,5.0,0.0,0.0,0.0,0.0,0.0,0.0,0.0,0.0,2.28,,,0.0,0.0,0.0,0.0,0.0,0.0,0.0,0.0,0.0,0.0,0.0,0.0,0.0,0.0,0.0,0.0,,0.0,,,,0.0,38.993969,-76.93988,0.0,27.3,29.0,3.0,0.9,rc_1,-48.174552678999945,-49.35597976972626,unlabeled
23,119,1719881,1746076497512,,,,,,,,,,,,,,,,,,,,,,,0.0,0.0,0.0,0.0,0.0,0.0,0.0,0.0,2.27,,,0.0,0.0,0.0,0.0,0.0,0.0,0.0,0.0,0.0,0.0,0.0,0.0,0.0,0.0,0.0,0.0,,0.0,,,,,38.993969,-76.93988,0.05,27.3,29.0,3.0,0.9,rc_1,-48.174552678999945,-49.35597976972626,unlabeled
24,124,1719981,1746076497612,5.15,134.0,,-0.03,0.0,1.01,0.0,-1.0,0.0,1.01,1.22,83.0,2219.0,35.3,4.43,,14.51,0.955,64.6,,47.1,5.0,0.0,0.0,0.0,0.0,0.0,0.0,0.0,0.0,2.27,,,0.0,0.0,0.0,0.0,0.0,0.0,0.0,0.0,0.0,0.0,0.0,0.0,0.0,0.0,0.0,0.0,,0.0,,,,0.0,38.993969,-76.93988,0.08,27.3,29.0,3.0,0.9,rc_1,-48.174552678999945,-49.35597976972626,unlabeled
25,129,1720081,1746076497714,,,,,,,,,,,,,,,,,,,,,,,0.0,0.0,0.0,0.0,0.0,0.0,0.0,0.0,2.27,,,0.0,0.0,0.0,0.0,0.0,0.0,0.0,0.0,0.0,0.0,0.0,0.0,0.0,0.0,0.0,0.0,,0.0,,,,,38.993969,-76.93988,0.0,27.3,29.0,3.0,0.9,rc_1,-48.174552678999945,-49.35597976972626,unlabeled
26,134,1720181,1746076497814,3.9,134.0,,-0.04,0.01,0.98,1.0,-1.0,0.0,0.98,1.22,80.0,2765.0,46.1,4.93,,14.47,0.955,64.6,,53.3,5.0,0.0,0.0,0.0,0.0,0.0,0.0,0.0,0.0,2.27,,,0.0,0.0,0.0,0.0,0.0,0.0,0.0,0.0,0.0,0.0,0.0,0.0,0.0,0.0,0.0,0.0,,0.0,,,,0.0,38.993969,-76.93988,0.0,27.3,29.0,3.0,0.9,rc_1,-48.174552678999945,-49.35597976972626,unlabeled
27,139,1720281,1746076497914,,,,,,,,,,,,,,,,,,,,,,,0.0,0.0,0.0,0.0,0.0,0.0,0.0,0.0,2.27,,,0.0,0.0,0.0,0.0,0.0,0.0,0.0,0.0,0.0,0.0,0.0,0.0,0.0,0.0,0.0,0.0,,0.0,,,,,38.993969,-76.93988,0.05,27.3,29.0,3.0,0.9,rc_1,-48.174552678999945,-49.35597976972626,unlabeled
28,144,1720381,1746076498008,3.9,134.0,13.94,-0.03,-0.05,1.2,0.0,-2.0,0.0,1.2,1.22,98.0,2902.0,50.7,4.62,15.0,14.52,0.955,64.6,86.0,60.5,5.0,0.0,0.0,0.0,0.0,0.0,0.0,0.0,0.0,2.27,0.0,0.0,0.0,0.0,0.0,0.0,0.0,0.0,0.0,0.0,0.0,0.0,0.0,0.0,0.0,0.0,0.0,0.0,0.0,0.0,0.0,0.0,0.0,0.0,38.993969,-76.93988,0.05,27.3,29.0,3.0,0.9,rc_1,-48.174552678999945,-49.35597976972626,unlabeled
29,149,1720481,1746076498116,,,,,,,,,,,,,,,,,,,,,,,0.0,0.0,0.0,0.0,0.0,0.0,0.0,0.0,2.27,,,0.0,0.0,0.0,0.0,0.0,0.0,0.0,0.0,0.0,0.0,0.0,0.0,0.0,0.0,0.0,0.0,,0.0,,,,,38.993969,-76.93988,0.04,27.3,29.0,3.0,0.9,rc_1,-48.174552678999945,-49.35597976972626,unlabeled
30,154,1720581,1746076498216,4.52,134.0,,-0.03,-0.03,1.09,0.0,-2.0,0.0,1.09,1.31,83.0,3121.0,50.6,4.71,,14.47,0.955,66.4,,63.9,5.0,0.0,0.0,0.0,0.0,0.0,0.0,0.0,0.0,2.27,,,0.0,0.0,0.0,0.0,0.0,0.0,0.0,0.0,0.0,0.0,0.0,0.0,0.0,0.0,0.0,0.0,,0.0,,,,0.0,38.993969,-76.93988,0.04,27.3,29.0,3.0,0.9,rc_1,-48.174552678999945,-49.35597976972626,unlabeled
31,159,1720681,1746076498315,,,,,,,,,,,,,,,,,,,,,,,0.0,0.0,0.0,0.0,0.0,0.0,0.0,0.0,2.27,,,0.0,0.0,0.0,0.0,0.0,0.0,0.0,0.0,0.0,0.0,0.0,0.0,0.0,0.0,0.0,0.0,,0.0,,,,,38.993969,-76.93988,0.0,27.3,29.0,3.0,0.9,rc_1,-48.174552678999945,-49.35597976972626,unlabeled
32,164,1720781,1746076498415,4.52,134.0,,-0.04,-0.02,1.0,-1.0,-1.0,1.0,1.0,1.31,76.0,3438.0,50.6,4.79,,14.43,0.955,66.4,,63.6,5.0,0.0,0.0,0.0,0.0,0.0,0.0,0.0,0.0,2.27,,,0.0,0.0,0.0,0.0,0.0,0.0,0.0,0.0,0.0,0.0,0.0,0.0,0.0,0.0,0.0,0.0,,0.0,,,,0.0,38.993969,-76.93988,0.04,27.3,29.0,3.0,0.9,rc_1,-48.174552678999945,-49.35597976972626,unlabeled
33,169,1720881,1746076498515,,,,,,,,,,,,,,,,,,,,,,,0.0,0.0,0.0,0.0,0.0,0.0,0.0,0.0,2.27,,,0.0,0.0,0.0,0.0,0.0,0.0,0.0,0.0,0.0,0.0,0.0,0.0,0.0,0.0,0.0,0.0,,0.0,,,,,38.993969,-76.93988,0.04,27.3,29.0,3.0,0.9,rc_1,-48.174552678999945,-49.35597976972626,unlabeled
34,174,1720981,1746076498615,0.0,133.0,,-0.05,-0.17,1.13,0.0,-2.0,-1.0,1.14,1.31,87.0,4008.0,50.6,5.22,,14.38,0.955,66.4,,67.7,5.0,0.0,0.0,0.0,0.0,0.0,0.0,0.0,0.0,2.27,,,0.0,0.0,0.0,0.0,0.0,0.0,0.0,0.0,0.0,0.0,0.0,0.0,0.0,0.0,0.0,0.0,,0.0,,,,0.0,38.993969,-76.93988,0.04,27.3,29.0,3.0,0.9,rc_1,-48.174552678999945,-49.35597976972626,unlabeled
35,179,1721081,1746076498715,,,,,,,,,,,,,,,,,,,,,,,0.0,0.0,0.0,0.0,0.0,0.0,0.0,0.0,2.28,,,0.0,0.0,0.0,0.0,0.0,0.0,0.0,0.0,0.0,0.0,0.0,0.0,0.0,0.0,0.0,0.0,,0.0,,,,,38.993969,-76.93988,0.08,27.3,29.0,3.0,0.9,rc_1,-48.174552678999945,-49.35597976972626,unlabeled
36,184,1721181,1746076498815,0.0,133.0,,0.0,-0.09,0.9,1.0,-1.0,0.0,0.9,1.31,69.0,5911.0,50.6,5.42,,13.98,0.954,66.4,,74.3,5.0,0.0,0.0,0.0,0.0,0.0,0.0,0.0,0.0,2.28,,,0.0,0.0,0.0,0.0,0.0,0.0,0.0,0.0,0.0,0.0,0.0,0.0,0.0,0.0,0.0,0.0,,0.0,,,,0.0,38.993969,-76.93988,0.05,27.3,29.0,3.0,0.9,rc_1,-48.174552678999945,-49.35597976972626,unlabeled
37,189,1721281,1746076498915,,,,,,,,,,,,,,,,,,,,,,,0.0,0.0,0.0,0.0,0.0,0.0,0.0,0.0,2.27,,,0.0,0.0,0.0,0.0,0.0,0.0,0.0,0.0,0.0,0.0,0.0,0.0,0.0,0.0,0.0,0.0,,0.0,,,,,38.993969,-76.93988,0.04,27.3,29.0,3.0,0.9,rc_1,-48.174552678999945,-49.35597976972626,unlabeled
38,194,1721381,1746076499007,0.0,133.0,13.81,0.0,-0.23,0.85,3.0,-1.0,-2.0,0.88,1.31,68.0,11523.0,50.6,3.95,15.0,12.51,0.954,66.4,88.0,74.0,5.0,0.0,0.0,0.0,0.0,0.0,0.0,0.0,0.0,2.27,0.0,0.0,0.0,0.0,0.0,0.0,0.0,0.0,0.0,0.0,0.0,0.0,0.0,0.0,0.0,0.0,0.0,0.0,0.0,0.0,0.0,0.0,0.0,0.0,38.993969,-76.93988,0.15,27.3,29.0,3.0,0.9,rc_1,-48.174552678999945,-49.35597976972626,unlabeled
39,199,1721481,1746076499115,,,,,,,,,,,,,,,,,,,,,,,0.0,0.0,0.0,0.0,0.0,0.0,0.0,0.0,2.27,,,0.0,0.0,0.0,0.0,0.0,0.0,0.0,0.0,0.0,0.0,0.0,0.0,0.0,0.0,0.0,0.0,,0.0,,,,,38.993969,-76.93988,0.45,27.3,29.0,3.0,0.9,rc_1,-48.174552678999945,-49.35597976972626,unlabeled
40,204,1721581,1746076499215,0.0,132.0,,0.04,-0.27,0.91,5.0,-1.0,-1.0,0.95,1.31,73.0,12893.0,50.5,4.13,,12.0,0.953,64.6,,74.5,5.0,0.0,0.0,0.0,0.0,0.0,0.0,0.0,0.0,2.27,,,0.0,0.0,0.0,0.0,0.0,0.0,0.0,0.0,0.0,0.0,0.0,0.0,0.0,0.0,0.0,0.0,,0.0,,,,0.0,38.993969,-76.93988,0.74,27.3,29.0,3.0,0.9,rc_1,-48.174552678999945,-49.35597976972626,unlabeled
41,209,1721681,1746076499314,,,,,,,,,,,,,,,,,,,,,,,0.0,0.0,0.0,0.0,0.0,0.0,0.0,0.0,2.27,,,0.0,0.0,0.0,0.0,0.0,0.0,0.0,0.0,0.0,0.0,0.0,0.0,0.0,0.0,0.0,0.0,,0.0,,,,,38.993969,-76.93988,1.09,27.3,29.0,3.0,0.9,rc_1,-48.174552678999945,-49.35597976972626,unlabeled
42,214,1721781,1746076499414,0.0,132.0,,0.05,-0.08,0.92,3.0,-1.0,-2.0,0.92,1.31,71.0,12647.0,50.6,4.21,,11.79,0.953,64.6,,75.1,5.0,1.0,0.0,1.0,1.0,0.0,0.0,0.0,0.0,2.27,,,0.0,0.0,0.0,0.0,0.0,0.0,0.0,0.0,0.0,0.0,0.0,0.0,0.0,0.0,0.0,0.0,,0.0,,,,0.0,38.993969,-76.93988,1.39,27.3,29.0,3.0,0.9,rc_1,-48.174552678999945,-49.35597976972626,unlabeled
43,219,1721881,1746076499514,,,,,,,,,,,,,,,,,,,,,,,1.0,1.0,1.0,1.0,0.0,0.0,0.0,0.0,2.27,,,0.0,0.0,0.0,0.0,0.0,0.0,0.0,0.0,0.0,0.0,0.0,0.0,0.0,0.0,0.0,0.0,,0.0,,,,,38.993969,-76.93988,1.69,27.3,29.0,3.0,0.9,rc_1,-48.174552678999945,-49.35597976972626,unlabeled
44,224,1721981,1746076499614,0.0,132.0,,0.13,-0.18,0.97,1.0,-1.0,-1.0,1.0,1.31,76.0,11272.0,45.0,4.2,,11.95,0.953,64.6,,72.7,5.0,1.0,1.0,1.0,2.0,0.0,0.0,0.0,0.0,2.27,,,0.0,0.0,0.0,0.0,0.0,0.0,0.0,0.0,0.0,0.0,0.0,0.0,0.0,0.0,0.0,0.0,,0.0,,,,0.0,38.993969,-76.93988,2.19,27.3,29.0,3.0,0.9,rc_1,-48.174552678999945,-49.35597976972626,unlabeled
45,229,1722081,1746076499714,,,,,,,,,,,,,,,,,,,,,,,1.0,1.0,1.0,2.0,0.0,0.0,0.0,0.0,2.27,,,0.0,0.0,0.0,0.0,0.0,0.0,0.0,0.0,0.0,0.0,0.0,0.0,0.0,0.0,0.0,0.0,,0.0,,,,,38.993973,-76.93988,3.36,27.3,29.0,3.0,0.9,rc_1,-48.174552678999945,-48.91191838258176,unlabeled
46,234,1722181,1746076499814,0.0,132.0,,0.26,-0.35,1.01,-1.0,-1.0,-1.0,1.1,1.31,84.0,11272.0,45.0,4.2,,11.95,0.953,64.6,,72.7,5.0,1.0,1.0,1.0,2.0,0.0,0.0,0.0,0.0,2.27,,,0.0,0.0,0.0,0.0,0.0,0.0,0.0,0.0,0.0,0.0,0.0,0.0,0.0,0.0,0.0,0.0,,0.0,,,,0.0,38.993973,-76.93988,4.69,27.4,29.0,3.0,0.9,rc_1,-48.174552678999945,-48.91191838258176,unlabeled
47,239,1722281,1746076499914,,,,,,,,,,,,,,,,,,,,,,,1.0,1.0,1.0,2.0,0.0,0.0,0.0,0.0,2.27,,,0.0,0.0,0.0,0.0,0.0,0.0,0.0,0.0,0.0,0.0,0.0,0.0,0.0,0.0,0.0,0.0,,0.0,,,,,38.993973,-76.93988,7.58,27.4,29.0,3.0,0.9,rc_1,-48.174552678999945,-48.91191838258176,unlabeled
48,244,1722381,1746076500006,0.0,132.0,13.81,0.33,-0.18,0.93,-3.0,-1.0,0.0,1.0,1.31,77.0,11272.0,45.0,4.2,15.0,11.95,0.953,64.6,88.0,72.7,5.0,1.0,1.0,1.0,2.0,0.0,0.0,0.0,0.0,2.27,0.0,0.0,0.0,0.0,0.0,0.0,0.0,0.0,0.0,0.0,0.0,0.0,0.0,0.0,0.0,0.0,0.0,0.0,0.0,0.0,0.0,0.0,0.0,0.0,38.993977,-76.93988,9.07,27.4,29.0,3.0,0.9,rc_1,-48.174552678999945,-48.46785699464844,unlabeled
49,249,1722481,1746076500114,,,,,,,,,,,,,,,,,,,,,,,1.0,1.0,1.0,2.0,0.0,0.0,0.0,0.0,2.27,,,0.0,0.0,0.0,0.0,0.0,0.0,0.0,0.0,0.0,0.0,0.0,0.0,0.0,0.0,0.0,0.0,,0.0,,,,,38.993977,-76.93988,11.03,27.4,29.0,3.0,0.9,rc_1,-48.174552678999945,-48.46785699464844,unlabeled
50,254,1722581,1746076500214,0.0,132.0,,0.36,-0.18,1.05,-6.0,-1.0,0.0,1.12,1.31,86.0,11272.0,45.0,4.2,,11.95,0.953,64.6,,72.7,5.0,1.0,1.0,1.0,2.0,0.0,0.0,0.0,0.0,2.27,,,0.0,0.0,0.0,0.0,0.0,0.0,0.0,0.0,0.0,0.0,0.0,0.0,0.0,0.0,0.0,0.0,,0.0,,,,0.0,38.99398,-76.93988,12.4,27.4,29.0,3.0,0.9,rc_1,-48.174552678999945,-48.13481095409286,unlabeled
51,259,1722681,1746076500313,,,,,,,,,,,,,,,,,,,,,,,1.0,1.0,1.0,2.0,0.0,0.0,0.0,0.0,2.27,,,0.0,0.0,0.0,0.0,0.0,0.0,0.0,0.0,0.0,0.0,0.0,0.0,0.0,0.0,0.0,0.0,,0.0,,,,,38.993984,-76.939873,13.73,27.4,29.0,3.0,0.9,rc_1,-47.56811959166893,-47.69074956694836,unlabeled
52,264,1722781,1746076500413,0.0,131.0,,0.47,-0.19,1.08,-10.0,-1.0,0.0,1.19,1.31,91.0,11272.0,45.0,4.2,,11.95,0.953,64.6,,72.7,5.0,1.0,1.0,1.0,2.0,0.0,0.0,0.0,0.0,2.27,,,0.0,0.0,0.0,0.0,0.0,0.0,0.0,0.0,0.0,0.0,0.0,0.0,0.0,0.0,0.0,0.0,,0.0,,,,0.0,38.993988,-76.939873,16.28,27.4,29.0,3.0,0.9,rc_1,-47.56811959166893,-47.24668817901505,unlabeled
53,269,1722881,1746076500513,,,,,,,,,,,,,,,,,,,,,,,1.0,1.0,1.0,2.0,0.0,0.0,0.0,0.0,2.27,,,0.0,0.0,0.0,0.0,0.0,0.0,0.0,0.0,0.0,0.0,0.0,0.0,0.0,0.0,0.0,0.0,,0.0,,,,,38.993992,-76.939873,18.5,27.4,29.0,3.0,0.9,rc_1,-47.56811959166893,-46.80262679187055,unlabeled
54,274,1722981,1746076500613,0.0,132.0,,0.52,-0.26,1.02,-10.0,-1.0,0.0,1.18,1.31,90.0,11272.0,45.0,4.2,,11.95,0.953,64.6,,72.7,5.0,1.0,1.0,1.0,2.0,0.0,0.0,0.0,0.0,2.27,,,0.0,0.0,0.0,0.0,0.0,0.0,0.0,0.0,0.0,0.0,0.0,0.0,0.0,0.0,0.0,0.0,,0.0,,,,0.0,38.993996,-76.939873,19.61,27.4,29.0,3.0,0.9,rc_1,-47.56811959166893,-46.358565403937234,unlabeled
55,279,1723081,1746076500715,,,,,,,,,,,,,,,,,,,,,,,1.0,1.0,1.0,2.0,0.0,0.0,0.0,0.0,2.27,,,0.0,0.0,0.0,0.0,0.0,0.0,0.0,0.0,0.0,0.0,0.0,0.0,0.0,0.0,0.0,0.0,,0.0,,,,,38.994,-76.939865,21.72,27.4,29.0,3.0,0.9,rc_1,-46.87505320509252,-45.91450401679273,unlabeled
56,284,1723181,1746076500813,0.0,131.0,,0.53,0.01,0.97,-14.0,-1.0,1.0,1.11,1.31,85.0,11272.0,45.0,4.2,,11.95,0.953,64.6,,72.7,5.0,1.0,1.0,1.0,2.0,0.0,0.0,0.0,0.0,2.27,,,0.0,0.0,0.0,0.0,0.0,0.0,0.0,0.0,0.0,0.0,0.0,0.0,0.0,0.0,0.0,0.0,,0.0,,,,0.0,38.994007,-76.939865,23.79,27.4,29.0,3.0,0.9,rc_1,-46.87505320509252,-45.13739658830384,unlabeled
57,289,1723281,1746076500915,,,,,,,,,,,,,,,,,,,,,,,16.0,26.0,28.0,28.0,0.0,184.0,0.0,0.0,2.27,,,0.0,0.0,0.0,0.0,0.0,0.0,0.0,0.0,0.0,0.0,0.0,0.0,0.0,0.0,0.0,0.0,,0.0,,,,,38.994015,-76.939865,26.77,27.4,29.0,3.0,0.9,rc_1,-46.87505320509252,-44.249273814014835,unlabeled
58,294,1723381,1746076501007,0.13,132.0,13.78,0.54,-0.07,0.97,-9.0,-2.0,1.0,1.12,1.31,85.0,6440.0,9.4,3.36,15.0,9.84,0.954,64.6,88.0,60.1,5.0,18.0,50.0,19.0,20.0,0.0,188.0,0.0,0.0,2.27,0.0,0.0,0.0,0.0,0.0,0.0,0.0,0.0,0.0,0.0,0.0,0.0,0.0,0.0,0.0,0.0,0.0,0.0,0.0,0.0,0.0,0.0,0.0,0.0,38.994019,-76.939858,29.03,27.4,30.0,3.0,0.9,rc_1,-46.26862011776151,-43.805212426081525,unlabeled
59,299,1723481,1746076501109,,,,,,,,,,,,,,,,,,,,,,,19.0,8.0,19.0,17.0,0.0,249.0,0.0,0.0,2.27,,,0.0,0.0,0.0,0.0,0.0,0.0,0.0,0.0,0.0,0.0,0.0,0.0,0.0,0.0,0.0,0.0,,0.0,,,,,38.994026,-76.939858,30.64,27.4,30.0,3.0,0.9,rc_1,-46.26862011776151,-43.02810499838144,unlabeled
60,304,1723581,1746076501213,15.21,132.0,,0.17,0.21,0.96,2.0,-4.0,2.0,1.0,1.31,76.0,5691.0,7.9,3.21,,10.77,0.955,64.6,,60.7,5.0,19.0,2.0,18.0,17.0,0.0,232.0,0.0,0.0,2.27,,,0.0,0.0,0.0,0.0,0.0,0.0,0.0,0.0,0.0,0.0,0.0,0.0,0.0,0.0,0.0,0.0,,0.0,,,,0.0,38.994034,-76.939858,28.99,27.4,30.0,3.0,0.9,rc_1,-46.26862011776151,-42.139982223303626,unlabeled
61,309,1723681,1746076501314,,,,,,,,,,,,,,,,,,,,,,,18.0,52.0,18.0,17.0,0.0,248.0,0.0,0.0,2.27,,,0.0,0.0,0.0,0.0,0.0,0.0,0.0,0.0,0.0,0.0,0.0,0.0,0.0,0.0,0.0,0.0,,0.0,,,,,38.994038,-76.93985,28.26,27.4,30.0,3.0,0.9,rc_1,-45.57555373241623,-41.69592083537031,unlabeled
62,314,1723781,1746076501414,1.38,132.0,,-0.01,0.24,0.9,8.0,-2.0,2.0,0.93,1.31,71.0,6213.0,8.7,3.31,,10.3,0.954,66.4,,68.5,5.0,18.0,17.0,18.0,18.0,0.0,249.0,0.0,0.0,2.27,,,0.0,0.0,0.0,0.0,0.0,0.0,0.0,0.0,0.0,0.0,0.0,0.0,0.0,0.0,0.0,0.0,,0.0,,,,0.0,38.994045,-76.93985,27.25,27.4,30.0,3.0,0.9,rc_1,-45.57555373241623,-40.91881340767023,unlabeled
63,319,1723881,1746076501514,,,,,,,,,,,,,,,,,,,,,,,18.0,18.0,18.0,18.0,0.0,7.0,0.0,0.0,2.27,,,0.0,0.0,0.0,0.0,0.0,0.0,0.0,0.0,0.0,0.0,0.0,0.0,0.0,0.0,0.0,0.0,,0.0,,,,,38.994053,-76.93985,27.67,27.4,30.0,3.0,0.9,rc_1,-45.57555373241623,-40.03069063259241,unlabeled
64,324,1723981,1746076501614,0.0,131.0,,-0.05,-0.05,0.9,7.0,-2.0,1.0,0.9,0.9,100.0,5617.0,9.2,3.75,,11.13,0.955,66.4,,60.5,5.0,17.0,18.0,17.0,18.0,0.0,50.0,0.0,0.0,2.27,,,0.0,0.0,0.0,0.0,0.0,0.0,0.0,0.0,0.0,0.0,0.0,0.0,0.0,0.0,0.0,0.0,,0.0,,,,0.0,38.994057,-76.939842,28.13,27.5,30.0,3.0,0.9,rc_1,-44.88248734583981,-39.58662924544791,slalom
65,329,1724081,1746076501714,,,,,,,,,,,,,,,,,,,,,,,17.0,18.0,18.0,18.0,0.0,7.0,0.0,0.0,2.27,,,0.0,0.0,0.0,0.0,0.0,0.0,0.0,0.0,0.0,0.0,0.0,0.0,0.0,0.0,0.0,0.0,,1.0,,,,,38.994064,-76.939842,27.62,27.5,30.0,3.0,0.9,rc_1,-44.88248734583981,-38.80952181695902,slalom
66,334,1724181,1746076501814,0.0,131.0,,0.01,0.13,1.08,1.0,-2.0,-2.0,1.09,1.11,98.0,6004.0,9.2,4.13,,11.0,0.955,66.4,,64.2,5.0,17.0,17.0,17.0,18.0,0.0,225.0,0.0,0.0,2.27,,,0.0,0.0,0.0,0.0,0.0,0.0,0.0,0.0,0.0,0.0,0.0,0.0,0.0,0.0,0.0,0.0,,1.0,,,,0.0,38.994072,-76.939835,27.34,27.5,30.0,3.0,0.9,rc_1,-44.2760542585088,-37.9213990418812,slalom
67,339,1724281,1746076501914,,,,,,,,,,,,,,,,,,,,,,,18.0,17.0,18.0,17.0,0.0,31.0,0.0,0.0,2.27,,,0.0,0.0,0.0,0.0,0.0,0.0,0.0,0.0,0.0,0.0,0.0,0.0,0.0,0.0,0.0,0.0,,1.0,,,,,38.994076,-76.939835,27.27,27.5,30.0,3.0,0.9,rc_1,-44.2760542585088,-37.4773376547367,slalom
68,344,1724381,1746076502008,0.0,132.0,13.8,-0.0,0.11,1.2,1.0,-2.0,-2.0,1.21,1.21,100.0,5667.0,9.4,3.83,15.0,11.24,0.955,66.4,88.0,60.6,5.0,18.0,17.0,18.0,18.0,0.0,180.0,0.0,0.0,2.27,0.0,0.0,0.0,0.0,0.0,0.0,0.0,0.0,0.0,0.0,0.0,0.0,0.0,0.0,0.0,0.0,0.0,0.0,0.0,1.0,0.0,0.0,0.0,0.0,38.994087,-76.939835,27.88,27.5,30.0,3.0,0.9,rc_1,-44.2760542585088,-36.2561688391033,slalom
69,349,1724481,1746076502110,,,,,,,,,,,,,,,,,,,,,,,17.0,18.0,17.0,17.0,0.0,249.0,0.0,0.0,2.27,,,0.0,0.0,0.0,0.0,0.0,0.0,0.0,0.0,0.0,0.0,0.0,0.0,0.0,0.0,0.0,0.0,,1.0,,,,,38.994095,-76.939827,27.57,27.5,30.0,3.0,0.9,rc_1,-43.58298787193239,-35.36804606402549,slalom
70,354,1724581,1746076502214,0.0,132.0,,0.04,0.25,0.82,2.0,2.0,0.0,0.86,1.21,71.0,5889.0,9.6,3.84,,10.96,0.954,66.4,,65.8,5.0,18.0,18.0,17.0,18.0,0.0,26.0,0.0,0.0,2.27,,,0.0,0.0,0.0,0.0,0.0,0.0,0.0,0.0,0.0,0.0,0.0,0.0,0.0,0.0,0.0,0.0,,1.0,,,,0.0,38.994099,-76.939827,27.48,27.5,30.0,3.0,0.9,rc_1,-43.58298787193239,-34.923984676880984,slalom
71,359,1724681,1746076502313,,,,,,,,,,,,,,,,,,,,,,,18.0,18.0,18.0,19.0,0.0,23.0,0.0,0.0,2.27,,,0.0,0.0,0.0,0.0,0.0,0.0,0.0,0.0,0.0,0.0,0.0,0.0,0.0,0.0,0.0,0.0,,0.0,,,,,38.994106,-76.939819,27.9,27.5,30.0,3.0,0.9,rc_1,-42.88992148658711,-34.146877248392094,slalom
72,364,1724781,1746076502413,0.0,132.0,,0.01,0.02,1.38,1.0,-1.0,-1.0,1.38,1.38,100.0,5921.0,8.8,4.11,,10.98,0.954,66.4,,65.2,5.0,18.0,17.0,18.0,17.0,0.0,197.0,0.0,0.0,2.27,,,0.0,0.0,0.0,0.0,0.0,0.0,0.0,0.0,0.0,0.0,0.0,0.0,0.0,0.0,0.0,0.0,,0.0,,,,0.0,38.994114,-76.939819,27.79,27.5,30.0,3.0,0.9,rc_1,-42.88992148658711,-33.258754473314276,slalom
73,369,1724881,1746076502515,,,,,,,,,,,,,,,,,,,,,,,18.0,18.0,18.0,18.0,0.0,3.0,0.0,0.0,2.27,,,0.0,0.0,0.0,0.0,0.0,0.0,0.0,0.0,0.0,0.0,0.0,0.0,0.0,0.0,0.0,0.0,,0.0,,,,,38.994118,-76.939819,27.82,27.5,30.0,3.0,0.9,rc_1,-42.88992148658711,-32.814693086169775,slalom
74,374,1724981,1746076502613,0.0,132.0,,-0.04,0.08,1.14,2.0,-2.0,-2.0,1.15,1.38,83.0,5967.0,8.9,4.0,,10.97,0.955,66.4,,65.0,5.0,18.0,18.0,18.0,18.0,0.0,68.0,0.0,0.0,2.27,,,0.0,0.0,0.0,0.0,0.0,0.0,0.0,0.0,0.0,0.0,0.0,0.0,0.0,0.0,0.0,0.0,,0.0,,,,0.0,38.994125,-76.939812,27.96,27.5,30.0,3.0,0.9,rc_1,-42.2834883992561,-32.037585658469695,slalom
75,379,1725081,1746076502715,,,,,,,,,,,,,,,,,,,,,,,18.0,18.0,18.0,18.0,0.0,19.0,0.0,0.0,2.27,,,0.0,0.0,0.0,0.0,0.0,0.0,0.0,0.0,0.0,0.0,0.0,0.0,0.0,0.0,0.0,0.0,,1.0,,,,,38.994133,-76.939812,28.11,27.5,30.0,3.0,0.9,rc_1,-42.2834883992561,-31.149462883391877,slalom
76,384,1725181,1746076502815,0.0,132.0,,-0.05,0.3,1.15,0.0,-1.0,-1.0,1.19,1.38,86.0,5956.0,8.6,3.56,,10.85,0.955,66.4,,65.2,5.0,18.0,19.0,18.0,17.0,0.0,249.0,0.0,0.0,2.27,,,0.0,0.0,0.0,0.0,0.0,0.0,0.0,0.0,0.0,0.0,0.0,0.0,0.0,0.0,0.0,0.0,,1.0,,,,0.0,38.994137,-76.939812,28.42,27.6,30.0,3.0,0.9,rc_1,-42.2834883992561,-30.705401495458563,slalom
77,389,1725281,1746076502915,,,,,,,,,,,,,,,,,,,,,,,17.0,17.0,18.0,18.0,0.0,253.0,0.0,0.0,2.27,,,0.0,0.0,0.0,0.0,0.0,0.0,0.0,0.0,0.0,0.0,0.0,0.0,0.0,0.0,0.0,0.0,,1.0,,,,,38.994144,-76.939812,28.16,27.6,30.0,3.0,0.9,rc_1,-42.2834883992561,-29.928294067758483,slalom
78,394,1725381,1746076503007,0.0,131.0,13.83,0.02,0.25,0.42,0.0,2.0,1.0,0.49,0.82,59.0,5947.0,9.2,3.73,15.0,10.9,0.954,66.4,88.0,65.3,5.0,18.0,17.0,18.0,19.0,0.0,33.0,0.0,0.0,2.27,0.0,0.0,0.0,0.0,0.0,0.0,0.0,0.0,0.0,0.0,0.0,0.0,0.0,0.0,0.0,0.0,0.0,0.0,0.0,1.0,0.0,0.0,0.0,0.0,38.994152,-76.939812,28.41,27.6,30.0,3.0,0.9,rc_1,-42.2834883992561,-29.040171292680668,slalom
79,399,1725481,1746076503113,,,,,,,,,,,,,,,,,,,,,,,18.0,19.0,18.0,17.0,0.0,22.0,0.0,0.0,2.27,,,0.0,0.0,0.0,0.0,0.0,0.0,0.0,0.0,0.0,0.0,0.0,0.0,0.0,0.0,0.0,0.0,,0.0,,,,,38.99416,-76.939804,28.41,27.6,30.0,3.0,0.9,rc_1,-41.59042201267968,-28.15204851760285,slalom
80,404,1725581,1746076503215,0.0,132.0,,0.14,0.09,0.91,1.0,0.0,0.0,0.92,0.92,100.0,6030.0,9.0,3.81,,10.86,0.954,66.4,,65.4,5.0,18.0,18.0,18.0,18.0,0.0,3.0,0.0,0.0,2.27,,,0.0,0.0,0.0,0.0,0.0,0.0,0.0,0.0,0.0,0.0,0.0,0.0,0.0,0.0,0.0,0.0,,0.0,,,,0.0,38.994167,-76.939804,28.46,27.6,30.0,3.0,0.9,rc_1,-41.59042201267968,-27.37494108990277,slalom
81,409,1725681,1746076503314,,,,,,,,,,,,,,,,,,,,,,,18.0,19.0,18.0,19.0,0.0,214.0,0.0,0.0,2.27,,,0.0,0.0,0.0,0.0,0.0,0.0,0.0,0.0,0.0,0.0,0.0,0.0,0.0,0.0,0.0,0.0,,0.0,,,,,38.994175,-76.939796,28.55,27.6,30.0,3.0,0.9,rc_1,-40.897355627334406,-26.486818314824955,slalom
82,414,1725781,1746076503414,0.0,132.0,,0.07,0.36,1.46,1.0,-1.0,-1.0,1.51,1.51,100.0,6047.0,9.5,3.6,,10.86,0.955,66.4,,65.2,5.0,18.0,18.0,18.0,18.0,0.0,7.0,0.0,0.0,2.28,,,0.0,0.0,0.0,0.0,0.0,0.0,0.0,0.0,0.0,0.0,0.0,0.0,0.0,0.0,0.0,0.0,,0.0,,,,0.0,38.994179,-76.939796,28.54,27.6,30.0,3.0,0.9,rc_1,-40.897355627334406,-26.04275692689164,slalom
83,419,1725881,1746076503514,,,,,,,,,,,,,,,,,,,,,,,18.0,18.0,18.0,17.0,0.0,3.0,0.0,0.0,2.27,,,0.0,0.0,0.0,0.0,0.0,0.0,0.0,0.0,0.0,0.0,0.0,0.0,0.0,0.0,0.0,0.0,,1.0,,,,,38.994186,-76.939796,28.74,27.6,30.0,3.0,0.9,rc_1,-40.897355627334406,-25.265649499191557,slalom
84,424,1725981,1746076503614,0.0,132.0,,-0.18,0.47,1.32,4.0,-2.0,1.0,1.41,1.56,90.0,6010.0,9.6,3.61,,10.84,0.955,66.4,,65.3,5.0,17.0,18.0,18.0,18.0,0.0,238.0,0.0,0.0,2.27,,,0.0,0.0,0.0,0.0,0.0,0.0,0.0,0.0,0.0,0.0,0.0,0.0,0.0,0.0,0.0,0.0,,1.0,,,,0.0,38.994194,-76.939789,28.62,27.6,30.0,3.0,0.9,rc_1,-40.29092254000339,-24.377526724113743,slalom
85,429,1726081,1746076503714,,,,,,,,,,,,,,,,,,,,,,,18.0,18.0,18.0,18.0,0.0,209.0,0.0,0.0,2.27,,,0.0,0.0,0.0,0.0,0.0,0.0,0.0,0.0,0.0,0.0,0.0,0.0,0.0,0.0,0.0,0.0,,1.0,,,,,38.994202,-76.939789,28.62,27.6,30.0,3.0,0.9,rc_1,-40.29092254000339,-23.48940394903593,slalom
86,434,1726181,1746076503814,0.0,131.0,,-0.35,0.3,1.0,4.0,-2.0,0.0,1.11,1.56,71.0,6035.0,9.4,3.62,,10.82,0.955,66.4,,65.1,5.0,18.0,19.0,18.0,18.0,0.0,227.0,0.0,0.0,2.27,,,0.0,0.0,0.0,0.0,0.0,0.0,0.0,0.0,0.0,0.0,0.0,0.0,0.0,0.0,0.0,0.0,,1.0,,,,0.0,38.994209,-76.939781,28.51,27.6,30.0,3.0,0.9,rc_1,-39.59785615342698,-22.712296521335844,slalom
87,439,1726281,1746076503914,,,,,,,,,,,,,,,,,,,,,,,18.0,19.0,18.0,19.0,0.0,249.0,0.0,0.0,2.27,,,0.0,0.0,0.0,0.0,0.0,0.0,0.0,0.0,0.0,0.0,0.0,0.0,0.0,0.0,0.0,0.0,,0.0,,,,,38.994213,-76.939781,28.73,27.6,30.0,3.0,0.9,rc_1,-39.59785615342698,-22.26823513340253,slalom
88,444,1726381,1746076504006,0.0,132.0,13.82,-0.28,0.14,0.71,0.0,0.0,-2.0,0.78,1.56,50.0,6084.0,9.2,3.73,15.0,10.85,0.955,66.4,90.0,64.1,5.0,19.0,18.0,18.0,18.0,0.0,253.0,0.0,0.0,2.27,0.0,0.0,0.0,0.0,0.0,0.0,0.0,0.0,0.0,0.0,0.0,0.0,0.0,0.0,0.0,0.0,0.0,0.0,0.0,0.0,0.0,0.0,0.0,0.0,38.994221,-76.939781,28.58,27.6,30.0,3.0,0.9,rc_1,-39.59785615342698,-21.380112358324716,slalom
89,449,1726481,1746076504112,,,,,,,,,,,,,,,,,,,,,,,18.0,18.0,18.0,18.0,0.0,71.0,0.0,0.0,2.28,,,0.0,0.0,0.0,0.0,0.0,0.0,0.0,0.0,0.0,0.0,0.0,0.0,0.0,0.0,0.0,0.0,,1.0,,,,,38.994228,-76.939774,28.52,27.6,30.0,3.0,0.9,rc_1,-38.99142306609597,-20.603004930624635,slalom
90,454,1726581,1746076504214,0.0,132.0,,-0.14,0.17,0.21,1.0,2.0,2.0,0.3,0.3,100.0,6086.0,9.2,3.76,,10.88,0.955,66.4,,65.2,5.0,18.0,18.0,19.0,18.0,0.0,224.0,0.0,0.0,2.27,,,0.0,0.0,0.0,0.0,0.0,0.0,0.0,0.0,0.0,0.0,0.0,0.0,0.0,0.0,0.0,0.0,,1.0,,,,0.0,38.994232,-76.939774,28.68,27.6,30.0,3.0,0.9,rc_1,-38.99142306609597,-20.15894354348013,slalom
91,459,1726681,1746076504313,,,,,,,,,,,,,,,,,,,,,,,18.0,18.0,18.0,17.0,0.0,15.0,0.0,0.0,2.27,,,0.0,0.0,0.0,0.0,0.0,0.0,0.0,0.0,0.0,0.0,0.0,0.0,0.0,0.0,0.0,0.0,,1.0,,,,,38.99424,-76.939774,28.59,27.6,30.0,3.0,0.9,rc_1,-38.99142306609597,-19.270820768402317,slalom
92,464,1726781,1746076504415,0.0,131.0,,-0.09,0.02,0.91,-1.0,-1.0,2.0,0.91,0.91,100.0,6037.0,8.9,3.73,,10.86,0.955,66.4,,63.9,5.0,19.0,19.0,18.0,18.0,0.0,253.0,0.0,0.0,2.28,,,0.0,0.0,0.0,0.0,0.0,0.0,0.0,0.0,0.0,0.0,0.0,0.0,0.0,0.0,0.0,0.0,,1.0,,,,0.0,38.994251,-76.939774,28.87,27.7,30.0,3.0,0.9,rc_1,-38.99142306609597,-18.049651952768922,slalom
93,469,1726881,1746076504515,,,,,,,,,,,,,,,,,,,,,,,18.0,18.0,18.0,18.0,0.0,238.0,0.0,0.0,2.28,,,0.0,0.0,0.0,0.0,0.0,0.0,0.0,0.0,0.0,0.0,0.0,0.0,0.0,0.0,0.0,0.0,,1.0,,,,,38.994255,-76.939774,28.67,27.7,30.0,3.0,0.9,rc_1,-38.99142306609597,-17.60559056483561,slalom
94,474,1726981,1746076504613,0.0,132.0,,-0.13,-0.41,1.29,-1.0,-2.0,2.0,1.36,1.36,100.0,6054.0,5.7,3.09,,10.54,0.955,66.4,,65.0,5.0,18.0,18.0,18.0,18.0,0.0,194.0,0.0,0.0,2.27,,,0.0,0.0,0.0,0.0,0.0,0.0,0.0,0.0,0.0,0.0,0.0,0.0,0.0,0.0,0.0,0.0,,1.0,,,,0.0,38.994263,-76.939766,28.63,27.7,30.0,3.0,0.9,rc_1,-38.298356680750686,-16.717467790546603,slalom
95,479,1727081,1746076504713,,,,,,,,,,,,,,,,,,,,,,,19.0,19.0,18.0,20.0,0.0,203.0,0.0,0.0,2.27,,,0.0,0.0,0.0,0.0,0.0,0.0,0.0,0.0,0.0,0.0,0.0,0.0,0.0,0.0,0.0,0.0,,0.0,,,,,38.99427,-76.939766,28.91,27.7,30.0,3.0,0.9,rc_1,-38.298356680750686,-15.94036036205771,slalom
96,484,1727181,1746076504813,0.0,131.0,,-0.11,-0.29,1.05,-3.0,-2.0,2.0,1.09,1.36,80.0,6028.0,3.9,2.73,,10.01,0.954,66.4,,63.7,5.0,18.0,18.0,18.0,18.0,0.0,14.0,0.0,0.0,2.27,,,0.0,0.0,0.0,0.0,0.0,0.0,0.0,0.0,0.0,0.0,0.0,0.0,0.0,0.0,0.0,0.0,,0.0,,,,0.0,38.994274,-76.939758,28.63,27.7,30.0,3.0,0.9,rc_1,-37.605290294174274,-15.496298974913207,slalom
97,489,1727281,1746076504913,,,,,,,,,,,,,,,,,,,,,,,18.0,18.0,18.0,18.0,0.0,14.0,0.0,0.0,2.27,,,0.0,0.0,0.0,0.0,0.0,0.0,0.0,0.0,0.0,0.0,0.0,0.0,0.0,0.0,0.0,0.0,,1.0,,,,,38.994282,-76.939758,28.52,27.7,30.0,3.0,0.9,rc_1,-37.605290294174274,-14.608176199835391,slalom
98,494,1727381,1746076505007,0.0,131.0,13.74,-0.08,-0.26,0.82,-1.0,-1.0,1.0,0.86,1.36,63.0,5891.0,3.2,2.35,15.0,9.78,0.955,66.4,92.0,62.8,5.0,18.0,19.0,18.0,18.0,0.0,230.0,0.0,0.0,2.27,0.0,0.0,0.0,0.0,0.0,0.0,0.0,0.0,0.0,0.0,0.0,0.0,0.0,0.0,0.0,0.0,0.0,0.0,0.0,1.0,0.0,0.0,0.0,0.0,38.994289,-76.939751,28.2,27.7,30.0,3.0,0.9,rc_1,-36.99885720684326,-13.831068771346498,slalom
99,499,1727481,1746076505113,,,,,,,,,,,,,,,,,,,,,,,18.0,18.0,18.0,18.0,0.0,15.0,0.0,0.0,2.27,,,0.0,0.0,0.0,0.0,0.0,0.0,0.0,0.0,0.0,0.0,0.0,0.0,0.0,0.0,0.0,0.0,,0.0,,,,,38.994293,-76.939751,28.2,27.7,30.0,3.0,0.9,rc_1,-36.99885720684326,-13.387007384201997,slalom
100,504,1727581,1746076505213,0.0,130.0,,-0.23,-0.09,0.94,-4.0,0.0,2.0,0.98,1.36,72.0,5349.0,3.6,2.42,,10.32,0.953,66.4,,57.1,5.0,17.0,18.0,17.0,17.0,0.0,219.0,0.0,0.0,2.27,,,0.0,0.0,0.0,0.0,0.0,0.0,0.0,0.0,0.0,0.0,0.0,0.0,0.0,0.0,0.0,0.0,,0.0,,,,0.0,38.994305,-76.939743,27.78,27.7,30.0,3.0,0.9,rc_1,-36.305790821497986,-12.054823221979678,unlabeled
101,509,1727681,1746076505314,,,,,,,,,,,,,,,,,,,,,,,16.0,17.0,16.0,17.0,0.0,233.0,0.0,0.0,2.27,,,0.0,0.0,0.0,0.0,0.0,0.0,0.0,0.0,0.0,0.0,0.0,0.0,0.0,0.0,0.0,0.0,,1.0,,,,,38.994312,-76.939743,26.84,27.7,30.0,3.0,0.9,rc_1,-36.305790821497986,-11.277715793490785,unlabeled
102,514,1727781,1746076505414,0.0,130.0,,-0.2,0.07,1.02,-6.0,-1.0,2.0,1.04,1.04,100.0,5603.0,3.2,2.43,,10.18,0.955,66.4,,61.6,5.0,17.0,17.0,17.0,17.0,0.0,210.0,0.0,0.0,2.27,,,0.0,0.0,0.0,0.0,0.0,0.0,0.0,0.0,0.0,0.0,0.0,0.0,0.0,0.0,0.0,0.0,,1.0,,,,0.0,38.994316,-76.939743,26.1,27.7,30.0,3.0,0.9,rc_1,-36.305790821497986,-10.833654406346284,unlabeled
103,519,1727881,1746076505514,,,,,,,,,,,,,,,,,,,,,,,16.0,17.0,16.0,17.0,0.0,220.0,0.0,0.0,2.27,,,0.0,0.0,0.0,0.0,0.0,0.0,0.0,0.0,0.0,0.0,0.0,0.0,0.0,0.0,0.0,0.0,,1.0,,,,,38.99432,-76.939735,25.82,27.7,30.0,3.0,0.9,rc_1,-35.61272443492157,-10.38959301841297,unlabeled
104,524,1727981,1746076505614,0.0,131.0,,-0.2,-0.13,1.0,-6.0,-1.0,1.0,1.03,1.08,96.0,5181.0,3.3,2.43,,10.66,0.953,66.4,,55.6,5.0,16.0,17.0,16.0,17.0,0.0,205.0,0.0,0.0,2.27,,,0.0,0.0,0.0,0.0,0.0,0.0,0.0,0.0,0.0,0.0,0.0,0.0,0.0,0.0,0.0,0.0,,0.0,,,,0.0,38.994328,-76.939735,25.29,27.7,30.0,3.0,0.9,rc_1,-35.61272443492157,-9.501470243335154,unlabeled
105,529,1728081,1746076505714,,,,,,,,,,,,,,,,,,,,,,,16.0,17.0,16.0,17.0,0.0,205.0,0.0,0.0,2.27,,,0.0,0.0,0.0,0.0,0.0,0.0,0.0,0.0,0.0,0.0,0.0,0.0,0.0,0.0,0.0,0.0,,0.0,,,,,38.994331,-76.939735,24.83,27.7,30.0,3.0,0.9,rc_1,-35.61272443492157,-9.168424202779574,unlabeled
106,534,1728181,1746076505814,0.0,131.0,,-0.22,-0.12,0.96,-8.0,-1.0,0.0,0.99,1.08,92.0,5181.0,3.3,2.43,,10.66,0.953,66.4,,55.6,5.0,16.0,17.0,16.0,17.0,0.0,205.0,0.0,0.0,2.27,,,0.0,0.0,0.0,0.0,0.0,0.0,0.0,0.0,0.0,0.0,0.0,0.0,0.0,0.0,0.0,0.0,,0.0,,,,0.0,38.994339,-76.939735,23.77,27.7,30.0,3.0,0.9,rc_1,-35.61272443492157,-8.28030142849057,unlabeled
107,539,1728281,1746076505914,,,,,,,,,,,,,,,,,,,,,,,16.0,17.0,16.0,17.0,0.0,205.0,0.0,0.0,2.27,,,0.0,0.0,0.0,0.0,0.0,0.0,0.0,0.0,0.0,0.0,0.0,0.0,0.0,0.0,0.0,0.0,,0.0,,,,,38.994343,-76.939728,23.71,27.7,30.0,3.0,0.9,rc_1,-35.006291347590555,-7.836240040557256,unlabeled
108,544,1728381,1746076506006,0.0,131.0,13.78,-0.19,-0.01,0.97,-8.0,-1.0,0.0,0.99,1.08,91.0,5181.0,3.3,2.43,15.0,10.66,0.953,66.4,92.0,55.6,5.0,16.0,17.0,16.0,17.0,0.0,205.0,0.0,0.0,2.27,0.0,0.0,0.0,0.0,0.0,0.0,0.0,0.0,0.0,0.0,0.0,0.0,0.0,0.0,0.0,0.0,0.0,0.0,0.0,0.0,0.0,0.0,0.0,0.0,38.99435,-76.939728,23.12,27.7,30.0,3.0,0.9,rc_1,-35.006291347590555,-7.059132612857175,unlabeled
109,549,1728481,1746076506108,,,,,,,,,,,,,,,,,,,,,,,16.0,17.0,16.0,17.0,0.0,205.0,0.0,0.0,2.27,,,0.0,0.0,0.0,0.0,0.0,0.0,0.0,0.0,0.0,0.0,0.0,0.0,0.0,0.0,0.0,0.0,,0.0,,,,,38.994354,-76.93972,22.63,27.7,30.0,3.0,0.9,rc_1,-34.31322496101414,-6.615071224923861,unlabeled
110,554,1728581,1746076506214,0.0,131.0,,-0.16,0.02,0.97,-7.0,-1.0,-1.0,0.99,1.08,92.0,5181.0,3.3,2.43,,10.66,0.953,66.4,,55.6,5.0,16.0,17.0,16.0,17.0,0.0,205.0,0.0,0.0,2.27,,,0.0,0.0,0.0,0.0,0.0,0.0,0.0,0.0,0.0,0.0,0.0,0.0,0.0,0.0,0.0,0.0,,0.0,,,,0.0,38.994358,-76.939712,22.23,27.7,30.0,3.0,0.9,rc_1,-33.62015857566887,-6.1710098377793585,unlabeled
111,559,1728681,1746076506313,,,,,,,,,,,,,,,,,,,,,,,16.0,17.0,16.0,17.0,0.0,205.0,0.0,0.0,2.27,,,0.0,0.0,0.0,0.0,0.0,0.0,0.0,0.0,0.0,0.0,0.0,0.0,0.0,0.0,0.0,0.0,,0.0,,,,,38.994366,-76.939712,21.92,27.7,30.0,3.0,0.9,rc_1,-33.62015857566887,-5.282887062701543,unlabeled
112,564,1728781,1746076506415,0.0,131.0,,-0.14,-0.05,0.99,-6.0,-1.0,0.0,1.0,1.09,91.0,5181.0,3.3,2.43,,10.66,0.953,66.4,,55.6,5.0,16.0,17.0,16.0,17.0,0.0,205.0,0.0,0.0,2.27,,,0.0,0.0,0.0,0.0,0.0,0.0,0.0,0.0,0.0,0.0,0.0,0.0,0.0,0.0,0.0,0.0,,0.0,,,,0.0,38.99437,-76.939705,21.68,27.7,30.0,3.0,0.9,rc_1,-33.013725488337855,-4.83882567476823,unlabeled
113,569,1728881,1746076506513,,,,,,,,,,,,,,,,,,,,,,,16.0,17.0,16.0,17.0,0.0,205.0,0.0,0.0,2.27,,,0.0,0.0,0.0,0.0,0.0,0.0,0.0,0.0,0.0,0.0,0.0,0.0,0.0,0.0,0.0,0.0,,0.0,,,,,38.994373,-76.939705,21.82,27.7,30.0,3.0,0.9,rc_1,-33.013725488337855,-4.50577963421265,unlabeled
114,574,1728981,1746076506615,0.0,131.0,,-0.05,0.18,1.2,-5.0,-1.0,1.0,1.22,1.22,100.0,5181.0,3.3,2.43,,10.66,0.953,66.4,,55.6,5.0,16.0,17.0,16.0,17.0,0.0,205.0,0.0,0.0,2.27,,,0.0,0.0,0.0,0.0,0.0,0.0,0.0,0.0,0.0,0.0,0.0,0.0,0.0,0.0,0.0,0.0,,0.0,,,,0.0,38.994377,-76.939697,21.86,27.7,30.0,3.0,0.9,rc_1,-32.320659101761436,-4.061718247068148,unlabeled
115,579,1729081,1746076506715,,,,,,,,,,,,,,,,,,,,,,,16.0,17.0,16.0,17.0,0.0,205.0,0.0,0.0,2.27,,,0.0,0.0,0.0,0.0,0.0,0.0,0.0,0.0,0.0,0.0,0.0,0.0,0.0,0.0,0.0,0.0,,0.0,,,,,38.994385,-76.939697,21.86,27.7,30.0,3.0,0.9,rc_1,-32.320659101761436,-3.173595471990332,unlabeled
116,584,1729181,1746076506813,0.0,131.0,,-0.04,0.0,1.04,-5.0,-2.0,0.0,1.04,1.22,85.0,5181.0,3.3,2.43,,10.66,0.953,66.4,,55.6,5.0,16.0,17.0,16.0,17.0,0.0,205.0,0.0,0.0,2.27,,,0.0,0.0,0.0,0.0,0.0,0.0,0.0,0.0,0.0,0.0,0.0,0.0,0.0,0.0,0.0,0.0,,0.0,,,,0.0,38.994389,-76.939697,22.3,27.7,30.0,3.0,0.9,rc_1,-32.320659101761436,-2.72953408484583,unlabeled
117,589,1729281,1746076506913,,,,,,,,,,,,,,,,,,,,,,,16.0,17.0,16.0,17.0,0.0,205.0,0.0,0.0,2.27,,,0.0,0.0,0.0,0.0,0.0,0.0,0.0,0.0,0.0,0.0,0.0,0.0,0.0,0.0,0.0,0.0,,0.0,,,,,38.994392,-76.939697,22.39,27.7,30.0,3.0,0.9,rc_1,-32.320659101761436,-2.3964880442902503,unlabeled
118,594,1729381,1746076507007,0.0,131.0,13.83,-0.03,-0.02,1.03,-4.0,-2.0,0.0,1.03,1.1,93.0,5181.0,3.3,2.43,15.0,10.66,0.953,66.4,92.0,55.6,5.0,16.0,17.0,16.0,17.0,0.0,205.0,0.0,0.0,2.27,0.0,0.0,0.0,0.0,0.0,0.0,0.0,0.0,0.0,0.0,0.0,0.0,0.0,0.0,0.0,0.0,0.0,0.0,0.0,0.0,0.0,0.0,0.0,0.0,38.994396,-76.93969,22.28,27.7,30.0,3.0,0.9,rc_1,-31.714226014430427,-1.9524266563569368,unlabeled
119,599,1729481,1746076507109,,,,,,,,,,,,,,,,,,,,,,,16.0,17.0,16.0,17.0,0.0,205.0,0.0,0.0,2.27,,,0.0,0.0,0.0,0.0,0.0,0.0,0.0,0.0,0.0,0.0,0.0,0.0,0.0,0.0,0.0,0.0,,0.0,,,,,38.994404,-76.939682,22.82,27.7,30.0,3.0,0.9,rc_1,-31.021159629085147,-1.064303881279121,unlabeled
120,604,1729581,1746076507211,0.0,131.0,,-0.02,-0.05,1.01,-3.0,-2.0,-1.0,1.02,1.1,92.0,4926.0,20.4,3.91,,13.55,0.954,66.4,,60.2,5.0,16.0,17.0,16.0,17.0,0.0,113.0,0.0,0.0,2.27,,,0.0,0.0,0.0,0.0,0.0,0.0,0.0,0.0,0.0,0.0,0.0,0.0,0.0,0.0,0.0,0.0,,0.0,,,,0.0,38.994408,-76.939682,22.8,27.7,30.0,3.0,0.9,rc_1,-31.021159629085147,-0.6202424941346188,unlabeled
121,609,1729681,1746076507314,,,,,,,,,,,,,,,,,,,,,,,15.0,131.0,15.0,15.0,0.0,97.0,0.0,0.0,2.27,,,0.0,0.0,0.0,0.0,0.0,0.0,0.0,0.0,0.0,0.0,0.0,0.0,0.0,0.0,0.0,0.0,,0.0,,,,,38.994411,-76.939674,23.13,27.7,30.0,3.0,0.9,rc_1,-30.328093242508732,-0.28719645357903933,unlabeled
122,614,1729781,1746076507414,0.0,131.0,,-0.01,0.04,0.99,-3.0,-1.0,-1.0,0.99,1.1,90.0,4980.0,20.5,3.81,,13.44,0.954,66.4,,61.1,5.0,14.0,36.0,15.0,15.0,0.0,107.0,0.0,0.0,2.27,,,0.0,0.0,0.0,0.0,0.0,0.0,0.0,0.0,0.0,0.0,0.0,0.0,0.0,0.0,0.0,0.0,,1.0,,,,0.0,38.994415,-76.939674,23.19,27.7,30.0,3.0,0.9,rc_1,-30.328093242508732,0.15686493356546283,unlabeled
123,619,1729881,1746076507514,,,,,,,,,,,,,,,,,,,,,,,15.0,15.0,15.0,15.0,0.0,231.0,0.0,0.0,2.27,,,0.0,0.0,0.0,0.0,0.0,0.0,0.0,0.0,0.0,0.0,0.0,0.0,0.0,0.0,0.0,0.0,,1.0,,,,,38.994423,-76.939667,23.6,27.7,30.0,3.0,0.9,rc_1,-29.721660155177723,1.0449877086432786,unlabeled
124,624,1729981,1746076507614,0.0,131.0,,-0.02,0.13,1.06,-4.0,-1.0,0.0,1.07,1.1,97.0,5044.0,20.4,3.78,,13.47,0.955,66.4,,61.0,5.0,16.0,26.0,15.0,15.0,0.0,91.0,0.0,0.0,2.27,,,0.0,0.0,0.0,0.0,0.0,0.0,0.0,0.0,0.0,0.0,0.0,0.0,0.0,0.0,0.0,0.0,,1.0,,,,0.0,38.994427,-76.939659,23.71,27.7,30.0,3.0,0.9,rc_1,-29.02859376983244,1.4890490965765923,unlabeled
125,629,1730081,1746076507714,,,,,,,,,,,,,,,,,,,,,,,15.0,12.0,15.0,14.0,0.0,22.0,0.0,0.0,2.27,,,0.0,0.0,0.0,0.0,0.0,0.0,0.0,0.0,0.0,0.0,0.0,0.0,0.0,0.0,0.0,0.0,,1.0,,,,,38.994434,-76.939659,23.94,27.6,30.0,3.0,0.9,rc_1,-29.02859376983244,2.266156524276674,unlabeled
126,634,1730181,1746076507814,0.0,131.0,,-0.03,0.14,1.06,-3.0,-1.0,0.0,1.07,1.1,97.0,5131.0,20.6,3.82,,13.47,0.955,66.4,,62.8,5.0,16.0,22.0,15.0,16.0,0.0,97.0,0.0,0.0,2.27,,,0.0,0.0,0.0,0.0,0.0,0.0,0.0,0.0,0.0,0.0,0.0,0.0,0.0,0.0,0.0,0.0,,1.0,,,,0.0,38.994434,-76.939652,24.12,27.6,30.0,3.0,0.9,rc_1,-28.4221606812703,2.266156524276674,unlabeled
127,639,1730281,1746076507914,,,,,,,,,,,,,,,,,,,,,,,15.0,36.0,15.0,16.0,0.0,62.0,0.0,0.0,2.27,,,0.0,0.0,0.0,0.0,0.0,0.0,0.0,0.0,0.0,0.0,0.0,0.0,0.0,0.0,0.0,0.0,,1.0,,,,,38.994442,-76.939652,24.31,27.6,30.0,3.0,0.9,rc_1,-28.4221606812703,3.15427929935449,unlabeled
128,644,1730381,1746076508006,0.0,132.0,13.86,-0.01,-0.06,1.03,0.0,-1.0,0.0,1.04,1.1,94.0,5268.0,20.0,3.83,15.0,13.4,0.955,66.4,93.0,62.7,5.0,16.0,54.0,16.0,16.0,0.0,103.0,0.0,0.0,2.27,0.0,0.0,0.0,0.0,0.0,0.0,0.0,0.0,0.0,0.0,0.0,0.0,0.0,0.0,0.0,0.0,0.0,0.0,0.0,1.0,0.0,0.0,0.0,0.0,38.99445,-76.939652,24.82,27.6,30.0,3.0,0.9,rc_1,-28.4221606812703,4.042402074432306,unlabeled
129,649,1730481,1746076508112,,,,,,,,,,,,,,,,,,,,,,,16.0,54.0,16.0,16.0,0.0,10.0,0.0,0.0,2.27,,,0.0,0.0,0.0,0.0,0.0,0.0,0.0,0.0,0.0,0.0,0.0,0.0,0.0,0.0,0.0,0.0,,1.0,,,,,38.994453,-76.939644,25.13,27.6,30.0,3.0,0.9,rc_1,-27.729094295925016,4.375448114987885,unlabeled
130,654,1730581,1746076508216,0.0,132.0,,0.01,0.23,1.02,1.0,-1.0,1.0,1.04,1.1,94.0,5492.0,20.4,3.92,,13.33,0.954,66.4,,62.4,5.0,16.0,39.0,16.0,16.0,0.0,71.0,0.0,0.0,2.27,,,0.0,0.0,0.0,0.0,0.0,0.0,0.0,0.0,0.0,0.0,0.0,0.0,0.0,0.0,0.0,0.0,,1.0,,,,0.0,38.994457,-76.939636,25.48,27.6,30.0,3.0,0.9,rc_1,-27.036027909348604,4.819509502132387,unlabeled
131,659,1730681,1746076508313,,,,,,,,,,,,,,,,,,,,,,,16.0,50.0,17.0,16.0,0.0,108.0,0.0,0.0,2.27,,,0.0,0.0,0.0,0.0,0.0,0.0,0.0,0.0,0.0,0.0,0.0,0.0,0.0,0.0,0.0,0.0,,1.0,,,,,38.994465,-76.939636,25.77,27.6,30.0,3.0,0.9,rc_1,-27.036027909348604,5.707632277210203,unlabeled
132,664,1730781,1746076508415,0.0,131.0,,0.02,0.02,0.9,3.0,-1.0,1.0,0.9,1.1,82.0,5641.0,20.3,3.97,,13.07,0.954,66.4,,65.1,5.0,17.0,26.0,17.0,17.0,0.0,152.0,0.0,0.0,2.27,,,0.0,0.0,0.0,0.0,0.0,0.0,0.0,0.0,0.0,0.0,0.0,0.0,0.0,0.0,0.0,0.0,,1.0,,,,0.0,38.994469,-76.939629,26.08,27.6,30.0,3.0,0.9,rc_1,-26.42959482201759,6.151693665143517,unlabeled
133,669,1730881,1746076508513,,,,,,,,,,,,,,,,,,,,,,,17.0,164.0,17.0,17.0,0.0,1.0,0.0,0.0,2.27,,,0.0,0.0,0.0,0.0,0.0,0.0,0.0,0.0,0.0,0.0,0.0,0.0,0.0,0.0,0.0,0.0,,1.0,,,,,38.994472,-76.939621,26.66,27.6,30.0,3.0,0.9,rc_1,-25.736528436672312,6.484739705699096,unlabeled
134,674,1730981,1746076508615,0.0,131.0,,0.04,0.03,0.92,3.0,1.0,0.0,0.92,0.97,94.0,5764.0,12.7,3.92,,12.35,0.954,66.4,,67.8,5.0,17.0,19.0,17.0,18.0,0.0,139.0,0.0,0.0,2.27,,,0.0,0.0,0.0,0.0,0.0,0.0,0.0,0.0,0.0,0.0,0.0,0.0,0.0,0.0,0.0,0.0,,0.0,,,,0.0,38.99448,-76.939621,27.11,27.6,30.0,3.0,0.9,rc_1,-25.736528436672312,7.372862480776912,unlabeled
135,679,1731081,1746076508715,,,,,,,,,,,,,,,,,,,,,,,18.0,162.0,17.0,17.0,0.0,34.0,0.0,0.0,2.27,,,0.0,0.0,0.0,0.0,0.0,0.0,0.0,0.0,0.0,0.0,0.0,0.0,0.0,0.0,0.0,0.0,,0.0,,,,,38.994488,-76.939613,27.46,27.6,30.0,3.0,0.9,rc_1,-25.043462050095897,8.260985255065917,unlabeled
136,684,1731181,1746076508815,0.0,132.0,,-0.01,0.22,0.89,2.0,-1.0,0.0,0.92,1.09,84.0,5815.0,8.9,4.04,,11.4,0.955,66.4,,67.3,5.0,18.0,17.0,18.0,18.0,0.0,7.0,0.0,0.0,2.27,,,0.0,0.0,0.0,0.0,0.0,0.0,0.0,0.0,0.0,0.0,0.0,0.0,0.0,0.0,0.0,0.0,,1.0,,,,0.0,38.994492,-76.939613,27.59,27.6,30.0,3.0,0.9,rc_1,-25.043462050095897,8.70504664299923,unlabeled
137,689,1731281,1746076508915,,,,,,,,,,,,,,,,,,,,,,,18.0,89.0,18.0,18.0,0.0,27.0,0.0,0.0,2.27,,,0.0,0.0,0.0,0.0,0.0,0.0,0.0,0.0,0.0,0.0,0.0,0.0,0.0,0.0,0.0,0.0,,1.0,,,,,38.994495,-76.939606,27.66,27.6,30.0,3.0,0.9,rc_1,-24.437028962764888,9.03809268355481,unlabeled
138,694,1731381,1746076509007,0.0,132.0,13.87,-0.09,0.1,0.75,0.0,0.0,1.0,0.76,1.09,70.0,5784.0,0.4,1.59,15.0,10.54,0.955,66.4,93.0,69.2,5.0,17.0,18.0,18.0,18.0,0.0,27.0,0.0,0.0,2.27,0.0,0.0,0.0,0.0,0.0,0.0,0.0,0.0,0.0,0.0,0.0,0.0,0.0,0.0,0.0,0.0,0.0,0.0,0.0,0.0,0.0,0.0,0.0,0.0,38.994503,-76.939606,27.76,27.6,30.0,3.0,0.9,rc_1,-24.437028962764888,9.926215458632624,unlabeled
139,699,1731481,1746076509113,,,,,,,,,,,,,,,,,,,,,,,17.0,18.0,18.0,18.0,0.0,27.0,0.0,0.0,2.27,,,0.0,0.0,0.0,0.0,0.0,0.0,0.0,0.0,0.0,0.0,0.0,0.0,0.0,0.0,0.0,0.0,,0.0,,,,,38.994511,-76.939598,27.57,27.6,30.0,3.0,0.9,rc_1,-23.743962577419605,10.81433823371044,unlabeled
140,704,1731581,1746076509213,0.0,131.0,,-0.2,0.1,0.83,-3.0,-1.0,0.0,0.86,1.09,79.0,5784.0,0.4,1.59,,10.54,0.955,66.4,,69.2,5.0,17.0,18.0,18.0,18.0,0.0,27.0,0.0,0.0,2.27,,,0.0,0.0,0.0,0.0,0.0,0.0,0.0,0.0,0.0,0.0,0.0,0.0,0.0,0.0,0.0,0.0,,0.0,,,,0.0,38.994514,-76.93959,27.27,27.6,30.0,3.0,0.9,rc_1,-23.050896190843194,11.14738427426602,unlabeled
141,709,1731681,1746076509314,,,,,,,,,,,,,,,,,,,,,,,17.0,18.0,18.0,18.0,0.0,27.0,0.0,0.0,2.27,,,0.0,0.0,0.0,0.0,0.0,0.0,0.0,0.0,0.0,0.0,0.0,0.0,0.0,0.0,0.0,0.0,,0.0,,,,,38.994522,-76.939583,26.81,27.6,30.0,3.0,0.9,rc_1,-22.44446310351218,12.035507049343837,unlabeled
142,714,1731781,1746076509414,0.0,131.0,,-0.25,-0.06,0.92,-8.0,-3.0,0.0,0.95,1.09,88.0,5214.0,0.0,1.69,,9.86,0.957,66.4,,68.4,5.0,16.0,17.0,15.0,16.0,0.0,219.0,0.0,0.0,2.27,,,0.0,0.0,0.0,0.0,0.0,0.0,0.0,0.0,0.0,0.0,0.0,0.0,0.0,0.0,0.0,0.0,,0.0,,,,0.0,38.994526,-76.939583,25.31,27.6,30.0,3.0,0.9,rc_1,-22.44446310351218,12.47956843648834,unlabeled
143,719,1731881,1746076509514,,,,,,,,,,,,,,,,,,,,,,,15.0,460.0,16.0,14.0,0.0,67.0,0.0,0.0,2.25,,,0.0,0.0,0.0,0.0,0.0,0.0,0.0,0.0,0.0,0.0,0.0,0.0,0.0,0.0,0.0,0.0,,0.0,,,,,38.994534,-76.939575,24.35,27.6,30.0,3.0,0.9,rc_1,-21.7513967181669,13.367691211566154,unlabeled
144,724,1731981,1746076509614,3.9,131.0,,-0.28,0.13,1.0,-3.0,-2.0,1.0,1.05,1.09,96.0,4855.0,4.2,3.07,,10.92,0.956,66.4,,58.3,5.0,15.0,39.0,15.0,15.0,0.0,103.0,0.0,0.0,2.25,,,0.0,0.0,0.0,0.0,0.0,0.0,0.0,0.0,0.0,0.0,0.0,0.0,0.0,0.0,0.0,0.0,,1.0,,,,0.0,38.994534,-76.939575,23.44,27.6,30.0,3.0,0.9,rc_1,-21.7513967181669,13.367691211566154,unlabeled
145,729,1732081,1746076509714,,,,,,,,,,,,,,,,,,,,,,,14.0,20.0,15.0,13.0,0.0,252.0,0.0,0.0,2.25,,,0.0,0.0,0.0,0.0,0.0,0.0,0.0,0.0,0.0,0.0,0.0,0.0,0.0,0.0,0.0,0.0,,1.0,,,,,38.994541,-76.939575,22.76,27.6,30.0,3.0,0.9,rc_1,-21.7513967181669,14.144798639266236,unlabeled
146,734,1732181,1746076509814,4.52,131.0,,-0.24,-0.12,1.12,5.0,-2.0,1.0,1.15,1.26,91.0,4705.0,4.9,3.42,,11.71,0.955,66.4,,57.6,5.0,14.0,20.0,14.0,14.0,0.0,238.0,0.0,0.0,2.25,,,0.0,0.0,0.0,0.0,0.0,0.0,0.0,0.0,0.0,0.0,0.0,0.0,0.0,0.0,0.0,0.0,,0.0,,,,0.0,38.994545,-76.939568,22.6,27.6,30.0,3.0,0.9,rc_1,-21.144963629604757,14.58886002719955,unlabeled
147,739,1732281,1746076509914,,,,,,,,,,,,,,,,,,,,,,,14.0,20.0,14.0,13.0,0.0,235.0,0.0,0.0,2.25,,,0.0,0.0,0.0,0.0,0.0,0.0,0.0,0.0,0.0,0.0,0.0,0.0,0.0,0.0,0.0,0.0,,0.0,,,,,38.994553,-76.93956,22.07,27.6,30.0,3.0,0.9,rc_1,-20.451897244259477,15.476982802277366,unlabeled
148,744,1732381,1746076510008,1.38,131.0,13.95,-0.11,0.22,1.43,14.0,-2.0,0.0,1.45,1.45,100.0,4487.0,5.5,3.65,15.0,12.16,0.957,66.4,93.0,55.7,5.0,14.0,20.0,14.0,13.0,0.0,231.0,0.0,0.0,2.24,0.0,0.0,0.0,0.0,0.0,0.0,0.0,0.0,0.0,0.0,0.0,0.0,0.0,0.0,0.0,0.0,0.0,0.0,0.0,1.0,0.0,0.0,0.0,0.0,38.994553,-76.93956,21.76,27.6,30.0,3.0,0.9,rc_1,-20.451897244259477,15.476982802277366,unlabeled
149,749,1732481,1746076510112,,,,,,,,,,,,,,,,,,,,,,,14.0,20.0,14.0,13.0,0.0,235.0,0.0,0.0,2.24,,,0.0,0.0,0.0,0.0,0.0,0.0,0.0,0.0,0.0,0.0,0.0,0.0,0.0,0.0,0.0,0.0,,1.0,,,,,38.99456,-76.939552,21.58,27.6,30.0,3.0,0.9,rc_1,-19.758830858914195,16.254090229977447,unlabeled
150,754,1732581,1746076510210,4.52,132.0,,-0.06,0.28,1.28,23.0,-1.0,-1.0,1.32,1.52,86.0,4395.0,8.6,3.68,,12.44,0.956,66.4,,56.1,5.0,14.0,20.0,14.0,12.0,0.0,228.0,0.0,0.0,2.25,,,0.0,0.0,0.0,0.0,0.0,0.0,0.0,0.0,0.0,0.0,0.0,0.0,0.0,0.0,0.0,0.0,,0.0,,,,0.0,38.994564,-76.939552,21.3,27.6,30.0,3.0,0.9,rc_1,-19.758830858914195,16.698151617121948,unlabeled
151,759,1732681,1746076510313,,,,,,,,,,,,,,,,,,,,,,,14.0,20.0,14.0,12.0,0.0,224.0,0.0,0.0,2.25,,,0.0,0.0,0.0,0.0,0.0,0.0,0.0,0.0,0.0,0.0,0.0,0.0,0.0,0.0,0.0,0.0,,0.0,,,,,38.994572,-76.939552,20.91,27.6,30.0,3.0,0.9,rc_1,-19.758830858914195,17.586274392199766,unlabeled
152,764,1732781,1746076510415,1.38,132.0,,-0.14,0.43,1.0,29.0,-2.0,-1.0,1.1,1.52,72.0,4500.0,15.2,4.06,,13.17,0.956,68.2,,61.0,5.0,14.0,20.0,13.0,12.0,0.0,210.0,0.0,0.0,2.24,,,0.0,0.0,0.0,0.0,0.0,0.0,0.0,0.0,0.0,0.0,0.0,0.0,0.0,0.0,0.0,0.0,,0.0,,,,0.0,38.994576,-76.939545,20.23,27.6,30.0,3.0,0.9,rc_1,-19.152397770352053,18.03033578013308,unlabeled
153,769,1732881,1746076510513,,,,,,,,,,,,,,,,,,,,,,,14.0,20.0,14.0,13.0,0.0,221.0,0.0,0.0,2.25,,,0.0,0.0,0.0,0.0,0.0,0.0,0.0,0.0,0.0,0.0,0.0,0.0,0.0,0.0,0.0,0.0,,0.0,,,,,38.994579,-76.939545,20.65,27.6,30.0,3.0,0.9,rc_1,-19.152397770352053,18.36338182068866,unlabeled
154,774,1732981,1746076510615,0.0,132.0,,-0.06,0.55,1.04,35.0,-2.0,-1.0,1.17,1.52,77.0,4233.0,19.5,4.64,,13.59,0.956,68.2,,59.1,5.0,14.0,20.0,14.0,12.0,0.0,228.0,0.0,0.0,2.25,,,0.0,0.0,0.0,0.0,0.0,0.0,0.0,0.0,0.0,0.0,0.0,0.0,0.0,0.0,0.0,0.0,,0.0,,,,0.0,38.994587,-76.939545,20.72,27.6,30.0,3.0,0.9,rc_1,-19.152397770352053,19.251504595766473,unlabeled
155,779,1733081,1746076510715,,,,,,,,,,,,,,,,,,,,,,,14.0,20.0,14.0,12.0,0.0,210.0,0.0,0.0,2.25,,,0.0,0.0,0.0,0.0,0.0,0.0,0.0,0.0,0.0,0.0,0.0,0.0,0.0,0.0,0.0,0.0,,0.0,,,,,38.994591,-76.939545,20.76,27.6,30.0,3.0,0.9,rc_1,-19.152397770352053,19.695565982910978,unlabeled
156,784,1733181,1746076510815,0.0,132.0,,0.01,0.59,1.26,37.0,-2.0,-2.0,1.39,1.52,92.0,4490.0,22.1,4.38,,13.86,0.956,68.2,,63.8,5.0,14.0,20.0,14.0,12.0,0.0,231.0,0.0,0.0,2.25,,,0.0,0.0,0.0,0.0,0.0,0.0,0.0,0.0,0.0,0.0,0.0,0.0,0.0,0.0,0.0,0.0,,0.0,,,,0.0,38.994595,-76.939545,20.43,27.6,30.0,3.0,0.9,rc_1,-19.152397770352053,20.13962737005548,unlabeled
157,789,1733281,1746076510915,,,,,,,,,,,,,,,,,,,,,,,14.0,20.0,14.0,12.0,0.0,0.0,0.0,0.0,2.24,,,0.0,0.0,0.0,0.0,0.0,0.0,0.0,0.0,0.0,0.0,0.0,0.0,0.0,0.0,0.0,0.0,,0.0,,,,,38.994602,-76.939545,21.65,27.6,30.0,3.0,0.9,rc_1,-19.152397770352053,20.916734798544372,unlabeled
158,794,1733381,1746076511007,0.0,132.0,13.95,-0.09,0.42,1.0,36.0,-2.0,-1.0,1.09,1.52,72.0,4477.0,22.2,4.4,15.0,13.82,0.956,68.2,95.0,62.2,5.0,14.0,20.0,14.0,13.0,0.0,221.0,0.0,0.0,2.25,0.0,0.0,0.0,0.0,0.0,0.0,0.0,0.0,0.0,0.0,0.0,0.0,0.0,0.0,0.0,0.0,0.0,0.0,0.0,0.0,0.0,0.0,0.0,0.0,38.994606,-76.939545,21.43,27.6,30.0,3.0,0.9,rc_1,-19.152397770352053,21.360796185688873,unlabeled
159,799,1733481,1746076511111,,,,,,,,,,,,,,,,,,,,,,,14.0,20.0,14.0,13.0,0.0,245.0,0.0,0.0,2.25,,,0.0,0.0,0.0,0.0,0.0,0.0,0.0,0.0,0.0,0.0,0.0,0.0,0.0,0.0,0.0,0.0,,0.0,,,,,38.99461,-76.939545,21.82,27.6,30.0,3.0,0.9,rc_1,-19.152397770352053,21.804857573622186,unlabeled
160,804,1733581,1746076511211,0.0,132.0,,-0.09,0.36,0.94,32.0,-3.0,-1.0,1.01,1.52,66.0,4598.0,22.2,4.31,,13.8,0.956,68.2,,63.5,5.0,14.0,20.0,14.0,13.0,0.0,6.0,0.0,0.0,2.25,,,0.0,0.0,0.0,0.0,0.0,0.0,0.0,0.0,0.0,0.0,0.0,0.0,0.0,0.0,0.0,0.0,,0.0,,,,0.0,38.994617,-76.939552,21.61,27.6,30.0,3.0,0.9,rc_1,-19.758830858914195,22.581965001322267,unlabeled
161,809,1733681,1746076511314,,,,,,,,,,,,,,,,,,,,,,,15.0,20.0,15.0,13.0,0.0,0.0,0.0,0.0,2.25,,,0.0,0.0,0.0,0.0,0.0,0.0,0.0,0.0,0.0,0.0,0.0,0.0,0.0,0.0,0.0,0.0,,0.0,,,,,38.994621,-76.939552,22.19,27.6,30.0,3.0,0.9,rc_1,-19.758830858914195,23.026026389255584,unlabeled
162,814,1733781,1746076511414,0.75,133.0,,-0.04,0.37,0.9,31.0,-3.0,0.0,0.97,1.52,64.0,4729.0,21.9,4.15,,13.8,0.956,68.2,,63.6,5.0,14.0,20.0,15.0,13.0,0.0,13.0,0.0,0.0,2.25,,,0.0,0.0,0.0,0.0,0.0,0.0,0.0,0.0,0.0,0.0,0.0,0.0,0.0,0.0,0.0,0.0,,0.0,,,,0.0,38.994629,-76.939552,22.41,27.7,30.0,3.0,0.9,rc_1,-19.758830858914195,23.9141491643334,unlabeled
163,819,1733881,1746076511514,,,,,,,,,,,,,,,,,,,,,,,15.0,20.0,15.0,13.0,0.0,20.0,0.0,0.0,2.25,,,0.0,0.0,0.0,0.0,0.0,0.0,0.0,0.0,0.0,0.0,0.0,0.0,0.0,0.0,0.0,0.0,,0.0,,,,,38.994633,-76.93956,22.43,27.7,30.0,3.0,0.9,rc_1,-20.451897244259477,24.3582105514779,unlabeled
164,824,1733981,1746076511614,2.01,132.0,,0.04,0.4,0.91,33.0,-2.0,0.0,0.99,1.04,96.0,4692.0,21.7,4.1,,13.72,0.958,68.2,,64.2,5.0,16.0,20.0,15.0,14.0,0.0,31.0,0.0,0.0,2.25,,,0.0,0.0,0.0,0.0,0.0,0.0,0.0,0.0,0.0,0.0,0.0,0.0,0.0,0.0,0.0,0.0,,1.0,,,,0.0,38.994637,-76.93956,22.99,27.7,30.0,3.0,0.9,rc_1,-20.451897244259477,24.802271938622404,unlabeled
165,829,1734081,1746076511712,,,,,,,,,,,,,,,,,,,,,,,15.0,0.0,15.0,14.0,0.0,0.0,0.0,0.0,2.25,,,0.0,0.0,0.0,0.0,0.0,0.0,0.0,0.0,0.0,0.0,0.0,0.0,0.0,0.0,0.0,0.0,,1.0,,,,,38.994644,-76.939568,23.24,27.7,30.0,3.0,0.9,rc_1,-21.144963629604757,25.579379367111297,unlabeled
166,834,1734181,1746076511814,0.0,133.0,,0.06,0.41,0.99,35.0,-3.0,-1.0,1.07,1.1,97.0,4775.0,21.4,4.09,,13.76,0.956,68.2,,61.4,5.0,15.0,0.0,16.0,14.0,0.0,31.0,0.0,0.0,2.25,,,0.0,0.0,0.0,0.0,0.0,0.0,0.0,0.0,0.0,0.0,0.0,0.0,0.0,0.0,0.0,0.0,,1.0,,,,0.0,38.994648,-76.939575,23.46,27.7,30.0,3.0,0.9,rc_1,-21.7513967181669,26.023440754255798,unlabeled
167,839,1734281,1746076511914,,,,,,,,,,,,,,,,,,,,,,,16.0,0.0,15.0,14.0,0.0,13.0,0.0,0.0,2.25,,,0.0,0.0,0.0,0.0,0.0,0.0,0.0,0.0,0.0,0.0,0.0,0.0,0.0,0.0,0.0,0.0,,1.0,,,,,38.994652,-76.939575,23.72,27.7,30.0,3.0,0.9,rc_1,-21.7513967181669,26.46750214218911,unlabeled
168,844,1734381,1746076512006,0.0,133.0,13.88,0.04,0.47,0.99,35.0,-3.0,-1.0,1.1,1.18,93.0,4860.0,22.1,4.07,15.0,13.76,0.956,68.2,97.0,63.1,5.0,16.0,0.0,15.0,14.0,0.0,230.0,0.0,0.0,2.25,0.0,0.0,0.0,0.0,0.0,0.0,0.0,0.0,0.0,0.0,0.0,0.0,0.0,0.0,0.0,0.0,0.0,0.0,0.0,0.0,0.0,0.0,0.0,0.0,38.994656,-76.939575,23.46,27.7,30.0,3.0,0.9,rc_1,-21.7513967181669,26.911563529333613,unlabeled
169,849,1734481,1746076512114,,,,,,,,,,,,,,,,,,,,,,,15.0,0.0,15.0,14.0,0.0,17.0,0.0,0.0,2.24,,,0.0,0.0,0.0,0.0,0.0,0.0,0.0,0.0,0.0,0.0,0.0,0.0,0.0,0.0,0.0,0.0,,0.0,,,,,38.994659,-76.939583,23.57,27.8,30.0,3.0,0.9,rc_1,-22.44446310351218,27.244609569889192,unlabeled
170,854,1734581,1746076512212,0.0,133.0,,0.06,0.34,0.97,29.0,-2.0,0.0,1.03,1.18,87.0,4960.0,22.0,3.95,,13.64,0.956,68.2,,62.2,5.0,16.0,0.0,16.0,15.0,0.0,0.0,0.0,0.0,2.25,,,0.0,0.0,0.0,0.0,0.0,0.0,0.0,0.0,0.0,0.0,0.0,0.0,0.0,0.0,0.0,0.0,,1.0,,,,0.0,38.994667,-76.93959,23.63,27.8,30.0,3.0,0.9,rc_1,-23.050896190843194,28.13273234496701,unlabeled
171,859,1734681,1746076512311,,,,,,,,,,,,,,,,,,,,,,,16.0,0.0,16.0,15.0,0.0,8.0,0.0,0.0,2.25,,,0.0,0.0,0.0,0.0,0.0,0.0,0.0,0.0,0.0,0.0,0.0,0.0,0.0,0.0,0.0,0.0,,1.0,,,,,38.994671,-76.939598,24.0,27.8,30.0,3.0,0.9,rc_1,-23.743962577419605,28.57679373211151,unlabeled
172,864,1734781,1746076512413,0.75,133.0,,0.05,0.26,0.99,24.0,-2.0,0.0,1.02,1.18,87.0,5107.0,21.3,3.88,,13.65,0.956,68.2,,64.6,5.0,16.0,0.0,16.0,15.0,0.0,4.0,0.0,0.0,2.25,,,0.0,0.0,0.0,0.0,0.0,0.0,0.0,0.0,0.0,0.0,0.0,0.0,0.0,0.0,0.0,0.0,,1.0,,,,0.0,38.994671,-76.939598,24.13,27.8,30.0,3.0,0.9,rc_1,-23.743962577419605,28.57679373211151,unlabeled
173,869,1734881,1746076512513,,,,,,,,,,,,,,,,,,,,,,,17.0,0.0,16.0,15.0,0.0,235.0,0.0,0.0,2.25,,,0.0,0.0,0.0,0.0,0.0,0.0,0.0,0.0,0.0,0.0,0.0,0.0,0.0,0.0,0.0,0.0,,1.0,,,,,38.994675,-76.939606,24.44,27.8,30.0,3.0,0.9,rc_1,-24.437028962764888,29.020855120044825,unlabeled
174,874,1734981,1746076512613,13.32,132.0,,0.0,0.22,1.01,20.0,-3.0,0.0,1.04,1.18,88.0,5229.0,21.5,3.91,,13.56,0.955,68.2,,65.1,5.0,16.0,0.0,16.0,15.0,0.0,252.0,0.0,0.0,2.25,,,0.0,0.0,0.0,0.0,0.0,0.0,0.0,0.0,0.0,0.0,0.0,0.0,0.0,0.0,0.0,0.0,,1.0,,,,0.0,38.994682,-76.939613,24.77,27.8,30.0,3.0,0.9,rc_1,-25.043462050095897,29.797962547744905,unlabeled
175,879,1735081,1746076512713,,,,,,,,,,,,,,,,,,,,,,,15.0,0.0,16.0,16.0,0.0,236.0,0.0,0.0,2.25,,,0.0,0.0,0.0,0.0,0.0,0.0,0.0,0.0,0.0,0.0,0.0,0.0,0.0,0.0,0.0,0.0,,1.0,,,,,38.994686,-76.939613,24.67,27.9,30.0,3.0,0.9,rc_1,-25.043462050095897,30.24202393567822,unlabeled
176,884,1735181,1746076512813,54.8,132.0,,-0.04,0.02,0.97,17.0,-2.0,1.0,0.97,1.18,82.0,5184.0,12.1,3.89,,13.04,0.956,68.2,,63.5,5.0,16.0,0.0,16.0,15.0,0.0,252.0,0.0,0.0,2.25,,,0.0,0.0,0.0,0.0,0.0,0.0,0.0,0.0,0.0,0.0,0.0,0.0,0.0,0.0,0.0,0.0,,1.0,,,,0.0,38.99469,-76.939621,24.87,27.9,30.0,3.0,0.9,rc_1,-25.736528436672312,30.686085322822723,unlabeled
177,889,1735281,1746076512913,,,,,,,,,,,,,,,,,,,,,,,15.0,5.0,15.0,15.0,0.0,54.0,0.0,0.0,2.24,,,0.0,0.0,0.0,0.0,0.0,0.0,0.0,0.0,0.0,0.0,0.0,0.0,0.0,0.0,0.0,0.0,,1.0,,,,,38.99469,-76.939629,24.45,27.9,30.0,3.0,0.9,rc_1,-26.42959482201759,30.686085322822723,unlabeled
178,894,1735381,1746076513005,62.34,132.0,13.87,-0.07,0.12,0.95,12.0,-1.0,1.0,0.96,1.18,81.0,5053.0,11.2,3.73,15.0,12.83,0.956,68.2,97.0,62.4,5.0,15.0,47.0,15.0,15.0,0.0,18.0,0.0,0.0,2.24,0.0,0.0,0.0,0.0,0.0,0.0,0.0,0.0,0.0,0.0,0.0,0.0,0.0,0.0,0.0,0.0,0.0,0.0,0.0,1.0,0.0,0.0,0.0,0.0,38.994694,-76.939636,24.19,27.9,30.0,3.0,0.9,rc_1,-27.036027909348604,31.130146710756037,unlabeled
179,899,1735481,1746076513111,,,,,,,,,,,,,,,,,,,,,,,15.0,22.0,15.0,15.0,0.0,164.0,0.0,0.0,2.25,,,0.0,0.0,0.0,0.0,0.0,0.0,0.0,0.0,0.0,0.0,0.0,0.0,0.0,0.0,0.0,0.0,,1.0,,,,,38.994698,-76.939644,23.81,27.9,30.0,3.0,0.9,rc_1,-27.729094295925016,31.574208097900538,unlabeled
180,904,1735581,1746076513211,39.09,132.0,,-0.09,0.13,0.96,9.0,-2.0,-1.0,0.97,1.01,96.0,4879.0,4.0,3.32,,12.31,0.956,68.2,,62.1,5.0,15.0,41.0,15.0,15.0,0.0,105.0,0.0,0.0,2.25,,,0.0,0.0,0.0,0.0,0.0,0.0,0.0,0.0,0.0,0.0,0.0,0.0,0.0,0.0,0.0,0.0,,1.0,,,,0.0,38.994701,-76.939652,23.58,27.9,30.0,3.0,0.9,rc_1,-28.4221606812703,31.907254138456118,unlabeled
181,909,1735681,1746076513312,,,,,,,,,,,,,,,,,,,,,,,15.0,132.0,15.0,14.0,0.0,99.0,0.0,0.0,2.24,,,0.0,0.0,0.0,0.0,0.0,0.0,0.0,0.0,0.0,0.0,0.0,0.0,0.0,0.0,0.0,0.0,,1.0,,,,,38.994705,-76.939652,23.38,28.0,30.0,3.0,0.9,rc_1,-28.4221606812703,32.35131552638943,unlabeled
182,914,1735781,1746076513412,45.37,133.0,,-0.12,0.1,0.97,9.0,-2.0,-1.0,0.98,1.06,93.0,4764.0,4.4,3.37,,12.09,0.957,66.4,,63.5,5.0,14.0,40.0,15.0,14.0,0.0,207.0,0.0,0.0,2.25,,,0.0,0.0,0.0,0.0,0.0,0.0,0.0,0.0,0.0,0.0,0.0,0.0,0.0,0.0,0.0,0.0,,1.0,,,,0.0,38.994709,-76.939659,22.98,28.0,30.0,3.0,0.9,rc_1,-29.02859376983244,32.795376913533936,unlabeled
183,919,1735881,1746076513512,,,,,,,,,,,,,,,,,,,,,,,15.0,51.0,14.0,13.0,0.0,109.0,0.0,0.0,2.25,,,0.0,0.0,0.0,0.0,0.0,0.0,0.0,0.0,0.0,0.0,0.0,0.0,0.0,0.0,0.0,0.0,,1.0,,,,,38.994709,-76.939667,22.54,28.0,30.0,3.0,0.9,rc_1,-29.721660155177723,32.795376913533936,unlabeled
184,924,1735981,1746076513612,22.75,133.0,,-0.08,0.32,1.17,9.0,-2.0,-1.0,1.21,1.21,100.0,4566.0,3.6,3.62,,12.16,0.956,66.4,,61.0,5.0,14.0,42.0,14.0,13.0,0.0,6.0,0.0,0.0,2.25,,,0.0,0.0,0.0,0.0,0.0,0.0,0.0,0.0,0.0,0.0,0.0,0.0,0.0,0.0,0.0,0.0,,1.0,,,,0.0,38.994713,-76.939674,22.16,28.0,30.0,3.0,0.9,rc_1,-30.328093242508732,33.23943830067844,unlabeled
185,929,1736081,1746076513714,,,,,,,,,,,,,,,,,,,,,,,14.0,18.0,14.0,13.0,0.0,94.0,0.0,0.0,2.24,,,0.0,0.0,0.0,0.0,0.0,0.0,0.0,0.0,0.0,0.0,0.0,0.0,0.0,0.0,0.0,0.0,,1.0,,,,,38.994713,-76.939682,21.77,28.0,30.0,3.0,0.9,rc_1,-31.021159629085147,33.23943830067844,unlabeled
186,934,1736181,1746076513812,5.15,133.0,,-0.1,0.32,1.17,13.0,-3.0,-1.0,1.21,1.3,94.0,4403.0,3.3,3.58,,12.01,0.956,66.4,,62.0,5.0,14.0,8.0,14.0,12.0,0.0,30.0,0.0,0.0,2.25,,,0.0,0.0,0.0,0.0,0.0,0.0,0.0,0.0,0.0,0.0,0.0,0.0,0.0,0.0,0.0,0.0,,1.0,,,,0.0,38.994717,-76.93969,21.66,28.0,30.0,3.0,0.9,rc_1,-31.714226014430427,33.68349968861175,unlabeled
187,939,1736281,1746076513914,,,,,,,,,,,,,,,,,,,,,,,14.0,40.0,14.0,13.0,0.0,122.0,0.0,0.0,2.25,,,0.0,0.0,0.0,0.0,0.0,0.0,0.0,0.0,0.0,0.0,0.0,0.0,0.0,0.0,0.0,0.0,,0.0,,,,,38.99472,-76.939697,21.49,28.0,30.0,3.0,0.9,rc_1,-32.320659101761436,34.016545729167326,unlabeled
188,944,1736381,1746076514004,0.0,133.0,13.95,-0.12,0.09,1.05,19.0,-3.0,-1.0,1.06,1.3,82.0,4366.0,3.9,3.76,15.0,12.16,0.957,66.4,97.0,61.3,5.0,14.0,40.0,14.0,12.0,0.0,111.0,0.0,0.0,2.25,0.0,0.0,0.0,0.0,0.0,0.0,0.0,0.0,0.0,0.0,0.0,0.0,0.0,0.0,0.0,0.0,0.0,0.0,0.0,0.0,0.0,0.0,0.0,0.0,38.99472,-76.939697,21.09,28.1,30.0,3.0,0.9,rc_1,-32.320659101761436,34.016545729167326,unlabeled
189,949,1736481,1746076514114,,,,,,,,,,,,,,,,,,,,,,,14.0,40.0,13.0,12.0,0.0,103.0,0.0,0.0,2.25,,,0.0,0.0,0.0,0.0,0.0,0.0,0.0,0.0,0.0,0.0,0.0,0.0,0.0,0.0,0.0,0.0,,0.0,,,,,38.994724,-76.939705,20.42,28.1,30.0,3.0,0.9,rc_1,-33.013725488337855,34.46060711631183,unlabeled
190,954,1736581,1746076514214,0.0,133.0,,-0.06,0.27,1.06,23.0,-2.0,-1.0,1.1,1.3,85.0,4306.0,4.7,3.84,,12.24,0.956,66.4,,61.9,5.0,14.0,40.0,13.0,12.0,0.0,100.0,0.0,0.0,2.25,,,0.0,0.0,0.0,0.0,0.0,0.0,0.0,0.0,0.0,0.0,0.0,0.0,0.0,0.0,0.0,0.0,,0.0,,,,0.0,38.994724,-76.939712,20.63,28.1,30.0,3.0,0.9,rc_1,-33.62015857566887,34.46060711631183,unlabeled
191,959,1736681,1746076514313,,,,,,,,,,,,,,,,,,,,,,,14.0,40.0,14.0,12.0,0.0,115.0,0.0,0.0,2.25,,,0.0,0.0,0.0,0.0,0.0,0.0,0.0,0.0,0.0,0.0,0.0,0.0,0.0,0.0,0.0,0.0,,0.0,,,,,38.994728,-76.93972,20.43,28.1,30.0,3.0,0.9,rc_1,-34.31322496101414,34.904668504245144,unlabeled
192,964,1736781,1746076514413,0.0,133.0,,-0.04,0.2,1.04,29.0,-2.0,-1.0,1.06,1.3,81.0,4160.0,4.9,4.02,,12.37,0.956,66.4,,60.1,5.0,14.0,40.0,14.0,12.0,0.0,110.0,0.0,0.0,2.25,,,0.0,0.0,0.0,0.0,0.0,0.0,0.0,0.0,0.0,0.0,0.0,0.0,0.0,0.0,0.0,0.0,,0.0,,,,0.0,38.994728,-76.939728,20.53,28.1,30.0,3.0,0.9,rc_1,-35.006291347590555,34.904668504245144,unlabeled
