,Interval,Utc,FrontBP,SteerAng,Battery,AccelX,AccelY,AccelZ,Yaw,Pitch,Roll,Gsum,GsumMax,GsumPct,RPM,TPS,InjectorPW,Baro,MAP,Lambda,IAT,EngineTemp,EOP,EOT,WSFR,WSFL,WSRR,WSRL,TCSet,TCSlip,TCComp,TCCut,Analog8,OilTemp,AA_On,ThermLF1,ThermLF2,ThermRR1,ThermRR2,ThermLF3,ThermLF4,ThermLF5,ThermLF6,ThermLF7,ThermLF8,ThermRR3,ThermRR4,ThermRR5,ThermRR6,ThermRR7,ThermRR8,Gear,AA_On1,AA_LowDrag,Fuel_Mix,AA_Packages,Latitude,Longitude,Speed,GPSSats,GPSQual,GPSDOP
0,96195,0,,,,,,,,,,,,,,,,,,,,,,,,,,,,,,,,,,0,0,0,0,0,0,0,0,0,0,0,0,0,0,0,0,,,,,,,,,,,
1,96215,0,,135.0,,0.03,0.04,0.97,-1.0,0.0,1.0,0.97,0.97,100.0,3931.0,0.0,1.71,,9.5,0.887,61.0,,37.2,5.0,,,,,,,,,,,,0,0,0,0,0,0,0,0,0,0,0,0,0,0,0,0,,,,,0.0,,,,,,
2,96235,0,,,,,,,,,,,,,,,,,,,,,,,,,,,,,,,,,,0,0,0,0,0,0,0,0,0,0,0,0,0,0,0,0,,,,,,,,,,,
3,96255,0,,135.0,,0.01,0.01,0.93,0.0,0.0,0.0,0.93,0.97,96.0,3565.0,0.0,1.88,,9.94,0.883,61.0,,37.5,5.0,,,,,,,,,,,,0,0,0,0,0,0,0,0,0,0,0,0,0,0,0,0,,,,,0.0,,,,,,
4,96275,0,0.0,,,,,,,,,,,,,,,,,,,,,,0.0,8.0,0.0,0.0,0.0,24.0,0.0,0.0,2.26,,,0,0,0,0,0,0,0,0,0,0,0,0,0,0,0,0,0.0,,,,,0.0,0.0,0.0,0.0,0.0,0.0
5,96295,0,,135.0,,0.02,0.04,0.9,-1.0,0.0,0.0,0.9,0.97,92.0,3170.0,0.0,2.1,,10.4,0.895,61.0,,37.5,5.0,,,,,,,,,,,,0,0,0,0,0,0,0,0,0,0,0,0,0,0,0,0,,,,,0.0,,,,,,
6,96315,0,,,,,,,,,,,,,,,,,,,,,,,,,,,,,,,,,,0,0,0,0,0,0,0,0,0,0,0,0,0,0,0,0,,,,,,,,,,,
7,96335,0,,135.0,,0.02,0.01,0.87,0.0,0.0,0.0,0.87,0.97,89.0,2912.0,0.0,2.4,,10.92,0.933,61.0,,37.5,5.0,,,,,,,,,,,,0,0,0,0,0,0,0,0,0,0,0,0,0,0,0,0,,,,,0.0,,,,,,
8,96355,0,,,,,,,,,,,,,,,,,,,,,,,,,,,,,,,,,,0,0,0,0,0,0,0,0,0,0,0,0,0,0,0,0,,,,,,,,,,,
9,96375,0,0.0,135.0,13.4,0.02,0.01,0.92,0.0,0.0,0.0,0.92,0.97,94.0,2641.0,0.0,3.08,15.0,10.92,0.933,61.0,70.0,37.6,5.0,0.0,6.0,0.0,0.0,0.0,0.0,0.0,0.0,2.26,0.0,0.0,0,0,0,0,0,0,0,0,0,0,0,0,0,0,0,0,0.0,0.0,0.0,0.0,0.0,0.0,0.0,0.0,0.0,0.0,0.0
10,96395,0,,,,,,,,,,,,,,,,,,,,,,,,,,,,,,,,,,0,0,0,0,0,0,0,0,0,0,0,0,0,0,0,0,,,,,,,,,,,
11,96415,0,,135.0,,0.02,-0.01,0.94,0.0,0.0,0.0,0.94,0.97,96.0,2641.0,0.0,3.08,,11.44,1.005,61.0,,37.6,5.0,,,,,,,,,,,,0,0,0,0,0,0,0,0,0,0,0,0,0,0,0,0,,,,,0.0,,,,,,
12,96435,0,,,,,,,,,,,,,,,,,,,,,,,,,,,,,,,,,,0,0,0,0,0,0,0,0,0,0,0,0,0,0,0,0,,,,,,,,,,,
13,96455,0,,135.0,,0.03,-0.0,0.94,0.0,0.0,0.0,0.94,0.97,97.0,2342.0,0.0,3.23,,11.97,1.056,61.0,,36.2,5.0,,,,,,,,,,,,0,0,0,0,0,0,0,0,0,0,0,0,0,0,0,0,,,,,0.0,,,,,,
14,96475,0,0.0,,,,,,,,,,,,,,,,,,,,,,0.0,11.0,0.0,0.0,0.0,24.0,0.0,0.0,2.26,,,0,0,0,0,0,0,0,0,0,0,0,0,0,0,0,0,0.0,,,,,0.0,0.0,0.0,0.0,0.0,0.0
15,96495,0,,135.0,,0.01,-0.01,0.95,0.0,0.0,0.0,0.95,0.97,98.0,2087.0,0.0,3.38,,12.43,1.089,61.0,,36.2,5.0,,,,,,,,,,,,0,0,0,0,0,0,0,0,0,0,0,0,0,0,0,0,,,,,0.0,,,,,,
16,96515,0,,,,,,,,,,,,,,,,,,,,,,,,,,,,,,,,,,0,0,0,0,0,0,0,0,0,0,0,0,0,0,0,0,,,,,,,,,,,
17,96535,0,,135.0,,-0.0,-0.02,0.96,0.0,0.0,0.0,0.96,0.97,99.0,1910.0,0.0,3.47,,12.89,1.1,61.0,,36.2,5.0,,,,,,,,,,,,0,0,0,0,0,0,0,0,0,0,0,0,0,0,0,0,,,,,0.0,,,,,,
18,96555,0,,,,,,,,,,,,,,,,,,,,,,,,,,,,,,,,,,0,0,0,0,0,0,0,0,0,0,0,0,0,0,0,0,,,,,,,,,,,
19,96575,0,0.0,135.0,,-0.01,-0.03,0.97,0.0,0.0,0.0,0.97,0.97,100.0,1546.0,0.0,3.6,,12.89,1.1,61.0,,35.0,5.0,0.0,9.0,0.0,0.0,0.0,24.0,0.0,0.0,2.26,,,0,0,0,0,0,0,0,0,0,0,0,0,0,0,0,0,0.0,,,,0.0,0.0,0.0,0.0,0.0,0.0,0.0
20,96595,0,,,,,,,,,,,,,,,,,,,,,,,,,,,,,,,,,,0,0,0,0,0,0,0,0,0,0,0,0,0,0,0,0,,,,,,,,,,,
21,96615,0,,135.0,,-0.01,-0.04,0.97,0.0,0.0,0.0,0.97,0.97,100.0,1546.0,0.0,3.6,,13.31,1.105,61.0,,35.0,5.0,,,,,,,,,,,,0,0,0,0,0,0,0,0,0,0,0,0,0,0,0,0,,,,,0.0,,,,,,
22,96635,0,,,,,,,,,,,,,,,,,,,,,,,,,,,,,,,,,,0,0,0,0,0,0,0,0,0,0,0,0,0,0,0,0,,,,,,,,,,,
23,96655,0,,135.0,,-0.01,-0.02,0.96,0.0,0.0,0.0,0.96,0.97,99.0,1362.0,0.0,3.65,,13.72,1.109,61.0,,34.1,5.0,,,,,,,,,,,,0,0,0,0,0,0,0,0,0,0,0,0,0,0,0,0,,,,,0.0,,,,,,
24,96675,0,0.0,,,,,,,,,,,,,,,,,,,,,,0.0,9.0,0.0,0.0,0.0,24.0,0.0,0.0,2.26,,,0,0,0,0,0,0,0,0,0,0,0,0,0,0,0,0,0.0,,,,,0.0,0.0,0.0,0.0,0.0,0.0
25,96695,0,,135.0,,-0.02,-0.03,0.96,0.0,0.0,0.0,0.97,0.97,99.0,1147.0,0.0,3.72,,13.9,1.114,61.0,,34.1,5.0,,,,,,,,,,,,0,0,0,0,0,0,0,0,0,0,0,0,0,0,0,0,,,,,0.0,,,,,,
26,96715,0,,,,,,,,,,,,,,,,,,,,,,,,,,,,,,,,,,0,0,0,0,0,0,0,0,0,0,0,0,0,0,0,0,,,,,,,,,,,
27,96735,0,,135.0,,-0.03,-0.02,0.98,0.0,0.0,0.0,0.98,0.98,100.0,1147.0,0.0,3.72,,14.03,1.116,61.0,,34.1,5.0,,,,,,,,,,,,0,0,0,0,0,0,0,0,0,0,0,0,0,0,0,0,,,,,0.0,,,,,,
28,96755,0,,,,,,,,,,,,,,,,,,,,,,,,,,,,,,,,,,0,0,0,0,0,0,0,0,0,0,0,0,0,0,0,0,,,,,,,,,,,
29,96775,0,0.0,135.0,,-0.03,-0.01,1.0,0.0,0.0,0.0,1.0,1.0,100.0,985.0,0.0,3.78,,14.03,1.116,61.0,,33.6,5.0,0.0,9.0,0.0,0.0,0.0,24.0,0.0,0.0,2.27,,,0,0,0,0,0,0,0,0,0,0,0,0,0,0,0,0,0.0,,,,0.0,0.0,0.0,0.0,0.0,0.0,0.0
30,96795,0,,,,,,,,,,,,,,,,,,,,,,,,,,,,,,,,,,0,0,0,0,0,0,0,0,0,0,0,0,0,0,0,0,,,,,,,,,,,
31,96815,0,,135.0,,-0.03,-0.0,1.0,0.0,0.0,0.0,1.0,1.0,100.0,985.0,0.0,3.78,,14.22,1.119,61.0,,33.6,5.0,,,,,,,,,,,,0,0,0,0,0,0,0,0,0,0,0,0,0,0,0,0,,,,,0.0,,,,,,
32,96835,0,,,,,,,,,,,,,,,,,,,,,,,,,,,,,,,,,,0,0,0,0,0,0,0,0,0,0,0,0,0,0,0,0,,,,,,,,,,,
33,96855,0,,135.0,,-0.04,-0.0,0.99,0.0,0.0,0.0,0.99,1.0,99.0,1043.0,0.0,3.84,,14.19,1.116,61.0,,38.3,5.0,,,,,,,,,,,,0,0,0,0,0,0,0,0,0,0,0,0,0,0,0,0,,,,,0.0,,,,,,
34,96875,0,0.0,,,,,,,,,,,,,,,,,,,,,,0.0,9.0,0.0,0.0,0.0,24.0,0.0,0.0,2.26,,,0,0,0,0,0,0,0,0,0,0,0,0,0,0,0,0,0.0,,,,,0.0,0.0,0.0,0.0,0.0,0.0
35,96895,0,,135.0,,-0.05,-0.0,1.0,0.0,0.0,0.0,1.0,1.0,100.0,1234.0,0.0,3.81,,14.14,1.123,61.0,,38.3,5.0,,,,,,,,,,,,0,0,0,0,0,0,0,0,0,0,0,0,0,0,0,0,,,,,0.0,,,,,,
36,96915,0,,,,,,,,,,,,,,,,,,,,,,,,,,,,,,,,,,0,0,0,0,0,0,0,0,0,0,0,0,0,0,0,0,,,,,,,,,,,
37,96935,0,,135.0,,-0.06,0.01,1.0,0.0,0.0,0.0,1.0,1.0,100.0,1263.0,0.0,3.76,,14.11,1.128,61.0,,38.3,5.0,,,,,,,,,,,,0,0,0,0,0,0,0,0,0,0,0,0,0,0,0,0,,,,,0.0,,,,,,
38,96955,0,,,,,,,,,,,,,,,,,,,,,,,,,,,,,,,,,,0,0,0,0,0,0,0,0,0,0,0,0,0,0,0,0,,,,,,,,,,,
39,96975,0,0.0,135.0,,-0.05,-0.01,1.0,0.0,0.0,0.0,1.0,1.0,99.0,1364.0,0.0,3.76,,14.11,1.128,61.0,,40.5,5.0,0.0,0.0,0.0,0.0,0.0,0.0,0.0,0.0,2.26,,,0,0,0,0,0,0,0,0,0,0,0,0,0,0,0,0,0.0,,,,0.0,0.0,0.0,0.0,0.0,0.0,0.0
40,96995,0,,,,,,,,,,,,,,,,,,,,,,,,,,,,,,,,,,0,0,0,0,0,0,0,0,0,0,0,0,0,0,0,0,,,,,,,,,,,
41,97015,0,,135.0,,-0.04,0.01,0.97,0.0,0.0,0.0,0.98,1.0,97.0,1364.0,0.0,3.76,,14.04,1.14,61.0,,40.5,5.0,,,,,,,,,,,,0,0,0,0,0,0,0,0,0,0,0,0,0,0,0,0,,,,,0.0,,,,,,
42,97035,0,,,,,,,,,,,,,,,,,,,,,,,,,,,,,,,,,,0,0,0,0,0,0,0,0,0,0,0,0,0,0,0,0,,,,,,,,,,,
43,97055,0,,135.0,,-0.06,0.02,0.96,0.0,0.0,0.0,0.96,1.0,96.0,1445.0,0.0,3.73,,14.16,1.153,61.0,,40.4,5.0,,,,,,,,,,,,0,0,0,0,0,0,0,0,0,0,0,0,0,0,0,0,,,,,0.0,,,,,,
44,97075,0,0.0,,,,,,,,,,,,,,,,,,,,,,0.0,0.0,0.0,0.0,0.0,0.0,0.0,0.0,2.26,,,0,0,0,0,0,0,0,0,0,0,0,0,0,0,0,0,0.0,,,,,0.0,0.0,0.0,0.0,0.0,0.0
45,97095,0,,135.0,,-0.09,0.01,0.96,0.0,0.0,0.0,0.97,1.0,96.0,1443.0,0.0,3.71,,14.0,1.171,61.0,,40.4,5.0,,,,,,,,,,,,0,0,0,0,0,0,0,0,0,0,0,0,0,0,0,0,,,,,0.0,,,,,,
46,97115,0,,,,,,,,,,,,,,,,,,,,,,,,,,,,,,,,,,0,0,0,0,0,0,0,0,0,0,0,0,0,0,0,0,,,,,,,,,,,
47,97135,0,,135.0,,-0.11,-0.0,0.96,0.0,0.0,0.0,0.97,1.0,96.0,1472.0,0.0,3.71,,14.1,1.177,61.0,,40.4,5.0,,,,,,,,,,,,0,0,0,0,0,0,0,0,0,0,0,0,0,0,0,0,,,,,0.0,,,,,,
48,97155,0,,,,,,,,,,,,,,,,,,,,,,,,,,,,,,,,,,0,0,0,0,0,0,0,0,0,0,0,0,0,0,0,0,,,,,,,,,,,
49,97175,0,0.0,135.0,,-0.12,-0.02,0.98,0.0,0.0,0.0,0.99,1.0,98.0,1420.0,0.0,3.71,,14.1,1.177,61.0,,40.9,5.0,0.0,0.0,0.0,0.0,0.0,0.0,0.0,0.0,2.26,,,0,0,0,0,0,0,0,0,0,0,0,0,0,0,0,0,0.0,,,,0.0,0.0,0.0,0.0,0.0,0.0,0.0
50,97195,0,,,,,,,,,,,,,,,,,,,,,,,,,,,,,,,,,,0,0,0,0,0,0,0,0,0,0,0,0,0,0,0,0,,,,,,,,,,,
51,97215,0,,135.0,,-0.13,-0.03,0.98,1.0,0.0,0.0,0.99,1.0,99.0,1420.0,0.0,3.71,,13.99,1.188,61.0,,40.9,5.0,,,,,,,,,,,,0,0,0,0,0,0,0,0,0,0,0,0,0,0,0,0,,,,,0.0,,,,,,
52,97235,0,,,,,,,,,,,,,,,,,,,,,,,,,,,,,,,,,,0,0,0,0,0,0,0,0,0,0,0,0,0,0,0,0,,,,,,,,,,,
53,97255,0,,135.0,,-0.12,0.0,0.96,0.0,0.0,0.0,0.97,1.0,96.0,1597.0,0.0,3.7,,14.1,1.204,61.0,,43.6,5.0,,,,,,,,,,,,0,0,0,0,0,0,0,0,0,0,0,0,0,0,0,0,,,,,0.0,,,,,,
54,97275,0,0.0,,,,,,,,,,,,,,,,,,,,,,0.0,0.0,0.0,0.0,0.0,0.0,0.0,0.0,2.27,,,0,0,0,0,0,0,0,0,0,0,0,0,0,0,0,0,0.0,,,,,0.0,0.0,0.0,0.0,0.0,0.0
55,97295,0,,135.0,,-0.11,-0.01,0.95,0.0,0.0,0.0,0.95,1.0,95.0,1602.0,0.0,3.68,,13.95,1.244,61.0,,43.6,5.0,,,,,,,,,,,,0,0,0,0,0,0,0,0,0,0,0,0,0,0,0,0,,,,,0.0,,,,,,
56,97315,0,,,,,,,,,,,,,,,,,,,,,,,,,,,,,,,,,,0,0,0,0,0,0,0,0,0,0,0,0,0,0,0,0,,,,,,,,,,,
57,97335,0,,135.0,,-0.1,-0.01,0.93,0.0,0.0,0.0,0.94,1.0,93.0,1508.0,0.0,3.68,,14.02,1.25,61.0,,43.6,5.0,,,,,,,,,,,,0,0,0,0,0,0,0,0,0,0,0,0,0,0,0,0,,,,,0.0,,,,,,
58,97355,0,,,,,,,,,,,,,,,,,,,,,,,,,,,,,,,,,,0,0,0,0,0,0,0,0,0,0,0,0,0,0,0,0,,,,,,,,,,,
59,97375,0,0.0,135.0,13.3,-0.09,-0.03,0.95,0.0,0.0,0.0,0.96,1.0,95.0,1643.0,0.0,3.68,15.0,14.02,1.25,61.0,70.0,42.4,5.0,0.0,0.0,0.0,0.0,0.0,0.0,0.0,0.0,2.27,0.0,0.0,0,0,0,0,0,0,0,0,0,0,0,0,0,0,0,0,0.0,0.0,0.0,0.0,0.0,0.0,0.0,0.0,0.0,0.0,0.0
60,97395,0,,,,,,,,,,,,,,,,,,,,,,,,,,,,,,,,,,0,0,0,0,0,0,0,0,0,0,0,0,0,0,0,0,,,,,,,,,,,
61,97415,0,,135.0,,-0.06,-0.0,0.96,0.0,0.0,0.0,0.96,1.0,96.0,1643.0,0.0,3.68,,14.06,1.235,61.0,,42.4,5.0,,,,,,,,,,,,0,0,0,0,0,0,0,0,0,0,0,0,0,0,0,0,,,,,0.0,,,,,,
62,97435,0,,,,,,,,,,,,,,,,,,,,,,,,,,,,,,,,,,0,0,0,0,0,0,0,0,0,0,0,0,0,0,0,0,,,,,,,,,,,
63,97455,0,,135.0,,-0.05,-0.03,0.97,0.0,0.0,0.0,0.97,1.0,97.0,1610.0,0.0,3.66,,13.94,1.243,61.0,,42.4,5.0,,,,,,,,,,,,0,0,0,0,0,0,0,0,0,0,0,0,0,0,0,0,,,,,0.0,,,,,,
64,97475,0,0.0,,,,,,,,,,,,,,,,,,,,,,0.0,0.0,0.0,0.0,0.0,0.0,0.0,0.0,2.26,,,0,0,0,0,0,0,0,0,0,0,0,0,0,0,0,0,0.0,,,,,0.0,0.0,0.0,0.0,0.0,0.0
65,97495,0,,135.0,,-0.06,-0.02,1.0,0.0,0.0,0.0,1.0,1.0,100.0,1576.0,0.0,3.68,,13.96,1.25,61.0,,42.4,5.0,,,,,,,,,,,,0,0,0,0,0,0,0,0,0,0,0,0,0,0,0,0,,,,,0.0,,,,,,
66,97515,0,,,,,,,,,,,,,,,,,,,,,,,,,,,,,,,,,,0,0,0,0,0,0,0,0,0,0,0,0,0,0,0,0,,,,,,,,,,,
67,97535,0,,135.0,,-0.08,-0.01,0.98,0.0,0.0,0.0,0.98,1.0,98.0,1621.0,0.0,3.66,,14.06,1.249,61.0,,42.4,5.0,,,,,,,,,,,,0,0,0,0,0,0,0,0,0,0,0,0,0,0,0,0,,,,,0.0,,,,,,
68,97555,0,,,,,,,,,,,,,,,,,,,,,,,,,,,,,,,,,,0,0,0,0,0,0,0,0,0,0,0,0,0,0,0,0,,,,,,,,,,,
69,97575,0,0.0,135.0,,-0.08,0.01,0.96,0.0,0.0,0.0,0.97,1.0,96.0,1606.0,0.0,3.67,,14.06,1.249,61.0,,42.2,5.0,0.0,0.0,0.0,0.0,0.0,0.0,0.0,0.0,2.26,,,0,0,0,0,0,0,0,0,0,0,0,0,0,0,0,0,0.0,,,,0.0,0.0,0.0,0.0,0.0,0.0,0.0
70,97595,0,,,,,,,,,,,,,,,,,,,,,,,,,,,,,,,,,,0,0,0,0,0,0,0,0,0,0,0,0,0,0,0,0,,,,,,,,,,,
71,97615,0,,135.0,,-0.07,-0.0,0.98,0.0,0.0,0.0,0.98,1.0,98.0,1606.0,0.0,3.67,,13.96,1.252,61.0,,42.2,5.0,,,,,,,,,,,,0,0,0,0,0,0,0,0,0,0,0,0,0,0,0,0,,,,,0.0,,,,,,
72,97635,0,,,,,,,,,,,,,,,,,,,,,,,,,,,,,,,,,,0,0,0,0,0,0,0,0,0,0,0,0,0,0,0,0,,,,,,,,,,,
73,97655,0,,135.0,,-0.05,0.0,0.99,0.0,0.0,0.0,0.99,1.0,99.0,1671.0,0.0,3.66,,13.91,1.25,61.0,,43.1,5.0,,,,,,,,,,,,0,0,0,0,0,0,0,0,0,0,0,0,0,0,0,0,,,,,0.0,,,,,,
74,97675,0,0.0,,,,,,,,,,,,,,,,,,,,,,0.0,0.0,0.0,0.0,0.0,0.0,0.0,0.0,2.26,,,0,0,0,0,0,0,0,0,0,0,0,0,0,0,0,0,0.0,,,,,0.0,0.0,0.0,0.0,0.0,0.0
75,97695,0,,135.0,,-0.08,-0.0,1.01,0.0,0.0,0.0,1.01,1.01,100.0,1669.0,0.0,3.65,,13.95,1.247,61.0,,43.1,5.0,,,,,,,,,,,,0,0,0,0,0,0,0,0,0,0,0,0,0,0,0,0,,,,,0.0,,,,,,
76,97715,0,,,,,,,,,,,,,,,,,,,,,,,,,,,,,,,,,,0,0,0,0,0,0,0,0,0,0,0,0,0,0,0,0,,,,,,,,,,,
77,97735,0,,135.0,,-0.09,0.01,0.98,0.0,0.0,0.0,0.98,1.01,97.0,1649.0,0.0,3.66,,14.04,1.247,61.0,,43.1,5.0,,,,,,,,,,,,0,0,0,0,0,0,0,0,0,0,0,0,0,0,0,0,,,,,0.0,,,,,,
78,97755,0,,,,,,,,,,,,,,,,,,,,,,,,,,,,,,,,,,0,0,0,0,0,0,0,0,0,0,0,0,0,0,0,0,,,,,,,,,,,
79,97775,0,0.0,135.0,,-0.08,0.02,0.96,0.0,0.0,0.0,0.97,1.01,95.0,1593.0,0.0,3.65,,14.04,1.247,61.0,,41.5,5.0,0.0,0.0,0.0,0.0,0.0,0.0,0.0,0.0,2.26,,,0,0,0,0,0,0,0,0,0,0,0,0,0,0,0,0,0.0,,,,0.0,0.0,0.0,0.0,0.0,0.0,0.0
80,97795,0,,,,,,,,,,,,,,,,,,,,,,,,,,,,,,,,,,0,0,0,0,0,0,0,0,0,0,0,0,0,0,0,0,,,,,,,,,,,
81,97815,0,,135.0,,-0.07,-0.0,0.98,0.0,0.0,0.0,0.98,1.01,97.0,1593.0,0.0,3.65,,14.0,1.226,62.8,,41.5,5.0,,,,,,,,,,,,0,0,0,0,0,0,0,0,0,0,0,0,0,0,0,0,,,,,0.0,,,,,,
82,97835,0,,,,,,,,,,,,,,,,,,,,,,,,,,,,,,,,,,0,0,0,0,0,0,0,0,0,0,0,0,0,0,0,0,,,,,,,,,,,
83,97855,0,,135.0,,-0.06,-0.02,0.98,0.0,0.0,0.0,0.98,1.01,96.0,1628.0,0.0,3.66,,13.94,1.213,62.8,,40.5,5.0,,,,,,,,,,,,0,0,0,0,0,0,0,0,0,0,0,0,0,0,0,0,,,,,0.0,,,,,,
84,97875,0,0.0,,,,,,,,,,,,,,,,,,,,,,0.0,0.0,0.0,0.0,0.0,0.0,0.0,0.0,2.27,,,0,0,0,0,0,0,0,0,0,0,0,0,0,0,0,0,0.0,,,,,0.0,0.0,0.0,0.0,0.0,0.0
85,97895,0,,135.0,,-0.05,-0.03,0.99,0.0,0.0,0.0,1.0,1.01,98.0,1665.0,0.0,3.67,,14.03,1.207,62.8,,40.5,5.0,,,,,,,,,,,,0,0,0,0,0,0,0,0,0,0,0,0,0,0,0,0,,,,,0.0,,,,,,
86,97915,0,,,,,,,,,,,,,,,,,,,,,,,,,,,,,,,,,,0,0,0,0,0,0,0,0,0,0,0,0,0,0,0,0,,,,,,,,,,,
87,97935,0,,135.0,,-0.07,-0.03,1.02,0.0,0.0,0.0,1.02,1.02,100.0,1575.0,0.0,3.66,,14.06,1.221,62.8,,40.5,5.0,,,,,,,,,,,,0,0,0,0,0,0,0,0,0,0,0,0,0,0,0,0,,,,,0.0,,,,,,
88,97955,0,,,,,,,,,,,,,,,,,,,,,,,,,,,,,,,,,,0,0,0,0,0,0,0,0,0,0,0,0,0,0,0,0,,,,,,,,,,,
89,97975,0,0.0,135.0,,-0.09,-0.03,0.99,0.0,0.0,0.0,1.0,1.02,98.0,1612.0,0.0,3.68,,14.06,1.221,62.8,,40.4,5.0,0.0,0.0,0.0,0.0,0.0,0.0,0.0,0.0,2.26,,,0,0,0,0,0,0,0,0,0,0,0,0,0,0,0,0,0.0,,,,0.0,0.0,0.0,0.0,0.0,0.0,0.0
90,97995,0,,,,,,,,,,,,,,,,,,,,,,,,,,,,,,,,,,0,0,0,0,0,0,0,0,0,0,0,0,0,0,0,0,,,,,,,,,,,
91,98015,0,,135.0,,-0.08,-0.01,0.98,0.0,0.0,0.0,0.99,1.02,97.0,1612.0,0.0,3.68,,13.95,1.227,62.8,,40.4,5.0,,,,,,,,,,,,0,0,0,0,0,0,0,0,0,0,0,0,0,0,0,0,,,,,0.0,,,,,,
92,98035,0,,,,,,,,,,,,,,,,,,,,,,,,,,,,,,,,,,0,0,0,0,0,0,0,0,0,0,0,0,0,0,0,0,,,,,,,,,,,
93,98055,0,,135.0,,-0.08,-0.0,0.97,0.0,0.0,0.0,0.98,1.02,96.0,1617.0,0.0,3.67,,14.06,1.221,62.8,,39.4,5.0,,,,,,,,,,,,0,0,0,0,0,0,0,0,0,0,0,0,0,0,0,0,,,,,0.0,,,,,,
94,98075,0,0.0,,,,,,,,,,,,,,,,,,,,,,0.0,0.0,0.0,0.0,0.0,0.0,0.0,0.0,2.26,,,0,0,0,0,0,0,0,0,0,0,0,0,0,0,0,0,0.0,,,,,0.0,0.0,0.0,0.0,0.0,0.0
95,98095,0,,135.0,,-0.06,-0.02,0.99,0.0,0.0,0.0,0.99,1.02,97.0,1628.0,0.0,3.67,,14.07,1.24,62.8,,39.4,5.0,,,,,,,,,,,,0,0,0,0,0,0,0,0,0,0,0,0,0,0,0,0,,,,,0.0,,,,,,
96,98115,0,,,,,,,,,,,,,,,,,,,,,,,,,,,,,,,,,,0,0,0,0,0,0,0,0,0,0,0,0,0,0,0,0,,,,,,,,,,,
97,98135,0,,135.0,,-0.04,-0.0,1.0,0.0,0.0,0.0,1.0,1.02,98.0,1574.0,0.0,3.67,,13.96,1.24,62.8,,39.4,5.0,,,,,,,,,,,,0,0,0,0,0,0,0,0,0,0,0,0,0,0,0,0,,,,,0.0,,,,,,
98,98155,0,,,,,,,,,,,,,,,,,,,,,,,,,,,,,,,,,,0,0,0,0,0,0,0,0,0,0,0,0,0,0,0,0,,,,,,,,,,,
99,98175,0,0.0,135.0,,-0.03,-0.0,1.01,0.0,0.0,0.0,1.01,1.02,98.0,1587.0,0.0,3.68,,13.96,1.24,62.8,,38.8,5.0,0.0,0.0,0.0,0.0,0.0,0.0,0.0,0.0,2.26,,,0,0,0,0,0,0,0,0,0,0,0,0,0,0,0,0,0.0,,,,0.0,0.0,0.0,0.0,0.0,0.0,0.0
100,98195,0,,,,,,,,,,,,,,,,,,,,,,,,,,,,,,,,,,0,0,0,0,0,0,0,0,0,0,0,0,0,0,0,0,,,,,,,,,,,
101,98215,0,,135.0,,-0.04,0.02,1.03,0.0,0.0,0.0,1.03,1.03,100.0,1587.0,0.0,3.68,,14.06,1.224,62.8,,38.8,5.0,,,,,,,,,,,,0,0,0,0,0,0,0,0,0,0,0,0,0,0,0,0,,,,,0.0,,,,,,
102,98235,0,,,,,,,,,,,,,,,,,,,,,,,,,,,,,,,,,,0,0,0,0,0,0,0,0,0,0,0,0,0,0,0,0,,,,,,,,,,,
103,98255,0,,135.0,,-0.06,0.01,1.0,0.0,0.0,0.0,1.01,1.03,97.0,1610.0,0.0,3.67,,14.06,1.236,62.8,,39.8,5.0,,,,,,,,,,,,0,0,0,0,0,0,0,0,0,0,0,0,0,0,0,0,,,,,0.0,,,,,,
104,98275,0,0.0,,,,,,,,,,,,,,,,,,,,,,0.0,0.0,0.0,0.0,0.0,0.0,0.0,0.0,2.27,,,0,0,0,0,0,0,0,0,0,0,0,0,0,0,0,0,0.0,,,,,0.0,0.0,0.0,0.0,0.0,0.0
105,98295,0,,135.0,,-0.06,0.04,0.98,0.0,0.0,0.0,0.98,1.03,95.0,1605.0,0.0,3.67,,13.98,1.24,62.8,,39.8,5.0,,,,,,,,,,,,0,0,0,0,0,0,0,0,0,0,0,0,0,0,0,0,,,,,0.0,,,,,,
106,98315,0,,,,,,,,,,,,,,,,,,,,,,,,,,,,,,,,,,0,0,0,0,0,0,0,0,0,0,0,0,0,0,0,0,,,,,,,,,,,
107,98335,0,,135.0,,-0.05,0.03,0.99,0.0,0.0,0.0,0.99,1.03,96.0,1643.0,0.0,3.67,,13.94,1.219,62.8,,39.8,5.0,,,,,,,,,,,,0,0,0,0,0,0,0,0,0,0,0,0,0,0,0,0,,,,,0.0,,,,,,
108,98355,0,,,,,,,,,,,,,,,,,,,,,,,,,,,,,,,,,,0,0,0,0,0,0,0,0,0,0,0,0,0,0,0,0,,,,,,,,,,,
109,98375,0,0.0,135.0,13.33,-0.03,0.02,1.0,0.0,0.0,0.0,1.0,1.03,96.0,1605.0,0.0,3.66,15.0,13.94,1.219,62.8,70.0,39.6,5.0,0.0,0.0,0.0,0.0,0.0,0.0,0.0,0.0,2.27,0.0,0.0,0,0,0,0,0,0,0,0,0,0,0,0,0,0,0,0,0.0,0.0,0.0,0.0,0.0,0.0,0.0,0.0,0.0,0.0,0.0
110,98395,0,,,,,,,,,,,,,,,,,,,,,,,,,,,,,,,,,,0,0,0,0,0,0,0,0,0,0,0,0,0,0,0,0,,,,,,,,,,,
111,98415,0,,135.0,,-0.03,-0.01,1.0,0.0,0.0,0.0,1.01,1.03,97.0,1605.0,0.0,3.66,,14.07,1.213,62.8,,39.6,5.0,,,,,,,,,,,,0,0,0,0,0,0,0,0,0,0,0,0,0,0,0,0,,,,,0.0,,,,,,
112,98435,0,,,,,,,,,,,,,,,,,,,,,,,,,,,,,,,,,,0,0,0,0,0,0,0,0,0,0,0,0,0,0,0,0,,,,,,,,,,,
113,98455,0,,135.0,,-0.05,-0.03,0.99,0.0,0.0,0.0,0.99,1.03,96.0,1626.0,0.0,3.67,,14.04,1.212,62.8,,41.0,5.0,,,,,,,,,,,,0,0,0,0,0,0,0,0,0,0,0,0,0,0,0,0,,,,,0.0,,,,,,
114,98475,0,0.0,,,,,,,,,,,,,,,,,,,,,,0.0,1.0,0.0,0.0,0.0,0.0,0.0,0.0,2.26,,,0,0,0,0,0,0,0,0,0,0,0,0,0,0,0,0,0.0,,,,,0.0,0.0,0.0,0.0,0.0,0.0
115,98495,0,,135.0,,-0.05,0.0,0.97,0.0,0.0,0.0,0.97,1.03,94.0,1677.0,0.0,3.66,,13.94,1.213,62.8,,41.0,5.0,,,,,,,,,,,,0,0,0,0,0,0,0,0,0,0,0,0,0,0,0,0,,,,,0.0,,,,,,
116,98515,0,,,,,,,,,,,,,,,,,,,,,,,,,,,,,,,,,,0,0,0,0,0,0,0,0,0,0,0,0,0,0,0,0,,,,,,,,,,,
117,98535,0,,135.0,,-0.06,-0.04,0.98,0.0,0.0,0.0,0.98,1.03,95.0,1647.0,0.0,3.65,,13.95,1.215,62.8,,41.0,5.0,,,,,,,,,,,,0,0,0,0,0,0,0,0,0,0,0,0,0,0,0,0,,,,,0.0,,,,,,
118,98555,0,,,,,,,,,,,,,,,,,,,,,,,,,,,,,,,,,,0,0,0,0,0,0,0,0,0,0,0,0,0,0,0,0,,,,,,,,,,,
119,98575,0,0.0,135.0,,-0.04,-0.05,0.98,0.0,0.0,0.0,0.98,1.03,95.0,1655.0,0.0,3.66,,13.95,1.215,62.8,,40.7,5.0,0.0,2.0,0.0,0.0,0.0,0.0,0.0,0.0,2.26,,,0,0,0,0,0,0,0,0,0,0,0,0,0,0,0,0,0.0,,,,0.0,0.0,0.0,0.0,0.0,0.0,0.0
120,98595,0,,,,,,,,,,,,,,,,,,,,,,,,,,,,,,,,,,0,0,0,0,0,0,0,0,0,0,0,0,0,0,0,0,,,,,,,,,,,
121,98615,0,,135.0,,-0.05,-0.04,0.99,0.0,0.0,0.0,0.99,1.03,96.0,1655.0,0.0,3.66,,14.04,1.204,62.8,,40.7,5.0,,,,,,,,,,,,0,0,0,0,0,0,0,0,0,0,0,0,0,0,0,0,,,,,0.0,,,,,,
122,98635,0,,,,,,,,,,,,,,,,,,,,,,,,,,,,,,,,,,0,0,0,0,0,0,0,0,0,0,0,0,0,0,0,0,,,,,,,,,,,
123,98655,0,,135.0,,-0.06,-0.02,0.96,1.0,0.0,0.0,0.96,1.03,93.0,1713.0,0.0,3.65,,14.03,1.201,62.8,,41.5,5.0,,,,,,,,,,,,0,0,0,0,0,0,0,0,0,0,0,0,0,0,0,0,,,,,0.0,,,,,,
124,98675,0,0.0,,,,,,,,,,,,,,,,,,,,,,0.0,4.0,0.0,0.0,0.0,0.0,0.0,0.0,2.26,,,0,0,0,0,0,0,0,0,0,0,0,0,0,0,0,0,0.0,,,,,0.0,0.0,0.0,0.0,0.0,0.0
125,98695,0,,135.0,,-0.05,-0.05,0.97,0.0,0.0,0.0,0.97,1.03,94.0,1732.0,0.0,3.65,,13.99,1.199,62.8,,41.5,5.0,,,,,,,,,,,,0,0,0,0,0,0,0,0,0,0,0,0,0,0,0,0,,,,,0.0,,,,,,
126,98715,0,,,,,,,,,,,,,,,,,,,,,,,,,,,,,,,,,,0,0,0,0,0,0,0,0,0,0,0,0,0,0,0,0,,,,,,,,,,,
127,98735,0,,135.0,,-0.03,-0.04,0.97,0.0,0.0,0.0,0.97,1.03,94.0,1631.0,0.0,3.66,,13.94,1.196,62.8,,41.5,5.0,,,,,,,,,,,,0,0,0,0,0,0,0,0,0,0,0,0,0,0,0,0,,,,,0.0,,,,,,
128,98755,0,,,,,,,,,,,,,,,,,,,,,,,,,,,,,,,,,,0,0,0,0,0,0,0,0,0,0,0,0,0,0,0,0,,,,,,,,,,,
129,98775,0,0.0,135.0,,-0.02,-0.03,1.0,0.0,0.0,0.0,1.0,1.03,97.0,1679.0,0.0,3.66,,13.94,1.196,62.8,,40.3,5.0,0.0,4.0,0.0,0.0,0.0,0.0,0.0,0.0,2.27,,,0,0,0,0,0,0,0,0,0,0,0,0,0,0,0,0,0.0,,,,0.0,0.0,0.0,0.0,0.0,0.0,0.0
130,98795,0,,,,,,,,,,,,,,,,,,,,,,,,,,,,,,,,,,0,0,0,0,0,0,0,0,0,0,0,0,0,0,0,0,,,,,,,,,,,
131,98815,0,,135.0,,-0.04,-0.01,0.98,0.0,0.0,0.0,0.98,1.03,95.0,1679.0,0.0,3.66,,13.92,1.195,62.8,,40.3,5.0,,,,,,,,,,,,0,0,0,0,0,0,0,0,0,0,0,0,0,0,0,0,,,,,0.0,,,,,,
132,98835,0,,,,,,,,,,,,,,,,,,,,,,,,,,,,,,,,,,0,0,0,0,0,0,0,0,0,0,0,0,0,0,0,0,,,,,,,,,,,
133,98855,0,,135.0,,-0.04,-0.04,0.99,0.0,0.0,0.0,0.99,1.03,96.0,1728.0,0.0,3.66,,13.98,1.192,62.8,,40.4,5.0,,,,,,,,,,,,0,0,0,0,0,0,0,0,0,0,0,0,0,0,0,0,,,,,0.0,,,,,,
134,98875,0,0.0,,,,,,,,,,,,,,,,,,,,,,0.0,4.0,0.0,0.0,0.0,0.0,0.0,0.0,2.27,,,0,0,0,0,0,0,0,0,0,0,0,0,0,0,0,0,0.0,,,,,0.0,0.0,0.0,0.0,0.0,0.0
135,98895,0,,135.0,,-0.02,-0.03,0.99,0.0,0.0,0.0,0.99,1.03,96.0,1683.0,0.0,3.64,,14.06,1.194,62.8,,40.4,5.0,,,,,,,,,,,,0,0,0,0,0,0,0,0,0,0,0,0,0,0,0,0,,,,,0.0,,,,,,
136,98915,0,,,,,,,,,,,,,,,,,,,,,,,,,,,,,,,,,,0,0,0,0,0,0,0,0,0,0,0,0,0,0,0,0,,,,,,,,,,,
137,98935,0,,135.0,,-0.04,-0.02,1.01,0.0,0.0,0.0,1.01,1.03,98.0,1637.0,0.0,3.65,,14.0,1.19,62.8,,40.4,5.0,,,,,,,,,,,,0,0,0,0,0,0,0,0,0,0,0,0,0,0,0,0,,,,,0.0,,,,,,
138,98955,0,,,,,,,,,,,,,,,,,,,,,,,,,,,,,,,,,,0,0,0,0,0,0,0,0,0,0,0,0,0,0,0,0,,,,,,,,,,,
139,98975,0,0.0,135.0,,-0.05,-0.02,0.99,0.0,0.0,0.0,0.99,1.03,96.0,1685.0,0.0,3.66,,14.0,1.19,62.8,,39.5,5.0,0.0,4.0,0.0,0.0,0.0,0.0,0.0,0.0,2.26,,,0,0,0,0,0,0,0,0,0,0,0,0,0,0,0,0,0.0,,,,0.0,0.0,0.0,0.0,0.0,0.0,0.0
140,98995,0,,,,,,,,,,,,,,,,,,,,,,,,,,,,,,,,,,0,0,0,0,0,0,0,0,0,0,0,0,0,0,0,0,,,,,,,,,,,
141,99015,0,,135.0,,-0.06,-0.02,0.98,0.0,0.0,0.0,0.99,1.03,96.0,1685.0,0.0,3.66,,13.95,1.195,62.8,,39.5,5.0,,,,,,,,,,,,0,0,0,0,0,0,0,0,0,0,0,0,0,0,0,0,,,,,0.0,,,,,,
142,99035,0,,,,,,,,,,,,,,,,,,,,,,,,,,,,,,,,,,0,0,0,0,0,0,0,0,0,0,0,0,0,0,0,0,,,,,,,,,,,
143,99055,0,,135.0,,-0.04,-0.01,1.0,0.0,0.0,0.0,1.0,1.03,96.0,1693.0,0.0,3.65,,13.94,1.205,62.8,,38.6,5.0,,,,,,,,,,,,0,0,0,0,0,0,0,0,0,0,0,0,0,0,0,0,,,,,0.0,,,,,,
144,99075,0,0.0,,,,,,,,,,,,,,,,,,,,,,0.0,8.0,0.0,0.0,0.0,0.0,0.0,0.0,2.26,,,0,0,0,0,0,0,0,0,0,0,0,0,0,0,0,0,0.0,,,,,0.0,0.0,0.0,0.0,0.0,0.0
145,99095,0,,135.0,,-0.03,-0.02,1.0,0.0,0.0,0.0,1.0,1.03,97.0,1630.0,0.0,3.65,,14.06,1.194,62.8,,38.6,5.0,,,,,,,,,,,,0,0,0,0,0,0,0,0,0,0,0,0,0,0,0,0,,,,,0.0,,,,,,
146,99115,0,,,,,,,,,,,,,,,,,,,,,,,,,,,,,,,,,,0,0,0,0,0,0,0,0,0,0,0,0,0,0,0,0,,,,,,,,,,,
147,99135,0,,135.0,,-0.04,-0.01,1.01,0.0,0.0,0.0,1.01,1.03,98.0,1687.0,0.0,3.67,,14.04,1.186,62.8,,38.6,5.0,,,,,,,,,,,,0,0,0,0,0,0,0,0,0,0,0,0,0,0,0,0,,,,,0.0,,,,,,
148,99155,0,,,,,,,,,,,,,,,,,,,,,,,,,,,,,,,,,,0,0,0,0,0,0,0,0,0,0,0,0,0,0,0,0,,,,,,,,,,,
149,99175,0,0.0,135.0,,-0.06,0.0,0.99,0.0,0.0,0.0,0.99,1.03,96.0,1622.0,0.0,3.66,,14.04,1.186,62.8,,39.0,5.0,0.0,8.0,0.0,0.0,0.0,24.0,0.0,0.0,2.26,,,0,0,0,0,0,0,0,0,0,0,0,0,0,0,0,0,0.0,,,,0.0,0.0,0.0,0.0,0.0,0.0,0.0
150,99195,0,,,,,,,,,,,,,,,,,,,,,,,,,,,,,,,,,,0,0,0,0,0,0,0,0,0,0,0,0,0,0,0,0,,,,,,,,,,,
151,99215,0,,135.0,,-0.06,0.03,0.97,0.0,0.0,0.0,0.97,1.03,94.0,1622.0,0.0,3.66,,13.94,1.192,62.8,,39.0,5.0,,,,,,,,,,,,0,0,0,0,0,0,0,0,0,0,0,0,0,0,0,0,,,,,0.0,,,,,,
152,99235,0,,,,,,,,,,,,,,,,,,,,,,,,,,,,,,,,,,0,0,0,0,0,0,0,0,0,0,0,0,0,0,0,0,,,,,,,,,,,
153,99255,0,,135.0,,-0.06,0.04,0.96,0.0,0.0,0.0,0.96,1.03,93.0,1514.0,0.0,3.67,,14.08,1.194,62.8,,38.1,5.0,,,,,,,,,,,,0,0,0,0,0,0,0,0,0,0,0,0,0,0,0,0,,,,,0.0,,,,,,
154,99275,0,0.0,,,,,,,,,,,,,,,,,,,,,,0.0,1.0,0.0,0.0,0.0,0.0,0.0,0.0,2.27,,,0,0,0,0,0,0,0,0,0,0,0,0,0,0,0,0,0.0,,,,,0.0,0.0,0.0,0.0,0.0,0.0
155,99295,0,,135.0,,-0.07,-0.0,0.97,0.0,0.0,0.0,0.97,1.03,94.0,1637.0,0.0,3.67,,14.06,1.189,62.8,,38.1,5.0,,,,,,,,,,,,0,0,0,0,0,0,0,0,0,0,0,0,0,0,0,0,,,,,0.0,,,,,,
156,99315,0,,,,,,,,,,,,,,,,,,,,,,,,,,,,,,,,,,0,0,0,0,0,0,0,0,0,0,0,0,0,0,0,0,,,,,,,,,,,
157,99335,0,,135.0,,-0.04,0.01,0.99,0.0,0.0,0.0,0.99,1.03,96.0,1581.0,0.0,3.67,,13.98,1.183,62.8,,38.1,5.0,,,,,,,,,,,,0,0,0,0,0,0,0,0,0,0,0,0,0,0,0,0,,,,,0.0,,,,,,
158,99355,0,,,,,,,,,,,,,,,,,,,,,,,,,,,,,,,,,,0,0,0,0,0,0,0,0,0,0,0,0,0,0,0,0,,,,,,,,,,,
159,99375,0,0.0,135.0,13.3,-0.03,0.03,1.01,0.0,0.0,0.0,1.01,1.03,98.0,1590.0,0.0,3.68,15.0,13.98,1.183,62.8,70.0,37.9,5.0,0.0,1.0,0.0,0.0,0.0,0.0,0.0,0.0,2.27,0.0,0.0,0,0,0,0,0,0,0,0,0,0,0,0,0,0,0,0,0.0,0.0,0.0,0.0,0.0,0.0,0.0,0.0,0.0,0.0,0.0
160,99395,0,,,,,,,,,,,,,,,,,,,,,,,,,,,,,,,,,,0,0,0,0,0,0,0,0,0,0,0,0,0,0,0,0,,,,,,,,,,,
161,99415,0,,135.0,,-0.04,0.02,1.03,0.0,0.0,0.0,1.03,1.03,99.0,1590.0,0.0,3.68,,14.06,1.18,62.8,,37.9,5.0,,,,,,,,,,,,0,0,0,0,0,0,0,0,0,0,0,0,0,0,0,0,,,,,0.0,,,,,,
162,99435,0,,,,,,,,,,,,,,,,,,,,,,,,,,,,,,,,,,0,0,0,0,0,0,0,0,0,0,0,0,0,0,0,0,,,,,,,,,,,
163,99455,0,,135.0,,-0.06,0.01,1.03,0.0,0.0,0.0,1.04,1.04,100.0,1613.0,0.0,3.67,,14.04,1.188,62.8,,37.8,5.0,,,,,,,,,,,,0,0,0,0,0,0,0,0,0,0,0,0,0,0,0,0,,,,,0.0,,,,,,
164,99475,0,0.0,,,,,,,,,,,,,,,,,,,,,,0.0,1.0,0.0,0.0,0.0,0.0,0.0,0.0,2.27,,,0,0,0,0,0,0,0,0,0,0,0,0,0,0,0,0,0.0,,,,,0.0,0.0,0.0,0.0,0.0,0.0
165,99495,0,,135.0,,-0.08,0.02,1.01,1.0,0.0,0.0,1.01,1.04,98.0,1599.0,0.0,3.67,,13.98,1.21,62.8,,37.8,5.0,,,,,,,,,,,,0,0,0,0,0,0,0,0,0,0,0,0,0,0,0,0,,,,,0.0,,,,,,
166,99515,0,,,,,,,,,,,,,,,,,,,,,,,,,,,,,,,,,,0,0,0,0,0,0,0,0,0,0,0,0,0,0,0,0,,,,,,,,,,,
167,99535,0,,135.0,,-0.08,0.0,1.0,0.0,0.0,0.0,1.0,1.04,97.0,1642.0,0.0,3.67,,14.0,1.207,62.8,,37.8,5.0,,,,,,,,,,,,0,0,0,0,0,0,0,0,0,0,0,0,0,0,0,0,,,,,0.0,,,,,,
168,99555,0,,,,,,,,,,,,,,,,,,,,,,,,,,,,,,,,,,0,0,0,0,0,0,0,0,0,0,0,0,0,0,0,0,,,,,,,,,,,
169,99575,0,0.0,135.0,,-0.05,0.01,1.0,0.0,0.0,0.0,1.0,1.04,96.0,1683.0,0.0,3.66,,14.0,1.207,62.8,,40.2,5.0,0.0,0.0,0.0,0.0,0.0,0.0,0.0,0.0,2.26,,,0,0,0,0,0,0,0,0,0,0,0,0,0,0,0,0,0.0,,,,0.0,0.0,0.0,0.0,0.0,0.0,0.0
170,99595,0,,,,,,,,,,,,,,,,,,,,,,,,,,,,,,,,,,0,0,0,0,0,0,0,0,0,0,0,0,0,0,0,0,,,,,,,,,,,
171,99615,0,,135.0,,-0.05,0.02,1.02,0.0,0.0,0.0,1.02,1.04,98.0,1683.0,0.0,3.66,,14.06,1.189,62.8,,40.2,5.0,,,,,,,,,,,,0,0,0,0,0,0,0,0,0,0,0,0,0,0,0,0,,,,,0.0,,,,,,
172,99635,0,,,,,,,,,,,,,,,,,,,,,,,,,,,,,,,,,,0,0,0,0,0,0,0,0,0,0,0,0,0,0,0,0,,,,,,,,,,,
173,99655,0,,135.0,,-0.07,0.02,1.01,0.0,0.0,0.0,1.02,1.04,98.0,1645.0,0.0,3.66,,14.03,1.184,62.8,,39.7,5.0,,,,,,,,,,,,0,0,0,0,0,0,0,0,0,0,0,0,0,0,0,0,,,,,0.0,,,,,,
174,99675,0,0.0,,,,,,,,,,,,,,,,,,,,,,0.0,3.0,0.0,0.0,0.0,0.0,0.0,0.0,2.26,,,0,0,0,0,0,0,0,0,0,0,0,0,0,0,0,0,0.0,,,,,0.0,0.0,0.0,0.0,0.0,0.0
175,99695,0,,135.0,,-0.08,0.05,0.99,0.0,0.0,0.0,0.99,1.04,96.0,1645.0,0.0,3.66,,13.95,1.183,62.8,,39.7,5.0,,,,,,,,,,,,0,0,0,0,0,0,0,0,0,0,0,0,0,0,0,0,,,,,0.0,,,,,,
176,99715,0,,,,,,,,,,,,,,,,,,,,,,,,,,,,,,,,,,0,0,0,0,0,0,0,0,0,0,0,0,0,0,0,0,,,,,,,,,,,
177,99735,0,,135.0,,-0.07,0.04,0.97,0.0,0.0,0.0,0.98,1.04,94.0,1596.0,0.0,3.67,,14.04,1.172,62.8,,39.7,5.0,,,,,,,,,,,,0,0,0,0,0,0,0,0,0,0,0,0,0,0,0,0,,,,,0.0,,,,,,
178,99755,0,,,,,,,,,,,,,,,,,,,,,,,,,,,,,,,,,,0,0,0,0,0,0,0,0,0,0,0,0,0,0,0,0,,,,,,,,,,,
179,99775,0,0.0,135.0,,-0.07,0.01,0.99,0.0,0.0,0.0,0.99,1.04,96.0,1670.0,0.0,3.67,,14.04,1.172,62.8,,39.1,5.0,0.0,3.0,0.0,0.0,0.0,0.0,0.0,0.0,2.26,,,0,0,0,0,0,0,0,0,0,0,0,0,0,0,0,0,0.0,,,,0.0,0.0,0.0,0.0,0.0,0.0,0.0
180,99795,0,,,,,,,,,,,,,,,,,,,,,,,,,,,,,,,,,,0,0,0,0,0,0,0,0,0,0,0,0,0,0,0,0,,,,,,,,,,,
181,99815,0,,135.0,,-0.05,0.01,0.99,0.0,0.0,0.0,0.99,1.04,96.0,1670.0,0.0,3.67,,14.08,1.164,62.8,,39.1,5.0,,,,,,,,,,,,0,0,0,0,0,0,0,0,0,0,0,0,0,0,0,0,,,,,0.0,,,,,,
182,99835,0,,,,,,,,,,,,,,,,,,,,,,,,,,,,,,,,,,0,0,0,0,0,0,0,0,0,0,0,0,0,0,0,0,,,,,,,,,,,
183,99855,0,,135.0,,-0.04,0.02,1.01,0.0,0.0,0.0,1.01,1.04,97.0,1586.0,0.0,3.66,,13.99,1.174,62.8,,38.3,5.0,,,,,,,,,,,,0,0,0,0,0,0,0,0,0,0,0,0,0,0,0,0,,,,,0.0,,,,,,
184,99875,0,0.0,,,,,,,,,,,,,,,,,,,,,,0.0,4.0,0.0,0.0,0.0,0.0,0.0,0.0,2.27,,,0,0,0,0,0,0,0,0,0,0,0,0,0,0,0,0,0.0,,,,,0.0,0.0,0.0,0.0,0.0,0.0
185,99895,0,,135.0,,-0.06,0.03,1.01,0.0,0.0,0.0,1.01,1.04,97.0,1586.0,0.0,3.67,,14.02,1.18,62.8,,38.3,5.0,,,,,,,,,,,,0,0,0,0,0,0,0,0,0,0,0,0,0,0,0,0,,,,,0.0,,,,,,
186,99915,0,,,,,,,,,,,,,,,,,,,,,,,,,,,,,,,,,,0,0,0,0,0,0,0,0,0,0,0,0,0,0,0,0,,,,,,,,,,,
187,99935,0,,135.0,,-0.07,0.02,0.98,0.0,0.0,0.0,0.98,1.04,95.0,1659.0,0.0,3.67,,14.1,1.175,62.8,,38.3,5.0,,,,,,,,,,,,0,0,0,0,0,0,0,0,0,0,0,0,0,0,0,0,,,,,0.0,,,,,,
188,99955,0,,,,,,,,,,,,,,,,,,,,,,,,,,,,,,,,,,0,0,0,0,0,0,0,0,0,0,0,0,0,0,0,0,,,,,,,,,,,
189,99975,0,0.0,135.0,,-0.07,0.03,0.96,0.0,0.0,0.0,0.96,1.04,93.0,1622.0,0.0,3.67,,14.1,1.175,62.8,,38.7,5.0,0.0,4.0,0.0,0.0,0.0,0.0,0.0,0.0,2.27,,,0,0,0,0,0,0,0,0,0,0,0,0,0,0,0,0,0.0,,,,0.0,0.0,0.0,0.0,0.0,0.0,0.0
190,99995,0,,,,,,,,,,,,,,,,,,,,,,,,,,,,,,,,,,0,0,0,0,0,0,0,0,0,0,0,0,0,0,0,0,,,,,,,,,,,
191,100015,0,,135.0,,-0.07,-0.0,0.98,0.0,0.0,0.0,0.98,1.04,95.0,1622.0,0.0,3.67,,14.04,1.178,62.8,,38.7,5.0,,,,,,,,,,,,0,0,0,0,0,0,0,0,0,0,0,0,0,0,0,0,,,,,0.0,,,,,,
192,100035,0,,,,,,,,,,,,,,,,,,,,,,,,,,,,,,,,,,0,0,0,0,0,0,0,0,0,0,0,0,0,0,0,0,,,,,,,,,,,
193,100055,0,,135.0,,-0.04,-0.01,0.98,0.0,0.0,0.0,0.98,1.04,95.0,1608.0,0.0,3.67,,13.96,1.169,62.8,,38.5,5.0,,,,,,,,,,,,0,0,0,0,0,0,0,0,0,0,0,0,0,0,0,0,,,,,0.0,,,,,,
194,100075,0,0.0,,,,,,,,,,,,,,,,,,,,,,0.0,1.0,0.0,0.0,0.0,0.0,0.0,0.0,2.26,,,0,0,0,0,0,0,0,0,0,0,0,0,0,0,0,0,0.0,,,,,0.0,0.0,0.0,0.0,0.0,0.0
195,100095,0,,135.0,,-0.04,-0.02,1.0,0.0,0.0,0.0,1.0,1.04,96.0,1644.0,0.0,3.67,,14.07,1.156,62.8,,38.5,5.0,,,,,,,,,,,,0,0,0,0,0,0,0,0,0,0,0,0,0,0,0,0,,,,,0.0,,,,,,
196,100115,0,,,,,,,,,,,,,,,,,,,,,,,,,,,,,,,,,,0,0,0,0,0,0,0,0,0,0,0,0,0,0,0,0,,,,,,,,,,,
197,100135,0,,135.0,,-0.06,-0.02,1.01,0.0,0.0,0.0,1.02,1.04,98.0,1598.0,0.0,3.67,,14.07,1.166,62.8,,38.5,5.0,,,,,,,,,,,,0,0,0,0,0,0,0,0,0,0,0,0,0,0,0,0,,,,,0.0,,,,,,
198,100155,0,,,,,,,,,,,,,,,,,,,,,,,,,,,,,,,,,,0,0,0,0,0,0,0,0,0,0,0,0,0,0,0,0,,,,,,,,,,,
199,100175,0,0.0,135.0,,-0.08,-0.03,1.0,0.0,0.0,0.0,1.0,1.04,97.0,1584.0,0.0,3.67,,14.07,1.166,62.8,,38.1,5.0,0.0,1.0,0.0,0.0,0.0,0.0,0.0,0.0,2.26,,,0,0,0,0,0,0,0,0,0,0,0,0,0,0,0,0,0.0,,,,0.0,0.0,0.0,0.0,0.0,0.0,0.0
200,100195,0,,,,,,,,,,,,,,,,,,,,,,,,,,,,,,,,,,0,0,0,0,0,0,0,0,0,0,0,0,0,0,0,0,,,,,,,,,,,
201,100215,0,,135.0,,-0.07,-0.0,0.98,0.0,0.0,0.0,0.99,1.04,95.0,1584.0,0.0,3.67,,13.99,1.173,62.8,,38.1,5.0,,,,,,,,,,,,0,0,0,0,0,0,0,0,0,0,0,0,0,0,0,0,,,,,0.0,,,,,,
202,100235,0,,,,,,,,,,,,,,,,,,,,,,,,,,,,,,,,,,0,0,0,0,0,0,0,0,0,0,0,0,0,0,0,0,,,,,,,,,,,
203,100255,0,,135.0,,-0.07,-0.01,0.98,0.0,0.0,0.0,0.99,1.04,95.0,1610.0,0.0,3.68,,14.04,1.158,62.8,,38.4,5.0,,,,,,,,,,,,0,0,0,0,0,0,0,0,0,0,0,0,0,0,0,0,,,,,0.0,,,,,,
204,100275,0,0.0,,,,,,,,,,,,,,,,,,,,,,0.0,1.0,0.0,0.0,0.0,0.0,0.0,0.0,2.26,,,0,0,0,0,0,0,0,0,0,0,0,0,0,0,0,0,0.0,,,,,0.0,0.0,0.0,0.0,0.0,0.0
205,100295,0,,135.0,,-0.07,-0.04,1.0,0.0,0.0,0.0,1.0,1.04,97.0,1593.0,0.0,3.67,,14.08,1.153,62.8,,38.4,5.0,,,,,,,,,,,,0,0,0,0,0,0,0,0,0,0,0,0,0,0,0,0,,,,,0.0,,,,,,
206,100315,0,,,,,,,,,,,,,,,,,,,,,,,,,,,,,,,,,,0,0,0,0,0,0,0,0,0,0,0,0,0,0,0,0,,,,,,,,,,,
207,100335,0,,135.0,,-0.04,-0.04,1.01,0.0,0.0,0.0,1.01,1.04,97.0,1605.0,0.0,3.67,,13.96,1.151,62.8,,38.4,5.0,,,,,,,,,,,,0,0,0,0,0,0,0,0,0,0,0,0,0,0,0,0,,,,,0.0,,,,,,
208,100355,0,,,,,,,,,,,,,,,,,,,,,,,,,,,,,,,,,,0,0,0,0,0,0,0,0,0,0,0,0,0,0,0,0,,,,,,,,,,,
209,100375,0,0.0,135.0,13.33,-0.02,-0.02,1.01,0.0,0.0,0.0,1.01,1.04,97.0,1550.0,0.0,3.67,15.0,13.96,1.151,62.8,72.0,37.2,5.0,0.0,1.0,0.0,0.0,0.0,0.0,0.0,0.0,2.27,0.0,0.0,0,0,0,0,0,0,0,0,0,0,0,0,0,0,0,0,0.0,0.0,0.0,0.0,0.0,0.0,0.0,0.0,0.0,0.0,0.0
210,100395,0,,,,,,,,,,,,,,,,,,,,,,,,,,,,,,,,,,0,0,0,0,0,0,0,0,0,0,0,0,0,0,0,0,,,,,,,,,,,
211,100415,0,,135.0,,-0.03,-0.04,1.02,0.0,0.0,0.0,1.02,1.04,99.0,1550.0,0.0,3.67,,14.1,1.152,62.8,,37.2,5.0,,,,,,,,,,,,0,0,0,0,0,0,0,0,0,0,0,0,0,0,0,0,,,,,0.0,,,,,,
212,100435,0,,,,,,,,,,,,,,,,,,,,,,,,,,,,,,,,,,0,0,0,0,0,0,0,0,0,0,0,0,0,0,0,0,,,,,,,,,,,
213,100455,0,,135.0,,-0.05,-0.04,1.01,0.0,0.0,0.0,1.01,1.04,98.0,1665.0,0.0,3.67,,14.07,1.152,62.8,,38.8,5.0,,,,,,,,,,,,0,0,0,0,0,0,0,0,0,0,0,0,0,0,0,0,,,,,0.0,,,,,,
214,100475,0,0.0,,,,,,,,,,,,,,,,,,,,,,0.0,11.0,0.0,0.0,0.0,24.0,0.0,0.0,2.26,,,0,0,0,0,0,0,0,0,0,0,0,0,0,0,0,0,0.0,,,,,0.0,0.0,0.0,0.0,0.0,0.0
215,100495,0,,135.0,,-0.06,-0.03,0.99,0.0,0.0,0.0,0.99,1.04,96.0,1607.0,0.0,3.66,,13.98,1.157,62.8,,38.8,5.0,,,,,,,,,,,,0,0,0,0,0,0,0,0,0,0,0,0,0,0,0,0,,,,,0.0,,,,,,
216,100515,0,,,,,,,,,,,,,,,,,,,,,,,,,,,,,,,,,,0,0,0,0,0,0,0,0,0,0,0,0,0,0,0,0,,,,,,,,,,,
217,100535,0,,135.0,,-0.05,-0.02,0.97,0.0,0.0,0.0,0.97,1.04,94.0,1558.0,0.0,3.67,,14.11,1.153,62.8,,38.8,5.0,,,,,,,,,,,,0,0,0,0,0,0,0,0,0,0,0,0,0,0,0,0,,,,,0.0,,,,,,
218,100555,0,,,,,,,,,,,,,,,,,,,,,,,,,,,,,,,,,,0,0,0,0,0,0,0,0,0,0,0,0,0,0,0,0,,,,,,,,,,,
219,100575,0,0.0,135.0,,-0.05,-0.01,0.95,0.0,0.0,0.0,0.95,1.04,92.0,1533.0,0.0,3.68,,14.11,1.153,62.8,,36.9,5.0,0.0,11.0,0.0,0.0,0.0,24.0,0.0,0.0,2.26,,,0,0,0,0,0,0,0,0,0,0,0,0,0,0,0,0,0.0,,,,0.0,0.0,0.0,0.0,0.0,0.0,0.0
220,100595,0,,,,,,,,,,,,,,,,,,,,,,,,,,,,,,,,,,0,0,0,0,0,0,0,0,0,0,0,0,0,0,0,0,,,,,,,,,,,
221,100615,0,,135.0,,-0.05,0.03,0.94,0.0,0.0,0.0,0.94,1.04,91.0,1533.0,0.0,3.68,,14.02,1.14,62.8,,36.9,5.0,,,,,,,,,,,,0,0,0,0,0,0,0,0,0,0,0,0,0,0,0,0,,,,,0.0,,,,,,
222,100635,0,,,,,,,,,,,,,,,,,,,,,,,,,,,,,,,,,,0,0,0,0,0,0,0,0,0,0,0,0,0,0,0,0,,,,,,,,,,,
223,100655,0,,135.0,,-0.05,0.04,0.93,0.0,0.0,0.0,0.94,1.04,90.0,1474.0,0.0,3.69,,14.16,1.148,62.8,,35.9,5.0,,,,,,,,,,,,0,0,0,0,0,0,0,0,0,0,0,0,0,0,0,0,,,,,0.0,,,,,,
224,100675,0,0.0,,,,,,,,,,,,,,,,,,,,,,0.0,1.0,0.0,0.0,0.0,0.0,0.0,0.0,2.26,,,0,0,0,0,0,0,0,0,0,0,0,0,0,0,0,0,0.0,,,,,0.0,0.0,0.0,0.0,0.0,0.0
225,100695,0,,135.0,,-0.06,0.04,0.92,-1.0,0.0,1.0,0.93,1.04,89.0,1536.0,0.0,3.71,,14.04,1.153,62.8,,35.9,5.0,,,,,,,,,,,,0,0,0,0,0,0,0,0,0,0,0,0,0,0,0,0,,,,,0.0,,,,,,
226,100715,0,,,,,,,,,,,,,,,,,,,,,,,,,,,,,,,,,,0,0,0,0,0,0,0,0,0,0,0,0,0,0,0,0,,,,,,,,,,,
227,100735,0,,135.0,,-0.06,0.05,0.92,-1.0,-1.0,1.0,0.92,1.04,89.0,1517.0,0.0,3.68,,14.11,1.149,62.8,,35.9,5.0,,,,,,,,,,,,0,0,0,0,0,0,0,0,0,0,0,0,0,0,0,0,,,,,0.0,,,,,,
228,100755,0,,,,,,,,,,,,,,,,,,,,,,,,,,,,,,,,,,0,0,0,0,0,0,0,0,0,0,0,0,0,0,0,0,,,,,,,,,,,
229,100775,0,0.0,135.0,,-0.06,0.04,0.91,-1.0,-1.0,1.0,0.91,1.04,88.0,1528.0,0.0,3.69,,14.11,1.149,62.8,,36.1,5.0,0.0,1.0,0.0,0.0,0.0,0.0,0.0,0.0,2.26,,,0,0,0,0,0,0,0,0,0,0,0,0,0,0,0,0,0.0,,,,0.0,0.0,0.0,0.0,0.0,0.0,0.0
230,100795,0,,,,,,,,,,,,,,,,,,,,,,,,,,,,,,,,,,0,0,0,0,0,0,0,0,0,0,0,0,0,0,0,0,,,,,,,,,,,
231,100815,0,,135.0,,-0.06,0.05,0.91,-1.0,-1.0,1.0,0.91,1.04,88.0,1528.0,0.0,3.69,,14.07,1.156,62.8,,36.1,5.0,,,,,,,,,,,,0,0,0,0,0,0,0,0,0,0,0,0,0,0,0,0,,,,,0.0,,,,,,
232,100835,0,,,,,,,,,,,,,,,,,,,,,,,,,,,,,,,,,,0,0,0,0,0,0,0,0,0,0,0,0,0,0,0,0,,,,,,,,,,,
233,100855,0,,135.0,,-0.07,0.0,0.92,-1.0,-1.0,1.0,0.93,1.04,89.0,1553.0,0.0,3.69,,14.08,1.166,62.8,,37.3,5.0,,,,,,,,,,,,0,0,0,0,0,0,0,0,0,0,0,0,0,0,0,0,,,,,0.0,,,,,,
234,100875,0,0.0,,,,,,,,,,,,,,,,,,,,,,0.0,1.0,0.0,0.0,0.0,0.0,0.0,0.0,2.27,,,0,0,0,0,0,0,0,0,0,0,0,0,0,0,0,0,0.0,,,,,0.0,0.0,0.0,0.0,0.0,0.0
235,100895,0,,135.0,,-0.07,-0.03,0.95,-1.0,-1.0,1.0,0.95,1.04,92.0,1542.0,0.0,3.68,,14.1,1.159,62.8,,37.3,5.0,,,,,,,,,,,,0,0,0,0,0,0,0,0,0,0,0,0,0,0,0,0,,,,,0.0,,,,,,
236,100915,0,,,,,,,,,,,,,,,,,,,,,,,,,,,,,,,,,,0,0,0,0,0,0,0,0,0,0,0,0,0,0,0,0,,,,,,,,,,,
237,100935,0,,135.0,,-0.06,-0.05,0.97,0.0,-1.0,1.0,0.98,1.04,94.0,1529.0,0.0,3.68,,14.03,1.147,62.8,,37.3,5.0,,,,,,,,,,,,0,0,0,0,0,0,0,0,0,0,0,0,0,0,0,0,,,,,0.0,,,,,,
238,100955,0,,,,,,,,,,,,,,,,,,,,,,,,,,,,,,,,,,0,0,0,0,0,0,0,0,0,0,0,0,0,0,0,0,,,,,,,,,,,
239,100975,0,0.0,135.0,,-0.03,-0.03,0.99,0.0,-1.0,0.0,0.99,1.04,95.0,1562.0,0.0,3.68,,14.03,1.147,62.8,,36.9,5.0,0.0,1.0,0.0,0.0,0.0,0.0,0.0,0.0,2.27,,,0,0,0,0,0,0,0,0,0,0,0,0,0,0,0,0,0.0,,,,0.0,0.0,0.0,0.0,0.0,0.0,0.0
240,100995,0,,,,,,,,,,,,,,,,,,,,,,,,,,,,,,,,,,0,0,0,0,0,0,0,0,0,0,0,0,0,0,0,0,,,,,,,,,,,
241,101015,0,,135.0,,-0.01,0.0,0.98,0.0,0.0,0.0,0.99,1.04,95.0,1562.0,0.0,3.68,,14.16,1.154,62.8,,36.9,5.0,,,,,,,,,,,,0,0,0,0,0,0,0,0,0,0,0,0,0,0,0,0,,,,,0.0,,,,,,
242,101035,0,,,,,,,,,,,,,,,,,,,,,,,,,,,,,,,,,,0,0,0,0,0,0,0,0,0,0,0,0,0,0,0,0,,,,,,,,,,,
243,101055,0,,135.0,,0.01,-0.01,0.98,0.0,0.0,0.0,0.98,1.04,95.0,1545.0,0.0,3.68,,14.03,1.155,62.8,,36.2,5.0,,,,,,,,,,,,0,0,0,0,0,0,0,0,0,0,0,0,0,0,0,0,,,,,0.0,,,,,,
244,101075,0,0.0,,,,,,,,,,,,,,,,,,,,,,0.0,1.0,0.0,0.0,0.0,0.0,0.0,0.0,2.26,,,0,0,0,0,0,0,0,0,0,0,0,0,0,0,0,0,0.0,,,,,0.0,0.0,0.0,0.0,0.0,0.0
245,101095,0,,135.0,,0.01,-0.02,0.98,0.0,0.0,0.0,0.98,1.04,95.0,1519.0,0.0,3.68,,14.12,1.15,62.8,,36.2,5.0,,,,,,,,,,,,0,0,0,0,0,0,0,0,0,0,0,0,0,0,0,0,,,,,0.0,,,,,,
246,101115,0,,,,,,,,,,,,,,,,,,,,,,,,,,,,,,,,,,0,0,0,0,0,0,0,0,0,0,0,0,0,0,0,0,,,,,,,,,,,
247,101135,0,,135.0,,-0.0,-0.0,1.01,0.0,0.0,0.0,1.01,1.04,98.0,1573.0,0.0,3.68,,14.06,1.15,62.8,,36.2,5.0,,,,,,,,,,,,0,0,0,0,0,0,0,0,0,0,0,0,0,0,0,0,,,,,0.0,,,,,,
248,101155,0,,,,,,,,,,,,,,,,,,,,,,,,,,,,,,,,,,0,0,0,0,0,0,0,0,0,0,0,0,0,0,0,0,,,,,,,,,,,
249,101175,0,0.0,135.0,,-0.03,-0.0,1.04,0.0,0.0,0.0,1.04,1.04,100.0,1556.0,0.0,3.68,,14.06,1.15,62.8,,36.8,5.0,0.0,1.0,0.0,0.0,0.0,0.0,0.0,0.0,2.26,,,0,0,0,0,0,0,0,0,0,0,0,0,0,0,0,0,0.0,,,,0.0,0.0,0.0,0.0,0.0,0.0,0.0
250,101195,0,,,,,,,,,,,,,,,,,,,,,,,,,,,,,,,,,,0,0,0,0,0,0,0,0,0,0,0,0,0,0,0,0,,,,,,,,,,,
251,101215,0,,135.0,,-0.06,-0.03,1.04,0.0,0.0,0.0,1.04,1.04,100.0,1556.0,0.0,3.68,,14.07,1.16,62.8,,36.8,5.0,,,,,,,,,,,,0,0,0,0,0,0,0,0,0,0,0,0,0,0,0,0,,,,,0.0,,,,,,
252,101235,0,,,,,,,,,,,,,,,,,,,,,,,,,,,,,,,,,,0,0,0,0,0,0,0,0,0,0,0,0,0,0,0,0,,,,,,,,,,,
253,101255,0,,135.0,,-0.07,-0.03,1.01,0.0,0.0,0.0,1.01,1.04,97.0,1550.0,0.0,3.68,,14.15,1.15,62.8,,37.7,5.0,,,,,,,,,,,,0,0,0,0,0,0,0,0,0,0,0,0,0,0,0,0,,,,,0.0,,,,,,
254,101275,0,0.0,,,,,,,,,,,,,,,,,,,,,,0.0,1.0,0.0,0.0,0.0,0.0,0.0,0.0,2.26,,,0,0,0,0,0,0,0,0,0,0,0,0,0,0,0,0,0.0,,,,,0.0,0.0,0.0,0.0,0.0,0.0
255,101295,0,,135.0,,-0.07,-0.0,0.99,0.0,0.0,0.0,1.0,1.04,95.0,1575.0,0.0,3.68,,13.99,1.133,62.8,,37.7,5.0,,,,,,,,,,,,0,0,0,0,0,0,0,0,0,0,0,0,0,0,0,0,,,,,0.0,,,,,,
256,101315,0,,,,,,,,,,,,,,,,,,,,,,,,,,,,,,,,,,0,0,0,0,0,0,0,0,0,0,0,0,0,0,0,0,,,,,,,,,,,
257,101335,0,,135.0,,-0.06,0.01,0.97,0.0,0.0,0.0,0.97,1.04,93.0,1538.0,0.0,3.67,,14.12,1.135,62.8,,37.7,5.0,,,,,,,,,,,,0,0,0,0,0,0,0,0,0,0,0,0,0,0,0,0,,,,,0.0,,,,,,
258,101355,0,,,,,,,,,,,,,,,,,,,,,,,,,,,,,,,,,,0,0,0,0,0,0,0,0,0,0,0,0,0,0,0,0,,,,,,,,,,,
259,101375,0,0.0,135.0,13.26,-0.06,-0.02,0.96,0.0,0.0,0.0,0.96,1.04,92.0,1561.0,0.0,3.68,15.0,14.12,1.135,62.8,72.0,37.3,5.0,0.0,1.0,0.0,0.0,0.0,0.0,0.0,0.0,2.27,0.0,0.0,0,0,0,0,0,0,0,0,0,0,0,0,0,0,0,0,0.0,0.0,0.0,0.0,0.0,0.0,0.0,0.0,0.0,0.0,0.0
260,101395,0,,,,,,,,,,,,,,,,,,,,,,,,,,,,,,,,,,0,0,0,0,0,0,0,0,0,0,0,0,0,0,0,0,,,,,,,,,,,
261,101415,0,,135.0,,-0.06,-0.06,0.98,0.0,0.0,0.0,0.98,1.04,94.0,1561.0,0.0,3.68,,14.08,1.142,62.8,,37.3,5.0,,,,,,,,,,,,0,0,0,0,0,0,0,0,0,0,0,0,0,0,0,0,,,,,0.0,,,,,,
262,101435,0,,,,,,,,,,,,,,,,,,,,,,,,,,,,,,,,,,0,0,0,0,0,0,0,0,0,0,0,0,0,0,0,0,,,,,,,,,,,
263,101455,0,,135.0,,-0.03,-0.03,0.99,0.0,0.0,0.0,0.99,1.04,95.0,1586.0,0.0,3.68,,13.99,1.129,62.8,,37.4,5.0,,,,,,,,,,,,0,0,0,0,0,0,0,0,0,0,0,0,0,0,0,0,,,,,0.0,,,,,,
264,101475,0,0.0,,,,,,,,,,,,,,,,,,,,,,0.0,1.0,0.0,0.0,0.0,0.0,0.0,0.0,2.27,,,0,0,0,0,0,0,0,0,0,0,0,0,0,0,0,0,0.0,,,,,0.0,0.0,0.0,0.0,0.0,0.0
265,101495,0,,135.0,,-0.01,0.01,1.0,0.0,0.0,0.0,1.0,1.04,96.0,1518.0,0.0,3.67,,14.15,1.129,62.8,,37.4,5.0,,,,,,,,,,,,0,0,0,0,0,0,0,0,0,0,0,0,0,0,0,0,,,,,0.0,,,,,,
266,101515,0,,,,,,,,,,,,,,,,,,,,,,,,,,,,,,,,,,0,0,0,0,0,0,0,0,0,0,0,0,0,0,0,0,,,,,,,,,,,
267,101535,0,,135.0,,0.02,0.02,1.0,0.0,0.0,0.0,1.0,1.04,96.0,1543.0,0.0,3.69,,14.03,1.132,62.8,,37.4,5.0,,,,,,,,,,,,0,0,0,0,0,0,0,0,0,0,0,0,0,0,0,0,,,,,0.0,,,,,,
268,101555,0,,,,,,,,,,,,,,,,,,,,,,,,,,,,,,,,,,0,0,0,0,0,0,0,0,0,0,0,0,0,0,0,0,,,,,,,,,,,
269,101575,0,0.0,135.0,,0.02,0.04,0.99,0.0,0.0,0.0,0.99,1.04,95.0,1546.0,0.0,3.68,,14.03,1.132,62.8,,36.5,5.0,0.0,1.0,0.0,0.0,0.0,0.0,0.0,0.0,2.26,,,0,0,0,0,0,0,0,0,0,0,0,0,0,0,0,0,0.0,,,,0.0,0.0,0.0,0.0,0.0,0.0,0.0
270,101595,0,,,,,,,,,,,,,,,,,,,,,,,,,,,,,,,,,,0,0,0,0,0,0,0,0,0,0,0,0,0,0,0,0,,,,,,,,,,,
271,101615,0,,135.0,,0.02,-0.0,0.98,0.0,0.0,0.0,0.98,1.04,93.0,1546.0,0.0,3.68,,14.14,1.121,62.8,,36.5,5.0,,,,,,,,,,,,0,0,0,0,0,0,0,0,0,0,0,0,0,0,0,0,,,,,0.0,,,,,,
272,101635,0,,,,,,,,,,,,,,,,,,,,,,,,,,,,,,,,,,0,0,0,0,0,0,0,0,0,0,0,0,0,0,0,0,,,,,,,,,,,
273,101655,0,,135.0,,0.03,-0.01,0.97,0.0,0.0,0.0,0.97,1.04,93.0,1507.0,0.0,3.68,,14.04,1.115,62.8,,36.3,5.0,,,,,,,,,,,,0,0,0,0,0,0,0,0,0,0,0,0,0,0,0,0,,,,,0.0,,,,,,
274,101675,0,0.0,,,,,,,,,,,,,,,,,,,,,,0.0,1.0,0.0,0.0,0.0,0.0,0.0,0.0,2.26,,,0,0,0,0,0,0,0,0,0,0,0,0,0,0,0,0,0.0,,,,,0.0,0.0,0.0,0.0,0.0,0.0
275,101695,0,,135.0,,0.02,-0.02,0.97,0.0,0.0,0.0,0.97,1.04,93.0,1543.0,0.0,3.69,,14.15,1.115,62.8,,36.3,5.0,,,,,,,,,,,,0,0,0,0,0,0,0,0,0,0,0,0,0,0,0,0,,,,,0.0,,,,,,
276,101715,0,,,,,,,,,,,,,,,,,,,,,,,,,,,,,,,,,,0,0,0,0,0,0,0,0,0,0,0,0,0,0,0,0,,,,,,,,,,,
277,101735,0,,135.0,,0.02,-0.02,0.96,0.0,0.0,0.0,0.96,1.04,92.0,1492.0,0.0,3.68,,14.03,1.108,62.8,,36.3,5.0,,,,,,,,,,,,0,0,0,0,0,0,0,0,0,0,0,0,0,0,0,0,,,,,0.0,,,,,,
278,101755,0,,,,,,,,,,,,,,,,,,,,,,,,,,,,,,,,,,0,0,0,0,0,0,0,0,0,0,0,0,0,0,0,0,,,,,,,,,,,
279,101775,0,0.0,135.0,,0.03,-0.03,0.95,0.0,0.0,0.0,0.95,1.04,91.0,1450.0,0.0,3.69,,14.03,1.108,62.8,,34.6,5.0,0.0,1.0,0.0,0.0,0.0,0.0,0.0,0.0,2.26,,,0,0,0,0,0,0,0,0,0,0,0,0,0,0,0,0,0.0,,,,0.0,0.0,0.0,0.0,0.0,0.0,0.0
280,101795,0,,,,,,,,,,,,,,,,,,,,,,,,,,,,,,,,,,0,0,0,0,0,0,0,0,0,0,0,0,0,0,0,0,,,,,,,,,,,
281,101815,0,,135.0,,0.04,-0.03,0.94,0.0,0.0,0.0,0.94,1.04,90.0,1450.0,0.0,3.69,,14.16,1.098,62.8,,34.6,5.0,,,,,,,,,,,,0,0,0,0,0,0,0,0,0,0,0,0,0,0,0,0,,,,,0.0,,,,,,
282,101835,0,,,,,,,,,,,,,,,,,,,,,,,,,,,,,,,,,,0,0,0,0,0,0,0,0,0,0,0,0,0,0,0,0,,,,,,,,,,,
283,101855,0,,135.0,,0.05,-0.02,0.95,0.0,0.0,0.0,0.95,1.04,91.0,1495.0,0.0,3.71,,14.03,1.099,62.8,,35.0,5.0,,,,,,,,,,,,0,0,0,0,0,0,0,0,0,0,0,0,0,0,0,0,,,,,0.0,,,,,,
284,101875,0,0.0,,,,,,,,,,,,,,,,,,,,,,0.0,1.0,0.0,0.0,0.0,0.0,0.0,0.0,2.27,,,0,0,0,0,0,0,0,0,0,0,0,0,0,0,0,0,0.0,,,,,0.0,0.0,0.0,0.0,0.0,0.0
285,101895,0,,135.0,,0.04,-0.01,0.97,0.0,0.0,0.0,0.97,1.04,93.0,1439.0,0.0,3.71,,14.18,1.107,62.8,,35.0,5.0,,,,,,,,,,,,0,0,0,0,0,0,0,0,0,0,0,0,0,0,0,0,,,,,0.0,,,,,,
286,101915,0,,,,,,,,,,,,,,,,,,,,,,,,,,,,,,,,,,0,0,0,0,0,0,0,0,0,0,0,0,0,0,0,0,,,,,,,,,,,
287,101935,0,,135.0,,0.03,-0.04,0.98,0.0,0.0,0.0,0.98,1.04,94.0,1436.0,0.0,3.71,,14.11,1.11,62.8,,35.0,5.0,,,,,,,,,,,,0,0,0,0,0,0,0,0,0,0,0,0,0,0,0,0,,,,,0.0,,,,,,
288,101955,0,,,,,,,,,,,,,,,,,,,,,,,,,,,,,,,,,,0,0,0,0,0,0,0,0,0,0,0,0,0,0,0,0,,,,,,,,,,,
289,101975,0,0.0,135.0,,0.02,-0.05,0.98,0.0,0.0,0.0,0.98,1.04,94.0,1446.0,0.0,3.71,,14.11,1.11,62.8,,34.4,5.0,0.0,1.0,0.0,0.0,0.0,0.0,0.0,0.0,2.27,,,0,0,0,0,0,0,0,0,0,0,0,0,0,0,0,0,0.0,,,,0.0,0.0,0.0,0.0,0.0,0.0,0.0
290,101995,0,,,,,,,,,,,,,,,,,,,,,,,,,,,,,,,,,,0,0,0,0,0,0,0,0,0,0,0,0,0,0,0,0,,,,,,,,,,,
291,102015,0,,135.0,,0.02,-0.03,0.97,0.0,0.0,0.0,0.98,1.04,93.0,1446.0,0.0,3.71,,14.07,1.109,62.8,,34.4,5.0,,,,,,,,,,,,0,0,0,0,0,0,0,0,0,0,0,0,0,0,0,0,,,,,0.0,,,,,,
292,102035,0,,,,,,,,,,,,,,,,,,,,,,,,,,,,,,,,,,0,0,0,0,0,0,0,0,0,0,0,0,0,0,0,0,,,,,,,,,,,
293,102055,0,,135.0,,-0.01,-0.02,0.97,0.0,0.0,0.0,0.97,1.04,93.0,1384.0,0.0,3.71,,14.2,1.112,62.8,,33.8,5.0,,,,,,,,,,,,0,0,0,0,0,0,0,0,0,0,0,0,0,0,0,0,,,,,0.0,,,,,,
294,102075,0,0.0,,,,,,,,,,,,,,,,,,,,,,0.0,1.0,0.0,0.0,0.0,0.0,0.0,0.0,2.26,,,0,0,0,0,0,0,0,0,0,0,0,0,0,0,0,0,0.0,,,,,0.0,0.0,0.0,0.0,0.0,0.0
295,102095,0,,135.0,,-0.04,-0.03,0.97,0.0,0.0,0.0,0.97,1.04,93.0,1382.0,0.0,3.73,,14.07,1.132,62.8,,33.8,5.0,,,,,,,,,,,,0,0,0,0,0,0,0,0,0,0,0,0,0,0,0,0,,,,,0.0,,,,,,
296,102115,0,,,,,,,,,,,,,,,,,,,,,,,,,,,,,,,,,,0,0,0,0,0,0,0,0,0,0,0,0,0,0,0,0,,,,,,,,,,,
297,102135,0,,135.0,,-0.06,-0.03,0.97,1.0,0.0,0.0,0.97,1.04,93.0,1493.0,0.0,3.69,,14.15,1.139,62.8,,33.8,5.0,,,,,,,,,,,,0,0,0,0,0,0,0,0,0,0,0,0,0,0,0,0,,,,,0.0,,,,,,
298,102155,0,,,,,,,,,,,,,,,,,,,,,,,,,,,,,,,,,,0,0,0,0,0,0,0,0,0,0,0,0,0,0,0,0,,,,,,,,,,,
299,102175,0,0.0,135.0,,-0.08,-0.05,0.98,1.0,0.0,0.0,0.99,1.04,95.0,1476.0,0.0,3.69,,14.15,1.139,62.8,,35.3,5.0,0.0,1.0,0.0,0.0,0.0,0.0,0.0,0.0,2.26,,,0,0,0,0,0,0,0,0,0,0,0,0,0,0,0,0,0.0,,,,0.0,0.0,0.0,0.0,0.0,0.0,0.0
300,102195,0,,,,,,,,,,,,,,,,,,,,,,,,,,,,,,,,,,0,0,0,0,0,0,0,0,0,0,0,0,0,0,0,0,,,,,,,,,,,
301,102215,0,,135.0,,-0.11,-0.07,0.97,1.0,0.0,-1.0,0.98,1.04,94.0,1476.0,0.0,3.69,,14.07,1.132,62.8,,35.3,5.0,,,,,,,,,,,,0,0,0,0,0,0,0,0,0,0,0,0,0,0,0,0,,,,,0.0,,,,,,
302,102235,0,,,,,,,,,,,,,,,,,,,,,,,,,,,,,,,,,,0,0,0,0,0,0,0,0,0,0,0,0,0,0,0,0,,,,,,,,,,,
303,102255,0,,135.0,,-0.1,-0.04,0.95,1.0,0.0,-1.0,0.96,1.04,92.0,1492.0,0.0,3.71,,14.12,1.135,62.8,,37.7,5.0,,,,,,,,,,,,0,0,0,0,0,0,0,0,0,0,0,0,0,0,0,0,,,,,0.0,,,,,,
304,102275,0,0.0,,,,,,,,,,,,,,,,,,,,,,0.0,4.0,0.0,0.0,0.0,0.0,0.0,0.0,2.26,,,0,0,0,0,0,0,0,0,0,0,0,0,0,0,0,0,0.0,,,,,0.0,0.0,0.0,0.0,0.0,0.0
305,102295,0,,135.0,,-0.09,-0.03,0.93,1.0,0.0,0.0,0.94,1.04,90.0,1591.0,0.0,3.67,,14.03,1.139,62.8,,37.7,5.0,,,,,,,,,,,,0,0,0,0,0,0,0,0,0,0,0,0,0,0,0,0,,,,,0.0,,,,,,
306,102315,0,,,,,,,,,,,,,,,,,,,,,,,,,,,,,,,,,,0,0,0,0,0,0,0,0,0,0,0,0,0,0,0,0,,,,,,,,,,,
307,102335,0,,135.0,,-0.09,-0.05,0.93,0.0,0.0,0.0,0.94,1.04,90.0,1593.0,0.0,3.67,,14.07,1.143,62.8,,37.7,5.0,,,,,,,,,,,,0,0,0,0,0,0,0,0,0,0,0,0,0,0,0,0,,,,,0.0,,,,,,
308,102355,0,,,,,,,,,,,,,,,,,,,,,,,,,,,,,,,,,,0,0,0,0,0,0,0,0,0,0,0,0,0,0,0,0,,,,,,,,,,,
309,102375,0,0.0,135.0,13.3,-0.08,-0.08,0.95,1.0,0.0,0.0,0.96,1.04,92.0,1579.0,0.0,3.67,15.0,14.07,1.143,62.8,72.0,38.4,5.0,0.0,2.0,0.0,0.0,0.0,0.0,0.0,0.0,2.26,0.0,0.0,0,0,0,0,0,0,0,0,0,0,0,0,0,0,0,0,0.0,0.0,0.0,0.0,0.0,0.0,0.0,0.0,0.0,0.0,0.0
310,102395,0,,,,,,,,,,,,,,,,,,,,,,,,,,,,,,,,,,0,0,0,0,0,0,0,0,0,0,0,0,0,0,0,0,,,,,,,,,,,
311,102415,0,,135.0,,-0.05,-0.06,0.96,0.0,0.0,0.0,0.97,1.04,92.0,1579.0,0.0,3.67,,14.11,1.129,62.8,,38.4,5.0,,,,,,,,,,,,0,0,0,0,0,0,0,0,0,0,0,0,0,0,0,0,,,,,0.0,,,,,,
312,102435,0,,,,,,,,,,,,,,,,,,,,,,,,,,,,,,,,,,0,0,0,0,0,0,0,0,0,0,0,0,0,0,0,0,,,,,,,,,,,
313,102455,0,,135.0,,-0.05,-0.05,0.97,0.0,0.0,0.0,0.98,1.04,94.0,1607.0,0.0,3.67,,13.99,1.119,62.8,,38.1,5.0,,,,,,,,,,,,0,0,0,0,0,0,0,0,0,0,0,0,0,0,0,0,,,,,0.0,,,,,,
314,102475,0,0.0,,,,,,,,,,,,,,,,,,,,,,0.0,7.0,0.0,0.0,0.0,24.0,0.0,0.0,2.27,,,0,0,0,0,0,0,0,0,0,0,0,0,0,0,0,0,0.0,,,,,0.0,0.0,0.0,0.0,0.0,0.0
315,102495,0,,135.0,,-0.06,-0.03,0.99,0.0,0.0,0.0,1.0,1.04,95.0,1560.0,0.0,3.67,,14.1,1.126,62.8,,38.1,5.0,,,,,,,,,,,,0,0,0,0,0,0,0,0,0,0,0,0,0,0,0,0,,,,,0.0,,,,,,
316,102515,0,,,,,,,,,,,,,,,,,,,,,,,,,,,,,,,,,,0,0,0,0,0,0,0,0,0,0,0,0,0,0,0,0,,,,,,,,,,,
317,102535,0,,135.0,,-0.08,-0.01,0.99,0.0,0.0,0.0,0.99,1.04,95.0,1621.0,0.0,3.68,,14.11,1.118,62.8,,38.1,5.0,,,,,,,,,,,,0,0,0,0,0,0,0,0,0,0,0,0,0,0,0,0,,,,,0.0,,,,,,
318,102555,0,,,,,,,,,,,,,,,,,,,,,,,,,,,,,,,,,,0,0,0,0,0,0,0,0,0,0,0,0,0,0,0,0,,,,,,,,,,,
319,102575,0,0.0,135.0,,-0.09,-0.01,0.97,1.0,0.0,0.0,0.98,1.04,94.0,1605.0,0.0,3.67,,14.11,1.118,62.8,,38.2,5.0,0.0,7.0,0.0,0.0,0.0,24.0,0.0,0.0,2.27,,,0,0,0,0,0,0,0,0,0,0,0,0,0,0,0,0,0.0,,,,0.0,0.0,0.0,0.0,0.0,0.0,0.0
320,102595,0,,,,,,,,,,,,,,,,,,,,,,,,,,,,,,,,,,0,0,0,0,0,0,0,0,0,0,0,0,0,0,0,0,,,,,,,,,,,
321,102615,0,,135.0,,-0.1,-0.0,0.96,1.0,0.0,-1.0,0.97,1.04,93.0,1605.0,0.0,3.67,,14.02,1.106,62.8,,38.2,5.0,,,,,,,,,,,,0,0,0,0,0,0,0,0,0,0,0,0,0,0,0,0,,,,,0.0,,,,,,
322,102635,0,,,,,,,,,,,,,,,,,,,,,,,,,,,,,,,,,,0,0,0,0,0,0,0,0,0,0,0,0,0,0,0,0,,,,,,,,,,,
323,102655,0,,135.0,,-0.1,0.01,0.94,1.0,0.0,-1.0,0.95,1.04,91.0,1508.0,0.0,3.71,,14.16,1.103,62.8,,37.6,5.0,,,,,,,,,,,,0,0,0,0,0,0,0,0,0,0,0,0,0,0,0,0,,,,,0.0,,,,,,
324,102675,0,0.0,,,,,,,,,,,,,,,,,,,,,,0.0,7.0,0.0,0.0,0.0,24.0,0.0,0.0,2.26,,,0,0,0,0,0,0,0,0,0,0,0,0,0,0,0,0,0.0,,,,,0.0,0.0,0.0,0.0,0.0,0.0
325,102695,0,,135.0,,-0.09,0.02,0.93,0.0,0.0,0.0,0.93,1.04,89.0,1598.0,0.0,3.69,,14.02,1.102,62.8,,37.6,5.0,,,,,,,,,,,,0,0,0,0,0,0,0,0,0,0,0,0,0,0,0,0,,,,,0.0,,,,,,
326,102715,0,,,,,,,,,,,,,,,,,,,,,,,,,,,,,,,,,,0,0,0,0,0,0,0,0,0,0,0,0,0,0,0,0,,,,,,,,,,,
327,102735,0,,135.0,,-0.08,0.03,0.93,0.0,0.0,0.0,0.93,1.04,89.0,1555.0,0.0,3.67,,14.12,1.096,62.8,,37.6,5.0,,,,,,,,,,,,0,0,0,0,0,0,0,0,0,0,0,0,0,0,0,0,,,,,0.0,,,,,,
328,102755,0,,,,,,,,,,,,,,,,,,,,,,,,,,,,,,,,,,0,0,0,0,0,0,0,0,0,0,0,0,0,0,0,0,,,,,,,,,,,
329,102775,0,0.0,135.0,,-0.08,0.03,0.91,0.0,0.0,0.0,0.92,1.04,88.0,1533.0,0.0,3.69,,14.12,1.096,62.8,,36.9,5.0,0.0,7.0,0.0,0.0,0.0,24.0,0.0,0.0,2.26,,,0,0,0,0,0,0,0,0,0,0,0,0,0,0,0,0,0.0,,,,0.0,0.0,0.0,0.0,0.0,0.0,0.0
330,102795,0,,,,,,,,,,,,,,,,,,,,,,,,,,,,,,,,,,0,0,0,0,0,0,0,0,0,0,0,0,0,0,0,0,,,,,,,,,,,
331,102815,0,,135.0,,-0.08,0.04,0.91,0.0,0.0,0.0,0.92,1.04,88.0,1533.0,0.0,3.69,,14.04,1.091,62.8,,36.9,5.0,,,,,,,,,,,,0,0,0,0,0,0,0,0,0,0,0,0,0,0,0,0,,,,,0.0,,,,,,
332,102835,0,,,,,,,,,,,,,,,,,,,,,,,,,,,,,,,,,,0,0,0,0,0,0,0,0,0,0,0,0,0,0,0,0,,,,,,,,,,,
333,102855,0,,135.0,,-0.07,0.05,0.91,0.0,0.0,1.0,0.91,1.04,87.0,1485.0,0.0,3.68,,14.16,1.092,62.8,,35.5,5.0,,,,,,,,,,,,0,0,0,0,0,0,0,0,0,0,0,0,0,0,0,0,,,,,0.0,,,,,,
334,102875,0,0.0,,,,,,,,,,,,,,,,,,,,,,0.0,7.0,0.0,0.0,0.0,24.0,0.0,0.0,2.26,,,0,0,0,0,0,0,0,0,0,0,0,0,0,0,0,0,0.0,,,,,0.0,0.0,0.0,0.0,0.0,0.0
335,102895,0,,135.0,,-0.06,0.07,0.9,0.0,0.0,1.0,0.91,1.04,87.0,1476.0,0.0,3.69,,14.06,1.083,62.8,,35.5,5.0,,,,,,,,,,,,0,0,0,0,0,0,0,0,0,0,0,0,0,0,0,0,,,,,0.0,,,,,,
336,102915,0,,,,,,,,,,,,,,,,,,,,,,,,,,,,,,,,,,0,0,0,0,0,0,0,0,0,0,0,0,0,0,0,0,,,,,,,,,,,
337,102935,0,,135.0,,-0.06,0.06,0.89,0.0,0.0,1.0,0.9,1.04,86.0,1494.0,0.0,3.71,,14.16,1.088,62.8,,35.5,5.0,,,,,,,,,,,,0,0,0,0,0,0,0,0,0,0,0,0,0,0,0,0,,,,,0.0,,,,,,
338,102955,0,,,,,,,,,,,,,,,,,,,,,,,,,,,,,,,,,,0,0,0,0,0,0,0,0,0,0,0,0,0,0,0,0,,,,,,,,,,,
339,102975,0,0.0,135.0,,-0.08,0.07,0.89,0.0,0.0,0.0,0.89,1.04,85.0,1447.0,0.0,3.69,,14.16,1.088,62.8,,35.0,5.0,0.0,7.0,0.0,0.0,0.0,24.0,0.0,0.0,2.26,,,0,0,0,0,0,0,0,0,0,0,0,0,0,0,0,0,0.0,,,,0.0,0.0,0.0,0.0,0.0,0.0,0.0
340,102995,0,,,,,,,,,,,,,,,,,,,,,,,,,,,,,,,,,,0,0,0,0,0,0,0,0,0,0,0,0,0,0,0,0,,,,,,,,,,,
341,103015,0,,135.0,,-0.1,0.04,0.91,0.0,0.0,0.0,0.92,1.04,88.0,1447.0,0.0,3.69,,14.07,1.099,62.8,,35.0,5.0,,,,,,,,,,,,0,0,0,0,0,0,0,0,0,0,0,0,0,0,0,0,,,,,0.0,,,,,,
342,103035,0,,,,,,,,,,,,,,,,,,,,,,,,,,,,,,,,,,0,0,0,0,0,0,0,0,0,0,0,0,0,0,0,0,,,,,,,,,,,
343,103055,0,,135.0,,-0.12,0.02,0.92,0.0,0.0,0.0,0.93,1.04,89.0,1487.0,0.0,3.72,,14.16,1.108,62.8,,35.6,5.0,,,,,,,,,,,,0,0,0,0,0,0,0,0,0,0,0,0,0,0,0,0,,,,,0.0,,,,,,
344,103075,0,0.0,,,,,,,,,,,,,,,,,,,,,,0.0,7.0,0.0,0.0,0.0,24.0,0.0,0.0,2.27,,,0,0,0,0,0,0,0,0,0,0,0,0,0,0,0,0,0.0,,,,,0.0,0.0,0.0,0.0,0.0,0.0
345,103095,0,,135.0,,-0.12,-0.0,0.95,0.0,0.0,0.0,0.96,1.04,92.0,1503.0,0.0,3.69,,14.08,1.109,62.8,,35.6,5.0,,,,,,,,,,,,0,0,0,0,0,0,0,0,0,0,0,0,0,0,0,0,,,,,0.0,,,,,,
346,103115,0,,,,,,,,,,,,,,,,,,,,,,,,,,,,,,,,,,0,0,0,0,0,0,0,0,0,0,0,0,0,0,0,0,,,,,,,,,,,
347,103135,0,,135.0,,-0.12,0.02,0.98,0.0,0.0,0.0,0.99,1.04,94.0,1395.0,0.0,3.69,,14.07,1.109,62.8,,35.6,5.0,,,,,,,,,,,,0,0,0,0,0,0,0,0,0,0,0,0,0,0,0,0,,,,,0.0,,,,,,
348,103155,0,,,,,,,,,,,,,,,,,,,,,,,,,,,,,,,,,,0,0,0,0,0,0,0,0,0,0,0,0,0,0,0,0,,,,,,,,,,,
349,103175,0,0.0,135.0,,-0.11,0.06,1.0,0.0,0.0,0.0,1.0,1.04,96.0,1413.0,0.0,3.73,,14.07,1.109,62.8,,33.7,5.0,0.0,10.0,0.0,0.0,0.0,0.0,0.0,0.0,2.26,,,0,0,0,0,0,0,0,0,0,0,0,0,0,0,0,0,0.0,,,,0.0,0.0,0.0,0.0,0.0,0.0,0.0
350,103195,0,,,,,,,,,,,,,,,,,,,,,,,,,,,,,,,,,,0,0,0,0,0,0,0,0,0,0,0,0,0,0,0,0,,,,,,,,,,,
351,103215,0,,135.0,,-0.12,0.07,1.02,0.0,0.0,0.0,1.03,1.04,99.0,1413.0,0.0,3.73,,14.14,1.112,62.8,,33.7,5.0,,,,,,,,,,,,0,0,0,0,0,0,0,0,0,0,0,0,0,0,0,0,,,,,0.0,,,,,,
352,103235,0,,,,,,,,,,,,,,,,,,,,,,,,,,,,,,,,,,0,0,0,0,0,0,0,0,0,0,0,0,0,0,0,0,,,,,,,,,,,
353,103255,0,,135.0,,-0.14,0.05,1.05,0.0,0.0,0.0,1.06,1.06,100.0,1555.0,0.0,3.68,,14.1,1.122,62.8,,36.5,5.0,,,,,,,,,,,,0,0,0,0,0,0,0,0,0,0,0,0,0,0,0,0,,,,,0.0,,,,,,
354,103275,0,0.0,,,,,,,,,,,,,,,,,,,,,,0.0,9.0,0.0,0.0,0.0,24.0,0.0,0.0,2.26,,,0,0,0,0,0,0,0,0,0,0,0,0,0,0,0,0,0.0,,,,,0.0,0.0,0.0,0.0,0.0,0.0
355,103295,0,,135.0,,-0.14,0.02,1.07,-1.0,0.0,0.0,1.08,1.08,100.0,1503.0,0.0,3.68,,14.11,1.111,62.8,,36.5,5.0,,,,,,,,,,,,0,0,0,0,0,0,0,0,0,0,0,0,0,0,0,0,,,,,0.0,,,,,,
356,103315,0,,,,,,,,,,,,,,,,,,,,,,,,,,,,,,,,,,0,0,0,0,0,0,0,0,0,0,0,0,0,0,0,0,,,,,,,,,,,
357,103335,0,,135.0,,-0.15,0.04,1.07,-1.0,0.0,0.0,1.08,1.08,100.0,1489.0,0.0,3.69,,14.1,1.11,62.8,,36.5,5.0,,,,,,,,,,,,0,0,0,0,0,0,0,0,0,0,0,0,0,0,0,0,,,,,0.0,,,,,,
358,103355,0,,,,,,,,,,,,,,,,,,,,,,,,,,,,,,,,,,0,0,0,0,0,0,0,0,0,0,0,0,0,0,0,0,,,,,,,,,,,
359,103375,0,0.0,135.0,13.31,-0.16,0.02,1.07,0.0,0.0,0.0,1.08,1.08,100.0,1547.0,0.0,3.69,15.0,14.1,1.11,62.8,74.0,36.6,5.0,0.0,9.0,0.0,0.0,0.0,24.0,0.0,0.0,2.26,0.0,0.0,0,0,0,0,0,0,0,0,0,0,0,0,0,0,0,0,0.0,0.0,0.0,0.0,0.0,0.0,0.0,0.0,0.0,0.0,0.0
360,103395,0,,,,,,,,,,,,,,,,,,,,,,,,,,,,,,,,,,0,0,0,0,0,0,0,0,0,0,0,0,0,0,0,0,,,,,,,,,,,
361,103415,0,,135.0,,-0.17,0.01,1.09,0.0,0.0,0.0,1.11,1.11,100.0,1547.0,0.0,3.69,,14.07,1.109,62.8,,36.6,5.0,,,,,,,,,,,,0,0,0,0,0,0,0,0,0,0,0,0,0,0,0,0,,,,,0.0,,,,,,
362,103435,0,,,,,,,,,,,,,,,,,,,,,,,,,,,,,,,,,,0,0,0,0,0,0,0,0,0,0,0,0,0,0,0,0,,,,,,,,,,,
363,103455,0,,135.0,,-0.17,-0.01,1.1,0.0,0.0,0.0,1.12,1.12,100.0,1492.0,0.0,3.69,,14.12,1.11,62.8,,36.2,5.0,,,,,,,,,,,,0,0,0,0,0,0,0,0,0,0,0,0,0,0,0,0,,,,,0.0,,,,,,
364,103475,0,0.0,,,,,,,,,,,,,,,,,,,,,,0.0,9.0,0.0,0.0,0.0,24.0,0.0,0.0,2.27,,,0,0,0,0,0,0,0,0,0,0,0,0,0,0,0,0,0.0,,,,,0.0,0.0,0.0,0.0,0.0,0.0
365,103495,0,,135.0,,-0.16,0.01,1.11,-1.0,0.0,0.0,1.13,1.13,100.0,1495.0,0.0,3.69,,14.14,1.106,62.8,,36.2,5.0,,,,,,,,,,,,0,0,0,0,0,0,0,0,0,0,0,0,0,0,0,0,,,,,0.0,,,,,,
366,103515,0,,,,,,,,,,,,,,,,,,,,,,,,,,,,,,,,,,0,0,0,0,0,0,0,0,0,0,0,0,0,0,0,0,,,,,,,,,,,
367,103535,0,,135.0,,-0.13,0.01,1.09,0.0,0.0,0.0,1.09,1.13,97.0,1391.0,0.0,3.69,,14.06,1.1,62.8,,36.2,5.0,,,,,,,,,,,,0,0,0,0,0,0,0,0,0,0,0,0,0,0,0,0,,,,,0.0,,,,,,
368,103555,0,,,,,,,,,,,,,,,,,,,,,,,,,,,,,,,,,,0,0,0,0,0,0,0,0,0,0,0,0,0,0,0,0,,,,,,,,,,,
369,103575,0,0.0,135.0,,-0.09,0.04,1.08,-1.0,0.0,0.0,1.08,1.13,96.0,1418.0,0.0,3.73,,14.06,1.1,62.8,,33.9,5.0,0.0,9.0,0.0,0.0,0.0,24.0,0.0,0.0,2.26,,,0,0,0,0,0,0,0,0,0,0,0,0,0,0,0,0,0.0,,,,0.0,0.0,0.0,0.0,0.0,0.0,0.0
370,103595,0,,,,,,,,,,,,,,,,,,,,,,,,,,,,,,,,,,0,0,0,0,0,0,0,0,0,0,0,0,0,0,0,0,,,,,,,,,,,
371,103615,0,,135.0,,-0.06,0.04,1.06,-1.0,0.0,0.0,1.06,1.13,94.0,1418.0,0.0,3.73,,14.18,1.106,62.8,,33.9,5.0,,,,,,,,,,,,0,0,0,0,0,0,0,0,0,0,0,0,0,0,0,0,,,,,0.0,,,,,,
372,103635,0,,,,,,,,,,,,,,,,,,,,,,,,,,,,,,,,,,0,0,0,0,0,0,0,0,0,0,0,0,0,0,0,0,,,,,,,,,,,
373,103655,0,,135.0,,-0.04,0.04,1.04,-1.0,0.0,0.0,1.04,1.13,93.0,1520.0,0.0,3.72,,14.04,1.106,62.8,,35.2,5.0,,,,,,,,,,,,0,0,0,0,0,0,0,0,0,0,0,0,0,0,0,0,,,,,0.0,,,,,,
374,103675,0,0.0,,,,,,,,,,,,,,,,,,,,,,0.0,9.0,0.0,0.0,0.0,24.0,0.0,0.0,2.26,,,0,0,0,0,0,0,0,0,0,0,0,0,0,0,0,0,0.0,,,,,0.0,0.0,0.0,0.0,0.0,0.0
375,103695,0,,135.0,,-0.05,0.04,1.05,0.0,0.0,0.0,1.05,1.13,93.0,1386.0,0.0,3.69,,14.16,1.097,62.8,,35.2,5.0,,,,,,,,,,,,0,0,0,0,0,0,0,0,0,0,0,0,0,0,0,0,,,,,0.0,,,,,,
376,103715,0,,,,,,,,,,,,,,,,,,,,,,,,,,,,,,,,,,0,0,0,0,0,0,0,0,0,0,0,0,0,0,0,0,,,,,,,,,,,
377,103735,0,,135.0,,-0.03,-0.01,1.06,0.0,0.0,0.0,1.07,1.13,95.0,1493.0,0.0,3.72,,14.06,1.104,62.8,,35.2,5.0,,,,,,,,,,,,0,0,0,0,0,0,0,0,0,0,0,0,0,0,0,0,,,,,0.0,,,,,,
378,103755,0,,,,,,,,,,,,,,,,,,,,,,,,,,,,,,,,,,0,0,0,0,0,0,0,0,0,0,0,0,0,0,0,0,,,,,,,,,,,
379,103775,0,0.0,135.0,,-0.02,0.0,1.06,0.0,0.0,0.0,1.06,1.13,95.0,1574.0,0.0,3.69,,14.06,1.104,62.8,,36.9,5.0,0.0,9.0,0.0,0.0,0.0,24.0,0.0,0.0,2.26,,,0,0,0,0,0,0,0,0,0,0,0,0,0,0,0,0,0.0,,,,0.0,0.0,0.0,0.0,0.0,0.0,0.0
380,103795,0,,,,,,,,,,,,,,,,,,,,,,,,,,,,,,,,,,0,0,0,0,0,0,0,0,0,0,0,0,0,0,0,0,,,,,,,,,,,
381,103815,0,,135.0,,-0.02,-0.0,1.07,0.0,0.0,0.0,1.07,1.13,95.0,1574.0,0.0,3.69,,14.15,1.11,62.8,,36.9,5.0,,,,,,,,,,,,0,0,0,0,0,0,0,0,0,0,0,0,0,0,0,0,,,,,0.0,,,,,,
382,103835,0,,,,,,,,,,,,,,,,,,,,,,,,,,,,,,,,,,0,0,0,0,0,0,0,0,0,0,0,0,0,0,0,0,,,,,,,,,,,
383,103855,0,,135.0,,-0.02,-0.03,1.06,0.0,0.0,0.0,1.06,1.13,94.0,1456.0,0.0,3.68,,14.1,1.108,62.8,,35.2,5.0,,,,,,,,,,,,0,0,0,0,0,0,0,0,0,0,0,0,0,0,0,0,,,,,0.0,,,,,,
384,103875,0,0.0,,,,,,,,,,,,,,,,,,,,,,0.0,9.0,0.0,0.0,0.0,24.0,0.0,0.0,2.26,,,0,0,0,0,0,0,0,0,0,0,0,0,0,0,0,0,0.0,,,,,0.0,0.0,0.0,0.0,0.0,0.0
385,103895,0,,135.0,,-0.03,-0.07,1.06,0.0,0.0,0.0,1.06,1.13,94.0,1502.0,0.0,3.72,,14.14,1.104,62.8,,35.2,5.0,,,,,,,,,,,,0,0,0,0,0,0,0,0,0,0,0,0,0,0,0,0,,,,,0.0,,,,,,
386,103915,0,,,,,,,,,,,,,,,,,,,,,,,,,,,,,,,,,,0,0,0,0,0,0,0,0,0,0,0,0,0,0,0,0,,,,,,,,,,,
387,103935,0,,135.0,,-0.03,-0.07,1.06,0.0,0.0,0.0,1.06,1.13,94.0,1482.0,0.0,3.69,,14.14,1.104,62.8,,35.2,5.0,,,,,,,,,,,,0,0,0,0,0,0,0,0,0,0,0,0,0,0,0,0,,,,,0.0,,,,,,
388,103955,0,,,,,,,,,,,,,,,,,,,,,,,,,,,,,,,,,,0,0,0,0,0,0,0,0,0,0,0,0,0,0,0,0,,,,,,,,,,,
389,103975,0,0.0,135.0,,-0.03,-0.04,1.04,0.0,0.0,0.0,1.04,1.13,92.0,1386.0,0.0,3.69,,14.14,1.104,62.8,,34.1,5.0,0.0,0.0,0.0,0.0,0.0,24.0,0.0,0.0,2.26,,,0,0,0,0,0,0,0,0,0,0,0,0,0,0,0,0,0.0,,,,0.0,0.0,0.0,0.0,0.0,0.0,0.0
390,103995,0,,,,,,,,,,,,,,,,,,,,,,,,,,,,,,,,,,0,0,0,0,0,0,0,0,0,0,0,0,0,0,0,0,,,,,,,,,,,
391,104015,0,,135.0,,-0.03,-0.01,1.01,0.0,0.0,0.0,1.01,1.13,90.0,1386.0,0.0,3.69,,14.06,1.104,62.8,,34.1,5.0,,,,,,,,,,,,0,0,0,0,0,0,0,0,0,0,0,0,0,0,0,0,,,,,0.0,,,,,,
392,104035,0,,,,,,,,,,,,,,,,,,,,,,,,,,,,,,,,,,0,0,0,0,0,0,0,0,0,0,0,0,0,0,0,0,,,,,,,,,,,
393,104055,0,,135.0,,-0.02,0.02,0.99,0.0,0.0,1.0,0.99,1.13,88.0,1494.0,0.0,3.72,,14.16,1.098,62.8,,36.1,5.0,,,,,,,,,,,,0,0,0,0,0,0,0,0,0,0,0,0,0,0,0,0,,,,,0.0,,,,,,
394,104075,0,0.0,,,,,,,,,,,,,,,,,,,,,,0.0,0.0,0.0,0.0,0.0,0.0,0.0,0.0,2.26,,,0,0,0,0,0,0,0,0,0,0,0,0,0,0,0,0,0.0,,,,,0.0,0.0,0.0,0.0,0.0,0.0
395,104095,0,,135.0,,-0.04,0.0,0.98,0.0,0.0,1.0,0.98,1.13,87.0,1520.0,0.0,3.69,,14.03,1.092,62.8,,36.1,5.0,,,,,,,,,,,,0,0,0,0,0,0,0,0,0,0,0,0,0,0,0,0,,,,,0.0,,,,,,
396,104115,0,,,,,,,,,,,,,,,,,,,,,,,,,,,,,,,,,,0,0,0,0,0,0,0,0,0,0,0,0,0,0,0,0,,,,,,,,,,,
397,104135,0,,135.0,,-0.06,0.0,0.97,0.0,0.0,0.0,0.97,1.13,86.0,1432.0,0.0,3.72,,14.19,1.092,62.8,,36.1,5.0,,,,,,,,,,,,0,0,0,0,0,0,0,0,0,0,0,0,0,0,0,0,,,,,0.0,,,,,,
398,104155,0,,,,,,,,,,,,,,,,,,,,,,,,,,,,,,,,,,0,0,0,0,0,0,0,0,0,0,0,0,0,0,0,0,,,,,,,,,,,
399,104175,0,0.0,135.0,,-0.08,0.01,0.95,0.0,0.0,0.0,0.96,1.13,85.0,1545.0,0.0,3.72,,14.19,1.092,62.8,,35.6,5.0,0.0,0.0,0.0,0.0,0.0,0.0,0.0,0.0,2.26,,,0,0,0,0,0,0,0,0,0,0,0,0,0,0,0,0,0.0,,,,0.0,0.0,0.0,0.0,0.0,0.0,0.0
400,104195,0,,,,,,,,,,,,,,,,,,,,,,,,,,,,,,,,,,0,0,0,0,0,0,0,0,0,0,0,0,0,0,0,0,,,,,,,,,,,
401,104215,0,,135.0,,-0.08,0.02,0.95,0.0,0.0,0.0,0.95,1.13,84.0,1545.0,0.0,3.72,,14.06,1.096,62.8,,35.6,5.0,,,,,,,,,,,,0,0,0,0,0,0,0,0,0,0,0,0,0,0,0,0,,,,,0.0,,,,,,
402,104235,0,,,,,,,,,,,,,,,,,,,,,,,,,,,,,,,,,,0,0,0,0,0,0,0,0,0,0,0,0,0,0,0,0,,,,,,,,,,,
403,104255,0,,135.0,,-0.1,0.0,0.95,0.0,0.0,0.0,0.95,1.13,85.0,1499.0,0.0,3.68,,14.16,1.09,62.8,,35.0,5.0,,,,,,,,,,,,0,0,0,0,0,0,0,0,0,0,0,0,0,0,0,0,,,,,0.0,,,,,,
404,104275,0,0.0,,,,,,,,,,,,,,,,,,,,,,0.0,0.0,0.0,0.0,0.0,0.0,0.0,0.0,2.26,,,0,0,0,0,0,0,0,0,0,0,0,0,0,0,0,0,0.0,,,,,0.0,0.0,0.0,0.0,0.0,0.0
405,104295,0,,135.0,,-0.12,-0.01,0.94,1.0,0.0,0.0,0.95,1.13,84.0,1439.0,0.0,3.69,,14.06,1.086,62.8,,35.0,5.0,,,,,,,,,,,,0,0,0,0,0,0,0,0,0,0,0,0,0,0,0,0,,,,,0.0,,,,,,
406,104315,0,,,,,,,,,,,,,,,,,,,,,,,,,,,,,,,,,,0,0,0,0,0,0,0,0,0,0,0,0,0,0,0,0,,,,,,,,,,,
407,104335,0,,135.0,,-0.12,-0.01,0.94,1.0,0.0,0.0,0.94,1.13,84.0,1553.0,0.0,3.69,,14.15,1.091,62.8,,35.0,5.0,,,,,,,,,,,,0,0,0,0,0,0,0,0,0,0,0,0,0,0,0,0,,,,,0.0,,,,,,
408,104355,0,,,,,,,,,,,,,,,,,,,,,,,,,,,,,,,,,,0,0,0,0,0,0,0,0,0,0,0,0,0,0,0,0,,,,,,,,,,,
409,104375,0,0.0,135.0,13.34,-0.13,-0.03,0.94,1.0,0.0,0.0,0.95,1.13,84.0,1428.0,0.0,3.68,15.0,14.15,1.091,62.8,74.0,35.4,5.0,0.0,0.0,0.0,0.0,0.0,0.0,0.0,0.0,2.26,0.0,0.0,0,0,0,0,0,0,0,0,0,0,0,0,0,0,0,0,0.0,0.0,0.0,0.0,0.0,0.0,0.0,0.0,0.0,0.0,0.0
410,104395,0,,,,,,,,,,,,,,,,,,,,,,,,,,,,,,,,,,0,0,0,0,0,0,0,0,0,0,0,0,0,0,0,0,,,,,,,,,,,
411,104415,0,,135.0,,-0.14,-0.05,0.95,1.0,0.0,0.0,0.96,1.13,85.0,1428.0,0.0,3.68,,14.06,1.094,62.8,,35.4,5.0,,,,,,,,,,,,0,0,0,0,0,0,0,0,0,0,0,0,0,0,0,0,,,,,0.0,,,,,,
412,104435,0,,,,,,,,,,,,,,,,,,,,,,,,,,,,,,,,,,0,0,0,0,0,0,0,0,0,0,0,0,0,0,0,0,,,,,,,,,,,
413,104455,0,,135.0,,-0.15,-0.05,0.96,1.0,0.0,-1.0,0.97,1.13,86.0,1517.0,0.0,3.71,,14.18,1.088,62.8,,35.4,5.0,,,,,,,,,,,,0,0,0,0,0,0,0,0,0,0,0,0,0,0,0,0,,,,,0.0,,,,,,
414,104475,0,0.0,,,,,,,,,,,,,,,,,,,,,,0.0,0.0,0.0,0.0,0.0,0.0,0.0,0.0,2.26,,,0,0,0,0,0,0,0,0,0,0,0,0,0,0,0,0,0.0,,,,,0.0,0.0,0.0,0.0,0.0,0.0
415,104495,0,,135.0,,-0.14,-0.07,0.98,1.0,0.0,0.0,1.0,1.13,88.0,1502.0,0.0,3.69,,14.12,1.081,62.8,,35.4,5.0,,,,,,,,,,,,0,0,0,0,0,0,0,0,0,0,0,0,0,0,0,0,,,,,0.0,,,,,,
416,104515,0,,,,,,,,,,,,,,,,,,,,,,,,,,,,,,,,,,0,0,0,0,0,0,0,0,0,0,0,0,0,0,0,0,,,,,,,,,,,
417,104535,0,,135.0,,-0.13,-0.07,0.99,1.0,0.0,-1.0,1.0,1.13,88.0,1408.0,0.0,3.73,,14.08,1.084,62.8,,35.4,5.0,,,,,,,,,,,,0,0,0,0,0,0,0,0,0,0,0,0,0,0,0,0,,,,,0.0,,,,,,
418,104555,0,,,,,,,,,,,,,,,,,,,,,,,,,,,,,,,,,,0,0,0,0,0,0,0,0,0,0,0,0,0,0,0,0,,,,,,,,,,,
419,104575,0,0.0,135.0,,-0.11,-0.05,0.97,1.0,0.0,0.0,0.98,1.13,87.0,1525.0,0.0,3.72,,14.08,1.084,62.8,,34.7,5.0,0.0,0.0,0.0,0.0,0.0,0.0,0.0,0.0,2.26,,,0,0,0,0,0,0,0,0,0,0,0,0,0,0,0,0,0.0,,,,0.0,0.0,0.0,0.0,0.0,0.0,0.0
420,104595,0,,,,,,,,,,,,,,,,,,,,,,,,,,,,,,,,,,0,0,0,0,0,0,0,0,0,0,0,0,0,0,0,0,,,,,,,,,,,
421,104615,0,,135.0,,-0.09,-0.05,0.96,1.0,0.0,0.0,0.97,1.13,86.0,1525.0,0.0,3.72,,14.16,1.09,62.8,,34.7,5.0,,,,,,,,,,,,0,0,0,0,0,0,0,0,0,0,0,0,0,0,0,0,,,,,0.0,,,,,,
422,104635,0,,,,,,,,,,,,,,,,,,,,,,,,,,,,,,,,,,0,0,0,0,0,0,0,0,0,0,0,0,0,0,0,0,,,,,,,,,,,
423,104655,0,,135.0,,-0.08,-0.04,0.97,1.0,0.0,0.0,0.97,1.13,86.0,1433.0,0.0,3.69,,14.07,1.093,62.8,,33.6,5.0,,,,,,,,,,,,0,0,0,0,0,0,0,0,0,0,0,0,0,0,0,0,,,,,0.0,,,,,,
424,104675,0,0.0,,,,,,,,,,,,,,,,,,,,,,0.0,0.0,0.0,0.0,0.0,0.0,0.0,0.0,2.26,,,0,0,0,0,0,0,0,0,0,0,0,0,0,0,0,0,0.0,,,,,0.0,0.0,0.0,0.0,0.0,0.0
425,104695,0,,135.0,,-0.07,-0.07,0.99,1.0,0.0,0.0,1.0,1.13,89.0,1382.0,0.0,3.72,,14.16,1.081,62.8,,33.6,5.0,,,,,,,,,,,,0,0,0,0,0,0,0,0,0,0,0,0,0,0,0,0,,,,,0.0,,,,,,
426,104715,0,,,,,,,,,,,,,,,,,,,,,,,,,,,,,,,,,,0,0,0,0,0,0,0,0,0,0,0,0,0,0,0,0,,,,,,,,,,,
427,104735,0,,135.0,,-0.06,-0.07,1.01,1.0,0.0,0.0,1.02,1.13,90.0,1483.0,0.0,3.72,,14.07,1.077,62.8,,33.6,5.0,,,,,,,,,,,,0,0,0,0,0,0,0,0,0,0,0,0,0,0,0,0,,,,,0.0,,,,,,
428,104755,0,,,,,,,,,,,,,,,,,,,,,,,,,,,,,,,,,,0,0,0,0,0,0,0,0,0,0,0,0,0,0,0,0,,,,,,,,,,,
429,104775,0,0.0,135.0,,-0.06,-0.08,1.01,1.0,0.0,0.0,1.02,1.13,91.0,1401.0,0.0,3.69,,14.07,1.077,62.8,,35.0,5.0,0.0,0.0,0.0,0.0,0.0,0.0,0.0,0.0,2.26,,,0,0,0,0,0,0,0,0,0,0,0,0,0,0,0,0,0.0,,,,0.0,0.0,0.0,0.0,0.0,0.0,0.0
430,104795,0,,,,,,,,,,,,,,,,,,,,,,,,,,,,,,,,,,0,0,0,0,0,0,0,0,0,0,0,0,0,0,0,0,,,,,,,,,,,
431,104815,0,,135.0,,-0.06,-0.06,1.0,1.0,0.0,0.0,1.01,1.13,89.0,1401.0,0.0,3.69,,14.1,1.08,62.8,,35.0,5.0,,,,,,,,,,,,0,0,0,0,0,0,0,0,0,0,0,0,0,0,0,0,,,,,0.0,,,,,,
432,104835,0,,,,,,,,,,,,,,,,,,,,,,,,,,,,,,,,,,0,0,0,0,0,0,0,0,0,0,0,0,0,0,0,0,,,,,,,,,,,
433,104855,0,,135.0,,-0.05,-0.05,0.99,1.0,0.0,0.0,0.99,1.13,88.0,1447.0,0.0,3.72,,14.16,1.075,62.8,,35.2,5.0,,,,,,,,,,,,0,0,0,0,0,0,0,0,0,0,0,0,0,0,0,0,,,,,0.0,,,,,,
