,Interval,Utc,FrontBP,SteerAng,Battery,AccelX,AccelY,AccelZ,Yaw,Pitch,Roll,Gsum,GsumMax,GsumPct,RPM,TPS,InjectorPW,Baro,MAP,Lambda,IAT,EngineTemp,EOP,EOT,WSFR,WSFL,WSRR,WSRL,TCSet,TCSlip,TCComp,TCCut,Analog8,OilTemp,AA_On,ThermLF1,ThermLF2,ThermRR1,ThermRR2,ThermLF3,ThermLF4,ThermLF5,ThermLF6,ThermLF7,ThermLF8,ThermRR3,ThermRR4,ThermRR5,ThermRR6,ThermRR7,ThermRR8,Gear,AA_On1,AA_LowDrag,Fuel_Mix,AA_Packages,Latitude,Longitude,Speed,GPSSats,GPSQual,GPSDOP
0,446360,1744862845161,0.0,135.0,,-0.08,0.03,1.03,0.0,0.0,1.0,1.03,1.03,100.0,4289.0,8.0,3.83,,12.59,0.853,62.8,,35.3,5.0,,,,,,,,,,,,0,0,0,0,0,0,0,0,0,0,0,0,0,0,0,0,,,,,0.0,,,,,,
1,446380,1744862845181,,,,,,,,,,,,,,,,,,,,,,,,,,,,,,,,,,0,0,0,0,0,0,0,0,0,0,0,0,0,0,0,0,,,,,,,,,,,
2,446400,1744862845197,0.0,135.0,,-0.06,-0.0,0.99,1.0,0.0,0.0,0.99,1.03,96.0,4282.0,7.9,3.82,,12.59,0.853,62.8,,35.3,5.0,,,,,,,,,,,,0,0,0,0,0,0,0,0,0,0,0,0,0,0,0,0,,,,,0.0,,,,,,
3,446420,1744862845217,,,,,,,,,,,,,,,,,,,,,,,,,,,,,,,,,,0,0,0,0,0,0,0,0,0,0,0,0,0,0,0,0,,,,,,,,,,,
4,446440,1744862845237,0.0,135.0,,-0.08,-0.13,0.93,1.0,0.0,0.0,0.94,1.03,91.0,4282.0,7.9,3.82,,12.56,0.863,62.8,,35.5,5.0,0.0,0.0,0.0,0.0,0.0,0.0,0.0,0.0,2.26,,,0,0,0,0,0,0,0,0,0,0,0,0,0,0,0,0,0.0,,,,0.0,38.986168,-76.950661,0.04,35.0,3.0,0.8
5,446460,1744862845257,,,,,,,,,,,,,,,,,,,,,,,,,,,,,,,,,,0,0,0,0,0,0,0,0,0,0,0,0,0,0,0,0,,,,,,,,,,,
6,446480,1744862845277,0.0,135.0,,-0.11,-0.14,0.91,-1.0,0.0,0.0,0.93,1.03,90.0,4430.0,7.8,3.77,,12.56,0.858,62.8,,35.5,5.0,,,,,,,,,,,,0,0,0,0,0,0,0,0,0,0,0,0,0,0,0,0,,,,,0.0,,,,,,
7,446500,1744862845301,,,,,,,,,,,,,,,,,,,,,,,,,,,,,,,,,,0,0,0,0,0,0,0,0,0,0,0,0,0,0,0,0,,,,,,,,,,,
8,446520,1744862845321,0.0,135.0,,-0.12,-0.2,0.88,-1.0,0.0,1.0,0.91,1.03,88.0,4529.0,7.7,3.75,,12.57,0.877,62.8,,35.5,5.0,,,,,,,,,,,,0,0,0,0,0,0,0,0,0,0,0,0,0,0,0,0,,,,,0.0,,,,,,
9,446540,1744862845341,,,,,,,,,,,,,,,,,,,,,,,0.0,0.0,0.0,0.0,0.0,0.0,0.0,0.0,2.26,,,0,0,0,0,0,0,0,0,0,0,0,0,0,0,0,0,0.0,,,,,38.986168,-76.950661,0.29,35.0,3.0,0.8
10,446560,1744862845361,0.0,135.0,,-0.1,-0.26,0.81,-1.0,0.0,1.0,0.86,1.03,83.0,4725.0,7.7,3.68,,12.52,0.823,62.8,,37.4,5.0,,,,,,,,,,,,0,0,0,0,0,0,0,0,0,0,0,0,0,0,0,0,,,,,0.0,,,,,,
11,446580,1744862845381,,,,,,,,,,,,,,,,,,,,,,,,,,,,,,,,,,0,0,0,0,0,0,0,0,0,0,0,0,0,0,0,0,,,,,,,,,,,
12,446600,1744862845401,0.0,135.0,,-0.08,-0.2,0.89,-1.0,0.0,0.0,0.91,1.03,89.0,4855.0,7.9,3.6,,12.52,0.823,62.8,,37.4,5.0,,,,,,,,,,,,0,0,0,0,0,0,0,0,0,0,0,0,0,0,0,0,,,,,0.0,,,,,,
13,446620,1744862845421,,,,,,,,,,,,,,,,,,,,,,,,,,,,,,,,,,0,0,0,0,0,0,0,0,0,0,0,0,0,0,0,0,,,,,,,,,,,
14,446640,1744862845441,0.0,135.0,,-0.13,-0.16,0.91,0.0,0.0,0.0,0.93,1.03,91.0,4855.0,7.9,3.6,,12.43,0.793,62.8,,37.5,5.0,0.0,0.0,0.0,0.0,0.0,0.0,0.0,0.0,2.26,,,0,0,0,0,0,0,0,0,0,0,0,0,0,0,0,0,0.0,,,,0.0,38.986168,-76.950661,0.28,35.0,3.0,0.8
15,446660,1744862845461,,,,,,,,,,,,,,,,,,,,,,,,,,,,,,,,,,0,0,0,0,0,0,0,0,0,0,0,0,0,0,0,0,,,,,,,,,,,
16,446680,1744862845481,0.0,135.0,,-0.08,-0.16,0.91,0.0,0.0,0.0,0.93,1.03,90.0,4877.0,8.0,3.55,,12.45,0.782,62.8,,37.5,5.0,,,,,,,,,,,,0,0,0,0,0,0,0,0,0,0,0,0,0,0,0,0,,,,,0.0,,,,,,
17,446700,1744862845501,,,,,,,,,,,,,,,,,,,,,,,,,,,,,,,,,,0,0,0,0,0,0,0,0,0,0,0,0,0,0,0,0,,,,,,,,,,,
18,446720,1744862845521,0.0,135.0,,-0.11,-0.09,0.91,0.0,0.0,0.0,0.92,1.03,90.0,4843.0,8.2,3.53,,12.33,0.765,62.8,,37.5,5.0,,,,,,,,,,,,0,0,0,0,0,0,0,0,0,0,0,0,0,0,0,0,,,,,0.0,,,,,,
19,446740,1744862845541,,,,,,,,,,,,,,,,,,,,,,,0.0,0.0,0.0,0.0,0.0,0.0,0.0,0.0,2.26,,,0,0,0,0,0,0,0,0,0,0,0,0,0,0,0,0,0.0,,,,,38.986168,-76.950661,0.08,35.0,3.0,0.8
20,446760,1744862845561,0.0,135.0,,-0.06,-0.07,0.96,-1.0,0.0,1.0,0.96,1.03,93.0,4959.0,8.2,3.5,,12.41,0.757,62.8,,37.5,5.0,,,,,,,,,,,,0,0,0,0,0,0,0,0,0,0,0,0,0,0,0,0,,,,,0.0,,,,,,
21,446780,1744862845581,,,,,,,,,,,,,,,,,,,,,,,,,,,,,,,,,,0,0,0,0,0,0,0,0,0,0,0,0,0,0,0,0,,,,,,,,,,,
22,446800,1744862845602,0.0,135.0,,-0.05,-0.05,0.93,-1.0,0.0,0.0,0.94,1.03,91.0,5034.0,8.4,3.52,,12.41,0.757,62.8,,37.5,5.0,,,,,,,,,,,,0,0,0,0,0,0,0,0,0,0,0,0,0,0,0,0,,,,,0.0,,,,,,
23,446820,1744862845622,,,,,,,,,,,,,,,,,,,,,,,,,,,,,,,,,,0,0,0,0,0,0,0,0,0,0,0,0,0,0,0,0,,,,,,,,,,,
24,446840,1744862845642,0.0,135.0,,-0.07,-0.05,0.93,0.0,0.0,1.0,0.93,1.03,90.0,5034.0,8.4,3.52,,12.25,0.752,62.8,,38.3,5.0,0.0,0.0,0.0,0.0,0.0,0.0,0.0,0.0,2.26,,,0,0,0,0,0,0,0,0,0,0,0,0,0,0,0,0,0.0,,,,0.0,38.986168,-76.950661,0.04,35.0,3.0,0.8
25,446860,1744862845662,,,,,,,,,,,,,,,,,,,,,,,,,,,,,,,,,,0,0,0,0,0,0,0,0,0,0,0,0,0,0,0,0,,,,,,,,,,,
26,446880,1744862845682,0.0,135.0,,-0.07,-0.05,0.92,0.0,0.0,0.0,0.92,1.03,89.0,5100.0,8.5,3.55,,12.32,0.748,62.8,,38.3,5.0,,,,,,,,,,,,0,0,0,0,0,0,0,0,0,0,0,0,0,0,0,0,,,,,0.0,,,,,,
27,446900,1744862845702,,,,,,,,,,,,,,,,,,,,,,,,,,,,,,,,,,0,0,0,0,0,0,0,0,0,0,0,0,0,0,0,0,,,,,,,,,,,
28,446920,1744862845722,0.0,135.0,,-0.05,-0.04,0.91,0.0,0.0,0.0,0.92,1.03,89.0,5238.0,8.6,3.61,,12.23,0.749,62.8,,38.3,5.0,,,,,,,,,,,,0,0,0,0,0,0,0,0,0,0,0,0,0,0,0,0,,,,,0.0,,,,,,
29,446940,1744862845742,,,,,,,,,,,,,,,,,,,,,,,0.0,0.0,0.0,0.0,0.0,0.0,0.0,0.0,2.26,,,0,0,0,0,0,0,0,0,0,0,0,0,0,0,0,0,0.0,,,,,38.986168,-76.950661,0.04,35.0,3.0,0.8
30,446960,1744862845762,0.0,135.0,,-0.03,-0.03,0.95,0.0,0.0,0.0,0.95,1.03,92.0,5361.0,8.8,3.68,,12.16,0.75,62.8,,39.6,5.0,,,,,,,,,,,,0,0,0,0,0,0,0,0,0,0,0,0,0,0,0,0,,,,,0.0,,,,,,
31,446980,1744862845782,,,,,,,,,,,,,,,,,,,,,,,,,,,,,,,,,,0,0,0,0,0,0,0,0,0,0,0,0,0,0,0,0,,,,,,,,,,,
32,447000,1744862845800,0.0,135.0,,-0.0,0.03,1.0,-1.0,0.0,1.0,1.0,1.03,97.0,5421.0,9.4,3.74,,12.16,0.75,62.8,,39.6,5.0,,,,,,,,,,,,0,0,0,0,0,0,0,0,0,0,0,0,0,0,0,0,,,,,0.0,,,,,,
33,447020,1744862845820,,,,,,,,,,,,,,,,,,,,,,,,,,,,,,,,,,0,0,0,0,0,0,0,0,0,0,0,0,0,0,0,0,,,,,,,,,,,
34,447040,1744862845840,0.0,135.0,,-0.01,-0.04,0.98,0.0,0.0,1.0,0.99,1.03,96.0,5421.0,9.4,3.74,,12.16,0.751,62.8,,39.6,5.0,0.0,0.0,0.0,0.0,0.0,0.0,0.0,0.0,2.26,,,0,0,0,0,0,0,0,0,0,0,0,0,0,0,0,0,0.0,,,,0.0,38.986168,-76.950661,0.07,35.0,3.0,0.8
35,447060,1744862845860,,,,,,,,,,,,,,,,,,,,,,,,,,,,,,,,,,0,0,0,0,0,0,0,0,0,0,0,0,0,0,0,0,,,,,,,,,,,
36,447080,1744862845880,0.0,135.0,,-0.02,-0.05,0.95,0.0,0.0,0.0,0.95,1.03,92.0,5387.0,10.0,3.79,,12.04,0.752,62.8,,39.6,5.0,,,,,,,,,,,,0,0,0,0,0,0,0,0,0,0,0,0,0,0,0,0,,,,,0.0,,,,,,
37,447100,1744862845902,,,,,,,,,,,,,,,,,,,,,,,,,,,,,,,,,,0,0,0,0,0,0,0,0,0,0,0,0,0,0,0,0,,,,,,,,,,,
38,447120,1744862845922,0.0,135.0,,0.02,-0.02,0.94,0.0,0.0,0.0,0.94,1.03,91.0,5416.0,10.5,3.86,,12.04,0.752,62.8,,39.6,5.0,,,,,,,,,,,,0,0,0,0,0,0,0,0,0,0,0,0,0,0,0,0,,,,,0.0,,,,,,
39,447140,1744862845942,,,,,,,,,,,,,,,,,,,,,,,0.0,0.0,0.0,0.0,0.0,0.0,0.0,0.0,2.26,,,0,0,0,0,0,0,0,0,0,0,0,0,0,0,0,0,0.0,,,,,38.986168,-76.950661,0.47,35.0,3.0,0.8
40,447160,1744862845962,0.0,135.0,,0.07,0.0,0.99,0.0,0.0,0.0,0.99,1.03,96.0,5140.0,13.6,4.01,,12.49,0.754,62.8,,38.7,5.0,,,,,,,,,,,,0,0,0,0,0,0,0,0,0,0,0,0,0,0,0,0,,,,,0.0,,,,,,
41,447180,1744862845982,,,,,,,,,,,,,,,,,,,,,,,,,,,,,,,,,,0,0,0,0,0,0,0,0,0,0,0,0,0,0,0,0,,,,,,,,,,,
42,447200,1744862845992,0.0,135.0,,0.09,0.1,1.02,0.0,0.0,1.0,1.03,1.03,100.0,4462.0,14.4,4.06,,12.49,0.754,62.8,,38.7,5.0,,,,,,,,,,,,0,0,0,0,0,0,0,0,0,0,0,0,0,0,0,0,,,,,0.0,,,,,,
43,447220,1744862846012,,,,,,,,,,,,,,,,,,,,,,,,,,,,,,,,,,0,0,0,0,0,0,0,0,0,0,0,0,0,0,0,0,,,,,,,,,,,
44,447240,1744862846032,0.0,135.0,14.27,0.14,0.08,1.0,0.0,0.0,0.0,1.02,1.03,99.0,4462.0,14.4,4.06,15.0,12.89,0.751,62.8,144.0,35.6,5.0,0.0,0.0,0.0,0.0,0.0,0.0,0.0,0.0,2.25,0.0,0.0,0,0,0,0,0,0,0,0,0,0,0,0,0,0,0,0,0.0,0.0,0.0,0.0,0.0,38.986168,-76.950661,1.02,35.0,3.0,0.8
45,447260,1744862846052,,,,,,,,,,,,,,,,,,,,,,,,,,,,,,,,,,0,0,0,0,0,0,0,0,0,0,0,0,0,0,0,0,,,,,,,,,,,
46,447280,1744862846072,0.0,135.0,,0.18,0.08,1.01,1.0,0.0,0.0,1.03,1.03,100.0,3922.0,14.4,4.12,,13.25,0.75,62.8,,35.6,5.0,,,,,,,,,,,,0,0,0,0,0,0,0,0,0,0,0,0,0,0,0,0,,,,,0.0,,,,,,
47,447300,1744862846098,,,,,,,,,,,,,,,,,,,,,,,,,,,,,,,,,,0,0,0,0,0,0,0,0,0,0,0,0,0,0,0,0,,,,,,,,,,,
48,447320,1744862846118,0.0,135.0,,0.24,0.11,1.04,1.0,1.0,1.0,1.07,1.07,100.0,3451.0,15.7,4.23,,13.64,0.754,62.8,,35.6,5.0,,,,,,,,,,,,0,0,0,0,0,0,0,0,0,0,0,0,0,0,0,0,,,,,0.0,,,,,,
49,447340,1744862846138,,,,,,,,,,,,,,,,,,,,,,,1.0,0.0,0.0,0.0,0.0,0.0,0.0,0.0,2.26,,,0,0,0,0,0,0,0,0,0,0,0,0,0,0,0,0,0.0,,,,,38.986168,-76.950661,2.51,35.0,3.0,0.8
50,447360,1744862846158,0.0,135.0,,0.29,0.09,1.05,2.0,0.0,1.0,1.09,1.09,100.0,2975.0,21.6,4.55,,14.15,0.757,62.8,,34.9,5.0,,,,,,,,,,,,0,0,0,0,0,0,0,0,0,0,0,0,0,0,0,0,,,,,0.0,,,,,,
51,447380,1744862846178,,,,,,,,,,,,,,,,,,,,,,,,,,,,,,,,,,0,0,0,0,0,0,0,0,0,0,0,0,0,0,0,0,,,,,,,,,,,
52,447400,1744862846196,0.0,135.0,,0.33,0.09,1.03,3.0,0.0,1.0,1.09,1.09,100.0,2389.0,33.1,4.91,,14.15,0.757,62.8,,34.9,5.0,,,,,,,,,,,,0,0,0,0,0,0,0,0,0,0,0,0,0,0,0,0,,,,,0.0,,,,,,
53,447420,1744862846216,,,,,,,,,,,,,,,,,,,,,,,,,,,,,,,,,,0,0,0,0,0,0,0,0,0,0,0,0,0,0,0,0,,,,,,,,,,,
54,447440,1744862846236,0.0,135.0,,0.36,0.07,1.04,5.0,0.0,0.0,1.11,1.11,100.0,2389.0,33.1,4.91,,14.48,0.767,62.8,,30.1,5.0,3.0,2.0,7.0,6.0,0.0,0.0,0.0,0.0,2.26,,,0,0,0,0,0,0,0,0,0,0,0,0,0,0,0,0,0.0,,,,0.0,38.986168,-76.950661,5.68,35.0,3.0,0.8
55,447460,1744862846256,,,,,,,,,,,,,,,,,,,,,,,,,,,,,,,,,,0,0,0,0,0,0,0,0,0,0,0,0,0,0,0,0,,,,,,,,,,,
56,447480,1744862846276,0.0,135.0,,0.37,0.07,1.03,7.0,0.0,0.0,1.1,1.11,99.0,1996.0,40.1,5.05,,14.63,0.777,62.8,,30.1,5.0,,,,,,,,,,,,0,0,0,0,0,0,0,0,0,0,0,0,0,0,0,0,,,,,0.0,,,,,,
57,447500,1744862846302,,,,,,,,,,,,,,,,,,,,,,,,,,,,,,,,,,0,0,0,0,0,0,0,0,0,0,0,0,0,0,0,0,,,,,,,,,,,
58,447520,1744862846322,0.0,135.0,,0.33,0.11,1.03,8.0,-1.0,0.0,1.09,1.11,99.0,1683.0,52.1,4.97,,14.46,0.782,62.8,,30.1,5.0,,,,,,,,,,,,0,0,0,0,0,0,0,0,0,0,0,0,0,0,0,0,,,,,0.0,,,,,,
59,447540,1744862846342,,,,,,,,,,,,,,,,,,,,,,,5.0,3.0,5.0,6.0,0.0,0.0,0.0,0.0,2.26,,,0,0,0,0,0,0,0,0,0,0,0,0,0,0,0,0,0.0,,,,,38.986164,-76.950661,7.57,35.0,3.0,0.8
60,447560,1744862846362,0.0,135.0,,0.29,0.09,1.04,10.0,-1.0,0.0,1.08,1.11,98.0,1277.0,72.2,4.91,,14.52,0.785,62.8,,20.0,5.0,,,,,,,,,,,,0,0,0,0,0,0,0,0,0,0,0,0,0,0,0,0,,,,,0.0,,,,,,
61,447580,1744862846382,,,,,,,,,,,,,,,,,,,,,,,,,,,,,,,,,,0,0,0,0,0,0,0,0,0,0,0,0,0,0,0,0,,,,,,,,,,,
62,447600,1744862846400,0.0,135.0,,0.24,0.11,1.03,11.0,-1.0,0.0,1.07,1.11,97.0,1850.0,80.6,4.95,,14.52,0.785,62.8,,20.0,5.0,,,,,,,,,,,,0,0,0,0,0,0,0,0,0,0,0,0,0,0,0,0,,,,,0.0,,,,,,
63,447620,1744862846420,,,,,,,,,,,,,,,,,,,,,,,,,,,,,,,,,,0,0,0,0,0,0,0,0,0,0,0,0,0,0,0,0,,,,,,,,,,,
64,447640,1744862846440,0.0,135.0,,0.22,0.1,1.02,13.0,-1.0,0.0,1.05,1.11,95.0,1850.0,80.6,4.95,,14.56,0.788,62.8,,23.9,5.0,6.0,1.0,5.0,4.0,0.0,0.0,0.0,0.0,2.26,,,0,0,0,0,0,0,0,0,0,0,0,0,0,0,0,0,0.0,,,,0.0,38.986164,-76.950668,9.04,35.0,3.0,0.8
65,447660,1744862846460,,,,,,,,,,,,,,,,,,,,,,,,,,,,,,,,,,0,0,0,0,0,0,0,0,0,0,0,0,0,0,0,0,,,,,,,,,,,
66,447680,1744862846480,0.0,135.0,,0.22,0.11,1.03,14.0,-1.0,0.0,1.06,1.11,96.0,1772.0,80.7,5.14,,14.47,0.793,62.8,,23.9,5.0,,,,,,,,,,,,0,0,0,0,0,0,0,0,0,0,0,0,0,0,0,0,,,,,0.0,,,,,,
67,447700,1744862846502,,,,,,,,,,,,,,,,,,,,,,,,,,,,,,,,,,0,0,0,0,0,0,0,0,0,0,0,0,0,0,0,0,,,,,,,,,,,
68,447720,1744862846522,0.0,135.0,,0.23,0.11,1.02,15.0,0.0,0.0,1.05,1.11,95.0,2104.0,80.4,4.84,,14.63,0.795,62.8,,23.9,5.0,,,,,,,,,,,,0,0,0,0,0,0,0,0,0,0,0,0,0,0,0,0,,,,,0.0,,,,,,
69,447740,1744862846542,,,,,,,,,,,,,,,,,,,,,,,6.0,4.0,6.0,4.0,0.0,0.0,0.0,0.0,2.26,,,0,0,0,0,0,0,0,0,0,0,0,0,0,0,0,0,0.0,,,,,38.986164,-76.950668,8.18,35.0,3.0,0.8
70,447760,1744862846562,0.0,135.0,,0.19,0.12,1.05,16.0,-1.0,0.0,1.07,1.11,97.0,1895.0,53.4,4.81,,14.58,0.802,62.8,,25.7,5.0,,,,,,,,,,,,0,0,0,0,0,0,0,0,0,0,0,0,0,0,0,0,,,,,0.0,,,,,,
71,447780,1744862846582,,,,,,,,,,,,,,,,,,,,,,,,,,,,,,,,,,0,0,0,0,0,0,0,0,0,0,0,0,0,0,0,0,,,,,,,,,,,
72,447800,1744862846601,0.0,135.0,,0.16,0.14,1.02,18.0,-1.0,0.0,1.05,1.11,95.0,1788.0,52.9,4.38,,14.58,0.802,62.8,,25.7,5.0,,,,,,,,,,,,0,0,0,0,0,0,0,0,0,0,0,0,0,0,0,0,,,,,0.0,,,,,,
73,447820,1744862846621,,,,,,,,,,,,,,,,,,,,,,,,,,,,,,,,,,0,0,0,0,0,0,0,0,0,0,0,0,0,0,0,0,,,,,,,,,,,
74,447840,1744862846641,0.0,135.0,,0.15,0.13,1.03,19.0,-1.0,0.0,1.05,1.11,95.0,1788.0,52.9,4.38,,14.56,0.803,62.8,,24.0,5.0,6.0,5.0,6.0,5.0,0.0,0.0,0.0,0.0,2.26,,,0,0,0,0,0,0,0,0,0,0,0,0,0,0,0,0,0.0,,,,0.0,38.986164,-76.950668,8.74,35.0,3.0,0.8
75,447860,1744862846661,,,,,,,,,,,,,,,,,,,,,,,,,,,,,,,,,,0,0,0,0,0,0,0,0,0,0,0,0,0,0,0,0,,,,,,,,,,,
76,447880,1744862846681,0.0,135.0,,0.11,0.14,1.04,20.0,-1.0,0.0,1.05,1.11,95.0,1810.0,52.8,4.47,,14.55,0.796,62.8,,24.0,5.0,,,,,,,,,,,,0,0,0,0,0,0,0,0,0,0,0,0,0,0,0,0,,,,,0.0,,,,,,
77,447900,1744862846699,,,,,,,,,,,,,,,,,,,,,,,,,,,,,,,,,,0,0,0,0,0,0,0,0,0,0,0,0,0,0,0,0,,,,,,,,,,,
78,447920,1744862846719,0.0,135.0,,0.1,0.1,1.04,21.0,-1.0,0.0,1.04,1.11,95.0,2012.0,52.8,4.45,,14.63,0.786,62.8,,24.0,5.0,,,,,,,,,,,,0,0,0,0,0,0,0,0,0,0,0,0,0,0,0,0,,,,,0.0,,,,,,
79,447940,1744862846739,,,,,,,,,,,,,,,,,,,,,,,6.0,6.0,6.0,5.0,0.0,0.0,0.0,0.0,2.26,,,0,0,0,0,0,0,0,0,0,0,0,0,0,0,0,0,0.0,,,,,38.98616,-76.950676,9.35,35.0,3.0,0.8
80,447960,1744862846759,0.0,135.0,,0.11,0.11,1.03,22.0,-1.0,-1.0,1.04,1.11,94.0,2167.0,52.8,4.65,,14.54,0.78,62.8,,26.8,5.0,,,,,,,,,,,,0,0,0,0,0,0,0,0,0,0,0,0,0,0,0,0,,,,,0.0,,,,,,
81,447980,1744862846779,,,,,,,,,,,,,,,,,,,,,,,,,,,,,,,,,,0,0,0,0,0,0,0,0,0,0,0,0,0,0,0,0,,,,,,,,,,,
82,448000,1744862846801,0.0,135.0,,0.13,0.1,1.04,22.0,-1.0,0.0,1.05,1.11,95.0,2088.0,52.8,4.62,,14.54,0.78,62.8,,26.8,5.0,,,,,,,,,,,,0,0,0,0,0,0,0,0,0,0,0,0,0,0,0,0,,,,,0.0,,,,,,
83,448020,1744862846821,,,,,,,,,,,,,,,,,,,,,,,,,,,,,,,,,,0,0,0,0,0,0,0,0,0,0,0,0,0,0,0,0,,,,,,,,,,,
84,448040,1744862846841,0.0,135.0,,0.12,0.13,1.04,23.0,-1.0,0.0,1.05,1.11,95.0,2088.0,52.8,4.62,,14.6,0.778,62.8,,28.1,5.0,7.0,3.0,6.0,5.0,0.0,200.0,0.0,0.0,2.26,,,0,0,0,0,0,0,0,0,0,0,0,0,0,0,0,0,0.0,,,,0.0,38.98616,-76.950676,9.46,35.0,3.0,0.8
85,448060,1744862846861,,,,,,,,,,,,,,,,,,,,,,,,,,,,,,,,,,0,0,0,0,0,0,0,0,0,0,0,0,0,0,0,0,,,,,,,,,,,
86,448080,1744862846881,0.0,135.0,,0.12,0.11,1.04,24.0,-1.0,-1.0,1.05,1.11,95.0,1980.0,52.5,4.63,,14.55,0.774,62.8,,28.1,5.0,,,,,,,,,,,,0,0,0,0,0,0,0,0,0,0,0,0,0,0,0,0,,,,,0.0,,,,,,
87,448100,1744862846901,,,,,,,,,,,,,,,,,,,,,,,,,,,,,,,,,,0,0,0,0,0,0,0,0,0,0,0,0,0,0,0,0,,,,,,,,,,,
88,448120,1744862846921,0.0,135.0,,0.11,0.12,1.03,25.0,-1.0,-1.0,1.04,1.11,94.0,2148.0,52.5,4.63,,14.6,0.776,62.8,,28.1,5.0,,,,,,,,,,,,0,0,0,0,0,0,0,0,0,0,0,0,0,0,0,0,,,,,0.0,,,,,,
89,448140,1744862846941,,,,,,,,,,,,,,,,,,,,,,,7.0,6.0,7.0,6.0,0.0,229.0,0.0,0.0,2.26,,,0,0,0,0,0,0,0,0,0,0,0,0,0,0,0,0,0.0,,,,,38.986156,-76.950684,10.11,35.0,3.0,0.8
90,448160,1744862846961,0.0,135.0,,0.09,0.12,1.01,26.0,-1.0,-1.0,1.02,1.11,92.0,2044.0,52.7,4.63,,14.52,0.78,62.8,,28.0,5.0,,,,,,,,,,,,0,0,0,0,0,0,0,0,0,0,0,0,0,0,0,0,,,,,0.0,,,,,,
91,448180,1744862846981,,,,,,,,,,,,,,,,,,,,,,,,,,,,,,,,,,0,0,0,0,0,0,0,0,0,0,0,0,0,0,0,0,,,,,,,,,,,
92,448200,1744862846991,0.0,135.0,,0.09,0.11,0.98,27.0,-1.0,-1.0,0.99,1.11,90.0,2333.0,52.7,4.63,,14.52,0.78,62.8,,28.0,5.0,,,,,,,,,,,,0,0,0,0,0,0,0,0,0,0,0,0,0,0,0,0,,,,,0.0,,,,,,
93,448220,1744862847011,,,,,,,,,,,,,,,,,,,,,,,,,,,,,,,,,,0,0,0,0,0,0,0,0,0,0,0,0,0,0,0,0,,,,,,,,,,,
94,448240,1744862847031,0.0,135.0,14.21,0.11,0.1,1.0,27.0,-1.0,-1.0,1.01,1.11,92.0,2333.0,52.7,4.63,15.0,14.54,0.78,62.8,144.0,31.8,5.0,8.0,7.0,7.0,6.0,0.0,0.0,0.0,0.0,2.26,0.0,0.0,0,0,0,0,0,0,0,0,0,0,0,0,0,0,0,0,0.0,0.0,0.0,0.0,0.0,38.986156,-76.950684,10.55,35.0,3.0,0.8
95,448260,1744862847051,,,,,,,,,,,,,,,,,,,,,,,,,,,,,,,,,,0,0,0,0,0,0,0,0,0,0,0,0,0,0,0,0,,,,,,,,,,,
96,448280,1744862847071,0.0,135.0,,0.12,0.15,1.02,28.0,-1.0,-1.0,1.04,1.11,94.0,2464.0,52.8,4.61,,14.52,0.78,62.8,,31.8,5.0,,,,,,,,,,,,0,0,0,0,0,0,0,0,0,0,0,0,0,0,0,0,,,,,0.0,,,,,,
97,448300,1744862847095,,,,,,,,,,,,,,,,,,,,,,,,,,,,,,,,,,0,0,0,0,0,0,0,0,0,0,0,0,0,0,0,0,,,,,,,,,,,
98,448320,1744862847115,0.0,135.0,,0.11,0.2,1.03,28.0,-1.0,-1.0,1.05,1.11,95.0,2455.0,52.6,4.57,,14.54,0.778,62.8,,31.8,5.0,,,,,,,,,,,,0,0,0,0,0,0,0,0,0,0,0,0,0,0,0,0,,,,,0.0,,,,,,
99,448340,1744862847135,,,,,,,,,,,,,,,,,,,,,,,8.0,7.0,8.0,7.0,0.0,8.0,0.0,0.0,2.26,,,0,0,0,0,0,0,0,0,0,0,0,0,0,0,0,0,0.0,,,,,38.986153,-76.950684,10.96,35.0,3.0,0.8
100,448360,1744862847155,0.0,135.0,,0.13,0.21,1.0,29.0,-1.0,-1.0,1.03,1.11,94.0,2488.0,52.8,4.57,,14.54,0.776,62.8,,33.6,5.0,,,,,,,,,,,,0,0,0,0,0,0,0,0,0,0,0,0,0,0,0,0,,,,,0.0,,,,,,
101,448380,1744862847175,,,,,,,,,,,,,,,,,,,,,,,,,,,,,,,,,,0,0,0,0,0,0,0,0,0,0,0,0,0,0,0,0,,,,,,,,,,,
102,448400,1744862847199,0.0,135.0,,0.18,0.24,0.97,29.0,-1.0,-1.0,1.01,1.11,92.0,2916.0,52.9,4.53,,14.54,0.776,62.8,,33.6,5.0,,,,,,,,,,,,0,0,0,0,0,0,0,0,0,0,0,0,0,0,0,0,,,,,0.0,,,,,,
103,448420,1744862847219,,,,,,,,,,,,,,,,,,,,,,,,,,,,,,,,,,0,0,0,0,0,0,0,0,0,0,0,0,0,0,0,0,,,,,,,,,,,
104,448440,1744862847239,0.0,135.0,,0.2,0.28,0.91,30.0,-1.0,-1.0,0.98,1.11,88.0,2916.0,52.9,4.53,,14.54,0.783,62.8,,33.6,5.0,8.0,7.0,8.0,7.0,0.0,226.0,0.0,0.0,2.26,,,0,0,0,0,0,0,0,0,0,0,0,0,0,0,0,0,0.0,,,,0.0,38.986153,-76.950691,12.02,35.0,3.0,0.8
105,448460,1744862847259,,,,,,,,,,,,,,,,,,,,,,,,,,,,,,,,,,0,0,0,0,0,0,0,0,0,0,0,0,0,0,0,0,,,,,,,,,,,
106,448480,1744862847279,0.0,135.0,,0.22,0.32,0.88,31.0,-1.0,-1.0,0.96,1.11,87.0,3030.0,52.7,4.49,,14.51,0.812,62.8,,33.6,5.0,,,,,,,,,,,,0,0,0,0,0,0,0,0,0,0,0,0,0,0,0,0,,,,,0.0,,,,,,
107,448500,1744862847301,,,,,,,,,,,,,,,,,,,,,,,,,,,,,,,,,,0,0,0,0,0,0,0,0,0,0,0,0,0,0,0,0,,,,,,,,,,,
108,448520,1744862847321,0.0,135.0,,0.25,0.22,0.94,33.0,-1.0,-1.0,1.0,1.11,91.0,3334.0,48.8,5.09,,14.54,0.824,62.8,,33.6,5.0,,,,,,,,,,,,0,0,0,0,0,0,0,0,0,0,0,0,0,0,0,0,,,,,0.0,,,,,,
109,448540,1744862847341,,,,,,,,,,,,,,,,,,,,,,,9.0,7.0,9.0,11.0,0.0,210.0,0.0,0.0,2.26,,,0,0,0,0,0,0,0,0,0,0,0,0,0,0,0,0,0.0,,,,,38.986153,-76.950691,13.19,35.0,3.0,0.8
110,448560,1744862847361,0.0,135.0,,0.28,0.25,0.96,33.0,-1.0,-1.0,1.03,1.11,93.0,3539.0,44.7,5.13,,14.4,0.833,62.8,,34.6,5.0,,,,,,,,,,,,0,0,0,0,0,0,0,0,0,0,0,0,0,0,0,0,,,,,0.0,,,,,,
111,448580,1744862847381,,,,,,,,,,,,,,,,,,,,,,,,,,,,,,,,,,0,0,0,0,0,0,0,0,0,0,0,0,0,0,0,0,,,,,,,,,,,
112,448600,1744862847401,0.0,135.0,,0.29,0.32,0.95,34.0,-1.0,-1.0,1.04,1.11,94.0,3641.0,30.4,4.82,,14.4,0.833,62.8,,34.6,5.0,,,,,,,,,,,,0,0,0,0,0,0,0,0,0,0,0,0,0,0,0,0,,,,,0.0,,,,,,
113,448620,1744862847421,,,,,,,,,,,,,,,,,,,,,,,,,,,,,,,,,,0,0,0,0,0,0,0,0,0,0,0,0,0,0,0,0,,,,,,,,,,,
114,448640,1744862847441,0.0,135.0,,0.31,0.31,0.97,35.0,-1.0,-1.0,1.07,1.11,97.0,3641.0,30.4,4.82,,14.2,0.847,62.8,,35.0,5.0,10.0,9.0,10.0,9.0,0.0,170.0,0.0,0.0,2.26,,,0,0,0,0,0,0,0,0,0,0,0,0,0,0,0,0,0.0,,,,0.0,38.986149,-76.950699,15.2,35.0,3.0,0.8
115,448660,1744862847461,,,,,,,,,,,,,,,,,,,,,,,,,,,,,,,,,,0,0,0,0,0,0,0,0,0,0,0,0,0,0,0,0,,,,,,,,,,,
116,448680,1744862847481,0.0,135.0,,0.31,0.2,0.98,35.0,-2.0,-1.0,1.04,1.11,94.0,3808.0,29.3,4.73,,14.16,0.858,62.8,,35.0,5.0,,,,,,,,,,,,0,0,0,0,0,0,0,0,0,0,0,0,0,0,0,0,,,,,0.0,,,,,,
117,448700,1744862847501,,,,,,,,,,,,,,,,,,,,,,,,,,,,,,,,,,0,0,0,0,0,0,0,0,0,0,0,0,0,0,0,0,,,,,,,,,,,
118,448720,1744862847521,0.0,135.0,,0.32,0.17,0.96,36.0,-2.0,-1.0,1.02,1.11,92.0,3926.0,29.0,4.69,,14.12,0.858,62.8,,35.0,5.0,,,,,,,,,,,,0,0,0,0,0,0,0,0,0,0,0,0,0,0,0,0,,,,,0.0,,,,,,
119,448740,1744862847541,,,,,,,,,,,,,,,,,,,,,,,11.0,9.0,11.0,10.0,0.0,16.0,0.0,0.0,2.26,,,0,0,0,0,0,0,0,0,0,0,0,0,0,0,0,0,0.0,,,,,38.986145,-76.950699,17.59,35.0,3.0,0.8
120,448760,1744862847561,0.0,135.0,,0.35,0.27,0.99,36.0,-2.0,-1.0,1.09,1.11,98.0,4018.0,18.5,4.44,,13.83,0.843,62.8,,35.8,5.0,,,,,,,,,,,,0,0,0,0,0,0,0,0,0,0,0,0,0,0,0,0,,,,,0.0,,,,,,
121,448780,1744862847581,,,,,,,,,,,,,,,,,,,,,,,,,,,,,,,,,,0,0,0,0,0,0,0,0,0,0,0,0,0,0,0,0,,,,,,,,,,,
122,448800,1744862847600,0.0,135.0,,0.33,0.24,1.01,34.0,-2.0,0.0,1.09,1.11,99.0,3994.0,8.1,4.06,,13.83,0.843,62.8,,35.8,5.0,,,,,,,,,,,,0,0,0,0,0,0,0,0,0,0,0,0,0,0,0,0,,,,,0.0,,,,,,
123,448820,1744862847620,,,,,,,,,,,,,,,,,,,,,,,,,,,,,,,,,,0,0,0,0,0,0,0,0,0,0,0,0,0,0,0,0,,,,,,,,,,,
124,448840,1744862847640,0.0,135.0,,0.3,0.19,1.01,33.0,-2.0,0.0,1.07,1.11,97.0,3994.0,8.1,4.06,,13.44,0.828,62.8,,34.5,5.0,13.0,11.0,12.0,12.0,0.0,27.0,0.0,0.0,2.26,,,0,0,0,0,0,0,0,0,0,0,0,0,0,0,0,0,0.0,,,,0.0,38.986141,-76.950699,19.43,35.0,3.0,0.8
125,448860,1744862847660,,,,,,,,,,,,,,,,,,,,,,,,,,,,,,,,,,0,0,0,0,0,0,0,0,0,0,0,0,0,0,0,0,,,,,,,,,,,
126,448880,1744862847680,0.0,135.0,,0.27,0.17,1.0,33.0,-2.0,-1.0,1.05,1.11,95.0,3900.0,7.1,3.95,,13.04,0.819,62.8,,34.5,5.0,,,,,,,,,,,,0,0,0,0,0,0,0,0,0,0,0,0,0,0,0,0,,,,,0.0,,,,,,
127,448900,1744862847700,,,,,,,,,,,,,,,,,,,,,,,,,,,,,,,,,,0,0,0,0,0,0,0,0,0,0,0,0,0,0,0,0,,,,,,,,,,,
128,448920,1744862847720,0.0,135.0,,0.25,0.25,1.01,33.0,-2.0,-1.0,1.07,1.11,97.0,3889.0,7.2,3.94,,12.89,0.802,62.8,,34.5,5.0,,,,,,,,,,,,0,0,0,0,0,0,0,0,0,0,0,0,0,0,0,0,,,,,0.0,,,,,,
129,448940,1744862847740,,,,,,,,,,,,,,,,,,,,,,,13.0,6.0,13.0,12.0,0.0,5.0,0.0,0.0,2.26,,,0,0,0,0,0,0,0,0,0,0,0,0,0,0,0,0,1.0,,,,,38.986137,-76.950699,20.29,35.0,3.0,0.8
130,448960,1744862847760,0.0,135.0,,0.2,0.34,1.07,31.0,-3.0,0.0,1.14,1.14,100.0,3971.0,9.0,3.99,,12.99,0.786,62.8,,35.8,5.0,,,,,,,,,,,,0,0,0,0,0,0,0,0,0,0,0,0,0,0,0,0,,,,,0.0,,,,,,
131,448980,1744862847780,,,,,,,,,,,,,,,,,,,,,,,,,,,,,,,,,,0,0,0,0,0,0,0,0,0,0,0,0,0,0,0,0,,,,,,,,,,,
132,449000,1744862847800,0.0,135.0,,0.17,0.22,1.02,32.0,-3.0,-1.0,1.06,1.14,93.0,4099.0,9.2,3.97,,12.99,0.786,62.8,,35.8,5.0,,,,,,,,,,,,0,0,0,0,0,0,0,0,0,0,0,0,0,0,0,0,,,,,0.0,,,,,,
133,449020,1744862847820,,,,,,,,,,,,,,,,,,,,,,,,,,,,,,,,,,0,0,0,0,0,0,0,0,0,0,0,0,0,0,0,0,,,,,,,,,,,
134,449040,1744862847840,0.0,135.0,,0.15,0.32,1.08,31.0,-4.0,0.0,1.14,1.14,100.0,4099.0,9.2,3.97,,12.93,0.771,62.8,,36.2,5.0,13.0,12.0,13.0,11.0,0.0,32.0,0.0,0.0,2.26,,,0,0,0,0,0,0,0,0,0,0,0,0,0,0,0,0,1.0,,,,0.0,38.98613,-76.950706,19.61,35.0,3.0,0.8
135,449060,1744862847860,,,,,,,,,,,,,,,,,,,,,,,,,,,,,,,,,,0,0,0,0,0,0,0,0,0,0,0,0,0,0,0,0,,,,,,,,,,,
136,449080,1744862847880,0.0,135.0,,0.16,0.31,1.05,32.0,-4.0,-1.0,1.11,1.14,97.0,4192.0,9.3,3.94,,12.91,0.761,62.8,,36.2,5.0,,,,,,,,,,,,0,0,0,0,0,0,0,0,0,0,0,0,0,0,0,0,,,,,0.0,,,,,,
137,449100,1744862847900,,,,,,,,,,,,,,,,,,,,,,,,,,,,,,,,,,0,0,0,0,0,0,0,0,0,0,0,0,0,0,0,0,,,,,,,,,,,
138,449120,1744862847920,0.0,135.0,,0.13,0.34,1.04,31.0,-4.0,0.0,1.1,1.14,97.0,4198.0,9.2,3.92,,12.92,0.761,62.8,,36.2,5.0,,,,,,,,,,,,0,0,0,0,0,0,0,0,0,0,0,0,0,0,0,0,,,,,0.0,,,,,,
139,449140,1744862847940,,,,,,,,,,,,,,,,,,,,,,,13.0,4.0,13.0,11.0,0.0,236.0,0.0,0.0,2.26,,,0,0,0,0,0,0,0,0,0,0,0,0,0,0,0,0,0.0,,,,,38.98613,-76.950706,19.83,35.0,3.0,0.8
140,449160,1744862847960,0.0,135.0,,0.14,0.31,1.02,32.0,-4.0,-1.0,1.07,1.14,94.0,4059.0,9.1,3.96,,12.92,0.761,62.8,,35.2,5.0,,,,,,,,,,,,0,0,0,0,0,0,0,0,0,0,0,0,0,0,0,0,,,,,0.0,,,,,,
141,449180,1744862847980,,,,,,,,,,,,,,,,,,,,,,,,,,,,,,,,,,0,0,0,0,0,0,0,0,0,0,0,0,0,0,0,0,,,,,,,,,,,
142,449200,1744862847994,0.0,135.0,,0.12,0.4,1.04,31.0,-4.0,0.0,1.13,1.14,99.0,4030.0,9.0,3.99,,12.92,0.761,62.8,,35.2,5.0,,,,,,,,,,,,0,0,0,0,0,0,0,0,0,0,0,0,0,0,0,0,,,,,0.0,,,,,,
143,449220,1744862848014,,,,,,,,,,,,,,,,,,,,,,,,,,,,,,,,,,0,0,0,0,0,0,0,0,0,0,0,0,0,0,0,0,,,,,,,,,,,
144,449240,1744862848034,0.0,135.0,14.27,0.07,0.29,0.99,31.0,-4.0,-1.0,1.03,1.14,91.0,4030.0,9.0,3.99,15.0,12.83,0.76,62.8,144.0,35.9,5.0,13.0,12.0,13.0,12.0,0.0,221.0,0.0,0.0,2.26,0.0,0.0,0,0,0,0,0,0,0,0,0,0,0,0,0,0,0,0,0.0,0.0,0.0,0.0,0.0,38.986122,-76.950706,20.11,35.0,3.0,0.8
145,449260,1744862848054,,,,,,,,,,,,,,,,,,,,,,,,,,,,,,,,,,0,0,0,0,0,0,0,0,0,0,0,0,0,0,0,0,,,,,,,,,,,
146,449280,1744862848074,0.0,135.0,,0.08,0.43,1.04,30.0,-4.0,0.0,1.13,1.14,99.0,4044.0,9.3,3.98,,12.89,0.767,62.8,,35.9,5.0,,,,,,,,,,,,0,0,0,0,0,0,0,0,0,0,0,0,0,0,0,0,,,,,0.0,,,,,,
147,449300,1744862848098,,,,,,,,,,,,,,,,,,,,,,,,,,,,,,,,,,0,0,0,0,0,0,0,0,0,0,0,0,0,0,0,0,,,,,,,,,,,
148,449320,1744862848118,0.0,135.0,,0.09,0.35,1.02,31.0,-3.0,0.0,1.08,1.14,95.0,4265.0,9.2,3.95,,12.87,0.793,62.8,,35.9,5.0,,,,,,,,,,,,0,0,0,0,0,0,0,0,0,0,0,0,0,0,0,0,,,,,0.0,,,,,,
149,449340,1744862848138,,,,,,,,,,,,,,,,,,,,,,,13.0,14.0,13.0,12.0,0.0,251.0,0.0,0.0,2.26,,,0,0,0,0,0,0,0,0,0,0,0,0,0,0,0,0,1.0,,,,,38.986118,-76.950714,20.51,35.0,3.0,0.8
150,449360,1744862848158,0.0,135.0,,0.06,0.24,0.96,29.0,-3.0,0.0,0.99,1.14,87.0,4361.0,9.3,3.88,,12.84,0.867,62.8,,37.0,5.0,,,,,,,,,,,,0,0,0,0,0,0,0,0,0,0,0,0,0,0,0,0,,,,,0.0,,,,,,
151,449380,1744862848178,,,,,,,,,,,,,,,,,,,,,,,,,,,,,,,,,,0,0,0,0,0,0,0,0,0,0,0,0,0,0,0,0,,,,,,,,,,,
152,449400,1744862848198,0.0,135.0,,0.06,0.31,1.0,28.0,-2.0,1.0,1.05,1.14,92.0,4272.0,9.5,3.84,,12.84,0.867,62.8,,37.0,5.0,,,,,,,,,,,,0,0,0,0,0,0,0,0,0,0,0,0,0,0,0,0,,,,,0.0,,,,,,
153,449420,1744862848218,,,,,,,,,,,,,,,,,,,,,,,,,,,,,,,,,,0,0,0,0,0,0,0,0,0,0,0,0,0,0,0,0,,,,,,,,,,,
154,449440,1744862848238,0.0,135.0,,0.08,0.44,1.05,27.0,-2.0,1.0,1.14,1.14,100.0,4272.0,9.5,3.84,,12.81,0.85,62.8,,35.5,5.0,13.0,12.0,13.0,12.0,0.0,149.0,0.0,0.0,2.26,,,0,0,0,0,0,0,0,0,0,0,0,0,0,0,0,0,1.0,,,,0.0,38.986111,-76.950714,20.11,35.0,3.0,0.8
155,449460,1744862848258,,,,,,,,,,,,,,,,,,,,,,,,,,,,,,,,,,0,0,0,0,0,0,0,0,0,0,0,0,0,0,0,0,,,,,,,,,,,
156,449480,1744862848278,0.0,135.0,,0.05,0.29,1.0,27.0,-3.0,0.0,1.05,1.14,91.0,4180.0,9.2,3.88,,12.79,0.816,62.8,,35.5,5.0,,,,,,,,,,,,0,0,0,0,0,0,0,0,0,0,0,0,0,0,0,0,,,,,0.0,,,,,,
157,449500,1744862848300,,,,,,,,,,,,,,,,,,,,,,,,,,,,,,,,,,0,0,0,0,0,0,0,0,0,0,0,0,0,0,0,0,,,,,,,,,,,
158,449520,1744862848320,0.0,135.0,,0.02,0.29,1.0,25.0,-3.0,1.0,1.04,1.14,91.0,4289.0,9.2,3.91,,12.81,0.797,62.8,,35.5,5.0,,,,,,,,,,,,0,0,0,0,0,0,0,0,0,0,0,0,0,0,0,0,,,,,0.0,,,,,,
159,449540,1744862848340,,,,,,,,,,,,,,,,,,,,,,,14.0,12.0,13.0,12.0,0.0,237.0,0.0,0.0,2.26,,,0,0,0,0,0,0,0,0,0,0,0,0,0,0,0,0,1.0,,,,,38.986111,-76.950714,20.83,35.0,3.0,0.8
160,449560,1744862848360,0.0,135.0,,0.02,0.4,1.06,24.0,-3.0,1.0,1.14,1.14,100.0,4388.0,9.6,3.88,,12.81,0.786,62.8,,36.5,5.0,,,,,,,,,,,,0,0,0,0,0,0,0,0,0,0,0,0,0,0,0,0,,,,,0.0,,,,,,
161,449580,1744862848380,,,,,,,,,,,,,,,,,,,,,,,,,,,,,,,,,,0,0,0,0,0,0,0,0,0,0,0,0,0,0,0,0,,,,,,,,,,,
162,449600,1744862848400,0.0,135.0,,0.03,0.4,1.08,24.0,-2.0,1.0,1.15,1.15,100.0,4394.0,9.6,3.86,,12.81,0.786,62.8,,36.5,5.0,,,,,,,,,,,,0,0,0,0,0,0,0,0,0,0,0,0,0,0,0,0,,,,,0.0,,,,,,
163,449620,1744862848420,,,,,,,,,,,,,,,,,,,,,,,,,,,,,,,,,,0,0,0,0,0,0,0,0,0,0,0,0,0,0,0,0,,,,,,,,,,,
164,449640,1744862848440,0.0,135.0,,0.04,0.29,1.01,24.0,-2.0,0.0,1.05,1.15,92.0,4394.0,9.6,3.86,,12.81,0.784,62.8,,36.3,5.0,13.0,14.0,13.0,13.0,0.0,247.0,0.0,0.0,2.26,,,0,0,0,0,0,0,0,0,0,0,0,0,0,0,0,0,1.0,,,,0.0,38.986103,-76.950714,20.91,35.0,3.0,0.8
165,449660,1744862848460,,,,,,,,,,,,,,,,,,,,,,,,,,,,,,,,,,0,0,0,0,0,0,0,0,0,0,0,0,0,0,0,0,,,,,,,,,,,
166,449680,1744862848480,0.0,135.0,,0.05,0.17,0.94,24.0,-2.0,0.0,0.96,1.15,83.0,4418.0,9.4,3.87,,12.77,0.784,62.8,,36.3,5.0,,,,,,,,,,,,0,0,0,0,0,0,0,0,0,0,0,0,0,0,0,0,,,,,0.0,,,,,,
167,449700,1744862848502,,,,,,,,,,,,,,,,,,,,,,,,,,,,,,,,,,0,0,0,0,0,0,0,0,0,0,0,0,0,0,0,0,,,,,,,,,,,
168,449720,1744862848522,0.0,135.0,,0.02,0.02,0.88,22.0,-2.0,-1.0,0.88,1.15,77.0,4421.0,9.3,3.86,,12.87,0.785,62.8,,36.3,5.0,,,,,,,,,,,,0,0,0,0,0,0,0,0,0,0,0,0,0,0,0,0,,,,,0.0,,,,,,
169,449740,1744862848542,,,,,,,,,,,,,,,,,,,,,,,14.0,3.0,14.0,13.0,0.0,232.0,0.0,0.0,2.27,,,0,0,0,0,0,0,0,0,0,0,0,0,0,0,0,0,1.0,,,,,38.986095,-76.950722,21.13,35.0,3.0,0.8
170,449760,1744862848562,0.0,135.0,,-0.01,-0.02,0.86,20.0,-1.0,0.0,0.86,1.15,74.0,4500.0,9.5,3.85,,12.76,0.785,62.8,,36.8,5.0,,,,,,,,,,,,0,0,0,0,0,0,0,0,0,0,0,0,0,0,0,0,,,,,0.0,,,,,,
171,449780,1744862848582,,,,,,,,,,,,,,,,,,,,,,,,,,,,,,,,,,0,0,0,0,0,0,0,0,0,0,0,0,0,0,0,0,,,,,,,,,,,
172,449800,1744862848601,0.0,135.0,,-0.03,-0.12,0.83,17.0,-1.0,1.0,0.84,1.15,73.0,4489.0,9.5,3.84,,12.76,0.785,62.8,,36.8,5.0,,,,,,,,,,,,0,0,0,0,0,0,0,0,0,0,0,0,0,0,0,0,,,,,0.0,,,,,,
173,449820,1744862848621,,,,,,,,,,,,,,,,,,,,,,,,,,,,,,,,,,0,0,0,0,0,0,0,0,0,0,0,0,0,0,0,0,,,,,,,,,,,
174,449840,1744862848641,0.0,135.0,,-0.04,-0.24,0.78,15.0,0.0,1.0,0.82,0.82,100.0,4489.0,9.5,3.84,,12.76,0.785,62.8,,37.3,5.0,13.0,13.0,14.0,13.0,0.0,41.0,0.0,0.0,2.26,,,0,0,0,0,0,0,0,0,0,0,0,0,0,0,0,0,1.0,,,,0.0,38.986092,-76.950722,21.09,35.0,3.0,0.8
175,449860,1744862848661,,,,,,,,,,,,,,,,,,,,,,,,,,,,,,,,,,0,0,0,0,0,0,0,0,0,0,0,0,0,0,0,0,,,,,,,,,,,
176,449880,1744862848681,0.0,135.0,,-0.05,-0.33,0.71,13.0,0.0,1.0,0.78,0.82,96.0,4511.0,9.2,3.8,,12.72,0.787,62.8,,37.3,5.0,,,,,,,,,,,,0,0,0,0,0,0,0,0,0,0,0,0,0,0,0,0,,,,,0.0,,,,,,
177,449900,1744862848701,,,,,,,,,,,,,,,,,,,,,,,,,,,,,,,,,,0,0,0,0,0,0,0,0,0,0,0,0,0,0,0,0,,,,,,,,,,,
178,449920,1744862848721,0.0,135.0,,-0.05,-0.38,0.69,12.0,0.0,1.0,0.79,0.82,96.0,4497.0,9.3,3.79,,12.75,0.789,62.8,,37.3,5.0,,,,,,,,,,,,0,0,0,0,0,0,0,0,0,0,0,0,0,0,0,0,,,,,0.0,,,,,,
179,449940,1744862848741,,,,,,,,,,,,,,,,,,,,,,,13.0,15.0,14.0,13.0,0.0,103.0,0.0,0.0,2.26,,,0,0,0,0,0,0,0,0,0,0,0,0,0,0,0,0,1.0,,,,,38.986088,-76.950722,21.34,35.0,3.0,0.8
180,449960,1744862848761,0.0,135.0,,-0.04,-0.45,0.68,10.0,0.0,0.0,0.82,0.82,100.0,4514.0,9.4,3.81,,12.64,0.787,62.8,,36.6,5.0,,,,,,,,,,,,0,0,0,0,0,0,0,0,0,0,0,0,0,0,0,0,,,,,0.0,,,,,,
181,449980,1744862848781,,,,,,,,,,,,,,,,,,,,,,,,,,,,,,,,,,0,0,0,0,0,0,0,0,0,0,0,0,0,0,0,0,,,,,,,,,,,
182,450000,1744862848801,0.0,135.0,,-0.01,-0.5,0.67,9.0,0.0,0.0,0.83,0.83,100.0,4518.0,9.4,3.77,,12.64,0.787,62.8,,36.6,5.0,,,,,,,,,,,,0,0,0,0,0,0,0,0,0,0,0,0,0,0,0,0,,,,,0.0,,,,,,
183,450020,1744862848821,,,,,,,,,,,,,,,,,,,,,,,,,,,,,,,,,,0,0,0,0,0,0,0,0,0,0,0,0,0,0,0,0,,,,,,,,,,,
184,450040,1744862848841,0.0,135.0,,0.01,-0.55,0.65,8.0,0.0,-1.0,0.85,0.85,100.0,4518.0,9.4,3.77,,12.75,0.784,62.8,,37.4,5.0,14.0,14.0,13.0,14.0,0.0,214.0,0.0,0.0,2.26,,,0,0,0,0,0,0,0,0,0,0,0,0,0,0,0,0,1.0,,,,0.0,38.986084,-76.950722,21.46,35.0,3.0,0.8
185,450060,1744862848861,,,,,,,,,,,,,,,,,,,,,,,,,,,,,,,,,,0,0,0,0,0,0,0,0,0,0,0,0,0,0,0,0,,,,,,,,,,,
186,450080,1744862848881,0.0,135.0,,0.04,-0.51,0.67,7.0,0.0,-1.0,0.85,0.85,100.0,4565.0,9.4,3.77,,12.63,0.778,62.8,,37.4,5.0,,,,,,,,,,,,0,0,0,0,0,0,0,0,0,0,0,0,0,0,0,0,,,,,0.0,,,,,,
187,450100,1744862848901,,,,,,,,,,,,,,,,,,,,,,,,,,,,,,,,,,0,0,0,0,0,0,0,0,0,0,0,0,0,0,0,0,,,,,,,,,,,
188,450120,1744862848921,0.0,135.0,,0.07,-0.42,0.77,6.0,0.0,-1.0,0.88,0.88,100.0,4602.0,9.4,3.77,,12.59,0.773,62.8,,37.4,5.0,,,,,,,,,,,,0,0,0,0,0,0,0,0,0,0,0,0,0,0,0,0,,,,,0.0,,,,,,
189,450140,1744862848941,,,,,,,,,,,,,,,,,,,,,,,14.0,13.0,14.0,14.0,0.0,9.0,0.0,0.0,2.26,,,0,0,0,0,0,0,0,0,0,0,0,0,0,0,0,0,0.0,,,,,38.986076,-76.950722,21.64,35.0,3.0,0.8
190,450160,1744862848961,0.0,135.0,,0.05,-0.3,0.86,4.0,-1.0,-1.0,0.92,0.92,100.0,4558.0,7.5,3.67,,12.59,0.773,62.8,,38.0,5.0,,,,,,,,,,,,0,0,0,0,0,0,0,0,0,0,0,0,0,0,0,0,,,,,0.0,,,,,,
191,450180,1744862848981,,,,,,,,,,,,,,,,,,,,,,,,,,,,,,,,,,0,0,0,0,0,0,0,0,0,0,0,0,0,0,0,0,,,,,,,,,,,
192,450200,1744862848993,0.0,135.0,,0.02,-0.13,0.96,2.0,-1.0,0.0,0.97,0.97,100.0,4552.0,7.1,3.66,,12.59,0.773,62.8,,38.0,5.0,,,,,,,,,,,,0,0,0,0,0,0,0,0,0,0,0,0,0,0,0,0,,,,,0.0,,,,,,
193,450220,1744862849013,,,,,,,,,,,,,,,,,,,,,,,,,,,,,,,,,,0,0,0,0,0,0,0,0,0,0,0,0,0,0,0,0,,,,,,,,,,,
194,450240,1744862849033,0.0,135.0,14.23,-0.02,-0.03,0.98,0.0,-1.0,1.0,0.98,0.98,100.0,4552.0,7.1,3.66,15.0,12.32,0.774,62.8,144.0,37.4,5.0,14.0,13.0,14.0,14.0,0.0,4.0,0.0,0.0,2.26,0.0,0.0,0,0,0,0,0,0,0,0,0,0,0,0,0,0,0,0,0.0,0.0,0.0,0.0,0.0,38.986073,-76.950729,21.94,35.0,3.0,0.8
195,450260,1744862849053,,,,,,,,,,,,,,,,,,,,,,,,,,,,,,,,,,0,0,0,0,0,0,0,0,0,0,0,0,0,0,0,0,,,,,,,,,,,
196,450280,1744862849073,0.0,135.0,,-0.05,-0.08,0.94,-1.0,-1.0,1.0,0.94,0.98,96.0,4575.0,6.8,3.66,,12.25,0.773,62.8,,37.4,5.0,,,,,,,,,,,,0,0,0,0,0,0,0,0,0,0,0,0,0,0,0,0,,,,,0.0,,,,,,
197,450300,1744862849097,,,,,,,,,,,,,,,,,,,,,,,,,,,,,,,,,,0,0,0,0,0,0,0,0,0,0,0,0,0,0,0,0,,,,,,,,,,,
198,450320,1744862849117,0.0,135.0,,-0.05,-0.19,0.87,-1.0,-1.0,0.0,0.9,0.98,91.0,4618.0,6.6,3.64,,12.33,0.774,62.8,,37.4,5.0,,,,,,,,,,,,0,0,0,0,0,0,0,0,0,0,0,0,0,0,0,0,,,,,0.0,,,,,,
199,450340,1744862849137,,,,,,,,,,,,,,,,,,,,,,,14.0,15.0,14.0,14.0,0.0,224.0,0.0,0.0,2.26,,,0,0,0,0,0,0,0,0,0,0,0,0,0,0,0,0,0.0,,,,,38.986069,-76.950729,22.2,35.0,3.0,0.8
200,450360,1744862849157,0.0,135.0,,-0.01,-0.28,0.81,0.0,0.0,0.0,0.86,0.98,87.0,4600.0,6.5,3.64,,12.23,0.774,62.8,,38.1,5.0,,,,,,,,,,,,0,0,0,0,0,0,0,0,0,0,0,0,0,0,0,0,,,,,0.0,,,,,,
201,450380,1744862849177,,,,,,,,,,,,,,,,,,,,,,,,,,,,,,,,,,0,0,0,0,0,0,0,0,0,0,0,0,0,0,0,0,,,,,,,,,,,
202,450400,1744862849201,0.0,135.0,,0.01,-0.28,0.85,0.0,0.0,-1.0,0.9,0.98,91.0,4627.0,6.5,3.64,,12.23,0.774,62.8,,38.1,5.0,,,,,,,,,,,,0,0,0,0,0,0,0,0,0,0,0,0,0,0,0,0,,,,,0.0,,,,,,
203,450420,1744862849221,,,,,,,,,,,,,,,,,,,,,,,,,,,,,,,,,,0,0,0,0,0,0,0,0,0,0,0,0,0,0,0,0,,,,,,,,,,,
204,450440,1744862849241,0.0,135.0,,-0.0,-0.21,0.93,0.0,0.0,-1.0,0.95,0.98,96.0,4627.0,6.5,3.64,,12.16,0.77,62.8,,38.0,5.0,14.0,3.0,14.0,14.0,0.0,228.0,0.0,0.0,2.26,,,0,0,0,0,0,0,0,0,0,0,0,0,0,0,0,0,0.0,,,,0.0,38.986061,-76.950729,22.09,35.0,3.0,0.8
205,450460,1744862849261,,,,,,,,,,,,,,,,,,,,,,,,,,,,,,,,,,0,0,0,0,0,0,0,0,0,0,0,0,0,0,0,0,,,,,,,,,,,
206,450480,1744862849281,0.0,135.0,,-0.05,-0.09,0.95,-1.0,1.0,0.0,0.96,0.98,97.0,4692.0,6.5,3.6,,12.13,0.773,62.8,,38.0,5.0,,,,,,,,,,,,0,0,0,0,0,0,0,0,0,0,0,0,0,0,0,0,,,,,0.0,,,,,,
207,450500,1744862849301,,,,,,,,,,,,,,,,,,,,,,,,,,,,,,,,,,0,0,0,0,0,0,0,0,0,0,0,0,0,0,0,0,,,,,,,,,,,
208,450520,1744862849321,0.0,135.0,,-0.02,-0.11,0.9,0.0,0.0,0.0,0.91,0.98,92.0,4662.0,6.6,3.61,,12.15,0.782,62.8,,38.0,5.0,,,,,,,,,,,,0,0,0,0,0,0,0,0,0,0,0,0,0,0,0,0,,,,,0.0,,,,,,
209,450540,1744862849341,,,,,,,,,,,,,,,,,,,,,,,14.0,14.0,14.0,14.0,0.0,0.0,0.0,0.0,2.26,,,0,0,0,0,0,0,0,0,0,0,0,0,0,0,0,0,1.0,,,,,38.986053,-76.950729,22.0,35.0,3.0,0.8
210,450560,1744862849361,0.0,135.0,,0.01,-0.21,0.88,1.0,0.0,-1.0,0.9,0.98,91.0,4643.0,6.5,3.62,,12.07,0.784,62.8,,37.7,5.0,,,,,,,,,,,,0,0,0,0,0,0,0,0,0,0,0,0,0,0,0,0,,,,,0.0,,,,,,
211,450580,1744862849381,,,,,,,,,,,,,,,,,,,,,,,,,,,,,,,,,,0,0,0,0,0,0,0,0,0,0,0,0,0,0,0,0,,,,,,,,,,,
212,450600,1744862849401,0.0,135.0,,0.01,-0.12,0.96,1.0,0.0,0.0,0.96,0.98,98.0,4668.0,6.5,3.63,,12.07,0.784,62.8,,37.7,5.0,,,,,,,,,,,,0,0,0,0,0,0,0,0,0,0,0,0,0,0,0,0,,,,,0.0,,,,,,
213,450620,1744862849421,,,,,,,,,,,,,,,,,,,,,,,,,,,,,,,,,,0,0,0,0,0,0,0,0,0,0,0,0,0,0,0,0,,,,,,,,,,,
214,450640,1744862849441,0.0,135.0,,-0.03,-0.0,0.99,0.0,0.0,0.0,0.99,0.99,100.0,4668.0,6.5,3.63,,12.03,0.777,62.8,,37.3,5.0,14.0,13.0,14.0,14.0,0.0,14.0,0.0,0.0,2.26,,,0,0,0,0,0,0,0,0,0,0,0,0,0,0,0,0,1.0,,,,0.0,38.98605,-76.950729,21.99,35.0,3.0,0.8
215,450660,1744862849461,,,,,,,,,,,,,,,,,,,,,,,,,,,,,,,,,,0,0,0,0,0,0,0,0,0,0,0,0,0,0,0,0,,,,,,,,,,,
216,450680,1744862849481,0.0,135.0,,-0.05,-0.03,0.95,1.0,0.0,0.0,0.95,0.99,96.0,4669.0,6.5,3.62,,12.05,0.774,62.8,,37.3,5.0,,,,,,,,,,,,0,0,0,0,0,0,0,0,0,0,0,0,0,0,0,0,,,,,0.0,,,,,,
217,450700,1744862849503,,,,,,,,,,,,,,,,,,,,,,,,,,,,,,,,,,0,0,0,0,0,0,0,0,0,0,0,0,0,0,0,0,,,,,,,,,,,
218,450720,1744862849523,0.0,135.0,,-0.01,-0.07,0.9,2.0,-1.0,0.0,0.9,0.99,91.0,4668.0,6.4,3.61,,12.09,0.776,62.8,,37.3,5.0,,,,,,,,,,,,0,0,0,0,0,0,0,0,0,0,0,0,0,0,0,0,,,,,0.0,,,,,,
219,450740,1744862849543,,,,,,,,,,,,,,,,,,,,,,,14.0,14.0,14.0,14.0,0.0,166.0,0.0,0.0,2.26,,,0,0,0,0,0,0,0,0,0,0,0,0,0,0,0,0,1.0,,,,,38.986046,-76.950737,22.3,35.0,3.0,0.8
220,450760,1744862849563,0.0,135.0,,0.01,-0.09,0.95,3.0,-1.0,-1.0,0.95,0.99,96.0,4626.0,6.2,3.62,,12.13,0.775,62.8,,37.4,5.0,,,,,,,,,,,,0,0,0,0,0,0,0,0,0,0,0,0,0,0,0,0,,,,,0.0,,,,,,
221,450780,1744862849583,,,,,,,,,,,,,,,,,,,,,,,,,,,,,,,,,,0,0,0,0,0,0,0,0,0,0,0,0,0,0,0,0,,,,,,,,,,,
222,450800,1744862849600,0.0,135.0,,0.01,0.01,1.06,3.0,-1.0,0.0,1.06,1.06,100.0,4594.0,6.1,3.63,,12.13,0.775,62.8,,37.4,5.0,,,,,,,,,,,,0,0,0,0,0,0,0,0,0,0,0,0,0,0,0,0,,,,,0.0,,,,,,
223,450820,1744862849620,,,,,,,,,,,,,,,,,,,,,,,,,,,,,,,,,,0,0,0,0,0,0,0,0,0,0,0,0,0,0,0,0,,,,,,,,,,,
224,450840,1744862849640,0.0,135.0,,-0.03,0.13,1.09,2.0,-1.0,1.0,1.1,1.1,100.0,4594.0,6.1,3.63,,12.04,0.772,62.8,,36.4,5.0,14.0,16.0,14.0,14.0,0.0,4.0,0.0,0.0,2.26,,,0,0,0,0,0,0,0,0,0,0,0,0,0,0,0,0,1.0,,,,0.0,38.986038,-76.950737,22.34,35.0,3.0,0.8
225,450860,1744862849660,,,,,,,,,,,,,,,,,,,,,,,,,,,,,,,,,,0,0,0,0,0,0,0,0,0,0,0,0,0,0,0,0,,,,,,,,,,,
226,450880,1744862849680,0.0,135.0,,-0.05,0.14,1.13,2.0,-1.0,0.0,1.14,1.14,100.0,4603.0,6.1,3.63,,12.04,0.772,62.8,,36.4,5.0,,,,,,,,,,,,0,0,0,0,0,0,0,0,0,0,0,0,0,0,0,0,,,,,0.0,,,,,,
227,450900,1744862849702,,,,,,,,,,,,,,,,,,,,,,,,,,,,,,,,,,0,0,0,0,0,0,0,0,0,0,0,0,0,0,0,0,,,,,,,,,,,
228,450920,1744862849722,0.0,135.0,,-0.06,0.07,1.01,3.0,-2.0,0.0,1.01,1.14,89.0,4620.0,6.1,3.63,,12.07,0.774,62.8,,36.4,5.0,,,,,,,,,,,,0,0,0,0,0,0,0,0,0,0,0,0,0,0,0,0,,,,,0.0,,,,,,
229,450940,1744862849742,,,,,,,,,,,,,,,,,,,,,,,14.0,12.0,14.0,14.0,0.0,9.0,0.0,0.0,2.26,,,0,0,0,0,0,0,0,0,0,0,0,0,0,0,0,0,1.0,,,,,38.986031,-76.950737,22.44,35.0,3.0,0.8
230,450960,1744862849762,0.0,135.0,,-0.02,0.01,0.95,3.0,-1.0,-1.0,0.95,1.14,84.0,4659.0,6.0,3.62,,12.01,0.772,62.8,,36.9,5.0,,,,,,,,,,,,0,0,0,0,0,0,0,0,0,0,0,0,0,0,0,0,,,,,0.0,,,,,,
231,450980,1744862849782,,,,,,,,,,,,,,,,,,,,,,,,,,,,,,,,,,0,0,0,0,0,0,0,0,0,0,0,0,0,0,0,0,,,,,,,,,,,
232,451000,1744862849802,0.0,135.0,,-0.01,-0.0,1.0,4.0,-1.0,0.0,1.0,1.14,88.0,4623.0,6.0,3.62,,12.01,0.772,62.8,,36.9,5.0,,,,,,,,,,,,0,0,0,0,0,0,0,0,0,0,0,0,0,0,0,0,,,,,0.0,,,,,,
233,451020,1744862849822,,,,,,,,,,,,,,,,,,,,,,,,,,,,,,,,,,0,0,0,0,0,0,0,0,0,0,0,0,0,0,0,0,,,,,,,,,,,
234,451040,1744862849842,0.0,135.0,,-0.03,0.09,1.09,3.0,0.0,0.0,1.1,1.14,96.0,4623.0,6.0,3.62,,12.01,0.773,62.8,,36.7,5.0,14.0,7.0,14.0,14.0,0.0,214.0,0.0,0.0,2.26,,,0,0,0,0,0,0,0,0,0,0,0,0,0,0,0,0,1.0,,,,0.0,38.986031,-76.950737,22.32,35.0,3.0,0.8
235,451060,1744862849862,,,,,,,,,,,,,,,,,,,,,,,,,,,,,,,,,,0,0,0,0,0,0,0,0,0,0,0,0,0,0,0,0,,,,,,,,,,,
236,451080,1744862849882,0.0,135.0,,-0.08,0.15,1.11,2.0,0.0,1.0,1.13,1.14,99.0,4596.0,6.0,3.63,,12.03,0.775,62.8,,36.7,5.0,,,,,,,,,,,,0,0,0,0,0,0,0,0,0,0,0,0,0,0,0,0,,,,,0.0,,,,,,
237,451100,1744862849902,,,,,,,,,,,,,,,,,,,,,,,,,,,,,,,,,,0,0,0,0,0,0,0,0,0,0,0,0,0,0,0,0,,,,,,,,,,,
238,451120,1744862849922,0.0,135.0,,-0.1,0.12,1.04,2.0,1.0,1.0,1.05,1.14,92.0,4636.0,5.9,3.62,,12.03,0.774,62.8,,36.7,5.0,,,,,,,,,,,,0,0,0,0,0,0,0,0,0,0,0,0,0,0,0,0,,,,,0.0,,,,,,
239,451140,1744862849942,,,,,,,,,,,,,,,,,,,,,,,14.0,15.0,14.0,14.0,0.0,14.0,0.0,0.0,2.26,,,0,0,0,0,0,0,0,0,0,0,0,0,0,0,0,0,1.0,,,,,38.986023,-76.950737,22.09,35.0,3.0,0.8
240,451160,1744862849962,0.0,135.0,,-0.05,0.03,1.0,2.0,2.0,0.0,1.0,1.14,88.0,4717.0,5.9,3.61,,11.99,0.776,62.8,,37.1,5.0,,,,,,,,,,,,0,0,0,0,0,0,0,0,0,0,0,0,0,0,0,0,,,,,0.0,,,,,,
241,451180,1744862849982,,,,,,,,,,,,,,,,,,,,,,,,,,,,,,,,,,0,0,0,0,0,0,0,0,0,0,0,0,0,0,0,0,,,,,,,,,,,
242,451200,1744862849994,0.0,135.0,,-0.05,0.09,1.07,2.0,1.0,1.0,1.08,1.14,95.0,4705.0,5.8,3.6,,11.99,0.776,62.8,,37.1,5.0,,,,,,,,,,,,0,0,0,0,0,0,0,0,0,0,0,0,0,0,0,0,,,,,0.0,,,,,,
243,451220,1744862850014,,,,,,,,,,,,,,,,,,,,,,,,,,,,,,,,,,0,0,0,0,0,0,0,0,0,0,0,0,0,0,0,0,,,,,,,,,,,
244,451240,1744862850034,0.0,135.0,14.26,-0.11,0.14,1.08,1.0,1.0,1.0,1.09,1.14,96.0,4705.0,5.8,3.6,15.0,11.92,0.779,62.8,144.0,37.2,5.0,14.0,3.0,14.0,14.0,0.0,0.0,0.0,0.0,2.26,0.0,0.0,0,0,0,0,0,0,0,0,0,0,0,0,0,0,0,0,1.0,0.0,0.0,0.0,0.0,38.986015,-76.950737,21.84,35.0,3.0,0.8
245,451260,1744862850054,,,,,,,,,,,,,,,,,,,,,,,,,,,,,,,,,,0,0,0,0,0,0,0,0,0,0,0,0,0,0,0,0,,,,,,,,,,,
246,451280,1744862850074,0.0,135.0,,-0.12,0.08,1.03,0.0,1.0,1.0,1.04,1.14,91.0,4621.0,5.5,3.62,,11.93,0.783,62.8,,37.2,5.0,,,,,,,,,,,,0,0,0,0,0,0,0,0,0,0,0,0,0,0,0,0,,,,,0.0,,,,,,
247,451300,1744862850100,,,,,,,,,,,,,,,,,,,,,,,,,,,,,,,,,,0,0,0,0,0,0,0,0,0,0,0,0,0,0,0,0,,,,,,,,,,,
248,451320,1744862850120,0.0,135.0,,-0.1,0.0,0.97,0.0,1.0,1.0,0.97,1.14,86.0,4597.0,5.5,3.63,,11.99,0.782,62.8,,37.2,5.0,,,,,,,,,,,,0,0,0,0,0,0,0,0,0,0,0,0,0,0,0,0,,,,,0.0,,,,,,
249,451340,1744862850140,,,,,,,,,,,,,,,,,,,,,,,14.0,7.0,14.0,14.0,0.0,35.0,0.0,0.0,2.27,,,0,0,0,0,0,0,0,0,0,0,0,0,0,0,0,0,1.0,,,,,38.986012,-76.950737,22.07,35.0,3.0,0.8
250,451360,1744862850160,0.0,135.0,,-0.07,-0.09,0.93,0.0,0.0,0.0,0.93,1.14,82.0,4675.0,5.3,3.63,,11.88,0.783,62.8,,36.7,5.0,,,,,,,,,,,,0,0,0,0,0,0,0,0,0,0,0,0,0,0,0,0,,,,,0.0,,,,,,
251,451380,1744862850180,,,,,,,,,,,,,,,,,,,,,,,,,,,,,,,,,,0,0,0,0,0,0,0,0,0,0,0,0,0,0,0,0,,,,,,,,,,,
252,451400,1744862850198,0.0,135.0,,-0.07,-0.01,1.0,-1.0,0.0,0.0,1.0,1.14,88.0,4659.0,5.3,3.61,,11.88,0.783,62.8,,36.7,5.0,,,,,,,,,,,,0,0,0,0,0,0,0,0,0,0,0,0,0,0,0,0,,,,,0.0,,,,,,
253,451420,1744862850218,,,,,,,,,,,,,,,,,,,,,,,,,,,,,,,,,,0,0,0,0,0,0,0,0,0,0,0,0,0,0,0,0,,,,,,,,,,,
254,451440,1744862850238,0.0,135.0,,-0.11,0.04,1.03,-2.0,1.0,1.0,1.04,1.14,91.0,4659.0,5.3,3.61,,11.85,0.787,62.8,,36.7,5.0,14.0,13.0,14.0,14.0,0.0,14.0,0.0,0.0,2.27,,,0,0,0,0,0,0,0,0,0,0,0,0,0,0,0,0,1.0,,,,0.0,38.986008,-76.950737,22.11,35.0,3.0,0.8
255,451460,1744862850258,,,,,,,,,,,,,,,,,,,,,,,,,,,,,,,,,,0,0,0,0,0,0,0,0,0,0,0,0,0,0,0,0,,,,,,,,,,,
256,451480,1744862850278,0.0,135.0,,-0.14,-0.01,0.98,-4.0,1.0,1.0,0.99,0.99,100.0,4575.0,5.4,3.62,,11.92,0.783,62.8,,36.7,5.0,,,,,,,,,,,,0,0,0,0,0,0,0,0,0,0,0,0,0,0,0,0,,,,,0.0,,,,,,
257,451500,1744862850302,,,,,,,,,,,,,,,,,,,,,,,,,,,,,,,,,,0,0,0,0,0,0,0,0,0,0,0,0,0,0,0,0,,,,,,,,,,,
258,451520,1744862850322,0.0,135.0,,-0.12,-0.15,0.93,-4.0,1.0,1.0,0.95,0.99,96.0,4608.0,5.4,3.62,,11.93,0.784,62.8,,36.7,5.0,,,,,,,,,,,,0,0,0,0,0,0,0,0,0,0,0,0,0,0,0,0,,,,,0.0,,,,,,
259,451540,1744862850342,,,,,,,,,,,,,,,,,,,,,,,14.0,14.0,14.0,14.0,0.0,224.0,0.0,0.0,2.26,,,0,0,0,0,0,0,0,0,0,0,0,0,0,0,0,0,1.0,,,,,38.986,-76.950737,21.94,35.0,3.0,0.8
260,451560,1744862850362,0.0,135.0,,-0.09,-0.25,0.88,-4.0,2.0,0.0,0.92,0.99,93.0,4589.0,5.4,3.61,,11.95,0.781,62.8,,36.6,5.0,,,,,,,,,,,,0,0,0,0,0,0,0,0,0,0,0,0,0,0,0,0,,,,,0.0,,,,,,
261,451580,1744862850382,,,,,,,,,,,,,,,,,,,,,,,,,,,,,,,,,,0,0,0,0,0,0,0,0,0,0,0,0,0,0,0,0,,,,,,,,,,,
262,451600,1744862850402,0.0,135.0,,-0.06,-0.27,0.89,-4.0,2.0,0.0,0.93,0.99,94.0,4527.0,5.6,3.63,,11.95,0.781,62.8,,36.6,5.0,,,,,,,,,,,,0,0,0,0,0,0,0,0,0,0,0,0,0,0,0,0,,,,,0.0,,,,,,
263,451620,1744862850422,,,,,,,,,,,,,,,,,,,,,,,,,,,,,,,,,,0,0,0,0,0,0,0,0,0,0,0,0,0,0,0,0,,,,,,,,,,,
264,451640,1744862850442,0.0,135.0,,-0.04,-0.22,0.98,-5.0,2.0,0.0,1.01,1.01,100.0,4527.0,5.6,3.63,,11.99,0.777,62.8,,35.9,5.0,14.0,7.0,14.0,14.0,0.0,41.0,0.0,0.0,2.26,,,0,0,0,0,0,0,0,0,0,0,0,0,0,0,0,0,1.0,,,,0.0,38.985992,-76.950745,21.89,35.0,3.0,0.8
265,451660,1744862850462,,,,,,,,,,,,,,,,,,,,,,,,,,,,,,,,,,0,0,0,0,0,0,0,0,0,0,0,0,0,0,0,0,,,,,,,,,,,
266,451680,1744862850482,0.0,135.0,,-0.05,-0.15,1.04,-6.0,2.0,0.0,1.05,1.05,100.0,4520.0,5.4,3.64,,11.96,0.779,62.8,,35.9,5.0,,,,,,,,,,,,0,0,0,0,0,0,0,0,0,0,0,0,0,0,0,0,,,,,0.0,,,,,,
267,451700,1744862850502,,,,,,,,,,,,,,,,,,,,,,,,,,,,,,,,,,0,0,0,0,0,0,0,0,0,0,0,0,0,0,0,0,,,,,,,,,,,
268,451720,1744862850522,0.0,135.0,,-0.08,-0.02,1.09,-7.0,2.0,1.0,1.09,1.09,100.0,4570.0,5.1,3.62,,11.91,0.779,62.8,,35.9,5.0,,,,,,,,,,,,0,0,0,0,0,0,0,0,0,0,0,0,0,0,0,0,,,,,0.0,,,,,,
269,451740,1744862850542,,,,,,,,,,,,,,,,,,,,,,,14.0,14.0,14.0,15.0,0.0,224.0,0.0,0.0,2.26,,,0,0,0,0,0,0,0,0,0,0,0,0,0,0,0,0,0.0,,,,,38.985992,-76.950745,21.9,35.0,3.0,0.8
270,451760,1744862850562,0.0,135.0,,-0.12,0.01,1.08,-8.0,2.0,1.0,1.08,1.09,99.0,4588.0,4.8,3.62,,11.85,0.783,62.8,,36.1,5.0,,,,,,,,,,,,0,0,0,0,0,0,0,0,0,0,0,0,0,0,0,0,,,,,0.0,,,,,,
271,451780,1744862850582,,,,,,,,,,,,,,,,,,,,,,,,,,,,,,,,,,0,0,0,0,0,0,0,0,0,0,0,0,0,0,0,0,,,,,,,,,,,
272,451800,1744862850601,0.0,135.0,,-0.13,-0.11,1.0,-9.0,1.0,1.0,1.02,1.09,93.0,4619.0,4.5,3.61,,11.85,0.783,62.8,,36.1,5.0,,,,,,,,,,,,0,0,0,0,0,0,0,0,0,0,0,0,0,0,0,0,,,,,0.0,,,,,,
273,451820,1744862850621,,,,,,,,,,,,,,,,,,,,,,,,,,,,,,,,,,0,0,0,0,0,0,0,0,0,0,0,0,0,0,0,0,,,,,,,,,,,
274,451840,1744862850641,0.0,135.0,,-0.11,-0.2,0.96,-9.0,1.0,1.0,0.99,1.09,91.0,4619.0,4.5,3.61,,11.87,0.783,62.8,,36.3,5.0,13.0,14.0,14.0,14.0,0.0,220.0,0.0,0.0,2.26,,,0,0,0,0,0,0,0,0,0,0,0,0,0,0,0,0,0.0,,,,0.0,38.985985,-76.950745,21.74,35.0,3.0,0.8
275,451860,1744862850661,,,,,,,,,,,,,,,,,,,,,,,,,,,,,,,,,,0,0,0,0,0,0,0,0,0,0,0,0,0,0,0,0,,,,,,,,,,,
276,451880,1744862850681,0.0,135.0,,-0.13,-0.29,0.9,-9.0,1.0,1.0,0.95,1.09,87.0,4577.0,4.0,3.61,,11.71,0.78,62.8,,36.3,5.0,,,,,,,,,,,,0,0,0,0,0,0,0,0,0,0,0,0,0,0,0,0,,,,,0.0,,,,,,
277,451900,1744862850701,,,,,,,,,,,,,,,,,,,,,,,,,,,,,,,,,,0,0,0,0,0,0,0,0,0,0,0,0,0,0,0,0,,,,,,,,,,,
278,451920,1744862850721,0.0,135.0,,-0.08,-0.34,0.85,-9.0,1.0,0.0,0.92,1.09,85.0,4525.0,2.9,3.43,,11.67,0.777,62.8,,36.3,5.0,,,,,,,,,,,,0,0,0,0,0,0,0,0,0,0,0,0,0,0,0,0,,,,,0.0,,,,,,
279,451940,1744862850741,,,,,,,,,,,,,,,,,,,,,,,13.0,14.0,13.0,14.0,0.0,197.0,0.0,0.0,2.26,,,0,0,0,0,0,0,0,0,0,0,0,0,0,0,0,0,0.0,,,,,38.985977,-76.950745,21.91,35.0,3.0,0.8
280,451960,1744862850761,0.0,135.0,,-0.05,-0.34,0.87,-8.0,1.0,-1.0,0.94,1.09,86.0,4612.0,2.6,3.28,,11.56,0.782,62.8,,35.4,5.0,,,,,,,,,,,,0,0,0,0,0,0,0,0,0,0,0,0,0,0,0,0,,,,,0.0,,,,,,
281,451980,1744862850781,,,,,,,,,,,,,,,,,,,,,,,,,,,,,,,,,,0,0,0,0,0,0,0,0,0,0,0,0,0,0,0,0,,,,,,,,,,,
282,452000,1744862850799,0.0,135.0,,-0.04,-0.27,0.95,-8.0,1.0,-1.0,0.98,1.09,90.0,4558.0,2.5,3.19,,11.56,0.782,62.8,,35.4,5.0,,,,,,,,,,,,0,0,0,0,0,0,0,0,0,0,0,0,0,0,0,0,,,,,0.0,,,,,,
283,452020,1744862850819,,,,,,,,,,,,,,,,,,,,,,,,,,,,,,,,,,0,0,0,0,0,0,0,0,0,0,0,0,0,0,0,0,,,,,,,,,,,
284,452040,1744862850839,0.0,135.0,,-0.03,-0.15,1.04,-9.0,1.0,0.0,1.05,1.09,97.0,4558.0,2.5,3.19,,11.48,0.788,62.8,,35.7,5.0,13.0,14.0,14.0,14.0,0.0,9.0,0.0,0.0,2.26,,,0,0,0,0,0,0,0,0,0,0,0,0,0,0,0,0,0.0,,,,0.0,38.985973,-76.950752,21.78,35.0,3.0,0.8
285,452060,1744862850859,,,,,,,,,,,,,,,,,,,,,,,,,,,,,,,,,,0,0,0,0,0,0,0,0,0,0,0,0,0,0,0,0,,,,,,,,,,,
286,452080,1744862850879,0.0,135.0,,-0.04,-0.05,1.12,-9.0,1.0,0.0,1.12,1.12,100.0,4538.0,2.5,3.18,,11.48,0.787,62.8,,35.7,5.0,,,,,,,,,,,,0,0,0,0,0,0,0,0,0,0,0,0,0,0,0,0,,,,,0.0,,,,,,
287,452100,1744862850901,,,,,,,,,,,,,,,,,,,,,,,,,,,,,,,,,,0,0,0,0,0,0,0,0,0,0,0,0,0,0,0,0,,,,,,,,,,,
288,452120,1744862850921,0.0,135.0,,-0.05,0.06,1.2,-9.0,1.0,0.0,1.2,1.2,100.0,4544.0,2.5,3.15,,11.42,0.789,62.8,,35.7,5.0,,,,,,,,,,,,0,0,0,0,0,0,0,0,0,0,0,0,0,0,0,0,,,,,0.0,,,,,,
289,452140,1744862850941,,,,,,,,,,,,,,,,,,,,,,,13.0,13.0,13.0,14.0,0.0,183.0,0.0,0.0,2.25,,,0,0,0,0,0,0,0,0,0,0,0,0,0,0,0,0,1.0,,,,,38.98597,-76.950752,21.42,35.0,3.0,0.8
290,452160,1744862850961,0.0,135.0,,-0.06,0.12,1.22,-9.0,1.0,0.0,1.23,1.23,100.0,4518.0,2.4,3.15,,11.53,0.8,62.8,,35.2,5.0,,,,,,,,,,,,0,0,0,0,0,0,0,0,0,0,0,0,0,0,0,0,,,,,0.0,,,,,,
291,452180,1744862850981,,,,,,,,,,,,,,,,,,,,,,,,,,,,,,,,,,0,0,0,0,0,0,0,0,0,0,0,0,0,0,0,0,,,,,,,,,,,
292,452200,1744862850993,0.0,135.0,,-0.04,0.22,1.26,-9.0,1.0,0.0,1.28,1.28,100.0,4522.0,1.6,2.96,,11.53,0.8,62.8,,35.2,5.0,,,,,,,,,,,,0,0,0,0,0,0,0,0,0,0,0,0,0,0,0,0,,,,,0.0,,,,,,
293,452220,1744862851013,,,,,,,,,,,,,,,,,,,,,,,,,,,,,,,,,,0,0,0,0,0,0,0,0,0,0,0,0,0,0,0,0,,,,,,,,,,,
294,452240,1744862851033,0.0,135.0,14.23,-0.04,0.25,1.28,-9.0,0.0,0.0,1.3,1.3,100.0,4522.0,1.6,2.96,15.0,11.37,0.804,62.8,144.0,35.1,5.0,13.0,14.0,13.0,14.0,0.0,201.0,0.0,0.0,2.26,0.0,0.0,0,0,0,0,0,0,0,0,0,0,0,0,0,0,0,0,1.0,0.0,0.0,0.0,0.0,38.985966,-76.950752,21.49,35.0,3.0,0.8
295,452260,1744862851053,,,,,,,,,,,,,,,,,,,,,,,,,,,,,,,,,,0,0,0,0,0,0,0,0,0,0,0,0,0,0,0,0,,,,,,,,,,,
296,452280,1744862851073,0.0,135.0,,-0.02,0.26,1.27,-8.0,0.0,-1.0,1.3,1.3,100.0,4462.0,1.4,2.9,,11.33,0.807,62.8,,35.1,5.0,,,,,,,,,,,,0,0,0,0,0,0,0,0,0,0,0,0,0,0,0,0,,,,,0.0,,,,,,
297,452300,1744862851097,,,,,,,,,,,,,,,,,,,,,,,,,,,,,,,,,,0,0,0,0,0,0,0,0,0,0,0,0,0,0,0,0,,,,,,,,,,,
298,452320,1744862851117,0.0,135.0,,-0.01,0.19,1.23,-7.0,0.0,-1.0,1.25,1.3,96.0,4428.0,1.3,2.88,,11.26,0.813,62.8,,35.1,5.0,,,,,,,,,,,,0,0,0,0,0,0,0,0,0,0,0,0,0,0,0,0,,,,,0.0,,,,,,
299,452340,1744862851137,,,,,,,,,,,,,,,,,,,,,,,13.0,15.0,13.0,13.0,0.0,26.0,0.0,0.0,2.26,,,0,0,0,0,0,0,0,0,0,0,0,0,0,0,0,0,1.0,,,,,38.985958,-76.95076,21.18,35.0,3.0,0.8
300,452360,1744862851157,0.0,135.0,,0.0,0.08,1.15,-6.0,0.0,-2.0,1.15,1.3,89.0,4444.0,1.2,2.85,,11.25,0.816,62.8,,34.8,5.0,,,,,,,,,,,,0,0,0,0,0,0,0,0,0,0,0,0,0,0,0,0,,,,,0.0,,,,,,
301,452380,1744862851177,,,,,,,,,,,,,,,,,,,,,,,,,,,,,,,,,,0,0,0,0,0,0,0,0,0,0,0,0,0,0,0,0,,,,,,,,,,,
302,452400,1744862851197,0.0,135.0,,0.02,-0.01,1.08,-5.0,0.0,-2.0,1.08,1.3,83.0,4406.0,0.2,2.66,,11.25,0.816,62.8,,34.8,5.0,,,,,,,,,,,,0,0,0,0,0,0,0,0,0,0,0,0,0,0,0,0,,,,,0.0,,,,,,
303,452420,1744862851217,,,,,,,,,,,,,,,,,,,,,,,,,,,,,,,,,,0,0,0,0,0,0,0,0,0,0,0,0,0,0,0,0,,,,,,,,,,,
304,452440,1744862851237,0.0,135.0,,0.0,-0.18,1.0,-4.0,0.0,-3.0,1.01,1.3,78.0,4406.0,0.2,2.66,,11.26,0.823,62.8,,34.8,5.0,13.0,7.0,13.0,13.0,0.0,37.0,0.0,0.0,2.26,,,0,0,0,0,0,0,0,0,0,0,0,0,0,0,0,0,1.0,,,,0.0,38.985954,-76.95076,21.12,35.0,3.0,0.8
305,452460,1744862851257,,,,,,,,,,,,,,,,,,,,,,,,,,,,,,,,,,0,0,0,0,0,0,0,0,0,0,0,0,0,0,0,0,,,,,,,,,,,
306,452480,1744862851277,0.0,135.0,,-0.01,-0.27,0.95,-4.0,0.0,-2.0,0.99,1.3,76.0,4387.0,0.0,2.52,,11.02,0.83,62.8,,34.8,5.0,,,,,,,,,,,,0,0,0,0,0,0,0,0,0,0,0,0,0,0,0,0,,,,,0.0,,,,,,
307,452500,1744862851301,,,,,,,,,,,,,,,,,,,,,,,,,,,,,,,,,,0,0,0,0,0,0,0,0,0,0,0,0,0,0,0,0,,,,,,,,,,,
308,452520,1744862851321,0.0,135.0,,-0.05,-0.34,0.91,-4.0,0.0,-2.0,0.98,1.3,75.0,4415.0,0.0,2.51,,11.0,0.831,62.8,,34.8,5.0,,,,,,,,,,,,0,0,0,0,0,0,0,0,0,0,0,0,0,0,0,0,,,,,0.0,,,,,,
309,452540,1744862851341,,,,,,,,,,,,,,,,,,,,,,,13.0,13.0,13.0,13.0,0.0,0.0,0.0,0.0,2.26,,,0,0,0,0,0,0,0,0,0,0,0,0,0,0,0,0,1.0,,,,,38.98595,-76.950768,21.03,35.0,3.0,0.8
310,452560,1744862851361,0.0,135.0,,-0.09,-0.27,0.96,-5.0,0.0,-1.0,1.0,1.3,77.0,4354.0,0.0,2.38,,10.94,0.831,62.8,,36.0,5.0,,,,,,,,,,,,0,0,0,0,0,0,0,0,0,0,0,0,0,0,0,0,,,,,0.0,,,,,,
311,452580,1744862851381,,,,,,,,,,,,,,,,,,,,,,,,,,,,,,,,,,0,0,0,0,0,0,0,0,0,0,0,0,0,0,0,0,,,,,,,,,,,
312,452600,1744862851401,0.0,135.0,,-0.1,-0.09,1.03,-5.0,0.0,0.0,1.04,1.3,80.0,4383.0,0.0,2.24,,10.94,0.831,62.8,,36.0,5.0,,,,,,,,,,,,0,0,0,0,0,0,0,0,0,0,0,0,0,0,0,0,,,,,0.0,,,,,,
313,452620,1744862851421,,,,,,,,,,,,,,,,,,,,,,,,,,,,,,,,,,0,0,0,0,0,0,0,0,0,0,0,0,0,0,0,0,,,,,,,,,,,
314,452640,1744862851441,0.0,135.0,,-0.08,-0.07,1.05,-4.0,0.0,-1.0,1.05,1.3,81.0,4383.0,0.0,2.24,,10.85,0.838,62.8,,35.9,5.0,12.0,16.0,13.0,13.0,0.0,201.0,0.0,0.0,2.26,,,0,0,0,0,0,0,0,0,0,0,0,0,0,0,0,0,1.0,,,,0.0,38.985943,-76.950768,20.81,35.0,3.0,0.8
315,452660,1744862851461,,,,,,,,,,,,,,,,,,,,,,,,,,,,,,,,,,0,0,0,0,0,0,0,0,0,0,0,0,0,0,0,0,,,,,,,,,,,
316,452680,1744862851481,0.0,135.0,,-0.08,-0.2,0.98,-3.0,0.0,-1.0,1.0,1.3,77.0,4338.0,0.0,2.2,,10.81,0.851,62.8,,35.9,5.0,,,,,,,,,,,,0,0,0,0,0,0,0,0,0,0,0,0,0,0,0,0,,,,,0.0,,,,,,
317,452700,1744862851501,,,,,,,,,,,,,,,,,,,,,,,,,,,,,,,,,,0,0,0,0,0,0,0,0,0,0,0,0,0,0,0,0,,,,,,,,,,,
318,452720,1744862851521,0.0,135.0,,-0.1,-0.16,1.03,-4.0,0.0,0.0,1.05,1.3,80.0,4300.0,0.0,2.17,,10.76,0.864,62.8,,35.9,5.0,,,,,,,,,,,,0,0,0,0,0,0,0,0,0,0,0,0,0,0,0,0,,,,,0.0,,,,,,
319,452740,1744862851541,,,,,,,,,,,,,,,,,,,,,,,13.0,13.0,13.0,13.0,0.0,21.0,0.0,0.0,2.26,,,0,0,0,0,0,0,0,0,0,0,0,0,0,0,0,0,1.0,,,,,38.985939,-76.950768,20.5,35.0,3.0,0.8
320,452760,1744862851561,0.0,135.0,,-0.08,-0.07,1.05,-3.0,0.0,0.0,1.06,1.3,81.0,4197.0,0.0,2.09,,10.76,0.878,62.8,,36.0,5.0,,,,,,,,,,,,0,0,0,0,0,0,0,0,0,0,0,0,0,0,0,0,,,,,0.0,,,,,,
321,452780,1744862851581,,,,,,,,,,,,,,,,,,,,,,,,,,,,,,,,,,0,0,0,0,0,0,0,0,0,0,0,0,0,0,0,0,,,,,,,,,,,
322,452800,1744862851600,0.0,135.0,,-0.1,-0.13,1.06,-4.0,-1.0,1.0,1.07,1.3,82.0,4072.0,0.0,2.07,,10.76,0.878,62.8,,36.0,5.0,,,,,,,,,,,,0,0,0,0,0,0,0,0,0,0,0,0,0,0,0,0,,,,,0.0,,,,,,
323,452820,1744862851620,,,,,,,,,,,,,,,,,,,,,,,,,,,,,,,,,,0,0,0,0,0,0,0,0,0,0,0,0,0,0,0,0,,,,,,,,,,,
324,452840,1744862851640,0.0,135.0,,-0.11,-0.17,1.0,-3.0,-1.0,0.0,1.02,1.3,79.0,4072.0,0.0,2.07,,10.76,0.885,62.8,,36.0,5.0,13.0,7.0,13.0,13.0,0.0,246.0,0.0,0.0,2.26,,,0,0,0,0,0,0,0,0,0,0,0,0,0,0,0,0,1.0,,,,0.0,38.985931,-76.950775,20.28,35.0,3.0,0.8
325,452860,1744862851660,,,,,,,,,,,,,,,,,,,,,,,,,,,,,,,,,,0,0,0,0,0,0,0,0,0,0,0,0,0,0,0,0,,,,,,,,,,,
326,452880,1744862851680,0.0,135.0,,-0.1,-0.07,1.02,-3.0,-2.0,0.0,1.03,1.3,79.0,3960.0,0.0,2.11,,10.73,0.908,62.8,,36.0,5.0,,,,,,,,,,,,0,0,0,0,0,0,0,0,0,0,0,0,0,0,0,0,,,,,0.0,,,,,,
327,452900,1744862851700,,,,,,,,,,,,,,,,,,,,,,,,,,,,,,,,,,0,0,0,0,0,0,0,0,0,0,0,0,0,0,0,0,,,,,,,,,,,
328,452920,1744862851720,0.0,135.0,,-0.1,-0.01,1.05,-4.0,-2.0,0.0,1.06,1.3,81.0,3886.0,0.0,2.25,,10.84,0.955,62.8,,36.0,5.0,,,,,,,,,,,,0,0,0,0,0,0,0,0,0,0,0,0,0,0,0,0,,,,,0.0,,,,,,
329,452940,1744862851740,,,,,,,,,,,,,,,,,,,,,,,12.0,13.0,13.0,13.0,0.0,251.0,0.0,0.0,2.26,,,0,0,0,0,0,0,0,0,0,0,0,0,0,0,0,0,0.0,,,,,38.985931,-76.950775,20.31,35.0,3.0,0.8
330,452960,1744862851760,0.0,135.0,,-0.12,-0.06,1.07,-4.0,-2.0,1.0,1.08,1.3,83.0,3834.0,0.0,2.32,,10.93,0.986,62.8,,36.0,5.0,,,,,,,,,,,,0,0,0,0,0,0,0,0,0,0,0,0,0,0,0,0,,,,,0.0,,,,,,
331,452980,1744862851780,,,,,,,,,,,,,,,,,,,,,,,,,,,,,,,,,,0,0,0,0,0,0,0,0,0,0,0,0,0,0,0,0,,,,,,,,,,,
332,453000,1744862851800,0.0,135.0,,-0.11,-0.09,1.08,-4.0,-2.0,1.0,1.09,1.3,83.0,3773.0,0.0,2.64,,10.93,0.986,62.8,,36.0,5.0,,,,,,,,,,,,0,0,0,0,0,0,0,0,0,0,0,0,0,0,0,0,,,,,0.0,,,,,,
333,453020,1744862851820,,,,,,,,,,,,,,,,,,,,,,,,,,,,,,,,,,0,0,0,0,0,0,0,0,0,0,0,0,0,0,0,0,,,,,,,,,,,
334,453040,1744862851840,0.0,135.0,,-0.12,-0.1,1.06,-3.0,-2.0,1.0,1.07,1.3,82.0,3773.0,0.0,2.64,,11.0,1.016,62.8,,36.2,5.0,12.0,12.0,12.0,13.0,0.0,251.0,0.0,0.0,2.26,,,0,0,0,0,0,0,0,0,0,0,0,0,0,0,0,0,0.0,,,,0.0,38.985928,-76.950775,20.09,35.0,3.0,0.8
335,453060,1744862851860,,,,,,,,,,,,,,,,,,,,,,,,,,,,,,,,,,0,0,0,0,0,0,0,0,0,0,0,0,0,0,0,0,,,,,,,,,,,
336,453080,1744862851880,0.0,135.0,,-0.1,-0.07,1.03,-3.0,-2.0,1.0,1.04,1.3,80.0,3716.0,0.0,2.66,,11.1,1.026,62.8,,36.2,5.0,,,,,,,,,,,,0,0,0,0,0,0,0,0,0,0,0,0,0,0,0,0,,,,,0.0,,,,,,
337,453100,1744862851902,,,,,,,,,,,,,,,,,,,,,,,,,,,,,,,,,,0,0,0,0,0,0,0,0,0,0,0,0,0,0,0,0,,,,,,,,,,,
338,453120,1744862851922,0.0,135.0,,-0.13,-0.11,1.02,-2.0,-2.0,0.0,1.03,1.3,79.0,3594.0,0.0,2.71,,11.24,1.014,62.8,,36.2,5.0,,,,,,,,,,,,0,0,0,0,0,0,0,0,0,0,0,0,0,0,0,0,,,,,0.0,,,,,,
339,453140,1744862851942,,,,,,,,,,,,,,,,,,,,,,,13.0,4.0,12.0,12.0,0.0,11.0,0.0,0.0,2.26,,,0,0,0,0,0,0,0,0,0,0,0,0,0,0,0,0,0.0,,,,,38.98592,-76.950775,19.93,35.0,3.0,0.8
340,453160,1744862851962,0.0,135.0,,-0.15,-0.15,1.07,-3.0,-2.0,1.0,1.09,1.3,84.0,3534.0,0.0,2.75,,11.33,1.002,62.8,,35.5,5.0,,,,,,,,,,,,0,0,0,0,0,0,0,0,0,0,0,0,0,0,0,0,,,,,0.0,,,,,,
341,453180,1744862851982,,,,,,,,,,,,,,,,,,,,,,,,,,,,,,,,,,0,0,0,0,0,0,0,0,0,0,0,0,0,0,0,0,,,,,,,,,,,
342,453200,1744862851994,0.0,135.0,,-0.11,-0.02,0.99,-3.0,-2.0,1.0,1.0,1.0,100.0,3355.0,0.0,2.84,,11.33,1.002,62.8,,35.5,5.0,,,,,,,,,,,,0,0,0,0,0,0,0,0,0,0,0,0,0,0,0,0,,,,,0.0,,,,,,
343,453220,1744862852014,,,,,,,,,,,,,,,,,,,,,,,,,,,,,,,,,,0,0,0,0,0,0,0,0,0,0,0,0,0,0,0,0,,,,,,,,,,,
344,453240,1744862852034,0.0,135.0,14.25,-0.12,-0.1,1.06,-3.0,-2.0,1.0,1.07,1.07,100.0,3355.0,0.0,2.84,15.0,11.53,0.994,62.8,146.0,34.9,5.0,13.0,12.0,12.0,12.0,0.0,22.0,0.0,0.0,2.26,0.0,0.0,0,0,0,0,0,0,0,0,0,0,0,0,0,0,0,0,0.0,0.0,0.0,0.0,0.0,38.985916,-76.950775,19.59,35.0,3.0,0.8
345,453260,1744862852054,,,,,,,,,,,,,,,,,,,,,,,,,,,,,,,,,,0,0,0,0,0,0,0,0,0,0,0,0,0,0,0,0,,,,,,,,,,,
346,453280,1744862852074,0.0,135.0,,-0.13,-0.13,1.11,-3.0,-2.0,1.0,1.12,1.12,100.0,3175.0,0.0,2.91,,11.73,0.966,62.8,,34.9,5.0,,,,,,,,,,,,0,0,0,0,0,0,0,0,0,0,0,0,0,0,0,0,,,,,0.0,,,,,,
347,453300,1744862852098,,,,,,,,,,,,,,,,,,,,,,,,,,,,,,,,,,0,0,0,0,0,0,0,0,0,0,0,0,0,0,0,0,,,,,,,,,,,
348,453320,1744862852118,0.0,135.0,,-0.13,-0.13,1.15,-2.0,-2.0,1.0,1.16,1.16,100.0,3084.0,0.0,2.95,,11.89,0.93,62.8,,34.9,5.0,,,,,,,,,,,,0,0,0,0,0,0,0,0,0,0,0,0,0,0,0,0,,,,,0.0,,,,,,
349,453340,1744862852138,,,,,,,,,,,,,,,,,,,,,,,12.0,12.0,12.0,12.0,0.0,34.0,0.0,0.0,2.26,,,0,0,0,0,0,0,0,0,0,0,0,0,0,0,0,0,2.0,,,,,38.985912,-76.950783,19.39,35.0,3.0,0.8
350,453360,1744862852158,0.0,135.0,,-0.13,-0.13,1.15,-2.0,-2.0,0.0,1.16,1.16,100.0,2799.0,0.0,3.11,,12.12,0.914,62.8,,33.8,5.0,,,,,,,,,,,,0,0,0,0,0,0,0,0,0,0,0,0,0,0,0,0,,,,,0.0,,,,,,
351,453380,1744862852178,,,,,,,,,,,,,,,,,,,,,,,,,,,,,,,,,,0,0,0,0,0,0,0,0,0,0,0,0,0,0,0,0,,,,,,,,,,,
352,453400,1744862852198,0.0,135.0,,-0.12,-0.11,1.12,-2.0,-1.0,0.0,1.13,1.16,97.0,2575.0,0.0,3.19,,12.12,0.914,62.8,,33.8,5.0,,,,,,,,,,,,0,0,0,0,0,0,0,0,0,0,0,0,0,0,0,0,,,,,0.0,,,,,,
353,453420,1744862852218,,,,,,,,,,,,,,,,,,,,,,,,,,,,,,,,,,0,0,0,0,0,0,0,0,0,0,0,0,0,0,0,0,,,,,,,,,,,
354,453440,1744862852238,0.0,135.0,,-0.13,-0.11,1.09,-3.0,-1.0,1.0,1.1,1.16,94.0,2575.0,0.0,3.19,,12.39,0.916,62.8,,32.4,5.0,12.0,15.0,12.0,12.0,0.0,29.0,0.0,0.0,2.27,,,0,0,0,0,0,0,0,0,0,0,0,0,0,0,0,0,2.0,,,,0.0,38.985908,-76.950783,19.31,35.0,3.0,0.8
355,453460,1744862852258,,,,,,,,,,,,,,,,,,,,,,,,,,,,,,,,,,0,0,0,0,0,0,0,0,0,0,0,0,0,0,0,0,,,,,,,,,,,
356,453480,1744862852278,0.0,135.0,,-0.13,-0.12,1.08,-4.0,-1.0,0.0,1.1,1.16,94.0,2364.0,0.0,3.3,,12.69,0.933,62.8,,32.4,5.0,,,,,,,,,,,,0,0,0,0,0,0,0,0,0,0,0,0,0,0,0,0,,,,,0.0,,,,,,
357,453500,1744862852302,,,,,,,,,,,,,,,,,,,,,,,,,,,,,,,,,,0,0,0,0,0,0,0,0,0,0,0,0,0,0,0,0,,,,,,,,,,,
358,453520,1744862852322,0.0,135.0,,-0.13,-0.14,1.06,-4.0,0.0,0.0,1.07,1.16,92.0,2219.0,0.0,3.35,,12.92,0.953,62.8,,32.4,5.0,,,,,,,,,,,,0,0,0,0,0,0,0,0,0,0,0,0,0,0,0,0,,,,,0.0,,,,,,
359,453540,1744862852342,,,,,,,,,,,,,,,,,,,,,,,12.0,13.0,12.0,12.0,0.0,217.0,0.0,0.0,2.26,,,0,0,0,0,0,0,0,0,0,0,0,0,0,0,0,0,4.0,,,,,38.985905,-76.950783,18.89,35.0,3.0,0.8
360,453560,1744862852362,0.0,135.0,,-0.13,-0.14,1.06,-5.0,0.0,0.0,1.08,1.16,93.0,1935.0,0.0,3.49,,13.25,0.973,62.8,,28.2,5.0,,,,,,,,,,,,0,0,0,0,0,0,0,0,0,0,0,0,0,0,0,0,,,,,0.0,,,,,,
361,453580,1744862852382,,,,,,,,,,,,,,,,,,,,,,,,,,,,,,,,,,0,0,0,0,0,0,0,0,0,0,0,0,0,0,0,0,,,,,,,,,,,
362,453600,1744862852402,0.0,135.0,,-0.15,-0.12,1.04,-6.0,1.0,0.0,1.06,1.16,91.0,1836.0,0.0,3.54,,13.25,0.973,62.8,,28.2,5.0,,,,,,,,,,,,0,0,0,0,0,0,0,0,0,0,0,0,0,0,0,0,,,,,0.0,,,,,,
363,453620,1744862852422,,,,,,,,,,,,,,,,,,,,,,,,,,,,,,,,,,0,0,0,0,0,0,0,0,0,0,0,0,0,0,0,0,,,,,,,,,,,
364,453640,1744862852442,0.0,135.0,,-0.16,-0.13,1.01,-6.0,1.0,0.0,1.03,1.16,89.0,1836.0,0.0,3.54,,13.44,1.012,62.8,,21.7,5.0,11.0,12.0,12.0,12.0,0.0,223.0,0.0,0.0,2.26,,,0,0,0,0,0,0,0,0,0,0,0,0,0,0,0,0,4.0,,,,0.0,38.985897,-76.95079,18.61,35.0,3.0,0.8
365,453660,1744862852462,,,,,,,,,,,,,,,,,,,,,,,,,,,,,,,,,,0,0,0,0,0,0,0,0,0,0,0,0,0,0,0,0,,,,,,,,,,,
366,453680,1744862852482,0.0,135.0,,-0.17,-0.13,1.02,-6.0,1.0,0.0,1.04,1.16,89.0,1489.0,0.0,3.6,,13.8,1.036,62.8,,21.7,5.0,,,,,,,,,,,,0,0,0,0,0,0,0,0,0,0,0,0,0,0,0,0,,,,,0.0,,,,,,
367,453700,1744862852502,,,,,,,,,,,,,,,,,,,,,,,,,,,,,,,,,,0,0,0,0,0,0,0,0,0,0,0,0,0,0,0,0,,,,,,,,,,,
368,453720,1744862852522,0.0,135.0,,-0.17,-0.13,1.01,-7.0,1.0,0.0,1.03,1.16,89.0,1303.0,0.0,3.64,,14.02,1.067,62.8,,21.7,5.0,,,,,,,,,,,,0,0,0,0,0,0,0,0,0,0,0,0,0,0,0,0,,,,,0.0,,,,,,
369,453740,1744862852542,,,,,,,,,,,,,,,,,,,,,,,11.0,12.0,12.0,12.0,0.0,212.0,0.0,0.0,2.26,,,0,0,0,0,0,0,0,0,0,0,0,0,0,0,0,0,0.0,,,,,38.985893,-76.95079,18.31,35.0,3.0,0.8
370,453760,1744862852562,0.0,135.0,,-0.16,-0.11,1.01,-7.0,1.0,0.0,1.03,1.16,88.0,1151.0,0.0,3.66,,14.1,1.056,62.8,,17.6,5.0,,,,,,,,,,,,0,0,0,0,0,0,0,0,0,0,0,0,0,0,0,0,,,,,0.0,,,,,,
371,453780,1744862852582,,,,,,,,,,,,,,,,,,,,,,,,,,,,,,,,,,0,0,0,0,0,0,0,0,0,0,0,0,0,0,0,0,,,,,,,,,,,
372,453800,1744862852601,0.0,135.0,,-0.16,-0.11,1.0,-8.0,1.0,0.0,1.02,1.16,88.0,1151.0,0.0,3.66,,14.1,1.056,62.8,,17.6,5.0,,,,,,,,,,,,0,0,0,0,0,0,0,0,0,0,0,0,0,0,0,0,,,,,0.0,,,,,,
373,453820,1744862852621,,,,,,,,,,,,,,,,,,,,,,,,,,,,,,,,,,0,0,0,0,0,0,0,0,0,0,0,0,0,0,0,0,,,,,,,,,,,
374,453840,1744862852641,0.0,135.0,,-0.16,-0.1,1.01,-8.0,1.0,0.0,1.03,1.16,88.0,1151.0,0.0,3.66,,14.47,1.057,62.8,,12.2,5.0,11.0,12.0,11.0,12.0,0.0,36.0,0.0,0.0,2.26,,,0,0,0,0,0,0,0,0,0,0,0,0,0,0,0,0,0.0,,,,0.0,38.985893,-76.950798,18.22,35.0,3.0,0.8
375,453860,1744862852661,,,,,,,,,,,,,,,,,,,,,,,,,,,,,,,,,,0,0,0,0,0,0,0,0,0,0,0,0,0,0,0,0,,,,,,,,,,,
376,453880,1744862852681,0.0,135.0,,-0.15,-0.1,1.01,-8.0,1.0,0.0,1.02,1.16,88.0,720.0,0.0,3.7,,14.39,1.06,62.8,,12.2,5.0,,,,,,,,,,,,0,0,0,0,0,0,0,0,0,0,0,0,0,0,0,0,,,,,0.0,,,,,,
377,453900,1744862852701,,,,,,,,,,,,,,,,,,,,,,,,,,,,,,,,,,0,0,0,0,0,0,0,0,0,0,0,0,0,0,0,0,,,,,,,,,,,
378,453920,1744862852721,0.75,135.0,,-0.16,-0.08,1.01,-8.0,0.0,0.0,1.03,1.16,88.0,824.0,0.0,4.11,,14.32,1.064,62.8,,12.2,5.0,,,,,,,,,,,,0,0,0,0,0,0,0,0,0,0,0,0,0,0,0,0,,,,,0.0,,,,,,
379,453940,1744862852741,,,,,,,,,,,,,,,,,,,,,,,11.0,11.0,11.0,12.0,0.0,30.0,0.0,0.0,2.26,,,0,0,0,0,0,0,0,0,0,0,0,0,0,0,0,0,0.0,,,,,38.985886,-76.950798,18.02,35.0,3.0,0.8
380,453960,1744862852761,3.27,135.0,,-0.16,-0.08,1.01,-9.0,0.0,0.0,1.02,1.16,88.0,824.0,0.0,4.11,,14.46,1.085,62.8,,13.7,5.0,,,,,,,,,,,,0,0,0,0,0,0,0,0,0,0,0,0,0,0,0,0,,,,,0.0,,,,,,
381,453980,1744862852781,,,,,,,,,,,,,,,,,,,,,,,,,,,,,,,,,,0,0,0,0,0,0,0,0,0,0,0,0,0,0,0,0,,,,,,,,,,,
382,454000,1744862852801,5.15,135.0,,-0.16,-0.09,1.0,-9.0,0.0,0.0,1.02,1.16,87.0,959.0,0.0,3.95,,14.46,1.085,62.8,,13.7,5.0,,,,,,,,,,,,0,0,0,0,0,0,0,0,0,0,0,0,0,0,0,0,,,,,0.0,,,,,,
383,454020,1744862852821,,,,,,,,,,,,,,,,,,,,,,,,,,,,,,,,,,0,0,0,0,0,0,0,0,0,0,0,0,0,0,0,0,,,,,,,,,,,
