,Interval,Utc,FrontBP,SteerAng,Battery,AccelX,AccelY,AccelZ,Yaw,Pitch,Roll,Gsum,GsumMax,GsumPct,RPM,TPS,InjectorPW,Baro,MAP,Lambda,IAT,EngineTemp,EOP,EOT,WSFR,WSFL,WSRR,WSRL,TCSet,TCSlip,TCComp,TCCut,Analog8,OilTemp,AA_On,ThermLF1,ThermLF2,ThermRR1,ThermRR2,ThermLF3,ThermLF4,ThermLF5,ThermLF6,ThermLF7,ThermLF8,ThermRR3,ThermRR4,ThermRR5,ThermRR6,ThermRR7,ThermRR8,Gear,AA_On1,AA_LowDrag,Fuel_Mix,AA_Packages,Latitude,Longitude,Speed,GPSSats,GPSQual,GPSDOP
0,545560,1744862944360,0.0,135.0,,-0.05,0.11,1.07,-1.0,0.0,0.0,1.08,1.08,100.0,3498.0,4.9,3.86,,12.88,1.096,68.2,,38.1,5.0,,,,,,,,,,,,0,0,0,0,0,0,0,0,0,0,0,0,0,0,0,0,,,,,0.0,,,,,,
1,545580,1744862944380,,,,,,,,,,,,,,,,,,,,,,,,,,,,,,,,,,0,0,0,0,0,0,0,0,0,0,0,0,0,0,0,0,,,,,,,,,,,
2,545600,1744862944404,0.0,135.0,,-0.06,0.04,1.05,0.0,0.0,0.0,1.05,1.08,98.0,3603.0,4.9,3.83,,12.88,1.096,68.2,,38.1,5.0,,,,,,,,,,,,0,0,0,0,0,0,0,0,0,0,0,0,0,0,0,0,,,,,0.0,,,,,,
3,545620,1744862944424,,,,,,,,,,,,,,,,,,,,,,,,,,,,,,,,,,0,0,0,0,0,0,0,0,0,0,0,0,0,0,0,0,,,,,,,,,,,
4,545640,1744862944444,0.0,135.0,,-0.06,0.07,1.03,0.0,0.0,0.0,1.04,1.08,97.0,3603.0,4.9,3.83,,12.73,1.001,68.2,,38.7,5.0,0.0,0.0,0.0,0.0,0.0,0.0,0.0,0.0,2.26,,,0,0,0,0,0,0,0,0,0,0,0,0,0,0,0,0,0.0,,,,0.0,38.985832,-76.950859,0.11,34.0,3.0,0.9
5,545660,1744862944464,,,,,,,,,,,,,,,,,,,,,,,,,,,,,,,,,,0,0,0,0,0,0,0,0,0,0,0,0,0,0,0,0,,,,,,,,,,,
6,545680,1744862944484,0.0,135.0,,-0.07,0.1,1.03,-1.0,0.0,0.0,1.03,1.08,96.0,3784.0,4.9,3.82,,12.61,0.968,68.2,,38.7,5.0,,,,,,,,,,,,0,0,0,0,0,0,0,0,0,0,0,0,0,0,0,0,,,,,0.0,,,,,,
7,545700,1744862944502,,,,,,,,,,,,,,,,,,,,,,,,,,,,,,,,,,0,0,0,0,0,0,0,0,0,0,0,0,0,0,0,0,,,,,,,,,,,
8,545720,1744862944522,0.0,135.0,,-0.08,0.04,1.05,-1.0,0.0,1.0,1.05,1.08,98.0,3895.0,5.0,3.8,,12.44,0.96,68.2,,38.7,5.0,,,,,,,,,,,,0,0,0,0,0,0,0,0,0,0,0,0,0,0,0,0,,,,,0.0,,,,,,
9,545740,1744862944542,,,,,,,,,,,,,,,,,,,,,,,0.0,0.0,0.0,0.0,0.0,0.0,0.0,0.0,2.26,,,0,0,0,0,0,0,0,0,0,0,0,0,0,0,0,0,0.0,,,,,38.985832,-76.950859,0.08,34.0,3.0,0.9
10,545760,1744862944562,0.0,135.0,,-0.11,0.02,1.04,-1.0,0.0,0.0,1.05,1.08,97.0,3888.0,5.1,3.78,,12.43,0.938,68.2,,39.3,5.0,,,,,,,,,,,,0,0,0,0,0,0,0,0,0,0,0,0,0,0,0,0,,,,,0.0,,,,,,
11,545780,1744862944582,,,,,,,,,,,,,,,,,,,,,,,,,,,,,,,,,,0,0,0,0,0,0,0,0,0,0,0,0,0,0,0,0,,,,,,,,,,,
12,545800,1744862944604,0.0,135.0,,-0.11,-0.0,1.06,-1.0,0.0,0.0,1.06,1.08,99.0,3808.0,5.1,3.79,,12.43,0.938,68.2,,39.3,5.0,,,,,,,,,,,,0,0,0,0,0,0,0,0,0,0,0,0,0,0,0,0,,,,,0.0,,,,,,
13,545820,1744862944624,,,,,,,,,,,,,,,,,,,,,,,,,,,,,,,,,,0,0,0,0,0,0,0,0,0,0,0,0,0,0,0,0,,,,,,,,,,,
14,545840,1744862944644,0.0,135.0,,-0.1,0.02,1.06,-1.0,0.0,0.0,1.06,1.08,99.0,3808.0,5.1,3.79,,12.35,0.925,68.2,,39.0,5.0,0.0,0.0,0.0,0.0,0.0,0.0,0.0,0.0,2.26,,,0,0,0,0,0,0,0,0,0,0,0,0,0,0,0,0,0.0,,,,0.0,38.985832,-76.950859,0.13,34.0,3.0,0.9
15,545860,1744862944664,,,,,,,,,,,,,,,,,,,,,,,,,,,,,,,,,,0,0,0,0,0,0,0,0,0,0,0,0,0,0,0,0,,,,,,,,,,,
16,545880,1744862944684,0.0,135.0,,-0.1,0.0,1.02,0.0,0.0,0.0,1.03,1.08,96.0,3679.0,5.2,3.8,,12.4,0.936,66.4,,39.0,5.0,,,,,,,,,,,,0,0,0,0,0,0,0,0,0,0,0,0,0,0,0,0,,,,,0.0,,,,,,
17,545900,1744862944703,,,,,,,,,,,,,,,,,,,,,,,,,,,,,,,,,,0,0,0,0,0,0,0,0,0,0,0,0,0,0,0,0,,,,,,,,,,,
18,545920,1744862944723,0.0,135.0,,-0.1,-0.02,0.99,0.0,0.0,0.0,0.99,1.08,92.0,3786.0,5.1,3.79,,12.4,0.965,66.4,,39.0,5.0,,,,,,,,,,,,0,0,0,0,0,0,0,0,0,0,0,0,0,0,0,0,,,,,0.0,,,,,,
19,545940,1744862944743,,,,,,,,,,,,,,,,,,,,,,,0.0,0.0,0.0,0.0,0.0,0.0,0.0,0.0,2.26,,,0,0,0,0,0,0,0,0,0,0,0,0,0,0,0,0,0.0,,,,,38.985832,-76.950859,0.07,34.0,3.0,0.9
20,545960,1744862944763,0.0,135.0,,-0.09,-0.01,1.0,0.0,0.0,0.0,1.01,1.08,93.0,3836.0,5.1,3.79,,12.43,1.016,66.4,,39.1,5.0,,,,,,,,,,,,0,0,0,0,0,0,0,0,0,0,0,0,0,0,0,0,,,,,0.0,,,,,,
21,545980,1744862944783,,,,,,,,,,,,,,,,,,,,,,,,,,,,,,,,,,0,0,0,0,0,0,0,0,0,0,0,0,0,0,0,0,,,,,,,,,,,
22,546000,1744862944803,0.0,135.0,,-0.09,0.05,1.02,0.0,0.0,0.0,1.03,1.08,96.0,3915.0,5.1,3.8,,12.43,1.016,66.4,,39.1,5.0,,,,,,,,,,,,0,0,0,0,0,0,0,0,0,0,0,0,0,0,0,0,,,,,0.0,,,,,,
23,546020,1744862944823,,,,,,,,,,,,,,,,,,,,,,,,,,,,,,,,,,0,0,0,0,0,0,0,0,0,0,0,0,0,0,0,0,,,,,,,,,,,
24,546040,1744862944843,0.0,135.0,,-0.08,0.07,1.06,-1.0,0.0,1.0,1.07,1.08,99.0,3915.0,5.1,3.8,,12.35,0.949,66.4,,39.2,5.0,0.0,0.0,0.0,0.0,0.0,0.0,0.0,0.0,2.26,,,0,0,0,0,0,0,0,0,0,0,0,0,0,0,0,0,0.0,,,,0.0,38.985832,-76.950859,0.11,34.0,3.0,0.9
25,546060,1744862944863,,,,,,,,,,,,,,,,,,,,,,,,,,,,,,,,,,0,0,0,0,0,0,0,0,0,0,0,0,0,0,0,0,,,,,,,,,,,
26,546080,1744862944883,0.0,135.0,,-0.1,-0.01,1.06,-1.0,0.0,1.0,1.06,1.08,99.0,3879.0,5.0,3.79,,12.36,0.9,66.4,,39.2,5.0,,,,,,,,,,,,0,0,0,0,0,0,0,0,0,0,0,0,0,0,0,0,,,,,0.0,,,,,,
27,546100,1744862944903,,,,,,,,,,,,,,,,,,,,,,,,,,,,,,,,,,0,0,0,0,0,0,0,0,0,0,0,0,0,0,0,0,,,,,,,,,,,
28,546120,1744862944923,0.0,135.0,,-0.1,-0.04,1.0,0.0,0.0,0.0,1.01,1.08,94.0,3935.0,4.9,3.79,,12.33,0.882,66.4,,39.2,5.0,,,,,,,,,,,,0,0,0,0,0,0,0,0,0,0,0,0,0,0,0,0,,,,,0.0,,,,,,
29,546140,1744862944943,,,,,,,,,,,,,,,,,,,,,,,0.0,0.0,0.0,0.0,0.0,0.0,0.0,0.0,2.26,,,0,0,0,0,0,0,0,0,0,0,0,0,0,0,0,0,0.0,,,,,38.985832,-76.950859,0.1,34.0,3.0,0.9
30,546160,1744862944963,0.0,135.0,,-0.06,0.06,1.02,0.0,0.0,0.0,1.02,1.08,95.0,3988.0,4.9,3.77,,12.21,0.88,66.4,,39.3,5.0,,,,,,,,,,,,0,0,0,0,0,0,0,0,0,0,0,0,0,0,0,0,,,,,0.0,,,,,,
31,546180,1744862944983,,,,,,,,,,,,,,,,,,,,,,,,,,,,,,,,,,0,0,0,0,0,0,0,0,0,0,0,0,0,0,0,0,,,,,,,,,,,
32,546200,1744862944995,0.0,135.0,,-0.07,0.04,1.04,-1.0,0.0,1.0,1.04,1.08,97.0,3996.0,4.9,3.77,,12.21,0.88,66.4,,39.3,5.0,,,,,,,,,,,,0,0,0,0,0,0,0,0,0,0,0,0,0,0,0,0,,,,,0.0,,,,,,
33,546220,1744862945015,,,,,,,,,,,,,,,,,,,,,,,,,,,,,,,,,,0,0,0,0,0,0,0,0,0,0,0,0,0,0,0,0,,,,,,,,,,,
34,546240,1744862945035,0.0,135.0,14.01,-0.07,-0.01,0.98,0.0,0.0,0.0,0.99,1.08,92.0,3996.0,4.9,3.77,15.0,12.21,0.878,66.4,156.0,40.2,5.0,0.0,0.0,0.0,0.0,0.0,0.0,0.0,0.0,2.26,0.0,0.0,0,0,0,0,0,0,0,0,0,0,0,0,0,0,0,0,0.0,0.0,0.0,0.0,0.0,38.985832,-76.950859,0.11,33.0,3.0,0.9
35,546260,1744862945055,,,,,,,,,,,,,,,,,,,,,,,,,,,,,,,,,,0,0,0,0,0,0,0,0,0,0,0,0,0,0,0,0,,,,,,,,,,,
36,546280,1744862945075,0.0,135.0,,-0.04,0.13,1.02,-1.0,0.0,1.0,1.03,1.08,96.0,4028.0,5.0,3.77,,12.2,0.876,66.4,,40.2,5.0,,,,,,,,,,,,0,0,0,0,0,0,0,0,0,0,0,0,0,0,0,0,,,,,0.0,,,,,,
37,546300,1744862945099,,,,,,,,,,,,,,,,,,,,,,,,,,,,,,,,,,0,0,0,0,0,0,0,0,0,0,0,0,0,0,0,0,,,,,,,,,,,
38,546320,1744862945119,0.0,135.0,,-0.07,0.01,0.99,-1.0,0.0,1.0,0.99,1.08,92.0,4080.0,5.1,3.76,,12.05,0.879,66.4,,40.2,5.0,,,,,,,,,,,,0,0,0,0,0,0,0,0,0,0,0,0,0,0,0,0,,,,,0.0,,,,,,
39,546340,1744862945139,,,,,,,,,,,,,,,,,,,,,,,0.0,0.0,0.0,0.0,0.0,0.0,0.0,0.0,2.26,,,0,0,0,0,0,0,0,0,0,0,0,0,0,0,0,0,0.0,,,,,38.985832,-76.950859,0.19,33.0,3.0,0.9
40,546360,1744862945159,0.0,135.0,,-0.04,0.1,1.01,0.0,0.0,1.0,1.01,1.08,94.0,4069.0,5.1,3.74,,12.09,0.889,66.4,,40.1,5.0,,,,,,,,,,,,0,0,0,0,0,0,0,0,0,0,0,0,0,0,0,0,,,,,0.0,,,,,,
41,546380,1744862945179,,,,,,,,,,,,,,,,,,,,,,,,,,,,,,,,,,0,0,0,0,0,0,0,0,0,0,0,0,0,0,0,0,,,,,,,,,,,
42,546400,1744862945203,0.0,135.0,,-0.08,0.01,1.03,-1.0,0.0,1.0,1.03,1.08,96.0,4070.0,5.1,3.73,,12.09,0.889,66.4,,40.1,5.0,,,,,,,,,,,,0,0,0,0,0,0,0,0,0,0,0,0,0,0,0,0,,,,,0.0,,,,,,
43,546420,1744862945223,,,,,,,,,,,,,,,,,,,,,,,,,,,,,,,,,,0,0,0,0,0,0,0,0,0,0,0,0,0,0,0,0,,,,,,,,,,,
44,546440,1744862945243,0.0,135.0,,-0.06,0.01,1.02,0.0,0.0,0.0,1.03,1.08,95.0,4070.0,5.1,3.73,,12.04,0.886,66.4,,40.3,5.0,0.0,0.0,0.0,0.0,0.0,0.0,0.0,0.0,2.26,,,0,0,0,0,0,0,0,0,0,0,0,0,0,0,0,0,0.0,,,,0.0,38.985832,-76.950859,0.15,33.0,3.0,0.9
45,546460,1744862945263,,,,,,,,,,,,,,,,,,,,,,,,,,,,,,,,,,0,0,0,0,0,0,0,0,0,0,0,0,0,0,0,0,,,,,,,,,,,
46,546480,1744862945283,0.0,135.0,,-0.07,0.06,1.09,-1.0,0.0,1.0,1.09,1.09,100.0,4067.0,5.1,3.74,,12.07,0.888,66.4,,40.3,5.0,,,,,,,,,,,,0,0,0,0,0,0,0,0,0,0,0,0,0,0,0,0,,,,,0.0,,,,,,
47,546500,1744862945303,,,,,,,,,,,,,,,,,,,,,,,,,,,,,,,,,,0,0,0,0,0,0,0,0,0,0,0,0,0,0,0,0,,,,,,,,,,,
48,546520,1744862945323,0.0,135.0,,-0.1,-0.03,1.04,0.0,0.0,0.0,1.04,1.09,95.0,4084.0,5.1,3.76,,12.07,0.904,66.4,,40.3,5.0,,,,,,,,,,,,0,0,0,0,0,0,0,0,0,0,0,0,0,0,0,0,,,,,0.0,,,,,,
49,546540,1744862945343,,,,,,,,,,,,,,,,,,,,,,,0.0,0.0,0.0,0.0,0.0,0.0,0.0,0.0,2.26,,,0,0,0,0,0,0,0,0,0,0,0,0,0,0,0,0,0.0,,,,,38.985832,-76.950859,0.04,33.0,3.0,0.9
50,546560,1744862945363,0.0,135.0,,-0.08,0.05,1.08,0.0,0.0,1.0,1.08,1.09,99.0,4083.0,5.1,3.75,,12.04,0.904,66.4,,40.5,5.0,,,,,,,,,,,,0,0,0,0,0,0,0,0,0,0,0,0,0,0,0,0,,,,,0.0,,,,,,
51,546580,1744862945383,,,,,,,,,,,,,,,,,,,,,,,,,,,,,,,,,,0,0,0,0,0,0,0,0,0,0,0,0,0,0,0,0,,,,,,,,,,,
52,546600,1744862945403,0.0,135.0,,-0.12,-0.06,1.04,0.0,0.0,0.0,1.05,1.09,96.0,4012.0,5.0,3.75,,12.04,0.904,66.4,,40.5,5.0,,,,,,,,,,,,0,0,0,0,0,0,0,0,0,0,0,0,0,0,0,0,,,,,0.0,,,,,,
53,546620,1744862945423,,,,,,,,,,,,,,,,,,,,,,,,,,,,,,,,,,0,0,0,0,0,0,0,0,0,0,0,0,0,0,0,0,,,,,,,,,,,
54,546640,1744862945443,0.0,135.0,,-0.09,0.01,1.01,1.0,0.0,0.0,1.02,1.09,93.0,4012.0,5.0,3.75,,12.0,0.898,66.4,,39.7,5.0,0.0,0.0,0.0,0.0,0.0,0.0,0.0,0.0,2.26,,,0,0,0,0,0,0,0,0,0,0,0,0,0,0,0,0,0.0,,,,0.0,38.985832,-76.950859,0.07,33.0,3.0,0.9
55,546660,1744862945463,,,,,,,,,,,,,,,,,,,,,,,,,,,,,,,,,,0,0,0,0,0,0,0,0,0,0,0,0,0,0,0,0,,,,,,,,,,,
56,546680,1744862945483,0.0,135.0,,-0.1,0.02,1.03,0.0,0.0,0.0,1.04,1.09,95.0,4036.0,4.9,3.75,,12.07,0.893,66.4,,39.7,5.0,,,,,,,,,,,,0,0,0,0,0,0,0,0,0,0,0,0,0,0,0,0,,,,,0.0,,,,,,
57,546700,1744862945503,,,,,,,,,,,,,,,,,,,,,,,,,,,,,,,,,,0,0,0,0,0,0,0,0,0,0,0,0,0,0,0,0,,,,,,,,,,,
58,546720,1744862945523,0.0,135.0,,-0.11,-0.05,0.97,1.0,0.0,0.0,0.97,1.09,89.0,4034.0,4.9,3.74,,12.04,0.895,66.4,,39.7,5.0,,,,,,,,,,,,0,0,0,0,0,0,0,0,0,0,0,0,0,0,0,0,,,,,0.0,,,,,,
59,546740,1744862945543,,,,,,,,,,,,,,,,,,,,,,,0.0,0.0,0.0,0.0,0.0,0.0,0.0,0.0,2.26,,,0,0,0,0,0,0,0,0,0,0,0,0,0,0,0,0,0.0,,,,,38.985832,-76.950859,0.1,33.0,3.0,0.9
60,546760,1744862945563,0.0,135.0,,-0.07,0.09,0.98,1.0,0.0,0.0,0.99,1.09,90.0,4026.0,4.9,3.76,,12.01,0.889,66.4,,39.9,5.0,,,,,,,,,,,,0,0,0,0,0,0,0,0,0,0,0,0,0,0,0,0,,,,,0.0,,,,,,
61,546780,1744862945583,,,,,,,,,,,,,,,,,,,,,,,,,,,,,,,,,,0,0,0,0,0,0,0,0,0,0,0,0,0,0,0,0,,,,,,,,,,,
62,546800,1744862945603,0.0,135.0,,-0.08,0.01,0.98,0.0,0.0,0.0,0.98,1.09,90.0,4002.0,5.0,3.76,,12.01,0.889,66.4,,39.9,5.0,,,,,,,,,,,,0,0,0,0,0,0,0,0,0,0,0,0,0,0,0,0,,,,,0.0,,,,,,
63,546820,1744862945623,,,,,,,,,,,,,,,,,,,,,,,,,,,,,,,,,,0,0,0,0,0,0,0,0,0,0,0,0,0,0,0,0,,,,,,,,,,,
64,546840,1744862945643,0.0,135.0,,-0.08,-0.02,0.93,1.0,0.0,-1.0,0.94,1.09,86.0,4002.0,5.0,3.76,,12.07,0.88,66.4,,39.6,5.0,0.0,0.0,0.0,0.0,0.0,0.0,0.0,0.0,2.26,,,0,0,0,0,0,0,0,0,0,0,0,0,0,0,0,0,0.0,,,,0.0,38.985832,-76.950859,0.08,33.0,3.0,0.9
65,546860,1744862945663,,,,,,,,,,,,,,,,,,,,,,,,,,,,,,,,,,0,0,0,0,0,0,0,0,0,0,0,0,0,0,0,0,,,,,,,,,,,
66,546880,1744862945683,0.0,135.0,,-0.06,0.04,0.93,1.0,0.0,-1.0,0.93,1.09,85.0,3943.0,5.1,3.76,,12.16,0.876,66.4,,39.6,5.0,,,,,,,,,,,,0,0,0,0,0,0,0,0,0,0,0,0,0,0,0,0,,,,,0.0,,,,,,
67,546900,1744862945704,,,,,,,,,,,,,,,,,,,,,,,,,,,,,,,,,,0,0,0,0,0,0,0,0,0,0,0,0,0,0,0,0,,,,,,,,,,,
68,546920,1744862945724,0.0,135.0,,-0.06,0.1,0.96,0.0,0.0,0.0,0.97,1.09,89.0,3924.0,5.1,3.77,,12.12,0.877,66.4,,39.6,5.0,,,,,,,,,,,,0,0,0,0,0,0,0,0,0,0,0,0,0,0,0,0,,,,,0.0,,,,,,
69,546940,1744862945744,,,,,,,,,,,,,,,,,,,,,,,0.0,0.0,0.0,0.0,0.0,0.0,0.0,0.0,2.26,,,0,0,0,0,0,0,0,0,0,0,0,0,0,0,0,0,0.0,,,,,38.985832,-76.950859,0.05,33.0,3.0,0.9
70,546960,1744862945764,0.0,135.0,,-0.1,0.01,0.94,0.0,0.0,0.0,0.94,1.09,86.0,3957.0,5.1,3.78,,12.16,0.877,66.4,,39.3,5.0,,,,,,,,,,,,0,0,0,0,0,0,0,0,0,0,0,0,0,0,0,0,,,,,0.0,,,,,,
71,546980,1744862945784,,,,,,,,,,,,,,,,,,,,,,,,,,,,,,,,,,0,0,0,0,0,0,0,0,0,0,0,0,0,0,0,0,,,,,,,,,,,
72,547000,1744862945804,0.0,135.0,,-0.09,-0.01,0.91,1.0,0.0,-1.0,0.91,1.09,83.0,3959.0,5.1,3.78,,12.16,0.877,66.4,,39.3,5.0,,,,,,,,,,,,0,0,0,0,0,0,0,0,0,0,0,0,0,0,0,0,,,,,0.0,,,,,,
73,547020,1744862945824,,,,,,,,,,,,,,,,,,,,,,,,,,,,,,,,,,0,0,0,0,0,0,0,0,0,0,0,0,0,0,0,0,,,,,,,,,,,
74,547040,1744862945844,0.0,135.0,,-0.08,0.05,0.93,1.0,0.0,-1.0,0.93,1.09,85.0,3959.0,5.1,3.78,,12.16,0.871,66.4,,39.6,5.0,0.0,0.0,0.0,0.0,0.0,0.0,0.0,0.0,2.26,,,0,0,0,0,0,0,0,0,0,0,0,0,0,0,0,0,0.0,,,,0.0,38.985832,-76.950859,0.08,33.0,3.0,0.9
75,547060,1744862945864,,,,,,,,,,,,,,,,,,,,,,,,,,,,,,,,,,0,0,0,0,0,0,0,0,0,0,0,0,0,0,0,0,,,,,,,,,,,
76,547080,1744862945884,0.0,135.0,,-0.08,0.06,0.97,0.0,0.0,0.0,0.98,1.09,89.0,3933.0,5.1,3.78,,12.2,0.866,66.4,,39.6,5.0,,,,,,,,,,,,0,0,0,0,0,0,0,0,0,0,0,0,0,0,0,0,,,,,0.0,,,,,,
77,547100,1744862945904,,,,,,,,,,,,,,,,,,,,,,,,,,,,,,,,,,0,0,0,0,0,0,0,0,0,0,0,0,0,0,0,0,,,,,,,,,,,
78,547120,1744862945924,0.0,135.0,,-0.1,0.0,1.01,0.0,0.0,0.0,1.01,1.09,93.0,3858.0,5.0,3.79,,12.2,0.865,66.4,,39.6,5.0,,,,,,,,,,,,0,0,0,0,0,0,0,0,0,0,0,0,0,0,0,0,,,,,0.0,,,,,,
79,547140,1744862945944,,,,,,,,,,,,,,,,,,,,,,,0.0,0.0,0.0,0.0,0.0,0.0,0.0,0.0,2.26,,,0,0,0,0,0,0,0,0,0,0,0,0,0,0,0,0,0.0,,,,,38.985832,-76.950859,0.0,33.0,3.0,0.9
80,547160,1744862945964,0.0,135.0,,-0.11,-0.03,1.01,0.0,0.0,0.0,1.01,1.09,93.0,3878.0,5.0,3.78,,12.27,0.865,66.4,,39.4,5.0,,,,,,,,,,,,0,0,0,0,0,0,0,0,0,0,0,0,0,0,0,0,,,,,0.0,,,,,,
81,547180,1744862945984,,,,,,,,,,,,,,,,,,,,,,,,,,,,,,,,,,0,0,0,0,0,0,0,0,0,0,0,0,0,0,0,0,,,,,,,,,,,
82,547200,1744862945996,0.0,135.0,,-0.11,-0.05,0.99,0.0,0.0,0.0,1.0,1.09,92.0,3815.0,4.9,3.79,,12.27,0.865,66.4,,39.4,5.0,,,,,,,,,,,,0,0,0,0,0,0,0,0,0,0,0,0,0,0,0,0,,,,,0.0,,,,,,
83,547220,1744862946016,,,,,,,,,,,,,,,,,,,,,,,,,,,,,,,,,,0,0,0,0,0,0,0,0,0,0,0,0,0,0,0,0,,,,,,,,,,,
84,547240,1744862946036,0.0,135.0,14.03,-0.1,-0.06,0.98,0.0,0.0,0.0,0.99,1.09,90.0,3815.0,4.9,3.79,15.0,12.27,0.87,66.4,156.0,39.0,5.0,0.0,0.0,0.0,0.0,0.0,0.0,0.0,0.0,2.26,0.0,0.0,0,0,0,0,0,0,0,0,0,0,0,0,0,0,0,0,0.0,0.0,0.0,0.0,0.0,38.985832,-76.950859,0.11,33.0,3.0,0.9
85,547260,1744862946056,,,,,,,,,,,,,,,,,,,,,,,,,,,,,,,,,,0,0,0,0,0,0,0,0,0,0,0,0,0,0,0,0,,,,,,,,,,,
86,547280,1744862946076,0.0,135.0,,-0.1,-0.09,0.97,0.0,0.0,0.0,0.98,1.09,89.0,3781.0,4.8,3.79,,12.35,0.866,66.4,,39.0,5.0,,,,,,,,,,,,0,0,0,0,0,0,0,0,0,0,0,0,0,0,0,0,,,,,0.0,,,,,,
87,547300,1744862946102,,,,,,,,,,,,,,,,,,,,,,,,,,,,,,,,,,0,0,0,0,0,0,0,0,0,0,0,0,0,0,0,0,,,,,,,,,,,
88,547320,1744862946122,0.0,135.0,,-0.09,-0.08,0.99,0.0,0.0,0.0,0.99,1.09,91.0,3795.0,4.9,3.79,,12.33,0.869,66.4,,39.0,5.0,,,,,,,,,,,,0,0,0,0,0,0,0,0,0,0,0,0,0,0,0,0,,,,,0.0,,,,,,
89,547340,1744862946142,,,,,,,,,,,,,,,,,,,,,,,0.0,0.0,0.0,0.0,0.0,0.0,0.0,0.0,2.26,,,0,0,0,0,0,0,0,0,0,0,0,0,0,0,0,0,0.0,,,,,38.985832,-76.950859,0.07,33.0,3.0,0.9
90,547360,1744862946162,0.0,135.0,,-0.1,-0.1,1.01,0.0,0.0,0.0,1.02,1.09,93.0,3761.0,5.0,3.79,,12.39,0.869,66.4,,38.8,5.0,,,,,,,,,,,,0,0,0,0,0,0,0,0,0,0,0,0,0,0,0,0,,,,,0.0,,,,,,
91,547380,1744862946182,,,,,,,,,,,,,,,,,,,,,,,,,,,,,,,,,,0,0,0,0,0,0,0,0,0,0,0,0,0,0,0,0,,,,,,,,,,,
92,547400,1744862946200,0.0,135.0,,-0.08,-0.09,1.01,0.0,0.0,0.0,1.02,1.09,93.0,3742.0,5.0,3.79,,12.39,0.869,66.4,,38.8,5.0,,,,,,,,,,,,0,0,0,0,0,0,0,0,0,0,0,0,0,0,0,0,,,,,0.0,,,,,,
93,547420,1744862946220,,,,,,,,,,,,,,,,,,,,,,,,,,,,,,,,,,0,0,0,0,0,0,0,0,0,0,0,0,0,0,0,0,,,,,,,,,,,
94,547440,1744862946240,0.0,135.0,,-0.08,-0.13,1.01,0.0,0.0,0.0,1.02,1.09,93.0,3742.0,5.0,3.79,,12.39,0.865,66.4,,38.9,5.0,0.0,0.0,0.0,0.0,0.0,0.0,0.0,0.0,2.26,,,0,0,0,0,0,0,0,0,0,0,0,0,0,0,0,0,0.0,,,,0.0,38.985832,-76.950859,0.0,33.0,3.0,0.9
95,547460,1744862946260,,,,,,,,,,,,,,,,,,,,,,,,,,,,,,,,,,0,0,0,0,0,0,0,0,0,0,0,0,0,0,0,0,,,,,,,,,,,
96,547480,1744862946280,0.0,135.0,,-0.09,-0.13,1.03,0.0,0.0,0.0,1.04,1.09,95.0,3684.0,5.0,3.79,,12.41,0.861,66.4,,38.9,5.0,,,,,,,,,,,,0,0,0,0,0,0,0,0,0,0,0,0,0,0,0,0,,,,,0.0,,,,,,
97,547500,1744862946302,,,,,,,,,,,,,,,,,,,,,,,,,,,,,,,,,,0,0,0,0,0,0,0,0,0,0,0,0,0,0,0,0,,,,,,,,,,,
98,547520,1744862946322,0.0,135.0,,-0.05,-0.02,1.04,0.0,0.0,0.0,1.04,1.09,95.0,3685.0,5.0,3.81,,12.47,0.862,66.4,,38.9,5.0,,,,,,,,,,,,0,0,0,0,0,0,0,0,0,0,0,0,0,0,0,0,,,,,0.0,,,,,,
99,547540,1744862946342,,,,,,,,,,,,,,,,,,,,,,,0.0,0.0,0.0,0.0,0.0,0.0,0.0,0.0,2.26,,,0,0,0,0,0,0,0,0,0,0,0,0,0,0,0,0,0.0,,,,,38.985832,-76.950859,0.04,33.0,3.0,0.9
100,547560,1744862946362,0.0,135.0,,-0.06,-0.06,1.04,-1.0,0.0,0.0,1.05,1.09,96.0,3638.0,5.0,3.8,,12.47,0.866,66.4,,38.8,5.0,,,,,,,,,,,,0,0,0,0,0,0,0,0,0,0,0,0,0,0,0,0,,,,,0.0,,,,,,
101,547580,1744862946382,,,,,,,,,,,,,,,,,,,,,,,,,,,,,,,,,,0,0,0,0,0,0,0,0,0,0,0,0,0,0,0,0,,,,,,,,,,,
102,547600,1744862946404,0.0,135.0,,-0.06,-0.06,1.04,0.0,0.0,0.0,1.04,1.09,95.0,3686.0,5.0,3.81,,12.47,0.866,66.4,,38.8,5.0,,,,,,,,,,,,0,0,0,0,0,0,0,0,0,0,0,0,0,0,0,0,,,,,0.0,,,,,,
103,547620,1744862946424,,,,,,,,,,,,,,,,,,,,,,,,,,,,,,,,,,0,0,0,0,0,0,0,0,0,0,0,0,0,0,0,0,,,,,,,,,,,
104,547640,1744862946444,0.0,135.0,,-0.06,-0.07,1.01,0.0,0.0,0.0,1.01,1.09,93.0,3686.0,5.0,3.81,,12.51,0.87,66.4,,38.8,5.0,0.0,0.0,0.0,0.0,0.0,0.0,0.0,0.0,2.27,,,0,0,0,0,0,0,0,0,0,0,0,0,0,0,0,0,0.0,,,,0.0,38.985832,-76.950859,0.05,33.0,3.0,0.9
105,547660,1744862946464,,,,,,,,,,,,,,,,,,,,,,,,,,,,,,,,,,0,0,0,0,0,0,0,0,0,0,0,0,0,0,0,0,,,,,,,,,,,
106,547680,1744862946484,0.0,135.0,,-0.08,-0.07,1.0,1.0,0.0,0.0,1.0,1.09,92.0,3638.0,4.8,3.8,,12.51,0.871,66.4,,38.8,5.0,,,,,,,,,,,,0,0,0,0,0,0,0,0,0,0,0,0,0,0,0,0,,,,,0.0,,,,,,
107,547700,1744862946504,,,,,,,,,,,,,,,,,,,,,,,,,,,,,,,,,,0,0,0,0,0,0,0,0,0,0,0,0,0,0,0,0,,,,,,,,,,,
108,547720,1744862946524,0.0,135.0,,-0.1,-0.12,1.02,1.0,0.0,0.0,1.03,1.09,95.0,3623.0,4.7,3.8,,12.49,0.873,66.4,,38.8,5.0,,,,,,,,,,,,0,0,0,0,0,0,0,0,0,0,0,0,0,0,0,0,,,,,0.0,,,,,,
109,547740,1744862946544,,,,,,,,,,,,,,,,,,,,,,,0.0,0.0,0.0,0.0,0.0,0.0,0.0,0.0,2.26,,,0,0,0,0,0,0,0,0,0,0,0,0,0,0,0,0,0.0,,,,,38.985832,-76.950859,0.16,33.0,3.0,0.9
110,547760,1744862946564,0.0,135.0,,-0.1,-0.1,1.04,0.0,0.0,0.0,1.05,1.09,96.0,3631.0,4.7,3.8,,12.51,0.887,66.4,,38.5,5.0,,,,,,,,,,,,0,0,0,0,0,0,0,0,0,0,0,0,0,0,0,0,,,,,0.0,,,,,,
111,547780,1744862946584,,,,,,,,,,,,,,,,,,,,,,,,,,,,,,,,,,0,0,0,0,0,0,0,0,0,0,0,0,0,0,0,0,,,,,,,,,,,
112,547800,1744862946604,0.0,135.0,,-0.08,-0.0,1.04,-1.0,0.0,1.0,1.04,1.09,95.0,3569.0,4.7,3.81,,12.51,0.887,66.4,,38.5,5.0,,,,,,,,,,,,0,0,0,0,0,0,0,0,0,0,0,0,0,0,0,0,,,,,0.0,,,,,,
113,547820,1744862946624,,,,,,,,,,,,,,,,,,,,,,,,,,,,,,,,,,0,0,0,0,0,0,0,0,0,0,0,0,0,0,0,0,,,,,,,,,,,
114,547840,1744862946644,0.0,135.0,,-0.06,0.03,0.97,0.0,0.0,0.0,0.97,1.09,88.0,3569.0,4.7,3.81,,12.56,0.89,66.4,,38.7,5.0,0.0,0.0,0.0,0.0,0.0,0.0,0.0,0.0,2.26,,,0,0,0,0,0,0,0,0,0,0,0,0,0,0,0,0,0.0,,,,0.0,38.985832,-76.950859,0.04,33.0,3.0,0.9
115,547860,1744862946664,,,,,,,,,,,,,,,,,,,,,,,,,,,,,,,,,,0,0,0,0,0,0,0,0,0,0,0,0,0,0,0,0,,,,,,,,,,,
116,547880,1744862946684,0.0,135.0,,-0.09,-0.09,1.04,0.0,0.0,0.0,1.05,1.09,96.0,3483.0,4.8,3.81,,12.61,0.895,66.4,,38.7,5.0,,,,,,,,,,,,0,0,0,0,0,0,0,0,0,0,0,0,0,0,0,0,,,,,0.0,,,,,,
117,547900,1744862946703,,,,,,,,,,,,,,,,,,,,,,,,,,,,,,,,,,0,0,0,0,0,0,0,0,0,0,0,0,0,0,0,0,,,,,,,,,,,
118,547920,1744862946723,0.0,135.0,,-0.06,0.01,0.97,0.0,0.0,0.0,0.97,1.09,89.0,3446.0,4.9,3.82,,12.69,0.897,66.4,,38.7,5.0,,,,,,,,,,,,0,0,0,0,0,0,0,0,0,0,0,0,0,0,0,0,,,,,0.0,,,,,,
119,547940,1744862946743,,,,,,,,,,,,,,,,,,,,,,,0.0,0.0,0.0,0.0,0.0,0.0,0.0,0.0,2.26,,,0,0,0,0,0,0,0,0,0,0,0,0,0,0,0,0,0.0,,,,,38.985832,-76.950859,0.07,33.0,3.0,0.9
120,547960,1744862946763,0.0,135.0,,-0.11,-0.08,1.02,0.0,0.0,0.0,1.03,1.09,94.0,3373.0,4.9,3.82,,12.79,0.892,66.4,,38.2,5.0,,,,,,,,,,,,0,0,0,0,0,0,0,0,0,0,0,0,0,0,0,0,,,,,0.0,,,,,,
121,547980,1744862946783,,,,,,,,,,,,,,,,,,,,,,,,,,,,,,,,,,0,0,0,0,0,0,0,0,0,0,0,0,0,0,0,0,,,,,,,,,,,
122,548000,1744862946801,0.0,135.0,,-0.07,0.03,0.97,0.0,0.0,1.0,0.98,1.09,89.0,3374.0,4.9,3.84,,12.79,0.892,66.4,,38.2,5.0,,,,,,,,,,,,0,0,0,0,0,0,0,0,0,0,0,0,0,0,0,0,,,,,0.0,,,,,,
123,548020,1744862946821,,,,,,,,,,,,,,,,,,,,,,,,,,,,,,,,,,0,0,0,0,0,0,0,0,0,0,0,0,0,0,0,0,,,,,,,,,,,
124,548040,1744862946841,0.0,135.0,,-0.09,-0.07,1.03,0.0,0.0,0.0,1.03,1.09,94.0,3374.0,4.9,3.84,,12.84,0.881,66.4,,38.1,5.0,0.0,0.0,0.0,0.0,0.0,0.0,0.0,0.0,2.26,,,0,0,0,0,0,0,0,0,0,0,0,0,0,0,0,0,0.0,,,,0.0,38.985832,-76.950859,0.0,33.0,3.0,0.9
125,548060,1744862946861,,,,,,,,,,,,,,,,,,,,,,,,,,,,,,,,,,0,0,0,0,0,0,0,0,0,0,0,0,0,0,0,0,,,,,,,,,,,
126,548080,1744862946881,0.0,135.0,,-0.08,0.04,0.95,0.0,0.0,0.0,0.95,1.09,87.0,3334.0,4.9,3.85,,12.85,0.881,66.4,,38.1,5.0,,,,,,,,,,,,0,0,0,0,0,0,0,0,0,0,0,0,0,0,0,0,,,,,0.0,,,,,,
127,548100,1744862946903,,,,,,,,,,,,,,,,,,,,,,,,,,,,,,,,,,0,0,0,0,0,0,0,0,0,0,0,0,0,0,0,0,,,,,,,,,,,
128,548120,1744862946923,0.0,135.0,,-0.08,0.04,0.98,0.0,0.0,0.0,0.98,1.09,90.0,3272.0,4.9,3.84,,12.84,0.882,66.4,,38.1,5.0,,,,,,,,,,,,0,0,0,0,0,0,0,0,0,0,0,0,0,0,0,0,,,,,0.0,,,,,,
129,548140,1744862946943,,,,,,,,,,,,,,,,,,,,,,,0.0,0.0,0.0,0.0,0.0,0.0,0.0,0.0,2.26,,,0,0,0,0,0,0,0,0,0,0,0,0,0,0,0,0,0.0,,,,,38.985832,-76.950859,0.04,33.0,3.0,0.9
130,548160,1744862946963,0.0,135.0,,-0.07,0.0,1.05,0.0,0.0,0.0,1.05,1.09,96.0,3147.0,4.9,3.86,,12.91,0.877,66.4,,38.5,5.0,,,,,,,,,,,,0,0,0,0,0,0,0,0,0,0,0,0,0,0,0,0,,,,,0.0,,,,,,
131,548180,1744862946983,,,,,,,,,,,,,,,,,,,,,,,,,,,,,,,,,,0,0,0,0,0,0,0,0,0,0,0,0,0,0,0,0,,,,,,,,,,,
132,548200,1744862946995,0.0,135.0,,-0.09,-0.01,1.09,0.0,0.0,0.0,1.09,1.09,100.0,3142.0,4.8,3.86,,12.91,0.877,66.4,,38.5,5.0,,,,,,,,,,,,0,0,0,0,0,0,0,0,0,0,0,0,0,0,0,0,,,,,0.0,,,,,,
133,548220,1744862947015,,,,,,,,,,,,,,,,,,,,,,,,,,,,,,,,,,0,0,0,0,0,0,0,0,0,0,0,0,0,0,0,0,,,,,,,,,,,
134,548240,1744862947035,0.0,135.0,14.04,-0.11,0.0,1.05,0.0,0.0,0.0,1.06,1.09,97.0,3142.0,4.8,3.86,15.0,12.93,0.872,66.4,156.0,37.8,5.0,0.0,0.0,0.0,0.0,0.0,0.0,0.0,0.0,2.26,0.0,0.0,0,0,0,0,0,0,0,0,0,0,0,0,0,0,0,0,0.0,0.0,0.0,0.0,0.0,38.985832,-76.950859,0.08,35.0,3.0,0.8
135,548260,1744862947055,,,,,,,,,,,,,,,,,,,,,,,,,,,,,,,,,,0,0,0,0,0,0,0,0,0,0,0,0,0,0,0,0,,,,,,,,,,,
136,548280,1744862947075,0.0,135.0,,-0.13,-0.01,0.98,1.0,0.0,0.0,0.99,1.09,91.0,3116.0,4.7,3.86,,12.95,0.912,66.4,,37.8,5.0,,,,,,,,,,,,0,0,0,0,0,0,0,0,0,0,0,0,0,0,0,0,,,,,0.0,,,,,,
137,548300,1744862947099,,,,,,,,,,,,,,,,,,,,,,,,,,,,,,,,,,0,0,0,0,0,0,0,0,0,0,0,0,0,0,0,0,,,,,,,,,,,
138,548320,1744862947119,0.0,135.0,,-0.11,0.01,0.91,1.0,0.0,0.0,0.91,1.09,83.0,3049.0,4.6,3.86,,12.99,0.95,66.4,,37.8,5.0,,,,,,,,,,,,0,0,0,0,0,0,0,0,0,0,0,0,0,0,0,0,,,,,0.0,,,,,,
139,548340,1744862947139,,,,,,,,,,,,,,,,,,,,,,,0.0,0.0,0.0,0.0,0.0,0.0,0.0,0.0,2.26,,,0,0,0,0,0,0,0,0,0,0,0,0,0,0,0,0,0.0,,,,,38.985832,-76.950859,0.07,35.0,3.0,0.8
140,548360,1744862947159,0.0,135.0,,-0.08,0.05,0.88,0.0,0.0,0.0,0.89,1.09,81.0,3092.0,4.7,3.86,,13.05,0.984,66.4,,37.9,5.0,,,,,,,,,,,,0,0,0,0,0,0,0,0,0,0,0,0,0,0,0,0,,,,,0.0,,,,,,
141,548380,1744862947179,,,,,,,,,,,,,,,,,,,,,,,,,,,,,,,,,,0,0,0,0,0,0,0,0,0,0,0,0,0,0,0,0,,,,,,,,,,,
142,548400,1744862947199,0.0,135.0,,-0.11,-0.04,0.95,1.0,0.0,0.0,0.95,1.09,87.0,3378.0,4.8,3.85,,13.05,0.984,66.4,,37.9,5.0,,,,,,,,,,,,0,0,0,0,0,0,0,0,0,0,0,0,0,0,0,0,,,,,0.0,,,,,,
143,548420,1744862947219,,,,,,,,,,,,,,,,,,,,,,,,,,,,,,,,,,0,0,0,0,0,0,0,0,0,0,0,0,0,0,0,0,,,,,,,,,,,
144,548440,1744862947239,0.0,135.0,,-0.09,0.01,0.95,0.0,0.0,0.0,0.96,1.09,87.0,3378.0,4.8,3.85,,12.95,1.003,66.4,,38.5,5.0,0.0,0.0,0.0,0.0,0.0,0.0,0.0,0.0,2.26,,,0,0,0,0,0,0,0,0,0,0,0,0,0,0,0,0,0.0,,,,0.0,38.985832,-76.950859,0.38,35.0,3.0,0.8
145,548460,1744862947259,,,,,,,,,,,,,,,,,,,,,,,,,,,,,,,,,,0,0,0,0,0,0,0,0,0,0,0,0,0,0,0,0,,,,,,,,,,,
146,548480,1744862947279,0.0,135.0,,-0.07,0.04,0.95,0.0,0.0,0.0,0.96,1.09,88.0,3646.0,4.9,3.84,,12.8,1.019,66.4,,38.5,5.0,,,,,,,,,,,,0,0,0,0,0,0,0,0,0,0,0,0,0,0,0,0,,,,,0.0,,,,,,
147,548500,1744862947303,,,,,,,,,,,,,,,,,,,,,,,,,,,,,,,,,,0,0,0,0,0,0,0,0,0,0,0,0,0,0,0,0,,,,,,,,,,,
148,548520,1744862947323,0.0,135.0,,-0.09,0.01,0.98,1.0,0.0,0.0,0.99,1.09,90.0,3742.0,5.0,3.81,,12.6,1.027,66.4,,38.5,5.0,,,,,,,,,,,,0,0,0,0,0,0,0,0,0,0,0,0,0,0,0,0,,,,,0.0,,,,,,
149,548540,1744862947343,,,,,,,,,,,,,,,,,,,,,,,0.0,0.0,0.0,0.0,0.0,0.0,0.0,0.0,2.26,,,0,0,0,0,0,0,0,0,0,0,0,0,0,0,0,0,0.0,,,,,38.985832,-76.950859,0.12,35.0,3.0,0.8
150,548560,1744862947363,0.0,135.0,,-0.11,-0.02,0.97,1.0,0.0,0.0,0.98,1.09,89.0,3806.0,4.9,3.79,,12.57,0.922,66.4,,39.2,5.0,,,,,,,,,,,,0,0,0,0,0,0,0,0,0,0,0,0,0,0,0,0,,,,,0.0,,,,,,
151,548580,1744862947383,,,,,,,,,,,,,,,,,,,,,,,,,,,,,,,,,,0,0,0,0,0,0,0,0,0,0,0,0,0,0,0,0,,,,,,,,,,,
152,548600,1744862947403,0.0,135.0,,-0.1,-0.04,0.96,1.0,0.0,0.0,0.96,1.09,88.0,3898.0,4.9,3.79,,12.57,0.922,66.4,,39.2,5.0,,,,,,,,,,,,0,0,0,0,0,0,0,0,0,0,0,0,0,0,0,0,,,,,0.0,,,,,,
153,548620,1744862947423,,,,,,,,,,,,,,,,,,,,,,,,,,,,,,,,,,0,0,0,0,0,0,0,0,0,0,0,0,0,0,0,0,,,,,,,,,,,
154,548640,1744862947443,0.0,135.0,,-0.07,0.06,0.97,1.0,0.0,0.0,0.98,1.09,89.0,3898.0,4.9,3.79,,12.39,0.871,66.4,,39.3,5.0,0.0,0.0,0.0,0.0,0.0,0.0,0.0,0.0,2.26,,,0,0,0,0,0,0,0,0,0,0,0,0,0,0,0,0,0.0,,,,0.0,38.985832,-76.950859,0.04,35.0,3.0,0.8
155,548660,1744862947463,,,,,,,,,,,,,,,,,,,,,,,,,,,,,,,,,,0,0,0,0,0,0,0,0,0,0,0,0,0,0,0,0,,,,,,,,,,,
156,548680,1744862947483,0.0,135.0,,-0.05,0.09,0.97,0.0,0.0,0.0,0.97,1.09,89.0,3896.0,4.9,3.78,,12.35,0.867,66.4,,39.3,5.0,,,,,,,,,,,,0,0,0,0,0,0,0,0,0,0,0,0,0,0,0,0,,,,,0.0,,,,,,
157,548700,1744862947503,,,,,,,,,,,,,,,,,,,,,,,,,,,,,,,,,,0,0,0,0,0,0,0,0,0,0,0,0,0,0,0,0,,,,,,,,,,,
158,548720,1744862947523,0.0,135.0,,-0.06,0.09,0.93,0.0,0.0,0.0,0.94,1.09,86.0,3801.0,4.9,3.79,,12.31,0.874,66.4,,39.3,5.0,,,,,,,,,,,,0,0,0,0,0,0,0,0,0,0,0,0,0,0,0,0,,,,,0.0,,,,,,
159,548740,1744862947543,,,,,,,,,,,,,,,,,,,,,,,0.0,0.0,0.0,0.0,0.0,0.0,0.0,0.0,2.26,,,0,0,0,0,0,0,0,0,0,0,0,0,0,0,0,0,0.0,,,,,38.985832,-76.950859,0.07,35.0,3.0,0.8
160,548760,1744862947563,0.0,135.0,,-0.09,0.04,0.94,1.0,0.0,0.0,0.95,1.09,87.0,3654.0,4.7,3.8,,12.39,0.874,66.4,,38.8,5.0,,,,,,,,,,,,0,0,0,0,0,0,0,0,0,0,0,0,0,0,0,0,,,,,0.0,,,,,,
161,548780,1744862947583,,,,,,,,,,,,,,,,,,,,,,,,,,,,,,,,,,0,0,0,0,0,0,0,0,0,0,0,0,0,0,0,0,,,,,,,,,,,
162,548800,1744862947603,0.0,135.0,,-0.08,0.03,0.96,1.0,0.0,0.0,0.97,1.09,89.0,3685.0,4.7,3.8,,12.39,0.874,66.4,,38.8,5.0,,,,,,,,,,,,0,0,0,0,0,0,0,0,0,0,0,0,0,0,0,0,,,,,0.0,,,,,,
163,548820,1744862947623,,,,,,,,,,,,,,,,,,,,,,,,,,,,,,,,,,0,0,0,0,0,0,0,0,0,0,0,0,0,0,0,0,,,,,,,,,,,
164,548840,1744862947643,0.0,135.0,,-0.07,0.06,0.95,1.0,0.0,0.0,0.95,1.09,87.0,3685.0,4.7,3.8,,12.43,0.893,66.4,,39.2,5.0,0.0,0.0,0.0,0.0,0.0,0.0,0.0,0.0,2.26,,,0,0,0,0,0,0,0,0,0,0,0,0,0,0,0,0,0.0,,,,0.0,38.985832,-76.950859,0.04,35.0,3.0,0.8
165,548860,1744862947663,,,,,,,,,,,,,,,,,,,,,,,,,,,,,,,,,,0,0,0,0,0,0,0,0,0,0,0,0,0,0,0,0,,,,,,,,,,,
166,548880,1744862947683,0.0,135.0,,-0.06,0.13,0.95,0.0,0.0,0.0,0.96,1.09,88.0,3866.0,4.6,3.79,,12.43,1.003,66.4,,39.2,5.0,,,,,,,,,,,,0,0,0,0,0,0,0,0,0,0,0,0,0,0,0,0,,,,,0.0,,,,,,
167,548900,1744862947702,,,,,,,,,,,,,,,,,,,,,,,,,,,,,,,,,,0,0,0,0,0,0,0,0,0,0,0,0,0,0,0,0,,,,,,,,,,,
168,548920,1744862947722,0.0,135.0,,-0.06,0.12,0.99,-1.0,0.0,1.0,1.0,1.09,91.0,3913.0,4.7,3.78,,12.31,0.971,66.4,,39.2,5.0,,,,,,,,,,,,0,0,0,0,0,0,0,0,0,0,0,0,0,0,0,0,,,,,0.0,,,,,,
169,548940,1744862947742,,,,,,,,,,,,,,,,,,,,,,,0.0,0.0,0.0,0.0,0.0,0.0,0.0,0.0,2.26,,,0,0,0,0,0,0,0,0,0,0,0,0,0,0,0,0,0.0,,,,,38.985832,-76.950859,0.05,35.0,3.0,0.8
170,548960,1744862947762,0.0,135.0,,-0.08,0.06,1.01,0.0,0.0,0.0,1.01,1.09,93.0,3766.0,4.7,3.77,,12.25,0.898,66.4,,39.2,5.0,,,,,,,,,,,,0,0,0,0,0,0,0,0,0,0,0,0,0,0,0,0,,,,,0.0,,,,,,
171,548980,1744862947782,,,,,,,,,,,,,,,,,,,,,,,,,,,,,,,,,,0,0,0,0,0,0,0,0,0,0,0,0,0,0,0,0,,,,,,,,,,,
172,549000,1744862947804,0.0,135.0,,-0.07,0.07,0.99,0.0,0.0,0.0,0.99,1.09,91.0,3680.0,4.8,3.77,,12.25,0.898,66.4,,39.2,5.0,,,,,,,,,,,,0,0,0,0,0,0,0,0,0,0,0,0,0,0,0,0,,,,,0.0,,,,,,
173,549020,1744862947824,,,,,,,,,,,,,,,,,,,,,,,,,,,,,,,,,,0,0,0,0,0,0,0,0,0,0,0,0,0,0,0,0,,,,,,,,,,,
174,549040,1744862947844,0.0,135.0,,-0.06,0.06,0.98,0.0,0.0,0.0,0.99,1.09,90.0,3680.0,4.8,3.77,,12.35,0.886,66.4,,39.3,5.0,0.0,0.0,0.0,0.0,0.0,0.0,0.0,0.0,2.26,,,0,0,0,0,0,0,0,0,0,0,0,0,0,0,0,0,0.0,,,,0.0,38.985832,-76.950859,0.0,35.0,3.0,0.8
175,549060,1744862947864,,,,,,,,,,,,,,,,,,,,,,,,,,,,,,,,,,0,0,0,0,0,0,0,0,0,0,0,0,0,0,0,0,,,,,,,,,,,
176,549080,1744862947884,0.0,135.0,,-0.06,0.03,1.0,0.0,0.0,1.0,1.0,1.09,91.0,3832.0,4.9,3.79,,12.36,0.903,66.4,,39.3,5.0,,,,,,,,,,,,0,0,0,0,0,0,0,0,0,0,0,0,0,0,0,0,,,,,0.0,,,,,,
177,549100,1744862947904,,,,,,,,,,,,,,,,,,,,,,,,,,,,,,,,,,0,0,0,0,0,0,0,0,0,0,0,0,0,0,0,0,,,,,,,,,,,
178,549120,1744862947924,0.0,135.0,,-0.07,0.01,1.02,0.0,0.0,0.0,1.02,1.09,94.0,3774.0,4.9,3.79,,12.36,0.976,66.4,,39.3,5.0,,,,,,,,,,,,0,0,0,0,0,0,0,0,0,0,0,0,0,0,0,0,,,,,0.0,,,,,,
179,549140,1744862947944,,,,,,,,,,,,,,,,,,,,,,,0.0,0.0,0.0,0.0,0.0,0.0,0.0,0.0,2.26,,,0,0,0,0,0,0,0,0,0,0,0,0,0,0,0,0,0.0,,,,,38.985832,-76.950859,0.04,35.0,3.0,0.8
180,549160,1744862947964,0.0,135.0,,-0.06,0.01,1.02,0.0,0.0,1.0,1.02,1.09,94.0,3780.0,4.9,3.79,,12.37,0.936,66.4,,39.3,5.0,,,,,,,,,,,,0,0,0,0,0,0,0,0,0,0,0,0,0,0,0,0,,,,,0.0,,,,,,
181,549180,1744862947984,,,,,,,,,,,,,,,,,,,,,,,,,,,,,,,,,,0,0,0,0,0,0,0,0,0,0,0,0,0,0,0,0,,,,,,,,,,,
182,549200,1744862947996,0.0,135.0,,-0.05,0.01,1.01,0.0,0.0,0.0,1.02,1.09,93.0,3722.0,4.9,3.78,,12.37,0.936,66.4,,39.3,5.0,,,,,,,,,,,,0,0,0,0,0,0,0,0,0,0,0,0,0,0,0,0,,,,,0.0,,,,,,
183,549220,1744862948016,,,,,,,,,,,,,,,,,,,,,,,,,,,,,,,,,,0,0,0,0,0,0,0,0,0,0,0,0,0,0,0,0,,,,,,,,,,,
184,549240,1744862948036,0.0,135.0,14.06,-0.05,-0.02,1.02,0.0,0.0,0.0,1.02,1.09,94.0,3722.0,4.9,3.78,15.0,12.4,0.894,66.4,156.0,39.2,5.0,0.0,0.0,0.0,0.0,0.0,0.0,0.0,0.0,2.26,0.0,0.0,0,0,0,0,0,0,0,0,0,0,0,0,0,0,0,0,0.0,0.0,0.0,0.0,0.0,38.985832,-76.950859,0.04,34.0,3.0,0.9
185,549260,1744862948056,,,,,,,,,,,,,,,,,,,,,,,,,,,,,,,,,,0,0,0,0,0,0,0,0,0,0,0,0,0,0,0,0,,,,,,,,,,,
186,549280,1744862948076,0.0,135.0,,-0.06,-0.03,1.05,0.0,0.0,1.0,1.06,1.09,97.0,3749.0,4.8,3.79,,12.44,0.873,66.4,,39.2,5.0,,,,,,,,,,,,0,0,0,0,0,0,0,0,0,0,0,0,0,0,0,0,,,,,0.0,,,,,,
187,549300,1744862948100,,,,,,,,,,,,,,,,,,,,,,,,,,,,,,,,,,0,0,0,0,0,0,0,0,0,0,0,0,0,0,0,0,,,,,,,,,,,
188,549320,1744862948120,0.0,135.0,,-0.05,-0.03,1.05,0.0,0.0,1.0,1.05,1.09,96.0,3768.0,4.7,3.79,,12.36,0.87,66.4,,39.2,5.0,,,,,,,,,,,,0,0,0,0,0,0,0,0,0,0,0,0,0,0,0,0,,,,,0.0,,,,,,
189,549340,1744862948140,,,,,,,,,,,,,,,,,,,,,,,0.0,0.0,0.0,0.0,0.0,0.0,0.0,0.0,2.26,,,0,0,0,0,0,0,0,0,0,0,0,0,0,0,0,0,0.0,,,,,38.985832,-76.950859,0.07,34.0,3.0,0.9
190,549360,1744862948160,0.0,135.0,,-0.04,-0.03,1.03,1.0,0.0,1.0,1.04,1.09,95.0,3721.0,4.7,3.79,,12.44,0.868,66.4,,39.2,5.0,,,,,,,,,,,,0,0,0,0,0,0,0,0,0,0,0,0,0,0,0,0,,,,,0.0,,,,,,
191,549380,1744862948180,,,,,,,,,,,,,,,,,,,,,,,,,,,,,,,,,,0,0,0,0,0,0,0,0,0,0,0,0,0,0,0,0,,,,,,,,,,,
192,549400,1744862948202,0.0,135.0,,-0.04,-0.03,1.02,1.0,0.0,0.0,1.02,1.09,93.0,3692.0,4.6,3.79,,12.44,0.868,66.4,,39.2,5.0,,,,,,,,,,,,0,0,0,0,0,0,0,0,0,0,0,0,0,0,0,0,,,,,0.0,,,,,,
193,549420,1744862948222,,,,,,,,,,,,,,,,,,,,,,,,,,,,,,,,,,0,0,0,0,0,0,0,0,0,0,0,0,0,0,0,0,,,,,,,,,,,
194,549440,1744862948242,0.0,135.0,,-0.05,-0.06,1.01,1.0,0.0,0.0,1.01,1.09,93.0,3692.0,4.6,3.79,,12.45,0.87,66.4,,39.0,5.0,0.0,0.0,0.0,0.0,0.0,0.0,0.0,0.0,2.26,,,0,0,0,0,0,0,0,0,0,0,0,0,0,0,0,0,0.0,,,,0.0,38.985832,-76.950859,0.0,34.0,3.0,0.9
195,549460,1744862948262,,,,,,,,,,,,,,,,,,,,,,,,,,,,,,,,,,0,0,0,0,0,0,0,0,0,0,0,0,0,0,0,0,,,,,,,,,,,
196,549480,1744862948282,0.0,135.0,,-0.06,-0.1,0.99,1.0,0.0,0.0,1.0,1.09,91.0,3693.0,4.6,3.79,,12.49,0.877,66.4,,39.0,5.0,,,,,,,,,,,,0,0,0,0,0,0,0,0,0,0,0,0,0,0,0,0,,,,,0.0,,,,,,
197,549500,1744862948304,,,,,,,,,,,,,,,,,,,,,,,,,,,,,,,,,,0,0,0,0,0,0,0,0,0,0,0,0,0,0,0,0,,,,,,,,,,,
198,549520,1744862948324,0.0,135.0,,-0.08,-0.16,1.03,1.0,0.0,0.0,1.04,1.09,96.0,3568.0,4.7,3.79,,12.52,0.875,66.4,,39.0,5.0,,,,,,,,,,,,0,0,0,0,0,0,0,0,0,0,0,0,0,0,0,0,,,,,0.0,,,,,,
199,549540,1744862948344,,,,,,,,,,,,,,,,,,,,,,,0.0,0.0,0.0,0.0,0.0,0.0,0.0,0.0,2.26,,,0,0,0,0,0,0,0,0,0,0,0,0,0,0,0,0,0.0,,,,,38.985832,-76.950859,0.07,34.0,3.0,0.9
200,549560,1744862948364,0.0,135.0,,-0.09,-0.13,1.03,0.0,0.0,0.0,1.04,1.09,95.0,3536.0,4.8,3.8,,12.56,0.874,66.4,,38.9,5.0,,,,,,,,,,,,0,0,0,0,0,0,0,0,0,0,0,0,0,0,0,0,,,,,0.0,,,,,,
201,549580,1744862948384,,,,,,,,,,,,,,,,,,,,,,,,,,,,,,,,,,0,0,0,0,0,0,0,0,0,0,0,0,0,0,0,0,,,,,,,,,,,
202,549600,1744862948404,0.0,135.0,,-0.07,-0.09,1.01,0.0,0.0,0.0,1.02,1.09,93.0,3683.0,4.8,3.8,,12.56,0.874,66.4,,38.9,5.0,,,,,,,,,,,,0,0,0,0,0,0,0,0,0,0,0,0,0,0,0,0,,,,,0.0,,,,,,
203,549620,1744862948424,,,,,,,,,,,,,,,,,,,,,,,,,,,,,,,,,,0,0,0,0,0,0,0,0,0,0,0,0,0,0,0,0,,,,,,,,,,,
204,549640,1744862948444,0.0,135.0,,-0.07,-0.04,1.03,0.0,0.0,0.0,1.03,1.09,94.0,3683.0,4.8,3.8,,12.48,0.907,66.4,,38.5,5.0,0.0,0.0,0.0,0.0,0.0,0.0,0.0,0.0,2.26,,,0,0,0,0,0,0,0,0,0,0,0,0,0,0,0,0,0.0,,,,0.0,38.985832,-76.950859,0.04,34.0,3.0,0.9
205,549660,1744862948464,,,,,,,,,,,,,,,,,,,,,,,,,,,,,,,,,,0,0,0,0,0,0,0,0,0,0,0,0,0,0,0,0,,,,,,,,,,,
206,549680,1744862948484,0.0,135.0,,-0.08,-0.01,1.03,0.0,0.0,1.0,1.03,1.09,94.0,3692.0,4.9,3.8,,12.48,0.934,66.4,,38.5,5.0,,,,,,,,,,,,0,0,0,0,0,0,0,0,0,0,0,0,0,0,0,0,,,,,0.0,,,,,,
207,549700,1744862948504,,,,,,,,,,,,,,,,,,,,,,,,,,,,,,,,,,0,0,0,0,0,0,0,0,0,0,0,0,0,0,0,0,,,,,,,,,,,
208,549720,1744862948524,0.0,135.0,,-0.07,-0.0,1.03,0.0,0.0,1.0,1.03,1.09,95.0,3782.0,4.9,3.8,,12.45,0.913,66.4,,38.5,5.0,,,,,,,,,,,,0,0,0,0,0,0,0,0,0,0,0,0,0,0,0,0,,,,,0.0,,,,,,
209,549740,1744862948544,,,,,,,,,,,,,,,,,,,,,,,0.0,0.0,0.0,0.0,0.0,0.0,0.0,0.0,2.26,,,0,0,0,0,0,0,0,0,0,0,0,0,0,0,0,0,0.0,,,,,38.985832,-76.950859,0.05,34.0,3.0,0.9
210,549760,1744862948564,0.0,135.0,,-0.07,0.0,1.02,0.0,0.0,1.0,1.02,1.09,93.0,3768.0,4.9,3.79,,12.45,0.894,66.4,,38.8,5.0,,,,,,,,,,,,0,0,0,0,0,0,0,0,0,0,0,0,0,0,0,0,,,,,0.0,,,,,,
211,549780,1744862948584,,,,,,,,,,,,,,,,,,,,,,,,,,,,,,,,,,0,0,0,0,0,0,0,0,0,0,0,0,0,0,0,0,,,,,,,,,,,
212,549800,1744862948604,0.0,135.0,,-0.07,0.04,1.04,0.0,0.0,1.0,1.04,1.09,95.0,3720.0,4.8,3.79,,12.45,0.894,66.4,,38.8,5.0,,,,,,,,,,,,0,0,0,0,0,0,0,0,0,0,0,0,0,0,0,0,,,,,0.0,,,,,,
213,549820,1744862948624,,,,,,,,,,,,,,,,,,,,,,,,,,,,,,,,,,0,0,0,0,0,0,0,0,0,0,0,0,0,0,0,0,,,,,,,,,,,
214,549840,1744862948644,0.0,135.0,,-0.07,0.05,1.04,0.0,0.0,1.0,1.05,1.09,96.0,3720.0,4.8,3.79,,12.47,0.881,66.4,,38.8,5.0,0.0,0.0,0.0,0.0,0.0,0.0,0.0,0.0,2.26,,,0,0,0,0,0,0,0,0,0,0,0,0,0,0,0,0,0.0,,,,0.0,38.985832,-76.950859,0.05,34.0,3.0,0.9
215,549860,1744862948664,,,,,,,,,,,,,,,,,,,,,,,,,,,,,,,,,,0,0,0,0,0,0,0,0,0,0,0,0,0,0,0,0,,,,,,,,,,,
216,549880,1744862948684,0.0,135.0,,-0.07,0.05,1.04,0.0,0.0,1.0,1.04,1.09,95.0,3758.0,4.7,3.79,,12.4,0.883,66.4,,38.8,5.0,,,,,,,,,,,,0,0,0,0,0,0,0,0,0,0,0,0,0,0,0,0,,,,,0.0,,,,,,
217,549900,1744862948703,,,,,,,,,,,,,,,,,,,,,,,,,,,,,,,,,,0,0,0,0,0,0,0,0,0,0,0,0,0,0,0,0,,,,,,,,,,,
218,549920,1744862948723,0.0,135.0,,-0.08,0.04,1.0,0.0,0.0,0.0,1.01,1.09,92.0,3800.0,4.6,3.79,,12.44,0.887,66.4,,38.8,5.0,,,,,,,,,,,,0,0,0,0,0,0,0,0,0,0,0,0,0,0,0,0,,,,,0.0,,,,,,
219,549940,1744862948743,,,,,,,,,,,,,,,,,,,,,,,0.0,0.0,0.0,0.0,0.0,0.0,0.0,0.0,2.26,,,0,0,0,0,0,0,0,0,0,0,0,0,0,0,0,0,0.0,,,,,38.985832,-76.950859,0.1,34.0,3.0,0.9
220,549960,1744862948763,0.0,135.0,,-0.08,0.09,1.01,0.0,0.0,0.0,1.01,1.09,93.0,3721.0,4.7,3.78,,12.43,0.88,66.4,,38.8,5.0,,,,,,,,,,,,0,0,0,0,0,0,0,0,0,0,0,0,0,0,0,0,,,,,0.0,,,,,,
221,549980,1744862948783,,,,,,,,,,,,,,,,,,,,,,,,,,,,,,,,,,0,0,0,0,0,0,0,0,0,0,0,0,0,0,0,0,,,,,,,,,,,
222,550000,1744862948803,0.0,135.0,,-0.06,0.14,1.01,-1.0,0.0,1.0,1.02,1.09,93.0,3639.0,4.6,3.79,,12.43,0.88,66.4,,38.8,5.0,,,,,,,,,,,,0,0,0,0,0,0,0,0,0,0,0,0,0,0,0,0,,,,,0.0,,,,,,
223,550020,1744862948823,,,,,,,,,,,,,,,,,,,,,,,,,,,,,,,,,,0,0,0,0,0,0,0,0,0,0,0,0,0,0,0,0,,,,,,,,,,,
224,550040,1744862948843,0.0,135.0,,-0.06,0.12,0.95,0.0,0.0,0.0,0.96,1.09,87.0,3639.0,4.6,3.79,,12.44,0.881,66.4,,38.5,5.0,0.0,0.0,0.0,0.0,0.0,0.0,0.0,0.0,2.26,,,0,0,0,0,0,0,0,0,0,0,0,0,0,0,0,0,0.0,,,,0.0,38.985832,-76.950859,0.13,34.0,3.0,0.9
225,550060,1744862948863,,,,,,,,,,,,,,,,,,,,,,,,,,,,,,,,,,0,0,0,0,0,0,0,0,0,0,0,0,0,0,0,0,,,,,,,,,,,
226,550080,1744862948883,0.0,135.0,,-0.09,0.04,1.02,0.0,0.0,0.0,1.03,1.09,94.0,3523.0,4.8,3.79,,12.53,0.886,66.4,,38.5,5.0,,,,,,,,,,,,0,0,0,0,0,0,0,0,0,0,0,0,0,0,0,0,,,,,0.0,,,,,,
227,550100,1744862948903,,,,,,,,,,,,,,,,,,,,,,,,,,,,,,,,,,0,0,0,0,0,0,0,0,0,0,0,0,0,0,0,0,,,,,,,,,,,
228,550120,1744862948923,0.0,135.0,,-0.06,0.14,0.94,0.0,0.0,0.0,0.95,1.09,87.0,3406.0,4.8,3.81,,12.63,0.918,66.4,,38.5,5.0,,,,,,,,,,,,0,0,0,0,0,0,0,0,0,0,0,0,0,0,0,0,,,,,0.0,,,,,,
229,550140,1744862948943,,,,,,,,,,,,,,,,,,,,,,,0.0,0.0,0.0,0.0,0.0,0.0,0.0,0.0,2.26,,,0,0,0,0,0,0,0,0,0,0,0,0,0,0,0,0,0.0,,,,,38.985832,-76.950859,0.04,34.0,3.0,0.9
230,550160,1744862948963,0.0,135.0,,-0.08,0.01,1.02,0.0,0.0,0.0,1.02,1.09,94.0,3319.0,4.8,3.82,,12.75,0.985,66.4,,38.2,5.0,,,,,,,,,,,,0,0,0,0,0,0,0,0,0,0,0,0,0,0,0,0,,,,,0.0,,,,,,
231,550180,1744862948983,,,,,,,,,,,,,,,,,,,,,,,,,,,,,,,,,,0,0,0,0,0,0,0,0,0,0,0,0,0,0,0,0,,,,,,,,,,,
232,550200,1744862948993,0.0,135.0,,-0.09,-0.0,1.07,0.0,0.0,0.0,1.07,1.09,98.0,3120.0,4.8,3.84,,12.75,0.985,66.4,,38.2,5.0,,,,,,,,,,,,0,0,0,0,0,0,0,0,0,0,0,0,0,0,0,0,,,,,0.0,,,,,,
233,550220,1744862949013,,,,,,,,,,,,,,,,,,,,,,,,,,,,,,,,,,0,0,0,0,0,0,0,0,0,0,0,0,0,0,0,0,,,,,,,,,,,
234,550240,1744862949033,0.0,135.0,14.09,-0.11,0.01,1.06,0.0,0.0,0.0,1.07,1.09,98.0,3120.0,4.8,3.84,15.0,12.87,1.025,66.4,156.0,37.2,5.0,0.0,0.0,0.0,0.0,0.0,0.0,0.0,0.0,2.26,0.0,0.0,0,0,0,0,0,0,0,0,0,0,0,0,0,0,0,0,0.0,0.0,0.0,0.0,0.0,38.985832,-76.950859,0.0,35.0,3.0,0.8
235,550260,1744862949053,,,,,,,,,,,,,,,,,,,,,,,,,,,,,,,,,,0,0,0,0,0,0,0,0,0,0,0,0,0,0,0,0,,,,,,,,,,,
236,550280,1744862949073,0.0,135.0,,-0.14,-0.01,1.03,0.0,0.0,0.0,1.04,1.09,95.0,3064.0,4.8,3.86,,12.93,1.03,66.4,,37.2,5.0,,,,,,,,,,,,0,0,0,0,0,0,0,0,0,0,0,0,0,0,0,0,,,,,0.0,,,,,,
237,550300,1744862949099,,,,,,,,,,,,,,,,,,,,,,,,,,,,,,,,,,0,0,0,0,0,0,0,0,0,0,0,0,0,0,0,0,,,,,,,,,,,
238,550320,1744862949119,0.0,135.0,,-0.11,0.04,0.97,0.0,0.0,0.0,0.97,1.09,89.0,3054.0,4.9,3.88,,12.97,1.014,66.4,,37.2,5.0,,,,,,,,,,,,0,0,0,0,0,0,0,0,0,0,0,0,0,0,0,0,,,,,0.0,,,,,,
239,550340,1744862949139,,,,,,,,,,,,,,,,,,,,,,,0.0,0.0,0.0,0.0,0.0,0.0,0.0,0.0,2.26,,,0,0,0,0,0,0,0,0,0,0,0,0,0,0,0,0,0.0,,,,,38.985832,-76.950859,0.13,35.0,3.0,0.8
240,550360,1744862949159,0.0,135.0,,-0.12,-0.04,1.05,0.0,0.0,0.0,1.06,1.09,97.0,3309.0,4.8,3.85,,12.99,1.042,66.4,,37.8,5.0,,,,,,,,,,,,0,0,0,0,0,0,0,0,0,0,0,0,0,0,0,0,,,,,0.0,,,,,,
241,550380,1744862949179,,,,,,,,,,,,,,,,,,,,,,,,,,,,,,,,,,0,0,0,0,0,0,0,0,0,0,0,0,0,0,0,0,,,,,,,,,,,
242,550400,1744862949199,0.0,135.0,,-0.08,0.08,0.98,0.0,0.0,0.0,0.99,1.09,90.0,3457.0,4.7,3.85,,12.99,1.042,66.4,,37.8,5.0,,,,,,,,,,,,0,0,0,0,0,0,0,0,0,0,0,0,0,0,0,0,,,,,0.0,,,,,,
243,550420,1744862949219,,,,,,,,,,,,,,,,,,,,,,,,,,,,,,,,,,0,0,0,0,0,0,0,0,0,0,0,0,0,0,0,0,,,,,,,,,,,
244,550440,1744862949239,0.0,135.0,,-0.11,-0.05,1.04,1.0,0.0,0.0,1.05,1.09,96.0,3457.0,4.7,3.85,,12.87,0.993,66.4,,38.0,5.0,0.0,0.0,0.0,0.0,0.0,0.0,0.0,0.0,2.26,,,0,0,0,0,0,0,0,0,0,0,0,0,0,0,0,0,0.0,,,,0.0,38.985832,-76.950859,0.13,35.0,3.0,0.8
245,550460,1744862949259,,,,,,,,,,,,,,,,,,,,,,,,,,,,,,,,,,0,0,0,0,0,0,0,0,0,0,0,0,0,0,0,0,,,,,,,,,,,
246,550480,1744862949279,0.0,135.0,,-0.08,0.05,0.98,0.0,0.0,0.0,0.99,1.09,90.0,3407.0,4.6,3.84,,12.81,0.917,66.4,,38.0,5.0,,,,,,,,,,,,0,0,0,0,0,0,0,0,0,0,0,0,0,0,0,0,,,,,0.0,,,,,,
247,550500,1744862949303,,,,,,,,,,,,,,,,,,,,,,,,,,,,,,,,,,0,0,0,0,0,0,0,0,0,0,0,0,0,0,0,0,,,,,,,,,,,
248,550520,1744862949323,0.0,135.0,,-0.11,-0.04,1.05,0.0,0.0,0.0,1.06,1.09,96.0,3354.0,4.7,3.84,,12.85,0.91,66.4,,38.0,5.0,,,,,,,,,,,,0,0,0,0,0,0,0,0,0,0,0,0,0,0,0,0,,,,,0.0,,,,,,
249,550540,1744862949343,,,,,,,,,,,,,,,,,,,,,,,0.0,0.0,0.0,0.0,0.0,0.0,0.0,0.0,2.26,,,0,0,0,0,0,0,0,0,0,0,0,0,0,0,0,0,0.0,,,,,38.985832,-76.950859,0.04,35.0,3.0,0.8
250,550560,1744862949363,0.0,135.0,,-0.1,-0.01,0.95,1.0,0.0,0.0,0.96,1.09,88.0,3294.0,4.7,3.84,,12.85,0.93,66.4,,37.6,5.0,,,,,,,,,,,,0,0,0,0,0,0,0,0,0,0,0,0,0,0,0,0,,,,,0.0,,,,,,
251,550580,1744862949383,,,,,,,,,,,,,,,,,,,,,,,,,,,,,,,,,,0,0,0,0,0,0,0,0,0,0,0,0,0,0,0,0,,,,,,,,,,,
252,550600,1744862949403,0.0,135.0,,-0.07,0.06,0.96,0.0,0.0,0.0,0.97,1.09,88.0,3150.0,4.8,3.85,,12.85,0.93,66.4,,37.6,5.0,,,,,,,,,,,,0,0,0,0,0,0,0,0,0,0,0,0,0,0,0,0,,,,,0.0,,,,,,
253,550620,1744862949423,,,,,,,,,,,,,,,,,,,,,,,,,,,,,,,,,,0,0,0,0,0,0,0,0,0,0,0,0,0,0,0,0,,,,,,,,,,,
254,550640,1744862949443,0.0,135.0,,-0.06,0.01,1.02,0.0,0.0,0.0,1.02,1.09,93.0,3150.0,4.8,3.85,,12.93,0.958,66.4,,37.3,5.0,0.0,0.0,0.0,0.0,0.0,0.0,0.0,0.0,2.26,,,0,0,0,0,0,0,0,0,0,0,0,0,0,0,0,0,0.0,,,,0.0,38.985832,-76.950851,0.0,35.0,3.0,0.8
255,550660,1744862949463,,,,,,,,,,,,,,,,,,,,,,,,,,,,,,,,,,0,0,0,0,0,0,0,0,0,0,0,0,0,0,0,0,,,,,,,,,,,
256,550680,1744862949483,0.0,135.0,,-0.07,-0.03,1.07,0.0,0.0,0.0,1.07,1.09,98.0,3120.0,4.9,3.85,,12.96,1.0,66.4,,37.3,5.0,,,,,,,,,,,,0,0,0,0,0,0,0,0,0,0,0,0,0,0,0,0,,,,,0.0,,,,,,
257,550700,1744862949503,,,,,,,,,,,,,,,,,,,,,,,,,,,,,,,,,,0,0,0,0,0,0,0,0,0,0,0,0,0,0,0,0,,,,,,,,,,,
258,550720,1744862949523,0.0,135.0,,-0.09,-0.04,1.12,0.0,0.0,0.0,1.12,1.12,100.0,3103.0,4.9,3.87,,12.99,1.021,66.4,,37.3,5.0,,,,,,,,,,,,0,0,0,0,0,0,0,0,0,0,0,0,0,0,0,0,,,,,0.0,,,,,,
259,550740,1744862949543,,,,,,,,,,,,,,,,,,,,,,,0.0,0.0,0.0,0.0,0.0,0.0,0.0,0.0,2.26,,,0,0,0,0,0,0,0,0,0,0,0,0,0,0,0,0,0.0,,,,,38.985832,-76.950851,0.07,35.0,3.0,0.8
260,550760,1744862949563,0.0,135.0,,-0.11,-0.05,1.13,0.0,0.0,0.0,1.13,1.13,100.0,3058.0,4.9,3.87,,13.0,1.007,66.4,,37.5,5.0,,,,,,,,,,,,0,0,0,0,0,0,0,0,0,0,0,0,0,0,0,0,,,,,0.0,,,,,,
261,550780,1744862949583,,,,,,,,,,,,,,,,,,,,,,,,,,,,,,,,,,0,0,0,0,0,0,0,0,0,0,0,0,0,0,0,0,,,,,,,,,,,
262,550800,1744862949603,0.0,135.0,,-0.13,-0.06,1.08,0.0,0.0,0.0,1.09,1.13,96.0,3054.0,4.8,3.87,,13.0,1.007,66.4,,37.5,5.0,,,,,,,,,,,,0,0,0,0,0,0,0,0,0,0,0,0,0,0,0,0,,,,,0.0,,,,,,
263,550820,1744862949623,,,,,,,,,,,,,,,,,,,,,,,,,,,,,,,,,,0,0,0,0,0,0,0,0,0,0,0,0,0,0,0,0,,,,,,,,,,,
264,550840,1744862949643,0.0,135.0,,-0.13,-0.05,0.99,1.0,0.0,0.0,1.0,1.13,89.0,3054.0,4.8,3.87,,13.07,0.999,66.4,,36.8,5.0,0.0,0.0,0.0,0.0,0.0,0.0,0.0,0.0,2.26,,,0,0,0,0,0,0,0,0,0,0,0,0,0,0,0,0,0.0,,,,0.0,38.985832,-76.950851,0.05,35.0,3.0,0.8
265,550860,1744862949663,,,,,,,,,,,,,,,,,,,,,,,,,,,,,,,,,,0,0,0,0,0,0,0,0,0,0,0,0,0,0,0,0,,,,,,,,,,,
266,550880,1744862949683,0.0,135.0,,-0.12,-0.03,0.93,1.0,0.0,0.0,0.94,1.13,83.0,3101.0,4.8,3.87,,13.01,0.999,66.4,,36.8,5.0,,,,,,,,,,,,0,0,0,0,0,0,0,0,0,0,0,0,0,0,0,0,,,,,0.0,,,,,,
267,550900,1744862949704,,,,,,,,,,,,,,,,,,,,,,,,,,,,,,,,,,0,0,0,0,0,0,0,0,0,0,0,0,0,0,0,0,,,,,,,,,,,
268,550920,1744862949724,0.0,135.0,,-0.11,-0.01,0.87,1.0,0.0,0.0,0.88,1.13,77.0,3078.0,4.7,3.87,,13.03,1.013,66.4,,36.8,5.0,,,,,,,,,,,,0,0,0,0,0,0,0,0,0,0,0,0,0,0,0,0,,,,,0.0,,,,,,
269,550940,1744862949744,,,,,,,,,,,,,,,,,,,,,,,0.0,0.0,0.0,0.0,0.0,0.0,0.0,0.0,2.27,,,0,0,0,0,0,0,0,0,0,0,0,0,0,0,0,0,0.0,,,,,38.985832,-76.950851,0.04,35.0,3.0,0.8
270,550960,1744862949764,0.0,135.0,,-0.08,0.04,0.83,1.0,0.0,0.0,0.84,1.13,74.0,3040.0,4.6,3.87,,13.04,1.031,66.4,,37.1,5.0,,,,,,,,,,,,0,0,0,0,0,0,0,0,0,0,0,0,0,0,0,0,,,,,0.0,,,,,,
271,550980,1744862949784,,,,,,,,,,,,,,,,,,,,,,,,,,,,,,,,,,0,0,0,0,0,0,0,0,0,0,0,0,0,0,0,0,,,,,,,,,,,
272,551000,1744862949802,0.0,135.0,,-0.05,0.09,0.83,0.0,0.0,0.0,0.84,1.13,74.0,3027.0,4.7,3.87,,13.04,1.031,66.4,,37.1,5.0,,,,,,,,,,,,0,0,0,0,0,0,0,0,0,0,0,0,0,0,0,0,,,,,0.0,,,,,,
273,551020,1744862949822,,,,,,,,,,,,,,,,,,,,,,,,,,,,,,,,,,0,0,0,0,0,0,0,0,0,0,0,0,0,0,0,0,,,,,,,,,,,
274,551040,1744862949842,0.0,135.0,,-0.03,0.11,0.85,0.0,0.0,1.0,0.86,1.13,76.0,3027.0,4.7,3.87,,13.11,1.018,66.4,,36.7,5.0,0.0,0.0,0.0,0.0,0.0,0.0,0.0,0.0,2.26,,,0,0,0,0,0,0,0,0,0,0,0,0,0,0,0,0,0.0,,,,0.0,38.985832,-76.950851,0.09,35.0,3.0,0.8
275,551060,1744862949862,,,,,,,,,,,,,,,,,,,,,,,,,,,,,,,,,,0,0,0,0,0,0,0,0,0,0,0,0,0,0,0,0,,,,,,,,,,,
276,551080,1744862949882,0.0,135.0,,-0.02,0.11,0.89,-1.0,0.0,1.0,0.9,1.13,79.0,3068.0,4.7,3.87,,13.07,1.02,66.4,,36.7,5.0,,,,,,,,,,,,0,0,0,0,0,0,0,0,0,0,0,0,0,0,0,0,,,,,0.0,,,,,,
277,551100,1744862949904,,,,,,,,,,,,,,,,,,,,,,,,,,,,,,,,,,0,0,0,0,0,0,0,0,0,0,0,0,0,0,0,0,,,,,,,,,,,
278,551120,1744862949924,0.0,135.0,,-0.01,0.09,0.94,-1.0,0.0,1.0,0.94,1.13,83.0,3063.0,4.7,3.88,,13.11,1.025,66.4,,36.7,5.0,,,,,,,,,,,,0,0,0,0,0,0,0,0,0,0,0,0,0,0,0,0,,,,,0.0,,,,,,
279,551140,1744862949944,,,,,,,,,,,,,,,,,,,,,,,0.0,0.0,0.0,0.0,0.0,0.0,0.0,0.0,2.26,,,0,0,0,0,0,0,0,0,0,0,0,0,0,0,0,0,0.0,,,,,38.985832,-76.950851,0.04,35.0,3.0,0.8
280,551160,1744862949964,0.0,135.0,,-0.01,0.07,0.98,-1.0,0.0,1.0,0.98,1.13,87.0,2987.0,4.8,3.87,,13.15,1.036,66.4,,37.0,5.0,,,,,,,,,,,,0,0,0,0,0,0,0,0,0,0,0,0,0,0,0,0,,,,,0.0,,,,,,
281,551180,1744862949984,,,,,,,,,,,,,,,,,,,,,,,,,,,,,,,,,,0,0,0,0,0,0,0,0,0,0,0,0,0,0,0,0,,,,,,,,,,,
282,551200,1744862949994,0.0,135.0,,-0.01,0.04,1.02,-1.0,0.0,1.0,1.03,1.13,90.0,3009.0,4.9,3.86,,13.15,1.036,66.4,,37.0,5.0,,,,,,,,,,,,0,0,0,0,0,0,0,0,0,0,0,0,0,0,0,0,,,,,0.0,,,,,,
283,551220,1744862950014,,,,,,,,,,,,,,,,,,,,,,,,,,,,,,,,,,0,0,0,0,0,0,0,0,0,0,0,0,0,0,0,0,,,,,,,,,,,
284,551240,1744862950034,0.0,135.0,14.12,-0.02,0.02,1.06,-1.0,0.0,1.0,1.06,1.13,93.0,3009.0,4.9,3.86,15.0,13.15,1.019,66.4,158.0,36.5,5.0,0.0,0.0,0.0,0.0,0.0,0.0,0.0,0.0,2.26,0.0,0.0,0,0,0,0,0,0,0,0,0,0,0,0,0,0,0,0,0.0,0.0,0.0,0.0,0.0,38.985832,-76.950851,0.0,33.0,3.0,0.9
285,551260,1744862950054,,,,,,,,,,,,,,,,,,,,,,,,,,,,,,,,,,0,0,0,0,0,0,0,0,0,0,0,0,0,0,0,0,,,,,,,,,,,
286,551280,1744862950074,0.0,135.0,,-0.01,0.01,1.07,-1.0,0.0,1.0,1.07,1.13,95.0,2990.0,4.8,3.88,,13.15,1.008,66.4,,36.5,5.0,,,,,,,,,,,,0,0,0,0,0,0,0,0,0,0,0,0,0,0,0,0,,,,,0.0,,,,,,
287,551300,1744862950102,,,,,,,,,,,,,,,,,,,,,,,,,,,,,,,,,,0,0,0,0,0,0,0,0,0,0,0,0,0,0,0,0,,,,,,,,,,,
288,551320,1744862950122,0.0,135.0,,-0.01,0.01,1.09,-1.0,0.0,1.0,1.09,1.13,96.0,2995.0,4.9,3.87,,13.19,1.007,66.4,,36.5,5.0,,,,,,,,,,,,0,0,0,0,0,0,0,0,0,0,0,0,0,0,0,0,,,,,0.0,,,,,,
289,551340,1744862950142,,,,,,,,,,,,,,,,,,,,,,,0.0,0.0,0.0,0.0,0.0,0.0,0.0,0.0,2.26,,,0,0,0,0,0,0,0,0,0,0,0,0,0,0,0,0,0.0,,,,,38.985832,-76.950851,0.07,33.0,3.0,0.9
290,551360,1744862950162,0.0,135.0,,-0.02,-0.01,1.17,-1.0,0.0,2.0,1.17,1.17,100.0,3156.0,4.9,3.88,,13.12,1.015,66.4,,37.0,5.0,,,,,,,,,,,,0,0,0,0,0,0,0,0,0,0,0,0,0,0,0,0,,,,,0.0,,,,,,
291,551380,1744862950182,,,,,,,,,,,,,,,,,,,,,,,,,,,,,,,,,,0,0,0,0,0,0,0,0,0,0,0,0,0,0,0,0,,,,,,,,,,,
292,551400,1744862950200,0.0,135.0,,-0.01,0.11,1.07,-2.0,0.0,2.0,1.07,1.17,92.0,3390.0,4.8,3.87,,13.12,1.015,66.4,,37.0,5.0,,,,,,,,,,,,0,0,0,0,0,0,0,0,0,0,0,0,0,0,0,0,,,,,0.0,,,,,,
293,551420,1744862950220,,,,,,,,,,,,,,,,,,,,,,,,,,,,,,,,,,0,0,0,0,0,0,0,0,0,0,0,0,0,0,0,0,,,,,,,,,,,
294,551440,1744862950240,0.0,135.0,,-0.04,-0.02,1.11,-1.0,0.0,1.0,1.11,1.17,95.0,3390.0,4.8,3.87,,13.04,1.038,66.4,,37.7,5.0,0.0,0.0,0.0,0.0,0.0,0.0,0.0,0.0,2.26,,,0,0,0,0,0,0,0,0,0,0,0,0,0,0,0,0,0.0,,,,0.0,38.985832,-76.950851,0.08,33.0,3.0,0.9
295,551460,1744862950260,,,,,,,,,,,,,,,,,,,,,,,,,,,,,,,,,,0,0,0,0,0,0,0,0,0,0,0,0,0,0,0,0,,,,,,,,,,,
296,551480,1744862950280,0.0,135.0,,-0.05,-0.03,1.12,-1.0,0.0,1.0,1.12,1.17,96.0,3504.0,4.7,3.84,,12.88,0.963,66.4,,37.7,5.0,,,,,,,,,,,,0,0,0,0,0,0,0,0,0,0,0,0,0,0,0,0,,,,,0.0,,,,,,
297,551500,1744862950304,,,,,,,,,,,,,,,,,,,,,,,,,,,,,,,,,,0,0,0,0,0,0,0,0,0,0,0,0,0,0,0,0,,,,,,,,,,,
298,551520,1744862950324,0.0,135.0,,-0.05,0.01,1.07,-1.0,0.0,1.0,1.07,1.17,92.0,3696.0,4.6,3.83,,12.72,0.905,66.4,,37.7,5.0,,,,,,,,,,,,0,0,0,0,0,0,0,0,0,0,0,0,0,0,0,0,,,,,0.0,,,,,,
299,551540,1744862950344,,,,,,,,,,,,,,,,,,,,,,,0.0,0.0,0.0,0.0,0.0,0.0,0.0,0.0,2.26,,,0,0,0,0,0,0,0,0,0,0,0,0,0,0,0,0,0.0,,,,,38.985832,-76.950851,0.11,33.0,3.0,0.9
300,551560,1744862950364,0.0,135.0,,-0.06,0.06,1.07,-2.0,0.0,1.0,1.07,1.17,92.0,3752.0,4.6,3.8,,12.6,0.896,66.4,,38.1,5.0,,,,,,,,,,,,0,0,0,0,0,0,0,0,0,0,0,0,0,0,0,0,,,,,0.0,,,,,,
301,551580,1744862950384,,,,,,,,,,,,,,,,,,,,,,,,,,,,,,,,,,0,0,0,0,0,0,0,0,0,0,0,0,0,0,0,0,,,,,,,,,,,
302,551600,1744862950404,0.0,135.0,,-0.06,0.04,1.07,-2.0,0.0,1.0,1.07,1.17,92.0,3709.0,4.7,3.8,,12.6,0.896,66.4,,38.1,5.0,,,,,,,,,,,,0,0,0,0,0,0,0,0,0,0,0,0,0,0,0,0,,,,,0.0,,,,,,
303,551620,1744862950424,,,,,,,,,,,,,,,,,,,,,,,,,,,,,,,,,,0,0,0,0,0,0,0,0,0,0,0,0,0,0,0,0,,,,,,,,,,,
304,551640,1744862950444,0.0,135.0,,-0.04,0.08,1.04,-2.0,0.0,1.0,1.04,1.17,89.0,3709.0,4.7,3.8,,12.49,0.911,66.4,,37.9,5.0,0.0,0.0,0.0,0.0,0.0,0.0,0.0,0.0,2.26,,,0,0,0,0,0,0,0,0,0,0,0,0,0,0,0,0,0.0,,,,0.0,38.985832,-76.950851,0.07,33.0,3.0,0.9
305,551660,1744862950464,,,,,,,,,,,,,,,,,,,,,,,,,,,,,,,,,,0,0,0,0,0,0,0,0,0,0,0,0,0,0,0,0,,,,,,,,,,,
306,551680,1744862950484,0.0,135.0,,-0.05,0.03,1.0,-1.0,0.0,1.0,1.0,1.17,86.0,3582.0,4.7,3.8,,12.53,0.928,66.4,,37.9,5.0,,,,,,,,,,,,0,0,0,0,0,0,0,0,0,0,0,0,0,0,0,0,,,,,0.0,,,,,,
307,551700,1744862950504,,,,,,,,,,,,,,,,,,,,,,,,,,,,,,,,,,0,0,0,0,0,0,0,0,0,0,0,0,0,0,0,0,,,,,,,,,,,
308,551720,1744862950524,0.0,135.0,,-0.08,-0.04,1.08,-1.0,0.0,1.0,1.08,1.17,93.0,3495.0,4.8,3.8,,12.61,0.939,66.4,,37.9,5.0,,,,,,,,,,,,0,0,0,0,0,0,0,0,0,0,0,0,0,0,0,0,,,,,0.0,,,,,,
309,551740,1744862950544,,,,,,,,,,,,,,,,,,,,,,,0.0,0.0,0.0,0.0,0.0,0.0,0.0,0.0,2.26,,,0,0,0,0,0,0,0,0,0,0,0,0,0,0,0,0,0.0,,,,,38.985832,-76.950851,0.13,33.0,3.0,0.9
310,551760,1744862950564,0.0,135.0,,-0.06,0.07,0.99,-1.0,0.0,1.0,1.0,1.17,85.0,3338.0,4.9,3.82,,12.69,1.0,66.4,,37.5,5.0,,,,,,,,,,,,0,0,0,0,0,0,0,0,0,0,0,0,0,0,0,0,,,,,0.0,,,,,,
311,551780,1744862950584,,,,,,,,,,,,,,,,,,,,,,,,,,,,,,,,,,0,0,0,0,0,0,0,0,0,0,0,0,0,0,0,0,,,,,,,,,,,
312,551800,1744862950604,0.0,135.0,,-0.06,0.05,1.03,-1.0,0.0,1.0,1.03,1.17,88.0,3211.0,4.9,3.84,,12.69,1.0,66.4,,37.5,5.0,,,,,,,,,,,,0,0,0,0,0,0,0,0,0,0,0,0,0,0,0,0,,,,,0.0,,,,,,
313,551820,1744862950624,,,,,,,,,,,,,,,,,,,,,,,,,,,,,,,,,,0,0,0,0,0,0,0,0,0,0,0,0,0,0,0,0,,,,,,,,,,,
314,551840,1744862950644,0.0,135.0,,-0.05,0.01,1.08,-1.0,0.0,1.0,1.09,1.17,93.0,3211.0,4.9,3.84,,12.85,1.036,66.4,,36.8,5.0,0.0,0.0,0.0,0.0,0.0,0.0,0.0,0.0,2.26,,,0,0,0,0,0,0,0,0,0,0,0,0,0,0,0,0,0.0,,,,0.0,38.985832,-76.950851,0.05,33.0,3.0,0.9
315,551860,1744862950664,,,,,,,,,,,,,,,,,,,,,,,,,,,,,,,,,,0,0,0,0,0,0,0,0,0,0,0,0,0,0,0,0,,,,,,,,,,,
316,551880,1744862950684,0.0,135.0,,-0.07,-0.0,1.13,-1.0,0.0,1.0,1.13,1.17,97.0,3142.0,4.9,3.86,,12.89,1.032,66.4,,36.8,5.0,,,,,,,,,,,,0,0,0,0,0,0,0,0,0,0,0,0,0,0,0,0,,,,,0.0,,,,,,
317,551900,1744862950703,,,,,,,,,,,,,,,,,,,,,,,,,,,,,,,,,,0,0,0,0,0,0,0,0,0,0,0,0,0,0,0,0,,,,,,,,,,,
318,551920,1744862950723,0.0,135.0,,-0.09,-0.0,1.16,0.0,0.0,0.0,1.16,1.17,99.0,3045.0,4.9,3.86,,12.95,1.003,66.4,,36.8,5.0,,,,,,,,,,,,0,0,0,0,0,0,0,0,0,0,0,0,0,0,0,0,,,,,0.0,,,,,,
319,551940,1744862950743,,,,,,,,,,,,,,,,,,,,,,,0.0,0.0,0.0,0.0,0.0,0.0,0.0,0.0,2.26,,,0,0,0,0,0,0,0,0,0,0,0,0,0,0,0,0,0.0,,,,,38.985832,-76.950851,0.04,33.0,3.0,0.9
320,551960,1744862950763,0.0,135.0,,-0.12,-0.01,1.18,0.0,0.0,0.0,1.18,1.18,100.0,2990.0,4.9,3.87,,13.08,0.974,66.4,,36.9,5.0,,,,,,,,,,,,0,0,0,0,0,0,0,0,0,0,0,0,0,0,0,0,,,,,0.0,,,,,,
321,551980,1744862950783,,,,,,,,,,,,,,,,,,,,,,,,,,,,,,,,,,0,0,0,0,0,0,0,0,0,0,0,0,0,0,0,0,,,,,,,,,,,
322,552000,1744862950803,0.0,135.0,,-0.14,-0.02,1.21,0.0,0.0,0.0,1.22,1.22,100.0,2978.0,4.7,3.88,,13.08,0.974,66.4,,36.9,5.0,,,,,,,,,,,,0,0,0,0,0,0,0,0,0,0,0,0,0,0,0,0,,,,,0.0,,,,,,
323,552020,1744862950823,,,,,,,,,,,,,,,,,,,,,,,,,,,,,,,,,,0,0,0,0,0,0,0,0,0,0,0,0,0,0,0,0,,,,,,,,,,,
324,552040,1744862950843,0.0,135.0,,-0.15,-0.03,1.25,0.0,0.0,0.0,1.26,1.26,100.0,2978.0,4.7,3.88,,13.13,0.968,66.4,,36.5,5.0,0.0,0.0,0.0,0.0,0.0,0.0,0.0,0.0,2.26,,,0,0,0,0,0,0,0,0,0,0,0,0,0,0,0,0,0.0,,,,0.0,38.985832,-76.950851,0.04,33.0,3.0,0.9
325,552060,1744862950863,,,,,,,,,,,,,,,,,,,,,,,,,,,,,,,,,,0,0,0,0,0,0,0,0,0,0,0,0,0,0,0,0,,,,,,,,,,,
326,552080,1744862950883,0.0,135.0,,-0.15,-0.06,1.3,0.0,0.0,0.0,1.31,1.31,100.0,2965.0,4.6,3.88,,13.17,0.971,66.4,,36.5,5.0,,,,,,,,,,,,0,0,0,0,0,0,0,0,0,0,0,0,0,0,0,0,,,,,0.0,,,,,,
327,552100,1744862950903,,,,,,,,,,,,,,,,,,,,,,,,,,,,,,,,,,0,0,0,0,0,0,0,0,0,0,0,0,0,0,0,0,,,,,,,,,,,
328,552120,1744862950923,0.0,135.0,,-0.14,-0.09,1.32,0.0,0.0,0.0,1.33,1.33,100.0,2954.0,4.6,3.88,,13.2,0.981,66.4,,36.6,5.0,,,,,,,,,,,,0,0,0,0,0,0,0,0,0,0,0,0,0,0,0,0,,,,,0.0,,,,,,
329,552140,1744862950943,,,,,,,,,,,,,,,,,,,,,,,0.0,0.0,0.0,0.0,0.0,0.0,0.0,0.0,2.26,,,0,0,0,0,0,0,0,0,0,0,0,0,0,0,0,0,0.0,,,,,38.985832,-76.950851,0.07,33.0,3.0,0.9
330,552160,1744862950963,0.0,135.0,,-0.13,-0.11,1.33,0.0,0.0,0.0,1.34,1.34,100.0,2953.0,4.7,3.88,,13.24,0.982,66.4,,36.6,5.0,,,,,,,,,,,,0,0,0,0,0,0,0,0,0,0,0,0,0,0,0,0,,,,,0.0,,,,,,
331,552180,1744862950983,,,,,,,,,,,,,,,,,,,,,,,,,,,,,,,,,,0,0,0,0,0,0,0,0,0,0,0,0,0,0,0,0,,,,,,,,,,,
332,552200,1744862950995,0.0,135.0,,-0.12,-0.11,1.33,0.0,0.0,1.0,1.34,1.34,100.0,2953.0,4.7,3.88,,13.2,0.982,66.4,,36.6,5.0,,,,,,,,,,,,0,0,0,0,0,0,0,0,0,0,0,0,0,0,0,0,,,,,0.0,,,,,,
333,552220,1744862951015,,,,,,,,,,,,,,,,,,,,,,,,,,,,,,,,,,0,0,0,0,0,0,0,0,0,0,0,0,0,0,0,0,,,,,,,,,,,
334,552240,1744862951035,0.0,135.0,14.14,-0.11,-0.12,1.34,0.0,0.0,1.0,1.35,1.35,100.0,3049.0,4.9,3.87,15.0,13.2,0.97,66.4,158.0,36.3,5.0,0.0,0.0,0.0,0.0,0.0,0.0,0.0,0.0,2.26,0.0,0.0,0,0,0,0,0,0,0,0,0,0,0,0,0,0,0,0,0.0,0.0,0.0,0.0,0.0,38.985832,-76.950851,0.05,33.0,3.0,0.9
335,552260,1744862951055,,,,,,,,,,,,,,,,,,,,,,,,,,,,,,,,,,0,0,0,0,0,0,0,0,0,0,0,0,0,0,0,0,,,,,,,,,,,
336,552280,1744862951075,0.0,135.0,,-0.11,-0.14,1.35,0.0,0.0,1.0,1.36,1.36,100.0,3049.0,4.9,3.87,,13.16,0.979,66.4,,36.3,5.0,,,,,,,,,,,,0,0,0,0,0,0,0,0,0,0,0,0,0,0,0,0,,,,,0.0,,,,,,
337,552300,1744862951101,,,,,,,,,,,,,,,,,,,,,,,,,,,,,,,,,,0,0,0,0,0,0,0,0,0,0,0,0,0,0,0,0,,,,,,,,,,,
338,552320,1744862951121,0.0,135.0,,-0.11,-0.15,1.38,0.0,0.0,1.0,1.39,1.39,100.0,3048.0,4.9,3.88,,13.12,0.992,66.4,,36.8,5.0,,,,,,,,,,,,0,0,0,0,0,0,0,0,0,0,0,0,0,0,0,0,,,,,0.0,,,,,,
339,552340,1744862951141,,,,,,,,,,,,,,,,,,,,,,,0.0,0.0,0.0,0.0,0.0,0.0,0.0,0.0,2.26,,,0,0,0,0,0,0,0,0,0,0,0,0,0,0,0,0,0.0,,,,,38.985832,-76.950851,0.08,33.0,3.0,0.9
340,552360,1744862951161,0.0,135.0,,-0.12,-0.15,1.39,0.0,0.0,1.0,1.41,1.41,100.0,3069.0,4.9,3.87,,13.12,1.007,66.4,,36.8,5.0,,,,,,,,,,,,0,0,0,0,0,0,0,0,0,0,0,0,0,0,0,0,,,,,0.0,,,,,,
341,552380,1744862951181,,,,,,,,,,,,,,,,,,,,,,,,,,,,,,,,,,0,0,0,0,0,0,0,0,0,0,0,0,0,0,0,0,,,,,,,,,,,
342,552400,1744862951199,0.0,135.0,,-0.14,-0.15,1.35,0.0,0.0,0.0,1.36,1.41,97.0,3155.0,4.9,3.88,,13.05,1.026,66.4,,36.8,5.0,,,,,,,,,,,,0,0,0,0,0,0,0,0,0,0,0,0,0,0,0,0,,,,,0.0,,,,,,
343,552420,1744862951219,,,,,,,,,,,,,,,,,,,,,,,,,,,,,,,,,,0,0,0,0,0,0,0,0,0,0,0,0,0,0,0,0,,,,,,,,,,,
344,552440,1744862951239,0.0,135.0,,-0.14,-0.13,1.24,0.0,0.0,0.0,1.25,1.41,89.0,3121.0,4.9,3.86,,13.05,1.026,66.4,,36.6,5.0,0.0,0.0,0.0,0.0,0.0,0.0,0.0,0.0,2.26,,,0,0,0,0,0,0,0,0,0,0,0,0,0,0,0,0,0.0,,,,0.0,38.985832,-76.950851,0.11,33.0,3.0,0.9
345,552460,1744862951259,,,,,,,,,,,,,,,,,,,,,,,,,,,,,,,,,,0,0,0,0,0,0,0,0,0,0,0,0,0,0,0,0,,,,,,,,,,,
346,552480,1744862951279,0.0,135.0,,-0.13,-0.1,1.13,1.0,0.0,0.0,1.14,1.41,81.0,3121.0,4.9,3.86,,13.04,1.035,66.4,,36.6,5.0,,,,,,,,,,,,0,0,0,0,0,0,0,0,0,0,0,0,0,0,0,0,,,,,0.0,,,,,,
347,552500,1744862951303,,,,,,,,,,,,,,,,,,,,,,,,,,,,,,,,,,0,0,0,0,0,0,0,0,0,0,0,0,0,0,0,0,,,,,,,,,,,
348,552520,1744862951323,0.0,135.0,,-0.09,-0.05,1.08,0.0,0.0,0.0,1.09,1.41,77.0,3080.0,4.8,3.87,,13.05,1.038,66.4,,36.5,5.0,,,,,,,,,,,,0,0,0,0,0,0,0,0,0,0,0,0,0,0,0,0,,,,,0.0,,,,,,
349,552540,1744862951343,,,,,,,,,,,,,,,,,,,,,,,0.0,0.0,0.0,0.0,0.0,0.0,0.0,0.0,2.26,,,0,0,0,0,0,0,0,0,0,0,0,0,0,0,0,0,0.0,,,,,38.985832,-76.950851,0.14,33.0,3.0,0.9
350,552560,1744862951363,0.0,135.0,,-0.06,-0.01,1.09,0.0,0.0,1.0,1.09,1.41,78.0,3057.0,4.7,3.87,,13.05,1.036,66.4,,36.5,5.0,,,,,,,,,,,,0,0,0,0,0,0,0,0,0,0,0,0,0,0,0,0,,,,,0.0,,,,,,
351,552580,1744862951383,,,,,,,,,,,,,,,,,,,,,,,,,,,,,,,,,,0,0,0,0,0,0,0,0,0,0,0,0,0,0,0,0,,,,,,,,,,,
352,552600,1744862951403,0.0,135.0,,-0.04,-0.02,1.12,0.0,0.0,1.0,1.12,1.41,80.0,3073.0,4.6,3.87,,13.04,1.032,66.4,,36.5,5.0,,,,,,,,,,,,0,0,0,0,0,0,0,0,0,0,0,0,0,0,0,0,,,,,0.0,,,,,,
353,552620,1744862951423,,,,,,,,,,,,,,,,,,,,,,,,,,,,,,,,,,0,0,0,0,0,0,0,0,0,0,0,0,0,0,0,0,,,,,,,,,,,
354,552640,1744862951443,0.0,135.0,,-0.03,-0.05,1.16,-1.0,0.0,1.0,1.16,1.41,83.0,3062.0,4.6,3.88,,13.04,1.032,66.4,,36.9,5.0,0.0,0.0,0.0,0.0,0.0,0.0,0.0,0.0,2.26,,,0,0,0,0,0,0,0,0,0,0,0,0,0,0,0,0,0.0,,,,0.0,38.985832,-76.950851,0.07,33.0,3.0,0.9
355,552660,1744862951463,,,,,,,,,,,,,,,,,,,,,,,,,,,,,,,,,,0,0,0,0,0,0,0,0,0,0,0,0,0,0,0,0,,,,,,,,,,,
356,552680,1744862951483,0.0,135.0,,-0.03,-0.08,1.19,-1.0,0.0,1.0,1.19,1.41,85.0,3062.0,4.6,3.88,,13.08,1.027,66.4,,36.9,5.0,,,,,,,,,,,,0,0,0,0,0,0,0,0,0,0,0,0,0,0,0,0,,,,,0.0,,,,,,
357,552700,1744862951503,,,,,,,,,,,,,,,,,,,,,,,,,,,,,,,,,,0,0,0,0,0,0,0,0,0,0,0,0,0,0,0,0,,,,,,,,,,,
358,552720,1744862951523,0.0,135.0,,-0.03,-0.1,1.22,-1.0,0.0,1.0,1.22,1.41,87.0,2966.0,4.6,3.87,,13.13,1.018,66.4,,36.4,5.0,,,,,,,,,,,,0,0,0,0,0,0,0,0,0,0,0,0,0,0,0,0,,,,,0.0,,,,,,
359,552740,1744862951543,,,,,,,,,,,,,,,,,,,,,,,0.0,0.0,0.0,0.0,0.0,0.0,0.0,0.0,2.26,,,0,0,0,0,0,0,0,0,0,0,0,0,0,0,0,0,0.0,,,,,38.985832,-76.950851,0.11,33.0,3.0,0.9
360,552760,1744862951563,0.0,135.0,,-0.03,-0.12,1.25,-1.0,0.0,1.0,1.25,1.41,89.0,2952.0,4.7,3.88,,13.16,1.004,66.4,,36.4,5.0,,,,,,,,,,,,0,0,0,0,0,0,0,0,0,0,0,0,0,0,0,0,,,,,0.0,,,,,,
361,552780,1744862951583,,,,,,,,,,,,,,,,,,,,,,,,,,,,,,,,,,0,0,0,0,0,0,0,0,0,0,0,0,0,0,0,0,,,,,,,,,,,
362,552800,1744862951603,0.0,135.0,,-0.03,-0.13,1.28,-1.0,0.0,1.0,1.29,1.41,92.0,3070.0,4.8,3.88,,13.16,1.004,66.4,,36.4,5.0,,,,,,,,,,,,0,0,0,0,0,0,0,0,0,0,0,0,0,0,0,0,,,,,0.0,,,,,,
363,552820,1744862951623,,,,,,,,,,,,,,,,,,,,,,,,,,,,,,,,,,0,0,0,0,0,0,0,0,0,0,0,0,0,0,0,0,,,,,,,,,,,
364,552840,1744862951643,0.0,135.0,,-0.05,-0.14,1.31,-1.0,0.0,1.0,1.32,1.41,94.0,3070.0,4.8,3.88,,13.12,0.997,66.4,,36.7,5.0,0.0,0.0,0.0,0.0,0.0,0.0,0.0,0.0,2.26,,,0,0,0,0,0,0,0,0,0,0,0,0,0,0,0,0,0.0,,,,0.0,38.985832,-76.950851,0.09,33.0,3.0,0.9
365,552860,1744862951663,,,,,,,,,,,,,,,,,,,,,,,,,,,,,,,,,,0,0,0,0,0,0,0,0,0,0,0,0,0,0,0,0,,,,,,,,,,,
366,552880,1744862951683,0.0,135.0,,-0.06,-0.16,1.33,0.0,0.0,1.0,1.34,1.41,95.0,3011.0,4.8,3.88,,13.16,1.001,66.4,,36.7,5.0,,,,,,,,,,,,0,0,0,0,0,0,0,0,0,0,0,0,0,0,0,0,,,,,0.0,,,,,,
367,552900,1744862951704,,,,,,,,,,,,,,,,,,,,,,,,,,,,,,,,,,0,0,0,0,0,0,0,0,0,0,0,0,0,0,0,0,,,,,,,,,,,
368,552920,1744862951724,0.0,135.0,,-0.05,-0.09,1.22,-1.0,0.0,1.0,1.22,1.41,87.0,3302.0,4.8,3.87,,13.11,1.011,66.4,,36.8,5.0,,,,,,,,,,,,0,0,0,0,0,0,0,0,0,0,0,0,0,0,0,0,,,,,0.0,,,,,,
369,552940,1744862951744,,,,,,,,,,,,,,,,,,,,,,,0.0,0.0,0.0,0.0,0.0,0.0,0.0,0.0,2.26,,,0,0,0,0,0,0,0,0,0,0,0,0,0,0,0,0,0.0,,,,,38.985832,-76.950851,0.15,33.0,3.0,0.9
370,552960,1744862951764,0.0,135.0,,-0.08,-0.17,1.27,0.0,0.0,1.0,1.29,1.41,91.0,3351.0,4.9,3.85,,13.0,1.079,66.4,,36.8,5.0,,,,,,,,,,,,0,0,0,0,0,0,0,0,0,0,0,0,0,0,0,0,,,,,0.0,,,,,,
371,552980,1744862951784,,,,,,,,,,,,,,,,,,,,,,,,,,,,,,,,,,0,0,0,0,0,0,0,0,0,0,0,0,0,0,0,0,,,,,,,,,,,
372,553000,1744862951802,0.0,135.0,,-0.09,-0.14,1.2,0.0,0.0,0.0,1.21,1.41,86.0,3193.0,4.8,3.85,,12.96,1.037,66.4,,36.8,5.0,,,,,,,,,,,,0,0,0,0,0,0,0,0,0,0,0,0,0,0,0,0,,,,,0.0,,,,,,
373,553020,1744862951822,,,,,,,,,,,,,,,,,,,,,,,,,,,,,,,,,,0,0,0,0,0,0,0,0,0,0,0,0,0,0,0,0,,,,,,,,,,,
374,553040,1744862951842,0.0,135.0,,-0.08,-0.11,1.09,0.0,0.0,0.0,1.1,1.41,78.0,3104.0,4.7,3.86,,12.96,1.037,66.4,,36.8,5.0,0.0,0.0,0.0,0.0,0.0,0.0,0.0,0.0,2.26,,,0,0,0,0,0,0,0,0,0,0,0,0,0,0,0,0,0.0,,,,0.0,38.985832,-76.950851,0.57,33.0,3.0,0.9
375,553060,1744862951862,,,,,,,,,,,,,,,,,,,,,,,,,,,,,,,,,,0,0,0,0,0,0,0,0,0,0,0,0,0,0,0,0,,,,,,,,,,,
376,553080,1744862951882,0.0,135.0,,-0.05,-0.04,1.06,0.0,0.0,1.0,1.06,1.41,76.0,3104.0,4.7,3.86,,13.01,0.958,66.4,,36.8,5.0,,,,,,,,,,,,0,0,0,0,0,0,0,0,0,0,0,0,0,0,0,0,,,,,0.0,,,,,,
377,553100,1744862951902,,,,,,,,,,,,,,,,,,,,,,,,,,,,,,,,,,0,0,0,0,0,0,0,0,0,0,0,0,0,0,0,0,,,,,,,,,,,
378,553120,1744862951922,0.0,135.0,,-0.03,-0.04,1.08,-1.0,0.0,1.0,1.08,1.41,77.0,3122.0,4.6,3.87,,13.0,0.93,66.4,,36.5,5.0,,,,,,,,,,,,0,0,0,0,0,0,0,0,0,0,0,0,0,0,0,0,,,,,0.0,,,,,,
379,553140,1744862951942,,,,,,,,,,,,,,,,,,,,,,,0.0,0.0,0.0,0.0,0.0,0.0,0.0,0.0,2.26,,,0,0,0,0,0,0,0,0,0,0,0,0,0,0,0,0,0.0,,,,,38.985832,-76.950851,0.29,33.0,3.0,0.9
380,553160,1744862951962,0.0,135.0,,-0.02,-0.07,1.13,-1.0,0.0,1.0,1.13,1.41,80.0,3101.0,4.6,3.87,,13.05,0.947,66.4,,36.5,5.0,,,,,,,,,,,,0,0,0,0,0,0,0,0,0,0,0,0,0,0,0,0,,,,,0.0,,,,,,
381,553180,1744862951982,,,,,,,,,,,,,,,,,,,,,,,,,,,,,,,,,,0,0,0,0,0,0,0,0,0,0,0,0,0,0,0,0,,,,,,,,,,,
382,553200,1744862951992,0.0,135.0,,-0.04,-0.09,1.17,0.0,0.0,1.0,1.18,1.41,84.0,3086.0,4.6,3.86,,13.05,0.947,66.4,,36.5,5.0,,,,,,,,,,,,0,0,0,0,0,0,0,0,0,0,0,0,0,0,0,0,,,,,0.0,,,,,,
383,553220,1744862952012,,,,,,,,,,,,,,,,,,,,,,,,,,,,,,,,,,0,0,0,0,0,0,0,0,0,0,0,0,0,0,0,0,,,,,,,,,,,
384,553240,1744862952032,0.0,135.0,14.1,-0.07,-0.1,1.17,0.0,0.0,1.0,1.18,1.41,84.0,3151.0,4.6,3.86,15.0,13.05,0.966,66.4,158.0,36.8,5.0,0.0,0.0,0.0,0.0,0.0,0.0,0.0,0.0,2.26,0.0,0.0,0,0,0,0,0,0,0,0,0,0,0,0,0,0,0,0,0.0,0.0,0.0,0.0,0.0,38.985832,-76.950851,0.17,34.0,3.0,0.9
385,553260,1744862952052,,,,,,,,,,,,,,,,,,,,,,,,,,,,,,,,,,0,0,0,0,0,0,0,0,0,0,0,0,0,0,0,0,,,,,,,,,,,
386,553280,1744862952072,0.0,135.0,,-0.09,-0.09,1.09,0.0,0.0,0.0,1.09,1.41,78.0,3151.0,4.6,3.86,,13.03,0.985,66.4,,36.8,5.0,,,,,,,,,,,,0,0,0,0,0,0,0,0,0,0,0,0,0,0,0,0,,,,,0.0,,,,,,
