,Interval,Utc,FrontBP,SteerAng,Battery,AccelX,AccelY,AccelZ,Yaw,Pitch,Roll,Gsum,GsumMax,GsumPct,RPM,TPS,InjectorPW,Baro,MAP,Lambda,IAT,EngineTemp,EOP,EOT,WSFR,WSFL,WSRR,WSRL,TCSet,TCSlip,TCComp,TCCut,Analog8,OilTemp,AA_On,ThermLF1,ThermLF2,ThermRR1,ThermRR2,ThermLF3,ThermLF4,ThermLF5,ThermLF6,ThermLF7,ThermLF8,ThermRR3,ThermRR4,ThermRR5,ThermRR6,ThermRR7,ThermRR8,Gear,AA_On1,AA_LowDrag,Fuel_Mix,AA_Packages,Latitude,Longitude,Speed,GPSSats,GPSQual,GPSDOP
0,740260,1744863139055,,,,,,,,,,,,,,,,,,,,,,,,,,,,,,,,,,0,0,0,0,0,0,0,0,0,0,0,0,0,0,0,0,,,,,,,,,,,
1,740280,1744863139075,0.0,135.0,,-0.11,-0.07,1.04,0.0,0.0,0.0,1.05,1.05,100.0,3115.0,5.1,3.86,,13.12,1.052,70.0,,33.9,5.0,,,,,,,,,,,,0,0,0,0,0,0,0,0,0,0,0,0,0,0,0,0,,,,,0.0,,,,,,
2,740300,1744863139099,,,,,,,,,,,,,,,,,,,,,,,,,,,,,,,,,,0,0,0,0,0,0,0,0,0,0,0,0,0,0,0,0,,,,,,,,,,,
3,740320,1744863139119,0.0,135.0,,-0.1,-0.04,0.96,0.0,0.0,0.0,0.96,1.05,92.0,3103.0,5.1,3.87,,13.11,1.05,70.0,,34.1,5.0,,,,,,,,,,,,0,0,0,0,0,0,0,0,0,0,0,0,0,0,0,0,,,,,0.0,,,,,,
4,740340,1744863139139,,,,,,,,,,,,,,,,,,,,,,,0.0,0.0,0.0,0.0,0.0,0.0,0.0,0.0,2.26,,,0,0,0,0,0,0,0,0,0,0,0,0,0,0,0,0,0.0,,,,,38.985832,-76.950851,0.0,36.0,3.0,0.8
5,740360,1744863139159,0.0,135.0,,-0.08,-0.04,0.92,0.0,0.0,0.0,0.92,1.05,88.0,3083.0,5.1,3.86,,13.09,1.06,70.0,,34.1,5.0,,,,,,,,,,,,0,0,0,0,0,0,0,0,0,0,0,0,0,0,0,0,,,,,0.0,,,,,,
6,740380,1744863139179,,,,,,,,,,,,,,,,,,,,,,,,,,,,,,,,,,0,0,0,0,0,0,0,0,0,0,0,0,0,0,0,0,,,,,,,,,,,
7,740400,1744863139199,0.0,135.0,,-0.06,-0.02,0.96,0.0,0.0,0.0,0.96,1.05,92.0,3091.0,5.0,3.87,,13.16,1.059,70.0,,34.1,5.0,,,,,,,,,,,,0,0,0,0,0,0,0,0,0,0,0,0,0,0,0,0,,,,,0.0,,,,,,
8,740420,1744863139219,,,,,,,,,,,,,,,,,,,,,,,,,,,,,,,,,,0,0,0,0,0,0,0,0,0,0,0,0,0,0,0,0,,,,,,,,,,,
9,740440,1744863139239,0.0,135.0,,-0.04,-0.03,1.03,0.0,0.0,0.0,1.03,1.05,98.0,3148.0,4.9,3.87,,13.16,1.059,70.0,,33.7,5.0,0.0,0.0,0.0,0.0,0.0,0.0,0.0,0.0,2.26,,,0,0,0,0,0,0,0,0,0,0,0,0,0,0,0,0,0.0,,,,0.0,38.985832,-76.950851,0.08,36.0,3.0,0.8
10,740460,1744863139259,,,,,,,,,,,,,,,,,,,,,,,,,,,,,,,,,,0,0,0,0,0,0,0,0,0,0,0,0,0,0,0,0,,,,,,,,,,,
11,740480,1744863139279,0.0,135.0,,-0.05,-0.06,1.07,0.0,0.0,0.0,1.07,1.07,100.0,3148.0,4.9,3.87,,13.09,1.053,70.0,,33.7,5.0,,,,,,,,,,,,0,0,0,0,0,0,0,0,0,0,0,0,0,0,0,0,,,,,0.0,,,,,,
12,740500,1744863139305,,,,,,,,,,,,,,,,,,,,,,,,,,,,,,,,,,0,0,0,0,0,0,0,0,0,0,0,0,0,0,0,0,,,,,,,,,,,
13,740520,1744863139325,0.0,135.0,,-0.08,-0.05,1.04,0.0,0.0,0.0,1.04,1.07,98.0,3101.0,4.9,3.85,,13.11,1.05,70.0,,34.1,5.0,,,,,,,,,,,,0,0,0,0,0,0,0,0,0,0,0,0,0,0,0,0,,,,,0.0,,,,,,
14,740540,1744863139345,,,,,,,,,,,,,,,,,,,,,,,0.0,0.0,0.0,0.0,0.0,0.0,0.0,0.0,2.26,,,0,0,0,0,0,0,0,0,0,0,0,0,0,0,0,0,0.0,,,,,38.985832,-76.950851,0.05,36.0,3.0,0.8
15,740560,1744863139365,0.0,135.0,,-0.08,-0.03,0.96,0.0,0.0,0.0,0.96,1.07,90.0,3129.0,4.9,3.87,,13.12,1.054,70.0,,34.1,5.0,,,,,,,,,,,,0,0,0,0,0,0,0,0,0,0,0,0,0,0,0,0,,,,,0.0,,,,,,
16,740580,1744863139385,,,,,,,,,,,,,,,,,,,,,,,,,,,,,,,,,,0,0,0,0,0,0,0,0,0,0,0,0,0,0,0,0,,,,,,,,,,,
17,740600,1744863139403,0.0,135.0,,-0.06,0.0,0.95,0.0,0.0,0.0,0.95,1.07,89.0,3148.0,5.0,3.85,,13.08,1.055,70.0,,34.1,5.0,,,,,,,,,,,,0,0,0,0,0,0,0,0,0,0,0,0,0,0,0,0,,,,,0.0,,,,,,
18,740620,1744863139423,,,,,,,,,,,,,,,,,,,,,,,,,,,,,,,,,,0,0,0,0,0,0,0,0,0,0,0,0,0,0,0,0,,,,,,,,,,,
19,740640,1744863139443,0.0,135.0,,-0.05,-0.0,1.02,0.0,0.0,0.0,1.02,1.07,96.0,3145.0,5.1,3.86,,13.08,1.055,70.0,,33.8,5.0,0.0,0.0,0.0,0.0,0.0,0.0,0.0,0.0,2.26,,,0,0,0,0,0,0,0,0,0,0,0,0,0,0,0,0,0.0,,,,0.0,38.985832,-76.950851,0.04,36.0,3.0,0.8
20,740660,1744863139463,,,,,,,,,,,,,,,,,,,,,,,,,,,,,,,,,,0,0,0,0,0,0,0,0,0,0,0,0,0,0,0,0,,,,,,,,,,,
21,740680,1744863139483,0.0,135.0,,-0.07,-0.04,1.07,0.0,0.0,0.0,1.07,1.07,100.0,3145.0,5.1,3.86,,13.08,1.076,70.0,,33.8,5.0,,,,,,,,,,,,0,0,0,0,0,0,0,0,0,0,0,0,0,0,0,0,,,,,0.0,,,,,,
22,740700,1744863139503,,,,,,,,,,,,,,,,,,,,,,,,,,,,,,,,,,0,0,0,0,0,0,0,0,0,0,0,0,0,0,0,0,,,,,,,,,,,
23,740720,1744863139523,0.0,135.0,,-0.09,-0.01,1.01,0.0,0.0,0.0,1.01,1.07,95.0,3155.0,5.1,3.85,,13.09,1.068,70.0,,34.0,5.0,,,,,,,,,,,,0,0,0,0,0,0,0,0,0,0,0,0,0,0,0,0,,,,,0.0,,,,,,
24,740740,1744863139543,,,,,,,,,,,,,,,,,,,,,,,0.0,0.0,0.0,0.0,0.0,0.0,0.0,0.0,2.25,,,0,0,0,0,0,0,0,0,0,0,0,0,0,0,0,0,0.0,,,,,38.985832,-76.950851,0.04,36.0,3.0,0.8
25,740760,1744863139563,0.0,135.0,,-0.08,0.01,0.93,0.0,0.0,0.0,0.94,1.07,88.0,3176.0,5.1,3.85,,13.09,1.068,70.0,,34.0,5.0,,,,,,,,,,,,0,0,0,0,0,0,0,0,0,0,0,0,0,0,0,0,,,,,0.0,,,,,,
26,740780,1744863139583,,,,,,,,,,,,,,,,,,,,,,,,,,,,,,,,,,0,0,0,0,0,0,0,0,0,0,0,0,0,0,0,0,,,,,,,,,,,
27,740800,1744863139603,0.0,135.0,,-0.06,0.02,0.97,0.0,0.0,0.0,0.97,1.07,91.0,3175.0,5.1,3.85,,13.05,1.049,70.0,,34.0,5.0,,,,,,,,,,,,0,0,0,0,0,0,0,0,0,0,0,0,0,0,0,0,,,,,0.0,,,,,,
28,740820,1744863139623,,,,,,,,,,,,,,,,,,,,,,,,,,,,,,,,,,0,0,0,0,0,0,0,0,0,0,0,0,0,0,0,0,,,,,,,,,,,
29,740840,1744863139643,0.0,135.0,,-0.05,0.01,1.04,0.0,0.0,1.0,1.04,1.07,97.0,3100.0,5.1,3.86,,13.05,1.049,70.0,,34.3,5.0,0.0,0.0,0.0,0.0,0.0,0.0,0.0,0.0,2.26,,,0,0,0,0,0,0,0,0,0,0,0,0,0,0,0,0,0.0,,,,0.0,38.985832,-76.950851,0.07,36.0,3.0,0.8
30,740860,1744863139663,,,,,,,,,,,,,,,,,,,,,,,,,,,,,,,,,,0,0,0,0,0,0,0,0,0,0,0,0,0,0,0,0,,,,,,,,,,,
31,740880,1744863139683,0.0,135.0,,-0.07,-0.01,1.08,0.0,0.0,0.0,1.08,1.08,100.0,3100.0,5.1,3.86,,13.09,1.05,70.0,,34.3,5.0,,,,,,,,,,,,0,0,0,0,0,0,0,0,0,0,0,0,0,0,0,0,,,,,0.0,,,,,,
32,740900,1744863139703,,,,,,,,,,,,,,,,,,,,,,,,,,,,,,,,,,0,0,0,0,0,0,0,0,0,0,0,0,0,0,0,0,,,,,,,,,,,
33,740920,1744863139723,0.0,135.0,,-0.09,-0.02,1.05,0.0,0.0,0.0,1.05,1.08,97.0,3147.0,5.1,3.87,,13.08,1.051,70.0,,33.6,5.0,,,,,,,,,,,,0,0,0,0,0,0,0,0,0,0,0,0,0,0,0,0,,,,,0.0,,,,,,
34,740940,1744863139743,,,,,,,,,,,,,,,,,,,,,,,0.0,0.0,0.0,0.0,0.0,0.0,0.0,0.0,2.26,,,0,0,0,0,0,0,0,0,0,0,0,0,0,0,0,0,0.0,,,,,38.985832,-76.950851,0.04,36.0,3.0,0.8
35,740960,1744863139763,0.0,135.0,,-0.1,0.01,0.97,1.0,0.0,0.0,0.98,1.08,91.0,3126.0,5.0,3.86,,13.08,1.056,70.0,,33.6,5.0,,,,,,,,,,,,0,0,0,0,0,0,0,0,0,0,0,0,0,0,0,0,,,,,0.0,,,,,,
36,740980,1744863139783,,,,,,,,,,,,,,,,,,,,,,,,,,,,,,,,,,0,0,0,0,0,0,0,0,0,0,0,0,0,0,0,0,,,,,,,,,,,
37,741000,1744863139803,0.0,135.0,,-0.09,0.04,0.99,0.0,0.0,0.0,0.99,1.08,92.0,3235.0,4.9,3.87,,13.12,1.041,70.0,,33.6,5.0,,,,,,,,,,,,0,0,0,0,0,0,0,0,0,0,0,0,0,0,0,0,,,,,0.0,,,,,,
38,741020,1744863139823,,,,,,,,,,,,,,,,,,,,,,,,,,,,,,,,,,0,0,0,0,0,0,0,0,0,0,0,0,0,0,0,0,,,,,,,,,,,
39,741040,1744863139843,0.0,135.0,,-0.08,0.02,0.98,0.0,0.0,0.0,0.98,1.08,91.0,3500.0,4.9,3.84,,13.12,1.041,70.0,,34.1,5.0,0.0,0.0,0.0,0.0,0.0,0.0,0.0,0.0,2.26,,,0,0,0,0,0,0,0,0,0,0,0,0,0,0,0,0,0.0,,,,0.0,38.985832,-76.950851,0.11,36.0,3.0,0.8
40,741060,1744863139863,,,,,,,,,,,,,,,,,,,,,,,,,,,,,,,,,,0,0,0,0,0,0,0,0,0,0,0,0,0,0,0,0,,,,,,,,,,,
41,741080,1744863139883,0.0,135.0,,-0.11,-0.05,1.02,0.0,0.0,0.0,1.03,1.08,95.0,3500.0,4.9,3.84,,12.99,1.082,70.0,,34.1,5.0,,,,,,,,,,,,0,0,0,0,0,0,0,0,0,0,0,0,0,0,0,0,,,,,0.0,,,,,,
42,741100,1744863139904,,,,,,,,,,,,,,,,,,,,,,,,,,,,,,,,,,0,0,0,0,0,0,0,0,0,0,0,0,0,0,0,0,,,,,,,,,,,
43,741120,1744863139924,0.0,135.0,,-0.07,-0.02,1.03,-1.0,0.0,1.0,1.04,1.08,96.0,3570.0,4.9,3.82,,12.81,0.992,70.0,,34.3,5.0,,,,,,,,,,,,0,0,0,0,0,0,0,0,0,0,0,0,0,0,0,0,,,,,0.0,,,,,,
44,741140,1744863139944,,,,,,,,,,,,,,,,,,,,,,,0.0,0.0,0.0,0.0,0.0,0.0,0.0,0.0,2.26,,,0,0,0,0,0,0,0,0,0,0,0,0,0,0,0,0,0.0,,,,,38.985832,-76.950851,0.0,36.0,3.0,0.8
45,741160,1744863139964,0.0,135.0,,-0.05,0.04,1.0,-1.0,0.0,1.0,1.0,1.08,93.0,3547.0,5.0,3.81,,12.76,0.936,70.0,,34.3,5.0,,,,,,,,,,,,0,0,0,0,0,0,0,0,0,0,0,0,0,0,0,0,,,,,0.0,,,,,,
46,741180,1744863139984,,,,,,,,,,,,,,,,,,,,,,,,,,,,,,,,,,0,0,0,0,0,0,0,0,0,0,0,0,0,0,0,0,,,,,,,,,,,
47,741200,1744863139996,0.0,135.0,,-0.07,-0.02,1.01,0.0,0.0,0.0,1.02,1.08,94.0,3663.0,5.1,3.82,,12.72,0.954,70.0,,34.3,5.0,,,,,,,,,,,,0,0,0,0,0,0,0,0,0,0,0,0,0,0,0,0,,,,,0.0,,,,,,
48,741220,1744863140016,,,,,,,,,,,,,,,,,,,,,,,,,,,,,,,,,,0,0,0,0,0,0,0,0,0,0,0,0,0,0,0,0,,,,,,,,,,,
49,741240,1744863140036,0.0,135.0,14.2,-0.08,-0.01,1.04,0.0,0.0,0.0,1.04,1.08,97.0,3617.0,5.1,3.81,15.0,12.72,0.954,70.0,174.0,34.5,5.0,0.0,0.0,0.0,0.0,0.0,0.0,0.0,0.0,2.26,0.0,0.0,0,0,0,0,0,0,0,0,0,0,0,0,0,0,0,0,0.0,0.0,0.0,0.0,0.0,38.985832,-76.950851,0.0,36.0,3.0,0.8
50,741260,1744863140056,,,,,,,,,,,,,,,,,,,,,,,,,,,,,,,,,,0,0,0,0,0,0,0,0,0,0,0,0,0,0,0,0,,,,,,,,,,,
51,741280,1744863140076,0.0,135.0,,-0.08,0.03,1.08,0.0,0.0,0.0,1.08,1.08,100.0,3617.0,5.1,3.81,,12.72,1.053,70.0,,34.5,5.0,,,,,,,,,,,,0,0,0,0,0,0,0,0,0,0,0,0,0,0,0,0,,,,,0.0,,,,,,
52,741300,1744863140100,,,,,,,,,,,,,,,,,,,,,,,,,,,,,,,,,,0,0,0,0,0,0,0,0,0,0,0,0,0,0,0,0,,,,,,,,,,,
53,741320,1744863140120,0.0,135.0,,-0.08,0.1,1.1,0.0,0.0,0.0,1.1,1.1,100.0,3743.0,5.1,3.8,,12.67,1.042,70.0,,34.7,5.0,,,,,,,,,,,,0,0,0,0,0,0,0,0,0,0,0,0,0,0,0,0,,,,,0.0,,,,,,
54,741340,1744863140140,,,,,,,,,,,,,,,,,,,,,,,0.0,0.0,0.0,0.0,0.0,0.0,0.0,0.0,2.26,,,0,0,0,0,0,0,0,0,0,0,0,0,0,0,0,0,0.0,,,,,38.985832,-76.950851,0.04,36.0,3.0,0.8
55,741360,1744863140160,0.0,135.0,,-0.08,0.08,1.06,0.0,0.0,0.0,1.06,1.1,96.0,3774.0,5.1,3.8,,12.68,1.015,70.0,,34.7,5.0,,,,,,,,,,,,0,0,0,0,0,0,0,0,0,0,0,0,0,0,0,0,,,,,0.0,,,,,,
56,741380,1744863140180,,,,,,,,,,,,,,,,,,,,,,,,,,,,,,,,,,0,0,0,0,0,0,0,0,0,0,0,0,0,0,0,0,,,,,,,,,,,
57,741400,1744863140200,0.0,135.0,,-0.09,0.02,1.02,1.0,0.0,0.0,1.02,1.1,92.0,3852.0,5.1,3.8,,12.56,0.962,70.0,,34.7,5.0,,,,,,,,,,,,0,0,0,0,0,0,0,0,0,0,0,0,0,0,0,0,,,,,0.0,,,,,,
58,741420,1744863140220,,,,,,,,,,,,,,,,,,,,,,,,,,,,,,,,,,0,0,0,0,0,0,0,0,0,0,0,0,0,0,0,0,,,,,,,,,,,
59,741440,1744863140240,0.0,135.0,,-0.07,0.06,1.02,0.0,0.0,0.0,1.03,1.1,93.0,3834.0,5.1,3.79,,12.56,0.962,70.0,,35.0,5.0,0.0,0.0,0.0,0.0,0.0,0.0,0.0,0.0,2.27,,,0,0,0,0,0,0,0,0,0,0,0,0,0,0,0,0,0.0,,,,0.0,38.985832,-76.950851,0.04,36.0,3.0,0.8
60,741460,1744863140260,,,,,,,,,,,,,,,,,,,,,,,,,,,,,,,,,,0,0,0,0,0,0,0,0,0,0,0,0,0,0,0,0,,,,,,,,,,,
61,741480,1744863140280,0.0,135.0,,-0.06,0.13,1.06,0.0,0.0,1.0,1.07,1.1,97.0,3834.0,5.1,3.79,,12.53,0.921,70.0,,35.0,5.0,,,,,,,,,,,,0,0,0,0,0,0,0,0,0,0,0,0,0,0,0,0,,,,,0.0,,,,,,
62,741500,1744863140304,,,,,,,,,,,,,,,,,,,,,,,,,,,,,,,,,,0,0,0,0,0,0,0,0,0,0,0,0,0,0,0,0,,,,,,,,,,,
63,741520,1744863140324,0.0,135.0,,-0.09,0.02,1.08,0.0,0.0,0.0,1.09,1.1,99.0,3951.0,5.0,3.78,,12.48,0.894,70.0,,35.6,5.0,,,,,,,,,,,,0,0,0,0,0,0,0,0,0,0,0,0,0,0,0,0,,,,,0.0,,,,,,
64,741540,1744863140344,,,,,,,,,,,,,,,,,,,,,,,0.0,0.0,0.0,0.0,0.0,0.0,0.0,0.0,2.26,,,0,0,0,0,0,0,0,0,0,0,0,0,0,0,0,0,0.0,,,,,38.985832,-76.950851,0.0,36.0,3.0,0.8
65,741560,1744863140364,0.0,135.0,,-0.1,-0.05,1.05,1.0,0.0,0.0,1.06,1.1,96.0,3918.0,4.9,3.78,,12.41,0.877,70.0,,35.6,5.0,,,,,,,,,,,,0,0,0,0,0,0,0,0,0,0,0,0,0,0,0,0,,,,,0.0,,,,,,
66,741580,1744863140384,,,,,,,,,,,,,,,,,,,,,,,,,,,,,,,,,,0,0,0,0,0,0,0,0,0,0,0,0,0,0,0,0,,,,,,,,,,,
67,741600,1744863140404,0.0,135.0,,-0.08,-0.0,1.03,1.0,0.0,0.0,1.03,1.1,94.0,3887.0,4.9,3.77,,12.32,0.871,70.0,,35.6,5.0,,,,,,,,,,,,0,0,0,0,0,0,0,0,0,0,0,0,0,0,0,0,,,,,0.0,,,,,,
68,741620,1744863140424,,,,,,,,,,,,,,,,,,,,,,,,,,,,,,,,,,0,0,0,0,0,0,0,0,0,0,0,0,0,0,0,0,,,,,,,,,,,
69,741640,1744863140444,0.0,135.0,,-0.07,0.02,1.08,0.0,0.0,1.0,1.08,1.1,98.0,3987.0,4.8,3.77,,12.32,0.871,70.0,,35.4,5.0,0.0,0.0,0.0,0.0,0.0,0.0,0.0,0.0,2.26,,,0,0,0,0,0,0,0,0,0,0,0,0,0,0,0,0,0.0,,,,0.0,38.985832,-76.950851,0.04,36.0,3.0,0.8
70,741660,1744863140464,,,,,,,,,,,,,,,,,,,,,,,,,,,,,,,,,,0,0,0,0,0,0,0,0,0,0,0,0,0,0,0,0,,,,,,,,,,,
71,741680,1744863140484,0.0,135.0,,-0.1,-0.14,1.02,1.0,0.0,0.0,1.04,1.1,94.0,3987.0,4.8,3.77,,12.37,0.906,70.0,,35.4,5.0,,,,,,,,,,,,0,0,0,0,0,0,0,0,0,0,0,0,0,0,0,0,,,,,0.0,,,,,,
72,741700,1744863140504,,,,,,,,,,,,,,,,,,,,,,,,,,,,,,,,,,0,0,0,0,0,0,0,0,0,0,0,0,0,0,0,0,,,,,,,,,,,
73,741720,1744863140524,0.0,135.0,,-0.07,-0.02,1.06,1.0,0.0,0.0,1.06,1.1,96.0,4052.0,4.8,3.74,,12.16,0.931,70.0,,35.3,5.0,,,,,,,,,,,,0,0,0,0,0,0,0,0,0,0,0,0,0,0,0,0,,,,,0.0,,,,,,
74,741740,1744863140544,,,,,,,,,,,,,,,,,,,,,,,0.0,0.0,0.0,0.0,0.0,0.0,0.0,0.0,2.26,,,0,0,0,0,0,0,0,0,0,0,0,0,0,0,0,0,0.0,,,,,38.985832,-76.950851,0.04,36.0,3.0,0.8
75,741760,1744863140564,0.0,135.0,,-0.1,-0.14,1.05,1.0,0.0,0.0,1.07,1.1,97.0,4117.0,4.7,3.71,,12.07,0.907,70.0,,35.3,5.0,,,,,,,,,,,,0,0,0,0,0,0,0,0,0,0,0,0,0,0,0,0,,,,,0.0,,,,,,
76,741780,1744863140584,,,,,,,,,,,,,,,,,,,,,,,,,,,,,,,,,,0,0,0,0,0,0,0,0,0,0,0,0,0,0,0,0,,,,,,,,,,,
77,741800,1744863140604,0.0,135.0,,-0.08,-0.01,1.08,1.0,0.0,0.0,1.08,1.1,98.0,4089.0,4.6,3.7,,12.07,0.893,70.0,,35.3,5.0,,,,,,,,,,,,0,0,0,0,0,0,0,0,0,0,0,0,0,0,0,0,,,,,0.0,,,,,,
78,741820,1744863140624,,,,,,,,,,,,,,,,,,,,,,,,,,,,,,,,,,0,0,0,0,0,0,0,0,0,0,0,0,0,0,0,0,,,,,,,,,,,
79,741840,1744863140644,0.0,135.0,,-0.1,-0.09,1.07,0.0,0.0,0.0,1.08,1.1,98.0,4135.0,4.5,3.7,,12.07,0.893,70.0,,35.7,5.0,0.0,0.0,0.0,0.0,0.0,0.0,0.0,0.0,2.26,,,0,0,0,0,0,0,0,0,0,0,0,0,0,0,0,0,0.0,,,,0.0,38.985832,-76.950851,0.0,36.0,3.0,0.8
80,741860,1744863140664,,,,,,,,,,,,,,,,,,,,,,,,,,,,,,,,,,0,0,0,0,0,0,0,0,0,0,0,0,0,0,0,0,,,,,,,,,,,
81,741880,1744863140684,0.0,135.0,,-0.1,-0.04,1.04,1.0,0.0,0.0,1.05,1.1,95.0,4135.0,4.5,3.7,,11.99,0.892,70.0,,35.7,5.0,,,,,,,,,,,,0,0,0,0,0,0,0,0,0,0,0,0,0,0,0,0,,,,,0.0,,,,,,
82,741900,1744863140704,,,,,,,,,,,,,,,,,,,,,,,,,,,,,,,,,,0,0,0,0,0,0,0,0,0,0,0,0,0,0,0,0,,,,,,,,,,,
83,741920,1744863140724,0.0,135.0,,-0.1,-0.05,1.05,0.0,0.0,0.0,1.05,1.1,95.0,4097.0,4.3,3.7,,12.0,0.889,70.0,,36.2,5.0,,,,,,,,,,,,0,0,0,0,0,0,0,0,0,0,0,0,0,0,0,0,,,,,0.0,,,,,,
84,741940,1744863140744,,,,,,,,,,,,,,,,,,,,,,,0.0,0.0,0.0,0.0,0.0,0.0,0.0,0.0,2.26,,,0,0,0,0,0,0,0,0,0,0,0,0,0,0,0,0,0.0,,,,,38.985832,-76.950851,0.08,36.0,3.0,0.8
85,741960,1744863140764,0.0,135.0,,-0.09,-0.07,0.99,2.0,0.0,-1.0,0.99,1.1,90.0,4061.0,3.3,3.6,,11.95,0.887,70.0,,36.2,5.0,,,,,,,,,,,,0,0,0,0,0,0,0,0,0,0,0,0,0,0,0,0,,,,,0.0,,,,,,
86,741980,1744863140784,,,,,,,,,,,,,,,,,,,,,,,,,,,,,,,,,,0,0,0,0,0,0,0,0,0,0,0,0,0,0,0,0,,,,,,,,,,,
87,742000,1744863140804,0.0,135.0,,-0.06,0.06,1.03,0.0,0.0,0.0,1.03,1.1,94.0,4052.0,2.4,3.28,,11.75,0.88,70.0,,36.2,5.0,,,,,,,,,,,,0,0,0,0,0,0,0,0,0,0,0,0,0,0,0,0,,,,,0.0,,,,,,
88,742020,1744863140824,,,,,,,,,,,,,,,,,,,,,,,,,,,,,,,,,,0,0,0,0,0,0,0,0,0,0,0,0,0,0,0,0,,,,,,,,,,,
89,742040,1744863140844,0.0,135.0,,-0.08,-0.03,0.97,1.0,0.0,0.0,0.97,1.1,88.0,4038.0,2.2,3.17,,11.75,0.88,70.0,,35.6,5.0,0.0,0.0,0.0,0.0,0.0,0.0,0.0,0.0,2.26,,,0,0,0,0,0,0,0,0,0,0,0,0,0,0,0,0,0.0,,,,0.0,38.985832,-76.950851,0.05,36.0,3.0,0.8
90,742060,1744863140864,,,,,,,,,,,,,,,,,,,,,,,,,,,,,,,,,,0,0,0,0,0,0,0,0,0,0,0,0,0,0,0,0,,,,,,,,,,,
91,742080,1744863140884,0.0,135.0,,-0.04,0.09,0.96,1.0,0.0,0.0,0.97,1.1,88.0,4038.0,2.2,3.17,,11.64,0.874,70.0,,35.6,5.0,,,,,,,,,,,,0,0,0,0,0,0,0,0,0,0,0,0,0,0,0,0,,,,,0.0,,,,,,
92,742100,1744863140903,,,,,,,,,,,,,,,,,,,,,,,,,,,,,,,,,,0,0,0,0,0,0,0,0,0,0,0,0,0,0,0,0,,,,,,,,,,,
93,742120,1744863140923,0.0,135.0,,-0.02,0.16,0.99,-1.0,0.0,1.0,1.0,1.1,91.0,4001.0,2.0,3.16,,11.69,0.878,70.0,,36.2,5.0,,,,,,,,,,,,0,0,0,0,0,0,0,0,0,0,0,0,0,0,0,0,,,,,0.0,,,,,,
94,742140,1744863140943,,,,,,,,,,,,,,,,,,,,,,,0.0,0.0,0.0,0.0,0.0,0.0,0.0,0.0,2.26,,,0,0,0,0,0,0,0,0,0,0,0,0,0,0,0,0,0.0,,,,,38.985832,-76.950851,0.05,36.0,3.0,0.8
95,742160,1744863140963,0.0,135.0,,-0.05,0.07,0.95,0.0,0.0,0.0,0.95,1.1,86.0,3996.0,1.9,3.12,,11.67,0.878,70.0,,36.2,5.0,,,,,,,,,,,,0,0,0,0,0,0,0,0,0,0,0,0,0,0,0,0,,,,,0.0,,,,,,
96,742180,1744863140983,,,,,,,,,,,,,,,,,,,,,,,,,,,,,,,,,,0,0,0,0,0,0,0,0,0,0,0,0,0,0,0,0,,,,,,,,,,,
97,742200,1744863140995,0.0,135.0,,-0.02,0.13,0.93,0.0,0.0,0.0,0.94,1.1,86.0,3938.0,1.8,3.07,,11.61,0.889,70.0,,36.2,5.0,,,,,,,,,,,,0,0,0,0,0,0,0,0,0,0,0,0,0,0,0,0,,,,,0.0,,,,,,
98,742220,1744863141015,,,,,,,,,,,,,,,,,,,,,,,,,,,,,,,,,,0,0,0,0,0,0,0,0,0,0,0,0,0,0,0,0,,,,,,,,,,,
99,742240,1744863141035,0.0,135.0,14.21,-0.0,0.24,0.95,0.0,0.0,1.0,0.98,1.1,89.0,3883.0,1.9,3.08,15.0,11.61,0.889,70.0,176.0,35.8,5.0,0.0,0.0,0.0,0.0,0.0,0.0,0.0,0.0,2.26,0.0,0.0,0,0,0,0,0,0,0,0,0,0,0,0,0,0,0,0,0.0,0.0,0.0,0.0,0.0,38.985832,-76.950851,0.0,36.0,3.0,0.8
100,742260,1744863141055,,,,,,,,,,,,,,,,,,,,,,,,,,,,,,,,,,0,0,0,0,0,0,0,0,0,0,0,0,0,0,0,0,,,,,,,,,,,
101,742280,1744863141075,0.0,135.0,,-0.02,0.19,0.96,0.0,0.0,1.0,0.98,1.1,89.0,3883.0,1.9,3.08,,11.72,0.892,70.0,,35.8,5.0,,,,,,,,,,,,0,0,0,0,0,0,0,0,0,0,0,0,0,0,0,0,,,,,0.0,,,,,,
102,742300,1744863141097,,,,,,,,,,,,,,,,,,,,,,,,,,,,,,,,,,0,0,0,0,0,0,0,0,0,0,0,0,0,0,0,0,,,,,,,,,,,
103,742320,1744863141117,0.0,135.0,,-0.03,0.12,0.97,0.0,0.0,1.0,0.98,1.1,89.0,3880.0,1.9,3.06,,11.67,0.888,70.0,,35.3,5.0,,,,,,,,,,,,0,0,0,0,0,0,0,0,0,0,0,0,0,0,0,0,,,,,0.0,,,,,,
104,742340,1744863141137,,,,,,,,,,,,,,,,,,,,,,,0.0,0.0,0.0,0.0,0.0,0.0,0.0,0.0,2.25,,,0,0,0,0,0,0,0,0,0,0,0,0,0,0,0,0,0.0,,,,,38.985832,-76.950851,0.04,36.0,3.0,0.8
105,742360,1744863141157,0.0,135.0,,-0.03,0.11,1.0,0.0,0.0,1.0,1.01,1.1,91.0,3792.0,1.9,3.08,,11.76,0.897,70.0,,35.3,5.0,,,,,,,,,,,,0,0,0,0,0,0,0,0,0,0,0,0,0,0,0,0,,,,,0.0,,,,,,
106,742380,1744863141177,,,,,,,,,,,,,,,,,,,,,,,,,,,,,,,,,,0,0,0,0,0,0,0,0,0,0,0,0,0,0,0,0,,,,,,,,,,,
107,742400,1744863141201,0.0,135.0,,-0.01,0.13,0.98,-1.0,0.0,1.0,0.99,1.1,89.0,3725.0,1.8,3.06,,11.81,0.904,70.0,,35.3,5.0,,,,,,,,,,,,0,0,0,0,0,0,0,0,0,0,0,0,0,0,0,0,,,,,0.0,,,,,,
108,742420,1744863141221,,,,,,,,,,,,,,,,,,,,,,,,,,,,,,,,,,0,0,0,0,0,0,0,0,0,0,0,0,0,0,0,0,,,,,,,,,,,
109,742440,1744863141241,0.0,135.0,,-0.02,0.09,0.93,0.0,0.0,0.0,0.94,1.1,85.0,3591.0,1.8,3.12,,11.81,0.904,70.0,,35.5,5.0,0.0,0.0,0.0,0.0,0.0,0.0,0.0,0.0,2.26,,,0,0,0,0,0,0,0,0,0,0,0,0,0,0,0,0,0.0,,,,0.0,38.985832,-76.950851,0.04,36.0,3.0,0.8
110,742460,1744863141261,,,,,,,,,,,,,,,,,,,,,,,,,,,,,,,,,,0,0,0,0,0,0,0,0,0,0,0,0,0,0,0,0,,,,,,,,,,,
111,742480,1744863141281,0.0,135.0,,-0.07,0.01,1.0,0.0,0.0,0.0,1.0,1.1,91.0,3591.0,1.8,3.12,,11.91,0.908,70.0,,35.5,5.0,,,,,,,,,,,,0,0,0,0,0,0,0,0,0,0,0,0,0,0,0,0,,,,,0.0,,,,,,
112,742500,1744863141303,,,,,,,,,,,,,,,,,,,,,,,,,,,,,,,,,,0,0,0,0,0,0,0,0,0,0,0,0,0,0,0,0,,,,,,,,,,,
113,742520,1744863141323,0.0,135.0,,-0.03,0.1,0.95,-1.0,0.0,1.0,0.96,1.1,87.0,3482.0,1.7,3.18,,12.03,0.914,70.0,,34.9,5.0,,,,,,,,,,,,0,0,0,0,0,0,0,0,0,0,0,0,0,0,0,0,,,,,0.0,,,,,,
114,742540,1744863141343,,,,,,,,,,,,,,,,,,,,,,,0.0,0.0,0.0,0.0,0.0,0.0,0.0,0.0,2.26,,,0,0,0,0,0,0,0,0,0,0,0,0,0,0,0,0,0.0,,,,,38.985832,-76.950851,0.0,36.0,3.0,0.8
115,742560,1744863141363,0.0,135.0,,-0.05,0.03,1.02,0.0,0.0,0.0,1.02,1.1,92.0,3347.0,1.6,3.18,,12.19,0.925,70.0,,34.9,5.0,,,,,,,,,,,,0,0,0,0,0,0,0,0,0,0,0,0,0,0,0,0,,,,,0.0,,,,,,
116,742580,1744863141383,,,,,,,,,,,,,,,,,,,,,,,,,,,,,,,,,,0,0,0,0,0,0,0,0,0,0,0,0,0,0,0,0,,,,,,,,,,,
117,742600,1744863141405,0.0,135.0,,-0.04,0.12,0.94,0.0,0.0,0.0,0.95,1.1,86.0,3308.0,1.5,3.23,,12.27,0.934,70.0,,34.9,5.0,,,,,,,,,,,,0,0,0,0,0,0,0,0,0,0,0,0,0,0,0,0,,,,,0.0,,,,,,
118,742620,1744863141425,,,,,,,,,,,,,,,,,,,,,,,,,,,,,,,,,,0,0,0,0,0,0,0,0,0,0,0,0,0,0,0,0,,,,,,,,,,,
119,742640,1744863141445,0.0,135.0,,-0.05,0.07,1.01,-1.0,0.0,1.0,1.01,1.1,92.0,3215.0,1.4,3.2,,12.27,0.934,70.0,,35.2,5.0,0.0,0.0,0.0,0.0,0.0,0.0,0.0,0.0,2.26,,,0,0,0,0,0,0,0,0,0,0,0,0,0,0,0,0,0.0,,,,0.0,38.985832,-76.950851,0.04,36.0,3.0,0.8
120,742660,1744863141465,,,,,,,,,,,,,,,,,,,,,,,,,,,,,,,,,,0,0,0,0,0,0,0,0,0,0,0,0,0,0,0,0,,,,,,,,,,,
121,742680,1744863141485,0.0,135.0,,-0.07,0.06,1.02,0.0,0.0,0.0,1.03,1.1,93.0,3215.0,1.4,3.2,,12.36,0.925,70.0,,35.2,5.0,,,,,,,,,,,,0,0,0,0,0,0,0,0,0,0,0,0,0,0,0,0,,,,,0.0,,,,,,
122,742700,1744863141503,,,,,,,,,,,,,,,,,,,,,,,,,,,,,,,,,,0,0,0,0,0,0,0,0,0,0,0,0,0,0,0,0,,,,,,,,,,,
123,742720,1744863141523,0.0,135.0,,-0.06,0.12,0.94,0.0,0.0,0.0,0.95,1.1,86.0,3238.0,1.4,3.24,,12.43,0.925,70.0,,35.1,5.0,,,,,,,,,,,,0,0,0,0,0,0,0,0,0,0,0,0,0,0,0,0,,,,,0.0,,,,,,
124,742740,1744863141543,,,,,,,,,,,,,,,,,,,,,,,0.0,0.0,0.0,0.0,0.0,0.0,0.0,0.0,2.26,,,0,0,0,0,0,0,0,0,0,0,0,0,0,0,0,0,0.0,,,,,38.985832,-76.950851,0.0,36.0,3.0,0.8
125,742760,1744863141563,0.0,135.0,,-0.05,0.08,0.96,0.0,0.0,1.0,0.96,1.1,87.0,3203.0,1.5,3.26,,12.52,0.939,70.0,,35.1,5.0,,,,,,,,,,,,0,0,0,0,0,0,0,0,0,0,0,0,0,0,0,0,,,,,0.0,,,,,,
126,742780,1744863141583,,,,,,,,,,,,,,,,,,,,,,,,,,,,,,,,,,0,0,0,0,0,0,0,0,0,0,0,0,0,0,0,0,,,,,,,,,,,
127,742800,1744863141603,0.0,135.0,,-0.03,0.06,1.04,-1.0,0.0,1.0,1.05,1.1,95.0,3167.0,1.6,3.28,,12.53,0.961,70.0,,35.1,5.0,,,,,,,,,,,,0,0,0,0,0,0,0,0,0,0,0,0,0,0,0,0,,,,,0.0,,,,,,
128,742820,1744863141623,,,,,,,,,,,,,,,,,,,,,,,,,,,,,,,,,,0,0,0,0,0,0,0,0,0,0,0,0,0,0,0,0,,,,,,,,,,,
129,742840,1744863141643,0.0,135.0,,-0.05,0.05,1.03,0.0,0.0,0.0,1.03,1.1,94.0,3184.0,1.6,3.25,,12.53,0.961,70.0,,34.1,5.0,0.0,0.0,0.0,0.0,0.0,0.0,0.0,0.0,2.26,,,0,0,0,0,0,0,0,0,0,0,0,0,0,0,0,0,0.0,,,,0.0,38.985832,-76.950851,0.05,36.0,3.0,0.8
130,742860,1744863141663,,,,,,,,,,,,,,,,,,,,,,,,,,,,,,,,,,0,0,0,0,0,0,0,0,0,0,0,0,0,0,0,0,,,,,,,,,,,
131,742880,1744863141683,0.0,135.0,,-0.07,0.09,0.96,0.0,0.0,0.0,0.96,1.1,87.0,3184.0,1.6,3.25,,12.53,0.981,70.0,,34.1,5.0,,,,,,,,,,,,0,0,0,0,0,0,0,0,0,0,0,0,0,0,0,0,,,,,0.0,,,,,,
132,742900,1744863141703,,,,,,,,,,,,,,,,,,,,,,,,,,,,,,,,,,0,0,0,0,0,0,0,0,0,0,0,0,0,0,0,0,,,,,,,,,,,
133,742920,1744863141723,0.0,135.0,,-0.05,0.1,0.9,0.0,0.0,0.0,0.91,1.1,82.0,3100.0,1.6,3.28,,12.63,0.987,70.0,,33.5,5.0,,,,,,,,,,,,0,0,0,0,0,0,0,0,0,0,0,0,0,0,0,0,,,,,0.0,,,,,,
134,742940,1744863141743,,,,,,,,,,,,,,,,,,,,,,,0.0,0.0,0.0,0.0,0.0,0.0,0.0,0.0,2.26,,,0,0,0,0,0,0,0,0,0,0,0,0,0,0,0,0,0.0,,,,,38.985832,-76.950851,0.13,36.0,3.0,0.8
135,742960,1744863141763,0.0,135.0,,-0.03,0.1,0.86,0.0,0.0,0.0,0.87,1.1,79.0,3027.0,1.6,3.26,,12.65,0.998,70.0,,33.5,5.0,,,,,,,,,,,,0,0,0,0,0,0,0,0,0,0,0,0,0,0,0,0,,,,,0.0,,,,,,
136,742980,1744863141783,,,,,,,,,,,,,,,,,,,,,,,,,,,,,,,,,,0,0,0,0,0,0,0,0,0,0,0,0,0,0,0,0,,,,,,,,,,,
137,743000,1744863141805,0.0,135.0,,-0.01,0.09,0.83,0.0,0.0,0.0,0.84,1.1,76.0,2975.0,1.6,3.34,,12.68,0.984,70.0,,33.5,5.0,,,,,,,,,,,,0,0,0,0,0,0,0,0,0,0,0,0,0,0,0,0,,,,,0.0,,,,,,
138,743020,1744863141825,,,,,,,,,,,,,,,,,,,,,,,,,,,,,,,,,,0,0,0,0,0,0,0,0,0,0,0,0,0,0,0,0,,,,,,,,,,,
139,743040,1744863141845,0.0,135.0,,-0.02,0.08,0.82,0.0,0.0,0.0,0.83,1.1,75.0,2879.0,1.6,3.37,,12.68,0.984,70.0,,31.7,5.0,0.0,0.0,0.0,0.0,0.0,0.0,0.0,0.0,2.26,,,0,0,0,0,0,0,0,0,0,0,0,0,0,0,0,0,0.0,,,,0.0,38.985832,-76.950851,0.04,36.0,3.0,0.8
140,743060,1744863141865,,,,,,,,,,,,,,,,,,,,,,,,,,,,,,,,,,0,0,0,0,0,0,0,0,0,0,0,0,0,0,0,0,,,,,,,,,,,
141,743080,1744863141885,0.0,135.0,,-0.03,0.07,0.87,0.0,0.0,0.0,0.88,1.1,79.0,2879.0,1.6,3.37,,12.8,0.943,70.0,,31.7,5.0,,,,,,,,,,,,0,0,0,0,0,0,0,0,0,0,0,0,0,0,0,0,,,,,0.0,,,,,,
142,743100,1744863141904,,,,,,,,,,,,,,,,,,,,,,,,,,,,,,,,,,0,0,0,0,0,0,0,0,0,0,0,0,0,0,0,0,,,,,,,,,,,
143,743120,1744863141924,0.0,135.0,,-0.05,0.07,0.87,0.0,0.0,0.0,0.88,1.1,80.0,2764.0,1.5,3.41,,12.89,0.921,70.0,,29.2,5.0,,,,,,,,,,,,0,0,0,0,0,0,0,0,0,0,0,0,0,0,0,0,,,,,0.0,,,,,,
144,743140,1744863141944,,,,,,,,,,,,,,,,,,,,,,,0.0,0.0,0.0,0.0,0.0,0.0,0.0,0.0,2.26,,,0,0,0,0,0,0,0,0,0,0,0,0,0,0,0,0,0.0,,,,,38.985832,-76.950851,0.04,36.0,3.0,0.8
145,743160,1744863141964,0.0,135.0,,-0.04,0.05,0.9,0.0,0.0,0.0,0.91,1.1,82.0,2612.0,1.4,3.45,,13.04,0.952,70.0,,29.2,5.0,,,,,,,,,,,,0,0,0,0,0,0,0,0,0,0,0,0,0,0,0,0,,,,,0.0,,,,,,
146,743180,1744863141984,,,,,,,,,,,,,,,,,,,,,,,,,,,,,,,,,,0,0,0,0,0,0,0,0,0,0,0,0,0,0,0,0,,,,,,,,,,,
147,743200,1744863141996,0.0,135.0,,-0.05,0.06,0.9,0.0,0.0,0.0,0.91,1.1,82.0,2519.0,1.4,3.47,,13.16,1.009,70.0,,29.2,5.0,,,,,,,,,,,,0,0,0,0,0,0,0,0,0,0,0,0,0,0,0,0,,,,,0.0,,,,,,
148,743220,1744863142016,,,,,,,,,,,,,,,,,,,,,,,,,,,,,,,,,,0,0,0,0,0,0,0,0,0,0,0,0,0,0,0,0,,,,,,,,,,,
149,743240,1744863142036,0.0,135.0,14.11,-0.04,0.07,0.91,0.0,0.0,0.0,0.92,1.1,83.0,2400.0,1.4,3.49,15.0,13.16,1.009,70.0,176.0,26.6,5.0,0.0,0.0,0.0,0.0,0.0,0.0,0.0,0.0,2.26,0.0,0.0,0,0,0,0,0,0,0,0,0,0,0,0,0,0,0,0,0.0,0.0,0.0,0.0,0.0,38.985832,-76.950851,0.05,36.0,3.0,0.8
150,743260,1744863142056,,,,,,,,,,,,,,,,,,,,,,,,,,,,,,,,,,0,0,0,0,0,0,0,0,0,0,0,0,0,0,0,0,,,,,,,,,,,
151,743280,1744863142076,0.0,135.0,,-0.05,0.04,0.93,0.0,0.0,0.0,0.93,1.1,84.0,2400.0,1.4,3.49,,13.29,1.051,70.0,,26.6,5.0,,,,,,,,,,,,0,0,0,0,0,0,0,0,0,0,0,0,0,0,0,0,,,,,0.0,,,,,,
152,743300,1744863142102,,,,,,,,,,,,,,,,,,,,,,,,,,,,,,,,,,0,0,0,0,0,0,0,0,0,0,0,0,0,0,0,0,,,,,,,,,,,
153,743320,1744863142122,0.0,135.0,,-0.05,0.02,0.93,0.0,0.0,0.0,0.93,1.1,84.0,2279.0,1.5,3.52,,13.43,1.085,70.0,,24.0,5.0,,,,,,,,,,,,0,0,0,0,0,0,0,0,0,0,0,0,0,0,0,0,,,,,0.0,,,,,,
154,743340,1744863142142,,,,,,,,,,,,,,,,,,,,,,,0.0,0.0,0.0,0.0,0.0,0.0,0.0,0.0,2.26,,,0,0,0,0,0,0,0,0,0,0,0,0,0,0,0,0,0.0,,,,,38.985832,-76.950851,0.1,36.0,3.0,0.8
155,743360,1744863142162,0.0,135.0,,-0.04,0.01,0.95,0.0,0.0,0.0,0.95,1.1,86.0,2162.0,1.6,3.58,,13.51,1.087,70.0,,24.0,5.0,,,,,,,,,,,,0,0,0,0,0,0,0,0,0,0,0,0,0,0,0,0,,,,,0.0,,,,,,
156,743380,1744863142182,,,,,,,,,,,,,,,,,,,,,,,,,,,,,,,,,,0,0,0,0,0,0,0,0,0,0,0,0,0,0,0,0,,,,,,,,,,,
157,743400,1744863142202,0.0,135.0,,-0.04,-0.01,0.94,0.0,0.0,0.0,0.94,1.1,86.0,2100.0,1.6,3.6,,13.69,1.084,70.0,,24.0,5.0,,,,,,,,,,,,0,0,0,0,0,0,0,0,0,0,0,0,0,0,0,0,,,,,0.0,,,,,,
158,743420,1744863142222,,,,,,,,,,,,,,,,,,,,,,,,,,,,,,,,,,0,0,0,0,0,0,0,0,0,0,0,0,0,0,0,0,,,,,,,,,,,
159,743440,1744863142242,0.0,135.0,,-0.05,0.01,0.95,0.0,0.0,0.0,0.95,1.1,86.0,1906.0,1.6,3.66,,13.69,1.084,70.0,,20.7,5.0,0.0,0.0,0.0,0.0,0.0,0.0,0.0,0.0,2.26,,,0,0,0,0,0,0,0,0,0,0,0,0,0,0,0,0,0.0,,,,0.0,38.985832,-76.950851,0.04,36.0,3.0,0.8
160,743460,1744863142262,,,,,,,,,,,,,,,,,,,,,,,,,,,,,,,,,,0,0,0,0,0,0,0,0,0,0,0,0,0,0,0,0,,,,,,,,,,,
161,743480,1744863142282,0.0,135.0,,-0.05,0.03,0.95,0.0,0.0,0.0,0.95,1.1,86.0,1906.0,1.6,3.66,,13.8,1.09,70.0,,20.7,5.0,,,,,,,,,,,,0,0,0,0,0,0,0,0,0,0,0,0,0,0,0,0,,,,,0.0,,,,,,
162,743500,1744863142304,,,,,,,,,,,,,,,,,,,,,,,,,,,,,,,,,,0,0,0,0,0,0,0,0,0,0,0,0,0,0,0,0,,,,,,,,,,,
163,743520,1744863142324,0.0,135.0,,-0.03,0.02,0.97,0.0,0.0,0.0,0.97,1.1,88.0,1783.0,1.6,3.66,,14.08,1.099,70.0,,18.2,5.0,,,,,,,,,,,,0,0,0,0,0,0,0,0,0,0,0,0,0,0,0,0,,,,,0.0,,,,,,
164,743540,1744863142344,,,,,,,,,,,,,,,,,,,,,,,0.0,0.0,0.0,0.0,0.0,0.0,0.0,0.0,2.26,,,0,0,0,0,0,0,0,0,0,0,0,0,0,0,0,0,0.0,,,,,38.985832,-76.950851,0.07,36.0,3.0,0.8
165,743560,1744863142364,0.0,135.0,,-0.02,0.01,0.99,0.0,0.0,0.0,0.99,1.1,89.0,1580.0,1.7,3.71,,14.0,1.077,70.0,,18.2,5.0,,,,,,,,,,,,0,0,0,0,0,0,0,0,0,0,0,0,0,0,0,0,,,,,0.0,,,,,,
166,743580,1744863142384,,,,,,,,,,,,,,,,,,,,,,,,,,,,,,,,,,0,0,0,0,0,0,0,0,0,0,0,0,0,0,0,0,,,,,,,,,,,
167,743600,1744863142404,0.0,135.0,,-0.01,0.01,0.99,0.0,0.0,0.0,0.99,1.1,90.0,1505.0,1.6,3.71,,14.12,1.008,70.0,,18.2,5.0,,,,,,,,,,,,0,0,0,0,0,0,0,0,0,0,0,0,0,0,0,0,,,,,0.0,,,,,,
168,743620,1744863142424,,,,,,,,,,,,,,,,,,,,,,,,,,,,,,,,,,0,0,0,0,0,0,0,0,0,0,0,0,0,0,0,0,,,,,,,,,,,
169,743640,1744863142444,0.0,135.0,,-0.01,0.04,0.99,0.0,0.0,0.0,0.99,1.1,90.0,1413.0,1.5,3.73,,14.12,1.008,70.0,,16.0,5.0,0.0,0.0,0.0,0.0,0.0,0.0,0.0,0.0,2.26,,,0,0,0,0,0,0,0,0,0,0,0,0,0,0,0,0,0.0,,,,0.0,38.985832,-76.950851,0.1,36.0,3.0,0.8
170,743660,1744863142464,,,,,,,,,,,,,,,,,,,,,,,,,,,,,,,,,,0,0,0,0,0,0,0,0,0,0,0,0,0,0,0,0,,,,,,,,,,,
171,743680,1744863142484,0.0,135.0,,-0.02,0.03,0.98,0.0,0.0,0.0,0.98,1.1,89.0,1413.0,1.5,3.73,,14.11,0.934,70.0,,16.0,5.0,,,,,,,,,,,,0,0,0,0,0,0,0,0,0,0,0,0,0,0,0,0,,,,,0.0,,,,,,
172,743700,1744863142504,,,,,,,,,,,,,,,,,,,,,,,,,,,,,,,,,,0,0,0,0,0,0,0,0,0,0,0,0,0,0,0,0,,,,,,,,,,,
173,743720,1744863142524,0.0,135.0,,-0.02,0.0,0.98,0.0,0.0,0.0,0.98,1.1,89.0,1336.0,1.4,3.72,,14.18,0.899,70.0,,13.4,5.0,,,,,,,,,,,,0,0,0,0,0,0,0,0,0,0,0,0,0,0,0,0,,,,,0.0,,,,,,
174,743740,1744863142544,,,,,,,,,,,,,,,,,,,,,,,0.0,0.0,0.0,0.0,0.0,0.0,0.0,0.0,2.26,,,0,0,0,0,0,0,0,0,0,0,0,0,0,0,0,0,0.0,,,,,38.985832,-76.950851,0.0,36.0,3.0,0.8
175,743760,1744863142564,0.0,135.0,,-0.03,0.01,0.97,0.0,0.0,0.0,0.97,1.1,88.0,1105.0,1.4,3.75,,14.22,0.887,70.0,,13.4,5.0,,,,,,,,,,,,0,0,0,0,0,0,0,0,0,0,0,0,0,0,0,0,,,,,0.0,,,,,,
176,743780,1744863142584,,,,,,,,,,,,,,,,,,,,,,,,,,,,,,,,,,0,0,0,0,0,0,0,0,0,0,0,0,0,0,0,0,,,,,,,,,,,
177,743800,1744863142604,0.0,135.0,,-0.03,0.02,0.97,0.0,0.0,0.0,0.97,1.1,88.0,1308.0,1.4,3.77,,14.22,0.861,70.0,,13.4,5.0,,,,,,,,,,,,0,0,0,0,0,0,0,0,0,0,0,0,0,0,0,0,,,,,0.0,,,,,,
178,743820,1744863142624,,,,,,,,,,,,,,,,,,,,,,,,,,,,,,,,,,0,0,0,0,0,0,0,0,0,0,0,0,0,0,0,0,,,,,,,,,,,
179,743840,1744863142644,0.0,135.0,,-0.03,0.0,0.98,0.0,0.0,0.0,0.98,1.1,89.0,1089.0,1.5,3.75,,14.22,0.861,70.0,,12.9,5.0,0.0,0.0,0.0,0.0,0.0,0.0,0.0,0.0,2.26,,,0,0,0,0,0,0,0,0,0,0,0,0,0,0,0,0,0.0,,,,0.0,38.985832,-76.950851,0.05,36.0,3.0,0.8
180,743860,1744863142664,,,,,,,,,,,,,,,,,,,,,,,,,,,,,,,,,,0,0,0,0,0,0,0,0,0,0,0,0,0,0,0,0,,,,,,,,,,,
181,743880,1744863142684,0.0,135.0,,-0.04,0.0,0.98,0.0,0.0,0.0,0.98,1.1,89.0,1089.0,1.5,3.75,,14.34,0.84,70.0,,12.9,5.0,,,,,,,,,,,,0,0,0,0,0,0,0,0,0,0,0,0,0,0,0,0,,,,,0.0,,,,,,
182,743900,1744863142704,,,,,,,,,,,,,,,,,,,,,,,,,,,,,,,,,,0,0,0,0,0,0,0,0,0,0,0,0,0,0,0,0,,,,,,,,,,,
183,743920,1744863142724,0.0,135.0,,-0.04,0.01,0.98,0.0,0.0,0.0,0.98,1.1,89.0,1235.0,1.6,3.75,,14.26,0.824,70.0,,12.9,5.0,,,,,,,,,,,,0,0,0,0,0,0,0,0,0,0,0,0,0,0,0,0,,,,,0.0,,,,,,
184,743940,1744863142744,,,,,,,,,,,,,,,,,,,,,,,0.0,0.0,0.0,0.0,0.0,0.0,0.0,0.0,2.26,,,0,0,0,0,0,0,0,0,0,0,0,0,0,0,0,0,0.0,,,,,38.985832,-76.950851,0.0,36.0,3.0,0.8
185,743960,1744863142764,0.0,135.0,,-0.07,0.0,0.98,0.0,0.0,0.0,0.98,1.1,89.0,1095.0,1.6,3.74,,14.42,0.813,70.0,,12.9,5.0,,,,,,,,,,,,0,0,0,0,0,0,0,0,0,0,0,0,0,0,0,0,,,,,0.0,,,,,,
186,743980,1744863142784,,,,,,,,,,,,,,,,,,,,,,,,,,,,,,,,,,0,0,0,0,0,0,0,0,0,0,0,0,0,0,0,0,,,,,,,,,,,
187,744000,1744863142804,0.0,135.0,,-0.06,0.01,0.98,0.0,0.0,0.0,0.98,1.1,89.0,1133.0,1.6,3.75,,14.36,0.807,70.0,,12.9,5.0,,,,,,,,,,,,0,0,0,0,0,0,0,0,0,0,0,0,0,0,0,0,,,,,0.0,,,,,,
188,744020,1744863142824,,,,,,,,,,,,,,,,,,,,,,,,,,,,,,,,,,0,0,0,0,0,0,0,0,0,0,0,0,0,0,0,0,,,,,,,,,,,
189,744040,1744863142844,0.0,135.0,,-0.07,-0.01,0.97,1.0,0.0,0.0,0.97,1.1,88.0,1030.0,2.7,3.82,,14.36,0.807,70.0,,12.8,5.0,0.0,0.0,0.0,0.0,0.0,0.0,0.0,0.0,2.26,,,0,0,0,0,0,0,0,0,0,0,0,0,0,0,0,0,0.0,,,,0.0,38.985832,-76.950851,0.04,36.0,3.0,0.8
190,744060,1744863142864,,,,,,,,,,,,,,,,,,,,,,,,,,,,,,,,,,0,0,0,0,0,0,0,0,0,0,0,0,0,0,0,0,,,,,,,,,,,
191,744080,1744863142884,0.0,135.0,,-0.06,-0.01,0.97,0.0,0.0,0.0,0.97,1.1,88.0,1030.0,2.7,3.82,,14.36,0.802,70.0,,12.8,5.0,,,,,,,,,,,,0,0,0,0,0,0,0,0,0,0,0,0,0,0,0,0,,,,,0.0,,,,,,
192,744100,1744863142903,,,,,,,,,,,,,,,,,,,,,,,,,,,,,,,,,,0,0,0,0,0,0,0,0,0,0,0,0,0,0,0,0,,,,,,,,,,,
193,744120,1744863142923,0.0,135.0,,-0.06,-0.02,0.97,0.0,0.0,0.0,0.98,1.1,89.0,1288.0,2.8,3.85,,14.38,0.805,70.0,,13.2,5.0,,,,,,,,,,,,0,0,0,0,0,0,0,0,0,0,0,0,0,0,0,0,,,,,0.0,,,,,,
194,744140,1744863142943,,,,,,,,,,,,,,,,,,,,,,,0.0,0.0,0.0,0.0,0.0,0.0,0.0,0.0,2.26,,,0,0,0,0,0,0,0,0,0,0,0,0,0,0,0,0,0.0,,,,,38.985832,-76.950851,0.08,36.0,3.0,0.8
195,744160,1744863142963,0.0,135.0,,-0.06,-0.04,0.97,0.0,0.0,0.0,0.97,1.1,88.0,1100.0,2.8,3.84,,14.32,0.829,70.0,,13.2,5.0,,,,,,,,,,,,0,0,0,0,0,0,0,0,0,0,0,0,0,0,0,0,,,,,0.0,,,,,,
196,744180,1744863142983,,,,,,,,,,,,,,,,,,,,,,,,,,,,,,,,,,0,0,0,0,0,0,0,0,0,0,0,0,0,0,0,0,,,,,,,,,,,
197,744200,1744863142995,0.0,135.0,,-0.06,-0.04,0.98,0.0,0.0,0.0,0.98,1.1,89.0,1100.0,2.7,3.84,,14.35,0.844,70.0,,13.2,5.0,,,,,,,,,,,,0,0,0,0,0,0,0,0,0,0,0,0,0,0,0,0,,,,,0.0,,,,,,
198,744220,1744863143015,,,,,,,,,,,,,,,,,,,,,,,,,,,,,,,,,,0,0,0,0,0,0,0,0,0,0,0,0,0,0,0,0,,,,,,,,,,,
199,744240,1744863143035,0.0,135.0,13.58,-0.06,-0.04,0.98,0.0,0.0,0.0,0.98,1.1,89.0,1025.0,2.7,3.85,15.0,14.35,0.844,70.0,176.0,12.6,5.0,0.0,0.0,0.0,0.0,0.0,0.0,0.0,0.0,2.26,0.0,0.0,0,0,0,0,0,0,0,0,0,0,0,0,0,0,0,0,0.0,0.0,0.0,0.0,0.0,38.985832,-76.950851,0.05,36.0,3.0,0.8
200,744260,1744863143055,,,,,,,,,,,,,,,,,,,,,,,,,,,,,,,,,,0,0,0,0,0,0,0,0,0,0,0,0,0,0,0,0,,,,,,,,,,,
201,744280,1744863143075,0.0,135.0,,-0.06,-0.03,0.98,0.0,0.0,0.0,0.98,1.1,89.0,1025.0,2.7,3.85,,14.52,0.845,70.0,,12.6,5.0,,,,,,,,,,,,0,0,0,0,0,0,0,0,0,0,0,0,0,0,0,0,,,,,0.0,,,,,,
202,744300,1744863143101,,,,,,,,,,,,,,,,,,,,,,,,,,,,,,,,,,0,0,0,0,0,0,0,0,0,0,0,0,0,0,0,0,,,,,,,,,,,
203,744320,1744863143121,0.0,135.0,,-0.06,-0.02,0.98,0.0,0.0,0.0,0.98,1.1,89.0,885.0,2.7,3.85,,14.63,0.844,70.0,,8.7,5.0,,,,,,,,,,,,0,0,0,0,0,0,0,0,0,0,0,0,0,0,0,0,,,,,0.0,,,,,,
204,744340,1744863143141,,,,,,,,,,,,,,,,,,,,,,,0.0,0.0,0.0,0.0,0.0,0.0,0.0,0.0,2.26,,,0,0,0,0,0,0,0,0,0,0,0,0,0,0,0,0,0.0,,,,,38.985832,-76.950851,0.05,36.0,3.0,0.8
205,744360,1744863143161,0.0,135.0,,-0.06,-0.02,0.98,0.0,0.0,0.0,0.99,1.1,89.0,885.0,2.7,3.85,,14.58,0.846,70.0,,8.7,5.0,,,,,,,,,,,,0,0,0,0,0,0,0,0,0,0,0,0,0,0,0,0,,,,,0.0,,,,,,
206,744380,1744863143181,,,,,,,,,,,,,,,,,,,,,,,,,,,,,,,,,,0,0,0,0,0,0,0,0,0,0,0,0,0,0,0,0,,,,,,,,,,,
207,744400,1744863143199,0.0,135.0,,-0.07,-0.02,0.99,0.0,0.0,0.0,0.99,1.1,90.0,885.0,2.7,3.85,,14.6,0.847,70.0,,8.7,5.0,,,,,,,,,,,,0,0,0,0,0,0,0,0,0,0,0,0,0,0,0,0,,,,,0.0,,,,,,
208,744420,1744863143219,,,,,,,,,,,,,,,,,,,,,,,,,,,,,,,,,,0,0,0,0,0,0,0,0,0,0,0,0,0,0,0,0,,,,,,,,,,,
209,744440,1744863143239,0.0,135.0,,-0.07,-0.02,0.99,0.0,0.0,0.0,0.99,1.1,90.0,885.0,2.8,3.85,,14.6,0.847,70.0,,7.1,5.0,0.0,0.0,0.0,0.0,0.0,0.0,0.0,0.0,2.26,,,0,0,0,0,0,0,0,0,0,0,0,0,0,0,0,0,0.0,,,,0.0,38.985832,-76.950851,0.04,36.0,3.0,0.8
210,744460,1744863143259,,,,,,,,,,,,,,,,,,,,,,,,,,,,,,,,,,0,0,0,0,0,0,0,0,0,0,0,0,0,0,0,0,,,,,,,,,,,
211,744480,1744863143279,0.0,135.0,,-0.07,-0.02,0.99,0.0,0.0,0.0,0.99,1.1,90.0,885.0,2.8,3.85,,14.67,0.85,70.0,,7.1,5.0,,,,,,,,,,,,0,0,0,0,0,0,0,0,0,0,0,0,0,0,0,0,,,,,0.0,,,,,,
212,744500,1744863143303,,,,,,,,,,,,,,,,,,,,,,,,,,,,,,,,,,0,0,0,0,0,0,0,0,0,0,0,0,0,0,0,0,,,,,,,,,,,
213,744520,1744863143323,0.0,135.0,,-0.07,-0.02,0.99,0.0,0.0,0.0,1.0,1.1,90.0,885.0,2.8,3.85,,14.63,0.85,70.0,,6.6,5.0,,,,,,,,,,,,0,0,0,0,0,0,0,0,0,0,0,0,0,0,0,0,,,,,0.0,,,,,,
214,744540,1744863143343,,,,,,,,,,,,,,,,,,,,,,,0.0,0.0,0.0,0.0,0.0,0.0,0.0,0.0,2.26,,,0,0,0,0,0,0,0,0,0,0,0,0,0,0,0,0,0.0,,,,,38.985832,-76.950851,0.04,36.0,3.0,0.8
215,744560,1744863143363,0.0,135.0,,-0.07,-0.01,0.99,0.0,0.0,0.0,1.0,1.1,90.0,885.0,2.8,3.85,,14.6,0.851,70.0,,6.6,5.0,,,,,,,,,,,,0,0,0,0,0,0,0,0,0,0,0,0,0,0,0,0,,,,,0.0,,,,,,
216,744580,1744863143383,,,,,,,,,,,,,,,,,,,,,,,,,,,,,,,,,,0,0,0,0,0,0,0,0,0,0,0,0,0,0,0,0,,,,,,,,,,,
217,744600,1744863143403,0.0,135.0,,-0.07,-0.01,0.99,0.0,0.0,0.0,1.0,1.1,90.0,885.0,2.8,3.85,,14.6,0.852,70.0,,6.6,5.0,,,,,,,,,,,,0,0,0,0,0,0,0,0,0,0,0,0,0,0,0,0,,,,,0.0,,,,,,
218,744620,1744863143423,,,,,,,,,,,,,,,,,,,,,,,,,,,,,,,,,,0,0,0,0,0,0,0,0,0,0,0,0,0,0,0,0,,,,,,,,,,,
219,744640,1744863143443,0.0,135.0,,-0.07,-0.01,1.0,0.0,0.0,0.0,1.0,1.1,90.0,885.0,2.9,3.85,,14.6,0.852,70.0,,6.6,5.0,0.0,0.0,0.0,0.0,0.0,0.0,0.0,0.0,2.26,,,0,0,0,0,0,0,0,0,0,0,0,0,0,0,0,0,0.0,,,,0.0,38.985832,-76.950851,0.08,36.0,3.0,0.8
220,744660,1744863143463,,,,,,,,,,,,,,,,,,,,,,,,,,,,,,,,,,0,0,0,0,0,0,0,0,0,0,0,0,0,0,0,0,,,,,,,,,,,
221,744680,1744863143483,0.0,135.0,,-0.07,-0.01,1.0,0.0,0.0,0.0,1.0,1.1,91.0,885.0,2.9,3.85,,14.59,0.853,70.0,,6.6,5.0,,,,,,,,,,,,0,0,0,0,0,0,0,0,0,0,0,0,0,0,0,0,,,,,0.0,,,,,,
222,744700,1744863143505,,,,,,,,,,,,,,,,,,,,,,,,,,,,,,,,,,0,0,0,0,0,0,0,0,0,0,0,0,0,0,0,0,,,,,,,,,,,
223,744720,1744863143525,0.0,135.0,,-0.07,-0.01,1.0,0.0,0.0,0.0,1.0,1.1,91.0,885.0,5.1,3.85,,14.59,0.853,70.0,,6.6,5.0,,,,,,,,,,,,0,0,0,0,0,0,0,0,0,0,0,0,0,0,0,0,,,,,0.0,,,,,,
224,744740,1744863143545,,,,,,,,,,,,,,,,,,,,,,,0.0,0.0,0.0,0.0,0.0,0.0,0.0,0.0,2.26,,,0,0,0,0,0,0,0,0,0,0,0,0,0,0,0,0,0.0,,,,,38.985832,-76.950851,0.0,36.0,3.0,0.8
225,744760,1744863143565,0.0,135.0,,-0.07,-0.01,1.0,0.0,0.0,0.0,1.0,1.1,91.0,885.0,5.3,3.85,,14.59,0.851,70.0,,6.6,5.0,,,,,,,,,,,,0,0,0,0,0,0,0,0,0,0,0,0,0,0,0,0,,,,,0.0,,,,,,
226,744780,1744863143585,,,,,,,,,,,,,,,,,,,,,,,,,,,,,,,,,,0,0,0,0,0,0,0,0,0,0,0,0,0,0,0,0,,,,,,,,,,,
227,744800,1744863143603,0.0,135.0,,-0.07,-0.01,1.0,0.0,0.0,0.0,1.0,1.1,91.0,885.0,5.3,3.85,,14.6,0.852,70.0,,6.6,5.0,,,,,,,,,,,,0,0,0,0,0,0,0,0,0,0,0,0,0,0,0,0,,,,,0.0,,,,,,
228,744820,1744863143623,,,,,,,,,,,,,,,,,,,,,,,,,,,,,,,,,,0,0,0,0,0,0,0,0,0,0,0,0,0,0,0,0,,,,,,,,,,,
229,744840,1744863143643,0.0,135.0,,-0.07,-0.01,1.0,0.0,0.0,0.0,1.0,1.1,91.0,885.0,5.3,3.85,,14.6,0.852,70.0,,6.6,5.0,0.0,0.0,0.0,0.0,0.0,0.0,0.0,0.0,2.26,,,0,0,0,0,0,0,0,0,0,0,0,0,0,0,0,0,0.0,,,,0.0,38.985832,-76.950851,0.04,36.0,3.0,0.8
230,744860,1744863143663,,,,,,,,,,,,,,,,,,,,,,,,,,,,,,,,,,0,0,0,0,0,0,0,0,0,0,0,0,0,0,0,0,,,,,,,,,,,
231,744880,1744863143683,0.0,135.0,,-0.07,-0.0,1.0,0.0,0.0,0.0,1.0,1.1,91.0,885.0,5.3,3.85,,14.6,0.851,70.0,,6.6,5.0,,,,,,,,,,,,0,0,0,0,0,0,0,0,0,0,0,0,0,0,0,0,,,,,0.0,,,,,,
232,744900,1744863143705,,,,,,,,,,,,,,,,,,,,,,,,,,,,,,,,,,0,0,0,0,0,0,0,0,0,0,0,0,0,0,0,0,,,,,,,,,,,
233,744920,1744863143725,0.0,135.0,,-0.07,-0.0,1.0,0.0,0.0,0.0,1.0,1.1,91.0,885.0,5.3,3.85,,14.6,0.85,70.0,,6.6,5.0,,,,,,,,,,,,0,0,0,0,0,0,0,0,0,0,0,0,0,0,0,0,,,,,0.0,,,,,,
234,744940,1744863143745,,,,,,,,,,,,,,,,,,,,,,,0.0,0.0,0.0,0.0,0.0,0.0,0.0,0.0,2.26,,,0,0,0,0,0,0,0,0,0,0,0,0,0,0,0,0,0.0,,,,,38.985832,-76.950851,0.04,36.0,3.0,0.8
235,744960,1744863143765,0.0,135.0,,-0.07,-0.0,1.0,0.0,0.0,0.0,1.0,1.1,91.0,885.0,5.4,3.85,,14.6,0.85,70.0,,6.6,5.0,,,,,,,,,,,,0,0,0,0,0,0,0,0,0,0,0,0,0,0,0,0,,,,,0.0,,,,,,
236,744980,1744863143785,,,,,,,,,,,,,,,,,,,,,,,,,,,,,,,,,,0,0,0,0,0,0,0,0,0,0,0,0,0,0,0,0,,,,,,,,,,,
237,745000,1744863143803,0.0,135.0,,-0.07,-0.0,1.0,0.0,0.0,0.0,1.0,1.1,91.0,885.0,5.4,3.85,,14.6,0.85,70.0,,6.6,5.0,,,,,,,,,,,,0,0,0,0,0,0,0,0,0,0,0,0,0,0,0,0,,,,,0.0,,,,,,
238,745020,1744863143823,,,,,,,,,,,,,,,,,,,,,,,,,,,,,,,,,,0,0,0,0,0,0,0,0,0,0,0,0,0,0,0,0,,,,,,,,,,,
239,745040,1744863143843,0.0,135.0,,-0.07,-0.0,1.0,0.0,0.0,0.0,1.0,1.1,91.0,885.0,5.4,3.85,,14.6,0.85,70.0,,6.6,5.0,0.0,0.0,0.0,0.0,0.0,0.0,0.0,0.0,2.26,,,0,0,0,0,0,0,0,0,0,0,0,0,0,0,0,0,0.0,,,,0.0,38.985832,-76.950851,0.0,36.0,3.0,0.8
240,745060,1744863143863,,,,,,,,,,,,,,,,,,,,,,,,,,,,,,,,,,0,0,0,0,0,0,0,0,0,0,0,0,0,0,0,0,,,,,,,,,,,
241,745080,1744863143883,0.0,135.0,,-0.07,-0.0,1.0,0.0,0.0,0.0,1.0,1.1,91.0,885.0,5.4,3.85,,14.6,0.848,70.0,,6.6,5.0,,,,,,,,,,,,0,0,0,0,0,0,0,0,0,0,0,0,0,0,0,0,,,,,0.0,,,,,,
242,745100,1744863143904,,,,,,,,,,,,,,,,,,,,,,,,,,,,,,,,,,0,0,0,0,0,0,0,0,0,0,0,0,0,0,0,0,,,,,,,,,,,
243,745120,1744863143924,0.0,135.0,,-0.07,-0.0,1.0,0.0,0.0,0.0,1.0,1.1,91.0,885.0,5.4,3.85,,14.6,0.848,70.0,,6.7,5.0,,,,,,,,,,,,0,0,0,0,0,0,0,0,0,0,0,0,0,0,0,0,,,,,0.0,,,,,,
244,745140,1744863143944,,,,,,,,,,,,,,,,,,,,,,,0.0,0.0,0.0,0.0,0.0,0.0,0.0,0.0,2.26,,,0,0,0,0,0,0,0,0,0,0,0,0,0,0,0,0,0.0,,,,,38.985832,-76.950851,0.0,36.0,3.0,0.8
245,745160,1744863143964,0.0,135.0,,-0.07,-0.0,1.0,0.0,0.0,0.0,1.0,1.1,91.0,885.0,5.5,3.85,,14.59,0.848,70.0,,6.7,5.0,,,,,,,,,,,,0,0,0,0,0,0,0,0,0,0,0,0,0,0,0,0,,,,,0.0,,,,,,
246,745180,1744863143984,,,,,,,,,,,,,,,,,,,,,,,,,,,,,,,,,,0,0,0,0,0,0,0,0,0,0,0,0,0,0,0,0,,,,,,,,,,,
247,745200,1744863143994,0.0,135.0,,-0.07,-0.0,1.0,0.0,0.0,0.0,1.0,1.1,91.0,885.0,5.5,3.85,,14.59,0.847,70.0,,6.7,5.0,,,,,,,,,,,,0,0,0,0,0,0,0,0,0,0,0,0,0,0,0,0,,,,,0.0,,,,,,
248,745220,1744863144014,,,,,,,,,,,,,,,,,,,,,,,,,,,,,,,,,,0,0,0,0,0,0,0,0,0,0,0,0,0,0,0,0,,,,,,,,,,,
249,745240,1744863144034,0.0,135.0,13.47,-0.07,-0.0,1.0,0.0,0.0,0.0,1.0,1.1,91.0,885.0,5.4,3.85,15.0,14.59,0.847,70.0,176.0,6.5,5.0,0.0,0.0,0.0,0.0,0.0,0.0,0.0,0.0,2.26,0.0,0.0,0,0,0,0,0,0,0,0,0,0,0,0,0,0,0,0,0.0,0.0,0.0,0.0,0.0,38.985832,-76.950851,0.07,36.0,3.0,0.8
250,745260,1744863144054,,,,,,,,,,,,,,,,,,,,,,,,,,,,,,,,,,0,0,0,0,0,0,0,0,0,0,0,0,0,0,0,0,,,,,,,,,,,
251,745280,1744863144074,0.0,135.0,,-0.07,-0.0,1.0,0.0,0.0,0.0,1.0,1.1,91.0,885.0,5.4,3.85,,14.6,0.846,70.0,,6.5,5.0,,,,,,,,,,,,0,0,0,0,0,0,0,0,0,0,0,0,0,0,0,0,,,,,0.0,,,,,,
252,745300,1744863144100,,,,,,,,,,,,,,,,,,,,,,,,,,,,,,,,,,0,0,0,0,0,0,0,0,0,0,0,0,0,0,0,0,,,,,,,,,,,
253,745320,1744863144120,0.0,135.0,,-0.07,-0.0,1.0,0.0,0.0,0.0,1.0,1.1,91.0,885.0,5.4,3.85,,14.6,0.846,70.0,,6.6,5.0,,,,,,,,,,,,0,0,0,0,0,0,0,0,0,0,0,0,0,0,0,0,,,,,0.0,,,,,,
254,745340,1744863144140,,,,,,,,,,,,,,,,,,,,,,,0.0,0.0,0.0,0.0,0.0,0.0,0.0,0.0,2.26,,,0,0,0,0,0,0,0,0,0,0,0,0,0,0,0,0,0.0,,,,,38.985832,-76.950851,0.0,36.0,3.0,0.8
255,745360,1744863144160,0.0,135.0,,-0.07,-0.0,1.0,0.0,0.0,0.0,1.0,1.1,91.0,885.0,5.3,3.85,,14.59,0.845,70.0,,6.6,5.0,,,,,,,,,,,,0,0,0,0,0,0,0,0,0,0,0,0,0,0,0,0,,,,,0.0,,,,,,
256,745380,1744863144180,,,,,,,,,,,,,,,,,,,,,,,,,,,,,,,,,,0,0,0,0,0,0,0,0,0,0,0,0,0,0,0,0,,,,,,,,,,,
257,745400,1744863144202,0.0,135.0,,-0.07,-0.0,1.0,0.0,0.0,0.0,1.0,1.1,91.0,885.0,5.3,3.85,,14.6,0.845,70.0,,6.6,5.0,,,,,,,,,,,,0,0,0,0,0,0,0,0,0,0,0,0,0,0,0,0,,,,,0.0,,,,,,
258,745420,1744863144222,,,,,,,,,,,,,,,,,,,,,,,,,,,,,,,,,,0,0,0,0,0,0,0,0,0,0,0,0,0,0,0,0,,,,,,,,,,,
259,745440,1744863144242,0.0,135.0,,-0.07,-0.0,1.0,0.0,0.0,0.0,1.0,1.1,91.0,885.0,5.4,3.85,,14.6,0.845,70.0,,6.5,5.0,0.0,0.0,0.0,0.0,0.0,0.0,0.0,0.0,2.26,,,0,0,0,0,0,0,0,0,0,0,0,0,0,0,0,0,0.0,,,,0.0,38.985832,-76.950851,0.0,36.0,3.0,0.8
260,745460,1744863144262,,,,,,,,,,,,,,,,,,,,,,,,,,,,,,,,,,0,0,0,0,0,0,0,0,0,0,0,0,0,0,0,0,,,,,,,,,,,
261,745480,1744863144282,0.0,135.0,,-0.07,-0.0,1.0,0.0,0.0,0.0,1.0,1.1,91.0,885.0,5.4,3.85,,14.6,0.845,70.0,,6.5,5.0,,,,,,,,,,,,0,0,0,0,0,0,0,0,0,0,0,0,0,0,0,0,,,,,0.0,,,,,,
262,745500,1744863144304,,,,,,,,,,,,,,,,,,,,,,,,,,,,,,,,,,0,0,0,0,0,0,0,0,0,0,0,0,0,0,0,0,,,,,,,,,,,
263,745520,1744863144324,0.0,135.0,,-0.07,-0.0,1.0,0.0,0.0,0.0,1.0,1.1,91.0,885.0,5.4,3.85,,14.6,0.844,70.0,,6.4,5.0,,,,,,,,,,,,0,0,0,0,0,0,0,0,0,0,0,0,0,0,0,0,,,,,0.0,,,,,,
264,745540,1744863144344,,,,,,,,,,,,,,,,,,,,,,,0.0,0.0,0.0,0.0,0.0,0.0,0.0,0.0,2.26,,,0,0,0,0,0,0,0,0,0,0,0,0,0,0,0,0,0.0,,,,,38.985832,-76.950851,0.04,36.0,3.0,0.8
265,745560,1744863144364,0.0,135.0,,-0.07,-0.0,1.0,0.0,0.0,0.0,1.0,1.1,91.0,885.0,5.5,3.85,,14.6,0.844,70.0,,6.4,5.0,,,,,,,,,,,,0,0,0,0,0,0,0,0,0,0,0,0,0,0,0,0,,,,,0.0,,,,,,
266,745580,1744863144384,,,,,,,,,,,,,,,,,,,,,,,,,,,,,,,,,,0,0,0,0,0,0,0,0,0,0,0,0,0,0,0,0,,,,,,,,,,,
267,745600,1744863144404,0.0,135.0,,-0.07,-0.0,1.0,0.0,0.0,0.0,1.0,1.1,91.0,885.0,5.5,3.85,,14.6,0.844,70.0,,6.4,5.0,,,,,,,,,,,,0,0,0,0,0,0,0,0,0,0,0,0,0,0,0,0,,,,,0.0,,,,,,
268,745620,1744863144424,,,,,,,,,,,,,,,,,,,,,,,,,,,,,,,,,,0,0,0,0,0,0,0,0,0,0,0,0,0,0,0,0,,,,,,,,,,,
269,745640,1744863144444,0.0,135.0,,-0.07,-0.0,1.0,0.0,0.0,0.0,1.0,1.1,91.0,885.0,5.5,3.85,,14.6,0.844,70.0,,6.6,5.0,0.0,0.0,0.0,0.0,0.0,0.0,0.0,0.0,2.26,,,0,0,0,0,0,0,0,0,0,0,0,0,0,0,0,0,0.0,,,,0.0,38.985832,-76.950851,0.07,36.0,3.0,0.8
270,745660,1744863144464,,,,,,,,,,,,,,,,,,,,,,,,,,,,,,,,,,0,0,0,0,0,0,0,0,0,0,0,0,0,0,0,0,,,,,,,,,,,
271,745680,1744863144484,0.0,135.0,,-0.07,-0.0,1.0,0.0,0.0,0.0,1.0,1.1,91.0,885.0,5.5,3.85,,14.59,0.843,70.0,,6.6,5.0,,,,,,,,,,,,0,0,0,0,0,0,0,0,0,0,0,0,0,0,0,0,,,,,0.0,,,,,,
272,745700,1744863144504,,,,,,,,,,,,,,,,,,,,,,,,,,,,,,,,,,0,0,0,0,0,0,0,0,0,0,0,0,0,0,0,0,,,,,,,,,,,
273,745720,1744863144524,0.0,135.0,,-0.07,-0.0,1.0,0.0,0.0,0.0,1.0,1.1,91.0,885.0,5.5,3.85,,14.6,0.842,70.0,,6.5,5.0,,,,,,,,,,,,0,0,0,0,0,0,0,0,0,0,0,0,0,0,0,0,,,,,0.0,,,,,,
274,745740,1744863144544,,,,,,,,,,,,,,,,,,,,,,,0.0,0.0,0.0,0.0,0.0,0.0,0.0,0.0,2.26,,,0,0,0,0,0,0,0,0,0,0,0,0,0,0,0,0,0.0,,,,,38.985832,-76.950851,0.04,36.0,3.0,0.8
275,745760,1744863144564,0.0,135.0,,-0.07,-0.0,1.0,0.0,0.0,0.0,1.0,1.1,91.0,885.0,5.5,3.85,,14.59,0.842,70.0,,6.5,5.0,,,,,,,,,,,,0,0,0,0,0,0,0,0,0,0,0,0,0,0,0,0,,,,,0.0,,,,,,
276,745780,1744863144584,,,,,,,,,,,,,,,,,,,,,,,,,,,,,,,,,,0,0,0,0,0,0,0,0,0,0,0,0,0,0,0,0,,,,,,,,,,,
277,745800,1744863144604,0.0,135.0,,-0.07,-0.0,1.0,0.0,0.0,0.0,1.0,1.1,91.0,885.0,5.4,3.85,,14.6,0.842,70.0,,6.5,5.0,,,,,,,,,,,,0,0,0,0,0,0,0,0,0,0,0,0,0,0,0,0,,,,,0.0,,,,,,
278,745820,1744863144624,,,,,,,,,,,,,,,,,,,,,,,,,,,,,,,,,,0,0,0,0,0,0,0,0,0,0,0,0,0,0,0,0,,,,,,,,,,,
279,745840,1744863144644,0.0,135.0,,-0.07,-0.0,1.0,0.0,0.0,0.0,1.0,1.1,91.0,885.0,5.4,3.85,,14.6,0.842,70.0,,6.8,5.0,0.0,0.0,0.0,0.0,0.0,0.0,0.0,0.0,2.26,,,0,0,0,0,0,0,0,0,0,0,0,0,0,0,0,0,0.0,,,,0.0,38.985832,-76.950851,0.04,36.0,3.0,0.8
280,745860,1744863144664,,,,,,,,,,,,,,,,,,,,,,,,,,,,,,,,,,0,0,0,0,0,0,0,0,0,0,0,0,0,0,0,0,,,,,,,,,,,
281,745880,1744863144684,0.0,135.0,,-0.07,-0.0,1.0,0.0,0.0,0.0,1.0,1.1,91.0,885.0,5.4,3.85,,14.59,0.842,70.0,,6.8,5.0,,,,,,,,,,,,0,0,0,0,0,0,0,0,0,0,0,0,0,0,0,0,,,,,0.0,,,,,,
282,745900,1744863144704,,,,,,,,,,,,,,,,,,,,,,,,,,,,,,,,,,0,0,0,0,0,0,0,0,0,0,0,0,0,0,0,0,,,,,,,,,,,
283,745920,1744863144724,0.0,135.0,,-0.07,-0.0,1.0,0.0,0.0,0.0,1.0,1.1,91.0,885.0,5.3,3.85,,14.6,0.841,70.0,,6.6,5.0,,,,,,,,,,,,0,0,0,0,0,0,0,0,0,0,0,0,0,0,0,0,,,,,0.0,,,,,,
284,745940,1744863144744,,,,,,,,,,,,,,,,,,,,,,,0.0,0.0,0.0,0.0,0.0,0.0,0.0,0.0,2.26,,,0,0,0,0,0,0,0,0,0,0,0,0,0,0,0,0,0.0,,,,,38.985832,-76.950851,0.04,36.0,3.0,0.8
285,745960,1744863144764,0.0,135.0,,-0.07,-0.0,1.0,0.0,0.0,0.0,1.0,1.1,91.0,885.0,5.3,3.85,,14.59,0.841,70.0,,6.6,5.0,,,,,,,,,,,,0,0,0,0,0,0,0,0,0,0,0,0,0,0,0,0,,,,,0.0,,,,,,
286,745980,1744863144784,,,,,,,,,,,,,,,,,,,,,,,,,,,,,,,,,,0,0,0,0,0,0,0,0,0,0,0,0,0,0,0,0,,,,,,,,,,,
287,746000,1744863144804,0.0,135.0,,-0.07,-0.0,1.0,0.0,0.0,0.0,1.0,1.1,91.0,885.0,5.4,3.85,,14.6,0.84,70.0,,6.6,5.0,,,,,,,,,,,,0,0,0,0,0,0,0,0,0,0,0,0,0,0,0,0,,,,,0.0,,,,,,
288,746020,1744863144824,,,,,,,,,,,,,,,,,,,,,,,,,,,,,,,,,,0,0,0,0,0,0,0,0,0,0,0,0,0,0,0,0,,,,,,,,,,,
289,746040,1744863144844,0.0,135.0,,-0.07,-0.0,1.0,0.0,0.0,0.0,1.0,1.1,91.0,885.0,5.5,3.85,,14.6,0.84,70.0,,6.4,5.0,0.0,0.0,0.0,0.0,0.0,0.0,0.0,0.0,2.26,,,0,0,0,0,0,0,0,0,0,0,0,0,0,0,0,0,0.0,,,,0.0,38.985832,-76.950851,0.05,36.0,3.0,0.8
290,746060,1744863144864,,,,,,,,,,,,,,,,,,,,,,,,,,,,,,,,,,0,0,0,0,0,0,0,0,0,0,0,0,0,0,0,0,,,,,,,,,,,
291,746080,1744863144884,0.0,135.0,,-0.07,-0.0,1.0,0.0,0.0,0.0,1.0,1.1,91.0,885.0,5.5,3.85,,14.6,0.841,70.0,,6.4,5.0,,,,,,,,,,,,0,0,0,0,0,0,0,0,0,0,0,0,0,0,0,0,,,,,0.0,,,,,,
292,746100,1744863144903,,,,,,,,,,,,,,,,,,,,,,,,,,,,,,,,,,0,0,0,0,0,0,0,0,0,0,0,0,0,0,0,0,,,,,,,,,,,
293,746120,1744863144923,0.0,135.0,,-0.07,-0.0,1.0,0.0,0.0,0.0,1.0,1.1,91.0,0.0,5.5,3.82,,14.6,0.841,70.0,,6.6,5.0,,,,,,,,,,,,0,0,0,0,0,0,0,0,0,0,0,0,0,0,0,0,,,,,0.0,,,,,,
294,746140,1744863144943,,,,,,,,,,,,,,,,,,,,,,,0.0,0.0,0.0,0.0,0.0,0.0,0.0,0.0,2.26,,,0,0,0,0,0,0,0,0,0,0,0,0,0,0,0,0,0.0,,,,,38.985832,-76.950851,0.1,36.0,3.0,0.8
295,746160,1744863144963,0.0,135.0,,-0.07,-0.0,1.0,0.0,0.0,0.0,1.0,1.1,91.0,0.0,5.5,3.82,,14.6,0.84,70.0,,6.6,5.0,,,,,,,,,,,,0,0,0,0,0,0,0,0,0,0,0,0,0,0,0,0,,,,,0.0,,,,,,
296,746180,1744863144983,,,,,,,,,,,,,,,,,,,,,,,,,,,,,,,,,,0,0,0,0,0,0,0,0,0,0,0,0,0,0,0,0,,,,,,,,,,,
297,746200,1744863144995,0.0,135.0,,-0.07,-0.0,1.0,0.0,0.0,0.0,1.0,1.1,91.0,0.0,5.5,3.82,,14.6,0.84,70.0,,6.6,5.0,,,,,,,,,,,,0,0,0,0,0,0,0,0,0,0,0,0,0,0,0,0,,,,,0.0,,,,,,
298,746220,1744863145015,,,,,,,,,,,,,,,,,,,,,,,,,,,,,,,,,,0,0,0,0,0,0,0,0,0,0,0,0,0,0,0,0,,,,,,,,,,,
299,746240,1744863145035,0.0,135.0,13.61,-0.07,-0.0,1.0,0.0,0.0,0.0,1.0,1.1,91.0,0.0,5.5,3.83,15.0,14.6,0.84,70.0,176.0,6.6,5.0,0.0,0.0,0.0,0.0,0.0,0.0,0.0,0.0,2.26,0.0,0.0,0,0,0,0,0,0,0,0,0,0,0,0,0,0,0,0,0.0,0.0,0.0,0.0,0.0,38.985832,-76.950851,0.04,36.0,3.0,0.8
300,746260,1744863145055,,,,,,,,,,,,,,,,,,,,,,,,,,,,,,,,,,0,0,0,0,0,0,0,0,0,0,0,0,0,0,0,0,,,,,,,,,,,
301,746280,1744863145075,0.0,135.0,,-0.07,-0.0,1.0,0.0,0.0,0.0,1.0,1.1,91.0,0.0,5.5,3.83,,14.6,0.84,70.0,,6.6,5.0,,,,,,,,,,,,0,0,0,0,0,0,0,0,0,0,0,0,0,0,0,0,,,,,0.0,,,,,,
302,746300,1744863145101,,,,,,,,,,,,,,,,,,,,,,,,,,,,,,,,,,0,0,0,0,0,0,0,0,0,0,0,0,0,0,0,0,,,,,,,,,,,
303,746320,1744863145121,0.0,135.0,,-0.07,-0.0,1.0,0.0,0.0,0.0,1.0,1.1,91.0,0.0,5.5,3.83,,14.6,0.84,70.0,,6.6,5.0,,,,,,,,,,,,0,0,0,0,0,0,0,0,0,0,0,0,0,0,0,0,,,,,0.0,,,,,,
304,746340,1744863145141,,,,,,,,,,,,,,,,,,,,,,,0.0,0.0,0.0,0.0,0.0,0.0,0.0,0.0,2.26,,,0,0,0,0,0,0,0,0,0,0,0,0,0,0,0,0,0.0,,,,,38.985832,-76.950851,0.07,36.0,3.0,0.8
305,746360,1744863145161,0.0,135.0,,-0.07,-0.0,1.0,0.0,0.0,0.0,1.0,1.1,91.0,0.0,5.5,3.83,,14.59,0.839,70.0,,6.6,5.0,,,,,,,,,,,,0,0,0,0,0,0,0,0,0,0,0,0,0,0,0,0,,,,,0.0,,,,,,
306,746380,1744863145181,,,,,,,,,,,,,,,,,,,,,,,,,,,,,,,,,,0,0,0,0,0,0,0,0,0,0,0,0,0,0,0,0,,,,,,,,,,,
307,746400,1744863145201,0.0,135.0,,-0.07,-0.0,1.0,0.0,0.0,0.0,1.0,1.1,91.0,0.0,5.4,3.83,,14.6,0.841,70.0,,6.6,5.0,,,,,,,,,,,,0,0,0,0,0,0,0,0,0,0,0,0,0,0,0,0,,,,,0.0,,,,,,
308,746420,1744863145221,,,,,,,,,,,,,,,,,,,,,,,,,,,,,,,,,,0,0,0,0,0,0,0,0,0,0,0,0,0,0,0,0,,,,,,,,,,,
309,746440,1744863145241,0.0,135.0,,-0.07,-0.0,1.0,0.0,0.0,0.0,1.0,1.1,91.0,0.0,5.4,3.84,,14.6,0.841,70.0,,6.7,5.0,0.0,0.0,0.0,0.0,0.0,0.0,0.0,0.0,2.26,,,0,0,0,0,0,0,0,0,0,0,0,0,0,0,0,0,0.0,,,,0.0,38.985832,-76.950851,0.04,36.0,3.0,0.8
310,746460,1744863145261,,,,,,,,,,,,,,,,,,,,,,,,,,,,,,,,,,0,0,0,0,0,0,0,0,0,0,0,0,0,0,0,0,,,,,,,,,,,
311,746480,1744863145281,0.0,135.0,,-0.07,-0.0,1.0,0.0,0.0,0.0,1.0,1.1,91.0,0.0,5.4,3.84,,14.6,0.84,70.0,,6.7,5.0,,,,,,,,,,,,0,0,0,0,0,0,0,0,0,0,0,0,0,0,0,0,,,,,0.0,,,,,,
312,746500,1744863145303,,,,,,,,,,,,,,,,,,,,,,,,,,,,,,,,,,0,0,0,0,0,0,0,0,0,0,0,0,0,0,0,0,,,,,,,,,,,
313,746520,1744863145323,0.0,135.0,,-0.07,-0.0,1.0,0.0,0.0,0.0,1.0,1.1,91.0,0.0,5.4,3.84,,14.6,0.84,70.0,,6.6,5.0,,,,,,,,,,,,0,0,0,0,0,0,0,0,0,0,0,0,0,0,0,0,,,,,0.0,,,,,,
314,746540,1744863145343,,,,,,,,,,,,,,,,,,,,,,,0.0,0.0,0.0,0.0,0.0,0.0,0.0,0.0,2.26,,,0,0,0,0,0,0,0,0,0,0,0,0,0,0,0,0,0.0,,,,,38.985832,-76.950851,0.04,36.0,3.0,0.8
315,746560,1744863145363,0.0,135.0,,-0.07,-0.0,1.0,0.0,0.0,0.0,1.0,1.1,91.0,0.0,5.5,3.84,,14.6,0.84,70.0,,6.6,5.0,,,,,,,,,,,,0,0,0,0,0,0,0,0,0,0,0,0,0,0,0,0,,,,,0.0,,,,,,
316,746580,1744863145383,,,,,,,,,,,,,,,,,,,,,,,,,,,,,,,,,,0,0,0,0,0,0,0,0,0,0,0,0,0,0,0,0,,,,,,,,,,,
317,746600,1744863145403,0.0,135.0,,-0.07,-0.0,1.0,0.0,0.0,0.0,1.0,1.1,91.0,0.0,5.5,3.83,,14.6,0.84,70.0,,6.6,5.0,,,,,,,,,,,,0,0,0,0,0,0,0,0,0,0,0,0,0,0,0,0,,,,,0.0,,,,,,
318,746620,1744863145423,,,,,,,,,,,,,,,,,,,,,,,,,,,,,,,,,,0,0,0,0,0,0,0,0,0,0,0,0,0,0,0,0,,,,,,,,,,,
319,746640,1744863145443,0.0,135.0,,-0.07,-0.0,1.0,0.0,0.0,0.0,1.0,1.1,91.0,0.0,5.5,3.83,,14.6,0.84,70.0,,6.4,5.0,0.0,0.0,0.0,0.0,0.0,0.0,0.0,0.0,2.26,,,0,0,0,0,0,0,0,0,0,0,0,0,0,0,0,0,0.0,,,,0.0,38.985832,-76.950851,0.04,36.0,3.0,0.8
320,746660,1744863145463,,,,,,,,,,,,,,,,,,,,,,,,,,,,,,,,,,0,0,0,0,0,0,0,0,0,0,0,0,0,0,0,0,,,,,,,,,,,
321,746680,1744863145483,0.0,135.0,,-0.07,-0.0,1.0,0.0,0.0,0.0,1.0,1.1,91.0,0.0,5.5,3.83,,14.6,0.838,70.0,,6.4,5.0,,,,,,,,,,,,0,0,0,0,0,0,0,0,0,0,0,0,0,0,0,0,,,,,0.0,,,,,,
322,746700,1744863145503,,,,,,,,,,,,,,,,,,,,,,,,,,,,,,,,,,0,0,0,0,0,0,0,0,0,0,0,0,0,0,0,0,,,,,,,,,,,
323,746720,1744863145523,0.0,135.0,,-0.07,-0.0,1.0,0.0,0.0,0.0,1.0,1.1,91.0,0.0,5.5,3.83,,14.6,0.84,70.0,,6.7,5.0,,,,,,,,,,,,0,0,0,0,0,0,0,0,0,0,0,0,0,0,0,0,,,,,0.0,,,,,,
324,746740,1744863145543,,,,,,,,,,,,,,,,,,,,,,,0.0,0.0,0.0,0.0,0.0,0.0,0.0,0.0,2.26,,,0,0,0,0,0,0,0,0,0,0,0,0,0,0,0,0,0.0,,,,,38.985832,-76.950851,0.04,36.0,3.0,0.8
325,746760,1744863145563,0.0,135.0,,-0.07,0.0,1.0,0.0,0.0,0.0,1.0,1.1,91.0,0.0,5.6,3.83,,14.6,0.839,70.0,,6.7,5.0,,,,,,,,,,,,0,0,0,0,0,0,0,0,0,0,0,0,0,0,0,0,,,,,0.0,,,,,,
326,746780,1744863145583,,,,,,,,,,,,,,,,,,,,,,,,,,,,,,,,,,0,0,0,0,0,0,0,0,0,0,0,0,0,0,0,0,,,,,,,,,,,
327,746800,1744863145603,0.0,135.0,,-0.07,-0.0,1.0,0.0,0.0,0.0,1.0,1.1,90.0,0.0,5.4,3.82,,14.59,0.839,70.0,,6.7,5.0,,,,,,,,,,,,0,0,0,0,0,0,0,0,0,0,0,0,0,0,0,0,,,,,0.0,,,,,,
328,746820,1744863145623,,,,,,,,,,,,,,,,,,,,,,,,,,,,,,,,,,0,0,0,0,0,0,0,0,0,0,0,0,0,0,0,0,,,,,,,,,,,
329,746840,1744863145643,0.0,135.0,,-0.07,-0.01,0.99,0.0,0.0,0.0,1.0,1.1,90.0,0.0,5.5,3.82,,14.59,0.839,70.0,,107.4,5.0,0.0,0.0,0.0,0.0,0.0,0.0,0.0,0.0,2.26,,,0,0,0,0,0,0,0,0,0,0,0,0,0,0,0,0,0.0,,,,0.0,38.985832,-76.950851,0.05,36.0,3.0,0.8
330,746860,1744863145663,,,,,,,,,,,,,,,,,,,,,,,,,,,,,,,,,,0,0,0,0,0,0,0,0,0,0,0,0,0,0,0,0,,,,,,,,,,,
331,746880,1744863145683,0.0,135.0,,-0.07,-0.01,0.99,0.0,0.0,0.0,1.0,1.1,90.0,0.0,5.5,3.82,,14.56,0.839,70.0,,107.4,5.0,,,,,,,,,,,,0,0,0,0,0,0,0,0,0,0,0,0,0,0,0,0,,,,,0.0,,,,,,
332,746900,1744863145703,,,,,,,,,,,,,,,,,,,,,,,,,,,,,,,,,,0,0,0,0,0,0,0,0,0,0,0,0,0,0,0,0,,,,,,,,,,,
333,746920,1744863145723,0.0,135.0,,-0.07,-0.01,1.0,0.0,0.0,0.0,1.0,1.1,91.0,0.0,5.4,3.82,,14.59,0.839,70.0,,107.4,5.0,,,,,,,,,,,,0,0,0,0,0,0,0,0,0,0,0,0,0,0,0,0,,,,,0.0,,,,,,
334,746940,1744863145743,,,,,,,,,,,,,,,,,,,,,,,0.0,0.0,0.0,0.0,0.0,0.0,0.0,0.0,2.26,,,0,0,0,0,0,0,0,0,0,0,0,0,0,0,0,0,0.0,,,,,38.985832,-76.950851,0.05,36.0,3.0,0.8
335,746960,1744863145763,0.0,135.0,,-0.07,-0.02,1.0,0.0,0.0,0.0,1.0,1.1,91.0,0.0,5.3,3.83,,14.51,0.839,70.0,,107.4,5.0,,,,,,,,,,,,0,0,0,0,0,0,0,0,0,0,0,0,0,0,0,0,,,,,0.0,,,,,,
336,746980,1744863145783,,,,,,,,,,,,,,,,,,,,,,,,,,,,,,,,,,0,0,0,0,0,0,0,0,0,0,0,0,0,0,0,0,,,,,,,,,,,
337,747000,1744863145803,0.0,135.0,,-0.07,-0.02,1.0,0.0,0.0,0.0,1.0,1.1,90.0,0.0,5.4,3.83,,14.59,0.839,70.0,,107.4,5.0,,,,,,,,,,,,0,0,0,0,0,0,0,0,0,0,0,0,0,0,0,0,,,,,0.0,,,,,,
338,747020,1744863145823,,,,,,,,,,,,,,,,,,,,,,,,,,,,,,,,,,0,0,0,0,0,0,0,0,0,0,0,0,0,0,0,0,,,,,,,,,,,
339,747040,1744863145843,0.0,135.0,,-0.07,-0.02,1.0,0.0,0.0,0.0,1.0,1.1,90.0,0.0,5.3,3.83,,14.59,0.839,70.0,,107.4,5.0,0.0,0.0,0.0,0.0,0.0,0.0,0.0,0.0,2.26,,,0,0,0,0,0,0,0,0,0,0,0,0,0,0,0,0,0.0,,,,0.0,38.985832,-76.950859,0.07,36.0,3.0,0.8
340,747060,1744863145863,,,,,,,,,,,,,,,,,,,,,,,,,,,,,,,,,,0,0,0,0,0,0,0,0,0,0,0,0,0,0,0,0,,,,,,,,,,,
341,747080,1744863145883,0.0,135.0,,-0.07,-0.01,1.0,0.0,0.0,0.0,1.0,1.1,90.0,0.0,5.3,3.83,,14.54,0.839,70.0,,107.4,5.0,,,,,,,,,,,,0,0,0,0,0,0,0,0,0,0,0,0,0,0,0,0,,,,,0.0,,,,,,
342,747100,1744863145904,,,,,,,,,,,,,,,,,,,,,,,,,,,,,,,,,,0,0,0,0,0,0,0,0,0,0,0,0,0,0,0,0,,,,,,,,,,,
343,747120,1744863145924,0.0,135.0,,-0.07,-0.01,1.0,0.0,0.0,0.0,1.0,1.1,91.0,0.0,5.4,3.83,,14.52,0.839,70.0,,107.4,5.0,,,,,,,,,,,,0,0,0,0,0,0,0,0,0,0,0,0,0,0,0,0,,,,,0.0,,,,,,
344,747140,1744863145944,,,,,,,,,,,,,,,,,,,,,,,0.0,0.0,0.0,0.0,0.0,0.0,0.0,0.0,2.26,,,0,0,0,0,0,0,0,0,0,0,0,0,0,0,0,0,0.0,,,,,38.985832,-76.950859,0.07,36.0,3.0,0.8
345,747160,1744863145964,0.0,135.0,,-0.07,-0.01,1.0,0.0,0.0,0.0,1.01,1.1,91.0,0.0,5.5,3.83,,14.6,0.839,70.0,,107.4,5.0,,,,,,,,,,,,0,0,0,0,0,0,0,0,0,0,0,0,0,0,0,0,,,,,0.0,,,,,,
346,747180,1744863145984,,,,,,,,,,,,,,,,,,,,,,,,,,,,,,,,,,0,0,0,0,0,0,0,0,0,0,0,0,0,0,0,0,,,,,,,,,,,
347,747200,1744863145996,0.0,135.0,,-0.07,-0.0,1.01,0.0,0.0,0.0,1.01,1.1,92.0,0.0,5.5,3.82,,14.51,0.84,70.0,,107.4,5.0,,,,,,,,,,,,0,0,0,0,0,0,0,0,0,0,0,0,0,0,0,0,,,,,0.0,,,,,,
348,747220,1744863146016,,,,,,,,,,,,,,,,,,,,,,,,,,,,,,,,,,0,0,0,0,0,0,0,0,0,0,0,0,0,0,0,0,,,,,,,,,,,
349,747240,1744863146036,0.0,135.0,11.56,-0.07,-0.0,1.0,0.0,0.0,0.0,1.01,1.1,91.0,0.0,5.5,3.82,15.0,14.51,0.84,70.0,176.0,107.4,5.0,0.0,0.0,0.0,0.0,0.0,0.0,0.0,0.0,2.25,0.0,0.0,0,0,0,0,0,0,0,0,0,0,0,0,0,0,0,0,0.0,0.0,0.0,0.0,0.0,38.985832,-76.950859,0.0,36.0,3.0,0.8
350,747260,1744863146056,,,,,,,,,,,,,,,,,,,,,,,,,,,,,,,,,,0,0,0,0,0,0,0,0,0,0,0,0,0,0,0,0,,,,,,,,,,,
351,747280,1744863146076,0.0,135.0,,-0.07,0.0,1.0,0.0,0.0,0.0,1.0,1.1,91.0,0.0,5.5,3.82,,14.5,0.841,70.0,,107.4,5.0,,,,,,,,,,,,0,0,0,0,0,0,0,0,0,0,0,0,0,0,0,0,,,,,0.0,,,,,,
352,747300,1744863146098,,,,,,,,,,,,,,,,,,,,,,,,,,,,,,,,,,0,0,0,0,0,0,0,0,0,0,0,0,0,0,0,0,,,,,,,,,,,
353,747320,1744863146118,0.0,135.0,,-0.08,-0.0,1.0,0.0,0.0,0.0,1.0,1.1,91.0,0.0,5.5,3.82,,14.51,0.841,70.0,,107.4,5.0,,,,,,,,,,,,0,0,0,0,0,0,0,0,0,0,0,0,0,0,0,0,,,,,0.0,,,,,,
354,747340,1744863146138,,,,,,,,,,,,,,,,,,,,,,,0.0,0.0,0.0,0.0,0.0,0.0,0.0,0.0,2.26,,,0,0,0,0,0,0,0,0,0,0,0,0,0,0,0,0,0.0,,,,,38.985832,-76.950859,0.05,36.0,3.0,0.8
355,747360,1744863146158,0.0,135.0,,-0.05,0.03,1.02,0.0,0.0,0.0,1.02,1.1,93.0,468.0,5.5,3.83,,14.5,0.844,70.0,,107.4,5.0,,,,,,,,,,,,0,0,0,0,0,0,0,0,0,0,0,0,0,0,0,0,,,,,0.0,,,,,,
356,747380,1744863146178,,,,,,,,,,,,,,,,,,,,,,,,,,,,,,,,,,0,0,0,0,0,0,0,0,0,0,0,0,0,0,0,0,,,,,,,,,,,
357,747400,1744863146202,0.0,135.0,,-0.06,0.01,1.03,0.0,0.0,0.0,1.03,1.1,93.0,982.0,5.5,3.88,,14.48,0.849,70.0,,107.4,5.0,,,,,,,,,,,,0,0,0,0,0,0,0,0,0,0,0,0,0,0,0,0,,,,,0.0,,,,,,
358,747420,1744863146222,,,,,,,,,,,,,,,,,,,,,,,,,,,,,,,,,,0,0,0,0,0,0,0,0,0,0,0,0,0,0,0,0,,,,,,,,,,,
359,747440,1744863146242,0.0,135.0,,-0.05,0.02,1.01,0.0,0.0,1.0,1.01,1.1,92.0,1313.0,5.4,3.91,,14.48,0.849,70.0,,107.4,5.0,0.0,0.0,0.0,0.0,0.0,0.0,0.0,0.0,2.26,,,0,0,0,0,0,0,0,0,0,0,0,0,0,0,0,0,0.0,,,,0.0,38.985832,-76.950859,0.05,36.0,3.0,0.8
360,747460,1744863146262,,,,,,,,,,,,,,,,,,,,,,,,,,,,,,,,,,0,0,0,0,0,0,0,0,0,0,0,0,0,0,0,0,,,,,,,,,,,
361,747480,1744863146282,0.0,135.0,,-0.08,0.02,1.01,0.0,0.0,0.0,1.01,1.1,92.0,1313.0,5.4,3.91,,14.31,0.881,70.0,,107.4,5.0,,,,,,,,,,,,0,0,0,0,0,0,0,0,0,0,0,0,0,0,0,0,,,,,0.0,,,,,,
362,747500,1744863146302,,,,,,,,,,,,,,,,,,,,,,,,,,,,,,,,,,0,0,0,0,0,0,0,0,0,0,0,0,0,0,0,0,,,,,,,,,,,
363,747520,1744863146322,0.0,135.0,,-0.07,0.06,0.99,0.0,0.0,1.0,0.99,1.1,90.0,1446.0,5.3,3.9,,14.32,0.902,70.0,,107.4,5.0,,,,,,,,,,,,0,0,0,0,0,0,0,0,0,0,0,0,0,0,0,0,,,,,0.0,,,,,,
364,747540,1744863146342,,,,,,,,,,,,,,,,,,,,,,,0.0,0.0,0.0,0.0,0.0,0.0,0.0,0.0,2.26,,,0,0,0,0,0,0,0,0,0,0,0,0,0,0,0,0,0.0,,,,,38.985832,-76.950859,0.0,36.0,3.0,0.8
365,747560,1744863146362,0.0,135.0,,-0.05,0.04,1.0,-1.0,0.0,1.0,1.0,1.1,91.0,1651.0,5.3,3.89,,14.23,0.926,70.0,,107.4,5.0,,,,,,,,,,,,0,0,0,0,0,0,0,0,0,0,0,0,0,0,0,0,,,,,0.0,,,,,,
366,747580,1744863146382,,,,,,,,,,,,,,,,,,,,,,,,,,,,,,,,,,0,0,0,0,0,0,0,0,0,0,0,0,0,0,0,0,,,,,,,,,,,
367,747600,1744863146404,0.0,135.0,,-0.05,0.04,1.02,0.0,0.0,1.0,1.02,1.1,93.0,1767.0,5.3,3.87,,14.19,0.918,70.0,,107.4,5.0,,,,,,,,,,,,0,0,0,0,0,0,0,0,0,0,0,0,0,0,0,0,,,,,0.0,,,,,,
368,747620,1744863146424,,,,,,,,,,,,,,,,,,,,,,,,,,,,,,,,,,0,0,0,0,0,0,0,0,0,0,0,0,0,0,0,0,,,,,,,,,,,
369,747640,1744863146444,0.0,135.0,,-0.07,0.07,1.02,0.0,0.0,1.0,1.03,1.1,93.0,1707.0,5.5,3.88,,14.19,0.918,70.0,,107.4,5.0,0.0,0.0,0.0,0.0,0.0,0.0,0.0,0.0,2.26,,,0,0,0,0,0,0,0,0,0,0,0,0,0,0,0,0,0.0,,,,0.0,38.985832,-76.950859,0.04,36.0,3.0,0.8
370,747660,1744863146464,,,,,,,,,,,,,,,,,,,,,,,,,,,,,,,,,,0,0,0,0,0,0,0,0,0,0,0,0,0,0,0,0,,,,,,,,,,,
371,747680,1744863146484,0.0,135.0,,-0.07,0.09,0.99,-1.0,0.0,1.0,1.0,1.1,90.0,1707.0,5.5,3.88,,14.23,0.912,70.0,,107.4,5.0,,,,,,,,,,,,0,0,0,0,0,0,0,0,0,0,0,0,0,0,0,0,,,,,0.0,,,,,,
372,747700,1744863146504,,,,,,,,,,,,,,,,,,,,,,,,,,,,,,,,,,0,0,0,0,0,0,0,0,0,0,0,0,0,0,0,0,,,,,,,,,,,
373,747720,1744863146524,0.0,135.0,,-0.04,0.06,0.99,-1.0,0.0,1.0,1.0,1.1,90.0,1658.0,5.5,3.87,,14.32,0.915,70.0,,18.5,5.0,,,,,,,,,,,,0,0,0,0,0,0,0,0,0,0,0,0,0,0,0,0,,,,,0.0,,,,,,
374,747740,1744863146544,,,,,,,,,,,,,,,,,,,,,,,0.0,0.0,0.0,0.0,0.0,0.0,0.0,0.0,2.26,,,0,0,0,0,0,0,0,0,0,0,0,0,0,0,0,0,0.0,,,,,38.985832,-76.950859,0.0,36.0,3.0,0.8
375,747760,1744863146564,0.0,135.0,,-0.04,0.04,1.0,0.0,0.0,1.0,1.0,1.1,91.0,1677.0,5.5,3.87,,14.23,0.92,70.0,,18.5,5.0,,,,,,,,,,,,0,0,0,0,0,0,0,0,0,0,0,0,0,0,0,0,,,,,0.0,,,,,,
376,747780,1744863146584,,,,,,,,,,,,,,,,,,,,,,,,,,,,,,,,,,0,0,0,0,0,0,0,0,0,0,0,0,0,0,0,0,,,,,,,,,,,
377,747800,1744863146604,0.0,135.0,,-0.05,0.05,0.98,0.0,0.0,0.0,0.98,1.1,89.0,1754.0,5.5,3.87,,14.18,0.936,70.0,,18.5,5.0,,,,,,,,,,,,0,0,0,0,0,0,0,0,0,0,0,0,0,0,0,0,,,,,0.0,,,,,,
378,747820,1744863146624,,,,,,,,,,,,,,,,,,,,,,,,,,,,,,,,,,0,0,0,0,0,0,0,0,0,0,0,0,0,0,0,0,,,,,,,,,,,
379,747840,1744863146644,0.0,135.0,,-0.04,0.04,0.98,0.0,0.0,1.0,0.98,1.1,89.0,1781.0,5.5,3.88,,14.18,0.936,70.0,,18.2,5.0,0.0,0.0,0.0,0.0,0.0,0.0,0.0,0.0,2.26,,,0,0,0,0,0,0,0,0,0,0,0,0,0,0,0,0,0.0,,,,0.0,38.985832,-76.950859,0.04,36.0,3.0,0.8
380,747860,1744863146664,,,,,,,,,,,,,,,,,,,,,,,,,,,,,,,,,,0,0,0,0,0,0,0,0,0,0,0,0,0,0,0,0,,,,,,,,,,,
381,747880,1744863146684,0.0,135.0,,-0.02,0.04,0.98,0.0,0.0,1.0,0.98,1.1,89.0,1781.0,5.5,3.88,,14.19,0.977,71.8,,18.2,5.0,,,,,,,,,,,,0,0,0,0,0,0,0,0,0,0,0,0,0,0,0,0,,,,,0.0,,,,,,
382,747900,1744863146704,,,,,,,,,,,,,,,,,,,,,,,,,,,,,,,,,,0,0,0,0,0,0,0,0,0,0,0,0,0,0,0,0,,,,,,,,,,,
383,747920,1744863146724,0.0,135.0,,-0.04,0.05,0.98,0.0,0.0,0.0,0.98,1.1,89.0,1721.0,5.6,3.86,,14.19,1.044,71.8,,19.3,5.0,,,,,,,,,,,,0,0,0,0,0,0,0,0,0,0,0,0,0,0,0,0,,,,,0.0,,,,,,
384,747940,1744863146744,,,,,,,,,,,,,,,,,,,,,,,0.0,0.0,0.0,0.0,0.0,0.0,0.0,0.0,2.26,,,0,0,0,0,0,0,0,0,0,0,0,0,0,0,0,0,0.0,,,,,38.985832,-76.950859,0.04,36.0,3.0,0.8
385,747960,1744863146764,0.0,135.0,,-0.05,0.01,0.97,0.0,0.0,0.0,0.97,1.1,88.0,1786.0,5.5,3.86,,14.14,1.111,71.8,,19.3,5.0,,,,,,,,,,,,0,0,0,0,0,0,0,0,0,0,0,0,0,0,0,0,,,,,0.0,,,,,,
386,747980,1744863146784,,,,,,,,,,,,,,,,,,,,,,,,,,,,,,,,,,0,0,0,0,0,0,0,0,0,0,0,0,0,0,0,0,,,,,,,,,,,
387,748000,1744863146804,0.0,135.0,,-0.04,0.03,1.0,0.0,0.0,1.0,1.0,1.1,90.0,1783.0,5.4,3.87,,14.16,1.168,71.8,,19.3,5.0,,,,,,,,,,,,0,0,0,0,0,0,0,0,0,0,0,0,0,0,0,0,,,,,0.0,,,,,,
388,748020,1744863146824,,,,,,,,,,,,,,,,,,,,,,,,,,,,,,,,,,0,0,0,0,0,0,0,0,0,0,0,0,0,0,0,0,,,,,,,,,,,
389,748040,1744863146844,0.0,135.0,,-0.07,0.0,1.0,0.0,0.0,0.0,1.0,1.1,91.0,1717.0,5.3,3.86,,14.16,1.168,71.8,,18.8,5.0,0.0,0.0,0.0,0.0,0.0,0.0,0.0,0.0,2.26,,,0,0,0,0,0,0,0,0,0,0,0,0,0,0,0,0,0.0,,,,0.0,38.985832,-76.950859,0.11,36.0,3.0,0.8
390,748060,1744863146864,,,,,,,,,,,,,,,,,,,,,,,,,,,,,,,,,,0,0,0,0,0,0,0,0,0,0,0,0,0,0,0,0,,,,,,,,,,,
