,Interval,Utc,FrontBP,SteerAng,Battery,AccelX,AccelY,AccelZ,Yaw,Pitch,Roll,Gsum,GsumMax,GsumPct,RPM,TPS,InjectorPW,Baro,MAP,Lambda,IAT,EngineTemp,EOP,EOT,WSFR,WSFL,WSRR,WSRL,TCSet,TCSlip,TCComp,TCCut,Analog8,OilTemp,AA_On,ThermLF1,ThermLF2,ThermRR1,ThermRR2,ThermLF3,ThermLF4,ThermLF5,ThermLF6,ThermLF7,ThermLF8,ThermRR3,ThermRR4,ThermRR5,ThermRR6,ThermRR7,ThermRR8,Gear,AA_On1,AA_LowDrag,Fuel_Mix,AA_Packages,Latitude,Longitude,Speed,GPSSats,GPSQual,GPSDOP
0,761260,1744863160857,,,,,,,,,,,,,,,,,,,,,,,,,,,,,,,,,,0,0,0,0,0,0,0,0,0,0,0,0,0,0,0,0,,,,,,,,,,,
1,761280,1744863160877,0.0,135.0,,-0.04,0.04,0.91,0.0,0.0,0.0,0.92,0.92,100.0,3112.0,3.7,3.77,,12.99,1.093,71.8,,33.7,5.0,,,,,,,,,,,,0,0,0,0,0,0,0,0,0,0,0,0,0,0,0,0,,,,,0.0,,,,,,
2,761300,1744863160897,,,,,,,,,,,,,,,,,,,,,,,,,,,,,,,,,,0,0,0,0,0,0,0,0,0,0,0,0,0,0,0,0,,,,,,,,,,,
3,761320,1744863160917,0.0,135.0,,-0.02,0.03,0.99,0.0,0.0,1.0,0.99,0.99,100.0,3096.0,3.6,3.77,,13.03,1.1,71.8,,34.1,5.0,,,,,,,,,,,,0,0,0,0,0,0,0,0,0,0,0,0,0,0,0,0,,,,,0.0,,,,,,
4,761340,1744863160937,,,,,,,,,,,,,,,,,,,,,,,0.0,0.0,0.0,0.0,0.0,0.0,0.0,0.0,2.26,,,0,0,0,0,0,0,0,0,0,0,0,0,0,0,0,0,0.0,,,,,38.985832,-76.950851,0.04,36.0,3.0,0.8
5,761360,1744863160957,0.0,135.0,,-0.07,-0.04,1.04,0.0,0.0,0.0,1.05,1.05,100.0,3065.0,3.6,3.77,,13.04,1.09,71.8,,34.1,5.0,,,,,,,,,,,,0,0,0,0,0,0,0,0,0,0,0,0,0,0,0,0,,,,,0.0,,,,,,
6,761380,1744863160977,,,,,,,,,,,,,,,,,,,,,,,,,,,,,,,,,,0,0,0,0,0,0,0,0,0,0,0,0,0,0,0,0,,,,,,,,,,,
7,761400,1744863160997,0.0,135.0,,-0.05,0.04,0.94,0.0,0.0,0.0,0.94,1.05,90.0,3361.0,3.6,3.71,,12.96,1.112,71.8,,34.1,5.0,,,,,,,,,,,,0,0,0,0,0,0,0,0,0,0,0,0,0,0,0,0,,,,,0.0,,,,,,
8,761420,1744863161010,,,,,,,,,,,,,,,,,,,,,,,,,,,,,,,,,,0,0,0,0,0,0,0,0,0,0,0,0,0,0,0,0,,,,,,,,,,,
9,761440,1744863161030,0.0,135.0,,-0.09,-0.07,1.01,0.0,0.0,0.0,1.02,1.05,98.0,3417.0,3.7,3.68,,12.96,1.112,71.8,,38.2,5.0,0.0,0.0,0.0,0.0,0.0,0.0,0.0,0.0,2.25,,,0,0,0,0,0,0,0,0,0,0,0,0,0,0,0,0,0.0,,,,0.0,38.985832,-76.950851,0.18,35.0,3.0,0.8
10,761460,1744863161050,,,,,,,,,,,,,,,,,,,,,,,,,,,,,,,,,,0,0,0,0,0,0,0,0,0,0,0,0,0,0,0,0,,,,,,,,,,,
11,761480,1744863161070,0.0,135.0,,-0.06,-0.01,1.01,-1.0,0.0,1.0,1.01,1.05,96.0,3417.0,3.7,3.68,,12.89,1.113,71.8,,38.2,5.0,,,,,,,,,,,,0,0,0,0,0,0,0,0,0,0,0,0,0,0,0,0,,,,,0.0,,,,,,
12,761500,1744863161094,,,,,,,,,,,,,,,,,,,,,,,,,,,,,,,,,,0,0,0,0,0,0,0,0,0,0,0,0,0,0,0,0,,,,,,,,,,,
13,761520,1744863161114,0.0,135.0,,-0.07,-0.03,1.01,0.0,0.0,1.0,1.02,1.05,97.0,3620.0,3.8,3.64,,12.76,1.038,71.8,,42.6,5.0,,,,,,,,,,,,0,0,0,0,0,0,0,0,0,0,0,0,0,0,0,0,,,,,0.0,,,,,,
14,761540,1744863161134,,,,,,,,,,,,,,,,,,,,,,,0.0,0.0,0.0,0.0,0.0,0.0,0.0,0.0,2.26,,,0,0,0,0,0,0,0,0,0,0,0,0,0,0,0,0,0.0,,,,,38.985832,-76.950851,0.27,35.0,3.0,0.8
15,761560,1744863161154,0.0,135.0,,-0.08,-0.02,1.02,0.0,0.0,1.0,1.03,1.05,98.0,3770.0,3.8,3.63,,12.55,1.048,71.8,,42.6,5.0,,,,,,,,,,,,0,0,0,0,0,0,0,0,0,0,0,0,0,0,0,0,,,,,0.0,,,,,,
16,761580,1744863161174,,,,,,,,,,,,,,,,,,,,,,,,,,,,,,,,,,0,0,0,0,0,0,0,0,0,0,0,0,0,0,0,0,,,,,,,,,,,
17,761600,1744863161196,0.0,135.0,,-0.06,-0.01,1.02,0.0,0.0,1.0,1.02,1.05,97.0,3735.0,3.7,3.65,,12.44,1.013,71.8,,42.6,5.0,,,,,,,,,,,,0,0,0,0,0,0,0,0,0,0,0,0,0,0,0,0,,,,,0.0,,,,,,
18,761620,1744863161216,,,,,,,,,,,,,,,,,,,,,,,,,,,,,,,,,,0,0,0,0,0,0,0,0,0,0,0,0,0,0,0,0,,,,,,,,,,,
19,761640,1744863161236,0.0,135.0,,-0.04,0.03,1.0,0.0,0.0,1.0,1.0,1.05,95.0,3607.0,3.8,3.69,,12.44,1.013,71.8,,42.0,5.0,0.0,0.0,0.0,0.0,0.0,0.0,0.0,0.0,2.26,,,0,0,0,0,0,0,0,0,0,0,0,0,0,0,0,0,0.0,,,,0.0,38.985832,-76.950851,0.3,35.0,3.0,0.8
20,761660,1744863161256,,,,,,,,,,,,,,,,,,,,,,,,,,,,,,,,,,0,0,0,0,0,0,0,0,0,0,0,0,0,0,0,0,,,,,,,,,,,
21,761680,1744863161276,0.0,135.0,,-0.05,0.0,0.98,1.0,0.0,0.0,0.98,1.05,94.0,3607.0,3.8,3.69,,12.48,0.939,71.8,,42.0,5.0,,,,,,,,,,,,0,0,0,0,0,0,0,0,0,0,0,0,0,0,0,0,,,,,0.0,,,,,,
22,761700,1744863161298,,,,,,,,,,,,,,,,,,,,,,,,,,,,,,,,,,0,0,0,0,0,0,0,0,0,0,0,0,0,0,0,0,,,,,,,,,,,
23,761720,1744863161318,0.0,135.0,,-0.08,-0.08,1.03,1.0,0.0,0.0,1.04,1.05,99.0,3569.0,3.8,3.7,,12.49,0.962,71.8,,40.0,5.0,,,,,,,,,,,,0,0,0,0,0,0,0,0,0,0,0,0,0,0,0,0,,,,,0.0,,,,,,
24,761740,1744863161338,,,,,,,,,,,,,,,,,,,,,,,0.0,0.0,0.0,0.0,0.0,0.0,0.0,0.0,2.26,,,0,0,0,0,0,0,0,0,0,0,0,0,0,0,0,0,0.0,,,,,38.985832,-76.950851,0.04,35.0,3.0,0.8
25,761760,1744863161358,0.0,135.0,,-0.05,-0.01,1.01,0.0,0.0,1.0,1.02,1.05,97.0,3468.0,3.7,3.7,,12.57,1.033,71.8,,40.0,5.0,,,,,,,,,,,,0,0,0,0,0,0,0,0,0,0,0,0,0,0,0,0,,,,,0.0,,,,,,
26,761780,1744863161378,,,,,,,,,,,,,,,,,,,,,,,,,,,,,,,,,,0,0,0,0,0,0,0,0,0,0,0,0,0,0,0,0,,,,,,,,,,,
27,761800,1744863161398,0.0,135.0,,-0.06,-0.0,0.99,1.0,0.0,0.0,0.99,1.05,95.0,3403.0,3.7,3.72,,12.68,1.093,71.8,,40.0,5.0,,,,,,,,,,,,0,0,0,0,0,0,0,0,0,0,0,0,0,0,0,0,,,,,0.0,,,,,,
28,761820,1744863161418,,,,,,,,,,,,,,,,,,,,,,,,,,,,,,,,,,0,0,0,0,0,0,0,0,0,0,0,0,0,0,0,0,,,,,,,,,,,
29,761840,1744863161438,0.0,135.0,,-0.08,-0.03,1.06,0.0,0.0,0.0,1.07,1.07,100.0,3486.0,3.6,3.72,,12.68,1.093,71.8,,39.6,5.0,0.0,0.0,0.0,0.0,0.0,0.0,0.0,0.0,2.26,,,0,0,0,0,0,0,0,0,0,0,0,0,0,0,0,0,0.0,,,,0.0,38.985832,-76.950851,0.04,35.0,3.0,0.8
30,761860,1744863161458,,,,,,,,,,,,,,,,,,,,,,,,,,,,,,,,,,0,0,0,0,0,0,0,0,0,0,0,0,0,0,0,0,,,,,,,,,,,
31,761880,1744863161478,0.0,135.0,,-0.03,0.11,1.01,0.0,0.0,1.0,1.01,1.07,95.0,3486.0,3.6,3.72,,12.67,1.131,71.8,,39.6,5.0,,,,,,,,,,,,0,0,0,0,0,0,0,0,0,0,0,0,0,0,0,0,,,,,0.0,,,,,,
32,761900,1744863161498,,,,,,,,,,,,,,,,,,,,,,,,,,,,,,,,,,0,0,0,0,0,0,0,0,0,0,0,0,0,0,0,0,,,,,,,,,,,
33,761920,1744863161518,0.0,135.0,,-0.06,0.01,1.02,1.0,0.0,0.0,1.02,1.07,96.0,3469.0,3.6,3.69,,12.67,1.118,71.8,,38.6,5.0,,,,,,,,,,,,0,0,0,0,0,0,0,0,0,0,0,0,0,0,0,0,,,,,0.0,,,,,,
34,761940,1744863161538,,,,,,,,,,,,,,,,,,,,,,,0.0,0.0,0.0,0.0,0.0,0.0,0.0,0.0,2.26,,,0,0,0,0,0,0,0,0,0,0,0,0,0,0,0,0,0.0,,,,,38.985832,-76.950851,0.42,35.0,3.0,0.8
35,761960,1744863161558,0.0,135.0,,-0.05,0.07,1.01,-1.0,0.0,1.0,1.01,1.07,95.0,3357.0,3.6,3.69,,12.69,1.031,71.8,,38.6,5.0,,,,,,,,,,,,0,0,0,0,0,0,0,0,0,0,0,0,0,0,0,0,,,,,0.0,,,,,,
36,761980,1744863161578,,,,,,,,,,,,,,,,,,,,,,,,,,,,,,,,,,0,0,0,0,0,0,0,0,0,0,0,0,0,0,0,0,,,,,,,,,,,
37,762000,1744863161598,0.0,135.0,,-0.07,0.01,1.05,0.0,0.0,0.0,1.05,1.07,99.0,3282.0,3.7,3.71,,12.81,0.996,71.8,,38.6,5.0,,,,,,,,,,,,0,0,0,0,0,0,0,0,0,0,0,0,0,0,0,0,,,,,0.0,,,,,,
38,762020,1744863161618,,,,,,,,,,,,,,,,,,,,,,,,,,,,,,,,,,0,0,0,0,0,0,0,0,0,0,0,0,0,0,0,0,,,,,,,,,,,
39,762040,1744863161638,0.0,135.0,,-0.07,0.04,0.96,0.0,0.0,0.0,0.97,1.07,91.0,3206.0,3.8,3.71,,12.81,0.996,71.8,,36.2,5.0,0.0,0.0,0.0,0.0,0.0,0.0,0.0,0.0,2.26,,,0,0,0,0,0,0,0,0,0,0,0,0,0,0,0,0,0.0,,,,0.0,38.985832,-76.950859,0.4,35.0,3.0,0.8
40,762060,1744863161658,,,,,,,,,,,,,,,,,,,,,,,,,,,,,,,,,,0,0,0,0,0,0,0,0,0,0,0,0,0,0,0,0,,,,,,,,,,,
41,762080,1744863161678,0.0,135.0,,-0.06,0.06,0.92,0.0,0.0,0.0,0.93,1.07,87.0,3206.0,3.8,3.71,,12.85,1.02,71.8,,36.2,5.0,,,,,,,,,,,,0,0,0,0,0,0,0,0,0,0,0,0,0,0,0,0,,,,,0.0,,,,,,
42,762100,1744863161698,,,,,,,,,,,,,,,,,,,,,,,,,,,,,,,,,,0,0,0,0,0,0,0,0,0,0,0,0,0,0,0,0,,,,,,,,,,,
43,762120,1744863161718,0.0,135.0,,-0.09,-0.02,0.97,1.0,0.0,0.0,0.98,1.07,92.0,3289.0,3.8,3.71,,12.87,1.046,71.8,,37.2,5.0,,,,,,,,,,,,0,0,0,0,0,0,0,0,0,0,0,0,0,0,0,0,,,,,0.0,,,,,,
44,762140,1744863161738,,,,,,,,,,,,,,,,,,,,,,,0.0,0.0,0.0,0.0,0.0,0.0,0.0,0.0,2.26,,,0,0,0,0,0,0,0,0,0,0,0,0,0,0,0,0,0.0,,,,,38.985832,-76.950859,0.08,35.0,3.0,0.8
45,762160,1744863161758,0.0,135.0,,-0.07,0.03,0.98,0.0,0.0,1.0,0.99,1.07,92.0,3485.0,3.8,3.74,,12.84,1.1,71.8,,37.2,5.0,,,,,,,,,,,,0,0,0,0,0,0,0,0,0,0,0,0,0,0,0,0,,,,,0.0,,,,,,
46,762180,1744863161778,,,,,,,,,,,,,,,,,,,,,,,,,,,,,,,,,,0,0,0,0,0,0,0,0,0,0,0,0,0,0,0,0,,,,,,,,,,,
47,762200,1744863161798,0.0,135.0,,-0.04,0.07,0.96,1.0,0.0,0.0,0.97,1.07,91.0,3587.0,3.8,3.72,,12.75,1.009,71.8,,37.2,5.0,,,,,,,,,,,,0,0,0,0,0,0,0,0,0,0,0,0,0,0,0,0,,,,,0.0,,,,,,
48,762220,1744863161818,,,,,,,,,,,,,,,,,,,,,,,,,,,,,,,,,,0,0,0,0,0,0,0,0,0,0,0,0,0,0,0,0,,,,,,,,,,,
49,762240,1744863161838,0.0,135.0,13.97,-0.05,-0.0,0.97,1.0,0.0,0.0,0.97,1.07,91.0,3679.0,3.8,3.71,15.0,12.75,1.009,71.8,178.0,41.1,5.0,0.0,0.0,0.0,0.0,0.0,0.0,0.0,0.0,2.26,0.0,0.0,0,0,0,0,0,0,0,0,0,0,0,0,0,0,0,0,0.0,0.0,0.0,0.0,0.0,38.985832,-76.950859,0.05,35.0,3.0,0.8
50,762260,1744863161858,,,,,,,,,,,,,,,,,,,,,,,,,,,,,,,,,,0,0,0,0,0,0,0,0,0,0,0,0,0,0,0,0,,,,,,,,,,,
51,762280,1744863161878,0.0,135.0,,-0.06,-0.04,0.96,1.0,0.0,0.0,0.96,1.07,91.0,3679.0,3.8,3.71,,12.59,0.946,71.8,,41.1,5.0,,,,,,,,,,,,0,0,0,0,0,0,0,0,0,0,0,0,0,0,0,0,,,,,0.0,,,,,,
52,762300,1744863161898,,,,,,,,,,,,,,,,,,,,,,,,,,,,,,,,,,0,0,0,0,0,0,0,0,0,0,0,0,0,0,0,0,,,,,,,,,,,
53,762320,1744863161918,0.0,135.0,,-0.07,-0.07,1.02,1.0,0.0,0.0,1.03,1.07,96.0,3608.0,3.7,3.69,,12.45,0.953,71.8,,40.4,5.0,,,,,,,,,,,,0,0,0,0,0,0,0,0,0,0,0,0,0,0,0,0,,,,,0.0,,,,,,
54,762340,1744863161938,,,,,,,,,,,,,,,,,,,,,,,0.0,0.0,0.0,0.0,0.0,0.0,0.0,0.0,2.26,,,0,0,0,0,0,0,0,0,0,0,0,0,0,0,0,0,0.0,,,,,38.985832,-76.950859,0.16,35.0,3.0,0.8
55,762360,1744863161958,0.0,135.0,,-0.05,0.02,1.01,0.0,0.0,1.0,1.01,1.07,95.0,3579.0,3.6,3.65,,12.52,0.98,71.8,,40.4,5.0,,,,,,,,,,,,0,0,0,0,0,0,0,0,0,0,0,0,0,0,0,0,,,,,0.0,,,,,,
56,762380,1744863161978,,,,,,,,,,,,,,,,,,,,,,,,,,,,,,,,,,0,0,0,0,0,0,0,0,0,0,0,0,0,0,0,0,,,,,,,,,,,
57,762400,1744863161998,0.0,135.0,,-0.04,0.02,0.95,1.0,0.0,0.0,0.95,1.07,89.0,3501.0,3.5,3.62,,12.53,1.014,71.8,,40.4,5.0,,,,,,,,,,,,0,0,0,0,0,0,0,0,0,0,0,0,0,0,0,0,,,,,0.0,,,,,,
58,762420,1744863162009,,,,,,,,,,,,,,,,,,,,,,,,,,,,,,,,,,0,0,0,0,0,0,0,0,0,0,0,0,0,0,0,0,,,,,,,,,,,
59,762440,1744863162029,0.0,135.0,,-0.08,-0.09,1.03,1.0,0.0,0.0,1.04,1.07,97.0,3442.0,3.5,3.64,,12.53,1.014,71.8,,39.2,5.0,0.0,0.0,0.0,0.0,0.0,0.0,0.0,0.0,2.26,,,0,0,0,0,0,0,0,0,0,0,0,0,0,0,0,0,0.0,,,,0.0,38.985832,-76.950859,0.0,35.0,3.0,0.8
60,762460,1744863162049,,,,,,,,,,,,,,,,,,,,,,,,,,,,,,,,,,0,0,0,0,0,0,0,0,0,0,0,0,0,0,0,0,,,,,,,,,,,
61,762480,1744863162069,0.0,135.0,,-0.04,0.04,0.98,0.0,0.0,0.0,0.98,1.07,92.0,3442.0,3.5,3.64,,12.63,1.055,71.8,,39.2,5.0,,,,,,,,,,,,0,0,0,0,0,0,0,0,0,0,0,0,0,0,0,0,,,,,0.0,,,,,,
62,762500,1744863162093,,,,,,,,,,,,,,,,,,,,,,,,,,,,,,,,,,0,0,0,0,0,0,0,0,0,0,0,0,0,0,0,0,,,,,,,,,,,
63,762520,1744863162113,0.0,135.0,,-0.06,-0.06,1.05,0.0,0.0,0.0,1.06,1.07,99.0,3369.0,3.6,3.72,,12.72,1.088,71.8,,36.8,5.0,,,,,,,,,,,,0,0,0,0,0,0,0,0,0,0,0,0,0,0,0,0,,,,,0.0,,,,,,
64,762540,1744863162133,,,,,,,,,,,,,,,,,,,,,,,0.0,0.0,0.0,0.0,0.0,0.0,0.0,0.0,2.26,,,0,0,0,0,0,0,0,0,0,0,0,0,0,0,0,0,0.0,,,,,38.985832,-76.950859,0.41,35.0,3.0,0.8
65,762560,1744863162153,0.0,135.0,,-0.07,-0.03,1.01,0.0,0.0,0.0,1.02,1.07,95.0,3218.0,3.7,3.7,,12.84,1.093,71.8,,36.8,5.0,,,,,,,,,,,,0,0,0,0,0,0,0,0,0,0,0,0,0,0,0,0,,,,,0.0,,,,,,
66,762580,1744863162173,,,,,,,,,,,,,,,,,,,,,,,,,,,,,,,,,,0,0,0,0,0,0,0,0,0,0,0,0,0,0,0,0,,,,,,,,,,,
67,762600,1744863162195,0.0,135.0,,-0.08,-0.03,0.94,0.0,0.0,0.0,0.94,1.07,88.0,3103.0,3.8,3.76,,12.93,1.067,71.8,,36.8,5.0,,,,,,,,,,,,0,0,0,0,0,0,0,0,0,0,0,0,0,0,0,0,,,,,0.0,,,,,,
68,762620,1744863162215,,,,,,,,,,,,,,,,,,,,,,,,,,,,,,,,,,0,0,0,0,0,0,0,0,0,0,0,0,0,0,0,0,,,,,,,,,,,
69,762640,1744863162235,0.0,135.0,,-0.08,-0.03,0.86,1.0,0.0,0.0,0.87,1.07,82.0,3059.0,3.8,3.75,,12.93,1.067,71.8,,33.6,5.0,0.0,0.0,0.0,0.0,0.0,0.0,0.0,0.0,2.25,,,0,0,0,0,0,0,0,0,0,0,0,0,0,0,0,0,0.0,,,,0.0,38.985832,-76.950859,0.13,35.0,3.0,0.8
70,762660,1744863162255,,,,,,,,,,,,,,,,,,,,,,,,,,,,,,,,,,0,0,0,0,0,0,0,0,0,0,0,0,0,0,0,0,,,,,,,,,,,
71,762680,1744863162275,0.0,135.0,,-0.06,-0.01,0.81,1.0,0.0,0.0,0.82,1.07,77.0,3059.0,3.8,3.75,,12.96,1.041,71.8,,33.6,5.0,,,,,,,,,,,,0,0,0,0,0,0,0,0,0,0,0,0,0,0,0,0,,,,,0.0,,,,,,
72,762700,1744863162297,,,,,,,,,,,,,,,,,,,,,,,,,,,,,,,,,,0,0,0,0,0,0,0,0,0,0,0,0,0,0,0,0,,,,,,,,,,,
73,762720,1744863162317,0.0,135.0,,-0.03,0.03,0.79,1.0,0.0,0.0,0.79,1.07,74.0,3019.0,3.8,3.77,,13.03,1.038,71.8,,33.3,5.0,,,,,,,,,,,,0,0,0,0,0,0,0,0,0,0,0,0,0,0,0,0,,,,,0.0,,,,,,
74,762740,1744863162337,,,,,,,,,,,,,,,,,,,,,,,0.0,0.0,0.0,0.0,0.0,0.0,0.0,0.0,2.26,,,0,0,0,0,0,0,0,0,0,0,0,0,0,0,0,0,0.0,,,,,38.985832,-76.950859,0.39,35.0,3.0,0.8
75,762760,1744863162357,0.0,135.0,,-0.01,0.08,0.81,1.0,0.0,0.0,0.81,1.07,76.0,3027.0,3.8,3.77,,13.07,1.031,71.8,,33.3,5.0,,,,,,,,,,,,0,0,0,0,0,0,0,0,0,0,0,0,0,0,0,0,,,,,0.0,,,,,,
76,762780,1744863162377,,,,,,,,,,,,,,,,,,,,,,,,,,,,,,,,,,0,0,0,0,0,0,0,0,0,0,0,0,0,0,0,0,,,,,,,,,,,
77,762800,1744863162397,0.0,135.0,,0.01,0.07,0.88,0.0,0.0,0.0,0.88,1.07,82.0,3123.0,3.8,3.77,,13.05,1.036,71.8,,33.3,5.0,,,,,,,,,,,,0,0,0,0,0,0,0,0,0,0,0,0,0,0,0,0,,,,,0.0,,,,,,
78,762820,1744863162417,,,,,,,,,,,,,,,,,,,,,,,,,,,,,,,,,,0,0,0,0,0,0,0,0,0,0,0,0,0,0,0,0,,,,,,,,,,,
79,762840,1744863162437,0.0,135.0,,0.0,0.03,0.95,0.0,0.0,0.0,0.95,1.07,89.0,3164.0,3.7,3.77,,13.05,1.036,71.8,,34.1,5.0,0.0,0.0,0.0,0.0,0.0,0.0,0.0,0.0,2.26,,,0,0,0,0,0,0,0,0,0,0,0,0,0,0,0,0,0.0,,,,0.0,38.985832,-76.950859,0.24,35.0,3.0,0.8
80,762860,1744863162457,,,,,,,,,,,,,,,,,,,,,,,,,,,,,,,,,,0,0,0,0,0,0,0,0,0,0,0,0,0,0,0,0,,,,,,,,,,,
81,762880,1744863162477,0.0,135.0,,-0.03,0.02,0.96,0.0,0.0,0.0,0.96,1.07,91.0,3164.0,3.7,3.77,,12.95,1.042,71.8,,34.1,5.0,,,,,,,,,,,,0,0,0,0,0,0,0,0,0,0,0,0,0,0,0,0,,,,,0.0,,,,,,
82,762900,1744863162497,,,,,,,,,,,,,,,,,,,,,,,,,,,,,,,,,,0,0,0,0,0,0,0,0,0,0,0,0,0,0,0,0,,,,,,,,,,,
83,762920,1744863162517,0.0,135.0,,-0.05,0.02,0.93,0.0,0.0,0.0,0.93,1.07,88.0,3133.0,3.6,3.74,,12.99,1.053,71.8,,34.2,5.0,,,,,,,,,,,,0,0,0,0,0,0,0,0,0,0,0,0,0,0,0,0,,,,,0.0,,,,,,
84,762940,1744863162537,,,,,,,,,,,,,,,,,,,,,,,0.0,0.0,0.0,0.0,0.0,0.0,0.0,0.0,2.26,,,0,0,0,0,0,0,0,0,0,0,0,0,0,0,0,0,0.0,,,,,38.985832,-76.950859,0.56,35.0,3.0,0.8
85,762960,1744863162557,0.0,135.0,,-0.04,0.03,0.87,1.0,0.0,0.0,0.87,1.07,82.0,3120.0,3.5,3.7,,13.0,1.055,71.8,,34.2,5.0,,,,,,,,,,,,0,0,0,0,0,0,0,0,0,0,0,0,0,0,0,0,,,,,0.0,,,,,,
86,762980,1744863162577,,,,,,,,,,,,,,,,,,,,,,,,,,,,,,,,,,0,0,0,0,0,0,0,0,0,0,0,0,0,0,0,0,,,,,,,,,,,
87,763000,1744863162597,0.0,135.0,,-0.02,0.07,0.85,1.0,0.0,0.0,0.85,1.07,80.0,3104.0,3.5,3.75,,12.99,1.058,71.8,,34.2,5.0,,,,,,,,,,,,0,0,0,0,0,0,0,0,0,0,0,0,0,0,0,0,,,,,0.0,,,,,,
88,763020,1744863162617,,,,,,,,,,,,,,,,,,,,,,,,,,,,,,,,,,0,0,0,0,0,0,0,0,0,0,0,0,0,0,0,0,,,,,,,,,,,
89,763040,1744863162637,0.0,135.0,,-0.01,0.09,0.88,0.0,0.0,0.0,0.89,1.07,83.0,3054.0,3.6,3.72,,12.99,1.058,71.8,,33.6,5.0,0.0,0.0,0.0,0.0,0.0,0.0,0.0,0.0,2.26,,,0,0,0,0,0,0,0,0,0,0,0,0,0,0,0,0,0.0,,,,0.0,38.985832,-76.950859,0.25,35.0,3.0,0.8
90,763060,1744863162657,,,,,,,,,,,,,,,,,,,,,,,,,,,,,,,,,,0,0,0,0,0,0,0,0,0,0,0,0,0,0,0,0,,,,,,,,,,,
91,763080,1744863162677,0.0,135.0,,-0.0,0.07,0.95,0.0,0.0,1.0,0.96,1.07,90.0,3054.0,3.6,3.72,,13.0,1.07,71.8,,33.6,5.0,,,,,,,,,,,,0,0,0,0,0,0,0,0,0,0,0,0,0,0,0,0,,,,,0.0,,,,,,
92,763100,1744863162697,,,,,,,,,,,,,,,,,,,,,,,,,,,,,,,,,,0,0,0,0,0,0,0,0,0,0,0,0,0,0,0,0,,,,,,,,,,,
93,763120,1744863162717,0.0,135.0,,-0.02,0.04,1.02,0.0,0.0,1.0,1.03,1.07,96.0,3071.0,3.7,3.75,,13.05,1.071,71.8,,34.0,5.0,,,,,,,,,,,,0,0,0,0,0,0,0,0,0,0,0,0,0,0,0,0,,,,,0.0,,,,,,
94,763140,1744863162737,,,,,,,,,,,,,,,,,,,,,,,0.0,0.0,0.0,0.0,0.0,0.0,0.0,0.0,2.26,,,0,0,0,0,0,0,0,0,0,0,0,0,0,0,0,0,0.0,,,,,38.985832,-76.950859,0.11,35.0,3.0,0.8
95,763160,1744863162757,0.0,135.0,,-0.05,0.05,1.05,0.0,0.0,1.0,1.05,1.07,99.0,3145.0,3.8,3.73,,13.0,1.06,71.8,,34.0,5.0,,,,,,,,,,,,0,0,0,0,0,0,0,0,0,0,0,0,0,0,0,0,,,,,0.0,,,,,,
96,763180,1744863162777,,,,,,,,,,,,,,,,,,,,,,,,,,,,,,,,,,0,0,0,0,0,0,0,0,0,0,0,0,0,0,0,0,,,,,,,,,,,
97,763200,1744863162797,0.0,135.0,,-0.08,0.02,1.03,0.0,0.0,0.0,1.03,1.07,97.0,3093.0,3.8,3.73,,13.0,1.069,71.8,,34.0,5.0,,,,,,,,,,,,0,0,0,0,0,0,0,0,0,0,0,0,0,0,0,0,,,,,0.0,,,,,,
98,763220,1744863162817,,,,,,,,,,,,,,,,,,,,,,,,,,,,,,,,,,0,0,0,0,0,0,0,0,0,0,0,0,0,0,0,0,,,,,,,,,,,
99,763240,1744863162837,0.0,135.0,13.97,-0.1,-0.02,0.97,0.0,0.0,0.0,0.98,1.07,92.0,3020.0,3.8,3.78,15.0,13.0,1.069,71.8,178.0,33.6,5.0,0.0,0.0,0.0,0.0,0.0,0.0,0.0,0.0,2.26,0.0,0.0,0,0,0,0,0,0,0,0,0,0,0,0,0,0,0,0,0.0,0.0,0.0,0.0,0.0,38.985832,-76.950859,0.08,35.0,3.0,0.8
100,763260,1744863162857,,,,,,,,,,,,,,,,,,,,,,,,,,,,,,,,,,0,0,0,0,0,0,0,0,0,0,0,0,0,0,0,0,,,,,,,,,,,
101,763280,1744863162877,0.0,135.0,,-0.1,-0.04,0.9,1.0,0.0,0.0,0.91,1.07,85.0,3020.0,3.8,3.78,,13.05,1.079,71.8,,33.6,5.0,,,,,,,,,,,,0,0,0,0,0,0,0,0,0,0,0,0,0,0,0,0,,,,,0.0,,,,,,
102,763300,1744863162897,,,,,,,,,,,,,,,,,,,,,,,,,,,,,,,,,,0,0,0,0,0,0,0,0,0,0,0,0,0,0,0,0,,,,,,,,,,,
103,763320,1744863162917,0.0,135.0,,-0.11,-0.03,0.78,1.0,0.0,-1.0,0.79,1.07,74.0,3063.0,3.8,3.79,,13.08,1.059,71.8,,32.7,5.0,,,,,,,,,,,,0,0,0,0,0,0,0,0,0,0,0,0,0,0,0,0,,,,,0.0,,,,,,
104,763340,1744863162937,,,,,,,,,,,,,,,,,,,,,,,0.0,0.0,0.0,0.0,0.0,0.0,0.0,0.0,2.26,,,0,0,0,0,0,0,0,0,0,0,0,0,0,0,0,0,0.0,,,,,38.985832,-76.950859,0.33,35.0,3.0,0.8
105,763360,1744863162957,0.0,135.0,,-0.08,-0.01,0.74,2.0,0.0,-1.0,0.74,1.07,70.0,3069.0,3.8,3.8,,13.05,1.052,71.8,,32.7,5.0,,,,,,,,,,,,0,0,0,0,0,0,0,0,0,0,0,0,0,0,0,0,,,,,0.0,,,,,,
106,763380,1744863162977,,,,,,,,,,,,,,,,,,,,,,,,,,,,,,,,,,0,0,0,0,0,0,0,0,0,0,0,0,0,0,0,0,,,,,,,,,,,
107,763400,1744863162997,0.0,135.0,,-0.13,-0.02,0.64,3.0,-1.0,-2.0,0.65,1.07,61.0,3007.0,3.5,3.72,,13.09,1.048,71.8,,32.7,5.0,,,,,,,,,,,,0,0,0,0,0,0,0,0,0,0,0,0,0,0,0,0,,,,,0.0,,,,,,
108,763420,1744863163008,,,,,,,,,,,,,,,,,,,,,,,,,,,,,,,,,,0,0,0,0,0,0,0,0,0,0,0,0,0,0,0,0,,,,,,,,,,,
109,763440,1744863163028,0.0,135.0,,-0.1,0.0,0.64,3.0,0.0,-1.0,0.65,1.07,61.0,3027.0,3.8,3.8,,13.09,1.048,71.8,,33.0,5.0,0.0,0.0,0.0,0.0,0.0,0.0,0.0,0.0,2.26,,,0,0,0,0,0,0,0,0,0,0,0,0,0,0,0,0,0.0,,,,0.0,38.985832,-76.950859,0.61,35.0,3.0,0.8
110,763460,1744863163048,,,,,,,,,,,,,,,,,,,,,,,,,,,,,,,,,,0,0,0,0,0,0,0,0,0,0,0,0,0,0,0,0,,,,,,,,,,,
111,763480,1744863163068,0.0,135.0,,-0.06,0.09,0.64,2.0,0.0,-1.0,0.65,1.07,61.0,3027.0,3.8,3.8,,13.12,1.046,71.8,,33.0,5.0,,,,,,,,,,,,0,0,0,0,0,0,0,0,0,0,0,0,0,0,0,0,,,,,0.0,,,,,,
112,763500,1744863163094,,,,,,,,,,,,,,,,,,,,,,,,,,,,,,,,,,0,0,0,0,0,0,0,0,0,0,0,0,0,0,0,0,,,,,,,,,,,
113,763520,1744863163114,0.0,135.0,,-0.05,0.1,0.71,1.0,0.0,0.0,0.72,1.07,67.0,3112.0,3.7,3.79,,13.03,1.057,71.8,,33.5,5.0,,,,,,,,,,,,0,0,0,0,0,0,0,0,0,0,0,0,0,0,0,0,,,,,0.0,,,,,,
114,763540,1744863163134,,,,,,,,,,,,,,,,,,,,,,,0.0,0.0,0.0,0.0,0.0,0.0,0.0,0.0,2.26,,,0,0,0,0,0,0,0,0,0,0,0,0,0,0,0,0,0.0,,,,,38.985832,-76.950859,0.2,35.0,3.0,0.8
115,763560,1744863163154,0.0,135.0,,-0.06,0.04,0.82,1.0,0.0,0.0,0.82,1.07,77.0,3124.0,3.7,3.8,,13.04,1.053,71.8,,33.5,5.0,,,,,,,,,,,,0,0,0,0,0,0,0,0,0,0,0,0,0,0,0,0,,,,,0.0,,,,,,
116,763580,1744863163174,,,,,,,,,,,,,,,,,,,,,,,,,,,,,,,,,,0,0,0,0,0,0,0,0,0,0,0,0,0,0,0,0,,,,,,,,,,,
117,763600,1744863163192,0.0,135.0,,-0.07,0.03,0.9,1.0,0.0,-1.0,0.9,1.07,85.0,3095.0,3.8,3.75,,13.03,1.068,71.8,,33.5,5.0,,,,,,,,,,,,0,0,0,0,0,0,0,0,0,0,0,0,0,0,0,0,,,,,0.0,,,,,,
118,763620,1744863163212,,,,,,,,,,,,,,,,,,,,,,,,,,,,,,,,,,0,0,0,0,0,0,0,0,0,0,0,0,0,0,0,0,,,,,,,,,,,
119,763640,1744863163232,0.0,135.0,,-0.08,0.01,0.91,1.0,0.0,-1.0,0.92,1.07,86.0,3165.0,3.9,3.79,,13.03,1.068,71.8,,34.1,5.0,0.0,0.0,0.0,0.0,0.0,0.0,0.0,0.0,2.26,,,0,0,0,0,0,0,0,0,0,0,0,0,0,0,0,0,0.0,,,,0.0,38.985832,-76.950859,0.28,35.0,3.0,0.8
120,763660,1744863163252,,,,,,,,,,,,,,,,,,,,,,,,,,,,,,,,,,0,0,0,0,0,0,0,0,0,0,0,0,0,0,0,0,,,,,,,,,,,
121,763680,1744863163272,0.0,135.0,,-0.09,0.03,0.84,1.0,0.0,-1.0,0.85,1.07,80.0,3165.0,3.9,3.79,,13.04,1.066,71.8,,34.1,5.0,,,,,,,,,,,,0,0,0,0,0,0,0,0,0,0,0,0,0,0,0,0,,,,,0.0,,,,,,
122,763700,1744863163298,,,,,,,,,,,,,,,,,,,,,,,,,,,,,,,,,,0,0,0,0,0,0,0,0,0,0,0,0,0,0,0,0,,,,,,,,,,,
123,763720,1744863163318,0.0,135.0,,-0.08,0.07,0.8,1.0,0.0,0.0,0.81,1.07,76.0,3131.0,4.0,3.76,,12.96,1.077,71.8,,33.9,5.0,,,,,,,,,,,,0,0,0,0,0,0,0,0,0,0,0,0,0,0,0,0,,,,,0.0,,,,,,
124,763740,1744863163338,,,,,,,,,,,,,,,,,,,,,,,0.0,0.0,0.0,0.0,0.0,0.0,0.0,0.0,2.26,,,0,0,0,0,0,0,0,0,0,0,0,0,0,0,0,0,0.0,,,,,38.985832,-76.950859,0.09,35.0,3.0,0.8
125,763760,1744863163358,0.0,135.0,,-0.07,0.09,0.8,0.0,0.0,0.0,0.81,1.07,76.0,3056.0,4.0,3.79,,13.03,1.059,71.8,,33.9,5.0,,,,,,,,,,,,0,0,0,0,0,0,0,0,0,0,0,0,0,0,0,0,,,,,0.0,,,,,,
126,763780,1744863163378,,,,,,,,,,,,,,,,,,,,,,,,,,,,,,,,,,0,0,0,0,0,0,0,0,0,0,0,0,0,0,0,0,,,,,,,,,,,
127,763800,1744863163398,0.0,135.0,,-0.07,0.07,0.86,0.0,0.0,0.0,0.87,1.07,81.0,3060.0,4.0,3.76,,13.03,1.06,71.8,,33.9,5.0,,,,,,,,,,,,0,0,0,0,0,0,0,0,0,0,0,0,0,0,0,0,,,,,0.0,,,,,,
128,763820,1744863163418,,,,,,,,,,,,,,,,,,,,,,,,,,,,,,,,,,0,0,0,0,0,0,0,0,0,0,0,0,0,0,0,0,,,,,,,,,,,
129,763840,1744863163438,0.0,135.0,,-0.07,0.03,0.94,0.0,0.0,0.0,0.95,1.07,89.0,3133.0,4.0,3.81,,13.03,1.06,71.8,,33.7,5.0,0.0,0.0,0.0,0.0,0.0,0.0,0.0,0.0,2.26,,,0,0,0,0,0,0,0,0,0,0,0,0,0,0,0,0,0.0,,,,0.0,38.985832,-76.950859,0.54,35.0,3.0,0.8
130,763860,1744863163458,,,,,,,,,,,,,,,,,,,,,,,,,,,,,,,,,,0,0,0,0,0,0,0,0,0,0,0,0,0,0,0,0,,,,,,,,,,,
131,763880,1744863163478,0.0,135.0,,-0.07,0.02,1.0,0.0,0.0,0.0,1.0,1.07,94.0,3133.0,4.0,3.81,,13.01,1.064,71.8,,33.7,5.0,,,,,,,,,,,,0,0,0,0,0,0,0,0,0,0,0,0,0,0,0,0,,,,,0.0,,,,,,
132,763900,1744863163498,,,,,,,,,,,,,,,,,,,,,,,,,,,,,,,,,,0,0,0,0,0,0,0,0,0,0,0,0,0,0,0,0,,,,,,,,,,,
133,763920,1744863163518,0.0,135.0,,-0.08,0.01,0.96,1.0,0.0,0.0,0.96,1.07,90.0,3154.0,4.0,3.82,,12.97,1.062,71.8,,34.6,5.0,,,,,,,,,,,,0,0,0,0,0,0,0,0,0,0,0,0,0,0,0,0,,,,,0.0,,,,,,
134,763940,1744863163538,,,,,,,,,,,,,,,,,,,,,,,0.0,0.0,0.0,0.0,0.0,0.0,0.0,0.0,2.26,,,0,0,0,0,0,0,0,0,0,0,0,0,0,0,0,0,0.0,,,,,38.985832,-76.950859,0.4,35.0,3.0,0.8
135,763960,1744863163558,0.0,135.0,,-0.07,0.05,0.88,0.0,0.0,0.0,0.89,1.07,83.0,3122.0,3.9,3.81,,13.0,1.056,71.8,,34.6,5.0,,,,,,,,,,,,0,0,0,0,0,0,0,0,0,0,0,0,0,0,0,0,,,,,0.0,,,,,,
136,763980,1744863163578,,,,,,,,,,,,,,,,,,,,,,,,,,,,,,,,,,0,0,0,0,0,0,0,0,0,0,0,0,0,0,0,0,,,,,,,,,,,
137,764000,1744863163598,0.0,135.0,,-0.06,0.05,0.9,0.0,0.0,0.0,0.9,1.07,84.0,3187.0,3.8,3.81,,12.96,1.053,71.8,,34.6,5.0,,,,,,,,,,,,0,0,0,0,0,0,0,0,0,0,0,0,0,0,0,0,,,,,0.0,,,,,,
138,764020,1744863163618,,,,,,,,,,,,,,,,,,,,,,,,,,,,,,,,,,0,0,0,0,0,0,0,0,0,0,0,0,0,0,0,0,,,,,,,,,,,
139,764040,1744863163638,0.0,135.0,,-0.06,0.01,0.99,0.0,0.0,0.0,0.99,1.07,93.0,3197.0,3.8,3.79,,12.96,1.053,71.8,,34.3,5.0,0.0,0.0,0.0,0.0,0.0,0.0,0.0,0.0,2.26,,,0,0,0,0,0,0,0,0,0,0,0,0,0,0,0,0,0.0,,,,0.0,38.985832,-76.950859,0.53,35.0,3.0,0.8
140,764060,1744863163658,,,,,,,,,,,,,,,,,,,,,,,,,,,,,,,,,,0,0,0,0,0,0,0,0,0,0,0,0,0,0,0,0,,,,,,,,,,,
141,764080,1744863163678,0.0,135.0,,-0.07,0.01,1.02,0.0,0.0,0.0,1.02,1.07,96.0,3197.0,3.8,3.79,,12.93,1.057,70.0,,34.3,5.0,,,,,,,,,,,,0,0,0,0,0,0,0,0,0,0,0,0,0,0,0,0,,,,,0.0,,,,,,
142,764100,1744863163698,,,,,,,,,,,,,,,,,,,,,,,,,,,,,,,,,,0,0,0,0,0,0,0,0,0,0,0,0,0,0,0,0,,,,,,,,,,,
143,764120,1744863163718,0.0,135.0,,-0.08,0.02,0.97,0.0,0.0,0.0,0.97,1.07,91.0,3132.0,3.8,3.76,,12.96,1.047,70.0,,34.0,5.0,,,,,,,,,,,,0,0,0,0,0,0,0,0,0,0,0,0,0,0,0,0,,,,,0.0,,,,,,
144,764140,1744863163738,,,,,,,,,,,,,,,,,,,,,,,0.0,0.0,0.0,0.0,0.0,0.0,0.0,0.0,2.26,,,0,0,0,0,0,0,0,0,0,0,0,0,0,0,0,0,0.0,,,,,38.985832,-76.950859,0.33,35.0,3.0,0.8
145,764160,1744863163758,0.0,135.0,,-0.08,0.03,0.89,1.0,0.0,0.0,0.89,1.07,84.0,3131.0,3.9,3.79,,13.0,1.052,70.0,,34.0,5.0,,,,,,,,,,,,0,0,0,0,0,0,0,0,0,0,0,0,0,0,0,0,,,,,0.0,,,,,,
146,764180,1744863163778,,,,,,,,,,,,,,,,,,,,,,,,,,,,,,,,,,0,0,0,0,0,0,0,0,0,0,0,0,0,0,0,0,,,,,,,,,,,
147,764200,1744863163798,0.0,135.0,,-0.07,0.06,0.86,0.0,0.0,0.0,0.87,1.07,82.0,3126.0,4.0,3.76,,12.97,1.07,70.0,,34.0,5.0,,,,,,,,,,,,0,0,0,0,0,0,0,0,0,0,0,0,0,0,0,0,,,,,0.0,,,,,,
148,764220,1744863163818,,,,,,,,,,,,,,,,,,,,,,,,,,,,,,,,,,0,0,0,0,0,0,0,0,0,0,0,0,0,0,0,0,,,,,,,,,,,
149,764240,1744863163838,0.0,135.0,13.99,-0.06,0.07,0.9,0.0,0.0,1.0,0.91,1.07,85.0,3067.0,4.0,3.76,15.0,12.97,1.07,70.0,178.0,33.9,5.0,0.0,0.0,0.0,0.0,0.0,0.0,0.0,0.0,2.26,0.0,0.0,0,0,0,0,0,0,0,0,0,0,0,0,0,0,0,0,0.0,0.0,0.0,0.0,0.0,38.985832,-76.950859,0.13,35.0,3.0,0.8
150,764260,1744863163858,,,,,,,,,,,,,,,,,,,,,,,,,,,,,,,,,,0,0,0,0,0,0,0,0,0,0,0,0,0,0,0,0,,,,,,,,,,,
151,764280,1744863163878,0.0,135.0,,-0.06,0.04,0.99,0.0,0.0,1.0,0.99,1.07,93.0,3067.0,4.0,3.76,,13.0,1.053,70.0,,33.9,5.0,,,,,,,,,,,,0,0,0,0,0,0,0,0,0,0,0,0,0,0,0,0,,,,,0.0,,,,,,
152,764300,1744863163897,,,,,,,,,,,,,,,,,,,,,,,,,,,,,,,,,,0,0,0,0,0,0,0,0,0,0,0,0,0,0,0,0,,,,,,,,,,,
153,764320,1744863163917,0.0,135.0,,-0.07,0.02,1.06,0.0,0.0,0.0,1.06,1.07,99.0,3084.0,4.0,3.76,,13.07,1.054,70.0,,33.4,5.0,,,,,,,,,,,,0,0,0,0,0,0,0,0,0,0,0,0,0,0,0,0,,,,,0.0,,,,,,
154,764340,1744863163937,,,,,,,,,,,,,,,,,,,,,,,0.0,0.0,0.0,0.0,0.0,0.0,0.0,0.0,2.26,,,0,0,0,0,0,0,0,0,0,0,0,0,0,0,0,0,0.0,,,,,38.985832,-76.950859,0.11,35.0,3.0,0.8
155,764360,1744863163957,0.0,135.0,,-0.09,0.03,1.07,0.0,0.0,0.0,1.08,1.08,100.0,3139.0,3.9,3.82,,12.99,1.046,70.0,,33.4,5.0,,,,,,,,,,,,0,0,0,0,0,0,0,0,0,0,0,0,0,0,0,0,,,,,0.0,,,,,,
156,764380,1744863163977,,,,,,,,,,,,,,,,,,,,,,,,,,,,,,,,,,0,0,0,0,0,0,0,0,0,0,0,0,0,0,0,0,,,,,,,,,,,
157,764400,1744863163997,0.0,135.0,,-0.1,0.01,1.01,0.0,0.0,0.0,1.02,1.08,94.0,3100.0,3.9,3.79,,13.0,1.064,70.0,,33.4,5.0,,,,,,,,,,,,0,0,0,0,0,0,0,0,0,0,0,0,0,0,0,0,,,,,0.0,,,,,,
158,764420,1744863164009,,,,,,,,,,,,,,,,,,,,,,,,,,,,,,,,,,0,0,0,0,0,0,0,0,0,0,0,0,0,0,0,0,,,,,,,,,,,
159,764440,1744863164029,0.0,135.0,,-0.09,0.02,0.93,1.0,0.0,0.0,0.93,1.08,86.0,3093.0,3.9,3.81,,13.0,1.064,70.0,,34.1,5.0,0.0,0.0,0.0,0.0,0.0,0.0,0.0,0.0,2.26,,,0,0,0,0,0,0,0,0,0,0,0,0,0,0,0,0,0.0,,,,0.0,38.985832,-76.950859,0.07,35.0,3.0,0.8
160,764460,1744863164049,,,,,,,,,,,,,,,,,,,,,,,,,,,,,,,,,,0,0,0,0,0,0,0,0,0,0,0,0,0,0,0,0,,,,,,,,,,,
161,764480,1744863164069,0.0,135.0,,-0.07,0.06,0.9,0.0,0.0,0.0,0.9,1.08,84.0,3093.0,3.9,3.81,,13.03,1.059,70.0,,34.1,5.0,,,,,,,,,,,,0,0,0,0,0,0,0,0,0,0,0,0,0,0,0,0,,,,,0.0,,,,,,
162,764500,1744863164095,,,,,,,,,,,,,,,,,,,,,,,,,,,,,,,,,,0,0,0,0,0,0,0,0,0,0,0,0,0,0,0,0,,,,,,,,,,,
163,764520,1744863164115,0.0,135.0,,-0.05,0.07,0.94,0.0,0.0,1.0,0.95,1.08,88.0,3127.0,3.8,3.81,,12.97,1.052,70.0,,33.7,5.0,,,,,,,,,,,,0,0,0,0,0,0,0,0,0,0,0,0,0,0,0,0,,,,,0.0,,,,,,
164,764540,1744863164135,,,,,,,,,,,,,,,,,,,,,,,0.0,0.0,0.0,0.0,0.0,0.0,0.0,0.0,2.26,,,0,0,0,0,0,0,0,0,0,0,0,0,0,0,0,0,0.0,,,,,38.985832,-76.950859,0.05,35.0,3.0,0.8
165,764560,1744863164155,0.0,135.0,,-0.04,0.04,1.01,0.0,0.0,1.0,1.01,1.08,93.0,3106.0,3.8,3.81,,12.99,1.05,70.0,,33.7,5.0,,,,,,,,,,,,0,0,0,0,0,0,0,0,0,0,0,0,0,0,0,0,,,,,0.0,,,,,,
166,764580,1744863164175,,,,,,,,,,,,,,,,,,,,,,,,,,,,,,,,,,0,0,0,0,0,0,0,0,0,0,0,0,0,0,0,0,,,,,,,,,,,
167,764600,1744863164199,0.0,135.0,,-0.05,0.0,1.07,0.0,0.0,1.0,1.07,1.08,99.0,3079.0,3.8,3.8,,13.05,1.052,70.0,,33.7,5.0,,,,,,,,,,,,0,0,0,0,0,0,0,0,0,0,0,0,0,0,0,0,,,,,0.0,,,,,,
168,764620,1744863164219,,,,,,,,,,,,,,,,,,,,,,,,,,,,,,,,,,0,0,0,0,0,0,0,0,0,0,0,0,0,0,0,0,,,,,,,,,,,
169,764640,1744863164239,0.0,135.0,,-0.07,-0.01,1.1,0.0,0.0,0.0,1.11,1.11,100.0,3077.0,3.8,3.82,,13.05,1.052,70.0,,34.0,5.0,0.0,0.0,0.0,0.0,0.0,0.0,0.0,0.0,2.26,,,0,0,0,0,0,0,0,0,0,0,0,0,0,0,0,0,0.0,,,,0.0,38.985832,-76.950859,0.04,35.0,3.0,0.8
170,764660,1744863164259,,,,,,,,,,,,,,,,,,,,,,,,,,,,,,,,,,0,0,0,0,0,0,0,0,0,0,0,0,0,0,0,0,,,,,,,,,,,
171,764680,1744863164279,0.0,135.0,,-0.05,0.06,1.02,0.0,0.0,0.0,1.03,1.11,93.0,3077.0,3.8,3.82,,13.01,1.057,70.0,,34.0,5.0,,,,,,,,,,,,0,0,0,0,0,0,0,0,0,0,0,0,0,0,0,0,,,,,0.0,,,,,,
172,764700,1744863164297,,,,,,,,,,,,,,,,,,,,,,,,,,,,,,,,,,0,0,0,0,0,0,0,0,0,0,0,0,0,0,0,0,,,,,,,,,,,
173,764720,1744863164317,0.0,135.0,,-0.09,-0.06,1.08,0.0,0.0,0.0,1.08,1.11,98.0,3399.0,3.9,3.78,,12.95,1.075,70.0,,37.7,5.0,,,,,,,,,,,,0,0,0,0,0,0,0,0,0,0,0,0,0,0,0,0,,,,,0.0,,,,,,
174,764740,1744863164337,,,,,,,,,,,,,,,,,,,,,,,0.0,0.0,0.0,0.0,0.0,0.0,0.0,0.0,2.26,,,0,0,0,0,0,0,0,0,0,0,0,0,0,0,0,0,0.0,,,,,38.985832,-76.950859,0.08,35.0,3.0,0.8
175,764760,1744863164357,0.0,135.0,,-0.04,0.06,1.05,-1.0,0.0,1.0,1.06,1.11,96.0,3433.0,4.0,3.74,,12.89,1.062,70.0,,37.7,5.0,,,,,,,,,,,,0,0,0,0,0,0,0,0,0,0,0,0,0,0,0,0,,,,,0.0,,,,,,
176,764780,1744863164377,,,,,,,,,,,,,,,,,,,,,,,,,,,,,,,,,,0,0,0,0,0,0,0,0,0,0,0,0,0,0,0,0,,,,,,,,,,,
177,764800,1744863164397,0.0,135.0,,-0.05,0.06,1.01,0.0,0.0,0.0,1.01,1.11,92.0,3622.0,4.0,3.74,,12.73,0.997,70.0,,37.7,5.0,,,,,,,,,,,,0,0,0,0,0,0,0,0,0,0,0,0,0,0,0,0,,,,,0.0,,,,,,
178,764820,1744863164417,,,,,,,,,,,,,,,,,,,,,,,,,,,,,,,,,,0,0,0,0,0,0,0,0,0,0,0,0,0,0,0,0,,,,,,,,,,,
179,764840,1744863164437,0.0,135.0,,-0.06,0.05,1.02,0.0,0.0,1.0,1.03,1.11,93.0,3724.0,4.0,3.73,,12.73,0.997,70.0,,41.1,5.0,0.0,0.0,0.0,0.0,0.0,0.0,0.0,0.0,2.26,,,0,0,0,0,0,0,0,0,0,0,0,0,0,0,0,0,0.0,,,,0.0,38.985832,-76.950859,0.0,35.0,3.0,0.8
180,764860,1744863164457,,,,,,,,,,,,,,,,,,,,,,,,,,,,,,,,,,0,0,0,0,0,0,0,0,0,0,0,0,0,0,0,0,,,,,,,,,,,
181,764880,1744863164477,0.0,135.0,,-0.06,0.03,1.02,-1.0,0.0,1.0,1.02,1.11,93.0,3724.0,4.0,3.73,,12.55,0.964,70.0,,41.1,5.0,,,,,,,,,,,,0,0,0,0,0,0,0,0,0,0,0,0,0,0,0,0,,,,,0.0,,,,,,
182,764900,1744863164499,,,,,,,,,,,,,,,,,,,,,,,,,,,,,,,,,,0,0,0,0,0,0,0,0,0,0,0,0,0,0,0,0,,,,,,,,,,,
183,764920,1744863164519,0.0,135.0,,-0.06,-0.02,0.99,0.0,0.0,0.0,0.99,1.11,90.0,3726.0,3.9,3.7,,12.44,0.945,70.0,,41.5,5.0,,,,,,,,,,,,0,0,0,0,0,0,0,0,0,0,0,0,0,0,0,0,,,,,0.0,,,,,,
184,764940,1744863164539,,,,,,,,,,,,,,,,,,,,,,,0.0,0.0,0.0,0.0,0.0,0.0,0.0,0.0,2.26,,,0,0,0,0,0,0,0,0,0,0,0,0,0,0,0,0,0.0,,,,,38.985832,-76.950859,0.08,35.0,3.0,0.8
185,764960,1744863164559,0.0,135.0,,-0.08,-0.07,1.02,0.0,0.0,0.0,1.03,1.11,93.0,3610.0,3.9,3.73,,12.47,0.949,70.0,,41.5,5.0,,,,,,,,,,,,0,0,0,0,0,0,0,0,0,0,0,0,0,0,0,0,,,,,0.0,,,,,,
186,764980,1744863164579,,,,,,,,,,,,,,,,,,,,,,,,,,,,,,,,,,0,0,0,0,0,0,0,0,0,0,0,0,0,0,0,0,,,,,,,,,,,
187,765000,1744863164599,0.0,135.0,,-0.08,-0.04,1.05,0.0,0.0,0.0,1.05,1.11,95.0,3593.0,3.9,3.76,,12.49,0.965,70.0,,41.5,5.0,,,,,,,,,,,,0,0,0,0,0,0,0,0,0,0,0,0,0,0,0,0,,,,,0.0,,,,,,
188,765020,1744863164619,,,,,,,,,,,,,,,,,,,,,,,,,,,,,,,,,,0,0,0,0,0,0,0,0,0,0,0,0,0,0,0,0,,,,,,,,,,,
189,765040,1744863164639,0.0,135.0,,-0.04,0.05,1.01,0.0,0.0,0.0,1.01,1.11,92.0,3517.0,3.8,3.76,,12.49,0.965,70.0,,39.6,5.0,0.0,0.0,0.0,0.0,0.0,0.0,0.0,0.0,2.26,,,0,0,0,0,0,0,0,0,0,0,0,0,0,0,0,0,0.0,,,,0.0,38.985832,-76.950859,0.0,35.0,3.0,0.8
190,765060,1744863164659,,,,,,,,,,,,,,,,,,,,,,,,,,,,,,,,,,0,0,0,0,0,0,0,0,0,0,0,0,0,0,0,0,,,,,,,,,,,
191,765080,1744863164679,0.0,135.0,,-0.07,-0.06,1.02,0.0,0.0,0.0,1.03,1.11,93.0,3517.0,3.8,3.76,,12.55,0.996,70.0,,39.6,5.0,,,,,,,,,,,,0,0,0,0,0,0,0,0,0,0,0,0,0,0,0,0,,,,,0.0,,,,,,
192,765100,1744863164699,,,,,,,,,,,,,,,,,,,,,,,,,,,,,,,,,,0,0,0,0,0,0,0,0,0,0,0,0,0,0,0,0,,,,,,,,,,,
193,765120,1744863164719,0.0,135.0,,-0.05,0.02,1.0,0.0,0.0,0.0,1.0,1.11,90.0,3399.0,3.7,3.75,,12.68,1.059,70.0,,37.1,5.0,,,,,,,,,,,,0,0,0,0,0,0,0,0,0,0,0,0,0,0,0,0,,,,,0.0,,,,,,
194,765140,1744863164739,,,,,,,,,,,,,,,,,,,,,,,0.0,0.0,0.0,0.0,0.0,0.0,0.0,0.0,2.26,,,0,0,0,0,0,0,0,0,0,0,0,0,0,0,0,0,0.0,,,,,38.985832,-76.950859,0.12,35.0,3.0,0.8
195,765160,1744863164759,0.0,135.0,,-0.07,-0.06,1.07,0.0,0.0,0.0,1.07,1.11,97.0,3250.0,3.8,3.77,,12.75,1.055,70.0,,37.1,5.0,,,,,,,,,,,,0,0,0,0,0,0,0,0,0,0,0,0,0,0,0,0,,,,,0.0,,,,,,
196,765180,1744863164779,,,,,,,,,,,,,,,,,,,,,,,,,,,,,,,,,,0,0,0,0,0,0,0,0,0,0,0,0,0,0,0,0,,,,,,,,,,,
197,765200,1744863164799,0.0,135.0,,-0.08,-0.03,1.05,0.0,0.0,0.0,1.05,1.11,95.0,3171.0,3.8,3.77,,12.85,1.04,70.0,,37.1,5.0,,,,,,,,,,,,0,0,0,0,0,0,0,0,0,0,0,0,0,0,0,0,,,,,0.0,,,,,,
198,765220,1744863164819,,,,,,,,,,,,,,,,,,,,,,,,,,,,,,,,,,0,0,0,0,0,0,0,0,0,0,0,0,0,0,0,0,,,,,,,,,,,
199,765240,1744863164839,0.0,135.0,14.04,-0.08,-0.01,0.96,0.0,0.0,0.0,0.97,1.11,87.0,3155.0,3.9,3.77,15.0,12.85,1.04,70.0,178.0,34.1,5.0,0.0,0.0,0.0,0.0,0.0,0.0,0.0,0.0,2.26,0.0,0.0,0,0,0,0,0,0,0,0,0,0,0,0,0,0,0,0,0.0,0.0,0.0,0.0,0.0,38.985832,-76.950859,0.09,35.0,3.0,0.8
200,765260,1744863164859,,,,,,,,,,,,,,,,,,,,,,,,,,,,,,,,,,0,0,0,0,0,0,0,0,0,0,0,0,0,0,0,0,,,,,,,,,,,
201,765280,1744863164879,0.0,135.0,,-0.07,-0.0,0.91,0.0,0.0,0.0,0.91,1.11,83.0,3155.0,3.9,3.77,,12.89,1.026,70.0,,34.1,5.0,,,,,,,,,,,,0,0,0,0,0,0,0,0,0,0,0,0,0,0,0,0,,,,,0.0,,,,,,
202,765300,1744863164898,,,,,,,,,,,,,,,,,,,,,,,,,,,,,,,,,,0,0,0,0,0,0,0,0,0,0,0,0,0,0,0,0,,,,,,,,,,,
203,765320,1744863164918,0.0,135.0,,-0.05,0.03,0.91,0.0,0.0,0.0,0.91,1.11,83.0,3072.0,4.0,3.81,,12.93,0.994,70.0,,33.4,5.0,,,,,,,,,,,,0,0,0,0,0,0,0,0,0,0,0,0,0,0,0,0,,,,,0.0,,,,,,
204,765340,1744863164938,,,,,,,,,,,,,,,,,,,,,,,0.0,0.0,0.0,0.0,0.0,0.0,0.0,0.0,2.25,,,0,0,0,0,0,0,0,0,0,0,0,0,0,0,0,0,0.0,,,,,38.985832,-76.950859,0.07,35.0,3.0,0.8
205,765360,1744863164958,0.0,135.0,,-0.03,0.07,0.92,-1.0,0.0,1.0,0.92,1.11,83.0,3026.0,3.9,3.75,,13.03,0.995,70.0,,33.4,5.0,,,,,,,,,,,,0,0,0,0,0,0,0,0,0,0,0,0,0,0,0,0,,,,,0.0,,,,,,
206,765380,1744863164978,,,,,,,,,,,,,,,,,,,,,,,,,,,,,,,,,,0,0,0,0,0,0,0,0,0,0,0,0,0,0,0,0,,,,,,,,,,,
207,765400,1744863164998,0.0,135.0,,-0.0,0.11,0.91,-1.0,0.0,1.0,0.92,1.11,83.0,3029.0,4.0,3.81,,13.07,1.027,70.0,,33.4,5.0,,,,,,,,,,,,0,0,0,0,0,0,0,0,0,0,0,0,0,0,0,0,,,,,0.0,,,,,,
208,765420,1744863165010,,,,,,,,,,,,,,,,,,,,,,,,,,,,,,,,,,0,0,0,0,0,0,0,0,0,0,0,0,0,0,0,0,,,,,,,,,,,
209,765440,1744863165030,0.0,135.0,,0.02,0.16,0.9,-1.0,0.0,1.0,0.92,1.11,83.0,3007.0,3.9,3.8,,13.07,1.027,70.0,,32.3,5.0,0.0,0.0,0.0,0.0,0.0,0.0,0.0,0.0,2.26,,,0,0,0,0,0,0,0,0,0,0,0,0,0,0,0,0,0.0,,,,0.0,38.985832,-76.950859,0.11,35.0,3.0,0.8
210,765460,1744863165050,,,,,,,,,,,,,,,,,,,,,,,,,,,,,,,,,,0,0,0,0,0,0,0,0,0,0,0,0,0,0,0,0,,,,,,,,,,,
211,765480,1744863165070,0.0,135.0,,0.01,0.09,0.99,-1.0,0.0,1.0,0.99,1.11,90.0,3007.0,3.9,3.8,,13.08,1.037,70.0,,32.3,5.0,,,,,,,,,,,,0,0,0,0,0,0,0,0,0,0,0,0,0,0,0,0,,,,,0.0,,,,,,
212,765500,1744863165098,,,,,,,,,,,,,,,,,,,,,,,,,,,,,,,,,,0,0,0,0,0,0,0,0,0,0,0,0,0,0,0,0,,,,,,,,,,,
213,765520,1744863165118,0.0,135.0,,-0.01,0.09,0.97,-1.0,0.0,1.0,0.97,1.11,88.0,3207.0,4.0,3.79,,13.05,1.072,70.0,,35.2,5.0,,,,,,,,,,,,0,0,0,0,0,0,0,0,0,0,0,0,0,0,0,0,,,,,0.0,,,,,,
214,765540,1744863165138,,,,,,,,,,,,,,,,,,,,,,,0.0,0.0,0.0,0.0,0.0,0.0,0.0,0.0,2.26,,,0,0,0,0,0,0,0,0,0,0,0,0,0,0,0,0,0.0,,,,,38.985832,-76.950859,0.04,35.0,3.0,0.8
215,765560,1744863165158,0.0,135.0,,-0.01,0.11,0.89,0.0,0.0,1.0,0.9,1.11,81.0,3205.0,3.9,3.79,,13.04,1.044,70.0,,35.2,5.0,,,,,,,,,,,,0,0,0,0,0,0,0,0,0,0,0,0,0,0,0,0,,,,,0.0,,,,,,
216,765580,1744863165178,,,,,,,,,,,,,,,,,,,,,,,,,,,,,,,,,,0,0,0,0,0,0,0,0,0,0,0,0,0,0,0,0,,,,,,,,,,,
217,765600,1744863165196,0.0,135.0,,-0.0,0.12,0.91,-1.0,0.0,1.0,0.91,1.11,83.0,3151.0,3.7,3.82,,12.99,0.995,70.0,,35.2,5.0,,,,,,,,,,,,0,0,0,0,0,0,0,0,0,0,0,0,0,0,0,0,,,,,0.0,,,,,,
218,765620,1744863165216,,,,,,,,,,,,,,,,,,,,,,,,,,,,,,,,,,0,0,0,0,0,0,0,0,0,0,0,0,0,0,0,0,,,,,,,,,,,
219,765640,1744863165236,0.0,135.0,,-0.01,0.08,0.99,-1.0,0.0,1.0,1.0,1.11,90.0,3133.0,3.7,3.79,,12.99,0.995,70.0,,34.1,5.0,0.0,0.0,0.0,0.0,0.0,0.0,0.0,0.0,2.26,,,0,0,0,0,0,0,0,0,0,0,0,0,0,0,0,0,0.0,,,,0.0,38.985832,-76.950859,0.09,35.0,3.0,0.8
220,765660,1744863165256,,,,,,,,,,,,,,,,,,,,,,,,,,,,,,,,,,0,0,0,0,0,0,0,0,0,0,0,0,0,0,0,0,,,,,,,,,,,
221,765680,1744863165276,0.0,135.0,,-0.01,0.03,1.0,0.0,0.0,0.0,1.0,1.11,91.0,3133.0,3.7,3.79,,12.97,0.975,70.0,,34.1,5.0,,,,,,,,,,,,0,0,0,0,0,0,0,0,0,0,0,0,0,0,0,0,,,,,0.0,,,,,,
222,765700,1744863165298,,,,,,,,,,,,,,,,,,,,,,,,,,,,,,,,,,0,0,0,0,0,0,0,0,0,0,0,0,0,0,0,0,,,,,,,,,,,
223,765720,1744863165318,0.0,135.0,,0.0,0.1,0.99,-1.0,0.0,1.0,1.0,1.11,90.0,3414.0,3.7,3.74,,12.95,0.973,70.0,,36.6,5.0,,,,,,,,,,,,0,0,0,0,0,0,0,0,0,0,0,0,0,0,0,0,,,,,0.0,,,,,,
224,765740,1744863165338,,,,,,,,,,,,,,,,,,,,,,,0.0,0.0,0.0,0.0,0.0,0.0,0.0,0.0,2.26,,,0,0,0,0,0,0,0,0,0,0,0,0,0,0,0,0,0.0,,,,,38.985832,-76.950859,0.14,35.0,3.0,0.8
225,765760,1744863165358,0.0,135.0,,-0.02,0.02,1.0,0.0,0.0,0.0,1.0,1.11,90.0,3400.0,3.8,3.8,,12.89,1.021,70.0,,36.6,5.0,,,,,,,,,,,,0,0,0,0,0,0,0,0,0,0,0,0,0,0,0,0,,,,,0.0,,,,,,
226,765780,1744863165378,,,,,,,,,,,,,,,,,,,,,,,,,,,,,,,,,,0,0,0,0,0,0,0,0,0,0,0,0,0,0,0,0,,,,,,,,,,,
227,765800,1744863165398,0.0,135.0,,-0.01,0.1,0.97,-1.0,0.0,1.0,0.98,1.11,89.0,3313.0,3.8,3.75,,12.91,0.989,70.0,,36.6,5.0,,,,,,,,,,,,0,0,0,0,0,0,0,0,0,0,0,0,0,0,0,0,,,,,0.0,,,,,,
228,765820,1744863165418,,,,,,,,,,,,,,,,,,,,,,,,,,,,,,,,,,0,0,0,0,0,0,0,0,0,0,0,0,0,0,0,0,,,,,,,,,,,
229,765840,1744863165438,0.0,135.0,,-0.04,0.01,1.05,0.0,0.0,0.0,1.05,1.11,95.0,3291.0,3.9,3.76,,12.91,0.989,70.0,,36.1,5.0,0.0,0.0,0.0,0.0,0.0,0.0,0.0,0.0,2.26,,,0,0,0,0,0,0,0,0,0,0,0,0,0,0,0,0,0.0,,,,0.0,38.985832,-76.950859,0.14,35.0,3.0,0.8
230,765860,1744863165458,,,,,,,,,,,,,,,,,,,,,,,,,,,,,,,,,,0,0,0,0,0,0,0,0,0,0,0,0,0,0,0,0,,,,,,,,,,,
231,765880,1744863165478,0.0,135.0,,-0.04,0.04,0.97,0.0,0.0,0.0,0.98,1.11,88.0,3291.0,3.9,3.76,,12.91,0.973,70.0,,36.1,5.0,,,,,,,,,,,,0,0,0,0,0,0,0,0,0,0,0,0,0,0,0,0,,,,,0.0,,,,,,
232,765900,1744863165498,,,,,,,,,,,,,,,,,,,,,,,,,,,,,,,,,,0,0,0,0,0,0,0,0,0,0,0,0,0,0,0,0,,,,,,,,,,,
233,765920,1744863165518,0.0,135.0,,-0.03,0.06,0.91,0.0,0.0,0.0,0.91,1.11,83.0,3147.0,4.0,3.81,,12.92,0.981,70.0,,34.4,5.0,,,,,,,,,,,,0,0,0,0,0,0,0,0,0,0,0,0,0,0,0,0,,,,,0.0,,,,,,
234,765940,1744863165538,,,,,,,,,,,,,,,,,,,,,,,0.0,0.0,0.0,0.0,0.0,0.0,0.0,0.0,2.26,,,0,0,0,0,0,0,0,0,0,0,0,0,0,0,0,0,0.0,,,,,38.985832,-76.950859,0.13,35.0,3.0,0.8
235,765960,1744863165558,0.0,135.0,,-0.02,0.07,0.94,-1.0,0.0,1.0,0.94,1.11,85.0,3124.0,3.9,3.79,,12.99,0.99,70.0,,34.4,5.0,,,,,,,,,,,,0,0,0,0,0,0,0,0,0,0,0,0,0,0,0,0,,,,,0.0,,,,,,
236,765980,1744863165578,,,,,,,,,,,,,,,,,,,,,,,,,,,,,,,,,,0,0,0,0,0,0,0,0,0,0,0,0,0,0,0,0,,,,,,,,,,,
237,766000,1744863165598,0.0,135.0,,-0.01,0.04,1.01,-1.0,0.0,1.0,1.01,1.11,92.0,3119.0,4.0,3.79,,13.03,1.003,70.0,,34.4,5.0,,,,,,,,,,,,0,0,0,0,0,0,0,0,0,0,0,0,0,0,0,0,,,,,0.0,,,,,,
238,766020,1744863165618,,,,,,,,,,,,,,,,,,,,,,,,,,,,,,,,,,0,0,0,0,0,0,0,0,0,0,0,0,0,0,0,0,,,,,,,,,,,
239,766040,1744863165638,0.0,135.0,,-0.02,0.01,1.07,-1.0,0.0,1.0,1.07,1.11,97.0,3078.0,3.9,3.8,,13.03,1.003,70.0,,33.2,5.0,0.0,0.0,0.0,0.0,0.0,0.0,0.0,0.0,2.25,,,0,0,0,0,0,0,0,0,0,0,0,0,0,0,0,0,0.0,,,,0.0,38.985832,-76.950859,0.08,35.0,3.0,0.8
240,766060,1744863165658,,,,,,,,,,,,,,,,,,,,,,,,,,,,,,,,,,0,0,0,0,0,0,0,0,0,0,0,0,0,0,0,0,,,,,,,,,,,
241,766080,1744863165678,0.0,135.0,,-0.04,-0.03,1.13,0.0,0.0,1.0,1.13,1.13,100.0,3078.0,3.9,3.8,,13.01,1.014,70.0,,33.2,5.0,,,,,,,,,,,,0,0,0,0,0,0,0,0,0,0,0,0,0,0,0,0,,,,,0.0,,,,,,
242,766100,1744863165698,,,,,,,,,,,,,,,,,,,,,,,,,,,,,,,,,,0,0,0,0,0,0,0,0,0,0,0,0,0,0,0,0,,,,,,,,,,,
243,766120,1744863165718,0.0,135.0,,-0.07,-0.03,1.16,0.0,0.0,1.0,1.17,1.17,100.0,3036.0,3.8,3.82,,13.09,1.028,70.0,,32.4,5.0,,,,,,,,,,,,0,0,0,0,0,0,0,0,0,0,0,0,0,0,0,0,,,,,0.0,,,,,,
244,766140,1744863165738,,,,,,,,,,,,,,,,,,,,,,,0.0,0.0,0.0,0.0,0.0,0.0,0.0,0.0,2.25,,,0,0,0,0,0,0,0,0,0,0,0,0,0,0,0,0,0.0,,,,,38.985832,-76.950859,0.04,35.0,3.0,0.8
245,766160,1744863165758,0.0,135.0,,-0.09,-0.04,1.19,0.0,0.0,0.0,1.19,1.19,100.0,3002.0,3.8,3.8,,13.16,1.028,70.0,,32.4,5.0,,,,,,,,,,,,0,0,0,0,0,0,0,0,0,0,0,0,0,0,0,0,,,,,0.0,,,,,,
246,766180,1744863165778,,,,,,,,,,,,,,,,,,,,,,,,,,,,,,,,,,0,0,0,0,0,0,0,0,0,0,0,0,0,0,0,0,,,,,,,,,,,
247,766200,1744863165798,0.0,135.0,,-0.12,-0.05,1.2,0.0,0.0,0.0,1.2,1.2,100.0,3029.0,3.7,3.82,,13.12,1.017,70.0,,32.4,5.0,,,,,,,,,,,,0,0,0,0,0,0,0,0,0,0,0,0,0,0,0,0,,,,,0.0,,,,,,
248,766220,1744863165818,,,,,,,,,,,,,,,,,,,,,,,,,,,,,,,,,,0,0,0,0,0,0,0,0,0,0,0,0,0,0,0,0,,,,,,,,,,,
249,766240,1744863165838,0.0,135.0,14.05,-0.14,-0.05,1.2,0.0,0.0,0.0,1.21,1.21,100.0,3044.0,3.7,3.82,15.0,13.12,1.017,70.0,178.0,32.2,5.0,0.0,0.0,0.0,0.0,0.0,0.0,0.0,0.0,2.25,0.0,0.0,0,0,0,0,0,0,0,0,0,0,0,0,0,0,0,0,0.0,0.0,0.0,0.0,0.0,38.985832,-76.950859,0.04,35.0,3.0,0.8
250,766260,1744863165858,,,,,,,,,,,,,,,,,,,,,,,,,,,,,,,,,,0,0,0,0,0,0,0,0,0,0,0,0,0,0,0,0,,,,,,,,,,,
251,766280,1744863165878,0.0,135.0,,-0.16,-0.06,1.19,0.0,0.0,0.0,1.2,1.21,100.0,3044.0,3.7,3.82,,13.16,1.013,70.0,,32.2,5.0,,,,,,,,,,,,0,0,0,0,0,0,0,0,0,0,0,0,0,0,0,0,,,,,0.0,,,,,,
252,766300,1744863165900,,,,,,,,,,,,,,,,,,,,,,,,,,,,,,,,,,0,0,0,0,0,0,0,0,0,0,0,0,0,0,0,0,,,,,,,,,,,
253,766320,1744863165920,0.0,135.0,,-0.18,-0.08,1.18,0.0,0.0,0.0,1.19,1.21,99.0,2975.0,3.8,3.78,,13.2,1.016,70.0,,32.2,5.0,,,,,,,,,,,,0,0,0,0,0,0,0,0,0,0,0,0,0,0,0,0,,,,,0.0,,,,,,
254,766340,1744863165940,,,,,,,,,,,,,,,,,,,,,,,0.0,0.0,0.0,0.0,0.0,0.0,0.0,0.0,2.24,,,0,0,0,0,0,0,0,0,0,0,0,0,0,0,0,0,0.0,,,,,38.985832,-76.950859,0.08,35.0,3.0,0.8
255,766360,1744863165960,0.0,135.0,,-0.19,-0.09,1.16,0.0,0.0,0.0,1.17,1.21,97.0,3002.0,3.9,3.8,,13.16,1.023,70.0,,32.2,5.0,,,,,,,,,,,,0,0,0,0,0,0,0,0,0,0,0,0,0,0,0,0,,,,,0.0,,,,,,
256,766380,1744863165980,,,,,,,,,,,,,,,,,,,,,,,,,,,,,,,,,,0,0,0,0,0,0,0,0,0,0,0,0,0,0,0,0,,,,,,,,,,,
257,766400,1744863165991,0.0,135.0,,-0.21,-0.1,1.11,0.0,0.0,0.0,1.14,1.21,94.0,3055.0,3.9,3.8,,13.15,1.023,70.0,,32.2,5.0,,,,,,,,,,,,0,0,0,0,0,0,0,0,0,0,0,0,0,0,0,0,,,,,0.0,,,,,,
258,766420,1744863166011,,,,,,,,,,,,,,,,,,,,,,,,,,,,,,,,,,0,0,0,0,0,0,0,0,0,0,0,0,0,0,0,0,,,,,,,,,,,
259,766440,1744863166031,0.0,135.0,,-0.21,-0.12,1.05,0.0,0.0,-1.0,1.08,1.21,89.0,3004.0,3.9,3.81,,13.15,1.023,70.0,,32.5,5.0,0.0,0.0,0.0,0.0,0.0,0.0,0.0,0.0,2.25,,,0,0,0,0,0,0,0,0,0,0,0,0,0,0,0,0,0.0,,,,0.0,38.985832,-76.950859,0.04,35.0,3.0,0.8
260,766460,1744863166051,,,,,,,,,,,,,,,,,,,,,,,,,,,,,,,,,,0,0,0,0,0,0,0,0,0,0,0,0,0,0,0,0,,,,,,,,,,,
261,766480,1744863166071,0.0,135.0,,-0.21,-0.13,0.98,0.0,0.0,-1.0,1.01,1.21,84.0,3004.0,3.9,3.81,,13.15,1.031,70.0,,32.5,5.0,,,,,,,,,,,,0,0,0,0,0,0,0,0,0,0,0,0,0,0,0,0,,,,,0.0,,,,,,
262,766500,1744863166095,,,,,,,,,,,,,,,,,,,,,,,,,,,,,,,,,,0,0,0,0,0,0,0,0,0,0,0,0,0,0,0,0,,,,,,,,,,,
263,766520,1744863166115,0.0,135.0,,-0.21,-0.13,0.92,1.0,0.0,-1.0,0.95,1.21,79.0,2984.0,3.9,3.81,,13.19,1.033,70.0,,32.4,5.0,,,,,,,,,,,,0,0,0,0,0,0,0,0,0,0,0,0,0,0,0,0,,,,,0.0,,,,,,
264,766540,1744863166135,,,,,,,,,,,,,,,,,,,,,,,0.0,0.0,0.0,0.0,0.0,0.0,0.0,0.0,2.24,,,0,0,0,0,0,0,0,0,0,0,0,0,0,0,0,0,0.0,,,,,38.985832,-76.950859,0.05,35.0,3.0,0.8
265,766560,1744863166155,0.0,135.0,,-0.21,-0.13,0.87,1.0,0.0,-1.0,0.91,1.21,75.0,3022.0,4.0,3.84,,13.19,1.038,70.0,,32.4,5.0,,,,,,,,,,,,0,0,0,0,0,0,0,0,0,0,0,0,0,0,0,0,,,,,0.0,,,,,,
266,766580,1744863166175,,,,,,,,,,,,,,,,,,,,,,,,,,,,,,,,,,0,0,0,0,0,0,0,0,0,0,0,0,0,0,0,0,,,,,,,,,,,
267,766600,1744863166195,0.0,135.0,,-0.22,-0.14,0.84,1.0,0.0,-1.0,0.88,1.21,73.0,2985.0,3.9,3.84,,13.19,1.041,70.0,,32.4,5.0,,,,,,,,,,,,0,0,0,0,0,0,0,0,0,0,0,0,0,0,0,0,,,,,0.0,,,,,,
268,766620,1744863166215,,,,,,,,,,,,,,,,,,,,,,,,,,,,,,,,,,0,0,0,0,0,0,0,0,0,0,0,0,0,0,0,0,,,,,,,,,,,
269,766640,1744863166235,0.0,135.0,,-0.22,-0.14,0.88,1.0,0.0,-1.0,0.92,1.21,76.0,2956.0,3.8,3.82,,13.19,1.041,70.0,,31.4,5.0,0.0,0.0,0.0,0.0,0.0,0.0,0.0,0.0,2.25,,,0,0,0,0,0,0,0,0,0,0,0,0,0,0,0,0,0.0,,,,0.0,38.985832,-76.950859,0.08,35.0,3.0,0.8
270,766660,1744863166255,,,,,,,,,,,,,,,,,,,,,,,,,,,,,,,,,,0,0,0,0,0,0,0,0,0,0,0,0,0,0,0,0,,,,,,,,,,,
271,766680,1744863166275,0.0,135.0,,-0.23,-0.13,0.93,1.0,0.0,-1.0,0.97,1.21,80.0,2956.0,3.8,3.82,,13.23,1.033,70.0,,31.4,5.0,,,,,,,,,,,,0,0,0,0,0,0,0,0,0,0,0,0,0,0,0,0,,,,,0.0,,,,,,
272,766700,1744863166299,,,,,,,,,,,,,,,,,,,,,,,,,,,,,,,,,,0,0,0,0,0,0,0,0,0,0,0,0,0,0,0,0,,,,,,,,,,,
273,766720,1744863166319,0.0,135.0,,-0.23,-0.13,1.0,1.0,0.0,-1.0,1.03,1.21,85.0,2961.0,3.8,3.82,,13.23,1.038,70.0,,32.0,5.0,,,,,,,,,,,,0,0,0,0,0,0,0,0,0,0,0,0,0,0,0,0,,,,,0.0,,,,,,
274,766740,1744863166339,,,,,,,,,,,,,,,,,,,,,,,0.0,0.0,0.0,0.0,0.0,0.0,0.0,0.0,2.25,,,0,0,0,0,0,0,0,0,0,0,0,0,0,0,0,0,0.0,,,,,38.985832,-76.950859,0.12,35.0,3.0,0.8
275,766760,1744863166359,0.0,135.0,,-0.22,-0.13,1.06,1.0,0.0,-1.0,1.09,1.21,90.0,2951.0,3.7,3.82,,13.27,1.032,70.0,,32.0,5.0,,,,,,,,,,,,0,0,0,0,0,0,0,0,0,0,0,0,0,0,0,0,,,,,0.0,,,,,,
276,766780,1744863166379,,,,,,,,,,,,,,,,,,,,,,,,,,,,,,,,,,0,0,0,0,0,0,0,0,0,0,0,0,0,0,0,0,,,,,,,,,,,
277,766800,1744863166399,0.0,135.0,,-0.21,-0.13,1.11,1.0,0.0,-1.0,1.14,1.21,95.0,3008.0,3.8,3.8,,13.2,1.026,70.0,,32.0,5.0,,,,,,,,,,,,0,0,0,0,0,0,0,0,0,0,0,0,0,0,0,0,,,,,0.0,,,,,,
278,766820,1744863166419,,,,,,,,,,,,,,,,,,,,,,,,,,,,,,,,,,0,0,0,0,0,0,0,0,0,0,0,0,0,0,0,0,,,,,,,,,,,
279,766840,1744863166439,0.0,135.0,,-0.2,-0.15,1.16,1.0,0.0,-1.0,1.19,1.21,98.0,2987.0,3.9,3.82,,13.2,1.026,70.0,,31.8,5.0,0.0,0.0,0.0,0.0,0.0,0.0,0.0,0.0,2.25,,,0,0,0,0,0,0,0,0,0,0,0,0,0,0,0,0,0.0,,,,0.0,38.985832,-76.950859,0.05,35.0,3.0,0.8
280,766860,1744863166459,,,,,,,,,,,,,,,,,,,,,,,,,,,,,,,,,,0,0,0,0,0,0,0,0,0,0,0,0,0,0,0,0,,,,,,,,,,,
281,766880,1744863166479,0.0,135.0,,-0.18,-0.16,1.21,1.0,0.0,-1.0,1.23,1.23,100.0,2987.0,3.9,3.82,,13.2,1.024,70.0,,31.8,5.0,,,,,,,,,,,,0,0,0,0,0,0,0,0,0,0,0,0,0,0,0,0,,,,,0.0,,,,,,
282,766900,1744863166499,,,,,,,,,,,,,,,,,,,,,,,,,,,,,,,,,,0,0,0,0,0,0,0,0,0,0,0,0,0,0,0,0,,,,,,,,,,,
283,766920,1744863166519,0.0,135.0,,-0.18,-0.16,1.24,1.0,0.0,-1.0,1.26,1.26,100.0,3011.0,3.9,3.78,,13.21,1.026,70.0,,32.5,5.0,,,,,,,,,,,,0,0,0,0,0,0,0,0,0,0,0,0,0,0,0,0,,,,,0.0,,,,,,
284,766940,1744863166539,,,,,,,,,,,,,,,,,,,,,,,0.0,0.0,0.0,0.0,0.0,0.0,0.0,0.0,2.24,,,0,0,0,0,0,0,0,0,0,0,0,0,0,0,0,0,0.0,,,,,38.985832,-76.950859,0.04,35.0,3.0,0.8
285,766960,1744863166559,0.0,135.0,,-0.18,-0.15,1.27,1.0,0.0,-1.0,1.29,1.29,100.0,3007.0,3.9,3.78,,13.19,1.022,70.0,,32.5,5.0,,,,,,,,,,,,0,0,0,0,0,0,0,0,0,0,0,0,0,0,0,0,,,,,0.0,,,,,,
286,766980,1744863166579,,,,,,,,,,,,,,,,,,,,,,,,,,,,,,,,,,0,0,0,0,0,0,0,0,0,0,0,0,0,0,0,0,,,,,,,,,,,
287,767000,1744863166599,0.0,135.0,,-0.18,-0.13,1.29,1.0,0.0,-1.0,1.31,1.31,100.0,3039.0,3.9,3.8,,13.12,1.016,70.0,,32.5,5.0,,,,,,,,,,,,0,0,0,0,0,0,0,0,0,0,0,0,0,0,0,0,,,,,0.0,,,,,,
288,767020,1744863166619,,,,,,,,,,,,,,,,,,,,,,,,,,,,,,,,,,0,0,0,0,0,0,0,0,0,0,0,0,0,0,0,0,,,,,,,,,,,
289,767040,1744863166639,0.0,135.0,,-0.19,-0.12,1.31,1.0,0.0,0.0,1.32,1.32,100.0,3006.0,3.9,3.78,,13.12,1.016,70.0,,32.2,5.0,0.0,0.0,0.0,0.0,0.0,0.0,0.0,0.0,2.26,,,0,0,0,0,0,0,0,0,0,0,0,0,0,0,0,0,0.0,,,,0.0,38.985832,-76.950859,0.08,35.0,3.0,0.8
290,767060,1744863166659,,,,,,,,,,,,,,,,,,,,,,,,,,,,,,,,,,0,0,0,0,0,0,0,0,0,0,0,0,0,0,0,0,,,,,,,,,,,
291,767080,1744863166679,0.0,135.0,,-0.19,-0.11,1.33,1.0,0.0,0.0,1.35,1.35,100.0,3006.0,3.9,3.78,,13.15,1.012,70.0,,32.2,5.0,,,,,,,,,,,,0,0,0,0,0,0,0,0,0,0,0,0,0,0,0,0,,,,,0.0,,,,,,
292,767100,1744863166699,,,,,,,,,,,,,,,,,,,,,,,,,,,,,,,,,,0,0,0,0,0,0,0,0,0,0,0,0,0,0,0,0,,,,,,,,,,,
293,767120,1744863166719,0.0,135.0,,-0.19,-0.11,1.35,1.0,0.0,0.0,1.37,1.37,100.0,2966.0,3.9,3.82,,13.17,1.026,70.0,,32.0,5.0,,,,,,,,,,,,0,0,0,0,0,0,0,0,0,0,0,0,0,0,0,0,,,,,0.0,,,,,,
294,767140,1744863166739,,,,,,,,,,,,,,,,,,,,,,,0.0,0.0,0.0,0.0,0.0,0.0,0.0,0.0,2.26,,,0,0,0,0,0,0,0,0,0,0,0,0,0,0,0,0,0.0,,,,,38.985832,-76.950859,0.0,35.0,3.0,0.8
295,767160,1744863166759,0.0,135.0,,-0.19,-0.12,1.37,1.0,0.0,0.0,1.39,1.39,100.0,2941.0,3.9,3.84,,13.2,1.032,70.0,,32.0,5.0,,,,,,,,,,,,0,0,0,0,0,0,0,0,0,0,0,0,0,0,0,0,,,,,0.0,,,,,,
296,767180,1744863166779,,,,,,,,,,,,,,,,,,,,,,,,,,,,,,,,,,0,0,0,0,0,0,0,0,0,0,0,0,0,0,0,0,,,,,,,,,,,
297,767200,1744863166799,0.0,135.0,,-0.19,-0.13,1.4,1.0,0.0,0.0,1.41,1.41,100.0,3020.0,3.8,3.82,,13.16,1.031,70.0,,32.0,5.0,,,,,,,,,,,,0,0,0,0,0,0,0,0,0,0,0,0,0,0,0,0,,,,,0.0,,,,,,
298,767220,1744863166819,,,,,,,,,,,,,,,,,,,,,,,,,,,,,,,,,,0,0,0,0,0,0,0,0,0,0,0,0,0,0,0,0,,,,,,,,,,,
299,767240,1744863166839,0.0,135.0,14.05,-0.18,-0.13,1.41,1.0,0.0,0.0,1.43,1.43,100.0,3021.0,3.7,3.82,15.0,13.16,1.031,70.0,178.0,31.6,5.0,0.0,0.0,0.0,0.0,0.0,0.0,0.0,0.0,2.26,0.0,0.0,0,0,0,0,0,0,0,0,0,0,0,0,0,0,0,0,0.0,0.0,0.0,0.0,0.0,38.985832,-76.950859,0.04,35.0,3.0,0.8
300,767260,1744863166859,,,,,,,,,,,,,,,,,,,,,,,,,,,,,,,,,,0,0,0,0,0,0,0,0,0,0,0,0,0,0,0,0,,,,,,,,,,,
301,767280,1744863166879,0.0,135.0,,-0.18,-0.14,1.43,1.0,0.0,0.0,1.45,1.45,100.0,3021.0,3.7,3.82,,13.15,1.027,70.0,,31.6,5.0,,,,,,,,,,,,0,0,0,0,0,0,0,0,0,0,0,0,0,0,0,0,,,,,0.0,,,,,,
302,767300,1744863166899,,,,,,,,,,,,,,,,,,,,,,,,,,,,,,,,,,0,0,0,0,0,0,0,0,0,0,0,0,0,0,0,0,,,,,,,,,,,
303,767320,1744863166919,0.0,135.0,,-0.19,-0.13,1.42,1.0,0.0,0.0,1.44,1.45,100.0,3015.0,3.8,3.79,,13.12,1.026,70.0,,33.0,5.0,,,,,,,,,,,,0,0,0,0,0,0,0,0,0,0,0,0,0,0,0,0,,,,,0.0,,,,,,
304,767340,1744863166939,,,,,,,,,,,,,,,,,,,,,,,0.0,0.0,0.0,0.0,0.0,0.0,0.0,0.0,2.26,,,0,0,0,0,0,0,0,0,0,0,0,0,0,0,0,0,0.0,,,,,38.985832,-76.950859,0.08,35.0,3.0,0.8
305,767360,1744863166959,0.0,135.0,,-0.2,-0.12,1.37,1.0,0.0,-1.0,1.39,1.45,96.0,3085.0,3.8,3.79,,13.12,1.018,70.0,,33.0,5.0,,,,,,,,,,,,0,0,0,0,0,0,0,0,0,0,0,0,0,0,0,0,,,,,0.0,,,,,,
306,767380,1744863166979,,,,,,,,,,,,,,,,,,,,,,,,,,,,,,,,,,0,0,0,0,0,0,0,0,0,0,0,0,0,0,0,0,,,,,,,,,,,
307,767400,1744863166999,0.0,135.0,,-0.21,-0.13,1.29,1.0,0.0,-1.0,1.31,1.45,91.0,3079.0,3.8,3.78,,13.08,1.017,70.0,,33.0,5.0,,,,,,,,,,,,0,0,0,0,0,0,0,0,0,0,0,0,0,0,0,0,,,,,0.0,,,,,,
308,767420,1744863167010,,,,,,,,,,,,,,,,,,,,,,,,,,,,,,,,,,0,0,0,0,0,0,0,0,0,0,0,0,0,0,0,0,,,,,,,,,,,
309,767440,1744863167030,0.0,135.0,,-0.2,-0.12,1.17,1.0,0.0,-1.0,1.2,1.45,83.0,3076.0,3.9,3.8,,13.08,1.017,70.0,,32.7,5.0,0.0,0.0,0.0,0.0,0.0,0.0,0.0,0.0,2.26,,,0,0,0,0,0,0,0,0,0,0,0,0,0,0,0,0,0.0,,,,0.0,38.985832,-76.950859,0.07,35.0,3.0,0.8
310,767460,1744863167050,,,,,,,,,,,,,,,,,,,,,,,,,,,,,,,,,,0,0,0,0,0,0,0,0,0,0,0,0,0,0,0,0,,,,,,,,,,,
311,767480,1744863167070,0.0,135.0,,-0.18,-0.07,1.09,1.0,0.0,-1.0,1.11,1.45,76.0,3076.0,3.9,3.8,,13.04,1.026,70.0,,32.7,5.0,,,,,,,,,,,,0,0,0,0,0,0,0,0,0,0,0,0,0,0,0,0,,,,,0.0,,,,,,
312,767500,1744863167090,,,,,,,,,,,,,,,,,,,,,,,,,,,,,,,,,,0,0,0,0,0,0,0,0,0,0,0,0,0,0,0,0,,,,,,,,,,,
313,767520,1744863167110,0.0,135.0,,-0.15,-0.03,1.08,0.0,0.0,0.0,1.09,1.45,75.0,3092.0,3.9,3.78,,13.08,1.041,70.0,,33.4,5.0,,,,,,,,,,,,0,0,0,0,0,0,0,0,0,0,0,0,0,0,0,0,,,,,0.0,,,,,,
314,767540,1744863167130,,,,,,,,,,,,,,,,,,,,,,,0.0,0.0,0.0,0.0,0.0,0.0,0.0,0.0,2.26,,,0,0,0,0,0,0,0,0,0,0,0,0,0,0,0,0,0.0,,,,,38.985832,-76.950859,0.11,35.0,3.0,0.8
315,767560,1744863167150,0.0,135.0,,-0.13,-0.02,1.1,0.0,0.0,0.0,1.11,1.45,77.0,3090.0,3.9,3.8,,13.09,1.058,70.0,,33.4,5.0,,,,,,,,,,,,0,0,0,0,0,0,0,0,0,0,0,0,0,0,0,0,,,,,0.0,,,,,,
316,767580,1744863167170,,,,,,,,,,,,,,,,,,,,,,,,,,,,,,,,,,0,0,0,0,0,0,0,0,0,0,0,0,0,0,0,0,,,,,,,,,,,
317,767600,1744863167198,0.0,135.0,,-0.11,-0.03,1.14,0.0,0.0,0.0,1.15,1.45,79.0,3065.0,4.0,3.77,,13.05,1.059,70.0,,33.4,5.0,,,,,,,,,,,,0,0,0,0,0,0,0,0,0,0,0,0,0,0,0,0,,,,,0.0,,,,,,
318,767620,1744863167218,,,,,,,,,,,,,,,,,,,,,,,,,,,,,,,,,,0,0,0,0,0,0,0,0,0,0,0,0,0,0,0,0,,,,,,,,,,,
319,767640,1744863167238,0.0,135.0,,-0.11,-0.07,1.19,0.0,0.0,0.0,1.19,1.45,83.0,3038.0,3.9,3.8,,13.05,1.059,70.0,,33.1,5.0,0.0,0.0,0.0,0.0,0.0,0.0,0.0,0.0,2.26,,,0,0,0,0,0,0,0,0,0,0,0,0,0,0,0,0,0.0,,,,0.0,38.985832,-76.950859,0.05,35.0,3.0,0.8
320,767660,1744863167258,,,,,,,,,,,,,,,,,,,,,,,,,,,,,,,,,,0,0,0,0,0,0,0,0,0,0,0,0,0,0,0,0,,,,,,,,,,,
321,767680,1744863167278,0.0,135.0,,-0.11,-0.07,1.23,0.0,0.0,0.0,1.24,1.45,86.0,3038.0,3.9,3.8,,13.05,1.057,70.0,,33.1,5.0,,,,,,,,,,,,0,0,0,0,0,0,0,0,0,0,0,0,0,0,0,0,,,,,0.0,,,,,,
322,767700,1744863167298,,,,,,,,,,,,,,,,,,,,,,,,,,,,,,,,,,0,0,0,0,0,0,0,0,0,0,0,0,0,0,0,0,,,,,,,,,,,
323,767720,1744863167318,0.0,135.0,,-0.12,-0.06,1.25,0.0,0.0,0.0,1.26,1.45,87.0,3047.0,3.8,3.8,,13.09,1.045,70.0,,33.0,5.0,,,,,,,,,,,,0,0,0,0,0,0,0,0,0,0,0,0,0,0,0,0,,,,,0.0,,,,,,
324,767740,1744863167338,,,,,,,,,,,,,,,,,,,,,,,0.0,0.0,0.0,0.0,0.0,0.0,0.0,0.0,2.26,,,0,0,0,0,0,0,0,0,0,0,0,0,0,0,0,0,0.0,,,,,38.985832,-76.950859,0.11,35.0,3.0,0.8
325,767760,1744863167358,0.0,135.0,,-0.13,-0.07,1.21,0.0,0.0,0.0,1.22,1.45,85.0,3131.0,3.8,3.8,,13.05,1.035,70.0,,33.0,5.0,,,,,,,,,,,,0,0,0,0,0,0,0,0,0,0,0,0,0,0,0,0,,,,,0.0,,,,,,
326,767780,1744863167378,,,,,,,,,,,,,,,,,,,,,,,,,,,,,,,,,,0,0,0,0,0,0,0,0,0,0,0,0,0,0,0,0,,,,,,,,,,,
327,767800,1744863167398,0.0,135.0,,-0.13,-0.08,1.1,1.0,0.0,0.0,1.11,1.45,77.0,3079.0,3.7,3.76,,13.01,1.037,70.0,,33.0,5.0,,,,,,,,,,,,0,0,0,0,0,0,0,0,0,0,0,0,0,0,0,0,,,,,0.0,,,,,,
328,767820,1744863167418,,,,,,,,,,,,,,,,,,,,,,,,,,,,,,,,,,0,0,0,0,0,0,0,0,0,0,0,0,0,0,0,0,,,,,,,,,,,
329,767840,1744863167438,0.0,135.0,,-0.1,-0.02,1.02,0.0,0.0,0.0,1.03,1.45,71.0,3093.0,3.7,3.77,,13.01,1.037,70.0,,33.6,5.0,0.0,0.0,0.0,0.0,0.0,0.0,0.0,0.0,2.26,,,0,0,0,0,0,0,0,0,0,0,0,0,0,0,0,0,0.0,,,,0.0,38.985832,-76.950859,0.04,35.0,3.0,0.8
330,767860,1744863167458,,,,,,,,,,,,,,,,,,,,,,,,,,,,,,,,,,0,0,0,0,0,0,0,0,0,0,0,0,0,0,0,0,,,,,,,,,,,
331,767880,1744863167478,0.0,135.0,,-0.08,-0.01,1.06,0.0,0.0,0.0,1.06,1.45,73.0,3093.0,3.7,3.77,,13.05,1.033,70.0,,33.6,5.0,,,,,,,,,,,,0,0,0,0,0,0,0,0,0,0,0,0,0,0,0,0,,,,,0.0,,,,,,
332,767900,1744863167498,,,,,,,,,,,,,,,,,,,,,,,,,,,,,,,,,,0,0,0,0,0,0,0,0,0,0,0,0,0,0,0,0,,,,,,,,,,,
333,767920,1744863167518,0.0,135.0,,-0.07,-0.04,1.11,0.0,0.0,0.0,1.12,1.45,77.0,3140.0,3.8,3.75,,13.03,1.036,70.0,,33.5,5.0,,,,,,,,,,,,0,0,0,0,0,0,0,0,0,0,0,0,0,0,0,0,,,,,0.0,,,,,,
334,767940,1744863167538,,,,,,,,,,,,,,,,,,,,,,,0.0,0.0,0.0,0.0,0.0,0.0,0.0,0.0,2.26,,,0,0,0,0,0,0,0,0,0,0,0,0,0,0,0,0,0.0,,,,,38.985832,-76.950859,0.13,35.0,3.0,0.8
335,767960,1744863167558,0.0,135.0,,-0.07,-0.05,1.16,0.0,0.0,0.0,1.17,1.45,81.0,3081.0,3.8,3.78,,13.01,1.045,70.0,,33.5,5.0,,,,,,,,,,,,0,0,0,0,0,0,0,0,0,0,0,0,0,0,0,0,,,,,0.0,,,,,,
336,767980,1744863167578,,,,,,,,,,,,,,,,,,,,,,,,,,,,,,,,,,0,0,0,0,0,0,0,0,0,0,0,0,0,0,0,0,,,,,,,,,,,
337,768000,1744863167596,0.0,135.0,,-0.07,-0.06,1.21,0.0,0.0,0.0,1.21,1.45,84.0,3017.0,3.9,3.76,,13.11,1.056,70.0,,33.5,5.0,,,,,,,,,,,,0,0,0,0,0,0,0,0,0,0,0,0,0,0,0,0,,,,,0.0,,,,,,
338,768020,1744863167616,,,,,,,,,,,,,,,,,,,,,,,,,,,,,,,,,,0,0,0,0,0,0,0,0,0,0,0,0,0,0,0,0,,,,,,,,,,,
339,768040,1744863167636,0.0,135.0,,-0.09,-0.05,1.24,0.0,0.0,0.0,1.25,1.45,86.0,3011.0,3.9,3.76,,13.11,1.056,70.0,,32.4,5.0,0.0,0.0,0.0,0.0,0.0,0.0,0.0,0.0,2.26,,,0,0,0,0,0,0,0,0,0,0,0,0,0,0,0,0,0.0,,,,0.0,38.985832,-76.950859,0.06,35.0,3.0,0.8
340,768060,1744863167656,,,,,,,,,,,,,,,,,,,,,,,,,,,,,,,,,,0,0,0,0,0,0,0,0,0,0,0,0,0,0,0,0,,,,,,,,,,,
341,768080,1744863167676,0.0,135.0,,-0.1,-0.04,1.27,0.0,0.0,0.0,1.27,1.45,88.0,3011.0,3.9,3.76,,13.12,1.056,70.0,,32.4,5.0,,,,,,,,,,,,0,0,0,0,0,0,0,0,0,0,0,0,0,0,0,0,,,,,0.0,,,,,,
342,768100,1744863167698,,,,,,,,,,,,,,,,,,,,,,,,,,,,,,,,,,0,0,0,0,0,0,0,0,0,0,0,0,0,0,0,0,,,,,,,,,,,
343,768120,1744863167718,0.0,135.0,,-0.12,-0.04,1.3,0.0,0.0,0.0,1.3,1.45,90.0,3029.0,3.9,3.82,,13.09,1.038,70.0,,32.1,5.0,,,,,,,,,,,,0,0,0,0,0,0,0,0,0,0,0,0,0,0,0,0,,,,,0.0,,,,,,
344,768140,1744863167738,,,,,,,,,,,,,,,,,,,,,,,0.0,0.0,0.0,0.0,0.0,0.0,0.0,0.0,2.26,,,0,0,0,0,0,0,0,0,0,0,0,0,0,0,0,0,0.0,,,,,38.985832,-76.950859,0.0,35.0,3.0,0.8
345,768160,1744863167758,0.0,135.0,,-0.13,-0.04,1.31,0.0,0.0,0.0,1.32,1.45,91.0,3032.0,3.9,3.8,,13.09,1.025,70.0,,32.1,5.0,,,,,,,,,,,,0,0,0,0,0,0,0,0,0,0,0,0,0,0,0,0,,,,,0.0,,,,,,
346,768180,1744863167778,,,,,,,,,,,,,,,,,,,,,,,,,,,,,,,,,,0,0,0,0,0,0,0,0,0,0,0,0,0,0,0,0,,,,,,,,,,,
347,768200,1744863167796,0.0,135.0,,-0.15,-0.04,1.31,0.0,0.0,0.0,1.32,1.45,91.0,2988.0,3.9,3.81,,13.13,1.022,70.0,,32.1,5.0,,,,,,,,,,,,0,0,0,0,0,0,0,0,0,0,0,0,0,0,0,0,,,,,0.0,,,,,,
348,768220,1744863167816,,,,,,,,,,,,,,,,,,,,,,,,,,,,,,,,,,0,0,0,0,0,0,0,0,0,0,0,0,0,0,0,0,,,,,,,,,,,
349,768240,1744863167836,0.0,135.0,14.06,-0.16,-0.04,1.3,0.0,0.0,0.0,1.31,1.45,90.0,3021.0,3.9,3.81,15.0,13.13,1.022,70.0,178.0,32.8,5.0,0.0,0.0,0.0,0.0,0.0,0.0,0.0,0.0,2.26,0.0,0.0,0,0,0,0,0,0,0,0,0,0,0,0,0,0,0,0,0.0,0.0,0.0,0.0,0.0,38.985832,-76.950859,0.04,35.0,3.0,0.8
350,768260,1744863167856,,,,,,,,,,,,,,,,,,,,,,,,,,,,,,,,,,0,0,0,0,0,0,0,0,0,0,0,0,0,0,0,0,,,,,,,,,,,
351,768280,1744863167876,0.0,135.0,,-0.18,-0.04,1.26,0.0,0.0,0.0,1.27,1.45,88.0,3021.0,3.9,3.81,,13.11,1.018,70.0,,32.8,5.0,,,,,,,,,,,,0,0,0,0,0,0,0,0,0,0,0,0,0,0,0,0,,,,,0.0,,,,,,
352,768300,1744863167897,,,,,,,,,,,,,,,,,,,,,,,,,,,,,,,,,,0,0,0,0,0,0,0,0,0,0,0,0,0,0,0,0,,,,,,,,,,,
353,768320,1744863167917,0.0,135.0,,-0.19,-0.07,1.22,0.0,0.0,0.0,1.24,1.45,86.0,3031.0,4.2,3.84,,13.15,1.024,70.0,,32.3,5.0,,,,,,,,,,,,0,0,0,0,0,0,0,0,0,0,0,0,0,0,0,0,,,,,0.0,,,,,,
354,768340,1744863167937,,,,,,,,,,,,,,,,,,,,,,,0.0,0.0,0.0,0.0,0.0,0.0,0.0,0.0,2.26,,,0,0,0,0,0,0,0,0,0,0,0,0,0,0,0,0,0.0,,,,,38.985832,-76.950859,0.13,35.0,3.0,0.8
355,768360,1744863167957,0.0,135.0,,-0.2,-0.09,1.15,0.0,0.0,-1.0,1.18,1.45,81.0,3014.0,4.5,3.85,,13.15,1.026,70.0,,32.3,5.0,,,,,,,,,,,,0,0,0,0,0,0,0,0,0,0,0,0,0,0,0,0,,,,,0.0,,,,,,
356,768380,1744863167977,,,,,,,,,,,,,,,,,,,,,,,,,,,,,,,,,,0,0,0,0,0,0,0,0,0,0,0,0,0,0,0,0,,,,,,,,,,,
357,768400,1744863167997,0.0,135.0,,-0.21,-0.1,1.08,1.0,0.0,-1.0,1.11,1.45,77.0,2996.0,5.1,3.86,,13.24,1.029,70.0,,32.3,5.0,,,,,,,,,,,,0,0,0,0,0,0,0,0,0,0,0,0,0,0,0,0,,,,,0.0,,,,,,
358,768420,1744863168009,,,,,,,,,,,,,,,,,,,,,,,,,,,,,,,,,,0,0,0,0,0,0,0,0,0,0,0,0,0,0,0,0,,,,,,,,,,,
359,768440,1744863168029,0.0,135.0,,-0.2,-0.08,0.99,1.0,0.0,-1.0,1.02,1.45,70.0,3107.0,6.3,3.92,,13.24,1.029,70.0,,32.4,5.0,0.0,0.0,0.0,0.0,0.0,0.0,0.0,0.0,2.26,,,0,0,0,0,0,0,0,0,0,0,0,0,0,0,0,0,0.0,,,,0.0,38.985832,-76.950859,0.11,35.0,3.0,0.8
360,768460,1744863168049,,,,,,,,,,,,,,,,,,,,,,,,,,,,,,,,,,0,0,0,0,0,0,0,0,0,0,0,0,0,0,0,0,,,,,,,,,,,
361,768480,1744863168069,0.0,135.0,,-0.17,-0.03,0.94,0.0,0.0,-1.0,0.96,1.45,66.0,3107.0,6.3,3.92,,13.29,1.036,70.0,,32.4,5.0,,,,,,,,,,,,0,0,0,0,0,0,0,0,0,0,0,0,0,0,0,0,,,,,0.0,,,,,,
362,768500,1744863168093,,,,,,,,,,,,,,,,,,,,,,,,,,,,,,,,,,0,0,0,0,0,0,0,0,0,0,0,0,0,0,0,0,,,,,,,,,,,
363,768520,1744863168113,0.0,135.0,,-0.16,-0.05,0.99,0.0,0.0,0.0,1.0,1.45,69.0,3154.0,7.0,3.94,,13.25,1.04,70.0,,33.8,5.0,,,,,,,,,,,,0,0,0,0,0,0,0,0,0,0,0,0,0,0,0,0,,,,,0.0,,,,,,
364,768540,1744863168133,,,,,,,,,,,,,,,,,,,,,,,0.0,0.0,0.0,0.0,0.0,0.0,0.0,0.0,2.26,,,0,0,0,0,0,0,0,0,0,0,0,0,0,0,0,0,0.0,,,,,38.985832,-76.950859,0.12,35.0,3.0,0.8
365,768560,1744863168153,0.0,135.0,,-0.15,-0.05,1.05,0.0,0.0,0.0,1.06,1.45,73.0,3174.0,7.1,3.94,,13.25,1.044,70.0,,33.8,5.0,,,,,,,,,,,,0,0,0,0,0,0,0,0,0,0,0,0,0,0,0,0,,,,,0.0,,,,,,
366,768580,1744863168173,,,,,,,,,,,,,,,,,,,,,,,,,,,,,,,,,,0,0,0,0,0,0,0,0,0,0,0,0,0,0,0,0,,,,,,,,,,,
367,768600,1744863168197,0.0,135.0,,-0.14,-0.01,0.96,1.0,0.0,-1.0,0.97,1.45,67.0,3244.0,7.2,3.95,,13.32,1.054,70.0,,33.8,5.0,,,,,,,,,,,,0,0,0,0,0,0,0,0,0,0,0,0,0,0,0,0,,,,,0.0,,,,,,
368,768620,1744863168217,,,,,,,,,,,,,,,,,,,,,,,,,,,,,,,,,,0,0,0,0,0,0,0,0,0,0,0,0,0,0,0,0,,,,,,,,,,,
369,768640,1744863168237,0.0,135.0,,-0.12,-0.01,0.97,0.0,0.0,0.0,0.98,1.45,68.0,3269.0,7.2,3.94,,13.32,1.054,70.0,,34.5,5.0,0.0,0.0,0.0,0.0,0.0,0.0,0.0,0.0,2.26,,,0,0,0,0,0,0,0,0,0,0,0,0,0,0,0,0,0.0,,,,0.0,38.985832,-76.950859,0.08,35.0,3.0,0.8
370,768660,1744863168257,,,,,,,,,,,,,,,,,,,,,,,,,,,,,,,,,,0,0,0,0,0,0,0,0,0,0,0,0,0,0,0,0,,,,,,,,,,,
371,768680,1744863168277,0.0,135.0,,-0.12,-0.05,1.04,0.0,0.0,0.0,1.05,1.45,73.0,3269.0,7.2,3.94,,13.28,1.059,70.0,,34.5,5.0,,,,,,,,,,,,0,0,0,0,0,0,0,0,0,0,0,0,0,0,0,0,,,,,0.0,,,,,,
372,768700,1744863168297,,,,,,,,,,,,,,,,,,,,,,,,,,,,,,,,,,0,0,0,0,0,0,0,0,0,0,0,0,0,0,0,0,,,,,,,,,,,
373,768720,1744863168317,0.0,135.0,,-0.11,-0.02,0.98,0.0,0.0,0.0,0.99,1.45,68.0,3204.0,7.3,3.95,,13.29,1.065,70.0,,35.2,5.0,,,,,,,,,,,,0,0,0,0,0,0,0,0,0,0,0,0,0,0,0,0,,,,,0.0,,,,,,
374,768740,1744863168337,,,,,,,,,,,,,,,,,,,,,,,0.0,0.0,0.0,0.0,0.0,0.0,0.0,0.0,2.26,,,0,0,0,0,0,0,0,0,0,0,0,0,0,0,0,0,0.0,,,,,38.985832,-76.950859,0.0,35.0,3.0,0.8
375,768760,1744863168357,0.0,135.0,,-0.1,-0.02,0.98,0.0,0.0,0.0,0.98,1.45,68.0,3277.0,7.3,3.95,,13.32,1.068,70.0,,35.2,5.0,,,,,,,,,,,,0,0,0,0,0,0,0,0,0,0,0,0,0,0,0,0,,,,,0.0,,,,,,
376,768780,1744863168377,,,,,,,,,,,,,,,,,,,,,,,,,,,,,,,,,,0,0,0,0,0,0,0,0,0,0,0,0,0,0,0,0,,,,,,,,,,,
377,768800,1744863168397,0.0,135.0,,-0.11,-0.08,1.05,0.0,0.0,0.0,1.06,1.45,73.0,3270.0,7.2,3.95,,13.29,1.061,70.0,,35.2,5.0,,,,,,,,,,,,0,0,0,0,0,0,0,0,0,0,0,0,0,0,0,0,,,,,0.0,,,,,,
378,768820,1744863168417,,,,,,,,,,,,,,,,,,,,,,,,,,,,,,,,,,0,0,0,0,0,0,0,0,0,0,0,0,0,0,0,0,,,,,,,,,,,
379,768840,1744863168437,0.0,135.0,,-0.1,-0.07,0.98,0.0,0.0,0.0,0.98,1.45,68.0,3215.0,7.2,3.95,,13.29,1.061,70.0,,35.4,5.0,0.0,0.0,0.0,0.0,0.0,0.0,0.0,0.0,2.26,,,0,0,0,0,0,0,0,0,0,0,0,0,0,0,0,0,0.0,,,,0.0,38.985832,-76.950859,0.45,35.0,3.0,0.8
380,768860,1744863168457,,,,,,,,,,,,,,,,,,,,,,,,,,,,,,,,,,0,0,0,0,0,0,0,0,0,0,0,0,0,0,0,0,,,,,,,,,,,
381,768880,1744863168477,0.0,135.0,,-0.08,-0.01,0.98,0.0,0.0,0.0,0.98,1.45,68.0,3215.0,7.2,3.95,,13.32,1.066,70.0,,35.4,5.0,,,,,,,,,,,,0,0,0,0,0,0,0,0,0,0,0,0,0,0,0,0,,,,,0.0,,,,,,
382,768900,1744863168497,,,,,,,,,,,,,,,,,,,,,,,,,,,,,,,,,,0,0,0,0,0,0,0,0,0,0,0,0,0,0,0,0,,,,,,,,,,,
383,768920,1744863168517,0.0,135.0,,-0.1,-0.08,1.05,0.0,0.0,0.0,1.06,1.45,73.0,3271.0,7.2,3.95,,13.32,1.05,70.0,,35.1,5.0,,,,,,,,,,,,0,0,0,0,0,0,0,0,0,0,0,0,0,0,0,0,,,,,0.0,,,,,,
384,768940,1744863168537,,,,,,,,,,,,,,,,,,,,,,,0.0,0.0,0.0,0.0,0.0,0.0,0.0,0.0,2.26,,,0,0,0,0,0,0,0,0,0,0,0,0,0,0,0,0,0.0,,,,,38.985832,-76.950859,0.55,35.0,3.0,0.8
385,768960,1744863168557,0.0,135.0,,-0.09,-0.05,0.98,1.0,0.0,0.0,0.98,1.45,68.0,3262.0,7.5,3.96,,13.32,1.047,70.0,,35.1,5.0,,,,,,,,,,,,0,0,0,0,0,0,0,0,0,0,0,0,0,0,0,0,,,,,0.0,,,,,,
386,768980,1744863168577,,,,,,,,,,,,,,,,,,,,,,,,,,,,,,,,,,0,0,0,0,0,0,0,0,0,0,0,0,0,0,0,0,,,,,,,,,,,
