,Interval,Utc,FrontBP,SteerAng,Battery,AccelX,AccelY,AccelZ,Yaw,Pitch,Roll,Gsum,GsumMax,GsumPct,RPM,TPS,InjectorPW,Baro,MAP,Lambda,IAT,EngineTemp,EOP,EOT,WSFR,WSFL,WSRR,WSRL,TCSet,TCSlip,TCComp,TCCut,Analog8,OilTemp,AA_On,ThermLF1,ThermLF2,ThermRR1,ThermRR2,ThermLF3,ThermLF4,ThermLF5,ThermLF6,ThermLF7,ThermLF8,ThermRR3,ThermRR4,ThermRR5,ThermRR6,ThermRR7,ThermRR8,Gear,AA_On1,AA_LowDrag,Fuel_Mix,AA_Packages,Latitude,Longitude,Speed,GPSSats,GPSQual,GPSDOP
0,965560,1744863365157,0.0,135.0,,-0.08,0.09,1.13,0.0,0.0,1.0,1.13,1.13,100.0,4026.0,7.5,3.89,,12.61,1.121,68.2,,34.8,5.0,,,,,,,,,,,,0,0,0,0,0,0,0,0,0,0,0,0,0,0,0,0,,,,,0.0,,,,,,
1,965580,1744863365177,,,,,,,,,,,,,,,,,,,,,,,,,,,,,,,,,,0,0,0,0,0,0,0,0,0,0,0,0,0,0,0,0,,,,,,,,,,,
2,965600,1744863365198,0.0,135.0,,-0.11,-0.03,1.09,0.0,0.0,0.0,1.1,1.13,97.0,4074.0,7.6,3.88,,12.61,1.121,68.2,,34.8,5.0,,,,,,,,,,,,0,0,0,0,0,0,0,0,0,0,0,0,0,0,0,0,,,,,0.0,,,,,,
3,965620,1744863365218,,,,,,,,,,,,,,,,,,,,,,,,,,,,,,,,,,0,0,0,0,0,0,0,0,0,0,0,0,0,0,0,0,,,,,,,,,,,
4,965640,1744863365238,0.0,135.0,,-0.09,0.02,1.09,1.0,0.0,0.0,1.1,1.13,97.0,4074.0,7.6,3.88,,12.55,1.123,68.2,,34.8,5.0,0.0,2.0,0.0,0.0,0.0,0.0,0.0,0.0,2.25,,,0,0,0,0,0,0,0,0,0,0,0,0,0,0,0,0,0.0,,,,0.0,38.985832,-76.950859,0.04,35.0,3.0,0.8
5,965660,1744863365258,,,,,,,,,,,,,,,,,,,,,,,,,,,,,,,,,,0,0,0,0,0,0,0,0,0,0,0,0,0,0,0,0,,,,,,,,,,,
6,965680,1744863365278,0.0,135.0,,-0.11,0.01,1.12,-1.0,0.0,1.0,1.13,1.13,99.0,4037.0,7.7,3.84,,12.59,1.127,68.2,,35.2,5.0,,,,,,,,,,,,0,0,0,0,0,0,0,0,0,0,0,0,0,0,0,0,,,,,0.0,,,,,,
7,965700,1744863365300,,,,,,,,,,,,,,,,,,,,,,,,,,,,,,,,,,0,0,0,0,0,0,0,0,0,0,0,0,0,0,0,0,,,,,,,,,,,
8,965720,1744863365320,0.0,135.0,,-0.12,-0.02,1.07,1.0,0.0,0.0,1.07,1.13,95.0,4099.0,7.7,3.82,,12.53,1.134,68.2,,35.2,5.0,,,,,,,,,,,,0,0,0,0,0,0,0,0,0,0,0,0,0,0,0,0,,,,,0.0,,,,,,
9,965740,1744863365340,,,,,,,,,,,,,,,,,,,,,,,0.0,2.0,0.0,0.0,0.0,0.0,0.0,0.0,2.26,,,0,0,0,0,0,0,0,0,0,0,0,0,0,0,0,0,0.0,,,,,38.985832,-76.950859,0.05,35.0,3.0,0.8
10,965760,1744863365360,0.0,135.0,,-0.12,-0.0,1.09,-1.0,0.0,1.0,1.1,1.13,97.0,4136.0,7.7,3.83,,12.48,1.141,68.2,,35.2,5.0,,,,,,,,,,,,0,0,0,0,0,0,0,0,0,0,0,0,0,0,0,0,,,,,0.0,,,,,,
11,965780,1744863365380,,,,,,,,,,,,,,,,,,,,,,,,,,,,,,,,,,0,0,0,0,0,0,0,0,0,0,0,0,0,0,0,0,,,,,,,,,,,
12,965800,1744863365400,0.0,135.0,,-0.11,-0.04,1.04,1.0,0.0,0.0,1.05,1.13,92.0,4111.0,7.7,3.8,,12.48,1.141,68.2,,35.7,5.0,,,,,,,,,,,,0,0,0,0,0,0,0,0,0,0,0,0,0,0,0,0,,,,,0.0,,,,,,
13,965820,1744863365420,,,,,,,,,,,,,,,,,,,,,,,,,,,,,,,,,,0,0,0,0,0,0,0,0,0,0,0,0,0,0,0,0,,,,,,,,,,,
14,965840,1744863365440,0.0,135.0,,-0.1,-0.02,1.05,0.0,0.0,0.0,1.06,1.13,93.0,4111.0,7.7,3.8,,12.44,1.134,68.2,,35.7,5.0,0.0,2.0,0.0,0.0,0.0,0.0,0.0,0.0,2.26,,,0,0,0,0,0,0,0,0,0,0,0,0,0,0,0,0,0.0,,,,0.0,38.985832,-76.950859,0.0,35.0,3.0,0.8
15,965860,1744863365460,,,,,,,,,,,,,,,,,,,,,,,,,,,,,,,,,,0,0,0,0,0,0,0,0,0,0,0,0,0,0,0,0,,,,,,,,,,,
16,965880,1744863365480,0.0,135.0,,-0.08,0.05,1.04,1.0,0.0,0.0,1.05,1.13,93.0,4141.0,7.7,3.81,,12.43,1.125,68.2,,35.3,5.0,,,,,,,,,,,,0,0,0,0,0,0,0,0,0,0,0,0,0,0,0,0,,,,,0.0,,,,,,
17,965900,1744863365500,,,,,,,,,,,,,,,,,,,,,,,,,,,,,,,,,,0,0,0,0,0,0,0,0,0,0,0,0,0,0,0,0,,,,,,,,,,,
18,965920,1744863365520,0.0,135.0,,-0.1,-0.03,1.03,0.0,0.0,0.0,1.03,1.13,91.0,4176.0,7.7,3.82,,12.4,1.111,68.2,,35.3,5.0,,,,,,,,,,,,0,0,0,0,0,0,0,0,0,0,0,0,0,0,0,0,,,,,0.0,,,,,,
19,965940,1744863365540,,,,,,,,,,,,,,,,,,,,,,,0.0,2.0,0.0,0.0,0.0,0.0,0.0,0.0,2.25,,,0,0,0,0,0,0,0,0,0,0,0,0,0,0,0,0,0.0,,,,,38.985832,-76.950859,0.11,35.0,3.0,0.8
20,965960,1744863365560,0.0,135.0,,-0.08,0.07,1.06,0.0,0.0,0.0,1.06,1.13,94.0,4133.0,7.7,3.83,,12.36,1.109,68.2,,35.3,5.0,,,,,,,,,,,,0,0,0,0,0,0,0,0,0,0,0,0,0,0,0,0,,,,,0.0,,,,,,
21,965980,1744863365580,,,,,,,,,,,,,,,,,,,,,,,,,,,,,,,,,,0,0,0,0,0,0,0,0,0,0,0,0,0,0,0,0,,,,,,,,,,,
22,966000,1744863365600,0.0,135.0,,-0.12,-0.05,1.03,0.0,0.0,0.0,1.04,1.13,92.0,4105.0,7.7,3.81,,12.36,1.109,68.2,,35.6,5.0,,,,,,,,,,,,0,0,0,0,0,0,0,0,0,0,0,0,0,0,0,0,,,,,0.0,,,,,,
23,966020,1744863365620,,,,,,,,,,,,,,,,,,,,,,,,,,,,,,,,,,0,0,0,0,0,0,0,0,0,0,0,0,0,0,0,0,,,,,,,,,,,
24,966040,1744863365640,0.0,135.0,,-0.1,0.03,1.04,1.0,0.0,0.0,1.05,1.13,92.0,4105.0,7.7,3.81,,12.43,1.096,68.2,,35.6,5.0,0.0,0.0,0.0,0.0,0.0,0.0,0.0,0.0,2.26,,,0,0,0,0,0,0,0,0,0,0,0,0,0,0,0,0,0.0,,,,0.0,38.985832,-76.950859,0.13,35.0,3.0,0.8
25,966060,1744863365660,,,,,,,,,,,,,,,,,,,,,,,,,,,,,,,,,,0,0,0,0,0,0,0,0,0,0,0,0,0,0,0,0,,,,,,,,,,,
26,966080,1744863365680,0.0,135.0,,-0.12,-0.06,1.01,0.0,0.0,0.0,1.02,1.13,90.0,4097.0,7.6,3.81,,12.4,1.106,68.2,,35.3,5.0,,,,,,,,,,,,0,0,0,0,0,0,0,0,0,0,0,0,0,0,0,0,,,,,0.0,,,,,,
27,966100,1744863365700,,,,,,,,,,,,,,,,,,,,,,,,,,,,,,,,,,0,0,0,0,0,0,0,0,0,0,0,0,0,0,0,0,,,,,,,,,,,
28,966120,1744863365720,0.0,135.0,,-0.07,0.07,1.04,0.0,0.0,0.0,1.04,1.13,92.0,4173.0,7.6,3.83,,12.4,1.112,68.2,,35.3,5.0,,,,,,,,,,,,0,0,0,0,0,0,0,0,0,0,0,0,0,0,0,0,,,,,0.0,,,,,,
29,966140,1744863365740,,,,,,,,,,,,,,,,,,,,,,,0.0,0.0,0.0,0.0,0.0,0.0,0.0,0.0,2.26,,,0,0,0,0,0,0,0,0,0,0,0,0,0,0,0,0,0.0,,,,,38.985832,-76.950859,0.11,35.0,3.0,0.8
30,966160,1744863365760,0.0,135.0,,-0.08,-0.04,0.98,0.0,0.0,0.0,0.99,1.13,87.0,4179.0,7.6,3.81,,12.33,1.121,68.2,,35.3,5.0,,,,,,,,,,,,0,0,0,0,0,0,0,0,0,0,0,0,0,0,0,0,,,,,0.0,,,,,,
31,966180,1744863365780,,,,,,,,,,,,,,,,,,,,,,,,,,,,,,,,,,0,0,0,0,0,0,0,0,0,0,0,0,0,0,0,0,,,,,,,,,,,
32,966200,1744863365800,0.0,135.0,,-0.05,0.13,1.05,0.0,0.0,0.0,1.06,1.13,94.0,4142.0,7.7,3.79,,12.33,1.121,68.2,,35.2,5.0,,,,,,,,,,,,0,0,0,0,0,0,0,0,0,0,0,0,0,0,0,0,,,,,0.0,,,,,,
33,966220,1744863365820,,,,,,,,,,,,,,,,,,,,,,,,,,,,,,,,,,0,0,0,0,0,0,0,0,0,0,0,0,0,0,0,0,,,,,,,,,,,
34,966240,1744863365840,0.0,135.0,13.8,-0.09,-0.05,0.99,0.0,0.0,0.0,0.99,1.13,88.0,4142.0,7.7,3.79,15.0,12.4,1.111,68.2,178.0,35.2,5.0,0.0,0.0,0.0,0.0,0.0,0.0,0.0,0.0,2.25,0.0,0.0,0,0,0,0,0,0,0,0,0,0,0,0,0,0,0,0,0.0,0.0,0.0,0.0,0.0,38.985832,-76.950859,0.04,35.0,3.0,0.8
35,966260,1744863365860,,,,,,,,,,,,,,,,,,,,,,,,,,,,,,,,,,0,0,0,0,0,0,0,0,0,0,0,0,0,0,0,0,,,,,,,,,,,
36,966280,1744863365880,0.0,135.0,,-0.08,0.09,1.06,0.0,0.0,1.0,1.06,1.13,94.0,4174.0,7.7,3.83,,12.36,1.108,68.2,,35.6,5.0,,,,,,,,,,,,0,0,0,0,0,0,0,0,0,0,0,0,0,0,0,0,,,,,0.0,,,,,,
37,966300,1744863365900,,,,,,,,,,,,,,,,,,,,,,,,,,,,,,,,,,0,0,0,0,0,0,0,0,0,0,0,0,0,0,0,0,,,,,,,,,,,
38,966320,1744863365920,0.0,135.0,,-0.11,-0.09,0.97,1.0,0.0,0.0,0.98,1.13,87.0,4162.0,7.7,3.82,,12.4,1.101,68.2,,35.6,5.0,,,,,,,,,,,,0,0,0,0,0,0,0,0,0,0,0,0,0,0,0,0,,,,,0.0,,,,,,
39,966340,1744863365940,,,,,,,,,,,,,,,,,,,,,,,0.0,0.0,0.0,0.0,0.0,0.0,0.0,0.0,2.25,,,0,0,0,0,0,0,0,0,0,0,0,0,0,0,0,0,0.0,,,,,38.985832,-76.950859,0.0,35.0,3.0,0.8
40,966360,1744863365960,0.0,135.0,,-0.08,0.06,1.04,0.0,0.0,0.0,1.04,1.13,92.0,4124.0,7.7,3.8,,12.47,1.104,68.2,,35.6,5.0,,,,,,,,,,,,0,0,0,0,0,0,0,0,0,0,0,0,0,0,0,0,,,,,0.0,,,,,,
41,966380,1744863365980,,,,,,,,,,,,,,,,,,,,,,,,,,,,,,,,,,0,0,0,0,0,0,0,0,0,0,0,0,0,0,0,0,,,,,,,,,,,
42,966400,1744863365992,0.0,135.0,,-0.08,-0.04,0.96,1.0,0.0,0.0,0.97,1.13,86.0,4102.0,7.7,3.8,,12.47,1.104,68.2,,35.4,5.0,,,,,,,,,,,,0,0,0,0,0,0,0,0,0,0,0,0,0,0,0,0,,,,,0.0,,,,,,
43,966420,1744863366012,,,,,,,,,,,,,,,,,,,,,,,,,,,,,,,,,,0,0,0,0,0,0,0,0,0,0,0,0,0,0,0,0,,,,,,,,,,,
44,966440,1744863366032,0.0,135.0,,-0.05,0.09,1.04,-1.0,0.0,1.0,1.05,1.13,93.0,4102.0,7.7,3.8,,12.33,1.099,68.2,,35.4,5.0,0.0,0.0,0.0,0.0,0.0,0.0,0.0,0.0,2.25,,,0,0,0,0,0,0,0,0,0,0,0,0,0,0,0,0,0.0,,,,0.0,38.985832,-76.950859,0.11,35.0,3.0,0.8
45,966460,1744863366052,,,,,,,,,,,,,,,,,,,,,,,,,,,,,,,,,,0,0,0,0,0,0,0,0,0,0,0,0,0,0,0,0,,,,,,,,,,,
46,966480,1744863366072,0.0,135.0,,-0.07,-0.05,0.98,0.0,0.0,0.0,0.98,1.13,87.0,4144.0,7.7,3.84,,12.31,1.098,68.2,,35.1,5.0,,,,,,,,,,,,0,0,0,0,0,0,0,0,0,0,0,0,0,0,0,0,,,,,0.0,,,,,,
47,966500,1744863366100,,,,,,,,,,,,,,,,,,,,,,,,,,,,,,,,,,0,0,0,0,0,0,0,0,0,0,0,0,0,0,0,0,,,,,,,,,,,
48,966520,1744863366120,0.0,135.0,,-0.04,0.1,1.06,0.0,0.0,1.0,1.07,1.13,94.0,4102.0,7.7,3.84,,12.36,1.096,68.2,,35.1,5.0,,,,,,,,,,,,0,0,0,0,0,0,0,0,0,0,0,0,0,0,0,0,,,,,0.0,,,,,,
49,966540,1744863366140,,,,,,,,,,,,,,,,,,,,,,,0.0,0.0,0.0,0.0,0.0,0.0,0.0,0.0,2.26,,,0,0,0,0,0,0,0,0,0,0,0,0,0,0,0,0,0.0,,,,,38.985832,-76.950859,0.05,35.0,3.0,0.8
50,966560,1744863366160,0.0,135.0,,-0.08,-0.08,1.0,0.0,0.0,0.0,1.0,1.13,89.0,4072.0,7.6,3.82,,12.35,1.093,68.2,,35.1,5.0,,,,,,,,,,,,0,0,0,0,0,0,0,0,0,0,0,0,0,0,0,0,,,,,0.0,,,,,,
51,966580,1744863366180,,,,,,,,,,,,,,,,,,,,,,,,,,,,,,,,,,0,0,0,0,0,0,0,0,0,0,0,0,0,0,0,0,,,,,,,,,,,
52,966600,1744863366197,0.0,135.0,,-0.07,0.05,1.05,0.0,0.0,0.0,1.05,1.13,93.0,4061.0,7.5,3.82,,12.35,1.093,68.2,,35.4,5.0,,,,,,,,,,,,0,0,0,0,0,0,0,0,0,0,0,0,0,0,0,0,,,,,0.0,,,,,,
53,966620,1744863366217,,,,,,,,,,,,,,,,,,,,,,,,,,,,,,,,,,0,0,0,0,0,0,0,0,0,0,0,0,0,0,0,0,,,,,,,,,,,
54,966640,1744863366237,0.0,135.0,,-0.11,-0.11,1.0,0.0,0.0,0.0,1.01,1.13,89.0,4061.0,7.5,3.82,,12.35,1.093,68.2,,35.4,5.0,0.0,0.0,0.0,0.0,0.0,0.0,0.0,0.0,2.26,,,0,0,0,0,0,0,0,0,0,0,0,0,0,0,0,0,0.0,,,,0.0,38.985832,-76.950859,0.0,35.0,3.0,0.8
55,966660,1744863366257,,,,,,,,,,,,,,,,,,,,,,,,,,,,,,,,,,0,0,0,0,0,0,0,0,0,0,0,0,0,0,0,0,,,,,,,,,,,
56,966680,1744863366277,0.0,135.0,,-0.09,-0.01,1.02,1.0,0.0,0.0,1.02,1.13,90.0,4115.0,7.7,3.84,,12.4,1.11,68.2,,35.2,5.0,,,,,,,,,,,,0,0,0,0,0,0,0,0,0,0,0,0,0,0,0,0,,,,,0.0,,,,,,
57,966700,1744863366299,,,,,,,,,,,,,,,,,,,,,,,,,,,,,,,,,,0,0,0,0,0,0,0,0,0,0,0,0,0,0,0,0,,,,,,,,,,,
58,966720,1744863366319,0.0,135.0,,-0.12,-0.07,1.01,0.0,0.0,0.0,1.01,1.13,90.0,4052.0,7.7,3.83,,12.41,1.096,68.2,,35.2,5.0,,,,,,,,,,,,0,0,0,0,0,0,0,0,0,0,0,0,0,0,0,0,,,,,0.0,,,,,,
59,966740,1744863366339,,,,,,,,,,,,,,,,,,,,,,,0.0,0.0,0.0,0.0,0.0,0.0,0.0,0.0,2.26,,,0,0,0,0,0,0,0,0,0,0,0,0,0,0,0,0,0.0,,,,,38.985832,-76.950859,0.04,35.0,3.0,0.8
60,966760,1744863366359,0.0,135.0,,-0.1,-0.1,0.96,1.0,0.0,-1.0,0.97,1.13,86.0,4037.0,7.8,3.83,,12.33,1.089,68.2,,35.2,5.0,,,,,,,,,,,,0,0,0,0,0,0,0,0,0,0,0,0,0,0,0,0,,,,,0.0,,,,,,
61,966780,1744863366379,,,,,,,,,,,,,,,,,,,,,,,,,,,,,,,,,,0,0,0,0,0,0,0,0,0,0,0,0,0,0,0,0,,,,,,,,,,,
62,966800,1744863366401,0.0,135.0,,-0.07,0.02,1.02,0.0,0.0,0.0,1.02,1.13,90.0,4084.0,7.9,3.86,,12.33,1.089,68.2,,34.8,5.0,,,,,,,,,,,,0,0,0,0,0,0,0,0,0,0,0,0,0,0,0,0,,,,,0.0,,,,,,
63,966820,1744863366421,,,,,,,,,,,,,,,,,,,,,,,,,,,,,,,,,,0,0,0,0,0,0,0,0,0,0,0,0,0,0,0,0,,,,,,,,,,,
64,966840,1744863366441,0.0,135.0,,-0.08,-0.07,0.95,1.0,0.0,0.0,0.96,1.13,85.0,4084.0,7.9,3.86,,12.45,1.089,68.2,,34.8,5.0,0.0,0.0,0.0,0.0,0.0,0.0,0.0,0.0,2.25,,,0,0,0,0,0,0,0,0,0,0,0,0,0,0,0,0,0.0,,,,0.0,38.985832,-76.950859,0.1,35.0,3.0,0.8
65,966860,1744863366461,,,,,,,,,,,,,,,,,,,,,,,,,,,,,,,,,,0,0,0,0,0,0,0,0,0,0,0,0,0,0,0,0,,,,,,,,,,,
66,966880,1744863366481,0.0,135.0,,-0.04,0.11,1.01,0.0,0.0,0.0,1.01,1.13,90.0,4026.0,8.4,3.85,,12.51,1.098,68.2,,35.0,5.0,,,,,,,,,,,,0,0,0,0,0,0,0,0,0,0,0,0,0,0,0,0,,,,,0.0,,,,,,
67,966900,1744863366501,,,,,,,,,,,,,,,,,,,,,,,,,,,,,,,,,,0,0,0,0,0,0,0,0,0,0,0,0,0,0,0,0,,,,,,,,,,,
68,966920,1744863366521,0.0,135.0,,-0.06,-0.01,0.97,0.0,0.0,0.0,0.97,1.13,85.0,4037.0,9.2,3.9,,12.52,1.099,68.2,,35.0,5.0,,,,,,,,,,,,0,0,0,0,0,0,0,0,0,0,0,0,0,0,0,0,,,,,0.0,,,,,,
69,966940,1744863366541,,,,,,,,,,,,,,,,,,,,,,,0.0,0.0,0.0,0.0,0.0,0.0,0.0,0.0,2.26,,,0,0,0,0,0,0,0,0,0,0,0,0,0,0,0,0,0.0,,,,,38.985832,-76.950859,0.08,35.0,3.0,0.8
70,966960,1744863366561,0.0,135.0,,-0.03,0.08,1.0,1.0,0.0,0.0,1.0,1.13,89.0,4138.0,11.0,3.99,,12.63,1.094,68.2,,35.0,5.0,,,,,,,,,,,,0,0,0,0,0,0,0,0,0,0,0,0,0,0,0,0,,,,,0.0,,,,,,
71,966980,1744863366581,,,,,,,,,,,,,,,,,,,,,,,,,,,,,,,,,,0,0,0,0,0,0,0,0,0,0,0,0,0,0,0,0,,,,,,,,,,,
72,967000,1744863366601,0.0,135.0,,-0.06,-0.02,0.98,0.0,0.0,0.0,0.98,1.13,87.0,4178.0,13.4,4.06,,12.63,1.094,68.2,,35.2,5.0,,,,,,,,,,,,0,0,0,0,0,0,0,0,0,0,0,0,0,0,0,0,,,,,0.0,,,,,,
73,967020,1744863366621,,,,,,,,,,,,,,,,,,,,,,,,,,,,,,,,,,0,0,0,0,0,0,0,0,0,0,0,0,0,0,0,0,,,,,,,,,,,
74,967040,1744863366641,0.0,135.0,,-0.05,0.12,1.05,0.0,0.0,1.0,1.06,1.13,94.0,4178.0,13.4,4.06,,12.92,1.086,68.2,,35.2,5.0,0.0,0.0,0.0,0.0,0.0,0.0,0.0,0.0,2.25,,,0,0,0,0,0,0,0,0,0,0,0,0,0,0,0,0,0.0,,,,0.0,38.985832,-76.950859,0.11,35.0,3.0,0.8
75,967060,1744863366661,,,,,,,,,,,,,,,,,,,,,,,,,,,,,,,,,,0,0,0,0,0,0,0,0,0,0,0,0,0,0,0,0,,,,,,,,,,,
76,967080,1744863366681,0.0,135.0,,-0.07,-0.06,0.95,1.0,0.0,0.0,0.96,1.13,85.0,4173.0,14.7,4.09,,13.09,1.104,68.2,,36.2,5.0,,,,,,,,,,,,0,0,0,0,0,0,0,0,0,0,0,0,0,0,0,0,,,,,0.0,,,,,,
77,967100,1744863366701,,,,,,,,,,,,,,,,,,,,,,,,,,,,,,,,,,0,0,0,0,0,0,0,0,0,0,0,0,0,0,0,0,,,,,,,,,,,
78,967120,1744863366721,0.0,135.0,,-0.08,-0.08,0.94,0.0,0.0,0.0,0.95,1.13,84.0,4287.0,15.5,4.13,,13.25,1.115,68.2,,36.2,5.0,,,,,,,,,,,,0,0,0,0,0,0,0,0,0,0,0,0,0,0,0,0,,,,,0.0,,,,,,
79,967140,1744863366741,,,,,,,,,,,,,,,,,,,,,,,0.0,0.0,0.0,0.0,0.0,0.0,0.0,0.0,2.25,,,0,0,0,0,0,0,0,0,0,0,0,0,0,0,0,0,0.0,,,,,38.985832,-76.950859,0.04,35.0,3.0,0.8
80,967160,1744863366761,0.0,135.0,,-0.1,-0.01,0.98,-2.0,0.0,1.0,0.98,1.13,87.0,4444.0,16.0,4.15,,13.37,1.131,68.2,,36.2,5.0,,,,,,,,,,,,0,0,0,0,0,0,0,0,0,0,0,0,0,0,0,0,,,,,0.0,,,,,,
81,967180,1744863366781,,,,,,,,,,,,,,,,,,,,,,,,,,,,,,,,,,0,0,0,0,0,0,0,0,0,0,0,0,0,0,0,0,,,,,,,,,,,
82,967200,1744863366801,0.0,135.0,,-0.13,0.09,1.02,-3.0,0.0,2.0,1.03,1.13,91.0,4507.0,17.3,4.21,,13.37,1.131,68.2,,38.5,5.0,,,,,,,,,,,,0,0,0,0,0,0,0,0,0,0,0,0,0,0,0,0,,,,,0.0,,,,,,
83,967220,1744863366821,,,,,,,,,,,,,,,,,,,,,,,,,,,,,,,,,,0,0,0,0,0,0,0,0,0,0,0,0,0,0,0,0,,,,,,,,,,,
84,967240,1744863366841,0.0,135.0,13.87,-0.16,0.14,1.04,-4.0,0.0,2.0,1.06,1.13,93.0,4507.0,17.3,4.21,15.0,13.39,1.148,68.2,178.0,38.5,5.0,0.0,0.0,0.0,0.0,0.0,0.0,0.0,0.0,2.26,0.0,0.0,0,0,0,0,0,0,0,0,0,0,0,0,0,0,0,0,0.0,0.0,0.0,0.0,0.0,38.985832,-76.950859,0.05,35.0,3.0,0.8
85,967260,1744863366861,,,,,,,,,,,,,,,,,,,,,,,,,,,,,,,,,,0,0,0,0,0,0,0,0,0,0,0,0,0,0,0,0,,,,,,,,,,,
86,967280,1744863366881,0.0,135.0,,-0.17,0.13,1.01,-4.0,0.0,2.0,1.03,1.13,91.0,4583.0,18.5,4.26,,13.44,1.142,68.2,,40.2,5.0,,,,,,,,,,,,0,0,0,0,0,0,0,0,0,0,0,0,0,0,0,0,,,,,0.0,,,,,,
87,967300,1744863366899,,,,,,,,,,,,,,,,,,,,,,,,,,,,,,,,,,0,0,0,0,0,0,0,0,0,0,0,0,0,0,0,0,,,,,,,,,,,
88,967320,1744863366919,0.0,135.0,,-0.18,-0.0,0.93,-4.0,0.0,2.0,0.95,1.13,84.0,4597.0,19.0,4.28,,13.52,1.127,68.2,,40.2,5.0,,,,,,,,,,,,0,0,0,0,0,0,0,0,0,0,0,0,0,0,0,0,,,,,0.0,,,,,,
89,967340,1744863366939,,,,,,,,,,,,,,,,,,,,,,,0.0,0.0,0.0,0.0,0.0,0.0,0.0,0.0,2.25,,,0,0,0,0,0,0,0,0,0,0,0,0,0,0,0,0,0.0,,,,,38.985832,-76.950859,0.08,35.0,3.0,0.8
90,967360,1744863366959,0.0,135.0,,-0.13,-0.12,0.85,-3.0,0.0,2.0,0.87,1.13,77.0,4613.0,19.3,4.32,,13.53,1.131,68.2,,40.2,5.0,,,,,,,,,,,,0,0,0,0,0,0,0,0,0,0,0,0,0,0,0,0,,,,,0.0,,,,,,
91,967380,1744863366979,,,,,,,,,,,,,,,,,,,,,,,,,,,,,,,,,,0,0,0,0,0,0,0,0,0,0,0,0,0,0,0,0,,,,,,,,,,,
92,967400,1744863366993,0.0,135.0,,-0.1,-0.18,0.83,-2.0,0.0,1.0,0.85,1.13,75.0,4599.0,19.5,4.33,,13.53,1.131,68.2,,39.8,5.0,,,,,,,,,,,,0,0,0,0,0,0,0,0,0,0,0,0,0,0,0,0,,,,,0.0,,,,,,
93,967420,1744863367013,,,,,,,,,,,,,,,,,,,,,,,,,,,,,,,,,,0,0,0,0,0,0,0,0,0,0,0,0,0,0,0,0,,,,,,,,,,,
94,967440,1744863367033,0.0,135.0,,-0.09,-0.11,0.93,-1.0,0.0,1.0,0.94,1.13,83.0,4599.0,19.5,4.33,,13.53,1.121,68.2,,39.8,5.0,0.0,0.0,0.0,0.0,0.0,0.0,0.0,0.0,2.25,,,0,0,0,0,0,0,0,0,0,0,0,0,0,0,0,0,0.0,,,,0.0,38.985832,-76.950859,0.05,35.0,3.0,0.8
95,967460,1744863367053,,,,,,,,,,,,,,,,,,,,,,,,,,,,,,,,,,0,0,0,0,0,0,0,0,0,0,0,0,0,0,0,0,,,,,,,,,,,
96,967480,1744863367073,0.0,135.0,,-0.12,-0.04,0.95,-2.0,0.0,1.0,0.96,1.13,85.0,4654.0,19.8,4.34,,13.59,1.119,68.2,,39.8,5.0,,,,,,,,,,,,0,0,0,0,0,0,0,0,0,0,0,0,0,0,0,0,,,,,0.0,,,,,,
97,967500,1744863367096,,,,,,,,,,,,,,,,,,,,,,,,,,,,,,,,,,0,0,0,0,0,0,0,0,0,0,0,0,0,0,0,0,,,,,,,,,,,
98,967520,1744863367116,0.0,135.0,,-0.08,-0.1,0.9,-1.0,0.0,1.0,0.91,1.13,80.0,4724.0,20.0,4.35,,13.51,1.125,68.2,,39.8,5.0,,,,,,,,,,,,0,0,0,0,0,0,0,0,0,0,0,0,0,0,0,0,,,,,0.0,,,,,,
99,967540,1744863367136,,,,,,,,,,,,,,,,,,,,,,,0.0,0.0,0.0,0.0,0.0,0.0,0.0,0.0,2.27,,,0,0,0,0,0,0,0,0,0,0,0,0,0,0,0,0,0.0,,,,,38.985832,-76.950859,0.07,35.0,3.0,0.8
100,967560,1744863367156,0.0,135.0,,-0.1,-0.05,0.99,-1.0,0.0,1.0,0.99,1.13,88.0,4820.0,20.2,4.36,,13.45,1.116,68.2,,39.8,5.0,,,,,,,,,,,,0,0,0,0,0,0,0,0,0,0,0,0,0,0,0,0,,,,,0.0,,,,,,
101,967580,1744863367176,,,,,,,,,,,,,,,,,,,,,,,,,,,,,,,,,,0,0,0,0,0,0,0,0,0,0,0,0,0,0,0,0,,,,,,,,,,,
102,967600,1744863367198,0.0,135.0,,-0.1,-0.1,0.92,-1.0,0.0,1.0,0.93,1.13,82.0,4891.0,20.7,4.38,,13.45,1.116,68.2,,40.0,5.0,,,,,,,,,,,,0,0,0,0,0,0,0,0,0,0,0,0,0,0,0,0,,,,,0.0,,,,,,
103,967620,1744863367218,,,,,,,,,,,,,,,,,,,,,,,,,,,,,,,,,,0,0,0,0,0,0,0,0,0,0,0,0,0,0,0,0,,,,,,,,,,,
104,967640,1744863367238,0.0,135.0,,-0.13,-0.06,0.98,-1.0,0.0,1.0,0.99,1.13,87.0,4891.0,20.7,4.38,,13.51,1.11,68.2,,40.0,5.0,0.0,0.0,0.0,0.0,0.0,0.0,0.0,0.0,2.26,,,0,0,0,0,0,0,0,0,0,0,0,0,0,0,0,0,0.0,,,,0.0,38.985832,-76.950859,0.04,35.0,3.0,0.8
105,967660,1744863367258,,,,,,,,,,,,,,,,,,,,,,,,,,,,,,,,,,0,0,0,0,0,0,0,0,0,0,0,0,0,0,0,0,,,,,,,,,,,
106,967680,1744863367278,0.0,135.0,,-0.09,-0.07,0.99,-1.0,0.0,1.0,1.0,1.13,88.0,5050.0,21.4,4.4,,13.44,1.091,68.2,,40.9,5.0,,,,,,,,,,,,0,0,0,0,0,0,0,0,0,0,0,0,0,0,0,0,,,,,0.0,,,,,,
107,967700,1744863367300,,,,,,,,,,,,,,,,,,,,,,,,,,,,,,,,,,0,0,0,0,0,0,0,0,0,0,0,0,0,0,0,0,,,,,,,,,,,
108,967720,1744863367320,0.0,135.0,,-0.08,-0.09,0.98,-1.0,0.0,1.0,0.99,1.13,88.0,5137.0,22.1,4.41,,13.51,1.096,66.4,,40.9,5.0,,,,,,,,,,,,0,0,0,0,0,0,0,0,0,0,0,0,0,0,0,0,,,,,0.0,,,,,,
109,967740,1744863367340,,,,,,,,,,,,,,,,,,,,,,,0.0,0.0,0.0,0.0,0.0,0.0,0.0,0.0,2.25,,,0,0,0,0,0,0,0,0,0,0,0,0,0,0,0,0,0.0,,,,,38.985832,-76.950859,0.0,35.0,3.0,0.8
110,967760,1744863367360,0.0,135.0,,-0.08,-0.07,0.99,-1.0,0.0,1.0,0.99,1.13,88.0,5263.0,23.8,4.45,,13.43,1.086,66.4,,40.9,5.0,,,,,,,,,,,,0,0,0,0,0,0,0,0,0,0,0,0,0,0,0,0,,,,,0.0,,,,,,
111,967780,1744863367380,,,,,,,,,,,,,,,,,,,,,,,,,,,,,,,,,,0,0,0,0,0,0,0,0,0,0,0,0,0,0,0,0,,,,,,,,,,,
112,967800,1744863367400,0.0,135.0,,-0.09,-0.08,0.99,-1.0,0.0,1.0,1.0,1.13,88.0,5415.0,25.6,4.7,,13.43,1.086,66.4,,41.5,5.0,,,,,,,,,,,,0,0,0,0,0,0,0,0,0,0,0,0,0,0,0,0,,,,,0.0,,,,,,
113,967820,1744863367420,,,,,,,,,,,,,,,,,,,,,,,,,,,,,,,,,,0,0,0,0,0,0,0,0,0,0,0,0,0,0,0,0,,,,,,,,,,,
114,967840,1744863367440,0.0,135.0,,-0.06,-0.08,0.96,0.0,0.0,0.0,0.96,1.13,85.0,5415.0,25.6,4.7,,13.37,1.096,66.4,,41.5,5.0,0.0,0.0,0.0,0.0,0.0,0.0,0.0,0.0,2.26,,,0,0,0,0,0,0,0,0,0,0,0,0,0,0,0,0,0.0,,,,0.0,38.985832,-76.950859,0.05,35.0,3.0,0.8
115,967860,1744863367460,,,,,,,,,,,,,,,,,,,,,,,,,,,,,,,,,,0,0,0,0,0,0,0,0,0,0,0,0,0,0,0,0,,,,,,,,,,,
116,967880,1744863367480,0.0,135.0,,-0.07,-0.2,0.85,2.0,0.0,0.0,0.87,1.13,77.0,5683.0,26.2,4.77,,13.23,1.086,66.4,,43.0,5.0,,,,,,,,,,,,0,0,0,0,0,0,0,0,0,0,0,0,0,0,0,0,,,,,0.0,,,,,,
117,967900,1744863367500,,,,,,,,,,,,,,,,,,,,,,,,,,,,,,,,,,0,0,0,0,0,0,0,0,0,0,0,0,0,0,0,0,,,,,,,,,,,
118,967920,1744863367520,0.0,135.0,,-0.06,-0.19,0.86,3.0,0.0,-1.0,0.88,1.13,78.0,6446.0,26.8,5.19,,13.08,1.165,66.4,,43.0,5.0,,,,,,,,,,,,0,0,0,0,0,0,0,0,0,0,0,0,0,0,0,0,,,,,0.0,,,,,,
119,967940,1744863367540,,,,,,,,,,,,,,,,,,,,,,,0.0,0.0,0.0,0.0,0.0,0.0,0.0,0.0,2.25,,,0,0,0,0,0,0,0,0,0,0,0,0,0,0,0,0,0.0,,,,,38.985832,-76.950859,0.1,35.0,3.0,0.8
120,967960,1744863367560,0.0,135.0,,-0.05,-0.2,0.88,1.0,0.0,0.0,0.9,1.13,80.0,7565.0,27.2,5.67,,12.49,1.074,66.4,,43.0,5.0,,,,,,,,,,,,0,0,0,0,0,0,0,0,0,0,0,0,0,0,0,0,,,,,0.0,,,,,,
121,967980,1744863367580,,,,,,,,,,,,,,,,,,,,,,,,,,,,,,,,,,0,0,0,0,0,0,0,0,0,0,0,0,0,0,0,0,,,,,,,,,,,
122,968000,1744863367600,0.0,135.0,,-0.08,0.09,0.83,-1.0,0.0,1.0,0.83,1.13,74.0,9081.0,29.2,4.98,,12.49,1.074,66.4,,46.7,5.0,,,,,,,,,,,,0,0,0,0,0,0,0,0,0,0,0,0,0,0,0,0,,,,,0.0,,,,,,
123,968020,1744863367620,,,,,,,,,,,,,,,,,,,,,,,,,,,,,,,,,,0,0,0,0,0,0,0,0,0,0,0,0,0,0,0,0,,,,,,,,,,,
124,968040,1744863367640,0.0,135.0,,-0.03,0.1,0.86,-2.0,0.0,1.0,0.87,1.13,77.0,9081.0,29.2,4.98,,12.11,0.964,66.4,,46.7,5.0,0.0,1.0,0.0,0.0,0.0,0.0,0.0,0.0,2.25,,,0,0,0,0,0,0,0,0,0,0,0,0,0,0,0,0,0.0,,,,0.0,38.985832,-76.950859,0.19,35.0,3.0,0.8
125,968060,1744863367660,,,,,,,,,,,,,,,,,,,,,,,,,,,,,,,,,,0,0,0,0,0,0,0,0,0,0,0,0,0,0,0,0,,,,,,,,,,,
126,968080,1744863367680,0.0,135.0,,-0.06,0.14,0.84,-1.0,0.0,-1.0,0.86,1.13,76.0,10595.0,30.1,4.81,,11.53,0.798,66.4,,47.2,5.0,,,,,,,,,,,,0,0,0,0,0,0,0,0,0,0,0,0,0,0,0,0,,,,,0.0,,,,,,
127,968100,1744863367700,,,,,,,,,,,,,,,,,,,,,,,,,,,,,,,,,,0,0,0,0,0,0,0,0,0,0,0,0,0,0,0,0,,,,,,,,,,,
128,968120,1744863367720,0.0,135.0,,-0.1,0.12,0.83,-2.0,0.0,0.0,0.85,1.13,75.0,11826.0,33.1,3.94,,11.2,0.781,66.4,,47.2,5.0,,,,,,,,,,,,0,0,0,0,0,0,0,0,0,0,0,0,0,0,0,0,,,,,0.0,,,,,,
129,968140,1744863367740,,,,,,,,,,,,,,,,,,,,,,,0.0,13.0,0.0,0.0,0.0,24.0,0.0,0.0,2.26,,,0,0,0,0,0,0,0,0,0,0,0,0,0,0,0,0,0.0,,,,,38.985832,-76.950859,0.04,35.0,3.0,0.8
130,968160,1744863367760,0.0,135.0,,-0.08,0.1,0.85,-1.0,0.0,0.0,0.86,1.13,76.0,12942.0,36.1,3.71,,11.25,0.77,66.4,,47.2,5.0,,,,,,,,,,,,0,0,0,0,0,0,0,0,0,0,0,0,0,0,0,0,,,,,0.0,,,,,,
131,968180,1744863367780,,,,,,,,,,,,,,,,,,,,,,,,,,,,,,,,,,0,0,0,0,0,0,0,0,0,0,0,0,0,0,0,0,,,,,,,,,,,
132,968200,1744863367800,0.0,135.0,,-0.08,0.02,0.94,1.0,0.0,0.0,0.95,1.13,84.0,13871.0,40.4,3.76,,11.25,0.77,66.4,,51.2,5.0,,,,,,,,,,,,0,0,0,0,0,0,0,0,0,0,0,0,0,0,0,0,,,,,0.0,,,,,,
133,968220,1744863367820,,,,,,,,,,,,,,,,,,,,,,,,,,,,,,,,,,0,0,0,0,0,0,0,0,0,0,0,0,0,0,0,0,,,,,,,,,,,
134,968240,1744863367840,0.0,135.0,13.74,0.01,0.05,0.91,2.0,1.0,0.0,0.91,1.13,80.0,13871.0,40.4,3.76,15.0,11.4,0.794,66.4,178.0,51.2,5.0,0.0,3.0,0.0,0.0,0.0,0.0,0.0,0.0,2.25,0.0,0.0,0,0,0,0,0,0,0,0,0,0,0,0,0,0,0,0,0.0,0.0,0.0,0.0,0.0,38.985832,-76.950859,0.05,35.0,3.0,0.8
135,968260,1744863367860,,,,,,,,,,,,,,,,,,,,,,,,,,,,,,,,,,0,0,0,0,0,0,0,0,0,0,0,0,0,0,0,0,,,,,,,,,,,
136,968280,1744863367880,0.0,135.0,,0.12,0.04,0.85,1.0,2.0,1.0,0.86,1.13,76.0,12769.0,46.7,4.11,,11.83,0.847,66.4,,48.5,5.0,,,,,,,,,,,,0,0,0,0,0,0,0,0,0,0,0,0,0,0,0,0,,,,,0.0,,,,,,
137,968300,1744863367900,,,,,,,,,,,,,,,,,,,,,,,,,,,,,,,,,,0,0,0,0,0,0,0,0,0,0,0,0,0,0,0,0,,,,,,,,,,,
138,968320,1744863367920,0.0,135.0,,0.13,-0.09,0.86,1.0,2.0,0.0,0.88,1.13,77.0,11876.0,46.5,4.26,,12.33,1.224,66.4,,48.5,5.0,,,,,,,,,,,,0,0,0,0,0,0,0,0,0,0,0,0,0,0,0,0,,,,,0.0,,,,,,
139,968340,1744863367940,,,,,,,,,,,,,,,,,,,,,,,0.0,1.0,0.0,0.0,0.0,0.0,0.0,0.0,2.25,,,0,0,0,0,0,0,0,0,0,0,0,0,0,0,0,0,0.0,,,,,38.985832,-76.950859,0.24,35.0,3.0,0.8
140,968360,1744863367960,0.0,135.0,,0.13,-0.03,0.88,1.0,2.0,0.0,0.89,1.13,78.0,10069.0,46.8,4.86,,12.75,1.122,66.4,,48.5,5.0,,,,,,,,,,,,0,0,0,0,0,0,0,0,0,0,0,0,0,0,0,0,,,,,0.0,,,,,,
141,968380,1744863367980,,,,,,,,,,,,,,,,,,,,,,,,,,,,,,,,,,0,0,0,0,0,0,0,0,0,0,0,0,0,0,0,0,,,,,,,,,,,
142,968400,1744863367992,0.0,135.0,,0.17,-0.09,0.88,1.0,1.0,0.0,0.9,1.13,79.0,10321.0,48.0,4.91,,12.75,1.122,66.4,,47.7,5.0,,,,,,,,,,,,0,0,0,0,0,0,0,0,0,0,0,0,0,0,0,0,,,,,0.0,,,,,,
143,968420,1744863368012,,,,,,,,,,,,,,,,,,,,,,,,,,,,,,,,,,0,0,0,0,0,0,0,0,0,0,0,0,0,0,0,0,,,,,,,,,,,
144,968440,1744863368032,0.0,135.0,,0.19,-0.1,0.92,2.0,0.0,-1.0,0.94,1.13,83.0,10321.0,48.0,4.91,,12.87,1.08,66.4,,47.7,5.0,3.0,2.0,30.0,29.0,0.0,0.0,0.0,0.0,2.25,,,0,0,0,0,0,0,0,0,0,0,0,0,0,0,0,0,0.0,,,,0.0,38.985832,-76.950859,2.75,35.0,3.0,0.8
145,968460,1744863368052,,,,,,,,,,,,,,,,,,,,,,,,,,,,,,,,,,0,0,0,0,0,0,0,0,0,0,0,0,0,0,0,0,,,,,,,,,,,
146,968480,1744863368072,0.0,135.0,,0.26,-0.15,0.89,4.0,1.0,-1.0,0.94,1.13,83.0,11007.0,55.4,4.27,,13.15,1.074,66.4,,48.4,5.0,,,,,,,,,,,,0,0,0,0,0,0,0,0,0,0,0,0,0,0,0,0,,,,,0.0,,,,,,
147,968500,1744863368099,,,,,,,,,,,,,,,,,,,,,,,,,,,,,,,,,,0,0,0,0,0,0,0,0,0,0,0,0,0,0,0,0,,,,,,,,,,,
148,968520,1744863368119,0.0,135.0,,0.3,-0.18,0.87,3.0,1.0,-1.0,0.94,1.13,83.0,11135.0,60.7,4.48,,13.44,1.009,66.4,,48.4,5.0,,,,,,,,,,,,0,0,0,0,0,0,0,0,0,0,0,0,0,0,0,0,,,,,0.0,,,,,,
149,968540,1744863368139,,,,,,,,,,,,,,,,,,,,,,,4.0,4.0,30.0,29.0,0.0,0.0,0.0,0.0,2.26,,,0,0,0,0,0,0,0,0,0,0,0,0,0,0,0,0,0.0,,,,,38.985832,-76.950859,6.71,35.0,3.0,0.8
150,968560,1744863368159,0.0,135.0,,0.36,-0.05,0.92,4.0,1.0,0.0,0.99,1.13,88.0,10885.0,60.6,4.7,,13.43,1.069,66.4,,48.4,5.0,,,,,,,,,,,,0,0,0,0,0,0,0,0,0,0,0,0,0,0,0,0,,,,,0.0,,,,,,
151,968580,1744863368179,,,,,,,,,,,,,,,,,,,,,,,,,,,,,,,,,,0,0,0,0,0,0,0,0,0,0,0,0,0,0,0,0,,,,,,,,,,,
152,968600,1744863368197,0.0,135.0,,0.38,-0.12,0.91,4.0,0.0,-1.0,0.99,1.13,88.0,11056.0,61.5,4.63,,13.43,1.069,66.4,,48.2,5.0,,,,,,,,,,,,0,0,0,0,0,0,0,0,0,0,0,0,0,0,0,0,,,,,0.0,,,,,,
153,968620,1744863368217,,,,,,,,,,,,,,,,,,,,,,,,,,,,,,,,,,0,0,0,0,0,0,0,0,0,0,0,0,0,0,0,0,,,,,,,,,,,
154,968640,1744863368237,0.0,135.0,,0.43,-0.2,0.93,5.0,0.0,-1.0,1.04,1.13,92.0,11056.0,61.5,4.63,,13.43,1.086,66.4,,48.2,5.0,6.0,5.0,32.0,33.0,0.0,0.0,0.0,0.0,2.26,,,0,0,0,0,0,0,0,0,0,0,0,0,0,0,0,0,0.0,,,,0.0,38.985832,-76.950859,8.76,35.0,3.0,0.8
155,968660,1744863368257,,,,,,,,,,,,,,,,,,,,,,,,,,,,,,,,,,0,0,0,0,0,0,0,0,0,0,0,0,0,0,0,0,,,,,,,,,,,
156,968680,1744863368277,0.0,135.0,,0.5,0.01,0.95,4.0,0.0,0.0,1.07,1.13,95.0,11235.0,62.3,4.64,,13.41,1.07,66.4,,48.3,5.0,,,,,,,,,,,,0,0,0,0,0,0,0,0,0,0,0,0,0,0,0,0,,,,,0.0,,,,,,
157,968700,1744863368299,,,,,,,,,,,,,,,,,,,,,,,,,,,,,,,,,,0,0,0,0,0,0,0,0,0,0,0,0,0,0,0,0,,,,,,,,,,,
158,968720,1744863368319,0.0,135.0,,0.56,-0.02,0.95,5.0,0.0,1.0,1.11,1.13,98.0,11403.0,61.9,4.48,,13.47,1.046,66.4,,48.3,5.0,,,,,,,,,,,,0,0,0,0,0,0,0,0,0,0,0,0,0,0,0,0,,,,,0.0,,,,,,
159,968740,1744863368339,,,,,,,,,,,,,,,,,,,,,,,7.0,16.0,34.0,34.0,0.0,225.0,0.0,0.0,2.25,,,0,0,0,0,0,0,0,0,0,0,0,0,0,0,0,0,1.0,,,,,38.985828,-76.950859,11.91,35.0,3.0,0.8
160,968760,1744863368359,0.0,135.0,,0.55,-0.17,0.95,6.0,0.0,0.0,1.11,1.13,98.0,11372.0,61.8,4.49,,13.28,1.037,66.4,,48.3,5.0,,,,,,,,,,,,0,0,0,0,0,0,0,0,0,0,0,0,0,0,0,0,,,,,0.0,,,,,,
161,968780,1744863368379,,,,,,,,,,,,,,,,,,,,,,,,,,,,,,,,,,0,0,0,0,0,0,0,0,0,0,0,0,0,0,0,0,,,,,,,,,,,
162,968800,1744863368399,0.0,135.0,,0.59,-0.14,0.94,7.0,0.0,0.0,1.12,1.13,99.0,11337.0,57.4,4.26,,13.28,1.037,66.4,,48.9,5.0,,,,,,,,,,,,0,0,0,0,0,0,0,0,0,0,0,0,0,0,0,0,,,,,0.0,,,,,,
163,968820,1744863368419,,,,,,,,,,,,,,,,,,,,,,,,,,,,,,,,,,0,0,0,0,0,0,0,0,0,0,0,0,0,0,0,0,,,,,,,,,,,
164,968840,1744863368439,0.0,135.0,,0.58,-0.14,0.96,6.0,0.0,0.0,1.13,1.13,100.0,11337.0,57.4,4.26,,13.29,1.048,66.4,,48.9,5.0,9.0,60.0,35.0,36.0,0.0,23.0,0.0,0.0,2.26,,,0,0,0,0,0,0,0,0,0,0,0,0,0,0,0,0,1.0,,,,0.0,38.985825,-76.950859,14.4,35.0,3.0,0.8
165,968860,1744863368459,,,,,,,,,,,,,,,,,,,,,,,,,,,,,,,,,,0,0,0,0,0,0,0,0,0,0,0,0,0,0,0,0,,,,,,,,,,,
166,968880,1744863368479,0.0,135.0,,0.6,-0.21,1.0,6.0,0.0,1.0,1.19,1.19,100.0,11157.0,51.7,4.1,,12.97,1.061,66.4,,48.3,5.0,,,,,,,,,,,,0,0,0,0,0,0,0,0,0,0,0,0,0,0,0,0,,,,,0.0,,,,,,
167,968900,1744863368499,,,,,,,,,,,,,,,,,,,,,,,,,,,,,,,,,,0,0,0,0,0,0,0,0,0,0,0,0,0,0,0,0,,,,,,,,,,,
168,968920,1744863368519,0.0,135.0,,0.61,-0.19,0.95,4.0,0.0,1.0,1.15,1.19,97.0,10869.0,49.2,4.19,,12.79,1.069,66.4,,48.3,5.0,,,,,,,,,,,,0,0,0,0,0,0,0,0,0,0,0,0,0,0,0,0,,,,,0.0,,,,,,
169,968940,1744863368539,,,,,,,,,,,,,,,,,,,,,,,11.0,57.0,35.0,35.0,0.0,13.0,0.0,0.0,2.25,,,0,0,0,0,0,0,0,0,0,0,0,0,0,0,0,0,0.0,,,,,38.985821,-76.950867,17.67,35.0,3.0,0.8
170,968960,1744863368559,0.0,135.0,,0.64,-0.29,0.97,3.0,0.0,1.0,1.2,1.2,100.0,10755.0,37.3,4.61,,12.25,1.102,66.4,,48.3,5.0,,,,,,,,,,,,0,0,0,0,0,0,0,0,0,0,0,0,0,0,0,0,,,,,0.0,,,,,,
171,968980,1744863368579,,,,,,,,,,,,,,,,,,,,,,,,,,,,,,,,,,0,0,0,0,0,0,0,0,0,0,0,0,0,0,0,0,,,,,,,,,,,
172,969000,1744863368599,0.0,135.0,,0.67,-0.26,0.97,1.0,0.0,1.0,1.2,1.2,100.0,10630.0,35.7,4.5,,12.25,1.102,66.4,,47.7,5.0,,,,,,,,,,,,0,0,0,0,0,0,0,0,0,0,0,0,0,0,0,0,,,,,0.0,,,,,,
173,969020,1744863368619,,,,,,,,,,,,,,,,,,,,,,,,,,,,,,,,,,0,0,0,0,0,0,0,0,0,0,0,0,0,0,0,0,,,,,,,,,,,
174,969040,1744863368639,0.0,135.0,,0.69,0.06,0.95,-1.0,0.0,1.0,1.18,1.2,98.0,10630.0,35.7,4.5,,11.73,1.075,66.4,,47.7,5.0,13.0,13.0,31.0,32.0,0.0,250.0,0.0,0.0,2.25,,,0,0,0,0,0,0,0,0,0,0,0,0,0,0,0,0,0.0,,,,0.0,38.985817,-76.950867,21.11,35.0,3.0,0.8
175,969060,1744863368659,,,,,,,,,,,,,,,,,,,,,,,,,,,,,,,,,,0,0,0,0,0,0,0,0,0,0,0,0,0,0,0,0,,,,,,,,,,,
176,969080,1744863368679,0.0,135.0,,0.75,0.29,0.96,-4.0,0.0,2.0,1.26,1.26,100.0,10523.0,35.3,4.67,,11.87,0.984,66.4,,47.1,5.0,,,,,,,,,,,,0,0,0,0,0,0,0,0,0,0,0,0,0,0,0,0,,,,,0.0,,,,,,
177,969100,1744863368699,,,,,,,,,,,,,,,,,,,,,,,,,,,,,,,,,,0,0,0,0,0,0,0,0,0,0,0,0,0,0,0,0,,,,,,,,,,,
178,969120,1744863368719,0.0,135.0,,0.75,0.32,1.0,-5.0,0.0,2.0,1.29,1.29,100.0,10455.0,35.4,4.74,,11.73,0.939,66.4,,47.1,5.0,,,,,,,,,,,,0,0,0,0,0,0,0,0,0,0,0,0,0,0,0,0,,,,,0.0,,,,,,
179,969140,1744863368739,,,,,,,,,,,,,,,,,,,,,,,15.0,113.0,31.0,30.0,0.0,56.0,0.0,0.0,2.25,,,0,0,0,0,0,0,0,0,0,0,0,0,0,0,0,0,1.0,,,,,38.985813,-76.950874,23.43,35.0,3.0,0.8
180,969160,1744863368759,0.0,135.0,,0.76,0.41,0.99,-6.0,0.0,2.0,1.31,1.31,100.0,10428.0,35.3,4.74,,11.75,0.905,66.4,,47.1,5.0,,,,,,,,,,,,0,0,0,0,0,0,0,0,0,0,0,0,0,0,0,0,,,,,0.0,,,,,,
181,969180,1744863368779,,,,,,,,,,,,,,,,,,,,,,,,,,,,,,,,,,0,0,0,0,0,0,0,0,0,0,0,0,0,0,0,0,,,,,,,,,,,
182,969200,1744863368799,0.0,135.0,,0.78,0.39,0.99,-7.0,0.0,1.0,1.32,1.32,100.0,10363.0,35.4,4.85,,11.75,0.905,66.4,,46.5,5.0,,,,,,,,,,,,0,0,0,0,0,0,0,0,0,0,0,0,0,0,0,0,,,,,0.0,,,,,,
183,969220,1744863368819,,,,,,,,,,,,,,,,,,,,,,,,,,,,,,,,,,0,0,0,0,0,0,0,0,0,0,0,0,0,0,0,0,,,,,,,,,,,
184,969240,1744863368839,0.0,135.0,13.78,0.77,0.09,1.0,-6.0,0.0,1.0,1.26,1.32,96.0,10363.0,35.4,4.85,15.0,11.76,0.882,66.4,178.0,46.5,5.0,17.0,19.0,31.0,30.0,0.0,20.0,0.0,0.0,2.25,0.0,0.0,0,0,0,0,0,0,0,0,0,0,0,0,0,0,0,0,1.0,0.0,0.0,0.0,0.0,38.985809,-76.950882,26.94,35.0,3.0,0.8
185,969260,1744863368859,,,,,,,,,,,,,,,,,,,,,,,,,,,,,,,,,,0,0,0,0,0,0,0,0,0,0,0,0,0,0,0,0,,,,,,,,,,,
186,969280,1744863368879,0.0,135.0,,0.78,-0.01,1.06,-7.0,0.0,0.0,1.32,1.32,100.0,10252.0,28.1,4.97,,11.44,0.868,66.4,,46.0,5.0,,,,,,,,,,,,0,0,0,0,0,0,0,0,0,0,0,0,0,0,0,0,,,,,0.0,,,,,,
187,969300,1744863368899,,,,,,,,,,,,,,,,,,,,,,,,,,,,,,,,,,0,0,0,0,0,0,0,0,0,0,0,0,0,0,0,0,,,,,,,,,,,
188,969320,1744863368919,0.0,135.0,,0.78,0.11,1.04,-8.0,0.0,0.0,1.31,1.32,99.0,10096.0,16.1,3.7,,10.08,0.851,66.4,,46.0,5.0,,,,,,,,,,,,0,0,0,0,0,0,0,0,0,0,0,0,0,0,0,0,,,,,0.0,,,,,,
189,969340,1744863368939,,,,,,,,,,,,,,,,,,,,,,,19.0,19.0,31.0,32.0,0.0,82.0,0.0,0.0,2.26,,,0,0,0,0,0,0,0,0,0,0,0,0,0,0,0,0,0.0,,,,,38.985806,-76.95089,29.94,35.0,3.0,0.8
190,969360,1744863368959,0.0,135.0,,0.82,0.11,1.06,-9.0,0.0,0.0,1.34,1.34,100.0,9729.0,5.2,2.66,,8.65,0.79,66.4,,46.0,5.0,,,,,,,,,,,,0,0,0,0,0,0,0,0,0,0,0,0,0,0,0,0,,,,,0.0,,,,,,
191,969380,1744863368979,,,,,,,,,,,,,,,,,,,,,,,,,,,,,,,,,,0,0,0,0,0,0,0,0,0,0,0,0,0,0,0,0,,,,,,,,,,,
192,969400,1744863368991,0.0,135.0,,0.86,0.1,1.0,-9.0,0.0,0.0,1.32,1.34,98.0,8851.0,0.0,1.4,,8.65,0.79,66.4,,44.7,5.0,,,,,,,,,,,,0,0,0,0,0,0,0,0,0,0,0,0,0,0,0,0,,,,,0.0,,,,,,
193,969420,1744863369011,,,,,,,,,,,,,,,,,,,,,,,,,,,,,,,,,,0,0,0,0,0,0,0,0,0,0,0,0,0,0,0,0,,,,,,,,,,,
194,969440,1744863369031,0.0,135.0,,0.85,0.04,0.98,-8.0,0.0,-1.0,1.3,1.34,97.0,8851.0,0.0,1.4,,7.33,0.763,66.4,,44.7,5.0,22.0,11.0,30.0,26.0,0.0,196.0,0.0,0.0,2.26,,,0,0,0,0,0,0,0,0,0,0,0,0,0,0,0,0,0.0,,,,0.0,38.985798,-76.950897,33.7,35.0,3.0,0.8
195,969460,1744863369051,,,,,,,,,,,,,,,,,,,,,,,,,,,,,,,,,,0,0,0,0,0,0,0,0,0,0,0,0,0,0,0,0,,,,,,,,,,,
196,969480,1744863369071,0.0,135.0,,0.75,0.25,1.03,-8.0,0.0,0.0,1.31,1.34,97.0,7827.0,0.0,1.4,,6.86,0.787,66.4,,42.4,5.0,,,,,,,,,,,,0,0,0,0,0,0,0,0,0,0,0,0,0,0,0,0,,,,,0.0,,,,,,
197,969500,1744863369097,,,,,,,,,,,,,,,,,,,,,,,,,,,,,,,,,,0,0,0,0,0,0,0,0,0,0,0,0,0,0,0,0,,,,,,,,,,,
198,969520,1744863369117,0.0,135.0,,0.63,0.15,1.01,-4.0,-1.0,-1.0,1.2,1.34,89.0,7139.0,0.0,1.4,,6.55,0.857,66.4,,42.4,5.0,,,,,,,,,,,,0,0,0,0,0,0,0,0,0,0,0,0,0,0,0,0,,,,,0.0,,,,,,
199,969540,1744863369137,,,,,,,,,,,,,,,,,,,,,,,23.0,25.0,23.0,23.0,0.0,17.0,0.0,0.0,2.25,,,0,0,0,0,0,0,0,0,0,0,0,0,0,0,0,0,0.0,,,,,38.985794,-76.950897,36.89,35.0,3.0,0.8
200,969560,1744863369157,0.0,135.0,,0.58,0.3,1.01,-3.0,-1.0,-1.0,1.2,1.34,90.0,6975.0,0.0,1.4,,6.6,0.913,66.4,,42.4,5.0,,,,,,,,,,,,0,0,0,0,0,0,0,0,0,0,0,0,0,0,0,0,,,,,0.0,,,,,,
201,969580,1744863369177,,,,,,,,,,,,,,,,,,,,,,,,,,,,,,,,,,0,0,0,0,0,0,0,0,0,0,0,0,0,0,0,0,,,,,,,,,,,
202,969600,1744863369196,0.0,135.0,,0.45,0.33,0.99,-4.0,-1.0,-1.0,1.14,1.34,85.0,6889.0,0.0,1.4,,6.6,0.913,66.4,,45.0,5.0,,,,,,,,,,,,0,0,0,0,0,0,0,0,0,0,0,0,0,0,0,0,,,,,0.0,,,,,,
203,969620,1744863369216,,,,,,,,,,,,,,,,,,,,,,,,,,,,,,,,,,0,0,0,0,0,0,0,0,0,0,0,0,0,0,0,0,,,,,,,,,,,
204,969640,1744863369236,0.0,135.0,,0.3,0.07,0.98,0.0,-2.0,-2.0,1.02,1.34,76.0,6889.0,0.0,1.4,,6.79,0.96,66.4,,45.0,5.0,24.0,3.0,22.0,22.0,0.0,233.0,0.0,0.0,2.25,,,0,0,0,0,0,0,0,0,0,0,0,0,0,0,0,0,0.0,,,,0.0,38.985786,-76.950905,38.35,35.0,3.0,0.8
205,969660,1744863369256,,,,,,,,,,,,,,,,,,,,,,,,,,,,,,,,,,0,0,0,0,0,0,0,0,0,0,0,0,0,0,0,0,,,,,,,,,,,
206,969680,1744863369276,0.0,135.0,,0.27,0.09,0.98,-1.0,-1.0,-1.0,1.02,1.34,76.0,7398.0,11.3,2.52,,7.61,0.994,66.4,,47.3,5.0,,,,,,,,,,,,0,0,0,0,0,0,0,0,0,0,0,0,0,0,0,0,,,,,0.0,,,,,,
207,969700,1744863369300,,,,,,,,,,,,,,,,,,,,,,,,,,,,,,,,,,0,0,0,0,0,0,0,0,0,0,0,0,0,0,0,0,,,,,,,,,,,
208,969720,1744863369320,0.0,135.0,,0.17,0.08,0.98,0.0,-1.0,-1.0,0.99,1.34,74.0,7761.0,13.8,2.75,,8.42,1.031,64.6,,47.3,5.0,,,,,,,,,,,,0,0,0,0,0,0,0,0,0,0,0,0,0,0,0,0,,,,,0.0,,,,,,
209,969740,1744863369340,,,,,,,,,,,,,,,,,,,,,,,22.0,20.0,22.0,23.0,0.0,3.0,0.0,0.0,2.26,,,0,0,0,0,0,0,0,0,0,0,0,0,0,0,0,0,1.0,,,,,38.985779,-76.950912,35.53,35.0,3.0,0.8
210,969760,1744863369360,0.0,135.0,,0.09,-0.01,1.0,1.0,-1.0,-1.0,1.0,1.34,75.0,8054.0,14.1,2.82,,8.89,1.045,64.6,,47.3,5.0,,,,,,,,,,,,0,0,0,0,0,0,0,0,0,0,0,0,0,0,0,0,,,,,0.0,,,,,,
211,969780,1744863369380,,,,,,,,,,,,,,,,,,,,,,,,,,,,,,,,,,0,0,0,0,0,0,0,0,0,0,0,0,0,0,0,0,,,,,,,,,,,
212,969800,1744863369398,0.0,135.0,,0.15,-0.09,0.97,-1.0,0.0,-1.0,0.98,1.34,73.0,8267.0,14.5,2.89,,8.89,1.045,64.6,,47.1,5.0,,,,,,,,,,,,0,0,0,0,0,0,0,0,0,0,0,0,0,0,0,0,,,,,0.0,,,,,,
213,969820,1744863369418,,,,,,,,,,,,,,,,,,,,,,,,,,,,,,,,,,0,0,0,0,0,0,0,0,0,0,0,0,0,0,0,0,,,,,,,,,,,
214,969840,1744863369438,0.0,135.0,,0.2,-0.06,0.96,-5.0,1.0,0.0,0.98,1.34,73.0,8267.0,14.5,2.89,,9.19,1.025,64.6,,47.1,5.0,22.0,10.0,24.0,24.0,0.0,33.0,0.0,0.0,2.26,,,0,0,0,0,0,0,0,0,0,0,0,0,0,0,0,0,1.0,,,,0.0,38.985775,-76.950928,35.13,35.0,3.0,0.8
215,969860,1744863369458,,,,,,,,,,,,,,,,,,,,,,,,,,,,,,,,,,0,0,0,0,0,0,0,0,0,0,0,0,0,0,0,0,,,,,,,,,,,
216,969880,1744863369478,0.0,135.0,,0.18,-0.11,0.97,-11.0,1.0,1.0,1.0,1.34,74.0,7649.0,13.8,2.96,,9.23,1.004,64.6,,42.7,5.0,,,,,,,,,,,,0,0,0,0,0,0,0,0,0,0,0,0,0,0,0,0,,,,,0.0,,,,,,
217,969900,1744863369500,,,,,,,,,,,,,,,,,,,,,,,,,,,,,,,,,,0,0,0,0,0,0,0,0,0,0,0,0,0,0,0,0,,,,,,,,,,,
218,969920,1744863369520,0.0,135.0,,0.13,0.12,0.99,-14.0,0.0,2.0,1.0,1.34,75.0,7346.0,6.1,2.67,,8.81,1.005,64.6,,42.7,5.0,,,,,,,,,,,,0,0,0,0,0,0,0,0,0,0,0,0,0,0,0,0,,,,,0.0,,,,,,
219,969940,1744863369540,,,,,,,,,,,,,,,,,,,,,,,23.0,25.0,23.0,23.0,0.0,231.0,0.0,0.0,2.25,,,0,0,0,0,0,0,0,0,0,0,0,0,0,0,0,0,0.0,,,,,38.985767,-76.950935,35.48,35.0,3.0,0.8
220,969960,1744863369560,0.0,135.0,,0.11,0.14,0.98,-19.0,0.0,3.0,1.0,1.0,100.0,7611.0,5.0,2.41,,8.3,1.026,64.6,,42.7,5.0,,,,,,,,,,,,0,0,0,0,0,0,0,0,0,0,0,0,0,0,0,0,,,,,0.0,,,,,,
221,969980,1744863369580,,,,,,,,,,,,,,,,,,,,,,,,,,,,,,,,,,0,0,0,0,0,0,0,0,0,0,0,0,0,0,0,0,,,,,,,,,,,
222,970000,1744863369600,0.0,135.0,,0.07,-0.12,0.99,-21.0,0.0,3.0,1.0,1.0,100.0,7816.0,4.7,2.2,,8.3,1.026,64.6,,45.2,5.0,,,,,,,,,,,,0,0,0,0,0,0,0,0,0,0,0,0,0,0,0,0,,,,,0.0,,,,,,
223,970020,1744863369620,,,,,,,,,,,,,,,,,,,,,,,,,,,,,,,,,,0,0,0,0,0,0,0,0,0,0,0,0,0,0,0,0,,,,,,,,,,,
224,970040,1744863369640,0.0,135.0,,0.03,-0.09,0.95,-24.0,-1.0,2.0,0.96,1.0,96.0,7816.0,4.7,2.2,,8.02,1.019,64.6,,45.2,5.0,22.0,25.0,23.0,23.0,0.0,223.0,0.0,0.0,2.25,,,0,0,0,0,0,0,0,0,0,0,0,0,0,0,0,0,0.0,,,,0.0,38.98576,-76.950935,36.99,35.0,3.0,0.8
225,970060,1744863369660,,,,,,,,,,,,,,,,,,,,,,,,,,,,,,,,,,0,0,0,0,0,0,0,0,0,0,0,0,0,0,0,0,,,,,,,,,,,
226,970080,1744863369680,0.0,135.0,,-0.0,-0.2,0.96,-27.0,-1.0,3.0,0.98,1.0,98.0,7890.0,4.9,2.22,,7.82,1.026,64.6,,45.5,5.0,,,,,,,,,,,,0,0,0,0,0,0,0,0,0,0,0,0,0,0,0,0,,,,,0.0,,,,,,
227,970100,1744863369700,,,,,,,,,,,,,,,,,,,,,,,,,,,,,,,,,,0,0,0,0,0,0,0,0,0,0,0,0,0,0,0,0,,,,,,,,,,,
228,970120,1744863369720,0.0,135.0,,-0.04,-0.22,0.99,-27.0,0.0,2.0,1.01,1.01,100.0,7801.0,4.9,2.15,,7.63,1.034,64.6,,45.5,5.0,,,,,,,,,,,,0,0,0,0,0,0,0,0,0,0,0,0,0,0,0,0,,,,,0.0,,,,,,
229,970140,1744863369740,,,,,,,,,,,,,,,,,,,,,,,22.0,25.0,23.0,25.0,0.0,30.0,0.0,0.0,2.25,,,0,0,0,0,0,0,0,0,0,0,0,0,0,0,0,0,0.0,,,,,38.985756,-76.950951,36.31,35.0,3.0,0.8
230,970160,1744863369760,0.0,135.0,,-0.05,-0.18,0.98,-30.0,0.0,2.0,1.0,1.01,99.0,7629.0,7.8,2.27,,7.85,1.046,64.6,,45.5,5.0,,,,,,,,,,,,0,0,0,0,0,0,0,0,0,0,0,0,0,0,0,0,,,,,0.0,,,,,,
231,970180,1744863369780,,,,,,,,,,,,,,,,,,,,,,,,,,,,,,,,,,0,0,0,0,0,0,0,0,0,0,0,0,0,0,0,0,,,,,,,,,,,
232,970200,1744863369800,0.0,135.0,,-0.08,-0.2,0.96,-35.0,0.0,3.0,0.98,1.01,97.0,7587.0,12.8,2.71,,7.85,1.046,64.6,,45.7,5.0,,,,,,,,,,,,0,0,0,0,0,0,0,0,0,0,0,0,0,0,0,0,,,,,0.0,,,,,,
233,970220,1744863369820,,,,,,,,,,,,,,,,,,,,,,,,,,,,,,,,,,0,0,0,0,0,0,0,0,0,0,0,0,0,0,0,0,,,,,,,,,,,
234,970240,1744863369840,0.0,135.0,13.88,-0.14,-0.5,0.95,-40.0,0.0,4.0,1.08,1.08,100.0,7587.0,12.8,2.71,15.0,8.37,1.068,64.6,180.0,45.7,5.0,22.0,26.0,22.0,25.0,0.0,11.0,0.0,0.0,2.26,0.0,0.0,0,0,0,0,0,0,0,0,0,0,0,0,0,0,0,0,0.0,0.0,0.0,0.0,0.0,38.985748,-76.950958,36.56,35.0,3.0,0.8
235,970260,1744863369860,,,,,,,,,,,,,,,,,,,,,,,,,,,,,,,,,,0,0,0,0,0,0,0,0,0,0,0,0,0,0,0,0,,,,,,,,,,,
236,970280,1744863369880,0.0,135.0,,-0.19,-0.75,0.97,-42.0,0.0,4.0,1.24,1.24,100.0,7683.0,13.7,2.79,,8.79,1.093,64.6,,47.3,5.0,,,,,,,,,,,,0,0,0,0,0,0,0,0,0,0,0,0,0,0,0,0,,,,,0.0,,,,,,
237,970300,1744863369900,,,,,,,,,,,,,,,,,,,,,,,,,,,,,,,,,,0,0,0,0,0,0,0,0,0,0,0,0,0,0,0,0,,,,,,,,,,,
238,970320,1744863369920,0.0,135.0,,-0.19,-0.68,0.93,-45.0,0.0,4.0,1.17,1.24,94.0,7816.0,11.5,2.87,,8.94,1.08,64.6,,47.3,5.0,,,,,,,,,,,,0,0,0,0,0,0,0,0,0,0,0,0,0,0,0,0,,,,,0.0,,,,,,
239,970340,1744863369940,,,,,,,,,,,,,,,,,,,,,,,22.0,25.0,22.0,24.0,0.0,11.0,0.0,0.0,2.26,,,0,0,0,0,0,0,0,0,0,0,0,0,0,0,0,0,0.0,,,,,38.985744,-76.950974,36.67,35.0,3.0,0.8
240,970360,1744863369960,0.0,135.0,,-0.19,-0.71,0.95,-47.0,0.0,3.0,1.2,1.24,97.0,8019.0,10.3,2.88,,8.75,1.083,64.6,,47.3,5.0,,,,,,,,,,,,0,0,0,0,0,0,0,0,0,0,0,0,0,0,0,0,,,,,0.0,,,,,,
241,970380,1744863369980,,,,,,,,,,,,,,,,,,,,,,,,,,,,,,,,,,0,0,0,0,0,0,0,0,0,0,0,0,0,0,0,0,,,,,,,,,,,
242,970400,1744863369992,0.0,135.0,,-0.18,-0.69,0.98,-49.0,1.0,3.0,1.21,1.24,98.0,8064.0,6.0,2.49,,8.75,1.083,64.6,,47.2,5.0,,,,,,,,,,,,0,0,0,0,0,0,0,0,0,0,0,0,0,0,0,0,,,,,0.0,,,,,,
243,970420,1744863370012,,,,,,,,,,,,,,,,,,,,,,,,,,,,,,,,,,0,0,0,0,0,0,0,0,0,0,0,0,0,0,0,0,,,,,,,,,,,
244,970440,1744863370032,0.0,135.0,,-0.17,-0.75,1.03,-50.0,1.0,3.0,1.28,1.28,100.0,8064.0,6.0,2.49,,8.43,1.05,64.6,,47.2,5.0,21.0,25.0,24.0,24.0,0.0,203.0,0.0,0.0,2.26,,,0,0,0,0,0,0,0,0,0,0,0,0,0,0,0,0,0.0,,,,0.0,38.985741,-76.950974,35.74,34.0,3.0,0.8
245,970460,1744863370052,,,,,,,,,,,,,,,,,,,,,,,,,,,,,,,,,,0,0,0,0,0,0,0,0,0,0,0,0,0,0,0,0,,,,,,,,,,,
246,970480,1744863370072,0.0,135.0,,-0.15,-0.72,1.03,-49.0,1.0,2.0,1.27,1.28,99.0,8060.0,3.0,1.59,,7.77,1.005,64.6,,48.3,5.0,,,,,,,,,,,,0,0,0,0,0,0,0,0,0,0,0,0,0,0,0,0,,,,,0.0,,,,,,
247,970500,1744863370096,,,,,,,,,,,,,,,,,,,,,,,,,,,,,,,,,,0,0,0,0,0,0,0,0,0,0,0,0,0,0,0,0,,,,,,,,,,,
248,970520,1744863370116,0.0,135.0,,-0.16,-0.56,1.03,-48.0,1.0,2.0,1.18,1.28,92.0,7554.0,9.1,2.43,,7.97,0.981,64.6,,48.3,5.0,,,,,,,,,,,,0,0,0,0,0,0,0,0,0,0,0,0,0,0,0,0,,,,,0.0,,,,,,
249,970540,1744863370136,,,,,,,,,,,,,,,,,,,,,,,22.0,25.0,22.0,27.0,0.0,8.0,0.0,0.0,2.26,,,0,0,0,0,0,0,0,0,0,0,0,0,0,0,0,0,0.0,,,,,38.985737,-76.950989,36.53,34.0,3.0,0.8
250,970560,1744863370156,0.0,135.0,,-0.15,-0.6,1.0,-45.0,1.0,0.0,1.18,1.28,92.0,7328.0,16.5,2.78,,8.97,1.052,64.6,,48.3,5.0,,,,,,,,,,,,0,0,0,0,0,0,0,0,0,0,0,0,0,0,0,0,,,,,0.0,,,,,,
251,970580,1744863370176,,,,,,,,,,,,,,,,,,,,,,,,,,,,,,,,,,0,0,0,0,0,0,0,0,0,0,0,0,0,0,0,0,,,,,,,,,,,
252,970600,1744863370199,0.0,135.0,,-0.17,-0.9,1.0,-42.0,1.0,-1.0,1.36,1.36,100.0,7400.0,19.2,3.54,,8.97,1.052,64.6,,49.0,5.0,,,,,,,,,,,,0,0,0,0,0,0,0,0,0,0,0,0,0,0,0,0,,,,,0.0,,,,,,
253,970620,1744863370219,,,,,,,,,,,,,,,,,,,,,,,,,,,,,,,,,,0,0,0,0,0,0,0,0,0,0,0,0,0,0,0,0,,,,,,,,,,,
254,970640,1744863370239,0.0,135.0,,-0.23,-1.06,1.02,-41.0,1.0,-1.0,1.49,1.49,100.0,7400.0,19.2,3.54,,9.96,1.195,64.6,,49.0,5.0,22.0,24.0,22.0,25.0,0.0,35.0,0.0,0.0,2.25,,,0,0,0,0,0,0,0,0,0,0,0,0,0,0,0,0,0.0,,,,0.0,38.985733,-76.951004,37.32,34.0,3.0,0.8
255,970660,1744863370259,,,,,,,,,,,,,,,,,,,,,,,,,,,,,,,,,,0,0,0,0,0,0,0,0,0,0,0,0,0,0,0,0,,,,,,,,,,,
256,970680,1744863370279,0.0,135.0,,-0.2,-1.0,1.01,-40.0,1.0,-1.0,1.44,1.49,97.0,7725.0,19.7,3.81,,10.33,1.146,64.6,,49.0,5.0,,,,,,,,,,,,0,0,0,0,0,0,0,0,0,0,0,0,0,0,0,0,,,,,0.0,,,,,,
257,970700,1744863370299,,,,,,,,,,,,,,,,,,,,,,,,,,,,,,,,,,0,0,0,0,0,0,0,0,0,0,0,0,0,0,0,0,,,,,,,,,,,
258,970720,1744863370319,0.0,135.0,,-0.23,-0.94,1.03,-41.0,1.0,0.0,1.42,1.49,95.0,8293.0,18.5,3.63,,10.45,1.098,66.4,,49.0,5.0,,,,,,,,,,,,0,0,0,0,0,0,0,0,0,0,0,0,0,0,0,0,,,,,0.0,,,,,,
259,970740,1744863370339,,,,,,,,,,,,,,,,,,,,,,,23.0,24.0,23.0,25.0,0.0,155.0,0.0,0.0,2.26,,,0,0,0,0,0,0,0,0,0,0,0,0,0,0,0,0,1.0,,,,,38.985733,-76.951012,36.62,34.0,3.0,0.8
260,970760,1744863370359,0.0,135.0,,-0.17,-1.1,1.05,-42.0,2.0,1.0,1.53,1.53,100.0,8900.0,17.4,3.31,,9.89,1.009,66.4,,49.0,5.0,,,,,,,,,,,,0,0,0,0,0,0,0,0,0,0,0,0,0,0,0,0,,,,,0.0,,,,,,
261,970780,1744863370379,,,,,,,,,,,,,,,,,,,,,,,,,,,,,,,,,,0,0,0,0,0,0,0,0,0,0,0,0,0,0,0,0,,,,,,,,,,,
262,970800,1744863370401,0.0,135.0,,-0.1,-1.18,1.01,-44.0,2.0,0.0,1.56,1.56,100.0,8811.0,6.9,2.92,,9.89,1.009,66.4,,49.3,5.0,,,,,,,,,,,,0,0,0,0,0,0,0,0,0,0,0,0,0,0,0,0,,,,,0.0,,,,,,
263,970820,1744863370421,,,,,,,,,,,,,,,,,,,,,,,,,,,,,,,,,,0,0,0,0,0,0,0,0,0,0,0,0,0,0,0,0,,,,,,,,,,,
264,970840,1744863370441,0.0,135.0,,-0.05,-1.25,1.03,-44.0,2.0,0.0,1.62,1.62,100.0,8811.0,6.9,2.92,,8.91,0.969,66.4,,49.3,5.0,21.0,25.0,26.0,27.0,0.0,53.0,0.0,0.0,2.25,,,0,0,0,0,0,0,0,0,0,0,0,0,0,0,0,0,1.0,,,,0.0,38.985733,-76.951027,36.05,34.0,3.0,0.8
265,970860,1744863370461,,,,,,,,,,,,,,,,,,,,,,,,,,,,,,,,,,0,0,0,0,0,0,0,0,0,0,0,0,0,0,0,0,,,,,,,,,,,
266,970880,1744863370481,0.0,135.0,,-0.09,-1.15,0.97,-44.0,1.0,0.0,1.51,1.62,93.0,8450.0,0.0,1.4,,7.78,0.965,66.4,,47.3,5.0,,,,,,,,,,,,0,0,0,0,0,0,0,0,0,0,0,0,0,0,0,0,,,,,0.0,,,,,,
267,970900,1744863370499,,,,,,,,,,,,,,,,,,,,,,,,,,,,,,,,,,0,0,0,0,0,0,0,0,0,0,0,0,0,0,0,0,,,,,,,,,,,
268,970920,1744863370519,0.0,135.0,,-0.15,-1.35,0.98,-45.0,1.0,0.0,1.67,1.67,100.0,7654.0,0.0,1.4,,6.99,0.942,66.4,,47.3,5.0,,,,,,,,,,,,0,0,0,0,0,0,0,0,0,0,0,0,0,0,0,0,,,,,0.0,,,,,,
269,970940,1744863370539,,,,,,,,,,,,,,,,,,,,,,,22.0,27.0,23.0,27.0,0.0,239.0,0.0,0.0,2.26,,,0,0,0,0,0,0,0,0,0,0,0,0,0,0,0,0,0.0,,,,,38.985733,-76.951042,38.5,34.0,3.0,0.8
270,970960,1744863370559,0.0,135.0,,-0.21,-1.43,0.94,-49.0,1.0,1.0,1.72,1.72,100.0,7279.0,0.0,1.4,,6.7,1.02,66.4,,47.3,5.0,,,,,,,,,,,,0,0,0,0,0,0,0,0,0,0,0,0,0,0,0,0,,,,,0.0,,,,,,
271,970980,1744863370579,,,,,,,,,,,,,,,,,,,,,,,,,,,,,,,,,,0,0,0,0,0,0,0,0,0,0,0,0,0,0,0,0,,,,,,,,,,,
272,971000,1744863370599,0.0,135.0,,-0.28,-1.33,0.96,-47.0,0.0,0.0,1.67,1.72,97.0,7092.0,0.0,1.4,,6.7,1.02,66.4,,47.9,5.0,,,,,,,,,,,,0,0,0,0,0,0,0,0,0,0,0,0,0,0,0,0,,,,,0.0,,,,,,
273,971020,1744863370619,,,,,,,,,,,,,,,,,,,,,,,,,,,,,,,,,,0,0,0,0,0,0,0,0,0,0,0,0,0,0,0,0,,,,,,,,,,,
274,971040,1744863370639,0.0,135.0,,-0.39,-1.55,0.92,-51.0,0.0,1.0,1.84,1.84,100.0,7092.0,0.0,1.4,,6.87,1.243,66.4,,47.9,5.0,23.0,27.0,21.0,25.0,0.0,145.0,0.0,0.0,2.25,,,0,0,0,0,0,0,0,0,0,0,0,0,0,0,0,0,0.0,,,,0.0,38.985733,-76.95105,39.06,34.0,3.0,0.8
275,971060,1744863370659,,,,,,,,,,,,,,,,,,,,,,,,,,,,,,,,,,0,0,0,0,0,0,0,0,0,0,0,0,0,0,0,0,,,,,,,,,,,
276,971080,1744863370679,0.0,135.0,,-0.46,-1.38,0.9,-55.0,0.0,1.0,1.71,1.84,93.0,7225.0,0.5,1.4,,6.87,1.249,66.4,,48.5,5.0,,,,,,,,,,,,0,0,0,0,0,0,0,0,0,0,0,0,0,0,0,0,,,,,0.0,,,,,,
277,971100,1744863370699,,,,,,,,,,,,,,,,,,,,,,,,,,,,,,,,,,0,0,0,0,0,0,0,0,0,0,0,0,0,0,0,0,,,,,,,,,,,
278,971120,1744863370719,0.0,135.0,,-0.49,-1.38,0.89,-55.0,1.0,0.0,1.71,1.84,93.0,7237.0,6.4,2.13,,7.22,1.248,66.4,,48.5,5.0,,,,,,,,,,,,0,0,0,0,0,0,0,0,0,0,0,0,0,0,0,0,,,,,0.0,,,,,,
279,971140,1744863370739,,,,,,,,,,,,,,,,,,,,,,,21.0,27.0,18.0,25.0,0.0,153.0,0.0,0.0,2.25,,,0,0,0,0,0,0,0,0,0,0,0,0,0,0,0,0,0.0,,,,,38.985737,-76.951057,36.38,34.0,3.0,0.8
280,971160,1744863370759,0.0,135.0,,-0.48,-1.13,0.93,-62.0,1.0,1.0,1.54,1.84,84.0,7180.0,8.2,2.45,,7.87,1.248,66.4,,48.5,5.0,,,,,,,,,,,,0,0,0,0,0,0,0,0,0,0,0,0,0,0,0,0,,,,,0.0,,,,,,
281,971180,1744863370779,,,,,,,,,,,,,,,,,,,,,,,,,,,,,,,,,,0,0,0,0,0,0,0,0,0,0,0,0,0,0,0,0,,,,,,,,,,,
282,971200,1744863370799,0.0,135.0,,-0.49,-1.35,0.95,-60.0,1.0,0.0,1.72,1.84,93.0,7265.0,8.8,2.59,,7.87,1.248,66.4,,48.4,5.0,,,,,,,,,,,,0,0,0,0,0,0,0,0,0,0,0,0,0,0,0,0,,,,,0.0,,,,,,
283,971220,1744863370819,,,,,,,,,,,,,,,,,,,,,,,,,,,,,,,,,,0,0,0,0,0,0,0,0,0,0,0,0,0,0,0,0,,,,,,,,,,,
284,971240,1744863370839,0.0,135.0,13.94,-0.51,-1.51,0.93,-61.0,1.0,0.0,1.85,1.85,100.0,7265.0,8.8,2.59,15.0,8.18,1.248,66.4,180.0,48.4,5.0,20.0,27.0,20.0,24.0,0.0,148.0,0.0,0.0,2.26,0.0,0.0,0,0,0,0,0,0,0,0,0,0,0,0,0,0,0,0,0.0,0.0,0.0,0.0,0.0,38.985741,-76.951073,33.87,34.0,3.0,0.8
285,971260,1744863370859,,,,,,,,,,,,,,,,,,,,,,,,,,,,,,,,,,0,0,0,0,0,0,0,0,0,0,0,0,0,0,0,0,,,,,,,,,,,
286,971280,1744863370879,0.0,135.0,,-0.49,-1.47,0.93,-64.0,2.0,0.0,1.81,1.85,98.0,7408.0,12.6,2.75,,8.75,1.247,66.4,,49.0,5.0,,,,,,,,,,,,0,0,0,0,0,0,0,0,0,0,0,0,0,0,0,0,,,,,0.0,,,,,,
287,971300,1744863370901,,,,,,,,,,,,,,,,,,,,,,,,,,,,,,,,,,0,0,0,0,0,0,0,0,0,0,0,0,0,0,0,0,,,,,,,,,,,
288,971320,1744863370921,0.0,135.0,,-0.45,-1.2,0.93,-67.0,2.0,1.0,1.59,1.85,86.0,7385.0,20.8,3.54,,9.89,1.146,66.4,,49.0,5.0,,,,,,,,,,,,0,0,0,0,0,0,0,0,0,0,0,0,0,0,0,0,,,,,0.0,,,,,,
289,971340,1744863370941,,,,,,,,,,,,,,,,,,,,,,,20.0,24.0,20.0,23.0,0.0,211.0,0.0,0.0,2.26,,,0,0,0,0,0,0,0,0,0,0,0,0,0,0,0,0,0.0,,,,,38.985744,-76.95108,33.39,34.0,3.0,0.8
290,971360,1744863370961,0.0,135.0,,-0.39,-0.95,0.94,-69.0,2.0,0.0,1.39,1.85,75.0,7533.0,25.0,4.04,,10.86,1.13,66.4,,49.0,5.0,,,,,,,,,,,,0,0,0,0,0,0,0,0,0,0,0,0,0,0,0,0,,,,,0.0,,,,,,
291,971380,1744863370981,,,,,,,,,,,,,,,,,,,,,,,,,,,,,,,,,,0,0,0,0,0,0,0,0,0,0,0,0,0,0,0,0,,,,,,,,,,,
292,971400,1744863370993,0.0,135.0,,-0.32,-0.89,0.96,-66.0,2.0,0.0,1.34,1.85,73.0,8051.0,26.1,5.34,,10.86,1.13,66.4,,48.7,5.0,,,,,,,,,,,,0,0,0,0,0,0,0,0,0,0,0,0,0,0,0,0,,,,,0.0,,,,,,
293,971420,1744863371013,,,,,,,,,,,,,,,,,,,,,,,,,,,,,,,,,,0,0,0,0,0,0,0,0,0,0,0,0,0,0,0,0,,,,,,,,,,,
294,971440,1744863371033,0.0,135.0,,-0.24,-0.83,0.98,-63.0,3.0,0.0,1.31,1.85,71.0,8051.0,26.1,5.34,,11.38,1.112,66.4,,48.7,5.0,21.0,22.0,23.0,23.0,0.0,253.0,0.0,0.0,2.26,,,0,0,0,0,0,0,0,0,0,0,0,0,0,0,0,0,0.0,,,,0.0,38.985748,-76.951096,33.35,35.0,3.0,0.8
295,971460,1744863371053,,,,,,,,,,,,,,,,,,,,,,,,,,,,,,,,,,0,0,0,0,0,0,0,0,0,0,0,0,0,0,0,0,,,,,,,,,,,
296,971480,1744863371073,0.0,135.0,,-0.14,-0.92,0.95,-60.0,3.0,0.0,1.33,1.85,72.0,8225.0,25.8,5.18,,11.58,0.999,66.4,,49.4,5.0,,,,,,,,,,,,0,0,0,0,0,0,0,0,0,0,0,0,0,0,0,0,,,,,0.0,,,,,,
297,971500,1744863371098,,,,,,,,,,,,,,,,,,,,,,,,,,,,,,,,,,0,0,0,0,0,0,0,0,0,0,0,0,0,0,0,0,,,,,,,,,,,
298,971520,1744863371118,0.0,135.0,,-0.11,-0.79,0.95,-58.0,2.0,0.0,1.24,1.85,67.0,8216.0,21.2,5.04,,11.34,0.874,66.4,,49.4,5.0,,,,,,,,,,,,0,0,0,0,0,0,0,0,0,0,0,0,0,0,0,0,,,,,0.0,,,,,,
299,971540,1744863371138,,,,,,,,,,,,,,,,,,,,,,,21.0,22.0,23.0,25.0,0.0,107.0,0.0,0.0,2.25,,,0,0,0,0,0,0,0,0,0,0,0,0,0,0,0,0,0.0,,,,,38.985756,-76.951096,34.68,35.0,3.0,0.8
300,971560,1744863371158,0.0,135.0,,-0.08,-0.73,0.95,-58.0,2.0,1.0,1.21,1.85,65.0,8370.0,13.0,3.33,,10.4,0.821,66.4,,49.4,5.0,,,,,,,,,,,,0,0,0,0,0,0,0,0,0,0,0,0,0,0,0,0,,,,,0.0,,,,,,
301,971580,1744863371178,,,,,,,,,,,,,,,,,,,,,,,,,,,,,,,,,,0,0,0,0,0,0,0,0,0,0,0,0,0,0,0,0,,,,,,,,,,,
302,971600,1744863371194,0.0,135.0,,-0.09,-0.84,0.93,-58.0,1.0,2.0,1.26,1.85,68.0,8545.0,9.6,3.08,,10.4,0.821,66.4,,48.8,5.0,,,,,,,,,,,,0,0,0,0,0,0,0,0,0,0,0,0,0,0,0,0,,,,,0.0,,,,,,
303,971620,1744863371214,,,,,,,,,,,,,,,,,,,,,,,,,,,,,,,,,,0,0,0,0,0,0,0,0,0,0,0,0,0,0,0,0,,,,,,,,,,,
304,971640,1744863371234,0.0,135.0,,-0.11,-0.81,0.95,-59.0,2.0,3.0,1.26,1.85,68.0,8545.0,9.6,3.08,,9.41,0.789,66.4,,48.8,5.0,22.0,22.0,27.0,25.0,0.0,201.0,0.0,0.0,2.25,,,0,0,0,0,0,0,0,0,0,0,0,0,0,0,0,0,1.0,,,,0.0,38.98576,-76.951103,37.44,35.0,3.0,0.8
305,971660,1744863371254,,,,,,,,,,,,,,,,,,,,,,,,,,,,,,,,,,0,0,0,0,0,0,0,0,0,0,0,0,0,0,0,0,,,,,,,,,,,
306,971680,1744863371274,0.0,135.0,,-0.12,-0.98,0.92,-59.0,2.0,3.0,1.35,1.85,73.0,8692.0,8.1,2.7,,8.65,0.793,66.4,,46.9,5.0,,,,,,,,,,,,0,0,0,0,0,0,0,0,0,0,0,0,0,0,0,0,,,,,0.0,,,,,,
307,971700,1744863371300,,,,,,,,,,,,,,,,,,,,,,,,,,,,,,,,,,0,0,0,0,0,0,0,0,0,0,0,0,0,0,0,0,,,,,,,,,,,
308,971720,1744863371320,0.0,135.0,,-0.11,-0.98,0.87,-60.0,2.0,3.0,1.32,1.85,71.0,8729.0,7.8,2.52,,8.13,0.826,66.4,,46.9,5.0,,,,,,,,,,,,0,0,0,0,0,0,0,0,0,0,0,0,0,0,0,0,,,,,0.0,,,,,,
309,971740,1744863371340,,,,,,,,,,,,,,,,,,,,,,,22.0,22.0,26.0,27.0,0.0,166.0,0.0,0.0,2.25,,,0,0,0,0,0,0,0,0,0,0,0,0,0,0,0,0,1.0,,,,,38.985767,-76.951118,38.04,35.0,3.0,0.8
310,971760,1744863371360,0.0,135.0,,-0.1,-0.98,0.92,-60.0,3.0,2.0,1.35,1.85,73.0,8599.0,4.8,2.24,,7.81,0.859,66.4,,46.9,5.0,,,,,,,,,,,,0,0,0,0,0,0,0,0,0,0,0,0,0,0,0,0,,,,,0.0,,,,,,
311,971780,1744863371380,,,,,,,,,,,,,,,,,,,,,,,,,,,,,,,,,,0,0,0,0,0,0,0,0,0,0,0,0,0,0,0,0,,,,,,,,,,,
312,971820,1744863371420,,,,,,,,,,,,,,,,,,,,,,,,,,,,,,,,,,0,0,0,0,0,0,0,0,0,0,0,0,0,0,0,0,,,,,,,,,,,
313,971920,1744863371520,0.0,135.0,,-0.21,-1.02,0.93,-54.0,1.0,1.0,1.39,1.39,100.0,7450.0,2.5,1.4,,6.96,0.998,66.4,,48.4,5.0,,,,,,,,,,,,0,0,0,0,0,0,0,0,0,0,0,0,0,0,0,0,,,,,0.0,,,,,,
314,972020,1744863371620,,,,,,,,,,,,,,,,,,,,,,,,,,,,,,,,,,0,0,0,0,0,0,0,0,0,0,0,0,0,0,0,0,,,,,,,,,,,
315,972100,1744863371698,,,,,,,,,,,,,,,,,,,,,,,,,,,,,,,,,,0,0,0,0,0,0,0,0,0,0,0,0,0,0,0,0,,,,,,,,,,,
316,972180,1744863371778,,,,,,,,,,,,,,,,,,,,,,,,,,,,,,,,,,0,0,0,0,0,0,0,0,0,0,0,0,0,0,0,0,,,,,,,,,,,
317,972200,1744863371800,0.0,135.0,,-0.57,-1.04,0.92,-70.0,1.0,1.0,1.5,1.54,97.0,6584.0,11.2,2.61,,7.47,1.248,66.4,,47.5,5.0,,,,,,,,,,,,0,0,0,0,0,0,0,0,0,0,0,0,0,0,0,0,,,,,0.0,,,,,,
318,972220,1744863371820,,,,,,,,,,,,,,,,,,,,,,,,,,,,,,,,,,0,0,0,0,0,0,0,0,0,0,0,0,0,0,0,0,,,,,,,,,,,
319,972240,1744863371840,0.0,135.0,13.99,-0.56,-1.13,0.91,-71.0,1.0,1.0,1.56,1.56,100.0,6584.0,11.2,2.61,15.0,8.47,1.249,66.4,180.0,47.5,5.0,20.0,22.0,17.0,21.0,0.0,18.0,0.0,0.0,2.26,0.0,0.0,0,0,0,0,0,0,0,0,0,0,0,0,0,0,0,0,1.0,0.0,0.0,0.0,0.0,38.985809,-76.951134,33.29,35.0,3.0,0.8
320,972260,1744863371860,,,,,,,,,,,,,,,,,,,,,,,,,,,,,,,,,,0,0,0,0,0,0,0,0,0,0,0,0,0,0,0,0,,,,,,,,,,,
321,972280,1744863371880,0.0,135.0,,-0.54,-1.14,0.93,-72.0,1.0,1.0,1.57,1.57,100.0,6630.0,19.7,3.28,,10.2,1.248,66.4,,46.7,5.0,,,,,,,,,,,,0,0,0,0,0,0,0,0,0,0,0,0,0,0,0,0,,,,,0.0,,,,,,
322,972300,1744863371898,,,,,,,,,,,,,,,,,,,,,,,,,,,,,,,,,,0,0,0,0,0,0,0,0,0,0,0,0,0,0,0,0,,,,,,,,,,,
323,972360,1744863371958,0.0,135.0,,-0.4,-0.77,0.95,-70.0,1.0,1.0,1.29,1.57,82.0,7680.0,25.3,5.46,,11.69,1.235,66.4,,46.7,5.0,,,,,,,,,,,,0,0,0,0,0,0,0,0,0,0,0,0,0,0,0,0,,,,,0.0,,,,,,
324,972380,1744863371978,,,,,,,,,,,,,,,,,,,,,,,,,,,,,,,,,,0,0,0,0,0,0,0,0,0,0,0,0,0,0,0,0,,,,,,,,,,,
325,972400,1744863371992,0.0,135.0,,-0.33,-0.84,0.96,-66.0,1.0,1.0,1.32,1.57,84.0,8428.0,26.3,5.09,,11.69,1.235,66.4,,47.2,5.0,,,,,,,,,,,,0,0,0,0,0,0,0,0,0,0,0,0,0,0,0,0,,,,,0.0,,,,,,
326,972420,1744863372012,,,,,,,,,,,,,,,,,,,,,,,,,,,,,,,,,,0,0,0,0,0,0,0,0,0,0,0,0,0,0,0,0,,,,,,,,,,,
327,972440,1744863372032,0.0,135.0,,-0.2,-0.93,0.99,-62.0,1.0,0.0,1.37,1.57,87.0,8428.0,26.3,5.09,,11.57,1.024,66.4,,47.2,5.0,20.0,26.0,26.0,22.0,0.0,124.0,0.0,0.0,2.26,,,0,0,0,0,0,0,0,0,0,0,0,0,0,0,0,0,0.0,,,,0.0,38.985825,-76.951134,32.07,34.0,3.0,0.8
328,972460,1744863372052,,,,,,,,,,,,,,,,,,,,,,,,,,,,,,,,,,0,0,0,0,0,0,0,0,0,0,0,0,0,0,0,0,,,,,,,,,,,
329,972480,1744863372072,0.0,135.0,,-0.12,-0.9,0.99,-60.0,2.0,0.0,1.34,1.57,85.0,8463.0,20.7,4.93,,11.18,0.863,66.4,,47.5,5.0,,,,,,,,,,,,0,0,0,0,0,0,0,0,0,0,0,0,0,0,0,0,,,,,0.0,,,,,,
330,972500,1744863372097,,,,,,,,,,,,,,,,,,,,,,,,,,,,,,,,,,0,0,0,0,0,0,0,0,0,0,0,0,0,0,0,0,,,,,,,,,,,
331,972520,1744863372117,0.0,135.0,,-0.08,-1.03,1.0,-58.0,1.0,1.0,1.44,1.57,92.0,8222.0,7.2,3.18,,9.89,0.824,66.4,,47.5,5.0,,,,,,,,,,,,0,0,0,0,0,0,0,0,0,0,0,0,0,0,0,0,,,,,0.0,,,,,,
332,972540,1744863372137,,,,,,,,,,,,,,,,,,,,,,,21.0,26.0,24.0,24.0,0.0,13.0,0.0,0.0,2.26,,,0,0,0,0,0,0,0,0,0,0,0,0,0,0,0,0,0.0,,,,,38.985832,-76.951134,33.33,34.0,3.0,0.8
333,972560,1744863372157,0.0,135.0,,-0.07,-0.88,1.03,-57.0,1.0,1.0,1.35,1.57,86.0,7914.0,0.0,1.4,,8.59,0.801,66.4,,47.5,5.0,,,,,,,,,,,,0,0,0,0,0,0,0,0,0,0,0,0,0,0,0,0,,,,,0.0,,,,,,
334,972580,1744863372177,,,,,,,,,,,,,,,,,,,,,,,,,,,,,,,,,,0,0,0,0,0,0,0,0,0,0,0,0,0,0,0,0,,,,,,,,,,,
335,972600,1744863372199,0.0,135.0,,-0.09,-0.72,1.01,-58.0,1.0,2.0,1.24,1.57,79.0,7470.0,0.0,1.4,,8.59,0.801,66.4,,46.8,5.0,,,,,,,,,,,,0,0,0,0,0,0,0,0,0,0,0,0,0,0,0,0,,,,,0.0,,,,,,
336,972620,1744863372219,,,,,,,,,,,,,,,,,,,,,,,,,,,,,,,,,,0,0,0,0,0,0,0,0,0,0,0,0,0,0,0,0,,,,,,,,,,,
337,972640,1744863372239,0.0,135.0,,-0.1,-0.57,1.01,-58.0,0.0,2.0,1.17,1.57,74.0,7470.0,0.0,1.4,,7.71,0.802,66.4,,46.8,5.0,21.0,26.0,22.0,24.0,0.0,182.0,0.0,0.0,2.26,,,0,0,0,0,0,0,0,0,0,0,0,0,0,0,0,0,1.0,,,,0.0,38.985844,-76.951134,36.7,34.0,3.0,0.8
338,972660,1744863372259,,,,,,,,,,,,,,,,,,,,,,,,,,,,,,,,,,0,0,0,0,0,0,0,0,0,0,0,0,0,0,0,0,,,,,,,,,,,
339,972680,1744863372279,0.0,135.0,,-0.17,-0.62,1.04,-57.0,0.0,3.0,1.23,1.57,78.0,7065.0,0.0,1.4,,7.42,0.884,66.4,,45.2,5.0,,,,,,,,,,,,0,0,0,0,0,0,0,0,0,0,0,0,0,0,0,0,,,,,0.0,,,,,,
340,972700,1744863372299,,,,,,,,,,,,,,,,,,,,,,,,,,,,,,,,,,0,0,0,0,0,0,0,0,0,0,0,0,0,0,0,0,,,,,,,,,,,
341,972720,1744863372319,0.0,135.0,,-0.26,-0.73,1.06,-58.0,0.0,2.0,1.31,1.57,84.0,6706.0,0.0,1.4,,7.35,1.089,66.4,,45.2,5.0,,,,,,,,,,,,0,0,0,0,0,0,0,0,0,0,0,0,0,0,0,0,,,,,0.0,,,,,,
342,972740,1744863372339,,,,,,,,,,,,,,,,,,,,,,,21.0,26.0,21.0,24.0,0.0,161.0,0.0,0.0,2.25,,,0,0,0,0,0,0,0,0,0,0,0,0,0,0,0,0,1.0,,,,,38.985851,-76.951134,36.51,34.0,3.0,0.8
343,972760,1744863372359,0.0,135.0,,-0.34,-0.79,1.01,-59.0,0.0,1.0,1.32,1.57,84.0,6700.0,10.6,2.55,,8.18,1.249,66.4,,45.2,5.0,,,,,,,,,,,,0,0,0,0,0,0,0,0,0,0,0,0,0,0,0,0,,,,,0.0,,,,,,
344,972780,1744863372379,,,,,,,,,,,,,,,,,,,,,,,,,,,,,,,,,,0,0,0,0,0,0,0,0,0,0,0,0,0,0,0,0,,,,,,,,,,,
345,972800,1744863372399,0.0,135.0,,-0.37,-0.79,1.0,-62.0,0.0,2.0,1.33,1.57,85.0,6831.0,28.6,4.32,,8.18,1.249,66.4,,45.9,5.0,,,,,,,,,,,,0,0,0,0,0,0,0,0,0,0,0,0,0,0,0,0,,,,,0.0,,,,,,
346,972820,1744863372419,,,,,,,,,,,,,,,,,,,,,,,,,,,,,,,,,,0,0,0,0,0,0,0,0,0,0,0,0,0,0,0,0,,,,,,,,,,,
347,972840,1744863372439,0.0,135.0,,-0.4,-1.04,1.01,-61.0,1.0,1.0,1.5,1.57,96.0,6831.0,28.6,4.32,,10.86,1.248,66.4,,45.9,5.0,20.0,26.0,18.0,23.0,0.0,145.0,0.0,0.0,2.26,,,0,0,0,0,0,0,0,0,0,0,0,0,0,0,0,0,0.0,,,,0.0,38.985859,-76.951126,34.99,34.0,3.0,0.8
348,972860,1744863372459,,,,,,,,,,,,,,,,,,,,,,,,,,,,,,,,,,0,0,0,0,0,0,0,0,0,0,0,0,0,0,0,0,,,,,,,,,,,
349,972880,1744863372479,0.0,135.0,,-0.39,-1.08,0.99,-61.0,1.0,1.0,1.52,1.57,97.0,7564.0,31.7,6.18,,12.15,1.246,66.4,,45.4,5.0,,,,,,,,,,,,0,0,0,0,0,0,0,0,0,0,0,0,0,0,0,0,,,,,0.0,,,,,,
350,972900,1744863372499,,,,,,,,,,,,,,,,,,,,,,,,,,,,,,,,,,0,0,0,0,0,0,0,0,0,0,0,0,0,0,0,0,,,,,,,,,,,
351,972920,1744863372519,0.0,135.0,,-0.28,-1.17,1.01,-59.0,2.0,0.0,1.57,1.57,100.0,8358.0,33.1,5.85,,12.2,1.212,66.4,,45.4,5.0,,,,,,,,,,,,0,0,0,0,0,0,0,0,0,0,0,0,0,0,0,0,,,,,0.0,,,,,,
352,972940,1744863372539,,,,,,,,,,,,,,,,,,,,,,,20.0,26.0,20.0,24.0,0.0,134.0,0.0,0.0,2.26,,,0,0,0,0,0,0,0,0,0,0,0,0,0,0,0,0,0.0,,,,,38.985867,-76.951118,32.49,34.0,3.0,0.8
353,972960,1744863372559,0.0,135.0,,-0.17,-1.08,0.99,-60.0,4.0,1.0,1.47,1.47,100.0,8783.0,32.9,5.27,,12.13,0.971,66.4,,45.4,5.0,,,,,,,,,,,,0,0,0,0,0,0,0,0,0,0,0,0,0,0,0,0,,,,,0.0,,,,,,
354,972980,1744863372579,,,,,,,,,,,,,,,,,,,,,,,,,,,,,,,,,,0,0,0,0,0,0,0,0,0,0,0,0,0,0,0,0,,,,,,,,,,,
355,973000,1744863372599,0.0,135.0,,-0.03,-1.02,0.97,-59.0,4.0,1.0,1.41,1.47,96.0,8640.0,26.2,4.96,,12.13,0.971,66.4,,46.4,5.0,,,,,,,,,,,,0,0,0,0,0,0,0,0,0,0,0,0,0,0,0,0,,,,,0.0,,,,,,
356,973020,1744863372619,,,,,,,,,,,,,,,,,,,,,,,,,,,,,,,,,,0,0,0,0,0,0,0,0,0,0,0,0,0,0,0,0,,,,,,,,,,,
357,973040,1744863372639,0.0,135.0,,0.04,-1.05,0.95,-57.0,4.0,1.0,1.41,1.47,96.0,8640.0,26.2,4.96,,11.64,0.867,66.4,,46.4,5.0,21.0,26.0,26.0,27.0,0.0,31.0,0.0,0.0,2.26,,,0,0,0,0,0,0,0,0,0,0,0,0,0,0,0,0,1.0,,,,0.0,38.985874,-76.951111,33.45,34.0,3.0,0.8
358,973060,1744863372659,,,,,,,,,,,,,,,,,,,,,,,,,,,,,,,,,,0,0,0,0,0,0,0,0,0,0,0,0,0,0,0,0,,,,,,,,,,,
359,973080,1744863372679,0.0,135.0,,0.05,-0.92,1.01,-56.0,3.0,2.0,1.37,1.47,93.0,8525.0,20.9,4.93,,11.02,0.848,66.4,,45.8,5.0,,,,,,,,,,,,0,0,0,0,0,0,0,0,0,0,0,0,0,0,0,0,,,,,0.0,,,,,,
360,973100,1744863372699,,,,,,,,,,,,,,,,,,,,,,,,,,,,,,,,,,0,0,0,0,0,0,0,0,0,0,0,0,0,0,0,0,,,,,,,,,,,
361,973120,1744863372719,0.0,135.0,,0.06,-0.99,1.04,-55.0,3.0,2.0,1.44,1.47,98.0,8727.0,18.8,4.19,,10.61,0.831,66.4,,45.8,5.0,,,,,,,,,,,,0,0,0,0,0,0,0,0,0,0,0,0,0,0,0,0,,,,,0.0,,,,,,
362,973140,1744863372739,,,,,,,,,,,,,,,,,,,,,,,23.0,26.0,25.0,25.0,0.0,58.0,0.0,0.0,2.26,,,0,0,0,0,0,0,0,0,0,0,0,0,0,0,0,0,1.0,,,,,38.985878,-76.951096,37.97,34.0,3.0,0.8
363,973160,1744863372759,0.0,135.0,,0.05,-1.11,1.03,-54.0,2.0,2.0,1.51,1.51,100.0,9014.0,14.3,3.22,,9.76,0.802,66.4,,45.8,5.0,,,,,,,,,,,,0,0,0,0,0,0,0,0,0,0,0,0,0,0,0,0,,,,,0.0,,,,,,
364,973180,1744863372779,,,,,,,,,,,,,,,,,,,,,,,,,,,,,,,,,,0,0,0,0,0,0,0,0,0,0,0,0,0,0,0,0,,,,,,,,,,,
365,973200,1744863372799,0.0,135.0,,0.05,-1.23,1.05,-54.0,2.0,2.0,1.62,1.62,100.0,9036.0,2.7,2.43,,9.76,0.802,66.4,,44.1,5.0,,,,,,,,,,,,0,0,0,0,0,0,0,0,0,0,0,0,0,0,0,0,,,,,0.0,,,,,,
366,973220,1744863372819,,,,,,,,,,,,,,,,,,,,,,,,,,,,,,,,,,0,0,0,0,0,0,0,0,0,0,0,0,0,0,0,0,,,,,,,,,,,
367,973240,1744863372839,0.0,135.0,13.92,0.03,-1.26,1.02,-53.0,1.0,2.0,1.62,1.62,100.0,9036.0,2.7,2.43,15.0,8.45,0.807,66.4,180.0,44.1,5.0,23.0,26.0,27.0,27.0,0.0,135.0,0.0,0.0,2.26,0.0,0.0,0,0,0,0,0,0,0,0,0,0,0,0,0,0,0,0,1.0,0.0,0.0,0.0,0.0,38.985882,-76.951096,39.41,34.0,3.0,0.8
368,973260,1744863372859,,,,,,,,,,,,,,,,,,,,,,,,,,,,,,,,,,0,0,0,0,0,0,0,0,0,0,0,0,0,0,0,0,,,,,,,,,,,
369,973280,1744863372879,0.0,135.0,,-0.03,-1.26,1.03,-53.0,0.0,2.0,1.63,1.63,100.0,8709.0,0.0,1.4,,7.35,0.838,66.4,,44.5,5.0,,,,,,,,,,,,0,0,0,0,0,0,0,0,0,0,0,0,0,0,0,0,,,,,0.0,,,,,,
370,973300,1744863372899,,,,,,,,,,,,,,,,,,,,,,,,,,,,,,,,,,0,0,0,0,0,0,0,0,0,0,0,0,0,0,0,0,,,,,,,,,,,
371,973320,1744863372919,0.0,135.0,,-0.07,-1.19,1.03,-54.0,0.0,2.0,1.57,1.63,96.0,8411.0,0.0,1.4,,6.6,0.868,66.4,,44.5,5.0,,,,,,,,,,,,0,0,0,0,0,0,0,0,0,0,0,0,0,0,0,0,,,,,0.0,,,,,,
372,973340,1744863372939,,,,,,,,,,,,,,,,,,,,,,,23.0,26.0,24.0,26.0,0.0,39.0,0.0,0.0,2.26,,,0,0,0,0,0,0,0,0,0,0,0,0,0,0,0,0,1.0,,,,,38.985889,-76.95108,40.08,34.0,3.0,0.8
373,973360,1744863372959,0.0,135.0,,-0.13,-1.27,1.06,-55.0,0.0,2.0,1.66,1.66,100.0,8092.0,0.0,1.4,,6.28,1.005,66.4,,44.5,5.0,,,,,,,,,,,,0,0,0,0,0,0,0,0,0,0,0,0,0,0,0,0,,,,,0.0,,,,,,
374,973380,1744863372979,,,,,,,,,,,,,,,,,,,,,,,,,,,,,,,,,,0,0,0,0,0,0,0,0,0,0,0,0,0,0,0,0,,,,,,,,,,,
375,973400,1744863372991,0.0,135.0,,-0.15,-1.19,1.04,-58.0,0.0,2.0,1.59,1.66,96.0,7930.0,1.7,1.4,,6.28,1.005,66.4,,45.4,5.0,,,,,,,,,,,,0,0,0,0,0,0,0,0,0,0,0,0,0,0,0,0,,,,,0.0,,,,,,
376,973420,1744863373011,,,,,,,,,,,,,,,,,,,,,,,,,,,,,,,,,,0,0,0,0,0,0,0,0,0,0,0,0,0,0,0,0,,,,,,,,,,,
377,973440,1744863373031,0.0,135.0,,-0.21,-1.28,1.04,-58.0,1.0,2.0,1.66,1.66,100.0,7930.0,1.7,1.4,,6.31,1.127,66.4,,45.4,5.0,24.0,26.0,24.0,27.0,0.0,69.0,0.0,0.0,2.26,,,0,0,0,0,0,0,0,0,0,0,0,0,0,0,0,0,0.0,,,,0.0,38.985893,-76.951065,41.22,33.0,3.0,0.9
378,973460,1744863373051,,,,,,,,,,,,,,,,,,,,,,,,,,,,,,,,,,0,0,0,0,0,0,0,0,0,0,0,0,0,0,0,0,,,,,,,,,,,
379,973480,1744863373071,0.0,135.0,,-0.26,-1.25,1.06,-56.0,1.0,0.0,1.66,1.66,100.0,7625.0,5.8,1.92,,6.74,1.153,66.4,,45.6,5.0,,,,,,,,,,,,0,0,0,0,0,0,0,0,0,0,0,0,0,0,0,0,,,,,0.0,,,,,,
380,973500,1744863373101,,,,,,,,,,,,,,,,,,,,,,,,,,,,,,,,,,0,0,0,0,0,0,0,0,0,0,0,0,0,0,0,0,,,,,,,,,,,
381,973520,1744863373121,0.0,135.0,,-0.33,-1.28,1.02,-58.0,2.0,0.0,1.66,1.66,100.0,7797.0,6.3,2.08,,7.08,1.177,66.4,,45.6,5.0,,,,,,,,,,,,0,0,0,0,0,0,0,0,0,0,0,0,0,0,0,0,,,,,0.0,,,,,,
382,973540,1744863373141,,,,,,,,,,,,,,,,,,,,,,,21.0,26.0,22.0,25.0,0.0,209.0,0.0,0.0,2.26,,,0,0,0,0,0,0,0,0,0,0,0,0,0,0,0,0,0.0,,,,,38.985897,-76.951057,38.2,33.0,3.0,0.9
383,973560,1744863373161,0.0,135.0,,-0.37,-1.16,1.04,-59.0,1.0,0.0,1.6,1.66,96.0,8060.0,8.2,2.39,,7.45,1.249,66.4,,45.6,5.0,,,,,,,,,,,,0,0,0,0,0,0,0,0,0,0,0,0,0,0,0,0,,,,,0.0,,,,,,
384,973580,1744863373181,,,,,,,,,,,,,,,,,,,,,,,,,,,,,,,,,,0,0,0,0,0,0,0,0,0,0,0,0,0,0,0,0,,,,,,,,,,,
