,Interval,Utc,FrontBP,SteerAng,Battery,AccelX,AccelY,AccelZ,Yaw,Pitch,Roll,Gsum,GsumMax,GsumPct,RPM,TPS,InjectorPW,Baro,MAP,Lambda,IAT,EngineTemp,EOP,EOT,WSFR,WSFL,WSRR,WSRL,TCSet,TCSlip,TCComp,TCCut,Analog8,OilTemp,AA_On,ThermLF1,ThermLF2,ThermRR1,ThermRR2,ThermLF3,ThermLF4,ThermLF5,ThermLF6,ThermLF7,ThermLF8,ThermRR3,ThermRR4,ThermRR5,ThermRR6,ThermRR7,ThermRR8,Gear,AA_On1,AA_LowDrag,Fuel_Mix,AA_Packages,Latitude,Longitude,Speed,GPSSats,GPSQual,GPSDOP
0,2335460,1744864735062,,,,,,,,,,,,,,,,,,,,,,,,,,,,,,,,,,0,0.0,0.0,0.0,0.0,0.0,0.0,0.0,0.0,0.0,0.0,0.0,0.0,0.0,0.0,0.0,,,,,,,,,,,
1,2335480,1744864735082,0.0,135.0,,-0.08,-0.11,1.0,0.0,0.0,0.0,1.01,1.01,100.0,3851.0,7.0,3.87,,12.69,1.177,68.2,,32.8,5.0,,,,,,,,,,,,0,0.0,0.0,0.0,0.0,0.0,0.0,0.0,0.0,0.0,0.0,0.0,0.0,0.0,0.0,0.0,,,,,0.0,,,,,,
2,2335500,1744864735108,,,,,,,,,,,,,,,,,,,,,,,,,,,,,,,,,,0,0.0,0.0,0.0,0.0,0.0,0.0,0.0,0.0,0.0,0.0,0.0,0.0,0.0,0.0,0.0,,,,,,,,,,,
3,2335520,1744864735128,0.0,135.0,,-0.09,-0.13,0.96,0.0,0.0,0.0,0.98,1.01,97.0,3797.0,7.0,3.87,,12.67,1.177,68.2,,32.8,5.0,,,,,,,,,,,,0,0.0,0.0,0.0,0.0,0.0,0.0,0.0,0.0,0.0,0.0,0.0,0.0,0.0,0.0,0.0,,,,,0.0,,,,,,
4,2335540,1744864735148,,,,,,,,,,,,,,,,,,,,,,,0.0,0.0,0.0,0.0,0.0,0.0,0.0,0.0,2.27,,,0,0.0,0.0,0.0,0.0,0.0,0.0,0.0,0.0,0.0,0.0,0.0,0.0,0.0,0.0,0.0,0.0,,,,,38.985832,-76.950859,0.15,36.0,3.0,0.8
5,2335560,1744864735168,0.0,135.0,,-0.1,-0.09,0.96,0.0,0.0,0.0,0.97,1.01,96.0,3852.0,6.9,3.88,,12.67,1.166,68.2,,32.8,5.0,,,,,,,,,,,,0,0.0,0.0,0.0,0.0,0.0,0.0,0.0,0.0,0.0,0.0,0.0,0.0,0.0,0.0,0.0,,,,,0.0,,,,,,
6,2335580,1744864735188,,,,,,,,,,,,,,,,,,,,,,,,,,,,,,,,,,0,0.0,0.0,0.0,0.0,0.0,0.0,0.0,0.0,0.0,0.0,0.0,0.0,0.0,0.0,0.0,,,,,,,,,,,
7,2335600,1744864735208,0.0,135.0,,-0.09,-0.05,0.99,0.0,0.0,0.0,0.99,1.01,98.0,3852.0,6.9,3.88,,12.67,1.166,68.2,,32.4,5.0,,,,,,,,,,,,0,0.0,0.0,0.0,0.0,0.0,0.0,0.0,0.0,0.0,0.0,0.0,0.0,0.0,0.0,0.0,,,,,0.0,,,,,,
8,2335620,1744864735228,,,,,,,,,,,,,,,,,,,,,,,,,,,,,,,,,,0,0.0,0.0,0.0,0.0,0.0,0.0,0.0,0.0,0.0,0.0,0.0,0.0,0.0,0.0,0.0,,,,,,,,,,,
9,2335640,1744864735248,0.0,135.0,,-0.1,-0.07,1.02,0.0,0.0,0.0,1.03,1.03,100.0,3850.0,7.0,3.87,,12.75,1.177,68.2,,32.4,5.0,0.0,0.0,0.0,0.0,0.0,0.0,0.0,0.0,2.26,,,0,0.0,0.0,0.0,0.0,0.0,0.0,0.0,0.0,0.0,0.0,0.0,0.0,0.0,0.0,0.0,0.0,,,,0.0,38.985832,-76.950859,0.08,36.0,3.0,0.8
10,2335660,1744864735268,,,,,,,,,,,,,,,,,,,,,,,,,,,,,,,,,,0,0.0,0.0,0.0,0.0,0.0,0.0,0.0,0.0,0.0,0.0,0.0,0.0,0.0,0.0,0.0,,,,,,,,,,,
11,2335680,1744864735292,0.0,135.0,,-0.09,-0.09,1.03,0.0,0.0,0.0,1.04,1.04,100.0,3828.0,7.1,3.88,,12.67,1.177,68.2,,32.5,5.0,,,,,,,,,,,,0,0.0,0.0,0.0,0.0,0.0,0.0,0.0,0.0,0.0,0.0,0.0,0.0,0.0,0.0,0.0,,,,,0.0,,,,,,
12,2335700,1744864735312,,,,,,,,,,,,,,,,,,,,,,,,,,,,,,,,,,0,0.0,0.0,0.0,0.0,0.0,0.0,0.0,0.0,0.0,0.0,0.0,0.0,0.0,0.0,0.0,,,,,,,,,,,
13,2335720,1744864735332,0.0,135.0,,-0.09,-0.09,1.0,0.0,0.0,0.0,1.01,1.04,97.0,3876.0,7.2,3.87,,12.68,1.179,68.2,,32.5,5.0,,,,,,,,,,,,0,0.0,0.0,0.0,0.0,0.0,0.0,0.0,0.0,0.0,0.0,0.0,0.0,0.0,0.0,0.0,,,,,0.0,,,,,,
14,2335740,1744864735352,,,,,,,,,,,,,,,,,,,,,,,0.0,0.0,0.0,0.0,0.0,0.0,0.0,0.0,2.26,,,0,0.0,0.0,0.0,0.0,0.0,0.0,0.0,0.0,0.0,0.0,0.0,0.0,0.0,0.0,0.0,0.0,,,,,38.985832,-76.950859,0.13,36.0,3.0,0.8
15,2335760,1744864735372,0.0,135.0,,-0.06,0.01,1.03,-1.0,0.0,1.0,1.04,1.04,100.0,3840.0,7.2,3.87,,12.61,1.163,68.2,,32.5,5.0,,,,,,,,,,,,0,0.0,0.0,0.0,0.0,0.0,0.0,0.0,0.0,0.0,0.0,0.0,0.0,0.0,0.0,0.0,,,,,0.0,,,,,,
16,2335780,1744864735392,,,,,,,,,,,,,,,,,,,,,,,,,,,,,,,,,,0,0.0,0.0,0.0,0.0,0.0,0.0,0.0,0.0,0.0,0.0,0.0,0.0,0.0,0.0,0.0,,,,,,,,,,,
17,2335800,1744864735412,0.0,135.0,,-0.07,-0.01,1.02,-1.0,0.0,1.0,1.02,1.04,98.0,3850.0,7.1,3.88,,12.61,1.163,68.2,,32.8,5.0,,,,,,,,,,,,0,0.0,0.0,0.0,0.0,0.0,0.0,0.0,0.0,0.0,0.0,0.0,0.0,0.0,0.0,0.0,,,,,0.0,,,,,,
18,2335820,1744864735432,,,,,,,,,,,,,,,,,,,,,,,,,,,,,,,,,,0,0.0,0.0,0.0,0.0,0.0,0.0,0.0,0.0,0.0,0.0,0.0,0.0,0.0,0.0,0.0,,,,,,,,,,,
19,2335840,1744864735452,0.0,135.0,,-0.09,0.05,1.02,1.0,0.0,0.0,1.03,1.04,99.0,3850.0,7.1,3.88,,12.64,1.166,68.2,,32.8,5.0,0.0,0.0,0.0,0.0,0.0,0.0,0.0,0.0,2.26,,,0,0.0,0.0,0.0,0.0,0.0,0.0,0.0,0.0,0.0,0.0,0.0,0.0,0.0,0.0,0.0,0.0,,,,0.0,38.985832,-76.950859,0.22,36.0,3.0,0.8
20,2335860,1744864735472,,,,,,,,,,,,,,,,,,,,,,,,,,,,,,,,,,0,0.0,0.0,0.0,0.0,0.0,0.0,0.0,0.0,0.0,0.0,0.0,0.0,0.0,0.0,0.0,,,,,,,,,,,
21,2335880,1744864735491,0.0,135.0,,-0.09,0.08,1.04,0.0,0.0,1.0,1.05,1.05,100.0,3838.0,7.0,3.87,,12.73,1.167,68.2,,32.4,5.0,,,,,,,,,,,,0,0.0,0.0,0.0,0.0,0.0,0.0,0.0,0.0,0.0,0.0,0.0,0.0,0.0,0.0,0.0,,,,,0.0,,,,,,
22,2335900,1744864735511,,,,,,,,,,,,,,,,,,,,,,,,,,,,,,,,,,0,0.0,0.0,0.0,0.0,0.0,0.0,0.0,0.0,0.0,0.0,0.0,0.0,0.0,0.0,0.0,,,,,,,,,,,
23,2335920,1744864735531,0.0,135.0,,-0.09,0.07,1.05,1.0,0.0,1.0,1.05,1.05,100.0,3845.0,6.9,3.88,,12.65,1.17,68.2,,32.4,5.0,,,,,,,,,,,,0,0.0,0.0,0.0,0.0,0.0,0.0,0.0,0.0,0.0,0.0,0.0,0.0,0.0,0.0,0.0,,,,,0.0,,,,,,
24,2335940,1744864735551,,,,,,,,,,,,,,,,,,,,,,,0.0,0.0,0.0,0.0,0.0,0.0,0.0,0.0,2.26,,,0,0.0,0.0,0.0,0.0,0.0,0.0,0.0,0.0,0.0,0.0,0.0,0.0,0.0,0.0,0.0,0.0,,,,,38.985832,-76.950859,0.07,36.0,3.0,0.8
25,2335960,1744864735571,0.0,135.0,,-0.05,0.05,1.06,-2.0,0.0,1.0,1.07,1.07,100.0,3887.0,6.9,3.87,,12.65,1.17,68.2,,32.4,5.0,,,,,,,,,,,,0,0.0,0.0,0.0,0.0,0.0,0.0,0.0,0.0,0.0,0.0,0.0,0.0,0.0,0.0,0.0,,,,,0.0,,,,,,
26,2335980,1744864735591,,,,,,,,,,,,,,,,,,,,,,,,,,,,,,,,,,0,0.0,0.0,0.0,0.0,0.0,0.0,0.0,0.0,0.0,0.0,0.0,0.0,0.0,0.0,0.0,,,,,,,,,,,
27,2336000,1744864735611,0.0,135.0,,-0.05,0.03,1.05,-2.0,0.0,1.0,1.06,1.07,99.0,3803.0,6.9,3.87,,12.68,1.179,68.2,,32.7,5.0,,,,,,,,,,,,0,0.0,0.0,0.0,0.0,0.0,0.0,0.0,0.0,0.0,0.0,0.0,0.0,0.0,0.0,0.0,,,,,0.0,,,,,,
28,2336020,1744864735631,,,,,,,,,,,,,,,,,,,,,,,,,,,,,,,,,,0,0.0,0.0,0.0,0.0,0.0,0.0,0.0,0.0,0.0,0.0,0.0,0.0,0.0,0.0,0.0,,,,,,,,,,,
29,2336040,1744864735651,0.0,135.0,,-0.07,-0.0,1.02,-1.0,0.0,0.0,1.02,1.07,96.0,3803.0,6.9,3.87,,12.61,1.158,68.2,,32.7,5.0,0.0,0.0,0.0,0.0,0.0,0.0,0.0,0.0,2.26,,,0,0.0,0.0,0.0,0.0,0.0,0.0,0.0,0.0,0.0,0.0,0.0,0.0,0.0,0.0,0.0,0.0,,,,0.0,38.985832,-76.950859,0.05,36.0,3.0,0.8
30,2336060,1744864735671,,,,,,,,,,,,,,,,,,,,,,,,,,,,,,,,,,0,0.0,0.0,0.0,0.0,0.0,0.0,0.0,0.0,0.0,0.0,0.0,0.0,0.0,0.0,0.0,,,,,,,,,,,
31,2336080,1744864735691,0.0,135.0,,-0.09,-0.02,0.98,-1.0,0.0,0.0,0.98,1.07,92.0,3860.0,6.9,3.87,,12.64,1.153,68.2,,32.9,5.0,,,,,,,,,,,,0,0.0,0.0,0.0,0.0,0.0,0.0,0.0,0.0,0.0,0.0,0.0,0.0,0.0,0.0,0.0,,,,,0.0,,,,,,
32,2336100,1744864735709,,,,,,,,,,,,,,,,,,,,,,,,,,,,,,,,,,0,0.0,0.0,0.0,0.0,0.0,0.0,0.0,0.0,0.0,0.0,0.0,0.0,0.0,0.0,0.0,,,,,,,,,,,
33,2336120,1744864735729,0.0,135.0,,-0.08,0.01,0.99,0.0,0.0,0.0,1.0,1.07,93.0,3892.0,6.9,3.87,,12.71,1.157,68.2,,32.9,5.0,,,,,,,,,,,,0,0.0,0.0,0.0,0.0,0.0,0.0,0.0,0.0,0.0,0.0,0.0,0.0,0.0,0.0,0.0,,,,,0.0,,,,,,
34,2336140,1744864735749,,,,,,,,,,,,,,,,,,,,,,,0.0,0.0,0.0,0.0,0.0,0.0,0.0,0.0,2.26,,,0,0.0,0.0,0.0,0.0,0.0,0.0,0.0,0.0,0.0,0.0,0.0,0.0,0.0,0.0,0.0,0.0,,,,,38.985832,-76.950859,0.04,36.0,3.0,0.8
35,2336160,1744864735769,0.0,135.0,,-0.06,0.07,1.01,0.0,0.0,0.0,1.02,1.07,96.0,3841.0,7.1,3.87,,12.65,1.161,68.2,,32.9,5.0,,,,,,,,,,,,0,0.0,0.0,0.0,0.0,0.0,0.0,0.0,0.0,0.0,0.0,0.0,0.0,0.0,0.0,0.0,,,,,0.0,,,,,,
36,2336180,1744864735789,,,,,,,,,,,,,,,,,,,,,,,,,,,,,,,,,,0,0.0,0.0,0.0,0.0,0.0,0.0,0.0,0.0,0.0,0.0,0.0,0.0,0.0,0.0,0.0,,,,,,,,,,,
37,2336200,1744864735809,0.0,135.0,,-0.05,0.09,1.02,-1.0,0.0,0.0,1.03,1.07,96.0,3831.0,7.2,3.87,,12.65,1.161,68.2,,32.7,5.0,,,,,,,,,,,,0,0.0,0.0,0.0,0.0,0.0,0.0,0.0,0.0,0.0,0.0,0.0,0.0,0.0,0.0,0.0,,,,,0.0,,,,,,
38,2336220,1744864735829,,,,,,,,,,,,,,,,,,,,,,,,,,,,,,,,,,0,0.0,0.0,0.0,0.0,0.0,0.0,0.0,0.0,0.0,0.0,0.0,0.0,0.0,0.0,0.0,,,,,,,,,,,
39,2336240,1744864735849,0.0,135.0,13.59,-0.05,0.08,1.03,-1.0,0.0,1.0,1.03,1.07,97.0,3831.0,7.2,3.87,15.0,12.65,1.161,68.2,155.0,32.7,5.0,0.0,0.0,0.0,0.0,0.0,0.0,0.0,0.0,2.26,0.0,0.0,0,0.0,0.0,0.0,0.0,0.0,0.0,0.0,0.0,0.0,0.0,0.0,0.0,0.0,0.0,0.0,0.0,0.0,0.0,0.0,0.0,38.985832,-76.950859,0.04,36.0,3.0,0.8
40,2336260,1744864735869,,,,,,,,,,,,,,,,,,,,,,,,,,,,,,,,,,0,0.0,0.0,0.0,0.0,0.0,0.0,0.0,0.0,0.0,0.0,0.0,0.0,0.0,0.0,0.0,,,,,,,,,,,
41,2336280,1744864735891,0.0,135.0,,-0.06,-0.02,1.03,0.0,0.0,0.0,1.03,1.07,97.0,3819.0,7.2,3.87,,12.64,1.154,68.2,,32.3,5.0,,,,,,,,,,,,0,0.0,0.0,0.0,0.0,0.0,0.0,0.0,0.0,0.0,0.0,0.0,0.0,0.0,0.0,0.0,,,,,0.0,,,,,,
42,2336300,1744864735911,,,,,,,,,,,,,,,,,,,,,,,,,,,,,,,,,,0,0.0,0.0,0.0,0.0,0.0,0.0,0.0,0.0,0.0,0.0,0.0,0.0,0.0,0.0,0.0,,,,,,,,,,,
43,2336320,1744864735931,0.0,135.0,,-0.08,-0.08,1.02,0.0,0.0,0.0,1.03,1.07,96.0,3857.0,7.1,3.88,,12.63,1.154,68.2,,32.3,5.0,,,,,,,,,,,,0,0.0,0.0,0.0,0.0,0.0,0.0,0.0,0.0,0.0,0.0,0.0,0.0,0.0,0.0,0.0,,,,,0.0,,,,,,
44,2336340,1744864735951,,,,,,,,,,,,,,,,,,,,,,,0.0,0.0,0.0,0.0,0.0,0.0,0.0,0.0,2.26,,,0,0.0,0.0,0.0,0.0,0.0,0.0,0.0,0.0,0.0,0.0,0.0,0.0,0.0,0.0,0.0,0.0,,,,,38.985832,-76.950859,0.07,36.0,3.0,0.8
45,2336360,1744864735971,0.0,135.0,,-0.1,-0.07,0.99,0.0,0.0,0.0,1.0,1.07,94.0,3898.0,7.0,3.87,,12.63,1.159,68.2,,32.3,5.0,,,,,,,,,,,,0,0.0,0.0,0.0,0.0,0.0,0.0,0.0,0.0,0.0,0.0,0.0,0.0,0.0,0.0,0.0,,,,,0.0,,,,,,
46,2336380,1744864735991,,,,,,,,,,,,,,,,,,,,,,,,,,,,,,,,,,0,0.0,0.0,0.0,0.0,0.0,0.0,0.0,0.0,0.0,0.0,0.0,0.0,0.0,0.0,0.0,,,,,,,,,,,
47,2336400,1744864735999,0.0,135.0,,-0.1,-0.07,0.99,1.0,0.0,0.0,1.0,1.07,94.0,3847.0,6.9,3.87,,12.63,1.159,68.2,,32.6,5.0,,,,,,,,,,,,0,0.0,0.0,0.0,0.0,0.0,0.0,0.0,0.0,0.0,0.0,0.0,0.0,0.0,0.0,0.0,,,,,0.0,,,,,,
48,2336420,1744864736019,,,,,,,,,,,,,,,,,,,,,,,,,,,,,,,,,,0,0.0,0.0,0.0,0.0,0.0,0.0,0.0,0.0,0.0,0.0,0.0,0.0,0.0,0.0,0.0,,,,,,,,,,,
49,2336440,1744864736039,0.0,135.0,,-0.08,-0.03,1.0,1.0,0.0,0.0,1.01,1.07,94.0,3847.0,6.9,3.87,,12.59,1.165,68.2,,32.6,5.0,0.0,0.0,0.0,0.0,0.0,0.0,0.0,0.0,2.27,,,0,0.0,0.0,0.0,0.0,0.0,0.0,0.0,0.0,0.0,0.0,0.0,0.0,0.0,0.0,0.0,0.0,,,,0.0,38.985832,-76.950859,0.18,37.0,3.0,0.8
50,2336460,1744864736059,,,,,,,,,,,,,,,,,,,,,,,,,,,,,,,,,,0,0.0,0.0,0.0,0.0,0.0,0.0,0.0,0.0,0.0,0.0,0.0,0.0,0.0,0.0,0.0,,,,,,,,,,,
51,2336480,1744864736079,0.0,135.0,,-0.06,0.01,1.01,0.0,0.0,0.0,1.01,1.07,95.0,3870.0,6.9,3.87,,12.69,1.174,68.2,,32.5,5.0,,,,,,,,,,,,0,0.0,0.0,0.0,0.0,0.0,0.0,0.0,0.0,0.0,0.0,0.0,0.0,0.0,0.0,0.0,,,,,0.0,,,,,,
52,2336500,1744864736105,,,,,,,,,,,,,,,,,,,,,,,,,,,,,,,,,,0,0.0,0.0,0.0,0.0,0.0,0.0,0.0,0.0,0.0,0.0,0.0,0.0,0.0,0.0,0.0,,,,,,,,,,,
53,2336520,1744864736125,0.0,135.0,,-0.06,0.03,1.01,-1.0,0.0,1.0,1.01,1.07,95.0,3799.0,6.9,3.87,,12.68,1.163,68.2,,32.5,5.0,,,,,,,,,,,,0,0.0,0.0,0.0,0.0,0.0,0.0,0.0,0.0,0.0,0.0,0.0,0.0,0.0,0.0,0.0,,,,,0.0,,,,,,
54,2336540,1744864736145,,,,,,,,,,,,,,,,,,,,,,,0.0,0.0,0.0,0.0,0.0,0.0,0.0,0.0,2.26,,,0,0.0,0.0,0.0,0.0,0.0,0.0,0.0,0.0,0.0,0.0,0.0,0.0,0.0,0.0,0.0,0.0,,,,,38.985832,-76.950859,0.16,37.0,3.0,0.8
55,2336560,1744864736165,0.0,135.0,,-0.07,0.0,0.99,0.0,0.0,0.0,1.0,1.07,93.0,3811.0,6.9,3.87,,12.68,1.158,68.2,,32.5,5.0,,,,,,,,,,,,0,0.0,0.0,0.0,0.0,0.0,0.0,0.0,0.0,0.0,0.0,0.0,0.0,0.0,0.0,0.0,,,,,0.0,,,,,,
56,2336580,1744864736185,,,,,,,,,,,,,,,,,,,,,,,,,,,,,,,,,,0,0.0,0.0,0.0,0.0,0.0,0.0,0.0,0.0,0.0,0.0,0.0,0.0,0.0,0.0,0.0,,,,,,,,,,,
57,2336600,1744864736205,0.0,135.0,,-0.07,-0.02,1.01,0.0,0.0,1.0,1.01,1.07,95.0,3811.0,6.9,3.87,,12.68,1.158,68.2,,32.1,5.0,,,,,,,,,,,,0,0.0,0.0,0.0,0.0,0.0,0.0,0.0,0.0,0.0,0.0,0.0,0.0,0.0,0.0,0.0,,,,,0.0,,,,,,
58,2336620,1744864736225,,,,,,,,,,,,,,,,,,,,,,,,,,,,,,,,,,0,0.0,0.0,0.0,0.0,0.0,0.0,0.0,0.0,0.0,0.0,0.0,0.0,0.0,0.0,0.0,,,,,,,,,,,
59,2336640,1744864736245,0.0,135.0,,-0.07,-0.03,1.04,0.0,0.0,0.0,1.04,1.07,98.0,3785.0,6.9,3.87,,12.76,1.168,68.2,,32.1,5.0,0.0,0.0,0.0,0.0,0.0,0.0,0.0,0.0,2.26,,,0,0.0,0.0,0.0,0.0,0.0,0.0,0.0,0.0,0.0,0.0,0.0,0.0,0.0,0.0,0.0,0.0,,,,0.0,38.985832,-76.950859,0.11,37.0,3.0,0.8
60,2336660,1744864736265,,,,,,,,,,,,,,,,,,,,,,,,,,,,,,,,,,0,0.0,0.0,0.0,0.0,0.0,0.0,0.0,0.0,0.0,0.0,0.0,0.0,0.0,0.0,0.0,,,,,,,,,,,
61,2336680,1744864736285,0.0,135.0,,-0.07,-0.03,1.05,0.0,0.0,1.0,1.05,1.07,99.0,3801.0,7.0,3.87,,12.65,1.157,68.2,,32.1,5.0,,,,,,,,,,,,0,0.0,0.0,0.0,0.0,0.0,0.0,0.0,0.0,0.0,0.0,0.0,0.0,0.0,0.0,0.0,,,,,0.0,,,,,,
62,2336700,1744864736309,,,,,,,,,,,,,,,,,,,,,,,,,,,,,,,,,,0,0.0,0.0,0.0,0.0,0.0,0.0,0.0,0.0,0.0,0.0,0.0,0.0,0.0,0.0,0.0,,,,,,,,,,,
63,2336720,1744864736329,0.0,135.0,,-0.07,-0.05,1.03,0.0,0.0,0.0,1.03,1.07,97.0,3849.0,7.2,3.87,,12.71,1.16,68.2,,32.2,5.0,,,,,,,,,,,,0,0.0,0.0,0.0,0.0,0.0,0.0,0.0,0.0,0.0,0.0,0.0,0.0,0.0,0.0,0.0,,,,,0.0,,,,,,
64,2336740,1744864736349,,,,,,,,,,,,,,,,,,,,,,,0.0,0.0,0.0,0.0,0.0,0.0,0.0,0.0,2.26,,,0,0.0,0.0,0.0,0.0,0.0,0.0,0.0,0.0,0.0,0.0,0.0,0.0,0.0,0.0,0.0,0.0,,,,,38.985832,-76.950859,0.12,37.0,3.0,0.8
65,2336760,1744864736369,0.0,135.0,,-0.02,0.12,1.04,-1.0,0.0,1.0,1.05,1.07,98.0,3817.0,7.2,3.87,,12.73,1.151,68.2,,32.2,5.0,,,,,,,,,,,,0,0.0,0.0,0.0,0.0,0.0,0.0,0.0,0.0,0.0,0.0,0.0,0.0,0.0,0.0,0.0,,,,,0.0,,,,,,
66,2336780,1744864736389,,,,,,,,,,,,,,,,,,,,,,,,,,,,,,,,,,0,0.0,0.0,0.0,0.0,0.0,0.0,0.0,0.0,0.0,0.0,0.0,0.0,0.0,0.0,0.0,,,,,,,,,,,
67,2336800,1744864736409,0.0,135.0,,-0.04,0.08,1.01,0.0,0.0,1.0,1.02,1.07,95.0,3854.0,7.2,3.89,,12.73,1.151,68.2,,32.1,5.0,,,,,,,,,,,,0,0.0,0.0,0.0,0.0,0.0,0.0,0.0,0.0,0.0,0.0,0.0,0.0,0.0,0.0,0.0,,,,,0.0,,,,,,
68,2336820,1744864736429,,,,,,,,,,,,,,,,,,,,,,,,,,,,,,,,,,0,0.0,0.0,0.0,0.0,0.0,0.0,0.0,0.0,0.0,0.0,0.0,0.0,0.0,0.0,0.0,,,,,,,,,,,
69,2336840,1744864736449,0.0,135.0,,-0.04,0.1,1.04,0.0,0.0,1.0,1.04,1.07,98.0,3854.0,7.2,3.89,,12.65,1.141,68.2,,32.1,5.0,0.0,0.0,0.0,0.0,0.0,0.0,0.0,0.0,2.26,,,0,0.0,0.0,0.0,0.0,0.0,0.0,0.0,0.0,0.0,0.0,0.0,0.0,0.0,0.0,0.0,0.0,,,,0.0,38.985832,-76.950859,0.08,37.0,3.0,0.8
70,2336860,1744864736469,,,,,,,,,,,,,,,,,,,,,,,,,,,,,,,,,,0,0.0,0.0,0.0,0.0,0.0,0.0,0.0,0.0,0.0,0.0,0.0,0.0,0.0,0.0,0.0,,,,,,,,,,,
71,2336880,1744864736489,0.0,135.0,,-0.03,0.09,1.04,0.0,0.0,1.0,1.05,1.07,98.0,3798.0,7.0,3.88,,12.73,1.155,68.2,,31.6,5.0,,,,,,,,,,,,0,0.0,0.0,0.0,0.0,0.0,0.0,0.0,0.0,0.0,0.0,0.0,0.0,0.0,0.0,0.0,,,,,0.0,,,,,,
72,2336900,1744864736510,,,,,,,,,,,,,,,,,,,,,,,,,,,,,,,,,,0,0.0,0.0,0.0,0.0,0.0,0.0,0.0,0.0,0.0,0.0,0.0,0.0,0.0,0.0,0.0,,,,,,,,,,,
73,2336920,1744864736530,0.0,135.0,,-0.02,0.1,1.04,0.0,0.0,1.0,1.05,1.07,98.0,3739.0,6.9,3.87,,12.72,1.182,68.2,,31.6,5.0,,,,,,,,,,,,0,0.0,0.0,0.0,0.0,0.0,0.0,0.0,0.0,0.0,0.0,0.0,0.0,0.0,0.0,0.0,,,,,0.0,,,,,,
74,2336940,1744864736550,,,,,,,,,,,,,,,,,,,,,,,0.0,0.0,0.0,0.0,0.0,0.0,0.0,0.0,2.27,,,0,0.0,0.0,0.0,0.0,0.0,0.0,0.0,0.0,0.0,0.0,0.0,0.0,0.0,0.0,0.0,0.0,,,,,38.985832,-76.950859,0.08,37.0,3.0,0.8
75,2336960,1744864736570,0.0,135.0,,-0.01,0.1,1.03,0.0,0.0,0.0,1.03,1.07,97.0,3804.0,6.9,3.88,,12.75,1.159,68.2,,31.6,5.0,,,,,,,,,,,,0,0.0,0.0,0.0,0.0,0.0,0.0,0.0,0.0,0.0,0.0,0.0,0.0,0.0,0.0,0.0,,,,,0.0,,,,,,
76,2336980,1744864736590,,,,,,,,,,,,,,,,,,,,,,,,,,,,,,,,,,0,0.0,0.0,0.0,0.0,0.0,0.0,0.0,0.0,0.0,0.0,0.0,0.0,0.0,0.0,0.0,,,,,,,,,,,
77,2337000,1744864736610,0.0,135.0,,-0.02,0.1,1.01,0.0,0.0,1.0,1.02,1.07,95.0,3788.0,6.9,3.88,,12.75,1.159,68.2,,31.9,5.0,,,,,,,,,,,,0,0.0,0.0,0.0,0.0,0.0,0.0,0.0,0.0,0.0,0.0,0.0,0.0,0.0,0.0,0.0,,,,,0.0,,,,,,
78,2337020,1744864736630,,,,,,,,,,,,,,,,,,,,,,,,,,,,,,,,,,0,0.0,0.0,0.0,0.0,0.0,0.0,0.0,0.0,0.0,0.0,0.0,0.0,0.0,0.0,0.0,,,,,,,,,,,
79,2337040,1744864736650,0.0,135.0,,-0.02,0.13,1.02,-1.0,0.0,1.0,1.03,1.07,97.0,3788.0,6.9,3.88,,12.72,1.157,68.2,,31.9,5.0,0.0,0.0,0.0,0.0,0.0,0.0,0.0,0.0,2.27,,,0,0.0,0.0,0.0,0.0,0.0,0.0,0.0,0.0,0.0,0.0,0.0,0.0,0.0,0.0,0.0,0.0,,,,0.0,38.985832,-76.950859,0.05,37.0,3.0,0.8
80,2337060,1744864736670,,,,,,,,,,,,,,,,,,,,,,,,,,,,,,,,,,0,0.0,0.0,0.0,0.0,0.0,0.0,0.0,0.0,0.0,0.0,0.0,0.0,0.0,0.0,0.0,,,,,,,,,,,
81,2337080,1744864736690,0.0,135.0,,-0.03,0.1,1.03,-1.0,0.0,1.0,1.03,1.07,97.0,3840.0,6.9,3.87,,12.69,1.171,68.2,,31.6,5.0,,,,,,,,,,,,0,0.0,0.0,0.0,0.0,0.0,0.0,0.0,0.0,0.0,0.0,0.0,0.0,0.0,0.0,0.0,,,,,0.0,,,,,,
82,2337100,1744864736710,,,,,,,,,,,,,,,,,,,,,,,,,,,,,,,,,,0,0.0,0.0,0.0,0.0,0.0,0.0,0.0,0.0,0.0,0.0,0.0,0.0,0.0,0.0,0.0,,,,,,,,,,,
83,2337120,1744864736730,0.0,135.0,,-0.03,0.09,1.04,-1.0,0.0,1.0,1.04,1.07,98.0,3764.0,6.9,3.87,,12.72,1.169,68.2,,31.6,5.0,,,,,,,,,,,,0,0.0,0.0,0.0,0.0,0.0,0.0,0.0,0.0,0.0,0.0,0.0,0.0,0.0,0.0,0.0,,,,,0.0,,,,,,
84,2337140,1744864736750,,,,,,,,,,,,,,,,,,,,,,,0.0,0.0,0.0,0.0,0.0,0.0,0.0,0.0,2.26,,,0,0.0,0.0,0.0,0.0,0.0,0.0,0.0,0.0,0.0,0.0,0.0,0.0,0.0,0.0,0.0,0.0,,,,,38.985832,-76.950859,0.15,37.0,3.0,0.8
85,2337160,1744864736770,0.0,135.0,,-0.04,0.08,1.04,0.0,0.0,1.0,1.04,1.07,97.0,3815.0,7.1,3.88,,12.73,1.159,68.2,,31.6,5.0,,,,,,,,,,,,0,0.0,0.0,0.0,0.0,0.0,0.0,0.0,0.0,0.0,0.0,0.0,0.0,0.0,0.0,0.0,,,,,0.0,,,,,,
86,2337180,1744864736790,,,,,,,,,,,,,,,,,,,,,,,,,,,,,,,,,,0,0.0,0.0,0.0,0.0,0.0,0.0,0.0,0.0,0.0,0.0,0.0,0.0,0.0,0.0,0.0,,,,,,,,,,,
87,2337200,1744864736810,0.0,135.0,,-0.05,0.04,1.04,0.0,0.0,1.0,1.04,1.07,97.0,3815.0,7.1,3.88,,12.73,1.159,68.2,,31.9,5.0,,,,,,,,,,,,0,0.0,0.0,0.0,0.0,0.0,0.0,0.0,0.0,0.0,0.0,0.0,0.0,0.0,0.0,0.0,,,,,0.0,,,,,,
88,2337220,1744864736830,,,,,,,,,,,,,,,,,,,,,,,,,,,,,,,,,,0,0.0,0.0,0.0,0.0,0.0,0.0,0.0,0.0,0.0,0.0,0.0,0.0,0.0,0.0,0.0,,,,,,,,,,,
89,2337240,1744864736850,0.0,135.0,13.67,-0.06,0.04,1.05,0.0,0.0,0.0,1.05,1.07,99.0,3842.0,7.1,3.89,15.0,12.68,1.142,68.2,153.0,31.9,5.0,0.0,0.0,0.0,0.0,0.0,0.0,0.0,0.0,2.26,0.0,0.0,0,0.0,0.0,0.0,0.0,0.0,0.0,0.0,0.0,0.0,0.0,0.0,0.0,0.0,0.0,0.0,0.0,0.0,0.0,0.0,0.0,38.985832,-76.950859,0.05,37.0,3.0,0.8
90,2337260,1744864736870,,,,,,,,,,,,,,,,,,,,,,,,,,,,,,,,,,0,0.0,0.0,0.0,0.0,0.0,0.0,0.0,0.0,0.0,0.0,0.0,0.0,0.0,0.0,0.0,,,,,,,,,,,
91,2337280,1744864736890,0.0,135.0,,-0.07,-0.0,1.03,0.0,0.0,0.0,1.04,1.07,97.0,3789.0,7.2,3.87,,12.72,1.149,68.2,,31.9,5.0,,,,,,,,,,,,0,0.0,0.0,0.0,0.0,0.0,0.0,0.0,0.0,0.0,0.0,0.0,0.0,0.0,0.0,0.0,,,,,0.0,,,,,,
92,2337300,1744864736910,,,,,,,,,,,,,,,,,,,,,,,,,,,,,,,,,,0,0.0,0.0,0.0,0.0,0.0,0.0,0.0,0.0,0.0,0.0,0.0,0.0,0.0,0.0,0.0,,,,,,,,,,,
93,2337320,1744864736930,0.0,135.0,,-0.07,-0.04,1.01,0.0,0.0,0.0,1.01,1.07,95.0,3847.0,7.2,3.89,,12.72,1.155,68.2,,31.9,5.0,,,,,,,,,,,,0,0.0,0.0,0.0,0.0,0.0,0.0,0.0,0.0,0.0,0.0,0.0,0.0,0.0,0.0,0.0,,,,,0.0,,,,,,
94,2337340,1744864736950,,,,,,,,,,,,,,,,,,,,,,,0.0,0.0,0.0,0.0,0.0,0.0,0.0,0.0,2.26,,,0,0.0,0.0,0.0,0.0,0.0,0.0,0.0,0.0,0.0,0.0,0.0,0.0,0.0,0.0,0.0,0.0,,,,,38.985832,-76.950859,0.11,37.0,3.0,0.8
95,2337360,1744864736970,0.0,135.0,,-0.06,-0.01,0.99,0.0,0.0,0.0,0.99,1.07,93.0,3824.0,7.1,3.89,,12.64,1.156,68.2,,31.9,5.0,,,,,,,,,,,,0,0.0,0.0,0.0,0.0,0.0,0.0,0.0,0.0,0.0,0.0,0.0,0.0,0.0,0.0,0.0,,,,,0.0,,,,,,
96,2337380,1744864736990,,,,,,,,,,,,,,,,,,,,,,,,,,,,,,,,,,0,0.0,0.0,0.0,0.0,0.0,0.0,0.0,0.0,0.0,0.0,0.0,0.0,0.0,0.0,0.0,,,,,,,,,,,
97,2337400,1744864737000,0.0,135.0,,-0.05,0.01,0.98,1.0,0.0,0.0,0.98,1.07,92.0,3876.0,7.0,3.89,,12.64,1.156,68.2,,31.9,5.0,,,,,,,,,,,,0,0.0,0.0,0.0,0.0,0.0,0.0,0.0,0.0,0.0,0.0,0.0,0.0,0.0,0.0,0.0,,,,,0.0,,,,,,
98,2337420,1744864737020,,,,,,,,,,,,,,,,,,,,,,,,,,,,,,,,,,0,0.0,0.0,0.0,0.0,0.0,0.0,0.0,0.0,0.0,0.0,0.0,0.0,0.0,0.0,0.0,,,,,,,,,,,
99,2337440,1744864737040,0.0,135.0,,-0.05,0.05,0.98,0.0,0.0,0.0,0.99,1.07,92.0,3876.0,7.0,3.89,,12.65,1.156,68.2,,31.9,5.0,0.0,0.0,0.0,0.0,0.0,0.0,0.0,0.0,2.27,,,0,0.0,0.0,0.0,0.0,0.0,0.0,0.0,0.0,0.0,0.0,0.0,0.0,0.0,0.0,0.0,0.0,,,,0.0,38.985832,-76.950859,0.11,36.0,3.0,0.8
100,2337460,1744864737060,,,,,,,,,,,,,,,,,,,,,,,,,,,,,,,,,,0,0.0,0.0,0.0,0.0,0.0,0.0,0.0,0.0,0.0,0.0,0.0,0.0,0.0,0.0,0.0,,,,,,,,,,,
101,2337480,1744864737080,0.0,135.0,,-0.06,0.09,1.02,-1.0,0.0,1.0,1.02,1.07,96.0,3871.0,6.9,3.88,,12.68,1.152,68.2,,31.9,5.0,,,,,,,,,,,,0,0.0,0.0,0.0,0.0,0.0,0.0,0.0,0.0,0.0,0.0,0.0,0.0,0.0,0.0,0.0,,,,,0.0,,,,,,
102,2337500,1744864737102,,,,,,,,,,,,,,,,,,,,,,,,,,,,,,,,,,0,0.0,0.0,0.0,0.0,0.0,0.0,0.0,0.0,0.0,0.0,0.0,0.0,0.0,0.0,0.0,,,,,,,,,,,
103,2337520,1744864737122,0.0,135.0,,-0.07,0.03,1.05,0.0,0.0,0.0,1.06,1.07,99.0,3835.0,6.9,3.88,,12.69,1.15,68.2,,31.7,5.0,,,,,,,,,,,,0,0.0,0.0,0.0,0.0,0.0,0.0,0.0,0.0,0.0,0.0,0.0,0.0,0.0,0.0,0.0,,,,,0.0,,,,,,
104,2337540,1744864737142,,,,,,,,,,,,,,,,,,,,,,,0.0,0.0,0.0,0.0,0.0,0.0,0.0,0.0,2.26,,,0,0.0,0.0,0.0,0.0,0.0,0.0,0.0,0.0,0.0,0.0,0.0,0.0,0.0,0.0,0.0,0.0,,,,,38.985832,-76.950859,0.04,36.0,3.0,0.8
105,2337560,1744864737162,0.0,135.0,,-0.07,-0.02,1.04,0.0,0.0,0.0,1.05,1.07,98.0,3888.0,6.9,3.88,,12.67,1.162,68.2,,31.7,5.0,,,,,,,,,,,,0,0.0,0.0,0.0,0.0,0.0,0.0,0.0,0.0,0.0,0.0,0.0,0.0,0.0,0.0,0.0,,,,,0.0,,,,,,
106,2337580,1744864737182,,,,,,,,,,,,,,,,,,,,,,,,,,,,,,,,,,0,0.0,0.0,0.0,0.0,0.0,0.0,0.0,0.0,0.0,0.0,0.0,0.0,0.0,0.0,0.0,,,,,,,,,,,
107,2337600,1744864737210,0.0,135.0,,-0.08,-0.04,1.01,0.0,0.0,0.0,1.01,1.07,95.0,3857.0,6.8,3.88,,12.67,1.162,68.2,,32.3,5.0,,,,,,,,,,,,0,0.0,0.0,0.0,0.0,0.0,0.0,0.0,0.0,0.0,0.0,0.0,0.0,0.0,0.0,0.0,,,,,0.0,,,,,,
108,2337620,1744864737230,,,,,,,,,,,,,,,,,,,,,,,,,,,,,,,,,,0,0.0,0.0,0.0,0.0,0.0,0.0,0.0,0.0,0.0,0.0,0.0,0.0,0.0,0.0,0.0,,,,,,,,,,,
109,2337640,1744864737250,0.0,135.0,,-0.07,0.0,1.0,0.0,0.0,0.0,1.0,1.07,94.0,3857.0,6.8,3.88,,12.71,1.154,68.2,,32.3,5.0,0.0,0.0,0.0,0.0,0.0,0.0,0.0,0.0,2.26,,,0,0.0,0.0,0.0,0.0,0.0,0.0,0.0,0.0,0.0,0.0,0.0,0.0,0.0,0.0,0.0,0.0,,,,0.0,38.985832,-76.950859,0.07,36.0,3.0,0.8
110,2337660,1744864737270,,,,,,,,,,,,,,,,,,,,,,,,,,,,,,,,,,0,0.0,0.0,0.0,0.0,0.0,0.0,0.0,0.0,0.0,0.0,0.0,0.0,0.0,0.0,0.0,,,,,,,,,,,
111,2337680,1744864737290,0.0,135.0,,-0.07,-0.0,0.98,0.0,0.0,0.0,0.99,1.07,92.0,3834.0,6.9,3.88,,12.69,1.161,68.2,,32.1,5.0,,,,,,,,,,,,0,0.0,0.0,0.0,0.0,0.0,0.0,0.0,0.0,0.0,0.0,0.0,0.0,0.0,0.0,0.0,,,,,0.0,,,,,,
112,2337700,1744864737310,,,,,,,,,,,,,,,,,,,,,,,,,,,,,,,,,,0,0.0,0.0,0.0,0.0,0.0,0.0,0.0,0.0,0.0,0.0,0.0,0.0,0.0,0.0,0.0,,,,,,,,,,,
113,2337720,1744864737330,0.0,135.0,,-0.06,0.05,0.99,0.0,0.0,0.0,0.99,1.07,93.0,3852.0,7.1,3.89,,12.65,1.157,68.2,,32.1,5.0,,,,,,,,,,,,0,0.0,0.0,0.0,0.0,0.0,0.0,0.0,0.0,0.0,0.0,0.0,0.0,0.0,0.0,0.0,,,,,0.0,,,,,,
114,2337740,1744864737350,,,,,,,,,,,,,,,,,,,,,,,0.0,0.0,0.0,0.0,0.0,0.0,0.0,0.0,2.26,,,0,0.0,0.0,0.0,0.0,0.0,0.0,0.0,0.0,0.0,0.0,0.0,0.0,0.0,0.0,0.0,0.0,,,,,38.985832,-76.950859,0.05,36.0,3.0,0.8
115,2337760,1744864737370,0.0,135.0,,-0.08,0.03,0.98,0.0,0.0,0.0,0.99,1.07,92.0,3805.0,7.1,3.88,,12.61,1.145,68.2,,32.1,5.0,,,,,,,,,,,,0,0.0,0.0,0.0,0.0,0.0,0.0,0.0,0.0,0.0,0.0,0.0,0.0,0.0,0.0,0.0,,,,,0.0,,,,,,
116,2337780,1744864737390,,,,,,,,,,,,,,,,,,,,,,,,,,,,,,,,,,0,0.0,0.0,0.0,0.0,0.0,0.0,0.0,0.0,0.0,0.0,0.0,0.0,0.0,0.0,0.0,,,,,,,,,,,
117,2337800,1744864737410,0.0,135.0,,-0.08,0.01,0.99,0.0,0.0,0.0,0.99,1.07,93.0,3827.0,7.1,3.88,,12.61,1.145,68.2,,31.5,5.0,,,,,,,,,,,,0,0.0,0.0,0.0,0.0,0.0,0.0,0.0,0.0,0.0,0.0,0.0,0.0,0.0,0.0,0.0,,,,,0.0,,,,,,
118,2337820,1744864737430,,,,,,,,,,,,,,,,,,,,,,,,,,,,,,,,,,0,0.0,0.0,0.0,0.0,0.0,0.0,0.0,0.0,0.0,0.0,0.0,0.0,0.0,0.0,0.0,,,,,,,,,,,
119,2337840,1744864737450,0.0,135.0,,-0.07,0.0,0.99,0.0,0.0,0.0,1.0,1.07,93.0,3827.0,7.1,3.88,,12.68,1.141,68.2,,31.5,5.0,0.0,0.0,0.0,0.0,0.0,0.0,0.0,0.0,2.26,,,0,0.0,0.0,0.0,0.0,0.0,0.0,0.0,0.0,0.0,0.0,0.0,0.0,0.0,0.0,0.0,0.0,,,,0.0,38.985832,-76.950859,0.0,36.0,3.0,0.8
120,2337860,1744864737470,,,,,,,,,,,,,,,,,,,,,,,,,,,,,,,,,,0,0.0,0.0,0.0,0.0,0.0,0.0,0.0,0.0,0.0,0.0,0.0,0.0,0.0,0.0,0.0,,,,,,,,,,,
121,2337880,1744864737490,0.0,135.0,,-0.08,0.01,0.99,0.0,0.0,0.0,0.99,1.07,93.0,3746.0,7.1,3.89,,12.67,1.142,68.2,,31.2,5.0,,,,,,,,,,,,0,0.0,0.0,0.0,0.0,0.0,0.0,0.0,0.0,0.0,0.0,0.0,0.0,0.0,0.0,0.0,,,,,0.0,,,,,,
122,2337900,1744864737509,,,,,,,,,,,,,,,,,,,,,,,,,,,,,,,,,,0,0.0,0.0,0.0,0.0,0.0,0.0,0.0,0.0,0.0,0.0,0.0,0.0,0.0,0.0,0.0,,,,,,,,,,,
123,2337920,1744864737529,0.0,135.0,,-0.08,0.01,1.0,0.0,0.0,0.0,1.0,1.07,94.0,3783.0,7.0,3.9,,12.67,1.142,68.2,,31.2,5.0,,,,,,,,,,,,0,0.0,0.0,0.0,0.0,0.0,0.0,0.0,0.0,0.0,0.0,0.0,0.0,0.0,0.0,0.0,,,,,0.0,,,,,,
124,2337940,1744864737549,,,,,,,,,,,,,,,,,,,,,,,0.0,0.0,0.0,0.0,0.0,0.0,0.0,0.0,2.27,,,0,0.0,0.0,0.0,0.0,0.0,0.0,0.0,0.0,0.0,0.0,0.0,0.0,0.0,0.0,0.0,0.0,,,,,38.985832,-76.950859,0.08,36.0,3.0,0.8
125,2337960,1744864737569,0.0,135.0,,-0.08,-0.0,1.03,0.0,0.0,0.0,1.03,1.07,97.0,3767.0,6.8,3.89,,12.75,1.145,68.2,,31.2,5.0,,,,,,,,,,,,0,0.0,0.0,0.0,0.0,0.0,0.0,0.0,0.0,0.0,0.0,0.0,0.0,0.0,0.0,0.0,,,,,0.0,,,,,,
126,2337980,1744864737589,,,,,,,,,,,,,,,,,,,,,,,,,,,,,,,,,,0,0.0,0.0,0.0,0.0,0.0,0.0,0.0,0.0,0.0,0.0,0.0,0.0,0.0,0.0,0.0,,,,,,,,,,,
127,2338000,1744864737609,0.0,135.0,,-0.08,-0.02,1.04,0.0,0.0,0.0,1.04,1.07,98.0,3767.0,6.8,3.89,,12.75,1.145,68.2,,31.4,5.0,,,,,,,,,,,,0,0.0,0.0,0.0,0.0,0.0,0.0,0.0,0.0,0.0,0.0,0.0,0.0,0.0,0.0,0.0,,,,,0.0,,,,,,
128,2338020,1744864737629,,,,,,,,,,,,,,,,,,,,,,,,,,,,,,,,,,0,0.0,0.0,0.0,0.0,0.0,0.0,0.0,0.0,0.0,0.0,0.0,0.0,0.0,0.0,0.0,,,,,,,,,,,
129,2338040,1744864737649,0.0,135.0,,-0.08,-0.06,1.02,0.0,0.0,0.0,1.02,1.07,96.0,3836.0,6.9,3.89,,12.64,1.155,68.2,,31.4,5.0,0.0,0.0,0.0,0.0,0.0,0.0,0.0,0.0,2.26,,,0,0.0,0.0,0.0,0.0,0.0,0.0,0.0,0.0,0.0,0.0,0.0,0.0,0.0,0.0,0.0,0.0,,,,0.0,38.985832,-76.950859,0.04,36.0,3.0,0.8
130,2338060,1744864737669,,,,,,,,,,,,,,,,,,,,,,,,,,,,,,,,,,0,0.0,0.0,0.0,0.0,0.0,0.0,0.0,0.0,0.0,0.0,0.0,0.0,0.0,0.0,0.0,,,,,,,,,,,
131,2338080,1744864737691,0.0,135.0,,-0.1,-0.06,0.99,0.0,0.0,0.0,0.99,1.07,93.0,3857.0,6.9,3.89,,12.67,1.159,68.2,,31.6,5.0,,,,,,,,,,,,0,0.0,0.0,0.0,0.0,0.0,0.0,0.0,0.0,0.0,0.0,0.0,0.0,0.0,0.0,0.0,,,,,0.0,,,,,,
132,2338100,1744864737711,,,,,,,,,,,,,,,,,,,,,,,,,,,,,,,,,,0,0.0,0.0,0.0,0.0,0.0,0.0,0.0,0.0,0.0,0.0,0.0,0.0,0.0,0.0,0.0,,,,,,,,,,,
133,2338120,1744864737731,0.0,135.0,,-0.11,-0.09,0.96,0.0,0.0,0.0,0.97,1.07,91.0,3803.0,6.9,3.88,,12.75,1.152,68.2,,31.6,5.0,,,,,,,,,,,,0,0.0,0.0,0.0,0.0,0.0,0.0,0.0,0.0,0.0,0.0,0.0,0.0,0.0,0.0,0.0,,,,,0.0,,,,,,
134,2338140,1744864737751,,,,,,,,,,,,,,,,,,,,,,,0.0,0.0,0.0,0.0,0.0,0.0,0.0,0.0,2.26,,,0,0.0,0.0,0.0,0.0,0.0,0.0,0.0,0.0,0.0,0.0,0.0,0.0,0.0,0.0,0.0,0.0,,,,,38.985832,-76.950859,0.04,36.0,3.0,0.8
135,2338160,1744864737771,0.0,135.0,,-0.1,-0.09,0.99,1.0,0.0,0.0,1.0,1.07,94.0,3790.0,6.9,3.88,,12.67,1.147,68.2,,31.6,5.0,,,,,,,,,,,,0,0.0,0.0,0.0,0.0,0.0,0.0,0.0,0.0,0.0,0.0,0.0,0.0,0.0,0.0,0.0,,,,,0.0,,,,,,
136,2338180,1744864737791,,,,,,,,,,,,,,,,,,,,,,,,,,,,,,,,,,0,0.0,0.0,0.0,0.0,0.0,0.0,0.0,0.0,0.0,0.0,0.0,0.0,0.0,0.0,0.0,,,,,,,,,,,
137,2338200,1744864737809,0.0,135.0,,-0.1,-0.09,1.0,1.0,0.0,0.0,1.01,1.07,95.0,3729.0,7.0,3.89,,12.67,1.147,68.2,,31.2,5.0,,,,,,,,,,,,0,0.0,0.0,0.0,0.0,0.0,0.0,0.0,0.0,0.0,0.0,0.0,0.0,0.0,0.0,0.0,,,,,0.0,,,,,,
138,2338220,1744864737829,,,,,,,,,,,,,,,,,,,,,,,,,,,,,,,,,,0,0.0,0.0,0.0,0.0,0.0,0.0,0.0,0.0,0.0,0.0,0.0,0.0,0.0,0.0,0.0,,,,,,,,,,,
139,2338240,1744864737849,0.0,135.0,13.69,-0.09,-0.07,1.0,1.0,0.0,0.0,1.0,1.07,94.0,3729.0,7.0,3.89,15.0,12.73,1.155,68.2,153.0,31.2,5.0,0.0,0.0,0.0,0.0,0.0,0.0,0.0,0.0,2.26,0.0,0.0,0,0.0,0.0,0.0,0.0,0.0,0.0,0.0,0.0,0.0,0.0,0.0,0.0,0.0,0.0,0.0,0.0,0.0,0.0,0.0,0.0,38.985832,-76.950859,0.05,36.0,3.0,0.8
140,2338260,1744864737869,,,,,,,,,,,,,,,,,,,,,,,,,,,,,,,,,,0,0.0,0.0,0.0,0.0,0.0,0.0,0.0,0.0,0.0,0.0,0.0,0.0,0.0,0.0,0.0,,,,,,,,,,,
141,2338280,1744864737891,0.0,135.0,,-0.1,-0.09,0.98,1.0,0.0,0.0,0.99,1.07,93.0,3750.0,7.1,3.89,,12.71,1.145,68.2,,30.9,5.0,,,,,,,,,,,,0,0.0,0.0,0.0,0.0,0.0,0.0,0.0,0.0,0.0,0.0,0.0,0.0,0.0,0.0,0.0,,,,,0.0,,,,,,
142,2338300,1744864737911,,,,,,,,,,,,,,,,,,,,,,,,,,,,,,,,,,0,0.0,0.0,0.0,0.0,0.0,0.0,0.0,0.0,0.0,0.0,0.0,0.0,0.0,0.0,0.0,,,,,,,,,,,
143,2338320,1744864737931,0.0,135.0,,-0.09,-0.08,1.02,1.0,0.0,0.0,1.02,1.07,96.0,3730.0,7.1,3.89,,12.72,1.154,68.2,,30.9,5.0,,,,,,,,,,,,0,0.0,0.0,0.0,0.0,0.0,0.0,0.0,0.0,0.0,0.0,0.0,0.0,0.0,0.0,0.0,,,,,0.0,,,,,,
144,2338340,1744864737951,,,,,,,,,,,,,,,,,,,,,,,0.0,0.0,0.0,0.0,0.0,0.0,0.0,0.0,2.26,,,0,0.0,0.0,0.0,0.0,0.0,0.0,0.0,0.0,0.0,0.0,0.0,0.0,0.0,0.0,0.0,0.0,,,,,38.985832,-76.950859,0.04,36.0,3.0,0.8
145,2338360,1744864737971,0.0,135.0,,-0.1,-0.12,1.02,1.0,0.0,0.0,1.03,1.07,97.0,3675.0,7.2,3.9,,12.77,1.156,68.2,,30.9,5.0,,,,,,,,,,,,0,0.0,0.0,0.0,0.0,0.0,0.0,0.0,0.0,0.0,0.0,0.0,0.0,0.0,0.0,0.0,,,,,0.0,,,,,,
146,2338840,1744864738451,0.0,135.0,,-0.07,0.02,1.03,1.0,0.0,0.0,1.03,1.07,96.0,3856.0,7.1,3.88,,12.63,1.092,66.4,,31.4,5.0,0.0,0.0,0.0,0.0,0.0,0.0,0.0,0.0,2.26,,,0,0.0,0.0,0.0,0.0,0.0,0.0,0.0,0.0,0.0,0.0,0.0,0.0,0.0,0.0,0.0,0.0,,,,0.0,38.985832,-76.950859,0.04,36.0,3.0,0.8
147,2338860,1744864738471,,,,,,,,,,,,,,,,,,,,,,,,,,,,,,,,,,0,0.0,0.0,0.0,0.0,0.0,0.0,0.0,0.0,0.0,0.0,0.0,0.0,0.0,0.0,0.0,,,,,,,,,,,
148,2338880,1744864738491,0.0,135.0,,-0.07,0.04,1.02,0.0,0.0,0.0,1.03,1.07,96.0,3801.0,7.1,3.88,,12.63,1.12,66.4,,30.4,5.0,,,,,,,,,,,,0,0.0,0.0,0.0,0.0,0.0,0.0,0.0,0.0,0.0,0.0,0.0,0.0,0.0,0.0,0.0,,,,,0.0,,,,,,
149,2338900,1744864738509,,,,,,,,,,,,,,,,,,,,,,,,,,,,,,,,,,0,0.0,0.0,0.0,0.0,0.0,0.0,0.0,0.0,0.0,0.0,0.0,0.0,0.0,0.0,0.0,,,,,,,,,,,
150,2338920,1744864738529,0.0,135.0,,-0.08,0.05,0.98,0.0,0.0,0.0,0.99,1.07,92.0,3817.0,7.1,3.89,,12.69,1.128,66.4,,30.4,5.0,,,,,,,,,,,,0,0.0,0.0,0.0,0.0,0.0,0.0,0.0,0.0,0.0,0.0,0.0,0.0,0.0,0.0,0.0,,,,,0.0,,,,,,
151,2338940,1744864738549,,,,,,,,,,,,,,,,,,,,,,,0.0,0.0,0.0,0.0,0.0,0.0,0.0,0.0,2.26,,,0,0.0,0.0,0.0,0.0,0.0,0.0,0.0,0.0,0.0,0.0,0.0,0.0,0.0,0.0,0.0,0.0,,,,,38.985832,-76.950859,0.05,36.0,3.0,0.8
152,2338960,1744864738569,0.0,135.0,,-0.08,0.02,1.0,0.0,0.0,0.0,1.0,1.07,94.0,3786.0,6.9,3.88,,12.69,1.128,66.4,,30.4,5.0,,,,,,,,,,,,0,0.0,0.0,0.0,0.0,0.0,0.0,0.0,0.0,0.0,0.0,0.0,0.0,0.0,0.0,0.0,,,,,0.0,,,,,,
153,2338980,1744864738589,,,,,,,,,,,,,,,,,,,,,,,,,,,,,,,,,,0,0.0,0.0,0.0,0.0,0.0,0.0,0.0,0.0,0.0,0.0,0.0,0.0,0.0,0.0,0.0,,,,,,,,,,,
154,2339000,1744864738610,0.0,135.0,,-0.09,-0.0,1.03,0.0,0.0,0.0,1.03,1.07,97.0,3839.0,6.9,3.89,,12.69,1.121,66.4,,30.6,5.0,,,,,,,,,,,,0,0.0,0.0,0.0,0.0,0.0,0.0,0.0,0.0,0.0,0.0,0.0,0.0,0.0,0.0,0.0,,,,,0.0,,,,,,
155,2339020,1744864738630,,,,,,,,,,,,,,,,,,,,,,,,,,,,,,,,,,0,0.0,0.0,0.0,0.0,0.0,0.0,0.0,0.0,0.0,0.0,0.0,0.0,0.0,0.0,0.0,,,,,,,,,,,
156,2339040,1744864738650,0.0,135.0,,-0.08,0.0,1.04,0.0,0.0,0.0,1.04,1.07,98.0,3839.0,6.9,3.89,,12.69,1.117,66.4,,30.6,5.0,0.0,0.0,0.0,0.0,0.0,0.0,0.0,0.0,2.26,,,0,0.0,0.0,0.0,0.0,0.0,0.0,0.0,0.0,0.0,0.0,0.0,0.0,0.0,0.0,0.0,0.0,,,,0.0,38.985832,-76.950859,0.05,36.0,3.0,0.8
157,2339060,1744864738670,,,,,,,,,,,,,,,,,,,,,,,,,,,,,,,,,,0,0.0,0.0,0.0,0.0,0.0,0.0,0.0,0.0,0.0,0.0,0.0,0.0,0.0,0.0,0.0,,,,,,,,,,,
158,2339080,1744864738690,0.0,135.0,,-0.07,-0.04,1.03,0.0,0.0,0.0,1.03,1.07,97.0,3764.0,6.9,3.88,,12.72,1.13,66.4,,30.8,5.0,,,,,,,,,,,,0,0.0,0.0,0.0,0.0,0.0,0.0,0.0,0.0,0.0,0.0,0.0,0.0,0.0,0.0,0.0,,,,,0.0,,,,,,
159,2339100,1744864738708,,,,,,,,,,,,,,,,,,,,,,,,,,,,,,,,,,0,0.0,0.0,0.0,0.0,0.0,0.0,0.0,0.0,0.0,0.0,0.0,0.0,0.0,0.0,0.0,,,,,,,,,,,
160,2339120,1744864738728,0.0,135.0,,-0.08,-0.06,1.01,0.0,0.0,0.0,1.02,1.07,95.0,3814.0,6.9,3.89,,12.75,1.133,66.4,,30.8,5.0,,,,,,,,,,,,0,0.0,0.0,0.0,0.0,0.0,0.0,0.0,0.0,0.0,0.0,0.0,0.0,0.0,0.0,0.0,,,,,0.0,,,,,,
161,2339140,1744864738748,,,,,,,,,,,,,,,,,,,,,,,0.0,0.0,0.0,0.0,0.0,0.0,0.0,0.0,2.26,,,0,0.0,0.0,0.0,0.0,0.0,0.0,0.0,0.0,0.0,0.0,0.0,0.0,0.0,0.0,0.0,0.0,,,,,38.985832,-76.950859,0.06,36.0,3.0,0.8
162,2339160,1744864738768,0.0,135.0,,-0.09,-0.04,1.0,0.0,0.0,0.0,1.01,1.07,94.0,3826.0,6.9,3.89,,12.69,1.14,66.4,,30.8,5.0,,,,,,,,,,,,0,0.0,0.0,0.0,0.0,0.0,0.0,0.0,0.0,0.0,0.0,0.0,0.0,0.0,0.0,0.0,,,,,0.0,,,,,,
163,2339180,1744864738788,,,,,,,,,,,,,,,,,,,,,,,,,,,,,,,,,,0,0.0,0.0,0.0,0.0,0.0,0.0,0.0,0.0,0.0,0.0,0.0,0.0,0.0,0.0,0.0,,,,,,,,,,,
164,2339200,1744864738810,0.0,135.0,,-0.09,-0.06,1.01,0.0,0.0,0.0,1.02,1.07,96.0,3707.0,7.0,3.88,,12.69,1.14,66.4,,30.7,5.0,,,,,,,,,,,,0,0.0,0.0,0.0,0.0,0.0,0.0,0.0,0.0,0.0,0.0,0.0,0.0,0.0,0.0,0.0,,,,,0.0,,,,,,
165,2339220,1744864738830,,,,,,,,,,,,,,,,,,,,,,,,,,,,,,,,,,0,0.0,0.0,0.0,0.0,0.0,0.0,0.0,0.0,0.0,0.0,0.0,0.0,0.0,0.0,0.0,,,,,,,,,,,
166,2339240,1744864738850,0.0,135.0,13.7,-0.09,-0.05,1.0,0.0,0.0,0.0,1.01,1.07,95.0,3707.0,7.0,3.88,15.0,12.71,1.133,66.4,153.0,30.7,5.0,0.0,0.0,0.0,0.0,0.0,0.0,0.0,0.0,2.26,0.0,0.0,0,0.0,0.0,0.0,0.0,0.0,0.0,0.0,0.0,0.0,0.0,0.0,0.0,0.0,0.0,0.0,0.0,0.0,0.0,0.0,0.0,38.985832,-76.950859,0.09,36.0,3.0,0.8
167,2339260,1744864738870,,,,,,,,,,,,,,,,,,,,,,,,,,,,,,,,,,0,0.0,0.0,0.0,0.0,0.0,0.0,0.0,0.0,0.0,0.0,0.0,0.0,0.0,0.0,0.0,,,,,,,,,,,
168,2339280,1744864738890,0.0,135.0,,-0.09,-0.04,0.99,0.0,0.0,0.0,0.99,1.07,93.0,3745.0,7.1,3.88,,12.76,1.138,66.4,,30.3,5.0,,,,,,,,,,,,0,0.0,0.0,0.0,0.0,0.0,0.0,0.0,0.0,0.0,0.0,0.0,0.0,0.0,0.0,0.0,,,,,0.0,,,,,,
169,2339300,1744864738910,,,,,,,,,,,,,,,,,,,,,,,,,,,,,,,,,,0,0.0,0.0,0.0,0.0,0.0,0.0,0.0,0.0,0.0,0.0,0.0,0.0,0.0,0.0,0.0,,,,,,,,,,,
170,2339320,1744864738930,0.0,135.0,,-0.11,-0.02,0.97,0.0,0.0,0.0,0.97,1.07,91.0,3760.0,7.1,3.88,,12.76,1.144,66.4,,30.3,5.0,,,,,,,,,,,,0,0.0,0.0,0.0,0.0,0.0,0.0,0.0,0.0,0.0,0.0,0.0,0.0,0.0,0.0,0.0,,,,,0.0,,,,,,
171,2339340,1744864738950,,,,,,,,,,,,,,,,,,,,,,,0.0,0.0,0.0,0.0,0.0,0.0,0.0,0.0,2.26,,,0,0.0,0.0,0.0,0.0,0.0,0.0,0.0,0.0,0.0,0.0,0.0,0.0,0.0,0.0,0.0,0.0,,,,,38.985832,-76.950859,0.04,36.0,3.0,0.8
172,2339360,1744864738970,0.0,135.0,,-0.11,-0.05,0.97,1.0,0.0,0.0,0.98,1.07,92.0,3823.0,7.1,3.89,,12.71,1.142,66.4,,30.3,5.0,,,,,,,,,,,,0,0.0,0.0,0.0,0.0,0.0,0.0,0.0,0.0,0.0,0.0,0.0,0.0,0.0,0.0,0.0,,,,,0.0,,,,,,
173,2339380,1744864738990,,,,,,,,,,,,,,,,,,,,,,,,,,,,,,,,,,0,0.0,0.0,0.0,0.0,0.0,0.0,0.0,0.0,0.0,0.0,0.0,0.0,0.0,0.0,0.0,,,,,,,,,,,
174,2339400,1744864739002,0.0,135.0,,-0.1,-0.06,0.97,1.0,0.0,0.0,0.98,1.07,92.0,3797.0,7.1,3.9,,12.71,1.142,66.4,,31.2,5.0,,,,,,,,,,,,0,0.0,0.0,0.0,0.0,0.0,0.0,0.0,0.0,0.0,0.0,0.0,0.0,0.0,0.0,0.0,,,,,0.0,,,,,,
175,2339420,1744864739022,,,,,,,,,,,,,,,,,,,,,,,,,,,,,,,,,,0,0.0,0.0,0.0,0.0,0.0,0.0,0.0,0.0,0.0,0.0,0.0,0.0,0.0,0.0,0.0,,,,,,,,,,,
176,2339440,1744864739042,0.0,135.0,,-0.08,-0.03,0.97,1.0,0.0,0.0,0.97,1.07,91.0,3797.0,7.1,3.9,,12.77,1.129,66.4,,31.2,5.0,0.0,0.0,0.0,0.0,0.0,0.0,0.0,0.0,2.26,,,0,0.0,0.0,0.0,0.0,0.0,0.0,0.0,0.0,0.0,0.0,0.0,0.0,0.0,0.0,0.0,0.0,,,,0.0,38.985832,-76.950859,0.04,36.0,3.0,0.8
177,2339460,1744864739062,,,,,,,,,,,,,,,,,,,,,,,,,,,,,,,,,,0,0.0,0.0,0.0,0.0,0.0,0.0,0.0,0.0,0.0,0.0,0.0,0.0,0.0,0.0,0.0,,,,,,,,,,,
178,2339480,1744864739082,0.0,135.0,,-0.07,-0.01,0.96,1.0,0.0,0.0,0.96,1.07,90.0,3834.0,6.9,3.88,,12.69,1.124,66.4,,30.8,5.0,,,,,,,,,,,,0,0.0,0.0,0.0,0.0,0.0,0.0,0.0,0.0,0.0,0.0,0.0,0.0,0.0,0.0,0.0,,,,,0.0,,,,,,
179,2339500,1744864739110,,,,,,,,,,,,,,,,,,,,,,,,,,,,,,,,,,0,0.0,0.0,0.0,0.0,0.0,0.0,0.0,0.0,0.0,0.0,0.0,0.0,0.0,0.0,0.0,,,,,,,,,,,
180,2339520,1744864739130,0.0,135.0,,-0.07,0.01,0.96,0.0,0.0,0.0,0.96,1.07,90.0,3798.0,6.9,3.88,,12.75,1.125,66.4,,30.8,5.0,,,,,,,,,,,,0,0.0,0.0,0.0,0.0,0.0,0.0,0.0,0.0,0.0,0.0,0.0,0.0,0.0,0.0,0.0,,,,,0.0,,,,,,
181,2339540,1744864739150,,,,,,,,,,,,,,,,,,,,,,,0.0,0.0,0.0,0.0,0.0,0.0,0.0,0.0,2.26,,,0,0.0,0.0,0.0,0.0,0.0,0.0,0.0,0.0,0.0,0.0,0.0,0.0,0.0,0.0,0.0,0.0,,,,,38.985832,-76.950859,0.12,36.0,3.0,0.8
182,2339560,1744864739170,0.0,135.0,,-0.07,0.05,0.98,0.0,0.0,0.0,0.98,1.07,92.0,3743.0,6.9,3.9,,12.68,1.117,66.4,,30.8,5.0,,,,,,,,,,,,0,0.0,0.0,0.0,0.0,0.0,0.0,0.0,0.0,0.0,0.0,0.0,0.0,0.0,0.0,0.0,,,,,0.0,,,,,,
183,2339580,1744864739190,,,,,,,,,,,,,,,,,,,,,,,,,,,,,,,,,,0,0.0,0.0,0.0,0.0,0.0,0.0,0.0,0.0,0.0,0.0,0.0,0.0,0.0,0.0,0.0,,,,,,,,,,,
184,2339600,1744864739208,0.0,135.0,,-0.06,0.04,0.98,0.0,0.0,0.0,0.99,1.07,92.0,3812.0,6.9,3.88,,12.68,1.117,66.4,,30.6,5.0,,,,,,,,,,,,0,0.0,0.0,0.0,0.0,0.0,0.0,0.0,0.0,0.0,0.0,0.0,0.0,0.0,0.0,0.0,,,,,0.0,,,,,,
185,2339620,1744864739228,,,,,,,,,,,,,,,,,,,,,,,,,,,,,,,,,,0,0.0,0.0,0.0,0.0,0.0,0.0,0.0,0.0,0.0,0.0,0.0,0.0,0.0,0.0,0.0,,,,,,,,,,,
186,2339640,1744864739248,0.0,135.0,,-0.05,0.07,0.98,0.0,0.0,0.0,0.98,1.07,92.0,3812.0,6.9,3.88,,12.73,1.116,66.4,,30.6,5.0,0.0,0.0,0.0,0.0,0.0,0.0,0.0,0.0,2.26,,,0,0.0,0.0,0.0,0.0,0.0,0.0,0.0,0.0,0.0,0.0,0.0,0.0,0.0,0.0,0.0,0.0,,,,0.0,38.985832,-76.950859,0.08,36.0,3.0,0.8
187,2339660,1744864739268,,,,,,,,,,,,,,,,,,,,,,,,,,,,,,,,,,0,0.0,0.0,0.0,0.0,0.0,0.0,0.0,0.0,0.0,0.0,0.0,0.0,0.0,0.0,0.0,,,,,,,,,,,
188,2339680,1744864739288,0.0,135.0,,-0.07,0.06,0.99,0.0,0.0,1.0,0.99,1.07,93.0,3785.0,6.9,3.89,,12.71,1.123,66.4,,30.9,5.0,,,,,,,,,,,,0,0.0,0.0,0.0,0.0,0.0,0.0,0.0,0.0,0.0,0.0,0.0,0.0,0.0,0.0,0.0,,,,,0.0,,,,,,
189,2339700,1744864739310,,,,,,,,,,,,,,,,,,,,,,,,,,,,,,,,,,0,0.0,0.0,0.0,0.0,0.0,0.0,0.0,0.0,0.0,0.0,0.0,0.0,0.0,0.0,0.0,,,,,,,,,,,
190,2339720,1744864739330,0.0,135.0,,-0.07,0.01,1.0,0.0,0.0,0.0,1.0,1.07,94.0,3837.0,6.9,3.88,,12.69,1.119,66.4,,30.9,5.0,,,,,,,,,,,,0,0.0,0.0,0.0,0.0,0.0,0.0,0.0,0.0,0.0,0.0,0.0,0.0,0.0,0.0,0.0,,,,,0.0,,,,,,
191,2339740,1744864739350,,,,,,,,,,,,,,,,,,,,,,,0.0,0.0,0.0,0.0,0.0,0.0,0.0,0.0,2.26,,,0,0.0,0.0,0.0,0.0,0.0,0.0,0.0,0.0,0.0,0.0,0.0,0.0,0.0,0.0,0.0,0.0,,,,,38.985832,-76.950859,0.05,36.0,3.0,0.8
192,2339760,1744864739370,0.0,135.0,,-0.07,-0.01,1.03,0.0,0.0,0.0,1.03,1.07,97.0,3758.0,7.1,3.89,,12.76,1.13,66.4,,30.9,5.0,,,,,,,,,,,,0,0.0,0.0,0.0,0.0,0.0,0.0,0.0,0.0,0.0,0.0,0.0,0.0,0.0,0.0,0.0,,,,,0.0,,,,,,
193,2339780,1744864739390,,,,,,,,,,,,,,,,,,,,,,,,,,,,,,,,,,0,0.0,0.0,0.0,0.0,0.0,0.0,0.0,0.0,0.0,0.0,0.0,0.0,0.0,0.0,0.0,,,,,,,,,,,
194,2339800,1744864739410,0.0,135.0,,-0.03,0.07,1.11,-2.0,0.0,1.0,1.12,1.12,100.0,3758.0,7.1,3.89,,12.76,1.13,66.4,,30.1,5.0,,,,,,,,,,,,0,0.0,0.0,0.0,0.0,0.0,0.0,0.0,0.0,0.0,0.0,0.0,0.0,0.0,0.0,0.0,,,,,0.0,,,,,,
195,2339820,1744864739430,,,,,,,,,,,,,,,,,,,,,,,,,,,,,,,,,,0,0.0,0.0,0.0,0.0,0.0,0.0,0.0,0.0,0.0,0.0,0.0,0.0,0.0,0.0,0.0,,,,,,,,,,,
196,2339840,1744864739450,0.0,135.0,,-0.03,0.06,1.1,-1.0,0.0,1.0,1.1,1.12,98.0,3719.0,7.2,3.89,,12.75,1.137,66.4,,30.1,5.0,0.0,0.0,0.0,0.0,0.0,0.0,0.0,0.0,2.26,,,0,0.0,0.0,0.0,0.0,0.0,0.0,0.0,0.0,0.0,0.0,0.0,0.0,0.0,0.0,0.0,0.0,,,,0.0,38.985832,-76.950859,0.04,36.0,3.0,0.8
197,2339860,1744864739470,,,,,,,,,,,,,,,,,,,,,,,,,,,,,,,,,,0,0.0,0.0,0.0,0.0,0.0,0.0,0.0,0.0,0.0,0.0,0.0,0.0,0.0,0.0,0.0,,,,,,,,,,,
198,2339880,1744864739490,0.0,135.0,,-0.03,0.02,1.08,-1.0,0.0,1.0,1.09,1.12,97.0,3784.0,7.2,3.9,,12.71,1.137,66.4,,30.1,5.0,,,,,,,,,,,,0,0.0,0.0,0.0,0.0,0.0,0.0,0.0,0.0,0.0,0.0,0.0,0.0,0.0,0.0,0.0,,,,,0.0,,,,,,
199,2339900,1744864739509,,,,,,,,,,,,,,,,,,,,,,,,,,,,,,,,,,0,0.0,0.0,0.0,0.0,0.0,0.0,0.0,0.0,0.0,0.0,0.0,0.0,0.0,0.0,0.0,,,,,,,,,,,
200,2339920,1744864739529,0.0,135.0,,-0.03,0.04,1.1,-1.0,0.0,1.0,1.1,1.12,98.0,3719.0,7.1,3.89,,12.76,1.134,66.4,,30.4,5.0,,,,,,,,,,,,0,0.0,0.0,0.0,0.0,0.0,0.0,0.0,0.0,0.0,0.0,0.0,0.0,0.0,0.0,0.0,,,,,0.0,,,,,,
201,2339940,1744864739549,,,,,,,,,,,,,,,,,,,,,,,0.0,0.0,0.0,0.0,0.0,0.0,0.0,0.0,2.26,,,0,0.0,0.0,0.0,0.0,0.0,0.0,0.0,0.0,0.0,0.0,0.0,0.0,0.0,0.0,0.0,0.0,,,,,38.985832,-76.950859,0.05,36.0,3.0,0.8
202,2339960,1744864739569,0.0,135.0,,-0.02,0.07,1.09,-1.0,0.0,1.0,1.09,1.12,98.0,3723.0,7.0,3.91,,12.76,1.134,66.4,,30.4,5.0,,,,,,,,,,,,0,0.0,0.0,0.0,0.0,0.0,0.0,0.0,0.0,0.0,0.0,0.0,0.0,0.0,0.0,0.0,,,,,0.0,,,,,,
203,2339980,1744864739589,,,,,,,,,,,,,,,,,,,,,,,,,,,,,,,,,,0,0.0,0.0,0.0,0.0,0.0,0.0,0.0,0.0,0.0,0.0,0.0,0.0,0.0,0.0,0.0,,,,,,,,,,,
204,2340000,1744864739609,0.0,135.0,,-0.03,0.08,1.07,0.0,0.0,1.0,1.07,1.12,96.0,3708.0,7.0,3.89,,12.8,1.133,66.4,,29.9,5.0,,,,,,,,,,,,0,0.0,0.0,0.0,0.0,0.0,0.0,0.0,0.0,0.0,0.0,0.0,0.0,0.0,0.0,0.0,,,,,0.0,,,,,,
205,2340020,1744864739629,,,,,,,,,,,,,,,,,,,,,,,,,,,,,,,,,,0,0.0,0.0,0.0,0.0,0.0,0.0,0.0,0.0,0.0,0.0,0.0,0.0,0.0,0.0,0.0,,,,,,,,,,,
206,2340040,1744864739649,0.0,135.0,,-0.03,0.05,1.07,0.0,0.0,1.0,1.07,1.12,96.0,3708.0,7.0,3.89,,12.76,1.136,66.4,,29.9,5.0,0.0,0.0,0.0,0.0,0.0,0.0,0.0,0.0,2.27,,,0,0.0,0.0,0.0,0.0,0.0,0.0,0.0,0.0,0.0,0.0,0.0,0.0,0.0,0.0,0.0,0.0,,,,0.0,38.985832,-76.950859,0.11,36.0,3.0,0.8
207,2340060,1744864739669,,,,,,,,,,,,,,,,,,,,,,,,,,,,,,,,,,0,0.0,0.0,0.0,0.0,0.0,0.0,0.0,0.0,0.0,0.0,0.0,0.0,0.0,0.0,0.0,,,,,,,,,,,
208,2340080,1744864739689,0.0,135.0,,-0.04,0.03,1.09,0.0,0.0,1.0,1.09,1.12,98.0,3785.0,6.9,3.9,,12.69,1.147,66.4,,30.8,5.0,,,,,,,,,,,,0,0.0,0.0,0.0,0.0,0.0,0.0,0.0,0.0,0.0,0.0,0.0,0.0,0.0,0.0,0.0,,,,,0.0,,,,,,
209,2340100,1744864739709,,,,,,,,,,,,,,,,,,,,,,,,,,,,,,,,,,0,0.0,0.0,0.0,0.0,0.0,0.0,0.0,0.0,0.0,0.0,0.0,0.0,0.0,0.0,0.0,,,,,,,,,,,
210,2340120,1744864739729,0.0,135.0,,-0.03,0.04,1.1,0.0,0.0,1.0,1.1,1.12,99.0,3772.0,7.0,3.89,,12.8,1.143,66.4,,30.8,5.0,,,,,,,,,,,,0,0.0,0.0,0.0,0.0,0.0,0.0,0.0,0.0,0.0,0.0,0.0,0.0,0.0,0.0,0.0,,,,,0.0,,,,,,
211,2340140,1744864739749,,,,,,,,,,,,,,,,,,,,,,,0.0,0.0,0.0,0.0,0.0,0.0,0.0,0.0,2.26,,,0,0.0,0.0,0.0,0.0,0.0,0.0,0.0,0.0,0.0,0.0,0.0,0.0,0.0,0.0,0.0,0.0,,,,,38.985832,-76.950859,0.06,36.0,3.0,0.8
212,2340160,1744864739769,0.0,135.0,,-0.03,0.02,1.09,0.0,0.0,1.0,1.09,1.12,97.0,3802.0,6.9,3.89,,12.69,1.135,66.4,,30.8,5.0,,,,,,,,,,,,0,0.0,0.0,0.0,0.0,0.0,0.0,0.0,0.0,0.0,0.0,0.0,0.0,0.0,0.0,0.0,,,,,0.0,,,,,,
213,2340180,1744864739789,,,,,,,,,,,,,,,,,,,,,,,,,,,,,,,,,,0,0.0,0.0,0.0,0.0,0.0,0.0,0.0,0.0,0.0,0.0,0.0,0.0,0.0,0.0,0.0,,,,,,,,,,,
214,2340200,1744864739809,0.0,135.0,,-0.04,0.0,1.07,0.0,0.0,1.0,1.07,1.12,96.0,3807.0,7.0,3.9,,12.69,1.135,66.4,,30.4,5.0,,,,,,,,,,,,0,0.0,0.0,0.0,0.0,0.0,0.0,0.0,0.0,0.0,0.0,0.0,0.0,0.0,0.0,0.0,,,,,0.0,,,,,,
215,2340220,1744864739829,,,,,,,,,,,,,,,,,,,,,,,,,,,,,,,,,,0,0.0,0.0,0.0,0.0,0.0,0.0,0.0,0.0,0.0,0.0,0.0,0.0,0.0,0.0,0.0,,,,,,,,,,,
216,2340240,1744864739849,0.0,135.0,13.71,-0.05,0.02,1.07,0.0,0.0,1.0,1.08,1.12,96.0,3807.0,7.0,3.9,15.0,12.72,1.122,66.4,153.0,30.4,5.0,0.0,0.0,0.0,0.0,0.0,0.0,0.0,0.0,2.26,0.0,0.0,0,0.0,0.0,0.0,0.0,0.0,0.0,0.0,0.0,0.0,0.0,0.0,0.0,0.0,0.0,0.0,0.0,0.0,0.0,0.0,0.0,38.985832,-76.950859,0.06,36.0,3.0,0.8
217,2340260,1744864739869,,,,,,,,,,,,,,,,,,,,,,,,,,,,,,,,,,0,0.0,0.0,0.0,0.0,0.0,0.0,0.0,0.0,0.0,0.0,0.0,0.0,0.0,0.0,0.0,,,,,,,,,,,
218,2340280,1744864739889,0.0,135.0,,-0.05,0.0,1.07,-1.0,0.0,1.0,1.07,1.12,96.0,3776.0,7.1,3.89,,12.72,1.119,66.4,,30.4,5.0,,,,,,,,,,,,0,0.0,0.0,0.0,0.0,0.0,0.0,0.0,0.0,0.0,0.0,0.0,0.0,0.0,0.0,0.0,,,,,0.0,,,,,,
219,2340300,1744864739909,,,,,,,,,,,,,,,,,,,,,,,,,,,,,,,,,,0,0.0,0.0,0.0,0.0,0.0,0.0,0.0,0.0,0.0,0.0,0.0,0.0,0.0,0.0,0.0,,,,,,,,,,,
220,2340320,1744864739929,0.0,135.0,,-0.05,-0.0,1.04,-1.0,0.0,1.0,1.05,1.12,94.0,3801.0,7.2,3.89,,12.77,1.127,66.4,,30.4,5.0,,,,,,,,,,,,0,0.0,0.0,0.0,0.0,0.0,0.0,0.0,0.0,0.0,0.0,0.0,0.0,0.0,0.0,0.0,,,,,0.0,,,,,,
221,2340340,1744864739949,,,,,,,,,,,,,,,,,,,,,,,0.0,0.0,0.0,0.0,0.0,0.0,0.0,0.0,2.26,,,0,0.0,0.0,0.0,0.0,0.0,0.0,0.0,0.0,0.0,0.0,0.0,0.0,0.0,0.0,0.0,0.0,,,,,38.985832,-76.950859,0.04,36.0,3.0,0.8
222,2340360,1744864739969,0.0,135.0,,-0.07,-0.01,1.02,-1.0,0.0,0.0,1.02,1.12,92.0,3751.0,7.2,3.91,,12.75,1.133,66.4,,30.4,5.0,,,,,,,,,,,,0,0.0,0.0,0.0,0.0,0.0,0.0,0.0,0.0,0.0,0.0,0.0,0.0,0.0,0.0,0.0,,,,,0.0,,,,,,
223,2340380,1744864739989,,,,,,,,,,,,,,,,,,,,,,,,,,,,,,,,,,0,0.0,0.0,0.0,0.0,0.0,0.0,0.0,0.0,0.0,0.0,0.0,0.0,0.0,0.0,0.0,,,,,,,,,,,
224,2340400,1744864740001,0.0,135.0,,-0.08,-0.02,1.0,-1.0,0.0,0.0,1.0,1.12,90.0,3807.0,7.1,3.91,,12.75,1.133,66.4,,30.3,5.0,,,,,,,,,,,,0,0.0,0.0,0.0,0.0,0.0,0.0,0.0,0.0,0.0,0.0,0.0,0.0,0.0,0.0,0.0,,,,,0.0,,,,,,
225,2340420,1744864740021,,,,,,,,,,,,,,,,,,,,,,,,,,,,,,,,,,0,0.0,0.0,0.0,0.0,0.0,0.0,0.0,0.0,0.0,0.0,0.0,0.0,0.0,0.0,0.0,,,,,,,,,,,
226,2340440,1744864740041,0.0,135.0,,-0.09,-0.05,1.01,0.0,0.0,0.0,1.01,1.12,91.0,3807.0,7.1,3.91,,12.72,1.121,66.4,,30.3,5.0,0.0,0.0,0.0,0.0,0.0,0.0,0.0,0.0,2.26,,,0,0.0,0.0,0.0,0.0,0.0,0.0,0.0,0.0,0.0,0.0,0.0,0.0,0.0,0.0,0.0,0.0,,,,0.0,38.985832,-76.950859,0.0,36.0,3.0,0.8
227,2340460,1744864740061,,,,,,,,,,,,,,,,,,,,,,,,,,,,,,,,,,0,0.0,0.0,0.0,0.0,0.0,0.0,0.0,0.0,0.0,0.0,0.0,0.0,0.0,0.0,0.0,,,,,,,,,,,
228,2340480,1744864740081,0.0,135.0,,-0.09,-0.07,1.0,0.0,0.0,0.0,1.01,1.12,90.0,3744.0,7.1,3.91,,12.72,1.111,66.4,,30.1,5.0,,,,,,,,,,,,0,0.0,0.0,0.0,0.0,0.0,0.0,0.0,0.0,0.0,0.0,0.0,0.0,0.0,0.0,0.0,,,,,0.0,,,,,,
229,2340500,1744864740107,,,,,,,,,,,,,,,,,,,,,,,,,,,,,,,,,,0,0.0,0.0,0.0,0.0,0.0,0.0,0.0,0.0,0.0,0.0,0.0,0.0,0.0,0.0,0.0,,,,,,,,,,,
230,2340520,1744864740127,0.0,135.0,,-0.09,-0.06,0.99,1.0,0.0,0.0,1.0,1.12,90.0,3735.0,6.9,3.89,,12.79,1.099,66.4,,30.1,5.0,,,,,,,,,,,,0,0.0,0.0,0.0,0.0,0.0,0.0,0.0,0.0,0.0,0.0,0.0,0.0,0.0,0.0,0.0,,,,,0.0,,,,,,
231,2340540,1744864740147,,,,,,,,,,,,,,,,,,,,,,,0.0,0.0,0.0,0.0,0.0,0.0,0.0,0.0,2.27,,,0,0.0,0.0,0.0,0.0,0.0,0.0,0.0,0.0,0.0,0.0,0.0,0.0,0.0,0.0,0.0,0.0,,,,,38.985832,-76.950859,0.18,36.0,3.0,0.8
232,2340560,1744864740167,0.0,135.0,,-0.1,-0.08,0.98,1.0,0.0,0.0,0.99,1.12,88.0,3796.0,6.9,3.9,,12.77,1.108,66.4,,30.1,5.0,,,,,,,,,,,,0,0.0,0.0,0.0,0.0,0.0,0.0,0.0,0.0,0.0,0.0,0.0,0.0,0.0,0.0,0.0,,,,,0.0,,,,,,
233,2340580,1744864740187,,,,,,,,,,,,,,,,,,,,,,,,,,,,,,,,,,0,0.0,0.0,0.0,0.0,0.0,0.0,0.0,0.0,0.0,0.0,0.0,0.0,0.0,0.0,0.0,,,,,,,,,,,
234,2340600,1744864740207,0.0,135.0,,-0.1,-0.07,1.0,1.0,0.0,0.0,1.01,1.12,90.0,3736.0,7.0,3.9,,12.77,1.108,66.4,,30.3,5.0,,,,,,,,,,,,0,0.0,0.0,0.0,0.0,0.0,0.0,0.0,0.0,0.0,0.0,0.0,0.0,0.0,0.0,0.0,,,,,0.0,,,,,,
235,2340620,1744864740227,,,,,,,,,,,,,,,,,,,,,,,,,,,,,,,,,,0,0.0,0.0,0.0,0.0,0.0,0.0,0.0,0.0,0.0,0.0,0.0,0.0,0.0,0.0,0.0,,,,,,,,,,,
236,2340640,1744864740247,0.0,135.0,,-0.1,-0.1,1.02,1.0,0.0,0.0,1.03,1.12,92.0,3736.0,7.0,3.9,,12.72,1.112,66.4,,30.3,5.0,0.0,0.0,0.0,0.0,0.0,0.0,0.0,0.0,2.26,,,0,0.0,0.0,0.0,0.0,0.0,0.0,0.0,0.0,0.0,0.0,0.0,0.0,0.0,0.0,0.0,0.0,,,,0.0,38.985832,-76.950859,0.08,36.0,3.0,0.8
237,2340660,1744864740267,,,,,,,,,,,,,,,,,,,,,,,,,,,,,,,,,,0,0.0,0.0,0.0,0.0,0.0,0.0,0.0,0.0,0.0,0.0,0.0,0.0,0.0,0.0,0.0,,,,,,,,,,,
238,2340680,1744864740291,0.0,135.0,,-0.1,-0.1,1.01,1.0,0.0,0.0,1.02,1.12,91.0,3740.0,7.0,3.89,,12.75,1.127,66.4,,30.2,5.0,,,,,,,,,,,,0,0.0,0.0,0.0,0.0,0.0,0.0,0.0,0.0,0.0,0.0,0.0,0.0,0.0,0.0,0.0,,,,,0.0,,,,,,
239,2340700,1744864740311,,,,,,,,,,,,,,,,,,,,,,,,,,,,,,,,,,0,0.0,0.0,0.0,0.0,0.0,0.0,0.0,0.0,0.0,0.0,0.0,0.0,0.0,0.0,0.0,,,,,,,,,,,
240,2340720,1744864740331,0.0,135.0,,-0.11,-0.11,0.99,1.0,0.0,0.0,1.0,1.12,90.0,3729.0,6.9,3.9,,12.8,1.12,66.4,,30.2,5.0,,,,,,,,,,,,0,0.0,0.0,0.0,0.0,0.0,0.0,0.0,0.0,0.0,0.0,0.0,0.0,0.0,0.0,0.0,,,,,0.0,,,,,,
241,2340740,1744864740351,,,,,,,,,,,,,,,,,,,,,,,0.0,0.0,0.0,0.0,0.0,0.0,0.0,0.0,2.26,,,0,0.0,0.0,0.0,0.0,0.0,0.0,0.0,0.0,0.0,0.0,0.0,0.0,0.0,0.0,0.0,0.0,,,,,38.985832,-76.950859,0.04,36.0,3.0,0.8
242,2340760,1744864740371,0.0,135.0,,-0.11,-0.1,1.01,2.0,0.0,0.0,1.02,1.12,91.0,3792.0,7.1,3.9,,12.75,1.112,66.4,,30.2,5.0,,,,,,,,,,,,0,0.0,0.0,0.0,0.0,0.0,0.0,0.0,0.0,0.0,0.0,0.0,0.0,0.0,0.0,0.0,,,,,0.0,,,,,,
243,2340780,1744864740391,,,,,,,,,,,,,,,,,,,,,,,,,,,,,,,,,,0,0.0,0.0,0.0,0.0,0.0,0.0,0.0,0.0,0.0,0.0,0.0,0.0,0.0,0.0,0.0,,,,,,,,,,,
244,2340800,1744864740411,0.0,135.0,,-0.13,-0.21,0.92,3.0,0.0,-2.0,0.95,1.12,86.0,3804.0,7.2,3.9,,12.75,1.112,66.4,,30.5,5.0,,,,,,,,,,,,0,0.0,0.0,0.0,0.0,0.0,0.0,0.0,0.0,0.0,0.0,0.0,0.0,0.0,0.0,0.0,,,,,0.0,,,,,,
245,2340820,1744864740431,,,,,,,,,,,,,,,,,,,,,,,,,,,,,,,,,,0,0.0,0.0,0.0,0.0,0.0,0.0,0.0,0.0,0.0,0.0,0.0,0.0,0.0,0.0,0.0,,,,,,,,,,,
246,2340840,1744864740451,0.0,135.0,,-0.1,-0.14,0.94,3.0,0.0,-1.0,0.95,1.12,85.0,3804.0,7.2,3.9,,12.75,1.106,66.4,,30.5,5.0,0.0,0.0,0.0,0.0,0.0,0.0,0.0,0.0,2.26,,,0,0.0,0.0,0.0,0.0,0.0,0.0,0.0,0.0,0.0,0.0,0.0,0.0,0.0,0.0,0.0,0.0,,,,0.0,38.985832,-76.950859,0.04,36.0,3.0,0.8
247,2340860,1744864740471,,,,,,,,,,,,,,,,,,,,,,,,,,,,,,,,,,0,0.0,0.0,0.0,0.0,0.0,0.0,0.0,0.0,0.0,0.0,0.0,0.0,0.0,0.0,0.0,,,,,,,,,,,
248,2340880,1744864740491,0.0,135.0,,-0.09,-0.11,0.93,3.0,0.0,-1.0,0.94,1.12,85.0,3791.0,7.1,3.89,,12.69,1.128,66.4,,30.5,5.0,,,,,,,,,,,,0,0.0,0.0,0.0,0.0,0.0,0.0,0.0,0.0,0.0,0.0,0.0,0.0,0.0,0.0,0.0,,,,,0.0,,,,,,
249,2340900,1744864740509,,,,,,,,,,,,,,,,,,,,,,,,,,,,,,,,,,0,0.0,0.0,0.0,0.0,0.0,0.0,0.0,0.0,0.0,0.0,0.0,0.0,0.0,0.0,0.0,,,,,,,,,,,
250,2340920,1744864740529,0.0,135.0,,-0.08,-0.06,0.94,2.0,0.0,-1.0,0.94,1.12,84.0,3832.0,7.1,3.91,,12.73,1.132,66.4,,30.5,5.0,,,,,,,,,,,,0,0.0,0.0,0.0,0.0,0.0,0.0,0.0,0.0,0.0,0.0,0.0,0.0,0.0,0.0,0.0,,,,,0.0,,,,,,
251,2340940,1744864740549,,,,,,,,,,,,,,,,,,,,,,,0.0,0.0,0.0,0.0,0.0,0.0,0.0,0.0,2.26,,,0,0.0,0.0,0.0,0.0,0.0,0.0,0.0,0.0,0.0,0.0,0.0,0.0,0.0,0.0,0.0,0.0,,,,,38.985832,-76.950859,0.11,36.0,3.0,0.8
252,2340960,1744864740569,0.0,135.0,,-0.08,-0.03,0.96,1.0,0.0,0.0,0.97,1.12,86.0,3794.0,7.1,3.9,,12.64,1.126,66.4,,30.5,5.0,,,,,,,,,,,,0,0.0,0.0,0.0,0.0,0.0,0.0,0.0,0.0,0.0,0.0,0.0,0.0,0.0,0.0,0.0,,,,,0.0,,,,,,
253,2340980,1744864740589,,,,,,,,,,,,,,,,,,,,,,,,,,,,,,,,,,0,0.0,0.0,0.0,0.0,0.0,0.0,0.0,0.0,0.0,0.0,0.0,0.0,0.0,0.0,0.0,,,,,,,,,,,
254,2341000,1744864740610,0.0,135.0,,-0.08,-0.05,0.96,1.0,0.0,0.0,0.97,1.12,87.0,3774.0,7.0,3.9,,12.64,1.126,66.4,,30.4,5.0,,,,,,,,,,,,0,0.0,0.0,0.0,0.0,0.0,0.0,0.0,0.0,0.0,0.0,0.0,0.0,0.0,0.0,0.0,,,,,0.0,,,,,,
255,2341020,1744864740630,,,,,,,,,,,,,,,,,,,,,,,,,,,,,,,,,,0,0.0,0.0,0.0,0.0,0.0,0.0,0.0,0.0,0.0,0.0,0.0,0.0,0.0,0.0,0.0,,,,,,,,,,,
256,2341040,1744864740650,0.0,135.0,,-0.08,-0.04,0.96,1.0,0.0,0.0,0.97,1.12,86.0,3774.0,7.0,3.9,,12.72,1.115,66.4,,30.4,5.0,0.0,0.0,0.0,0.0,0.0,0.0,0.0,0.0,2.27,,,0,0.0,0.0,0.0,0.0,0.0,0.0,0.0,0.0,0.0,0.0,0.0,0.0,0.0,0.0,0.0,0.0,,,,0.0,38.985832,-76.950859,0.04,36.0,3.0,0.8
257,2341060,1744864740670,,,,,,,,,,,,,,,,,,,,,,,,,,,,,,,,,,0,0.0,0.0,0.0,0.0,0.0,0.0,0.0,0.0,0.0,0.0,0.0,0.0,0.0,0.0,0.0,,,,,,,,,,,
258,2341080,1744864740690,0.0,135.0,,-0.1,-0.04,0.95,1.0,0.0,0.0,0.96,1.12,86.0,3755.0,6.9,3.91,,12.75,1.118,66.4,,30.2,5.0,,,,,,,,,,,,0,0.0,0.0,0.0,0.0,0.0,0.0,0.0,0.0,0.0,0.0,0.0,0.0,0.0,0.0,0.0,,,,,0.0,,,,,,
259,2341100,1744864740710,,,,,,,,,,,,,,,,,,,,,,,,,,,,,,,,,,0,0.0,0.0,0.0,0.0,0.0,0.0,0.0,0.0,0.0,0.0,0.0,0.0,0.0,0.0,0.0,,,,,,,,,,,
260,2341120,1744864740730,0.0,135.0,,-0.09,-0.05,0.97,1.0,0.0,0.0,0.98,1.12,88.0,3799.0,6.9,3.91,,12.71,1.118,66.4,,30.2,5.0,,,,,,,,,,,,0,0.0,0.0,0.0,0.0,0.0,0.0,0.0,0.0,0.0,0.0,0.0,0.0,0.0,0.0,0.0,,,,,0.0,,,,,,
261,2341140,1744864740750,,,,,,,,,,,,,,,,,,,,,,,0.0,0.0,0.0,0.0,0.0,0.0,0.0,0.0,2.27,,,0,0.0,0.0,0.0,0.0,0.0,0.0,0.0,0.0,0.0,0.0,0.0,0.0,0.0,0.0,0.0,0.0,,,,,38.985832,-76.950859,0.0,36.0,3.0,0.8
262,2341160,1744864740770,0.0,135.0,,-0.09,-0.07,0.99,1.0,0.0,0.0,1.0,1.12,90.0,3755.0,6.9,3.91,,12.71,1.113,66.4,,30.2,5.0,,,,,,,,,,,,0,0.0,0.0,0.0,0.0,0.0,0.0,0.0,0.0,0.0,0.0,0.0,0.0,0.0,0.0,0.0,,,,,0.0,,,,,,
263,2341180,1744864740790,,,,,,,,,,,,,,,,,,,,,,,,,,,,,,,,,,0,0.0,0.0,0.0,0.0,0.0,0.0,0.0,0.0,0.0,0.0,0.0,0.0,0.0,0.0,0.0,,,,,,,,,,,
264,2341200,1744864740810,0.0,135.0,,-0.08,-0.06,1.0,1.0,0.0,0.0,1.01,1.12,90.0,3755.0,6.9,3.91,,12.71,1.113,66.4,,30.2,5.0,,,,,,,,,,,,0,0.0,0.0,0.0,0.0,0.0,0.0,0.0,0.0,0.0,0.0,0.0,0.0,0.0,0.0,0.0,,,,,0.0,,,,,,
265,2341220,1744864740830,,,,,,,,,,,,,,,,,,,,,,,,,,,,,,,,,,0,0.0,0.0,0.0,0.0,0.0,0.0,0.0,0.0,0.0,0.0,0.0,0.0,0.0,0.0,0.0,,,,,,,,,,,
266,2341240,1744864740850,0.0,135.0,13.72,-0.08,-0.06,1.01,1.0,0.0,0.0,1.02,1.12,91.0,3764.0,6.9,3.9,15.0,12.79,1.103,66.4,153.0,30.2,5.0,0.0,0.0,0.0,0.0,0.0,0.0,0.0,0.0,2.26,0.0,0.0,0,0.0,0.0,0.0,0.0,0.0,0.0,0.0,0.0,0.0,0.0,0.0,0.0,0.0,0.0,0.0,0.0,0.0,0.0,0.0,0.0,38.985832,-76.950859,0.08,36.0,3.0,0.8
267,2341260,1744864740870,,,,,,,,,,,,,,,,,,,,,,,,,,,,,,,,,,0,0.0,0.0,0.0,0.0,0.0,0.0,0.0,0.0,0.0,0.0,0.0,0.0,0.0,0.0,0.0,,,,,,,,,,,
268,2341280,1744864740890,0.0,135.0,,-0.09,-0.09,0.99,1.0,0.0,0.0,1.0,1.12,90.0,3857.0,7.0,3.89,,12.69,1.104,66.4,,30.1,5.0,,,,,,,,,,,,0,0.0,0.0,0.0,0.0,0.0,0.0,0.0,0.0,0.0,0.0,0.0,0.0,0.0,0.0,0.0,,,,,0.0,,,,,,
269,2341300,1744864740910,,,,,,,,,,,,,,,,,,,,,,,,,,,,,,,,,,0,0.0,0.0,0.0,0.0,0.0,0.0,0.0,0.0,0.0,0.0,0.0,0.0,0.0,0.0,0.0,,,,,,,,,,,
270,2341320,1744864740930,0.0,135.0,,-0.1,-0.06,1.0,0.0,0.0,0.0,1.01,1.12,91.0,3752.0,7.1,3.9,,12.75,1.106,66.4,,30.1,5.0,,,,,,,,,,,,0,0.0,0.0,0.0,0.0,0.0,0.0,0.0,0.0,0.0,0.0,0.0,0.0,0.0,0.0,0.0,,,,,0.0,,,,,,
271,2341340,1744864740950,,,,,,,,,,,,,,,,,,,,,,,0.0,0.0,0.0,0.0,0.0,0.0,0.0,0.0,2.26,,,0,0.0,0.0,0.0,0.0,0.0,0.0,0.0,0.0,0.0,0.0,0.0,0.0,0.0,0.0,0.0,0.0,,,,,38.985832,-76.950859,0.05,36.0,3.0,0.8
272,2341360,1744864740970,0.0,135.0,,-0.1,-0.1,0.99,0.0,0.0,0.0,1.0,1.12,90.0,3819.0,7.2,3.9,,12.76,1.094,66.4,,30.1,5.0,,,,,,,,,,,,0,0.0,0.0,0.0,0.0,0.0,0.0,0.0,0.0,0.0,0.0,0.0,0.0,0.0,0.0,0.0,,,,,0.0,,,,,,
273,2341380,1744864740990,,,,,,,,,,,,,,,,,,,,,,,,,,,,,,,,,,0,0.0,0.0,0.0,0.0,0.0,0.0,0.0,0.0,0.0,0.0,0.0,0.0,0.0,0.0,0.0,,,,,,,,,,,
274,2341400,1744864741000,0.0,135.0,,-0.1,-0.11,0.98,0.0,0.0,0.0,0.99,1.12,89.0,3807.0,7.1,3.9,,12.76,1.094,66.4,,30.1,5.0,,,,,,,,,,,,0,0.0,0.0,0.0,0.0,0.0,0.0,0.0,0.0,0.0,0.0,0.0,0.0,0.0,0.0,0.0,,,,,0.0,,,,,,
275,2341420,1744864741020,,,,,,,,,,,,,,,,,,,,,,,,,,,,,,,,,,0,0.0,0.0,0.0,0.0,0.0,0.0,0.0,0.0,0.0,0.0,0.0,0.0,0.0,0.0,0.0,,,,,,,,,,,
276,2341440,1744864741040,0.0,135.0,,-0.08,-0.09,0.97,1.0,0.0,0.0,0.98,1.12,87.0,3807.0,7.1,3.9,,12.73,1.109,64.6,,30.1,5.0,0.0,0.0,0.0,0.0,0.0,0.0,0.0,0.0,2.26,,,0,0.0,0.0,0.0,0.0,0.0,0.0,0.0,0.0,0.0,0.0,0.0,0.0,0.0,0.0,0.0,0.0,,,,0.0,38.985832,-76.950859,0.07,36.0,3.0,0.8
277,2341460,1744864741060,,,,,,,,,,,,,,,,,,,,,,,,,,,,,,,,,,0,0.0,0.0,0.0,0.0,0.0,0.0,0.0,0.0,0.0,0.0,0.0,0.0,0.0,0.0,0.0,,,,,,,,,,,
278,2341480,1744864741080,0.0,135.0,,-0.08,-0.07,0.96,1.0,0.0,0.0,0.97,1.12,87.0,3861.0,7.1,3.89,,12.72,1.108,64.6,,30.3,5.0,,,,,,,,,,,,0,0.0,0.0,0.0,0.0,0.0,0.0,0.0,0.0,0.0,0.0,0.0,0.0,0.0,0.0,0.0,,,,,0.0,,,,,,
279,2341500,1744864741104,,,,,,,,,,,,,,,,,,,,,,,,,,,,,,,,,,0,0.0,0.0,0.0,0.0,0.0,0.0,0.0,0.0,0.0,0.0,0.0,0.0,0.0,0.0,0.0,,,,,,,,,,,
280,2341520,1744864741124,0.0,135.0,,-0.07,-0.05,0.96,1.0,0.0,0.0,0.97,1.12,87.0,3817.0,7.0,3.9,,12.69,1.093,64.6,,30.3,5.0,,,,,,,,,,,,0,0.0,0.0,0.0,0.0,0.0,0.0,0.0,0.0,0.0,0.0,0.0,0.0,0.0,0.0,0.0,,,,,0.0,,,,,,
281,2341540,1744864741144,,,,,,,,,,,,,,,,,,,,,,,0.0,0.0,0.0,0.0,0.0,0.0,0.0,0.0,2.26,,,0,0.0,0.0,0.0,0.0,0.0,0.0,0.0,0.0,0.0,0.0,0.0,0.0,0.0,0.0,0.0,0.0,,,,,38.985832,-76.950859,0.05,36.0,3.0,0.8
282,2341560,1744864741164,0.0,135.0,,-0.07,-0.01,0.98,0.0,0.0,0.0,0.98,1.12,88.0,3774.0,7.0,3.9,,12.71,1.096,64.6,,30.3,5.0,,,,,,,,,,,,0,0.0,0.0,0.0,0.0,0.0,0.0,0.0,0.0,0.0,0.0,0.0,0.0,0.0,0.0,0.0,,,,,0.0,,,,,,
283,2341580,1744864741184,,,,,,,,,,,,,,,,,,,,,,,,,,,,,,,,,,0,0.0,0.0,0.0,0.0,0.0,0.0,0.0,0.0,0.0,0.0,0.0,0.0,0.0,0.0,0.0,,,,,,,,,,,
284,2341600,1744864741202,0.0,135.0,,-0.07,-0.01,1.0,0.0,0.0,0.0,1.0,1.12,89.0,3842.0,6.8,3.9,,12.71,1.096,64.6,,30.0,5.0,,,,,,,,,,,,0,0.0,0.0,0.0,0.0,0.0,0.0,0.0,0.0,0.0,0.0,0.0,0.0,0.0,0.0,0.0,,,,,0.0,,,,,,
285,2341620,1744864741222,,,,,,,,,,,,,,,,,,,,,,,,,,,,,,,,,,0,0.0,0.0,0.0,0.0,0.0,0.0,0.0,0.0,0.0,0.0,0.0,0.0,0.0,0.0,0.0,,,,,,,,,,,
286,2341640,1744864741242,0.0,135.0,,-0.06,0.0,1.0,0.0,0.0,0.0,1.01,1.12,90.0,3842.0,6.8,3.9,,12.75,1.101,64.6,,30.0,5.0,0.0,0.0,0.0,0.0,0.0,0.0,0.0,0.0,2.26,,,0,0.0,0.0,0.0,0.0,0.0,0.0,0.0,0.0,0.0,0.0,0.0,0.0,0.0,0.0,0.0,0.0,,,,0.0,38.985832,-76.950859,0.07,36.0,3.0,0.8
287,2341660,1744864741262,,,,,,,,,,,,,,,,,,,,,,,,,,,,,,,,,,0,0.0,0.0,0.0,0.0,0.0,0.0,0.0,0.0,0.0,0.0,0.0,0.0,0.0,0.0,0.0,,,,,,,,,,,
288,2341680,1744864741282,0.0,135.0,,-0.07,0.02,1.01,0.0,0.0,0.0,1.01,1.12,90.0,3767.0,6.9,3.9,,12.71,1.099,64.6,,29.7,5.0,,,,,,,,,,,,0,0.0,0.0,0.0,0.0,0.0,0.0,0.0,0.0,0.0,0.0,0.0,0.0,0.0,0.0,0.0,,,,,0.0,,,,,,
289,2341700,1744864741310,,,,,,,,,,,,,,,,,,,,,,,,,,,,,,,,,,0,0.0,0.0,0.0,0.0,0.0,0.0,0.0,0.0,0.0,0.0,0.0,0.0,0.0,0.0,0.0,,,,,,,,,,,
290,2341720,1744864741330,0.0,135.0,,-0.08,-0.03,1.01,0.0,0.0,0.0,1.02,1.12,91.0,3825.0,6.9,3.9,,12.69,1.099,64.6,,29.7,5.0,,,,,,,,,,,,0,0.0,0.0,0.0,0.0,0.0,0.0,0.0,0.0,0.0,0.0,0.0,0.0,0.0,0.0,0.0,,,,,0.0,,,,,,
291,2341740,1744864741350,,,,,,,,,,,,,,,,,,,,,,,0.0,0.0,0.0,0.0,0.0,0.0,0.0,0.0,2.26,,,0,0.0,0.0,0.0,0.0,0.0,0.0,0.0,0.0,0.0,0.0,0.0,0.0,0.0,0.0,0.0,0.0,,,,,38.985832,-76.950859,0.05,36.0,3.0,0.8
292,2341760,1744864741370,0.0,135.0,,-0.08,-0.03,1.04,0.0,0.0,0.0,1.04,1.12,94.0,3786.0,7.0,3.9,,12.79,1.094,64.6,,29.7,5.0,,,,,,,,,,,,0,0.0,0.0,0.0,0.0,0.0,0.0,0.0,0.0,0.0,0.0,0.0,0.0,0.0,0.0,0.0,,,,,0.0,,,,,,
293,2341780,1744864741390,,,,,,,,,,,,,,,,,,,,,,,,,,,,,,,,,,0,0.0,0.0,0.0,0.0,0.0,0.0,0.0,0.0,0.0,0.0,0.0,0.0,0.0,0.0,0.0,,,,,,,,,,,
294,2341800,1744864741408,0.0,135.0,,-0.1,-0.11,1.04,0.0,0.0,0.0,1.05,1.12,94.0,3786.0,7.0,3.9,,12.79,1.094,64.6,,29.5,5.0,,,,,,,,,,,,0,0.0,0.0,0.0,0.0,0.0,0.0,0.0,0.0,0.0,0.0,0.0,0.0,0.0,0.0,0.0,,,,,0.0,,,,,,
295,2341820,1744864741428,,,,,,,,,,,,,,,,,,,,,,,,,,,,,,,,,,0,0.0,0.0,0.0,0.0,0.0,0.0,0.0,0.0,0.0,0.0,0.0,0.0,0.0,0.0,0.0,,,,,,,,,,,
296,2341840,1744864741448,0.0,135.0,,-0.09,-0.1,1.03,0.0,0.0,0.0,1.04,1.12,93.0,3768.0,7.1,3.9,,12.73,1.088,64.6,,29.5,5.0,0.0,0.0,0.0,0.0,0.0,0.0,0.0,0.0,2.26,,,0,0.0,0.0,0.0,0.0,0.0,0.0,0.0,0.0,0.0,0.0,0.0,0.0,0.0,0.0,0.0,0.0,,,,0.0,38.985832,-76.950859,0.04,36.0,3.0,0.8
297,2341860,1744864741468,,,,,,,,,,,,,,,,,,,,,,,,,,,,,,,,,,0,0.0,0.0,0.0,0.0,0.0,0.0,0.0,0.0,0.0,0.0,0.0,0.0,0.0,0.0,0.0,,,,,,,,,,,
298,2341880,1744864741488,0.0,135.0,,-0.1,-0.09,1.01,-1.0,0.0,0.0,1.02,1.12,91.0,3761.0,7.2,3.9,,12.75,1.086,64.6,,29.2,5.0,,,,,,,,,,,,0,0.0,0.0,0.0,0.0,0.0,0.0,0.0,0.0,0.0,0.0,0.0,0.0,0.0,0.0,0.0,,,,,0.0,,,,,,
299,2341900,1744864741509,,,,,,,,,,,,,,,,,,,,,,,,,,,,,,,,,,0,0.0,0.0,0.0,0.0,0.0,0.0,0.0,0.0,0.0,0.0,0.0,0.0,0.0,0.0,0.0,,,,,,,,,,,
300,2341920,1744864741529,0.0,135.0,,-0.11,-0.07,1.0,-1.0,0.0,1.0,1.01,1.12,91.0,3757.0,7.2,3.91,,12.73,1.099,64.6,,29.2,5.0,,,,,,,,,,,,0,0.0,0.0,0.0,0.0,0.0,0.0,0.0,0.0,0.0,0.0,0.0,0.0,0.0,0.0,0.0,,,,,0.0,,,,,,
301,2341940,1744864741549,,,,,,,,,,,,,,,,,,,,,,,0.0,0.0,0.0,0.0,0.0,0.0,0.0,0.0,2.26,,,0,0.0,0.0,0.0,0.0,0.0,0.0,0.0,0.0,0.0,0.0,0.0,0.0,0.0,0.0,0.0,0.0,,,,,38.985832,-76.950859,0.04,36.0,3.0,0.8
302,2341960,1744864741569,0.0,135.0,,-0.11,-0.12,0.99,-1.0,0.0,0.0,1.01,1.12,90.0,3831.0,7.2,3.9,,12.75,1.105,64.6,,29.2,5.0,,,,,,,,,,,,0,0.0,0.0,0.0,0.0,0.0,0.0,0.0,0.0,0.0,0.0,0.0,0.0,0.0,0.0,0.0,,,,,0.0,,,,,,
303,2341980,1744864741591,,,,,,,,,,,,,,,,,,,,,,,,,,,,,,,,,,0,0.0,0.0,0.0,0.0,0.0,0.0,0.0,0.0,0.0,0.0,0.0,0.0,0.0,0.0,0.0,,,,,,,,,,,
304,2342000,1744864741611,0.0,135.0,,-0.11,-0.11,0.98,-1.0,0.0,0.0,0.99,1.12,89.0,3779.0,7.1,3.91,,12.75,1.105,64.6,,29.9,5.0,,,,,,,,,,,,0,0.0,0.0,0.0,0.0,0.0,0.0,0.0,0.0,0.0,0.0,0.0,0.0,0.0,0.0,0.0,,,,,0.0,,,,,,
305,2342020,1744864741631,,,,,,,,,,,,,,,,,,,,,,,,,,,,,,,,,,0,0.0,0.0,0.0,0.0,0.0,0.0,0.0,0.0,0.0,0.0,0.0,0.0,0.0,0.0,0.0,,,,,,,,,,,
306,2342040,1744864741651,0.0,135.0,,-0.11,-0.09,0.97,-1.0,0.0,0.0,0.98,1.12,88.0,3779.0,7.1,3.91,,12.72,1.112,64.6,,29.9,5.0,0.0,0.0,0.0,0.0,0.0,0.0,0.0,0.0,2.26,,,0,0.0,0.0,0.0,0.0,0.0,0.0,0.0,0.0,0.0,0.0,0.0,0.0,0.0,0.0,0.0,0.0,,,,0.0,38.985832,-76.950859,0.08,36.0,3.0,0.8
307,2342060,1744864741671,,,,,,,,,,,,,,,,,,,,,,,,,,,,,,,,,,0,0.0,0.0,0.0,0.0,0.0,0.0,0.0,0.0,0.0,0.0,0.0,0.0,0.0,0.0,0.0,,,,,,,,,,,
308,2342080,1744864741691,0.0,135.0,,-0.11,-0.1,0.96,0.0,0.0,0.0,0.97,1.12,87.0,3808.0,7.0,3.9,,12.68,1.109,64.6,,29.9,5.0,,,,,,,,,,,,0,0.0,0.0,0.0,0.0,0.0,0.0,0.0,0.0,0.0,0.0,0.0,0.0,0.0,0.0,0.0,,,,,0.0,,,,,,
309,2342100,1744864741711,,,,,,,,,,,,,,,,,,,,,,,,,,,,,,,,,,0,0.0,0.0,0.0,0.0,0.0,0.0,0.0,0.0,0.0,0.0,0.0,0.0,0.0,0.0,0.0,,,,,,,,,,,
310,2342120,1744864741731,0.0,135.0,,-0.1,-0.08,0.99,0.0,0.0,0.0,1.0,1.12,90.0,3799.0,6.9,3.9,,12.75,1.116,64.6,,29.9,5.0,,,,,,,,,,,,0,0.0,0.0,0.0,0.0,0.0,0.0,0.0,0.0,0.0,0.0,0.0,0.0,0.0,0.0,0.0,,,,,0.0,,,,,,
311,2342140,1744864741751,,,,,,,,,,,,,,,,,,,,,,,0.0,0.0,0.0,0.0,0.0,0.0,0.0,0.0,2.26,,,0,0.0,0.0,0.0,0.0,0.0,0.0,0.0,0.0,0.0,0.0,0.0,0.0,0.0,0.0,0.0,0.0,,,,,38.985832,-76.950859,0.05,36.0,3.0,0.8
312,2342160,1744864741771,0.0,135.0,,-0.09,-0.08,1.0,1.0,0.0,0.0,1.01,1.12,90.0,3779.0,7.0,3.9,,12.68,1.099,64.6,,29.9,5.0,,,,,,,,,,,,0,0.0,0.0,0.0,0.0,0.0,0.0,0.0,0.0,0.0,0.0,0.0,0.0,0.0,0.0,0.0,,,,,0.0,,,,,,
313,2342180,1744864741791,,,,,,,,,,,,,,,,,,,,,,,,,,,,,,,,,,0,0.0,0.0,0.0,0.0,0.0,0.0,0.0,0.0,0.0,0.0,0.0,0.0,0.0,0.0,0.0,,,,,,,,,,,
314,2342200,1744864741809,0.0,135.0,,-0.06,-0.02,1.0,0.0,0.0,0.0,1.0,1.12,90.0,3814.0,6.9,3.89,,12.68,1.099,64.6,,29.7,5.0,,,,,,,,,,,,0,0.0,0.0,0.0,0.0,0.0,0.0,0.0,0.0,0.0,0.0,0.0,0.0,0.0,0.0,0.0,,,,,0.0,,,,,,
315,2342220,1744864741829,,,,,,,,,,,,,,,,,,,,,,,,,,,,,,,,,,0,0.0,0.0,0.0,0.0,0.0,0.0,0.0,0.0,0.0,0.0,0.0,0.0,0.0,0.0,0.0,,,,,,,,,,,
316,2342240,1744864741849,0.0,135.0,13.82,-0.05,0.0,0.98,0.0,0.0,0.0,0.98,1.12,88.0,3814.0,6.9,3.89,15.0,12.77,1.093,64.6,153.0,29.7,5.0,0.0,0.0,0.0,0.0,0.0,0.0,0.0,0.0,2.26,0.0,0.0,0,0.0,0.0,0.0,0.0,0.0,0.0,0.0,0.0,0.0,0.0,0.0,0.0,0.0,0.0,0.0,0.0,0.0,0.0,0.0,0.0,38.985832,-76.950859,0.08,36.0,3.0,0.8
317,2342260,1744864741869,,,,,,,,,,,,,,,,,,,,,,,,,,,,,,,,,,0,0.0,0.0,0.0,0.0,0.0,0.0,0.0,0.0,0.0,0.0,0.0,0.0,0.0,0.0,0.0,,,,,,,,,,,
318,2342280,1744864741891,0.0,135.0,,-0.06,0.0,0.97,0.0,0.0,0.0,0.97,1.12,87.0,3736.0,7.0,3.9,,12.77,1.108,64.6,,28.9,5.0,,,,,,,,,,,,0,0.0,0.0,0.0,0.0,0.0,0.0,0.0,0.0,0.0,0.0,0.0,0.0,0.0,0.0,0.0,,,,,0.0,,,,,,
319,2342300,1744864741911,,,,,,,,,,,,,,,,,,,,,,,,,,,,,,,,,,0,0.0,0.0,0.0,0.0,0.0,0.0,0.0,0.0,0.0,0.0,0.0,0.0,0.0,0.0,0.0,,,,,,,,,,,
320,2342320,1744864741931,0.0,135.0,,-0.07,0.04,0.98,0.0,0.0,0.0,0.99,1.12,88.0,3770.0,7.1,3.9,,12.75,1.107,64.6,,28.9,5.0,,,,,,,,,,,,0,0.0,0.0,0.0,0.0,0.0,0.0,0.0,0.0,0.0,0.0,0.0,0.0,0.0,0.0,0.0,,,,,0.0,,,,,,
321,2342340,1744864741951,,,,,,,,,,,,,,,,,,,,,,,0.0,0.0,0.0,0.0,0.0,0.0,0.0,0.0,2.26,,,0,0.0,0.0,0.0,0.0,0.0,0.0,0.0,0.0,0.0,0.0,0.0,0.0,0.0,0.0,0.0,0.0,,,,,38.985832,-76.950859,0.05,36.0,3.0,0.8
