,Interval,Utc,FrontBP,SteerAng,Battery,AccelX,AccelY,AccelZ,Yaw,Pitch,Roll,Gsum,GsumMax,GsumPct,RPM,TPS,InjectorPW,Baro,MAP,Lambda,IAT,EngineTemp,EOP,EOT,WSFR,WSFL,WSRR,WSRL,TCSet,TCSlip,TCComp,TCCut,Analog8,OilTemp,AA_On,ThermLF1,ThermLF2,ThermRR1,ThermRR2,ThermLF3,ThermLF4,ThermLF5,ThermLF6,ThermLF7,ThermLF8,ThermRR3,ThermRR4,ThermRR5,ThermRR6,ThermRR7,ThermRR8,Gear,AA_On1,AA_LowDrag,Fuel_Mix,AA_Packages,Latitude,Longitude,Speed,GPSSats,GPSQual,GPSDOP
0,3333060,1744865732679,,,,,,,,,,,,,,,,,,,,,,,,,,,,,,,,,,0,0,0,0,0,0,0,0,0,0,0,0,0,0,0,0,,,,,,,,,,,
1,3333080,1744865732699,0.0,135.0,,-0.16,0.23,1.05,-4.0,0.0,2.0,1.09,1.09,100.0,4460.0,9.2,3.76,,12.36,1.241,73.6,,32.1,5.0,,,,,,,,,,,,0,0,0,0,0,0,0,0,0,0,0,0,0,0,0,0,,,,,0.0,,,,,,
2,3333100,1744865732719,,,,,,,,,,,,,,,,,,,,,,,,,,,,,,,,,,0,0,0,0,0,0,0,0,0,0,0,0,0,0,0,0,,,,,,,,,,,
3,3333120,1744865732739,0.0,135.0,,-0.18,0.27,1.08,-5.0,0.0,3.0,1.12,1.12,100.0,4480.0,9.9,3.8,,12.36,1.241,73.6,,32.1,5.0,,,,,,,,,,,,0,0,0,0,0,0,0,0,0,0,0,0,0,0,0,0,,,,,0.0,,,,,,
4,3333140,1744865732759,,,,,,,,,,,,,,,,,,,,,,,0.0,0.0,0.0,0.0,0.0,0.0,0.0,0.0,2.26,,,0,0,0,0,0,0,0,0,0,0,0,0,0,0,0,0,0.0,,,,,38.985832,-76.950851,0.12,33.0,3.0,0.8
5,3333160,1744865732779,0.0,135.0,,-0.2,0.31,1.09,-6.0,0.0,3.0,1.15,1.15,100.0,4480.0,9.9,3.8,,12.41,1.216,73.6,,32.8,5.0,,,,,,,,,,,,0,0,0,0,0,0,0,0,0,0,0,0,0,0,0,0,,,,,0.0,,,,,,
6,3333180,1744865732799,,,,,,,,,,,,,,,,,,,,,,,,,,,,,,,,,,0,0,0,0,0,0,0,0,0,0,0,0,0,0,0,0,,,,,,,,,,,
7,3333200,1744865732819,0.0,135.0,,-0.22,0.35,1.11,-6.0,0.0,3.0,1.18,1.18,100.0,4505.0,10.1,3.85,,12.48,1.207,73.6,,32.8,5.0,,,,,,,,,,,,0,0,0,0,0,0,0,0,0,0,0,0,0,0,0,0,,,,,0.0,,,,,,
8,3333220,1744865732839,,,,,,,,,,,,,,,,,,,,,,,,,,,,,,,,,,0,0,0,0,0,0,0,0,0,0,0,0,0,0,0,0,,,,,,,,,,,
9,3333240,1744865732859,0.0,135.0,13.36,-0.23,0.42,1.13,-7.0,0.0,4.0,1.23,1.23,100.0,4489.0,10.2,3.84,15.0,12.51,1.243,73.6,169.0,32.8,5.0,0.0,0.0,0.0,0.0,0.0,0.0,0.0,0.0,2.26,0.0,0.0,0,0,0,0,0,0,0,0,0,0,0,0,0,0,0,0,0.0,0.0,0.0,0.0,0.0,38.985832,-76.950851,0.08,33.0,3.0,0.8
10,3333260,1744865732879,,,,,,,,,,,,,,,,,,,,,,,,,,,,,,,,,,0,0,0,0,0,0,0,0,0,0,0,0,0,0,0,0,,,,,,,,,,,
11,3333280,1744865732901,0.0,135.0,,-0.23,0.48,1.2,-8.0,0.0,4.0,1.31,1.31,100.0,4476.0,10.3,3.85,,12.57,1.231,73.6,,32.1,5.0,,,,,,,,,,,,0,0,0,0,0,0,0,0,0,0,0,0,0,0,0,0,,,,,0.0,,,,,,
12,3333300,1744865732921,,,,,,,,,,,,,,,,,,,,,,,,,,,,,,,,,,0,0,0,0,0,0,0,0,0,0,0,0,0,0,0,0,,,,,,,,,,,
13,3333320,1744865732941,0.0,135.0,,-0.22,0.61,1.26,-8.0,0.0,5.0,1.42,1.42,100.0,4486.0,10.3,3.86,,12.57,1.231,73.6,,32.1,5.0,,,,,,,,,,,,0,0,0,0,0,0,0,0,0,0,0,0,0,0,0,0,,,,,0.0,,,,,,
14,3333340,1744865732961,,,,,,,,,,,,,,,,,,,,,,,0.0,0.0,0.0,0.0,0.0,0.0,0.0,0.0,2.26,,,0,0,0,0,0,0,0,0,0,0,0,0,0,0,0,0,0.0,,,,,38.985832,-76.950851,0.07,33.0,3.0,0.8
15,3333360,1744865732981,0.0,135.0,,-0.21,0.69,1.34,-8.0,0.0,5.0,1.52,1.52,100.0,4486.0,10.3,3.86,,12.59,1.237,73.6,,32.4,5.0,,,,,,,,,,,,0,0,0,0,0,0,0,0,0,0,0,0,0,0,0,0,,,,,0.0,,,,,,
16,3333380,1744865732991,,,,,,,,,,,,,,,,,,,,,,,,,,,,,,,,,,0,0,0,0,0,0,0,0,0,0,0,0,0,0,0,0,,,,,,,,,,,
17,3333400,1744865733011,0.0,135.0,,-0.19,0.8,1.39,-8.0,0.0,5.0,1.61,1.61,100.0,4443.0,10.1,3.84,,12.53,1.242,73.6,,32.4,5.0,,,,,,,,,,,,0,0,0,0,0,0,0,0,0,0,0,0,0,0,0,0,,,,,0.0,,,,,,
18,3333420,1744865733031,,,,,,,,,,,,,,,,,,,,,,,,,,,,,,,,,,0,0,0,0,0,0,0,0,0,0,0,0,0,0,0,0,,,,,,,,,,,
19,3333440,1744865733051,0.0,135.0,,-0.17,0.79,1.42,-7.0,0.0,5.0,1.64,1.64,100.0,4468.0,10.0,3.83,,12.49,1.236,73.6,,32.4,5.0,0.0,0.0,0.0,0.0,0.0,0.0,0.0,0.0,2.26,,,0,0,0,0,0,0,0,0,0,0,0,0,0,0,0,0,0.0,,,,0.0,38.985832,-76.950851,0.06,33.0,3.0,0.8
20,3333460,1744865733071,,,,,,,,,,,,,,,,,,,,,,,,,,,,,,,,,,0,0,0,0,0,0,0,0,0,0,0,0,0,0,0,0,,,,,,,,,,,
21,3333480,1744865733097,0.0,135.0,,-0.13,0.79,1.41,-6.0,0.0,4.0,1.62,1.64,99.0,4430.0,9.8,3.81,,12.43,1.247,73.6,,32.2,5.0,,,,,,,,,,,,0,0,0,0,0,0,0,0,0,0,0,0,0,0,0,0,,,,,0.0,,,,,,
22,3333500,1744865733117,,,,,,,,,,,,,,,,,,,,,,,,,,,,,,,,,,0,0,0,0,0,0,0,0,0,0,0,0,0,0,0,0,,,,,,,,,,,
23,3333520,1744865733137,0.0,135.0,,-0.11,0.71,1.35,-4.0,0.0,3.0,1.53,1.64,93.0,4469.0,9.7,3.84,,12.43,1.247,73.6,,32.2,5.0,,,,,,,,,,,,0,0,0,0,0,0,0,0,0,0,0,0,0,0,0,0,,,,,0.0,,,,,,
24,3333540,1744865733157,,,,,,,,,,,,,,,,,,,,,,,0.0,0.0,0.0,0.0,0.0,0.0,0.0,0.0,2.26,,,0,0,0,0,0,0,0,0,0,0,0,0,0,0,0,0,0.0,,,,,38.985832,-76.950851,0.13,33.0,3.0,0.8
25,3333560,1744865733177,0.0,135.0,,-0.08,0.55,1.26,-2.0,0.0,2.0,1.38,1.64,84.0,4469.0,9.7,3.84,,12.49,1.24,73.6,,31.4,5.0,,,,,,,,,,,,0,0,0,0,0,0,0,0,0,0,0,0,0,0,0,0,,,,,0.0,,,,,,
26,3333580,1744865733197,,,,,,,,,,,,,,,,,,,,,,,,,,,,,,,,,,0,0,0,0,0,0,0,0,0,0,0,0,0,0,0,0,,,,,,,,,,,
27,3333600,1744865733217,0.0,135.0,,-0.07,0.38,1.14,-1.0,0.0,1.0,1.21,1.64,74.0,4466.0,9.6,3.82,,12.47,1.226,71.8,,31.4,5.0,,,,,,,,,,,,0,0,0,0,0,0,0,0,0,0,0,0,0,0,0,0,,,,,0.0,,,,,,
28,3333620,1744865733237,,,,,,,,,,,,,,,,,,,,,,,,,,,,,,,,,,0,0,0,0,0,0,0,0,0,0,0,0,0,0,0,0,,,,,,,,,,,
29,3333640,1744865733257,0.0,135.0,,-0.06,0.12,1.05,1.0,0.0,0.0,1.06,1.64,65.0,4435.0,9.5,3.82,,12.47,1.239,71.8,,31.4,5.0,0.0,0.0,0.0,0.0,0.0,0.0,0.0,0.0,2.26,,,0,0,0,0,0,0,0,0,0,0,0,0,0,0,0,0,0.0,,,,0.0,38.985832,-76.950851,0.04,33.0,3.0,0.8
30,3333660,1744865733277,,,,,,,,,,,,,,,,,,,,,,,,,,,,,,,,,,0,0,0,0,0,0,0,0,0,0,0,0,0,0,0,0,,,,,,,,,,,
31,3333680,1744865733299,0.0,135.0,,-0.08,0.05,1.01,0.0,0.0,0.0,1.02,1.64,62.0,4369.0,9.4,3.8,,12.52,1.227,71.8,,31.6,5.0,,,,,,,,,,,,0,0,0,0,0,0,0,0,0,0,0,0,0,0,0,0,,,,,0.0,,,,,,
32,3333700,1744865733319,,,,,,,,,,,,,,,,,,,,,,,,,,,,,,,,,,0,0,0,0,0,0,0,0,0,0,0,0,0,0,0,0,,,,,,,,,,,
33,3333720,1744865733339,0.0,135.0,,-0.11,0.1,1.03,-2.0,0.0,1.0,1.04,1.64,64.0,4369.0,9.5,3.8,,12.52,1.227,71.8,,31.6,5.0,,,,,,,,,,,,0,0,0,0,0,0,0,0,0,0,0,0,0,0,0,0,,,,,0.0,,,,,,
34,3333740,1744865733359,,,,,,,,,,,,,,,,,,,,,,,0.0,0.0,0.0,0.0,0.0,0.0,0.0,0.0,2.26,,,0,0,0,0,0,0,0,0,0,0,0,0,0,0,0,0,0.0,,,,,38.985832,-76.950851,0.12,33.0,3.0,0.8
35,3333760,1744865733379,0.0,135.0,,-0.1,0.29,1.13,-3.0,0.0,2.0,1.17,1.64,71.0,4369.0,9.5,3.8,,12.51,1.221,71.8,,31.3,5.0,,,,,,,,,,,,0,0,0,0,0,0,0,0,0,0,0,0,0,0,0,0,,,,,0.0,,,,,,
36,3333780,1744865733401,,,,,,,,,,,,,,,,,,,,,,,,,,,,,,,,,,0,0,0,0,0,0,0,0,0,0,0,0,0,0,0,0,,,,,,,,,,,
37,3333800,1744865733421,0.0,135.0,,-0.09,0.38,1.17,-2.0,0.0,2.0,1.23,1.64,75.0,4344.0,9.5,3.81,,12.4,1.231,71.8,,31.3,5.0,,,,,,,,,,,,0,0,0,0,0,0,0,0,0,0,0,0,0,0,0,0,,,,,0.0,,,,,,
38,3333820,1744865733441,,,,,,,,,,,,,,,,,,,,,,,,,,,,,,,,,,0,0,0,0,0,0,0,0,0,0,0,0,0,0,0,0,,,,,,,,,,,
39,3333840,1744865733461,0.0,135.0,,-0.06,0.27,1.1,0.0,0.0,1.0,1.14,1.64,69.0,4387.0,9.5,3.82,,12.48,1.224,71.8,,31.3,5.0,0.0,0.0,0.0,0.0,0.0,0.0,0.0,0.0,2.25,,,0,0,0,0,0,0,0,0,0,0,0,0,0,0,0,0,0.0,,,,0.0,38.985832,-76.950851,0.08,33.0,3.0,0.8
40,3333860,1744865733481,,,,,,,,,,,,,,,,,,,,,,,,,,,,,,,,,,0,0,0,0,0,0,0,0,0,0,0,0,0,0,0,0,,,,,,,,,,,
41,3333880,1744865733498,0.0,135.0,,-0.06,0.07,1.04,0.0,0.0,0.0,1.04,1.64,64.0,4325.0,9.5,3.83,,12.53,1.209,71.8,,31.4,5.0,,,,,,,,,,,,0,0,0,0,0,0,0,0,0,0,0,0,0,0,0,0,,,,,0.0,,,,,,
42,3333900,1744865733518,,,,,,,,,,,,,,,,,,,,,,,,,,,,,,,,,,0,0,0,0,0,0,0,0,0,0,0,0,0,0,0,0,,,,,,,,,,,
43,3333920,1744865733538,0.0,135.0,,-0.08,0.12,1.06,-2.0,0.0,1.0,1.07,1.64,66.0,4325.0,9.5,3.85,,12.53,1.209,71.8,,31.4,5.0,,,,,,,,,,,,0,0,0,0,0,0,0,0,0,0,0,0,0,0,0,0,,,,,0.0,,,,,,
44,3333940,1744865733558,,,,,,,,,,,,,,,,,,,,,,,0.0,0.0,0.0,0.0,0.0,0.0,0.0,0.0,2.26,,,0,0,0,0,0,0,0,0,0,0,0,0,0,0,0,0,0.0,,,,,38.985832,-76.950851,0.0,33.0,3.0,0.8
45,3333960,1744865733578,0.0,135.0,,-0.06,0.26,1.13,-2.0,0.0,2.0,1.16,1.64,71.0,4325.0,9.5,3.85,,12.53,1.215,71.8,,31.0,5.0,,,,,,,,,,,,0,0,0,0,0,0,0,0,0,0,0,0,0,0,0,0,,,,,0.0,,,,,,
46,3333980,1744865733598,,,,,,,,,,,,,,,,,,,,,,,,,,,,,,,,,,0,0,0,0,0,0,0,0,0,0,0,0,0,0,0,0,,,,,,,,,,,
47,3334000,1744865733618,0.0,135.0,,-0.05,0.22,1.09,0.0,0.0,1.0,1.11,1.64,68.0,4309.0,9.3,3.82,,12.51,1.223,71.8,,31.0,5.0,,,,,,,,,,,,0,0,0,0,0,0,0,0,0,0,0,0,0,0,0,0,,,,,0.0,,,,,,
48,3334020,1744865733638,,,,,,,,,,,,,,,,,,,,,,,,,,,,,,,,,,0,0,0,0,0,0,0,0,0,0,0,0,0,0,0,0,,,,,,,,,,,
49,3334040,1744865733658,0.0,135.0,,-0.06,0.0,0.99,1.0,0.0,0.0,0.99,1.64,61.0,4316.0,9.3,3.8,,12.47,1.207,71.8,,31.0,5.0,0.0,0.0,0.0,0.0,0.0,0.0,0.0,0.0,2.26,,,0,0,0,0,0,0,0,0,0,0,0,0,0,0,0,0,0.0,,,,0.0,38.985832,-76.950851,0.06,33.0,3.0,0.8
50,3334060,1744865733678,,,,,,,,,,,,,,,,,,,,,,,,,,,,,,,,,,0,0,0,0,0,0,0,0,0,0,0,0,0,0,0,0,,,,,,,,,,,
51,3334080,1744865733700,0.0,135.0,,-0.1,-0.09,0.96,0.0,0.0,0.0,0.97,1.64,59.0,4381.0,9.3,3.83,,12.49,1.216,71.8,,31.4,5.0,,,,,,,,,,,,0,0,0,0,0,0,0,0,0,0,0,0,0,0,0,0,,,,,0.0,,,,,,
52,3334100,1744865733720,,,,,,,,,,,,,,,,,,,,,,,,,,,,,,,,,,0,0,0,0,0,0,0,0,0,0,0,0,0,0,0,0,,,,,,,,,,,
53,3334120,1744865733740,0.0,135.0,,-0.11,0.09,1.04,-2.0,0.0,1.0,1.05,1.64,64.0,4393.0,9.3,3.8,,12.49,1.216,71.8,,31.4,5.0,,,,,,,,,,,,0,0,0,0,0,0,0,0,0,0,0,0,0,0,0,0,,,,,0.0,,,,,,
54,3334140,1744865733760,,,,,,,,,,,,,,,,,,,,,,,0.0,0.0,0.0,0.0,0.0,0.0,0.0,0.0,2.26,,,0,0,0,0,0,0,0,0,0,0,0,0,0,0,0,0,0.0,,,,,38.985832,-76.950851,0.14,33.0,3.0,0.8
55,3334160,1744865733780,0.0,135.0,,-0.1,0.26,1.14,-2.0,0.0,2.0,1.17,1.64,71.0,4393.0,9.3,3.8,,12.49,1.215,71.8,,30.9,5.0,,,,,,,,,,,,0,0,0,0,0,0,0,0,0,0,0,0,0,0,0,0,,,,,0.0,,,,,,
56,3334180,1744865733800,,,,,,,,,,,,,,,,,,,,,,,,,,,,,,,,,,0,0,0,0,0,0,0,0,0,0,0,0,0,0,0,0,,,,,,,,,,,
57,3334200,1744865733820,0.0,135.0,,-0.06,0.28,1.14,-1.0,0.0,1.0,1.17,1.64,72.0,4408.0,9.3,3.79,,12.48,1.21,71.8,,30.9,5.0,,,,,,,,,,,,0,0,0,0,0,0,0,0,0,0,0,0,0,0,0,0,,,,,0.0,,,,,,
58,3334220,1744865733840,,,,,,,,,,,,,,,,,,,,,,,,,,,,,,,,,,0,0,0,0,0,0,0,0,0,0,0,0,0,0,0,0,,,,,,,,,,,
59,3334240,1744865733860,0.0,135.0,13.36,-0.05,0.16,1.05,1.0,0.0,0.0,1.06,1.64,65.0,4359.0,9.4,3.78,15.0,12.55,1.221,71.8,169.0,30.9,5.0,0.0,0.0,0.0,0.0,0.0,0.0,0.0,0.0,2.26,0.0,0.0,0,0,0,0,0,0,0,0,0,0,0,0,0,0,0,0,0.0,0.0,0.0,0.0,0.0,38.985832,-76.950851,0.04,33.0,3.0,0.8
60,3334260,1744865733880,,,,,,,,,,,,,,,,,,,,,,,,,,,,,,,,,,0,0,0,0,0,0,0,0,0,0,0,0,0,0,0,0,,,,,,,,,,,
61,3334280,1744865733900,0.0,135.0,,-0.07,-0.05,0.95,2.0,0.0,-1.0,0.96,1.64,59.0,4334.0,9.5,3.79,,12.53,1.221,71.8,,31.6,5.0,,,,,,,,,,,,0,0,0,0,0,0,0,0,0,0,0,0,0,0,0,0,,,,,0.0,,,,,,
62,3334300,1744865733920,,,,,,,,,,,,,,,,,,,,,,,,,,,,,,,,,,0,0,0,0,0,0,0,0,0,0,0,0,0,0,0,0,,,,,,,,,,,
63,3334320,1744865733940,0.0,135.0,,-0.08,-0.11,0.95,1.0,0.0,0.0,0.96,1.64,59.0,4338.0,10.0,3.83,,12.53,1.221,71.8,,31.6,5.0,,,,,,,,,,,,0,0,0,0,0,0,0,0,0,0,0,0,0,0,0,0,,,,,0.0,,,,,,
64,3334340,1744865733960,,,,,,,,,,,,,,,,,,,,,,,0.0,0.0,0.0,0.0,0.0,0.0,0.0,0.0,2.26,,,0,0,0,0,0,0,0,0,0,0,0,0,0,0,0,0,0.0,,,,,38.985832,-76.950851,0.05,33.0,3.0,0.8
65,3334360,1744865733980,0.0,135.0,,-0.09,0.06,1.02,-1.0,0.0,1.0,1.03,1.64,63.0,4338.0,10.0,3.83,,12.51,1.207,71.8,,30.6,5.0,,,,,,,,,,,,0,0,0,0,0,0,0,0,0,0,0,0,0,0,0,0,,,,,0.0,,,,,,
66,3334380,1744865733992,,,,,,,,,,,,,,,,,,,,,,,,,,,,,,,,,,0,0,0,0,0,0,0,0,0,0,0,0,0,0,0,0,,,,,,,,,,,
67,3334400,1744865734012,0.0,135.0,,-0.08,0.2,1.09,-1.0,0.0,1.0,1.11,1.64,68.0,4367.0,10.1,3.83,,12.57,1.214,71.8,,30.6,5.0,,,,,,,,,,,,0,0,0,0,0,0,0,0,0,0,0,0,0,0,0,0,,,,,0.0,,,,,,
68,3334420,1744865734032,,,,,,,,,,,,,,,,,,,,,,,,,,,,,,,,,,0,0,0,0,0,0,0,0,0,0,0,0,0,0,0,0,,,,,,,,,,,
69,3334440,1744865734052,0.0,135.0,,-0.06,0.16,1.05,1.0,0.0,0.0,1.06,1.64,65.0,4378.0,10.2,3.85,,12.63,1.225,71.8,,30.6,5.0,0.0,0.0,0.0,0.0,0.0,0.0,0.0,0.0,2.26,,,0,0,0,0,0,0,0,0,0,0,0,0,0,0,0,0,0.0,,,,0.0,38.985832,-76.950851,0.04,34.0,3.0,0.8
70,3334460,1744865734072,,,,,,,,,,,,,,,,,,,,,,,,,,,,,,,,,,0,0,0,0,0,0,0,0,0,0,0,0,0,0,0,0,,,,,,,,,,,
71,3334480,1744865734094,0.0,135.0,,-0.07,0.04,1.0,0.0,0.0,0.0,1.0,1.64,61.0,4314.0,10.2,3.85,,12.69,1.216,71.8,,30.7,5.0,,,,,,,,,,,,0,0,0,0,0,0,0,0,0,0,0,0,0,0,0,0,,,,,0.0,,,,,,
72,3334500,1744865734114,,,,,,,,,,,,,,,,,,,,,,,,,,,,,,,,,,0,0,0,0,0,0,0,0,0,0,0,0,0,0,0,0,,,,,,,,,,,
73,3334520,1744865734134,0.0,135.0,,-0.1,-0.09,0.95,-1.0,0.0,0.0,0.96,1.64,59.0,4336.0,10.2,3.84,,12.69,1.216,71.8,,30.7,5.0,,,,,,,,,,,,0,0,0,0,0,0,0,0,0,0,0,0,0,0,0,0,,,,,0.0,,,,,,
74,3334540,1744865734154,,,,,,,,,,,,,,,,,,,,,,,0.0,0.0,0.0,0.0,0.0,0.0,0.0,0.0,2.26,,,0,0,0,0,0,0,0,0,0,0,0,0,0,0,0,0,0.0,,,,,38.985832,-76.950851,0.0,34.0,3.0,0.8
75,3334560,1744865734174,0.0,135.0,,-0.12,0.03,1.01,-2.0,0.0,1.0,1.02,1.64,62.0,4336.0,10.2,3.84,,12.64,1.223,71.8,,30.7,5.0,,,,,,,,,,,,0,0,0,0,0,0,0,0,0,0,0,0,0,0,0,0,,,,,0.0,,,,,,
76,3334580,1744865734196,,,,,,,,,,,,,,,,,,,,,,,,,,,,,,,,,,0,0,0,0,0,0,0,0,0,0,0,0,0,0,0,0,,,,,,,,,,,
77,3334600,1744865734216,0.0,135.0,,-0.12,0.21,1.1,-3.0,0.0,2.0,1.13,1.64,69.0,4376.0,10.2,3.82,,12.6,1.243,71.8,,30.7,5.0,,,,,,,,,,,,0,0,0,0,0,0,0,0,0,0,0,0,0,0,0,0,,,,,0.0,,,,,,
78,3334620,1744865734236,,,,,,,,,,,,,,,,,,,,,,,,,,,,,,,,,,0,0,0,0,0,0,0,0,0,0,0,0,0,0,0,0,,,,,,,,,,,
79,3334640,1744865734256,0.0,135.0,,-0.09,0.37,1.18,-3.0,0.0,2.0,1.24,1.64,75.0,4436.0,10.2,3.84,,12.65,1.225,71.8,,30.7,5.0,0.0,0.0,0.0,0.0,0.0,0.0,0.0,0.0,2.26,,,0,0,0,0,0,0,0,0,0,0,0,0,0,0,0,0,0.0,,,,0.0,38.985832,-76.950851,0.08,34.0,3.0,0.8
80,3334660,1744865734276,,,,,,,,,,,,,,,,,,,,,,,,,,,,,,,,,,0,0,0,0,0,0,0,0,0,0,0,0,0,0,0,0,,,,,,,,,,,
81,3334680,1744865734300,0.0,135.0,,-0.08,0.44,1.22,-1.0,0.0,2.0,1.3,1.64,79.0,4478.0,10.2,3.82,,12.59,1.218,71.8,,30.7,5.0,,,,,,,,,,,,0,0,0,0,0,0,0,0,0,0,0,0,0,0,0,0,,,,,0.0,,,,,,
82,3334700,1744865734320,,,,,,,,,,,,,,,,,,,,,,,,,,,,,,,,,,0,0,0,0,0,0,0,0,0,0,0,0,0,0,0,0,,,,,,,,,,,
83,3334720,1744865734340,0.0,135.0,,-0.05,0.41,1.21,0.0,0.0,1.0,1.28,1.64,78.0,4462.0,10.3,3.82,,12.59,1.218,71.8,,30.7,5.0,,,,,,,,,,,,0,0,0,0,0,0,0,0,0,0,0,0,0,0,0,0,,,,,0.0,,,,,,
84,3334740,1744865734360,,,,,,,,,,,,,,,,,,,,,,,0.0,0.0,0.0,0.0,0.0,0.0,0.0,0.0,2.26,,,0,0,0,0,0,0,0,0,0,0,0,0,0,0,0,0,0.0,,,,,38.985832,-76.950851,0.13,34.0,3.0,0.8
85,3334760,1744865734380,0.0,135.0,,-0.03,0.32,1.15,2.0,0.0,0.0,1.19,1.64,73.0,4462.0,10.3,3.82,,12.59,1.239,71.8,,31.0,5.0,,,,,,,,,,,,0,0,0,0,0,0,0,0,0,0,0,0,0,0,0,0,,,,,0.0,,,,,,
86,3334780,1744865734400,,,,,,,,,,,,,,,,,,,,,,,,,,,,,,,,,,0,0,0,0,0,0,0,0,0,0,0,0,0,0,0,0,,,,,,,,,,,
87,3334800,1744865734420,0.0,135.0,,-0.01,0.18,1.09,3.0,0.0,-1.0,1.1,1.64,67.0,4478.0,10.4,3.83,,12.61,1.223,71.8,,31.0,5.0,,,,,,,,,,,,0,0,0,0,0,0,0,0,0,0,0,0,0,0,0,0,,,,,0.0,,,,,,
88,3334820,1744865734440,,,,,,,,,,,,,,,,,,,,,,,,,,,,,,,,,,0,0,0,0,0,0,0,0,0,0,0,0,0,0,0,0,,,,,,,,,,,
89,3334840,1744865734460,0.0,135.0,,0.01,0.07,1.01,4.0,0.0,-2.0,1.01,1.64,62.0,4462.0,10.4,3.8,,12.57,1.228,71.8,,31.0,5.0,0.0,0.0,0.0,0.0,0.0,0.0,0.0,0.0,2.26,,,0,0,0,0,0,0,0,0,0,0,0,0,0,0,0,0,0.0,,,,0.0,38.985832,-76.950851,0.21,34.0,3.0,0.8
90,3334860,1744865734480,,,,,,,,,,,,,,,,,,,,,,,,,,,,,,,,,,0,0,0,0,0,0,0,0,0,0,0,0,0,0,0,0,,,,,,,,,,,
91,3334880,1744865734499,0.0,135.0,,0.0,-0.12,0.93,5.0,0.0,-2.0,0.93,1.64,57.0,4412.0,10.4,3.82,,12.6,1.238,71.8,,31.0,5.0,,,,,,,,,,,,0,0,0,0,0,0,0,0,0,0,0,0,0,0,0,0,,,,,0.0,,,,,,
92,3334900,1744865734519,,,,,,,,,,,,,,,,,,,,,,,,,,,,,,,,,,0,0,0,0,0,0,0,0,0,0,0,0,0,0,0,0,,,,,,,,,,,
93,3334920,1744865734539,0.0,135.0,,0.02,-0.27,0.87,5.0,0.0,-3.0,0.91,1.64,55.0,4427.0,10.4,3.82,,12.6,1.238,71.8,,31.0,5.0,,,,,,,,,,,,0,0,0,0,0,0,0,0,0,0,0,0,0,0,0,0,,,,,0.0,,,,,,
94,3334940,1744865734559,,,,,,,,,,,,,,,,,,,,,,,0.0,0.0,0.0,0.0,0.0,0.0,0.0,0.0,2.26,,,0,0,0,0,0,0,0,0,0,0,0,0,0,0,0,0,0.0,,,,,38.985832,-76.950851,0.29,34.0,3.0,0.8
95,3334960,1744865734579,0.0,135.0,,-0.0,-0.43,0.78,5.0,0.0,-3.0,0.89,1.64,55.0,4427.0,10.4,3.82,,12.56,1.223,71.8,,30.8,5.0,,,,,,,,,,,,0,0,0,0,0,0,0,0,0,0,0,0,0,0,0,0,,,,,0.0,,,,,,
96,3334980,1744865734599,,,,,,,,,,,,,,,,,,,,,,,,,,,,,,,,,,0,0,0,0,0,0,0,0,0,0,0,0,0,0,0,0,,,,,,,,,,,
97,3335000,1744865734619,0.0,135.0,,0.01,-0.52,0.76,4.0,0.0,-3.0,0.92,1.64,56.0,4488.0,10.2,3.83,,12.63,1.234,71.8,,30.8,5.0,,,,,,,,,,,,0,0,0,0,0,0,0,0,0,0,0,0,0,0,0,0,,,,,0.0,,,,,,
98,3335020,1744865734639,,,,,,,,,,,,,,,,,,,,,,,,,,,,,,,,,,0,0,0,0,0,0,0,0,0,0,0,0,0,0,0,0,,,,,,,,,,,
99,3335040,1744865734659,0.0,135.0,,-0.04,-0.58,0.72,2.0,0.0,-2.0,0.93,1.64,57.0,4464.0,10.2,3.83,,12.57,1.223,71.8,,30.8,5.0,0.0,0.0,0.0,0.0,0.0,0.0,0.0,0.0,2.26,,,0,0,0,0,0,0,0,0,0,0,0,0,0,0,0,0,0.0,,,,0.0,38.985832,-76.950851,0.88,34.0,3.0,0.8
100,3335060,1744865734679,,,,,,,,,,,,,,,,,,,,,,,,,,,,,,,,,,0,0,0,0,0,0,0,0,0,0,0,0,0,0,0,0,,,,,,,,,,,
101,3335080,1744865734699,0.0,135.0,,-0.06,-0.55,0.73,1.0,0.0,-1.0,0.92,1.64,56.0,4472.0,10.2,3.83,,12.59,1.212,71.8,,30.7,5.0,,,,,,,,,,,,0,0,0,0,0,0,0,0,0,0,0,0,0,0,0,0,,,,,0.0,,,,,,
102,3335100,1744865734719,,,,,,,,,,,,,,,,,,,,,,,,,,,,,,,,,,0,0,0,0,0,0,0,0,0,0,0,0,0,0,0,0,,,,,,,,,,,
103,3335120,1744865734739,0.0,135.0,,-0.1,-0.47,0.76,-1.0,0.0,0.0,0.9,1.64,55.0,4470.0,10.2,3.81,,12.59,1.212,71.8,,30.7,5.0,,,,,,,,,,,,0,0,0,0,0,0,0,0,0,0,0,0,0,0,0,0,,,,,0.0,,,,,,
104,3335140,1744865734759,,,,,,,,,,,,,,,,,,,,,,,0.0,0.0,0.0,0.0,0.0,0.0,0.0,0.0,2.26,,,0,0,0,0,0,0,0,0,0,0,0,0,0,0,0,0,0.0,,,,,38.985832,-76.950851,0.72,34.0,3.0,0.8
105,3335160,1744865734779,0.0,135.0,,-0.12,-0.32,0.82,-2.0,0.0,1.0,0.89,1.64,54.0,4470.0,10.2,3.81,,12.59,1.228,71.8,,30.8,5.0,,,,,,,,,,,,0,0,0,0,0,0,0,0,0,0,0,0,0,0,0,0,,,,,0.0,,,,,,
106,3335180,1744865734799,,,,,,,,,,,,,,,,,,,,,,,,,,,,,,,,,,0,0,0,0,0,0,0,0,0,0,0,0,0,0,0,0,,,,,,,,,,,
107,3335200,1744865734819,0.0,135.0,,-0.13,-0.09,0.91,-4.0,0.0,2.0,0.92,1.64,56.0,4447.0,10.2,3.8,,12.57,1.221,71.8,,30.8,5.0,,,,,,,,,,,,0,0,0,0,0,0,0,0,0,0,0,0,0,0,0,0,,,,,0.0,,,,,,
108,3335220,1744865734839,,,,,,,,,,,,,,,,,,,,,,,,,,,,,,,,,,0,0,0,0,0,0,0,0,0,0,0,0,0,0,0,0,,,,,,,,,,,
109,3335240,1744865734859,0.0,135.0,13.36,-0.14,0.06,1.02,-4.0,0.0,2.0,1.03,1.64,63.0,4413.0,10.4,3.81,15.0,12.68,1.22,71.8,169.0,30.8,5.0,0.0,0.0,0.0,0.0,0.0,0.0,0.0,0.0,2.26,0.0,0.0,0,0,0,0,0,0,0,0,0,0,0,0,0,0,0,0,0.0,0.0,0.0,0.0,0.0,38.985832,-76.950851,0.31,34.0,3.0,0.8
110,3335260,1744865734879,,,,,,,,,,,,,,,,,,,,,,,,,,,,,,,,,,0,0,0,0,0,0,0,0,0,0,0,0,0,0,0,0,,,,,,,,,,,
111,3335280,1744865734901,0.0,135.0,,-0.12,0.24,1.12,-3.0,0.0,2.0,1.15,1.64,70.0,4405.0,10.5,3.83,,12.6,1.228,71.8,,30.2,5.0,,,,,,,,,,,,0,0,0,0,0,0,0,0,0,0,0,0,0,0,0,0,,,,,0.0,,,,,,
112,3335300,1744865734921,,,,,,,,,,,,,,,,,,,,,,,,,,,,,,,,,,0,0,0,0,0,0,0,0,0,0,0,0,0,0,0,0,,,,,,,,,,,
113,3335320,1744865734941,0.0,135.0,,-0.1,0.28,1.15,-2.0,0.0,2.0,1.19,1.64,73.0,4418.0,10.4,3.83,,12.6,1.228,71.8,,30.2,5.0,,,,,,,,,,,,0,0,0,0,0,0,0,0,0,0,0,0,0,0,0,0,,,,,0.0,,,,,,
114,3335340,1744865734961,,,,,,,,,,,,,,,,,,,,,,,0.0,0.0,0.0,0.0,0.0,0.0,0.0,0.0,2.26,,,0,0,0,0,0,0,0,0,0,0,0,0,0,0,0,0,0.0,,,,,38.985832,-76.950851,0.14,34.0,3.0,0.8
115,3335360,1744865734981,0.0,135.0,,-0.06,0.25,1.12,0.0,0.0,0.0,1.15,1.64,70.0,4418.0,10.4,3.83,,12.63,1.218,71.8,,30.8,5.0,,,,,,,,,,,,0,0,0,0,0,0,0,0,0,0,0,0,0,0,0,0,,,,,0.0,,,,,,
116,3335380,1744865734993,,,,,,,,,,,,,,,,,,,,,,,,,,,,,,,,,,0,0,0,0,0,0,0,0,0,0,0,0,0,0,0,0,,,,,,,,,,,
117,3335400,1744865735013,0.0,135.0,,-0.05,0.13,1.06,1.0,0.0,0.0,1.07,1.64,65.0,4467.0,9.4,3.78,,12.52,1.21,71.8,,30.8,5.0,,,,,,,,,,,,0,0,0,0,0,0,0,0,0,0,0,0,0,0,0,0,,,,,0.0,,,,,,
118,3335420,1744865735033,,,,,,,,,,,,,,,,,,,,,,,,,,,,,,,,,,0,0,0,0,0,0,0,0,0,0,0,0,0,0,0,0,,,,,,,,,,,
119,3335440,1744865735053,0.0,135.0,,-0.03,-0.01,0.99,3.0,0.0,-1.0,0.99,1.64,61.0,4476.0,8.6,3.71,,12.44,1.218,71.8,,30.8,5.0,0.0,0.0,0.0,0.0,0.0,0.0,0.0,0.0,2.26,,,0,0,0,0,0,0,0,0,0,0,0,0,0,0,0,0,0.0,,,,0.0,38.985832,-76.950851,0.51,34.0,3.0,0.8
120,3335460,1744865735073,,,,,,,,,,,,,,,,,,,,,,,,,,,,,,,,,,0,0,0,0,0,0,0,0,0,0,0,0,0,0,0,0,,,,,,,,,,,
121,3335480,1744865735099,0.0,135.0,,-0.01,-0.14,0.91,3.0,0.0,-2.0,0.92,1.64,56.0,4488.0,8.5,3.69,,12.44,1.201,71.8,,31.2,5.0,,,,,,,,,,,,0,0,0,0,0,0,0,0,0,0,0,0,0,0,0,0,,,,,0.0,,,,,,
122,3335500,1744865735119,,,,,,,,,,,,,,,,,,,,,,,,,,,,,,,,,,0,0,0,0,0,0,0,0,0,0,0,0,0,0,0,0,,,,,,,,,,,
123,3335520,1744865735139,0.0,135.0,,0.0,-0.31,0.85,4.0,0.0,-2.0,0.91,1.64,56.0,4484.0,8.4,3.68,,12.44,1.201,71.8,,31.2,5.0,,,,,,,,,,,,0,0,0,0,0,0,0,0,0,0,0,0,0,0,0,0,,,,,0.0,,,,,,
124,3335540,1744865735159,,,,,,,,,,,,,,,,,,,,,,,0.0,0.0,0.0,0.0,0.0,0.0,0.0,0.0,2.26,,,0,0,0,0,0,0,0,0,0,0,0,0,0,0,0,0,0.0,,,,,38.985832,-76.950851,0.18,34.0,3.0,0.8
125,3335560,1744865735179,0.0,135.0,,0.01,-0.41,0.77,4.0,0.0,-3.0,0.87,1.64,53.0,4484.0,8.4,3.68,,12.36,1.197,71.8,,30.6,5.0,,,,,,,,,,,,0,0,0,0,0,0,0,0,0,0,0,0,0,0,0,0,,,,,0.0,,,,,,
126,3335580,1744865735201,,,,,,,,,,,,,,,,,,,,,,,,,,,,,,,,,,0,0,0,0,0,0,0,0,0,0,0,0,0,0,0,0,,,,,,,,,,,
127,3335600,1744865735221,0.0,135.0,,-0.01,-0.58,0.72,4.0,0.0,-3.0,0.92,1.64,56.0,4423.0,8.4,3.69,,12.37,1.203,71.8,,30.6,5.0,,,,,,,,,,,,0,0,0,0,0,0,0,0,0,0,0,0,0,0,0,0,,,,,0.0,,,,,,
128,3335620,1744865735241,,,,,,,,,,,,,,,,,,,,,,,,,,,,,,,,,,0,0,0,0,0,0,0,0,0,0,0,0,0,0,0,0,,,,,,,,,,,
129,3335640,1744865735261,0.0,135.0,,-0.03,-0.56,0.72,2.0,0.0,-2.0,0.91,1.64,56.0,4381.0,8.4,3.7,,12.27,1.185,71.8,,30.6,5.0,0.0,0.0,0.0,0.0,0.0,0.0,0.0,0.0,2.26,,,0,0,0,0,0,0,0,0,0,0,0,0,0,0,0,0,0.0,,,,0.0,38.985832,-76.950851,0.67,34.0,3.0,0.8
130,3335660,1744865735281,,,,,,,,,,,,,,,,,,,,,,,,,,,,,,,,,,0,0,0,0,0,0,0,0,0,0,0,0,0,0,0,0,,,,,,,,,,,
131,3335680,1744865735299,0.0,135.0,,-0.07,-0.42,0.79,0.0,0.0,0.0,0.89,1.64,55.0,4419.0,8.5,3.74,,12.32,1.192,71.8,,30.6,5.0,,,,,,,,,,,,0,0,0,0,0,0,0,0,0,0,0,0,0,0,0,0,,,,,0.0,,,,,,
132,3335700,1744865735319,,,,,,,,,,,,,,,,,,,,,,,,,,,,,,,,,,0,0,0,0,0,0,0,0,0,0,0,0,0,0,0,0,,,,,,,,,,,
133,3335720,1744865735339,0.0,135.0,,-0.07,-0.17,0.91,-1.0,0.0,0.0,0.93,1.64,57.0,4398.0,8.5,3.72,,12.32,1.192,71.8,,30.6,5.0,,,,,,,,,,,,0,0,0,0,0,0,0,0,0,0,0,0,0,0,0,0,,,,,0.0,,,,,,
134,3335740,1744865735359,,,,,,,,,,,,,,,,,,,,,,,0.0,0.0,0.0,0.0,0.0,0.0,0.0,0.0,2.26,,,0,0,0,0,0,0,0,0,0,0,0,0,0,0,0,0,0.0,,,,,38.985832,-76.950851,0.21,34.0,3.0,0.8
135,3335760,1744865735379,0.0,135.0,,-0.05,-0.02,0.98,1.0,0.0,0.0,0.98,1.64,60.0,4398.0,8.5,3.72,,12.39,1.19,71.8,,30.3,5.0,,,,,,,,,,,,0,0,0,0,0,0,0,0,0,0,0,0,0,0,0,0,,,,,0.0,,,,,,
136,3335780,1744865735401,,,,,,,,,,,,,,,,,,,,,,,,,,,,,,,,,,0,0,0,0,0,0,0,0,0,0,0,0,0,0,0,0,,,,,,,,,,,
137,3335800,1744865735421,0.0,135.0,,-0.03,-0.11,0.92,2.0,0.0,-1.0,0.93,1.64,57.0,4379.0,8.7,3.76,,12.39,1.175,71.8,,30.3,5.0,,,,,,,,,,,,0,0,0,0,0,0,0,0,0,0,0,0,0,0,0,0,,,,,0.0,,,,,,
138,3335820,1744865735441,,,,,,,,,,,,,,,,,,,,,,,,,,,,,,,,,,0,0,0,0,0,0,0,0,0,0,0,0,0,0,0,0,,,,,,,,,,,
139,3335840,1744865735461,0.0,135.0,,-0.03,-0.28,0.87,2.0,0.0,-1.0,0.92,1.64,56.0,4314.0,8.7,3.73,,12.39,1.181,71.8,,30.3,5.0,0.0,0.0,0.0,0.0,0.0,0.0,0.0,0.0,2.26,,,0,0,0,0,0,0,0,0,0,0,0,0,0,0,0,0,0.0,,,,0.0,38.985832,-76.950851,0.37,34.0,3.0,0.8
140,3335860,1744865735481,,,,,,,,,,,,,,,,,,,,,,,,,,,,,,,,,,0,0,0,0,0,0,0,0,0,0,0,0,0,0,0,0,,,,,,,,,,,
141,3335880,1744865735500,0.0,135.0,,-0.07,-0.26,0.88,0.0,0.0,0.0,0.92,1.64,56.0,4291.0,8.6,3.76,,12.41,1.191,71.8,,30.5,5.0,,,,,,,,,,,,0,0,0,0,0,0,0,0,0,0,0,0,0,0,0,0,,,,,0.0,,,,,,
142,3335900,1744865735520,,,,,,,,,,,,,,,,,,,,,,,,,,,,,,,,,,0,0,0,0,0,0,0,0,0,0,0,0,0,0,0,0,,,,,,,,,,,
143,3335920,1744865735540,0.0,135.0,,-0.07,-0.06,0.99,-1.0,0.0,1.0,0.99,1.64,61.0,4368.0,8.6,3.76,,12.41,1.191,71.8,,30.5,5.0,,,,,,,,,,,,0,0,0,0,0,0,0,0,0,0,0,0,0,0,0,0,,,,,0.0,,,,,,
144,3335940,1744865735560,,,,,,,,,,,,,,,,,,,,,,,0.0,0.0,0.0,0.0,0.0,0.0,0.0,0.0,2.26,,,0,0,0,0,0,0,0,0,0,0,0,0,0,0,0,0,0.0,,,,,38.985832,-76.950851,0.44,34.0,3.0,0.8
145,3335960,1744865735580,0.0,135.0,,-0.05,0.06,1.01,1.0,0.0,0.0,1.01,1.64,62.0,4368.0,8.6,3.76,,12.4,1.184,71.8,,30.3,5.0,,,,,,,,,,,,0,0,0,0,0,0,0,0,0,0,0,0,0,0,0,0,,,,,0.0,,,,,,
146,3335980,1744865735598,,,,,,,,,,,,,,,,,,,,,,,,,,,,,,,,,,0,0,0,0,0,0,0,0,0,0,0,0,0,0,0,0,,,,,,,,,,,
147,3336000,1744865735618,0.0,135.0,,-0.05,-0.12,0.92,2.0,0.0,-1.0,0.93,1.64,57.0,4344.0,8.5,3.77,,12.41,1.184,71.8,,30.3,5.0,,,,,,,,,,,,0,0,0,0,0,0,0,0,0,0,0,0,0,0,0,0,,,,,0.0,,,,,,
148,3336020,1744865735638,,,,,,,,,,,,,,,,,,,,,,,,,,,,,,,,,,0,0,0,0,0,0,0,0,0,0,0,0,0,0,0,0,,,,,,,,,,,
149,3336040,1744865735658,0.0,135.0,,-0.07,-0.25,0.87,0.0,0.0,0.0,0.91,1.64,56.0,4363.0,8.4,3.74,,12.44,1.188,71.8,,30.3,5.0,0.0,0.0,0.0,0.0,0.0,0.0,0.0,0.0,2.26,,,0,0,0,0,0,0,0,0,0,0,0,0,0,0,0,0,0.0,,,,0.0,38.985832,-76.950851,0.16,34.0,3.0,0.8
150,3336060,1744865735678,,,,,,,,,,,,,,,,,,,,,,,,,,,,,,,,,,0,0,0,0,0,0,0,0,0,0,0,0,0,0,0,0,,,,,,,,,,,
151,3336080,1744865735700,0.0,135.0,,-0.08,-0.07,0.96,-1.0,0.0,1.0,0.97,1.64,59.0,4284.0,8.5,3.75,,12.41,1.181,71.8,,30.4,5.0,,,,,,,,,,,,0,0,0,0,0,0,0,0,0,0,0,0,0,0,0,0,,,,,0.0,,,,,,
152,3336100,1744865735720,,,,,,,,,,,,,,,,,,,,,,,,,,,,,,,,,,0,0,0,0,0,0,0,0,0,0,0,0,0,0,0,0,,,,,,,,,,,
153,3336120,1744865735740,0.0,135.0,,-0.06,0.04,1.0,1.0,0.0,0.0,1.0,1.64,61.0,4271.0,8.5,3.76,,12.41,1.181,71.8,,30.4,5.0,,,,,,,,,,,,0,0,0,0,0,0,0,0,0,0,0,0,0,0,0,0,,,,,0.0,,,,,,
154,3336140,1744865735760,,,,,,,,,,,,,,,,,,,,,,,0.0,0.0,0.0,0.0,0.0,0.0,0.0,0.0,2.26,,,0,0,0,0,0,0,0,0,0,0,0,0,0,0,0,0,0.0,,,,,38.985832,-76.950851,0.65,34.0,3.0,0.8
155,3336160,1744865735780,0.0,135.0,,-0.06,-0.15,0.92,1.0,0.0,-1.0,0.93,1.64,57.0,4271.0,8.5,3.76,,12.47,1.167,71.8,,30.1,5.0,,,,,,,,,,,,0,0,0,0,0,0,0,0,0,0,0,0,0,0,0,0,,,,,0.0,,,,,,
156,3336180,1744865735798,,,,,,,,,,,,,,,,,,,,,,,,,,,,,,,,,,0,0,0,0,0,0,0,0,0,0,0,0,0,0,0,0,,,,,,,,,,,
157,3336200,1744865735818,0.0,135.0,,-0.08,-0.16,0.94,0.0,0.0,0.0,0.96,1.64,58.0,4301.0,8.5,3.79,,12.45,1.165,71.8,,30.1,5.0,,,,,,,,,,,,0,0,0,0,0,0,0,0,0,0,0,0,0,0,0,0,,,,,0.0,,,,,,
158,3336220,1744865735838,,,,,,,,,,,,,,,,,,,,,,,,,,,,,,,,,,0,0,0,0,0,0,0,0,0,0,0,0,0,0,0,0,,,,,,,,,,,
159,3336240,1744865735858,0.0,135.0,13.37,-0.06,0.08,1.04,0.0,0.0,1.0,1.04,1.64,64.0,4321.0,8.6,3.77,15.0,12.51,1.179,71.8,169.0,30.1,5.0,0.0,0.0,0.0,0.0,0.0,0.0,0.0,0.0,2.26,0.0,0.0,0,0,0,0,0,0,0,0,0,0,0,0,0,0,0,0,0.0,0.0,0.0,0.0,0.0,38.985832,-76.950851,0.21,34.0,3.0,0.8
160,3336260,1744865735878,,,,,,,,,,,,,,,,,,,,,,,,,,,,,,,,,,0,0,0,0,0,0,0,0,0,0,0,0,0,0,0,0,,,,,,,,,,,
161,3336280,1744865735900,0.0,135.0,,-0.06,0.04,1.0,2.0,0.0,0.0,1.0,1.64,61.0,4301.0,8.7,3.79,,12.51,1.187,71.8,,30.0,5.0,,,,,,,,,,,,0,0,0,0,0,0,0,0,0,0,0,0,0,0,0,0,,,,,0.0,,,,,,
162,3336300,1744865735920,,,,,,,,,,,,,,,,,,,,,,,,,,,,,,,,,,0,0,0,0,0,0,0,0,0,0,0,0,0,0,0,0,,,,,,,,,,,
163,3336320,1744865735940,0.0,135.0,,-0.07,-0.16,0.94,1.0,0.0,0.0,0.95,1.64,58.0,4259.0,8.7,3.77,,12.51,1.187,71.8,,30.0,5.0,,,,,,,,,,,,0,0,0,0,0,0,0,0,0,0,0,0,0,0,0,0,,,,,0.0,,,,,,
164,3336340,1744865735960,,,,,,,,,,,,,,,,,,,,,,,0.0,0.0,0.0,0.0,0.0,0.0,0.0,0.0,2.26,,,0,0,0,0,0,0,0,0,0,0,0,0,0,0,0,0,0.0,,,,,38.985832,-76.950851,0.46,34.0,3.0,0.8
165,3336360,1744865735980,0.0,135.0,,-0.07,0.02,1.01,0.0,0.0,1.0,1.01,1.64,62.0,4259.0,8.7,3.77,,12.49,1.18,71.8,,29.5,5.0,,,,,,,,,,,,0,0,0,0,0,0,0,0,0,0,0,0,0,0,0,0,,,,,0.0,,,,,,
166,3336380,1744865735992,,,,,,,,,,,,,,,,,,,,,,,,,,,,,,,,,,0,0,0,0,0,0,0,0,0,0,0,0,0,0,0,0,,,,,,,,,,,
167,3336400,1744865736012,0.0,135.0,,-0.06,0.1,1.02,2.0,0.0,0.0,1.03,1.64,63.0,4224.0,8.7,3.79,,12.44,1.187,71.8,,29.5,5.0,,,,,,,,,,,,0,0,0,0,0,0,0,0,0,0,0,0,0,0,0,0,,,,,0.0,,,,,,
168,3336420,1744865736032,,,,,,,,,,,,,,,,,,,,,,,,,,,,,,,,,,0,0,0,0,0,0,0,0,0,0,0,0,0,0,0,0,,,,,,,,,,,
169,3336440,1744865736052,0.0,135.0,,-0.09,-0.05,0.98,1.0,0.0,0.0,0.98,1.64,60.0,4284.0,8.6,3.79,,12.51,1.182,71.8,,29.5,5.0,0.0,0.0,0.0,0.0,0.0,0.0,0.0,0.0,2.26,,,0,0,0,0,0,0,0,0,0,0,0,0,0,0,0,0,0.0,,,,0.0,38.985832,-76.950851,0.05,34.0,3.0,0.8
170,3336460,1744865736072,,,,,,,,,,,,,,,,,,,,,,,,,,,,,,,,,,0,0,0,0,0,0,0,0,0,0,0,0,0,0,0,0,,,,,,,,,,,
171,3336480,1744865736096,0.0,135.0,,-0.07,0.1,1.05,0.0,0.0,1.0,1.06,1.64,65.0,4258.0,8.5,3.79,,12.47,1.178,71.8,,29.9,5.0,,,,,,,,,,,,0,0,0,0,0,0,0,0,0,0,0,0,0,0,0,0,,,,,0.0,,,,,,
172,3336500,1744865736116,,,,,,,,,,,,,,,,,,,,,,,,,,,,,,,,,,0,0,0,0,0,0,0,0,0,0,0,0,0,0,0,0,,,,,,,,,,,
173,3336520,1744865736136,0.0,135.0,,-0.07,0.01,0.99,1.0,0.0,0.0,1.0,1.64,61.0,4192.0,8.5,3.8,,12.47,1.178,71.8,,29.9,5.0,,,,,,,,,,,,0,0,0,0,0,0,0,0,0,0,0,0,0,0,0,0,,,,,0.0,,,,,,
174,3336540,1744865736156,,,,,,,,,,,,,,,,,,,,,,,0.0,0.0,0.0,0.0,0.0,0.0,0.0,0.0,2.26,,,0,0,0,0,0,0,0,0,0,0,0,0,0,0,0,0,0.0,,,,,38.985832,-76.950851,0.39,34.0,3.0,0.8
175,3336560,1744865736176,0.0,135.0,,-0.08,-0.02,1.0,0.0,0.0,0.0,1.01,1.64,62.0,4192.0,8.5,3.8,,12.49,1.181,71.8,,29.6,5.0,,,,,,,,,,,,0,0,0,0,0,0,0,0,0,0,0,0,0,0,0,0,,,,,0.0,,,,,,
176,3336580,1744865736200,,,,,,,,,,,,,,,,,,,,,,,,,,,,,,,,,,0,0,0,0,0,0,0,0,0,0,0,0,0,0,0,0,,,,,,,,,,,
177,3336600,1744865736220,0.0,135.0,,-0.06,0.14,1.06,-1.0,0.0,1.0,1.08,1.64,66.0,4195.0,8.5,3.79,,12.45,1.191,71.8,,29.6,5.0,,,,,,,,,,,,0,0,0,0,0,0,0,0,0,0,0,0,0,0,0,0,,,,,0.0,,,,,,
178,3336620,1744865736240,,,,,,,,,,,,,,,,,,,,,,,,,,,,,,,,,,0,0,0,0,0,0,0,0,0,0,0,0,0,0,0,0,,,,,,,,,,,
179,3336640,1744865736260,0.0,135.0,,-0.08,-0.07,0.96,1.0,0.0,-1.0,0.97,1.64,59.0,4245.0,8.5,3.79,,12.49,1.173,71.8,,29.6,5.0,0.0,0.0,0.0,0.0,0.0,0.0,0.0,0.0,2.26,,,0,0,0,0,0,0,0,0,0,0,0,0,0,0,0,0,0.0,,,,0.0,38.985832,-76.950851,0.65,34.0,3.0,0.8
180,3336660,1744865736280,,,,,,,,,,,,,,,,,,,,,,,,,,,,,,,,,,0,0,0,0,0,0,0,0,0,0,0,0,0,0,0,0,,,,,,,,,,,
181,3336680,1744865736300,0.0,135.0,,-0.08,0.04,1.03,0.0,0.0,0.0,1.04,1.64,63.0,4215.0,8.5,3.82,,12.52,1.169,71.8,,29.8,5.0,,,,,,,,,,,,0,0,0,0,0,0,0,0,0,0,0,0,0,0,0,0,,,,,0.0,,,,,,
182,3336700,1744865736320,,,,,,,,,,,,,,,,,,,,,,,,,,,,,,,,,,0,0,0,0,0,0,0,0,0,0,0,0,0,0,0,0,,,,,,,,,,,
183,3336720,1744865736340,0.0,135.0,,-0.07,0.05,0.99,1.0,0.0,0.0,1.0,1.64,61.0,4171.0,8.6,3.8,,12.52,1.169,71.8,,29.8,5.0,,,,,,,,,,,,0,0,0,0,0,0,0,0,0,0,0,0,0,0,0,0,,,,,0.0,,,,,,
184,3336740,1744865736360,,,,,,,,,,,,,,,,,,,,,,,0.0,0.0,0.0,0.0,0.0,0.0,0.0,0.0,2.26,,,0,0,0,0,0,0,0,0,0,0,0,0,0,0,0,0,0.0,,,,,38.985832,-76.950851,0.15,34.0,3.0,0.8
185,3336760,1744865736380,0.0,135.0,,-0.08,-0.01,1.0,0.0,0.0,0.0,1.01,1.64,62.0,4171.0,8.6,3.8,,12.53,1.183,71.8,,29.2,5.0,,,,,,,,,,,,0,0,0,0,0,0,0,0,0,0,0,0,0,0,0,0,,,,,0.0,,,,,,
186,3336780,1744865736400,,,,,,,,,,,,,,,,,,,,,,,,,,,,,,,,,,0,0,0,0,0,0,0,0,0,0,0,0,0,0,0,0,,,,,,,,,,,
187,3336800,1744865736420,0.0,135.0,,-0.06,0.13,1.03,0.0,0.0,1.0,1.04,1.64,64.0,4166.0,8.7,3.82,,12.48,1.197,71.8,,29.2,5.0,,,,,,,,,,,,0,0,0,0,0,0,0,0,0,0,0,0,0,0,0,0,,,,,0.0,,,,,,
188,3336820,1744865736440,,,,,,,,,,,,,,,,,,,,,,,,,,,,,,,,,,0,0,0,0,0,0,0,0,0,0,0,0,0,0,0,0,,,,,,,,,,,
189,3336840,1744865736460,0.0,135.0,,-0.1,-0.09,0.96,1.0,0.0,0.0,0.97,1.64,59.0,4201.0,8.7,3.83,,12.48,1.185,71.8,,29.2,5.0,0.0,0.0,0.0,0.0,0.0,0.0,0.0,0.0,2.26,,,0,0,0,0,0,0,0,0,0,0,0,0,0,0,0,0,0.0,,,,0.0,38.985832,-76.950851,0.78,34.0,3.0,0.8
190,3336860,1744865736480,,,,,,,,,,,,,,,,,,,,,,,,,,,,,,,,,,0,0,0,0,0,0,0,0,0,0,0,0,0,0,0,0,,,,,,,,,,,
191,3336880,1744865736499,0.0,135.0,,-0.08,0.05,1.02,0.0,0.0,0.0,1.02,1.64,62.0,4181.0,8.7,3.85,,12.49,1.171,71.8,,29.5,5.0,,,,,,,,,,,,0,0,0,0,0,0,0,0,0,0,0,0,0,0,0,0,,,,,0.0,,,,,,
192,3336900,1744865736519,,,,,,,,,,,,,,,,,,,,,,,,,,,,,,,,,,0,0,0,0,0,0,0,0,0,0,0,0,0,0,0,0,,,,,,,,,,,
193,3336920,1744865736539,0.0,135.0,,-0.09,-0.09,0.97,1.0,0.0,0.0,0.98,1.64,60.0,4123.0,8.6,3.83,,12.49,1.171,71.8,,29.5,5.0,,,,,,,,,,,,0,0,0,0,0,0,0,0,0,0,0,0,0,0,0,0,,,,,0.0,,,,,,
194,3336940,1744865736559,,,,,,,,,,,,,,,,,,,,,,,0.0,0.0,0.0,0.0,0.0,0.0,0.0,0.0,2.26,,,0,0,0,0,0,0,0,0,0,0,0,0,0,0,0,0,0.0,,,,,38.985832,-76.950851,0.51,34.0,3.0,0.8
195,3336960,1744865736579,0.0,135.0,,-0.06,0.09,1.04,-1.0,0.0,1.0,1.04,1.64,64.0,4123.0,8.6,3.83,,12.57,1.175,71.8,,28.8,5.0,,,,,,,,,,,,0,0,0,0,0,0,0,0,0,0,0,0,0,0,0,0,,,,,0.0,,,,,,
196,3336980,1744865736599,,,,,,,,,,,,,,,,,,,,,,,,,,,,,,,,,,0,0,0,0,0,0,0,0,0,0,0,0,0,0,0,0,,,,,,,,,,,
197,3337000,1744865736619,0.0,135.0,,-0.07,-0.04,0.98,1.0,0.0,0.0,0.98,1.64,60.0,4139.0,8.5,3.82,,12.45,1.169,71.8,,28.8,5.0,,,,,,,,,,,,0,0,0,0,0,0,0,0,0,0,0,0,0,0,0,0,,,,,0.0,,,,,,
198,3337020,1744865736639,,,,,,,,,,,,,,,,,,,,,,,,,,,,,,,,,,0,0,0,0,0,0,0,0,0,0,0,0,0,0,0,0,,,,,,,,,,,
199,3337040,1744865736659,0.0,135.0,,-0.07,0.05,1.05,-1.0,0.0,1.0,1.05,1.64,64.0,4173.0,8.5,3.83,,12.52,1.171,71.8,,28.8,5.0,0.0,0.0,0.0,0.0,0.0,0.0,0.0,0.0,2.26,,,0,0,0,0,0,0,0,0,0,0,0,0,0,0,0,0,0.0,,,,0.0,38.985832,-76.950851,0.25,34.0,3.0,0.8
200,3337060,1744865736679,,,,,,,,,,,,,,,,,,,,,,,,,,,,,,,,,,0,0,0,0,0,0,0,0,0,0,0,0,0,0,0,0,,,,,,,,,,,
201,3337080,1744865736699,0.0,135.0,,-0.07,0.02,1.0,0.0,0.0,0.0,1.0,1.64,61.0,4168.0,8.5,3.83,,12.53,1.168,71.8,,29.4,5.0,,,,,,,,,,,,0,0,0,0,0,0,0,0,0,0,0,0,0,0,0,0,,,,,0.0,,,,,,
202,3337100,1744865736719,,,,,,,,,,,,,,,,,,,,,,,,,,,,,,,,,,0,0,0,0,0,0,0,0,0,0,0,0,0,0,0,0,,,,,,,,,,,
203,3337120,1744865736739,0.0,135.0,,-0.1,-0.02,1.01,-1.0,0.0,0.0,1.01,1.64,62.0,4134.0,8.5,3.81,,12.53,1.168,71.8,,29.4,5.0,,,,,,,,,,,,0,0,0,0,0,0,0,0,0,0,0,0,0,0,0,0,,,,,0.0,,,,,,
204,3337140,1744865736759,,,,,,,,,,,,,,,,,,,,,,,0.0,0.0,0.0,0.0,0.0,0.0,0.0,0.0,2.26,,,0,0,0,0,0,0,0,0,0,0,0,0,0,0,0,0,0.0,,,,,38.985832,-76.950851,0.71,34.0,3.0,0.8
205,3337160,1744865736779,0.0,135.0,,-0.07,0.05,1.0,0.0,0.0,0.0,1.01,1.64,61.0,4134.0,8.5,3.81,,12.57,1.175,71.8,,28.9,5.0,,,,,,,,,,,,0,0,0,0,0,0,0,0,0,0,0,0,0,0,0,0,,,,,0.0,,,,,,
206,3337180,1744865736799,,,,,,,,,,,,,,,,,,,,,,,,,,,,,,,,,,0,0,0,0,0,0,0,0,0,0,0,0,0,0,0,0,,,,,,,,,,,
207,3337200,1744865736819,0.0,135.0,,-0.08,-0.02,1.0,0.0,0.0,0.0,1.01,1.64,61.0,4184.0,8.5,3.82,,12.53,1.188,71.8,,28.9,5.0,,,,,,,,,,,,0,0,0,0,0,0,0,0,0,0,0,0,0,0,0,0,,,,,0.0,,,,,,
208,3337220,1744865736839,,,,,,,,,,,,,,,,,,,,,,,,,,,,,,,,,,0,0,0,0,0,0,0,0,0,0,0,0,0,0,0,0,,,,,,,,,,,
209,3337240,1744865736859,0.0,135.0,13.42,-0.05,0.11,1.01,0.0,0.0,0.0,1.02,1.64,62.0,4163.0,8.6,3.84,15.0,12.55,1.17,71.8,169.0,28.9,5.0,0.0,0.0,0.0,0.0,0.0,0.0,0.0,0.0,2.26,0.0,0.0,0,0,0,0,0,0,0,0,0,0,0,0,0,0,0,0,0.0,0.0,0.0,0.0,0.0,38.985832,-76.950851,0.24,34.0,3.0,0.8
210,3337260,1744865736879,,,,,,,,,,,,,,,,,,,,,,,,,,,,,,,,,,0,0,0,0,0,0,0,0,0,0,0,0,0,0,0,0,,,,,,,,,,,
211,3337280,1744865736899,0.0,135.0,,-0.08,-0.02,1.0,0.0,0.0,0.0,1.01,1.64,61.0,4108.0,8.7,3.83,,12.57,1.17,71.8,,28.9,5.0,,,,,,,,,,,,0,0,0,0,0,0,0,0,0,0,0,0,0,0,0,0,,,,,0.0,,,,,,
212,3337300,1744865736919,,,,,,,,,,,,,,,,,,,,,,,,,,,,,,,,,,0,0,0,0,0,0,0,0,0,0,0,0,0,0,0,0,,,,,,,,,,,
213,3337320,1744865736939,0.0,135.0,,-0.05,0.12,1.03,-1.0,0.0,1.0,1.04,1.64,64.0,4134.0,8.7,3.84,,12.57,1.17,71.8,,28.9,5.0,,,,,,,,,,,,0,0,0,0,0,0,0,0,0,0,0,0,0,0,0,0,,,,,0.0,,,,,,
214,3337340,1744865736959,,,,,,,,,,,,,,,,,,,,,,,0.0,0.0,0.0,0.0,0.0,0.0,0.0,0.0,2.26,,,0,0,0,0,0,0,0,0,0,0,0,0,0,0,0,0,0.0,,,,,38.985832,-76.950851,0.47,34.0,3.0,0.8
215,3337360,1744865736979,0.0,135.0,,-0.1,-0.06,0.99,0.0,0.0,0.0,1.0,1.64,61.0,4134.0,8.7,3.84,,12.57,1.165,71.8,,29.0,5.0,,,,,,,,,,,,0,0,0,0,0,0,0,0,0,0,0,0,0,0,0,0,,,,,0.0,,,,,,
216,3337380,1744865736991,,,,,,,,,,,,,,,,,,,,,,,,,,,,,,,,,,0,0,0,0,0,0,0,0,0,0,0,0,0,0,0,0,,,,,,,,,,,
217,3337400,1744865737011,0.0,135.0,,-0.07,0.08,1.04,-1.0,0.0,1.0,1.04,1.64,64.0,4168.0,8.7,3.86,,12.49,1.176,71.8,,29.0,5.0,,,,,,,,,,,,0,0,0,0,0,0,0,0,0,0,0,0,0,0,0,0,,,,,0.0,,,,,,
218,3337420,1744865737031,,,,,,,,,,,,,,,,,,,,,,,,,,,,,,,,,,0,0,0,0,0,0,0,0,0,0,0,0,0,0,0,0,,,,,,,,,,,
219,3337440,1744865737051,0.0,135.0,,-0.09,-0.09,0.99,0.0,0.0,0.0,0.99,1.64,61.0,4142.0,8.6,3.84,,12.53,1.174,71.8,,29.0,5.0,0.0,0.0,0.0,0.0,0.0,0.0,0.0,0.0,2.25,,,0,0,0,0,0,0,0,0,0,0,0,0,0,0,0,0,0.0,,,,0.0,38.985832,-76.950851,0.23,34.0,3.0,0.8
220,3337460,1744865737071,,,,,,,,,,,,,,,,,,,,,,,,,,,,,,,,,,0,0,0,0,0,0,0,0,0,0,0,0,0,0,0,0,,,,,,,,,,,
221,3337480,1744865737099,0.0,135.0,,-0.07,-0.0,1.0,1.0,0.0,0.0,1.0,1.64,61.0,4080.0,8.5,3.84,,12.57,1.163,71.8,,29.1,5.0,,,,,,,,,,,,0,0,0,0,0,0,0,0,0,0,0,0,0,0,0,0,,,,,0.0,,,,,,
222,3337500,1744865737119,,,,,,,,,,,,,,,,,,,,,,,,,,,,,,,,,,0,0,0,0,0,0,0,0,0,0,0,0,0,0,0,0,,,,,,,,,,,
223,3337520,1744865737139,0.0,135.0,,-0.09,-0.11,0.96,0.0,0.0,0.0,0.97,1.64,59.0,4084.0,8.5,3.85,,12.57,1.163,71.8,,29.1,5.0,,,,,,,,,,,,0,0,0,0,0,0,0,0,0,0,0,0,0,0,0,0,,,,,0.0,,,,,,
224,3337540,1744865737159,,,,,,,,,,,,,,,,,,,,,,,0.0,0.0,0.0,0.0,0.0,0.0,0.0,0.0,2.27,,,0,0,0,0,0,0,0,0,0,0,0,0,0,0,0,0,0.0,,,,,38.985832,-76.950851,0.6,34.0,3.0,0.8
225,3337560,1744865737179,0.0,135.0,,-0.06,0.05,0.98,0.0,0.0,0.0,0.99,1.64,60.0,4084.0,8.5,3.85,,12.55,1.157,71.8,,28.8,5.0,,,,,,,,,,,,0,0,0,0,0,0,0,0,0,0,0,0,0,0,0,0,,,,,0.0,,,,,,
226,3337580,1744865737197,,,,,,,,,,,,,,,,,,,,,,,,,,,,,,,,,,0,0,0,0,0,0,0,0,0,0,0,0,0,0,0,0,,,,,,,,,,,
227,3337600,1744865737217,0.0,135.0,,-0.09,-0.09,0.97,0.0,0.0,0.0,0.98,1.64,60.0,4134.0,8.5,3.85,,12.55,1.165,71.8,,28.8,5.0,,,,,,,,,,,,0,0,0,0,0,0,0,0,0,0,0,0,0,0,0,0,,,,,0.0,,,,,,
228,3337620,1744865737237,,,,,,,,,,,,,,,,,,,,,,,,,,,,,,,,,,0,0,0,0,0,0,0,0,0,0,0,0,0,0,0,0,,,,,,,,,,,
229,3337640,1744865737257,0.0,135.0,,-0.06,0.05,0.99,0.0,0.0,0.0,1.0,1.64,61.0,4102.0,8.5,3.83,,12.6,1.157,71.8,,28.8,5.0,0.0,0.0,0.0,0.0,0.0,0.0,0.0,0.0,2.26,,,0,0,0,0,0,0,0,0,0,0,0,0,0,0,0,0,0.0,,,,0.0,38.985832,-76.950851,0.59,34.0,3.0,0.8
230,3337660,1744865737277,,,,,,,,,,,,,,,,,,,,,,,,,,,,,,,,,,0,0,0,0,0,0,0,0,0,0,0,0,0,0,0,0,,,,,,,,,,,
231,3337680,1744865737299,0.0,135.0,,-0.1,-0.06,1.0,-1.0,0.0,0.0,1.01,1.64,61.0,4078.0,8.4,3.84,,12.53,1.154,71.8,,28.6,5.0,,,,,,,,,,,,0,0,0,0,0,0,0,0,0,0,0,0,0,0,0,0,,,,,0.0,,,,,,
232,3337700,1744865737319,,,,,,,,,,,,,,,,,,,,,,,,,,,,,,,,,,0,0,0,0,0,0,0,0,0,0,0,0,0,0,0,0,,,,,,,,,,,
233,3337720,1744865737339,0.0,135.0,,-0.08,0.01,0.98,0.0,0.0,0.0,0.99,1.64,60.0,4138.0,8.6,3.85,,12.53,1.154,71.8,,28.6,5.0,,,,,,,,,,,,0,0,0,0,0,0,0,0,0,0,0,0,0,0,0,0,,,,,0.0,,,,,,
234,3337740,1744865737359,,,,,,,,,,,,,,,,,,,,,,,0.0,0.0,0.0,0.0,0.0,0.0,0.0,0.0,2.26,,,0,0,0,0,0,0,0,0,0,0,0,0,0,0,0,0,0.0,,,,,38.985832,-76.950851,0.13,34.0,3.0,0.8
235,3337760,1744865737379,0.0,135.0,,-0.11,-0.08,0.97,0.0,0.0,0.0,0.98,1.64,60.0,4138.0,8.6,3.85,,12.49,1.151,71.8,,28.9,5.0,,,,,,,,,,,,0,0,0,0,0,0,0,0,0,0,0,0,0,0,0,0,,,,,0.0,,,,,,
236,3337780,1744865737399,,,,,,,,,,,,,,,,,,,,,,,,,,,,,,,,,,0,0,0,0,0,0,0,0,0,0,0,0,0,0,0,0,,,,,,,,,,,
237,3337800,1744865737419,0.0,135.0,,-0.08,-0.02,0.98,1.0,0.0,0.0,0.98,1.64,60.0,4153.0,8.7,3.86,,12.55,1.161,71.8,,28.9,5.0,,,,,,,,,,,,0,0,0,0,0,0,0,0,0,0,0,0,0,0,0,0,,,,,0.0,,,,,,
238,3337820,1744865737439,,,,,,,,,,,,,,,,,,,,,,,,,,,,,,,,,,0,0,0,0,0,0,0,0,0,0,0,0,0,0,0,0,,,,,,,,,,,
239,3337840,1744865737459,0.0,135.0,,-0.09,-0.06,0.99,0.0,0.0,0.0,0.99,1.64,61.0,4117.0,8.7,3.83,,12.56,1.174,71.8,,28.9,5.0,0.0,0.0,0.0,0.0,0.0,0.0,0.0,0.0,2.26,,,0,0,0,0,0,0,0,0,0,0,0,0,0,0,0,0,0.0,,,,0.0,38.985832,-76.950851,0.08,34.0,3.0,0.8
240,3337860,1744865737479,,,,,,,,,,,,,,,,,,,,,,,,,,,,,,,,,,0,0,0,0,0,0,0,0,0,0,0,0,0,0,0,0,,,,,,,,,,,
241,3337880,1744865737498,0.0,135.0,,-0.07,-0.02,0.95,1.0,0.0,0.0,0.95,1.64,58.0,4048.0,8.7,3.87,,12.6,1.171,71.8,,28.5,5.0,,,,,,,,,,,,0,0,0,0,0,0,0,0,0,0,0,0,0,0,0,0,,,,,0.0,,,,,,
242,3337900,1744865737518,,,,,,,,,,,,,,,,,,,,,,,,,,,,,,,,,,0,0,0,0,0,0,0,0,0,0,0,0,0,0,0,0,,,,,,,,,,,
243,3337920,1744865737538,0.0,135.0,,-0.07,-0.01,1.01,-1.0,0.0,1.0,1.01,1.64,62.0,4115.0,8.6,3.86,,12.6,1.171,71.8,,28.5,5.0,,,,,,,,,,,,0,0,0,0,0,0,0,0,0,0,0,0,0,0,0,0,,,,,0.0,,,,,,
244,3337940,1744865737558,,,,,,,,,,,,,,,,,,,,,,,0.0,0.0,0.0,0.0,0.0,0.0,0.0,0.0,2.26,,,0,0,0,0,0,0,0,0,0,0,0,0,0,0,0,0,0.0,,,,,38.985832,-76.950851,0.28,34.0,3.0,0.8
245,3337960,1744865737578,0.0,135.0,,-0.07,-0.08,0.97,1.0,0.0,0.0,0.97,1.64,60.0,4115.0,8.6,3.86,,12.61,1.17,71.8,,28.9,5.0,,,,,,,,,,,,0,0,0,0,0,0,0,0,0,0,0,0,0,0,0,0,,,,,0.0,,,,,,
246,3337980,1744865737600,,,,,,,,,,,,,,,,,,,,,,,,,,,,,,,,,,0,0,0,0,0,0,0,0,0,0,0,0,0,0,0,0,,,,,,,,,,,
247,3338000,1744865737620,0.0,135.0,,-0.05,0.04,1.05,-1.0,0.0,1.0,1.05,1.64,64.0,4069.0,8.5,3.87,,12.6,1.168,71.8,,28.9,5.0,,,,,,,,,,,,0,0,0,0,0,0,0,0,0,0,0,0,0,0,0,0,,,,,0.0,,,,,,
248,3338020,1744865737640,,,,,,,,,,,,,,,,,,,,,,,,,,,,,,,,,,0,0,0,0,0,0,0,0,0,0,0,0,0,0,0,0,,,,,,,,,,,
249,3338040,1744865737660,0.0,135.0,,-0.09,-0.09,0.97,0.0,0.0,0.0,0.98,1.64,60.0,4056.0,8.6,3.86,,12.53,1.169,71.8,,28.9,5.0,0.0,0.0,0.0,0.0,0.0,0.0,0.0,0.0,2.26,,,0,0,0,0,0,0,0,0,0,0,0,0,0,0,0,0,0.0,,,,0.0,38.985832,-76.950851,0.11,34.0,3.0,0.8
250,3338060,1744865737680,,,,,,,,,,,,,,,,,,,,,,,,,,,,,,,,,,0,0,0,0,0,0,0,0,0,0,0,0,0,0,0,0,,,,,,,,,,,
251,3338080,1744865737700,0.0,135.0,,-0.08,0.09,1.04,-1.0,0.0,1.0,1.04,1.64,64.0,4128.0,8.6,3.88,,12.57,1.154,71.8,,28.8,5.0,,,,,,,,,,,,0,0,0,0,0,0,0,0,0,0,0,0,0,0,0,0,,,,,0.0,,,,,,
252,3338100,1744865737720,,,,,,,,,,,,,,,,,,,,,,,,,,,,,,,,,,0,0,0,0,0,0,0,0,0,0,0,0,0,0,0,0,,,,,,,,,,,
253,3338120,1744865737740,0.0,135.0,,-0.11,-0.11,0.95,0.0,0.0,0.0,0.96,1.64,59.0,4141.0,8.7,3.86,,12.57,1.154,71.8,,28.8,5.0,,,,,,,,,,,,0,0,0,0,0,0,0,0,0,0,0,0,0,0,0,0,,,,,0.0,,,,,,
254,3338140,1744865737760,,,,,,,,,,,,,,,,,,,,,,,0.0,0.0,0.0,0.0,0.0,0.0,0.0,0.0,2.26,,,0,0,0,0,0,0,0,0,0,0,0,0,0,0,0,0,0.0,,,,,38.985832,-76.950851,0.07,34.0,3.0,0.8
255,3338160,1744865737780,0.0,135.0,,-0.08,0.03,1.02,-1.0,0.0,1.0,1.02,1.64,62.0,4141.0,8.7,3.86,,12.64,1.163,71.8,,28.2,5.0,,,,,,,,,,,,0,0,0,0,0,0,0,0,0,0,0,0,0,0,0,0,,,,,0.0,,,,,,
256,3338180,1744865737800,,,,,,,,,,,,,,,,,,,,,,,,,,,,,,,,,,0,0,0,0,0,0,0,0,0,0,0,0,0,0,0,0,,,,,,,,,,,
257,3338200,1744865737820,0.0,135.0,,-0.09,-0.12,0.97,0.0,0.0,0.0,0.98,1.64,60.0,4107.0,8.7,3.85,,12.61,1.162,71.8,,28.2,5.0,,,,,,,,,,,,0,0,0,0,0,0,0,0,0,0,0,0,0,0,0,0,,,,,0.0,,,,,,
258,3338220,1744865737840,,,,,,,,,,,,,,,,,,,,,,,,,,,,,,,,,,0,0,0,0,0,0,0,0,0,0,0,0,0,0,0,0,,,,,,,,,,,
259,3338240,1744865737860,0.0,135.0,13.35,-0.06,0.06,1.03,-1.0,0.0,1.0,1.04,1.64,63.0,4146.0,8.8,3.86,15.0,12.57,1.152,71.8,169.0,28.2,5.0,0.0,0.0,0.0,0.0,0.0,0.0,0.0,0.0,2.26,0.0,0.0,0,0,0,0,0,0,0,0,0,0,0,0,0,0,0,0,0.0,0.0,0.0,0.0,0.0,38.985832,-76.950851,0.36,34.0,3.0,0.8
260,3338260,1744865737880,,,,,,,,,,,,,,,,,,,,,,,,,,,,,,,,,,0,0,0,0,0,0,0,0,0,0,0,0,0,0,0,0,,,,,,,,,,,
261,3338280,1744865737900,0.0,135.0,,-0.08,-0.1,0.96,0.0,0.0,0.0,0.97,1.64,59.0,4160.0,8.9,3.86,,12.6,1.157,71.8,,28.1,5.0,,,,,,,,,,,,0,0,0,0,0,0,0,0,0,0,0,0,0,0,0,0,,,,,0.0,,,,,,
262,3338300,1744865737920,,,,,,,,,,,,,,,,,,,,,,,,,,,,,,,,,,0,0,0,0,0,0,0,0,0,0,0,0,0,0,0,0,,,,,,,,,,,
263,3338320,1744865737940,0.0,135.0,,-0.06,0.08,1.06,-1.0,0.0,1.0,1.06,1.64,65.0,4137.0,8.9,3.85,,12.6,1.157,71.8,,28.1,5.0,,,,,,,,,,,,0,0,0,0,0,0,0,0,0,0,0,0,0,0,0,0,,,,,0.0,,,,,,
264,3338340,1744865737960,,,,,,,,,,,,,,,,,,,,,,,0.0,0.0,0.0,0.0,0.0,0.0,0.0,0.0,2.26,,,0,0,0,0,0,0,0,0,0,0,0,0,0,0,0,0,0.0,,,,,38.985832,-76.950851,0.13,34.0,3.0,0.8
265,3338360,1744865737980,0.0,135.0,,-0.08,-0.04,0.98,1.0,0.0,0.0,0.98,1.64,60.0,4137.0,8.9,3.85,,12.65,1.172,71.8,,28.6,5.0,,,,,,,,,,,,0,0,0,0,0,0,0,0,0,0,0,0,0,0,0,0,,,,,0.0,,,,,,
266,3338380,1744865737992,,,,,,,,,,,,,,,,,,,,,,,,,,,,,,,,,,0,0,0,0,0,0,0,0,0,0,0,0,0,0,0,0,,,,,,,,,,,
267,3338400,1744865738012,0.0,135.0,,-0.11,-0.08,0.98,-1.0,0.0,0.0,0.99,1.64,60.0,4184.0,8.9,3.84,,12.61,1.178,71.8,,28.6,5.0,,,,,,,,,,,,0,0,0,0,0,0,0,0,0,0,0,0,0,0,0,0,,,,,0.0,,,,,,
268,3338420,1744865738032,,,,,,,,,,,,,,,,,,,,,,,,,,,,,,,,,,0,0,0,0,0,0,0,0,0,0,0,0,0,0,0,0,,,,,,,,,,,
269,3338440,1744865738052,0.0,135.0,,-0.07,0.06,1.02,0.0,0.0,0.0,1.02,1.64,62.0,4227.0,8.8,3.84,,12.6,1.164,71.8,,28.6,5.0,0.0,0.0,0.0,0.0,0.0,0.0,0.0,0.0,2.26,,,0,0,0,0,0,0,0,0,0,0,0,0,0,0,0,0,0.0,,,,0.0,38.985832,-76.950851,0.15,34.0,3.0,0.8
270,3338460,1744865738072,,,,,,,,,,,,,,,,,,,,,,,,,,,,,,,,,,0,0,0,0,0,0,0,0,0,0,0,0,0,0,0,0,,,,,,,,,,,
271,3338480,1744865738096,0.0,135.0,,-0.08,-0.11,0.94,1.0,0.0,0.0,0.95,1.64,58.0,4276.0,8.7,3.84,,12.6,1.157,71.8,,28.7,5.0,,,,,,,,,,,,0,0,0,0,0,0,0,0,0,0,0,0,0,0,0,0,,,,,0.0,,,,,,
272,3338500,1744865738116,,,,,,,,,,,,,,,,,,,,,,,,,,,,,,,,,,0,0,0,0,0,0,0,0,0,0,0,0,0,0,0,0,,,,,,,,,,,
273,3338520,1744865738136,0.0,135.0,,-0.08,-0.01,1.01,-1.0,0.0,1.0,1.01,1.64,62.0,4214.0,8.7,3.81,,12.6,1.157,71.8,,28.7,5.0,,,,,,,,,,,,0,0,0,0,0,0,0,0,0,0,0,0,0,0,0,0,,,,,0.0,,,,,,
274,3338540,1744865738156,,,,,,,,,,,,,,,,,,,,,,,0.0,0.0,0.0,0.0,0.0,0.0,0.0,0.0,2.26,,,0,0,0,0,0,0,0,0,0,0,0,0,0,0,0,0,0.0,,,,,38.985832,-76.950851,0.67,34.0,3.0,0.8
275,3338560,1744865738176,0.0,135.0,,-0.07,0.05,1.01,0.0,0.0,0.0,1.01,1.64,62.0,4214.0,8.7,3.81,,12.6,1.17,71.8,,28.7,5.0,,,,,,,,,,,,0,0,0,0,0,0,0,0,0,0,0,0,0,0,0,0,,,,,0.0,,,,,,
276,3338580,1744865738194,,,,,,,,,,,,,,,,,,,,,,,,,,,,,,,,,,0,0,0,0,0,0,0,0,0,0,0,0,0,0,0,0,,,,,,,,,,,
277,3338600,1744865738214,0.0,135.0,,-0.09,-0.15,0.95,0.0,0.0,0.0,0.96,1.64,59.0,4191.0,8.7,3.8,,12.6,1.163,70.0,,28.7,5.0,,,,,,,,,,,,0,0,0,0,0,0,0,0,0,0,0,0,0,0,0,0,,,,,0.0,,,,,,
278,3338620,1744865738234,,,,,,,,,,,,,,,,,,,,,,,,,,,,,,,,,,0,0,0,0,0,0,0,0,0,0,0,0,0,0,0,0,,,,,,,,,,,
279,3338640,1744865738254,0.0,135.0,,-0.08,0.05,1.03,-1.0,0.0,1.0,1.03,1.64,63.0,4208.0,8.7,3.81,,12.57,1.165,70.0,,28.7,5.0,0.0,0.0,0.0,0.0,0.0,0.0,0.0,0.0,2.26,,,0,0,0,0,0,0,0,0,0,0,0,0,0,0,0,0,0.0,,,,0.0,38.985832,-76.950851,0.32,34.0,3.0,0.8
280,3338660,1744865738274,,,,,,,,,,,,,,,,,,,,,,,,,,,,,,,,,,0,0,0,0,0,0,0,0,0,0,0,0,0,0,0,0,,,,,,,,,,,
281,3338680,1744865738298,0.0,135.0,,-0.06,0.05,1.01,1.0,0.0,0.0,1.01,1.64,62.0,4267.0,8.7,3.81,,12.59,1.173,70.0,,28.5,5.0,,,,,,,,,,,,0,0,0,0,0,0,0,0,0,0,0,0,0,0,0,0,,,,,0.0,,,,,,
282,3338700,1744865738318,,,,,,,,,,,,,,,,,,,,,,,,,,,,,,,,,,0,0,0,0,0,0,0,0,0,0,0,0,0,0,0,0,,,,,,,,,,,
283,3338720,1744865738338,0.0,135.0,,-0.1,-0.14,0.94,1.0,0.0,0.0,0.96,1.64,59.0,4261.0,8.8,3.83,,12.59,1.173,70.0,,28.5,5.0,,,,,,,,,,,,0,0,0,0,0,0,0,0,0,0,0,0,0,0,0,0,,,,,0.0,,,,,,
284,3338740,1744865738358,,,,,,,,,,,,,,,,,,,,,,,0.0,0.0,0.0,0.0,0.0,0.0,0.0,0.0,2.26,,,0,0,0,0,0,0,0,0,0,0,0,0,0,0,0,0,0.0,,,,,38.985832,-76.950851,0.46,34.0,3.0,0.8
285,3338760,1744865738378,0.0,135.0,,-0.09,0.01,1.02,-1.0,0.0,1.0,1.03,1.64,63.0,4261.0,8.8,3.83,,12.59,1.156,70.0,,28.4,5.0,,,,,,,,,,,,0,0,0,0,0,0,0,0,0,0,0,0,0,0,0,0,,,,,0.0,,,,,,
286,3338780,1744865738398,,,,,,,,,,,,,,,,,,,,,,,,,,,,,,,,,,0,0,0,0,0,0,0,0,0,0,0,0,0,0,0,0,,,,,,,,,,,
287,3338800,1744865738418,0.0,135.0,,-0.07,0.07,1.0,1.0,0.0,0.0,1.0,1.64,61.0,4249.0,8.9,3.8,,12.57,1.158,70.0,,28.4,5.0,,,,,,,,,,,,0,0,0,0,0,0,0,0,0,0,0,0,0,0,0,0,,,,,0.0,,,,,,
288,3338820,1744865738438,,,,,,,,,,,,,,,,,,,,,,,,,,,,,,,,,,0,0,0,0,0,0,0,0,0,0,0,0,0,0,0,0,,,,,,,,,,,
289,3338840,1744865738458,0.0,135.0,,-0.08,-0.12,0.92,0.0,0.0,0.0,0.94,1.64,57.0,4280.0,8.9,3.8,,12.51,1.168,70.0,,28.4,5.0,0.0,0.0,0.0,0.0,0.0,0.0,0.0,0.0,2.26,,,0,0,0,0,0,0,0,0,0,0,0,0,0,0,0,0,0.0,,,,0.0,38.985832,-76.950851,0.21,34.0,3.0,0.8
290,3338860,1744865738478,,,,,,,,,,,,,,,,,,,,,,,,,,,,,,,,,,0,0,0,0,0,0,0,0,0,0,0,0,0,0,0,0,,,,,,,,,,,
291,3338880,1744865738499,0.0,135.0,,-0.11,-0.04,0.97,-1.0,0.0,1.0,0.98,1.64,60.0,4324.0,8.9,3.81,,12.52,1.163,70.0,,28.9,5.0,,,,,,,,,,,,0,0,0,0,0,0,0,0,0,0,0,0,0,0,0,0,,,,,0.0,,,,,,
292,3338900,1744865738519,,,,,,,,,,,,,,,,,,,,,,,,,,,,,,,,,,0,0,0,0,0,0,0,0,0,0,0,0,0,0,0,0,,,,,,,,,,,
293,3338920,1744865738539,0.0,135.0,,-0.07,0.11,1.03,0.0,0.0,0.0,1.04,1.64,63.0,4308.0,8.8,3.82,,12.52,1.163,70.0,,28.9,5.0,,,,,,,,,,,,0,0,0,0,0,0,0,0,0,0,0,0,0,0,0,0,,,,,0.0,,,,,,
294,3338940,1744865738559,,,,,,,,,,,,,,,,,,,,,,,0.0,0.0,0.0,0.0,0.0,0.0,0.0,0.0,2.25,,,0,0,0,0,0,0,0,0,0,0,0,0,0,0,0,0,0.0,,,,,38.985832,-76.950851,0.42,34.0,3.0,0.8
295,3338960,1744865738579,0.0,135.0,,-0.07,-0.03,0.95,1.0,0.0,0.0,0.95,1.64,58.0,4308.0,8.8,3.82,,12.55,1.159,70.0,,29.0,5.0,,,,,,,,,,,,0,0,0,0,0,0,0,0,0,0,0,0,0,0,0,0,,,,,0.0,,,,,,
296,3338980,1744865738597,,,,,,,,,,,,,,,,,,,,,,,,,,,,,,,,,,0,0,0,0,0,0,0,0,0,0,0,0,0,0,0,0,,,,,,,,,,,
297,3339000,1744865738617,0.0,135.0,,-0.11,-0.17,0.9,0.0,0.0,0.0,0.93,1.64,57.0,4277.0,8.7,3.8,,12.61,1.157,70.0,,29.0,5.0,,,,,,,,,,,,0,0,0,0,0,0,0,0,0,0,0,0,0,0,0,0,,,,,0.0,,,,,,
298,3339020,1744865738637,,,,,,,,,,,,,,,,,,,,,,,,,,,,,,,,,,0,0,0,0,0,0,0,0,0,0,0,0,0,0,0,0,,,,,,,,,,,
299,3339040,1744865738657,0.0,135.0,,-0.11,-0.01,0.99,-1.0,0.0,1.0,0.99,1.64,61.0,4305.0,8.7,3.77,,12.59,1.16,70.0,,29.0,5.0,0.0,0.0,0.0,0.0,0.0,0.0,0.0,0.0,2.27,,,0,0,0,0,0,0,0,0,0,0,0,0,0,0,0,0,0.0,,,,0.0,38.985832,-76.950851,0.42,34.0,3.0,0.8
300,3339060,1744865738677,,,,,,,,,,,,,,,,,,,,,,,,,,,,,,,,,,0,0,0,0,0,0,0,0,0,0,0,0,0,0,0,0,,,,,,,,,,,
301,3339080,1744865738699,0.0,135.0,,-0.08,0.15,1.04,0.0,0.0,1.0,1.06,1.64,65.0,4316.0,8.7,3.77,,12.45,1.157,70.0,,28.2,5.0,,,,,,,,,,,,0,0,0,0,0,0,0,0,0,0,0,0,0,0,0,0,,,,,0.0,,,,,,
302,3339100,1744865738719,,,,,,,,,,,,,,,,,,,,,,,,,,,,,,,,,,0,0,0,0,0,0,0,0,0,0,0,0,0,0,0,0,,,,,,,,,,,
303,3339120,1744865738739,0.0,135.0,,-0.08,0.0,0.96,1.0,0.0,0.0,0.97,1.64,59.0,4311.0,8.7,3.79,,12.45,1.157,70.0,,28.2,5.0,,,,,,,,,,,,0,0,0,0,0,0,0,0,0,0,0,0,0,0,0,0,,,,,0.0,,,,,,
304,3339140,1744865738759,,,,,,,,,,,,,,,,,,,,,,,0.0,0.0,0.0,0.0,0.0,0.0,0.0,0.0,2.26,,,0,0,0,0,0,0,0,0,0,0,0,0,0,0,0,0,0.0,,,,,38.985832,-76.950851,0.18,34.0,3.0,0.8
305,3339160,1744865738779,0.0,135.0,,-0.1,-0.09,0.95,0.0,0.0,0.0,0.96,1.64,58.0,4311.0,8.7,3.79,,12.56,1.152,70.0,,28.3,5.0,,,,,,,,,,,,0,0,0,0,0,0,0,0,0,0,0,0,0,0,0,0,,,,,0.0,,,,,,
306,3339180,1744865738797,,,,,,,,,,,,,,,,,,,,,,,,,,,,,,,,,,0,0,0,0,0,0,0,0,0,0,0,0,0,0,0,0,,,,,,,,,,,
307,3339200,1744865738817,0.0,135.0,,-0.08,0.11,1.04,0.0,0.0,1.0,1.05,1.64,64.0,4273.0,8.7,3.82,,12.55,1.159,70.0,,28.3,5.0,,,,,,,,,,,,0,0,0,0,0,0,0,0,0,0,0,0,0,0,0,0,,,,,0.0,,,,,,
308,3339220,1744865738837,,,,,,,,,,,,,,,,,,,,,,,,,,,,,,,,,,0,0,0,0,0,0,0,0,0,0,0,0,0,0,0,0,,,,,,,,,,,
309,3339240,1744865738857,0.0,135.0,13.38,-0.08,-0.01,0.98,1.0,0.0,0.0,0.98,1.64,60.0,4219.0,8.9,3.81,15.0,12.59,1.155,70.0,169.0,28.3,5.0,0.0,0.0,0.0,0.0,0.0,0.0,0.0,0.0,2.26,0.0,0.0,0,0,0,0,0,0,0,0,0,0,0,0,0,0,0,0,0.0,0.0,0.0,0.0,0.0,38.985832,-76.950851,0.92,34.0,3.0,0.8
310,3339260,1744865738877,,,,,,,,,,,,,,,,,,,,,,,,,,,,,,,,,,0,0,0,0,0,0,0,0,0,0,0,0,0,0,0,0,,,,,,,,,,,
311,3339280,1744865738899,0.0,135.0,,-0.11,-0.04,0.97,-1.0,0.0,1.0,0.98,1.64,60.0,4227.0,9.4,3.83,,12.63,1.142,70.0,,28.2,5.0,,,,,,,,,,,,0,0,0,0,0,0,0,0,0,0,0,0,0,0,0,0,,,,,0.0,,,,,,
312,3339300,1744865738919,,,,,,,,,,,,,,,,,,,,,,,,,,,,,,,,,,0,0,0,0,0,0,0,0,0,0,0,0,0,0,0,0,,,,,,,,,,,
313,3339320,1744865738939,0.0,135.0,,-0.09,0.13,1.05,-1.0,0.0,1.0,1.06,1.64,65.0,4275.0,9.6,3.85,,12.63,1.142,70.0,,28.2,5.0,,,,,,,,,,,,0,0,0,0,0,0,0,0,0,0,0,0,0,0,0,0,,,,,0.0,,,,,,
314,3339340,1744865738959,,,,,,,,,,,,,,,,,,,,,,,0.0,0.0,0.0,0.0,0.0,0.0,0.0,0.0,2.26,,,0,0,0,0,0,0,0,0,0,0,0,0,0,0,0,0,0.0,,,,,38.985832,-76.950851,0.24,34.0,3.0,0.8
315,3339360,1744865738979,0.0,135.0,,-0.08,0.04,0.99,1.0,0.0,0.0,0.99,1.64,60.0,4275.0,9.6,3.85,,12.61,1.145,70.0,,28.4,5.0,,,,,,,,,,,,0,0,0,0,0,0,0,0,0,0,0,0,0,0,0,0,,,,,0.0,,,,,,
316,3339380,1744865738991,,,,,,,,,,,,,,,,,,,,,,,,,,,,,,,,,,0,0,0,0,0,0,0,0,0,0,0,0,0,0,0,0,,,,,,,,,,,
317,3339400,1744865739011,0.0,135.0,,-0.1,-0.05,0.97,-1.0,0.0,1.0,0.97,1.64,59.0,4276.0,10.2,3.88,,12.72,1.151,70.0,,28.4,5.0,,,,,,,,,,,,0,0,0,0,0,0,0,0,0,0,0,0,0,0,0,0,,,,,0.0,,,,,,
318,3339420,1744865739031,,,,,,,,,,,,,,,,,,,,,,,,,,,,,,,,,,0,0,0,0,0,0,0,0,0,0,0,0,0,0,0,0,,,,,,,,,,,
319,3339440,1744865739051,0.0,135.0,,-0.1,0.12,1.06,-1.0,0.0,1.0,1.07,1.64,66.0,4257.0,10.5,3.89,,12.76,1.169,70.0,,28.4,5.0,0.0,0.0,0.0,0.0,0.0,0.0,0.0,0.0,2.26,,,0,0,0,0,0,0,0,0,0,0,0,0,0,0,0,0,0.0,,,,0.0,38.985832,-76.950851,0.11,34.0,3.0,0.8
320,3339460,1744865739071,,,,,,,,,,,,,,,,,,,,,,,,,,,,,,,,,,0,0,0,0,0,0,0,0,0,0,0,0,0,0,0,0,,,,,,,,,,,
321,3339480,1744865739091,0.0,135.0,,-0.07,0.09,1.02,1.0,0.0,0.0,1.03,1.64,63.0,4247.0,10.6,3.92,,12.79,1.155,70.0,,28.3,5.0,,,,,,,,,,,,0,0,0,0,0,0,0,0,0,0,0,0,0,0,0,0,,,,,0.0,,,,,,
322,3339500,1744865739111,,,,,,,,,,,,,,,,,,,,,,,,,,,,,,,,,,0,0,0,0,0,0,0,0,0,0,0,0,0,0,0,0,,,,,,,,,,,
323,3339520,1744865739131,0.0,135.0,,-0.08,-0.08,0.96,0.0,0.0,0.0,0.96,1.64,59.0,4285.0,10.8,3.91,,12.79,1.155,70.0,,28.3,5.0,,,,,,,,,,,,0,0,0,0,0,0,0,0,0,0,0,0,0,0,0,0,,,,,0.0,,,,,,
324,3339540,1744865739151,,,,,,,,,,,,,,,,,,,,,,,0.0,0.0,0.0,0.0,0.0,0.0,0.0,0.0,2.27,,,0,0,0,0,0,0,0,0,0,0,0,0,0,0,0,0,0.0,,,,,38.985832,-76.950851,0.06,34.0,3.0,0.8
325,3339560,1744865739171,0.0,135.0,,-0.1,0.03,1.02,-2.0,0.0,1.0,1.02,1.64,62.0,4285.0,10.8,3.91,,12.73,1.162,70.0,,28.2,5.0,,,,,,,,,,,,0,0,0,0,0,0,0,0,0,0,0,0,0,0,0,0,,,,,0.0,,,,,,
326,3339580,1744865739197,,,,,,,,,,,,,,,,,,,,,,,,,,,,,,,,,,0,0,0,0,0,0,0,0,0,0,0,0,0,0,0,0,,,,,,,,,,,
327,3339600,1744865739217,0.0,135.0,,-0.09,0.17,1.1,-1.0,0.0,1.0,1.11,1.64,68.0,4360.0,10.8,3.91,,12.81,1.179,70.0,,28.2,5.0,,,,,,,,,,,,0,0,0,0,0,0,0,0,0,0,0,0,0,0,0,0,,,,,0.0,,,,,,
328,3339620,1744865739237,,,,,,,,,,,,,,,,,,,,,,,,,,,,,,,,,,0,0,0,0,0,0,0,0,0,0,0,0,0,0,0,0,,,,,,,,,,,
329,3339640,1744865739257,0.0,135.0,,-0.06,0.21,1.1,0.0,0.0,0.0,1.13,1.64,69.0,4410.0,10.9,3.9,,12.77,1.178,70.0,,28.2,5.0,0.0,0.0,0.0,0.0,0.0,0.0,0.0,0.0,2.27,,,0,0,0,0,0,0,0,0,0,0,0,0,0,0,0,0,0.0,,,,0.0,38.985832,-76.950851,0.08,34.0,3.0,0.8
330,3339660,1744865739277,,,,,,,,,,,,,,,,,,,,,,,,,,,,,,,,,,0,0,0,0,0,0,0,0,0,0,0,0,0,0,0,0,,,,,,,,,,,
331,3339680,1744865739299,0.0,135.0,,-0.05,0.08,1.02,2.0,0.0,-1.0,1.03,1.64,63.0,4421.0,10.9,3.9,,12.85,1.172,70.0,,28.5,5.0,,,,,,,,,,,,0,0,0,0,0,0,0,0,0,0,0,0,0,0,0,0,,,,,0.0,,,,,,
332,3339700,1744865739319,,,,,,,,,,,,,,,,,,,,,,,,,,,,,,,,,,0,0,0,0,0,0,0,0,0,0,0,0,0,0,0,0,,,,,,,,,,,
333,3339720,1744865739339,0.0,135.0,,-0.04,-0.14,0.94,2.0,0.0,-1.0,0.95,1.64,58.0,4361.0,11.1,3.88,,12.85,1.172,70.0,,28.5,5.0,,,,,,,,,,,,0,0,0,0,0,0,0,0,0,0,0,0,0,0,0,0,,,,,0.0,,,,,,
334,3339740,1744865739359,,,,,,,,,,,,,,,,,,,,,,,0.0,0.0,0.0,0.0,0.0,0.0,0.0,0.0,2.26,,,0,0,0,0,0,0,0,0,0,0,0,0,0,0,0,0,0.0,,,,,38.985832,-76.950851,0.05,34.0,3.0,0.8
335,3339760,1744865739379,0.0,135.0,,-0.05,-0.26,0.88,1.0,0.0,-1.0,0.92,1.64,56.0,4361.0,11.1,3.88,,12.79,1.184,70.0,,28.5,5.0,,,,,,,,,,,,0,0,0,0,0,0,0,0,0,0,0,0,0,0,0,0,,,,,0.0,,,,,,
336,3339780,1744865739399,,,,,,,,,,,,,,,,,,,,,,,,,,,,,,,,,,0,0,0,0,0,0,0,0,0,0,0,0,0,0,0,0,,,,,,,,,,,
337,3339800,1744865739419,0.0,135.0,,-0.08,-0.35,0.84,-1.0,0.0,0.0,0.92,1.64,56.0,4430.0,11.1,3.88,,12.8,1.167,70.0,,28.5,5.0,,,,,,,,,,,,0,0,0,0,0,0,0,0,0,0,0,0,0,0,0,0,,,,,0.0,,,,,,
338,3339820,1744865739439,,,,,,,,,,,,,,,,,,,,,,,,,,,,,,,,,,0,0,0,0,0,0,0,0,0,0,0,0,0,0,0,0,,,,,,,,,,,
339,3339840,1744865739459,0.0,135.0,,-0.1,-0.3,0.85,-2.0,0.0,1.0,0.91,1.64,55.0,4431.0,11.1,3.88,,12.79,1.171,70.0,,28.5,5.0,0.0,0.0,0.0,0.0,0.0,0.0,0.0,0.0,2.26,,,0,0,0,0,0,0,0,0,0,0,0,0,0,0,0,0,0.0,,,,0.0,38.985832,-76.950851,0.0,34.0,3.0,0.8
340,3339860,1744865739479,,,,,,,,,,,,,,,,,,,,,,,,,,,,,,,,,,0,0,0,0,0,0,0,0,0,0,0,0,0,0,0,0,,,,,,,,,,,
341,3339880,1744865739499,0.0,135.0,,-0.13,-0.23,0.87,-4.0,0.0,2.0,0.91,1.64,56.0,4488.0,11.1,3.89,,12.71,1.171,70.0,,28.5,5.0,,,,,,,,,,,,0,0,0,0,0,0,0,0,0,0,0,0,0,0,0,0,,,,,0.0,,,,,,
342,3339900,1744865739519,,,,,,,,,,,,,,,,,,,,,,,,,,,,,,,,,,0,0,0,0,0,0,0,0,0,0,0,0,0,0,0,0,,,,,,,,,,,
343,3339920,1744865739539,0.0,135.0,,-0.14,-0.1,0.93,-5.0,0.0,3.0,0.94,1.64,58.0,4486.0,10.6,3.86,,12.71,1.171,70.0,,28.5,5.0,,,,,,,,,,,,0,0,0,0,0,0,0,0,0,0,0,0,0,0,0,0,,,,,0.0,,,,,,
344,3339940,1744865739559,,,,,,,,,,,,,,,,,,,,,,,0.0,0.0,0.0,0.0,0.0,0.0,0.0,0.0,2.26,,,0,0,0,0,0,0,0,0,0,0,0,0,0,0,0,0,0.0,,,,,38.985832,-76.950851,0.0,34.0,3.0,0.8
345,3339960,1744865739579,0.0,135.0,,-0.17,0.05,1.0,-5.0,0.0,3.0,1.01,1.64,62.0,4486.0,10.6,3.86,,12.71,1.171,70.0,,28.3,5.0,,,,,,,,,,,,0,0,0,0,0,0,0,0,0,0,0,0,0,0,0,0,,,,,0.0,,,,,,
346,3339980,1744865739598,,,,,,,,,,,,,,,,,,,,,,,,,,,,,,,,,,0,0,0,0,0,0,0,0,0,0,0,0,0,0,0,0,,,,,,,,,,,
347,3340000,1744865739618,0.0,135.0,,-0.17,0.22,1.08,-5.0,0.0,3.0,1.11,1.64,68.0,4480.0,9.4,3.78,,12.55,1.17,70.0,,28.3,5.0,,,,,,,,,,,,0,0,0,0,0,0,0,0,0,0,0,0,0,0,0,0,,,,,0.0,,,,,,
348,3340020,1744865739638,,,,,,,,,,,,,,,,,,,,,,,,,,,,,,,,,,0,0,0,0,0,0,0,0,0,0,0,0,0,0,0,0,,,,,,,,,,,
349,3340040,1744865739658,0.0,135.0,,-0.16,0.35,1.18,-4.0,0.0,3.0,1.24,1.64,76.0,4412.0,8.5,3.73,,12.53,1.174,70.0,,28.3,5.0,0.0,0.0,0.0,0.0,0.0,0.0,0.0,0.0,2.26,,,0,0,0,0,0,0,0,0,0,0,0,0,0,0,0,0,0.0,,,,0.0,38.985832,-76.950851,0.09,34.0,3.0,0.8
350,3340060,1744865739678,,,,,,,,,,,,,,,,,,,,,,,,,,,,,,,,,,0,0,0,0,0,0,0,0,0,0,0,0,0,0,0,0,,,,,,,,,,,
351,3340080,1744865739698,0.0,135.0,,-0.13,0.43,1.22,-3.0,0.0,3.0,1.3,1.64,80.0,4403.0,7.5,3.68,,12.35,1.155,70.0,,28.5,5.0,,,,,,,,,,,,0,0,0,0,0,0,0,0,0,0,0,0,0,0,0,0,,,,,0.0,,,,,,
352,3340100,1744865739718,,,,,,,,,,,,,,,,,,,,,,,,,,,,,,,,,,0,0,0,0,0,0,0,0,0,0,0,0,0,0,0,0,,,,,,,,,,,
353,3340120,1744865739738,0.0,135.0,,-0.11,0.4,1.18,-1.0,0.0,1.0,1.25,1.64,76.0,4377.0,7.3,3.69,,12.35,1.155,70.0,,28.5,5.0,,,,,,,,,,,,0,0,0,0,0,0,0,0,0,0,0,0,0,0,0,0,,,,,0.0,,,,,,
354,3340140,1744865739758,,,,,,,,,,,,,,,,,,,,,,,0.0,0.0,0.0,0.0,0.0,0.0,0.0,0.0,2.27,,,0,0,0,0,0,0,0,0,0,0,0,0,0,0,0,0,0.0,,,,,38.985832,-76.950851,0.08,34.0,3.0,0.8
355,3340160,1744865739778,0.0,135.0,,-0.11,0.15,1.07,0.0,0.0,0.0,1.09,1.64,67.0,4377.0,7.3,3.69,,12.27,1.141,70.0,,27.9,5.0,,,,,,,,,,,,0,0,0,0,0,0,0,0,0,0,0,0,0,0,0,0,,,,,0.0,,,,,,
356,3340180,1744865739798,,,,,,,,,,,,,,,,,,,,,,,,,,,,,,,,,,0,0,0,0,0,0,0,0,0,0,0,0,0,0,0,0,,,,,,,,,,,
357,3340200,1744865739818,0.0,135.0,,-0.11,0.04,1.05,-1.0,0.0,1.0,1.06,1.64,65.0,4357.0,7.3,3.72,,12.27,1.131,70.0,,27.9,5.0,,,,,,,,,,,,0,0,0,0,0,0,0,0,0,0,0,0,0,0,0,0,,,,,0.0,,,,,,
358,3340220,1744865739838,,,,,,,,,,,,,,,,,,,,,,,,,,,,,,,,,,0,0,0,0,0,0,0,0,0,0,0,0,0,0,0,0,,,,,,,,,,,
359,3340240,1744865739858,0.0,135.0,13.45,-0.09,0.18,1.08,-1.0,0.0,1.0,1.1,1.64,67.0,4265.0,7.3,3.73,15.0,12.29,1.123,70.0,171.0,27.9,5.0,0.0,0.0,0.0,0.0,0.0,0.0,0.0,0.0,2.26,0.0,0.0,0,0,0,0,0,0,0,0,0,0,0,0,0,0,0,0,0.0,0.0,0.0,0.0,0.0,38.985832,-76.950851,0.13,34.0,3.0,0.8
360,3340260,1744865739878,,,,,,,,,,,,,,,,,,,,,,,,,,,,,,,,,,0,0,0,0,0,0,0,0,0,0,0,0,0,0,0,0,,,,,,,,,,,
361,3340280,1744865739900,0.0,135.0,,-0.09,0.07,1.02,1.0,0.0,0.0,1.02,1.64,63.0,4243.0,7.3,3.74,,12.31,1.119,70.0,,28.1,5.0,,,,,,,,,,,,0,0,0,0,0,0,0,0,0,0,0,0,0,0,0,0,,,,,0.0,,,,,,
362,3340300,1744865739920,,,,,,,,,,,,,,,,,,,,,,,,,,,,,,,,,,0,0,0,0,0,0,0,0,0,0,0,0,0,0,0,0,,,,,,,,,,,
363,3340320,1744865739940,0.0,135.0,,-0.1,0.11,1.06,-1.0,0.0,1.0,1.07,1.64,65.0,4175.0,7.3,3.75,,12.31,1.119,70.0,,28.1,5.0,,,,,,,,,,,,0,0,0,0,0,0,0,0,0,0,0,0,0,0,0,0,,,,,0.0,,,,,,
364,3340340,1744865739960,,,,,,,,,,,,,,,,,,,,,,,0.0,0.0,0.0,0.0,0.0,0.0,0.0,0.0,2.26,,,0,0,0,0,0,0,0,0,0,0,0,0,0,0,0,0,0.0,,,,,38.985832,-76.950851,0.07,34.0,3.0,0.8
365,3340360,1744865739980,0.0,135.0,,-0.09,0.1,1.02,0.0,0.0,0.0,1.03,1.64,63.0,4175.0,7.3,3.75,,12.28,1.117,70.0,,27.9,5.0,,,,,,,,,,,,0,0,0,0,0,0,0,0,0,0,0,0,0,0,0,0,,,,,0.0,,,,,,
366,3340380,1744865739992,,,,,,,,,,,,,,,,,,,,,,,,,,,,,,,,,,0,0,0,0,0,0,0,0,0,0,0,0,0,0,0,0,,,,,,,,,,,
367,3340400,1744865740012,0.0,135.0,,-0.09,0.08,1.04,-1.0,0.0,1.0,1.05,1.64,64.0,4155.0,7.3,3.79,,12.33,1.101,70.0,,27.9,5.0,,,,,,,,,,,,0,0,0,0,0,0,0,0,0,0,0,0,0,0,0,0,,,,,0.0,,,,,,
368,3340420,1744865740032,,,,,,,,,,,,,,,,,,,,,,,,,,,,,,,,,,0,0,0,0,0,0,0,0,0,0,0,0,0,0,0,0,,,,,,,,,,,
369,3340440,1744865740052,0.0,135.0,,-0.08,0.06,1.0,0.0,0.0,0.0,1.01,1.64,62.0,4111.0,7.2,3.79,,12.36,1.099,70.0,,27.9,5.0,0.0,0.0,0.0,0.0,0.0,0.0,0.0,0.0,2.26,,,0,0,0,0,0,0,0,0,0,0,0,0,0,0,0,0,0.0,,,,0.0,38.985832,-76.950851,0.09,34.0,3.0,0.8
370,3340460,1744865740072,,,,,,,,,,,,,,,,,,,,,,,,,,,,,,,,,,0,0,0,0,0,0,0,0,0,0,0,0,0,0,0,0,,,,,,,,,,,
371,3340480,1744865740096,0.0,135.0,,-0.07,0.14,1.06,-1.0,0.0,1.0,1.07,1.64,66.0,4039.0,7.1,3.81,,12.36,1.097,70.0,,28.1,5.0,,,,,,,,,,,,0,0,0,0,0,0,0,0,0,0,0,0,0,0,0,0,,,,,0.0,,,,,,
372,3340500,1744865740116,,,,,,,,,,,,,,,,,,,,,,,,,,,,,,,,,,0,0,0,0,0,0,0,0,0,0,0,0,0,0,0,0,,,,,,,,,,,
373,3340520,1744865740136,0.0,135.0,,-0.08,0.02,1.0,0.0,0.0,0.0,1.01,1.64,62.0,4045.0,7.1,3.81,,12.36,1.097,70.0,,28.1,5.0,,,,,,,,,,,,0,0,0,0,0,0,0,0,0,0,0,0,0,0,0,0,,,,,0.0,,,,,,
374,3340540,1744865740156,,,,,,,,,,,,,,,,,,,,,,,0.0,0.0,0.0,0.0,0.0,0.0,0.0,0.0,2.27,,,0,0,0,0,0,0,0,0,0,0,0,0,0,0,0,0,0.0,,,,,38.985832,-76.950851,0.05,34.0,3.0,0.8
375,3340560,1744865740176,0.0,135.0,,-0.05,0.17,1.06,-1.0,0.0,1.0,1.07,1.64,65.0,4045.0,7.1,3.81,,12.28,1.102,70.0,,27.4,5.0,,,,,,,,,,,,0,0,0,0,0,0,0,0,0,0,0,0,0,0,0,0,,,,,0.0,,,,,,
376,3340580,1744865740198,,,,,,,,,,,,,,,,,,,,,,,,,,,,,,,,,,0,0,0,0,0,0,0,0,0,0,0,0,0,0,0,0,,,,,,,,,,,
377,3340600,1744865740218,0.0,135.0,,-0.09,0.03,1.07,0.0,0.0,1.0,1.07,1.64,65.0,4060.0,7.1,3.84,,12.31,1.114,70.0,,27.4,5.0,,,,,,,,,,,,0,0,0,0,0,0,0,0,0,0,0,0,0,0,0,0,,,,,0.0,,,,,,
378,3340620,1744865740238,,,,,,,,,,,,,,,,,,,,,,,,,,,,,,,,,,0,0,0,0,0,0,0,0,0,0,0,0,0,0,0,0,,,,,,,,,,,
379,3340640,1744865740258,0.0,135.0,,-0.08,0.01,1.04,1.0,0.0,0.0,1.05,1.64,64.0,4001.0,7.1,3.82,,12.4,1.101,70.0,,27.4,5.0,0.0,0.0,0.0,0.0,0.0,0.0,0.0,0.0,2.26,,,0,0,0,0,0,0,0,0,0,0,0,0,0,0,0,0,0.0,,,,0.0,38.985832,-76.950851,0.08,34.0,3.0,0.8
380,3340660,1744865740278,,,,,,,,,,,,,,,,,,,,,,,,,,,,,,,,,,0,0,0,0,0,0,0,0,0,0,0,0,0,0,0,0,,,,,,,,,,,
381,3340680,1744865740300,0.0,135.0,,-0.06,0.12,1.08,0.0,0.0,1.0,1.08,1.64,66.0,3914.0,7.1,3.84,,12.43,1.092,70.0,,27.2,5.0,,,,,,,,,,,,0,0,0,0,0,0,0,0,0,0,0,0,0,0,0,0,,,,,0.0,,,,,,
382,3340700,1744865740320,,,,,,,,,,,,,,,,,,,,,,,,,,,,,,,,,,0,0,0,0,0,0,0,0,0,0,0,0,0,0,0,0,,,,,,,,,,,
383,3340720,1744865740340,0.0,135.0,,-0.06,0.09,1.09,-1.0,0.0,1.0,1.1,1.64,67.0,3876.0,7.2,3.84,,12.43,1.092,70.0,,27.2,5.0,,,,,,,,,,,,0,0,0,0,0,0,0,0,0,0,0,0,0,0,0,0,,,,,0.0,,,,,,
