,Interval,Utc,FrontBP,SteerAng,Battery,AccelX,AccelY,AccelZ,Yaw,Pitch,Roll,Gsum,GsumMax,GsumPct,RPM,TPS,InjectorPW,Baro,MAP,Lambda,IAT,EngineTemp,EOP,EOT,WSFR,WSFL,WSRR,WSRL,TCSet,TCSlip,TCComp,TCCut,Analog8,OilTemp,AA_On,ThermLF1,ThermLF2,ThermRR1,ThermRR2,ThermLF3,ThermLF4,ThermLF5,ThermLF6,ThermLF7,ThermLF8,ThermRR3,ThermRR4,ThermRR5,ThermRR6,ThermRR7,ThermRR8,Gear,AA_On1,AA_LowDrag,Fuel_Mix,AA_Packages,Latitude,Longitude,Speed,GPSSats,GPSQual,GPSDOP
0,3534960,1744865934582,0.0,135.0,,-0.04,0.11,0.96,0.0,0.0,0.0,0.97,0.97,100.0,3793.0,10.9,4.02,,13.08,1.225,70.0,,25.0,5.0,,,,,,,,,,,,0,0,0,0,0,0,0,0,0,0,0,0,0,0,0,0,,,,,0.0,,,,,,
1,3534980,1744865934602,,,,,,,,,,,,,,,,,,,,,,,,,,,,,,,,,,0,0,0,0,0,0,0,0,0,0,0,0,0,0,0,0,,,,,,,,,,,
2,3535000,1744865934622,0.0,135.0,,-0.06,0.0,0.95,0.0,0.0,0.0,0.95,0.97,98.0,4070.0,11.1,4.01,,12.95,1.231,70.0,,25.0,5.0,,,,,,,,,,,,0,0,0,0,0,0,0,0,0,0,0,0,0,0,0,0,,,,,0.0,,,,,,
3,3535020,1744865934642,,,,,,,,,,,,,,,,,,,,,,,,,,,,,,,,,,0,0,0,0,0,0,0,0,0,0,0,0,0,0,0,0,,,,,,,,,,,
4,3535040,1744865934662,0.0,135.0,,-0.06,-0.06,0.89,1.0,0.0,-1.0,0.9,0.97,92.0,4134.0,11.0,3.98,,12.88,1.205,70.0,,25.0,5.0,0.0,0.0,0.0,0.0,0.0,0.0,0.0,0.0,2.26,,,0,0,0,0,0,0,0,0,0,0,0,0,0,0,0,0,0.0,,,,0.0,38.985737,-76.9506,0.12,35.0,3.0,0.8
5,3535060,1744865934682,,,,,,,,,,,,,,,,,,,,,,,,,,,,,,,,,,0,0,0,0,0,0,0,0,0,0,0,0,0,0,0,0,,,,,,,,,,,
6,3535080,1744865934702,0.0,135.0,,-0.05,-0.03,0.94,0.0,0.0,0.0,0.95,0.97,97.0,4090.0,10.9,3.95,,12.81,1.181,70.0,,26.6,5.0,,,,,,,,,,,,0,0,0,0,0,0,0,0,0,0,0,0,0,0,0,0,,,,,0.0,,,,,,
7,3535100,1744865934722,,,,,,,,,,,,,,,,,,,,,,,,,,,,,,,,,,0,0,0,0,0,0,0,0,0,0,0,0,0,0,0,0,,,,,,,,,,,
8,3535120,1744865934742,0.0,135.0,,-0.03,0.11,1.0,0.0,0.0,0.0,1.01,1.01,100.0,4271.0,10.7,3.9,,12.81,1.181,70.0,,26.6,5.0,,,,,,,,,,,,0,0,0,0,0,0,0,0,0,0,0,0,0,0,0,0,,,,,0.0,,,,,,
9,3535140,1744865934762,,,,,,,,,,,,,,,,,,,,,,,0.0,0.0,0.0,0.0,0.0,0.0,0.0,0.0,2.26,,,0,0,0,0,0,0,0,0,0,0,0,0,0,0,0,0,0.0,,,,,38.985737,-76.9506,0.09,35.0,3.0,0.8
10,3535160,1744865934782,0.0,135.0,,-0.04,-0.04,0.92,1.0,0.0,0.0,0.92,1.01,91.0,4271.0,10.7,3.9,,12.71,1.173,70.0,,27.9,5.0,,,,,,,,,,,,0,0,0,0,0,0,0,0,0,0,0,0,0,0,0,0,,,,,0.0,,,,,,
11,3535180,1744865934799,,,,,,,,,,,,,,,,,,,,,,,,,,,,,,,,,,0,0,0,0,0,0,0,0,0,0,0,0,0,0,0,0,,,,,,,,,,,
12,3535200,1744865934819,0.0,135.0,,-0.06,-0.17,0.87,1.0,0.0,-1.0,0.89,1.01,89.0,4333.0,10.7,3.92,,12.71,1.181,70.0,,27.9,5.0,,,,,,,,,,,,0,0,0,0,0,0,0,0,0,0,0,0,0,0,0,0,,,,,0.0,,,,,,
13,3535220,1744865934839,,,,,,,,,,,,,,,,,,,,,,,,,,,,,,,,,,0,0,0,0,0,0,0,0,0,0,0,0,0,0,0,0,,,,,,,,,,,
14,3535240,1744865934859,0.0,135.0,13.29,-0.07,0.0,0.95,-1.0,0.0,0.0,0.95,1.01,95.0,4357.0,10.3,3.89,15.0,12.64,1.178,70.0,180.0,27.9,5.0,0.0,0.0,0.0,0.0,0.0,0.0,0.0,0.0,2.26,0.0,0.0,0,0,0,0,0,0,0,0,0,0,0,0,0,0,0,0,0.0,0.0,0.0,0.0,0.0,38.985737,-76.9506,0.04,35.0,3.0,0.8
15,3535260,1744865934879,,,,,,,,,,,,,,,,,,,,,,,,,,,,,,,,,,0,0,0,0,0,0,0,0,0,0,0,0,0,0,0,0,,,,,,,,,,,
16,3535280,1744865934901,0.0,135.0,,-0.08,0.14,1.07,-2.0,0.0,1.0,1.08,1.08,100.0,4441.0,9.8,3.82,,12.56,1.172,70.0,,28.2,5.0,,,,,,,,,,,,0,0,0,0,0,0,0,0,0,0,0,0,0,0,0,0,,,,,0.0,,,,,,
17,3535300,1744865934921,,,,,,,,,,,,,,,,,,,,,,,,,,,,,,,,,,0,0,0,0,0,0,0,0,0,0,0,0,0,0,0,0,,,,,,,,,,,
18,3535320,1744865934941,0.0,135.0,,-0.06,0.27,1.15,-2.0,0.0,1.0,1.18,1.18,100.0,4410.0,9.7,3.8,,12.56,1.172,70.0,,28.2,5.0,,,,,,,,,,,,0,0,0,0,0,0,0,0,0,0,0,0,0,0,0,0,,,,,0.0,,,,,,
19,3535340,1744865934961,,,,,,,,,,,,,,,,,,,,,,,0.0,0.0,0.0,0.0,0.0,0.0,0.0,0.0,2.26,,,0,0,0,0,0,0,0,0,0,0,0,0,0,0,0,0,0.0,,,,,38.985737,-76.9506,0.0,35.0,3.0,0.8
20,3535360,1744865934981,0.0,135.0,,-0.04,0.26,1.13,-1.0,0.0,1.0,1.16,1.18,98.0,4410.0,9.7,3.8,,12.59,1.163,70.0,,27.6,5.0,,,,,,,,,,,,0,0,0,0,0,0,0,0,0,0,0,0,0,0,0,0,,,,,0.0,,,,,,
21,3535380,1744865934993,,,,,,,,,,,,,,,,,,,,,,,,,,,,,,,,,,0,0,0,0,0,0,0,0,0,0,0,0,0,0,0,0,,,,,,,,,,,
22,3535400,1744865935013,0.0,135.0,,-0.03,0.09,1.04,1.0,0.0,0.0,1.04,1.18,89.0,4384.0,9.3,3.78,,12.51,1.138,70.0,,27.6,5.0,,,,,,,,,,,,0,0,0,0,0,0,0,0,0,0,0,0,0,0,0,0,,,,,0.0,,,,,,
23,3535420,1744865935033,,,,,,,,,,,,,,,,,,,,,,,,,,,,,,,,,,0,0,0,0,0,0,0,0,0,0,0,0,0,0,0,0,,,,,,,,,,,
24,3535440,1744865935053,0.0,135.0,,-0.02,-0.06,0.97,2.0,0.0,0.0,0.97,1.18,82.0,4384.0,9.3,3.77,,12.41,1.124,70.0,,27.6,5.0,0.0,0.0,0.0,0.0,0.0,0.0,0.0,0.0,2.26,,,0,0,0,0,0,0,0,0,0,0,0,0,0,0,0,0,0.0,,,,0.0,38.985737,-76.9506,0.07,35.0,3.0,0.8
25,3535460,1744865935073,,,,,,,,,,,,,,,,,,,,,,,,,,,,,,,,,,0,0,0,0,0,0,0,0,0,0,0,0,0,0,0,0,,,,,,,,,,,
26,3535480,1744865935101,0.0,135.0,,-0.05,-0.19,0.91,2.0,0.0,-1.0,0.93,1.18,79.0,4403.0,9.4,3.8,,12.45,1.132,70.0,,28.3,5.0,,,,,,,,,,,,0,0,0,0,0,0,0,0,0,0,0,0,0,0,0,0,,,,,0.0,,,,,,
27,3535500,1744865935121,,,,,,,,,,,,,,,,,,,,,,,,,,,,,,,,,,0,0,0,0,0,0,0,0,0,0,0,0,0,0,0,0,,,,,,,,,,,
28,3535520,1744865935141,0.0,135.0,,-0.07,-0.11,0.94,0.0,0.0,0.0,0.95,1.18,80.0,4412.0,9.3,3.77,,12.45,1.132,70.0,,28.3,5.0,,,,,,,,,,,,0,0,0,0,0,0,0,0,0,0,0,0,0,0,0,0,,,,,0.0,,,,,,
29,3535540,1744865935161,,,,,,,,,,,,,,,,,,,,,,,0.0,0.0,0.0,0.0,0.0,0.0,0.0,0.0,2.26,,,0,0,0,0,0,0,0,0,0,0,0,0,0,0,0,0,0.0,,,,,38.985737,-76.9506,0.05,35.0,3.0,0.8
30,3535560,1744865935181,0.0,135.0,,-0.08,0.09,1.04,-2.0,0.0,1.0,1.05,1.18,89.0,4412.0,9.3,3.77,,12.43,1.121,70.0,,28.0,5.0,,,,,,,,,,,,0,0,0,0,0,0,0,0,0,0,0,0,0,0,0,0,,,,,0.0,,,,,,
31,3535580,1744865935199,,,,,,,,,,,,,,,,,,,,,,,,,,,,,,,,,,0,0,0,0,0,0,0,0,0,0,0,0,0,0,0,0,,,,,,,,,,,
32,3535600,1744865935219,0.0,135.0,,-0.08,0.2,1.14,-2.0,0.0,1.0,1.16,1.18,98.0,4434.0,9.3,3.78,,12.4,1.123,70.0,,28.0,5.0,,,,,,,,,,,,0,0,0,0,0,0,0,0,0,0,0,0,0,0,0,0,,,,,0.0,,,,,,
33,3535620,1744865935239,,,,,,,,,,,,,,,,,,,,,,,,,,,,,,,,,,0,0,0,0,0,0,0,0,0,0,0,0,0,0,0,0,,,,,,,,,,,
34,3535640,1744865935259,0.0,135.0,,-0.06,0.33,1.21,-2.0,0.0,2.0,1.26,1.26,100.0,4417.0,9.4,3.75,,12.44,1.126,70.0,,28.0,5.0,0.0,0.0,0.0,0.0,0.0,0.0,0.0,0.0,2.26,,,0,0,0,0,0,0,0,0,0,0,0,0,0,0,0,0,0.0,,,,0.0,38.985737,-76.9506,0.04,35.0,3.0,0.8
35,3535660,1744865935279,,,,,,,,,,,,,,,,,,,,,,,,,,,,,,,,,,0,0,0,0,0,0,0,0,0,0,0,0,0,0,0,0,,,,,,,,,,,
36,3535680,1744865935301,0.0,135.0,,-0.05,0.31,1.2,-1.0,0.0,1.0,1.24,1.26,99.0,4413.0,9.2,3.74,,12.36,1.132,70.0,,28.7,5.0,,,,,,,,,,,,0,0,0,0,0,0,0,0,0,0,0,0,0,0,0,0,,,,,0.0,,,,,,
37,3535700,1744865935321,,,,,,,,,,,,,,,,,,,,,,,,,,,,,,,,,,0,0,0,0,0,0,0,0,0,0,0,0,0,0,0,0,,,,,,,,,,,
38,3535720,1744865935341,0.0,135.0,,-0.03,0.2,1.12,1.0,0.0,0.0,1.14,1.26,91.0,4340.0,8.2,3.71,,12.36,1.132,70.0,,28.7,5.0,,,,,,,,,,,,0,0,0,0,0,0,0,0,0,0,0,0,0,0,0,0,,,,,0.0,,,,,,
39,3535740,1744865935361,,,,,,,,,,,,,,,,,,,,,,,0.0,0.0,0.0,0.0,0.0,0.0,0.0,0.0,2.26,,,0,0,0,0,0,0,0,0,0,0,0,0,0,0,0,0,0.0,,,,,38.985737,-76.9506,0.0,35.0,3.0,0.8
40,3535760,1744865935381,0.0,135.0,,-0.04,0.0,1.02,1.0,0.0,0.0,1.03,1.26,82.0,4340.0,8.2,3.71,,12.29,1.133,70.0,,28.2,5.0,,,,,,,,,,,,0,0,0,0,0,0,0,0,0,0,0,0,0,0,0,0,,,,,0.0,,,,,,
41,3535780,1744865935403,,,,,,,,,,,,,,,,,,,,,,,,,,,,,,,,,,0,0,0,0,0,0,0,0,0,0,0,0,0,0,0,0,,,,,,,,,,,
42,3535800,1744865935423,0.0,135.0,,-0.07,-0.04,1.0,0.0,0.0,0.0,1.0,1.26,80.0,4371.0,8.0,3.73,,12.29,1.135,70.0,,28.2,5.0,,,,,,,,,,,,0,0,0,0,0,0,0,0,0,0,0,0,0,0,0,0,,,,,0.0,,,,,,
43,3535820,1744865935443,,,,,,,,,,,,,,,,,,,,,,,,,,,,,,,,,,0,0,0,0,0,0,0,0,0,0,0,0,0,0,0,0,,,,,,,,,,,
44,3535840,1744865935463,0.0,135.0,,-0.07,0.12,1.08,-1.0,0.0,1.0,1.09,1.26,87.0,4375.0,8.0,3.72,,12.25,1.133,70.0,,28.2,5.0,0.0,0.0,0.0,0.0,0.0,0.0,0.0,0.0,2.26,,,0,0,0,0,0,0,0,0,0,0,0,0,0,0,0,0,0.0,,,,0.0,38.985737,-76.9506,0.05,35.0,3.0,0.8
45,3535860,1744865935483,,,,,,,,,,,,,,,,,,,,,,,,,,,,,,,,,,0,0,0,0,0,0,0,0,0,0,0,0,0,0,0,0,,,,,,,,,,,
46,3535880,1744865935501,0.0,135.0,,-0.06,0.19,1.11,-1.0,0.0,1.0,1.13,1.26,90.0,4352.0,8.0,3.74,,12.29,1.135,70.0,,28.0,5.0,,,,,,,,,,,,0,0,0,0,0,0,0,0,0,0,0,0,0,0,0,0,,,,,0.0,,,,,,
47,3535900,1744865935521,,,,,,,,,,,,,,,,,,,,,,,,,,,,,,,,,,0,0,0,0,0,0,0,0,0,0,0,0,0,0,0,0,,,,,,,,,,,
48,3535920,1744865935541,0.0,135.0,,-0.06,0.02,1.02,1.0,0.0,0.0,1.02,1.26,81.0,4276.0,8.0,3.72,,12.29,1.135,70.0,,28.0,5.0,,,,,,,,,,,,0,0,0,0,0,0,0,0,0,0,0,0,0,0,0,0,,,,,0.0,,,,,,
49,3535940,1744865935561,,,,,,,,,,,,,,,,,,,,,,,0.0,0.0,0.0,0.0,0.0,0.0,0.0,0.0,2.26,,,0,0,0,0,0,0,0,0,0,0,0,0,0,0,0,0,0.0,,,,,38.985737,-76.9506,0.04,35.0,3.0,0.8
50,3535960,1744865935581,0.0,135.0,,-0.06,-0.04,1.0,0.0,0.0,0.0,1.0,1.26,80.0,4276.0,8.0,3.72,,12.2,1.127,70.0,,27.4,5.0,,,,,,,,,,,,0,0,0,0,0,0,0,0,0,0,0,0,0,0,0,0,,,,,0.0,,,,,,
51,3535980,1744865935603,,,,,,,,,,,,,,,,,,,,,,,,,,,,,,,,,,0,0,0,0,0,0,0,0,0,0,0,0,0,0,0,0,,,,,,,,,,,
52,3536000,1744865935623,0.0,135.0,,-0.05,0.14,1.1,-1.0,0.0,1.0,1.11,1.26,88.0,4275.0,8.0,3.72,,12.28,1.128,70.0,,27.4,5.0,,,,,,,,,,,,0,0,0,0,0,0,0,0,0,0,0,0,0,0,0,0,,,,,0.0,,,,,,
53,3536020,1744865935643,,,,,,,,,,,,,,,,,,,,,,,,,,,,,,,,,,0,0,0,0,0,0,0,0,0,0,0,0,0,0,0,0,,,,,,,,,,,
54,3536040,1744865935663,0.0,135.0,,-0.05,0.13,1.06,0.0,0.0,0.0,1.07,1.26,85.0,4311.0,8.2,3.75,,12.27,1.134,70.0,,27.4,5.0,0.0,0.0,0.0,0.0,0.0,0.0,0.0,0.0,2.26,,,0,0,0,0,0,0,0,0,0,0,0,0,0,0,0,0,0.0,,,,0.0,38.985737,-76.9506,0.04,35.0,3.0,0.8
55,3536060,1744865935683,,,,,,,,,,,,,,,,,,,,,,,,,,,,,,,,,,0,0,0,0,0,0,0,0,0,0,0,0,0,0,0,0,,,,,,,,,,,
56,3536080,1744865935700,0.0,135.0,,-0.05,-0.06,0.99,1.0,0.0,0.0,1.0,1.26,79.0,4291.0,8.0,3.75,,12.29,1.133,70.0,,27.4,5.0,,,,,,,,,,,,0,0,0,0,0,0,0,0,0,0,0,0,0,0,0,0,,,,,0.0,,,,,,
57,3536100,1744865935720,,,,,,,,,,,,,,,,,,,,,,,,,,,,,,,,,,0,0,0,0,0,0,0,0,0,0,0,0,0,0,0,0,,,,,,,,,,,
58,3536120,1744865935740,0.0,135.0,,-0.05,0.07,1.05,-1.0,0.0,1.0,1.06,1.26,84.0,4225.0,8.0,3.74,,12.29,1.133,70.0,,27.4,5.0,,,,,,,,,,,,0,0,0,0,0,0,0,0,0,0,0,0,0,0,0,0,,,,,0.0,,,,,,
59,3536140,1744865935760,,,,,,,,,,,,,,,,,,,,,,,0.0,0.0,0.0,0.0,0.0,0.0,0.0,0.0,2.26,,,0,0,0,0,0,0,0,0,0,0,0,0,0,0,0,0,0.0,,,,,38.985737,-76.9506,0.08,35.0,3.0,0.8
60,3536160,1744865935780,0.0,135.0,,-0.04,0.14,1.07,0.0,0.0,1.0,1.08,1.26,86.0,4225.0,8.0,3.74,,12.29,1.125,70.0,,27.1,5.0,,,,,,,,,,,,0,0,0,0,0,0,0,0,0,0,0,0,0,0,0,0,,,,,0.0,,,,,,
61,3536180,1744865935800,,,,,,,,,,,,,,,,,,,,,,,,,,,,,,,,,,0,0,0,0,0,0,0,0,0,0,0,0,0,0,0,0,,,,,,,,,,,
62,3536200,1744865935820,0.0,135.0,,-0.07,-0.06,0.98,1.0,0.0,0.0,0.98,1.26,78.0,4224.0,8.2,3.74,,12.27,1.128,70.0,,27.1,5.0,,,,,,,,,,,,0,0,0,0,0,0,0,0,0,0,0,0,0,0,0,0,,,,,0.0,,,,,,
63,3536220,1744865935840,,,,,,,,,,,,,,,,,,,,,,,,,,,,,,,,,,0,0,0,0,0,0,0,0,0,0,0,0,0,0,0,0,,,,,,,,,,,
64,3536240,1744865935860,0.0,135.0,13.38,-0.07,0.02,1.03,0.0,0.0,0.0,1.03,1.26,82.0,4239.0,8.0,3.74,15.0,12.2,1.14,70.0,173.0,27.1,5.0,0.0,0.0,0.0,0.0,0.0,0.0,0.0,0.0,2.26,0.0,0.0,0,0,0,0,0,0,0,0,0,0,0,0,0,0,0,0,0.0,0.0,0.0,0.0,0.0,38.985737,-76.9506,0.04,35.0,3.0,0.8
65,3536260,1744865935880,,,,,,,,,,,,,,,,,,,,,,,,,,,,,,,,,,0,0,0,0,0,0,0,0,0,0,0,0,0,0,0,0,,,,,,,,,,,
66,3536280,1744865935900,0.0,135.0,,-0.04,0.14,1.06,0.0,0.0,1.0,1.07,1.26,85.0,4280.0,8.0,3.76,,12.24,1.14,70.0,,27.0,5.0,,,,,,,,,,,,0,0,0,0,0,0,0,0,0,0,0,0,0,0,0,0,,,,,0.0,,,,,,
67,3536300,1744865935920,,,,,,,,,,,,,,,,,,,,,,,,,,,,,,,,,,0,0,0,0,0,0,0,0,0,0,0,0,0,0,0,0,,,,,,,,,,,
68,3536320,1744865935940,0.0,135.0,,-0.06,-0.01,0.98,1.0,0.0,0.0,0.98,1.26,78.0,4298.0,8.0,3.77,,12.24,1.14,70.0,,27.0,5.0,,,,,,,,,,,,0,0,0,0,0,0,0,0,0,0,0,0,0,0,0,0,,,,,0.0,,,,,,
69,3536340,1744865935960,,,,,,,,,,,,,,,,,,,,,,,0.0,0.0,0.0,0.0,0.0,0.0,0.0,0.0,2.25,,,0,0,0,0,0,0,0,0,0,0,0,0,0,0,0,0,0.0,,,,,38.985737,-76.9506,0.04,35.0,3.0,0.8
70,3536360,1744865935980,0.0,135.0,,-0.08,-0.06,0.98,0.0,0.0,0.0,0.99,1.26,78.0,4298.0,8.0,3.77,,12.25,1.136,70.0,,27.2,5.0,,,,,,,,,,,,0,0,0,0,0,0,0,0,0,0,0,0,0,0,0,0,,,,,0.0,,,,,,
71,3536380,1744865935992,,,,,,,,,,,,,,,,,,,,,,,,,,,,,,,,,,0,0,0,0,0,0,0,0,0,0,0,0,0,0,0,0,,,,,,,,,,,
72,3536400,1744865936012,0.0,135.0,,-0.06,0.11,1.05,0.0,0.0,1.0,1.06,1.26,84.0,4252.0,7.9,3.73,,12.28,1.139,70.0,,27.2,5.0,,,,,,,,,,,,0,0,0,0,0,0,0,0,0,0,0,0,0,0,0,0,,,,,0.0,,,,,,
73,3536420,1744865936032,,,,,,,,,,,,,,,,,,,,,,,,,,,,,,,,,,0,0,0,0,0,0,0,0,0,0,0,0,0,0,0,0,,,,,,,,,,,
74,3536440,1744865936052,0.0,135.0,,-0.05,0.01,0.99,1.0,0.0,0.0,0.99,1.26,79.0,4248.0,7.9,3.75,,12.28,1.14,70.0,,27.2,5.0,0.0,0.0,0.0,0.0,0.0,0.0,0.0,0.0,2.26,,,0,0,0,0,0,0,0,0,0,0,0,0,0,0,0,0,0.0,,,,0.0,38.985737,-76.9506,0.15,35.0,3.0,0.8
75,3536460,1744865936072,,,,,,,,,,,,,,,,,,,,,,,,,,,,,,,,,,0,0,0,0,0,0,0,0,0,0,0,0,0,0,0,0,,,,,,,,,,,
76,3536480,1744865936096,0.0,135.0,,-0.08,-0.1,0.96,1.0,0.0,0.0,0.96,1.26,77.0,4294.0,7.9,3.75,,12.25,1.118,70.0,,27.3,5.0,,,,,,,,,,,,0,0,0,0,0,0,0,0,0,0,0,0,0,0,0,0,,,,,0.0,,,,,,
77,3536500,1744865936116,,,,,,,,,,,,,,,,,,,,,,,,,,,,,,,,,,0,0,0,0,0,0,0,0,0,0,0,0,0,0,0,0,,,,,,,,,,,
78,3536520,1744865936136,0.0,135.0,,-0.08,0.04,1.03,0.0,0.0,0.0,1.04,1.26,82.0,4290.0,8.0,3.76,,12.25,1.118,70.0,,27.3,5.0,,,,,,,,,,,,0,0,0,0,0,0,0,0,0,0,0,0,0,0,0,0,,,,,0.0,,,,,,
79,3536540,1744865936156,,,,,,,,,,,,,,,,,,,,,,,0.0,0.0,0.0,0.0,0.0,0.0,0.0,0.0,2.26,,,0,0,0,0,0,0,0,0,0,0,0,0,0,0,0,0,0.0,,,,,38.985737,-76.9506,0.11,35.0,3.0,0.8
80,3536560,1744865936176,0.0,135.0,,-0.06,0.03,0.99,1.0,0.0,0.0,0.99,1.26,79.0,4290.0,8.0,3.76,,12.27,1.116,70.0,,27.6,5.0,,,,,,,,,,,,0,0,0,0,0,0,0,0,0,0,0,0,0,0,0,0,,,,,0.0,,,,,,
81,3536580,1744865936202,,,,,,,,,,,,,,,,,,,,,,,,,,,,,,,,,,0,0,0,0,0,0,0,0,0,0,0,0,0,0,0,0,,,,,,,,,,,
82,3536600,1744865936222,0.0,135.0,,-0.06,-0.08,0.96,0.0,0.0,0.0,0.97,1.26,77.0,4204.0,8.1,3.74,,12.27,1.114,70.0,,27.6,5.0,,,,,,,,,,,,0,0,0,0,0,0,0,0,0,0,0,0,0,0,0,0,,,,,0.0,,,,,,
83,3536620,1744865936242,,,,,,,,,,,,,,,,,,,,,,,,,,,,,,,,,,0,0,0,0,0,0,0,0,0,0,0,0,0,0,0,0,,,,,,,,,,,
84,3536640,1744865936262,0.0,135.0,,-0.07,0.03,1.05,-1.0,0.0,1.0,1.05,1.26,84.0,4234.0,8.1,3.74,,12.29,1.119,70.0,,27.6,5.0,0.0,0.0,0.0,0.0,0.0,0.0,0.0,0.0,2.25,,,0,0,0,0,0,0,0,0,0,0,0,0,0,0,0,0,0.0,,,,0.0,38.985737,-76.9506,0.1,35.0,3.0,0.8
85,3536660,1744865936282,,,,,,,,,,,,,,,,,,,,,,,,,,,,,,,,,,0,0,0,0,0,0,0,0,0,0,0,0,0,0,0,0,,,,,,,,,,,
86,3536680,1744865936300,0.0,135.0,,-0.05,0.04,1.02,0.0,0.0,0.0,1.03,1.26,82.0,4248.0,8.1,3.74,,12.23,1.125,70.0,,26.8,5.0,,,,,,,,,,,,0,0,0,0,0,0,0,0,0,0,0,0,0,0,0,0,,,,,0.0,,,,,,
87,3536700,1744865936320,,,,,,,,,,,,,,,,,,,,,,,,,,,,,,,,,,0,0,0,0,0,0,0,0,0,0,0,0,0,0,0,0,,,,,,,,,,,
88,3536720,1744865936340,0.0,135.0,,-0.06,-0.08,0.98,0.0,0.0,0.0,0.99,1.26,78.0,4274.0,8.2,3.77,,12.23,1.125,70.0,,26.8,5.0,,,,,,,,,,,,0,0,0,0,0,0,0,0,0,0,0,0,0,0,0,0,,,,,0.0,,,,,,
89,3536740,1744865936360,,,,,,,,,,,,,,,,,,,,,,,0.0,0.0,0.0,0.0,0.0,0.0,0.0,0.0,2.26,,,0,0,0,0,0,0,0,0,0,0,0,0,0,0,0,0,0.0,,,,,38.985737,-76.9506,0.05,35.0,3.0,0.8
90,3536760,1744865936380,0.0,135.0,,-0.05,0.06,1.07,-1.0,0.0,1.0,1.07,1.26,85.0,4274.0,8.2,3.77,,12.23,1.137,70.0,,27.3,5.0,,,,,,,,,,,,0,0,0,0,0,0,0,0,0,0,0,0,0,0,0,0,,,,,0.0,,,,,,
91,3536780,1744865936402,,,,,,,,,,,,,,,,,,,,,,,,,,,,,,,,,,0,0,0,0,0,0,0,0,0,0,0,0,0,0,0,0,,,,,,,,,,,
92,3536800,1744865936422,0.0,135.0,,-0.05,0.06,1.04,0.0,0.0,0.0,1.05,1.26,83.0,4281.0,8.0,3.76,,12.25,1.144,70.0,,27.3,5.0,,,,,,,,,,,,0,0,0,0,0,0,0,0,0,0,0,0,0,0,0,0,,,,,0.0,,,,,,
93,3536820,1744865936442,,,,,,,,,,,,,,,,,,,,,,,,,,,,,,,,,,0,0,0,0,0,0,0,0,0,0,0,0,0,0,0,0,,,,,,,,,,,
94,3536840,1744865936462,0.0,135.0,,-0.05,-0.13,0.98,1.0,0.0,0.0,0.99,1.26,78.0,4252.0,8.2,3.75,,12.24,1.133,70.0,,27.3,5.0,0.0,0.0,0.0,0.0,0.0,0.0,0.0,0.0,2.26,,,0,0,0,0,0,0,0,0,0,0,0,0,0,0,0,0,0.0,,,,0.0,38.985737,-76.9506,0.07,35.0,3.0,0.8
95,3536860,1744865936482,,,,,,,,,,,,,,,,,,,,,,,,,,,,,,,,,,0,0,0,0,0,0,0,0,0,0,0,0,0,0,0,0,,,,,,,,,,,
96,3536880,1744865936502,0.0,135.0,,-0.05,0.01,1.03,-1.0,0.0,1.0,1.03,1.26,82.0,4261.0,9.0,3.79,,12.31,1.115,70.0,,27.1,5.0,,,,,,,,,,,,0,0,0,0,0,0,0,0,0,0,0,0,0,0,0,0,,,,,0.0,,,,,,
97,3536900,1744865936522,,,,,,,,,,,,,,,,,,,,,,,,,,,,,,,,,,0,0,0,0,0,0,0,0,0,0,0,0,0,0,0,0,,,,,,,,,,,
98,3536920,1744865936542,0.0,135.0,,-0.04,0.1,1.06,0.0,0.0,1.0,1.07,1.26,85.0,4304.0,10.1,3.88,,12.31,1.115,70.0,,27.1,5.0,,,,,,,,,,,,0,0,0,0,0,0,0,0,0,0,0,0,0,0,0,0,,,,,0.0,,,,,,
99,3536940,1744865936562,,,,,,,,,,,,,,,,,,,,,,,0.0,0.0,0.0,0.0,0.0,0.0,0.0,0.0,2.26,,,0,0,0,0,0,0,0,0,0,0,0,0,0,0,0,0,0.0,,,,,38.985737,-76.9506,0.1,35.0,3.0,0.8
100,3536960,1744865936582,0.0,135.0,,-0.04,-0.06,0.97,1.0,0.0,0.0,0.97,1.26,77.0,4304.0,10.1,3.88,,12.44,1.106,70.0,,27.1,5.0,,,,,,,,,,,,0,0,0,0,0,0,0,0,0,0,0,0,0,0,0,0,,,,,0.0,,,,,,
101,3536980,1744865936602,,,,,,,,,,,,,,,,,,,,,,,,,,,,,,,,,,0,0,0,0,0,0,0,0,0,0,0,0,0,0,0,0,,,,,,,,,,,
102,3537000,1744865936622,0.0,135.0,,-0.05,-0.15,0.94,1.0,0.0,0.0,0.95,1.26,76.0,4359.0,10.7,3.89,,12.63,1.123,70.0,,27.1,5.0,,,,,,,,,,,,0,0,0,0,0,0,0,0,0,0,0,0,0,0,0,0,,,,,0.0,,,,,,
103,3537020,1744865936642,,,,,,,,,,,,,,,,,,,,,,,,,,,,,,,,,,0,0,0,0,0,0,0,0,0,0,0,0,0,0,0,0,,,,,,,,,,,
104,3537040,1744865936662,0.0,135.0,,-0.07,-0.05,1.0,-1.0,0.0,1.0,1.0,1.26,80.0,4355.0,11.1,3.91,,12.67,1.129,70.0,,27.1,5.0,0.0,0.0,0.0,0.0,0.0,0.0,0.0,0.0,2.26,,,0,0,0,0,0,0,0,0,0,0,0,0,0,0,0,0,0.0,,,,0.0,38.985737,-76.9506,0.08,35.0,3.0,0.8
105,3537060,1744865936682,,,,,,,,,,,,,,,,,,,,,,,,,,,,,,,,,,0,0,0,0,0,0,0,0,0,0,0,0,0,0,0,0,,,,,,,,,,,
106,3537080,1744865936701,0.0,135.0,,-0.07,0.08,1.08,-1.0,0.0,1.0,1.08,1.26,86.0,4333.0,11.5,3.91,,12.69,1.141,70.0,,26.9,5.0,,,,,,,,,,,,0,0,0,0,0,0,0,0,0,0,0,0,0,0,0,0,,,,,0.0,,,,,,
107,3537100,1744865936721,,,,,,,,,,,,,,,,,,,,,,,,,,,,,,,,,,0,0,0,0,0,0,0,0,0,0,0,0,0,0,0,0,,,,,,,,,,,
108,3537120,1744865936741,0.0,135.0,,-0.04,0.15,1.11,0.0,0.0,1.0,1.12,1.26,89.0,4379.0,11.9,3.91,,12.69,1.141,70.0,,26.9,5.0,,,,,,,,,,,,0,0,0,0,0,0,0,0,0,0,0,0,0,0,0,0,,,,,0.0,,,,,,
109,3537140,1744865936761,,,,,,,,,,,,,,,,,,,,,,,0.0,0.0,0.0,0.0,0.0,0.0,0.0,0.0,2.25,,,0,0,0,0,0,0,0,0,0,0,0,0,0,0,0,0,0.0,,,,,38.985737,-76.9506,0.04,35.0,3.0,0.8
110,3537160,1744865936781,0.0,135.0,,-0.04,0.06,1.04,1.0,0.0,0.0,1.04,1.26,83.0,4379.0,11.9,3.91,,12.77,1.137,70.0,,27.0,5.0,,,,,,,,,,,,0,0,0,0,0,0,0,0,0,0,0,0,0,0,0,0,,,,,0.0,,,,,,
111,3537180,1744865936801,,,,,,,,,,,,,,,,,,,,,,,,,,,,,,,,,,0,0,0,0,0,0,0,0,0,0,0,0,0,0,0,0,,,,,,,,,,,
112,3537200,1744865936821,0.0,135.0,,-0.02,-0.1,0.97,2.0,0.0,-1.0,0.98,1.26,78.0,4402.0,12.3,3.98,,12.8,1.133,70.0,,27.0,5.0,,,,,,,,,,,,0,0,0,0,0,0,0,0,0,0,0,0,0,0,0,0,,,,,0.0,,,,,,
113,3537220,1744865936841,,,,,,,,,,,,,,,,,,,,,,,,,,,,,,,,,,0,0,0,0,0,0,0,0,0,0,0,0,0,0,0,0,,,,,,,,,,,
114,3537240,1744865936861,0.0,135.0,13.37,-0.02,-0.21,0.9,2.0,0.0,-1.0,0.93,1.26,74.0,4427.0,13.2,3.98,15.0,12.85,1.14,70.0,169.0,27.0,5.0,0.0,0.0,0.0,0.0,0.0,0.0,0.0,0.0,2.25,0.0,0.0,0,0,0,0,0,0,0,0,0,0,0,0,0,0,0,0,0.0,0.0,0.0,0.0,0.0,38.985737,-76.9506,0.04,35.0,3.0,0.8
115,3537260,1744865936881,,,,,,,,,,,,,,,,,,,,,,,,,,,,,,,,,,0,0,0,0,0,0,0,0,0,0,0,0,0,0,0,0,,,,,,,,,,,
116,3537280,1744865936901,0.0,135.0,,-0.04,-0.34,0.84,2.0,0.0,-1.0,0.91,1.26,72.0,4509.0,15.6,4.07,,13.08,1.14,70.0,,27.3,5.0,,,,,,,,,,,,0,0,0,0,0,0,0,0,0,0,0,0,0,0,0,0,,,,,0.0,,,,,,
117,3537300,1744865936921,,,,,,,,,,,,,,,,,,,,,,,,,,,,,,,,,,0,0,0,0,0,0,0,0,0,0,0,0,0,0,0,0,,,,,,,,,,,
118,3537320,1744865936941,0.0,135.0,,-0.03,-0.4,0.8,1.0,0.0,-1.0,0.89,1.26,71.0,4570.0,17.1,4.18,,13.08,1.14,70.0,,27.3,5.0,,,,,,,,,,,,0,0,0,0,0,0,0,0,0,0,0,0,0,0,0,0,,,,,0.0,,,,,,
119,3537340,1744865936961,,,,,,,,,,,,,,,,,,,,,,,0.0,0.0,0.0,0.0,0.0,0.0,0.0,0.0,2.26,,,0,0,0,0,0,0,0,0,0,0,0,0,0,0,0,0,0.0,,,,,38.985737,-76.9506,0.04,35.0,3.0,0.8
120,3537360,1744865936981,0.0,135.0,,-0.02,-0.48,0.75,2.0,0.0,-1.0,0.89,1.26,71.0,4570.0,17.1,4.18,,13.2,1.128,70.0,,27.8,5.0,,,,,,,,,,,,0,0,0,0,0,0,0,0,0,0,0,0,0,0,0,0,,,,,0.0,,,,,,
121,3537380,1744865936993,,,,,,,,,,,,,,,,,,,,,,,,,,,,,,,,,,0,0,0,0,0,0,0,0,0,0,0,0,0,0,0,0,,,,,,,,,,,
122,3537400,1744865937013,0.0,135.0,,0.01,-0.5,0.74,2.0,0.0,-2.0,0.89,1.26,71.0,4542.0,17.4,4.22,,13.29,1.134,70.0,,27.8,5.0,,,,,,,,,,,,0,0,0,0,0,0,0,0,0,0,0,0,0,0,0,0,,,,,0.0,,,,,,
123,3537420,1744865937033,,,,,,,,,,,,,,,,,,,,,,,,,,,,,,,,,,0,0,0,0,0,0,0,0,0,0,0,0,0,0,0,0,,,,,,,,,,,
124,3537440,1744865937053,0.0,135.0,,0.0,-0.34,0.86,2.0,0.0,-1.0,0.92,1.26,73.0,4643.0,18.0,4.24,,13.32,1.146,70.0,,27.8,5.0,0.0,0.0,0.0,0.0,0.0,0.0,0.0,0.0,2.26,,,0,0,0,0,0,0,0,0,0,0,0,0,0,0,0,0,0.0,,,,0.0,38.985737,-76.9506,0.05,35.0,3.0,0.8
125,3537460,1744865937073,,,,,,,,,,,,,,,,,,,,,,,,,,,,,,,,,,0,0,0,0,0,0,0,0,0,0,0,0,0,0,0,0,,,,,,,,,,,
126,3537480,1744865937095,0.0,135.0,,-0.03,-0.31,0.85,1.0,0.0,-1.0,0.9,1.26,72.0,4714.0,18.8,4.27,,13.35,1.155,70.0,,27.7,5.0,,,,,,,,,,,,0,0,0,0,0,0,0,0,0,0,0,0,0,0,0,0,,,,,0.0,,,,,,
127,3537500,1744865937115,,,,,,,,,,,,,,,,,,,,,,,,,,,,,,,,,,0,0,0,0,0,0,0,0,0,0,0,0,0,0,0,0,,,,,,,,,,,
128,3537520,1744865937135,0.0,135.0,,0.0,-0.32,0.87,2.0,0.0,-1.0,0.92,1.26,74.0,4820.0,19.3,4.3,,13.35,1.155,70.0,,27.7,5.0,,,,,,,,,,,,0,0,0,0,0,0,0,0,0,0,0,0,0,0,0,0,,,,,0.0,,,,,,
129,3537540,1744865937155,,,,,,,,,,,,,,,,,,,,,,,0.0,0.0,0.0,0.0,0.0,0.0,0.0,0.0,2.26,,,0,0,0,0,0,0,0,0,0,0,0,0,0,0,0,0,0.0,,,,,38.985737,-76.9506,0.0,35.0,3.0,0.8
130,3537560,1744865937175,0.0,135.0,,-0.04,-0.25,0.87,1.0,0.0,-1.0,0.9,1.26,72.0,4820.0,19.3,4.3,,13.31,1.172,70.0,,27.9,5.0,,,,,,,,,,,,0,0,0,0,0,0,0,0,0,0,0,0,0,0,0,0,,,,,0.0,,,,,,
131,3537580,1744865937197,,,,,,,,,,,,,,,,,,,,,,,,,,,,,,,,,,0,0,0,0,0,0,0,0,0,0,0,0,0,0,0,0,,,,,,,,,,,
132,3537600,1744865937217,0.0,135.0,,-0.02,-0.21,0.9,1.0,0.0,-1.0,0.93,1.26,74.0,4897.0,19.6,4.29,,13.43,1.157,70.0,,27.9,5.0,,,,,,,,,,,,0,0,0,0,0,0,0,0,0,0,0,0,0,0,0,0,,,,,0.0,,,,,,
133,3537620,1744865937237,,,,,,,,,,,,,,,,,,,,,,,,,,,,,,,,,,0,0,0,0,0,0,0,0,0,0,0,0,0,0,0,0,,,,,,,,,,,
134,3537640,1744865937257,0.0,135.0,,-0.01,-0.23,0.92,1.0,0.0,-1.0,0.95,1.26,75.0,5066.0,20.2,4.32,,13.32,1.168,70.0,,27.9,5.0,0.0,0.0,0.0,0.0,0.0,0.0,0.0,0.0,2.26,,,0,0,0,0,0,0,0,0,0,0,0,0,0,0,0,0,0.0,,,,0.0,38.985737,-76.9506,0.0,35.0,3.0,0.8
135,3537660,1744865937277,,,,,,,,,,,,,,,,,,,,,,,,,,,,,,,,,,0,0,0,0,0,0,0,0,0,0,0,0,0,0,0,0,,,,,,,,,,,
136,3537680,1744865937301,0.0,135.0,,-0.02,-0.17,0.9,1.0,0.0,-1.0,0.91,1.26,73.0,5154.0,20.7,4.34,,13.37,1.191,70.0,,28.5,5.0,,,,,,,,,,,,0,0,0,0,0,0,0,0,0,0,0,0,0,0,0,0,,,,,0.0,,,,,,
137,3537700,1744865937321,,,,,,,,,,,,,,,,,,,,,,,,,,,,,,,,,,0,0,0,0,0,0,0,0,0,0,0,0,0,0,0,0,,,,,,,,,,,
138,3537720,1744865937341,0.0,135.0,,-0.02,-0.12,0.92,0.0,0.0,0.0,0.93,1.26,74.0,5295.0,20.9,4.34,,13.37,1.191,70.0,,28.5,5.0,,,,,,,,,,,,0,0,0,0,0,0,0,0,0,0,0,0,0,0,0,0,,,,,0.0,,,,,,
139,3537740,1744865937361,,,,,,,,,,,,,,,,,,,,,,,0.0,0.0,0.0,0.0,0.0,0.0,0.0,0.0,2.26,,,0,0,0,0,0,0,0,0,0,0,0,0,0,0,0,0,0.0,,,,,38.985737,-76.9506,0.08,35.0,3.0,0.8
140,3537760,1744865937381,0.0,135.0,,-0.03,-0.11,0.95,0.0,0.0,0.0,0.96,1.26,76.0,5295.0,20.9,4.34,,13.21,1.179,70.0,,28.9,5.0,,,,,,,,,,,,0,0,0,0,0,0,0,0,0,0,0,0,0,0,0,0,,,,,0.0,,,,,,
141,3537780,1744865937401,,,,,,,,,,,,,,,,,,,,,,,,,,,,,,,,,,0,0,0,0,0,0,0,0,0,0,0,0,0,0,0,0,,,,,,,,,,,
142,3537800,1744865937421,0.0,135.0,,-0.01,-0.17,0.87,1.0,0.0,-1.0,0.88,1.26,70.0,5456.0,22.1,4.36,,13.16,1.173,70.0,,28.9,5.0,,,,,,,,,,,,0,0,0,0,0,0,0,0,0,0,0,0,0,0,0,0,,,,,0.0,,,,,,
143,3537820,1744865937441,,,,,,,,,,,,,,,,,,,,,,,,,,,,,,,,,,0,0,0,0,0,0,0,0,0,0,0,0,0,0,0,0,,,,,,,,,,,
144,3537840,1744865937461,0.0,135.0,,-0.06,-0.15,0.89,-1.0,0.0,0.0,0.91,1.26,72.0,5641.0,24.6,4.49,,13.07,1.19,70.0,,28.9,5.0,0.0,0.0,0.0,0.0,0.0,0.0,0.0,0.0,2.26,,,0,0,0,0,0,0,0,0,0,0,0,0,0,0,0,0,0.0,,,,0.0,38.985737,-76.9506,0.11,35.0,3.0,0.8
145,3537860,1744865937481,,,,,,,,,,,,,,,,,,,,,,,,,,,,,,,,,,0,0,0,0,0,0,0,0,0,0,0,0,0,0,0,0,,,,,,,,,,,
146,3537880,1744865937501,0.0,135.0,,-0.09,-0.0,0.95,-3.0,0.0,1.0,0.95,1.26,76.0,6000.0,26.5,4.75,,13.07,1.207,70.0,,29.7,5.0,,,,,,,,,,,,0,0,0,0,0,0,0,0,0,0,0,0,0,0,0,0,,,,,0.0,,,,,,
147,3537900,1744865937521,,,,,,,,,,,,,,,,,,,,,,,,,,,,,,,,,,0,0,0,0,0,0,0,0,0,0,0,0,0,0,0,0,,,,,,,,,,,
148,3537920,1744865937541,0.0,135.0,,-0.09,-0.08,0.86,-3.0,0.0,1.0,0.87,1.26,69.0,6414.0,28.5,5.26,,13.07,1.207,70.0,,29.7,5.0,,,,,,,,,,,,0,0,0,0,0,0,0,0,0,0,0,0,0,0,0,0,,,,,0.0,,,,,,
149,3537940,1744865937561,,,,,,,,,,,,,,,,,,,,,,,0.0,0.0,0.0,0.0,0.0,0.0,0.0,0.0,2.26,,,0,0,0,0,0,0,0,0,0,0,0,0,0,0,0,0,0.0,,,,,38.985737,-76.9506,0.13,35.0,3.0,0.8
150,3537960,1744865937581,0.0,135.0,,-0.07,-0.13,0.89,-3.0,0.0,0.0,0.9,1.26,71.0,6414.0,28.5,5.26,,13.12,1.216,70.0,,30.9,5.0,,,,,,,,,,,,0,0,0,0,0,0,0,0,0,0,0,0,0,0,0,0,,,,,0.0,,,,,,
151,3537980,1744865937601,,,,,,,,,,,,,,,,,,,,,,,,,,,,,,,,,,0,0,0,0,0,0,0,0,0,0,0,0,0,0,0,0,,,,,,,,,,,
152,3538000,1744865937621,0.0,135.0,,-0.03,0.1,0.9,-4.0,0.0,1.0,0.91,1.26,72.0,6707.0,31.8,5.83,,13.2,1.224,70.0,,30.9,5.0,,,,,,,,,,,,0,0,0,0,0,0,0,0,0,0,0,0,0,0,0,0,,,,,0.0,,,,,,
153,3538020,1744865937641,,,,,,,,,,,,,,,,,,,,,,,,,,,,,,,,,,0,0,0,0,0,0,0,0,0,0,0,0,0,0,0,0,,,,,,,,,,,
154,3538040,1744865937661,0.0,135.0,,-0.07,0.14,0.91,-2.0,0.0,1.0,0.92,1.26,73.0,7666.0,35.9,6.13,,13.16,1.19,70.0,,30.9,5.0,0.0,0.0,0.0,0.0,0.0,0.0,0.0,0.0,2.26,,,0,0,0,0,0,0,0,0,0,0,0,0,0,0,0,0,0.0,,,,0.0,38.985737,-76.9506,0.11,35.0,3.0,0.8
155,3538060,1744865937681,,,,,,,,,,,,,,,,,,,,,,,,,,,,,,,,,,0,0,0,0,0,0,0,0,0,0,0,0,0,0,0,0,,,,,,,,,,,
156,3538080,1744865937700,0.0,135.0,,-0.06,-0.05,0.94,-3.0,0.0,1.0,0.94,1.26,75.0,8709.0,41.6,5.58,,12.97,0.943,70.0,,32.3,5.0,,,,,,,,,,,,0,0,0,0,0,0,0,0,0,0,0,0,0,0,0,0,,,,,0.0,,,,,,
157,3538100,1744865937720,,,,,,,,,,,,,,,,,,,,,,,,,,,,,,,,,,0,0,0,0,0,0,0,0,0,0,0,0,0,0,0,0,,,,,,,,,,,
158,3538120,1744865937740,0.0,135.0,,-0.02,0.07,0.96,-2.0,0.0,1.0,0.97,1.26,77.0,9623.0,44.9,5.2,,12.97,0.943,70.0,,32.3,5.0,,,,,,,,,,,,0,0,0,0,0,0,0,0,0,0,0,0,0,0,0,0,,,,,0.0,,,,,,
159,3538140,1744865937760,,,,,,,,,,,,,,,,,,,,,,,0.0,0.0,0.0,0.0,0.0,0.0,0.0,0.0,2.26,,,0,0,0,0,0,0,0,0,0,0,0,0,0,0,0,0,0.0,,,,,38.985737,-76.9506,0.13,35.0,3.0,0.8
160,3538160,1744865937780,0.0,135.0,,-0.0,-0.12,0.92,-1.0,0.0,0.0,0.93,1.26,74.0,9623.0,44.9,5.2,,12.93,0.879,70.0,,34.1,5.0,,,,,,,,,,,,0,0,0,0,0,0,0,0,0,0,0,0,0,0,0,0,,,,,0.0,,,,,,
161,3538180,1744865937802,,,,,,,,,,,,,,,,,,,,,,,,,,,,,,,,,,0,0,0,0,0,0,0,0,0,0,0,0,0,0,0,0,,,,,,,,,,,
162,3538200,1744865937822,0.0,135.0,,0.1,0.02,0.95,0.0,1.0,0.0,0.95,1.26,76.0,10699.0,46.3,4.58,,12.85,0.94,68.2,,34.1,5.0,,,,,,,,,,,,0,0,0,0,0,0,0,0,0,0,0,0,0,0,0,0,,,,,0.0,,,,,,
163,3538220,1744865937842,,,,,,,,,,,,,,,,,,,,,,,,,,,,,,,,,,0,0,0,0,0,0,0,0,0,0,0,0,0,0,0,0,,,,,,,,,,,
164,3538240,1744865937862,0.0,135.0,13.21,0.19,-0.07,0.86,-1.0,1.0,0.0,0.88,1.26,70.0,11185.0,47.1,4.11,15.0,12.84,0.903,68.2,165.0,34.1,5.0,0.0,0.0,0.0,0.0,0.0,0.0,0.0,0.0,2.25,0.0,0.0,0,0,0,0,0,0,0,0,0,0,0,0,0,0,0,0,0.0,0.0,0.0,0.0,0.0,38.985737,-76.9506,0.35,35.0,3.0,0.8
165,3538260,1744865937882,,,,,,,,,,,,,,,,,,,,,,,,,,,,,,,,,,0,0,0,0,0,0,0,0,0,0,0,0,0,0,0,0,,,,,,,,,,,
166,3538280,1744865937902,0.0,135.0,,0.25,-0.19,0.91,-1.0,1.0,1.0,0.96,1.26,77.0,10775.0,47.3,4.26,,12.8,0.941,68.2,,36.2,5.0,,,,,,,,,,,,0,0,0,0,0,0,0,0,0,0,0,0,0,0,0,0,,,,,0.0,,,,,,
167,3538300,1744865937922,,,,,,,,,,,,,,,,,,,,,,,,,,,,,,,,,,0,0,0,0,0,0,0,0,0,0,0,0,0,0,0,0,,,,,,,,,,,
168,3538320,1744865937942,0.0,135.0,,0.35,-0.27,0.94,-1.0,2.0,1.0,1.04,1.26,83.0,9570.0,47.4,5.23,,12.8,0.941,68.2,,36.2,5.0,,,,,,,,,,,,0,0,0,0,0,0,0,0,0,0,0,0,0,0,0,0,,,,,0.0,,,,,,
169,3538340,1744865937962,,,,,,,,,,,,,,,,,,,,,,,0.0,0.0,0.0,2.0,0.0,0.0,0.0,0.0,2.26,,,0,0,0,0,0,0,0,0,0,0,0,0,0,0,0,0,0.0,,,,,38.985737,-76.9506,1.93,35.0,3.0,0.8
170,3538360,1744865937982,0.0,135.0,,0.42,-0.13,0.89,-3.0,1.0,1.0,1.0,1.26,79.0,9570.0,47.4,5.23,,13.01,1.023,68.2,,35.8,5.0,,,,,,,,,,,,0,0,0,0,0,0,0,0,0,0,0,0,0,0,0,0,,,,,0.0,,,,,,
171,3538380,1744865937992,,,,,,,,,,,,,,,,,,,,,,,,,,,,,,,,,,0,0,0,0,0,0,0,0,0,0,0,0,0,0,0,0,,,,,,,,,,,
172,3538400,1744865938012,0.0,135.0,,0.46,-0.12,0.93,-3.0,1.0,1.0,1.04,1.26,83.0,9656.0,47.5,5.24,,13.13,1.053,68.2,,35.8,5.0,,,,,,,,,,,,0,0,0,0,0,0,0,0,0,0,0,0,0,0,0,0,,,,,0.0,,,,,,
173,3538420,1744865938032,,,,,,,,,,,,,,,,,,,,,,,,,,,,,,,,,,0,0,0,0,0,0,0,0,0,0,0,0,0,0,0,0,,,,,,,,,,,
174,3538440,1744865938052,0.0,135.0,,0.46,-0.05,0.91,-3.0,1.0,2.0,1.02,1.26,81.0,10101.0,48.3,5.29,,13.01,1.035,68.2,,35.8,5.0,4.0,0.0,27.0,28.0,0.0,0.0,0.0,0.0,2.26,,,0,0,0,0,0,0,0,0,0,0,0,0,0,0,0,0,1.0,,,,0.0,38.985737,-76.9506,4.83,35.0,3.0,0.8
175,3538460,1744865938072,,,,,,,,,,,,,,,,,,,,,,,,,,,,,,,,,,0,0,0,0,0,0,0,0,0,0,0,0,0,0,0,0,,,,,,,,,,,
176,3538480,1744865938096,0.0,135.0,,0.48,-0.24,0.93,-4.0,1.0,1.0,1.07,1.26,85.0,10460.0,48.2,4.77,,13.01,0.971,68.2,,36.6,5.0,,,,,,,,,,,,0,0,0,0,0,0,0,0,0,0,0,0,0,0,0,0,,,,,0.0,,,,,,
177,3538500,1744865938116,,,,,,,,,,,,,,,,,,,,,,,,,,,,,,,,,,0,0,0,0,0,0,0,0,0,0,0,0,0,0,0,0,,,,,,,,,,,
178,3538520,1744865938136,0.0,135.0,,0.48,-0.37,0.99,-5.0,1.0,1.0,1.16,1.26,92.0,10443.0,28.3,4.94,,13.01,0.971,68.2,,36.6,5.0,,,,,,,,,,,,0,0,0,0,0,0,0,0,0,0,0,0,0,0,0,0,,,,,0.0,,,,,,
179,3538540,1744865938156,,,,,,,,,,,,,,,,,,,,,,,5.0,0.0,30.0,28.0,0.0,0.0,0.0,0.0,2.26,,,0,0,0,0,0,0,0,0,0,0,0,0,0,0,0,0,1.0,,,,,38.985737,-76.9506,9.44,35.0,3.0,0.8
180,3538560,1744865938176,0.0,135.0,,0.52,-0.35,0.97,-6.0,1.0,1.0,1.16,1.26,92.0,10443.0,28.3,4.94,,12.04,0.953,68.2,,37.1,5.0,,,,,,,,,,,,0,0,0,0,0,0,0,0,0,0,0,0,0,0,0,0,,,,,0.0,,,,,,
181,3538580,1744865938200,,,,,,,,,,,,,,,,,,,,,,,,,,,,,,,,,,0,0,0,0,0,0,0,0,0,0,0,0,0,0,0,0,,,,,,,,,,,
182,3538600,1744865938220,0.0,135.0,,0.58,-0.15,0.96,-7.0,1.0,1.0,1.13,1.26,90.0,10363.0,10.3,3.1,,9.69,0.945,68.2,,37.1,5.0,,,,,,,,,,,,0,0,0,0,0,0,0,0,0,0,0,0,0,0,0,0,,,,,0.0,,,,,,
183,3538620,1744865938240,,,,,,,,,,,,,,,,,,,,,,,,,,,,,,,,,,0,0,0,0,0,0,0,0,0,0,0,0,0,0,0,0,,,,,,,,,,,
184,3538640,1744865938260,0.0,135.0,,0.59,-0.26,0.92,-9.0,1.0,1.0,1.12,1.26,89.0,10022.0,8.3,2.49,,8.55,0.838,68.2,,37.1,5.0,7.0,0.0,30.0,31.0,0.0,127.0,0.0,0.0,2.26,,,0,0,0,0,0,0,0,0,0,0,0,0,0,0,0,0,1.0,,,,0.0,38.985737,-76.950592,11.95,35.0,3.0,0.8
185,3538660,1744865938280,,,,,,,,,,,,,,,,,,,,,,,,,,,,,,,,,,0,0,0,0,0,0,0,0,0,0,0,0,0,0,0,0,,,,,,,,,,,
186,3538680,1744865938302,0.0,135.0,,0.63,-0.27,0.98,-10.0,1.0,0.0,1.2,1.26,96.0,9443.0,7.9,2.37,,7.78,0.822,68.2,,36.4,5.0,,,,,,,,,,,,0,0,0,0,0,0,0,0,0,0,0,0,0,0,0,0,,,,,0.0,,,,,,
187,3538700,1744865938322,,,,,,,,,,,,,,,,,,,,,,,,,,,,,,,,,,0,0,0,0,0,0,0,0,0,0,0,0,0,0,0,0,,,,,,,,,,,
188,3538720,1744865938342,0.0,135.0,,0.67,-0.25,0.99,-13.0,1.0,0.0,1.22,1.26,97.0,8736.0,3.4,2.17,,7.78,0.822,68.2,,36.4,5.0,,,,,,,,,,,,0,0,0,0,0,0,0,0,0,0,0,0,0,0,0,0,,,,,0.0,,,,,,
189,3538740,1744865938362,,,,,,,,,,,,,,,,,,,,,,,9.0,0.0,28.0,28.0,0.0,16.0,0.0,0.0,2.26,,,0,0,0,0,0,0,0,0,0,0,0,0,0,0,0,0,1.0,,,,,38.985741,-76.950584,15.53,35.0,3.0,0.8
190,3538760,1744865938382,0.0,135.0,,0.67,-0.15,0.95,-17.0,1.0,0.0,1.17,1.26,93.0,8736.0,3.4,2.17,,7.38,0.853,68.2,,35.6,5.0,,,,,,,,,,,,0,0,0,0,0,0,0,0,0,0,0,0,0,0,0,0,,,,,0.0,,,,,,
191,3538780,1744865938402,,,,,,,,,,,,,,,,,,,,,,,,,,,,,,,,,,0,0,0,0,0,0,0,0,0,0,0,0,0,0,0,0,,,,,,,,,,,
192,3538800,1744865938422,0.0,135.0,,0.68,-0.16,0.95,-21.0,1.0,1.0,1.18,1.26,94.0,7712.0,0.0,1.4,,6.86,0.865,68.2,,35.6,5.0,,,,,,,,,,,,0,0,0,0,0,0,0,0,0,0,0,0,0,0,0,0,,,,,0.0,,,,,,
193,3538820,1744865938442,,,,,,,,,,,,,,,,,,,,,,,,,,,,,,,,,,0,0,0,0,0,0,0,0,0,0,0,0,0,0,0,0,,,,,,,,,,,
194,3538840,1744865938462,0.0,135.0,,0.74,-0.18,0.98,-22.0,1.0,0.0,1.24,1.26,98.0,6351.0,0.0,1.4,,7.03,0.874,68.2,,35.6,5.0,10.0,0.0,23.0,22.0,0.0,133.0,0.0,0.0,2.26,,,0,0,0,0,0,0,0,0,0,0,0,0,0,0,0,0,0.0,,,,0.0,38.985741,-76.950584,18.25,35.0,3.0,0.8
195,3538860,1744865938482,,,,,,,,,,,,,,,,,,,,,,,,,,,,,,,,,,0,0,0,0,0,0,0,0,0,0,0,0,0,0,0,0,,,,,,,,,,,
196,3538880,1744865938502,0.0,135.0,,0.64,-0.18,0.99,-24.0,1.0,1.0,1.19,1.26,95.0,5211.0,0.0,1.4,,7.51,0.954,68.2,,34.2,5.0,,,,,,,,,,,,0,0,0,0,0,0,0,0,0,0,0,0,0,0,0,0,,,,,0.0,,,,,,
197,3538900,1744865938522,,,,,,,,,,,,,,,,,,,,,,,,,,,,,,,,,,0,0,0,0,0,0,0,0,0,0,0,0,0,0,0,0,,,,,,,,,,,
198,3538920,1744865938542,0.0,135.0,,0.55,-0.13,1.02,-24.0,0.0,0.0,1.16,1.26,92.0,4102.0,0.0,1.43,,7.51,0.954,68.2,,34.2,5.0,,,,,,,,,,,,0,0,0,0,0,0,0,0,0,0,0,0,0,0,0,0,,,,,0.0,,,,,,
199,3538940,1744865938562,,,,,,,,,,,,,,,,,,,,,,,12.0,0.0,17.0,15.0,0.0,62.0,0.0,0.0,2.26,,,0,0,0,0,0,0,0,0,0,0,0,0,0,0,0,0,0.0,,,,,38.985744,-76.950577,21.39,35.0,3.0,0.8
200,3538960,1744865938582,0.0,135.0,,0.45,-0.19,1.0,-25.0,0.0,0.0,1.11,1.26,88.0,3819.0,3.5,1.43,,8.17,1.017,68.2,,27.6,5.0,,,,,,,,,,,,0,0,0,0,0,0,0,0,0,0,0,0,0,0,0,0,,,,,0.0,,,,,,
201,3538980,1744865938602,,,,,,,,,,,,,,,,,,,,,,,,,,,,,,,,,,0,0,0,0,0,0,0,0,0,0,0,0,0,0,0,0,,,,,,,,,,,
202,3539000,1744865938622,0.0,135.0,,0.32,-0.21,1.0,-25.0,0.0,-1.0,1.07,1.26,85.0,3819.0,3.5,1.58,,8.94,1.057,68.2,,27.6,5.0,,,,,,,,,,,,0,0,0,0,0,0,0,0,0,0,0,0,0,0,0,0,,,,,0.0,,,,,,
203,3539020,1744865938642,,,,,,,,,,,,,,,,,,,,,,,,,,,,,,,,,,0,0,0,0,0,0,0,0,0,0,0,0,0,0,0,0,,,,,,,,,,,
204,3539040,1744865938662,0.0,135.0,,0.2,-0.2,1.04,-24.0,0.0,-1.0,1.08,1.26,86.0,3745.0,16.8,2.98,,10.94,1.075,68.2,,27.6,5.0,14.0,0.0,13.0,15.0,0.0,55.0,0.0,0.0,2.26,,,0,0,0,0,0,0,0,0,0,0,0,0,0,0,0,0,2.0,,,,0.0,38.985744,-76.950577,23.74,35.0,3.0,0.8
205,3539060,1744865938682,,,,,,,,,,,,,,,,,,,,,,,,,,,,,,,,,,0,0,0,0,0,0,0,0,0,0,0,0,0,0,0,0,,,,,,,,,,,
206,3539080,1744865938702,0.0,135.0,,0.12,-0.11,1.09,-25.0,0.0,0.0,1.11,1.26,88.0,4416.0,20.4,4.24,,12.47,1.119,68.2,,26.0,5.0,,,,,,,,,,,,0,0,0,0,0,0,0,0,0,0,0,0,0,0,0,0,,,,,0.0,,,,,,
207,3539100,1744865938722,,,,,,,,,,,,,,,,,,,,,,,,,,,,,,,,,,0,0,0,0,0,0,0,0,0,0,0,0,0,0,0,0,,,,,,,,,,,
208,3539120,1744865938742,0.0,135.0,,0.07,0.04,1.1,-27.0,1.0,1.0,1.11,1.26,88.0,4755.0,21.4,4.34,,12.47,1.119,68.2,,26.0,5.0,,,,,,,,,,,,0,0,0,0,0,0,0,0,0,0,0,0,0,0,0,0,,,,,0.0,,,,,,
209,3539140,1744865938762,,,,,,,,,,,,,,,,,,,,,,,13.0,0.0,13.0,14.0,0.0,178.0,0.0,0.0,2.25,,,0,0,0,0,0,0,0,0,0,0,0,0,0,0,0,0,2.0,,,,,38.985748,-76.950569,21.81,35.0,3.0,0.8
210,3539160,1744865938782,0.0,135.0,,0.05,-0.08,1.04,-27.0,1.0,0.0,1.04,1.26,83.0,4755.0,21.4,4.34,,13.09,1.151,68.2,,31.2,5.0,,,,,,,,,,,,0,0,0,0,0,0,0,0,0,0,0,0,0,0,0,0,,,,,0.0,,,,,,
211,3539180,1744865938801,,,,,,,,,,,,,,,,,,,,,,,,,,,,,,,,,,0,0,0,0,0,0,0,0,0,0,0,0,0,0,0,0,,,,,,,,,,,
212,3539200,1744865938821,0.0,135.0,,0.02,-0.11,1.07,-26.0,1.0,0.0,1.07,1.26,85.0,4887.0,33.8,5.16,,13.87,1.165,68.2,,31.2,5.0,,,,,,,,,,,,0,0,0,0,0,0,0,0,0,0,0,0,0,0,0,0,,,,,0.0,,,,,,
213,3539220,1744865938841,,,,,,,,,,,,,,,,,,,,,,,,,,,,,,,,,,0,0,0,0,0,0,0,0,0,0,0,0,0,0,0,0,,,,,,,,,,,
214,3539240,1744865938861,0.0,135.0,13.4,0.11,-0.15,1.09,-26.0,1.0,0.0,1.1,1.26,88.0,5118.0,36.0,5.18,15.0,14.0,1.17,68.2,165.0,31.5,5.0,12.0,0.0,12.0,14.0,0.0,93.0,0.0,0.0,2.26,0.0,0.0,0,0,0,0,0,0,0,0,0,0,0,0,0,0,0,0,0.0,0.0,0.0,0.0,0.0,38.985748,-76.950554,19.66,35.0,3.0,0.8
215,3539260,1744865938881,,,,,,,,,,,,,,,,,,,,,,,,,,,,,,,,,,0,0,0,0,0,0,0,0,0,0,0,0,0,0,0,0,,,,,,,,,,,
216,3539280,1744865938901,0.0,135.0,,0.1,-0.16,1.03,-26.0,1.0,0.0,1.04,1.26,83.0,4895.0,36.1,5.02,,14.06,1.187,68.2,,31.5,5.0,,,,,,,,,,,,0,0,0,0,0,0,0,0,0,0,0,0,0,0,0,0,,,,,0.0,,,,,,
217,3539300,1744865938921,,,,,,,,,,,,,,,,,,,,,,,,,,,,,,,,,,0,0,0,0,0,0,0,0,0,0,0,0,0,0,0,0,,,,,,,,,,,
218,3539320,1744865938941,0.0,135.0,,0.05,-0.14,1.04,-26.0,1.0,1.0,1.05,1.26,83.0,4339.0,29.1,4.8,,14.06,1.187,68.2,,31.5,5.0,,,,,,,,,,,,0,0,0,0,0,0,0,0,0,0,0,0,0,0,0,0,,,,,0.0,,,,,,
219,3539340,1744865938961,,,,,,,,,,,,,,,,,,,,,,,13.0,0.0,15.0,14.0,0.0,130.0,0.0,0.0,2.26,,,0,0,0,0,0,0,0,0,0,0,0,0,0,0,0,0,0.0,,,,,38.985748,-76.950554,20.36,35.0,3.0,0.8
220,3539360,1744865938981,0.0,135.0,,0.05,-0.12,1.14,-28.0,0.0,1.0,1.15,1.26,91.0,4378.0,29.8,4.8,,14.02,1.183,68.2,,28.3,5.0,,,,,,,,,,,,0,0,0,0,0,0,0,0,0,0,0,0,0,0,0,0,,,,,0.0,,,,,,
221,3539380,1744865938993,,,,,,,,,,,,,,,,,,,,,,,,,,,,,,,,,,0,0,0,0,0,0,0,0,0,0,0,0,0,0,0,0,,,,,,,,,,,
222,3539400,1744865939013,0.0,135.0,,0.04,0.0,1.22,-29.0,1.0,2.0,1.22,1.26,97.0,4378.0,29.8,4.87,,13.95,1.093,68.2,,28.3,5.0,,,,,,,,,,,,0,0,0,0,0,0,0,0,0,0,0,0,0,0,0,0,,,,,0.0,,,,,,
223,3539420,1744865939033,,,,,,,,,,,,,,,,,,,,,,,,,,,,,,,,,,0,0,0,0,0,0,0,0,0,0,0,0,0,0,0,0,,,,,,,,,,,
224,3539440,1744865939053,0.0,135.0,,0.01,-0.07,1.18,-30.0,1.0,2.0,1.19,1.26,94.0,4652.0,29.7,5.0,,13.92,1.072,68.2,,29.7,5.0,14.0,0.0,13.0,15.0,0.0,111.0,0.0,0.0,2.26,,,0,0,0,0,0,0,0,0,0,0,0,0,0,0,0,0,0.0,,,,0.0,38.985748,-76.950539,22.86,35.0,3.0,0.8
225,3539460,1744865939073,,,,,,,,,,,,,,,,,,,,,,,,,,,,,,,,,,0,0,0,0,0,0,0,0,0,0,0,0,0,0,0,0,,,,,,,,,,,
226,3539480,1744865939099,0.0,135.0,,-0.0,-0.11,1.16,-30.0,1.0,2.0,1.16,1.26,93.0,4868.0,29.5,5.08,,13.86,1.092,68.2,,29.7,5.0,,,,,,,,,,,,0,0,0,0,0,0,0,0,0,0,0,0,0,0,0,0,,,,,0.0,,,,,,
227,3539500,1744865939119,,,,,,,,,,,,,,,,,,,,,,,,,,,,,,,,,,0,0,0,0,0,0,0,0,0,0,0,0,0,0,0,0,,,,,,,,,,,
228,3539520,1744865939139,0.0,135.0,,0.03,-0.16,1.12,-30.0,2.0,2.0,1.13,1.26,90.0,5026.0,29.4,5.11,,13.79,1.104,68.2,,29.7,5.0,,,,,,,,,,,,0,0,0,0,0,0,0,0,0,0,0,0,0,0,0,0,,,,,0.0,,,,,,
229,3539540,1744865939159,,,,,,,,,,,,,,,,,,,,,,,13.0,0.0,13.0,16.0,0.0,53.0,0.0,0.0,2.26,,,0,0,0,0,0,0,0,0,0,0,0,0,0,0,0,0,0.0,,,,,38.985748,-76.950539,22.07,35.0,3.0,0.8
230,3539560,1744865939179,0.0,135.0,,0.01,-0.19,1.09,-30.0,2.0,2.0,1.11,1.26,88.0,4843.0,29.5,5.1,,13.79,1.104,68.2,,30.2,5.0,,,,,,,,,,,,0,0,0,0,0,0,0,0,0,0,0,0,0,0,0,0,,,,,0.0,,,,,,
231,3539580,1744865939201,,,,,,,,,,,,,,,,,,,,,,,,,,,,,,,,,,0,0,0,0,0,0,0,0,0,0,0,0,0,0,0,0,,,,,,,,,,,
232,3539600,1744865939221,0.0,135.0,,0.01,-0.26,1.04,-30.0,2.0,1.0,1.07,1.26,85.0,4843.0,29.5,5.1,,13.94,1.095,68.2,,30.2,5.0,,,,,,,,,,,,0,0,0,0,0,0,0,0,0,0,0,0,0,0,0,0,,,,,0.0,,,,,,
233,3539620,1744865939241,,,,,,,,,,,,,,,,,,,,,,,,,,,,,,,,,,0,0,0,0,0,0,0,0,0,0,0,0,0,0,0,0,,,,,,,,,,,
234,3539640,1744865939261,0.0,135.0,,0.0,-0.16,1.1,-31.0,1.0,1.0,1.11,1.26,88.0,4703.0,28.9,4.98,,13.91,1.07,68.2,,29.5,5.0,13.0,0.0,14.0,15.0,0.0,114.0,0.0,0.0,2.26,,,0,0,0,0,0,0,0,0,0,0,0,0,0,0,0,0,0.0,,,,0.0,38.985748,-76.950531,22.32,35.0,3.0,0.8
235,3539660,1744865939281,,,,,,,,,,,,,,,,,,,,,,,,,,,,,,,,,,0,0,0,0,0,0,0,0,0,0,0,0,0,0,0,0,,,,,,,,,,,
236,3539680,1744865939301,0.0,135.0,,-0.01,-0.19,1.04,-31.0,1.0,1.0,1.06,1.26,84.0,4855.0,29.2,5.04,,13.91,1.051,68.2,,29.5,5.0,,,,,,,,,,,,0,0,0,0,0,0,0,0,0,0,0,0,0,0,0,0,,,,,0.0,,,,,,
237,3539700,1744865939321,,,,,,,,,,,,,,,,,,,,,,,,,,,,,,,,,,0,0,0,0,0,0,0,0,0,0,0,0,0,0,0,0,,,,,,,,,,,
238,3539720,1744865939341,0.0,135.0,,-0.01,-0.24,1.02,-31.0,2.0,1.0,1.04,1.26,83.0,5125.0,29.3,5.1,,13.86,1.055,68.2,,29.5,5.0,,,,,,,,,,,,0,0,0,0,0,0,0,0,0,0,0,0,0,0,0,0,,,,,0.0,,,,,,
239,3539740,1744865939361,,,,,,,,,,,,,,,,,,,,,,,15.0,0.0,14.0,15.0,0.0,164.0,0.0,0.0,2.26,,,0,0,0,0,0,0,0,0,0,0,0,0,0,0,0,0,0.0,,,,,38.985748,-76.950523,23.61,35.0,3.0,0.8
240,3539760,1744865939381,0.0,135.0,,0.01,-0.28,1.03,-32.0,2.0,1.0,1.06,1.26,85.0,5108.0,29.4,5.1,,13.86,1.055,68.2,,30.3,5.0,,,,,,,,,,,,0,0,0,0,0,0,0,0,0,0,0,0,0,0,0,0,,,,,0.0,,,,,,
241,3539780,1744865939401,,,,,,,,,,,,,,,,,,,,,,,,,,,,,,,,,,0,0,0,0,0,0,0,0,0,0,0,0,0,0,0,0,,,,,,,,,,,
242,3539800,1744865939421,0.0,135.0,,0.03,-0.32,1.03,-32.0,1.0,1.0,1.08,1.26,86.0,5108.0,29.4,5.1,,13.76,1.038,68.2,,30.3,5.0,,,,,,,,,,,,0,0,0,0,0,0,0,0,0,0,0,0,0,0,0,0,,,,,0.0,,,,,,
243,3539820,1744865939441,,,,,,,,,,,,,,,,,,,,,,,,,,,,,,,,,,0,0,0,0,0,0,0,0,0,0,0,0,0,0,0,0,,,,,,,,,,,
244,3539840,1744865939461,0.0,135.0,,-0.0,-0.32,0.99,-33.0,1.0,1.0,1.04,1.26,82.0,5005.0,26.3,4.84,,13.77,1.036,68.2,,30.3,5.0,14.0,0.0,15.0,16.0,0.0,100.0,0.0,0.0,2.26,,,0,0,0,0,0,0,0,0,0,0,0,0,0,0,0,0,0.0,,,,0.0,38.985748,-76.950516,23.13,35.0,3.0,0.8
245,3539860,1744865939481,,,,,,,,,,,,,,,,,,,,,,,,,,,,,,,,,,0,0,0,0,0,0,0,0,0,0,0,0,0,0,0,0,,,,,,,,,,,
246,3539880,1744865939501,0.0,135.0,,-0.01,-0.35,1.01,-33.0,2.0,1.0,1.07,1.26,85.0,5077.0,25.8,4.72,,13.67,1.052,68.2,,30.5,5.0,,,,,,,,,,,,0,0,0,0,0,0,0,0,0,0,0,0,0,0,0,0,,,,,0.0,,,,,,
247,3539900,1744865939521,,,,,,,,,,,,,,,,,,,,,,,,,,,,,,,,,,0,0,0,0,0,0,0,0,0,0,0,0,0,0,0,0,,,,,,,,,,,
248,3539920,1744865939541,0.0,135.0,,-0.02,-0.39,1.04,-33.0,2.0,1.0,1.11,1.26,88.0,5214.0,25.9,4.74,,13.52,1.048,68.2,,30.5,5.0,,,,,,,,,,,,0,0,0,0,0,0,0,0,0,0,0,0,0,0,0,0,,,,,0.0,,,,,,
249,3539940,1744865939561,,,,,,,,,,,,,,,,,,,,,,,14.0,0.0,15.0,16.0,0.0,105.0,0.0,0.0,2.26,,,0,0,0,0,0,0,0,0,0,0,0,0,0,0,0,0,0.0,,,,,38.985748,-76.950508,24.27,35.0,3.0,0.8
250,3539960,1744865939581,0.0,135.0,,-0.02,-0.38,1.0,-33.0,2.0,2.0,1.07,1.26,85.0,5226.0,25.2,4.69,,13.52,1.048,68.2,,30.6,5.0,,,,,,,,,,,,0,0,0,0,0,0,0,0,0,0,0,0,0,0,0,0,,,,,0.0,,,,,,
251,3539980,1744865939601,,,,,,,,,,,,,,,,,,,,,,,,,,,,,,,,,,0,0,0,0,0,0,0,0,0,0,0,0,0,0,0,0,,,,,,,,,,,
252,3540000,1744865939621,0.0,135.0,,-0.0,-0.35,1.0,-33.0,2.0,2.0,1.06,1.26,84.0,5226.0,25.2,4.69,,13.41,1.054,68.2,,30.6,5.0,,,,,,,,,,,,0,0,0,0,0,0,0,0,0,0,0,0,0,0,0,0,,,,,0.0,,,,,,
253,3540020,1744865939641,,,,,,,,,,,,,,,,,,,,,,,,,,,,,,,,,,0,0,0,0,0,0,0,0,0,0,0,0,0,0,0,0,,,,,,,,,,,
254,3540040,1744865939661,0.0,135.0,,-0.0,-0.31,1.03,-33.0,2.0,2.0,1.08,1.26,86.0,5164.0,18.8,4.32,,13.15,1.07,68.2,,31.1,5.0,14.0,0.0,15.0,17.0,0.0,95.0,0.0,0.0,2.25,,,0,0,0,0,0,0,0,0,0,0,0,0,0,0,0,0,0.0,,,,0.0,38.985744,-76.9505,23.97,35.0,3.0,0.8
255,3540060,1744865939681,,,,,,,,,,,,,,,,,,,,,,,,,,,,,,,,,,0,0,0,0,0,0,0,0,0,0,0,0,0,0,0,0,,,,,,,,,,,
256,3540080,1744865939700,0.0,135.0,,-0.0,-0.34,1.03,-33.0,1.0,2.0,1.08,1.26,86.0,5112.0,17.9,4.28,,13.03,1.091,68.2,,31.1,5.0,,,,,,,,,,,,0,0,0,0,0,0,0,0,0,0,0,0,0,0,0,0,,,,,0.0,,,,,,
257,3540100,1744865939720,,,,,,,,,,,,,,,,,,,,,,,,,,,,,,,,,,0,0,0,0,0,0,0,0,0,0,0,0,0,0,0,0,,,,,,,,,,,
258,3540120,1744865939740,0.0,135.0,,-0.01,-0.37,1.0,-33.0,1.0,2.0,1.07,1.26,85.0,5145.0,17.7,4.27,,13.03,1.091,68.2,,31.1,5.0,,,,,,,,,,,,0,0,0,0,0,0,0,0,0,0,0,0,0,0,0,0,,,,,0.0,,,,,,
259,3540140,1744865939760,,,,,,,,,,,,,,,,,,,,,,,15.0,0.0,15.0,17.0,0.0,105.0,0.0,0.0,2.26,,,0,0,0,0,0,0,0,0,0,0,0,0,0,0,0,0,0.0,,,,,38.985741,-76.950493,24.62,35.0,3.0,0.8
260,3540160,1744865939780,0.0,135.0,,-0.03,-0.36,0.99,-33.0,1.0,2.0,1.05,1.26,84.0,5163.0,17.3,4.26,,12.99,1.091,68.2,,31.1,5.0,,,,,,,,,,,,0,0,0,0,0,0,0,0,0,0,0,0,0,0,0,0,,,,,0.0,,,,,,
261,3540180,1744865939800,,,,,,,,,,,,,,,,,,,,,,,,,,,,,,,,,,0,0,0,0,0,0,0,0,0,0,0,0,0,0,0,0,,,,,,,,,,,
262,3540200,1744865939820,0.0,135.0,,-0.05,-0.36,1.0,-31.0,1.0,2.0,1.06,1.06,100.0,5163.0,17.3,4.26,,13.04,1.075,68.2,,31.1,5.0,,,,,,,,,,,,0,0,0,0,0,0,0,0,0,0,0,0,0,0,0,0,,,,,0.0,,,,,,
263,3540220,1744865939840,,,,,,,,,,,,,,,,,,,,,,,,,,,,,,,,,,0,0,0,0,0,0,0,0,0,0,0,0,0,0,0,0,,,,,,,,,,,
264,3540240,1744865939860,0.0,135.0,13.37,-0.05,-0.35,0.99,-30.0,1.0,2.0,1.06,1.06,100.0,5266.0,17.3,4.26,15.0,12.91,1.088,68.2,167.0,31.5,5.0,16.0,0.0,15.0,17.0,0.0,89.0,0.0,0.0,2.25,0.0,0.0,0,0,0,0,0,0,0,0,0,0,0,0,0,0,0,0,0.0,0.0,0.0,0.0,0.0,38.985741,-76.950485,25.33,35.0,3.0,0.8
265,3540260,1744865939880,,,,,,,,,,,,,,,,,,,,,,,,,,,,,,,,,,0,0,0,0,0,0,0,0,0,0,0,0,0,0,0,0,,,,,,,,,,,
266,3540280,1744865939900,0.0,135.0,,-0.03,-0.27,1.02,-30.0,1.0,2.0,1.06,1.06,100.0,5347.0,17.4,4.27,,12.83,1.071,68.2,,31.5,5.0,,,,,,,,,,,,0,0,0,0,0,0,0,0,0,0,0,0,0,0,0,0,,,,,0.0,,,,,,
267,3540300,1744865939920,,,,,,,,,,,,,,,,,,,,,,,,,,,,,,,,,,0,0,0,0,0,0,0,0,0,0,0,0,0,0,0,0,,,,,,,,,,,
268,3540320,1744865939940,0.0,135.0,,-0.03,-0.39,0.91,-28.0,1.0,2.0,0.99,1.06,93.0,5419.0,17.4,4.28,,12.83,1.071,68.2,,31.5,5.0,,,,,,,,,,,,0,0,0,0,0,0,0,0,0,0,0,0,0,0,0,0,,,,,0.0,,,,,,
269,3540340,1744865939960,,,,,,,,,,,,,,,,,,,,,,,16.0,0.0,15.0,16.0,0.0,8.0,0.0,0.0,2.26,,,0,0,0,0,0,0,0,0,0,0,0,0,0,0,0,0,0.0,,,,,38.985737,-76.950478,24.46,35.0,3.0,0.8
270,3540360,1744865939980,0.0,135.0,,-0.0,-0.37,0.9,-26.0,1.0,1.0,0.98,1.06,92.0,5353.0,17.3,4.27,,12.6,1.082,68.2,,31.4,5.0,,,,,,,,,,,,0,0,0,0,0,0,0,0,0,0,0,0,0,0,0,0,,,,,0.0,,,,,,
271,3540380,1744865939992,,,,,,,,,,,,,,,,,,,,,,,,,,,,,,,,,,0,0,0,0,0,0,0,0,0,0,0,0,0,0,0,0,,,,,,,,,,,
272,3540400,1744865940012,0.0,135.0,,-0.02,-0.34,0.91,-24.0,1.0,1.0,0.98,1.06,92.0,5353.0,17.3,4.27,,12.73,1.099,68.2,,31.4,5.0,,,,,,,,,,,,0,0,0,0,0,0,0,0,0,0,0,0,0,0,0,0,,,,,0.0,,,,,,
273,3540420,1744865940032,,,,,,,,,,,,,,,,,,,,,,,,,,,,,,,,,,0,0,0,0,0,0,0,0,0,0,0,0,0,0,0,0,,,,,,,,,,,
274,3540440,1744865940052,0.0,135.0,,-0.02,-0.27,0.94,-22.0,1.0,1.0,0.97,1.06,92.0,5290.0,9.1,3.98,,12.25,1.103,68.2,,31.0,5.0,16.0,0.0,16.0,16.0,0.0,95.0,0.0,0.0,2.26,,,0,0,0,0,0,0,0,0,0,0,0,0,0,0,0,0,1.0,,,,0.0,38.985733,-76.95047,24.86,34.0,3.0,0.8
275,3540460,1744865940072,,,,,,,,,,,,,,,,,,,,,,,,,,,,,,,,,,0,0,0,0,0,0,0,0,0,0,0,0,0,0,0,0,,,,,,,,,,,
276,3540480,1744865940102,0.0,135.0,,-0.01,-0.22,0.92,-19.0,1.0,0.0,0.95,1.06,90.0,5201.0,3.9,3.48,,11.83,1.09,68.2,,31.0,5.0,,,,,,,,,,,,0,0,0,0,0,0,0,0,0,0,0,0,0,0,0,0,,,,,0.0,,,,,,
277,3540500,1744865940122,,,,,,,,,,,,,,,,,,,,,,,,,,,,,,,,,,0,0,0,0,0,0,0,0,0,0,0,0,0,0,0,0,,,,,,,,,,,
278,3540520,1744865940142,0.0,135.0,,-0.0,-0.15,0.96,-16.0,1.0,0.0,0.97,1.06,92.0,5113.0,3.3,3.28,,11.83,1.09,68.2,,31.0,5.0,,,,,,,,,,,,0,0,0,0,0,0,0,0,0,0,0,0,0,0,0,0,,,,,0.0,,,,,,
279,3540540,1744865940162,,,,,,,,,,,,,,,,,,,,,,,16.0,0.0,16.0,15.0,0.0,30.0,0.0,0.0,2.26,,,0,0,0,0,0,0,0,0,0,0,0,0,0,0,0,0,1.0,,,,,38.985733,-76.950462,25.39,34.0,3.0,0.8
280,3540560,1744865940182,0.0,135.0,,0.02,-0.04,0.94,-13.0,1.0,0.0,0.94,1.06,89.0,5009.0,3.0,3.29,,11.45,1.057,68.2,,30.1,5.0,,,,,,,,,,,,0,0,0,0,0,0,0,0,0,0,0,0,0,0,0,0,,,,,0.0,,,,,,
281,3540580,1744865940200,,,,,,,,,,,,,,,,,,,,,,,,,,,,,,,,,,0,0,0,0,0,0,0,0,0,0,0,0,0,0,0,0,,,,,,,,,,,
282,3540600,1744865940220,0.0,135.0,,-0.03,0.04,0.97,-9.0,0.0,0.0,0.97,1.06,92.0,5009.0,3.0,3.29,,11.22,1.027,68.2,,30.1,5.0,,,,,,,,,,,,0,0,0,0,0,0,0,0,0,0,0,0,0,0,0,0,,,,,0.0,,,,,,
283,3540620,1744865940240,,,,,,,,,,,,,,,,,,,,,,,,,,,,,,,,,,0,0,0,0,0,0,0,0,0,0,0,0,0,0,0,0,,,,,,,,,,,
284,3540640,1744865940260,0.0,135.0,,-0.0,-0.01,0.94,-5.0,0.0,-1.0,0.94,1.06,89.0,4869.0,2.9,3.25,,11.16,1.0,68.2,,30.1,5.0,16.0,0.0,16.0,16.0,0.0,248.0,0.0,0.0,2.26,,,0,0,0,0,0,0,0,0,0,0,0,0,0,0,0,0,0.0,,,,0.0,38.985729,-76.950455,25.49,34.0,3.0,0.8
285,3540660,1744865940280,,,,,,,,,,,,,,,,,,,,,,,,,,,,,,,,,,0,0,0,0,0,0,0,0,0,0,0,0,0,0,0,0,,,,,,,,,,,
286,3540680,1744865940300,0.0,135.0,,-0.09,0.13,0.98,0.0,0.0,-1.0,1.0,1.06,94.0,4781.0,2.9,3.22,,11.17,1.016,68.2,,29.5,5.0,,,,,,,,,,,,0,0,0,0,0,0,0,0,0,0,0,0,0,0,0,0,,,,,0.0,,,,,,
287,3540700,1744865940320,,,,,,,,,,,,,,,,,,,,,,,,,,,,,,,,,,0,0,0,0,0,0,0,0,0,0,0,0,0,0,0,0,,,,,,,,,,,
288,3540720,1744865940340,0.0,135.0,,-0.07,0.13,1.01,4.0,-1.0,-1.0,1.03,1.06,97.0,5003.0,4.0,3.35,,11.14,1.001,68.2,,29.5,5.0,,,,,,,,,,,,0,0,0,0,0,0,0,0,0,0,0,0,0,0,0,0,,,,,0.0,,,,,,
289,3540740,1744865940360,,,,,,,,,,,,,,,,,,,,,,,17.0,0.0,16.0,15.0,0.0,248.0,0.0,0.0,2.26,,,0,0,0,0,0,0,0,0,0,0,0,0,0,0,0,0,0.0,,,,,38.985725,-76.950455,25.44,34.0,3.0,0.8
290,3540760,1744865940380,0.0,135.0,,-0.08,0.2,0.99,7.0,-1.0,-1.0,1.01,1.06,95.0,5003.0,4.0,3.35,,11.14,1.001,68.2,,30.0,5.0,,,,,,,,,,,,0,0,0,0,0,0,0,0,0,0,0,0,0,0,0,0,,,,,0.0,,,,,,
291,3540780,1744865940402,,,,,,,,,,,,,,,,,,,,,,,,,,,,,,,,,,0,0,0,0,0,0,0,0,0,0,0,0,0,0,0,0,,,,,,,,,,,
292,3540800,1744865940422,0.0,135.0,,-0.09,0.28,0.96,11.0,-1.0,-1.0,1.0,1.06,94.0,5158.0,5.7,3.46,,11.14,0.993,68.2,,30.0,5.0,,,,,,,,,,,,0,0,0,0,0,0,0,0,0,0,0,0,0,0,0,0,,,,,0.0,,,,,,
293,3540820,1744865940442,,,,,,,,,,,,,,,,,,,,,,,,,,,,,,,,,,0,0,0,0,0,0,0,0,0,0,0,0,0,0,0,0,,,,,,,,,,,
294,3540840,1744865940462,0.0,135.0,,-0.09,0.32,0.97,14.0,-1.0,-1.0,1.03,1.06,97.0,5109.0,6.1,3.45,,11.29,0.984,68.2,,29.7,5.0,16.0,0.0,16.0,15.0,0.0,4.0,0.0,0.0,2.25,,,0,0,0,0,0,0,0,0,0,0,0,0,0,0,0,0,0.0,,,,0.0,38.985725,-76.950439,24.79,34.0,3.0,0.8
295,3540860,1744865940482,,,,,,,,,,,,,,,,,,,,,,,,,,,,,,,,,,0,0,0,0,0,0,0,0,0,0,0,0,0,0,0,0,,,,,,,,,,,
296,3540880,1744865940500,0.0,135.0,,-0.07,0.32,1.03,17.0,-1.0,-1.0,1.08,1.08,100.0,5002.0,6.1,3.43,,11.32,0.995,68.2,,29.7,5.0,,,,,,,,,,,,0,0,0,0,0,0,0,0,0,0,0,0,0,0,0,0,,,,,0.0,,,,,,
297,3540900,1744865940520,,,,,,,,,,,,,,,,,,,,,,,,,,,,,,,,,,0,0,0,0,0,0,0,0,0,0,0,0,0,0,0,0,,,,,,,,,,,
298,3540920,1744865940540,0.0,135.0,,-0.08,0.34,0.96,20.0,-1.0,-1.0,1.02,1.08,94.0,4901.0,6.4,3.46,,11.45,1.003,68.2,,29.7,5.0,,,,,,,,,,,,0,0,0,0,0,0,0,0,0,0,0,0,0,0,0,0,,,,,0.0,,,,,,
299,3540940,1744865940560,,,,,,,,,,,,,,,,,,,,,,,16.0,0.0,16.0,14.0,0.0,252.0,0.0,0.0,2.25,,,0,0,0,0,0,0,0,0,0,0,0,0,0,0,0,0,0.0,,,,,38.985722,-76.950432,23.94,34.0,3.0,0.8
300,3540960,1744865940580,0.0,135.0,,-0.06,0.35,1.0,24.0,-1.0,-1.0,1.06,1.08,98.0,4814.0,7.5,3.49,,11.45,1.003,68.2,,28.7,5.0,,,,,,,,,,,,0,0,0,0,0,0,0,0,0,0,0,0,0,0,0,0,,,,,0.0,,,,,,
301,3540980,1744865940600,,,,,,,,,,,,,,,,,,,,,,,,,,,,,,,,,,0,0,0,0,0,0,0,0,0,0,0,0,0,0,0,0,,,,,,,,,,,
302,3541000,1744865940620,0.0,135.0,,-0.1,0.47,1.05,26.0,-1.0,-1.0,1.16,1.16,100.0,4814.0,7.5,3.49,,11.57,1.005,68.2,,28.7,5.0,,,,,,,,,,,,0,0,0,0,0,0,0,0,0,0,0,0,0,0,0,0,,,,,0.0,,,,,,
303,3541020,1744865940640,,,,,,,,,,,,,,,,,,,,,,,,,,,,,,,,,,0,0,0,0,0,0,0,0,0,0,0,0,0,0,0,0,,,,,,,,,,,
304,3541040,1744865940660,0.0,135.0,,-0.1,0.41,0.97,27.0,-2.0,-1.0,1.06,1.16,92.0,4703.0,10.0,3.65,,11.91,1.006,68.2,,28.6,5.0,16.0,0.0,16.0,13.0,0.0,0.0,0.0,0.0,2.25,,,0,0,0,0,0,0,0,0,0,0,0,0,0,0,0,0,0.0,,,,0.0,38.985722,-76.950424,23.83,34.0,3.0,0.8
305,3541060,1744865940680,,,,,,,,,,,,,,,,,,,,,,,,,,,,,,,,,,0,0,0,0,0,0,0,0,0,0,0,0,0,0,0,0,,,,,,,,,,,
306,3541080,1744865940699,0.0,135.0,,-0.08,0.35,0.99,30.0,-2.0,-1.0,1.05,1.16,91.0,4767.0,14.1,3.95,,12.4,0.999,68.2,,28.6,5.0,,,,,,,,,,,,0,0,0,0,0,0,0,0,0,0,0,0,0,0,0,0,,,,,0.0,,,,,,
307,3541100,1744865940719,,,,,,,,,,,,,,,,,,,,,,,,,,,,,,,,,,0,0,0,0,0,0,0,0,0,0,0,0,0,0,0,0,,,,,,,,,,,
308,3541120,1744865940739,0.0,135.0,,-0.11,0.44,1.05,32.0,-2.0,-1.0,1.14,1.16,99.0,4804.0,18.1,4.23,,12.87,1.011,68.2,,28.6,5.0,,,,,,,,,,,,0,0,0,0,0,0,0,0,0,0,0,0,0,0,0,0,,,,,0.0,,,,,,
309,3541140,1744865940759,,,,,,,,,,,,,,,,,,,,,,,16.0,0.0,15.0,13.0,0.0,202.0,0.0,0.0,2.26,,,0,0,0,0,0,0,0,0,0,0,0,0,0,0,0,0,0.0,,,,,38.985718,-76.950417,23.48,34.0,3.0,0.8
310,3541160,1744865940779,0.0,135.0,,-0.1,0.33,0.98,33.0,-3.0,-1.0,1.04,1.16,90.0,4834.0,18.4,4.28,,12.87,1.011,68.2,,28.1,5.0,,,,,,,,,,,,0,0,0,0,0,0,0,0,0,0,0,0,0,0,0,0,,,,,0.0,,,,,,
311,3541180,1744865940799,,,,,,,,,,,,,,,,,,,,,,,,,,,,,,,,,,0,0,0,0,0,0,0,0,0,0,0,0,0,0,0,0,,,,,,,,,,,
312,3541200,1744865940819,0.0,135.0,,-0.11,0.43,1.04,35.0,-3.0,-1.0,1.13,1.16,98.0,4834.0,18.4,4.28,,13.11,1.046,68.2,,28.1,5.0,,,,,,,,,,,,0,0,0,0,0,0,0,0,0,0,0,0,0,0,0,0,,,,,0.0,,,,,,
313,3541220,1744865940839,,,,,,,,,,,,,,,,,,,,,,,,,,,,,,,,,,0,0,0,0,0,0,0,0,0,0,0,0,0,0,0,0,,,,,,,,,,,
314,3541240,1744865940859,0.0,135.0,13.32,-0.11,0.35,0.97,36.0,-3.0,-1.0,1.03,1.16,89.0,4889.0,18.8,4.28,15.0,13.24,1.081,68.2,169.0,28.1,5.0,15.0,0.0,15.0,14.0,0.0,214.0,0.0,0.0,2.26,0.0,0.0,0,0,0,0,0,0,0,0,0,0,0,0,0,0,0,0,0.0,0.0,0.0,0.0,0.0,38.985718,-76.950417,23.17,34.0,3.0,0.8
315,3541260,1744865940879,,,,,,,,,,,,,,,,,,,,,,,,,,,,,,,,,,0,0,0,0,0,0,0,0,0,0,0,0,0,0,0,0,,,,,,,,,,,
316,3541280,1744865940899,0.0,135.0,,-0.13,0.41,0.99,37.0,-3.0,-1.0,1.08,1.16,93.0,4976.0,19.2,4.31,,13.24,1.117,68.2,,28.4,5.0,,,,,,,,,,,,0,0,0,0,0,0,0,0,0,0,0,0,0,0,0,0,,,,,0.0,,,,,,
317,3541300,1744865940919,,,,,,,,,,,,,,,,,,,,,,,,,,,,,,,,,,0,0,0,0,0,0,0,0,0,0,0,0,0,0,0,0,,,,,,,,,,,
318,3541320,1744865940939,0.0,135.0,,-0.06,0.46,1.04,39.0,-2.0,-1.0,1.14,1.16,98.0,5018.0,19.2,4.3,,13.21,1.134,68.2,,28.4,5.0,,,,,,,,,,,,0,0,0,0,0,0,0,0,0,0,0,0,0,0,0,0,,,,,0.0,,,,,,
319,3541340,1744865940959,,,,,,,,,,,,,,,,,,,,,,,15.0,0.0,15.0,13.0,0.0,18.0,0.0,0.0,2.25,,,0,0,0,0,0,0,0,0,0,0,0,0,0,0,0,0,0.0,,,,,38.985718,-76.950409,23.31,34.0,3.0,0.8
320,3541360,1744865940979,0.0,135.0,,-0.08,0.5,1.02,39.0,-2.0,-1.0,1.13,1.16,98.0,4775.0,19.2,4.3,,13.21,1.134,68.2,,27.7,5.0,,,,,,,,,,,,0,0,0,0,0,0,0,0,0,0,0,0,0,0,0,0,,,,,0.0,,,,,,
321,3541380,1744865940993,,,,,,,,,,,,,,,,,,,,,,,,,,,,,,,,,,0,0,0,0,0,0,0,0,0,0,0,0,0,0,0,0,,,,,,,,,,,
322,3541400,1744865941013,0.0,135.0,,-0.08,0.42,0.95,41.0,-2.0,-1.0,1.04,1.16,90.0,4775.0,19.2,4.3,,13.37,1.132,68.2,,27.7,5.0,,,,,,,,,,,,0,0,0,0,0,0,0,0,0,0,0,0,0,0,0,0,,,,,0.0,,,,,,
323,3541420,1744865941033,,,,,,,,,,,,,,,,,,,,,,,,,,,,,,,,,,0,0,0,0,0,0,0,0,0,0,0,0,0,0,0,0,,,,,,,,,,,
324,3541440,1744865941053,0.0,135.0,,-0.08,0.31,0.88,42.0,-2.0,-1.0,0.94,1.16,81.0,4581.0,19.1,4.28,,13.39,1.122,68.2,,27.9,5.0,16.0,0.0,16.0,13.0,0.0,252.0,0.0,0.0,2.26,,,0,0,0,0,0,0,0,0,0,0,0,0,0,0,0,0,1.0,,,,0.0,38.985718,-76.950394,22.51,34.0,3.0,0.8
325,3541460,1744865941073,,,,,,,,,,,,,,,,,,,,,,,,,,,,,,,,,,0,0,0,0,0,0,0,0,0,0,0,0,0,0,0,0,,,,,,,,,,,
326,3541480,1744865941097,0.0,135.0,,-0.07,0.22,0.78,44.0,-2.0,-2.0,0.82,1.16,70.0,4591.0,19.2,4.29,,13.52,1.094,68.2,,27.9,5.0,,,,,,,,,,,,0,0,0,0,0,0,0,0,0,0,0,0,0,0,0,0,,,,,0.0,,,,,,
327,3541500,1744865941117,,,,,,,,,,,,,,,,,,,,,,,,,,,,,,,,,,0,0,0,0,0,0,0,0,0,0,0,0,0,0,0,0,,,,,,,,,,,
328,3541520,1744865941137,0.0,135.0,,-0.05,0.27,0.82,45.0,-2.0,-2.0,0.86,1.16,74.0,4701.0,19.4,4.31,,13.52,1.094,68.2,,27.9,5.0,,,,,,,,,,,,0,0,0,0,0,0,0,0,0,0,0,0,0,0,0,0,,,,,0.0,,,,,,
329,3541540,1744865941157,,,,,,,,,,,,,,,,,,,,,,,16.0,0.0,15.0,13.0,0.0,239.0,0.0,0.0,2.27,,,0,0,0,0,0,0,0,0,0,0,0,0,0,0,0,0,1.0,,,,,38.985722,-76.950386,23.4,34.0,3.0,0.8
330,3541560,1744865941177,0.0,135.0,,-0.07,0.45,0.94,46.0,-3.0,-1.0,1.05,1.16,90.0,4757.0,19.3,4.31,,13.53,1.099,68.2,,28.1,5.0,,,,,,,,,,,,0,0,0,0,0,0,0,0,0,0,0,0,0,0,0,0,,,,,0.0,,,,,,
331,3541580,1744865941199,,,,,,,,,,,,,,,,,,,,,,,,,,,,,,,,,,0,0,0,0,0,0,0,0,0,0,0,0,0,0,0,0,,,,,,,,,,,
332,3541600,1744865941219,0.0,135.0,,-0.08,0.43,0.89,46.0,-3.0,-1.0,0.99,1.16,86.0,4757.0,19.3,4.31,,13.36,1.101,68.2,,28.1,5.0,,,,,,,,,,,,0,0,0,0,0,0,0,0,0,0,0,0,0,0,0,0,,,,,0.0,,,,,,
333,3541620,1744865941239,,,,,,,,,,,,,,,,,,,,,,,,,,,,,,,,,,0,0,0,0,0,0,0,0,0,0,0,0,0,0,0,0,,,,,,,,,,,
334,3541640,1744865941259,0.0,135.0,,-0.06,0.39,0.88,48.0,-3.0,-2.0,0.96,1.16,83.0,4770.0,19.1,4.3,,13.41,1.104,68.2,,28.7,5.0,16.0,0.0,15.0,13.0,0.0,231.0,0.0,0.0,2.26,,,0,0,0,0,0,0,0,0,0,0,0,0,0,0,0,0,0.0,,,,0.0,38.985722,-76.950378,23.12,34.0,3.0,0.8
335,3541660,1744865941279,,,,,,,,,,,,,,,,,,,,,,,,,,,,,,,,,,0,0,0,0,0,0,0,0,0,0,0,0,0,0,0,0,,,,,,,,,,,
336,3541680,1744865941301,0.0,135.0,,-0.08,0.52,0.97,48.0,-2.0,-1.0,1.1,1.16,95.0,4802.0,19.2,4.31,,13.43,1.125,68.2,,28.7,5.0,,,,,,,,,,,,0,0,0,0,0,0,0,0,0,0,0,0,0,0,0,0,,,,,0.0,,,,,,
337,3541700,1744865941321,,,,,,,,,,,,,,,,,,,,,,,,,,,,,,,,,,0,0,0,0,0,0,0,0,0,0,0,0,0,0,0,0,,,,,,,,,,,
338,3541720,1744865941341,0.0,135.0,,-0.09,0.46,0.9,48.0,-2.0,-1.0,1.01,1.01,100.0,4715.0,19.2,4.3,,13.41,1.13,68.2,,28.7,5.0,,,,,,,,,,,,0,0,0,0,0,0,0,0,0,0,0,0,0,0,0,0,,,,,0.0,,,,,,
339,3541740,1744865941361,,,,,,,,,,,,,,,,,,,,,,,16.0,0.0,15.0,13.0,0.0,243.0,0.0,0.0,2.26,,,0,0,0,0,0,0,0,0,0,0,0,0,0,0,0,0,0.0,,,,,38.985725,-76.950378,22.59,34.0,3.0,0.8
340,3541760,1744865941381,0.0,135.0,,-0.06,0.37,0.86,48.0,-2.0,-1.0,0.94,1.01,93.0,4594.0,19.1,4.3,,13.41,1.13,68.2,,28.4,5.0,,,,,,,,,,,,0,0,0,0,0,0,0,0,0,0,0,0,0,0,0,0,,,,,0.0,,,,,,
341,3541780,1744865941401,,,,,,,,,,,,,,,,,,,,,,,,,,,,,,,,,,0,0,0,0,0,0,0,0,0,0,0,0,0,0,0,0,,,,,,,,,,,
342,3541800,1744865941421,0.0,135.0,,-0.04,0.33,0.84,50.0,-2.0,-2.0,0.9,1.01,89.0,4594.0,19.1,4.3,,13.51,1.113,68.2,,28.4,5.0,,,,,,,,,,,,0,0,0,0,0,0,0,0,0,0,0,0,0,0,0,0,,,,,0.0,,,,,,
343,3541820,1744865941441,,,,,,,,,,,,,,,,,,,,,,,,,,,,,,,,,,0,0,0,0,0,0,0,0,0,0,0,0,0,0,0,0,,,,,,,,,,,
344,3541840,1744865941461,0.0,135.0,,-0.03,0.47,0.91,51.0,-2.0,-2.0,1.03,1.03,100.0,4582.0,19.3,4.3,,13.48,1.1,68.2,,28.4,5.0,15.0,0.0,15.0,12.0,0.0,243.0,0.0,0.0,2.26,,,0,0,0,0,0,0,0,0,0,0,0,0,0,0,0,0,0.0,,,,0.0,38.985729,-76.950371,22.81,34.0,3.0,0.8
345,3541860,1744865941481,,,,,,,,,,,,,,,,,,,,,,,,,,,,,,,,,,0,0,0,0,0,0,0,0,0,0,0,0,0,0,0,0,,,,,,,,,,,
346,3541880,1744865941501,0.0,135.0,,-0.05,0.58,1.03,50.0,-1.0,-2.0,1.18,1.18,100.0,4601.0,19.3,4.3,,13.44,1.084,68.2,,28.3,5.0,,,,,,,,,,,,0,0,0,0,0,0,0,0,0,0,0,0,0,0,0,0,,,,,0.0,,,,,,
347,3541900,1744865941521,,,,,,,,,,,,,,,,,,,,,,,,,,,,,,,,,,0,0,0,0,0,0,0,0,0,0,0,0,0,0,0,0,,,,,,,,,,,
348,3541920,1744865941541,0.0,135.0,,-0.07,0.61,1.0,49.0,-1.0,-2.0,1.17,1.18,99.0,4678.0,19.4,4.32,,13.48,1.085,68.2,,28.3,5.0,,,,,,,,,,,,0,0,0,0,0,0,0,0,0,0,0,0,0,0,0,0,,,,,0.0,,,,,,
349,3541940,1744865941561,,,,,,,,,,,,,,,,,,,,,,,15.0,0.0,15.0,13.0,0.0,209.0,0.0,0.0,2.26,,,0,0,0,0,0,0,0,0,0,0,0,0,0,0,0,0,0.0,,,,,38.985733,-76.950363,22.93,34.0,3.0,0.8
350,3541960,1744865941581,0.0,135.0,,-0.03,0.52,0.92,49.0,-1.0,-2.0,1.06,1.18,89.0,4703.0,19.4,4.32,,13.48,1.085,68.2,,28.1,5.0,,,,,,,,,,,,0,0,0,0,0,0,0,0,0,0,0,0,0,0,0,0,,,,,0.0,,,,,,
351,3541980,1744865941601,,,,,,,,,,,,,,,,,,,,,,,,,,,,,,,,,,0,0,0,0,0,0,0,0,0,0,0,0,0,0,0,0,,,,,,,,,,,
352,3542000,1744865941621,0.0,135.0,,-0.01,0.55,0.97,51.0,-1.0,-3.0,1.11,1.18,94.0,4703.0,19.4,4.32,,13.47,1.092,68.2,,28.1,5.0,,,,,,,,,,,,0,0,0,0,0,0,0,0,0,0,0,0,0,0,0,0,,,,,0.0,,,,,,
353,3542020,1744865941641,,,,,,,,,,,,,,,,,,,,,,,,,,,,,,,,,,0,0,0,0,0,0,0,0,0,0,0,0,0,0,0,0,,,,,,,,,,,
354,3542040,1744865941661,0.0,135.0,,-0.04,0.69,1.05,50.0,-1.0,-2.0,1.26,1.26,100.0,4674.0,19.3,4.31,,13.48,1.101,68.2,,28.4,5.0,16.0,0.0,15.0,13.0,0.0,235.0,0.0,0.0,2.26,,,0,0,0,0,0,0,0,0,0,0,0,0,0,0,0,0,0.0,,,,0.0,38.985733,-76.950356,22.25,34.0,3.0,0.8
355,3542060,1744865941681,,,,,,,,,,,,,,,,,,,,,,,,,,,,,,,,,,0,0,0,0,0,0,0,0,0,0,0,0,0,0,0,0,,,,,,,,,,,
356,3542080,1744865941700,0.0,135.0,,-0.07,0.66,1.0,50.0,-1.0,-2.0,1.2,1.26,95.0,4609.0,19.4,4.31,,13.44,1.097,68.2,,28.4,5.0,,,,,,,,,,,,0,0,0,0,0,0,0,0,0,0,0,0,0,0,0,0,,,,,0.0,,,,,,
357,3542100,1744865941720,,,,,,,,,,,,,,,,,,,,,,,,,,,,,,,,,,0,0,0,0,0,0,0,0,0,0,0,0,0,0,0,0,,,,,,,,,,,
358,3542120,1744865941740,0.0,135.0,,-0.07,0.57,0.91,50.0,-1.0,-2.0,1.08,1.26,86.0,4608.0,19.2,4.3,,13.4,1.087,68.2,,28.4,5.0,,,,,,,,,,,,0,0,0,0,0,0,0,0,0,0,0,0,0,0,0,0,,,,,0.0,,,,,,
359,3542140,1744865941760,,,,,,,,,,,,,,,,,,,,,,,16.0,0.0,15.0,13.0,0.0,235.0,0.0,0.0,2.26,,,0,0,0,0,0,0,0,0,0,0,0,0,0,0,0,0,0.0,,,,,38.985737,-76.950348,22.85,34.0,3.0,0.8
360,3542160,1744865941780,0.0,135.0,,-0.05,0.44,0.87,51.0,-1.0,-3.0,0.97,1.26,77.0,4608.0,19.2,4.3,,13.4,1.087,68.2,,28.1,5.0,,,,,,,,,,,,0,0,0,0,0,0,0,0,0,0,0,0,0,0,0,0,,,,,0.0,,,,,,
361,3542180,1744865941800,,,,,,,,,,,,,,,,,,,,,,,,,,,,,,,,,,0,0,0,0,0,0,0,0,0,0,0,0,0,0,0,0,,,,,,,,,,,
362,3542200,1744865941820,0.0,135.0,,-0.03,0.51,0.93,53.0,-1.0,-4.0,1.06,1.26,84.0,4589.0,19.2,4.3,,13.48,1.072,68.2,,28.1,5.0,,,,,,,,,,,,0,0,0,0,0,0,0,0,0,0,0,0,0,0,0,0,,,,,0.0,,,,,,
363,3542220,1744865941840,,,,,,,,,,,,,,,,,,,,,,,,,,,,,,,,,,0,0,0,0,0,0,0,0,0,0,0,0,0,0,0,0,,,,,,,,,,,
364,3542240,1744865941860,0.0,135.0,13.47,-0.02,0.66,1.06,53.0,-1.0,-3.0,1.25,1.26,99.0,4629.0,19.2,4.3,15.0,13.52,1.071,68.2,169.0,28.2,5.0,16.0,0.0,15.0,13.0,0.0,221.0,0.0,0.0,2.26,0.0,0.0,0,0,0,0,0,0,0,0,0,0,0,0,0,0,0,0,0.0,0.0,0.0,0.0,0.0,38.985741,-76.950348,22.2,34.0,3.0,0.8
365,3542260,1744865941880,,,,,,,,,,,,,,,,,,,,,,,,,,,,,,,,,,0,0,0,0,0,0,0,0,0,0,0,0,0,0,0,0,,,,,,,,,,,
366,3542280,1744865941900,0.0,135.0,,-0.02,0.76,1.14,51.0,-2.0,-2.0,1.37,1.37,100.0,4646.0,19.1,4.29,,13.49,1.083,68.2,,28.2,5.0,,,,,,,,,,,,0,0,0,0,0,0,0,0,0,0,0,0,0,0,0,0,,,,,0.0,,,,,,
367,3542300,1744865941920,,,,,,,,,,,,,,,,,,,,,,,,,,,,,,,,,,0,0,0,0,0,0,0,0,0,0,0,0,0,0,0,0,,,,,,,,,,,
368,3542320,1744865941940,0.0,135.0,,-0.04,0.76,1.12,50.0,-2.0,-1.0,1.36,1.37,99.0,4576.0,19.2,4.3,,13.52,1.08,68.2,,28.2,5.0,,,,,,,,,,,,0,0,0,0,0,0,0,0,0,0,0,0,0,0,0,0,,,,,0.0,,,,,,
369,3542340,1744865941960,,,,,,,,,,,,,,,,,,,,,,,15.0,0.0,15.0,13.0,0.0,13.0,0.0,0.0,2.26,,,0,0,0,0,0,0,0,0,0,0,0,0,0,0,0,0,0.0,,,,,38.985748,-76.95034,22.17,34.0,3.0,0.8
370,3542360,1744865941980,0.0,135.0,,-0.05,0.76,1.15,49.0,-3.0,0.0,1.38,1.38,100.0,4509.0,19.4,4.3,,13.52,1.08,68.2,,28.4,5.0,,,,,,,,,,,,0,0,0,0,0,0,0,0,0,0,0,0,0,0,0,0,,,,,0.0,,,,,,
371,3542380,1744865941992,,,,,,,,,,,,,,,,,,,,,,,,,,,,,,,,,,0,0,0,0,0,0,0,0,0,0,0,0,0,0,0,0,,,,,,,,,,,
372,3542400,1744865942012,0.0,135.0,,-0.07,0.75,1.15,47.0,-3.0,0.0,1.37,1.38,100.0,4509.0,19.4,4.3,,13.51,1.085,68.2,,28.4,5.0,,,,,,,,,,,,0,0,0,0,0,0,0,0,0,0,0,0,0,0,0,0,,,,,0.0,,,,,,
373,3542420,1744865942032,,,,,,,,,,,,,,,,,,,,,,,,,,,,,,,,,,0,0,0,0,0,0,0,0,0,0,0,0,0,0,0,0,,,,,,,,,,,
374,3542440,1744865942052,0.0,135.0,,-0.08,0.75,1.17,46.0,-4.0,1.0,1.39,1.39,100.0,4470.0,19.2,4.3,,13.6,1.088,68.2,,28.4,5.0,15.0,0.0,15.0,13.0,0.0,218.0,0.0,0.0,2.26,,,0,0,0,0,0,0,0,0,0,0,0,0,0,0,0,0,1.0,,,,0.0,38.985752,-76.95034,22.85,35.0,3.0,0.8
375,3542460,1744865942072,,,,,,,,,,,,,,,,,,,,,,,,,,,,,,,,,,0,0,0,0,0,0,0,0,0,0,0,0,0,0,0,0,,,,,,,,,,,
376,3542480,1744865942098,0.0,135.0,,-0.1,0.71,1.13,45.0,-4.0,1.0,1.34,1.39,96.0,4527.0,19.4,4.3,,13.52,1.078,68.2,,28.1,5.0,,,,,,,,,,,,0,0,0,0,0,0,0,0,0,0,0,0,0,0,0,0,,,,,0.0,,,,,,
377,3542500,1744865942118,,,,,,,,,,,,,,,,,,,,,,,,,,,,,,,,,,0,0,0,0,0,0,0,0,0,0,0,0,0,0,0,0,,,,,,,,,,,
378,3542520,1744865942138,0.0,135.0,,-0.12,0.61,1.05,45.0,-4.0,1.0,1.22,1.39,88.0,4542.0,19.2,4.3,,13.53,1.084,68.2,,28.1,5.0,,,,,,,,,,,,0,0,0,0,0,0,0,0,0,0,0,0,0,0,0,0,,,,,0.0,,,,,,
379,3542540,1744865942158,,,,,,,,,,,,,,,,,,,,,,,15.0,0.0,15.0,12.0,0.0,200.0,0.0,0.0,2.25,,,0,0,0,0,0,0,0,0,0,0,0,0,0,0,0,0,1.0,,,,,38.985756,-76.95034,22.71,35.0,3.0,0.8
380,3542560,1744865942178,0.0,135.0,,-0.11,0.5,0.97,45.0,-4.0,2.0,1.09,1.39,79.0,4536.0,19.4,4.3,,13.53,1.084,68.2,,28.2,5.0,,,,,,,,,,,,0,0,0,0,0,0,0,0,0,0,0,0,0,0,0,0,,,,,0.0,,,,,,
381,3542580,1744865942200,,,,,,,,,,,,,,,,,,,,,,,,,,,,,,,,,,0,0,0,0,0,0,0,0,0,0,0,0,0,0,0,0,,,,,,,,,,,
