"Interval"|"ms"|0|0|1,"Utc"|"ms"|0|0|1,"FrontBP"|"psi"|-5.0|5.0|25,"SteerAng"|"Degrees"|-145|145|25,"Battery"|"Volts"|-5.0|20.0|1,"AccelX"|"G"|-3.0|3.0|25,"AccelY"|"G"|-3.0|3.0|25,"AccelZ"|"G"|-3.0|3.0|25,"Yaw"|"Deg/Sec"|-120|120|25,"Pitch"|"Deg/Sec"|-120|120|25,"Roll"|"Deg/Sec"|-120|120|25,"Gsum"|"G"|0.0|3.0|25,"GsumMax"|"G"|0.0|3.0|25,"GsumPct"|"%"|0|100|25,"RPM"|""|0|10000|25,"TPS"|"%"|0.0|100.0|25,"InjectorPW"|"ms"|0.0|100.0|25,"Baro"|"kPa"|0|105|1,"MAP"|"Psi"|0.0|255.0|25,"Lambda"|""|-2.0|2.0|25,"IAT"|"C"|0.0|200.0|25,"EngineTemp"|"C"|0|200|1,"EOP"|"PSI"|0.0|152.0|25,"EOT"|"F"|0|250|25,"WSFR"|"MPH"|0|150|10,"WSFL"|"MPH"|0|100|10,"WSRR"|"MPH"|0|100|10,"WSRL"|""|0|100|10,"TCSet"|"%"|0.0|100.0|10,"TCSlip"|"%"|0.0|100.0|10,"TCComp"|"deg"|0.0|50.0|10,"TCCut"|"%"|0.0|100.0|10,"Analog8"|""|0.0|5.0|10,"OilTemp"|"F"|0|300|1,"AA_On"|""|0.0|1.0|1,"ThermLF1"|"C"|0|400|50,"ThermLF2"|"C"|0|400|50,"ThermRR1"|"C"|0|400|50,"ThermRR2"|"C"|0|400|50,"ThermLF3"|"C"|0|400|50,"ThermLF4"|"C"|0|400|50,"ThermLF5"|"C"|0|400|50,"ThermLF6"|"C"|0|400|50,"ThermLF7"|"C"|0|400|50,"ThermLF8"|"C"|0|400|50,"ThermRR3"|"C"|0|400|50,"ThermRR4"|"C"|0|400|50,"ThermRR5"|"C"|0|400|50,"ThermRR6"|"C"|0|400|50,"ThermRR7"|"C"|0|400|50,"ThermRR8"|"C"|0|400|50,"Gear"|""|1|6|10,"AA_On"|""|0.0|1.0|1,"AA_LowDrag"|""|0|1|1,"Fuel_Mix"|""|-10|10|1,"AA_Packages"|""|0.0|1000.0|25,"Latitude"|"Degrees"|-180.0|180.0|10,"Longitude"|"Degrees"|-180.0|180.0|10,"Speed"|"kph"|0.0|150.0|10,"GPSSats"|""|0|20|10,"GPSQual"|""|0|5|10,"GPSDOP"|""|0.0|20.0|10
131959,0,,,,,,,,,,,,,,,,,,,,,,,,,,,,,,,,,,0,0,0,0,0,0,0,0,0,0,0,0,0,0,0,0,,,,,,,,,,,
131979,0,0.0,135,,-0.11,0.33,1.14,1,-2,1,1.19,1.19,100,3962,1.5,2.8,,10.89,0.842,82.6,,68.4,5,,,,,,,,,,,,0,0,0,0,0,0,0,0,0,0,0,0,0,0,0,0,,,,,0.0,,,,,,
131999,0,,,,,,,,,,,,,,,,,,,,,,,,,,,,,,,,,,0,0,0,0,0,0,0,0,0,0,0,0,0,0,0,0,,,,,,,,,,,
132019,0,0.0,135,,-0.12,0.24,1.12,1,-2,1,1.15,1.19,97,3962,1.5,2.8,,11.05,0.842,82.6,,63.3,5,,,,,,,,,,,,0,0,0,0,0,0,0,0,0,0,0,0,0,0,0,0,,,,,0.0,,,,,,
132039,0,,,,,,,,,,,,,,,,,,,,,,,0,0,0,0,0.0,0.0,0.0,0.0,2.26,,,0,0,0,0,0,0,0,0,0,0,0,0,0,0,0,0,0,,,,,0.0,0.0,0.0,0,0,0.0
132059,0,0.0,135,,-0.14,0.14,1.09,1,-2,1,1.11,1.19,94,3917,2.5,3.06,,11.41,0.845,82.6,,63.3,5,,,,,,,,,,,,0,0,0,0,0,0,0,0,0,0,0,0,0,0,0,0,,,,,0.0,,,,,,
132079,0,,,,,,,,,,,,,,,,,,,,,,,,,,,,,,,,,,0,0,0,0,0,0,0,0,0,0,0,0,0,0,0,0,,,,,,,,,,,
132099,0,0.0,135,,-0.16,0.09,1.08,1,-2,0,1.1,1.19,92,3880,2.7,3.15,,11.57,0.846,82.6,,63.3,5,,,,,,,,,,,,0,0,0,0,0,0,0,0,0,0,0,0,0,0,0,0,,,,,0.0,,,,,,
132119,0,,,,,,,,,,,,,,,,,,,,,,,,,,,,,,,,,,0,0,0,0,0,0,0,0,0,0,0,0,0,0,0,0,,,,,,,,,,,
132139,0,0.0,135,13.63,-0.18,0.02,1.07,2,-2,0,1.09,1.19,91,3772,2.6,3.18,15,11.81,0.847,82.6,122,60.9,5,0,0,0,0,0.0,0.0,0.0,0.0,2.26,0,0.0,0,0,0,0,0,0,0,0,0,0,0,0,0,0,0,0,0,0.0,0,0,0.0,0.0,0.0,0.0,0,0,0.0
132159,0,,,,,,,,,,,,,,,,,,,,,,,,,,,,,,,,,,0,0,0,0,0,0,0,0,0,0,0,0,0,0,0,0,,,,,,,,,,,
132179,0,0.0,135,,-0.19,0.03,1.07,2,-1,0,1.08,1.19,91,3688,2.6,3.2,,11.81,0.847,82.6,,60.9,5,,,,,,,,,,,,0,0,0,0,0,0,0,0,0,0,0,0,0,0,0,0,,,,,0.0,,,,,,
132199,0,,,,,,,,,,,,,,,,,,,,,,,,,,,,,,,,,,0,0,0,0,0,0,0,0,0,0,0,0,0,0,0,0,,,,,,,,,,,
132219,0,0.0,135,,-0.17,0.1,1.05,1,-1,1,1.07,1.19,90,3688,2.6,3.2,,11.95,0.849,82.6,,60.3,5,,,,,,,,,,,,0,0,0,0,0,0,0,0,0,0,0,0,0,0,0,0,,,,,0.0,,,,,,
132239,0,,,,,,,,,,,,,,,,,,,,,,,0,9,0,0,0.0,0.0,0.0,0.0,2.26,,,0,0,0,0,0,0,0,0,0,0,0,0,0,0,0,0,0,,,,,0.0,0.0,0.0,0,0,0.0
132259,0,0.0,135,,-0.15,0.14,1.03,1,-1,1,1.05,1.19,89,3627,2.4,3.17,,12.03,0.844,82.6,,60.3,5,,,,,,,,,,,,0,0,0,0,0,0,0,0,0,0,0,0,0,0,0,0,,,,,0.0,,,,,,
132279,0,,,,,,,,,,,,,,,,,,,,,,,,,,,,,,,,,,0,0,0,0,0,0,0,0,0,0,0,0,0,0,0,0,,,,,,,,,,,
132299,0,0.0,135,,-0.16,0.06,0.99,2,-1,-0,1.0,1.19,84,3546,2.3,3.16,,12.17,0.84,82.6,,60.3,5,,,,,,,,,,,,0,0,0,0,0,0,0,0,0,0,0,0,0,0,0,0,,,,,0.0,,,,,,
132319,0,,,,,,,,,,,,,,,,,,,,,,,,,,,,,,,,,,0,0,0,0,0,0,0,0,0,0,0,0,0,0,0,0,,,,,,,,,,,
132339,0,0.0,135,,-0.17,0.06,1.07,1,-1,0,1.09,1.19,91,3460,2.0,3.12,,12.23,0.851,82.6,,57.5,5,0,9,0,0,0.0,24.0,0.0,0.0,2.26,,,0,0,0,0,0,0,0,0,0,0,0,0,0,0,0,0,0,,,,0.0,0.0,0.0,0.0,0,0,0.0
132359,0,,,,,,,,,,,,,,,,,,,,,,,,,,,,,,,,,,0,0,0,0,0,0,0,0,0,0,0,0,0,0,0,0,,,,,,,,,,,
132379,0,0.0,135,,-0.15,0.14,0.98,1,-1,0,1.0,1.19,84,3428,1.6,3.07,,12.23,0.851,82.6,,57.5,5,,,,,,,,,,,,0,0,0,0,0,0,0,0,0,0,0,0,0,0,0,0,,,,,0.0,,,,,,
132399,0,,,,,,,,,,,,,,,,,,,,,,,,,,,,,,,,,,0,0,0,0,0,0,0,0,0,0,0,0,0,0,0,0,,,,,,,,,,,
132419,0,0.0,135,,-0.16,0.09,1.07,1,-1,0,1.09,1.19,91,3428,1.6,3.07,,12.36,0.859,82.6,,56.0,5,,,,,,,,,,,,0,0,0,0,0,0,0,0,0,0,0,0,0,0,0,0,,,,,0.0,,,,,,
132439,0,,,,,,,,,,,,,,,,,,,,,,,0,9,0,0,0.0,24.0,0.0,0.0,2.26,,,0,0,0,0,0,0,0,0,0,0,0,0,0,0,0,0,0,,,,,0.0,0.0,0.0,0,0,0.0
132459,0,0.0,135,,-0.16,0.08,0.99,1,-1,0,1.0,1.19,84,3315,1.4,3.01,,12.44,0.847,82.6,,56.0,5,,,,,,,,,,,,0,0,0,0,0,0,0,0,0,0,0,0,0,0,0,0,,,,,0.0,,,,,,
132479,0,,,,,,,,,,,,,,,,,,,,,,,,,,,,,,,,,,0,0,0,0,0,0,0,0,0,0,0,0,0,0,0,0,,,,,,,,,,,
132499,0,0.0,135,,-0.13,0.1,0.96,1,-1,0,0.97,1.19,82,3219,1.3,3.04,,12.51,0.83,82.6,,56.0,5,,,,,,,,,,,,0,0,0,0,0,0,0,0,0,0,0,0,0,0,0,0,,,,,0.0,,,,,,
132519,0,,,,,,,,,,,,,,,,,,,,,,,,,,,,,,,,,,0,0,0,0,0,0,0,0,0,0,0,0,0,0,0,0,,,,,,,,,,,
132539,0,0.0,135,,-0.12,0.1,1.02,1,-1,1,1.03,1.19,87,3144,1.1,3.02,,12.55,0.816,82.6,,56.9,5,0,9,0,0,0.0,24.0,0.0,0.0,2.26,,,0,0,0,0,0,0,0,0,0,0,0,0,0,0,0,0,0,,,,0.0,0.0,0.0,0.0,0,0,0.0
132559,0,,,,,,,,,,,,,,,,,,,,,,,,,,,,,,,,,,0,0,0,0,0,0,0,0,0,0,0,0,0,0,0,0,,,,,,,,,,,
132579,0,0.0,135,,-0.12,0.05,1.08,1,-1,1,1.08,1.19,91,3106,1.0,3.01,,12.55,0.816,82.6,,56.9,5,,,,,,,,,,,,0,0,0,0,0,0,0,0,0,0,0,0,0,0,0,0,,,,,0.0,,,,,,
132599,0,,,,,,,,,,,,,,,,,,,,,,,,,,,,,,,,,,0,0,0,0,0,0,0,0,0,0,0,0,0,0,0,0,,,,,,,,,,,
132619,0,0.0,135,,-0.13,-0.04,1.11,1,-1,0,1.12,1.19,94,3106,1.0,3.01,,12.61,0.812,82.6,,55.5,5,,,,,,,,,,,,0,0,0,0,0,0,0,0,0,0,0,0,0,0,0,0,,,,,0.0,,,,,,
132639,0,,,,,,,,,,,,,,,,,,,,,,,0,9,0,0,0.0,24.0,0.0,0.0,2.26,,,0,0,0,0,0,0,0,0,0,0,0,0,0,0,0,0,0,,,,,0.0,0.0,0.0,0,0,0.0
132659,0,0.0,135,,-0.12,-0.05,1.15,0,-0,1,1.15,1.19,97,2974,0.9,3.05,,12.72,0.815,82.6,,55.5,5,,,,,,,,,,,,0,0,0,0,0,0,0,0,0,0,0,0,0,0,0,0,,,,,0.0,,,,,,
132679,0,,,,,,,,,,,,,,,,,,,,,,,,,,,,,,,,,,0,0,0,0,0,0,0,0,0,0,0,0,0,0,0,0,,,,,,,,,,,
132699,0,0.0,135,,-0.11,-0.02,1.1,0,-0,1,1.11,1.19,93,2838,0.8,3.1,,12.81,0.829,82.6,,55.5,5,,,,,,,,,,,,0,0,0,0,0,0,0,0,0,0,0,0,0,0,0,0,,,,,0.0,,,,,,
132719,0,,,,,,,,,,,,,,,,,,,,,,,,,,,,,,,,,,0,0,0,0,0,0,0,0,0,0,0,0,0,0,0,0,,,,,,,,,,,
132739,0,0.0,135,,-0.11,-0.06,1.1,1,-0,0,1.11,1.19,93,2659,0.7,3.13,,12.93,0.837,82.6,,50.5,5,0,9,0,0,0.0,24.0,0.0,0.0,2.26,,,0,0,0,0,0,0,0,0,0,0,0,0,0,0,0,0,0,,,,0.0,0.0,0.0,0.0,0,0,0.0
132759,0,,,,,,,,,,,,,,,,,,,,,,,,,,,,,,,,,,0,0,0,0,0,0,0,0,0,0,0,0,0,0,0,0,,,,,,,,,,,
132779,0,0.0,135,,-0.11,-0.04,1.06,1,-0,0,1.07,1.19,90,2596,0.4,3.19,,12.93,0.837,82.6,,50.5,5,,,,,,,,,,,,0,0,0,0,0,0,0,0,0,0,0,0,0,0,0,0,,,,,0.0,,,,,,
132799,0,,,,,,,,,,,,,,,,,,,,,,,,,,,,,,,,,,0,0,0,0,0,0,0,0,0,0,0,0,0,0,0,0,,,,,,,,,,,
132819,0,0.0,135,,-0.12,-0.03,1.06,1,0,0,1.06,1.19,89,2596,0.4,3.19,,13.08,0.837,82.6,,49.3,5,,,,,,,,,,,,0,0,0,0,0,0,0,0,0,0,0,0,0,0,0,0,,,,,0.0,,,,,,
132839,0,,,,,,,,,,,,,,,,,,,,,,,0,9,0,0,0.0,24.0,0.0,0.0,2.26,,,0,0,0,0,0,0,0,0,0,0,0,0,0,0,0,0,0,,,,,0.0,0.0,0.0,0,0,0.0
132859,0,0.0,135,,-0.12,-0.03,1.05,1,0,0,1.06,1.19,89,2455,0.3,3.21,,13.23,0.846,82.6,,49.3,5,,,,,,,,,,,,0,0,0,0,0,0,0,0,0,0,0,0,0,0,0,0,,,,,0.0,,,,,,
132879,0,,,,,,,,,,,,,,,,,,,,,,,,,,,,,,,,,,0,0,0,0,0,0,0,0,0,0,0,0,0,0,0,0,,,,,,,,,,,
132899,0,0.0,135,,-0.1,-0.04,1.05,1,0,0,1.06,1.19,89,2441,0.5,3.27,,13.39,0.869,82.6,,49.3,5,,,,,,,,,,,,0,0,0,0,0,0,0,0,0,0,0,0,0,0,0,0,,,,,0.0,,,,,,
132919,0,,,,,,,,,,,,,,,,,,,,,,,,,,,,,,,,,,0,0,0,0,0,0,0,0,0,0,0,0,0,0,0,0,,,,,,,,,,,
132939,0,0.0,135,,-0.11,-0.02,1.04,1,0,0,1.04,1.19,88,2350,3.6,3.43,,13.59,0.906,82.6,,45.5,5,0,9,0,0,0.0,24.0,0.0,0.0,2.26,,,0,0,0,0,0,0,0,0,0,0,0,0,0,0,0,0,0,,,,0.0,0.0,0.0,0.0,0,0,0.0
132959,0,,,,,,,,,,,,,,,,,,,,,,,,,,,,,,,,,,0,0,0,0,0,0,0,0,0,0,0,0,0,0,0,0,,,,,,,,,,,
132979,0,0.0,135,,-0.11,-0.04,1.06,1,1,0,1.07,1.19,90,2642,8.1,3.72,,13.59,0.906,82.6,,45.5,5,,,,,,,,,,,,0,0,0,0,0,0,0,0,0,0,0,0,0,0,0,0,,,,,0.0,,,,,,
132999,0,,,,,,,,,,,,,,,,,,,,,,,,,,,,,,,,,,0,0,0,0,0,0,0,0,0,0,0,0,0,0,0,0,,,,,,,,,,,
133019,0,0.0,135,,-0.12,0.03,1.06,1,1,1,1.07,1.19,90,2642,8.1,3.72,,13.72,1.005,82.6,,50.1,5,,,,,,,,,,,,0,0,0,0,0,0,0,0,0,0,0,0,0,0,0,0,,,,,0.0,,,,,,
133039,0,,,,,,,,,,,,,,,,,,,,,,,0,9,0,0,0.0,24.0,0.0,0.0,2.26,,,0,0,0,0,0,0,0,0,0,0,0,0,0,0,0,0,0,,,,,0.0,0.0,0.0,0,0,0.0
133059,0,0.0,135,,-0.12,0.03,1.04,1,1,0,1.05,1.19,88,2820,9.1,3.79,,13.82,0.993,82.6,,50.1,5,,,,,,,,,,,,0,0,0,0,0,0,0,0,0,0,0,0,0,0,0,0,,,,,0.0,,,,,,
133079,0,,,,,,,,,,,,,,,,,,,,,,,,,,,,,,,,,,0,0,0,0,0,0,0,0,0,0,0,0,0,0,0,0,,,,,,,,,,,
133099,0,0.0,135,,-0.12,0.01,1.07,2,1,1,1.07,1.19,90,2981,9.2,3.84,,13.75,0.921,82.6,,50.1,5,,,,,,,,,,,,0,0,0,0,0,0,0,0,0,0,0,0,0,0,0,0,,,,,0.0,,,,,,
133119,0,,,,,,,,,,,,,,,,,,,,,,,,,,,,,,,,,,0,0,0,0,0,0,0,0,0,0,0,0,0,0,0,0,,,,,,,,,,,
133139,0,0.0,135,13.64,-0.14,-0.04,1.05,2,1,0,1.06,1.19,90,3284,5.3,3.76,15,13.56,0.89,82.6,122,57.9,5,0,9,0,0,0.0,24.0,0.0,0.0,2.26,0,0.0,0,0,0,0,0,0,0,0,0,0,0,0,0,0,0,0,0,0.0,0,0,0.0,0.0,0.0,0.0,0,0,0.0
133159,0,,,,,,,,,,,,,,,,,,,,,,,,,,,,,,,,,,0,0,0,0,0,0,0,0,0,0,0,0,0,0,0,0,,,,,,,,,,,
133179,0,0.0,135,,-0.13,0.01,1.07,1,1,1,1.08,1.19,91,3454,0.6,3.1,,13.56,0.89,82.6,,57.9,5,,,,,,,,,,,,0,0,0,0,0,0,0,0,0,0,0,0,0,0,0,0,,,,,0.0,,,,,,
133199,0,,,,,,,,,,,,,,,,,,,,,,,,,,,,,,,,,,0,0,0,0,0,0,0,0,0,0,0,0,0,0,0,0,,,,,,,,,,,
133219,0,0.0,135,,-0.12,0.05,0.99,2,1,0,1.0,1.19,84,3454,0.6,3.1,,13.11,0.901,82.6,,63.2,5,,,,,,,,,,,,0,0,0,0,0,0,0,0,0,0,0,0,0,0,0,0,,,,,0.0,,,,,,
133239,0,,,,,,,,,,,,,,,,,,,,,,,0,9,0,0,0.0,24.0,0.0,0.0,2.27,,,0,0,0,0,0,0,0,0,0,0,0,0,0,0,0,0,0,,,,,0.0,0.0,0.0,0,0,0.0
133259,0,0.0,135,,-0.14,0.01,1.06,1,1,0,1.07,1.19,90,3481,0.0,2.7,,12.76,0.926,82.6,,63.2,5,,,,,,,,,,,,0,0,0,0,0,0,0,0,0,0,0,0,0,0,0,0,,,,,0.0,,,,,,
133279,0,,,,,,,,,,,,,,,,,,,,,,,,,,,,,,,,,,0,0,0,0,0,0,0,0,0,0,0,0,0,0,0,0,,,,,,,,,,,
133299,0,0.0,135,,-0.11,0.1,0.99,1,1,0,1.01,1.19,85,3405,0.0,2.71,,12.52,0.925,82.6,,63.2,5,,,,,,,,,,,,0,0,0,0,0,0,0,0,0,0,0,0,0,0,0,0,,,,,0.0,,,,,,
133319,0,,,,,,,,,,,,,,,,,,,,,,,,,,,,,,,,,,0,0,0,0,0,0,0,0,0,0,0,0,0,0,0,0,,,,,,,,,,,
133339,0,0.0,135,,-0.11,0.05,1.08,1,1,0,1.09,1.19,91,3338,0.0,2.73,,12.39,0.922,82.6,,61.3,5,0,9,0,0,0.0,24.0,0.0,0.0,2.26,,,0,0,0,0,0,0,0,0,0,0,0,0,0,0,0,0,0,,,,0.0,0.0,0.0,0.0,0,0,0.0
133359,0,,,,,,,,,,,,,,,,,,,,,,,,,,,,,,,,,,0,0,0,0,0,0,0,0,0,0,0,0,0,0,0,0,,,,,,,,,,,
133379,0,0.0,135,,-0.13,0.01,1.07,1,1,0,1.08,1.19,91,3229,0.0,2.77,,12.39,0.922,82.6,,61.3,5,,,,,,,,,,,,0,0,0,0,0,0,0,0,0,0,0,0,0,0,0,0,,,,,0.0,,,,,,
133399,0,,,,,,,,,,,,,,,,,,,,,,,,,,,,,,,,,,0,0,0,0,0,0,0,0,0,0,0,0,0,0,0,0,,,,,,,,,,,
133419,0,0.0,135,,-0.11,0.03,0.98,1,1,0,0.99,1.19,83,3229,0.0,2.77,,12.47,0.915,82.6,,57.7,5,,,,,,,,,,,,0,0,0,0,0,0,0,0,0,0,0,0,0,0,0,0,,,,,0.0,,,,,,
133439,0,,,,,,,,,,,,,,,,,,,,,,,0,9,0,0,0.0,24.0,0.0,0.0,2.26,,,0,0,0,0,0,0,0,0,0,0,0,0,0,0,0,0,0,,,,,0.0,0.0,0.0,0,0,0.0
133459,0,0.0,135,,-0.1,0.03,0.96,1,1,0,0.97,1.19,81,3154,4.9,3.66,,12.77,0.896,82.6,,57.7,5,,,,,,,,,,,,0,0,0,0,0,0,0,0,0,0,0,0,0,0,0,0,,,,,0.0,,,,,,
133479,0,,,,,,,,,,,,,,,,,,,,,,,,,,,,,,,,,,0,0,0,0,0,0,0,0,0,0,0,0,0,0,0,0,,,,,,,,,,,
133499,0,0.0,135,,-0.11,0.03,1.05,1,1,0,1.06,1.19,89,3192,10.8,3.87,,13.29,0.879,82.6,,57.7,5,,,,,,,,,,,,0,0,0,0,0,0,0,0,0,0,0,0,0,0,0,0,,,,,0.0,,,,,,
133519,0,,,,,,,,,,,,,,,,,,,,,,,,,,,,,,,,,,0,0,0,0,0,0,0,0,0,0,0,0,0,0,0,0,,,,,,,,,,,
133539,0,0.0,135,,-0.11,0.06,0.98,1,1,0,0.99,1.19,83,3335,12.5,3.92,,13.59,0.863,82.6,,57.1,5,0,9,0,0,0.0,24.0,0.0,0.0,2.26,,,0,0,0,0,0,0,0,0,0,0,0,0,0,0,0,0,0,,,,0.0,0.0,0.0,0.0,0,0,0.0
133559,0,,,,,,,,,,,,,,,,,,,,,,,,,,,,,,,,,,0,0,0,0,0,0,0,0,0,0,0,0,0,0,0,0,,,,,,,,,,,
133579,0,0.0,135,,-0.12,-0.03,1.0,1,1,0,1.01,1.19,85,3626,11.4,3.9,,13.59,0.863,82.6,,57.1,5,,,,,,,,,,,,0,0,0,0,0,0,0,0,0,0,0,0,0,0,0,0,,,,,0.0,,,,,,
133599,0,,,,,,,,,,,,,,,,,,,,,,,,,,,,,,,,,,0,0,0,0,0,0,0,0,0,0,0,0,0,0,0,0,,,,,,,,,,,
133619,0,0.0,135,,-0.11,-0.02,1.0,1,1,0,1.0,1.19,84,3626,11.4,3.9,,13.61,0.859,82.6,,66.3,5,,,,,,,,,,,,0,0,0,0,0,0,0,0,0,0,0,0,0,0,0,0,,,,,0.0,,,,,,
133639,0,,,,,,,,,,,,,,,,,,,,,,,0,9,0,0,0.0,24.0,0.0,0.0,2.26,,,0,0,0,0,0,0,0,0,0,0,0,0,0,0,0,0,0,,,,,0.0,0.0,0.0,0,0,0.0
133659,0,0.0,135,,-0.1,0.03,1.02,0,1,1,1.03,1.19,87,3871,5.8,3.69,,13.15,0.864,82.6,,66.3,5,,,,,,,,,,,,0,0,0,0,0,0,0,0,0,0,0,0,0,0,0,0,,,,,0.0,,,,,,
133679,0,,,,,,,,,,,,,,,,,,,,,,,,,,,,,,,,,,0,0,0,0,0,0,0,0,0,0,0,0,0,0,0,0,,,,,,,,,,,
133699,0,0.0,135,,-0.12,-0.01,1.03,-0,1,1,1.03,1.19,87,3981,1.7,2.95,,12.65,0.894,82.6,,66.3,5,,,,,,,,,,,,0,0,0,0,0,0,0,0,0,0,0,0,0,0,0,0,,,,,0.0,,,,,,
133719,0,,,,,,,,,,,,,,,,,,,,,,,,,,,,,,,,,,0,0,0,0,0,0,0,0,0,0,0,0,0,0,0,0,,,,,,,,,,,
133739,0,0.0,135,,-0.12,-0.06,0.99,1,1,-0,1.0,1.19,84,4051,0.0,2.5,,12.24,0.906,82.6,,71.3,5,0,9,0,0,0.0,24.0,0.0,0.0,2.26,,,0,0,0,0,0,0,0,0,0,0,0,0,0,0,0,0,0,,,,0.0,0.0,0.0,0.0,0,0,0.0
133759,0,,,,,,,,,,,,,,,,,,,,,,,,,,,,,,,,,,0,0,0,0,0,0,0,0,0,0,0,0,0,0,0,0,,,,,,,,,,,
133779,0,0.0,135,,-0.12,0.0,1.03,0,1,0,1.04,1.19,87,4024,0.0,2.45,,12.24,0.906,82.6,,71.3,5,,,,,,,,,,,,0,0,0,0,0,0,0,0,0,0,0,0,0,0,0,0,,,,,0.0,,,,,,
133799,0,,,,,,,,,,,,,,,,,,,,,,,,,,,,,,,,,,0,0,0,0,0,0,0,0,0,0,0,0,0,0,0,0,,,,,,,,,,,
133819,0,0.0,135,,-0.14,-0.08,1.0,1,1,-0,1.01,1.19,85,4024,0.0,2.45,,11.87,0.887,82.6,,71.5,5,,,,,,,,,,,,0,0,0,0,0,0,0,0,0,0,0,0,0,0,0,0,,,,,0.0,,,,,,
133839,0,,,,,,,,,,,,,,,,,,,,,,,0,9,0,0,0.0,24.0,0.0,0.0,2.26,,,0,0,0,0,0,0,0,0,0,0,0,0,0,0,0,0,0,,,,,0.0,0.0,0.0,0,0,0.0
133859,0,0.0,135,,-0.13,-0.1,0.97,2,1,-1,0.99,1.19,83,4318,4.7,3.56,,12.01,0.879,82.6,,71.5,5,,,,,,,,,,,,0,0,0,0,0,0,0,0,0,0,0,0,0,0,0,0,,,,,0.0,,,,,,
133879,0,,,,,,,,,,,,,,,,,,,,,,,,,,,,,,,,,,0,0,0,0,0,0,0,0,0,0,0,0,0,0,0,0,,,,,,,,,,,
133899,0,0.0,135,,-0.12,0.0,1.01,1,0,-0,1.01,1.19,85,3963,11.0,3.75,,12.65,0.894,82.6,,71.5,5,,,,,,,,,,,,0,0,0,0,0,0,0,0,0,0,0,0,0,0,0,0,,,,,0.0,,,,,,
133919,0,,,,,,,,,,,,,,,,,,,,,,,,,,,,,,,,,,0,0,0,0,0,0,0,0,0,0,0,0,0,0,0,0,,,,,,,,,,,
133939,0,0.0,135,,-0.15,-0.07,1.0,0,0,-0,1.02,1.19,86,4012,16.4,3.91,,13.2,0.929,82.6,,70.1,5,0,9,0,0,0.0,24.0,0.0,0.0,2.26,,,0,0,0,0,0,0,0,0,0,0,0,0,0,0,0,0,0,,,,0.0,0.0,0.0,0.0,0,0,0.0
133959,0,,,,,,,,,,,,,,,,,,,,,,,,,,,,,,,,,,0,0,0,0,0,0,0,0,0,0,0,0,0,0,0,0,,,,,,,,,,,
133979,0,0.0,135,,-0.15,-0.03,0.98,1,0,-1,0.99,1.19,83,4086,17.6,3.99,,13.2,0.929,82.6,,70.1,5,,,,,,,,,,,,0,0,0,0,0,0,0,0,0,0,0,0,0,0,0,0,,,,,0.0,,,,,,
133999,0,,,,,,,,,,,,,,,,,,,,,,,,,,,,,,,,,,0,0,0,0,0,0,0,0,0,0,0,0,0,0,0,0,,,,,,,,,,,
134019,0,0.0,135,,-0.17,-0.07,0.99,1,0,-0,1.01,1.19,85,4086,17.6,3.99,,13.49,0.914,82.6,,73.1,5,,,,,,,,,,,,0,0,0,0,0,0,0,0,0,0,0,0,0,0,0,0,,,,,0.0,,,,,,
134039,0,,,,,,,,,,,,,,,,,,,,,,,0,9,0,0,0.0,24.0,0.0,0.0,2.26,,,0,0,0,0,0,0,0,0,0,0,0,0,0,0,0,0,0,,,,,0.0,0.0,0.0,0,0,0.0
134059,0,0.0,135,,-0.13,0.04,1.04,1,-0,-0,1.05,1.19,88,4139,15.5,3.94,,13.51,0.89,82.6,,73.1,5,,,,,,,,,,,,0,0,0,0,0,0,0,0,0,0,0,0,0,0,0,0,,,,,0.0,,,,,,
134079,0,,,,,,,,,,,,,,,,,,,,,,,,,,,,,,,,,,0,0,0,0,0,0,0,0,0,0,0,0,0,0,0,0,,,,,,,,,,,
134099,0,0.0,135,,-0.11,0.07,1.01,1,-0,-1,1.02,1.19,86,4373,6.7,3.66,,13.0,0.913,82.6,,73.1,5,,,,,,,,,,,,0,0,0,0,0,0,0,0,0,0,0,0,0,0,0,0,,,,,0.0,,,,,,
134119,0,,,,,,,,,,,,,,,,,,,,,,,,,,,,,,,,,,0,0,0,0,0,0,0,0,0,0,0,0,0,0,0,0,,,,,,,,,,,
134139,0,0.0,135,13.61,-0.12,0.01,0.96,3,-0,-2,0.97,1.19,81,4464,0.7,2.65,15,12.36,0.954,82.6,124,75.1,5,0,9,0,0,0.0,24.0,0.0,0.0,2.26,0,0.0,0,0,0,0,0,0,0,0,0,0,0,0,0,0,0,0,0,0.0,0,0,0.0,0.0,0.0,0.0,0,0,0.0
134159,0,,,,,,,,,,,,,,,,,,,,,,,,,,,,,,,,,,0,0,0,0,0,0,0,0,0,0,0,0,0,0,0,0,,,,,,,,,,,
134179,0,0.0,135,,-0.11,-0.1,0.92,4,-0,-2,0.93,1.19,78,4459,0.0,2.42,,12.36,0.954,82.6,,75.1,5,,,,,,,,,,,,0,0,0,0,0,0,0,0,0,0,0,0,0,0,0,0,,,,,0.0,,,,,,
134199,0,,,,,,,,,,,,,,,,,,,,,,,,,,,,,,,,,,0,0,0,0,0,0,0,0,0,0,0,0,0,0,0,0,,,,,,,,,,,
134219,0,0.0,135,,-0.11,-0.28,0.84,4,-0,-3,0.89,1.19,75,4459,0.0,2.42,,11.93,0.934,82.6,,73.5,5,,,,,,,,,,,,0,0,0,0,0,0,0,0,0,0,0,0,0,0,0,0,,,,,0.0,,,,,,
134239,0,,,,,,,,,,,,,,,,,,,,,,,0,0,0,0,0.0,24.0,0.0,0.0,2.26,,,0,0,0,0,0,0,0,0,0,0,0,0,0,0,0,0,0,,,,,0.0,0.0,0.0,0,0,0.0
134259,0,0.0,135,,-0.13,-0.35,0.82,3,-0,-2,0.9,1.19,75,4379,0.0,2.4,,11.54,0.884,82.6,,73.5,5,,,,,,,,,,,,0,0,0,0,0,0,0,0,0,0,0,0,0,0,0,0,,,,,0.0,,,,,,
134279,0,,,,,,,,,,,,,,,,,,,,,,,,,,,,,,,,,,0,0,0,0,0,0,0,0,0,0,0,0,0,0,0,0,,,,,,,,,,,
134299,0,0.0,135,,-0.13,-0.28,0.89,1,-0,-1,0.94,1.19,79,4343,4.3,3.57,,11.68,0.841,82.6,,73.5,5,,,,,,,,,,,,0,0,0,0,0,0,0,0,0,0,0,0,0,0,0,0,,,,,0.0,,,,,,
134319,0,,,,,,,,,,,,,,,,,,,,,,,,,,,,,,,,,,0,0,0,0,0,0,0,0,0,0,0,0,0,0,0,0,,,,,,,,,,,
134339,0,0.0,135,,-0.11,-0.12,0.99,0,-1,-0,1.0,1.19,84,4388,11.0,3.69,,12.21,0.83,82.6,,72.4,5,0,0,0,0,0.0,0.0,0.0,0.0,2.26,,,0,0,0,0,0,0,0,0,0,0,0,0,0,0,0,0,0,,,,0.0,0.0,0.0,0.0,0,0,0.0
134359,0,,,,,,,,,,,,,,,,,,,,,,,,,,,,,,,,,,0,0,0,0,0,0,0,0,0,0,0,0,0,0,0,0,,,,,,,,,,,
134379,0,0.0,135,,-0.1,0.0,1.05,1,-1,-0,1.05,1.19,88,4412,16.4,3.99,,12.21,0.83,82.6,,72.4,5,,,,,,,,,,,,0,0,0,0,0,0,0,0,0,0,0,0,0,0,0,0,,,,,0.0,,,,,,
134399,0,,,,,,,,,,,,,,,,,,,,,,,,,,,,,,,,,,0,0,0,0,0,0,0,0,0,0,0,0,0,0,0,0,,,,,,,,,,,
134419,0,0.0,135,,-0.08,0.14,1.11,1,-1,-0,1.13,1.19,95,4412,16.4,3.99,,12.89,0.844,82.6,,74.2,5,,,,,,,,,,,,0,0,0,0,0,0,0,0,0,0,0,0,0,0,0,0,,,,,0.0,,,,,,
134439,0,,,,,,,,,,,,,,,,,,,,,,,0,0,0,0,0.0,0.0,0.0,0.0,2.26,,,0,0,0,0,0,0,0,0,0,0,0,0,0,0,0,0,0,,,,,0.0,0.0,0.0,0,0,0.0
134459,0,0.0,135,,-0.1,0.26,1.19,0,-0,0,1.22,1.22,100,4640,17.3,4.01,,13.29,0.842,82.6,,74.2,5,,,,,,,,,,,,0,0,0,0,0,0,0,0,0,0,0,0,0,0,0,0,,,,,0.0,,,,,,
134479,0,,,,,,,,,,,,,,,,,,,,,,,,,,,,,,,,,,0,0,0,0,0,0,0,0,0,0,0,0,0,0,0,0,,,,,,,,,,,
134499,0,0.0,135,,-0.1,0.13,1.1,-0,-0,1,1.11,1.22,91,4782,13.0,3.82,,13.19,0.834,82.6,,74.2,5,,,,,,,,,,,,0,0,0,0,0,0,0,0,0,0,0,0,0,0,0,0,,,,,0.0,,,,,,
134519,0,,,,,,,,,,,,,,,,,,,,,,,,,,,,,,,,,,0,0,0,0,0,0,0,0,0,0,0,0,0,0,0,0,,,,,,,,,,,
134539,0,0.0,135,,-0.11,0.16,1.14,0,-1,0,1.16,1.22,94,4894,7.3,3.53,,12.81,0.841,82.6,,75.8,5,0,0,0,0,0.0,0.0,0.0,0.0,2.26,,,0,0,0,0,0,0,0,0,0,0,0,0,0,0,0,0,0,,,,0.0,0.0,0.0,0.0,0,0,0.0
134559,0,,,,,,,,,,,,,,,,,,,,,,,,,,,,,,,,,,0,0,0,0,0,0,0,0,0,0,0,0,0,0,0,0,,,,,,,,,,,
134579,0,0.0,135,,-0.1,0.12,1.07,-0,-1,0,1.08,1.22,88,4940,3.0,3.35,,12.81,0.841,82.6,,75.8,5,,,,,,,,,,,,0,0,0,0,0,0,0,0,0,0,0,0,0,0,0,0,,,,,0.0,,,,,,
134599,0,,,,,,,,,,,,,,,,,,,,,,,,,,,,,,,,,,0,0,0,0,0,0,0,0,0,0,0,0,0,0,0,0,,,,,,,,,,,
134619,0,0.0,135,,-0.13,0.18,1.11,-1,-1,1,1.13,1.22,92,4940,3.0,3.35,,12.4,0.85,82.6,,76.9,5,,,,,,,,,,,,0,0,0,0,0,0,0,0,0,0,0,0,0,0,0,0,,,,,0.0,,,,,,
134639,0,,,,,,,,,,,,,,,,,,,,,,,0,0,0,0,0.0,0.0,0.0,0.0,2.26,,,0,0,0,0,0,0,0,0,0,0,0,0,0,0,0,0,0,,,,,0.0,0.0,0.0,0,0,0.0
134659,0,0.0,135,,-0.11,0.04,1.05,-0,-1,0,1.06,1.22,86,4941,0.7,2.58,,11.81,0.845,82.6,,76.9,5,,,,,,,,,,,,0,0,0,0,0,0,0,0,0,0,0,0,0,0,0,0,,,,,0.0,,,,,,
134679,0,,,,,,,,,,,,,,,,,,,,,,,,,,,,,,,,,,0,0,0,0,0,0,0,0,0,0,0,0,0,0,0,0,,,,,,,,,,,
134699,0,0.0,135,,-0.14,0.13,1.09,-1,-1,1,1.11,1.22,90,4880,0.8,2.61,,11.48,0.823,82.6,,76.9,5,,,,,,,,,,,,0,0,0,0,0,0,0,0,0,0,0,0,0,0,0,0,,,,,0.0,,,,,,
134719,0,,,,,,,,,,,,,,,,,,,,,,,,,,,,,,,,,,0,0,0,0,0,0,0,0,0,0,0,0,0,0,0,0,,,,,,,,,,,
134739,0,0.0,135,,-0.12,-0.0,0.99,-1,-1,1,1.0,1.22,82,4779,5.9,3.54,,11.61,0.804,82.6,,74.3,5,0,0,0,0,0.0,0.0,0.0,0.0,2.26,,,0,0,0,0,0,0,0,0,0,0,0,0,0,0,0,0,0,,,,0.0,0.0,0.0,0.0,0,0,0.0
134759,0,,,,,,,,,,,,,,,,,,,,,,,,,,,,,,,,,,0,0,0,0,0,0,0,0,0,0,0,0,0,0,0,0,,,,,,,,,,,
134779,0,0.0,135,,-0.11,-0.0,1.02,0,-1,-0,1.02,1.22,84,4751,12.5,3.75,,11.61,0.804,82.6,,74.3,5,,,,,,,,,,,,0,0,0,0,0,0,0,0,0,0,0,0,0,0,0,0,,,,,0.0,,,,,,
134799,0,,,,,,,,,,,,,,,,,,,,,,,,,,,,,,,,,,0,0,0,0,0,0,0,0,0,0,0,0,0,0,0,0,,,,,,,,,,,
134819,0,0.0,135,,-0.14,0.17,1.07,-0,-1,0,1.09,1.22,89,4751,12.5,3.75,,12.2,0.796,82.6,,72.7,5,,,,,,,,,,,,0,0,0,0,0,0,0,0,0,0,0,0,0,0,0,0,,,,,0.0,,,,,,
134839,0,,,,,,,,,,,,,,,,,,,,,,,0,0,0,0,0.0,0.0,0.0,0.0,2.26,,,0,0,0,0,0,0,0,0,0,0,0,0,0,0,0,0,0,,,,,0.0,0.0,0.0,0,0,0.0
134859,0,0.0,135,,-0.12,0.03,0.98,-1,-1,0,0.99,1.22,81,4769,15.0,3.94,,12.77,0.793,82.6,,72.7,5,,,,,,,,,,,,0,0,0,0,0,0,0,0,0,0,0,0,0,0,0,0,,,,,0.0,,,,,,
134879,0,,,,,,,,,,,,,,,,,,,,,,,,,,,,,,,,,,0,0,0,0,0,0,0,0,0,0,0,0,0,0,0,0,,,,,,,,,,,
134899,0,0.0,135,,-0.13,0.14,1.05,-0,-1,0,1.07,1.22,87,4857,15.2,3.95,,13.07,0.79,82.6,,72.7,5,,,,,,,,,,,,0,0,0,0,0,0,0,0,0,0,0,0,0,0,0,0,,,,,0.0,,,,,,
134919,0,,,,,,,,,,,,,,,,,,,,,,,,,,,,,,,,,,0,0,0,0,0,0,0,0,0,0,0,0,0,0,0,0,,,,,,,,,,,
134939,0,0.0,135,,-0.11,0.1,1.01,-0,-1,0,1.02,1.22,83,4966,10.2,3.59,,12.83,0.801,82.6,,75.4,5,0,0,0,0,0.0,0.0,0.0,0.0,2.26,,,0,0,0,0,0,0,0,0,0,0,0,0,0,0,0,0,0,,,,0.0,0.0,0.0,0.0,0,0,0.0
134959,0,,,,,,,,,,,,,,,,,,,,,,,,,,,,,,,,,,0,0,0,0,0,0,0,0,0,0,0,0,0,0,0,0,,,,,,,,,,,
134979,0,0.0,135,,-0.12,0.08,0.98,-1,-1,0,0.99,1.22,81,5040,5.9,3.55,,12.83,0.801,82.6,,75.4,5,,,,,,,,,,,,0,0,0,0,0,0,0,0,0,0,0,0,0,0,0,0,,,,,0.0,,,,,,
134999,0,,,,,,,,,,,,,,,,,,,,,,,,,,,,,,,,,,0,0,0,0,0,0,0,0,0,0,0,0,0,0,0,0,,,,,,,,,,,
135019,0,0.0,135,,-0.13,0.08,1.01,-0,-1,0,1.02,1.22,83,5040,5.9,3.55,,12.39,0.82,82.6,,77.9,5,,,,,,,,,,,,0,0,0,0,0,0,0,0,0,0,0,0,0,0,0,0,,,,,0.0,,,,,,
135039,0,,,,,,,,,,,,,,,,,,,,,,,0,0,0,0,0.0,0.0,0.0,0.0,2.26,,,0,0,0,0,0,0,0,0,0,0,0,0,0,0,0,0,0,,,,,0.0,0.0,0.0,0,0,0.0
135059,0,0.0,135,,-0.12,0.11,1.04,-1,-1,0,1.05,1.22,86,5105,2.6,3.19,,11.97,0.831,82.6,,77.9,5,,,,,,,,,,,,0,0,0,0,0,0,0,0,0,0,0,0,0,0,0,0,,,,,0.0,,,,,,
135079,0,,,,,,,,,,,,,,,,,,,,,,,,,,,,,,,,,,0,0,0,0,0,0,0,0,0,0,0,0,0,0,0,0,,,,,,,,,,,
135099,0,0.0,135,,-0.1,0.0,0.95,-1,-1,0,0.96,1.22,78,5053,2.7,3.21,,11.68,0.818,82.6,,77.9,5,,,,,,,,,,,,0,0,0,0,0,0,0,0,0,0,0,0,0,0,0,0,,,,,0.0,,,,,,
135119,0,,,,,,,,,,,,,,,,,,,,,,,,,,,,,,,,,,0,0,0,0,0,0,0,0,0,0,0,0,0,0,0,0,,,,,,,,,,,
135139,0,0.0,135,13.66,-0.12,0.03,0.98,-1,-1,0,0.99,1.22,81,4998,10.2,3.58,15,12.05,0.796,82.6,124,75.3,5,0,0,0,0,0.0,0.0,0.0,0.0,2.26,0,0.0,0,0,0,0,0,0,0,0,0,0,0,0,0,0,0,0,0,0.0,0,-0,0.0,0.0,0.0,0.0,0,0,0.0
135159,0,,,,,,,,,,,,,,,,,,,,,,,,,,,,,,,,,,0,0,0,0,0,0,0,0,0,0,0,0,0,0,0,0,,,,,,,,,,,
135179,0,0.0,135,,-0.09,0.07,1.03,-2,-1,1,1.04,1.22,85,5014,14.1,3.9,,12.05,0.796,82.6,,75.3,5,,,,,,,,,,,,0,0,0,0,0,0,0,0,0,0,0,0,0,0,0,0,,,,,0.0,,,,,,
135199,0,,,,,,,,,,,,,,,,,,,,,,,,,,,,,,,,,,0,0,0,0,0,0,0,0,0,0,0,0,0,0,0,0,,,,,,,,,,,
135219,0,0.0,135,,-0.09,0.03,1.0,-1,-1,0,1.01,1.22,82,5014,14.1,3.9,,12.51,0.777,82.6,,75.8,5,,,,,,,,,,,,0,0,0,0,0,0,0,0,0,0,0,0,0,0,0,0,,,,,0.0,,,,,,
135239,0,,,,,,,,,,,,,,,,,,,,,,,0,0,0,0,0.0,0.0,0.0,0.0,2.26,,,0,0,0,0,0,0,0,0,0,0,0,0,0,0,0,0,0,,,,,0.0,0.0,0.0,0,0,0.0
135259,0,0.0,135,,-0.1,0.03,0.99,-1,-0,0,0.99,1.22,81,5102,15.2,4.03,,12.81,0.77,82.6,,75.8,5,,,,,,,,,,,,0,0,0,0,0,0,0,0,0,0,0,0,0,0,0,0,,,,,0.0,,,,,,
135279,0,,,,,,,,,,,,,,,,,,,,,,,,,,,,,,,,,,0,0,0,0,0,0,0,0,0,0,0,0,0,0,0,0,,,,,,,,,,,
135299,0,0.0,135,,-0.1,-0.0,1.01,-2,-0,1,1.01,1.22,83,5284,14.3,3.96,,12.83,0.774,82.6,,75.8,5,,,,,,,,,,,,0,0,0,0,0,0,0,0,0,0,0,0,0,0,0,0,,,,,0.0,,,,,,
135319,0,,,,,,,,,,,,,,,,,,,,,,,,,,,,,,,,,,0,0,0,0,0,0,0,0,0,0,0,0,0,0,0,0,,,,,,,,,,,
135339,0,0.0,135,,-0.12,-0.02,1.0,-2,-0,1,1.0,1.22,82,5440,9.1,3.71,,12.44,0.785,82.6,,78.1,5,0,0,0,0,0.0,0.0,0.0,0.0,2.26,,,0,0,0,0,0,0,0,0,0,0,0,0,0,0,0,0,0,,,,0.0,0.0,0.0,0.0,0,0,0.0
135359,0,,,,,,,,,,,,,,,,,,,,,,,,,,,,,,,,,,0,0,0,0,0,0,0,0,0,0,0,0,0,0,0,0,,,,,,,,,,,
135379,0,0.0,135,,-0.08,-0.06,0.93,-1,-0,0,0.94,1.22,77,5597,6.2,3.74,,12.44,0.785,82.6,,78.1,5,,,,,,,,,,,,0,0,0,0,0,0,0,0,0,0,0,0,0,0,0,0,,,,,0.0,,,,,,
135399,0,,,,,,,,,,,,,,,,,,,,,,,,,,,,,,,,,,0,0,0,0,0,0,0,0,0,0,0,0,0,0,0,0,,,,,,,,,,,
135419,0,0.0,135,,-0.12,0.0,0.92,-2,-0,1,0.93,1.22,76,5597,6.2,3.74,,11.87,0.794,82.6,,79.1,5,,,,,,,,,,,,0,0,0,0,0,0,0,0,0,0,0,0,0,0,0,0,,,,,0.0,,,,,,
135439,0,,,,,,,,,,,,,,,,,,,,,,,0,0,0,0,0.0,0.0,0.0,0.0,2.26,,,0,0,0,0,0,0,0,0,0,0,0,0,0,0,0,0,0,,,,,0.0,0.0,0.0,0,0,0.0
135459,0,0.0,135,,-0.17,0.18,0.97,-3,-0,1,1.0,1.22,82,5860,4.3,3.73,,11.16,0.801,82.6,,79.1,5,,,,,,,,,,,,0,0,0,0,0,0,0,0,0,0,0,0,0,0,0,0,,,,,0.0,,,,,,
135479,0,,,,,,,,,,,,,,,,,,,,,,,,,,,,,,,,,,0,0,0,0,0,0,0,0,0,0,0,0,0,0,0,0,,,,,,,,,,,
135499,0,0.0,135,,-0.21,0.21,0.96,-3,-0,1,1.0,1.22,82,6095,4.4,3.16,,10.62,0.797,82.6,,79.1,5,,,,,,,,,,,,0,0,0,0,0,0,0,0,0,0,0,0,0,0,0,0,,,,,0.0,,,,,,
135519,0,,,,,,,,,,,,,,,,,,,,,,,,,,,,,,,,,,0,0,0,0,0,0,0,0,0,0,0,0,0,0,0,0,,,,,,,,,,,
135539,0,0.0,135,,-0.18,0.13,0.93,-3,-0,0,0.96,1.22,78,6311,8.8,3.08,,10.5,0.789,82.6,,76.7,5,0,0,0,0,0.0,0.0,0.0,0.0,2.26,,,0,0,0,0,0,0,0,0,0,0,0,0,0,0,0,0,0,,,,0.0,0.0,0.0,0.0,0,0,0.0
135559,0,,,,,,,,,,,,,,,,,,,,,,,,,,,,,,,,,,0,0,0,0,0,0,0,0,0,0,0,0,0,0,0,0,,,,,,,,,,,
135579,0,0.0,135,,-0.17,0.09,0.93,-2,-0,0,0.95,1.22,78,6508,13.3,3.36,,10.5,0.789,82.6,,76.7,5,,,,,,,,,,,,0,0,0,0,0,0,0,0,0,0,0,0,0,0,0,0,,,,,0.0,,,,,,
135599,0,,,,,,,,,,,,,,,,,,,,,,,,,,,,,,,,,,0,0,0,0,0,0,0,0,0,0,0,0,0,0,0,0,,,,,,,,,,,
135619,0,0.0,135,,-0.17,-0.05,0.93,-2,-0,0,0.95,1.22,78,6508,13.3,3.36,,10.6,0.778,82.6,,78.1,5,,,,,,,,,,,,0,0,0,0,0,0,0,0,0,0,0,0,0,0,0,0,,,,,0.0,,,,,,
135639,0,,,,,,,,,,,,,,,,,,,,,,,0,0,0,0,0.0,0.0,0.0,0.0,2.26,,,0,0,0,0,0,0,0,0,0,0,0,0,0,0,0,0,0,,,,,0.0,0.0,0.0,0,0,0.0
135659,0,0.0,135,,-0.16,-0.03,0.95,-1,-0,0,0.96,1.22,79,6725,14.9,3.96,,10.78,0.796,82.6,,78.1,5,,,,,,,,,,,,0,0,0,0,0,0,0,0,0,0,0,0,0,0,0,0,,,,,0.0,,,,,,
135679,0,,,,,,,,,,,,,,,,,,,,,,,,,,,,,,,,,,0,0,0,0,0,0,0,0,0,0,0,0,0,0,0,0,,,,,,,,,,,
135699,0,0.0,135,,-0.15,0.12,0.99,-3,-0,1,1.01,1.22,82,7041,13.1,3.72,,10.41,0.84,82.6,,78.1,5,,,,,,,,,,,,0,0,0,0,0,0,0,0,0,0,0,0,0,0,0,0,,,,,0.0,,,,,,
135719,0,,,,,,,,,,,,,,,,,,,,,,,,,,,,,,,,,,0,0,0,0,0,0,0,0,0,0,0,0,0,0,0,0,,,,,,,,,,,
135739,0,0.0,135,,-0.16,0.09,0.98,-0,-0,-0,0.99,1.22,81,7366,5.2,2.93,,9.45,0.858,82.6,,78.4,5,0,0,0,0,0.0,0.0,0.0,0.0,2.26,,,0,0,0,0,0,0,0,0,0,0,0,0,0,0,0,0,0,,,,0.0,0.0,0.0,0.0,0,0,0.0
135759,0,,,,,,,,,,,,,,,,,,,,,,,,,,,,,,,,,,0,0,0,0,0,0,0,0,0,0,0,0,0,0,0,0,,,,,,,,,,,
135779,0,0.0,135,,-0.21,0.02,0.98,2,-0,-1,1.0,1.22,82,7666,0.0,1.4,,9.45,0.858,82.6,,78.4,5,,,,,,,,,,,,0,0,0,0,0,0,0,0,0,0,0,0,0,0,0,0,,,,,0.0,,,,,,
135799,0,,,,,,,,,,,,,,,,,,,,,,,,,,,,,,,,,,0,0,0,0,0,0,0,0,0,0,0,0,0,0,0,0,,,,,,,,,,,
135819,0,0.0,135,,-0.18,0.18,0.96,-1,-0,0,0.99,1.22,81,7666,0.0,1.4,,8.43,0.831,82.6,,77.2,5,,,,,,,,,,,,0,0,0,0,0,0,0,0,0,0,0,0,0,0,0,0,,,,,0.0,,,,,,
135839,0,,,,,,,,,,,,,,,,,,,,,,,0,0,0,0,0.0,0.0,0.0,0.0,2.27,,,0,0,0,0,0,0,0,0,0,0,0,0,0,0,0,0,0,,,,,0.0,0.0,0.0,0,0,0.0
135859,0,0.0,135,,-0.15,0.13,0.98,-1,0,0,1.0,1.22,82,7798,0.0,1.4,,7.61,0.786,82.6,,77.2,5,,,,,,,,,,,,0,0,0,0,0,0,0,0,0,0,0,0,0,0,0,0,,,,,0.0,,,,,,
135879,0,,,,,,,,,,,,,,,,,,,,,,,,,,,,,,,,,,0,0,0,0,0,0,0,0,0,0,0,0,0,0,0,0,,,,,,,,,,,
135899,0,0.0,135,,-0.16,0.35,0.97,-1,0,0,1.04,1.22,85,7843,0.0,1.4,,7.26,0.792,82.6,,77.2,5,,,,,,,,,,,,0,0,0,0,0,0,0,0,0,0,0,0,0,0,0,0,,,,,0.0,,,,,,
135919,0,,,,,,,,,,,,,,,,,,,,,,,,,,,,,,,,,,0,0,0,0,0,0,0,0,0,0,0,0,0,0,0,0,,,,,,,,,,,
135939,0,0.0,135,,-0.14,0.11,0.97,0,0,-0,0.99,1.22,81,7834,0.0,1.4,,6.78,0.814,82.6,,75.7,5,0,0,0,0,0.0,0.0,0.0,0.0,2.26,,,0,0,0,0,0,0,0,0,0,0,0,0,0,0,0,0,0,,,,0.0,0.0,0.0,0.0,0,0,0.0
135959,0,,,,,,,,,,,,,,,,,,,,,,,,,,,,,,,,,,0,0,0,0,0,0,0,0,0,0,0,0,0,0,0,0,,,,,,,,,,,
135979,0,0.0,135,,-0.18,0.13,0.98,2,0,-1,1.0,1.22,82,7731,0.0,1.4,,6.78,0.814,82.6,,75.7,5,,,,,,,,,,,,0,0,0,0,0,0,0,0,0,0,0,0,0,0,0,0,,,,,0.0,,,,,,
135999,0,,,,,,,,,,,,,,,,,,,,,,,,,,,,,,,,,,0,0,0,0,0,0,0,0,0,0,0,0,0,0,0,0,,,,,,,,,,,
136019,0,0.0,135,,-0.16,0.24,0.96,-1,0,0,1.0,1.22,82,7731,0.0,1.4,,6.62,0.822,82.6,,75.7,5,,,,,,,,,,,,0,0,0,0,0,0,0,0,0,0,0,0,0,0,0,0,,,,,0.0,,,,,,
136039,0,,,,,,,,,,,,,,,,,,,,,,,0,0,0,0,0.0,0.0,0.0,0.0,2.26,,,0,0,0,0,0,0,0,0,0,0,0,0,0,0,0,0,0,,,,,0.0,0.0,0.0,0,0,0.0
136059,0,0.0,135,,-0.14,0.43,0.95,-3,0,1,1.05,1.22,86,7614,0.0,1.4,,6.36,0.825,82.6,,75.7,5,,,,,,,,,,,,0,0,0,0,0,0,0,0,0,0,0,0,0,0,0,0,,,,,0.0,,,,,,
136079,0,,,,,,,,,,,,,,,,,,,,,,,,,,,,,,,,,,0,0,0,0,0,0,0,0,0,0,0,0,0,0,0,0,,,,,,,,,,,
136099,0,0.0,135,,-0.13,0.55,0.96,-4,0,1,1.11,1.22,91,7360,0.0,1.4,,6.28,0.844,82.6,,75.7,5,,,,,,,,,,,,0,0,0,0,0,0,0,0,0,0,0,0,0,0,0,0,,,,,0.0,,,,,,
136119,0,,,,,,,,,,,,,,,,,,,,,,,,,,,,,,,,,,0,0,0,0,0,0,0,0,0,0,0,0,0,0,0,0,,,,,,,,,,,
136139,0,0.0,135,13.62,-0.15,0.39,0.94,-2,0,0,1.03,1.22,84,7146,0.1,1.4,15,6.43,0.862,82.6,124,71.5,5,0,0,0,0,0.0,0.0,0.0,0.0,2.26,0,0.0,0,0,0,0,0,0,0,0,0,0,0,0,0,0,0,0,0,0.0,0,-0,0.0,0.0,0.0,0.0,0,0,0.0
136159,0,,,,,,,,,,,,,,,,,,,,,,,,,,,,,,,,,,0,0,0,0,0,0,0,0,0,0,0,0,0,0,0,0,,,,,,,,,,,
136179,0,0.0,135,,-0.14,0.35,0.93,-1,0,-0,1.01,1.22,82,6813,4.8,2.0,,6.43,0.862,82.6,,71.5,5,,,,,,,,,,,,0,0,0,0,0,0,0,0,0,0,0,0,0,0,0,0,,,,,0.0,,,,,,
136199,0,,,,,,,,,,,,,,,,,,,,,,,,,,,,,,,,,,0,0,0,0,0,0,0,0,0,0,0,0,0,0,0,0,,,,,,,,,,,
136219,0,0.0,135,,-0.15,0.29,0.92,-1,0,-0,0.98,1.22,80,6813,4.8,2.0,,6.99,0.889,82.6,,64.2,5,,,,,,,,,,,,0,0,0,0,0,0,0,0,0,0,0,0,0,0,0,0,,,,,0.0,,,,,,
136239,0,,,,,,,,,,,,,,,,,,,,,,,0,0,0,0,0.0,0.0,0.0,0.0,2.26,,,0,0,0,0,0,0,0,0,0,0,0,0,0,0,0,0,0,,,,,0.0,0.0,0.0,0,0,0.0
136259,0,0.0,135,,-0.12,0.29,0.97,-2,0,0,1.02,1.22,83,6564,9.2,2.44,,7.95,0.909,82.6,,64.2,5,,,,,,,,,,,,0,0,0,0,0,0,0,0,0,0,0,0,0,0,0,0,,,,,0.0,,,,,,
136279,0,,,,,,,,,,,,,,,,,,,,,,,,,,,,,,,,,,0,0,0,0,0,0,0,0,0,0,0,0,0,0,0,0,,,,,,,,,,,
136299,0,0.0,135,,-0.15,0.25,0.95,-2,0,0,0.99,1.22,81,6416,10.1,2.66,,8.74,0.923,82.6,,64.2,5,,,,,,,,,,,,0,0,0,0,0,0,0,0,0,0,0,0,0,0,0,0,,,,,0.0,,,,,,
136319,0,,,,,,,,,,,,,,,,,,,,,,,,,,,,,,,,,,0,0,0,0,0,0,0,0,0,0,0,0,0,0,0,0,,,,,,,,,,,
136339,0,0.0,135,,-0.13,0.22,1.04,-2,0,-0,1.07,1.22,87,6284,9.4,2.78,,9.34,0.924,82.6,,59.7,5,0,0,0,0,0.0,0.0,0.0,0.0,2.26,,,0,0,0,0,0,0,0,0,0,0,0,0,0,0,0,0,0,,,,0.0,0.0,0.0,0.0,0,0,0.0
136359,0,,,,,,,,,,,,,,,,,,,,,,,,,,,,,,,,,,0,0,0,0,0,0,0,0,0,0,0,0,0,0,0,0,,,,,,,,,,,
136379,0,0.0,135,,-0.18,0.28,1.08,-2,0,0,1.13,1.22,93,6184,4.4,2.56,,9.34,0.924,82.6,,59.7,5,,,,,,,,,,,,0,0,0,0,0,0,0,0,0,0,0,0,0,0,0,0,,,,,0.0,,,,,,
136399,0,,,,,,,,,,,,,,,,,,,,,,,,,,,,,,,,,,0,0,0,0,0,0,0,0,0,0,0,0,0,0,0,0,,,,,,,,,,,
136419,0,0.0,135,,-0.22,0.27,1.02,-2,0,0,1.08,1.22,89,6184,4.4,2.56,,9.31,0.934,82.6,,60.2,5,,,,,,,,,,,,0,0,0,0,0,0,0,0,0,0,0,0,0,0,0,0,,,,,0.0,,,,,,
136439,0,,,,,,,,,,,,,,,,,,,,,,,0,0,0,0,0.0,0.0,0.0,0.0,2.26,,,0,0,0,0,0,0,0,0,0,0,0,0,0,0,0,0,0,,,,,0.0,0.0,0.0,0,0,0.0
136459,0,0.0,135,,-0.24,0.22,0.94,-2,0,0,0.99,1.22,81,6129,1.8,1.58,,9.13,0.952,82.6,,60.2,5,,,,,,,,,,,,0,0,0,0,0,0,0,0,0,0,0,0,0,0,0,0,,,,,0.0,,,,,,
136479,0,,,,,,,,,,,,,,,,,,,,,,,,,,,,,,,,,,0,0,0,0,0,0,0,0,0,0,0,0,0,0,0,0,,,,,,,,,,,
136499,0,0.0,135,,-0.29,0.3,0.93,-2,0,0,1.02,1.22,84,5880,1.3,1.45,,9.06,0.962,82.6,,60.2,5,,,,,,,,,,,,0,0,0,0,0,0,0,0,0,0,0,0,0,0,0,0,,,,,0.0,,,,,,
136519,0,,,,,,,,,,,,,,,,,,,,,,,,,,,,,,,,,,0,0,0,0,0,0,0,0,0,0,0,0,0,0,0,0,,,,,,,,,,,
136539,0,0.0,135,,-0.26,0.24,0.93,-1,0,-0,0.99,1.22,81,5573,1.6,1.56,,9.27,0.964,82.6,,58.4,5,0,0,0,0,0.0,0.0,0.0,0.0,2.26,,,0,0,0,0,0,0,0,0,0,0,0,0,0,0,0,0,0,,,,0.0,0.0,0.0,0.0,0,0,0.0
136559,0,,,,,,,,,,,,,,,,,,,,,,,,,,,,,,,,,,0,0,0,0,0,0,0,0,0,0,0,0,0,0,0,0,,,,,,,,,,,
136579,0,0.0,135,,-0.25,0.19,0.95,-1,0,-0,1.0,1.22,81,5170,6.0,2.46,,9.27,0.964,82.6,,58.4,5,,,,,,,,,,,,0,0,0,0,0,0,0,0,0,0,0,0,0,0,0,0,,,,,0.0,,,,,,
136599,0,,,,,,,,,,,,,,,,,,,,,,,,,,,,,,,,,,0,0,0,0,0,0,0,0,0,0,0,0,0,0,0,0,,,,,,,,,,,
136619,0,0.0,135,,-0.26,0.2,0.98,-1,0,-0,1.04,1.22,85,5170,6.0,2.46,,9.92,0.985,82.6,,57.3,5,,,,,,,,,,,,0,0,0,0,0,0,0,0,0,0,0,0,0,0,0,0,,,,,0.0,,,,,,
136639,0,,,,,,,,,,,,,,,,,,,,,,,0,0,0,0,0.0,0.0,0.0,0.0,2.26,,,0,0,0,0,0,0,0,0,0,0,0,0,0,0,0,0,0,,,,,0.0,0.0,0.0,0,0,0.0
136659,0,0.0,135,,-0.22,0.06,0.95,-1,0,-1,0.97,1.22,80,5030,10.6,2.66,,10.82,1.063,82.6,,57.3,5,,,,,,,,,,,,0,0,0,0,0,0,0,0,0,0,0,0,0,0,0,0,,,,,0.0,,,,,,
136679,0,,,,,,,,,,,,,,,,,,,,,,,,,,,,,,,,,,0,0,0,0,0,0,0,0,0,0,0,0,0,0,0,0,,,,,,,,,,,
136699,0,0.0,135,,-0.23,0.15,1.01,-1,0,-0,1.05,1.22,86,4824,11.8,3.61,,11.52,1.148,82.6,,57.3,5,,,,,,,,,,,,0,0,0,0,0,0,0,0,0,0,0,0,0,0,0,0,,,,,0.0,,,,,,
136719,0,,,,,,,,,,,,,,,,,,,,,,,,,,,,,,,,,,0,0,0,0,0,0,0,0,0,0,0,0,0,0,0,0,,,,,,,,,,,
136739,0,0.0,135,,-0.2,0.02,0.93,-2,0,-0,0.96,1.22,78,4805,10.0,3.54,,11.93,1.102,82.6,,56.9,5,0,0,0,0,0.0,0.0,0.0,0.0,2.26,,,0,0,0,0,0,0,0,0,0,0,0,0,0,0,0,0,0,,,,0.0,0.0,0.0,0.0,0,0,0.0
136759,0,,,,,,,,,,,,,,,,,,,,,,,,,,,,,,,,,,0,0,0,0,0,0,0,0,0,0,0,0,0,0,0,0,,,,,,,,,,,
136779,0,0.0,135,,-0.18,0.08,1.01,-1,0,-1,1.03,1.22,84,4769,5.1,3.58,,11.93,1.102,82.6,,56.9,5,,,,,,,,,,,,0,0,0,0,0,0,0,0,0,0,0,0,0,0,0,0,,,,,0.0,,,,,,
136799,0,,,,,,,,,,,,,,,,,,,,,,,,,,,,,,,,,,0,0,0,0,0,0,0,0,0,0,0,0,0,0,0,0,,,,,,,,,,,
136819,0,0.0,135,,-0.2,0.13,1.01,-2,-0,0,1.04,1.22,85,4769,5.1,3.58,,11.87,1.037,82.6,,57.6,5,,,,,,,,,,,,0,0,0,0,0,0,0,0,0,0,0,0,0,0,0,0,,,,,0.0,,,,,,
136839,0,,,,,,,,,,,,,,,,,,,,,,,0,0,0,0,0.0,0.0,0.0,0.0,2.26,,,0,0,0,0,0,0,0,0,0,0,0,0,0,0,0,0,0,,,,,0.0,0.0,0.0,0,0,0.0
136859,0,0.0,135,,-0.18,-0.07,0.92,-2,-0,0,0.94,1.22,77,4703,0.9,2.65,,11.5,1.006,82.6,,57.6,5,,,,,,,,,,,,0,0,0,0,0,0,0,0,0,0,0,0,0,0,0,0,,,,,0.0,,,,,,
136879,0,,,,,,,,,,,,,,,,,,,,,,,,,,,,,,,,,,0,0,0,0,0,0,0,0,0,0,0,0,0,0,0,0,,,,,,,,,,,
136899,0,0.0,135,,-0.14,-0.19,0.87,-1,-0,-1,0.91,1.22,74,4619,0.0,2.36,,11.28,0.977,82.6,,57.6,5,,,,,,,,,,,,0,0,0,0,0,0,0,0,0,0,0,0,0,0,0,0,,,,,0.0,,,,,,
136919,0,,,,,,,,,,,,,,,,,,,,,,,,,,,,,,,,,,0,0,0,0,0,0,0,0,0,0,0,0,0,0,0,0,,,,,,,,,,,
136939,0,0.0,135,,-0.14,-0.34,0.79,0,-0,-2,0.88,1.22,72,4492,0.0,2.36,,11.01,0.947,82.6,,55.9,5,0,0,0,0,0.0,0.0,0.0,0.0,2.27,,,0,0,0,0,0,0,0,0,0,0,0,0,0,0,0,0,0,,,,0.0,0.0,0.0,0.0,0,0,0.0
136959,0,,,,,,,,,,,,,,,,,,,,,,,,,,,,,,,,,,0,0,0,0,0,0,0,0,0,0,0,0,0,0,0,0,,,,,,,,,,,
136979,0,0.0,135,,-0.16,-0.4,0.78,1,-0,-2,0.89,1.22,73,4353,2.4,2.72,,11.01,0.947,82.6,,55.9,5,,,,,,,,,,,,0,0,0,0,0,0,0,0,0,0,0,0,0,0,0,0,,,,,0.0,,,,,,
136999,0,,,,,,,,,,,,,,,,,,,,,,,,,,,,,,,,,,0,0,0,0,0,0,0,0,0,0,0,0,0,0,0,0,,,,,,,,,,,
137019,0,0.0,135,,-0.14,-0.27,0.86,-0,-0,-1,0.92,1.22,75,4353,2.4,2.72,,11.09,0.934,82.6,,55.3,5,,,,,,,,,,,,0,0,0,0,0,0,0,0,0,0,0,0,0,0,0,0,,,,,0.0,,,,,,
137039,0,,,,,,,,,,,,,,,,,,,,,,,0,0,0,0,0.0,0.0,0.0,0.0,2.26,,,0,0,0,0,0,0,0,0,0,0,0,0,0,0,0,0,0,,,,,0.0,0.0,0.0,0,0,0.0
137059,0,0.0,135,,-0.13,-0.23,0.86,0,-0,-1,0.9,1.22,74,4236,7.6,3.57,,11.6,0.966,82.6,,55.3,5,,,,,,,,,,,,0,0,0,0,0,0,0,0,0,0,0,0,0,0,0,0,,,,,0.0,,,,,,
137079,0,,,,,,,,,,,,,,,,,,,,,,,,,,,,,,,,,,0,0,0,0,0,0,0,0,0,0,0,0,0,0,0,0,,,,,,,,,,,
137099,0,0.0,135,,-0.16,-0.36,0.82,1,-0,-2,0.91,1.22,74,4262,10.4,3.67,,12.12,1.006,82.6,,55.3,5,,,,,,,,,,,,0,0,0,0,0,0,0,0,0,0,0,0,0,0,0,0,,,,,0.0,,,,,,
137119,0,,,,,,,,,,,,,,,,,,,,,,,,,,,,,,,,,,0,0,0,0,0,0,0,0,0,0,0,0,0,0,0,0,,,,,,,,,,,
137139,0,0.0,135,13.65,-0.16,-0.27,0.87,0,-0,-1,0.92,1.22,75,4296,9.8,3.68,15,12.35,1.011,82.6,126,56.4,5,0,0,0,0,0.0,0.0,0.0,0.0,2.26,0,0.0,0,0,0,0,0,0,0,0,0,0,0,0,0,0,0,0,0,0.0,0,-0,0.0,0.0,0.0,0.0,0,0,0.0
137159,0,,,,,,,,,,,,,,,,,,,,,,,,,,,,,,,,,,0,0,0,0,0,0,0,0,0,0,0,0,0,0,0,0,,,,,,,,,,,
137179,0,0.0,135,,-0.14,-0.13,0.95,-0,-0,-0,0.97,1.22,79,4286,5.6,3.6,,12.35,1.011,82.6,,56.4,5,,,,,,,,,,,,0,0,0,0,0,0,0,0,0,0,0,0,0,0,0,0,,,,,0.0,,,,,,
137199,0,,,,,,,,,,,,,,,,,,,,,,,,,,,,,,,,,,0,0,0,0,0,0,0,0,0,0,0,0,0,0,0,0,,,,,,,,,,,
137219,0,0.0,135,,-0.13,-0.16,0.91,1,-0,-1,0.94,1.22,77,4286,5.6,3.6,,12.33,0.995,82.6,,57.1,5,,,,,,,,,,,,0,0,0,0,0,0,0,0,0,0,0,0,0,0,0,0,,,,,0.0,,,,,,
137239,0,,,,,,,,,,,,,,,,,,,,,,,0,0,0,0,0.0,0.0,0.0,0.0,2.26,,,0,0,0,0,0,0,0,0,0,0,0,0,0,0,0,0,0,,,,,0.0,0.0,0.0,0,0,0.0
137259,0,0.0,135,,-0.14,-0.26,0.87,2,-0,-2,0.92,1.22,75,4352,2.5,3.14,,12.01,1.004,82.6,,57.1,5,,,,,,,,,,,,0,0,0,0,0,0,0,0,0,0,0,0,0,0,0,0,,,,,0.0,,,,,,
137279,0,,,,,,,,,,,,,,,,,,,,,,,,,,,,,,,,,,0,0,0,0,0,0,0,0,0,0,0,0,0,0,0,0,,,,,,,,,,,
137299,0,0.0,135,,-0.14,-0.17,0.92,1,-0,-1,0.95,1.22,77,4271,2.0,2.98,,11.81,1.011,82.6,,57.1,5,,,,,,,,,,,,0,0,0,0,0,0,0,0,0,0,0,0,0,0,0,0,,,,,0.0,,,,,,
137319,0,,,,,,,,,,,,,,,,,,,,,,,,,,,,,,,,,,0,0,0,0,0,0,0,0,0,0,0,0,0,0,0,0,,,,,,,,,,,
137339,0,0.0,135,,-0.16,-0.23,0.87,2,-0,-2,0.91,1.22,75,4067,4.1,3.39,,11.8,0.997,82.6,,56.8,5,0,0,0,0,0.0,0.0,0.0,0.0,2.26,,,0,0,0,0,0,0,0,0,0,0,0,0,0,0,0,0,0,,,,0.0,0.0,0.0,0.0,0,0,0.0
137359,0,,,,,,,,,,,,,,,,,,,,,,,,,,,,,,,,,,0,0,0,0,0,0,0,0,0,0,0,0,0,0,0,0,,,,,,,,,,,
137379,0,0.0,135,,-0.15,-0.11,0.94,1,-0,-1,0.96,1.22,79,4133,7.3,3.61,,11.8,0.997,82.6,,56.8,5,,,,,,,,,,,,0,0,0,0,0,0,0,0,0,0,0,0,0,0,0,0,,,,,0.0,,,,,,
137399,0,,,,,,,,,,,,,,,,,,,,,,,,,,,,,,,,,,0,0,0,0,0,0,0,0,0,0,0,0,0,0,0,0,,,,,,,,,,,
137419,0,0.0,135,,-0.15,-0.18,0.89,2,-0,-2,0.92,1.22,75,4133,7.3,3.61,,12.07,1.013,82.6,,56.4,5,,,,,,,,,,,,0,0,0,0,0,0,0,0,0,0,0,0,0,0,0,0,,,,,0.0,,,,,,
137439,0,,,,,,,,,,,,,,,,,,,,,,,0,0,0,0,0.0,0.0,0.0,0.0,2.26,,,0,0,0,0,0,0,0,0,0,0,0,0,0,0,0,0,0,,,,,0.0,0.0,0.0,0,0,0.0
137459,0,0.0,135,,-0.16,-0.18,0.93,1,-0,-1,0.96,1.22,79,4169,8.3,3.66,,12.32,1.037,82.6,,56.4,5,,,,,,,,,,,,0,0,0,0,0,0,0,0,0,0,0,0,0,0,0,0,,,,,0.0,,,,,,
137479,0,,,,,,,,,,,,,,,,,,,,,,,,,,,,,,,,,,0,0,0,0,0,0,0,0,0,0,0,0,0,0,0,0,,,,,,,,,,,
137499,0,0.0,135,,-0.12,-0.01,1.0,1,-0,-0,1.0,1.22,82,4256,7.4,3.63,,12.36,0.998,82.6,,56.4,5,,,,,,,,,,,,0,0,0,0,0,0,0,0,0,0,0,0,0,0,0,0,,,,,0.0,,,,,,
137519,0,,,,,,,,,,,,,,,,,,,,,,,,,,,,,,,,,,0,0,0,0,0,0,0,0,0,0,0,0,0,0,0,0,,,,,,,,,,,
137539,0,0.0,135,,-0.12,-0.09,0.93,2,-0,-1,0.95,1.22,77,4321,5.0,3.59,,12.28,0.98,82.6,,58.0,5,0,0,0,0,0.0,0.0,0.0,0.0,2.26,,,0,0,0,0,0,0,0,0,0,0,0,0,0,0,0,0,0,,,,0.0,0.0,0.0,0.0,0,0,0.0
137559,0,,,,,,,,,,,,,,,,,,,,,,,,,,,,,,,,,,0,0,0,0,0,0,0,0,0,0,0,0,0,0,0,0,,,,,,,,,,,
137579,0,0.0,135,,-0.15,-0.24,0.86,2,-0,-1,0.91,1.22,74,4407,3.3,3.37,,12.28,0.98,82.6,,58.0,5,,,,,,,,,,,,0,0,0,0,0,0,0,0,0,0,0,0,0,0,0,0,,,,,0.0,,,,,,
137599,0,,,,,,,,,,,,,,,,,,,,,,,,,,,,,,,,,,0,0,0,0,0,0,0,0,0,0,0,0,0,0,0,0,,,,,,,,,,,
137619,0,0.0,135,,-0.16,-0.26,0.84,1,-0,-1,0.9,1.22,73,4407,3.3,3.37,,12.08,0.978,82.6,,60.5,5,,,,,,,,,,,,0,0,0,0,0,0,0,0,0,0,0,0,0,0,0,0,,,,,0.0,,,,,,
137639,0,,,,,,,,,,,,,,,,,,,,,,,0,0,0,0,0.0,0.0,0.0,0.0,2.26,,,0,0,0,0,0,0,0,0,0,0,0,0,0,0,0,0,0,,,,,0.0,0.0,0.0,0,0,0.0
137659,0,0.0,135,,-0.17,-0.22,0.9,0,-0,-0,0.94,1.22,77,4395,2.7,3.11,,11.91,0.972,82.6,,60.5,5,,,,,,,,,,,,0,0,0,0,0,0,0,0,0,0,0,0,0,0,0,0,,,,,0.0,,,,,,
137679,0,,,,,,,,,,,,,,,,,,,,,,,,,,,,,,,,,,0,0,0,0,0,0,0,0,0,0,0,0,0,0,0,0,,,,,,,,,,,
137699,0,0.0,135,,-0.14,-0.09,1.0,-0,-0,0,1.01,1.22,83,4379,5.7,3.56,,11.93,0.943,82.6,,60.5,5,,,,,,,,,,,,0,0,0,0,0,0,0,0,0,0,0,0,0,0,0,0,,,,,0.0,,,,,,
137719,0,,,,,,,,,,,,,,,,,,,,,,,,,,,,,,,,,,0,0,0,0,0,0,0,0,0,0,0,0,0,0,0,0,,,,,,,,,,,
137739,0,0.0,135,,-0.12,0.1,1.09,-1,-0,1,1.1,1.22,90,4482,9.8,3.63,,12.39,0.936,82.6,,60.7,5,0,0,0,0,0.0,0.0,0.0,0.0,2.26,,,0,0,0,0,0,0,0,0,0,0,0,0,0,0,0,0,0,,,,0.0,0.0,0.0,0.0,0,0,0.0
137759,0,,,,,,,,,,,,,,,,,,,,,,,,,,,,,,,,,,0,0,0,0,0,0,0,0,0,0,0,0,0,0,0,0,,,,,,,,,,,
137779,0,0.0,135,,-0.11,0.26,1.16,-1,-0,1,1.19,1.22,97,4514,11.0,3.7,,12.39,0.936,82.6,,60.7,5,,,,,,,,,,,,0,0,0,0,0,0,0,0,0,0,0,0,0,0,0,0,,,,,0.0,,,,,,
137799,0,,,,,,,,,,,,,,,,,,,,,,,,,,,,,,,,,,0,0,0,0,0,0,0,0,0,0,0,0,0,0,0,0,,,,,,,,,,,
137819,0,0.0,135,,-0.1,0.38,1.24,-1,-0,2,1.3,1.3,100,4514,11.0,3.7,,12.6,0.916,82.6,,62.8,5,,,,,,,,,,,,0,0,0,0,0,0,0,0,0,0,0,0,0,0,0,0,,,,,0.0,,,,,,
137839,0,,,,,,,,,,,,,,,,,,,,,,,0,0,0,0,0.0,0.0,0.0,0.0,2.26,,,0,0,0,0,0,0,0,0,0,0,0,0,0,0,0,0,0,,,,,0.0,0.0,0.0,0,0,0.0
137859,0,0.0,135,,-0.1,0.48,1.31,-2,-0,2,1.4,1.4,100,4527,8.8,3.66,,12.71,0.897,82.6,,62.8,5,,,,,,,,,,,,0,0,0,0,0,0,0,0,0,0,0,0,0,0,0,0,,,,,0.0,,,,,,
137879,0,,,,,,,,,,,,,,,,,,,,,,,,,,,,,,,,,,0,0,0,0,0,0,0,0,0,0,0,0,0,0,0,0,,,,,,,,,,,
137899,0,0.0,135,,-0.12,0.54,1.33,-3,-0,3,1.44,1.44,100,4550,4.1,3.64,,12.4,0.886,82.6,,62.8,5,,,,,,,,,,,,0,0,0,0,0,0,0,0,0,0,0,0,0,0,0,0,,,,,0.0,,,,,,
137919,0,,,,,,,,,,,,,,,,,,,,,,,,,,,,,,,,,,0,0,0,0,0,0,0,0,0,0,0,0,0,0,0,0,,,,,,,,,,,
137939,0,0.0,135,,-0.13,0.51,1.3,-5,-0,4,1.4,1.44,98,4556,0.0,2.41,,11.96,0.89,82.6,,64.1,5,0,0,0,0,0.0,0.0,0.0,0.0,2.26,,,0,0,0,0,0,0,0,0,0,0,0,0,0,0,0,0,0,,,,0.0,0.0,0.0,0.0,0,0,0.0
137959,0,,,,,,,,,,,,,,,,,,,,,,,,,,,,,,,,,,0,0,0,0,0,0,0,0,0,0,0,0,0,0,0,0,,,,,,,,,,,
137979,0,0.0,135,,-0.15,0.44,1.25,-6,-0,4,1.34,1.44,93,4527,0.0,2.39,,11.96,0.89,82.6,,64.1,5,,,,,,,,,,,,0,0,0,0,0,0,0,0,0,0,0,0,0,0,0,0,,,,,0.0,,,,,,
137999,0,,,,,,,,,,,,,,,,,,,,,,,,,,,,,,,,,,0,0,0,0,0,0,0,0,0,0,0,0,0,0,0,0,,,,,,,,,,,
138019,0,0.0,135,,-0.16,0.4,1.26,-6,-0,4,1.33,1.44,92,4527,0.0,2.39,,11.58,0.885,82.6,,63.1,5,,,,,,,,,,,,0,0,0,0,0,0,0,0,0,0,0,0,0,0,0,0,,,,,0.0,,,,,,
138039,0,,,,,,,,,,,,,,,,,,,,,,,0,0,0,0,0.0,0.0,0.0,0.0,2.26,,,0,0,0,0,0,0,0,0,0,0,0,0,0,0,0,0,0,,,,,0.0,0.0,0.0,0,0,0.0
138059,0,0.0,135,,-0.17,0.44,1.28,-7,-0,5,1.36,1.44,94,4468,0.0,2.39,,11.29,0.873,82.6,,63.1,5,,,,,,,,,,,,0,0,0,0,0,0,0,0,0,0,0,0,0,0,0,0,,,,,0.0,,,,,,
138079,0,,,,,,,,,,,,,,,,,,,,,,,,,,,,,,,,,,0,0,0,0,0,0,0,0,0,0,0,0,0,0,0,0,,,,,,,,,,,
138099,0,0.0,135,,-0.14,0.48,1.29,-6,-0,4,1.38,1.44,96,4368,0.0,2.39,,11.1,0.875,82.6,,63.1,5,,,,,,,,,,,,0,0,0,0,0,0,0,0,0,0,0,0,0,0,0,0,,,,,0.0,,,,,,
138119,0,,,,,,,,,,,,,,,,,,,,,,,,,,,,,,,,,,0,0,0,0,0,0,0,0,0,0,0,0,0,0,0,0,,,,,,,,,,,
138139,0,0.0,135,13.66,-0.14,0.33,1.21,-4,-0,3,1.26,1.44,88,4252,0.0,2.39,15,11.02,0.889,82.6,126,61.6,5,0,0,0,0,0.0,0.0,0.0,0.0,2.26,0,0.0,0,0,0,0,0,0,0,0,0,0,0,0,0,0,0,0,0,0.0,0,-0,0.0,0.0,0.0,0.0,0,0,0.0
138159,0,,,,,,,,,,,,,,,,,,,,,,,,,,,,,,,,,,0,0,0,0,0,0,0,0,0,0,0,0,0,0,0,0,,,,,,,,,,,
138179,0,0.0,135,,-0.14,0.34,1.23,-4,-0,3,1.28,1.44,89,4138,0.0,2.4,,11.02,0.889,82.6,,61.6,5,,,,,,,,,,,,0,0,0,0,0,0,0,0,0,0,0,0,0,0,0,0,,,,,0.0,,,,,,
138199,0,,,,,,,,,,,,,,,,,,,,,,,,,,,,,,,,,,0,0,0,0,0,0,0,0,0,0,0,0,0,0,0,0,,,,,,,,,,,
138219,0,0.0,135,,-0.15,0.2,1.14,-3,-0,2,1.17,1.44,81,4138,0.0,2.4,,10.93,0.906,82.6,,60.5,5,,,,,,,,,,,,0,0,0,0,0,0,0,0,0,0,0,0,0,0,0,0,,,,,0.0,,,,,,
138239,0,,,,,,,,,,,,,,,,,,,,,,,0,0,0,0,0.0,0.0,0.0,0.0,2.26,,,0,0,0,0,0,0,0,0,0,0,0,0,0,0,0,0,0,,,,,0.0,0.0,0.0,0,0,0.0
138259,0,0.0,135,,-0.13,0.23,1.12,-3,-1,2,1.15,1.44,80,4044,0.0,2.33,,10.96,0.919,82.6,,60.5,5,,,,,,,,,,,,0,0,0,0,0,0,0,0,0,0,0,0,0,0,0,0,,,,,0.0,,,,,,
138279,0,,,,,,,,,,,,,,,,,,,,,,,,,,,,,,,,,,0,0,0,0,0,0,0,0,0,0,0,0,0,0,0,0,,,,,,,,,,,
138299,0,0.0,135,,-0.13,0.24,1.11,-2,-1,2,1.14,1.44,80,3905,0.0,2.43,,11.02,0.933,82.6,,60.5,5,,,,,,,,,,,,0,0,0,0,0,0,0,0,0,0,0,0,0,0,0,0,,,,,0.0,,,,,,
138319,0,,,,,,,,,,,,,,,,,,,,,,,,,,,,,,,,,,0,0,0,0,0,0,0,0,0,0,0,0,0,0,0,0,,,,,,,,,,,
138339,0,0.0,135,,-0.15,0.22,1.07,-2,-0,2,1.1,1.44,77,3722,0.0,2.51,,11.16,0.963,82.6,,59.5,5,0,0,0,0,0.0,0.0,0.0,0.0,2.27,,,0,0,0,0,0,0,0,0,0,0,0,0,0,0,0,0,0,,,,0.0,0.0,0.0,0.0,0,0,0.0
138359,0,,,,,,,,,,,,,,,,,,,,,,,,,,,,,,,,,,0,0,0,0,0,0,0,0,0,0,0,0,0,0,0,0,,,,,,,,,,,
138379,0,0.0,135,,-0.16,0.13,1.05,-2,-0,2,1.07,1.44,75,3582,0.0,2.55,,11.16,0.963,82.6,,59.5,5,,,,,,,,,,,,0,0,0,0,0,0,0,0,0,0,0,0,0,0,0,0,,,,,0.0,,,,,,
138399,0,,,,,,,,,,,,,,,,,,,,,,,,,,,,,,,,,,0,0,0,0,0,0,0,0,0,0,0,0,0,0,0,0,,,,,,,,,,,
138419,0,0.0,135,,-0.16,0.13,1.12,-3,-0,2,1.14,1.44,79,3582,0.0,2.55,,11.28,0.984,82.6,,56.7,5,,,,,,,,,,,,0,0,0,0,0,0,0,0,0,0,0,0,0,0,0,0,,,,,0.0,,,,,,
138439,0,,,,,,,,,,,,,,,,,,,,,,,0,0,0,0,0.0,0.0,0.0,0.0,2.26,,,0,0,0,0,0,0,0,0,0,0,0,0,0,0,0,0,0,,,,,0.0,0.0,0.0,0,0,0.0
138459,0,0.0,135,,-0.15,0.16,1.04,-2,-0,2,1.06,1.44,74,3403,0.0,2.64,,11.5,0.995,82.6,,56.7,5,,,,,,,,,,,,0,0,0,0,0,0,0,0,0,0,0,0,0,0,0,0,,,,,0.0,,,,,,
138479,0,,,,,,,,,,,,,,,,,,,,,,,,,,,,,,,,,,0,0,0,0,0,0,0,0,0,0,0,0,0,0,0,0,,,,,,,,,,,
138499,0,0.0,135,,-0.14,0.15,1.01,-2,-0,1,1.03,1.44,71,3250,0.0,2.71,,11.69,0.985,82.6,,56.7,5,,,,,,,,,,,,0,0,0,0,0,0,0,0,0,0,0,0,0,0,0,0,,,,,0.0,,,,,,
138519,0,,,,,,,,,,,,,,,,,,,,,,,,,,,,,,,,,,0,0,0,0,0,0,0,0,0,0,0,0,0,0,0,0,,,,,,,,,,,
138539,0,0.0,135,,-0.13,0.16,1.01,-1,-0,1,1.03,1.44,72,3081,0.0,2.79,,11.91,0.961,82.6,,55.4,5,0,0,0,0,0.0,0.0,0.0,0.0,2.26,,,0,0,0,0,0,0,0,0,0,0,0,0,0,0,0,0,0,,,,0.0,0.0,0.0,0.0,0,0,0.0
138559,0,,,,,,,,,,,,,,,,,,,,,,,,,,,,,,,,,,0,0,0,0,0,0,0,0,0,0,0,0,0,0,0,0,,,,,,,,,,,
138579,0,0.0,135,,-0.13,0.12,0.99,-1,-0,1,1.0,1.44,70,2938,0.0,2.87,,11.91,0.961,82.6,,55.4,5,,,,,,,,,,,,0,0,0,0,0,0,0,0,0,0,0,0,0,0,0,0,,,,,0.0,,,,,,
138599,0,,,,,,,,,,,,,,,,,,,,,,,,,,,,,,,,,,0,0,0,0,0,0,0,0,0,0,0,0,0,0,0,0,,,,,,,,,,,
138619,0,0.0,135,,-0.13,0.06,0.97,-0,-0,1,0.98,1.44,68,2938,0.0,2.87,,12.12,0.945,82.6,,53.2,5,,,,,,,,,,,,0,0,0,0,0,0,0,0,0,0,0,0,0,0,0,0,,,,,0.0,,,,,,
138639,0,,,,,,,,,,,,,,,,,,,,,,,0,0,0,0,0.0,0.0,0.0,0.0,2.26,,,0,0,0,0,0,0,0,0,0,0,0,0,0,0,0,0,0,,,,,0.0,0.0,0.0,0,0,0.0
138659,0,0.0,135,,-0.14,0.04,0.98,-0,-0,1,0.99,1.44,69,2681,0.0,2.95,,12.29,0.938,82.6,,53.2,5,,,,,,,,,,,,0,0,0,0,0,0,0,0,0,0,0,0,0,0,0,0,,,,,0.0,,,,,,
138679,0,,,,,,,,,,,,,,,,,,,,,,,,,,,,,,,,,,0,0,0,0,0,0,0,0,0,0,0,0,0,0,0,0,,,,,,,,,,,
138699,0,0.0,135,,-0.13,0.04,1.0,-0,-0,1,1.01,1.44,70,2568,0.0,3.02,,12.53,0.93,82.6,,53.2,5,,,,,,,,,,,,0,0,0,0,0,0,0,0,0,0,0,0,0,0,0,0,,,,,0.0,,,,,,
138719,0,,,,,,,,,,,,,,,,,,,,,,,,,,,,,,,,,,0,0,0,0,0,0,0,0,0,0,0,0,0,0,0,0,,,,,,,,,,,
138739,0,0.0,135,,-0.12,0.03,1.0,-0,-0,1,1.01,1.44,70,2387,0.0,3.12,,12.79,0.923,82.6,,47.9,5,0,0,0,0,0.0,0.0,0.0,0.0,2.26,,,0,0,0,0,0,0,0,0,0,0,0,0,0,0,0,0,0,,,,0.0,0.0,0.0,0.0,0,0,0.0
138759,0,,,,,,,,,,,,,,,,,,,,,,,,,,,,,,,,,,0,0,0,0,0,0,0,0,0,0,0,0,0,0,0,0,,,,,,,,,,,
138779,0,0.0,135,,-0.12,0.02,0.99,-0,-0,0,1.0,1.44,69,2194,0.0,3.21,,12.79,0.923,82.6,,47.9,5,,,,,,,,,,,,0,0,0,0,0,0,0,0,0,0,0,0,0,0,0,0,,,,,0.0,,,,,,
138799,0,,,,,,,,,,,,,,,,,,,,,,,,,,,,,,,,,,0,0,0,0,0,0,0,0,0,0,0,0,0,0,0,0,,,,,,,,,,,
138819,0,0.0,135,,-0.12,0.03,0.99,-0,-0,0,1.0,1.44,69,2194,0.0,3.21,,13.0,0.917,82.6,,41.2,5,,,,,,,,,,,,0,0,0,0,0,0,0,0,0,0,0,0,0,0,0,0,,,,,0.0,,,,,,
138839,0,,,,,,,,,,,,,,,,,,,,,,,0,0,0,0,0.0,0.0,0.0,0.0,2.26,,,0,0,0,0,0,0,0,0,0,0,0,0,0,0,0,0,0,,,,,0.0,0.0,0.0,0,0,0.0
138859,0,0.0,135,,-0.1,-0.02,0.99,-0,-0,0,1.0,1.44,70,2115,0.0,3.26,,13.32,0.918,82.6,,41.2,5,,,,,,,,,,,,0,0,0,0,0,0,0,0,0,0,0,0,0,0,0,0,,,,,0.0,,,,,,
138879,0,,,,,,,,,,,,,,,,,,,,,,,,,,,,,,,,,,0,0,0,0,0,0,0,0,0,0,0,0,0,0,0,0,,,,,,,,,,,
138899,0,0.0,135,,-0.12,-0.01,0.98,0,-0,0,0.99,1.44,69,1870,0.0,3.35,,13.59,0.923,82.6,,41.2,5,,,,,,,,,,,,0,0,0,0,0,0,0,0,0,0,0,0,0,0,0,0,,,,,0.0,,,,,,
138919,0,,,,,,,,,,,,,,,,,,,,,,,,,,,,,,,,,,0,0,0,0,0,0,0,0,0,0,0,0,0,0,0,0,,,,,,,,,,,
138939,0,0.0,135,,-0.12,-0.02,0.98,-0,-0,0,0.99,1.44,69,1755,0.0,3.38,,13.73,0.932,82.6,,34.1,5,0,0,0,0,0.0,0.0,0.0,0.0,2.27,,,0,0,0,0,0,0,0,0,0,0,0,0,0,0,0,0,0,,,,0.0,0.0,0.0,0.0,0,0,0.0
138959,0,,,,,,,,,,,,,,,,,,,,,,,,,,,,,,,,,,0,0,0,0,0,0,0,0,0,0,0,0,0,0,0,0,,,,,,,,,,,
138979,0,0.0,135,,-0.12,-0.02,0.97,-0,-0,0,0.98,1.44,68,1630,0.0,3.39,,13.73,0.932,82.6,,34.1,5,,,,,,,,,,,,0,0,0,0,0,0,0,0,0,0,0,0,0,0,0,0,,,,,0.0,,,,,,
138999,0,,,,,,,,,,,,,,,,,,,,,,,,,,,,,,,,,,0,0,0,0,0,0,0,0,0,0,0,0,0,0,0,0,,,,,,,,,,,
139019,0,0.0,135,,-0.12,-0.01,0.99,-0,-0,0,0.99,1.44,69,1630,0.0,3.39,,13.92,0.949,82.6,,26.9,5,,,,,,,,,,,,0,0,0,0,0,0,0,0,0,0,0,0,0,0,0,0,,,,,0.0,,,,,,
139039,0,,,,,,,,,,,,,,,,,,,,,,,0,0,0,0,0.0,0.0,0.0,0.0,2.26,,,0,0,0,0,0,0,0,0,0,0,0,0,0,0,0,0,0,,,,,0.0,0.0,0.0,0,0,0.0
139059,0,0.0,135,,-0.11,0.01,0.99,-0,-0,0,1.0,1.44,70,1359,0.0,3.42,,14.06,0.958,82.6,,26.9,5,,,,,,,,,,,,0,0,0,0,0,0,0,0,0,0,0,0,0,0,0,0,,,,,0.0,,,,,,
139079,0,,,,,,,,,,,,,,,,,,,,,,,,,,,,,,,,,,0,0,0,0,0,0,0,0,0,0,0,0,0,0,0,0,,,,,,,,,,,
139099,0,0.0,135,,-0.1,0.0,1.0,-0,-0,0,1.01,1.44,70,1410,0.0,3.46,,13.99,0.955,82.6,,26.9,5,,,,,,,,,,,,0,0,0,0,0,0,0,0,0,0,0,0,0,0,0,0,,,,,0.0,,,,,,
139119,0,,,,,,,,,,,,,,,,,,,,,,,,,,,,,,,,,,0,0,0,0,0,0,0,0,0,0,0,0,0,0,0,0,,,,,,,,,,,
139139,0,0.0,135,13.61,-0.08,-0.02,1.0,-1,-0,0,1.01,1.44,70,1408,0.0,3.45,15,14.16,0.957,82.6,126,25.4,5,0,0,0,0,0.0,0.0,0.0,0.0,2.26,0,0.0,0,0,0,0,0,0,0,0,0,0,0,0,0,0,0,0,0,0.0,0,-0,0.0,0.0,0.0,0.0,0,0,0.0
139159,0,,,,,,,,,,,,,,,,,,,,,,,,,,,,,,,,,,0,0,0,0,0,0,0,0,0,0,0,0,0,0,0,0,,,,,,,,,,,
139179,0,0.0,135,,-0.06,-0.03,1.01,-1,-0,0,1.02,1.44,71,1608,0.0,3.45,,14.16,0.957,82.6,,25.4,5,,,,,,,,,,,,0,0,0,0,0,0,0,0,0,0,0,0,0,0,0,0,,,,,0.0,,,,,,
139199,0,,,,,,,,,,,,,,,,,,,,,,,,,,,,,,,,,,0,0,0,0,0,0,0,0,0,0,0,0,0,0,0,0,,,,,,,,,,,
139219,0,0.0,135,,-0.08,-0.04,1.0,-1,-0,0,1.01,1.44,70,1608,0.0,3.45,,14.0,0.995,82.6,,28.3,5,,,,,,,,,,,,0,0,0,0,0,0,0,0,0,0,0,0,0,0,0,0,,,,,0.0,,,,,,
139239,0,,,,,,,,,,,,,,,,,,,,,,,0,0,0,0,0.0,0.0,0.0,0.0,2.26,,,0,0,0,0,0,0,0,0,0,0,0,0,0,0,0,0,0,,,,,0.0,0.0,0.0,0,0,0.0
139259,0,0.0,135,,-0.09,-0.05,1.0,-1,-0,0,1.0,1.44,70,1682,0.0,3.42,,13.95,1.072,82.6,,28.3,5,,,,,,,,,,,,0,0,0,0,0,0,0,0,0,0,0,0,0,0,0,0,,,,,0.0,,,,,,
139279,0,,,,,,,,,,,,,,,,,,,,,,,,,,,,,,,,,,0,0,0,0,0,0,0,0,0,0,0,0,0,0,0,0,,,,,,,,,,,
139299,0,0.0,135,,-0.07,-0.05,0.99,-1,-0,0,1.0,1.44,69,1770,0.0,3.42,,13.9,1.066,82.6,,28.3,5,,,,,,,,,,,,0,0,0,0,0,0,0,0,0,0,0,0,0,0,0,0,,,,,0.0,,,,,,
139319,0,,,,,,,,,,,,,,,,,,,,,,,,,,,,,,,,,,0,0,0,0,0,0,0,0,0,0,0,0,0,0,0,0,,,,,,,,,,,
139339,0,0.0,135,,-0.08,-0.05,1.01,-1,0,0,1.02,1.44,71,1700,0.0,3.41,,13.9,1.033,82.6,,30.0,5,0,0,0,0,0.0,0.0,0.0,0.0,2.27,,,0,0,0,0,0,0,0,0,0,0,0,0,0,0,0,0,0,,,,0.0,0.0,0.0,0.0,0,0,0.0
139359,0,,,,,,,,,,,,,,,,,,,,,,,,,,,,,,,,,,0,0,0,0,0,0,0,0,0,0,0,0,0,0,0,0,,,,,,,,,,,
139379,0,0.0,135,,-0.1,-0.03,0.97,-1,-0,0,0.98,1.44,68,1693,0.0,3.42,,13.9,1.033,82.6,,30.0,5,,,,,,,,,,,,0,0,0,0,0,0,0,0,0,0,0,0,0,0,0,0,,,,,0.0,,,,,,
139399,0,,,,,,,,,,,,,,,,,,,,,,,,,,,,,,,,,,0,0,0,0,0,0,0,0,0,0,0,0,0,0,0,0,,,,,,,,,,,
139419,0,0.0,135,,-0.11,-0.05,0.96,-1,-0,0,0.97,1.44,67,1693,0.0,3.42,,13.99,0.98,82.6,,29.7,5,,,,,,,,,,,,0,0,0,0,0,0,0,0,0,0,0,0,0,0,0,0,,,,,0.0,,,,,,
139439,0,,,,,,,,,,,,,,,,,,,,,,,0,0,0,0,0.0,0.0,0.0,0.0,2.27,,,0,0,0,0,0,0,0,0,0,0,0,0,0,0,0,0,0,,,,,0.0,0.0,0.0,0,0,0.0
139459,0,0.0,135,,-0.11,-0.07,0.95,-1,-0,0,0.96,1.44,67,1653,0.0,3.42,,14.02,0.95,82.6,,29.7,5,,,,,,,,,,,,0,0,0,0,0,0,0,0,0,0,0,0,0,0,0,0,,,,,0.0,,,,,,
139479,0,,,,,,,,,,,,,,,,,,,,,,,,,,,,,,,,,,0,0,0,0,0,0,0,0,0,0,0,0,0,0,0,0,,,,,,,,,,,
139499,0,0.0,135,,-0.11,-0.09,0.95,-1,-0,0,0.96,1.44,67,1530,0.0,3.42,,13.98,0.941,82.6,,29.7,5,,,,,,,,,,,,0,0,0,0,0,0,0,0,0,0,0,0,0,0,0,0,,,,,0.0,,,,,,
139519,0,,,,,,,,,,,,,,,,,,,,,,,,,,,,,,,,,,0,0,0,0,0,0,0,0,0,0,0,0,0,0,0,0,,,,,,,,,,,
139539,0,0.0,135,,-0.09,-0.08,0.95,-1,-0,0,0.96,1.44,67,1596,0.0,3.44,,14.11,0.938,82.6,,27.9,5,0,0,0,0,0.0,0.0,0.0,0.0,2.26,,,0,0,0,0,0,0,0,0,0,0,0,0,0,0,0,0,0,,,,0.0,0.0,0.0,0.0,0,0,0.0
139559,0,,,,,,,,,,,,,,,,,,,,,,,,,,,,,,,,,,0,0,0,0,0,0,0,0,0,0,0,0,0,0,0,0,,,,,,,,,,,
139579,0,0.0,135,,-0.08,-0.09,0.97,-1,-0,0,0.98,1.44,68,1513,0.0,3.42,,14.11,0.938,82.6,,27.9,5,,,,,,,,,,,,0,0,0,0,0,0,0,0,0,0,0,0,0,0,0,0,,,,,0.0,,,,,,
139599,0,,,,,,,,,,,,,,,,,,,,,,,,,,,,,,,,,,0,0,0,0,0,0,0,0,0,0,0,0,0,0,0,0,,,,,,,,,,,
139619,0,0.0,135,,-0.08,-0.11,0.95,-1,-0,0,0.96,1.44,67,1513,0.0,3.42,,14.02,0.943,82.6,,26.0,5,,,,,,,,,,,,0,0,0,0,0,0,0,0,0,0,0,0,0,0,0,0,,,,,0.0,,,,,,
139639,0,,,,,,,,,,,,,,,,,,,,,,,0,0,0,0,0.0,0.0,0.0,0.0,2.26,,,0,0,0,0,0,0,0,0,0,0,0,0,0,0,0,0,0,,,,,0.0,0.0,0.0,0,0,0.0
139659,0,0.0,135,,-0.09,-0.1,0.94,-1,-0,0,0.95,1.44,66,1365,0.0,3.44,,14.11,0.945,82.6,,26.0,5,,,,,,,,,,,,0,0,0,0,0,0,0,0,0,0,0,0,0,0,0,0,,,,,0.0,,,,,,
139679,0,,,,,,,,,,,,,,,,,,,,,,,,,,,,,,,,,,0,0,0,0,0,0,0,0,0,0,0,0,0,0,0,0,,,,,,,,,,,
139699,0,0.0,135,,-0.1,-0.08,0.94,-1,-1,0,0.94,1.44,66,1467,0.0,3.45,,14.14,0.957,82.6,,26.0,5,,,,,,,,,,,,0,0,0,0,0,0,0,0,0,0,0,0,0,0,0,0,,,,,0.0,,,,,,
139719,0,,,,,,,,,,,,,,,,,,,,,,,,,,,,,,,,,,0,0,0,0,0,0,0,0,0,0,0,0,0,0,0,0,,,,,,,,,,,
139739,0,0.0,135,,-0.1,-0.09,0.95,-1,-0,0,0.96,1.44,67,1424,0.0,3.45,,14.15,0.971,82.6,,25.2,5,0,0,0,0,0.0,0.0,0.0,0.0,2.26,,,0,0,0,0,0,0,0,0,0,0,0,0,0,0,0,0,0,,,,0.0,0.0,0.0,0.0,0,0,0.0
139759,0,,,,,,,,,,,,,,,,,,,,,,,,,,,,,,,,,,0,0,0,0,0,0,0,0,0,0,0,0,0,0,0,0,,,,,,,,,,,
139779,0,0.0,135,,-0.1,-0.08,0.96,-1,-0,0,0.96,1.44,67,1250,0.0,3.44,,14.15,0.971,84.4,,25.2,5,,,,,,,,,,,,0,0,0,0,0,0,0,0,0,0,0,0,0,0,0,0,,,,,0.0,,,,,,
139799,0,,,,,,,,,,,,,,,,,,,,,,,,,,,,,,,,,,0,0,0,0,0,0,0,0,0,0,0,0,0,0,0,0,,,,,,,,,,,
139819,0,0.0,135,,-0.11,-0.08,0.95,-1,-0,0,0.96,1.44,67,1250,0.0,3.44,,14.16,0.979,84.4,,23.3,5,,,,,,,,,,,,0,0,0,0,0,0,0,0,0,0,0,0,0,0,0,0,,,,,0.0,,,,,,
139839,0,,,,,,,,,,,,,,,,,,,,,,,0,0,0,0,0.0,0.0,0.0,0.0,2.26,,,0,0,0,0,0,0,0,0,0,0,0,0,0,0,0,0,0,,,,,0.0,0.0,0.0,0,0,0.0
139859,0,0.0,135,,-0.12,-0.11,0.92,-1,-0,0,0.94,1.44,65,1411,0.0,3.46,,14.14,0.977,84.4,,23.3,5,,,,,,,,,,,,0,0,0,0,0,0,0,0,0,0,0,0,0,0,0,0,,,,,0.0,,,,,,
139879,0,,,,,,,,,,,,,,,,,,,,,,,,,,,,,,,,,,0,0,0,0,0,0,0,0,0,0,0,0,0,0,0,0,,,,,,,,,,,
139899,0,0.0,135,,-0.1,-0.09,0.94,-1,-0,0,0.95,1.44,66,1645,0.0,3.45,,14.0,0.972,84.4,,23.3,5,,,,,,,,,,,,0,0,0,0,0,0,0,0,0,0,0,0,0,0,0,0,,,,,0.0,,,,,,
139919,0,,,,,,,,,,,,,,,,,,,,,,,,,,,,,,,,,,0,0,0,0,0,0,0,0,0,0,0,0,0,0,0,0,,,,,,,,,,,
139939,0,0.0,135,,-0.1,-0.08,0.96,-1,-0,0,0.97,1.44,67,1720,0.0,3.4,,13.96,1.017,84.4,,27.5,5,0,0,0,0,0.0,0.0,0.0,0.0,2.27,,,0,0,0,0,0,0,0,0,0,0,0,0,0,0,0,0,0,,,,0.0,0.0,0.0,0.0,0,0,0.0
139959,0,,,,,,,,,,,,,,,,,,,,,,,,,,,,,,,,,,0,0,0,0,0,0,0,0,0,0,0,0,0,0,0,0,,,,,,,,,,,
139979,0,0.0,135,,-0.1,-0.09,0.95,-1,-0,0,0.96,1.44,67,1851,0.0,3.41,,13.96,1.017,84.4,,27.5,5,,,,,,,,,,,,0,0,0,0,0,0,0,0,0,0,0,0,0,0,0,0,,,,,0.0,,,,,,
139999,0,,,,,,,,,,,,,,,,,,,,,,,,,,,,,,,,,,0,0,0,0,0,0,0,0,0,0,0,0,0,0,0,0,,,,,,,,,,,
140019,0,0.0,135,,-0.1,-0.08,0.97,-1,-0,0,0.98,1.44,68,1851,0.0,3.41,,13.94,1.058,84.4,,30.6,5,,,,,,,,,,,,0,0,0,0,0,0,0,0,0,0,0,0,0,0,0,0,,,,,0.0,,,,,,
140039,0,,,,,,,,,,,,,,,,,,,,,,,0,0,0,0,0.0,0.0,0.0,0.0,2.26,,,0,0,0,0,0,0,0,0,0,0,0,0,0,0,0,0,0,,,,,0.0,0.0,0.0,0,0,0.0
140059,0,0.0,135,,-0.12,-0.08,0.95,-1,-0,0,0.96,1.44,67,1744,0.0,3.39,,13.9,1.03,84.4,,30.6,5,,,,,,,,,,,,0,0,0,0,0,0,0,0,0,0,0,0,0,0,0,0,,,,,0.0,,,,,,
140079,0,,,,,,,,,,,,,,,,,,,,,,,,,,,,,,,,,,0,0,0,0,0,0,0,0,0,0,0,0,0,0,0,0,,,,,,,,,,,
140099,0,0.0,135,,-0.11,-0.09,0.96,-1,-0,0,0.98,1.44,68,1727,0.0,3.4,,13.95,0.988,84.4,,30.6,5,,,,,,,,,,,,0,0,0,0,0,0,0,0,0,0,0,0,0,0,0,0,,,,,0.0,,,,,,
140119,0,,,,,,,,,,,,,,,,,,,,,,,,,,,,,,,,,,0,0,0,0,0,0,0,0,0,0,0,0,0,0,0,0,,,,,,,,,,,
140139,0,0.0,135,13.61,-0.09,-0.09,0.98,-1,-0,0,0.99,1.44,69,1745,0.0,3.41,15,14.02,0.965,84.4,128,30.6,5,0,0,0,0,0.0,0.0,0.0,0.0,2.26,0,0.0,0,0,0,0,0,0,0,0,0,0,0,0,0,0,0,0,0,0.0,0,-0,0.0,0.0,0.0,0.0,0,0,0.0
140159,0,,,,,,,,,,,,,,,,,,,,,,,,,,,,,,,,,,0,0,0,0,0,0,0,0,0,0,0,0,0,0,0,0,,,,,,,,,,,
140179,0,0.0,135,,-0.1,-0.06,1.01,-1,-0,0,1.01,1.44,70,1659,0.0,3.41,,14.02,0.965,84.4,,30.6,5,,,,,,,,,,,,0,0,0,0,0,0,0,0,0,0,0,0,0,0,0,0,,,,,0.0,,,,,,
140199,0,,,,,,,,,,,,,,,,,,,,,,,,,,,,,,,,,,0,0,0,0,0,0,0,0,0,0,0,0,0,0,0,0,,,,,,,,,,,
140219,0,0.0,135,,-0.11,-0.05,0.98,-1,-0,0,0.99,1.44,69,1659,0.0,3.41,,14.06,0.962,84.4,,29.9,5,,,,,,,,,,,,0,0,0,0,0,0,0,0,0,0,0,0,0,0,0,0,,,,,0.0,,,,,,
140239,0,,,,,,,,,,,,,,,,,,,,,,,0,0,0,0,0.0,0.0,0.0,0.0,2.26,,,0,0,0,0,0,0,0,0,0,0,0,0,0,0,0,0,0,,,,,0.0,0.0,0.0,0,0,0.0
140259,0,0.0,135,,-0.12,-0.06,0.98,-1,-0,0,0.98,1.44,68,1731,0.0,3.41,,13.98,0.961,84.4,,29.9,5,,,,,,,,,,,,0,0,0,0,0,0,0,0,0,0,0,0,0,0,0,0,,,,,0.0,,,,,,
140279,0,,,,,,,,,,,,,,,,,,,,,,,,,,,,,,,,,,0,0,0,0,0,0,0,0,0,0,0,0,0,0,0,0,,,,,,,,,,,
140299,0,0.0,135,,-0.11,-0.07,0.96,-1,-0,0,0.97,1.44,68,1588,0.0,3.42,,13.95,0.964,84.4,,29.9,5,,,,,,,,,,,,0,0,0,0,0,0,0,0,0,0,0,0,0,0,0,0,,,,,0.0,,,,,,
140319,0,,,,,,,,,,,,,,,,,,,,,,,,,,,,,,,,,,0,0,0,0,0,0,0,0,0,0,0,0,0,0,0,0,,,,,,,,,,,
140339,0,0.0,135,,-0.1,-0.06,0.99,-1,-0,0,1.0,1.44,69,1660,0.0,3.43,,14.06,0.965,84.4,,29.2,5,0,0,0,0,0.0,0.0,0.0,0.0,2.26,,,0,0,0,0,0,0,0,0,0,0,0,0,0,0,0,0,0,,,,0.0,0.0,0.0,0.0,0,0,0.0
140359,0,,,,,,,,,,,,,,,,,,,,,,,,,,,,,,,,,,0,0,0,0,0,0,0,0,0,0,0,0,0,0,0,0,,,,,,,,,,,
140379,0,0.0,135,,-0.11,-0.06,1.0,-1,-0,0,1.01,1.44,70,1674,0.0,3.41,,14.06,0.965,84.4,,29.2,5,,,,,,,,,,,,0,0,0,0,0,0,0,0,0,0,0,0,0,0,0,0,,,,,0.0,,,,,,
140399,0,,,,,,,,,,,,,,,,,,,,,,,,,,,,,,,,,,0,0,0,0,0,0,0,0,0,0,0,0,0,0,0,0,,,,,,,,,,,
140419,0,0.0,135,,-0.13,-0.07,0.98,-1,-0,-0,0.99,1.44,69,1674,0.0,3.41,,14.07,0.97,84.4,,28.8,5,,,,,,,,,,,,0,0,0,0,0,0,0,0,0,0,0,0,0,0,0,0,,,,,0.0,,,,,,
140439,0,,,,,,,,,,,,,,,,,,,,,,,0,0,0,0,0.0,0.0,0.0,0.0,2.26,,,0,0,0,0,0,0,0,0,0,0,0,0,0,0,0,0,0,,,,,0.0,0.0,0.0,0,0,0.0
140459,0,0.0,135,,-0.14,-0.07,0.97,-1,-0,-0,0.98,1.44,68,1564,0.0,3.43,,13.99,0.975,84.4,,28.8,5,,,,,,,,,,,,0,0,0,0,0,0,0,0,0,0,0,0,0,0,0,0,,,,,0.0,,,,,,
140479,0,,,,,,,,,,,,,,,,,,,,,,,,,,,,,,,,,,0,0,0,0,0,0,0,0,0,0,0,0,0,0,0,0,,,,,,,,,,,
140499,0,0.0,135,,-0.16,-0.06,0.96,-1,-0,0,0.98,1.44,68,1580,0.0,3.43,,14.12,0.972,84.4,,28.8,5,,,,,,,,,,,,0,0,0,0,0,0,0,0,0,0,0,0,0,0,0,0,,,,,0.0,,,,,,
140519,0,,,,,,,,,,,,,,,,,,,,,,,,,,,,,,,,,,0,0,0,0,0,0,0,0,0,0,0,0,0,0,0,0,,,,,,,,,,,
140539,0,0.0,135,,-0.17,-0.05,0.95,-1,-0,0,0.97,1.44,68,1514,0.0,3.43,,14.03,0.969,84.4,,27.7,5,0,0,0,0,0.0,0.0,0.0,0.0,2.26,,,0,0,0,0,0,0,0,0,0,0,0,0,0,0,0,0,0,,,,0.0,0.0,0.0,0.0,0,0,0.0
140559,0,,,,,,,,,,,,,,,,,,,,,,,,,,,,,,,,,,0,0,0,0,0,0,0,0,0,0,0,0,0,0,0,0,,,,,,,,,,,
140579,0,0.0,135,,-0.18,-0.04,0.95,-1,-0,0,0.97,1.44,67,1500,0.0,3.44,,14.03,0.969,84.4,,27.7,5,,,,,,,,,,,,0,0,0,0,0,0,0,0,0,0,0,0,0,0,0,0,,,,,0.0,,,,,,
140599,0,,,,,,,,,,,,,,,,,,,,,,,,,,,,,,,,,,0,0,0,0,0,0,0,0,0,0,0,0,0,0,0,0,,,,,,,,,,,
140619,0,0.0,135,,-0.2,-0.03,0.94,-1,-0,0,0.96,1.44,67,1500,0.0,3.44,,14.14,0.976,84.4,,26.4,5,,,,,,,,,,,,0,0,0,0,0,0,0,0,0,0,0,0,0,0,0,0,,,,,0.0,,,,,,
140639,0,,,,,,,,,,,,,,,,,,,,,,,0,0,0,0,0.0,0.0,0.0,0.0,2.26,,,0,0,0,0,0,0,0,0,0,0,0,0,0,0,0,0,0,,,,,0.0,0.0,0.0,0,0,0.0
140659,0,0.0,135,,-0.2,-0.04,0.96,-1,-0,0,0.98,1.44,69,1406,0.0,3.44,,14.06,0.981,84.4,,26.4,5,,,,,,,,,,,,0,0,0,0,0,0,0,0,0,0,0,0,0,0,0,0,,,,,0.0,,,,,,
140679,0,,,,,,,,,,,,,,,,,,,,,,,,,,,,,,,,,,0,0,0,0,0,0,0,0,0,0,0,0,0,0,0,0,,,,,,,,,,,
140699,0,0.0,135,,-0.2,-0.04,0.96,-0,-0,-0,0.98,1.44,69,1401,0.0,3.44,,14.12,0.984,84.4,,26.4,5,,,,,,,,,,,,0,0,0,0,0,0,0,0,0,0,0,0,0,0,0,0,,,,,0.0,,,,,,
140719,0,,,,,,,,,,,,,,,,,,,,,,,,,,,,,,,,,,0,0,0,0,0,0,0,0,0,0,0,0,0,0,0,0,,,,,,,,,,,
140739,0,0.0,135,,-0.17,-0.05,0.98,-1,-0,-0,1.0,1.44,69,1360,0.0,3.44,,14.23,0.983,84.4,,25.1,5,0,0,0,0,0.0,0.0,0.0,0.0,2.26,,,0,0,0,0,0,0,0,0,0,0,0,0,0,0,0,0,0,,,,0.0,0.0,0.0,0.0,0,0,0.0
140759,0,,,,,,,,,,,,,,,,,,,,,,,,,,,,,,,,,,0,0,0,0,0,0,0,0,0,0,0,0,0,0,0,0,,,,,,,,,,,
140779,0,0.0,135,,-0.16,-0.05,0.97,-1,-0,-0,0.98,1.44,68,1380,0.0,3.45,,14.23,0.983,84.4,,25.1,5,,,,,,,,,,,,0,0,0,0,0,0,0,0,0,0,0,0,0,0,0,0,,,,,0.0,,,,,,
140799,0,,,,,,,,,,,,,,,,,,,,,,,,,,,,,,,,,,0,0,0,0,0,0,0,0,0,0,0,0,0,0,0,0,,,,,,,,,,,
140819,0,0.0,135,,-0.14,-0.06,0.95,-1,-0,0,0.97,1.44,67,1380,0.0,3.45,,14.11,0.982,84.4,,25.0,5,,,,,,,,,,,,0,0,0,0,0,0,0,0,0,0,0,0,0,0,0,0,,,,,0.0,,,,,,
140839,0,,,,,,,,,,,,,,,,,,,,,,,0,0,0,0,0.0,0.0,0.0,0.0,2.26,,,0,0,0,0,0,0,0,0,0,0,0,0,0,0,0,0,0,,,,,0.0,0.0,0.0,0,0,0.0
140859,0,0.0,135,,-0.14,-0.04,0.95,-1,-0,0,0.96,1.44,67,1419,0.0,3.45,,14.12,0.983,84.4,,25.0,5,,,,,,,,,,,,0,0,0,0,0,0,0,0,0,0,0,0,0,0,0,0,,,,,0.0,,,,,,
140879,0,,,,,,,,,,,,,,,,,,,,,,,,,,,,,,,,,,0,0,0,0,0,0,0,0,0,0,0,0,0,0,0,0,,,,,,,,,,,
140899,0,0.0,135,,-0.16,-0.04,0.96,-0,-0,-0,0.97,1.44,68,1398,0.0,3.44,,14.22,0.988,84.4,,25.0,5,,,,,,,,,,,,0,0,0,0,0,0,0,0,0,0,0,0,0,0,0,0,,,,,0.0,,,,,,
140919,0,,,,,,,,,,,,,,,,,,,,,,,,,,,,,,,,,,0,0,0,0,0,0,0,0,0,0,0,0,0,0,0,0,,,,,,,,,,,
140939,0,0.0,135,,-0.16,-0.05,0.98,-0,-0,-0,0.99,1.44,69,1352,0.0,3.44,,14.15,1.002,84.4,,24.6,5,0,0,0,0,0.0,0.0,0.0,0.0,2.26,,,0,0,0,0,0,0,0,0,0,0,0,0,0,0,0,0,0,,,,0.0,0.0,0.0,0.0,0,0,0.0
140959,0,,,,,,,,,,,,,,,,,,,,,,,,,,,,,,,,,,0,0,0,0,0,0,0,0,0,0,0,0,0,0,0,0,,,,,,,,,,,
140979,0,0.0,135,,-0.15,-0.05,0.98,-0,-0,-0,0.99,1.44,69,1429,0.0,3.45,,14.15,1.002,84.4,,24.6,5,,,,,,,,,,,,0,0,0,0,0,0,0,0,0,0,0,0,0,0,0,0,,,,,0.0,,,,,,
140999,0,,,,,,,,,,,,,,,,,,,,,,,,,,,,,,,,,,0,0,0,0,0,0,0,0,0,0,0,0,0,0,0,0,,,,,,,,,,,
141019,0,0.0,135,,-0.14,-0.04,0.98,-0,-0,-0,0.99,1.44,69,1429,0.0,3.45,,14.12,1.017,84.4,,24.9,5,,,,,,,,,,,,0,0,0,0,0,0,0,0,0,0,0,0,0,0,0,0,,,,,0.0,,,,,,
141039,0,,,,,,,,,,,,,,,,,,,,,,,0,0,0,0,0.0,0.0,0.0,0.0,2.26,,,0,0,0,0,0,0,0,0,0,0,0,0,0,0,0,0,0,,,,,0.0,0.0,0.0,0,0,0.0
141059,0,0.0,135,,-0.13,-0.04,0.98,-0,-0,-0,0.99,1.44,69,1347,0.0,3.44,,14.22,1.029,84.4,,24.9,5,,,,,,,,,,,,0,0,0,0,0,0,0,0,0,0,0,0,0,0,0,0,,,,,0.0,,,,,,
141079,0,,,,,,,,,,,,,,,,,,,,,,,,,,,,,,,,,,0,0,0,0,0,0,0,0,0,0,0,0,0,0,0,0,,,,,,,,,,,
141099,0,0.0,135,,-0.14,-0.03,0.98,-0,-0,-0,0.99,1.44,69,1261,0.0,3.45,,14.26,1.041,84.4,,24.9,5,,,,,,,,,,,,0,0,0,0,0,0,0,0,0,0,0,0,0,0,0,0,,,,,0.0,,,,,,
141119,0,,,,,,,,,,,,,,,,,,,,,,,,,,,,,,,,,,0,0,0,0,0,0,0,0,0,0,0,0,0,0,0,0,,,,,,,,,,,
141139,0,0.0,135,13.54,-0.13,-0.05,0.98,0,-0,-0,0.99,1.44,69,1297,0.0,3.46,15,14.2,1.065,84.4,128,23.5,5,0,0,0,0,0.0,0.0,0.0,0.0,2.26,0,0.0,0,0,0,0,0,0,0,0,0,0,0,0,0,0,0,0,0,0.0,0,-0,0.0,0.0,0.0,0.0,0,0,0.0
141159,0,,,,,,,,,,,,,,,,,,,,,,,,,,,,,,,,,,0,0,0,0,0,0,0,0,0,0,0,0,0,0,0,0,,,,,,,,,,,
141179,0,0.0,135,,-0.11,-0.05,1.0,-0,-0,-0,1.01,1.44,70,1380,0.0,3.45,,14.2,1.065,84.4,,23.5,5,,,,,,,,,,,,0,0,0,0,0,0,0,0,0,0,0,0,0,0,0,0,,,,,0.0,,,,,,
141199,0,,,,,,,,,,,,,,,,,,,,,,,,,,,,,,,,,,0,0,0,0,0,0,0,0,0,0,0,0,0,0,0,0,,,,,,,,,,,
141219,0,0.0,135,,-0.1,-0.05,0.99,-0,-0,-0,0.99,1.44,69,1380,0.0,3.45,,14.08,1.064,84.4,,24.3,5,,,,,,,,,,,,0,0,0,0,0,0,0,0,0,0,0,0,0,0,0,0,,,,,0.0,,,,,,
141239,0,,,,,,,,,,,,,,,,,,,,,,,0,0,0,0,0.0,0.0,0.0,0.0,2.26,,,0,0,0,0,0,0,0,0,0,0,0,0,0,0,0,0,0,,,,,0.0,0.0,0.0,0,0,0.0
