"Interval"|"ms"|0|0|1,"Utc"|"ms"|0|0|1,"FrontBP"|"psi"|-5.0|5.0|25,"SteerAng"|"Degrees"|-145.0|145.0|25,"Battery"|"Volts"|-5.0|20.0|1,"AccelX"|"G"|-3.0|3.0|25,"AccelY"|"G"|-3.0|3.0|25,"AccelZ"|"G"|-3.0|3.0|25,"Yaw"|"Deg/Sec"|-120|120|25,"Pitch"|"Deg/Sec"|-120|120|25,"Roll"|"Deg/Sec"|-120|120|25,"Gsum"|"G"|0.0|3.0|25,"GsumMax"|"G"|0.0|3.0|25,"GsumPct"|"%"|0|100|25,"RPM"|""|0|10000|25,"TPS"|"%"|0.0|100.0|25,"InjectorPW"|"ms"|0.0|100.0|25,"Baro"|"kPa"|0|105|1,"MAP"|"Psi"|0.0|255.0|25,"Lambda"|""|-2.0|2.0|25,"IAT"|"C"|0.0|200.0|25,"EngineTemp"|"C"|0|200|1,"EOP"|"PSI"|0.0|152.0|25,"EOT"|"F"|0|250|25,"WSFR"|"MPH"|0|150|10,"WSFL"|"MPH"|0|100|10,"WSRR"|"MPH"|0|100|10,"WSRL"|""|0|100|10,"TCSet"|"%"|0.0|100.0|10,"TCSlip"|"%"|0.0|100.0|10,"TCComp"|"deg"|0.0|50.0|10,"TCCut"|"%"|0.0|100.0|10,"Analog8"|""|0.0|5.0|10,"OilTemp"|"F"|0|300|1,"AA_On"|""|0.0|1.0|1,"ThermLF1"|"C"|0|400|50,"ThermLF2"|"C"|0|400|50,"ThermRR1"|"C"|0|400|50,"ThermRR2"|"C"|0|400|50,"ThermLF3"|"C"|0|400|50,"ThermLF4"|"C"|0|400|50,"ThermLF5"|"C"|0|400|50,"ThermLF6"|"C"|0|400|50,"ThermLF7"|"C"|0|400|50,"ThermLF8"|"C"|0|400|50,"ThermRR3"|"C"|0|400|50,"ThermRR4"|"C"|0|400|50,"ThermRR5"|"C"|0|400|50,"ThermRR6"|"C"|0|400|50,"ThermRR7"|"C"|0|400|50,"ThermRR8"|"C"|0|400|50,"Gear"|""|1|6|10,"AA_On"|""|0.0|1.0|1,"AA_LowDrag"|""|0|1|1,"Fuel_Mix"|""|-10|10|1,"AA_Packages"|""|0.0|1000.0|25,"Latitude"|"Degrees"|-180.0|180.0|10,"Longitude"|"Degrees"|-180.0|180.0|10,"Speed"|"kph"|0.0|150.0|10,"GPSSats"|""|0|20|10,"GPSQual"|""|0|5|10,"GPSDOP"|""|0.0|20.0|10
598628,1745084324817,0.0,178.73,,-0.05,-0.06,0.94,0,-0,0,0.94,0.94,100,4884,5.6,3.16,,11.96,0.815,86.2,,67.3,5,,,,,,,,,,,,0,0,0,0,0,0,0,0,0,0,0,0,0,0,0,0,,,,,0.0,,,,,,
598648,1745084324837,,,,,,,,,,,,,,,,,,,,,,,,,,,,,,,,,,0,0,0,0,0,0,0,0,0,0,0,0,0,0,0,0,,,,,,,,,,,
598668,1745084324857,0.0,178.86,,-0.04,-0.06,0.93,-0,-0,0,0.93,0.94,98,4973,5.7,3.15,,12.0,0.813,86.2,,64.6,5,,,,,,,,,,,,0,0,0,0,0,0,0,0,0,0,0,0,0,0,0,0,,,,,0.0,,,,,,
598688,1745084324877,,,,,,,,,,,,,,,,,,,,,,,,,,,,,,,,,,0,0,0,0,0,0,0,0,0,0,0,0,0,0,0,0,,,,,,,,,,,
598708,1745084324897,0.0,178.86,13.89,-0.05,-0.07,0.94,-0,-0,0,0.94,0.94,100,5043,5.7,3.16,15,12.0,0.813,84.4,137,64.6,5,0,0,0,0,0.0,0.0,0.0,0.0,2.26,0,0.0,0,0,0,0,0,0,0,0,0,0,0,0,0,0,0,0,0,0.0,0,0,0.0,39.239887,-77.965652,0.05,30,3,0.9
598728,1745084324917,,,,,,,,,,,,,,,,,,,,,,,,,,,,,,,,,,0,0,0,0,0,0,0,0,0,0,0,0,0,0,0,0,,,,,,,,,,,
598748,1745084324937,0.0,178.86,,-0.04,-0.05,0.98,1,-0,0,0.98,0.98,100,5043,5.7,3.16,,11.89,0.814,84.4,,66.0,5,,,,,,,,,,,,0,0,0,0,0,0,0,0,0,0,0,0,0,0,0,0,,,,,0.0,,,,,,
598768,1745084324957,,,,,,,,,,,,,,,,,,,,,,,,,,,,,,,,,,0,0,0,0,0,0,0,0,0,0,0,0,0,0,0,0,,,,,,,,,,,
598788,1745084324977,0.0,178.73,,-0.02,-0.05,0.96,1,-0,-0,0.96,0.98,98,4972,5.7,3.12,,11.81,0.815,84.4,,66.0,5,,,,,,,,,,,,0,0,0,0,0,0,0,0,0,0,0,0,0,0,0,0,,,,,0.0,,,,,,
598808,1745084324997,,,,,,,,,,,,,,,,,,,,,,,0,0,0,0,0.0,0.0,0.0,0.0,2.26,,,0,0,0,0,0,0,0,0,0,0,0,0,0,0,0,0,0,,,,,39.239887,-77.965652,0.47,30,3,0.9
598828,1745084325007,0.0,178.73,,-0.04,-0.05,0.98,1,-0,0,0.98,0.98,100,4941,5.8,3.06,,11.85,0.818,84.4,,66.0,5,,,,,,,,,,,,0,0,0,0,0,0,0,0,0,0,0,0,0,0,0,0,,,,,0.0,,,,,,
598848,1745084325027,,,,,,,,,,,,,,,,,,,,,,,,,,,,,,,,,,0,0,0,0,0,0,0,0,0,0,0,0,0,0,0,0,,,,,,,,,,,
598868,1745084325047,0.0,178.86,,-0.0,-0.04,0.93,0,-0,-0,0.93,0.98,95,4858,5.9,3.08,,11.93,0.814,84.4,,64.3,5,,,,,,,,,,,,0,0,0,0,0,0,0,0,0,0,0,0,0,0,0,0,,,,,0.0,,,,,,
598888,1745084325067,,,,,,,,,,,,,,,,,,,,,,,,,,,,,,,,,,0,0,0,0,0,0,0,0,0,0,0,0,0,0,0,0,,,,,,,,,,,
598908,1745084325087,0.0,178.86,,-0.01,0.0,1.01,2,-0,-0,1.01,1.01,100,4720,5.7,3.09,,11.93,0.814,84.4,,64.3,5,0,0,0,0,0.0,0.0,0.0,0.0,2.26,,,0,0,0,0,0,0,0,0,0,0,0,0,0,0,0,0,0,,,,0.0,39.239887,-77.965652,0.33,30,3,0.9
598928,1745084325111,,,,,,,,,,,,,,,,,,,,,,,,,,,,,,,,,,0,0,0,0,0,0,0,0,0,0,0,0,0,0,0,0,,,,,,,,,,,
598948,1745084325131,0.0,178.86,,-0.05,-0.01,1.05,1,-0,0,1.05,1.05,100,4720,5.7,3.09,,11.95,0.814,84.4,,62.2,5,,,,,,,,,,,,0,0,0,0,0,0,0,0,0,0,0,0,0,0,0,0,,,,,0.0,,,,,,
598968,1745084325151,,,,,,,,,,,,,,,,,,,,,,,,,,,,,,,,,,0,0,0,0,0,0,0,0,0,0,0,0,0,0,0,0,,,,,,,,,,,
598988,1745084325171,0.0,178.73,,-0.08,0.0,1.09,1,-0,1,1.09,1.09,100,4570,5.5,3.1,,11.92,0.814,84.4,,62.2,5,,,,,,,,,,,,0,0,0,0,0,0,0,0,0,0,0,0,0,0,0,0,,,,,0.0,,,,,,
599008,1745084325191,,,,,,,,,,,,,,,,,,,,,,,0,0,0,0,0.0,0.0,0.0,0.0,2.26,,,0,0,0,0,0,0,0,0,0,0,0,0,0,0,0,0,0,,,,,39.239887,-77.965652,0.17,30,3,0.9
599028,1745084325215,0.0,178.73,,-0.11,0.05,1.13,0,-0,1,1.13,1.13,100,4475,5.5,3.11,,12.08,0.813,84.4,,62.2,5,,,,,,,,,,,,0,0,0,0,0,0,0,0,0,0,0,0,0,0,0,0,,,,,0.0,,,,,,
599048,1745084325235,,,,,,,,,,,,,,,,,,,,,,,,,,,,,,,,,,0,0,0,0,0,0,0,0,0,0,0,0,0,0,0,0,,,,,,,,,,,
599068,1745084325255,0.0,178.73,,-0.08,0.1,1.16,2,-0,1,1.16,1.16,100,4352,5.5,3.28,,12.11,0.817,84.4,,58.9,5,,,,,,,,,,,,0,0,0,0,0,0,0,0,0,0,0,0,0,0,0,0,,,,,0.0,,,,,,
599088,1745084325275,,,,,,,,,,,,,,,,,,,,,,,,,,,,,,,,,,0,0,0,0,0,0,0,0,0,0,0,0,0,0,0,0,,,,,,,,,,,
599108,1745084325295,0.0,178.86,,-0.05,-0.0,1.04,2,-0,0,1.04,1.16,90,4305,5.5,3.29,,12.11,0.817,84.4,,58.9,5,0,0,0,0,0.0,0.0,0.0,0.0,2.26,,,0,0,0,0,0,0,0,0,0,0,0,0,0,0,0,0,0,,,,0.0,39.239887,-77.965652,0.59,30,3,0.9
599128,1745084325317,,,,,,,,,,,,,,,,,,,,,,,,,,,,,,,,,,0,0,0,0,0,0,0,0,0,0,0,0,0,0,0,0,,,,,,,,,,,
599148,1745084325337,0.0,178.73,,-0.07,-0.03,1.01,1,-0,0,1.02,1.16,87,4305,5.5,3.29,,12.17,0.831,84.4,,56.4,5,,,,,,,,,,,,0,0,0,0,0,0,0,0,0,0,0,0,0,0,0,0,,,,,0.0,,,,,,
599168,1745084325357,,,,,,,,,,,,,,,,,,,,,,,,,,,,,,,,,,0,0,0,0,0,0,0,0,0,0,0,0,0,0,0,0,,,,,,,,,,,
599188,1745084325377,0.0,178.73,,-0.05,0.09,1.07,1,-0,1,1.07,1.16,92,4224,5.6,3.29,,12.16,0.844,84.4,,56.4,5,,,,,,,,,,,,0,0,0,0,0,0,0,0,0,0,0,0,0,0,0,0,,,,,0.0,,,,,,
599208,1745084325397,,,,,,,,,,,,,,,,,,,,,,,0,0,0,0,0.0,0.0,0.0,0.0,2.26,,,0,0,0,0,0,0,0,0,0,0,0,0,0,0,0,0,0,,,,,39.239887,-77.965652,0.55,30,3,0.9
599228,1745084325417,0.0,178.73,,-0.06,0.02,1.03,1,-0,0,1.03,1.16,88,4088,5.6,3.29,,12.17,0.857,84.4,,56.4,5,,,,,,,,,,,,0,0,0,0,0,0,0,0,0,0,0,0,0,0,0,0,,,,,0.0,,,,,,
599248,1745084325437,,,,,,,,,,,,,,,,,,,,,,,,,,,,,,,,,,0,0,0,0,0,0,0,0,0,0,0,0,0,0,0,0,,,,,,,,,,,
599268,1745084325457,0.0,178.73,,-0.04,0.04,1.02,1,-0,0,1.02,1.16,88,4036,5.5,3.3,,12.33,0.894,84.4,,55.3,5,,,,,,,,,,,,0,0,0,0,0,0,0,0,0,0,0,0,0,0,0,0,,,,,0.0,,,,,,
599288,1745084325477,,,,,,,,,,,,,,,,,,,,,,,,,,,,,,,,,,0,0,0,0,0,0,0,0,0,0,0,0,0,0,0,0,,,,,,,,,,,
599308,1745084325497,0.0,178.73,,-0.05,0.12,1.07,2,-0,1,1.08,1.16,93,3891,5.5,3.5,,12.33,0.894,84.4,,55.3,5,0,0,0,0,0.0,0.0,0.0,0.0,2.26,,,0,0,0,0,0,0,0,0,0,0,0,0,0,0,0,0,0,,,,0.0,39.239887,-77.965652,0.44,30,3,0.9
599328,1745084325517,,,,,,,,,,,,,,,,,,,,,,,,,,,,,,,,,,0,0,0,0,0,0,0,0,0,0,0,0,0,0,0,0,,,,,,,,,,,
599348,1745084325537,0.0,178.73,,-0.04,0.1,1.08,2,-0,1,1.08,1.16,93,3891,5.5,3.5,,12.36,0.934,84.4,,54.2,5,,,,,,,,,,,,0,0,0,0,0,0,0,0,0,0,0,0,0,0,0,0,,,,,0.0,,,,,,
599368,1745084325557,,,,,,,,,,,,,,,,,,,,,,,,,,,,,,,,,,0,0,0,0,0,0,0,0,0,0,0,0,0,0,0,0,,,,,,,,,,,
599388,1745084325577,0.0,178.61,,-0.03,0.05,1.07,2,-0,1,1.08,1.16,93,3762,5.5,3.5,,12.48,0.923,84.4,,54.2,5,,,,,,,,,,,,0,0,0,0,0,0,0,0,0,0,0,0,0,0,0,0,,,,,0.0,,,,,,
599408,1745084325597,,,,,,,,,,,,,,,,,,,,,,,0,0,0,0,0.0,0.0,0.0,0.0,2.26,,,0,0,0,0,0,0,0,0,0,0,0,0,0,0,0,0,0,,,,,39.239887,-77.965652,0.58,30,3,0.9
599428,1745084325617,0.0,178.61,,-0.03,0.02,1.07,2,-0,1,1.07,1.16,92,3817,5.4,3.51,,12.56,0.96,84.4,,54.2,5,,,,,,,,,,,,0,0,0,0,0,0,0,0,0,0,0,0,0,0,0,0,,,,,0.0,,,,,,
599448,1745084325637,,,,,,,,,,,,,,,,,,,,,,,,,,,,,,,,,,0,0,0,0,0,0,0,0,0,0,0,0,0,0,0,0,,,,,,,,,,,
599468,1745084325657,0.0,178.61,,-0.03,0.03,1.07,2,-0,1,1.07,1.16,92,3724,5.4,3.53,,12.6,1.023,84.4,,53.9,5,,,,,,,,,,,,0,0,0,0,0,0,0,0,0,0,0,0,0,0,0,0,,,,,0.0,,,,,,
599488,1745084325677,,,,,,,,,,,,,,,,,,,,,,,,,,,,,,,,,,0,0,0,0,0,0,0,0,0,0,0,0,0,0,0,0,,,,,,,,,,,
599508,1745084325697,0.0,178.61,,-0.02,0.06,1.04,1,-0,1,1.04,1.16,89,3611,5.5,3.54,,12.6,1.023,84.4,,53.9,5,0,0,0,0,0.0,0.0,0.0,0.0,2.26,,,0,0,0,0,0,0,0,0,0,0,0,0,0,0,0,0,0,,,,0.0,39.239887,-77.965652,0.64,30,3,0.9
599528,1745084325716,,,,,,,,,,,,,,,,,,,,,,,,,,,,,,,,,,0,0,0,0,0,0,0,0,0,0,0,0,0,0,0,0,,,,,,,,,,,
599548,1745084325736,0.0,178.61,,-0.01,-0.03,1.02,-1,-0,0,1.02,1.16,87,3611,5.5,3.54,,12.72,0.941,84.4,,50.1,5,,,,,,,,,,,,0,0,0,0,0,0,0,0,0,0,0,0,0,0,0,0,,,,,0.0,,,,,,
599568,1745084325756,,,,,,,,,,,,,,,,,,,,,,,,,,,,,,,,,,0,0,0,0,0,0,0,0,0,0,0,0,0,0,0,0,,,,,,,,,,,
599588,1745084325776,0.0,178.48,,-0.03,-0.02,1.07,3,-0,0,1.07,1.16,92,3512,5.4,3.55,,12.85,0.921,84.4,,50.1,5,,,,,,,,,,,,0,0,0,0,0,0,0,0,0,0,0,0,0,0,0,0,,,,,0.0,,,,,,
599608,1745084325796,,,,,,,,,,,,,,,,,,,,,,,0,0,0,0,0.0,0.0,0.0,0.0,2.26,,,0,0,0,0,0,0,0,0,0,0,0,0,0,0,0,0,0,,,,,39.239887,-77.965652,0.75,30,3,0.9
599628,1745084325816,0.0,178.48,,-0.02,-0.06,1.01,-1,-0,0,1.01,1.16,87,3347,5.5,3.49,,13.01,0.961,84.4,,50.1,5,,,,,,,,,,,,0,0,0,0,0,0,0,0,0,0,0,0,0,0,0,0,,,,,0.0,,,,,,
599648,1745084325836,,,,,,,,,,,,,,,,,,,,,,,,,,,,,,,,,,0,0,0,0,0,0,0,0,0,0,0,0,0,0,0,0,,,,,,,,,,,
599668,1745084325856,0.0,178.48,,-0.04,0.05,0.98,2,-0,0,0.98,1.16,85,3187,5.6,3.52,,13.08,0.989,84.4,,45.9,5,,,,,,,,,,,,0,0,0,0,0,0,0,0,0,0,0,0,0,0,0,0,,,,,0.0,,,,,,
599688,1745084325876,,,,,,,,,,,,,,,,,,,,,,,,,,,,,,,,,,0,0,0,0,0,0,0,0,0,0,0,0,0,0,0,0,,,,,,,,,,,
599708,1745084325896,0.0,178.48,13.92,-0.04,0.11,0.96,5,-1,1,0.97,1.16,83,2983,9.0,3.62,15,13.08,0.989,84.4,137,45.9,5,0,0,0,0,0.0,0.0,0.0,0.0,2.26,0,0.0,0,0,0,0,0,0,0,0,0,0,0,0,0,0,0,0,0,0.0,0,0,0.0,39.239887,-77.965652,0.81,30,3,0.9
599728,1745084325916,,,,,,,,,,,,,,,,,,,,,,,,,,,,,,,,,,0,0,0,0,0,0,0,0,0,0,0,0,0,0,0,0,,,,,,,,,,,
599748,1745084325936,0.0,178.48,,-0.04,0.16,0.92,8,-1,1,0.94,1.16,81,2983,9.0,3.62,,13.36,0.993,84.4,,39.6,5,,,,,,,,,,,,0,0,0,0,0,0,0,0,0,0,0,0,0,0,0,0,,,,,0.0,,,,,,
599768,1745084325956,,,,,,,,,,,,,,,,,,,,,,,,,,,,,,,,,,0,0,0,0,0,0,0,0,0,0,0,0,0,0,0,0,,,,,,,,,,,
599788,1745084325976,0.0,178.48,,-0.05,0.15,0.91,7,-1,0,0.92,1.16,79,2865,11.9,3.71,,13.63,0.986,84.4,,39.6,5,,,,,,,,,,,,0,0,0,0,0,0,0,0,0,0,0,0,0,0,0,0,,,,,0.0,,,,,,
599808,1745084325996,,,,,,,,,,,,,,,,,,,,,,,0,0,1,0,0.0,0.0,0.0,0.0,2.26,,,0,0,0,0,0,0,0,0,0,0,0,0,0,0,0,0,0,,,,,39.239887,-77.965652,0.99,30,3,0.9
599828,1745084326008,0.0,178.48,,-0.05,0.13,0.92,6,-1,0,0.93,1.16,80,2728,12.7,3.73,,13.79,0.974,84.4,,39.6,5,,,,,,,,,,,,0,0,0,0,0,0,0,0,0,0,0,0,0,0,0,0,,,,,0.0,,,,,,
599848,1745084326028,,,,,,,,,,,,,,,,,,,,,,,,,,,,,,,,,,0,0,0,0,0,0,0,0,0,0,0,0,0,0,0,0,,,,,,,,,,,
599868,1745084326048,0.0,178.36,,-0.05,0.12,0.92,5,-0,0,0.92,1.16,79,2635,12.8,3.73,,13.84,1.011,84.4,,34.0,5,,,,,,,,,,,,0,0,0,0,0,0,0,0,0,0,0,0,0,0,0,0,,,,,0.0,,,,,,
599888,1745084326068,,,,,,,,,,,,,,,,,,,,,,,,,,,,,,,,,,0,0,0,0,0,0,0,0,0,0,0,0,0,0,0,0,,,,,,,,,,,
599908,1745084326088,0.0,178.48,,-0.04,0.09,0.93,5,-0,0,0.94,1.16,80,2561,12.8,3.63,,13.84,1.011,84.4,,34.0,5,1,0,1,0,0.0,0.0,0.0,0.0,2.26,,,0,0,0,0,0,0,0,0,0,0,0,0,0,0,0,0,0,,,,0.0,39.239887,-77.96566,1.03,30,3,0.9
599928,1745084326118,,,,,,,,,,,,,,,,,,,,,,,,,,,,,,,,,,0,0,0,0,0,0,0,0,0,0,0,0,0,0,0,0,,,,,,,,,,,
599948,1745084326138,0.0,178.48,,-0.02,0.05,0.96,5,-0,0,0.96,1.16,82,2561,12.8,3.63,,13.9,1.101,84.4,,31.5,5,,,,,,,,,,,,0,0,0,0,0,0,0,0,0,0,0,0,0,0,0,0,,,,,0.0,,,,,,
599968,1745084326158,,,,,,,,,,,,,,,,,,,,,,,,,,,,,,,,,,0,0,0,0,0,0,0,0,0,0,0,0,0,0,0,0,,,,,,,,,,,
599988,1745084326178,0.0,178.48,,-0.02,0.02,0.97,4,-0,0,0.97,1.16,84,2482,12.9,3.63,,13.94,1.172,84.4,,31.5,5,,,,,,,,,,,,0,0,0,0,0,0,0,0,0,0,0,0,0,0,0,0,,,,,0.0,,,,,,
600008,1745084326198,,,,,,,,,,,,,,,,,,,,,,,1,0,1,1,0.0,0.0,0.0,0.0,2.26,,,0,0,0,0,0,0,0,0,0,0,0,0,0,0,0,0,0,,,,,39.239887,-77.96566,1.13,30,3,0.9
600028,1745084326216,0.0,178.36,,-0.04,0.02,0.97,4,-0,0,0.97,1.16,84,2331,18.2,4.1,,14.04,1.218,84.4,,31.5,5,,,,,,,,,,,,0,0,0,0,0,0,0,0,0,0,0,0,0,0,0,0,,,,,0.0,,,,,,
600048,1745084326236,,,,,,,,,,,,,,,,,,,,,,,,,,,,,,,,,,0,0,0,0,0,0,0,0,0,0,0,0,0,0,0,0,,,,,,,,,,,
600068,1745084326256,0.0,178.36,,-0.03,0.02,0.97,4,-0,0,0.97,1.16,83,2349,20.8,4.63,,14.07,1.226,84.4,,28.5,5,,,,,,,,,,,,0,0,0,0,0,0,0,0,0,0,0,0,0,0,0,0,,,,,0.0,,,,,,
600088,1745084326276,,,,,,,,,,,,,,,,,,,,,,,,,,,,,,,,,,0,0,0,0,0,0,0,0,0,0,0,0,0,0,0,0,,,,,,,,,,,
600108,1745084326296,0.0,178.36,,-0.06,0.04,0.95,4,-0,0,0.95,1.16,82,2515,21.4,4.62,,14.07,1.226,84.4,,28.5,5,1,0,1,1,0.0,0.0,0.0,0.0,2.26,,,0,0,0,0,0,0,0,0,0,0,0,0,0,0,0,0,0,,,,0.0,39.239887,-77.96566,1.3,30,3,0.9
600128,1745084326318,,,,,,,,,,,,,,,,,,,,,,,,,,,,,,,,,,0,0,0,0,0,0,0,0,0,0,0,0,0,0,0,0,,,,,,,,,,,
600148,1745084326338,0.0,178.61,,-0.05,0.02,0.99,4,-0,0,0.99,1.16,85,2515,21.4,4.62,,14.04,1.235,84.4,,32.2,5,,,,,,,,,,,,0,0,0,0,0,0,0,0,0,0,0,0,0,0,0,0,,,,,0.0,,,,,,
600168,1745084326358,,,,,,,,,,,,,,,,,,,,,,,,,,,,,,,,,,0,0,0,0,0,0,0,0,0,0,0,0,0,0,0,0,,,,,,,,,,,
600188,1745084326378,0.0,178.48,,-0.07,0.06,0.95,5,-1,0,0.96,1.16,82,2692,21.7,4.62,,14.03,1.235,84.4,,32.2,5,,,,,,,,,,,,0,0,0,0,0,0,0,0,0,0,0,0,0,0,0,0,,,,,0.0,,,,,,
600208,1745084326398,,,,,,,,,,,,,,,,,,,,,,,1,0,1,1,0.0,0.0,0.0,0.0,2.26,,,0,0,0,0,0,0,0,0,0,0,0,0,0,0,0,0,0,,,,,39.239887,-77.96566,1.4,30,3,0.9
600228,1745084326418,0.0,178.48,,-0.09,0.12,0.89,5,-1,0,0.9,1.16,78,2851,22.1,4.6,,14.02,1.234,84.4,,32.2,5,,,,,,,,,,,,0,0,0,0,0,0,0,0,0,0,0,0,0,0,0,0,,,,,0.0,,,,,,
600248,1745084326438,,,,,,,,,,,,,,,,,,,,,,,,,,,,,,,,,,0,0,0,0,0,0,0,0,0,0,0,0,0,0,0,0,,,,,,,,,,,
600268,1745084326458,0.0,178.48,,-0.11,0.22,0.84,5,-1,0,0.87,1.16,75,3015,22.3,4.57,,13.95,1.204,84.4,,39.3,5,,,,,,,,,,,,0,0,0,0,0,0,0,0,0,0,0,0,0,0,0,0,,,,,0.0,,,,,,
600288,1745084326478,,,,,,,,,,,,,,,,,,,,,,,,,,,,,,,,,,0,0,0,0,0,0,0,0,0,0,0,0,0,0,0,0,,,,,,,,,,,
600308,1745084326498,0.0,178.48,,-0.13,0.24,0.89,8,-1,1,0.93,1.16,80,3340,22.3,4.55,,13.95,1.204,84.4,,39.3,5,1,0,1,1,0.0,0.0,0.0,0.0,2.26,,,0,0,0,0,0,0,0,0,0,0,0,0,0,0,0,0,0,,,,0.0,39.239887,-77.96566,1.12,30,3,0.9
600328,1745084326518,,,,,,,,,,,,,,,,,,,,,,,,,,,,,,,,,,0,0,0,0,0,0,0,0,0,0,0,0,0,0,0,0,,,,,,,,,,,
600348,1745084326538,0.0,178.48,,-0.12,0.25,0.86,5,-1,0,0.9,1.16,77,3340,22.3,4.55,,13.86,1.187,84.4,,45.7,5,,,,,,,,,,,,0,0,0,0,0,0,0,0,0,0,0,0,0,0,0,0,,,,,0.0,,,,,,
600368,1745084326558,,,,,,,,,,,,,,,,,,,,,,,,,,,,,,,,,,0,0,0,0,0,0,0,0,0,0,0,0,0,0,0,0,,,,,,,,,,,
600388,1745084326578,0.0,178.48,,-0.13,0.23,0.89,5,-1,0,0.93,1.16,80,3678,21.0,4.5,,13.82,1.178,84.4,,45.7,5,,,,,,,,,,,,0,0,0,0,0,0,0,0,0,0,0,0,0,0,0,0,,,,,0.0,,,,,,
600408,1745084326598,,,,,,,,,,,,,,,,,,,,,,,1,0,1,1,0.0,0.0,0.0,0.0,2.26,,,0,0,0,0,0,0,0,0,0,0,0,0,0,0,0,0,0,,,,,39.239887,-77.96566,0.84,30,3,0.9
600428,1745084326618,0.0,178.48,,-0.14,0.1,0.86,4,-1,0,0.88,1.16,75,3963,17.9,4.31,,13.59,1.221,84.4,,45.7,5,,,,,,,,,,,,0,0,0,0,0,0,0,0,0,0,0,0,0,0,0,0,,,,,0.0,,,,,,
600448,1745084326638,,,,,,,,,,,,,,,,,,,,,,,,,,,,,,,,,,0,0,0,0,0,0,0,0,0,0,0,0,0,0,0,0,,,,,,,,,,,
600468,1745084326658,0.0,178.48,,-0.15,0.18,0.96,5,-1,1,0.99,1.16,85,4280,16.1,4.15,,13.41,1.126,84.4,,58.4,5,,,,,,,,,,,,0,0,0,0,0,0,0,0,0,0,0,0,0,0,0,0,,,,,0.0,,,,,,
600488,1745084326678,,,,,,,,,,,,,,,,,,,,,,,,,,,,,,,,,,0,0,0,0,0,0,0,0,0,0,0,0,0,0,0,0,,,,,,,,,,,
600508,1745084326698,0.0,178.61,,-0.12,0.18,0.94,5,-1,0,0.97,1.16,83,4302,15.8,3.47,,13.41,1.126,84.4,,58.4,5,1,0,1,1,0.0,0.0,0.0,0.0,2.26,,,0,0,0,0,0,0,0,0,0,0,0,0,0,0,0,0,0,,,,0.0,39.239883,-77.96566,0.79,30,3,0.9
600528,1745084326717,,,,,,,,,,,,,,,,,,,,,,,,,,,,,,,,,,0,0,0,0,0,0,0,0,0,0,0,0,0,0,0,0,,,,,,,,,,,
600548,1745084326737,0.0,178.48,,-0.08,0.06,0.84,4,-1,-0,0.85,1.16,73,4302,15.8,3.47,,13.21,1.033,84.4,,61.7,5,,,,,,,,,,,,0,0,0,0,0,0,0,0,0,0,0,0,0,0,0,0,,,,,0.0,,,,,,
600568,1745084326757,,,,,,,,,,,,,,,,,,,,,,,,,,,,,,,,,,0,0,0,0,0,0,0,0,0,0,0,0,0,0,0,0,,,,,,,,,,,
600588,1745084326777,0.0,178.61,,-0.09,-0.03,0.81,2,-0,-0,0.81,1.16,70,4347,15.7,3.47,,13.23,1.017,84.4,,61.7,5,,,,,,,,,,,,0,0,0,0,0,0,0,0,0,0,0,0,0,0,0,0,,,,,0.0,,,,,,
600608,1745084326797,,,,,,,,,,,,,,,,,,,,,,,0,0,1,1,0.0,0.0,0.0,0.0,2.26,,,0,0,0,0,0,0,0,0,0,0,0,0,0,0,0,0,0,,,,,39.239883,-77.96566,0.54,30,3,0.9
600628,1745084326817,0.0,178.61,,-0.12,0.05,0.9,2,-0,0,0.91,1.16,78,4351,15.8,3.46,,13.28,1.069,84.4,,61.7,5,,,,,,,,,,,,0,0,0,0,0,0,0,0,0,0,0,0,0,0,0,0,,,,,0.0,,,,,,
600648,1745084326837,,,,,,,,,,,,,,,,,,,,,,,,,,,,,,,,,,0,0,0,0,0,0,0,0,0,0,0,0,0,0,0,0,,,,,,,,,,,
600668,1745084326857,0.0,178.61,,-0.12,0.12,1.01,3,-0,0,1.02,1.16,88,4321,15.9,3.45,,13.24,1.163,84.4,,62.7,5,,,,,,,,,,,,0,0,0,0,0,0,0,0,0,0,0,0,0,0,0,0,,,,,0.0,,,,,,
600688,1745084326877,,,,,,,,,,,,,,,,,,,,,,,,,,,,,,,,,,0,0,0,0,0,0,0,0,0,0,0,0,0,0,0,0,,,,,,,,,,,
600708,1745084326897,0.0,178.61,13.87,-0.1,0.11,0.97,3,-0,-0,0.98,1.16,84,4350,15.9,3.46,15,13.24,1.163,84.4,137,62.7,5,0,0,1,1,0.0,0.0,0.0,0.0,2.26,0,0.0,0,0,0,0,0,0,0,0,0,0,0,0,0,0,0,0,0,0.0,0,-0,0.0,39.239883,-77.96566,0.34,30,3,0.9
600728,1745084326917,,,,,,,,,,,,,,,,,,,,,,,,,,,,,,,,,,0,0,0,0,0,0,0,0,0,0,0,0,0,0,0,0,,,,,,,,,,,
600748,1745084326937,0.0,178.61,,-0.06,0.03,0.94,3,-0,-0,0.94,1.16,81,4350,15.9,3.46,,13.23,1.199,84.4,,64.4,5,,,,,,,,,,,,0,0,0,0,0,0,0,0,0,0,0,0,0,0,0,0,,,,,0.0,,,,,,
600768,1745084326957,,,,,,,,,,,,,,,,,,,,,,,,,,,,,,,,,,0,0,0,0,0,0,0,0,0,0,0,0,0,0,0,0,,,,,,,,,,,
600788,1745084326977,0.0,178.61,,-0.08,0.06,0.98,4,-0,-0,0.99,1.16,85,4724,15.9,3.5,,13.27,1.106,84.4,,64.4,5,,,,,,,,,,,,0,0,0,0,0,0,0,0,0,0,0,0,0,0,0,0,,,,,0.0,,,,,,
600808,1745084326997,,,,,,,,,,,,,,,,,,,,,,,0,0,1,1,0.0,0.0,0.0,0.0,2.26,,,0,0,0,0,0,0,0,0,0,0,0,0,0,0,0,0,0,,,,,39.239883,-77.96566,0.16,30,3,0.9
600828,1745084327011,0.0,178.48,,-0.05,0.04,0.99,3,-0,-0,0.99,1.16,85,5022,15.9,3.56,,13.09,0.998,84.4,,64.4,5,,,,,,,,,,,,0,0,0,0,0,0,0,0,0,0,0,0,0,0,0,0,,,,,0.0,,,,,,
600848,1745084327031,,,,,,,,,,,,,,,,,,,,,,,,,,,,,,,,,,0,0,0,0,0,0,0,0,0,0,0,0,0,0,0,0,,,,,,,,,,,
600868,1745084327051,0.0,178.48,,-0.04,0.03,1.0,3,-0,-0,1.0,1.16,86,5253,15.7,3.6,,13.01,0.936,84.4,,69.1,5,,,,,,,,,,,,0,0,0,0,0,0,0,0,0,0,0,0,0,0,0,0,,,,,0.0,,,,,,
600888,1745084327071,,,,,,,,,,,,,,,,,,,,,,,,,,,,,,,,,,0,0,0,0,0,0,0,0,0,0,0,0,0,0,0,0,,,,,,,,,,,
600908,1745084327091,0.0,178.48,,-0.06,0.01,0.97,2,-0,-0,0.98,1.16,84,5545,15.8,3.61,,13.01,0.936,84.4,,69.1,5,0,0,1,1,0.0,0.0,0.0,0.0,2.26,,,0,0,0,0,0,0,0,0,0,0,0,0,0,0,0,0,0,,,,0.0,39.239883,-77.96566,0.0,30,3,0.9
600928,1745084327117,,,,,,,,,,,,,,,,,,,,,,,,,,,,,,,,,,0,0,0,0,0,0,0,0,0,0,0,0,0,0,0,0,,,,,,,,,,,
600948,1745084327137,0.0,178.48,,-0.03,0.02,1.09,3,-0,0,1.1,1.16,94,5545,15.8,3.61,,12.93,0.917,84.4,,70.5,5,,,,,,,,,,,,0,0,0,0,0,0,0,0,0,0,0,0,0,0,0,0,,,,,0.0,,,,,,
600968,1745084327157,,,,,,,,,,,,,,,,,,,,,,,,,,,,,,,,,,0,0,0,0,0,0,0,0,0,0,0,0,0,0,0,0,,,,,,,,,,,
600988,1745084327177,0.0,178.61,,-0.03,-0.01,1.18,3,-0,0,1.18,1.18,100,5981,15.7,3.64,,12.41,0.903,84.4,,70.5,5,,,,,,,,,,,,0,0,0,0,0,0,0,0,0,0,0,0,0,0,0,0,,,,,0.0,,,,,,
601008,1745084327197,,,,,,,,,,,,,,,,,,,,,,,0,0,0,1,0.0,0.0,0.0,0.0,2.26,,,0,0,0,0,0,0,0,0,0,0,0,0,0,0,0,0,0,,,,,39.239883,-77.96566,0.09,30,3,0.9
601028,1745084327215,0.0,178.61,,-0.04,0.04,1.13,2,-0,0,1.13,1.18,96,6582,15.8,4.03,,11.92,0.934,84.4,,70.5,5,,,,,,,,,,,,0,0,0,0,0,0,0,0,0,0,0,0,0,0,0,0,,,,,0.0,,,,,,
601048,1745084327235,,,,,,,,,,,,,,,,,,,,,,,,,,,,,,,,,,0,0,0,0,0,0,0,0,0,0,0,0,0,0,0,0,,,,,,,,,,,
601068,1745084327255,0.0,178.48,,-0.01,-0.13,1.1,3,-0,-0,1.11,1.18,94,7015,15.3,4.91,,11.18,0.96,84.4,,73.6,5,,,,,,,,,,,,0,0,0,0,0,0,0,0,0,0,0,0,0,0,0,0,,,,,0.0,,,,,,
601088,1745084327275,,,,,,,,,,,,,,,,,,,,,,,,,,,,,,,,,,0,0,0,0,0,0,0,0,0,0,0,0,0,0,0,0,,,,,,,,,,,
601108,1745084327295,0.0,178.48,,-0.02,-0.07,1.09,2,-0,-0,1.09,1.18,93,7830,10.7,3.43,,11.18,0.96,84.4,,73.6,5,0,0,0,1,0.0,0.0,0.0,0.0,2.26,,,0,0,0,0,0,0,0,0,0,0,0,0,0,0,0,0,0,,,,0.0,39.239883,-77.96566,0.11,30,3,0.9
601128,1745084327319,,,,,,,,,,,,,,,,,,,,,,,,,,,,,,,,,,0,0,0,0,0,0,0,0,0,0,0,0,0,0,0,0,,,,,,,,,,,
601148,1745084327339,0.0,178.61,,-0.01,-0.02,1.08,2,-0,0,1.08,1.18,92,7830,10.7,3.43,,10.46,0.919,84.4,,76.0,5,,,,,,,,,,,,0,0,0,0,0,0,0,0,0,0,0,0,0,0,0,0,,,,,0.0,,,,,,
601168,1745084327359,,,,,,,,,,,,,,,,,,,,,,,,,,,,,,,,,,0,0,0,0,0,0,0,0,0,0,0,0,0,0,0,0,,,,,,,,,,,
601188,1745084327379,0.0,178.61,,-0.03,0.07,1.06,1,-0,0,1.06,1.18,90,8296,5.6,2.76,,9.35,0.806,84.4,,76.0,5,,,,,,,,,,,,0,0,0,0,0,0,0,0,0,0,0,0,0,0,0,0,,,,,0.0,,,,,,
601208,1745084327399,,,,,,,,,,,,,,,,,,,,,,,0,0,0,1,0.0,0.0,0.0,0.0,2.26,,,0,0,0,0,0,0,0,0,0,0,0,0,0,0,0,0,0,,,,,39.239883,-77.96566,0.04,30,3,0.9
601228,1745084327419,0.0,178.61,,-0.01,-0.08,1.1,1,-0,-0,1.1,1.18,94,8806,5.6,2.4,,8.47,0.735,84.4,,76.0,5,,,,,,,,,,,,0,0,0,0,0,0,0,0,0,0,0,0,0,0,0,0,,,,,0.0,,,,,,
601248,1745084327439,,,,,,,,,,,,,,,,,,,,,,,,,,,,,,,,,,0,0,0,0,0,0,0,0,0,0,0,0,0,0,0,0,,,,,,,,,,,
601268,1745084327459,0.0,178.61,,-0.03,-0.04,1.04,-1,-0,-0,1.04,1.18,89,9221,6.1,2.19,,7.77,0.721,84.4,,76.7,5,,,,,,,,,,,,0,0,0,0,0,0,0,0,0,0,0,0,0,0,0,0,,,,,0.0,,,,,,
601288,1745084327479,,,,,,,,,,,,,,,,,,,,,,,,,,,,,,,,,,0,0,0,0,0,0,0,0,0,0,0,0,0,0,0,0,,,,,,,,,,,
601308,1745084327499,0.0,178.61,,-0.04,-0.05,1.0,-1,-0,-0,1.01,1.18,86,9485,6.6,2.02,,7.77,0.721,84.4,,76.7,5,0,0,0,1,0.0,0.0,0.0,0.0,2.26,,,0,0,0,0,0,0,0,0,0,0,0,0,0,0,0,0,0,,,,0.0,39.239883,-77.96566,0.04,30,3,0.9
601328,1745084327517,,,,,,,,,,,,,,,,,,,,,,,,,,,,,,,,,,0,0,0,0,0,0,0,0,0,0,0,0,0,0,0,0,,,,,,,,,,,
601348,1745084327537,0.0,178.61,,-0.03,0.08,0.97,-1,-0,0,0.98,1.18,83,9485,6.6,2.02,,7.25,0.732,84.4,,73.8,5,,,,,,,,,,,,0,0,0,0,0,0,0,0,0,0,0,0,0,0,0,0,,,,,0.0,,,,,,
601368,1745084327557,,,,,,,,,,,,,,,,,,,,,,,,,,,,,,,,,,0,0,0,0,0,0,0,0,0,0,0,0,0,0,0,0,,,,,,,,,,,
601388,1745084327577,0.0,178.61,,-0.03,0.15,0.96,-1,-0,0,0.98,1.18,83,9640,6.9,1.92,,6.9,0.747,84.4,,73.8,5,,,,,,,,,,,,0,0,0,0,0,0,0,0,0,0,0,0,0,0,0,0,,,,,0.0,,,,,,
601408,1745084327597,,,,,,,,,,,,,,,,,,,,,,,0,0,0,1,0.0,0.0,0.0,0.0,2.26,,,0,0,0,0,0,0,0,0,0,0,0,0,0,0,0,0,0,,,,,39.239883,-77.96566,0.04,30,3,0.9
601428,1745084327619,0.0,178.61,,0.0,0.15,0.99,-0,-0,0,1.01,1.18,86,9654,7.1,1.82,,6.76,0.762,84.4,,73.8,5,,,,,,,,,,,,0,0,0,0,0,0,0,0,0,0,0,0,0,0,0,0,,,,,0.0,,,,,,
601448,1745084327639,,,,,,,,,,,,,,,,,,,,,,,,,,,,,,,,,,0,0,0,0,0,0,0,0,0,0,0,0,0,0,0,0,,,,,,,,,,,
601468,1745084327659,0.0,178.61,,-0.01,0.03,0.97,-1,-0,0,0.97,1.18,83,9617,4.8,1.66,,6.46,0.782,84.4,,72.5,5,,,,,,,,,,,,0,0,0,0,0,0,0,0,0,0,0,0,0,0,0,0,,,,,0.0,,,,,,
601488,1745084327679,,,,,,,,,,,,,,,,,,,,,,,,,,,,,,,,,,0,0,0,0,0,0,0,0,0,0,0,0,0,0,0,0,,,,,,,,,,,
601508,1745084327699,0.0,178.61,,-0.01,0.05,0.99,-1,-0,0,0.99,1.18,85,9495,3.9,1.51,,6.46,0.782,84.4,,72.5,5,0,0,0,1,0.0,0.0,0.0,0.0,2.27,,,0,0,0,0,0,0,0,0,0,0,0,0,0,0,0,0,0,,,,0.0,39.239883,-77.96566,0.08,30,3,0.9
601528,1745084327716,,,,,,,,,,,,,,,,,,,,,,,,,,,,,,,,,,0,0,0,0,0,0,0,0,0,0,0,0,0,0,0,0,,,,,,,,,,,
601548,1745084327736,0.0,178.61,,0.02,0.21,0.98,-1,-0,0,1.0,1.18,85,9495,3.9,1.51,,6.15,0.798,84.4,,72.2,5,,,,,,,,,,,,0,0,0,0,0,0,0,0,0,0,0,0,0,0,0,0,,,,,0.0,,,,,,
601568,1745084327756,,,,,,,,,,,,,,,,,,,,,,,,,,,,,,,,,,0,0,0,0,0,0,0,0,0,0,0,0,0,0,0,0,,,,,,,,,,,
601588,1745084327776,0.0,178.61,,-0.0,-0.08,0.96,0,-1,0,0.97,1.18,82,9293,3.6,1.4,,6.02,0.816,84.4,,72.2,5,,,,,,,,,,,,0,0,0,0,0,0,0,0,0,0,0,0,0,0,0,0,,,,,0.0,,,,,,
601608,1745084327796,,,,,,,,,,,,,,,,,,,,,,,0,0,0,0,0.0,0.0,0.0,0.0,2.26,,,0,0,0,0,0,0,0,0,0,0,0,0,0,0,0,0,0,,,,,39.239883,-77.96566,0.27,30,3,0.9
601628,1745084327818,0.0,178.61,,-0.02,-0.25,1.01,1,-0,-0,1.04,1.18,89,9032,3.6,1.4,,5.88,0.848,84.4,,72.2,5,,,,,,,,,,,,0,0,0,0,0,0,0,0,0,0,0,0,0,0,0,0,,,,,0.0,,,,,,
601648,1745084327838,,,,,,,,,,,,,,,,,,,,,,,,,,,,,,,,,,0,0,0,0,0,0,0,0,0,0,0,0,0,0,0,0,,,,,,,,,,,
601668,1745084327858,0.0,178.61,,-0.05,-0.24,0.98,0,-0,-0,1.01,1.18,86,8758,3.7,1.4,,5.95,0.89,84.4,,69.4,5,,,,,,,,,,,,0,0,0,0,0,0,0,0,0,0,0,0,0,0,0,0,,,,,0.0,,,,,,
601688,1745084327878,,,,,,,,,,,,,,,,,,,,,,,,,,,,,,,,,,0,0,0,0,0,0,0,0,0,0,0,0,0,0,0,0,,,,,,,,,,,
601708,1745084327898,0.0,178.61,13.81,-0.02,-0.19,1.02,1,-0,0,1.04,1.18,88,8417,4.0,1.42,15,5.95,0.89,84.4,137,69.4,5,0,0,0,0,0.0,0.0,0.0,0.0,2.26,0,0.0,0,0,0,0,0,0,0,0,0,0,0,0,0,0,0,0,0,0.0,0,-0,0.0,39.239883,-77.96566,0.38,30,3,0.9
601728,1745084327918,,,,,,,,,,,,,,,,,,,,,,,,,,,,,,,,,,0,0,0,0,0,0,0,0,0,0,0,0,0,0,0,0,,,,,,,,,,,
601748,1745084327938,0.0,178.61,,-0.04,-0.17,1.02,1,-0,0,1.04,1.18,88,8417,4.0,1.42,,6.12,0.919,84.4,,64.7,5,,,,,,,,,,,,0,0,0,0,0,0,0,0,0,0,0,0,0,0,0,0,,,,,0.0,,,,,,
601768,1745084327958,,,,,,,,,,,,,,,,,,,,,,,,,,,,,,,,,,0,0,0,0,0,0,0,0,0,0,0,0,0,0,0,0,,,,,,,,,,,
601788,1745084327978,0.0,178.61,,-0.04,-0.05,1.01,0,-0,0,1.02,1.18,87,8071,4.3,1.67,,6.22,0.94,84.4,,64.7,5,,,,,,,,,,,,0,0,0,0,0,0,0,0,0,0,0,0,0,0,0,0,,,,,0.0,,,,,,
601808,1745084327998,,,,,,,,,,,,,,,,,,,,,,,0,0,0,0,0.0,0.0,0.0,0.0,2.26,,,0,0,0,0,0,0,0,0,0,0,0,0,0,0,0,0,0,,,,,39.239883,-77.96566,0.52,30,3,0.9
601828,1745084328010,0.0,178.61,,-0.06,-0.11,1.0,0,-0,0,1.01,1.18,85,7730,4.8,1.84,,6.4,0.982,84.4,,64.7,5,,,,,,,,,,,,0,0,0,0,0,0,0,0,0,0,0,0,0,0,0,0,,,,,0.0,,,,,,
601848,1745084328030,,,,,,,,,,,,,,,,,,,,,,,,,,,,,,,,,,0,0,0,0,0,0,0,0,0,0,0,0,0,0,0,0,,,,,,,,,,,
601868,1745084328050,0.0,178.73,,-0.08,-0.17,1.0,1,-0,0,1.02,1.18,87,7422,5.5,1.97,,6.7,0.997,84.4,,64.1,5,,,,,,,,,,,,0,0,0,0,0,0,0,0,0,0,0,0,0,0,0,0,,,,,0.0,,,,,,
601888,1745084328070,,,,,,,,,,,,,,,,,,,,,,,,,,,,,,,,,,0,0,0,0,0,0,0,0,0,0,0,0,0,0,0,0,,,,,,,,,,,
601908,1745084328090,0.0,178.73,,-0.07,-0.02,1.04,1,-0,1,1.04,1.18,88,7136,5.3,2.04,,6.7,0.997,84.4,,64.1,5,0,0,0,0,0.0,0.0,0.0,0.0,2.26,,,0,0,0,0,0,0,0,0,0,0,0,0,0,0,0,0,0,,,,0.0,39.239883,-77.96566,0.71,30,3,0.9
601928,1745084328114,,,,,,,,,,,,,,,,,,,,,,,,,,,,,,,,,,0,0,0,0,0,0,0,0,0,0,0,0,0,0,0,0,,,,,,,,,,,
601948,1745084328134,0.0,178.73,,-0.08,-0.03,1.01,0,-0,1,1.01,1.18,86,7136,5.3,2.04,,7.02,0.992,84.4,,63.3,5,,,,,,,,,,,,0,0,0,0,0,0,0,0,0,0,0,0,0,0,0,0,,,,,0.0,,,,,,
601968,1745084328154,,,,,,,,,,,,,,,,,,,,,,,,,,,,,,,,,,0,0,0,0,0,0,0,0,0,0,0,0,0,0,0,0,,,,,,,,,,,
601988,1745084328174,0.0,178.61,,-0.05,-0.07,1.0,1,-0,0,1.0,1.18,85,6843,5.3,2.26,,7.46,0.978,84.4,,63.3,5,,,,,,,,,,,,0,0,0,0,0,0,0,0,0,0,0,0,0,0,0,0,,,,,0.0,,,,,,
602008,1745084328194,,,,,,,,,,,,,,,,,,,,,,,0,0,0,0,0.0,0.0,0.0,0.0,2.27,,,0,0,0,0,0,0,0,0,0,0,0,0,0,0,0,0,0,,,,,39.239883,-77.96566,0.77,30,3,0.9
602028,1745084328218,0.0,178.61,,-0.02,-0.01,1.01,2,-0,0,1.01,1.18,86,6574,5.4,2.34,,7.94,0.963,84.4,,63.3,5,,,,,,,,,,,,0,0,0,0,0,0,0,0,0,0,0,0,0,0,0,0,,,,,0.0,,,,,,
602048,1745084328238,,,,,,,,,,,,,,,,,,,,,,,,,,,,,,,,,,0,0,0,0,0,0,0,0,0,0,0,0,0,0,0,0,,,,,,,,,,,
602068,1745084328258,0.0,178.48,,-0.03,-0.06,1.04,1,-0,1,1.05,1.18,89,6294,5.1,2.37,,8.49,0.957,84.4,,65.1,5,,,,,,,,,,,,0,0,0,0,0,0,0,0,0,0,0,0,0,0,0,0,,,,,0.0,,,,,,
602088,1745084328278,,,,,,,,,,,,,,,,,,,,,,,,,,,,,,,,,,0,0,0,0,0,0,0,0,0,0,0,0,0,0,0,0,,,,,,,,,,,
602108,1745084328298,0.0,178.48,,-0.02,-0.08,1.02,0,-0,1,1.03,1.18,87,5957,4.8,2.42,,8.49,0.957,84.4,,65.1,5,1,0,0,0,0.0,0.0,0.0,0.0,2.27,,,0,0,0,0,0,0,0,0,0,0,0,0,0,0,0,0,0,,,,0.0,39.239883,-77.96566,1.09,30,3,0.9
602128,1745084328318,,,,,,,,,,,,,,,,,,,,,,,,,,,,,,,,,,0,0,0,0,0,0,0,0,0,0,0,0,0,0,0,0,,,,,,,,,,,
602148,1745084328338,0.0,178.48,,-0.02,-0.02,1.08,-0,-0,1,1.08,1.18,92,5957,4.8,2.42,,8.97,0.953,84.4,,61.0,5,,,,,,,,,,,,0,0,0,0,0,0,0,0,0,0,0,0,0,0,0,0,,,,,0.0,,,,,,
602168,1745084328358,,,,,,,,,,,,,,,,,,,,,,,,,,,,,,,,,,0,0,0,0,0,0,0,0,0,0,0,0,0,0,0,0,,,,,,,,,,,
602188,1745084328378,0.0,178.61,,-0.02,0.04,1.09,-1,-0,1,1.09,1.18,93,5725,4.6,2.53,,9.48,0.96,84.4,,61.0,5,,,,,,,,,,,,0,0,0,0,0,0,0,0,0,0,0,0,0,0,0,0,,,,,0.0,,,,,,
602208,1745084328398,,,,,,,,,,,,,,,,,,,,,,,1,0,1,1,0.0,0.0,0.0,0.0,2.26,,,0,0,0,0,0,0,0,0,0,0,0,0,0,0,0,0,0,,,,,39.239883,-77.96566,1.17,30,3,0.9
602228,1745084328418,0.0,178.61,,-0.01,0.01,1.08,-0,-0,1,1.08,1.18,92,5396,4.5,2.43,,9.9,0.966,84.4,,61.0,5,,,,,,,,,,,,0,0,0,0,0,0,0,0,0,0,0,0,0,0,0,0,,,,,0.0,,,,,,
602248,1745084328438,,,,,,,,,,,,,,,,,,,,,,,,,,,,,,,,,,0,0,0,0,0,0,0,0,0,0,0,0,0,0,0,0,,,,,,,,,,,
602268,1745084328458,0.0,178.73,,-0.02,-0.0,1.07,0,-0,1,1.07,1.18,91,5136,4.4,2.53,,10.4,0.952,84.4,,62.5,5,,,,,,,,,,,,0,0,0,0,0,0,0,0,0,0,0,0,0,0,0,0,,,,,0.0,,,,,,
602288,1745084328478,,,,,,,,,,,,,,,,,,,,,,,,,,,,,,,,,,0,0,0,0,0,0,0,0,0,0,0,0,0,0,0,0,,,,,,,,,,,
602308,1745084328498,0.0,178.73,,0.01,-0.01,1.07,1,-0,1,1.07,1.18,91,4863,4.3,2.58,,10.4,0.952,84.4,,62.5,5,1,0,1,1,0.0,0.0,0.0,0.0,2.26,,,0,0,0,0,0,0,0,0,0,0,0,0,0,0,0,0,0,,,,0.0,39.239883,-77.96566,1.38,30,3,0.9
602328,1745084328518,,,,,,,,,,,,,,,,,,,,,,,,,,,,,,,,,,0,0,0,0,0,0,0,0,0,0,0,0,0,0,0,0,,,,,,,,,,,
602348,1745084328538,0.0,178.73,,-0.02,0.09,1.14,1,-0,1,1.15,1.18,97,4863,4.3,2.58,,10.73,0.957,84.4,,60.0,5,,,,,,,,,,,,0,0,0,0,0,0,0,0,0,0,0,0,0,0,0,0,,,,,0.0,,,,,,
602368,1745084328558,,,,,,,,,,,,,,,,,,,,,,,,,,,,,,,,,,0,0,0,0,0,0,0,0,0,0,0,0,0,0,0,0,,,,,,,,,,,
602388,1745084328578,0.0,178.86,,-0.05,0.16,1.23,2,-0,1,1.24,1.24,100,4576,4.2,3.2,,11.06,0.968,84.4,,60.0,5,,,,,,,,,,,,0,0,0,0,0,0,0,0,0,0,0,0,0,0,0,0,,,,,0.0,,,,,,
602408,1745084328598,,,,,,,,,,,,,,,,,,,,,,,1,0,1,1,0.0,0.0,0.0,0.0,2.26,,,0,0,0,0,0,0,0,0,0,0,0,0,0,0,0,0,0,,,,,39.239883,-77.96566,1.54,30,3,0.9
602428,1745084328618,0.0,178.86,,-0.03,0.21,1.23,3,-0,1,1.25,1.25,100,4352,4.1,3.47,,11.29,0.985,84.4,,60.0,5,,,,,,,,,,,,0,0,0,0,0,0,0,0,0,0,0,0,0,0,0,0,,,,,0.0,,,,,,
602448,1745084328638,,,,,,,,,,,,,,,,,,,,,,,,,,,,,,,,,,0,0,0,0,0,0,0,0,0,0,0,0,0,0,0,0,,,,,,,,,,,
602468,1745084328658,0.0,178.86,,-0.02,0.07,1.13,2,-0,1,1.13,1.25,91,4229,3.9,3.47,,11.49,1.01,84.4,,57.3,5,,,,,,,,,,,,0,0,0,0,0,0,0,0,0,0,0,0,0,0,0,0,,,,,0.0,,,,,,
602488,1745084328678,,,,,,,,,,,,,,,,,,,,,,,,,,,,,,,,,,0,0,0,0,0,0,0,0,0,0,0,0,0,0,0,0,,,,,,,,,,,
602508,1745084328698,0.0,178.86,,-0.02,0.17,1.18,2,-0,1,1.19,1.25,95,4090,4.6,3.48,,11.49,1.01,84.4,,57.3,5,1,0,1,1,0.0,0.0,0.0,0.0,2.26,,,0,0,0,0,0,0,0,0,0,0,0,0,0,0,0,0,0,,,,0.0,39.239883,-77.96566,1.52,30,3,0.9
602528,1745084328717,,,,,,,,,,,,,,,,,,,,,,,,,,,,,,,,,,0,0,0,0,0,0,0,0,0,0,0,0,0,0,0,0,,,,,,,,,,,
602548,1745084328737,0.0,178.86,,-0.02,0.15,1.15,2,-0,1,1.16,1.25,93,4090,4.6,3.48,,11.75,1.013,84.4,,56.3,5,,,,,,,,,,,,0,0,0,0,0,0,0,0,0,0,0,0,0,0,0,0,,,,,0.0,,,,,,
602568,1745084328757,,,,,,,,,,,,,,,,,,,,,,,,,,,,,,,,,,0,0,0,0,0,0,0,0,0,0,0,0,0,0,0,0,,,,,,,,,,,
602588,1745084328777,0.0,178.86,,-0.01,0.16,1.13,2,-0,1,1.14,1.25,92,3805,5.2,3.5,,12.13,1.016,84.4,,56.3,5,,,,,,,,,,,,0,0,0,0,0,0,0,0,0,0,0,0,0,0,0,0,,,,,0.0,,,,,,
602608,1745084328797,,,,,,,,,,,,,,,,,,,,,,,1,0,1,1,0.0,0.0,0.0,0.0,2.26,,,0,0,0,0,0,0,0,0,0,0,0,0,0,0,0,0,0,,,,,39.239883,-77.96566,1.78,30,3,0.9
602628,1745084328817,0.0,178.73,,-0.0,0.18,1.06,2,-0,1,1.07,1.25,86,3657,6.1,3.57,,12.43,1.004,84.4,,56.3,5,,,,,,,,,,,,0,0,0,0,0,0,0,0,0,0,0,0,0,0,0,0,,,,,0.0,,,,,,
602648,1745084328837,,,,,,,,,,,,,,,,,,,,,,,,,,,,,,,,,,0,0,0,0,0,0,0,0,0,0,0,0,0,0,0,0,,,,,,,,,,,
602668,1745084328857,0.0,178.61,,0.0,0.04,1.08,1,-0,0,1.08,1.25,87,3454,6.3,3.6,,12.76,1.02,84.4,,49.0,5,,,,,,,,,,,,0,0,0,0,0,0,0,0,0,0,0,0,0,0,0,0,,,,,0.0,,,,,,
602688,1745084328877,,,,,,,,,,,,,,,,,,,,,,,,,,,,,,,,,,0,0,0,0,0,0,0,0,0,0,0,0,0,0,0,0,,,,,,,,,,,
602708,1745084328897,0.0,178.61,13.81,-0.01,0.18,1.01,2,-0,0,1.02,1.25,82,3258,6.5,3.38,15,12.76,1.02,86.2,137,49.0,5,1,0,1,1,0.0,0.0,0.0,0.0,2.26,0,0.0,0,0,0,0,0,0,0,0,0,0,0,0,0,0,0,0,0,0.0,0,-0,0.0,39.239883,-77.96566,1.94,30,3,0.9
602728,1745084328917,,,,,,,,,,,,,,,,,,,,,,,,,,,,,,,,,,0,0,0,0,0,0,0,0,0,0,0,0,0,0,0,0,,,,,,,,,,,
602748,1745084328937,0.0,178.48,,-0.01,0.16,1.05,4,-0,0,1.07,1.25,86,3258,6.5,3.38,,12.99,1.035,86.2,,42.9,5,,,,,,,,,,,,0,0,0,0,0,0,0,0,0,0,0,0,0,0,0,0,,,,,0.0,,,,,,
602768,1745084328957,,,,,,,,,,,,,,,,,,,,,,,,,,,,,,,,,,0,0,0,0,0,0,0,0,0,0,0,0,0,0,0,0,,,,,,,,,,,
602788,1745084328977,0.0,178.36,,-0.01,0.09,1.09,5,-0,0,1.1,1.25,88,3177,7.6,3.39,,13.16,1.048,86.2,,42.9,5,,,,,,,,,,,,0,0,0,0,0,0,0,0,0,0,0,0,0,0,0,0,,,,,0.0,,,,,,
602808,1745084328997,,,,,,,,,,,,,,,,,,,,,,,1,0,1,1,0.0,0.0,0.0,0.0,2.26,,,0,0,0,0,0,0,0,0,0,0,0,0,0,0,0,0,0,,,,,39.239883,-77.96566,1.94,30,3,0.9
602828,1745084329009,0.0,178.36,,-0.03,0.08,1.08,7,-0,0,1.09,1.25,87,2852,8.2,3.47,,13.43,1.056,86.2,,42.9,5,,,,,,,,,,,,0,0,0,0,0,0,0,0,0,0,0,0,0,0,0,0,,,,,0.0,,,,,,
602848,1745084329029,,,,,,,,,,,,,,,,,,,,,,,,,,,,,,,,,,0,0,0,0,0,0,0,0,0,0,0,0,0,0,0,0,,,,,,,,,,,
602868,1745084329049,0.0,178.36,,-0.02,0.06,1.07,6,-0,0,1.07,1.25,86,2686,8.4,3.43,,13.6,1.055,86.2,,37.5,5,,,,,,,,,,,,0,0,0,0,0,0,0,0,0,0,0,0,0,0,0,0,,,,,0.0,,,,,,
602888,1745084329069,,,,,,,,,,,,,,,,,,,,,,,,,,,,,,,,,,0,0,0,0,0,0,0,0,0,0,0,0,0,0,0,0,,,,,,,,,,,
602908,1745084329089,0.0,178.36,,-0.01,0.02,1.09,6,-0,0,1.09,1.25,87,2707,8.6,3.41,,13.6,1.055,86.2,,37.5,5,1,0,1,1,0.0,0.0,0.0,0.0,2.26,,,0,0,0,0,0,0,0,0,0,0,0,0,0,0,0,0,0,,,,0.0,39.239883,-77.96566,2.06,30,3,0.9
602928,1745084329115,,,,,,,,,,,,,,,,,,,,,,,,,,,,,,,,,,0,0,0,0,0,0,0,0,0,0,0,0,0,0,0,0,,,,,,,,,,,
602948,1745084329135,0.0,178.23,,-0.02,0.07,1.04,6,-1,0,1.05,1.25,84,2707,8.6,3.41,,13.72,1.091,86.2,,35.2,5,,,,,,,,,,,,0,0,0,0,0,0,0,0,0,0,0,0,0,0,0,0,,,,,0.0,,,,,,
602968,1745084329155,,,,,,,,,,,,,,,,,,,,,,,,,,,,,,,,,,0,0,0,0,0,0,0,0,0,0,0,0,0,0,0,0,,,,,,,,,,,
602988,1745084329175,0.0,178.23,,-0.03,0.05,1.06,4,-1,0,1.06,1.25,86,2690,8.5,3.42,,13.68,1.241,86.2,,35.2,5,,,,,,,,,,,,0,0,0,0,0,0,0,0,0,0,0,0,0,0,0,0,,,,,0.0,,,,,,
603008,1745084329195,,,,,,,,,,,,,,,,,,,,,,,1,0,1,1,0.0,0.0,0.0,0.0,2.26,,,0,0,0,0,0,0,0,0,0,0,0,0,0,0,0,0,0,,,,,39.239883,-77.96566,2.1,30,3,0.9
603028,1745084329211,0.0,178.23,,-0.04,0.07,1.04,5,-0,0,1.05,1.25,84,2633,8.5,3.26,,13.71,1.249,86.2,,35.2,5,,,,,,,,,,,,0,0,0,0,0,0,0,0,0,0,0,0,0,0,0,0,,,,,0.0,,,,,,
603048,1745084329231,,,,,,,,,,,,,,,,,,,,,,,,,,,,,,,,,,0,0,0,0,0,0,0,0,0,0,0,0,0,0,0,0,,,,,,,,,,,
603068,1745084329251,0.0,178.1,,-0.04,0.05,1.07,3,-0,0,1.07,1.25,86,2618,9.9,3.26,,13.77,1.245,86.2,,32.5,5,,,,,,,,,,,,0,0,0,0,0,0,0,0,0,0,0,0,0,0,0,0,,,,,0.0,,,,,,
603088,1745084329271,,,,,,,,,,,,,,,,,,,,,,,,,,,,,,,,,,0,0,0,0,0,0,0,0,0,0,0,0,0,0,0,0,,,,,,,,,,,
603108,1745084329291,0.0,178.1,,-0.06,0.05,1.04,3,-0,0,1.04,1.25,83,2612,10.1,3.27,,13.77,1.245,86.2,,32.5,5,1,0,1,1,0.0,0.0,0.0,0.0,2.27,,,0,0,0,0,0,0,0,0,0,0,0,0,0,0,0,0,0,,,,0.0,39.239883,-77.96566,2.31,30,3,0.9
603128,1745084329317,,,,,,,,,,,,,,,,,,,,,,,,,,,,,,,,,,0,0,0,0,0,0,0,0,0,0,0,0,0,0,0,0,,,,,,,,,,,
603148,1745084329337,0.0,178.1,,-0.07,0.06,1.03,4,-0,0,1.03,1.25,83,2612,10.1,3.27,,13.8,1.208,86.2,,32.0,5,,,,,,,,,,,,0,0,0,0,0,0,0,0,0,0,0,0,0,0,0,0,,,,,0.0,,,,,,
603168,1745084329357,,,,,,,,,,,,,,,,,,,,,,,,,,,,,,,,,,0,0,0,0,0,0,0,0,0,0,0,0,0,0,0,0,,,,,,,,,,,
603188,1745084329377,0.0,178.1,,-0.07,0.05,1.04,2,-0,0,1.04,1.25,83,2522,10.4,3.27,,13.9,1.249,86.2,,32.0,5,,,,,,,,,,,,0,0,0,0,0,0,0,0,0,0,0,0,0,0,0,0,,,,,0.0,,,,,,
603208,1745084329397,,,,,,,,,,,,,,,,,,,,,,,1,0,1,1,0.0,0.0,0.0,0.0,2.26,,,0,0,0,0,0,0,0,0,0,0,0,0,0,0,0,0,0,,,,,39.239883,-77.96566,2.02,30,3,0.9
603228,1745084329417,0.0,178.1,,-0.08,0.08,1.01,3,-0,0,1.02,1.25,82,2610,10.6,3.27,,13.83,1.252,86.2,,32.0,5,,,,,,,,,,,,0,0,0,0,0,0,0,0,0,0,0,0,0,0,0,0,,,,,0.0,,,,,,
603248,1745084329437,,,,,,,,,,,,,,,,,,,,,,,,,,,,,,,,,,0,0,0,0,0,0,0,0,0,0,0,0,0,0,0,0,,,,,,,,,,,
603268,1745084329457,0.0,178.1,,-0.08,0.06,1.03,2,-0,0,1.03,1.25,83,2597,10.7,3.27,,13.82,1.252,86.2,,32.6,5,,,,,,,,,,,,0,0,0,0,0,0,0,0,0,0,0,0,0,0,0,0,,,,,0.0,,,,,,
603288,1745084329477,,,,,,,,,,,,,,,,,,,,,,,,,,,,,,,,,,0,0,0,0,0,0,0,0,0,0,0,0,0,0,0,0,,,,,,,,,,,
603308,1745084329497,0.0,178.1,,-0.1,0.08,1.01,2,-0,0,1.02,1.25,82,2598,10.7,3.27,,13.82,1.252,86.2,,32.6,5,1,0,1,1,0.0,0.0,0.0,0.0,2.26,,,0,0,0,0,0,0,0,0,0,0,0,0,0,0,0,0,0,,,,0.0,39.239883,-77.96566,1.96,30,3,0.9
603328,1745084329517,,,,,,,,,,,,,,,,,,,,,,,,,,,,,,,,,,0,0,0,0,0,0,0,0,0,0,0,0,0,0,0,0,,,,,,,,,,,
603348,1745084329537,0.0,178.1,,-0.09,0.07,1.02,2,-0,0,1.02,1.25,82,2598,10.7,3.27,,13.8,1.25,86.2,,32.4,5,,,,,,,,,,,,0,0,0,0,0,0,0,0,0,0,0,0,0,0,0,0,,,,,0.0,,,,,,
603368,1745084329557,,,,,,,,,,,,,,,,,,,,,,,,,,,,,,,,,,0,0,0,0,0,0,0,0,0,0,0,0,0,0,0,0,,,,,,,,,,,
603388,1745084329577,0.0,177.98,,-0.08,0.04,1.02,1,-0,0,1.03,1.25,82,2450,10.7,3.27,,13.88,1.249,86.2,,32.4,5,,,,,,,,,,,,0,0,0,0,0,0,0,0,0,0,0,0,0,0,0,0,,,,,0.0,,,,,,
603408,1745084329597,,,,,,,,,,,,,,,,,,,,,,,1,0,1,1,0.0,0.0,0.0,0.0,2.26,,,0,0,0,0,0,0,0,0,0,0,0,0,0,0,0,0,0,,,,,39.239883,-77.965668,1.71,30,3,0.9
603428,1745084329619,0.0,177.98,,-0.1,0.04,0.99,1,-0,0,1.0,1.25,80,2454,10.6,3.44,,13.9,1.249,86.2,,32.4,5,,,,,,,,,,,,0,0,0,0,0,0,0,0,0,0,0,0,0,0,0,0,,,,,0.0,,,,,,
603448,1745084329639,,,,,,,,,,,,,,,,,,,,,,,,,,,,,,,,,,0,0,0,0,0,0,0,0,0,0,0,0,0,0,0,0,,,,,,,,,,,
603468,1745084329659,0.0,177.98,,-0.09,0.05,0.98,1,-0,0,0.99,1.25,79,2435,11.9,3.43,,13.96,1.249,86.2,,32.2,5,,,,,,,,,,,,0,0,0,0,0,0,0,0,0,0,0,0,0,0,0,0,,,,,0.0,,,,,,
603488,1745084329679,,,,,,,,,,,,,,,,,,,,,,,,,,,,,,,,,,0,0,0,0,0,0,0,0,0,0,0,0,0,0,0,0,,,,,,,,,,,
603508,1745084329699,0.0,178.1,,-0.1,0.05,1.0,1,-0,0,1.0,1.25,80,2435,15.9,3.84,,13.96,1.249,86.2,,32.2,5,1,0,1,1,0.0,0.0,0.0,0.0,2.27,,,0,0,0,0,0,0,0,0,0,0,0,0,0,0,0,0,0,,,,0.0,39.239883,-77.965668,1.59,30,3,0.9
603528,1745084329718,,,,,,,,,,,,,,,,,,,,,,,,,,,,,,,,,,0,0,0,0,0,0,0,0,0,0,0,0,0,0,0,0,,,,,,,,,,,
603548,1745084329738,0.0,178.1,,-0.1,0.04,0.99,1,-0,0,0.99,1.25,80,2435,15.9,3.84,,14.07,1.249,86.2,,31.8,5,,,,,,,,,,,,0,0,0,0,0,0,0,0,0,0,0,0,0,0,0,0,,,,,0.0,,,,,,
603568,1745084329758,,,,,,,,,,,,,,,,,,,,,,,,,,,,,,,,,,0,0,0,0,0,0,0,0,0,0,0,0,0,0,0,0,,,,,,,,,,,
603588,1745084329778,0.0,177.98,,-0.11,0.03,0.98,2,-0,0,0.99,1.25,79,2406,17.5,4.42,,14.08,1.251,86.2,,31.8,5,,,,,,,,,,,,0,0,0,0,0,0,0,0,0,0,0,0,0,0,0,0,,,,,0.0,,,,,,
603608,1745084329798,,,,,,,,,,,,,,,,,,,,,,,1,0,1,1,0.0,0.0,0.0,0.0,2.26,,,0,0,0,0,0,0,0,0,0,0,0,0,0,0,0,0,0,,,,,39.239883,-77.965668,1.49,30,3,0.9
603628,1745084329816,0.0,178.1,,-0.09,-0.01,1.01,1,-0,0,1.02,1.25,82,2471,17.9,4.48,,14.08,1.252,86.2,,31.8,5,,,,,,,,,,,,0,0,0,0,0,0,0,0,0,0,0,0,0,0,0,0,,,,,0.0,,,,,,
603648,1745084329836,,,,,,,,,,,,,,,,,,,,,,,,,,,,,,,,,,0,0,0,0,0,0,0,0,0,0,0,0,0,0,0,0,,,,,,,,,,,
603668,1745084329856,0.0,178.1,,-0.1,0.0,0.97,2,-0,0,0.98,1.25,79,2602,18.2,4.51,,14.04,1.252,86.2,,33.6,5,,,,,,,,,,,,0,0,0,0,0,0,0,0,0,0,0,0,0,0,0,0,,,,,0.0,,,,,,
603688,1745084329876,,,,,,,,,,,,,,,,,,,,,,,,,,,,,,,,,,0,0,0,0,0,0,0,0,0,0,0,0,0,0,0,0,,,,,,,,,,,
603708,1745084329896,0.0,178.1,13.78,-0.1,-0.02,0.98,-0,-0,0,0.99,1.25,79,2701,18.3,4.52,15,14.04,1.252,86.2,137,33.6,5,1,0,1,1,0.0,0.0,0.0,0.0,2.26,0,0.0,0,0,0,0,0,0,0,0,0,0,0,0,0,0,0,0,0,0.0,0,-0,0.0,39.23988,-77.965668,1.15,30,3,0.9
603728,1745084329918,,,,,,,,,,,,,,,,,,,,,,,,,,,,,,,,,,0,0,0,0,0,0,0,0,0,0,0,0,0,0,0,0,,,,,,,,,,,
603748,1745084329938,0.0,178.1,,-0.09,-0.08,0.94,-5,-0,-0,0.94,1.25,76,2701,18.3,4.52,,14.02,1.252,86.2,,38.8,5,,,,,,,,,,,,0,0,0,0,0,0,0,0,0,0,0,0,0,0,0,0,,,,,0.0,,,,,,
603768,1745084329958,,,,,,,,,,,,,,,,,,,,,,,,,,,,,,,,,,0,0,0,0,0,0,0,0,0,0,0,0,0,0,0,0,,,,,,,,,,,
603788,1745084329978,0.0,177.98,,-0.12,0.05,0.89,-5,-0,-0,0.9,1.25,73,3182,18.5,4.53,,13.84,1.252,86.2,,38.8,5,,,,,,,,,,,,0,0,0,0,0,0,0,0,0,0,0,0,0,0,0,0,,,,,0.0,,,,,,
603808,1745084329998,,,,,,,,,,,,,,,,,,,,,,,1,0,1,1,0.0,0.0,0.0,0.0,2.26,,,0,0,0,0,0,0,0,0,0,0,0,0,0,0,0,0,0,,,,,39.23988,-77.965668,0.89,30,3,0.9
603828,1745084330008,0.0,178.1,,-0.11,-0.05,0.96,-3,-0,-0,0.97,1.25,78,3311,18.6,4.45,,13.82,1.25,86.2,,38.8,5,,,,,,,,,,,,0,0,0,0,0,0,0,0,0,0,0,0,0,0,0,0,,,,,0.0,,,,,,
603848,1745084330028,,,,,,,,,,,,,,,,,,,,,,,,,,,,,,,,,,0,0,0,0,0,0,0,0,0,0,0,0,0,0,0,0,,,,,,,,,,,
603868,1745084330048,0.0,177.98,,-0.12,0.04,0.94,-3,-0,0,0.95,1.25,76,3510,18.6,4.43,,13.73,1.198,86.2,,45.0,5,,,,,,,,,,,,0,0,0,0,0,0,0,0,0,0,0,0,0,0,0,0,,,,,0.0,,,,,,
603888,1745084330068,,,,,,,,,,,,,,,,,,,,,,,,,,,,,,,,,,0,0,0,0,0,0,0,0,0,0,0,0,0,0,0,0,,,,,,,,,,,
603908,1745084330088,0.0,178.1,,-0.11,0.03,0.92,-5,-0,-0,0.92,1.25,74,3535,18.5,4.39,,13.73,1.198,86.2,,45.0,5,1,0,1,1,0.0,0.0,0.0,0.0,2.26,,,0,0,0,0,0,0,0,0,0,0,0,0,0,0,0,0,0,,,,0.0,39.23988,-77.965668,0.74,30,3,0.9
603928,1745084330110,,,,,,,,,,,,,,,,,,,,,,,,,,,,,,,,,,0,0,0,0,0,0,0,0,0,0,0,0,0,0,0,0,,,,,,,,,,,
603948,1745084330130,0.0,178.1,,-0.11,-0.0,0.94,-4,-0,-0,0.94,1.25,76,3535,18.5,4.39,,13.67,1.164,86.2,,49.1,5,,,,,,,,,,,,0,0,0,0,0,0,0,0,0,0,0,0,0,0,0,0,,,,,0.0,,,,,,
603968,1745084330150,,,,,,,,,,,,,,,,,,,,,,,,,,,,,,,,,,0,0,0,0,0,0,0,0,0,0,0,0,0,0,0,0,,,,,,,,,,,
603988,1745084330170,0.0,178.1,,-0.11,0.05,0.96,-3,-0,-0,0.96,1.25,77,3699,18.4,4.36,,13.63,1.189,86.2,,49.1,5,,,,,,,,,,,,0,0,0,0,0,0,0,0,0,0,0,0,0,0,0,0,,,,,0.0,,,,,,
604008,1745084330190,,,,,,,,,,,,,,,,,,,,,,,1,0,1,1,0.0,0.0,0.0,0.0,2.27,,,0,0,0,0,0,0,0,0,0,0,0,0,0,0,0,0,0,,,,,39.23988,-77.965668,0.58,30,3,0.9
604028,1745084330218,0.0,178.1,,-0.12,0.06,0.99,-2,-0,0,1.0,1.25,80,4054,18.4,4.27,,13.63,1.228,86.2,,49.1,5,,,,,,,,,,,,0,0,0,0,0,0,0,0,0,0,0,0,0,0,0,0,,,,,0.0,,,,,,
604048,1745084330238,,,,,,,,,,,,,,,,,,,,,,,,,,,,,,,,,,0,0,0,0,0,0,0,0,0,0,0,0,0,0,0,0,,,,,,,,,,,
604068,1745084330258,0.0,178.1,,-0.09,0.06,0.98,-2,-0,-0,0.98,1.25,79,4164,18.4,4.26,,13.52,1.17,86.2,,56.9,5,,,,,,,,,,,,0,0,0,0,0,0,0,0,0,0,0,0,0,0,0,0,,,,,0.0,,,,,,
604088,1745084330278,,,,,,,,,,,,,,,,,,,,,,,,,,,,,,,,,,0,0,0,0,0,0,0,0,0,0,0,0,0,0,0,0,,,,,,,,,,,
604108,1745084330298,0.0,178.1,,-0.09,-0.02,0.96,-3,-0,0,0.97,1.25,78,4229,18.4,3.83,,13.52,1.17,86.2,,56.9,5,1,0,1,1,0.0,0.0,0.0,0.0,2.27,,,0,0,0,0,0,0,0,0,0,0,0,0,0,0,0,0,0,,,,0.0,39.23988,-77.965668,0.27,30,3,0.9
604128,1745084330318,,,,,,,,,,,,,,,,,,,,,,,,,,,,,,,,,,0,0,0,0,0,0,0,0,0,0,0,0,0,0,0,0,,,,,,,,,,,
604148,1745084330338,0.0,178.1,,-0.1,0.12,1.03,-2,-0,0,1.04,1.25,84,4229,18.4,3.83,,13.43,1.115,86.2,,59.2,5,,,,,,,,,,,,0,0,0,0,0,0,0,0,0,0,0,0,0,0,0,0,,,,,0.0,,,,,,
604168,1745084330358,,,,,,,,,,,,,,,,,,,,,,,,,,,,,,,,,,0,0,0,0,0,0,0,0,0,0,0,0,0,0,0,0,,,,,,,,,,,
604188,1745084330378,0.0,178.1,,-0.08,-0.02,0.92,-3,-0,0,0.93,1.25,74,4149,18.5,3.84,,13.49,1.122,86.2,,59.2,5,,,,,,,,,,,,0,0,0,0,0,0,0,0,0,0,0,0,0,0,0,0,,,,,0.0,,,,,,
604208,1745084330398,,,,,,,,,,,,,,,,,,,,,,,1,0,1,1,0.0,0.0,0.0,0.0,2.26,,,0,0,0,0,0,0,0,0,0,0,0,0,0,0,0,0,0,,,,,39.23988,-77.965668,0.08,30,3,0.9
604228,1745084330418,0.0,178.1,,-0.11,0.06,1.0,-2,-0,0,1.0,1.25,81,4212,18.5,3.84,,13.43,1.167,86.2,,59.2,5,,,,,,,,,,,,0,0,0,0,0,0,0,0,0,0,0,0,0,0,0,0,,,,,0.0,,,,,,
604248,1745084330438,,,,,,,,,,,,,,,,,,,,,,,,,,,,,,,,,,0,0,0,0,0,0,0,0,0,0,0,0,0,0,0,0,,,,,,,,,,,
604268,1745084330458,0.0,178.1,,-0.08,0.08,1.01,-1,-0,-0,1.02,1.25,82,4250,18.5,3.84,,13.45,1.225,86.2,,58.9,5,,,,,,,,,,,,0,0,0,0,0,0,0,0,0,0,0,0,0,0,0,0,,,,,0.0,,,,,,
604288,1745084330478,,,,,,,,,,,,,,,,,,,,,,,,,,,,,,,,,,0,0,0,0,0,0,0,0,0,0,0,0,0,0,0,0,,,,,,,,,,,
604308,1745084330498,0.0,177.98,,-0.06,-0.05,0.94,-2,-0,0,0.94,1.25,76,4250,18.6,3.84,,13.45,1.225,86.2,,58.9,5,1,0,1,1,0.0,0.0,0.0,0.0,2.26,,,0,0,0,0,0,0,0,0,0,0,0,0,0,0,0,0,0,,,,0.0,39.23988,-77.965668,0.16,30,3,0.9
604328,1745084330518,,,,,,,,,,,,,,,,,,,,,,,,,,,,,,,,,,0,0,0,0,0,0,0,0,0,0,0,0,0,0,0,0,,,,,,,,,,,
604348,1745084330538,0.0,177.98,,-0.09,0.06,1.02,-2,-0,0,1.02,1.25,82,4250,18.6,3.84,,13.43,1.25,86.2,,59.7,5,,,,,,,,,,,,0,0,0,0,0,0,0,0,0,0,0,0,0,0,0,0,,,,,0.0,,,,,,
604368,1745084330558,,,,,,,,,,,,,,,,,,,,,,,,,,,,,,,,,,0,0,0,0,0,0,0,0,0,0,0,0,0,0,0,0,,,,,,,,,,,
604388,1745084330578,0.0,177.98,,-0.08,0.11,1.05,0,-0,0,1.06,1.25,85,4397,18.6,3.86,,13.36,1.249,86.2,,59.7,5,,,,,,,,,,,,0,0,0,0,0,0,0,0,0,0,0,0,0,0,0,0,,,,,0.0,,,,,,
604408,1745084330598,,,,,,,,,,,,,,,,,,,,,,,1,0,0,1,0.0,0.0,0.0,0.0,2.26,,,0,0,0,0,0,0,0,0,0,0,0,0,0,0,0,0,0,,,,,39.23988,-77.965668,0.0,30,3,0.9
604428,1745084330618,0.0,177.98,,-0.03,0.04,1.0,1,-0,0,1.0,1.25,80,4407,18.4,3.87,,13.37,1.22,86.2,,59.7,5,,,,,,,,,,,,0,0,0,0,0,0,0,0,0,0,0,0,0,0,0,0,,,,,0.0,,,,,,
604448,1745084330638,,,,,,,,,,,,,,,,,,,,,,,,,,,,,,,,,,0,0,0,0,0,0,0,0,0,0,0,0,0,0,0,0,,,,,,,,,,,
604468,1745084330658,0.0,177.98,,-0.0,-0.01,0.91,1,-0,-0,0.91,1.25,73,4428,18.4,3.87,,13.37,1.108,86.2,,63.1,5,,,,,,,,,,,,0,0,0,0,0,0,0,0,0,0,0,0,0,0,0,0,,,,,0.0,,,,,,
604488,1745084330678,,,,,,,,,,,,,,,,,,,,,,,,,,,,,,,,,,0,0,0,0,0,0,0,0,0,0,0,0,0,0,0,0,,,,,,,,,,,
604508,1745084330698,0.0,177.98,,0.03,-0.04,0.92,2,-0,-0,0.92,1.25,74,4579,18.4,3.87,,13.37,1.108,86.2,,63.1,5,1,0,0,1,0.0,0.0,0.0,0.0,2.27,,,0,0,0,0,0,0,0,0,0,0,0,0,0,0,0,0,0,,,,0.0,39.23988,-77.965668,0.07,30,3,0.9
604528,1745084330717,,,,,,,,,,,,,,,,,,,,,,,,,,,,,,,,,,0,0,0,0,0,0,0,0,0,0,0,0,0,0,0,0,,,,,,,,,,,
604548,1745084330737,0.0,177.98,,0.02,0.02,0.99,3,-0,-0,0.99,1.25,79,4579,18.4,3.87,,13.39,1.075,86.2,,64.5,5,,,,,,,,,,,,0,0,0,0,0,0,0,0,0,0,0,0,0,0,0,0,,,,,0.0,,,,,,
604568,1745084330757,,,,,,,,,,,,,,,,,,,,,,,,,,,,,,,,,,0,0,0,0,0,0,0,0,0,0,0,0,0,0,0,0,,,,,,,,,,,
604588,1745084330777,0.0,177.98,,0.0,0.03,0.98,1,-0,0,0.98,1.25,78,4723,18.3,3.89,,13.4,1.053,86.2,,64.5,5,,,,,,,,,,,,0,0,0,0,0,0,0,0,0,0,0,0,0,0,0,0,,,,,0.0,,,,,,
604608,1745084330797,,,,,,,,,,,,,,,,,,,,,,,1,0,0,1,0.0,0.0,0.0,0.0,2.27,,,0,0,0,0,0,0,0,0,0,0,0,0,0,0,0,0,0,,,,,39.23988,-77.965668,0.13,30,3,0.9
604628,1745084330817,0.0,177.98,,-0.02,0.02,0.97,1,-0,0,0.97,1.25,78,5065,18.3,3.9,,13.32,0.991,86.2,,64.5,5,,,,,,,,,,,,0,0,0,0,0,0,0,0,0,0,0,0,0,0,0,0,,,,,0.0,,,,,,
604648,1745084330837,,,,,,,,,,,,,,,,,,,,,,,,,,,,,,,,,,0,0,0,0,0,0,0,0,0,0,0,0,0,0,0,0,,,,,,,,,,,
604668,1745084330857,0.0,177.98,,0.0,0.03,0.99,2,-0,-0,0.99,1.25,80,5410,18.5,3.72,,13.29,0.926,86.2,,66.3,5,,,,,,,,,,,,0,0,0,0,0,0,0,0,0,0,0,0,0,0,0,0,,,,,0.0,,,,,,
604688,1745084330877,,,,,,,,,,,,,,,,,,,,,,,,,,,,,,,,,,0,0,0,0,0,0,0,0,0,0,0,0,0,0,0,0,,,,,,,,,,,
604708,1745084330897,0.0,177.85,13.77,-0.03,-0.02,0.88,2,-0,-0,0.88,1.25,71,5801,18.5,3.74,15,13.29,0.926,84.4,138,66.3,5,1,0,0,1,0.0,0.0,0.0,0.0,2.26,0,0.0,0,0,0,0,0,0,0,0,0,0,0,0,0,0,0,0,0,0.0,0,-0,0.0,39.23988,-77.965668,0.11,30,3,0.9
604728,1745084330917,,,,,,,,,,,,,,,,,,,,,,,,,,,,,,,,,,0,0,0,0,0,0,0,0,0,0,0,0,0,0,0,0,,,,,,,,,,,
604748,1745084330937,0.0,177.98,,-0.05,-0.04,0.81,2,-0,-0,0.81,1.25,65,5801,18.5,3.74,,12.99,0.907,84.4,,69.5,5,,,,,,,,,,,,0,0,0,0,0,0,0,0,0,0,0,0,0,0,0,0,,,,,0.0,,,,,,
604768,1745084330957,,,,,,,,,,,,,,,,,,,,,,,,,,,,,,,,,,0,0,0,0,0,0,0,0,0,0,0,0,0,0,0,0,,,,,,,,,,,
604788,1745084330977,0.0,177.85,,-0.04,-0.08,0.84,2,-0,-1,0.85,1.25,68,6292,18.6,3.99,,12.44,0.925,84.4,,69.5,5,,,,,,,,,,,,0,0,0,0,0,0,0,0,0,0,0,0,0,0,0,0,,,,,0.0,,,,,,
604808,1745084330997,,,,,,,,,,,,,,,,,,,,,,,1,0,0,1,0.0,0.0,0.0,0.0,2.26,,,0,0,0,0,0,0,0,0,0,0,0,0,0,0,0,0,0,,,,,39.23988,-77.965668,0.05,30,3,0.9
604828,1745084331009,0.0,177.85,,-0.03,-0.14,0.83,2,-0,-0,0.84,1.25,67,6775,18.7,4.63,,12.08,0.97,84.4,,69.5,5,,,,,,,,,,,,0,0,0,0,0,0,0,0,0,0,0,0,0,0,0,0,,,,,0.0,,,,,,
604848,1745084331029,,,,,,,,,,,,,,,,,,,,,,,,,,,,,,,,,,0,0,0,0,0,0,0,0,0,0,0,0,0,0,0,0,,,,,,,,,,,
604868,1745084331049,0.0,177.85,,-0.07,0.03,0.85,2,-0,-0,0.85,1.25,68,7477,18.8,5.19,,11.56,0.988,84.4,,73.4,5,,,,,,,,,,,,0,0,0,0,0,0,0,0,0,0,0,0,0,0,0,0,,,,,0.0,,,,,,
604888,1745084331069,,,,,,,,,,,,,,,,,,,,,,,,,,,,,,,,,,0,0,0,0,0,0,0,0,0,0,0,0,0,0,0,0,,,,,,,,,,,
604908,1745084331089,0.0,177.98,,-0.06,0.04,0.87,2,-0,-0,0.88,1.25,70,8279,18.5,4.89,,11.56,0.988,84.4,,73.4,5,1,0,0,1,0.0,0.0,0.0,0.0,2.27,,,0,0,0,0,0,0,0,0,0,0,0,0,0,0,0,0,0,,,,0.0,39.23988,-77.965668,0.0,30,3,0.9
604928,1745084331117,,,,,,,,,,,,,,,,,,,,,,,,,,,,,,,,,,0,0,0,0,0,0,0,0,0,0,0,0,0,0,0,0,,,,,,,,,,,
604948,1745084331137,0.0,177.98,,-0.03,0.13,0.93,2,-0,0,0.94,1.25,75,8279,18.5,4.89,,11.08,0.93,84.4,,78.4,5,,,,,,,,,,,,0,0,0,0,0,0,0,0,0,0,0,0,0,0,0,0,,,,,0.0,,,,,,
604968,1745084331157,,,,,,,,,,,,,,,,,,,,,,,,,,,,,,,,,,0,0,0,0,0,0,0,0,0,0,0,0,0,0,0,0,,,,,,,,,,,
604988,1745084331177,0.0,177.98,,-0.02,0.2,0.98,2,-0,0,1.0,1.25,80,9293,12.7,3.05,,9.97,0.802,84.4,,78.4,5,,,,,,,,,,,,0,0,0,0,0,0,0,0,0,0,0,0,0,0,0,0,,,,,0.0,,,,,,
605008,1745084331197,,,,,,,,,,,,,,,,,,,,,,,1,0,0,1,0.0,0.0,0.0,0.0,2.26,,,0,0,0,0,0,0,0,0,0,0,0,0,0,0,0,0,0,,,,,39.23988,-77.965668,0.04,30,3,0.9
605028,1745084331217,0.0,177.98,,-0.01,0.22,0.95,2,-0,0,0.98,1.25,79,10103,9.0,2.39,,8.62,0.748,84.4,,78.4,5,,,,,,,,,,,,0,0,0,0,0,0,0,0,0,0,0,0,0,0,0,0,,,,,0.0,,,,,,
605048,1745084331237,,,,,,,,,,,,,,,,,,,,,,,,,,,,,,,,,,0,0,0,0,0,0,0,0,0,0,0,0,0,0,0,0,,,,,,,,,,,
605068,1745084331257,0.0,177.98,,0.01,0.26,0.93,1,-0,0,0.97,1.25,78,10615,9.1,2.07,,7.86,0.774,84.4,,72.8,5,,,,,,,,,,,,0,0,0,0,0,0,0,0,0,0,0,0,0,0,0,0,,,,,0.0,,,,,,
605088,1745084331277,,,,,,,,,,,,,,,,,,,,,,,,,,,,,,,,,,0,0,0,0,0,0,0,0,0,0,0,0,0,0,0,0,,,,,,,,,,,
605108,1745084331297,0.0,178.1,,-0.0,0.13,0.92,1,-0,-0,0.93,1.25,74,10869,9.4,2.0,,7.86,0.774,84.4,,72.8,5,1,0,0,1,0.0,0.0,0.0,0.0,2.27,,,0,0,0,0,0,0,0,0,0,0,0,0,0,0,0,0,0,,,,0.0,39.23988,-77.965668,0.05,30,3,0.9
605128,1745084331317,,,,,,,,,,,,,,,,,,,,,,,,,,,,,,,,,,0,0,0,0,0,0,0,0,0,0,0,0,0,0,0,0,,,,,,,,,,,
605248,1745084331439,,,,,,,,,,,,,,,,,,,,,,,,,,,,,,,,,,0,0,0,0,0,0,0,0,0,0,0,0,0,0,0,0,,,,,,,,,,,
605428,1745084331619,0.0,178.1,,-0.03,-0.07,0.91,1,-0,0,0.92,1.25,74,10583,11.1,1.85,,6.66,0.965,84.4,,73.0,5,,,,,,,,,,,,0,0,0,0,0,0,0,0,0,0,0,0,0,0,0,0,,,,,0.0,,,,,,
605448,1745084331639,,,,,,,,,,,,,,,,,,,,,,,,,,,,,,,,,,0,0,0,0,0,0,0,0,0,0,0,0,0,0,0,0,,,,,,,,,,,
605468,1745084331659,0.0,178.1,,-0.03,0.0,0.95,1,-0,-0,0.95,1.25,76,10409,10.9,1.9,,6.83,0.989,84.4,,72.2,5,,,,,,,,,,,,0,0,0,0,0,0,0,0,0,0,0,0,0,0,0,0,,,,,0.0,,,,,,
605508,1745084331699,0.0,177.98,,-0.01,-0.29,0.98,2,-0,-0,1.02,1.25,82,10259,11.0,1.88,,6.83,0.989,84.4,,72.2,5,1,0,0,1,0.0,0.0,0.0,0.0,2.27,,,0,0,0,0,0,0,0,0,0,0,0,0,0,0,0,0,0,,,,0.0,39.23988,-77.965668,0.19,30,3,0.9
605528,1745084331716,,,,,,,,,,,,,,,,,,,,,,,,,,,,,,,,,,0,0,0,0,0,0,0,0,0,0,0,0,0,0,0,0,,,,,,,,,,,
605608,1745084331796,,,,,,,,,,,,,,,,,,,,,,,1,0,0,0,0.0,0.0,0.0,0.0,2.27,,,0,0,0,0,0,0,0,0,0,0,0,0,0,0,0,0,0,,,,,39.23988,-77.965668,0.37,30,3,0.9
605628,1745084331816,0.0,177.98,,0.01,-0.17,0.9,1,-0,-0,0.92,1.25,74,9918,11.0,1.97,,7.11,1.03,84.4,,71.6,5,,,,,,,,,,,,0,0,0,0,0,0,0,0,0,0,0,0,0,0,0,0,,,,,0.0,,,,,,
605648,1745084331836,,,,,,,,,,,,,,,,,,,,,,,,,,,,,,,,,,0,0,0,0,0,0,0,0,0,0,0,0,0,0,0,0,,,,,,,,,,,
605668,1745084331856,0.0,177.85,,0.02,-0.2,0.88,1,-1,-0,0.9,1.25,72,9723,11.1,1.98,,7.1,1.044,84.4,,71.6,5,,,,,,,,,,,,0,0,0,0,0,0,0,0,0,0,0,0,0,0,0,0,,,,,0.0,,,,,,
605688,1745084331876,,,,,,,,,,,,,,,,,,,,,,,,,,,,,,,,,,0,0,0,0,0,0,0,0,0,0,0,0,0,0,0,0,,,,,,,,,,,
605708,1745084331896,0.0,177.85,13.79,0.02,-0.2,0.92,1,-0,0,0.94,1.25,75,9562,11.2,2.07,15,7.1,1.044,84.4,138,71.6,5,0,0,0,0,0.0,0.0,0.0,0.0,2.26,0,0.0,0,0,0,0,0,0,0,0,0,0,0,0,0,0,0,0,0,0.0,0,-0,0.0,39.23988,-77.965668,0.53,30,3,0.9
605728,1745084331916,,,,,,,,,,,,,,,,,,,,,,,,,,,,,,,,,,0,0,0,0,0,0,0,0,0,0,0,0,0,0,0,0,,,,,,,,,,,
605748,1745084331936,0.0,177.73,,-0.0,-0.09,0.86,1,-1,-0,0.87,1.25,70,9562,11.2,2.07,,7.19,1.059,84.4,,70.8,5,,,,,,,,,,,,0,0,0,0,0,0,0,0,0,0,0,0,0,0,0,0,,,,,0.0,,,,,,
605768,1745084331956,,,,,,,,,,,,,,,,,,,,,,,,,,,,,,,,,,0,0,0,0,0,0,0,0,0,0,0,0,0,0,0,0,,,,,,,,,,,
605788,1745084331976,0.0,177.6,,0.01,-0.25,0.93,1,-0,-0,0.96,1.25,77,9422,11.3,2.07,,7.34,1.075,84.4,,70.8,5,,,,,,,,,,,,0,0,0,0,0,0,0,0,0,0,0,0,0,0,0,0,,,,,0.0,,,,,,
605808,1745084331996,,,,,,,,,,,,,,,,,,,,,,,0,0,0,0,0.0,0.0,0.0,0.0,2.26,,,0,0,0,0,0,0,0,0,0,0,0,0,0,0,0,0,0,,,,,39.23988,-77.965668,0.69,30,3,0.9
605828,1745084332010,0.0,177.48,,0.04,0.04,0.91,1,-0,0,0.91,1.25,73,9307,11.2,2.14,,7.27,1.069,84.4,,70.8,5,,,,,,,,,,,,0,0,0,0,0,0,0,0,0,0,0,0,0,0,0,0,,,,,0.0,,,,,,
605848,1745084332030,,,,,,,,,,,,,,,,,,,,,,,,,,,,,,,,,,0,0,0,0,0,0,0,0,0,0,0,0,0,0,0,0,,,,,,,,,,,
605868,1745084332050,0.0,177.48,,0.0,-0.18,0.89,1,-0,0,0.9,1.25,73,9200,11.2,2.2,,7.35,1.067,84.4,,68.1,5,,,,,,,,,,,,0,0,0,0,0,0,0,0,0,0,0,0,0,0,0,0,,,,,0.0,,,,,,
605888,1745084332070,,,,,,,,,,,,,,,,,,,,,,,,,,,,,,,,,,0,0,0,0,0,0,0,0,0,0,0,0,0,0,0,0,,,,,,,,,,,
605908,1745084332090,0.0,177.35,,0.01,-0.41,0.98,2,-0,-0,1.06,1.25,85,9090,11.2,2.21,,7.35,1.067,84.4,,68.1,5,0,0,0,0,0.0,0.0,0.0,0.0,2.26,,,0,0,0,0,0,0,0,0,0,0,0,0,0,0,0,0,0,,,,0.0,39.23988,-77.965668,0.78,30,3,0.9
605928,1745084332116,,,,,,,,,,,,,,,,,,,,,,,,,,,,,,,,,,0,0,0,0,0,0,0,0,0,0,0,0,0,0,0,0,,,,,,,,,,,
605948,1745084332136,0.0,177.22,,0.01,-0.45,1.06,2,-0,-1,1.16,1.25,93,9090,11.2,2.21,,7.49,1.07,84.4,,71.8,5,,,,,,,,,,,,0,0,0,0,0,0,0,0,0,0,0,0,0,0,0,0,,,,,0.0,,,,,,
605968,1745084332156,,,,,,,,,,,,,,,,,,,,,,,,,,,,,,,,,,0,0,0,0,0,0,0,0,0,0,0,0,0,0,0,0,,,,,,,,,,,
605988,1745084332176,0.0,177.22,,0.01,-0.55,1.13,2,-0,-1,1.26,1.26,100,8967,11.2,2.26,,7.51,1.067,84.4,,71.8,5,,,,,,,,,,,,0,0,0,0,0,0,0,0,0,0,0,0,0,0,0,0,,,,,0.0,,,,,,
606008,1745084332196,,,,,,,,,,,,,,,,,,,,,,,0,0,0,0,0.0,0.0,0.0,0.0,2.26,,,0,0,0,0,0,0,0,0,0,0,0,0,0,0,0,0,0,,,,,39.23988,-77.965668,0.92,30,3,0.9
606028,1745084332218,0.0,177.1,,-0.02,-0.65,1.11,2,-0,-1,1.29,1.29,100,8853,11.2,2.29,,7.63,1.064,84.4,,71.8,5,,,,,,,,,,,,0,0,0,0,0,0,0,0,0,0,0,0,0,0,0,0,,,,,0.0,,,,,,
606048,1745084332238,,,,,,,,,,,,,,,,,,,,,,,,,,,,,,,,,,0,0,0,0,0,0,0,0,0,0,0,0,0,0,0,0,,,,,,,,,,,
606068,1745084332258,0.0,177.22,,-0.04,-0.52,1.05,2,-0,-0,1.17,1.29,91,8765,11.3,2.34,,7.87,1.05,84.4,,68.0,5,,,,,,,,,,,,0,0,0,0,0,0,0,0,0,0,0,0,0,0,0,0,,,,,0.0,,,,,,
606088,1745084332278,,,,,,,,,,,,,,,,,,,,,,,,,,,,,,,,,,0,0,0,0,0,0,0,0,0,0,0,0,0,0,0,0,,,,,,,,,,,
606108,1745084332298,0.0,177.22,,0.0,-0.4,1.08,2,-0,-0,1.15,1.29,89,8687,11.4,2.42,,7.87,1.05,84.4,,68.0,5,0,0,1,1,0.0,0.0,0.0,0.0,2.27,,,0,0,0,0,0,0,0,0,0,0,0,0,0,0,0,0,0,,,,0.0,39.23988,-77.965668,1.02,30,3,0.9
606128,1745084332316,,,,,,,,,,,,,,,,,,,,,,,,,,,,,,,,,,0,0,0,0,0,0,0,0,0,0,0,0,0,0,0,0,,,,,,,,,,,
606148,1745084332336,0.0,177.1,,-0.0,-0.37,1.11,1,-0,-0,1.17,1.29,91,8687,11.4,2.42,,8.01,1.043,84.4,,70.7,5,,,,,,,,,,,,0,0,0,0,0,0,0,0,0,0,0,0,0,0,0,0,,,,,0.0,,,,,,
606168,1745084332356,,,,,,,,,,,,,,,,,,,,,,,,,,,,,,,,,,0,0,0,0,0,0,0,0,0,0,0,0,0,0,0,0,,,,,,,,,,,
606188,1745084332376,0.0,177.1,,0.0,-0.43,1.11,1,-0,-0,1.19,1.29,92,8589,11.5,2.48,,8.01,1.047,84.4,,70.7,5,,,,,,,,,,,,0,0,0,0,0,0,0,0,0,0,0,0,0,0,0,0,,,,,0.0,,,,,,
606208,1745084332396,,,,,,,,,,,,,,,,,,,,,,,1,0,1,1,0.0,0.0,0.0,0.0,2.26,,,0,0,0,0,0,0,0,0,0,0,0,0,0,0,0,0,0,,,,,39.23988,-77.965668,1.11,30,3,0.9
606228,1745084332418,0.0,177.1,,0.03,-0.36,1.1,1,-0,-0,1.16,1.29,90,8537,11.5,2.55,,8.06,1.041,84.4,,70.7,5,,,,,,,,,,,,0,0,0,0,0,0,0,0,0,0,0,0,0,0,0,0,,,,,0.0,,,,,,
606248,1745084332438,,,,,,,,,,,,,,,,,,,,,,,,,,,,,,,,,,0,0,0,0,0,0,0,0,0,0,0,0,0,0,0,0,,,,,,,,,,,
606268,1745084332458,0.0,176.97,,-0.01,-0.27,1.03,1,-0,-0,1.07,1.29,83,8511,11.5,2.62,,8.15,1.039,84.4,,68.9,5,,,,,,,,,,,,0,0,0,0,0,0,0,0,0,0,0,0,0,0,0,0,,,,,0.0,,,,,,
606288,1745084332478,,,,,,,,,,,,,,,,,,,,,,,,,,,,,,,,,,0,0,0,0,0,0,0,0,0,0,0,0,0,0,0,0,,,,,,,,,,,
606308,1745084332498,0.0,177.1,,-0.0,-0.3,1.04,1,-0,-0,1.08,1.29,84,8442,11.5,2.63,,8.15,1.039,84.4,,68.9,5,1,0,1,1,0.0,0.0,0.0,0.0,2.26,,,0,0,0,0,0,0,0,0,0,0,0,0,0,0,0,0,0,,,,0.0,39.23988,-77.965668,1.28,30,3,0.9
606328,1745084332516,,,,,,,,,,,,,,,,,,,,,,,,,,,,,,,,,,0,0,0,0,0,0,0,0,0,0,0,0,0,0,0,0,,,,,,,,,,,
606348,1745084332536,0.0,176.97,,0.02,-0.25,1.04,1,-0,-0,1.07,1.29,83,8442,11.5,2.63,,8.29,1.031,84.4,,70.4,5,,,,,,,,,,,,0,0,0,0,0,0,0,0,0,0,0,0,0,0,0,0,,,,,0.0,,,,,,
606368,1745084332556,,,,,,,,,,,,,,,,,,,,,,,,,,,,,,,,,,0,0,0,0,0,0,0,0,0,0,0,0,0,0,0,0,,,,,,,,,,,
606388,1745084332576,0.0,176.97,,0.0,-0.17,1.03,1,-0,0,1.04,1.29,81,8436,11.5,2.67,,8.31,1.025,84.4,,70.4,5,,,,,,,,,,,,0,0,0,0,0,0,0,0,0,0,0,0,0,0,0,0,,,,,0.0,,,,,,
606408,1745084332596,,,,,,,,,,,,,,,,,,,,,,,1,0,1,1,0.0,0.0,0.0,0.0,2.26,,,0,0,0,0,0,0,0,0,0,0,0,0,0,0,0,0,0,,,,,39.23988,-77.965668,1.38,30,3,0.9
606428,1745084332618,0.0,176.85,,-0.0,-0.25,1.01,1,-0,-0,1.04,1.29,81,8458,11.5,2.75,,8.33,1.021,84.4,,70.4,5,,,,,,,,,,,,0,0,0,0,0,0,0,0,0,0,0,0,0,0,0,0,,,,,0.0,,,,,,
606448,1745084332638,,,,,,,,,,,,,,,,,,,,,,,,,,,,,,,,,,0,0,0,0,0,0,0,0,0,0,0,0,0,0,0,0,,,,,,,,,,,
606468,1745084332658,0.0,176.85,,0.03,-0.27,1.05,1,-0,0,1.09,1.29,85,8517,11.5,2.75,,8.39,1.009,84.4,,70.1,5,,,,,,,,,,,,0,0,0,0,0,0,0,0,0,0,0,0,0,0,0,0,,,,,0.0,,,,,,
606488,1745084332678,,,,,,,,,,,,,,,,,,,,,,,,,,,,,,,,,,0,0,0,0,0,0,0,0,0,0,0,0,0,0,0,0,,,,,,,,,,,
606508,1745084332698,0.0,176.85,,-0.01,-0.14,0.98,0,-0,0,0.99,1.29,77,8594,11.6,2.7,,8.39,1.009,84.4,,70.1,5,1,0,1,1,0.0,0.0,0.0,0.0,2.27,,,0,0,0,0,0,0,0,0,0,0,0,0,0,0,0,0,0,,,,0.0,39.23988,-77.965668,1.55,30,3,0.9
606528,1745084332717,,,,,,,,,,,,,,,,,,,,,,,,,,,,,,,,,,0,0,0,0,0,0,0,0,0,0,0,0,0,0,0,0,,,,,,,,,,,
606548,1745084332737,0.0,176.85,,0.01,-0.19,1.02,0,-0,0,1.04,1.29,81,8594,11.6,2.7,,8.31,1.002,84.4,,71.6,5,,,,,,,,,,,,0,0,0,0,0,0,0,0,0,0,0,0,0,0,0,0,,,,,0.0,,,,,,
606568,1745084332757,,,,,,,,,,,,,,,,,,,,,,,,,,,,,,,,,,0,0,0,0,0,0,0,0,0,0,0,0,0,0,0,0,,,,,,,,,,,
606588,1745084332777,0.0,176.85,,-0.01,-0.11,0.98,-1,-0,0,0.98,1.29,76,8625,11.8,2.68,,8.41,0.997,84.4,,71.6,5,,,,,,,,,,,,0,0,0,0,0,0,0,0,0,0,0,0,0,0,0,0,,,,,0.0,,,,,,
606608,1745084332797,,,,,,,,,,,,,,,,,,,,,,,1,0,1,1,0.0,0.0,0.0,0.0,2.26,,,0,0,0,0,0,0,0,0,0,0,0,0,0,0,0,0,0,,,,,39.23988,-77.965668,1.68,30,3,0.9
606628,1745084332817,0.0,176.72,,0.02,-0.14,1.02,0,-0,-0,1.03,1.29,80,8655,12.1,2.65,,8.45,0.993,84.4,,71.6,5,,,,,,,,,,,,0,0,0,0,0,0,0,0,0,0,0,0,0,0,0,0,,,,,0.0,,,,,,
606648,1745084332837,,,,,,,,,,,,,,,,,,,,,,,,,,,,,,,,,,0,0,0,0,0,0,0,0,0,0,0,0,0,0,0,0,,,,,,,,,,,
606668,1745084332857,0.0,176.6,,0.02,-0.15,0.97,-0,-0,-0,0.98,1.29,76,8741,12.6,2.66,,8.5,1.002,84.4,,72.2,5,,,,,,,,,,,,0,0,0,0,0,0,0,0,0,0,0,0,0,0,0,0,,,,,0.0,,,,,,
606688,1745084332877,,,,,,,,,,,,,,,,,,,,,,,,,,,,,,,,,,0,0,0,0,0,0,0,0,0,0,0,0,0,0,0,0,,,,,,,,,,,
606708,1745084332897,0.0,176.6,13.75,-0.01,0.07,0.97,-1,-0,0,0.97,1.29,75,8765,13.0,2.69,15,8.5,1.002,86.2,138,72.2,5,1,0,1,1,0.0,0.0,0.0,0.0,2.26,0,0.0,0,0,0,0,0,0,0,0,0,0,0,0,0,0,0,0,0,0.0,0,0,0.0,39.23988,-77.965668,1.8,30,3,0.9
606728,1745084332917,,,,,,,,,,,,,,,,,,,,,,,,,,,,,,,,,,0,0,0,0,0,0,0,0,0,0,0,0,0,0,0,0,,,,,,,,,,,
606748,1745084332937,0.0,176.6,,-0.03,0.08,1.0,0,-0,0,1.01,1.29,78,8765,13.0,2.69,,8.38,1.009,86.2,,70.1,5,,,,,,,,,,,,0,0,0,0,0,0,0,0,0,0,0,0,0,0,0,0,,,,,0.0,,,,,,
606768,1745084332957,,,,,,,,,,,,,,,,,,,,,,,,,,,,,,,,,,0,0,0,0,0,0,0,0,0,0,0,0,0,0,0,0,,,,,,,,,,,
606788,1745084332977,0.0,176.6,,-0.03,-0.09,1.09,1,-0,-0,1.09,1.29,85,8847,13.3,2.63,,8.47,1.015,86.2,,70.1,5,,,,,,,,,,,,0,0,0,0,0,0,0,0,0,0,0,0,0,0,0,0,,,,,0.0,,,,,,
606808,1745084332997,,,,,,,,,,,,,,,,,,,,,,,1,0,1,1,0.0,0.0,0.0,0.0,2.26,,,0,0,0,0,0,0,0,0,0,0,0,0,0,0,0,0,0,,,,,39.239876,-77.965668,1.96,30,3,0.9
606828,1745084333009,0.0,176.72,,-0.05,-0.22,1.15,1,-0,-0,1.17,1.29,91,8939,13.3,2.65,,8.46,1.022,86.2,,70.1,5,,,,,,,,,,,,0,0,0,0,0,0,0,0,0,0,0,0,0,0,0,0,,,,,0.0,,,,,,
606848,1745084333029,,,,,,,,,,,,,,,,,,,,,,,,,,,,,,,,,,0,0,0,0,0,0,0,0,0,0,0,0,0,0,0,0,,,,,,,,,,,
606868,1745084333049,0.0,176.6,,-0.07,-0.37,1.21,1,-0,-0,1.27,1.29,99,9092,13.4,2.64,,8.43,1.028,86.2,,71.2,5,,,,,,,,,,,,0,0,0,0,0,0,0,0,0,0,0,0,0,0,0,0,,,,,0.0,,,,,,
606888,1745084333069,,,,,,,,,,,,,,,,,,,,,,,,,,,,,,,,,,0,0,0,0,0,0,0,0,0,0,0,0,0,0,0,0,,,,,,,,,,,
606908,1745084333089,0.0,176.72,,-0.1,-0.22,1.19,2,-0,-0,1.22,1.29,95,9215,13.5,2.6,,8.43,1.028,86.2,,71.2,5,1,0,1,1,0.0,0.0,0.0,0.0,2.26,,,0,0,0,0,0,0,0,0,0,0,0,0,0,0,0,0,0,,,,0.0,39.239876,-77.965668,2.15,30,3,0.9
606928,1745084333115,,,,,,,,,,,,,,,,,,,,,,,,,,,,,,,,,,0,0,0,0,0,0,0,0,0,0,0,0,0,0,0,0,,,,,,,,,,,
606948,1745084333135,0.0,176.72,,-0.1,-0.09,1.08,2,-0,-1,1.09,1.29,84,9215,13.5,2.6,,8.31,1.023,86.2,,71.4,5,,,,,,,,,,,,0,0,0,0,0,0,0,0,0,0,0,0,0,0,0,0,,,,,0.0,,,,,,
606968,1745084333155,,,,,,,,,,,,,,,,,,,,,,,,,,,,,,,,,,0,0,0,0,0,0,0,0,0,0,0,0,0,0,0,0,,,,,,,,,,,
606988,1745084333175,0.0,176.72,,-0.04,-0.25,1.15,2,-0,-0,1.18,1.29,92,9301,13.4,2.58,,8.31,1.033,86.2,,71.4,5,,,,,,,,,,,,0,0,0,0,0,0,0,0,0,0,0,0,0,0,0,0,,,,,0.0,,,,,,
607008,1745084333195,,,,,,,,,,,,,,,,,,,,,,,2,0,1,1,0.0,0.0,0.0,0.0,2.27,,,0,0,0,0,0,0,0,0,0,0,0,0,0,0,0,0,0,,,,,39.239876,-77.965668,2.35,30,3,0.9
607028,1745084333217,0.0,176.72,,0.0,-0.08,1.11,1,-0,0,1.12,1.29,87,9355,13.5,2.56,,8.15,1.042,86.2,,71.4,5,,,,,,,,,,,,0,0,0,0,0,0,0,0,0,0,0,0,0,0,0,0,,,,,0.0,,,,,,
607048,1745084333237,,,,,,,,,,,,,,,,,,,,,,,,,,,,,,,,,,0,0,0,0,0,0,0,0,0,0,0,0,0,0,0,0,,,,,,,,,,,
607068,1745084333257,0.0,176.6,,-0.01,-0.28,1.14,1,-0,-0,1.17,1.29,91,9404,13.6,2.57,,8.18,1.049,86.2,,71.0,5,,,,,,,,,,,,0,0,0,0,0,0,0,0,0,0,0,0,0,0,0,0,,,,,0.0,,,,,,
607088,1745084333277,,,,,,,,,,,,,,,,,,,,,,,,,,,,,,,,,,0,0,0,0,0,0,0,0,0,0,0,0,0,0,0,0,,,,,,,,,,,
607108,1745084333297,0.0,176.6,,-0.04,-0.08,1.09,-0,-0,0,1.09,1.29,85,9507,13.6,2.58,,8.18,1.049,86.2,,71.0,5,2,0,2,2,0.0,0.0,0.0,0.0,2.27,,,0,0,0,0,0,0,0,0,0,0,0,0,0,0,0,0,0,,,,0.0,39.239876,-77.965668,2.47,30,3,0.9
607128,1745084333317,,,,,,,,,,,,,,,,,,,,,,,,,,,,,,,,,,0,0,0,0,0,0,0,0,0,0,0,0,0,0,0,0,,,,,,,,,,,
607148,1745084333337,0.0,176.6,,0.03,-0.03,1.08,0,-0,0,1.08,1.29,84,9507,13.6,2.58,,8.1,1.045,86.2,,69.8,5,,,,,,,,,,,,0,0,0,0,0,0,0,0,0,0,0,0,0,0,0,0,,,,,0.0,,,,,,
607168,1745084333357,,,,,,,,,,,,,,,,,,,,,,,,,,,,,,,,,,0,0,0,0,0,0,0,0,0,0,0,0,0,0,0,0,,,,,,,,,,,
607188,1745084333377,0.0,176.6,,-0.0,0.01,1.02,0,-1,0,1.02,1.29,79,9642,13.7,2.58,,8.05,1.045,86.2,,69.8,5,,,,,,,,,,,,0,0,0,0,0,0,0,0,0,0,0,0,0,0,0,0,,,,,0.0,,,,,,
