"Interval"|"ms"|0|0|1,"Utc"|"ms"|0|0|1,"FrontBP"|"psi"|-5.0|5.0|25,"SteerAng"|"Degrees"|-145.0|145.0|25,"Battery"|"Volts"|-5.0|20.0|1,"AccelX"|"G"|-3.0|3.0|25,"AccelY"|"G"|-3.0|3.0|25,"AccelZ"|"G"|-3.0|3.0|25,"Yaw"|"Deg/Sec"|-120|120|25,"Pitch"|"Deg/Sec"|-120|120|25,"Roll"|"Deg/Sec"|-120|120|25,"Gsum"|"G"|0.0|3.0|25,"GsumMax"|"G"|0.0|3.0|25,"GsumPct"|"%"|0|100|25,"RPM"|""|0|10000|25,"TPS"|"%"|0.0|100.0|25,"InjectorPW"|"ms"|0.0|100.0|25,"Baro"|"kPa"|0|105|1,"MAP"|"Psi"|0.0|255.0|25,"Lambda"|""|-2.0|2.0|25,"IAT"|"C"|0.0|200.0|25,"EngineTemp"|"C"|0|200|1,"EOP"|"PSI"|0.0|152.0|25,"EOT"|"F"|0|250|25,"WSFR"|"MPH"|0|150|10,"WSFL"|"MPH"|0|100|10,"WSRR"|"MPH"|0|100|10,"WSRL"|""|0|100|10,"TCSet"|"%"|0.0|100.0|10,"TCSlip"|"%"|0.0|100.0|10,"TCComp"|"deg"|0.0|50.0|10,"TCCut"|"%"|0.0|100.0|10,"Analog8"|""|0.0|5.0|10,"OilTemp"|"F"|0|300|1,"AA_On"|""|0.0|1.0|1,"ThermLF1"|"C"|0|400|50,"ThermLF2"|"C"|0|400|50,"ThermRR1"|"C"|0|400|50,"ThermRR2"|"C"|0|400|50,"ThermLF3"|"C"|0|400|50,"ThermLF4"|"C"|0|400|50,"ThermLF5"|"C"|0|400|50,"ThermLF6"|"C"|0|400|50,"ThermLF7"|"C"|0|400|50,"ThermLF8"|"C"|0|400|50,"ThermRR3"|"C"|0|400|50,"ThermRR4"|"C"|0|400|50,"ThermRR5"|"C"|0|400|50,"ThermRR6"|"C"|0|400|50,"ThermRR7"|"C"|0|400|50,"ThermRR8"|"C"|0|400|50,"Gear"|""|1|6|10,"AA_On"|""|0.0|1.0|1,"AA_LowDrag"|""|0|1|1,"Fuel_Mix"|""|-10|10|1,"AA_Packages"|""|0.0|1000.0|25,"Latitude"|"Degrees"|-180.0|180.0|10,"Longitude"|"Degrees"|-180.0|180.0|10,"Speed"|"kph"|0.0|150.0|10,"GPSSats"|""|0|20|10,"GPSQual"|""|0|5|10,"GPSDOP"|""|0.0|20.0|10
1096928,1745084823122,,,,,,,,,,,,,,,,,,,,,,,,,,,,,,,,,,0,0,0,0,0,0,0,0,0,0,0,0,0,0,0,0,,,,,,,,,,,
1096948,1745084823142,0.0,185.39,,-0.09,-0.11,0.94,-3,-0,0,0.95,0.95,100,5941,19.9,3.93,,12.48,1.131,97.0,,61.2,5,,,,,,,,,,,,0,0,0,0,0,0,0,0,0,0,0,0,0,0,0,0,,,,,0.0,,,,,,
1096968,1745084823162,,,,,,,,,,,,,,,,,,,,,,,,,,,,,,,,,,0,0,0,0,0,0,0,0,0,0,0,0,0,0,0,0,,,,,,,,,,,
1096988,1745084823182,0.0,185.39,,-0.12,-0.05,0.98,-3,-0,1,0.99,0.99,100,5941,19.9,3.93,,12.4,1.184,97.0,,67.2,5,,,,,,,,,,,,0,0,0,0,0,0,0,0,0,0,0,0,0,0,0,0,,,,,0.0,,,,,,
1097008,1745084823202,,,,,,,,,,,,,,,,,,,,,,,0,0,0,0,0.0,0.0,0.0,0.0,2.26,,,0,0,0,0,0,0,0,0,0,0,0,0,0,0,0,0,0,,,,,39.239883,-77.965668,0.0,31,3,0.9
1097028,1745084823215,0.0,185.39,,-0.15,-0.07,0.93,-3,-0,1,0.94,0.99,95,6062,20.1,3.9,,12.32,1.161,97.0,,67.2,5,,,,,,,,,,,,0,0,0,0,0,0,0,0,0,0,0,0,0,0,0,0,,,,,0.0,,,,,,
1097048,1745084823235,,,,,,,,,,,,,,,,,,,,,,,,,,,,,,,,,,0,0,0,0,0,0,0,0,0,0,0,0,0,0,0,0,,,,,,,,,,,
1097068,1745084823255,0.0,185.52,,-0.14,-0.23,0.88,-4,-0,0,0.92,0.99,94,6200,20.4,4.1,,12.4,1.177,97.0,,67.2,5,,,,,,,,,,,,0,0,0,0,0,0,0,0,0,0,0,0,0,0,0,0,,,,,0.0,,,,,,
1097088,1745084823275,,,,,,,,,,,,,,,,,,,,,,,,,,,,,,,,,,0,0,0,0,0,0,0,0,0,0,0,0,0,0,0,0,,,,,,,,,,,
1097108,1745084823295,0.0,185.39,,-0.14,-0.17,0.89,-4,-0,0,0.92,0.99,93,6501,20.8,4.42,,12.35,1.227,97.0,,65.0,5,0,0,0,0,0.0,0.0,0.0,0.0,2.26,,,0,0,0,0,0,0,0,0,0,0,0,0,0,0,0,0,0,,,,0.0,39.239883,-77.965668,0.04,31,3,0.9
1097128,1745084823319,,,,,,,,,,,,,,,,,,,,,,,,,,,,,,,,,,0,0,0,0,0,0,0,0,0,0,0,0,0,0,0,0,,,,,,,,,,,
1097148,1745084823339,0.0,185.39,,-0.11,-0.05,0.92,-3,-0,0,0.93,0.99,94,7127,20.8,5.05,,12.35,1.227,97.0,,65.0,5,,,,,,,,,,,,0,0,0,0,0,0,0,0,0,0,0,0,0,0,0,0,,,,,0.0,,,,,,
1097168,1745084823359,,,,,,,,,,,,,,,,,,,,,,,,,,,,,,,,,,0,0,0,0,0,0,0,0,0,0,0,0,0,0,0,0,,,,,,,,,,,
1097188,1745084823379,0.0,185.39,,-0.07,-0.07,0.96,-2,-0,0,0.97,0.99,98,7127,20.8,5.05,,11.92,1.107,97.0,,68.1,5,,,,,,,,,,,,0,0,0,0,0,0,0,0,0,0,0,0,0,0,0,0,,,,,0.0,,,,,,
1097208,1745084823401,,,,,,,,,,,,,,,,,,,,,,,0,0,0,0,0.0,0.0,0.0,0.0,2.26,,,0,0,0,0,0,0,0,0,0,0,0,0,0,0,0,0,0,,,,,39.239883,-77.965668,0.05,31,3,0.9
1097228,1745084823421,0.0,185.39,,-0.06,-0.02,0.94,-2,-0,0,0.95,0.99,96,7968,21.9,5.17,,11.5,1.036,97.0,,68.1,5,,,,,,,,,,,,0,0,0,0,0,0,0,0,0,0,0,0,0,0,0,0,,,,,0.0,,,,,,
1097248,1745084823441,,,,,,,,,,,,,,,,,,,,,,,,,,,,,,,,,,0,0,0,0,0,0,0,0,0,0,0,0,0,0,0,0,,,,,,,,,,,
1097268,1745084823461,0.0,185.39,,-0.06,-0.1,1.01,-1,-0,0,1.02,1.02,100,9109,22.0,4.64,,10.88,0.872,97.0,,68.1,5,,,,,,,,,,,,0,0,0,0,0,0,0,0,0,0,0,0,0,0,0,0,,,,,0.0,,,,,,
1097288,1745084823481,,,,,,,,,,,,,,,,,,,,,,,,,,,,,,,,,,0,0,0,0,0,0,0,0,0,0,0,0,0,0,0,0,,,,,,,,,,,
1097308,1745084823501,0.0,185.39,,-0.04,-0.09,0.99,-2,-0,0,0.99,1.02,98,10467,22.2,3.63,,10.21,0.804,97.0,,74.0,5,0,0,0,0,0.0,0.0,0.0,0.0,2.26,,,0,0,0,0,0,0,0,0,0,0,0,0,0,0,0,0,0,,,,0.0,39.239883,-77.965668,0.0,31,3,0.9
1097328,1745084823521,,,,,,,,,,,,,,,,,,,,,,,,,,,,,,,,,,0,0,0,0,0,0,0,0,0,0,0,0,0,0,0,0,,,,,,,,,,,
1097348,1745084823541,0.0,185.27,,-0.06,-0.02,0.98,-2,-0,1,0.98,1.02,97,11418,22.3,3.32,,10.21,0.804,95.2,,74.0,5,,,,,,,,,,,,0,0,0,0,0,0,0,0,0,0,0,0,0,0,0,0,,,,,0.0,,,,,,
1097368,1745084823561,,,,,,,,,,,,,,,,,,,,,,,,,,,,,,,,,,0,0,0,0,0,0,0,0,0,0,0,0,0,0,0,0,,,,,,,,,,,
1097388,1745084823581,0.0,185.14,,-0.07,0.16,0.85,-3,-0,1,0.87,1.02,85,11418,22.3,3.32,,9.73,0.829,95.2,,73.5,5,,,,,,,,,,,,0,0,0,0,0,0,0,0,0,0,0,0,0,0,0,0,,,,,0.0,,,,,,
1097408,1745084823601,,,,,,,,,,,,,,,,,,,,,,,0,0,0,0,0.0,0.0,0.0,0.0,2.26,,,0,0,0,0,0,0,0,0,0,0,0,0,0,0,0,0,0,,,,,39.239883,-77.965668,0.13,31,3,0.9
1097428,1745084823621,0.0,185.14,,-0.02,0.21,0.83,-3,-0,1,0.86,1.02,84,12116,22.6,3.07,,9.13,0.841,95.2,,73.5,5,,,,,,,,,,,,0,0,0,0,0,0,0,0,0,0,0,0,0,0,0,0,,,,,0.0,,,,,,
1097448,1745084823641,,,,,,,,,,,,,,,,,,,,,,,,,,,,,,,,,,0,0,0,0,0,0,0,0,0,0,0,0,0,0,0,0,,,,,,,,,,,
1097468,1745084823661,0.0,185.14,,-0.02,0.23,0.83,-3,-0,1,0.86,1.02,85,12070,17.0,2.55,,8.43,0.881,95.2,,73.5,5,,,,,,,,,,,,0,0,0,0,0,0,0,0,0,0,0,0,0,0,0,0,,,,,0.0,,,,,,
1097488,1745084823681,,,,,,,,,,,,,,,,,,,,,,,,,,,,,,,,,,0,0,0,0,0,0,0,0,0,0,0,0,0,0,0,0,,,,,,,,,,,
1097508,1745084823701,0.0,185.02,,-0.02,0.31,0.79,-3,-0,1,0.85,1.02,84,11761,13.0,2.2,,7.46,0.905,95.2,,73.8,5,0,0,0,0,0.0,0.0,0.0,0.0,2.26,,,0,0,0,0,0,0,0,0,0,0,0,0,0,0,0,0,0,,,,0.0,39.239883,-77.965668,0.36,31,3,0.9
1097528,1745084823721,,,,,,,,,,,,,,,,,,,,,,,,,,,,,,,,,,0,0,0,0,0,0,0,0,0,0,0,0,0,0,0,0,,,,,,,,,,,
1097548,1745084823741,0.0,185.02,,0.02,0.32,0.94,-2,-0,2,0.99,1.02,98,11424,12.8,2.0,,7.46,0.905,95.2,,73.8,5,,,,,,,,,,,,0,0,0,0,0,0,0,0,0,0,0,0,0,0,0,0,,,,,0.0,,,,,,
1097568,1745084823761,,,,,,,,,,,,,,,,,,,,,,,,,,,,,,,,,,0,0,0,0,0,0,0,0,0,0,0,0,0,0,0,0,,,,,,,,,,,
1097588,1745084823781,0.0,185.02,,0.05,0.35,0.96,-1,-0,1,1.02,1.02,100,11424,12.8,2.0,,7.08,0.926,95.2,,71.9,5,,,,,,,,,,,,0,0,0,0,0,0,0,0,0,0,0,0,0,0,0,0,,,,,0.0,,,,,,
1097608,1745084823801,,,,,,,,,,,,,,,,,,,,,,,0,0,0,0,0.0,0.0,0.0,0.0,2.26,,,0,0,0,0,0,0,0,0,0,0,0,0,0,0,0,0,0,,,,,39.239883,-77.965668,1.19,31,3,0.9
1097628,1745084823821,0.0,184.89,,0.06,0.23,0.94,-1,-0,1,0.97,1.02,94,11053,12.7,1.96,,6.96,0.939,95.2,,71.9,5,,,,,,,,,,,,0,0,0,0,0,0,0,0,0,0,0,0,0,0,0,0,,,,,0.0,,,,,,
1097648,1745084823841,,,,,,,,,,,,,,,,,,,,,,,,,,,,,,,,,,0,0,0,0,0,0,0,0,0,0,0,0,0,0,0,0,,,,,,,,,,,
1097668,1745084823861,0.0,184.89,,0.06,0.35,0.9,-1,-0,1,0.96,1.02,94,10742,14.0,2.17,,7.27,0.943,95.2,,71.9,5,,,,,,,,,,,,0,0,0,0,0,0,0,0,0,0,0,0,0,0,0,0,,,,,0.0,,,,,,
1097688,1745084823881,,,,,,,,,,,,,,,,,,,,,,,,,,,,,,,,,,0,0,0,0,0,0,0,0,0,0,0,0,0,0,0,0,,,,,,,,,,,
1097708,1745084823901,0.0,184.77,13.42,0.07,0.59,0.87,-1,-0,1,1.05,1.05,100,10477,17.4,2.57,15,7.59,0.95,95.2,138,70.7,5,1,0,1,1,0.0,0.0,0.0,0.0,2.25,0,0.0,0,0,0,0,0,0,0,0,0,0,0,0,0,0,0,0,0,0.0,0,0,0.0,39.239883,-77.965668,1.19,31,3,0.9
1097728,1745084823919,,,,,,,,,,,,,,,,,,,,,,,,,,,,,,,,,,0,0,0,0,0,0,0,0,0,0,0,0,0,0,0,0,,,,,,,,,,,
1097748,1745084823939,0.0,184.77,,0.09,0.79,0.81,-2,-0,1,1.14,1.14,100,10450,18.6,2.83,,7.59,0.95,95.2,,70.7,5,,,,,,,,,,,,0,0,0,0,0,0,0,0,0,0,0,0,0,0,0,0,,,,,0.0,,,,,,
1097768,1745084823959,,,,,,,,,,,,,,,,,,,,,,,,,,,,,,,,,,0,0,0,0,0,0,0,0,0,0,0,0,0,0,0,0,,,,,,,,,,,
1097788,1745084823979,0.0,184.77,,0.08,0.66,0.86,-1,-0,0,1.09,1.14,96,10450,18.6,2.83,,8.07,0.997,95.2,,72.1,5,,,,,,,,,,,,0,0,0,0,0,0,0,0,0,0,0,0,0,0,0,0,,,,,0.0,,,,,,
1097808,1745084823999,,,,,,,,,,,,,,,,,,,,,,,1,0,1,1,0.0,0.0,0.0,0.0,2.26,,,0,0,0,0,0,0,0,0,0,0,0,0,0,0,0,0,0,,,,,39.239883,-77.965668,1.95,31,3,0.9
1097828,1745084824013,0.0,184.64,,0.08,0.21,0.94,-0,-0,-0,0.97,1.14,85,10494,19.5,2.93,,8.21,0.995,95.2,,72.1,5,,,,,,,,,,,,0,0,0,0,0,0,0,0,0,0,0,0,0,0,0,0,,,,,0.0,,,,,,
1097848,1745084824033,,,,,,,,,,,,,,,,,,,,,,,,,,,,,,,,,,0,0,0,0,0,0,0,0,0,0,0,0,0,0,0,0,,,,,,,,,,,
1097868,1745084824053,0.0,184.51,,0.06,0.02,0.94,-0,-0,-0,0.95,1.14,83,10578,19.4,2.95,,8.31,0.993,95.2,,72.1,5,,,,,,,,,,,,0,0,0,0,0,0,0,0,0,0,0,0,0,0,0,0,,,,,0.0,,,,,,
1097888,1745084824073,,,,,,,,,,,,,,,,,,,,,,,,,,,,,,,,,,0,0,0,0,0,0,0,0,0,0,0,0,0,0,0,0,,,,,,,,,,,
1097908,1745084824093,0.0,184.39,,0.06,0.17,0.91,-1,-0,1,0.93,1.14,82,10608,20.7,3.01,,8.45,0.989,95.2,,71.8,5,2,0,2,2,0.0,0.0,0.0,0.0,2.26,,,0,0,0,0,0,0,0,0,0,0,0,0,0,0,0,0,0,,,,0.0,39.23988,-77.965668,2.34,31,3,0.9
1097928,1745084824117,,,,,,,,,,,,,,,,,,,,,,,,,,,,,,,,,,0,0,0,0,0,0,0,0,0,0,0,0,0,0,0,0,,,,,,,,,,,
1097948,1745084824137,0.0,184.26,,0.07,0.38,0.9,-2,-0,1,0.98,1.14,87,10714,20.9,3.0,,8.45,0.989,95.2,,71.8,5,,,,,,,,,,,,0,0,0,0,0,0,0,0,0,0,0,0,0,0,0,0,,,,,0.0,,,,,,
1097968,1745084824157,,,,,,,,,,,,,,,,,,,,,,,,,,,,,,,,,,0,0,0,0,0,0,0,0,0,0,0,0,0,0,0,0,,,,,,,,,,,
1097988,1745084824177,0.0,184.26,,0.06,0.29,0.96,-1,-0,0,1.01,1.14,89,10714,20.9,3.0,,8.57,0.984,95.2,,71.9,5,,,,,,,,,,,,0,0,0,0,0,0,0,0,0,0,0,0,0,0,0,0,,,,,0.0,,,,,,
1098008,1745084824197,,,,,,,,,,,,,,,,,,,,,,,2,0,2,2,0.0,0.0,0.0,0.0,2.26,,,0,0,0,0,0,0,0,0,0,0,0,0,0,0,0,0,0,,,,,39.23988,-77.965668,2.96,31,3,0.9
1098028,1745084824218,0.0,184.14,,0.08,0.2,0.94,-2,-0,0,0.97,1.14,85,10832,22.3,3.06,,9.14,0.992,95.2,,71.9,5,,,,,,,,,,,,0,0,0,0,0,0,0,0,0,0,0,0,0,0,0,0,,,,,0.0,,,,,,
1098048,1745084824238,,,,,,,,,,,,,,,,,,,,,,,,,,,,,,,,,,0,0,0,0,0,0,0,0,0,0,0,0,0,0,0,0,,,,,,,,,,,
1098068,1745084824258,0.0,184.14,,0.08,0.23,0.93,-1,-0,0,0.96,1.14,84,10983,23.6,3.17,,9.15,1.001,95.2,,71.9,5,,,,,,,,,,,,0,0,0,0,0,0,0,0,0,0,0,0,0,0,0,0,,,,,0.0,,,,,,
1098088,1745084824278,,,,,,,,,,,,,,,,,,,,,,,,,,,,,,,,,,0,0,0,0,0,0,0,0,0,0,0,0,0,0,0,0,,,,,,,,,,,
1098108,1745084824298,0.0,184.01,,0.07,0.17,0.95,-1,-0,0,0.97,1.14,85,11130,24.4,3.23,,9.46,1.014,95.2,,74.1,5,3,0,3,3,0.0,0.0,0.0,0.0,2.26,,,0,0,0,0,0,0,0,0,0,0,0,0,0,0,0,0,0,,,,0.0,39.23988,-77.965668,3.6,31,3,0.9
1098128,1745084824320,,,,,,,,,,,,,,,,,,,,,,,,,,,,,,,,,,0,0,0,0,0,0,0,0,0,0,0,0,0,0,0,0,,,,,,,,,,,
1098148,1745084824340,0.0,183.89,,0.12,0.15,0.99,-1,-0,0,1.0,1.14,89,11213,24.6,3.24,,9.46,1.014,95.2,,74.1,5,,,,,,,,,,,,0,0,0,0,0,0,0,0,0,0,0,0,0,0,0,0,,,,,0.0,,,,,,
1098168,1745084824360,,,,,,,,,,,,,,,,,,,,,,,,,,,,,,,,,,0,0,0,0,0,0,0,0,0,0,0,0,0,0,0,0,,,,,,,,,,,
1098188,1745084824380,0.0,183.89,,0.14,0.03,0.95,-0,-0,0,0.96,1.14,84,11213,24.6,3.24,,9.52,1.017,95.2,,73.3,5,,,,,,,,,,,,0,0,0,0,0,0,0,0,0,0,0,0,0,0,0,0,,,,,0.0,,,,,,
1098208,1745084824400,,,,,,,,,,,,,,,,,,,,,,,3,0,3,3,0.0,0.0,0.0,0.0,2.26,,,0,0,0,0,0,0,0,0,0,0,0,0,0,0,0,0,0,,,,,39.23988,-77.965668,4.05,31,3,0.9
1098228,1745084824420,0.0,183.76,,0.11,-0.04,0.91,-0,-0,0,0.92,1.14,81,11141,24.6,3.23,,9.69,1.027,95.2,,73.3,5,,,,,,,,,,,,0,0,0,0,0,0,0,0,0,0,0,0,0,0,0,0,,,,,0.0,,,,,,
1098248,1745084824440,,,,,,,,,,,,,,,,,,,,,,,,,,,,,,,,,,0,0,0,0,0,0,0,0,0,0,0,0,0,0,0,0,,,,,,,,,,,
1098268,1745084824460,0.0,183.63,,0.14,0.04,0.94,-1,-0,0,0.95,1.14,84,11061,21.9,3.14,,9.17,1.046,95.2,,73.3,5,,,,,,,,,,,,0,0,0,0,0,0,0,0,0,0,0,0,0,0,0,0,,,,,0.0,,,,,,
1098288,1745084824480,,,,,,,,,,,,,,,,,,,,,,,,,,,,,,,,,,0,0,0,0,0,0,0,0,0,0,0,0,0,0,0,0,,,,,,,,,,,
1098308,1745084824502,0.0,183.51,,0.18,0.02,0.92,-0,0,0,0.93,1.14,82,10681,21.6,3.15,,9.1,1.03,95.2,,74.3,5,3,0,4,4,0.0,0.0,0.0,0.0,2.26,,,0,0,0,0,0,0,0,0,0,0,0,0,0,0,0,0,0,,,,0.0,39.239876,-77.965668,5.36,31,3,0.9
1098328,1745084824522,,,,,,,,,,,,,,,,,,,,,,,,,,,,,,,,,,0,0,0,0,0,0,0,0,0,0,0,0,0,0,0,0,,,,,,,,,,,
1098348,1745084824542,0.0,183.38,,0.21,0.2,0.89,-1,0,0,0.94,1.14,83,10132,23.0,3.07,,9.1,1.03,95.2,,74.3,5,,,,,,,,,,,,0,0,0,0,0,0,0,0,0,0,0,0,0,0,0,0,,,,,0.0,,,,,,
1098368,1745084824562,,,,,,,,,,,,,,,,,,,,,,,,,,,,,,,,,,0,0,0,0,0,0,0,0,0,0,0,0,0,0,0,0,,,,,,,,,,,
1098388,1745084824582,0.0,183.26,,0.22,0.15,0.88,-0,0,0,0.92,1.14,81,10132,23.0,3.07,,9.13,1.025,95.2,,66.9,5,,,,,,,,,,,,0,0,0,0,0,0,0,0,0,0,0,0,0,0,0,0,,,,,0.0,,,,,,
1098408,1745084824602,,,,,,,,,,,,,,,,,,,,,,,5,0,5,5,0.0,0.0,0.0,0.0,2.26,,,0,0,0,0,0,0,0,0,0,0,0,0,0,0,0,0,0,,,,,39.239876,-77.965668,7.01,31,3,0.9
1098428,1745084824622,0.0,183.01,,0.25,-0.08,0.92,0,-0,0,0.95,1.14,84,9562,22.0,3.19,,9.25,1.04,95.2,,66.9,5,,,,,,,,,,,,0,0,0,0,0,0,0,0,0,0,0,0,0,0,0,0,,,,,0.0,,,,,,
1098448,1745084824642,,,,,,,,,,,,,,,,,,,,,,,,,,,,,,,,,,0,0,0,0,0,0,0,0,0,0,0,0,0,0,0,0,,,,,,,,,,,
1098468,1745084824662,0.0,182.76,,0.32,-0.2,1.0,2,0,0,1.07,1.14,94,9085,21.7,3.18,,9.42,1.048,95.2,,66.9,5,,,,,,,,,,,,0,0,0,0,0,0,0,0,0,0,0,0,0,0,0,0,,,,,0.0,,,,,,
1098488,1745084824682,,,,,,,,,,,,,,,,,,,,,,,,,,,,,,,,,,0,0,0,0,0,0,0,0,0,0,0,0,0,0,0,0,,,,,,,,,,,
1098508,1745084824702,0.0,182.63,,0.33,-0.23,0.98,2,0,0,1.06,1.14,93,8682,21.2,3.33,,9.85,1.04,95.2,,66.3,5,6,0,9,9,0.0,0.0,0.0,0.0,2.26,,,0,0,0,0,0,0,0,0,0,0,0,0,0,0,0,0,0,,,,0.0,39.239872,-77.965668,9.54,31,3,0.9
1098528,1745084824722,,,,,,,,,,,,,,,,,,,,,,,,,,,,,,,,,,0,0,0,0,0,0,0,0,0,0,0,0,0,0,0,0,,,,,,,,,,,
1098548,1745084824742,0.0,182.5,,0.31,-0.16,0.94,2,-0,-0,1.01,1.14,89,8249,22.1,3.64,,9.85,1.04,95.2,,66.3,5,,,,,,,,,,,,0,0,0,0,0,0,0,0,0,0,0,0,0,0,0,0,,,,,0.0,,,,,,
1098568,1745084824762,,,,,,,,,,,,,,,,,,,,,,,,,,,,,,,,,,0,0,0,0,0,0,0,0,0,0,0,0,0,0,0,0,,,,,,,,,,,
1098588,1745084824782,0.0,182.38,,0.35,-0.03,0.96,2,-0,-0,1.02,1.14,90,8249,22.1,3.64,,10.12,1.022,95.2,,66.3,5,,,,,,,,,,,,0,0,0,0,0,0,0,0,0,0,0,0,0,0,0,0,,,,,0.0,,,,,,
1098608,1745084824802,,,,,,,,,,,,,,,,,,,,,,,7,0,7,8,0.0,0.0,0.0,0.0,2.26,,,0,0,0,0,0,0,0,0,0,0,0,0,0,0,0,0,0,,,,,39.239872,-77.965668,9.54,31,3,0.9
1098628,1745084824820,0.0,182.25,,0.33,0.13,0.93,1,0,0,0.99,1.14,87,7823,21.1,3.94,,10.49,1.003,95.2,,66.3,5,,,,,,,,,,,,0,0,0,0,0,0,0,0,0,0,0,0,0,0,0,0,,,,,0.0,,,,,,
1098648,1745084824840,,,,,,,,,,,,,,,,,,,,,,,,,,,,,,,,,,0,0,0,0,0,0,0,0,0,0,0,0,0,0,0,0,,,,,,,,,,,
1098668,1745084824860,0.0,182.13,,0.33,0.18,0.95,2,0,-0,1.02,1.14,90,7430,21.5,3.97,,10.94,0.977,95.2,,66.3,5,,,,,,,,,,,,0,0,0,0,0,0,0,0,0,0,0,0,0,0,0,0,,,,,0.0,,,,,,
1098688,1745084824880,,,,,,,,,,,,,,,,,,,,,,,,,,,,,,,,,,0,0,0,0,0,0,0,0,0,0,0,0,0,0,0,0,,,,,,,,,,,
1098708,1745084824902,0.0,182.13,13.4,0.34,0.13,0.95,2,0,0,1.02,1.14,90,6933,21.5,4.85,15,11.22,0.969,95.2,137,62.7,5,8,0,8,9,0.0,43.0,0.0,0.0,2.26,0,0.0,0,0,0,0,0,0,0,0,0,0,0,0,0,0,0,0,0,0.0,0,0,0.0,39.239868,-77.965675,13.19,31,3,0.9
1098728,1745084824922,,,,,,,,,,,,,,,,,,,,,,,,,,,,,,,,,,0,0,0,0,0,0,0,0,0,0,0,0,0,0,0,0,,,,,,,,,,,
1098748,1745084824942,0.0,182.0,,0.35,0.03,0.96,2,0,-0,1.02,1.14,90,6477,21.2,4.45,,11.22,0.969,95.2,,62.7,5,,,,,,,,,,,,0,0,0,0,0,0,0,0,0,0,0,0,0,0,0,0,,,,,0.0,,,,,,
1098768,1745084824962,,,,,,,,,,,,,,,,,,,,,,,,,,,,,,,,,,0,0,0,0,0,0,0,0,0,0,0,0,0,0,0,0,,,,,,,,,,,
1098788,1745084824982,0.0,182.0,,0.36,0.1,1.02,2,0,0,1.09,1.14,96,6477,21.2,4.45,,11.5,0.956,95.2,,63.0,5,,,,,,,,,,,,0,0,0,0,0,0,0,0,0,0,0,0,0,0,0,0,,,,,0.0,,,,,,
1098808,1745084825002,,,,,,,,,,,,,,,,,,,,,,,9,0,9,9,0.0,45.0,0.0,0.0,2.26,,,0,0,0,0,0,0,0,0,0,0,0,0,0,0,0,0,0,,,,,39.239868,-77.965675,13.19,31,3,0.9
1098828,1745084825014,0.0,181.88,,0.37,0.2,1.13,2,-0,0,1.2,1.2,100,6001,21.1,3.97,,11.85,0.919,95.2,,63.0,5,,,,,,,,,,,,0,0,0,0,0,0,0,0,0,0,0,0,0,0,0,0,,,,,0.0,,,,,,
1098848,1745084825034,,,,,,,,,,,,,,,,,,,,,,,,,,,,,,,,,,0,0,0,0,0,0,0,0,0,0,0,0,0,0,0,0,,,,,,,,,,,
1098868,1745084825054,0.0,182.0,,0.37,0.18,1.12,2,-0,0,1.19,1.2,99,5538,21.1,3.81,,12.39,0.948,95.2,,63.0,5,,,,,,,,,,,,0,0,0,0,0,0,0,0,0,0,0,0,0,0,0,0,,,,,0.0,,,,,,
1098888,1745084825074,,,,,,,,,,,,,,,,,,,,,,,,,,,,,,,,,,0,0,0,0,0,0,0,0,0,0,0,0,0,0,0,0,,,,,,,,,,,
1098908,1745084825094,0.0,182.0,,0.36,0.19,1.15,3,-0,0,1.22,1.22,100,4597,20.7,3.72,,12.96,0.99,95.2,,58.6,5,10,0,11,11,0.0,237.0,0.0,0.0,2.26,,,0,0,0,0,0,0,0,0,0,0,0,0,0,0,0,0,0,,,,0.0,39.239864,-77.965675,14.9,32,3,0.8
1098928,1745084825120,,,,,,,,,,,,,,,,,,,,,,,,,,,,,,,,,,0,0,0,0,0,0,0,0,0,0,0,0,0,0,0,0,,,,,,,,,,,
1098948,1745084825140,0.0,182.0,,0.37,0.09,1.13,3,0,-0,1.19,1.22,97,3841,20.3,4.07,,12.96,0.99,95.2,,58.6,5,,,,,,,,,,,,0,0,0,0,0,0,0,0,0,0,0,0,0,0,0,0,,,,,0.0,,,,,,
1098968,1745084825160,,,,,,,,,,,,,,,,,,,,,,,,,,,,,,,,,,0,0,0,0,0,0,0,0,0,0,0,0,0,0,0,0,,,,,,,,,,,
1098988,1745084825180,0.0,182.0,,0.37,0.26,1.06,3,-0,-0,1.16,1.22,95,3841,20.3,4.07,,13.37,1.012,95.2,,36.5,5,,,,,,,,,,,,0,0,0,0,0,0,0,0,0,0,0,0,0,0,0,0,,,,,0.0,,,,,,
1099008,1745084825200,,,,,,,,,,,,,,,,,,,,,,,12,0,12,12,0.0,17.0,0.0,0.0,2.26,,,0,0,0,0,0,0,0,0,0,0,0,0,0,0,0,0,0,,,,,39.239864,-77.965683,16.53,32,3,0.8
1099028,1745084825217,0.0,182.13,,0.33,0.24,1.04,2,-0,-0,1.12,1.22,91,3046,20.0,4.71,,13.72,1.037,95.2,,36.5,5,,,,,,,,,,,,0,0,0,0,0,0,0,0,0,0,0,0,0,0,0,0,,,,,0.0,,,,,,
1099048,1745084825237,,,,,,,,,,,,,,,,,,,,,,,,,,,,,,,,,,0,0,0,0,0,0,0,0,0,0,0,0,0,0,0,0,,,,,,,,,,,
1099068,1745084825257,0.0,182.13,,0.27,0.21,1.03,3,-1,-0,1.09,1.22,89,2664,19.0,4.64,,13.87,1.079,95.2,,36.5,5,,,,,,,,,,,,0,0,0,0,0,0,0,0,0,0,0,0,0,0,0,0,,,,,0.0,,,,,,
1099088,1745084825277,,,,,,,,,,,,,,,,,,,,,,,,,,,,,,,,,,0,0,0,0,0,0,0,0,0,0,0,0,0,0,0,0,,,,,,,,,,,
1099108,1745084825301,0.0,182.13,,0.22,0.23,0.99,3,-1,-0,1.04,1.22,85,2744,18.8,4.58,,13.88,1.125,95.2,,25.6,5,12,0,12,11,0.0,5.0,0.0,0.0,2.26,,,0,0,0,0,0,0,0,0,0,0,0,0,0,0,0,0,0,,,,0.0,39.239857,-77.965691,19.07,32,3,0.8
1099128,1745084825321,,,,,,,,,,,,,,,,,,,,,,,,,,,,,,,,,,0,0,0,0,0,0,0,0,0,0,0,0,0,0,0,0,,,,,,,,,,,
1099148,1745084825341,0.0,182.13,,0.21,0.17,0.93,-0,-1,-1,0.97,1.22,80,2880,19.0,4.63,,13.88,1.125,95.2,,25.6,5,,,,,,,,,,,,0,0,0,0,0,0,0,0,0,0,0,0,0,0,0,0,,,,,0.0,,,,,,
1099168,1745084825361,,,,,,,,,,,,,,,,,,,,,,,,,,,,,,,,,,0,0,0,0,0,0,0,0,0,0,0,0,0,0,0,0,,,,,,,,,,,
1099188,1745084825381,0.0,182.25,,0.2,0.14,0.94,-3,-0,-1,0.97,1.22,79,2880,19.0,4.63,,13.82,1.162,95.2,,29.4,5,,,,,,,,,,,,0,0,0,0,0,0,0,0,0,0,0,0,0,0,0,0,,,,,0.0,,,,,,
1099208,1745084825401,,,,,,,,,,,,,,,,,,,,,,,12,0,12,12,0.0,47.0,0.0,0.0,2.26,,,0,0,0,0,0,0,0,0,0,0,0,0,0,0,0,0,2,,,,,39.239853,-77.965691,18.39,32,3,0.8
1099228,1745084825421,0.0,182.25,,0.2,0.03,0.98,-4,-0,-1,1.0,1.22,82,2885,18.8,4.68,,13.86,1.171,95.2,,29.4,5,,,,,,,,,,,,0,0,0,0,0,0,0,0,0,0,0,0,0,0,0,0,,,,,0.0,,,,,,
1099248,1745084825441,,,,,,,,,,,,,,,,,,,,,,,,,,,,,,,,,,0,0,0,0,0,0,0,0,0,0,0,0,0,0,0,0,,,,,,,,,,,
1099268,1745084825461,0.0,182.25,,0.18,-0.0,1.01,-1,-1,-1,1.03,1.22,84,2751,18.7,4.63,,13.91,1.183,95.2,,29.4,5,,,,,,,,,,,,0,0,0,0,0,0,0,0,0,0,0,0,0,0,0,0,,,,,0.0,,,,,,
1099288,1745084825481,,,,,,,,,,,,,,,,,,,,,,,,,,,,,,,,,,0,0,0,0,0,0,0,0,0,0,0,0,0,0,0,0,,,,,,,,,,,
1099308,1745084825503,0.0,182.38,,0.14,0.07,1.0,1,-1,-1,1.01,1.22,83,2901,18.5,4.63,,13.88,1.178,95.2,,27.8,5,12,0,12,12,0.0,245.0,0.0,0.0,2.26,,,0,0,0,0,0,0,0,0,0,0,0,0,0,0,0,0,2,,,,0.0,39.239849,-77.965698,18.74,32,3,0.8
1099328,1745084825523,,,,,,,,,,,,,,,,,,,,,,,,,,,,,,,,,,0,0,0,0,0,0,0,0,0,0,0,0,0,0,0,0,,,,,,,,,,,
1099348,1745084825543,0.0,182.38,,0.12,0.13,0.94,-0,-0,-1,0.96,1.22,78,2964,18.4,4.64,,13.88,1.178,95.2,,27.8,5,,,,,,,,,,,,0,0,0,0,0,0,0,0,0,0,0,0,0,0,0,0,,,,,0.0,,,,,,
1099368,1745084825563,,,,,,,,,,,,,,,,,,,,,,,,,,,,,,,,,,0,0,0,0,0,0,0,0,0,0,0,0,0,0,0,0,,,,,,,,,,,
1099388,1745084825583,0.0,182.5,,0.11,0.15,0.84,-3,-1,-1,0.86,1.22,71,2964,18.4,4.64,,13.8,1.159,95.2,,28.9,5,,,,,,,,,,,,0,0,0,0,0,0,0,0,0,0,0,0,0,0,0,0,,,,,0.0,,,,,,
1099408,1745084825603,,,,,,,,,,,,,,,,,,,,,,,12,0,12,12,0.0,17.0,0.0,0.0,2.26,,,0,0,0,0,0,0,0,0,0,0,0,0,0,0,0,0,2,,,,,39.239845,-77.965698,18.9,32,3,0.8
1099428,1745084825623,0.0,182.5,,0.14,0.19,0.78,-4,-0,-1,0.81,1.22,67,2980,18.4,4.64,,13.86,1.158,95.2,,28.9,5,,,,,,,,,,,,0,0,0,0,0,0,0,0,0,0,0,0,0,0,0,0,,,,,0.0,,,,,,
1099448,1745084825643,,,,,,,,,,,,,,,,,,,,,,,,,,,,,,,,,,0,0,0,0,0,0,0,0,0,0,0,0,0,0,0,0,,,,,,,,,,,
1099468,1745084825663,0.0,182.5,,0.13,0.21,0.74,-5,-0,-1,0.78,1.22,64,2981,18.4,4.52,,13.92,1.169,95.2,,28.9,5,,,,,,,,,,,,0,0,0,0,0,0,0,0,0,0,0,0,0,0,0,0,,,,,0.0,,,,,,
1099488,1745084825683,,,,,,,,,,,,,,,,,,,,,,,,,,,,,,,,,,0,0,0,0,0,0,0,0,0,0,0,0,0,0,0,0,,,,,,,,,,,
1099508,1745084825703,0.0,182.63,,0.12,0.21,0.72,-6,-0,-1,0.76,1.22,62,2873,18.3,4.66,,13.87,1.118,95.2,,29.1,5,13,0,13,13,0.0,230.0,0.0,0.0,2.26,,,0,0,0,0,0,0,0,0,0,0,0,0,0,0,0,0,2,,,,0.0,39.239841,-77.965706,19.46,32,3,0.8
1099528,1745084825723,,,,,,,,,,,,,,,,,,,,,,,,,,,,,,,,,,0,0,0,0,0,0,0,0,0,0,0,0,0,0,0,0,,,,,,,,,,,
1099548,1745084825743,0.0,182.63,,0.13,0.3,0.67,-5,-0,-1,0.75,1.22,61,3224,18.5,4.62,,13.87,1.118,95.2,,29.1,5,,,,,,,,,,,,0,0,0,0,0,0,0,0,0,0,0,0,0,0,0,0,,,,,0.0,,,,,,
1099568,1745084825763,,,,,,,,,,,,,,,,,,,,,,,,,,,,,,,,,,0,0,0,0,0,0,0,0,0,0,0,0,0,0,0,0,,,,,,,,,,,
1099588,1745084825783,0.0,182.63,,0.1,0.42,0.68,-2,-0,-0,0.81,1.22,66,3224,18.5,4.62,,13.8,1.053,95.2,,31.2,5,,,,,,,,,,,,0,0,0,0,0,0,0,0,0,0,0,0,0,0,0,0,,,,,0.0,,,,,,
1099608,1745084825803,,,,,,,,,,,,,,,,,,,,,,,13,0,13,13,0.0,58.0,0.0,0.0,2.26,,,0,0,0,0,0,0,0,0,0,0,0,0,0,0,0,0,0,,,,,39.239838,-77.965714,20.11,32,3,0.8
1099628,1745084825823,0.0,182.76,,0.06,0.49,0.68,1,-1,0,0.85,1.22,69,2962,18.5,4.56,,13.84,1.034,95.2,,31.2,5,,,,,,,,,,,,0,0,0,0,0,0,0,0,0,0,0,0,0,0,0,0,,,,,0.0,,,,,,
1099648,1745084825843,,,,,,,,,,,,,,,,,,,,,,,,,,,,,,,,,,0,0,0,0,0,0,0,0,0,0,0,0,0,0,0,0,,,,,,,,,,,
1099668,1745084825863,0.0,182.88,,0.05,0.42,0.76,5,-1,0,0.87,1.22,71,3026,18.6,4.59,,13.82,1.066,95.2,,31.2,5,,,,,,,,,,,,0,0,0,0,0,0,0,0,0,0,0,0,0,0,0,0,,,,,0.0,,,,,,
1099688,1745084825883,,,,,,,,,,,,,,,,,,,,,,,,,,,,,,,,,,0,0,0,0,0,0,0,0,0,0,0,0,0,0,0,0,,,,,,,,,,,
1099708,1745084825903,0.0,182.88,13.46,0.06,0.26,0.87,6,-0,0,0.91,1.22,75,3186,18.6,4.58,15,13.76,1.087,95.2,137,31.2,5,13,0,13,13,0.0,10.0,0.0,0.0,2.26,0,0.0,0,0,0,0,0,0,0,0,0,0,0,0,0,0,0,0,0,0.0,0,0,0.0,39.239834,-77.965714,20.51,32,3,0.8
1099728,1745084825923,,,,,,,,,,,,,,,,,,,,,,,,,,,,,,,,,,0,0,0,0,0,0,0,0,0,0,0,0,0,0,0,0,,,,,,,,,,,
1099748,1745084825943,0.0,182.88,,0.06,0.14,0.88,2,-0,-0,0.89,1.22,73,3194,18.5,4.59,,13.76,1.087,95.2,,31.2,5,,,,,,,,,,,,0,0,0,0,0,0,0,0,0,0,0,0,0,0,0,0,,,,,0.0,,,,,,
1099768,1745084825963,,,,,,,,,,,,,,,,,,,,,,,,,,,,,,,,,,0,0,0,0,0,0,0,0,0,0,0,0,0,0,0,0,,,,,,,,,,,
1099788,1745084825983,0.0,183.01,,0.06,0.15,0.83,0,-0,-0,0.84,1.22,69,3194,18.5,4.59,,13.76,1.105,95.2,,32.2,5,,,,,,,,,,,,0,0,0,0,0,0,0,0,0,0,0,0,0,0,0,0,,,,,0.0,,,,,,
1099808,1745084826003,,,,,,,,,,,,,,,,,,,,,,,13,0,13,13,0.0,241.0,0.0,0.0,2.26,,,0,0,0,0,0,0,0,0,0,0,0,0,0,0,0,0,2,,,,,39.239834,-77.965714,20.51,32,3,0.8
1099828,1745084826013,0.0,183.01,,0.04,0.18,0.81,2,-1,-0,0.83,1.22,68,3112,18.4,4.52,,13.82,1.124,95.2,,32.2,5,,,,,,,,,,,,0,0,0,0,0,0,0,0,0,0,0,0,0,0,0,0,,,,,0.0,,,,,,
1099848,1745084826033,,,,,,,,,,,,,,,,,,,,,,,,,,,,,,,,,,0,0,0,0,0,0,0,0,0,0,0,0,0,0,0,0,,,,,,,,,,,
1099868,1745084826053,0.0,183.01,,0.04,0.11,0.89,6,-1,-0,0.89,1.22,73,3226,18.4,4.55,,13.76,1.136,95.2,,32.2,5,,,,,,,,,,,,0,0,0,0,0,0,0,0,0,0,0,0,0,0,0,0,,,,,0.0,,,,,,
1099888,1745084826073,,,,,,,,,,,,,,,,,,,,,,,,,,,,,,,,,,0,0,0,0,0,0,0,0,0,0,0,0,0,0,0,0,,,,,,,,,,,
1099908,1745084826101,0.0,183.13,,0.03,-0.04,0.95,3,-0,-0,0.95,1.22,78,3236,18.4,4.56,,13.76,1.158,95.2,,31.6,5,13,0,13,13,0.0,42.0,0.0,0.0,2.27,,,0,0,0,0,0,0,0,0,0,0,0,0,0,0,0,0,2,,,,0.0,39.239826,-77.965714,20.81,32,3,0.8
1099928,1745084826121,,,,,,,,,,,,,,,,,,,,,,,,,,,,,,,,,,0,0,0,0,0,0,0,0,0,0,0,0,0,0,0,0,,,,,,,,,,,
1099948,1745084826141,0.0,183.13,,0.03,-0.03,0.87,1,-0,-0,0.87,1.22,71,3160,18.4,4.45,,13.76,1.158,95.2,,31.6,5,,,,,,,,,,,,0,0,0,0,0,0,0,0,0,0,0,0,0,0,0,0,,,,,0.0,,,,,,
1099968,1745084826161,,,,,,,,,,,,,,,,,,,,,,,,,,,,,,,,,,0,0,0,0,0,0,0,0,0,0,0,0,0,0,0,0,,,,,,,,,,,
1099988,1745084826181,0.0,183.13,,0.01,0.08,0.88,5,-0,0,0.88,1.22,72,3160,18.4,4.45,,13.76,1.163,95.2,,32.4,5,,,,,,,,,,,,0,0,0,0,0,0,0,0,0,0,0,0,0,0,0,0,,,,,0.0,,,,,,
1100008,1745084826201,,,,,,,,,,,,,,,,,,,,,,,13,0,13,13,0.0,10.0,0.0,0.0,2.26,,,0,0,0,0,0,0,0,0,0,0,0,0,0,0,0,0,2,,,,,39.239826,-77.965714,20.81,32,3,0.8
1100028,1745084826220,0.0,183.26,,0.02,0.01,0.95,5,-0,-0,0.95,1.22,78,3254,18.4,4.5,,13.77,1.163,95.2,,32.4,5,,,,,,,,,,,,0,0,0,0,0,0,0,0,0,0,0,0,0,0,0,0,,,,,0.0,,,,,,
1100048,1745084826240,,,,,,,,,,,,,,,,,,,,,,,,,,,,,,,,,,0,0,0,0,0,0,0,0,0,0,0,0,0,0,0,0,,,,,,,,,,,
1100068,1745084826260,0.0,183.26,,0.03,-0.02,0.92,2,-0,-0,0.92,1.22,75,3262,18.5,4.52,,13.77,1.159,95.2,,32.4,5,,,,,,,,,,,,0,0,0,0,0,0,0,0,0,0,0,0,0,0,0,0,,,,,0.0,,,,,,
1100088,1745084826280,,,,,,,,,,,,,,,,,,,,,,,,,,,,,,,,,,0,0,0,0,0,0,0,0,0,0,0,0,0,0,0,0,,,,,,,,,,,
1100108,1745084826302,0.0,183.38,,0.01,0.15,0.9,3,-0,0,0.92,1.22,75,3189,18.6,4.46,,13.79,1.157,95.2,,33.0,5,14,0,13,13,0.0,9.0,0.0,0.0,2.26,,,0,0,0,0,0,0,0,0,0,0,0,0,0,0,0,0,2,,,,0.0,39.239815,-77.965729,21.2,32,3,0.8
1100128,1745084826322,,,,,,,,,,,,,,,,,,,,,,,,,,,,,,,,,,0,0,0,0,0,0,0,0,0,0,0,0,0,0,0,0,,,,,,,,,,,
1100148,1745084826342,0.0,183.38,,0.02,0.05,0.99,5,-0,0,0.99,1.22,81,3286,18.6,4.49,,13.79,1.157,95.2,,33.0,5,,,,,,,,,,,,0,0,0,0,0,0,0,0,0,0,0,0,0,0,0,0,,,,,0.0,,,,,,
1100168,1745084826362,,,,,,,,,,,,,,,,,,,,,,,,,,,,,,,,,,0,0,0,0,0,0,0,0,0,0,0,0,0,0,0,0,,,,,,,,,,,
1100188,1745084826382,0.0,183.38,,0.02,0.06,0.95,2,-0,-0,0.95,1.22,78,3286,18.6,4.49,,13.73,1.169,95.2,,32.5,5,,,,,,,,,,,,0,0,0,0,0,0,0,0,0,0,0,0,0,0,0,0,,,,,0.0,,,,,,
1100208,1745084826402,,,,,,,,,,,,,,,,,,,,,,,13,0,14,13,0.0,5.0,0.0,0.0,2.26,,,0,0,0,0,0,0,0,0,0,0,0,0,0,0,0,0,2,,,,,39.239815,-77.965729,21.2,32,3,0.8
1100228,1745084826420,0.0,183.51,,0.02,0.09,0.92,4,-0,0,0.92,1.22,76,3255,18.6,4.43,,13.73,1.179,95.2,,32.5,5,,,,,,,,,,,,0,0,0,0,0,0,0,0,0,0,0,0,0,0,0,0,,,,,0.0,,,,,,
1100248,1745084826440,,,,,,,,,,,,,,,,,,,,,,,,,,,,,,,,,,0,0,0,0,0,0,0,0,0,0,0,0,0,0,0,0,,,,,,,,,,,
1100268,1745084826460,0.0,183.51,,0.02,-0.03,0.99,4,-0,0,0.99,1.22,81,3239,18.5,4.4,,13.8,1.171,95.2,,32.5,5,,,,,,,,,,,,0,0,0,0,0,0,0,0,0,0,0,0,0,0,0,0,,,,,0.0,,,,,,
1100288,1745084826480,,,,,,,,,,,,,,,,,,,,,,,,,,,,,,,,,,0,0,0,0,0,0,0,0,0,0,0,0,0,0,0,0,,,,,,,,,,,
1100308,1745084826502,0.0,183.51,,0.03,0.02,0.94,2,-0,-0,0.94,1.22,77,3295,18.4,4.49,,13.76,1.16,95.2,,32.8,5,13,0,14,13,0.0,0.0,0.0,0.0,2.27,,,0,0,0,0,0,0,0,0,0,0,0,0,0,0,0,0,2,,,,0.0,39.239807,-77.965736,21.34,32,3,0.8
1100328,1745084826522,,,,,,,,,,,,,,,,,,,,,,,,,,,,,,,,,,0,0,0,0,0,0,0,0,0,0,0,0,0,0,0,0,,,,,,,,,,,
1100348,1745084826542,0.0,183.76,,0.05,0.03,0.99,2,0,0,0.99,0.99,100,3270,18.4,4.4,,13.76,1.16,95.2,,32.8,5,,,,,,,,,,,,0,0,0,0,0,0,0,0,0,0,0,0,0,0,0,0,,,,,0.0,,,,,,
1100368,1745084826562,,,,,,,,,,,,,,,,,,,,,,,,,,,,,,,,,,0,0,0,0,0,0,0,0,0,0,0,0,0,0,0,0,,,,,,,,,,,
1100388,1745084826582,0.0,183.76,,0.01,-0.05,1.0,2,0,0,1.0,1.0,100,3270,18.4,4.4,,13.76,1.151,95.2,,33.7,5,,,,,,,,,,,,0,0,0,0,0,0,0,0,0,0,0,0,0,0,0,0,,,,,0.0,,,,,,
1100408,1745084826602,,,,,,,,,,,,,,,,,,,,,,,14,0,14,13,0.0,40.0,0.0,0.0,2.27,,,0,0,0,0,0,0,0,0,0,0,0,0,0,0,0,0,2,,,,,39.239803,-77.965736,21.64,32,3,0.8
1100428,1745084826622,0.0,183.76,,0.03,0.05,0.95,2,0,0,0.95,1.0,95,3279,18.4,4.38,,13.79,1.148,95.2,,33.7,5,,,,,,,,,,,,0,0,0,0,0,0,0,0,0,0,0,0,0,0,0,0,,,,,0.0,,,,,,
1100448,1745084826642,,,,,,,,,,,,,,,,,,,,,,,,,,,,,,,,,,0,0,0,0,0,0,0,0,0,0,0,0,0,0,0,0,,,,,,,,,,,
1100468,1745084826662,0.0,183.76,,0.05,-0.07,0.98,2,0,0,0.98,1.0,98,3306,18.3,4.46,,13.73,1.141,95.2,,33.7,5,,,,,,,,,,,,0,0,0,0,0,0,0,0,0,0,0,0,0,0,0,0,,,,,0.0,,,,,,
1100488,1745084826682,,,,,,,,,,,,,,,,,,,,,,,,,,,,,,,,,,0,0,0,0,0,0,0,0,0,0,0,0,0,0,0,0,,,,,,,,,,,
1100508,1745084826702,0.0,183.63,,0.06,-0.04,0.97,2,1,1,0.97,1.0,98,3477,18.4,4.19,,13.79,1.177,95.2,,36.1,5,14,0,14,14,0.0,29.0,0.0,0.0,2.26,,,0,0,0,0,0,0,0,0,0,0,0,0,0,0,0,0,2,,,,0.0,39.2398,-77.965744,21.58,32,3,0.8
1100528,1745084826722,,,,,,,,,,,,,,,,,,,,,,,,,,,,,,,,,,0,0,0,0,0,0,0,0,0,0,0,0,0,0,0,0,,,,,,,,,,,
1100548,1745084826742,0.0,183.63,,0.06,-0.06,0.99,3,1,1,0.99,1.0,100,3306,18.7,4.43,,13.79,1.177,95.2,,36.1,5,,,,,,,,,,,,0,0,0,0,0,0,0,0,0,0,0,0,0,0,0,0,,,,,0.0,,,,,,
1100568,1745084826762,,,,,,,,,,,,,,,,,,,,,,,,,,,,,,,,,,0,0,0,0,0,0,0,0,0,0,0,0,0,0,0,0,,,,,,,,,,,
1100588,1745084826782,0.0,183.63,,0.07,0.02,0.95,2,0,1,0.95,1.0,96,3306,18.7,4.43,,13.77,1.115,95.2,,32.8,5,,,,,,,,,,,,0,0,0,0,0,0,0,0,0,0,0,0,0,0,0,0,,,,,0.0,,,,,,
1100608,1745084826802,,,,,,,,,,,,,,,,,,,,,,,14,0,14,14,0.0,14.0,0.0,0.0,2.26,,,0,0,0,0,0,0,0,0,0,0,0,0,0,0,0,0,2,,,,,39.239792,-77.965752,22.21,32,3,0.8
1100628,1745084826822,0.0,183.51,,0.08,-0.01,0.95,2,1,-0,0.95,1.0,95,3417,19.5,4.59,,13.75,1.043,95.2,,32.8,5,,,,,,,,,,,,0,0,0,0,0,0,0,0,0,0,0,0,0,0,0,0,,,,,0.0,,,,,,
1100648,1745084826842,,,,,,,,,,,,,,,,,,,,,,,,,,,,,,,,,,0,0,0,0,0,0,0,0,0,0,0,0,0,0,0,0,,,,,,,,,,,
1100668,1745084826862,0.0,183.51,,0.05,-0.01,1.02,1,1,0,1.02,1.02,100,3597,18.8,4.29,,13.71,1.036,95.2,,32.8,5,,,,,,,,,,,,0,0,0,0,0,0,0,0,0,0,0,0,0,0,0,0,,,,,0.0,,,,,,
1100688,1745084826882,,,,,,,,,,,,,,,,,,,,,,,,,,,,,,,,,,0,0,0,0,0,0,0,0,0,0,0,0,0,0,0,0,,,,,,,,,,,
1100708,1745084826902,0.0,183.38,13.53,0.05,0.01,0.93,2,-0,-0,0.93,1.02,92,3389,18.4,4.35,15,13.75,1.016,95.2,138,34.6,5,15,0,14,15,0.0,42.0,0.0,0.0,2.26,0,0.0,0,0,0,0,0,0,0,0,0,0,0,0,0,0,0,0,2,0.0,0,0,0.0,39.239788,-77.965752,22.44,32,3,0.8
1100728,1745084826922,,,,,,,,,,,,,,,,,,,,,,,,,,,,,,,,,,0,0,0,0,0,0,0,0,0,0,0,0,0,0,0,0,,,,,,,,,,,
1100748,1745084826942,0.0,183.38,,0.04,-0.08,0.98,0,-0,0,0.98,1.02,97,3382,18.5,4.35,,13.75,1.016,95.2,,34.6,5,,,,,,,,,,,,0,0,0,0,0,0,0,0,0,0,0,0,0,0,0,0,,,,,0.0,,,,,,
1100768,1745084826962,,,,,,,,,,,,,,,,,,,,,,,,,,,,,,,,,,0,0,0,0,0,0,0,0,0,0,0,0,0,0,0,0,,,,,,,,,,,
1100788,1745084826982,0.0,183.38,,0.03,0.02,0.96,0,0,0,0.97,1.02,95,3382,18.5,4.35,,13.73,1.035,95.2,,35.0,5,,,,,,,,,,,,0,0,0,0,0,0,0,0,0,0,0,0,0,0,0,0,,,,,0.0,,,,,,
1100808,1745084827002,,,,,,,,,,,,,,,,,,,,,,,14,0,15,15,0.0,233.0,0.0,0.0,2.26,,,0,0,0,0,0,0,0,0,0,0,0,0,0,0,0,0,0,,,,,39.239788,-77.965752,22.44,32,3,0.8
1100828,1745084827014,0.0,183.38,,0.04,0.0,0.93,-1,0,-0,0.93,1.02,92,3540,18.6,4.36,,13.68,1.04,95.2,,35.0,5,,,,,,,,,,,,0,0,0,0,0,0,0,0,0,0,0,0,0,0,0,0,,,,,0.0,,,,,,
1100848,1745084827034,,,,,,,,,,,,,,,,,,,,,,,,,,,,,,,,,,0,0,0,0,0,0,0,0,0,0,0,0,0,0,0,0,,,,,,,,,,,
1100868,1745084827054,0.0,183.38,,0.03,-0.03,1.02,-1,-0,0,1.03,1.03,100,3462,18.5,4.23,,13.69,1.046,95.2,,35.0,5,,,,,,,,,,,,0,0,0,0,0,0,0,0,0,0,0,0,0,0,0,0,,,,,0.0,,,,,,
1100888,1745084827074,,,,,,,,,,,,,,,,,,,,,,,,,,,,,,,,,,0,0,0,0,0,0,0,0,0,0,0,0,0,0,0,0,,,,,,,,,,,
1100908,1745084827102,0.0,183.38,,0.03,0.05,0.96,-1,-0,0,0.96,1.03,94,3473,18.4,4.32,,13.75,1.086,95.2,,35.1,5,14,0,14,14,0.0,247.0,0.0,0.0,2.26,,,0,0,0,0,0,0,0,0,0,0,0,0,0,0,0,0,0,,,,0.0,39.23978,-77.965752,22.74,32,3,0.8
1100928,1745084827122,,,,,,,,,,,,,,,,,,,,,,,,,,,,,,,,,,0,0,0,0,0,0,0,0,0,0,0,0,0,0,0,0,,,,,,,,,,,
1100948,1745084827142,0.0,183.38,,-0.0,-0.02,0.99,-1,0,-0,0.99,1.03,96,3450,18.4,4.23,,13.75,1.086,95.2,,35.1,5,,,,,,,,,,,,0,0,0,0,0,0,0,0,0,0,0,0,0,0,0,0,,,,,0.0,,,,,,
1100968,1745084827162,,,,,,,,,,,,,,,,,,,,,,,,,,,,,,,,,,0,0,0,0,0,0,0,0,0,0,0,0,0,0,0,0,,,,,,,,,,,
1100988,1745084827182,0.0,183.38,,-0.0,-0.03,1.02,1,0,0,1.02,1.03,99,3450,18.4,4.23,,13.77,1.109,95.2,,35.8,5,,,,,,,,,,,,0,0,0,0,0,0,0,0,0,0,0,0,0,0,0,0,,,,,0.0,,,,,,
1101008,1745084827201,,,,,,,,,,,,,,,,,,,,,,,14,0,15,14,0.0,38.0,0.0,0.0,2.26,,,0,0,0,0,0,0,0,0,0,0,0,0,0,0,0,0,2,,,,,39.239773,-77.965759,22.81,32,3,0.8
1101028,1745084827221,0.0,183.38,,0.01,0.02,0.98,-0,-0,-0,0.98,1.03,95,3524,18.5,4.29,,13.71,1.108,95.2,,35.8,5,,,,,,,,,,,,0,0,0,0,0,0,0,0,0,0,0,0,0,0,0,0,,,,,0.0,,,,,,
1101048,1745084827241,,,,,,,,,,,,,,,,,,,,,,,,,,,,,,,,,,0,0,0,0,0,0,0,0,0,0,0,0,0,0,0,0,,,,,,,,,,,
1101068,1745084827261,0.0,183.38,,0.01,-0.11,0.96,-2,-0,-0,0.97,1.03,95,3494,18.6,4.22,,13.68,1.107,95.2,,35.8,5,,,,,,,,,,,,0,0,0,0,0,0,0,0,0,0,0,0,0,0,0,0,,,,,0.0,,,,,,
1101088,1745084827281,,,,,,,,,,,,,,,,,,,,,,,,,,,,,,,,,,0,0,0,0,0,0,0,0,0,0,0,0,0,0,0,0,,,,,,,,,,,
1101108,1745084827301,0.0,183.38,,0.01,-0.03,0.98,-1,-0,0,0.98,1.03,96,3554,18.6,4.32,,13.71,1.126,95.2,,36.0,5,14,0,14,15,0.0,233.0,0.0,0.0,2.26,,,0,0,0,0,0,0,0,0,0,0,0,0,0,0,0,0,2,,,,0.0,39.239769,-77.965767,22.94,32,3,0.8
1101128,1745084827321,,,,,,,,,,,,,,,,,,,,,,,,,,,,,,,,,,0,0,0,0,0,0,0,0,0,0,0,0,0,0,0,0,,,,,,,,,,,
1101148,1745084827341,0.0,183.38,,0.0,-0.02,0.94,-0,0,-0,0.94,1.03,91,3436,18.5,4.26,,13.71,1.126,95.2,,36.0,5,,,,,,,,,,,,0,0,0,0,0,0,0,0,0,0,0,0,0,0,0,0,,,,,0.0,,,,,,
1101168,1745084827361,,,,,,,,,,,,,,,,,,,,,,,,,,,,,,,,,,0,0,0,0,0,0,0,0,0,0,0,0,0,0,0,0,,,,,,,,,,,
1101188,1745084827381,0.0,183.38,,-0.01,-0.09,1.0,-0,0,-0,1.01,1.03,98,3436,18.5,4.26,,13.68,1.133,95.2,,35.9,5,,,,,,,,,,,,0,0,0,0,0,0,0,0,0,0,0,0,0,0,0,0,,,,,0.0,,,,,,
1101208,1745084827403,,,,,,,,,,,,,,,,,,,,,,,15,0,14,14,0.0,247.0,0.0,0.0,2.27,,,0,0,0,0,0,0,0,0,0,0,0,0,0,0,0,0,2,,,,,39.239765,-77.965767,23.03,32,3,0.8
1101228,1745084827423,0.0,183.38,,-0.0,-0.04,1.01,-1,0,-0,1.01,1.03,99,3547,18.5,4.3,,13.71,1.125,95.2,,35.9,5,,,,,,,,,,,,0,0,0,0,0,0,0,0,0,0,0,0,0,0,0,0,,,,,0.0,,,,,,
1101248,1745084827443,,,,,,,,,,,,,,,,,,,,,,,,,,,,,,,,,,0,0,0,0,0,0,0,0,0,0,0,0,0,0,0,0,,,,,,,,,,,
1101268,1745084827463,0.0,183.38,,0.03,-0.0,0.99,-1,-0,-0,0.99,1.03,97,3602,18.4,4.28,,13.69,1.127,95.2,,35.9,5,,,,,,,,,,,,0,0,0,0,0,0,0,0,0,0,0,0,0,0,0,0,,,,,0.0,,,,,,
1101288,1745084827483,,,,,,,,,,,,,,,,,,,,,,,,,,,,,,,,,,0,0,0,0,0,0,0,0,0,0,0,0,0,0,0,0,,,,,,,,,,,
1101308,1745084827503,0.0,183.38,,0.03,-0.04,0.95,0,-0,-1,0.95,1.03,93,3651,18.3,4.12,,13.67,1.147,95.2,,37.3,5,15,0,15,15,0.0,247.0,0.0,0.0,2.27,,,0,0,0,0,0,0,0,0,0,0,0,0,0,0,0,0,2,,,,0.0,39.239761,-77.965775,23.05,32,3,0.8
1101328,1745084827523,,,,,,,,,,,,,,,,,,,,,,,,,,,,,,,,,,0,0,0,0,0,0,0,0,0,0,0,0,0,0,0,0,,,,,,,,,,,
1101348,1745084827543,0.0,183.38,,0.0,-0.08,0.99,0,-0,-1,1.0,1.03,97,3502,18.3,4.33,,13.67,1.147,95.2,,37.3,5,,,,,,,,,,,,0,0,0,0,0,0,0,0,0,0,0,0,0,0,0,0,,,,,0.0,,,,,,
1101368,1745084827563,,,,,,,,,,,,,,,,,,,,,,,,,,,,,,,,,,0,0,0,0,0,0,0,0,0,0,0,0,0,0,0,0,,,,,,,,,,,
1101388,1745084827583,0.0,183.38,,0.02,-0.03,1.03,0,-0,-0,1.03,1.03,100,3502,18.3,4.33,,13.69,1.191,95.2,,37.8,5,,,,,,,,,,,,0,0,0,0,0,0,0,0,0,0,0,0,0,0,0,0,,,,,0.0,,,,,,
1101408,1745084827603,,,,,,,,,,,,,,,,,,,,,,,15,0,15,15,0.0,46.0,0.0,0.0,2.27,,,0,0,0,0,0,0,0,0,0,0,0,0,0,0,0,0,2,,,,,39.239754,-77.965782,23.39,32,3,0.8
1101428,1745084827623,0.0,183.51,,0.03,0.03,1.0,1,0,-1,1.0,1.03,97,3543,18.6,4.16,,13.68,1.113,95.2,,37.8,5,,,,,,,,,,,,0,0,0,0,0,0,0,0,0,0,0,0,0,0,0,0,,,,,0.0,,,,,,
1101448,1745084827643,,,,,,,,,,,,,,,,,,,,,,,,,,,,,,,,,,0,0,0,0,0,0,0,0,0,0,0,0,0,0,0,0,,,,,,,,,,,
1101468,1745084827663,0.0,183.63,,0.03,0.04,0.96,2,-0,-1,0.97,1.03,94,3569,18.4,4.28,,13.67,1.058,95.2,,37.8,5,,,,,,,,,,,,0,0,0,0,0,0,0,0,0,0,0,0,0,0,0,0,,,,,0.0,,,,,,
1101488,1745084827683,,,,,,,,,,,,,,,,,,,,,,,,,,,,,,,,,,0,0,0,0,0,0,0,0,0,0,0,0,0,0,0,0,,,,,,,,,,,
1101508,1745084827703,0.0,183.63,,0.01,-0.04,0.95,3,0,-1,0.95,1.03,93,3563,18.6,4.19,,13.6,1.04,95.2,,37.2,5,15,0,15,14,0.0,37.0,0.0,0.0,2.26,,,0,0,0,0,0,0,0,0,0,0,0,0,0,0,0,0,2,,,,0.0,39.23975,-77.965782,23.59,32,3,0.8
1101528,1745084827723,,,,,,,,,,,,,,,,,,,,,,,,,,,,,,,,,,0,0,0,0,0,0,0,0,0,0,0,0,0,0,0,0,,,,,,,,,,,
1101548,1745084827743,0.0,183.76,,0.02,-0.03,1.0,3,0,-1,1.01,1.03,97,3683,18.6,4.16,,13.6,1.04,95.2,,37.2,5,,,,,,,,,,,,0,0,0,0,0,0,0,0,0,0,0,0,0,0,0,0,,,,,0.0,,,,,,
1101568,1745084827763,,,,,,,,,,,,,,,,,,,,,,,,,,,,,,,,,,0,0,0,0,0,0,0,0,0,0,0,0,0,0,0,0,,,,,,,,,,,
1101588,1745084827783,0.0,183.76,,0.03,0.01,1.04,3,0,-0,1.04,1.04,100,3683,18.6,4.16,,13.59,1.07,95.2,,37.6,5,,,,,,,,,,,,0,0,0,0,0,0,0,0,0,0,0,0,0,0,0,0,,,,,0.0,,,,,,
1101608,1745084827803,,,,,,,,,,,,,,,,,,,,,,,15,0,15,15,0.0,13.0,0.0,0.0,2.26,,,0,0,0,0,0,0,0,0,0,0,0,0,0,0,0,0,0,,,,,39.239746,-77.96579,23.55,32,3,0.8
1101628,1745084827823,0.0,183.89,,0.04,0.07,1.02,3,0,-0,1.03,1.04,99,3562,18.2,4.15,,13.68,1.113,95.2,,37.6,5,,,,,,,,,,,,0,0,0,0,0,0,0,0,0,0,0,0,0,0,0,0,,,,,0.0,,,,,,
1101648,1745084827843,,,,,,,,,,,,,,,,,,,,,,,,,,,,,,,,,,0,0,0,0,0,0,0,0,0,0,0,0,0,0,0,0,,,,,,,,,,,
1101668,1745084827863,0.0,184.01,,0.05,0.08,1.0,3,-0,-0,1.01,1.04,97,3674,17.1,4.03,,13.59,1.146,95.2,,37.6,5,,,,,,,,,,,,0,0,0,0,0,0,0,0,0,0,0,0,0,0,0,0,,,,,0.0,,,,,,
1101688,1745084827883,,,,,,,,,,,,,,,,,,,,,,,,,,,,,,,,,,0,0,0,0,0,0,0,0,0,0,0,0,0,0,0,0,,,,,,,,,,,
1101708,1745084827903,0.0,184.14,13.6,0.03,0.08,0.96,4,-0,-1,0.97,1.04,93,3598,16.3,3.79,15,13.52,1.137,95.2,138,38.3,5,15,0,15,15,0.0,36.0,0.0,0.0,2.27,0,0.0,0,0,0,0,0,0,0,0,0,0,0,0,0,0,0,0,0,0.0,0,0,0.0,39.239742,-77.96579,23.84,32,3,0.8
1101728,1745084827923,,,,,,,,,,,,,,,,,,,,,,,,,,,,,,,,,,0,0,0,0,0,0,0,0,0,0,0,0,0,0,0,0,,,,,,,,,,,
1101748,1745084827943,0.0,184.26,,0.0,-0.0,1.0,4,0,-1,1.0,1.04,96,3600,16.0,3.9,,13.52,1.137,95.2,,38.3,5,,,,,,,,,,,,0,0,0,0,0,0,0,0,0,0,0,0,0,0,0,0,,,,,0.0,,,,,,
1101768,1745084827963,,,,,,,,,,,,,,,,,,,,,,,,,,,,,,,,,,0,0,0,0,0,0,0,0,0,0,0,0,0,0,0,0,,,,,,,,,,,
1101788,1745084827983,0.0,184.26,,-0.01,0.07,1.03,4,0,-0,1.03,1.04,99,3600,16.0,3.9,,13.55,1.134,95.2,,37.2,5,,,,,,,,,,,,0,0,0,0,0,0,0,0,0,0,0,0,0,0,0,0,,,,,0.0,,,,,,
1101808,1745084828003,,,,,,,,,,,,,,,,,,,,,,,15,0,15,15,0.0,9.0,0.0,0.0,2.26,,,0,0,0,0,0,0,0,0,0,0,0,0,0,0,0,0,2,,,,,39.239742,-77.96579,23.84,32,3,0.8
1101828,1745084828015,0.0,184.39,,0.01,0.12,1.01,4,0,0,1.02,1.04,98,3565,14.7,3.78,,13.49,1.148,95.2,,37.2,5,,,,,,,,,,,,0,0,0,0,0,0,0,0,0,0,0,0,0,0,0,0,,,,,0.0,,,,,,
1101848,1745084828035,,,,,,,,,,,,,,,,,,,,,,,,,,,,,,,,,,0,0,0,0,0,0,0,0,0,0,0,0,0,0,0,0,,,,,,,,,,,
1101868,1745084828055,0.0,184.51,,0.02,0.12,0.99,4,-0,0,1.0,1.04,96,3609,14.4,3.78,,13.48,1.168,95.2,,37.2,5,,,,,,,,,,,,0,0,0,0,0,0,0,0,0,0,0,0,0,0,0,0,,,,,0.0,,,,,,
1101888,1745084828075,,,,,,,,,,,,,,,,,,,,,,,,,,,,,,,,,,0,0,0,0,0,0,0,0,0,0,0,0,0,0,0,0,,,,,,,,,,,
1101908,1745084828101,0.0,184.51,,0.0,0.13,0.98,4,-0,0,0.98,1.04,95,3777,14.2,3.66,,13.47,1.191,95.2,,37.3,5,15,0,15,15,0.0,13.0,0.0,0.0,2.26,,,0,0,0,0,0,0,0,0,0,0,0,0,0,0,0,0,2,,,,0.0,39.239731,-77.965797,23.68,32,3,0.8
1101928,1745084828121,,,,,,,,,,,,,,,,,,,,,,,,,,,,,,,,,,0,0,0,0,0,0,0,0,0,0,0,0,0,0,0,0,,,,,,,,,,,
1101948,1745084828141,0.0,184.64,,-0.01,0.14,0.95,4,-0,0,0.96,0.96,100,3608,14.2,3.64,,13.47,1.191,95.2,,37.3,5,,,,,,,,,,,,0,0,0,0,0,0,0,0,0,0,0,0,0,0,0,0,,,,,0.0,,,,,,
1101968,1745084828161,,,,,,,,,,,,,,,,,,,,,,,,,,,,,,,,,,0,0,0,0,0,0,0,0,0,0,0,0,0,0,0,0,,,,,,,,,,,
1101988,1745084828181,0.0,184.64,,-0.02,0.07,0.97,3,-0,0,0.97,0.97,100,3608,14.2,3.64,,13.41,1.248,95.2,,37.4,5,,,,,,,,,,,,0,0,0,0,0,0,0,0,0,0,0,0,0,0,0,0,,,,,0.0,,,,,,
1102008,1745084828202,,,,,,,,,,,,,,,,,,,,,,,15,0,15,15,0.0,239.0,0.0,0.0,2.26,,,0,0,0,0,0,0,0,0,0,0,0,0,0,0,0,0,2,,,,,39.239727,-77.965805,23.78,32,3,0.8
1102028,1745084828222,0.0,184.64,,-0.04,0.07,0.99,3,-0,1,1.0,1.0,100,3579,12.4,3.69,,13.36,1.178,95.2,,37.4,5,,,,,,,,,,,,0,0,0,0,0,0,0,0,0,0,0,0,0,0,0,0,,,,,0.0,,,,,,
1102048,1745084828242,,,,,,,,,,,,,,,,,,,,,,,,,,,,,,,,,,0,0,0,0,0,0,0,0,0,0,0,0,0,0,0,0,,,,,,,,,,,
1102068,1745084828262,0.0,184.77,,-0.04,0.12,0.98,3,-1,1,0.99,1.0,99,3559,12.3,3.67,,13.35,1.166,95.2,,37.4,5,,,,,,,,,,,,0,0,0,0,0,0,0,0,0,0,0,0,0,0,0,0,,,,,0.0,,,,,,
1102088,1745084828282,,,,,,,,,,,,,,,,,,,,,,,,,,,,,,,,,,0,0,0,0,0,0,0,0,0,0,0,0,0,0,0,0,,,,,,,,,,,
1102108,1745084828302,0.0,184.77,,-0.04,0.14,0.93,1,-0,1,0.94,1.0,95,3571,12.2,3.64,,13.37,1.193,95.2,,37.3,5,15,0,15,15,0.0,0.0,0.0,0.0,2.26,,,0,0,0,0,0,0,0,0,0,0,0,0,0,0,0,0,2,,,,0.0,39.239719,-77.965805,23.69,32,3,0.8
1102128,1745084828322,,,,,,,,,,,,,,,,,,,,,,,,,,,,,,,,,,0,0,0,0,0,0,0,0,0,0,0,0,0,0,0,0,,,,,,,,,,,
1102148,1745084828342,0.0,184.77,,-0.04,0.04,0.92,2,-0,1,0.92,1.0,92,3701,11.9,3.6,,13.37,1.193,95.2,,37.3,5,,,,,,,,,,,,0,0,0,0,0,0,0,0,0,0,0,0,0,0,0,0,,,,,0.0,,,,,,
1102168,1745084828362,,,,,,,,,,,,,,,,,,,,,,,,,,,,,,,,,,0,0,0,0,0,0,0,0,0,0,0,0,0,0,0,0,,,,,,,,,,,
1102188,1745084828382,0.0,184.77,,-0.06,-0.01,0.91,1,-0,1,0.91,1.0,92,3701,11.9,3.6,,13.21,1.249,95.2,,38.2,5,,,,,,,,,,,,0,0,0,0,0,0,0,0,0,0,0,0,0,0,0,0,,,,,0.0,,,,,,
1102208,1745084828402,,,,,,,,,,,,,,,,,,,,,,,15,0,15,15,0.0,0.0,0.0,0.0,2.27,,,0,0,0,0,0,0,0,0,0,0,0,0,0,0,0,0,2,,,,,39.239716,-77.965813,23.55,32,3,0.8
1102228,1745084828422,0.0,184.64,,-0.06,-0.07,0.96,-1,-0,1,0.96,1.0,97,3574,11.9,3.6,,13.28,1.237,95.2,,38.2,5,,,,,,,,,,,,0,0,0,0,0,0,0,0,0,0,0,0,0,0,0,0,,,,,0.0,,,,,,
1102248,1745084828442,,,,,,,,,,,,,,,,,,,,,,,,,,,,,,,,,,0,0,0,0,0,0,0,0,0,0,0,0,0,0,0,0,,,,,,,,,,,
1102268,1745084828462,0.0,184.64,,-0.08,0.03,0.97,-2,-0,1,0.97,1.0,97,3522,12.1,3.6,,13.35,1.195,95.2,,38.2,5,,,,,,,,,,,,0,0,0,0,0,0,0,0,0,0,0,0,0,0,0,0,,,,,0.0,,,,,,
1102288,1745084828482,,,,,,,,,,,,,,,,,,,,,,,,,,,,,,,,,,0,0,0,0,0,0,0,0,0,0,0,0,0,0,0,0,,,,,,,,,,,
1102308,1745084828502,0.0,184.64,,-0.08,0.06,0.93,-3,-0,1,0.93,1.0,94,3501,11.7,3.59,,13.4,1.169,95.2,,36.7,5,15,0,15,15,0.0,13.0,0.0,0.0,2.27,,,0,0,0,0,0,0,0,0,0,0,0,0,0,0,0,0,2,,,,0.0,39.239708,-77.965813,23.74,32,3,0.8
1102328,1745084828522,,,,,,,,,,,,,,,,,,,,,,,,,,,,,,,,,,0,0,0,0,0,0,0,0,0,0,0,0,0,0,0,0,,,,,,,,,,,
1102348,1745084828542,0.0,184.64,,-0.09,-0.08,0.97,-5,-1,1,0.98,1.0,98,3536,11.6,3.59,,13.4,1.169,93.4,,36.7,5,,,,,,,,,,,,0,0,0,0,0,0,0,0,0,0,0,0,0,0,0,0,,,,,0.0,,,,,,
1102368,1745084828562,,,,,,,,,,,,,,,,,,,,,,,,,,,,,,,,,,0,0,0,0,0,0,0,0,0,0,0,0,0,0,0,0,,,,,,,,,,,
1102388,1745084828582,0.0,184.51,,-0.1,-0.1,1.0,-4,-1,1,1.01,1.01,100,3536,11.6,3.59,,13.33,1.183,93.4,,36.3,5,,,,,,,,,,,,0,0,0,0,0,0,0,0,0,0,0,0,0,0,0,0,,,,,0.0,,,,,,
1102408,1745084828602,,,,,,,,,,,,,,,,,,,,,,,15,0,14,15,0.0,43.0,0.0,0.0,2.26,,,0,0,0,0,0,0,0,0,0,0,0,0,0,0,0,0,2,,,,,39.239708,-77.96582,23.5,32,3,0.8
1102428,1745084828622,0.0,184.64,,-0.1,-0.04,0.98,-5,-1,1,0.98,1.01,97,3507,11.6,3.58,,13.29,1.199,93.4,,36.3,5,,,,,,,,,,,,0,0,0,0,0,0,0,0,0,0,0,0,0,0,0,0,,,,,0.0,,,,,,
1102448,1745084828642,,,,,,,,,,,,,,,,,,,,,,,,,,,,,,,,,,0,0,0,0,0,0,0,0,0,0,0,0,0,0,0,0,,,,,,,,,,,
1102468,1745084828662,0.0,184.51,,-0.08,-0.08,0.96,-6,-1,1,0.96,1.01,95,3592,11.7,3.63,,13.28,1.226,93.4,,36.3,5,,,,,,,,,,,,0,0,0,0,0,0,0,0,0,0,0,0,0,0,0,0,,,,,0.0,,,,,,
1102488,1745084828682,,,,,,,,,,,,,,,,,,,,,,,,,,,,,,,,,,0,0,0,0,0,0,0,0,0,0,0,0,0,0,0,0,,,,,,,,,,,
1102508,1745084828702,0.0,184.51,,-0.09,-0.16,1.0,-7,-0,1,1.02,1.02,100,3504,11.7,3.62,,13.35,1.23,93.4,,36.9,5,15,0,15,15,0.0,18.0,0.0,0.0,2.26,,,0,0,0,0,0,0,0,0,0,0,0,0,0,0,0,0,2,,,,0.0,39.239708,-77.96582,23.5,32,3,0.8
1102528,1745084828720,,,,,,,,,,,,,,,,,,,,,,,,,,,,,,,,,,0,0,0,0,0,0,0,0,0,0,0,0,0,0,0,0,,,,,,,,,,,
1102548,1745084828740,0.0,184.51,,-0.08,-0.09,1.03,-7,0,1,1.04,1.04,100,3525,11.7,3.64,,13.35,1.23,93.4,,36.9,5,,,,,,,,,,,,0,0,0,0,0,0,0,0,0,0,0,0,0,0,0,0,,,,,0.0,,,,,,
1102568,1745084828760,,,,,,,,,,,,,,,,,,,,,,,,,,,,,,,,,,0,0,0,0,0,0,0,0,0,0,0,0,0,0,0,0,,,,,,,,,,,
1102588,1745084828780,0.0,184.51,,-0.09,-0.04,0.97,-6,0,1,0.98,1.04,94,3525,11.7,3.64,,13.33,1.236,93.4,,36.4,5,,,,,,,,,,,,0,0,0,0,0,0,0,0,0,0,0,0,0,0,0,0,,,,,0.0,,,,,,
1102608,1745084828802,,,,,,,,,,,,,,,,,,,,,,,15,0,14,15,0.0,4.0,0.0,0.0,2.26,,,0,0,0,0,0,0,0,0,0,0,0,0,0,0,0,0,0,,,,,39.239696,-77.965828,23.03,32,3,0.8
1102628,1745084828822,0.0,184.51,,-0.08,-0.12,1.0,-5,0,1,1.01,1.04,97,3497,11.6,3.64,,13.32,1.248,93.4,,36.4,5,,,,,,,,,,,,0,0,0,0,0,0,0,0,0,0,0,0,0,0,0,0,,,,,0.0,,,,,,
1102648,1745084828842,,,,,,,,,,,,,,,,,,,,,,,,,,,,,,,,,,0,0,0,0,0,0,0,0,0,0,0,0,0,0,0,0,,,,,,,,,,,
1102668,1745084828862,0.0,184.51,,-0.08,-0.12,1.01,-4,0,1,1.02,1.04,99,3582,11.5,3.64,,13.29,1.25,93.4,,36.4,5,,,,,,,,,,,,0,0,0,0,0,0,0,0,0,0,0,0,0,0,0,0,,,,,0.0,,,,,,
1102688,1745084828882,,,,,,,,,,,,,,,,,,,,,,,,,,,,,,,,,,0,0,0,0,0,0,0,0,0,0,0,0,0,0,0,0,,,,,,,,,,,
1102708,1745084828902,0.0,184.51,13.64,-0.07,-0.03,0.95,-3,0,1,0.95,1.04,92,3475,11.5,3.64,15,13.39,1.25,93.4,140,36.6,5,15,0,15,15,0.0,247.0,0.0,0.0,2.27,0,0.0,0,0,0,0,0,0,0,0,0,0,0,0,0,0,0,0,0,0.0,0,-0,0.0,39.239689,-77.965828,23.01,32,3,0.8
1102728,1745084828922,,,,,,,,,,,,,,,,,,,,,,,,,,,,,,,,,,0,0,0,0,0,0,0,0,0,0,0,0,0,0,0,0,,,,,,,,,,,
1102748,1745084828942,0.0,184.64,,-0.08,-0.16,1.0,-3,0,1,1.01,1.04,97,3483,11.5,3.68,,13.39,1.25,93.4,,36.6,5,,,,,,,,,,,,0,0,0,0,0,0,0,0,0,0,0,0,0,0,0,0,,,,,0.0,,,,,,
1102768,1745084828962,,,,,,,,,,,,,,,,,,,,,,,,,,,,,,,,,,0,0,0,0,0,0,0,0,0,0,0,0,0,0,0,0,,,,,,,,,,,
1102788,1745084828982,0.0,184.64,,-0.08,-0.07,1.0,-2,-0,1,1.0,1.04,97,3483,11.5,3.68,,13.39,1.243,93.4,,35.6,5,,,,,,,,,,,,0,0,0,0,0,0,0,0,0,0,0,0,0,0,0,0,,,,,0.0,,,,,,
1102808,1745084829002,,,,,,,,,,,,,,,,,,,,,,,14,0,14,14,0.0,0.0,0.0,0.0,2.26,,,0,0,0,0,0,0,0,0,0,0,0,0,0,0,0,0,2,,,,,39.239689,-77.965828,23.01,32,3,0.8
1102828,1745084829014,0.0,184.64,,-0.08,-0.06,0.96,-4,-1,1,0.96,1.04,93,3462,11.6,3.68,,13.35,1.25,93.4,,35.6,5,,,,,,,,,,,,0,0,0,0,0,0,0,0,0,0,0,0,0,0,0,0,,,,,0.0,,,,,,
1102848,1745084829034,,,,,,,,,,,,,,,,,,,,,,,,,,,,,,,,,,0,0,0,0,0,0,0,0,0,0,0,0,0,0,0,0,,,,,,,,,,,
1102868,1745084829054,0.0,184.64,,-0.09,-0.07,1.02,-3,-1,1,1.03,1.04,99,3494,11.5,3.67,,13.39,1.251,93.4,,35.6,5,,,,,,,,,,,,0,0,0,0,0,0,0,0,0,0,0,0,0,0,0,0,,,,,0.0,,,,,,
1102888,1745084829074,,,,,,,,,,,,,,,,,,,,,,,,,,,,,,,,,,0,0,0,0,0,0,0,0,0,0,0,0,0,0,0,0,,,,,,,,,,,
1102908,1745084829102,0.0,184.64,,-0.08,0.04,0.96,-3,-1,1,0.96,1.04,93,3391,11.6,3.68,,13.45,1.249,93.4,,35.1,5,15,0,14,14,0.0,0.0,0.0,0.0,2.26,,,0,0,0,0,0,0,0,0,0,0,0,0,0,0,0,0,2,,,,0.0,39.239681,-77.965836,22.77,32,3,0.8
1102928,1745084829122,,,,,,,,,,,,,,,,,,,,,,,,,,,,,,,,,,0,0,0,0,0,0,0,0,0,0,0,0,0,0,0,0,,,,,,,,,,,
1102948,1745084829142,0.0,184.64,,-0.09,-0.08,1.02,-4,-1,0,1.03,1.04,99,3371,11.6,3.67,,13.45,1.249,93.4,,35.1,5,,,,,,,,,,,,0,0,0,0,0,0,0,0,0,0,0,0,0,0,0,0,,,,,0.0,,,,,,
1102968,1745084829162,,,,,,,,,,,,,,,,,,,,,,,,,,,,,,,,,,0,0,0,0,0,0,0,0,0,0,0,0,0,0,0,0,,,,,,,,,,,
1102988,1745084829182,0.0,184.64,,-0.1,0.05,0.99,-4,-1,1,0.99,1.04,96,3371,11.6,3.67,,13.44,1.236,93.4,,34.6,5,,,,,,,,,,,,0,0,0,0,0,0,0,0,0,0,0,0,0,0,0,0,,,,,0.0,,,,,,
1103008,1745084829202,,,,,,,,,,,,,,,,,,,,,,,14,0,14,14,0.0,18.0,0.0,0.0,2.26,,,0,0,0,0,0,0,0,0,0,0,0,0,0,0,0,0,2,,,,,39.239681,-77.965836,22.77,32,3,0.8
1103028,1745084829219,0.0,184.64,,-0.1,-0.03,0.96,-5,-1,0,0.97,1.04,93,3445,10.3,3.69,,13.35,1.228,93.4,,34.6,5,,,,,,,,,,,,0,0,0,0,0,0,0,0,0,0,0,0,0,0,0,0,,,,,0.0,,,,,,
1103048,1745084829239,,,,,,,,,,,,,,,,,,,,,,,,,,,,,,,,,,0,0,0,0,0,0,0,0,0,0,0,0,0,0,0,0,,,,,,,,,,,
1103068,1745084829259,0.0,184.64,,-0.1,0.01,0.99,-4,-1,1,1.0,1.04,96,3408,6.2,3.51,,13.2,1.225,93.4,,34.6,5,,,,,,,,,,,,0,0,0,0,0,0,0,0,0,0,0,0,0,0,0,0,,,,,0.0,,,,,,
1103088,1745084829279,,,,,,,,,,,,,,,,,,,,,,,,,,,,,,,,,,0,0,0,0,0,0,0,0,0,0,0,0,0,0,0,0,,,,,,,,,,,
1103108,1745084829301,0.0,184.64,,-0.1,0.02,0.96,-6,-0,0,0.96,1.04,92,3393,5.4,3.46,,13.08,1.238,93.4,,34.7,5,13,0,14,14,0.0,4.0,0.0,0.0,2.27,,,0,0,0,0,0,0,0,0,0,0,0,0,0,0,0,0,2,,,,0.0,39.239674,-77.965851,22.37,32,3,0.8
1103128,1745084829321,,,,,,,,,,,,,,,,,,,,,,,,,,,,,,,,,,0,0,0,0,0,0,0,0,0,0,0,0,0,0,0,0,,,,,,,,,,,
1103148,1745084829341,0.0,184.64,,-0.09,0.03,0.97,-4,-0,1,0.98,1.04,94,3306,5.4,3.46,,13.08,1.238,93.4,,34.7,5,,,,,,,,,,,,0,0,0,0,0,0,0,0,0,0,0,0,0,0,0,0,,,,,0.0,,,,,,
1103168,1745084829361,,,,,,,,,,,,,,,,,,,,,,,,,,,,,,,,,,0,0,0,0,0,0,0,0,0,0,0,0,0,0,0,0,,,,,,,,,,,
1103188,1745084829381,0.0,184.64,,-0.12,-0.03,1.0,-4,-0,0,1.01,1.04,97,3306,5.4,3.46,,12.99,1.223,93.4,,33.6,5,,,,,,,,,,,,0,0,0,0,0,0,0,0,0,0,0,0,0,0,0,0,,,,,0.0,,,,,,
1103208,1745084829403,,,,,,,,,,,,,,,,,,,,,,,14,0,14,14,0.0,14.0,0.0,0.0,2.27,,,0,0,0,0,0,0,0,0,0,0,0,0,0,0,0,0,2,,,,,39.239666,-77.965858,22.14,32,3,0.8
1103228,1745084829423,0.0,184.64,,-0.09,0.1,0.95,-4,-0,1,0.96,1.04,92,3286,5.2,3.46,,13.0,1.23,93.4,,33.6,5,,,,,,,,,,,,0,0,0,0,0,0,0,0,0,0,0,0,0,0,0,0,,,,,0.0,,,,,,
1103248,1745084829443,,,,,,,,,,,,,,,,,,,,,,,,,,,,,,,,,,0,0,0,0,0,0,0,0,0,0,0,0,0,0,0,0,,,,,,,,,,,
1103268,1745084829463,0.0,184.64,,-0.1,0.01,0.99,-3,-0,0,1.0,1.04,96,3391,5.1,3.44,,12.93,1.234,93.4,,33.6,5,,,,,,,,,,,,0,0,0,0,0,0,0,0,0,0,0,0,0,0,0,0,,,,,0.0,,,,,,
1103288,1745084829483,,,,,,,,,,,,,,,,,,,,,,,,,,,,,,,,,,0,0,0,0,0,0,0,0,0,0,0,0,0,0,0,0,,,,,,,,,,,
1103308,1745084829503,0.0,184.64,,-0.06,0.12,0.96,-3,0,1,0.97,1.04,93,3323,5.1,3.44,,12.97,1.209,93.4,,34.6,5,14,0,14,14,0.0,232.0,0.0,0.0,2.27,,,0,0,0,0,0,0,0,0,0,0,0,0,0,0,0,0,2,,,,0.0,39.239666,-77.965858,21.93,32,3,0.8
1103328,1745084829523,,,,,,,,,,,,,,,,,,,,,,,,,,,,,,,,,,0,0,0,0,0,0,0,0,0,0,0,0,0,0,0,0,,,,,,,,,,,
1103348,1745084829543,0.0,184.64,,-0.09,0.03,1.04,-3,0,0,1.05,1.05,100,3337,5.1,3.74,,12.97,1.209,93.4,,34.6,5,,,,,,,,,,,,0,0,0,0,0,0,0,0,0,0,0,0,0,0,0,0,,,,,0.0,,,,,,
1103368,1745084829563,,,,,,,,,,,,,,,,,,,,,,,,,,,,,,,,,,0,0,0,0,0,0,0,0,0,0,0,0,0,0,0,0,,,,,,,,,,,
1103388,1745084829583,0.0,184.77,,-0.1,0.06,0.96,-3,0,-0,0.97,1.05,93,3337,5.1,3.74,,12.93,1.208,93.4,,33.1,5,,,,,,,,,,,,0,0,0,0,0,0,0,0,0,0,0,0,0,0,0,0,,,,,0.0,,,,,,
1103408,1745084829603,,,,,,,,,,,,,,,,,,,,,,,13,0,14,13,0.0,247.0,0.0,0.0,2.26,,,0,0,0,0,0,0,0,0,0,0,0,0,0,0,0,0,2,,,,,39.239662,-77.965866,21.68,32,3,0.8
1103428,1745084829623,0.0,184.77,,-0.08,0.08,0.98,-3,0,0,0.98,1.05,94,3247,5.2,3.74,,13.0,1.211,93.4,,33.1,5,,,,,,,,,,,,0,0,0,0,0,0,0,0,0,0,0,0,0,0,0,0,,,,,0.0,,,,,,
1103448,1745084829643,,,,,,,,,,,,,,,,,,,,,,,,,,,,,,,,,,0,0,0,0,0,0,0,0,0,0,0,0,0,0,0,0,,,,,,,,,,,
1103468,1745084829663,0.0,184.77,,-0.1,-0.02,1.03,-2,0,0,1.03,1.05,99,3237,5.5,3.74,,13.0,1.204,93.4,,33.1,5,,,,,,,,,,,,0,0,0,0,0,0,0,0,0,0,0,0,0,0,0,0,,,,,0.0,,,,,,
1103488,1745084829683,,,,,,,,,,,,,,,,,,,,,,,,,,,,,,,,,,0,0,0,0,0,0,0,0,0,0,0,0,0,0,0,0,,,,,,,,,,,
1103508,1745084829703,0.0,184.89,,-0.11,-0.03,0.96,-2,0,-0,0.96,0.96,100,3265,5.4,3.75,,12.96,1.203,93.4,,32.6,5,14,0,14,13,0.0,0.0,0.0,0.0,2.26,,,0,0,0,0,0,0,0,0,0,0,0,0,0,0,0,0,2,,,,0.0,39.239655,-77.965866,21.47,32,3,0.8
1103528,1745084829723,,,,,,,,,,,,,,,,,,,,,,,,,,,,,,,,,,0,0,0,0,0,0,0,0,0,0,0,0,0,0,0,0,,,,,,,,,,,
1103548,1745084829743,0.0,184.89,,-0.08,0.02,0.96,-2,-0,0,0.96,0.96,100,3174,5.2,3.75,,12.96,1.203,93.4,,32.6,5,,,,,,,,,,,,0,0,0,0,0,0,0,0,0,0,0,0,0,0,0,0,,,,,0.0,,,,,,
1103568,1745084829763,,,,,,,,,,,,,,,,,,,,,,,,,,,,,,,,,,0,0,0,0,0,0,0,0,0,0,0,0,0,0,0,0,,,,,,,,,,,
1103588,1745084829783,0.0,184.89,,-0.09,-0.02,1.02,-2,-0,0,1.02,1.02,100,3174,5.2,3.75,,12.99,1.191,93.4,,32.8,5,,,,,,,,,,,,0,0,0,0,0,0,0,0,0,0,0,0,0,0,0,0,,,,,0.0,,,,,,
1103608,1745084829803,,,,,,,,,,,,,,,,,,,,,,,13,0,13,14,0.0,41.0,0.0,0.0,2.26,,,0,0,0,0,0,0,0,0,0,0,0,0,0,0,0,0,0,,,,,39.239651,-77.965866,21.15,32,3,0.8
1103628,1745084829823,0.0,185.02,,-0.11,-0.06,0.99,-1,-0,-0,0.99,1.02,97,3196,5.0,3.74,,12.99,1.183,93.4,,32.8,5,,,,,,,,,,,,0,0,0,0,0,0,0,0,0,0,0,0,0,0,0,0,,,,,0.0,,,,,,
1103648,1745084829843,,,,,,,,,,,,,,,,,,,,,,,,,,,,,,,,,,0,0,0,0,0,0,0,0,0,0,0,0,0,0,0,0,,,,,,,,,,,
1103668,1745084829863,0.0,185.02,,-0.09,0.05,0.93,-1,-1,-0,0.93,1.02,91,3243,5.1,3.77,,12.95,1.178,93.4,,32.8,5,,,,,,,,,,,,0,0,0,0,0,0,0,0,0,0,0,0,0,0,0,0,,,,,0.0,,,,,,
1103688,1745084829883,,,,,,,,,,,,,,,,,,,,,,,,,,,,,,,,,,0,0,0,0,0,0,0,0,0,0,0,0,0,0,0,0,,,,,,,,,,,
1103708,1745084829903,0.0,185.02,13.62,-0.08,0.07,0.96,-1,-1,0,0.96,1.02,94,3150,5.1,3.76,15,12.97,1.174,93.4,140,32.1,5,13,0,13,13,0.0,221.0,0.0,0.0,2.26,0,0.0,0,0,0,0,0,0,0,0,0,0,0,0,0,0,0,0,0,0.0,0,0,0.0,39.239647,-77.965874,21.05,32,3,0.8
1103728,1745084829923,,,,,,,,,,,,,,,,,,,,,,,,,,,,,,,,,,0,0,0,0,0,0,0,0,0,0,0,0,0,0,0,0,,,,,,,,,,,
1103748,1745084829943,0.0,185.02,,-0.09,0.01,1.03,-1,-1,1,1.04,1.04,100,3088,5.0,3.77,,12.97,1.174,93.4,,32.1,5,,,,,,,,,,,,0,0,0,0,0,0,0,0,0,0,0,0,0,0,0,0,,,,,0.0,,,,,,
1103768,1745084829963,,,,,,,,,,,,,,,,,,,,,,,,,,,,,,,,,,0,0,0,0,0,0,0,0,0,0,0,0,0,0,0,0,,,,,,,,,,,
1103788,1745084829983,0.0,185.02,,-0.11,-0.07,1.09,-1,-0,0,1.1,1.1,100,3088,5.0,3.77,,13.01,1.179,93.4,,31.1,5,,,,,,,,,,,,0,0,0,0,0,0,0,0,0,0,0,0,0,0,0,0,,,,,0.0,,,,,,
1103808,1745084830003,,,,,,,,,,,,,,,,,,,,,,,13,0,13,13,0.0,231.0,0.0,0.0,2.26,,,0,0,0,0,0,0,0,0,0,0,0,0,0,0,0,0,0,,,,,39.239647,-77.965874,21.05,32,3,0.8
1103828,1745084830015,0.0,185.14,,-0.11,-0.05,1.02,-0,-0,-0,1.03,1.1,94,3162,0.0,2.97,,12.85,1.187,93.4,,31.1,5,,,,,,,,,,,,0,0,0,0,0,0,0,0,0,0,0,0,0,0,0,0,,,,,0.0,,,,,,
1103848,1745084830035,,,,,,,,,,,,,,,,,,,,,,,,,,,,,,,,,,0,0,0,0,0,0,0,0,0,0,0,0,0,0,0,0,,,,,,,,,,,
1103868,1745084830055,0.0,185.14,,-0.1,-0.0,0.94,0,-0,-1,0.95,1.1,86,3137,0.0,2.86,,12.53,1.172,93.4,,31.1,5,,,,,,,,,,,,0,0,0,0,0,0,0,0,0,0,0,0,0,0,0,0,,,,,0.0,,,,,,
1103888,1745084830075,,,,,,,,,,,,,,,,,,,,,,,,,,,,,,,,,,0,0,0,0,0,0,0,0,0,0,0,0,0,0,0,0,,,,,,,,,,,
1103908,1745084830095,0.0,185.14,,-0.09,0.03,0.88,0,-0,-1,0.88,1.1,81,3008,0.0,2.86,,12.41,1.175,93.4,,31.1,5,13,0,13,13,0.0,48.0,0.0,0.0,2.26,,,0,0,0,0,0,0,0,0,0,0,0,0,0,0,0,0,2,,,,0.0,39.239643,-77.965881,20.83,32,3,0.8
1103928,1745084830117,,,,,,,,,,,,,,,,,,,,,,,,,,,,,,,,,,0,0,0,0,0,0,0,0,0,0,0,0,0,0,0,0,,,,,,,,,,,
1103948,1745084830137,0.0,185.14,,-0.08,0.05,0.83,0,-0,-0,0.84,1.1,77,2990,0.0,2.87,,12.41,1.175,93.4,,31.1,5,,,,,,,,,,,,0,0,0,0,0,0,0,0,0,0,0,0,0,0,0,0,,,,,0.0,,,,,,
1103968,1745084830157,,,,,,,,,,,,,,,,,,,,,,,,,,,,,,,,,,0,0,0,0,0,0,0,0,0,0,0,0,0,0,0,0,,,,,,,,,,,
1103988,1745084830177,0.0,185.27,,-0.09,0.05,0.81,0,-0,-0,0.81,1.1,74,2990,0.0,2.87,,12.36,1.187,93.4,,28.6,5,,,,,,,,,,,,0,0,0,0,0,0,0,0,0,0,0,0,0,0,0,0,,,,,0.0,,,,,,
1104008,1745084830202,,,,,,,,,,,,,,,,,,,,,,,13,0,13,13,0.0,21.0,0.0,0.0,2.26,,,0,0,0,0,0,0,0,0,0,0,0,0,0,0,0,0,2,,,,,39.239635,-77.965889,20.27,32,3,0.8
1104028,1745084830222,0.0,185.27,,-0.09,0.04,0.87,0,-0,-0,0.87,1.1,80,2823,0.0,2.93,,12.4,1.213,93.4,,28.6,5,,,,,,,,,,,,0,0,0,0,0,0,0,0,0,0,0,0,0,0,0,0,,,,,0.0,,,,,,
1104048,1745084830242,,,,,,,,,,,,,,,,,,,,,,,,,,,,,,,,,,0,0,0,0,0,0,0,0,0,0,0,0,0,0,0,0,,,,,,,,,,,
1104068,1745084830262,0.0,185.27,,-0.1,0.03,0.87,0,-0,-0,0.87,1.1,80,2699,0.0,3.0,,12.44,1.226,93.4,,28.6,5,,,,,,,,,,,,0,0,0,0,0,0,0,0,0,0,0,0,0,0,0,0,,,,,0.0,,,,,,
1104088,1745084830282,,,,,,,,,,,,,,,,,,,,,,,,,,,,,,,,,,0,0,0,0,0,0,0,0,0,0,0,0,0,0,0,0,,,,,,,,,,,
1104108,1745084830302,0.0,185.27,,-0.1,0.03,0.9,0,-0,-0,0.9,1.1,82,2620,0.0,3.04,,12.57,1.23,93.4,,26.1,5,13,0,12,12,0.0,27.0,0.0,0.0,2.27,,,0,0,0,0,0,0,0,0,0,0,0,0,0,0,0,0,0,,,,0.0,39.239632,-77.965889,19.9,32,3,0.8
1104128,1745084830322,,,,,,,,,,,,,,,,,,,,,,,,,,,,,,,,,,0,0,0,0,0,0,0,0,0,0,0,0,0,0,0,0,,,,,,,,,,,
1104148,1745084830342,0.0,185.27,,-0.11,0.02,0.9,1,-0,-1,0.91,1.1,83,2501,0.0,3.06,,12.57,1.23,93.4,,26.1,5,,,,,,,,,,,,0,0,0,0,0,0,0,0,0,0,0,0,0,0,0,0,,,,,0.0,,,,,,
1104168,1745084830362,,,,,,,,,,,,,,,,,,,,,,,,,,,,,,,,,,0,0,0,0,0,0,0,0,0,0,0,0,0,0,0,0,,,,,,,,,,,
1104188,1745084830382,0.0,185.39,,-0.11,-0.0,0.92,1,-0,-0,0.92,1.1,84,2501,0.0,3.06,,12.69,1.234,93.4,,23.5,5,,,,,,,,,,,,0,0,0,0,0,0,0,0,0,0,0,0,0,0,0,0,,,,,0.0,,,,,,
1104208,1745084830402,,,,,,,,,,,,,,,,,,,,,,,12,0,12,12,0.0,44.0,0.0,0.0,2.27,,,0,0,0,0,0,0,0,0,0,0,0,0,0,0,0,0,0,,,,,39.239628,-77.965897,19.58,32,3,0.8
1104228,1745084830422,0.0,185.52,,-0.12,0.01,0.92,1,-0,-1,0.93,1.1,85,2362,0.0,3.12,,12.83,1.241,93.4,,23.5,5,,,,,,,,,,,,0,0,0,0,0,0,0,0,0,0,0,0,0,0,0,0,,,,,0.0,,,,,,
1104248,1745084830442,,,,,,,,,,,,,,,,,,,,,,,,,,,,,,,,,,0,0,0,0,0,0,0,0,0,0,0,0,0,0,0,0,,,,,,,,,,,
1104268,1745084830462,0.0,185.52,,-0.11,0.01,0.92,1,-0,-1,0.92,1.1,84,2243,0.0,3.18,,12.95,1.217,93.4,,23.5,5,,,,,,,,,,,,0,0,0,0,0,0,0,0,0,0,0,0,0,0,0,0,,,,,0.0,,,,,,
1104288,1745084830482,,,,,,,,,,,,,,,,,,,,,,,,,,,,,,,,,,0,0,0,0,0,0,0,0,0,0,0,0,0,0,0,0,,,,,,,,,,,
1104308,1745084830502,0.0,185.65,,-0.11,0.02,0.92,1,0,-1,0.92,1.1,84,2068,0.0,3.2,,13.15,1.205,93.4,,20.9,5,12,0,12,12,0.0,16.0,0.0,0.0,2.26,,,0,0,0,0,0,0,0,0,0,0,0,0,0,0,0,0,3,,,,0.0,39.239624,-77.965904,19.29,32,3,0.8
1104328,1745084830522,,,,,,,,,,,,,,,,,,,,,,,,,,,,,,,,,,0,0,0,0,0,0,0,0,0,0,0,0,0,0,0,0,,,,,,,,,,,
1104348,1745084830542,0.0,185.65,,-0.11,0.03,0.94,1,0,-1,0.94,1.1,86,1957,0.0,3.23,,13.15,1.205,93.4,,20.9,5,,,,,,,,,,,,0,0,0,0,0,0,0,0,0,0,0,0,0,0,0,0,,,,,0.0,,,,,,
1104368,1745084830562,,,,,,,,,,,,,,,,,,,,,,,,,,,,,,,,,,0,0,0,0,0,0,0,0,0,0,0,0,0,0,0,0,,,,,,,,,,,
1104388,1745084830582,0.0,185.77,,-0.13,0.04,0.94,3,0,-1,0.95,1.1,87,1957,0.0,3.23,,13.29,1.217,93.4,,18.5,5,,,,,,,,,,,,0,0,0,0,0,0,0,0,0,0,0,0,0,0,0,0,,,,,0.0,,,,,,
1104408,1745084830602,,,,,,,,,,,,,,,,,,,,,,,12,0,12,12,0.0,223.0,0.0,0.0,2.26,,,0,0,0,0,0,0,0,0,0,0,0,0,0,0,0,0,3,,,,,39.23962,-77.965904,18.9,32,3,0.8
1104428,1745084830622,13.95,185.9,,-0.16,0.03,0.94,3,0,-1,0.96,1.1,87,1980,0.0,3.27,,13.28,1.213,93.4,,18.5,5,,,,,,,,,,,,0,0,0,0,0,0,0,0,0,0,0,0,0,0,0,0,,,,,0.0,,,,,,
1104448,1745084830642,,,,,,,,,,,,,,,,,,,,,,,,,,,,,,,,,,0,0,0,0,0,0,0,0,0,0,0,0,0,0,0,0,,,,,,,,,,,
1104468,1745084830662,39.72,186.02,,-0.2,0.05,0.94,3,0,-1,0.97,1.1,88,2018,0.0,3.23,,13.41,1.248,93.4,,18.5,5,,,,,,,,,,,,0,0,0,0,0,0,0,0,0,0,0,0,0,0,0,0,,,,,0.0,,,,,,
1104488,1745084830682,,,,,,,,,,,,,,,,,,,,,,,,,,,,,,,,,,0,0,0,0,0,0,0,0,0,0,0,0,0,0,0,0,,,,,,,,,,,
1104508,1745084830702,64.86,186.15,,-0.22,0.05,0.94,3,0,-1,0.97,1.1,89,2160,0.0,3.26,,13.27,1.234,93.4,,20.7,5,11,0,11,11,0.0,232.0,0.0,0.0,2.26,,,0,0,0,0,0,0,0,0,0,0,0,0,0,0,0,0,4,,,,0.0,39.239616,-77.965912,18.12,32,3,0.8
1104528,1745084830722,,,,,,,,,,,,,,,,,,,,,,,,,,,,,,,,,,0,0,0,0,0,0,0,0,0,0,0,0,0,0,0,0,,,,,,,,,,,
1104548,1745084830742,87.48,186.27,,-0.24,0.05,0.94,2,-0,-0,0.97,1.1,89,2070,0.0,3.23,,13.27,1.234,93.4,,20.7,5,,,,,,,,,,,,0,0,0,0,0,0,0,0,0,0,0,0,0,0,0,0,,,,,0.0,,,,,,
1104568,1745084830762,,,,,,,,,,,,,,,,,,,,,,,,,,,,,,,,,,0,0,0,0,0,0,0,0,0,0,0,0,0,0,0,0,,,,,,,,,,,
1104588,1745084830782,97.54,186.4,,-0.28,0.06,0.94,2,-0,-1,0.98,1.1,89,2070,0.0,3.23,,13.33,1.164,93.4,,19.2,5,,,,,,,,,,,,0,0,0,0,0,0,0,0,0,0,0,0,0,0,0,0,,,,,0.0,,,,,,
1104608,1745084830802,,,,,,,,,,,,,,,,,,,,,,,10,0,10,10,0.0,42.0,0.0,0.0,2.26,,,0,0,0,0,0,0,0,0,0,0,0,0,0,0,0,0,4,,,,,39.239613,-77.965912,16.37,32,3,0.8
1104628,1745084830822,91.25,186.27,,-0.26,0.03,0.93,1,-0,-0,0.97,1.1,88,1926,0.0,3.27,,13.44,1.114,93.4,,19.2,5,,,,,,,,,,,,0,0,0,0,0,0,0,0,0,0,0,0,0,0,0,0,,,,,0.0,,,,,,
1104648,1745084830842,,,,,,,,,,,,,,,,,,,,,,,,,,,,,,,,,,0,0,0,0,0,0,0,0,0,0,0,0,0,0,0,0,,,,,,,,,,,
1104668,1745084830862,84.97,186.27,,-0.25,0.03,0.95,1,0,-0,0.98,1.1,90,1809,0.0,3.27,,13.56,1.082,93.4,,19.2,5,,,,,,,,,,,,0,0,0,0,0,0,0,0,0,0,0,0,0,0,0,0,,,,,0.0,,,,,,
1104688,1745084830882,,,,,,,,,,,,,,,,,,,,,,,,,,,,,,,,,,0,0,0,0,0,0,0,0,0,0,0,0,0,0,0,0,,,,,,,,,,,
1104708,1745084830902,80.57,186.27,13.55,-0.27,0.02,0.96,1,1,-0,1.0,1.1,91,1676,0.0,3.3,15,13.59,1.08,93.4,142,17.8,5,9,0,9,9,0.0,14.0,0.0,0.0,2.27,0,0.0,0,0,0,0,0,0,0,0,0,0,0,0,0,0,0,0,3,0.0,0,-0,0.0,39.239609,-77.965912,14.42,32,3,0.8
1104728,1745084830922,,,,,,,,,,,,,,,,,,,,,,,,,,,,,,,,,,0,0,0,0,0,0,0,0,0,0,0,0,0,0,0,0,,,,,,,,,,,
1104748,1745084830942,74.28,186.27,,-0.28,0.01,0.96,0,0,-0,1.0,1.1,91,1683,0.0,3.33,,13.59,1.08,93.4,,17.8,5,,,,,,,,,,,,0,0,0,0,0,0,0,0,0,0,0,0,0,0,0,0,,,,,0.0,,,,,,
1104768,1745084830962,,,,,,,,,,,,,,,,,,,,,,,,,,,,,,,,,,0,0,0,0,0,0,0,0,0,0,0,0,0,0,0,0,,,,,,,,,,,
1104788,1745084830982,68.0,186.15,,-0.28,0.03,0.95,1,0,-0,0.99,1.1,90,1683,0.0,3.33,,13.56,1.074,93.4,,15.6,5,,,,,,,,,,,,0,0,0,0,0,0,0,0,0,0,0,0,0,0,0,0,,,,,0.0,,,,,,
1104808,1745084831002,,,,,,,,,,,,,,,,,,,,,,,9,0,9,9,0.0,0.0,0.0,0.0,2.26,,,0,0,0,0,0,0,0,0,0,0,0,0,0,0,0,0,3,,,,,39.239609,-77.965912,14.42,32,3,0.8
1104828,1745084831014,66.11,186.15,,-0.28,0.04,0.93,1,0,-0,0.97,1.1,89,1540,0.0,3.33,,13.76,1.077,93.4,,15.6,5,,,,,,,,,,,,0,0,0,0,0,0,0,0,0,0,0,0,0,0,0,0,,,,,0.0,,,,,,
1104848,1745084831034,,,,,,,,,,,,,,,,,,,,,,,,,,,,,,,,,,0,0,0,0,0,0,0,0,0,0,0,0,0,0,0,0,,,,,,,,,,,
1104868,1745084831054,66.11,186.02,,-0.29,0.03,0.92,1,0,-0,0.97,1.1,89,1514,0.0,3.35,,13.69,1.089,93.4,,15.6,5,,,,,,,,,,,,0,0,0,0,0,0,0,0,0,0,0,0,0,0,0,0,,,,,0.0,,,,,,
1104888,1745084831074,,,,,,,,,,,,,,,,,,,,,,,,,,,,,,,,,,0,0,0,0,0,0,0,0,0,0,0,0,0,0,0,0,,,,,,,,,,,
1104908,1745084831102,66.74,186.15,,-0.3,0.01,0.94,0,0,-0,0.99,1.1,90,1402,0.0,3.38,,13.82,1.092,93.4,,14.3,5,8,0,8,8,0.0,240.0,0.0,0.0,2.26,,,0,0,0,0,0,0,0,0,0,0,0,0,0,0,0,0,4,,,,0.0,39.239605,-77.96592,13.03,32,3,0.8
1104928,1745084831122,,,,,,,,,,,,,,,,,,,,,,,,,,,,,,,,,,0,0,0,0,0,0,0,0,0,0,0,0,0,0,0,0,,,,,,,,,,,
1104948,1745084831142,66.11,186.15,,-0.3,0.02,0.95,-0,0,-0,0.99,1.1,91,1260,0.0,3.38,,13.82,1.092,93.4,,14.3,5,,,,,,,,,,,,0,0,0,0,0,0,0,0,0,0,0,0,0,0,0,0,,,,,0.0,,,,,,
1104968,1745084831162,,,,,,,,,,,,,,,,,,,,,,,,,,,,,,,,,,0,0,0,0,0,0,0,0,0,0,0,0,0,0,0,0,,,,,,,,,,,
1104988,1745084831182,65.49,186.02,,-0.3,0.05,0.95,0,0,-0,0.99,1.1,91,1260,0.0,3.38,,13.9,1.065,93.4,,13.4,5,,,,,,,,,,,,0,0,0,0,0,0,0,0,0,0,0,0,0,0,0,0,,,,,0.0,,,,,,
1105008,1745084831202,,,,,,,,,,,,,,,,,,,,,,,8,0,8,7,0.0,248.0,0.0,0.0,2.26,,,0,0,0,0,0,0,0,0,0,0,0,0,0,0,0,0,4,,,,,39.239605,-77.96592,13.03,32,3,0.8
1105028,1745084831219,61.71,186.02,,-0.28,0.03,0.95,-0,0,-0,0.99,1.1,90,1390,0.0,3.39,,13.9,1.027,93.4,,13.4,5,,,,,,,,,,,,0,0,0,0,0,0,0,0,0,0,0,0,0,0,0,0,,,,,0.0,,,,,,
1105048,1745084831239,,,,,,,,,,,,,,,,,,,,,,,,,,,,,,,,,,0,0,0,0,0,0,0,0,0,0,0,0,0,0,0,0,,,,,,,,,,,
