"Interval"|"ms"|0|0|1,"Utc"|"ms"|0|0|1,"FrontBP"|"psi"|-5.0|5.0|25,"SteerAng"|"Degrees"|-145.0|145.0|25,"Battery"|"Volts"|-5.0|20.0|1,"AccelX"|"G"|-3.0|3.0|25,"AccelY"|"G"|-3.0|3.0|25,"AccelZ"|"G"|-3.0|3.0|25,"Yaw"|"Deg/Sec"|-120|120|25,"Pitch"|"Deg/Sec"|-120|120|25,"Roll"|"Deg/Sec"|-120|120|25,"Gsum"|"G"|0.0|3.0|25,"GsumMax"|"G"|0.0|3.0|25,"GsumPct"|"%"|0|100|25,"RPM"|""|0|10000|25,"TPS"|"%"|0.0|100.0|25,"InjectorPW"|"ms"|0.0|100.0|25,"Baro"|"kPa"|0|105|1,"MAP"|"Psi"|0.0|255.0|25,"Lambda"|""|-2.0|2.0|25,"IAT"|"C"|0.0|200.0|25,"EngineTemp"|"C"|0|200|1,"EOP"|"PSI"|0.0|152.0|25,"EOT"|"F"|0|250|25,"WSFR"|"MPH"|0|150|10,"WSFL"|"MPH"|0|100|10,"WSRR"|"MPH"|0|100|10,"WSRL"|""|0|100|10,"TCSet"|"%"|0.0|100.0|10,"TCSlip"|"%"|0.0|100.0|10,"TCComp"|"deg"|0.0|50.0|10,"TCCut"|"%"|0.0|100.0|10,"Analog8"|""|0.0|5.0|10,"OilTemp"|"F"|0|300|1,"AA_On"|""|0.0|1.0|1,"ThermLF1"|"C"|0|400|50,"ThermLF2"|"C"|0|400|50,"ThermRR1"|"C"|0|400|50,"ThermRR2"|"C"|0|400|50,"ThermLF3"|"C"|0|400|50,"ThermLF4"|"C"|0|400|50,"ThermLF5"|"C"|0|400|50,"ThermLF6"|"C"|0|400|50,"ThermLF7"|"C"|0|400|50,"ThermLF8"|"C"|0|400|50,"ThermRR3"|"C"|0|400|50,"ThermRR4"|"C"|0|400|50,"ThermRR5"|"C"|0|400|50,"ThermRR6"|"C"|0|400|50,"ThermRR7"|"C"|0|400|50,"ThermRR8"|"C"|0|400|50,"Gear"|""|1|6|10,"AA_On"|""|0.0|1.0|1,"AA_LowDrag"|""|0|1|1,"Fuel_Mix"|""|-10|10|1,"AA_Packages"|""|0.0|1000.0|25,"Latitude"|"Degrees"|-180.0|180.0|10,"Longitude"|"Degrees"|-180.0|180.0|10,"Speed"|"kph"|0.0|150.0|10,"GPSSats"|""|0|20|10,"GPSQual"|""|0|5|10,"GPSDOP"|""|0.0|20.0|10
1542134,1745088664193,0.0,194.57,,-0.03,-0.1,0.9,0,-0,-0,0.91,0.91,100,4234,9.7,3.57,,12.67,1.25,100.6,,38.8,5,,,,,,,,,,,,0,0,0,0,0,0,0,0,0,0,0,0,0,0,0,0,,,,,0.0,,,,,,
1542154,1745088664213,,,,,,,,,,,,,,,,,,,,,,,,,,,,,,,,,,0,0,0,0,0,0,0,0,0,0,0,0,0,0,0,0,,,,,,,,,,,
1542174,1745088664233,0.0,194.7,,-0.03,0.02,0.97,1,-0,-0,0.97,0.97,100,4145,12.9,3.85,,12.93,1.25,100.6,,38.8,5,,,,,,,,,,,,0,0,0,0,0,0,0,0,0,0,0,0,0,0,0,0,,,,,0.0,,,,,,
1542194,1745088664253,,,,,,,,,,,,,,,,,,,,,,,,,,,,,,,,,,0,0,0,0,0,0,0,0,0,0,0,0,0,0,0,0,,,,,,,,,,,
1542214,1745088664273,0.0,194.7,,-0.05,-0.09,0.89,0,-0,-0,0.9,0.97,93,4102,13.8,3.86,,13.12,1.25,100.6,,38.8,5,0,0,0,0,0.0,0.0,0.0,0.0,2.26,,,0,0,0,0,0,0,0,0,0,0,0,0,0,0,0,0,0,,,,0.0,39.240231,-77.965111,0.05,32,2,0.9
1542234,1745088664297,,,,,,,,,,,,,,,,,,,,,,,,,,,,,,,,,,0,0,0,0,0,0,0,0,0,0,0,0,0,0,0,0,,,,,,,,,,,
1542254,1745088664317,0.0,194.7,,-0.05,0.01,0.97,1,-0,-0,0.97,0.97,100,4171,14.1,3.92,,13.12,1.25,100.6,,37.5,5,,,,,,,,,,,,0,0,0,0,0,0,0,0,0,0,0,0,0,0,0,0,,,,,0.0,,,,,,
1542274,1745088664337,,,,,,,,,,,,,,,,,,,,,,,,,,,,,,,,,,0,0,0,0,0,0,0,0,0,0,0,0,0,0,0,0,,,,,,,,,,,
1542294,1745088664357,0.0,194.7,,-0.04,-0.12,0.88,0,-0,-0,0.89,0.97,92,4171,14.1,3.92,,13.15,1.248,100.6,,37.5,5,,,,,,,,,,,,0,0,0,0,0,0,0,0,0,0,0,0,0,0,0,0,,,,,0.0,,,,,,
1542314,1745088664377,,,,,,,,,,,,,,,,,,,,,,,0,0,0,0,0.0,0.0,0.0,0.0,2.26,,,0,0,0,0,0,0,0,0,0,0,0,0,0,0,0,0,0,,,,,39.240231,-77.965111,0.04,32,2,0.9
1542334,1745088664397,0.0,194.7,,-0.04,0.04,0.99,0,-0,-0,0.99,0.99,100,4168,14.2,3.91,,13.21,1.247,100.6,,38.3,5,,,,,,,,,,,,0,0,0,0,0,0,0,0,0,0,0,0,0,0,0,0,,,,,0.0,,,,,,
1542354,1745088664417,,,,,,,,,,,,,,,,,,,,,,,,,,,,,,,,,,0,0,0,0,0,0,0,0,0,0,0,0,0,0,0,0,,,,,,,,,,,
1542374,1745088664437,0.0,194.7,,-0.01,-0.07,0.9,1,-0,-0,0.9,0.99,91,4174,14.3,3.87,,13.19,1.248,100.6,,38.3,5,,,,,,,,,,,,0,0,0,0,0,0,0,0,0,0,0,0,0,0,0,0,,,,,0.0,,,,,,
1542394,1745088664457,,,,,,,,,,,,,,,,,,,,,,,,,,,,,,,,,,0,0,0,0,0,0,0,0,0,0,0,0,0,0,0,0,,,,,,,,,,,
1542414,1745088664477,0.0,194.57,13.34,-0.06,-0.02,0.98,-0,-0,0,0.98,0.99,99,4227,14.2,3.85,15,13.24,1.248,100.6,151,38.3,5,0,0,0,0,0.0,0.0,0.0,0.0,2.26,0,0.0,0,0,0,0,0,0,0,0,0,0,0,0,0,0,0,0,0,0.0,0,-0,0.0,39.240231,-77.965111,0.05,32,2,0.9
1542434,1745088664496,,,,,,,,,,,,,,,,,,,,,,,,,,,,,,,,,,0,0,0,0,0,0,0,0,0,0,0,0,0,0,0,0,,,,,,,,,,,
1542454,1745088664516,0.0,194.57,,-0.05,0.02,1.01,0,-0,-0,1.02,1.02,100,4263,14.3,3.85,,13.24,1.248,100.6,,39.0,5,,,,,,,,,,,,0,0,0,0,0,0,0,0,0,0,0,0,0,0,0,0,,,,,0.0,,,,,,
1542474,1745088664536,,,,,,,,,,,,,,,,,,,,,,,,,,,,,,,,,,0,0,0,0,0,0,0,0,0,0,0,0,0,0,0,0,,,,,,,,,,,
1542494,1745088664556,0.0,194.44,,-0.04,-0.11,0.91,0,-0,-0,0.92,1.02,91,4263,14.3,3.85,,13.17,1.25,100.6,,39.0,5,,,,,,,,,,,,0,0,0,0,0,0,0,0,0,0,0,0,0,0,0,0,,,,,0.0,,,,,,
1542514,1745088664576,,,,,,,,,,,,,,,,,,,,,,,0,0,0,0,0.0,0.0,0.0,0.0,2.26,,,0,0,0,0,0,0,0,0,0,0,0,0,0,0,0,0,0,,,,,39.240231,-77.965111,0.05,32,2,0.9
1542534,1745088664596,0.0,194.44,,-0.05,0.01,1.02,-0,-0,0,1.02,1.02,100,4259,14.3,3.86,,13.15,1.25,100.6,,39.0,5,,,,,,,,,,,,0,0,0,0,0,0,0,0,0,0,0,0,0,0,0,0,,,,,0.0,,,,,,
1542554,1745088664616,,,,,,,,,,,,,,,,,,,,,,,,,,,,,,,,,,0,0,0,0,0,0,0,0,0,0,0,0,0,0,0,0,,,,,,,,,,,
1542574,1745088664636,0.0,194.44,,-0.04,0.02,1.02,1,-0,-0,1.02,1.02,100,4255,14.5,3.87,,13.17,1.25,100.6,,39.0,5,,,,,,,,,,,,0,0,0,0,0,0,0,0,0,0,0,0,0,0,0,0,,,,,0.0,,,,,,
1542594,1745088664656,,,,,,,,,,,,,,,,,,,,,,,,,,,,,,,,,,0,0,0,0,0,0,0,0,0,0,0,0,0,0,0,0,,,,,,,,,,,
1542614,1745088664676,0.0,194.44,,-0.05,-0.06,0.93,0,-0,-0,0.93,1.02,91,4238,14.7,3.83,,13.16,1.25,100.6,,39.0,5,0,0,0,0,0.0,0.0,0.0,0.0,2.26,,,0,0,0,0,0,0,0,0,0,0,0,0,0,0,0,0,0,,,,0.0,39.240231,-77.965111,0.04,32,2,0.9
1542634,1745088664696,,,,,,,,,,,,,,,,,,,,,,,,,,,,,,,,,,0,0,0,0,0,0,0,0,0,0,0,0,0,0,0,0,,,,,,,,,,,
1542654,1745088664716,0.0,194.44,,-0.06,0.02,1.02,-0,-0,0,1.02,1.02,100,4226,14.8,3.84,,13.16,1.25,100.6,,38.8,5,,,,,,,,,,,,0,0,0,0,0,0,0,0,0,0,0,0,0,0,0,0,,,,,0.0,,,,,,
1542674,1745088664736,,,,,,,,,,,,,,,,,,,,,,,,,,,,,,,,,,0,0,0,0,0,0,0,0,0,0,0,0,0,0,0,0,,,,,,,,,,,
1542694,1745088664756,0.0,194.32,,-0.04,-0.04,0.94,1,-0,-0,0.95,1.02,92,4226,14.8,3.84,,13.13,1.251,100.6,,38.8,5,,,,,,,,,,,,0,0,0,0,0,0,0,0,0,0,0,0,0,0,0,0,,,,,0.0,,,,,,
1542714,1745088664776,,,,,,,,,,,,,,,,,,,,,,,0,0,0,0,0.0,0.0,0.0,0.0,2.26,,,0,0,0,0,0,0,0,0,0,0,0,0,0,0,0,0,0,,,,,39.240231,-77.965111,0.07,32,2,0.9
1542734,1745088664796,0.0,194.32,,-0.05,-0.01,0.99,-0,-0,0,0.99,1.02,97,4217,14.9,3.89,,13.2,1.25,100.6,,38.8,5,,,,,,,,,,,,0,0,0,0,0,0,0,0,0,0,0,0,0,0,0,0,,,,,0.0,,,,,,
1542754,1745088664816,,,,,,,,,,,,,,,,,,,,,,,,,,,,,,,,,,0,0,0,0,0,0,0,0,0,0,0,0,0,0,0,0,,,,,,,,,,,
1542774,1745088664836,0.0,194.32,,-0.05,0.08,1.08,-1,-0,0,1.08,1.08,100,4266,14.9,3.87,,13.16,1.246,100.6,,38.8,5,,,,,,,,,,,,0,0,0,0,0,0,0,0,0,0,0,0,0,0,0,0,,,,,0.0,,,,,,
1542794,1745088664856,,,,,,,,,,,,,,,,,,,,,,,,,,,,,,,,,,0,0,0,0,0,0,0,0,0,0,0,0,0,0,0,0,,,,,,,,,,,
1542814,1745088664876,0.0,194.19,,-0.03,-0.04,0.96,1,-0,-0,0.96,1.08,89,4235,15.1,3.85,,13.16,1.246,100.6,,38.8,5,0,0,0,0,0.0,0.0,0.0,0.0,2.26,,,0,0,0,0,0,0,0,0,0,0,0,0,0,0,0,0,0,,,,0.0,39.240231,-77.965111,0.08,32,2,0.9
1542834,1745088664896,,,,,,,,,,,,,,,,,,,,,,,,,,,,,,,,,,0,0,0,0,0,0,0,0,0,0,0,0,0,0,0,0,,,,,,,,,,,
1542854,1745088664916,0.0,194.19,,-0.04,-0.02,0.97,0,-0,-0,0.97,1.08,89,4206,16.0,3.9,,13.16,1.246,100.6,,39.4,5,,,,,,,,,,,,0,0,0,0,0,0,0,0,0,0,0,0,0,0,0,0,,,,,0.0,,,,,,
1542874,1745088664936,,,,,,,,,,,,,,,,,,,,,,,,,,,,,,,,,,0,0,0,0,0,0,0,0,0,0,0,0,0,0,0,0,,,,,,,,,,,
1542894,1745088664956,0.0,194.19,,-0.04,0.09,1.07,0,-0,0,1.07,1.08,99,4206,16.0,3.9,,13.21,1.246,100.6,,39.4,5,,,,,,,,,,,,0,0,0,0,0,0,0,0,0,0,0,0,0,0,0,0,,,,,0.0,,,,,,
1542914,1745088664976,,,,,,,,,,,,,,,,,,,,,,,0,0,0,0,0.0,0.0,0.0,0.0,2.27,,,0,0,0,0,0,0,0,0,0,0,0,0,0,0,0,0,0,,,,,39.240231,-77.965111,0.0,32,2,0.9
1542934,1745088664996,0.0,194.19,,-0.03,-0.03,0.94,1,-0,-0,0.94,1.08,87,4259,16.3,3.95,,13.25,1.249,100.6,,39.2,5,,,,,,,,,,,,0,0,0,0,0,0,0,0,0,0,0,0,0,0,0,0,,,,,0.0,,,,,,
1542954,1745088665008,,,,,,,,,,,,,,,,,,,,,,,,,,,,,,,,,,0,0,0,0,0,0,0,0,0,0,0,0,0,0,0,0,,,,,,,,,,,
1542974,1745088665028,0.0,194.07,,-0.06,-0.02,0.94,0,-0,0,0.94,1.08,87,4255,16.6,3.94,,13.29,1.25,100.6,,39.2,5,,,,,,,,,,,,0,0,0,0,0,0,0,0,0,0,0,0,0,0,0,0,,,,,0.0,,,,,,
1542994,1745088665048,,,,,,,,,,,,,,,,,,,,,,,,,,,,,,,,,,0,0,0,0,0,0,0,0,0,0,0,0,0,0,0,0,,,,,,,,,,,
1543014,1745088665068,0.0,194.07,,-0.06,0.06,1.05,-0,-0,0,1.05,1.08,97,4288,16.9,3.91,,13.36,1.251,100.6,,39.2,5,0,0,0,0,0.0,0.0,0.0,0.0,2.26,,,0,0,0,0,0,0,0,0,0,0,0,0,0,0,0,0,0,,,,0.0,39.240231,-77.965111,0.0,32,2,0.9
1543034,1745088665094,,,,,,,,,,,,,,,,,,,,,,,,,,,,,,,,,,0,0,0,0,0,0,0,0,0,0,0,0,0,0,0,0,,,,,,,,,,,
1543054,1745088665114,0.0,194.19,,-0.04,-0.04,0.96,1,-0,-0,0.97,1.08,89,4240,17.1,3.92,,13.36,1.251,100.6,,39.0,5,,,,,,,,,,,,0,0,0,0,0,0,0,0,0,0,0,0,0,0,0,0,,,,,0.0,,,,,,
1543074,1745088665134,,,,,,,,,,,,,,,,,,,,,,,,,,,,,,,,,,0,0,0,0,0,0,0,0,0,0,0,0,0,0,0,0,,,,,,,,,,,
1543094,1745088665154,0.0,194.19,,-0.06,-0.1,0.91,0,-0,-0,0.91,1.08,84,4240,17.1,3.92,,13.33,1.25,100.6,,39.0,5,,,,,,,,,,,,0,0,0,0,0,0,0,0,0,0,0,0,0,0,0,0,,,,,0.0,,,,,,
1543114,1745088665174,,,,,,,,,,,,,,,,,,,,,,,0,0,0,0,0.0,0.0,0.0,0.0,2.26,,,0,0,0,0,0,0,0,0,0,0,0,0,0,0,0,0,0,,,,,39.240231,-77.965111,0.13,32,2,0.9
1543134,1745088665192,0.0,194.07,,-0.09,0.01,0.99,-0,-0,0,0.99,1.08,91,4347,17.2,3.95,,13.28,1.25,100.6,,40.0,5,,,,,,,,,,,,0,0,0,0,0,0,0,0,0,0,0,0,0,0,0,0,,,,,0.0,,,,,,
1543154,1745088665212,,,,,,,,,,,,,,,,,,,,,,,,,,,,,,,,,,0,0,0,0,0,0,0,0,0,0,0,0,0,0,0,0,,,,,,,,,,,
1543174,1745088665232,0.0,194.07,,-0.08,0.09,1.09,-0,-0,0,1.1,1.1,100,4365,17.2,3.92,,13.27,1.25,100.6,,40.0,5,,,,,,,,,,,,0,0,0,0,0,0,0,0,0,0,0,0,0,0,0,0,,,,,0.0,,,,,,
1543194,1745088665252,,,,,,,,,,,,,,,,,,,,,,,,,,,,,,,,,,0,0,0,0,0,0,0,0,0,0,0,0,0,0,0,0,,,,,,,,,,,
1543214,1745088665272,0.0,194.07,,-0.05,0.03,1.06,0,-0,0,1.06,1.1,96,4401,17.0,3.9,,13.23,1.248,100.6,,40.0,5,0,0,0,0,0.0,0.0,0.0,0.0,2.26,,,0,0,0,0,0,0,0,0,0,0,0,0,0,0,0,0,0,,,,0.0,39.240231,-77.965111,0.0,32,2,0.9
1543234,1745088665298,,,,,,,,,,,,,,,,,,,,,,,,,,,,,,,,,,0,0,0,0,0,0,0,0,0,0,0,0,0,0,0,0,,,,,,,,,,,
1543254,1745088665318,0.0,194.07,,-0.01,-0.07,0.95,1,-0,-0,0.95,1.1,87,4348,16.4,3.87,,13.23,1.248,100.6,,40.8,5,,,,,,,,,,,,0,0,0,0,0,0,0,0,0,0,0,0,0,0,0,0,,,,,0.0,,,,,,
1543274,1745088665338,,,,,,,,,,,,,,,,,,,,,,,,,,,,,,,,,,0,0,0,0,0,0,0,0,0,0,0,0,0,0,0,0,,,,,,,,,,,
1543294,1745088665358,0.0,194.07,,-0.01,-0.11,0.89,1,-0,-0,0.9,1.1,82,4348,16.4,3.87,,13.25,1.248,100.6,,40.8,5,,,,,,,,,,,,0,0,0,0,0,0,0,0,0,0,0,0,0,0,0,0,,,,,0.0,,,,,,
1543314,1745088665378,,,,,,,,,,,,,,,,,,,,,,,0,0,0,0,0.0,0.0,0.0,0.0,2.26,,,0,0,0,0,0,0,0,0,0,0,0,0,0,0,0,0,0,,,,,39.240231,-77.965111,0.04,32,2,0.9
1543334,1745088665398,0.0,194.07,,-0.06,-0.11,0.88,0,-0,-0,0.89,1.1,81,4340,16.0,3.84,,13.24,1.248,100.6,,40.6,5,,,,,,,,,,,,0,0,0,0,0,0,0,0,0,0,0,0,0,0,0,0,,,,,0.0,,,,,,
1543354,1745088665418,,,,,,,,,,,,,,,,,,,,,,,,,,,,,,,,,,0,0,0,0,0,0,0,0,0,0,0,0,0,0,0,0,,,,,,,,,,,
1543374,1745088665438,0.0,193.94,,-0.1,-0.01,0.95,-1,-0,0,0.95,1.1,87,4407,15.8,3.81,,13.11,1.248,100.6,,40.6,5,,,,,,,,,,,,0,0,0,0,0,0,0,0,0,0,0,0,0,0,0,0,,,,,0.0,,,,,,
1543394,1745088665458,,,,,,,,,,,,,,,,,,,,,,,,,,,,,,,,,,0,0,0,0,0,0,0,0,0,0,0,0,0,0,0,0,,,,,,,,,,,
1543414,1745088665478,0.0,194.07,13.34,-0.13,0.06,1.06,-1,-0,1,1.07,1.1,97,4419,16.5,3.87,15,13.16,1.25,100.6,151,40.6,5,0,0,0,0,0.0,0.0,0.0,0.0,2.27,0,0.0,0,0,0,0,0,0,0,0,0,0,0,0,0,0,0,0,0,0.0,0,-0,0.0,39.240231,-77.965111,0.05,32,2,0.9
1543434,1745088665497,,,,,,,,,,,,,,,,,,,,,,,,,,,,,,,,,,0,0,0,0,0,0,0,0,0,0,0,0,0,0,0,0,,,,,,,,,,,
1543454,1745088665517,0.0,193.94,,-0.11,0.11,1.11,-1,-0,1,1.12,1.12,100,4423,16.0,3.96,,13.16,1.25,100.6,,40.3,5,,,,,,,,,,,,0,0,0,0,0,0,0,0,0,0,0,0,0,0,0,0,,,,,0.0,,,,,,
1543474,1745088665537,,,,,,,,,,,,,,,,,,,,,,,,,,,,,,,,,,0,0,0,0,0,0,0,0,0,0,0,0,0,0,0,0,,,,,,,,,,,
1543494,1745088665557,0.0,193.94,,-0.07,0.12,1.1,-0,-0,0,1.11,1.12,99,4423,16.0,3.96,,13.13,1.251,100.6,,40.3,5,,,,,,,,,,,,0,0,0,0,0,0,0,0,0,0,0,0,0,0,0,0,,,,,0.0,,,,,,
1543514,1745088665577,,,,,,,,,,,,,,,,,,,,,,,0,0,0,0,0.0,0.0,0.0,0.0,2.26,,,0,0,0,0,0,0,0,0,0,0,0,0,0,0,0,0,0,,,,,39.240231,-77.965111,0.04,32,2,0.9
1543534,1745088665597,0.0,194.07,,-0.03,0.07,1.04,1,-0,-0,1.04,1.12,93,4466,16.1,3.85,,13.12,1.251,100.6,,41.6,5,,,,,,,,,,,,0,0,0,0,0,0,0,0,0,0,0,0,0,0,0,0,,,,,0.0,,,,,,
1543554,1745088665617,,,,,,,,,,,,,,,,,,,,,,,,,,,,,,,,,,0,0,0,0,0,0,0,0,0,0,0,0,0,0,0,0,,,,,,,,,,,
1543574,1745088665637,0.0,194.07,,0.01,0.02,0.96,2,-0,-1,0.96,1.12,85,4448,16.2,3.79,,13.17,1.25,100.6,,41.6,5,,,,,,,,,,,,0,0,0,0,0,0,0,0,0,0,0,0,0,0,0,0,,,,,0.0,,,,,,
1543594,1745088665657,,,,,,,,,,,,,,,,,,,,,,,,,,,,,,,,,,0,0,0,0,0,0,0,0,0,0,0,0,0,0,0,0,,,,,,,,,,,
1543614,1745088665677,0.0,194.07,,0.04,-0.07,0.87,2,-0,-1,0.87,1.12,78,4472,16.0,3.8,,13.11,1.249,100.6,,41.6,5,0,0,0,0,0.0,0.0,0.0,0.0,2.26,,,0,0,0,0,0,0,0,0,0,0,0,0,0,0,0,0,0,,,,0.0,39.240231,-77.965111,0.04,32,2,0.9
1543634,1745088665697,,,,,,,,,,,,,,,,,,,,,,,,,,,,,,,,,,0,0,0,0,0,0,0,0,0,0,0,0,0,0,0,0,,,,,,,,,,,
1543654,1745088665717,0.0,194.07,,0.07,-0.16,0.79,3,-0,-2,0.81,1.12,72,4459,15.9,3.8,,13.11,1.249,100.6,,41.4,5,,,,,,,,,,,,0,0,0,0,0,0,0,0,0,0,0,0,0,0,0,0,,,,,0.0,,,,,,
1543674,1745088665737,,,,,,,,,,,,,,,,,,,,,,,,,,,,,,,,,,0,0,0,0,0,0,0,0,0,0,0,0,0,0,0,0,,,,,,,,,,,
1543694,1745088665757,0.0,194.07,,0.08,-0.24,0.71,3,-0,-2,0.75,1.12,67,4459,15.9,3.8,,13.13,1.248,100.6,,41.4,5,,,,,,,,,,,,0,0,0,0,0,0,0,0,0,0,0,0,0,0,0,0,,,,,0.0,,,,,,
1543714,1745088665777,,,,,,,,,,,,,,,,,,,,,,,0,0,0,0,0.0,0.0,0.0,0.0,2.26,,,0,0,0,0,0,0,0,0,0,0,0,0,0,0,0,0,0,,,,,39.240231,-77.965111,0.04,32,2,0.9
1543734,1745088665795,0.0,194.07,,0.1,-0.32,0.66,3,-0,-2,0.74,1.12,66,4470,15.8,3.78,,13.07,1.248,100.6,,41.2,5,,,,,,,,,,,,0,0,0,0,0,0,0,0,0,0,0,0,0,0,0,0,,,,,0.0,,,,,,
1543754,1745088665815,,,,,,,,,,,,,,,,,,,,,,,,,,,,,,,,,,0,0,0,0,0,0,0,0,0,0,0,0,0,0,0,0,,,,,,,,,,,
1543774,1745088665835,0.0,194.07,,0.08,-0.35,0.61,3,-0,-2,0.71,1.12,63,4536,15.7,3.83,,13.13,1.248,100.6,,41.2,5,,,,,,,,,,,,0,0,0,0,0,0,0,0,0,0,0,0,0,0,0,0,,,,,0.0,,,,,,
1543794,1745088665855,,,,,,,,,,,,,,,,,,,,,,,,,,,,,,,,,,0,0,0,0,0,0,0,0,0,0,0,0,0,0,0,0,,,,,,,,,,,
1543814,1745088665875,0.0,194.19,,0.08,-0.37,0.61,3,-0,-2,0.72,1.12,64,4527,15.8,3.82,,13.08,1.247,100.6,,41.2,5,0,0,0,0,0.0,0.0,0.0,0.0,2.26,,,0,0,0,0,0,0,0,0,0,0,0,0,0,0,0,0,0,,,,0.0,39.240231,-77.965111,0.05,32,2,0.9
1543834,1745088665897,,,,,,,,,,,,,,,,,,,,,,,,,,,,,,,,,,0,0,0,0,0,0,0,0,0,0,0,0,0,0,0,0,,,,,,,,,,,
1543854,1745088665917,0.0,194.07,,0.06,-0.41,0.56,3,-0,-2,0.69,1.12,62,4518,16.9,3.78,,13.08,1.247,100.6,,42.3,5,,,,,,,,,,,,0,0,0,0,0,0,0,0,0,0,0,0,0,0,0,0,,,,,0.0,,,,,,
1543874,1745088665937,,,,,,,,,,,,,,,,,,,,,,,,,,,,,,,,,,0,0,0,0,0,0,0,0,0,0,0,0,0,0,0,0,,,,,,,,,,,
1543894,1745088665957,0.0,194.07,,0.07,-0.43,0.55,3,-0,-2,0.7,1.12,63,4518,16.9,3.78,,13.16,1.249,100.6,,42.3,5,,,,,,,,,,,,0,0,0,0,0,0,0,0,0,0,0,0,0,0,0,0,,,,,0.0,,,,,,
1543914,1745088665977,,,,,,,,,,,,,,,,,,,,,,,0,0,0,0,0.0,0.0,0.0,0.0,2.27,,,0,0,0,0,0,0,0,0,0,0,0,0,0,0,0,0,0,,,,,39.240231,-77.965111,0.08,32,2,0.9
1543934,1745088665997,0.0,194.07,,0.05,-0.46,0.5,4,-0,-2,0.68,1.12,61,4546,15.7,3.79,,13.09,1.25,100.6,,42.4,5,,,,,,,,,,,,0,0,0,0,0,0,0,0,0,0,0,0,0,0,0,0,,,,,0.0,,,,,,
1543954,1745088666009,,,,,,,,,,,,,,,,,,,,,,,,,,,,,,,,,,0,0,0,0,0,0,0,0,0,0,0,0,0,0,0,0,,,,,,,,,,,
1543974,1745088666029,0.0,194.19,,0.07,-0.48,0.49,4,-0,-3,0.69,1.12,62,4486,15.8,3.77,,13.16,1.251,100.6,,42.4,5,,,,,,,,,,,,0,0,0,0,0,0,0,0,0,0,0,0,0,0,0,0,,,,,0.0,,,,,,
1543994,1745088666049,,,,,,,,,,,,,,,,,,,,,,,,,,,,,,,,,,0,0,0,0,0,0,0,0,0,0,0,0,0,0,0,0,,,,,,,,,,,
1544014,1745088666069,0.0,194.19,,0.07,-0.5,0.44,4,-0,-3,0.67,1.12,60,4496,15.9,3.77,,13.07,1.25,100.6,,42.4,5,0,0,0,0,0.0,0.0,0.0,0.0,2.26,,,0,0,0,0,0,0,0,0,0,0,0,0,0,0,0,0,0,,,,0.0,39.240231,-77.965111,0.08,32,2,0.9
1544034,1745088666095,,,,,,,,,,,,,,,,,,,,,,,,,,,,,,,,,,0,0,0,0,0,0,0,0,0,0,0,0,0,0,0,0,,,,,,,,,,,
1544054,1745088666115,0.0,194.19,,0.1,-0.52,0.43,5,-0,-3,0.68,1.12,61,4525,16.4,3.77,,13.07,1.25,100.6,,42.3,5,,,,,,,,,,,,0,0,0,0,0,0,0,0,0,0,0,0,0,0,0,0,,,,,0.0,,,,,,
1544074,1745088666135,,,,,,,,,,,,,,,,,,,,,,,,,,,,,,,,,,0,0,0,0,0,0,0,0,0,0,0,0,0,0,0,0,,,,,,,,,,,
1544094,1745088666155,0.0,194.19,,0.12,-0.49,0.41,5,-0,-3,0.65,1.12,58,4525,16.4,3.77,,13.11,1.25,100.6,,42.3,5,,,,,,,,,,,,0,0,0,0,0,0,0,0,0,0,0,0,0,0,0,0,,,,,0.0,,,,,,
1544114,1745088666175,,,,,,,,,,,,,,,,,,,,,,,0,0,0,0,0.0,0.0,0.0,0.0,2.26,,,0,0,0,0,0,0,0,0,0,0,0,0,0,0,0,0,0,,,,,39.240231,-77.965111,0.06,32,2,0.9
1544134,1745088666197,0.0,194.19,,0.15,-0.43,0.47,5,-0,-3,0.66,1.12,59,4528,15.9,3.77,,13.25,1.249,100.6,,42.7,5,,,,,,,,,,,,0,0,0,0,0,0,0,0,0,0,0,0,0,0,0,0,,,,,0.0,,,,,,
1544154,1745088666217,,,,,,,,,,,,,,,,,,,,,,,,,,,,,,,,,,0,0,0,0,0,0,0,0,0,0,0,0,0,0,0,0,,,,,,,,,,,
1544174,1745088666237,0.0,194.19,,0.13,-0.34,0.58,4,-0,-2,0.68,1.12,61,4593,15.9,3.73,,13.12,1.247,100.6,,42.7,5,,,,,,,,,,,,0,0,0,0,0,0,0,0,0,0,0,0,0,0,0,0,,,,,0.0,,,,,,
1544194,1745088666257,,,,,,,,,,,,,,,,,,,,,,,,,,,,,,,,,,0,0,0,0,0,0,0,0,0,0,0,0,0,0,0,0,,,,,,,,,,,
1544214,1745088666277,0.0,194.07,,0.1,-0.24,0.72,3,-0,-2,0.76,1.12,68,4634,15.8,3.77,,13.12,1.247,100.6,,42.7,5,0,0,0,0,0.0,0.0,0.0,0.0,2.26,,,0,0,0,0,0,0,0,0,0,0,0,0,0,0,0,0,0,,,,0.0,39.240231,-77.965111,0.08,32,2,0.9
1544234,1745088666297,,,,,,,,,,,,,,,,,,,,,,,,,,,,,,,,,,0,0,0,0,0,0,0,0,0,0,0,0,0,0,0,0,,,,,,,,,,,
1544254,1745088666317,0.0,194.19,,0.04,-0.17,0.79,2,-0,-1,0.8,1.12,72,4620,15.7,3.76,,13.12,1.247,100.6,,42.7,5,,,,,,,,,,,,0,0,0,0,0,0,0,0,0,0,0,0,0,0,0,0,,,,,0.0,,,,,,
1544274,1745088666337,,,,,,,,,,,,,,,,,,,,,,,,,,,,,,,,,,0,0,0,0,0,0,0,0,0,0,0,0,0,0,0,0,,,,,,,,,,,
1544294,1745088666357,0.0,194.07,,-0.0,-0.14,0.81,1,-0,-1,0.82,1.12,74,4620,15.7,3.76,,13.0,1.239,100.6,,42.7,5,,,,,,,,,,,,0,0,0,0,0,0,0,0,0,0,0,0,0,0,0,0,,,,,0.0,,,,,,
1544314,1745088666377,,,,,,,,,,,,,,,,,,,,,,,0,0,0,0,0.0,0.0,0.0,0.0,2.27,,,0,0,0,0,0,0,0,0,0,0,0,0,0,0,0,0,0,,,,,39.240231,-77.965111,0.2,32,2,0.9
1544334,1745088666397,0.0,194.07,,-0.03,-0.16,0.77,1,-0,-1,0.79,1.12,71,4594,15.7,3.75,,13.09,1.249,100.6,,42.7,5,,,,,,,,,,,,0,0,0,0,0,0,0,0,0,0,0,0,0,0,0,0,,,,,0.0,,,,,,
1544354,1745088666417,,,,,,,,,,,,,,,,,,,,,,,,,,,,,,,,,,0,0,0,0,0,0,0,0,0,0,0,0,0,0,0,0,,,,,,,,,,,
1544374,1745088666437,0.0,194.19,,-0.01,-0.25,0.73,1,-0,-1,0.77,1.12,69,4601,15.7,3.75,,13.04,1.251,100.6,,42.7,5,,,,,,,,,,,,0,0,0,0,0,0,0,0,0,0,0,0,0,0,0,0,,,,,0.0,,,,,,
1544394,1745088666457,,,,,,,,,,,,,,,,,,,,,,,,,,,,,,,,,,0,0,0,0,0,0,0,0,0,0,0,0,0,0,0,0,,,,,,,,,,,
1544414,1745088666477,0.0,194.19,13.36,0.01,-0.27,0.66,2,-0,-1,0.72,1.12,64,4582,15.8,3.77,15,13.08,1.251,100.6,151,42.7,5,0,0,0,0,0.0,0.0,0.0,0.0,2.27,0,0.0,0,0,0,0,0,0,0,0,0,0,0,0,0,0,0,0,0,0.0,0,-0,0.0,39.240231,-77.965111,0.05,32,2,0.9
1544434,1745088666496,,,,,,,,,,,,,,,,,,,,,,,,,,,,,,,,,,0,0,0,0,0,0,0,0,0,0,0,0,0,0,0,0,,,,,,,,,,,
1544454,1745088666516,0.0,194.19,,0.04,-0.31,0.64,3,-0,-2,0.71,1.12,64,4519,16.3,3.74,,13.08,1.251,100.6,,42.9,5,,,,,,,,,,,,0,0,0,0,0,0,0,0,0,0,0,0,0,0,0,0,,,,,0.0,,,,,,
1544474,1745088666536,,,,,,,,,,,,,,,,,,,,,,,,,,,,,,,,,,0,0,0,0,0,0,0,0,0,0,0,0,0,0,0,0,,,,,,,,,,,
1544494,1745088666556,0.0,194.32,,0.07,-0.32,0.62,3,-0,-2,0.7,1.12,63,4519,16.3,3.74,,13.12,1.25,100.6,,42.9,5,,,,,,,,,,,,0,0,0,0,0,0,0,0,0,0,0,0,0,0,0,0,,,,,0.0,,,,,,
1544514,1745088666576,,,,,,,,,,,,,,,,,,,,,,,0,0,0,0,0.0,0.0,0.0,0.0,2.26,,,0,0,0,0,0,0,0,0,0,0,0,0,0,0,0,0,0,,,,,39.240231,-77.965111,0.2,32,2,0.9
1544534,1745088666596,0.0,194.32,,0.09,-0.27,0.66,4,-0,-2,0.71,1.12,64,4526,16.1,3.77,,13.13,1.25,100.6,,42.3,5,,,,,,,,,,,,0,0,0,0,0,0,0,0,0,0,0,0,0,0,0,0,,,,,0.0,,,,,,
1544554,1745088666616,,,,,,,,,,,,,,,,,,,,,,,,,,,,,,,,,,0,0,0,0,0,0,0,0,0,0,0,0,0,0,0,0,,,,,,,,,,,
1544574,1745088666636,0.0,194.32,,0.09,-0.21,0.73,4,-0,-2,0.76,1.12,68,4517,16.1,3.77,,13.13,1.249,100.6,,42.3,5,,,,,,,,,,,,0,0,0,0,0,0,0,0,0,0,0,0,0,0,0,0,,,,,0.0,,,,,,
1544594,1745088666656,,,,,,,,,,,,,,,,,,,,,,,,,,,,,,,,,,0,0,0,0,0,0,0,0,0,0,0,0,0,0,0,0,,,,,,,,,,,
1544614,1745088666676,0.0,194.32,,0.1,-0.11,0.83,4,-0,-2,0.85,1.12,76,4501,15.9,3.75,,13.13,1.249,100.6,,42.3,5,0,0,0,0,0.0,0.0,0.0,0.0,2.26,,,0,0,0,0,0,0,0,0,0,0,0,0,0,0,0,0,0,,,,0.0,39.240231,-77.965111,0.18,32,2,0.9
1544634,1745088666696,,,,,,,,,,,,,,,,,,,,,,,,,,,,,,,,,,0,0,0,0,0,0,0,0,0,0,0,0,0,0,0,0,,,,,,,,,,,
1544654,1745088666716,0.0,194.32,,0.06,-0.01,0.94,3,-0,-1,0.94,1.12,84,4561,15.8,3.72,,13.11,1.248,100.6,,42.4,5,,,,,,,,,,,,0,0,0,0,0,0,0,0,0,0,0,0,0,0,0,0,,,,,0.0,,,,,,
1544674,1745088666736,,,,,,,,,,,,,,,,,,,,,,,,,,,,,,,,,,0,0,0,0,0,0,0,0,0,0,0,0,0,0,0,0,,,,,,,,,,,
1544694,1745088666756,0.0,194.32,,0.01,0.1,1.01,2,-0,-1,1.02,1.12,91,4561,15.8,3.72,,13.05,1.248,100.6,,42.4,5,,,,,,,,,,,,0,0,0,0,0,0,0,0,0,0,0,0,0,0,0,0,,,,,0.0,,,,,,
1544714,1745088666776,,,,,,,,,,,,,,,,,,,,,,,0,0,0,0,0.0,0.0,0.0,0.0,2.26,,,0,0,0,0,0,0,0,0,0,0,0,0,0,0,0,0,0,,,,,39.240231,-77.965111,0.05,32,2,0.9
1544734,1745088666796,0.0,194.32,,-0.04,0.13,1.05,1,-0,-0,1.06,1.12,94,4591,15.7,3.76,,13.09,1.248,100.6,,42.2,5,,,,,,,,,,,,0,0,0,0,0,0,0,0,0,0,0,0,0,0,0,0,,,,,0.0,,,,,,
1544754,1745088666816,,,,,,,,,,,,,,,,,,,,,,,,,,,,,,,,,,0,0,0,0,0,0,0,0,0,0,0,0,0,0,0,0,,,,,,,,,,,
1544774,1745088666836,0.0,194.32,,-0.08,0.1,1.02,-0,-0,0,1.03,1.12,92,4596,15.7,3.76,,13.01,1.248,100.6,,42.2,5,,,,,,,,,,,,0,0,0,0,0,0,0,0,0,0,0,0,0,0,0,0,,,,,0.0,,,,,,
1544794,1745088666856,,,,,,,,,,,,,,,,,,,,,,,,,,,,,,,,,,0,0,0,0,0,0,0,0,0,0,0,0,0,0,0,0,,,,,,,,,,,
1544814,1745088666876,0.0,194.32,,-0.09,0.09,0.99,-1,-0,0,1.0,1.12,89,4556,15.7,3.74,,13.11,1.25,100.6,,42.2,5,0,0,0,0,0.0,0.0,0.0,0.0,2.26,,,0,0,0,0,0,0,0,0,0,0,0,0,0,0,0,0,0,,,,0.0,39.240231,-77.965111,0.13,32,2,0.9
1544834,1745088666896,,,,,,,,,,,,,,,,,,,,,,,,,,,,,,,,,,0,0,0,0,0,0,0,0,0,0,0,0,0,0,0,0,,,,,,,,,,,
1544854,1745088666916,0.0,194.32,,-0.09,-0.03,0.9,-1,-0,0,0.91,1.12,81,4583,15.7,3.74,,13.11,1.25,100.6,,42.5,5,,,,,,,,,,,,0,0,0,0,0,0,0,0,0,0,0,0,0,0,0,0,,,,,0.0,,,,,,
1544874,1745088666936,,,,,,,,,,,,,,,,,,,,,,,,,,,,,,,,,,0,0,0,0,0,0,0,0,0,0,0,0,0,0,0,0,,,,,,,,,,,
1544894,1745088666956,0.0,194.19,,-0.06,-0.11,0.84,-1,-0,0,0.85,1.12,76,4583,15.7,3.74,,13.15,1.252,100.6,,42.5,5,,,,,,,,,,,,0,0,0,0,0,0,0,0,0,0,0,0,0,0,0,0,,,,,0.0,,,,,,
1544914,1745088666976,,,,,,,,,,,,,,,,,,,,,,,0,0,0,0,0.0,0.0,0.0,0.0,2.26,,,0,0,0,0,0,0,0,0,0,0,0,0,0,0,0,0,0,,,,,39.240231,-77.965111,0.08,32,2,0.9
1544934,1745088666996,0.0,194.19,,-0.03,-0.18,0.77,0,-0,-0,0.79,1.12,70,4576,15.9,3.77,,13.11,1.251,100.6,,42.8,5,,,,,,,,,,,,0,0,0,0,0,0,0,0,0,0,0,0,0,0,0,0,,,,,0.0,,,,,,
1544954,1745088667008,,,,,,,,,,,,,,,,,,,,,,,,,,,,,,,,,,0,0,0,0,0,0,0,0,0,0,0,0,0,0,0,0,,,,,,,,,,,
1544974,1745088667028,0.0,194.32,,-0.0,-0.22,0.72,1,-0,-1,0.75,1.12,67,4539,15.9,3.73,,13.17,1.25,100.6,,42.8,5,,,,,,,,,,,,0,0,0,0,0,0,0,0,0,0,0,0,0,0,0,0,,,,,0.0,,,,,,
1544994,1745088667048,,,,,,,,,,,,,,,,,,,,,,,,,,,,,,,,,,0,0,0,0,0,0,0,0,0,0,0,0,0,0,0,0,,,,,,,,,,,
1545014,1745088667068,0.0,194.32,,0.02,-0.3,0.64,2,-0,-1,0.71,1.12,63,4495,15.9,3.77,,13.07,1.249,100.6,,42.8,5,0,0,0,0,0.0,0.0,0.0,0.0,2.26,,,0,0,0,0,0,0,0,0,0,0,0,0,0,0,0,0,0,,,,0.0,39.240231,-77.965111,0.44,32,2,0.9
1545034,1745088667094,,,,,,,,,,,,,,,,,,,,,,,,,,,,,,,,,,0,0,0,0,0,0,0,0,0,0,0,0,0,0,0,0,,,,,,,,,,,
1545054,1745088667114,0.0,194.32,,0.05,-0.35,0.61,3,-0,-2,0.71,1.12,63,4551,15.8,3.75,,13.07,1.249,100.6,,42.3,5,,,,,,,,,,,,0,0,0,0,0,0,0,0,0,0,0,0,0,0,0,0,,,,,0.0,,,,,,
1545074,1745088667134,,,,,,,,,,,,,,,,,,,,,,,,,,,,,,,,,,0,0,0,0,0,0,0,0,0,0,0,0,0,0,0,0,,,,,,,,,,,
1545094,1745088667154,0.0,194.32,,0.07,-0.34,0.63,3,-0,-2,0.72,1.12,64,4551,15.8,3.75,,13.08,1.248,100.6,,42.3,5,,,,,,,,,,,,0,0,0,0,0,0,0,0,0,0,0,0,0,0,0,0,,,,,0.0,,,,,,
1545114,1745088667174,,,,,,,,,,,,,,,,,,,,,,,0,0,0,0,0.0,0.0,0.0,0.0,2.26,,,0,0,0,0,0,0,0,0,0,0,0,0,0,0,0,0,0,,,,,39.240231,-77.965111,0.44,32,2,0.9
1545134,1745088667198,0.0,194.32,,0.09,-0.29,0.67,3,-0,-2,0.74,1.12,66,4488,15.7,3.76,,13.05,1.248,100.6,,41.5,5,,,,,,,,,,,,0,0,0,0,0,0,0,0,0,0,0,0,0,0,0,0,,,,,0.0,,,,,,
1545154,1745088667218,,,,,,,,,,,,,,,,,,,,,,,,,,,,,,,,,,0,0,0,0,0,0,0,0,0,0,0,0,0,0,0,0,,,,,,,,,,,
1545174,1745088667238,0.0,194.32,,0.1,-0.23,0.73,3,-0,-1,0.78,1.12,69,4522,15.6,3.74,,13.12,1.248,100.6,,41.5,5,,,,,,,,,,,,0,0,0,0,0,0,0,0,0,0,0,0,0,0,0,0,,,,,0.0,,,,,,
1545194,1745088667258,,,,,,,,,,,,,,,,,,,,,,,,,,,,,,,,,,0,0,0,0,0,0,0,0,0,0,0,0,0,0,0,0,,,,,,,,,,,
1545214,1745088667278,0.0,194.44,,0.09,-0.13,0.87,3,-0,-1,0.88,1.12,79,4581,15.7,3.75,,13.09,1.248,100.6,,41.5,5,0,0,0,0,0.0,0.0,0.0,0.0,2.27,,,0,0,0,0,0,0,0,0,0,0,0,0,0,0,0,0,0,,,,0.0,39.240231,-77.965111,0.05,32,2,0.9
1545234,1745088667298,,,,,,,,,,,,,,,,,,,,,,,,,,,,,,,,,,0,0,0,0,0,0,0,0,0,0,0,0,0,0,0,0,,,,,,,,,,,
1545254,1745088667318,0.0,194.32,,0.05,-0.01,0.96,1,-0,-0,0.96,1.12,86,4604,15.6,3.75,,13.09,1.248,100.6,,42.4,5,,,,,,,,,,,,0,0,0,0,0,0,0,0,0,0,0,0,0,0,0,0,,,,,0.0,,,,,,
1545274,1745088667338,,,,,,,,,,,,,,,,,,,,,,,,,,,,,,,,,,0,0,0,0,0,0,0,0,0,0,0,0,0,0,0,0,,,,,,,,,,,
1545294,1745088667358,0.0,194.32,,-0.0,0.04,1.02,0,-0,0,1.02,1.12,91,4604,15.6,3.75,,13.08,1.249,100.6,,42.4,5,,,,,,,,,,,,0,0,0,0,0,0,0,0,0,0,0,0,0,0,0,0,,,,,0.0,,,,,,
1545314,1745088667378,,,,,,,,,,,,,,,,,,,,,,,0,0,0,0,0.0,0.0,0.0,0.0,2.27,,,0,0,0,0,0,0,0,0,0,0,0,0,0,0,0,0,0,,,,,39.240231,-77.965111,0.04,32,2,0.9
1545334,1745088667396,0.0,194.32,,-0.03,0.01,0.99,-0,-0,0,0.99,1.12,88,5030,15.7,3.74,,13.08,1.252,100.6,,43.0,5,,,,,,,,,,,,0,0,0,0,0,0,0,0,0,0,0,0,0,0,0,0,,,,,0.0,,,,,,
1545354,1745088667416,,,,,,,,,,,,,,,,,,,,,,,,,,,,,,,,,,0,0,0,0,0,0,0,0,0,0,0,0,0,0,0,0,,,,,,,,,,,
1545374,1745088667436,0.0,194.32,,-0.05,-0.07,0.94,0,-0,-0,0.95,1.12,84,4533,15.7,3.73,,13.09,1.251,100.6,,43.0,5,,,,,,,,,,,,0,0,0,0,0,0,0,0,0,0,0,0,0,0,0,0,,,,,0.0,,,,,,
1545394,1745088667456,,,,,,,,,,,,,,,,,,,,,,,,,,,,,,,,,,0,0,0,0,0,0,0,0,0,0,0,0,0,0,0,0,,,,,,,,,,,
1545414,1745088667476,0.0,194.32,13.42,-0.09,-0.07,0.94,-0,-0,0,0.95,1.12,84,4414,15.8,3.81,15,13.2,1.252,100.6,151,43.0,5,0,0,0,0,0.0,0.0,0.0,0.0,2.26,0,0.0,0,0,0,0,0,0,0,0,0,0,0,0,0,0,0,0,0,0.0,0,-0,0.0,39.240231,-77.965111,0.08,32,2,0.9
1545434,1745088667495,,,,,,,,,,,,,,,,,,,,,,,,,,,,,,,,,,0,0,0,0,0,0,0,0,0,0,0,0,0,0,0,0,,,,,,,,,,,
1545454,1745088667515,0.0,194.32,,-0.13,-0.01,1.01,-1,-0,1,1.02,1.12,91,4348,15.9,3.82,,13.2,1.252,100.6,,40.5,5,,,,,,,,,,,,0,0,0,0,0,0,0,0,0,0,0,0,0,0,0,0,,,,,0.0,,,,,,
1545474,1745088667535,,,,,,,,,,,,,,,,,,,,,,,,,,,,,,,,,,0,0,0,0,0,0,0,0,0,0,0,0,0,0,0,0,,,,,,,,,,,
1545494,1745088667555,0.0,194.44,,-0.12,0.08,1.08,-1,-0,1,1.09,1.12,98,4348,15.9,3.82,,13.17,1.251,100.6,,40.5,5,,,,,,,,,,,,0,0,0,0,0,0,0,0,0,0,0,0,0,0,0,0,,,,,0.0,,,,,,
1545514,1745088667575,,,,,,,,,,,,,,,,,,,,,,,0,0,0,0,0.0,0.0,0.0,0.0,2.26,,,0,0,0,0,0,0,0,0,0,0,0,0,0,0,0,0,0,,,,,39.240231,-77.965111,0.09,32,2,0.9
1545534,1745088667595,0.0,194.44,,-0.07,0.02,1.01,-0,-0,0,1.01,1.12,90,4290,15.9,3.86,,13.15,1.249,100.6,,39.6,5,,,,,,,,,,,,0,0,0,0,0,0,0,0,0,0,0,0,0,0,0,0,,,,,0.0,,,,,,
1545554,1745088667615,,,,,,,,,,,,,,,,,,,,,,,,,,,,,,,,,,0,0,0,0,0,0,0,0,0,0,0,0,0,0,0,0,,,,,,,,,,,
1545574,1745088667635,0.0,194.32,,-0.07,-0.07,0.9,0,-0,-0,0.91,1.12,81,4339,15.7,3.87,,13.16,1.248,100.6,,39.6,5,,,,,,,,,,,,0,0,0,0,0,0,0,0,0,0,0,0,0,0,0,0,,,,,0.0,,,,,,
1545594,1745088667655,,,,,,,,,,,,,,,,,,,,,,,,,,,,,,,,,,0,0,0,0,0,0,0,0,0,0,0,0,0,0,0,0,,,,,,,,,,,
1545614,1745088667675,0.0,194.32,,-0.09,-0.02,0.94,-0,-0,0,0.95,1.12,85,4379,15.6,3.88,,13.23,1.248,100.6,,39.6,5,0,0,0,0,0.0,0.0,0.0,0.0,2.26,,,0,0,0,0,0,0,0,0,0,0,0,0,0,0,0,0,0,,,,0.0,39.240231,-77.965111,0.08,32,2,0.9
1545634,1745088667697,,,,,,,,,,,,,,,,,,,,,,,,,,,,,,,,,,0,0,0,0,0,0,0,0,0,0,0,0,0,0,0,0,,,,,,,,,,,
1545654,1745088667717,0.0,194.32,,-0.12,0.1,1.07,-1,-0,1,1.08,1.12,96,4419,15.6,3.86,,13.23,1.248,100.6,,40.2,5,,,,,,,,,,,,0,0,0,0,0,0,0,0,0,0,0,0,0,0,0,0,,,,,0.0,,,,,,
1545674,1745088667737,,,,,,,,,,,,,,,,,,,,,,,,,,,,,,,,,,0,0,0,0,0,0,0,0,0,0,0,0,0,0,0,0,,,,,,,,,,,
1545694,1745088667757,0.0,194.32,,-0.12,0.12,1.14,-1,-0,1,1.16,1.16,100,4419,15.6,3.86,,13.19,1.248,100.6,,40.2,5,,,,,,,,,,,,0,0,0,0,0,0,0,0,0,0,0,0,0,0,0,0,,,,,0.0,,,,,,
1545714,1745088667777,,,,,,,,,,,,,,,,,,,,,,,0,0,0,0,0.0,0.0,0.0,0.0,2.27,,,0,0,0,0,0,0,0,0,0,0,0,0,0,0,0,0,0,,,,,39.240231,-77.965111,0.1,32,2,0.9
1545734,1745088667795,0.0,194.32,,-0.09,0.17,1.18,-1,-0,1,1.2,1.2,100,4412,15.5,3.8,,13.19,1.249,100.6,,40.2,5,,,,,,,,,,,,0,0,0,0,0,0,0,0,0,0,0,0,0,0,0,0,,,,,0.0,,,,,,
1545754,1745088667815,,,,,,,,,,,,,,,,,,,,,,,,,,,,,,,,,,0,0,0,0,0,0,0,0,0,0,0,0,0,0,0,0,,,,,,,,,,,
1545774,1745088667835,0.0,194.32,,-0.05,0.21,1.22,-1,-0,1,1.24,1.24,100,4462,15.5,3.78,,13.16,1.251,100.6,,40.7,5,,,,,,,,,,,,0,0,0,0,0,0,0,0,0,0,0,0,0,0,0,0,,,,,0.0,,,,,,
1545794,1745088667855,,,,,,,,,,,,,,,,,,,,,,,,,,,,,,,,,,0,0,0,0,0,0,0,0,0,0,0,0,0,0,0,0,,,,,,,,,,,
1545814,1745088667875,0.0,194.32,,-0.07,0.29,1.27,-1,-0,1,1.31,1.31,100,4604,15.6,3.69,,13.19,1.25,100.6,,40.7,5,0,0,0,0,0.0,0.0,0.0,0.0,2.26,,,0,0,0,0,0,0,0,0,0,0,0,0,0,0,0,0,0,,,,0.0,39.240231,-77.965111,0.08,32,2,0.9
1545834,1745088667897,,,,,,,,,,,,,,,,,,,,,,,,,,,,,,,,,,0,0,0,0,0,0,0,0,0,0,0,0,0,0,0,0,,,,,,,,,,,
1545854,1745088667917,0.0,194.32,,-0.11,0.27,1.27,-2,-0,1,1.3,1.31,100,4630,15.8,3.7,,13.19,1.25,100.6,,43.1,5,,,,,,,,,,,,0,0,0,0,0,0,0,0,0,0,0,0,0,0,0,0,,,,,0.0,,,,,,
1545874,1745088667937,,,,,,,,,,,,,,,,,,,,,,,,,,,,,,,,,,0,0,0,0,0,0,0,0,0,0,0,0,0,0,0,0,,,,,,,,,,,
1545894,1745088667957,0.0,194.19,,-0.09,0.17,1.18,-1,-0,1,1.2,1.31,92,4630,15.8,3.7,,13.08,1.241,100.6,,43.1,5,,,,,,,,,,,,0,0,0,0,0,0,0,0,0,0,0,0,0,0,0,0,,,,,0.0,,,,,,
1545914,1745088667977,,,,,,,,,,,,,,,,,,,,,,,0,0,0,0,0.0,0.0,0.0,0.0,2.26,,,0,0,0,0,0,0,0,0,0,0,0,0,0,0,0,0,0,,,,,39.240231,-77.965111,0.05,32,2,0.9
1545934,1745088667997,0.0,194.19,,-0.07,0.19,1.21,-1,-0,1,1.22,1.31,94,4783,15.9,3.64,,13.05,1.185,100.6,,44.6,5,,,,,,,,,,,,0,0,0,0,0,0,0,0,0,0,0,0,0,0,0,0,,,,,0.0,,,,,,
1545954,1745088668009,,,,,,,,,,,,,,,,,,,,,,,,,,,,,,,,,,0,0,0,0,0,0,0,0,0,0,0,0,0,0,0,0,,,,,,,,,,,
1545974,1745088668029,0.0,194.19,,-0.11,0.18,1.17,-1,-0,1,1.19,1.31,91,4761,15.8,3.62,,13.07,1.185,100.6,,44.6,5,,,,,,,,,,,,0,0,0,0,0,0,0,0,0,0,0,0,0,0,0,0,,,,,0.0,,,,,,
1545994,1745088668049,,,,,,,,,,,,,,,,,,,,,,,,,,,,,,,,,,0,0,0,0,0,0,0,0,0,0,0,0,0,0,0,0,,,,,,,,,,,
1546014,1745088668069,0.0,194.19,,-0.07,0.08,1.11,-1,-0,1,1.11,1.31,85,4746,15.8,3.62,,13.03,1.202,100.6,,44.6,5,0,0,0,0,0.0,0.0,0.0,0.0,2.26,,,0,0,0,0,0,0,0,0,0,0,0,0,0,0,0,0,0,,,,0.0,39.240231,-77.965111,0.19,32,2,0.9
1546034,1745088668097,,,,,,,,,,,,,,,,,,,,,,,,,,,,,,,,,,0,0,0,0,0,0,0,0,0,0,0,0,0,0,0,0,,,,,,,,,,,
1546054,1745088668117,0.0,194.19,,-0.08,0.11,1.14,-1,-0,1,1.15,1.31,88,4755,15.7,3.62,,13.03,1.202,100.6,,44.4,5,,,,,,,,,,,,0,0,0,0,0,0,0,0,0,0,0,0,0,0,0,0,,,,,0.0,,,,,,
1546074,1745088668137,,,,,,,,,,,,,,,,,,,,,,,,,,,,,,,,,,0,0,0,0,0,0,0,0,0,0,0,0,0,0,0,0,,,,,,,,,,,
1546094,1745088668157,0.0,194.07,,-0.1,0.07,1.11,-1,-0,1,1.12,1.31,85,4755,15.7,3.62,,13.0,1.249,100.6,,44.4,5,,,,,,,,,,,,0,0,0,0,0,0,0,0,0,0,0,0,0,0,0,0,,,,,0.0,,,,,,
1546114,1745088668177,,,,,,,,,,,,,,,,,,,,,,,0,0,0,0,0.0,0.0,0.0,0.0,2.27,,,0,0,0,0,0,0,0,0,0,0,0,0,0,0,0,0,0,,,,,39.240231,-77.965111,0.2,32,2,0.9
1546134,1745088668195,0.0,194.19,,-0.04,0.01,1.03,-1,-0,0,1.03,1.31,79,4758,15.6,3.61,,12.99,1.249,100.6,,44.3,5,,,,,,,,,,,,0,0,0,0,0,0,0,0,0,0,0,0,0,0,0,0,,,,,0.0,,,,,,
1546154,1745088668215,,,,,,,,,,,,,,,,,,,,,,,,,,,,,,,,,,0,0,0,0,0,0,0,0,0,0,0,0,0,0,0,0,,,,,,,,,,,
1546174,1745088668235,0.0,194.19,,-0.04,0.05,1.08,-1,-0,1,1.09,1.31,83,4777,15.6,3.6,,12.97,1.249,100.6,,44.3,5,,,,,,,,,,,,0,0,0,0,0,0,0,0,0,0,0,0,0,0,0,0,,,,,0.0,,,,,,
1546194,1745088668255,,,,,,,,,,,,,,,,,,,,,,,,,,,,,,,,,,0,0,0,0,0,0,0,0,0,0,0,0,0,0,0,0,,,,,,,,,,,
1546214,1745088668275,0.0,194.19,,-0.06,0.02,1.06,-1,-0,1,1.06,1.31,81,4781,15.6,3.61,,13.01,1.251,100.6,,44.3,5,0,0,0,0,0.0,0.0,0.0,0.0,2.26,,,0,0,0,0,0,0,0,0,0,0,0,0,0,0,0,0,0,,,,0.0,39.240231,-77.965111,0.11,32,2,0.9
1546234,1745088668297,,,,,,,,,,,,,,,,,,,,,,,,,,,,,,,,,,0,0,0,0,0,0,0,0,0,0,0,0,0,0,0,0,,,,,,,,,,,
1546254,1745088668317,0.0,194.19,,-0.03,-0.0,1.02,-1,-0,1,1.02,1.31,78,4777,15.6,3.61,,13.01,1.251,100.6,,44.5,5,,,,,,,,,,,,0,0,0,0,0,0,0,0,0,0,0,0,0,0,0,0,,,,,0.0,,,,,,
1546274,1745088668337,,,,,,,,,,,,,,,,,,,,,,,,,,,,,,,,,,0,0,0,0,0,0,0,0,0,0,0,0,0,0,0,0,,,,,,,,,,,
1546294,1745088668357,0.0,194.19,,-0.06,0.08,1.07,-1,-0,1,1.07,1.31,82,4777,15.6,3.61,,13.03,1.252,100.6,,44.5,5,,,,,,,,,,,,0,0,0,0,0,0,0,0,0,0,0,0,0,0,0,0,,,,,0.0,,,,,,
1546314,1745088668377,,,,,,,,,,,,,,,,,,,,,,,0,0,0,0,0.0,0.0,0.0,0.0,2.26,,,0,0,0,0,0,0,0,0,0,0,0,0,0,0,0,0,0,,,,,39.240231,-77.965111,0.31,32,2,0.9
1546334,1745088668397,0.0,194.32,,-0.06,0.06,1.02,-1,-0,1,1.02,1.31,78,4725,15.7,3.63,,13.04,1.25,100.6,,44.3,5,,,,,,,,,,,,0,0,0,0,0,0,0,0,0,0,0,0,0,0,0,0,,,,,0.0,,,,,,
1546354,1745088668417,,,,,,,,,,,,,,,,,,,,,,,,,,,,,,,,,,0,0,0,0,0,0,0,0,0,0,0,0,0,0,0,0,,,,,,,,,,,
1546374,1745088668437,0.0,194.19,,-0.03,0.06,1.0,-0,-0,0,1.0,1.31,77,4763,15.7,3.64,,13.0,1.25,100.6,,44.3,5,,,,,,,,,,,,0,0,0,0,0,0,0,0,0,0,0,0,0,0,0,0,,,,,0.0,,,,,,
1546394,1745088668457,,,,,,,,,,,,,,,,,,,,,,,,,,,,,,,,,,0,0,0,0,0,0,0,0,0,0,0,0,0,0,0,0,,,,,,,,,,,
1546414,1745088668477,0.0,194.19,13.46,-0.07,0.12,1.04,-1,-0,1,1.05,1.31,80,4785,13.4,3.54,15,12.88,1.249,100.6,151,44.3,5,0,0,0,0,0.0,0.0,0.0,0.0,2.26,0,0.0,0,0,0,0,0,0,0,0,0,0,0,0,0,0,0,0,0,0.0,0,-0,0.0,39.240231,-77.965111,0.38,32,2,0.9
1546434,1745088668494,,,,,,,,,,,,,,,,,,,,,,,,,,,,,,,,,,0,0,0,0,0,0,0,0,0,0,0,0,0,0,0,0,,,,,,,,,,,
1546454,1745088668514,0.0,194.32,,-0.05,0.05,0.97,-0,-0,0,0.97,1.31,74,4739,12.2,3.4,,12.88,1.249,100.6,,44.5,5,,,,,,,,,,,,0,0,0,0,0,0,0,0,0,0,0,0,0,0,0,0,,,,,0.0,,,,,,
1546474,1745088668534,,,,,,,,,,,,,,,,,,,,,,,,,,,,,,,,,,0,0,0,0,0,0,0,0,0,0,0,0,0,0,0,0,,,,,,,,,,,
1546494,1745088668554,0.0,194.32,,-0.01,0.05,0.97,0,-0,0,0.97,1.31,74,4739,12.2,3.4,,12.75,1.248,100.6,,44.5,5,,,,,,,,,,,,0,0,0,0,0,0,0,0,0,0,0,0,0,0,0,0,,,,,0.0,,,,,,
1546514,1745088668574,,,,,,,,,,,,,,,,,,,,,,,0,0,0,0,0.0,0.0,0.0,0.0,2.26,,,0,0,0,0,0,0,0,0,0,0,0,0,0,0,0,0,0,,,,,39.240231,-77.965111,0.04,32,2,0.9
1546534,1745088668594,0.0,194.32,,-0.05,0.12,1.04,-0,-0,0,1.05,1.31,80,4723,11.9,3.42,,12.69,1.248,100.6,,43.3,5,,,,,,,,,,,,0,0,0,0,0,0,0,0,0,0,0,0,0,0,0,0,,,,,0.0,,,,,,
1546554,1745088668614,,,,,,,,,,,,,,,,,,,,,,,,,,,,,,,,,,0,0,0,0,0,0,0,0,0,0,0,0,0,0,0,0,,,,,,,,,,,
1546574,1745088668634,0.0,194.32,,-0.1,0.19,1.07,-1,-0,1,1.09,1.31,84,4657,11.7,3.42,,12.69,1.249,100.6,,43.3,5,,,,,,,,,,,,0,0,0,0,0,0,0,0,0,0,0,0,0,0,0,0,,,,,0.0,,,,,,
1546594,1745088668654,,,,,,,,,,,,,,,,,,,,,,,,,,,,,,,,,,0,0,0,0,0,0,0,0,0,0,0,0,0,0,0,0,,,,,,,,,,,
1546614,1745088668674,0.0,194.32,,-0.12,0.19,1.05,-1,-0,1,1.07,1.31,82,4607,11.6,3.45,,12.71,1.249,100.6,,43.3,5,0,0,0,0,0.0,0.0,0.0,0.0,2.27,,,0,0,0,0,0,0,0,0,0,0,0,0,0,0,0,0,0,,,,0.0,39.240231,-77.965111,0.07,32,2,0.9
1546634,1745088668694,,,,,,,,,,,,,,,,,,,,,,,,,,,,,,,,,,0,0,0,0,0,0,0,0,0,0,0,0,0,0,0,0,,,,,,,,,,,
1546654,1745088668714,0.0,194.44,,-0.12,0.07,0.96,-1,-0,0,0.97,1.31,74,4579,11.6,3.45,,12.71,1.249,100.6,,42.7,5,,,,,,,,,,,,0,0,0,0,0,0,0,0,0,0,0,0,0,0,0,0,,,,,0.0,,,,,,
1546674,1745088668734,,,,,,,,,,,,,,,,,,,,,,,,,,,,,,,,,,0,0,0,0,0,0,0,0,0,0,0,0,0,0,0,0,,,,,,,,,,,
1546694,1745088668754,0.0,194.32,,-0.08,-0.01,0.89,-0,-0,0,0.89,1.31,68,4579,11.6,3.45,,12.71,1.25,100.6,,42.7,5,,,,,,,,,,,,0,0,0,0,0,0,0,0,0,0,0,0,0,0,0,0,,,,,0.0,,,,,,
1546714,1745088668774,,,,,,,,,,,,,,,,,,,,,,,0,0,0,0,0.0,0.0,0.0,0.0,2.27,,,0,0,0,0,0,0,0,0,0,0,0,0,0,0,0,0,0,,,,,39.240231,-77.965111,0.07,32,2,0.9
1546734,1745088668792,0.0,194.32,,-0.05,-0.1,0.81,1,-0,-1,0.81,1.31,62,4577,11.6,3.48,,12.72,1.252,100.6,,42.5,5,,,,,,,,,,,,0,0,0,0,0,0,0,0,0,0,0,0,0,0,0,0,,,,,0.0,,,,,,
1546754,1745088668812,,,,,,,,,,,,,,,,,,,,,,,,,,,,,,,,,,0,0,0,0,0,0,0,0,0,0,0,0,0,0,0,0,,,,,,,,,,,
1546774,1745088668832,0.0,194.32,,-0.01,-0.16,0.74,1,-0,-1,0.76,1.31,58,4486,11.7,3.49,,12.8,1.252,100.6,,42.5,5,,,,,,,,,,,,0,0,0,0,0,0,0,0,0,0,0,0,0,0,0,0,,,,,0.0,,,,,,
1546794,1745088668852,,,,,,,,,,,,,,,,,,,,,,,,,,,,,,,,,,0,0,0,0,0,0,0,0,0,0,0,0,0,0,0,0,,,,,,,,,,,
1546814,1745088668872,0.0,194.32,,0.02,-0.25,0.66,2,-0,-1,0.71,1.31,54,4427,11.8,3.52,,12.76,1.252,100.6,,42.5,5,0,0,0,0,0.0,0.0,0.0,0.0,2.26,,,0,0,0,0,0,0,0,0,0,0,0,0,0,0,0,0,0,,,,0.0,39.240231,-77.965111,0.0,32,2,0.9
1546834,1745088668896,,,,,,,,,,,,,,,,,,,,,,,,,,,,,,,,,,0,0,0,0,0,0,0,0,0,0,0,0,0,0,0,0,,,,,,,,,,,
1546854,1745088668916,0.0,194.44,,0.03,-0.3,0.63,2,-0,-1,0.7,1.31,54,4354,11.8,3.59,,12.76,1.252,100.6,,40.8,5,,,,,,,,,,,,0,0,0,0,0,0,0,0,0,0,0,0,0,0,0,0,,,,,0.0,,,,,,
1546874,1745088668936,,,,,,,,,,,,,,,,,,,,,,,,,,,,,,,,,,0,0,0,0,0,0,0,0,0,0,0,0,0,0,0,0,,,,,,,,,,,
1546894,1745088668956,0.0,194.44,,-0.02,-0.3,0.63,2,-0,-1,0.7,1.31,54,4354,11.8,3.59,,12.8,1.25,100.6,,40.8,5,,,,,,,,,,,,0,0,0,0,0,0,0,0,0,0,0,0,0,0,0,0,,,,,0.0,,,,,,
1546914,1745088668976,,,,,,,,,,,,,,,,,,,,,,,0,0,0,0,0.0,0.0,0.0,0.0,2.26,,,0,0,0,0,0,0,0,0,0,0,0,0,0,0,0,0,0,,,,,39.240231,-77.965111,0.11,32,2,0.9
1546934,1745088668996,0.0,194.44,,-0.07,-0.21,0.72,1,-0,-1,0.75,1.31,57,4423,11.8,3.61,,12.83,1.249,100.6,,40.4,5,,,,,,,,,,,,0,0,0,0,0,0,0,0,0,0,0,0,0,0,0,0,,,,,0.0,,,,,,
1546954,1745088669006,,,,,,,,,,,,,,,,,,,,,,,,,,,,,,,,,,0,0,0,0,0,0,0,0,0,0,0,0,0,0,0,0,,,,,,,,,,,
1546974,1745088669026,0.0,194.32,,-0.12,-0.11,0.85,-0,-0,-0,0.86,1.31,66,4406,11.7,3.61,,12.72,1.248,100.6,,40.4,5,,,,,,,,,,,,0,0,0,0,0,0,0,0,0,0,0,0,0,0,0,0,,,,,0.0,,,,,,
1546994,1745088669046,,,,,,,,,,,,,,,,,,,,,,,,,,,,,,,,,,0,0,0,0,0,0,0,0,0,0,0,0,0,0,0,0,,,,,,,,,,,
1547014,1745088669066,0.0,194.32,,-0.15,-0.05,0.95,-1,-0,0,0.97,1.31,74,4498,11.4,3.56,,12.83,1.248,100.6,,40.4,5,0,0,0,0,0.0,0.0,0.0,0.0,2.27,,,0,0,0,0,0,0,0,0,0,0,0,0,0,0,0,0,0,,,,0.0,39.240231,-77.965111,0.04,32,2,0.9
1547034,1745088669092,,,,,,,,,,,,,,,,,,,,,,,,,,,,,,,,,,0,0,0,0,0,0,0,0,0,0,0,0,0,0,0,0,,,,,,,,,,,
1547054,1745088669112,0.0,194.44,,-0.16,0.06,1.06,-1,-0,1,1.07,1.31,82,4505,11.4,3.51,,12.83,1.248,100.6,,41.4,5,,,,,,,,,,,,0,0,0,0,0,0,0,0,0,0,0,0,0,0,0,0,,,,,0.0,,,,,,
1547074,1745088669132,,,,,,,,,,,,,,,,,,,,,,,,,,,,,,,,,,0,0,0,0,0,0,0,0,0,0,0,0,0,0,0,0,,,,,,,,,,,
1547094,1745088669152,0.0,194.44,,-0.16,0.12,1.15,-2,-0,1,1.17,1.31,89,4505,11.4,3.51,,12.81,1.208,98.8,,41.4,5,,,,,,,,,,,,0,0,0,0,0,0,0,0,0,0,0,0,0,0,0,0,,,,,0.0,,,,,,
1547114,1745088669172,,,,,,,,,,,,,,,,,,,,,,,0,0,0,0,0.0,0.0,0.0,0.0,2.27,,,0,0,0,0,0,0,0,0,0,0,0,0,0,0,0,0,0,,,,,39.240231,-77.965111,0.04,32,2,0.9
1547134,1745088669196,0.0,194.32,,-0.14,0.2,1.22,-1,-0,1,1.25,1.31,95,4447,11.4,3.51,,12.8,1.225,98.8,,41.4,5,,,,,,,,,,,,0,0,0,0,0,0,0,0,0,0,0,0,0,0,0,0,,,,,0.0,,,,,,
1547154,1745088669216,,,,,,,,,,,,,,,,,,,,,,,,,,,,,,,,,,0,0,0,0,0,0,0,0,0,0,0,0,0,0,0,0,,,,,,,,,,,
1547174,1745088669236,0.0,194.32,,-0.12,0.23,1.27,-1,-0,1,1.29,1.31,99,4458,11.4,3.54,,12.95,1.225,98.8,,40.8,5,,,,,,,,,,,,0,0,0,0,0,0,0,0,0,0,0,0,0,0,0,0,,,,,0.0,,,,,,
1547194,1745088669256,,,,,,,,,,,,,,,,,,,,,,,,,,,,,,,,,,0,0,0,0,0,0,0,0,0,0,0,0,0,0,0,0,,,,,,,,,,,
1547214,1745088669276,0.0,194.32,,-0.1,0.3,1.32,-1,-0,1,1.35,1.35,100,4477,11.5,3.49,,12.95,1.225,98.8,,40.8,5,0,0,0,0,0.0,0.0,0.0,0.0,2.27,,,0,0,0,0,0,0,0,0,0,0,0,0,0,0,0,0,0,,,,0.0,39.240231,-77.965111,0.11,32,2,0.9
1547234,1745088669296,,,,,,,,,,,,,,,,,,,,,,,,,,,,,,,,,,0,0,0,0,0,0,0,0,0,0,0,0,0,0,0,0,,,,,,,,,,,
1547254,1745088669316,0.0,194.44,,-0.07,0.34,1.36,-1,-0,1,1.4,1.4,100,4477,11.5,3.49,,12.83,1.212,98.8,,40.8,5,,,,,,,,,,,,0,0,0,0,0,0,0,0,0,0,0,0,0,0,0,0,,,,,0.0,,,,,,
1547274,1745088669336,,,,,,,,,,,,,,,,,,,,,,,,,,,,,,,,,,0,0,0,0,0,0,0,0,0,0,0,0,0,0,0,0,,,,,,,,,,,
1547294,1745088669356,0.0,194.32,,-0.07,0.39,1.39,-1,-0,1,1.45,1.45,100,4507,11.6,3.52,,12.79,1.164,98.8,,40.8,5,,,,,,,,,,,,0,0,0,0,0,0,0,0,0,0,0,0,0,0,0,0,,,,,0.0,,,,,,
1547314,1745088669376,,,,,,,,,,,,,,,,,,,,,,,0,0,0,0,0.0,0.0,0.0,0.0,2.26,,,0,0,0,0,0,0,0,0,0,0,0,0,0,0,0,0,0,,,,,39.240231,-77.965111,0.0,32,2,0.9
1547334,1745088669396,0.0,194.32,,-0.08,0.43,1.43,-1,-0,1,1.5,1.5,100,4617,11.7,3.49,,12.85,1.189,98.8,,42.1,5,,,,,,,,,,,,0,0,0,0,0,0,0,0,0,0,0,0,0,0,0,0,,,,,0.0,,,,,,
1547354,1745088669416,,,,,,,,,,,,,,,,,,,,,,,,,,,,,,,,,,0,0,0,0,0,0,0,0,0,0,0,0,0,0,0,0,,,,,,,,,,,
1547374,1745088669436,0.0,194.32,,-0.1,0.45,1.47,-2,-0,2,1.54,1.54,100,4586,11.7,3.5,,12.81,1.191,98.8,,42.1,5,,,,,,,,,,,,0,0,0,0,0,0,0,0,0,0,0,0,0,0,0,0,,,,,0.0,,,,,,
1547394,1745088669456,,,,,,,,,,,,,,,,,,,,,,,,,,,,,,,,,,0,0,0,0,0,0,0,0,0,0,0,0,0,0,0,0,,,,,,,,,,,
1547414,1745088669476,0.0,194.19,13.44,-0.14,0.44,1.5,-3,-0,2,1.57,1.57,100,4499,11.8,3.52,15,12.87,1.196,98.8,151,42.1,5,0,0,0,0,0.0,0.0,0.0,0.0,2.26,0,0.0,0,0,0,0,0,0,0,0,0,0,0,0,0,0,0,0,0,0.0,0,0,0.0,39.240231,-77.965111,0.09,32,2,0.9
1547434,1745088669493,,,,,,,,,,,,,,,,,,,,,,,,,,,,,,,,,,0,0,0,0,0,0,0,0,0,0,0,0,0,0,0,0,,,,,,,,,,,
1547454,1745088669513,0.0,194.19,,-0.14,0.47,1.55,-3,-0,2,1.62,1.62,100,4468,12.0,3.59,,12.87,1.196,98.8,,41.2,5,,,,,,,,,,,,0,0,0,0,0,0,0,0,0,0,0,0,0,0,0,0,,,,,0.0,,,,,,
1547474,1745088669533,,,,,,,,,,,,,,,,,,,,,,,,,,,,,,,,,,0,0,0,0,0,0,0,0,0,0,0,0,0,0,0,0,,,,,,,,,,,
1547494,1745088669553,0.0,194.32,,-0.13,0.46,1.56,-3,-0,2,1.63,1.63,100,4468,12.0,3.59,,12.91,1.216,98.8,,41.2,5,,,,,,,,,,,,0,0,0,0,0,0,0,0,0,0,0,0,0,0,0,0,,,,,0.0,,,,,,
1547514,1745088669573,,,,,,,,,,,,,,,,,,,,,,,0,0,0,0,0.0,0.0,0.0,0.0,2.27,,,0,0,0,0,0,0,0,0,0,0,0,0,0,0,0,0,0,,,,,39.240231,-77.965111,0.04,32,2,0.9
1547534,1745088669591,0.0,194.32,,-0.08,0.43,1.48,-3,-0,2,1.55,1.63,95,4404,12.2,3.59,,12.93,1.248,98.8,,41.2,5,,,,,,,,,,,,0,0,0,0,0,0,0,0,0,0,0,0,0,0,0,0,,,,,0.0,,,,,,
1547554,1745088669611,,,,,,,,,,,,,,,,,,,,,,,,,,,,,,,,,,0,0,0,0,0,0,0,0,0,0,0,0,0,0,0,0,,,,,,,,,,,
1547574,1745088669631,0.0,194.32,,-0.03,0.36,1.37,-2,-0,2,1.41,1.63,87,4395,12.3,3.6,,12.92,1.25,98.8,,40.2,5,,,,,,,,,,,,0,0,0,0,0,0,0,0,0,0,0,0,0,0,0,0,,,,,0.0,,,,,,
1547594,1745088669651,,,,,,,,,,,,,,,,,,,,,,,,,,,,,,,,,,0,0,0,0,0,0,0,0,0,0,0,0,0,0,0,0,,,,,,,,,,,
1547614,1745088669671,0.0,194.32,,0.01,0.24,1.23,-1,-0,1,1.26,1.63,77,4435,12.4,3.6,,12.92,1.251,98.8,,40.2,5,0,0,0,0,0.0,0.0,0.0,0.0,2.27,,,0,0,0,0,0,0,0,0,0,0,0,0,0,0,0,0,0,,,,0.0,39.240231,-77.965111,0.0,32,2,0.9
1547634,1745088669693,,,,,,,,,,,,,,,,,,,,,,,,,,,,,,,,,,0,0,0,0,0,0,0,0,0,0,0,0,0,0,0,0,,,,,,,,,,,
1547654,1745088669713,0.0,194.32,,0.05,0.17,1.11,-0,-0,0,1.12,1.63,69,4531,12.6,3.61,,12.92,1.251,98.8,,40.8,5,,,,,,,,,,,,0,0,0,0,0,0,0,0,0,0,0,0,0,0,0,0,,,,,0.0,,,,,,
1547674,1745088669733,,,,,,,,,,,,,,,,,,,,,,,,,,,,,,,,,,0,0,0,0,0,0,0,0,0,0,0,0,0,0,0,0,,,,,,,,,,,
1547694,1745088669753,0.0,194.32,,0.07,0.05,1.01,1,-0,-0,1.01,1.63,62,4531,12.6,3.61,,12.92,1.252,98.8,,40.8,5,,,,,,,,,,,,0,0,0,0,0,0,0,0,0,0,0,0,0,0,0,0,,,,,0.0,,,,,,
1547714,1745088669773,,,,,,,,,,,,,,,,,,,,,,,0,0,0,0,0.0,0.0,0.0,0.0,2.26,,,0,0,0,0,0,0,0,0,0,0,0,0,0,0,0,0,0,,,,,39.240231,-77.965111,0.08,32,2,0.9
1547734,1745088669793,0.0,194.32,,0.1,-0.0,0.91,2,-0,-1,0.92,1.63,56,4508,12.7,3.65,,12.89,1.251,98.8,,41.3,5,,,,,,,,,,,,0,0,0,0,0,0,0,0,0,0,0,0,0,0,0,0,,,,,0.0,,,,,,
1547754,1745088669813,,,,,,,,,,,,,,,,,,,,,,,,,,,,,,,,,,0,0,0,0,0,0,0,0,0,0,0,0,0,0,0,0,,,,,,,,,,,
1547774,1745088669833,0.0,194.19,,0.11,-0.11,0.83,2,-0,-1,0.84,1.63,52,4460,12.9,3.65,,12.99,1.25,98.8,,41.3,5,,,,,,,,,,,,0,0,0,0,0,0,0,0,0,0,0,0,0,0,0,0,,,,,0.0,,,,,,
1547794,1745088669853,,,,,,,,,,,,,,,,,,,,,,,,,,,,,,,,,,0,0,0,0,0,0,0,0,0,0,0,0,0,0,0,0,,,,,,,,,,,
1547814,1745088669873,0.0,194.19,,0.09,-0.14,0.78,2,-0,-1,0.8,1.63,49,4415,12.9,3.67,,12.96,1.25,98.8,,41.3,5,0,0,0,0,0.0,0.0,0.0,0.0,2.26,,,0,0,0,0,0,0,0,0,0,0,0,0,0,0,0,0,0,,,,0.0,39.240231,-77.965111,0.11,32,2,0.9
1547834,1745088669895,,,,,,,,,,,,,,,,,,,,,,,,,,,,,,,,,,0,0,0,0,0,0,0,0,0,0,0,0,0,0,0,0,,,,,,,,,,,
1547854,1745088669915,0.0,194.19,,0.04,-0.16,0.78,2,-0,-1,0.8,1.63,49,4411,12.8,3.66,,12.96,1.25,98.8,,40.7,5,,,,,,,,,,,,0,0,0,0,0,0,0,0,0,0,0,0,0,0,0,0,,,,,0.0,,,,,,
1547874,1745088669935,,,,,,,,,,,,,,,,,,,,,,,,,,,,,,,,,,0,0,0,0,0,0,0,0,0,0,0,0,0,0,0,0,,,,,,,,,,,
1547894,1745088669955,0.0,194.32,,-0.02,-0.06,0.86,1,-0,-1,0.86,1.63,53,4411,12.8,3.66,,12.95,1.249,98.8,,40.7,5,,,,,,,,,,,,0,0,0,0,0,0,0,0,0,0,0,0,0,0,0,0,,,,,0.0,,,,,,
1547914,1745088669975,,,,,,,,,,,,,,,,,,,,,,,0,0,0,0,0.0,0.0,0.0,0.0,2.26,,,0,0,0,0,0,0,0,0,0,0,0,0,0,0,0,0,0,,,,,39.240231,-77.965111,0.04,32,2,0.9
1547934,1745088669995,0.0,194.19,,-0.08,0.01,0.97,0,-0,-0,0.97,1.63,60,4405,12.7,3.66,,13.03,1.25,98.8,,40.0,5,,,,,,,,,,,,0,0,0,0,0,0,0,0,0,0,0,0,0,0,0,0,,,,,0.0,,,,,,
1547954,1745088670007,,,,,,,,,,,,,,,,,,,,,,,,,,,,,,,,,,0,0,0,0,0,0,0,0,0,0,0,0,0,0,0,0,,,,,,,,,,,
1547974,1745088670027,0.0,194.19,,-0.08,0.09,1.06,-0,-0,0,1.07,1.63,65,4374,12.7,3.69,,12.93,1.249,98.8,,40.0,5,,,,,,,,,,,,0,0,0,0,0,0,0,0,0,0,0,0,0,0,0,0,,,,,0.0,,,,,,
1547994,1745088670047,,,,,,,,,,,,,,,,,,,,,,,,,,,,,,,,,,0,0,0,0,0,0,0,0,0,0,0,0,0,0,0,0,,,,,,,,,,,
1548014,1745088670067,0.0,194.19,,-0.05,0.12,1.09,-0,-0,0,1.1,1.63,67,4413,12.7,3.68,,12.92,1.249,98.8,,40.0,5,0,0,0,0,0.0,0.0,0.0,0.0,2.27,,,0,0,0,0,0,0,0,0,0,0,0,0,0,0,0,0,0,,,,0.0,39.240231,-77.965111,0.13,32,2,0.9
1548034,1745088670095,,,,,,,,,,,,,,,,,,,,,,,,,,,,,,,,,,0,0,0,0,0,0,0,0,0,0,0,0,0,0,0,0,,,,,,,,,,,
1548054,1745088670115,0.0,194.32,,-0.01,0.08,1.02,1,-0,-0,1.03,1.63,63,4408,12.7,3.69,,12.92,1.249,98.8,,40.3,5,,,,,,,,,,,,0,0,0,0,0,0,0,0,0,0,0,0,0,0,0,0,,,,,0.0,,,,,,
1548074,1745088670135,,,,,,,,,,,,,,,,,,,,,,,,,,,,,,,,,,0,0,0,0,0,0,0,0,0,0,0,0,0,0,0,0,,,,,,,,,,,
1548094,1745088670155,0.0,194.19,,0.03,0.02,0.93,1,-0,-1,0.93,1.63,57,4408,12.7,3.69,,13.0,1.25,98.8,,40.3,5,,,,,,,,,,,,0,0,0,0,0,0,0,0,0,0,0,0,0,0,0,0,,,,,0.0,,,,,,
1548114,1745088670175,,,,,,,,,,,,,,,,,,,,,,,0,0,0,0,0.0,0.0,0.0,0.0,2.27,,,0,0,0,0,0,0,0,0,0,0,0,0,0,0,0,0,0,,,,,39.240231,-77.965111,0.05,32,2,0.9
1548134,1745088670197,0.0,194.19,,0.01,-0.07,0.85,1,-0,-1,0.85,1.63,52,4391,12.7,3.68,,13.01,1.252,98.8,,39.9,5,,,,,,,,,,,,0,0,0,0,0,0,0,0,0,0,0,0,0,0,0,0,,,,,0.0,,,,,,
1548154,1745088670217,,,,,,,,,,,,,,,,,,,,,,,,,,,,,,,,,,0,0,0,0,0,0,0,0,0,0,0,0,0,0,0,0,,,,,,,,,,,
1548174,1745088670237,0.0,194.19,,-0.02,-0.04,0.88,1,-0,-0,0.88,1.63,54,4364,12.9,3.68,,13.0,1.252,98.8,,39.9,5,,,,,,,,,,,,0,0,0,0,0,0,0,0,0,0,0,0,0,0,0,0,,,,,0.0,,,,,,
1548194,1745088670257,,,,,,,,,,,,,,,,,,,,,,,,,,,,,,,,,,0,0,0,0,0,0,0,0,0,0,0,0,0,0,0,0,,,,,,,,,,,
1548214,1745088670277,0.0,194.32,,-0.07,0.08,0.99,-0,-0,0,0.99,1.63,61,4377,12.9,3.69,,13.0,1.252,98.8,,39.9,5,0,0,0,0,0.0,0.0,0.0,0.0,2.26,,,0,0,0,0,0,0,0,0,0,0,0,0,0,0,0,0,0,,,,0.0,39.240231,-77.965111,0.07,32,2,0.9
1548234,1745088670297,,,,,,,,,,,,,,,,,,,,,,,,,,,,,,,,,,0,0,0,0,0,0,0,0,0,0,0,0,0,0,0,0,,,,,,,,,,,
1548254,1745088670317,0.0,194.32,,-0.07,0.1,1.07,-0,-0,0,1.08,1.63,66,4377,12.9,3.69,,13.0,1.252,98.8,,39.5,5,,,,,,,,,,,,0,0,0,0,0,0,0,0,0,0,0,0,0,0,0,0,,,,,0.0,,,,,,
1548274,1745088670337,,,,,,,,,,,,,,,,,,,,,,,,,,,,,,,,,,0,0,0,0,0,0,0,0,0,0,0,0,0,0,0,0,,,,,,,,,,,
1548294,1745088670357,0.0,194.32,,-0.03,0.11,1.02,0,-0,-0,1.02,1.63,63,4331,12.9,3.74,,13.0,1.25,98.8,,39.5,5,,,,,,,,,,,,0,0,0,0,0,0,0,0,0,0,0,0,0,0,0,0,,,,,0.0,,,,,,
1548314,1745088670377,,,,,,,,,,,,,,,,,,,,,,,0,0,0,0,0.0,0.0,0.0,0.0,2.26,,,0,0,0,0,0,0,0,0,0,0,0,0,0,0,0,0,0,,,,,39.240231,-77.965111,0.06,32,2,0.9
1548334,1745088670397,0.0,194.32,,0.01,0.01,0.92,1,-0,-1,0.92,1.63,56,4388,12.9,3.74,,12.96,1.248,98.8,,40.0,5,,,,,,,,,,,,0,0,0,0,0,0,0,0,0,0,0,0,0,0,0,0,,,,,0.0,,,,,,
1548354,1745088670417,,,,,,,,,,,,,,,,,,,,,,,,,,,,,,,,,,0,0,0,0,0,0,0,0,0,0,0,0,0,0,0,0,,,,,,,,,,,
1548374,1745088670437,0.0,194.19,,0.01,-0.1,0.84,1,-0,-1,0.85,1.63,52,4433,12.9,3.75,,12.99,1.248,98.8,,40.0,5,,,,,,,,,,,,0,0,0,0,0,0,0,0,0,0,0,0,0,0,0,0,,,,,0.0,,,,,,
1548394,1745088670457,,,,,,,,,,,,,,,,,,,,,,,,,,,,,,,,,,0,0,0,0,0,0,0,0,0,0,0,0,0,0,0,0,,,,,,,,,,,
1548414,1745088670477,0.0,194.19,13.44,-0.02,-0.11,0.85,0,-0,-0,0.86,1.63,53,4387,13.1,3.74,15,13.09,1.25,98.8,151,40.0,5,0,0,0,0,0.0,0.0,0.0,0.0,2.26,0,0.0,0,0,0,0,0,0,0,0,0,0,0,0,0,0,0,0,0,0.0,0,-0,0.0,39.240231,-77.965111,0.14,32,2,0.9
1548434,1745088670492,,,,,,,,,,,,,,,,,,,,,,,,,,,,,,,,,,0,0,0,0,0,0,0,0,0,0,0,0,0,0,0,0,,,,,,,,,,,
1548454,1745088670512,0.0,194.32,,-0.09,-0.06,0.91,-1,-0,0,0.92,1.63,56,4364,13.1,3.74,,13.09,1.25,98.8,,40.2,5,,,,,,,,,,,,0,0,0,0,0,0,0,0,0,0,0,0,0,0,0,0,,,,,0.0,,,,,,
1548474,1745088670532,,,,,,,,,,,,,,,,,,,,,,,,,,,,,,,,,,0,0,0,0,0,0,0,0,0,0,0,0,0,0,0,0,,,,,,,,,,,
1548494,1745088670552,0.0,194.19,,-0.11,0.06,1.03,-1,-0,1,1.04,1.63,64,4364,13.1,3.74,,13.04,1.249,98.8,,40.2,5,,,,,,,,,,,,0,0,0,0,0,0,0,0,0,0,0,0,0,0,0,0,,,,,0.0,,,,,,
1548514,1745088670572,,,,,,,,,,,,,,,,,,,,,,,0,0,0,0,0.0,0.0,0.0,0.0,2.27,,,0,0,0,0,0,0,0,0,0,0,0,0,0,0,0,0,0,,,,,39.240231,-77.965111,0.14,32,2,0.9
1548534,1745088670592,0.0,194.32,,-0.07,0.06,1.02,-0,-0,0,1.03,1.63,63,4346,13.2,3.76,,13.03,1.25,98.8,,39.6,5,,,,,,,,,,,,0,0,0,0,0,0,0,0,0,0,0,0,0,0,0,0,,,,,0.0,,,,,,
1548554,1745088670612,,,,,,,,,,,,,,,,,,,,,,,,,,,,,,,,,,0,0,0,0,0,0,0,0,0,0,0,0,0,0,0,0,,,,,,,,,,,
1548574,1745088670632,0.0,194.32,,-0.03,-0.03,0.95,1,-0,-0,0.95,1.63,58,4416,13.2,3.75,,13.07,1.252,98.8,,39.6,5,,,,,,,,,,,,0,0,0,0,0,0,0,0,0,0,0,0,0,0,0,0,,,,,0.0,,,,,,
1548594,1745088670652,,,,,,,,,,,,,,,,,,,,,,,,,,,,,,,,,,0,0,0,0,0,0,0,0,0,0,0,0,0,0,0,0,,,,,,,,,,,
1548614,1745088670672,0.0,194.32,,-0.0,-0.11,0.88,1,-0,-1,0.89,1.63,55,4449,13.4,3.75,,13.04,1.252,98.8,,39.6,5,0,0,0,0,0.0,0.0,0.0,0.0,2.26,,,0,0,0,0,0,0,0,0,0,0,0,0,0,0,0,0,0,,,,0.0,39.240231,-77.965111,0.08,32,2,0.9
1548634,1745088670692,,,,,,,,,,,,,,,,,,,,,,,,,,,,,,,,,,0,0,0,0,0,0,0,0,0,0,0,0,0,0,0,0,,,,,,,,,,,
1548654,1745088670712,0.0,194.19,,-0.03,-0.18,0.82,1,-0,-1,0.84,1.63,52,4473,13.5,3.76,,13.04,1.252,98.8,,40.9,5,,,,,,,,,,,,0,0,0,0,0,0,0,0,0,0,0,0,0,0,0,0,,,,,0.0,,,,,,
1548674,1745088670732,,,,,,,,,,,,,,,,,,,,,,,,,,,,,,,,,,0,0,0,0,0,0,0,0,0,0,0,0,0,0,0,0,,,,,,,,,,,
1548694,1745088670752,0.0,194.19,,-0.05,-0.15,0.81,1,-0,-1,0.83,1.63,51,4473,13.5,3.76,,12.99,1.252,98.8,,40.9,5,,,,,,,,,,,,0,0,0,0,0,0,0,0,0,0,0,0,0,0,0,0,,,,,0.0,,,,,,
1548714,1745088670772,,,,,,,,,,,,,,,,,,,,,,,0,0,0,0,0.0,0.0,0.0,0.0,2.26,,,0,0,0,0,0,0,0,0,0,0,0,0,0,0,0,0,0,,,,,39.240231,-77.965111,0.11,32,2,0.9
1548734,1745088670792,0.0,194.19,,-0.06,-0.23,0.75,2,-0,-1,0.79,1.63,48,4616,13.5,3.78,,13.03,1.251,98.8,,42.4,5,,,,,,,,,,,,0,0,0,0,0,0,0,0,0,0,0,0,0,0,0,0,,,,,0.0,,,,,,
1548754,1745088670812,,,,,,,,,,,,,,,,,,,,,,,,,,,,,,,,,,0,0,0,0,0,0,0,0,0,0,0,0,0,0,0,0,,,,,,,,,,,
1548774,1745088670832,0.0,194.07,,-0.02,-0.27,0.7,3,-0,-2,0.75,1.63,46,4610,13.5,3.68,,13.04,1.246,98.8,,42.4,5,,,,,,,,,,,,0,0,0,0,0,0,0,0,0,0,0,0,0,0,0,0,,,,,0.0,,,,,,
1548794,1745088670852,,,,,,,,,,,,,,,,,,,,,,,,,,,,,,,,,,0,0,0,0,0,0,0,0,0,0,0,0,0,0,0,0,,,,,,,,,,,
1548814,1745088670872,0.0,194.07,,-0.02,-0.27,0.69,3,-0,-2,0.74,1.63,45,4562,13.4,3.67,,12.97,1.198,98.8,,42.4,5,0,0,0,0,0.0,0.0,0.0,0.0,2.26,,,0,0,0,0,0,0,0,0,0,0,0,0,0,0,0,0,0,,,,0.0,39.240231,-77.965111,0.08,32,2,0.9
1548834,1745088670896,,,,,,,,,,,,,,,,,,,,,,,,,,,,,,,,,,0,0,0,0,0,0,0,0,0,0,0,0,0,0,0,0,,,,,,,,,,,
1548854,1745088670916,0.0,194.19,,-0.0,-0.15,0.79,2,-0,-1,0.8,1.63,49,4545,13.3,3.68,,12.97,1.198,98.8,,42.0,5,,,,,,,,,,,,0,0,0,0,0,0,0,0,0,0,0,0,0,0,0,0,,,,,0.0,,,,,,
1548874,1745088670936,,,,,,,,,,,,,,,,,,,,,,,,,,,,,,,,,,0,0,0,0,0,0,0,0,0,0,0,0,0,0,0,0,,,,,,,,,,,
1548894,1745088670956,0.0,194.07,,-0.0,-0.06,0.89,2,-0,-1,0.89,1.63,54,4545,13.3,3.68,,12.96,1.199,98.8,,42.0,5,,,,,,,,,,,,0,0,0,0,0,0,0,0,0,0,0,0,0,0,0,0,,,,,0.0,,,,,,
1548914,1745088670976,,,,,,,,,,,,,,,,,,,,,,,0,0,0,0,0.0,0.0,0.0,0.0,2.27,,,0,0,0,0,0,0,0,0,0,0,0,0,0,0,0,0,0,,,,,39.240231,-77.965111,0.13,32,2,0.9
1548934,1745088670996,0.0,194.19,,-0.0,0.02,1.01,1,-0,-0,1.01,1.63,62,4485,13.4,3.67,,12.99,1.231,98.8,,41.1,5,,,,,,,,,,,,0,0,0,0,0,0,0,0,0,0,0,0,0,0,0,0,,,,,0.0,,,,,,
1548954,1745088671008,,,,,,,,,,,,,,,,,,,,,,,,,,,,,,,,,,0,0,0,0,0,0,0,0,0,0,0,0,0,0,0,0,,,,,,,,,,,
1548974,1745088671028,0.0,194.19,,-0.01,0.1,1.08,0,-0,0,1.09,1.63,67,4474,13.4,3.67,,12.96,1.249,98.8,,41.1,5,,,,,,,,,,,,0,0,0,0,0,0,0,0,0,0,0,0,0,0,0,0,,,,,0.0,,,,,,
1548994,1745088671048,,,,,,,,,,,,,,,,,,,,,,,,,,,,,,,,,,0,0,0,0,0,0,0,0,0,0,0,0,0,0,0,0,,,,,,,,,,,
1549014,1745088671068,0.0,194.19,,-0.01,0.17,1.19,-0,-0,1,1.2,1.63,73,4513,13.3,3.71,,12.99,1.252,98.8,,41.1,5,0,0,0,0,0.0,0.0,0.0,0.0,2.27,,,0,0,0,0,0,0,0,0,0,0,0,0,0,0,0,0,0,,,,0.0,39.240231,-77.965111,0.13,32,2,0.9
1549034,1745088671096,,,,,,,,,,,,,,,,,,,,,,,,,,,,,,,,,,0,0,0,0,0,0,0,0,0,0,0,0,0,0,0,0,,,,,,,,,,,
1549054,1745088671116,0.0,194.19,,-0.02,0.23,1.23,-1,-0,1,1.26,1.63,77,4499,13.5,3.72,,12.99,1.252,98.8,,40.9,5,,,,,,,,,,,,0,0,0,0,0,0,0,0,0,0,0,0,0,0,0,0,,,,,0.0,,,,,,
1549074,1745088671136,,,,,,,,,,,,,,,,,,,,,,,,,,,,,,,,,,0,0,0,0,0,0,0,0,0,0,0,0,0,0,0,0,,,,,,,,,,,
1549094,1745088671156,0.0,194.19,,-0.01,0.28,1.31,-1,-0,1,1.34,1.63,82,4499,13.5,3.72,,13.0,1.252,98.8,,40.9,5,,,,,,,,,,,,0,0,0,0,0,0,0,0,0,0,0,0,0,0,0,0,,,,,0.0,,,,,,
1549114,1745088671176,,,,,,,,,,,,,,,,,,,,,,,0,0,0,0,0.0,0.0,0.0,0.0,2.26,,,0,0,0,0,0,0,0,0,0,0,0,0,0,0,0,0,0,,,,,39.240231,-77.965111,0.19,32,2,0.9
1549134,1745088671194,0.0,194.32,,-0.0,0.33,1.34,-1,-0,1,1.38,1.63,85,4513,13.6,3.71,,12.99,1.252,98.8,,41.2,5,,,,,,,,,,,,0,0,0,0,0,0,0,0,0,0,0,0,0,0,0,0,,,,,0.0,,,,,,
1549154,1745088671214,,,,,,,,,,,,,,,,,,,,,,,,,,,,,,,,,,0,0,0,0,0,0,0,0,0,0,0,0,0,0,0,0,,,,,,,,,,,
1549174,1745088671234,0.0,194.32,,0.01,0.35,1.4,-1,-0,1,1.45,1.63,89,4521,13.6,3.73,,13.0,1.25,98.8,,41.2,5,,,,,,,,,,,,0,0,0,0,0,0,0,0,0,0,0,0,0,0,0,0,,,,,0.0,,,,,,
1549194,1745088671254,,,,,,,,,,,,,,,,,,,,,,,,,,,,,,,,,,0,0,0,0,0,0,0,0,0,0,0,0,0,0,0,0,,,,,,,,,,,
1549214,1745088671274,0.0,194.19,,0.01,0.39,1.42,-1,-0,1,1.48,1.63,91,4493,13.6,3.72,,13.03,1.249,98.8,,41.2,5,0,0,0,0,0.0,0.0,0.0,0.0,2.27,,,0,0,0,0,0,0,0,0,0,0,0,0,0,0,0,0,0,,,,0.0,39.240231,-77.965111,0.13,32,2,0.9
1549234,1745088671296,,,,,,,,,,,,,,,,,,,,,,,,,,,,,,,,,,0,0,0,0,0,0,0,0,0,0,0,0,0,0,0,0,,,,,,,,,,,
1549254,1745088671316,0.0,194.32,,0.01,0.41,1.48,-1,-0,1,1.54,1.63,94,4482,13.5,3.78,,13.03,1.249,98.8,,40.7,5,,,,,,,,,,,,0,0,0,0,0,0,0,0,0,0,0,0,0,0,0,0,,,,,0.0,,,,,,
1549274,1745088671336,,,,,,,,,,,,,,,,,,,,,,,,,,,,,,,,,,0,0,0,0,0,0,0,0,0,0,0,0,0,0,0,0,,,,,,,,,,,
1549294,1745088671356,0.0,194.19,,0.01,0.46,1.5,-1,-0,1,1.57,1.63,96,4482,13.5,3.78,,13.03,1.25,98.8,,40.7,5,,,,,,,,,,,,0,0,0,0,0,0,0,0,0,0,0,0,0,0,0,0,,,,,0.0,,,,,,
1549314,1745088671376,,,,,,,,,,,,,,,,,,,,,,,0,0,0,0,0.0,0.0,0.0,0.0,2.26,,,0,0,0,0,0,0,0,0,0,0,0,0,0,0,0,0,0,,,,,39.240231,-77.965111,0.15,32,2,0.9
1549334,1745088671396,0.0,194.19,,0.01,0.47,1.55,-1,-0,2,1.62,1.63,99,4475,13.4,3.79,,13.0,1.249,98.8,,40.8,5,,,,,,,,,,,,0,0,0,0,0,0,0,0,0,0,0,0,0,0,0,0,,,,,0.0,,,,,,
1549354,1745088671416,,,,,,,,,,,,,,,,,,,,,,,,,,,,,,,,,,0,0,0,0,0,0,0,0,0,0,0,0,0,0,0,0,,,,,,,,,,,
1549374,1745088671436,0.0,194.19,,-0.0,0.5,1.56,-1,-0,2,1.64,1.64,100,4488,13.4,3.77,,13.04,1.25,98.8,,40.8,5,,,,,,,,,,,,0,0,0,0,0,0,0,0,0,0,0,0,0,0,0,0,,,,,0.0,,,,,,
1549394,1745088671456,,,,,,,,,,,,,,,,,,,,,,,,,,,,,,,,,,0,0,0,0,0,0,0,0,0,0,0,0,0,0,0,0,,,,,,,,,,,
1549414,1745088671476,0.0,194.19,13.44,-0.0,0.52,1.61,-1,-0,2,1.69,1.69,100,4525,13.6,3.78,15,13.01,1.249,98.8,151,40.8,5,0,0,0,0,0.0,0.0,0.0,0.0,2.27,0,0.0,0,0,0,0,0,0,0,0,0,0,0,0,0,0,0,0,0,0.0,0,-0,0.0,39.240231,-77.965111,0.08,32,2,0.9
1549434,1745088671495,,,,,,,,,,,,,,,,,,,,,,,,,,,,,,,,,,0,0,0,0,0,0,0,0,0,0,0,0,0,0,0,0,,,,,,,,,,,
1549454,1745088671515,0.0,194.32,,-0.02,0.55,1.61,-2,-0,2,1.7,1.7,100,4567,16.0,3.89,,13.01,1.249,98.8,,41.0,5,,,,,,,,,,,,0,0,0,0,0,0,0,0,0,0,0,0,0,0,0,0,,,,,0.0,,,,,,
1549474,1745088671535,,,,,,,,,,,,,,,,,,,,,,,,,,,,,,,,,,0,0,0,0,0,0,0,0,0,0,0,0,0,0,0,0,,,,,,,,,,,
1549494,1745088671555,0.0,194.32,,-0.05,0.55,1.63,-2,-0,2,1.72,1.72,100,4567,16.0,3.89,,13.17,1.251,98.8,,41.0,5,,,,,,,,,,,,0,0,0,0,0,0,0,0,0,0,0,0,0,0,0,0,,,,,0.0,,,,,,
1549514,1745088671575,,,,,,,,,,,,,,,,,,,,,,,0,0,0,0,0.0,0.0,0.0,0.0,2.27,,,0,0,0,0,0,0,0,0,0,0,0,0,0,0,0,0,0,,,,,39.240231,-77.965111,0.15,32,2,0.9
1549534,1745088671595,0.0,194.32,,-0.09,0.55,1.59,-3,-0,2,1.68,1.72,98,4585,16.6,3.91,,13.29,1.253,98.8,,41.9,5,,,,,,,,,,,,0,0,0,0,0,0,0,0,0,0,0,0,0,0,0,0,,,,,0.0,,,,,,
1549554,1745088671615,,,,,,,,,,,,,,,,,,,,,,,,,,,,,,,,,,0,0,0,0,0,0,0,0,0,0,0,0,0,0,0,0,,,,,,,,,,,
1549574,1745088671635,0.0,194.32,,-0.13,0.5,1.53,-4,-0,3,1.61,1.72,94,4596,17.2,3.94,,13.27,1.253,98.8,,41.9,5,,,,,,,,,,,,0,0,0,0,0,0,0,0,0,0,0,0,0,0,0,0,,,,,0.0,,,,,,
1549594,1745088671655,,,,,,,,,,,,,,,,,,,,,,,,,,,,,,,,,,0,0,0,0,0,0,0,0,0,0,0,0,0,0,0,0,,,,,,,,,,,
1549614,1745088671675,0.0,194.32,,-0.15,0.37,1.42,-4,-0,2,1.47,1.72,86,4597,18.4,3.95,,13.43,1.252,98.8,,41.9,5,0,0,0,0,0.0,0.0,0.0,0.0,2.26,,,0,0,0,0,0,0,0,0,0,0,0,0,0,0,0,0,0,,,,0.0,39.240231,-77.965111,0.08,32,2,0.9
1549634,1745088671695,,,,,,,,,,,,,,,,,,,,,,,,,,,,,,,,,,0,0,0,0,0,0,0,0,0,0,0,0,0,0,0,0,,,,,,,,,,,
1549654,1745088671715,0.0,194.32,,-0.11,0.2,1.29,-3,-0,2,1.31,1.72,76,4587,18.9,3.97,,13.43,1.252,98.8,,42.2,5,,,,,,,,,,,,0,0,0,0,0,0,0,0,0,0,0,0,0,0,0,0,,,,,0.0,,,,,,
1549674,1745088671735,,,,,,,,,,,,,,,,,,,,,,,,,,,,,,,,,,0,0,0,0,0,0,0,0,0,0,0,0,0,0,0,0,,,,,,,,,,,
1549694,1745088671755,0.0,194.32,,-0.07,0.14,1.2,-2,-0,1,1.21,1.72,71,4587,18.9,3.97,,13.39,1.248,98.8,,42.2,5,,,,,,,,,,,,0,0,0,0,0,0,0,0,0,0,0,0,0,0,0,0,,,,,0.0,,,,,,
1549714,1745088671775,,,,,,,,,,,,,,,,,,,,,,,0,0,0,0,0.0,0.0,0.0,0.0,2.26,,,0,0,0,0,0,0,0,0,0,0,0,0,0,0,0,0,0,,,,,39.240231,-77.965111,0.11,32,2,0.9
1549734,1745088671795,0.0,194.32,,-0.03,0.15,1.19,-1,-0,1,1.2,1.72,70,4646,20.1,4.0,,13.41,1.249,98.8,,43.2,5,,,,,,,,,,,,0,0,0,0,0,0,0,0,0,0,0,0,0,0,0,0,,,,,0.0,,,,,,
1549754,1745088671815,,,,,,,,,,,,,,,,,,,,,,,,,,,,,,,,,,0,0,0,0,0,0,0,0,0,0,0,0,0,0,0,0,,,,,,,,,,,
1549774,1745088671835,0.0,194.32,,-0.08,0.22,1.22,-2,-0,1,1.25,1.72,72,4680,20.9,4.0,,13.4,1.247,98.8,,43.2,5,,,,,,,,,,,,0,0,0,0,0,0,0,0,0,0,0,0,0,0,0,0,,,,,0.0,,,,,,
1549794,1745088671855,,,,,,,,,,,,,,,,,,,,,,,,,,,,,,,,,,0,0,0,0,0,0,0,0,0,0,0,0,0,0,0,0,,,,,,,,,,,
1549814,1745088671875,0.0,194.32,,-0.07,0.11,1.15,-1,-0,1,1.16,1.72,68,4743,21.1,4.01,,13.43,1.249,98.8,,43.2,5,0,0,0,0,0.0,0.0,0.0,0.0,2.27,,,0,0,0,0,0,0,0,0,0,0,0,0,0,0,0,0,0,,,,0.0,39.240231,-77.965111,0.0,32,2,0.9
1549834,1745088671893,,,,,,,,,,,,,,,,,,,,,,,,,,,,,,,,,,0,0,0,0,0,0,0,0,0,0,0,0,0,0,0,0,,,,,,,,,,,
1549854,1745088671913,0.0,194.19,,-0.06,0.13,1.16,-1,-0,1,1.17,1.72,68,4840,21.3,4.01,,13.43,1.249,98.8,,44.3,5,,,,,,,,,,,,0,0,0,0,0,0,0,0,0,0,0,0,0,0,0,0,,,,,0.0,,,,,,
1549874,1745088671933,,,,,,,,,,,,,,,,,,,,,,,,,,,,,,,,,,0,0,0,0,0,0,0,0,0,0,0,0,0,0,0,0,,,,,,,,,,,
1549894,1745088671953,0.0,194.32,,-0.06,0.08,1.11,-1,-0,1,1.11,1.72,65,4840,21.3,4.01,,13.36,1.249,98.8,,44.3,5,,,,,,,,,,,,0,0,0,0,0,0,0,0,0,0,0,0,0,0,0,0,,,,,0.0,,,,,,
1549914,1745088671973,,,,,,,,,,,,,,,,,,,,,,,0,0,0,0,0.0,0.0,0.0,0.0,2.27,,,0,0,0,0,0,0,0,0,0,0,0,0,0,0,0,0,0,,,,,39.240231,-77.965111,0.11,32,2,0.9
1549934,1745088671993,0.0,194.19,,-0.08,0.11,1.08,-1,-0,1,1.09,1.72,64,4961,21.6,4.0,,13.33,1.251,98.8,,46.5,5,,,,,,,,,,,,0,0,0,0,0,0,0,0,0,0,0,0,0,0,0,0,,,,,0.0,,,,,,
1549954,1745088672007,,,,,,,,,,,,,,,,,,,,,,,,,,,,,,,,,,0,0,0,0,0,0,0,0,0,0,0,0,0,0,0,0,,,,,,,,,,,
1549974,1745088672027,0.0,194.19,,-0.07,0.11,1.11,-1,-0,1,1.11,1.72,65,5021,21.6,4.01,,13.35,1.252,98.8,,46.5,5,,,,,,,,,,,,0,0,0,0,0,0,0,0,0,0,0,0,0,0,0,0,,,,,0.0,,,,,,
1549994,1745088672047,,,,,,,,,,,,,,,,,,,,,,,,,,,,,,,,,,0,0,0,0,0,0,0,0,0,0,0,0,0,0,0,0,,,,,,,,,,,
1550014,1745088672067,0.0,194.19,,-0.06,0.12,1.09,-1,-0,1,1.1,1.72,64,5219,22.2,3.93,,13.24,1.252,98.8,,46.5,5,0,0,0,0,0.0,0.0,0.0,0.0,2.26,,,0,0,0,0,0,0,0,0,0,0,0,0,0,0,0,0,0,,,,0.0,39.240231,-77.965111,0.08,32,2,0.9
1550034,1745088672091,,,,,,,,,,,,,,,,,,,,,,,,,,,,,,,,,,0,0,0,0,0,0,0,0,0,0,0,0,0,0,0,0,,,,,,,,,,,
1550054,1745088672111,0.0,194.32,,-0.06,0.11,1.06,-0,-0,0,1.07,1.72,62,5323,23.3,3.97,,13.24,1.252,98.8,,49.0,5,,,,,,,,,,,,0,0,0,0,0,0,0,0,0,0,0,0,0,0,0,0,,,,,0.0,,,,,,
1550074,1745088672131,,,,,,,,,,,,,,,,,,,,,,,,,,,,,,,,,,0,0,0,0,0,0,0,0,0,0,0,0,0,0,0,0,,,,,,,,,,,
1550094,1745088672151,0.0,194.32,,-0.08,0.13,1.03,-1,-0,0,1.05,1.72,61,5323,23.3,3.97,,13.19,1.252,98.8,,49.0,5,,,,,,,,,,,,0,0,0,0,0,0,0,0,0,0,0,0,0,0,0,0,,,,,0.0,,,,,,
1550114,1745088672171,,,,,,,,,,,,,,,,,,,,,,,0,0,0,0,0.0,0.0,0.0,0.0,2.26,,,0,0,0,0,0,0,0,0,0,0,0,0,0,0,0,0,0,,,,,39.240231,-77.965111,0.35,32,2,0.9
1550134,1745088672197,0.0,194.32,,-0.07,0.11,1.04,-1,-0,0,1.05,1.72,61,5379,24.7,4.1,,13.17,1.25,98.8,,49.7,5,,,,,,,,,,,,0,0,0,0,0,0,0,0,0,0,0,0,0,0,0,0,,,,,0.0,,,,,,
1550154,1745088672217,,,,,,,,,,,,,,,,,,,,,,,,,,,,,,,,,,0,0,0,0,0,0,0,0,0,0,0,0,0,0,0,0,,,,,,,,,,,
1550174,1745088672237,0.0,194.32,,-0.07,0.13,1.09,-0,-0,0,1.1,1.72,64,5461,26.1,4.25,,13.25,1.25,98.8,,49.7,5,,,,,,,,,,,,0,0,0,0,0,0,0,0,0,0,0,0,0,0,0,0,,,,,0.0,,,,,,
1550194,1745088672257,,,,,,,,,,,,,,,,,,,,,,,,,,,,,,,,,,0,0,0,0,0,0,0,0,0,0,0,0,0,0,0,0,,,,,,,,,,,
1550214,1745088672277,0.0,194.32,,-0.05,0.14,1.0,-0,-0,0,1.01,1.72,59,5834,28.7,4.55,,13.29,1.25,98.8,,49.7,5,0,0,0,0,0.0,0.0,0.0,0.0,2.26,,,0,0,0,0,0,0,0,0,0,0,0,0,0,0,0,0,0,,,,0.0,39.240231,-77.965111,0.28,32,2,0.9
1550234,1745088672297,,,,,,,,,,,,,,,,,,,,,,,,,,,,,,,,,,0,0,0,0,0,0,0,0,0,0,0,0,0,0,0,0,,,,,,,,,,,
