"Interval"|"ms"|0|0|1,"Utc"|"ms"|0|0|1,"FrontBP"|"psi"|-5.0|5.0|25,"SteerAng"|"Degrees"|-145.0|145.0|25,"Battery"|"Volts"|-5.0|20.0|1,"AccelX"|"G"|-3.0|3.0|25,"AccelY"|"G"|-3.0|3.0|25,"AccelZ"|"G"|-3.0|3.0|25,"Yaw"|"Deg/Sec"|-120|120|25,"Pitch"|"Deg/Sec"|-120|120|25,"Roll"|"Deg/Sec"|-120|120|25,"Gsum"|"G"|0.0|3.0|25,"GsumMax"|"G"|0.0|3.0|25,"GsumPct"|"%"|0|100|25,"RPM"|""|0|10000|25,"TPS"|"%"|0.0|100.0|25,"InjectorPW"|"ms"|0.0|100.0|25,"Baro"|"kPa"|0|105|1,"MAP"|"Psi"|0.0|255.0|25,"Lambda"|""|-2.0|2.0|25,"IAT"|"C"|0.0|200.0|25,"EngineTemp"|"C"|0|200|1,"EOP"|"PSI"|0.0|152.0|25,"EOT"|"F"|0|250|25,"WSFR"|"MPH"|0|150|10,"WSFL"|"MPH"|0|100|10,"WSRR"|"MPH"|0|100|10,"WSRL"|""|0|100|10,"TCSet"|"%"|0.0|100.0|10,"TCSlip"|"%"|0.0|100.0|10,"TCComp"|"deg"|0.0|50.0|10,"TCCut"|"%"|0.0|100.0|10,"Analog8"|""|0.0|5.0|10,"OilTemp"|"F"|0|300|1,"AA_On"|""|0.0|1.0|1,"ThermLF1"|"C"|0|400|50,"ThermLF2"|"C"|0|400|50,"ThermRR1"|"C"|0|400|50,"ThermRR2"|"C"|0|400|50,"ThermLF3"|"C"|0|400|50,"ThermLF4"|"C"|0|400|50,"ThermLF5"|"C"|0|400|50,"ThermLF6"|"C"|0|400|50,"ThermLF7"|"C"|0|400|50,"ThermLF8"|"C"|0|400|50,"ThermRR3"|"C"|0|400|50,"ThermRR4"|"C"|0|400|50,"ThermRR5"|"C"|0|400|50,"ThermRR6"|"C"|0|400|50,"ThermRR7"|"C"|0|400|50,"ThermRR8"|"C"|0|400|50,"Gear"|""|1|6|10,"AA_On"|""|0.0|1.0|1,"AA_LowDrag"|""|0|1|1,"Fuel_Mix"|""|-10|10|1,"AA_Packages"|""|0.0|1000.0|25,"Latitude"|"Degrees"|-180.0|180.0|10,"Longitude"|"Degrees"|-180.0|180.0|10,"Speed"|"kph"|0.0|150.0|10,"GPSSats"|""|0|20|10,"GPSQual"|""|0|5|10,"GPSDOP"|""|0.0|20.0|10
720910,1745065636681,0.0,171.82,,-0.01,-0.01,0.97,2,-0,-0,0.97,0.97,100,3923,1.8,3.05,,12.21,0.989,70.0,,67.3,5,,,,,,,,,,,,0,0,0,0,0,0,0,0,0,0,0,0,0,0,0,0,,,,,0.0,,,,,,
720930,1745065636701,,,,,,,,,,,,,,,,,,,,,,,,,,,,,,,,,,0,0,0,0,0,0,0,0,0,0,0,0,0,0,0,0,,,,,,,,,,,
720950,1745065636721,0.0,171.69,,-0.02,-0.0,1.02,2,-0,0,1.02,1.02,100,3934,1.8,3.07,,12.15,0.991,70.0,,67.8,5,,,,,,,,,,,,0,0,0,0,0,0,0,0,0,0,0,0,0,0,0,0,,,,,0.0,,,,,,
720970,1745065636741,,,,,,,,,,,,,,,,,,,,,,,,,,,,,,,,,,0,0,0,0,0,0,0,0,0,0,0,0,0,0,0,0,,,,,,,,,,,
720990,1745065636761,0.0,171.82,,-0.05,-0.06,1.02,2,-0,0,1.02,1.02,100,3880,1.8,3.11,,12.15,0.991,70.0,,67.8,5,1,1,1,1,0.0,0.0,0.0,0.0,2.24,,,0,0,0,0,0,0,0,0,0,0,0,0,0,0,0,0,0,,,,0.0,39.240181,-77.964973,1.89,35,2,0.8
721010,1745065636781,,,,,,,,,,,,,,,,,,,,,,,,,,,,,,,,,,0,0,0,0,0,0,0,0,0,0,0,0,0,0,0,0,,,,,,,,,,,
721030,1745065636801,0.0,171.82,,-0.06,-0.06,1.01,3,-0,0,1.01,1.02,99,3880,1.8,3.11,,12.13,0.996,70.0,,66.2,5,,,,,,,,,,,,0,0,0,0,0,0,0,0,0,0,0,0,0,0,0,0,,,,,0.0,,,,,,
721050,1745065636821,,,,,,,,,,,,,,,,,,,,,,,,,,,,,,,,,,0,0,0,0,0,0,0,0,0,0,0,0,0,0,0,0,,,,,,,,,,,
721070,1745065636841,0.0,171.82,,-0.05,-0.05,1.01,3,-0,0,1.01,1.02,99,3798,1.4,3.03,,12.05,0.993,70.0,,66.2,5,,,,,,,,,,,,0,0,0,0,0,0,0,0,0,0,0,0,0,0,0,0,,,,,0.0,,,,,,
721090,1745065636861,,,,,,,,,,,,,,,,,,,,,,,1,1,1,1,0.0,0.0,0.0,0.0,2.24,,,0,0,0,0,0,0,0,0,0,0,0,0,0,0,0,0,0,,,,,39.240181,-77.964973,1.85,35,2,0.8
721110,1745065636881,0.0,171.82,,-0.03,-0.02,1.02,3,-0,0,1.02,1.02,99,3707,0.4,2.81,,12.07,1.004,70.0,,66.2,5,,,,,,,,,,,,0,0,0,0,0,0,0,0,0,0,0,0,0,0,0,0,,,,,0.0,,,,,,
721130,1745065636901,,,,,,,,,,,,,,,,,,,,,,,,,,,,,,,,,,0,0,0,0,0,0,0,0,0,0,0,0,0,0,0,0,,,,,,,,,,,
721150,1745065636921,0.0,171.82,,-0.02,0.02,1.02,3,-0,0,1.02,1.02,100,3639,0.0,2.72,,12.07,1.033,70.0,,63.2,5,,,,,,,,,,,,0,0,0,0,0,0,0,0,0,0,0,0,0,0,0,0,,,,,0.0,,,,,,
721170,1745065636941,,,,,,,,,,,,,,,,,,,,,,,,,,,,,,,,,,0,0,0,0,0,0,0,0,0,0,0,0,0,0,0,0,,,,,,,,,,,
721190,1745065636961,0.0,171.95,,-0.01,0.01,0.96,3,-0,-0,0.96,1.02,94,3492,0.0,2.76,,12.07,1.033,70.0,,63.2,5,1,1,1,1,0.0,0.0,0.0,0.0,2.25,,,0,0,0,0,0,0,0,0,0,0,0,0,0,0,0,0,0,,,,0.0,39.240181,-77.964973,2.11,35,2,0.8
721210,1745065636981,,,,,,,,,,,,,,,,,,,,,,,,,,,,,,,,,,0,0,0,0,0,0,0,0,0,0,0,0,0,0,0,0,,,,,,,,,,,
721230,1745065637001,0.0,171.82,,-0.02,-0.06,1.03,3,-0,0,1.04,1.04,100,3492,0.0,2.76,,11.92,1.08,70.0,,59.4,5,,,,,,,,,,,,0,0,0,0,0,0,0,0,0,0,0,0,0,0,0,0,,,,,0.0,,,,,,
721250,1745065637011,,,,,,,,,,,,,,,,,,,,,,,,,,,,,,,,,,0,0,0,0,0,0,0,0,0,0,0,0,0,0,0,0,,,,,,,,,,,
721270,1745065637031,0.0,171.95,,-0.01,-0.01,0.95,3,-0,-0,0.95,1.04,91,3344,0.0,2.81,,11.92,1.113,70.0,,59.4,5,,,,,,,,,,,,0,0,0,0,0,0,0,0,0,0,0,0,0,0,0,0,,,,,0.0,,,,,,
721290,1745065637051,,,,,,,,,,,,,,,,,,,,,,,1,1,1,1,0.0,0.0,0.0,0.0,2.25,,,0,0,0,0,0,0,0,0,0,0,0,0,0,0,0,0,0,,,,,39.240181,-77.964966,2.09,35,2,0.8
721310,1745065637071,0.0,171.95,,-0.01,-0.02,1.01,3,-0,0,1.01,1.04,97,3343,0.0,2.86,,11.96,1.136,70.0,,59.4,5,,,,,,,,,,,,0,0,0,0,0,0,0,0,0,0,0,0,0,0,0,0,,,,,0.0,,,,,,
721330,1745065637101,,,,,,,,,,,,,,,,,,,,,,,,,,,,,,,,,,0,0,0,0,0,0,0,0,0,0,0,0,0,0,0,0,,,,,,,,,,,
721350,1745065637121,0.0,171.95,,-0.04,-0.08,0.99,3,-0,0,1.0,1.04,96,3289,0.0,2.88,,12.01,1.142,70.0,,55.2,5,,,,,,,,,,,,0,0,0,0,0,0,0,0,0,0,0,0,0,0,0,0,,,,,0.0,,,,,,
721370,1745065637141,,,,,,,,,,,,,,,,,,,,,,,,,,,,,,,,,,0,0,0,0,0,0,0,0,0,0,0,0,0,0,0,0,,,,,,,,,,,
721390,1745065637161,0.0,172.07,12.9,-0.02,-0.02,0.93,3,-1,0,0.93,1.04,90,3206,0.0,2.9,15,12.01,1.142,70.0,155,55.2,5,1,1,1,1,0.0,0.0,0.0,0.0,2.24,0,1.0,0,0,0,0,0,0,0,0,0,0,0,0,0,0,0,0,0,0.0,0,0,0.0,39.240181,-77.964966,2.34,35,2,0.8
721410,1745065637181,,,,,,,,,,,,,,,,,,,,,,,,,,,,,,,,,,0,0,0,0,0,0,0,0,0,0,0,0,0,0,0,0,,,,,,,,,,,
721430,1745065637201,0.0,171.95,,0.01,-0.0,0.97,3,-1,1,0.97,1.04,93,3206,0.0,2.9,,12.07,1.112,70.0,,53.4,5,,,,,,,,,,,,0,0,0,0,0,0,0,0,0,0,0,0,0,0,0,0,,,,,0.0,,,,,,
721450,1745065637219,,,,,,,,,,,,,,,,,,,,,,,,,,,,,,,,,,0,0,0,0,0,0,0,0,0,0,0,0,0,0,0,0,,,,,,,,,,,
721470,1745065637239,0.0,171.95,,0.01,-0.04,1.02,3,-1,1,1.02,1.04,99,3173,0.0,2.93,,12.12,1.025,70.0,,53.4,5,,,,,,,,,,,,0,0,0,0,0,0,0,0,0,0,0,0,0,0,0,0,,,,,0.0,,,,,,
721490,1745065637259,,,,,,,,,,,,,,,,,,,,,,,2,1,2,1,0.0,0.0,0.0,0.0,2.24,,,0,0,0,0,0,0,0,0,0,0,0,0,0,0,0,0,0,,,,,39.240181,-77.964966,2.48,35,2,0.8
721510,1745065637279,0.0,172.07,,0.02,-0.07,1.08,2,-1,1,1.08,1.08,100,3023,0.0,2.98,,12.17,0.977,70.0,,53.4,5,,,,,,,,,,,,0,0,0,0,0,0,0,0,0,0,0,0,0,0,0,0,,,,,0.0,,,,,,
721530,1745065637301,,,,,,,,,,,,,,,,,,,,,,,,,,,,,,,,,,0,0,0,0,0,0,0,0,0,0,0,0,0,0,0,0,,,,,,,,,,,
721550,1745065637321,0.0,171.95,,0.02,-0.06,1.13,2,-1,1,1.13,1.13,100,2935,0.0,3.01,,12.29,0.962,70.0,,50.6,5,,,,,,,,,,,,0,0,0,0,0,0,0,0,0,0,0,0,0,0,0,0,,,,,0.0,,,,,,
721570,1745065637341,,,,,,,,,,,,,,,,,,,,,,,,,,,,,,,,,,0,0,0,0,0,0,0,0,0,0,0,0,0,0,0,0,,,,,,,,,,,
721590,1745065637361,0.0,171.95,,0.02,-0.05,1.14,2,-1,1,1.14,1.14,100,2920,0.0,3.03,,12.29,0.962,70.0,,50.6,5,2,1,2,1,0.0,0.0,0.0,0.0,2.24,,,0,0,0,0,0,0,0,0,0,0,0,0,0,0,0,0,0,,,,0.0,39.240181,-77.964966,2.38,35,2,0.8
721610,1745065637381,,,,,,,,,,,,,,,,,,,,,,,,,,,,,,,,,,0,0,0,0,0,0,0,0,0,0,0,0,0,0,0,0,,,,,,,,,,,
721630,1745065637401,0.0,171.95,,0.03,-0.03,1.08,3,-1,1,1.08,1.14,95,2920,0.0,3.03,,12.33,0.977,70.0,,48.3,5,,,,,,,,,,,,0,0,0,0,0,0,0,0,0,0,0,0,0,0,0,0,,,,,0.0,,,,,,
721650,1745065637420,,,,,,,,,,,,,,,,,,,,,,,,,,,,,,,,,,0,0,0,0,0,0,0,0,0,0,0,0,0,0,0,0,,,,,,,,,,,
721670,1745065637440,0.0,172.07,,0.03,-0.03,1.03,3,-1,1,1.04,1.14,91,2895,0.0,3.05,,12.39,0.983,70.0,,48.3,5,,,,,,,,,,,,0,0,0,0,0,0,0,0,0,0,0,0,0,0,0,0,,,,,0.0,,,,,,
721690,1745065637460,,,,,,,,,,,,,,,,,,,,,,,2,2,2,1,0.0,0.0,0.0,0.0,2.25,,,0,0,0,0,0,0,0,0,0,0,0,0,0,0,0,0,0,,,,,39.240181,-77.964966,2.72,35,2,0.8
721710,1745065637480,0.0,172.07,,0.02,-0.05,1.05,3,-1,1,1.05,1.14,92,2761,0.0,3.11,,12.45,0.948,70.0,,48.3,5,,,,,,,,,,,,0,0,0,0,0,0,0,0,0,0,0,0,0,0,0,0,,,,,0.0,,,,,,
721730,1745065637500,,,,,,,,,,,,,,,,,,,,,,,,,,,,,,,,,,0,0,0,0,0,0,0,0,0,0,0,0,0,0,0,0,,,,,,,,,,,
721750,1745065637520,0.0,172.07,,0.0,-0.03,1.03,3,-1,1,1.03,1.14,91,2665,0.0,3.13,,12.55,0.918,70.0,,45.1,5,,,,,,,,,,,,0,0,0,0,0,0,0,0,0,0,0,0,0,0,0,0,,,,,0.0,,,,,,
721770,1745065637540,,,,,,,,,,,,,,,,,,,,,,,,,,,,,,,,,,0,0,0,0,0,0,0,0,0,0,0,0,0,0,0,0,,,,,,,,,,,
721790,1745065637560,0.0,172.07,,0.0,-0.02,1.05,3,-0,1,1.05,1.14,93,2588,0.0,3.19,,12.55,0.918,70.0,,45.1,5,2,2,2,1,0.0,0.0,0.0,0.0,2.25,,,0,0,0,0,0,0,0,0,0,0,0,0,0,0,0,0,0,,,,0.0,39.240181,-77.964966,2.69,35,2,0.8
721810,1745065637580,,,,,,,,,,,,,,,,,,,,,,,,,,,,,,,,,,0,0,0,0,0,0,0,0,0,0,0,0,0,0,0,0,,,,,,,,,,,
721830,1745065637600,0.0,171.95,,-0.0,-0.01,1.04,3,-0,1,1.04,1.14,91,2588,0.0,3.19,,12.64,0.91,70.0,,41.4,5,,,,,,,,,,,,0,0,0,0,0,0,0,0,0,0,0,0,0,0,0,0,,,,,0.0,,,,,,
721850,1745065637620,,,,,,,,,,,,,,,,,,,,,,,,,,,,,,,,,,0,0,0,0,0,0,0,0,0,0,0,0,0,0,0,0,,,,,,,,,,,
721870,1745065637640,0.0,171.95,,-0.02,-0.01,1.02,3,-0,1,1.02,1.14,90,2454,0.0,3.22,,12.79,0.916,70.0,,41.4,5,,,,,,,,,,,,0,0,0,0,0,0,0,0,0,0,0,0,0,0,0,0,,,,,0.0,,,,,,
721890,1745065637660,,,,,,,,,,,,,,,,,,,,,,,2,2,2,2,0.0,0.0,0.0,0.0,2.24,,,0,0,0,0,0,0,0,0,0,0,0,0,0,0,0,0,0,,,,,39.240181,-77.964966,2.68,35,2,0.8
721910,1745065637680,0.0,172.07,,-0.0,-0.02,1.01,3,-1,1,1.01,1.14,89,2404,0.0,3.3,,12.91,0.935,70.0,,41.4,5,,,,,,,,,,,,0,0,0,0,0,0,0,0,0,0,0,0,0,0,0,0,,,,,0.0,,,,,,
721930,1745065637700,,,,,,,,,,,,,,,,,,,,,,,,,,,,,,,,,,0,0,0,0,0,0,0,0,0,0,0,0,0,0,0,0,,,,,,,,,,,
721950,1745065637720,0.0,171.95,,-0.01,-0.01,1.0,4,-1,1,1.0,1.14,88,2306,0.0,3.32,,13.03,0.957,70.0,,37.9,5,,,,,,,,,,,,0,0,0,0,0,0,0,0,0,0,0,0,0,0,0,0,,,,,0.0,,,,,,
721970,1745065637740,,,,,,,,,,,,,,,,,,,,,,,,,,,,,,,,,,0,0,0,0,0,0,0,0,0,0,0,0,0,0,0,0,,,,,,,,,,,
721990,1745065637760,0.0,171.95,,-0.01,-0.03,1.01,4,-1,1,1.01,1.14,89,2523,0.0,3.31,,13.03,0.957,70.0,,37.9,5,2,2,2,2,0.0,0.0,0.0,0.0,2.24,,,0,0,0,0,0,0,0,0,0,0,0,0,0,0,0,0,0,,,,0.0,39.240181,-77.964966,2.81,35,2,0.8
722010,1745065637780,,,,,,,,,,,,,,,,,,,,,,,,,,,,,,,,,,0,0,0,0,0,0,0,0,0,0,0,0,0,0,0,0,,,,,,,,,,,
722030,1745065637800,0.0,171.95,,-0.03,-0.02,0.99,4,-1,1,1.0,1.14,88,2523,0.0,3.31,,13.01,1.017,70.0,,39.7,5,,,,,,,,,,,,0,0,0,0,0,0,0,0,0,0,0,0,0,0,0,0,,,,,0.0,,,,,,
722050,1745065637820,,,,,,,,,,,,,,,,,,,,,,,,,,,,,,,,,,0,0,0,0,0,0,0,0,0,0,0,0,0,0,0,0,,,,,,,,,,,
722070,1745065637840,0.0,171.95,,-0.02,-0.02,0.99,4,-1,1,0.99,1.14,87,2485,0.0,3.28,,13.04,1.093,70.0,,39.7,5,,,,,,,,,,,,0,0,0,0,0,0,0,0,0,0,0,0,0,0,0,0,,,,,0.0,,,,,,
722090,1745065637860,,,,,,,,,,,,,,,,,,,,,,,2,2,2,2,0.0,0.0,0.0,0.0,2.24,,,0,0,0,0,0,0,0,0,0,0,0,0,0,0,0,0,0,,,,,39.240181,-77.964966,2.74,35,2,0.8
722110,1745065637880,0.0,171.95,,-0.02,-0.05,1.01,4,-1,1,1.02,1.14,89,2499,0.0,3.28,,13.03,1.054,70.0,,39.7,5,,,,,,,,,,,,0,0,0,0,0,0,0,0,0,0,0,0,0,0,0,0,,,,,0.0,,,,,,
722130,1745065637902,,,,,,,,,,,,,,,,,,,,,,,,,,,,,,,,,,0,0,0,0,0,0,0,0,0,0,0,0,0,0,0,0,,,,,,,,,,,
722150,1745065637922,0.0,171.95,,-0.02,-0.03,1.0,4,-1,0,1.0,1.14,88,2448,0.0,3.3,,13.09,0.99,70.0,,39.2,5,,,,,,,,,,,,0,0,0,0,0,0,0,0,0,0,0,0,0,0,0,0,,,,,0.0,,,,,,
722170,1745065637942,,,,,,,,,,,,,,,,,,,,,,,,,,,,,,,,,,0,0,0,0,0,0,0,0,0,0,0,0,0,0,0,0,,,,,,,,,,,
722190,1745065637962,0.0,172.07,,-0.03,-0.04,1.01,4,-1,0,1.02,1.14,89,2420,0.0,3.3,,13.09,0.99,70.0,,39.2,5,2,2,2,2,0.0,0.0,0.0,0.0,2.25,,,0,0,0,0,0,0,0,0,0,0,0,0,0,0,0,0,0,,,,0.0,39.240181,-77.964958,2.86,35,2,0.8
722210,1745065637982,,,,,,,,,,,,,,,,,,,,,,,,,,,,,,,,,,0,0,0,0,0,0,0,0,0,0,0,0,0,0,0,0,,,,,,,,,,,
722230,1745065638002,0.0,171.95,,-0.02,-0.06,1.02,4,-1,0,1.02,1.14,90,2420,0.0,3.3,,13.07,0.939,70.0,,37.7,5,,,,,,,,,,,,0,0,0,0,0,0,0,0,0,0,0,0,0,0,0,0,,,,,0.0,,,,,,
722250,1745065638012,,,,,,,,,,,,,,,,,,,,,,,,,,,,,,,,,,0,0,0,0,0,0,0,0,0,0,0,0,0,0,0,0,,,,,,,,,,,
722270,1745065638032,0.0,172.07,,-0.01,-0.05,1.02,4,-1,0,1.02,1.14,89,2332,0.0,3.34,,13.12,0.917,70.0,,37.7,5,,,,,,,,,,,,0,0,0,0,0,0,0,0,0,0,0,0,0,0,0,0,,,,,0.0,,,,,,
722290,1745065638052,,,,,,,,,,,,,,,,,,,,,,,2,2,2,2,0.0,0.0,0.0,0.0,2.25,,,0,0,0,0,0,0,0,0,0,0,0,0,0,0,0,0,0,,,,,39.240181,-77.964958,2.94,36,2,0.8
722310,1745065638072,0.0,172.07,,0.0,-0.05,1.02,4,-1,0,1.02,1.14,89,2231,0.0,3.36,,13.12,0.905,70.0,,37.7,5,,,,,,,,,,,,0,0,0,0,0,0,0,0,0,0,0,0,0,0,0,0,,,,,0.0,,,,,,
722330,1745065638092,,,,,,,,,,,,,,,,,,,,,,,,,,,,,,,,,,0,0,0,0,0,0,0,0,0,0,0,0,0,0,0,0,,,,,,,,,,,
722350,1745065638118,0.0,172.07,,0.01,-0.05,1.01,4,-1,0,1.01,1.14,89,2102,0.0,3.48,,13.32,0.904,70.0,,32.9,5,,,,,,,,,,,,0,0,0,0,0,0,0,0,0,0,0,0,0,0,0,0,,,,,0.0,,,,,,
722370,1745065638138,,,,,,,,,,,,,,,,,,,,,,,,,,,,,,,,,,0,0,0,0,0,0,0,0,0,0,0,0,0,0,0,0,,,,,,,,,,,
722390,1745065638158,0.0,172.07,12.79,-0.01,-0.05,1.01,4,-1,0,1.01,1.14,89,1992,0.0,3.45,15,13.32,0.904,70.0,155,32.9,5,2,2,2,2,0.0,0.0,0.0,0.0,2.24,0,1.0,0,0,0,0,0,0,0,0,0,0,0,0,0,0,0,0,0,0.0,0,0,0.0,39.240181,-77.964958,3.03,36,2,0.8
722410,1745065638178,,,,,,,,,,,,,,,,,,,,,,,,,,,,,,,,,,0,0,0,0,0,0,0,0,0,0,0,0,0,0,0,0,,,,,,,,,,,
722430,1745065638198,0.0,172.07,,-0.01,-0.03,0.99,4,-1,0,0.99,1.14,87,1992,0.0,3.45,,13.4,0.903,70.0,,29.6,5,,,,,,,,,,,,0,0,0,0,0,0,0,0,0,0,0,0,0,0,0,0,,,,,0.0,,,,,,
722450,1745065638218,,,,,,,,,,,,,,,,,,,,,,,,,,,,,,,,,,0,0,0,0,0,0,0,0,0,0,0,0,0,0,0,0,,,,,,,,,,,
722470,1745065638238,0.0,171.95,,0.01,-0.04,0.99,5,-1,0,0.99,1.14,87,1732,0.0,3.53,,13.56,0.908,70.0,,29.6,5,,,,,,,,,,,,0,0,0,0,0,0,0,0,0,0,0,0,0,0,0,0,,,,,0.0,,,,,,
722490,1745065638258,,,,,,,,,,,,,,,,,,,,,,,2,2,2,2,0.0,0.0,0.0,0.0,2.25,,,0,0,0,0,0,0,0,0,0,0,0,0,0,0,0,0,0,,,,,39.240181,-77.964958,3.27,36,2,0.8
722510,1745065638278,0.0,172.07,,0.02,-0.05,0.98,5,-1,0,0.99,1.14,87,1725,0.0,3.54,,13.57,0.919,70.0,,29.6,5,,,,,,,,,,,,0,0,0,0,0,0,0,0,0,0,0,0,0,0,0,0,,,,,0.0,,,,,,
722530,1745065638302,,,,,,,,,,,,,,,,,,,,,,,,,,,,,,,,,,0,0,0,0,0,0,0,0,0,0,0,0,0,0,0,0,,,,,,,,,,,
722550,1745065638322,0.0,172.07,,0.05,-0.04,1.0,5,-1,0,1.01,1.14,89,1529,0.0,3.55,,13.72,0.94,70.0,,24.6,5,,,,,,,,,,,,0,0,0,0,0,0,0,0,0,0,0,0,0,0,0,0,,,,,0.0,,,,,,
722570,1745065638342,,,,,,,,,,,,,,,,,,,,,,,,,,,,,,,,,,0,0,0,0,0,0,0,0,0,0,0,0,0,0,0,0,,,,,,,,,,,
722590,1745065638362,0.0,172.07,,0.05,-0.04,1.0,5,-1,0,1.0,1.14,88,1453,0.0,3.57,,13.72,0.94,70.0,,24.6,5,2,2,2,2,0.0,0.0,0.0,0.0,2.24,,,0,0,0,0,0,0,0,0,0,0,0,0,0,0,0,0,0,,,,0.0,39.240181,-77.964958,3.35,36,2,0.8
722610,1745065638382,,,,,,,,,,,,,,,,,,,,,,,,,,,,,,,,,,0,0,0,0,0,0,0,0,0,0,0,0,0,0,0,0,,,,,,,,,,,
722630,1745065638402,0.0,171.95,,0.03,-0.02,0.99,5,-1,0,0.99,1.14,87,1453,0.0,3.57,,13.72,0.974,70.0,,21.4,5,,,,,,,,,,,,0,0,0,0,0,0,0,0,0,0,0,0,0,0,0,0,,,,,0.0,,,,,,
722650,1745065638419,,,,,,,,,,,,,,,,,,,,,,,,,,,,,,,,,,0,0,0,0,0,0,0,0,0,0,0,0,0,0,0,0,,,,,,,,,,,
722670,1745065638439,0.0,171.95,,0.05,-0.01,1.01,5,-1,0,1.01,1.14,89,1311,0.0,3.59,,13.84,1.008,70.0,,21.4,5,,,,,,,,,,,,0,0,0,0,0,0,0,0,0,0,0,0,0,0,0,0,,,,,0.0,,,,,,
722690,1745065638459,,,,,,,,,,,,,,,,,,,,,,,2,2,2,2,0.0,0.0,0.0,0.0,2.24,,,0,0,0,0,0,0,0,0,0,0,0,0,0,0,0,0,0,,,,,39.240177,-77.964958,3.34,36,2,0.8
722710,1745065638479,0.0,172.07,,0.05,-0.02,1.01,5,-0,0,1.02,1.14,89,1280,0.0,3.61,,13.83,1.049,70.0,,21.4,5,,,,,,,,,,,,0,0,0,0,0,0,0,0,0,0,0,0,0,0,0,0,,,,,0.0,,,,,,
722730,1745065638501,,,,,,,,,,,,,,,,,,,,,,,,,,,,,,,,,,0,0,0,0,0,0,0,0,0,0,0,0,0,0,0,0,,,,,,,,,,,
722750,1745065638521,0.0,172.07,,0.05,-0.03,1.03,5,-0,0,1.03,1.14,90,1449,0.0,3.6,,13.88,1.07,70.0,,20.5,5,,,,,,,,,,,,0,0,0,0,0,0,0,0,0,0,0,0,0,0,0,0,,,,,0.0,,,,,,
722770,1745065638541,,,,,,,,,,,,,,,,,,,,,,,,,,,,,,,,,,0,0,0,0,0,0,0,0,0,0,0,0,0,0,0,0,,,,,,,,,,,
722790,1745065638561,0.0,172.07,,0.06,-0.01,1.03,5,-0,0,1.03,1.14,91,1515,0.0,3.59,,13.88,1.07,70.0,,20.5,5,2,2,2,2,0.0,0.0,0.0,0.0,2.24,,,0,0,0,0,0,0,0,0,0,0,0,0,0,0,0,0,0,,,,0.0,39.240177,-77.964958,3.51,36,2,0.8
722810,1745065638581,,,,,,,,,,,,,,,,,,,,,,,,,,,,,,,,,,0,0,0,0,0,0,0,0,0,0,0,0,0,0,0,0,,,,,,,,,,,
722830,1745065638601,0.0,172.07,,0.06,-0.02,1.02,5,-0,-0,1.03,1.14,90,1515,0.0,3.59,,13.84,1.161,70.0,,24.4,5,,,,,,,,,,,,0,0,0,0,0,0,0,0,0,0,0,0,0,0,0,0,,,,,0.0,,,,,,
722850,1745065638621,,,,,,,,,,,,,,,,,,,,,,,,,,,,,,,,,,0,0,0,0,0,0,0,0,0,0,0,0,0,0,0,0,,,,,,,,,,,
722870,1745065638641,0.0,172.07,,0.06,-0.01,1.04,5,-0,-0,1.05,1.14,92,1630,0.0,3.58,,13.76,1.195,70.0,,24.4,5,,,,,,,,,,,,0,0,0,0,0,0,0,0,0,0,0,0,0,0,0,0,,,,,0.0,,,,,,
722890,1745065638661,,,,,,,,,,,,,,,,,,,,,,,2,2,2,2,0.0,0.0,0.0,0.0,2.25,,,0,0,0,0,0,0,0,0,0,0,0,0,0,0,0,0,0,,,,,39.240177,-77.964958,3.52,36,2,0.8
722910,1745065638681,0.0,172.2,,0.04,-0.01,1.04,5,-0,-0,1.04,1.14,91,1607,0.0,3.58,,13.8,1.117,70.0,,24.4,5,,,,,,,,,,,,0,0,0,0,0,0,0,0,0,0,0,0,0,0,0,0,,,,,0.0,,,,,,
722930,1745065638701,,,,,,,,,,,,,,,,,,,,,,,,,,,,,,,,,,0,0,0,0,0,0,0,0,0,0,0,0,0,0,0,0,,,,,,,,,,,
722950,1745065638721,0.0,172.2,,0.03,-0.02,1.04,6,-0,-0,1.05,1.14,92,1967,0.0,3.57,,13.63,1.067,70.0,,27.6,5,,,,,,,,,,,,0,0,0,0,0,0,0,0,0,0,0,0,0,0,0,0,,,,,0.0,,,,,,
722970,1745065638741,,,,,,,,,,,,,,,,,,,,,,,,,,,,,,,,,,0,0,0,0,0,0,0,0,0,0,0,0,0,0,0,0,,,,,,,,,,,
722990,1745065638761,0.0,172.2,,0.02,-0.01,1.04,5,-0,-0,1.04,1.14,91,1940,0.0,3.53,,13.63,1.067,70.0,,27.6,5,2,2,2,2,0.0,0.0,0.0,0.0,2.24,,,0,0,0,0,0,0,0,0,0,0,0,0,0,0,0,0,0,,,,0.0,39.240177,-77.964958,3.57,36,2,0.8
723010,1745065638781,,,,,,,,,,,,,,,,,,,,,,,,,,,,,,,,,,0,0,0,0,0,0,0,0,0,0,0,0,0,0,0,0,,,,,,,,,,,
723030,1745065638801,0.0,172.32,,0.01,0.0,1.02,5,-0,0,1.02,1.14,90,1940,0.0,3.53,,13.64,1.071,70.0,,30.5,5,,,,,,,,,,,,0,0,0,0,0,0,0,0,0,0,0,0,0,0,0,0,,,,,0.0,,,,,,
723050,1745065638821,,,,,,,,,,,,,,,,,,,,,,,,,,,,,,,,,,0,0,0,0,0,0,0,0,0,0,0,0,0,0,0,0,,,,,,,,,,,
723070,1745065638841,0.0,172.32,,0.01,0.01,1.03,5,-0,0,1.03,1.14,91,1977,0.0,3.52,,13.63,1.018,70.0,,30.5,5,,,,,,,,,,,,0,0,0,0,0,0,0,0,0,0,0,0,0,0,0,0,,,,,0.0,,,,,,
723090,1745065638861,,,,,,,,,,,,,,,,,,,,,,,2,2,2,2,0.0,0.0,0.0,0.0,2.24,,,0,0,0,0,0,0,0,0,0,0,0,0,0,0,0,0,0,,,,,39.240177,-77.964958,3.63,36,2,0.8
723110,1745065638881,0.0,172.32,,-0.0,-0.0,1.03,5,-0,0,1.03,1.14,91,1880,0.0,3.51,,13.63,0.968,70.0,,30.5,5,,,,,,,,,,,,0,0,0,0,0,0,0,0,0,0,0,0,0,0,0,0,,,,,0.0,,,,,,
723130,1745065638901,,,,,,,,,,,,,,,,,,,,,,,,,,,,,,,,,,0,0,0,0,0,0,0,0,0,0,0,0,0,0,0,0,,,,,,,,,,,
723150,1745065638921,0.0,172.32,,-0.01,-0.01,1.03,5,-0,0,1.03,1.14,91,1993,0.0,3.51,,13.55,0.93,70.0,,30.7,5,,,,,,,,,,,,0,0,0,0,0,0,0,0,0,0,0,0,0,0,0,0,,,,,0.0,,,,,,
723170,1745065638941,,,,,,,,,,,,,,,,,,,,,,,,,,,,,,,,,,0,0,0,0,0,0,0,0,0,0,0,0,0,0,0,0,,,,,,,,,,,
723190,1745065638961,0.0,172.2,,-0.01,-0.0,1.03,6,-0,0,1.03,1.14,90,2016,0.0,3.52,,13.55,0.93,70.0,,30.7,5,2,2,2,2,0.0,0.0,0.0,0.0,2.24,,,0,0,0,0,0,0,0,0,0,0,0,0,0,0,0,0,0,,,,0.0,39.240177,-77.964958,3.7,36,2,0.8
723210,1745065638981,,,,,,,,,,,,,,,,,,,,,,,,,,,,,,,,,,0,0,0,0,0,0,0,0,0,0,0,0,0,0,0,0,,,,,,,,,,,
723230,1745065639001,0.0,172.32,,-0.03,-0.01,1.02,6,-0,0,1.02,1.14,90,2016,0.0,3.52,,13.63,0.915,70.0,,30.8,5,,,,,,,,,,,,0,0,0,0,0,0,0,0,0,0,0,0,0,0,0,0,,,,,0.0,,,,,,
723250,1745065639013,,,,,,,,,,,,,,,,,,,,,,,,,,,,,,,,,,0,0,0,0,0,0,0,0,0,0,0,0,0,0,0,0,,,,,,,,,,,
723270,1745065639033,0.0,172.32,,-0.03,-0.03,1.02,6,-0,0,1.02,1.14,90,2002,0.0,3.5,,13.6,0.909,70.0,,30.8,5,,,,,,,,,,,,0,0,0,0,0,0,0,0,0,0,0,0,0,0,0,0,,,,,0.0,,,,,,
723290,1745065639053,,,,,,,,,,,,,,,,,,,,,,,2,2,2,2,0.0,0.0,0.0,0.0,2.25,,,0,0,0,0,0,0,0,0,0,0,0,0,0,0,0,0,0,,,,,39.240177,-77.964958,3.6,36,2,0.8
723310,1745065639073,0.0,172.32,,-0.02,-0.02,1.02,6,-0,0,1.02,1.14,90,2014,0.0,3.53,,13.51,0.906,70.0,,30.8,5,,,,,,,,,,,,0,0,0,0,0,0,0,0,0,0,0,0,0,0,0,0,,,,,0.0,,,,,,
723330,1745065639093,,,,,,,,,,,,,,,,,,,,,,,,,,,,,,,,,,0,0,0,0,0,0,0,0,0,0,0,0,0,0,0,0,,,,,,,,,,,
723350,1745065639119,0.0,172.32,,-0.04,-0.02,1.03,6,-0,0,1.03,1.14,90,1962,0.0,3.5,,13.57,0.903,70.0,,31.2,5,,,,,,,,,,,,0,0,0,0,0,0,0,0,0,0,0,0,0,0,0,0,,,,,0.0,,,,,,
723370,1745065639139,,,,,,,,,,,,,,,,,,,,,,,,,,,,,,,,,,0,0,0,0,0,0,0,0,0,0,0,0,0,0,0,0,,,,,,,,,,,
723390,1745065639159,0.0,172.32,12.82,-0.04,-0.02,1.02,6,-0,0,1.02,1.14,90,2010,0.0,3.52,15,13.57,0.903,70.0,155,31.2,5,2,2,2,2,0.0,0.0,0.0,0.0,2.25,0,1.0,0,0,0,0,0,0,0,0,0,0,0,0,0,0,0,0,0,0.0,0,0,0.0,39.240177,-77.964951,3.66,36,2,0.8
723410,1745065639179,,,,,,,,,,,,,,,,,,,,,,,,,,,,,,,,,,0,0,0,0,0,0,0,0,0,0,0,0,0,0,0,0,,,,,,,,,,,
723430,1745065639199,0.0,172.2,,-0.04,-0.01,1.05,6,-0,0,1.05,1.14,92,2010,0.0,3.52,,13.55,0.906,70.0,,31.7,5,,,,,,,,,,,,0,0,0,0,0,0,0,0,0,0,0,0,0,0,0,0,,,,,0.0,,,,,,
723450,1745065639219,,,,,,,,,,,,,,,,,,,,,,,,,,,,,,,,,,0,0,0,0,0,0,0,0,0,0,0,0,0,0,0,0,,,,,,,,,,,
723470,1745065639239,0.0,172.2,,-0.04,-0.02,1.05,6,-0,0,1.05,1.14,92,2020,0.0,3.48,,13.51,0.906,70.0,,31.7,5,,,,,,,,,,,,0,0,0,0,0,0,0,0,0,0,0,0,0,0,0,0,,,,,0.0,,,,,,
723490,1745065639259,,,,,,,,,,,,,,,,,,,,,,,3,2,3,2,0.0,0.0,0.0,0.0,2.25,,,0,0,0,0,0,0,0,0,0,0,0,0,0,0,0,0,0,,,,,39.240177,-77.964951,3.84,36,2,0.8
723510,1745065639279,0.0,172.2,,-0.05,-0.01,1.04,6,-0,0,1.04,1.14,92,2102,0.0,3.5,,13.57,0.906,70.0,,31.7,5,,,,,,,,,,,,0,0,0,0,0,0,0,0,0,0,0,0,0,0,0,0,,,,,0.0,,,,,,
723530,1745065639303,,,,,,,,,,,,,,,,,,,,,,,,,,,,,,,,,,0,0,0,0,0,0,0,0,0,0,0,0,0,0,0,0,,,,,,,,,,,
723550,1745065639323,0.0,172.2,,-0.04,-0.03,1.02,6,-0,0,1.02,1.14,90,2103,0.0,3.47,,13.47,0.904,70.0,,32.2,5,,,,,,,,,,,,0,0,0,0,0,0,0,0,0,0,0,0,0,0,0,0,,,,,0.0,,,,,,
723570,1745065639343,,,,,,,,,,,,,,,,,,,,,,,,,,,,,,,,,,0,0,0,0,0,0,0,0,0,0,0,0,0,0,0,0,,,,,,,,,,,
723590,1745065639363,0.0,172.2,,-0.03,-0.03,1.03,6,-0,0,1.03,1.14,91,2104,0.0,3.49,,13.47,0.904,70.0,,32.2,5,3,2,3,2,0.0,0.0,0.0,0.0,2.24,,,0,0,0,0,0,0,0,0,0,0,0,0,0,0,0,0,0,,,,0.0,39.240177,-77.964951,3.85,36,2,0.8
723610,1745065639383,,,,,,,,,,,,,,,,,,,,,,,,,,,,,,,,,,0,0,0,0,0,0,0,0,0,0,0,0,0,0,0,0,,,,,,,,,,,
723630,1745065639402,0.0,172.2,,-0.03,-0.03,1.03,6,-0,0,1.03,1.14,90,2104,0.0,3.49,,13.53,0.911,70.0,,33.2,5,,,,,,,,,,,,0,0,0,0,0,0,0,0,0,0,0,0,0,0,0,0,,,,,0.0,,,,,,
723650,1745065639422,,,,,,,,,,,,,,,,,,,,,,,,,,,,,,,,,,0,0,0,0,0,0,0,0,0,0,0,0,0,0,0,0,,,,,,,,,,,
723670,1745065639442,0.0,172.2,,-0.03,-0.04,1.02,6,-0,-0,1.02,1.14,90,2136,0.0,3.44,,13.44,0.91,70.0,,33.2,5,,,,,,,,,,,,0,0,0,0,0,0,0,0,0,0,0,0,0,0,0,0,,,,,0.0,,,,,,
723690,1745065639462,,,,,,,,,,,,,,,,,,,,,,,3,2,3,2,0.0,0.0,0.0,0.0,2.24,,,0,0,0,0,0,0,0,0,0,0,0,0,0,0,0,0,0,,,,,39.240173,-77.964951,3.96,36,2,0.8
723710,1745065639482,0.0,172.32,,-0.03,-0.04,1.02,6,-0,0,1.02,1.14,90,2079,0.0,3.47,,13.48,0.915,70.0,,33.2,5,,,,,,,,,,,,0,0,0,0,0,0,0,0,0,0,0,0,0,0,0,0,,,,,0.0,,,,,,
723730,1745065639502,,,,,,,,,,,,,,,,,,,,,,,,,,,,,,,,,,0,0,0,0,0,0,0,0,0,0,0,0,0,0,0,0,,,,,,,,,,,
723750,1745065639522,0.0,172.2,,-0.05,-0.02,1.02,6,-0,-0,1.02,1.14,90,2132,0.0,3.48,,13.43,0.915,70.0,,32.5,5,,,,,,,,,,,,0,0,0,0,0,0,0,0,0,0,0,0,0,0,0,0,,,,,0.0,,,,,,
723770,1745065639542,,,,,,,,,,,,,,,,,,,,,,,,,,,,,,,,,,0,0,0,0,0,0,0,0,0,0,0,0,0,0,0,0,,,,,,,,,,,
723790,1745065639562,0.0,172.2,,-0.05,-0.04,1.01,6,-0,-0,1.01,1.14,89,2075,0.0,3.46,,13.43,0.915,70.0,,32.5,5,3,2,3,2,0.0,0.0,0.0,0.0,2.24,,,0,0,0,0,0,0,0,0,0,0,0,0,0,0,0,0,0,,,,0.0,39.240173,-77.964951,4.11,36,2,0.8
723810,1745065639582,,,,,,,,,,,,,,,,,,,,,,,,,,,,,,,,,,0,0,0,0,0,0,0,0,0,0,0,0,0,0,0,0,,,,,,,,,,,
723830,1745065639602,0.0,172.32,,-0.05,-0.05,1.04,6,-0,-0,1.04,1.14,91,2075,0.0,3.46,,13.49,0.922,70.0,,33.5,5,,,,,,,,,,,,0,0,0,0,0,0,0,0,0,0,0,0,0,0,0,0,,,,,0.0,,,,,,
723850,1745065639622,,,,,,,,,,,,,,,,,,,,,,,,,,,,,,,,,,0,0,0,0,0,0,0,0,0,0,0,0,0,0,0,0,,,,,,,,,,,
723870,1745065639642,0.0,172.32,,-0.05,-0.05,1.02,6,-0,-0,1.03,1.14,90,2199,0.0,3.47,,13.41,0.926,70.0,,33.5,5,,,,,,,,,,,,0,0,0,0,0,0,0,0,0,0,0,0,0,0,0,0,,,,,0.0,,,,,,
723890,1745065639662,,,,,,,,,,,,,,,,,,,,,,,3,3,3,2,0.0,0.0,0.0,0.0,2.25,,,0,0,0,0,0,0,0,0,0,0,0,0,0,0,0,0,0,,,,,39.240173,-77.964951,4.23,36,2,0.8
723910,1745065639682,0.0,172.32,,-0.05,-0.05,1.01,6,-0,-0,1.01,1.14,89,2168,0.0,3.45,,13.41,0.946,70.0,,33.5,5,,,,,,,,,,,,0,0,0,0,0,0,0,0,0,0,0,0,0,0,0,0,,,,,0.0,,,,,,
723930,1745065639702,,,,,,,,,,,,,,,,,,,,,,,,,,,,,,,,,,0,0,0,0,0,0,0,0,0,0,0,0,0,0,0,0,,,,,,,,,,,
723950,1745065639720,0.0,172.2,,-0.04,-0.06,1.01,6,-0,0,1.01,1.14,89,2105,0.0,3.47,,13.45,0.95,70.0,,33.1,5,,,,,,,,,,,,0,0,0,0,0,0,0,0,0,0,0,0,0,0,0,0,,,,,0.0,,,,,,
723970,1745065639740,,,,,,,,,,,,,,,,,,,,,,,,,,,,,,,,,,0,0,0,0,0,0,0,0,0,0,0,0,0,0,0,0,,,,,,,,,,,
723990,1745065639760,0.0,172.2,,-0.05,-0.05,1.0,6,-0,-0,1.0,1.14,88,2061,0.0,3.46,,13.45,0.95,70.0,,33.1,5,3,2,3,3,0.0,0.0,0.0,0.0,2.24,,,0,0,0,0,0,0,0,0,0,0,0,0,0,0,0,0,0,,,,0.0,39.240173,-77.964943,4.13,36,2,0.8
724010,1745065639780,,,,,,,,,,,,,,,,,,,,,,,,,,,,,,,,,,0,0,0,0,0,0,0,0,0,0,0,0,0,0,0,0,,,,,,,,,,,
724030,1745065639802,0.0,172.2,,-0.04,-0.05,1.0,6,-0,-0,1.0,1.14,88,2061,0.0,3.46,,13.49,0.95,70.0,,31.7,5,,,,,,,,,,,,0,0,0,0,0,0,0,0,0,0,0,0,0,0,0,0,,,,,0.0,,,,,,
724050,1745065639822,,,,,,,,,,,,,,,,,,,,,,,,,,,,,,,,,,0,0,0,0,0,0,0,0,0,0,0,0,0,0,0,0,,,,,,,,,,,
724070,1745065639842,0.0,172.2,,-0.05,-0.04,0.99,6,-0,-0,0.99,1.14,87,1936,0.0,3.48,,13.47,0.96,70.0,,31.7,5,,,,,,,,,,,,0,0,0,0,0,0,0,0,0,0,0,0,0,0,0,0,,,,,0.0,,,,,,
724090,1745065639862,,,,,,,,,,,,,,,,,,,,,,,3,2,3,2,0.0,0.0,0.0,0.0,2.24,,,0,0,0,0,0,0,0,0,0,0,0,0,0,0,0,0,0,,,,,39.240173,-77.964943,4.15,36,2,0.8
724110,1745065639882,0.0,172.2,,-0.04,-0.07,0.99,6,-0,0,0.99,1.14,87,1936,0.0,3.53,,13.52,0.992,70.0,,31.7,5,,,,,,,,,,,,0,0,0,0,0,0,0,0,0,0,0,0,0,0,0,0,,,,,0.0,,,,,,
724130,1745065639902,,,,,,,,,,,,,,,,,,,,,,,,,,,,,,,,,,0,0,0,0,0,0,0,0,0,0,0,0,0,0,0,0,,,,,,,,,,,
724150,1745065639920,0.0,172.32,,-0.04,-0.07,0.98,6,-0,0,0.99,1.14,87,1992,0.0,3.52,,13.59,1.029,70.0,,30.4,5,,,,,,,,,,,,0,0,0,0,0,0,0,0,0,0,0,0,0,0,0,0,,,,,0.0,,,,,,
724170,1745065639940,,,,,,,,,,,,,,,,,,,,,,,,,,,,,,,,,,0,0,0,0,0,0,0,0,0,0,0,0,0,0,0,0,,,,,,,,,,,
724190,1745065639960,0.0,172.2,,-0.04,-0.04,0.97,6,-0,0,0.97,1.14,85,2072,0.0,3.53,,13.49,1.048,70.0,,30.4,5,3,3,3,2,0.0,0.0,0.0,0.0,2.24,,,0,0,0,0,0,0,0,0,0,0,0,0,0,0,0,0,0,,,,0.0,39.240173,-77.964943,4.22,36,2,0.8
724210,1745065639980,,,,,,,,,,,,,,,,,,,,,,,,,,,,,,,,,,0,0,0,0,0,0,0,0,0,0,0,0,0,0,0,0,,,,,,,,,,,
724230,1745065640000,0.0,172.32,,-0.03,-0.07,0.97,6,-0,0,0.98,1.14,86,2072,0.0,3.53,,13.49,1.048,70.0,,30.9,5,,,,,,,,,,,,0,0,0,0,0,0,0,0,0,0,0,0,0,0,0,0,,,,,0.0,,,,,,
724250,1745065640014,,,,,,,,,,,,,,,,,,,,,,,,,,,,,,,,,,0,0,0,0,0,0,0,0,0,0,0,0,0,0,0,0,,,,,,,,,,,
724270,1745065640034,0.0,172.2,,-0.03,-0.06,0.96,6,-0,0,0.97,1.14,85,1987,0.0,3.52,,13.51,1.06,70.0,,30.9,5,,,,,,,,,,,,0,0,0,0,0,0,0,0,0,0,0,0,0,0,0,0,,,,,0.0,,,,,,
724290,1745065640054,,,,,,,,,,,,,,,,,,,,,,,3,3,3,2,0.0,0.0,0.0,0.0,2.25,,,0,0,0,0,0,0,0,0,0,0,0,0,0,0,0,0,0,,,,,39.240173,-77.964943,4.18,36,2,0.8
724310,1745065640074,0.0,172.32,,-0.03,-0.03,0.96,6,-0,0,0.96,1.14,84,2007,0.0,3.52,,13.6,1.06,70.0,,31.2,5,,,,,,,,,,,,0,0,0,0,0,0,0,0,0,0,0,0,0,0,0,0,,,,,0.0,,,,,,
724330,1745065640094,,,,,,,,,,,,,,,,,,,,,,,,,,,,,,,,,,0,0,0,0,0,0,0,0,0,0,0,0,0,0,0,0,,,,,,,,,,,
724350,1745065640118,0.0,172.32,,-0.03,-0.05,0.96,6,-0,0,0.97,1.14,85,1980,0.0,3.5,,13.51,1.048,70.0,,31.2,5,,,,,,,,,,,,0,0,0,0,0,0,0,0,0,0,0,0,0,0,0,0,,,,,0.0,,,,,,
724370,1745065640138,,,,,,,,,,,,,,,,,,,,,,,,,,,,,,,,,,0,0,0,0,0,0,0,0,0,0,0,0,0,0,0,0,,,,,,,,,,,
724390,1745065640158,0.0,172.2,12.82,-0.03,-0.06,0.97,6,-0,0,0.97,1.14,85,1913,0.0,3.5,15,13.48,1.048,70.0,156,31.2,5,3,2,3,2,0.0,0.0,0.0,0.0,2.24,0,1.0,0,0,0,0,0,0,0,0,0,0,0,0,0,0,0,0,0,0.0,0,0,0.0,39.240173,-77.964943,4.26,36,2,0.8
724410,1745065640178,,,,,,,,,,,,,,,,,,,,,,,,,,,,,,,,,,0,0,0,0,0,0,0,0,0,0,0,0,0,0,0,0,,,,,,,,,,,
724430,1745065640198,0.0,172.2,,-0.03,-0.05,0.98,6,-0,0,0.98,1.14,86,1905,0.0,3.54,,13.48,1.035,70.0,,29.7,5,,,,,,,,,,,,0,0,0,0,0,0,0,0,0,0,0,0,0,0,0,0,,,,,0.0,,,,,,
724450,1745065640220,,,,,,,,,,,,,,,,,,,,,,,,,,,,,,,,,,0,0,0,0,0,0,0,0,0,0,0,0,0,0,0,0,,,,,,,,,,,
724470,1745065640240,0.0,172.32,,-0.04,-0.03,0.96,6,-0,0,0.96,1.14,84,1905,0.0,3.54,,13.52,1.038,70.0,,29.7,5,,,,,,,,,,,,0,0,0,0,0,0,0,0,0,0,0,0,0,0,0,0,,,,,0.0,,,,,,
724490,1745065640260,,,,,,,,,,,,,,,,,,,,,,,3,3,3,2,0.0,0.0,0.0,0.0,2.25,,,0,0,0,0,0,0,0,0,0,0,0,0,0,0,0,0,0,,,,,39.240173,-77.964935,4.21,36,2,0.8
724510,1745065640280,0.0,172.2,,-0.02,-0.04,0.98,6,-0,0,0.98,1.14,86,1787,0.0,3.52,,13.59,1.065,70.0,,26.4,5,,,,,,,,,,,,0,0,0,0,0,0,0,0,0,0,0,0,0,0,0,0,,,,,0.0,,,,,,
724530,1745065640300,,,,,,,,,,,,,,,,,,,,,,,,,,,,,,,,,,0,0,0,0,0,0,0,0,0,0,0,0,0,0,0,0,,,,,,,,,,,
724550,1745065640320,0.0,172.2,,-0.02,-0.03,0.98,6,-0,0,0.98,1.14,86,1795,0.0,3.56,,13.63,1.075,70.0,,26.4,5,,,,,,,,,,,,0,0,0,0,0,0,0,0,0,0,0,0,0,0,0,0,,,,,0.0,,,,,,
724570,1745065640340,,,,,,,,,,,,,,,,,,,,,,,,,,,,,,,,,,0,0,0,0,0,0,0,0,0,0,0,0,0,0,0,0,,,,,,,,,,,
724590,1745065640360,0.0,172.32,,-0.02,-0.04,0.98,6,-1,0,0.98,1.14,87,1842,0.0,3.54,,13.64,1.082,70.0,,26.4,5,3,2,3,2,0.0,0.0,0.0,0.0,2.24,,,0,0,0,0,0,0,0,0,0,0,0,0,0,0,0,0,0,,,,0.0,39.240173,-77.964935,4.08,36,2,0.8
724610,1745065640380,,,,,,,,,,,,,,,,,,,,,,,,,,,,,,,,,,0,0,0,0,0,0,0,0,0,0,0,0,0,0,0,0,,,,,,,,,,,
724630,1745065640401,0.0,172.32,,-0.02,-0.04,0.98,6,-0,0,0.98,1.14,86,1889,0.0,3.53,,13.64,1.082,70.0,,28.7,5,,,,,,,,,,,,0,0,0,0,0,0,0,0,0,0,0,0,0,0,0,0,,,,,0.0,,,,,,
724650,1745065640421,,,,,,,,,,,,,,,,,,,,,,,,,,,,,,,,,,0,0,0,0,0,0,0,0,0,0,0,0,0,0,0,0,,,,,,,,,,,
724670,1745065640441,0.0,172.32,,-0.03,-0.05,0.98,7,-0,0,0.98,1.14,86,1889,0.0,3.53,,13.63,1.076,70.0,,28.7,5,,,,,,,,,,,,0,0,0,0,0,0,0,0,0,0,0,0,0,0,0,0,,,,,0.0,,,,,,
724690,1745065640461,,,,,,,,,,,,,,,,,,,,,,,3,3,3,2,0.0,0.0,0.0,0.0,2.24,,,0,0,0,0,0,0,0,0,0,0,0,0,0,0,0,0,0,,,,,39.240173,-77.964935,4.27,36,2,0.8
724710,1745065640481,0.0,172.32,,-0.03,-0.05,1.0,7,-0,0,1.0,1.14,88,1813,0.0,3.54,,13.65,1.065,70.0,,28.7,5,,,,,,,,,,,,0,0,0,0,0,0,0,0,0,0,0,0,0,0,0,0,,,,,0.0,,,,,,
724730,1745065640501,,,,,,,,,,,,,,,,,,,,,,,,,,,,,,,,,,0,0,0,0,0,0,0,0,0,0,0,0,0,0,0,0,,,,,,,,,,,
724750,1745065640521,0.0,172.2,,-0.04,-0.05,0.99,7,-1,0,0.99,1.14,88,1817,0.0,3.53,,13.69,1.039,70.0,,27.5,5,,,,,,,,,,,,0,0,0,0,0,0,0,0,0,0,0,0,0,0,0,0,,,,,0.0,,,,,,
724770,1745065640541,,,,,,,,,,,,,,,,,,,,,,,,,,,,,,,,,,0,0,0,0,0,0,0,0,0,0,0,0,0,0,0,0,,,,,,,,,,,
724790,1745065640561,0.0,172.32,,-0.05,-0.03,0.99,7,-1,0,1.0,1.14,88,2135,0.0,3.54,,13.51,1.015,70.0,,27.5,5,3,2,3,3,0.0,0.0,0.0,0.0,2.24,,,0,0,0,0,0,0,0,0,0,0,0,0,0,0,0,0,0,,,,0.0,39.240173,-77.964935,4.25,36,2,0.8
724810,1745065640581,,,,,,,,,,,,,,,,,,,,,,,,,,,,,,,,,,0,0,0,0,0,0,0,0,0,0,0,0,0,0,0,0,,,,,,,,,,,
724830,1745065640601,0.0,172.32,,-0.05,-0.04,0.98,7,-1,0,0.98,1.14,86,2121,0.0,3.5,,13.51,1.015,70.0,,31.4,5,,,,,,,,,,,,0,0,0,0,0,0,0,0,0,0,0,0,0,0,0,0,,,,,0.0,,,,,,
724850,1745065640621,,,,,,,,,,,,,,,,,,,,,,,,,,,,,,,,,,0,0,0,0,0,0,0,0,0,0,0,0,0,0,0,0,,,,,,,,,,,
724870,1745065640641,0.0,172.32,,-0.05,-0.04,1.0,7,-0,-0,1.0,1.14,88,2121,0.0,3.5,,13.53,1.084,70.0,,31.4,5,,,,,,,,,,,,0,0,0,0,0,0,0,0,0,0,0,0,0,0,0,0,,,,,0.0,,,,,,
724890,1745065640661,,,,,,,,,,,,,,,,,,,,,,,3,3,3,3,0.0,0.0,0.0,0.0,2.24,,,0,0,0,0,0,0,0,0,0,0,0,0,0,0,0,0,0,,,,,39.240173,-77.964928,4.39,36,2,0.8
724910,1745065640681,0.0,172.32,,-0.04,-0.05,0.99,7,-1,-0,0.99,1.14,87,2128,0.0,3.46,,13.43,1.085,70.0,,31.4,5,,,,,,,,,,,,0,0,0,0,0,0,0,0,0,0,0,0,0,0,0,0,,,,,0.0,,,,,,
724930,1745065640701,,,,,,,,,,,,,,,,,,,,,,,,,,,,,,,,,,0,0,0,0,0,0,0,0,0,0,0,0,0,0,0,0,,,,,,,,,,,
724950,1745065640721,0.0,172.32,,-0.05,-0.03,0.98,7,-0,-0,0.99,1.14,87,1937,0.0,3.48,,13.52,1.03,70.0,,31.4,5,,,,,,,,,,,,0,0,0,0,0,0,0,0,0,0,0,0,0,0,0,0,,,,,0.0,,,,,,
724970,1745065640741,,,,,,,,,,,,,,,,,,,,,,,,,,,,,,,,,,0,0,0,0,0,0,0,0,0,0,0,0,0,0,0,0,,,,,,,,,,,
724990,1745065640761,0.0,172.32,,-0.05,-0.04,1.01,7,-0,-0,1.01,1.14,89,1995,0.0,3.51,,13.61,0.975,70.0,,31.4,5,3,3,3,3,0.0,0.0,0.0,0.0,2.25,,,0,0,0,0,0,0,0,0,0,0,0,0,0,0,0,0,0,,,,0.0,39.240173,-77.964928,4.49,36,2,0.8
725010,1745065640781,,,,,,,,,,,,,,,,,,,,,,,,,,,,,,,,,,0,0,0,0,0,0,0,0,0,0,0,0,0,0,0,0,,,,,,,,,,,
725030,1745065640801,0.0,172.32,,-0.05,-0.03,1.01,7,-0,-0,1.01,1.14,89,1983,0.0,3.52,,13.61,0.975,70.0,,30.7,5,,,,,,,,,,,,0,0,0,0,0,0,0,0,0,0,0,0,0,0,0,0,,,,,0.0,,,,,,
725050,1745065640821,,,,,,,,,,,,,,,,,,,,,,,,,,,,,,,,,,0,0,0,0,0,0,0,0,0,0,0,0,0,0,0,0,,,,,,,,,,,
725070,1745065640841,0.0,172.32,,-0.05,-0.01,1.0,7,-0,0,1.0,1.14,88,1983,0.0,3.52,,13.59,0.969,70.0,,30.7,5,,,,,,,,,,,,0,0,0,0,0,0,0,0,0,0,0,0,0,0,0,0,,,,,0.0,,,,,,
725090,1745065640861,,,,,,,,,,,,,,,,,,,,,,,3,3,3,3,0.0,0.0,0.0,0.0,2.24,,,0,0,0,0,0,0,0,0,0,0,0,0,0,0,0,0,0,,,,,39.24017,-77.964928,4.4,36,2,0.8
725110,1745065640881,0.0,172.32,,-0.07,0.02,0.99,7,-1,0,0.99,1.14,87,0,0.0,3.49,,13.45,0.979,70.0,,34.3,5,,,,,,,,,,,,0,0,0,0,0,0,0,0,0,0,0,0,0,0,0,0,,,,,0.0,,,,,,
725130,1745065640901,,,,,,,,,,,,,,,,,,,,,,,,,,,,,,,,,,0,0,0,0,0,0,0,0,0,0,0,0,0,0,0,0,,,,,,,,,,,
725150,1745065640921,0.0,172.45,,-0.07,0.01,1.0,7,-1,0,1.0,1.14,88,2224,0.0,3.35,,13.36,1.048,70.0,,34.3,5,,,,,,,,,,,,0,0,0,0,0,0,0,0,0,0,0,0,0,0,0,0,,,,,0.0,,,,,,
725170,1745065640941,,,,,,,,,,,,,,,,,,,,,,,,,,,,,,,,,,0,0,0,0,0,0,0,0,0,0,0,0,0,0,0,0,,,,,,,,,,,
725190,1745065640961,0.0,172.45,,-0.05,-0.0,1.0,7,-1,0,1.0,1.14,88,2373,0.0,3.32,,13.27,1.082,70.0,,34.3,5,3,3,3,3,0.0,0.0,0.0,0.0,2.24,,,0,0,0,0,0,0,0,0,0,0,0,0,0,0,0,0,0,,,,0.0,39.24017,-77.964928,4.35,36,2,0.8
725210,1745065640981,,,,,,,,,,,,,,,,,,,,,,,,,,,,,,,,,,0,0,0,0,0,0,0,0,0,0,0,0,0,0,0,0,,,,,,,,,,,
725230,1745065641001,0.0,172.45,,-0.05,-0.0,1.0,7,-1,0,1.0,1.14,88,2314,0.0,3.36,,13.27,1.082,70.0,,36.7,5,,,,,,,,,,,,0,0,0,0,0,0,0,0,0,0,0,0,0,0,0,0,,,,,0.0,,,,,,
725250,1745065641013,,,,,,,,,,,,,,,,,,,,,,,,,,,,,,,,,,0,0,0,0,0,0,0,0,0,0,0,0,0,0,0,0,,,,,,,,,,,
725270,1745065641033,0.0,172.45,,-0.05,0.02,0.99,7,-1,0,0.99,1.14,87,2314,0.0,3.36,,13.27,1.014,70.0,,36.7,5,,,,,,,,,,,,0,0,0,0,0,0,0,0,0,0,0,0,0,0,0,0,,,,,0.0,,,,,,
725290,1745065641053,,,,,,,,,,,,,,,,,,,,,,,3,2,3,3,0.0,0.0,0.0,0.0,2.24,,,0,0,0,0,0,0,0,0,0,0,0,0,0,0,0,0,0,,,,,39.24017,-77.964928,4.5,36,2,0.8
725310,1745065641073,0.0,172.45,,-0.06,0.02,0.99,7,-1,0,1.0,1.14,88,2281,0.0,3.36,,13.25,0.962,70.0,,36.5,5,,,,,,,,,,,,0,0,0,0,0,0,0,0,0,0,0,0,0,0,0,0,,,,,0.0,,,,,,
725330,1745065641093,,,,,,,,,,,,,,,,,,,,,,,,,,,,,,,,,,0,0,0,0,0,0,0,0,0,0,0,0,0,0,0,0,,,,,,,,,,,
725350,1745065641119,0.0,172.45,,-0.07,0.02,1.0,7,-1,0,1.0,1.14,88,2281,0.0,3.35,,13.28,0.964,70.0,,36.5,5,,,,,,,,,,,,0,0,0,0,0,0,0,0,0,0,0,0,0,0,0,0,,,,,0.0,,,,,,
725370,1745065641139,,,,,,,,,,,,,,,,,,,,,,,,,,,,,,,,,,0,0,0,0,0,0,0,0,0,0,0,0,0,0,0,0,,,,,,,,,,,
725390,1745065641159,0.0,172.45,12.88,-0.06,0.0,1.0,7,-1,0,1.0,1.14,88,2284,0.0,3.36,15,13.31,0.986,70.0,156,36.5,5,3,3,3,3,0.0,0.0,0.0,0.0,2.24,0,1.0,0,0,0,0,0,0,0,0,0,0,0,0,0,0,0,0,0,0.0,0,0,0.0,39.24017,-77.96492,4.52,36,2,0.8
725410,1745065641179,,,,,,,,,,,,,,,,,,,,,,,,,,,,,,,,,,0,0,0,0,0,0,0,0,0,0,0,0,0,0,0,0,,,,,,,,,,,
725430,1745065641199,0.0,172.45,,-0.05,-0.02,1.0,7,-1,0,1.0,1.14,88,2247,0.0,3.37,,13.31,0.986,70.0,,36.1,5,,,,,,,,,,,,0,0,0,0,0,0,0,0,0,0,0,0,0,0,0,0,,,,,0.0,,,,,,
725450,1745065641219,,,,,,,,,,,,,,,,,,,,,,,,,,,,,,,,,,0,0,0,0,0,0,0,0,0,0,0,0,0,0,0,0,,,,,,,,,,,
725470,1745065641239,0.0,172.45,,-0.05,-0.02,1.0,7,-1,0,1.0,1.14,88,2247,0.0,3.37,,13.33,1.001,70.0,,36.1,5,,,,,,,,,,,,0,0,0,0,0,0,0,0,0,0,0,0,0,0,0,0,,,,,0.0,,,,,,
725490,1745065641259,,,,,,,,,,,,,,,,,,,,,,,3,2,3,3,0.0,0.0,0.0,0.0,2.24,,,0,0,0,0,0,0,0,0,0,0,0,0,0,0,0,0,0,,,,,39.24017,-77.96492,4.48,36,2,0.8
725510,1745065641279,0.0,172.32,,-0.04,-0.04,1.01,7,-1,0,1.01,1.14,89,2212,0.0,3.38,,13.31,1.019,70.0,,34.6,5,,,,,,,,,,,,0,0,0,0,0,0,0,0,0,0,0,0,0,0,0,0,,,,,0.0,,,,,,
725530,1745065641299,,,,,,,,,,,,,,,,,,,,,,,,,,,,,,,,,,0,0,0,0,0,0,0,0,0,0,0,0,0,0,0,0,,,,,,,,,,,
725550,1745065641319,0.0,172.32,,-0.03,-0.04,1.02,7,-1,0,1.02,1.14,89,2202,0.0,3.42,,13.37,1.028,70.0,,34.6,5,,,,,,,,,,,,0,0,0,0,0,0,0,0,0,0,0,0,0,0,0,0,,,,,0.0,,,,,,
725570,1745065641339,,,,,,,,,,,,,,,,,,,,,,,,,,,,,,,,,,0,0,0,0,0,0,0,0,0,0,0,0,0,0,0,0,,,,,,,,,,,
725590,1745065641359,0.0,172.32,,-0.03,-0.05,1.0,7,-1,0,1.0,1.14,88,2145,0.0,3.44,,13.39,1.036,70.0,,34.6,5,3,3,3,3,0.0,0.0,0.0,0.0,2.24,,,0,0,0,0,0,0,0,0,0,0,0,0,0,0,0,0,0,,,,0.0,39.24017,-77.96492,4.59,36,2,0.8
725610,1745065641379,,,,,,,,,,,,,,,,,,,,,,,,,,,,,,,,,,0,0,0,0,0,0,0,0,0,0,0,0,0,0,0,0,,,,,,,,,,,
725630,1745065641399,0.0,172.32,,-0.04,-0.06,1.0,7,-1,0,1.0,1.14,88,2069,0.0,3.47,,13.39,1.036,70.0,,32.7,5,,,,,,,,,,,,0,0,0,0,0,0,0,0,0,0,0,0,0,0,0,0,,,,,0.0,,,,,,
725650,1745065641420,,,,,,,,,,,,,,,,,,,,,,,,,,,,,,,,,,0,0,0,0,0,0,0,0,0,0,0,0,0,0,0,0,,,,,,,,,,,
725670,1745065641440,0.0,172.32,,-0.04,-0.05,0.99,7,-1,0,0.99,1.14,87,2069,0.0,3.47,,13.44,1.045,70.0,,32.7,5,,,,,,,,,,,,0,0,0,0,0,0,0,0,0,0,0,0,0,0,0,0,,,,,0.0,,,,,,
725690,1745065641460,,,,,,,,,,,,,,,,,,,,,,,3,3,3,3,0.0,0.0,0.0,0.0,2.24,,,0,0,0,0,0,0,0,0,0,0,0,0,0,0,0,0,0,,,,,39.24017,-77.96492,4.75,36,2,0.8
725710,1745065641480,0.0,172.2,,-0.04,-0.04,0.99,7,-1,0,0.99,1.14,87,2116,0.0,3.5,,13.45,1.05,70.0,,35.0,5,,,,,,,,,,,,0,0,0,0,0,0,0,0,0,0,0,0,0,0,0,0,,,,,0.0,,,,,,
725730,1745065641500,,,,,,,,,,,,,,,,,,,,,,,,,,,,,,,,,,0,0,0,0,0,0,0,0,0,0,0,0,0,0,0,0,,,,,,,,,,,
725750,1745065641520,0.0,172.32,,-0.05,-0.01,0.99,7,-1,0,0.99,1.14,87,2303,0.0,3.36,,13.35,1.051,70.0,,35.0,5,,,,,,,,,,,,0,0,0,0,0,0,0,0,0,0,0,0,0,0,0,0,,,,,0.0,,,,,,
725770,1745065641540,,,,,,,,,,,,,,,,,,,,,,,,,,,,,,,,,,0,0,0,0,0,0,0,0,0,0,0,0,0,0,0,0,,,,,,,,,,,
725790,1745065641560,0.0,172.32,,-0.04,-0.03,1.01,7,-1,0,1.01,1.14,89,2689,0.0,3.32,,13.25,1.09,70.0,,35.0,5,3,3,3,3,0.0,0.0,0.0,0.0,2.24,,,0,0,0,0,0,0,0,0,0,0,0,0,0,0,0,0,0,,,,0.0,39.24017,-77.964912,4.76,36,2,0.8
725810,1745065641580,,,,,,,,,,,,,,,,,,,,,,,,,,,,,,,,,,0,0,0,0,0,0,0,0,0,0,0,0,0,0,0,0,,,,,,,,,,,
725830,1745065641602,0.0,172.32,,-0.05,-0.01,0.99,7,-1,0,0.99,1.14,88,2678,0.0,4.89,,13.25,1.09,70.0,,38.5,5,,,,,,,,,,,,0,0,0,0,0,0,0,0,0,0,0,0,0,0,0,0,,,,,0.0,,,,,,
725850,1745065641622,,,,,,,,,,,,,,,,,,,,,,,,,,,,,,,,,,0,0,0,0,0,0,0,0,0,0,0,0,0,0,0,0,,,,,,,,,,,
725870,1745065641642,0.0,172.45,,-0.06,-0.04,1.02,7,-1,0,1.02,1.14,90,2678,0.0,4.89,,13.11,1.044,70.0,,38.5,5,,,,,,,,,,,,0,0,0,0,0,0,0,0,0,0,0,0,0,0,0,0,,,,,0.0,,,,,,
725890,1745065641662,,,,,,,,,,,,,,,,,,,,,,,3,3,3,3,0.0,0.0,0.0,0.0,2.24,,,0,0,0,0,0,0,0,0,0,0,0,0,0,0,0,0,0,,,,,39.24017,-77.964912,4.63,36,2,0.8
725910,1745065641682,0.0,172.45,,-0.06,-0.01,0.99,7,-1,0,0.99,1.14,87,2597,0.0,3.21,,12.96,0.985,70.0,,41.4,5,,,,,,,,,,,,0,0,0,0,0,0,0,0,0,0,0,0,0,0,0,0,,,,,0.0,,,,,,
725930,1745065641702,,,,,,,,,,,,,,,,,,,,,,,,,,,,,,,,,,0,0,0,0,0,0,0,0,0,0,0,0,0,0,0,0,,,,,,,,,,,
725950,1745065641720,0.0,172.45,,-0.06,-0.01,1.01,7,-1,-0,1.01,1.14,89,2665,0.0,3.23,,12.93,0.958,70.0,,41.4,5,,,,,,,,,,,,0,0,0,0,0,0,0,0,0,0,0,0,0,0,0,0,,,,,0.0,,,,,,
725970,1745065641740,,,,,,,,,,,,,,,,,,,,,,,,,,,,,,,,,,0,0,0,0,0,0,0,0,0,0,0,0,0,0,0,0,,,,,,,,,,,
725990,1745065641760,0.0,172.45,,-0.06,-0.0,1.01,7,-1,0,1.01,1.14,89,2693,0.0,3.19,,12.91,0.97,70.0,,41.4,5,3,3,3,3,0.0,0.0,0.0,0.0,2.25,,,0,0,0,0,0,0,0,0,0,0,0,0,0,0,0,0,0,,,,0.0,39.24017,-77.964912,4.86,36,2,0.8
726010,1745065641780,,,,,,,,,,,,,,,,,,,,,,,,,,,,,,,,,,0,0,0,0,0,0,0,0,0,0,0,0,0,0,0,0,,,,,,,,,,,
726030,1745065641802,0.0,172.45,,-0.07,-0.0,1.0,7,-1,0,1.01,1.14,88,2693,0.0,3.19,,12.91,0.97,70.0,,42.1,5,,,,,,,,,,,,0,0,0,0,0,0,0,0,0,0,0,0,0,0,0,0,,,,,0.0,,,,,,
726050,1745065641822,,,,,,,,,,,,,,,,,,,,,,,,,,,,,,,,,,0,0,0,0,0,0,0,0,0,0,0,0,0,0,0,0,,,,,,,,,,,
726070,1745065641842,0.0,172.45,,-0.07,-0.01,1.0,7,-1,0,1.01,1.14,89,2633,0.0,3.17,,12.85,0.992,70.0,,42.1,5,,,,,,,,,,,,0,0,0,0,0,0,0,0,0,0,0,0,0,0,0,0,,,,,0.0,,,,,,
726090,1745065641862,,,,,,,,,,,,,,,,,,,,,,,3,3,3,3,0.0,0.0,0.0,0.0,2.25,,,0,0,0,0,0,0,0,0,0,0,0,0,0,0,0,0,0,,,,,39.24017,-77.964912,4.84,36,2,0.8
726110,1745065641882,0.0,172.45,,-0.06,-0.01,1.01,7,-1,0,1.01,1.14,89,2580,0.0,3.2,,12.89,1.026,70.0,,41.7,5,,,,,,,,,,,,0,0,0,0,0,0,0,0,0,0,0,0,0,0,0,0,,,,,0.0,,,,,,
726130,1745065641902,,,,,,,,,,,,,,,,,,,,,,,,,,,,,,,,,,0,0,0,0,0,0,0,0,0,0,0,0,0,0,0,0,,,,,,,,,,,
726150,1745065641922,0.0,172.45,,-0.07,-0.02,1.0,7,-1,0,1.01,1.14,89,2586,0.0,3.19,,12.87,1.057,70.0,,41.7,5,,,,,,,,,,,,0,0,0,0,0,0,0,0,0,0,0,0,0,0,0,0,,,,,0.0,,,,,,
726170,1745065641942,,,,,,,,,,,,,,,,,,,,,,,,,,,,,,,,,,0,0,0,0,0,0,0,0,0,0,0,0,0,0,0,0,,,,,,,,,,,
726190,1745065641962,0.0,172.45,,-0.07,-0.01,1.03,7,-1,0,1.03,1.14,91,2483,0.0,3.22,,12.96,1.089,70.0,,41.7,5,3,3,3,3,0.0,0.0,0.0,0.0,2.24,,,0,0,0,0,0,0,0,0,0,0,0,0,0,0,0,0,0,,,,0.0,39.24017,-77.964912,4.81,36,2,0.8
726210,1745065641982,,,,,,,,,,,,,,,,,,,,,,,,,,,,,,,,,,0,0,0,0,0,0,0,0,0,0,0,0,0,0,0,0,,,,,,,,,,,
726230,1745065642002,0.0,172.45,,-0.07,0.0,1.01,7,-1,0,1.02,1.14,89,2503,0.0,3.25,,12.96,1.089,70.0,,40.2,5,,,,,,,,,,,,0,0,0,0,0,0,0,0,0,0,0,0,0,0,0,0,,,,,0.0,,,,,,
726250,1745065642012,,,,,,,,,,,,,,,,,,,,,,,,,,,,,,,,,,0,0,0,0,0,0,0,0,0,0,0,0,0,0,0,0,,,,,,,,,,,
726270,1745065642032,0.0,172.45,,-0.07,-0.01,1.02,7,-1,1,1.02,1.14,90,2503,0.0,3.25,,12.97,1.105,70.0,,40.2,5,,,,,,,,,,,,0,0,0,0,0,0,0,0,0,0,0,0,0,0,0,0,,,,,0.0,,,,,,
726290,1745065642052,,,,,,,,,,,,,,,,,,,,,,,3,3,3,3,0.0,0.0,0.0,0.0,2.24,,,0,0,0,0,0,0,0,0,0,0,0,0,0,0,0,0,0,,,,,39.24017,-77.964912,4.79,36,2,0.8
726310,1745065642072,0.0,172.45,,-0.07,0.0,1.0,7,-1,0,1.0,1.14,88,2669,0.0,3.28,,12.97,1.114,70.0,,42.1,5,,,,,,,,,,,,0,0,0,0,0,0,0,0,0,0,0,0,0,0,0,0,,,,,0.0,,,,,,
726330,1745065642092,,,,,,,,,,,,,,,,,,,,,,,,,,,,,,,,,,0,0,0,0,0,0,0,0,0,0,0,0,0,0,0,0,,,,,,,,,,,
726350,1745065642118,0.0,172.32,,-0.07,-0.03,1.02,7,-1,0,1.02,1.14,90,2737,0.0,3.16,,12.81,1.139,70.0,,42.1,5,,,,,,,,,,,,0,0,0,0,0,0,0,0,0,0,0,0,0,0,0,0,,,,,0.0,,,,,,
726370,1745065642138,,,,,,,,,,,,,,,,,,,,,,,,,,,,,,,,,,0,0,0,0,0,0,0,0,0,0,0,0,0,0,0,0,,,,,,,,,,,
726390,1745065642158,0.0,172.45,12.94,-0.07,-0.02,0.98,7,-1,0,0.98,1.14,87,2658,0.0,3.2,15,12.85,1.083,70.0,156,42.1,5,3,3,3,3,0.0,0.0,0.0,0.0,2.25,0,1.0,0,0,0,0,0,0,0,0,0,0,0,0,0,0,0,0,0,0.0,0,0,0.0,39.24017,-77.964912,4.91,36,2,0.8
726410,1745065642178,,,,,,,,,,,,,,,,,,,,,,,,,,,,,,,,,,0,0,0,0,0,0,0,0,0,0,0,0,0,0,0,0,,,,,,,,,,,
726430,1745065642198,0.0,172.45,,-0.08,-0.0,0.98,7,-1,0,0.98,1.14,87,2780,0.0,3.14,,12.85,1.083,70.0,,43.8,5,,,,,,,,,,,,0,0,0,0,0,0,0,0,0,0,0,0,0,0,0,0,,,,,0.0,,,,,,
726450,1745065642218,,,,,,,,,,,,,,,,,,,,,,,,,,,,,,,,,,0,0,0,0,0,0,0,0,0,0,0,0,0,0,0,0,,,,,,,,,,,
726470,1745065642238,0.0,172.45,,-0.09,0.01,1.0,7,-1,0,1.0,1.14,88,2780,0.0,3.14,,12.77,1.018,70.0,,43.8,5,,,,,,,,,,,,0,0,0,0,0,0,0,0,0,0,0,0,0,0,0,0,,,,,0.0,,,,,,
726490,1745065642258,,,,,,,,,,,,,,,,,,,,,,,3,3,3,3,0.0,0.0,0.0,0.0,2.24,,,0,0,0,0,0,0,0,0,0,0,0,0,0,0,0,0,0,,,,,39.24017,-77.964912,4.53,36,2,0.8
726510,1745065642278,0.0,172.45,,-0.09,0.03,0.99,7,-1,0,0.99,1.14,87,2655,0.0,3.17,,12.83,1.002,70.0,,43.8,5,,,,,,,,,,,,0,0,0,0,0,0,0,0,0,0,0,0,0,0,0,0,,,,,0.0,,,,,,
726530,1745065642301,,,,,,,,,,,,,,,,,,,,,,,,,,,,,,,,,,0,0,0,0,0,0,0,0,0,0,0,0,0,0,0,0,,,,,,,,,,,
726550,1745065642321,0.0,172.45,,-0.08,0.02,0.98,7,-1,0,0.99,1.14,87,2646,0.0,3.21,,12.76,1.005,70.0,,42.3,5,,,,,,,,,,,,0,0,0,0,0,0,0,0,0,0,0,0,0,0,0,0,,,,,0.0,,,,,,
726570,1745065642341,,,,,,,,,,,,,,,,,,,,,,,,,,,,,,,,,,0,0,0,0,0,0,0,0,0,0,0,0,0,0,0,0,,,,,,,,,,,
726590,1745065642361,0.0,172.45,,-0.09,0.02,1.0,7,-1,1,1.0,1.14,88,2484,0.0,3.24,,12.88,1.01,70.0,,42.3,5,3,3,3,3,0.0,0.0,0.0,0.0,2.25,,,0,0,0,0,0,0,0,0,0,0,0,0,0,0,0,0,0,,,,0.0,39.24017,-77.964905,4.61,36,2,0.8
726610,1745065642381,,,,,,,,,,,,,,,,,,,,,,,,,,,,,,,,,,0,0,0,0,0,0,0,0,0,0,0,0,0,0,0,0,,,,,,,,,,,
726630,1745065642401,0.0,172.45,,-0.07,-0.01,0.99,7,-1,0,1.0,1.14,88,2392,0.0,3.33,,12.88,1.01,70.0,,38.1,5,,,,,,,,,,,,0,0,0,0,0,0,0,0,0,0,0,0,0,0,0,0,,,,,0.0,,,,,,
726650,1745065642419,,,,,,,,,,,,,,,,,,,,,,,,,,,,,,,,,,0,0,0,0,0,0,0,0,0,0,0,0,0,0,0,0,,,,,,,,,,,
726670,1745065642439,0.0,172.45,,-0.06,-0.01,0.98,7,-1,1,0.99,1.14,87,2392,0.0,3.33,,12.99,1.007,70.0,,38.1,5,,,,,,,,,,,,0,0,0,0,0,0,0,0,0,0,0,0,0,0,0,0,,,,,0.0,,,,,,
726690,1745065642459,,,,,,,,,,,,,,,,,,,,,,,3,3,3,3,0.0,0.0,0.0,0.0,2.25,,,0,0,0,0,0,0,0,0,0,0,0,0,0,0,0,0,0,,,,,39.24017,-77.964905,4.69,36,2,0.8
726710,1745065642479,0.0,172.45,,-0.06,-0.02,0.98,7,-1,0,0.98,1.14,87,2249,0.0,3.37,,13.15,1.018,70.0,,36.8,5,,,,,,,,,,,,0,0,0,0,0,0,0,0,0,0,0,0,0,0,0,0,,,,,0.0,,,,,,
726730,1745065642501,,,,,,,,,,,,,,,,,,,,,,,,,,,,,,,,,,0,0,0,0,0,0,0,0,0,0,0,0,0,0,0,0,,,,,,,,,,,
726750,1745065642521,0.0,172.32,,-0.07,-0.02,0.97,7,-1,0,0.98,1.14,86,2388,0.0,3.37,,13.19,1.065,70.0,,36.8,5,,,,,,,,,,,,0,0,0,0,0,0,0,0,0,0,0,0,0,0,0,0,,,,,0.0,,,,,,
726770,1745065642541,,,,,,,,,,,,,,,,,,,,,,,,,,,,,,,,,,0,0,0,0,0,0,0,0,0,0,0,0,0,0,0,0,,,,,,,,,,,
726790,1745065642561,0.0,172.32,,-0.07,-0.01,0.98,7,-1,0,0.98,1.14,86,2358,0.0,3.35,,13.19,1.065,70.0,,36.8,5,3,3,3,3,0.0,0.0,0.0,0.0,2.24,,,0,0,0,0,0,0,0,0,0,0,0,0,0,0,0,0,0,,,,0.0,39.24017,-77.964905,4.57,36,2,0.8
726810,1745065642581,,,,,,,,,,,,,,,,,,,,,,,,,,,,,,,,,,0,0,0,0,0,0,0,0,0,0,0,0,0,0,0,0,,,,,,,,,,,
726830,1745065642601,0.0,172.32,,-0.07,-0.02,1.0,7,-1,0,1.0,1.14,88,2317,0.0,3.35,,13.2,1.122,70.0,,36.2,5,,,,,,,,,,,,0,0,0,0,0,0,0,0,0,0,0,0,0,0,0,0,,,,,0.0,,,,,,
726850,1745065642619,,,,,,,,,,,,,,,,,,,,,,,,,,,,,,,,,,0,0,0,0,0,0,0,0,0,0,0,0,0,0,0,0,,,,,,,,,,,
726870,1745065642639,0.0,172.32,,-0.06,-0.04,1.0,7,-1,-0,1.0,1.14,88,2317,0.0,3.35,,13.2,1.109,70.0,,36.2,5,,,,,,,,,,,,0,0,0,0,0,0,0,0,0,0,0,0,0,0,0,0,,,,,0.0,,,,,,
726890,1745065642659,,,,,,,,,,,,,,,,,,,,,,,3,3,3,3,0.0,0.0,0.0,0.0,2.25,,,0,0,0,0,0,0,0,0,0,0,0,0,0,0,0,0,0,,,,,39.24017,-77.964905,4.62,36,2,0.8
726910,1745065642679,0.0,172.32,,-0.06,-0.04,1.01,7,-1,-0,1.01,1.14,89,2283,0.0,3.4,,13.21,1.067,70.0,,34.5,5,,,,,,,,,,,,0,0,0,0,0,0,0,0,0,0,0,0,0,0,0,0,,,,,0.0,,,,,,
726930,1745065642701,,,,,,,,,,,,,,,,,,,,,,,,,,,,,,,,,,0,0,0,0,0,0,0,0,0,0,0,0,0,0,0,0,,,,,,,,,,,
726950,1745065642721,0.0,172.32,,-0.06,-0.04,1.01,6,-1,0,1.01,1.14,89,2192,0.0,3.42,,13.32,1.045,70.0,,34.5,5,,,,,,,,,,,,0,0,0,0,0,0,0,0,0,0,0,0,0,0,0,0,,,,,0.0,,,,,,
726970,1745065642741,,,,,,,,,,,,,,,,,,,,,,,,,,,,,,,,,,0,0,0,0,0,0,0,0,0,0,0,0,0,0,0,0,,,,,,,,,,,
726990,1745065642761,0.0,172.2,,-0.07,-0.03,1.01,6,-1,0,1.01,1.14,89,2156,0.0,3.45,,13.35,1.045,70.0,,34.5,5,3,3,3,3,0.0,0.0,0.0,0.0,2.24,,,0,0,0,0,0,0,0,0,0,0,0,0,0,0,0,0,0,,,,0.0,39.24017,-77.964905,4.79,36,2,0.8
727010,1745065642781,,,,,,,,,,,,,,,,,,,,,,,,,,,,,,,,,,0,0,0,0,0,0,0,0,0,0,0,0,0,0,0,0,,,,,,,,,,,
727030,1745065642801,0.0,172.2,,-0.07,-0.05,1.02,6,-1,0,1.03,1.14,90,2085,0.0,3.44,,13.35,1.045,70.0,,32.7,5,,,,,,,,,,,,0,0,0,0,0,0,0,0,0,0,0,0,0,0,0,0,,,,,0.0,,,,,,
727050,1745065642819,,,,,,,,,,,,,,,,,,,,,,,,,,,,,,,,,,0,0,0,0,0,0,0,0,0,0,0,0,0,0,0,0,,,,,,,,,,,
727070,1745065642839,0.0,172.2,,-0.09,-0.03,1.02,6,-1,0,1.03,1.14,90,2085,0.0,3.44,,13.44,1.053,70.0,,32.7,5,,,,,,,,,,,,0,0,0,0,0,0,0,0,0,0,0,0,0,0,0,0,,,,,0.0,,,,,,
727090,1745065642859,,,,,,,,,,,,,,,,,,,,,,,3,3,3,3,0.0,0.0,0.0,0.0,2.25,,,0,0,0,0,0,0,0,0,0,0,0,0,0,0,0,0,0,,,,,39.24017,-77.964897,4.45,36,2,0.8
727110,1745065642879,0.0,172.2,,-0.08,-0.03,1.04,6,-1,0,1.04,1.14,92,2021,0.0,3.48,,13.43,1.059,70.0,,31.8,5,,,,,,,,,,,,0,0,0,0,0,0,0,0,0,0,0,0,0,0,0,0,,,,,0.0,,,,,,
727130,1745065642901,,,,,,,,,,,,,,,,,,,,,,,,,,,,,,,,,,0,0,0,0,0,0,0,0,0,0,0,0,0,0,0,0,,,,,,,,,,,
727150,1745065642921,0.0,172.2,,-0.08,-0.05,1.04,6,-1,0,1.04,1.14,92,2022,0.0,3.49,,13.52,1.058,70.0,,31.8,5,,,,,,,,,,,,0,0,0,0,0,0,0,0,0,0,0,0,0,0,0,0,,,,,0.0,,,,,,
727170,1745065642941,,,,,,,,,,,,,,,,,,,,,,,,,,,,,,,,,,0,0,0,0,0,0,0,0,0,0,0,0,0,0,0,0,,,,,,,,,,,
727190,1745065642961,0.0,172.2,,-0.09,-0.03,1.04,6,-1,0,1.05,1.14,92,2045,0.0,3.51,,13.48,1.05,70.0,,31.8,5,3,3,3,3,0.0,0.0,0.0,0.0,2.25,,,0,0,0,0,0,0,0,0,0,0,0,0,0,0,0,0,0,,,,0.0,39.24017,-77.964897,4.52,36,2,0.8
727210,1745065642981,,,,,,,,,,,,,,,,,,,,,,,,,,,,,,,,,,0,0,0,0,0,0,0,0,0,0,0,0,0,0,0,0,,,,,,,,,,,
727230,1745065643001,0.0,172.2,,-0.09,-0.05,1.02,6,-1,0,1.03,1.14,90,2044,0.0,3.52,,13.48,1.05,70.0,,30.7,5,,,,,,,,,,,,0,0,0,0,0,0,0,0,0,0,0,0,0,0,0,0,,,,,0.0,,,,,,
727250,1745065643013,,,,,,,,,,,,,,,,,,,,,,,,,,,,,,,,,,0,0,0,0,0,0,0,0,0,0,0,0,0,0,0,0,,,,,,,,,,,
727270,1745065643033,0.0,172.2,,-0.07,-0.07,1.01,7,-1,-0,1.01,1.14,89,2044,0.0,3.52,,13.48,1.049,70.0,,30.7,5,,,,,,,,,,,,0,0,0,0,0,0,0,0,0,0,0,0,0,0,0,0,,,,,0.0,,,,,,
727290,1745065643053,,,,,,,,,,,,,,,,,,,,,,,3,3,3,3,0.0,0.0,0.0,0.0,2.24,,,0,0,0,0,0,0,0,0,0,0,0,0,0,0,0,0,0,,,,,39.24017,-77.964897,4.46,36,2,0.8
727310,1745065643073,0.0,172.2,,-0.06,-0.09,0.99,7,-1,-0,1.0,1.14,88,2250,0.0,3.36,,13.36,1.077,70.0,,34.8,5,,,,,,,,,,,,0,0,0,0,0,0,0,0,0,0,0,0,0,0,0,0,,,,,0.0,,,,,,
727330,1745065643093,,,,,,,,,,,,,,,,,,,,,,,,,,,,,,,,,,0,0,0,0,0,0,0,0,0,0,0,0,0,0,0,0,,,,,,,,,,,
727350,1745065643119,0.0,172.07,,-0.06,-0.06,0.99,7,-1,0,0.99,1.14,88,2317,0.0,3.39,,13.31,1.096,70.0,,34.8,5,,,,,,,,,,,,0,0,0,0,0,0,0,0,0,0,0,0,0,0,0,0,,,,,0.0,,,,,,
727370,1745065643139,,,,,,,,,,,,,,,,,,,,,,,,,,,,,,,,,,0,0,0,0,0,0,0,0,0,0,0,0,0,0,0,0,,,,,,,,,,,
727390,1745065643159,0.0,172.07,12.89,-0.07,-0.07,0.98,7,-1,-0,0.99,1.14,87,2245,0.0,3.38,15,13.35,1.063,70.0,156,34.8,5,3,3,3,3,0.0,0.0,0.0,0.0,2.24,0,1.0,0,0,0,0,0,0,0,0,0,0,0,0,0,0,0,0,0,0.0,0,0,0.0,39.24017,-77.964897,4.47,36,2,0.8
727410,1745065643179,,,,,,,,,,,,,,,,,,,,,,,,,,,,,,,,,,0,0,0,0,0,0,0,0,0,0,0,0,0,0,0,0,,,,,,,,,,,
727430,1745065643199,0.0,172.07,,-0.06,-0.08,0.98,7,-1,-0,0.98,1.14,86,2196,0.0,3.42,,13.35,1.063,70.0,,34.4,5,,,,,,,,,,,,0,0,0,0,0,0,0,0,0,0,0,0,0,0,0,0,,,,,0.0,,,,,,
727450,1745065643219,,,,,,,,,,,,,,,,,,,,,,,,,,,,,,,,,,0,0,0,0,0,0,0,0,0,0,0,0,0,0,0,0,,,,,,,,,,,
727470,1745065643239,0.0,172.2,,-0.06,-0.07,0.98,7,-1,-0,0.98,1.14,86,2196,0.0,3.42,,13.41,1.017,70.0,,34.4,5,,,,,,,,,,,,0,0,0,0,0,0,0,0,0,0,0,0,0,0,0,0,,,,,0.0,,,,,,
727490,1745065643259,,,,,,,,,,,,,,,,,,,,,,,3,3,3,3,0.0,0.0,0.0,0.0,2.24,,,0,0,0,0,0,0,0,0,0,0,0,0,0,0,0,0,0,,,,,39.240173,-77.96489,4.5,36,2,0.8
727510,1745065643279,0.0,172.2,,-0.06,-0.07,0.99,7,-0,-0,1.0,1.14,88,2186,0.0,3.41,,13.37,0.999,70.0,,34.4,5,,,,,,,,,,,,0,0,0,0,0,0,0,0,0,0,0,0,0,0,0,0,,,,,0.0,,,,,,
727530,1745065643301,,,,,,,,,,,,,,,,,,,,,,,,,,,,,,,,,,0,0,0,0,0,0,0,0,0,0,0,0,0,0,0,0,,,,,,,,,,,
727550,1745065643321,0.0,172.2,,-0.07,-0.09,0.99,7,-0,-0,0.99,1.14,87,2115,0.0,3.46,,13.48,1.006,71.8,,33.2,5,,,,,,,,,,,,0,0,0,0,0,0,0,0,0,0,0,0,0,0,0,0,,,,,0.0,,,,,,
727570,1745065643341,,,,,,,,,,,,,,,,,,,,,,,,,,,,,,,,,,0,0,0,0,0,0,0,0,0,0,0,0,0,0,0,0,,,,,,,,,,,
727590,1745065643361,0.0,172.07,,-0.08,-0.08,0.99,7,-0,-0,1.0,1.14,88,2110,0.0,3.49,,13.41,1.024,71.8,,33.2,5,3,3,3,3,0.0,0.0,0.0,0.0,2.25,,,0,0,0,0,0,0,0,0,0,0,0,0,0,0,0,0,0,,,,0.0,39.240173,-77.96489,4.56,36,2,0.8
727610,1745065643381,,,,,,,,,,,,,,,,,,,,,,,,,,,,,,,,,,0,0,0,0,0,0,0,0,0,0,0,0,0,0,0,0,,,,,,,,,,,
727630,1745065643401,0.0,172.2,,-0.09,-0.08,0.99,6,-1,-0,0.99,1.14,88,2011,0.0,3.49,,13.41,1.024,71.8,,31.8,5,,,,,,,,,,,,0,0,0,0,0,0,0,0,0,0,0,0,0,0,0,0,,,,,0.0,,,,,,
727650,1745065643420,,,,,,,,,,,,,,,,,,,,,,,,,,,,,,,,,,0,0,0,0,0,0,0,0,0,0,0,0,0,0,0,0,,,,,,,,,,,
727670,1745065643440,0.0,172.2,,-0.08,-0.06,0.98,6,-1,-0,0.99,1.14,87,2011,0.0,3.49,,13.49,1.039,71.8,,31.8,5,,,,,,,,,,,,0,0,0,0,0,0,0,0,0,0,0,0,0,0,0,0,,,,,0.0,,,,,,
727690,1745065643460,,,,,,,,,,,,,,,,,,,,,,,3,2,3,3,0.0,0.0,0.0,0.0,2.25,,,0,0,0,0,0,0,0,0,0,0,0,0,0,0,0,0,0,,,,,39.240173,-77.96489,4.24,36,2,0.8
727710,1745065643480,0.0,172.2,,-0.08,-0.05,1.0,6,-1,-0,1.01,1.14,89,1908,0.0,3.51,,13.55,1.05,71.8,,27.1,5,,,,,,,,,,,,0,0,0,0,0,0,0,0,0,0,0,0,0,0,0,0,,,,,0.0,,,,,,
727730,1745065643500,,,,,,,,,,,,,,,,,,,,,,,,,,,,,,,,,,0,0,0,0,0,0,0,0,0,0,0,0,0,0,0,0,,,,,,,,,,,
727750,1745065643520,0.0,172.2,,-0.08,-0.02,0.99,6,-0,-0,0.99,1.14,87,1789,0.0,3.55,,13.63,1.06,71.8,,27.1,5,,,,,,,,,,,,0,0,0,0,0,0,0,0,0,0,0,0,0,0,0,0,,,,,0.0,,,,,,
727770,1745065643540,,,,,,,,,,,,,,,,,,,,,,,,,,,,,,,,,,0,0,0,0,0,0,0,0,0,0,0,0,0,0,0,0,,,,,,,,,,,
727790,1745065643560,0.0,172.2,,-0.09,-0.03,0.98,6,-1,-0,0.99,1.14,87,1682,0.0,3.54,,13.63,1.056,71.8,,27.1,5,3,3,3,3,0.0,0.0,0.0,0.0,2.24,,,0,0,0,0,0,0,0,0,0,0,0,0,0,0,0,0,0,,,,0.0,39.240173,-77.96489,4.32,36,2,0.8
727810,1745065643580,,,,,,,,,,,,,,,,,,,,,,,,,,,,,,,,,,0,0,0,0,0,0,0,0,0,0,0,0,0,0,0,0,,,,,,,,,,,
727830,1745065643602,0.0,172.2,,-0.09,-0.04,0.99,6,-1,-0,0.99,1.14,87,1604,0.0,3.57,,13.63,1.056,71.8,,25.4,5,,,,,,,,,,,,0,0,0,0,0,0,0,0,0,0,0,0,0,0,0,0,,,,,0.0,,,,,,
727850,1745065643622,,,,,,,,,,,,,,,,,,,,,,,,,,,,,,,,,,0,0,0,0,0,0,0,0,0,0,0,0,0,0,0,0,,,,,,,,,,,
727870,1745065643642,0.0,172.2,,-0.09,-0.04,0.98,6,-1,0,0.99,1.14,87,1604,0.0,3.57,,13.8,1.059,71.8,,25.4,5,,,,,,,,,,,,0,0,0,0,0,0,0,0,0,0,0,0,0,0,0,0,,,,,0.0,,,,,,
727890,1745065643662,,,,,,,,,,,,,,,,,,,,,,,3,3,3,3,0.0,0.0,0.0,0.0,2.24,,,0,0,0,0,0,0,0,0,0,0,0,0,0,0,0,0,0,,,,,39.240173,-77.96489,4.19,36,2,0.8
727910,1745065643682,0.0,172.07,,-0.09,-0.05,0.97,6,-1,0,0.98,1.14,86,1447,0.0,3.56,,13.79,1.056,71.8,,21.9,5,,,,,,,,,,,,0,0,0,0,0,0,0,0,0,0,0,0,0,0,0,0,,,,,0.0,,,,,,
727930,1745065643702,,,,,,,,,,,,,,,,,,,,,,,,,,,,,,,,,,0,0,0,0,0,0,0,0,0,0,0,0,0,0,0,0,,,,,,,,,,,
727950,1745065643722,0.0,172.07,,-0.08,-0.06,0.98,6,-0,0,0.99,1.14,87,1442,0.0,3.59,,13.86,1.055,71.8,,21.9,5,,,,,,,,,,,,0,0,0,0,0,0,0,0,0,0,0,0,0,0,0,0,,,,,0.0,,,,,,
727970,1745065643742,,,,,,,,,,,,,,,,,,,,,,,,,,,,,,,,,,0,0,0,0,0,0,0,0,0,0,0,0,0,0,0,0,,,,,,,,,,,
727990,1745065643762,0.0,172.07,,-0.07,-0.05,0.99,5,-0,0,0.99,1.14,88,1199,0.0,3.59,,13.88,1.058,71.8,,21.9,5,3,3,3,2,0.0,0.0,0.0,0.0,2.24,,,0,0,0,0,0,0,0,0,0,0,0,0,0,0,0,0,0,,,,0.0,39.240173,-77.964882,4.26,36,2,0.8
728010,1745065643782,,,,,,,,,,,,,,,,,,,,,,,,,,,,,,,,,,0,0,0,0,0,0,0,0,0,0,0,0,0,0,0,0,,,,,,,,,,,
728030,1745065643802,0.0,172.07,,-0.07,-0.05,0.98,5,-0,0,0.98,1.14,86,1196,0.0,3.62,,13.88,1.058,71.8,,19.5,5,,,,,,,,,,,,0,0,0,0,0,0,0,0,0,0,0,0,0,0,0,0,,,,,0.0,,,,,,
728050,1745065643820,,,,,,,,,,,,,,,,,,,,,,,,,,,,,,,,,,0,0,0,0,0,0,0,0,0,0,0,0,0,0,0,0,,,,,,,,,,,
728070,1745065643840,0.0,172.07,,-0.06,-0.06,0.98,5,-0,0,0.99,1.14,87,1196,0.0,3.62,,14.06,1.098,71.8,,19.5,5,,,,,,,,,,,,0,0,0,0,0,0,0,0,0,0,0,0,0,0,0,0,,,,,0.0,,,,,,
728090,1745065643860,,,,,,,,,,,,,,,,,,,,,,,3,2,3,3,0.0,0.0,0.0,0.0,2.24,,,0,0,0,0,0,0,0,0,0,0,0,0,0,0,0,0,0,,,,,39.240173,-77.964882,4.31,36,2,0.8
728110,1745065643880,0.0,171.95,,-0.07,-0.05,0.99,5,-0,0,0.99,1.14,87,1032,0.0,3.62,,14.03,1.121,71.8,,18.5,5,,,,,,,,,,,,0,0,0,0,0,0,0,0,0,0,0,0,0,0,0,0,,,,,0.0,,,,,,
728130,1745065643902,,,,,,,,,,,,,,,,,,,,,,,,,,,,,,,,,,0,0,0,0,0,0,0,0,0,0,0,0,0,0,0,0,,,,,,,,,,,
728150,1745065643922,0.0,171.95,,-0.08,-0.05,1.0,5,-0,0,1.0,1.14,88,1237,0.0,3.64,,14.03,1.172,71.8,,18.5,5,,,,,,,,,,,,0,0,0,0,0,0,0,0,0,0,0,0,0,0,0,0,,,,,0.0,,,,,,
728170,1745065643942,,,,,,,,,,,,,,,,,,,,,,,,,,,,,,,,,,0,0,0,0,0,0,0,0,0,0,0,0,0,0,0,0,,,,,,,,,,,
728190,1745065643962,0.0,171.95,,-0.07,-0.06,1.0,5,-0,0,1.0,1.14,88,986,0.0,3.62,,13.95,1.178,71.8,,18.5,5,3,3,3,3,0.0,0.0,0.0,0.0,2.25,,,0,0,0,0,0,0,0,0,0,0,0,0,0,0,0,0,0,,,,0.0,39.240173,-77.964882,4.22,36,2,0.8
728210,1745065643982,,,,,,,,,,,,,,,,,,,,,,,,,,,,,,,,,,0,0,0,0,0,0,0,0,0,0,0,0,0,0,0,0,,,,,,,,,,,
728230,1745065644002,0.0,171.82,,-0.07,-0.06,0.99,5,-0,0,1.0,1.14,88,1162,0.0,3.66,,13.95,1.178,71.8,,17.7,5,,,,,,,,,,,,0,0,0,0,0,0,0,0,0,0,0,0,0,0,0,0,,,,,0.0,,,,,,
728250,1745065644012,,,,,,,,,,,,,,,,,,,,,,,,,,,,,,,,,,0,0,0,0,0,0,0,0,0,0,0,0,0,0,0,0,,,,,,,,,,,
728270,1745065644032,0.0,171.82,,-0.07,-0.06,0.98,5,-0,0,0.99,1.14,87,1162,0.0,3.66,,13.94,1.184,71.8,,17.7,5,,,,,,,,,,,,0,0,0,0,0,0,0,0,0,0,0,0,0,0,0,0,,,,,0.0,,,,,,
728290,1745065644052,,,,,,,,,,,,,,,,,,,,,,,3,3,3,3,0.0,0.0,0.0,0.0,2.25,,,0,0,0,0,0,0,0,0,0,0,0,0,0,0,0,0,0,,,,,39.240173,-77.964882,4.25,36,2,0.8
728310,1745065644072,0.0,171.82,,-0.08,-0.04,0.99,5,-0,0,0.99,1.14,87,991,0.0,3.63,,14.06,1.193,71.8,,17.2,5,,,,,,,,,,,,0,0,0,0,0,0,0,0,0,0,0,0,0,0,0,0,,,,,0.0,,,,,,
728330,1745065644092,,,,,,,,,,,,,,,,,,,,,,,,,,,,,,,,,,0,0,0,0,0,0,0,0,0,0,0,0,0,0,0,0,,,,,,,,,,,
728350,1745065644118,0.0,171.82,,-0.08,-0.04,0.98,4,-0,0,0.99,1.14,87,1192,0.0,3.65,,14.04,1.183,71.8,,17.2,5,,,,,,,,,,,,0,0,0,0,0,0,0,0,0,0,0,0,0,0,0,0,,,,,0.0,,,,,,
728370,1745065644138,,,,,,,,,,,,,,,,,,,,,,,,,,,,,,,,,,0,0,0,0,0,0,0,0,0,0,0,0,0,0,0,0,,,,,,,,,,,
728390,1745065644158,0.0,171.69,12.7,-0.09,-0.04,0.98,4,-0,0,0.98,1.14,86,1000,0.0,3.62,15,14.0,1.187,71.8,158,17.2,5,3,8,3,3,0.0,99.0,0.0,0.0,2.24,0,1.0,0,0,0,0,0,0,0,0,0,0,0,0,0,0,0,0,0,0.0,0,0,0.0,39.240173,-77.964874,4.32,36,2,0.8
728410,1745065644178,,,,,,,,,,,,,,,,,,,,,,,,,,,,,,,,,,0,0,0,0,0,0,0,0,0,0,0,0,0,0,0,0,,,,,,,,,,,
728430,1745065644198,0.0,171.69,,-0.08,-0.04,0.98,4,-0,0,0.98,1.14,86,1205,0.0,3.64,,14.0,1.187,71.8,,16.8,5,,,,,,,,,,,,0,0,0,0,0,0,0,0,0,0,0,0,0,0,0,0,,,,,0.0,,,,,,
728450,1745065644220,,,,,,,,,,,,,,,,,,,,,,,,,,,,,,,,,,0,0,0,0,0,0,0,0,0,0,0,0,0,0,0,0,,,,,,,,,,,
728470,1745065644240,0.0,171.69,,-0.08,-0.04,0.96,4,-0,0,0.96,1.14,85,1205,0.0,3.64,,13.96,1.175,71.8,,16.8,5,,,,,,,,,,,,0,0,0,0,0,0,0,0,0,0,0,0,0,0,0,0,,,,,0.0,,,,,,
728490,1745065644260,,,,,,,,,,,,,,,,,,,,,,,3,8,3,2,0.0,91.0,0.0,0.0,2.24,,,0,0,0,0,0,0,0,0,0,0,0,0,0,0,0,0,0,,,,,39.240173,-77.964874,4.29,36,2,0.8
728510,1745065644280,0.0,171.57,,-0.08,-0.05,0.97,4,-0,0,0.97,1.14,85,1205,0.0,3.64,,13.96,1.185,71.8,,16.9,5,,,,,,,,,,,,0,0,0,0,0,0,0,0,0,0,0,0,0,0,0,0,,,,,0.0,,,,,,
728530,1745065644302,,,,,,,,,,,,,,,,,,,,,,,,,,,,,,,,,,0,0,0,0,0,0,0,0,0,0,0,0,0,0,0,0,,,,,,,,,,,
728550,1745065644322,0.0,171.57,,-0.07,-0.05,1.0,4,-0,0,1.0,1.14,88,1033,0.0,3.62,,13.91,1.181,71.8,,16.9,5,,,,,,,,,,,,0,0,0,0,0,0,0,0,0,0,0,0,0,0,0,0,,,,,0.0,,,,,,
728570,1745065644342,,,,,,,,,,,,,,,,,,,,,,,,,,,,,,,,,,0,0,0,0,0,0,0,0,0,0,0,0,0,0,0,0,,,,,,,,,,,
728590,1745065644362,0.0,171.57,,-0.06,-0.05,1.0,4,-0,0,1.01,1.14,89,1373,0.0,3.61,,13.95,1.197,71.8,,16.9,5,3,8,3,3,0.0,99.0,0.0,0.0,2.24,,,0,0,0,0,0,0,0,0,0,0,0,0,0,0,0,0,0,,,,0.0,39.240173,-77.964874,4.23,36,2,0.8
728610,1745065644382,,,,,,,,,,,,,,,,,,,,,,,,,,,,,,,,,,0,0,0,0,0,0,0,0,0,0,0,0,0,0,0,0,,,,,,,,,,,
728630,1745065644401,0.0,171.57,,-0.08,-0.05,1.02,4,-0,0,1.02,1.14,90,1642,0.0,3.6,,13.95,1.197,71.8,,21.3,5,,,,,,,,,,,,0,0,0,0,0,0,0,0,0,0,0,0,0,0,0,0,,,,,0.0,,,,,,
728650,1745065644421,,,,,,,,,,,,,,,,,,,,,,,,,,,,,,,,,,0,0,0,0,0,0,0,0,0,0,0,0,0,0,0,0,,,,,,,,,,,
728670,1745065644441,0.0,171.57,,-0.11,-0.04,1.0,4,-0,0,1.01,1.14,89,1642,0.0,3.6,,13.77,1.234,71.8,,21.3,5,,,,,,,,,,,,0,0,0,0,0,0,0,0,0,0,0,0,0,0,0,0,,,,,0.0,,,,,,
728690,1745065644461,,,,,,,,,,,,,,,,,,,,,,,3,8,3,3,0.0,91.0,0.0,0.0,2.24,,,0,0,0,0,0,0,0,0,0,0,0,0,0,0,0,0,0,,,,,39.240173,-77.964874,4.19,36,2,0.8
728710,1745065644481,0.0,171.57,,-0.1,-0.03,1.01,3,-0,0,1.02,1.14,89,1798,0.0,3.56,,13.72,1.231,71.8,,25.6,5,,,,,,,,,,,,0,0,0,0,0,0,0,0,0,0,0,0,0,0,0,0,,,,,0.0,,,,,,
728730,1745065644501,,,,,,,,,,,,,,,,,,,,,,,,,,,,,,,,,,0,0,0,0,0,0,0,0,0,0,0,0,0,0,0,0,,,,,,,,,,,
728750,1745065644521,0.0,171.57,,-0.11,-0.03,1.02,3,-0,0,1.03,1.14,90,1759,0.0,3.54,,13.71,1.196,71.8,,25.6,5,,,,,,,,,,,,0,0,0,0,0,0,0,0,0,0,0,0,0,0,0,0,,,,,0.0,,,,,,
728770,1745065644541,,,,,,,,,,,,,,,,,,,,,,,,,,,,,,,,,,0,0,0,0,0,0,0,0,0,0,0,0,0,0,0,0,,,,,,,,,,,
728790,1745065644561,0.0,171.44,,-0.12,-0.01,1.0,3,-0,0,1.01,1.14,88,1782,0.0,3.55,,13.68,1.137,71.8,,25.6,5,2,8,3,2,0.0,74.0,0.0,0.0,2.25,,,0,0,0,0,0,0,0,0,0,0,0,0,0,0,0,0,0,,,,0.0,39.240173,-77.964874,3.88,36,2,0.8
728810,1745065644581,,,,,,,,,,,,,,,,,,,,,,,,,,,,,,,,,,0,0,0,0,0,0,0,0,0,0,0,0,0,0,0,0,,,,,,,,,,,
728830,1745065644601,0.0,171.44,,-0.11,-0.03,1.0,3,-0,0,1.01,1.14,89,1787,0.0,3.54,,13.68,1.137,71.8,,26.2,5,,,,,,,,,,,,0,0,0,0,0,0,0,0,0,0,0,0,0,0,0,0,,,,,0.0,,,,,,
728850,1745065644621,,,,,,,,,,,,,,,,,,,,,,,,,,,,,,,,,,0,0,0,0,0,0,0,0,0,0,0,0,0,0,0,0,,,,,,,,,,,
728870,1745065644641,0.0,171.32,,-0.12,-0.03,1.01,3,-0,-0,1.02,1.14,89,1787,0.0,3.54,,13.65,1.102,71.8,,26.2,5,,,,,,,,,,,,0,0,0,0,0,0,0,0,0,0,0,0,0,0,0,0,,,,,0.0,,,,,,
728890,1745065644661,,,,,,,,,,,,,,,,,,,,,,,2,8,2,2,0.0,58.0,0.0,0.0,2.24,,,0,0,0,0,0,0,0,0,0,0,0,0,0,0,0,0,0,,,,,39.240173,-77.964874,3.74,36,2,0.8
728910,1745065644681,0.0,171.32,,-0.13,-0.03,0.99,3,-0,-0,1.0,1.14,88,1751,0.0,3.55,,13.71,1.075,71.8,,26.5,5,,,,,,,,,,,,0,0,0,0,0,0,0,0,0,0,0,0,0,0,0,0,,,,,0.0,,,,,,
728930,1745065644701,,,,,,,,,,,,,,,,,,,,,,,,,,,,,,,,,,0,0,0,0,0,0,0,0,0,0,0,0,0,0,0,0,,,,,,,,,,,
728950,1745065644721,0.0,171.32,,-0.12,-0.03,0.99,3,-0,-0,1.0,1.14,88,1746,0.0,3.55,,13.72,1.073,71.8,,26.5,5,,,,,,,,,,,,0,0,0,0,0,0,0,0,0,0,0,0,0,0,0,0,,,,,0.0,,,,,,
728970,1745065644741,,,,,,,,,,,,,,,,,,,,,,,,,,,,,,,,,,0,0,0,0,0,0,0,0,0,0,0,0,0,0,0,0,,,,,,,,,,,
728990,1745065644761,0.0,171.32,,-0.13,-0.03,0.98,3,-0,-0,0.99,1.14,87,1811,0.0,3.55,,13.71,1.061,71.8,,26.5,5,3,8,2,2,0.0,66.0,0.0,0.0,2.24,,,0,0,0,0,0,0,0,0,0,0,0,0,0,0,0,0,0,,,,0.0,39.240173,-77.964874,3.72,36,2,0.8
729010,1745065644781,,,,,,,,,,,,,,,,,,,,,,,,,,,,,,,,,,0,0,0,0,0,0,0,0,0,0,0,0,0,0,0,0,,,,,,,,,,,
729030,1745065644801,0.0,171.32,,-0.13,-0.03,0.99,3,-0,-0,1.0,1.14,88,1802,0.0,3.55,,13.71,1.061,71.8,,27.0,5,,,,,,,,,,,,0,0,0,0,0,0,0,0,0,0,0,0,0,0,0,0,,,,,0.0,,,,,,
729050,1745065644821,,,,,,,,,,,,,,,,,,,,,,,,,,,,,,,,,,0,0,0,0,0,0,0,0,0,0,0,0,0,0,0,0,,,,,,,,,,,
729070,1745065644841,0.0,171.19,,-0.11,-0.03,1.01,2,-0,0,1.02,1.14,89,1802,0.0,3.55,,13.72,1.063,71.8,,27.0,5,,,,,,,,,,,,0,0,0,0,0,0,0,0,0,0,0,0,0,0,0,0,,,,,0.0,,,,,,
729090,1745065644861,,,,,,,,,,,,,,,,,,,,,,,2,8,2,2,0.0,49.0,0.0,0.0,2.24,,,0,0,0,0,0,0,0,0,0,0,0,0,0,0,0,0,0,,,,,39.240173,-77.964874,3.7,36,2,0.8
729110,1745065644881,0.0,171.19,,-0.13,-0.01,1.0,2,-0,0,1.0,1.14,88,1747,0.0,3.54,,13.75,1.054,71.8,,26.7,5,,,,,,,,,,,,0,0,0,0,0,0,0,0,0,0,0,0,0,0,0,0,,,,,0.0,,,,,,
729130,1745065644901,,,,,,,,,,,,,,,,,,,,,,,,,,,,,,,,,,0,0,0,0,0,0,0,0,0,0,0,0,0,0,0,0,,,,,,,,,,,
