"Interval"|"ms"|0|0|1,"Utc"|"ms"|0|0|1,"FrontBP"|"psi"|-5.0|5.0|25,"SteerAng"|"Degrees"|-145.0|145.0|25,"Battery"|"Volts"|-5.0|20.0|1,"AccelX"|"G"|-3.0|3.0|25,"AccelY"|"G"|-3.0|3.0|25,"AccelZ"|"G"|-3.0|3.0|25,"Yaw"|"Deg/Sec"|-120|120|25,"Pitch"|"Deg/Sec"|-120|120|25,"Roll"|"Deg/Sec"|-120|120|25,"Gsum"|"G"|0.0|3.0|25,"GsumMax"|"G"|0.0|3.0|25,"GsumPct"|"%"|0|100|25,"RPM"|""|0|10000|25,"TPS"|"%"|0.0|100.0|25,"InjectorPW"|"ms"|0.0|100.0|25,"Baro"|"kPa"|0|105|1,"MAP"|"Psi"|0.0|255.0|25,"Lambda"|""|-2.0|2.0|25,"IAT"|"C"|0.0|200.0|25,"EngineTemp"|"C"|0|200|1,"EOP"|"PSI"|0.0|152.0|25,"EOT"|"F"|0|250|25,"WSFR"|"MPH"|0|150|10,"WSFL"|"MPH"|0|100|10,"WSRR"|"MPH"|0|100|10,"WSRL"|""|0|100|10,"TCSet"|"%"|0.0|100.0|10,"TCSlip"|"%"|0.0|100.0|10,"TCComp"|"deg"|0.0|50.0|10,"TCCut"|"%"|0.0|100.0|10,"Analog8"|""|0.0|5.0|10,"OilTemp"|"F"|0|300|1,"AA_On"|""|0.0|1.0|1,"ThermLF1"|"C"|0|400|50,"ThermLF2"|"C"|0|400|50,"ThermRR1"|"C"|0|400|50,"ThermRR2"|"C"|0|400|50,"ThermLF3"|"C"|0|400|50,"ThermLF4"|"C"|0|400|50,"ThermLF5"|"C"|0|400|50,"ThermLF6"|"C"|0|400|50,"ThermLF7"|"C"|0|400|50,"ThermLF8"|"C"|0|400|50,"ThermRR3"|"C"|0|400|50,"ThermRR4"|"C"|0|400|50,"ThermRR5"|"C"|0|400|50,"ThermRR6"|"C"|0|400|50,"ThermRR7"|"C"|0|400|50,"ThermRR8"|"C"|0|400|50,"Gear"|""|1|6|10,"AA_On"|""|0.0|1.0|1,"AA_LowDrag"|""|0|1|1,"Fuel_Mix"|""|-10|10|1,"AA_Packages"|""|0.0|1000.0|25,"Latitude"|"Degrees"|-180.0|180.0|10,"Longitude"|"Degrees"|-180.0|180.0|10,"Speed"|"kph"|0.0|150.0|10,"GPSSats"|""|0|20|10,"GPSQual"|""|0|5|10,"GPSDOP"|""|0.0|20.0|10
1938434,1745089060501,,,,,,,,,,,,,,,,,,,,,,,,,,,,,,,,,,0,0,0,0,0,0,0,0,0,0,0,0,0,0,0,0,,,,,,,,,,,
1938454,1745089060521,0.0,196.58,,-0.04,-0.09,0.97,0,-0,-0,0.98,0.98,100,3842,8.8,3.98,,12.52,1.196,97.0,,37.0,5,,,,,,,,,,,,0,0,0,0,0,0,0,0,0,0,0,0,0,0,0,0,,,,,0.0,,,,,,
1938474,1745089060541,,,,,,,,,,,,,,,,,,,,,,,,,,,,,,,,,,0,0,0,0,0,0,0,0,0,0,0,0,0,0,0,0,,,,,,,,,,,
1938494,1745089060561,0.0,196.46,,-0.05,-0.1,0.94,1,-0,-0,0.95,0.98,97,3837,8.8,4.0,,12.52,1.196,97.0,,37.0,5,,,,,,,,,,,,0,0,0,0,0,0,0,0,0,0,0,0,0,0,0,0,,,,,0.0,,,,,,
1938514,1745089060581,,,,,,,,,,,,,,,,,,,,,,,0,0,0,0,0.0,0.0,0.0,0.0,2.26,,,0,0,0,0,0,0,0,0,0,0,0,0,0,0,0,0,0,,,,,39.239712,-77.96582,0.18,34,3,0.8
1938534,1745089060601,0.0,196.46,,-0.04,-0.1,0.95,1,-0,-0,0.96,0.98,98,3837,8.8,4.0,,12.56,1.194,97.0,,36.8,5,,,,,,,,,,,,0,0,0,0,0,0,0,0,0,0,0,0,0,0,0,0,,,,,0.0,,,,,,
1938554,1745089060621,,,,,,,,,,,,,,,,,,,,,,,,,,,,,,,,,,0,0,0,0,0,0,0,0,0,0,0,0,0,0,0,0,,,,,,,,,,,
1938574,1745089060641,0.0,196.46,,-0.03,-0.05,0.97,1,-0,-0,0.97,0.98,99,3826,8.7,3.99,,12.57,1.192,97.0,,36.8,5,,,,,,,,,,,,0,0,0,0,0,0,0,0,0,0,0,0,0,0,0,0,,,,,0.0,,,,,,
1938594,1745089060661,,,,,,,,,,,,,,,,,,,,,,,,,,,,,,,,,,0,0,0,0,0,0,0,0,0,0,0,0,0,0,0,0,,,,,,,,,,,
1938614,1745089060681,0.0,196.46,,-0.01,-0.01,0.92,2,-0,-1,0.92,0.98,94,3842,8.6,3.99,,12.56,1.197,97.0,,36.8,5,0,0,0,0,0.0,0.0,0.0,0.0,2.26,,,0,0,0,0,0,0,0,0,0,0,0,0,0,0,0,0,0,,,,0.0,39.239712,-77.96582,0.05,34,3,0.8
1938634,1745089060701,,,,,,,,,,,,,,,,,,,,,,,,,,,,,,,,,,0,0,0,0,0,0,0,0,0,0,0,0,0,0,0,0,,,,,,,,,,,
1938654,1745089060721,0.0,196.33,,-0.01,0.03,0.95,1,-0,-1,0.95,0.98,97,3841,8.6,3.97,,12.61,1.195,97.0,,37.0,5,,,,,,,,,,,,0,0,0,0,0,0,0,0,0,0,0,0,0,0,0,0,,,,,0.0,,,,,,
1938674,1745089060741,,,,,,,,,,,,,,,,,,,,,,,,,,,,,,,,,,0,0,0,0,0,0,0,0,0,0,0,0,0,0,0,0,,,,,,,,,,,
1938694,1745089060761,0.0,196.33,,-0.0,-0.02,0.96,1,-0,-0,0.96,0.98,98,3828,8.6,3.96,,12.61,1.195,97.0,,37.0,5,,,,,,,,,,,,0,0,0,0,0,0,0,0,0,0,0,0,0,0,0,0,,,,,0.0,,,,,,
1938714,1745089060781,,,,,,,,,,,,,,,,,,,,,,,0,0,0,0,0.0,0.0,0.0,0.0,2.26,,,0,0,0,0,0,0,0,0,0,0,0,0,0,0,0,0,0,,,,,39.239712,-77.96582,0.07,34,3,0.8
1938734,1745089060801,0.0,196.33,,-0.02,-0.07,0.94,1,-0,-0,0.94,0.98,96,3828,8.6,3.96,,12.53,1.198,97.0,,37.2,5,,,,,,,,,,,,0,0,0,0,0,0,0,0,0,0,0,0,0,0,0,0,,,,,0.0,,,,,,
1938754,1745089060821,,,,,,,,,,,,,,,,,,,,,,,,,,,,,,,,,,0,0,0,0,0,0,0,0,0,0,0,0,0,0,0,0,,,,,,,,,,,
1938774,1745089060841,0.0,196.33,,-0.04,-0.08,0.91,1,-0,-1,0.91,0.98,93,3872,8.7,3.97,,12.59,1.196,97.0,,37.2,5,,,,,,,,,,,,0,0,0,0,0,0,0,0,0,0,0,0,0,0,0,0,,,,,0.0,,,,,,
1938794,1745089060861,,,,,,,,,,,,,,,,,,,,,,,,,,,,,,,,,,0,0,0,0,0,0,0,0,0,0,0,0,0,0,0,0,,,,,,,,,,,
1938814,1745089060881,0.0,196.33,,-0.03,-0.1,0.92,1,-0,-1,0.92,0.98,95,3837,8.8,3.96,,12.56,1.186,97.0,,37.2,5,0,0,0,0,0.0,0.0,0.0,0.0,2.26,,,0,0,0,0,0,0,0,0,0,0,0,0,0,0,0,0,0,,,,0.0,39.239712,-77.96582,0.11,34,3,0.8
1938834,1745089060900,,,,,,,,,,,,,,,,,,,,,,,,,,,,,,,,,,0,0,0,0,0,0,0,0,0,0,0,0,0,0,0,0,,,,,,,,,,,
1938854,1745089060920,0.0,196.33,,-0.02,-0.05,0.94,1,-0,-1,0.94,0.98,96,3866,8.8,3.98,,12.55,1.195,97.0,,36.9,5,,,,,,,,,,,,0,0,0,0,0,0,0,0,0,0,0,0,0,0,0,0,,,,,0.0,,,,,,
1938874,1745089060940,,,,,,,,,,,,,,,,,,,,,,,,,,,,,,,,,,0,0,0,0,0,0,0,0,0,0,0,0,0,0,0,0,,,,,,,,,,,
1938894,1745089060960,0.0,196.2,,-0.01,0.02,0.97,1,-0,-0,0.97,0.98,99,3836,8.9,3.94,,12.55,1.195,97.0,,36.9,5,,,,,,,,,,,,0,0,0,0,0,0,0,0,0,0,0,0,0,0,0,0,,,,,0.0,,,,,,
1938914,1745089060980,,,,,,,,,,,,,,,,,,,,,,,0,0,0,0,0.0,0.0,0.0,0.0,2.26,,,0,0,0,0,0,0,0,0,0,0,0,0,0,0,0,0,0,,,,,39.239712,-77.96582,0.15,34,3,0.8
1938934,1745089060992,0.0,196.2,,-0.01,0.05,0.98,1,-0,-0,0.99,0.99,100,3836,8.9,3.94,,12.59,1.192,97.0,,36.7,5,,,,,,,,,,,,0,0,0,0,0,0,0,0,0,0,0,0,0,0,0,0,,,,,0.0,,,,,,
1938954,1745089061012,,,,,,,,,,,,,,,,,,,,,,,,,,,,,,,,,,0,0,0,0,0,0,0,0,0,0,0,0,0,0,0,0,,,,,,,,,,,
1938974,1745089061032,0.0,196.33,,-0.02,0.06,0.99,0,-0,0,0.99,0.99,100,3809,8.9,3.99,,12.57,1.196,97.0,,36.7,5,,,,,,,,,,,,0,0,0,0,0,0,0,0,0,0,0,0,0,0,0,0,,,,,0.0,,,,,,
1938994,1745089061052,,,,,,,,,,,,,,,,,,,,,,,,,,,,,,,,,,0,0,0,0,0,0,0,0,0,0,0,0,0,0,0,0,,,,,,,,,,,
1939014,1745089061072,0.0,196.33,,-0.02,0.03,1.0,-0,-0,0,1.0,1.0,100,3808,8.8,4.0,,12.63,1.198,97.0,,36.7,5,0,0,0,0,0.0,0.0,0.0,0.0,2.26,,,0,0,0,0,0,0,0,0,0,0,0,0,0,0,0,0,0,,,,0.0,39.239712,-77.96582,0.04,34,3,0.8
1939034,1745089061096,,,,,,,,,,,,,,,,,,,,,,,,,,,,,,,,,,0,0,0,0,0,0,0,0,0,0,0,0,0,0,0,0,,,,,,,,,,,
1939054,1745089061116,0.0,196.33,,-0.02,0.02,1.02,-0,-0,0,1.02,1.02,100,3746,8.7,3.98,,12.64,1.194,97.0,,36.6,5,,,,,,,,,,,,0,0,0,0,0,0,0,0,0,0,0,0,0,0,0,0,,,,,0.0,,,,,,
1939074,1745089061136,,,,,,,,,,,,,,,,,,,,,,,,,,,,,,,,,,0,0,0,0,0,0,0,0,0,0,0,0,0,0,0,0,,,,,,,,,,,
1939094,1745089061156,0.0,196.33,,-0.01,0.02,1.02,-0,-0,0,1.02,1.02,100,3767,8.6,4.0,,12.64,1.194,97.0,,36.6,5,,,,,,,,,,,,0,0,0,0,0,0,0,0,0,0,0,0,0,0,0,0,,,,,0.0,,,,,,
1939114,1745089061176,,,,,,,,,,,,,,,,,,,,,,,0,0,0,0,0.0,0.0,0.0,0.0,2.27,,,0,0,0,0,0,0,0,0,0,0,0,0,0,0,0,0,0,,,,,39.239712,-77.96582,0.0,34,3,0.8
1939134,1745089061200,0.0,196.33,,-0.01,-0.02,1.02,-0,-0,0,1.02,1.02,100,3767,8.6,4.0,,12.61,1.199,97.0,,36.2,5,,,,,,,,,,,,0,0,0,0,0,0,0,0,0,0,0,0,0,0,0,0,,,,,0.0,,,,,,
1939154,1745089061220,,,,,,,,,,,,,,,,,,,,,,,,,,,,,,,,,,0,0,0,0,0,0,0,0,0,0,0,0,0,0,0,0,,,,,,,,,,,
1939174,1745089061240,0.0,196.2,,-0.02,-0.05,1.0,-0,-0,0,1.01,1.02,98,3767,8.6,3.97,,12.61,1.204,97.0,,36.2,5,,,,,,,,,,,,0,0,0,0,0,0,0,0,0,0,0,0,0,0,0,0,,,,,0.0,,,,,,
1939194,1745089061260,,,,,,,,,,,,,,,,,,,,,,,,,,,,,,,,,,0,0,0,0,0,0,0,0,0,0,0,0,0,0,0,0,,,,,,,,,,,
1939214,1745089061280,0.0,196.2,,-0.04,-0.07,0.99,-0,-0,0,1.0,1.02,98,3821,8.6,3.99,,12.67,1.193,97.0,,36.2,5,0,0,0,0,0.0,0.0,0.0,0.0,2.27,,,0,0,0,0,0,0,0,0,0,0,0,0,0,0,0,0,0,,,,0.0,39.239712,-77.96582,0.04,34,3,0.8
1939234,1745089061298,,,,,,,,,,,,,,,,,,,,,,,,,,,,,,,,,,0,0,0,0,0,0,0,0,0,0,0,0,0,0,0,0,,,,,,,,,,,
1939254,1745089061318,0.0,196.2,,-0.04,-0.09,0.97,-0,-0,0,0.98,1.02,96,3857,8.7,3.97,,12.59,1.179,97.0,,36.5,5,,,,,,,,,,,,0,0,0,0,0,0,0,0,0,0,0,0,0,0,0,0,,,,,0.0,,,,,,
1939274,1745089061338,,,,,,,,,,,,,,,,,,,,,,,,,,,,,,,,,,0,0,0,0,0,0,0,0,0,0,0,0,0,0,0,0,,,,,,,,,,,
1939294,1745089061358,0.0,196.2,,-0.04,-0.08,0.97,0,-0,-0,0.97,1.02,95,3800,8.8,3.94,,12.59,1.179,97.0,,36.5,5,,,,,,,,,,,,0,0,0,0,0,0,0,0,0,0,0,0,0,0,0,0,,,,,0.0,,,,,,
1939314,1745089061378,,,,,,,,,,,,,,,,,,,,,,,0,0,0,0,0.0,0.0,0.0,0.0,2.26,,,0,0,0,0,0,0,0,0,0,0,0,0,0,0,0,0,0,,,,,39.239712,-77.96582,0.12,34,3,0.8
1939334,1745089061402,0.0,196.2,,-0.02,-0.08,0.96,0,-0,-0,0.96,1.02,94,3800,8.8,3.94,,12.55,1.183,97.0,,37.1,5,,,,,,,,,,,,0,0,0,0,0,0,0,0,0,0,0,0,0,0,0,0,,,,,0.0,,,,,,
1939354,1745089061422,,,,,,,,,,,,,,,,,,,,,,,,,,,,,,,,,,0,0,0,0,0,0,0,0,0,0,0,0,0,0,0,0,,,,,,,,,,,
1939374,1745089061442,0.0,196.2,,-0.02,-0.06,0.95,1,-0,-0,0.95,1.02,93,4184,8.8,3.94,,12.57,1.189,97.0,,37.1,5,,,,,,,,,,,,0,0,0,0,0,0,0,0,0,0,0,0,0,0,0,0,,,,,0.0,,,,,,
1939394,1745089061462,,,,,,,,,,,,,,,,,,,,,,,,,,,,,,,,,,0,0,0,0,0,0,0,0,0,0,0,0,0,0,0,0,,,,,,,,,,,
1939414,1745089061482,0.0,196.2,13.29,-0.03,-0.03,0.95,0,-0,-0,0.95,1.02,93,3765,8.8,4.04,15,12.56,1.189,97.0,164,37.1,5,0,0,0,0,0.0,0.0,0.0,0.0,2.26,0,0.0,0,0,0,0,0,0,0,0,0,0,0,0,0,0,0,0,0,0.0,0,0,0.0,39.239712,-77.96582,0.05,34,3,0.8
1939434,1745089061500,,,,,,,,,,,,,,,,,,,,,,,,,,,,,,,,,,0,0,0,0,0,0,0,0,0,0,0,0,0,0,0,0,,,,,,,,,,,
1939454,1745089061520,0.0,196.2,,-0.03,-0.01,0.95,0,-0,-0,0.95,1.02,93,3777,8.9,4.08,,12.6,1.229,97.0,,36.7,5,,,,,,,,,,,,0,0,0,0,0,0,0,0,0,0,0,0,0,0,0,0,,,,,0.0,,,,,,
1939474,1745089061540,,,,,,,,,,,,,,,,,,,,,,,,,,,,,,,,,,0,0,0,0,0,0,0,0,0,0,0,0,0,0,0,0,,,,,,,,,,,
1939494,1745089061560,0.0,196.2,,-0.03,-0.02,0.95,0,-0,-0,0.95,1.02,93,3712,8.8,4.09,,12.6,1.229,97.0,,36.7,5,,,,,,,,,,,,0,0,0,0,0,0,0,0,0,0,0,0,0,0,0,0,,,,,0.0,,,,,,
1939514,1745089061580,,,,,,,,,,,,,,,,,,,,,,,0,0,0,0,0.0,0.0,0.0,0.0,2.26,,,0,0,0,0,0,0,0,0,0,0,0,0,0,0,0,0,0,,,,,39.239712,-77.96582,0.04,34,3,0.8
1939534,1745089061600,0.0,196.2,,-0.04,-0.06,0.92,1,-0,-0,0.92,1.02,90,3712,8.8,4.09,,12.68,1.232,97.0,,34.9,5,,,,,,,,,,,,0,0,0,0,0,0,0,0,0,0,0,0,0,0,0,0,,,,,0.0,,,,,,
1939554,1745089061620,,,,,,,,,,,,,,,,,,,,,,,,,,,,,,,,,,0,0,0,0,0,0,0,0,0,0,0,0,0,0,0,0,,,,,,,,,,,
1939574,1745089061640,0.0,196.2,,-0.04,-0.06,0.96,0,-0,-0,0.96,1.02,94,3715,8.7,4.11,,12.71,1.23,97.0,,34.9,5,,,,,,,,,,,,0,0,0,0,0,0,0,0,0,0,0,0,0,0,0,0,,,,,0.0,,,,,,
1939594,1745089061660,,,,,,,,,,,,,,,,,,,,,,,,,,,,,,,,,,0,0,0,0,0,0,0,0,0,0,0,0,0,0,0,0,,,,,,,,,,,
1939614,1745089061680,0.0,196.2,,-0.09,-0.18,0.94,1,-0,-1,0.96,1.02,94,3694,8.6,4.1,,12.67,1.205,97.0,,34.9,5,0,0,0,0,0.0,0.0,0.0,0.0,2.27,,,0,0,0,0,0,0,0,0,0,0,0,0,0,0,0,0,0,,,,0.0,39.239712,-77.96582,0.36,34,3,0.8
1939634,1745089061700,,,,,,,,,,,,,,,,,,,,,,,,,,,,,,,,,,0,0,0,0,0,0,0,0,0,0,0,0,0,0,0,0,,,,,,,,,,,
1939654,1745089061720,0.0,196.2,,-0.1,-0.15,0.93,1,-0,-1,0.95,1.02,93,3700,8.6,4.08,,12.67,1.194,97.0,,34.9,5,,,,,,,,,,,,0,0,0,0,0,0,0,0,0,0,0,0,0,0,0,0,,,,,0.0,,,,,,
1939674,1745089061740,,,,,,,,,,,,,,,,,,,,,,,,,,,,,,,,,,0,0,0,0,0,0,0,0,0,0,0,0,0,0,0,0,,,,,,,,,,,
1939694,1745089061760,0.0,196.2,,-0.1,-0.1,0.93,1,-0,-1,0.95,1.02,92,3738,8.7,4.08,,12.67,1.194,97.0,,34.9,5,,,,,,,,,,,,0,0,0,0,0,0,0,0,0,0,0,0,0,0,0,0,,,,,0.0,,,,,,
1939714,1745089061780,,,,,,,,,,,,,,,,,,,,,,,0,0,0,0,0.0,0.0,0.0,0.0,2.27,,,0,0,0,0,0,0,0,0,0,0,0,0,0,0,0,0,0,,,,,39.239712,-77.96582,0.62,34,3,0.8
1939734,1745089061800,0.0,196.2,,-0.09,-0.08,0.95,1,-0,-0,0.95,1.02,93,3738,8.7,4.08,,12.69,1.172,97.0,,35.4,5,,,,,,,,,,,,0,0,0,0,0,0,0,0,0,0,0,0,0,0,0,0,,,,,0.0,,,,,,
1939754,1745089061820,,,,,,,,,,,,,,,,,,,,,,,,,,,,,,,,,,0,0,0,0,0,0,0,0,0,0,0,0,0,0,0,0,,,,,,,,,,,
1939774,1745089061840,0.0,196.33,,-0.09,-0.05,0.94,1,-0,-0,0.95,1.02,93,3706,8.8,4.08,,12.64,1.154,97.0,,35.4,5,,,,,,,,,,,,0,0,0,0,0,0,0,0,0,0,0,0,0,0,0,0,,,,,0.0,,,,,,
1939794,1745089061860,,,,,,,,,,,,,,,,,,,,,,,,,,,,,,,,,,0,0,0,0,0,0,0,0,0,0,0,0,0,0,0,0,,,,,,,,,,,
1939814,1745089061880,0.0,196.33,,-0.09,-0.08,0.93,1,-0,-1,0.94,1.02,92,3785,8.9,4.09,,12.64,1.15,97.0,,35.4,5,0,0,0,0,0.0,0.0,0.0,0.0,2.26,,,0,0,0,0,0,0,0,0,0,0,0,0,0,0,0,0,0,,,,0.0,39.239712,-77.96582,0.18,34,3,0.8
1939834,1745089061901,,,,,,,,,,,,,,,,,,,,,,,,,,,,,,,,,,0,0,0,0,0,0,0,0,0,0,0,0,0,0,0,0,,,,,,,,,,,
1939854,1745089061921,0.0,196.33,,-0.1,-0.06,0.92,1,-0,-0,0.93,1.02,91,3743,8.9,4.08,,12.63,1.153,97.0,,36.1,5,,,,,,,,,,,,0,0,0,0,0,0,0,0,0,0,0,0,0,0,0,0,,,,,0.0,,,,,,
1939874,1745089061941,,,,,,,,,,,,,,,,,,,,,,,,,,,,,,,,,,0,0,0,0,0,0,0,0,0,0,0,0,0,0,0,0,,,,,,,,,,,
1939894,1745089061961,0.0,196.2,,-0.09,-0.11,0.89,1,-0,-1,0.91,1.02,89,3825,8.9,4.09,,12.63,1.153,97.0,,36.1,5,,,,,,,,,,,,0,0,0,0,0,0,0,0,0,0,0,0,0,0,0,0,,,,,0.0,,,,,,
1939914,1745089061981,,,,,,,,,,,,,,,,,,,,,,,0,0,0,0,0.0,0.0,0.0,0.0,2.26,,,0,0,0,0,0,0,0,0,0,0,0,0,0,0,0,0,0,,,,,39.239712,-77.96582,0.51,34,3,0.8
1939934,1745089061991,0.0,196.2,,-0.08,-0.03,0.93,1,-0,-1,0.93,1.02,91,3825,8.9,4.09,,12.57,1.148,97.0,,38.6,5,,,,,,,,,,,,0,0,0,0,0,0,0,0,0,0,0,0,0,0,0,0,,,,,0.0,,,,,,
1939954,1745089062011,,,,,,,,,,,,,,,,,,,,,,,,,,,,,,,,,,0,0,0,0,0,0,0,0,0,0,0,0,0,0,0,0,,,,,,,,,,,
1939974,1745089062031,0.0,196.2,,-0.09,-0.05,0.98,0,-0,-0,0.99,1.02,97,3976,8.9,4.03,,12.49,1.231,97.0,,38.6,5,,,,,,,,,,,,0,0,0,0,0,0,0,0,0,0,0,0,0,0,0,0,,,,,0.0,,,,,,
1939994,1745089062051,,,,,,,,,,,,,,,,,,,,,,,,,,,,,,,,,,0,0,0,0,0,0,0,0,0,0,0,0,0,0,0,0,,,,,,,,,,,
1940014,1745089062071,0.0,196.33,,-0.06,-0.07,0.94,1,-0,-1,0.95,1.02,93,4065,8.8,3.88,,12.41,1.178,97.0,,38.6,5,0,0,0,0,0.0,0.0,0.0,0.0,2.26,,,0,0,0,0,0,0,0,0,0,0,0,0,0,0,0,0,0,,,,0.0,39.239712,-77.96582,0.24,34,3,0.8
1940034,1745089062101,,,,,,,,,,,,,,,,,,,,,,,,,,,,,,,,,,0,0,0,0,0,0,0,0,0,0,0,0,0,0,0,0,,,,,,,,,,,
1940054,1745089062121,0.0,196.33,,-0.08,-0.01,1.02,-0,-0,0,1.02,1.02,100,4111,8.7,3.93,,12.33,1.119,97.0,,39.9,5,,,,,,,,,,,,0,0,0,0,0,0,0,0,0,0,0,0,0,0,0,0,,,,,0.0,,,,,,
1940074,1745089062141,,,,,,,,,,,,,,,,,,,,,,,,,,,,,,,,,,0,0,0,0,0,0,0,0,0,0,0,0,0,0,0,0,,,,,,,,,,,
1940094,1745089062161,0.0,196.33,,-0.07,-0.09,0.92,1,-0,-1,0.93,1.02,91,4086,8.7,3.93,,12.33,1.119,97.0,,39.9,5,,,,,,,,,,,,0,0,0,0,0,0,0,0,0,0,0,0,0,0,0,0,,,,,0.0,,,,,,
1940114,1745089062181,,,,,,,,,,,,,,,,,,,,,,,0,0,0,0,0.0,0.0,0.0,0.0,2.27,,,0,0,0,0,0,0,0,0,0,0,0,0,0,0,0,0,0,,,,,39.239712,-77.96582,0.0,34,3,0.8
1940134,1745089062199,0.0,196.33,,-0.08,0.03,0.99,0,-0,0,0.99,1.02,97,4086,8.7,3.93,,12.37,1.086,97.0,,39.8,5,,,,,,,,,,,,0,0,0,0,0,0,0,0,0,0,0,0,0,0,0,0,,,,,0.0,,,,,,
1940154,1745089062219,,,,,,,,,,,,,,,,,,,,,,,,,,,,,,,,,,0,0,0,0,0,0,0,0,0,0,0,0,0,0,0,0,,,,,,,,,,,
1940174,1745089062239,0.0,196.2,,-0.1,-0.04,0.95,-0,-0,0,0.95,1.02,93,3995,8.7,3.96,,12.37,1.106,97.0,,39.8,5,,,,,,,,,,,,0,0,0,0,0,0,0,0,0,0,0,0,0,0,0,0,,,,,0.0,,,,,,
1940194,1745089062259,,,,,,,,,,,,,,,,,,,,,,,,,,,,,,,,,,0,0,0,0,0,0,0,0,0,0,0,0,0,0,0,0,,,,,,,,,,,
1940214,1745089062279,0.0,196.2,,-0.1,-0.08,0.89,1,-0,-1,0.9,1.02,88,3929,8.7,4.0,,12.4,1.153,97.0,,39.8,5,0,0,0,0,0.0,0.0,0.0,0.0,2.27,,,0,0,0,0,0,0,0,0,0,0,0,0,0,0,0,0,0,,,,0.0,39.239712,-77.96582,0.15,34,3,0.8
1940234,1745089062301,,,,,,,,,,,,,,,,,,,,,,,,,,,,,,,,,,0,0,0,0,0,0,0,0,0,0,0,0,0,0,0,0,,,,,,,,,,,
1940254,1745089062321,0.0,196.2,,-0.09,0.0,0.92,0,-0,-0,0.92,1.02,90,3949,8.8,4.03,,12.45,1.167,97.0,,38.2,5,,,,,,,,,,,,0,0,0,0,0,0,0,0,0,0,0,0,0,0,0,0,,,,,0.0,,,,,,
1940274,1745089062341,,,,,,,,,,,,,,,,,,,,,,,,,,,,,,,,,,0,0,0,0,0,0,0,0,0,0,0,0,0,0,0,0,,,,,,,,,,,
1940294,1745089062361,0.0,196.2,,-0.11,-0.02,0.95,-1,-0,0,0.96,1.02,94,4065,8.9,4.03,,12.45,1.167,97.0,,38.2,5,,,,,,,,,,,,0,0,0,0,0,0,0,0,0,0,0,0,0,0,0,0,,,,,0.0,,,,,,
1940314,1745089062381,,,,,,,,,,,,,,,,,,,,,,,0,0,0,0,0.0,0.0,0.0,0.0,2.26,,,0,0,0,0,0,0,0,0,0,0,0,0,0,0,0,0,0,,,,,39.239712,-77.96582,0.16,34,3,0.8
1940334,1745089062401,0.0,196.2,,-0.1,-0.08,0.89,0,-0,-0,0.9,1.02,88,4065,8.9,4.03,,12.44,1.17,97.0,,39.9,5,,,,,,,,,,,,0,0,0,0,0,0,0,0,0,0,0,0,0,0,0,0,,,,,0.0,,,,,,
1940354,1745089062421,,,,,,,,,,,,,,,,,,,,,,,,,,,,,,,,,,0,0,0,0,0,0,0,0,0,0,0,0,0,0,0,0,,,,,,,,,,,
1940374,1745089062441,0.0,196.08,,-0.12,-0.06,0.94,-1,-0,0,0.95,1.02,93,4082,8.9,3.89,,12.31,1.221,97.0,,39.9,5,,,,,,,,,,,,0,0,0,0,0,0,0,0,0,0,0,0,0,0,0,0,,,,,0.0,,,,,,
1940394,1745089062461,,,,,,,,,,,,,,,,,,,,,,,,,,,,,,,,,,0,0,0,0,0,0,0,0,0,0,0,0,0,0,0,0,,,,,,,,,,,
1940414,1745089062481,0.0,196.08,13.39,-0.08,-0.09,0.89,1,-0,-0,0.9,1.02,87,4160,9.0,3.89,15,12.25,1.125,97.0,162,39.9,5,0,0,0,0,0.0,0.0,0.0,0.0,2.26,0,0.0,0,0,0,0,0,0,0,0,0,0,0,0,0,0,0,0,0,0.0,0,0,0.0,39.239712,-77.96582,0.42,34,3,0.8
1940434,1745089062501,,,,,,,,,,,,,,,,,,,,,,,,,,,,,,,,,,0,0,0,0,0,0,0,0,0,0,0,0,0,0,0,0,,,,,,,,,,,
1940454,1745089062521,0.0,196.2,,-0.09,-0.03,0.95,-0,-0,0,0.96,1.02,94,4100,8.9,3.87,,12.31,1.068,97.0,,40.4,5,,,,,,,,,,,,0,0,0,0,0,0,0,0,0,0,0,0,0,0,0,0,,,,,0.0,,,,,,
1940474,1745089062541,,,,,,,,,,,,,,,,,,,,,,,,,,,,,,,,,,0,0,0,0,0,0,0,0,0,0,0,0,0,0,0,0,,,,,,,,,,,
1940494,1745089062561,0.0,196.08,,-0.06,-0.1,0.88,1,-0,-0,0.89,1.02,87,4074,8.8,3.91,,12.31,1.068,97.0,,40.4,5,,,,,,,,,,,,0,0,0,0,0,0,0,0,0,0,0,0,0,0,0,0,,,,,0.0,,,,,,
1940514,1745089062581,,,,,,,,,,,,,,,,,,,,,,,0,0,0,0,0.0,0.0,0.0,0.0,2.26,,,0,0,0,0,0,0,0,0,0,0,0,0,0,0,0,0,0,,,,,39.239712,-77.96582,0.15,34,3,0.8
1940534,1745089062601,0.0,196.2,,-0.05,0.01,0.99,-0,-0,0,1.0,1.02,97,4074,8.8,3.91,,12.29,1.093,97.0,,39.5,5,,,,,,,,,,,,0,0,0,0,0,0,0,0,0,0,0,0,0,0,0,0,,,,,0.0,,,,,,
1940554,1745089062621,,,,,,,,,,,,,,,,,,,,,,,,,,,,,,,,,,0,0,0,0,0,0,0,0,0,0,0,0,0,0,0,0,,,,,,,,,,,
1940574,1745089062641,0.0,196.08,,-0.05,-0.08,0.94,-0,-0,0,0.94,1.02,92,4072,8.7,3.98,,12.24,1.139,97.0,,39.5,5,,,,,,,,,,,,0,0,0,0,0,0,0,0,0,0,0,0,0,0,0,0,,,,,0.0,,,,,,
1940594,1745089062661,,,,,,,,,,,,,,,,,,,,,,,,,,,,,,,,,,0,0,0,0,0,0,0,0,0,0,0,0,0,0,0,0,,,,,,,,,,,
1940614,1745089062681,0.0,196.08,,-0.02,-0.17,0.82,1,-0,-1,0.84,1.02,82,4031,8.6,4.0,,12.37,1.163,97.0,,39.5,5,0,0,0,0,0.0,0.0,0.0,0.0,2.27,,,0,0,0,0,0,0,0,0,0,0,0,0,0,0,0,0,0,,,,0.0,39.239712,-77.96582,0.18,34,3,0.8
1940634,1745089062701,,,,,,,,,,,,,,,,,,,,,,,,,,,,,,,,,,0,0,0,0,0,0,0,0,0,0,0,0,0,0,0,0,,,,,,,,,,,
1940654,1745089062721,0.0,196.08,,-0.02,-0.11,0.92,0,-0,-0,0.93,1.02,90,3984,8.7,3.97,,12.43,1.157,97.0,,39.1,5,,,,,,,,,,,,0,0,0,0,0,0,0,0,0,0,0,0,0,0,0,0,,,,,0.0,,,,,,
1940674,1745089062741,,,,,,,,,,,,,,,,,,,,,,,,,,,,,,,,,,0,0,0,0,0,0,0,0,0,0,0,0,0,0,0,0,,,,,,,,,,,
1940694,1745089062761,0.0,195.95,,-0.02,-0.17,0.88,0,-0,-0,0.9,1.02,88,3952,8.8,4.03,,12.43,1.157,97.0,,39.1,5,,,,,,,,,,,,0,0,0,0,0,0,0,0,0,0,0,0,0,0,0,0,,,,,0.0,,,,,,
1940714,1745089062781,,,,,,,,,,,,,,,,,,,,,,,0,0,0,0,0.0,0.0,0.0,0.0,2.26,,,0,0,0,0,0,0,0,0,0,0,0,0,0,0,0,0,0,,,,,39.239712,-77.96582,0.11,34,3,0.8
1940734,1745089062801,0.0,195.95,,-0.01,-0.15,0.88,1,-0,-1,0.89,1.02,87,3952,8.8,4.03,,12.4,1.161,97.0,,37.8,5,,,,,,,,,,,,0,0,0,0,0,0,0,0,0,0,0,0,0,0,0,0,,,,,0.0,,,,,,
1940754,1745089062821,,,,,,,,,,,,,,,,,,,,,,,,,,,,,,,,,,0,0,0,0,0,0,0,0,0,0,0,0,0,0,0,0,,,,,,,,,,,
1940774,1745089062841,0.0,195.95,,0.02,-0.04,0.95,0,-0,-0,0.95,1.02,93,3905,8.9,4.02,,12.47,1.15,97.0,,37.8,5,,,,,,,,,,,,0,0,0,0,0,0,0,0,0,0,0,0,0,0,0,0,,,,,0.0,,,,,,
1940794,1745089062861,,,,,,,,,,,,,,,,,,,,,,,,,,,,,,,,,,0,0,0,0,0,0,0,0,0,0,0,0,0,0,0,0,,,,,,,,,,,
1940814,1745089062881,0.0,195.95,,0.01,-0.08,0.93,0,-0,-0,0.93,1.02,91,4100,8.9,3.89,,12.47,1.163,97.0,,37.8,5,0,0,0,0,0.0,0.0,0.0,0.0,2.26,,,0,0,0,0,0,0,0,0,0,0,0,0,0,0,0,0,0,,,,0.0,39.239712,-77.96582,0.08,34,3,0.8
1940834,1745089062900,,,,,,,,,,,,,,,,,,,,,,,,,,,,,,,,,,0,0,0,0,0,0,0,0,0,0,0,0,0,0,0,0,,,,,,,,,,,
1940854,1745089062920,0.0,195.95,,0.02,-0.03,0.95,0,-0,-0,0.95,1.02,93,4105,8.9,3.92,,12.37,1.153,97.0,,39.8,5,,,,,,,,,,,,0,0,0,0,0,0,0,0,0,0,0,0,0,0,0,0,,,,,0.0,,,,,,
1940874,1745089062940,,,,,,,,,,,,,,,,,,,,,,,,,,,,,,,,,,0,0,0,0,0,0,0,0,0,0,0,0,0,0,0,0,,,,,,,,,,,
1940894,1745089062960,0.0,195.95,,0.01,-0.03,1.01,-0,-0,0,1.01,1.02,99,4065,8.9,3.97,,12.37,1.153,97.0,,39.8,5,,,,,,,,,,,,0,0,0,0,0,0,0,0,0,0,0,0,0,0,0,0,,,,,0.0,,,,,,
1940914,1745089062980,,,,,,,,,,,,,,,,,,,,,,,0,0,0,0,0.0,0.0,0.0,0.0,2.26,,,0,0,0,0,0,0,0,0,0,0,0,0,0,0,0,0,0,,,,,39.239712,-77.96582,0.05,34,3,0.8
1940934,1745089063000,0.0,195.95,,0.01,-0.1,0.95,1,-0,-0,0.96,1.02,94,4065,8.9,3.97,,12.35,1.077,97.0,,39.5,5,,,,,,,,,,,,0,0,0,0,0,0,0,0,0,0,0,0,0,0,0,0,,,,,0.0,,,,,,
1940954,1745089063010,,,,,,,,,,,,,,,,,,,,,,,,,,,,,,,,,,0,0,0,0,0,0,0,0,0,0,0,0,0,0,0,0,,,,,,,,,,,
1940974,1745089063030,0.0,195.95,,0.01,0.03,1.02,0,-0,0,1.02,1.02,100,4000,8.8,3.98,,12.4,1.072,97.0,,39.5,5,,,,,,,,,,,,0,0,0,0,0,0,0,0,0,0,0,0,0,0,0,0,,,,,0.0,,,,,,
1940994,1745089063050,,,,,,,,,,,,,,,,,,,,,,,,,,,,,,,,,,0,0,0,0,0,0,0,0,0,0,0,0,0,0,0,0,,,,,,,,,,,
1941014,1745089063070,0.0,195.95,,0.0,0.02,1.06,-1,-0,1,1.06,1.06,100,3970,8.7,4.03,,12.39,1.102,97.0,,39.5,5,0,0,0,0,0.0,0.0,0.0,0.0,2.27,,,0,0,0,0,0,0,0,0,0,0,0,0,0,0,0,0,0,,,,0.0,39.239712,-77.96582,0.12,34,3,0.8
1941034,1745089063098,,,,,,,,,,,,,,,,,,,,,,,,,,,,,,,,,,0,0,0,0,0,0,0,0,0,0,0,0,0,0,0,0,,,,,,,,,,,
1941054,1745089063118,0.0,195.83,,-0.0,-0.06,1.01,-0,-0,0,1.01,1.06,95,3957,8.7,4.02,,12.45,1.135,97.0,,38.1,5,,,,,,,,,,,,0,0,0,0,0,0,0,0,0,0,0,0,0,0,0,0,,,,,0.0,,,,,,
1941074,1745089063138,,,,,,,,,,,,,,,,,,,,,,,,,,,,,,,,,,0,0,0,0,0,0,0,0,0,0,0,0,0,0,0,0,,,,,,,,,,,
1941094,1745089063158,0.0,195.95,,0.01,-0.05,0.99,0,-0,-0,0.99,1.06,93,3867,8.7,4.02,,12.45,1.135,97.0,,38.1,5,,,,,,,,,,,,0,0,0,0,0,0,0,0,0,0,0,0,0,0,0,0,,,,,0.0,,,,,,
1941114,1745089063178,,,,,,,,,,,,,,,,,,,,,,,0,0,0,0,0.0,0.0,0.0,0.0,2.27,,,0,0,0,0,0,0,0,0,0,0,0,0,0,0,0,0,0,,,,,39.239712,-77.96582,0.1,34,3,0.8
1941134,1745089063196,0.0,195.95,,0.02,-0.0,1.02,0,-0,0,1.02,1.06,96,3867,8.7,4.02,,12.56,1.143,97.0,,37.7,5,,,,,,,,,,,,0,0,0,0,0,0,0,0,0,0,0,0,0,0,0,0,,,,,0.0,,,,,,
1941154,1745089063216,,,,,,,,,,,,,,,,,,,,,,,,,,,,,,,,,,0,0,0,0,0,0,0,0,0,0,0,0,0,0,0,0,,,,,,,,,,,
1941174,1745089063236,0.0,195.95,,0.02,0.04,1.05,-0,-0,0,1.05,1.06,98,3909,8.7,4.01,,12.51,1.134,97.0,,37.7,5,,,,,,,,,,,,0,0,0,0,0,0,0,0,0,0,0,0,0,0,0,0,,,,,0.0,,,,,,
1941194,1745089063256,,,,,,,,,,,,,,,,,,,,,,,,,,,,,,,,,,0,0,0,0,0,0,0,0,0,0,0,0,0,0,0,0,,,,,,,,,,,
1941214,1745089063276,0.0,195.95,,0.02,0.01,1.05,-0,-0,0,1.05,1.06,98,3857,8.8,4.03,,12.59,1.127,97.0,,37.7,5,0,0,0,0,0.0,0.0,0.0,0.0,2.26,,,0,0,0,0,0,0,0,0,0,0,0,0,0,0,0,0,0,,,,0.0,39.239712,-77.96582,0.04,34,3,0.8
1941234,1745089063300,,,,,,,,,,,,,,,,,,,,,,,,,,,,,,,,,,0,0,0,0,0,0,0,0,0,0,0,0,0,0,0,0,,,,,,,,,,,
1941254,1745089063320,0.0,195.95,,-0.01,-0.06,1.0,0,-0,0,1.0,1.06,94,3871,8.9,4.03,,12.52,1.127,97.0,,36.9,5,,,,,,,,,,,,0,0,0,0,0,0,0,0,0,0,0,0,0,0,0,0,,,,,0.0,,,,,,
1941274,1745089063340,,,,,,,,,,,,,,,,,,,,,,,,,,,,,,,,,,0,0,0,0,0,0,0,0,0,0,0,0,0,0,0,0,,,,,,,,,,,
1941294,1745089063360,0.0,195.95,,-0.02,-0.08,0.96,0,-0,-0,0.96,1.06,90,3897,8.9,4.02,,12.52,1.127,97.0,,36.9,5,,,,,,,,,,,,0,0,0,0,0,0,0,0,0,0,0,0,0,0,0,0,,,,,0.0,,,,,,
1941314,1745089063380,,,,,,,,,,,,,,,,,,,,,,,0,0,0,0,0.0,0.0,0.0,0.0,2.26,,,0,0,0,0,0,0,0,0,0,0,0,0,0,0,0,0,0,,,,,39.239712,-77.96582,0.1,34,3,0.8
1941334,1745089063400,0.0,195.95,,-0.01,-0.05,0.97,1,-0,-0,0.97,1.06,91,3897,8.9,4.02,,12.56,1.115,97.0,,37.1,5,,,,,,,,,,,,0,0,0,0,0,0,0,0,0,0,0,0,0,0,0,0,,,,,0.0,,,,,,
1941354,1745089063420,,,,,,,,,,,,,,,,,,,,,,,,,,,,,,,,,,0,0,0,0,0,0,0,0,0,0,0,0,0,0,0,0,,,,,,,,,,,
1941374,1745089063440,0.0,195.95,,-0.01,0.04,1.01,0,-0,-0,1.01,1.06,95,3870,8.9,4.02,,12.53,1.123,97.0,,37.1,5,,,,,,,,,,,,0,0,0,0,0,0,0,0,0,0,0,0,0,0,0,0,,,,,0.0,,,,,,
1941394,1745089063460,,,,,,,,,,,,,,,,,,,,,,,,,,,,,,,,,,0,0,0,0,0,0,0,0,0,0,0,0,0,0,0,0,,,,,,,,,,,
1941414,1745089063480,0.0,196.08,13.37,-0.02,0.05,1.05,0,-0,0,1.05,1.06,99,3889,8.9,4.02,15,12.53,1.114,97.0,160,37.1,5,0,0,0,0,0.0,0.0,0.0,0.0,2.26,0,0.0,0,0,0,0,0,0,0,0,0,0,0,0,0,0,0,0,0,0.0,0,0,0.0,39.239712,-77.96582,0.11,34,3,0.8
1941434,1745089063500,,,,,,,,,,,,,,,,,,,,,,,,,,,,,,,,,,0,0,0,0,0,0,0,0,0,0,0,0,0,0,0,0,,,,,,,,,,,
1941454,1745089063520,0.0,196.08,,-0.01,0.02,1.04,-0,-0,0,1.05,1.06,98,3871,8.9,4.0,,12.57,1.126,97.0,,36.8,5,,,,,,,,,,,,0,0,0,0,0,0,0,0,0,0,0,0,0,0,0,0,,,,,0.0,,,,,,
1941474,1745089063540,,,,,,,,,,,,,,,,,,,,,,,,,,,,,,,,,,0,0,0,0,0,0,0,0,0,0,0,0,0,0,0,0,,,,,,,,,,,
1941494,1745089063560,0.0,195.95,,-0.02,-0.02,1.0,0,-0,0,1.01,1.06,95,3835,10.3,4.13,,12.57,1.126,97.0,,36.8,5,,,,,,,,,,,,0,0,0,0,0,0,0,0,0,0,0,0,0,0,0,0,,,,,0.0,,,,,,
1941514,1745089063580,,,,,,,,,,,,,,,,,,,,,,,0,0,0,0,0.0,0.0,0.0,0.0,2.27,,,0,0,0,0,0,0,0,0,0,0,0,0,0,0,0,0,0,,,,,39.239712,-77.96582,0.07,34,3,0.8
1941534,1745089063598,0.0,195.95,,-0.03,-0.03,0.96,1,-0,-0,0.96,1.06,91,3835,10.3,4.13,,12.6,1.135,97.0,,36.8,5,,,,,,,,,,,,0,0,0,0,0,0,0,0,0,0,0,0,0,0,0,0,,,,,0.0,,,,,,
1941554,1745089063618,,,,,,,,,,,,,,,,,,,,,,,,,,,,,,,,,,0,0,0,0,0,0,0,0,0,0,0,0,0,0,0,0,,,,,,,,,,,
1941574,1745089063638,0.0,195.95,,-0.02,-0.02,0.96,1,-0,-0,0.96,1.06,90,3875,10.8,4.2,,12.77,1.123,97.0,,36.8,5,,,,,,,,,,,,0,0,0,0,0,0,0,0,0,0,0,0,0,0,0,0,,,,,0.0,,,,,,
1941594,1745089063658,,,,,,,,,,,,,,,,,,,,,,,,,,,,,,,,,,0,0,0,0,0,0,0,0,0,0,0,0,0,0,0,0,,,,,,,,,,,
1941614,1745089063678,0.0,195.95,,-0.03,0.05,0.99,1,-0,-0,0.99,1.06,93,3874,12.8,4.28,,12.87,1.122,97.0,,36.8,5,0,0,0,0,0.0,0.0,0.0,0.0,2.27,,,0,0,0,0,0,0,0,0,0,0,0,0,0,0,0,0,0,,,,0.0,39.239712,-77.96582,0.08,34,3,0.8
1941634,1745089063700,,,,,,,,,,,,,,,,,,,,,,,,,,,,,,,,,,0,0,0,0,0,0,0,0,0,0,0,0,0,0,0,0,,,,,,,,,,,
1941654,1745089063720,0.0,195.83,,-0.04,0.04,1.02,-0,-0,0,1.02,1.06,96,3934,15.0,4.24,,13.05,1.134,97.0,,37.3,5,,,,,,,,,,,,0,0,0,0,0,0,0,0,0,0,0,0,0,0,0,0,,,,,0.0,,,,,,
1941674,1745089063740,,,,,,,,,,,,,,,,,,,,,,,,,,,,,,,,,,0,0,0,0,0,0,0,0,0,0,0,0,0,0,0,0,,,,,,,,,,,
1941694,1745089063760,0.0,195.83,,-0.05,-0.05,0.95,0,-0,0,0.96,1.06,90,4000,18.3,4.26,,13.05,1.134,97.0,,37.3,5,,,,,,,,,,,,0,0,0,0,0,0,0,0,0,0,0,0,0,0,0,0,,,,,0.0,,,,,,
1941714,1745089063780,,,,,,,,,,,,,,,,,,,,,,,0,0,0,0,0.0,0.0,0.0,0.0,2.26,,,0,0,0,0,0,0,0,0,0,0,0,0,0,0,0,0,0,,,,,39.239712,-77.96582,0.29,34,3,0.8
1941734,1745089063798,0.0,195.83,,-0.04,-0.01,0.96,1,-0,-0,0.96,1.06,90,4000,18.3,4.26,,13.24,1.135,97.0,,38.5,5,,,,,,,,,,,,0,0,0,0,0,0,0,0,0,0,0,0,0,0,0,0,,,,,0.0,,,,,,
1941754,1745089063818,,,,,,,,,,,,,,,,,,,,,,,,,,,,,,,,,,0,0,0,0,0,0,0,0,0,0,0,0,0,0,0,0,,,,,,,,,,,
1941774,1745089063838,0.0,195.95,,-0.07,0.0,1.0,-0,-0,0,1.0,1.06,94,3995,20.7,4.27,,13.36,1.128,97.0,,38.5,5,,,,,,,,,,,,0,0,0,0,0,0,0,0,0,0,0,0,0,0,0,0,,,,,0.0,,,,,,
1941794,1745089063858,,,,,,,,,,,,,,,,,,,,,,,,,,,,,,,,,,0,0,0,0,0,0,0,0,0,0,0,0,0,0,0,0,,,,,,,,,,,
1941814,1745089063878,0.0,195.95,,-0.04,0.01,0.98,0,-0,-0,0.98,1.06,92,4120,23.4,4.56,,13.48,1.149,97.0,,38.5,5,0,0,0,0,0.0,0.0,0.0,0.0,2.26,,,0,0,0,0,0,0,0,0,0,0,0,0,0,0,0,0,0,,,,0.0,39.239712,-77.96582,0.21,34,3,0.8
1941834,1745089063899,,,,,,,,,,,,,,,,,,,,,,,,,,,,,,,,,,0,0,0,0,0,0,0,0,0,0,0,0,0,0,0,0,,,,,,,,,,,
1941854,1745089063919,0.0,195.95,,-0.01,-0.09,0.88,1,-0,-0,0.89,1.06,84,4376,25.5,4.62,,13.43,1.199,97.0,,40.8,5,,,,,,,,,,,,0,0,0,0,0,0,0,0,0,0,0,0,0,0,0,0,,,,,0.0,,,,,,
1941874,1745089063939,,,,,,,,,,,,,,,,,,,,,,,,,,,,,,,,,,0,0,0,0,0,0,0,0,0,0,0,0,0,0,0,0,,,,,,,,,,,
1941894,1745089063959,0.0,195.83,,0.03,-0.1,0.83,1,-0,-1,0.84,1.06,79,4605,26.1,4.59,,13.43,1.199,97.0,,40.8,5,,,,,,,,,,,,0,0,0,0,0,0,0,0,0,0,0,0,0,0,0,0,,,,,0.0,,,,,,
1941914,1745089063979,,,,,,,,,,,,,,,,,,,,,,,0,0,0,0,0.0,0.0,0.0,0.0,2.26,,,0,0,0,0,0,0,0,0,0,0,0,0,0,0,0,0,0,,,,,39.239712,-77.96582,0.23,34,3,0.8
1941934,1745089063991,0.0,195.83,,0.01,-0.06,0.85,1,-0,-0,0.85,1.06,80,4605,26.1,4.59,,13.41,1.225,97.0,,47.6,5,,,,,,,,,,,,0,0,0,0,0,0,0,0,0,0,0,0,0,0,0,0,,,,,0.0,,,,,,
1941954,1745089064011,,,,,,,,,,,,,,,,,,,,,,,,,,,,,,,,,,0,0,0,0,0,0,0,0,0,0,0,0,0,0,0,0,,,,,,,,,,,
1941974,1745089064031,0.0,195.83,,0.02,-0.05,0.85,1,-0,-1,0.85,1.06,80,5167,26.7,4.56,,13.29,1.248,97.0,,47.6,5,,,,,,,,,,,,0,0,0,0,0,0,0,0,0,0,0,0,0,0,0,0,,,,,0.0,,,,,,
1941994,1745089064051,,,,,,,,,,,,,,,,,,,,,,,,,,,,,,,,,,0,0,0,0,0,0,0,0,0,0,0,0,0,0,0,0,,,,,,,,,,,
1942014,1745089064071,0.0,195.83,,-0.02,-0.1,0.79,2,-0,-1,0.79,1.06,75,5699,31.5,4.58,,13.23,1.213,97.0,,47.6,5,0,0,0,0,0.0,0.0,0.0,0.0,2.27,,,0,0,0,0,0,0,0,0,0,0,0,0,0,0,0,0,0,,,,0.0,39.239712,-77.96582,0.11,34,3,0.8
1942034,1745089064097,,,,,,,,,,,,,,,,,,,,,,,,,,,,,,,,,,0,0,0,0,0,0,0,0,0,0,0,0,0,0,0,0,,,,,,,,,,,
1942054,1745089064117,0.0,195.7,,-0.01,-0.16,0.8,2,-0,-1,0.82,1.06,77,6716,31.9,5.24,,12.87,1.111,97.0,,59.8,5,,,,,,,,,,,,0,0,0,0,0,0,0,0,0,0,0,0,0,0,0,0,,,,,0.0,,,,,,
1942074,1745089064137,,,,,,,,,,,,,,,,,,,,,,,,,,,,,,,,,,0,0,0,0,0,0,0,0,0,0,0,0,0,0,0,0,,,,,,,,,,,
1942094,1745089064157,0.0,195.83,,-0.03,-0.16,0.84,1,-0,-0,0.86,1.06,81,7868,32.4,5.79,,12.87,1.111,97.0,,59.8,5,,,,,,,,,,,,0,0,0,0,0,0,0,0,0,0,0,0,0,0,0,0,,,,,0.0,,,,,,
1942114,1745089064177,,,,,,,,,,,,,,,,,,,,,,,0,0,0,0,0.0,0.0,0.0,0.0,2.27,,,0,0,0,0,0,0,0,0,0,0,0,0,0,0,0,0,0,,,,,39.239712,-77.96582,0.15,34,3,0.8
1942134,1745089064197,0.0,195.83,,-0.05,-0.26,0.87,2,-0,-1,0.91,1.06,85,7868,32.4,5.79,,12.57,1.058,97.0,,69.4,5,,,,,,,,,,,,0,0,0,0,0,0,0,0,0,0,0,0,0,0,0,0,,,,,0.0,,,,,,
1942154,1745089064217,,,,,,,,,,,,,,,,,,,,,,,,,,,,,,,,,,0,0,0,0,0,0,0,0,0,0,0,0,0,0,0,0,,,,,,,,,,,
1942174,1745089064237,0.0,195.7,,-0.1,-0.1,0.8,-0,-0,0,0.81,1.06,76,9580,33.7,4.7,,11.8,0.918,97.0,,69.4,5,,,,,,,,,,,,0,0,0,0,0,0,0,0,0,0,0,0,0,0,0,0,,,,,0.0,,,,,,
1942194,1745089064257,,,,,,,,,,,,,,,,,,,,,,,,,,,,,,,,,,0,0,0,0,0,0,0,0,0,0,0,0,0,0,0,0,,,,,,,,,,,
1942214,1745089064277,0.0,195.7,,-0.1,-0.09,0.78,0,-0,0,0.79,1.06,75,11130,34.1,3.86,,11.2,0.846,97.0,,69.4,5,0,0,0,0,0.0,0.0,0.0,0.0,2.26,,,0,0,0,0,0,0,0,0,0,0,0,0,0,0,0,0,0,,,,0.0,39.239712,-77.96582,0.08,34,3,0.8
1942234,1745089064299,,,,,,,,,,,,,,,,,,,,,,,,,,,,,,,,,,0,0,0,0,0,0,0,0,0,0,0,0,0,0,0,0,,,,,,,,,,,
1942254,1745089064319,0.0,195.7,,-0.08,-0.22,0.76,1,0,0,0.8,1.06,75,12149,34.2,3.61,,10.73,0.847,97.0,,70.1,5,,,,,,,,,,,,0,0,0,0,0,0,0,0,0,0,0,0,0,0,0,0,,,,,0.0,,,,,,
1942274,1745089064339,,,,,,,,,,,,,,,,,,,,,,,,,,,,,,,,,,0,0,0,0,0,0,0,0,0,0,0,0,0,0,0,0,,,,,,,,,,,
1942294,1745089064359,0.0,195.7,,-0.04,-0.18,0.87,1,0,0,0.89,1.06,84,12860,34.5,2.65,,10.73,0.847,97.0,,70.1,5,,,,,,,,,,,,0,0,0,0,0,0,0,0,0,0,0,0,0,0,0,0,,,,,0.0,,,,,,
1942314,1745089064379,,,,,,,,,,,,,,,,,,,,,,,0,0,0,0,0.0,0.0,0.0,0.0,2.26,,,0,0,0,0,0,0,0,0,0,0,0,0,0,0,0,0,0,,,,,39.239712,-77.96582,0.1,34,3,0.8
1942334,1745089064401,0.0,195.7,,-0.08,-0.17,0.86,1,0,-0,0.88,1.06,83,12860,34.5,2.65,,10.5,0.887,97.0,,70.6,5,,,,,,,,,,,,0,0,0,0,0,0,0,0,0,0,0,0,0,0,0,0,,,,,0.0,,,,,,
1942354,1745089064421,,,,,,,,,,,,,,,,,,,,,,,,,,,,,,,,,,0,0,0,0,0,0,0,0,0,0,0,0,0,0,0,0,,,,,,,,,,,
1942374,1745089064441,0.0,195.58,,-0.09,-0.17,0.88,1,-0,-1,0.9,1.06,85,12820,35.9,2.63,,10.24,1.016,97.0,,70.6,5,,,,,,,,,,,,0,0,0,0,0,0,0,0,0,0,0,0,0,0,0,0,,,,,0.0,,,,,,
1942394,1745089064461,,,,,,,,,,,,,,,,,,,,,,,,,,,,,,,,,,0,0,0,0,0,0,0,0,0,0,0,0,0,0,0,0,,,,,,,,,,,
1942414,1745089064481,0.0,195.58,13.29,-0.02,-0.18,0.84,1,0,-1,0.86,1.06,81,12403,39.8,3.25,15,10.78,1.22,97.0,156,70.6,5,0,0,0,0,0.0,0.0,0.0,0.0,2.26,0,0.0,0,0,0,0,0,0,0,0,0,0,0,0,0,0,0,0,0,0.0,0,-0,0.0,39.239712,-77.96582,0.04,34,3,0.8
1942434,1745089064501,,,,,,,,,,,,,,,,,,,,,,,,,,,,,,,,,,0,0,0,0,0,0,0,0,0,0,0,0,0,0,0,0,,,,,,,,,,,
1942454,1745089064521,0.0,195.7,,0.07,-0.15,0.87,1,1,-1,0.89,1.06,84,11615,44.1,4.3,,11.36,1.248,97.0,,71.1,5,,,,,,,,,,,,0,0,0,0,0,0,0,0,0,0,0,0,0,0,0,0,,,,,0.0,,,,,,
1942474,1745089064541,,,,,,,,,,,,,,,,,,,,,,,,,,,,,,,,,,0,0,0,0,0,0,0,0,0,0,0,0,0,0,0,0,,,,,,,,,,,
1942494,1745089064561,0.0,195.58,,0.1,-0.26,0.92,2,1,-1,0.96,1.06,90,11157,44.5,4.04,,11.36,1.248,97.0,,71.1,5,,,,,,,,,,,,0,0,0,0,0,0,0,0,0,0,0,0,0,0,0,0,,,,,0.0,,,,,,
1942514,1745089064581,,,,,,,,,,,,,,,,,,,,,,,0,0,0,0,0.0,0.0,0.0,0.0,2.27,,,0,0,0,0,0,0,0,0,0,0,0,0,0,0,0,0,0,,,,,39.239712,-77.96582,0.07,34,3,0.8
1942534,1745089064601,0.0,195.7,,0.15,-0.25,0.96,2,1,-1,1.01,1.06,95,11157,44.5,4.04,,11.95,1.248,97.0,,68.2,5,,,,,,,,,,,,0,0,0,0,0,0,0,0,0,0,0,0,0,0,0,0,,,,,0.0,,,,,,
1942554,1745089064621,,,,,,,,,,,,,,,,,,,,,,,,,,,,,,,,,,0,0,0,0,0,0,0,0,0,0,0,0,0,0,0,0,,,,,,,,,,,
1942574,1745089064641,0.0,195.58,,0.2,-0.32,0.91,1,1,-1,0.99,1.06,93,10399,44.8,4.44,,11.99,1.086,97.0,,68.2,5,,,,,,,,,,,,0,0,0,0,0,0,0,0,0,0,0,0,0,0,0,0,,,,,0.0,,,,,,
1942594,1745089064661,,,,,,,,,,,,,,,,,,,,,,,,,,,,,,,,,,0,0,0,0,0,0,0,0,0,0,0,0,0,0,0,0,,,,,,,,,,,
1942614,1745089064681,0.0,195.58,,0.25,-0.18,0.9,-0,1,-1,0.95,1.06,89,9375,45.4,4.88,,12.24,1.119,97.0,,68.2,5,0,0,1,0,0.0,0.0,0.0,0.0,2.27,,,0,0,0,0,0,0,0,0,0,0,0,0,0,0,0,0,0,,,,0.0,39.239712,-77.96582,1.03,34,3,0.8
1942634,1745089064699,,,,,,,,,,,,,,,,,,,,,,,,,,,,,,,,,,0,0,0,0,0,0,0,0,0,0,0,0,0,0,0,0,,,,,,,,,,,
1942654,1745089064719,0.0,195.45,,0.33,-0.12,0.94,1,1,-1,1.0,1.06,94,8093,45.6,5.31,,12.88,1.12,97.0,,63.1,5,,,,,,,,,,,,0,0,0,0,0,0,0,0,0,0,0,0,0,0,0,0,,,,,0.0,,,,,,
1942674,1745089064739,,,,,,,,,,,,,,,,,,,,,,,,,,,,,,,,,,0,0,0,0,0,0,0,0,0,0,0,0,0,0,0,0,,,,,,,,,,,
1942694,1745089064759,0.0,195.32,,0.36,-0.09,0.94,2,0,-1,1.01,1.06,95,6833,46.3,5.1,,12.88,1.12,97.0,,63.1,5,,,,,,,,,,,,0,0,0,0,0,0,0,0,0,0,0,0,0,0,0,0,,,,,0.0,,,,,,
1942714,1745089064779,,,,,,,,,,,,,,,,,,,,,,,3,0,11,11,0.0,0.0,0.0,0.0,2.26,,,0,0,0,0,0,0,0,0,0,0,0,0,0,0,0,0,0,,,,,39.239708,-77.96582,3.38,34,3,0.8
1942734,1745089064799,0.0,195.32,,0.37,-0.07,0.95,1,-0,-1,1.02,1.06,96,6833,46.3,5.1,,13.44,1.055,97.0,,60.9,5,,,,,,,,,,,,0,0,0,0,0,0,0,0,0,0,0,0,0,0,0,0,,,,,0.0,,,,,,
1942754,1745089064819,,,,,,,,,,,,,,,,,,,,,,,,,,,,,,,,,,0,0,0,0,0,0,0,0,0,0,0,0,0,0,0,0,,,,,,,,,,,
1942774,1745089064839,0.0,195.2,,0.4,-0.12,0.86,2,-0,-1,0.96,1.06,90,6627,46.4,5.07,,13.59,0.987,97.0,,60.9,5,,,,,,,,,,,,0,0,0,0,0,0,0,0,0,0,0,0,0,0,0,0,,,,,0.0,,,,,,
1942794,1745089064859,,,,,,,,,,,,,,,,,,,,,,,,,,,,,,,,,,0,0,0,0,0,0,0,0,0,0,0,0,0,0,0,0,,,,,,,,,,,
1942814,1745089064879,0.0,195.2,,0.44,-0.18,0.79,1,0,-1,0.92,1.06,86,6002,46.6,5.03,,13.72,0.973,97.0,,60.9,5,5,0,26,25,0.0,0.0,0.0,0.0,2.26,,,0,0,0,0,0,0,0,0,0,0,0,0,0,0,0,0,0,,,,0.0,39.239708,-77.96582,8.15,34,3,0.8
1942834,1745089064898,,,,,,,,,,,,,,,,,,,,,,,,,,,,,,,,,,0,0,0,0,0,0,0,0,0,0,0,0,0,0,0,0,,,,,,,,,,,
1942854,1745089064918,0.0,195.2,,0.44,-0.17,0.84,0,0,-0,0.96,1.06,90,5234,46.3,5.06,,13.95,1.059,97.0,,56.3,5,,,,,,,,,,,,0,0,0,0,0,0,0,0,0,0,0,0,0,0,0,0,,,,,0.0,,,,,,
1942874,1745089064938,,,,,,,,,,,,,,,,,,,,,,,,,,,,,,,,,,0,0,0,0,0,0,0,0,0,0,0,0,0,0,0,0,,,,,,,,,,,
1942894,1745089064958,0.0,195.07,,0.47,-0.17,0.86,-1,0,0,0.99,1.06,93,4417,46.7,5.01,,13.95,1.059,97.0,,56.3,5,,,,,,,,,,,,0,0,0,0,0,0,0,0,0,0,0,0,0,0,0,0,,,,,0.0,,,,,,
1942914,1745089064978,,,,,,,,,,,,,,,,,,,,,,,7,0,20,21,0.0,0.0,0.0,0.0,2.26,,,0,0,0,0,0,0,0,0,0,0,0,0,0,0,0,0,2,,,,,39.239708,-77.965828,10.26,34,3,0.8
1942934,1745089064992,0.0,194.95,,0.49,-0.15,0.9,-2,0,0,1.03,1.06,97,4417,46.7,5.01,,14.06,1.096,97.0,,38.3,5,,,,,,,,,,,,0,0,0,0,0,0,0,0,0,0,0,0,0,0,0,0,,,,,0.0,,,,,,
1942954,1745089065012,,,,,,,,,,,,,,,,,,,,,,,,,,,,,,,,,,0,0,0,0,0,0,0,0,0,0,0,0,0,0,0,0,,,,,,,,,,,
1942974,1745089065032,0.0,194.95,,0.48,-0.21,0.94,-2,0,0,1.08,1.08,100,3525,46.8,4.9,,14.27,1.091,97.0,,38.3,5,,,,,,,,,,,,0,0,0,0,0,0,0,0,0,0,0,0,0,0,0,0,,,,,0.0,,,,,,
1942994,1745089065052,,,,,,,,,,,,,,,,,,,,,,,,,,,,,,,,,,0,0,0,0,0,0,0,0,0,0,0,0,0,0,0,0,,,,,,,,,,,
1943014,1745089065072,0.0,194.82,,0.51,-0.23,0.95,-2,0,0,1.1,1.1,100,2892,46.9,4.89,,14.23,1.072,97.0,,38.3,5,9,0,12,13,0.0,240.0,0.0,0.0,2.27,,,0,0,0,0,0,0,0,0,0,0,0,0,0,0,0,0,2,,,,0.0,39.239708,-77.965828,12.96,34,3,0.8
1943034,1745089065098,,,,,,,,,,,,,,,,,,,,,,,,,,,,,,,,,,0,0,0,0,0,0,0,0,0,0,0,0,0,0,0,0,,,,,,,,,,,
1943054,1745089065118,0.0,194.82,,0.42,-0.18,0.96,-2,-1,0,1.06,1.1,96,2117,47.0,4.68,,14.3,1.094,97.0,,21.8,5,,,,,,,,,,,,0,0,0,0,0,0,0,0,0,0,0,0,0,0,0,0,,,,,0.0,,,,,,
1943074,1745089065138,,,,,,,,,,,,,,,,,,,,,,,,,,,,,,,,,,0,0,0,0,0,0,0,0,0,0,0,0,0,0,0,0,,,,,,,,,,,
1943094,1745089065158,0.0,194.82,,0.39,-0.18,0.98,0,-1,0,1.08,1.1,98,1710,47.2,4.53,,14.3,1.094,95.2,,21.8,5,,,,,,,,,,,,0,0,0,0,0,0,0,0,0,0,0,0,0,0,0,0,,,,,0.0,,,,,,
1943114,1745089065178,,,,,,,,,,,,,,,,,,,,,,,10,0,10,10,0.0,69.0,0.0,0.0,2.27,,,0,0,0,0,0,0,0,0,0,0,0,0,0,0,0,0,4,,,,,39.239704,-77.965828,15.96,34,3,0.8
1943134,1745089065196,0.0,194.82,,0.33,-0.11,0.99,0,-1,0,1.05,1.1,96,1710,47.2,4.53,,14.26,1.104,95.2,,18.3,5,,,,,,,,,,,,0,0,0,0,0,0,0,0,0,0,0,0,0,0,0,0,,,,,0.0,,,,,,
1943154,1745089065216,,,,,,,,,,,,,,,,,,,,,,,,,,,,,,,,,,0,0,0,0,0,0,0,0,0,0,0,0,0,0,0,0,,,,,,,,,,,
1943174,1745089065236,0.0,194.7,,0.25,-0.06,0.99,-1,-1,0,1.02,1.1,93,2021,47.3,4.44,,14.27,1.068,95.2,,18.3,5,,,,,,,,,,,,0,0,0,0,0,0,0,0,0,0,0,0,0,0,0,0,,,,,0.0,,,,,,
1943194,1745089065256,,,,,,,,,,,,,,,,,,,,,,,,,,,,,,,,,,0,0,0,0,0,0,0,0,0,0,0,0,0,0,0,0,,,,,,,,,,,
1943214,1745089065276,0.0,194.7,,0.21,-0.06,1.04,-3,-1,0,1.06,1.1,96,2440,47.4,4.54,,14.24,1.021,95.2,,18.3,5,10,0,9,10,0.0,62.0,0.0,0.0,2.26,,,0,0,0,0,0,0,0,0,0,0,0,0,0,0,0,0,4,,,,0.0,39.239696,-77.965828,16.94,34,3,0.8
1943234,1745089065300,,,,,,,,,,,,,,,,,,,,,,,,,,,,,,,,,,0,0,0,0,0,0,0,0,0,0,0,0,0,0,0,0,,,,,,,,,,,
1943254,1745089065320,0.0,194.82,,0.19,-0.13,1.11,-3,-1,0,1.13,1.13,100,3000,47.4,4.78,,14.19,1.012,95.2,,24.5,5,,,,,,,,,,,,0,0,0,0,0,0,0,0,0,0,0,0,0,0,0,0,,,,,0.0,,,,,,
1943274,1745089065340,,,,,,,,,,,,,,,,,,,,,,,,,,,,,,,,,,0,0,0,0,0,0,0,0,0,0,0,0,0,0,0,0,,,,,,,,,,,
1943294,1745089065360,0.0,194.82,,0.23,-0.13,1.11,-3,0,0,1.15,1.15,100,3062,47.4,4.87,,14.19,1.012,95.2,,24.5,5,,,,,,,,,,,,0,0,0,0,0,0,0,0,0,0,0,0,0,0,0,0,,,,,0.0,,,,,,
1943314,1745089065380,,,,,,,,,,,,,,,,,,,,,,,10,0,10,10,0.0,7.0,0.0,0.0,2.26,,,0,0,0,0,0,0,0,0,0,0,0,0,0,0,0,0,0,,,,,39.239693,-77.965828,15.34,34,3,0.8
1943334,1745089065400,0.0,194.7,,0.22,-0.11,1.11,-3,-0,0,1.14,1.15,99,3062,47.4,4.87,,14.24,1.046,95.2,,22.4,5,,,,,,,,,,,,0,0,0,0,0,0,0,0,0,0,0,0,0,0,0,0,,,,,0.0,,,,,,
1943354,1745089065420,,,,,,,,,,,,,,,,,,,,,,,,,,,,,,,,,,0,0,0,0,0,0,0,0,0,0,0,0,0,0,0,0,,,,,,,,,,,
1943374,1745089065440,0.0,194.7,,0.17,-0.1,1.12,-3,-1,0,1.14,1.15,99,2355,47.3,4.69,,14.26,1.085,95.2,,22.4,5,,,,,,,,,,,,0,0,0,0,0,0,0,0,0,0,0,0,0,0,0,0,,,,,0.0,,,,,,
1943394,1745089065460,,,,,,,,,,,,,,,,,,,,,,,,,,,,,,,,,,0,0,0,0,0,0,0,0,0,0,0,0,0,0,0,0,,,,,,,,,,,
1943414,1745089065480,0.0,194.7,13.39,0.16,-0.12,1.12,-4,-1,0,1.14,1.15,99,2332,47.1,4.49,15,14.24,1.136,95.2,153,22.4,5,10,0,10,10,0.0,59.0,0.0,0.0,2.27,0,0.0,0,0,0,0,0,0,0,0,0,0,0,0,0,0,0,0,0,0.0,0,-0,0.0,39.239689,-77.965836,15.56,34,3,0.8
1943434,1745089065500,,,,,,,,,,,,,,,,,,,,,,,,,,,,,,,,,,0,0,0,0,0,0,0,0,0,0,0,0,0,0,0,0,,,,,,,,,,,
1943454,1745089065520,0.0,194.7,,0.13,-0.08,1.09,-4,-1,0,1.11,1.15,96,2578,47.3,4.61,,14.22,1.177,95.2,,20.7,5,,,,,,,,,,,,0,0,0,0,0,0,0,0,0,0,0,0,0,0,0,0,,,,,0.0,,,,,,
1943474,1745089065540,,,,,,,,,,,,,,,,,,,,,,,,,,,,,,,,,,0,0,0,0,0,0,0,0,0,0,0,0,0,0,0,0,,,,,,,,,,,
1943494,1745089065560,0.0,194.7,,0.14,-0.03,1.05,-4,-0,0,1.06,1.15,92,2820,47.3,4.7,,14.22,1.177,95.2,,20.7,5,,,,,,,,,,,,0,0,0,0,0,0,0,0,0,0,0,0,0,0,0,0,,,,,0.0,,,,,,
1943514,1745089065580,,,,,,,,,,,,,,,,,,,,,,,10,0,10,10,0.0,250.0,0.0,0.0,2.27,,,0,0,0,0,0,0,0,0,0,0,0,0,0,0,0,0,0,,,,,39.239685,-77.965836,16.77,34,3,0.8
1943534,1745089065600,0.0,194.7,,0.12,-0.04,1.05,-4,-0,0,1.06,1.15,92,2820,47.3,4.7,,14.23,1.188,95.2,,24.5,5,,,,,,,,,,,,0,0,0,0,0,0,0,0,0,0,0,0,0,0,0,0,,,,,0.0,,,,,,
1943554,1745089065620,,,,,,,,,,,,,,,,,,,,,,,,,,,,,,,,,,0,0,0,0,0,0,0,0,0,0,0,0,0,0,0,0,,,,,,,,,,,
1943574,1745089065640,0.0,194.57,,0.11,-0.08,1.04,-4,-1,-0,1.05,1.15,92,2736,47.3,4.74,,14.24,1.19,95.2,,24.5,5,,,,,,,,,,,,0,0,0,0,0,0,0,0,0,0,0,0,0,0,0,0,,,,,0.0,,,,,,
1943594,1745089065660,,,,,,,,,,,,,,,,,,,,,,,,,,,,,,,,,,0,0,0,0,0,0,0,0,0,0,0,0,0,0,0,0,,,,,,,,,,,
1943614,1745089065680,0.0,194.57,,0.08,-0.05,1.03,-4,-1,-0,1.04,1.15,91,2525,47.4,4.63,,14.26,1.188,95.2,,24.5,5,11,0,11,10,0.0,18.0,0.0,0.0,2.26,,,0,0,0,0,0,0,0,0,0,0,0,0,0,0,0,0,0,,,,0.0,39.239685,-77.965836,16.1,34,3,0.8
1943634,1745089065700,,,,,,,,,,,,,,,,,,,,,,,,,,,,,,,,,,0,0,0,0,0,0,0,0,0,0,0,0,0,0,0,0,,,,,,,,,,,
1943654,1745089065720,0.0,194.7,,0.09,-0.12,1.05,-4,-0,-1,1.06,1.15,93,2592,47.4,4.71,,14.3,1.184,95.2,,23.0,5,,,,,,,,,,,,0,0,0,0,0,0,0,0,0,0,0,0,0,0,0,0,,,,,0.0,,,,,,
1943674,1745089065740,,,,,,,,,,,,,,,,,,,,,,,,,,,,,,,,,,0,0,0,0,0,0,0,0,0,0,0,0,0,0,0,0,,,,,,,,,,,
1943754,1745089065820,,,,,,,,,,,,,,,,,,,,,,,,,,,,,,,,,,0,0,0,0,0,0,0,0,0,0,0,0,0,0,0,0,,,,,,,,,,,
1943934,1745089065991,0.0,194.7,,0.06,-0.09,1.04,-5,0,-0,1.04,1.15,91,2806,47.0,4.72,,14.19,1.179,95.2,,23.7,5,,,,,,,,,,,,0,0,0,0,0,0,0,0,0,0,0,0,0,0,0,0,,,,,0.0,,,,,,
1943954,1745089066011,,,,,,,,,,,,,,,,,,,,,,,,,,,,,,,,,,0,0,0,0,0,0,0,0,0,0,0,0,0,0,0,0,,,,,,,,,,,
1943994,1745089066051,,,,,,,,,,,,,,,,,,,,,,,,,,,,,,,,,,0,0,0,0,0,0,0,0,0,0,0,0,0,0,0,0,,,,,,,,,,,
1944114,1745089066177,,,,,,,,,,,,,,,,,,,,,,,11,0,12,12,0.0,65.0,0.0,0.0,2.26,,,0,0,0,0,0,0,0,0,0,0,0,0,0,0,0,0,0,,,,,39.239666,-77.965858,17.97,33,3,0.8
1944134,1745089066199,0.0,195.2,,0.07,-0.05,1.02,-6,0,0,1.02,1.15,89,2731,33.6,4.32,,14.16,1.211,95.2,,25.7,5,,,,,,,,,,,,0,0,0,0,0,0,0,0,0,0,0,0,0,0,0,0,,,,,0.0,,,,,,
1944154,1745089066219,,,,,,,,,,,,,,,,,,,,,,,,,,,,,,,,,,0,0,0,0,0,0,0,0,0,0,0,0,0,0,0,0,,,,,,,,,,,
1944174,1745089066239,0.0,195.45,,0.08,-0.01,0.98,-5,0,0,0.98,1.15,86,2813,17.8,4.24,,13.95,1.208,95.2,,25.7,5,,,,,,,,,,,,0,0,0,0,0,0,0,0,0,0,0,0,0,0,0,0,,,,,0.0,,,,,,
1944194,1745089066259,,,,,,,,,,,,,,,,,,,,,,,,,,,,,,,,,,0,0,0,0,0,0,0,0,0,0,0,0,0,0,0,0,,,,,,,,,,,
1944214,1745089066279,0.0,195.45,,0.06,-0.07,0.99,-5,-0,0,0.99,1.15,86,2848,7.1,4.0,,13.63,1.206,95.2,,25.7,5,12,0,12,12,0.0,35.0,0.0,0.0,2.26,,,0,0,0,0,0,0,0,0,0,0,0,0,0,0,0,0,0,,,,0.0,39.239662,-77.965858,18.22,33,3,0.8
1944234,1745089066299,,,,,,,,,,,,,,,,,,,,,,,,,,,,,,,,,,0,0,0,0,0,0,0,0,0,0,0,0,0,0,0,0,,,,,,,,,,,
1944254,1745089066319,0.0,195.45,,0.03,-0.11,1.06,-5,-0,0,1.06,1.15,93,2914,0.0,3.26,,13.05,1.221,95.2,,24.5,5,,,,,,,,,,,,0,0,0,0,0,0,0,0,0,0,0,0,0,0,0,0,,,,,0.0,,,,,,
1944274,1745089066339,,,,,,,,,,,,,,,,,,,,,,,,,,,,,,,,,,0,0,0,0,0,0,0,0,0,0,0,0,0,0,0,0,,,,,,,,,,,
1944294,1745089066359,0.0,195.45,,0.0,-0.14,1.1,-4,-0,0,1.1,1.15,96,2892,0.0,3.18,,13.05,1.221,95.2,,24.5,5,,,,,,,,,,,,0,0,0,0,0,0,0,0,0,0,0,0,0,0,0,0,,,,,0.0,,,,,,
1944314,1745089066379,,,,,,,,,,,,,,,,,,,,,,,12,0,12,12,0.0,11.0,0.0,0.0,2.26,,,0,0,0,0,0,0,0,0,0,0,0,0,0,0,0,0,0,,,,,39.239658,-77.965866,18.55,33,3,0.8
1944334,1745089066401,0.0,195.45,,-0.01,-0.12,1.1,-4,-0,0,1.11,1.15,96,2892,0.0,3.18,,12.73,1.21,95.2,,26.5,5,,,,,,,,,,,,0,0,0,0,0,0,0,0,0,0,0,0,0,0,0,0,,,,,0.0,,,,,,
1944354,1745089066421,,,,,,,,,,,,,,,,,,,,,,,,,,,,,,,,,,0,0,0,0,0,0,0,0,0,0,0,0,0,0,0,0,,,,,,,,,,,
1944374,1745089066441,0.0,195.45,,-0.02,-0.08,1.05,-4,-0,1,1.06,1.15,92,2854,0.0,3.19,,12.53,1.186,95.2,,26.5,5,,,,,,,,,,,,0,0,0,0,0,0,0,0,0,0,0,0,0,0,0,0,,,,,0.0,,,,,,
1944394,1745089066461,,,,,,,,,,,,,,,,,,,,,,,,,,,,,,,,,,0,0,0,0,0,0,0,0,0,0,0,0,0,0,0,0,,,,,,,,,,,
1944414,1745089066481,0.0,195.45,13.36,-0.04,-0.11,1.08,-3,-0,0,1.09,1.15,95,2752,0.0,3.19,15,12.52,1.181,95.2,153,26.5,5,12,0,12,11,0.0,30.0,0.0,0.0,2.27,0,0.0,0,0,0,0,0,0,0,0,0,0,0,0,0,0,0,0,0,0.0,0,-0,0.0,39.239655,-77.965866,18.77,33,3,0.8
1944434,1745089066501,,,,,,,,,,,,,,,,,,,,,,,,,,,,,,,,,,0,0,0,0,0,0,0,0,0,0,0,0,0,0,0,0,,,,,,,,,,,
1944454,1745089066521,0.0,195.45,,-0.05,-0.11,1.07,-3,-0,0,1.07,1.15,94,2708,0.0,3.21,,12.44,1.184,95.2,,24.7,5,,,,,,,,,,,,0,0,0,0,0,0,0,0,0,0,0,0,0,0,0,0,,,,,0.0,,,,,,
1944474,1745089066541,,,,,,,,,,,,,,,,,,,,,,,,,,,,,,,,,,0,0,0,0,0,0,0,0,0,0,0,0,0,0,0,0,,,,,,,,,,,
1944494,1745089066561,0.0,195.45,,-0.07,-0.09,1.06,-3,-0,0,1.06,1.15,93,2601,0.0,3.22,,12.44,1.184,95.2,,24.7,5,,,,,,,,,,,,0,0,0,0,0,0,0,0,0,0,0,0,0,0,0,0,,,,,0.0,,,,,,
1944514,1745089066581,,,,,,,,,,,,,,,,,,,,,,,12,0,11,11,0.0,24.0,0.0,0.0,2.27,,,0,0,0,0,0,0,0,0,0,0,0,0,0,0,0,0,0,,,,,39.239651,-77.965866,18.29,33,3,0.8
1944534,1745089066599,0.0,195.58,,-0.08,-0.06,1.03,-3,-0,0,1.04,1.15,91,2601,0.0,3.22,,12.51,1.188,95.2,,22.2,5,,,,,,,,,,,,0,0,0,0,0,0,0,0,0,0,0,0,0,0,0,0,,,,,0.0,,,,,,
1944554,1745089066619,,,,,,,,,,,,,,,,,,,,,,,,,,,,,,,,,,0,0,0,0,0,0,0,0,0,0,0,0,0,0,0,0,,,,,,,,,,,
1944574,1745089066639,0.0,195.58,,-0.09,-0.07,1.01,-2,-0,0,1.02,1.15,89,2505,0.0,3.24,,12.59,1.173,95.2,,22.2,5,,,,,,,,,,,,0,0,0,0,0,0,0,0,0,0,0,0,0,0,0,0,,,,,0.0,,,,,,
1944594,1745089066659,,,,,,,,,,,,,,,,,,,,,,,,,,,,,,,,,,0,0,0,0,0,0,0,0,0,0,0,0,0,0,0,0,,,,,,,,,,,
1944614,1745089066679,2.64,195.7,,-0.12,-0.09,1.01,-2,-0,0,1.02,1.15,89,2357,0.0,3.26,,12.71,1.166,95.2,,22.2,5,11,0,11,11,0.0,0.0,0.0,0.0,2.26,,,0,0,0,0,0,0,0,0,0,0,0,0,0,0,0,0,2,,,,0.0,39.239647,-77.965874,17.88,33,3,0.8
1944634,1745089066699,,,,,,,,,,,,,,,,,,,,,,,,,,,,,,,,,,0,0,0,0,0,0,0,0,0,0,0,0,0,0,0,0,,,,,,,,,,,
1944654,1745089066719,11.44,195.7,,-0.14,-0.06,1.01,-2,-0,-0,1.02,1.15,89,2232,0.0,3.29,,12.85,1.191,95.2,,20.1,5,,,,,,,,,,,,0,0,0,0,0,0,0,0,0,0,0,0,0,0,0,0,,,,,0.0,,,,,,
1944674,1745089066739,,,,,,,,,,,,,,,,,,,,,,,,,,,,,,,,,,0,0,0,0,0,0,0,0,0,0,0,0,0,0,0,0,,,,,,,,,,,
1944694,1745089066759,24.01,195.83,,-0.14,-0.06,1.01,-2,-0,-0,1.02,1.15,89,2152,0.0,3.29,,12.85,1.191,95.2,,20.1,5,,,,,,,,,,,,0,0,0,0,0,0,0,0,0,0,0,0,0,0,0,0,,,,,0.0,,,,,,
1944714,1745089066779,,,,,,,,,,,,,,,,,,,,,,,11,0,11,10,0.0,18.0,0.0,0.0,2.27,,,0,0,0,0,0,0,0,0,0,0,0,0,0,0,0,0,2,,,,,39.239647,-77.965874,17.48,33,3,0.8
1944734,1745089066799,34.06,195.95,,-0.15,-0.06,1.0,-2,-0,-0,1.02,1.15,89,2152,0.0,3.29,,12.97,1.18,95.2,,18.8,5,,,,,,,,,,,,0,0,0,0,0,0,0,0,0,0,0,0,0,0,0,0,,,,,0.0,,,,,,
1944754,1745089066819,,,,,,,,,,,,,,,,,,,,,,,,,,,,,,,,,,0,0,0,0,0,0,0,0,0,0,0,0,0,0,0,0,,,,,,,,,,,
1944774,1745089066839,42.23,196.08,,-0.17,-0.06,1.0,-2,-0,-0,1.02,1.15,89,2009,0.0,3.31,,13.13,1.168,95.2,,18.8,5,,,,,,,,,,,,0,0,0,0,0,0,0,0,0,0,0,0,0,0,0,0,,,,,0.0,,,,,,
1944794,1745089066859,,,,,,,,,,,,,,,,,,,,,,,,,,,,,,,,,,0,0,0,0,0,0,0,0,0,0,0,0,0,0,0,0,,,,,,,,,,,
1944814,1745089066879,47.26,196.08,,-0.18,-0.05,1.01,-2,-0,-0,1.03,1.15,90,1863,16.7,4.61,,13.84,1.16,95.2,,18.8,5,10,0,10,10,0.0,243.0,0.0,0.0,2.26,,,0,0,0,0,0,0,0,0,0,0,0,0,0,0,0,0,3,,,,0.0,39.239643,-77.965881,16.85,33,3,0.8
1944834,1745089066900,,,,,,,,,,,,,,,,,,,,,,,,,,,,,,,,,,0,0,0,0,0,0,0,0,0,0,0,0,0,0,0,0,,,,,,,,,,,
1944854,1745089066920,51.66,196.2,,-0.2,-0.02,1.01,-2,-0,-0,1.03,1.15,90,1844,17.3,4.58,,14.08,1.15,95.2,,16.9,5,,,,,,,,,,,,0,0,0,0,0,0,0,0,0,0,0,0,0,0,0,0,,,,,0.0,,,,,,
1944874,1745089066940,,,,,,,,,,,,,,,,,,,,,,,,,,,,,,,,,,0,0,0,0,0,0,0,0,0,0,0,0,0,0,0,0,,,,,,,,,,,
1944894,1745089066960,54.17,196.33,,-0.21,-0.01,1.02,-2,-0,-0,1.04,1.15,91,2021,28.9,4.31,,14.08,1.15,95.2,,16.9,5,,,,,,,,,,,,0,0,0,0,0,0,0,0,0,0,0,0,0,0,0,0,,,,,0.0,,,,,,
1944914,1745089066980,,,,,,,,,,,,,,,,,,,,,,,10,0,9,10,0.0,7.0,0.0,0.0,2.27,,,0,0,0,0,0,0,0,0,0,0,0,0,0,0,0,0,3,,,,,39.239639,-77.965881,15.85,33,3,0.8
1944934,1745089066992,54.17,196.33,,-0.21,0.01,1.01,-2,-0,-0,1.03,1.03,100,2021,28.9,4.31,,14.19,1.158,95.2,,17.7,5,,,,,,,,,,,,0,0,0,0,0,0,0,0,0,0,0,0,0,0,0,0,,,,,0.0,,,,,,
1944954,1745089067012,,,,,,,,,,,,,,,,,,,,,,,,,,,,,,,,,,0,0,0,0,0,0,0,0,0,0,0,0,0,0,0,0,,,,,,,,,,,
1944974,1745089067032,54.17,196.33,,-0.21,-0.02,0.99,-2,0,-0,1.02,1.03,99,2185,39.0,4.86,,14.22,1.141,95.2,,17.7,5,,,,,,,,,,,,0,0,0,0,0,0,0,0,0,0,0,0,0,0,0,0,,,,,0.0,,,,,,
1944994,1745089067052,,,,,,,,,,,,,,,,,,,,,,,,,,,,,,,,,,0,0,0,0,0,0,0,0,0,0,0,0,0,0,0,0,,,,,,,,,,,
1945014,1745089067072,54.17,196.46,,-0.21,-0.01,0.98,-2,-0,-0,1.01,1.03,98,2505,40.5,4.64,,14.18,1.143,95.2,,17.7,5,9,0,9,9,0.0,22.0,0.0,0.0,2.27,,,0,0,0,0,0,0,0,0,0,0,0,0,0,0,0,0,2,,,,0.0,39.239635,-77.965889,15.03,33,3,0.8
1945034,1745089067098,,,,,,,,,,,,,,,,,,,,,,,,,,,,,,,,,,0,0,0,0,0,0,0,0,0,0,0,0,0,0,0,0,,,,,,,,,,,
1945054,1745089067118,52.92,196.46,,-0.21,-0.02,0.95,-2,-0,-0,0.98,1.03,95,2799,40.5,4.56,,14.14,1.132,95.2,,21.7,5,,,,,,,,,,,,0,0,0,0,0,0,0,0,0,0,0,0,0,0,0,0,,,,,0.0,,,,,,
1945074,1745089067138,,,,,,,,,,,,,,,,,,,,,,,,,,,,,,,,,,0,0,0,0,0,0,0,0,0,0,0,0,0,0,0,0,,,,,,,,,,,
1945094,1745089067158,49.77,196.33,,-0.21,-0.06,0.98,-2,0,-1,1.0,1.03,97,3006,40.8,4.47,,14.14,1.132,95.2,,21.7,5,,,,,,,,,,,,0,0,0,0,0,0,0,0,0,0,0,0,0,0,0,0,,,,,0.0,,,,,,
1945114,1745089067178,,,,,,,,,,,,,,,,,,,,,,,9,0,9,9,0.0,233.0,0.0,0.0,2.26,,,0,0,0,0,0,0,0,0,0,0,0,0,0,0,0,0,2,,,,,39.239632,-77.965889,14.26,33,3,0.8
1945134,1745089067198,47.26,196.33,,-0.22,0.01,0.9,-1,0,-1,0.92,1.03,90,3006,40.8,4.47,,14.16,1.143,95.2,,28.2,5,,,,,,,,,,,,0,0,0,0,0,0,0,0,0,0,0,0,0,0,0,0,,,,,0.0,,,,,,
1945154,1745089067218,,,,,,,,,,,,,,,,,,,,,,,,,,,,,,,,,,0,0,0,0,0,0,0,0,0,0,0,0,0,0,0,0,,,,,,,,,,,
1945174,1745089067238,43.49,196.46,,-0.23,0.02,0.93,-1,0,-1,0.96,1.03,93,3230,29.1,4.26,,13.99,1.169,95.2,,28.2,5,,,,,,,,,,,,0,0,0,0,0,0,0,0,0,0,0,0,0,0,0,0,,,,,0.0,,,,,,
1945194,1745089067258,,,,,,,,,,,,,,,,,,,,,,,,,,,,,,,,,,0,0,0,0,0,0,0,0,0,0,0,0,0,0,0,0,,,,,,,,,,,
1945214,1745089067278,41.6,196.33,,-0.24,0.05,0.96,-1,0,-0,0.99,1.03,96,3617,12.8,4.34,,13.51,1.207,95.2,,28.2,5,8,0,8,8,0.0,32.0,0.0,0.0,2.26,,,0,0,0,0,0,0,0,0,0,0,0,0,0,0,0,0,0,,,,0.0,39.239628,-77.965897,13.44,33,3,0.8
1945234,1745089067300,,,,,,,,,,,,,,,,,,,,,,,,,,,,,,,,,,0,0,0,0,0,0,0,0,0,0,0,0,0,0,0,0,,,,,,,,,,,
1945254,1745089067320,37.83,196.33,,-0.25,0.05,0.96,-2,0,-0,0.99,1.03,96,3711,11.8,4.24,,13.21,1.241,95.2,,33.7,5,,,,,,,,,,,,0,0,0,0,0,0,0,0,0,0,0,0,0,0,0,0,,,,,0.0,,,,,,
1945274,1745089067340,,,,,,,,,,,,,,,,,,,,,,,,,,,,,,,,,,0,0,0,0,0,0,0,0,0,0,0,0,0,0,0,0,,,,,,,,,,,
1945294,1745089067360,36.58,196.33,,-0.24,0.02,0.95,-2,0,-0,0.98,1.03,95,3827,11.6,4.23,,13.21,1.241,95.2,,33.7,5,,,,,,,,,,,,0,0,0,0,0,0,0,0,0,0,0,0,0,0,0,0,,,,,0.0,,,,,,
1945314,1745089067380,,,,,,,,,,,,,,,,,,,,,,,8,0,8,8,0.0,25.0,0.0,0.0,2.26,,,0,0,0,0,0,0,0,0,0,0,0,0,0,0,0,0,0,,,,,39.239628,-77.965897,12.91,33,3,0.8
1945334,1745089067400,34.69,196.2,,-0.22,-0.01,0.92,-1,0,-1,0.95,1.03,92,3827,11.6,4.23,,13.01,1.248,95.2,,36.5,5,,,,,,,,,,,,0,0,0,0,0,0,0,0,0,0,0,0,0,0,0,0,,,,,0.0,,,,,,
1945354,1745089067420,,,,,,,,,,,,,,,,,,,,,,,,,,,,,,,,,,0,0,0,0,0,0,0,0,0,0,0,0,0,0,0,0,,,,,,,,,,,
1945374,1745089067440,34.06,196.2,,-0.2,0.07,0.95,-1,0,-1,0.97,1.03,94,3884,11.7,4.16,,13.03,1.209,95.2,,36.5,5,,,,,,,,,,,,0,0,0,0,0,0,0,0,0,0,0,0,0,0,0,0,,,,,0.0,,,,,,
1945394,1745089067460,,,,,,,,,,,,,,,,,,,,,,,,,,,,,,,,,,0,0,0,0,0,0,0,0,0,0,0,0,0,0,0,0,,,,,,,,,,,
1945414,1745089067480,34.06,196.2,13.41,-0.2,0.14,1.01,-2,0,-0,1.04,1.04,100,3916,11.6,4.14,15,12.87,1.193,95.2,151,36.5,5,7,0,7,8,0.0,36.0,0.0,0.0,2.27,0,0.0,0,0,0,0,0,0,0,0,0,0,0,0,0,0,0,0,0,0.0,0,-0,0.0,39.239624,-77.965897,12.43,33,3,0.8
1945434,1745089067500,,,,,,,,,,,,,,,,,,,,,,,,,,,,,,,,,,0,0,0,0,0,0,0,0,0,0,0,0,0,0,0,0,,,,,,,,,,,
1945454,1745089067520,32.81,196.33,,-0.2,0.05,0.95,-2,0,-0,0.98,1.04,94,3996,3.7,4.05,,12.56,1.178,95.2,,36.8,5,,,,,,,,,,,,0,0,0,0,0,0,0,0,0,0,0,0,0,0,0,0,,,,,0.0,,,,,,
1945474,1745089067540,,,,,,,,,,,,,,,,,,,,,,,,,,,,,,,,,,0,0,0,0,0,0,0,0,0,0,0,0,0,0,0,0,,,,,,,,,,,
1945494,1745089067560,31.55,196.2,,-0.18,0.03,0.94,-1,0,-1,0.95,1.04,92,3929,3.3,3.73,,12.56,1.178,95.2,,36.8,5,,,,,,,,,,,,0,0,0,0,0,0,0,0,0,0,0,0,0,0,0,0,,,,,0.0,,,,,,
1945514,1745089067580,,,,,,,,,,,,,,,,,,,,,,,7,0,7,7,0.0,229.0,0.0,0.0,2.27,,,0,0,0,0,0,0,0,0,0,0,0,0,0,0,0,0,0,,,,,39.239624,-77.965904,11.88,33,3,0.8
1945534,1745089067602,30.92,196.2,,-0.17,0.04,0.95,-1,0,-1,0.96,1.04,93,3929,3.3,3.73,,12.25,1.144,95.2,,35.8,5,,,,,,,,,,,,0,0,0,0,0,0,0,0,0,0,0,0,0,0,0,0,,,,,0.0,,,,,,
1945554,1745089067622,,,,,,,,,,,,,,,,,,,,,,,,,,,,,,,,,,0,0,0,0,0,0,0,0,0,0,0,0,0,0,0,0,,,,,,,,,,,
1945574,1745089067642,29.03,196.2,,-0.17,0.07,0.95,-1,0,-1,0.97,1.04,94,3820,3.3,3.75,,12.03,1.138,95.2,,35.8,5,,,,,,,,,,,,0,0,0,0,0,0,0,0,0,0,0,0,0,0,0,0,,,,,0.0,,,,,,
1945594,1745089067662,,,,,,,,,,,,,,,,,,,,,,,,,,,,,,,,,,0,0,0,0,0,0,0,0,0,0,0,0,0,0,0,0,,,,,,,,,,,
1945614,1745089067682,27.15,196.2,,-0.19,0.01,0.96,-1,0,-1,0.98,1.04,94,3769,3.4,3.78,,11.95,1.114,95.2,,35.8,5,7,0,7,7,0.0,49.0,0.0,0.0,2.27,,,0,0,0,0,0,0,0,0,0,0,0,0,0,0,0,0,0,,,,0.0,39.23962,-77.965904,11.36,33,3,0.8
1945634,1745089067702,,,,,,,,,,,,,,,,,,,,,,,,,,,,,,,,,,0,0,0,0,0,0,0,0,0,0,0,0,0,0,0,0,,,,,,,,,,,
1945654,1745089067722,25.26,196.2,,-0.19,-0.02,0.96,-2,0,-1,0.98,1.04,94,3640,3.4,3.76,,11.97,1.113,95.2,,34.5,5,,,,,,,,,,,,0,0,0,0,0,0,0,0,0,0,0,0,0,0,0,0,,,,,0.0,,,,,,
1945674,1745089067742,,,,,,,,,,,,,,,,,,,,,,,,,,,,,,,,,,0,0,0,0,0,0,0,0,0,0,0,0,0,0,0,0,,,,,,,,,,,
1945694,1745089067762,25.89,196.2,,-0.2,-0.04,0.99,-2,0,-1,1.01,1.04,97,3618,3.4,3.81,,11.97,1.113,95.2,,34.5,5,,,,,,,,,,,,0,0,0,0,0,0,0,0,0,0,0,0,0,0,0,0,,,,,0.0,,,,,,
1945714,1745089067782,,,,,,,,,,,,,,,,,,,,,,,6,0,7,7,0.0,0.0,0.0,0.0,2.26,,,0,0,0,0,0,0,0,0,0,0,0,0,0,0,0,0,0,,,,,39.239616,-77.965912,10.92,33,3,0.8
1945734,1745089067802,25.26,196.2,,-0.18,-0.0,1.0,-2,0,-0,1.02,1.04,98,3618,3.4,3.81,,11.97,1.085,95.2,,33.2,5,,,,,,,,,,,,0,0,0,0,0,0,0,0,0,0,0,0,0,0,0,0,,,,,0.0,,,,,,
1945754,1745089067822,,,,,,,,,,,,,,,,,,,,,,,,,,,,,,,,,,0,0,0,0,0,0,0,0,0,0,0,0,0,0,0,0,,,,,,,,,,,
1945774,1745089067842,25.26,196.2,,-0.17,0.02,0.94,-2,0,-1,0.95,1.04,92,3521,3.3,3.85,,12.07,1.091,95.2,,33.2,5,,,,,,,,,,,,0,0,0,0,0,0,0,0,0,0,0,0,0,0,0,0,,,,,0.0,,,,,,
1945794,1745089067862,,,,,,,,,,,,,,,,,,,,,,,,,,,,,,,,,,0,0,0,0,0,0,0,0,0,0,0,0,0,0,0,0,,,,,,,,,,,
1945814,1745089067882,25.89,196.08,,-0.19,-0.02,1.0,-2,0,-0,1.02,1.04,98,3433,5.8,4.06,,12.27,1.098,95.2,,33.2,5,6,0,6,6,0.0,0.0,0.0,0.0,2.27,,,0,0,0,0,0,0,0,0,0,0,0,0,0,0,0,0,0,,,,0.0,39.239616,-77.965912,10.23,33,3,0.8
1945834,1745089067901,,,,,,,,,,,,,,,,,,,,,,,,,,,,,,,,,,0,0,0,0,0,0,0,0,0,0,0,0,0,0,0,0,,,,,,,,,,,
1945854,1745089067921,25.89,196.2,,-0.19,0.02,0.92,-1,0,-0,0.94,1.04,91,3340,10.5,4.16,,12.75,1.092,95.2,,30.7,5,,,,,,,,,,,,0,0,0,0,0,0,0,0,0,0,0,0,0,0,0,0,,,,,0.0,,,,,,
1945874,1745089067941,,,,,,,,,,,,,,,,,,,,,,,,,,,,,,,,,,0,0,0,0,0,0,0,0,0,0,0,0,0,0,0,0,,,,,,,,,,,
1945894,1745089067961,27.15,196.08,,-0.19,-0.02,0.99,-2,0,-0,1.0,1.04,97,3324,12.6,4.36,,12.75,1.092,95.2,,30.7,5,,,,,,,,,,,,0,0,0,0,0,0,0,0,0,0,0,0,0,0,0,0,,,,,0.0,,,,,,
1945914,1745089067981,,,,,,,,,,,,,,,,,,,,,,,6,0,6,6,0.0,0.0,0.0,0.0,2.27,,,0,0,0,0,0,0,0,0,0,0,0,0,0,0,0,0,0,,,,,39.239613,-77.965912,9.79,33,3,0.8
1945934,1745089067993,25.89,196.08,,-0.18,0.01,0.94,-1,0,-0,0.95,1.04,92,3324,12.6,4.36,,13.09,1.072,95.2,,30.5,5,,,,,,,,,,,,0,0,0,0,0,0,0,0,0,0,0,0,0,0,0,0,,,,,0.0,,,,,,
1945954,1745089068013,,,,,,,,,,,,,,,,,,,,,,,,,,,,,,,,,,0,0,0,0,0,0,0,0,0,0,0,0,0,0,0,0,,,,,,,,,,,
1945974,1745089068033,25.89,196.08,,-0.19,-0.07,0.99,-2,0,-0,1.01,1.04,97,3468,12.8,4.33,,13.21,1.057,95.2,,30.5,5,,,,,,,,,,,,0,0,0,0,0,0,0,0,0,0,0,0,0,0,0,0,,,,,0.0,,,,,,
1945994,1745089068053,,,,,,,,,,,,,,,,,,,,,,,,,,,,,,,,,,0,0,0,0,0,0,0,0,0,0,0,0,0,0,0,0,,,,,,,,,,,
1946014,1745089068073,25.89,196.08,,-0.19,-0.04,0.98,-2,0,-1,1.0,1.04,97,3631,12.9,4.29,,13.24,1.051,95.2,,30.5,5,5,0,5,6,0.0,0.0,0.0,0.0,2.27,,,0,0,0,0,0,0,0,0,0,0,0,0,0,0,0,0,0,,,,0.0,39.239613,-77.965912,9.21,34,3,0.8
1946034,1745089068099,,,,,,,,,,,,,,,,,,,,,,,,,,,,,,,,,,0,0,0,0,0,0,0,0,0,0,0,0,0,0,0,0,,,,,,,,,,,
1946054,1745089068119,26.52,196.08,,-0.17,0.05,1.02,-1,0,-0,1.04,1.04,100,3999,13.2,4.2,,13.07,1.109,95.2,,35.0,5,,,,,,,,,,,,0,0,0,0,0,0,0,0,0,0,0,0,0,0,0,0,,,,,0.0,,,,,,
1946074,1745089068139,,,,,,,,,,,,,,,,,,,,,,,,,,,,,,,,,,0,0,0,0,0,0,0,0,0,0,0,0,0,0,0,0,,,,,,,,,,,
1946094,1745089068159,24.64,195.95,,-0.19,0.04,1.06,-2,0,0,1.08,1.08,100,4074,13.1,4.13,,13.07,1.109,95.2,,35.0,5,,,,,,,,,,,,0,0,0,0,0,0,0,0,0,0,0,0,0,0,0,0,,,,,0.0,,,,,,
1946114,1745089068179,,,,,,,,,,,,,,,,,,,,,,,5,0,5,5,0.0,0.0,0.0,0.0,2.26,,,0,0,0,0,0,0,0,0,0,0,0,0,0,0,0,0,0,,,,,39.239609,-77.965912,8.72,34,3,0.8
1946134,1745089068199,24.64,195.95,,-0.18,0.05,1.07,-2,0,0,1.09,1.09,100,4074,13.1,4.13,,12.96,1.051,95.2,,39.7,5,,,,,,,,,,,,0,0,0,0,0,0,0,0,0,0,0,0,0,0,0,0,,,,,0.0,,,,,,
1946154,1745089068219,,,,,,,,,,,,,,,,,,,,,,,,,,,,,,,,,,0,0,0,0,0,0,0,0,0,0,0,0,0,0,0,0,,,,,,,,,,,
1946174,1745089068239,23.38,195.95,,-0.16,-0.04,0.94,-1,0,-1,0.96,1.09,88,4198,9.5,3.74,,12.57,1.102,95.2,,39.7,5,,,,,,,,,,,,0,0,0,0,0,0,0,0,0,0,0,0,0,0,0,0,,,,,0.0,,,,,,
1946194,1745089068259,,,,,,,,,,,,,,,,,,,,,,,,,,,,,,,,,,0,0,0,0,0,0,0,0,0,0,0,0,0,0,0,0,,,,,,,,,,,
1946214,1745089068279,22.75,195.95,,-0.15,-0.08,0.91,-1,0,-0,0.93,1.09,85,4367,8.8,3.5,,12.39,1.085,95.2,,39.7,5,5,0,5,5,0.0,0.0,0.0,0.0,2.26,,,0,0,0,0,0,0,0,0,0,0,0,0,0,0,0,0,0,,,,0.0,39.239609,-77.965912,8.13,34,3,0.8
1946234,1745089068301,,,,,,,,,,,,,,,,,,,,,,,,,,,,,,,,,,0,0,0,0,0,0,0,0,0,0,0,0,0,0,0,0,,,,,,,,,,,
1946254,1745089068321,22.12,195.95,,-0.22,-0.11,0.92,-2,0,-0,0.95,1.09,88,4410,8.5,3.48,,12.23,1.066,95.2,,42.0,5,,,,,,,,,,,,0,0,0,0,0,0,0,0,0,0,0,0,0,0,0,0,,,,,0.0,,,,,,
1946274,1745089068341,,,,,,,,,,,,,,,,,,,,,,,,,,,,,,,,,,0,0,0,0,0,0,0,0,0,0,0,0,0,0,0,0,,,,,,,,,,,
1946294,1745089068361,23.38,195.83,,-0.26,-0.03,1.02,-3,0,0,1.05,1.09,96,4371,8.4,3.5,,12.23,1.066,95.2,,42.0,5,,,,,,,,,,,,0,0,0,0,0,0,0,0,0,0,0,0,0,0,0,0,,,,,0.0,,,,,,
1946314,1745089068381,,,,,,,,,,,,,,,,,,,,,,,4,0,4,5,0.0,0.0,0.0,0.0,2.26,,,0,0,0,0,0,0,0,0,0,0,0,0,0,0,0,0,0,,,,,39.239609,-77.965912,7.51,34,3,0.8
1946334,1745089068399,24.64,195.83,,-0.24,0.03,1.05,-3,0,0,1.08,1.09,99,4371,8.4,3.5,,12.12,1.062,95.2,,41.6,5,,,,,,,,,,,,0,0,0,0,0,0,0,0,0,0,0,0,0,0,0,0,,,,,0.0,,,,,,
1946354,1745089068419,,,,,,,,,,,,,,,,,,,,,,,,,,,,,,,,,,0,0,0,0,0,0,0,0,0,0,0,0,0,0,0,0,,,,,,,,,,,
1946374,1745089068439,26.52,195.95,,-0.22,-0.06,0.94,-2,0,-0,0.97,1.09,89,4300,8.4,3.55,,12.15,1.081,95.2,,41.6,5,,,,,,,,,,,,0,0,0,0,0,0,0,0,0,0,0,0,0,0,0,0,,,,,0.0,,,,,,
1946394,1745089068459,,,,,,,,,,,,,,,,,,,,,,,,,,,,,,,,,,0,0,0,0,0,0,0,0,0,0,0,0,0,0,0,0,,,,,,,,,,,
1946414,1745089068479,29.03,195.83,13.46,-0.26,0.02,1.0,-3,0,0,1.03,1.09,95,4192,8.5,3.59,15,12.12,1.137,95.2,149,41.6,5,4,0,4,4,0.0,0.0,0.0,0.0,2.27,0,0.0,0,0,0,0,0,0,0,0,0,0,0,0,0,0,0,0,0,0.0,0,-0,0.0,39.239609,-77.96592,7.02,34,3,0.8
1946434,1745089068501,,,,,,,,,,,,,,,,,,,,,,,,,,,,,,,,,,0,0,0,0,0,0,0,0,0,0,0,0,0,0,0,0,,,,,,,,,,,
1946454,1745089068521,32.18,195.83,,-0.23,0.03,0.99,-2,-0,-0,1.02,1.09,93,4165,8.4,3.6,,12.09,1.181,95.2,,40.0,5,,,,,,,,,,,,0,0,0,0,0,0,0,0,0,0,0,0,0,0,0,0,,,,,0.0,,,,,,
1946474,1745089068541,,,,,,,,,,,,,,,,,,,,,,,,,,,,,,,,,,0,0,0,0,0,0,0,0,0,0,0,0,0,0,0,0,,,,,,,,,,,
1946494,1745089068561,33.43,195.95,,-0.23,0.01,0.97,-2,-0,0,1.0,1.09,92,4191,8.3,3.65,,12.09,1.181,95.2,,40.0,5,,,,,,,,,,,,0,0,0,0,0,0,0,0,0,0,0,0,0,0,0,0,,,,,0.0,,,,,,
1946514,1745089068581,,,,,,,,,,,,,,,,,,,,,,,4,0,4,4,0.0,0.0,0.0,0.0,2.27,,,0,0,0,0,0,0,0,0,0,0,0,0,0,0,0,0,0,,,,,39.239605,-77.96592,6.49,34,3,0.8
1946534,1745089068599,34.06,195.95,,-0.22,0.07,1.06,-2,-0,0,1.09,1.09,100,4191,8.3,3.65,,12.13,1.202,95.2,,39.4,5,,,,,,,,,,,,0,0,0,0,0,0,0,0,0,0,0,0,0,0,0,0,,,,,0.0,,,,,,
1946554,1745089068619,,,,,,,,,,,,,,,,,,,,,,,,,,,,,,,,,,0,0,0,0,0,0,0,0,0,0,0,0,0,0,0,0,,,,,,,,,,,
1946574,1745089068639,35.95,195.95,,-0.2,-0.04,0.95,-2,-0,0,0.97,1.09,89,4259,8.4,3.64,,12.11,1.216,95.2,,39.4,5,,,,,,,,,,,,0,0,0,0,0,0,0,0,0,0,0,0,0,0,0,0,,,,,0.0,,,,,,
1946594,1745089068659,,,,,,,,,,,,,,,,,,,,,,,,,,,,,,,,,,0,0,0,0,0,0,0,0,0,0,0,0,0,0,0,0,,,,,,,,,,,
1946614,1745089068679,35.95,196.08,,-0.23,0.0,0.99,-2,-0,1,1.02,1.09,94,4204,8.4,3.55,,12.08,1.124,95.2,,39.4,5,3,0,3,3,0.0,0.0,0.0,0.0,2.26,,,0,0,0,0,0,0,0,0,0,0,0,0,0,0,0,0,0,,,,0.0,39.239605,-77.96592,5.68,34,3,0.8
1946634,1745089068701,,,,,,,,,,,,,,,,,,,,,,,,,,,,,,,,,,0,0,0,0,0,0,0,0,0,0,0,0,0,0,0,0,,,,,,,,,,,
1946654,1745089068721,35.32,196.08,,-0.2,0.06,1.02,-1,-0,0,1.04,1.09,96,4215,8.4,3.56,,12.07,1.025,95.2,,40.0,5,,,,,,,,,,,,0,0,0,0,0,0,0,0,0,0,0,0,0,0,0,0,,,,,0.0,,,,,,
1946674,1745089068741,,,,,,,,,,,,,,,,,,,,,,,,,,,,,,,,,,0,0,0,0,0,0,0,0,0,0,0,0,0,0,0,0,,,,,,,,,,,
1946694,1745089068761,35.32,196.08,,-0.19,-0.02,0.95,-1,-0,0,0.97,1.09,89,4226,6.5,3.54,,12.07,1.025,95.2,,40.0,5,,,,,,,,,,,,0,0,0,0,0,0,0,0,0,0,0,0,0,0,0,0,,,,,0.0,,,,,,
1946714,1745089068781,,,,,,,,,,,,,,,,,,,,,,,3,0,3,3,0.0,0.0,0.0,0.0,2.26,,,0,0,0,0,0,0,0,0,0,0,0,0,0,0,0,0,0,,,,,39.239605,-77.96592,5.07,33,3,0.9
1946734,1745089068801,35.32,196.2,,-0.22,0.06,1.07,-2,-0,0,1.09,1.09,100,4226,6.5,3.54,,11.91,0.999,95.2,,39.7,5,,,,,,,,,,,,0,0,0,0,0,0,0,0,0,0,0,0,0,0,0,0,,,,,0.0,,,,,,
1946754,1745089068821,,,,,,,,,,,,,,,,,,,,,,,,,,,,,,,,,,0,0,0,0,0,0,0,0,0,0,0,0,0,0,0,0,,,,,,,,,,,
1946774,1745089068841,35.95,196.2,,-0.19,-0.0,0.96,-1,-0,-0,0.98,1.09,90,4311,5.9,3.53,,11.83,1.015,95.2,,39.7,5,,,,,,,,,,,,0,0,0,0,0,0,0,0,0,0,0,0,0,0,0,0,,,,,0.0,,,,,,
1946794,1745089068861,,,,,,,,,,,,,,,,,,,,,,,,,,,,,,,,,,0,0,0,0,0,0,0,0,0,0,0,0,0,0,0,0,,,,,,,,,,,
1946814,1745089068881,36.58,196.2,,-0.22,-0.07,0.91,-0,-0,-0,0.94,1.09,86,4250,5.8,3.51,,11.83,1.056,95.2,,39.7,5,2,0,2,3,0.0,0.0,0.0,0.0,2.27,,,0,0,0,0,0,0,0,0,0,0,0,0,0,0,0,0,0,,,,0.0,39.239601,-77.96592,4.25,33,3,0.9
1946834,1745089068900,,,,,,,,,,,,,,,,,,,,,,,,,,,,,,,,,,0,0,0,0,0,0,0,0,0,0,0,0,0,0,0,0,,,,,,,,,,,
1946854,1745089068920,36.58,196.33,,-0.21,0.06,1.0,-1,-0,0,1.03,1.09,94,4182,5.7,3.5,,11.72,1.046,95.2,,40.8,5,,,,,,,,,,,,0,0,0,0,0,0,0,0,0,0,0,0,0,0,0,0,,,,,0.0,,,,,,
1946874,1745089068940,,,,,,,,,,,,,,,,,,,,,,,,,,,,,,,,,,0,0,0,0,0,0,0,0,0,0,0,0,0,0,0,0,,,,,,,,,,,
1946894,1745089068960,37.2,196.33,,-0.19,-0.02,0.93,-0,-0,-0,0.95,1.09,87,4178,5.7,3.73,,11.72,1.046,95.2,,40.8,5,,,,,,,,,,,,0,0,0,0,0,0,0,0,0,0,0,0,0,0,0,0,,,,,0.0,,,,,,
