"Interval"|"ms"|0|0|1,"Utc"|"ms"|0|0|1,"FrontBP"|"psi"|-5.0|5.0|25,"SteerAng"|"Degrees"|-145.0|145.0|25,"Battery"|"Volts"|-5.0|20.0|1,"AccelX"|"G"|-3.0|3.0|25,"AccelY"|"G"|-3.0|3.0|25,"AccelZ"|"G"|-3.0|3.0|25,"Yaw"|"Deg/Sec"|-120|120|25,"Pitch"|"Deg/Sec"|-120|120|25,"Roll"|"Deg/Sec"|-120|120|25,"Gsum"|"G"|0.0|3.0|25,"GsumMax"|"G"|0.0|3.0|25,"GsumPct"|"%"|0|100|25,"RPM"|""|0|10000|25,"TPS"|"%"|0.0|100.0|25,"InjectorPW"|"ms"|0.0|100.0|25,"Baro"|"kPa"|0|105|1,"MAP"|"Psi"|0.0|255.0|25,"Lambda"|""|-2.0|2.0|25,"IAT"|"C"|0.0|200.0|25,"EngineTemp"|"C"|0|200|1,"EOP"|"PSI"|0.0|152.0|25,"EOT"|"F"|0|250|25,"WSFR"|"MPH"|0|150|10,"WSFL"|"MPH"|0|100|10,"WSRR"|"MPH"|0|100|10,"WSRL"|""|0|100|10,"TCSet"|"%"|0.0|100.0|10,"TCSlip"|"%"|0.0|100.0|10,"TCComp"|"deg"|0.0|50.0|10,"TCCut"|"%"|0.0|100.0|10,"Analog8"|""|0.0|5.0|10,"OilTemp"|"F"|0|300|1,"AA_On"|""|0.0|1.0|1,"ThermLF1"|"C"|0|400|50,"ThermLF2"|"C"|0|400|50,"ThermRR1"|"C"|0|400|50,"ThermRR2"|"C"|0|400|50,"ThermLF3"|"C"|0|400|50,"ThermLF4"|"C"|0|400|50,"ThermLF5"|"C"|0|400|50,"ThermLF6"|"C"|0|400|50,"ThermLF7"|"C"|0|400|50,"ThermLF8"|"C"|0|400|50,"ThermRR3"|"C"|0|400|50,"ThermRR4"|"C"|0|400|50,"ThermRR5"|"C"|0|400|50,"ThermRR6"|"C"|0|400|50,"ThermRR7"|"C"|0|400|50,"ThermRR8"|"C"|0|400|50,"Gear"|""|1|6|10,"AA_On"|""|0.0|1.0|1,"AA_LowDrag"|""|0|1|1,"Fuel_Mix"|""|-10|10|1,"AA_Packages"|""|0.0|1000.0|25,"Latitude"|"Degrees"|-180.0|180.0|10,"Longitude"|"Degrees"|-180.0|180.0|10,"Speed"|"kph"|0.0|150.0|10,"GPSSats"|""|0|20|10,"GPSQual"|""|0|5|10,"GPSDOP"|""|0.0|20.0|10
1140428,1745084866622,0.0,183.38,,-0.09,-0.2,1.01,0,-0,-0,1.04,1.04,100,9833,14.5,1.89,,5.75,0.975,89.8,,62.3,5,,,,,,,,,,,,0,0,0,0,0,0,0,0,0,0,0,0,0,0,0,0,,,,,0.0,,,,,,
1140448,1745084866642,,,,,,,,,,,,,,,,,,,,,,,,,,,,,,,,,,0,0,0,0,0,0,0,0,0,0,0,0,0,0,0,0,,,,,,,,,,,
1140468,1745084866662,0.0,183.38,,-0.08,-0.2,1.05,-0,-0,-0,1.07,1.07,100,9859,16.3,2.3,,6.08,1.0,89.8,,62.3,5,,,,,,,,,,,,0,0,0,0,0,0,0,0,0,0,0,0,0,0,0,0,,,,,0.0,,,,,,
1140488,1745084866682,,,,,,,,,,,,,,,,,,,,,,,,,,,,,,,,,,0,0,0,0,0,0,0,0,0,0,0,0,0,0,0,0,,,,,,,,,,,
1140508,1745084866702,0.0,183.26,,-0.05,-0.11,1.04,-1,-0,-0,1.05,1.07,98,10004,16.9,2.47,,6.52,0.97,89.8,,62.9,5,0,0,0,0,0.0,0.0,0.0,0.0,2.26,,,0,0,0,0,0,0,0,0,0,0,0,0,0,0,0,0,0,,,,0.0,39.238998,-77.965324,0.07,31,3,0.9
1140528,1745084866722,,,,,,,,,,,,,,,,,,,,,,,,,,,,,,,,,,0,0,0,0,0,0,0,0,0,0,0,0,0,0,0,0,,,,,,,,,,,
1140548,1745084866742,0.0,183.01,,-0.07,-0.04,1.13,-1,-0,0,1.13,1.13,100,10139,17.9,2.62,,6.52,0.97,89.8,,62.9,5,,,,,,,,,,,,0,0,0,0,0,0,0,0,0,0,0,0,0,0,0,0,,,,,0.0,,,,,,
1140568,1745084866762,,,,,,,,,,,,,,,,,,,,,,,,,,,,,,,,,,0,0,0,0,0,0,0,0,0,0,0,0,0,0,0,0,,,,,,,,,,,
1140588,1745084866782,0.0,182.76,,-0.06,-0.06,1.01,-1,-0,0,1.02,1.13,90,10139,17.9,2.62,,6.63,0.901,89.8,,63.8,5,,,,,,,,,,,,0,0,0,0,0,0,0,0,0,0,0,0,0,0,0,0,,,,,0.0,,,,,,
1140608,1745084866802,,,,,,,,,,,,,,,,,,,,,,,0,0,0,0,0.0,0.0,0.0,0.0,2.26,,,0,0,0,0,0,0,0,0,0,0,0,0,0,0,0,0,0,,,,,39.238998,-77.965324,0.1,31,3,0.9
1140628,1745084866822,0.0,182.63,,-0.05,-0.22,0.95,-1,-0,-0,0.98,1.13,86,10271,15.3,2.51,,6.68,0.855,89.8,,63.8,5,,,,,,,,,,,,0,0,0,0,0,0,0,0,0,0,0,0,0,0,0,0,,,,,0.0,,,,,,
1140648,1745084866842,,,,,,,,,,,,,,,,,,,,,,,,,,,,,,,,,,0,0,0,0,0,0,0,0,0,0,0,0,0,0,0,0,,,,,,,,,,,
1140668,1745084866862,0.0,182.63,,-0.05,-0.22,1.02,-0,-0,-0,1.05,1.13,93,10321,15.0,2.3,,6.48,0.831,89.8,,63.8,5,,,,,,,,,,,,0,0,0,0,0,0,0,0,0,0,0,0,0,0,0,0,,,,,0.0,,,,,,
1140688,1745084866882,,,,,,,,,,,,,,,,,,,,,,,,,,,,,,,,,,0,0,0,0,0,0,0,0,0,0,0,0,0,0,0,0,,,,,,,,,,,
1140708,1745084866902,0.0,182.5,13.51,0.01,-0.3,1.01,-0,-0,-0,1.05,1.13,93,10199,13.3,1.99,15,6.39,0.845,89.8,153,62.3,5,0,0,0,0,0.0,0.0,0.0,0.0,2.25,0,0.0,0,0,0,0,0,0,0,0,0,0,0,0,0,0,0,0,0,0.0,0,0,0.0,39.238998,-77.965324,0.1,31,3,0.9
1140728,1745084866920,,,,,,,,,,,,,,,,,,,,,,,,,,,,,,,,,,0,0,0,0,0,0,0,0,0,0,0,0,0,0,0,0,,,,,,,,,,,
1140748,1745084866940,0.0,182.5,,0.01,-0.27,1.04,-1,-0,-0,1.07,1.13,95,9951,19.4,2.82,,6.39,0.845,89.8,,62.3,5,,,,,,,,,,,,0,0,0,0,0,0,0,0,0,0,0,0,0,0,0,0,,,,,0.0,,,,,,
1140768,1745084866960,,,,,,,,,,,,,,,,,,,,,,,,,,,,,,,,,,0,0,0,0,0,0,0,0,0,0,0,0,0,0,0,0,,,,,,,,,,,
1140788,1745084866980,0.0,182.38,,0.03,-0.28,1.07,-2,-0,-0,1.1,1.13,98,9951,19.4,2.82,,6.31,0.855,89.8,,62.8,5,,,,,,,,,,,,0,0,0,0,0,0,0,0,0,0,0,0,0,0,0,0,,,,,0.0,,,,,,
1140808,1745084867000,,,,,,,,,,,,,,,,,,,,,,,0,0,0,0,0.0,0.0,0.0,0.0,2.26,,,0,0,0,0,0,0,0,0,0,0,0,0,0,0,0,0,0,,,,,39.238998,-77.965324,0.25,31,3,0.9
1140828,1745084867014,0.0,182.25,,0.02,-0.2,1.03,-1,-0,0,1.05,1.13,93,9685,7.7,1.79,,6.16,0.876,89.8,,62.8,5,,,,,,,,,,,,0,0,0,0,0,0,0,0,0,0,0,0,0,0,0,0,,,,,0.0,,,,,,
1140848,1745084867034,,,,,,,,,,,,,,,,,,,,,,,,,,,,,,,,,,0,0,0,0,0,0,0,0,0,0,0,0,0,0,0,0,,,,,,,,,,,
1140868,1745084867054,0.0,182.13,,0.05,-0.45,1.08,-0,-0,-0,1.17,1.17,100,9278,11.9,1.92,,6.28,0.903,89.8,,62.8,5,,,,,,,,,,,,0,0,0,0,0,0,0,0,0,0,0,0,0,0,0,0,,,,,0.0,,,,,,
1140888,1745084867074,,,,,,,,,,,,,,,,,,,,,,,,,,,,,,,,,,0,0,0,0,0,0,0,0,0,0,0,0,0,0,0,0,,,,,,,,,,,
1140908,1745084867094,0.0,182.0,,0.1,-0.48,1.11,1,-0,0,1.21,1.21,100,8949,16.7,2.05,,6.22,0.957,89.8,,61.8,5,0,0,0,0,0.0,0.0,0.0,0.0,2.26,,,0,0,0,0,0,0,0,0,0,0,0,0,0,0,0,0,0,,,,0.0,39.238998,-77.965324,0.72,31,3,0.9
1140928,1745084867116,,,,,,,,,,,,,,,,,,,,,,,,,,,,,,,,,,0,0,0,0,0,0,0,0,0,0,0,0,0,0,0,0,,,,,,,,,,,
1140948,1745084867136,0.0,181.88,,0.08,-0.54,1.07,0,-0,0,1.2,1.21,99,8637,18.6,2.4,,6.22,0.957,89.8,,61.8,5,,,,,,,,,,,,0,0,0,0,0,0,0,0,0,0,0,0,0,0,0,0,,,,,0.0,,,,,,
1140968,1745084867156,,,,,,,,,,,,,,,,,,,,,,,,,,,,,,,,,,0,0,0,0,0,0,0,0,0,0,0,0,0,0,0,0,,,,,,,,,,,
1140988,1745084867176,0.0,181.75,,0.08,-0.4,1.09,0,-0,0,1.17,1.21,96,8637,18.6,2.4,,6.52,1.01,89.8,,61.4,5,,,,,,,,,,,,0,0,0,0,0,0,0,0,0,0,0,0,0,0,0,0,,,,,0.0,,,,,,
1141008,1745084867201,,,,,,,,,,,,,,,,,,,,,,,0,0,1,1,0.0,0.0,0.0,0.0,2.26,,,0,0,0,0,0,0,0,0,0,0,0,0,0,0,0,0,0,,,,,39.238998,-77.965317,1.55,31,3,0.9
1141028,1745084867221,0.0,181.62,,0.09,-0.36,1.1,-0,-0,0,1.16,1.21,96,8365,14.7,2.19,,6.7,0.981,89.8,,61.4,5,,,,,,,,,,,,0,0,0,0,0,0,0,0,0,0,0,0,0,0,0,0,,,,,0.0,,,,,,
1141048,1745084867241,,,,,,,,,,,,,,,,,,,,,,,,,,,,,,,,,,0,0,0,0,0,0,0,0,0,0,0,0,0,0,0,0,,,,,,,,,,,
1141068,1745084867261,0.0,181.5,,0.07,-0.3,1.06,-1,-0,0,1.1,1.21,91,8099,16.3,2.33,,6.87,0.935,89.8,,61.4,5,,,,,,,,,,,,0,0,0,0,0,0,0,0,0,0,0,0,0,0,0,0,,,,,0.0,,,,,,
1141088,1745084867281,,,,,,,,,,,,,,,,,,,,,,,,,,,,,,,,,,0,0,0,0,0,0,0,0,0,0,0,0,0,0,0,0,,,,,,,,,,,
1141108,1745084867301,0.0,181.25,,0.06,-0.41,1.08,-1,-0,1,1.16,1.21,96,7846,13.5,2.61,,7.04,0.907,89.8,,62.1,5,1,0,1,1,0.0,0.0,0.0,0.0,2.26,,,0,0,0,0,0,0,0,0,0,0,0,0,0,0,0,0,0,,,,0.0,39.239002,-77.965317,2.14,31,3,0.9
1141128,1745084867321,,,,,,,,,,,,,,,,,,,,,,,,,,,,,,,,,,0,0,0,0,0,0,0,0,0,0,0,0,0,0,0,0,,,,,,,,,,,
1141148,1745084867341,0.0,181.25,,0.09,-0.36,1.09,1,-0,0,1.16,1.21,95,7486,8.1,2.74,,7.04,0.907,89.8,,62.1,5,,,,,,,,,,,,0,0,0,0,0,0,0,0,0,0,0,0,0,0,0,0,,,,,0.0,,,,,,
1141168,1745084867361,,,,,,,,,,,,,,,,,,,,,,,,,,,,,,,,,,0,0,0,0,0,0,0,0,0,0,0,0,0,0,0,0,,,,,,,,,,,
1141188,1745084867381,0.0,181.12,,0.1,-0.45,1.1,2,-0,-0,1.2,1.21,99,7486,8.1,2.74,,7.22,0.906,89.8,,60.0,5,,,,,,,,,,,,0,0,0,0,0,0,0,0,0,0,0,0,0,0,0,0,,,,,0.0,,,,,,
1141208,1745084867401,,,,,,,,,,,,,,,,,,,,,,,1,0,1,2,0.0,0.0,0.0,0.0,2.26,,,0,0,0,0,0,0,0,0,0,0,0,0,0,0,0,0,0,,,,,39.239002,-77.965317,2.51,31,3,0.9
1141228,1745084867421,0.0,180.87,,0.09,-0.42,1.07,1,-0,0,1.15,1.21,95,7198,6.5,2.6,,7.39,0.922,89.8,,60.0,5,,,,,,,,,,,,0,0,0,0,0,0,0,0,0,0,0,0,0,0,0,0,,,,,0.0,,,,,,
1141248,1745084867441,,,,,,,,,,,,,,,,,,,,,,,,,,,,,,,,,,0,0,0,0,0,0,0,0,0,0,0,0,0,0,0,0,,,,,,,,,,,
1141268,1745084867461,0.0,180.62,,0.08,-0.43,1.03,1,-0,-0,1.12,1.21,92,6934,6.2,2.65,,7.67,0.923,89.8,,60.0,5,,,,,,,,,,,,0,0,0,0,0,0,0,0,0,0,0,0,0,0,0,0,,,,,0.0,,,,,,
1141288,1745084867481,,,,,,,,,,,,,,,,,,,,,,,,,,,,,,,,,,0,0,0,0,0,0,0,0,0,0,0,0,0,0,0,0,,,,,,,,,,,
1141308,1745084867501,0.0,180.37,,0.09,-0.34,1.05,-1,-0,0,1.1,1.21,91,6667,10.2,3.05,,8.1,0.887,89.8,,57.9,5,2,0,2,2,0.0,0.0,0.0,0.0,2.26,,,0,0,0,0,0,0,0,0,0,0,0,0,0,0,0,0,0,,,,0.0,39.239002,-77.965317,2.97,31,3,0.9
1141328,1745084867521,,,,,,,,,,,,,,,,,,,,,,,,,,,,,,,,,,0,0,0,0,0,0,0,0,0,0,0,0,0,0,0,0,,,,,,,,,,,
1141348,1745084867541,0.0,180.24,,0.06,-0.37,0.99,-1,-0,-0,1.06,1.21,88,6282,15.0,2.89,,8.1,0.887,91.6,,57.9,5,,,,,,,,,,,,0,0,0,0,0,0,0,0,0,0,0,0,0,0,0,0,,,,,0.0,,,,,,
1141368,1745084867561,,,,,,,,,,,,,,,,,,,,,,,,,,,,,,,,,,0,0,0,0,0,0,0,0,0,0,0,0,0,0,0,0,,,,,,,,,,,
1141388,1745084867581,0.0,180.12,,0.07,-0.34,1.09,-0,-0,-0,1.15,1.21,95,6282,15.0,2.89,,8.77,0.862,91.6,,54.1,5,,,,,,,,,,,,0,0,0,0,0,0,0,0,0,0,0,0,0,0,0,0,,,,,0.0,,,,,,
1141408,1745084867601,,,,,,,,,,,,,,,,,,,,,,,2,0,2,2,0.0,0.0,0.0,0.0,2.26,,,0,0,0,0,0,0,0,0,0,0,0,0,0,0,0,0,0,,,,,39.239002,-77.965317,3.38,31,3,0.9
1141428,1745084867621,0.0,180.12,,0.08,-0.29,1.16,1,-0,-1,1.2,1.21,99,6031,15.7,3.0,,9.92,0.848,91.6,,54.1,5,,,,,,,,,,,,0,0,0,0,0,0,0,0,0,0,0,0,0,0,0,0,,,,,0.0,,,,,,
1141448,1745084867641,,,,,,,,,,,,,,,,,,,,,,,,,,,,,,,,,,0,0,0,0,0,0,0,0,0,0,0,0,0,0,0,0,,,,,,,,,,,
1141468,1745084867661,0.0,179.99,,0.04,-0.28,1.07,-1,-0,-1,1.1,1.21,91,5753,16.9,3.03,,10.85,0.844,91.6,,54.1,5,,,,,,,,,,,,0,0,0,0,0,0,0,0,0,0,0,0,0,0,0,0,,,,,0.0,,,,,,
1141488,1745084867681,,,,,,,,,,,,,,,,,,,,,,,,,,,,,,,,,,0,0,0,0,0,0,0,0,0,0,0,0,0,0,0,0,,,,,,,,,,,
1141508,1745084867701,0.0,179.99,,0.05,-0.22,1.08,-2,-0,-1,1.1,1.21,91,5479,15.8,3.78,,11.79,0.877,91.6,,49.4,5,2,0,2,3,0.0,0.0,0.0,0.0,2.26,,,0,0,0,0,0,0,0,0,0,0,0,0,0,0,0,0,0,,,,0.0,39.239002,-77.965317,3.82,31,3,0.9
1141528,1745084867721,,,,,,,,,,,,,,,,,,,,,,,,,,,,,,,,,,0,0,0,0,0,0,0,0,0,0,0,0,0,0,0,0,,,,,,,,,,,
1141548,1745084867741,0.0,179.86,,0.04,-0.18,1.07,-3,-0,-0,1.09,1.21,90,5212,15.5,3.67,,11.79,0.877,91.6,,49.4,5,,,,,,,,,,,,0,0,0,0,0,0,0,0,0,0,0,0,0,0,0,0,,,,,0.0,,,,,,
1141568,1745084867761,,,,,,,,,,,,,,,,,,,,,,,,,,,,,,,,,,0,0,0,0,0,0,0,0,0,0,0,0,0,0,0,0,,,,,,,,,,,
1141588,1745084867781,0.0,179.99,,0.05,-0.12,1.06,-3,-0,-0,1.07,1.21,88,5212,15.5,3.67,,12.27,0.922,91.6,,44.0,5,,,,,,,,,,,,0,0,0,0,0,0,0,0,0,0,0,0,0,0,0,0,,,,,0.0,,,,,,
1141608,1745084867801,,,,,,,,,,,,,,,,,,,,,,,2,0,2,3,0.0,0.0,0.0,0.0,2.26,,,0,0,0,0,0,0,0,0,0,0,0,0,0,0,0,0,0,,,,,39.239002,-77.965317,4.24,31,3,0.9
1141628,1745084867821,0.0,179.86,,0.09,-0.12,1.05,-4,-0,-0,1.06,1.21,88,4995,15.2,3.58,,12.55,0.969,91.6,,44.0,5,,,,,,,,,,,,0,0,0,0,0,0,0,0,0,0,0,0,0,0,0,0,,,,,0.0,,,,,,
1141648,1745084867841,,,,,,,,,,,,,,,,,,,,,,,,,,,,,,,,,,0,0,0,0,0,0,0,0,0,0,0,0,0,0,0,0,,,,,,,,,,,
1141668,1745084867861,0.0,179.86,,0.06,-0.09,1.09,-4,-0,0,1.09,1.21,90,4800,15.0,3.54,,12.75,0.933,91.6,,44.0,5,,,,,,,,,,,,0,0,0,0,0,0,0,0,0,0,0,0,0,0,0,0,,,,,0.0,,,,,,
1141688,1745084867881,,,,,,,,,,,,,,,,,,,,,,,,,,,,,,,,,,0,0,0,0,0,0,0,0,0,0,0,0,0,0,0,0,,,,,,,,,,,
1141708,1745084867901,0.0,179.86,13.62,0.0,-0.09,1.09,-6,-0,1,1.09,1.21,90,4601,15.0,3.57,15,12.89,0.969,91.6,153,40.5,5,3,0,3,3,0.0,0.0,0.0,0.0,2.26,0,0.0,0,0,0,0,0,0,0,0,0,0,0,0,0,0,0,0,0,0.0,0,0,0.0,39.239002,-77.965317,4.61,31,3,0.9
1141728,1745084867921,,,,,,,,,,,,,,,,,,,,,,,,,,,,,,,,,,0,0,0,0,0,0,0,0,0,0,0,0,0,0,0,0,,,,,,,,,,,
1141748,1745084867941,0.0,179.86,,-0.02,-0.0,1.14,-7,-0,1,1.14,1.21,94,4343,14.8,3.6,,12.89,0.969,91.6,,40.5,5,,,,,,,,,,,,0,0,0,0,0,0,0,0,0,0,0,0,0,0,0,0,,,,,0.0,,,,,,
1141768,1745084867961,,,,,,,,,,,,,,,,,,,,,,,,,,,,,,,,,,0,0,0,0,0,0,0,0,0,0,0,0,0,0,0,0,,,,,,,,,,,
1141788,1745084867981,0.0,179.86,,0.0,-0.04,1.07,-8,0,1,1.07,1.21,89,4343,14.8,3.6,,12.93,0.979,91.6,,36.8,5,,,,,,,,,,,,0,0,0,0,0,0,0,0,0,0,0,0,0,0,0,0,,,,,0.0,,,,,,
1141808,1745084868001,,,,,,,,,,,,,,,,,,,,,,,3,0,3,4,0.0,0.0,0.0,0.0,2.26,,,0,0,0,0,0,0,0,0,0,0,0,0,0,0,0,0,0,,,,,39.239002,-77.965317,4.61,31,3,0.9
1141828,1745084868015,0.0,179.86,,0.01,-0.02,1.06,-9,0,1,1.06,1.21,88,3967,14.7,3.64,,13.12,1.005,91.6,,36.8,5,,,,,,,,,,,,0,0,0,0,0,0,0,0,0,0,0,0,0,0,0,0,,,,,0.0,,,,,,
1141848,1745084868035,,,,,,,,,,,,,,,,,,,,,,,,,,,,,,,,,,0,0,0,0,0,0,0,0,0,0,0,0,0,0,0,0,,,,,,,,,,,
1141868,1745084868055,0.0,179.86,,0.03,-0.03,1.09,-11,0,1,1.09,1.21,90,3615,22.7,4.67,,13.64,1.079,91.6,,36.8,5,,,,,,,,,,,,0,0,0,0,0,0,0,0,0,0,0,0,0,0,0,0,,,,,0.0,,,,,,
1141888,1745084868075,,,,,,,,,,,,,,,,,,,,,,,,,,,,,,,,,,0,0,0,0,0,0,0,0,0,0,0,0,0,0,0,0,,,,,,,,,,,
1141908,1745084868103,0.0,179.86,,0.02,-0.02,1.05,-11,0,1,1.05,1.21,87,3481,29.8,4.8,,13.98,1.202,91.6,,31.2,5,3,0,3,4,0.0,0.0,0.0,0.0,2.26,,,0,0,0,0,0,0,0,0,0,0,0,0,0,0,0,0,0,,,,0.0,39.239006,-77.965309,5.43,31,3,0.9
1141928,1745084868123,,,,,,,,,,,,,,,,,,,,,,,,,,,,,,,,,,0,0,0,0,0,0,0,0,0,0,0,0,0,0,0,0,,,,,,,,,,,
1141948,1745084868143,0.0,179.74,,-0.02,-0.09,1.03,-12,0,1,1.04,1.21,86,3442,33.0,5.11,,13.98,1.202,91.6,,31.2,5,,,,,,,,,,,,0,0,0,0,0,0,0,0,0,0,0,0,0,0,0,0,,,,,0.0,,,,,,
1141968,1745084868163,,,,,,,,,,,,,,,,,,,,,,,,,,,,,,,,,,0,0,0,0,0,0,0,0,0,0,0,0,0,0,0,0,,,,,,,,,,,
1141988,1745084868183,0.0,179.61,,-0.01,0.01,1.1,-12,0,1,1.1,1.21,90,3442,33.0,5.11,,14.14,1.249,91.6,,29.6,5,,,,,,,,,,,,0,0,0,0,0,0,0,0,0,0,0,0,0,0,0,0,,,,,0.0,,,,,,
1142008,1745084868202,,,,,,,,,,,,,,,,,,,,,,,3,0,3,4,0.0,0.0,0.0,0.0,2.25,,,0,0,0,0,0,0,0,0,0,0,0,0,0,0,0,0,0,,,,,39.239006,-77.965309,5.77,31,3,0.9
1142028,1745084868222,0.0,179.49,,0.02,-0.01,1.05,-13,0,1,1.05,1.21,87,4335,37.0,4.31,,14.03,1.249,91.6,,29.6,5,,,,,,,,,,,,0,0,0,0,0,0,0,0,0,0,0,0,0,0,0,0,,,,,0.0,,,,,,
1142048,1745084868242,,,,,,,,,,,,,,,,,,,,,,,,,,,,,,,,,,0,0,0,0,0,0,0,0,0,0,0,0,0,0,0,0,,,,,,,,,,,
1142068,1745084868262,0.0,179.36,,-0.02,0.03,1.08,-13,0,1,1.08,1.21,89,4752,38.9,4.28,,13.96,1.107,91.6,,29.6,5,,,,,,,,,,,,0,0,0,0,0,0,0,0,0,0,0,0,0,0,0,0,,,,,0.0,,,,,,
1142088,1745084868282,,,,,,,,,,,,,,,,,,,,,,,,,,,,,,,,,,0,0,0,0,0,0,0,0,0,0,0,0,0,0,0,0,,,,,,,,,,,
1142108,1745084868302,0.0,179.24,,-0.03,0.02,1.03,-14,0,1,1.03,1.21,85,5303,39.4,4.4,,13.96,0.996,91.6,,37.6,5,3,0,3,4,0.0,0.0,0.0,0.0,2.26,,,0,0,0,0,0,0,0,0,0,0,0,0,0,0,0,0,0,,,,0.0,39.239006,-77.965309,5.81,31,3,0.9
1142128,1745084868322,,,,,,,,,,,,,,,,,,,,,,,,,,,,,,,,,,0,0,0,0,0,0,0,0,0,0,0,0,0,0,0,0,,,,,,,,,,,
1142148,1745084868342,0.0,179.24,,-0.04,-0.06,0.99,-15,0,1,1.0,1.21,82,5980,40.0,4.65,,13.96,0.996,91.6,,37.6,5,,,,,,,,,,,,0,0,0,0,0,0,0,0,0,0,0,0,0,0,0,0,,,,,0.0,,,,,,
1142168,1745084868362,,,,,,,,,,,,,,,,,,,,,,,,,,,,,,,,,,0,0,0,0,0,0,0,0,0,0,0,0,0,0,0,0,,,,,,,,,,,
1142188,1745084868382,0.0,178.98,,-0.04,-0.1,0.96,-15,0,1,0.96,1.21,79,5980,40.0,4.65,,13.72,1.001,91.6,,47.9,5,,,,,,,,,,,,0,0,0,0,0,0,0,0,0,0,0,0,0,0,0,0,,,,,0.0,,,,,,
1142208,1745084868402,,,,,,,,,,,,,,,,,,,,,,,3,0,3,4,0.0,0.0,0.0,0.0,2.26,,,0,0,0,0,0,0,0,0,0,0,0,0,0,0,0,0,0,,,,,39.239006,-77.965309,5.71,31,3,0.9
1142228,1745084868422,0.0,178.86,,-0.09,-0.08,0.98,-16,0,1,0.99,1.21,82,6578,40.2,5.16,,13.59,1.018,91.6,,47.9,5,,,,,,,,,,,,0,0,0,0,0,0,0,0,0,0,0,0,0,0,0,0,,,,,0.0,,,,,,
1142248,1745084868442,,,,,,,,,,,,,,,,,,,,,,,,,,,,,,,,,,0,0,0,0,0,0,0,0,0,0,0,0,0,0,0,0,,,,,,,,,,,
1142268,1745084868462,0.0,178.86,,-0.08,-0.07,0.99,-16,0,1,1.0,1.21,82,7668,24.7,5.3,,12.57,1.105,91.6,,47.9,5,,,,,,,,,,,,0,0,0,0,0,0,0,0,0,0,0,0,0,0,0,0,,,,,0.0,,,,,,
1142288,1745084868482,,,,,,,,,,,,,,,,,,,,,,,,,,,,,,,,,,0,0,0,0,0,0,0,0,0,0,0,0,0,0,0,0,,,,,,,,,,,
1142308,1745084868502,0.0,178.86,,-0.05,-0.04,1.02,-16,0,1,1.02,1.21,85,9030,12.7,4.3,,10.69,0.953,91.6,,62.6,5,3,0,3,4,0.0,0.0,0.0,0.0,2.26,,,0,0,0,0,0,0,0,0,0,0,0,0,0,0,0,0,0,,,,0.0,39.239006,-77.965309,5.48,31,3,0.9
1142328,1745084868522,,,,,,,,,,,,,,,,,,,,,,,,,,,,,,,,,,0,0,0,0,0,0,0,0,0,0,0,0,0,0,0,0,,,,,,,,,,,
1142348,1745084868542,0.0,178.86,,-0.1,-0.03,0.94,-17,0,1,0.95,1.21,78,10167,9.2,2.52,,10.69,0.953,91.6,,62.6,5,,,,,,,,,,,,0,0,0,0,0,0,0,0,0,0,0,0,0,0,0,0,,,,,0.0,,,,,,
1142368,1745084868562,,,,,,,,,,,,,,,,,,,,,,,,,,,,,,,,,,0,0,0,0,0,0,0,0,0,0,0,0,0,0,0,0,,,,,,,,,,,
1142388,1745084868582,0.0,178.73,,-0.08,-0.05,0.88,-16,0,1,0.89,1.21,73,10167,9.2,2.52,,9.21,0.811,91.6,,64.5,5,,,,,,,,,,,,0,0,0,0,0,0,0,0,0,0,0,0,0,0,0,0,,,,,0.0,,,,,,
1142408,1745084868602,,,,,,,,,,,,,,,,,,,,,,,3,0,3,4,0.0,0.0,0.0,0.0,2.26,,,0,0,0,0,0,0,0,0,0,0,0,0,0,0,0,0,0,,,,,39.23901,-77.965309,5.25,31,3,0.9
1142428,1745084868622,0.0,178.73,,-0.09,0.05,0.93,-17,0,1,0.93,1.21,77,10762,8.9,2.2,,8.02,0.8,91.6,,64.5,5,,,,,,,,,,,,0,0,0,0,0,0,0,0,0,0,0,0,0,0,0,0,,,,,0.0,,,,,,
1142448,1745084868642,,,,,,,,,,,,,,,,,,,,,,,,,,,,,,,,,,0,0,0,0,0,0,0,0,0,0,0,0,0,0,0,0,,,,,,,,,,,
1142468,1745084868662,0.0,178.73,,-0.07,0.05,0.97,-17,1,1,0.97,1.21,80,11163,13.9,2.31,,7.74,0.861,91.6,,64.5,5,,,,,,,,,,,,0,0,0,0,0,0,0,0,0,0,0,0,0,0,0,0,,,,,0.0,,,,,,
1142488,1745084868682,,,,,,,,,,,,,,,,,,,,,,,,,,,,,,,,,,0,0,0,0,0,0,0,0,0,0,0,0,0,0,0,0,,,,,,,,,,,
1142508,1745084868702,0.0,178.48,,-0.07,0.12,0.97,-16,1,1,0.98,1.21,81,11424,21.7,2.69,,8.09,0.955,91.6,,64.6,5,3,0,3,4,0.0,0.0,0.0,0.0,2.26,,,0,0,0,0,0,0,0,0,0,0,0,0,0,0,0,0,0,,,,0.0,39.23901,-77.965302,5.07,31,3,0.9
1142528,1745084868722,,,,,,,,,,,,,,,,,,,,,,,,,,,,,,,,,,0,0,0,0,0,0,0,0,0,0,0,0,0,0,0,0,,,,,,,,,,,
1142548,1745084868742,0.0,178.36,,-0.07,-0.07,0.99,-16,1,0,1.0,1.21,82,11770,23.6,2.89,,8.09,0.955,91.6,,64.6,5,,,,,,,,,,,,0,0,0,0,0,0,0,0,0,0,0,0,0,0,0,0,,,,,0.0,,,,,,
1142568,1745084868762,,,,,,,,,,,,,,,,,,,,,,,,,,,,,,,,,,0,0,0,0,0,0,0,0,0,0,0,0,0,0,0,0,,,,,,,,,,,
1142588,1745084868782,0.0,178.23,,-0.09,-0.22,1.01,-15,1,0,1.04,1.21,86,11770,23.6,2.89,,8.39,0.977,91.6,,63.7,5,,,,,,,,,,,,0,0,0,0,0,0,0,0,0,0,0,0,0,0,0,0,,,,,0.0,,,,,,
1142608,1745084868802,,,,,,,,,,,,,,,,,,,,,,,3,0,3,4,0.0,0.0,0.0,0.0,2.26,,,0,0,0,0,0,0,0,0,0,0,0,0,0,0,0,0,0,,,,,39.23901,-77.965302,5.04,31,3,0.9
1142628,1745084868822,0.0,178.1,,-0.12,-0.24,1.02,-15,1,0,1.05,1.21,87,12080,16.1,2.3,,7.54,0.944,91.6,,63.7,5,,,,,,,,,,,,0,0,0,0,0,0,0,0,0,0,0,0,0,0,0,0,,,,,0.0,,,,,,
1142648,1745084868842,,,,,,,,,,,,,,,,,,,,,,,,,,,,,,,,,,0,0,0,0,0,0,0,0,0,0,0,0,0,0,0,0,,,,,,,,,,,
1142668,1745084868862,0.0,178.1,,-0.16,-0.32,1.04,-14,1,1,1.1,1.21,91,11964,6.1,1.73,,6.16,0.894,91.6,,63.7,5,,,,,,,,,,,,0,0,0,0,0,0,0,0,0,0,0,0,0,0,0,0,,,,,0.0,,,,,,
1142688,1745084868882,,,,,,,,,,,,,,,,,,,,,,,,,,,,,,,,,,0,0,0,0,0,0,0,0,0,0,0,0,0,0,0,0,,,,,,,,,,,
1142708,1745084868902,0.0,178.1,13.6,-0.16,-0.26,0.98,-14,1,1,1.02,1.21,84,11694,6.1,1.48,15,5.51,0.871,91.6,155,64.6,5,3,0,3,4,0.0,0.0,0.0,0.0,2.26,0,0.0,0,0,0,0,0,0,0,0,0,0,0,0,0,0,0,0,0,0.0,0,0,0.0,39.23901,-77.965302,4.86,31,3,0.9
1142728,1745084868922,,,,,,,,,,,,,,,,,,,,,,,,,,,,,,,,,,0,0,0,0,0,0,0,0,0,0,0,0,0,0,0,0,,,,,,,,,,,
1142748,1745084868942,0.0,178.23,,-0.13,-0.23,0.97,-16,1,1,1.01,1.21,83,11326,13.7,1.67,,5.51,0.871,91.6,,64.6,5,,,,,,,,,,,,0,0,0,0,0,0,0,0,0,0,0,0,0,0,0,0,,,,,0.0,,,,,,
1142768,1745084868962,,,,,,,,,,,,,,,,,,,,,,,,,,,,,,,,,,0,0,0,0,0,0,0,0,0,0,0,0,0,0,0,0,,,,,,,,,,,
1142788,1745084868982,0.0,178.23,,-0.12,-0.16,0.9,-17,0,1,0.92,1.21,76,11326,13.7,1.67,,5.59,0.861,91.6,,64.4,5,,,,,,,,,,,,0,0,0,0,0,0,0,0,0,0,0,0,0,0,0,0,,,,,0.0,,,,,,
1142808,1745084869002,,,,,,,,,,,,,,,,,,,,,,,3,0,3,4,0.0,0.0,0.0,0.0,2.26,,,0,0,0,0,0,0,0,0,0,0,0,0,0,0,0,0,0,,,,,39.23901,-77.965302,4.86,31,3,0.9
1142828,1745084869014,0.0,178.1,,-0.1,-0.14,1.0,-16,0,1,1.02,1.21,84,10954,17.7,1.94,,6.2,0.958,91.6,,64.4,5,,,,,,,,,,,,0,0,0,0,0,0,0,0,0,0,0,0,0,0,0,0,,,,,0.0,,,,,,
1142848,1745084869034,,,,,,,,,,,,,,,,,,,,,,,,,,,,,,,,,,0,0,0,0,0,0,0,0,0,0,0,0,0,0,0,0,,,,,,,,,,,
1142868,1745084869054,0.0,178.1,,-0.1,-0.12,1.02,-17,0,1,1.03,1.21,85,10610,19.5,2.24,,6.58,1.028,91.6,,64.4,5,,,,,,,,,,,,0,0,0,0,0,0,0,0,0,0,0,0,0,0,0,0,,,,,0.0,,,,,,
1142888,1745084869074,,,,,,,,,,,,,,,,,,,,,,,,,,,,,,,,,,0,0,0,0,0,0,0,0,0,0,0,0,0,0,0,0,,,,,,,,,,,
1142908,1745084869094,0.0,178.1,,-0.06,-0.14,1.11,-18,0,1,1.12,1.21,92,10309,23.7,2.41,,7.29,0.999,91.6,,64.4,5,3,0,3,4,0.0,0.0,0.0,0.0,2.26,,,0,0,0,0,0,0,0,0,0,0,0,0,0,0,0,0,0,,,,0.0,39.23901,-77.965302,5.03,31,3,0.9
1142928,1745084869118,,,,,,,,,,,,,,,,,,,,,,,,,,,,,,,,,,0,0,0,0,0,0,0,0,0,0,0,0,0,0,0,0,,,,,,,,,,,
1142948,1745084869138,0.0,178.1,,-0.03,-0.17,1.05,-18,0,1,1.07,1.21,88,10085,28.6,2.66,,7.29,0.999,91.6,,64.4,5,,,,,,,,,,,,0,0,0,0,0,0,0,0,0,0,0,0,0,0,0,0,,,,,0.0,,,,,,
1142968,1745084869158,,,,,,,,,,,,,,,,,,,,,,,,,,,,,,,,,,0,0,0,0,0,0,0,0,0,0,0,0,0,0,0,0,,,,,,,,,,,
1142988,1745084869178,0.0,177.98,,-0.02,-0.13,1.04,-19,0,1,1.05,1.21,86,10085,28.6,2.66,,8.13,0.969,91.6,,64.2,5,,,,,,,,,,,,0,0,0,0,0,0,0,0,0,0,0,0,0,0,0,0,,,,,0.0,,,,,,
1143008,1745084869201,,,,,,,,,,,,,,,,,,,,,,,4,0,3,4,0.0,0.0,0.0,0.0,2.25,,,0,0,0,0,0,0,0,0,0,0,0,0,0,0,0,0,0,,,,,39.23901,-77.965294,5.8,31,3,0.9
1143028,1745084869221,0.0,177.98,,-0.02,-0.11,1.08,-19,1,1,1.09,1.21,90,9925,23.7,2.95,,8.86,0.979,91.6,,64.2,5,,,,,,,,,,,,0,0,0,0,0,0,0,0,0,0,0,0,0,0,0,0,,,,,0.0,,,,,,
1143048,1745084869241,,,,,,,,,,,,,,,,,,,,,,,,,,,,,,,,,,0,0,0,0,0,0,0,0,0,0,0,0,0,0,0,0,,,,,,,,,,,
1143068,1745084869261,0.0,177.85,,-0.0,-0.17,1.14,-19,1,1,1.16,1.21,95,9853,23.0,3.14,,9.22,1.024,91.6,,64.2,5,,,,,,,,,,,,0,0,0,0,0,0,0,0,0,0,0,0,0,0,0,0,,,,,0.0,,,,,,
1143088,1745084869281,,,,,,,,,,,,,,,,,,,,,,,,,,,,,,,,,,0,0,0,0,0,0,0,0,0,0,0,0,0,0,0,0,,,,,,,,,,,
1143108,1745084869301,0.0,177.85,,0.01,-0.19,1.14,-20,1,1,1.15,1.21,95,9868,23.7,3.2,,9.42,1.051,91.6,,65.2,5,4,0,4,5,0.0,0.0,0.0,0.0,2.26,,,0,0,0,0,0,0,0,0,0,0,0,0,0,0,0,0,0,,,,0.0,39.23901,-77.965294,6.6,31,3,0.9
1143128,1745084869321,,,,,,,,,,,,,,,,,,,,,,,,,,,,,,,,,,0,0,0,0,0,0,0,0,0,0,0,0,0,0,0,0,,,,,,,,,,,
1143148,1745084869341,0.0,177.73,,0.0,-0.17,1.08,-20,0,1,1.1,1.21,91,9916,23.4,3.24,,9.42,1.051,91.6,,65.2,5,,,,,,,,,,,,0,0,0,0,0,0,0,0,0,0,0,0,0,0,0,0,,,,,0.0,,,,,,
1143168,1745084869361,,,,,,,,,,,,,,,,,,,,,,,,,,,,,,,,,,0,0,0,0,0,0,0,0,0,0,0,0,0,0,0,0,,,,,,,,,,,
1143188,1745084869381,0.0,177.6,,0.03,0.02,1.1,-21,1,1,1.1,1.21,91,9916,23.4,3.24,,9.52,1.048,91.6,,64.2,5,,,,,,,,,,,,0,0,0,0,0,0,0,0,0,0,0,0,0,0,0,0,,,,,0.0,,,,,,
1143208,1745084869401,,,,,,,,,,,,,,,,,,,,,,,4,0,4,6,0.0,0.0,0.0,0.0,2.26,,,0,0,0,0,0,0,0,0,0,0,0,0,0,0,0,0,0,,,,,39.23901,-77.965294,6.6,31,3,0.9
1143228,1745084869419,0.0,177.48,,0.0,-0.07,1.06,-22,1,0,1.07,1.21,88,10002,24.7,3.29,,9.56,1.047,91.6,,64.2,5,,,,,,,,,,,,0,0,0,0,0,0,0,0,0,0,0,0,0,0,0,0,,,,,0.0,,,,,,
1143248,1745084869439,,,,,,,,,,,,,,,,,,,,,,,,,,,,,,,,,,0,0,0,0,0,0,0,0,0,0,0,0,0,0,0,0,,,,,,,,,,,
1143268,1745084869459,0.0,177.48,,0.01,-0.15,1.02,-23,1,0,1.04,1.21,85,10141,24.7,3.26,,9.7,1.032,91.6,,64.2,5,,,,,,,,,,,,0,0,0,0,0,0,0,0,0,0,0,0,0,0,0,0,,,,,0.0,,,,,,
1143288,1745084869479,,,,,,,,,,,,,,,,,,,,,,,,,,,,,,,,,,0,0,0,0,0,0,0,0,0,0,0,0,0,0,0,0,,,,,,,,,,,
1143308,1745084869501,0.0,177.48,,0.03,-0.23,0.97,-25,1,0,1.0,1.21,82,10295,23.4,3.29,,9.35,1.009,91.6,,64.1,5,5,0,5,6,0.0,0.0,0.0,0.0,2.26,,,0,0,0,0,0,0,0,0,0,0,0,0,0,0,0,0,0,,,,0.0,39.23901,-77.965286,7.9,31,3,0.9
1143328,1745084869521,,,,,,,,,,,,,,,,,,,,,,,,,,,,,,,,,,0,0,0,0,0,0,0,0,0,0,0,0,0,0,0,0,,,,,,,,,,,
1143348,1745084869541,0.0,177.35,,-0.02,-0.24,0.96,-26,1,0,0.99,1.21,82,10385,20.9,3.27,,9.35,1.009,91.6,,64.1,5,,,,,,,,,,,,0,0,0,0,0,0,0,0,0,0,0,0,0,0,0,0,,,,,0.0,,,,,,
1143368,1745084869561,,,,,,,,,,,,,,,,,,,,,,,,,,,,,,,,,,0,0,0,0,0,0,0,0,0,0,0,0,0,0,0,0,,,,,,,,,,,
1143388,1745084869581,0.0,177.22,,-0.04,-0.17,1.06,-27,1,1,1.07,1.21,88,10385,20.9,3.27,,8.69,1.004,91.6,,64.8,5,,,,,,,,,,,,0,0,0,0,0,0,0,0,0,0,0,0,0,0,0,0,,,,,0.0,,,,,,
1143408,1745084869601,,,,,,,,,,,,,,,,,,,,,,,5,0,5,7,0.0,0.0,0.0,0.0,2.26,,,0,0,0,0,0,0,0,0,0,0,0,0,0,0,0,0,0,,,,,39.23901,-77.965286,7.9,31,3,0.9
1143428,1745084869619,0.0,177.1,,-0.06,-0.21,1.07,-28,1,0,1.1,1.21,90,10452,23.8,2.83,,8.17,0.955,91.6,,64.8,5,,,,,,,,,,,,0,0,0,0,0,0,0,0,0,0,0,0,0,0,0,0,,,,,0.0,,,,,,
1143448,1745084869639,,,,,,,,,,,,,,,,,,,,,,,,,,,,,,,,,,0,0,0,0,0,0,0,0,0,0,0,0,0,0,0,0,,,,,,,,,,,
1143468,1745084869659,0.0,176.97,,-0.09,-0.25,1.14,-29,2,0,1.17,1.21,97,10411,22.4,2.87,,7.99,0.891,91.6,,64.8,5,,,,,,,,,,,,0,0,0,0,0,0,0,0,0,0,0,0,0,0,0,0,,,,,0.0,,,,,,
1143488,1745084869679,,,,,,,,,,,,,,,,,,,,,,,,,,,,,,,,,,0,0,0,0,0,0,0,0,0,0,0,0,0,0,0,0,,,,,,,,,,,
1143508,1745084869701,0.0,176.97,,-0.05,-0.24,1.14,-31,2,1,1.17,1.21,96,10337,26.7,2.7,,7.83,0.877,91.6,,63.6,5,6,0,5,7,0.0,0.0,0.0,0.0,2.26,,,0,0,0,0,0,0,0,0,0,0,0,0,0,0,0,0,0,,,,0.0,39.23901,-77.965279,8.8,31,3,0.9
1143528,1745084869721,,,,,,,,,,,,,,,,,,,,,,,,,,,,,,,,,,0,0,0,0,0,0,0,0,0,0,0,0,0,0,0,0,,,,,,,,,,,
1143548,1745084869741,0.0,176.97,,-0.03,-0.29,1.03,-34,1,1,1.07,1.21,89,10257,20.0,2.9,,7.83,0.877,91.6,,63.6,5,,,,,,,,,,,,0,0,0,0,0,0,0,0,0,0,0,0,0,0,0,0,,,,,0.0,,,,,,
1143568,1745084869761,,,,,,,,,,,,,,,,,,,,,,,,,,,,,,,,,,0,0,0,0,0,0,0,0,0,0,0,0,0,0,0,0,,,,,,,,,,,
1143588,1745084869781,0.0,176.97,,-0.06,-0.43,0.96,-34,1,0,1.05,1.21,87,10257,20.0,2.9,,7.81,0.865,91.6,,64.4,5,,,,,,,,,,,,0,0,0,0,0,0,0,0,0,0,0,0,0,0,0,0,,,,,0.0,,,,,,
1143608,1745084869801,,,,,,,,,,,,,,,,,,,,,,,6,0,5,8,0.0,0.0,0.0,0.0,2.26,,,0,0,0,0,0,0,0,0,0,0,0,0,0,0,0,0,0,,,,,39.23901,-77.965279,9.52,31,3,0.9
1143628,1745084869821,0.0,176.85,,-0.05,-0.41,0.9,-36,2,-0,0.99,1.21,81,10164,21.5,2.89,,7.59,0.872,91.6,,64.4,5,,,,,,,,,,,,0,0,0,0,0,0,0,0,0,0,0,0,0,0,0,0,,,,,0.0,,,,,,
1143648,1745084869841,,,,,,,,,,,,,,,,,,,,,,,,,,,,,,,,,,0,0,0,0,0,0,0,0,0,0,0,0,0,0,0,0,,,,,,,,,,,
1143668,1745084869861,0.0,176.85,,-0.05,-0.24,0.9,-37,2,1,0.93,1.21,77,10020,18.2,2.77,,7.38,0.849,91.6,,64.4,5,,,,,,,,,,,,0,0,0,0,0,0,0,0,0,0,0,0,0,0,0,0,,,,,0.0,,,,,,
1143688,1745084869881,,,,,,,,,,,,,,,,,,,,,,,,,,,,,,,,,,0,0,0,0,0,0,0,0,0,0,0,0,0,0,0,0,,,,,,,,,,,
1143708,1745084869901,0.0,176.85,13.66,-0.1,-0.3,0.83,-37,1,0,0.89,1.21,73,9848,15.5,2.58,15,7.04,0.824,91.6,155,63.7,5,6,0,6,8,0.0,0.0,0.0,0.0,2.26,0,0.0,0,0,0,0,0,0,0,0,0,0,0,0,0,0,0,0,0,0.0,0,0,0.0,39.239006,-77.965271,10.02,31,3,0.9
1143728,1745084869921,,,,,,,,,,,,,,,,,,,,,,,,,,,,,,,,,,0,0,0,0,0,0,0,0,0,0,0,0,0,0,0,0,,,,,,,,,,,
1143748,1745084869941,0.0,176.72,,-0.08,-0.31,0.83,-39,1,0,0.89,1.21,73,9625,11.6,2.24,,7.04,0.824,91.6,,63.7,5,,,,,,,,,,,,0,0,0,0,0,0,0,0,0,0,0,0,0,0,0,0,,,,,0.0,,,,,,
1143768,1745084869961,,,,,,,,,,,,,,,,,,,,,,,,,,,,,,,,,,0,0,0,0,0,0,0,0,0,0,0,0,0,0,0,0,,,,,,,,,,,
1143788,1745084869981,0.0,176.6,,-0.08,-0.49,0.86,-40,1,0,1.0,1.21,82,9625,11.6,2.24,,6.92,0.801,91.6,,63.4,5,,,,,,,,,,,,0,0,0,0,0,0,0,0,0,0,0,0,0,0,0,0,,,,,0.0,,,,,,
1143808,1745084870001,,,,,,,,,,,,,,,,,,,,,,,7,0,6,8,0.0,0.0,0.0,0.0,2.26,,,0,0,0,0,0,0,0,0,0,0,0,0,0,0,0,0,0,,,,,39.239006,-77.965271,10.02,31,3,0.9
1143828,1745084870015,0.0,176.47,,-0.1,-0.23,0.87,-42,1,1,0.9,1.21,75,9365,14.3,2.16,,6.8,0.794,91.6,,63.4,5,,,,,,,,,,,,0,0,0,0,0,0,0,0,0,0,0,0,0,0,0,0,,,,,0.0,,,,,,
1143848,1745084870035,,,,,,,,,,,,,,,,,,,,,,,,,,,,,,,,,,0,0,0,0,0,0,0,0,0,0,0,0,0,0,0,0,,,,,,,,,,,
1143868,1745084870055,0.0,176.47,,-0.12,-0.19,0.84,-44,0,1,0.87,1.21,72,9057,17.6,2.24,,6.88,0.835,91.6,,63.4,5,,,,,,,,,,,,0,0,0,0,0,0,0,0,0,0,0,0,0,0,0,0,,,,,0.0,,,,,,
1143888,1745084870075,,,,,,,,,,,,,,,,,,,,,,,,,,,,,,,,,,0,0,0,0,0,0,0,0,0,0,0,0,0,0,0,0,,,,,,,,,,,
1143908,1745084870103,0.0,176.34,,-0.14,-0.17,0.85,-45,0,2,0.87,1.21,72,8737,18.4,2.23,,6.92,0.874,91.6,,63.4,5,7,0,6,8,0.0,0.0,0.0,0.0,2.26,,,0,0,0,0,0,0,0,0,0,0,0,0,0,0,0,0,0,,,,0.0,39.239002,-77.965271,11.33,31,3,0.9
1143928,1745084870123,,,,,,,,,,,,,,,,,,,,,,,,,,,,,,,,,,0,0,0,0,0,0,0,0,0,0,0,0,0,0,0,0,,,,,,,,,,,
1143948,1745084870143,0.0,176.09,,-0.14,-0.23,0.85,-47,0,1,0.89,1.21,73,8297,17.8,2.81,,6.92,0.874,91.6,,63.4,5,,,,,,,,,,,,0,0,0,0,0,0,0,0,0,0,0,0,0,0,0,0,,,,,0.0,,,,,,
1143968,1745084870163,,,,,,,,,,,,,,,,,,,,,,,,,,,,,,,,,,0,0,0,0,0,0,0,0,0,0,0,0,0,0,0,0,,,,,,,,,,,
1143988,1745084870183,0.0,175.97,,-0.14,-0.29,0.86,-47,1,1,0.92,1.21,76,8297,17.8,2.81,,7.18,0.878,91.6,,61.7,5,,,,,,,,,,,,0,0,0,0,0,0,0,0,0,0,0,0,0,0,0,0,,,,,0.0,,,,,,
1144008,1745084870203,,,,,,,,,,,,,,,,,,,,,,,7,0,6,9,0.0,38.0,0.0,0.0,2.26,,,0,0,0,0,0,0,0,0,0,0,0,0,0,0,0,0,0,,,,,39.239002,-77.965271,11.3,31,3,0.9
1144028,1745084870223,0.0,175.97,,-0.14,-0.23,0.85,-49,1,1,0.89,1.21,73,7919,12.6,2.33,,7.18,0.898,91.6,,61.7,5,,,,,,,,,,,,0,0,0,0,0,0,0,0,0,0,0,0,0,0,0,0,,,,,0.0,,,,,,
1144048,1745084870243,,,,,,,,,,,,,,,,,,,,,,,,,,,,,,,,,,0,0,0,0,0,0,0,0,0,0,0,0,0,0,0,0,,,,,,,,,,,
1144068,1745084870263,0.0,175.97,,-0.12,-0.14,0.89,-50,0,1,0.91,1.21,75,7481,7.2,2.49,,7.1,0.876,91.6,,61.7,5,,,,,,,,,,,,0,0,0,0,0,0,0,0,0,0,0,0,0,0,0,0,,,,,0.0,,,,,,
1144088,1745084870283,,,,,,,,,,,,,,,,,,,,,,,,,,,,,,,,,,0,0,0,0,0,0,0,0,0,0,0,0,0,0,0,0,,,,,,,,,,,
1144108,1745084870303,0.0,175.97,,-0.15,-0.17,0.88,-50,1,1,0.91,1.21,75,7018,15.1,2.5,,7.34,0.895,91.6,,60.1,5,7,0,7,9,0.0,70.0,0.0,0.0,2.26,,,0,0,0,0,0,0,0,0,0,0,0,0,0,0,0,0,0,,,,0.0,39.239002,-77.965271,11.3,31,3,0.9
1144128,1745084870320,,,,,,,,,,,,,,,,,,,,,,,,,,,,,,,,,,0,0,0,0,0,0,0,0,0,0,0,0,0,0,0,0,,,,,,,,,,,
1144148,1745084870340,0.0,175.97,,-0.11,-0.1,0.9,-51,1,1,0.92,1.21,76,6378,4.5,2.19,,7.34,0.895,91.6,,60.1,5,,,,,,,,,,,,0,0,0,0,0,0,0,0,0,0,0,0,0,0,0,0,,,,,0.0,,,,,,
1144168,1745084870360,,,,,,,,,,,,,,,,,,,,,,,,,,,,,,,,,,0,0,0,0,0,0,0,0,0,0,0,0,0,0,0,0,,,,,,,,,,,
1144188,1745084870380,0.0,175.97,,-0.11,0.01,1.02,-53,1,2,1.02,1.21,84,6378,4.5,2.19,,7.73,0.908,91.6,,54.6,5,,,,,,,,,,,,0,0,0,0,0,0,0,0,0,0,0,0,0,0,0,0,,,,,0.0,,,,,,
1144208,1745084870400,,,,,,,,,,,,,,,,,,,,,,,7,0,7,10,0.0,21.0,0.0,0.0,2.26,,,0,0,0,0,0,0,0,0,0,0,0,0,0,0,0,0,0,,,,,39.238998,-77.965263,12.08,31,3,0.9
1144228,1745084870420,0.0,175.84,,-0.1,-0.0,1.02,-53,1,2,1.03,1.21,85,5804,11.8,2.17,,8.43,0.863,91.6,,54.6,5,,,,,,,,,,,,0,0,0,0,0,0,0,0,0,0,0,0,0,0,0,0,,,,,0.0,,,,,,
1144248,1745084870440,,,,,,,,,,,,,,,,,,,,,,,,,,,,,,,,,,0,0,0,0,0,0,0,0,0,0,0,0,0,0,0,0,,,,,,,,,,,
1144268,1745084870460,0.0,175.84,,-0.09,-0.04,1.07,-54,1,2,1.08,1.21,89,5180,6.2,2.1,,9.25,0.81,91.6,,54.6,5,,,,,,,,,,,,0,0,0,0,0,0,0,0,0,0,0,0,0,0,0,0,,,,,0.0,,,,,,
1144288,1745084870480,,,,,,,,,,,,,,,,,,,,,,,,,,,,,,,,,,0,0,0,0,0,0,0,0,0,0,0,0,0,0,0,0,,,,,,,,,,,
1144308,1745084870500,0.0,175.97,,-0.14,0.02,1.13,-55,1,2,1.13,1.21,94,4596,12.9,2.28,,10.76,0.795,91.6,,44.6,5,8,0,7,10,0.0,14.0,0.0,0.0,2.26,,,0,0,0,0,0,0,0,0,0,0,0,0,0,0,0,0,0,,,,0.0,39.238998,-77.965263,12.49,31,3,0.9
1144328,1745084870520,,,,,,,,,,,,,,,,,,,,,,,,,,,,,,,,,,0,0,0,0,0,0,0,0,0,0,0,0,0,0,0,0,,,,,,,,,,,
1144348,1745084870540,0.0,175.97,,-0.12,-0.1,1.06,-56,1,2,1.07,1.21,89,4080,17.7,3.55,,10.76,0.795,91.6,,44.6,5,,,,,,,,,,,,0,0,0,0,0,0,0,0,0,0,0,0,0,0,0,0,,,,,0.0,,,,,,
1144368,1745084870560,,,,,,,,,,,,,,,,,,,,,,,,,,,,,,,,,,0,0,0,0,0,0,0,0,0,0,0,0,0,0,0,0,,,,,,,,,,,
1144388,1745084870580,0.0,176.09,,-0.13,-0.13,1.09,-57,1,2,1.11,1.21,91,4080,17.7,3.55,,12.31,0.799,91.6,,34.4,5,,,,,,,,,,,,0,0,0,0,0,0,0,0,0,0,0,0,0,0,0,0,,,,,0.0,,,,,,
1144408,1745084870600,,,,,,,,,,,,,,,,,,,,,,,8,0,7,10,0.0,29.0,0.0,0.0,2.26,,,0,0,0,0,0,0,0,0,0,0,0,0,0,0,0,0,0,,,,,39.238995,-77.965263,12.61,31,3,0.9
1144428,1745084870620,0.0,176.22,,-0.12,-0.1,1.03,-58,1,2,1.04,1.21,86,3654,18.8,4.07,,13.28,0.838,91.6,,34.4,5,,,,,,,,,,,,0,0,0,0,0,0,0,0,0,0,0,0,0,0,0,0,,,,,0.0,,,,,,
1144448,1745084870640,,,,,,,,,,,,,,,,,,,,,,,,,,,,,,,,,,0,0,0,0,0,0,0,0,0,0,0,0,0,0,0,0,,,,,,,,,,,
1144468,1745084870660,0.0,176.22,,-0.12,-0.14,1.01,-59,1,2,1.03,1.21,85,3140,19.1,4.48,,13.79,0.955,91.6,,34.4,5,,,,,,,,,,,,0,0,0,0,0,0,0,0,0,0,0,0,0,0,0,0,,,,,0.0,,,,,,
1144488,1745084870680,,,,,,,,,,,,,,,,,,,,,,,,,,,,,,,,,,0,0,0,0,0,0,0,0,0,0,0,0,0,0,0,0,,,,,,,,,,,
1144508,1745084870702,0.0,176.34,,-0.13,-0.15,0.94,-60,1,2,0.96,1.21,79,2882,19.2,4.76,,13.92,1.033,91.6,,27.2,5,8,0,7,10,0.0,48.0,0.0,0.0,2.26,,,0,0,0,0,0,0,0,0,0,0,0,0,0,0,0,0,0,,,,0.0,39.238991,-77.965256,13.66,31,3,0.9
1144528,1745084870722,,,,,,,,,,,,,,,,,,,,,,,,,,,,,,,,,,0,0,0,0,0,0,0,0,0,0,0,0,0,0,0,0,,,,,,,,,,,
1144548,1745084870742,0.0,176.34,,-0.13,-0.19,0.96,-60,1,2,0.98,1.21,81,2704,19.9,4.77,,13.92,1.033,91.6,,27.2,5,,,,,,,,,,,,0,0,0,0,0,0,0,0,0,0,0,0,0,0,0,0,,,,,0.0,,,,,,
1144568,1745084870762,,,,,,,,,,,,,,,,,,,,,,,,,,,,,,,,,,0,0,0,0,0,0,0,0,0,0,0,0,0,0,0,0,,,,,,,,,,,
1144588,1745084870782,0.0,176.47,,-0.14,-0.21,0.94,-61,1,2,0.97,1.21,80,2704,19.9,4.77,,14.02,1.114,91.6,,22.4,5,,,,,,,,,,,,0,0,0,0,0,0,0,0,0,0,0,0,0,0,0,0,,,,,0.0,,,,,,
1144608,1745084870802,,,,,,,,,,,,,,,,,,,,,,,8,0,7,10,0.0,16.0,0.0,0.0,2.26,,,0,0,0,0,0,0,0,0,0,0,0,0,0,0,0,0,0,,,,,39.238991,-77.965256,13.66,31,3,0.9
1144628,1745084870820,0.0,176.6,,-0.15,-0.24,0.95,-61,2,2,0.99,1.21,82,2537,20.2,4.72,,14.08,1.175,91.6,,22.4,5,,,,,,,,,,,,0,0,0,0,0,0,0,0,0,0,0,0,0,0,0,0,,,,,0.0,,,,,,
1144648,1745084870840,,,,,,,,,,,,,,,,,,,,,,,,,,,,,,,,,,0,0,0,0,0,0,0,0,0,0,0,0,0,0,0,0,,,,,,,,,,,
1144668,1745084870860,0.0,176.6,,-0.17,-0.25,0.96,-61,1,2,1.01,1.21,83,2318,20.2,4.63,,14.14,1.194,91.6,,22.4,5,,,,,,,,,,,,0,0,0,0,0,0,0,0,0,0,0,0,0,0,0,0,,,,,0.0,,,,,,
1144688,1745084870880,,,,,,,,,,,,,,,,,,,,,,,,,,,,,,,,,,0,0,0,0,0,0,0,0,0,0,0,0,0,0,0,0,,,,,,,,,,,
1144708,1745084870902,0.0,176.6,13.64,-0.19,-0.27,0.98,-62,1,2,1.03,1.21,85,2105,25.1,4.62,15,14.15,1.19,91.6,153,19.6,5,8,0,7,10,0.0,89.0,0.0,0.0,2.26,0,0.0,0,0,0,0,0,0,0,0,0,0,0,0,0,0,0,0,2,0.0,0,0,0.0,39.238983,-77.965256,13.59,31,3,0.9
1144728,1745084870922,,,,,,,,,,,,,,,,,,,,,,,,,,,,,,,,,,0,0,0,0,0,0,0,0,0,0,0,0,0,0,0,0,,,,,,,,,,,
1144748,1745084870942,0.0,176.72,,-0.21,-0.3,0.99,-62,1,2,1.05,1.21,87,2029,38.0,4.72,,14.15,1.19,91.6,,19.6,5,,,,,,,,,,,,0,0,0,0,0,0,0,0,0,0,0,0,0,0,0,0,,,,,0.0,,,,,,
1144768,1745084870962,,,,,,,,,,,,,,,,,,,,,,,,,,,,,,,,,,0,0,0,0,0,0,0,0,0,0,0,0,0,0,0,0,,,,,,,,,,,
1144788,1745084870982,0.0,176.72,,-0.23,-0.3,0.98,-63,1,1,1.05,1.21,87,2029,38.0,4.72,,14.32,1.159,91.6,,18.0,5,,,,,,,,,,,,0,0,0,0,0,0,0,0,0,0,0,0,0,0,0,0,,,,,0.0,,,,,,
1144808,1745084871002,,,,,,,,,,,,,,,,,,,,,,,8,0,7,10,0.0,49.0,0.0,0.0,2.26,,,0,0,0,0,0,0,0,0,0,0,0,0,0,0,0,0,2,,,,,39.238983,-77.965256,13.59,31,3,0.9
1144828,1745084871014,0.0,176.85,,-0.22,-0.33,0.96,-63,2,1,1.04,1.21,86,2074,44.5,4.78,,14.27,1.127,91.6,,18.0,5,,,,,,,,,,,,0,0,0,0,0,0,0,0,0,0,0,0,0,0,0,0,,,,,0.0,,,,,,
1144848,1745084871034,,,,,,,,,,,,,,,,,,,,,,,,,,,,,,,,,,0,0,0,0,0,0,0,0,0,0,0,0,0,0,0,0,,,,,,,,,,,
1144868,1745084871054,0.0,176.85,,-0.2,-0.32,0.96,-63,2,1,1.03,1.21,85,2125,45.5,4.55,,14.34,1.106,91.6,,18.0,5,,,,,,,,,,,,0,0,0,0,0,0,0,0,0,0,0,0,0,0,0,0,,,,,0.0,,,,,,
1144888,1745084871074,,,,,,,,,,,,,,,,,,,,,,,,,,,,,,,,,,0,0,0,0,0,0,0,0,0,0,0,0,0,0,0,0,,,,,,,,,,,
1144908,1745084871102,0.0,176.97,,-0.21,-0.33,0.97,-63,1,1,1.05,1.21,87,2012,45.5,4.55,,14.28,1.102,91.6,,17.4,5,8,0,7,10,0.0,37.0,0.0,0.0,2.26,,,0,0,0,0,0,0,0,0,0,0,0,0,0,0,0,0,3,,,,0.0,39.238976,-77.965256,13.8,31,3,0.9
1144928,1745084871122,,,,,,,,,,,,,,,,,,,,,,,,,,,,,,,,,,0,0,0,0,0,0,0,0,0,0,0,0,0,0,0,0,,,,,,,,,,,
1144948,1745084871142,0.0,176.85,,-0.2,-0.36,0.98,-63,2,1,1.06,1.21,88,2128,45.5,4.49,,14.28,1.102,91.6,,17.4,5,,,,,,,,,,,,0,0,0,0,0,0,0,0,0,0,0,0,0,0,0,0,,,,,0.0,,,,,,
1144968,1745084871162,,,,,,,,,,,,,,,,,,,,,,,,,,,,,,,,,,0,0,0,0,0,0,0,0,0,0,0,0,0,0,0,0,,,,,,,,,,,
1144988,1745084871182,0.0,176.72,,-0.19,-0.38,1.0,-62,2,1,1.08,1.21,90,2128,45.5,4.49,,14.3,1.101,91.6,,17.2,5,,,,,,,,,,,,0,0,0,0,0,0,0,0,0,0,0,0,0,0,0,0,,,,,0.0,,,,,,
1145008,1745084871202,,,,,,,,,,,,,,,,,,,,,,,8,0,7,10,0.0,30.0,0.0,0.0,2.26,,,0,0,0,0,0,0,0,0,0,0,0,0,0,0,0,0,3,,,,,39.238976,-77.965256,13.8,31,3,0.9
1145028,1745084871217,0.0,176.6,,-0.2,-0.35,1.01,-61,2,1,1.08,1.21,89,2156,45.5,4.49,,14.26,1.104,91.6,,17.2,5,,,,,,,,,,,,0,0,0,0,0,0,0,0,0,0,0,0,0,0,0,0,,,,,0.0,,,,,,
1145048,1745084871237,,,,,,,,,,,,,,,,,,,,,,,,,,,,,,,,,,0,0,0,0,0,0,0,0,0,0,0,0,0,0,0,0,,,,,,,,,,,
1145068,1745084871257,0.0,176.34,,-0.19,-0.33,1.01,-61,2,1,1.08,1.21,89,2198,45.5,4.5,,14.28,1.1,91.6,,17.2,5,,,,,,,,,,,,0,0,0,0,0,0,0,0,0,0,0,0,0,0,0,0,,,,,0.0,,,,,,
1145088,1745084871277,,,,,,,,,,,,,,,,,,,,,,,,,,,,,,,,,,0,0,0,0,0,0,0,0,0,0,0,0,0,0,0,0,,,,,,,,,,,
1145108,1745084871301,0.0,176.09,,-0.17,-0.29,1.0,-59,2,1,1.06,1.21,87,2208,58.1,4.66,,14.28,1.105,91.6,,17.2,5,8,0,7,10,0.0,206.0,0.0,0.0,2.26,,,0,0,0,0,0,0,0,0,0,0,0,0,0,0,0,0,3,,,,0.0,39.238972,-77.965256,13.61,31,3,0.9
1145128,1745084871321,,,,,,,,,,,,,,,,,,,,,,,,,,,,,,,,,,0,0,0,0,0,0,0,0,0,0,0,0,0,0,0,0,,,,,,,,,,,
1145148,1745084871341,0.0,175.97,,-0.14,-0.31,1.01,-57,2,0,1.06,1.21,88,2066,72.1,4.68,,14.28,1.105,91.6,,17.2,5,,,,,,,,,,,,0,0,0,0,0,0,0,0,0,0,0,0,0,0,0,0,,,,,0.0,,,,,,
1145168,1745084871361,,,,,,,,,,,,,,,,,,,,,,,,,,,,,,,,,,0,0,0,0,0,0,0,0,0,0,0,0,0,0,0,0,,,,,,,,,,,
1145188,1745084871381,0.0,175.97,,-0.1,-0.28,1.0,-54,2,0,1.04,1.21,86,2066,72.1,4.68,,14.28,1.109,91.6,,16.1,5,,,,,,,,,,,,0,0,0,0,0,0,0,0,0,0,0,0,0,0,0,0,,,,,0.0,,,,,,
1145208,1745084871401,,,,,,,,,,,,,,,,,,,,,,,8,0,8,10,0.0,206.0,0.0,0.0,2.25,,,0,0,0,0,0,0,0,0,0,0,0,0,0,0,0,0,3,,,,,39.238968,-77.965256,13.82,31,3,0.9
1145228,1745084871421,0.0,175.97,,-0.09,-0.25,1.0,-52,2,0,1.03,1.21,85,2110,73.4,4.71,,14.31,1.128,91.6,,16.1,5,,,,,,,,,,,,0,0,0,0,0,0,0,0,0,0,0,0,0,0,0,0,,,,,0.0,,,,,,
1145248,1745084871441,,,,,,,,,,,,,,,,,,,,,,,,,,,,,,,,,,0,0,0,0,0,0,0,0,0,0,0,0,0,0,0,0,,,,,,,,,,,
1145268,1745084871461,0.0,175.97,,-0.08,-0.21,1.0,-50,1,0,1.02,1.21,84,2137,74.6,4.51,,14.28,1.134,91.6,,16.1,5,,,,,,,,,,,,0,0,0,0,0,0,0,0,0,0,0,0,0,0,0,0,,,,,0.0,,,,,,
1145288,1745084871481,,,,,,,,,,,,,,,,,,,,,,,,,,,,,,,,,,0,0,0,0,0,0,0,0,0,0,0,0,0,0,0,0,,,,,,,,,,,
1145308,1745084871501,0.0,176.09,,-0.08,-0.21,1.0,-47,1,0,1.02,1.21,84,2175,74.8,4.47,,14.34,1.134,91.6,,15.3,5,9,0,8,10,0.0,185.0,0.0,0.0,2.26,,,0,0,0,0,0,0,0,0,0,0,0,0,0,0,0,0,0,,,,0.0,39.238964,-77.965256,14.09,31,3,0.9
1145328,1745084871521,,,,,,,,,,,,,,,,,,,,,,,,,,,,,,,,,,0,0,0,0,0,0,0,0,0,0,0,0,0,0,0,0,,,,,,,,,,,
1145348,1745084871541,0.0,176.22,,-0.09,-0.22,0.99,-44,1,0,1.01,1.21,84,2135,74.9,4.48,,14.34,1.134,91.6,,15.3,5,,,,,,,,,,,,0,0,0,0,0,0,0,0,0,0,0,0,0,0,0,0,,,,,0.0,,,,,,
1145368,1745084871561,,,,,,,,,,,,,,,,,,,,,,,,,,,,,,,,,,0,0,0,0,0,0,0,0,0,0,0,0,0,0,0,0,,,,,,,,,,,
1145388,1745084871581,0.0,176.47,,-0.07,-0.25,0.97,-42,1,0,1.0,1.21,83,2135,74.9,4.48,,14.38,1.137,91.6,,16.1,5,,,,,,,,,,,,0,0,0,0,0,0,0,0,0,0,0,0,0,0,0,0,,,,,0.0,,,,,,
1145408,1745084871601,,,,,,,,,,,,,,,,,,,,,,,9,0,9,10,0.0,141.0,0.0,0.0,2.25,,,0,0,0,0,0,0,0,0,0,0,0,0,0,0,0,0,0,,,,,39.23896,-77.965263,14.45,31,3,0.9
1145428,1745084871621,0.0,176.72,,-0.05,-0.22,0.97,-40,1,0,0.99,0.99,100,2191,76.3,4.5,,14.34,1.138,91.6,,16.1,5,,,,,,,,,,,,0,0,0,0,0,0,0,0,0,0,0,0,0,0,0,0,,,,,0.0,,,,,,
1145448,1745084871641,,,,,,,,,,,,,,,,,,,,,,,,,,,,,,,,,,0,0,0,0,0,0,0,0,0,0,0,0,0,0,0,0,,,,,,,,,,,
1145468,1745084871661,0.0,176.85,,-0.03,-0.2,0.98,-38,1,0,1.0,1.0,100,2283,80.9,4.64,,14.3,1.14,91.6,,16.1,5,,,,,,,,,,,,0,0,0,0,0,0,0,0,0,0,0,0,0,0,0,0,,,,,0.0,,,,,,
1145488,1745084871681,,,,,,,,,,,,,,,,,,,,,,,,,,,,,,,,,,0,0,0,0,0,0,0,0,0,0,0,0,0,0,0,0,,,,,,,,,,,
1145508,1745084871701,0.0,177.1,,-0.01,-0.24,0.99,-36,1,0,1.02,1.02,100,2373,82.2,4.41,,14.31,1.13,91.6,,16.8,5,9,0,9,10,0.0,97.0,0.0,0.0,2.26,,,0,0,0,0,0,0,0,0,0,0,0,0,0,0,0,0,0,,,,0.0,39.23896,-77.965263,14.45,31,3,0.9
1145528,1745084871719,,,,,,,,,,,,,,,,,,,,,,,,,,,,,,,,,,0,0,0,0,0,0,0,0,0,0,0,0,0,0,0,0,,,,,,,,,,,
1145548,1745084871739,0.0,177.35,,-0.0,-0.22,0.98,-34,1,0,1.0,1.02,99,2319,82.3,4.36,,14.31,1.13,91.6,,16.8,5,,,,,,,,,,,,0,0,0,0,0,0,0,0,0,0,0,0,0,0,0,0,,,,,0.0,,,,,,
1145568,1745084871759,,,,,,,,,,,,,,,,,,,,,,,,,,,,,,,,,,0,0,0,0,0,0,0,0,0,0,0,0,0,0,0,0,,,,,,,,,,,
1145588,1745084871779,0.0,177.6,,-0.01,-0.23,0.99,-32,1,1,1.02,1.02,100,2319,82.3,4.36,,14.35,1.109,91.6,,17.2,5,,,,,,,,,,,,0,0,0,0,0,0,0,0,0,0,0,0,0,0,0,0,,,,,0.0,,,,,,
1145608,1745084871801,,,,,,,,,,,,,,,,,,,,,,,9,0,9,10,0.0,80.0,0.0,0.0,2.26,,,0,0,0,0,0,0,0,0,0,0,0,0,0,0,0,0,0,,,,,39.238953,-77.965263,15.03,31,3,0.9
1145628,1745084871821,0.0,177.85,,-0.01,-0.19,0.99,-31,1,0,1.01,1.02,99,2318,82.3,4.38,,14.32,1.102,91.6,,17.2,5,,,,,,,,,,,,0,0,0,0,0,0,0,0,0,0,0,0,0,0,0,0,,,,,0.0,,,,,,
1145648,1745084871841,,,,,,,,,,,,,,,,,,,,,,,,,,,,,,,,,,0,0,0,0,0,0,0,0,0,0,0,0,0,0,0,0,,,,,,,,,,,
1145668,1745084871861,0.0,177.98,,-0.02,-0.16,0.99,-31,1,0,1.01,1.02,99,2399,82.3,4.36,,14.31,1.107,91.6,,17.2,5,,,,,,,,,,,,0,0,0,0,0,0,0,0,0,0,0,0,0,0,0,0,,,,,0.0,,,,,,
1145688,1745084871881,,,,,,,,,,,,,,,,,,,,,,,,,,,,,,,,,,0,0,0,0,0,0,0,0,0,0,0,0,0,0,0,0,,,,,,,,,,,
1145708,1745084871901,0.0,178.1,13.7,-0.03,-0.22,0.99,-29,1,0,1.01,1.02,99,2439,82.3,4.35,15,14.32,1.116,91.6,153,18.1,5,9,0,9,10,0.0,127.0,0.0,0.0,2.26,0,0.0,0,0,0,0,0,0,0,0,0,0,0,0,0,0,0,0,2,0.0,0,0,0.0,39.238953,-77.965263,15.03,31,3,0.9
1145728,1745084871919,,,,,,,,,,,,,,,,,,,,,,,,,,,,,,,,,,0,0,0,0,0,0,0,0,0,0,0,0,0,0,0,0,,,,,,,,,,,
1145748,1745084871939,0.0,178.36,,-0.01,-0.22,0.99,-29,1,0,1.01,1.02,100,2401,72.9,4.51,,14.32,1.116,91.6,,18.1,5,,,,,,,,,,,,0,0,0,0,0,0,0,0,0,0,0,0,0,0,0,0,,,,,0.0,,,,,,
1145768,1745084871959,,,,,,,,,,,,,,,,,,,,,,,,,,,,,,,,,,0,0,0,0,0,0,0,0,0,0,0,0,0,0,0,0,,,,,,,,,,,
1145788,1745084871979,0.0,178.61,,-0.03,-0.2,0.98,-28,1,0,1.0,1.02,98,2401,72.9,4.51,,14.3,1.124,91.6,,18.5,5,,,,,,,,,,,,0,0,0,0,0,0,0,0,0,0,0,0,0,0,0,0,,,,,0.0,,,,,,
1145808,1745084871999,,,,,,,,,,,,,,,,,,,,,,,9,0,10,10,0.0,140.0,0.0,0.0,2.26,,,0,0,0,0,0,0,0,0,0,0,0,0,0,0,0,0,2,,,,,39.238953,-77.965271,15.02,31,3,0.9
1145828,1745084872013,0.0,178.73,,-0.04,-0.18,0.99,-27,1,0,1.01,1.02,99,2381,54.9,4.35,,14.27,1.132,91.6,,18.5,5,,,,,,,,,,,,0,0,0,0,0,0,0,0,0,0,0,0,0,0,0,0,,,,,0.0,,,,,,
1145848,1745084872033,,,,,,,,,,,,,,,,,,,,,,,,,,,,,,,,,,0,0,0,0,0,0,0,0,0,0,0,0,0,0,0,0,,,,,,,,,,,
1145868,1745084872053,0.0,178.86,,-0.01,-0.21,1.0,-26,1,0,1.02,1.02,100,2458,54.6,4.33,,14.3,1.142,91.6,,18.5,5,,,,,,,,,,,,0,0,0,0,0,0,0,0,0,0,0,0,0,0,0,0,,,,,0.0,,,,,,
1145888,1745084872073,,,,,,,,,,,,,,,,,,,,,,,,,,,,,,,,,,0,0,0,0,0,0,0,0,0,0,0,0,0,0,0,0,,,,,,,,,,,
1145908,1745084872093,0.0,179.11,,-0.03,-0.18,1.0,-27,1,1,1.02,1.02,100,2480,57.3,4.35,,14.28,1.135,91.6,,19.1,5,10,0,10,10,0.0,117.0,0.0,0.0,2.26,,,0,0,0,0,0,0,0,0,0,0,0,0,0,0,0,0,2,,,,0.0,39.238945,-77.965271,15.22,31,3,0.9
1145928,1745084872118,,,,,,,,,,,,,,,,,,,,,,,,,,,,,,,,,,0,0,0,0,0,0,0,0,0,0,0,0,0,0,0,0,,,,,,,,,,,
1145948,1745084872138,0.0,179.24,,-0.0,-0.25,1.0,-26,1,0,1.03,1.03,100,2458,64.6,4.61,,14.28,1.135,91.6,,19.1,5,,,,,,,,,,,,0,0,0,0,0,0,0,0,0,0,0,0,0,0,0,0,,,,,0.0,,,,,,
1145968,1745084872158,,,,,,,,,,,,,,,,,,,,,,,,,,,,,,,,,,0,0,0,0,0,0,0,0,0,0,0,0,0,0,0,0,,,,,,,,,,,
1145988,1745084872178,0.0,179.36,,-0.0,-0.23,1.02,-26,0,0,1.04,1.04,100,2458,64.6,4.61,,14.3,1.123,91.6,,19.2,5,,,,,,,,,,,,0,0,0,0,0,0,0,0,0,0,0,0,0,0,0,0,,,,,0.0,,,,,,
1146008,1745084872198,,,,,,,,,,,,,,,,,,,,,,,9,0,10,11,0.0,78.0,0.0,0.0,2.26,,,0,0,0,0,0,0,0,0,0,0,0,0,0,0,0,0,2,,,,,39.238941,-77.965271,15.35,31,3,0.9
1146028,1745084872219,0.0,179.49,,-0.01,-0.24,1.02,-26,0,0,1.05,1.05,100,2471,67.8,4.54,,14.31,1.132,91.6,,19.2,5,,,,,,,,,,,,0,0,0,0,0,0,0,0,0,0,0,0,0,0,0,0,,,,,0.0,,,,,,
1146048,1745084872239,,,,,,,,,,,,,,,,,,,,,,,,,,,,,,,,,,0,0,0,0,0,0,0,0,0,0,0,0,0,0,0,0,,,,,,,,,,,
1146068,1745084872259,0.0,179.61,,-0.0,-0.26,0.99,-27,1,0,1.02,1.05,98,2502,69.5,4.36,,14.31,1.138,91.6,,19.2,5,,,,,,,,,,,,0,0,0,0,0,0,0,0,0,0,0,0,0,0,0,0,,,,,0.0,,,,,,
1146088,1745084872279,,,,,,,,,,,,,,,,,,,,,,,,,,,,,,,,,,0,0,0,0,0,0,0,0,0,0,0,0,0,0,0,0,,,,,,,,,,,
1146108,1745084872302,0.0,179.61,,0.0,-0.31,0.99,-26,1,0,1.04,1.05,99,2545,68.4,4.34,,14.34,1.151,91.6,,19.2,5,10,0,10,11,0.0,137.0,0.0,0.0,2.26,,,0,0,0,0,0,0,0,0,0,0,0,0,0,0,0,0,2,,,,0.0,39.238934,-77.965271,15.76,32,3,0.9
1146128,1745084872322,,,,,,,,,,,,,,,,,,,,,,,,,,,,,,,,,,0,0,0,0,0,0,0,0,0,0,0,0,0,0,0,0,,,,,,,,,,,
1146148,1745084872342,0.0,179.61,,0.01,-0.3,1.01,-26,0,0,1.05,1.05,100,2541,68.5,4.33,,14.34,1.151,91.6,,19.2,5,,,,,,,,,,,,0,0,0,0,0,0,0,0,0,0,0,0,0,0,0,0,,,,,0.0,,,,,,
1146168,1745084872362,,,,,,,,,,,,,,,,,,,,,,,,,,,,,,,,,,0,0,0,0,0,0,0,0,0,0,0,0,0,0,0,0,,,,,,,,,,,
1146188,1745084872382,0.0,179.86,,-0.0,-0.24,1.01,-26,0,0,1.04,1.05,99,2541,68.5,4.33,,14.32,1.141,91.6,,19.5,5,,,,,,,,,,,,0,0,0,0,0,0,0,0,0,0,0,0,0,0,0,0,,,,,0.0,,,,,,
1146208,1745084872402,,,,,,,,,,,,,,,,,,,,,,,10,0,10,11,0.0,80.0,0.0,0.0,2.26,,,0,0,0,0,0,0,0,0,0,0,0,0,0,0,0,0,2,,,,,39.238934,-77.965279,15.99,32,3,0.9
1146228,1745084872422,0.0,179.86,,-0.0,-0.21,0.99,-25,0,0,1.02,1.05,96,2511,68.5,4.33,,14.32,1.126,91.6,,19.5,5,,,,,,,,,,,,0,0,0,0,0,0,0,0,0,0,0,0,0,0,0,0,,,,,0.0,,,,,,
1146248,1745084872442,,,,,,,,,,,,,,,,,,,,,,,,,,,,,,,,,,0,0,0,0,0,0,0,0,0,0,0,0,0,0,0,0,,,,,,,,,,,
1146268,1745084872462,0.0,180.12,,0.02,-0.22,1.01,-24,0,0,1.03,1.05,98,2578,68.6,4.33,,14.34,1.115,91.6,,19.5,5,,,,,,,,,,,,0,0,0,0,0,0,0,0,0,0,0,0,0,0,0,0,,,,,0.0,,,,,,
1146288,1745084872482,,,,,,,,,,,,,,,,,,,,,,,,,,,,,,,,,,0,0,0,0,0,0,0,0,0,0,0,0,0,0,0,0,,,,,,,,,,,
1146308,1745084872502,0.0,180.12,,0.03,-0.23,0.98,-23,1,-0,1.01,1.05,95,2597,57.7,4.29,,14.28,1.122,91.6,,19.8,5,10,0,10,11,0.0,46.0,0.0,0.0,2.26,,,0,0,0,0,0,0,0,0,0,0,0,0,0,0,0,0,2,,,,0.0,39.238934,-77.965279,16.3,32,3,0.9
1146328,1745084872522,,,,,,,,,,,,,,,,,,,,,,,,,,,,,,,,,,0,0,0,0,0,0,0,0,0,0,0,0,0,0,0,0,,,,,,,,,,,
1146348,1745084872542,0.0,180.24,,0.03,-0.24,0.98,-22,1,-0,1.01,1.05,96,2525,21.2,4.67,,14.28,1.122,91.6,,19.8,5,,,,,,,,,,,,0,0,0,0,0,0,0,0,0,0,0,0,0,0,0,0,,,,,0.0,,,,,,
1146368,1745084872562,,,,,,,,,,,,,,,,,,,,,,,,,,,,,,,,,,0,0,0,0,0,0,0,0,0,0,0,0,0,0,0,0,,,,,,,,,,,
1146388,1745084872582,0.0,180.49,,0.02,-0.21,0.96,-21,0,-0,0.98,1.05,93,2525,21.2,4.67,,14.14,1.119,91.6,,20.4,5,,,,,,,,,,,,0,0,0,0,0,0,0,0,0,0,0,0,0,0,0,0,,,,,0.0,,,,,,
1146408,1745084872602,,,,,,,,,,,,,,,,,,,,,,,11,0,10,11,0.0,102.0,0.0,0.0,2.26,,,0,0,0,0,0,0,0,0,0,0,0,0,0,0,0,0,2,,,,,39.23893,-77.965286,16.59,32,3,0.9
1146428,1745084872622,0.0,180.62,,0.02,-0.22,0.95,-19,-0,-0,0.97,1.05,92,2509,3.4,3.72,,13.9,1.123,91.6,,20.4,5,,,,,,,,,,,,0,0,0,0,0,0,0,0,0,0,0,0,0,0,0,0,,,,,0.0,,,,,,
1146448,1745084872642,,,,,,,,,,,,,,,,,,,,,,,,,,,,,,,,,,0,0,0,0,0,0,0,0,0,0,0,0,0,0,0,0,,,,,,,,,,,
1146468,1745084872662,0.0,180.87,,0.03,-0.22,0.98,-18,-0,0,1.01,1.05,96,2472,16.8,4.04,,14.04,1.128,91.6,,20.4,5,,,,,,,,,,,,0,0,0,0,0,0,0,0,0,0,0,0,0,0,0,0,,,,,0.0,,,,,,
1146488,1745084872682,,,,,,,,,,,,,,,,,,,,,,,,,,,,,,,,,,0,0,0,0,0,0,0,0,0,0,0,0,0,0,0,0,,,,,,,,,,,
1146508,1745084872702,0.0,181.0,,0.01,-0.19,0.98,-17,-0,0,1.0,1.05,95,2449,44.0,4.95,,14.31,1.123,91.6,,20.3,5,11,0,10,11,0.0,52.0,0.0,0.0,2.26,,,0,0,0,0,0,0,0,0,0,0,0,0,0,0,0,0,2,,,,0.0,39.238926,-77.965286,17.02,32,3,0.9
1146528,1745084872722,,,,,,,,,,,,,,,,,,,,,,,,,,,,,,,,,,0,0,0,0,0,0,0,0,0,0,0,0,0,0,0,0,,,,,,,,,,,
1146548,1745084872742,0.0,181.12,,0.02,-0.15,1.0,-15,-0,0,1.01,1.05,95,2617,66.1,4.78,,14.31,1.123,91.6,,20.3,5,,,,,,,,,,,,0,0,0,0,0,0,0,0,0,0,0,0,0,0,0,0,,,,,0.0,,,,,,
1146568,1745084872762,,,,,,,,,,,,,,,,,,,,,,,,,,,,,,,,,,0,0,0,0,0,0,0,0,0,0,0,0,0,0,0,0,,,,,,,,,,,
1146588,1745084872782,0.0,181.37,,0.02,-0.14,0.95,-14,0,0,0.96,1.05,91,2617,66.1,4.78,,14.3,1.118,91.6,,21.1,5,,,,,,,,,,,,0,0,0,0,0,0,0,0,0,0,0,0,0,0,0,0,,,,,0.0,,,,,,
1146608,1745084872802,,,,,,,,,,,,,,,,,,,,,,,11,0,11,11,0.0,12.0,0.0,0.0,2.26,,,0,0,0,0,0,0,0,0,0,0,0,0,0,0,0,0,2,,,,,39.238922,-77.965294,16.91,32,3,0.9
1146628,1745084872822,0.0,181.62,,0.05,-0.14,0.96,-13,0,0,0.97,1.05,92,2732,79.7,4.57,,14.27,1.114,91.6,,21.1,5,,,,,,,,,,,,0,0,0,0,0,0,0,0,0,0,0,0,0,0,0,0,,,,,0.0,,,,,,
1146648,1745084872842,,,,,,,,,,,,,,,,,,,,,,,,,,,,,,,,,,0,0,0,0,0,0,0,0,0,0,0,0,0,0,0,0,,,,,,,,,,,
1146668,1745084872862,0.0,181.75,,0.04,-0.11,0.97,-11,0,1,0.98,1.05,93,2692,85.6,4.56,,14.27,1.092,91.6,,21.1,5,,,,,,,,,,,,0,0,0,0,0,0,0,0,0,0,0,0,0,0,0,0,,,,,0.0,,,,,,
1146688,1745084872882,,,,,,,,,,,,,,,,,,,,,,,,,,,,,,,,,,0,0,0,0,0,0,0,0,0,0,0,0,0,0,0,0,,,,,,,,,,,
1146708,1745084872902,0.0,181.88,13.73,0.03,-0.07,1.0,-10,0,1,1.0,1.05,95,2633,87.7,4.66,15,14.3,1.08,91.6,155,21.1,5,11,0,11,11,0.0,244.0,0.0,0.0,2.26,0,0.0,0,0,0,0,0,0,0,0,0,0,0,0,0,0,0,0,2,0.0,0,0,0.0,39.238918,-77.965302,17.23,32,3,0.9
1146728,1745084872922,,,,,,,,,,,,,,,,,,,,,,,,,,,,,,,,,,0,0,0,0,0,0,0,0,0,0,0,0,0,0,0,0,,,,,,,,,,,
1146748,1745084872942,0.0,182.0,,0.03,-0.04,1.02,-9,0,1,1.02,1.05,97,2772,90.2,4.55,,14.3,1.08,91.6,,21.1,5,,,,,,,,,,,,0,0,0,0,0,0,0,0,0,0,0,0,0,0,0,0,,,,,0.0,,,,,,
1146768,1745084872962,,,,,,,,,,,,,,,,,,,,,,,,,,,,,,,,,,0,0,0,0,0,0,0,0,0,0,0,0,0,0,0,0,,,,,,,,,,,
1146788,1745084872982,0.0,182.25,,0.04,-0.04,0.95,-8,1,1,0.96,1.05,91,2772,90.2,4.55,,14.32,1.077,91.6,,21.5,5,,,,,,,,,,,,0,0,0,0,0,0,0,0,0,0,0,0,0,0,0,0,,,,,0.0,,,,,,
1146808,1745084873002,,,,,,,,,,,,,,,,,,,,,,,11,0,11,11,0.0,251.0,0.0,0.0,2.25,,,0,0,0,0,0,0,0,0,0,0,0,0,0,0,0,0,2,,,,,39.238918,-77.965302,17.23,32,3,0.9
1146828,1745084873016,0.0,182.38,,0.05,-0.06,0.99,-8,1,1,1.0,1.05,94,2821,90.5,4.46,,14.34,1.09,91.6,,21.5,5,,,,,,,,,,,,0,0,0,0,0,0,0,0,0,0,0,0,0,0,0,0,,,,,0.0,,,,,,
1146848,1745084873036,,,,,,,,,,,,,,,,,,,,,,,,,,,,,,,,,,0,0,0,0,0,0,0,0,0,0,0,0,0,0,0,0,,,,,,,,,,,
1146868,1745084873056,0.0,182.63,,0.04,-0.12,0.98,-8,1,1,0.99,1.05,94,2686,90.7,4.37,,14.35,1.084,91.6,,21.5,5,,,,,,,,,,,,0,0,0,0,0,0,0,0,0,0,0,0,0,0,0,0,,,,,0.0,,,,,,
1146888,1745084873076,,,,,,,,,,,,,,,,,,,,,,,,,,,,,,,,,,0,0,0,0,0,0,0,0,0,0,0,0,0,0,0,0,,,,,,,,,,,
1146908,1745084873102,0.0,182.88,,0.02,-0.11,0.95,-8,0,1,0.96,1.05,91,2685,90.8,4.35,,14.31,1.078,91.6,,21.8,5,11,0,11,11,0.0,11.0,0.0,0.0,2.26,,,0,0,0,0,0,0,0,0,0,0,0,0,0,0,0,0,2,,,,0.0,39.238911,-77.965309,17.85,32,3,0.9
1146928,1745084873122,,,,,,,,,,,,,,,,,,,,,,,,,,,,,,,,,,0,0,0,0,0,0,0,0,0,0,0,0,0,0,0,0,,,,,,,,,,,
1146948,1745084873142,0.0,183.13,,0.03,-0.14,1.01,-7,0,1,1.02,1.05,96,2736,91.0,4.15,,14.31,1.078,91.6,,21.8,5,,,,,,,,,,,,0,0,0,0,0,0,0,0,0,0,0,0,0,0,0,0,,,,,0.0,,,,,,
1146968,1745084873162,,,,,,,,,,,,,,,,,,,,,,,,,,,,,,,,,,0,0,0,0,0,0,0,0,0,0,0,0,0,0,0,0,,,,,,,,,,,
1146988,1745084873182,0.0,183.38,,0.02,-0.13,1.03,-6,1,1,1.03,1.05,98,2736,91.0,4.15,,14.28,1.068,91.6,,21.9,5,,,,,,,,,,,,0,0,0,0,0,0,0,0,0,0,0,0,0,0,0,0,,,,,0.0,,,,,,
1147008,1745084873202,,,,,,,,,,,,,,,,,,,,,,,12,0,12,12,0.0,42.0,0.0,0.0,2.26,,,0,0,0,0,0,0,0,0,0,0,0,0,0,0,0,0,2,,,,,39.238911,-77.965309,17.85,32,3,0.9
1147028,1745084873217,0.0,183.51,,0.02,-0.14,0.95,-6,0,1,0.96,1.05,91,2891,91.0,4.18,,14.28,1.072,91.6,,21.9,5,,,,,,,,,,,,0,0,0,0,0,0,0,0,0,0,0,0,0,0,0,0,,,,,0.0,,,,,,
1147048,1745084873237,,,,,,,,,,,,,,,,,,,,,,,,,,,,,,,,,,0,0,0,0,0,0,0,0,0,0,0,0,0,0,0,0,,,,,,,,,,,
1147068,1745084873257,0.0,183.63,,0.03,-0.1,0.92,-5,0,1,0.92,1.05,88,2897,72.2,4.15,,14.3,1.093,91.6,,21.9,5,,,,,,,,,,,,0,0,0,0,0,0,0,0,0,0,0,0,0,0,0,0,,,,,0.0,,,,,,
1147088,1745084873277,,,,,,,,,,,,,,,,,,,,,,,,,,,,,,,,,,0,0,0,0,0,0,0,0,0,0,0,0,0,0,0,0,,,,,,,,,,,
1147108,1745084873301,0.0,183.89,,0.03,-0.15,0.98,-5,0,0,1.0,1.05,94,2876,67.2,4.14,,14.3,1.126,91.6,,22.5,5,12,0,12,12,0.0,53.0,0.0,0.0,2.25,,,0,0,0,0,0,0,0,0,0,0,0,0,0,0,0,0,2,,,,0.0,39.238907,-77.965309,18.37,32,3,0.9
1147128,1745084873321,,,,,,,,,,,,,,,,,,,,,,,,,,,,,,,,,,0,0,0,0,0,0,0,0,0,0,0,0,0,0,0,0,,,,,,,,,,,
1147148,1745084873341,0.0,184.01,,0.03,-0.14,1.06,-5,0,0,1.07,1.07,100,2831,60.6,4.3,,14.3,1.126,91.6,,22.5,5,,,,,,,,,,,,0,0,0,0,0,0,0,0,0,0,0,0,0,0,0,0,,,,,0.0,,,,,,
1147168,1745084873361,,,,,,,,,,,,,,,,,,,,,,,,,,,,,,,,,,0,0,0,0,0,0,0,0,0,0,0,0,0,0,0,0,,,,,,,,,,,
1147188,1745084873381,0.0,184.14,,0.01,-0.12,1.01,-4,0,0,1.02,1.07,96,2831,60.6,4.3,,14.31,1.127,91.6,,22.5,5,,,,,,,,,,,,0,0,0,0,0,0,0,0,0,0,0,0,0,0,0,0,,,,,0.0,,,,,,
1147208,1745084873403,,,,,,,,,,,,,,,,,,,,,,,12,0,12,12,0.0,47.0,0.0,0.0,2.26,,,0,0,0,0,0,0,0,0,0,0,0,0,0,0,0,0,2,,,,,39.238903,-77.965317,18.77,32,3,0.9
1147228,1745084873423,0.0,184.39,,0.03,-0.06,0.99,-4,0,1,0.99,1.07,93,2843,60.3,4.28,,14.3,1.149,91.6,,22.5,5,,,,,,,,,,,,0,0,0,0,0,0,0,0,0,0,0,0,0,0,0,0,,,,,0.0,,,,,,
1147248,1745084873443,,,,,,,,,,,,,,,,,,,,,,,,,,,,,,,,,,0,0,0,0,0,0,0,0,0,0,0,0,0,0,0,0,,,,,,,,,,,
1147268,1745084873463,0.0,184.64,,0.06,-0.02,0.93,-4,0,1,0.93,1.07,88,2956,60.3,4.29,,14.24,1.172,91.6,,22.5,5,,,,,,,,,,,,0,0,0,0,0,0,0,0,0,0,0,0,0,0,0,0,,,,,0.0,,,,,,
1147288,1745084873483,,,,,,,,,,,,,,,,,,,,,,,,,,,,,,,,,,0,0,0,0,0,0,0,0,0,0,0,0,0,0,0,0,,,,,,,,,,,
1147308,1745084873503,0.0,185.02,,0.1,0.09,0.88,-4,0,1,0.89,1.07,83,3023,60.3,4.28,,14.27,1.178,91.6,,23.1,5,12,0,12,12,0.0,0.0,0.0,0.0,2.25,,,0,0,0,0,0,0,0,0,0,0,0,0,0,0,0,0,2,,,,0.0,39.238899,-77.965324,19.0,32,3,0.9
1147328,1745084873523,,,,,,,,,,,,,,,,,,,,,,,,,,,,,,,,,,0,0,0,0,0,0,0,0,0,0,0,0,0,0,0,0,,,,,,,,,,,
1147348,1745084873543,0.0,185.39,,0.1,0.15,0.8,-2,0,0,0.82,1.07,77,3048,60.3,4.27,,14.27,1.178,91.6,,23.1,5,,,,,,,,,,,,0,0,0,0,0,0,0,0,0,0,0,0,0,0,0,0,,,,,0.0,,,,,,
1147368,1745084873563,,,,,,,,,,,,,,,,,,,,,,,,,,,,,,,,,,0,0,0,0,0,0,0,0,0,0,0,0,0,0,0,0,,,,,,,,,,,
1147388,1745084873583,0.0,185.65,,0.12,0.17,0.76,-2,-0,0,0.78,1.07,74,3048,60.3,4.27,,14.34,1.166,91.6,,24.1,5,,,,,,,,,,,,0,0,0,0,0,0,0,0,0,0,0,0,0,0,0,0,,,,,0.0,,,,,,
1147408,1745084873603,,,,,,,,,,,,,,,,,,,,,,,13,0,13,12,0.0,55.0,0.0,0.0,2.26,,,0,0,0,0,0,0,0,0,0,0,0,0,0,0,0,0,2,,,,,39.238895,-77.965324,19.45,32,3,0.9
1147428,1745084873623,0.0,185.9,,0.11,0.26,0.71,-0,-0,-0,0.76,1.07,71,2912,58.5,4.24,,14.31,1.166,91.6,,24.1,5,,,,,,,,,,,,0,0,0,0,0,0,0,0,0,0,0,0,0,0,0,0,,,,,0.0,,,,,,
1147448,1745084873643,,,,,,,,,,,,,,,,,,,,,,,,,,,,,,,,,,0,0,0,0,0,0,0,0,0,0,0,0,0,0,0,0,,,,,,,,,,,
1147468,1745084873663,0.0,186.15,,0.1,0.31,0.65,1,-0,-0,0.73,1.07,69,2951,57.1,4.21,,14.26,1.157,91.6,,24.1,5,,,,,,,,,,,,0,0,0,0,0,0,0,0,0,0,0,0,0,0,0,0,,,,,0.0,,,,,,
1147488,1745084873683,,,,,,,,,,,,,,,,,,,,,,,,,,,,,,,,,,0,0,0,0,0,0,0,0,0,0,0,0,0,0,0,0,,,,,,,,,,,
1147508,1745084873703,0.0,186.27,,0.12,0.32,0.62,2,-0,0,0.71,1.07,66,3076,56.8,4.22,,14.26,1.166,91.6,,24.1,5,13,0,13,13,0.0,241.0,0.0,0.0,2.26,,,0,0,0,0,0,0,0,0,0,0,0,0,0,0,0,0,2,,,,0.0,39.238892,-77.965332,19.71,32,3,0.9
1147528,1745084873723,,,,,,,,,,,,,,,,,,,,,,,,,,,,,,,,,,0,0,0,0,0,0,0,0,0,0,0,0,0,0,0,0,,,,,,,,,,,
1147548,1745084873743,0.0,186.53,,0.14,0.38,0.62,2,-1,0,0.75,1.07,70,3038,56.8,4.19,,14.26,1.166,91.6,,24.1,5,,,,,,,,,,,,0,0,0,0,0,0,0,0,0,0,0,0,0,0,0,0,,,,,0.0,,,,,,
1147568,1745084873763,,,,,,,,,,,,,,,,,,,,,,,,,,,,,,,,,,0,0,0,0,0,0,0,0,0,0,0,0,0,0,0,0,,,,,,,,,,,
1147588,1745084873783,0.0,186.65,,0.16,0.44,0.67,2,-1,1,0.82,0.82,100,3038,56.8,4.19,,14.34,1.158,91.6,,24.6,5,,,,,,,,,,,,0,0,0,0,0,0,0,0,0,0,0,0,0,0,0,0,,,,,0.0,,,,,,
1147608,1745084873801,,,,,,,,,,,,,,,,,,,,,,,13,0,13,13,0.0,42.0,0.0,0.0,2.26,,,0,0,0,0,0,0,0,0,0,0,0,0,0,0,0,0,2,,,,,39.238892,-77.96534,20.13,32,3,0.9
1147628,1745084873821,0.0,186.78,,0.18,0.33,0.8,3,-1,1,0.88,0.88,100,3051,56.8,4.19,,14.3,1.161,91.6,,24.6,5,,,,,,,,,,,,0,0,0,0,0,0,0,0,0,0,0,0,0,0,0,0,,,,,0.0,,,,,,
1147648,1745084873841,,,,,,,,,,,,,,,,,,,,,,,,,,,,,,,,,,0,0,0,0,0,0,0,0,0,0,0,0,0,0,0,0,,,,,,,,,,,
1147668,1745084873861,0.0,186.78,,0.15,0.19,0.8,4,-0,0,0.83,0.88,95,3360,57.0,4.19,,14.26,1.174,91.6,,24.6,5,,,,,,,,,,,,0,0,0,0,0,0,0,0,0,0,0,0,0,0,0,0,,,,,0.0,,,,,,
1147688,1745084873881,,,,,,,,,,,,,,,,,,,,,,,,,,,,,,,,,,0,0,0,0,0,0,0,0,0,0,0,0,0,0,0,0,,,,,,,,,,,
1147708,1745084873903,0.0,186.78,13.79,0.11,0.23,0.77,4,-1,0,0.81,0.88,92,3119,57.8,4.21,15,14.31,1.182,91.6,155,25.6,5,14,0,13,13,0.0,5.0,0.0,0.0,2.26,0,0.0,0,0,0,0,0,0,0,0,0,0,0,0,0,0,0,0,2,0.0,0,0,0.0,39.238888,-77.96534,20.54,32,3,0.9
1147728,1745084873923,,,,,,,,,,,,,,,,,,,,,,,,,,,,,,,,,,0,0,0,0,0,0,0,0,0,0,0,0,0,0,0,0,,,,,,,,,,,
1147748,1745084873943,0.0,186.9,,0.1,0.3,0.72,5,-1,0,0.78,0.88,89,3089,59.5,4.21,,14.31,1.182,91.6,,25.6,5,,,,,,,,,,,,0,0,0,0,0,0,0,0,0,0,0,0,0,0,0,0,,,,,0.0,,,,,,
1147768,1745084873963,,,,,,,,,,,,,,,,,,,,,,,,,,,,,,,,,,0,0,0,0,0,0,0,0,0,0,0,0,0,0,0,0,,,,,,,,,,,
1147788,1745084873983,0.0,186.9,,0.13,0.29,0.79,4,-1,1,0.85,0.88,96,3089,59.5,4.21,,14.3,1.143,91.6,,25.3,5,,,,,,,,,,,,0,0,0,0,0,0,0,0,0,0,0,0,0,0,0,0,,,,,0.0,,,,,,
1147808,1745084874003,,,,,,,,,,,,,,,,,,,,,,,13,0,13,14,0.0,0.0,0.0,0.0,2.25,,,0,0,0,0,0,0,0,0,0,0,0,0,0,0,0,0,2,,,,,39.238888,-77.96534,20.54,32,3,0.9
1147828,1745084874015,0.0,186.9,,0.14,0.19,0.84,5,-1,-0,0.87,0.88,99,3372,58.6,4.18,,14.24,1.12,91.6,,25.3,5,,,,,,,,,,,,0,0,0,0,0,0,0,0,0,0,0,0,0,0,0,0,,,,,0.0,,,,,,
1147848,1745084874035,,,,,,,,,,,,,,,,,,,,,,,,,,,,,,,,,,0,0,0,0,0,0,0,0,0,0,0,0,0,0,0,0,,,,,,,,,,,
1147868,1745084874055,0.0,187.03,,0.14,0.26,0.81,5,-1,-0,0.86,0.88,98,3294,58.6,4.19,,14.27,1.148,91.6,,25.3,5,,,,,,,,,,,,0,0,0,0,0,0,0,0,0,0,0,0,0,0,0,0,,,,,0.0,,,,,,
1147888,1745084874075,,,,,,,,,,,,,,,,,,,,,,,,,,,,,,,,,,0,0,0,0,0,0,0,0,0,0,0,0,0,0,0,0,,,,,,,,,,,
1147908,1745084874101,0.0,187.15,,0.14,0.21,0.86,5,-1,-0,0.89,0.89,100,3172,58.6,4.18,,14.26,1.187,91.6,,26.1,5,14,0,14,13,0.0,9.0,0.0,0.0,2.26,,,0,0,0,0,0,0,0,0,0,0,0,0,0,0,0,0,2,,,,0.0,39.238876,-77.965355,21.19,32,3,0.9
1147928,1745084874121,,,,,,,,,,,,,,,,,,,,,,,,,,,,,,,,,,0,0,0,0,0,0,0,0,0,0,0,0,0,0,0,0,,,,,,,,,,,
1147948,1745084874141,0.0,187.28,,0.11,0.12,0.87,7,-1,-1,0.89,0.89,99,3347,58.5,4.19,,14.26,1.187,91.6,,26.1,5,,,,,,,,,,,,0,0,0,0,0,0,0,0,0,0,0,0,0,0,0,0,,,,,0.0,,,,,,
1147968,1745084874161,,,,,,,,,,,,,,,,,,,,,,,,,,,,,,,,,,0,0,0,0,0,0,0,0,0,0,0,0,0,0,0,0,,,,,,,,,,,
1147988,1745084874181,0.0,187.66,,0.13,0.24,0.83,8,-1,-1,0.88,0.89,98,3347,58.5,4.19,,14.24,1.192,91.6,,26.9,5,,,,,,,,,,,,0,0,0,0,0,0,0,0,0,0,0,0,0,0,0,0,,,,,0.0,,,,,,
1148008,1745084874201,,,,,,,,,,,,,,,,,,,,,,,14,0,14,14,0.0,252.0,0.0,0.0,2.26,,,0,0,0,0,0,0,0,0,0,0,0,0,0,0,0,0,2,,,,,39.238873,-77.965355,21.49,32,3,0.9
1148028,1745084874221,0.0,187.91,,0.13,0.17,0.93,9,-1,-1,0.95,0.95,100,3283,58.6,4.15,,14.3,1.18,91.6,,26.9,5,,,,,,,,,,,,0,0,0,0,0,0,0,0,0,0,0,0,0,0,0,0,,,,,0.0,,,,,,
1148048,1745084874241,,,,,,,,,,,,,,,,,,,,,,,,,,,,,,,,,,0,0,0,0,0,0,0,0,0,0,0,0,0,0,0,0,,,,,,,,,,,
1148068,1745084874261,0.0,188.03,,0.11,0.15,0.89,11,-1,-1,0.91,0.95,96,3227,58.5,4.16,,14.26,1.181,91.6,,26.9,5,,,,,,,,,,,,0,0,0,0,0,0,0,0,0,0,0,0,0,0,0,0,,,,,0.0,,,,,,
1148088,1745084874281,,,,,,,,,,,,,,,,,,,,,,,,,,,,,,,,,,0,0,0,0,0,0,0,0,0,0,0,0,0,0,0,0,,,,,,,,,,,
1148108,1745084874302,0.0,188.29,,0.12,0.16,0.95,12,-1,-0,0.97,0.97,100,3392,58.5,4.19,,14.26,1.216,91.6,,26.5,5,15,0,14,14,0.0,237.0,0.0,0.0,2.26,,,0,0,0,0,0,0,0,0,0,0,0,0,0,0,0,0,2,,,,0.0,39.238873,-77.965355,21.87,31,3,0.9
1148128,1745084874322,,,,,,,,,,,,,,,,,,,,,,,,,,,,,,,,,,0,0,0,0,0,0,0,0,0,0,0,0,0,0,0,0,,,,,,,,,,,
1148148,1745084874342,0.0,188.41,,0.13,0.14,0.9,14,-1,-1,0.92,0.97,94,3367,60.3,4.13,,14.26,1.216,91.6,,26.5,5,,,,,,,,,,,,0,0,0,0,0,0,0,0,0,0,0,0,0,0,0,0,,,,,0.0,,,,,,
1148168,1745084874362,,,,,,,,,,,,,,,,,,,,,,,,,,,,,,,,,,0,0,0,0,0,0,0,0,0,0,0,0,0,0,0,0,,,,,,,,,,,
1148188,1745084874382,0.0,188.41,,0.1,0.14,0.95,15,-1,-1,0.97,0.97,99,3367,60.3,4.13,,14.27,1.211,91.6,,27.3,5,,,,,,,,,,,,0,0,0,0,0,0,0,0,0,0,0,0,0,0,0,0,,,,,0.0,,,,,,
1148208,1745084874402,,,,,,,,,,,,,,,,,,,,,,,14,0,14,14,0.0,242.0,0.0,0.0,2.26,,,0,0,0,0,0,0,0,0,0,0,0,0,0,0,0,0,2,,,,,39.238873,-77.965355,21.87,31,3,0.9
1148228,1745084874420,0.0,188.54,,0.1,0.16,0.92,16,-1,-1,0.94,0.97,97,3400,58.8,4.16,,14.2,1.205,91.6,,27.3,5,,,,,,,,,,,,0,0,0,0,0,0,0,0,0,0,0,0,0,0,0,0,,,,,0.0,,,,,,
1148248,1745084874440,,,,,,,,,,,,,,,,,,,,,,,,,,,,,,,,,,0,0,0,0,0,0,0,0,0,0,0,0,0,0,0,0,,,,,,,,,,,
1148268,1745084874460,0.0,188.41,,0.07,0.13,0.97,16,-1,-0,0.98,0.98,100,3354,58.8,4.14,,14.26,1.222,91.6,,27.3,5,,,,,,,,,,,,0,0,0,0,0,0,0,0,0,0,0,0,0,0,0,0,,,,,0.0,,,,,,
1148288,1745084874480,,,,,,,,,,,,,,,,,,,,,,,,,,,,,,,,,,0,0,0,0,0,0,0,0,0,0,0,0,0,0,0,0,,,,,,,,,,,
1148308,1745084874502,0.0,188.41,,0.08,0.16,0.92,16,-1,-0,0.94,0.98,95,3366,68.1,4.43,,14.27,1.197,91.6,,27.5,5,14,0,14,13,0.0,14.0,0.0,0.0,2.26,,,0,0,0,0,0,0,0,0,0,0,0,0,0,0,0,0,2,,,,0.0,39.238861,-77.96537,22.53,31,3,0.9
1148328,1745084874522,,,,,,,,,,,,,,,,,,,,,,,,,,,,,,,,,,0,0,0,0,0,0,0,0,0,0,0,0,0,0,0,0,,,,,,,,,,,
1148348,1745084874542,0.0,188.29,,0.05,0.09,0.99,15,-1,0,0.99,0.99,100,3473,69.1,4.24,,14.27,1.197,91.6,,27.5,5,,,,,,,,,,,,0,0,0,0,0,0,0,0,0,0,0,0,0,0,0,0,,,,,0.0,,,,,,
1148368,1745084874562,,,,,,,,,,,,,,,,,,,,,,,,,,,,,,,,,,0,0,0,0,0,0,0,0,0,0,0,0,0,0,0,0,,,,,,,,,,,
1148388,1745084874582,0.0,188.29,,0.08,0.19,0.95,15,-1,-0,0.97,0.99,98,3473,69.1,4.24,,14.27,1.187,91.6,,28.1,5,,,,,,,,,,,,0,0,0,0,0,0,0,0,0,0,0,0,0,0,0,0,,,,,0.0,,,,,,
1148408,1745084874602,,,,,,,,,,,,,,,,,,,,,,,15,0,15,14,0.0,33.0,0.0,0.0,2.26,,,0,0,0,0,0,0,0,0,0,0,0,0,0,0,0,0,2,,,,,39.238853,-77.96537,22.44,31,3,0.9
1148428,1745084874622,0.0,188.29,,0.04,0.07,0.96,15,-1,-1,0.96,0.99,97,3408,69.3,4.19,,14.27,1.209,91.6,,28.1,5,,,,,,,,,,,,0,0,0,0,0,0,0,0,0,0,0,0,0,0,0,0,,,,,0.0,,,,,,
1148448,1745084874642,,,,,,,,,,,,,,,,,,,,,,,,,,,,,,,,,,0,0,0,0,0,0,0,0,0,0,0,0,0,0,0,0,,,,,,,,,,,
1148468,1745084874662,0.0,188.41,,0.04,0.1,0.96,14,-1,-0,0.97,0.99,97,3554,69.7,4.21,,14.27,1.218,91.6,,28.1,5,,,,,,,,,,,,0,0,0,0,0,0,0,0,0,0,0,0,0,0,0,0,,,,,0.0,,,,,,
1148488,1745084874682,,,,,,,,,,,,,,,,,,,,,,,,,,,,,,,,,,0,0,0,0,0,0,0,0,0,0,0,0,0,0,0,0,,,,,,,,,,,
1148508,1745084874702,0.0,188.79,,0.05,0.11,0.94,14,-1,-0,0.95,0.99,96,3449,70.5,4.22,,14.3,1.207,91.6,,28.4,5,15,0,15,14,0.0,221.0,0.0,0.0,2.26,,,0,0,0,0,0,0,0,0,0,0,0,0,0,0,0,0,2,,,,0.0,39.238853,-77.965378,22.79,31,3,0.9
1148528,1745084874722,,,,,,,,,,,,,,,,,,,,,,,,,,,,,,,,,,0,0,0,0,0,0,0,0,0,0,0,0,0,0,0,0,,,,,,,,,,,
