"Interval"|"ms"|0|0|1,"Utc"|"ms"|0|0|1,"FrontBP"|"psi"|-5.0|5.0|25,"SteerAng"|"Degrees"|-145.0|145.0|25,"Battery"|"Volts"|-5.0|20.0|1,"AccelX"|"G"|-3.0|3.0|25,"AccelY"|"G"|-3.0|3.0|25,"AccelZ"|"G"|-3.0|3.0|25,"Yaw"|"Deg/Sec"|-120|120|25,"Pitch"|"Deg/Sec"|-120|120|25,"Roll"|"Deg/Sec"|-120|120|25,"Gsum"|"G"|0.0|3.0|25,"GsumMax"|"G"|0.0|3.0|25,"GsumPct"|"%"|0|100|25,"RPM"|""|0|10000|25,"TPS"|"%"|0.0|100.0|25,"InjectorPW"|"ms"|0.0|100.0|25,"Baro"|"kPa"|0|105|1,"MAP"|"Psi"|0.0|255.0|25,"Lambda"|""|-2.0|2.0|25,"IAT"|"C"|0.0|200.0|25,"EngineTemp"|"C"|0|200|1,"EOP"|"PSI"|0.0|152.0|25,"EOT"|"F"|0|250|25,"WSFR"|"MPH"|0|150|10,"WSFL"|"MPH"|0|100|10,"WSRR"|"MPH"|0|100|10,"WSRL"|""|0|100|10,"TCSet"|"%"|0.0|100.0|10,"TCSlip"|"%"|0.0|100.0|10,"TCComp"|"deg"|0.0|50.0|10,"TCCut"|"%"|0.0|100.0|10,"Analog8"|""|0.0|5.0|10,"OilTemp"|"F"|0|300|1,"AA_On"|""|0.0|1.0|1,"ThermLF1"|"C"|0|400|50,"ThermLF2"|"C"|0|400|50,"ThermRR1"|"C"|0|400|50,"ThermRR2"|"C"|0|400|50,"ThermLF3"|"C"|0|400|50,"ThermLF4"|"C"|0|400|50,"ThermLF5"|"C"|0|400|50,"ThermLF6"|"C"|0|400|50,"ThermLF7"|"C"|0|400|50,"ThermLF8"|"C"|0|400|50,"ThermRR3"|"C"|0|400|50,"ThermRR4"|"C"|0|400|50,"ThermRR5"|"C"|0|400|50,"ThermRR6"|"C"|0|400|50,"ThermRR7"|"C"|0|400|50,"ThermRR8"|"C"|0|400|50,"Gear"|""|1|6|10,"AA_On"|""|0.0|1.0|1,"AA_LowDrag"|""|0|1|1,"Fuel_Mix"|""|-10|10|1,"AA_Packages"|""|0.0|1000.0|25,"Latitude"|"Degrees"|-180.0|180.0|10,"Longitude"|"Degrees"|-180.0|180.0|10,"Speed"|"kph"|0.0|150.0|10,"GPSSats"|""|0|20|10,"GPSQual"|""|0|5|10,"GPSDOP"|""|0.0|20.0|10
642834,1745087764893,,,,,,,,,,,,,,,,,,,,,,,,,,,,,,,,,,0,0,0,0,0,0,0,0,0,0,0,0,0,0,0,0,,,,,,,,,,,
642854,1745087764913,0.0,187.53,,-0.11,-0.03,0.96,1,-0,-0,0.97,0.97,100,4312,12.8,3.7,,12.92,1.249,95.2,,36.1,5,,,,,,,,,,,,0,0,0,0,0,0,0,0,0,0,0,0,0,0,0,0,,,,,0.0,,,,,,
642874,1745087764933,,,,,,,,,,,,,,,,,,,,,,,,,,,,,,,,,,0,0,0,0,0,0,0,0,0,0,0,0,0,0,0,0,,,,,,,,,,,
642894,1745087764953,0.0,187.53,,-0.09,0.03,1.03,0,-0,0,1.04,1.04,100,4335,12.8,3.73,,12.91,1.249,95.2,,36.1,5,,,,,,,,,,,,0,0,0,0,0,0,0,0,0,0,0,0,0,0,0,0,,,,,0.0,,,,,,
642914,1745087764973,,,,,,,,,,,,,,,,,,,,,,,0,0,0,0,0.0,0.0,0.0,0.0,2.26,,,0,0,0,0,0,0,0,0,0,0,0,0,0,0,0,0,0,,,,,39.240162,-77.965324,0.0,35,3,0.8
642934,1745087764993,0.0,187.53,,-0.07,-0.04,0.94,1,-0,-0,0.94,1.04,91,4250,13.0,3.77,,12.91,1.249,95.2,,35.2,5,,,,,,,,,,,,0,0,0,0,0,0,0,0,0,0,0,0,0,0,0,0,,,,,0.0,,,,,,
642954,1745087765005,,,,,,,,,,,,,,,,,,,,,,,,,,,,,,,,,,0,0,0,0,0,0,0,0,0,0,0,0,0,0,0,0,,,,,,,,,,,
642974,1745087765025,0.0,187.53,,-0.1,-0.02,0.96,0,-0,0,0.97,1.04,93,4250,13.0,3.77,,12.95,1.247,95.2,,35.2,5,,,,,,,,,,,,0,0,0,0,0,0,0,0,0,0,0,0,0,0,0,0,,,,,0.0,,,,,,
642994,1745087765045,,,,,,,,,,,,,,,,,,,,,,,,,,,,,,,,,,0,0,0,0,0,0,0,0,0,0,0,0,0,0,0,0,,,,,,,,,,,
643014,1745087765065,0.0,187.53,,-0.07,-0.0,0.95,0,-0,-0,0.95,1.04,92,4204,13.2,3.78,,13.01,1.247,95.2,,33.7,5,0,0,0,0,0.0,0.0,0.0,0.0,2.26,,,0,0,0,0,0,0,0,0,0,0,0,0,0,0,0,0,0,,,,0.0,39.240162,-77.965324,0.04,35,3,0.8
643034,1745087765085,,,,,,,,,,,,,,,,,,,,,,,,,,,,,,,,,,0,0,0,0,0,0,0,0,0,0,0,0,0,0,0,0,,,,,,,,,,,
643054,1745087765111,0.0,187.41,,-0.06,0.01,0.97,0,-0,0,0.97,1.04,93,4075,13.5,3.87,,13.11,1.246,95.2,,33.7,5,,,,,,,,,,,,0,0,0,0,0,0,0,0,0,0,0,0,0,0,0,0,,,,,0.0,,,,,,
643074,1745087765131,,,,,,,,,,,,,,,,,,,,,,,,,,,,,,,,,,0,0,0,0,0,0,0,0,0,0,0,0,0,0,0,0,,,,,,,,,,,
643094,1745087765151,0.0,187.41,,-0.04,-0.05,0.92,1,-0,-0,0.92,1.04,89,4090,13.5,3.94,,13.13,1.247,95.2,,33.7,5,,,,,,,,,,,,0,0,0,0,0,0,0,0,0,0,0,0,0,0,0,0,,,,,0.0,,,,,,
643114,1745087765171,,,,,,,,,,,,,,,,,,,,,,,0,0,0,0,0.0,0.0,0.0,0.0,2.26,,,0,0,0,0,0,0,0,0,0,0,0,0,0,0,0,0,0,,,,,39.240162,-77.965324,0.0,35,3,0.8
643134,1745087765191,0.0,187.41,,-0.02,0.05,1.01,-0,-0,0,1.01,1.04,97,4025,13.5,3.98,,13.13,1.247,95.2,,32.9,5,,,,,,,,,,,,0,0,0,0,0,0,0,0,0,0,0,0,0,0,0,0,,,,,0.0,,,,,,
643154,1745087765215,,,,,,,,,,,,,,,,,,,,,,,,,,,,,,,,,,0,0,0,0,0,0,0,0,0,0,0,0,0,0,0,0,,,,,,,,,,,
643174,1745087765235,0.0,187.28,,-0.01,0.18,1.11,-1,-0,1,1.13,1.13,100,4025,13.5,3.98,,13.17,1.248,95.2,,32.9,5,,,,,,,,,,,,0,0,0,0,0,0,0,0,0,0,0,0,0,0,0,0,,,,,0.0,,,,,,
643194,1745087765255,,,,,,,,,,,,,,,,,,,,,,,,,,,,,,,,,,0,0,0,0,0,0,0,0,0,0,0,0,0,0,0,0,,,,,,,,,,,
643214,1745087765275,0.0,187.15,,-0.01,0.14,1.08,-1,-0,1,1.09,1.13,97,3891,13.5,3.98,,13.27,1.244,95.2,,31.2,5,0,0,0,0,0.0,0.0,0.0,0.0,2.26,,,0,0,0,0,0,0,0,0,0,0,0,0,0,0,0,0,0,,,,0.0,39.240162,-77.965324,0.16,35,3,0.8
643234,1745087765295,,,,,,,,,,,,,,,,,,,,,,,,,,,,,,,,,,0,0,0,0,0,0,0,0,0,0,0,0,0,0,0,0,,,,,,,,,,,
643254,1745087765313,0.0,187.15,,-0.01,0.1,1.06,-0,-0,0,1.06,1.13,94,3837,13.7,4.06,,13.29,1.234,95.2,,31.2,5,,,,,,,,,,,,0,0,0,0,0,0,0,0,0,0,0,0,0,0,0,0,,,,,0.0,,,,,,
643274,1745087765333,,,,,,,,,,,,,,,,,,,,,,,,,,,,,,,,,,0,0,0,0,0,0,0,0,0,0,0,0,0,0,0,0,,,,,,,,,,,
643294,1745087765353,0.0,187.15,,-0.02,0.11,1.05,-0,-0,0,1.06,1.13,94,3699,13.8,4.08,,13.33,1.23,95.2,,31.2,5,,,,,,,,,,,,0,0,0,0,0,0,0,0,0,0,0,0,0,0,0,0,,,,,0.0,,,,,,
643314,1745087765373,,,,,,,,,,,,,,,,,,,,,,,0,0,0,0,0.0,0.0,0.0,0.0,2.26,,,0,0,0,0,0,0,0,0,0,0,0,0,0,0,0,0,0,,,,,39.240162,-77.965324,0.08,35,3,0.8
643334,1745087765393,0.0,187.03,,-0.01,0.13,1.08,-0,-0,1,1.09,1.13,97,3727,14.0,4.14,,13.33,1.23,95.2,,29.9,5,,,,,,,,,,,,0,0,0,0,0,0,0,0,0,0,0,0,0,0,0,0,,,,,0.0,,,,,,
643354,1745087765413,,,,,,,,,,,,,,,,,,,,,,,,,,,,,,,,,,0,0,0,0,0,0,0,0,0,0,0,0,0,0,0,0,,,,,,,,,,,
643374,1745087765433,0.0,187.03,,0.0,0.16,1.08,-0,-0,1,1.09,1.13,97,3727,14.0,4.14,,13.37,1.216,95.2,,29.9,5,,,,,,,,,,,,0,0,0,0,0,0,0,0,0,0,0,0,0,0,0,0,,,,,0.0,,,,,,
643394,1745087765453,,,,,,,,,,,,,,,,,,,,,,,,,,,,,,,,,,0,0,0,0,0,0,0,0,0,0,0,0,0,0,0,0,,,,,,,,,,,
643414,1745087765473,0.0,187.03,13.66,0.02,0.16,1.03,-0,-0,0,1.04,1.13,93,3571,14.2,4.14,15,13.41,1.207,95.2,173,28.9,5,0,0,0,0,0.0,0.0,0.0,0.0,2.26,0,0.0,0,0,0,0,0,0,0,0,0,0,0,0,0,0,0,0,0,0.0,0,0,0.0,39.240162,-77.965324,0.29,35,3,0.8
643434,1745087765493,,,,,,,,,,,,,,,,,,,,,,,,,,,,,,,,,,0,0,0,0,0,0,0,0,0,0,0,0,0,0,0,0,,,,,,,,,,,
643454,1745087765515,0.0,187.03,,-0.0,0.02,1.05,0,-0,0,1.05,1.13,93,3501,15.2,4.24,,13.56,1.209,95.2,,28.9,5,,,,,,,,,,,,0,0,0,0,0,0,0,0,0,0,0,0,0,0,0,0,,,,,0.0,,,,,,
643474,1745087765535,,,,,,,,,,,,,,,,,,,,,,,,,,,,,,,,,,0,0,0,0,0,0,0,0,0,0,0,0,0,0,0,0,,,,,,,,,,,
643494,1745087765555,0.0,187.03,,0.01,0.12,1.03,-0,-0,1,1.04,1.13,92,3364,16.5,4.32,,13.68,1.181,95.2,,28.9,5,,,,,,,,,,,,0,0,0,0,0,0,0,0,0,0,0,0,0,0,0,0,,,,,0.0,,,,,,
643514,1745087765575,,,,,,,,,,,,,,,,,,,,,,,0,0,0,0,0.0,0.0,0.0,0.0,2.26,,,0,0,0,0,0,0,0,0,0,0,0,0,0,0,0,0,0,,,,,39.240162,-77.965324,0.39,34,3,0.8
643534,1745087765595,0.0,187.03,,-0.01,-0.01,1.05,0,-0,0,1.05,1.13,93,3393,17.1,4.47,,13.68,1.181,95.2,,27.5,5,,,,,,,,,,,,0,0,0,0,0,0,0,0,0,0,0,0,0,0,0,0,,,,,0.0,,,,,,
643554,1745087765614,,,,,,,,,,,,,,,,,,,,,,,,,,,,,,,,,,0,0,0,0,0,0,0,0,0,0,0,0,0,0,0,0,,,,,,,,,,,
643574,1745087765634,0.0,187.03,,0.01,0.06,1.0,-0,-0,0,1.0,1.13,89,3393,17.1,4.47,,13.69,1.182,95.2,,27.5,5,,,,,,,,,,,,0,0,0,0,0,0,0,0,0,0,0,0,0,0,0,0,,,,,0.0,,,,,,
643594,1745087765654,,,,,,,,,,,,,,,,,,,,,,,,,,,,,,,,,,0,0,0,0,0,0,0,0,0,0,0,0,0,0,0,0,,,,,,,,,,,
643614,1745087765674,0.0,186.9,,0.0,-0.02,1.06,-0,-0,0,1.06,1.13,94,3302,17.4,4.45,,13.68,1.165,95.2,,26.0,5,0,0,0,0,0.0,0.0,0.0,0.0,2.26,,,0,0,0,0,0,0,0,0,0,0,0,0,0,0,0,0,0,,,,0.0,39.240158,-77.965324,0.54,34,3,0.8
643634,1745087765694,,,,,,,,,,,,,,,,,,,,,,,,,,,,,,,,,,0,0,0,0,0,0,0,0,0,0,0,0,0,0,0,0,,,,,,,,,,,
643654,1745087765714,0.0,186.9,,-0.01,-0.01,1.02,0,-0,-0,1.02,1.13,90,3220,17.6,4.5,,13.77,1.142,95.2,,26.0,5,,,,,,,,,,,,0,0,0,0,0,0,0,0,0,0,0,0,0,0,0,0,,,,,0.0,,,,,,
643674,1745087765734,,,,,,,,,,,,,,,,,,,,,,,,,,,,,,,,,,0,0,0,0,0,0,0,0,0,0,0,0,0,0,0,0,,,,,,,,,,,
643694,1745087765754,0.0,186.9,,0.01,0.03,1.01,-0,-0,0,1.01,1.13,89,3315,17.7,4.56,,13.8,1.137,95.2,,26.0,5,,,,,,,,,,,,0,0,0,0,0,0,0,0,0,0,0,0,0,0,0,0,,,,,0.0,,,,,,
643714,1745087765774,,,,,,,,,,,,,,,,,,,,,,,0,0,0,0,0.0,0.0,0.0,0.0,2.26,,,0,0,0,0,0,0,0,0,0,0,0,0,0,0,0,0,0,,,,,39.240158,-77.965324,0.73,34,3,0.8
643734,1745087765794,0.0,187.03,,-0.0,-0.0,1.06,-0,-0,0,1.06,1.13,94,3234,17.8,4.51,,13.8,1.137,95.2,,25.5,5,,,,,,,,,,,,0,0,0,0,0,0,0,0,0,0,0,0,0,0,0,0,,,,,0.0,,,,,,
643754,1745087765814,,,,,,,,,,,,,,,,,,,,,,,,,,,,,,,,,,0,0,0,0,0,0,0,0,0,0,0,0,0,0,0,0,,,,,,,,,,,
643774,1745087765834,0.0,187.03,,0.01,0.03,0.98,1,-0,-0,0.98,1.13,87,3234,17.8,4.51,,13.72,1.139,95.2,,25.5,5,,,,,,,,,,,,0,0,0,0,0,0,0,0,0,0,0,0,0,0,0,0,,,,,0.0,,,,,,
643794,1745087765854,,,,,,,,,,,,,,,,,,,,,,,,,,,,,,,,,,0,0,0,0,0,0,0,0,0,0,0,0,0,0,0,0,,,,,,,,,,,
643814,1745087765874,0.0,187.03,,0.0,-0.0,1.04,0,-0,0,1.04,1.13,92,3351,21.1,4.69,,13.83,1.139,95.2,,26.1,5,0,0,0,0,0.0,0.0,0.0,0.0,2.26,,,0,0,0,0,0,0,0,0,0,0,0,0,0,0,0,0,0,,,,0.0,39.240158,-77.965324,0.93,34,3,0.8
643834,1745087765894,,,,,,,,,,,,,,,,,,,,,,,,,,,,,,,,,,0,0,0,0,0,0,0,0,0,0,0,0,0,0,0,0,,,,,,,,,,,
643854,1745087765914,0.0,187.03,,0.01,-0.01,0.99,1,-0,-0,0.99,1.13,88,3347,28.0,4.45,,13.96,1.126,95.2,,26.1,5,,,,,,,,,,,,0,0,0,0,0,0,0,0,0,0,0,0,0,0,0,0,,,,,0.0,,,,,,
643874,1745087765934,,,,,,,,,,,,,,,,,,,,,,,,,,,,,,,,,,0,0,0,0,0,0,0,0,0,0,0,0,0,0,0,0,,,,,,,,,,,
643894,1745087765954,0.0,187.03,,-0.01,0.01,1.03,-0,-0,1,1.03,1.13,91,3320,30.7,4.81,,14.08,1.109,95.2,,26.1,5,,,,,,,,,,,,0,0,0,0,0,0,0,0,0,0,0,0,0,0,0,0,,,,,0.0,,,,,,
643914,1745087765974,,,,,,,,,,,,,,,,,,,,,,,0,0,0,0,0.0,0.0,0.0,0.0,2.26,,,0,0,0,0,0,0,0,0,0,0,0,0,0,0,0,0,0,,,,,39.240158,-77.965324,1.02,34,3,0.8
643934,1745087765994,0.0,186.9,,0.0,0.07,1.02,-0,-0,1,1.03,1.13,91,3752,32.0,5.0,,14.08,1.109,95.2,,28.1,5,,,,,,,,,,,,0,0,0,0,0,0,0,0,0,0,0,0,0,0,0,0,,,,,0.0,,,,,,
643954,1745087766006,,,,,,,,,,,,,,,,,,,,,,,,,,,,,,,,,,0,0,0,0,0,0,0,0,0,0,0,0,0,0,0,0,,,,,,,,,,,
643974,1745087766026,0.0,186.9,,0.01,0.03,1.02,-0,-0,1,1.02,1.13,90,3752,32.0,5.0,,14.02,1.141,95.2,,28.1,5,,,,,,,,,,,,0,0,0,0,0,0,0,0,0,0,0,0,0,0,0,0,,,,,0.0,,,,,,
643994,1745087766046,,,,,,,,,,,,,,,,,,,,,,,,,,,,,,,,,,0,0,0,0,0,0,0,0,0,0,0,0,0,0,0,0,,,,,,,,,,,
644014,1745087766066,0.0,186.9,,0.0,-0.05,0.94,0,-0,-0,0.94,1.13,84,3791,32.1,4.81,,13.98,1.159,95.2,,31.5,5,0,0,1,1,0.0,0.0,0.0,0.0,2.26,,,0,0,0,0,0,0,0,0,0,0,0,0,0,0,0,0,0,,,,0.0,39.240158,-77.965332,1.27,36,3,0.8
644034,1745087766086,,,,,,,,,,,,,,,,,,,,,,,,,,,,,,,,,,0,0,0,0,0,0,0,0,0,0,0,0,0,0,0,0,,,,,,,,,,,
644054,1745087766114,0.0,186.9,,0.01,0.03,1.02,0,-0,0,1.02,1.13,91,4006,32.1,4.79,,13.94,1.075,95.2,,31.5,5,,,,,,,,,,,,0,0,0,0,0,0,0,0,0,0,0,0,0,0,0,0,,,,,0.0,,,,,,
644074,1745087766134,,,,,,,,,,,,,,,,,,,,,,,,,,,,,,,,,,0,0,0,0,0,0,0,0,0,0,0,0,0,0,0,0,,,,,,,,,,,
644094,1745087766154,0.0,186.9,,0.04,-0.02,0.93,1,-0,-0,0.93,1.13,83,4215,30.2,4.78,,13.83,1.072,95.2,,31.5,5,,,,,,,,,,,,0,0,0,0,0,0,0,0,0,0,0,0,0,0,0,0,,,,,0.0,,,,,,
644114,1745087766174,,,,,,,,,,,,,,,,,,,,,,,1,0,1,1,0.0,0.0,0.0,0.0,2.26,,,0,0,0,0,0,0,0,0,0,0,0,0,0,0,0,0,0,,,,,39.240158,-77.965332,1.35,36,3,0.8
644134,1745087766194,0.0,187.03,,0.08,-0.02,0.91,2,-0,-1,0.91,1.13,81,4667,21.7,4.16,,13.83,1.072,95.2,,36.1,5,,,,,,,,,,,,0,0,0,0,0,0,0,0,0,0,0,0,0,0,0,0,,,,,0.0,,,,,,
644154,1745087766212,,,,,,,,,,,,,,,,,,,,,,,,,,,,,,,,,,0,0,0,0,0,0,0,0,0,0,0,0,0,0,0,0,,,,,,,,,,,
644174,1745087766232,0.0,186.9,,0.06,0.08,1.0,1,-0,-0,1.01,1.13,89,4667,21.7,4.16,,13.53,1.127,95.2,,36.1,5,,,,,,,,,,,,0,0,0,0,0,0,0,0,0,0,0,0,0,0,0,0,,,,,0.0,,,,,,
644194,1745087766252,,,,,,,,,,,,,,,,,,,,,,,,,,,,,,,,,,0,0,0,0,0,0,0,0,0,0,0,0,0,0,0,0,,,,,,,,,,,
644214,1745087766272,0.0,186.9,,0.0,0.11,1.04,1,-0,0,1.04,1.13,92,4693,20.5,3.86,,13.37,1.064,95.2,,38.0,5,1,0,1,1,0.0,0.0,0.0,0.0,2.26,,,0,0,0,0,0,0,0,0,0,0,0,0,0,0,0,0,0,,,,0.0,39.240158,-77.965332,1.76,36,3,0.8
644334,1745087766392,0.0,186.9,,0.04,0.07,1.01,0,-0,0,1.02,1.13,90,4234,20.6,4.05,,13.45,1.039,95.2,,35.5,5,,,,,,,,,,,,0,0,0,0,0,0,0,0,0,0,0,0,0,0,0,0,,,,,0.0,,,,,,
644354,1745087766414,,,,,,,,,,,,,,,,,,,,,,,,,,,,,,,,,,0,0,0,0,0,0,0,0,0,0,0,0,0,0,0,0,,,,,,,,,,,
644374,1745087766434,0.0,186.9,,0.02,0.15,1.08,-0,-0,1,1.09,1.13,97,4234,20.6,4.05,,13.47,1.127,95.2,,35.5,5,,,,,,,,,,,,0,0,0,0,0,0,0,0,0,0,0,0,0,0,0,0,,,,,0.0,,,,,,
644414,1745087766474,0.0,186.9,13.71,0.05,0.14,1.08,-0,-0,1,1.09,1.13,97,4203,20.6,4.14,15,13.48,1.183,95.2,173,34.8,5,1,0,1,1,0.0,0.0,0.0,0.0,2.26,0,0.0,0,0,0,0,0,0,0,0,0,0,0,0,0,0,0,0,0,0.0,0,0,0.0,39.240158,-77.965332,1.98,36,3,0.8
644514,1745087766572,,,,,,,,,,,,,,,,,,,,,,,1,0,1,1,0.0,0.0,0.0,0.0,2.26,,,0,0,0,0,0,0,0,0,0,0,0,0,0,0,0,0,0,,,,,39.240158,-77.965332,2.26,36,3,0.8
644534,1745087766592,0.0,187.03,,0.02,0.14,1.0,0,-0,0,1.01,1.13,90,3822,20.8,4.31,,13.55,1.205,95.2,,31.7,5,,,,,,,,,,,,0,0,0,0,0,0,0,0,0,0,0,0,0,0,0,0,,,,,0.0,,,,,,
644594,1745087766651,,,,,,,,,,,,,,,,,,,,,,,,,,,,,,,,,,0,0,0,0,0,0,0,0,0,0,0,0,0,0,0,0,,,,,,,,,,,
644614,1745087766671,0.0,186.9,,0.04,0.16,1.03,0,-0,0,1.04,1.13,92,3800,20.8,4.41,,13.6,1.141,95.2,,29.7,5,2,0,1,2,0.0,0.0,0.0,0.0,2.26,,,0,0,0,0,0,0,0,0,0,0,0,0,0,0,0,0,0,,,,0.0,39.240158,-77.965332,2.6,36,3,0.8
644634,1745087766691,,,,,,,,,,,,,,,,,,,,,,,,,,,,,,,,,,0,0,0,0,0,0,0,0,0,0,0,0,0,0,0,0,,,,,,,,,,,
644654,1745087766713,0.0,186.9,,0.03,0.1,1.0,1,-0,0,1.0,1.13,89,3666,20.8,4.39,,13.71,1.151,95.2,,29.7,5,,,,,,,,,,,,0,0,0,0,0,0,0,0,0,0,0,0,0,0,0,0,,,,,0.0,,,,,,
644674,1745087766733,,,,,,,,,,,,,,,,,,,,,,,,,,,,,,,,,,0,0,0,0,0,0,0,0,0,0,0,0,0,0,0,0,,,,,,,,,,,
644694,1745087766753,0.0,186.78,,0.01,0.01,1.0,1,-0,-0,1.0,1.13,88,3664,20.7,4.46,,13.69,1.148,95.2,,29.7,5,,,,,,,,,,,,0,0,0,0,0,0,0,0,0,0,0,0,0,0,0,0,,,,,0.0,,,,,,
644714,1745087766773,,,,,,,,,,,,,,,,,,,,,,,2,0,2,2,0.0,0.0,0.0,0.0,2.26,,,0,0,0,0,0,0,0,0,0,0,0,0,0,0,0,0,0,,,,,39.240158,-77.965332,2.75,36,3,0.8
644734,1745087766793,0.0,186.78,,0.01,0.0,1.04,1,-0,0,1.04,1.13,92,3472,20.8,4.48,,13.69,1.148,95.2,,28.2,5,,,,,,,,,,,,0,0,0,0,0,0,0,0,0,0,0,0,0,0,0,0,,,,,0.0,,,,,,
644774,1745087766833,0.0,186.78,,0.04,0.05,0.98,1,-0,0,0.98,1.13,87,3472,20.8,4.48,,13.76,1.153,95.2,,28.2,5,,,,,,,,,,,,0,0,0,0,0,0,0,0,0,0,0,0,0,0,0,0,,,,,0.0,,,,,,
644794,1745087766853,,,,,,,,,,,,,,,,,,,,,,,,,,,,,,,,,,0,0,0,0,0,0,0,0,0,0,0,0,0,0,0,0,,,,,,,,,,,
644814,1745087766873,0.0,186.78,,0.02,-0.06,1.03,1,-0,-0,1.03,1.13,92,3444,20.8,4.59,,13.8,1.157,95.2,,26.5,5,2,0,2,2,0.0,0.0,0.0,0.0,2.26,,,0,0,0,0,0,0,0,0,0,0,0,0,0,0,0,0,0,,,,0.0,39.240154,-77.965332,3.08,36,3,0.8
644834,1745087766893,,,,,,,,,,,,,,,,,,,,,,,,,,,,,,,,,,0,0,0,0,0,0,0,0,0,0,0,0,0,0,0,0,,,,,,,,,,,
644854,1745087766913,0.0,186.78,,0.04,0.01,0.97,2,-0,-0,0.97,1.13,86,3365,21.0,4.62,,13.82,1.145,95.2,,26.5,5,,,,,,,,,,,,0,0,0,0,0,0,0,0,0,0,0,0,0,0,0,0,,,,,0.0,,,,,,
644874,1745087766933,,,,,,,,,,,,,,,,,,,,,,,,,,,,,,,,,,0,0,0,0,0,0,0,0,0,0,0,0,0,0,0,0,,,,,,,,,,,
644894,1745087766953,0.0,186.78,,0.05,0.04,0.98,1,-0,0,0.98,1.13,87,3189,21.1,4.62,,13.9,1.12,95.2,,26.5,5,,,,,,,,,,,,0,0,0,0,0,0,0,0,0,0,0,0,0,0,0,0,,,,,0.0,,,,,,
644914,1745087766973,,,,,,,,,,,,,,,,,,,,,,,2,0,2,2,0.0,0.0,0.0,0.0,2.26,,,0,0,0,0,0,0,0,0,0,0,0,0,0,0,0,0,0,,,,,39.240154,-77.965332,3.29,36,3,0.8
644934,1745087766993,0.0,186.65,,0.04,-0.04,1.05,1,-0,0,1.05,1.13,93,3209,21.1,4.67,,13.9,1.12,95.2,,25.6,5,,,,,,,,,,,,0,0,0,0,0,0,0,0,0,0,0,0,0,0,0,0,,,,,0.0,,,,,,
644954,1745087767005,,,,,,,,,,,,,,,,,,,,,,,,,,,,,,,,,,0,0,0,0,0,0,0,0,0,0,0,0,0,0,0,0,,,,,,,,,,,
644974,1745087767025,0.0,186.78,,0.02,-0.1,1.08,2,-0,-0,1.08,1.13,96,3209,21.1,4.67,,13.84,1.095,95.2,,25.6,5,,,,,,,,,,,,0,0,0,0,0,0,0,0,0,0,0,0,0,0,0,0,,,,,0.0,,,,,,
644994,1745087767045,,,,,,,,,,,,,,,,,,,,,,,,,,,,,,,,,,0,0,0,0,0,0,0,0,0,0,0,0,0,0,0,0,,,,,,,,,,,
645014,1745087767065,0.0,186.65,,0.01,-0.06,1.03,2,-0,-0,1.03,1.13,91,3173,21.3,4.7,,13.88,1.101,95.2,,24.5,5,3,0,2,2,0.0,0.0,0.0,0.0,2.26,,,0,0,0,0,0,0,0,0,0,0,0,0,0,0,0,0,0,,,,0.0,39.240154,-77.965332,3.81,34,3,0.8
645034,1745087767085,,,,,,,,,,,,,,,,,,,,,,,,,,,,,,,,,,0,0,0,0,0,0,0,0,0,0,0,0,0,0,0,0,,,,,,,,,,,
645054,1745087767111,0.0,186.65,,0.02,-0.0,0.94,2,-0,-0,0.94,1.13,84,3041,23.7,4.37,,13.99,1.1,95.2,,24.5,5,,,,,,,,,,,,0,0,0,0,0,0,0,0,0,0,0,0,0,0,0,0,,,,,0.0,,,,,,
645074,1745087767131,,,,,,,,,,,,,,,,,,,,,,,,,,,,,,,,,,0,0,0,0,0,0,0,0,0,0,0,0,0,0,0,0,,,,,,,,,,,
645094,1745087767151,0.0,186.65,,0.05,0.07,0.88,2,-0,-0,0.88,1.13,78,3018,25.9,4.24,,14.02,1.099,95.2,,24.5,5,,,,,,,,,,,,0,0,0,0,0,0,0,0,0,0,0,0,0,0,0,0,,,,,0.0,,,,,,
645114,1745087767171,,,,,,,,,,,,,,,,,,,,,,,3,0,3,3,0.0,0.0,0.0,0.0,2.26,,,0,0,0,0,0,0,0,0,0,0,0,0,0,0,0,0,0,,,,,39.240154,-77.96534,4.35,34,3,0.8
645134,1745087767191,0.0,186.65,,0.08,0.13,0.85,2,-1,0,0.86,1.13,76,3135,27.9,4.1,,14.02,1.099,95.2,,24.0,5,,,,,,,,,,,,0,0,0,0,0,0,0,0,0,0,0,0,0,0,0,0,,,,,0.0,,,,,,
645154,1745087767211,,,,,,,,,,,,,,,,,,,,,,,,,,,,,,,,,,0,0,0,0,0,0,0,0,0,0,0,0,0,0,0,0,,,,,,,,,,,
645174,1745087767231,0.0,186.65,,0.09,0.2,0.84,2,-1,0,0.87,1.13,77,3135,27.9,4.1,,14.03,1.116,95.2,,24.0,5,,,,,,,,,,,,0,0,0,0,0,0,0,0,0,0,0,0,0,0,0,0,,,,,0.0,,,,,,
645194,1745087767251,,,,,,,,,,,,,,,,,,,,,,,,,,,,,,,,,,0,0,0,0,0,0,0,0,0,0,0,0,0,0,0,0,,,,,,,,,,,
645214,1745087767271,0.0,186.65,,0.1,0.18,0.86,1,-1,1,0.89,1.13,79,2965,29.1,4.36,,14.1,1.12,95.2,,23.7,5,3,0,3,3,0.0,0.0,0.0,0.0,2.26,,,0,0,0,0,0,0,0,0,0,0,0,0,0,0,0,0,0,,,,0.0,39.240154,-77.96534,4.42,34,3,0.8
645234,1745087767291,,,,,,,,,,,,,,,,,,,,,,,,,,,,,,,,,,0,0,0,0,0,0,0,0,0,0,0,0,0,0,0,0,,,,,,,,,,,
645254,1745087767313,0.0,186.65,,0.11,0.17,0.87,1,-1,1,0.89,1.13,79,2931,29.5,4.42,,14.11,1.135,95.2,,23.7,5,,,,,,,,,,,,0,0,0,0,0,0,0,0,0,0,0,0,0,0,0,0,,,,,0.0,,,,,,
645274,1745087767333,,,,,,,,,,,,,,,,,,,,,,,,,,,,,,,,,,0,0,0,0,0,0,0,0,0,0,0,0,0,0,0,0,,,,,,,,,,,
645294,1745087767353,0.0,186.65,,0.13,0.2,0.87,0,-1,1,0.9,1.13,80,3009,29.7,4.47,,14.1,1.164,95.2,,23.7,5,,,,,,,,,,,,0,0,0,0,0,0,0,0,0,0,0,0,0,0,0,0,,,,,0.0,,,,,,
645314,1745087767373,,,,,,,,,,,,,,,,,,,,,,,3,0,3,3,0.0,0.0,0.0,0.0,2.26,,,0,0,0,0,0,0,0,0,0,0,0,0,0,0,0,0,0,,,,,39.24015,-77.96534,4.99,34,3,0.8
645334,1745087767393,0.0,186.65,,0.09,0.12,0.95,0,-1,1,0.96,1.13,85,3342,30.0,4.5,,14.1,1.164,95.2,,23.8,5,,,,,,,,,,,,0,0,0,0,0,0,0,0,0,0,0,0,0,0,0,0,,,,,0.0,,,,,,
645354,1745087767415,,,,,,,,,,,,,,,,,,,,,,,,,,,,,,,,,,0,0,0,0,0,0,0,0,0,0,0,0,0,0,0,0,,,,,,,,,,,
645374,1745087767435,0.0,186.65,,0.1,0.18,0.97,0,-1,1,0.99,1.13,88,3342,30.0,4.5,,14.02,1.197,95.2,,23.8,5,,,,,,,,,,,,0,0,0,0,0,0,0,0,0,0,0,0,0,0,0,0,,,,,0.0,,,,,,
645394,1745087767455,,,,,,,,,,,,,,,,,,,,,,,,,,,,,,,,,,0,0,0,0,0,0,0,0,0,0,0,0,0,0,0,0,,,,,,,,,,,
645414,1745087767475,0.0,186.65,13.72,0.09,0.11,0.92,-0,-1,1,0.93,1.13,82,3602,30.0,4.64,15,13.94,1.159,95.2,173,30.1,5,3,0,3,3,0.0,0.0,0.0,0.0,2.26,0,0.0,0,0,0,0,0,0,0,0,0,0,0,0,0,0,0,0,0,0.0,0,0,0.0,39.24015,-77.96534,5.29,34,3,0.8
645434,1745087767495,,,,,,,,,,,,,,,,,,,,,,,,,,,,,,,,,,0,0,0,0,0,0,0,0,0,0,0,0,0,0,0,0,,,,,,,,,,,
645454,1745087767515,0.0,186.78,,0.06,0.15,1.0,-1,-1,1,1.02,1.13,90,4296,30.0,4.75,,13.84,1.042,95.2,,30.1,5,,,,,,,,,,,,0,0,0,0,0,0,0,0,0,0,0,0,0,0,0,0,,,,,0.0,,,,,,
645474,1745087767535,,,,,,,,,,,,,,,,,,,,,,,,,,,,,,,,,,0,0,0,0,0,0,0,0,0,0,0,0,0,0,0,0,,,,,,,,,,,
645494,1745087767555,0.0,186.78,,0.03,0.08,0.97,-1,-1,1,0.97,1.13,86,4748,30.0,4.65,,13.84,1.024,95.2,,30.1,5,,,,,,,,,,,,0,0,0,0,0,0,0,0,0,0,0,0,0,0,0,0,,,,,0.0,,,,,,
645514,1745087767575,,,,,,,,,,,,,,,,,,,,,,,4,0,4,4,0.0,0.0,0.0,0.0,2.26,,,0,0,0,0,0,0,0,0,0,0,0,0,0,0,0,0,0,,,,,39.24015,-77.96534,5.66,34,3,0.8
645534,1745087767595,0.0,186.65,,0.05,0.08,1.0,-0,-1,1,1.01,1.13,89,4929,30.1,4.6,,13.84,1.024,95.2,,39.3,5,,,,,,,,,,,,0,0,0,0,0,0,0,0,0,0,0,0,0,0,0,0,,,,,0.0,,,,,,
645554,1745087767612,,,,,,,,,,,,,,,,,,,,,,,,,,,,,,,,,,0,0,0,0,0,0,0,0,0,0,0,0,0,0,0,0,,,,,,,,,,,
645574,1745087767632,0.0,186.65,,0.06,0.05,0.98,0,-1,1,0.99,1.13,87,4929,30.1,4.6,,13.67,0.924,95.2,,39.3,5,,,,,,,,,,,,0,0,0,0,0,0,0,0,0,0,0,0,0,0,0,0,,,,,0.0,,,,,,
645594,1745087767652,,,,,,,,,,,,,,,,,,,,,,,,,,,,,,,,,,0,0,0,0,0,0,0,0,0,0,0,0,0,0,0,0,,,,,,,,,,,
645614,1745087767672,0.0,186.78,,0.05,0.06,0.98,0,-1,1,0.99,1.13,87,5091,30.1,4.57,,13.67,0.888,95.2,,43.0,5,4,0,4,4,0.0,0.0,0.0,0.0,2.26,,,0,0,0,0,0,0,0,0,0,0,0,0,0,0,0,0,0,,,,0.0,39.24015,-77.965347,6.05,34,3,0.8
645634,1745087767692,,,,,,,,,,,,,,,,,,,,,,,,,,,,,,,,,,0,0,0,0,0,0,0,0,0,0,0,0,0,0,0,0,,,,,,,,,,,
645654,1745087767714,0.0,186.65,,0.06,0.07,1.01,0,-1,1,1.02,1.13,90,5281,29.9,4.58,,13.52,0.929,95.2,,43.0,5,,,,,,,,,,,,0,0,0,0,0,0,0,0,0,0,0,0,0,0,0,0,,,,,0.0,,,,,,
645674,1745087767734,,,,,,,,,,,,,,,,,,,,,,,,,,,,,,,,,,0,0,0,0,0,0,0,0,0,0,0,0,0,0,0,0,,,,,,,,,,,
645694,1745087767754,0.0,186.78,,0.04,0.02,0.93,1,-0,1,0.93,1.13,83,5603,29.9,4.57,,13.44,0.982,95.2,,43.0,5,,,,,,,,,,,,0,0,0,0,0,0,0,0,0,0,0,0,0,0,0,0,,,,,0.0,,,,,,
645714,1745087767774,,,,,,,,,,,,,,,,,,,,,,,4,0,4,4,0.0,0.0,0.0,0.0,2.26,,,0,0,0,0,0,0,0,0,0,0,0,0,0,0,0,0,0,,,,,39.240147,-77.965347,6.51,34,3,0.8
645734,1745087767794,0.0,186.65,,0.02,0.04,1.0,0,-0,1,1.0,1.13,89,5870,28.1,4.62,,13.44,0.982,95.2,,47.6,5,,,,,,,,,,,,0,0,0,0,0,0,0,0,0,0,0,0,0,0,0,0,,,,,0.0,,,,,,
645754,1745087767814,,,,,,,,,,,,,,,,,,,,,,,,,,,,,,,,,,0,0,0,0,0,0,0,0,0,0,0,0,0,0,0,0,,,,,,,,,,,
645774,1745087767834,0.0,186.78,,0.06,0.03,1.08,0,-1,1,1.08,1.13,96,5870,28.1,4.62,,13.19,1.038,95.2,,47.6,5,,,,,,,,,,,,0,0,0,0,0,0,0,0,0,0,0,0,0,0,0,0,,,,,0.0,,,,,,
645794,1745087767854,,,,,,,,,,,,,,,,,,,,,,,,,,,,,,,,,,0,0,0,0,0,0,0,0,0,0,0,0,0,0,0,0,,,,,,,,,,,
645814,1745087767874,0.0,186.65,,0.05,-0.07,1.02,1,-1,1,1.03,1.13,91,6260,26.9,4.52,,12.93,1.084,95.2,,51.2,5,4,0,5,4,0.0,0.0,0.0,0.0,2.26,,,0,0,0,0,0,0,0,0,0,0,0,0,0,0,0,0,0,,,,0.0,39.240147,-77.965347,6.85,34,3,0.8
645834,1745087767894,,,,,,,,,,,,,,,,,,,,,,,,,,,,,,,,,,0,0,0,0,0,0,0,0,0,0,0,0,0,0,0,0,,,,,,,,,,,
645854,1745087767914,0.0,186.65,,0.06,-0.05,1.04,1,-1,1,1.04,1.13,92,6524,25.1,4.41,,12.69,1.087,95.2,,51.2,5,,,,,,,,,,,,0,0,0,0,0,0,0,0,0,0,0,0,0,0,0,0,,,,,0.0,,,,,,
645874,1745087767934,,,,,,,,,,,,,,,,,,,,,,,,,,,,,,,,,,0,0,0,0,0,0,0,0,0,0,0,0,0,0,0,0,,,,,,,,,,,
645894,1745087767954,0.0,186.65,,0.03,-0.03,1.04,1,-1,1,1.04,1.13,92,6792,24.0,4.42,,12.49,1.055,95.2,,51.2,5,,,,,,,,,,,,0,0,0,0,0,0,0,0,0,0,0,0,0,0,0,0,,,,,0.0,,,,,,
645914,1745087767974,,,,,,,,,,,,,,,,,,,,,,,5,0,5,5,0.0,0.0,0.0,0.0,2.26,,,0,0,0,0,0,0,0,0,0,0,0,0,0,0,0,0,0,,,,,39.240147,-77.965347,7.48,34,3,0.8
645934,1745087767994,0.0,186.65,,0.07,0.06,1.05,1,-1,1,1.06,1.13,94,6988,23.1,4.67,,12.49,1.055,95.2,,57.0,5,,,,,,,,,,,,0,0,0,0,0,0,0,0,0,0,0,0,0,0,0,0,,,,,0.0,,,,,,
645954,1745087768008,,,,,,,,,,,,,,,,,,,,,,,,,,,,,,,,,,0,0,0,0,0,0,0,0,0,0,0,0,0,0,0,0,,,,,,,,,,,
645974,1745087768028,0.0,186.65,,0.04,-0.15,1.06,2,-1,0,1.07,1.13,95,6988,23.1,4.67,,12.12,1.029,95.2,,57.0,5,,,,,,,,,,,,0,0,0,0,0,0,0,0,0,0,0,0,0,0,0,0,,,,,0.0,,,,,,
645994,1745087768048,,,,,,,,,,,,,,,,,,,,,,,,,,,,,,,,,,0,0,0,0,0,0,0,0,0,0,0,0,0,0,0,0,,,,,,,,,,,
646014,1745087768068,0.0,186.65,,0.05,-0.16,1.05,2,-1,0,1.06,1.13,94,7762,22.7,4.98,,11.87,0.992,95.2,,65.3,5,5,0,5,5,0.0,0.0,0.0,0.0,2.26,,,0,0,0,0,0,0,0,0,0,0,0,0,0,0,0,0,0,,,,0.0,39.240143,-77.965355,7.94,34,3,0.8
646034,1745087768088,,,,,,,,,,,,,,,,,,,,,,,,,,,,,,,,,,0,0,0,0,0,0,0,0,0,0,0,0,0,0,0,0,,,,,,,,,,,
646054,1745087768112,0.0,186.65,,0.01,-0.02,0.98,1,-1,1,0.98,1.13,87,8739,18.6,4.86,,11.01,0.859,95.2,,65.3,5,,,,,,,,,,,,0,0,0,0,0,0,0,0,0,0,0,0,0,0,0,0,,,,,0.0,,,,,,
646074,1745087768132,,,,,,,,,,,,,,,,,,,,,,,,,,,,,,,,,,0,0,0,0,0,0,0,0,0,0,0,0,0,0,0,0,,,,,,,,,,,
646094,1745087768152,0.0,186.53,,0.04,-0.02,1.0,2,-1,0,1.0,1.13,89,9698,15.0,3.5,,9.84,0.775,95.2,,65.3,5,,,,,,,,,,,,0,0,0,0,0,0,0,0,0,0,0,0,0,0,0,0,,,,,0.0,,,,,,
646114,1745087768172,,,,,,,,,,,,,,,,,,,,,,,5,0,5,5,0.0,0.0,0.0,0.0,2.26,,,0,0,0,0,0,0,0,0,0,0,0,0,0,0,0,0,0,,,,,39.240143,-77.965355,8.26,34,3,0.8
646134,1745087768192,0.0,186.4,,0.04,0.22,0.96,1,-1,0,0.98,1.13,87,10615,13.0,2.62,,9.84,0.775,95.2,,64.5,5,,,,,,,,,,,,0,0,0,0,0,0,0,0,0,0,0,0,0,0,0,0,,,,,0.0,,,,,,
646154,1745087768212,,,,,,,,,,,,,,,,,,,,,,,,,,,,,,,,,,0,0,0,0,0,0,0,0,0,0,0,0,0,0,0,0,,,,,,,,,,,
646174,1745087768232,0.0,186.4,,-0.0,0.1,0.97,2,-1,-0,0.98,1.13,87,10615,13.0,2.62,,8.79,0.755,95.2,,64.5,5,,,,,,,,,,,,0,0,0,0,0,0,0,0,0,0,0,0,0,0,0,0,,,,,0.0,,,,,,
646194,1745087768252,,,,,,,,,,,,,,,,,,,,,,,,,,,,,,,,,,0,0,0,0,0,0,0,0,0,0,0,0,0,0,0,0,,,,,,,,,,,
646214,1745087768272,0.0,186.27,,0.03,0.2,0.98,2,-1,0,1.0,1.13,89,11180,12.7,2.42,,8.14,0.795,95.2,,64.2,5,5,0,5,5,0.0,0.0,0.0,0.0,2.26,,,0,0,0,0,0,0,0,0,0,0,0,0,0,0,0,0,0,,,,0.0,39.240143,-77.965355,8.32,34,3,0.8
646234,1745087768292,,,,,,,,,,,,,,,,,,,,,,,,,,,,,,,,,,0,0,0,0,0,0,0,0,0,0,0,0,0,0,0,0,,,,,,,,,,,
646254,1745087768314,0.0,186.27,,0.0,0.08,1.02,3,-0,0,1.03,1.13,91,11491,12.5,2.2,,7.62,0.833,95.2,,64.2,5,,,,,,,,,,,,0,0,0,0,0,0,0,0,0,0,0,0,0,0,0,0,,,,,0.0,,,,,,
646274,1745087768334,,,,,,,,,,,,,,,,,,,,,,,,,,,,,,,,,,0,0,0,0,0,0,0,0,0,0,0,0,0,0,0,0,,,,,,,,,,,
646294,1745087768354,0.0,186.15,,-0.02,0.16,0.88,2,-0,1,0.9,1.13,80,11694,13.2,2.12,,7.42,0.855,95.2,,64.2,5,,,,,,,,,,,,0,0,0,0,0,0,0,0,0,0,0,0,0,0,0,0,,,,,0.0,,,,,,
646314,1745087768374,,,,,,,,,,,,,,,,,,,,,,,5,0,5,5,0.0,0.0,0.0,0.0,2.26,,,0,0,0,0,0,0,0,0,0,0,0,0,0,0,0,0,0,,,,,39.240143,-77.965355,8.21,34,3,0.8
646334,1745087768394,0.0,186.15,,-0.01,0.05,0.86,2,-1,0,0.86,1.13,76,11740,16.2,2.26,,7.42,0.855,95.2,,66.1,5,,,,,,,,,,,,0,0,0,0,0,0,0,0,0,0,0,0,0,0,0,0,,,,,0.0,,,,,,
646354,1745087768414,,,,,,,,,,,,,,,,,,,,,,,,,,,,,,,,,,0,0,0,0,0,0,0,0,0,0,0,0,0,0,0,0,,,,,,,,,,,
646374,1745087768434,0.0,186.15,,-0.01,0.18,0.89,3,-1,0,0.91,1.13,81,11740,16.2,2.26,,7.41,0.864,95.2,,66.1,5,,,,,,,,,,,,0,0,0,0,0,0,0,0,0,0,0,0,0,0,0,0,,,,,0.0,,,,,,
646394,1745087768454,,,,,,,,,,,,,,,,,,,,,,,,,,,,,,,,,,0,0,0,0,0,0,0,0,0,0,0,0,0,0,0,0,,,,,,,,,,,
646414,1745087768474,0.0,186.15,13.57,0.02,0.24,0.9,2,-1,1,0.93,1.13,82,11876,15.9,2.28,15,7.49,0.903,95.2,171,65.8,5,5,0,5,5,0.0,0.0,0.0,0.0,2.26,0,0.0,0,0,0,0,0,0,0,0,0,0,0,0,0,0,0,0,0,0.0,0,0,0.0,39.240139,-77.965355,8.2,34,3,0.8
646434,1745087768494,,,,,,,,,,,,,,,,,,,,,,,,,,,,,,,,,,0,0,0,0,0,0,0,0,0,0,0,0,0,0,0,0,,,,,,,,,,,
646454,1745087768514,0.0,186.15,,0.02,0.23,0.85,2,-0,1,0.88,1.13,78,11936,0.1,1.4,,6.02,0.944,95.2,,65.8,5,,,,,,,,,,,,0,0,0,0,0,0,0,0,0,0,0,0,0,0,0,0,,,,,0.0,,,,,,
646474,1745087768534,,,,,,,,,,,,,,,,,,,,,,,,,,,,,,,,,,0,0,0,0,0,0,0,0,0,0,0,0,0,0,0,0,,,,,,,,,,,
646494,1745087768554,0.0,186.02,,-0.02,0.11,0.89,3,-0,0,0.89,1.13,79,11476,0.1,1.4,,5.11,0.953,95.2,,65.8,5,,,,,,,,,,,,0,0,0,0,0,0,0,0,0,0,0,0,0,0,0,0,,,,,0.0,,,,,,
646514,1745087768574,,,,,,,,,,,,,,,,,,,,,,,5,0,5,5,0.0,0.0,0.0,0.0,2.26,,,0,0,0,0,0,0,0,0,0,0,0,0,0,0,0,0,0,,,,,39.240139,-77.965355,8.15,34,3,0.8
646534,1745087768594,0.0,186.02,,-0.02,0.21,0.92,2,-0,0,0.94,1.13,83,11116,0.2,1.4,,5.11,0.953,95.2,,65.2,5,,,,,,,,,,,,0,0,0,0,0,0,0,0,0,0,0,0,0,0,0,0,,,,,0.0,,,,,,
646554,1745087768613,,,,,,,,,,,,,,,,,,,,,,,,,,,,,,,,,,0,0,0,0,0,0,0,0,0,0,0,0,0,0,0,0,,,,,,,,,,,
646574,1745087768633,0.0,186.02,,-0.04,0.14,0.89,3,-1,-0,0.9,1.13,80,11116,0.2,1.4,,4.68,1.028,95.2,,65.2,5,,,,,,,,,,,,0,0,0,0,0,0,0,0,0,0,0,0,0,0,0,0,,,,,0.0,,,,,,
646594,1745087768653,,,,,,,,,,,,,,,,,,,,,,,,,,,,,,,,,,0,0,0,0,0,0,0,0,0,0,0,0,0,0,0,0,,,,,,,,,,,
646614,1745087768673,0.0,186.02,,-0.07,0.18,0.86,3,-1,0,0.88,1.13,78,10796,0.1,1.4,,4.47,1.061,95.2,,64.7,5,5,0,5,5,0.0,0.0,0.0,0.0,2.26,,,0,0,0,0,0,0,0,0,0,0,0,0,0,0,0,0,0,,,,0.0,39.240135,-77.965355,8.12,34,3,0.8
646634,1745087768693,,,,,,,,,,,,,,,,,,,,,,,,,,,,,,,,,,0,0,0,0,0,0,0,0,0,0,0,0,0,0,0,0,,,,,,,,,,,
646654,1745087768713,0.0,186.02,,-0.09,0.25,0.86,3,-1,1,0.9,1.13,80,10457,0.0,1.4,,4.49,1.046,95.2,,64.7,5,,,,,,,,,,,,0,0,0,0,0,0,0,0,0,0,0,0,0,0,0,0,,,,,0.0,,,,,,
646674,1745087768733,,,,,,,,,,,,,,,,,,,,,,,,,,,,,,,,,,0,0,0,0,0,0,0,0,0,0,0,0,0,0,0,0,,,,,,,,,,,
646694,1745087768753,0.0,186.02,,-0.09,0.26,0.97,3,-1,1,1.0,1.13,89,10128,0.0,1.4,,4.43,1.027,95.2,,64.7,5,,,,,,,,,,,,0,0,0,0,0,0,0,0,0,0,0,0,0,0,0,0,,,,,0.0,,,,,,
646714,1745087768773,,,,,,,,,,,,,,,,,,,,,,,5,0,5,5,0.0,0.0,0.0,0.0,2.26,,,0,0,0,0,0,0,0,0,0,0,0,0,0,0,0,0,0,,,,,39.240135,-77.965363,7.85,34,3,0.8
646734,1745087768793,0.0,186.02,,-0.04,0.28,0.98,3,-1,1,1.02,1.13,90,9814,9.8,1.4,,4.43,1.027,95.2,,65.4,5,,,,,,,,,,,,0,0,0,0,0,0,0,0,0,0,0,0,0,0,0,0,,,,,0.0,,,,,,
646754,1745087768813,,,,,,,,,,,,,,,,,,,,,,,,,,,,,,,,,,0,0,0,0,0,0,0,0,0,0,0,0,0,0,0,0,,,,,,,,,,,
646774,1745087768833,0.0,185.77,,-0.03,0.28,0.93,4,-0,0,0.97,1.13,86,9814,9.8,1.4,,5.26,1.009,95.2,,65.4,5,,,,,,,,,,,,0,0,0,0,0,0,0,0,0,0,0,0,0,0,0,0,,,,,0.0,,,,,,
646794,1745087768853,,,,,,,,,,,,,,,,,,,,,,,,,,,,,,,,,,0,0,0,0,0,0,0,0,0,0,0,0,0,0,0,0,,,,,,,,,,,
646814,1745087768873,0.0,185.77,,-0.07,0.16,0.96,3,-0,0,0.98,1.13,86,9357,13.9,1.83,,6.14,1.004,95.2,,63.0,5,5,0,5,4,0.0,0.0,0.0,0.0,2.26,,,0,0,0,0,0,0,0,0,0,0,0,0,0,0,0,0,0,,,,0.0,39.240135,-77.965363,7.68,34,3,0.8
646834,1745087768893,,,,,,,,,,,,,,,,,,,,,,,,,,,,,,,,,,0,0,0,0,0,0,0,0,0,0,0,0,0,0,0,0,,,,,,,,,,,
646854,1745087768913,0.0,185.65,,-0.1,0.08,1.02,4,-0,0,1.02,1.13,91,8971,14.6,2.04,,6.9,1.094,95.2,,63.0,5,,,,,,,,,,,,0,0,0,0,0,0,0,0,0,0,0,0,0,0,0,0,,,,,0.0,,,,,,
646874,1745087768933,,,,,,,,,,,,,,,,,,,,,,,,,,,,,,,,,,0,0,0,0,0,0,0,0,0,0,0,0,0,0,0,0,,,,,,,,,,,
646894,1745087768953,0.0,185.52,,-0.09,-0.1,1.06,3,-0,0,1.07,1.13,95,8877,15.0,2.37,,7.61,1.25,95.2,,63.0,5,,,,,,,,,,,,0,0,0,0,0,0,0,0,0,0,0,0,0,0,0,0,,,,,0.0,,,,,,
646914,1745087768973,,,,,,,,,,,,,,,,,,,,,,,5,0,5,5,0.0,0.0,0.0,0.0,2.26,,,0,0,0,0,0,0,0,0,0,0,0,0,0,0,0,0,0,,,,,39.240131,-77.965363,7.45,34,3,0.8
646934,1745087768993,0.0,185.27,,-0.11,-0.19,1.07,2,-0,0,1.09,1.13,97,8976,1.1,1.78,,7.61,1.25,95.2,,63.2,5,,,,,,,,,,,,0,0,0,0,0,0,0,0,0,0,0,0,0,0,0,0,,,,,0.0,,,,,,
646954,1745087769005,,,,,,,,,,,,,,,,,,,,,,,,,,,,,,,,,,0,0,0,0,0,0,0,0,0,0,0,0,0,0,0,0,,,,,,,,,,,
646974,1745087769025,0.0,185.14,,-0.11,-0.23,1.05,1,-0,0,1.08,1.13,96,8976,1.1,1.78,,6.99,1.251,95.2,,63.2,5,,,,,,,,,,,,0,0,0,0,0,0,0,0,0,0,0,0,0,0,0,0,,,,,0.0,,,,,,
646994,1745087769045,,,,,,,,,,,,,,,,,,,,,,,,,,,,,,,,,,0,0,0,0,0,0,0,0,0,0,0,0,0,0,0,0,,,,,,,,,,,
647014,1745087769065,0.0,185.02,,-0.09,-0.17,1.08,2,-0,0,1.1,1.13,98,8658,0.0,1.4,,5.99,1.187,95.2,,61.0,5,5,0,4,5,0.0,0.0,0.0,0.0,2.26,,,0,0,0,0,0,0,0,0,0,0,0,0,0,0,0,0,0,,,,0.0,39.240131,-77.96537,7.18,34,3,0.8
647034,1745087769085,,,,,,,,,,,,,,,,,,,,,,,,,,,,,,,,,,0,0,0,0,0,0,0,0,0,0,0,0,0,0,0,0,,,,,,,,,,,
647054,1745087769113,0.0,185.02,,-0.07,-0.05,1.03,1,-0,0,1.03,1.13,92,8150,0.0,1.4,,5.62,1.12,95.2,,61.0,5,,,,,,,,,,,,0,0,0,0,0,0,0,0,0,0,0,0,0,0,0,0,,,,,0.0,,,,,,
647074,1745087769133,,,,,,,,,,,,,,,,,,,,,,,,,,,,,,,,,,0,0,0,0,0,0,0,0,0,0,0,0,0,0,0,0,,,,,,,,,,,
647094,1745087769153,0.0,184.89,,-0.09,0.01,1.01,-0,-0,1,1.01,1.13,89,7546,0.0,1.4,,5.55,1.247,95.2,,61.0,5,,,,,,,,,,,,0,0,0,0,0,0,0,0,0,0,0,0,0,0,0,0,,,,,0.0,,,,,,
647114,1745087769173,,,,,,,,,,,,,,,,,,,,,,,4,0,4,4,0.0,0.0,0.0,0.0,2.26,,,0,0,0,0,0,0,0,0,0,0,0,0,0,0,0,0,0,,,,,39.240128,-77.96537,7.01,34,3,0.8
647134,1745087769193,0.0,184.89,,-0.05,0.06,1.02,0,-0,0,1.02,1.13,90,7027,0.0,1.4,,5.55,1.247,95.2,,56.1,5,,,,,,,,,,,,0,0,0,0,0,0,0,0,0,0,0,0,0,0,0,0,,,,,0.0,,,,,,
647154,1745087769211,,,,,,,,,,,,,,,,,,,,,,,,,,,,,,,,,,0,0,0,0,0,0,0,0,0,0,0,0,0,0,0,0,,,,,,,,,,,
647174,1745087769231,0.0,184.89,,-0.06,-0.04,0.98,0,-0,0,0.98,1.13,87,7027,0.0,1.4,,5.74,1.247,95.2,,56.1,5,,,,,,,,,,,,0,0,0,0,0,0,0,0,0,0,0,0,0,0,0,0,,,,,0.0,,,,,,
647194,1745087769251,,,,,,,,,,,,,,,,,,,,,,,,,,,,,,,,,,0,0,0,0,0,0,0,0,0,0,0,0,0,0,0,0,,,,,,,,,,,
647214,1745087769271,0.0,184.77,,-0.03,0.04,1.09,1,-0,-0,1.09,1.13,97,6501,5.6,1.86,,6.63,1.247,95.2,,53.7,5,4,0,4,4,0.0,0.0,0.0,0.0,2.26,,,0,0,0,0,0,0,0,0,0,0,0,0,0,0,0,0,0,,,,0.0,39.240128,-77.96537,6.84,34,3,0.8
647234,1745087769291,,,,,,,,,,,,,,,,,,,,,,,,,,,,,,,,,,0,0,0,0,0,0,0,0,0,0,0,0,0,0,0,0,,,,,,,,,,,
647254,1745087769315,0.0,184.89,,-0.03,-0.01,1.07,2,-0,-1,1.07,1.13,95,5967,6.6,2.12,,7.69,1.248,95.2,,53.7,5,,,,,,,,,,,,0,0,0,0,0,0,0,0,0,0,0,0,0,0,0,0,,,,,0.0,,,,,,
647274,1745087769335,,,,,,,,,,,,,,,,,,,,,,,,,,,,,,,,,,0,0,0,0,0,0,0,0,0,0,0,0,0,0,0,0,,,,,,,,,,,
647294,1745087769355,0.0,184.89,,-0.03,0.05,1.11,1,-0,-0,1.11,1.13,98,5507,6.6,2.13,,8.77,1.249,95.2,,53.7,5,,,,,,,,,,,,0,0,0,0,0,0,0,0,0,0,0,0,0,0,0,0,,,,,0.0,,,,,,
647314,1745087769375,,,,,,,,,,,,,,,,,,,,,,,4,0,4,4,0.0,0.0,0.0,0.0,2.26,,,0,0,0,0,0,0,0,0,0,0,0,0,0,0,0,0,0,,,,,39.240128,-77.96537,6.72,34,3,0.8
647334,1745087769395,0.0,184.89,,-0.04,0.05,1.05,1,-0,-1,1.05,1.13,93,5149,10.5,2.16,,8.77,1.249,95.2,,45.8,5,,,,,,,,,,,,0,0,0,0,0,0,0,0,0,0,0,0,0,0,0,0,,,,,0.0,,,,,,
647354,1745087769413,,,,,,,,,,,,,,,,,,,,,,,,,,,,,,,,,,0,0,0,0,0,0,0,0,0,0,0,0,0,0,0,0,,,,,,,,,,,
647374,1745087769433,0.0,185.02,,-0.01,0.04,1.07,1,0,-0,1.07,1.13,95,5149,10.5,2.16,,9.93,1.249,95.2,,45.8,5,,,,,,,,,,,,0,0,0,0,0,0,0,0,0,0,0,0,0,0,0,0,,,,,0.0,,,,,,
647394,1745087769453,,,,,,,,,,,,,,,,,,,,,,,,,,,,,,,,,,0,0,0,0,0,0,0,0,0,0,0,0,0,0,0,0,,,,,,,,,,,
647414,1745087769473,0.0,185.02,13.64,0.01,0.1,1.13,1,0,0,1.13,1.13,100,4714,15.3,2.79,15,11.22,1.25,95.2,169,36.4,5,4,0,4,4,0.0,0.0,0.0,0.0,2.26,0,0.0,0,0,0,0,0,0,0,0,0,0,0,0,0,0,0,0,0,0.0,0,0,0.0,39.240124,-77.965378,6.85,34,3,0.8
647434,1745087769493,,,,,,,,,,,,,,,,,,,,,,,,,,,,,,,,,,0,0,0,0,0,0,0,0,0,0,0,0,0,0,0,0,,,,,,,,,,,
647454,1745087769513,0.0,185.02,,0.01,0.03,1.02,1,0,-0,1.02,1.13,90,4249,18.0,3.86,,12.33,1.222,95.2,,36.4,5,,,,,,,,,,,,0,0,0,0,0,0,0,0,0,0,0,0,0,0,0,0,,,,,0.0,,,,,,
647474,1745087769533,,,,,,,,,,,,,,,,,,,,,,,,,,,,,,,,,,0,0,0,0,0,0,0,0,0,0,0,0,0,0,0,0,,,,,,,,,,,
647494,1745087769553,0.0,185.02,,0.01,0.07,1.03,1,0,-0,1.04,1.13,92,4036,18.8,4.05,,13.04,1.196,95.2,,36.4,5,,,,,,,,,,,,0,0,0,0,0,0,0,0,0,0,0,0,0,0,0,0,,,,,0.0,,,,,,
647514,1745087769573,,,,,,,,,,,,,,,,,,,,,,,4,0,4,4,0.0,0.0,0.0,0.0,2.26,,,0,0,0,0,0,0,0,0,0,0,0,0,0,0,0,0,0,,,,,39.240124,-77.965378,7.03,34,3,0.8
647534,1745087769593,0.0,184.89,,-0.0,0.08,1.05,1,0,-0,1.05,1.13,93,3843,19.1,4.18,,13.04,1.196,95.2,,31.4,5,,,,,,,,,,,,0,0,0,0,0,0,0,0,0,0,0,0,0,0,0,0,,,,,0.0,,,,,,
647554,1745087769614,,,,,,,,,,,,,,,,,,,,,,,,,,,,,,,,,,0,0,0,0,0,0,0,0,0,0,0,0,0,0,0,0,,,,,,,,,,,
647574,1745087769634,0.0,184.77,,-0.01,0.05,1.03,0,0,0,1.03,1.13,91,3843,19.1,4.18,,13.32,1.248,95.2,,31.4,5,,,,,,,,,,,,0,0,0,0,0,0,0,0,0,0,0,0,0,0,0,0,,,,,0.0,,,,,,
647594,1745087769654,,,,,,,,,,,,,,,,,,,,,,,,,,,,,,,,,,0,0,0,0,0,0,0,0,0,0,0,0,0,0,0,0,,,,,,,,,,,
647614,1745087769674,0.0,184.77,,-0.03,0.02,1.0,1,0,-0,1.0,1.13,89,3882,19.1,4.27,,13.39,1.247,95.2,,30.2,5,4,0,4,4,0.0,0.0,0.0,0.0,2.26,,,0,0,0,0,0,0,0,0,0,0,0,0,0,0,0,0,0,,,,0.0,39.240124,-77.965378,7.09,34,3,0.8
647634,1745087769694,,,,,,,,,,,,,,,,,,,,,,,,,,,,,,,,,,0,0,0,0,0,0,0,0,0,0,0,0,0,0,0,0,,,,,,,,,,,
647654,1745087769714,0.0,184.77,,-0.02,-0.01,1.0,1,0,-0,1.0,1.13,89,3797,19.1,4.24,,13.49,1.247,95.2,,30.2,5,,,,,,,,,,,,0,0,0,0,0,0,0,0,0,0,0,0,0,0,0,0,,,,,0.0,,,,,,
647674,1745087769734,,,,,,,,,,,,,,,,,,,,,,,,,,,,,,,,,,0,0,0,0,0,0,0,0,0,0,0,0,0,0,0,0,,,,,,,,,,,
647694,1745087769754,0.0,184.77,,-0.02,-0.04,1.0,1,0,-0,1.0,1.13,89,3893,19.0,4.28,,13.44,1.247,95.2,,30.2,5,,,,,,,,,,,,0,0,0,0,0,0,0,0,0,0,0,0,0,0,0,0,,,,,0.0,,,,,,
647714,1745087769774,,,,,,,,,,,,,,,,,,,,,,,5,0,5,4,0.0,0.0,0.0,0.0,2.26,,,0,0,0,0,0,0,0,0,0,0,0,0,0,0,0,0,0,,,,,39.240124,-77.965378,7.18,34,3,0.8
647734,1745087769794,0.0,184.64,,0.01,0.01,1.02,1,0,-0,1.02,1.13,90,3818,19.1,4.23,,13.44,1.247,95.2,,30.5,5,,,,,,,,,,,,0,0,0,0,0,0,0,0,0,0,0,0,0,0,0,0,,,,,0.0,,,,,,
647754,1745087769812,,,,,,,,,,,,,,,,,,,,,,,,,,,,,,,,,,0,0,0,0,0,0,0,0,0,0,0,0,0,0,0,0,,,,,,,,,,,
647774,1745087769832,0.0,184.64,,0.01,0.1,1.04,1,0,0,1.04,1.13,92,3818,19.1,4.23,,13.53,1.248,95.2,,30.5,5,,,,,,,,,,,,0,0,0,0,0,0,0,0,0,0,0,0,0,0,0,0,,,,,0.0,,,,,,
647794,1745087769852,,,,,,,,,,,,,,,,,,,,,,,,,,,,,,,,,,0,0,0,0,0,0,0,0,0,0,0,0,0,0,0,0,,,,,,,,,,,
647814,1745087769872,0.0,184.64,,-0.0,0.03,1.01,0,0,0,1.01,1.13,89,3972,19.3,4.23,,13.55,1.249,95.2,,31.2,5,4,0,5,5,0.0,0.0,0.0,0.0,2.26,,,0,0,0,0,0,0,0,0,0,0,0,0,0,0,0,0,0,,,,0.0,39.240124,-77.965385,7.28,34,3,0.8
647834,1745087769892,,,,,,,,,,,,,,,,,,,,,,,,,,,,,,,,,,0,0,0,0,0,0,0,0,0,0,0,0,0,0,0,0,,,,,,,,,,,
647854,1745087769914,0.0,184.77,,-0.0,-0.03,0.95,1,0,0,0.95,1.13,84,4002,19.4,4.22,,13.49,1.249,95.2,,31.2,5,,,,,,,,,,,,0,0,0,0,0,0,0,0,0,0,0,0,0,0,0,0,,,,,0.0,,,,,,
647874,1745087769934,,,,,,,,,,,,,,,,,,,,,,,,,,,,,,,,,,0,0,0,0,0,0,0,0,0,0,0,0,0,0,0,0,,,,,,,,,,,
647894,1745087769954,0.0,184.77,,0.01,-0.0,0.97,1,0,-0,0.97,1.13,86,3901,19.5,4.17,,13.49,1.212,95.2,,31.2,5,,,,,,,,,,,,0,0,0,0,0,0,0,0,0,0,0,0,0,0,0,0,,,,,0.0,,,,,,
647914,1745087769974,,,,,,,,,,,,,,,,,,,,,,,5,0,5,5,0.0,0.0,0.0,0.0,2.26,,,0,0,0,0,0,0,0,0,0,0,0,0,0,0,0,0,0,,,,,39.24012,-77.965385,7.42,34,3,0.8
647934,1745087769994,0.0,184.64,,0.0,0.07,0.98,1,0,0,0.99,1.13,87,3821,19.5,4.24,,13.49,1.212,95.2,,30.7,5,,,,,,,,,,,,0,0,0,0,0,0,0,0,0,0,0,0,0,0,0,0,,,,,0.0,,,,,,
647954,1745087770006,,,,,,,,,,,,,,,,,,,,,,,,,,,,,,,,,,0,0,0,0,0,0,0,0,0,0,0,0,0,0,0,0,,,,,,,,,,,
647974,1745087770026,0.0,184.77,,-0.0,0.07,1.01,1,0,0,1.01,1.13,89,3821,19.5,4.24,,13.47,1.166,95.2,,30.7,5,,,,,,,,,,,,0,0,0,0,0,0,0,0,0,0,0,0,0,0,0,0,,,,,0.0,,,,,,
647994,1745087770046,,,,,,,,,,,,,,,,,,,,,,,,,,,,,,,,,,0,0,0,0,0,0,0,0,0,0,0,0,0,0,0,0,,,,,,,,,,,
648014,1745087770066,0.0,184.77,,-0.02,0.06,1.03,0,0,1,1.03,1.13,91,3886,19.5,4.29,,13.43,1.183,95.2,,30.2,5,5,0,5,5,0.0,0.0,0.0,0.0,2.26,,,0,0,0,0,0,0,0,0,0,0,0,0,0,0,0,0,0,,,,0.0,39.24012,-77.965385,7.45,36,3,0.8
648034,1745087770086,,,,,,,,,,,,,,,,,,,,,,,,,,,,,,,,,,0,0,0,0,0,0,0,0,0,0,0,0,0,0,0,0,,,,,,,,,,,
648054,1745087770108,0.0,184.77,,-0.03,-0.03,1.0,1,0,0,1.01,1.13,89,3939,16.6,4.17,,13.49,1.227,95.2,,30.2,5,,,,,,,,,,,,0,0,0,0,0,0,0,0,0,0,0,0,0,0,0,0,,,,,0.0,,,,,,
648074,1745087770128,,,,,,,,,,,,,,,,,,,,,,,,,,,,,,,,,,0,0,0,0,0,0,0,0,0,0,0,0,0,0,0,0,,,,,,,,,,,
648094,1745087770148,0.0,184.77,,-0.03,-0.05,1.01,1,0,0,1.02,1.13,90,3828,15.8,4.12,,13.4,1.149,95.2,,30.2,5,,,,,,,,,,,,0,0,0,0,0,0,0,0,0,0,0,0,0,0,0,0,,,,,0.0,,,,,,
648114,1745087770168,,,,,,,,,,,,,,,,,,,,,,,5,0,5,5,0.0,0.0,0.0,0.0,2.26,,,0,0,0,0,0,0,0,0,0,0,0,0,0,0,0,0,0,,,,,39.240116,-77.965385,7.57,36,3,0.8
648134,1745087770188,0.0,184.77,,-0.02,-0.01,1.01,1,0,0,1.01,1.13,90,3624,15.5,4.16,,13.4,1.149,95.2,,29.3,5,,,,,,,,,,,,0,0,0,0,0,0,0,0,0,0,0,0,0,0,0,0,,,,,0.0,,,,,,
648154,1745087770214,,,,,,,,,,,,,,,,,,,,,,,,,,,,,,,,,,0,0,0,0,0,0,0,0,0,0,0,0,0,0,0,0,,,,,,,,,,,
648174,1745087770234,0.0,184.77,,-0.01,0.08,1.01,0,0,1,1.02,1.13,90,3624,15.5,4.16,,13.43,1.009,95.2,,29.3,5,,,,,,,,,,,,0,0,0,0,0,0,0,0,0,0,0,0,0,0,0,0,,,,,0.0,,,,,,
648194,1745087770254,,,,,,,,,,,,,,,,,,,,,,,,,,,,,,,,,,0,0,0,0,0,0,0,0,0,0,0,0,0,0,0,0,,,,,,,,,,,
648214,1745087770274,0.0,184.77,,-0.02,-0.0,1.0,2,0,-0,1.0,1.13,88,3519,15.3,4.26,,13.49,0.967,95.2,,26.7,5,5,0,5,5,0.0,0.0,0.0,0.0,2.26,,,0,0,0,0,0,0,0,0,0,0,0,0,0,0,0,0,0,,,,0.0,39.240116,-77.965393,7.68,36,3,0.8
648234,1745087770294,,,,,,,,,,,,,,,,,,,,,,,,,,,,,,,,,,0,0,0,0,0,0,0,0,0,0,0,0,0,0,0,0,,,,,,,,,,,
648254,1745087770314,0.0,184.89,,0.01,0.06,0.97,1,-0,0,0.97,1.13,86,3300,15.4,4.34,,13.6,0.965,95.2,,26.7,5,,,,,,,,,,,,0,0,0,0,0,0,0,0,0,0,0,0,0,0,0,0,,,,,0.0,,,,,,
648274,1745087770334,,,,,,,,,,,,,,,,,,,,,,,,,,,,,,,,,,0,0,0,0,0,0,0,0,0,0,0,0,0,0,0,0,,,,,,,,,,,
648294,1745087770354,0.0,184.89,,0.01,-0.0,1.04,1,0,0,1.04,1.13,92,3286,15.4,4.39,,13.63,0.992,95.2,,26.7,5,,,,,,,,,,,,0,0,0,0,0,0,0,0,0,0,0,0,0,0,0,0,,,,,0.0,,,,,,
648314,1745087770374,,,,,,,,,,,,,,,,,,,,,,,5,0,5,5,0.0,0.0,0.0,0.0,2.26,,,0,0,0,0,0,0,0,0,0,0,0,0,0,0,0,0,0,,,,,39.240116,-77.965393,8.01,36,3,0.8
648334,1745087770394,0.0,184.89,,0.01,-0.03,1.01,1,-0,0,1.01,1.13,89,3243,15.3,4.41,,13.63,0.992,95.2,,24.9,5,,,,,,,,,,,,0,0,0,0,0,0,0,0,0,0,0,0,0,0,0,0,,,,,0.0,,,,,,
648354,1745087770414,,,,,,,,,,,,,,,,,,,,,,,,,,,,,,,,,,0,0,0,0,0,0,0,0,0,0,0,0,0,0,0,0,,,,,,,,,,,
648374,1745087770434,0.0,185.02,,0.03,-0.03,1.05,0,-0,1,1.05,1.13,93,3243,15.3,4.41,,13.61,1.035,95.2,,24.9,5,,,,,,,,,,,,0,0,0,0,0,0,0,0,0,0,0,0,0,0,0,0,,,,,0.0,,,,,,
648394,1745087770454,,,,,,,,,,,,,,,,,,,,,,,,,,,,,,,,,,0,0,0,0,0,0,0,0,0,0,0,0,0,0,0,0,,,,,,,,,,,
648414,1745087770474,0.0,185.02,13.71,0.01,-0.07,1.03,1,-0,0,1.03,1.13,91,3334,15.3,4.3,15,13.63,1.086,95.2,167,26.0,5,5,0,5,5,0.0,0.0,0.0,0.0,2.26,0,0.0,0,0,0,0,0,0,0,0,0,0,0,0,0,0,0,0,0,0.0,0,-0,0.0,39.240112,-77.965393,8.32,36,3,0.8
648434,1745087770494,,,,,,,,,,,,,,,,,,,,,,,,,,,,,,,,,,0,0,0,0,0,0,0,0,0,0,0,0,0,0,0,0,,,,,,,,,,,
648454,1745087770510,0.0,185.14,,0.04,0.05,0.98,0,-0,0,0.98,1.13,86,3316,15.4,4.37,,13.61,1.094,95.2,,26.0,5,,,,,,,,,,,,0,0,0,0,0,0,0,0,0,0,0,0,0,0,0,0,,,,,0.0,,,,,,
648474,1745087770530,,,,,,,,,,,,,,,,,,,,,,,,,,,,,,,,,,0,0,0,0,0,0,0,0,0,0,0,0,0,0,0,0,,,,,,,,,,,
648494,1745087770550,0.0,185.14,,0.06,0.05,1.02,-0,-1,1,1.02,1.13,90,3136,15.4,4.39,,13.61,1.081,95.2,,26.0,5,,,,,,,,,,,,0,0,0,0,0,0,0,0,0,0,0,0,0,0,0,0,,,,,0.0,,,,,,
648514,1745087770570,,,,,,,,,,,,,,,,,,,,,,,6,0,5,6,0.0,0.0,0.0,0.0,2.26,,,0,0,0,0,0,0,0,0,0,0,0,0,0,0,0,0,0,,,,,39.240112,-77.965393,8.66,36,3,0.8
648534,1745087770590,0.0,185.14,,0.04,-0.02,1.08,-0,-0,1,1.08,1.13,95,3050,15.4,4.42,,13.61,1.081,95.2,,24.3,5,,,,,,,,,,,,0,0,0,0,0,0,0,0,0,0,0,0,0,0,0,0,,,,,0.0,,,,,,
648554,1745087770609,,,,,,,,,,,,,,,,,,,,,,,,,,,,,,,,,,0,0,0,0,0,0,0,0,0,0,0,0,0,0,0,0,,,,,,,,,,,
648574,1745087770629,0.0,185.27,,0.03,-0.08,1.15,0,-0,1,1.15,1.15,100,3050,15.4,4.42,,13.71,1.057,95.2,,24.3,5,,,,,,,,,,,,0,0,0,0,0,0,0,0,0,0,0,0,0,0,0,0,,,,,0.0,,,,,,
648594,1745087770649,,,,,,,,,,,,,,,,,,,,,,,,,,,,,,,,,,0,0,0,0,0,0,0,0,0,0,0,0,0,0,0,0,,,,,,,,,,,
648614,1745087770669,0.0,185.27,,-0.0,-0.13,1.15,1,-0,0,1.15,1.15,100,3048,15.5,4.51,,13.71,1.061,95.2,,24.0,5,6,0,6,6,0.0,0.0,0.0,0.0,2.26,,,0,0,0,0,0,0,0,0,0,0,0,0,0,0,0,0,0,,,,0.0,39.240108,-77.965393,8.9,36,3,0.8
648634,1745087770689,,,,,,,,,,,,,,,,,,,,,,,,,,,,,,,,,,0,0,0,0,0,0,0,0,0,0,0,0,0,0,0,0,,,,,,,,,,,
648654,1745087770709,0.0,185.27,,0.01,-0.03,1.07,1,-0,0,1.07,1.15,93,3258,15.3,4.46,,13.67,1.103,95.2,,24.0,5,,,,,,,,,,,,0,0,0,0,0,0,0,0,0,0,0,0,0,0,0,0,,,,,0.0,,,,,,
648674,1745087770729,,,,,,,,,,,,,,,,,,,,,,,,,,,,,,,,,,0,0,0,0,0,0,0,0,0,0,0,0,0,0,0,0,,,,,,,,,,,
648694,1745087770749,0.0,185.27,,0.03,0.02,1.05,1,-0,1,1.05,1.15,91,3126,15.3,4.39,,13.71,1.095,95.2,,24.0,5,,,,,,,,,,,,0,0,0,0,0,0,0,0,0,0,0,0,0,0,0,0,,,,,0.0,,,,,,
648714,1745087770769,,,,,,,,,,,,,,,,,,,,,,,6,0,6,6,0.0,0.0,0.0,0.0,2.26,,,0,0,0,0,0,0,0,0,0,0,0,0,0,0,0,0,0,,,,,39.240108,-77.965393,9.09,36,3,0.8
648734,1745087770789,0.0,185.27,,0.03,0.0,1.07,0,-0,1,1.07,1.15,93,3138,15.2,4.47,,13.71,1.095,95.2,,24.6,5,,,,,,,,,,,,0,0,0,0,0,0,0,0,0,0,0,0,0,0,0,0,,,,,0.0,,,,,,
648754,1745087770809,,,,,,,,,,,,,,,,,,,,,,,,,,,,,,,,,,0,0,0,0,0,0,0,0,0,0,0,0,0,0,0,0,,,,,,,,,,,
648774,1745087770829,0.0,185.27,,0.02,-0.1,1.09,1,-0,1,1.1,1.15,95,3138,15.2,4.47,,13.69,1.066,95.2,,24.6,5,,,,,,,,,,,,0,0,0,0,0,0,0,0,0,0,0,0,0,0,0,0,,,,,0.0,,,,,,
648794,1745087770849,,,,,,,,,,,,,,,,,,,,,,,,,,,,,,,,,,0,0,0,0,0,0,0,0,0,0,0,0,0,0,0,0,,,,,,,,,,,
648814,1745087770869,0.0,185.39,,0.05,-0.02,1.07,0,-0,1,1.07,1.15,93,3390,15.3,4.42,,13.67,1.055,95.2,,26.3,5,6,0,6,6,0.0,0.0,0.0,0.0,2.26,,,0,0,0,0,0,0,0,0,0,0,0,0,0,0,0,0,0,,,,0.0,39.240105,-77.965393,9.51,36,3,0.8
648834,1745087770889,,,,,,,,,,,,,,,,,,,,,,,,,,,,,,,,,,0,0,0,0,0,0,0,0,0,0,0,0,0,0,0,0,,,,,,,,,,,
648854,1745087770913,0.0,185.27,,0.04,-0.06,1.06,1,-0,0,1.06,1.15,92,3410,15.4,4.3,,13.65,1.037,95.2,,26.3,5,,,,,,,,,,,,0,0,0,0,0,0,0,0,0,0,0,0,0,0,0,0,,,,,0.0,,,,,,
648874,1745087770933,,,,,,,,,,,,,,,,,,,,,,,,,,,,,,,,,,0,0,0,0,0,0,0,0,0,0,0,0,0,0,0,0,,,,,,,,,,,
648894,1745087770953,0.0,185.39,,0.05,0.0,1.06,0,-0,1,1.06,1.15,92,3400,15.4,4.33,,13.64,0.989,95.2,,26.3,5,,,,,,,,,,,,0,0,0,0,0,0,0,0,0,0,0,0,0,0,0,0,,,,,0.0,,,,,,
648914,1745087770973,,,,,,,,,,,,,,,,,,,,,,,6,0,6,7,0.0,0.0,0.0,0.0,2.26,,,0,0,0,0,0,0,0,0,0,0,0,0,0,0,0,0,0,,,,,39.240105,-77.965401,9.78,36,3,0.8
648934,1745087770993,0.0,185.39,,0.04,-0.04,1.11,0,-0,1,1.11,1.15,96,3199,15.5,4.36,,13.64,0.989,95.2,,25.4,5,,,,,,,,,,,,0,0,0,0,0,0,0,0,0,0,0,0,0,0,0,0,,,,,0.0,,,,,,
648954,1745087771005,,,,,,,,,,,,,,,,,,,,,,,,,,,,,,,,,,0,0,0,0,0,0,0,0,0,0,0,0,0,0,0,0,,,,,,,,,,,
648974,1745087771025,0.0,185.52,,0.02,-0.07,1.07,1,-0,0,1.07,1.15,93,3199,15.5,4.36,,13.67,1.004,95.2,,25.4,5,,,,,,,,,,,,0,0,0,0,0,0,0,0,0,0,0,0,0,0,0,0,,,,,0.0,,,,,,
648994,1745087771045,,,,,,,,,,,,,,,,,,,,,,,,,,,,,,,,,,0,0,0,0,0,0,0,0,0,0,0,0,0,0,0,0,,,,,,,,,,,
649014,1745087771065,0.0,185.52,,0.03,0.0,1.01,1,-0,-0,1.01,1.15,87,3081,15.4,4.4,,13.75,1.019,95.2,,23.7,5,7,0,7,6,0.0,0.0,0.0,0.0,2.26,,,0,0,0,0,0,0,0,0,0,0,0,0,0,0,0,0,0,,,,0.0,39.240105,-77.965401,10.18,36,3,0.8
649034,1745087771085,,,,,,,,,,,,,,,,,,,,,,,,,,,,,,,,,,0,0,0,0,0,0,0,0,0,0,0,0,0,0,0,0,,,,,,,,,,,
649054,1745087771113,0.0,185.39,,0.02,0.01,0.99,1,-0,-0,0.99,1.15,86,2989,15.4,4.5,,13.72,1.042,95.2,,23.7,5,,,,,,,,,,,,0,0,0,0,0,0,0,0,0,0,0,0,0,0,0,0,,,,,0.0,,,,,,
649074,1745087771133,,,,,,,,,,,,,,,,,,,,,,,,,,,,,,,,,,0,0,0,0,0,0,0,0,0,0,0,0,0,0,0,0,,,,,,,,,,,
649094,1745087771153,0.0,185.52,,0.02,-0.01,1.03,1,-0,-0,1.03,1.15,90,2912,15.3,4.48,,13.8,1.061,95.2,,23.7,5,,,,,,,,,,,,0,0,0,0,0,0,0,0,0,0,0,0,0,0,0,0,,,,,0.0,,,,,,
649114,1745087771173,,,,,,,,,,,,,,,,,,,,,,,7,0,7,6,0.0,247.0,0.0,0.0,2.26,,,0,0,0,0,0,0,0,0,0,0,0,0,0,0,0,0,0,,,,,39.240101,-77.965401,10.48,36,3,0.8
649134,1745087771193,0.0,185.52,,0.02,-0.0,1.05,1,-0,-0,1.05,1.15,91,2802,15.3,4.45,,13.8,1.061,95.2,,21.4,5,,,,,,,,,,,,0,0,0,0,0,0,0,0,0,0,0,0,0,0,0,0,,,,,0.0,,,,,,
649154,1745087771211,,,,,,,,,,,,,,,,,,,,,,,,,,,,,,,,,,0,0,0,0,0,0,0,0,0,0,0,0,0,0,0,0,,,,,,,,,,,
649174,1745087771231,0.0,185.52,,0.02,-0.03,1.01,1,-0,-0,1.01,1.15,88,2802,15.3,4.45,,13.86,1.072,95.2,,21.4,5,,,,,,,,,,,,0,0,0,0,0,0,0,0,0,0,0,0,0,0,0,0,,,,,0.0,,,,,,
649194,1745087771251,,,,,,,,,,,,,,,,,,,,,,,,,,,,,,,,,,0,0,0,0,0,0,0,0,0,0,0,0,0,0,0,0,,,,,,,,,,,
649214,1745087771271,0.0,185.65,,-0.0,-0.03,1.06,1,-0,-0,1.06,1.15,92,2738,15.2,4.44,,13.9,1.083,95.2,,21.9,5,7,0,7,7,0.0,19.0,0.0,0.0,2.26,,,0,0,0,0,0,0,0,0,0,0,0,0,0,0,0,0,0,,,,0.0,39.240101,-77.965408,10.9,36,3,0.8
649234,1745087771291,,,,,,,,,,,,,,,,,,,,,,,,,,,,,,,,,,0,0,0,0,0,0,0,0,0,0,0,0,0,0,0,0,,,,,,,,,,,
649254,1745087771313,0.0,185.65,,-0.01,-0.07,1.15,2,-0,-0,1.15,1.15,100,2861,15.2,4.48,,13.82,1.111,95.2,,21.9,5,,,,,,,,,,,,0,0,0,0,0,0,0,0,0,0,0,0,0,0,0,0,,,,,0.0,,,,,,
649274,1745087771333,,,,,,,,,,,,,,,,,,,,,,,,,,,,,,,,,,0,0,0,0,0,0,0,0,0,0,0,0,0,0,0,0,,,,,,,,,,,
649294,1745087771353,0.0,185.65,,-0.03,-0.13,1.2,2,-0,-0,1.21,1.21,100,3089,15.2,4.5,,13.71,1.017,95.2,,21.9,5,,,,,,,,,,,,0,0,0,0,0,0,0,0,0,0,0,0,0,0,0,0,,,,,0.0,,,,,,
649314,1745087771373,,,,,,,,,,,,,,,,,,,,,,,7,0,7,7,0.0,57.0,0.0,0.0,2.26,,,0,0,0,0,0,0,0,0,0,0,0,0,0,0,0,0,0,,,,,39.240097,-77.965408,11.21,36,3,0.8
649334,1745087771393,0.0,185.65,,-0.05,-0.13,1.17,2,-0,-1,1.18,1.21,97,3191,15.2,4.49,,13.71,1.017,95.2,,23.5,5,,,,,,,,,,,,0,0,0,0,0,0,0,0,0,0,0,0,0,0,0,0,,,,,0.0,,,,,,
649354,1745087771413,,,,,,,,,,,,,,,,,,,,,,,,,,,,,,,,,,0,0,0,0,0,0,0,0,0,0,0,0,0,0,0,0,,,,,,,,,,,
649374,1745087771433,0.0,185.65,,-0.01,-0.03,1.07,2,-0,-1,1.08,1.21,89,3191,15.2,4.49,,13.71,0.936,95.2,,23.5,5,,,,,,,,,,,,0,0,0,0,0,0,0,0,0,0,0,0,0,0,0,0,,,,,0.0,,,,,,
649394,1745087771453,,,,,,,,,,,,,,,,,,,,,,,,,,,,,,,,,,0,0,0,0,0,0,0,0,0,0,0,0,0,0,0,0,,,,,,,,,,,
649414,1745087771473,0.0,185.65,13.7,0.01,-0.0,1.07,2,-0,-0,1.07,1.21,89,3172,15.3,4.37,15,13.68,0.916,95.2,167,24.8,5,8,0,7,7,0.0,239.0,0.0,0.0,2.26,0,0.0,0,0,0,0,0,0,0,0,0,0,0,0,0,0,0,0,0,0.0,0,0,0.0,39.240097,-77.965416,11.58,36,3,0.8
649434,1745087771493,,,,,,,,,,,,,,,,,,,,,,,,,,,,,,,,,,0,0,0,0,0,0,0,0,0,0,0,0,0,0,0,0,,,,,,,,,,,
649454,1745087771515,0.0,185.77,,0.01,-0.05,1.13,1,-0,0,1.13,1.13,100,3127,15.4,4.47,,13.68,0.951,95.2,,24.8,5,,,,,,,,,,,,0,0,0,0,0,0,0,0,0,0,0,0,0,0,0,0,,,,,0.0,,,,,,
649474,1745087771535,,,,,,,,,,,,,,,,,,,,,,,,,,,,,,,,,,0,0,0,0,0,0,0,0,0,0,0,0,0,0,0,0,,,,,,,,,,,
649494,1745087771555,0.0,185.77,,0.02,-0.08,1.08,2,-0,-0,1.09,1.13,96,3296,15.3,4.43,,13.65,0.983,95.2,,24.8,5,,,,,,,,,,,,0,0,0,0,0,0,0,0,0,0,0,0,0,0,0,0,,,,,0.0,,,,,,
649514,1745087771575,,,,,,,,,,,,,,,,,,,,,,,8,0,8,8,0.0,53.0,0.0,0.0,2.26,,,0,0,0,0,0,0,0,0,0,0,0,0,0,0,0,0,0,,,,,39.240093,-77.965416,12.0,36,3,0.8
649534,1745087771595,0.0,185.77,,0.03,-0.05,1.12,1,-0,0,1.12,1.13,99,3309,12.8,4.26,,13.65,0.983,95.2,,26.3,5,,,,,,,,,,,,0,0,0,0,0,0,0,0,0,0,0,0,0,0,0,0,,,,,0.0,,,,,,
649554,1745087771614,,,,,,,,,,,,,,,,,,,,,,,,,,,,,,,,,,0,0,0,0,0,0,0,0,0,0,0,0,0,0,0,0,,,,,,,,,,,
649574,1745087771634,0.0,185.9,,0.02,-0.11,1.14,1,-0,0,1.14,1.14,100,3309,12.8,4.26,,13.6,0.976,95.2,,26.3,5,,,,,,,,,,,,0,0,0,0,0,0,0,0,0,0,0,0,0,0,0,0,,,,,0.0,,,,,,
649594,1745087771654,,,,,,,,,,,,,,,,,,,,,,,,,,,,,,,,,,0,0,0,0,0,0,0,0,0,0,0,0,0,0,0,0,,,,,,,,,,,
649614,1745087771674,0.0,185.9,,-0.0,-0.15,1.17,1,-0,-0,1.18,1.18,100,3143,10.8,4.25,,13.52,0.976,95.2,,23.3,5,8,0,8,8,0.0,34.0,0.0,0.0,2.26,,,0,0,0,0,0,0,0,0,0,0,0,0,0,0,0,0,0,,,,0.0,39.240089,-77.965416,12.4,36,3,0.8
649634,1745087771694,,,,,,,,,,,,,,,,,,,,,,,,,,,,,,,,,,0,0,0,0,0,0,0,0,0,0,0,0,0,0,0,0,,,,,,,,,,,
649654,1745087771714,0.0,185.9,,-0.03,-0.15,1.19,2,-0,-1,1.2,1.2,100,2990,10.6,4.28,,13.55,0.992,95.2,,23.3,5,,,,,,,,,,,,0,0,0,0,0,0,0,0,0,0,0,0,0,0,0,0,,,,,0.0,,,,,,
649674,1745087771734,,,,,,,,,,,,,,,,,,,,,,,,,,,,,,,,,,0,0,0,0,0,0,0,0,0,0,0,0,0,0,0,0,,,,,,,,,,,
649694,1745087771754,0.0,186.02,,-0.04,-0.19,1.22,2,-0,-1,1.23,1.23,100,2915,8.3,4.23,,13.53,1.014,95.2,,23.3,5,,,,,,,,,,,,0,0,0,0,0,0,0,0,0,0,0,0,0,0,0,0,,,,,0.0,,,,,,
649714,1745087771774,,,,,,,,,,,,,,,,,,,,,,,8,0,8,9,0.0,24.0,0.0,0.0,2.26,,,0,0,0,0,0,0,0,0,0,0,0,0,0,0,0,0,0,,,,,39.240089,-77.965424,12.89,36,3,0.8
649734,1745087771794,0.0,186.02,,-0.06,-0.21,1.26,2,-0,-1,1.28,1.28,100,2921,7.3,4.13,,13.53,1.014,95.2,,22.9,5,,,,,,,,,,,,0,0,0,0,0,0,0,0,0,0,0,0,0,0,0,0,,,,,0.0,,,,,,
649754,1745087771812,,,,,,,,,,,,,,,,,,,,,,,,,,,,,,,,,,0,0,0,0,0,0,0,0,0,0,0,0,0,0,0,0,,,,,,,,,,,
649774,1745087771832,0.0,186.02,,-0.03,-0.2,1.29,1,-0,-0,1.31,1.31,100,2921,7.3,4.13,,13.47,1.002,95.2,,22.9,5,,,,,,,,,,,,0,0,0,0,0,0,0,0,0,0,0,0,0,0,0,0,,,,,0.0,,,,,,
649794,1745087771852,,,,,,,,,,,,,,,,,,,,,,,,,,,,,,,,,,0,0,0,0,0,0,0,0,0,0,0,0,0,0,0,0,,,,,,,,,,,
649814,1745087771872,0.0,186.02,,-0.02,-0.19,1.23,2,-0,-0,1.25,1.31,95,2812,7.2,4.02,,13.48,0.979,95.2,,21.3,5,9,0,9,9,0.0,40.0,0.0,0.0,2.26,,,0,0,0,0,0,0,0,0,0,0,0,0,0,0,0,0,1,,,,0.0,39.240086,-77.965424,13.21,36,3,0.8
649834,1745087771892,,,,,,,,,,,,,,,,,,,,,,,,,,,,,,,,,,0,0,0,0,0,0,0,0,0,0,0,0,0,0,0,0,,,,,,,,,,,
649854,1745087771912,0.0,185.9,,-0.01,-0.14,1.19,2,-0,-0,1.2,1.31,92,2609,7.1,3.84,,13.56,0.965,95.2,,21.3,5,,,,,,,,,,,,0,0,0,0,0,0,0,0,0,0,0,0,0,0,0,0,,,,,0.0,,,,,,
649874,1745087771932,,,,,,,,,,,,,,,,,,,,,,,,,,,,,,,,,,0,0,0,0,0,0,0,0,0,0,0,0,0,0,0,0,,,,,,,,,,,
649894,1745087771952,0.0,186.02,,-0.0,-0.11,1.17,1,-0,-0,1.18,1.31,90,2367,7.1,3.64,,13.72,0.968,95.2,,21.3,5,,,,,,,,,,,,0,0,0,0,0,0,0,0,0,0,0,0,0,0,0,0,,,,,0.0,,,,,,
649914,1745087771972,,,,,,,,,,,,,,,,,,,,,,,9,0,9,9,0.0,0.0,0.0,0.0,2.26,,,0,0,0,0,0,0,0,0,0,0,0,0,0,0,0,0,1,,,,,39.240082,-77.965431,13.54,36,3,0.8
649934,1745087771992,0.0,186.02,,0.0,-0.12,1.15,1,-0,-0,1.15,1.31,88,2180,7.2,3.6,,13.72,0.968,95.2,,17.7,5,,,,,,,,,,,,0,0,0,0,0,0,0,0,0,0,0,0,0,0,0,0,,,,,0.0,,,,,,
649954,1745087772006,,,,,,,,,,,,,,,,,,,,,,,,,,,,,,,,,,0,0,0,0,0,0,0,0,0,0,0,0,0,0,0,0,,,,,,,,,,,
649974,1745087772026,0.0,186.02,,-0.01,-0.11,1.13,1,-0,-0,1.13,1.31,87,2180,7.2,3.6,,13.8,0.961,95.2,,17.7,5,,,,,,,,,,,,0,0,0,0,0,0,0,0,0,0,0,0,0,0,0,0,,,,,0.0,,,,,,
649994,1745087772046,,,,,,,,,,,,,,,,,,,,,,,,,,,,,,,,,,0,0,0,0,0,0,0,0,0,0,0,0,0,0,0,0,,,,,,,,,,,
650014,1745087772066,0.0,186.02,,-0.01,-0.13,1.12,1,-0,-0,1.13,1.31,86,2034,7.3,3.46,,13.96,0.962,95.2,,16.6,5,9,0,9,9,0.0,0.0,0.0,0.0,2.25,,,0,0,0,0,0,0,0,0,0,0,0,0,0,0,0,0,2,,,,0.0,39.240082,-77.965431,13.89,35,3,0.8
650034,1745087772086,,,,,,,,,,,,,,,,,,,,,,,,,,,,,,,,,,0,0,0,0,0,0,0,0,0,0,0,0,0,0,0,0,,,,,,,,,,,
650054,1745087772112,0.0,186.15,,-0.02,-0.11,1.11,1,-0,-1,1.12,1.31,85,2017,7.3,3.34,,13.9,0.965,95.2,,16.6,5,,,,,,,,,,,,0,0,0,0,0,0,0,0,0,0,0,0,0,0,0,0,,,,,0.0,,,,,,
650074,1745087772132,,,,,,,,,,,,,,,,,,,,,,,,,,,,,,,,,,0,0,0,0,0,0,0,0,0,0,0,0,0,0,0,0,,,,,,,,,,,
650094,1745087772152,0.0,186.15,,-0.04,-0.11,1.09,2,-0,-1,1.1,1.31,84,2015,7.3,3.33,,13.9,0.979,95.2,,16.6,5,,,,,,,,,,,,0,0,0,0,0,0,0,0,0,0,0,0,0,0,0,0,,,,,0.0,,,,,,
650114,1745087772172,,,,,,,,,,,,,,,,,,,,,,,9,0,9,9,0.0,249.0,0.0,0.0,2.26,,,0,0,0,0,0,0,0,0,0,0,0,0,0,0,0,0,2,,,,,39.240078,-77.965431,14.02,35,3,0.8
650134,1745087772192,0.0,186.15,,-0.04,-0.08,1.09,1,-0,-0,1.1,1.31,84,2050,7.3,3.3,,13.9,0.979,95.2,,15.8,5,,,,,,,,,,,,0,0,0,0,0,0,0,0,0,0,0,0,0,0,0,0,,,,,0.0,,,,,,
650154,1745087772212,,,,,,,,,,,,,,,,,,,,,,,,,,,,,,,,,,0,0,0,0,0,0,0,0,0,0,0,0,0,0,0,0,,,,,,,,,,,
650174,1745087772232,0.0,186.15,,-0.06,-0.08,1.08,1,-0,-0,1.08,1.31,83,2050,7.3,3.3,,13.92,1.003,95.2,,15.8,5,,,,,,,,,,,,0,0,0,0,0,0,0,0,0,0,0,0,0,0,0,0,,,,,0.0,,,,,,
650194,1745087772252,,,,,,,,,,,,,,,,,,,,,,,,,,,,,,,,,,0,0,0,0,0,0,0,0,0,0,0,0,0,0,0,0,,,,,,,,,,,
650214,1745087772272,0.0,186.15,,-0.07,-0.04,1.06,1,-0,-0,1.07,1.31,81,2066,7.2,3.29,,13.88,1.025,95.2,,15.9,5,9,0,9,9,0.0,249.0,0.0,0.0,2.26,,,0,0,0,0,0,0,0,0,0,0,0,0,0,0,0,0,0,,,,0.0,39.240078,-77.965431,13.91,36,3,0.8
650234,1745087772292,,,,,,,,,,,,,,,,,,,,,,,,,,,,,,,,,,0,0,0,0,0,0,0,0,0,0,0,0,0,0,0,0,,,,,,,,,,,
650254,1745087772314,0.0,186.15,,-0.09,-0.04,1.06,1,-0,-0,1.06,1.31,81,2112,7.2,3.27,,13.96,1.067,95.2,,15.9,5,,,,,,,,,,,,0,0,0,0,0,0,0,0,0,0,0,0,0,0,0,0,,,,,0.0,,,,,,
650274,1745087772334,,,,,,,,,,,,,,,,,,,,,,,,,,,,,,,,,,0,0,0,0,0,0,0,0,0,0,0,0,0,0,0,0,,,,,,,,,,,
650294,1745087772354,0.0,186.27,,-0.1,-0.04,1.05,1,-0,-0,1.05,1.31,80,2061,8.2,3.27,,13.92,1.124,95.2,,15.9,5,,,,,,,,,,,,0,0,0,0,0,0,0,0,0,0,0,0,0,0,0,0,,,,,0.0,,,,,,
650314,1745087772374,,,,,,,,,,,,,,,,,,,,,,,8,0,8,8,0.0,8.0,0.0,0.0,2.26,,,0,0,0,0,0,0,0,0,0,0,0,0,0,0,0,0,0,,,,,39.240074,-77.965439,13.56,36,3,0.8
650334,1745087772394,0.0,186.27,,-0.1,-0.01,1.05,1,-0,0,1.05,1.31,80,2101,8.3,3.35,,13.92,1.124,95.2,,17.0,5,,,,,,,,,,,,0,0,0,0,0,0,0,0,0,0,0,0,0,0,0,0,,,,,0.0,,,,,,
650354,1745087772414,,,,,,,,,,,,,,,,,,,,,,,,,,,,,,,,,,0,0,0,0,0,0,0,0,0,0,0,0,0,0,0,0,,,,,,,,,,,
650374,1745087772434,0.0,186.27,,-0.09,0.0,1.04,1,-0,-0,1.04,1.31,80,2101,8.3,3.35,,14.02,1.155,95.2,,17.0,5,,,,,,,,,,,,0,0,0,0,0,0,0,0,0,0,0,0,0,0,0,0,,,,,0.0,,,,,,
650394,1745087772454,,,,,,,,,,,,,,,,,,,,,,,,,,,,,,,,,,0,0,0,0,0,0,0,0,0,0,0,0,0,0,0,0,,,,,,,,,,,
650414,1745087772474,0.0,186.27,13.71,-0.09,-0.03,1.02,1,-0,-0,1.03,1.31,78,2055,8.4,3.36,15,13.96,1.166,95.2,167,16.2,5,8,0,8,8,0.0,240.0,0.0,0.0,2.26,0,0.0,0,0,0,0,0,0,0,0,0,0,0,0,0,0,0,0,0,0.0,0,-0,0.0,39.24007,-77.965439,13.37,36,3,0.8
650434,1745087772494,,,,,,,,,,,,,,,,,,,,,,,,,,,,,,,,,,0,0,0,0,0,0,0,0,0,0,0,0,0,0,0,0,,,,,,,,,,,
650454,1745087772514,0.0,186.15,,-0.08,-0.03,1.0,1,-0,-0,1.0,1.31,77,0,8.6,3.48,,14.0,1.189,95.2,,16.2,5,,,,,,,,,,,,0,0,0,0,0,0,0,0,0,0,0,0,0,0,0,0,,,,,0.0,,,,,,
650474,1745087772534,,,,,,,,,,,,,,,,,,,,,,,,,,,,,,,,,,0,0,0,0,0,0,0,0,0,0,0,0,0,0,0,0,,,,,,,,,,,
650494,1745087772554,0.0,186.15,,-0.07,-0.0,0.98,1,-0,-0,0.99,1.31,75,2023,8.7,3.46,,14.0,1.241,95.2,,16.2,5,,,,,,,,,,,,0,0,0,0,0,0,0,0,0,0,0,0,0,0,0,0,,,,,0.0,,,,,,
650514,1745087772574,,,,,,,,,,,,,,,,,,,,,,,8,0,8,9,0.0,0.0,0.0,0.0,2.26,,,0,0,0,0,0,0,0,0,0,0,0,0,0,0,0,0,0,,,,,39.240067,-77.965446,13.33,36,3,0.8
650534,1745087772594,0.0,186.27,,-0.06,-0.01,0.99,1,-0,-0,0.99,1.31,76,2217,8.8,3.24,,14.0,1.241,95.2,,16.7,5,,,,,,,,,,,,0,0,0,0,0,0,0,0,0,0,0,0,0,0,0,0,,,,,0.0,,,,,,
650554,1745087772613,,,,,,,,,,,,,,,,,,,,,,,,,,,,,,,,,,0,0,0,0,0,0,0,0,0,0,0,0,0,0,0,0,,,,,,,,,,,
650574,1745087772633,0.0,186.27,,-0.06,-0.0,1.0,1,-0,-0,1.01,1.31,77,2217,8.8,3.24,,14.0,1.251,95.2,,16.7,5,,,,,,,,,,,,0,0,0,0,0,0,0,0,0,0,0,0,0,0,0,0,,,,,0.0,,,,,,
650594,1745087772653,,,,,,,,,,,,,,,,,,,,,,,,,,,,,,,,,,0,0,0,0,0,0,0,0,0,0,0,0,0,0,0,0,,,,,,,,,,,
650614,1745087772673,0.0,186.27,,-0.07,0.02,1.01,1,-0,0,1.01,1.31,77,2099,8.9,3.32,,13.99,1.228,95.2,,16.0,5,9,0,9,9,0.0,241.0,0.0,0.0,2.26,,,0,0,0,0,0,0,0,0,0,0,0,0,0,0,0,0,2,,,,0.0,39.240067,-77.965446,13.31,36,3,0.8
650634,1745087772693,,,,,,,,,,,,,,,,,,,,,,,,,,,,,,,,,,0,0,0,0,0,0,0,0,0,0,0,0,0,0,0,0,,,,,,,,,,,
650654,1745087772713,0.0,186.4,,-0.09,-0.0,1.01,1,-0,-0,1.02,1.31,78,2062,9.0,3.26,,14.02,1.17,95.2,,16.0,5,,,,,,,,,,,,0,0,0,0,0,0,0,0,0,0,0,0,0,0,0,0,,,,,0.0,,,,,,
650674,1745087772733,,,,,,,,,,,,,,,,,,,,,,,,,,,,,,,,,,0,0,0,0,0,0,0,0,0,0,0,0,0,0,0,0,,,,,,,,,,,
650694,1745087772753,0.0,186.4,,-0.09,-0.0,1.0,1,-0,-0,1.0,1.31,76,1919,9.0,3.31,,14.06,1.137,95.2,,16.0,5,,,,,,,,,,,,0,0,0,0,0,0,0,0,0,0,0,0,0,0,0,0,,,,,0.0,,,,,,
650714,1745087772773,,,,,,,,,,,,,,,,,,,,,,,8,0,9,8,0.0,0.0,0.0,0.0,2.26,,,0,0,0,0,0,0,0,0,0,0,0,0,0,0,0,0,2,,,,,39.240063,-77.965454,13.6,36,3,0.8
650734,1745087772793,0.0,186.4,,-0.11,-0.01,1.02,1,-0,-0,1.02,1.31,78,1862,9.0,3.3,,14.06,1.137,95.2,,15.7,5,,,,,,,,,,,,0,0,0,0,0,0,0,0,0,0,0,0,0,0,0,0,,,,,0.0,,,,,,
650754,1745087772813,,,,,,,,,,,,,,,,,,,,,,,,,,,,,,,,,,0,0,0,0,0,0,0,0,0,0,0,0,0,0,0,0,,,,,,,,,,,
650774,1745087772833,0.0,186.4,,-0.1,-0.01,1.02,1,-0,-0,1.02,1.31,78,1862,9.0,3.3,,14.03,1.172,95.2,,15.7,5,,,,,,,,,,,,0,0,0,0,0,0,0,0,0,0,0,0,0,0,0,0,,,,,0.0,,,,,,
650794,1745087772853,,,,,,,,,,,,,,,,,,,,,,,,,,,,,,,,,,0,0,0,0,0,0,0,0,0,0,0,0,0,0,0,0,,,,,,,,,,,
650814,1745087772873,0.0,186.4,,-0.1,-0.04,1.02,1,-0,-0,1.03,1.31,79,1914,8.9,3.35,,13.95,1.196,95.2,,14.8,5,8,0,8,8,0.0,224.0,0.0,0.0,2.26,,,0,0,0,0,0,0,0,0,0,0,0,0,0,0,0,0,0,,,,0.0,39.240063,-77.965454,13.54,36,3,0.8
650834,1745087772893,,,,,,,,,,,,,,,,,,,,,,,,,,,,,,,,,,0,0,0,0,0,0,0,0,0,0,0,0,0,0,0,0,,,,,,,,,,,
650854,1745087772913,0.0,186.4,,-0.1,-0.02,1.01,1,-0,0,1.02,1.31,78,1887,9.0,3.37,,14.02,1.202,95.2,,14.8,5,,,,,,,,,,,,0,0,0,0,0,0,0,0,0,0,0,0,0,0,0,0,,,,,0.0,,,,,,
650874,1745087772933,,,,,,,,,,,,,,,,,,,,,,,,,,,,,,,,,,0,0,0,0,0,0,0,0,0,0,0,0,0,0,0,0,,,,,,,,,,,
650894,1745087772953,0.0,186.4,,-0.1,-0.0,1.03,1,-0,0,1.04,1.31,79,2252,9.0,3.3,,13.91,1.199,95.2,,14.8,5,,,,,,,,,,,,0,0,0,0,0,0,0,0,0,0,0,0,0,0,0,0,,,,,0.0,,,,,,
650914,1745087772973,,,,,,,,,,,,,,,,,,,,,,,8,0,8,8,0.0,240.0,0.0,0.0,2.26,,,0,0,0,0,0,0,0,0,0,0,0,0,0,0,0,0,0,,,,,39.240059,-77.965462,13.27,36,3,0.8
650934,1745087772993,0.0,186.4,,-0.11,-0.01,1.05,1,-0,0,1.05,1.31,80,2315,9.1,3.44,,13.91,1.199,95.2,,16.9,5,,,,,,,,,,,,0,0,0,0,0,0,0,0,0,0,0,0,0,0,0,0,,,,,0.0,,,,,,
650954,1745087773005,,,,,,,,,,,,,,,,,,,,,,,,,,,,,,,,,,0,0,0,0,0,0,0,0,0,0,0,0,0,0,0,0,,,,,,,,,,,
650974,1745087773025,0.0,186.4,,-0.07,-0.01,1.03,1,-0,0,1.03,1.31,79,2315,9.1,3.44,,13.9,1.201,95.2,,16.9,5,,,,,,,,,,,,0,0,0,0,0,0,0,0,0,0,0,0,0,0,0,0,,,,,0.0,,,,,,
650994,1745087773045,,,,,,,,,,,,,,,,,,,,,,,,,,,,,,,,,,0,0,0,0,0,0,0,0,0,0,0,0,0,0,0,0,,,,,,,,,,,
651014,1745087773065,0.0,186.27,,-0.05,-0.01,1.02,1,-0,0,1.02,1.31,78,2414,9.1,3.59,,13.9,1.211,95.2,,17.7,5,8,0,8,8,0.0,248.0,0.0,0.0,2.26,,,0,0,0,0,0,0,0,0,0,0,0,0,0,0,0,0,0,,,,0.0,39.240055,-77.965462,13.02,36,3,0.8
651034,1745087773085,,,,,,,,,,,,,,,,,,,,,,,,,,,,,,,,,,0,0,0,0,0,0,0,0,0,0,0,0,0,0,0,0,,,,,,,,,,,
651054,1745087773111,0.0,186.27,,-0.04,0.01,1.03,1,-0,0,1.03,1.31,79,2236,9.8,3.57,,13.99,1.202,95.2,,17.7,5,,,,,,,,,,,,0,0,0,0,0,0,0,0,0,0,0,0,0,0,0,0,,,,,0.0,,,,,,
651074,1745087773131,,,,,,,,,,,,,,,,,,,,,,,,,,,,,,,,,,0,0,0,0,0,0,0,0,0,0,0,0,0,0,0,0,,,,,,,,,,,
651094,1745087773151,0.0,186.27,,-0.03,0.0,1.03,1,-0,0,1.03,1.31,78,1991,10.6,3.56,,14.06,1.199,95.2,,17.7,5,,,,,,,,,,,,0,0,0,0,0,0,0,0,0,0,0,0,0,0,0,0,,,,,0.0,,,,,,
651114,1745087773171,,,,,,,,,,,,,,,,,,,,,,,8,0,8,9,0.0,16.0,0.0,0.0,2.26,,,0,0,0,0,0,0,0,0,0,0,0,0,0,0,0,0,0,,,,,39.240055,-77.965462,13.06,36,3,0.8
651134,1745087773191,0.0,186.15,,-0.05,-0.0,1.02,1,-0,0,1.03,1.31,78,1943,10.7,3.54,,14.06,1.199,95.2,,16.5,5,,,,,,,,,,,,0,0,0,0,0,0,0,0,0,0,0,0,0,0,0,0,,,,,0.0,,,,,,
651154,1745087773213,,,,,,,,,,,,,,,,,,,,,,,,,,,,,,,,,,0,0,0,0,0,0,0,0,0,0,0,0,0,0,0,0,,,,,,,,,,,
651174,1745087773233,0.0,186.15,,-0.04,0.0,1.03,1,-0,0,1.03,1.31,79,1943,10.7,3.54,,14.03,1.218,95.2,,16.5,5,,,,,,,,,,,,0,0,0,0,0,0,0,0,0,0,0,0,0,0,0,0,,,,,0.0,,,,,,
651194,1745087773253,,,,,,,,,,,,,,,,,,,,,,,,,,,,,,,,,,0,0,0,0,0,0,0,0,0,0,0,0,0,0,0,0,,,,,,,,,,,
651214,1745087773273,0.0,186.15,,-0.04,0.04,1.02,1,-0,0,1.03,1.31,78,1908,10.8,3.47,,14.03,1.239,95.2,,15.5,5,9,0,8,8,0.0,8.0,0.0,0.0,2.26,,,0,0,0,0,0,0,0,0,0,0,0,0,0,0,0,0,2,,,,0.0,39.240051,-77.965469,13.29,36,3,0.8
651234,1745087773293,,,,,,,,,,,,,,,,,,,,,,,,,,,,,,,,,,0,0,0,0,0,0,0,0,0,0,0,0,0,0,0,0,,,,,,,,,,,
651254,1745087773313,0.0,186.15,,-0.05,0.04,1.03,0,-0,0,1.03,1.31,79,2027,10.9,3.53,,14.04,1.241,95.2,,15.5,5,,,,,,,,,,,,0,0,0,0,0,0,0,0,0,0,0,0,0,0,0,0,,,,,0.0,,,,,,
651274,1745087773333,,,,,,,,,,,,,,,,,,,,,,,,,,,,,,,,,,0,0,0,0,0,0,0,0,0,0,0,0,0,0,0,0,,,,,,,,,,,
