"Interval"|"ms"|0|0|1,"Utc"|"ms"|0|0|1,"FrontBP"|"psi"|-5.0|5.0|25,"SteerAng"|"Degrees"|-145.0|145.0|25,"Battery"|"Volts"|-5.0|20.0|1,"AccelX"|"G"|-3.0|3.0|25,"AccelY"|"G"|-3.0|3.0|25,"AccelZ"|"G"|-3.0|3.0|25,"Yaw"|"Deg/Sec"|-120|120|25,"Pitch"|"Deg/Sec"|-120|120|25,"Roll"|"Deg/Sec"|-120|120|25,"Gsum"|"G"|0.0|3.0|25,"GsumMax"|"G"|0.0|3.0|25,"GsumPct"|"%"|0|100|25,"RPM"|""|0|10000|25,"TPS"|"%"|0.0|100.0|25,"InjectorPW"|"ms"|0.0|100.0|25,"Baro"|"kPa"|0|105|1,"MAP"|"Psi"|0.0|255.0|25,"Lambda"|""|-2.0|2.0|25,"IAT"|"C"|0.0|200.0|25,"EngineTemp"|"C"|0|200|1,"EOP"|"PSI"|0.0|152.0|25,"EOT"|"F"|0|250|25,"WSFR"|"MPH"|0|150|10,"WSFL"|"MPH"|0|100|10,"WSRR"|"MPH"|0|100|10,"WSRL"|""|0|100|10,"TCSet"|"%"|0.0|100.0|10,"TCSlip"|"%"|0.0|100.0|10,"TCComp"|"deg"|0.0|50.0|10,"TCCut"|"%"|0.0|100.0|10,"Analog8"|""|0.0|5.0|10,"OilTemp"|"F"|0|300|1,"AA_On"|""|0.0|1.0|1,"ThermLF1"|"C"|0|400|50,"ThermLF2"|"C"|0|400|50,"ThermRR1"|"C"|0|400|50,"ThermRR2"|"C"|0|400|50,"ThermLF3"|"C"|0|400|50,"ThermLF4"|"C"|0|400|50,"ThermLF5"|"C"|0|400|50,"ThermLF6"|"C"|0|400|50,"ThermLF7"|"C"|0|400|50,"ThermLF8"|"C"|0|400|50,"ThermRR3"|"C"|0|400|50,"ThermRR4"|"C"|0|400|50,"ThermRR5"|"C"|0|400|50,"ThermRR6"|"C"|0|400|50,"ThermRR7"|"C"|0|400|50,"ThermRR8"|"C"|0|400|50,"Latitude"|"Degrees"|-180.0|180.0|10,"Longitude"|"Degrees"|-180.0|180.0|10,"Speed"|"kph"|0.0|150.0|10,"GPSSats"|""|0|20|10,"GPSQual"|""|0|5|10,"GPSDOP"|""|0.0|20.0|10
1406,0,,,,,,,,,,,,,,,,,,,,,,,,,,,,,,,,,,0,0,0,0,0,0,0,0,0,0,0,0,0,0,0,0,,,,,,
1426,0,65.49,187.91,,-0.54,-0.22,1.01,-3,-0,-1,1.17,1.17,100,10332,3.3,1.4,,4.51,1.085,89.8,,59.4,5,,,,,,,,,,,,0,0,0,0,0,0,0,0,0,0,0,0,0,0,0,0,,,,,,
1446,0,,,,,,,,,,,,,,,,,,,,,,,,,,,,,,,,,,0,0,0,0,0,0,0,0,0,0,0,0,0,0,0,0,,,,,,
1466,0,64.23,187.91,,-0.53,-0.2,0.88,-3,0,-1,1.05,1.17,89,10190,1.6,1.4,,4.39,1.126,89.8,,59.4,5,,,,,,,,,,,,0,0,0,0,0,0,0,0,0,0,0,0,0,0,0,0,,,,,,
1486,0,,,,,,,,,,,,,,,,,,,,,,,44,0,42,44,0.0,244.0,0.0,0.0,2.26,,,0,0,0,0,0,0,0,0,0,0,0,0,0,0,0,0,0.0,0.0,0.0,0,0,0.0
1506,0,65.49,187.91,,-0.54,-0.09,0.86,-3,-0,-1,1.02,1.17,87,10126,0.5,1.4,,4.44,1.167,89.8,,59.4,5,,,,,,,,,,,,0,0,0,0,0,0,0,0,0,0,0,0,0,0,0,0,,,,,,
1526,0,,,,,,,,,,,,,,,,,,,,,,,,,,,,,,,,,,0,0,0,0,0,0,0,0,0,0,0,0,0,0,0,0,,,,,,
1546,0,64.86,187.91,,-0.5,-0.06,0.84,-3,-0,-1,0.98,1.17,84,10022,3.4,1.4,,4.44,1.167,89.8,,59.5,5,,,,,,,,,,,,0,0,0,0,0,0,0,0,0,0,0,0,0,0,0,0,,,,,,
1566,0,,,,,,,,,,,,,,,,,,,,,,,,,,,,,,,,,,0,0,0,0,0,0,0,0,0,0,0,0,0,0,0,0,,,,,,
1586,0,64.23,187.91,,-0.45,0.0,0.91,-3,0,-1,1.02,1.17,87,10022,3.4,1.4,,4.49,1.204,89.8,,59.5,5,42,0,42,42,0.0,0.0,0.0,0.0,2.26,,,0,0,0,0,0,0,0,0,0,0,0,0,0,0,0,0,0.0,0.0,0.0,0,0,0.0
1606,0,,,,,,,,,,,,,,,,,,,,,,,,,,,,,,,,,,0,0,0,0,0,0,0,0,0,0,0,0,0,0,0,0,,,,,,
1626,0,64.23,187.91,,-0.48,-0.11,0.85,-2,0,-1,0.99,1.17,84,9840,1.7,1.4,,4.44,1.24,89.8,,59.0,5,,,,,,,,,,,,0,0,0,0,0,0,0,0,0,0,0,0,0,0,0,0,,,,,,
1646,0,,,,,,,,,,,,,,,,,,,,,,,,,,,,,,,,,,0,0,0,0,0,0,0,0,0,0,0,0,0,0,0,0,,,,,,
1666,0,63.6,187.91,,-0.47,-0.13,0.83,-2,-0,-1,0.96,1.17,82,9801,0.8,1.4,,4.47,1.247,89.8,,59.0,5,,,,,,,,,,,,0,0,0,0,0,0,0,0,0,0,0,0,0,0,0,0,,,,,,
1686,0,,,,,,,,,,,,,,,,,,,,,,,42,0,40,42,0.0,243.0,0.0,0.0,2.26,,,0,0,0,0,0,0,0,0,0,0,0,0,0,0,0,0,0.0,0.0,0.0,0,0,0.0
1706,0,62.97,187.91,,-0.45,-0.14,0.85,-2,0,-1,0.98,1.17,83,9712,0.0,1.4,,4.49,1.248,89.8,,59.0,5,,,,,,,,,,,,0,0,0,0,0,0,0,0,0,0,0,0,0,0,0,0,,,,,,
1726,0,,,,,,,,,,,,,,,,,,,,,,,,,,,,,,,,,,0,0,0,0,0,0,0,0,0,0,0,0,0,0,0,0,,,,,,
1746,0,58.57,187.78,,-0.42,-0.03,0.84,-2,1,-1,0.95,1.17,81,9568,1.6,1.4,,4.49,1.248,89.8,,58.9,5,,,,,,,,,,,,0,0,0,0,0,0,0,0,0,0,0,0,0,0,0,0,,,,,,
1766,0,,,,,,,,,,,,,,,,,,,,,,,,,,,,,,,,,,0,0,0,0,0,0,0,0,0,0,0,0,0,0,0,0,,,,,,
1786,0,51.03,187.78,,-0.45,-0.12,0.81,-3,1,-1,0.93,1.17,80,9568,1.6,1.4,,4.48,1.247,89.8,,58.9,5,41,0,40,42,0.0,243.0,0.0,0.0,2.26,,,0,0,0,0,0,0,0,0,0,0,0,0,0,0,0,0,0.0,0.0,0.0,0,0,0.0
1806,0,,,,,,,,,,,,,,,,,,,,,,,,,,,,,,,,,,0,0,0,0,0,0,0,0,0,0,0,0,0,0,0,0,,,,,,
1826,0,46.0,187.78,,-0.44,-0.11,0.84,-3,1,-0,0.95,1.17,82,9544,0.6,1.4,,4.47,1.249,89.8,,58.4,5,,,,,,,,,,,,0,0,0,0,0,0,0,0,0,0,0,0,0,0,0,0,,,,,,
1846,0,,,,,,,,,,,,,,,,,,,,,,,,,,,,,,,,,,0,0,0,0,0,0,0,0,0,0,0,0,0,0,0,0,,,,,,
1866,0,40.98,187.91,,-0.41,-0.08,0.85,-3,1,-0,0.94,1.17,80,9416,2.1,1.4,,4.53,1.25,89.8,,58.4,5,,,,,,,,,,,,0,0,0,0,0,0,0,0,0,0,0,0,0,0,0,0,,,,,,
1886,0,,,,,,,,,,,,,,,,,,,,,,,40,0,39,39,0.0,248.0,0.0,0.0,2.26,,,0,0,0,0,0,0,0,0,0,0,0,0,0,0,0,0,0.0,0.0,0.0,0,0,0.0
1906,0,36.58,187.78,,-0.43,-0.02,0.94,-2,1,-0,1.03,1.17,88,9336,0.4,1.4,,4.53,1.251,89.8,,58.4,5,,,,,,,,,,,,0,0,0,0,0,0,0,0,0,0,0,0,0,0,0,0,,,,,,
1926,0,,,,,,,,,,,,,,,,,,,,,,,,,,,,,,,,,,0,0,0,0,0,0,0,0,0,0,0,0,0,0,0,0,,,,,,
1946,0,31.55,187.66,,-0.45,-0.03,0.95,-2,0,-0,1.05,1.17,90,9238,0.2,1.4,,4.53,1.251,89.8,,58.3,5,,,,,,,,,,,,0,0,0,0,0,0,0,0,0,0,0,0,0,0,0,0,,,,,,
1966,0,,,,,,,,,,,,,,,,,,,,,,,,,,,,,,,,,,0,0,0,0,0,0,0,0,0,0,0,0,0,0,0,0,,,,,,
1986,0,27.15,187.66,,-0.47,0.07,0.9,-2,0,-0,1.02,1.17,87,9238,0.2,1.4,,4.6,1.251,91.6,,58.3,5,40,0,38,39,0.0,208.0,0.0,0.0,2.26,,,0,0,0,0,0,0,0,0,0,0,0,0,0,0,0,0,0.0,0.0,0.0,0,0,0.0
2006,0,,,,,,,,,,,,,,,,,,,,,,,,,,,,,,,,,,0,0,0,0,0,0,0,0,0,0,0,0,0,0,0,0,,,,,,
2026,0,24.01,187.66,,-0.46,-0.13,0.88,-3,-0,0,1.0,1.17,86,9187,0.4,1.4,,4.64,1.251,91.6,,57.9,5,,,,,,,,,,,,0,0,0,0,0,0,0,0,0,0,0,0,0,0,0,0,,,,,,
2046,0,,,,,,,,,,,,,,,,,,,,,,,,,,,,,,,,,,0,0,0,0,0,0,0,0,0,0,0,0,0,0,0,0,,,,,,
2066,0,22.75,187.53,,-0.45,-0.28,0.99,-2,0,-0,1.12,1.17,96,9092,0.3,1.4,,4.72,1.251,91.6,,57.9,5,,,,,,,,,,,,0,0,0,0,0,0,0,0,0,0,0,0,0,0,0,0,,,,,,
2086,0,,,,,,,,,,,,,,,,,,,,,,,39,0,38,37,0.0,234.0,0.0,0.0,2.26,,,0,0,0,0,0,0,0,0,0,0,0,0,0,0,0,0,0.0,0.0,0.0,0,0,0.0
2106,0,22.12,187.53,,-0.4,-0.41,1.04,-0,-0,-1,1.19,1.19,100,9039,1.3,1.4,,4.68,1.25,91.6,,57.9,5,,,,,,,,,,,,0,0,0,0,0,0,0,0,0,0,0,0,0,0,0,0,,,,,,
2126,0,,,,,,,,,,,,,,,,,,,,,,,,,,,,,,,,,,0,0,0,0,0,0,0,0,0,0,0,0,0,0,0,0,,,,,,
2146,0,20.86,187.41,,-0.35,-0.41,1.06,0,-0,-1,1.19,1.19,100,8958,0.0,1.4,,4.68,1.25,91.6,,58.3,5,,,,,,,,,,,,0,0,0,0,0,0,0,0,0,0,0,0,0,0,0,0,,,,,,
2166,0,,,,,,,,,,,,,,,,,,,,,,,,,,,,,,,,,,0,0,0,0,0,0,0,0,0,0,0,0,0,0,0,0,,,,,,
2186,0,20.24,187.41,13.71,-0.35,-0.46,1.13,-0,0,-0,1.27,1.27,100,8958,0.0,1.4,15,4.72,1.248,91.6,153,58.3,5,36,0,37,39,0.0,14.0,0.0,0.0,2.26,0,0.0,0,0,0,0,0,0,0,0,0,0,0,0,0,0,0,0,0.0,0.0,0.0,0,0,0.0
2206,0,,,,,,,,,,,,,,,,,,,,,,,,,,,,,,,,,,0,0,0,0,0,0,0,0,0,0,0,0,0,0,0,0,,,,,,
2226,0,21.49,187.53,,-0.41,-0.36,1.08,-1,0,-1,1.21,1.27,95,8854,2.7,1.4,,4.72,1.247,91.6,,58.1,5,,,,,,,,,,,,0,0,0,0,0,0,0,0,0,0,0,0,0,0,0,0,,,,,,
2246,0,,,,,,,,,,,,,,,,,,,,,,,,,,,,,,,,,,0,0,0,0,0,0,0,0,0,0,0,0,0,0,0,0,,,,,,
2266,0,21.49,187.53,,-0.42,-0.18,1.05,-1,0,-1,1.15,1.27,90,8768,2.2,1.4,,4.84,1.247,91.6,,58.1,5,,,,,,,,,,,,0,0,0,0,0,0,0,0,0,0,0,0,0,0,0,0,,,,,,
2286,0,,,,,,,,,,,,,,,,,,,,,,,38,0,36,38,0.0,255.0,0.0,0.0,2.26,,,0,0,0,0,0,0,0,0,0,0,0,0,0,0,0,0,0.0,0.0,0.0,0,0,0.0
2306,0,21.49,187.41,,-0.43,-0.32,1.02,-2,0,-1,1.15,1.27,91,8673,0.3,1.4,,4.88,1.247,91.6,,58.1,5,,,,,,,,,,,,0,0,0,0,0,0,0,0,0,0,0,0,0,0,0,0,,,,,,
2326,0,,,,,,,,,,,,,,,,,,,,,,,,,,,,,,,,,,0,0,0,0,0,0,0,0,0,0,0,0,0,0,0,0,,,,,,
2346,0,18.98,187.41,,-0.44,-0.21,1.06,-3,0,-0,1.17,1.27,92,8586,0.6,1.4,,4.88,1.247,91.6,,58.0,5,,,,,,,,,,,,0,0,0,0,0,0,0,0,0,0,0,0,0,0,0,0,,,,,,
2366,0,,,,,,,,,,,,,,,,,,,,,,,,,,,,,,,,,,0,0,0,0,0,0,0,0,0,0,0,0,0,0,0,0,,,,,,
2386,0,19.61,187.66,,-0.44,-0.19,1.07,-3,0,-1,1.17,1.27,92,8586,0.6,1.4,,4.92,1.249,91.6,,58.0,5,37,0,35,36,0.0,1.0,0.0,0.0,2.26,,,0,0,0,0,0,0,0,0,0,0,0,0,0,0,0,0,0.0,0.0,0.0,0,0,0.0
2406,0,,,,,,,,,,,,,,,,,,,,,,,,,,,,,,,,,,0,0,0,0,0,0,0,0,0,0,0,0,0,0,0,0,,,,,,
2426,0,18.35,187.66,,-0.43,-0.04,1.07,-2,-0,-0,1.16,1.27,91,8495,1.7,1.4,,4.99,1.25,91.6,,57.3,5,,,,,,,,,,,,0,0,0,0,0,0,0,0,0,0,0,0,0,0,0,0,,,,,,
2446,0,,,,,,,,,,,,,,,,,,,,,,,,,,,,,,,,,,0,0,0,0,0,0,0,0,0,0,0,0,0,0,0,0,,,,,,
2466,0,18.98,187.66,,-0.4,0.18,1.04,-4,-0,-0,1.13,1.27,89,8423,0.1,1.4,,5.07,1.25,91.6,,57.3,5,,,,,,,,,,,,0,0,0,0,0,0,0,0,0,0,0,0,0,0,0,0,,,,,,
2486,0,,,,,,,,,,,,,,,,,,,,,,,36,0,35,35,0.0,200.0,0.0,0.0,2.26,,,0,0,0,0,0,0,0,0,0,0,0,0,0,0,0,0,0.0,0.0,0.0,0,0,0.0
2506,0,18.35,187.66,,-0.43,0.34,1.05,-4,0,0,1.18,1.27,93,8308,1.1,1.4,,5.12,1.25,91.6,,57.3,5,,,,,,,,,,,,0,0,0,0,0,0,0,0,0,0,0,0,0,0,0,0,,,,,,
2526,0,,,,,,,,,,,,,,,,,,,,,,,,,,,,,,,,,,0,0,0,0,0,0,0,0,0,0,0,0,0,0,0,0,,,,,,
2546,0,18.35,187.66,,-0.45,0.15,1.07,-2,0,-0,1.17,1.27,92,8234,1.0,1.4,,5.12,1.25,91.6,,56.8,5,,,,,,,,,,,,0,0,0,0,0,0,0,0,0,0,0,0,0,0,0,0,,,,,,
2566,0,,,,,,,,,,,,,,,,,,,,,,,,,,,,,,,,,,0,0,0,0,0,0,0,0,0,0,0,0,0,0,0,0,,,,,,
2586,0,17.72,187.66,,-0.43,0.21,1.12,-3,0,0,1.22,1.27,96,8234,1.0,1.4,,5.2,1.25,91.6,,56.8,5,34,0,34,32,0.0,36.0,0.0,0.0,2.26,,,0,0,0,0,0,0,0,0,0,0,0,0,0,0,0,0,0.0,0.0,0.0,0,0,0.0
2606,0,,,,,,,,,,,,,,,,,,,,,,,,,,,,,,,,,,0,0,0,0,0,0,0,0,0,0,0,0,0,0,0,0,,,,,,
2626,0,18.35,187.66,,-0.43,0.08,1.08,-4,0,-0,1.17,1.27,92,8171,1.1,1.4,,5.24,1.25,91.6,,56.2,5,,,,,,,,,,,,0,0,0,0,0,0,0,0,0,0,0,0,0,0,0,0,,,,,,
2646,0,,,,,,,,,,,,,,,,,,,,,,,,,,,,,,,,,,0,0,0,0,0,0,0,0,0,0,0,0,0,0,0,0,,,,,,
2666,0,18.98,187.66,,-0.46,-0.03,1.04,-5,0,-0,1.14,1.27,89,8061,0.0,1.4,,5.31,1.249,91.6,,56.2,5,,,,,,,,,,,,0,0,0,0,0,0,0,0,0,0,0,0,0,0,0,0,,,,,,
2686,0,,,,,,,,,,,,,,,,,,,,,,,35,0,33,33,0.0,14.0,0.0,0.0,2.26,,,0,0,0,0,0,0,0,0,0,0,0,0,0,0,0,0,0.0,0.0,0.0,0,0,0.0
2706,0,18.35,187.78,,-0.42,-0.19,1.06,-5,0,-2,1.16,1.27,91,7997,0.0,1.4,,5.34,1.247,91.6,,56.2,5,,,,,,,,,,,,0,0,0,0,0,0,0,0,0,0,0,0,0,0,0,0,,,,,,
2726,0,,,,,,,,,,,,,,,,,,,,,,,,,,,,,,,,,,0,0,0,0,0,0,0,0,0,0,0,0,0,0,0,0,,,,,,
2746,0,17.72,187.66,,-0.42,-0.25,1.04,-5,0,-1,1.15,1.27,91,7875,0.5,1.4,,5.34,1.247,91.6,,56.0,5,,,,,,,,,,,,0,0,0,0,0,0,0,0,0,0,0,0,0,0,0,0,,,,,,
2766,0,,,,,,,,,,,,,,,,,,,,,,,,,,,,,,,,,,0,0,0,0,0,0,0,0,0,0,0,0,0,0,0,0,,,,,,
2786,0,17.09,187.78,,-0.39,-0.28,1.09,-5,-0,-2,1.19,1.27,94,7875,0.5,1.4,,5.4,1.248,91.6,,56.0,5,32,0,33,33,0.0,222.0,0.0,0.0,2.26,,,0,0,0,0,0,0,0,0,0,0,0,0,0,0,0,0,0.0,0.0,0.0,0,0,0.0
2806,0,,,,,,,,,,,,,,,,,,,,,,,,,,,,,,,,,,0,0,0,0,0,0,0,0,0,0,0,0,0,0,0,0,,,,,,
2826,0,15.84,187.78,,-0.4,-0.16,1.04,-7,-0,-2,1.12,1.27,88,7809,0.0,1.4,,5.46,1.248,91.6,,55.8,5,,,,,,,,,,,,0,0,0,0,0,0,0,0,0,0,0,0,0,0,0,0,,,,,,
2846,0,,,,,,,,,,,,,,,,,,,,,,,,,,,,,,,,,,0,0,0,0,0,0,0,0,0,0,0,0,0,0,0,0,,,,,,
2866,0,14.58,187.78,,-0.39,-0.18,1.04,-7,-0,-2,1.12,1.27,88,7738,0.0,1.4,,5.47,1.248,91.6,,55.8,5,,,,,,,,,,,,0,0,0,0,0,0,0,0,0,0,0,0,0,0,0,0,,,,,,
2886,0,,,,,,,,,,,,,,,,,,,,,,,34,0,33,32,0.0,246.0,0.0,0.0,2.26,,,0,0,0,0,0,0,0,0,0,0,0,0,0,0,0,0,0.0,0.0,0.0,0,0,0.0
2906,0,13.32,187.78,,-0.36,-0.19,1.06,-7,-0,-1,1.13,1.27,89,7636,0.0,1.4,,5.66,1.248,91.6,,55.8,5,,,,,,,,,,,,0,0,0,0,0,0,0,0,0,0,0,0,0,0,0,0,,,,,,
2926,0,,,,,,,,,,,,,,,,,,,,,,,,,,,,,,,,,,0,0,0,0,0,0,0,0,0,0,0,0,0,0,0,0,,,,,,
2946,0,13.32,187.78,,-0.33,-0.19,1.04,-7,0,-1,1.11,1.27,87,7618,0.0,1.4,,5.66,1.248,91.6,,54.9,5,,,,,,,,,,,,0,0,0,0,0,0,0,0,0,0,0,0,0,0,0,0,,,,,,
2966,0,,,,,,,,,,,,,,,,,,,,,,,,,,,,,,,,,,0,0,0,0,0,0,0,0,0,0,0,0,0,0,0,0,,,,,,
2986,0,4.52,187.91,,-0.34,0.03,1.02,-8,0,-1,1.07,1.27,84,7618,0.0,1.4,,5.64,1.25,93.4,,54.9,5,31,0,31,31,0.0,233.0,0.0,0.0,2.26,,,0,0,0,0,0,0,0,0,0,0,0,0,0,0,0,0,0.0,0.0,0.0,0,0,0.0
3006,0,,,,,,,,,,,,,,,,,,,,,,,,,,,,,,,,,,0,0,0,0,0,0,0,0,0,0,0,0,0,0,0,0,,,,,,
3026,0,4.52,188.03,,-0.36,-0.0,0.99,-9,1,-1,1.05,1.27,83,7530,0.0,1.4,,5.7,1.25,93.4,,55.0,5,,,,,,,,,,,,0,0,0,0,0,0,0,0,0,0,0,0,0,0,0,0,,,,,,
3046,0,,,,,,,,,,,,,,,,,,,,,,,,,,,,,,,,,,0,0,0,0,0,0,0,0,0,0,0,0,0,0,0,0,,,,,,
3066,0,7.04,188.03,,-0.34,-0.08,0.95,-10,1,-1,1.01,1.27,80,7431,0.0,1.4,,5.87,1.25,93.4,,55.0,5,,,,,,,,,,,,0,0,0,0,0,0,0,0,0,0,0,0,0,0,0,0,,,,,,
3086,0,,,,,,,,,,,,,,,,,,,,,,,31,0,31,31,0.0,252.0,0.0,0.0,2.26,,,0,0,0,0,0,0,0,0,0,0,0,0,0,0,0,0,0.0,0.0,0.0,0,0,0.0
3106,0,8.92,188.03,,-0.32,-0.24,0.92,-8,1,-1,1.0,1.27,79,7377,0.0,1.4,,5.92,1.25,93.4,,55.0,5,,,,,,,,,,,,0,0,0,0,0,0,0,0,0,0,0,0,0,0,0,0,,,,,,
3126,0,,,,,,,,,,,,,,,,,,,,,,,,,,,,,,,,,,0,0,0,0,0,0,0,0,0,0,0,0,0,0,0,0,,,,,,
3146,0,10.81,188.03,,-0.32,-0.47,0.94,-7,1,-2,1.1,1.27,86,7234,0.0,1.4,,5.92,1.25,93.4,,54.3,5,,,,,,,,,,,,0,0,0,0,0,0,0,0,0,0,0,0,0,0,0,0,,,,,,
3166,0,,,,,,,,,,,,,,,,,,,,,,,,,,,,,,,,,,0,0,0,0,0,0,0,0,0,0,0,0,0,0,0,0,,,,,,
3186,0,12.69,187.91,13.71,-0.38,-0.35,0.9,-7,1,-1,1.04,1.27,82,7234,0.0,1.4,15,5.95,1.25,93.4,153,54.3,5,30,0,30,30,0.0,252.0,0.0,0.0,2.26,0,0.0,0,0,0,0,0,0,0,0,0,0,0,0,0,0,0,0,0.0,0.0,0.0,0,0,0.0
3206,0,,,,,,,,,,,,,,,,,,,,,,,,,,,,,,,,,,0,0,0,0,0,0,0,0,0,0,0,0,0,0,0,0,,,,,,
3226,0,15.21,188.03,,-0.36,-0.33,0.92,-6,2,-1,1.04,1.27,82,7169,0.0,1.4,,6.1,1.249,93.4,,53.5,5,,,,,,,,,,,,0,0,0,0,0,0,0,0,0,0,0,0,0,0,0,0,,,,,,
3246,0,,,,,,,,,,,,,,,,,,,,,,,,,,,,,,,,,,0,0,0,0,0,0,0,0,0,0,0,0,0,0,0,0,,,,,,
3266,0,17.72,188.03,,-0.4,-0.27,0.94,-7,2,-1,1.06,1.27,83,7044,0.0,1.4,,6.15,1.247,93.4,,53.5,5,,,,,,,,,,,,0,0,0,0,0,0,0,0,0,0,0,0,0,0,0,0,,,,,,
3286,0,,,,,,,,,,,,,,,,,,,,,,,29,0,29,30,0.0,18.0,0.0,0.0,2.26,,,0,0,0,0,0,0,0,0,0,0,0,0,0,0,0,0,0.0,0.0,0.0,0,0,0.0
3306,0,18.35,188.03,,-0.39,-0.28,0.96,-6,1,-1,1.07,1.27,84,6968,0.0,1.4,,6.36,1.248,93.4,,53.5,5,,,,,,,,,,,,0,0,0,0,0,0,0,0,0,0,0,0,0,0,0,0,,,,,,
3326,0,,,,,,,,,,,,,,,,,,,,,,,,,,,,,,,,,,0,0,0,0,0,0,0,0,0,0,0,0,0,0,0,0,,,,,,
3346,0,18.98,188.03,,-0.37,-0.23,0.95,-5,-0,-1,1.05,1.27,82,6939,0.0,1.4,,6.36,1.248,93.4,,53.1,5,,,,,,,,,,,,0,0,0,0,0,0,0,0,0,0,0,0,0,0,0,0,,,,,,
3366,0,,,,,,,,,,,,,,,,,,,,,,,,,,,,,,,,,,0,0,0,0,0,0,0,0,0,0,0,0,0,0,0,0,,,,,,
3386,0,18.35,188.16,,-0.36,-0.29,0.99,-4,-0,-1,1.09,1.27,86,6939,0.0,1.4,,6.46,1.247,93.4,,53.1,5,29,0,28,28,0.0,44.0,0.0,0.0,2.26,,,0,0,0,0,0,0,0,0,0,0,0,0,0,0,0,0,0.0,0.0,0.0,0,0,0.0
3406,0,,,,,,,,,,,,,,,,,,,,,,,,,,,,,,,,,,0,0,0,0,0,0,0,0,0,0,0,0,0,0,0,0,,,,,,
3426,0,18.35,188.29,,-0.37,-0.24,0.92,-4,-0,-1,1.02,1.27,80,6740,0.0,1.4,,6.63,1.249,93.4,,51.5,5,,,,,,,,,,,,0,0,0,0,0,0,0,0,0,0,0,0,0,0,0,0,,,,,,
3446,0,,,,,,,,,,,,,,,,,,,,,,,,,,,,,,,,,,0,0,0,0,0,0,0,0,0,0,0,0,0,0,0,0,,,,,,
3466,0,18.35,188.29,,-0.39,-0.2,1.0,-4,-0,-1,1.09,1.27,86,6671,0.0,1.4,,6.83,1.25,93.4,,51.5,5,,,,,,,,,,,,0,0,0,0,0,0,0,0,0,0,0,0,0,0,0,0,,,,,,
3486,0,,,,,,,,,,,,,,,,,,,,,,,29,0,28,28,0.0,4.0,0.0,0.0,2.26,,,0,0,0,0,0,0,0,0,0,0,0,0,0,0,0,0,0.0,0.0,0.0,0,0,0.0
3506,0,17.72,188.29,,-0.4,-0.24,0.91,-4,-1,0,1.02,1.27,80,6600,0.0,1.4,,6.88,1.251,93.4,,51.5,5,,,,,,,,,,,,0,0,0,0,0,0,0,0,0,0,0,0,0,0,0,0,,,,,,
3526,0,,,,,,,,,,,,,,,,,,,,,,,,,,,,,,,,,,0,0,0,0,0,0,0,0,0,0,0,0,0,0,0,0,,,,,,
3546,0,17.72,188.41,,-0.38,-0.22,0.91,-4,0,-0,1.01,1.27,79,6595,0.0,1.4,,6.88,1.251,93.4,,50.9,5,,,,,,,,,,,,0,0,0,0,0,0,0,0,0,0,0,0,0,0,0,0,,,,,,
3566,0,,,,,,,,,,,,,,,,,,,,,,,,,,,,,,,,,,0,0,0,0,0,0,0,0,0,0,0,0,0,0,0,0,,,,,,
3586,0,15.84,188.54,,-0.37,-0.2,0.98,-3,1,0,1.06,1.27,84,6595,0.0,1.4,,6.99,1.25,93.4,,50.9,5,27,0,27,26,0.0,37.0,0.0,0.0,2.26,,,0,0,0,0,0,0,0,0,0,0,0,0,0,0,0,0,0.0,0.0,0.0,0,0,0.0
3606,0,,,,,,,,,,,,,,,,,,,,,,,,,,,,,,,,,,0,0,0,0,0,0,0,0,0,0,0,0,0,0,0,0,,,,,,
3626,0,12.69,188.66,,-0.41,-0.12,1.01,-3,0,1,1.1,1.27,87,6504,0.0,1.4,,7.04,1.25,93.4,,50.1,5,,,,,,,,,,,,0,0,0,0,0,0,0,0,0,0,0,0,0,0,0,0,,,,,,
3646,0,,,,,,,,,,,,,,,,,,,,,,,,,,,,,,,,,,0,0,0,0,0,0,0,0,0,0,0,0,0,0,0,0,,,,,,
3666,0,9.55,188.66,,-0.41,-0.11,1.0,-3,-2,0,1.09,1.27,85,6385,0.0,1.4,,7.26,1.25,93.4,,50.1,5,,,,,,,,,,,,0,0,0,0,0,0,0,0,0,0,0,0,0,0,0,0,,,,,,
3686,0,,,,,,,,,,,,,,,,,,,,,,,27,0,27,27,0.0,229.0,0.0,0.0,2.26,,,0,0,0,0,0,0,0,0,0,0,0,0,0,0,0,0,0.0,0.0,0.0,0,0,0.0
3706,0,7.67,188.66,,-0.39,-0.06,0.97,-2,-3,0,1.05,1.27,83,6383,0.0,1.4,,7.29,1.25,93.4,,50.1,5,,,,,,,,,,,,0,0,0,0,0,0,0,0,0,0,0,0,0,0,0,0,,,,,,
3726,0,,,,,,,,,,,,,,,,,,,,,,,,,,,,,,,,,,0,0,0,0,0,0,0,0,0,0,0,0,0,0,0,0,,,,,,
3746,0,4.52,188.66,,-0.34,-0.05,0.98,-1,-2,0,1.04,1.27,82,6188,0.0,1.4,,7.29,1.25,93.4,,49.3,5,,,,,,,,,,,,0,0,0,0,0,0,0,0,0,0,0,0,0,0,0,0,,,,,,
3766,0,,,,,,,,,,,,,,,,,,,,,,,,,,,,,,,,,,0,0,0,0,0,0,0,0,0,0,0,0,0,0,0,0,,,,,,
3786,0,2.64,188.66,,-0.34,0.07,1.0,-0,-2,0,1.06,1.27,83,6188,0.0,1.4,,7.53,1.248,93.4,,49.3,5,27,0,26,26,0.0,183.0,0.0,0.0,2.26,,,0,0,0,0,0,0,0,0,0,0,0,0,0,0,0,0,0.0,0.0,0.0,0,0,0.0
3806,0,,,,,,,,,,,,,,,,,,,,,,,,,,,,,,,,,,0,0,0,0,0,0,0,0,0,0,0,0,0,0,0,0,,,,,,
3826,0,2.01,188.79,,-0.4,0.11,0.97,-0,-1,1,1.05,1.27,83,6216,0.0,1.4,,7.5,1.246,93.4,,48.1,5,,,,,,,,,,,,0,0,0,0,0,0,0,0,0,0,0,0,0,0,0,0,,,,,,
3846,0,,,,,,,,,,,,,,,,,,,,,,,,,,,,,,,,,,0,0,0,0,0,0,0,0,0,0,0,0,0,0,0,0,,,,,,
3866,0,0.75,188.79,,-0.34,0.07,0.94,1,-1,0,1.0,1.27,79,6268,0.0,1.4,,7.66,1.247,93.4,,48.1,5,,,,,,,,,,,,0,0,0,0,0,0,0,0,0,0,0,0,0,0,0,0,,,,,,
3886,0,,,,,,,,,,,,,,,,,,,,,,,25,0,26,25,0.0,246.0,0.0,0.0,2.26,,,0,0,0,0,0,0,0,0,0,0,0,0,0,0,0,0,0.0,0.0,0.0,0,0,0.0
3906,0,0.0,188.79,,-0.28,0.11,0.99,2,-0,0,1.03,1.27,81,6148,0.0,1.4,,7.66,1.247,93.4,,48.1,5,,,,,,,,,,,,0,0,0,0,0,0,0,0,0,0,0,0,0,0,0,0,,,,,,
3926,0,,,,,,,,,,,,,,,,,,,,,,,,,,,,,,,,,,0,0,0,0,0,0,0,0,0,0,0,0,0,0,0,0,,,,,,
3946,0,0.0,188.79,,-0.3,0.2,1.02,3,-1,0,1.08,1.27,85,6061,0.0,1.4,,7.66,1.247,93.4,,47.6,5,,,,,,,,,,,,0,0,0,0,0,0,0,0,0,0,0,0,0,0,0,0,,,,,,
3966,0,,,,,,,,,,,,,,,,,,,,,,,,,,,,,,,,,,0,0,0,0,0,0,0,0,0,0,0,0,0,0,0,0,,,,,,
3986,0,0.0,188.79,,-0.26,0.18,1.08,3,-1,0,1.12,1.27,88,6061,0.0,1.4,,7.83,1.249,93.4,,47.6,5,26,0,25,25,0.0,233.0,0.0,0.0,2.26,,,0,0,0,0,0,0,0,0,0,0,0,0,0,0,0,0,0.0,0.0,0.0,0,0,0.0
4006,0,,,,,,,,,,,,,,,,,,,,,,,,,,,,,,,,,,0,0,0,0,0,0,0,0,0,0,0,0,0,0,0,0,,,,,,
4026,0,0.0,188.91,,-0.21,0.19,1.1,3,-1,0,1.13,1.27,89,6068,0.0,1.4,,7.93,1.25,93.4,,47.0,5,,,,,,,,,,,,0,0,0,0,0,0,0,0,0,0,0,0,0,0,0,0,,,,,,
4046,0,,,,,,,,,,,,,,,,,,,,,,,,,,,,,,,,,,0,0,0,0,0,0,0,0,0,0,0,0,0,0,0,0,,,,,,
4066,0,0.0,189.04,,-0.2,0.15,1.12,4,-0,0,1.15,1.27,90,5903,0.0,1.4,,8.14,1.25,93.4,,47.0,5,,,,,,,,,,,,0,0,0,0,0,0,0,0,0,0,0,0,0,0,0,0,,,,,,
4086,0,,,,,,,,,,,,,,,,,,,,,,,25,0,24,25,0.0,251.0,0.0,0.0,2.26,,,0,0,0,0,0,0,0,0,0,0,0,0,0,0,0,0,0.0,0.0,0.0,0,0,0.0
4106,0,0.0,189.04,,-0.21,0.05,1.05,5,-0,-0,1.07,1.27,84,5876,0.0,1.4,,8.21,1.25,93.4,,47.0,5,,,,,,,,,,,,0,0,0,0,0,0,0,0,0,0,0,0,0,0,0,0,,,,,,
4126,0,,,,,,,,,,,,,,,,,,,,,,,,,,,,,,,,,,0,0,0,0,0,0,0,0,0,0,0,0,0,0,0,0,,,,,,
4146,0,0.0,189.04,,-0.24,0.03,1.03,5,-2,-0,1.06,1.27,83,5852,0.0,1.4,,8.21,1.25,93.4,,46.1,5,,,,,,,,,,,,0,0,0,0,0,0,0,0,0,0,0,0,0,0,0,0,,,,,,
4166,0,,,,,,,,,,,,,,,,,,,,,,,,,,,,,,,,,,0,0,0,0,0,0,0,0,0,0,0,0,0,0,0,0,,,,,,
4186,0,0.0,189.17,13.78,-0.27,0.09,1.06,5,-2,1,1.1,1.27,87,5852,0.0,1.4,15,8.26,1.25,93.4,153,46.1,5,25,0,24,26,0.0,246.0,0.0,0.0,2.26,0,0.0,0,0,0,0,0,0,0,0,0,0,0,0,0,0,0,0,0.0,0.0,0.0,0,0,0.0
4206,0,,,,,,,,,,,,,,,,,,,,,,,,,,,,,,,,,,0,0,0,0,0,0,0,0,0,0,0,0,0,0,0,0,,,,,,
4226,0,0.0,189.29,,-0.26,0.07,1.03,6,-3,0,1.07,1.27,84,5697,0.0,1.4,,8.46,1.25,93.4,,44.2,5,,,,,,,,,,,,0,0,0,0,0,0,0,0,0,0,0,0,0,0,0,0,,,,,,
4246,0,,,,,,,,,,,,,,,,,,,,,,,,,,,,,,,,,,0,0,0,0,0,0,0,0,0,0,0,0,0,0,0,0,,,,,,
4266,0,0.0,189.17,,-0.27,0.1,0.98,5,-3,0,1.02,1.27,80,5694,0.0,1.4,,8.61,1.249,93.4,,44.2,5,,,,,,,,,,,,0,0,0,0,0,0,0,0,0,0,0,0,0,0,0,0,,,,,,
4286,0,,,,,,,,,,,,,,,,,,,,,,,25,0,24,23,0.0,207.0,0.0,0.0,2.26,,,0,0,0,0,0,0,0,0,0,0,0,0,0,0,0,0,0.0,0.0,0.0,0,0,0.0
4306,0,0.0,189.29,,-0.24,0.05,1.06,6,-2,0,1.09,1.27,86,5603,0.0,1.4,,8.74,1.247,93.4,,44.2,5,,,,,,,,,,,,0,0,0,0,0,0,0,0,0,0,0,0,0,0,0,0,,,,,,
4326,0,,,,,,,,,,,,,,,,,,,,,,,,,,,,,,,,,,0,0,0,0,0,0,0,0,0,0,0,0,0,0,0,0,,,,,,
4346,0,0.0,189.29,,-0.29,0.1,1.07,5,-3,1,1.12,1.27,88,5564,0.0,1.4,,8.74,1.247,93.4,,43.0,5,,,,,,,,,,,,0,0,0,0,0,0,0,0,0,0,0,0,0,0,0,0,,,,,,
4366,0,,,,,,,,,,,,,,,,,,,,,,,,,,,,,,,,,,0,0,0,0,0,0,0,0,0,0,0,0,0,0,0,0,,,,,,
4386,0,0.0,189.42,,-0.26,0.07,1.04,6,-3,1,1.07,1.27,84,5564,0.0,1.4,,8.83,1.247,93.4,,43.0,5,24,0,23,23,0.0,38.0,0.0,0.0,2.26,,,0,0,0,0,0,0,0,0,0,0,0,0,0,0,0,0,0.0,0.0,0.0,0,0,0.0
4406,0,,,,,,,,,,,,,,,,,,,,,,,,,,,,,,,,,,0,0,0,0,0,0,0,0,0,0,0,0,0,0,0,0,,,,,,
4426,0,0.0,189.29,,-0.25,0.14,1.08,5,-4,1,1.12,1.27,88,5550,0.0,1.4,,8.94,1.246,93.4,,42.7,5,,,,,,,,,,,,0,0,0,0,0,0,0,0,0,0,0,0,0,0,0,0,,,,,,
4446,0,,,,,,,,,,,,,,,,,,,,,,,,,,,,,,,,,,0,0,0,0,0,0,0,0,0,0,0,0,0,0,0,0,,,,,,
4466,0,0.0,189.29,,-0.27,0.14,1.03,6,-4,0,1.08,1.27,85,5467,0.0,1.4,,9.07,1.247,93.4,,42.7,5,,,,,,,,,,,,0,0,0,0,0,0,0,0,0,0,0,0,0,0,0,0,,,,,,
4486,0,,,,,,,,,,,,,,,,,,,,,,,24,0,23,22,0.0,248.0,0.0,0.0,2.26,,,0,0,0,0,0,0,0,0,0,0,0,0,0,0,0,0,0.0,0.0,0.0,0,0,0.0
4506,0,0.0,189.42,,-0.27,0.11,1.03,5,-4,1,1.07,1.27,84,5389,0.0,1.4,,9.1,1.249,93.4,,42.7,5,,,,,,,,,,,,0,0,0,0,0,0,0,0,0,0,0,0,0,0,0,0,,,,,,
4526,0,,,,,,,,,,,,,,,,,,,,,,,,,,,,,,,,,,0,0,0,0,0,0,0,0,0,0,0,0,0,0,0,0,,,,,,
4546,0,0.0,189.54,,-0.24,0.09,1.04,6,-4,1,1.07,1.27,84,5377,0.0,1.4,,9.1,1.249,93.4,,41.8,5,,,,,,,,,,,,0,0,0,0,0,0,0,0,0,0,0,0,0,0,0,0,,,,,,
4566,0,,,,,,,,,,,,,,,,,,,,,,,,,,,,,,,,,,0,0,0,0,0,0,0,0,0,0,0,0,0,0,0,0,,,,,,
4586,0,0.0,189.54,,-0.24,0.17,1.08,5,-4,1,1.12,1.27,88,5377,0.0,1.4,,9.17,1.249,93.4,,41.8,5,23,0,22,22,0.0,224.0,0.0,0.0,2.26,,,0,0,0,0,0,0,0,0,0,0,0,0,0,0,0,0,0.0,0.0,0.0,0,0,0.0
4606,0,,,,,,,,,,,,,,,,,,,,,,,,,,,,,,,,,,0,0,0,0,0,0,0,0,0,0,0,0,0,0,0,0,,,,,,
4626,0,0.0,189.67,,-0.23,0.21,1.09,5,-4,1,1.13,1.27,89,5345,0.1,1.44,,9.34,1.25,93.4,,40.5,5,,,,,,,,,,,,0,0,0,0,0,0,0,0,0,0,0,0,0,0,0,0,,,,,,
4646,0,,,,,,,,,,,,,,,,,,,,,,,,,,,,,,,,,,0,0,0,0,0,0,0,0,0,0,0,0,0,0,0,0,,,,,,
4666,0,0.0,189.67,,-0.24,0.19,1.07,5,-4,0,1.11,1.27,88,5243,1.4,1.8,,9.78,1.25,93.4,,40.5,5,,,,,,,,,,,,0,0,0,0,0,0,0,0,0,0,0,0,0,0,0,0,,,,,,
4686,0,,,,,,,,,,,,,,,,,,,,,,,22,0,22,22,0.0,250.0,0.0,0.0,2.26,,,0,0,0,0,0,0,0,0,0,0,0,0,0,0,0,0,0.0,0.0,0.0,0,0,0.0
4706,0,0.0,189.67,,-0.24,0.17,1.04,5,-5,0,1.08,1.27,85,5254,3.6,2.25,,10.05,1.25,93.4,,40.5,5,,,,,,,,,,,,0,0,0,0,0,0,0,0,0,0,0,0,0,0,0,0,,,,,,
4726,0,,,,,,,,,,,,,,,,,,,,,,,,,,,,,,,,,,0,0,0,0,0,0,0,0,0,0,0,0,0,0,0,0,,,,,,
4746,0,0.0,189.67,,-0.24,0.16,1.05,4,-4,-0,1.09,1.27,86,5225,7.9,2.81,,10.05,1.25,93.4,,39.8,5,,,,,,,,,,,,0,0,0,0,0,0,0,0,0,0,0,0,0,0,0,0,,,,,,
4766,0,,,,,,,,,,,,,,,,,,,,,,,,,,,,,,,,,,0,0,0,0,0,0,0,0,0,0,0,0,0,0,0,0,,,,,,
4786,0,0.0,189.67,,-0.21,0.16,1.05,4,-4,0,1.08,1.27,85,5225,7.9,2.81,,10.78,1.25,93.4,,39.8,5,22,0,21,22,0.0,253.0,0.0,0.0,2.25,,,0,0,0,0,0,0,0,0,0,0,0,0,0,0,0,0,0.0,0.0,0.0,0,0,0.0
4806,0,,,,,,,,,,,,,,,,,,,,,,,,,,,,,,,,,,0,0,0,0,0,0,0,0,0,0,0,0,0,0,0,0,,,,,,
4826,0,0.0,189.67,,-0.2,0.16,1.07,3,-3,0,1.1,1.1,100,5234,9.2,3.71,,11.33,1.249,93.4,,39.3,5,,,,,,,,,,,,0,0,0,0,0,0,0,0,0,0,0,0,0,0,0,0,,,,,,
4846,0,,,,,,,,,,,,,,,,,,,,,,,,,,,,,,,,,,0,0,0,0,0,0,0,0,0,0,0,0,0,0,0,0,,,,,,
4866,0,0.0,189.67,,-0.17,0.12,1.08,3,-3,0,1.1,1.1,100,5297,10.8,3.4,,11.79,1.247,93.4,,39.3,5,,,,,,,,,,,,0,0,0,0,0,0,0,0,0,0,0,0,0,0,0,0,,,,,,
4886,0,,,,,,,,,,,,,,,,,,,,,,,22,0,22,21,0.0,12.0,0.0,0.0,2.26,,,0,0,0,0,0,0,0,0,0,0,0,0,0,0,0,0,0.0,0.0,0.0,0,0,0.0
4906,0,0.0,189.54,,-0.17,0.11,1.06,3,-3,0,1.08,1.1,98,5260,11.5,3.48,,12.05,1.246,93.4,,39.3,5,,,,,,,,,,,,0,0,0,0,0,0,0,0,0,0,0,0,0,0,0,0,,,,,,
4926,0,,,,,,,,,,,,,,,,,,,,,,,,,,,,,,,,,,0,0,0,0,0,0,0,0,0,0,0,0,0,0,0,0,,,,,,
4946,0,0.0,189.54,,-0.16,0.09,1.06,3,-2,-0,1.07,1.1,97,5277,11.5,3.47,,12.05,1.246,93.4,,39.3,5,,,,,,,,,,,,0,0,0,0,0,0,0,0,0,0,0,0,0,0,0,0,,,,,,
4966,0,,,,,,,,,,,,,,,,,,,,,,,,,,,,,,,,,,0,0,0,0,0,0,0,0,0,0,0,0,0,0,0,0,,,,,,
4986,0,0.0,189.42,,-0.16,0.06,1.06,2,-2,-0,1.07,1.1,97,5277,11.5,3.47,,12.28,1.123,93.4,,39.3,5,21,0,22,21,0.0,9.0,0.0,0.0,2.26,,,0,0,0,0,0,0,0,0,0,0,0,0,0,0,0,0,0.0,0.0,0.0,0,0,0.0
5006,0,,,,,,,,,,,,,,,,,,,,,,,,,,,,,,,,,,0,0,0,0,0,0,0,0,0,0,0,0,0,0,0,0,,,,,,
5026,0,0.0,189.29,,-0.14,0.1,1.07,2,-2,-0,1.08,1.1,98,5266,11.5,3.46,,12.32,1.066,93.4,,39.3,5,,,,,,,,,,,,0,0,0,0,0,0,0,0,0,0,0,0,0,0,0,0,,,,,,
5046,0,,,,,,,,,,,,,,,,,,,,,,,,,,,,,,,,,,0,0,0,0,0,0,0,0,0,0,0,0,0,0,0,0,,,,,,
5066,0,0.0,189.29,,-0.13,0.11,1.05,2,-1,0,1.06,1.1,96,5241,11.7,3.42,,12.39,1.046,93.4,,39.3,5,,,,,,,,,,,,0,0,0,0,0,0,0,0,0,0,0,0,0,0,0,0,,,,,,
5086,0,,,,,,,,,,,,,,,,,,,,,,,22,0,22,22,0.0,253.0,0.0,0.0,2.26,,,0,0,0,0,0,0,0,0,0,0,0,0,0,0,0,0,0.0,0.0,0.0,0,0,0.0
5106,0,0.0,189.17,,-0.12,0.09,1.06,2,-1,-0,1.07,1.1,97,5186,11.7,3.39,,12.41,1.094,93.4,,39.3,5,,,,,,,,,,,,0,0,0,0,0,0,0,0,0,0,0,0,0,0,0,0,,,,,,
5126,0,,,,,,,,,,,,,,,,,,,,,,,,,,,,,,,,,,0,0,0,0,0,0,0,0,0,0,0,0,0,0,0,0,,,,,,
5146,0,0.0,189.04,,-0.12,0.1,1.07,2,-1,-0,1.08,1.1,98,5238,11.7,3.42,,12.41,1.094,93.4,,38.8,5,,,,,,,,,,,,0,0,0,0,0,0,0,0,0,0,0,0,0,0,0,0,,,,,,
5166,0,,,,,,,,,,,,,,,,,,,,,,,,,,,,,,,,,,0,0,0,0,0,0,0,0,0,0,0,0,0,0,0,0,,,,,,
5186,0,0.0,189.04,13.75,-0.1,0.08,1.03,2,-1,-1,1.04,1.1,94,5238,11.7,3.42,15,12.41,1.127,93.4,153,38.8,5,21,0,22,21,0.0,9.0,0.0,0.0,2.26,0,0.0,0,0,0,0,0,0,0,0,0,0,0,0,0,0,0,0,0.0,0.0,0.0,0,0,0.0
5206,0,,,,,,,,,,,,,,,,,,,,,,,,,,,,,,,,,,0,0,0,0,0,0,0,0,0,0,0,0,0,0,0,0,,,,,,
10263,1745086818625,,,,,,,,,,,,,,,,,,,,,,,,,,,,,,,,,,0,0,0,0,0,0,0,0,0,0,0,0,0,0,0,0,,,,,,,,,,,
10283,1745086818645,0.0,189.54,,-0.18,-0.14,0.92,2,-1,1,0.95,1.13,84,4352,7.3,3.25,,12.32,1.211,91.6,,33.4,5,,,,,,,,,,,,0,0,0,0,0,0,0,0,0,0,0,0,0,0,0,0,,,,,0.0,,,,,,
10303,1745086818665,,,,,,,,,,,,,,,,,,,,,,,,,,,,,,,,,,0,0,0,0,0,0,0,0,0,0,0,0,0,0,0,0,,,,,,,,,,,
10323,1745086818685,0.0,189.67,,-0.17,-0.07,1.0,3,-0,0,1.01,1.13,90,4382,7.1,3.25,,12.32,1.193,91.6,,33.9,5,,,,,,,,,,,,0,0,0,0,0,0,0,0,0,0,0,0,0,0,0,0,,,,,0.0,,,,,,
10343,1745086818704,,,,,,,,,,,,,,,,,,,,,,,18,0,18,18,0.0,63.0,0.0,0.0,2.26,,,0,0,0,0,0,0,0,0,0,0,0,0,0,0,0,0,2,,,,,39.239647,-77.964569,28.7,30,3,0.9
10363,1745086818724,0.0,189.67,,-0.12,-0.08,0.91,4,-0,-0,0.92,1.13,81,4340,6.8,3.37,,12.36,1.195,91.6,,33.9,5,,,,,,,,,,,,0,0,0,0,0,0,0,0,0,0,0,0,0,0,0,0,,,,,0.0,,,,,,
10383,1745086818744,,,,,,,,,,,,,,,,,,,,,,,,,,,,,,,,,,0,0,0,0,0,0,0,0,0,0,0,0,0,0,0,0,,,,,,,,,,,
10403,1745086818764,0.0,189.67,,-0.12,-0.13,0.87,3,-0,-0,0.88,1.13,78,4311,6.8,3.36,,12.33,1.198,91.6,,33.9,5,,,,,,,,,,,,0,0,0,0,0,0,0,0,0,0,0,0,0,0,0,0,,,,,0.0,,,,,,
10423,1745086818784,,,,,,,,,,,,,,,,,,,,,,,,,,,,,,,,,,0,0,0,0,0,0,0,0,0,0,0,0,0,0,0,0,,,,,,,,,,,
10443,1745086818804,0.0,189.54,,-0.15,-0.07,0.97,3,-0,0,0.99,1.13,87,4260,6.9,3.37,,12.33,1.198,91.6,,33.5,5,18,0,18,18,0.0,0.0,0.0,0.0,2.26,,,0,0,0,0,0,0,0,0,0,0,0,0,0,0,0,0,2,,,,0.0,39.239655,-77.964569,28.4,30,3,0.9
10463,1745086818824,,,,,,,,,,,,,,,,,,,,,,,,,,,,,,,,,,0,0,0,0,0,0,0,0,0,0,0,0,0,0,0,0,,,,,,,,,,,
10483,1745086818844,0.0,189.67,,-0.11,0.03,0.95,3,-0,0,0.96,1.13,85,4260,6.9,3.37,,12.37,1.201,91.6,,33.5,5,,,,,,,,,,,,0,0,0,0,0,0,0,0,0,0,0,0,0,0,0,0,,,,,0.0,,,,,,
10503,1745086818864,,,,,,,,,,,,,,,,,,,,,,,,,,,,,,,,,,0,0,0,0,0,0,0,0,0,0,0,0,0,0,0,0,,,,,,,,,,,
10523,1745086818884,0.0,189.54,,-0.1,-0.07,0.9,2,-0,0,0.91,1.13,80,4212,7.0,3.38,,12.29,1.183,91.6,,32.6,5,,,,,,,,,,,,0,0,0,0,0,0,0,0,0,0,0,0,0,0,0,0,,,,,0.0,,,,,,
10543,1745086818906,,,,,,,,,,,,,,,,,,,,,,,18,0,17,18,0.0,3.0,0.0,0.0,2.26,,,0,0,0,0,0,0,0,0,0,0,0,0,0,0,0,0,2,,,,,39.239662,-77.964569,28.21,30,3,0.9
10563,1745086818926,0.0,189.67,,-0.12,0.02,1.02,1,-0,1,1.03,1.13,91,4206,7.0,3.38,,12.31,1.177,91.6,,32.6,5,,,,,,,,,,,,0,0,0,0,0,0,0,0,0,0,0,0,0,0,0,0,,,,,0.0,,,,,,
10583,1745086818946,,,,,,,,,,,,,,,,,,,,,,,,,,,,,,,,,,0,0,0,0,0,0,0,0,0,0,0,0,0,0,0,0,,,,,,,,,,,
10603,1745086818966,0.0,189.54,,-0.11,-0.03,0.93,-0,-0,0,0.93,1.13,83,4232,7.0,3.52,,12.35,1.165,91.6,,32.6,5,,,,,,,,,,,,0,0,0,0,0,0,0,0,0,0,0,0,0,0,0,0,,,,,0.0,,,,,,
10623,1745086818986,,,,,,,,,,,,,,,,,,,,,,,,,,,,,,,,,,0,0,0,0,0,0,0,0,0,0,0,0,0,0,0,0,,,,,,,,,,,
10643,1745086819006,0.0,189.54,,-0.13,-0.02,0.96,-1,-0,0,0.97,0.97,100,4177,6.9,3.51,,12.35,1.165,91.6,,32.6,5,18,0,17,17,0.0,23.0,0.0,0.0,2.25,,,0,0,0,0,0,0,0,0,0,0,0,0,0,0,0,0,2,,,,0.0,39.239662,-77.964569,28.21,30,3,0.9
10663,1745086819014,,,,,,,,,,,,,,,,,,,,,,,,,,,,,,,,,,0,0,0,0,0,0,0,0,0,0,0,0,0,0,0,0,,,,,,,,,,,
10683,1745086819034,0.0,189.54,,-0.13,0.08,0.97,1,-0,0,0.99,0.99,100,4177,6.9,3.51,,12.32,1.155,91.6,,32.6,5,,,,,,,,,,,,0,0,0,0,0,0,0,0,0,0,0,0,0,0,0,0,,,,,0.0,,,,,,
10703,1745086819054,,,,,,,,,,,,,,,,,,,,,,,,,,,,,,,,,,0,0,0,0,0,0,0,0,0,0,0,0,0,0,0,0,,,,,,,,,,,
10723,1745086819074,0.0,189.42,,-0.1,0.02,0.92,-0,-0,0,0.93,0.99,94,4160,6.9,3.52,,12.29,1.163,91.6,,32.5,5,,,,,,,,,,,,0,0,0,0,0,0,0,0,0,0,0,0,0,0,0,0,,,,,0.0,,,,,,
10743,1745086819102,,,,,,,,,,,,,,,,,,,,,,,17,0,17,17,0.0,253.0,0.0,0.0,2.25,,,0,0,0,0,0,0,0,0,0,0,0,0,0,0,0,0,2,,,,,39.239674,-77.964561,27.67,30,3,0.9
10763,1745086819122,0.0,189.54,,-0.1,0.12,1.01,-1,-0,0,1.02,1.02,100,4164,7.0,3.52,,12.31,1.171,91.6,,32.5,5,,,,,,,,,,,,0,0,0,0,0,0,0,0,0,0,0,0,0,0,0,0,,,,,0.0,,,,,,
10783,1745086819142,,,,,,,,,,,,,,,,,,,,,,,,,,,,,,,,,,0,0,0,0,0,0,0,0,0,0,0,0,0,0,0,0,,,,,,,,,,,
10803,1745086819162,0.0,189.42,,-0.11,0.05,0.96,-1,-0,0,0.97,1.02,95,4096,6.9,3.53,,12.39,1.16,91.6,,32.5,5,,,,,,,,,,,,0,0,0,0,0,0,0,0,0,0,0,0,0,0,0,0,,,,,0.0,,,,,,
10823,1745086819182,,,,,,,,,,,,,,,,,,,,,,,,,,,,,,,,,,0,0,0,0,0,0,0,0,0,0,0,0,0,0,0,0,,,,,,,,,,,
10843,1745086819204,0.0,189.54,,-0.13,0.11,1.02,-0,-0,0,1.04,1.04,100,4095,6.7,3.55,,12.39,1.16,91.6,,31.9,5,17,0,17,17,0.0,241.0,0.0,0.0,2.26,,,0,0,0,0,0,0,0,0,0,0,0,0,0,0,0,0,2,,,,0.0,39.239681,-77.964561,27.41,30,3,0.9
10863,1745086819224,,,,,,,,,,,,,,,,,,,,,,,,,,,,,,,,,,0,0,0,0,0,0,0,0,0,0,0,0,0,0,0,0,,,,,,,,,,,
10883,1745086819244,0.0,189.54,,-0.13,-0.02,0.93,-0,-0,-0,0.94,1.04,90,4095,6.7,3.55,,12.29,1.149,91.6,,31.9,5,,,,,,,,,,,,0,0,0,0,0,0,0,0,0,0,0,0,0,0,0,0,,,,,0.0,,,,,,
10903,1745086819264,,,,,,,,,,,,,,,,,,,,,,,,,,,,,,,,,,0,0,0,0,0,0,0,0,0,0,0,0,0,0,0,0,,,,,,,,,,,
10923,1745086819284,0.0,189.42,,-0.14,0.05,0.99,-0,-0,-0,1.0,1.04,97,4198,6.7,3.55,,12.39,1.127,91.6,,31.8,5,,,,,,,,,,,,0,0,0,0,0,0,0,0,0,0,0,0,0,0,0,0,,,,,0.0,,,,,,
10943,1745086819306,,,,,,,,,,,,,,,,,,,,,,,17,0,17,17,0.0,39.0,0.0,0.0,2.26,,,0,0,0,0,0,0,0,0,0,0,0,0,0,0,0,0,2,,,,,39.239685,-77.964561,27.17,30,3,0.9
10963,1745086819326,0.0,189.54,,-0.12,-0.04,0.92,0,-0,-0,0.93,1.04,89,4184,6.8,3.54,,12.35,0.989,91.6,,31.8,5,,,,,,,,,,,,0,0,0,0,0,0,0,0,0,0,0,0,0,0,0,0,,,,,0.0,,,,,,
10983,1745086819346,,,,,,,,,,,,,,,,,,,,,,,,,,,,,,,,,,0,0,0,0,0,0,0,0,0,0,0,0,0,0,0,0,,,,,,,,,,,
11003,1745086819366,0.0,189.54,,-0.12,0.06,1.03,-0,0,-0,1.03,1.04,100,4148,6.9,3.55,,12.41,0.926,91.6,,31.8,5,,,,,,,,,,,,0,0,0,0,0,0,0,0,0,0,0,0,0,0,0,0,,,,,0.0,,,,,,
11023,1745086819386,,,,,,,,,,,,,,,,,,,,,,,,,,,,,,,,,,0,0,0,0,0,0,0,0,0,0,0,0,0,0,0,0,,,,,,,,,,,
11043,1745086819402,0.0,189.54,,-0.11,0.02,0.96,1,-0,-0,0.96,1.04,93,4107,7.0,3.55,,12.41,0.926,91.6,,31.8,5,17,0,17,17,0.0,237.0,0.0,0.0,2.26,,,0,0,0,0,0,0,0,0,0,0,0,0,0,0,0,0,2,,,,0.0,39.239693,-77.964554,26.98,30,3,0.9
11063,1745086819422,,,,,,,,,,,,,,,,,,,,,,,,,,,,,,,,,,0,0,0,0,0,0,0,0,0,0,0,0,0,0,0,0,,,,,,,,,,,
11083,1745086819442,0.0,189.54,,-0.12,0.11,1.07,0,-0,0,1.08,1.08,100,4107,7.0,3.55,,12.32,0.928,91.6,,31.8,5,,,,,,,,,,,,0,0,0,0,0,0,0,0,0,0,0,0,0,0,0,0,,,,,0.0,,,,,,
11103,1745086819462,,,,,,,,,,,,,,,,,,,,,,,,,,,,,,,,,,0,0,0,0,0,0,0,0,0,0,0,0,0,0,0,0,,,,,,,,,,,
11123,1745086819482,0.0,189.54,,-0.12,0.04,0.97,1,-0,-0,0.98,1.08,91,4143,7.0,3.55,,12.36,0.95,91.6,,32.0,5,,,,,,,,,,,,0,0,0,0,0,0,0,0,0,0,0,0,0,0,0,0,,,,,0.0,,,,,,
11143,1745086819504,,,,,,,,,,,,,,,,,,,,,,,17,0,17,16,0.0,248.0,0.0,0.0,2.26,,,0,0,0,0,0,0,0,0,0,0,0,0,0,0,0,0,2,,,,,39.2397,-77.964554,26.81,30,3,0.9
11163,1745086819524,0.0,189.67,,-0.13,0.11,1.04,1,-1,-0,1.05,1.08,97,4105,7.0,3.67,,12.36,0.945,91.6,,32.0,5,,,,,,,,,,,,0,0,0,0,0,0,0,0,0,0,0,0,0,0,0,0,,,,,0.0,,,,,,
11183,1745086819544,,,,,,,,,,,,,,,,,,,,,,,,,,,,,,,,,,0,0,0,0,0,0,0,0,0,0,0,0,0,0,0,0,,,,,,,,,,,
11203,1745086819564,0.0,189.79,,-0.14,0.03,0.94,2,-1,-1,0.95,1.08,88,4109,7.0,3.67,,12.44,0.91,91.6,,32.0,5,,,,,,,,,,,,0,0,0,0,0,0,0,0,0,0,0,0,0,0,0,0,,,,,0.0,,,,,,
11223,1745086819584,,,,,,,,,,,,,,,,,,,,,,,,,,,,,,,,,,0,0,0,0,0,0,0,0,0,0,0,0,0,0,0,0,,,,,,,,,,,
11243,1745086819602,0.0,189.79,13.74,-0.12,0.11,1.02,2,-1,-1,1.03,1.08,96,4193,7.0,3.66,15,12.44,0.91,91.6,153,31.8,5,17,0,17,17,0.0,16.0,0.0,0.0,2.26,0,0.0,0,0,0,0,0,0,0,0,0,0,0,0,0,0,0,0,2,0.0,0,0,0.0,39.239708,-77.964546,26.69,30,3,0.9
11263,1745086819622,,,,,,,,,,,,,,,,,,,,,,,,,,,,,,,,,,0,0,0,0,0,0,0,0,0,0,0,0,0,0,0,0,,,,,,,,,,,
11283,1745086819642,0.0,189.79,,-0.09,0.03,0.94,4,-1,-1,0.94,1.08,87,4193,7.0,3.66,,12.44,0.927,91.6,,31.8,5,,,,,,,,,,,,0,0,0,0,0,0,0,0,0,0,0,0,0,0,0,0,,,,,0.0,,,,,,
11303,1745086819662,,,,,,,,,,,,,,,,,,,,,,,,,,,,,,,,,,0,0,0,0,0,0,0,0,0,0,0,0,0,0,0,0,,,,,,,,,,,
11323,1745086819682,0.0,189.79,,-0.07,0.1,0.98,4,-1,-1,0.98,1.08,91,4068,7.0,3.66,,12.51,0.918,91.6,,31.3,5,,,,,,,,,,,,0,0,0,0,0,0,0,0,0,0,0,0,0,0,0,0,,,,,0.0,,,,,,
11343,1745086819704,,,,,,,,,,,,,,,,,,,,,,,17,0,17,16,0.0,28.0,0.0,0.0,2.26,,,0,0,0,0,0,0,0,0,0,0,0,0,0,0,0,0,2,,,,,39.239712,-77.964546,26.59,30,3,0.9
11363,1745086819724,0.0,189.92,,-0.08,0.17,1.02,4,-1,-0,1.03,1.08,95,3893,6.9,3.69,,12.56,0.928,91.6,,31.3,5,,,,,,,,,,,,0,0,0,0,0,0,0,0,0,0,0,0,0,0,0,0,,,,,0.0,,,,,,
11383,1745086819744,,,,,,,,,,,,,,,,,,,,,,,,,,,,,,,,,,0,0,0,0,0,0,0,0,0,0,0,0,0,0,0,0,,,,,,,,,,,
11403,1745086819764,0.0,189.92,,-0.07,0.12,0.97,5,-1,-0,0.98,1.08,90,3981,6.9,3.7,,12.63,0.95,91.6,,31.3,5,,,,,,,,,,,,0,0,0,0,0,0,0,0,0,0,0,0,0,0,0,0,,,,,0.0,,,,,,
11423,1745086819784,,,,,,,,,,,,,,,,,,,,,,,,,,,,,,,,,,0,0,0,0,0,0,0,0,0,0,0,0,0,0,0,0,,,,,,,,,,,
11443,1745086819803,0.0,189.92,,-0.05,0.12,0.92,6,-1,-1,0.93,1.08,86,3925,6.9,3.73,,12.63,0.95,91.6,,30.3,5,17,0,17,17,0.0,4.0,0.0,0.0,2.26,,,0,0,0,0,0,0,0,0,0,0,0,0,0,0,0,0,2,,,,0.0,39.239719,-77.964539,26.42,30,3,0.9
11463,1745086819823,,,,,,,,,,,,,,,,,,,,,,,,,,,,,,,,,,0,0,0,0,0,0,0,0,0,0,0,0,0,0,0,0,,,,,,,,,,,
11483,1745086819843,0.0,189.92,,-0.04,0.12,0.94,6,-1,-0,0.95,1.08,88,3925,6.9,3.73,,12.61,0.934,91.6,,30.3,5,,,,,,,,,,,,0,0,0,0,0,0,0,0,0,0,0,0,0,0,0,0,,,,,0.0,,,,,,
11503,1745086819863,,,,,,,,,,,,,,,,,,,,,,,,,,,,,,,,,,0,0,0,0,0,0,0,0,0,0,0,0,0,0,0,0,,,,,,,,,,,
11523,1745086819883,0.0,190.05,,-0.06,0.13,0.97,6,-1,-0,0.98,1.08,90,3879,6.9,3.73,,12.67,0.932,91.6,,30.0,5,,,,,,,,,,,,0,0,0,0,0,0,0,0,0,0,0,0,0,0,0,0,,,,,0.0,,,,,,
11543,1745086819903,,,,,,,,,,,,,,,,,,,,,,,17,0,17,16,0.0,217.0,0.0,0.0,2.26,,,0,0,0,0,0,0,0,0,0,0,0,0,0,0,0,0,2,,,,,39.239727,-77.964539,26.31,30,3,0.9
11563,1745086819923,0.0,190.05,,-0.07,0.11,1.0,6,-1,0,1.01,1.08,93,3893,7.1,3.74,,12.64,0.977,91.6,,30.0,5,,,,,,,,,,,,0,0,0,0,0,0,0,0,0,0,0,0,0,0,0,0,,,,,0.0,,,,,,
11583,1745086819943,,,,,,,,,,,,,,,,,,,,,,,,,,,,,,,,,,0,0,0,0,0,0,0,0,0,0,0,0,0,0,0,0,,,,,,,,,,,
11603,1745086819963,0.0,190.05,,-0.09,0.11,1.0,6,-1,0,1.01,1.08,94,3820,7.0,3.74,,12.71,1.025,91.6,,30.0,5,,,,,,,,,,,,0,0,0,0,0,0,0,0,0,0,0,0,0,0,0,0,,,,,0.0,,,,,,
11623,1745086819983,,,,,,,,,,,,,,,,,,,,,,,,,,,,,,,,,,0,0,0,0,0,0,0,0,0,0,0,0,0,0,0,0,,,,,,,,,,,
11643,1745086820003,0.0,190.05,,-0.09,0.1,1.0,7,-1,0,1.01,1.08,93,3767,7.0,3.75,,12.71,1.025,91.6,,29.5,5,16,0,16,16,0.0,228.0,0.0,0.0,2.25,,,0,0,0,0,0,0,0,0,0,0,0,0,0,0,0,0,2,,,,0.0,39.239727,-77.964539,26.31,30,3,0.9
11663,1745086820013,,,,,,,,,,,,,,,,,,,,,,,,,,,,,,,,,,0,0,0,0,0,0,0,0,0,0,0,0,0,0,0,0,,,,,,,,,,,
11683,1745086820033,0.0,190.05,,-0.1,0.09,0.97,7,-1,-0,0.98,1.08,91,3767,7.0,3.75,,12.76,1.053,91.6,,29.5,5,,,,,,,,,,,,0,0,0,0,0,0,0,0,0,0,0,0,0,0,0,0,,,,,0.0,,,,,,
11703,1745086820053,,,,,,,,,,,,,,,,,,,,,,,,,,,,,,,,,,0,0,0,0,0,0,0,0,0,0,0,0,0,0,0,0,,,,,,,,,,,
11723,1745086820073,0.0,190.05,,-0.08,0.13,0.95,8,-1,-0,0.96,1.08,89,3896,7.0,3.81,,12.76,1.067,91.6,,29.7,5,,,,,,,,,,,,0,0,0,0,0,0,0,0,0,0,0,0,0,0,0,0,,,,,0.0,,,,,,
11743,1745086820103,,,,,,,,,,,,,,,,,,,,,,,16,0,16,16,0.0,252.0,0.0,0.0,2.26,,,0,0,0,0,0,0,0,0,0,0,0,0,0,0,0,0,2,,,,,39.239738,-77.964531,25.73,31,3,0.8
11763,1745086820123,0.0,190.17,,-0.08,0.17,1.0,8,-1,-0,1.01,1.08,94,3931,7.1,3.81,,12.77,1.06,91.6,,29.7,5,,,,,,,,,,,,0,0,0,0,0,0,0,0,0,0,0,0,0,0,0,0,,,,,0.0,,,,,,
11783,1745086820143,,,,,,,,,,,,,,,,,,,,,,,,,,,,,,,,,,0,0,0,0,0,0,0,0,0,0,0,0,0,0,0,0,,,,,,,,,,,
11803,1745086820163,0.0,190.17,,-0.1,0.13,0.97,8,-1,-0,0.98,1.08,91,3979,7.5,3.82,,12.75,1.056,91.6,,29.7,5,,,,,,,,,,,,0,0,0,0,0,0,0,0,0,0,0,0,0,0,0,0,,,,,0.0,,,,,,
11823,1745086820183,,,,,,,,,,,,,,,,,,,,,,,,,,,,,,,,,,0,0,0,0,0,0,0,0,0,0,0,0,0,0,0,0,,,,,,,,,,,
11843,1745086820203,0.0,190.17,,-0.1,0.08,0.93,8,-1,-0,0.94,1.08,87,3927,10.9,3.96,,12.75,1.056,91.6,,30.6,5,16,0,16,15,0.0,0.0,0.0,0.0,2.26,,,0,0,0,0,0,0,0,0,0,0,0,0,0,0,0,0,2,,,,0.0,39.239746,-77.964531,25.54,31,3,0.8
11863,1745086820223,,,,,,,,,,,,,,,,,,,,,,,,,,,,,,,,,,0,0,0,0,0,0,0,0,0,0,0,0,0,0,0,0,,,,,,,,,,,
11883,1745086820243,0.0,190.17,,-0.09,0.05,0.92,9,-1,-1,0.92,1.08,85,3927,10.9,3.96,,12.93,1.06,91.6,,30.6,5,,,,,,,,,,,,0,0,0,0,0,0,0,0,0,0,0,0,0,0,0,0,,,,,0.0,,,,,,
11903,1745086820263,,,,,,,,,,,,,,,,,,,,,,,,,,,,,,,,,,0,0,0,0,0,0,0,0,0,0,0,0,0,0,0,0,,,,,,,,,,,
11923,1745086820283,0.0,190.17,,-0.11,0.11,0.96,9,-1,-0,0.97,1.08,90,3911,12.7,4.02,,13.25,1.047,91.6,,30.4,5,,,,,,,,,,,,0,0,0,0,0,0,0,0,0,0,0,0,0,0,0,0,,,,,0.0,,,,,,
11943,1745086820303,,,,,,,,,,,,,,,,,,,,,,,16,0,16,16,0.0,223.0,0.0,0.0,2.26,,,0,0,0,0,0,0,0,0,0,0,0,0,0,0,0,0,2,,,,,39.23975,-77.964531,25.31,31,3,0.8
11963,1745086820323,0.0,190.3,,-0.11,0.08,0.98,8,-1,-0,0.99,1.08,91,3956,13.5,4.03,,13.27,1.068,91.6,,30.4,5,,,,,,,,,,,,0,0,0,0,0,0,0,0,0,0,0,0,0,0,0,0,,,,,0.0,,,,,,
11983,1745086820343,,,,,,,,,,,,,,,,,,,,,,,,,,,,,,,,,,0,0,0,0,0,0,0,0,0,0,0,0,0,0,0,0,,,,,,,,,,,
12003,1745086820363,0.0,190.3,,-0.11,0.04,0.92,9,-0,-0,0.93,0.93,100,3941,14.1,3.85,,13.36,1.088,91.6,,30.4,5,,,,,,,,,,,,0,0,0,0,0,0,0,0,0,0,0,0,0,0,0,0,,,,,0.0,,,,,,
12023,1745086820383,,,,,,,,,,,,,,,,,,,,,,,,,,,,,,,,,,0,0,0,0,0,0,0,0,0,0,0,0,0,0,0,0,,,,,,,,,,,
12043,1745086820403,0.0,190.3,,-0.1,0.04,0.94,9,-1,-0,0.95,0.95,100,3844,14.4,3.86,,13.36,1.088,91.6,,30.6,5,16,0,16,15,0.0,35.0,0.0,0.0,2.26,,,0,0,0,0,0,0,0,0,0,0,0,0,0,0,0,0,2,,,,0.0,39.239758,-77.964523,25.28,31,3,0.8
12063,1745086820423,,,,,,,,,,,,,,,,,,,,,,,,,,,,,,,,,,0,0,0,0,0,0,0,0,0,0,0,0,0,0,0,0,,,,,,,,,,,
12083,1745086820443,0.0,190.3,,-0.09,0.1,0.97,9,-1,0,0.98,0.98,100,3844,14.4,3.86,,13.36,1.097,91.6,,30.6,5,,,,,,,,,,,,0,0,0,0,0,0,0,0,0,0,0,0,0,0,0,0,,,,,0.0,,,,,,
12103,1745086820463,,,,,,,,,,,,,,,,,,,,,,,,,,,,,,,,,,0,0,0,0,0,0,0,0,0,0,0,0,0,0,0,0,,,,,,,,,,,
12123,1745086820483,0.0,190.3,,-0.08,0.13,0.98,9,-1,-0,0.99,0.99,100,3824,14.8,3.88,,13.43,1.104,91.6,,29.8,5,,,,,,,,,,,,0,0,0,0,0,0,0,0,0,0,0,0,0,0,0,0,,,,,0.0,,,,,,
12143,1745086820503,,,,,,,,,,,,,,,,,,,,,,,16,0,16,16,0.0,0.0,0.0,0.0,2.26,,,0,0,0,0,0,0,0,0,0,0,0,0,0,0,0,0,2,,,,,39.239758,-77.964523,25.28,31,3,0.8
12163,1745086820520,0.0,190.42,,-0.07,0.15,0.98,9,-1,-0,0.99,0.99,100,3734,14.9,3.88,,13.47,1.121,91.6,,29.8,5,,,,,,,,,,,,0,0,0,0,0,0,0,0,0,0,0,0,0,0,0,0,,,,,0.0,,,,,,
12183,1745086820540,,,,,,,,,,,,,,,,,,,,,,,,,,,,,,,,,,0,0,0,0,0,0,0,0,0,0,0,0,0,0,0,0,,,,,,,,,,,
12203,1745086820560,0.0,190.3,,-0.08,0.16,0.96,9,-1,-0,0.98,0.99,99,3798,14.9,3.9,,13.44,1.157,91.6,,29.8,5,,,,,,,,,,,,0,0,0,0,0,0,0,0,0,0,0,0,0,0,0,0,,,,,0.0,,,,,,
12223,1745086820580,,,,,,,,,,,,,,,,,,,,,,,,,,,,,,,,,,0,0,0,0,0,0,0,0,0,0,0,0,0,0,0,0,,,,,,,,,,,
12243,1745086820600,0.0,190.42,13.7,-0.08,0.16,1.01,9,-1,0,1.03,1.03,100,3800,15.0,3.99,15,13.44,1.157,91.6,153,29.1,5,16,0,16,15,0.0,8.0,0.0,0.0,2.26,0,0.0,0,0,0,0,0,0,0,0,0,0,0,0,0,0,0,0,2,0.0,0,0,0.0,39.239765,-77.964523,25.27,31,3,0.8
12263,1745086820619,,,,,,,,,,,,,,,,,,,,,,,,,,,,,,,,,,0,0,0,0,0,0,0,0,0,0,0,0,0,0,0,0,,,,,,,,,,,
12283,1745086820639,0.0,190.42,,-0.08,0.16,1.04,9,-1,1,1.06,1.06,100,3800,15.0,3.99,,13.48,1.155,91.6,,29.1,5,,,,,,,,,,,,0,0,0,0,0,0,0,0,0,0,0,0,0,0,0,0,,,,,0.0,,,,,,
12303,1745086820659,,,,,,,,,,,,,,,,,,,,,,,,,,,,,,,,,,0,0,0,0,0,0,0,0,0,0,0,0,0,0,0,0,,,,,,,,,,,
12323,1745086820679,0.0,190.42,,-0.07,0.15,1.03,8,-1,1,1.04,1.06,99,3805,15.0,3.98,,13.44,1.169,91.6,,29.6,5,,,,,,,,,,,,0,0,0,0,0,0,0,0,0,0,0,0,0,0,0,0,,,,,0.0,,,,,,
12343,1745086820699,,,,,,,,,,,,,,,,,,,,,,,16,0,16,16,0.0,236.0,0.0,0.0,2.26,,,0,0,0,0,0,0,0,0,0,0,0,0,0,0,0,0,2,,,,,39.239765,-77.964523,25.36,31,3,0.8
12363,1745086820720,0.0,190.42,,-0.06,0.11,1.0,8,-1,1,1.01,1.06,96,3827,15.0,4.0,,13.47,1.174,91.6,,29.6,5,,,,,,,,,,,,0,0,0,0,0,0,0,0,0,0,0,0,0,0,0,0,,,,,0.0,,,,,,
12383,1745086820740,,,,,,,,,,,,,,,,,,,,,,,,,,,,,,,,,,0,0,0,0,0,0,0,0,0,0,0,0,0,0,0,0,,,,,,,,,,,
12403,1745086820760,0.0,190.3,,-0.07,0.1,0.99,9,-1,0,1.0,1.06,94,3785,14.9,3.99,,13.49,1.155,91.6,,29.6,5,,,,,,,,,,,,0,0,0,0,0,0,0,0,0,0,0,0,0,0,0,0,,,,,0.0,,,,,,
12423,1745086820780,,,,,,,,,,,,,,,,,,,,,,,,,,,,,,,,,,0,0,0,0,0,0,0,0,0,0,0,0,0,0,0,0,,,,,,,,,,,
12623,1745086820984,,,,,,,,,,,,,,,,,,,,,,,,,,,,,,,,,,0,0,0,0,0,0,0,0,0,0,0,0,0,0,0,0,,,,,,,,,,,
12803,1745086821160,0.0,190.42,,0.01,0.04,1.01,8,-1,0,1.01,1.07,95,4041,15.0,3.96,,13.48,1.155,91.6,,29.5,5,,,,,,,,,,,,0,0,0,0,0,0,0,0,0,0,0,0,0,0,0,0,,,,,0.0,,,,,,
12823,1745086821180,,,,,,,,,,,,,,,,,,,,,,,,,,,,,,,,,,0,0,0,0,0,0,0,0,0,0,0,0,0,0,0,0,,,,,,,,,,,
12843,1745086821202,0.0,190.42,,0.04,0.12,1.05,7,-1,1,1.05,1.07,99,3927,15.0,3.91,,13.48,1.155,91.6,,30.6,5,16,0,17,16,0.0,244.0,0.0,0.0,2.26,,,0,0,0,0,0,0,0,0,0,0,0,0,0,0,0,0,2,,,,0.0,39.239807,-77.964516,25.14,31,3,0.8
12863,1745086821222,,,,,,,,,,,,,,,,,,,,,,,,,,,,,,,,,,0,0,0,0,0,0,0,0,0,0,0,0,0,0,0,0,,,,,,,,,,,
12883,1745086821242,0.0,190.3,,0.02,0.18,1.03,7,-1,0,1.05,1.07,98,3927,15.0,3.91,,13.44,1.095,91.6,,30.6,5,,,,,,,,,,,,0,0,0,0,0,0,0,0,0,0,0,0,0,0,0,0,,,,,0.0,,,,,,
12903,1745086821262,,,,,,,,,,,,,,,,,,,,,,,,,,,,,,,,,,0,0,0,0,0,0,0,0,0,0,0,0,0,0,0,0,,,,,,,,,,,
12923,1745086821282,0.0,190.3,,-0.0,0.19,1.01,7,-1,0,1.02,1.07,96,3724,14.9,3.93,,13.52,1.026,91.6,,29.2,5,,,,,,,,,,,,0,0,0,0,0,0,0,0,0,0,0,0,0,0,0,0,,,,,0.0,,,,,,
12943,1745086821304,,,,,,,,,,,,,,,,,,,,,,,16,0,16,16,0.0,35.0,0.0,0.0,2.26,,,0,0,0,0,0,0,0,0,0,0,0,0,0,0,0,0,2,,,,,39.239811,-77.964516,25.57,31,3,0.8
12963,1745086821324,0.0,190.3,,-0.0,0.18,1.04,7,-1,0,1.05,1.07,99,3815,15.2,3.94,,13.48,1.035,91.6,,29.2,5,,,,,,,,,,,,0,0,0,0,0,0,0,0,0,0,0,0,0,0,0,0,,,,,0.0,,,,,,
12983,1745086821344,,,,,,,,,,,,,,,,,,,,,,,,,,,,,,,,,,0,0,0,0,0,0,0,0,0,0,0,0,0,0,0,0,,,,,,,,,,,
13003,1745086821364,0.0,190.3,,-0.02,0.18,1.07,7,-1,1,1.08,1.08,100,3833,15.2,3.92,,13.45,1.061,91.6,,29.2,5,,,,,,,,,,,,0,0,0,0,0,0,0,0,0,0,0,0,0,0,0,0,,,,,0.0,,,,,,
13023,1745086821384,,,,,,,,,,,,,,,,,,,,,,,,,,,,,,,,,,0,0,0,0,0,0,0,0,0,0,0,0,0,0,0,0,,,,,,,,,,,
13043,1745086821404,0.0,190.3,,-0.02,0.12,1.03,7,-1,0,1.03,1.08,95,3875,15.1,3.9,,13.45,1.061,91.6,,29.3,5,16,0,16,16,0.0,252.0,0.0,0.0,2.26,,,0,0,0,0,0,0,0,0,0,0,0,0,0,0,0,0,2,,,,0.0,39.239819,-77.964516,25.6,31,3,0.8
13063,1745086821424,,,,,,,,,,,,,,,,,,,,,,,,,,,,,,,,,,0,0,0,0,0,0,0,0,0,0,0,0,0,0,0,0,,,,,,,,,,,
13083,1745086821444,0.0,190.17,,-0.01,0.06,1.01,8,-1,0,1.01,1.08,93,3875,15.1,3.9,,13.47,1.111,91.6,,29.3,5,,,,,,,,,,,,0,0,0,0,0,0,0,0,0,0,0,0,0,0,0,0,,,,,0.0,,,,,,
13103,1745086821464,,,,,,,,,,,,,,,,,,,,,,,,,,,,,,,,,,0,0,0,0,0,0,0,0,0,0,0,0,0,0,0,0,,,,,,,,,,,
13123,1745086821484,0.0,190.3,,0.0,0.09,1.01,8,-1,-0,1.01,1.08,94,3927,15.1,4.0,,13.48,1.138,91.6,,30.0,5,,,,,,,,,,,,0,0,0,0,0,0,0,0,0,0,0,0,0,0,0,0,,,,,0.0,,,,,,
13143,1745086821504,,,,,,,,,,,,,,,,,,,,,,,16,0,16,16,0.0,12.0,0.0,0.0,2.26,,,0,0,0,0,0,0,0,0,0,0,0,0,0,0,0,0,2,,,,,39.239819,-77.964516,25.6,31,3,0.8
13163,1745086821518,0.0,190.17,,-0.0,0.12,1.01,8,-1,-0,1.02,1.08,94,3813,15.1,4.0,,13.47,1.143,91.6,,30.0,5,,,,,,,,,,,,0,0,0,0,0,0,0,0,0,0,0,0,0,0,0,0,,,,,0.0,,,,,,
13183,1745086821538,,,,,,,,,,,,,,,,,,,,,,,,,,,,,,,,,,0,0,0,0,0,0,0,0,0,0,0,0,0,0,0,0,,,,,,,,,,,
13203,1745086821558,0.0,190.17,,-0.03,0.12,1.0,8,-1,-0,1.01,1.08,93,3879,15.0,4.02,,13.45,1.14,91.6,,30.0,5,,,,,,,,,,,,0,0,0,0,0,0,0,0,0,0,0,0,0,0,0,0,,,,,0.0,,,,,,
13223,1745086821578,,,,,,,,,,,,,,,,,,,,,,,,,,,,,,,,,,0,0,0,0,0,0,0,0,0,0,0,0,0,0,0,0,,,,,,,,,,,
13243,1745086821602,0.0,190.3,13.69,-0.03,0.09,1.02,8,-1,-0,1.02,1.08,94,3850,15.1,4.0,15,13.45,1.14,91.6,153,29.9,5,16,0,16,16,0.0,0.0,0.0,0.0,2.25,0,0.0,0,0,0,0,0,0,0,0,0,0,0,0,0,0,0,0,2,0.0,0,0,0.0,39.23983,-77.964516,25.56,31,3,0.8
13263,1745086821622,,,,,,,,,,,,,,,,,,,,,,,,,,,,,,,,,,0,0,0,0,0,0,0,0,0,0,0,0,0,0,0,0,,,,,,,,,,,
13283,1745086821642,0.0,190.17,,-0.06,0.04,0.99,8,-1,-0,0.99,1.08,92,3850,15.1,4.0,,13.52,1.139,91.6,,29.9,5,,,,,,,,,,,,0,0,0,0,0,0,0,0,0,0,0,0,0,0,0,0,,,,,0.0,,,,,,
13303,1745086821662,,,,,,,,,,,,,,,,,,,,,,,,,,,,,,,,,,0,0,0,0,0,0,0,0,0,0,0,0,0,0,0,0,,,,,,,,,,,
13323,1745086821682,0.0,190.17,,-0.05,0.01,0.97,9,-1,-0,0.98,1.08,90,3846,15.1,4.0,,13.41,1.142,91.6,,30.0,5,,,,,,,,,,,,0,0,0,0,0,0,0,0,0,0,0,0,0,0,0,0,,,,,0.0,,,,,,
13343,1745086821702,,,,,,,,,,,,,,,,,,,,,,,16,0,16,16,0.0,0.0,0.0,0.0,2.26,,,0,0,0,0,0,0,0,0,0,0,0,0,0,0,0,0,2,,,,,39.23983,-77.964516,25.56,31,3,0.8
13363,1745086821719,0.0,190.17,,-0.04,0.02,0.98,9,-1,-0,0.99,1.08,91,3917,15.1,3.99,,13.47,1.137,91.6,,30.0,5,,,,,,,,,,,,0,0,0,0,0,0,0,0,0,0,0,0,0,0,0,0,,,,,0.0,,,,,,
13383,1745086821739,,,,,,,,,,,,,,,,,,,,,,,,,,,,,,,,,,0,0,0,0,0,0,0,0,0,0,0,0,0,0,0,0,,,,,,,,,,,
13403,1745086821759,0.0,190.17,,-0.02,0.12,1.02,9,-1,-0,1.03,1.03,100,3827,15.0,4.11,,13.43,1.118,91.6,,30.0,5,,,,,,,,,,,,0,0,0,0,0,0,0,0,0,0,0,0,0,0,0,0,,,,,0.0,,,,,,
13423,1745086821779,,,,,,,,,,,,,,,,,,,,,,,,,,,,,,,,,,0,0,0,0,0,0,0,0,0,0,0,0,0,0,0,0,,,,,,,,,,,
13443,1745086821801,0.0,190.17,,-0.03,0.13,1.03,9,-1,-0,1.04,1.04,100,3887,15.0,4.14,,13.43,1.118,91.6,,30.0,5,16,0,17,16,0.0,240.0,0.0,0.0,2.26,,,0,0,0,0,0,0,0,0,0,0,0,0,0,0,0,0,2,,,,0.0,39.239845,-77.964516,25.59,31,3,0.8
13463,1745086821821,,,,,,,,,,,,,,,,,,,,,,,,,,,,,,,,,,0,0,0,0,0,0,0,0,0,0,0,0,0,0,0,0,,,,,,,,,,,
13483,1745086821841,0.0,190.17,,-0.02,0.1,1.02,9,-1,-0,1.02,1.04,98,3887,15.0,4.14,,13.39,1.105,91.6,,30.0,5,,,,,,,,,,,,0,0,0,0,0,0,0,0,0,0,0,0,0,0,0,0,,,,,0.0,,,,,,
13503,1745086821861,,,,,,,,,,,,,,,,,,,,,,,,,,,,,,,,,,0,0,0,0,0,0,0,0,0,0,0,0,0,0,0,0,,,,,,,,,,,
13523,1745086821881,0.0,190.17,,-0.04,0.06,0.97,9,-1,-0,0.98,1.04,94,3896,14.9,4.13,,13.43,1.108,91.6,,30.0,5,,,,,,,,,,,,0,0,0,0,0,0,0,0,0,0,0,0,0,0,0,0,,,,,0.0,,,,,,
13543,1745086821905,,,,,,,,,,,,,,,,,,,,,,,16,0,16,16,0.0,240.0,0.0,0.0,2.26,,,0,0,0,0,0,0,0,0,0,0,0,0,0,0,0,0,2,,,,,39.239849,-77.964516,25.46,31,3,0.8
13563,1745086821925,0.0,190.17,,-0.05,0.03,0.94,9,-1,-0,0.94,1.04,90,3849,14.8,4.11,,13.35,1.107,91.6,,30.0,5,,,,,,,,,,,,0,0,0,0,0,0,0,0,0,0,0,0,0,0,0,0,,,,,0.0,,,,,,
13583,1745086821945,,,,,,,,,,,,,,,,,,,,,,,,,,,,,,,,,,0,0,0,0,0,0,0,0,0,0,0,0,0,0,0,0,,,,,,,,,,,
13603,1745086821965,0.0,190.17,,-0.05,0.04,0.96,10,-1,-0,0.96,1.04,92,3899,14.8,4.11,,13.43,1.087,91.6,,30.0,5,,,,,,,,,,,,0,0,0,0,0,0,0,0,0,0,0,0,0,0,0,0,,,,,0.0,,,,,,
13623,1745086821985,,,,,,,,,,,,,,,,,,,,,,,,,,,,,,,,,,0,0,0,0,0,0,0,0,0,0,0,0,0,0,0,0,,,,,,,,,,,
13643,1745086822005,0.0,190.3,,-0.05,0.09,0.99,10,-1,-0,0.99,1.04,95,3806,14.9,4.11,,13.43,1.087,91.6,,29.9,5,16,0,16,16,0.0,212.0,0.0,0.0,2.26,,,0,0,0,0,0,0,0,0,0,0,0,0,0,0,0,0,2,,,,0.0,39.239849,-77.964516,25.46,31,3,0.8
13663,1745086822015,,,,,,,,,,,,,,,,,,,,,,,,,,,,,,,,,,0,0,0,0,0,0,0,0,0,0,0,0,0,0,0,0,,,,,,,,,,,
13683,1745086822035,0.0,190.3,,-0.04,0.12,1.04,9,-1,-0,1.05,1.05,100,3806,14.9,4.11,,13.44,1.058,91.6,,29.9,5,,,,,,,,,,,,0,0,0,0,0,0,0,0,0,0,0,0,0,0,0,0,,,,,0.0,,,,,,
13703,1745086822055,,,,,,,,,,,,,,,,,,,,,,,,,,,,,,,,,,0,0,0,0,0,0,0,0,0,0,0,0,0,0,0,0,,,,,,,,,,,
13723,1745086822075,0.0,190.17,,-0.03,0.13,1.03,9,-1,-0,1.04,1.05,99,3928,14.9,4.15,,13.37,1.067,91.6,,30.2,5,,,,,,,,,,,,0,0,0,0,0,0,0,0,0,0,0,0,0,0,0,0,,,,,0.0,,,,,,
13743,1745086822104,,,,,,,,,,,,,,,,,,,,,,,16,0,16,16,0.0,16.0,0.0,0.0,2.25,,,0,0,0,0,0,0,0,0,0,0,0,0,0,0,0,0,2,,,,,39.239864,-77.964516,25.51,32,3,0.8
13763,1745086822124,0.0,190.3,,-0.01,0.14,1.02,9,-1,0,1.03,1.05,98,3884,15.0,4.15,,13.37,1.065,91.6,,30.2,5,,,,,,,,,,,,0,0,0,0,0,0,0,0,0,0,0,0,0,0,0,0,,,,,0.0,,,,,,
13783,1745086822144,,,,,,,,,,,,,,,,,,,,,,,,,,,,,,,,,,0,0,0,0,0,0,0,0,0,0,0,0,0,0,0,0,,,,,,,,,,,
13803,1745086822164,0.0,190.3,,-0.04,0.08,0.97,10,-1,-0,0.97,1.05,93,3831,15.0,4.13,,13.39,1.072,91.6,,30.2,5,,,,,,,,,,,,0,0,0,0,0,0,0,0,0,0,0,0,0,0,0,0,,,,,0.0,,,,,,
13823,1745086822184,,,,,,,,,,,,,,,,,,,,,,,,,,,,,,,,,,0,0,0,0,0,0,0,0,0,0,0,0,0,0,0,0,,,,,,,,,,,
13843,1745086822203,0.0,190.3,,-0.07,0.08,0.95,10,-1,-0,0.95,1.05,91,3885,14.8,4.15,,13.39,1.072,91.6,,29.9,5,16,0,16,15,0.0,8.0,0.0,0.0,2.26,,,0,0,0,0,0,0,0,0,0,0,0,0,0,0,0,0,2,,,,0.0,39.239868,-77.964516,25.46,32,3,0.8
13863,1745086822223,,,,,,,,,,,,,,,,,,,,,,,,,,,,,,,,,,0,0,0,0,0,0,0,0,0,0,0,0,0,0,0,0,,,,,,,,,,,
13883,1745086822243,0.0,190.3,,-0.05,0.07,0.97,10,-1,-1,0.97,1.05,93,3885,14.8,4.15,,13.37,1.063,91.6,,29.9,5,,,,,,,,,,,,0,0,0,0,0,0,0,0,0,0,0,0,0,0,0,0,,,,,0.0,,,,,,
13903,1745086822263,,,,,,,,,,,,,,,,,,,,,,,,,,,,,,,,,,0,0,0,0,0,0,0,0,0,0,0,0,0,0,0,0,,,,,,,,,,,
13923,1745086822283,0.0,190.3,,-0.05,0.13,1.0,10,-1,-0,1.01,1.05,96,3879,14.8,4.12,,13.37,1.06,91.6,,30.2,5,,,,,,,,,,,,0,0,0,0,0,0,0,0,0,0,0,0,0,0,0,0,,,,,0.0,,,,,,
13943,1745086822305,,,,,,,,,,,,,,,,,,,,,,,17,0,16,16,0.0,240.0,0.0,0.0,2.26,,,0,0,0,0,0,0,0,0,0,0,0,0,0,0,0,0,2,,,,,39.239876,-77.964516,25.47,32,3,0.8
13963,1745086822325,0.0,190.3,,-0.04,0.18,1.04,10,-1,-0,1.05,1.05,100,3811,14.8,4.11,,13.33,1.054,91.6,,30.2,5,,,,,,,,,,,,0,0,0,0,0,0,0,0,0,0,0,0,0,0,0,0,,,,,0.0,,,,,,
13983,1745086822345,,,,,,,,,,,,,,,,,,,,,,,,,,,,,,,,,,0,0,0,0,0,0,0,0,0,0,0,0,0,0,0,0,,,,,,,,,,,
14003,1745086822365,0.0,190.3,,-0.04,0.22,1.05,10,-1,0,1.07,1.07,100,3875,14.3,4.11,,13.33,1.063,91.6,,30.2,5,,,,,,,,,,,,0,0,0,0,0,0,0,0,0,0,0,0,0,0,0,0,,,,,0.0,,,,,,
14023,1745086822385,,,,,,,,,,,,,,,,,,,,,,,,,,,,,,,,,,0,0,0,0,0,0,0,0,0,0,0,0,0,0,0,0,,,,,,,,,,,
14043,1745086822405,0.0,190.3,,-0.05,0.2,1.03,10,-1,0,1.05,1.07,98,3835,14.0,4.11,,13.33,1.063,91.6,,30.4,5,16,0,16,16,0.0,236.0,0.0,0.0,2.26,,,0,0,0,0,0,0,0,0,0,0,0,0,0,0,0,0,2,,,,0.0,39.239883,-77.964516,25.46,32,3,0.8
14063,1745086822425,,,,,,,,,,,,,,,,,,,,,,,,,,,,,,,,,,0,0,0,0,0,0,0,0,0,0,0,0,0,0,0,0,,,,,,,,,,,
14083,1745086822445,0.0,190.3,,-0.07,0.14,0.97,10,-1,-0,0.98,1.07,92,3835,14.0,4.11,,13.41,1.053,91.6,,30.4,5,,,,,,,,,,,,0,0,0,0,0,0,0,0,0,0,0,0,0,0,0,0,,,,,0.0,,,,,,
14103,1745086822465,,,,,,,,,,,,,,,,,,,,,,,,,,,,,,,,,,0,0,0,0,0,0,0,0,0,0,0,0,0,0,0,0,,,,,,,,,,,
14123,1745086822485,0.0,190.3,,-0.07,0.11,0.96,11,-1,-0,0.96,1.07,90,3903,13.9,4.11,,13.33,1.053,91.6,,30.4,5,,,,,,,,,,,,0,0,0,0,0,0,0,0,0,0,0,0,0,0,0,0,,,,,0.0,,,,,,
14143,1745086822501,,,,,,,,,,,,,,,,,,,,,,,17,0,16,16,0.0,236.0,0.0,0.0,2.26,,,0,0,0,0,0,0,0,0,0,0,0,0,0,0,0,0,2,,,,,39.239887,-77.964516,25.49,32,3,0.8
14163,1745086822521,0.0,190.3,,-0.07,0.11,0.99,10,-1,-0,1.0,1.07,93,3822,14.0,4.1,,13.39,1.049,91.6,,30.4,5,,,,,,,,,,,,0,0,0,0,0,0,0,0,0,0,0,0,0,0,0,0,,,,,0.0,,,,,,
14183,1745086822541,,,,,,,,,,,,,,,,,,,,,,,,,,,,,,,,,,0,0,0,0,0,0,0,0,0,0,0,0,0,0,0,0,,,,,,,,,,,
14203,1745086822561,0.0,190.3,,-0.07,0.15,1.01,10,-1,-0,1.02,1.07,95,3840,13.8,4.1,,13.32,1.062,91.6,,30.4,5,,,,,,,,,,,,0,0,0,0,0,0,0,0,0,0,0,0,0,0,0,0,,,,,0.0,,,,,,
14223,1745086822581,,,,,,,,,,,,,,,,,,,,,,,,,,,,,,,,,,0,0,0,0,0,0,0,0,0,0,0,0,0,0,0,0,,,,,,,,,,,
14243,1745086822601,0.0,190.3,13.75,-0.05,0.16,1.03,10,-1,-0,1.04,1.07,97,3859,13.6,4.14,15,13.32,1.062,91.6,153,29.9,5,16,0,16,16,0.0,4.0,0.0,0.0,2.25,0,0.0,0,0,0,0,0,0,0,0,0,0,0,0,0,0,0,0,2,0.0,0,0,0.0,39.239895,-77.964516,25.46,32,3,0.8
14263,1745086822621,,,,,,,,,,,,,,,,,,,,,,,,,,,,,,,,,,0,0,0,0,0,0,0,0,0,0,0,0,0,0,0,0,,,,,,,,,,,
14283,1745086822641,0.0,190.3,,-0.04,0.18,1.03,10,-1,0,1.05,1.07,98,3859,13.6,4.14,,13.33,1.06,91.6,,29.9,5,,,,,,,,,,,,0,0,0,0,0,0,0,0,0,0,0,0,0,0,0,0,,,,,0.0,,,,,,
14303,1745086822661,,,,,,,,,,,,,,,,,,,,,,,,,,,,,,,,,,0,0,0,0,0,0,0,0,0,0,0,0,0,0,0,0,,,,,,,,,,,
14323,1745086822681,0.0,190.3,,-0.04,0.14,1.02,9,-1,0,1.03,1.07,96,3826,13.5,4.13,,13.29,1.055,91.6,,29.7,5,,,,,,,,,,,,0,0,0,0,0,0,0,0,0,0,0,0,0,0,0,0,,,,,0.0,,,,,,
14343,1745086822801,,,,,,,,,,,,,,,,,,,,,,,16,0,16,16,0.0,220.0,0.0,0.0,2.25,,,0,0,0,0,0,0,0,0,0,0,0,0,0,0,0,0,2,,,,,39.239902,-77.964516,25.41,32,3,0.8
14363,1745086822720,0.0,190.3,,-0.06,0.09,0.99,9,-1,-0,1.0,1.07,93,3843,13.5,4.13,,13.27,1.048,91.6,,29.7,5,,,,,,,,,,,,0,0,0,0,0,0,0,0,0,0,0,0,0,0,0,0,,,,,0.0,,,,,,
14383,1745086822740,,,,,,,,,,,,,,,,,,,,,,,,,,,,,,,,,,0,0,0,0,0,0,0,0,0,0,0,0,0,0,0,0,,,,,,,,,,,
14403,1745086822760,0.0,190.3,,-0.05,0.07,0.96,9,-1,-0,0.96,1.07,90,3959,13.4,4.12,,13.32,1.058,91.6,,29.7,5,,,,,,,,,,,,0,0,0,0,0,0,0,0,0,0,0,0,0,0,0,0,,,,,0.0,,,,,,
14423,1745086822780,,,,,,,,,,,,,,,,,,,,,,,,,,,,,,,,,,0,0,0,0,0,0,0,0,0,0,0,0,0,0,0,0,,,,,,,,,,,
14443,1745086822800,0.0,190.17,,-0.05,0.08,0.97,9,-1,-0,0.98,1.07,91,3850,13.3,4.12,,13.32,1.058,91.6,,30.5,5,16,0,16,16,0.0,228.0,0.0,0.0,2.26,,,0,0,0,0,0,0,0,0,0,0,0,0,0,0,0,0,2,,,,0.0,39.239902,-77.964516,25.41,32,3,0.8
14463,1745086822820,,,,,,,,,,,,,,,,,,,,,,,,,,,,,,,,,,0,0,0,0,0,0,0,0,0,0,0,0,0,0,0,0,,,,,,,,,,,
14483,1745086822840,0.0,190.17,,-0.05,0.11,0.98,9,-1,-0,0.99,1.07,92,3850,13.3,4.12,,13.25,1.093,91.6,,30.5,5,,,,,,,,,,,,0,0,0,0,0,0,0,0,0,0,0,0,0,0,0,0,,,,,0.0,,,,,,
14503,1745086822860,,,,,,,,,,,,,,,,,,,,,,,,,,,,,,,,,,0,0,0,0,0,0,0,0,0,0,0,0,0,0,0,0,,,,,,,,,,,
14523,1745086822880,0.0,190.17,,-0.06,0.1,1.0,9,-1,-0,1.01,1.07,94,3824,13.2,4.13,,13.31,0.994,91.6,,30.0,5,,,,,,,,,,,,0,0,0,0,0,0,0,0,0,0,0,0,0,0,0,0,,,,,0.0,,,,,,
14543,1745086822905,,,,,,,,,,,,,,,,,,,,,,,16,0,16,16,0.0,0.0,0.0,0.0,2.26,,,0,0,0,0,0,0,0,0,0,0,0,0,0,0,0,0,2,,,,,39.239914,-77.964516,25.3,32,3,0.8
14563,1745086822925,0.0,190.17,,-0.06,0.13,1.01,8,-1,-0,1.02,1.07,95,3755,13.1,4.13,,13.33,0.985,91.6,,30.0,5,,,,,,,,,,,,0,0,0,0,0,0,0,0,0,0,0,0,0,0,0,0,,,,,0.0,,,,,,
14583,1745086822945,,,,,,,,,,,,,,,,,,,,,,,,,,,,,,,,,,0,0,0,0,0,0,0,0,0,0,0,0,0,0,0,0,,,,,,,,,,,
14603,1745086822965,0.0,190.17,,-0.07,0.12,1.05,8,-1,-0,1.06,1.07,99,3859,12.8,4.12,,13.27,1.011,91.6,,30.0,5,,,,,,,,,,,,0,0,0,0,0,0,0,0,0,0,0,0,0,0,0,0,,,,,0.0,,,,,,
14623,1745086822985,,,,,,,,,,,,,,,,,,,,,,,,,,,,,,,,,,0,0,0,0,0,0,0,0,0,0,0,0,0,0,0,0,,,,,,,,,,,
14643,1745086823005,0.0,190.05,,-0.07,0.04,0.97,8,-1,-0,0.98,1.07,91,3966,12.2,4.1,,13.27,1.011,91.6,,30.4,5,16,0,16,16,0.0,207.0,0.0,0.0,2.26,,,0,0,0,0,0,0,0,0,0,0,0,0,0,0,0,0,2,,,,0.0,39.239914,-77.964516,25.3,32,3,0.8
14663,1745086823016,,,,,,,,,,,,,,,,,,,,,,,,,,,,,,,,,,0,0,0,0,0,0,0,0,0,0,0,0,0,0,0,0,,,,,,,,,,,
14683,1745086823036,0.0,190.05,,-0.06,0.03,0.96,8,-1,-0,0.96,1.07,90,3966,12.2,4.1,,13.23,1.079,91.6,,30.4,5,,,,,,,,,,,,0,0,0,0,0,0,0,0,0,0,0,0,0,0,0,0,,,,,0.0,,,,,,
14703,1745086823056,,,,,,,,,,,,,,,,,,,,,,,,,,,,,,,,,,0,0,0,0,0,0,0,0,0,0,0,0,0,0,0,0,,,,,,,,,,,
14723,1745086823076,0.0,190.05,,-0.07,-0.0,0.96,8,-1,-0,0.96,1.07,90,3786,10.5,4.04,,13.12,1.011,91.6,,29.8,5,,,,,,,,,,,,0,0,0,0,0,0,0,0,0,0,0,0,0,0,0,0,,,,,0.0,,,,,,
14743,1745086823102,,,,,,,,,,,,,,,,,,,,,,,16,0,16,15,0.0,0.0,0.0,0.0,2.26,,,0,0,0,0,0,0,0,0,0,0,0,0,0,0,0,0,2,,,,,39.239925,-77.964523,25.57,32,3,0.8
14763,1745086823122,0.0,190.05,,-0.07,0.02,0.98,7,-1,-0,0.98,1.07,91,3775,10.3,4.03,,13.12,0.973,91.6,,29.8,5,,,,,,,,,,,,0,0,0,0,0,0,0,0,0,0,0,0,0,0,0,0,,,,,0.0,,,,,,
14783,1745086823142,,,,,,,,,,,,,,,,,,,,,,,,,,,,,,,,,,0,0,0,0,0,0,0,0,0,0,0,0,0,0,0,0,,,,,,,,,,,
14803,1745086823162,0.0,190.05,,-0.05,0.02,0.98,8,-1,-0,0.98,0.98,100,3749,10.1,3.95,,13.11,0.989,91.6,,29.8,5,,,,,,,,,,,,0,0,0,0,0,0,0,0,0,0,0,0,0,0,0,0,,,,,0.0,,,,,,
14823,1745086823182,,,,,,,,,,,,,,,,,,,,,,,,,,,,,,,,,,0,0,0,0,0,0,0,0,0,0,0,0,0,0,0,0,,,,,,,,,,,
14843,1745086823204,0.0,190.17,,-0.05,0.03,0.98,7,-1,-0,0.98,0.98,100,3825,9.7,3.94,,13.11,0.989,91.6,,29.3,5,16,0,16,16,0.0,252.0,0.0,0.0,2.25,,,0,0,0,0,0,0,0,0,0,0,0,0,0,0,0,0,2,,,,0.0,39.239933,-77.964523,25.49,32,3,0.8
14863,1745086823224,,,,,,,,,,,,,,,,,,,,,,,,,,,,,,,,,,0,0,0,0,0,0,0,0,0,0,0,0,0,0,0,0,,,,,,,,,,,
14883,1745086823244,0.0,190.05,,-0.07,0.05,0.96,7,-1,-0,0.97,0.98,99,3825,9.7,3.94,,13.0,1.009,91.6,,29.3,5,,,,,,,,,,,,0,0,0,0,0,0,0,0,0,0,0,0,0,0,0,0,,,,,0.0,,,,,,
14903,1745086823264,,,,,,,,,,,,,,,,,,,,,,,,,,,,,,,,,,0,0,0,0,0,0,0,0,0,0,0,0,0,0,0,0,,,,,,,,,,,
14923,1745086823284,0.0,190.05,,-0.07,0.06,0.98,7,-1,0,0.99,0.99,100,3766,9.2,3.91,,13.01,1.017,91.6,,29.6,5,,,,,,,,,,,,0,0,0,0,0,0,0,0,0,0,0,0,0,0,0,0,,,,,0.0,,,,,,
14943,1745086823304,,,,,,,,,,,,,,,,,,,,,,,16,0,16,16,0.0,8.0,0.0,0.0,2.26,,,0,0,0,0,0,0,0,0,0,0,0,0,0,0,0,0,2,,,,,39.239941,-77.964523,25.23,32,3,0.8
14963,1745086823324,0.0,190.17,,-0.07,0.05,1.02,7,-1,0,1.03,1.03,100,3752,8.9,3.91,,12.96,1.009,91.6,,29.6,5,,,,,,,,,,,,0,0,0,0,0,0,0,0,0,0,0,0,0,0,0,0,,,,,0.0,,,,,,
14983,1745086823344,,,,,,,,,,,,,,,,,,,,,,,,,,,,,,,,,,0,0,0,0,0,0,0,0,0,0,0,0,0,0,0,0,,,,,,,,,,,
15003,1745086823364,0.0,190.05,,-0.07,0.06,0.99,7,-1,-0,1.0,1.03,97,3777,8.9,3.91,,12.93,1.018,91.6,,29.6,5,,,,,,,,,,,,0,0,0,0,0,0,0,0,0,0,0,0,0,0,0,0,,,,,0.0,,,,,,
15023,1745086823384,,,,,,,,,,,,,,,,,,,,,,,,,,,,,,,,,,0,0,0,0,0,0,0,0,0,0,0,0,0,0,0,0,,,,,,,,,,,
15043,1745086823404,0.0,190.05,,-0.1,0.07,1.0,7,-1,-0,1.0,1.03,98,3751,8.7,3.92,,12.93,1.018,91.6,,29.7,5,16,0,16,16,0.0,240.0,0.0,0.0,2.26,,,0,0,0,0,0,0,0,0,0,0,0,0,0,0,0,0,2,,,,0.0,39.239944,-77.964531,25.13,32,3,0.8
15063,1745086823424,,,,,,,,,,,,,,,,,,,,,,,,,,,,,,,,,,0,0,0,0,0,0,0,0,0,0,0,0,0,0,0,0,,,,,,,,,,,
15083,1745086823444,0.0,190.17,,-0.1,0.09,1.02,7,-1,-0,1.03,1.03,100,3751,8.7,3.92,,12.93,1.013,91.6,,29.7,5,,,,,,,,,,,,0,0,0,0,0,0,0,0,0,0,0,0,0,0,0,0,,,,,0.0,,,,,,
15103,1745086823464,,,,,,,,,,,,,,,,,,,,,,,,,,,,,,,,,,0,0,0,0,0,0,0,0,0,0,0,0,0,0,0,0,,,,,,,,,,,
15123,1745086823484,0.0,190.05,,-0.1,0.1,1.05,7,-1,-0,1.06,1.06,100,3807,8.6,3.87,,12.96,1.014,91.6,,29.8,5,,,,,,,,,,,,0,0,0,0,0,0,0,0,0,0,0,0,0,0,0,0,,,,,0.0,,,,,,
15143,1745086823502,,,,,,,,,,,,,,,,,,,,,,,16,0,16,15,0.0,17.0,0.0,0.0,2.26,,,0,0,0,0,0,0,0,0,0,0,0,0,0,0,0,0,2,,,,,39.239948,-77.964531,24.93,32,3,0.8
15163,1745086823522,0.0,190.17,,-0.1,0.13,1.04,7,-1,0,1.06,1.06,100,3786,8.5,3.86,,12.93,1.021,91.6,,29.8,5,,,,,,,,,,,,0,0,0,0,0,0,0,0,0,0,0,0,0,0,0,0,,,,,0.0,,,,,,
15183,1745086823542,,,,,,,,,,,,,,,,,,,,,,,,,,,,,,,,,,0,0,0,0,0,0,0,0,0,0,0,0,0,0,0,0,,,,,,,,,,,
15203,1745086823562,0.0,190.17,,-0.09,0.14,1.04,6,-1,0,1.05,1.06,100,3809,8.5,3.86,,12.92,1.019,91.6,,29.8,5,,,,,,,,,,,,0,0,0,0,0,0,0,0,0,0,0,0,0,0,0,0,,,,,0.0,,,,,,
15223,1745086823582,,,,,,,,,,,,,,,,,,,,,,,,,,,,,,,,,,0,0,0,0,0,0,0,0,0,0,0,0,0,0,0,0,,,,,,,,,,,
15243,1745086823602,0.0,190.05,13.7,-0.09,0.14,1.04,6,-1,0,1.06,1.06,100,3705,8.7,3.87,15,12.92,1.019,91.6,153,29.6,5,15,0,15,15,0.0,222.0,0.0,0.0,2.26,0,0.0,0,0,0,0,0,0,0,0,0,0,0,0,0,0,0,0,2,0.0,0,0,0.0,39.239956,-77.964531,24.7,32,3,0.8
15263,1745086823622,,,,,,,,,,,,,,,,,,,,,,,,,,,,,,,,,,0,0,0,0,0,0,0,0,0,0,0,0,0,0,0,0,,,,,,,,,,,
15283,1745086823642,0.0,190.05,,-0.08,0.12,1.04,6,-1,-0,1.05,1.06,99,3705,8.7,3.87,,12.96,1.023,91.6,,29.6,5,,,,,,,,,,,,0,0,0,0,0,0,0,0,0,0,0,0,0,0,0,0,,,,,0.0,,,,,,
15303,1745086823662,,,,,,,,,,,,,,,,,,,,,,,,,,,,,,,,,,0,0,0,0,0,0,0,0,0,0,0,0,0,0,0,0,,,,,,,,,,,
15323,1745086823682,0.0,190.05,,-0.09,0.12,1.01,7,-1,-1,1.02,1.06,96,3695,8.7,3.87,,13.03,1.041,91.6,,28.6,5,,,,,,,,,,,,0,0,0,0,0,0,0,0,0,0,0,0,0,0,0,0,,,,,0.0,,,,,,
15343,1745086823702,,,,,,,,,,,,,,,,,,,,,,,16,0,16,15,0.0,202.0,0.0,0.0,2.25,,,0,0,0,0,0,0,0,0,0,0,0,0,0,0,0,0,2,,,,,39.239964,-77.964539,24.69,32,3,0.8
15363,1745086823722,0.0,190.05,,-0.12,0.1,0.97,7,-1,-0,0.99,1.06,93,3715,8.8,3.9,,13.05,1.041,91.6,,28.6,5,,,,,,,,,,,,0,0,0,0,0,0,0,0,0,0,0,0,0,0,0,0,,,,,0.0,,,,,,
15383,1745086823742,,,,,,,,,,,,,,,,,,,,,,,,,,,,,,,,,,0,0,0,0,0,0,0,0,0,0,0,0,0,0,0,0,,,,,,,,,,,
15403,1745086823762,0.0,190.05,,-0.13,0.06,0.97,7,-1,-1,0.98,1.06,93,3698,8.8,3.9,,12.95,1.046,91.6,,28.6,5,,,,,,,,,,,,0,0,0,0,0,0,0,0,0,0,0,0,0,0,0,0,,,,,0.0,,,,,,
15423,1745086823782,,,,,,,,,,,,,,,,,,,,,,,,,,,,,,,,,,0,0,0,0,0,0,0,0,0,0,0,0,0,0,0,0,,,,,,,,,,,
15443,1745086823802,0.0,190.05,,-0.11,0.05,0.99,7,-0,-1,1.0,1.06,94,3731,8.8,3.9,,12.95,1.046,91.6,,28.7,5,15,0,15,15,0.0,45.0,0.0,0.0,2.26,,,0,0,0,0,0,0,0,0,0,0,0,0,0,0,0,0,2,,,,0.0,39.239964,-77.964539,24.69,32,3,0.8
15463,1745086823819,,,,,,,,,,,,,,,,,,,,,,,,,,,,,,,,,,0,0,0,0,0,0,0,0,0,0,0,0,0,0,0,0,,,,,,,,,,,
15483,1745086823839,0.0,190.05,,-0.11,0.03,0.96,7,0,-1,0.97,1.06,92,3731,8.8,3.9,,13.01,1.047,91.6,,28.7,5,,,,,,,,,,,,0,0,0,0,0,0,0,0,0,0,0,0,0,0,0,0,,,,,0.0,,,,,,
15503,1745086823859,,,,,,,,,,,,,,,,,,,,,,,,,,,,,,,,,,0,0,0,0,0,0,0,0,0,0,0,0,0,0,0,0,,,,,,,,,,,
15523,1745086823879,0.0,190.05,,-0.11,0.04,1.0,7,0,-1,1.0,1.06,95,3668,8.8,3.89,,13.01,1.045,91.6,,29.0,5,,,,,,,,,,,,0,0,0,0,0,0,0,0,0,0,0,0,0,0,0,0,,,,,0.0,,,,,,
15543,1745086823905,,,,,,,,,,,,,,,,,,,,,,,16,0,15,16,0.0,0.0,0.0,0.0,2.26,,,0,0,0,0,0,0,0,0,0,0,0,0,0,0,0,0,2,,,,,39.239975,-77.964539,24.27,32,3,0.8
15563,1745086823925,0.0,190.05,,-0.09,0.07,0.99,6,-0,-0,1.0,1.06,94,3662,8.8,3.89,,13.01,1.054,91.6,,29.0,5,,,,,,,,,,,,0,0,0,0,0,0,0,0,0,0,0,0,0,0,0,0,,,,,0.0,,,,,,
15583,1745086823945,,,,,,,,,,,,,,,,,,,,,,,,,,,,,,,,,,0,0,0,0,0,0,0,0,0,0,0,0,0,0,0,0,,,,,,,,,,,
15603,1745086823965,0.0,190.05,,-0.09,0.13,1.01,6,-0,-0,1.02,1.06,97,3602,8.7,3.9,,13.12,1.068,91.6,,29.0,5,,,,,,,,,,,,0,0,0,0,0,0,0,0,0,0,0,0,0,0,0,0,,,,,0.0,,,,,,
15623,1745086823985,,,,,,,,,,,,,,,,,,,,,,,,,,,,,,,,,,0,0,0,0,0,0,0,0,0,0,0,0,0,0,0,0,,,,,,,,,,,
