"Interval"|"ms"|0|0|1,"Utc"|"ms"|0|0|1,"FrontBP"|"psi"|-5.0|5.0|25,"SteerAng"|"Degrees"|-145.0|145.0|25,"Battery"|"Volts"|-5.0|20.0|1,"AccelX"|"G"|-3.0|3.0|25,"AccelY"|"G"|-3.0|3.0|25,"AccelZ"|"G"|-3.0|3.0|25,"Yaw"|"Deg/Sec"|-120|120|25,"Pitch"|"Deg/Sec"|-120|120|25,"Roll"|"Deg/Sec"|-120|120|25,"Gsum"|"G"|0.0|3.0|25,"GsumMax"|"G"|0.0|3.0|25,"GsumPct"|"%"|0|100|25,"RPM"|""|0|10000|25,"TPS"|"%"|0.0|100.0|25,"InjectorPW"|"ms"|0.0|100.0|25,"Baro"|"kPa"|0|105|1,"MAP"|"Psi"|0.0|255.0|25,"Lambda"|""|-2.0|2.0|25,"IAT"|"C"|0.0|200.0|25,"EngineTemp"|"C"|0|200|1,"EOP"|"PSI"|0.0|152.0|25,"EOT"|"F"|0|250|25,"WSFR"|"MPH"|0|150|10,"WSFL"|"MPH"|0|100|10,"WSRR"|"MPH"|0|100|10,"WSRL"|""|0|100|10,"TCSet"|"%"|0.0|100.0|10,"TCSlip"|"%"|0.0|100.0|10,"TCComp"|"deg"|0.0|50.0|10,"TCCut"|"%"|0.0|100.0|10,"Analog8"|""|0.0|5.0|10,"OilTemp"|"F"|0|300|1,"AA_On"|""|0.0|1.0|1,"ThermLF1"|"C"|0|400|50,"ThermLF2"|"C"|0|400|50,"ThermRR1"|"C"|0|400|50,"ThermRR2"|"C"|0|400|50,"ThermLF3"|"C"|0|400|50,"ThermLF4"|"C"|0|400|50,"ThermLF5"|"C"|0|400|50,"ThermLF6"|"C"|0|400|50,"ThermLF7"|"C"|0|400|50,"ThermLF8"|"C"|0|400|50,"ThermRR3"|"C"|0|400|50,"ThermRR4"|"C"|0|400|50,"ThermRR5"|"C"|0|400|50,"ThermRR6"|"C"|0|400|50,"ThermRR7"|"C"|0|400|50,"ThermRR8"|"C"|0|400|50,"Gear"|""|1|6|10,"AA_On"|""|0.0|1.0|1,"AA_LowDrag"|""|0|1|1,"Fuel_Mix"|""|-10|10|1,"AA_Packages"|""|0.0|1000.0|25,"Latitude"|"Degrees"|-180.0|180.0|10,"Longitude"|"Degrees"|-180.0|180.0|10,"Speed"|"kph"|0.0|150.0|10,"GPSSats"|""|0|20|10,"GPSQual"|""|0|5|10,"GPSDOP"|""|0.0|20.0|10
2688228,1745086414428,0.0,189.79,,-0.04,-0.12,0.94,0,-0,-0,0.95,0.95,100,4275,13.4,3.83,,13.04,1.085,91.6,,45.6,5,,,,,,,,,,,,0,0,0,0,0,0,0,0,0,0,0,0,0,0,0,0,,,,,0.0,,,,,,
2688248,1745086414448,,,,,,,,,,,,,,,,,,,,,,,,,,,,,,,,,,0,0,0,0,0,0,0,0,0,0,0,0,0,0,0,0,,,,,,,,,,,
2688268,1745086414468,0.0,189.79,,-0.03,0.03,1.04,0,-0,0,1.04,1.04,100,4194,0.0,2.45,,12.28,1.19,91.6,,45.6,5,,,,,,,,,,,,0,0,0,0,0,0,0,0,0,0,0,0,0,0,0,0,,,,,0.0,,,,,,
2688288,1745086414488,,,,,,,,,,,,,,,,,,,,,,,,,,,,,,,,,,0,0,0,0,0,0,0,0,0,0,0,0,0,0,0,0,,,,,,,,,,,
2688308,1745086414508,0.0,189.79,,-0.04,-0.07,0.98,0,-0,0,0.98,1.04,94,4074,0.0,2.42,,11.67,1.252,91.6,,45.6,5,0,0,0,0,0.0,0.0,0.0,0.0,2.26,,,0,0,0,0,0,0,0,0,0,0,0,0,0,0,0,0,0,,,,0.0,39.240116,-77.964874,0.08,32,3,0.8
2688328,1745086414528,,,,,,,,,,,,,,,,,,,,,,,,,,,,,,,,,,0,0,0,0,0,0,0,0,0,0,0,0,0,0,0,0,,,,,,,,,,,
2688348,1745086414548,0.0,189.79,,-0.03,0.0,0.98,0,-0,0,0.98,1.04,94,3970,0.0,2.43,,11.67,1.252,91.6,,43.6,5,,,,,,,,,,,,0,0,0,0,0,0,0,0,0,0,0,0,0,0,0,0,,,,,0.0,,,,,,
2688368,1745086414568,,,,,,,,,,,,,,,,,,,,,,,,,,,,,,,,,,0,0,0,0,0,0,0,0,0,0,0,0,0,0,0,0,,,,,,,,,,,
2688388,1745086414588,0.0,189.79,,-0.04,0.1,1.07,-1,-0,1,1.08,1.08,100,3970,0.0,2.43,,11.33,1.252,91.6,,43.6,5,,,,,,,,,,,,0,0,0,0,0,0,0,0,0,0,0,0,0,0,0,0,,,,,0.0,,,,,,
2688408,1745086414608,,,,,,,,,,,,,,,,,,,,,,,0,0,0,0,0.0,0.0,0.0,0.0,2.26,,,0,0,0,0,0,0,0,0,0,0,0,0,0,0,0,0,0,,,,,39.240116,-77.964874,0.07,32,3,0.8
2688428,1745086414628,0.0,189.67,,-0.05,0.03,1.06,-1,-0,0,1.06,1.08,98,3963,0.0,2.4,,11.2,1.251,91.6,,42.3,5,,,,,,,,,,,,0,0,0,0,0,0,0,0,0,0,0,0,0,0,0,0,,,,,0.0,,,,,,
2688448,1745086414648,,,,,,,,,,,,,,,,,,,,,,,,,,,,,,,,,,0,0,0,0,0,0,0,0,0,0,0,0,0,0,0,0,,,,,,,,,,,
2688468,1745086414668,0.0,189.67,,-0.05,0.01,1.05,-0,-0,0,1.06,1.08,98,3822,5.6,3.78,,11.53,1.252,91.6,,42.3,5,,,,,,,,,,,,0,0,0,0,0,0,0,0,0,0,0,0,0,0,0,0,,,,,0.0,,,,,,
2688488,1745086414688,,,,,,,,,,,,,,,,,,,,,,,,,,,,,,,,,,0,0,0,0,0,0,0,0,0,0,0,0,0,0,0,0,,,,,,,,,,,
2688508,1745086414708,0.0,189.54,,-0.05,0.04,1.05,-0,-0,0,1.05,1.08,97,3719,13.1,3.92,,12.53,1.245,91.6,,42.3,5,0,0,0,0,0.0,0.0,0.0,0.0,2.27,,,0,0,0,0,0,0,0,0,0,0,0,0,0,0,0,0,0,,,,0.0,39.240116,-77.964874,0.13,32,3,0.8
2688528,1745086414728,,,,,,,,,,,,,,,,,,,,,,,,,,,,,,,,,,0,0,0,0,0,0,0,0,0,0,0,0,0,0,0,0,,,,,,,,,,,
2688548,1745086414748,0.0,189.67,,-0.05,0.03,1.03,-0,-0,0,1.04,1.08,96,3670,15.1,4.03,,12.53,1.245,91.6,,39.4,5,,,,,,,,,,,,0,0,0,0,0,0,0,0,0,0,0,0,0,0,0,0,,,,,0.0,,,,,,
2688568,1745086414768,,,,,,,,,,,,,,,,,,,,,,,,,,,,,,,,,,0,0,0,0,0,0,0,0,0,0,0,0,0,0,0,0,,,,,,,,,,,
2688588,1745086414788,0.0,189.67,,-0.04,0.04,1.05,-0,-0,0,1.05,1.08,97,3670,15.1,4.03,,13.16,1.199,91.6,,39.4,5,,,,,,,,,,,,0,0,0,0,0,0,0,0,0,0,0,0,0,0,0,0,,,,,0.0,,,,,,
2688608,1745086414807,,,,,,,,,,,,,,,,,,,,,,,0,0,0,0,0.0,0.0,0.0,0.0,2.27,,,0,0,0,0,0,0,0,0,0,0,0,0,0,0,0,0,0,,,,,39.240116,-77.964874,0.16,32,3,0.8
2688628,1745086414827,0.0,189.67,,-0.03,0.05,1.03,-0,-0,0,1.03,1.08,96,3740,15.6,4.11,,13.43,1.204,91.6,,38.8,5,,,,,,,,,,,,0,0,0,0,0,0,0,0,0,0,0,0,0,0,0,0,,,,,0.0,,,,,,
2688648,1745086414847,,,,,,,,,,,,,,,,,,,,,,,,,,,,,,,,,,0,0,0,0,0,0,0,0,0,0,0,0,0,0,0,0,,,,,,,,,,,
2688668,1745086414867,0.0,189.67,,-0.03,0.05,1.0,-0,-0,0,1.0,1.08,93,3709,15.8,4.06,,13.52,1.24,91.6,,38.8,5,,,,,,,,,,,,0,0,0,0,0,0,0,0,0,0,0,0,0,0,0,0,,,,,0.0,,,,,,
2688688,1745086414887,,,,,,,,,,,,,,,,,,,,,,,,,,,,,,,,,,0,0,0,0,0,0,0,0,0,0,0,0,0,0,0,0,,,,,,,,,,,
2688708,1745086414907,0.0,189.54,13.39,-0.03,0.06,1.01,-0,-0,0,1.01,1.08,94,3717,15.9,4.01,15,13.47,1.251,91.6,135,38.8,5,0,0,0,0,0.0,0.0,0.0,0.0,2.26,0,0.0,0,0,0,0,0,0,0,0,0,0,0,0,0,0,0,0,0,0.0,0,0,0.0,39.240116,-77.964874,0.08,32,3,0.8
2688728,1745086414927,,,,,,,,,,,,,,,,,,,,,,,,,,,,,,,,,,0,0,0,0,0,0,0,0,0,0,0,0,0,0,0,0,,,,,,,,,,,
2688748,1745086414947,0.0,189.54,,-0.08,-0.11,0.96,0,-0,-0,0.97,1.08,90,3818,16.0,2.63,,13.47,1.251,91.6,,39.3,5,,,,,,,,,,,,0,0,0,0,0,0,0,0,0,0,0,0,0,0,0,0,,,,,0.0,,,,,,
2688768,1745086414967,,,,,,,,,,,,,,,,,,,,,,,,,,,,,,,,,,0,0,0,0,0,0,0,0,0,0,0,0,0,0,0,0,,,,,,,,,,,
2688788,1745086414987,0.0,189.54,,-0.08,-0.09,0.94,0,-0,-0,0.94,1.08,88,3818,16.0,2.63,,13.44,1.253,91.6,,39.3,5,,,,,,,,,,,,0,0,0,0,0,0,0,0,0,0,0,0,0,0,0,0,,,,,0.0,,,,,,
2688808,1745086414997,,,,,,,,,,,,,,,,,,,,,,,0,0,0,0,0.0,0.0,0.0,0.0,2.26,,,0,0,0,0,0,0,0,0,0,0,0,0,0,0,0,0,0,,,,,39.240116,-77.964874,0.09,33,3,0.8
2688828,1745086415017,0.0,189.54,,-0.1,-0.15,0.93,1,-0,-1,0.95,1.08,88,3612,13.2,4.0,,13.37,1.254,91.6,,37.4,5,,,,,,,,,,,,0,0,0,0,0,0,0,0,0,0,0,0,0,0,0,0,,,,,0.0,,,,,,
2688848,1745086415037,,,,,,,,,,,,,,,,,,,,,,,,,,,,,,,,,,0,0,0,0,0,0,0,0,0,0,0,0,0,0,0,0,,,,,,,,,,,
2688868,1745086415057,0.0,189.67,,-0.1,-0.1,0.99,0,-0,-0,1.0,1.08,93,3548,12.4,3.99,,13.39,1.252,91.6,,37.4,5,,,,,,,,,,,,0,0,0,0,0,0,0,0,0,0,0,0,0,0,0,0,,,,,0.0,,,,,,
2688888,1745086415077,,,,,,,,,,,,,,,,,,,,,,,,,,,,,,,,,,0,0,0,0,0,0,0,0,0,0,0,0,0,0,0,0,,,,,,,,,,,
2688908,1745086415103,0.0,189.67,,-0.07,-0.0,0.96,0,-0,0,0.96,1.08,89,3459,12.4,4.01,,13.37,1.252,91.6,,37.4,5,0,0,0,0,0.0,0.0,0.0,0.0,2.27,,,0,0,0,0,0,0,0,0,0,0,0,0,0,0,0,0,0,,,,0.0,39.240116,-77.964874,0.07,33,3,0.8
2688928,1745086415123,,,,,,,,,,,,,,,,,,,,,,,,,,,,,,,,,,0,0,0,0,0,0,0,0,0,0,0,0,0,0,0,0,,,,,,,,,,,
2688948,1745086415143,0.0,189.54,,-0.07,-0.07,0.95,1,-0,-0,0.95,1.08,88,3501,13.0,4.09,,13.37,1.252,91.6,,36.4,5,,,,,,,,,,,,0,0,0,0,0,0,0,0,0,0,0,0,0,0,0,0,,,,,0.0,,,,,,
2688968,1745086415163,,,,,,,,,,,,,,,,,,,,,,,,,,,,,,,,,,0,0,0,0,0,0,0,0,0,0,0,0,0,0,0,0,,,,,,,,,,,
2688988,1745086415183,0.0,189.54,,-0.09,-0.02,0.99,-0,-0,0,1.0,1.08,93,3501,13.0,4.09,,13.51,1.252,91.6,,36.4,5,,,,,,,,,,,,0,0,0,0,0,0,0,0,0,0,0,0,0,0,0,0,,,,,0.0,,,,,,
2689008,1745086415203,,,,,,,,,,,,,,,,,,,,,,,0,0,0,0,0.0,0.0,0.0,0.0,2.26,,,0,0,0,0,0,0,0,0,0,0,0,0,0,0,0,0,0,,,,,39.240116,-77.964874,0.12,33,3,0.8
2689028,1745086415223,0.0,189.54,,-0.07,0.06,0.98,-0,-0,0,0.98,1.08,91,3507,13.9,4.07,,13.53,1.252,91.6,,37.3,5,,,,,,,,,,,,0,0,0,0,0,0,0,0,0,0,0,0,0,0,0,0,,,,,0.0,,,,,,
2689048,1745086415243,,,,,,,,,,,,,,,,,,,,,,,,,,,,,,,,,,0,0,0,0,0,0,0,0,0,0,0,0,0,0,0,0,,,,,,,,,,,
2689068,1745086415263,0.0,189.67,,-0.07,0.06,0.94,0,-0,-0,0.94,1.08,87,3550,14.3,4.05,,13.55,1.253,91.6,,37.3,5,,,,,,,,,,,,0,0,0,0,0,0,0,0,0,0,0,0,0,0,0,0,,,,,0.0,,,,,,
2689088,1745086415283,,,,,,,,,,,,,,,,,,,,,,,,,,,,,,,,,,0,0,0,0,0,0,0,0,0,0,0,0,0,0,0,0,,,,,,,,,,,
2689108,1745086415305,0.0,189.54,,-0.09,0.01,0.93,0,-0,-0,0.94,1.08,87,3617,14.3,4.03,,13.44,1.252,91.6,,37.3,5,0,0,0,0,0.0,0.0,0.0,0.0,2.27,,,0,0,0,0,0,0,0,0,0,0,0,0,0,0,0,0,0,,,,0.0,39.240116,-77.964874,0.09,33,3,0.8
2689128,1745086415325,,,,,,,,,,,,,,,,,,,,,,,,,,,,,,,,,,0,0,0,0,0,0,0,0,0,0,0,0,0,0,0,0,,,,,,,,,,,
2689148,1745086415345,0.0,189.54,,-0.08,-0.04,0.95,0,-0,-0,0.95,1.08,88,3718,9.1,3.73,,13.44,1.252,91.6,,38.5,5,,,,,,,,,,,,0,0,0,0,0,0,0,0,0,0,0,0,0,0,0,0,,,,,0.0,,,,,,
2689168,1745086415365,,,,,,,,,,,,,,,,,,,,,,,,,,,,,,,,,,0,0,0,0,0,0,0,0,0,0,0,0,0,0,0,0,,,,,,,,,,,
2689188,1745086415385,0.0,189.54,,-0.08,-0.09,0.95,-0,-0,-0,0.96,1.08,89,3718,9.1,3.73,,13.16,1.252,91.6,,38.5,5,,,,,,,,,,,,0,0,0,0,0,0,0,0,0,0,0,0,0,0,0,0,,,,,0.0,,,,,,
2689208,1745086415407,,,,,,,,,,,,,,,,,,,,,,,0,0,0,0,0.0,0.0,0.0,0.0,2.26,,,0,0,0,0,0,0,0,0,0,0,0,0,0,0,0,0,0,,,,,39.240116,-77.964874,0.07,33,3,0.8
2689228,1745086415427,0.0,189.54,,-0.07,-0.07,0.98,-0,-0,0,0.98,1.08,91,3681,8.1,3.61,,13.01,1.252,91.6,,38.9,5,,,,,,,,,,,,0,0,0,0,0,0,0,0,0,0,0,0,0,0,0,0,,,,,0.0,,,,,,
2689248,1745086415447,,,,,,,,,,,,,,,,,,,,,,,,,,,,,,,,,,0,0,0,0,0,0,0,0,0,0,0,0,0,0,0,0,,,,,,,,,,,
2689268,1745086415467,0.0,189.54,,-0.06,-0.08,0.99,-0,-0,0,0.99,1.08,92,3752,8.0,3.64,,12.92,1.254,91.6,,38.9,5,,,,,,,,,,,,0,0,0,0,0,0,0,0,0,0,0,0,0,0,0,0,,,,,0.0,,,,,,
2689288,1745086415487,,,,,,,,,,,,,,,,,,,,,,,,,,,,,,,,,,0,0,0,0,0,0,0,0,0,0,0,0,0,0,0,0,,,,,,,,,,,
2689308,1745086415507,0.0,189.54,,-0.06,-0.07,0.98,0,-0,-0,0.98,1.08,91,3687,9.2,3.63,,13.04,1.255,91.6,,38.9,5,0,0,0,0,0.0,0.0,0.0,0.0,2.26,,,0,0,0,0,0,0,0,0,0,0,0,0,0,0,0,0,0,,,,0.0,39.240116,-77.964874,0.11,33,3,0.8
2689328,1745086415527,,,,,,,,,,,,,,,,,,,,,,,,,,,,,,,,,,0,0,0,0,0,0,0,0,0,0,0,0,0,0,0,0,,,,,,,,,,,
2689348,1745086415547,0.0,189.67,,-0.08,-0.05,0.97,0,-0,0,0.98,1.08,90,3756,13.8,3.95,,13.04,1.255,91.6,,39.3,5,,,,,,,,,,,,0,0,0,0,0,0,0,0,0,0,0,0,0,0,0,0,,,,,0.0,,,,,,
2689368,1745086415567,,,,,,,,,,,,,,,,,,,,,,,,,,,,,,,,,,0,0,0,0,0,0,0,0,0,0,0,0,0,0,0,0,,,,,,,,,,,
2689388,1745086415587,0.0,189.54,,-0.07,-0.04,0.98,0,-0,0,0.98,1.08,91,3756,13.8,3.95,,13.23,1.253,91.6,,39.3,5,,,,,,,,,,,,0,0,0,0,0,0,0,0,0,0,0,0,0,0,0,0,,,,,0.0,,,,,,
2689408,1745086415607,,,,,,,,,,,,,,,,,,,,,,,0,0,0,0,0.0,0.0,0.0,0.0,2.27,,,0,0,0,0,0,0,0,0,0,0,0,0,0,0,0,0,0,,,,,39.240116,-77.964874,0.05,33,3,0.8
2689428,1745086415627,0.0,189.54,,-0.06,-0.05,0.96,1,-0,-0,0.96,1.08,89,3750,14.9,3.97,,13.39,1.252,91.6,,40.0,5,,,,,,,,,,,,0,0,0,0,0,0,0,0,0,0,0,0,0,0,0,0,,,,,0.0,,,,,,
2689448,1745086415647,,,,,,,,,,,,,,,,,,,,,,,,,,,,,,,,,,0,0,0,0,0,0,0,0,0,0,0,0,0,0,0,0,,,,,,,,,,,
2689468,1745086415667,0.0,189.67,,-0.04,-0.06,0.95,1,-0,-0,0.95,1.08,89,3858,15.3,3.97,,13.37,1.251,91.6,,40.0,5,,,,,,,,,,,,0,0,0,0,0,0,0,0,0,0,0,0,0,0,0,0,,,,,0.0,,,,,,
2689488,1745086415687,,,,,,,,,,,,,,,,,,,,,,,,,,,,,,,,,,0,0,0,0,0,0,0,0,0,0,0,0,0,0,0,0,,,,,,,,,,,
2689508,1745086415707,0.0,189.54,,-0.02,-0.08,0.95,1,-0,-0,0.95,1.08,88,3786,15.5,3.91,,13.45,1.251,91.6,,40.0,5,0,0,0,0,0.0,0.0,0.0,0.0,2.27,,,0,0,0,0,0,0,0,0,0,0,0,0,0,0,0,0,0,,,,0.0,39.240116,-77.964874,0.1,33,3,0.8
2689528,1745086415727,,,,,,,,,,,,,,,,,,,,,,,,,,,,,,,,,,0,0,0,0,0,0,0,0,0,0,0,0,0,0,0,0,,,,,,,,,,,
2689548,1745086415747,0.0,189.67,,-0.03,-0.03,0.97,1,-0,-0,0.97,1.08,90,3837,15.4,3.89,,13.45,1.251,91.6,,40.5,5,,,,,,,,,,,,0,0,0,0,0,0,0,0,0,0,0,0,0,0,0,0,,,,,0.0,,,,,,
2689568,1745086415767,,,,,,,,,,,,,,,,,,,,,,,,,,,,,,,,,,0,0,0,0,0,0,0,0,0,0,0,0,0,0,0,0,,,,,,,,,,,
2689588,1745086415787,0.0,189.67,,-0.04,-0.02,1.01,0,-0,0,1.01,1.08,94,3837,15.4,3.89,,13.35,1.251,91.6,,40.5,5,,,,,,,,,,,,0,0,0,0,0,0,0,0,0,0,0,0,0,0,0,0,,,,,0.0,,,,,,
2689608,1745086415806,,,,,,,,,,,,,,,,,,,,,,,0,0,0,0,0.0,0.0,0.0,0.0,2.27,,,0,0,0,0,0,0,0,0,0,0,0,0,0,0,0,0,0,,,,,39.240116,-77.964874,0.0,33,3,0.8
2689628,1745086415826,0.0,189.54,,-0.06,-0.04,1.04,-0,-0,0,1.04,1.08,96,3969,7.1,3.56,,13.07,1.252,91.6,,42.2,5,,,,,,,,,,,,0,0,0,0,0,0,0,0,0,0,0,0,0,0,0,0,,,,,0.0,,,,,,
2689648,1745086415846,,,,,,,,,,,,,,,,,,,,,,,,,,,,,,,,,,0,0,0,0,0,0,0,0,0,0,0,0,0,0,0,0,,,,,,,,,,,
2689668,1745086415866,0.0,189.67,,-0.07,-0.12,0.98,1,-0,-0,0.99,1.08,92,3899,3.9,4.06,,12.68,1.25,91.6,,42.2,5,,,,,,,,,,,,0,0,0,0,0,0,0,0,0,0,0,0,0,0,0,0,,,,,0.0,,,,,,
2689688,1745086415886,,,,,,,,,,,,,,,,,,,,,,,,,,,,,,,,,,0,0,0,0,0,0,0,0,0,0,0,0,0,0,0,0,,,,,,,,,,,
2689708,1745086415908,0.0,189.54,13.38,-0.06,-0.09,0.97,1,-0,-0,0.98,1.08,91,3925,3.8,4.04,15,12.44,1.251,91.6,135,42.2,5,0,0,0,0,0.0,0.0,0.0,0.0,2.27,0,0.0,0,0,0,0,0,0,0,0,0,0,0,0,0,0,0,0,0,0.0,0,-0,0.0,39.240116,-77.964874,0.04,33,3,0.8
2689728,1745086415928,,,,,,,,,,,,,,,,,,,,,,,,,,,,,,,,,,0,0,0,0,0,0,0,0,0,0,0,0,0,0,0,0,,,,,,,,,,,
2689748,1745086415948,0.0,189.54,,-0.06,-0.08,1.06,-1,-0,1,1.07,1.08,99,3870,3.8,3.93,,12.44,1.251,91.6,,41.0,5,,,,,,,,,,,,0,0,0,0,0,0,0,0,0,0,0,0,0,0,0,0,,,,,0.0,,,,,,
2689768,1745086415968,,,,,,,,,,,,,,,,,,,,,,,,,,,,,,,,,,0,0,0,0,0,0,0,0,0,0,0,0,0,0,0,0,,,,,,,,,,,
2689788,1745086415988,0.0,189.54,,-0.06,-0.04,1.07,-1,-0,1,1.07,1.08,99,3870,3.8,3.93,,12.33,1.252,91.6,,41.0,5,,,,,,,,,,,,0,0,0,0,0,0,0,0,0,0,0,0,0,0,0,0,,,,,0.0,,,,,,
2689808,1745086415998,,,,,,,,,,,,,,,,,,,,,,,0,0,0,0,0.0,0.0,0.0,0.0,2.27,,,0,0,0,0,0,0,0,0,0,0,0,0,0,0,0,0,0,,,,,39.240116,-77.964874,0.08,34,3,0.8
2689828,1745086416018,0.0,189.54,,-0.06,-0.02,1.05,-1,-0,1,1.05,1.08,98,3780,3.8,3.93,,12.37,1.252,91.6,,39.6,5,,,,,,,,,,,,0,0,0,0,0,0,0,0,0,0,0,0,0,0,0,0,,,,,0.0,,,,,,
2689848,1745086416038,,,,,,,,,,,,,,,,,,,,,,,,,,,,,,,,,,0,0,0,0,0,0,0,0,0,0,0,0,0,0,0,0,,,,,,,,,,,
2689868,1745086416058,0.0,189.54,,-0.06,-0.01,1.04,-0,-0,0,1.04,1.08,97,3758,5.0,3.99,,12.53,1.194,91.6,,39.6,5,,,,,,,,,,,,0,0,0,0,0,0,0,0,0,0,0,0,0,0,0,0,,,,,0.0,,,,,,
2689888,1745086416078,,,,,,,,,,,,,,,,,,,,,,,,,,,,,,,,,,0,0,0,0,0,0,0,0,0,0,0,0,0,0,0,0,,,,,,,,,,,
2689908,1745086416100,0.0,189.54,,-0.06,-0.03,1.04,-0,-0,0,1.04,1.08,96,3706,9.7,3.64,,12.79,1.138,91.6,,39.6,5,0,0,0,0,0.0,0.0,0.0,0.0,2.26,,,0,0,0,0,0,0,0,0,0,0,0,0,0,0,0,0,0,,,,0.0,39.240116,-77.964874,0.04,34,3,0.8
2689928,1745086416120,,,,,,,,,,,,,,,,,,,,,,,,,,,,,,,,,,0,0,0,0,0,0,0,0,0,0,0,0,0,0,0,0,,,,,,,,,,,
2689948,1745086416140,0.0,189.42,,-0.06,0.0,1.02,0,-0,0,1.02,1.08,95,4108,11.2,3.8,,12.79,1.138,91.6,,38.9,5,,,,,,,,,,,,0,0,0,0,0,0,0,0,0,0,0,0,0,0,0,0,,,,,0.0,,,,,,
2689968,1745086416160,,,,,,,,,,,,,,,,,,,,,,,,,,,,,,,,,,0,0,0,0,0,0,0,0,0,0,0,0,0,0,0,0,,,,,,,,,,,
2689988,1745086416180,0.0,189.42,,-0.07,0.04,0.99,0,-0,0,1.0,1.08,92,4108,11.2,3.8,,13.03,1.13,91.6,,38.9,5,,,,,,,,,,,,0,0,0,0,0,0,0,0,0,0,0,0,0,0,0,0,,,,,0.0,,,,,,
2690008,1745086416206,,,,,,,,,,,,,,,,,,,,,,,0,0,0,0,0.0,0.0,0.0,0.0,2.26,,,0,0,0,0,0,0,0,0,0,0,0,0,0,0,0,0,0,,,,,39.240116,-77.964874,0.1,35,3,0.8
2690028,1745086416226,0.0,189.54,,-0.07,0.01,0.98,0,-0,0,0.98,1.08,91,3699,11.5,3.78,,13.17,1.115,91.6,,37.9,5,,,,,,,,,,,,0,0,0,0,0,0,0,0,0,0,0,0,0,0,0,0,,,,,0.0,,,,,,
2690048,1745086416246,,,,,,,,,,,,,,,,,,,,,,,,,,,,,,,,,,0,0,0,0,0,0,0,0,0,0,0,0,0,0,0,0,,,,,,,,,,,
2690068,1745086416266,0.0,189.54,,-0.08,-0.06,1.0,0,-0,0,1.0,1.08,93,3633,11.6,3.88,,13.24,1.158,91.6,,37.9,5,,,,,,,,,,,,0,0,0,0,0,0,0,0,0,0,0,0,0,0,0,0,,,,,0.0,,,,,,
2690088,1745086416286,,,,,,,,,,,,,,,,,,,,,,,,,,,,,,,,,,0,0,0,0,0,0,0,0,0,0,0,0,0,0,0,0,,,,,,,,,,,
2690108,1745086416310,0.0,189.54,,-0.07,-0.01,1.02,-0,-0,0,1.02,1.08,95,3485,11.5,3.96,,13.33,1.206,91.6,,37.9,5,0,0,0,0,0.0,0.0,0.0,0.0,2.27,,,0,0,0,0,0,0,0,0,0,0,0,0,0,0,0,0,0,,,,0.0,39.240116,-77.964874,0.07,35,3,0.8
2690128,1745086416330,,,,,,,,,,,,,,,,,,,,,,,,,,,,,,,,,,0,0,0,0,0,0,0,0,0,0,0,0,0,0,0,0,,,,,,,,,,,
2690148,1745086416350,0.0,189.54,,-0.05,-0.01,0.97,0,-0,0,0.97,1.08,90,3482,8.5,3.83,,13.33,1.206,91.6,,35.7,5,,,,,,,,,,,,0,0,0,0,0,0,0,0,0,0,0,0,0,0,0,0,,,,,0.0,,,,,,
2690168,1745086416370,,,,,,,,,,,,,,,,,,,,,,,,,,,,,,,,,,0,0,0,0,0,0,0,0,0,0,0,0,0,0,0,0,,,,,,,,,,,
2690188,1745086416390,0.0,189.54,,-0.05,-0.1,1.02,-0,-0,0,1.03,1.08,95,3482,8.5,3.83,,13.17,1.239,91.6,,35.7,5,,,,,,,,,,,,0,0,0,0,0,0,0,0,0,0,0,0,0,0,0,0,,,,,0.0,,,,,,
2690208,1745086416408,,,,,,,,,,,,,,,,,,,,,,,0,0,0,0,0.0,0.0,0.0,0.0,2.27,,,0,0,0,0,0,0,0,0,0,0,0,0,0,0,0,0,0,,,,,39.240116,-77.964874,0.04,35,3,0.8
2690228,1745086416428,0.0,189.54,,-0.03,-0.0,1.0,-0,-0,0,1.0,1.08,93,3425,8.2,3.81,,13.17,1.25,91.6,,35.4,5,,,,,,,,,,,,0,0,0,0,0,0,0,0,0,0,0,0,0,0,0,0,,,,,0.0,,,,,,
2690248,1745086416448,,,,,,,,,,,,,,,,,,,,,,,,,,,,,,,,,,0,0,0,0,0,0,0,0,0,0,0,0,0,0,0,0,,,,,,,,,,,
2690268,1745086416468,0.0,189.67,,-0.04,-0.02,0.96,0,-0,-0,0.96,1.08,89,3541,8.3,3.82,,13.21,1.251,91.6,,35.4,5,,,,,,,,,,,,0,0,0,0,0,0,0,0,0,0,0,0,0,0,0,0,,,,,0.0,,,,,,
2690288,1745086416488,,,,,,,,,,,,,,,,,,,,,,,,,,,,,,,,,,0,0,0,0,0,0,0,0,0,0,0,0,0,0,0,0,,,,,,,,,,,
2690308,1745086416508,0.0,189.54,,-0.06,-0.04,1.01,-0,-0,0,1.01,1.08,94,3485,10.6,3.86,,13.27,1.252,91.6,,35.4,5,0,0,0,0,0.0,0.0,0.0,0.0,2.27,,,0,0,0,0,0,0,0,0,0,0,0,0,0,0,0,0,0,,,,0.0,39.240116,-77.964874,0.22,35,3,0.8
2690328,1745086416528,,,,,,,,,,,,,,,,,,,,,,,,,,,,,,,,,,0,0,0,0,0,0,0,0,0,0,0,0,0,0,0,0,,,,,,,,,,,
2690348,1745086416548,0.0,189.67,,-0.05,0.05,1.01,-1,-0,0,1.01,1.08,94,3562,12.1,4.02,,13.27,1.252,91.6,,36.5,5,,,,,,,,,,,,0,0,0,0,0,0,0,0,0,0,0,0,0,0,0,0,,,,,0.0,,,,,,
2690368,1745086416568,,,,,,,,,,,,,,,,,,,,,,,,,,,,,,,,,,0,0,0,0,0,0,0,0,0,0,0,0,0,0,0,0,,,,,,,,,,,
2690388,1745086416588,0.0,189.54,,-0.03,0.06,0.96,0,-0,0,0.96,1.08,89,3562,12.1,4.02,,13.36,1.237,91.6,,36.5,5,,,,,,,,,,,,0,0,0,0,0,0,0,0,0,0,0,0,0,0,0,0,,,,,0.0,,,,,,
2690408,1745086416606,,,,,,,,,,,,,,,,,,,,,,,0,0,0,0,0.0,0.0,0.0,0.0,2.26,,,0,0,0,0,0,0,0,0,0,0,0,0,0,0,0,0,0,,,,,39.240116,-77.964874,0.05,35,3,0.8
2690428,1745086416626,0.0,189.42,,-0.05,0.06,0.97,0,-0,0,0.98,1.08,91,3636,12.6,3.99,,13.43,1.244,91.6,,39.2,5,,,,,,,,,,,,0,0,0,0,0,0,0,0,0,0,0,0,0,0,0,0,,,,,0.0,,,,,,
2690448,1745086416646,,,,,,,,,,,,,,,,,,,,,,,,,,,,,,,,,,0,0,0,0,0,0,0,0,0,0,0,0,0,0,0,0,,,,,,,,,,,
2690468,1745086416666,0.0,189.54,,-0.07,0.0,0.99,-0,-0,0,0.99,1.08,92,3934,12.9,3.85,,13.32,1.252,91.6,,39.2,5,,,,,,,,,,,,0,0,0,0,0,0,0,0,0,0,0,0,0,0,0,0,,,,,0.0,,,,,,
2690488,1745086416686,,,,,,,,,,,,,,,,,,,,,,,,,,,,,,,,,,0,0,0,0,0,0,0,0,0,0,0,0,0,0,0,0,,,,,,,,,,,
2690508,1745086416708,0.0,189.42,,-0.08,-0.08,0.91,0,-0,0,0.91,1.08,85,3951,13.0,3.77,,13.29,1.206,91.6,,39.2,5,0,0,0,0,0.0,0.0,0.0,0.0,2.26,,,0,0,0,0,0,0,0,0,0,0,0,0,0,0,0,0,0,,,,0.0,39.240116,-77.964874,0.05,35,3,0.8
2690528,1745086416728,,,,,,,,,,,,,,,,,,,,,,,,,,,,,,,,,,0,0,0,0,0,0,0,0,0,0,0,0,0,0,0,0,,,,,,,,,,,
2690548,1745086416748,0.0,189.54,,-0.07,0.0,0.93,0,-0,-0,0.93,1.08,86,3980,12.9,3.74,,13.29,1.206,91.6,,42.3,5,,,,,,,,,,,,0,0,0,0,0,0,0,0,0,0,0,0,0,0,0,0,,,,,0.0,,,,,,
2690568,1745086416768,,,,,,,,,,,,,,,,,,,,,,,,,,,,,,,,,,0,0,0,0,0,0,0,0,0,0,0,0,0,0,0,0,,,,,,,,,,,
2690588,1745086416788,0.0,189.42,,-0.08,0.0,0.98,-1,-0,1,0.98,1.08,91,3980,12.9,3.74,,13.15,1.179,91.6,,42.3,5,,,,,,,,,,,,0,0,0,0,0,0,0,0,0,0,0,0,0,0,0,0,,,,,0.0,,,,,,
2690608,1745086416807,,,,,,,,,,,,,,,,,,,,,,,0,0,0,0,0.0,0.0,0.0,0.0,2.26,,,0,0,0,0,0,0,0,0,0,0,0,0,0,0,0,0,0,,,,,39.240116,-77.964874,0.07,35,3,0.8
2690628,1745086416827,0.0,189.42,,-0.09,-0.1,0.87,0,-0,0,0.88,1.08,82,4028,4.6,3.59,,12.8,1.169,91.6,,43.0,5,,,,,,,,,,,,0,0,0,0,0,0,0,0,0,0,0,0,0,0,0,0,,,,,0.0,,,,,,
2690648,1745086416847,,,,,,,,,,,,,,,,,,,,,,,,,,,,,,,,,,0,0,0,0,0,0,0,0,0,0,0,0,0,0,0,0,,,,,,,,,,,
2690668,1745086416867,0.0,189.42,,-0.08,-0.02,0.91,0,-0,0,0.92,1.08,85,4000,0.0,2.46,,12.24,1.178,91.6,,43.0,5,,,,,,,,,,,,0,0,0,0,0,0,0,0,0,0,0,0,0,0,0,0,,,,,0.0,,,,,,
2690688,1745086416887,,,,,,,,,,,,,,,,,,,,,,,,,,,,,,,,,,0,0,0,0,0,0,0,0,0,0,0,0,0,0,0,0,,,,,,,,,,,
2690708,1745086416905,0.0,189.29,13.39,-0.07,-0.01,0.96,-1,-0,1,0.97,1.08,90,3886,0.0,2.45,15,11.79,1.219,91.6,135,43.0,5,0,0,0,0,0.0,0.0,0.0,0.0,2.27,0,0.0,0,0,0,0,0,0,0,0,0,0,0,0,0,0,0,0,0,0.0,0,-0,0.0,39.240116,-77.964874,0.11,35,3,0.8
2690728,1745086416925,,,,,,,,,,,,,,,,,,,,,,,,,,,,,,,,,,0,0,0,0,0,0,0,0,0,0,0,0,0,0,0,0,,,,,,,,,,,
2690748,1745086416945,0.0,189.42,,-0.05,0.01,0.96,0,-0,0,0.97,1.08,90,3952,0.0,2.47,,11.79,1.219,91.6,,40.9,5,,,,,,,,,,,,0,0,0,0,0,0,0,0,0,0,0,0,0,0,0,0,,,,,0.0,,,,,,
2690768,1745086416965,,,,,,,,,,,,,,,,,,,,,,,,,,,,,,,,,,0,0,0,0,0,0,0,0,0,0,0,0,0,0,0,0,,,,,,,,,,,
2690788,1745086416985,0.0,189.42,,-0.07,-0.02,0.96,0,-0,-0,0.96,1.08,89,3952,0.0,2.47,,11.6,1.248,91.6,,40.9,5,,,,,,,,,,,,0,0,0,0,0,0,0,0,0,0,0,0,0,0,0,0,,,,,0.0,,,,,,
2690808,1745086416997,,,,,,,,,,,,,,,,,,,,,,,0,0,0,0,0.0,0.0,0.0,0.0,2.27,,,0,0,0,0,0,0,0,0,0,0,0,0,0,0,0,0,0,,,,,39.240116,-77.964874,0.07,36,3,0.8
2690828,1745086417017,0.0,189.29,,-0.07,0.02,0.98,1,-0,-0,0.98,1.08,91,3770,0.0,2.48,,11.41,1.251,91.6,,39.0,5,,,,,,,,,,,,0,0,0,0,0,0,0,0,0,0,0,0,0,0,0,0,,,,,0.0,,,,,,
2690848,1745086417037,,,,,,,,,,,,,,,,,,,,,,,,,,,,,,,,,,0,0,0,0,0,0,0,0,0,0,0,0,0,0,0,0,,,,,,,,,,,
2690868,1745086417057,0.0,189.42,,-0.05,0.08,0.98,1,-0,-0,0.98,1.08,91,3649,1.7,2.8,,11.65,1.227,91.6,,39.0,5,,,,,,,,,,,,0,0,0,0,0,0,0,0,0,0,0,0,0,0,0,0,,,,,0.0,,,,,,
2690888,1745086417077,,,,,,,,,,,,,,,,,,,,,,,,,,,,,,,,,,0,0,0,0,0,0,0,0,0,0,0,0,0,0,0,0,,,,,,,,,,,
2690908,1745086417103,0.0,189.29,,-0.04,0.05,0.93,1,-0,-1,0.94,1.08,87,3465,3.2,3.61,,12.09,1.178,91.6,,39.0,5,0,0,0,0,0.0,0.0,0.0,0.0,2.27,,,0,0,0,0,0,0,0,0,0,0,0,0,0,0,0,0,0,,,,0.0,39.240116,-77.964874,0.08,36,3,0.8
2690928,1745086417123,,,,,,,,,,,,,,,,,,,,,,,,,,,,,,,,,,0,0,0,0,0,0,0,0,0,0,0,0,0,0,0,0,,,,,,,,,,,
2690948,1745086417143,0.0,189.42,,-0.06,0.02,1.01,1,-0,-0,1.01,1.08,94,3390,3.8,3.84,,12.09,1.178,91.6,,35.1,5,,,,,,,,,,,,0,0,0,0,0,0,0,0,0,0,0,0,0,0,0,0,,,,,0.0,,,,,,
2690968,1745086417163,,,,,,,,,,,,,,,,,,,,,,,,,,,,,,,,,,0,0,0,0,0,0,0,0,0,0,0,0,0,0,0,0,,,,,,,,,,,
2690988,1745086417183,0.0,189.42,,-0.05,0.06,0.94,1,-0,-1,0.95,1.08,88,3390,3.8,3.84,,12.49,1.174,91.6,,35.1,5,,,,,,,,,,,,0,0,0,0,0,0,0,0,0,0,0,0,0,0,0,0,,,,,0.0,,,,,,
2691008,1745086417207,,,,,,,,,,,,,,,,,,,,,,,0,0,0,0,0.0,0.0,0.0,0.0,2.26,,,0,0,0,0,0,0,0,0,0,0,0,0,0,0,0,0,0,,,,,39.240116,-77.964874,0.04,36,3,0.8
2691028,1745086417227,0.0,189.42,,-0.06,0.03,1.03,1,-0,-0,1.03,1.08,95,3459,4.4,3.99,,12.65,1.184,91.6,,35.8,5,,,,,,,,,,,,0,0,0,0,0,0,0,0,0,0,0,0,0,0,0,0,,,,,0.0,,,,,,
2691048,1745086417247,,,,,,,,,,,,,,,,,,,,,,,,,,,,,,,,,,0,0,0,0,0,0,0,0,0,0,0,0,0,0,0,0,,,,,,,,,,,
2691068,1745086417267,0.0,189.29,,-0.03,0.06,0.97,1,-0,-0,0.97,1.08,90,3461,4.6,3.98,,12.81,1.249,91.6,,35.8,5,,,,,,,,,,,,0,0,0,0,0,0,0,0,0,0,0,0,0,0,0,0,,,,,0.0,,,,,,
2691088,1745086417287,,,,,,,,,,,,,,,,,,,,,,,,,,,,,,,,,,0,0,0,0,0,0,0,0,0,0,0,0,0,0,0,0,,,,,,,,,,,
2691108,1745086417307,0.0,189.29,,-0.06,0.03,0.96,1,-0,-0,0.96,1.08,89,3615,4.5,4.0,,12.8,1.224,91.6,,35.8,5,0,0,0,0,0.0,0.0,0.0,0.0,2.26,,,0,0,0,0,0,0,0,0,0,0,0,0,0,0,0,0,0,,,,0.0,39.240116,-77.964874,0.13,36,3,0.8
2691128,1745086417327,,,,,,,,,,,,,,,,,,,,,,,,,,,,,,,,,,0,0,0,0,0,0,0,0,0,0,0,0,0,0,0,0,,,,,,,,,,,
2691148,1745086417347,0.0,189.42,,-0.07,-0.01,0.99,1,-0,-0,0.99,1.08,92,3584,4.4,3.99,,12.8,1.224,91.6,,37.7,5,,,,,,,,,,,,0,0,0,0,0,0,0,0,0,0,0,0,0,0,0,0,,,,,0.0,,,,,,
2691168,1745086417367,,,,,,,,,,,,,,,,,,,,,,,,,,,,,,,,,,0,0,0,0,0,0,0,0,0,0,0,0,0,0,0,0,,,,,,,,,,,
2691188,1745086417387,0.0,189.42,,-0.07,0.04,1.01,0,-0,0,1.01,1.08,94,3584,4.4,3.99,,12.69,1.119,91.6,,37.7,5,,,,,,,,,,,,0,0,0,0,0,0,0,0,0,0,0,0,0,0,0,0,,,,,0.0,,,,,,
2691208,1745086417407,,,,,,,,,,,,,,,,,,,,,,,0,0,0,0,0.0,0.0,0.0,0.0,2.27,,,0,0,0,0,0,0,0,0,0,0,0,0,0,0,0,0,0,,,,,39.240116,-77.964874,0.06,36,3,0.8
2691228,1745086417427,0.0,189.42,,-0.05,0.08,0.98,-0,-0,0,0.98,1.08,91,3538,4.3,3.99,,12.63,1.046,91.6,,37.0,5,,,,,,,,,,,,0,0,0,0,0,0,0,0,0,0,0,0,0,0,0,0,,,,,0.0,,,,,,
2691248,1745086417447,,,,,,,,,,,,,,,,,,,,,,,,,,,,,,,,,,0,0,0,0,0,0,0,0,0,0,0,0,0,0,0,0,,,,,,,,,,,
2691268,1745086417467,0.0,189.42,,-0.08,0.03,0.97,1,-0,-0,0.97,1.08,90,3514,4.4,3.99,,12.67,1.019,91.6,,37.0,5,,,,,,,,,,,,0,0,0,0,0,0,0,0,0,0,0,0,0,0,0,0,,,,,0.0,,,,,,
2691288,1745086417487,,,,,,,,,,,,,,,,,,,,,,,,,,,,,,,,,,0,0,0,0,0,0,0,0,0,0,0,0,0,0,0,0,,,,,,,,,,,
2691308,1745086417507,0.0,189.29,,-0.08,0.07,1.03,-0,-0,0,1.03,1.08,96,3457,4.4,3.99,,12.77,1.052,91.6,,37.0,5,0,0,0,0,0.0,0.0,0.0,0.0,2.27,,,0,0,0,0,0,0,0,0,0,0,0,0,0,0,0,0,0,,,,0.0,39.240116,-77.964874,0.05,36,3,0.8
2691328,1745086417527,,,,,,,,,,,,,,,,,,,,,,,,,,,,,,,,,,0,0,0,0,0,0,0,0,0,0,0,0,0,0,0,0,,,,,,,,,,,
2691348,1745086417547,0.0,189.42,,-0.07,0.03,0.95,1,-0,-0,0.95,1.08,88,3345,5.5,3.96,,12.77,1.052,91.6,,35.3,5,,,,,,,,,,,,0,0,0,0,0,0,0,0,0,0,0,0,0,0,0,0,,,,,0.0,,,,,,
2691368,1745086417567,,,,,,,,,,,,,,,,,,,,,,,,,,,,,,,,,,0,0,0,0,0,0,0,0,0,0,0,0,0,0,0,0,,,,,,,,,,,
2691388,1745086417587,0.0,189.29,,-0.08,0.02,1.02,0,-0,0,1.02,1.08,95,3345,5.5,3.96,,12.92,1.099,91.6,,35.3,5,,,,,,,,,,,,0,0,0,0,0,0,0,0,0,0,0,0,0,0,0,0,,,,,0.0,,,,,,
2691408,1745086417607,,,,,,,,,,,,,,,,,,,,,,,0,0,0,0,0.0,0.0,0.0,0.0,2.27,,,0,0,0,0,0,0,0,0,0,0,0,0,0,0,0,0,0,,,,,39.240116,-77.964874,0.04,36,3,0.8
2691428,1745086417627,0.0,189.29,,-0.07,0.01,0.94,1,-0,-0,0.94,1.08,88,3391,6.0,3.96,,13.05,1.114,91.6,,34.6,5,,,,,,,,,,,,0,0,0,0,0,0,0,0,0,0,0,0,0,0,0,0,,,,,0.0,,,,,,
2691448,1745086417647,,,,,,,,,,,,,,,,,,,,,,,,,,,,,,,,,,0,0,0,0,0,0,0,0,0,0,0,0,0,0,0,0,,,,,,,,,,,
2691468,1745086417667,0.0,189.42,,-0.06,0.04,1.0,0,-0,0,1.0,1.08,93,0,6.3,3.87,,13.08,1.137,91.6,,34.6,5,,,,,,,,,,,,0,0,0,0,0,0,0,0,0,0,0,0,0,0,0,0,,,,,0.0,,,,,,
2691488,1745086417687,,,,,,,,,,,,,,,,,,,,,,,,,,,,,,,,,,0,0,0,0,0,0,0,0,0,0,0,0,0,0,0,0,,,,,,,,,,,
2691508,1745086417709,0.0,189.29,,-0.05,0.02,0.95,1,-0,-0,0.95,1.08,88,3466,6.5,3.94,,13.12,1.19,91.6,,34.6,5,0,0,0,0,0.0,0.0,0.0,0.0,2.26,,,0,0,0,0,0,0,0,0,0,0,0,0,0,0,0,0,0,,,,0.0,39.240116,-77.964874,0.05,36,3,0.8
2691528,1745086417729,,,,,,,,,,,,,,,,,,,,,,,,,,,,,,,,,,0,0,0,0,0,0,0,0,0,0,0,0,0,0,0,0,,,,,,,,,,,
2691548,1745086417749,0.0,189.42,,-0.05,0.02,1.02,0,-0,0,1.02,1.08,94,3490,6.8,3.89,,13.12,1.19,91.6,,35.4,5,,,,,,,,,,,,0,0,0,0,0,0,0,0,0,0,0,0,0,0,0,0,,,,,0.0,,,,,,
2691568,1745086417769,,,,,,,,,,,,,,,,,,,,,,,,,,,,,,,,,,0,0,0,0,0,0,0,0,0,0,0,0,0,0,0,0,,,,,,,,,,,
2691588,1745086417789,0.0,189.29,,-0.03,0.09,0.97,0,-0,0,0.98,1.08,91,3490,6.8,3.89,,13.05,1.252,91.6,,35.4,5,,,,,,,,,,,,0,0,0,0,0,0,0,0,0,0,0,0,0,0,0,0,,,,,0.0,,,,,,
2691608,1745086417806,,,,,,,,,,,,,,,,,,,,,,,0,0,0,0,0.0,0.0,0.0,0.0,2.27,,,0,0,0,0,0,0,0,0,0,0,0,0,0,0,0,0,0,,,,,39.240116,-77.964874,0.08,36,3,0.8
2691628,1745086417826,0.0,189.29,,-0.05,0.02,1.0,0,-0,-0,1.0,1.08,93,3441,7.0,3.87,,13.09,1.239,91.6,,34.4,5,,,,,,,,,,,,0,0,0,0,0,0,0,0,0,0,0,0,0,0,0,0,,,,,0.0,,,,,,
2691648,1745086417846,,,,,,,,,,,,,,,,,,,,,,,,,,,,,,,,,,0,0,0,0,0,0,0,0,0,0,0,0,0,0,0,0,,,,,,,,,,,
2691668,1745086417866,0.0,189.29,,-0.03,0.11,1.0,-0,-0,0,1.0,1.08,93,3404,7.0,3.9,,13.12,1.187,91.6,,34.4,5,,,,,,,,,,,,0,0,0,0,0,0,0,0,0,0,0,0,0,0,0,0,,,,,0.0,,,,,,
2691688,1745086417886,,,,,,,,,,,,,,,,,,,,,,,,,,,,,,,,,,0,0,0,0,0,0,0,0,0,0,0,0,0,0,0,0,,,,,,,,,,,
2691708,1745086417908,0.0,189.29,13.43,-0.04,-0.0,1.01,0,-0,-0,1.01,1.08,94,3310,6.9,3.91,15,13.2,1.17,91.6,135,34.4,5,0,0,0,0,0.0,0.0,0.0,0.0,2.27,0,0.0,0,0,0,0,0,0,0,0,0,0,0,0,0,0,0,0,0,0.0,0,-0,0.0,39.240116,-77.964874,0.04,36,3,0.8
2691728,1745086417928,,,,,,,,,,,,,,,,,,,,,,,,,,,,,,,,,,0,0,0,0,0,0,0,0,0,0,0,0,0,0,0,0,,,,,,,,,,,
2691748,1745086417948,0.0,189.29,,-0.03,0.09,1.0,-0,-0,0,1.0,1.08,93,3396,5.6,3.92,,13.2,1.17,91.6,,34.8,5,,,,,,,,,,,,0,0,0,0,0,0,0,0,0,0,0,0,0,0,0,0,,,,,0.0,,,,,,
2691768,1745086417968,,,,,,,,,,,,,,,,,,,,,,,,,,,,,,,,,,0,0,0,0,0,0,0,0,0,0,0,0,0,0,0,0,,,,,,,,,,,
2691788,1745086417988,0.0,189.29,,-0.04,-0.02,1.01,0,-0,0,1.01,1.08,94,3396,5.6,3.92,,13.04,1.193,91.6,,34.8,5,,,,,,,,,,,,0,0,0,0,0,0,0,0,0,0,0,0,0,0,0,0,,,,,0.0,,,,,,
2691808,1745086417998,,,,,,,,,,,,,,,,,,,,,,,0,0,0,0,0.0,0.0,0.0,0.0,2.27,,,0,0,0,0,0,0,0,0,0,0,0,0,0,0,0,0,0,,,,,39.240116,-77.964874,0.11,34,3,0.8
2691828,1745086418018,0.0,189.29,,-0.03,0.06,0.97,-0,-0,0,0.97,1.08,90,3334,4.4,4.0,,12.99,1.217,91.6,,34.6,5,,,,,,,,,,,,0,0,0,0,0,0,0,0,0,0,0,0,0,0,0,0,,,,,0.0,,,,,,
2691848,1745086418038,,,,,,,,,,,,,,,,,,,,,,,,,,,,,,,,,,0,0,0,0,0,0,0,0,0,0,0,0,0,0,0,0,,,,,,,,,,,
2691868,1745086418058,0.0,189.29,,-0.03,-0.03,1.03,-0,-0,0,1.03,1.08,96,3309,4.3,4.01,,12.93,1.22,91.6,,34.6,5,,,,,,,,,,,,0,0,0,0,0,0,0,0,0,0,0,0,0,0,0,0,,,,,0.0,,,,,,
2691888,1745086418078,,,,,,,,,,,,,,,,,,,,,,,,,,,,,,,,,,0,0,0,0,0,0,0,0,0,0,0,0,0,0,0,0,,,,,,,,,,,
2691908,1745086418106,0.0,189.29,,-0.04,-0.01,0.96,0,-0,0,0.96,1.08,89,3319,4.5,4.01,,12.97,1.225,91.6,,34.6,5,0,0,0,0,0.0,0.0,0.0,0.0,2.27,,,0,0,0,0,0,0,0,0,0,0,0,0,0,0,0,0,0,,,,0.0,39.240116,-77.964874,0.05,34,3,0.8
2691928,1745086418126,,,,,,,,,,,,,,,,,,,,,,,,,,,,,,,,,,0,0,0,0,0,0,0,0,0,0,0,0,0,0,0,0,,,,,,,,,,,
2691948,1745086418146,0.0,189.29,,-0.03,0.0,1.01,-0,-0,0,1.01,1.08,94,3273,8.7,3.9,,12.97,1.225,91.6,,34.0,5,,,,,,,,,,,,0,0,0,0,0,0,0,0,0,0,0,0,0,0,0,0,,,,,0.0,,,,,,
2691968,1745086418166,,,,,,,,,,,,,,,,,,,,,,,,,,,,,,,,,,0,0,0,0,0,0,0,0,0,0,0,0,0,0,0,0,,,,,,,,,,,
2691988,1745086418186,0.0,189.29,,-0.05,-0.05,0.99,0,-0,0,0.99,1.08,92,3273,8.7,3.9,,13.19,1.193,91.6,,34.0,5,,,,,,,,,,,,0,0,0,0,0,0,0,0,0,0,0,0,0,0,0,0,,,,,0.0,,,,,,
2692008,1745086418208,,,,,,,,,,,,,,,,,,,,,,,0,0,0,0,0.0,0.0,0.0,0.0,2.26,,,0,0,0,0,0,0,0,0,0,0,0,0,0,0,0,0,0,,,,,39.240116,-77.964874,0.14,34,3,0.8
2692028,1745086418228,0.0,189.29,,-0.03,-0.01,1.02,-1,-0,1,1.03,1.08,95,3401,10.4,4.03,,13.36,1.18,91.6,,34.4,5,,,,,,,,,,,,0,0,0,0,0,0,0,0,0,0,0,0,0,0,0,0,,,,,0.0,,,,,,
2692048,1745086418248,,,,,,,,,,,,,,,,,,,,,,,,,,,,,,,,,,0,0,0,0,0,0,0,0,0,0,0,0,0,0,0,0,,,,,,,,,,,
2692068,1745086418268,0.0,189.29,,-0.02,-0.04,0.96,0,-0,-0,0.96,1.08,89,3438,10.8,4.01,,13.41,1.174,91.6,,34.4,5,,,,,,,,,,,,0,0,0,0,0,0,0,0,0,0,0,0,0,0,0,0,,,,,0.0,,,,,,
2692088,1745086418288,,,,,,,,,,,,,,,,,,,,,,,,,,,,,,,,,,0,0,0,0,0,0,0,0,0,0,0,0,0,0,0,0,,,,,,,,,,,
2692108,1745086418308,0.0,189.29,,-0.05,-0.09,1.0,-0,-0,0,1.0,1.08,93,3462,11.4,3.95,,13.45,1.181,91.6,,34.4,5,0,0,0,0,0.0,0.0,0.0,0.0,2.26,,,0,0,0,0,0,0,0,0,0,0,0,0,0,0,0,0,0,,,,0.0,39.240116,-77.964874,0.04,34,3,0.8
2692128,1745086418328,,,,,,,,,,,,,,,,,,,,,,,,,,,,,,,,,,0,0,0,0,0,0,0,0,0,0,0,0,0,0,0,0,,,,,,,,,,,
2692148,1745086418348,0.0,189.29,,-0.05,-0.08,1.02,-0,-0,0,1.02,1.08,95,3707,11.7,3.89,,13.45,1.181,91.6,,37.4,5,,,,,,,,,,,,0,0,0,0,0,0,0,0,0,0,0,0,0,0,0,0,,,,,0.0,,,,,,
2692168,1745086418368,,,,,,,,,,,,,,,,,,,,,,,,,,,,,,,,,,0,0,0,0,0,0,0,0,0,0,0,0,0,0,0,0,,,,,,,,,,,
2692188,1745086418388,0.0,189.29,,-0.05,-0.07,1.0,-0,-0,0,1.01,1.08,93,3707,11.7,3.89,,13.32,1.242,91.6,,37.4,5,,,,,,,,,,,,0,0,0,0,0,0,0,0,0,0,0,0,0,0,0,0,,,,,0.0,,,,,,
2692208,1745086418406,,,,,,,,,,,,,,,,,,,,,,,0,0,0,0,0.0,0.0,0.0,0.0,2.27,,,0,0,0,0,0,0,0,0,0,0,0,0,0,0,0,0,0,,,,,39.240116,-77.964874,0.19,34,3,0.8
2692228,1745086418426,0.0,189.17,,-0.06,-0.05,0.98,0,-0,0,0.99,1.08,91,3785,11.6,3.87,,13.28,1.251,91.6,,39.2,5,,,,,,,,,,,,0,0,0,0,0,0,0,0,0,0,0,0,0,0,0,0,,,,,0.0,,,,,,
2692248,1745086418446,,,,,,,,,,,,,,,,,,,,,,,,,,,,,,,,,,0,0,0,0,0,0,0,0,0,0,0,0,0,0,0,0,,,,,,,,,,,
2692268,1745086418466,0.0,189.17,,-0.08,-0.04,0.95,0,-0,0,0.96,1.08,89,3743,11.5,3.8,,13.15,1.187,91.6,,39.2,5,,,,,,,,,,,,0,0,0,0,0,0,0,0,0,0,0,0,0,0,0,0,,,,,0.0,,,,,,
2692288,1745086418486,,,,,,,,,,,,,,,,,,,,,,,,,,,,,,,,,,0,0,0,0,0,0,0,0,0,0,0,0,0,0,0,0,,,,,,,,,,,
2692308,1745086418508,0.0,189.17,,-0.07,-0.06,0.96,1,-0,-0,0.96,1.08,89,3880,5.7,3.74,,12.88,1.181,91.6,,39.2,5,0,0,0,0,0.0,0.0,0.0,0.0,2.27,,,0,0,0,0,0,0,0,0,0,0,0,0,0,0,0,0,0,,,,0.0,39.240116,-77.964874,0.3,34,3,0.8
2692328,1745086418528,,,,,,,,,,,,,,,,,,,,,,,,,,,,,,,,,,0,0,0,0,0,0,0,0,0,0,0,0,0,0,0,0,,,,,,,,,,,
2692348,1745086418548,0.0,189.17,,-0.04,-0.03,0.97,1,-0,-0,0.97,1.08,90,0,4.4,3.81,,12.88,1.181,91.6,,40.8,5,,,,,,,,,,,,0,0,0,0,0,0,0,0,0,0,0,0,0,0,0,0,,,,,0.0,,,,,,
2692368,1745086418568,,,,,,,,,,,,,,,,,,,,,,,,,,,,,,,,,,0,0,0,0,0,0,0,0,0,0,0,0,0,0,0,0,,,,,,,,,,,
2692388,1745086418588,0.0,189.17,,-0.04,0.04,0.99,1,-0,-0,0.99,1.08,92,0,4.4,3.81,,12.59,1.222,91.6,,40.8,5,,,,,,,,,,,,0,0,0,0,0,0,0,0,0,0,0,0,0,0,0,0,,,,,0.0,,,,,,
2692408,1745086418610,,,,,,,,,,,,,,,,,,,,,,,0,0,0,0,0.0,0.0,0.0,0.0,2.27,,,0,0,0,0,0,0,0,0,0,0,0,0,0,0,0,0,0,,,,,39.240116,-77.964874,0.16,34,3,0.8
2692428,1745086418630,0.0,189.17,,-0.03,0.05,0.99,1,-0,-0,0.99,1.08,92,3835,4.1,4.02,,12.52,1.25,91.6,,40.2,5,,,,,,,,,,,,0,0,0,0,0,0,0,0,0,0,0,0,0,0,0,0,,,,,0.0,,,,,,
2692448,1745086418650,,,,,,,,,,,,,,,,,,,,,,,,,,,,,,,,,,0,0,0,0,0,0,0,0,0,0,0,0,0,0,0,0,,,,,,,,,,,
2692468,1745086418670,0.0,189.17,,-0.05,0.04,0.95,1,-0,-0,0.95,1.08,88,3764,4.1,4.03,,12.44,1.216,91.6,,40.2,5,,,,,,,,,,,,0,0,0,0,0,0,0,0,0,0,0,0,0,0,0,0,,,,,0.0,,,,,,
2692488,1745086418690,,,,,,,,,,,,,,,,,,,,,,,,,,,,,,,,,,0,0,0,0,0,0,0,0,0,0,0,0,0,0,0,0,,,,,,,,,,,
2692508,1745086418710,0.0,189.17,,-0.06,0.02,0.94,1,-0,-0,0.95,1.08,88,3652,4.0,4.0,,12.41,1.131,91.6,,40.2,5,0,0,0,0,0.0,0.0,0.0,0.0,2.26,,,0,0,0,0,0,0,0,0,0,0,0,0,0,0,0,0,0,,,,0.0,39.240116,-77.964874,0.24,34,3,0.8
2692528,1745086418730,,,,,,,,,,,,,,,,,,,,,,,,,,,,,,,,,,0,0,0,0,0,0,0,0,0,0,0,0,0,0,0,0,,,,,,,,,,,
2692548,1745086418750,0.0,189.17,,-0.07,-0.01,0.97,1,-0,-0,0.97,1.08,90,3565,4.1,4.01,,12.41,1.131,91.6,,38.1,5,,,,,,,,,,,,0,0,0,0,0,0,0,0,0,0,0,0,0,0,0,0,,,,,0.0,,,,,,
2692568,1745086418770,,,,,,,,,,,,,,,,,,,,,,,,,,,,,,,,,,0,0,0,0,0,0,0,0,0,0,0,0,0,0,0,0,,,,,,,,,,,
2692588,1745086418790,0.0,189.17,,-0.06,0.04,0.99,-0,-0,0,0.99,1.08,92,3565,4.1,4.01,,12.47,1.109,91.6,,38.1,5,,,,,,,,,,,,0,0,0,0,0,0,0,0,0,0,0,0,0,0,0,0,,,,,0.0,,,,,,
2692608,1745086418807,,,,,,,,,,,,,,,,,,,,,,,0,0,0,0,0.0,0.0,0.0,0.0,2.26,,,0,0,0,0,0,0,0,0,0,0,0,0,0,0,0,0,0,,,,,39.240116,-77.964874,0.32,34,3,0.8
2692628,1745086418827,0.0,189.17,,-0.05,0.02,0.93,0,-0,-0,0.93,1.08,87,3521,0.0,3.65,,12.36,1.096,91.6,,35.6,5,,,,,,,,,,,,0,0,0,0,0,0,0,0,0,0,0,0,0,0,0,0,,,,,0.0,,,,,,
2692648,1745086418847,,,,,,,,,,,,,,,,,,,,,,,,,,,,,,,,,,0,0,0,0,0,0,0,0,0,0,0,0,0,0,0,0,,,,,,,,,,,
2692668,1745086418867,0.0,189.29,,-0.04,0.03,0.99,-0,-0,0,0.99,1.08,92,3344,0.0,3.03,,12.19,1.095,91.6,,35.6,5,,,,,,,,,,,,0,0,0,0,0,0,0,0,0,0,0,0,0,0,0,0,,,,,0.0,,,,,,
2692688,1745086418887,,,,,,,,,,,,,,,,,,,,,,,,,,,,,,,,,,0,0,0,0,0,0,0,0,0,0,0,0,0,0,0,0,,,,,,,,,,,
2692708,1745086418909,0.0,189.29,13.4,-0.07,-0.02,1.03,0,-0,-0,1.03,1.08,95,3199,0.0,3.09,15,12.08,1.089,91.6,135,35.6,5,0,0,0,0,0.0,0.0,0.0,0.0,2.26,0,0.0,0,0,0,0,0,0,0,0,0,0,0,0,0,0,0,0,0,0.0,0,0,0.0,39.240116,-77.964874,0.08,34,3,0.8
2692728,1745086418929,,,,,,,,,,,,,,,,,,,,,,,,,,,,,,,,,,0,0,0,0,0,0,0,0,0,0,0,0,0,0,0,0,,,,,,,,,,,
2692748,1745086418949,0.0,189.29,,-0.06,0.02,0.94,0,-0,-0,0.94,1.08,87,3267,0.0,3.06,,12.08,1.089,91.6,,34.0,5,,,,,,,,,,,,0,0,0,0,0,0,0,0,0,0,0,0,0,0,0,0,,,,,0.0,,,,,,
2692768,1745086418969,,,,,,,,,,,,,,,,,,,,,,,,,,,,,,,,,,0,0,0,0,0,0,0,0,0,0,0,0,0,0,0,0,,,,,,,,,,,
2692788,1745086418989,0.0,189.29,,-0.05,0.01,1.0,-0,-0,0,1.0,1.08,93,3267,0.0,3.06,,11.99,1.113,91.6,,34.0,5,,,,,,,,,,,,0,0,0,0,0,0,0,0,0,0,0,0,0,0,0,0,,,,,0.0,,,,,,
2692808,1745086418999,,,,,,,,,,,,,,,,,,,,,,,0,0,0,0,0.0,0.0,0.0,0.0,2.27,,,0,0,0,0,0,0,0,0,0,0,0,0,0,0,0,0,0,,,,,39.240116,-77.964874,0.59,32,3,0.8
2692828,1745086419019,0.0,189.29,,-0.07,-0.04,1.06,-0,-0,0,1.06,1.08,98,3219,0.0,2.76,,12.01,1.131,91.6,,31.7,5,,,,,,,,,,,,0,0,0,0,0,0,0,0,0,0,0,0,0,0,0,0,,,,,0.0,,,,,,
2692848,1745086419039,,,,,,,,,,,,,,,,,,,,,,,,,,,,,,,,,,0,0,0,0,0,0,0,0,0,0,0,0,0,0,0,0,,,,,,,,,,,
2692868,1745086419059,0.0,189.29,,-0.1,-0.07,1.09,0,-0,-0,1.1,1.1,100,3068,0.0,2.81,,11.99,1.064,91.6,,31.7,5,,,,,,,,,,,,0,0,0,0,0,0,0,0,0,0,0,0,0,0,0,0,,,,,0.0,,,,,,
2692888,1745086419079,,,,,,,,,,,,,,,,,,,,,,,,,,,,,,,,,,0,0,0,0,0,0,0,0,0,0,0,0,0,0,0,0,,,,,,,,,,,
2692908,1745086419103,0.0,189.29,,-0.11,-0.1,1.11,0,-0,-0,1.12,1.12,100,2940,0.0,2.88,,12.08,1.035,91.6,,31.7,5,0,0,0,0,0.0,0.0,0.0,0.0,2.27,,,0,0,0,0,0,0,0,0,0,0,0,0,0,0,0,0,0,,,,0.0,39.240116,-77.964874,0.23,32,3,0.8
2692928,1745086419123,,,,,,,,,,,,,,,,,,,,,,,,,,,,,,,,,,0,0,0,0,0,0,0,0,0,0,0,0,0,0,0,0,,,,,,,,,,,
2692948,1745086419143,0.0,189.17,,-0.1,-0.06,1.08,0,-0,0,1.09,1.12,97,2699,0.0,2.95,,12.08,1.035,91.6,,28.3,5,,,,,,,,,,,,0,0,0,0,0,0,0,0,0,0,0,0,0,0,0,0,,,,,0.0,,,,,,
2692968,1745086419163,,,,,,,,,,,,,,,,,,,,,,,,,,,,,,,,,,0,0,0,0,0,0,0,0,0,0,0,0,0,0,0,0,,,,,,,,,,,
2692988,1745086419183,0.0,189.17,,-0.1,-0.08,1.06,0,-0,-0,1.07,1.12,95,2699,0.0,2.95,,12.24,1.039,91.6,,28.3,5,,,,,,,,,,,,0,0,0,0,0,0,0,0,0,0,0,0,0,0,0,0,,,,,0.0,,,,,,
2693008,1745086419207,,,,,,,,,,,,,,,,,,,,,,,0,0,0,0,0.0,0.0,0.0,0.0,2.27,,,0,0,0,0,0,0,0,0,0,0,0,0,0,0,0,0,0,,,,,39.240116,-77.964874,0.05,32,3,0.8
2693028,1745086419227,0.0,189.17,,-0.1,-0.09,1.05,0,-0,-0,1.06,1.12,94,2591,0.0,3.01,,12.44,1.039,91.6,,25.7,5,,,,,,,,,,,,0,0,0,0,0,0,0,0,0,0,0,0,0,0,0,0,,,,,0.0,,,,,,
2693048,1745086419247,,,,,,,,,,,,,,,,,,,,,,,,,,,,,,,,,,0,0,0,0,0,0,0,0,0,0,0,0,0,0,0,0,,,,,,,,,,,
2693068,1745086419267,0.0,189.29,,-0.09,-0.08,1.03,0,-0,-0,1.04,1.12,93,2454,0.0,3.09,,12.67,1.048,91.6,,25.7,5,,,,,,,,,,,,0,0,0,0,0,0,0,0,0,0,0,0,0,0,0,0,,,,,0.0,,,,,,
2693088,1745086419287,,,,,,,,,,,,,,,,,,,,,,,,,,,,,,,,,,0,0,0,0,0,0,0,0,0,0,0,0,0,0,0,0,,,,,,,,,,,
2693108,1745086419309,0.0,189.17,,-0.1,-0.07,1.04,0,-0,0,1.04,1.12,93,2294,0.5,3.16,,13.03,1.07,91.6,,25.7,5,0,0,0,0,0.0,0.0,0.0,0.0,2.26,,,0,0,0,0,0,0,0,0,0,0,0,0,0,0,0,0,0,,,,0.0,39.240116,-77.964874,0.74,32,3,0.8
2693128,1745086419329,,,,,,,,,,,,,,,,,,,,,,,,,,,,,,,,,,0,0,0,0,0,0,0,0,0,0,0,0,0,0,0,0,,,,,,,,,,,
2693148,1745086419349,0.0,189.29,,-0.11,-0.07,1.03,0,-0,-0,1.04,1.12,93,2132,3.4,3.72,,13.03,1.07,91.6,,22.5,5,,,,,,,,,,,,0,0,0,0,0,0,0,0,0,0,0,0,0,0,0,0,,,,,0.0,,,,,,
2693168,1745086419369,,,,,,,,,,,,,,,,,,,,,,,,,,,,,,,,,,0,0,0,0,0,0,0,0,0,0,0,0,0,0,0,0,,,,,,,,,,,
2693188,1745086419389,0.0,189.29,,-0.11,-0.06,1.04,0,-0,0,1.05,1.12,93,2132,3.4,3.72,,13.41,1.085,91.6,,22.5,5,,,,,,,,,,,,0,0,0,0,0,0,0,0,0,0,0,0,0,0,0,0,,,,,0.0,,,,,,
2693208,1745086419409,,,,,,,,,,,,,,,,,,,,,,,0,0,0,0,0.0,0.0,0.0,0.0,2.26,,,0,0,0,0,0,0,0,0,0,0,0,0,0,0,0,0,0,,,,,39.240116,-77.964874,0.26,32,3,0.8
2693228,1745086419429,0.0,189.17,,-0.1,-0.05,1.04,0,-0,0,1.05,1.12,93,2137,3.5,3.69,,13.64,1.103,91.6,,20.2,5,,,,,,,,,,,,0,0,0,0,0,0,0,0,0,0,0,0,0,0,0,0,,,,,0.0,,,,,,
2693248,1745086419449,,,,,,,,,,,,,,,,,,,,,,,,,,,,,,,,,,0,0,0,0,0,0,0,0,0,0,0,0,0,0,0,0,,,,,,,,,,,
2693268,1745086419469,0.0,189.29,,-0.1,-0.05,1.02,0,-0,-0,1.03,1.12,91,2085,3.4,3.68,,13.69,1.12,91.6,,20.2,5,,,,,,,,,,,,0,0,0,0,0,0,0,0,0,0,0,0,0,0,0,0,,,,,0.0,,,,,,
2693288,1745086419489,,,,,,,,,,,,,,,,,,,,,,,,,,,,,,,,,,0,0,0,0,0,0,0,0,0,0,0,0,0,0,0,0,,,,,,,,,,,
2693308,1745086419509,0.0,189.29,,-0.09,-0.05,1.01,0,-0,-0,1.01,1.12,90,1995,3.3,3.72,,13.8,1.148,91.6,,20.2,5,0,0,0,0,0.0,0.0,0.0,0.0,2.26,,,0,0,0,0,0,0,0,0,0,0,0,0,0,0,0,0,0,,,,0.0,39.240116,-77.964874,0.11,32,3,0.8
2693328,1745086419529,,,,,,,,,,,,,,,,,,,,,,,,,,,,,,,,,,0,0,0,0,0,0,0,0,0,0,0,0,0,0,0,0,,,,,,,,,,,
2693348,1745086419549,0.0,189.29,,-0.08,-0.05,1.02,0,-0,-0,1.02,1.12,91,1897,0.0,3.3,,13.8,1.148,91.6,,18.9,5,,,,,,,,,,,,0,0,0,0,0,0,0,0,0,0,0,0,0,0,0,0,,,,,0.0,,,,,,
2693368,1745086419569,,,,,,,,,,,,,,,,,,,,,,,,,,,,,,,,,,0,0,0,0,0,0,0,0,0,0,0,0,0,0,0,0,,,,,,,,,,,
2693388,1745086419589,0.0,189.29,,-0.09,-0.03,1.01,0,-0,-0,1.02,1.12,91,1897,0.0,3.3,,13.75,1.156,91.6,,18.9,5,,,,,,,,,,,,0,0,0,0,0,0,0,0,0,0,0,0,0,0,0,0,,,,,0.0,,,,,,
2693408,1745086419609,,,,,,,,,,,,,,,,,,,,,,,0,0,0,0,0.0,0.0,0.0,0.0,2.27,,,0,0,0,0,0,0,0,0,0,0,0,0,0,0,0,0,0,,,,,39.240116,-77.964874,0.11,32,3,0.8
2693428,1745086419629,0.0,189.29,,-0.08,-0.03,1.01,0,-0,0,1.02,1.12,91,1897,0.0,3.29,,13.57,1.17,91.6,,18.7,5,,,,,,,,,,,,0,0,0,0,0,0,0,0,0,0,0,0,0,0,0,0,,,,,0.0,,,,,,
2693448,1745086419649,,,,,,,,,,,,,,,,,,,,,,,,,,,,,,,,,,0,0,0,0,0,0,0,0,0,0,0,0,0,0,0,0,,,,,,,,,,,
2693468,1745086419669,0.0,189.29,,-0.09,-0.02,1.03,-0,-0,0,1.03,1.12,92,1858,0.0,3.3,,13.56,1.211,91.6,,18.7,5,,,,,,,,,,,,0,0,0,0,0,0,0,0,0,0,0,0,0,0,0,0,,,,,0.0,,,,,,
2693488,1745086419689,,,,,,,,,,,,,,,,,,,,,,,,,,,,,,,,,,0,0,0,0,0,0,0,0,0,0,0,0,0,0,0,0,,,,,,,,,,,
2693508,1745086419709,0.0,189.29,,-0.09,-0.03,1.01,-0,-0,0,1.01,1.12,90,1782,0.0,3.32,,13.64,1.241,91.6,,18.7,5,0,0,0,0,0.0,0.0,0.0,0.0,2.27,,,0,0,0,0,0,0,0,0,0,0,0,0,0,0,0,0,0,,,,0.0,39.240116,-77.964874,0.04,32,3,0.8
2693528,1745086419729,,,,,,,,,,,,,,,,,,,,,,,,,,,,,,,,,,0,0,0,0,0,0,0,0,0,0,0,0,0,0,0,0,,,,,,,,,,,
2693548,1745086419749,0.0,189.29,,-0.08,-0.05,1.0,0,-0,0,1.0,1.12,89,1681,0.0,3.31,,13.64,1.241,91.6,,16.5,5,,,,,,,,,,,,0,0,0,0,0,0,0,0,0,0,0,0,0,0,0,0,,,,,0.0,,,,,,
2693568,1745086419769,,,,,,,,,,,,,,,,,,,,,,,,,,,,,,,,,,0,0,0,0,0,0,0,0,0,0,0,0,0,0,0,0,,,,,,,,,,,
2693588,1745086419789,0.0,189.29,,-0.06,-0.04,1.01,0,-0,0,1.01,1.12,90,1681,0.0,3.31,,13.75,1.252,91.6,,16.5,5,,,,,,,,,,,,0,0,0,0,0,0,0,0,0,0,0,0,0,0,0,0,,,,,0.0,,,,,,
2693608,1745086419809,,,,,,,,,,,,,,,,,,,,,,,0,0,0,0,0.0,0.0,0.0,0.0,2.26,,,0,0,0,0,0,0,0,0,0,0,0,0,0,0,0,0,0,,,,,39.240116,-77.964874,0.0,32,3,0.8
2693628,1745086419829,0.0,189.29,,-0.05,-0.04,1.01,0,-0,0,1.01,1.12,90,1666,0.0,3.34,,13.64,1.253,91.6,,14.7,5,,,,,,,,,,,,0,0,0,0,0,0,0,0,0,0,0,0,0,0,0,0,,,,,0.0,,,,,,
2693648,1745086419849,,,,,,,,,,,,,,,,,,,,,,,,,,,,,,,,,,0,0,0,0,0,0,0,0,0,0,0,0,0,0,0,0,,,,,,,,,,,
2693668,1745086419869,0.0,189.42,,-0.04,-0.04,1.01,0,-0,0,1.01,1.12,90,1440,0.0,3.36,,13.83,1.252,91.6,,14.7,5,,,,,,,,,,,,0,0,0,0,0,0,0,0,0,0,0,0,0,0,0,0,,,,,0.0,,,,,,
2693688,1745086419889,,,,,,,,,,,,,,,,,,,,,,,,,,,,,,,,,,0,0,0,0,0,0,0,0,0,0,0,0,0,0,0,0,,,,,,,,,,,
2693708,1745086419908,0.0,189.42,13.41,-0.03,-0.04,1.01,0,-0,0,1.01,1.12,90,1248,0.0,3.38,15,13.94,1.252,91.6,137,14.7,5,0,0,0,0,0.0,0.0,0.0,0.0,2.26,0,0.0,0,0,0,0,0,0,0,0,0,0,0,0,0,0,0,0,0,0.0,0,-0,0.0,39.240116,-77.964874,0.07,32,3,0.8
2693728,1745086419928,,,,,,,,,,,,,,,,,,,,,,,,,,,,,,,,,,0,0,0,0,0,0,0,0,0,0,0,0,0,0,0,0,,,,,,,,,,,
2693748,1745086419948,0.0,189.42,,-0.03,-0.03,1.02,0,-0,0,1.02,1.12,91,1243,0.0,3.42,,13.94,1.252,91.6,,12.8,5,,,,,,,,,,,,0,0,0,0,0,0,0,0,0,0,0,0,0,0,0,0,,,,,0.0,,,,,,
2693768,1745086419968,,,,,,,,,,,,,,,,,,,,,,,,,,,,,,,,,,0,0,0,0,0,0,0,0,0,0,0,0,0,0,0,0,,,,,,,,,,,
2693788,1745086419988,0.0,189.42,,-0.04,-0.02,1.01,0,-0,0,1.02,1.12,91,1243,0.0,3.42,,13.99,1.251,91.6,,12.8,5,,,,,,,,,,,,0,0,0,0,0,0,0,0,0,0,0,0,0,0,0,0,,,,,0.0,,,,,,
2693808,1745086420000,,,,,,,,,,,,,,,,,,,,,,,0,0,0,0,0.0,0.0,0.0,0.0,2.26,,,0,0,0,0,0,0,0,0,0,0,0,0,0,0,0,0,0,,,,,39.240116,-77.964874,0.08,32,3,0.8
2693828,1745086420020,0.0,189.42,,-0.04,-0.03,1.01,0,-0,0,1.01,1.12,90,1079,0.0,3.42,,13.96,1.251,91.6,,12.5,5,,,,,,,,,,,,0,0,0,0,0,0,0,0,0,0,0,0,0,0,0,0,,,,,0.0,,,,,,
2693848,1745086420040,,,,,,,,,,,,,,,,,,,,,,,,,,,,,,,,,,0,0,0,0,0,0,0,0,0,0,0,0,0,0,0,0,,,,,,,,,,,
2693868,1745086420060,0.0,189.42,,-0.04,-0.03,1.01,0,-0,0,1.01,1.12,90,1194,0.0,3.44,,13.96,1.251,91.6,,12.5,5,,,,,,,,,,,,0,0,0,0,0,0,0,0,0,0,0,0,0,0,0,0,,,,,0.0,,,,,,
2693888,1745086420080,,,,,,,,,,,,,,,,,,,,,,,,,,,,,,,,,,0,0,0,0,0,0,0,0,0,0,0,0,0,0,0,0,,,,,,,,,,,
2693908,1745086420106,0.0,189.42,,-0.04,-0.03,1.0,0,-0,0,1.0,1.12,90,1194,0.0,3.44,,14.16,1.25,91.6,,12.5,5,0,0,0,0,0.0,0.0,0.0,0.0,2.27,,,0,0,0,0,0,0,0,0,0,0,0,0,0,0,0,0,0,,,,0.0,39.240116,-77.964874,0.15,32,3,0.8
2693928,1745086420126,,,,,,,,,,,,,,,,,,,,,,,,,,,,,,,,,,0,0,0,0,0,0,0,0,0,0,0,0,0,0,0,0,,,,,,,,,,,
2693948,1745086420146,0.0,189.54,,-0.04,-0.04,1.0,0,-0,0,1.0,1.12,89,869,0.0,3.43,,14.16,1.25,91.6,,9.6,5,,,,,,,,,,,,0,0,0,0,0,0,0,0,0,0,0,0,0,0,0,0,,,,,0.0,,,,,,
2693968,1745086420166,,,,,,,,,,,,,,,,,,,,,,,,,,,,,,,,,,0,0,0,0,0,0,0,0,0,0,0,0,0,0,0,0,,,,,,,,,,,
2693988,1745086420186,0.0,189.54,,-0.03,-0.03,1.0,0,-0,0,1.0,1.12,89,869,0.0,3.43,,14.36,1.25,91.6,,9.6,5,,,,,,,,,,,,0,0,0,0,0,0,0,0,0,0,0,0,0,0,0,0,,,,,0.0,,,,,,
2694008,1745086420208,,,,,,,,,,,,,,,,,,,,,,,0,0,0,0,0.0,0.0,0.0,0.0,2.27,,,0,0,0,0,0,0,0,0,0,0,0,0,0,0,0,0,0,,,,,39.240116,-77.964874,0.0,32,3,0.8
2694028,1745086420228,0.0,189.54,,-0.03,-0.03,1.0,0,-0,0,1.0,1.12,89,869,0.0,3.43,,14.34,1.25,91.6,,6.9,5,,,,,,,,,,,,0,0,0,0,0,0,0,0,0,0,0,0,0,0,0,0,,,,,0.0,,,,,,
2694048,1745086420248,,,,,,,,,,,,,,,,,,,,,,,,,,,,,,,,,,0,0,0,0,0,0,0,0,0,0,0,0,0,0,0,0,,,,,,,,,,,
2694068,1745086420268,0.0,189.54,,-0.03,-0.03,1.0,0,-0,0,1.0,1.12,89,869,0.0,3.43,,14.34,1.252,91.6,,6.9,5,,,,,,,,,,,,0,0,0,0,0,0,0,0,0,0,0,0,0,0,0,0,,,,,0.0,,,,,,
2694088,1745086420288,,,,,,,,,,,,,,,,,,,,,,,,,,,,,,,,,,0,0,0,0,0,0,0,0,0,0,0,0,0,0,0,0,,,,,,,,,,,
2694108,1745086420308,0.0,189.54,,-0.03,-0.03,1.0,0,-0,0,1.0,1.12,89,869,0.0,3.43,,14.34,1.251,91.6,,6.9,5,0,0,0,0,0.0,0.0,0.0,0.0,2.27,,,0,0,0,0,0,0,0,0,0,0,0,0,0,0,0,0,0,,,,0.0,39.240116,-77.964874,0.05,32,3,0.8
2694128,1745086420328,,,,,,,,,,,,,,,,,,,,,,,,,,,,,,,,,,0,0,0,0,0,0,0,0,0,0,0,0,0,0,0,0,,,,,,,,,,,
2694148,1745086420348,0.0,189.54,,-0.03,-0.03,1.0,0,-0,0,1.0,1.12,89,869,0.0,3.43,,14.34,1.251,91.6,,6.3,5,,,,,,,,,,,,0,0,0,0,0,0,0,0,0,0,0,0,0,0,0,0,,,,,0.0,,,,,,
2694168,1745086420368,,,,,,,,,,,,,,,,,,,,,,,,,,,,,,,,,,0,0,0,0,0,0,0,0,0,0,0,0,0,0,0,0,,,,,,,,,,,
2694188,1745086420388,0.0,189.54,,-0.04,-0.03,1.0,0,-0,0,1.0,1.12,89,869,0.0,3.43,,14.35,1.242,91.6,,6.3,5,,,,,,,,,,,,0,0,0,0,0,0,0,0,0,0,0,0,0,0,0,0,,,,,0.0,,,,,,
2694208,1745086420408,,,,,,,,,,,,,,,,,,,,,,,0,0,0,0,0.0,0.0,0.0,0.0,2.26,,,0,0,0,0,0,0,0,0,0,0,0,0,0,0,0,0,0,,,,,39.240116,-77.964874,0.04,32,3,0.8
2694228,1745086420428,0.0,189.42,,-0.04,-0.03,1.0,0,-0,0,1.0,1.12,89,869,0.0,3.43,,14.34,1.236,91.6,,6.6,5,,,,,,,,,,,,0,0,0,0,0,0,0,0,0,0,0,0,0,0,0,0,,,,,0.0,,,,,,
2694248,1745086420448,,,,,,,,,,,,,,,,,,,,,,,,,,,,,,,,,,0,0,0,0,0,0,0,0,0,0,0,0,0,0,0,0,,,,,,,,,,,
2694268,1745086420468,0.0,189.54,,-0.04,-0.03,1.0,0,-0,0,1.0,1.12,89,869,0.0,3.43,,14.34,1.231,91.6,,6.6,5,,,,,,,,,,,,0,0,0,0,0,0,0,0,0,0,0,0,0,0,0,0,,,,,0.0,,,,,,
2694288,1745086420488,,,,,,,,,,,,,,,,,,,,,,,,,,,,,,,,,,0,0,0,0,0,0,0,0,0,0,0,0,0,0,0,0,,,,,,,,,,,
2694308,1745086420510,0.0,189.54,,-0.04,-0.03,0.99,0,-0,0,0.99,1.12,89,869,0.0,3.43,,14.34,1.226,91.6,,6.6,5,0,0,0,0,0.0,0.0,0.0,0.0,2.26,,,0,0,0,0,0,0,0,0,0,0,0,0,0,0,0,0,0,,,,0.0,39.240116,-77.964874,0.08,32,3,0.8
2694328,1745086420530,,,,,,,,,,,,,,,,,,,,,,,,,,,,,,,,,,0,0,0,0,0,0,0,0,0,0,0,0,0,0,0,0,,,,,,,,,,,
2694348,1745086420550,0.0,186.65,,-0.04,-0.03,0.99,0,-0,-0,0.99,1.12,89,869,0.0,3.43,,14.34,1.226,91.6,,6.6,5,,,,,,,,,,,,0,0,0,0,0,0,0,0,0,0,0,0,0,0,0,0,,,,,0.0,,,,,,
2694368,1745086420570,,,,,,,,,,,,,,,,,,,,,,,,,,,,,,,,,,0,0,0,0,0,0,0,0,0,0,0,0,0,0,0,0,,,,,,,,,,,
2694388,1745086420590,0.0,179.24,,-0.04,-0.03,0.99,0,-0,0,0.99,1.12,89,869,0.0,3.43,,14.34,1.226,91.6,,6.6,5,,,,,,,,,,,,0,0,0,0,0,0,0,0,0,0,0,0,0,0,0,0,,,,,0.0,,,,,,
2694408,1745086420609,,,,,,,,,,,,,,,,,,,,,,,0,0,0,0,0.0,0.0,0.0,0.0,2.26,,,0,0,0,0,0,0,0,0,0,0,0,0,0,0,0,0,0,,,,,39.240116,-77.964874,0.0,32,3,0.8
2694428,1745086420629,0.0,171.32,,-0.04,-0.03,0.99,0,-0,0,0.99,1.12,89,869,0.0,3.43,,14.34,1.226,91.6,,6.6,5,,,,,,,,,,,,0,0,0,0,0,0,0,0,0,0,0,0,0,0,0,0,,,,,0.0,,,,,,
2694448,1745086420649,,,,,,,,,,,,,,,,,,,,,,,,,,,,,,,,,,0,0,0,0,0,0,0,0,0,0,0,0,0,0,0,0,,,,,,,,,,,
2694468,1745086420669,0.0,163.52,,-0.04,-0.03,0.99,0,-0,0,0.99,1.12,89,869,0.0,3.43,,14.34,1.226,91.6,,6.6,5,,,,,,,,,,,,0,0,0,0,0,0,0,0,0,0,0,0,0,0,0,0,,,,,0.0,,,,,,
2694488,1745086420689,,,,,,,,,,,,,,,,,,,,,,,,,,,,,,,,,,0,0,0,0,0,0,0,0,0,0,0,0,0,0,0,0,,,,,,,,,,,
2694508,1745086420710,0.0,155.98,,-0.04,-0.03,0.99,0,-0,-0,0.99,1.12,88,869,0.0,3.43,,14.34,1.226,91.6,,6.6,5,0,0,0,0,0.0,0.0,0.0,0.0,2.26,,,0,0,0,0,0,0,0,0,0,0,0,0,0,0,0,0,0,,,,0.0,39.240116,-77.964874,0.04,32,3,0.8
2694528,1745086420730,,,,,,,,,,,,,,,,,,,,,,,,,,,,,,,,,,0,0,0,0,0,0,0,0,0,0,0,0,0,0,0,0,,,,,,,,,,,
2694548,1745086420750,0.0,148.94,,-0.04,-0.03,0.99,0,-0,0,0.99,1.12,88,869,0.0,3.43,,14.34,1.226,91.6,,6.6,5,,,,,,,,,,,,0,0,0,0,0,0,0,0,0,0,0,0,0,0,0,0,,,,,0.0,,,,,,
2694568,1745086420770,,,,,,,,,,,,,,,,,,,,,,,,,,,,,,,,,,0,0,0,0,0,0,0,0,0,0,0,0,0,0,0,0,,,,,,,,,,,
2694588,1745086420790,0.0,142.41,,-0.04,-0.03,0.99,0,-0,0,0.99,1.12,88,869,0.0,3.43,,14.34,1.226,91.6,,6.6,5,,,,,,,,,,,,0,0,0,0,0,0,0,0,0,0,0,0,0,0,0,0,,,,,0.0,,,,,,
2694608,1745086420809,,,,,,,,,,,,,,,,,,,,,,,0,0,0,0,0.0,0.0,0.0,0.0,2.26,,,0,0,0,0,0,0,0,0,0,0,0,0,0,0,0,0,0,,,,,39.240116,-77.964874,0.07,32,3,0.8
2694628,1745086420829,0.0,136.5,,-0.04,-0.03,0.99,0,-0,0,0.99,1.12,88,869,0.0,3.43,,14.34,1.226,91.6,,6.6,5,,,,,,,,,,,,0,0,0,0,0,0,0,0,0,0,0,0,0,0,0,0,,,,,0.0,,,,,,
2694648,1745086420849,,,,,,,,,,,,,,,,,,,,,,,,,,,,,,,,,,0,0,0,0,0,0,0,0,0,0,0,0,0,0,0,0,,,,,,,,,,,
2694668,1745086420869,0.0,131.1,,-0.05,-0.03,0.99,0,-0,0,0.99,1.12,88,869,0.0,3.43,,14.34,1.226,91.6,,6.6,5,,,,,,,,,,,,0,0,0,0,0,0,0,0,0,0,0,0,0,0,0,0,,,,,0.0,,,,,,
2694688,1745086420889,,,,,,,,,,,,,,,,,,,,,,,,,,,,,,,,,,0,0,0,0,0,0,0,0,0,0,0,0,0,0,0,0,,,,,,,,,,,
2694708,1745086420909,0.0,126.19,13.27,-0.05,-0.03,0.99,0,-0,0,0.99,1.12,88,869,0.0,3.43,15,14.34,1.226,91.6,137,6.6,5,0,0,0,0,0.0,0.0,0.0,0.0,2.26,0,0.0,0,0,0,0,0,0,0,0,0,0,0,0,0,0,0,0,0,0.0,0,-0,0.0,39.240116,-77.964874,0.07,32,3,0.8
2694728,1745086420929,,,,,,,,,,,,,,,,,,,,,,,,,,,,,,,,,,0,0,0,0,0,0,0,0,0,0,0,0,0,0,0,0,,,,,,,,,,,
2694748,1745086420949,0.0,121.67,,-0.05,-0.03,0.99,0,-0,0,0.99,1.12,88,869,0.0,3.43,,14.34,1.226,91.6,,6.6,5,,,,,,,,,,,,0,0,0,0,0,0,0,0,0,0,0,0,0,0,0,0,,,,,0.0,,,,,,
2694768,1745086420969,,,,,,,,,,,,,,,,,,,,,,,,,,,,,,,,,,0,0,0,0,0,0,0,0,0,0,0,0,0,0,0,0,,,,,,,,,,,
2694788,1745086420989,0.0,117.65,,-0.05,-0.03,0.99,0,-0,0,0.99,1.12,88,869,0.0,3.43,,14.34,1.226,91.6,,6.6,5,,,,,,,,,,,,0,0,0,0,0,0,0,0,0,0,0,0,0,0,0,0,,,,,0.0,,,,,,
2694808,1745086420999,,,,,,,,,,,,,,,,,,,,,,,0,0,0,0,0.0,0.0,0.0,0.0,2.26,,,0,0,0,0,0,0,0,0,0,0,0,0,0,0,0,0,0,,,,,39.240116,-77.964874,0.07,34,3,0.8
2694828,1745086421019,0.0,114.13,,-0.05,-0.03,0.99,0,-0,0,0.99,1.12,88,869,0.0,3.43,,14.34,1.226,91.6,,6.6,5,,,,,,,,,,,,0,0,0,0,0,0,0,0,0,0,0,0,0,0,0,0,,,,,0.0,,,,,,
2694848,1745086421039,,,,,,,,,,,,,,,,,,,,,,,,,,,,,,,,,,0,0,0,0,0,0,0,0,0,0,0,0,0,0,0,0,,,,,,,,,,,
2694868,1745086421059,0.0,110.86,,-0.05,-0.03,0.99,0,-0,0,0.99,1.12,88,869,0.0,3.43,,14.34,1.226,91.6,,6.6,5,,,,,,,,,,,,0,0,0,0,0,0,0,0,0,0,0,0,0,0,0,0,,,,,0.0,,,,,,
2694888,1745086421079,,,,,,,,,,,,,,,,,,,,,,,,,,,,,,,,,,0,0,0,0,0,0,0,0,0,0,0,0,0,0,0,0,,,,,,,,,,,
2694908,1745086421103,0.0,107.84,,-0.05,-0.03,0.99,0,-0,0,0.99,1.12,88,869,0.0,3.43,,14.34,1.226,91.6,,6.6,5,0,0,0,0,0.0,0.0,0.0,0.0,2.26,,,0,0,0,0,0,0,0,0,0,0,0,0,0,0,0,0,0,,,,0.0,39.240116,-77.964874,0.0,34,3,0.8
2694928,1745086421123,,,,,,,,,,,,,,,,,,,,,,,,,,,,,,,,,,0,0,0,0,0,0,0,0,0,0,0,0,0,0,0,0,,,,,,,,,,,
2694948,1745086421143,0.0,105.2,,-0.05,-0.03,0.99,0,-0,0,0.99,1.12,88,869,0.0,3.43,,14.34,1.226,91.6,,6.6,5,,,,,,,,,,,,0,0,0,0,0,0,0,0,0,0,0,0,0,0,0,0,,,,,0.0,,,,,,
2694968,1745086421163,,,,,,,,,,,,,,,,,,,,,,,,,,,,,,,,,,0,0,0,0,0,0,0,0,0,0,0,0,0,0,0,0,,,,,,,,,,,
2694988,1745086421183,0.0,102.82,,-0.05,-0.03,0.99,0,-0,0,0.99,1.12,88,869,0.0,3.43,,14.34,1.226,91.6,,6.6,5,,,,,,,,,,,,0,0,0,0,0,0,0,0,0,0,0,0,0,0,0,0,,,,,0.0,,,,,,
2695008,1745086421207,,,,,,,,,,,,,,,,,,,,,,,0,0,0,0,0.0,0.0,0.0,0.0,2.26,,,0,0,0,0,0,0,0,0,0,0,0,0,0,0,0,0,0,,,,,39.240116,-77.964874,0.11,34,3,0.8
2695028,1745086421227,0.0,100.68,,-0.05,-0.03,0.99,0,-0,-0,0.99,1.12,88,869,0.0,3.43,,14.34,1.226,91.6,,6.6,5,,,,,,,,,,,,0,0,0,0,0,0,0,0,0,0,0,0,0,0,0,0,,,,,0.0,,,,,,
2695048,1745086421247,,,,,,,,,,,,,,,,,,,,,,,,,,,,,,,,,,0,0,0,0,0,0,0,0,0,0,0,0,0,0,0,0,,,,,,,,,,,
2695068,1745086421267,0.0,98.79,,-0.05,-0.03,0.99,0,-0,-0,0.99,1.12,88,869,0.0,3.43,,14.34,1.226,91.6,,6.6,5,,,,,,,,,,,,0,0,0,0,0,0,0,0,0,0,0,0,0,0,0,0,,,,,0.0,,,,,,
2695088,1745086421287,,,,,,,,,,,,,,,,,,,,,,,,,,,,,,,,,,0,0,0,0,0,0,0,0,0,0,0,0,0,0,0,0,,,,,,,,,,,
2695108,1745086421309,0.0,96.91,,-0.05,-0.03,0.99,0,-0,-0,0.99,1.12,88,869,0.0,3.43,,14.34,1.226,91.6,,6.6,5,0,0,0,0,0.0,0.0,0.0,0.0,2.26,,,0,0,0,0,0,0,0,0,0,0,0,0,0,0,0,0,0,,,,0.0,39.240116,-77.964874,0.0,34,3,0.8
2695128,1745086421329,,,,,,,,,,,,,,,,,,,,,,,,,,,,,,,,,,0,0,0,0,0,0,0,0,0,0,0,0,0,0,0,0,,,,,,,,,,,
2695148,1745086421349,0.0,95.4,,-0.05,-0.03,0.99,0,-0,0,0.99,1.12,88,869,0.0,3.43,,14.34,1.226,91.6,,6.6,5,,,,,,,,,,,,0,0,0,0,0,0,0,0,0,0,0,0,0,0,0,0,,,,,0.0,,,,,,
2695168,1745086421369,,,,,,,,,,,,,,,,,,,,,,,,,,,,,,,,,,0,0,0,0,0,0,0,0,0,0,0,0,0,0,0,0,,,,,,,,,,,
2695188,1745086421389,0.0,93.89,,-0.04,-0.03,0.99,0,-0,-0,0.99,1.12,88,869,0.0,3.43,,14.34,1.226,91.6,,6.6,5,,,,,,,,,,,,0,0,0,0,0,0,0,0,0,0,0,0,0,0,0,0,,,,,0.0,,,,,,
2695208,1745086421407,,,,,,,,,,,,,,,,,,,,,,,0,0,0,0,0.0,0.0,0.0,0.0,2.26,,,0,0,0,0,0,0,0,0,0,0,0,0,0,0,0,0,0,,,,,39.240116,-77.964874,0.1,34,3,0.8
2695228,1745086421427,0.0,92.51,,-0.04,-0.03,0.99,0,-0,-0,0.99,1.12,88,869,0.0,3.43,,14.34,1.226,91.6,,6.6,5,,,,,,,,,,,,0,0,0,0,0,0,0,0,0,0,0,0,0,0,0,0,,,,,0.0,,,,,,
2695248,1745086421447,,,,,,,,,,,,,,,,,,,,,,,,,,,,,,,,,,0,0,0,0,0,0,0,0,0,0,0,0,0,0,0,0,,,,,,,,,,,
2695268,1745086421467,0.0,91.25,,-0.04,-0.03,0.99,0,-0,0,0.99,1.12,88,869,0.0,3.43,,14.34,1.226,91.6,,6.6,5,,,,,,,,,,,,0,0,0,0,0,0,0,0,0,0,0,0,0,0,0,0,,,,,0.0,,,,,,
2695288,1745086421487,,,,,,,,,,,,,,,,,,,,,,,,,,,,,,,,,,0,0,0,0,0,0,0,0,0,0,0,0,0,0,0,0,,,,,,,,,,,
2695308,1745086421509,0.0,90.12,,-0.04,-0.03,0.99,0,-0,0,0.99,1.12,88,869,0.0,3.43,,14.34,1.226,91.6,,6.6,5,0,0,0,0,0.0,0.0,0.0,0.0,2.26,,,0,0,0,0,0,0,0,0,0,0,0,0,0,0,0,0,0,,,,0.0,39.240116,-77.964874,0.13,34,3,0.8
2695328,1745086421529,,,,,,,,,,,,,,,,,,,,,,,,,,,,,,,,,,0,0,0,0,0,0,0,0,0,0,0,0,0,0,0,0,,,,,,,,,,,
2695348,1745086421549,0.0,89.12,,-0.03,-0.03,0.99,0,-0,0,0.99,1.12,88,869,0.0,3.43,,14.34,1.226,91.6,,6.6,5,,,,,,,,,,,,0,0,0,0,0,0,0,0,0,0,0,0,0,0,0,0,,,,,0.0,,,,,,
2695368,1745086421569,,,,,,,,,,,,,,,,,,,,,,,,,,,,,,,,,,0,0,0,0,0,0,0,0,0,0,0,0,0,0,0,0,,,,,,,,,,,
2695388,1745086421589,0.0,88.11,,-0.03,-0.03,0.99,0,-0,0,0.99,1.12,88,869,0.0,3.43,,14.34,1.226,91.6,,6.6,5,,,,,,,,,,,,0,0,0,0,0,0,0,0,0,0,0,0,0,0,0,0,,,,,0.0,,,,,,
2695408,1745086421609,,,,,,,,,,,,,,,,,,,,,,,0,0,0,0,0.0,0.0,0.0,0.0,2.26,,,0,0,0,0,0,0,0,0,0,0,0,0,0,0,0,0,0,,,,,39.240116,-77.964874,0.25,34,3,0.8
2695428,1745086421629,0.0,87.23,,-0.04,-0.03,0.99,-0,-0,0,0.99,1.12,88,869,0.0,3.43,,14.34,1.226,91.6,,6.6,5,,,,,,,,,,,,0,0,0,0,0,0,0,0,0,0,0,0,0,0,0,0,,,,,0.0,,,,,,
2695448,1745086421649,,,,,,,,,,,,,,,,,,,,,,,,,,,,,,,,,,0,0,0,0,0,0,0,0,0,0,0,0,0,0,0,0,,,,,,,,,,,
2695468,1745086421669,0.0,86.48,,-0.04,-0.02,0.99,-0,-0,0,0.99,1.12,88,869,0.0,3.43,,14.34,1.226,91.6,,6.6,5,,,,,,,,,,,,0,0,0,0,0,0,0,0,0,0,0,0,0,0,0,0,,,,,0.0,,,,,,
2695488,1745086421689,,,,,,,,,,,,,,,,,,,,,,,,,,,,,,,,,,0,0,0,0,0,0,0,0,0,0,0,0,0,0,0,0,,,,,,,,,,,
2695508,1745086421709,0.0,85.72,,-0.05,-0.02,0.99,-0,-0,0,0.99,1.12,88,869,0.0,3.43,,14.34,1.226,91.6,,6.6,5,0,0,0,0,0.0,0.0,0.0,0.0,2.26,,,0,0,0,0,0,0,0,0,0,0,0,0,0,0,0,0,0,,,,0.0,39.240116,-77.964874,0.08,34,3,0.8
2695528,1745086421729,,,,,,,,,,,,,,,,,,,,,,,,,,,,,,,,,,0,0,0,0,0,0,0,0,0,0,0,0,0,0,0,0,,,,,,,,,,,
2695548,1745086421749,0.0,85.09,,-0.06,-0.02,0.99,-0,-0,0,0.99,1.12,88,869,0.0,3.43,,14.34,1.226,91.6,,6.6,5,,,,,,,,,,,,0,0,0,0,0,0,0,0,0,0,0,0,0,0,0,0,,,,,0.0,,,,,,
2695568,1745086421769,,,,,,,,,,,,,,,,,,,,,,,,,,,,,,,,,,0,0,0,0,0,0,0,0,0,0,0,0,0,0,0,0,,,,,,,,,,,
2695588,1745086421789,0.0,84.46,,-0.07,-0.02,0.99,-0,-0,0,0.99,1.12,88,869,0.0,3.43,,14.34,1.226,91.6,,6.6,5,,,,,,,,,,,,0,0,0,0,0,0,0,0,0,0,0,0,0,0,0,0,,,,,0.0,,,,,,
2695608,1745086421808,,,,,,,,,,,,,,,,,,,,,,,0,0,0,0,0.0,0.0,0.0,0.0,2.26,,,0,0,0,0,0,0,0,0,0,0,0,0,0,0,0,0,0,,,,,39.240116,-77.964874,0.04,34,3,0.8
2695628,1745086421828,0.0,83.84,,-0.07,-0.02,0.99,0,-0,0,0.99,1.12,88,869,0.0,3.43,,14.34,1.226,91.6,,6.6,5,,,,,,,,,,,,0,0,0,0,0,0,0,0,0,0,0,0,0,0,0,0,,,,,0.0,,,,,,
2695648,1745086421848,,,,,,,,,,,,,,,,,,,,,,,,,,,,,,,,,,0,0,0,0,0,0,0,0,0,0,0,0,0,0,0,0,,,,,,,,,,,
2695668,1745086421868,0.0,83.33,,-0.07,-0.02,0.99,0,-0,0,0.99,1.12,88,869,0.0,3.43,,14.34,1.226,91.6,,6.6,5,,,,,,,,,,,,0,0,0,0,0,0,0,0,0,0,0,0,0,0,0,0,,,,,0.0,,,,,,
2695688,1745086421888,,,,,,,,,,,,,,,,,,,,,,,,,,,,,,,,,,0,0,0,0,0,0,0,0,0,0,0,0,0,0,0,0,,,,,,,,,,,
2695708,1745086421908,0.0,82.7,13.25,-0.07,-0.01,0.99,0,-0,0,0.99,1.12,88,869,0.0,3.43,15,14.34,1.226,91.6,137,6.6,5,0,0,0,0,0.0,0.0,0.0,0.0,2.26,0,0.0,0,0,0,0,0,0,0,0,0,0,0,0,0,0,0,0,0,0.0,0,-0,0.0,39.240116,-77.964874,0.13,34,3,0.8
2695728,1745086421928,,,,,,,,,,,,,,,,,,,,,,,,,,,,,,,,,,0,0,0,0,0,0,0,0,0,0,0,0,0,0,0,0,,,,,,,,,,,
2695748,1745086421948,0.0,82.2,,-0.06,-0.01,0.99,0,-0,0,0.99,1.12,88,869,0.0,3.43,,14.34,1.226,91.6,,6.6,5,,,,,,,,,,,,0,0,0,0,0,0,0,0,0,0,0,0,0,0,0,0,,,,,0.0,,,,,,
2695768,1745086421968,,,,,,,,,,,,,,,,,,,,,,,,,,,,,,,,,,0,0,0,0,0,0,0,0,0,0,0,0,0,0,0,0,,,,,,,,,,,
2695788,1745086421988,0.0,81.83,,-0.06,-0.02,0.99,0,-0,0,0.99,1.12,88,869,0.0,3.43,,14.34,1.226,91.6,,6.6,5,,,,,,,,,,,,0,0,0,0,0,0,0,0,0,0,0,0,0,0,0,0,,,,,0.0,,,,,,
2695808,1745086421998,,,,,,,,,,,,,,,,,,,,,,,0,0,0,0,0.0,0.0,0.0,0.0,2.26,,,0,0,0,0,0,0,0,0,0,0,0,0,0,0,0,0,0,,,,,39.240116,-77.964874,0.23,32,3,0.8
2695828,1745086422018,0.0,81.45,,-0.05,-0.02,0.99,0,-0,0,0.99,1.12,88,869,0.0,3.43,,14.34,1.226,91.6,,6.6,5,,,,,,,,,,,,0,0,0,0,0,0,0,0,0,0,0,0,0,0,0,0,,,,,0.0,,,,,,
2695848,1745086422038,,,,,,,,,,,,,,,,,,,,,,,,,,,,,,,,,,0,0,0,0,0,0,0,0,0,0,0,0,0,0,0,0,,,,,,,,,,,
2695868,1745086422058,0.0,80.95,,-0.04,-0.02,0.99,0,-0,0,0.99,1.12,88,869,0.0,3.43,,14.34,1.226,91.6,,6.6,5,,,,,,,,,,,,0,0,0,0,0,0,0,0,0,0,0,0,0,0,0,0,,,,,0.0,,,,,,
2695888,1745086422078,,,,,,,,,,,,,,,,,,,,,,,,,,,,,,,,,,0,0,0,0,0,0,0,0,0,0,0,0,0,0,0,0,,,,,,,,,,,
2695908,1745086422106,0.0,80.57,,-0.04,-0.02,0.99,0,-0,0,0.99,1.12,88,869,0.0,3.43,,14.34,1.226,91.6,,6.6,5,0,0,0,0,0.0,0.0,0.0,0.0,2.26,,,0,0,0,0,0,0,0,0,0,0,0,0,0,0,0,0,0,,,,0.0,39.240116,-77.964874,0.21,32,3,0.8
2695928,1745086422126,,,,,,,,,,,,,,,,,,,,,,,,,,,,,,,,,,0,0,0,0,0,0,0,0,0,0,0,0,0,0,0,0,,,,,,,,,,,
2695948,1745086422146,0.0,80.19,,-0.03,-0.03,0.99,0,-0,0,0.99,1.12,88,869,0.0,3.43,,14.34,1.226,91.6,,6.6,5,,,,,,,,,,,,0,0,0,0,0,0,0,0,0,0,0,0,0,0,0,0,,,,,0.0,,,,,,
2695968,1745086422166,,,,,,,,,,,,,,,,,,,,,,,,,,,,,,,,,,0,0,0,0,0,0,0,0,0,0,0,0,0,0,0,0,,,,,,,,,,,
2695988,1745086422186,0.0,79.81,,-0.03,-0.04,0.99,0,-0,0,0.99,1.12,88,869,0.0,3.43,,14.34,1.226,91.6,,6.6,5,,,,,,,,,,,,0,0,0,0,0,0,0,0,0,0,0,0,0,0,0,0,,,,,0.0,,,,,,
2696008,1745086422208,,,,,,,,,,,,,,,,,,,,,,,0,0,0,0,0.0,0.0,0.0,0.0,2.26,,,0,0,0,0,0,0,0,0,0,0,0,0,0,0,0,0,0,,,,,39.240116,-77.964874,0.0,32,3,0.8
2696028,1745086422228,0.0,79.56,,-0.03,-0.03,0.99,0,-0,0,0.99,1.12,88,869,0.0,3.43,,14.34,1.226,91.6,,6.6,5,,,,,,,,,,,,0,0,0,0,0,0,0,0,0,0,0,0,0,0,0,0,,,,,0.0,,,,,,
2696048,1745086422248,,,,,,,,,,,,,,,,,,,,,,,,,,,,,,,,,,0,0,0,0,0,0,0,0,0,0,0,0,0,0,0,0,,,,,,,,,,,
2696068,1745086422268,0.0,79.31,,-0.03,-0.04,0.99,0,-0,0,0.99,1.12,88,869,0.0,3.43,,14.34,1.226,91.6,,6.6,5,,,,,,,,,,,,0,0,0,0,0,0,0,0,0,0,0,0,0,0,0,0,,,,,0.0,,,,,,
2696088,1745086422288,,,,,,,,,,,,,,,,,,,,,,,,,,,,,,,,,,0,0,0,0,0,0,0,0,0,0,0,0,0,0,0,0,,,,,,,,,,,
2696108,1745086422308,0.0,79.06,,-0.03,-0.04,0.99,0,-0,0,0.99,1.12,88,869,0.0,3.43,,14.34,1.226,91.6,,6.6,5,0,0,0,0,0.0,0.0,0.0,0.0,2.26,,,0,0,0,0,0,0,0,0,0,0,0,0,0,0,0,0,0,,,,0.0,39.240116,-77.964874,0.13,32,3,0.8
2696128,1745086422328,,,,,,,,,,,,,,,,,,,,,,,,,,,,,,,,,,0,0,0,0,0,0,0,0,0,0,0,0,0,0,0,0,,,,,,,,,,,
2696148,1745086422348,0.0,78.68,,-0.03,-0.04,0.99,0,-0,0,0.99,1.12,88,869,0.0,3.43,,14.34,1.226,91.6,,6.6,5,,,,,,,,,,,,0,0,0,0,0,0,0,0,0,0,0,0,0,0,0,0,,,,,0.0,,,,,,
2696168,1745086422368,,,,,,,,,,,,,,,,,,,,,,,,,,,,,,,,,,0,0,0,0,0,0,0,0,0,0,0,0,0,0,0,0,,,,,,,,,,,
2696188,1745086422388,0.0,78.43,,-0.03,-0.04,0.99,0,-0,0,0.99,1.12,88,869,0.0,3.43,,14.34,1.226,91.6,,6.6,5,,,,,,,,,,,,0,0,0,0,0,0,0,0,0,0,0,0,0,0,0,0,,,,,0.0,,,,,,
2696208,1745086422408,,,,,,,,,,,,,,,,,,,,,,,0,0,0,0,0.0,0.0,0.0,0.0,2.26,,,0,0,0,0,0,0,0,0,0,0,0,0,0,0,0,0,0,,,,,39.240116,-77.964874,0.31,32,3,0.8
2696228,1745086422428,0.0,78.18,,-0.03,-0.04,0.99,0,-0,0,0.99,1.12,88,869,0.0,3.43,,14.34,1.226,91.6,,6.6,5,,,,,,,,,,,,0,0,0,0,0,0,0,0,0,0,0,0,0,0,0,0,,,,,0.0,,,,,,
2696248,1745086422448,,,,,,,,,,,,,,,,,,,,,,,,,,,,,,,,,,0,0,0,0,0,0,0,0,0,0,0,0,0,0,0,0,,,,,,,,,,,
2696268,1745086422468,0.0,78.05,,-0.03,-0.03,0.99,-0,-0,0,0.99,1.12,88,869,0.0,3.43,,14.34,1.226,91.6,,6.6,5,,,,,,,,,,,,0,0,0,0,0,0,0,0,0,0,0,0,0,0,0,0,,,,,0.0,,,,,,
2696288,1745086422488,,,,,,,,,,,,,,,,,,,,,,,,,,,,,,,,,,0,0,0,0,0,0,0,0,0,0,0,0,0,0,0,0,,,,,,,,,,,
2696308,1745086422510,0.0,77.8,,-0.04,-0.03,0.99,-0,-0,0,0.99,1.12,88,869,0.0,3.43,,14.34,1.226,91.6,,6.6,5,0,0,0,0,0.0,0.0,0.0,0.0,2.26,,,0,0,0,0,0,0,0,0,0,0,0,0,0,0,0,0,0,,,,0.0,39.240116,-77.964874,0.22,32,3,0.8
2696328,1745086422530,,,,,,,,,,,,,,,,,,,,,,,,,,,,,,,,,,0,0,0,0,0,0,0,0,0,0,0,0,0,0,0,0,,,,,,,,,,,
2696348,1745086422550,0.0,77.55,,-0.04,-0.03,0.99,-0,-0,0,0.99,1.12,88,869,0.0,3.43,,14.34,1.226,91.6,,6.6,5,,,,,,,,,,,,0,0,0,0,0,0,0,0,0,0,0,0,0,0,0,0,,,,,0.0,,,,,,
2696368,1745086422570,,,,,,,,,,,,,,,,,,,,,,,,,,,,,,,,,,0,0,0,0,0,0,0,0,0,0,0,0,0,0,0,0,,,,,,,,,,,
2696388,1745086422590,0.0,77.3,,-0.05,-0.03,0.99,-0,-0,0,0.99,1.12,88,869,0.0,3.43,,14.34,1.226,91.6,,6.6,5,,,,,,,,,,,,0,0,0,0,0,0,0,0,0,0,0,0,0,0,0,0,,,,,0.0,,,,,,
