"Interval"|"ms"|0|0|1,"Utc"|"ms"|0|0|1,"FrontBP"|"psi"|-5.0|5.0|25,"SteerAng"|"Degrees"|-145.0|145.0|25,"Battery"|"Volts"|-5.0|20.0|1,"AccelX"|"G"|-3.0|3.0|25,"AccelY"|"G"|-3.0|3.0|25,"AccelZ"|"G"|-3.0|3.0|25,"Yaw"|"Deg/Sec"|-120|120|25,"Pitch"|"Deg/Sec"|-120|120|25,"Roll"|"Deg/Sec"|-120|120|25,"Gsum"|"G"|0.0|3.0|25,"GsumMax"|"G"|0.0|3.0|25,"GsumPct"|"%"|0|100|25,"RPM"|""|0|10000|25,"TPS"|"%"|0.0|100.0|25,"InjectorPW"|"ms"|0.0|100.0|25,"Baro"|"kPa"|0|105|1,"MAP"|"Psi"|0.0|255.0|25,"Lambda"|""|-2.0|2.0|25,"IAT"|"C"|0.0|200.0|25,"EngineTemp"|"C"|0|200|1,"EOP"|"PSI"|0.0|152.0|25,"EOT"|"F"|0|250|25,"WSFR"|"MPH"|0|150|10,"WSFL"|"MPH"|0|100|10,"WSRR"|"MPH"|0|100|10,"WSRL"|""|0|100|10,"TCSet"|"%"|0.0|100.0|10,"TCSlip"|"%"|0.0|100.0|10,"TCComp"|"deg"|0.0|50.0|10,"TCCut"|"%"|0.0|100.0|10,"Analog8"|""|0.0|5.0|10,"OilTemp"|"F"|0|300|1,"AA_On"|""|0.0|1.0|1,"ThermLF1"|"C"|0|400|50,"ThermLF2"|"C"|0|400|50,"ThermRR1"|"C"|0|400|50,"ThermRR2"|"C"|0|400|50,"ThermLF3"|"C"|0|400|50,"ThermLF4"|"C"|0|400|50,"ThermLF5"|"C"|0|400|50,"ThermLF6"|"C"|0|400|50,"ThermLF7"|"C"|0|400|50,"ThermLF8"|"C"|0|400|50,"ThermRR3"|"C"|0|400|50,"ThermRR4"|"C"|0|400|50,"ThermRR5"|"C"|0|400|50,"ThermRR6"|"C"|0|400|50,"ThermRR7"|"C"|0|400|50,"ThermRR8"|"C"|0|400|50,"Gear"|""|1|6|10,"AA_On"|""|0.0|1.0|1,"AA_LowDrag"|""|0|1|1,"Fuel_Mix"|""|-10|10|1,"AA_Packages"|""|0.0|1000.0|25,"Latitude"|"Degrees"|-180.0|180.0|10,"Longitude"|"Degrees"|-180.0|180.0|10,"Speed"|"kph"|0.0|150.0|10,"GPSSats"|""|0|20|10,"GPSQual"|""|0|5|10,"GPSDOP"|""|0.0|20.0|10
1425728,1745085151925,,,,,,,,,,,,,,,,,,,,,,,,,,,,,,,,,,0,0,0,0,0,0,0,0,0,0,0,0,0,0,0,0,,,,,,,,,,,
1425748,1745085151945,0.0,185.02,,-0.06,-0.03,1.06,0,-0,-0,1.06,1.06,100,3249,0.0,2.73,,11.88,1.247,98.8,,30.7,5,,,,,,,,,,,,0,0,0,0,0,0,0,0,0,0,0,0,0,0,0,0,,,,,0.0,,,,,,
1425768,1745085151965,,,,,,,,,,,,,,,,,,,,,,,,,,,,,,,,,,0,0,0,0,0,0,0,0,0,0,0,0,0,0,0,0,,,,,,,,,,,
1425788,1745085151985,0.0,185.02,,-0.07,-0.04,1.04,0,-0,-0,1.04,1.06,99,3126,0.0,2.81,,11.88,1.247,98.8,,28.5,5,,,,,,,,,,,,0,0,0,0,0,0,0,0,0,0,0,0,0,0,0,0,,,,,0.0,,,,,,
1425808,1745085152005,,,,,,,,,,,,,,,,,,,,,,,0,0,0,0,0.0,0.0,0.0,0.0,2.26,,,0,0,0,0,0,0,0,0,0,0,0,0,0,0,0,0,0,,,,,39.239887,-77.965645,0.04,32,3,0.9
1425828,1745085152015,0.0,185.02,,-0.07,-0.03,0.97,1,-0,-1,0.97,1.06,92,3126,0.0,2.81,,11.92,1.249,98.8,,28.5,5,,,,,,,,,,,,0,0,0,0,0,0,0,0,0,0,0,0,0,0,0,0,,,,,0.0,,,,,,
1425848,1745085152035,,,,,,,,,,,,,,,,,,,,,,,,,,,,,,,,,,0,0,0,0,0,0,0,0,0,0,0,0,0,0,0,0,,,,,,,,,,,
1425868,1745085152055,0.0,184.89,,-0.06,0.09,0.89,1,-0,-1,0.9,1.06,85,3020,4.8,3.74,,12.47,1.25,98.8,,27.8,5,,,,,,,,,,,,0,0,0,0,0,0,0,0,0,0,0,0,0,0,0,0,,,,,0.0,,,,,,
1425888,1745085152075,,,,,,,,,,,,,,,,,,,,,,,,,,,,,,,,,,0,0,0,0,0,0,0,0,0,0,0,0,0,0,0,0,,,,,,,,,,,
1425908,1745085152095,0.0,184.89,,-0.03,0.14,0.9,0,-0,-0,0.91,1.06,86,3068,9.2,3.85,,13.07,1.251,98.8,,27.8,5,0,0,0,0,0.0,0.0,0.0,0.0,2.26,,,0,0,0,0,0,0,0,0,0,0,0,0,0,0,0,0,0,,,,0.0,39.239887,-77.965645,0.09,32,3,0.9
1425928,1745085152115,,,,,,,,,,,,,,,,,,,,,,,,,,,,,,,,,,0,0,0,0,0,0,0,0,0,0,0,0,0,0,0,0,,,,,,,,,,,
1425948,1745085152135,0.0,184.89,,-0.03,0.06,0.98,-0,-0,0,0.99,1.06,93,3209,10.1,3.83,,13.24,1.25,98.8,,27.8,5,,,,,,,,,,,,0,0,0,0,0,0,0,0,0,0,0,0,0,0,0,0,,,,,0.0,,,,,,
1425968,1745085152155,,,,,,,,,,,,,,,,,,,,,,,,,,,,,,,,,,0,0,0,0,0,0,0,0,0,0,0,0,0,0,0,0,,,,,,,,,,,
1425988,1745085152175,0.0,184.89,,-0.06,-0.03,1.04,0,-0,0,1.04,1.06,99,3147,10.3,3.86,,13.24,1.25,98.8,,27.4,5,,,,,,,,,,,,0,0,0,0,0,0,0,0,0,0,0,0,0,0,0,0,,,,,0.0,,,,,,
1426008,1745085152203,,,,,,,,,,,,,,,,,,,,,,,0,0,0,0,0.0,0.0,0.0,0.0,2.26,,,0,0,0,0,0,0,0,0,0,0,0,0,0,0,0,0,0,,,,,39.239887,-77.965645,0.06,32,3,0.9
1426028,1745085152223,0.0,184.89,,-0.05,-0.0,0.97,1,-0,-0,0.97,1.06,92,3147,10.3,3.86,,13.33,1.251,98.8,,27.4,5,,,,,,,,,,,,0,0,0,0,0,0,0,0,0,0,0,0,0,0,0,0,,,,,0.0,,,,,,
1426048,1745085152243,,,,,,,,,,,,,,,,,,,,,,,,,,,,,,,,,,0,0,0,0,0,0,0,0,0,0,0,0,0,0,0,0,,,,,,,,,,,
1426068,1745085152263,0.0,184.89,,-0.04,0.05,1.01,0,-0,0,1.01,1.06,96,3241,13.0,3.79,,13.41,1.249,98.8,,28.9,5,,,,,,,,,,,,0,0,0,0,0,0,0,0,0,0,0,0,0,0,0,0,,,,,0.0,,,,,,
1426088,1745085152283,,,,,,,,,,,,,,,,,,,,,,,,,,,,,,,,,,0,0,0,0,0,0,0,0,0,0,0,0,0,0,0,0,,,,,,,,,,,
1426108,1745085152305,0.0,184.89,,-0.06,-0.02,1.0,0,-0,-0,1.0,1.06,94,3342,14.3,4.07,,13.59,1.248,98.8,,28.9,5,0,0,0,0,0.0,0.0,0.0,0.0,2.26,,,0,0,0,0,0,0,0,0,0,0,0,0,0,0,0,0,0,,,,0.0,39.239887,-77.965645,0.04,32,3,0.9
1426128,1745085152325,,,,,,,,,,,,,,,,,,,,,,,,,,,,,,,,,,0,0,0,0,0,0,0,0,0,0,0,0,0,0,0,0,,,,,,,,,,,
1426148,1745085152345,0.0,184.89,,-0.05,0.02,1.03,-0,-0,0,1.03,1.06,98,3410,13.7,4.0,,13.49,1.248,98.8,,28.9,5,,,,,,,,,,,,0,0,0,0,0,0,0,0,0,0,0,0,0,0,0,0,,,,,0.0,,,,,,
1426168,1745085152365,,,,,,,,,,,,,,,,,,,,,,,,,,,,,,,,,,0,0,0,0,0,0,0,0,0,0,0,0,0,0,0,0,,,,,,,,,,,
1426188,1745085152385,0.0,184.89,,-0.03,-0.02,0.98,1,-0,-0,0.98,1.06,93,3439,0.0,2.72,,13.49,1.248,98.8,,30.9,5,,,,,,,,,,,,0,0,0,0,0,0,0,0,0,0,0,0,0,0,0,0,,,,,0.0,,,,,,
1426208,1745085152405,,,,,,,,,,,,,,,,,,,,,,,0,0,0,0,0.0,0.0,0.0,0.0,2.26,,,0,0,0,0,0,0,0,0,0,0,0,0,0,0,0,0,0,,,,,39.239887,-77.965645,0.09,32,3,0.9
1426228,1745085152425,0.0,184.89,,-0.06,-0.04,1.04,-0,-0,0,1.04,1.06,99,3439,0.0,2.72,,12.83,1.248,98.8,,30.9,5,,,,,,,,,,,,0,0,0,0,0,0,0,0,0,0,0,0,0,0,0,0,,,,,0.0,,,,,,
1426248,1745085152445,,,,,,,,,,,,,,,,,,,,,,,,,,,,,,,,,,0,0,0,0,0,0,0,0,0,0,0,0,0,0,0,0,,,,,,,,,,,
1426268,1745085152465,0.0,184.89,,-0.05,0.02,0.97,-1,-0,-0,0.97,1.06,92,3441,0.0,2.69,,12.37,1.248,98.8,,30.1,5,,,,,,,,,,,,0,0,0,0,0,0,0,0,0,0,0,0,0,0,0,0,,,,,0.0,,,,,,
1426288,1745085152485,,,,,,,,,,,,,,,,,,,,,,,,,,,,,,,,,,0,0,0,0,0,0,0,0,0,0,0,0,0,0,0,0,,,,,,,,,,,
1426308,1745085152505,0.0,184.89,,-0.06,0.1,0.97,2,-0,0,0.98,1.06,93,3254,0.0,2.71,,12.21,1.25,98.8,,30.1,5,0,0,0,0,0.0,0.0,0.0,0.0,2.26,,,0,0,0,0,0,0,0,0,0,0,0,0,0,0,0,0,0,,,,0.0,39.239887,-77.965645,0.0,32,3,0.9
1426328,1745085152525,,,,,,,,,,,,,,,,,,,,,,,,,,,,,,,,,,0,0,0,0,0,0,0,0,0,0,0,0,0,0,0,0,,,,,,,,,,,
1426348,1745085152545,0.0,184.77,,-0.04,0.04,1.03,3,-0,0,1.03,1.06,97,3119,0.0,2.78,,12.2,1.251,98.8,,30.1,5,,,,,,,,,,,,0,0,0,0,0,0,0,0,0,0,0,0,0,0,0,0,,,,,0.0,,,,,,
1426368,1745085152565,,,,,,,,,,,,,,,,,,,,,,,,,,,,,,,,,,0,0,0,0,0,0,0,0,0,0,0,0,0,0,0,0,,,,,,,,,,,
1426388,1745085152585,0.0,184.77,,-0.03,-0.04,1.08,5,-0,0,1.08,1.08,100,3018,6.0,3.89,,12.2,1.251,98.8,,27.0,5,,,,,,,,,,,,0,0,0,0,0,0,0,0,0,0,0,0,0,0,0,0,,,,,0.0,,,,,,
1426408,1745085152602,,,,,,,,,,,,,,,,,,,,,,,0,0,0,0,0.0,0.0,0.0,0.0,2.26,,,0,0,0,0,0,0,0,0,0,0,0,0,0,0,0,0,0,,,,,39.239887,-77.965645,0.04,32,3,0.9
1426428,1745085152622,0.0,184.77,,-0.02,-0.09,1.13,5,-0,0,1.13,1.13,100,3018,6.0,3.89,,12.71,1.25,98.8,,27.0,5,,,,,,,,,,,,0,0,0,0,0,0,0,0,0,0,0,0,0,0,0,0,,,,,0.0,,,,,,
1426448,1745085152642,,,,,,,,,,,,,,,,,,,,,,,,,,,,,,,,,,0,0,0,0,0,0,0,0,0,0,0,0,0,0,0,0,,,,,,,,,,,
1426468,1745085152662,0.0,184.77,,-0.0,-0.1,1.15,6,-0,0,1.15,1.15,100,2932,9.9,3.89,,13.19,1.25,98.8,,26.6,5,,,,,,,,,,,,0,0,0,0,0,0,0,0,0,0,0,0,0,0,0,0,,,,,0.0,,,,,,
1426488,1745085152682,,,,,,,,,,,,,,,,,,,,,,,,,,,,,,,,,,0,0,0,0,0,0,0,0,0,0,0,0,0,0,0,0,,,,,,,,,,,
1426508,1745085152704,0.0,184.64,,0.01,-0.12,1.18,7,-0,0,1.19,1.19,100,2969,10.8,3.91,,13.49,1.25,98.8,,26.6,5,0,0,0,0,0.0,0.0,0.0,0.0,2.26,,,0,0,0,0,0,0,0,0,0,0,0,0,0,0,0,0,0,,,,0.0,39.239887,-77.965645,0.04,32,3,0.9
1426528,1745085152724,,,,,,,,,,,,,,,,,,,,,,,,,,,,,,,,,,0,0,0,0,0,0,0,0,0,0,0,0,0,0,0,0,,,,,,,,,,,
1426548,1745085152744,0.0,184.77,,0.02,-0.18,1.24,5,-0,0,1.25,1.25,100,3125,12.5,3.96,,13.56,1.248,98.8,,26.6,5,,,,,,,,,,,,0,0,0,0,0,0,0,0,0,0,0,0,0,0,0,0,,,,,0.0,,,,,,
1426568,1745085152764,,,,,,,,,,,,,,,,,,,,,,,,,,,,,,,,,,0,0,0,0,0,0,0,0,0,0,0,0,0,0,0,0,,,,,,,,,,,
1426588,1745085152784,0.0,184.64,,0.0,-0.22,1.23,2,-0,0,1.25,1.25,100,3206,13.3,3.97,,13.56,1.248,98.8,,27.1,5,,,,,,,,,,,,0,0,0,0,0,0,0,0,0,0,0,0,0,0,0,0,,,,,0.0,,,,,,
1426608,1745085152804,,,,,,,,,,,,,,,,,,,,,,,0,0,0,0,0.0,0.0,0.0,0.0,2.26,,,0,0,0,0,0,0,0,0,0,0,0,0,0,0,0,0,0,,,,,39.239887,-77.965645,0.08,32,3,0.9
1426628,1745085152824,0.0,184.64,,-0.01,-0.17,1.14,2,-0,-0,1.15,1.25,92,3206,13.3,3.97,,13.56,1.248,98.8,,27.1,5,,,,,,,,,,,,0,0,0,0,0,0,0,0,0,0,0,0,0,0,0,0,,,,,0.0,,,,,,
1426648,1745085152844,,,,,,,,,,,,,,,,,,,,,,,,,,,,,,,,,,0,0,0,0,0,0,0,0,0,0,0,0,0,0,0,0,,,,,,,,,,,
1426668,1745085152864,0.0,184.64,,0.01,-0.04,1.05,1,-0,0,1.05,1.25,84,3048,17.5,4.23,,13.76,1.248,98.8,,28.3,5,,,,,,,,,,,,0,0,0,0,0,0,0,0,0,0,0,0,0,0,0,0,,,,,0.0,,,,,,
1426688,1745085152884,,,,,,,,,,,,,,,,,,,,,,,,,,,,,,,,,,0,0,0,0,0,0,0,0,0,0,0,0,0,0,0,0,,,,,,,,,,,
1426708,1745085152904,0.0,184.64,13.42,-0.02,-0.06,1.1,1,-0,0,1.1,1.25,88,3309,18.2,4.5,15,13.77,1.248,98.8,146,28.3,5,0,0,0,0,0.0,0.0,0.0,0.0,2.26,0,0.0,0,0,0,0,0,0,0,0,0,0,0,0,0,0,0,0,0,0.0,0,-0,0.0,39.239887,-77.965645,0.12,32,3,0.9
1426728,1745085152924,,,,,,,,,,,,,,,,,,,,,,,,,,,,,,,,,,0,0,0,0,0,0,0,0,0,0,0,0,0,0,0,0,,,,,,,,,,,
1426748,1745085152944,0.0,184.64,,-0.03,-0.02,1.02,1,-0,-0,1.02,1.25,81,3393,18.4,4.46,,13.71,1.249,98.8,,28.3,5,,,,,,,,,,,,0,0,0,0,0,0,0,0,0,0,0,0,0,0,0,0,,,,,0.0,,,,,,
1426768,1745085152964,,,,,,,,,,,,,,,,,,,,,,,,,,,,,,,,,,0,0,0,0,0,0,0,0,0,0,0,0,0,0,0,0,,,,,,,,,,,
1426788,1745085152984,0.0,184.64,,-0.03,-0.07,1.07,1,-0,0,1.08,1.25,86,3260,18.6,4.42,,13.71,1.249,98.8,,29.7,5,,,,,,,,,,,,0,0,0,0,0,0,0,0,0,0,0,0,0,0,0,0,,,,,0.0,,,,,,
1426808,1745085153004,,,,,,,,,,,,,,,,,,,,,,,0,0,0,0,0.0,0.0,0.0,0.0,2.26,,,0,0,0,0,0,0,0,0,0,0,0,0,0,0,0,0,0,,,,,39.239887,-77.965645,0.12,32,3,0.9
1426828,1745085153016,0.0,184.64,,-0.02,-0.01,1.05,1,-0,0,1.05,1.25,83,3260,18.6,4.42,,13.77,1.25,98.8,,29.7,5,,,,,,,,,,,,0,0,0,0,0,0,0,0,0,0,0,0,0,0,0,0,,,,,0.0,,,,,,
1426848,1745085153036,,,,,,,,,,,,,,,,,,,,,,,,,,,,,,,,,,0,0,0,0,0,0,0,0,0,0,0,0,0,0,0,0,,,,,,,,,,,
1426868,1745085153056,0.0,184.64,,-0.02,0.0,1.05,1,-0,0,1.05,1.25,84,3658,18.7,4.33,,13.69,1.25,98.8,,33.4,5,,,,,,,,,,,,0,0,0,0,0,0,0,0,0,0,0,0,0,0,0,0,,,,,0.0,,,,,,
1426888,1745085153076,,,,,,,,,,,,,,,,,,,,,,,,,,,,,,,,,,0,0,0,0,0,0,0,0,0,0,0,0,0,0,0,0,,,,,,,,,,,
1426908,1745085153106,0.0,184.64,,-0.03,-0.05,1.03,1,-0,0,1.03,1.25,82,3784,18.8,4.15,,13.59,1.251,98.8,,33.4,5,0,0,0,0,0.0,0.0,0.0,0.0,2.26,,,0,0,0,0,0,0,0,0,0,0,0,0,0,0,0,0,0,,,,0.0,39.239887,-77.965645,0.04,32,3,0.9
1426928,1745085153126,,,,,,,,,,,,,,,,,,,,,,,,,,,,,,,,,,0,0,0,0,0,0,0,0,0,0,0,0,0,0,0,0,,,,,,,,,,,
1426948,1745085153146,0.0,184.64,,-0.03,-0.11,0.96,2,-0,-0,0.97,1.25,77,3983,18.8,4.0,,13.51,1.251,98.8,,33.4,5,,,,,,,,,,,,0,0,0,0,0,0,0,0,0,0,0,0,0,0,0,0,,,,,0.0,,,,,,
1426968,1745085153166,,,,,,,,,,,,,,,,,,,,,,,,,,,,,,,,,,0,0,0,0,0,0,0,0,0,0,0,0,0,0,0,0,,,,,,,,,,,
1426988,1745085153186,0.0,184.64,,-0.03,0.0,1.04,1,-0,0,1.04,1.25,83,4117,18.8,3.97,,13.51,1.251,98.8,,37.2,5,,,,,,,,,,,,0,0,0,0,0,0,0,0,0,0,0,0,0,0,0,0,,,,,0.0,,,,,,
1427008,1745085153206,,,,,,,,,,,,,,,,,,,,,,,0,0,0,0,0.0,0.0,0.0,0.0,2.26,,,0,0,0,0,0,0,0,0,0,0,0,0,0,0,0,0,0,,,,,39.239887,-77.965645,0.04,32,3,0.9
1427028,1745085153226,0.0,184.64,,-0.01,-0.08,0.96,1,-0,-0,0.96,1.25,77,4117,18.8,3.97,,13.53,1.249,98.8,,37.2,5,,,,,,,,,,,,0,0,0,0,0,0,0,0,0,0,0,0,0,0,0,0,,,,,0.0,,,,,,
1427048,1745085153246,,,,,,,,,,,,,,,,,,,,,,,,,,,,,,,,,,0,0,0,0,0,0,0,0,0,0,0,0,0,0,0,0,,,,,,,,,,,
1427068,1745085153266,0.0,184.51,,-0.02,0.02,1.03,0,-0,0,1.03,1.25,82,4145,19.0,3.93,,13.49,1.247,98.8,,38.3,5,,,,,,,,,,,,0,0,0,0,0,0,0,0,0,0,0,0,0,0,0,0,,,,,0.0,,,,,,
1427088,1745085153286,,,,,,,,,,,,,,,,,,,,,,,,,,,,,,,,,,0,0,0,0,0,0,0,0,0,0,0,0,0,0,0,0,,,,,,,,,,,
1427108,1745085153304,0.0,184.51,,-0.02,0.09,1.06,1,-0,0,1.06,1.25,85,4190,18.1,3.95,,13.33,1.247,98.8,,38.3,5,0,0,0,0,0.0,0.0,0.0,0.0,2.26,,,0,0,0,0,0,0,0,0,0,0,0,0,0,0,0,0,0,,,,0.0,39.239887,-77.965645,0.08,32,3,0.9
1427128,1745085153324,,,,,,,,,,,,,,,,,,,,,,,,,,,,,,,,,,0,0,0,0,0,0,0,0,0,0,0,0,0,0,0,0,,,,,,,,,,,
1427148,1745085153344,0.0,184.51,,0.0,-0.08,0.93,0,-0,-0,0.93,1.25,74,4288,12.9,3.39,,13.11,1.247,98.8,,38.3,5,,,,,,,,,,,,0,0,0,0,0,0,0,0,0,0,0,0,0,0,0,0,,,,,0.0,,,,,,
1427168,1745085153364,,,,,,,,,,,,,,,,,,,,,,,,,,,,,,,,,,0,0,0,0,0,0,0,0,0,0,0,0,0,0,0,0,,,,,,,,,,,
1427188,1745085153384,0.0,184.39,,-0.03,-0.01,0.98,1,-0,0,0.98,1.25,78,4269,12.5,3.38,,13.11,1.247,98.8,,39.4,5,,,,,,,,,,,,0,0,0,0,0,0,0,0,0,0,0,0,0,0,0,0,,,,,0.0,,,,,,
1427208,1745085153406,,,,,,,,,,,,,,,,,,,,,,,0,0,0,0,0.0,0.0,0.0,0.0,2.26,,,0,0,0,0,0,0,0,0,0,0,0,0,0,0,0,0,0,,,,,39.239887,-77.965645,0.17,32,3,0.9
1427228,1745085153426,0.0,184.39,,-0.03,0.06,1.01,1,-0,-0,1.02,1.25,81,4269,12.5,3.38,,12.97,1.248,98.8,,39.4,5,,,,,,,,,,,,0,0,0,0,0,0,0,0,0,0,0,0,0,0,0,0,,,,,0.0,,,,,,
1427248,1745085153446,,,,,,,,,,,,,,,,,,,,,,,,,,,,,,,,,,0,0,0,0,0,0,0,0,0,0,0,0,0,0,0,0,,,,,,,,,,,
1427268,1745085153466,0.0,184.39,,-0.02,-0.08,0.95,1,-0,-0,0.96,1.25,76,4189,12.3,3.38,,12.96,1.25,98.8,,38.3,5,,,,,,,,,,,,0,0,0,0,0,0,0,0,0,0,0,0,0,0,0,0,,,,,0.0,,,,,,
1427288,1745085153486,,,,,,,,,,,,,,,,,,,,,,,,,,,,,,,,,,0,0,0,0,0,0,0,0,0,0,0,0,0,0,0,0,,,,,,,,,,,
1427308,1745085153503,0.0,184.39,,-0.05,0.06,1.04,1,-0,0,1.04,1.25,83,4170,12.4,3.36,,12.95,1.25,98.8,,38.3,5,0,0,0,0,0.0,0.0,0.0,0.0,2.26,,,0,0,0,0,0,0,0,0,0,0,0,0,0,0,0,0,0,,,,0.0,39.239887,-77.965645,0.24,32,3,0.9
1427328,1745085153523,,,,,,,,,,,,,,,,,,,,,,,,,,,,,,,,,,0,0,0,0,0,0,0,0,0,0,0,0,0,0,0,0,,,,,,,,,,,
1427348,1745085153543,0.0,184.26,,-0.04,-0.06,0.93,-0,-0,0,0.94,1.25,75,4158,12.6,3.4,,12.95,1.25,98.8,,38.3,5,,,,,,,,,,,,0,0,0,0,0,0,0,0,0,0,0,0,0,0,0,0,,,,,0.0,,,,,,
1427368,1745085153563,,,,,,,,,,,,,,,,,,,,,,,,,,,,,,,,,,0,0,0,0,0,0,0,0,0,0,0,0,0,0,0,0,,,,,,,,,,,
1427388,1745085153583,0.0,184.26,,-0.05,0.03,1.0,0,-0,0,1.01,1.25,80,4129,12.8,3.44,,12.95,1.25,98.8,,37.9,5,,,,,,,,,,,,0,0,0,0,0,0,0,0,0,0,0,0,0,0,0,0,,,,,0.0,,,,,,
1427408,1745085153603,,,,,,,,,,,,,,,,,,,,,,,0,0,0,0,0.0,0.0,0.0,0.0,2.26,,,0,0,0,0,0,0,0,0,0,0,0,0,0,0,0,0,0,,,,,39.239887,-77.965645,0.04,32,3,0.9
1427428,1745085153623,0.0,184.26,,-0.05,-0.06,0.94,0,-0,0,0.94,1.25,75,4129,12.8,3.44,,13.08,1.25,98.8,,37.9,5,,,,,,,,,,,,0,0,0,0,0,0,0,0,0,0,0,0,0,0,0,0,,,,,0.0,,,,,,
1427448,1745085153643,,,,,,,,,,,,,,,,,,,,,,,,,,,,,,,,,,0,0,0,0,0,0,0,0,0,0,0,0,0,0,0,0,,,,,,,,,,,
1427468,1745085153663,0.0,184.26,,-0.03,0.0,0.95,-1,-0,-0,0.95,1.25,76,4022,13.1,3.45,,13.13,1.249,98.8,,36.7,5,,,,,,,,,,,,0,0,0,0,0,0,0,0,0,0,0,0,0,0,0,0,,,,,0.0,,,,,,
1427488,1745085153683,,,,,,,,,,,,,,,,,,,,,,,,,,,,,,,,,,0,0,0,0,0,0,0,0,0,0,0,0,0,0,0,0,,,,,,,,,,,
1427508,1745085153703,0.0,184.14,,-0.04,0.05,1.0,1,-0,0,1.0,1.25,80,4025,13.2,3.48,,13.13,1.248,98.8,,36.7,5,0,0,0,0,0.0,0.0,0.0,0.0,2.26,,,0,0,0,0,0,0,0,0,0,0,0,0,0,0,0,0,0,,,,0.0,39.239887,-77.965645,0.0,32,3,0.9
1427528,1745085153723,,,,,,,,,,,,,,,,,,,,,,,,,,,,,,,,,,0,0,0,0,0,0,0,0,0,0,0,0,0,0,0,0,,,,,,,,,,,
1427548,1745085153743,0.0,184.14,,-0.03,-0.03,0.95,0,-0,-0,0.95,1.25,76,3983,13.1,3.53,,13.17,1.248,98.8,,36.7,5,,,,,,,,,,,,0,0,0,0,0,0,0,0,0,0,0,0,0,0,0,0,,,,,0.0,,,,,,
1427568,1745085153763,,,,,,,,,,,,,,,,,,,,,,,,,,,,,,,,,,0,0,0,0,0,0,0,0,0,0,0,0,0,0,0,0,,,,,,,,,,,
1427588,1745085153783,0.0,184.14,,-0.02,-0.01,0.92,-1,-0,-0,0.92,1.25,74,3915,15.9,3.62,,13.17,1.248,98.8,,36.2,5,,,,,,,,,,,,0,0,0,0,0,0,0,0,0,0,0,0,0,0,0,0,,,,,0.0,,,,,,
1427608,1745085153803,,,,,,,,,,,,,,,,,,,,,,,0,0,0,0,0.0,0.0,0.0,0.0,2.27,,,0,0,0,0,0,0,0,0,0,0,0,0,0,0,0,0,0,,,,,39.239887,-77.965645,0.27,32,3,0.9
1427628,1745085153823,0.0,184.14,,-0.02,0.07,0.98,0,-0,-0,0.98,1.25,78,3915,15.9,3.62,,13.32,1.247,98.8,,36.2,5,,,,,,,,,,,,0,0,0,0,0,0,0,0,0,0,0,0,0,0,0,0,,,,,0.0,,,,,,
1427648,1745085153843,,,,,,,,,,,,,,,,,,,,,,,,,,,,,,,,,,0,0,0,0,0,0,0,0,0,0,0,0,0,0,0,0,,,,,,,,,,,
1427668,1745085153863,0.0,184.01,,-0.03,-0.04,0.96,0,-0,0,0.96,1.25,76,3947,17.9,3.89,,13.48,1.248,98.8,,36.5,5,,,,,,,,,,,,0,0,0,0,0,0,0,0,0,0,0,0,0,0,0,0,,,,,0.0,,,,,,
1427688,1745085153883,,,,,,,,,,,,,,,,,,,,,,,,,,,,,,,,,,0,0,0,0,0,0,0,0,0,0,0,0,0,0,0,0,,,,,,,,,,,
1427708,1745085153905,0.0,184.01,13.48,-0.02,-0.1,0.91,-1,-0,-1,0.91,1.25,73,4015,18.3,3.95,15,13.53,1.249,98.8,146,36.5,5,0,0,0,0,0.0,0.0,0.0,0.0,2.26,0,0.0,0,0,0,0,0,0,0,0,0,0,0,0,0,0,0,0,0,0.0,0,-0,0.0,39.239887,-77.965645,0.29,32,3,0.9
1427728,1745085153925,,,,,,,,,,,,,,,,,,,,,,,,,,,,,,,,,,0,0,0,0,0,0,0,0,0,0,0,0,0,0,0,0,,,,,,,,,,,
1427748,1745085153945,0.0,184.01,,-0.04,0.03,0.99,0,-0,-0,0.99,1.25,79,4054,18.9,3.94,,13.53,1.251,98.8,,36.5,5,,,,,,,,,,,,0,0,0,0,0,0,0,0,0,0,0,0,0,0,0,0,,,,,0.0,,,,,,
1427768,1745085153965,,,,,,,,,,,,,,,,,,,,,,,,,,,,,,,,,,0,0,0,0,0,0,0,0,0,0,0,0,0,0,0,0,,,,,,,,,,,
1427788,1745085153985,0.0,184.01,,-0.02,-0.04,0.92,-0,-0,-0,0.92,1.25,73,4118,20.2,4.09,,13.53,1.251,98.8,,37.3,5,,,,,,,,,,,,0,0,0,0,0,0,0,0,0,0,0,0,0,0,0,0,,,,,0.0,,,,,,
1427808,1745085154005,,,,,,,,,,,,,,,,,,,,,,,0,0,0,0,0.0,0.0,0.0,0.0,2.26,,,0,0,0,0,0,0,0,0,0,0,0,0,0,0,0,0,0,,,,,39.239887,-77.965645,0.29,32,3,0.9
1427828,1745085154015,0.0,183.89,,-0.04,0.04,0.99,1,-0,0,0.99,1.25,79,4118,20.2,4.09,,13.45,1.25,98.8,,37.3,5,,,,,,,,,,,,0,0,0,0,0,0,0,0,0,0,0,0,0,0,0,0,,,,,0.0,,,,,,
1427848,1745085154035,,,,,,,,,,,,,,,,,,,,,,,,,,,,,,,,,,0,0,0,0,0,0,0,0,0,0,0,0,0,0,0,0,,,,,,,,,,,
1427868,1745085154055,0.0,183.89,,-0.01,0.03,0.98,1,-0,0,0.98,1.25,78,4250,23.3,4.42,,13.57,1.251,98.8,,39.6,5,,,,,,,,,,,,0,0,0,0,0,0,0,0,0,0,0,0,0,0,0,0,,,,,0.0,,,,,,
1427888,1745085154075,,,,,,,,,,,,,,,,,,,,,,,,,,,,,,,,,,0,0,0,0,0,0,0,0,0,0,0,0,0,0,0,0,,,,,,,,,,,
1427908,1745085154105,0.0,184.01,,0.02,-0.07,0.89,1,-0,-0,0.89,1.25,71,4407,25.2,4.47,,13.64,1.249,98.8,,39.6,5,0,0,0,0,0.0,0.0,0.0,0.0,2.26,,,0,0,0,0,0,0,0,0,0,0,0,0,0,0,0,0,0,,,,0.0,39.239887,-77.965645,0.04,32,3,0.9
1427928,1745085154125,,,,,,,,,,,,,,,,,,,,,,,,,,,,,,,,,,0,0,0,0,0,0,0,0,0,0,0,0,0,0,0,0,,,,,,,,,,,
1427948,1745085154145,0.0,183.89,,0.03,-0.08,0.93,1,-0,-0,0.93,1.25,74,4723,26.2,4.5,,13.69,1.248,98.8,,39.6,5,,,,,,,,,,,,0,0,0,0,0,0,0,0,0,0,0,0,0,0,0,0,,,,,0.0,,,,,,
1427968,1745085154165,,,,,,,,,,,,,,,,,,,,,,,,,,,,,,,,,,0,0,0,0,0,0,0,0,0,0,0,0,0,0,0,0,,,,,,,,,,,
1427988,1745085154185,0.0,183.89,,0.03,-0.08,0.93,1,-0,-0,0.93,1.25,75,5130,27.5,4.59,,13.69,1.248,98.8,,45.4,5,,,,,,,,,,,,0,0,0,0,0,0,0,0,0,0,0,0,0,0,0,0,,,,,0.0,,,,,,
1428008,1745085154205,,,,,,,,,,,,,,,,,,,,,,,0,0,0,0,0.0,0.0,0.0,0.0,2.26,,,0,0,0,0,0,0,0,0,0,0,0,0,0,0,0,0,0,,,,,39.239887,-77.965645,0.07,32,3,0.9
1428028,1745085154225,0.0,183.89,,-0.0,-0.11,0.87,1,-0,-0,0.87,1.25,70,5130,27.5,4.59,,13.75,1.194,98.8,,45.4,5,,,,,,,,,,,,0,0,0,0,0,0,0,0,0,0,0,0,0,0,0,0,,,,,0.0,,,,,,
1428048,1745085154245,,,,,,,,,,,,,,,,,,,,,,,,,,,,,,,,,,0,0,0,0,0,0,0,0,0,0,0,0,0,0,0,0,,,,,,,,,,,
1428068,1745085154265,0.0,183.89,,-0.04,-0.05,0.86,0,-0,0,0.86,1.25,69,5811,28.3,4.64,,13.37,1.032,98.8,,53.4,5,,,,,,,,,,,,0,0,0,0,0,0,0,0,0,0,0,0,0,0,0,0,,,,,0.0,,,,,,
1428088,1745085154285,,,,,,,,,,,,,,,,,,,,,,,,,,,,,,,,,,0,0,0,0,0,0,0,0,0,0,0,0,0,0,0,0,,,,,,,,,,,
1428108,1745085154305,0.0,183.76,,-0.04,-0.1,0.86,0,-0,-0,0.86,1.25,69,6465,29.0,4.8,,12.85,1.014,98.8,,53.4,5,0,0,0,0,0.0,0.0,0.0,0.0,2.26,,,0,0,0,0,0,0,0,0,0,0,0,0,0,0,0,0,0,,,,0.0,39.239887,-77.965645,0.08,32,3,0.9
1428128,1745085154325,,,,,,,,,,,,,,,,,,,,,,,,,,,,,,,,,,0,0,0,0,0,0,0,0,0,0,0,0,0,0,0,0,,,,,,,,,,,
1428148,1745085154345,0.0,183.76,,0.01,-0.07,0.89,1,-0,-0,0.89,1.25,71,6976,29.3,5.39,,12.63,1.046,98.8,,53.4,5,,,,,,,,,,,,0,0,0,0,0,0,0,0,0,0,0,0,0,0,0,0,,,,,0.0,,,,,,
1428168,1745085154365,,,,,,,,,,,,,,,,,,,,,,,,,,,,,,,,,,0,0,0,0,0,0,0,0,0,0,0,0,0,0,0,0,,,,,,,,,,,
1428188,1745085154385,0.0,183.76,,-0.0,-0.18,0.9,1,-0,-0,0.92,1.25,74,8219,30.2,5.16,,12.63,1.046,98.8,,68.4,5,,,,,,,,,,,,0,0,0,0,0,0,0,0,0,0,0,0,0,0,0,0,,,,,0.0,,,,,,
1428208,1745085154405,,,,,,,,,,,,,,,,,,,,,,,0,0,0,0,0.0,0.0,0.0,0.0,2.26,,,0,0,0,0,0,0,0,0,0,0,0,0,0,0,0,0,0,,,,,39.239887,-77.965645,0.22,32,3,0.9
1428228,1745085154425,0.0,183.76,,-0.01,-0.37,0.87,1,-0,-1,0.94,1.25,75,8219,30.2,5.16,,12.41,1.034,98.8,,68.4,5,,,,,,,,,,,,0,0,0,0,0,0,0,0,0,0,0,0,0,0,0,0,,,,,0.0,,,,,,
1428248,1745085154445,,,,,,,,,,,,,,,,,,,,,,,,,,,,,,,,,,0,0,0,0,0,0,0,0,0,0,0,0,0,0,0,0,,,,,,,,,,,
1428268,1745085154465,0.0,183.63,,-0.03,-0.27,0.9,0,-0,-0,0.93,1.25,75,9451,26.7,4.47,,11.41,0.88,98.8,,67.5,5,,,,,,,,,,,,0,0,0,0,0,0,0,0,0,0,0,0,0,0,0,0,,,,,0.0,,,,,,
1428288,1745085154485,,,,,,,,,,,,,,,,,,,,,,,,,,,,,,,,,,0,0,0,0,0,0,0,0,0,0,0,0,0,0,0,0,,,,,,,,,,,
1428308,1745085154504,0.0,183.63,,-0.03,-0.2,0.86,0,-0,0,0.89,1.25,71,10563,22.7,3.65,,10.26,0.853,97.0,,67.5,5,0,0,0,0,0.0,0.0,0.0,0.0,2.26,,,0,0,0,0,0,0,0,0,0,0,0,0,0,0,0,0,0,,,,0.0,39.239887,-77.965645,0.37,32,3,0.9
1428328,1745085154524,,,,,,,,,,,,,,,,,,,,,,,,,,,,,,,,,,0,0,0,0,0,0,0,0,0,0,0,0,0,0,0,0,,,,,,,,,,,
1428348,1745085154544,0.0,183.51,,-0.05,-0.31,0.85,-1,-0,0,0.91,1.25,73,11177,22.2,3.37,,9.73,0.846,97.0,,67.5,5,,,,,,,,,,,,0,0,0,0,0,0,0,0,0,0,0,0,0,0,0,0,,,,,0.0,,,,,,
1428368,1745085154564,,,,,,,,,,,,,,,,,,,,,,,,,,,,,,,,,,0,0,0,0,0,0,0,0,0,0,0,0,0,0,0,0,,,,,,,,,,,
1428388,1745085154584,0.0,183.51,,-0.04,-0.19,1.05,1,-0,0,1.06,1.25,85,11597,22.1,3.19,,9.73,0.846,97.0,,69.0,5,,,,,,,,,,,,0,0,0,0,0,0,0,0,0,0,0,0,0,0,0,0,,,,,0.0,,,,,,
1428408,1745085154604,,,,,,,,,,,,,,,,,,,,,,,0,0,0,0,0.0,0.0,0.0,0.0,2.26,,,0,0,0,0,0,0,0,0,0,0,0,0,0,0,0,0,0,,,,,39.239887,-77.965645,0.75,32,3,0.9
1428428,1745085154624,0.0,183.38,,0.02,0.03,1.07,1,0,1,1.07,1.25,86,11597,22.1,3.19,,9.44,0.824,97.0,,69.0,5,,,,,,,,,,,,0,0,0,0,0,0,0,0,0,0,0,0,0,0,0,0,,,,,0.0,,,,,,
1428448,1745085154644,,,,,,,,,,,,,,,,,,,,,,,,,,,,,,,,,,0,0,0,0,0,0,0,0,0,0,0,0,0,0,0,0,,,,,,,,,,,
1428468,1745085154664,0.0,183.38,,0.07,0.04,0.97,1,0,1,0.97,1.25,78,11917,23.5,3.19,,9.18,0.844,97.0,,68.7,5,,,,,,,,,,,,0,0,0,0,0,0,0,0,0,0,0,0,0,0,0,0,,,,,0.0,,,,,,
1428488,1745085154684,,,,,,,,,,,,,,,,,,,,,,,,,,,,,,,,,,0,0,0,0,0,0,0,0,0,0,0,0,0,0,0,0,,,,,,,,,,,
1428508,1745085154704,0.0,183.38,,0.11,0.09,0.87,1,-0,0,0.88,1.25,71,11993,24.4,3.14,,9.09,0.884,97.0,,68.7,5,0,0,0,0,0.0,0.0,0.0,0.0,2.26,,,0,0,0,0,0,0,0,0,0,0,0,0,0,0,0,0,0,,,,0.0,39.239883,-77.965645,1.37,32,3,0.9
1428528,1745085154724,,,,,,,,,,,,,,,,,,,,,,,,,,,,,,,,,,0,0,0,0,0,0,0,0,0,0,0,0,0,0,0,0,,,,,,,,,,,
1428548,1745085154744,0.0,183.38,,0.19,0.22,0.91,3,0,1,0.96,1.25,77,12132,24.5,3.02,,9.01,0.939,97.0,,68.7,5,,,,,,,,,,,,0,0,0,0,0,0,0,0,0,0,0,0,0,0,0,0,,,,,0.0,,,,,,
1428568,1745085154764,,,,,,,,,,,,,,,,,,,,,,,,,,,,,,,,,,0,0,0,0,0,0,0,0,0,0,0,0,0,0,0,0,,,,,,,,,,,
1428588,1745085154784,0.0,183.38,,0.15,0.25,1.05,5,0,2,1.1,1.25,87,12274,24.6,2.88,,9.01,0.939,97.0,,70.0,5,,,,,,,,,,,,0,0,0,0,0,0,0,0,0,0,0,0,0,0,0,0,,,,,0.0,,,,,,
1428608,1745085154804,,,,,,,,,,,,,,,,,,,,,,,1,0,1,1,0.0,0.0,0.0,0.0,2.26,,,0,0,0,0,0,0,0,0,0,0,0,0,0,0,0,0,0,,,,,39.239883,-77.965645,1.81,32,3,0.9
1428628,1745085154824,0.0,183.26,,0.14,0.38,1.03,3,0,2,1.11,1.25,89,12274,24.6,2.88,,8.94,0.963,97.0,,70.0,5,,,,,,,,,,,,0,0,0,0,0,0,0,0,0,0,0,0,0,0,0,0,,,,,0.0,,,,,,
1428648,1745085154844,,,,,,,,,,,,,,,,,,,,,,,,,,,,,,,,,,0,0,0,0,0,0,0,0,0,0,0,0,0,0,0,0,,,,,,,,,,,
1428668,1745085154864,0.0,183.26,,0.13,0.14,0.95,2,0,2,0.97,1.25,78,12362,24.6,2.79,,8.87,0.97,97.0,,70.0,5,,,,,,,,,,,,0,0,0,0,0,0,0,0,0,0,0,0,0,0,0,0,,,,,0.0,,,,,,
1428688,1745085154884,,,,,,,,,,,,,,,,,,,,,,,,,,,,,,,,,,0,0,0,0,0,0,0,0,0,0,0,0,0,0,0,0,,,,,,,,,,,
1428708,1745085154904,0.0,183.13,13.32,0.12,-0.05,0.97,1,0,1,0.98,1.25,78,12271,24.7,2.83,15,8.91,1.005,97.0,146,70.0,5,1,0,1,1,0.0,0.0,0.0,0.0,2.26,0,0.0,0,0,0,0,0,0,0,0,0,0,0,0,0,0,0,0,0,0.0,0,0,0.0,39.239883,-77.965645,2.19,32,3,0.9
1428728,1745085154924,,,,,,,,,,,,,,,,,,,,,,,,,,,,,,,,,,0,0,0,0,0,0,0,0,0,0,0,0,0,0,0,0,,,,,,,,,,,
1428748,1745085154944,0.0,183.26,,0.06,0.06,0.91,-1,0,0,0.91,1.25,73,12093,24.7,2.95,,8.83,1.03,97.0,,70.0,5,,,,,,,,,,,,0,0,0,0,0,0,0,0,0,0,0,0,0,0,0,0,,,,,0.0,,,,,,
1428768,1745085154964,,,,,,,,,,,,,,,,,,,,,,,,,,,,,,,,,,0,0,0,0,0,0,0,0,0,0,0,0,0,0,0,0,,,,,,,,,,,
1428788,1745085154984,0.0,183.38,,0.06,0.17,0.92,-1,0,-0,0.93,1.25,75,11930,24.4,3.04,,8.83,1.03,97.0,,70.7,5,,,,,,,,,,,,0,0,0,0,0,0,0,0,0,0,0,0,0,0,0,0,,,,,0.0,,,,,,
1428808,1745085155004,,,,,,,,,,,,,,,,,,,,,,,2,0,2,2,0.0,0.0,0.0,0.0,2.26,,,0,0,0,0,0,0,0,0,0,0,0,0,0,0,0,0,0,,,,,39.239883,-77.965645,2.19,32,3,0.9
1428828,1745085155016,0.0,183.38,,0.0,0.27,0.79,-2,-0,-0,0.84,1.25,67,11930,24.4,3.04,,8.83,1.078,97.0,,70.7,5,,,,,,,,,,,,0,0,0,0,0,0,0,0,0,0,0,0,0,0,0,0,,,,,0.0,,,,,,
1428848,1745085155036,,,,,,,,,,,,,,,,,,,,,,,,,,,,,,,,,,0,0,0,0,0,0,0,0,0,0,0,0,0,0,0,0,,,,,,,,,,,
1428868,1745085155056,0.0,183.38,,0.01,0.32,0.68,-4,-0,-1,0.76,1.25,60,12016,23.2,3.05,,8.78,1.074,97.0,,70.9,5,,,,,,,,,,,,0,0,0,0,0,0,0,0,0,0,0,0,0,0,0,0,,,,,0.0,,,,,,
1428888,1745085155076,,,,,,,,,,,,,,,,,,,,,,,,,,,,,,,,,,0,0,0,0,0,0,0,0,0,0,0,0,0,0,0,0,,,,,,,,,,,
1428908,1745085155096,0.0,183.51,,0.07,0.32,0.69,-6,0,0,0.76,1.25,61,12041,22.7,2.88,,8.61,1.025,97.0,,70.9,5,2,0,2,2,0.0,0.0,0.0,0.0,2.26,,,0,0,0,0,0,0,0,0,0,0,0,0,0,0,0,0,0,,,,0.0,39.239883,-77.965645,2.82,32,3,0.9
1428928,1745085155120,,,,,,,,,,,,,,,,,,,,,,,,,,,,,,,,,,0,0,0,0,0,0,0,0,0,0,0,0,0,0,0,0,,,,,,,,,,,
1428948,1745085155140,0.0,183.63,,0.11,0.37,0.7,-8,0,-0,0.8,1.25,64,12003,22.5,2.88,,8.61,1.018,97.0,,70.9,5,,,,,,,,,,,,0,0,0,0,0,0,0,0,0,0,0,0,0,0,0,0,,,,,0.0,,,,,,
1428968,1745085155160,,,,,,,,,,,,,,,,,,,,,,,,,,,,,,,,,,0,0,0,0,0,0,0,0,0,0,0,0,0,0,0,0,,,,,,,,,,,
1428988,1745085155180,0.0,183.63,,0.14,0.33,0.75,-8,0,-0,0.83,1.25,66,11961,22.4,2.87,,8.61,1.018,97.0,,71.2,5,,,,,,,,,,,,0,0,0,0,0,0,0,0,0,0,0,0,0,0,0,0,,,,,0.0,,,,,,
1429008,1745085155204,,,,,,,,,,,,,,,,,,,,,,,2,0,2,2,0.0,0.0,0.0,0.0,2.26,,,0,0,0,0,0,0,0,0,0,0,0,0,0,0,0,0,0,,,,,39.239883,-77.965652,3.88,32,3,0.9
1429028,1745085155224,0.0,183.76,,0.14,0.36,0.71,-8,0,-1,0.8,1.25,64,11961,22.4,2.87,,8.59,1.035,97.0,,71.2,5,,,,,,,,,,,,0,0,0,0,0,0,0,0,0,0,0,0,0,0,0,0,,,,,0.0,,,,,,
1429048,1745085155244,,,,,,,,,,,,,,,,,,,,,,,,,,,,,,,,,,0,0,0,0,0,0,0,0,0,0,0,0,0,0,0,0,,,,,,,,,,,
1429068,1745085155264,0.0,183.76,,0.1,0.36,0.65,-8,-0,-2,0.75,1.25,60,11879,22.5,2.87,,8.65,1.033,97.0,,69.9,5,,,,,,,,,,,,0,0,0,0,0,0,0,0,0,0,0,0,0,0,0,0,,,,,0.0,,,,,,
1429088,1745085155284,,,,,,,,,,,,,,,,,,,,,,,,,,,,,,,,,,0,0,0,0,0,0,0,0,0,0,0,0,0,0,0,0,,,,,,,,,,,
1429108,1745085155304,0.0,183.76,,0.13,0.05,0.67,-7,-0,-2,0.68,1.25,54,11845,22.7,2.92,,8.73,1.047,97.0,,69.9,5,3,0,3,3,0.0,0.0,0.0,0.0,2.26,,,0,0,0,0,0,0,0,0,0,0,0,0,0,0,0,0,0,,,,0.0,39.239883,-77.965652,4.33,32,3,0.9
1429128,1745085155324,,,,,,,,,,,,,,,,,,,,,,,,,,,,,,,,,,0,0,0,0,0,0,0,0,0,0,0,0,0,0,0,0,,,,,,,,,,,
1429148,1745085155344,0.0,183.63,,0.08,-0.25,0.73,-5,0,-3,0.78,1.25,62,11889,22.7,2.93,,8.73,1.052,97.0,,69.9,5,,,,,,,,,,,,0,0,0,0,0,0,0,0,0,0,0,0,0,0,0,0,,,,,0.0,,,,,,
1429168,1745085155364,,,,,,,,,,,,,,,,,,,,,,,,,,,,,,,,,,0,0,0,0,0,0,0,0,0,0,0,0,0,0,0,0,,,,,,,,,,,
1429188,1745085155384,0.0,183.63,,0.1,-0.27,0.7,-6,-0,-2,0.75,1.25,60,11685,22.8,2.97,,8.73,1.052,97.0,,70.9,5,,,,,,,,,,,,0,0,0,0,0,0,0,0,0,0,0,0,0,0,0,0,,,,,0.0,,,,,,
1429208,1745085155406,,,,,,,,,,,,,,,,,,,,,,,3,0,3,3,0.0,0.0,0.0,0.0,2.26,,,0,0,0,0,0,0,0,0,0,0,0,0,0,0,0,0,0,,,,,39.239883,-77.965652,4.71,32,3,0.9
1429228,1745085155426,0.0,183.76,,0.09,-0.03,0.74,-5,-0,-1,0.75,1.25,60,11685,22.8,2.97,,8.79,1.039,97.0,,70.9,5,,,,,,,,,,,,0,0,0,0,0,0,0,0,0,0,0,0,0,0,0,0,,,,,0.0,,,,,,
1429248,1745085155446,,,,,,,,,,,,,,,,,,,,,,,,,,,,,,,,,,0,0,0,0,0,0,0,0,0,0,0,0,0,0,0,0,,,,,,,,,,,
1429268,1745085155466,0.0,183.76,,0.09,0.08,0.94,-4,-0,-0,0.94,1.25,75,11661,22.3,2.97,,8.85,1.065,97.0,,70.2,5,,,,,,,,,,,,0,0,0,0,0,0,0,0,0,0,0,0,0,0,0,0,,,,,0.0,,,,,,
1429288,1745085155486,,,,,,,,,,,,,,,,,,,,,,,,,,,,,,,,,,0,0,0,0,0,0,0,0,0,0,0,0,0,0,0,0,,,,,,,,,,,
1429308,1745085155505,0.0,183.76,,0.15,0.04,0.9,-2,-0,-1,0.91,1.25,73,11585,22.1,2.9,,8.89,1.036,97.0,,70.2,5,3,0,3,4,0.0,0.0,0.0,0.0,2.25,,,0,0,0,0,0,0,0,0,0,0,0,0,0,0,0,0,0,,,,0.0,39.239883,-77.965652,5.54,32,3,0.9
1429328,1745085155525,,,,,,,,,,,,,,,,,,,,,,,,,,,,,,,,,,0,0,0,0,0,0,0,0,0,0,0,0,0,0,0,0,,,,,,,,,,,
1429348,1745085155545,0.0,183.63,,0.18,-0.02,0.84,-1,-0,-1,0.86,1.25,69,11329,21.9,2.9,,8.79,1.028,97.0,,70.2,5,,,,,,,,,,,,0,0,0,0,0,0,0,0,0,0,0,0,0,0,0,0,,,,,0.0,,,,,,
1429368,1745085155565,,,,,,,,,,,,,,,,,,,,,,,,,,,,,,,,,,0,0,0,0,0,0,0,0,0,0,0,0,0,0,0,0,,,,,,,,,,,
1429388,1745085155585,0.0,183.63,,0.19,-0.09,0.81,-1,-0,-1,0.84,1.25,67,11182,22.3,2.98,,8.79,1.028,97.0,,68.6,5,,,,,,,,,,,,0,0,0,0,0,0,0,0,0,0,0,0,0,0,0,0,,,,,0.0,,,,,,
1429408,1745085155605,,,,,,,,,,,,,,,,,,,,,,,4,0,4,4,0.0,0.0,0.0,0.0,2.26,,,0,0,0,0,0,0,0,0,0,0,0,0,0,0,0,0,0,,,,,39.239883,-77.965652,6.23,32,3,0.9
1429428,1745085155625,0.0,183.63,,0.19,0.04,0.86,-1,-0,-1,0.88,1.25,71,11182,22.3,2.98,,8.91,1.043,97.0,,68.6,5,,,,,,,,,,,,0,0,0,0,0,0,0,0,0,0,0,0,0,0,0,0,,,,,0.0,,,,,,
1429448,1745085155645,,,,,,,,,,,,,,,,,,,,,,,,,,,,,,,,,,0,0,0,0,0,0,0,0,0,0,0,0,0,0,0,0,,,,,,,,,,,
1429468,1745085155665,0.0,183.51,,0.2,-0.08,0.89,-1,-0,-1,0.91,1.25,73,10975,21.6,2.99,,8.75,1.031,97.0,,68.6,5,,,,,,,,,,,,0,0,0,0,0,0,0,0,0,0,0,0,0,0,0,0,,,,,0.0,,,,,,
1429488,1745085155685,,,,,,,,,,,,,,,,,,,,,,,,,,,,,,,,,,0,0,0,0,0,0,0,0,0,0,0,0,0,0,0,0,,,,,,,,,,,
1429508,1745085155705,0.0,183.38,,0.18,-0.08,0.85,-1,-0,-0,0.87,1.25,70,10845,21.6,3.06,,8.86,1.051,97.0,,68.6,5,5,0,5,5,0.0,0.0,0.0,0.0,2.26,,,0,0,0,0,0,0,0,0,0,0,0,0,0,0,0,0,0,,,,0.0,39.23988,-77.965652,7.21,32,3,0.9
1429528,1745085155725,,,,,,,,,,,,,,,,,,,,,,,,,,,,,,,,,,0,0,0,0,0,0,0,0,0,0,0,0,0,0,0,0,,,,,,,,,,,
1429548,1745085155745,0.0,183.13,,0.19,0.01,0.92,-0,-0,0,0.94,1.25,75,10752,21.6,3.11,,9.09,1.045,97.0,,68.6,5,,,,,,,,,,,,0,0,0,0,0,0,0,0,0,0,0,0,0,0,0,0,,,,,0.0,,,,,,
1429568,1745085155765,,,,,,,,,,,,,,,,,,,,,,,,,,,,,,,,,,0,0,0,0,0,0,0,0,0,0,0,0,0,0,0,0,,,,,,,,,,,
1429588,1745085155785,0.0,183.01,,0.2,-0.11,0.94,0,-0,-0,0.97,1.25,78,10605,21.8,3.12,,9.09,1.045,97.0,,68.0,5,,,,,,,,,,,,0,0,0,0,0,0,0,0,0,0,0,0,0,0,0,0,,,,,0.0,,,,,,
1429608,1745085155805,,,,,,,,,,,,,,,,,,,,,,,5,0,5,5,0.0,0.0,0.0,0.0,2.26,,,0,0,0,0,0,0,0,0,0,0,0,0,0,0,0,0,0,,,,,39.23988,-77.96566,8.02,32,3,0.9
1429628,1745085155825,0.0,182.88,,0.19,-0.36,1.04,1,-0,-0,1.11,1.25,89,10605,21.8,3.12,,9.18,1.041,97.0,,68.0,5,,,,,,,,,,,,0,0,0,0,0,0,0,0,0,0,0,0,0,0,0,0,,,,,0.0,,,,,,
1429648,1745085155845,,,,,,,,,,,,,,,,,,,,,,,,,,,,,,,,,,0,0,0,0,0,0,0,0,0,0,0,0,0,0,0,0,,,,,,,,,,,
1429668,1745085155865,0.0,182.76,,0.18,-0.61,1.05,2,-0,-0,1.23,1.25,99,10543,21.9,3.17,,9.09,1.046,97.0,,66.9,5,,,,,,,,,,,,0,0,0,0,0,0,0,0,0,0,0,0,0,0,0,0,,,,,0.0,,,,,,
1429688,1745085155885,,,,,,,,,,,,,,,,,,,,,,,,,,,,,,,,,,0,0,0,0,0,0,0,0,0,0,0,0,0,0,0,0,,,,,,,,,,,
1429708,1745085155905,0.0,182.5,13.32,0.19,-0.79,1.13,3,-0,-0,1.39,1.39,100,10462,21.9,3.21,15,9.14,1.053,97.0,147,66.9,5,6,0,6,6,0.0,0.0,0.0,0.0,2.26,0,0.0,0,0,0,0,0,0,0,0,0,0,0,0,0,0,0,0,0,0.0,0,0,0.0,39.239876,-77.96566,9.04,32,3,0.9
1429728,1745085155925,,,,,,,,,,,,,,,,,,,,,,,,,,,,,,,,,,0,0,0,0,0,0,0,0,0,0,0,0,0,0,0,0,,,,,,,,,,,
1429748,1745085155945,0.0,182.38,,0.18,-1.06,1.11,4,-0,-1,1.55,1.55,100,10452,22.9,3.15,,9.18,1.042,97.0,,66.9,5,,,,,,,,,,,,0,0,0,0,0,0,0,0,0,0,0,0,0,0,0,0,,,,,0.0,,,,,,
1429768,1745085155965,,,,,,,,,,,,,,,,,,,,,,,,,,,,,,,,,,0,0,0,0,0,0,0,0,0,0,0,0,0,0,0,0,,,,,,,,,,,
1429788,1745085155985,0.0,182.25,,0.2,-1.25,1.21,5,-0,-1,1.75,1.75,100,10375,23.9,3.12,,9.18,1.042,97.0,,67.3,5,,,,,,,,,,,,0,0,0,0,0,0,0,0,0,0,0,0,0,0,0,0,,,,,0.0,,,,,,
1429808,1745085156005,,,,,,,,,,,,,,,,,,,,,,,6,0,6,7,0.0,0.0,0.0,0.0,2.26,,,0,0,0,0,0,0,0,0,0,0,0,0,0,0,0,0,0,,,,,39.239876,-77.96566,9.04,32,3,0.9
1429828,1745085156015,0.0,182.0,,0.21,-1.12,1.1,4,-0,-1,1.58,1.75,91,10375,23.9,3.12,,9.13,1.031,97.0,,67.3,5,,,,,,,,,,,,0,0,0,0,0,0,0,0,0,0,0,0,0,0,0,0,,,,,0.0,,,,,,
1429848,1745085156035,,,,,,,,,,,,,,,,,,,,,,,,,,,,,,,,,,0,0,0,0,0,0,0,0,0,0,0,0,0,0,0,0,,,,,,,,,,,
1429868,1745085156055,0.0,181.88,,0.25,-0.7,1.09,3,-0,-1,1.32,1.75,75,10351,22.4,3.2,,9.14,1.045,97.0,,66.2,5,,,,,,,,,,,,0,0,0,0,0,0,0,0,0,0,0,0,0,0,0,0,,,,,0.0,,,,,,
1429888,1745085156075,,,,,,,,,,,,,,,,,,,,,,,,,,,,,,,,,,0,0,0,0,0,0,0,0,0,0,0,0,0,0,0,0,,,,,,,,,,,
1429908,1745085156105,0.0,181.75,,0.21,-0.6,1.06,2,-0,0,1.24,1.75,71,10378,22.1,3.23,,9.17,1.032,97.0,,66.2,5,7,0,7,7,0.0,0.0,0.0,0.0,2.26,,,0,0,0,0,0,0,0,0,0,0,0,0,0,0,0,0,0,,,,0.0,39.239872,-77.965668,10.84,32,3,0.9
1429928,1745085156125,,,,,,,,,,,,,,,,,,,,,,,,,,,,,,,,,,0,0,0,0,0,0,0,0,0,0,0,0,0,0,0,0,,,,,,,,,,,
1429948,1745085156145,0.0,181.75,,0.19,-0.5,1.02,2,-0,1,1.15,1.75,66,10399,25.6,3.21,,9.14,1.032,97.0,,66.2,5,,,,,,,,,,,,0,0,0,0,0,0,0,0,0,0,0,0,0,0,0,0,,,,,0.0,,,,,,
1429968,1745085156165,,,,,,,,,,,,,,,,,,,,,,,,,,,,,,,,,,0,0,0,0,0,0,0,0,0,0,0,0,0,0,0,0,,,,,,,,,,,
1429988,1745085156185,0.0,181.5,,0.15,-0.44,1.08,2,-0,1,1.17,1.75,67,10371,23.5,3.14,,9.14,1.032,97.0,,67.6,5,,,,,,,,,,,,0,0,0,0,0,0,0,0,0,0,0,0,0,0,0,0,,,,,0.0,,,,,,
1430008,1745085156203,,,,,,,,,,,,,,,,,,,,,,,8,0,8,8,0.0,248.0,0.0,0.0,2.26,,,0,0,0,0,0,0,0,0,0,0,0,0,0,0,0,0,0,,,,,39.239868,-77.965668,11.7,32,3,0.9
1430028,1745085156223,0.0,181.37,,0.17,-0.69,1.1,3,-0,0,1.31,1.75,75,10371,23.5,3.14,,9.09,1.029,97.0,,67.6,5,,,,,,,,,,,,0,0,0,0,0,0,0,0,0,0,0,0,0,0,0,0,,,,,0.0,,,,,,
1430048,1745085156243,,,,,,,,,,,,,,,,,,,,,,,,,,,,,,,,,,0,0,0,0,0,0,0,0,0,0,0,0,0,0,0,0,,,,,,,,,,,
1430068,1745085156263,0.0,181.25,,0.2,-0.79,1.06,4,-0,0,1.34,1.75,77,10356,22.5,3.2,,9.07,1.031,97.0,,67.3,5,,,,,,,,,,,,0,0,0,0,0,0,0,0,0,0,0,0,0,0,0,0,,,,,0.0,,,,,,
1430088,1745085156283,,,,,,,,,,,,,,,,,,,,,,,,,,,,,,,,,,0,0,0,0,0,0,0,0,0,0,0,0,0,0,0,0,,,,,,,,,,,
1430108,1745085156303,0.0,181.12,,0.23,-0.43,0.99,3,0,1,1.1,1.75,63,10325,23.4,3.11,,9.06,1.038,97.0,,67.3,5,8,0,8,8,0.0,0.0,0.0,0.0,2.26,,,0,0,0,0,0,0,0,0,0,0,0,0,0,0,0,0,0,,,,0.0,39.239868,-77.965668,12.6,32,3,0.9
1430128,1745085156323,,,,,,,,,,,,,,,,,,,,,,,,,,,,,,,,,,0,0,0,0,0,0,0,0,0,0,0,0,0,0,0,0,,,,,,,,,,,
1430148,1745085156343,0.0,181.0,,0.18,-0.32,1.03,2,0,1,1.1,1.75,63,10276,25.5,3.03,,9.15,1.031,97.0,,67.3,5,,,,,,,,,,,,0,0,0,0,0,0,0,0,0,0,0,0,0,0,0,0,,,,,0.0,,,,,,
1430168,1745085156363,,,,,,,,,,,,,,,,,,,,,,,,,,,,,,,,,,0,0,0,0,0,0,0,0,0,0,0,0,0,0,0,0,,,,,,,,,,,
1430188,1745085156383,0.0,180.74,,0.18,-0.56,0.99,3,-0,1,1.15,1.75,66,10199,21.1,3.34,,9.15,1.031,97.0,,66.9,5,,,,,,,,,,,,0,0,0,0,0,0,0,0,0,0,0,0,0,0,0,0,,,,,0.0,,,,,,
1430208,1745085156405,,,,,,,,,,,,,,,,,,,,,,,9,0,9,9,0.0,15.0,0.0,0.0,2.26,,,0,0,0,0,0,0,0,0,0,0,0,0,0,0,0,0,0,,,,,39.239864,-77.965668,13.58,32,3,0.9
1430228,1745085156425,0.0,180.74,,0.2,-0.34,0.98,3,-0,1,1.06,1.75,61,10199,21.1,3.34,,8.87,1.034,97.0,,66.9,5,,,,,,,,,,,,0,0,0,0,0,0,0,0,0,0,0,0,0,0,0,0,,,,,0.0,,,,,,
1430248,1745085156445,,,,,,,,,,,,,,,,,,,,,,,,,,,,,,,,,,0,0,0,0,0,0,0,0,0,0,0,0,0,0,0,0,,,,,,,,,,,
1430268,1745085156465,0.0,180.62,,0.17,-0.25,1.07,4,-1,1,1.11,1.75,64,10215,19.8,3.38,,8.75,1.033,97.0,,66.6,5,,,,,,,,,,,,0,0,0,0,0,0,0,0,0,0,0,0,0,0,0,0,,,,,0.0,,,,,,
1430288,1745085156485,,,,,,,,,,,,,,,,,,,,,,,,,,,,,,,,,,0,0,0,0,0,0,0,0,0,0,0,0,0,0,0,0,,,,,,,,,,,
1430308,1745085156502,0.0,180.49,,0.22,-0.26,1.03,2,-0,1,1.08,1.75,62,10215,18.2,3.16,,8.66,0.988,97.0,,66.6,5,10,0,10,10,0.0,29.0,0.0,0.0,2.26,,,0,0,0,0,0,0,0,0,0,0,0,0,0,0,0,0,0,,,,0.0,39.239864,-77.965668,14.67,32,3,0.9
1430328,1745085156522,,,,,,,,,,,,,,,,,,,,,,,,,,,,,,,,,,0,0,0,0,0,0,0,0,0,0,0,0,0,0,0,0,,,,,,,,,,,
1430348,1745085156542,0.0,180.49,,0.22,-0.13,1.0,1,-0,1,1.03,1.75,59,10164,20.6,3.17,,8.59,0.939,97.0,,66.6,5,,,,,,,,,,,,0,0,0,0,0,0,0,0,0,0,0,0,0,0,0,0,,,,,0.0,,,,,,
1430368,1745085156562,,,,,,,,,,,,,,,,,,,,,,,,,,,,,,,,,,0,0,0,0,0,0,0,0,0,0,0,0,0,0,0,0,,,,,,,,,,,
1430388,1745085156582,0.0,180.37,,0.23,-0.26,0.93,1,-0,0,0.99,1.75,57,10089,21.1,3.15,,8.59,0.939,97.0,,67.5,5,,,,,,,,,,,,0,0,0,0,0,0,0,0,0,0,0,0,0,0,0,0,,,,,0.0,,,,,,
1430408,1745085156604,,,,,,,,,,,,,,,,,,,,,,,10,0,10,10,0.0,48.0,0.0,0.0,2.26,,,0,0,0,0,0,0,0,0,0,0,0,0,0,0,0,0,0,,,,,39.239861,-77.965675,15.94,32,3,0.9
1430428,1745085156624,0.0,180.24,,0.24,-0.18,0.93,2,0,0,0.98,1.75,56,10089,21.1,3.15,,8.54,0.923,97.0,,67.5,5,,,,,,,,,,,,0,0,0,0,0,0,0,0,0,0,0,0,0,0,0,0,,,,,0.0,,,,,,
1430448,1745085156644,,,,,,,,,,,,,,,,,,,,,,,,,,,,,,,,,,0,0,0,0,0,0,0,0,0,0,0,0,0,0,0,0,,,,,,,,,,,
1430468,1745085156664,0.0,180.12,,0.26,-0.31,0.92,2,-0,0,1.0,1.75,57,10013,22.6,2.99,,8.45,0.913,97.0,,66.5,5,,,,,,,,,,,,0,0,0,0,0,0,0,0,0,0,0,0,0,0,0,0,,,,,0.0,,,,,,
1430488,1745085156684,,,,,,,,,,,,,,,,,,,,,,,,,,,,,,,,,,0,0,0,0,0,0,0,0,0,0,0,0,0,0,0,0,,,,,,,,,,,
1430508,1745085156704,0.0,179.99,,0.22,-0.36,0.84,2,-0,-0,0.94,1.75,54,9907,18.3,3.11,,8.38,0.911,97.0,,66.5,5,11,0,11,11,0.0,51.0,0.0,0.0,2.26,,,0,0,0,0,0,0,0,0,0,0,0,0,0,0,0,0,0,,,,0.0,39.239857,-77.965675,17.1,32,3,0.9
1430528,1745085156724,,,,,,,,,,,,,,,,,,,,,,,,,,,,,,,,,,0,0,0,0,0,0,0,0,0,0,0,0,0,0,0,0,,,,,,,,,,,
1430548,1745085156744,0.0,179.99,,0.26,-0.37,0.86,2,-0,0,0.97,1.75,56,9791,17.1,2.96,,8.39,0.918,97.0,,66.5,5,,,,,,,,,,,,0,0,0,0,0,0,0,0,0,0,0,0,0,0,0,0,,,,,0.0,,,,,,
1430568,1745085156764,,,,,,,,,,,,,,,,,,,,,,,,,,,,,,,,,,0,0,0,0,0,0,0,0,0,0,0,0,0,0,0,0,,,,,,,,,,,
1430588,1745085156784,0.0,179.86,,0.25,-0.22,0.85,3,-0,0,0.91,1.75,52,9681,15.9,2.86,,8.39,0.918,97.0,,66.8,5,,,,,,,,,,,,0,0,0,0,0,0,0,0,0,0,0,0,0,0,0,0,,,,,0.0,,,,,,
1430608,1745085156804,,,,,,,,,,,,,,,,,,,,,,,12,0,12,12,0.0,11.0,0.0,0.0,2.26,,,0,0,0,0,0,0,0,0,0,0,0,0,0,0,0,0,0,,,,,39.239853,-77.965683,18.41,32,3,0.9
1430628,1745085156824,0.0,179.74,,0.26,-0.23,0.88,4,-0,-0,0.94,1.75,54,9681,15.9,2.86,,8.13,0.921,97.0,,66.8,5,,,,,,,,,,,,0,0,0,0,0,0,0,0,0,0,0,0,0,0,0,0,,,,,0.0,,,,,,
1430648,1745085156844,,,,,,,,,,,,,,,,,,,,,,,,,,,,,,,,,,0,0,0,0,0,0,0,0,0,0,0,0,0,0,0,0,,,,,,,,,,,
1430668,1745085156864,0.0,179.74,,0.26,-0.19,0.87,4,-0,0,0.93,1.75,53,9497,15.5,2.71,,8.13,0.916,97.0,,65.2,5,,,,,,,,,,,,0,0,0,0,0,0,0,0,0,0,0,0,0,0,0,0,,,,,0.0,,,,,,
1430688,1745085156884,,,,,,,,,,,,,,,,,,,,,,,,,,,,,,,,,,0,0,0,0,0,0,0,0,0,0,0,0,0,0,0,0,,,,,,,,,,,
1430708,1745085156904,0.0,179.61,13.25,0.26,-0.36,0.97,5,-0,-0,1.06,1.75,61,9278,14.8,2.58,15,8.06,0.93,97.0,147,65.2,5,12,0,13,12,0.0,22.0,0.0,0.0,2.26,0,0.0,0,0,0,0,0,0,0,0,0,0,0,0,0,0,0,0,0,0.0,0,0,0.0,39.239849,-77.965683,19.24,32,3,0.9
1430728,1745085156924,,,,,,,,,,,,,,,,,,,,,,,,,,,,,,,,,,0,0,0,0,0,0,0,0,0,0,0,0,0,0,0,0,,,,,,,,,,,
1430748,1745085156944,0.0,179.61,,0.27,-0.04,0.99,4,-1,-1,1.02,1.75,59,9027,13.4,2.45,,8.06,0.953,97.0,,65.2,5,,,,,,,,,,,,0,0,0,0,0,0,0,0,0,0,0,0,0,0,0,0,,,,,0.0,,,,,,
1430768,1745085156964,,,,,,,,,,,,,,,,,,,,,,,,,,,,,,,,,,0,0,0,0,0,0,0,0,0,0,0,0,0,0,0,0,,,,,,,,,,,
1430788,1745085156984,0.0,179.49,,0.25,-0.06,1.03,5,-0,-1,1.07,1.75,61,8761,12.6,2.47,,8.06,0.953,97.0,,64.1,5,,,,,,,,,,,,0,0,0,0,0,0,0,0,0,0,0,0,0,0,0,0,,,,,0.0,,,,,,
1430808,1745085157004,,,,,,,,,,,,,,,,,,,,,,,12,0,13,13,0.0,16.0,0.0,0.0,2.26,,,0,0,0,0,0,0,0,0,0,0,0,0,0,0,0,0,0,,,,,39.239849,-77.965683,19.24,32,3,0.9
1430828,1745085157016,0.0,179.36,,0.22,-0.09,0.98,5,-0,-1,1.01,1.75,58,8761,12.6,2.47,,8.03,0.971,97.0,,64.1,5,,,,,,,,,,,,0,0,0,0,0,0,0,0,0,0,0,0,0,0,0,0,,,,,0.0,,,,,,
1430848,1745085157036,,,,,,,,,,,,,,,,,,,,,,,,,,,,,,,,,,0,0,0,0,0,0,0,0,0,0,0,0,0,0,0,0,,,,,,,,,,,
1430868,1745085157056,0.0,179.24,,0.21,-0.09,0.96,4,-0,-1,0.99,1.75,57,8398,10.6,2.57,,7.97,0.992,97.0,,60.9,5,,,,,,,,,,,,0,0,0,0,0,0,0,0,0,0,0,0,0,0,0,0,,,,,0.0,,,,,,
1430888,1745085157076,,,,,,,,,,,,,,,,,,,,,,,,,,,,,,,,,,0,0,0,0,0,0,0,0,0,0,0,0,0,0,0,0,,,,,,,,,,,
1430908,1745085157102,0.0,179.24,,0.18,-0.13,0.95,4,-0,-2,0.98,1.75,56,8001,8.8,2.8,,7.97,1.002,97.0,,60.9,5,13,0,13,14,0.0,15.0,0.0,0.0,2.27,,,0,0,0,0,0,0,0,0,0,0,0,0,0,0,0,0,0,,,,0.0,39.239841,-77.965698,21.45,32,3,0.9
1430928,1745085157122,,,,,,,,,,,,,,,,,,,,,,,,,,,,,,,,,,0,0,0,0,0,0,0,0,0,0,0,0,0,0,0,0,,,,,,,,,,,
1430948,1745085157142,0.0,179.11,,0.2,-0.24,0.95,5,-0,-2,1.0,1.75,57,7676,7.6,2.84,,8.01,0.986,97.0,,60.9,5,,,,,,,,,,,,0,0,0,0,0,0,0,0,0,0,0,0,0,0,0,0,,,,,0.0,,,,,,
1430968,1745085157162,,,,,,,,,,,,,,,,,,,,,,,,,,,,,,,,,,0,0,0,0,0,0,0,0,0,0,0,0,0,0,0,0,,,,,,,,,,,
1430988,1745085157182,0.0,179.24,,0.16,-0.26,0.9,4,-0,-2,0.95,1.75,54,7331,6.7,2.57,,8.01,0.986,97.0,,60.0,5,,,,,,,,,,,,0,0,0,0,0,0,0,0,0,0,0,0,0,0,0,0,,,,,0.0,,,,,,
1431008,1745085157206,,,,,,,,,,,,,,,,,,,,,,,14,0,14,14,0.0,44.0,0.0,0.0,2.26,,,0,0,0,0,0,0,0,0,0,0,0,0,0,0,0,0,0,,,,,39.239838,-77.965698,21.96,32,3,0.9
1431028,1745085157226,0.0,179.24,,0.16,-0.15,0.95,4,-0,-1,0.97,1.75,56,7331,6.7,2.57,,7.93,0.948,97.0,,60.0,5,,,,,,,,,,,,0,0,0,0,0,0,0,0,0,0,0,0,0,0,0,0,,,,,0.0,,,,,,
1431048,1745085157246,,,,,,,,,,,,,,,,,,,,,,,,,,,,,,,,,,0,0,0,0,0,0,0,0,0,0,0,0,0,0,0,0,,,,,,,,,,,
1431068,1745085157266,0.0,179.24,,0.18,-0.15,0.92,3,-0,-1,0.95,1.75,54,6958,6.0,2.56,,7.95,0.919,97.0,,58.5,5,,,,,,,,,,,,0,0,0,0,0,0,0,0,0,0,0,0,0,0,0,0,,,,,0.0,,,,,,
1431088,1745085157286,,,,,,,,,,,,,,,,,,,,,,,,,,,,,,,,,,0,0,0,0,0,0,0,0,0,0,0,0,0,0,0,0,,,,,,,,,,,
1431108,1745085157306,0.0,179.36,,0.21,-0.04,1.0,5,-0,-0,1.03,1.75,59,6367,5.6,2.43,,8.21,0.906,97.0,,58.5,5,14,0,14,15,0.0,24.0,0.0,0.0,2.26,,,0,0,0,0,0,0,0,0,0,0,0,0,0,0,0,0,0,,,,0.0,39.23983,-77.965706,22.56,32,3,0.9
1431128,1745085157326,,,,,,,,,,,,,,,,,,,,,,,,,,,,,,,,,,0,0,0,0,0,0,0,0,0,0,0,0,0,0,0,0,,,,,,,,,,,
1431148,1745085157346,0.0,179.36,,0.22,-0.01,0.99,4,-0,-0,1.02,1.75,58,5777,5.3,2.28,,8.62,0.902,97.0,,58.5,5,,,,,,,,,,,,0,0,0,0,0,0,0,0,0,0,0,0,0,0,0,0,,,,,0.0,,,,,,
1431168,1745085157366,,,,,,,,,,,,,,,,,,,,,,,,,,,,,,,,,,0,0,0,0,0,0,0,0,0,0,0,0,0,0,0,0,,,,,,,,,,,
1431188,1745085157386,0.0,179.36,,0.19,-0.0,1.0,4,-0,-0,1.01,1.75,58,5159,4.4,2.15,,8.62,0.902,97.0,,52.6,5,,,,,,,,,,,,0,0,0,0,0,0,0,0,0,0,0,0,0,0,0,0,,,,,0.0,,,,,,
1431208,1745085157404,,,,,,,,,,,,,,,,,,,,,,,15,0,15,15,0.0,47.0,0.0,0.0,2.26,,,0,0,0,0,0,0,0,0,0,0,0,0,0,0,0,0,1,,,,,39.239826,-77.965706,23.2,32,3,0.9
1431228,1745085157424,0.0,179.36,,0.2,-0.04,0.94,3,-0,-0,0.96,1.75,55,5159,4.4,2.15,,9.21,0.908,97.0,,52.6,5,,,,,,,,,,,,0,0,0,0,0,0,0,0,0,0,0,0,0,0,0,0,,,,,0.0,,,,,,
1431248,1745085157444,,,,,,,,,,,,,,,,,,,,,,,,,,,,,,,,,,0,0,0,0,0,0,0,0,0,0,0,0,0,0,0,0,,,,,,,,,,,
1431268,1745085157464,0.0,179.49,,0.18,-0.01,0.91,2,-0,-1,0.92,1.75,53,4346,3.7,2.36,,9.78,0.929,97.0,,35.0,5,,,,,,,,,,,,0,0,0,0,0,0,0,0,0,0,0,0,0,0,0,0,,,,,0.0,,,,,,
1431288,1745085157484,,,,,,,,,,,,,,,,,,,,,,,,,,,,,,,,,,0,0,0,0,0,0,0,0,0,0,0,0,0,0,0,0,,,,,,,,,,,
1431308,1745085157505,0.0,179.49,,0.16,-0.11,0.97,1,-0,-0,0.99,1.75,57,3694,1.1,2.13,,10.22,0.934,97.0,,35.0,5,15,0,15,15,0.0,40.0,0.0,0.0,2.27,,,0,0,0,0,0,0,0,0,0,0,0,0,0,0,0,0,1,,,,0.0,39.239822,-77.965714,24.05,32,3,0.9
1431328,1745085157525,,,,,,,,,,,,,,,,,,,,,,,,,,,,,,,,,,0,0,0,0,0,0,0,0,0,0,0,0,0,0,0,0,,,,,,,,,,,
1431348,1745085157545,0.0,179.49,,0.11,-0.01,0.9,1,-1,-0,0.91,1.75,52,3311,0.4,2.14,,10.73,0.952,97.0,,35.0,5,,,,,,,,,,,,0,0,0,0,0,0,0,0,0,0,0,0,0,0,0,0,,,,,0.0,,,,,,
1431368,1745085157565,,,,,,,,,,,,,,,,,,,,,,,,,,,,,,,,,,0,0,0,0,0,0,0,0,0,0,0,0,0,0,0,0,,,,,,,,,,,
1431388,1745085157585,0.0,179.49,,0.05,0.06,0.88,3,-0,0,0.89,1.75,51,3147,0.3,2.63,,10.73,0.952,97.0,,27.3,5,,,,,,,,,,,,0,0,0,0,0,0,0,0,0,0,0,0,0,0,0,0,,,,,0.0,,,,,,
1431408,1745085157603,,,,,,,,,,,,,,,,,,,,,,,15,0,15,15,0.0,0.0,0.0,0.0,2.27,,,0,0,0,0,0,0,0,0,0,0,0,0,0,0,0,0,3,,,,,39.239819,-77.965714,24.49,32,3,0.9
1431428,1745085157623,0.0,179.61,,-0.04,0.07,0.92,4,-1,0,0.92,1.75,53,3147,0.3,2.63,,11.17,0.977,97.0,,27.3,5,,,,,,,,,,,,0,0,0,0,0,0,0,0,0,0,0,0,0,0,0,0,,,,,0.0,,,,,,
1431448,1745085157643,,,,,,,,,,,,,,,,,,,,,,,,,,,,,,,,,,0,0,0,0,0,0,0,0,0,0,0,0,0,0,0,0,,,,,,,,,,,
1431468,1745085157663,0.0,179.61,,-0.06,0.03,0.88,3,-1,0,0.89,1.75,51,3221,0.0,2.79,,11.38,1.009,97.0,,29.9,5,,,,,,,,,,,,0,0,0,0,0,0,0,0,0,0,0,0,0,0,0,0,,,,,0.0,,,,,,
1431488,1745085157683,,,,,,,,,,,,,,,,,,,,,,,,,,,,,,,,,,0,0,0,0,0,0,0,0,0,0,0,0,0,0,0,0,,,,,,,,,,,
1431508,1745085157705,0.0,179.61,,-0.06,-0.01,0.89,2,-0,-0,0.89,0.89,100,3641,0.0,2.58,,11.4,1.038,97.0,,29.9,5,15,0,14,14,0.0,233.0,0.0,0.0,2.26,,,0,0,0,0,0,0,0,0,0,0,0,0,0,0,0,0,3,,,,0.0,39.239811,-77.965714,23.44,32,3,0.9
1431528,1745085157725,,,,,,,,,,,,,,,,,,,,,,,,,,,,,,,,,,0,0,0,0,0,0,0,0,0,0,0,0,0,0,0,0,,,,,,,,,,,
1431548,1745085157745,0.0,179.74,,-0.09,-0.06,0.97,1,-0,0,0.97,0.97,100,3504,0.0,2.58,,11.53,1.09,97.0,,29.9,5,,,,,,,,,,,,0,0,0,0,0,0,0,0,0,0,0,0,0,0,0,0,,,,,0.0,,,,,,
1431568,1745085157765,,,,,,,,,,,,,,,,,,,,,,,,,,,,,,,,,,0,0,0,0,0,0,0,0,0,0,0,0,0,0,0,0,,,,,,,,,,,
1431588,1745085157785,0.0,179.74,,-0.11,0.03,0.91,1,-0,0,0.92,0.97,94,3358,0.0,2.66,,11.53,1.09,97.0,,29.0,5,,,,,,,,,,,,0,0,0,0,0,0,0,0,0,0,0,0,0,0,0,0,,,,,0.0,,,,,,
1431608,1745085157805,,,,,,,,,,,,,,,,,,,,,,,14,0,14,14,0.0,14.0,0.0,0.0,2.26,,,0,0,0,0,0,0,0,0,0,0,0,0,0,0,0,0,2,,,,,39.239807,-77.965721,22.87,32,3,0.9
1431628,1745085157825,0.0,179.74,,-0.11,-0.02,0.99,2,-0,0,0.99,0.99,100,3358,0.0,2.66,,11.64,1.167,97.0,,29.0,5,,,,,,,,,,,,0,0,0,0,0,0,0,0,0,0,0,0,0,0,0,0,,,,,0.0,,,,,,
1431648,1745085157845,,,,,,,,,,,,,,,,,,,,,,,,,,,,,,,,,,0,0,0,0,0,0,0,0,0,0,0,0,0,0,0,0,,,,,,,,,,,
1431668,1745085157865,0.0,179.86,,-0.12,0.0,0.9,1,0,0,0.91,0.99,91,3353,0.2,2.74,,11.68,1.247,97.0,,29.1,5,,,,,,,,,,,,0,0,0,0,0,0,0,0,0,0,0,0,0,0,0,0,,,,,0.0,,,,,,
1431688,1745085157885,,,,,,,,,,,,,,,,,,,,,,,,,,,,,,,,,,0,0,0,0,0,0,0,0,0,0,0,0,0,0,0,0,,,,,,,,,,,
1431708,1745085157905,0.0,179.86,13.39,-0.12,-0.05,1.0,3,0,0,1.01,1.01,100,3386,0.0,2.65,15,11.77,1.249,97.0,149,29.1,5,15,0,14,14,0.0,14.0,0.0,0.0,2.26,0,0.0,0,0,0,0,0,0,0,0,0,0,0,0,0,0,0,0,2,0.0,0,-0,0.0,39.239803,-77.965729,22.26,32,3,0.9
1431728,1745085157925,,,,,,,,,,,,,,,,,,,,,,,,,,,,,,,,,,0,0,0,0,0,0,0,0,0,0,0,0,0,0,0,0,,,,,,,,,,,
1431748,1745085157945,0.0,179.99,,-0.12,-0.09,0.93,-0,0,-0,0.94,1.01,94,3307,0.0,2.7,,11.81,1.249,97.0,,29.1,5,,,,,,,,,,,,0,0,0,0,0,0,0,0,0,0,0,0,0,0,0,0,,,,,0.0,,,,,,
1431768,1745085157965,,,,,,,,,,,,,,,,,,,,,,,,,,,,,,,,,,0,0,0,0,0,0,0,0,0,0,0,0,0,0,0,0,,,,,,,,,,,
1431788,1745085157985,0.0,179.99,,-0.14,0.02,0.93,2,0,0,0.94,1.01,93,3212,0.0,2.73,,11.81,1.249,97.0,,27.7,5,,,,,,,,,,,,0,0,0,0,0,0,0,0,0,0,0,0,0,0,0,0,,,,,0.0,,,,,,
1431808,1745085158005,,,,,,,,,,,,,,,,,,,,,,,14,0,13,13,0.0,242.0,0.0,0.0,2.27,,,0,0,0,0,0,0,0,0,0,0,0,0,0,0,0,0,2,,,,,39.239803,-77.965729,22.26,32,3,0.9
1431828,1745085158017,0.0,180.12,,-0.13,-0.04,0.98,4,0,1,0.99,1.01,98,3212,0.0,2.73,,11.89,1.249,97.0,,27.7,5,,,,,,,,,,,,0,0,0,0,0,0,0,0,0,0,0,0,0,0,0,0,,,,,0.0,,,,,,
1431848,1745085158037,,,,,,,,,,,,,,,,,,,,,,,,,,,,,,,,,,0,0,0,0,0,0,0,0,0,0,0,0,0,0,0,0,,,,,,,,,,,
1431868,1745085158057,0.0,180.12,,-0.14,-0.08,0.96,1,0,0,0.97,1.01,96,3267,0.0,2.77,,12.03,1.249,97.0,,27.4,5,,,,,,,,,,,,0,0,0,0,0,0,0,0,0,0,0,0,0,0,0,0,,,,,0.0,,,,,,
1431888,1745085158077,,,,,,,,,,,,,,,,,,,,,,,,,,,,,,,,,,0,0,0,0,0,0,0,0,0,0,0,0,0,0,0,0,,,,,,,,,,,
1431908,1745085158105,0.0,180.24,,-0.16,0.03,0.89,-0,1,0,0.91,1.01,90,3190,0.3,2.78,,12.13,1.25,97.0,,27.4,5,13,0,13,13,0.0,15.0,0.0,0.0,2.26,,,0,0,0,0,0,0,0,0,0,0,0,0,0,0,0,0,2,,,,0.0,39.239792,-77.965736,21.12,32,3,0.9
1431928,1745085158125,,,,,,,,,,,,,,,,,,,,,,,,,,,,,,,,,,0,0,0,0,0,0,0,0,0,0,0,0,0,0,0,0,,,,,,,,,,,
1431948,1745085158145,0.0,180.37,,-0.16,0.12,0.9,1,0,0,0.92,1.01,91,3148,3.5,3.5,,12.41,1.252,97.0,,27.4,5,,,,,,,,,,,,0,0,0,0,0,0,0,0,0,0,0,0,0,0,0,0,,,,,0.0,,,,,,
1431968,1745085158165,,,,,,,,,,,,,,,,,,,,,,,,,,,,,,,,,,0,0,0,0,0,0,0,0,0,0,0,0,0,0,0,0,,,,,,,,,,,
1431988,1745085158185,0.0,180.37,,-0.17,0.11,0.95,3,0,1,0.97,1.01,96,3220,7.5,3.81,,12.41,1.252,97.0,,26.4,5,,,,,,,,,,,,0,0,0,0,0,0,0,0,0,0,0,0,0,0,0,0,,,,,0.0,,,,,,
1432008,1745085158205,,,,,,,,,,,,,,,,,,,,,,,13,0,13,13,0.0,246.0,0.0,0.0,2.26,,,0,0,0,0,0,0,0,0,0,0,0,0,0,0,0,0,2,,,,,39.239788,-77.965744,20.71,32,3,0.9
1432028,1745085158225,0.0,180.49,,-0.15,0.01,0.98,2,0,0,0.99,1.01,98,3220,7.5,3.81,,12.84,1.252,97.0,,26.4,5,,,,,,,,,,,,0,0,0,0,0,0,0,0,0,0,0,0,0,0,0,0,,,,,0.0,,,,,,
1432048,1745085158245,,,,,,,,,,,,,,,,,,,,,,,,,,,,,,,,,,0,0,0,0,0,0,0,0,0,0,0,0,0,0,0,0,,,,,,,,,,,
1432068,1745085158265,0.0,180.62,,-0.15,0.06,0.9,-1,0,0,0.92,1.01,91,3210,9.4,3.76,,13.08,1.252,97.0,,27.3,5,,,,,,,,,,,,0,0,0,0,0,0,0,0,0,0,0,0,0,0,0,0,,,,,0.0,,,,,,
1432088,1745085158285,,,,,,,,,,,,,,,,,,,,,,,,,,,,,,,,,,0,0,0,0,0,0,0,0,0,0,0,0,0,0,0,0,,,,,,,,,,,
1432108,1745085158305,0.0,180.74,,-0.15,0.12,0.9,1,0,0,0.92,1.01,91,3183,11.5,3.76,,13.31,1.25,97.0,,27.3,5,12,0,13,13,0.0,220.0,0.0,0.0,2.26,,,0,0,0,0,0,0,0,0,0,0,0,0,0,0,0,0,2,,,,0.0,39.239784,-77.965744,20.32,32,3,0.9
1432128,1745085158325,,,,,,,,,,,,,,,,,,,,,,,,,,,,,,,,,,0,0,0,0,0,0,0,0,0,0,0,0,0,0,0,0,,,,,,,,,,,
1432148,1745085158345,0.0,180.74,,-0.13,0.02,0.98,3,0,0,0.99,1.01,98,3260,12.4,3.84,,13.44,1.249,97.0,,27.3,5,,,,,,,,,,,,0,0,0,0,0,0,0,0,0,0,0,0,0,0,0,0,,,,,0.0,,,,,,
1432168,1745085158365,,,,,,,,,,,,,,,,,,,,,,,,,,,,,,,,,,0,0,0,0,0,0,0,0,0,0,0,0,0,0,0,0,,,,,,,,,,,
1432188,1745085158385,0.0,181.0,,-0.14,-0.01,0.94,1,0,0,0.95,1.01,95,3277,13.6,3.87,,13.44,1.249,97.0,,27.0,5,,,,,,,,,,,,0,0,0,0,0,0,0,0,0,0,0,0,0,0,0,0,,,,,0.0,,,,,,
1432208,1745085158405,,,,,,,,,,,,,,,,,,,,,,,12,0,13,13,0.0,225.0,0.0,0.0,2.26,,,0,0,0,0,0,0,0,0,0,0,0,0,0,0,0,0,2,,,,,39.23978,-77.965752,20.11,32,3,0.9
1432228,1745085158425,0.0,181.0,,-0.09,0.05,0.94,2,-0,0,0.94,1.01,94,3277,13.6,3.87,,13.49,1.249,97.0,,27.0,5,,,,,,,,,,,,0,0,0,0,0,0,0,0,0,0,0,0,0,0,0,0,,,,,0.0,,,,,,
1432248,1745085158445,,,,,,,,,,,,,,,,,,,,,,,,,,,,,,,,,,0,0,0,0,0,0,0,0,0,0,0,0,0,0,0,0,,,,,,,,,,,
1432268,1745085158465,0.0,181.12,,-0.08,0.02,0.96,3,-0,0,0.97,1.01,96,3180,15.1,4.06,,13.64,1.25,97.0,,26.7,5,,,,,,,,,,,,0,0,0,0,0,0,0,0,0,0,0,0,0,0,0,0,,,,,0.0,,,,,,
1432288,1745085158485,,,,,,,,,,,,,,,,,,,,,,,,,,,,,,,,,,0,0,0,0,0,0,0,0,0,0,0,0,0,0,0,0,,,,,,,,,,,
1432308,1745085158504,0.0,181.25,,-0.08,0.03,0.99,4,-0,1,1.0,1.01,99,3016,16.2,4.23,,13.76,1.25,97.0,,26.7,5,13,0,13,13,0.0,5.0,0.0,0.0,2.26,,,0,0,0,0,0,0,0,0,0,0,0,0,0,0,0,0,0,,,,0.0,39.239777,-77.965752,19.97,32,3,0.9
1432328,1745085158524,,,,,,,,,,,,,,,,,,,,,,,,,,,,,,,,,,0,0,0,0,0,0,0,0,0,0,0,0,0,0,0,0,,,,,,,,,,,
1432348,1745085158544,0.0,181.25,,-0.07,0.0,1.03,5,-0,1,1.03,1.03,100,3067,17.0,4.45,,13.79,1.25,97.0,,26.7,5,,,,,,,,,,,,0,0,0,0,0,0,0,0,0,0,0,0,0,0,0,0,,,,,0.0,,,,,,
1432368,1745085158564,,,,,,,,,,,,,,,,,,,,,,,,,,,,,,,,,,0,0,0,0,0,0,0,0,0,0,0,0,0,0,0,0,,,,,,,,,,,
1432388,1745085158584,0.0,181.25,,-0.08,-0.07,1.1,4,-0,1,1.1,1.1,100,3003,17.5,4.46,,13.79,1.25,97.0,,25.4,5,,,,,,,,,,,,0,0,0,0,0,0,0,0,0,0,0,0,0,0,0,0,,,,,0.0,,,,,,
1432408,1745085158602,,,,,,,,,,,,,,,,,,,,,,,12,0,13,13,0.0,230.0,0.0,0.0,2.26,,,0,0,0,0,0,0,0,0,0,0,0,0,0,0,0,0,0,,,,,39.239773,-77.965752,20.03,32,3,0.9
1432428,1745085158622,0.0,181.25,,-0.1,-0.15,1.16,3,-0,1,1.17,1.17,100,3003,17.5,4.46,,13.83,1.252,97.0,,25.4,5,,,,,,,,,,,,0,0,0,0,0,0,0,0,0,0,0,0,0,0,0,0,,,,,0.0,,,,,,
1432448,1745085158642,,,,,,,,,,,,,,,,,,,,,,,,,,,,,,,,,,0,0,0,0,0,0,0,0,0,0,0,0,0,0,0,0,,,,,,,,,,,
1432468,1745085158662,0.0,181.37,,-0.1,-0.21,1.18,2,-0,0,1.2,1.2,100,3057,17.8,4.46,,13.87,1.252,97.0,,26.0,5,,,,,,,,,,,,0,0,0,0,0,0,0,0,0,0,0,0,0,0,0,0,,,,,0.0,,,,,,
1432488,1745085158682,,,,,,,,,,,,,,,,,,,,,,,,,,,,,,,,,,0,0,0,0,0,0,0,0,0,0,0,0,0,0,0,0,,,,,,,,,,,
1432508,1745085158704,0.0,181.37,,-0.11,-0.18,1.2,0,0,0,1.22,1.22,100,3090,18.3,4.52,,13.8,1.252,97.0,,26.0,5,13,0,13,13,0.0,16.0,0.0,0.0,2.26,,,0,0,0,0,0,0,0,0,0,0,0,0,0,0,0,0,2,,,,0.0,39.239765,-77.965752,19.84,32,3,0.9
1432528,1745085158724,,,,,,,,,,,,,,,,,,,,,,,,,,,,,,,,,,0,0,0,0,0,0,0,0,0,0,0,0,0,0,0,0,,,,,,,,,,,
1432548,1745085158744,0.0,181.37,,-0.11,-0.22,1.19,-2,0,-0,1.21,1.22,99,3098,18.3,4.52,,13.82,1.251,97.0,,26.0,5,,,,,,,,,,,,0,0,0,0,0,0,0,0,0,0,0,0,0,0,0,0,,,,,0.0,,,,,,
1432568,1745085158764,,,,,,,,,,,,,,,,,,,,,,,,,,,,,,,,,,0,0,0,0,0,0,0,0,0,0,0,0,0,0,0,0,,,,,,,,,,,
1432588,1745085158784,0.0,181.37,,-0.11,-0.27,1.1,-4,0,-1,1.14,1.22,93,3080,18.2,4.47,,13.82,1.251,97.0,,26.2,5,,,,,,,,,,,,0,0,0,0,0,0,0,0,0,0,0,0,0,0,0,0,,,,,0.0,,,,,,
1432608,1745085158802,,,,,,,,,,,,,,,,,,,,,,,13,0,12,13,0.0,21.0,0.0,0.0,2.26,,,0,0,0,0,0,0,0,0,0,0,0,0,0,0,0,0,2,,,,,39.239765,-77.965759,20.18,32,3,0.9
1432628,1745085158822,0.0,181.37,,-0.09,-0.21,1.01,-3,0,-1,1.03,1.22,85,3080,18.2,4.47,,13.8,1.249,97.0,,26.2,5,,,,,,,,,,,,0,0,0,0,0,0,0,0,0,0,0,0,0,0,0,0,,,,,0.0,,,,,,
1432648,1745085158842,,,,,,,,,,,,,,,,,,,,,,,,,,,,,,,,,,0,0,0,0,0,0,0,0,0,0,0,0,0,0,0,0,,,,,,,,,,,
1432668,1745085158862,0.0,181.5,,-0.07,-0.11,0.96,-1,-0,-0,0.97,1.22,79,3076,18.3,4.47,,13.87,1.249,97.0,,25.6,5,,,,,,,,,,,,0,0,0,0,0,0,0,0,0,0,0,0,0,0,0,0,,,,,0.0,,,,,,
1432688,1745085158882,,,,,,,,,,,,,,,,,,,,,,,,,,,,,,,,,,0,0,0,0,0,0,0,0,0,0,0,0,0,0,0,0,,,,,,,,,,,
1432708,1745085158904,0.0,181.5,13.53,-0.07,-0.05,0.96,0,-0,-0,0.97,1.22,79,3108,18.2,4.61,15,13.82,1.243,97.0,151,25.6,5,13,0,13,13,0.0,16.0,0.0,0.0,2.27,0,0.0,0,0,0,0,0,0,0,0,0,0,0,0,0,0,0,0,2,0.0,0,-0,0.0,39.239761,-77.965767,20.29,32,3,0.9
1432728,1745085158924,,,,,,,,,,,,,,,,,,,,,,,,,,,,,,,,,,0,0,0,0,0,0,0,0,0,0,0,0,0,0,0,0,,,,,,,,,,,
1432748,1745085158944,0.0,181.5,,-0.05,-0.07,1.0,2,-0,-0,1.01,1.22,82,3073,18.3,4.57,,13.8,1.236,97.0,,25.6,5,,,,,,,,,,,,0,0,0,0,0,0,0,0,0,0,0,0,0,0,0,0,,,,,0.0,,,,,,
1432768,1745085158964,,,,,,,,,,,,,,,,,,,,,,,,,,,,,,,,,,0,0,0,0,0,0,0,0,0,0,0,0,0,0,0,0,,,,,,,,,,,
1432788,1745085158984,0.0,181.5,,-0.03,-0.14,1.07,0,-0,-0,1.08,1.22,88,3083,18.2,4.56,,13.8,1.236,97.0,,26.7,5,,,,,,,,,,,,0,0,0,0,0,0,0,0,0,0,0,0,0,0,0,0,,,,,0.0,,,,,,
1432808,1745085159004,,,,,,,,,,,,,,,,,,,,,,,13,0,13,13,0.0,54.0,0.0,0.0,2.27,,,0,0,0,0,0,0,0,0,0,0,0,0,0,0,0,0,2,,,,,39.239761,-77.965767,20.29,32,3,0.9
1432828,1745085159017,0.0,181.62,,-0.04,-0.12,1.06,-2,0,-0,1.07,1.22,88,3083,18.2,4.56,,13.84,1.208,97.0,,26.7,5,,,,,,,,,,,,0,0,0,0,0,0,0,0,0,0,0,0,0,0,0,0,,,,,0.0,,,,,,
1432848,1745085159037,,,,,,,,,,,,,,,,,,,,,,,,,,,,,,,,,,0,0,0,0,0,0,0,0,0,0,0,0,0,0,0,0,,,,,,,,,,,
1432868,1745085159057,0.0,181.62,,-0.04,-0.02,1.0,-3,-0,-1,1.0,1.22,82,3186,18.1,4.57,,13.75,1.204,97.0,,26.1,5,,,,,,,,,,,,0,0,0,0,0,0,0,0,0,0,0,0,0,0,0,0,,,,,0.0,,,,,,
1432888,1745085159077,,,,,,,,,,,,,,,,,,,,,,,,,,,,,,,,,,0,0,0,0,0,0,0,0,0,0,0,0,0,0,0,0,,,,,,,,,,,
1432908,1745085159104,0.0,181.62,,-0.05,0.09,0.95,-1,0,-0,0.96,1.22,78,3165,18.2,4.57,,13.73,1.188,97.0,,26.1,5,13,0,13,13,0.0,0.0,0.0,0.0,2.26,,,0,0,0,0,0,0,0,0,0,0,0,0,0,0,0,0,2,,,,0.0,39.23975,-77.965775,20.49,32,3,0.9
1432928,1745085159124,,,,,,,,,,,,,,,,,,,,,,,,,,,,,,,,,,0,0,0,0,0,0,0,0,0,0,0,0,0,0,0,0,,,,,,,,,,,
1432948,1745085159144,0.0,181.75,,-0.04,0.11,0.97,-0,0,-0,0.98,1.22,81,3121,17.8,4.54,,13.77,1.187,97.0,,26.1,5,,,,,,,,,,,,0,0,0,0,0,0,0,0,0,0,0,0,0,0,0,0,,,,,0.0,,,,,,
1432968,1745085159164,,,,,,,,,,,,,,,,,,,,,,,,,,,,,,,,,,0,0,0,0,0,0,0,0,0,0,0,0,0,0,0,0,,,,,,,,,,,
1432988,1745085159184,0.0,181.75,,-0.04,0.02,1.04,-2,0,-0,1.05,1.22,86,3147,16.5,4.36,,13.77,1.187,97.0,,26.8,5,,,,,,,,,,,,0,0,0,0,0,0,0,0,0,0,0,0,0,0,0,0,,,,,0.0,,,,,,
1433008,1745085159202,,,,,,,,,,,,,,,,,,,,,,,13,0,13,13,0.0,241.0,0.0,0.0,2.26,,,0,0,0,0,0,0,0,0,0,0,0,0,0,0,0,0,2,,,,,39.239746,-77.965775,20.52,32,3,0.9
1433028,1745085159222,0.0,181.75,,-0.05,-0.03,1.05,-3,0,-0,1.05,1.22,86,3147,16.5,4.36,,13.73,1.182,97.0,,26.8,5,,,,,,,,,,,,0,0,0,0,0,0,0,0,0,0,0,0,0,0,0,0,,,,,0.0,,,,,,
1433048,1745085159242,,,,,,,,,,,,,,,,,,,,,,,,,,,,,,,,,,0,0,0,0,0,0,0,0,0,0,0,0,0,0,0,0,,,,,,,,,,,
1433068,1745085159262,0.0,182.0,,-0.04,0.02,1.0,-3,0,-0,1.0,1.22,82,3203,16.4,4.35,,13.67,1.171,97.0,,27.5,5,,,,,,,,,,,,0,0,0,0,0,0,0,0,0,0,0,0,0,0,0,0,,,,,0.0,,,,,,
1433088,1745085159282,,,,,,,,,,,,,,,,,,,,,,,,,,,,,,,,,,0,0,0,0,0,0,0,0,0,0,0,0,0,0,0,0,,,,,,,,,,,
1433108,1745085159306,0.0,181.88,,-0.02,0.07,0.99,-2,0,0,0.99,1.22,81,3177,16.2,4.32,,13.71,1.18,97.0,,27.5,5,13,0,13,13,0.0,15.0,0.0,0.0,2.26,,,0,0,0,0,0,0,0,0,0,0,0,0,0,0,0,0,2,,,,0.0,39.239742,-77.965782,20.75,32,3,0.9
1433128,1745085159326,,,,,,,,,,,,,,,,,,,,,,,,,,,,,,,,,,0,0,0,0,0,0,0,0,0,0,0,0,0,0,0,0,,,,,,,,,,,
1433148,1745085159346,0.0,182.0,,-0.02,0.04,1.04,-3,0,0,1.04,1.22,85,3104,15.8,4.33,,13.73,1.174,97.0,,27.5,5,,,,,,,,,,,,0,0,0,0,0,0,0,0,0,0,0,0,0,0,0,0,,,,,0.0,,,,,,
1433168,1745085159366,,,,,,,,,,,,,,,,,,,,,,,,,,,,,,,,,,0,0,0,0,0,0,0,0,0,0,0,0,0,0,0,0,,,,,,,,,,,
1433188,1745085159386,0.0,182.0,,-0.02,-0.07,1.09,-3,0,-0,1.09,1.22,89,3176,15.4,4.32,,13.73,1.174,97.0,,25.8,5,,,,,,,,,,,,0,0,0,0,0,0,0,0,0,0,0,0,0,0,0,0,,,,,0.0,,,,,,
1433208,1745085159406,,,,,,,,,,,,,,,,,,,,,,,13,0,13,13,0.0,10.0,0.0,0.0,2.27,,,0,0,0,0,0,0,0,0,0,0,0,0,0,0,0,0,2,,,,,39.239738,-77.965782,20.79,32,3,0.9
1433228,1745085159426,0.0,182.0,,-0.04,-0.04,1.01,-4,0,-0,1.01,1.22,83,3176,15.4,4.32,,13.64,1.186,97.0,,25.8,5,,,,,,,,,,,,0,0,0,0,0,0,0,0,0,0,0,0,0,0,0,0,,,,,0.0,,,,,,
1433248,1745085159446,,,,,,,,,,,,,,,,,,,,,,,,,,,,,,,,,,0,0,0,0,0,0,0,0,0,0,0,0,0,0,0,0,,,,,,,,,,,
1433268,1745085159466,0.0,182.0,,-0.03,0.07,1.01,-2,0,0,1.02,1.02,100,3236,14.9,4.25,,13.64,1.184,97.0,,27.8,5,,,,,,,,,,,,0,0,0,0,0,0,0,0,0,0,0,0,0,0,0,0,,,,,0.0,,,,,,
1433288,1745085159486,,,,,,,,,,,,,,,,,,,,,,,,,,,,,,,,,,0,0,0,0,0,0,0,0,0,0,0,0,0,0,0,0,,,,,,,,,,,
1433308,1745085159503,0.0,182.0,,-0.02,0.06,1.09,-1,0,0,1.09,1.09,100,3236,14.4,4.24,,13.65,1.177,97.0,,27.8,5,13,0,13,13,0.0,52.0,0.0,0.0,2.26,,,0,0,0,0,0,0,0,0,0,0,0,0,0,0,0,0,2,,,,0.0,39.239735,-77.96579,20.8,32,3,0.9
1433328,1745085159523,,,,,,,,,,,,,,,,,,,,,,,,,,,,,,,,,,0,0,0,0,0,0,0,0,0,0,0,0,0,0,0,0,,,,,,,,,,,
1433348,1745085159543,0.0,182.13,,-0.04,0.02,1.11,-3,0,0,1.11,1.11,100,3182,14.3,4.07,,13.63,1.191,97.0,,27.8,5,,,,,,,,,,,,0,0,0,0,0,0,0,0,0,0,0,0,0,0,0,0,,,,,0.0,,,,,,
1433368,1745085159563,,,,,,,,,,,,,,,,,,,,,,,,,,,,,,,,,,0,0,0,0,0,0,0,0,0,0,0,0,0,0,0,0,,,,,,,,,,,
1433388,1745085159583,0.0,182.13,,-0.05,0.04,1.04,-4,0,0,1.04,1.11,93,3145,14.4,4.07,,13.63,1.191,97.0,,26.4,5,,,,,,,,,,,,0,0,0,0,0,0,0,0,0,0,0,0,0,0,0,0,,,,,0.0,,,,,,
1433408,1745085159603,,,,,,,,,,,,,,,,,,,,,,,13,0,13,13,0.0,41.0,0.0,0.0,2.26,,,0,0,0,0,0,0,0,0,0,0,0,0,0,0,0,0,2,,,,,39.239727,-77.96579,20.91,32,3,0.9
1433428,1745085159623,0.0,182.13,,-0.03,0.14,1.03,-2,0,1,1.04,1.11,94,3145,14.4,4.07,,13.6,1.198,97.0,,26.4,5,,,,,,,,,,,,0,0,0,0,0,0,0,0,0,0,0,0,0,0,0,0,,,,,0.0,,,,,,
1433448,1745085159643,,,,,,,,,,,,,,,,,,,,,,,,,,,,,,,,,,0,0,0,0,0,0,0,0,0,0,0,0,0,0,0,0,,,,,,,,,,,
1433468,1745085159663,0.0,182.25,,-0.01,0.06,1.08,-2,0,1,1.08,1.11,97,3201,13.0,4.07,,13.61,1.182,97.0,,26.8,5,,,,,,,,,,,,0,0,0,0,0,0,0,0,0,0,0,0,0,0,0,0,,,,,0.0,,,,,,
1433488,1745085159683,,,,,,,,,,,,,,,,,,,,,,,,,,,,,,,,,,0,0,0,0,0,0,0,0,0,0,0,0,0,0,0,0,,,,,,,,,,,
1433508,1745085159705,0.0,182.25,,-0.02,0.03,1.04,-4,0,1,1.04,1.11,93,3259,10.8,3.92,,13.48,1.177,97.0,,26.8,5,13,0,13,13,0.0,26.0,0.0,0.0,2.26,,,0,0,0,0,0,0,0,0,0,0,0,0,0,0,0,0,2,,,,0.0,39.239727,-77.96579,20.89,32,3,0.9
1433528,1745085159725,,,,,,,,,,,,,,,,,,,,,,,,,,,,,,,,,,0,0,0,0,0,0,0,0,0,0,0,0,0,0,0,0,,,,,,,,,,,
1433548,1745085159745,0.0,182.38,,-0.01,0.09,1.0,-6,0,1,1.0,1.11,90,3134,9.1,3.87,,13.41,1.181,97.0,,26.8,5,,,,,,,,,,,,0,0,0,0,0,0,0,0,0,0,0,0,0,0,0,0,,,,,0.0,,,,,,
1433568,1745085159765,,,,,,,,,,,,,,,,,,,,,,,,,,,,,,,,,,0,0,0,0,0,0,0,0,0,0,0,0,0,0,0,0,,,,,,,,,,,
1433588,1745085159785,0.0,182.38,,0.01,0.11,1.01,-6,0,1,1.01,1.11,91,3135,7.8,3.85,,13.41,1.181,97.0,,26.9,5,,,,,,,,,,,,0,0,0,0,0,0,0,0,0,0,0,0,0,0,0,0,,,,,0.0,,,,,,
1433608,1745085159805,,,,,,,,,,,,,,,,,,,,,,,13,0,13,13,0.0,246.0,0.0,0.0,2.26,,,0,0,0,0,0,0,0,0,0,0,0,0,0,0,0,0,2,,,,,39.239723,-77.965797,21.04,32,3,0.9
1433628,1745085159825,0.0,182.38,,-0.03,-0.0,1.06,-6,0,1,1.06,1.11,95,3135,7.8,3.85,,13.31,1.194,97.0,,26.9,5,,,,,,,,,,,,0,0,0,0,0,0,0,0,0,0,0,0,0,0,0,0,,,,,0.0,,,,,,
1433648,1745085159845,,,,,,,,,,,,,,,,,,,,,,,,,,,,,,,,,,0,0,0,0,0,0,0,0,0,0,0,0,0,0,0,0,,,,,,,,,,,
1433668,1745085159865,0.0,182.5,,-0.05,-0.05,1.03,-5,0,1,1.03,1.11,93,3240,6.5,3.88,,13.17,1.193,97.0,,26.9,5,,,,,,,,,,,,0,0,0,0,0,0,0,0,0,0,0,0,0,0,0,0,,,,,0.0,,,,,,
1433688,1745085159885,,,,,,,,,,,,,,,,,,,,,,,,,,,,,,,,,,0,0,0,0,0,0,0,0,0,0,0,0,0,0,0,0,,,,,,,,,,,
1433708,1745085159903,0.0,182.38,13.53,-0.04,-0.01,0.98,-4,0,1,0.98,1.11,88,3128,6.3,3.86,15,13.12,1.199,97.0,153,26.9,5,13,0,13,13,0.0,236.0,0.0,0.0,2.27,0,0.0,0,0,0,0,0,0,0,0,0,0,0,0,0,0,0,0,2,0.0,0,0,0.0,39.239716,-77.965805,21.0,32,3,0.9
1433728,1745085159923,,,,,,,,,,,,,,,,,,,,,,,,,,,,,,,,,,0,0,0,0,0,0,0,0,0,0,0,0,0,0,0,0,,,,,,,,,,,
1433748,1745085159943,0.0,182.5,,-0.03,0.05,0.99,-3,-0,1,0.99,1.11,89,3127,6.2,3.86,,13.19,1.204,97.0,,26.9,5,,,,,,,,,,,,0,0,0,0,0,0,0,0,0,0,0,0,0,0,0,0,,,,,0.0,,,,,,
1433768,1745085159963,,,,,,,,,,,,,,,,,,,,,,,,,,,,,,,,,,0,0,0,0,0,0,0,0,0,0,0,0,0,0,0,0,,,,,,,,,,,
1433788,1745085159983,0.0,182.63,,-0.03,-0.03,1.06,-3,-0,1,1.06,1.11,95,3222,6.1,3.85,,13.19,1.204,97.0,,26.4,5,,,,,,,,,,,,0,0,0,0,0,0,0,0,0,0,0,0,0,0,0,0,,,,,0.0,,,,,,
1433808,1745085160003,,,,,,,,,,,,,,,,,,,,,,,14,0,13,13,0.0,221.0,0.0,0.0,2.26,,,0,0,0,0,0,0,0,0,0,0,0,0,0,0,0,0,2,,,,,39.239716,-77.965805,21.0,32,3,0.9
1433828,1745085160017,0.0,182.63,,-0.04,0.01,1.02,-2,-0,1,1.02,1.11,91,3222,6.1,3.85,,13.07,1.206,97.0,,26.4,5,,,,,,,,,,,,0,0,0,0,0,0,0,0,0,0,0,0,0,0,0,0,,,,,0.0,,,,,,
1433848,1745085160037,,,,,,,,,,,,,,,,,,,,,,,,,,,,,,,,,,0,0,0,0,0,0,0,0,0,0,0,0,0,0,0,0,,,,,,,,,,,
