"Interval"|"ms"|0|0|1,"Utc"|"ms"|0|0|1,"FrontBP"|"psi"|-5.0|5.0|25,"SteerAng"|"Degrees"|-145.0|145.0|25,"Battery"|"Volts"|-5.0|20.0|1,"AccelX"|"G"|-3.0|3.0|25,"AccelY"|"G"|-3.0|3.0|25,"AccelZ"|"G"|-3.0|3.0|25,"Yaw"|"Deg/Sec"|-120|120|25,"Pitch"|"Deg/Sec"|-120|120|25,"Roll"|"Deg/Sec"|-120|120|25,"Gsum"|"G"|0.0|3.0|25,"GsumMax"|"G"|0.0|3.0|25,"GsumPct"|"%"|0|100|25,"RPM"|""|0|10000|25,"TPS"|"%"|0.0|100.0|25,"InjectorPW"|"ms"|0.0|100.0|25,"Baro"|"kPa"|0|105|1,"MAP"|"Psi"|0.0|255.0|25,"Lambda"|""|-2.0|2.0|25,"IAT"|"C"|0.0|200.0|25,"EngineTemp"|"C"|0|200|1,"EOP"|"PSI"|0.0|152.0|25,"EOT"|"F"|0|250|25,"WSFR"|"MPH"|0|150|10,"WSFL"|"MPH"|0|100|10,"WSRR"|"MPH"|0|100|10,"WSRL"|""|0|100|10,"TCSet"|"%"|0.0|100.0|10,"TCSlip"|"%"|0.0|100.0|10,"TCComp"|"deg"|0.0|50.0|10,"TCCut"|"%"|0.0|100.0|10,"Analog8"|""|0.0|5.0|10,"OilTemp"|"F"|0|300|1,"AA_On"|""|0.0|1.0|1,"ThermLF1"|"C"|0|400|50,"ThermLF2"|"C"|0|400|50,"ThermRR1"|"C"|0|400|50,"ThermRR2"|"C"|0|400|50,"ThermLF3"|"C"|0|400|50,"ThermLF4"|"C"|0|400|50,"ThermLF5"|"C"|0|400|50,"ThermLF6"|"C"|0|400|50,"ThermLF7"|"C"|0|400|50,"ThermLF8"|"C"|0|400|50,"ThermRR3"|"C"|0|400|50,"ThermRR4"|"C"|0|400|50,"ThermRR5"|"C"|0|400|50,"ThermRR6"|"C"|0|400|50,"ThermRR7"|"C"|0|400|50,"ThermRR8"|"C"|0|400|50,"Gear"|""|1|6|10,"AA_On"|""|0.0|1.0|1,"AA_LowDrag"|""|0|1|1,"Fuel_Mix"|""|-10|10|1,"AA_Packages"|""|0.0|1000.0|25,"Latitude"|"Degrees"|-180.0|180.0|10,"Longitude"|"Degrees"|-180.0|180.0|10,"Speed"|"kph"|0.0|150.0|10,"GPSSats"|""|0|20|10,"GPSQual"|""|0|5|10,"GPSDOP"|""|0.0|20.0|10
445134,1745087567191,0.0,192.94,,-0.01,-0.01,1.01,-1,-0,0,1.01,1.01,100,3223,0.0,2.9,,12.63,0.948,100.6,,36.7,5,,,,,,,,,,,,0,0,0,0,0,0,0,0,0,0,0,0,0,0,0,0,,,,,0.0,,,,,,
445154,1745087567213,,,,,,,,,,,,,,,,,,,,,,,,,,,,,,,,,,0,0,0,0,0,0,0,0,0,0,0,0,0,0,0,0,,,,,,,,,,,
445174,1745087567233,0.0,193.06,,-0.02,-0.06,1.06,-1,-0,0,1.06,1.06,100,3223,0.0,2.9,,12.27,0.948,100.6,,33.0,5,,,,,,,,,,,,0,0,0,0,0,0,0,0,0,0,0,0,0,0,0,0,,,,,0.0,,,,,,
445194,1745087567253,,,,,,,,,,,,,,,,,,,,,,,,,,,,,,,,,,0,0,0,0,0,0,0,0,0,0,0,0,0,0,0,0,,,,,,,,,,,
445214,1745087567273,0.0,193.06,,-0.03,-0.07,1.09,-1,-0,0,1.09,1.09,100,3017,0.0,2.98,,12.13,0.949,100.6,,33.0,5,0,0,0,0,0.0,0.0,0.0,0.0,2.27,,,0,0,0,0,0,0,0,0,0,0,0,0,0,0,0,0,0,,,,0.0,39.23988,-77.965668,0.13,32,2,0.8
445234,1745087567293,,,,,,,,,,,,,,,,,,,,,,,,,,,,,,,,,,0,0,0,0,0,0,0,0,0,0,0,0,0,0,0,0,,,,,,,,,,,
445254,1745087567315,0.0,193.06,,-0.03,-0.03,1.05,-1,-0,1,1.05,1.09,97,2838,0.0,3.11,,12.11,0.95,100.6,,33.0,5,,,,,,,,,,,,0,0,0,0,0,0,0,0,0,0,0,0,0,0,0,0,,,,,0.0,,,,,,
445274,1745087567335,,,,,,,,,,,,,,,,,,,,,,,,,,,,,,,,,,0,0,0,0,0,0,0,0,0,0,0,0,0,0,0,0,,,,,,,,,,,
445294,1745087567355,0.0,193.06,,-0.03,-0.0,1.03,-1,-0,0,1.03,1.09,95,2760,0.0,3.11,,12.21,0.95,100.6,,29.3,5,,,,,,,,,,,,0,0,0,0,0,0,0,0,0,0,0,0,0,0,0,0,,,,,0.0,,,,,,
445314,1745087567375,,,,,,,,,,,,,,,,,,,,,,,0,0,0,0,0.0,0.0,0.0,0.0,2.27,,,0,0,0,0,0,0,0,0,0,0,0,0,0,0,0,0,0,,,,,39.23988,-77.965668,0.06,32,2,0.8
445334,1745087567395,0.0,193.06,,-0.03,-0.02,1.03,-0,-0,0,1.03,1.09,95,2616,8.8,4.1,,12.21,0.95,100.6,,29.3,5,,,,,,,,,,,,0,0,0,0,0,0,0,0,0,0,0,0,0,0,0,0,,,,,0.0,,,,,,
445354,1745087567414,,,,,,,,,,,,,,,,,,,,,,,,,,,,,,,,,,0,0,0,0,0,0,0,0,0,0,0,0,0,0,0,0,,,,,,,,,,,
445374,1745087567434,0.0,193.06,,-0.04,-0.03,1.03,-0,-0,0,1.03,1.09,95,2616,8.8,4.1,,12.99,0.953,100.6,,26.2,5,,,,,,,,,,,,0,0,0,0,0,0,0,0,0,0,0,0,0,0,0,0,,,,,0.0,,,,,,
445394,1745087567454,,,,,,,,,,,,,,,,,,,,,,,,,,,,,,,,,,0,0,0,0,0,0,0,0,0,0,0,0,0,0,0,0,,,,,,,,,,,
445414,1745087567474,0.0,193.06,13.35,-0.04,-0.02,1.02,-0,-0,0,1.02,1.09,94,2631,15.9,4.54,15,13.67,0.95,100.6,151,26.2,5,0,0,0,0,0.0,0.0,0.0,0.0,2.27,0,0.0,0,0,0,0,0,0,0,0,0,0,0,0,0,0,0,0,0,0.0,0,-0,0.0,39.23988,-77.965668,0.16,32,2,0.8
445434,1745087567494,,,,,,,,,,,,,,,,,,,,,,,,,,,,,,,,,,0,0,0,0,0,0,0,0,0,0,0,0,0,0,0,0,,,,,,,,,,,
445454,1745087567514,0.0,193.06,,-0.03,-0.03,1.03,-0,-0,0,1.03,1.09,94,2557,16.4,4.76,,13.87,0.95,100.6,,26.2,5,,,,,,,,,,,,0,0,0,0,0,0,0,0,0,0,0,0,0,0,0,0,,,,,0.0,,,,,,
445474,1745087567534,,,,,,,,,,,,,,,,,,,,,,,,,,,,,,,,,,0,0,0,0,0,0,0,0,0,0,0,0,0,0,0,0,,,,,,,,,,,
445494,1745087567554,0.0,192.94,,-0.04,-0.04,1.04,-0,-0,0,1.04,1.09,96,2537,2.7,4.05,,13.64,0.949,100.6,,25.4,5,,,,,,,,,,,,0,0,0,0,0,0,0,0,0,0,0,0,0,0,0,0,,,,,0.0,,,,,,
445514,1745087567574,,,,,,,,,,,,,,,,,,,,,,,0,0,0,0,0.0,0.0,0.0,0.0,2.27,,,0,0,0,0,0,0,0,0,0,0,0,0,0,0,0,0,0,,,,,39.23988,-77.965668,0.16,32,2,0.8
445534,1745087567594,0.0,193.06,,-0.04,-0.04,1.05,-0,-0,0,1.05,1.09,97,2732,0.0,3.19,,13.64,0.949,100.6,,25.4,5,,,,,,,,,,,,0,0,0,0,0,0,0,0,0,0,0,0,0,0,0,0,,,,,0.0,,,,,,
445554,1745087567614,,,,,,,,,,,,,,,,,,,,,,,,,,,,,,,,,,0,0,0,0,0,0,0,0,0,0,0,0,0,0,0,0,,,,,,,,,,,
445574,1745087567634,0.0,192.94,,-0.04,0.01,1.0,-0,-0,0,1.0,1.09,92,2732,0.0,3.19,,13.13,0.949,100.6,,28.2,5,,,,,,,,,,,,0,0,0,0,0,0,0,0,0,0,0,0,0,0,0,0,,,,,0.0,,,,,,
445594,1745087567654,,,,,,,,,,,,,,,,,,,,,,,,,,,,,,,,,,0,0,0,0,0,0,0,0,0,0,0,0,0,0,0,0,,,,,,,,,,,
445614,1745087567674,0.0,192.94,,-0.04,-0.01,1.02,-0,-0,0,1.02,1.09,94,2754,0.0,3.13,,12.83,0.95,100.6,,28.2,5,0,0,0,0,0.0,0.0,0.0,0.0,2.27,,,0,0,0,0,0,0,0,0,0,0,0,0,0,0,0,0,0,,,,0.0,39.23988,-77.965668,0.0,32,2,0.8
445634,1745087567694,,,,,,,,,,,,,,,,,,,,,,,,,,,,,,,,,,0,0,0,0,0,0,0,0,0,0,0,0,0,0,0,0,,,,,,,,,,,
445654,1745087567714,0.0,192.94,,-0.05,-0.02,1.0,-0,-0,0,1.0,1.09,92,2682,0.0,3.13,,12.75,0.95,100.6,,28.2,5,,,,,,,,,,,,0,0,0,0,0,0,0,0,0,0,0,0,0,0,0,0,,,,,0.0,,,,,,
445674,1745087567734,,,,,,,,,,,,,,,,,,,,,,,,,,,,,,,,,,0,0,0,0,0,0,0,0,0,0,0,0,0,0,0,0,,,,,,,,,,,
445694,1745087567754,0.0,192.94,,-0.05,-0.01,1.01,-0,-0,0,1.01,1.09,93,2451,19.3,4.86,,13.76,0.95,100.6,,26.6,5,,,,,,,,,,,,0,0,0,0,0,0,0,0,0,0,0,0,0,0,0,0,,,,,0.0,,,,,,
445714,1745087567774,,,,,,,,,,,,,,,,,,,,,,,0,0,0,0,0.0,0.0,0.0,0.0,2.27,,,0,0,0,0,0,0,0,0,0,0,0,0,0,0,0,0,0,,,,,39.23988,-77.965668,0.08,32,2,0.8
445734,1745087567794,0.0,192.94,,-0.06,-0.01,1.0,-0,-0,0,1.0,1.09,92,2552,20.0,5.32,,13.76,0.95,100.6,,26.6,5,,,,,,,,,,,,0,0,0,0,0,0,0,0,0,0,0,0,0,0,0,0,,,,,0.0,,,,,,
445754,1745087567812,,,,,,,,,,,,,,,,,,,,,,,,,,,,,,,,,,0,0,0,0,0,0,0,0,0,0,0,0,0,0,0,0,,,,,,,,,,,
445774,1745087567832,0.0,192.94,,-0.05,0.02,0.99,-0,-0,0,0.99,1.09,91,2552,20.0,5.32,,13.92,0.952,100.6,,25.6,5,,,,,,,,,,,,0,0,0,0,0,0,0,0,0,0,0,0,0,0,0,0,,,,,0.0,,,,,,
445794,1745087567852,,,,,,,,,,,,,,,,,,,,,,,,,,,,,,,,,,0,0,0,0,0,0,0,0,0,0,0,0,0,0,0,0,,,,,,,,,,,
445814,1745087567872,0.0,192.94,,-0.05,0.0,1.0,-0,-0,0,1.0,1.09,92,2435,17.1,4.94,,13.9,0.95,100.6,,25.6,5,0,0,0,0,0.0,0.0,0.0,0.0,2.27,,,0,0,0,0,0,0,0,0,0,0,0,0,0,0,0,0,0,,,,0.0,39.23988,-77.965668,0.09,32,2,0.8
445834,1745087567892,,,,,,,,,,,,,,,,,,,,,,,,,,,,,,,,,,0,0,0,0,0,0,0,0,0,0,0,0,0,0,0,0,,,,,,,,,,,
445854,1745087567912,0.0,192.94,,-0.06,-0.0,0.99,-0,-0,0,0.99,1.09,91,2624,0.0,3.25,,13.35,0.95,100.6,,25.6,5,,,,,,,,,,,,0,0,0,0,0,0,0,0,0,0,0,0,0,0,0,0,,,,,0.0,,,,,,
445874,1745087567932,,,,,,,,,,,,,,,,,,,,,,,,,,,,,,,,,,0,0,0,0,0,0,0,0,0,0,0,0,0,0,0,0,,,,,,,,,,,
445894,1745087567952,0.0,192.94,,-0.05,-0.01,1.0,-0,-0,0,1.0,1.09,92,2582,0.0,3.22,,13.05,0.95,100.6,,25.3,5,,,,,,,,,,,,0,0,0,0,0,0,0,0,0,0,0,0,0,0,0,0,,,,,0.0,,,,,,
445914,1745087567972,,,,,,,,,,,,,,,,,,,,,,,0,0,0,0,0.0,0.0,0.0,0.0,2.27,,,0,0,0,0,0,0,0,0,0,0,0,0,0,0,0,0,0,,,,,39.23988,-77.965668,0.04,32,2,0.8
445934,1745087567992,0.0,192.94,,-0.05,-0.03,1.01,0,-0,-0,1.01,1.09,93,2585,2.5,3.24,,13.05,0.95,100.6,,25.3,5,,,,,,,,,,,,0,0,0,0,0,0,0,0,0,0,0,0,0,0,0,0,,,,,0.0,,,,,,
445954,1745087568004,,,,,,,,,,,,,,,,,,,,,,,,,,,,,,,,,,0,0,0,0,0,0,0,0,0,0,0,0,0,0,0,0,,,,,,,,,,,
445974,1745087568024,0.0,192.94,,-0.06,-0.03,1.0,0,-0,-0,1.0,1.09,92,2585,2.5,3.24,,13.05,0.95,100.6,,25.9,5,,,,,,,,,,,,0,0,0,0,0,0,0,0,0,0,0,0,0,0,0,0,,,,,0.0,,,,,,
445994,1745087568044,,,,,,,,,,,,,,,,,,,,,,,,,,,,,,,,,,0,0,0,0,0,0,0,0,0,0,0,0,0,0,0,0,,,,,,,,,,,
446014,1745087568064,0.0,192.94,,-0.06,-0.03,0.99,0,-0,0,0.99,1.09,91,2532,22.8,5.33,,13.9,0.949,100.6,,25.9,5,0,0,0,0,0.0,0.0,0.0,0.0,2.27,,,0,0,0,0,0,0,0,0,0,0,0,0,0,0,0,0,0,,,,0.0,39.23988,-77.965668,0.13,34,2,0.8
446034,1745087568084,,,,,,,,,,,,,,,,,,,,,,,,,,,,,,,,,,0,0,0,0,0,0,0,0,0,0,0,0,0,0,0,0,,,,,,,,,,,
446054,1745087568108,0.0,193.06,,-0.07,-0.02,0.99,0,-0,-0,0.99,1.09,91,2429,30.3,5.11,,14.16,0.949,100.6,,25.9,5,,,,,,,,,,,,0,0,0,0,0,0,0,0,0,0,0,0,0,0,0,0,,,,,0.0,,,,,,
446074,1745087568128,,,,,,,,,,,,,,,,,,,,,,,,,,,,,,,,,,0,0,0,0,0,0,0,0,0,0,0,0,0,0,0,0,,,,,,,,,,,
446094,1745087568148,0.0,192.94,,-0.03,-0.01,1.04,-0,-0,0,1.04,1.09,96,3007,31.3,4.86,,14.16,0.95,100.6,,26.0,5,,,,,,,,,,,,0,0,0,0,0,0,0,0,0,0,0,0,0,0,0,0,,,,,0.0,,,,,,
446114,1745087568168,,,,,,,,,,,,,,,,,,,,,,,0,0,0,0,0.0,0.0,0.0,0.0,2.27,,,0,0,0,0,0,0,0,0,0,0,0,0,0,0,0,0,0,,,,,39.23988,-77.965668,0.06,34,2,0.8
446134,1745087568188,0.0,192.94,,-0.04,0.0,1.04,-1,-0,1,1.04,1.09,96,3003,2.4,3.84,,14.16,0.95,100.6,,26.0,5,,,,,,,,,,,,0,0,0,0,0,0,0,0,0,0,0,0,0,0,0,0,,,,,0.0,,,,,,
446154,1745087568214,,,,,,,,,,,,,,,,,,,,,,,,,,,,,,,,,,0,0,0,0,0,0,0,0,0,0,0,0,0,0,0,0,,,,,,,,,,,
446174,1745087568234,0.0,192.94,,-0.03,0.03,1.03,-1,-0,1,1.03,1.09,95,3003,2.4,3.84,,13.6,0.95,100.6,,30.3,5,,,,,,,,,,,,0,0,0,0,0,0,0,0,0,0,0,0,0,0,0,0,,,,,0.0,,,,,,
446194,1745087568254,,,,,,,,,,,,,,,,,,,,,,,,,,,,,,,,,,0,0,0,0,0,0,0,0,0,0,0,0,0,0,0,0,,,,,,,,,,,
446214,1745087568274,0.0,192.94,,-0.04,0.03,1.0,-1,-0,1,1.0,1.09,92,2864,0.0,3.13,,13.04,0.951,100.6,,30.3,5,0,0,0,0,0.0,0.0,0.0,0.0,2.27,,,0,0,0,0,0,0,0,0,0,0,0,0,0,0,0,0,0,,,,0.0,39.23988,-77.965668,0.04,34,2,0.8
446234,1745087568294,,,,,,,,,,,,,,,,,,,,,,,,,,,,,,,,,,0,0,0,0,0,0,0,0,0,0,0,0,0,0,0,0,,,,,,,,,,,
446254,1745087568314,0.0,193.06,,-0.07,-0.02,1.04,-0,-0,0,1.04,1.09,96,2722,0.0,3.15,,12.84,0.952,100.6,,30.3,5,,,,,,,,,,,,0,0,0,0,0,0,0,0,0,0,0,0,0,0,0,0,,,,,0.0,,,,,,
446274,1745087568334,,,,,,,,,,,,,,,,,,,,,,,,,,,,,,,,,,0,0,0,0,0,0,0,0,0,0,0,0,0,0,0,0,,,,,,,,,,,
446294,1745087568354,0.0,192.94,,-0.08,-0.07,1.1,-0,-0,0,1.11,1.11,100,2983,0.0,3.16,,12.57,0.952,100.6,,28.2,5,,,,,,,,,,,,0,0,0,0,0,0,0,0,0,0,0,0,0,0,0,0,,,,,0.0,,,,,,
446314,1745087568374,,,,,,,,,,,,,,,,,,,,,,,0,0,0,0,0.0,0.0,0.0,0.0,2.27,,,0,0,0,0,0,0,0,0,0,0,0,0,0,0,0,0,0,,,,,39.23988,-77.965668,0.04,34,2,0.8
446334,1745087568394,0.0,193.06,,-0.08,-0.1,1.15,-1,-0,0,1.16,1.16,100,2924,1.0,3.12,,12.57,0.952,100.6,,28.2,5,,,,,,,,,,,,0,0,0,0,0,0,0,0,0,0,0,0,0,0,0,0,,,,,0.0,,,,,,
446354,1745087568413,,,,,,,,,,,,,,,,,,,,,,,,,,,,,,,,,,0,0,0,0,0,0,0,0,0,0,0,0,0,0,0,0,,,,,,,,,,,
446374,1745087568433,0.0,193.06,,-0.07,-0.14,1.2,-1,-0,1,1.21,1.21,100,2924,1.0,3.12,,12.65,0.951,100.6,,30.4,5,,,,,,,,,,,,0,0,0,0,0,0,0,0,0,0,0,0,0,0,0,0,,,,,0.0,,,,,,
446394,1745087568453,,,,,,,,,,,,,,,,,,,,,,,,,,,,,,,,,,0,0,0,0,0,0,0,0,0,0,0,0,0,0,0,0,,,,,,,,,,,
446414,1745087568473,0.0,193.06,13.42,-0.07,-0.12,1.18,-1,-0,1,1.18,1.21,98,2956,1.4,3.44,15,12.79,0.951,100.6,149,30.4,5,0,0,0,0,0.0,0.0,0.0,0.0,2.27,0,0.0,0,0,0,0,0,0,0,0,0,0,0,0,0,0,0,0,0,0.0,0,-0,0.0,39.23988,-77.965668,0.07,34,2,0.8
446434,1745087568493,,,,,,,,,,,,,,,,,,,,,,,,,,,,,,,,,,0,0,0,0,0,0,0,0,0,0,0,0,0,0,0,0,,,,,,,,,,,
446454,1745087568513,0.0,193.06,,-0.06,-0.05,1.11,-1,-0,1,1.12,1.21,92,2834,0.0,3.13,,12.59,0.952,100.6,,30.4,5,,,,,,,,,,,,0,0,0,0,0,0,0,0,0,0,0,0,0,0,0,0,,,,,0.0,,,,,,
446474,1745087568533,,,,,,,,,,,,,,,,,,,,,,,,,,,,,,,,,,0,0,0,0,0,0,0,0,0,0,0,0,0,0,0,0,,,,,,,,,,,
446494,1745087568553,0.0,193.06,,-0.04,-0.03,1.05,-1,-0,1,1.05,1.21,87,2899,0.0,3.12,,12.43,0.953,100.6,,30.2,5,,,,,,,,,,,,0,0,0,0,0,0,0,0,0,0,0,0,0,0,0,0,,,,,0.0,,,,,,
446514,1745087568573,,,,,,,,,,,,,,,,,,,,,,,0,0,0,0,0.0,0.0,0.0,0.0,2.27,,,0,0,0,0,0,0,0,0,0,0,0,0,0,0,0,0,0,,,,,39.23988,-77.965668,0.04,34,2,0.8
446534,1745087568593,0.0,193.06,,-0.05,-0.03,1.06,-1,-0,1,1.06,1.21,88,2730,0.0,3.17,,12.43,0.953,100.6,,30.2,5,,,,,,,,,,,,0,0,0,0,0,0,0,0,0,0,0,0,0,0,0,0,,,,,0.0,,,,,,
446554,1745087568613,,,,,,,,,,,,,,,,,,,,,,,,,,,,,,,,,,0,0,0,0,0,0,0,0,0,0,0,0,0,0,0,0,,,,,,,,,,,
446574,1745087568633,0.0,193.06,,-0.06,-0.01,1.04,-1,-0,1,1.04,1.21,86,2730,0.0,3.17,,12.43,0.953,100.6,,27.4,5,,,,,,,,,,,,0,0,0,0,0,0,0,0,0,0,0,0,0,0,0,0,,,,,0.0,,,,,,
446594,1745087568653,,,,,,,,,,,,,,,,,,,,,,,,,,,,,,,,,,0,0,0,0,0,0,0,0,0,0,0,0,0,0,0,0,,,,,,,,,,,
446614,1745087568673,0.0,192.94,,-0.05,-0.01,1.02,-1,-0,1,1.02,1.21,85,2517,0.0,3.24,,12.57,0.953,100.6,,27.4,5,0,0,0,0,0.0,0.0,0.0,0.0,2.26,,,0,0,0,0,0,0,0,0,0,0,0,0,0,0,0,0,0,,,,0.0,39.23988,-77.965668,0.08,34,2,0.8
446634,1745087568693,,,,,,,,,,,,,,,,,,,,,,,,,,,,,,,,,,0,0,0,0,0,0,0,0,0,0,0,0,0,0,0,0,,,,,,,,,,,
446654,1745087568713,0.0,192.94,,-0.06,-0.02,1.02,-1,-0,1,1.02,1.21,85,2352,3.3,3.99,,13.11,0.954,100.6,,27.4,5,,,,,,,,,,,,0,0,0,0,0,0,0,0,0,0,0,0,0,0,0,0,,,,,0.0,,,,,,
446674,1745087568733,,,,,,,,,,,,,,,,,,,,,,,,,,,,,,,,,,0,0,0,0,0,0,0,0,0,0,0,0,0,0,0,0,,,,,,,,,,,
446694,1745087568753,0.0,193.06,,-0.06,-0.03,1.03,-0,-0,1,1.03,1.21,86,2432,3.2,3.98,,13.32,0.954,100.6,,23.0,5,,,,,,,,,,,,0,0,0,0,0,0,0,0,0,0,0,0,0,0,0,0,,,,,0.0,,,,,,
446714,1745087568773,,,,,,,,,,,,,,,,,,,,,,,0,0,0,0,0.0,0.0,0.0,0.0,2.27,,,0,0,0,0,0,0,0,0,0,0,0,0,0,0,0,0,0,,,,,39.23988,-77.965668,0.06,34,2,0.8
446734,1745087568793,0.0,193.06,,-0.04,0.01,1.02,-0,-0,0,1.02,1.21,84,2522,0.0,3.33,,13.32,0.954,100.6,,23.0,5,,,,,,,,,,,,0,0,0,0,0,0,0,0,0,0,0,0,0,0,0,0,,,,,0.0,,,,,,
446754,1745087568813,,,,,,,,,,,,,,,,,,,,,,,,,,,,,,,,,,0,0,0,0,0,0,0,0,0,0,0,0,0,0,0,0,,,,,,,,,,,
446774,1745087568833,0.0,193.06,,-0.05,0.0,1.02,-0,-0,0,1.02,1.21,84,2522,0.0,3.33,,13.09,0.954,100.6,,24.9,5,,,,,,,,,,,,0,0,0,0,0,0,0,0,0,0,0,0,0,0,0,0,,,,,0.0,,,,,,
446794,1745087568853,,,,,,,,,,,,,,,,,,,,,,,,,,,,,,,,,,0,0,0,0,0,0,0,0,0,0,0,0,0,0,0,0,,,,,,,,,,,
446814,1745087568873,0.0,192.94,,-0.03,0.01,0.99,-0,-0,0,0.99,1.21,82,2418,1.2,3.32,,13.15,0.954,100.6,,24.9,5,0,0,0,0,0.0,0.0,0.0,0.0,2.27,,,0,0,0,0,0,0,0,0,0,0,0,0,0,0,0,0,0,,,,0.0,39.23988,-77.965668,0.04,34,2,0.8
446834,1745087568893,,,,,,,,,,,,,,,,,,,,,,,,,,,,,,,,,,0,0,0,0,0,0,0,0,0,0,0,0,0,0,0,0,,,,,,,,,,,
446854,1745087568913,0.0,193.06,,-0.04,0.03,0.99,-0,-0,0,0.99,1.21,82,2393,19.4,5.17,,13.87,0.955,100.6,,24.9,5,,,,,,,,,,,,0,0,0,0,0,0,0,0,0,0,0,0,0,0,0,0,,,,,0.0,,,,,,
446874,1745087568933,,,,,,,,,,,,,,,,,,,,,,,,,,,,,,,,,,0,0,0,0,0,0,0,0,0,0,0,0,0,0,0,0,,,,,,,,,,,
446894,1745087568953,0.0,193.19,,-0.05,0.03,0.98,-0,-0,0,0.99,1.21,82,2327,22.2,4.83,,14.1,0.954,100.6,,23.8,5,,,,,,,,,,,,0,0,0,0,0,0,0,0,0,0,0,0,0,0,0,0,,,,,0.0,,,,,,
446914,1745087568973,,,,,,,,,,,,,,,,,,,,,,,0,0,0,0,0.0,0.0,0.0,0.0,2.27,,,0,0,0,0,0,0,0,0,0,0,0,0,0,0,0,0,0,,,,,39.23988,-77.965668,0.05,34,2,0.8
446934,1745087568993,0.0,193.06,,-0.04,0.02,0.98,-0,-0,0,0.98,1.21,81,2318,22.3,4.81,,14.1,0.954,100.6,,23.8,5,,,,,,,,,,,,0,0,0,0,0,0,0,0,0,0,0,0,0,0,0,0,,,,,0.0,,,,,,
446954,1745087569005,,,,,,,,,,,,,,,,,,,,,,,,,,,,,,,,,,0,0,0,0,0,0,0,0,0,0,0,0,0,0,0,0,,,,,,,,,,,
446974,1745087569025,0.0,193.06,,-0.04,0.01,0.99,-0,-0,0,0.99,1.21,82,2318,22.3,4.81,,14.08,0.954,100.6,,22.2,5,,,,,,,,,,,,0,0,0,0,0,0,0,0,0,0,0,0,0,0,0,0,,,,,0.0,,,,,,
446994,1745087569045,,,,,,,,,,,,,,,,,,,,,,,,,,,,,,,,,,0,0,0,0,0,0,0,0,0,0,0,0,0,0,0,0,,,,,,,,,,,
447014,1745087569065,0.0,193.06,,-0.06,0.01,0.99,-0,-0,0,0.99,1.21,82,2167,22.2,4.83,,14.06,0.954,100.6,,22.2,5,0,0,0,0,0.0,0.0,0.0,0.0,2.27,,,0,0,0,0,0,0,0,0,0,0,0,0,0,0,0,0,0,,,,0.0,39.23988,-77.965668,0.04,33,2,0.8
447034,1745087569085,,,,,,,,,,,,,,,,,,,,,,,,,,,,,,,,,,0,0,0,0,0,0,0,0,0,0,0,0,0,0,0,0,,,,,,,,,,,
447054,1745087569113,0.0,193.19,,-0.06,0.02,0.98,-0,-0,0,0.99,1.21,82,2151,0.0,3.46,,13.64,0.955,100.6,,22.2,5,,,,,,,,,,,,0,0,0,0,0,0,0,0,0,0,0,0,0,0,0,0,,,,,0.0,,,,,,
447074,1745087569133,,,,,,,,,,,,,,,,,,,,,,,,,,,,,,,,,,0,0,0,0,0,0,0,0,0,0,0,0,0,0,0,0,,,,,,,,,,,
447094,1745087569153,0.0,193.31,,-0.06,-0.0,0.98,0,-0,-0,0.98,1.21,81,2140,0.0,3.43,,13.41,0.955,100.6,,22.2,5,,,,,,,,,,,,0,0,0,0,0,0,0,0,0,0,0,0,0,0,0,0,,,,,0.0,,,,,,
447114,1745087569173,,,,,,,,,,,,,,,,,,,,,,,0,0,0,0,0.0,0.0,0.0,0.0,2.26,,,0,0,0,0,0,0,0,0,0,0,0,0,0,0,0,0,0,,,,,39.23988,-77.965668,0.04,33,2,0.8
447134,1745087569193,0.0,193.31,,-0.04,0.0,0.98,-0,-0,0,0.98,1.21,81,2125,0.0,3.41,,13.41,0.955,100.6,,22.2,5,,,,,,,,,,,,0,0,0,0,0,0,0,0,0,0,0,0,0,0,0,0,,,,,0.0,,,,,,
447254,1745087569313,0.0,193.19,,-0.03,0.02,0.98,-0,-0,0,0.98,1.21,81,2030,20.1,4.47,,14.14,0.958,100.6,,21.8,5,,,,,,,,,,,,0,0,0,0,0,0,0,0,0,0,0,0,0,0,0,0,,,,,0.0,,,,,,
447434,1745087569494,,,,,,,,,,,,,,,,,,,,,,,,,,,,,,,,,,0,0,0,0,0,0,0,0,0,0,0,0,0,0,0,0,,,,,,,,,,,
447454,1745087569512,0.0,193.44,,-0.05,-0.03,0.98,-1,-0,-0,0.98,1.21,81,2325,34.6,4.63,,14.22,0.958,100.6,,21.5,5,,,,,,,,,,,,0,0,0,0,0,0,0,0,0,0,0,0,0,0,0,0,,,,,0.0,,,,,,
447514,1745087569572,,,,,,,,,,,,,,,,,,,,,,,0,0,0,0,0.0,0.0,0.0,0.0,2.27,,,0,0,0,0,0,0,0,0,0,0,0,0,0,0,0,0,0,,,,,39.23988,-77.965668,0.05,33,2,0.8
447534,1745087569592,0.0,193.31,,-0.05,-0.02,1.02,-1,-0,0,1.02,1.21,85,2961,0.0,3.29,,13.94,0.96,100.6,,22.8,5,,,,,,,,,,,,0,0,0,0,0,0,0,0,0,0,0,0,0,0,0,0,,,,,0.0,,,,,,
447614,1745087569672,0.0,193.56,,-0.02,0.08,0.95,-1,-0,1,0.96,1.21,79,2957,0.0,3.14,,12.95,0.961,100.6,,29.2,5,0,0,0,0,0.0,0.0,0.0,0.0,2.27,,,0,0,0,0,0,0,0,0,0,0,0,0,0,0,0,0,0,,,,0.0,39.23988,-77.965668,0.04,33,2,0.8
447634,1745087569692,,,,,,,,,,,,,,,,,,,,,,,,,,,,,,,,,,0,0,0,0,0,0,0,0,0,0,0,0,0,0,0,0,,,,,,,,,,,
447654,1745087569712,0.0,193.56,,-0.0,0.1,0.9,-1,-0,0,0.91,1.21,75,2850,17.1,5.08,,13.57,0.962,100.6,,29.2,5,,,,,,,,,,,,0,0,0,0,0,0,0,0,0,0,0,0,0,0,0,0,,,,,0.0,,,,,,
447674,1745087569732,,,,,,,,,,,,,,,,,,,,,,,,,,,,,,,,,,0,0,0,0,0,0,0,0,0,0,0,0,0,0,0,0,,,,,,,,,,,
447694,1745087569752,0.0,193.56,,0.01,0.14,0.92,-1,-0,1,0.93,1.21,77,3354,19.4,5.2,,13.8,0.962,100.6,,30.1,5,,,,,,,,,,,,0,0,0,0,0,0,0,0,0,0,0,0,0,0,0,0,,,,,0.0,,,,,,
447714,1745087569772,,,,,,,,,,,,,,,,,,,,,,,0,0,0,0,0.0,0.0,0.0,0.0,2.27,,,0,0,0,0,0,0,0,0,0,0,0,0,0,0,0,0,0,,,,,39.23988,-77.965668,0.0,33,2,0.8
447734,1745087569792,0.0,193.56,,0.0,0.13,0.88,-1,-0,1,0.89,1.21,74,3574,8.6,4.26,,13.8,0.962,100.6,,30.1,5,,,,,,,,,,,,0,0,0,0,0,0,0,0,0,0,0,0,0,0,0,0,,,,,0.0,,,,,,
447754,1745087569812,,,,,,,,,,,,,,,,,,,,,,,,,,,,,,,,,,0,0,0,0,0,0,0,0,0,0,0,0,0,0,0,0,,,,,,,,,,,
447774,1745087569832,0.0,193.44,,-0.03,0.08,0.9,-0,-0,0,0.9,1.21,75,3574,8.6,4.26,,13.45,0.963,100.6,,38.5,5,,,,,,,,,,,,0,0,0,0,0,0,0,0,0,0,0,0,0,0,0,0,,,,,0.0,,,,,,
447794,1745087569852,,,,,,,,,,,,,,,,,,,,,,,,,,,,,,,,,,0,0,0,0,0,0,0,0,0,0,0,0,0,0,0,0,,,,,,,,,,,
447814,1745087569872,0.0,193.44,,-0.03,0.09,0.91,-0,-0,0,0.91,1.21,75,3767,0.0,2.79,,12.61,0.963,100.6,,38.5,5,0,0,0,0,0.0,0.0,0.0,0.0,2.27,,,0,0,0,0,0,0,0,0,0,0,0,0,0,0,0,0,0,,,,0.0,39.23988,-77.965668,0.04,33,2,0.8
447834,1745087569892,,,,,,,,,,,,,,,,,,,,,,,,,,,,,,,,,,0,0,0,0,0,0,0,0,0,0,0,0,0,0,0,0,,,,,,,,,,,
447854,1745087569914,0.0,193.44,,-0.04,0.07,0.89,0,-0,0,0.89,1.21,74,3709,0.0,2.72,,12.11,0.964,100.6,,38.5,5,,,,,,,,,,,,0,0,0,0,0,0,0,0,0,0,0,0,0,0,0,0,,,,,0.0,,,,,,
447874,1745087569934,,,,,,,,,,,,,,,,,,,,,,,,,,,,,,,,,,0,0,0,0,0,0,0,0,0,0,0,0,0,0,0,0,,,,,,,,,,,
447894,1745087569954,0.0,193.31,,-0.05,0.02,0.95,-0,-0,0,0.95,1.21,79,3575,0.0,2.77,,11.79,0.965,100.6,,38.9,5,,,,,,,,,,,,0,0,0,0,0,0,0,0,0,0,0,0,0,0,0,0,,,,,0.0,,,,,,
447914,1745087569974,,,,,,,,,,,,,,,,,,,,,,,0,0,0,0,0.0,0.0,0.0,0.0,2.27,,,0,0,0,0,0,0,0,0,0,0,0,0,0,0,0,0,0,,,,,39.23988,-77.965668,0.11,33,2,0.8
447934,1745087569994,0.0,193.31,,-0.02,0.15,0.94,1,-0,0,0.96,1.21,79,3412,0.0,2.82,,11.79,0.965,100.6,,38.9,5,,,,,,,,,,,,0,0,0,0,0,0,0,0,0,0,0,0,0,0,0,0,,,,,0.0,,,,,,
447954,1745087570006,,,,,,,,,,,,,,,,,,,,,,,,,,,,,,,,,,0,0,0,0,0,0,0,0,0,0,0,0,0,0,0,0,,,,,,,,,,,
447974,1745087570026,0.0,193.31,,-0.01,0.04,0.95,-0,-0,-0,0.95,1.21,78,3412,0.0,2.82,,11.72,0.968,100.6,,35.7,5,,,,,,,,,,,,0,0,0,0,0,0,0,0,0,0,0,0,0,0,0,0,,,,,0.0,,,,,,
447994,1745087570046,,,,,,,,,,,,,,,,,,,,,,,,,,,,,,,,,,0,0,0,0,0,0,0,0,0,0,0,0,0,0,0,0,,,,,,,,,,,
448014,1745087570066,0.0,193.31,,-0.03,0.08,0.99,2,-0,0,0.99,1.21,82,3461,0.0,2.85,,11.81,0.969,100.6,,35.7,5,0,0,0,0,0.0,0.0,0.0,0.0,2.26,,,0,0,0,0,0,0,0,0,0,0,0,0,0,0,0,0,0,,,,0.0,39.23988,-77.965668,0.11,32,2,0.8
448034,1745087570086,,,,,,,,,,,,,,,,,,,,,,,,,,,,,,,,,,0,0,0,0,0,0,0,0,0,0,0,0,0,0,0,0,,,,,,,,,,,
448054,1745087570110,0.0,193.19,,-0.01,-0.04,1.0,-0,-0,-0,1.0,1.21,83,3362,7.2,4.31,,12.37,0.969,100.6,,35.7,5,,,,,,,,,,,,0,0,0,0,0,0,0,0,0,0,0,0,0,0,0,0,,,,,0.0,,,,,,
448074,1745087570130,,,,,,,,,,,,,,,,,,,,,,,,,,,,,,,,,,0,0,0,0,0,0,0,0,0,0,0,0,0,0,0,0,,,,,,,,,,,
448094,1745087570150,0.0,193.31,,-0.03,0.07,0.94,-1,-0,0,0.95,1.21,78,3195,11.6,4.45,,13.05,0.969,100.6,,34.4,5,,,,,,,,,,,,0,0,0,0,0,0,0,0,0,0,0,0,0,0,0,0,,,,,0.0,,,,,,
448114,1745087570170,,,,,,,,,,,,,,,,,,,,,,,0,0,0,0,0.0,0.0,0.0,0.0,2.27,,,0,0,0,0,0,0,0,0,0,0,0,0,0,0,0,0,0,,,,,39.23988,-77.965668,0.04,32,2,0.8
448134,1745087570190,0.0,193.31,,-0.03,0.05,1.01,2,-0,0,1.01,1.21,84,3355,12.6,4.57,,13.05,0.969,100.6,,34.4,5,,,,,,,,,,,,0,0,0,0,0,0,0,0,0,0,0,0,0,0,0,0,,,,,0.0,,,,,,
448154,1745087570214,,,,,,,,,,,,,,,,,,,,,,,,,,,,,,,,,,0,0,0,0,0,0,0,0,0,0,0,0,0,0,0,0,,,,,,,,,,,
448174,1745087570234,0.0,193.31,,-0.03,0.07,0.95,-1,-0,0,0.95,1.21,79,3355,12.6,4.57,,13.37,0.97,100.6,,34.8,5,,,,,,,,,,,,0,0,0,0,0,0,0,0,0,0,0,0,0,0,0,0,,,,,0.0,,,,,,
448194,1745087570254,,,,,,,,,,,,,,,,,,,,,,,,,,,,,,,,,,0,0,0,0,0,0,0,0,0,0,0,0,0,0,0,0,,,,,,,,,,,
448214,1745087570274,0.0,193.31,,-0.03,0.05,1.03,1,-0,0,1.03,1.21,85,3404,7.1,4.26,,13.32,0.97,100.6,,34.8,5,0,0,0,0,0.0,0.0,0.0,0.0,2.27,,,0,0,0,0,0,0,0,0,0,0,0,0,0,0,0,0,0,,,,0.0,39.23988,-77.965668,0.07,32,2,0.8
448234,1745087570294,,,,,,,,,,,,,,,,,,,,,,,,,,,,,,,,,,0,0,0,0,0,0,0,0,0,0,0,0,0,0,0,0,,,,,,,,,,,
448254,1745087570312,0.0,193.31,,-0.02,0.04,0.96,-1,-0,0,0.96,1.21,79,3308,0.0,2.91,,12.69,0.972,100.6,,34.8,5,,,,,,,,,,,,0,0,0,0,0,0,0,0,0,0,0,0,0,0,0,0,,,,,0.0,,,,,,
448274,1745087570332,,,,,,,,,,,,,,,,,,,,,,,,,,,,,,,,,,0,0,0,0,0,0,0,0,0,0,0,0,0,0,0,0,,,,,,,,,,,
448294,1745087570352,0.0,193.19,,-0.04,-0.01,1.03,-1,-0,1,1.03,1.21,85,3407,0.0,2.86,,12.28,0.972,100.6,,35.7,5,,,,,,,,,,,,0,0,0,0,0,0,0,0,0,0,0,0,0,0,0,0,,,,,0.0,,,,,,
448314,1745087570372,,,,,,,,,,,,,,,,,,,,,,,0,0,0,0,0.0,0.0,0.0,0.0,2.27,,,0,0,0,0,0,0,0,0,0,0,0,0,0,0,0,0,0,,,,,39.23988,-77.965668,0.04,32,2,0.8
448334,1745087570392,0.0,193.19,,-0.05,-0.03,0.96,-1,-0,0,0.97,1.21,80,3242,0.0,2.9,,12.28,0.972,100.6,,35.7,5,,,,,,,,,,,,0,0,0,0,0,0,0,0,0,0,0,0,0,0,0,0,,,,,0.0,,,,,,
448354,1745087570413,,,,,,,,,,,,,,,,,,,,,,,,,,,,,,,,,,0,0,0,0,0,0,0,0,0,0,0,0,0,0,0,0,,,,,,,,,,,
448374,1745087570433,0.0,193.19,,-0.02,0.05,0.9,-0,-0,-0,0.9,1.21,75,3242,0.0,2.9,,12.11,0.973,100.6,,33.1,5,,,,,,,,,,,,0,0,0,0,0,0,0,0,0,0,0,0,0,0,0,0,,,,,0.0,,,,,,
448394,1745087570453,,,,,,,,,,,,,,,,,,,,,,,,,,,,,,,,,,0,0,0,0,0,0,0,0,0,0,0,0,0,0,0,0,,,,,,,,,,,
448414,1745087570473,0.0,193.19,13.49,0.0,0.1,0.88,-0,-0,0,0.89,1.21,74,3096,0.0,2.97,15,12.07,0.974,100.6,142,33.1,5,0,0,0,0,0.0,0.0,0.0,0.0,2.27,0,0.0,0,0,0,0,0,0,0,0,0,0,0,0,0,0,0,0,0,0.0,0,-0,0.0,39.23988,-77.965668,0.05,32,2,0.8
448434,1745087570493,,,,,,,,,,,,,,,,,,,,,,,,,,,,,,,,,,0,0,0,0,0,0,0,0,0,0,0,0,0,0,0,0,,,,,,,,,,,
448454,1745087570513,0.0,193.31,,0.01,0.12,0.86,-0,-0,0,0.86,1.21,72,2981,3.0,3.22,,12.35,0.975,100.6,,33.1,5,,,,,,,,,,,,0,0,0,0,0,0,0,0,0,0,0,0,0,0,0,0,,,,,0.0,,,,,,
448474,1745087570533,,,,,,,,,,,,,,,,,,,,,,,,,,,,,,,,,,0,0,0,0,0,0,0,0,0,0,0,0,0,0,0,0,,,,,,,,,,,
448494,1745087570553,0.0,193.19,,0.0,0.1,0.84,-0,-0,0,0.84,1.21,70,2883,9.9,4.35,,13.04,0.977,100.6,,30.0,5,,,,,,,,,,,,0,0,0,0,0,0,0,0,0,0,0,0,0,0,0,0,,,,,0.0,,,,,,
448514,1745087570573,,,,,,,,,,,,,,,,,,,,,,,0,0,0,0,0.0,0.0,0.0,0.0,2.27,,,0,0,0,0,0,0,0,0,0,0,0,0,0,0,0,0,0,,,,,39.23988,-77.965668,0.05,32,2,0.8
448534,1745087570593,0.0,193.19,,-0.01,0.07,0.84,0,-0,-0,0.85,1.21,70,2900,10.9,4.48,,13.04,0.977,100.6,,30.0,5,,,,,,,,,,,,0,0,0,0,0,0,0,0,0,0,0,0,0,0,0,0,,,,,0.0,,,,,,
448554,1745087570613,,,,,,,,,,,,,,,,,,,,,,,,,,,,,,,,,,0,0,0,0,0,0,0,0,0,0,0,0,0,0,0,0,,,,,,,,,,,
448574,1745087570633,0.0,193.19,,-0.03,0.04,0.83,0,-0,-1,0.84,1.21,69,2900,10.9,4.48,,13.45,0.977,100.6,,31.2,5,,,,,,,,,,,,0,0,0,0,0,0,0,0,0,0,0,0,0,0,0,0,,,,,0.0,,,,,,
448594,1745087570653,,,,,,,,,,,,,,,,,,,,,,,,,,,,,,,,,,0,0,0,0,0,0,0,0,0,0,0,0,0,0,0,0,,,,,,,,,,,
448614,1745087570673,0.0,193.19,,-0.04,0.02,0.83,1,-0,-1,0.83,1.21,69,3018,11.1,4.48,,13.53,0.978,100.6,,31.2,5,0,0,0,0,0.0,0.0,0.0,0.0,2.27,,,0,0,0,0,0,0,0,0,0,0,0,0,0,0,0,0,0,,,,0.0,39.23988,-77.965668,0.0,32,2,0.8
448634,1745087570693,,,,,,,,,,,,,,,,,,,,,,,,,,,,,,,,,,0,0,0,0,0,0,0,0,0,0,0,0,0,0,0,0,,,,,,,,,,,
448654,1745087570713,0.0,193.19,,-0.05,-0.0,0.78,1,-0,-1,0.79,1.21,65,3117,0.0,4.23,,13.24,0.979,100.6,,31.2,5,,,,,,,,,,,,0,0,0,0,0,0,0,0,0,0,0,0,0,0,0,0,,,,,0.0,,,,,,
448674,1745087570733,,,,,,,,,,,,,,,,,,,,,,,,,,,,,,,,,,0,0,0,0,0,0,0,0,0,0,0,0,0,0,0,0,,,,,,,,,,,
448694,1745087570753,0.0,193.19,,-0.01,0.1,0.76,1,-0,-1,0.77,1.21,63,3245,0.0,2.92,,12.69,0.982,100.6,,32.1,5,,,,,,,,,,,,0,0,0,0,0,0,0,0,0,0,0,0,0,0,0,0,,,,,0.0,,,,,,
448714,1745087570773,,,,,,,,,,,,,,,,,,,,,,,0,0,0,0,0.0,0.0,0.0,0.0,2.27,,,0,0,0,0,0,0,0,0,0,0,0,0,0,0,0,0,0,,,,,39.23988,-77.965668,0.05,32,2,0.8
448734,1745087570793,0.0,193.06,,-0.01,0.04,0.84,0,-0,-0,0.84,1.21,69,3149,0.0,2.92,,12.69,0.982,100.6,,32.1,5,,,,,,,,,,,,0,0,0,0,0,0,0,0,0,0,0,0,0,0,0,0,,,,,0.0,,,,,,
448754,1745087570813,,,,,,,,,,,,,,,,,,,,,,,,,,,,,,,,,,0,0,0,0,0,0,0,0,0,0,0,0,0,0,0,0,,,,,,,,,,,
448774,1745087570833,0.0,193.19,,-0.03,-0.03,0.92,0,-0,-0,0.92,1.21,76,3149,0.0,2.92,,12.4,0.982,100.6,,32.3,5,,,,,,,,,,,,0,0,0,0,0,0,0,0,0,0,0,0,0,0,0,0,,,,,0.0,,,,,,
448794,1745087570853,,,,,,,,,,,,,,,,,,,,,,,,,,,,,,,,,,0,0,0,0,0,0,0,0,0,0,0,0,0,0,0,0,,,,,,,,,,,
448814,1745087570873,0.0,193.19,,-0.05,-0.08,1.0,0,-0,-1,1.01,1.21,83,3072,5.7,4.12,,12.64,0.984,100.6,,32.3,5,0,0,0,0,0.0,0.0,0.0,0.0,2.27,,,0,0,0,0,0,0,0,0,0,0,0,0,0,0,0,0,0,,,,0.0,39.23988,-77.965668,0.05,32,2,0.8
448834,1745087570893,,,,,,,,,,,,,,,,,,,,,,,,,,,,,,,,,,0,0,0,0,0,0,0,0,0,0,0,0,0,0,0,0,,,,,,,,,,,
448854,1745087570913,0.0,193.19,,-0.08,-0.11,1.06,1,-0,-1,1.07,1.21,88,3027,10.2,4.44,,13.19,0.986,100.6,,32.3,5,,,,,,,,,,,,0,0,0,0,0,0,0,0,0,0,0,0,0,0,0,0,,,,,0.0,,,,,,
448874,1745087570933,,,,,,,,,,,,,,,,,,,,,,,,,,,,,,,,,,0,0,0,0,0,0,0,0,0,0,0,0,0,0,0,0,,,,,,,,,,,
448894,1745087570953,0.0,193.06,,-0.1,-0.15,1.06,1,-0,-1,1.08,1.21,89,3052,10.9,4.42,,13.43,0.987,100.6,,31.3,5,,,,,,,,,,,,0,0,0,0,0,0,0,0,0,0,0,0,0,0,0,0,,,,,0.0,,,,,,
448914,1745087570973,,,,,,,,,,,,,,,,,,,,,,,0,0,0,0,0.0,0.0,0.0,0.0,2.27,,,0,0,0,0,0,0,0,0,0,0,0,0,0,0,0,0,0,,,,,39.23988,-77.965668,0.05,32,2,0.8
448934,1745087570993,0.0,193.06,,-0.1,-0.08,0.96,1,-0,-1,0.97,1.21,80,3289,0.0,2.95,,13.43,0.987,100.6,,31.3,5,,,,,,,,,,,,0,0,0,0,0,0,0,0,0,0,0,0,0,0,0,0,,,,,0.0,,,,,,
448954,1745087571007,,,,,,,,,,,,,,,,,,,,,,,,,,,,,,,,,,0,0,0,0,0,0,0,0,0,0,0,0,0,0,0,0,,,,,,,,,,,
448974,1745087571027,0.0,193.06,,-0.08,-0.04,1.0,1,-0,-1,1.0,1.21,83,3289,0.0,2.95,,12.85,0.989,100.6,,33.3,5,,,,,,,,,,,,0,0,0,0,0,0,0,0,0,0,0,0,0,0,0,0,,,,,0.0,,,,,,
448994,1745087571047,,,,,,,,,,,,,,,,,,,,,,,,,,,,,,,,,,0,0,0,0,0,0,0,0,0,0,0,0,0,0,0,0,,,,,,,,,,,
449014,1745087571067,0.0,193.31,,-0.1,-0.11,1.04,1,-0,-1,1.05,1.21,87,3253,0.0,2.91,,12.43,0.989,100.6,,33.3,5,0,0,0,0,0.0,0.0,0.0,0.0,2.27,,,0,0,0,0,0,0,0,0,0,0,0,0,0,0,0,0,0,,,,0.0,39.23988,-77.965668,0.08,31,2,0.8
449034,1745087571087,,,,,,,,,,,,,,,,,,,,,,,,,,,,,,,,,,0,0,0,0,0,0,0,0,0,0,0,0,0,0,0,0,,,,,,,,,,,
449054,1745087571115,0.0,193.19,,-0.13,-0.13,1.07,1,-0,-1,1.09,1.21,90,3089,0.0,2.9,,12.25,0.992,100.6,,33.3,5,,,,,,,,,,,,0,0,0,0,0,0,0,0,0,0,0,0,0,0,0,0,,,,,0.0,,,,,,
449074,1745087571135,,,,,,,,,,,,,,,,,,,,,,,,,,,,,,,,,,0,0,0,0,0,0,0,0,0,0,0,0,0,0,0,0,,,,,,,,,,,
449094,1745087571155,0.0,193.19,,-0.13,-0.14,1.12,1,-0,-1,1.13,1.21,94,2876,0.0,2.96,,12.29,0.994,100.6,,30.9,5,,,,,,,,,,,,0,0,0,0,0,0,0,0,0,0,0,0,0,0,0,0,,,,,0.0,,,,,,
449114,1745087571175,,,,,,,,,,,,,,,,,,,,,,,0,0,0,0,0.0,0.0,0.0,0.0,2.27,,,0,0,0,0,0,0,0,0,0,0,0,0,0,0,0,0,0,,,,,39.23988,-77.965668,0.07,31,2,0.8
449134,1745087571195,0.0,193.19,,-0.12,-0.13,1.12,1,-0,-1,1.14,1.21,94,2837,0.0,3.01,,12.29,0.994,100.6,,30.9,5,,,,,,,,,,,,0,0,0,0,0,0,0,0,0,0,0,0,0,0,0,0,,,,,0.0,,,,,,
449154,1745087571213,,,,,,,,,,,,,,,,,,,,,,,,,,,,,,,,,,0,0,0,0,0,0,0,0,0,0,0,0,0,0,0,0,,,,,,,,,,,
449174,1745087571233,0.0,193.19,,-0.11,-0.11,1.06,1,-0,-1,1.07,1.21,89,2837,0.0,3.01,,12.28,0.996,100.6,,28.7,5,,,,,,,,,,,,0,0,0,0,0,0,0,0,0,0,0,0,0,0,0,0,,,,,0.0,,,,,,
449194,1745087571253,,,,,,,,,,,,,,,,,,,,,,,,,,,,,,,,,,0,0,0,0,0,0,0,0,0,0,0,0,0,0,0,0,,,,,,,,,,,
449214,1745087571273,0.0,193.06,,-0.11,-0.11,1.07,1,-0,-0,1.08,1.21,90,2747,5.9,4.0,,12.68,0.997,100.6,,28.7,5,0,0,0,0,0.0,0.0,0.0,0.0,2.27,,,0,0,0,0,0,0,0,0,0,0,0,0,0,0,0,0,0,,,,0.0,39.23988,-77.965668,0.0,31,2,0.8
449234,1745087571293,,,,,,,,,,,,,,,,,,,,,,,,,,,,,,,,,,0,0,0,0,0,0,0,0,0,0,0,0,0,0,0,0,,,,,,,,,,,
449254,1745087571315,0.0,193.19,,-0.1,-0.09,1.05,1,-0,-0,1.06,1.21,87,2656,12.1,4.2,,13.47,0.999,100.6,,28.7,5,,,,,,,,,,,,0,0,0,0,0,0,0,0,0,0,0,0,0,0,0,0,,,,,0.0,,,,,,
449274,1745087571335,,,,,,,,,,,,,,,,,,,,,,,,,,,,,,,,,,0,0,0,0,0,0,0,0,0,0,0,0,0,0,0,0,,,,,,,,,,,
449294,1745087571355,0.0,193.19,,-0.1,-0.07,1.05,1,-0,-0,1.05,1.21,87,2679,12.6,4.27,,13.68,1.001,100.6,,26.5,5,,,,,,,,,,,,0,0,0,0,0,0,0,0,0,0,0,0,0,0,0,0,,,,,0.0,,,,,,
449314,1745087571375,,,,,,,,,,,,,,,,,,,,,,,0,0,0,0,0.0,0.0,0.0,0.0,2.27,,,0,0,0,0,0,0,0,0,0,0,0,0,0,0,0,0,0,,,,,39.23988,-77.965668,0.04,31,2,0.8
449334,1745087571395,0.0,193.06,,-0.1,-0.08,1.07,0,-0,-0,1.08,1.21,89,2733,12.7,4.35,,13.68,1.001,100.6,,26.5,5,,,,,,,,,,,,0,0,0,0,0,0,0,0,0,0,0,0,0,0,0,0,,,,,0.0,,,,,,
449354,1745087571414,,,,,,,,,,,,,,,,,,,,,,,,,,,,,,,,,,0,0,0,0,0,0,0,0,0,0,0,0,0,0,0,0,,,,,,,,,,,
449374,1745087571434,0.0,193.19,,-0.09,-0.03,1.03,0,-0,-0,1.04,1.21,86,2733,12.7,4.35,,13.73,1.003,100.6,,28.5,5,,,,,,,,,,,,0,0,0,0,0,0,0,0,0,0,0,0,0,0,0,0,,,,,0.0,,,,,,
449394,1745087571454,,,,,,,,,,,,,,,,,,,,,,,,,,,,,,,,,,0,0,0,0,0,0,0,0,0,0,0,0,0,0,0,0,,,,,,,,,,,
449414,1745087571474,0.0,193.19,13.53,-0.08,0.0,0.96,1,-0,-0,0.97,1.21,80,2783,11.9,4.37,15,13.69,1.005,100.6,138,28.5,5,0,0,0,0,0.0,0.0,0.0,0.0,2.27,0,0.0,0,0,0,0,0,0,0,0,0,0,0,0,0,0,0,0,0,0.0,0,-0,0.0,39.23988,-77.965668,0.0,31,2,0.8
449434,1745087571494,,,,,,,,,,,,,,,,,,,,,,,,,,,,,,,,,,0,0,0,0,0,0,0,0,0,0,0,0,0,0,0,0,,,,,,,,,,,
449454,1745087571514,0.0,193.19,,-0.07,-0.03,0.99,1,-0,-0,0.99,1.21,82,2859,0.0,3.04,,13.09,1.007,100.6,,28.5,5,,,,,,,,,,,,0,0,0,0,0,0,0,0,0,0,0,0,0,0,0,0,,,,,0.0,,,,,,
449474,1745087571534,,,,,,,,,,,,,,,,,,,,,,,,,,,,,,,,,,0,0,0,0,0,0,0,0,0,0,0,0,0,0,0,0,,,,,,,,,,,
449494,1745087571554,0.0,193.19,,-0.06,-0.03,1.0,1,-0,-0,1.0,1.21,83,2751,0.0,3.08,,12.85,1.01,100.6,,28.1,5,,,,,,,,,,,,0,0,0,0,0,0,0,0,0,0,0,0,0,0,0,0,,,,,0.0,,,,,,
449514,1745087571574,,,,,,,,,,,,,,,,,,,,,,,0,0,0,0,0.0,0.0,0.0,0.0,2.27,,,0,0,0,0,0,0,0,0,0,0,0,0,0,0,0,0,0,,,,,39.23988,-77.965668,0.0,31,2,0.8
449534,1745087571594,0.0,193.19,,-0.06,-0.03,0.98,1,-0,-0,0.98,1.21,81,2692,0.0,3.11,,12.85,1.01,100.6,,28.1,5,,,,,,,,,,,,0,0,0,0,0,0,0,0,0,0,0,0,0,0,0,0,,,,,0.0,,,,,,
449554,1745087571614,,,,,,,,,,,,,,,,,,,,,,,,,,,,,,,,,,0,0,0,0,0,0,0,0,0,0,0,0,0,0,0,0,,,,,,,,,,,
449574,1745087571634,0.0,193.19,,-0.06,-0.03,1.01,1,-0,-0,1.01,1.21,84,2692,0.0,3.11,,12.68,1.014,100.6,,27.2,5,,,,,,,,,,,,0,0,0,0,0,0,0,0,0,0,0,0,0,0,0,0,,,,,0.0,,,,,,
449594,1745087571654,,,,,,,,,,,,,,,,,,,,,,,,,,,,,,,,,,0,0,0,0,0,0,0,0,0,0,0,0,0,0,0,0,,,,,,,,,,,
449614,1745087571674,0.0,193.31,,-0.07,-0.03,1.0,1,-0,-0,1.01,1.21,83,2688,1.3,3.07,,12.79,1.015,100.6,,27.2,5,0,0,0,0,0.0,0.0,0.0,0.0,2.27,,,0,0,0,0,0,0,0,0,0,0,0,0,0,0,0,0,0,,,,0.0,39.23988,-77.965668,0.05,31,2,0.8
449634,1745087571694,,,,,,,,,,,,,,,,,,,,,,,,,,,,,,,,,,0,0,0,0,0,0,0,0,0,0,0,0,0,0,0,0,,,,,,,,,,,
449654,1745087571714,0.0,193.31,,-0.05,-0.02,1.0,1,-0,-0,1.0,1.21,83,2557,5.9,3.93,,13.25,1.019,100.6,,27.2,5,,,,,,,,,,,,0,0,0,0,0,0,0,0,0,0,0,0,0,0,0,0,,,,,0.0,,,,,,
449674,1745087571734,,,,,,,,,,,,,,,,,,,,,,,,,,,,,,,,,,0,0,0,0,0,0,0,0,0,0,0,0,0,0,0,0,,,,,,,,,,,
449694,1745087571754,0.0,193.31,,-0.05,-0.02,1.0,1,-0,-0,1.0,1.21,83,2584,7.9,3.8,,13.51,1.023,100.6,,25.5,5,,,,,,,,,,,,0,0,0,0,0,0,0,0,0,0,0,0,0,0,0,0,,,,,0.0,,,,,,
449714,1745087571774,,,,,,,,,,,,,,,,,,,,,,,0,0,0,0,0.0,0.0,0.0,0.0,2.27,,,0,0,0,0,0,0,0,0,0,0,0,0,0,0,0,0,0,,,,,39.23988,-77.965668,0.05,31,2,0.8
449734,1745087571794,0.0,193.19,,-0.06,-0.0,0.99,1,-0,-0,1.0,1.21,83,2579,9.2,3.88,,13.51,1.023,100.6,,25.5,5,,,,,,,,,,,,0,0,0,0,0,0,0,0,0,0,0,0,0,0,0,0,,,,,0.0,,,,,,
449754,1745087571814,,,,,,,,,,,,,,,,,,,,,,,,,,,,,,,,,,0,0,0,0,0,0,0,0,0,0,0,0,0,0,0,0,,,,,,,,,,,
449774,1745087571834,0.0,193.19,,-0.06,-0.02,1.03,1,-0,-0,1.03,1.21,85,2579,9.2,3.88,,13.67,1.025,100.6,,26.6,5,,,,,,,,,,,,0,0,0,0,0,0,0,0,0,0,0,0,0,0,0,0,,,,,0.0,,,,,,
449794,1745087571854,,,,,,,,,,,,,,,,,,,,,,,,,,,,,,,,,,0,0,0,0,0,0,0,0,0,0,0,0,0,0,0,0,,,,,,,,,,,
449814,1745087571874,0.0,193.19,,-0.06,-0.01,0.99,1,-0,0,0.99,1.21,82,2643,9.6,4.0,,13.72,1.028,100.6,,26.6,5,0,0,0,0,0.0,0.0,0.0,0.0,2.27,,,0,0,0,0,0,0,0,0,0,0,0,0,0,0,0,0,0,,,,0.0,39.23988,-77.965668,0.0,31,2,0.8
449834,1745087571894,,,,,,,,,,,,,,,,,,,,,,,,,,,,,,,,,,0,0,0,0,0,0,0,0,0,0,0,0,0,0,0,0,,,,,,,,,,,
449854,1745087571914,0.0,193.19,,-0.07,-0.03,1.01,1,-0,-0,1.01,1.21,84,2618,9.9,4.02,,13.72,1.032,100.6,,26.6,5,,,,,,,,,,,,0,0,0,0,0,0,0,0,0,0,0,0,0,0,0,0,,,,,0.0,,,,,,
449874,1745087571934,,,,,,,,,,,,,,,,,,,,,,,,,,,,,,,,,,0,0,0,0,0,0,0,0,0,0,0,0,0,0,0,0,,,,,,,,,,,
449894,1745087571954,0.0,193.19,,-0.07,-0.04,1.02,0,-0,0,1.02,1.21,85,2700,10.0,4.07,,13.72,1.036,100.6,,27.5,5,,,,,,,,,,,,0,0,0,0,0,0,0,0,0,0,0,0,0,0,0,0,,,,,0.0,,,,,,
449914,1745087571974,,,,,,,,,,,,,,,,,,,,,,,0,0,0,0,0.0,0.0,0.0,0.0,2.27,,,0,0,0,0,0,0,0,0,0,0,0,0,0,0,0,0,0,,,,,39.23988,-77.965668,0.04,31,2,0.8
449934,1745087571994,0.0,193.19,,-0.07,-0.02,0.97,0,-0,-0,0.97,1.21,80,2679,10.1,4.06,,13.72,1.036,100.6,,27.5,5,,,,,,,,,,,,0,0,0,0,0,0,0,0,0,0,0,0,0,0,0,0,,,,,0.0,,,,,,
449954,1745087572006,,,,,,,,,,,,,,,,,,,,,,,,,,,,,,,,,,0,0,0,0,0,0,0,0,0,0,0,0,0,0,0,0,,,,,,,,,,,
449974,1745087572026,0.0,193.19,,-0.08,-0.04,1.0,1,-0,-0,1.0,1.21,83,2679,10.1,4.06,,13.68,1.039,100.6,,28.3,5,,,,,,,,,,,,0,0,0,0,0,0,0,0,0,0,0,0,0,0,0,0,,,,,0.0,,,,,,
449994,1745087572046,,,,,,,,,,,,,,,,,,,,,,,,,,,,,,,,,,0,0,0,0,0,0,0,0,0,0,0,0,0,0,0,0,,,,,,,,,,,
450014,1745087572066,0.0,193.19,,-0.08,-0.07,1.06,0,-0,0,1.06,1.21,88,2849,10.2,4.08,,13.63,1.044,100.6,,28.3,5,0,0,0,0,0.0,0.0,0.0,0.0,2.27,,,0,0,0,0,0,0,0,0,0,0,0,0,0,0,0,0,0,,,,0.0,39.23988,-77.965668,0.05,33,2,0.8
450034,1745087572086,,,,,,,,,,,,,,,,,,,,,,,,,,,,,,,,,,0,0,0,0,0,0,0,0,0,0,0,0,0,0,0,0,,,,,,,,,,,
450054,1745087572112,0.0,193.19,,-0.08,-0.12,1.11,-0,-0,0,1.12,1.21,93,2959,8.9,4.14,,13.51,1.047,100.6,,28.3,5,,,,,,,,,,,,0,0,0,0,0,0,0,0,0,0,0,0,0,0,0,0,,,,,0.0,,,,,,
450074,1745087572132,,,,,,,,,,,,,,,,,,,,,,,,,,,,,,,,,,0,0,0,0,0,0,0,0,0,0,0,0,0,0,0,0,,,,,,,,,,,
450094,1745087572152,0.0,193.19,,-0.1,-0.15,1.16,0,-0,0,1.17,1.21,97,3056,0.0,2.91,,12.95,1.05,100.6,,30.7,5,,,,,,,,,,,,0,0,0,0,0,0,0,0,0,0,0,0,0,0,0,0,,,,,0.0,,,,,,
450114,1745087572172,,,,,,,,,,,,,,,,,,,,,,,0,0,0,0,0.0,0.0,0.0,0.0,2.27,,,0,0,0,0,0,0,0,0,0,0,0,0,0,0,0,0,0,,,,,39.23988,-77.965668,0.04,33,2,0.8
450134,1745087572192,0.0,193.19,,-0.11,-0.19,1.2,0,-0,0,1.22,1.22,100,3022,0.0,2.89,,12.95,1.05,100.6,,30.7,5,,,,,,,,,,,,0,0,0,0,0,0,0,0,0,0,0,0,0,0,0,0,,,,,0.0,,,,,,
450154,1745087572212,,,,,,,,,,,,,,,,,,,,,,,,,,,,,,,,,,0,0,0,0,0,0,0,0,0,0,0,0,0,0,0,0,,,,,,,,,,,
450174,1745087572232,0.0,193.06,,-0.1,-0.19,1.23,-0,-0,0,1.25,1.25,100,3022,0.0,2.89,,12.65,1.055,100.6,,30.3,5,,,,,,,,,,,,0,0,0,0,0,0,0,0,0,0,0,0,0,0,0,0,,,,,0.0,,,,,,
450194,1745087572252,,,,,,,,,,,,,,,,,,,,,,,,,,,,,,,,,,0,0,0,0,0,0,0,0,0,0,0,0,0,0,0,0,,,,,,,,,,,
450214,1745087572272,0.0,193.06,,-0.09,-0.15,1.18,-0,-0,0,1.2,1.25,96,2887,0.0,2.92,,12.49,1.061,100.6,,30.3,5,0,0,0,0,0.0,0.0,0.0,0.0,2.27,,,0,0,0,0,0,0,0,0,0,0,0,0,0,0,0,0,0,,,,0.0,39.23988,-77.965668,0.11,33,2,0.8
450234,1745087572292,,,,,,,,,,,,,,,,,,,,,,,,,,,,,,,,,,0,0,0,0,0,0,0,0,0,0,0,0,0,0,0,0,,,,,,,,,,,
450254,1745087572316,0.0,193.06,,-0.09,-0.12,1.12,-0,-0,0,1.13,1.25,90,2827,0.0,2.96,,12.47,1.066,100.6,,30.3,5,,,,,,,,,,,,0,0,0,0,0,0,0,0,0,0,0,0,0,0,0,0,,,,,0.0,,,,,,
450274,1745087572336,,,,,,,,,,,,,,,,,,,,,,,,,,,,,,,,,,0,0,0,0,0,0,0,0,0,0,0,0,0,0,0,0,,,,,,,,,,,
450294,1745087572356,0.0,193.06,,-0.09,-0.11,1.12,1,-0,0,1.13,1.25,91,2735,0.0,2.97,,12.53,1.071,100.6,,28.3,5,,,,,,,,,,,,0,0,0,0,0,0,0,0,0,0,0,0,0,0,0,0,,,,,0.0,,,,,,
450314,1745087572376,,,,,,,,,,,,,,,,,,,,,,,0,0,0,0,0.0,0.0,0.0,0.0,2.27,,,0,0,0,0,0,0,0,0,0,0,0,0,0,0,0,0,0,,,,,39.23988,-77.965668,0.04,33,2,0.8
450334,1745087572396,0.0,193.06,,-0.1,-0.1,1.1,1,-0,0,1.11,1.25,88,2609,0.0,3.0,,12.53,1.071,100.6,,28.3,5,,,,,,,,,,,,0,0,0,0,0,0,0,0,0,0,0,0,0,0,0,0,,,,,0.0,,,,,,
450354,1745087572413,,,,,,,,,,,,,,,,,,,,,,,,,,,,,,,,,,0,0,0,0,0,0,0,0,0,0,0,0,0,0,0,0,,,,,,,,,,,
450374,1745087572433,0.0,192.94,,-0.09,-0.08,1.09,1,-0,0,1.1,1.25,88,2609,0.0,3.0,,12.64,1.077,100.6,,25.6,5,,,,,,,,,,,,0,0,0,0,0,0,0,0,0,0,0,0,0,0,0,0,,,,,0.0,,,,,,
450394,1745087572453,,,,,,,,,,,,,,,,,,,,,,,,,,,,,,,,,,0,0,0,0,0,0,0,0,0,0,0,0,0,0,0,0,,,,,,,,,,,
450414,1745087572473,0.0,193.06,13.5,-0.08,-0.09,1.08,1,-0,0,1.09,1.25,87,2509,0.0,3.13,15,12.8,1.082,100.6,135,25.6,5,0,0,0,0,0.0,0.0,0.0,0.0,2.27,0,0.0,0,0,0,0,0,0,0,0,0,0,0,0,0,0,0,0,0,0.0,0,-0,0.0,39.23988,-77.965668,0.24,33,2,0.8
450434,1745087572493,,,,,,,,,,,,,,,,,,,,,,,,,,,,,,,,,,0,0,0,0,0,0,0,0,0,0,0,0,0,0,0,0,,,,,,,,,,,
450454,1745087572513,0.0,193.06,,-0.08,-0.09,1.09,1,-0,0,1.09,1.25,88,2420,0.0,3.08,,12.91,1.088,100.6,,25.6,5,,,,,,,,,,,,0,0,0,0,0,0,0,0,0,0,0,0,0,0,0,0,,,,,0.0,,,,,,
450474,1745087572533,,,,,,,,,,,,,,,,,,,,,,,,,,,,,,,,,,0,0,0,0,0,0,0,0,0,0,0,0,0,0,0,0,,,,,,,,,,,
450494,1745087572553,0.0,192.94,,-0.08,-0.08,1.07,0,-0,0,1.08,1.25,86,2327,0.0,3.12,,12.99,1.095,100.6,,23.8,5,,,,,,,,,,,,0,0,0,0,0,0,0,0,0,0,0,0,0,0,0,0,,,,,0.0,,,,,,
450514,1745087572573,,,,,,,,,,,,,,,,,,,,,,,0,0,0,0,0.0,0.0,0.0,0.0,2.27,,,0,0,0,0,0,0,0,0,0,0,0,0,0,0,0,0,0,,,,,39.23988,-77.965668,0.07,33,2,0.8
450534,1745087572593,0.0,193.06,,-0.07,-0.05,1.06,0,-0,0,1.06,1.25,85,2216,0.0,3.16,,12.99,1.095,100.6,,23.8,5,,,,,,,,,,,,0,0,0,0,0,0,0,0,0,0,0,0,0,0,0,0,,,,,0.0,,,,,,
450554,1745087572613,,,,,,,,,,,,,,,,,,,,,,,,,,,,,,,,,,0,0,0,0,0,0,0,0,0,0,0,0,0,0,0,0,,,,,,,,,,,
450574,1745087572633,0.0,192.94,,-0.06,-0.05,1.04,0,-0,0,1.04,1.25,83,2216,0.0,3.16,,13.11,1.1,100.6,,21.3,5,,,,,,,,,,,,0,0,0,0,0,0,0,0,0,0,0,0,0,0,0,0,,,,,0.0,,,,,,
450594,1745087572653,,,,,,,,,,,,,,,,,,,,,,,,,,,,,,,,,,0,0,0,0,0,0,0,0,0,0,0,0,0,0,0,0,,,,,,,,,,,
450614,1745087572673,0.0,193.06,,-0.05,-0.05,1.04,-0,-0,0,1.04,1.25,83,2101,0.0,3.2,,13.17,1.108,100.6,,21.3,5,0,0,0,0,0.0,0.0,0.0,0.0,2.27,,,0,0,0,0,0,0,0,0,0,0,0,0,0,0,0,0,0,,,,0.0,39.23988,-77.965668,0.08,33,2,0.8
450634,1745087572693,,,,,,,,,,,,,,,,,,,,,,,,,,,,,,,,,,0,0,0,0,0,0,0,0,0,0,0,0,0,0,0,0,,,,,,,,,,,
450654,1745087572713,0.0,192.94,,-0.05,-0.06,1.03,0,-0,-0,1.03,1.25,82,1993,3.1,3.65,,13.49,1.115,100.6,,21.3,5,,,,,,,,,,,,0,0,0,0,0,0,0,0,0,0,0,0,0,0,0,0,,,,,0.0,,,,,,
450674,1745087572733,,,,,,,,,,,,,,,,,,,,,,,,,,,,,,,,,,0,0,0,0,0,0,0,0,0,0,0,0,0,0,0,0,,,,,,,,,,,
450694,1745087572753,0.0,192.94,,-0.05,-0.06,1.02,0,-0,-0,1.02,1.25,82,1900,7.2,3.66,,13.92,1.124,100.6,,19.9,5,,,,,,,,,,,,0,0,0,0,0,0,0,0,0,0,0,0,0,0,0,0,,,,,0.0,,,,,,
450714,1745087572773,,,,,,,,,,,,,,,,,,,,,,,0,0,0,0,0.0,0.0,0.0,0.0,2.27,,,0,0,0,0,0,0,0,0,0,0,0,0,0,0,0,0,0,,,,,39.23988,-77.965668,0.11,33,2,0.8
450734,1745087572793,0.0,192.94,,-0.05,-0.05,1.01,1,-0,-0,1.01,1.25,81,1828,15.9,3.96,,13.92,1.124,100.6,,19.9,5,,,,,,,,,,,,0,0,0,0,0,0,0,0,0,0,0,0,0,0,0,0,,,,,0.0,,,,,,
450754,1745087572813,,,,,,,,,,,,,,,,,,,,,,,,,,,,,,,,,,0,0,0,0,0,0,0,0,0,0,0,0,0,0,0,0,,,,,,,,,,,
450774,1745087572833,0.0,192.94,,-0.04,-0.04,0.99,0,-0,-0,1.0,1.25,80,1828,15.9,3.96,,14.14,1.133,100.6,,18.9,5,,,,,,,,,,,,0,0,0,0,0,0,0,0,0,0,0,0,0,0,0,0,,,,,0.0,,,,,,
450794,1745087572853,,,,,,,,,,,,,,,,,,,,,,,,,,,,,,,,,,0,0,0,0,0,0,0,0,0,0,0,0,0,0,0,0,,,,,,,,,,,
450814,1745087572873,0.0,193.06,,-0.04,-0.05,1.0,0,-0,-0,1.0,1.25,80,1953,16.2,4.36,,14.12,1.141,100.6,,18.9,5,0,0,0,0,0.0,0.0,0.0,0.0,2.27,,,0,0,0,0,0,0,0,0,0,0,0,0,0,0,0,0,0,,,,0.0,39.23988,-77.965668,0.07,33,2,0.8
450834,1745087572893,,,,,,,,,,,,,,,,,,,,,,,,,,,,,,,,,,0,0,0,0,0,0,0,0,0,0,0,0,0,0,0,0,,,,,,,,,,,
450854,1745087572913,0.0,193.06,,-0.05,-0.02,0.98,0,-0,-0,0.98,1.25,78,1997,16.9,4.34,,14.06,1.148,100.6,,18.9,5,,,,,,,,,,,,0,0,0,0,0,0,0,0,0,0,0,0,0,0,0,0,,,,,0.0,,,,,,
450874,1745087572933,,,,,,,,,,,,,,,,,,,,,,,,,,,,,,,,,,0,0,0,0,0,0,0,0,0,0,0,0,0,0,0,0,,,,,,,,,,,
450894,1745087572953,0.0,193.06,,-0.05,-0.05,0.98,-0,-0,-0,0.98,1.25,79,2089,17.5,4.39,,14.12,1.16,100.6,,19.1,5,,,,,,,,,,,,0,0,0,0,0,0,0,0,0,0,0,0,0,0,0,0,,,,,0.0,,,,,,
450914,1745087572973,,,,,,,,,,,,,,,,,,,,,,,0,0,0,0,0.0,0.0,0.0,0.0,2.27,,,0,0,0,0,0,0,0,0,0,0,0,0,0,0,0,0,0,,,,,39.23988,-77.965668,0.08,33,2,0.8
450934,1745087572993,0.0,193.06,,-0.05,-0.04,0.97,-0,-0,-0,0.97,1.25,78,2037,22.7,4.47,,14.12,1.16,100.6,,19.1,5,,,,,,,,,,,,0,0,0,0,0,0,0,0,0,0,0,0,0,0,0,0,,,,,0.0,,,,,,
450954,1745087573007,,,,,,,,,,,,,,,,,,,,,,,,,,,,,,,,,,0,0,0,0,0,0,0,0,0,0,0,0,0,0,0,0,,,,,,,,,,,
450974,1745087573027,0.0,193.06,,-0.04,-0.04,0.97,-0,-0,-0,0.97,1.25,78,2037,22.7,4.47,,14.16,1.171,100.6,,21.3,5,,,,,,,,,,,,0,0,0,0,0,0,0,0,0,0,0,0,0,0,0,0,,,,,0.0,,,,,,
450994,1745087573047,,,,,,,,,,,,,,,,,,,,,,,,,,,,,,,,,,0,0,0,0,0,0,0,0,0,0,0,0,0,0,0,0,,,,,,,,,,,
451014,1745087573067,0.0,193.06,,-0.04,-0.04,0.97,-0,-0,-0,0.98,1.25,78,2160,23.2,4.42,,14.18,1.183,100.6,,21.3,5,0,0,0,0,0.0,0.0,0.0,0.0,2.27,,,0,0,0,0,0,0,0,0,0,0,0,0,0,0,0,0,0,,,,0.0,39.23988,-77.965668,0.0,32,2,0.8
451034,1745087573087,,,,,,,,,,,,,,,,,,,,,,,,,,,,,,,,,,0,0,0,0,0,0,0,0,0,0,0,0,0,0,0,0,,,,,,,,,,,
451054,1745087573111,0.0,193.19,,-0.04,-0.05,1.0,-1,-0,-0,1.0,1.25,80,2403,23.4,4.39,,14.08,1.192,100.6,,21.3,5,,,,,,,,,,,,0,0,0,0,0,0,0,0,0,0,0,0,0,0,0,0,,,,,0.0,,,,,,
451074,1745087573131,,,,,,,,,,,,,,,,,,,,,,,,,,,,,,,,,,0,0,0,0,0,0,0,0,0,0,0,0,0,0,0,0,,,,,,,,,,,
451094,1745087573151,0.0,193.19,,-0.04,-0.02,0.98,0,-0,-0,0.98,1.25,79,2725,1.0,3.28,,13.67,1.204,100.6,,25.2,5,,,,,,,,,,,,0,0,0,0,0,0,0,0,0,0,0,0,0,0,0,0,,,,,0.0,,,,,,
451114,1745087573171,,,,,,,,,,,,,,,,,,,,,,,0,0,0,0,0.0,0.0,0.0,0.0,2.27,,,0,0,0,0,0,0,0,0,0,0,0,0,0,0,0,0,0,,,,,39.23988,-77.965668,0.04,32,2,0.8
451134,1745087573191,0.0,193.19,,-0.05,-0.0,0.96,-1,-0,-0,0.96,1.25,77,2790,0.0,3.04,,13.67,1.204,98.8,,25.2,5,,,,,,,,,,,,0,0,0,0,0,0,0,0,0,0,0,0,0,0,0,0,,,,,0.0,,,,,,
451154,1745087573215,,,,,,,,,,,,,,,,,,,,,,,,,,,,,,,,,,0,0,0,0,0,0,0,0,0,0,0,0,0,0,0,0,,,,,,,,,,,
451174,1745087573235,0.0,193.19,,-0.03,-0.02,1.0,-0,-0,-0,1.0,1.25,80,2790,0.0,3.04,,13.15,1.216,98.8,,27.9,5,,,,,,,,,,,,0,0,0,0,0,0,0,0,0,0,0,0,0,0,0,0,,,,,0.0,,,,,,
451194,1745087573255,,,,,,,,,,,,,,,,,,,,,,,,,,,,,,,,,,0,0,0,0,0,0,0,0,0,0,0,0,0,0,0,0,,,,,,,,,,,
451214,1745087573275,0.0,193.06,,-0.05,-0.01,0.95,-0,-0,-0,0.95,1.25,76,2732,0.0,2.97,,12.92,1.228,98.8,,27.9,5,0,0,0,0,0.0,0.0,0.0,0.0,2.27,,,0,0,0,0,0,0,0,0,0,0,0,0,0,0,0,0,0,,,,0.0,39.23988,-77.965668,0.05,32,2,0.8
451234,1745087573295,,,,,,,,,,,,,,,,,,,,,,,,,,,,,,,,,,0,0,0,0,0,0,0,0,0,0,0,0,0,0,0,0,,,,,,,,,,,
451254,1745087573315,0.0,193.19,,-0.03,-0.01,0.98,0,-0,-0,0.98,1.25,78,2663,0.0,3.01,,12.81,1.242,98.8,,27.9,5,,,,,,,,,,,,0,0,0,0,0,0,0,0,0,0,0,0,0,0,0,0,,,,,0.0,,,,,,
451274,1745087573335,,,,,,,,,,,,,,,,,,,,,,,,,,,,,,,,,,0,0,0,0,0,0,0,0,0,0,0,0,0,0,0,0,,,,,,,,,,,
451294,1745087573355,0.0,193.06,,-0.04,-0.02,0.98,0,-0,-0,0.98,1.25,79,2494,0.0,3.02,,12.89,1.252,98.8,,26.1,5,,,,,,,,,,,,0,0,0,0,0,0,0,0,0,0,0,0,0,0,0,0,,,,,0.0,,,,,,
451314,1745087573375,,,,,,,,,,,,,,,,,,,,,,,0,0,0,0,0.0,0.0,0.0,0.0,2.27,,,0,0,0,0,0,0,0,0,0,0,0,0,0,0,0,0,0,,,,,39.23988,-77.965668,0.05,32,2,0.8
451334,1745087573395,0.0,193.06,,-0.05,-0.01,0.98,0,-0,-0,0.98,1.25,79,2440,0.0,3.11,,12.89,1.252,98.8,,26.1,5,,,,,,,,,,,,0,0,0,0,0,0,0,0,0,0,0,0,0,0,0,0,,,,,0.0,,,,,,
451354,1745087573414,,,,,,,,,,,,,,,,,,,,,,,,,,,,,,,,,,0,0,0,0,0,0,0,0,0,0,0,0,0,0,0,0,,,,,,,,,,,
451374,1745087573434,0.0,193.19,,-0.06,-0.02,0.99,-0,-0,-0,0.99,1.25,79,2440,0.0,3.11,,12.95,1.254,98.8,,23.8,5,,,,,,,,,,,,0,0,0,0,0,0,0,0,0,0,0,0,0,0,0,0,,,,,0.0,,,,,,
451394,1745087573454,,,,,,,,,,,,,,,,,,,,,,,,,,,,,,,,,,0,0,0,0,0,0,0,0,0,0,0,0,0,0,0,0,,,,,,,,,,,
451414,1745087573474,0.0,193.19,13.52,-0.06,-0.01,0.99,-0,-0,-0,0.99,1.25,79,2350,0.0,3.1,15,13.03,1.255,98.8,133,23.8,5,0,0,0,0,0.0,0.0,0.0,0.0,2.27,0,0.0,0,0,0,0,0,0,0,0,0,0,0,0,0,0,0,0,0,0.0,0,-0,0.0,39.23988,-77.965668,0.0,32,2,0.8
451434,1745087573494,,,,,,,,,,,,,,,,,,,,,,,,,,,,,,,,,,0,0,0,0,0,0,0,0,0,0,0,0,0,0,0,0,,,,,,,,,,,
451454,1745087573514,0.0,193.19,,-0.04,0.01,0.99,-0,-0,0,0.99,1.25,79,2233,0.0,3.15,,13.11,1.255,98.8,,23.8,5,,,,,,,,,,,,0,0,0,0,0,0,0,0,0,0,0,0,0,0,0,0,,,,,0.0,,,,,,
451474,1745087573534,,,,,,,,,,,,,,,,,,,,,,,,,,,,,,,,,,0,0,0,0,0,0,0,0,0,0,0,0,0,0,0,0,,,,,,,,,,,
451494,1745087573554,0.0,193.19,,-0.04,-0.01,0.97,0,-0,0,0.97,1.25,78,2133,6.6,3.66,,13.44,1.254,98.8,,21.5,5,,,,,,,,,,,,0,0,0,0,0,0,0,0,0,0,0,0,0,0,0,0,,,,,0.0,,,,,,
451514,1745087573574,,,,,,,,,,,,,,,,,,,,,,,0,0,0,0,0.0,0.0,0.0,0.0,2.27,,,0,0,0,0,0,0,0,0,0,0,0,0,0,0,0,0,0,,,,,39.23988,-77.965668,0.05,32,2,0.8
451534,1745087573594,0.0,193.06,,-0.04,-0.01,0.97,-0,-0,-0,0.97,1.25,78,2037,18.9,4.67,,13.44,1.254,98.8,,21.5,5,,,,,,,,,,,,0,0,0,0,0,0,0,0,0,0,0,0,0,0,0,0,,,,,0.0,,,,,,
451554,1745087573614,,,,,,,,,,,,,,,,,,,,,,,,,,,,,,,,,,0,0,0,0,0,0,0,0,0,0,0,0,0,0,0,0,,,,,,,,,,,
451574,1745087573634,0.0,193.06,,-0.04,-0.01,0.98,-0,-0,0,0.98,1.25,79,2037,18.9,4.67,,14.03,1.253,98.8,,20.3,5,,,,,,,,,,,,0,0,0,0,0,0,0,0,0,0,0,0,0,0,0,0,,,,,0.0,,,,,,
451594,1745087573654,,,,,,,,,,,,,,,,,,,,,,,,,,,,,,,,,,0,0,0,0,0,0,0,0,0,0,0,0,0,0,0,0,,,,,,,,,,,
451614,1745087573674,0.0,193.06,,-0.03,-0.03,0.99,-0,-0,-0,0.99,1.25,79,1954,26.1,4.62,,14.26,1.253,98.8,,20.3,5,0,0,0,0,0.0,0.0,0.0,0.0,2.27,,,0,0,0,0,0,0,0,0,0,0,0,0,0,0,0,0,0,,,,0.0,39.23988,-77.965668,0.06,32,2,0.8
451634,1745087573694,,,,,,,,,,,,,,,,,,,,,,,,,,,,,,,,,,0,0,0,0,0,0,0,0,0,0,0,0,0,0,0,0,,,,,,,,,,,
451654,1745087573714,0.0,193.19,,-0.03,-0.02,0.99,0,-0,0,0.99,1.25,79,2017,28.0,4.86,,14.22,1.253,98.8,,20.3,5,,,,,,,,,,,,0,0,0,0,0,0,0,0,0,0,0,0,0,0,0,0,,,,,0.0,,,,,,
451674,1745087573734,,,,,,,,,,,,,,,,,,,,,,,,,,,,,,,,,,0,0,0,0,0,0,0,0,0,0,0,0,0,0,0,0,,,,,,,,,,,
451694,1745087573754,0.0,193.19,,-0.05,-0.01,1.01,-0,-0,-0,1.01,1.25,81,2237,28.1,4.57,,14.18,1.252,98.8,,21.9,5,,,,,,,,,,,,0,0,0,0,0,0,0,0,0,0,0,0,0,0,0,0,,,,,0.0,,,,,,
451714,1745087573774,,,,,,,,,,,,,,,,,,,,,,,0,0,0,0,0.0,0.0,0.0,0.0,2.27,,,0,0,0,0,0,0,0,0,0,0,0,0,0,0,0,0,0,,,,,39.23988,-77.965668,0.04,32,2,0.8
451734,1745087573794,0.0,193.06,,-0.05,0.03,0.99,1,-0,0,0.99,1.25,80,2547,18.0,4.45,,14.18,1.252,98.8,,21.9,5,,,,,,,,,,,,0,0,0,0,0,0,0,0,0,0,0,0,0,0,0,0,,,,,0.0,,,,,,
451754,1745087573814,,,,,,,,,,,,,,,,,,,,,,,,,,,,,,,,,,0,0,0,0,0,0,0,0,0,0,0,0,0,0,0,0,,,,,,,,,,,
451774,1745087573834,0.0,193.06,,-0.05,0.05,0.95,0,-0,0,0.95,1.25,76,2547,18.0,4.45,,14.02,1.252,98.8,,27.0,5,,,,,,,,,,,,0,0,0,0,0,0,0,0,0,0,0,0,0,0,0,0,,,,,0.0,,,,,,
451794,1745087573854,,,,,,,,,,,,,,,,,,,,,,,,,,,,,,,,,,0,0,0,0,0,0,0,0,0,0,0,0,0,0,0,0,,,,,,,,,,,
451814,1745087573874,0.0,193.19,,-0.06,0.03,0.96,-0,-0,-0,0.96,1.25,77,2761,3.6,3.94,,13.57,1.252,98.8,,27.0,5,0,0,0,0,0.0,0.0,0.0,0.0,2.27,,,0,0,0,0,0,0,0,0,0,0,0,0,0,0,0,0,0,,,,0.0,39.23988,-77.965668,0.0,32,2,0.8
451834,1745087573894,,,,,,,,,,,,,,,,,,,,,,,,,,,,,,,,,,0,0,0,0,0,0,0,0,0,0,0,0,0,0,0,0,,,,,,,,,,,
451854,1745087573914,0.0,193.06,,-0.06,-0.02,0.98,-2,-0,-0,0.98,1.25,79,2973,3.4,3.81,,13.27,1.252,98.8,,27.0,5,,,,,,,,,,,,0,0,0,0,0,0,0,0,0,0,0,0,0,0,0,0,,,,,0.0,,,,,,
451874,1745087573934,,,,,,,,,,,,,,,,,,,,,,,,,,,,,,,,,,0,0,0,0,0,0,0,0,0,0,0,0,0,0,0,0,,,,,,,,,,,
451894,1745087573954,0.0,193.19,,-0.08,-0.06,1.0,-3,-0,-1,1.0,1.25,80,3024,8.6,3.91,,13.31,1.255,98.8,,30.0,5,,,,,,,,,,,,0,0,0,0,0,0,0,0,0,0,0,0,0,0,0,0,,,,,0.0,,,,,,
451914,1745087573974,,,,,,,,,,,,,,,,,,,,,,,0,0,0,0,0.0,0.0,0.0,0.0,2.27,,,0,0,0,0,0,0,0,0,0,0,0,0,0,0,0,0,0,,,,,39.239883,-77.965668,0.11,32,2,0.8
451934,1745087573994,0.0,193.19,,-0.09,-0.09,0.99,-4,0,-1,1.0,1.25,80,3026,14.1,4.46,,13.31,1.255,98.8,,30.0,5,,,,,,,,,,,,0,0,0,0,0,0,0,0,0,0,0,0,0,0,0,0,,,,,0.0,,,,,,
451954,1745087574006,,,,,,,,,,,,,,,,,,,,,,,,,,,,,,,,,,0,0,0,0,0,0,0,0,0,0,0,0,0,0,0,0,,,,,,,,,,,
451974,1745087574026,0.0,193.19,,-0.1,-0.08,0.91,-4,-0,-1,0.92,1.25,74,3026,14.1,4.46,,13.61,1.255,98.8,,31.2,5,,,,,,,,,,,,0,0,0,0,0,0,0,0,0,0,0,0,0,0,0,0,,,,,0.0,,,,,,
451994,1745087574046,,,,,,,,,,,,,,,,,,,,,,,,,,,,,,,,,,0,0,0,0,0,0,0,0,0,0,0,0,0,0,0,0,,,,,,,,,,,
452014,1745087574066,0.0,193.06,,-0.08,0.06,0.87,-1,-0,-1,0.88,1.25,70,3199,14.7,4.42,,13.68,1.253,98.8,,31.2,5,0,0,0,0,0.0,0.0,0.0,0.0,2.27,,,0,0,0,0,0,0,0,0,0,0,0,0,0,0,0,0,0,,,,0.0,39.239883,-77.965668,0.11,31,2,0.8
452034,1745087574086,,,,,,,,,,,,,,,,,,,,,,,,,,,,,,,,,,0,0,0,0,0,0,0,0,0,0,0,0,0,0,0,0,,,,,,,,,,,
452054,1745087574116,0.0,193.06,,-0.07,-0.03,0.94,-2,-0,-1,0.94,1.25,75,3314,1.7,4.12,,13.25,1.253,98.8,,31.2,5,,,,,,,,,,,,0,0,0,0,0,0,0,0,0,0,0,0,0,0,0,0,,,,,0.0,,,,,,
452074,1745087574136,,,,,,,,,,,,,,,,,,,,,,,,,,,,,,,,,,0,0,0,0,0,0,0,0,0,0,0,0,0,0,0,0,,,,,,,,,,,
452094,1745087574156,0.0,193.19,,-0.08,0.05,0.9,-1,-0,-0,0.9,1.25,72,3375,0.0,2.72,,12.73,1.253,98.8,,34.5,5,,,,,,,,,,,,0,0,0,0,0,0,0,0,0,0,0,0,0,0,0,0,,,,,0.0,,,,,,
452114,1745087574176,,,,,,,,,,,,,,,,,,,,,,,0,0,0,0,0.0,0.0,0.0,0.0,2.27,,,0,0,0,0,0,0,0,0,0,0,0,0,0,0,0,0,0,,,,,39.239883,-77.965668,0.12,31,2,0.8
452134,1745087574196,0.0,193.19,,-0.06,-0.04,0.98,-1,-0,-0,0.98,1.25,79,3321,0.0,2.74,,12.73,1.253,98.8,,34.5,5,,,,,,,,,,,,0,0,0,0,0,0,0,0,0,0,0,0,0,0,0,0,,,,,0.0,,,,,,
452154,1745087574212,,,,,,,,,,,,,,,,,,,,,,,,,,,,,,,,,,0,0,0,0,0,0,0,0,0,0,0,0,0,0,0,0,,,,,,,,,,,
452174,1745087574232,0.0,193.19,,-0.08,-0.04,0.95,-2,-0,-1,0.95,1.25,76,3321,0.0,2.74,,12.4,1.252,98.8,,33.4,5,,,,,,,,,,,,0,0,0,0,0,0,0,0,0,0,0,0,0,0,0,0,,,,,0.0,,,,,,
452194,1745087574252,,,,,,,,,,,,,,,,,,,,,,,,,,,,,,,,,,0,0,0,0,0,0,0,0,0,0,0,0,0,0,0,0,,,,,,,,,,,
452214,1745087574272,0.0,193.06,,-0.08,-0.0,0.88,-2,-0,-1,0.88,1.25,71,3219,0.0,2.77,,12.29,1.253,98.8,,33.4,5,0,0,0,0,0.0,0.0,0.0,0.0,2.27,,,0,0,0,0,0,0,0,0,0,0,0,0,0,0,0,0,0,,,,0.0,39.239883,-77.965668,0.05,31,2,0.8
452234,1745087574292,,,,,,,,,,,,,,,,,,,,,,,,,,,,,,,,,,0,0,0,0,0,0,0,0,0,0,0,0,0,0,0,0,,,,,,,,,,,
452254,1745087574314,0.0,193.06,,-0.07,0.02,0.81,-1,-0,-1,0.81,1.25,65,3000,4.3,3.38,,12.53,1.252,98.8,,33.4,5,,,,,,,,,,,,0,0,0,0,0,0,0,0,0,0,0,0,0,0,0,0,,,,,0.0,,,,,,
452274,1745087574334,,,,,,,,,,,,,,,,,,,,,,,,,,,,,,,,,,0,0,0,0,0,0,0,0,0,0,0,0,0,0,0,0,,,,,,,,,,,
452294,1745087574354,0.0,193.06,,-0.06,0.04,0.76,-1,-0,-1,0.76,1.25,61,2913,10.4,4.21,,13.15,1.252,98.8,,30.7,5,,,,,,,,,,,,0,0,0,0,0,0,0,0,0,0,0,0,0,0,0,0,,,,,0.0,,,,,,
452314,1745087574374,,,,,,,,,,,,,,,,,,,,,,,0,0,0,0,0.0,0.0,0.0,0.0,2.27,,,0,0,0,0,0,0,0,0,0,0,0,0,0,0,0,0,0,,,,,39.239883,-77.965668,0.0,31,2,0.8
452334,1745087574394,0.0,193.06,,-0.06,0.04,0.72,-2,-0,-1,0.72,1.25,58,3023,14.4,4.47,,13.15,1.252,98.8,,30.7,5,,,,,,,,,,,,0,0,0,0,0,0,0,0,0,0,0,0,0,0,0,0,,,,,0.0,,,,,,
452354,1745087574413,,,,,,,,,,,,,,,,,,,,,,,,,,,,,,,,,,0,0,0,0,0,0,0,0,0,0,0,0,0,0,0,0,,,,,,,,,,,
452374,1745087574433,0.0,193.06,,-0.04,0.07,0.78,0,-0,-0,0.78,1.25,63,3023,14.4,4.47,,13.56,1.253,98.8,,33.1,5,,,,,,,,,,,,0,0,0,0,0,0,0,0,0,0,0,0,0,0,0,0,,,,,0.0,,,,,,
452394,1745087574453,,,,,,,,,,,,,,,,,,,,,,,,,,,,,,,,,,0,0,0,0,0,0,0,0,0,0,0,0,0,0,0,0,,,,,,,,,,,
452414,1745087574473,0.0,193.06,13.58,-0.04,0.06,0.77,-0,-0,-1,0.78,1.25,62,3475,14.8,4.42,15,13.63,1.255,98.8,133,33.1,5,0,0,0,0,0.0,0.0,0.0,0.0,2.27,0,0.0,0,0,0,0,0,0,0,0,0,0,0,0,0,0,0,0,0,0.0,0,-0,0.0,39.239883,-77.965668,0.04,31,2,0.8
452434,1745087574493,,,,,,,,,,,,,,,,,,,,,,,,,,,,,,,,,,0,0,0,0,0,0,0,0,0,0,0,0,0,0,0,0,,,,,,,,,,,
452454,1745087574513,0.0,193.19,,-0.04,0.05,0.81,-0,-0,-1,0.81,1.25,65,3693,8.4,4.23,,13.4,1.254,98.8,,33.1,5,,,,,,,,,,,,0,0,0,0,0,0,0,0,0,0,0,0,0,0,0,0,,,,,0.0,,,,,,
452474,1745087574533,,,,,,,,,,,,,,,,,,,,,,,,,,,,,,,,,,0,0,0,0,0,0,0,0,0,0,0,0,0,0,0,0,,,,,,,,,,,
452494,1745087574553,0.0,193.19,,-0.04,0.05,0.85,0,-0,-1,0.85,1.25,68,3771,0.0,2.72,,12.61,1.252,98.8,,38.4,5,,,,,,,,,,,,0,0,0,0,0,0,0,0,0,0,0,0,0,0,0,0,,,,,0.0,,,,,,
452514,1745087574573,,,,,,,,,,,,,,,,,,,,,,,0,0,0,0,0.0,0.0,0.0,0.0,2.27,,,0,0,0,0,0,0,0,0,0,0,0,0,0,0,0,0,0,,,,,39.239883,-77.965668,0.05,31,2,0.8
452534,1745087574593,0.0,193.06,,-0.04,0.08,0.87,0,-0,-0,0.88,1.25,70,3807,0.0,2.67,,12.61,1.252,98.8,,38.4,5,,,,,,,,,,,,0,0,0,0,0,0,0,0,0,0,0,0,0,0,0,0,,,,,0.0,,,,,,
452554,1745087574613,,,,,,,,,,,,,,,,,,,,,,,,,,,,,,,,,,0,0,0,0,0,0,0,0,0,0,0,0,0,0,0,0,,,,,,,,,,,
452574,1745087574633,0.0,193.19,,-0.03,0.07,0.86,0,-0,-0,0.87,1.25,69,3807,0.0,2.67,,12.05,1.252,98.8,,39.4,5,,,,,,,,,,,,0,0,0,0,0,0,0,0,0,0,0,0,0,0,0,0,,,,,0.0,,,,,,
452594,1745087574653,,,,,,,,,,,,,,,,,,,,,,,,,,,,,,,,,,0,0,0,0,0,0,0,0,0,0,0,0,0,0,0,0,,,,,,,,,,,
452614,1745087574673,0.0,193.19,,-0.04,0.04,0.87,0,-0,-1,0.87,1.25,70,3697,0.0,2.69,,11.79,1.252,98.8,,39.4,5,0,0,0,0,0.0,0.0,0.0,0.0,2.27,,,0,0,0,0,0,0,0,0,0,0,0,0,0,0,0,0,0,,,,0.0,39.239883,-77.965668,0.04,31,2,0.8
452634,1745087574693,,,,,,,,,,,,,,,,,,,,,,,,,,,,,,,,,,0,0,0,0,0,0,0,0,0,0,0,0,0,0,0,0,,,,,,,,,,,
452654,1745087574713,0.0,193.19,,-0.03,-0.01,0.86,-0,-0,-1,0.86,1.25,69,3671,0.0,2.69,,11.61,1.252,98.8,,39.4,5,,,,,,,,,,,,0,0,0,0,0,0,0,0,0,0,0,0,0,0,0,0,,,,,0.0,,,,,,
452674,1745087574733,,,,,,,,,,,,,,,,,,,,,,,,,,,,,,,,,,0,0,0,0,0,0,0,0,0,0,0,0,0,0,0,0,,,,,,,,,,,
452694,1745087574753,0.0,193.19,,-0.03,-0.15,0.87,-1,-0,-1,0.88,1.25,71,3586,0.0,2.7,,11.54,1.252,98.8,,38.5,5,,,,,,,,,,,,0,0,0,0,0,0,0,0,0,0,0,0,0,0,0,0,,,,,0.0,,,,,,
452714,1745087574773,,,,,,,,,,,,,,,,,,,,,,,0,0,0,0,0.0,0.0,0.0,0.0,2.27,,,0,0,0,0,0,0,0,0,0,0,0,0,0,0,0,0,0,,,,,39.239883,-77.965668,0.1,31,2,0.8
452734,1745087574793,0.0,193.19,,-0.03,-0.11,0.93,0,-0,-0,0.93,1.25,75,3543,0.0,2.74,,11.54,1.252,98.8,,38.5,5,,,,,,,,,,,,0,0,0,0,0,0,0,0,0,0,0,0,0,0,0,0,,,,,0.0,,,,,,
452754,1745087574813,,,,,,,,,,,,,,,,,,,,,,,,,,,,,,,,,,0,0,0,0,0,0,0,0,0,0,0,0,0,0,0,0,,,,,,,,,,,
452774,1745087574833,0.0,193.06,,-0.03,-0.07,0.86,-0,-0,-1,0.87,1.25,69,3543,0.0,2.74,,11.52,1.248,98.8,,36.3,5,,,,,,,,,,,,0,0,0,0,0,0,0,0,0,0,0,0,0,0,0,0,,,,,0.0,,,,,,
452794,1745087574853,,,,,,,,,,,,,,,,,,,,,,,,,,,,,,,,,,0,0,0,0,0,0,0,0,0,0,0,0,0,0,0,0,,,,,,,,,,,
452814,1745087574873,0.0,193.06,,-0.03,-0.13,0.96,0,-0,-0,0.97,1.25,77,3424,0.0,2.64,,11.65,1.232,98.8,,36.3,5,0,0,0,0,0.0,0.0,0.0,0.0,2.27,,,0,0,0,0,0,0,0,0,0,0,0,0,0,0,0,0,0,,,,0.0,39.239883,-77.965668,0.09,31,2,0.8
452834,1745087574893,,,,,,,,,,,,,,,,,,,,,,,,,,,,,,,,,,0,0,0,0,0,0,0,0,0,0,0,0,0,0,0,0,,,,,,,,,,,
452854,1745087574915,0.0,193.06,,-0.06,-0.14,0.95,-1,-0,-1,0.97,1.25,77,3220,2.9,3.08,,12.0,1.222,98.8,,36.3,5,,,,,,,,,,,,0,0,0,0,0,0,0,0,0,0,0,0,0,0,0,0,,,,,0.0,,,,,,
452874,1745087574935,,,,,,,,,,,,,,,,,,,,,,,,,,,,,,,,,,0,0,0,0,0,0,0,0,0,0,0,0,0,0,0,0,,,,,,,,,,,
452894,1745087574955,0.0,193.06,,-0.06,-0.11,0.89,-2,-0,-1,0.9,1.25,72,3125,4.2,3.55,,12.45,1.202,98.8,,32.3,5,,,,,,,,,,,,0,0,0,0,0,0,0,0,0,0,0,0,0,0,0,0,,,,,0.0,,,,,,
452914,1745087574975,,,,,,,,,,,,,,,,,,,,,,,0,0,0,0,0.0,0.0,0.0,0.0,2.27,,,0,0,0,0,0,0,0,0,0,0,0,0,0,0,0,0,0,,,,,39.239883,-77.965668,0.11,31,2,0.8
452934,1745087574995,0.0,193.06,,-0.06,-0.07,0.82,-2,-0,-1,0.83,1.25,66,2988,4.5,3.6,,12.45,1.202,98.8,,32.3,5,,,,,,,,,,,,0,0,0,0,0,0,0,0,0,0,0,0,0,0,0,0,,,,,0.0,,,,,,
452954,1745087575005,,,,,,,,,,,,,,,,,,,,,,,,,,,,,,,,,,0,0,0,0,0,0,0,0,0,0,0,0,0,0,0,0,,,,,,,,,,,
452974,1745087575025,0.0,193.06,,-0.06,-0.04,0.76,-2,-0,-1,0.77,1.25,61,2988,4.5,3.6,,12.81,1.177,98.8,,30.6,5,,,,,,,,,,,,0,0,0,0,0,0,0,0,0,0,0,0,0,0,0,0,,,,,0.0,,,,,,
452994,1745087575045,,,,,,,,,,,,,,,,,,,,,,,,,,,,,,,,,,0,0,0,0,0,0,0,0,0,0,0,0,0,0,0,0,,,,,,,,,,,
453014,1745087575065,0.0,193.06,,-0.06,-0.05,0.75,-3,-0,-1,0.76,1.25,61,2949,1.8,3.61,,12.83,1.163,98.8,,30.6,5,0,0,0,0,0.0,0.0,0.0,0.0,2.27,,,0,0,0,0,0,0,0,0,0,0,0,0,0,0,0,0,0,,,,0.0,39.239883,-77.965668,0.04,31,2,0.8
453034,1745087575085,,,,,,,,,,,,,,,,,,,,,,,,,,,,,,,,,,0,0,0,0,0,0,0,0,0,0,0,0,0,0,0,0,,,,,,,,,,,
453054,1745087575113,0.0,193.06,,-0.07,-0.06,0.8,-3,-0,-1,0.8,1.25,64,2921,0.0,2.91,,12.63,1.168,98.8,,30.6,5,,,,,,,,,,,,0,0,0,0,0,0,0,0,0,0,0,0,0,0,0,0,,,,,0.0,,,,,,
453074,1745087575133,,,,,,,,,,,,,,,,,,,,,,,,,,,,,,,,,,0,0,0,0,0,0,0,0,0,0,0,0,0,0,0,0,,,,,,,,,,,
453094,1745087575153,0.0,193.19,,-0.06,-0.05,0.84,-2,-0,-1,0.84,1.25,67,2824,3.3,2.93,,12.76,1.183,98.8,,29.3,5,,,,,,,,,,,,0,0,0,0,0,0,0,0,0,0,0,0,0,0,0,0,,,,,0.0,,,,,,
453114,1745087575173,,,,,,,,,,,,,,,,,,,,,,,0,0,0,0,0.0,0.0,0.0,0.0,2.27,,,0,0,0,0,0,0,0,0,0,0,0,0,0,0,0,0,0,,,,,39.239883,-77.965668,0.0,31,2,0.8
453134,1745087575193,0.0,193.06,,-0.07,0.01,0.81,-2,-0,-1,0.81,1.25,65,2710,9.8,4.11,,12.76,1.183,98.8,,29.3,5,,,,,,,,,,,,0,0,0,0,0,0,0,0,0,0,0,0,0,0,0,0,,,,,0.0,,,,,,
453154,1745087575213,,,,,,,,,,,,,,,,,,,,,,,,,,,,,,,,,,0,0,0,0,0,0,0,0,0,0,0,0,0,0,0,0,,,,,,,,,,,
453174,1745087575233,0.0,193.06,,-0.07,0.02,0.79,-2,-0,-1,0.79,1.25,63,2710,9.8,4.11,,13.25,1.205,98.8,,29.2,5,,,,,,,,,,,,0,0,0,0,0,0,0,0,0,0,0,0,0,0,0,0,,,,,0.0,,,,,,
453194,1745087575253,,,,,,,,,,,,,,,,,,,,,,,,,,,,,,,,,,0,0,0,0,0,0,0,0,0,0,0,0,0,0,0,0,,,,,,,,,,,
453214,1745087575273,0.0,193.19,,-0.07,0.02,0.76,-2,-0,-1,0.76,1.25,61,2906,10.9,4.15,,13.53,1.248,98.8,,29.2,5,0,0,0,0,0.0,0.0,0.0,0.0,2.27,,,0,0,0,0,0,0,0,0,0,0,0,0,0,0,0,0,0,,,,0.0,39.239883,-77.965668,0.05,31,2,0.8
453234,1745087575293,,,,,,,,,,,,,,,,,,,,,,,,,,,,,,,,,,0,0,0,0,0,0,0,0,0,0,0,0,0,0,0,0,,,,,,,,,,,
453254,1745087575313,0.0,193.19,,-0.07,0.07,0.7,-1,-0,-1,0.71,1.25,57,3095,11.0,4.2,,13.52,1.252,98.8,,29.2,5,,,,,,,,,,,,0,0,0,0,0,0,0,0,0,0,0,0,0,0,0,0,,,,,0.0,,,,,,
453274,1745087575333,,,,,,,,,,,,,,,,,,,,,,,,,,,,,,,,,,0,0,0,0,0,0,0,0,0,0,0,0,0,0,0,0,,,,,,,,,,,
453294,1745087575353,0.0,193.19,,-0.05,0.13,0.69,0,-0,-0,0.7,1.25,56,3198,0.0,3.33,,13.0,1.252,98.8,,30.9,5,,,,,,,,,,,,0,0,0,0,0,0,0,0,0,0,0,0,0,0,0,0,,,,,0.0,,,,,,
453314,1745087575373,,,,,,,,,,,,,,,,,,,,,,,0,0,0,0,0.0,0.0,0.0,0.0,2.27,,,0,0,0,0,0,0,0,0,0,0,0,0,0,0,0,0,0,,,,,39.239883,-77.965668,0.07,31,2,0.8
453334,1745087575393,0.0,193.19,,-0.04,0.06,0.78,1,-0,-0,0.78,1.25,63,3135,0.0,3.07,,13.0,1.252,98.8,,30.9,5,,,,,,,,,,,,0,0,0,0,0,0,0,0,0,0,0,0,0,0,0,0,,,,,0.0,,,,,,
453354,1745087575412,,,,,,,,,,,,,,,,,,,,,,,,,,,,,,,,,,0,0,0,0,0,0,0,0,0,0,0,0,0,0,0,0,,,,,,,,,,,
453374,1745087575432,0.0,193.31,,-0.05,0.0,0.89,-1,-0,-0,0.89,1.25,71,3135,0.0,3.07,,12.59,1.254,98.8,,32.2,5,,,,,,,,,,,,0,0,0,0,0,0,0,0,0,0,0,0,0,0,0,0,,,,,0.0,,,,,,
453394,1745087575452,,,,,,,,,,,,,,,,,,,,,,,,,,,,,,,,,,0,0,0,0,0,0,0,0,0,0,0,0,0,0,0,0,,,,,,,,,,,
453414,1745087575472,0.0,193.31,13.59,-0.06,-0.02,0.96,-2,-0,-0,0.96,1.25,77,3094,0.0,3.07,15,12.45,1.255,98.8,133,32.2,5,0,0,0,0,0.0,0.0,0.0,0.0,2.27,0,0.0,0,0,0,0,0,0,0,0,0,0,0,0,0,0,0,0,0,0.0,0,-0,0.0,39.239883,-77.965668,0.06,31,2,0.8
453434,1745087575492,,,,,,,,,,,,,,,,,,,,,,,,,,,,,,,,,,0,0,0,0,0,0,0,0,0,0,0,0,0,0,0,0,,,,,,,,,,,
453454,1745087575514,0.0,193.31,,-0.06,-0.04,1.01,-3,-0,-0,1.01,1.25,81,2996,0.0,3.13,,12.39,1.253,98.8,,32.2,5,,,,,,,,,,,,0,0,0,0,0,0,0,0,0,0,0,0,0,0,0,0,,,,,0.0,,,,,,
453474,1745087575534,,,,,,,,,,,,,,,,,,,,,,,,,,,,,,,,,,0,0,0,0,0,0,0,0,0,0,0,0,0,0,0,0,,,,,,,,,,,
453494,1745087575554,0.0,193.19,,-0.06,-0.05,1.04,-2,-0,-0,1.05,1.25,84,2895,1.5,3.35,,12.59,1.253,98.8,,29.9,5,,,,,,,,,,,,0,0,0,0,0,0,0,0,0,0,0,0,0,0,0,0,,,,,0.0,,,,,,
453514,1745087575574,,,,,,,,,,,,,,,,,,,,,,,0,0,0,0,0.0,0.0,0.0,0.0,2.27,,,0,0,0,0,0,0,0,0,0,0,0,0,0,0,0,0,0,,,,,39.239883,-77.965668,0.07,31,2,0.8
453534,1745087575594,0.0,193.19,,-0.07,-0.03,1.01,-2,-0,-0,1.01,1.25,81,2687,1.7,3.56,,12.59,1.253,98.8,,29.9,5,,,,,,,,,,,,0,0,0,0,0,0,0,0,0,0,0,0,0,0,0,0,,,,,0.0,,,,,,
453554,1745087575614,,,,,,,,,,,,,,,,,,,,,,,,,,,,,,,,,,0,0,0,0,0,0,0,0,0,0,0,0,0,0,0,0,,,,,,,,,,,
453574,1745087575634,0.0,193.06,,-0.07,-0.02,1.01,-2,-0,-0,1.01,1.25,81,2687,1.7,3.56,,12.8,1.252,98.8,,27.7,5,,,,,,,,,,,,0,0,0,0,0,0,0,0,0,0,0,0,0,0,0,0,,,,,0.0,,,,,,
453594,1745087575654,,,,,,,,,,,,,,,,,,,,,,,,,,,,,,,,,,0,0,0,0,0,0,0,0,0,0,0,0,0,0,0,0,,,,,,,,,,,
453614,1745087575674,0.0,193.19,,-0.07,-0.01,1.01,-1,-0,-0,1.01,1.25,81,2664,0.0,2.99,,12.73,1.252,98.8,,27.7,5,0,0,0,0,0.0,0.0,0.0,0.0,2.27,,,0,0,0,0,0,0,0,0,0,0,0,0,0,0,0,0,0,,,,0.0,39.239883,-77.965668,0.04,31,2,0.8
453634,1745087575694,,,,,,,,,,,,,,,,,,,,,,,,,,,,,,,,,,0,0,0,0,0,0,0,0,0,0,0,0,0,0,0,0,,,,,,,,,,,
