"Interval"|"ms"|0|0|1,"Utc"|"ms"|0|0|1,"FrontBP"|"psi"|-5.0|5.0|25,"SteerAng"|"Degrees"|-145|145|25,"Battery"|"Volts"|-5.0|20.0|1,"AccelX"|"G"|-3.0|3.0|25,"AccelY"|"G"|-3.0|3.0|25,"AccelZ"|"G"|-3.0|3.0|25,"Yaw"|"Deg/Sec"|-120|120|25,"Pitch"|"Deg/Sec"|-120|120|25,"Roll"|"Deg/Sec"|-120|120|25,"Gsum"|"G"|0.0|3.0|25,"GsumMax"|"G"|0.0|3.0|25,"GsumPct"|"%"|0|100|25,"RPM"|""|0|10000|25,"TPS"|"%"|0.0|100.0|25,"InjectorPW"|"ms"|0.0|100.0|25,"Baro"|"kPa"|0|105|1,"MAP"|"Psi"|0.0|255.0|25,"Lambda"|""|-2.0|2.0|25,"IAT"|"C"|0.0|200.0|25,"EngineTemp"|"C"|0|200|1,"EOP"|"PSI"|0.0|152.0|25,"EOT"|"F"|0|250|25,"WSFR"|"MPH"|0|150|10,"WSFL"|"MPH"|0|100|10,"WSRR"|"MPH"|0|100|10,"WSRL"|""|0|100|10,"TCSet"|"%"|0.0|100.0|10,"TCSlip"|"%"|0.0|100.0|10,"TCComp"|"deg"|0.0|50.0|10,"TCCut"|"%"|0.0|100.0|10,"Analog8"|""|0.0|5.0|10,"OilTemp"|"F"|0|300|1,"AA_On"|""|0.0|1.0|1,"ThermLF1"|"C"|0|400|50,"ThermLF2"|"C"|0|400|50,"ThermRR1"|"C"|0|400|50,"ThermRR2"|"C"|0|400|50,"ThermLF3"|"C"|0|400|50,"ThermLF4"|"C"|0|400|50,"ThermLF5"|"C"|0|400|50,"ThermLF6"|"C"|0|400|50,"ThermLF7"|"C"|0|400|50,"ThermLF8"|"C"|0|400|50,"ThermRR3"|"C"|0|400|50,"ThermRR4"|"C"|0|400|50,"ThermRR5"|"C"|0|400|50,"ThermRR6"|"C"|0|400|50,"ThermRR7"|"C"|0|400|50,"ThermRR8"|"C"|0|400|50,"Gear"|""|1|6|10,"AA_On"|""|0.0|1.0|1,"AA_LowDrag"|""|0|1|1,"Fuel_Mix"|""|-10|10|1,"AA_Packages"|""|0.0|1000.0|25,"Latitude"|"Degrees"|-180.0|180.0|10,"Longitude"|"Degrees"|-180.0|180.0|10,"Speed"|"kph"|0.0|150.0|10,"GPSSats"|""|0|20|10,"GPSQual"|""|0|5|10,"GPSDOP"|""|0.0|20.0|10
2024834,1745089146901,,,,,,,,,,,,,,,,,,,,,,,,,,,,,,,,,,0,0,0,0,0,0,0,0,0,0,0,0,0,0,0,0,,,,,,,,,,,
2024854,1745089146921,0.0,190.05,,0.09,-0.42,0.5,4,-0,-3,0.66,0.66,100,4568,13.1,3.69,,12.72,1.065,91.6,,32.8,5,,,,,,,,,,,,0,0,0,0,0,0,0,0,0,0,0,0,0,0,0,0,,,,,0.0,,,,,,
2024874,1745089146941,,,,,,,,,,,,,,,,,,,,,,,,,,,,,,,,,,0,0,0,0,0,0,0,0,0,0,0,0,0,0,0,0,,,,,,,,,,,
2024894,1745089146961,0.0,190.05,,0.11,-0.33,0.57,4,-0,-2,0.67,0.67,100,4549,13.1,3.72,,12.65,1.065,91.6,,32.8,5,,,,,,,,,,,,0,0,0,0,0,0,0,0,0,0,0,0,0,0,0,0,,,,,0.0,,,,,,
2024914,1745089146981,,,,,,,,,,,,,,,,,,,,,,,0,0,0,0,0.0,0.0,0.0,0.0,2.26,,,0,0,0,0,0,0,0,0,0,0,0,0,0,0,0,0,0,,,,,39.23996,-77.965584,0.04,33,3,0.9
2024934,1745089146992,0.0,189.92,,0.12,-0.25,0.65,3,-0,-2,0.7,0.7,100,4543,13.0,3.73,,12.65,1.065,91.6,,32.7,5,,,,,,,,,,,,0,0,0,0,0,0,0,0,0,0,0,0,0,0,0,0,,,,,0.0,,,,,,
2024954,1745089147012,,,,,,,,,,,,,,,,,,,,,,,,,,,,,,,,,,0,0,0,0,0,0,0,0,0,0,0,0,0,0,0,0,,,,,,,,,,,
2024974,1745089147032,0.0,189.92,,0.13,-0.16,0.75,3,-0,-2,0.78,0.78,100,4543,13.0,3.73,,12.71,1.11,91.6,,32.7,5,,,,,,,,,,,,0,0,0,0,0,0,0,0,0,0,0,0,0,0,0,0,,,,,0.0,,,,,,
2024994,1745089147052,,,,,,,,,,,,,,,,,,,,,,,,,,,,,,,,,,0,0,0,0,0,0,0,0,0,0,0,0,0,0,0,0,,,,,,,,,,,
2025014,1745089147072,0.0,189.92,,0.12,-0.07,0.84,3,-0,-1,0.86,0.86,100,4548,13.0,3.72,,12.71,1.145,91.6,,32.8,5,0,0,0,0,0.0,0.0,0.0,0.0,2.26,,,0,0,0,0,0,0,0,0,0,0,0,0,0,0,0,0,0,,,,0.0,39.23996,-77.965584,0.0,33,3,0.9
2025034,1745089147096,,,,,,,,,,,,,,,,,,,,,,,,,,,,,,,,,,0,0,0,0,0,0,0,0,0,0,0,0,0,0,0,0,,,,,,,,,,,
2025054,1745089147116,0.0,189.92,,0.11,-0.01,0.96,2,-0,-1,0.97,0.97,100,4530,13.0,3.72,,12.69,1.136,91.6,,32.8,5,,,,,,,,,,,,0,0,0,0,0,0,0,0,0,0,0,0,0,0,0,0,,,,,0.0,,,,,,
2025074,1745089147136,,,,,,,,,,,,,,,,,,,,,,,,,,,,,,,,,,0,0,0,0,0,0,0,0,0,0,0,0,0,0,0,0,,,,,,,,,,,
2025094,1745089147156,0.0,189.92,,0.1,0.08,1.04,2,-0,-1,1.05,1.05,100,4462,13.1,3.73,,12.69,1.131,91.6,,32.8,5,,,,,,,,,,,,0,0,0,0,0,0,0,0,0,0,0,0,0,0,0,0,,,,,0.0,,,,,,
2025114,1745089147176,,,,,,,,,,,,,,,,,,,,,,,0,0,0,0,0.0,0.0,0.0,0.0,2.26,,,0,0,0,0,0,0,0,0,0,0,0,0,0,0,0,0,0,,,,,39.23996,-77.965584,0.04,33,3,0.9
2025134,1745089147198,0.0,189.92,,0.08,0.12,1.14,2,-0,-0,1.15,1.15,100,4501,13.1,3.69,,12.69,1.131,91.6,,32.4,5,,,,,,,,,,,,0,0,0,0,0,0,0,0,0,0,0,0,0,0,0,0,,,,,0.0,,,,,,
2025154,1745089147218,,,,,,,,,,,,,,,,,,,,,,,,,,,,,,,,,,0,0,0,0,0,0,0,0,0,0,0,0,0,0,0,0,,,,,,,,,,,
2025174,1745089147238,0.0,189.79,,0.08,0.2,1.2,1,-0,0,1.22,1.22,100,4501,13.1,3.69,,12.73,1.151,91.6,,32.4,5,,,,,,,,,,,,0,0,0,0,0,0,0,0,0,0,0,0,0,0,0,0,,,,,0.0,,,,,,
2025194,1745089147258,,,,,,,,,,,,,,,,,,,,,,,,,,,,,,,,,,0,0,0,0,0,0,0,0,0,0,0,0,0,0,0,0,,,,,,,,,,,
2025214,1745089147278,0.0,189.92,,0.08,0.23,1.26,1,-0,0,1.28,1.28,100,4454,13.1,3.74,,12.67,1.139,91.6,,31.9,5,0,0,0,0,0.0,0.0,0.0,0.0,2.26,,,0,0,0,0,0,0,0,0,0,0,0,0,0,0,0,0,0,,,,0.0,39.23996,-77.965584,0.07,33,3,0.9
2025234,1745089147302,,,,,,,,,,,,,,,,,,,,,,,,,,,,,,,,,,0,0,0,0,0,0,0,0,0,0,0,0,0,0,0,0,,,,,,,,,,,
2025254,1745089147322,0.0,189.79,,0.09,0.26,1.28,1,-0,0,1.31,1.31,100,4501,13.1,3.77,,12.68,1.14,91.6,,31.9,5,,,,,,,,,,,,0,0,0,0,0,0,0,0,0,0,0,0,0,0,0,0,,,,,0.0,,,,,,
2025274,1745089147342,,,,,,,,,,,,,,,,,,,,,,,,,,,,,,,,,,0,0,0,0,0,0,0,0,0,0,0,0,0,0,0,0,,,,,,,,,,,
2025294,1745089147362,0.0,189.79,,0.1,0.27,1.29,1,-0,0,1.32,1.32,100,4497,13.1,3.77,,12.68,1.128,91.6,,31.9,5,,,,,,,,,,,,0,0,0,0,0,0,0,0,0,0,0,0,0,0,0,0,,,,,0.0,,,,,,
2025314,1745089147382,,,,,,,,,,,,,,,,,,,,,,,0,0,0,0,0.0,0.0,0.0,0.0,2.26,,,0,0,0,0,0,0,0,0,0,0,0,0,0,0,0,0,0,,,,,39.23996,-77.965584,0.07,33,3,0.9
2025334,1745089147402,0.0,189.92,,0.12,0.27,1.26,2,-0,-0,1.3,1.32,98,4477,13.1,3.79,,12.68,1.128,91.6,,32.4,5,,,,,,,,,,,,0,0,0,0,0,0,0,0,0,0,0,0,0,0,0,0,,,,,0.0,,,,,,
2025354,1745089147422,,,,,,,,,,,,,,,,,,,,,,,,,,,,,,,,,,0,0,0,0,0,0,0,0,0,0,0,0,0,0,0,0,,,,,,,,,,,
2025374,1745089147442,0.0,189.92,,0.15,0.24,1.18,2,-0,-0,1.21,1.32,92,4477,13.1,3.79,,12.71,1.128,91.6,,32.4,5,,,,,,,,,,,,0,0,0,0,0,0,0,0,0,0,0,0,0,0,0,0,,,,,0.0,,,,,,
2025394,1745089147462,,,,,,,,,,,,,,,,,,,,,,,,,,,,,,,,,,0,0,0,0,0,0,0,0,0,0,0,0,0,0,0,0,,,,,,,,,,,
2025414,1745089147482,0.0,189.79,13.53,0.17,0.22,1.14,2,-0,-0,1.17,1.32,88,4623,13.0,3.72,15,12.75,1.165,91.6,171,33.5,5,0,0,0,0,0.0,0.0,0.0,0.0,2.26,0,0.0,0,0,0,0,0,0,0,0,0,0,0,0,0,0,0,0,0,0.0,0,0,0.0,39.23996,-77.965584,0.11,33,3,0.9
2025434,1745089147502,,,,,,,,,,,,,,,,,,,,,,,,,,,,,,,,,,0,0,0,0,0,0,0,0,0,0,0,0,0,0,0,0,,,,,,,,,,,
2025454,1745089147522,0.0,189.79,,0.15,0.24,1.19,1,-0,0,1.22,1.32,92,4685,12.8,3.64,,12.61,1.083,91.6,,33.5,5,,,,,,,,,,,,0,0,0,0,0,0,0,0,0,0,0,0,0,0,0,0,,,,,0.0,,,,,,
2025474,1745089147542,,,,,,,,,,,,,,,,,,,,,,,,,,,,,,,,,,0,0,0,0,0,0,0,0,0,0,0,0,0,0,0,0,,,,,,,,,,,
2025494,1745089147562,0.0,189.79,,0.09,0.21,1.17,1,-0,0,1.19,1.32,90,4766,12.8,3.55,,12.76,0.95,91.6,,33.5,5,,,,,,,,,,,,0,0,0,0,0,0,0,0,0,0,0,0,0,0,0,0,,,,,0.0,,,,,,
2025514,1745089147582,,,,,,,,,,,,,,,,,,,,,,,0,0,0,0,0.0,0.0,0.0,0.0,2.26,,,0,0,0,0,0,0,0,0,0,0,0,0,0,0,0,0,0,,,,,39.23996,-77.965584,0.05,33,3,0.9
2025534,1745089147602,0.0,189.79,,0.11,0.12,1.08,2,-0,-0,1.09,1.32,82,4702,13.0,3.52,,12.76,0.95,91.6,,34.6,5,,,,,,,,,,,,0,0,0,0,0,0,0,0,0,0,0,0,0,0,0,0,,,,,0.0,,,,,,
2025554,1745089147622,,,,,,,,,,,,,,,,,,,,,,,,,,,,,,,,,,0,0,0,0,0,0,0,0,0,0,0,0,0,0,0,0,,,,,,,,,,,
2025574,1745089147642,0.0,189.67,,0.1,0.11,1.12,1,-0,-0,1.13,1.32,85,4702,13.0,3.52,,12.64,0.924,91.6,,34.6,5,,,,,,,,,,,,0,0,0,0,0,0,0,0,0,0,0,0,0,0,0,0,,,,,0.0,,,,,,
2025594,1745089147662,,,,,,,,,,,,,,,,,,,,,,,,,,,,,,,,,,0,0,0,0,0,0,0,0,0,0,0,0,0,0,0,0,,,,,,,,,,,
2025614,1745089147682,0.0,189.67,,0.04,0.09,1.1,1,-0,-0,1.1,1.32,83,4726,13.1,3.49,,12.65,0.936,91.6,,35.1,5,0,0,0,0,0.0,0.0,0.0,0.0,2.26,,,0,0,0,0,0,0,0,0,0,0,0,0,0,0,0,0,0,,,,0.0,39.23996,-77.965584,0.0,33,3,0.9
2025634,1745089147700,,,,,,,,,,,,,,,,,,,,,,,,,,,,,,,,,,0,0,0,0,0,0,0,0,0,0,0,0,0,0,0,0,,,,,,,,,,,
2025654,1745089147720,0.0,189.42,,0.08,0.04,1.05,1,-0,-0,1.06,1.32,80,4770,13.0,3.45,,12.63,0.984,91.6,,35.1,5,,,,,,,,,,,,0,0,0,0,0,0,0,0,0,0,0,0,0,0,0,0,,,,,0.0,,,,,,
2025674,1745089147740,,,,,,,,,,,,,,,,,,,,,,,,,,,,,,,,,,0,0,0,0,0,0,0,0,0,0,0,0,0,0,0,0,,,,,,,,,,,
2025694,1745089147760,0.0,189.54,,0.04,0.09,1.1,0,-0,0,1.1,1.32,83,4808,13.0,3.5,,12.67,1.022,91.6,,35.1,5,,,,,,,,,,,,0,0,0,0,0,0,0,0,0,0,0,0,0,0,0,0,,,,,0.0,,,,,,
2025714,1745089147780,,,,,,,,,,,,,,,,,,,,,,,0,0,0,0,0.0,0.0,0.0,0.0,2.26,,,0,0,0,0,0,0,0,0,0,0,0,0,0,0,0,0,0,,,,,39.23996,-77.965584,0.0,33,3,0.9
2025734,1745089147802,0.0,189.42,,0.03,0.05,1.03,1,-0,-0,1.04,1.32,78,4725,13.0,3.5,,12.67,1.022,91.6,,35.0,5,,,,,,,,,,,,0,0,0,0,0,0,0,0,0,0,0,0,0,0,0,0,,,,,0.0,,,,,,
2025754,1745089147822,,,,,,,,,,,,,,,,,,,,,,,,,,,,,,,,,,0,0,0,0,0,0,0,0,0,0,0,0,0,0,0,0,,,,,,,,,,,
2025774,1745089147842,0.0,189.54,,0.06,0.04,1.0,1,-0,-0,1.01,1.32,76,4725,13.0,3.5,,12.59,1.001,91.6,,35.0,5,,,,,,,,,,,,0,0,0,0,0,0,0,0,0,0,0,0,0,0,0,0,,,,,0.0,,,,,,
2025794,1745089147862,,,,,,,,,,,,,,,,,,,,,,,,,,,,,,,,,,0,0,0,0,0,0,0,0,0,0,0,0,0,0,0,0,,,,,,,,,,,
2025814,1745089147882,0.0,189.54,,0.01,0.08,1.02,0,-0,-0,1.02,1.32,77,4755,13.1,3.53,,12.57,0.95,91.6,,35.2,5,0,0,0,0,0.0,0.0,0.0,0.0,2.26,,,0,0,0,0,0,0,0,0,0,0,0,0,0,0,0,0,0,,,,0.0,39.23996,-77.965584,0.04,33,3,0.9
2025834,1745089147900,,,,,,,,,,,,,,,,,,,,,,,,,,,,,,,,,,0,0,0,0,0,0,0,0,0,0,0,0,0,0,0,0,,,,,,,,,,,
2025854,1745089147920,0.0,189.54,,0.0,0.04,0.98,0,-0,-0,0.98,1.32,74,4839,13.0,3.4,,12.63,0.95,91.6,,35.2,5,,,,,,,,,,,,0,0,0,0,0,0,0,0,0,0,0,0,0,0,0,0,,,,,0.0,,,,,,
2025874,1745089147940,,,,,,,,,,,,,,,,,,,,,,,,,,,,,,,,,,0,0,0,0,0,0,0,0,0,0,0,0,0,0,0,0,,,,,,,,,,,
2025894,1745089147960,0.0,189.54,,-0.04,0.06,0.98,-0,-0,0,0.98,1.32,74,4861,12.9,3.39,,12.56,0.958,91.6,,35.2,5,,,,,,,,,,,,0,0,0,0,0,0,0,0,0,0,0,0,0,0,0,0,,,,,0.0,,,,,,
2025914,1745089147980,,,,,,,,,,,,,,,,,,,,,,,0,0,0,0,0.0,0.0,0.0,0.0,2.26,,,0,0,0,0,0,0,0,0,0,0,0,0,0,0,0,0,0,,,,,39.23996,-77.965584,0.0,33,3,0.9
2025934,1745089147993,0.0,189.54,,0.01,0.02,0.96,0,-0,-0,0.96,1.32,73,4861,12.9,3.39,,12.56,0.958,91.6,,35.5,5,,,,,,,,,,,,0,0,0,0,0,0,0,0,0,0,0,0,0,0,0,0,,,,,0.0,,,,,,
2025954,1745089148013,,,,,,,,,,,,,,,,,,,,,,,,,,,,,,,,,,0,0,0,0,0,0,0,0,0,0,0,0,0,0,0,0,,,,,,,,,,,
2025974,1745089148033,0.0,189.54,,-0.04,0.06,1.01,-0,-0,0,1.02,1.32,77,4853,12.8,3.45,,12.6,1.002,91.6,,35.5,5,,,,,,,,,,,,0,0,0,0,0,0,0,0,0,0,0,0,0,0,0,0,,,,,0.0,,,,,,
2025994,1745089148053,,,,,,,,,,,,,,,,,,,,,,,,,,,,,,,,,,0,0,0,0,0,0,0,0,0,0,0,0,0,0,0,0,,,,,,,,,,,
2026014,1745089148073,0.0,189.54,,-0.04,-0.03,0.96,-0,-0,-0,0.96,1.32,73,4771,12.8,3.46,,12.61,1.087,91.6,,34.8,5,0,0,0,0,0.0,0.0,0.0,0.0,2.26,,,0,0,0,0,0,0,0,0,0,0,0,0,0,0,0,0,0,,,,0.0,39.23996,-77.965584,0.09,33,3,0.9
2026034,1745089148101,,,,,,,,,,,,,,,,,,,,,,,,,,,,,,,,,,0,0,0,0,0,0,0,0,0,0,0,0,0,0,0,0,,,,,,,,,,,
2026054,1745089148121,0.0,189.54,,-0.0,-0.05,0.95,0,-0,-0,0.96,1.32,72,4704,13.0,3.51,,12.61,1.151,91.6,,34.8,5,,,,,,,,,,,,0,0,0,0,0,0,0,0,0,0,0,0,0,0,0,0,,,,,0.0,,,,,,
2026074,1745089148141,,,,,,,,,,,,,,,,,,,,,,,,,,,,,,,,,,0,0,0,0,0,0,0,0,0,0,0,0,0,0,0,0,,,,,,,,,,,
2026094,1745089148161,0.0,189.54,,-0.03,0.04,1.04,-0,-0,0,1.04,1.32,78,4659,13.0,3.55,,12.6,1.177,91.6,,34.8,5,,,,,,,,,,,,0,0,0,0,0,0,0,0,0,0,0,0,0,0,0,0,,,,,0.0,,,,,,
2026114,1745089148181,,,,,,,,,,,,,,,,,,,,,,,0,0,0,0,0.0,0.0,0.0,0.0,2.26,,,0,0,0,0,0,0,0,0,0,0,0,0,0,0,0,0,0,,,,,39.23996,-77.965584,0.04,33,3,0.9
2026134,1745089148201,0.0,189.54,,-0.08,0.05,1.06,-1,-0,0,1.06,1.32,80,4616,13.0,3.57,,12.6,1.177,91.6,,34.1,5,,,,,,,,,,,,0,0,0,0,0,0,0,0,0,0,0,0,0,0,0,0,,,,,0.0,,,,,,
2026154,1745089148221,,,,,,,,,,,,,,,,,,,,,,,,,,,,,,,,,,0,0,0,0,0,0,0,0,0,0,0,0,0,0,0,0,,,,,,,,,,,
2026174,1745089148241,0.0,189.54,,-0.08,-0.02,0.99,-1,-0,0,0.99,1.32,75,4616,13.0,3.57,,12.6,1.192,91.6,,34.1,5,,,,,,,,,,,,0,0,0,0,0,0,0,0,0,0,0,0,0,0,0,0,,,,,0.0,,,,,,
2026194,1745089148261,,,,,,,,,,,,,,,,,,,,,,,,,,,,,,,,,,0,0,0,0,0,0,0,0,0,0,0,0,0,0,0,0,,,,,,,,,,,
2026214,1745089148281,0.0,189.54,,-0.04,-0.07,0.91,0,-0,-0,0.91,1.32,69,4598,13.0,3.6,,12.64,1.176,91.6,,33.6,5,0,0,0,0,0.0,0.0,0.0,0.0,2.26,,,0,0,0,0,0,0,0,0,0,0,0,0,0,0,0,0,0,,,,0.0,39.23996,-77.965584,0.04,33,3,0.9
2026234,1745089148301,,,,,,,,,,,,,,,,,,,,,,,,,,,,,,,,,,0,0,0,0,0,0,0,0,0,0,0,0,0,0,0,0,,,,,,,,,,,
2026254,1745089148321,0.0,189.54,,0.0,-0.1,0.86,1,-0,-1,0.86,1.32,65,4559,13.0,3.64,,12.65,1.172,91.6,,33.6,5,,,,,,,,,,,,0,0,0,0,0,0,0,0,0,0,0,0,0,0,0,0,,,,,0.0,,,,,,
2026274,1745089148341,,,,,,,,,,,,,,,,,,,,,,,,,,,,,,,,,,0,0,0,0,0,0,0,0,0,0,0,0,0,0,0,0,,,,,,,,,,,
2026294,1745089148361,0.0,189.67,,0.05,-0.02,0.88,2,-0,-1,0.88,1.32,67,4510,13.1,3.67,,12.59,1.16,91.6,,33.6,5,,,,,,,,,,,,0,0,0,0,0,0,0,0,0,0,0,0,0,0,0,0,,,,,0.0,,,,,,
2026314,1745089148381,,,,,,,,,,,,,,,,,,,,,,,0,0,0,0,0.0,0.0,0.0,0.0,2.26,,,0,0,0,0,0,0,0,0,0,0,0,0,0,0,0,0,0,,,,,39.23996,-77.965584,0.32,33,3,0.9
2026334,1745089148401,0.0,189.67,,0.07,0.0,0.89,2,-0,-1,0.9,1.32,68,4569,13.0,3.68,,12.59,1.16,91.6,,32.9,5,,,,,,,,,,,,0,0,0,0,0,0,0,0,0,0,0,0,0,0,0,0,,,,,0.0,,,,,,
2026354,1745089148421,,,,,,,,,,,,,,,,,,,,,,,,,,,,,,,,,,0,0,0,0,0,0,0,0,0,0,0,0,0,0,0,0,,,,,,,,,,,
2026374,1745089148441,0.0,189.67,,0.08,0.08,0.98,2,-0,-1,0.98,1.32,74,4569,13.0,3.68,,12.64,1.158,91.6,,32.9,5,,,,,,,,,,,,0,0,0,0,0,0,0,0,0,0,0,0,0,0,0,0,,,,,0.0,,,,,,
2026394,1745089148461,,,,,,,,,,,,,,,,,,,,,,,,,,,,,,,,,,0,0,0,0,0,0,0,0,0,0,0,0,0,0,0,0,,,,,,,,,,,
2026414,1745089148481,0.0,189.67,13.59,0.07,0.14,1.07,1,-0,-0,1.08,1.32,82,4544,12.8,3.72,15,12.64,1.152,91.6,171,32.9,5,0,0,0,0,0.0,0.0,0.0,0.0,2.26,0,0.0,0,0,0,0,0,0,0,0,0,0,0,0,0,0,0,0,0,0.0,0,0,0.0,39.23996,-77.965584,0.35,33,3,0.9
2026434,1745089148503,,,,,,,,,,,,,,,,,,,,,,,,,,,,,,,,,,0,0,0,0,0,0,0,0,0,0,0,0,0,0,0,0,,,,,,,,,,,
2026454,1745089148523,0.0,189.67,,0.06,0.21,1.16,1,-0,0,1.18,1.32,89,4530,12.8,3.73,,12.65,1.155,91.6,,32.5,5,,,,,,,,,,,,0,0,0,0,0,0,0,0,0,0,0,0,0,0,0,0,,,,,0.0,,,,,,
2026474,1745089148543,,,,,,,,,,,,,,,,,,,,,,,,,,,,,,,,,,0,0,0,0,0,0,0,0,0,0,0,0,0,0,0,0,,,,,,,,,,,
2026494,1745089148563,0.0,189.67,,0.04,0.25,1.25,0,-0,1,1.27,1.32,96,4550,12.9,3.72,,12.67,1.157,91.6,,32.5,5,,,,,,,,,,,,0,0,0,0,0,0,0,0,0,0,0,0,0,0,0,0,,,,,0.0,,,,,,
2026514,1745089148583,,,,,,,,,,,,,,,,,,,,,,,0,0,0,0,0.0,0.0,0.0,0.0,2.26,,,0,0,0,0,0,0,0,0,0,0,0,0,0,0,0,0,0,,,,,39.23996,-77.965584,0.04,33,3,0.9
2026534,1745089148601,0.0,189.67,,-0.03,0.24,1.25,-1,-0,1,1.27,1.32,96,4662,13.0,3.61,,12.67,1.157,91.6,,33.8,5,,,,,,,,,,,,0,0,0,0,0,0,0,0,0,0,0,0,0,0,0,0,,,,,0.0,,,,,,
2026554,1745089148621,,,,,,,,,,,,,,,,,,,,,,,,,,,,,,,,,,0,0,0,0,0,0,0,0,0,0,0,0,0,0,0,0,,,,,,,,,,,
2026574,1745089148641,0.0,189.67,,-0.04,0.17,1.19,-1,-0,1,1.2,1.32,90,4662,13.0,3.61,,12.64,1.183,91.6,,33.8,5,,,,,,,,,,,,0,0,0,0,0,0,0,0,0,0,0,0,0,0,0,0,,,,,0.0,,,,,,
2026594,1745089148661,,,,,,,,,,,,,,,,,,,,,,,,,,,,,,,,,,0,0,0,0,0,0,0,0,0,0,0,0,0,0,0,0,,,,,,,,,,,
2026614,1745089148681,0.0,189.54,,-0.06,0.06,1.11,-0,-0,0,1.12,1.32,84,4628,13.0,3.64,,12.71,1.122,91.6,,33.7,5,0,0,0,0,0.0,0.0,0.0,0.0,2.25,,,0,0,0,0,0,0,0,0,0,0,0,0,0,0,0,0,0,,,,0.0,39.23996,-77.965584,0.0,33,3,0.9
2026634,1745089148701,,,,,,,,,,,,,,,,,,,,,,,,,,,,,,,,,,0,0,0,0,0,0,0,0,0,0,0,0,0,0,0,0,,,,,,,,,,,
2026654,1745089148721,0.0,189.67,,-0.03,-0.05,1.0,1,-0,-0,1.01,1.32,76,4592,13.1,3.61,,12.69,1.06,91.6,,33.7,5,,,,,,,,,,,,0,0,0,0,0,0,0,0,0,0,0,0,0,0,0,0,,,,,0.0,,,,,,
2026674,1745089148741,,,,,,,,,,,,,,,,,,,,,,,,,,,,,,,,,,0,0,0,0,0,0,0,0,0,0,0,0,0,0,0,0,,,,,,,,,,,
2026694,1745089148761,0.0,189.67,,0.01,-0.12,0.91,1,-0,-1,0.92,1.32,69,4540,13.0,3.66,,12.61,1.087,91.6,,33.7,5,,,,,,,,,,,,0,0,0,0,0,0,0,0,0,0,0,0,0,0,0,0,,,,,0.0,,,,,,
2026714,1745089148781,,,,,,,,,,,,,,,,,,,,,,,0,0,0,0,0.0,0.0,0.0,0.0,2.26,,,0,0,0,0,0,0,0,0,0,0,0,0,0,0,0,0,0,,,,,39.23996,-77.965584,0.08,33,3,0.9
2026734,1745089148801,0.0,189.67,,0.05,-0.1,0.88,1,-0,-1,0.89,1.32,67,4535,13.0,3.66,,12.61,1.087,91.6,,33.2,5,,,,,,,,,,,,0,0,0,0,0,0,0,0,0,0,0,0,0,0,0,0,,,,,0.0,,,,,,
2026754,1745089148821,,,,,,,,,,,,,,,,,,,,,,,,,,,,,,,,,,0,0,0,0,0,0,0,0,0,0,0,0,0,0,0,0,,,,,,,,,,,
2026774,1745089148841,0.0,189.67,,0.07,-0.05,0.91,1,-0,-0,0.91,1.32,69,4535,13.0,3.66,,12.67,1.119,91.6,,33.2,5,,,,,,,,,,,,0,0,0,0,0,0,0,0,0,0,0,0,0,0,0,0,,,,,0.0,,,,,,
2026794,1745089148861,,,,,,,,,,,,,,,,,,,,,,,,,,,,,,,,,,0,0,0,0,0,0,0,0,0,0,0,0,0,0,0,0,,,,,,,,,,,
2026814,1745089148881,0.0,189.54,,0.08,0.04,1.0,1,-0,0,1.01,1.32,76,4544,13.0,3.65,,12.64,1.143,91.6,,32.5,5,0,0,0,0,0.0,0.0,0.0,0.0,2.26,,,0,0,0,0,0,0,0,0,0,0,0,0,0,0,0,0,0,,,,0.0,39.23996,-77.965584,0.13,33,3,0.9
2026834,1745089148903,,,,,,,,,,,,,,,,,,,,,,,,,,,,,,,,,,0,0,0,0,0,0,0,0,0,0,0,0,0,0,0,0,,,,,,,,,,,
2026854,1745089148923,0.0,189.54,,0.08,0.11,1.06,0,-0,1,1.07,1.32,81,4564,12.9,3.65,,12.63,1.162,91.6,,32.5,5,,,,,,,,,,,,0,0,0,0,0,0,0,0,0,0,0,0,0,0,0,0,,,,,0.0,,,,,,
2026874,1745089148943,,,,,,,,,,,,,,,,,,,,,,,,,,,,,,,,,,0,0,0,0,0,0,0,0,0,0,0,0,0,0,0,0,,,,,,,,,,,
2026894,1745089148963,0.0,189.54,,0.03,0.16,1.16,-1,-0,1,1.17,1.32,88,4568,12.9,3.72,,12.69,1.154,91.6,,32.5,5,,,,,,,,,,,,0,0,0,0,0,0,0,0,0,0,0,0,0,0,0,0,,,,,0.0,,,,,,
2026914,1745089148983,,,,,,,,,,,,,,,,,,,,,,,0,0,0,0,0.0,0.0,0.0,0.0,2.26,,,0,0,0,0,0,0,0,0,0,0,0,0,0,0,0,0,0,,,,,39.23996,-77.965584,0.05,33,3,0.9
2026934,1745089148992,0.0,189.54,,-0.01,0.21,1.23,-2,-0,2,1.25,1.32,94,4521,12.8,3.73,,12.69,1.154,91.6,,32.7,5,,,,,,,,,,,,0,0,0,0,0,0,0,0,0,0,0,0,0,0,0,0,,,,,0.0,,,,,,
2026954,1745089149012,,,,,,,,,,,,,,,,,,,,,,,,,,,,,,,,,,0,0,0,0,0,0,0,0,0,0,0,0,0,0,0,0,,,,,,,,,,,
2026974,1745089149032,0.0,189.42,,-0.06,0.25,1.3,-3,-0,2,1.32,1.32,100,4521,12.8,3.73,,12.65,1.157,91.6,,32.7,5,,,,,,,,,,,,0,0,0,0,0,0,0,0,0,0,0,0,0,0,0,0,,,,,0.0,,,,,,
2026994,1745089149052,,,,,,,,,,,,,,,,,,,,,,,,,,,,,,,,,,0,0,0,0,0,0,0,0,0,0,0,0,0,0,0,0,,,,,,,,,,,
2027014,1745089149072,0.0,189.42,,-0.1,0.28,1.34,-4,-0,2,1.37,1.37,100,4532,13.0,3.74,,12.72,1.136,91.6,,33.0,5,0,0,0,0,0.0,0.0,0.0,0.0,2.26,,,0,0,0,0,0,0,0,0,0,0,0,0,0,0,0,0,0,,,,0.0,39.23996,-77.965584,0.07,33,3,0.9
2027034,1745089149100,,,,,,,,,,,,,,,,,,,,,,,,,,,,,,,,,,0,0,0,0,0,0,0,0,0,0,0,0,0,0,0,0,,,,,,,,,,,
2027054,1745089149120,0.0,189.42,,-0.15,0.3,1.38,-4,-0,3,1.42,1.42,100,4517,13.1,3.74,,12.67,1.133,91.6,,33.0,5,,,,,,,,,,,,0,0,0,0,0,0,0,0,0,0,0,0,0,0,0,0,,,,,0.0,,,,,,
2027074,1745089149140,,,,,,,,,,,,,,,,,,,,,,,,,,,,,,,,,,0,0,0,0,0,0,0,0,0,0,0,0,0,0,0,0,,,,,,,,,,,
2027094,1745089149160,0.0,189.42,,-0.18,0.32,1.4,-5,-0,3,1.44,1.44,100,4490,13.1,3.71,,12.76,1.151,91.6,,33.0,5,,,,,,,,,,,,0,0,0,0,0,0,0,0,0,0,0,0,0,0,0,0,,,,,0.0,,,,,,
2027114,1745089149180,,,,,,,,,,,,,,,,,,,,,,,0,0,0,0,0.0,0.0,0.0,0.0,2.26,,,0,0,0,0,0,0,0,0,0,0,0,0,0,0,0,0,0,,,,,39.23996,-77.965584,0.09,33,3,0.9
2027134,1745089149200,0.0,189.42,,-0.22,0.34,1.43,-5,-0,3,1.49,1.49,100,4450,13.0,3.73,,12.76,1.151,91.6,,32.5,5,,,,,,,,,,,,0,0,0,0,0,0,0,0,0,0,0,0,0,0,0,0,,,,,0.0,,,,,,
2027154,1745089149220,,,,,,,,,,,,,,,,,,,,,,,,,,,,,,,,,,0,0,0,0,0,0,0,0,0,0,0,0,0,0,0,0,,,,,,,,,,,
2027174,1745089149240,0.0,189.42,,-0.23,0.36,1.47,-6,-0,3,1.53,1.53,100,4450,13.0,3.73,,12.69,1.147,91.6,,32.5,5,,,,,,,,,,,,0,0,0,0,0,0,0,0,0,0,0,0,0,0,0,0,,,,,0.0,,,,,,
2027194,1745089149260,,,,,,,,,,,,,,,,,,,,,,,,,,,,,,,,,,0,0,0,0,0,0,0,0,0,0,0,0,0,0,0,0,,,,,,,,,,,
2027214,1745089149280,0.0,189.29,,-0.26,0.37,1.51,-6,-0,4,1.58,1.58,100,4474,13.0,3.72,,12.69,1.145,91.6,,32.1,5,0,0,0,0,0.0,0.0,0.0,0.0,2.26,,,0,0,0,0,0,0,0,0,0,0,0,0,0,0,0,0,0,,,,0.0,39.23996,-77.965584,0.18,34,3,0.9
2027234,1745089149302,,,,,,,,,,,,,,,,,,,,,,,,,,,,,,,,,,0,0,0,0,0,0,0,0,0,0,0,0,0,0,0,0,,,,,,,,,,,
2027254,1745089149322,0.0,189.17,,-0.25,0.41,1.54,-7,-0,4,1.62,1.62,100,4444,13.0,3.75,,12.61,1.136,91.6,,32.1,5,,,,,,,,,,,,0,0,0,0,0,0,0,0,0,0,0,0,0,0,0,0,,,,,0.0,,,,,,
2027274,1745089149342,,,,,,,,,,,,,,,,,,,,,,,,,,,,,,,,,,0,0,0,0,0,0,0,0,0,0,0,0,0,0,0,0,,,,,,,,,,,
2027294,1745089149362,0.0,189.17,,-0.26,0.43,1.59,-7,-0,4,1.67,1.67,100,4500,13.0,3.79,,12.69,1.133,91.6,,32.1,5,,,,,,,,,,,,0,0,0,0,0,0,0,0,0,0,0,0,0,0,0,0,,,,,0.0,,,,,,
2027314,1745089149382,,,,,,,,,,,,,,,,,,,,,,,0,0,0,0,0.0,0.0,0.0,0.0,2.26,,,0,0,0,0,0,0,0,0,0,0,0,0,0,0,0,0,0,,,,,39.23996,-77.965584,0.08,34,3,0.9
2027334,1745089149402,0.0,189.17,,-0.24,0.46,1.62,-7,-0,4,1.7,1.7,100,4518,13.0,3.75,,12.69,1.133,91.6,,32.5,5,,,,,,,,,,,,0,0,0,0,0,0,0,0,0,0,0,0,0,0,0,0,,,,,0.0,,,,,,
2027354,1745089149422,,,,,,,,,,,,,,,,,,,,,,,,,,,,,,,,,,0,0,0,0,0,0,0,0,0,0,0,0,0,0,0,0,,,,,,,,,,,
2027374,1745089149442,0.0,189.17,,-0.23,0.47,1.66,-7,-0,4,1.74,1.74,100,4518,13.0,3.75,,12.71,1.149,91.6,,32.5,5,,,,,,,,,,,,0,0,0,0,0,0,0,0,0,0,0,0,0,0,0,0,,,,,0.0,,,,,,
2027394,1745089149462,,,,,,,,,,,,,,,,,,,,,,,,,,,,,,,,,,0,0,0,0,0,0,0,0,0,0,0,0,0,0,0,0,,,,,,,,,,,
2027414,1745089149482,0.0,189.17,13.62,-0.22,0.51,1.68,-7,-0,4,1.77,1.77,100,4521,12.8,3.77,15,12.67,1.133,91.6,171,32.7,5,0,0,0,0,0.0,0.0,0.0,0.0,2.26,0,0.0,0,0,0,0,0,0,0,0,0,0,0,0,0,0,0,0,0,0.0,0,0,0.0,39.23996,-77.965584,0.04,34,3,0.9
2027434,1745089149502,,,,,,,,,,,,,,,,,,,,,,,,,,,,,,,,,,0,0,0,0,0,0,0,0,0,0,0,0,0,0,0,0,,,,,,,,,,,
2027454,1745089149522,0.0,189.17,,-0.23,0.52,1.7,-7,-0,4,1.79,1.79,100,4536,12.9,3.73,,12.69,1.118,91.6,,32.7,5,,,,,,,,,,,,0,0,0,0,0,0,0,0,0,0,0,0,0,0,0,0,,,,,0.0,,,,,,
2027474,1745089149542,,,,,,,,,,,,,,,,,,,,,,,,,,,,,,,,,,0,0,0,0,0,0,0,0,0,0,0,0,0,0,0,0,,,,,,,,,,,
2027494,1745089149562,0.0,189.17,,-0.23,0.54,1.71,-7,-0,5,1.81,1.81,100,4465,13.0,3.72,,12.68,1.134,91.6,,32.7,5,,,,,,,,,,,,0,0,0,0,0,0,0,0,0,0,0,0,0,0,0,0,,,,,0.0,,,,,,
2027514,1745089149582,,,,,,,,,,,,,,,,,,,,,,,0,0,0,0,0.0,0.0,0.0,0.0,2.26,,,0,0,0,0,0,0,0,0,0,0,0,0,0,0,0,0,0,,,,,39.23996,-77.965584,0.04,34,3,0.9
2027534,1745089149602,0.0,189.04,,-0.26,0.45,1.65,-7,-0,4,1.73,1.81,96,4626,13.0,3.59,,12.68,1.134,91.6,,33.1,5,,,,,,,,,,,,0,0,0,0,0,0,0,0,0,0,0,0,0,0,0,0,,,,,0.0,,,,,,
2027554,1745089149622,,,,,,,,,,,,,,,,,,,,,,,,,,,,,,,,,,0,0,0,0,0,0,0,0,0,0,0,0,0,0,0,0,,,,,,,,,,,
2027574,1745089149642,0.0,189.04,,-0.23,0.29,1.52,-6,-0,4,1.56,1.81,86,4626,13.0,3.59,,12.68,1.147,91.6,,33.1,5,,,,,,,,,,,,0,0,0,0,0,0,0,0,0,0,0,0,0,0,0,0,,,,,0.0,,,,,,
2027594,1745089149662,,,,,,,,,,,,,,,,,,,,,,,,,,,,,,,,,,0,0,0,0,0,0,0,0,0,0,0,0,0,0,0,0,,,,,,,,,,,
2027614,1745089149682,0.0,189.04,,-0.16,0.24,1.45,-5,-0,3,1.48,1.81,82,4710,13.0,3.59,,12.71,1.007,91.6,,33.1,5,0,0,0,0,0.0,0.0,0.0,0.0,2.26,,,0,0,0,0,0,0,0,0,0,0,0,0,0,0,0,0,0,,,,0.0,39.23996,-77.965584,0.11,34,3,0.9
2027634,1745089149702,,,,,,,,,,,,,,,,,,,,,,,,,,,,,,,,,,0,0,0,0,0,0,0,0,0,0,0,0,0,0,0,0,,,,,,,,,,,
2027654,1745089149722,0.0,188.91,,-0.19,0.21,1.4,-5,-0,3,1.43,1.81,79,4847,13.0,3.46,,12.65,0.929,91.6,,34.6,5,,,,,,,,,,,,0,0,0,0,0,0,0,0,0,0,0,0,0,0,0,0,,,,,0.0,,,,,,
2027674,1745089149742,,,,,,,,,,,,,,,,,,,,,,,,,,,,,,,,,,0,0,0,0,0,0,0,0,0,0,0,0,0,0,0,0,,,,,,,,,,,
2027694,1745089149762,0.0,189.04,,-0.14,0.22,1.35,-4,-0,2,1.38,1.81,76,4902,13.1,3.37,,12.67,0.908,91.6,,34.6,5,,,,,,,,,,,,0,0,0,0,0,0,0,0,0,0,0,0,0,0,0,0,,,,,0.0,,,,,,
2027714,1745089149782,,,,,,,,,,,,,,,,,,,,,,,0,0,0,0,0.0,0.0,0.0,0.0,2.26,,,0,0,0,0,0,0,0,0,0,0,0,0,0,0,0,0,0,,,,,39.23996,-77.965584,0.05,34,3,0.9
2027734,1745089149802,0.0,188.91,,-0.16,0.21,1.29,-4,-0,2,1.31,1.81,73,4882,13.7,3.4,,12.67,0.908,91.6,,35.9,5,,,,,,,,,,,,0,0,0,0,0,0,0,0,0,0,0,0,0,0,0,0,,,,,0.0,,,,,,
2027754,1745089149822,,,,,,,,,,,,,,,,,,,,,,,,,,,,,,,,,,0,0,0,0,0,0,0,0,0,0,0,0,0,0,0,0,,,,,,,,,,,
2027774,1745089149842,0.0,188.91,,-0.11,0.19,1.27,-3,-0,2,1.29,1.81,71,4882,13.7,3.4,,12.55,0.927,91.6,,35.9,5,,,,,,,,,,,,0,0,0,0,0,0,0,0,0,0,0,0,0,0,0,0,,,,,0.0,,,,,,
2027794,1745089149862,,,,,,,,,,,,,,,,,,,,,,,,,,,,,,,,,,0,0,0,0,0,0,0,0,0,0,0,0,0,0,0,0,,,,,,,,,,,
2027814,1745089149882,0.0,188.91,,-0.1,0.14,1.23,-3,-0,2,1.24,1.81,69,0,14.7,3.58,,12.68,0.95,91.6,,36.9,5,0,0,0,0,0.0,0.0,0.0,0.0,2.26,,,0,0,0,0,0,0,0,0,0,0,0,0,0,0,0,0,0,,,,0.0,39.23996,-77.965584,0.06,34,3,0.9
2027834,1745089149902,,,,,,,,,,,,,,,,,,,,,,,,,,,,,,,,,,0,0,0,0,0,0,0,0,0,0,0,0,0,0,0,0,,,,,,,,,,,
2027854,1745089149922,0.0,188.91,,-0.11,0.14,1.2,-3,-0,1,1.22,1.81,67,5071,16.3,3.48,,12.72,0.954,91.6,,36.9,5,,,,,,,,,,,,0,0,0,0,0,0,0,0,0,0,0,0,0,0,0,0,,,,,0.0,,,,,,
2027874,1745089149942,,,,,,,,,,,,,,,,,,,,,,,,,,,,,,,,,,0,0,0,0,0,0,0,0,0,0,0,0,0,0,0,0,,,,,,,,,,,
2027894,1745089149962,0.0,188.79,,-0.07,0.14,1.19,-3,-0,1,1.2,1.81,67,4934,17.0,3.48,,12.8,0.971,91.6,,36.9,5,,,,,,,,,,,,0,0,0,0,0,0,0,0,0,0,0,0,0,0,0,0,,,,,0.0,,,,,,
2027914,1745089149982,,,,,,,,,,,,,,,,,,,,,,,0,0,0,0,0.0,0.0,0.0,0.0,2.26,,,0,0,0,0,0,0,0,0,0,0,0,0,0,0,0,0,0,,,,,39.23996,-77.965584,0.04,34,3,0.9
2027934,1745089149991,0.0,188.79,,-0.1,0.09,1.15,-2,-0,1,1.15,1.81,64,4797,17.9,3.55,,12.8,0.971,91.6,,36.0,5,,,,,,,,,,,,0,0,0,0,0,0,0,0,0,0,0,0,0,0,0,0,,,,,0.0,,,,,,
2027954,1745089150011,,,,,,,,,,,,,,,,,,,,,,,,,,,,,,,,,,0,0,0,0,0,0,0,0,0,0,0,0,0,0,0,0,,,,,,,,,,,
2027974,1745089150031,0.0,188.91,,-0.05,0.04,1.11,-2,-0,1,1.11,1.81,61,4797,17.9,3.55,,12.95,0.987,91.6,,36.0,5,,,,,,,,,,,,0,0,0,0,0,0,0,0,0,0,0,0,0,0,0,0,,,,,0.0,,,,,,
2027994,1745089150051,,,,,,,,,,,,,,,,,,,,,,,,,,,,,,,,,,0,0,0,0,0,0,0,0,0,0,0,0,0,0,0,0,,,,,,,,,,,
2028014,1745089150071,0.0,188.91,,-0.08,0.14,1.14,-2,-0,1,1.15,1.81,64,4781,20.0,3.65,,13.09,0.984,91.6,,35.0,5,0,0,0,0,0.0,0.0,0.0,0.0,2.26,,,0,0,0,0,0,0,0,0,0,0,0,0,0,0,0,0,0,,,,0.0,39.23996,-77.965584,0.04,34,3,0.9
2028034,1745089150099,,,,,,,,,,,,,,,,,,,,,,,,,,,,,,,,,,0,0,0,0,0,0,0,0,0,0,0,0,0,0,0,0,,,,,,,,,,,
2028054,1745089150119,0.0,188.91,,-0.07,0.08,1.06,-1,-0,1,1.07,1.81,59,4802,20.9,3.74,,13.24,0.983,89.8,,35.0,5,,,,,,,,,,,,0,0,0,0,0,0,0,0,0,0,0,0,0,0,0,0,,,,,0.0,,,,,,
2028074,1745089150139,,,,,,,,,,,,,,,,,,,,,,,,,,,,,,,,,,0,0,0,0,0,0,0,0,0,0,0,0,0,0,0,0,,,,,,,,,,,
2028094,1745089150159,0.0,188.91,,-0.05,0.07,1.09,-1,-0,1,1.09,1.81,60,4821,22.3,3.83,,13.32,0.982,89.8,,35.0,5,,,,,,,,,,,,0,0,0,0,0,0,0,0,0,0,0,0,0,0,0,0,,,,,0.0,,,,,,
2028114,1745089150179,,,,,,,,,,,,,,,,,,,,,,,0,0,0,0,0.0,0.0,0.0,0.0,2.26,,,0,0,0,0,0,0,0,0,0,0,0,0,0,0,0,0,0,,,,,39.23996,-77.965584,0.05,34,3,0.9
2028134,1745089150199,0.0,188.91,,-0.08,0.05,1.04,-1,-0,0,1.05,1.81,58,4900,22.9,3.93,,13.32,0.982,89.8,,35.3,5,,,,,,,,,,,,0,0,0,0,0,0,0,0,0,0,0,0,0,0,0,0,,,,,0.0,,,,,,
2028154,1745089150219,,,,,,,,,,,,,,,,,,,,,,,,,,,,,,,,,,0,0,0,0,0,0,0,0,0,0,0,0,0,0,0,0,,,,,,,,,,,
2028174,1745089150239,0.0,188.91,,-0.07,0.07,1.04,-1,-0,0,1.04,1.81,58,4900,22.9,3.93,,13.28,0.982,89.8,,35.3,5,,,,,,,,,,,,0,0,0,0,0,0,0,0,0,0,0,0,0,0,0,0,,,,,0.0,,,,,,
2028194,1745089150259,,,,,,,,,,,,,,,,,,,,,,,,,,,,,,,,,,0,0,0,0,0,0,0,0,0,0,0,0,0,0,0,0,,,,,,,,,,,
2028214,1745089150279,0.0,189.04,,-0.07,0.07,1.0,-1,-0,0,1.01,1.81,56,5196,23.0,3.85,,13.32,0.999,89.8,,37.9,5,0,0,0,0,0.0,0.0,0.0,0.0,2.26,,,0,0,0,0,0,0,0,0,0,0,0,0,0,0,0,0,0,,,,0.0,39.23996,-77.965584,0.04,34,3,0.9
2028234,1745089150303,,,,,,,,,,,,,,,,,,,,,,,,,,,,,,,,,,0,0,0,0,0,0,0,0,0,0,0,0,0,0,0,0,,,,,,,,,,,
2028254,1745089150323,0.0,189.04,,-0.07,0.1,1.08,-1,-0,0,1.09,1.81,60,5675,23.2,3.87,,13.19,0.988,89.8,,37.9,5,,,,,,,,,,,,0,0,0,0,0,0,0,0,0,0,0,0,0,0,0,0,,,,,0.0,,,,,,
2028274,1745089150343,,,,,,,,,,,,,,,,,,,,,,,,,,,,,,,,,,0,0,0,0,0,0,0,0,0,0,0,0,0,0,0,0,,,,,,,,,,,
2028294,1745089150363,0.0,188.91,,-0.04,0.06,1.14,-0,-0,0,1.14,1.81,63,6026,23.4,3.85,,12.85,0.945,89.8,,37.9,5,,,,,,,,,,,,0,0,0,0,0,0,0,0,0,0,0,0,0,0,0,0,,,,,0.0,,,,,,
2028314,1745089150383,,,,,,,,,,,,,,,,,,,,,,,0,0,0,0,0.0,0.0,0.0,0.0,2.26,,,0,0,0,0,0,0,0,0,0,0,0,0,0,0,0,0,0,,,,,39.23996,-77.965584,0.08,34,3,0.9
2028334,1745089150401,0.0,188.91,,-0.05,0.02,1.1,0,-0,-0,1.1,1.81,61,6447,23.3,4.19,,12.85,0.945,89.8,,43.4,5,,,,,,,,,,,,0,0,0,0,0,0,0,0,0,0,0,0,0,0,0,0,,,,,0.0,,,,,,
2028354,1745089150421,,,,,,,,,,,,,,,,,,,,,,,,,,,,,,,,,,0,0,0,0,0,0,0,0,0,0,0,0,0,0,0,0,,,,,,,,,,,
2028374,1745089150441,0.0,188.91,,-0.03,0.01,1.06,-0,-0,0,1.06,1.81,59,6447,23.3,4.19,,12.52,0.979,89.8,,43.4,5,,,,,,,,,,,,0,0,0,0,0,0,0,0,0,0,0,0,0,0,0,0,,,,,0.0,,,,,,
2028394,1745089150461,,,,,,,,,,,,,,,,,,,,,,,,,,,,,,,,,,0,0,0,0,0,0,0,0,0,0,0,0,0,0,0,0,,,,,,,,,,,
2028414,1745089150481,0.0,188.91,13.6,-0.01,0.03,1.11,1,-0,-0,1.11,1.81,62,6829,23.4,4.47,15,12.21,1.049,89.8,171,47.9,5,0,0,0,0,0.0,0.0,0.0,0.0,2.26,0,0.0,0,0,0,0,0,0,0,0,0,0,0,0,0,0,0,0,0,0.0,0,0,0.0,39.23996,-77.965584,0.04,34,3,0.9
2028434,1745089150501,,,,,,,,,,,,,,,,,,,,,,,,,,,,,,,,,,0,0,0,0,0,0,0,0,0,0,0,0,0,0,0,0,,,,,,,,,,,
2028454,1745089150521,0.0,188.91,,-0.03,0.1,1.11,2,-0,-0,1.12,1.81,62,7557,23.9,4.72,,11.88,1.079,89.8,,47.9,5,,,,,,,,,,,,0,0,0,0,0,0,0,0,0,0,0,0,0,0,0,0,,,,,0.0,,,,,,
2028474,1745089150541,,,,,,,,,,,,,,,,,,,,,,,,,,,,,,,,,,0,0,0,0,0,0,0,0,0,0,0,0,0,0,0,0,,,,,,,,,,,
2028494,1745089150561,0.0,188.79,,-0.03,0.06,1.07,-0,-0,0,1.07,1.81,59,8602,25.0,4.68,,11.38,1.008,89.8,,47.9,5,,,,,,,,,,,,0,0,0,0,0,0,0,0,0,0,0,0,0,0,0,0,,,,,0.0,,,,,,
2028514,1745089150581,,,,,,,,,,,,,,,,,,,,,,,0,0,0,0,0.0,0.0,0.0,0.0,2.25,,,0,0,0,0,0,0,0,0,0,0,0,0,0,0,0,0,0,,,,,39.23996,-77.965584,0.07,34,3,0.9
2028534,1745089150603,0.0,188.79,,-0.03,0.13,1.13,0,-0,1,1.14,1.81,63,9991,25.4,4.66,,11.38,1.008,89.8,,59.2,5,,,,,,,,,,,,0,0,0,0,0,0,0,0,0,0,0,0,0,0,0,0,,,,,0.0,,,,,,
2028554,1745089150623,,,,,,,,,,,,,,,,,,,,,,,,,,,,,,,,,,0,0,0,0,0,0,0,0,0,0,0,0,0,0,0,0,,,,,,,,,,,
2028574,1745089150643,0.0,188.79,,-0.02,0.24,1.02,-1,-0,1,1.05,1.81,58,9991,25.4,4.66,,10.78,0.839,89.8,,59.2,5,,,,,,,,,,,,0,0,0,0,0,0,0,0,0,0,0,0,0,0,0,0,,,,,0.0,,,,,,
2028594,1745089150663,,,,,,,,,,,,,,,,,,,,,,,,,,,,,,,,,,0,0,0,0,0,0,0,0,0,0,0,0,0,0,0,0,,,,,,,,,,,
2028614,1745089150683,0.0,188.66,,-0.08,0.24,1.17,-1,-0,1,1.19,1.81,66,11171,25.5,3.44,,10.36,0.806,89.8,,55.0,5,0,0,0,0,0.0,0.0,0.0,0.0,2.26,,,0,0,0,0,0,0,0,0,0,0,0,0,0,0,0,0,0,,,,0.0,39.23996,-77.965584,0.12,34,3,0.9
2028634,1745089150703,,,,,,,,,,,,,,,,,,,,,,,,,,,,,,,,,,0,0,0,0,0,0,0,0,0,0,0,0,0,0,0,0,,,,,,,,,,,
2028654,1745089150723,0.0,188.66,,-0.13,0.3,1.34,-1,-0,1,1.38,1.81,76,12126,25.7,3.24,,9.85,0.818,89.8,,55.0,5,,,,,,,,,,,,0,0,0,0,0,0,0,0,0,0,0,0,0,0,0,0,,,,,0.0,,,,,,
2028674,1745089150743,,,,,,,,,,,,,,,,,,,,,,,,,,,,,,,,,,0,0,0,0,0,0,0,0,0,0,0,0,0,0,0,0,,,,,,,,,,,
2028694,1745089150763,0.0,188.66,,-0.11,0.26,1.34,-1,-0,1,1.37,1.81,76,12820,26.2,2.64,,9.57,0.829,89.8,,55.0,5,,,,,,,,,,,,0,0,0,0,0,0,0,0,0,0,0,0,0,0,0,0,,,,,0.0,,,,,,
2028714,1745089150783,,,,,,,,,,,,,,,,,,,,,,,0,0,0,0,0.0,0.0,0.0,0.0,2.26,,,0,0,0,0,0,0,0,0,0,0,0,0,0,0,0,0,0,,,,,39.23996,-77.965584,0.11,34,3,0.9
2028734,1745089150803,0.0,188.66,,-0.1,0.29,1.27,-1,-0,1,1.31,1.81,72,12791,30.4,2.45,,9.57,0.829,89.8,,65.2,5,,,,,,,,,,,,0,0,0,0,0,0,0,0,0,0,0,0,0,0,0,0,,,,,0.0,,,,,,
2028754,1745089150823,,,,,,,,,,,,,,,,,,,,,,,,,,,,,,,,,,0,0,0,0,0,0,0,0,0,0,0,0,0,0,0,0,,,,,,,,,,,
2028774,1745089150843,0.0,188.66,,-0.03,0.17,1.27,-1,0,1,1.29,1.81,71,12791,30.4,2.45,,9.68,0.861,89.8,,65.2,5,,,,,,,,,,,,0,0,0,0,0,0,0,0,0,0,0,0,0,0,0,0,,,,,0.0,,,,,,
2028794,1745089150863,,,,,,,,,,,,,,,,,,,,,,,,,,,,,,,,,,0,0,0,0,0,0,0,0,0,0,0,0,0,0,0,0,,,,,,,,,,,
2028814,1745089150883,0.0,188.54,,0.02,0.17,1.25,-2,0,2,1.26,1.81,70,11642,33.3,2.63,,10.26,1.028,89.8,,62.0,5,0,0,0,0,0.0,0.0,0.0,0.0,2.26,,,0,0,0,0,0,0,0,0,0,0,0,0,0,0,0,0,0,,,,0.0,39.23996,-77.965584,0.0,34,3,0.9
2028834,1745089150901,,,,,,,,,,,,,,,,,,,,,,,,,,,,,,,,,,0,0,0,0,0,0,0,0,0,0,0,0,0,0,0,0,,,,,,,,,,,
2028854,1745089150921,0.0,188.54,,0.08,0.16,1.19,-0,0,1,1.21,1.81,67,10238,33.7,3.35,,10.8,1.243,89.8,,62.0,5,,,,,,,,,,,,0,0,0,0,0,0,0,0,0,0,0,0,0,0,0,0,,,,,0.0,,,,,,
2028874,1745089150941,,,,,,,,,,,,,,,,,,,,,,,,,,,,,,,,,,0,0,0,0,0,0,0,0,0,0,0,0,0,0,0,0,,,,,,,,,,,
2028894,1745089150961,0.0,188.41,,0.13,0.06,1.13,-1,1,1,1.14,1.81,63,9025,34.4,4.61,,11.38,1.248,89.8,,62.0,5,,,,,,,,,,,,0,0,0,0,0,0,0,0,0,0,0,0,0,0,0,0,,,,,0.0,,,,,,
2028914,1745089150981,,,,,,,,,,,,,,,,,,,,,,,0,0,0,0,0.0,0.0,0.0,0.0,2.27,,,0,0,0,0,0,0,0,0,0,0,0,0,0,0,0,0,0,,,,,39.23996,-77.965584,0.52,34,3,0.9
2028934,1745089150992,0.0,188.16,,0.23,-0.07,1.12,-1,1,1,1.14,1.81,63,9025,34.4,4.61,,11.38,1.248,89.8,,58.0,5,,,,,,,,,,,,0,0,0,0,0,0,0,0,0,0,0,0,0,0,0,0,,,,,0.0,,,,,,
2028954,1745089151012,,,,,,,,,,,,,,,,,,,,,,,,,,,,,,,,,,0,0,0,0,0,0,0,0,0,0,0,0,0,0,0,0,,,,,,,,,,,
2028974,1745089151032,0.0,188.03,,0.32,0.02,1.11,0,1,1,1.16,1.81,64,8193,35.4,5.63,,12.15,1.248,89.8,,58.0,5,,,,,,,,,,,,0,0,0,0,0,0,0,0,0,0,0,0,0,0,0,0,,,,,0.0,,,,,,
2028994,1745089151052,,,,,,,,,,,,,,,,,,,,,,,,,,,,,,,,,,0,0,0,0,0,0,0,0,0,0,0,0,0,0,0,0,,,,,,,,,,,
2029014,1745089151072,0.0,187.91,,0.39,-0.03,1.09,1,1,0,1.15,1.81,64,7327,36.9,6.09,,12.63,1.0,89.8,,50.8,5,1,0,2,3,0.0,0.0,0.0,0.0,2.26,,,0,0,0,0,0,0,0,0,0,0,0,0,0,0,0,0,0,,,,0.0,39.23996,-77.965584,2.07,34,3,0.9
2029034,1745089151100,,,,,,,,,,,,,,,,,,,,,,,,,,,,,,,,,,0,0,0,0,0,0,0,0,0,0,0,0,0,0,0,0,,,,,,,,,,,
2029054,1745089151120,0.0,187.78,,0.45,-0.07,1.05,1,1,0,1.14,1.81,63,6433,37.4,5.66,,13.16,0.877,91.6,,50.8,5,,,,,,,,,,,,0,0,0,0,0,0,0,0,0,0,0,0,0,0,0,0,,,,,0.0,,,,,,
2029074,1745089151140,,,,,,,,,,,,,,,,,,,,,,,,,,,,,,,,,,0,0,0,0,0,0,0,0,0,0,0,0,0,0,0,0,,,,,,,,,,,
2029094,1745089151160,0.0,187.66,,0.48,-0.1,1.0,1,1,0,1.11,1.81,62,5398,43.9,4.69,,13.95,0.831,91.6,,50.8,5,,,,,,,,,,,,0,0,0,0,0,0,0,0,0,0,0,0,0,0,0,0,,,,,0.0,,,,,,
2029114,1745089151180,,,,,,,,,,,,,,,,,,,,,,,4,0,7,5,0.0,0.0,0.0,0.0,2.26,,,0,0,0,0,0,0,0,0,0,0,0,0,0,0,0,0,0,,,,,39.239956,-77.965584,6.84,34,3,0.9
2029134,1745089151200,0.0,187.66,,0.57,-0.11,0.99,1,0,0,1.15,1.81,64,4323,49.5,5.24,,13.95,0.831,91.6,,35.9,5,,,,,,,,,,,,0,0,0,0,0,0,0,0,0,0,0,0,0,0,0,0,,,,,0.0,,,,,,
2029154,1745089151220,,,,,,,,,,,,,,,,,,,,,,,,,,,,,,,,,,0,0,0,0,0,0,0,0,0,0,0,0,0,0,0,0,,,,,,,,,,,
2029174,1745089151240,0.0,187.53,,0.62,-0.08,0.97,0,0,0,1.15,1.81,64,4323,49.5,5.24,,14.23,0.82,91.6,,35.9,5,,,,,,,,,,,,0,0,0,0,0,0,0,0,0,0,0,0,0,0,0,0,,,,,0.0,,,,,,
2029194,1745089151260,,,,,,,,,,,,,,,,,,,,,,,,,,,,,,,,,,0,0,0,0,0,0,0,0,0,0,0,0,0,0,0,0,,,,,,,,,,,
2029214,1745089151280,0.0,187.53,,0.65,-0.17,1.0,0,1,0,1.21,1.81,67,3636,55.5,4.75,,14.34,0.803,91.6,,24.8,5,6,0,17,16,0.0,182.0,0.0,0.0,2.26,,,0,0,0,0,0,0,0,0,0,0,0,0,0,0,0,0,0,,,,0.0,39.239956,-77.965584,10.18,34,3,0.9
2029234,1745089151302,,,,,,,,,,,,,,,,,,,,,,,,,,,,,,,,,,0,0,0,0,0,0,0,0,0,0,0,0,0,0,0,0,,,,,,,,,,,
2029254,1745089151322,0.0,187.41,,0.67,-0.15,1.03,-0,1,0,1.24,1.81,68,2801,57.5,4.19,,14.28,0.784,91.6,,24.8,5,,,,,,,,,,,,0,0,0,0,0,0,0,0,0,0,0,0,0,0,0,0,,,,,0.0,,,,,,
2029274,1745089151342,,,,,,,,,,,,,,,,,,,,,,,,,,,,,,,,,,0,0,0,0,0,0,0,0,0,0,0,0,0,0,0,0,,,,,,,,,,,
2029294,1745089151362,0.0,187.53,,0.58,-0.13,1.04,-0,-0,-0,1.2,1.81,66,2344,57.6,4.27,,14.38,0.788,91.6,,24.8,5,,,,,,,,,,,,0,0,0,0,0,0,0,0,0,0,0,0,0,0,0,0,,,,,0.0,,,,,,
2029314,1745089151382,,,,,,,,,,,,,,,,,,,,,,,8,0,13,11,0.0,7.0,0.0,0.0,2.26,,,0,0,0,0,0,0,0,0,0,0,0,0,0,0,0,0,0,,,,,39.239952,-77.965591,13.19,34,3,0.9
2029334,1745089151402,0.0,187.53,,0.51,-0.09,1.02,-0,-1,-1,1.14,1.81,63,1850,66.5,4.57,,14.38,0.788,91.6,,15.1,5,,,,,,,,,,,,0,0,0,0,0,0,0,0,0,0,0,0,0,0,0,0,,,,,0.0,,,,,,
2029354,1745089151422,,,,,,,,,,,,,,,,,,,,,,,,,,,,,,,,,,0,0,0,0,0,0,0,0,0,0,0,0,0,0,0,0,,,,,,,,,,,
2029374,1745089151442,0.0,187.53,,0.45,-0.11,1.04,0,-1,-0,1.14,1.81,63,1850,66.5,4.57,,14.36,0.793,91.6,,15.1,5,,,,,,,,,,,,0,0,0,0,0,0,0,0,0,0,0,0,0,0,0,0,,,,,0.0,,,,,,
2029394,1745089151462,,,,,,,,,,,,,,,,,,,,,,,,,,,,,,,,,,0,0,0,0,0,0,0,0,0,0,0,0,0,0,0,0,,,,,,,,,,,
2029414,1745089151482,0.0,187.78,13.58,0.36,-0.09,1.03,1,-1,-0,1.09,1.81,60,1876,75.5,4.69,15,14.35,0.791,91.6,171,14.7,5,10,0,9,9,0.0,249.0,0.0,0.0,2.26,0,0.0,0,0,0,0,0,0,0,0,0,0,0,0,0,0,0,0,0,0.0,0,0,0.0,39.239948,-77.965591,16.57,34,3,0.9
2029434,1745089151502,,,,,,,,,,,,,,,,,,,,,,,,,,,,,,,,,,0,0,0,0,0,0,0,0,0,0,0,0,0,0,0,0,,,,,,,,,,,
2029454,1745089151522,0.0,187.78,,0.32,-0.07,1.01,2,-1,-0,1.06,1.81,59,2323,75.5,4.57,,14.3,0.788,91.6,,14.7,5,,,,,,,,,,,,0,0,0,0,0,0,0,0,0,0,0,0,0,0,0,0,,,,,0.0,,,,,,
2029474,1745089151542,,,,,,,,,,,,,,,,,,,,,,,,,,,,,,,,,,0,0,0,0,0,0,0,0,0,0,0,0,0,0,0,0,,,,,,,,,,,
2029494,1745089151562,0.0,187.78,,0.27,-0.1,1.01,2,-1,-0,1.05,1.81,58,2754,75.6,4.33,,14.3,0.793,91.6,,14.7,5,,,,,,,,,,,,0,0,0,0,0,0,0,0,0,0,0,0,0,0,0,0,,,,,0.0,,,,,,
2029514,1745089151582,,,,,,,,,,,,,,,,,,,,,,,10,0,10,9,0.0,0.0,0.0,0.0,2.26,,,0,0,0,0,0,0,0,0,0,0,0,0,0,0,0,0,3,,,,,39.239944,-77.965591,16.06,34,3,0.9
2029534,1745089151602,0.0,187.78,,0.28,-0.11,1.05,3,-1,-0,1.09,1.81,61,3135,75.6,4.09,,14.3,0.793,91.6,,19.4,5,,,,,,,,,,,,0,0,0,0,0,0,0,0,0,0,0,0,0,0,0,0,,,,,0.0,,,,,,
2029554,1745089151622,,,,,,,,,,,,,,,,,,,,,,,,,,,,,,,,,,0,0,0,0,0,0,0,0,0,0,0,0,0,0,0,0,,,,,,,,,,,
2029574,1745089151642,0.0,187.66,,0.32,-0.12,1.09,3,0,-0,1.15,1.81,63,3135,75.6,4.09,,14.32,0.779,91.6,,19.4,5,,,,,,,,,,,,0,0,0,0,0,0,0,0,0,0,0,0,0,0,0,0,,,,,0.0,,,,,,
2029594,1745089151662,,,,,,,,,,,,,,,,,,,,,,,,,,,,,,,,,,0,0,0,0,0,0,0,0,0,0,0,0,0,0,0,0,,,,,,,,,,,
2029614,1745089151682,0.0,187.53,,0.28,-0.09,1.08,2,-0,-0,1.12,1.81,62,2843,75.6,4.11,,14.35,0.761,91.6,,17.5,5,9,0,10,10,0.0,6.0,0.0,0.0,2.26,,,0,0,0,0,0,0,0,0,0,0,0,0,0,0,0,0,3,,,,0.0,39.239944,-77.965591,15.08,34,3,0.9
2029634,1745089151702,,,,,,,,,,,,,,,,,,,,,,,,,,,,,,,,,,0,0,0,0,0,0,0,0,0,0,0,0,0,0,0,0,,,,,,,,,,,
2029654,1745089151722,0.0,187.66,,0.22,-0.07,1.06,1,-1,-0,1.08,1.81,60,2187,74.7,4.42,,14.31,0.757,91.6,,17.5,5,,,,,,,,,,,,0,0,0,0,0,0,0,0,0,0,0,0,0,0,0,0,,,,,0.0,,,,,,
2029674,1745089151742,,,,,,,,,,,,,,,,,,,,,,,,,,,,,,,,,,0,0,0,0,0,0,0,0,0,0,0,0,0,0,0,0,,,,,,,,,,,
2029694,1745089151762,0.0,187.53,,0.18,-0.06,1.06,1,-1,-0,1.07,1.81,59,2407,76.2,4.47,,14.3,0.775,91.6,,17.5,5,,,,,,,,,,,,0,0,0,0,0,0,0,0,0,0,0,0,0,0,0,0,,,,,0.0,,,,,,
2029714,1745089151782,,,,,,,,,,,,,,,,,,,,,,,11,0,11,11,0.0,0.0,0.0,0.0,2.26,,,0,0,0,0,0,0,0,0,0,0,0,0,0,0,0,0,0,,,,,39.239944,-77.965599,15.93,34,3,0.9
2029734,1745089151802,0.0,187.53,,0.16,-0.03,1.03,1,-1,-1,1.04,1.81,58,2886,76.2,4.25,,14.3,0.775,91.6,,17.7,5,,,,,,,,,,,,0,0,0,0,0,0,0,0,0,0,0,0,0,0,0,0,,,,,0.0,,,,,,
2029754,1745089151822,,,,,,,,,,,,,,,,,,,,,,,,,,,,,,,,,,0,0,0,0,0,0,0,0,0,0,0,0,0,0,0,0,,,,,,,,,,,
2029774,1745089151842,0.0,187.53,,0.19,-0.07,1.04,0,-1,-1,1.06,1.81,59,2886,76.2,4.25,,14.26,0.801,91.6,,17.7,5,,,,,,,,,,,,0,0,0,0,0,0,0,0,0,0,0,0,0,0,0,0,,,,,0.0,,,,,,
2029794,1745089151862,,,,,,,,,,,,,,,,,,,,,,,,,,,,,,,,,,0,0,0,0,0,0,0,0,0,0,0,0,0,0,0,0,,,,,,,,,,,
2029814,1745089151882,0.0,187.41,,0.16,-0.05,1.0,0,-1,-0,1.01,1.81,56,2767,76.2,4.26,,14.3,0.816,91.6,,18.9,5,11,0,11,11,0.0,12.0,0.0,0.0,2.26,,,0,0,0,0,0,0,0,0,0,0,0,0,0,0,0,0,0,,,,0.0,39.239941,-77.965599,17.15,34,3,0.9
2029834,1745089151902,,,,,,,,,,,,,,,,,,,,,,,,,,,,,,,,,,0,0,0,0,0,0,0,0,0,0,0,0,0,0,0,0,,,,,,,,,,,
2029854,1745089151922,0.0,187.53,,0.12,-0.03,1.03,-0,-1,-0,1.03,1.81,57,2650,76.1,4.36,,14.31,0.812,91.6,,18.9,5,,,,,,,,,,,,0,0,0,0,0,0,0,0,0,0,0,0,0,0,0,0,,,,,0.0,,,,,,
2029874,1745089151942,,,,,,,,,,,,,,,,,,,,,,,,,,,,,,,,,,0,0,0,0,0,0,0,0,0,0,0,0,0,0,0,0,,,,,,,,,,,
2029894,1745089151962,0.0,187.41,,0.11,-0.02,1.01,-1,-1,-0,1.02,1.81,56,2731,76.2,4.34,,14.32,0.837,91.6,,18.9,5,,,,,,,,,,,,0,0,0,0,0,0,0,0,0,0,0,0,0,0,0,0,,,,,0.0,,,,,,
2029914,1745089151982,,,,,,,,,,,,,,,,,,,,,,,11,0,11,11,0.0,37.0,0.0,0.0,2.26,,,0,0,0,0,0,0,0,0,0,0,0,0,0,0,0,0,2,,,,,39.239937,-77.965607,16.9,34,3,0.9
2029934,1745089151993,0.0,187.53,,0.09,0.04,1.0,-0,-1,-0,1.0,1.81,55,2814,76.2,4.29,,14.32,0.837,91.6,,19.2,5,,,,,,,,,,,,0,0,0,0,0,0,0,0,0,0,0,0,0,0,0,0,,,,,0.0,,,,,,
2029954,1745089152013,,,,,,,,,,,,,,,,,,,,,,,,,,,,,,,,,,0,0,0,0,0,0,0,0,0,0,0,0,0,0,0,0,,,,,,,,,,,
2029974,1745089152033,0.0,187.53,,0.1,0.03,1.03,0,-1,-0,1.03,1.81,57,2814,76.2,4.29,,14.32,0.929,91.6,,19.2,5,,,,,,,,,,,,0,0,0,0,0,0,0,0,0,0,0,0,0,0,0,0,,,,,0.0,,,,,,
2029994,1745089152053,,,,,,,,,,,,,,,,,,,,,,,,,,,,,,,,,,0,0,0,0,0,0,0,0,0,0,0,0,0,0,0,0,,,,,,,,,,,
2030014,1745089152073,0.0,187.66,,0.11,0.07,0.98,1,-1,-0,0.99,1.81,55,2660,76.2,4.21,,14.34,0.996,91.6,,18.9,5,11,0,11,11,0.0,0.0,0.0,0.0,2.26,,,0,0,0,0,0,0,0,0,0,0,0,0,0,0,0,0,2,,,,0.0,39.239933,-77.965607,17.65,34,3,0.9
2030034,1745089152095,,,,,,,,,,,,,,,,,,,,,,,,,,,,,,,,,,0,0,0,0,0,0,0,0,0,0,0,0,0,0,0,0,,,,,,,,,,,
2030054,1745089152115,0.0,187.78,,0.09,0.06,0.98,1,-1,-0,0.99,1.81,55,2701,76.2,4.23,,14.28,1.046,91.6,,18.9,5,,,,,,,,,,,,0,0,0,0,0,0,0,0,0,0,0,0,0,0,0,0,,,,,0.0,,,,,,
2030074,1745089152135,,,,,,,,,,,,,,,,,,,,,,,,,,,,,,,,,,0,0,0,0,0,0,0,0,0,0,0,0,0,0,0,0,,,,,,,,,,,
2030094,1745089152155,0.0,187.78,,0.1,-0.01,1.04,2,-1,-0,1.04,1.81,58,2749,76.2,4.19,,14.27,1.059,91.6,,18.9,5,,,,,,,,,,,,0,0,0,0,0,0,0,0,0,0,0,0,0,0,0,0,,,,,0.0,,,,,,
2030114,1745089152175,,,,,,,,,,,,,,,,,,,,,,,11,0,12,11,0.0,180.0,0.0,0.0,2.26,,,0,0,0,0,0,0,0,0,0,0,0,0,0,0,0,0,2,,,,,39.239929,-77.965614,17.92,34,3,0.9
2030134,1745089152201,0.0,187.91,,0.09,-0.02,1.04,2,-1,0,1.04,1.81,57,2900,76.2,4.23,,14.27,1.059,91.6,,19.8,5,,,,,,,,,,,,0,0,0,0,0,0,0,0,0,0,0,0,0,0,0,0,,,,,0.0,,,,,,
2030154,1745089152221,,,,,,,,,,,,,,,,,,,,,,,,,,,,,,,,,,0,0,0,0,0,0,0,0,0,0,0,0,0,0,0,0,,,,,,,,,,,
2030174,1745089152241,0.0,187.91,,0.1,0.04,0.97,2,-1,0,0.97,1.81,54,2900,76.2,4.23,,14.28,1.08,91.6,,19.8,5,,,,,,,,,,,,0,0,0,0,0,0,0,0,0,0,0,0,0,0,0,0,,,,,0.0,,,,,,
2030194,1745089152261,,,,,,,,,,,,,,,,,,,,,,,,,,,,,,,,,,0,0,0,0,0,0,0,0,0,0,0,0,0,0,0,0,,,,,,,,,,,
2030214,1745089152281,0.0,188.03,,0.08,0.03,0.97,3,-1,0,0.97,1.81,54,2876,76.2,4.23,,14.28,1.106,91.6,,19.8,5,12,0,12,12,0.0,180.0,0.0,0.0,2.26,,,0,0,0,0,0,0,0,0,0,0,0,0,0,0,0,0,2,,,,0.0,39.239925,-77.965622,18.1,34,3,0.9
2030234,1745089152301,,,,,,,,,,,,,,,,,,,,,,,,,,,,,,,,,,0,0,0,0,0,0,0,0,0,0,0,0,0,0,0,0,,,,,,,,,,,
2030254,1745089152321,0.0,188.03,,0.07,-0.05,1.03,3,-1,-0,1.03,1.81,57,2858,76.2,4.23,,14.32,1.132,91.6,,20.1,5,,,,,,,,,,,,0,0,0,0,0,0,0,0,0,0,0,0,0,0,0,0,,,,,0.0,,,,,,
2030274,1745089152341,,,,,,,,,,,,,,,,,,,,,,,,,,,,,,,,,,0,0,0,0,0,0,0,0,0,0,0,0,0,0,0,0,,,,,,,,,,,
2030294,1745089152361,0.0,188.03,,0.08,-0.06,1.05,3,-1,0,1.05,1.81,58,2858,76.2,4.13,,14.31,1.14,91.6,,20.1,5,,,,,,,,,,,,0,0,0,0,0,0,0,0,0,0,0,0,0,0,0,0,,,,,0.0,,,,,,
2030314,1745089152381,,,,,,,,,,,,,,,,,,,,,,,12,0,12,12,0.0,34.0,0.0,0.0,2.26,,,0,0,0,0,0,0,0,0,0,0,0,0,0,0,0,0,2,,,,,39.239922,-77.965622,18.56,34,3,0.9
2030334,1745089152401,0.0,188.03,,0.09,0.02,1.03,2,-0,1,1.04,1.81,57,2884,76.2,4.09,,14.31,1.14,91.6,,20.4,5,,,,,,,,,,,,0,0,0,0,0,0,0,0,0,0,0,0,0,0,0,0,,,,,0.0,,,,,,
2030354,1745089152421,,,,,,,,,,,,,,,,,,,,,,,,,,,,,,,,,,0,0,0,0,0,0,0,0,0,0,0,0,0,0,0,0,,,,,,,,,,,
2030374,1745089152441,0.0,188.16,,0.09,0.07,0.97,2,-0,1,0.98,1.81,54,2884,76.2,4.09,,14.28,1.135,91.6,,20.4,5,,,,,,,,,,,,0,0,0,0,0,0,0,0,0,0,0,0,0,0,0,0,,,,,0.0,,,,,,
2030394,1745089152461,,,,,,,,,,,,,,,,,,,,,,,,,,,,,,,,,,0,0,0,0,0,0,0,0,0,0,0,0,0,0,0,0,,,,,,,,,,,
2030414,1745089152481,0.0,188.16,13.62,0.1,0.12,0.89,2,-1,1,0.9,1.81,50,2959,76.1,4.17,15,14.26,1.124,91.6,171,20.6,5,12,0,12,12,0.0,229.0,0.0,0.0,2.26,0,0.0,0,0,0,0,0,0,0,0,0,0,0,0,0,0,0,0,2,0.0,0,0,0.0,39.239918,-77.96563,18.73,34,3,0.9
2030434,1745089152501,,,,,,,,,,,,,,,,,,,,,,,,,,,,,,,,,,0,0,0,0,0,0,0,0,0,0,0,0,0,0,0,0,,,,,,,,,,,
2030454,1745089152521,0.0,188.16,,0.09,0.13,0.81,2,-1,1,0.83,1.81,46,2996,76.1,4.14,,14.34,1.137,91.6,,20.6,5,,,,,,,,,,,,0,0,0,0,0,0,0,0,0,0,0,0,0,0,0,0,,,,,0.0,,,,,,
2030474,1745089152541,,,,,,,,,,,,,,,,,,,,,,,,,,,,,,,,,,0,0,0,0,0,0,0,0,0,0,0,0,0,0,0,0,,,,,,,,,,,
2030494,1745089152561,0.0,188.16,,0.09,0.13,0.75,2,-1,1,0.76,1.81,42,2932,76.2,4.09,,14.31,1.147,91.6,,20.6,5,,,,,,,,,,,,0,0,0,0,0,0,0,0,0,0,0,0,0,0,0,0,,,,,0.0,,,,,,
2030514,1745089152581,,,,,,,,,,,,,,,,,,,,,,,12,0,12,12,0.0,80.0,0.0,0.0,2.25,,,0,0,0,0,0,0,0,0,0,0,0,0,0,0,0,0,2,,,,,39.239914,-77.96563,19.06,34,3,0.9
2030534,1745089152603,0.0,188.29,,0.07,0.17,0.7,2,-1,1,0.73,1.81,40,2941,76.2,4.1,,14.31,1.147,91.6,,20.8,5,,,,,,,,,,,,0,0,0,0,0,0,0,0,0,0,0,0,0,0,0,0,,,,,0.0,,,,,,
2030554,1745089152623,,,,,,,,,,,,,,,,,,,,,,,,,,,,,,,,,,0,0,0,0,0,0,0,0,0,0,0,0,0,0,0,0,,,,,,,,,,,
2030574,1745089152643,0.0,188.29,,0.07,0.17,0.65,3,-0,0,0.68,1.81,37,2941,76.2,4.1,,14.3,1.154,91.6,,20.8,5,,,,,,,,,,,,0,0,0,0,0,0,0,0,0,0,0,0,0,0,0,0,,,,,0.0,,,,,,
2030594,1745089152663,,,,,,,,,,,,,,,,,,,,,,,,,,,,,,,,,,0,0,0,0,0,0,0,0,0,0,0,0,0,0,0,0,,,,,,,,,,,
2030614,1745089152683,0.0,188.29,,0.07,0.18,0.61,3,-0,0,0.64,1.81,35,3077,76.2,4.1,,14.24,1.162,91.6,,21.4,5,12,0,13,12,0.0,45.0,0.0,0.0,2.26,,,0,0,0,0,0,0,0,0,0,0,0,0,0,0,0,0,2,,,,0.0,39.23991,-77.96563,19.36,34,3,0.9
2030634,1745089152701,,,,,,,,,,,,,,,,,,,,,,,,,,,,,,,,,,0,0,0,0,0,0,0,0,0,0,0,0,0,0,0,0,,,,,,,,,,,
2030654,1745089152721,0.0,188.41,,0.11,0.23,0.6,3,-1,1,0.65,1.81,36,3122,76.2,4.09,,14.3,1.158,91.6,,21.4,5,,,,,,,,,,,,0,0,0,0,0,0,0,0,0,0,0,0,0,0,0,0,,,,,0.0,,,,,,
2030674,1745089152741,,,,,,,,,,,,,,,,,,,,,,,,,,,,,,,,,,0,0,0,0,0,0,0,0,0,0,0,0,0,0,0,0,,,,,,,,,,,
2030694,1745089152761,0.0,188.41,,0.13,0.31,0.65,2,-0,1,0.73,1.81,41,3030,76.2,4.12,,14.32,1.178,91.6,,21.4,5,,,,,,,,,,,,0,0,0,0,0,0,0,0,0,0,0,0,0,0,0,0,,,,,0.0,,,,,,
2030714,1745089152781,,,,,,,,,,,,,,,,,,,,,,,13,0,13,13,0.0,231.0,0.0,0.0,2.26,,,0,0,0,0,0,0,0,0,0,0,0,0,0,0,0,0,2,,,,,39.239906,-77.965637,19.67,34,3,0.9
2030734,1745089152801,0.0,188.54,,0.14,0.31,0.74,2,-0,2,0.81,1.81,45,3051,76.1,4.12,,14.32,1.178,91.6,,21.5,5,,,,,,,,,,,,0,0,0,0,0,0,0,0,0,0,0,0,0,0,0,0,,,,,0.0,,,,,,
2030754,1745089152821,,,,,,,,,,,,,,,,,,,,,,,,,,,,,,,,,,0,0,0,0,0,0,0,0,0,0,0,0,0,0,0,0,,,,,,,,,,,
2030774,1745089152841,0.0,188.54,,0.13,0.24,0.82,3,-1,2,0.87,1.81,48,3051,76.1,4.12,,14.28,1.19,91.6,,21.5,5,,,,,,,,,,,,0,0,0,0,0,0,0,0,0,0,0,0,0,0,0,0,,,,,0.0,,,,,,
2030794,1745089152861,,,,,,,,,,,,,,,,,,,,,,,,,,,,,,,,,,0,0,0,0,0,0,0,0,0,0,0,0,0,0,0,0,,,,,,,,,,,
2030814,1745089152881,0.0,188.54,,0.11,0.16,0.9,3,-0,1,0.92,1.81,51,3159,76.1,4.09,,14.27,1.198,91.6,,22.0,5,13,0,13,13,0.0,241.0,0.0,0.0,2.26,,,0,0,0,0,0,0,0,0,0,0,0,0,0,0,0,0,2,,,,0.0,39.239906,-77.965637,20.01,34,3,0.9
2030834,1745089152903,,,,,,,,,,,,,,,,,,,,,,,,,,,,,,,,,,0,0,0,0,0,0,0,0,0,0,0,0,0,0,0,0,,,,,,,,,,,
2030854,1745089152923,0.0,188.66,,0.09,0.19,0.85,4,-1,0,0.87,1.81,48,3121,76.1,4.13,,14.32,1.2,91.6,,22.0,5,,,,,,,,,,,,0,0,0,0,0,0,0,0,0,0,0,0,0,0,0,0,,,,,0.0,,,,,,
2030874,1745089152943,,,,,,,,,,,,,,,,,,,,,,,,,,,,,,,,,,0,0,0,0,0,0,0,0,0,0,0,0,0,0,0,0,,,,,,,,,,,
2030894,1745089152963,0.0,188.66,,0.1,0.25,0.82,4,-1,1,0.86,1.81,48,3127,76.2,4.14,,14.26,1.209,91.6,,22.0,5,,,,,,,,,,,,0,0,0,0,0,0,0,0,0,0,0,0,0,0,0,0,,,,,0.0,,,,,,
2030914,1745089152983,,,,,,,,,,,,,,,,,,,,,,,13,0,13,12,0.0,10.0,0.0,0.0,2.26,,,0,0,0,0,0,0,0,0,0,0,0,0,0,0,0,0,2,,,,,39.239902,-77.965645,20.43,34,3,0.9
2030934,1745089152992,0.0,188.79,,0.1,0.27,0.87,4,-1,1,0.91,1.81,51,3216,76.2,4.11,,14.26,1.209,91.6,,22.2,5,,,,,,,,,,,,0,0,0,0,0,0,0,0,0,0,0,0,0,0,0,0,,,,,0.0,,,,,,
2030954,1745089153012,,,,,,,,,,,,,,,,,,,,,,,,,,,,,,,,,,0,0,0,0,0,0,0,0,0,0,0,0,0,0,0,0,,,,,,,,,,,
2030974,1745089153032,0.0,188.79,,0.08,0.18,0.95,5,-1,0,0.97,1.81,54,3216,76.2,4.11,,14.27,1.223,91.6,,22.2,5,,,,,,,,,,,,0,0,0,0,0,0,0,0,0,0,0,0,0,0,0,0,,,,,0.0,,,,,,
2030994,1745089153052,,,,,,,,,,,,,,,,,,,,,,,,,,,,,,,,,,0,0,0,0,0,0,0,0,0,0,0,0,0,0,0,0,,,,,,,,,,,
2031014,1745089153072,0.0,188.66,,0.06,0.2,0.9,6,-1,0,0.93,1.81,51,3176,76.2,4.15,,14.3,1.245,91.6,,22.6,5,14,0,13,13,0.0,20.0,0.0,0.0,2.25,,,0,0,0,0,0,0,0,0,0,0,0,0,0,0,0,0,2,,,,0.0,39.239895,-77.965652,20.76,34,3,0.9
2031034,1745089153102,,,,,,,,,,,,,,,,,,,,,,,,,,,,,,,,,,0,0,0,0,0,0,0,0,0,0,0,0,0,0,0,0,,,,,,,,,,,
2031054,1745089153122,0.0,188.79,,0.09,0.23,0.92,5,-1,1,0.96,1.81,53,3249,76.3,4.16,,14.26,1.238,89.8,,22.6,5,,,,,,,,,,,,0,0,0,0,0,0,0,0,0,0,0,0,0,0,0,0,,,,,0.0,,,,,,
2031074,1745089153142,,,,,,,,,,,,,,,,,,,,,,,,,,,,,,,,,,0,0,0,0,0,0,0,0,0,0,0,0,0,0,0,0,,,,,,,,,,,
2031094,1745089153162,0.0,188.66,,0.08,0.15,1.01,5,-1,0,1.02,1.81,56,3259,76.2,4.13,,14.26,1.238,89.8,,22.6,5,,,,,,,,,,,,0,0,0,0,0,0,0,0,0,0,0,0,0,0,0,0,,,,,0.0,,,,,,
2031114,1745089153182,,,,,,,,,,,,,,,,,,,,,,,14,0,13,13,0.0,246.0,0.0,0.0,2.26,,,0,0,0,0,0,0,0,0,0,0,0,0,0,0,0,0,2,,,,,39.239891,-77.965652,20.92,34,3,0.9
2031134,1745089153202,0.0,188.66,,0.06,0.11,0.96,6,-1,-0,0.97,0.97,100,3221,76.2,4.16,,14.26,1.242,89.8,,22.8,5,,,,,,,,,,,,0,0,0,0,0,0,0,0,0,0,0,0,0,0,0,0,,,,,0.0,,,,,,
2031154,1745089153222,,,,,,,,,,,,,,,,,,,,,,,,,,,,,,,,,,0,0,0,0,0,0,0,0,0,0,0,0,0,0,0,0,,,,,,,,,,,
2031174,1745089153242,0.0,188.79,,0.07,0.11,0.97,6,-1,0,0.98,0.98,100,3221,76.2,4.16,,14.3,1.246,89.8,,22.8,5,,,,,,,,,,,,0,0,0,0,0,0,0,0,0,0,0,0,0,0,0,0,,,,,0.0,,,,,,
2031194,1745089153262,,,,,,,,,,,,,,,,,,,,,,,,,,,,,,,,,,0,0,0,0,0,0,0,0,0,0,0,0,0,0,0,0,,,,,,,,,,,
2031214,1745089153282,0.0,188.79,,0.05,0.07,0.99,7,-0,-0,0.99,0.99,100,3281,76.2,4.18,,14.24,1.235,89.8,,23.6,5,13,0,13,13,0.0,14.0,0.0,0.0,2.26,,,0,0,0,0,0,0,0,0,0,0,0,0,0,0,0,0,2,,,,0.0,39.239887,-77.96566,21.28,34,3,0.9
2031234,1745089153302,,,,,,,,,,,,,,,,,,,,,,,,,,,,,,,,,,0,0,0,0,0,0,0,0,0,0,0,0,0,0,0,0,,,,,,,,,,,
2031254,1745089153322,0.0,188.79,,0.08,0.2,0.97,7,-1,-0,1.0,1.0,100,3352,76.1,4.16,,14.27,1.22,89.8,,23.6,5,,,,,,,,,,,,0,0,0,0,0,0,0,0,0,0,0,0,0,0,0,0,,,,,0.0,,,,,,
2031274,1745089153342,,,,,,,,,,,,,,,,,,,,,,,,,,,,,,,,,,0,0,0,0,0,0,0,0,0,0,0,0,0,0,0,0,,,,,,,,,,,
2031294,1745089153362,0.0,188.66,,0.07,0.07,1.01,7,-1,-0,1.01,1.01,100,3285,76.1,4.17,,14.35,1.224,89.8,,23.6,5,,,,,,,,,,,,0,0,0,0,0,0,0,0,0,0,0,0,0,0,0,0,,,,,0.0,,,,,,
2031314,1745089153382,,,,,,,,,,,,,,,,,,,,,,,14,0,14,14,0.0,242.0,0.0,0.0,2.26,,,0,0,0,0,0,0,0,0,0,0,0,0,0,0,0,0,2,,,,,39.239883,-77.965668,21.45,34,3,0.9
2031334,1745089153402,0.0,188.66,,0.08,0.15,0.97,7,-1,-0,0.98,1.01,97,3413,76.1,4.17,,14.35,1.224,89.8,,23.6,5,,,,,,,,,,,,0,0,0,0,0,0,0,0,0,0,0,0,0,0,0,0,,,,,0.0,,,,,,
2031354,1745089153422,,,,,,,,,,,,,,,,,,,,,,,,,,,,,,,,,,0,0,0,0,0,0,0,0,0,0,0,0,0,0,0,0,,,,,,,,,,,
2031374,1745089153442,0.0,188.66,,0.07,0.04,1.0,7,-0,0,1.0,1.01,99,3413,76.1,4.17,,14.24,1.234,89.8,,23.6,5,,,,,,,,,,,,0,0,0,0,0,0,0,0,0,0,0,0,0,0,0,0,,,,,0.0,,,,,,
2031394,1745089153462,,,,,,,,,,,,,,,,,,,,,,,,,,,,,,,,,,0,0,0,0,0,0,0,0,0,0,0,0,0,0,0,0,,,,,,,,,,,
2031414,1745089153482,0.0,188.66,13.63,0.06,0.12,0.95,7,-0,0,0.96,1.01,95,3347,76.1,4.19,15,14.31,1.212,89.8,171,23.7,5,14,0,14,14,0.0,14.0,0.0,0.0,2.26,0,0.0,0,0,0,0,0,0,0,0,0,0,0,0,0,0,0,0,2,0.0,0,0,0.0,39.23988,-77.965668,21.74,34,3,0.9
2031434,1745089153502,,,,,,,,,,,,,,,,,,,,,,,,,,,,,,,,,,0,0,0,0,0,0,0,0,0,0,0,0,0,0,0,0,,,,,,,,,,,
2031454,1745089153522,0.0,188.79,,0.05,0.01,1.01,6,-0,1,1.01,1.01,99,3339,76.2,4.2,,14.26,1.211,89.8,,23.7,5,,,,,,,,,,,,0,0,0,0,0,0,0,0,0,0,0,0,0,0,0,0,,,,,0.0,,,,,,
2031474,1745089153542,,,,,,,,,,,,,,,,,,,,,,,,,,,,,,,,,,0,0,0,0,0,0,0,0,0,0,0,0,0,0,0,0,,,,,,,,,,,
2031494,1745089153562,0.0,188.66,,0.06,0.14,0.97,6,-1,1,0.98,1.01,97,3470,76.2,4.18,,14.3,1.233,89.8,,23.7,5,,,,,,,,,,,,0,0,0,0,0,0,0,0,0,0,0,0,0,0,0,0,,,,,0.0,,,,,,
2031514,1745089153582,,,,,,,,,,,,,,,,,,,,,,,14,0,14,14,0.0,0.0,0.0,0.0,2.26,,,0,0,0,0,0,0,0,0,0,0,0,0,0,0,0,0,2,,,,,39.239876,-77.965668,22.06,34,3,0.9
2031534,1745089153602,0.0,188.66,,0.03,0.06,1.01,6,-1,0,1.02,1.02,100,3377,76.2,4.22,,14.3,1.233,89.8,,24.3,5,,,,,,,,,,,,0,0,0,0,0,0,0,0,0,0,0,0,0,0,0,0,,,,,0.0,,,,,,
2031554,1745089153622,,,,,,,,,,,,,,,,,,,,,,,,,,,,,,,,,,0,0,0,0,0,0,0,0,0,0,0,0,0,0,0,0,,,,,,,,,,,
2031574,1745089153642,0.0,188.54,,0.05,0.12,1.01,5,-0,1,1.02,1.02,100,3377,76.2,4.22,,14.27,1.232,89.8,,24.3,5,,,,,,,,,,,,0,0,0,0,0,0,0,0,0,0,0,0,0,0,0,0,,,,,0.0,,,,,,
2031594,1745089153662,,,,,,,,,,,,,,,,,,,,,,,,,,,,,,,,,,0,0,0,0,0,0,0,0,0,0,0,0,0,0,0,0,,,,,,,,,,,
2031614,1745089153682,0.0,188.54,,0.05,0.1,0.98,5,-0,0,0.99,1.02,97,3490,76.2,4.19,,14.3,1.226,89.8,,24.7,5,14,0,14,14,0.0,9.0,0.0,0.0,2.26,,,0,0,0,0,0,0,0,0,0,0,0,0,0,0,0,0,2,,,,0.0,39.239868,-77.965675,22.33,34,3,0.9
2031634,1745089153702,,,,,,,,,,,,,,,,,,,,,,,,,,,,,,,,,,0,0,0,0,0,0,0,0,0,0,0,0,0,0,0,0,,,,,,,,,,,
2031654,1745089153722,0.0,188.54,,0.04,0.02,1.0,5,0,-0,1.0,1.02,98,3470,76.2,4.23,,14.31,1.232,89.8,,24.7,5,,,,,,,,,,,,0,0,0,0,0,0,0,0,0,0,0,0,0,0,0,0,,,,,0.0,,,,,,
2031674,1745089153742,,,,,,,,,,,,,,,,,,,,,,,,,,,,,,,,,,0,0,0,0,0,0,0,0,0,0,0,0,0,0,0,0,,,,,,,,,,,
2031694,1745089153762,0.0,188.41,,0.06,0.03,1.07,4,0,0,1.08,1.08,100,3684,76.1,4.26,,14.27,1.246,89.8,,24.7,5,,,,,,,,,,,,0,0,0,0,0,0,0,0,0,0,0,0,0,0,0,0,,,,,0.0,,,,,,
2031714,1745089153782,,,,,,,,,,,,,,,,,,,,,,,14,0,14,14,0.0,27.0,0.0,0.0,2.26,,,0,0,0,0,0,0,0,0,0,0,0,0,0,0,0,0,2,,,,,39.239864,-77.965675,22.61,34,3,0.9
2031734,1745089153802,0.0,188.41,,0.08,0.1,1.04,4,-0,0,1.04,1.08,97,3407,71.2,4.23,,14.27,1.246,89.8,,25.2,5,,,,,,,,,,,,0,0,0,0,0,0,0,0,0,0,0,0,0,0,0,0,,,,,0.0,,,,,,
2031754,1745089153822,,,,,,,,,,,,,,,,,,,,,,,,,,,,,,,,,,0,0,0,0,0,0,0,0,0,0,0,0,0,0,0,0,,,,,,,,,,,
2031774,1745089153842,0.0,188.29,,0.04,0.02,1.02,4,-0,-0,1.02,1.08,95,3407,71.2,4.23,,14.26,1.237,89.8,,25.2,5,,,,,,,,,,,,0,0,0,0,0,0,0,0,0,0,0,0,0,0,0,0,,,,,0.0,,,,,,
2031794,1745089153862,,,,,,,,,,,,,,,,,,,,,,,,,,,,,,,,,,0,0,0,0,0,0,0,0,0,0,0,0,0,0,0,0,,,,,,,,,,,
2031814,1745089153882,0.0,188.29,,0.04,0.02,1.0,3,-0,-0,1.0,1.08,93,3672,70.5,4.22,,14.22,1.17,89.8,,26.3,5,15,0,15,15,0.0,22.0,0.0,0.0,2.26,,,0,0,0,0,0,0,0,0,0,0,0,0,0,0,0,0,2,,,,0.0,39.239861,-77.965683,22.8,34,3,0.9
2031834,1745089153902,,,,,,,,,,,,,,,,,,,,,,,,,,,,,,,,,,0,0,0,0,0,0,0,0,0,0,0,0,0,0,0,0,,,,,,,,,,,
2031854,1745089153922,0.0,188.29,,0.02,0.1,1.05,2,-1,-0,1.05,1.08,98,3889,70.3,4.36,,14.3,1.167,89.8,,26.3,5,,,,,,,,,,,,0,0,0,0,0,0,0,0,0,0,0,0,0,0,0,0,,,,,0.0,,,,,,
2031874,1745089153942,,,,,,,,,,,,,,,,,,,,,,,,,,,,,,,,,,0,0,0,0,0,0,0,0,0,0,0,0,0,0,0,0,,,,,,,,,,,
2031894,1745089153962,0.0,188.29,,0.04,0.1,0.96,2,-1,-1,0.97,1.08,90,4285,70.3,4.7,,14.2,1.197,89.8,,26.3,5,,,,,,,,,,,,0,0,0,0,0,0,0,0,0,0,0,0,0,0,0,0,,,,,0.0,,,,,,
2031914,1745089153982,,,,,,,,,,,,,,,,,,,,,,,14,0,14,15,0.0,238.0,0.0,0.0,2.26,,,0,0,0,0,0,0,0,0,0,0,0,0,0,0,0,0,0,,,,,39.239857,-77.965691,23.33,34,3,0.9
2031934,1745089153993,0.0,188.29,,0.06,0.01,0.91,3,-1,-1,0.92,1.08,85,4644,70.1,4.88,,14.2,1.197,89.8,,30.7,5,,,,,,,,,,,,0,0,0,0,0,0,0,0,0,0,0,0,0,0,0,0,,,,,0.0,,,,,,
2031954,1745089154013,,,,,,,,,,,,,,,,,,,,,,,,,,,,,,,,,,0,0,0,0,0,0,0,0,0,0,0,0,0,0,0,0,,,,,,,,,,,
2031974,1745089154033,0.0,188.29,,0.02,0.07,0.99,3,-0,-1,0.99,1.08,92,4644,70.1,4.88,,14.2,1.226,89.8,,30.7,5,,,,,,,,,,,,0,0,0,0,0,0,0,0,0,0,0,0,0,0,0,0,,,,,0.0,,,,,,
2031994,1745089154053,,,,,,,,,,,,,,,,,,,,,,,,,,,,,,,,,,0,0,0,0,0,0,0,0,0,0,0,0,0,0,0,0,,,,,,,,,,,
2032014,1745089154073,0.0,188.16,,0.03,0.11,0.99,2,-0,-0,1.0,1.08,93,4913,69.6,5.32,,14.19,1.243,89.8,,35.8,5,14,0,14,14,0.0,28.0,0.0,0.0,2.26,,,0,0,0,0,0,0,0,0,0,0,0,0,0,0,0,0,0,,,,0.0,39.239849,-77.965691,23.14,34,3,0.9
2032034,1745089154097,,,,,,,,,,,,,,,,,,,,,,,,,,,,,,,,,,0,0,0,0,0,0,0,0,0,0,0,0,0,0,0,0,,,,,,,,,,,
2032054,1745089154117,0.0,188.29,,-0.01,0.06,0.95,2,-0,-0,0.95,1.08,88,5392,69.4,5.38,,14.16,1.205,91.6,,35.8,5,,,,,,,,,,,,0,0,0,0,0,0,0,0,0,0,0,0,0,0,0,0,,,,,0.0,,,,,,
2032074,1745089154137,,,,,,,,,,,,,,,,,,,,,,,,,,,,,,,,,,0,0,0,0,0,0,0,0,0,0,0,0,0,0,0,0,,,,,,,,,,,
2032094,1745089154157,0.0,188.16,,-0.02,0.01,0.92,2,-1,-1,0.92,1.08,86,6206,63.3,4.95,,13.96,1.147,91.6,,35.8,5,,,,,,,,,,,,0,0,0,0,0,0,0,0,0,0,0,0,0,0,0,0,,,,,0.0,,,,,,
2032114,1745089154177,,,,,,,,,,,,,,,,,,,,,,,14,0,14,14,0.0,233.0,0.0,0.0,2.26,,,0,0,0,0,0,0,0,0,0,0,0,0,0,0,0,0,0,,,,,39.239845,-77.965698,22.92,33,3,0.9
2032134,1745089154199,0.0,188.03,,-0.01,-0.08,0.9,2,-1,-1,0.9,1.08,84,6962,41.3,5.06,,13.96,1.147,91.6,,45.0,5,,,,,,,,,,,,0,0,0,0,0,0,0,0,0,0,0,0,0,0,0,0,,,,,0.0,,,,,,
2032154,1745089154219,,,,,,,,,,,,,,,,,,,,,,,,,,,,,,,,,,0,0,0,0,0,0,0,0,0,0,0,0,0,0,0,0,,,,,,,,,,,
2032174,1745089154239,0.0,188.03,,-0.02,-0.15,0.96,2,-0,-1,0.98,1.08,91,6962,41.3,5.06,,13.36,1.043,91.6,,45.0,5,,,,,,,,,,,,0,0,0,0,0,0,0,0,0,0,0,0,0,0,0,0,,,,,0.0,,,,,,
2032194,1745089154259,,,,,,,,,,,,,,,,,,,,,,,,,,,,,,,,,,0,0,0,0,0,0,0,0,0,0,0,0,0,0,0,0,,,,,,,,,,,
2032214,1745089154279,0.0,188.03,,-0.04,-0.1,0.94,0,-0,-0,0.94,1.08,88,8214,32.1,5.48,,12.52,1.029,91.6,,58.9,5,14,0,14,14,0.0,0.0,0.0,0.0,2.26,,,0,0,0,0,0,0,0,0,0,0,0,0,0,0,0,0,0,,,,0.0,39.239841,-77.965698,22.73,33,3,0.9
2032234,1745089154301,,,,,,,,,,,,,,,,,,,,,,,,,,,,,,,,,,0,0,0,0,0,0,0,0,0,0,0,0,0,0,0,0,,,,,,,,,,,
2032254,1745089154321,0.0,188.03,,-0.06,-0.1,0.92,-1,-0,0,0.93,1.08,86,9723,25.8,4.62,,11.46,0.888,91.6,,58.9,5,,,,,,,,,,,,0,0,0,0,0,0,0,0,0,0,0,0,0,0,0,0,,,,,0.0,,,,,,
2032274,1745089154341,,,,,,,,,,,,,,,,,,,,,,,,,,,,,,,,,,0,0,0,0,0,0,0,0,0,0,0,0,0,0,0,0,,,,,,,,,,,
2032294,1745089154361,0.0,187.91,,-0.07,-0.14,0.96,-1,-0,1,0.97,1.08,90,10890,16.5,3.6,,9.86,0.816,91.6,,58.9,5,,,,,,,,,,,,0,0,0,0,0,0,0,0,0,0,0,0,0,0,0,0,,,,,0.0,,,,,,
2032314,1745089154381,,,,,,,,,,,,,,,,,,,,,,,14,0,14,14,0.0,247.0,0.0,0.0,2.26,,,0,0,0,0,0,0,0,0,0,0,0,0,0,0,0,0,0,,,,,39.239838,-77.965706,22.38,33,3,0.9
2032334,1745089154401,0.0,187.91,,-0.07,-0.03,0.97,-1,-0,1,0.97,1.08,90,11700,3.3,1.82,,9.86,0.816,91.6,,59.5,5,,,,,,,,,,,,0,0,0,0,0,0,0,0,0,0,0,0,0,0,0,0,,,,,0.0,,,,,,
2032354,1745089154421,,,,,,,,,,,,,,,,,,,,,,,,,,,,,,,,,,0,0,0,0,0,0,0,0,0,0,0,0,0,0,0,0,,,,,,,,,,,
2032374,1745089154441,0.0,187.91,,0.0,0.1,1.01,0,0,1,1.01,1.08,94,11700,3.3,1.82,,7.93,0.774,91.6,,59.5,5,,,,,,,,,,,,0,0,0,0,0,0,0,0,0,0,0,0,0,0,0,0,,,,,0.0,,,,,,
2032394,1745089154461,,,,,,,,,,,,,,,,,,,,,,,,,,,,,,,,,,0,0,0,0,0,0,0,0,0,0,0,0,0,0,0,0,,,,,,,,,,,
2032414,1745089154481,0.0,187.91,13.52,-0.02,0.08,1.07,1,0,1,1.08,1.08,100,11933,1.0,1.4,15,6.44,0.765,91.6,173,60.0,5,14,0,14,14,0.0,20.0,0.0,0.0,2.26,0,0.0,0,0,0,0,0,0,0,0,0,0,0,0,0,0,0,0,0,0.0,0,-0,0.0,39.23983,-77.965714,22.09,33,3,0.9
2032434,1745089154501,,,,,,,,,,,,,,,,,,,,,,,,,,,,,,,,,,0,0,0,0,0,0,0,0,0,0,0,0,0,0,0,0,,,,,,,,,,,
2032454,1745089154521,0.0,187.78,,-0.06,-0.04,1.12,2,0,1,1.13,1.13,100,11876,1.0,1.4,,5.76,0.802,91.6,,60.0,5,,,,,,,,,,,,0,0,0,0,0,0,0,0,0,0,0,0,0,0,0,0,,,,,0.0,,,,,,
2032474,1745089154541,,,,,,,,,,,,,,,,,,,,,,,,,,,,,,,,,,0,0,0,0,0,0,0,0,0,0,0,0,0,0,0,0,,,,,,,,,,,
2032494,1745089154561,0.0,187.66,,-0.06,-0.03,1.07,2,0,1,1.07,1.13,95,11703,1.3,1.4,,5.28,0.865,91.6,,60.0,5,,,,,,,,,,,,0,0,0,0,0,0,0,0,0,0,0,0,0,0,0,0,,,,,0.0,,,,,,
2032514,1745089154581,,,,,,,,,,,,,,,,,,,,,,,14,0,14,13,0.0,251.0,0.0,0.0,2.26,,,0,0,0,0,0,0,0,0,0,0,0,0,0,0,0,0,0,,,,,39.239826,-77.965714,21.78,33,3,0.9
2032534,1745089154601,0.0,187.66,,-0.13,-0.1,1.0,2,0,0,1.01,1.13,90,11479,1.5,1.4,,5.28,0.865,91.6,,59.7,5,,,,,,,,,,,,0,0,0,0,0,0,0,0,0,0,0,0,0,0,0,0,,,,,0.0,,,,,,
2032554,1745089154621,,,,,,,,,,,,,,,,,,,,,,,,,,,,,,,,,,0,0,0,0,0,0,0,0,0,0,0,0,0,0,0,0,,,,,,,,,,,
2032574,1745089154641,0.0,187.66,,-0.15,-0.16,1.01,3,0,-0,1.03,1.13,91,11479,1.5,1.4,,4.96,0.904,91.6,,59.7,5,,,,,,,,,,,,0,0,0,0,0,0,0,0,0,0,0,0,0,0,0,0,,,,,0.0,,,,,,
2032594,1745089154661,,,,,,,,,,,,,,,,,,,,,,,,,,,,,,,,,,0,0,0,0,0,0,0,0,0,0,0,0,0,0,0,0,,,,,,,,,,,
2032614,1745089154681,0.0,187.66,,-0.16,-0.12,1.0,2,1,-0,1.02,1.13,91,11191,1.2,1.4,,4.83,0.921,91.6,,59.6,5,14,0,13,14,0.0,251.0,0.0,0.0,2.26,,,0,0,0,0,0,0,0,0,0,0,0,0,0,0,0,0,0,,,,0.0,39.239822,-77.965714,21.44,33,3,0.9
2032634,1745089154701,,,,,,,,,,,,,,,,,,,,,,,,,,,,,,,,,,0,0,0,0,0,0,0,0,0,0,0,0,0,0,0,0,,,,,,,,,,,
2032654,1745089154721,1.38,187.66,,-0.17,-0.1,0.94,3,1,-0,0.96,1.13,85,10924,1.3,1.4,,4.81,0.947,91.6,,59.6,5,,,,,,,,,,,,0,0,0,0,0,0,0,0,0,0,0,0,0,0,0,0,,,,,0.0,,,,,,
2032674,1745089154741,,,,,,,,,,,,,,,,,,,,,,,,,,,,,,,,,,0,0,0,0,0,0,0,0,0,0,0,0,0,0,0,0,,,,,,,,,,,
2032694,1745089154761,2.64,187.53,,-0.15,0.01,0.88,2,1,-0,0.89,1.13,79,10628,1.0,1.4,,4.72,0.97,91.6,,59.6,5,,,,,,,,,,,,0,0,0,0,0,0,0,0,0,0,0,0,0,0,0,0,,,,,0.0,,,,,,
2032714,1745089154781,,,,,,,,,,,,,,,,,,,,,,,13,0,13,13,0.0,251.0,0.0,0.0,2.26,,,0,0,0,0,0,0,0,0,0,0,0,0,0,0,0,0,0,,,,,39.239819,-77.965721,21.13,33,3,0.9
2032734,1745089154799,5.78,187.53,,-0.17,-0.02,0.83,2,0,-1,0.84,1.13,75,10363,0.9,1.4,,4.72,0.97,91.6,,60.8,5,,,,,,,,,,,,0,0,0,0,0,0,0,0,0,0,0,0,0,0,0,0,,,,,0.0,,,,,,
2032754,1745089154819,,,,,,,,,,,,,,,,,,,,,,,,,,,,,,,,,,0,0,0,0,0,0,0,0,0,0,0,0,0,0,0,0,,,,,,,,,,,
2032774,1745089154839,7.67,187.53,,-0.19,-0.0,0.94,1,0,-0,0.96,0.96,100,10363,0.9,1.4,,4.84,0.981,91.6,,60.8,5,,,,,,,,,,,,0,0,0,0,0,0,0,0,0,0,0,0,0,0,0,0,,,,,0.0,,,,,,
2032794,1745089154859,,,,,,,,,,,,,,,,,,,,,,,,,,,,,,,,,,0,0,0,0,0,0,0,0,0,0,0,0,0,0,0,0,,,,,,,,,,,
2032814,1745089154879,9.55,187.41,,-0.15,-0.01,0.9,0,0,-0,0.92,0.96,95,10040,1.0,1.4,,4.88,0.987,91.6,,60.8,5,13,0,12,12,0.0,16.0,0.0,0.0,2.26,,,0,0,0,0,0,0,0,0,0,0,0,0,0,0,0,0,0,,,,0.0,39.239815,-77.965721,20.46,33,3,0.9
2032834,1745089154903,,,,,,,,,,,,,,,,,,,,,,,,,,,,,,,,,,0,0,0,0,0,0,0,0,0,0,0,0,0,0,0,0,,,,,,,,,,,
2032854,1745089154923,10.18,187.41,,-0.14,0.01,0.92,-0,0,-0,0.93,0.96,97,9702,1.2,1.4,,4.88,1.015,91.6,,60.8,5,,,,,,,,,,,,0,0,0,0,0,0,0,0,0,0,0,0,0,0,0,0,,,,,0.0,,,,,,
2032874,1745089154943,,,,,,,,,,,,,,,,,,,,,,,,,,,,,,,,,,0,0,0,0,0,0,0,0,0,0,0,0,0,0,0,0,,,,,,,,,,,
2032894,1745089154963,10.81,187.28,,-0.17,0.2,0.88,-2,0,0,0.92,0.96,95,9255,1.1,1.4,,4.8,1.052,91.6,,60.8,5,,,,,,,,,,,,0,0,0,0,0,0,0,0,0,0,0,0,0,0,0,0,,,,,0.0,,,,,,
2032914,1745089154983,,,,,,,,,,,,,,,,,,,,,,,12,0,12,12,0.0,40.0,0.0,0.0,2.26,,,0,0,0,0,0,0,0,0,0,0,0,0,0,0,0,0,0,,,,,39.239807,-77.965729,20.09,33,3,0.9
2032934,1745089155003,10.18,187.15,,-0.21,0.15,0.83,-3,0,-0,0.87,0.96,90,8835,1.0,1.4,,4.8,1.052,91.6,,58.1,5,,,,,,,,,,,,0,0,0,0,0,0,0,0,0,0,0,0,0,0,0,0,,,,,0.0,,,,,,
2032954,1745089155010,,,,,,,,,,,,,,,,,,,,,,,,,,,,,,,,,,0,0,0,0,0,0,0,0,0,0,0,0,0,0,0,0,,,,,,,,,,,
