"Interval"|"ms"|0|0|1,"Utc"|"ms"|0|0|1,"FrontBP"|"psi"|-5.0|5.0|25,"SteerAng"|"Degrees"|-145.0|145.0|25,"Battery"|"Volts"|-5.0|20.0|1,"AccelX"|"G"|-3.0|3.0|25,"AccelY"|"G"|-3.0|3.0|25,"AccelZ"|"G"|-3.0|3.0|25,"Yaw"|"Deg/Sec"|-120|120|25,"Pitch"|"Deg/Sec"|-120|120|25,"Roll"|"Deg/Sec"|-120|120|25,"Gsum"|"G"|0.0|3.0|25,"GsumMax"|"G"|0.0|3.0|25,"GsumPct"|"%"|0|100|25,"RPM"|""|0|10000|25,"TPS"|"%"|0.0|100.0|25,"InjectorPW"|"ms"|0.0|100.0|25,"Baro"|"kPa"|0|105|1,"MAP"|"Psi"|0.0|255.0|25,"Lambda"|""|-2.0|2.0|25,"IAT"|"C"|0.0|200.0|25,"EngineTemp"|"C"|0|200|1,"EOP"|"PSI"|0.0|152.0|25,"EOT"|"F"|0|250|25,"WSFR"|"MPH"|0|150|10,"WSFL"|"MPH"|0|100|10,"WSRR"|"MPH"|0|100|10,"WSRL"|""|0|100|10,"TCSet"|"%"|0.0|100.0|10,"TCSlip"|"%"|0.0|100.0|10,"TCComp"|"deg"|0.0|50.0|10,"TCCut"|"%"|0.0|100.0|10,"Analog8"|""|0.0|5.0|10,"OilTemp"|"F"|0|300|1,"AA_On"|""|0.0|1.0|1,"ThermLF1"|"C"|0|400|50,"ThermLF2"|"C"|0|400|50,"ThermRR1"|"C"|0|400|50,"ThermRR2"|"C"|0|400|50,"ThermLF3"|"C"|0|400|50,"ThermLF4"|"C"|0|400|50,"ThermLF5"|"C"|0|400|50,"ThermLF6"|"C"|0|400|50,"ThermLF7"|"C"|0|400|50,"ThermLF8"|"C"|0|400|50,"ThermRR3"|"C"|0|400|50,"ThermRR4"|"C"|0|400|50,"ThermRR5"|"C"|0|400|50,"ThermRR6"|"C"|0|400|50,"ThermRR7"|"C"|0|400|50,"ThermRR8"|"C"|0|400|50,"Gear"|""|1|6|10,"AA_On"|""|0.0|1.0|1,"AA_LowDrag"|""|0|1|1,"Fuel_Mix"|""|-10|10|1,"AA_Packages"|""|0.0|1000.0|25,"Latitude"|"Degrees"|-180.0|180.0|10,"Longitude"|"Degrees"|-180.0|180.0|10,"Speed"|"kph"|0.0|150.0|10,"GPSSats"|""|0|20|10,"GPSQual"|""|0|5|10,"GPSDOP"|""|0.0|20.0|10
583698,1745095296162,0.0,204.63,,-0.06,-0.05,0.93,-0,-0,0,0.94,0.94,100,3802,3.0,3.45,,11.65,0.977,95.2,,45.3,5,,,,,,,,,,,,0,0,0,0,0,0,0,0,0,0,0,0,0,0,0,0,,,,,0.0,,,,,,
583718,1745095296182,,,,,,,,,,,,,,,,,,,,,,,,,,,,,,,,,,0,0,0,0,0,0,0,0,0,0,0,0,0,0,0,0,,,,,,,,,,,
583738,1745095296198,0.0,204.75,,-0.06,-0.05,0.95,-1,-0,0,0.95,0.95,100,3716,3.0,3.46,,11.68,0.975,95.2,,43.9,5,,,,,,,,,,,,0,0,0,0,0,0,0,0,0,0,0,0,0,0,0,0,,,,,0.0,,,,,,
583758,1745095296218,,,,,,,,,,,,,,,,,,,,,,,,,,,,,,,,,,0,0,0,0,0,0,0,0,0,0,0,0,0,0,0,0,,,,,,,,,,,
583778,1745095296238,0.0,204.63,,-0.07,-0.07,0.96,-1,-0,0,0.97,0.97,100,3666,3.0,3.47,,11.68,0.975,95.2,,43.9,5,0,0,0,0,0.0,0.0,0.0,0.0,2.25,,,0,0,0,0,0,0,0,0,0,0,0,0,0,0,0,0,0,,,,0.0,39.240089,-77.965401,0.18,32,3,0.8
583798,1745095296258,,,,,,,,,,,,,,,,,,,,,,,,,,,,,,,,,,0,0,0,0,0,0,0,0,0,0,0,0,0,0,0,0,,,,,,,,,,,
583818,1745095296278,0.0,204.63,,-0.05,-0.04,0.97,-1,-0,1,0.97,0.97,100,3666,3.0,3.47,,11.77,0.975,95.2,,41.9,5,,,,,,,,,,,,0,0,0,0,0,0,0,0,0,0,0,0,0,0,0,0,,,,,0.0,,,,,,
583838,1745095296304,,,,,,,,,,,,,,,,,,,,,,,,,,,,,,,,,,0,0,0,0,0,0,0,0,0,0,0,0,0,0,0,0,,,,,,,,,,,
583858,1745095296324,0.0,204.63,,-0.04,-0.04,0.93,-1,-0,0,0.93,0.97,96,3629,3.0,3.48,,11.83,0.973,95.2,,41.9,5,,,,,,,,,,,,0,0,0,0,0,0,0,0,0,0,0,0,0,0,0,0,,,,,0.0,,,,,,
583878,1745095296344,,,,,,,,,,,,,,,,,,,,,,,0,0,0,0,0.0,0.0,0.0,0.0,2.26,,,0,0,0,0,0,0,0,0,0,0,0,0,0,0,0,0,0,,,,,39.240089,-77.965401,0.22,32,3,0.8
583898,1745095296364,0.0,204.63,,-0.04,-0.06,0.92,0,-0,-0,0.93,0.97,95,3506,3.0,3.48,,11.97,0.972,95.2,,41.9,5,,,,,,,,,,,,0,0,0,0,0,0,0,0,0,0,0,0,0,0,0,0,,,,,0.0,,,,,,
583918,1745095296384,,,,,,,,,,,,,,,,,,,,,,,,,,,,,,,,,,0,0,0,0,0,0,0,0,0,0,0,0,0,0,0,0,,,,,,,,,,,
583938,1745095296402,0.0,204.63,,-0.04,-0.13,0.93,0,-0,-0,0.94,0.97,97,3658,3.0,3.47,,11.93,1.011,95.2,,41.2,5,,,,,,,,,,,,0,0,0,0,0,0,0,0,0,0,0,0,0,0,0,0,,,,,0.0,,,,,,
583958,1745095296422,,,,,,,,,,,,,,,,,,,,,,,,,,,,,,,,,,0,0,0,0,0,0,0,0,0,0,0,0,0,0,0,0,,,,,,,,,,,
583978,1745095296442,0.0,204.63,,-0.04,-0.11,0.93,0,-0,-0,0.93,0.97,96,3816,2.9,3.45,,11.93,1.011,95.2,,41.2,5,0,0,0,0,0.0,0.0,0.0,0.0,2.26,,,0,0,0,0,0,0,0,0,0,0,0,0,0,0,0,0,0,,,,0.0,39.240089,-77.965401,0.11,32,3,0.8
583998,1745095296462,,,,,,,,,,,,,,,,,,,,,,,,,,,,,,,,,,0,0,0,0,0,0,0,0,0,0,0,0,0,0,0,0,,,,,,,,,,,
584018,1745095296482,0.0,204.63,,-0.04,-0.07,0.94,1,-0,-0,0.94,0.97,97,3816,2.9,3.45,,11.87,1.016,95.2,,43.5,5,,,,,,,,,,,,0,0,0,0,0,0,0,0,0,0,0,0,0,0,0,0,,,,,0.0,,,,,,
584038,1745095296504,,,,,,,,,,,,,,,,,,,,,,,,,,,,,,,,,,0,0,0,0,0,0,0,0,0,0,0,0,0,0,0,0,,,,,,,,,,,
584058,1745095296524,0.0,204.63,,-0.05,-0.05,0.95,1,-0,-0,0.95,0.97,97,3804,2.8,3.44,,11.83,0.93,95.2,,43.5,5,,,,,,,,,,,,0,0,0,0,0,0,0,0,0,0,0,0,0,0,0,0,,,,,0.0,,,,,,
584078,1745095296544,,,,,,,,,,,,,,,,,,,,,,,0,0,0,0,0.0,0.0,0.0,0.0,2.26,,,0,0,0,0,0,0,0,0,0,0,0,0,0,0,0,0,0,,,,,39.240089,-77.965401,0.04,32,3,0.8
584098,1745095296564,0.0,204.63,,-0.07,-0.05,1.04,-1,-0,1,1.04,1.04,100,3748,2.8,3.4,,11.76,0.886,95.2,,43.5,5,,,,,,,,,,,,0,0,0,0,0,0,0,0,0,0,0,0,0,0,0,0,,,,,0.0,,,,,,
584118,1745095296584,,,,,,,,,,,,,,,,,,,,,,,,,,,,,,,,,,0,0,0,0,0,0,0,0,0,0,0,0,0,0,0,0,,,,,,,,,,,
584138,1745095296604,0.0,204.63,,-0.07,-0.08,1.02,-0,-0,0,1.02,1.04,98,3696,2.8,3.39,,11.8,0.897,95.2,,42.3,5,,,,,,,,,,,,0,0,0,0,0,0,0,0,0,0,0,0,0,0,0,0,,,,,0.0,,,,,,
584158,1745095296624,,,,,,,,,,,,,,,,,,,,,,,,,,,,,,,,,,0,0,0,0,0,0,0,0,0,0,0,0,0,0,0,0,,,,,,,,,,,
584178,1745095296644,0.0,204.63,,-0.07,-0.11,1.05,-0,-0,0,1.06,1.06,100,3649,2.9,3.39,,11.8,0.897,95.2,,42.3,5,0,0,0,0,0.0,0.0,0.0,0.0,2.26,,,0,0,0,0,0,0,0,0,0,0,0,0,0,0,0,0,0,,,,0.0,39.240089,-77.965401,0.07,32,3,0.8
584198,1745095296664,,,,,,,,,,,,,,,,,,,,,,,,,,,,,,,,,,0,0,0,0,0,0,0,0,0,0,0,0,0,0,0,0,,,,,,,,,,,
584218,1745095296684,0.0,204.63,,-0.05,-0.05,1.07,-1,-0,1,1.07,1.07,100,3649,2.9,3.39,,11.85,0.94,95.2,,40.4,5,,,,,,,,,,,,0,0,0,0,0,0,0,0,0,0,0,0,0,0,0,0,,,,,0.0,,,,,,
584238,1745095296704,,,,,,,,,,,,,,,,,,,,,,,,,,,,,,,,,,0,0,0,0,0,0,0,0,0,0,0,0,0,0,0,0,,,,,,,,,,,
584258,1745095296724,0.0,204.63,,-0.06,-0.1,1.03,-0,-0,0,1.03,1.07,96,3466,3.0,3.41,,11.97,0.974,95.2,,40.4,5,,,,,,,,,,,,0,0,0,0,0,0,0,0,0,0,0,0,0,0,0,0,,,,,0.0,,,,,,
584278,1745095296744,,,,,,,,,,,,,,,,,,,,,,,0,0,0,0,0.0,0.0,0.0,0.0,2.26,,,0,0,0,0,0,0,0,0,0,0,0,0,0,0,0,0,0,,,,,39.240089,-77.965401,0.0,32,3,0.8
584298,1745095296764,0.0,204.63,,-0.04,0.01,0.98,-0,-0,1,0.98,1.07,91,3279,3.0,3.46,,12.13,0.993,95.2,,40.4,5,,,,,,,,,,,,0,0,0,0,0,0,0,0,0,0,0,0,0,0,0,0,,,,,0.0,,,,,,
584318,1745095296784,,,,,,,,,,,,,,,,,,,,,,,,,,,,,,,,,,0,0,0,0,0,0,0,0,0,0,0,0,0,0,0,0,,,,,,,,,,,
584338,1745095296802,0.0,204.63,,-0.02,0.03,1.02,-1,-0,1,1.02,1.07,95,3177,3.0,3.46,,12.23,1.023,95.2,,36.0,5,,,,,,,,,,,,0,0,0,0,0,0,0,0,0,0,0,0,0,0,0,0,,,,,0.0,,,,,,
584358,1745095296822,,,,,,,,,,,,,,,,,,,,,,,,,,,,,,,,,,0,0,0,0,0,0,0,0,0,0,0,0,0,0,0,0,,,,,,,,,,,
584378,1745095296842,0.0,204.63,13.38,-0.03,-0.05,1.09,-1,-0,1,1.1,1.1,100,3227,3.0,3.53,15,12.23,1.023,95.2,140,36.0,5,0,0,0,0,0.0,0.0,0.0,0.0,2.26,0,0.0,0,0,0,0,0,0,0,0,0,0,0,0,0,0,0,0,0,0.0,0,0,0.0,39.240089,-77.965401,0.08,32,3,0.8
584398,1745095296862,,,,,,,,,,,,,,,,,,,,,,,,,,,,,,,,,,0,0,0,0,0,0,0,0,0,0,0,0,0,0,0,0,,,,,,,,,,,
584418,1745095296882,0.0,204.5,,-0.06,-0.12,1.12,-1,-0,0,1.13,1.13,100,3227,3.0,3.53,,12.31,1.052,95.2,,34.6,5,,,,,,,,,,,,0,0,0,0,0,0,0,0,0,0,0,0,0,0,0,0,,,,,0.0,,,,,,
584438,1745095296904,,,,,,,,,,,,,,,,,,,,,,,,,,,,,,,,,,0,0,0,0,0,0,0,0,0,0,0,0,0,0,0,0,,,,,,,,,,,
584458,1745095296924,0.0,204.5,,-0.07,-0.12,1.1,-0,-0,0,1.11,1.13,98,3099,3.0,3.5,,12.39,1.189,95.2,,34.6,5,,,,,,,,,,,,0,0,0,0,0,0,0,0,0,0,0,0,0,0,0,0,,,,,0.0,,,,,,
584478,1745095296944,,,,,,,,,,,,,,,,,,,,,,,0,0,0,0,0.0,0.0,0.0,0.0,2.26,,,0,0,0,0,0,0,0,0,0,0,0,0,0,0,0,0,0,,,,,39.240089,-77.965401,0.04,32,3,0.8
584498,1745095296964,0.0,204.63,,-0.09,-0.08,1.1,-0,-0,0,1.11,1.13,98,3018,2.8,3.51,,12.45,1.162,95.2,,34.6,5,,,,,,,,,,,,0,0,0,0,0,0,0,0,0,0,0,0,0,0,0,0,,,,,0.0,,,,,,
584518,1745095296984,,,,,,,,,,,,,,,,,,,,,,,,,,,,,,,,,,0,0,0,0,0,0,0,0,0,0,0,0,0,0,0,0,,,,,,,,,,,
584538,1745095296995,0.0,204.63,,-0.09,-0.07,1.14,-0,-0,0,1.14,1.14,100,2854,2.7,3.48,,12.55,1.113,95.2,,32.4,5,,,,,,,,,,,,0,0,0,0,0,0,0,0,0,0,0,0,0,0,0,0,,,,,0.0,,,,,,
584558,1745095297015,,,,,,,,,,,,,,,,,,,,,,,,,,,,,,,,,,0,0,0,0,0,0,0,0,0,0,0,0,0,0,0,0,,,,,,,,,,,
584578,1745095297035,0.0,204.63,,-0.08,-0.04,1.12,-0,-0,0,1.13,1.14,99,2754,2.7,3.53,,12.55,1.113,95.2,,32.4,5,0,0,0,0,0.0,0.0,0.0,0.0,2.26,,,0,0,0,0,0,0,0,0,0,0,0,0,0,0,0,0,0,,,,0.0,39.240089,-77.965401,0.05,32,3,0.8
584598,1745095297055,,,,,,,,,,,,,,,,,,,,,,,,,,,,,,,,,,0,0,0,0,0,0,0,0,0,0,0,0,0,0,0,0,,,,,,,,,,,
584618,1745095297075,0.0,204.63,,-0.07,-0.03,1.1,-0,-0,0,1.1,1.14,96,2754,2.7,3.53,,12.71,1.094,95.2,,29.7,5,,,,,,,,,,,,0,0,0,0,0,0,0,0,0,0,0,0,0,0,0,0,,,,,0.0,,,,,,
584638,1745095297096,,,,,,,,,,,,,,,,,,,,,,,,,,,,,,,,,,0,0,0,0,0,0,0,0,0,0,0,0,0,0,0,0,,,,,,,,,,,
584658,1745095297116,0.0,204.63,,-0.07,-0.03,1.09,-0,-0,0,1.09,1.14,96,2655,2.7,3.55,,12.83,1.118,95.2,,29.7,5,,,,,,,,,,,,0,0,0,0,0,0,0,0,0,0,0,0,0,0,0,0,,,,,0.0,,,,,,
584678,1745095297136,,,,,,,,,,,,,,,,,,,,,,,0,0,0,0,0.0,0.0,0.0,0.0,2.26,,,0,0,0,0,0,0,0,0,0,0,0,0,0,0,0,0,0,,,,,39.240089,-77.965401,0.0,32,3,0.8
584698,1745095297156,0.0,204.63,,-0.05,-0.03,1.07,-0,-0,0,1.08,1.14,94,2580,2.8,3.53,,12.96,1.148,95.2,,29.7,5,,,,,,,,,,,,0,0,0,0,0,0,0,0,0,0,0,0,0,0,0,0,,,,,0.0,,,,,,
584718,1745095297176,,,,,,,,,,,,,,,,,,,,,,,,,,,,,,,,,,0,0,0,0,0,0,0,0,0,0,0,0,0,0,0,0,,,,,,,,,,,
584738,1745095297201,0.0,204.63,,-0.07,-0.02,1.06,0,-0,0,1.06,1.14,93,2508,3.0,3.54,,13.03,1.161,95.2,,27.4,5,,,,,,,,,,,,0,0,0,0,0,0,0,0,0,0,0,0,0,0,0,0,,,,,0.0,,,,,,
584758,1745095297221,,,,,,,,,,,,,,,,,,,,,,,,,,,,,,,,,,0,0,0,0,0,0,0,0,0,0,0,0,0,0,0,0,,,,,,,,,,,
584778,1745095297241,0.0,204.63,,-0.06,-0.0,1.04,-0,-0,0,1.04,1.14,91,2417,2.9,3.55,,13.03,1.161,95.2,,27.4,5,0,0,0,0,0.0,0.0,0.0,0.0,2.26,,,0,0,0,0,0,0,0,0,0,0,0,0,0,0,0,0,0,,,,0.0,39.240089,-77.965401,0.05,33,3,0.8
584798,1745095297261,,,,,,,,,,,,,,,,,,,,,,,,,,,,,,,,,,0,0,0,0,0,0,0,0,0,0,0,0,0,0,0,0,,,,,,,,,,,
584818,1745095297281,0.0,204.5,,-0.07,-0.01,1.05,-0,-0,0,1.05,1.14,92,2417,2.9,3.55,,13.12,1.176,95.2,,25.6,5,,,,,,,,,,,,0,0,0,0,0,0,0,0,0,0,0,0,0,0,0,0,,,,,0.0,,,,,,
584838,1745095297303,,,,,,,,,,,,,,,,,,,,,,,,,,,,,,,,,,0,0,0,0,0,0,0,0,0,0,0,0,0,0,0,0,,,,,,,,,,,
584858,1745095297323,0.0,204.63,,-0.08,-0.0,1.04,-0,-0,0,1.04,1.14,91,2335,3.0,3.55,,13.24,1.181,95.2,,25.6,5,,,,,,,,,,,,0,0,0,0,0,0,0,0,0,0,0,0,0,0,0,0,,,,,0.0,,,,,,
584878,1745095297343,,,,,,,,,,,,,,,,,,,,,,,0,0,0,0,0.0,0.0,0.0,0.0,2.26,,,0,0,0,0,0,0,0,0,0,0,0,0,0,0,0,0,0,,,,,39.240089,-77.965401,0.0,33,3,0.8
584898,1745095297363,0.0,204.63,,-0.07,0.01,1.03,-0,-0,0,1.03,1.14,91,2284,3.0,3.58,,13.35,1.194,95.2,,25.6,5,,,,,,,,,,,,0,0,0,0,0,0,0,0,0,0,0,0,0,0,0,0,,,,,0.0,,,,,,
584918,1745095297383,,,,,,,,,,,,,,,,,,,,,,,,,,,,,,,,,,0,0,0,0,0,0,0,0,0,0,0,0,0,0,0,0,,,,,,,,,,,
584938,1745095297403,0.0,204.63,,-0.06,-0.0,1.03,-0,-0,0,1.03,1.14,90,2184,3.0,3.6,,13.39,1.19,95.2,,24.5,5,,,,,,,,,,,,0,0,0,0,0,0,0,0,0,0,0,0,0,0,0,0,,,,,0.0,,,,,,
584958,1745095297423,,,,,,,,,,,,,,,,,,,,,,,,,,,,,,,,,,0,0,0,0,0,0,0,0,0,0,0,0,0,0,0,0,,,,,,,,,,,
584978,1745095297443,0.0,204.63,,-0.06,-0.01,1.02,-0,-0,0,1.03,1.14,90,2120,2.8,3.61,,13.39,1.19,95.2,,24.5,5,0,0,0,0,0.0,0.0,0.0,0.0,2.26,,,0,0,0,0,0,0,0,0,0,0,0,0,0,0,0,0,0,,,,0.0,39.240089,-77.965401,0.0,33,3,0.8
584998,1745095297463,,,,,,,,,,,,,,,,,,,,,,,,,,,,,,,,,,0,0,0,0,0,0,0,0,0,0,0,0,0,0,0,0,,,,,,,,,,,
585018,1745095297483,0.0,204.63,,-0.05,0.0,1.04,-0,-0,0,1.04,1.14,91,2120,2.8,3.61,,13.43,1.181,95.2,,22.9,5,,,,,,,,,,,,0,0,0,0,0,0,0,0,0,0,0,0,0,0,0,0,,,,,0.0,,,,,,
585038,1745095297503,,,,,,,,,,,,,,,,,,,,,,,,,,,,,,,,,,0,0,0,0,0,0,0,0,0,0,0,0,0,0,0,0,,,,,,,,,,,
585058,1745095297523,0.0,204.63,,-0.05,0.0,1.03,-0,-0,0,1.03,1.14,90,2003,2.7,3.59,,13.48,1.177,95.2,,22.9,5,,,,,,,,,,,,0,0,0,0,0,0,0,0,0,0,0,0,0,0,0,0,,,,,0.0,,,,,,
585078,1745095297543,,,,,,,,,,,,,,,,,,,,,,,0,0,0,0,0.0,0.0,0.0,0.0,2.26,,,0,0,0,0,0,0,0,0,0,0,0,0,0,0,0,0,0,,,,,39.240089,-77.965401,0.04,33,3,0.8
585098,1745095297563,0.0,204.63,,-0.06,0.0,1.03,-0,-0,0,1.04,1.14,91,2006,2.7,3.64,,13.57,1.19,95.2,,22.9,5,,,,,,,,,,,,0,0,0,0,0,0,0,0,0,0,0,0,0,0,0,0,,,,,0.0,,,,,,
585118,1745095297583,,,,,,,,,,,,,,,,,,,,,,,,,,,,,,,,,,0,0,0,0,0,0,0,0,0,0,0,0,0,0,0,0,,,,,,,,,,,
585138,1745095297603,0.0,204.63,,-0.05,0.01,1.02,-0,-0,0,1.02,1.14,90,1942,2.7,3.61,,13.65,1.21,95.2,,20.8,5,,,,,,,,,,,,0,0,0,0,0,0,0,0,0,0,0,0,0,0,0,0,,,,,0.0,,,,,,
585158,1745095297623,,,,,,,,,,,,,,,,,,,,,,,,,,,,,,,,,,0,0,0,0,0,0,0,0,0,0,0,0,0,0,0,0,,,,,,,,,,,
585178,1745095297643,0.0,204.75,,-0.05,-0.0,1.03,-0,-0,0,1.03,1.14,90,1815,2.9,3.63,,13.65,1.21,95.2,,20.8,5,0,0,0,0,0.0,0.0,0.0,0.0,2.26,,,0,0,0,0,0,0,0,0,0,0,0,0,0,0,0,0,0,,,,0.0,39.240089,-77.965401,0.0,33,3,0.8
585198,1745095297663,,,,,,,,,,,,,,,,,,,,,,,,,,,,,,,,,,0,0,0,0,0,0,0,0,0,0,0,0,0,0,0,0,,,,,,,,,,,
585218,1745095297683,0.0,204.75,,-0.05,0.0,1.01,-0,-0,0,1.01,1.14,88,1815,2.9,3.63,,13.73,1.225,95.2,,19.9,5,,,,,,,,,,,,0,0,0,0,0,0,0,0,0,0,0,0,0,0,0,0,,,,,0.0,,,,,,
585238,1745095297703,,,,,,,,,,,,,,,,,,,,,,,,,,,,,,,,,,0,0,0,0,0,0,0,0,0,0,0,0,0,0,0,0,,,,,,,,,,,
585258,1745095297723,0.0,204.75,,-0.04,-0.01,1.01,-0,-0,0,1.01,1.14,88,1730,2.9,3.6,,13.82,1.247,95.2,,19.9,5,,,,,,,,,,,,0,0,0,0,0,0,0,0,0,0,0,0,0,0,0,0,,,,,0.0,,,,,,
585278,1745095297743,,,,,,,,,,,,,,,,,,,,,,,0,0,0,0,0.0,0.0,0.0,0.0,2.26,,,0,0,0,0,0,0,0,0,0,0,0,0,0,0,0,0,0,,,,,39.240089,-77.965401,0.04,33,3,0.8
585298,1745095297763,0.0,204.75,,-0.02,-0.01,1.01,-0,-0,0,1.01,1.14,89,1717,2.9,3.61,,13.79,1.25,95.2,,19.9,5,,,,,,,,,,,,0,0,0,0,0,0,0,0,0,0,0,0,0,0,0,0,,,,,0.0,,,,,,
585318,1745095297783,,,,,,,,,,,,,,,,,,,,,,,,,,,,,,,,,,0,0,0,0,0,0,0,0,0,0,0,0,0,0,0,0,,,,,,,,,,,
585338,1745095297803,0.0,204.75,,-0.03,-0.01,1.03,-0,-0,0,1.03,1.14,90,1599,2.9,3.63,,13.79,1.25,95.2,,17.7,5,,,,,,,,,,,,0,0,0,0,0,0,0,0,0,0,0,0,0,0,0,0,,,,,0.0,,,,,,
585358,1745095297823,,,,,,,,,,,,,,,,,,,,,,,,,,,,,,,,,,0,0,0,0,0,0,0,0,0,0,0,0,0,0,0,0,,,,,,,,,,,
585378,1745095297843,0.0,204.75,13.39,-0.04,-0.0,1.04,-0,-0,0,1.04,1.14,92,1521,2.9,3.61,15,13.79,1.25,95.2,140,17.7,5,0,0,0,0,0.0,0.0,0.0,0.0,2.26,0,0.0,0,0,0,0,0,0,0,0,0,0,0,0,0,0,0,0,0,0.0,0,0,0.0,39.240089,-77.965401,0.08,33,3,0.8
585398,1745095297863,,,,,,,,,,,,,,,,,,,,,,,,,,,,,,,,,,0,0,0,0,0,0,0,0,0,0,0,0,0,0,0,0,,,,,,,,,,,
585418,1745095297883,0.0,204.75,,-0.05,0.01,1.06,-0,-0,0,1.06,1.14,93,1521,2.9,3.61,,13.94,1.249,95.2,,17.1,5,,,,,,,,,,,,0,0,0,0,0,0,0,0,0,0,0,0,0,0,0,0,,,,,0.0,,,,,,
585438,1745095297904,,,,,,,,,,,,,,,,,,,,,,,,,,,,,,,,,,0,0,0,0,0,0,0,0,0,0,0,0,0,0,0,0,,,,,,,,,,,
585458,1745095297924,0.0,204.63,,-0.05,0.01,1.06,-0,-0,0,1.06,1.14,93,1542,2.9,3.61,,13.83,1.247,95.2,,17.1,5,,,,,,,,,,,,0,0,0,0,0,0,0,0,0,0,0,0,0,0,0,0,,,,,0.0,,,,,,
585478,1745095297944,,,,,,,,,,,,,,,,,,,,,,,0,0,0,0,0.0,0.0,0.0,0.0,2.26,,,0,0,0,0,0,0,0,0,0,0,0,0,0,0,0,0,0,,,,,39.240089,-77.965401,0.04,33,3,0.8
585498,1745095297964,0.0,204.63,,-0.04,0.01,1.06,-0,-0,0,1.06,1.14,93,1420,2.7,3.6,,13.99,1.246,95.2,,17.1,5,,,,,,,,,,,,0,0,0,0,0,0,0,0,0,0,0,0,0,0,0,0,,,,,0.0,,,,,,
585518,1745095297984,,,,,,,,,,,,,,,,,,,,,,,,,,,,,,,,,,0,0,0,0,0,0,0,0,0,0,0,0,0,0,0,0,,,,,,,,,,,
585538,1745095297994,0.0,204.63,,-0.03,0.01,1.06,-0,-0,0,1.06,1.14,93,1459,2.7,3.6,,13.95,1.246,95.2,,16.4,5,,,,,,,,,,,,0,0,0,0,0,0,0,0,0,0,0,0,0,0,0,0,,,,,0.0,,,,,,
585558,1745095298014,,,,,,,,,,,,,,,,,,,,,,,,,,,,,,,,,,0,0,0,0,0,0,0,0,0,0,0,0,0,0,0,0,,,,,,,,,,,
585578,1745095298034,0.0,204.63,,-0.03,-0.0,1.04,-0,-0,0,1.04,1.14,91,1354,2.7,3.59,,13.95,1.246,95.2,,16.4,5,0,0,0,0,0.0,0.0,0.0,0.0,2.26,,,0,0,0,0,0,0,0,0,0,0,0,0,0,0,0,0,0,,,,0.0,39.240089,-77.965401,0.04,32,3,0.8
585598,1745095298054,,,,,,,,,,,,,,,,,,,,,,,,,,,,,,,,,,0,0,0,0,0,0,0,0,0,0,0,0,0,0,0,0,,,,,,,,,,,
585618,1745095298074,0.0,204.63,,-0.04,0.01,1.02,0,-0,0,1.03,1.14,90,1354,2.7,3.59,,13.98,1.248,95.2,,15.4,5,,,,,,,,,,,,0,0,0,0,0,0,0,0,0,0,0,0,0,0,0,0,,,,,0.0,,,,,,
585638,1745095298102,,,,,,,,,,,,,,,,,,,,,,,,,,,,,,,,,,0,0,0,0,0,0,0,0,0,0,0,0,0,0,0,0,,,,,,,,,,,
585658,1745095298122,0.0,204.63,,-0.04,0.0,1.01,0,-0,0,1.01,1.14,89,1352,2.7,3.6,,13.95,1.238,95.2,,15.4,5,,,,,,,,,,,,0,0,0,0,0,0,0,0,0,0,0,0,0,0,0,0,,,,,0.0,,,,,,
585678,1745095298142,,,,,,,,,,,,,,,,,,,,,,,0,0,0,0,0.0,0.0,0.0,0.0,2.26,,,0,0,0,0,0,0,0,0,0,0,0,0,0,0,0,0,0,,,,,39.240089,-77.965401,0.0,32,3,0.8
585698,1745095298162,0.0,204.63,,-0.04,0.0,1.0,0,-0,0,1.0,1.14,88,1243,2.8,3.6,,13.98,1.222,95.2,,15.4,5,,,,,,,,,,,,0,0,0,0,0,0,0,0,0,0,0,0,0,0,0,0,,,,,0.0,,,,,,
585718,1745095298182,,,,,,,,,,,,,,,,,,,,,,,,,,,,,,,,,,0,0,0,0,0,0,0,0,0,0,0,0,0,0,0,0,,,,,,,,,,,
585738,1745095298200,0.0,204.63,,-0.04,0.0,0.99,0,-0,0,0.99,1.14,87,1144,2.8,3.6,,14.14,1.218,95.2,,14.1,5,,,,,,,,,,,,0,0,0,0,0,0,0,0,0,0,0,0,0,0,0,0,,,,,0.0,,,,,,
585758,1745095298220,,,,,,,,,,,,,,,,,,,,,,,,,,,,,,,,,,0,0,0,0,0,0,0,0,0,0,0,0,0,0,0,0,,,,,,,,,,,
585778,1745095298240,0.0,204.75,,-0.04,0.01,0.98,0,-0,0,0.98,1.14,86,1049,2.9,3.61,,14.14,1.218,95.2,,14.1,5,0,0,0,0,0.0,0.0,0.0,0.0,2.26,,,0,0,0,0,0,0,0,0,0,0,0,0,0,0,0,0,0,,,,0.0,39.240089,-77.965401,0.11,32,3,0.8
585798,1745095298260,,,,,,,,,,,,,,,,,,,,,,,,,,,,,,,,,,0,0,0,0,0,0,0,0,0,0,0,0,0,0,0,0,,,,,,,,,,,
585818,1745095298280,0.0,204.75,,-0.04,0.01,0.98,0,-0,0,0.98,1.14,86,1049,2.9,3.61,,14.02,1.242,95.2,,14.0,5,,,,,,,,,,,,0,0,0,0,0,0,0,0,0,0,0,0,0,0,0,0,,,,,0.0,,,,,,
585838,1745095298302,,,,,,,,,,,,,,,,,,,,,,,,,,,,,,,,,,0,0,0,0,0,0,0,0,0,0,0,0,0,0,0,0,,,,,,,,,,,
585858,1745095298322,0.0,204.63,,-0.04,0.01,0.97,0,-0,0,0.98,1.14,85,1341,2.9,3.61,,14.08,1.25,95.2,,14.0,5,,,,,,,,,,,,0,0,0,0,0,0,0,0,0,0,0,0,0,0,0,0,,,,,0.0,,,,,,
585878,1745095298342,,,,,,,,,,,,,,,,,,,,,,,0,0,0,0,0.0,0.0,0.0,0.0,2.25,,,0,0,0,0,0,0,0,0,0,0,0,0,0,0,0,0,0,,,,,39.240089,-77.965401,0.0,32,3,0.8
585898,1745095298362,0.0,204.75,,-0.05,0.01,0.97,0,-0,0,0.97,1.14,85,1120,2.9,3.6,,14.06,1.249,95.2,,14.0,5,,,,,,,,,,,,0,0,0,0,0,0,0,0,0,0,0,0,0,0,0,0,,,,,0.0,,,,,,
585918,1745095298382,,,,,,,,,,,,,,,,,,,,,,,,,,,,,,,,,,0,0,0,0,0,0,0,0,0,0,0,0,0,0,0,0,,,,,,,,,,,
585938,1745095298402,0.0,204.75,,-0.05,0.01,0.97,0,-0,0,0.98,1.14,86,1221,3.6,3.63,,14.15,1.248,95.2,,14.1,5,,,,,,,,,,,,0,0,0,0,0,0,0,0,0,0,0,0,0,0,0,0,,,,,0.0,,,,,,
585958,1745095298422,,,,,,,,,,,,,,,,,,,,,,,,,,,,,,,,,,0,0,0,0,0,0,0,0,0,0,0,0,0,0,0,0,,,,,,,,,,,
585978,1745095298442,0.0,204.63,,-0.06,0.01,0.98,0,-0,0,0.98,1.14,86,1075,3.6,3.64,,14.15,1.248,95.2,,14.1,5,0,0,0,0,0.0,0.0,0.0,0.0,2.26,,,0,0,0,0,0,0,0,0,0,0,0,0,0,0,0,0,0,,,,0.0,39.240089,-77.965401,0.04,32,3,0.8
585998,1745095298462,,,,,,,,,,,,,,,,,,,,,,,,,,,,,,,,,,0,0,0,0,0,0,0,0,0,0,0,0,0,0,0,0,,,,,,,,,,,
586018,1745095298482,0.0,204.75,,-0.07,0.02,0.98,0,-0,0,0.98,1.14,86,1075,3.6,3.64,,14.14,1.247,95.2,,14.1,5,,,,,,,,,,,,0,0,0,0,0,0,0,0,0,0,0,0,0,0,0,0,,,,,0.0,,,,,,
586038,1745095298502,,,,,,,,,,,,,,,,,,,,,,,,,,,,,,,,,,0,0,0,0,0,0,0,0,0,0,0,0,0,0,0,0,,,,,,,,,,,
586058,1745095298522,0.0,204.63,,-0.06,0.01,0.98,0,-0,0,0.99,1.14,86,1283,3.5,3.64,,14.14,1.243,95.2,,14.1,5,,,,,,,,,,,,0,0,0,0,0,0,0,0,0,0,0,0,0,0,0,0,,,,,0.0,,,,,,
586078,1745095298542,,,,,,,,,,,,,,,,,,,,,,,0,0,0,0,0.0,0.0,0.0,0.0,2.26,,,0,0,0,0,0,0,0,0,0,0,0,0,0,0,0,0,0,,,,,39.240089,-77.965401,0.0,32,3,0.8
586098,1745095298562,0.0,204.63,,-0.05,0.02,0.99,0,-0,0,0.99,1.14,87,1086,3.5,3.66,,14.14,1.218,95.2,,14.1,5,,,,,,,,,,,,0,0,0,0,0,0,0,0,0,0,0,0,0,0,0,0,,,,,0.0,,,,,,
586118,1745095298582,,,,,,,,,,,,,,,,,,,,,,,,,,,,,,,,,,0,0,0,0,0,0,0,0,0,0,0,0,0,0,0,0,,,,,,,,,,,
586138,1745095298602,0.0,204.63,,-0.05,0.01,1.0,0,-0,0,1.0,1.14,87,1197,3.5,3.66,,14.07,1.225,95.2,,13.6,5,,,,,,,,,,,,0,0,0,0,0,0,0,0,0,0,0,0,0,0,0,0,,,,,0.0,,,,,,
586158,1745095298622,,,,,,,,,,,,,,,,,,,,,,,,,,,,,,,,,,0,0,0,0,0,0,0,0,0,0,0,0,0,0,0,0,,,,,,,,,,,
586178,1745095298642,0.0,204.75,,-0.04,0.0,1.0,0,-0,0,1.0,1.14,87,1054,3.6,3.66,,14.07,1.225,95.2,,13.6,5,0,0,0,0,0.0,0.0,0.0,0.0,2.26,,,0,0,0,0,0,0,0,0,0,0,0,0,0,0,0,0,0,,,,0.0,39.240089,-77.965401,0.04,32,3,0.8
586198,1745095298662,,,,,,,,,,,,,,,,,,,,,,,,,,,,,,,,,,0,0,0,0,0,0,0,0,0,0,0,0,0,0,0,0,,,,,,,,,,,
586218,1745095298682,0.0,204.63,,-0.04,0.01,0.99,0,-0,0,0.99,1.14,87,1054,3.6,3.66,,14.06,1.234,95.2,,13.5,5,,,,,,,,,,,,0,0,0,0,0,0,0,0,0,0,0,0,0,0,0,0,,,,,0.0,,,,,,
586238,1745095298704,,,,,,,,,,,,,,,,,,,,,,,,,,,,,,,,,,0,0,0,0,0,0,0,0,0,0,0,0,0,0,0,0,,,,,,,,,,,
586258,1745095298724,0.0,204.63,,-0.04,0.0,0.99,0,-0,0,0.99,1.14,87,1241,3.7,3.66,,14.03,1.246,95.2,,13.5,5,,,,,,,,,,,,0,0,0,0,0,0,0,0,0,0,0,0,0,0,0,0,,,,,0.0,,,,,,
586278,1745095298744,,,,,,,,,,,,,,,,,,,,,,,0,0,0,0,0.0,0.0,0.0,0.0,2.26,,,0,0,0,0,0,0,0,0,0,0,0,0,0,0,0,0,0,,,,,39.240089,-77.965401,0.04,32,3,0.8
586298,1745095298764,0.0,204.63,,-0.05,0.0,0.98,0,-0,-0,0.98,1.14,86,1041,3.7,3.64,,14.08,1.25,95.2,,13.5,5,,,,,,,,,,,,0,0,0,0,0,0,0,0,0,0,0,0,0,0,0,0,,,,,0.0,,,,,,
586318,1745095298784,,,,,,,,,,,,,,,,,,,,,,,,,,,,,,,,,,0,0,0,0,0,0,0,0,0,0,0,0,0,0,0,0,,,,,,,,,,,
586338,1745095298804,0.0,204.63,,-0.05,0.0,0.98,0,-0,0,0.98,1.14,86,1216,3.7,3.65,,14.04,1.248,95.2,,13.1,5,,,,,,,,,,,,0,0,0,0,0,0,0,0,0,0,0,0,0,0,0,0,,,,,0.0,,,,,,
586358,1745095298824,,,,,,,,,,,,,,,,,,,,,,,,,,,,,,,,,,0,0,0,0,0,0,0,0,0,0,0,0,0,0,0,0,,,,,,,,,,,
586378,1745095298844,0.0,204.63,13.41,-0.05,0.01,0.98,0,-0,0,0.98,1.14,86,1087,9.6,3.8,15,14.04,1.248,95.2,142,13.1,5,0,0,0,0,0.0,0.0,0.0,0.0,2.26,0,0.0,0,0,0,0,0,0,0,0,0,0,0,0,0,0,0,0,0,0.0,0,0,0.0,39.240089,-77.965401,0.1,32,3,0.8
586398,1745095298864,,,,,,,,,,,,,,,,,,,,,,,,,,,,,,,,,,0,0,0,0,0,0,0,0,0,0,0,0,0,0,0,0,,,,,,,,,,,
586418,1745095298884,0.0,204.63,,-0.06,0.01,0.99,0,-0,0,0.99,1.14,87,1087,9.6,3.8,,14.15,1.247,95.2,,13.6,5,,,,,,,,,,,,0,0,0,0,0,0,0,0,0,0,0,0,0,0,0,0,,,,,0.0,,,,,,
586438,1745095298904,,,,,,,,,,,,,,,,,,,,,,,,,,,,,,,,,,0,0,0,0,0,0,0,0,0,0,0,0,0,0,0,0,,,,,,,,,,,
586458,1745095298924,0.0,204.63,,-0.06,0.01,0.98,0,-0,0,0.98,1.14,86,1300,10.8,3.79,,14.11,1.247,95.2,,13.6,5,,,,,,,,,,,,0,0,0,0,0,0,0,0,0,0,0,0,0,0,0,0,,,,,0.0,,,,,,
586478,1745095298944,,,,,,,,,,,,,,,,,,,,,,,0,0,0,0,0.0,0.0,0.0,0.0,2.26,,,0,0,0,0,0,0,0,0,0,0,0,0,0,0,0,0,0,,,,,39.240089,-77.965401,0.07,32,3,0.8
586498,1745095298964,0.0,204.63,,-0.06,0.01,0.97,0,-0,0,0.97,1.14,85,1158,10.7,3.76,,14.1,1.247,95.2,,13.6,5,,,,,,,,,,,,0,0,0,0,0,0,0,0,0,0,0,0,0,0,0,0,,,,,0.0,,,,,,
586518,1745095298984,,,,,,,,,,,,,,,,,,,,,,,,,,,,,,,,,,0,0,0,0,0,0,0,0,0,0,0,0,0,0,0,0,,,,,,,,,,,
586538,1745095298995,0.0,204.63,,-0.06,0.01,0.96,0,-0,0,0.96,1.14,84,1420,10.6,3.8,,14.11,1.247,95.2,,14.2,5,,,,,,,,,,,,0,0,0,0,0,0,0,0,0,0,0,0,0,0,0,0,,,,,0.0,,,,,,
586558,1745095299015,,,,,,,,,,,,,,,,,,,,,,,,,,,,,,,,,,0,0,0,0,0,0,0,0,0,0,0,0,0,0,0,0,,,,,,,,,,,
586578,1745095299035,0.0,204.63,,-0.07,0.01,0.96,0,-0,-0,0.96,1.14,84,1353,10.6,3.73,,14.11,1.247,95.2,,14.2,5,0,0,0,0,0.0,0.0,0.0,0.0,2.26,,,0,0,0,0,0,0,0,0,0,0,0,0,0,0,0,0,0,,,,0.0,39.240089,-77.965401,0.04,32,3,0.8
586598,1745095299055,,,,,,,,,,,,,,,,,,,,,,,,,,,,,,,,,,0,0,0,0,0,0,0,0,0,0,0,0,0,0,0,0,,,,,,,,,,,
586618,1745095299075,0.0,204.63,,-0.07,0.01,0.95,0,-0,-0,0.95,1.14,84,1353,10.6,3.73,,14.12,1.249,95.2,,16.3,5,,,,,,,,,,,,0,0,0,0,0,0,0,0,0,0,0,0,0,0,0,0,,,,,0.0,,,,,,
586638,1745095299099,,,,,,,,,,,,,,,,,,,,,,,,,,,,,,,,,,0,0,0,0,0,0,0,0,0,0,0,0,0,0,0,0,,,,,,,,,,,
586658,1745095299119,0.0,204.63,,-0.08,0.03,0.94,0,-0,0,0.94,1.14,82,1489,10.5,3.7,,14.08,1.25,95.2,,16.3,5,,,,,,,,,,,,0,0,0,0,0,0,0,0,0,0,0,0,0,0,0,0,,,,,0.0,,,,,,
586678,1745095299139,,,,,,,,,,,,,,,,,,,,,,,0,0,0,0,0.0,0.0,0.0,0.0,2.26,,,0,0,0,0,0,0,0,0,0,0,0,0,0,0,0,0,0,,,,,39.240089,-77.965401,0.0,32,3,0.8
586698,1745095299159,0.0,204.63,,-0.07,0.02,0.94,0,-0,0,0.94,1.14,83,1661,10.6,3.72,,14.02,1.252,95.2,,16.3,5,,,,,,,,,,,,0,0,0,0,0,0,0,0,0,0,0,0,0,0,0,0,,,,,0.0,,,,,,
586718,1745095299179,,,,,,,,,,,,,,,,,,,,,,,,,,,,,,,,,,0,0,0,0,0,0,0,0,0,0,0,0,0,0,0,0,,,,,,,,,,,
586738,1745095299201,0.0,204.63,,-0.05,0.03,0.96,0,-0,0,0.96,1.14,84,1620,10.7,3.68,,14.06,1.252,95.2,,17.0,5,,,,,,,,,,,,0,0,0,0,0,0,0,0,0,0,0,0,0,0,0,0,,,,,0.0,,,,,,
586758,1745095299221,,,,,,,,,,,,,,,,,,,,,,,,,,,,,,,,,,0,0,0,0,0,0,0,0,0,0,0,0,0,0,0,0,,,,,,,,,,,
586778,1745095299241,0.0,204.63,,-0.06,0.03,0.97,0,-0,0,0.98,1.14,86,1668,10.8,3.66,,14.06,1.252,95.2,,17.0,5,0,0,0,0,0.0,0.0,0.0,0.0,2.26,,,0,0,0,0,0,0,0,0,0,0,0,0,0,0,0,0,0,,,,0.0,39.240089,-77.965401,0.0,32,3,0.8
586798,1745095299261,,,,,,,,,,,,,,,,,,,,,,,,,,,,,,,,,,0,0,0,0,0,0,0,0,0,0,0,0,0,0,0,0,,,,,,,,,,,
586818,1745095299281,0.0,204.63,,-0.07,0.03,0.96,0,-0,0,0.96,1.14,84,1668,10.8,3.66,,14.11,1.252,95.2,,18.1,5,,,,,,,,,,,,0,0,0,0,0,0,0,0,0,0,0,0,0,0,0,0,,,,,0.0,,,,,,
586838,1745095299301,,,,,,,,,,,,,,,,,,,,,,,,,,,,,,,,,,0,0,0,0,0,0,0,0,0,0,0,0,0,0,0,0,,,,,,,,,,,
586858,1745095299321,0.0,204.63,,-0.06,0.02,0.97,0,-0,0,0.97,1.14,85,1751,10.8,3.67,,14.06,1.252,95.2,,18.1,5,,,,,,,,,,,,0,0,0,0,0,0,0,0,0,0,0,0,0,0,0,0,,,,,0.0,,,,,,
586878,1745095299341,,,,,,,,,,,,,,,,,,,,,,,0,0,0,0,0.0,0.0,0.0,0.0,2.26,,,0,0,0,0,0,0,0,0,0,0,0,0,0,0,0,0,0,,,,,39.240089,-77.965401,0.0,32,3,0.8
586898,1745095299361,0.0,204.63,,-0.06,0.04,0.98,0,-0,0,0.99,1.14,86,1781,10.8,3.67,,14.08,1.251,95.2,,18.1,5,,,,,,,,,,,,0,0,0,0,0,0,0,0,0,0,0,0,0,0,0,0,,,,,0.0,,,,,,
586918,1745095299381,,,,,,,,,,,,,,,,,,,,,,,,,,,,,,,,,,0,0,0,0,0,0,0,0,0,0,0,0,0,0,0,0,,,,,,,,,,,
586938,1745095299401,0.0,204.63,,-0.07,0.03,0.97,0,-0,0,0.97,1.14,85,1702,10.8,3.65,,14.11,1.249,95.2,,18.6,5,,,,,,,,,,,,0,0,0,0,0,0,0,0,0,0,0,0,0,0,0,0,,,,,0.0,,,,,,
586958,1745095299421,,,,,,,,,,,,,,,,,,,,,,,,,,,,,,,,,,0,0,0,0,0,0,0,0,0,0,0,0,0,0,0,0,,,,,,,,,,,
586978,1745095299441,0.0,204.5,,-0.05,0.03,0.97,0,-0,0,0.98,1.14,86,1747,10.7,3.63,,14.11,1.249,95.2,,18.6,5,0,0,0,0,0.0,0.0,0.0,0.0,2.26,,,0,0,0,0,0,0,0,0,0,0,0,0,0,0,0,0,0,,,,0.0,39.240089,-77.965401,0.04,32,3,0.8
586998,1745095299461,,,,,,,,,,,,,,,,,,,,,,,,,,,,,,,,,,0,0,0,0,0,0,0,0,0,0,0,0,0,0,0,0,,,,,,,,,,,
587018,1745095299481,0.0,204.5,,-0.05,0.03,0.98,0,-0,-0,0.98,1.14,86,1747,10.7,3.63,,14.06,1.248,95.2,,18.8,5,,,,,,,,,,,,0,0,0,0,0,0,0,0,0,0,0,0,0,0,0,0,,,,,0.0,,,,,,
587038,1745095299504,,,,,,,,,,,,,,,,,,,,,,,,,,,,,,,,,,0,0,0,0,0,0,0,0,0,0,0,0,0,0,0,0,,,,,,,,,,,
587058,1745095299524,0.0,204.5,,-0.06,0.05,0.96,0,-0,0,0.97,1.14,85,1814,10.6,3.66,,14.0,1.248,95.2,,18.8,5,,,,,,,,,,,,0,0,0,0,0,0,0,0,0,0,0,0,0,0,0,0,,,,,0.0,,,,,,
587078,1745095299544,,,,,,,,,,,,,,,,,,,,,,,0,0,0,0,0.0,0.0,0.0,0.0,2.26,,,0,0,0,0,0,0,0,0,0,0,0,0,0,0,0,0,0,,,,,39.240089,-77.965401,0.04,32,3,0.8
587098,1745095299564,0.0,204.5,,-0.04,0.03,0.98,0,-0,0,0.98,1.14,86,1795,10.6,3.66,,14.04,1.248,95.2,,18.8,5,,,,,,,,,,,,0,0,0,0,0,0,0,0,0,0,0,0,0,0,0,0,,,,,0.0,,,,,,
587118,1745095299584,,,,,,,,,,,,,,,,,,,,,,,,,,,,,,,,,,0,0,0,0,0,0,0,0,0,0,0,0,0,0,0,0,,,,,,,,,,,
587138,1745095299601,0.0,204.5,,-0.05,0.03,0.99,0,-0,0,0.99,1.14,87,1727,10.7,3.65,,14.04,1.25,95.2,,19.0,5,,,,,,,,,,,,0,0,0,0,0,0,0,0,0,0,0,0,0,0,0,0,,,,,0.0,,,,,,
587158,1745095299621,,,,,,,,,,,,,,,,,,,,,,,,,,,,,,,,,,0,0,0,0,0,0,0,0,0,0,0,0,0,0,0,0,,,,,,,,,,,
587178,1745095299641,0.0,204.5,,-0.05,0.02,0.98,0,-0,0,0.98,1.14,86,1764,10.7,3.63,,14.04,1.25,95.2,,19.0,5,0,0,0,0,0.0,0.0,0.0,0.0,2.26,,,0,0,0,0,0,0,0,0,0,0,0,0,0,0,0,0,0,,,,0.0,39.240089,-77.965401,0.04,32,3,0.8
587198,1745095299661,,,,,,,,,,,,,,,,,,,,,,,,,,,,,,,,,,0,0,0,0,0,0,0,0,0,0,0,0,0,0,0,0,,,,,,,,,,,
587218,1745095299681,0.0,204.5,,-0.05,0.02,0.99,0,-0,0,0.99,1.14,86,1764,10.7,3.63,,13.99,1.251,95.2,,19.1,5,,,,,,,,,,,,0,0,0,0,0,0,0,0,0,0,0,0,0,0,0,0,,,,,0.0,,,,,,
587238,1745095299703,,,,,,,,,,,,,,,,,,,,,,,,,,,,,,,,,,0,0,0,0,0,0,0,0,0,0,0,0,0,0,0,0,,,,,,,,,,,
587258,1745095299723,0.0,204.5,,-0.05,0.03,0.97,0,-0,0,0.98,1.14,86,1872,10.8,3.66,,13.98,1.25,95.2,,19.1,5,,,,,,,,,,,,0,0,0,0,0,0,0,0,0,0,0,0,0,0,0,0,,,,,0.0,,,,,,
587278,1745095299743,,,,,,,,,,,,,,,,,,,,,,,0,0,0,0,0.0,0.0,0.0,0.0,2.26,,,0,0,0,0,0,0,0,0,0,0,0,0,0,0,0,0,0,,,,,39.240089,-77.965401,0.04,32,3,0.8
587298,1745095299763,0.0,204.5,,-0.05,0.03,1.0,-0,-0,0,1.0,1.14,88,1900,10.9,3.63,,14.02,1.252,95.2,,19.1,5,,,,,,,,,,,,0,0,0,0,0,0,0,0,0,0,0,0,0,0,0,0,,,,,0.0,,,,,,
587318,1745095299783,,,,,,,,,,,,,,,,,,,,,,,,,,,,,,,,,,0,0,0,0,0,0,0,0,0,0,0,0,0,0,0,0,,,,,,,,,,,
587338,1745095299803,0.0,204.5,,-0.06,0.03,0.98,-0,-0,0,0.99,1.14,86,1824,9.2,3.58,,14.06,1.251,95.2,,19.8,5,,,,,,,,,,,,0,0,0,0,0,0,0,0,0,0,0,0,0,0,0,0,,,,,0.0,,,,,,
587358,1745095299823,,,,,,,,,,,,,,,,,,,,,,,,,,,,,,,,,,0,0,0,0,0,0,0,0,0,0,0,0,0,0,0,0,,,,,,,,,,,
587378,1745095299843,0.0,204.5,13.45,-0.04,0.02,1.0,0,-0,0,1.0,1.14,88,1805,9.2,3.58,15,14.06,1.251,95.2,142,19.8,5,0,0,0,0,0.0,0.0,0.0,0.0,2.26,0,0.0,0,0,0,0,0,0,0,0,0,0,0,0,0,0,0,0,0,0.0,0,0,0.0,39.240089,-77.965401,0.04,32,3,0.8
587398,1745095299863,,,,,,,,,,,,,,,,,,,,,,,,,,,,,,,,,,0,0,0,0,0,0,0,0,0,0,0,0,0,0,0,0,,,,,,,,,,,
587418,1745095299883,0.0,204.5,,-0.04,0.02,0.98,0,-0,0,0.98,1.14,86,1805,9.2,3.58,,14.02,1.251,95.2,,20.1,5,,,,,,,,,,,,0,0,0,0,0,0,0,0,0,0,0,0,0,0,0,0,,,,,0.0,,,,,,
587438,1745095299905,,,,,,,,,,,,,,,,,,,,,,,,,,,,,,,,,,0,0,0,0,0,0,0,0,0,0,0,0,0,0,0,0,,,,,,,,,,,
587458,1745095299925,0.0,204.63,,-0.03,0.03,0.99,-0,-0,0,0.99,1.14,87,1932,9.2,3.58,,13.94,1.249,95.2,,20.1,5,,,,,,,,,,,,0,0,0,0,0,0,0,0,0,0,0,0,0,0,0,0,,,,,0.0,,,,,,
587478,1745095299945,,,,,,,,,,,,,,,,,,,,,,,0,0,0,0,0.0,0.0,0.0,0.0,2.26,,,0,0,0,0,0,0,0,0,0,0,0,0,0,0,0,0,0,,,,,39.240089,-77.965401,0.0,32,3,0.8
587498,1745095299965,0.0,204.5,,-0.04,0.02,0.98,0,-0,0,0.98,1.14,86,1916,9.2,3.59,,13.94,1.248,95.2,,20.1,5,,,,,,,,,,,,0,0,0,0,0,0,0,0,0,0,0,0,0,0,0,0,,,,,0.0,,,,,,
587518,1745095299985,,,,,,,,,,,,,,,,,,,,,,,,,,,,,,,,,,0,0,0,0,0,0,0,0,0,0,0,0,0,0,0,0,,,,,,,,,,,
587538,1745095299994,0.0,204.63,,-0.04,0.02,0.99,0,-0,0,0.99,1.14,87,1831,9.1,3.57,,13.94,1.248,95.2,,19.6,5,,,,,,,,,,,,0,0,0,0,0,0,0,0,0,0,0,0,0,0,0,0,,,,,0.0,,,,,,
587558,1745095300014,,,,,,,,,,,,,,,,,,,,,,,,,,,,,,,,,,0,0,0,0,0,0,0,0,0,0,0,0,0,0,0,0,,,,,,,,,,,
587578,1745095300034,0.0,204.63,,-0.05,0.04,0.97,0,-0,0,0.97,1.14,85,1826,9.0,3.57,,13.94,1.248,95.2,,19.6,5,0,0,0,0,0.0,0.0,0.0,0.0,2.26,,,0,0,0,0,0,0,0,0,0,0,0,0,0,0,0,0,0,,,,0.0,39.240089,-77.965401,0.1,32,3,0.8
587598,1745095300054,,,,,,,,,,,,,,,,,,,,,,,,,,,,,,,,,,0,0,0,0,0,0,0,0,0,0,0,0,0,0,0,0,,,,,,,,,,,
587618,1745095300074,0.0,204.63,,-0.04,0.03,1.0,0,-0,0,1.0,1.14,87,1826,9.0,3.57,,13.96,1.248,95.2,,20.1,5,,,,,,,,,,,,0,0,0,0,0,0,0,0,0,0,0,0,0,0,0,0,,,,,0.0,,,,,,
587638,1745095300102,,,,,,,,,,,,,,,,,,,,,,,,,,,,,,,,,,0,0,0,0,0,0,0,0,0,0,0,0,0,0,0,0,,,,,,,,,,,
587658,1745095300122,0.0,204.5,,-0.05,0.04,0.99,0,-0,0,0.99,1.14,87,1829,9.0,3.57,,13.92,1.249,95.2,,20.1,5,,,,,,,,,,,,0,0,0,0,0,0,0,0,0,0,0,0,0,0,0,0,,,,,0.0,,,,,,
587678,1745095300142,,,,,,,,,,,,,,,,,,,,,,,0,0,0,0,0.0,0.0,0.0,0.0,2.26,,,0,0,0,0,0,0,0,0,0,0,0,0,0,0,0,0,0,,,,,39.240089,-77.965401,0.1,32,3,0.8
587698,1745095300162,0.0,204.5,,-0.04,0.04,1.0,0,-0,0,1.0,1.14,88,1937,9.0,3.59,,13.94,1.25,95.2,,20.1,5,,,,,,,,,,,,0,0,0,0,0,0,0,0,0,0,0,0,0,0,0,0,,,,,0.0,,,,,,
587718,1745095300182,,,,,,,,,,,,,,,,,,,,,,,,,,,,,,,,,,0,0,0,0,0,0,0,0,0,0,0,0,0,0,0,0,,,,,,,,,,,
587738,1745095300204,0.0,204.5,,-0.04,0.03,0.99,0,-0,0,0.99,1.14,87,1925,9.1,3.57,,13.98,1.25,95.2,,19.8,5,,,,,,,,,,,,0,0,0,0,0,0,0,0,0,0,0,0,0,0,0,0,,,,,0.0,,,,,,
587758,1745095300224,,,,,,,,,,,,,,,,,,,,,,,,,,,,,,,,,,0,0,0,0,0,0,0,0,0,0,0,0,0,0,0,0,,,,,,,,,,,
587778,1745095300244,0.0,204.63,,-0.03,0.03,1.0,-0,-0,0,1.0,1.14,88,1853,9.2,3.56,,13.98,1.25,95.2,,19.8,5,0,0,0,0,0.0,0.0,0.0,0.0,2.26,,,0,0,0,0,0,0,0,0,0,0,0,0,0,0,0,0,0,,,,0.0,39.240089,-77.965401,0.0,32,3,0.8
587798,1745095300264,,,,,,,,,,,,,,,,,,,,,,,,,,,,,,,,,,0,0,0,0,0,0,0,0,0,0,0,0,0,0,0,0,,,,,,,,,,,
587818,1745095300284,0.0,204.63,,-0.04,0.02,0.99,0,-0,0,0.99,1.14,86,1853,9.2,3.56,,14.04,1.251,95.2,,20.2,5,,,,,,,,,,,,0,0,0,0,0,0,0,0,0,0,0,0,0,0,0,0,,,,,0.0,,,,,,
587838,1745095300304,,,,,,,,,,,,,,,,,,,,,,,,,,,,,,,,,,0,0,0,0,0,0,0,0,0,0,0,0,0,0,0,0,,,,,,,,,,,
587858,1745095300324,0.0,204.63,,-0.04,0.02,1.0,0,-0,0,1.0,1.14,88,1820,9.2,3.57,,14.02,1.251,95.2,,20.2,5,,,,,,,,,,,,0,0,0,0,0,0,0,0,0,0,0,0,0,0,0,0,,,,,0.0,,,,,,
587878,1745095300344,,,,,,,,,,,,,,,,,,,,,,,0,0,0,0,0.0,0.0,0.0,0.0,2.26,,,0,0,0,0,0,0,0,0,0,0,0,0,0,0,0,0,0,,,,,39.240089,-77.965401,0.13,32,3,0.8
587898,1745095300364,0.0,204.63,,-0.05,0.04,0.98,0,-0,0,0.98,1.14,86,1892,9.2,3.58,,13.94,1.251,95.2,,20.2,5,,,,,,,,,,,,0,0,0,0,0,0,0,0,0,0,0,0,0,0,0,0,,,,,0.0,,,,,,
587918,1745095300384,,,,,,,,,,,,,,,,,,,,,,,,,,,,,,,,,,0,0,0,0,0,0,0,0,0,0,0,0,0,0,0,0,,,,,,,,,,,
587938,1745095300402,0.0,204.63,,-0.04,0.03,1.0,0,-0,0,1.0,1.14,88,1896,9.2,3.6,,13.92,1.249,95.2,,19.4,5,,,,,,,,,,,,0,0,0,0,0,0,0,0,0,0,0,0,0,0,0,0,,,,,0.0,,,,,,
587958,1745095300422,,,,,,,,,,,,,,,,,,,,,,,,,,,,,,,,,,0,0,0,0,0,0,0,0,0,0,0,0,0,0,0,0,,,,,,,,,,,
587978,1745095300442,0.0,204.5,,-0.06,0.04,0.99,0,-0,0,1.0,1.14,87,1817,9.2,3.57,,13.92,1.249,95.2,,19.4,5,0,0,0,0,0.0,0.0,0.0,0.0,2.26,,,0,0,0,0,0,0,0,0,0,0,0,0,0,0,0,0,0,,,,0.0,39.240089,-77.965401,0.11,32,3,0.8
587998,1745095300462,,,,,,,,,,,,,,,,,,,,,,,,,,,,,,,,,,0,0,0,0,0,0,0,0,0,0,0,0,0,0,0,0,,,,,,,,,,,
588018,1745095300482,0.0,204.63,,-0.04,0.03,1.0,0,-0,0,1.0,1.14,88,1817,9.2,3.57,,13.94,1.247,95.2,,20.1,5,,,,,,,,,,,,0,0,0,0,0,0,0,0,0,0,0,0,0,0,0,0,,,,,0.0,,,,,,
588038,1745095300502,,,,,,,,,,,,,,,,,,,,,,,,,,,,,,,,,,0,0,0,0,0,0,0,0,0,0,0,0,0,0,0,0,,,,,,,,,,,
588058,1745095300522,0.0,204.5,,-0.05,0.03,0.98,0,-0,0,0.98,1.14,86,1829,9.1,3.57,,13.95,1.248,95.2,,20.1,5,,,,,,,,,,,,0,0,0,0,0,0,0,0,0,0,0,0,0,0,0,0,,,,,0.0,,,,,,
588078,1745095300542,,,,,,,,,,,,,,,,,,,,,,,0,0,0,0,0.0,0.0,0.0,0.0,2.26,,,0,0,0,0,0,0,0,0,0,0,0,0,0,0,0,0,0,,,,,39.240089,-77.965401,0.07,32,3,0.8
588098,1745095300562,0.0,204.5,,-0.04,0.03,0.99,0,-0,0,0.99,1.14,87,1842,9.0,3.56,,13.92,1.248,95.2,,20.1,5,,,,,,,,,,,,0,0,0,0,0,0,0,0,0,0,0,0,0,0,0,0,,,,,0.0,,,,,,
588118,1745095300582,,,,,,,,,,,,,,,,,,,,,,,,,,,,,,,,,,0,0,0,0,0,0,0,0,0,0,0,0,0,0,0,0,,,,,,,,,,,
588138,1745095300602,0.0,204.63,,-0.05,0.03,0.97,0,-0,0,0.97,1.14,85,1914,9.0,3.59,,13.95,1.249,95.2,,19.8,5,,,,,,,,,,,,0,0,0,0,0,0,0,0,0,0,0,0,0,0,0,0,,,,,0.0,,,,,,
588158,1745095300622,,,,,,,,,,,,,,,,,,,,,,,,,,,,,,,,,,0,0,0,0,0,0,0,0,0,0,0,0,0,0,0,0,,,,,,,,,,,
588178,1745095300642,0.0,204.63,,-0.04,0.02,0.99,0,-0,0,0.99,1.14,86,1902,9.0,3.58,,13.95,1.249,95.2,,19.8,5,0,0,0,0,0.0,0.0,0.0,0.0,2.26,,,0,0,0,0,0,0,0,0,0,0,0,0,0,0,0,0,0,,,,0.0,39.240089,-77.965401,0.3,33,3,0.8
588198,1745095300662,,,,,,,,,,,,,,,,,,,,,,,,,,,,,,,,,,0,0,0,0,0,0,0,0,0,0,0,0,0,0,0,0,,,,,,,,,,,
588218,1745095300682,0.0,204.63,,-0.06,0.03,0.97,0,-0,0,0.97,1.14,85,1902,9.0,3.58,,13.98,1.25,95.2,,19.9,5,,,,,,,,,,,,0,0,0,0,0,0,0,0,0,0,0,0,0,0,0,0,,,,,0.0,,,,,,
588238,1745095300702,,,,,,,,,,,,,,,,,,,,,,,,,,,,,,,,,,0,0,0,0,0,0,0,0,0,0,0,0,0,0,0,0,,,,,,,,,,,
588258,1745095300722,0.0,204.5,,-0.05,0.01,0.99,0,-0,0,0.99,1.14,87,1842,9.1,3.57,,14.04,1.251,95.2,,19.9,5,,,,,,,,,,,,0,0,0,0,0,0,0,0,0,0,0,0,0,0,0,0,,,,,0.0,,,,,,
588278,1745095300742,,,,,,,,,,,,,,,,,,,,,,,0,0,0,0,0.0,0.0,0.0,0.0,2.26,,,0,0,0,0,0,0,0,0,0,0,0,0,0,0,0,0,0,,,,,39.240089,-77.965401,0.22,33,3,0.8
588298,1745095300762,0.0,204.5,,-0.06,0.02,0.98,0,-0,0,0.99,1.14,86,1850,9.2,3.56,,13.99,1.251,95.2,,19.9,5,,,,,,,,,,,,0,0,0,0,0,0,0,0,0,0,0,0,0,0,0,0,,,,,0.0,,,,,,
588318,1745095300782,,,,,,,,,,,,,,,,,,,,,,,,,,,,,,,,,,0,0,0,0,0,0,0,0,0,0,0,0,0,0,0,0,,,,,,,,,,,
588338,1745095300802,0.0,204.63,,-0.04,0.02,0.99,0,-0,0,0.99,1.14,87,1914,9.2,3.58,,13.91,1.251,95.2,,20.0,5,,,,,,,,,,,,0,0,0,0,0,0,0,0,0,0,0,0,0,0,0,0,,,,,0.0,,,,,,
588358,1745095300822,,,,,,,,,,,,,,,,,,,,,,,,,,,,,,,,,,0,0,0,0,0,0,0,0,0,0,0,0,0,0,0,0,,,,,,,,,,,
588378,1745095300842,0.0,204.63,13.47,-0.05,0.01,0.98,0,-0,0,0.98,1.14,86,1940,9.2,3.58,15,13.91,1.251,95.2,140,20.0,5,0,0,0,0,0.0,0.0,0.0,0.0,2.25,0,0.0,0,0,0,0,0,0,0,0,0,0,0,0,0,0,0,0,0,0.0,0,0,0.0,39.240089,-77.965401,0.05,33,3,0.8
588398,1745095300862,,,,,,,,,,,,,,,,,,,,,,,,,,,,,,,,,,0,0,0,0,0,0,0,0,0,0,0,0,0,0,0,0,,,,,,,,,,,
588418,1745095300882,0.0,204.63,,-0.04,0.02,0.99,0,-0,0,0.99,1.14,87,1940,9.2,3.58,,13.9,1.25,95.2,,19.8,5,,,,,,,,,,,,0,0,0,0,0,0,0,0,0,0,0,0,0,0,0,0,,,,,0.0,,,,,,
588438,1745095300904,,,,,,,,,,,,,,,,,,,,,,,,,,,,,,,,,,0,0,0,0,0,0,0,0,0,0,0,0,0,0,0,0,,,,,,,,,,,
588458,1745095300924,0.0,204.63,,-0.04,0.01,0.98,0,-0,0,0.98,1.14,86,1959,9.2,3.57,,13.92,1.249,95.2,,19.8,5,,,,,,,,,,,,0,0,0,0,0,0,0,0,0,0,0,0,0,0,0,0,,,,,0.0,,,,,,
588478,1745095300944,,,,,,,,,,,,,,,,,,,,,,,0,0,0,0,0.0,0.0,0.0,0.0,2.26,,,0,0,0,0,0,0,0,0,0,0,0,0,0,0,0,0,0,,,,,39.240089,-77.965401,0.04,33,3,0.8
588498,1745095300964,0.0,204.63,,-0.04,0.01,0.97,0,-0,0,0.97,1.14,85,1891,9.2,3.56,,14.0,1.247,95.2,,19.8,5,,,,,,,,,,,,0,0,0,0,0,0,0,0,0,0,0,0,0,0,0,0,,,,,0.0,,,,,,
588518,1745095300984,,,,,,,,,,,,,,,,,,,,,,,,,,,,,,,,,,0,0,0,0,0,0,0,0,0,0,0,0,0,0,0,0,,,,,,,,,,,
588538,1745095300995,0.0,204.63,,-0.04,0.0,0.97,0,-0,0,0.97,1.14,85,1883,9.1,3.56,,13.99,1.248,95.2,,20.7,5,,,,,,,,,,,,0,0,0,0,0,0,0,0,0,0,0,0,0,0,0,0,,,,,0.0,,,,,,
588558,1745095301015,,,,,,,,,,,,,,,,,,,,,,,,,,,,,,,,,,0,0,0,0,0,0,0,0,0,0,0,0,0,0,0,0,,,,,,,,,,,
588578,1745095301035,0.0,204.63,,-0.05,0.0,0.97,0,-0,-0,0.98,1.14,85,1943,8.9,3.57,,13.99,1.248,95.2,,20.7,5,0,0,0,0,0.0,0.0,0.0,0.0,2.26,,,0,0,0,0,0,0,0,0,0,0,0,0,0,0,0,0,0,,,,0.0,39.240089,-77.965401,0.24,33,3,0.8
588598,1745095301055,,,,,,,,,,,,,,,,,,,,,,,,,,,,,,,,,,0,0,0,0,0,0,0,0,0,0,0,0,0,0,0,0,,,,,,,,,,,
588618,1745095301075,0.0,204.5,,-0.05,-0.0,0.97,0,-0,0,0.97,1.14,85,1943,8.9,3.57,,13.92,1.248,95.2,,19.8,5,,,,,,,,,,,,0,0,0,0,0,0,0,0,0,0,0,0,0,0,0,0,,,,,0.0,,,,,,
588638,1745095301105,,,,,,,,,,,,,,,,,,,,,,,,,,,,,,,,,,0,0,0,0,0,0,0,0,0,0,0,0,0,0,0,0,,,,,,,,,,,
588658,1745095301125,0.0,204.5,,-0.06,0.0,0.99,0,-0,0,0.99,1.14,87,1889,9.0,3.59,,13.92,1.249,95.2,,19.8,5,,,,,,,,,,,,0,0,0,0,0,0,0,0,0,0,0,0,0,0,0,0,,,,,0.0,,,,,,
588678,1745095301145,,,,,,,,,,,,,,,,,,,,,,,0,0,0,0,0.0,0.0,0.0,0.0,2.26,,,0,0,0,0,0,0,0,0,0,0,0,0,0,0,0,0,0,,,,,39.240089,-77.965401,0.27,32,3,0.8
588698,1745095301165,0.0,204.63,,-0.05,0.0,0.98,0,-0,0,0.98,1.14,86,1808,9.0,3.57,,13.92,1.251,95.2,,19.8,5,,,,,,,,,,,,0,0,0,0,0,0,0,0,0,0,0,0,0,0,0,0,,,,,0.0,,,,,,
588718,1745095301185,,,,,,,,,,,,,,,,,,,,,,,,,,,,,,,,,,0,0,0,0,0,0,0,0,0,0,0,0,0,0,0,0,,,,,,,,,,,
588738,1745095301203,0.0,204.5,,-0.05,0.0,0.99,0,-0,-0,0.99,1.14,87,1868,9.1,3.56,,13.96,1.25,95.2,,20.2,5,,,,,,,,,,,,0,0,0,0,0,0,0,0,0,0,0,0,0,0,0,0,,,,,0.0,,,,,,
588758,1745095301223,,,,,,,,,,,,,,,,,,,,,,,,,,,,,,,,,,0,0,0,0,0,0,0,0,0,0,0,0,0,0,0,0,,,,,,,,,,,
588778,1745095301243,0.0,204.63,,-0.05,-0.01,0.98,0,-0,0,0.98,1.14,86,1810,9.2,3.57,,13.96,1.25,95.2,,20.2,5,0,0,0,0,0.0,0.0,0.0,0.0,2.26,,,0,0,0,0,0,0,0,0,0,0,0,0,0,0,0,0,0,,,,0.0,39.240089,-77.965401,0.4,32,3,0.8
588798,1745095301263,,,,,,,,,,,,,,,,,,,,,,,,,,,,,,,,,,0,0,0,0,0,0,0,0,0,0,0,0,0,0,0,0,,,,,,,,,,,
588818,1745095301283,0.0,204.63,,-0.05,0.0,0.98,0,-0,-0,0.98,1.14,86,1810,9.2,3.57,,13.94,1.25,95.2,,19.6,5,,,,,,,,,,,,0,0,0,0,0,0,0,0,0,0,0,0,0,0,0,0,,,,,0.0,,,,,,
588838,1745095301303,,,,,,,,,,,,,,,,,,,,,,,,,,,,,,,,,,0,0,0,0,0,0,0,0,0,0,0,0,0,0,0,0,,,,,,,,,,,
588858,1745095301323,0.0,204.63,,-0.05,-0.0,0.97,0,-0,0,0.98,1.14,86,1900,9.2,3.59,,13.95,1.25,95.2,,19.6,5,,,,,,,,,,,,0,0,0,0,0,0,0,0,0,0,0,0,0,0,0,0,,,,,0.0,,,,,,
588878,1745095301343,,,,,,,,,,,,,,,,,,,,,,,0,0,0,0,0.0,0.0,0.0,0.0,2.26,,,0,0,0,0,0,0,0,0,0,0,0,0,0,0,0,0,0,,,,,39.240089,-77.965401,0.18,32,3,0.8
588898,1745095301363,0.0,204.63,,-0.05,-0.0,0.99,0,-0,0,0.99,1.14,87,1911,9.2,3.59,,13.96,1.251,95.2,,19.6,5,,,,,,,,,,,,0,0,0,0,0,0,0,0,0,0,0,0,0,0,0,0,,,,,0.0,,,,,,
588918,1745095301383,,,,,,,,,,,,,,,,,,,,,,,,,,,,,,,,,,0,0,0,0,0,0,0,0,0,0,0,0,0,0,0,0,,,,,,,,,,,
588938,1745095301403,0.0,204.63,,-0.05,0.0,0.98,0,-0,0,0.99,1.14,86,1866,9.2,3.55,,14.02,1.249,95.2,,19.8,5,,,,,,,,,,,,0,0,0,0,0,0,0,0,0,0,0,0,0,0,0,0,,,,,0.0,,,,,,
588958,1745095301423,,,,,,,,,,,,,,,,,,,,,,,,,,,,,,,,,,0,0,0,0,0,0,0,0,0,0,0,0,0,0,0,0,,,,,,,,,,,
588978,1745095301443,0.0,204.63,,-0.06,0.01,0.99,0,-0,-0,0.99,1.14,87,1885,9.2,3.56,,14.02,1.249,95.2,,19.8,5,0,0,0,0,0.0,0.0,0.0,0.0,2.26,,,0,0,0,0,0,0,0,0,0,0,0,0,0,0,0,0,0,,,,0.0,39.240089,-77.965401,0.0,32,3,0.8
588998,1745095301463,,,,,,,,,,,,,,,,,,,,,,,,,,,,,,,,,,0,0,0,0,0,0,0,0,0,0,0,0,0,0,0,0,,,,,,,,,,,
589018,1745095301483,0.0,204.5,,-0.05,0.01,1.0,0,-0,0,1.0,1.14,87,1885,9.2,3.56,,13.95,1.248,95.2,,20.6,5,,,,,,,,,,,,0,0,0,0,0,0,0,0,0,0,0,0,0,0,0,0,,,,,0.0,,,,,,
589038,1745095301503,,,,,,,,,,,,,,,,,,,,,,,,,,,,,,,,,,0,0,0,0,0,0,0,0,0,0,0,0,0,0,0,0,,,,,,,,,,,
589058,1745095301523,0.0,204.63,,-0.06,0.01,1.0,0,-0,0,1.0,1.14,87,1959,9.1,3.57,,13.87,1.248,95.2,,20.6,5,,,,,,,,,,,,0,0,0,0,0,0,0,0,0,0,0,0,0,0,0,0,,,,,0.0,,,,,,
589078,1745095301543,,,,,,,,,,,,,,,,,,,,,,,0,0,0,0,0.0,0.0,0.0,0.0,2.26,,,0,0,0,0,0,0,0,0,0,0,0,0,0,0,0,0,0,,,,,39.240089,-77.965401,0.05,32,3,0.8
589098,1745095301563,0.0,204.5,,-0.04,0.0,1.0,0,-0,0,1.0,1.14,87,1932,9.0,3.57,,13.91,1.248,95.2,,20.6,5,,,,,,,,,,,,0,0,0,0,0,0,0,0,0,0,0,0,0,0,0,0,,,,,0.0,,,,,,
589118,1745095301583,,,,,,,,,,,,,,,,,,,,,,,,,,,,,,,,,,0,0,0,0,0,0,0,0,0,0,0,0,0,0,0,0,,,,,,,,,,,
589138,1745095301603,0.0,204.63,,-0.04,0.01,0.99,0,-0,0,0.99,1.14,87,1887,9.0,3.59,,13.98,1.249,95.2,,19.8,5,,,,,,,,,,,,0,0,0,0,0,0,0,0,0,0,0,0,0,0,0,0,,,,,0.0,,,,,,
589158,1745095301623,,,,,,,,,,,,,,,,,,,,,,,,,,,,,,,,,,0,0,0,0,0,0,0,0,0,0,0,0,0,0,0,0,,,,,,,,,,,
589178,1745095301643,0.0,204.63,,-0.04,-0.01,1.0,0,-0,0,1.0,1.14,87,1812,9.0,3.57,,13.98,1.249,95.2,,19.8,5,0,0,0,0,0.0,0.0,0.0,0.0,2.26,,,0,0,0,0,0,0,0,0,0,0,0,0,0,0,0,0,0,,,,0.0,39.240089,-77.965401,0.04,32,3,0.8
589198,1745095301663,,,,,,,,,,,,,,,,,,,,,,,,,,,,,,,,,,0,0,0,0,0,0,0,0,0,0,0,0,0,0,0,0,,,,,,,,,,,
589218,1745095301683,0.0,204.63,,-0.05,0.01,0.98,0,-0,0,0.99,1.14,86,1812,9.0,3.57,,14.02,1.25,95.2,,20.4,5,,,,,,,,,,,,0,0,0,0,0,0,0,0,0,0,0,0,0,0,0,0,,,,,0.0,,,,,,
589238,1745095301703,,,,,,,,,,,,,,,,,,,,,,,,,,,,,,,,,,0,0,0,0,0,0,0,0,0,0,0,0,0,0,0,0,,,,,,,,,,,
589258,1745095301723,0.0,204.5,,-0.05,0.01,1.0,0,-0,0,1.0,1.14,87,1846,9.1,3.57,,14.0,1.251,95.2,,20.4,5,,,,,,,,,,,,0,0,0,0,0,0,0,0,0,0,0,0,0,0,0,0,,,,,0.0,,,,,,
589278,1745095301743,,,,,,,,,,,,,,,,,,,,,,,0,0,0,0,0.0,0.0,0.0,0.0,2.26,,,0,0,0,0,0,0,0,0,0,0,0,0,0,0,0,0,0,,,,,39.240089,-77.965401,0.1,32,3,0.8
589298,1745095301763,0.0,204.5,,-0.06,0.02,0.98,0,-0,0,0.98,1.14,86,1936,9.2,3.58,,13.94,1.252,95.2,,20.4,5,,,,,,,,,,,,0,0,0,0,0,0,0,0,0,0,0,0,0,0,0,0,,,,,0.0,,,,,,
589318,1745095301783,,,,,,,,,,,,,,,,,,,,,,,,,,,,,,,,,,0,0,0,0,0,0,0,0,0,0,0,0,0,0,0,0,,,,,,,,,,,
589338,1745095301803,0.0,204.5,,-0.05,0.01,1.0,0,-0,0,1.0,1.14,88,1906,9.2,3.57,,13.95,1.252,95.2,,19.6,5,,,,,,,,,,,,0,0,0,0,0,0,0,0,0,0,0,0,0,0,0,0,,,,,0.0,,,,,,
589358,1745095301823,,,,,,,,,,,,,,,,,,,,,,,,,,,,,,,,,,0,0,0,0,0,0,0,0,0,0,0,0,0,0,0,0,,,,,,,,,,,
589378,1745095301843,0.0,204.5,13.47,-0.05,0.01,1.0,0,-0,0,1.0,1.14,88,1845,9.3,3.57,15,13.95,1.252,95.2,140,19.6,5,0,0,0,0,0.0,0.0,0.0,0.0,2.26,0,0.0,0,0,0,0,0,0,0,0,0,0,0,0,0,0,0,0,0,0.0,0,0,0.0,39.240089,-77.965401,0.07,32,3,0.8
589398,1745095301863,,,,,,,,,,,,,,,,,,,,,,,,,,,,,,,,,,0,0,0,0,0,0,0,0,0,0,0,0,0,0,0,0,,,,,,,,,,,
589418,1745095301883,0.0,204.5,,-0.04,0.02,1.01,0,-0,0,1.01,1.14,89,1845,9.3,3.57,,13.92,1.251,95.2,,20.6,5,,,,,,,,,,,,0,0,0,0,0,0,0,0,0,0,0,0,0,0,0,0,,,,,0.0,,,,,,
589438,1745095301904,,,,,,,,,,,,,,,,,,,,,,,,,,,,,,,,,,0,0,0,0,0,0,0,0,0,0,0,0,0,0,0,0,,,,,,,,,,,
589458,1745095301924,0.0,204.5,,-0.04,0.01,1.0,0,-0,0,1.0,1.14,88,1916,9.2,3.54,,13.95,1.25,95.2,,20.6,5,,,,,,,,,,,,0,0,0,0,0,0,0,0,0,0,0,0,0,0,0,0,,,,,0.0,,,,,,
589478,1745095301944,,,,,,,,,,,,,,,,,,,,,,,0,0,0,0,0.0,0.0,0.0,0.0,2.26,,,0,0,0,0,0,0,0,0,0,0,0,0,0,0,0,0,0,,,,,39.240089,-77.965401,0.04,32,3,0.8
589498,1745095301964,0.0,204.5,,-0.04,0.02,1.0,-0,-0,0,1.0,1.14,88,1863,9.3,3.55,,13.96,1.249,95.2,,20.6,5,,,,,,,,,,,,0,0,0,0,0,0,0,0,0,0,0,0,0,0,0,0,,,,,0.0,,,,,,
589518,1745095301984,,,,,,,,,,,,,,,,,,,,,,,,,,,,,,,,,,0,0,0,0,0,0,0,0,0,0,0,0,0,0,0,0,,,,,,,,,,,
589538,1745095301994,0.0,204.5,,-0.03,0.02,0.99,-0,-0,0,0.99,1.14,87,1967,9.2,3.57,,13.94,1.249,95.2,,20.7,5,,,,,,,,,,,,0,0,0,0,0,0,0,0,0,0,0,0,0,0,0,0,,,,,0.0,,,,,,
589558,1745095302014,,,,,,,,,,,,,,,,,,,,,,,,,,,,,,,,,,0,0,0,0,0,0,0,0,0,0,0,0,0,0,0,0,,,,,,,,,,,
589578,1745095302034,0.0,204.5,,-0.04,0.03,0.99,0,-0,0,0.99,1.14,86,1920,9.0,3.57,,13.94,1.249,95.2,,20.7,5,0,0,0,0,0.0,0.0,0.0,0.0,2.26,,,0,0,0,0,0,0,0,0,0,0,0,0,0,0,0,0,0,,,,0.0,39.240089,-77.965401,0.05,32,3,0.8
589598,1745095302054,,,,,,,,,,,,,,,,,,,,,,,,,,,,,,,,,,0,0,0,0,0,0,0,0,0,0,0,0,0,0,0,0,,,,,,,,,,,
589618,1745095302074,0.0,204.5,,-0.03,0.02,0.98,-0,-0,0,0.98,1.14,86,1920,9.0,3.57,,13.92,1.248,95.2,,21.6,5,,,,,,,,,,,,0,0,0,0,0,0,0,0,0,0,0,0,0,0,0,0,,,,,0.0,,,,,,
589638,1745095302098,,,,,,,,,,,,,,,,,,,,,,,,,,,,,,,,,,0,0,0,0,0,0,0,0,0,0,0,0,0,0,0,0,,,,,,,,,,,
589658,1745095302118,0.0,204.5,,-0.03,-0.02,1.02,-0,-0,0,1.02,1.14,89,2335,9.0,3.57,,13.8,1.249,95.2,,21.6,5,,,,,,,,,,,,0,0,0,0,0,0,0,0,0,0,0,0,0,0,0,0,,,,,0.0,,,,,,
589678,1745095302138,,,,,,,,,,,,,,,,,,,,,,,0,0,0,0,0.0,0.0,0.0,0.0,2.26,,,0,0,0,0,0,0,0,0,0,0,0,0,0,0,0,0,0,,,,,39.240089,-77.965401,0.05,32,3,0.8
589698,1745095302158,0.0,204.5,,-0.03,-0.01,1.0,-0,-0,0,1.0,1.14,87,2505,9.0,3.63,,13.72,1.25,95.2,,21.6,5,,,,,,,,,,,,0,0,0,0,0,0,0,0,0,0,0,0,0,0,0,0,,,,,0.0,,,,,,
589718,1745095302178,,,,,,,,,,,,,,,,,,,,,,,,,,,,,,,,,,0,0,0,0,0,0,0,0,0,0,0,0,0,0,0,0,,,,,,,,,,,
589738,1745095302204,0.0,204.5,,-0.03,-0.01,1.02,-0,-0,0,1.02,1.14,90,2648,9.0,3.69,,13.61,1.252,95.2,,26.3,5,,,,,,,,,,,,0,0,0,0,0,0,0,0,0,0,0,0,0,0,0,0,,,,,0.0,,,,,,
589758,1745095302224,,,,,,,,,,,,,,,,,,,,,,,,,,,,,,,,,,0,0,0,0,0,0,0,0,0,0,0,0,0,0,0,0,,,,,,,,,,,
589778,1745095302244,0.0,204.5,,-0.03,0.03,1.0,-0,-0,0,1.0,1.14,88,2717,9.0,3.7,,13.61,1.252,95.2,,26.3,5,0,0,0,0,0.0,0.0,0.0,0.0,2.26,,,0,0,0,0,0,0,0,0,0,0,0,0,0,0,0,0,0,,,,0.0,39.240089,-77.965401,0.11,32,3,0.8
589798,1745095302264,,,,,,,,,,,,,,,,,,,,,,,,,,,,,,,,,,0,0,0,0,0,0,0,0,0,0,0,0,0,0,0,0,,,,,,,,,,,
589818,1745095302284,0.0,204.5,,-0.03,0.02,1.03,-0,-0,0,1.03,1.14,90,2717,9.0,3.7,,13.57,1.226,95.2,,28.4,5,,,,,,,,,,,,0,0,0,0,0,0,0,0,0,0,0,0,0,0,0,0,,,,,0.0,,,,,,
589838,1745095302302,,,,,,,,,,,,,,,,,,,,,,,,,,,,,,,,,,0,0,0,0,0,0,0,0,0,0,0,0,0,0,0,0,,,,,,,,,,,
589858,1745095302322,0.0,204.5,,-0.03,0.03,1.0,-0,-0,0,1.0,1.14,88,2717,9.2,3.69,,13.53,1.213,95.2,,28.4,5,,,,,,,,,,,,0,0,0,0,0,0,0,0,0,0,0,0,0,0,0,0,,,,,0.0,,,,,,
589878,1745095302342,,,,,,,,,,,,,,,,,,,,,,,0,0,0,0,0.0,0.0,0.0,0.0,2.26,,,0,0,0,0,0,0,0,0,0,0,0,0,0,0,0,0,0,,,,,39.240089,-77.965401,0.05,32,3,0.8
589898,1745095302362,0.0,204.5,,-0.02,0.02,1.02,-0,-0,0,1.02,1.14,90,2589,9.2,3.71,,13.57,1.251,95.2,,28.4,5,,,,,,,,,,,,0,0,0,0,0,0,0,0,0,0,0,0,0,0,0,0,,,,,0.0,,,,,,
589918,1745095302382,,,,,,,,,,,,,,,,,,,,,,,,,,,,,,,,,,0,0,0,0,0,0,0,0,0,0,0,0,0,0,0,0,,,,,,,,,,,
589938,1745095302402,0.0,204.63,,-0.03,0.05,1.0,-0,-0,0,1.0,1.14,88,2635,9.2,3.71,,13.55,1.25,95.2,,28.6,5,,,,,,,,,,,,0,0,0,0,0,0,0,0,0,0,0,0,0,0,0,0,,,,,0.0,,,,,,
589958,1745095302422,,,,,,,,,,,,,,,,,,,,,,,,,,,,,,,,,,0,0,0,0,0,0,0,0,0,0,0,0,0,0,0,0,,,,,,,,,,,
589978,1745095302442,0.0,204.63,,-0.04,0.05,1.02,0,-0,0,1.02,1.14,89,2624,9.2,3.71,,13.55,1.25,95.2,,28.6,5,0,0,0,0,0.0,0.0,0.0,0.0,2.26,,,0,0,0,0,0,0,0,0,0,0,0,0,0,0,0,0,0,,,,0.0,39.240089,-77.965401,0.04,32,3,0.8
589998,1745095302462,,,,,,,,,,,,,,,,,,,,,,,,,,,,,,,,,,0,0,0,0,0,0,0,0,0,0,0,0,0,0,0,0,,,,,,,,,,,
590018,1745095302482,0.0,204.63,,-0.03,0.06,0.99,0,-0,0,0.99,1.14,87,2624,9.2,3.71,,13.59,1.249,95.2,,28.6,5,,,,,,,,,,,,0,0,0,0,0,0,0,0,0,0,0,0,0,0,0,0,,,,,0.0,,,,,,
590038,1745095302504,,,,,,,,,,,,,,,,,,,,,,,,,,,,,,,,,,0,0,0,0,0,0,0,0,0,0,0,0,0,0,0,0,,,,,,,,,,,
590058,1745095302524,0.0,204.5,,-0.03,0.06,1.0,0,-0,0,1.01,1.14,88,2550,9.1,3.7,,13.59,1.249,95.2,,28.6,5,,,,,,,,,,,,0,0,0,0,0,0,0,0,0,0,0,0,0,0,0,0,,,,,0.0,,,,,,
590078,1745095302544,,,,,,,,,,,,,,,,,,,,,,,0,0,0,0,0.0,0.0,0.0,0.0,2.26,,,0,0,0,0,0,0,0,0,0,0,0,0,0,0,0,0,0,,,,,39.240089,-77.965401,0.07,32,3,0.8
590098,1745095302564,0.0,204.5,,-0.04,0.05,1.01,0,-0,0,1.01,1.14,89,2632,8.9,3.71,,13.52,1.249,95.2,,28.6,5,,,,,,,,,,,,0,0,0,0,0,0,0,0,0,0,0,0,0,0,0,0,,,,,0.0,,,,,,
590118,1745095302584,,,,,,,,,,,,,,,,,,,,,,,,,,,,,,,,,,0,0,0,0,0,0,0,0,0,0,0,0,0,0,0,0,,,,,,,,,,,
590138,1745095302604,0.0,204.63,,-0.03,0.03,1.0,0,-0,0,1.0,1.14,88,2679,8.9,3.69,,13.51,1.249,95.2,,28.6,5,,,,,,,,,,,,0,0,0,0,0,0,0,0,0,0,0,0,0,0,0,0,,,,,0.0,,,,,,
590158,1745095302624,,,,,,,,,,,,,,,,,,,,,,,,,,,,,,,,,,0,0,0,0,0,0,0,0,0,0,0,0,0,0,0,0,,,,,,,,,,,
590178,1745095302644,0.0,204.63,,-0.04,0.02,1.01,0,-0,0,1.01,1.14,88,2721,8.9,3.69,,13.51,1.249,95.2,,28.6,5,0,0,0,0,0.0,0.0,0.0,0.0,2.26,,,0,0,0,0,0,0,0,0,0,0,0,0,0,0,0,0,0,,,,0.0,39.240089,-77.965401,0.0,32,3,0.8
590198,1745095302664,,,,,,,,,,,,,,,,,,,,,,,,,,,,,,,,,,0,0,0,0,0,0,0,0,0,0,0,0,0,0,0,0,,,,,,,,,,,
590218,1745095302684,0.0,204.63,,-0.03,0.02,0.97,0,-0,0,0.97,1.14,85,2721,8.9,3.69,,13.48,1.251,95.2,,28.8,5,,,,,,,,,,,,0,0,0,0,0,0,0,0,0,0,0,0,0,0,0,0,,,,,0.0,,,,,,
590238,1745095302705,,,,,,,,,,,,,,,,,,,,,,,,,,,,,,,,,,0,0,0,0,0,0,0,0,0,0,0,0,0,0,0,0,,,,,,,,,,,
590258,1745095302725,0.0,204.63,,-0.03,-0.01,1.02,0,-0,0,1.02,1.14,89,2753,8.9,3.71,,13.47,1.251,95.2,,28.8,5,,,,,,,,,,,,0,0,0,0,0,0,0,0,0,0,0,0,0,0,0,0,,,,,0.0,,,,,,
590278,1745095302745,,,,,,,,,,,,,,,,,,,,,,,0,0,0,0,0.0,0.0,0.0,0.0,2.26,,,0,0,0,0,0,0,0,0,0,0,0,0,0,0,0,0,0,,,,,39.240089,-77.965401,0.0,32,3,0.8
590298,1745095302765,0.0,204.5,,-0.04,0.0,1.0,0,-0,0,1.0,1.14,88,2761,9.0,3.71,,13.48,1.252,95.2,,28.8,5,,,,,,,,,,,,0,0,0,0,0,0,0,0,0,0,0,0,0,0,0,0,,,,,0.0,,,,,,
590318,1745095302785,,,,,,,,,,,,,,,,,,,,,,,,,,,,,,,,,,0,0,0,0,0,0,0,0,0,0,0,0,0,0,0,0,,,,,,,,,,,
590338,1745095302804,0.0,204.63,,-0.04,0.01,0.99,0,-0,0,0.99,1.14,87,2704,9.1,3.72,,13.51,1.252,95.2,,29.6,5,,,,,,,,,,,,0,0,0,0,0,0,0,0,0,0,0,0,0,0,0,0,,,,,0.0,,,,,,
590358,1745095302824,,,,,,,,,,,,,,,,,,,,,,,,,,,,,,,,,,0,0,0,0,0,0,0,0,0,0,0,0,0,0,0,0,,,,,,,,,,,
590378,1745095302844,0.0,204.63,13.51,-0.03,-0.0,1.03,-0,-0,0,1.03,1.14,90,2685,9.1,3.72,15,13.51,1.252,95.2,140,29.6,5,0,0,0,0,0.0,0.0,0.0,0.0,2.26,0,0.0,0,0,0,0,0,0,0,0,0,0,0,0,0,0,0,0,0,0.0,0,0,0.0,39.240089,-77.965401,0.04,32,3,0.8
590398,1745095302864,,,,,,,,,,,,,,,,,,,,,,,,,,,,,,,,,,0,0,0,0,0,0,0,0,0,0,0,0,0,0,0,0,,,,,,,,,,,
590418,1745095302884,0.0,204.5,,-0.03,0.01,0.99,-0,-0,0,0.99,1.14,87,2685,9.1,3.72,,13.49,1.252,95.2,,30.2,5,,,,,,,,,,,,0,0,0,0,0,0,0,0,0,0,0,0,0,0,0,0,,,,,0.0,,,,,,
590438,1745095302904,,,,,,,,,,,,,,,,,,,,,,,,,,,,,,,,,,0,0,0,0,0,0,0,0,0,0,0,0,0,0,0,0,,,,,,,,,,,
590458,1745095302924,0.0,204.5,,-0.03,0.01,0.97,-0,-0,0,0.97,1.14,85,2747,9.1,3.72,,13.52,1.25,95.2,,30.2,5,,,,,,,,,,,,0,0,0,0,0,0,0,0,0,0,0,0,0,0,0,0,,,,,0.0,,,,,,
590478,1745095302944,,,,,,,,,,,,,,,,,,,,,,,0,0,0,0,0.0,0.0,0.0,0.0,2.26,,,0,0,0,0,0,0,0,0,0,0,0,0,0,0,0,0,0,,,,,39.240089,-77.965401,0.0,32,3,0.8
590498,1745095302964,0.0,204.5,,-0.04,0.0,1.0,-0,-0,0,1.0,1.14,88,2772,9.1,3.72,,13.45,1.249,95.2,,30.2,5,,,,,,,,,,,,0,0,0,0,0,0,0,0,0,0,0,0,0,0,0,0,,,,,0.0,,,,,,
590518,1745095302984,,,,,,,,,,,,,,,,,,,,,,,,,,,,,,,,,,0,0,0,0,0,0,0,0,0,0,0,0,0,0,0,0,,,,,,,,,,,
590538,1745095302995,0.0,204.5,,-0.04,0.02,0.98,-0,-0,0,0.98,1.14,86,2765,9.0,3.71,,13.44,1.248,95.2,,29.5,5,,,,,,,,,,,,0,0,0,0,0,0,0,0,0,0,0,0,0,0,0,0,,,,,0.0,,,,,,
590558,1745095303015,,,,,,,,,,,,,,,,,,,,,,,,,,,,,,,,,,0,0,0,0,0,0,0,0,0,0,0,0,0,0,0,0,,,,,,,,,,,
590578,1745095303035,0.0,204.5,,-0.04,0.02,0.95,-0,-0,0,0.95,1.14,83,2797,9.0,3.71,,13.44,1.248,95.2,,29.5,5,0,0,0,0,0.0,0.0,0.0,0.0,2.26,,,0,0,0,0,0,0,0,0,0,0,0,0,0,0,0,0,0,,,,0.0,39.240089,-77.965401,0.04,33,3,0.8
590598,1745095303055,,,,,,,,,,,,,,,,,,,,,,,,,,,,,,,,,,0,0,0,0,0,0,0,0,0,0,0,0,0,0,0,0,,,,,,,,,,,
590618,1745095303075,0.0,204.5,,-0.04,0.01,1.0,-0,-0,0,1.0,1.14,88,2797,9.0,3.71,,13.44,1.248,95.2,,30.0,5,,,,,,,,,,,,0,0,0,0,0,0,0,0,0,0,0,0,0,0,0,0,,,,,0.0,,,,,,
590638,1745095303097,,,,,,,,,,,,,,,,,,,,,,,,,,,,,,,,,,0,0,0,0,0,0,0,0,0,0,0,0,0,0,0,0,,,,,,,,,,,
590658,1745095303117,0.0,204.5,,-0.05,-0.02,1.03,-0,-0,0,1.03,1.14,91,2778,8.9,3.72,,13.45,1.248,95.2,,30.0,5,,,,,,,,,,,,0,0,0,0,0,0,0,0,0,0,0,0,0,0,0,0,,,,,0.0,,,,,,
590678,1745095303137,,,,,,,,,,,,,,,,,,,,,,,0,0,0,0,0.0,0.0,0.0,0.0,2.26,,,0,0,0,0,0,0,0,0,0,0,0,0,0,0,0,0,0,,,,,39.240089,-77.965401,0.08,33,3,0.8
590698,1745095303157,0.0,204.5,,-0.04,0.02,1.01,-0,-0,0,1.01,1.14,89,2828,8.9,3.74,,13.41,1.25,95.2,,30.0,5,,,,,,,,,,,,0,0,0,0,0,0,0,0,0,0,0,0,0,0,0,0,,,,,0.0,,,,,,
590718,1745095303177,,,,,,,,,,,,,,,,,,,,,,,,,,,,,,,,,,0,0,0,0,0,0,0,0,0,0,0,0,0,0,0,0,,,,,,,,,,,
590738,1745095303201,0.0,204.63,,-0.02,0.05,0.95,-0,-0,0,0.95,1.14,83,2830,8.9,3.75,,13.45,1.251,95.2,,31.3,5,,,,,,,,,,,,0,0,0,0,0,0,0,0,0,0,0,0,0,0,0,0,,,,,0.0,,,,,,
590758,1745095303221,,,,,,,,,,,,,,,,,,,,,,,,,,,,,,,,,,0,0,0,0,0,0,0,0,0,0,0,0,0,0,0,0,,,,,,,,,,,
590778,1745095303241,0.0,204.63,,-0.02,0.03,0.92,0,-0,0,0.92,1.14,80,2906,8.8,3.73,,13.45,1.251,95.2,,31.3,5,0,0,0,0,0.0,0.0,0.0,0.0,2.26,,,0,0,0,0,0,0,0,0,0,0,0,0,0,0,0,0,0,,,,0.0,39.240089,-77.965401,0.0,33,3,0.8
590798,1745095303261,,,,,,,,,,,,,,,,,,,,,,,,,,,,,,,,,,0,0,0,0,0,0,0,0,0,0,0,0,0,0,0,0,,,,,,,,,,,
590818,1745095303281,0.0,204.63,,-0.04,-0.0,0.94,0,-0,0,0.95,1.14,83,2906,8.8,3.73,,13.36,1.251,95.2,,30.9,5,,,,,,,,,,,,0,0,0,0,0,0,0,0,0,0,0,0,0,0,0,0,,,,,0.0,,,,,,
590838,1745095303303,,,,,,,,,,,,,,,,,,,,,,,,,,,,,,,,,,0,0,0,0,0,0,0,0,0,0,0,0,0,0,0,0,,,,,,,,,,,
590858,1745095303323,0.0,204.63,,-0.06,-0.0,1.01,-0,-0,0,1.02,1.14,89,2903,8.9,3.73,,13.35,1.25,95.2,,30.9,5,,,,,,,,,,,,0,0,0,0,0,0,0,0,0,0,0,0,0,0,0,0,,,,,0.0,,,,,,
590878,1745095303343,,,,,,,,,,,,,,,,,,,,,,,0,0,0,0,0.0,0.0,0.0,0.0,2.26,,,0,0,0,0,0,0,0,0,0,0,0,0,0,0,0,0,0,,,,,39.240089,-77.965401,0.11,33,3,0.8
590898,1745095303363,0.0,204.63,,-0.07,-0.02,1.06,0,-0,0,1.07,1.14,93,2881,9.0,3.75,,13.33,1.251,95.2,,30.9,5,,,,,,,,,,,,0,0,0,0,0,0,0,0,0,0,0,0,0,0,0,0,,,,,0.0,,,,,,
590918,1745095303383,,,,,,,,,,,,,,,,,,,,,,,,,,,,,,,,,,0,0,0,0,0,0,0,0,0,0,0,0,0,0,0,0,,,,,,,,,,,
590938,1745095303403,0.0,204.63,,-0.06,-0.03,1.08,-0,-0,0,1.08,1.14,95,2889,9.0,3.76,,13.37,1.25,95.2,,31.7,5,,,,,,,,,,,,0,0,0,0,0,0,0,0,0,0,0,0,0,0,0,0,,,,,0.0,,,,,,
590958,1745095303423,,,,,,,,,,,,,,,,,,,,,,,,,,,,,,,,,,0,0,0,0,0,0,0,0,0,0,0,0,0,0,0,0,,,,,,,,,,,
590978,1745095303443,0.0,204.63,,-0.04,-0.0,1.08,-1,-0,1,1.08,1.14,94,2921,9.0,3.77,,13.37,1.25,95.2,,31.7,5,0,0,0,0,0.0,0.0,0.0,0.0,2.26,,,0,0,0,0,0,0,0,0,0,0,0,0,0,0,0,0,0,,,,0.0,39.240089,-77.965401,0.07,33,3,0.8
590998,1745095303463,,,,,,,,,,,,,,,,,,,,,,,,,,,,,,,,,,0,0,0,0,0,0,0,0,0,0,0,0,0,0,0,0,,,,,,,,,,,
591018,1745095303483,0.0,204.63,,-0.02,0.03,1.08,-1,-0,1,1.08,1.14,95,2921,9.0,3.77,,13.35,1.249,95.2,,32.4,5,,,,,,,,,,,,0,0,0,0,0,0,0,0,0,0,0,0,0,0,0,0,,,,,0.0,,,,,,
591038,1745095303505,,,,,,,,,,,,,,,,,,,,,,,,,,,,,,,,,,0,0,0,0,0,0,0,0,0,0,0,0,0,0,0,0,,,,,,,,,,,
591058,1745095303525,0.0,204.5,,-0.0,0.05,1.1,-1,-0,1,1.1,1.14,96,3032,9.0,3.77,,13.27,1.248,95.2,,32.4,5,,,,,,,,,,,,0,0,0,0,0,0,0,0,0,0,0,0,0,0,0,0,,,,,0.0,,,,,,
591078,1745095303545,,,,,,,,,,,,,,,,,,,,,,,0,0,0,0,0.0,0.0,0.0,0.0,2.26,,,0,0,0,0,0,0,0,0,0,0,0,0,0,0,0,0,0,,,,,39.240089,-77.965401,0.08,33,3,0.8
591098,1745095303565,0.0,204.5,,0.01,0.03,1.12,-1,-0,1,1.12,1.14,98,3053,8.9,3.77,,13.24,1.248,95.2,,32.4,5,,,,,,,,,,,,0,0,0,0,0,0,0,0,0,0,0,0,0,0,0,0,,,,,0.0,,,,,,
591118,1745095303585,,,,,,,,,,,,,,,,,,,,,,,,,,,,,,,,,,0,0,0,0,0,0,0,0,0,0,0,0,0,0,0,0,,,,,,,,,,,
591138,1745095303603,0.0,204.63,,0.01,-0.02,1.16,-1,-0,1,1.16,1.16,100,3026,8.5,3.76,,13.23,1.248,95.2,,33.5,5,,,,,,,,,,,,0,0,0,0,0,0,0,0,0,0,0,0,0,0,0,0,,,,,0.0,,,,,,
591158,1745095303623,,,,,,,,,,,,,,,,,,,,,,,,,,,,,,,,,,0,0,0,0,0,0,0,0,0,0,0,0,0,0,0,0,,,,,,,,,,,
591178,1745095303643,0.0,204.63,,-0.01,-0.08,1.21,-1,-0,1,1.21,1.21,100,3112,8.1,3.75,,13.23,1.248,95.2,,33.5,5,0,0,0,0,0.0,0.0,0.0,0.0,2.26,,,0,0,0,0,0,0,0,0,0,0,0,0,0,0,0,0,0,,,,0.0,39.240089,-77.965401,0.07,33,3,0.8
591198,1745095303663,,,,,,,,,,,,,,,,,,,,,,,,,,,,,,,,,,0,0,0,0,0,0,0,0,0,0,0,0,0,0,0,0,,,,,,,,,,,
591218,1745095303683,0.0,204.63,,-0.03,-0.12,1.24,-1,-0,1,1.25,1.25,100,3112,8.1,3.75,,13.13,1.249,95.2,,33.3,5,,,,,,,,,,,,0,0,0,0,0,0,0,0,0,0,0,0,0,0,0,0,,,,,0.0,,,,,,
591238,1745095303703,,,,,,,,,,,,,,,,,,,,,,,,,,,,,,,,,,0,0,0,0,0,0,0,0,0,0,0,0,0,0,0,0,,,,,,,,,,,
591258,1745095303723,0.0,204.5,,-0.06,-0.09,1.19,-0,-0,0,1.2,1.25,96,3400,8.0,3.75,,13.08,1.25,95.2,,33.3,5,,,,,,,,,,,,0,0,0,0,0,0,0,0,0,0,0,0,0,0,0,0,,,,,0.0,,,,,,
591278,1745095303743,,,,,,,,,,,,,,,,,,,,,,,0,0,0,0,0.0,0.0,0.0,0.0,2.26,,,0,0,0,0,0,0,0,0,0,0,0,0,0,0,0,0,0,,,,,39.240089,-77.965401,0.11,33,3,0.8
591298,1745095303763,0.0,204.5,,-0.07,-0.07,1.12,-0,-0,0,1.13,1.25,90,3030,8.1,3.73,,13.05,1.25,95.2,,33.3,5,,,,,,,,,,,,0,0,0,0,0,0,0,0,0,0,0,0,0,0,0,0,,,,,0.0,,,,,,
591318,1745095303783,,,,,,,,,,,,,,,,,,,,,,,,,,,,,,,,,,0,0,0,0,0,0,0,0,0,0,0,0,0,0,0,0,,,,,,,,,,,
591338,1745095303803,0.0,204.63,,-0.08,-0.05,1.05,-0,-0,0,1.05,1.25,84,2981,8.1,3.75,,13.17,1.251,95.2,,33.0,5,,,,,,,,,,,,0,0,0,0,0,0,0,0,0,0,0,0,0,0,0,0,,,,,0.0,,,,,,
591358,1745095303823,,,,,,,,,,,,,,,,,,,,,,,,,,,,,,,,,,0,0,0,0,0,0,0,0,0,0,0,0,0,0,0,0,,,,,,,,,,,
591378,1745095303843,0.0,204.63,13.53,-0.09,-0.04,1.01,-0,-0,-0,1.01,1.25,81,2982,8.2,3.73,15,13.17,1.251,95.2,140,33.0,5,0,0,0,0,0.0,0.0,0.0,0.0,2.26,0,0.0,0,0,0,0,0,0,0,0,0,0,0,0,0,0,0,0,0,0.0,0,0,0.0,39.240089,-77.965401,0.04,33,3,0.8
591398,1745095303863,,,,,,,,,,,,,,,,,,,,,,,,,,,,,,,,,,0,0,0,0,0,0,0,0,0,0,0,0,0,0,0,0,,,,,,,,,,,
591418,1745095303883,0.0,204.63,,-0.1,-0.04,1.01,-0,-0,-0,1.01,1.25,81,2982,8.2,3.73,,13.17,1.251,95.2,,31.8,5,,,,,,,,,,,,0,0,0,0,0,0,0,0,0,0,0,0,0,0,0,0,,,,,0.0,,,,,,
591438,1745095303903,,,,,,,,,,,,,,,,,,,,,,,,,,,,,,,,,,0,0,0,0,0,0,0,0,0,0,0,0,0,0,0,0,,,,,,,,,,,
591458,1745095303923,0.0,204.75,,-0.12,-0.03,1.04,-0,-0,-0,1.04,1.25,84,2977,8.2,3.73,,13.19,1.251,95.2,,31.8,5,,,,,,,,,,,,0,0,0,0,0,0,0,0,0,0,0,0,0,0,0,0,,,,,0.0,,,,,,
591478,1745095303943,,,,,,,,,,,,,,,,,,,,,,,0,0,0,0,0.0,0.0,0.0,0.0,2.26,,,0,0,0,0,0,0,0,0,0,0,0,0,0,0,0,0,0,,,,,39.240089,-77.965401,0.11,33,3,0.8
591498,1745095303963,0.0,204.63,,-0.13,-0.02,1.1,-0,-0,-0,1.11,1.25,89,2868,8.1,3.73,,13.23,1.249,95.2,,31.8,5,,,,,,,,,,,,0,0,0,0,0,0,0,0,0,0,0,0,0,0,0,0,,,,,0.0,,,,,,
591518,1745095303983,,,,,,,,,,,,,,,,,,,,,,,,,,,,,,,,,,0,0,0,0,0,0,0,0,0,0,0,0,0,0,0,0,,,,,,,,,,,
591538,1745095303994,0.0,204.75,,-0.12,-0.03,1.13,-0,-0,0,1.14,1.25,91,2861,8.0,3.72,,13.23,1.248,95.2,,31.5,5,,,,,,,,,,,,0,0,0,0,0,0,0,0,0,0,0,0,0,0,0,0,,,,,0.0,,,,,,
591558,1745095304014,,,,,,,,,,,,,,,,,,,,,,,,,,,,,,,,,,0,0,0,0,0,0,0,0,0,0,0,0,0,0,0,0,,,,,,,,,,,
591578,1745095304034,0.0,204.63,,-0.1,-0.02,1.12,-1,-0,0,1.13,1.25,90,2874,8.0,3.73,,13.23,1.248,95.2,,31.5,5,0,0,0,0,0.0,0.0,0.0,0.0,2.26,,,0,0,0,0,0,0,0,0,0,0,0,0,0,0,0,0,0,,,,0.0,39.240089,-77.965401,0.08,33,3,0.8
591598,1745095304054,,,,,,,,,,,,,,,,,,,,,,,,,,,,,,,,,,0,0,0,0,0,0,0,0,0,0,0,0,0,0,0,0,,,,,,,,,,,
591618,1745095304074,0.0,204.63,,-0.07,0.03,1.07,-0,-0,0,1.07,1.25,86,2874,8.0,3.73,,13.28,1.248,95.2,,31.2,5,,,,,,,,,,,,0,0,0,0,0,0,0,0,0,0,0,0,0,0,0,0,,,,,0.0,,,,,,
591638,1745095304098,,,,,,,,,,,,,,,,,,,,,,,,,,,,,,,,,,0,0,0,0,0,0,0,0,0,0,0,0,0,0,0,0,,,,,,,,,,,
591658,1745095304118,0.0,204.63,,-0.05,0.06,1.0,-0,-0,0,1.0,1.25,80,2933,7.9,3.71,,13.21,1.248,95.2,,31.2,5,,,,,,,,,,,,0,0,0,0,0,0,0,0,0,0,0,0,0,0,0,0,,,,,0.0,,,,,,
591678,1745095304138,,,,,,,,,,,,,,,,,,,,,,,0,0,0,0,0.0,0.0,0.0,0.0,2.26,,,0,0,0,0,0,0,0,0,0,0,0,0,0,0,0,0,0,,,,,39.240089,-77.965401,0.05,33,3,0.8
591698,1745095304158,0.0,204.63,,-0.04,0.08,0.91,0,-0,-0,0.92,1.25,74,2980,7.9,3.72,,13.19,1.249,95.2,,31.2,5,,,,,,,,,,,,0,0,0,0,0,0,0,0,0,0,0,0,0,0,0,0,,,,,0.0,,,,,,
591718,1745095304178,,,,,,,,,,,,,,,,,,,,,,,,,,,,,,,,,,0,0,0,0,0,0,0,0,0,0,0,0,0,0,0,0,,,,,,,,,,,
591738,1745095304198,0.0,204.75,,-0.04,0.11,0.84,0,-0,-0,0.85,1.25,68,2984,7.8,3.74,,13.19,1.247,95.2,,32.2,5,,,,,,,,,,,,0,0,0,0,0,0,0,0,0,0,0,0,0,0,0,0,,,,,0.0,,,,,,
591758,1745095304218,,,,,,,,,,,,,,,,,,,,,,,,,,,,,,,,,,0,0,0,0,0,0,0,0,0,0,0,0,0,0,0,0,,,,,,,,,,,
591778,1745095304238,0.0,204.63,,-0.04,0.14,0.76,1,-0,-0,0.78,1.25,62,3018,7.9,3.74,,13.19,1.247,95.2,,32.2,5,0,0,0,0,0.0,0.0,0.0,0.0,2.26,,,0,0,0,0,0,0,0,0,0,0,0,0,0,0,0,0,0,,,,0.0,39.240089,-77.965401,0.04,33,3,0.8
591798,1745095304258,,,,,,,,,,,,,,,,,,,,,,,,,,,,,,,,,,0,0,0,0,0,0,0,0,0,0,0,0,0,0,0,0,,,,,,,,,,,
591818,1745095304278,0.0,204.63,,-0.04,0.18,0.72,0,-0,0,0.75,1.25,60,3018,7.9,3.74,,13.16,1.245,95.2,,33.2,5,,,,,,,,,,,,0,0,0,0,0,0,0,0,0,0,0,0,0,0,0,0,,,,,0.0,,,,,,
591838,1745095304304,,,,,,,,,,,,,,,,,,,,,,,,,,,,,,,,,,0,0,0,0,0,0,0,0,0,0,0,0,0,0,0,0,,,,,,,,,,,
591858,1745095304324,0.0,204.63,,-0.02,0.23,0.73,0,-0,0,0.77,1.25,62,3102,8.0,3.73,,13.11,1.251,95.2,,33.2,5,,,,,,,,,,,,0,0,0,0,0,0,0,0,0,0,0,0,0,0,0,0,,,,,0.0,,,,,,
591878,1745095304344,,,,,,,,,,,,,,,,,,,,,,,0,0,0,0,0.0,0.0,0.0,0.0,2.26,,,0,0,0,0,0,0,0,0,0,0,0,0,0,0,0,0,0,,,,,39.240089,-77.965401,0.0,33,3,0.8
591898,1745095304364,0.0,204.63,,-0.01,0.22,0.79,-0,-0,1,0.82,1.25,65,3099,8.1,3.74,,13.08,1.25,95.2,,33.2,5,,,,,,,,,,,,0,0,0,0,0,0,0,0,0,0,0,0,0,0,0,0,,,,,0.0,,,,,,
591918,1745095304384,,,,,,,,,,,,,,,,,,,,,,,,,,,,,,,,,,0,0,0,0,0,0,0,0,0,0,0,0,0,0,0,0,,,,,,,,,,,
