"Interval"|"ms"|0|0|1,"Utc"|"ms"|0|0|1,"FrontBP"|"psi"|-5.0|5.0|25,"SteerAng"|"Degrees"|-145.0|145.0|25,"Battery"|"Volts"|-5.0|20.0|1,"AccelX"|"G"|-3.0|3.0|25,"AccelY"|"G"|-3.0|3.0|25,"AccelZ"|"G"|-3.0|3.0|25,"Yaw"|"Deg/Sec"|-120|120|25,"Pitch"|"Deg/Sec"|-120|120|25,"Roll"|"Deg/Sec"|-120|120|25,"Gsum"|"G"|0.0|3.0|25,"GsumMax"|"G"|0.0|3.0|25,"GsumPct"|"%"|0|100|25,"RPM"|""|0|10000|25,"TPS"|"%"|0.0|100.0|25,"InjectorPW"|"ms"|0.0|100.0|25,"Baro"|"kPa"|0|105|1,"MAP"|"Psi"|0.0|255.0|25,"Lambda"|""|-2.0|2.0|25,"IAT"|"C"|0.0|200.0|25,"EngineTemp"|"C"|0|200|1,"EOP"|"PSI"|0.0|152.0|25,"EOT"|"F"|0|250|25,"WSFR"|"MPH"|0|150|10,"WSFL"|"MPH"|0|100|10,"WSRR"|"MPH"|0|100|10,"WSRL"|""|0|100|10,"TCSet"|"%"|0.0|100.0|10,"TCSlip"|"%"|0.0|100.0|10,"TCComp"|"deg"|0.0|50.0|10,"TCCut"|"%"|0.0|100.0|10,"Analog8"|""|0.0|5.0|10,"OilTemp"|"F"|0|300|1,"AA_On"|""|0.0|1.0|1,"ThermLF1"|"C"|0|400|50,"ThermLF2"|"C"|0|400|50,"ThermRR1"|"C"|0|400|50,"ThermRR2"|"C"|0|400|50,"ThermLF3"|"C"|0|400|50,"ThermLF4"|"C"|0|400|50,"ThermLF5"|"C"|0|400|50,"ThermLF6"|"C"|0|400|50,"ThermLF7"|"C"|0|400|50,"ThermLF8"|"C"|0|400|50,"ThermRR3"|"C"|0|400|50,"ThermRR4"|"C"|0|400|50,"ThermRR5"|"C"|0|400|50,"ThermRR6"|"C"|0|400|50,"ThermRR7"|"C"|0|400|50,"ThermRR8"|"C"|0|400|50,"Gear"|""|1|6|10,"AA_On"|""|0.0|1.0|1,"AA_LowDrag"|""|0|1|1,"Fuel_Mix"|""|-10|10|1,"AA_Packages"|""|0.0|1000.0|25,"Latitude"|"Degrees"|-180.0|180.0|10,"Longitude"|"Degrees"|-180.0|180.0|10,"Speed"|"kph"|0.0|150.0|10,"GPSSats"|""|0|20|10,"GPSQual"|""|0|5|10,"GPSDOP"|""|0.0|20.0|10
876010,1745065791782,,,,,,,,,,,,,,,,,,,,,,,,,,,,,,,,,,0,0,0,0,0,0,0,0,0,0,0,0,0,0,0,0,,,,,,,,,,,
876030,1745065791802,0.0,172.32,,-0.21,0.17,1.21,-1,-0,1,1.24,1.24,100,5774,0.0,1.4,,8.82,1.066,73.6,,66.7,5,,,,,,,,,,,,0,0,0,0,0,0,0,0,0,0,0,0,0,0,0,0,,,,,0.0,,,,,,
876050,1745065791820,,,,,,,,,,,,,,,,,,,,,,,,,,,,,,,,,,0,0,0,0,0,0,0,0,0,0,0,0,0,0,0,0,,,,,,,,,,,
876070,1745065791840,0.0,172.32,,-0.17,0.1,1.19,-1,-0,1,1.21,1.24,97,5774,0.0,1.4,,8.83,1.122,73.6,,66.7,5,,,,,,,,,,,,0,0,0,0,0,0,0,0,0,0,0,0,0,0,0,0,,,,,0.0,,,,,,
876090,1745065791860,,,,,,,,,,,,,,,,,,,,,,,0,0,0,0,0.0,0.0,0.0,0.0,2.25,,,0,0,0,0,0,0,0,0,0,0,0,0,0,0,0,0,0,,,,,39.239628,-77.964577,0.07,36,2,0.8
876110,1745065791880,0.0,172.2,,-0.16,0.09,1.18,-0,-0,1,1.2,1.24,96,5480,0.0,1.4,,9.01,1.234,73.6,,60.6,5,,,,,,,,,,,,0,0,0,0,0,0,0,0,0,0,0,0,0,0,0,0,,,,,0.0,,,,,,
876130,1745065791902,,,,,,,,,,,,,,,,,,,,,,,,,,,,,,,,,,0,0,0,0,0,0,0,0,0,0,0,0,0,0,0,0,,,,,,,,,,,
876150,1745065791922,0.0,172.2,,-0.18,0.14,1.2,-1,-0,1,1.23,1.24,99,5087,0.0,1.48,,9.23,1.251,73.6,,60.6,5,,,,,,,,,,,,0,0,0,0,0,0,0,0,0,0,0,0,0,0,0,0,,,,,0.0,,,,,,
876170,1745065791942,,,,,,,,,,,,,,,,,,,,,,,,,,,,,,,,,,0,0,0,0,0,0,0,0,0,0,0,0,0,0,0,0,,,,,,,,,,,
876190,1745065791962,0.0,172.2,,-0.16,0.03,1.12,-1,-0,1,1.13,1.24,91,4746,0.0,1.65,,9.48,1.251,73.6,,60.6,5,0,0,0,0,0.0,0.0,0.0,0.0,2.24,,,0,0,0,0,0,0,0,0,0,0,0,0,0,0,0,0,0,,,,0.0,39.239628,-77.964577,0.13,36,2,0.8
876210,1745065791982,,,,,,,,,,,,,,,,,,,,,,,,,,,,,,,,,,0,0,0,0,0,0,0,0,0,0,0,0,0,0,0,0,,,,,,,,,,,
876230,1745065792002,0.0,172.07,,-0.13,-0.06,1.03,-0,-0,0,1.04,1.24,84,4481,0.0,1.69,,9.48,1.251,73.6,,59.7,5,,,,,,,,,,,,0,0,0,0,0,0,0,0,0,0,0,0,0,0,0,0,,,,,0.0,,,,,,
876250,1745065792014,,,,,,,,,,,,,,,,,,,,,,,,,,,,,,,,,,0,0,0,0,0,0,0,0,0,0,0,0,0,0,0,0,,,,,,,,,,,
876270,1745065792034,0.0,172.07,,-0.14,-0.06,1.07,-1,-0,1,1.08,1.24,87,4481,0.0,1.69,,9.73,1.251,73.6,,59.7,5,,,,,,,,,,,,0,0,0,0,0,0,0,0,0,0,0,0,0,0,0,0,,,,,0.0,,,,,,
876290,1745065792054,,,,,,,,,,,,,,,,,,,,,,,0,0,0,0,0.0,0.0,0.0,0.0,2.24,,,0,0,0,0,0,0,0,0,0,0,0,0,0,0,0,0,0,,,,,39.239628,-77.964577,0.25,35,2,0.8
876310,1745065792074,0.0,171.95,,-0.15,-0.08,1.02,-0,-0,0,1.04,1.24,83,4108,0.0,1.76,,9.98,1.25,73.6,,55.9,5,,,,,,,,,,,,0,0,0,0,0,0,0,0,0,0,0,0,0,0,0,0,,,,,0.0,,,,,,
876330,1745065792094,,,,,,,,,,,,,,,,,,,,,,,,,,,,,,,,,,0,0,0,0,0,0,0,0,0,0,0,0,0,0,0,0,,,,,,,,,,,
876350,1745065792118,0.0,172.07,,-0.15,-0.06,1.06,-0,-0,1,1.08,1.24,86,3776,2.8,1.86,,10.48,1.251,73.6,,55.9,5,,,,,,,,,,,,0,0,0,0,0,0,0,0,0,0,0,0,0,0,0,0,,,,,0.0,,,,,,
876370,1745065792138,,,,,,,,,,,,,,,,,,,,,,,,,,,,,,,,,,0,0,0,0,0,0,0,0,0,0,0,0,0,0,0,0,,,,,,,,,,,
876390,1745065792158,0.0,172.07,12.7,-0.12,-0.01,0.97,0,-0,0,0.98,1.24,79,3423,12.9,4.02,15,11.93,1.249,73.6,183,55.9,5,0,0,0,0,0.0,0.0,0.0,0.0,2.24,0,1.0,0,0,0,0,0,0,0,0,0,0,0,0,0,0,0,0,0,0.0,0,0,0.0,39.239628,-77.964577,0.11,35,2,0.8
876410,1745065792178,,,,,,,,,,,,,,,,,,,,,,,,,,,,,,,,,,0,0,0,0,0,0,0,0,0,0,0,0,0,0,0,0,,,,,,,,,,,
876430,1745065792202,0.0,171.95,,-0.13,-0.07,1.05,-0,-0,0,1.06,1.24,85,3377,14.8,4.23,,11.93,1.249,73.6,,45.4,5,,,,,,,,,,,,0,0,0,0,0,0,0,0,0,0,0,0,0,0,0,0,,,,,0.0,,,,,,
876450,1745065792222,,,,,,,,,,,,,,,,,,,,,,,,,,,,,,,,,,0,0,0,0,0,0,0,0,0,0,0,0,0,0,0,0,,,,,,,,,,,
876470,1745065792242,0.0,172.07,,-0.1,-0.01,1.0,-0,-0,0,1.0,1.24,81,3377,14.8,4.23,,12.99,1.248,73.6,,45.4,5,,,,,,,,,,,,0,0,0,0,0,0,0,0,0,0,0,0,0,0,0,0,,,,,0.0,,,,,,
876490,1745065792262,,,,,,,,,,,,,,,,,,,,,,,0,0,0,0,0.0,0.0,0.0,0.0,2.24,,,0,0,0,0,0,0,0,0,0,0,0,0,0,0,0,0,0,,,,,39.239628,-77.964577,0.18,35,2,0.8
876510,1745065792282,0.0,172.07,,-0.12,-0.09,1.02,-0,-0,0,1.03,1.24,83,3450,15.0,4.17,,13.33,1.248,73.6,,46.2,5,,,,,,,,,,,,0,0,0,0,0,0,0,0,0,0,0,0,0,0,0,0,,,,,0.0,,,,,,
876530,1745065792302,,,,,,,,,,,,,,,,,,,,,,,,,,,,,,,,,,0,0,0,0,0,0,0,0,0,0,0,0,0,0,0,0,,,,,,,,,,,
876550,1745065792322,0.0,171.95,,-0.11,-0.05,1.02,-0,-0,1,1.02,1.24,82,3459,15.0,4.19,,13.47,1.248,73.6,,46.2,5,,,,,,,,,,,,0,0,0,0,0,0,0,0,0,0,0,0,0,0,0,0,,,,,0.0,,,,,,
876570,1745065792342,,,,,,,,,,,,,,,,,,,,,,,,,,,,,,,,,,0,0,0,0,0,0,0,0,0,0,0,0,0,0,0,0,,,,,,,,,,,
876590,1745065792362,0.0,172.07,,-0.1,-0.07,0.96,0,-0,0,0.97,1.24,78,3458,15.0,4.17,,13.49,1.25,73.6,,46.2,5,0,0,0,0,0.0,0.0,0.0,0.0,2.25,,,0,0,0,0,0,0,0,0,0,0,0,0,0,0,0,0,0,,,,0.0,39.239628,-77.964577,0.0,35,2,0.8
876610,1745065792382,,,,,,,,,,,,,,,,,,,,,,,,,,,,,,,,,,0,0,0,0,0,0,0,0,0,0,0,0,0,0,0,0,,,,,,,,,,,
876630,1745065792402,0.0,172.07,,-0.1,-0.11,1.0,0,-0,0,1.01,1.24,81,3542,11.3,4.11,,13.49,1.25,73.6,,46.6,5,,,,,,,,,,,,0,0,0,0,0,0,0,0,0,0,0,0,0,0,0,0,,,,,0.0,,,,,,
876650,1745065792422,,,,,,,,,,,,,,,,,,,,,,,,,,,,,,,,,,0,0,0,0,0,0,0,0,0,0,0,0,0,0,0,0,,,,,,,,,,,
876670,1745065792442,0.0,172.07,,-0.08,-0.1,1.0,0,-0,0,1.01,1.24,81,3542,11.3,4.11,,13.35,1.25,73.6,,46.6,5,,,,,,,,,,,,0,0,0,0,0,0,0,0,0,0,0,0,0,0,0,0,,,,,0.0,,,,,,
876690,1745065792462,,,,,,,,,,,,,,,,,,,,,,,0,0,0,0,0.0,0.0,0.0,0.0,2.24,,,0,0,0,0,0,0,0,0,0,0,0,0,0,0,0,0,0,,,,,39.239628,-77.964577,0.08,35,2,0.8
876710,1745065792482,0.0,172.07,,-0.06,-0.04,1.04,-0,-0,1,1.05,1.24,84,3891,7.8,3.91,,13.01,1.252,73.6,,54.0,5,,,,,,,,,,,,0,0,0,0,0,0,0,0,0,0,0,0,0,0,0,0,,,,,0.0,,,,,,
876730,1745065792502,,,,,,,,,,,,,,,,,,,,,,,,,,,,,,,,,,0,0,0,0,0,0,0,0,0,0,0,0,0,0,0,0,,,,,,,,,,,
876750,1745065792522,0.0,172.07,,-0.06,-0.06,1.04,-1,-0,1,1.05,1.24,84,3923,7.7,3.86,,12.76,1.216,73.6,,54.0,5,,,,,,,,,,,,0,0,0,0,0,0,0,0,0,0,0,0,0,0,0,0,,,,,0.0,,,,,,
876770,1745065792542,,,,,,,,,,,,,,,,,,,,,,,,,,,,,,,,,,0,0,0,0,0,0,0,0,0,0,0,0,0,0,0,0,,,,,,,,,,,
876790,1745065792562,0.0,172.07,,-0.05,-0.08,0.97,-0,-0,0,0.98,1.24,78,4049,7.6,3.84,,12.64,1.138,73.6,,54.0,5,0,0,0,0,0.0,0.0,0.0,0.0,2.24,,,0,0,0,0,0,0,0,0,0,0,0,0,0,0,0,0,0,,,,0.0,39.239628,-77.964577,0.11,35,2,0.8
876810,1745065792582,,,,,,,,,,,,,,,,,,,,,,,,,,,,,,,,,,0,0,0,0,0,0,0,0,0,0,0,0,0,0,0,0,,,,,,,,,,,
876830,1745065792601,0.0,172.07,,-0.07,-0.05,1.06,-1,-0,1,1.06,1.24,86,4223,3.2,3.51,,12.64,1.138,73.6,,55.6,5,,,,,,,,,,,,0,0,0,0,0,0,0,0,0,0,0,0,0,0,0,0,,,,,0.0,,,,,,
876850,1745065792621,,,,,,,,,,,,,,,,,,,,,,,,,,,,,,,,,,0,0,0,0,0,0,0,0,0,0,0,0,0,0,0,0,,,,,,,,,,,
876870,1745065792641,0.0,172.2,,-0.06,-0.01,1.08,-1,-0,1,1.08,1.24,87,4223,3.2,3.51,,12.36,1.158,73.6,,55.6,5,,,,,,,,,,,,0,0,0,0,0,0,0,0,0,0,0,0,0,0,0,0,,,,,0.0,,,,,,
876890,1745065792661,,,,,,,,,,,,,,,,,,,,,,,0,0,0,0,0.0,0.0,0.0,0.0,2.24,,,0,0,0,0,0,0,0,0,0,0,0,0,0,0,0,0,0,,,,,39.239628,-77.964577,0.09,35,2,0.8
876910,1745065792681,0.0,172.2,,-0.05,-0.05,0.99,0,-0,0,1.0,1.24,80,4363,2.2,3.2,,12.04,1.098,73.6,,61.2,5,,,,,,,,,,,,0,0,0,0,0,0,0,0,0,0,0,0,0,0,0,0,,,,,0.0,,,,,,
876930,1745065792701,,,,,,,,,,,,,,,,,,,,,,,,,,,,,,,,,,0,0,0,0,0,0,0,0,0,0,0,0,0,0,0,0,,,,,,,,,,,
876950,1745065792721,0.0,172.07,,-0.03,-0.09,0.92,1,-0,-0,0.93,1.24,75,4467,1.9,3.1,,11.87,0.987,73.6,,61.2,5,,,,,,,,,,,,0,0,0,0,0,0,0,0,0,0,0,0,0,0,0,0,,,,,0.0,,,,,,
876970,1745065792741,,,,,,,,,,,,,,,,,,,,,,,,,,,,,,,,,,0,0,0,0,0,0,0,0,0,0,0,0,0,0,0,0,,,,,,,,,,,
876990,1745065792761,0.0,172.07,,-0.02,-0.14,0.85,1,-0,-1,0.86,1.24,69,4415,1.7,3.03,,11.65,0.968,73.6,,61.2,5,0,0,0,0,0.0,0.0,0.0,0.0,2.24,,,0,0,0,0,0,0,0,0,0,0,0,0,0,0,0,0,0,,,,0.0,39.239628,-77.964577,0.11,35,2,0.8
877010,1745065792781,,,,,,,,,,,,,,,,,,,,,,,,,,,,,,,,,,0,0,0,0,0,0,0,0,0,0,0,0,0,0,0,0,,,,,,,,,,,
877030,1745065792801,0.0,172.07,,-0.03,-0.2,0.81,1,-0,-1,0.83,1.24,67,4425,1.6,3.05,,11.65,0.968,73.6,,62.3,5,,,,,,,,,,,,0,0,0,0,0,0,0,0,0,0,0,0,0,0,0,0,,,,,0.0,,,,,,
877050,1745065792819,,,,,,,,,,,,,,,,,,,,,,,,,,,,,,,,,,0,0,0,0,0,0,0,0,0,0,0,0,0,0,0,0,,,,,,,,,,,
877070,1745065792839,0.0,172.07,,-0.05,-0.17,0.87,1,-0,-0,0.89,1.24,71,4425,1.6,3.05,,11.58,0.955,73.6,,62.3,5,,,,,,,,,,,,0,0,0,0,0,0,0,0,0,0,0,0,0,0,0,0,,,,,0.0,,,,,,
877090,1745065792859,,,,,,,,,,,,,,,,,,,,,,,0,0,0,0,0.0,0.0,0.0,0.0,2.25,,,0,0,0,0,0,0,0,0,0,0,0,0,0,0,0,0,0,,,,,39.239628,-77.964577,0.15,35,2,0.8
877110,1745065792879,0.0,172.07,,-0.05,-0.13,0.94,0,-0,0,0.95,1.24,77,4377,1.5,3.05,,11.53,0.97,73.6,,61.3,5,,,,,,,,,,,,0,0,0,0,0,0,0,0,0,0,0,0,0,0,0,0,,,,,0.0,,,,,,
877130,1745065792901,,,,,,,,,,,,,,,,,,,,,,,,,,,,,,,,,,0,0,0,0,0,0,0,0,0,0,0,0,0,0,0,0,,,,,,,,,,,
877150,1745065792921,0.0,172.07,,-0.03,-0.1,0.96,0,-0,0,0.97,1.24,78,4415,1.6,2.99,,11.52,1.028,73.6,,61.3,5,,,,,,,,,,,,0,0,0,0,0,0,0,0,0,0,0,0,0,0,0,0,,,,,0.0,,,,,,
877170,1745065792941,,,,,,,,,,,,,,,,,,,,,,,,,,,,,,,,,,0,0,0,0,0,0,0,0,0,0,0,0,0,0,0,0,,,,,,,,,,,
877190,1745065792961,0.0,172.07,,-0.0,-0.06,0.92,0,-0,0,0.93,1.24,74,4432,1.5,2.98,,11.52,1.059,73.6,,61.3,5,0,0,0,0,0.0,0.0,0.0,0.0,2.24,,,0,0,0,0,0,0,0,0,0,0,0,0,0,0,0,0,0,,,,0.0,39.239628,-77.964577,0.08,35,2,0.8
877210,1745065792981,,,,,,,,,,,,,,,,,,,,,,,,,,,,,,,,,,0,0,0,0,0,0,0,0,0,0,0,0,0,0,0,0,,,,,,,,,,,
877230,1745065793001,0.0,172.07,,0.02,-0.03,0.89,1,-0,0,0.89,1.24,72,4481,1.6,2.94,,11.52,1.059,73.6,,63.0,5,,,,,,,,,,,,0,0,0,0,0,0,0,0,0,0,0,0,0,0,0,0,,,,,0.0,,,,,,
877250,1745065793013,,,,,,,,,,,,,,,,,,,,,,,,,,,,,,,,,,0,0,0,0,0,0,0,0,0,0,0,0,0,0,0,0,,,,,,,,,,,
877270,1745065793033,0.0,172.07,,0.03,-0.07,0.84,1,-0,-0,0.85,1.24,68,4481,1.6,2.94,,11.46,1.019,73.6,,63.0,5,,,,,,,,,,,,0,0,0,0,0,0,0,0,0,0,0,0,0,0,0,0,,,,,0.0,,,,,,
877290,1745065793053,,,,,,,,,,,,,,,,,,,,,,,0,0,0,0,0.0,0.0,0.0,0.0,2.25,,,0,0,0,0,0,0,0,0,0,0,0,0,0,0,0,0,0,,,,,39.239628,-77.964577,0.23,37,2,0.7
877310,1745065793073,0.0,172.07,,0.0,-0.12,0.83,1,-0,-0,0.83,1.24,67,4354,1.6,2.98,,11.37,0.997,73.6,,60.3,5,,,,,,,,,,,,0,0,0,0,0,0,0,0,0,0,0,0,0,0,0,0,,,,,0.0,,,,,,
877330,1745065793093,,,,,,,,,,,,,,,,,,,,,,,,,,,,,,,,,,0,0,0,0,0,0,0,0,0,0,0,0,0,0,0,0,,,,,,,,,,,
877350,1745065793119,0.0,172.07,,0.0,-0.06,0.92,0,-0,-0,0.93,1.24,74,4249,1.7,2.94,,11.38,0.997,73.6,,60.3,5,,,,,,,,,,,,0,0,0,0,0,0,0,0,0,0,0,0,0,0,0,0,,,,,0.0,,,,,,
877370,1745065793139,,,,,,,,,,,,,,,,,,,,,,,,,,,,,,,,,,0,0,0,0,0,0,0,0,0,0,0,0,0,0,0,0,,,,,,,,,,,
877390,1745065793159,0.0,172.07,12.71,0.01,-0.03,0.92,1,-0,-0,0.93,1.24,74,4176,1.6,2.98,15,11.42,1.024,73.6,183,60.3,5,0,0,0,0,0.0,0.0,0.0,0.0,2.24,0,1.0,0,0,0,0,0,0,0,0,0,0,0,0,0,0,0,0,0,0.0,0,0,0.0,39.239628,-77.964577,0.13,37,2,0.7
877410,1745065793179,,,,,,,,,,,,,,,,,,,,,,,,,,,,,,,,,,0,0,0,0,0,0,0,0,0,0,0,0,0,0,0,0,,,,,,,,,,,
877430,1745065793201,0.0,171.95,,-0.02,-0.03,0.98,0,-0,0,0.98,1.24,79,4171,1.6,2.94,,11.42,1.024,73.6,,58.9,5,,,,,,,,,,,,0,0,0,0,0,0,0,0,0,0,0,0,0,0,0,0,,,,,0.0,,,,,,
877450,1745065793221,,,,,,,,,,,,,,,,,,,,,,,,,,,,,,,,,,0,0,0,0,0,0,0,0,0,0,0,0,0,0,0,0,,,,,,,,,,,
877470,1745065793241,0.0,172.07,,-0.02,-0.02,0.94,1,-0,-0,0.94,1.24,75,4171,1.6,2.94,,11.4,1.09,73.6,,58.9,5,,,,,,,,,,,,0,0,0,0,0,0,0,0,0,0,0,0,0,0,0,0,,,,,0.0,,,,,,
877490,1745065793261,,,,,,,,,,,,,,,,,,,,,,,0,0,0,0,0.0,0.0,0.0,0.0,2.24,,,0,0,0,0,0,0,0,0,0,0,0,0,0,0,0,0,0,,,,,39.239628,-77.964577,0.0,37,2,0.7
877510,1745065793281,0.0,171.95,,-0.04,-0.01,0.98,-0,-0,0,0.99,1.24,79,4115,1.6,2.98,,11.45,1.128,73.6,,56.8,5,,,,,,,,,,,,0,0,0,0,0,0,0,0,0,0,0,0,0,0,0,0,,,,,0.0,,,,,,
877530,1745065793303,,,,,,,,,,,,,,,,,,,,,,,,,,,,,,,,,,0,0,0,0,0,0,0,0,0,0,0,0,0,0,0,0,,,,,,,,,,,
877550,1745065793323,0.0,172.07,,-0.03,-0.07,0.92,1,-0,-0,0.93,1.24,75,4066,1.5,2.94,,11.5,1.091,73.6,,56.8,5,,,,,,,,,,,,0,0,0,0,0,0,0,0,0,0,0,0,0,0,0,0,,,,,0.0,,,,,,
877570,1745065793343,,,,,,,,,,,,,,,,,,,,,,,,,,,,,,,,,,0,0,0,0,0,0,0,0,0,0,0,0,0,0,0,0,,,,,,,,,,,
877590,1745065793363,0.0,171.95,,-0.01,0.03,0.96,0,-0,0,0.96,1.24,77,4001,1.4,2.97,,11.56,1.09,73.6,,56.8,5,0,0,0,0,0.0,0.0,0.0,0.0,2.24,,,0,0,0,0,0,0,0,0,0,0,0,0,0,0,0,0,0,,,,0.0,39.239628,-77.964577,0.11,37,2,0.7
877610,1745065793383,,,,,,,,,,,,,,,,,,,,,,,,,,,,,,,,,,0,0,0,0,0,0,0,0,0,0,0,0,0,0,0,0,,,,,,,,,,,
877630,1745065793403,0.0,171.95,,-0.02,-0.02,0.97,0,-0,0,0.97,1.24,78,3960,1.3,2.9,,11.56,1.09,73.6,,55.7,5,,,,,,,,,,,,0,0,0,0,0,0,0,0,0,0,0,0,0,0,0,0,,,,,0.0,,,,,,
877650,1745065793423,,,,,,,,,,,,,,,,,,,,,,,,,,,,,,,,,,0,0,0,0,0,0,0,0,0,0,0,0,0,0,0,0,,,,,,,,,,,
877670,1745065793443,0.0,172.07,,-0.04,-0.05,0.94,0,-0,-0,0.94,1.24,76,3960,1.3,2.9,,11.57,1.104,73.6,,55.7,5,,,,,,,,,,,,0,0,0,0,0,0,0,0,0,0,0,0,0,0,0,0,,,,,0.0,,,,,,
877690,1745065793463,,,,,,,,,,,,,,,,,,,,,,,0,0,0,0,0.0,0.0,0.0,0.0,2.25,,,0,0,0,0,0,0,0,0,0,0,0,0,0,0,0,0,0,,,,,39.239628,-77.964577,0.08,37,2,0.7
877710,1745065793483,0.0,172.07,,-0.06,-0.05,0.93,0,-0,-0,0.93,1.24,75,3855,1.3,3.0,,11.75,1.127,73.6,,52.0,5,,,,,,,,,,,,0,0,0,0,0,0,0,0,0,0,0,0,0,0,0,0,,,,,0.0,,,,,,
877730,1745065793502,,,,,,,,,,,,,,,,,,,,,,,,,,,,,,,,,,0,0,0,0,0,0,0,0,0,0,0,0,0,0,0,0,,,,,,,,,,,
877750,1745065793522,0.0,172.07,,-0.06,-0.03,0.95,0,-0,-0,0.96,1.24,77,3803,1.4,3.02,,11.81,1.155,73.6,,52.0,5,,,,,,,,,,,,0,0,0,0,0,0,0,0,0,0,0,0,0,0,0,0,,,,,0.0,,,,,,
877770,1745065793542,,,,,,,,,,,,,,,,,,,,,,,,,,,,,,,,,,0,0,0,0,0,0,0,0,0,0,0,0,0,0,0,0,,,,,,,,,,,
877790,1745065793562,0.0,172.07,,-0.07,-0.01,0.97,0,-0,0,0.97,1.24,78,3696,1.5,3.03,,11.92,1.218,73.6,,52.0,5,0,0,0,0,0.0,0.0,0.0,0.0,2.25,,,0,0,0,0,0,0,0,0,0,0,0,0,0,0,0,0,0,,,,0.0,39.239628,-77.964577,0.08,37,2,0.7
877810,1745065793582,,,,,,,,,,,,,,,,,,,,,,,,,,,,,,,,,,0,0,0,0,0,0,0,0,0,0,0,0,0,0,0,0,,,,,,,,,,,
877830,1745065793602,0.0,172.07,,-0.06,-0.01,0.97,-0,-0,0,0.98,1.24,78,3639,1.5,3.05,,11.92,1.218,73.6,,50.4,5,,,,,,,,,,,,0,0,0,0,0,0,0,0,0,0,0,0,0,0,0,0,,,,,0.0,,,,,,
877850,1745065793622,,,,,,,,,,,,,,,,,,,,,,,,,,,,,,,,,,0,0,0,0,0,0,0,0,0,0,0,0,0,0,0,0,,,,,,,,,,,
877870,1745065793642,0.0,172.07,,-0.04,0.04,0.96,-0,-0,0,0.96,1.24,77,3639,1.5,3.05,,11.99,1.234,73.6,,50.4,5,,,,,,,,,,,,0,0,0,0,0,0,0,0,0,0,0,0,0,0,0,0,,,,,0.0,,,,,,
877890,1745065793662,,,,,,,,,,,,,,,,,,,,,,,0,0,0,0,0.0,0.0,0.0,0.0,2.24,,,0,0,0,0,0,0,0,0,0,0,0,0,0,0,0,0,0,,,,,39.239628,-77.964577,0.23,37,2,0.7
877910,1745065793682,0.0,172.07,,-0.06,-0.05,0.95,0,-0,-0,0.95,1.24,76,3496,1.6,3.09,,12.12,1.23,73.6,,47.0,5,,,,,,,,,,,,0,0,0,0,0,0,0,0,0,0,0,0,0,0,0,0,,,,,0.0,,,,,,
877930,1745065793702,,,,,,,,,,,,,,,,,,,,,,,,,,,,,,,,,,0,0,0,0,0,0,0,0,0,0,0,0,0,0,0,0,,,,,,,,,,,
877950,1745065793722,0.0,172.07,,-0.05,-0.02,0.98,0,-0,0,0.98,1.24,79,3438,1.5,3.12,,12.24,1.198,73.6,,47.0,5,,,,,,,,,,,,0,0,0,0,0,0,0,0,0,0,0,0,0,0,0,0,,,,,0.0,,,,,,
877970,1745065793742,,,,,,,,,,,,,,,,,,,,,,,,,,,,,,,,,,0,0,0,0,0,0,0,0,0,0,0,0,0,0,0,0,,,,,,,,,,,
877990,1745065793762,0.0,172.07,,-0.07,-0.05,0.95,0,-0,-0,0.96,1.24,77,3367,1.6,3.16,,12.32,1.188,73.6,,47.0,5,0,0,0,0,0.0,0.0,0.0,0.0,2.24,,,0,0,0,0,0,0,0,0,0,0,0,0,0,0,0,0,0,,,,0.0,39.239628,-77.964577,0.15,37,2,0.7
878010,1745065793782,,,,,,,,,,,,,,,,,,,,,,,,,,,,,,,,,,0,0,0,0,0,0,0,0,0,0,0,0,0,0,0,0,,,,,,,,,,,
878030,1745065793802,0.0,172.07,,-0.05,0.01,0.94,0,-0,0,0.94,1.24,75,3207,1.5,3.2,,12.32,1.188,73.6,,44.6,5,,,,,,,,,,,,0,0,0,0,0,0,0,0,0,0,0,0,0,0,0,0,,,,,0.0,,,,,,
878050,1745065793822,,,,,,,,,,,,,,,,,,,,,,,,,,,,,,,,,,0,0,0,0,0,0,0,0,0,0,0,0,0,0,0,0,,,,,,,,,,,
878070,1745065793842,0.0,172.07,,-0.05,-0.01,1.0,-0,-0,0,1.0,1.24,81,3207,1.5,3.2,,12.43,1.159,73.6,,44.6,5,,,,,,,,,,,,0,0,0,0,0,0,0,0,0,0,0,0,0,0,0,0,,,,,0.0,,,,,,
878090,1745065793862,,,,,,,,,,,,,,,,,,,,,,,0,0,0,0,0.0,0.0,0.0,0.0,2.24,,,0,0,0,0,0,0,0,0,0,0,0,0,0,0,0,0,0,,,,,39.239628,-77.964577,0.11,37,2,0.7
878110,1745065793882,0.0,171.95,,-0.06,-0.05,1.07,-0,-0,0,1.07,1.24,86,3134,1.4,3.21,,12.49,1.15,73.6,,40.9,5,,,,,,,,,,,,0,0,0,0,0,0,0,0,0,0,0,0,0,0,0,0,,,,,0.0,,,,,,
878130,1745065793902,,,,,,,,,,,,,,,,,,,,,,,,,,,,,,,,,,0,0,0,0,0,0,0,0,0,0,0,0,0,0,0,0,,,,,,,,,,,
878150,1745065793922,0.0,171.95,,-0.06,-0.1,1.13,-0,-0,0,1.14,1.24,91,3006,1.3,3.26,,12.6,1.132,73.6,,40.9,5,,,,,,,,,,,,0,0,0,0,0,0,0,0,0,0,0,0,0,0,0,0,,,,,0.0,,,,,,
878170,1745065793942,,,,,,,,,,,,,,,,,,,,,,,,,,,,,,,,,,0,0,0,0,0,0,0,0,0,0,0,0,0,0,0,0,,,,,,,,,,,
878190,1745065793962,0.0,171.95,,-0.07,-0.14,1.2,-0,-0,1,1.21,1.24,97,2924,1.2,3.31,,12.73,1.131,73.6,,40.9,5,0,0,0,0,0.0,0.0,0.0,0.0,2.25,,,0,0,0,0,0,0,0,0,0,0,0,0,0,0,0,0,0,,,,0.0,39.239628,-77.964577,0.22,37,2,0.7
878210,1745065793982,,,,,,,,,,,,,,,,,,,,,,,,,,,,,,,,,,0,0,0,0,0,0,0,0,0,0,0,0,0,0,0,0,,,,,,,,,,,
878230,1745065794002,0.0,172.07,,-0.07,-0.18,1.24,-1,-0,0,1.25,1.25,100,2951,1.2,3.24,,12.73,1.131,73.6,,39.3,5,,,,,,,,,,,,0,0,0,0,0,0,0,0,0,0,0,0,0,0,0,0,,,,,0.0,,,,,,
878250,1745065794014,,,,,,,,,,,,,,,,,,,,,,,,,,,,,,,,,,0,0,0,0,0,0,0,0,0,0,0,0,0,0,0,0,,,,,,,,,,,
878270,1745065794034,0.0,172.07,,-0.07,-0.18,1.29,-1,0,1,1.3,1.3,100,2951,1.2,3.24,,12.77,1.237,73.6,,39.3,5,,,,,,,,,,,,0,0,0,0,0,0,0,0,0,0,0,0,0,0,0,0,,,,,0.0,,,,,,
878290,1745065794054,,,,,,,,,,,,,,,,,,,,,,,0,0,0,0,0.0,0.0,0.0,0.0,2.25,,,0,0,0,0,0,0,0,0,0,0,0,0,0,0,0,0,0,,,,,39.239628,-77.964577,0.13,37,2,0.7
878310,1745065794074,0.0,172.07,,-0.08,-0.22,1.33,-1,0,0,1.35,1.35,100,3023,1.2,3.27,,12.79,1.251,73.6,,40.2,5,,,,,,,,,,,,0,0,0,0,0,0,0,0,0,0,0,0,0,0,0,0,,,,,0.0,,,,,,
878330,1745065794094,,,,,,,,,,,,,,,,,,,,,,,,,,,,,,,,,,0,0,0,0,0,0,0,0,0,0,0,0,0,0,0,0,,,,,,,,,,,
878350,1745065794120,0.0,172.07,,-0.11,-0.23,1.28,-1,0,0,1.31,1.35,97,3179,1.3,3.2,,12.73,1.251,73.6,,40.2,5,,,,,,,,,,,,0,0,0,0,0,0,0,0,0,0,0,0,0,0,0,0,,,,,0.0,,,,,,
878370,1745065794140,,,,,,,,,,,,,,,,,,,,,,,,,,,,,,,,,,0,0,0,0,0,0,0,0,0,0,0,0,0,0,0,0,,,,,,,,,,,
878390,1745065794160,0.0,171.95,12.69,-0.11,-0.18,1.18,-0,0,0,1.2,1.35,89,3120,1.4,3.22,15,12.72,1.169,73.6,183,40.2,5,0,0,0,0,0.0,0.0,0.0,0.0,2.24,0,1.0,0,0,0,0,0,0,0,0,0,0,0,0,0,0,0,0,0,0.0,0,0,0.0,39.239628,-77.964577,0.08,37,2,0.7
878410,1745065794180,,,,,,,,,,,,,,,,,,,,,,,,,,,,,,,,,,0,0,0,0,0,0,0,0,0,0,0,0,0,0,0,0,,,,,,,,,,,
878430,1745065794200,0.0,171.95,,-0.09,-0.13,1.06,-0,-0,-0,1.07,1.35,80,3100,1.4,3.27,,12.72,1.169,73.6,,39.5,5,,,,,,,,,,,,0,0,0,0,0,0,0,0,0,0,0,0,0,0,0,0,,,,,0.0,,,,,,
878450,1745065794218,,,,,,,,,,,,,,,,,,,,,,,,,,,,,,,,,,0,0,0,0,0,0,0,0,0,0,0,0,0,0,0,0,,,,,,,,,,,
878470,1745065794238,0.0,171.95,,-0.06,-0.08,0.99,0,-0,-0,0.99,1.35,73,3100,1.4,3.27,,12.8,1.143,73.6,,39.5,5,,,,,,,,,,,,0,0,0,0,0,0,0,0,0,0,0,0,0,0,0,0,,,,,0.0,,,,,,
878490,1745065794258,,,,,,,,,,,,,,,,,,,,,,,0,0,0,0,0.0,0.0,0.0,0.0,2.24,,,0,0,0,0,0,0,0,0,0,0,0,0,0,0,0,0,0,,,,,39.239628,-77.964577,0.15,37,2,0.7
878510,1745065794278,0.0,171.95,,-0.04,-0.05,0.93,-0,-0,0,0.93,1.35,69,3029,1.4,3.22,,12.81,1.248,73.6,,38.8,5,,,,,,,,,,,,0,0,0,0,0,0,0,0,0,0,0,0,0,0,0,0,,,,,0.0,,,,,,
878530,1745065794304,,,,,,,,,,,,,,,,,,,,,,,,,,,,,,,,,,0,0,0,0,0,0,0,0,0,0,0,0,0,0,0,0,,,,,,,,,,,
878550,1745065794324,0.0,171.95,,-0.01,-0.01,0.87,-0,-0,0,0.87,1.35,64,2991,1.4,3.31,,12.83,1.213,73.6,,38.8,5,,,,,,,,,,,,0,0,0,0,0,0,0,0,0,0,0,0,0,0,0,0,,,,,0.0,,,,,,
878570,1745065794344,,,,,,,,,,,,,,,,,,,,,,,,,,,,,,,,,,0,0,0,0,0,0,0,0,0,0,0,0,0,0,0,0,,,,,,,,,,,
878590,1745065794364,0.0,171.95,,0.0,0.01,0.84,-0,-0,0,0.84,1.35,62,3061,1.4,3.24,,12.84,1.189,73.6,,38.8,5,0,0,0,0,0.0,0.0,0.0,0.0,2.24,,,0,0,0,0,0,0,0,0,0,0,0,0,0,0,0,0,0,,,,0.0,39.239628,-77.964577,0.05,37,2,0.7
878610,1745065794384,,,,,,,,,,,,,,,,,,,,,,,,,,,,,,,,,,0,0,0,0,0,0,0,0,0,0,0,0,0,0,0,0,,,,,,,,,,,
878630,1745065794404,0.0,171.95,,0.01,0.0,0.8,-0,-0,0,0.8,1.35,59,2930,1.3,3.29,,12.84,1.189,73.6,,38.8,5,,,,,,,,,,,,0,0,0,0,0,0,0,0,0,0,0,0,0,0,0,0,,,,,0.0,,,,,,
878650,1745065794424,,,,,,,,,,,,,,,,,,,,,,,,,,,,,,,,,,0,0,0,0,0,0,0,0,0,0,0,0,0,0,0,0,,,,,,,,,,,
878670,1745065794444,0.0,172.07,,0.01,0.01,0.77,-0,-0,0,0.77,1.35,57,2930,1.3,3.29,,12.85,1.209,73.6,,38.8,5,,,,,,,,,,,,0,0,0,0,0,0,0,0,0,0,0,0,0,0,0,0,,,,,0.0,,,,,,
878690,1745065794464,,,,,,,,,,,,,,,,,,,,,,,0,0,0,0,0.0,0.0,0.0,0.0,2.24,,,0,0,0,0,0,0,0,0,0,0,0,0,0,0,0,0,0,,,,,39.239628,-77.964577,0.05,37,2,0.7
878710,1745065794484,0.0,171.95,,-0.02,-0.02,0.81,-0,-0,0,0.81,1.35,60,2823,1.2,3.31,,12.96,1.181,73.6,,36.0,5,,,,,,,,,,,,0,0,0,0,0,0,0,0,0,0,0,0,0,0,0,0,,,,,0.0,,,,,,
878730,1745065794504,,,,,,,,,,,,,,,,,,,,,,,,,,,,,,,,,,0,0,0,0,0,0,0,0,0,0,0,0,0,0,0,0,,,,,,,,,,,
878750,1745065794524,0.0,172.07,,-0.03,0.0,0.84,-0,-0,0,0.84,1.35,62,2744,1.1,3.33,,12.99,1.164,73.6,,36.0,5,,,,,,,,,,,,0,0,0,0,0,0,0,0,0,0,0,0,0,0,0,0,,,,,0.0,,,,,,
878770,1745065794544,,,,,,,,,,,,,,,,,,,,,,,,,,,,,,,,,,0,0,0,0,0,0,0,0,0,0,0,0,0,0,0,0,,,,,,,,,,,
878790,1745065794564,0.0,171.95,,-0.03,-0.01,0.86,-0,-0,0,0.86,1.35,64,2677,1.2,3.37,,13.07,1.175,73.6,,36.0,5,0,0,0,0,0.0,0.0,0.0,0.0,2.24,,,0,0,0,0,0,0,0,0,0,0,0,0,0,0,0,0,0,,,,0.0,39.239628,-77.964577,0.11,37,2,0.7
878810,1745065794584,,,,,,,,,,,,,,,,,,,,,,,,,,,,,,,,,,0,0,0,0,0,0,0,0,0,0,0,0,0,0,0,0,,,,,,,,,,,
878830,1745065794603,0.0,171.95,,-0.02,-0.02,0.88,-0,-0,0,0.88,1.35,65,2579,1.2,3.4,,13.07,1.175,73.6,,32.8,5,,,,,,,,,,,,0,0,0,0,0,0,0,0,0,0,0,0,0,0,0,0,,,,,0.0,,,,,,
878850,1745065794623,,,,,,,,,,,,,,,,,,,,,,,,,,,,,,,,,,0,0,0,0,0,0,0,0,0,0,0,0,0,0,0,0,,,,,,,,,,,
878870,1745065794643,0.0,172.07,,-0.02,-0.04,0.9,-0,-0,0,0.9,1.35,67,2579,1.2,3.4,,13.15,1.229,73.6,,32.8,5,,,,,,,,,,,,0,0,0,0,0,0,0,0,0,0,0,0,0,0,0,0,,,,,0.0,,,,,,
878890,1745065794663,,,,,,,,,,,,,,,,,,,,,,,0,0,0,0,0.0,0.0,0.0,0.0,2.24,,,0,0,0,0,0,0,0,0,0,0,0,0,0,0,0,0,0,,,,,39.239628,-77.964577,0.11,37,2,0.7
878910,1745065794683,0.0,172.07,,-0.03,-0.03,0.92,-0,-0,0,0.92,1.35,68,2505,1.2,3.41,,13.23,1.251,73.6,,30.5,5,,,,,,,,,,,,0,0,0,0,0,0,0,0,0,0,0,0,0,0,0,0,,,,,0.0,,,,,,
878930,1745065794703,,,,,,,,,,,,,,,,,,,,,,,,,,,,,,,,,,0,0,0,0,0,0,0,0,0,0,0,0,0,0,0,0,,,,,,,,,,,
878950,1745065794723,0.0,172.07,,-0.04,-0.02,0.92,-0,-0,0,0.92,1.35,68,2428,1.3,3.45,,13.29,1.252,73.6,,30.5,5,,,,,,,,,,,,0,0,0,0,0,0,0,0,0,0,0,0,0,0,0,0,,,,,0.0,,,,,,
878970,1745065794743,,,,,,,,,,,,,,,,,,,,,,,,,,,,,,,,,,0,0,0,0,0,0,0,0,0,0,0,0,0,0,0,0,,,,,,,,,,,
878990,1745065794763,0.0,171.95,,-0.03,-0.04,0.94,-0,-0,0,0.94,1.35,70,2382,1.3,3.48,,13.33,1.248,73.6,,30.5,5,0,0,0,0,0.0,0.0,0.0,0.0,2.24,,,0,0,0,0,0,0,0,0,0,0,0,0,0,0,0,0,0,,,,0.0,39.239628,-77.964577,0.07,37,2,0.7
879010,1745065794783,,,,,,,,,,,,,,,,,,,,,,,,,,,,,,,,,,0,0,0,0,0,0,0,0,0,0,0,0,0,0,0,0,,,,,,,,,,,
879030,1745065794801,0.0,172.07,,-0.03,-0.05,0.94,-0,-0,0,0.94,1.35,70,2350,1.3,3.51,,13.33,1.248,73.6,,29.1,5,,,,,,,,,,,,0,0,0,0,0,0,0,0,0,0,0,0,0,0,0,0,,,,,0.0,,,,,,
879050,1745065794821,,,,,,,,,,,,,,,,,,,,,,,,,,,,,,,,,,0,0,0,0,0,0,0,0,0,0,0,0,0,0,0,0,,,,,,,,,,,
879070,1745065794841,0.0,172.07,,-0.03,-0.04,0.93,-0,-0,0,0.93,1.35,69,2350,1.3,3.51,,13.37,1.248,73.6,,29.1,5,,,,,,,,,,,,0,0,0,0,0,0,0,0,0,0,0,0,0,0,0,0,,,,,0.0,,,,,,
879090,1745065794861,,,,,,,,,,,,,,,,,,,,,,,0,0,0,0,0.0,0.0,0.0,0.0,2.24,,,0,0,0,0,0,0,0,0,0,0,0,0,0,0,0,0,0,,,,,39.239628,-77.964577,0.09,37,2,0.7
879110,1745065794881,0.0,172.07,,-0.04,-0.05,0.96,-0,-0,0,0.96,1.35,71,2298,1.3,3.53,,13.49,1.247,73.6,,30.5,5,,,,,,,,,,,,0,0,0,0,0,0,0,0,0,0,0,0,0,0,0,0,,,,,0.0,,,,,,
879130,1745065794903,,,,,,,,,,,,,,,,,,,,,,,,,,,,,,,,,,0,0,0,0,0,0,0,0,0,0,0,0,0,0,0,0,,,,,,,,,,,
879150,1745065794923,0.0,172.07,,-0.04,-0.05,0.95,-0,-0,0,0.95,1.35,70,2513,1.3,3.45,,13.37,1.247,73.6,,30.5,5,,,,,,,,,,,,0,0,0,0,0,0,0,0,0,0,0,0,0,0,0,0,,,,,0.0,,,,,,
879170,1745065794943,,,,,,,,,,,,,,,,,,,,,,,,,,,,,,,,,,0,0,0,0,0,0,0,0,0,0,0,0,0,0,0,0,,,,,,,,,,,
879190,1745065794963,0.0,172.07,,-0.04,-0.04,0.96,-0,-0,0,0.96,1.35,71,2469,1.2,3.48,,13.39,1.248,73.6,,30.5,5,0,0,0,0,0.0,0.0,0.0,0.0,2.24,,,0,0,0,0,0,0,0,0,0,0,0,0,0,0,0,0,0,,,,0.0,39.239628,-77.964577,0.11,37,2,0.7
879210,1745065794983,,,,,,,,,,,,,,,,,,,,,,,,,,,,,,,,,,0,0,0,0,0,0,0,0,0,0,0,0,0,0,0,0,,,,,,,,,,,
879230,1745065795003,0.0,172.07,,-0.04,-0.05,0.97,-0,-0,0,0.97,1.35,72,2577,1.2,3.44,,13.39,1.248,73.6,,32.1,5,,,,,,,,,,,,0,0,0,0,0,0,0,0,0,0,0,0,0,0,0,0,,,,,0.0,,,,,,
879250,1745065795013,,,,,,,,,,,,,,,,,,,,,,,,,,,,,,,,,,0,0,0,0,0,0,0,0,0,0,0,0,0,0,0,0,,,,,,,,,,,
879270,1745065795033,0.0,172.2,,-0.05,-0.04,0.97,-0,-0,0,0.97,1.35,72,2577,1.2,3.44,,13.31,1.248,73.6,,32.1,5,,,,,,,,,,,,0,0,0,0,0,0,0,0,0,0,0,0,0,0,0,0,,,,,0.0,,,,,,
879290,1745065795053,,,,,,,,,,,,,,,,,,,,,,,0,0,0,0,0.0,0.0,0.0,0.0,2.25,,,0,0,0,0,0,0,0,0,0,0,0,0,0,0,0,0,0,,,,,39.239628,-77.964577,0.15,37,2,0.7
879310,1745065795073,0.0,172.07,,-0.06,-0.04,0.97,-0,-0,0,0.97,1.35,72,2550,1.1,3.46,,13.33,1.233,73.6,,31.3,5,,,,,,,,,,,,0,0,0,0,0,0,0,0,0,0,0,0,0,0,0,0,,,,,0.0,,,,,,
879330,1745065795093,,,,,,,,,,,,,,,,,,,,,,,,,,,,,,,,,,0,0,0,0,0,0,0,0,0,0,0,0,0,0,0,0,,,,,,,,,,,
879350,1745065795113,0.0,172.2,,-0.06,-0.04,1.0,-0,-0,0,1.0,1.35,74,2488,1.1,3.45,,13.37,1.181,73.6,,31.3,5,,,,,,,,,,,,0,0,0,0,0,0,0,0,0,0,0,0,0,0,0,0,,,,,0.0,,,,,,
879370,1745065795133,,,,,,,,,,,,,,,,,,,,,,,,,,,,,,,,,,0,0,0,0,0,0,0,0,0,0,0,0,0,0,0,0,,,,,,,,,,,
879390,1745065795153,0.0,172.07,12.7,-0.06,-0.05,1.01,-0,-0,0,1.01,1.35,75,2423,1.1,3.47,15,13.43,1.15,73.6,183,31.3,5,0,0,0,0,0.0,0.0,0.0,0.0,2.24,0,1.0,0,0,0,0,0,0,0,0,0,0,0,0,0,0,0,0,0,0.0,0,0,0.0,39.239628,-77.964577,0.51,37,2,0.7
879410,1745065795173,,,,,,,,,,,,,,,,,,,,,,,,,,,,,,,,,,0,0,0,0,0,0,0,0,0,0,0,0,0,0,0,0,,,,,,,,,,,
879430,1745065795193,0.0,172.07,,-0.05,-0.06,1.01,0,-0,0,1.01,1.35,75,2356,1.3,3.47,,13.43,1.15,73.6,,29.1,5,,,,,,,,,,,,0,0,0,0,0,0,0,0,0,0,0,0,0,0,0,0,,,,,0.0,,,,,,
879450,1745065795219,,,,,,,,,,,,,,,,,,,,,,,,,,,,,,,,,,0,0,0,0,0,0,0,0,0,0,0,0,0,0,0,0,,,,,,,,,,,
879470,1745065795239,0.0,172.07,,-0.06,-0.06,1.0,-0,-0,0,1.01,1.35,74,2356,1.3,3.47,,13.44,1.158,73.6,,29.1,5,,,,,,,,,,,,0,0,0,0,0,0,0,0,0,0,0,0,0,0,0,0,,,,,0.0,,,,,,
879490,1745065795259,,,,,,,,,,,,,,,,,,,,,,,0,0,0,0,0.0,0.0,0.0,0.0,2.24,,,0,0,0,0,0,0,0,0,0,0,0,0,0,0,0,0,0,,,,,39.239628,-77.964577,0.36,37,2,0.7
879510,1745065795279,0.0,172.07,,-0.07,-0.04,1.01,0,-0,0,1.01,1.35,75,2317,1.3,3.5,,13.45,1.189,73.6,,27.8,5,,,,,,,,,,,,0,0,0,0,0,0,0,0,0,0,0,0,0,0,0,0,,,,,0.0,,,,,,
879530,1745065795303,,,,,,,,,,,,,,,,,,,,,,,,,,,,,,,,,,0,0,0,0,0,0,0,0,0,0,0,0,0,0,0,0,,,,,,,,,,,
879550,1745065795323,0.0,172.07,,-0.07,-0.06,1.0,0,-0,0,1.01,1.35,74,2260,1.3,3.53,,13.49,1.213,73.6,,27.8,5,,,,,,,,,,,,0,0,0,0,0,0,0,0,0,0,0,0,0,0,0,0,,,,,0.0,,,,,,
879570,1745065795343,,,,,,,,,,,,,,,,,,,,,,,,,,,,,,,,,,0,0,0,0,0,0,0,0,0,0,0,0,0,0,0,0,,,,,,,,,,,
879590,1745065795363,0.0,172.07,,-0.06,-0.06,1.0,0,-0,0,1.0,1.35,74,2214,1.3,3.55,,13.57,1.236,73.6,,27.8,5,0,0,0,0,0.0,0.0,0.0,0.0,2.24,,,0,0,0,0,0,0,0,0,0,0,0,0,0,0,0,0,0,,,,0.0,39.239628,-77.964577,0.13,37,2,0.7
879610,1745065795383,,,,,,,,,,,,,,,,,,,,,,,,,,,,,,,,,,0,0,0,0,0,0,0,0,0,0,0,0,0,0,0,0,,,,,,,,,,,
879630,1745065795403,0.0,172.07,,-0.06,-0.05,1.0,0,-0,0,1.0,1.35,74,2151,1.3,3.58,,13.57,1.236,73.6,,26.6,5,,,,,,,,,,,,0,0,0,0,0,0,0,0,0,0,0,0,0,0,0,0,,,,,0.0,,,,,,
879650,1745065795423,,,,,,,,,,,,,,,,,,,,,,,,,,,,,,,,,,0,0,0,0,0,0,0,0,0,0,0,0,0,0,0,0,,,,,,,,,,,
879670,1745065795443,0.0,172.07,,-0.06,-0.06,0.99,0,-0,0,1.0,1.35,74,2151,1.3,3.58,,13.59,1.24,73.6,,26.6,5,,,,,,,,,,,,0,0,0,0,0,0,0,0,0,0,0,0,0,0,0,0,,,,,0.0,,,,,,
879690,1745065795463,,,,,,,,,,,,,,,,,,,,,,,0,0,0,0,0.0,0.0,0.0,0.0,2.24,,,0,0,0,0,0,0,0,0,0,0,0,0,0,0,0,0,0,,,,,39.239628,-77.964577,0.09,37,2,0.7
879710,1745065795483,0.0,172.07,,-0.05,-0.05,0.99,0,-0,0,1.0,1.35,74,2057,1.2,3.56,,13.71,1.244,73.6,,25.5,5,,,,,,,,,,,,0,0,0,0,0,0,0,0,0,0,0,0,0,0,0,0,,,,,0.0,,,,,,
879730,1745065795502,,,,,,,,,,,,,,,,,,,,,,,,,,,,,,,,,,0,0,0,0,0,0,0,0,0,0,0,0,0,0,0,0,,,,,,,,,,,
879750,1745065795522,0.0,172.07,,-0.06,-0.05,0.98,0,-0,0,0.98,1.35,73,1948,1.1,3.61,,13.68,1.248,73.6,,25.5,5,,,,,,,,,,,,0,0,0,0,0,0,0,0,0,0,0,0,0,0,0,0,,,,,0.0,,,,,,
879770,1745065795542,,,,,,,,,,,,,,,,,,,,,,,,,,,,,,,,,,0,0,0,0,0,0,0,0,0,0,0,0,0,0,0,0,,,,,,,,,,,
879790,1745065795562,0.0,172.07,,-0.06,-0.07,1.0,0,-0,0,1.0,1.35,74,1991,1.1,3.63,,13.67,1.248,73.6,,25.5,5,0,0,0,0,0.0,0.0,0.0,0.0,2.24,,,0,0,0,0,0,0,0,0,0,0,0,0,0,0,0,0,0,,,,0.0,39.239628,-77.964577,0.13,37,2,0.7
879810,1745065795582,,,,,,,,,,,,,,,,,,,,,,,,,,,,,,,,,,0,0,0,0,0,0,0,0,0,0,0,0,0,0,0,0,,,,,,,,,,,
879830,1745065795602,0.0,172.07,,-0.06,-0.07,0.99,0,-0,0,1.0,1.35,74,1948,6.0,3.78,,13.67,1.248,73.6,,23.7,5,,,,,,,,,,,,0,0,0,0,0,0,0,0,0,0,0,0,0,0,0,0,,,,,0.0,,,,,,
879850,1745065795622,,,,,,,,,,,,,,,,,,,,,,,,,,,,,,,,,,0,0,0,0,0,0,0,0,0,0,0,0,0,0,0,0,,,,,,,,,,,
879870,1745065795642,0.0,172.07,,-0.05,-0.06,1.0,0,-0,0,1.0,1.35,74,1948,6.0,3.78,,13.82,1.249,73.6,,23.7,5,,,,,,,,,,,,0,0,0,0,0,0,0,0,0,0,0,0,0,0,0,0,,,,,0.0,,,,,,
879890,1745065795662,,,,,,,,,,,,,,,,,,,,,,,0,0,0,0,0.0,0.0,0.0,0.0,2.25,,,0,0,0,0,0,0,0,0,0,0,0,0,0,0,0,0,0,,,,,39.239628,-77.964577,0.16,37,2,0.7
879910,1745065795682,0.0,172.07,,-0.05,-0.06,0.98,0,-0,0,0.99,1.35,73,1945,10.0,3.82,,14.0,1.251,73.6,,23.1,5,,,,,,,,,,,,0,0,0,0,0,0,0,0,0,0,0,0,0,0,0,0,,,,,0.0,,,,,,
879930,1745065795704,,,,,,,,,,,,,,,,,,,,,,,,,,,,,,,,,,0,0,0,0,0,0,0,0,0,0,0,0,0,0,0,0,,,,,,,,,,,
879950,1745065795724,0.0,172.07,,-0.05,-0.06,0.96,0,-0,0,0.97,1.35,72,1875,11.1,3.83,,14.06,1.252,73.6,,23.1,5,,,,,,,,,,,,0,0,0,0,0,0,0,0,0,0,0,0,0,0,0,0,,,,,0.0,,,,,,
879970,1745065795744,,,,,,,,,,,,,,,,,,,,,,,,,,,,,,,,,,0,0,0,0,0,0,0,0,0,0,0,0,0,0,0,0,,,,,,,,,,,
879990,1745065795764,0.0,172.07,,-0.04,-0.09,0.98,0,-0,0,0.98,1.35,73,1941,11.2,3.81,,14.0,1.252,73.6,,23.1,5,0,0,0,0,0.0,0.0,0.0,0.0,2.24,,,0,0,0,0,0,0,0,0,0,0,0,0,0,0,0,0,0,,,,0.0,39.239628,-77.964577,0.3,37,2,0.7
880010,1745065795784,,,,,,,,,,,,,,,,,,,,,,,,,,,,,,,,,,0,0,0,0,0,0,0,0,0,0,0,0,0,0,0,0,,,,,,,,,,,
880030,1745065795802,0.0,172.07,,-0.04,-0.11,0.96,0,-0,-0,0.97,1.35,72,2019,11.4,3.81,,14.0,1.252,73.6,,24.7,5,,,,,,,,,,,,0,0,0,0,0,0,0,0,0,0,0,0,0,0,0,0,,,,,0.0,,,,,,
880050,1745065795822,,,,,,,,,,,,,,,,,,,,,,,,,,,,,,,,,,0,0,0,0,0,0,0,0,0,0,0,0,0,0,0,0,,,,,,,,,,,
880070,1745065795842,0.0,172.2,,-0.02,-0.11,0.96,0,-0,-0,0.97,1.35,71,2019,11.4,3.81,,14.03,1.252,73.6,,24.7,5,,,,,,,,,,,,0,0,0,0,0,0,0,0,0,0,0,0,0,0,0,0,,,,,0.0,,,,,,
880090,1745065795862,,,,,,,,,,,,,,,,,,,,,,,0,0,0,0,0.0,0.0,0.0,0.0,2.24,,,0,0,0,0,0,0,0,0,0,0,0,0,0,0,0,0,0,,,,,39.239628,-77.964577,0.37,37,2,0.7
880110,1745065795882,0.0,172.2,,-0.03,-0.1,0.96,0,-0,-0,0.97,1.35,72,2360,11.5,3.84,,13.91,1.249,73.6,,28.6,5,,,,,,,,,,,,0,0,0,0,0,0,0,0,0,0,0,0,0,0,0,0,,,,,0.0,,,,,,
880130,1745065795902,,,,,,,,,,,,,,,,,,,,,,,,,,,,,,,,,,0,0,0,0,0,0,0,0,0,0,0,0,0,0,0,0,,,,,,,,,,,
880150,1745065795922,0.0,172.2,,-0.05,-0.08,0.95,0,-0,-0,0.95,1.35,70,2313,9.0,3.86,,13.84,1.25,73.6,,28.6,5,,,,,,,,,,,,0,0,0,0,0,0,0,0,0,0,0,0,0,0,0,0,,,,,0.0,,,,,,
880170,1745065795942,,,,,,,,,,,,,,,,,,,,,,,,,,,,,,,,,,0,0,0,0,0,0,0,0,0,0,0,0,0,0,0,0,,,,,,,,,,,
880190,1745065795962,0.0,172.07,,-0.05,-0.08,0.94,0,-0,-0,0.94,1.35,70,2441,5.5,3.85,,13.71,1.25,73.6,,28.6,5,0,0,0,0,0.0,0.0,0.0,0.0,2.24,,,0,0,0,0,0,0,0,0,0,0,0,0,0,0,0,0,0,,,,0.0,39.239628,-77.964577,0.42,37,2,0.7
880210,1745065795982,,,,,,,,,,,,,,,,,,,,,,,,,,,,,,,,,,0,0,0,0,0,0,0,0,0,0,0,0,0,0,0,0,,,,,,,,,,,
880230,1745065796002,0.0,172.2,,-0.07,-0.09,0.96,0,-0,0,0.96,1.35,71,2440,4.9,3.84,,13.71,1.25,73.6,,30.6,5,,,,,,,,,,,,0,0,0,0,0,0,0,0,0,0,0,0,0,0,0,0,,,,,0.0,,,,,,
880250,1745065796010,,,,,,,,,,,,,,,,,,,,,,,,,,,,,,,,,,0,0,0,0,0,0,0,0,0,0,0,0,0,0,0,0,,,,,,,,,,,
880270,1745065796030,0.0,172.2,,-0.07,-0.07,0.95,0,-0,0,0.95,1.35,71,2440,4.9,3.84,,13.64,1.236,73.6,,30.6,5,,,,,,,,,,,,0,0,0,0,0,0,0,0,0,0,0,0,0,0,0,0,,,,,0.0,,,,,,
880290,1745065796050,,,,,,,,,,,,,,,,,,,,,,,0,0,0,0,0.0,0.0,0.0,0.0,2.25,,,0,0,0,0,0,0,0,0,0,0,0,0,0,0,0,0,0,,,,,39.239628,-77.964577,0.09,38,2,0.7
880310,1745065796070,0.0,172.2,,-0.07,-0.08,0.96,0,-0,0,0.96,1.35,71,2473,4.8,3.85,,13.63,1.195,73.6,,31.9,5,,,,,,,,,,,,0,0,0,0,0,0,0,0,0,0,0,0,0,0,0,0,,,,,0.0,,,,,,
880330,1745065796090,,,,,,,,,,,,,,,,,,,,,,,,,,,,,,,,,,0,0,0,0,0,0,0,0,0,0,0,0,0,0,0,0,,,,,,,,,,,
880350,1745065796120,0.0,172.2,,-0.06,-0.09,0.96,0,-0,-0,0.97,1.35,72,2521,4.7,3.84,,13.57,1.212,73.6,,31.9,5,,,,,,,,,,,,0,0,0,0,0,0,0,0,0,0,0,0,0,0,0,0,,,,,0.0,,,,,,
880370,1745065796140,,,,,,,,,,,,,,,,,,,,,,,,,,,,,,,,,,0,0,0,0,0,0,0,0,0,0,0,0,0,0,0,0,,,,,,,,,,,
880390,1745065796160,0.0,172.2,12.75,-0.06,-0.09,0.95,0,-0,-0,0.96,1.35,71,2515,4.7,3.84,15,13.55,1.235,73.6,183,31.9,5,0,0,0,0,0.0,0.0,0.0,0.0,2.25,0,1.0,0,0,0,0,0,0,0,0,0,0,0,0,0,0,0,0,0,0.0,0,0,0.0,39.239628,-77.964577,0.6,38,2,0.7
880410,1745065796180,,,,,,,,,,,,,,,,,,,,,,,,,,,,,,,,,,0,0,0,0,0,0,0,0,0,0,0,0,0,0,0,0,,,,,,,,,,,
880430,1745065796200,0.0,172.2,,-0.06,-0.1,0.99,0,-0,0,0.99,1.35,74,2527,4.7,3.84,,13.55,1.235,73.6,,32.2,5,,,,,,,,,,,,0,0,0,0,0,0,0,0,0,0,0,0,0,0,0,0,,,,,0.0,,,,,,
880450,1745065796220,,,,,,,,,,,,,,,,,,,,,,,,,,,,,,,,,,0,0,0,0,0,0,0,0,0,0,0,0,0,0,0,0,,,,,,,,,,,
880470,1745065796240,0.0,172.2,,-0.06,-0.09,0.96,0,-0,-0,0.96,1.35,71,2527,4.7,3.84,,13.56,1.243,73.6,,32.2,5,,,,,,,,,,,,0,0,0,0,0,0,0,0,0,0,0,0,0,0,0,0,,,,,0.0,,,,,,
880490,1745065796260,,,,,,,,,,,,,,,,,,,,,,,0,0,0,0,0.0,0.0,0.0,0.0,2.24,,,0,0,0,0,0,0,0,0,0,0,0,0,0,0,0,0,0,,,,,39.239628,-77.964577,0.25,38,2,0.7
880510,1745065796280,0.0,172.2,,-0.06,-0.09,0.98,0,-0,-0,0.98,1.35,73,2569,4.8,3.84,,13.52,1.251,73.6,,33.2,5,,,,,,,,,,,,0,0,0,0,0,0,0,0,0,0,0,0,0,0,0,0,,,,,0.0,,,,,,
880530,1745065796302,,,,,,,,,,,,,,,,,,,,,,,,,,,,,,,,,,0,0,0,0,0,0,0,0,0,0,0,0,0,0,0,0,,,,,,,,,,,
880550,1745065796322,0.0,172.2,,-0.06,-0.07,0.96,0,-0,-0,0.96,1.35,71,2624,4.9,3.84,,13.44,1.245,73.6,,33.2,5,,,,,,,,,,,,0,0,0,0,0,0,0,0,0,0,0,0,0,0,0,0,,,,,0.0,,,,,,
880570,1745065796342,,,,,,,,,,,,,,,,,,,,,,,,,,,,,,,,,,0,0,0,0,0,0,0,0,0,0,0,0,0,0,0,0,,,,,,,,,,,
880590,1745065796362,0.0,172.07,,-0.06,-0.07,0.97,0,-0,-0,0.97,1.35,72,2740,4.9,3.84,,13.4,1.229,73.6,,33.2,5,0,0,0,0,0.0,0.0,0.0,0.0,2.24,,,0,0,0,0,0,0,0,0,0,0,0,0,0,0,0,0,0,,,,0.0,39.239628,-77.964577,0.06,38,2,0.7
880610,1745065796382,,,,,,,,,,,,,,,,,,,,,,,,,,,,,,,,,,0,0,0,0,0,0,0,0,0,0,0,0,0,0,0,0,,,,,,,,,,,
880630,1745065796402,0.0,172.07,,-0.06,-0.05,1.0,0,-0,0,1.0,1.35,74,2735,4.9,3.85,,13.4,1.229,73.6,,34.1,5,,,,,,,,,,,,0,0,0,0,0,0,0,0,0,0,0,0,0,0,0,0,,,,,0.0,,,,,,
880650,1745065796422,,,,,,,,,,,,,,,,,,,,,,,,,,,,,,,,,,0,0,0,0,0,0,0,0,0,0,0,0,0,0,0,0,,,,,,,,,,,
880670,1745065796442,0.0,172.07,,-0.05,-0.04,0.96,0,-0,0,0.97,1.35,71,2735,4.9,3.85,,13.39,1.226,73.6,,34.1,5,,,,,,,,,,,,0,0,0,0,0,0,0,0,0,0,0,0,0,0,0,0,,,,,0.0,,,,,,
880690,1745065796462,,,,,,,,,,,,,,,,,,,,,,,0,0,0,0,0.0,0.0,0.0,0.0,2.24,,,0,0,0,0,0,0,0,0,0,0,0,0,0,0,0,0,0,,,,,39.239628,-77.964577,0.39,38,2,0.7
880710,1745065796482,0.0,172.07,,-0.05,-0.07,1.0,0,-0,0,1.01,1.35,75,2761,4.9,3.84,,13.39,1.216,73.6,,34.6,5,,,,,,,,,,,,0,0,0,0,0,0,0,0,0,0,0,0,0,0,0,0,,,,,0.0,,,,,,
880730,1745065796501,,,,,,,,,,,,,,,,,,,,,,,,,,,,,,,,,,0,0,0,0,0,0,0,0,0,0,0,0,0,0,0,0,,,,,,,,,,,
880750,1745065796521,0.0,172.2,,-0.06,-0.03,1.0,0,-0,0,1.0,1.35,74,2706,4.9,3.84,,13.4,1.213,73.6,,34.6,5,,,,,,,,,,,,0,0,0,0,0,0,0,0,0,0,0,0,0,0,0,0,,,,,0.0,,,,,,
880770,1745065796541,,,,,,,,,,,,,,,,,,,,,,,,,,,,,,,,,,0,0,0,0,0,0,0,0,0,0,0,0,0,0,0,0,,,,,,,,,,,
880790,1745065796561,0.0,172.07,,-0.06,-0.01,0.96,0,-0,0,0.96,1.35,71,2725,4.8,3.84,,13.43,1.216,73.6,,34.6,5,0,0,0,0,0.0,0.0,0.0,0.0,2.25,,,0,0,0,0,0,0,0,0,0,0,0,0,0,0,0,0,0,,,,0.0,39.239628,-77.964577,0.29,38,2,0.7
880810,1745065796581,,,,,,,,,,,,,,,,,,,,,,,,,,,,,,,,,,0,0,0,0,0,0,0,0,0,0,0,0,0,0,0,0,,,,,,,,,,,
880830,1745065796601,0.0,172.2,,-0.05,-0.08,1.01,0,-0,0,1.01,1.35,75,2732,4.6,3.84,,13.43,1.216,73.6,,35.5,5,,,,,,,,,,,,0,0,0,0,0,0,0,0,0,0,0,0,0,0,0,0,,,,,0.0,,,,,,
880850,1745065796621,,,,,,,,,,,,,,,,,,,,,,,,,,,,,,,,,,0,0,0,0,0,0,0,0,0,0,0,0,0,0,0,0,,,,,,,,,,,
880870,1745065796641,0.0,172.2,,-0.05,-0.04,1.0,0,-0,0,1.0,1.35,74,2732,4.6,3.84,,13.47,1.205,73.6,,35.5,5,,,,,,,,,,,,0,0,0,0,0,0,0,0,0,0,0,0,0,0,0,0,,,,,0.0,,,,,,
880890,1745065796661,,,,,,,,,,,,,,,,,,,,,,,0,0,0,0,0.0,0.0,0.0,0.0,2.24,,,0,0,0,0,0,0,0,0,0,0,0,0,0,0,0,0,0,,,,,39.239628,-77.964577,0.05,38,2,0.7
880910,1745065796681,0.0,172.07,,-0.04,-0.05,0.97,0,-0,0,0.97,1.35,72,2743,4.6,3.84,,13.4,1.207,73.6,,35.5,5,,,,,,,,,,,,0,0,0,0,0,0,0,0,0,0,0,0,0,0,0,0,,,,,0.0,,,,,,
880930,1745065796703,,,,,,,,,,,,,,,,,,,,,,,,,,,,,,,,,,0,0,0,0,0,0,0,0,0,0,0,0,0,0,0,0,,,,,,,,,,,
880950,1745065796723,0.0,172.07,,-0.06,-0.04,0.96,0,-0,0,0.97,1.35,71,2828,4.5,3.84,,13.35,1.202,73.6,,35.5,5,,,,,,,,,,,,0,0,0,0,0,0,0,0,0,0,0,0,0,0,0,0,,,,,0.0,,,,,,
880970,1745065796743,,,,,,,,,,,,,,,,,,,,,,,,,,,,,,,,,,0,0,0,0,0,0,0,0,0,0,0,0,0,0,0,0,,,,,,,,,,,
880990,1745065796763,0.0,172.2,,-0.06,-0.09,1.01,0,-0,0,1.01,1.35,75,2869,4.5,3.84,,13.35,1.197,73.6,,35.5,5,0,0,0,0,0.0,0.0,0.0,0.0,2.25,,,0,0,0,0,0,0,0,0,0,0,0,0,0,0,0,0,0,,,,0.0,39.239628,-77.964577,0.11,38,2,0.7
881010,1745065796783,,,,,,,,,,,,,,,,,,,,,,,,,,,,,,,,,,0,0,0,0,0,0,0,0,0,0,0,0,0,0,0,0,,,,,,,,,,,
881030,1745065796803,0.0,172.2,,-0.07,-0.07,1.05,-0,-0,0,1.06,1.35,78,2862,4.6,3.84,,13.35,1.197,73.6,,36.5,5,,,,,,,,,,,,0,0,0,0,0,0,0,0,0,0,0,0,0,0,0,0,,,,,0.0,,,,,,
881050,1745065796823,,,,,,,,,,,,,,,,,,,,,,,,,,,,,,,,,,0,0,0,0,0,0,0,0,0,0,0,0,0,0,0,0,,,,,,,,,,,
881070,1745065796843,0.0,172.2,,-0.07,-0.03,1.07,-0,-0,0,1.07,1.35,79,2862,4.6,3.84,,13.31,1.188,73.6,,36.5,5,,,,,,,,,,,,0,0,0,0,0,0,0,0,0,0,0,0,0,0,0,0,,,,,0.0,,,,,,
881090,1745065796863,,,,,,,,,,,,,,,,,,,,,,,0,0,0,0,0.0,0.0,0.0,0.0,2.25,,,0,0,0,0,0,0,0,0,0,0,0,0,0,0,0,0,0,,,,,39.239628,-77.964577,0.08,38,2,0.7
881110,1745065796883,0.0,172.07,,-0.06,-0.0,1.06,-0,-0,1,1.06,1.35,79,2896,4.7,3.84,,13.31,1.179,73.6,,38.5,5,,,,,,,,,,,,0,0,0,0,0,0,0,0,0,0,0,0,0,0,0,0,,,,,0.0,,,,,,
881130,1745065796903,,,,,,,,,,,,,,,,,,,,,,,,,,,,,,,,,,0,0,0,0,0,0,0,0,0,0,0,0,0,0,0,0,,,,,,,,,,,
881150,1745065796923,0.0,172.2,,-0.06,0.03,1.06,-0,-0,1,1.06,1.35,79,3028,4.8,3.85,,13.27,1.18,73.6,,38.5,5,,,,,,,,,,,,0,0,0,0,0,0,0,0,0,0,0,0,0,0,0,0,,,,,0.0,,,,,,
881170,1745065796943,,,,,,,,,,,,,,,,,,,,,,,,,,,,,,,,,,0,0,0,0,0,0,0,0,0,0,0,0,0,0,0,0,,,,,,,,,,,
881190,1745065796963,0.0,172.2,,-0.06,0.05,1.1,-0,-0,1,1.1,1.35,81,3079,4.8,3.84,,13.17,1.186,73.6,,38.5,5,0,0,0,0,0.0,0.0,0.0,0.0,2.24,,,0,0,0,0,0,0,0,0,0,0,0,0,0,0,0,0,0,,,,0.0,39.239628,-77.964577,0.08,38,2,0.7
881210,1745065796983,,,,,,,,,,,,,,,,,,,,,,,,,,,,,,,,,,0,0,0,0,0,0,0,0,0,0,0,0,0,0,0,0,,,,,,,,,,,
881230,1745065797003,0.0,172.2,,-0.06,0.02,1.16,-0,-0,1,1.16,1.35,86,3092,4.8,3.84,,13.17,1.186,73.6,,39.6,5,,,,,,,,,,,,0,0,0,0,0,0,0,0,0,0,0,0,0,0,0,0,,,,,0.0,,,,,,
881250,1745065797015,,,,,,,,,,,,,,,,,,,,,,,,,,,,,,,,,,0,0,0,0,0,0,0,0,0,0,0,0,0,0,0,0,,,,,,,,,,,
881270,1745065797035,0.0,172.2,,-0.08,-0.03,1.2,-0,-0,1,1.21,1.35,89,3092,4.8,3.84,,13.15,1.187,73.6,,39.6,5,,,,,,,,,,,,0,0,0,0,0,0,0,0,0,0,0,0,0,0,0,0,,,,,0.0,,,,,,
881290,1745065797055,,,,,,,,,,,,,,,,,,,,,,,0,0,0,0,0.0,0.0,0.0,0.0,2.24,,,0,0,0,0,0,0,0,0,0,0,0,0,0,0,0,0,0,,,,,39.239628,-77.964577,0.08,37,2,0.7
881310,1745065797075,0.0,172.2,,-0.09,-0.04,1.11,-0,-0,1,1.12,1.35,83,3134,4.8,3.83,,13.09,1.195,73.6,,41.5,5,,,,,,,,,,,,0,0,0,0,0,0,0,0,0,0,0,0,0,0,0,0,,,,,0.0,,,,,,
881330,1745065797101,,,,,,,,,,,,,,,,,,,,,,,,,,,,,,,,,,0,0,0,0,0,0,0,0,0,0,0,0,0,0,0,0,,,,,,,,,,,
881350,1745065797121,0.0,172.2,,-0.06,0.02,1.05,0,-0,1,1.05,1.35,78,3188,4.8,3.83,,13.04,1.201,73.6,,41.5,5,,,,,,,,,,,,0,0,0,0,0,0,0,0,0,0,0,0,0,0,0,0,,,,,0.0,,,,,,
881370,1745065797141,,,,,,,,,,,,,,,,,,,,,,,,,,,,,,,,,,0,0,0,0,0,0,0,0,0,0,0,0,0,0,0,0,,,,,,,,,,,
881390,1745065797161,0.0,172.2,12.7,-0.05,-0.0,1.09,-0,-0,1,1.09,1.35,81,3168,4.7,3.82,15,13.01,1.202,73.6,183,41.5,5,0,0,0,0,0.0,0.0,0.0,0.0,2.24,0,1.0,0,0,0,0,0,0,0,0,0,0,0,0,0,0,0,0,0,0.0,0,0,0.0,39.239628,-77.964577,0.04,37,2,0.7
881410,1745065797181,,,,,,,,,,,,,,,,,,,,,,,,,,,,,,,,,,0,0,0,0,0,0,0,0,0,0,0,0,0,0,0,0,,,,,,,,,,,
881430,1745065797201,0.0,172.32,,-0.07,-0.06,1.13,-0,-0,1,1.13,1.35,84,3162,4.5,3.81,,13.01,1.202,73.6,,42.1,5,,,,,,,,,,,,0,0,0,0,0,0,0,0,0,0,0,0,0,0,0,0,,,,,0.0,,,,,,
881450,1745065797219,,,,,,,,,,,,,,,,,,,,,,,,,,,,,,,,,,0,0,0,0,0,0,0,0,0,0,0,0,0,0,0,0,,,,,,,,,,,
881470,1745065797239,0.0,172.2,,-0.07,-0.04,1.05,0,-0,0,1.06,1.35,78,3162,4.5,3.81,,13.03,1.215,73.6,,42.1,5,,,,,,,,,,,,0,0,0,0,0,0,0,0,0,0,0,0,0,0,0,0,,,,,0.0,,,,,,
881490,1745065797259,,,,,,,,,,,,,,,,,,,,,,,0,0,0,0,0.0,0.0,0.0,0.0,2.25,,,0,0,0,0,0,0,0,0,0,0,0,0,0,0,0,0,0,,,,,39.239628,-77.964577,0.04,37,2,0.7
881510,1745065797279,0.0,172.2,,-0.05,0.02,1.02,-0,-0,1,1.02,1.35,76,3220,4.0,3.79,,12.97,1.217,73.6,,41.8,5,,,,,,,,,,,,0,0,0,0,0,0,0,0,0,0,0,0,0,0,0,0,,,,,0.0,,,,,,
881530,1745065797305,,,,,,,,,,,,,,,,,,,,,,,,,,,,,,,,,,0,0,0,0,0,0,0,0,0,0,0,0,0,0,0,0,,,,,,,,,,,
881550,1745065797325,0.0,172.2,,-0.05,-0.0,1.08,-0,-0,1,1.08,1.35,80,3158,3.9,3.76,,12.95,1.215,73.6,,41.8,5,,,,,,,,,,,,0,0,0,0,0,0,0,0,0,0,0,0,0,0,0,0,,,,,0.0,,,,,,
881570,1745065797345,,,,,,,,,,,,,,,,,,,,,,,,,,,,,,,,,,0,0,0,0,0,0,0,0,0,0,0,0,0,0,0,0,,,,,,,,,,,
881590,1745065797365,0.0,172.2,,-0.07,-0.07,1.12,-0,-0,1,1.12,1.35,83,3147,3.9,3.75,,12.96,1.19,73.6,,41.8,5,0,0,0,0,0.0,0.0,0.0,0.0,2.24,,,0,0,0,0,0,0,0,0,0,0,0,0,0,0,0,0,0,,,,0.0,39.239628,-77.964577,0.04,37,2,0.7
881610,1745065797385,,,,,,,,,,,,,,,,,,,,,,,,,,,,,,,,,,0,0,0,0,0,0,0,0,0,0,0,0,0,0,0,0,,,,,,,,,,,
881630,1745065797403,0.0,172.2,,-0.09,-0.07,1.07,0,-0,0,1.07,1.35,80,3191,3.9,3.75,,12.96,1.19,73.6,,41.4,5,,,,,,,,,,,,0,0,0,0,0,0,0,0,0,0,0,0,0,0,0,0,,,,,0.0,,,,,,
881650,1745065797423,,,,,,,,,,,,,,,,,,,,,,,,,,,,,,,,,,0,0,0,0,0,0,0,0,0,0,0,0,0,0,0,0,,,,,,,,,,,
881670,1745065797443,0.0,172.07,,-0.07,0.0,0.99,0,-0,0,0.99,1.35,74,3191,3.9,3.75,,12.92,1.185,73.6,,41.4,5,,,,,,,,,,,,0,0,0,0,0,0,0,0,0,0,0,0,0,0,0,0,,,,,0.0,,,,,,
881690,1745065797463,,,,,,,,,,,,,,,,,,,,,,,0,0,0,0,0.0,0.0,0.0,0.0,2.24,,,0,0,0,0,0,0,0,0,0,0,0,0,0,0,0,0,0,,,,,39.239628,-77.964577,0.08,37,2,0.7
881710,1745065797483,0.0,171.95,,-0.05,0.01,1.05,-0,-0,1,1.05,1.35,78,3222,3.9,3.75,,12.91,1.177,73.6,,42.0,5,,,,,,,,,,,,0,0,0,0,0,0,0,0,0,0,0,0,0,0,0,0,,,,,0.0,,,,,,
881730,1745065797504,,,,,,,,,,,,,,,,,,,,,,,,,,,,,,,,,,0,0,0,0,0,0,0,0,0,0,0,0,0,0,0,0,,,,,,,,,,,
881750,1745065797524,0.0,172.07,,-0.07,-0.05,1.09,-0,-0,1,1.09,1.35,81,3176,3.9,3.76,,12.93,1.177,73.6,,42.0,5,,,,,,,,,,,,0,0,0,0,0,0,0,0,0,0,0,0,0,0,0,0,,,,,0.0,,,,,,
881770,1745065797544,,,,,,,,,,,,,,,,,,,,,,,,,,,,,,,,,,0,0,0,0,0,0,0,0,0,0,0,0,0,0,0,0,,,,,,,,,,,
881790,1745065797564,0.0,172.07,,-0.09,-0.07,1.05,0,-0,0,1.06,1.35,78,3178,3.9,3.77,,12.93,1.175,73.6,,42.0,5,0,0,0,0,0.0,0.0,0.0,0.0,2.24,,,0,0,0,0,0,0,0,0,0,0,0,0,0,0,0,0,0,,,,0.0,39.239628,-77.964577,0.23,37,2,0.7
881810,1745065797584,,,,,,,,,,,,,,,,,,,,,,,,,,,,,,,,,,0,0,0,0,0,0,0,0,0,0,0,0,0,0,0,0,,,,,,,,,,,
881830,1745065797604,0.0,172.07,,-0.07,-0.01,0.96,0,-0,0,0.96,1.35,71,3162,3.9,3.77,,12.93,1.175,73.6,,41.0,5,,,,,,,,,,,,0,0,0,0,0,0,0,0,0,0,0,0,0,0,0,0,,,,,0.0,,,,,,
881850,1745065797624,,,,,,,,,,,,,,,,,,,,,,,,,,,,,,,,,,0,0,0,0,0,0,0,0,0,0,0,0,0,0,0,0,,,,,,,,,,,
881870,1745065797644,0.0,172.07,,-0.05,0.05,0.95,0,-0,0,0.95,1.35,70,3162,3.9,3.77,,12.92,1.173,73.6,,41.0,5,,,,,,,,,,,,0,0,0,0,0,0,0,0,0,0,0,0,0,0,0,0,,,,,0.0,,,,,,
881890,1745065797664,,,,,,,,,,,,,,,,,,,,,,,0,0,0,0,0.0,0.0,0.0,0.0,2.25,,,0,0,0,0,0,0,0,0,0,0,0,0,0,0,0,0,0,,,,,39.239628,-77.964577,0.04,37,2,0.7
881910,1745065797684,0.0,172.2,,-0.05,0.03,1.01,-0,-0,1,1.01,1.35,75,3103,3.8,3.77,,12.95,1.186,73.6,,40.9,5,,,,,,,,,,,,0,0,0,0,0,0,0,0,0,0,0,0,0,0,0,0,,,,,0.0,,,,,,
881930,1745065797704,,,,,,,,,,,,,,,,,,,,,,,,,,,,,,,,,,0,0,0,0,0,0,0,0,0,0,0,0,0,0,0,0,,,,,,,,,,,
881950,1745065797724,0.0,172.2,,-0.05,0.01,1.06,-0,-0,1,1.06,1.35,79,3120,3.7,3.73,,12.97,1.178,73.6,,40.9,5,,,,,,,,,,,,0,0,0,0,0,0,0,0,0,0,0,0,0,0,0,0,,,,,0.0,,,,,,
881970,1745065797744,,,,,,,,,,,,,,,,,,,,,,,,,,,,,,,,,,0,0,0,0,0,0,0,0,0,0,0,0,0,0,0,0,,,,,,,,,,,
881990,1745065797764,0.0,172.07,,-0.06,-0.05,1.12,-0,-0,1,1.12,1.35,83,3120,3.7,3.75,,12.96,1.161,73.6,,40.9,5,0,0,0,0,0.0,0.0,0.0,0.0,2.25,,,0,0,0,0,0,0,0,0,0,0,0,0,0,0,0,0,0,,,,0.0,39.239628,-77.964577,0.2,37,2,0.7
882010,1745065797784,,,,,,,,,,,,,,,,,,,,,,,,,,,,,,,,,,0,0,0,0,0,0,0,0,0,0,0,0,0,0,0,0,,,,,,,,,,,
882030,1745065797804,0.0,172.2,,-0.07,-0.09,1.15,-0,-0,0,1.16,1.35,86,3091,3.7,3.73,,12.96,1.161,73.6,,40.4,5,,,,,,,,,,,,0,0,0,0,0,0,0,0,0,0,0,0,0,0,0,0,,,,,0.0,,,,,,
882050,1745065797824,,,,,,,,,,,,,,,,,,,,,,,,,,,,,,,,,,0,0,0,0,0,0,0,0,0,0,0,0,0,0,0,0,,,,,,,,,,,
882070,1745065797844,0.0,172.2,,-0.09,-0.09,1.1,0,-0,-0,1.11,1.35,82,3091,3.7,3.73,,12.95,1.157,73.6,,40.4,5,,,,,,,,,,,,0,0,0,0,0,0,0,0,0,0,0,0,0,0,0,0,,,,,0.0,,,,,,
882090,1745065797864,,,,,,,,,,,,,,,,,,,,,,,0,0,0,0,0.0,0.0,0.0,0.0,2.25,,,0,0,0,0,0,0,0,0,0,0,0,0,0,0,0,0,0,,,,,39.239628,-77.964577,0.04,37,2,0.7
882110,1745065797884,0.0,172.2,,-0.08,-0.04,1.0,0,-0,-0,1.0,1.35,74,3101,3.8,3.75,,13.01,1.153,73.6,,40.7,5,,,,,,,,,,,,0,0,0,0,0,0,0,0,0,0,0,0,0,0,0,0,,,,,0.0,,,,,,
882130,1745065797904,,,,,,,,,,,,,,,,,,,,,,,,,,,,,,,,,,0,0,0,0,0,0,0,0,0,0,0,0,0,0,0,0,,,,,,,,,,,
882150,1745065797924,0.0,172.2,,-0.05,0.03,0.96,-0,-0,0,0.96,1.35,71,3137,3.8,3.73,,12.95,1.153,73.6,,40.7,5,,,,,,,,,,,,0,0,0,0,0,0,0,0,0,0,0,0,0,0,0,0,,,,,0.0,,,,,,
882170,1745065797944,,,,,,,,,,,,,,,,,,,,,,,,,,,,,,,,,,0,0,0,0,0,0,0,0,0,0,0,0,0,0,0,0,,,,,,,,,,,
882190,1745065797964,0.0,172.2,,-0.04,0.03,0.99,-0,-0,1,0.99,1.35,74,3095,3.9,3.77,,12.96,1.148,73.6,,40.7,5,0,0,0,0,0.0,0.0,0.0,0.0,2.24,,,0,0,0,0,0,0,0,0,0,0,0,0,0,0,0,0,0,,,,0.0,39.239628,-77.964577,0.11,37,2,0.7
882210,1745065797984,,,,,,,,,,,,,,,,,,,,,,,,,,,,,,,,,,0,0,0,0,0,0,0,0,0,0,0,0,0,0,0,0,,,,,,,,,,,
882230,1745065798004,0.0,172.2,,-0.04,-0.01,1.05,-0,-0,1,1.05,1.35,78,3066,3.9,3.73,,12.96,1.148,73.6,,40.5,5,,,,,,,,,,,,0,0,0,0,0,0,0,0,0,0,0,0,0,0,0,0,,,,,0.0,,,,,,
882250,1745065798014,,,,,,,,,,,,,,,,,,,,,,,,,,,,,,,,,,0,0,0,0,0,0,0,0,0,0,0,0,0,0,0,0,,,,,,,,,,,
882270,1745065798034,0.0,172.32,,-0.05,-0.07,1.1,-0,-0,0,1.11,1.35,82,3066,3.9,3.73,,13.0,1.155,73.6,,40.5,5,,,,,,,,,,,,0,0,0,0,0,0,0,0,0,0,0,0,0,0,0,0,,,,,0.0,,,,,,
882290,1745065798054,,,,,,,,,,,,,,,,,,,,,,,0,0,0,0,0.0,0.0,0.0,0.0,2.24,,,0,0,0,0,0,0,0,0,0,0,0,0,0,0,0,0,0,,,,,39.239628,-77.964577,0.08,37,2,0.7
882310,1745065798074,0.0,172.2,,-0.07,-0.11,1.1,0,-0,0,1.11,1.35,82,3140,3.9,3.75,,12.95,1.163,73.6,,40.4,5,,,,,,,,,,,,0,0,0,0,0,0,0,0,0,0,0,0,0,0,0,0,,,,,0.0,,,,,,
882330,1745065798102,,,,,,,,,,,,,,,,,,,,,,,,,,,,,,,,,,0,0,0,0,0,0,0,0,0,0,0,0,0,0,0,0,,,,,,,,,,,
882350,1745065798122,0.0,172.2,,-0.04,-0.03,1.05,-0,-0,0,1.05,1.35,78,3159,3.8,3.73,,12.93,1.17,73.6,,40.4,5,,,,,,,,,,,,0,0,0,0,0,0,0,0,0,0,0,0,0,0,0,0,,,,,0.0,,,,,,
882370,1745065798142,,,,,,,,,,,,,,,,,,,,,,,,,,,,,,,,,,0,0,0,0,0,0,0,0,0,0,0,0,0,0,0,0,,,,,,,,,,,
882390,1745065798162,0.0,172.32,12.67,-0.05,-0.06,1.12,-0,-0,1,1.12,1.35,83,3255,3.8,3.76,15,12.93,1.234,73.6,183,40.4,5,0,0,0,0,0.0,0.0,0.0,0.0,2.24,0,1.0,0,0,0,0,0,0,0,0,0,0,0,0,0,0,0,0,0,0.0,0,0,0.0,39.239628,-77.964577,0.15,37,2,0.7
882410,1745065798182,,,,,,,,,,,,,,,,,,,,,,,,,,,,,,,,,,0,0,0,0,0,0,0,0,0,0,0,0,0,0,0,0,,,,,,,,,,,
882430,1745065798202,0.0,172.32,,-0.05,-0.06,1.03,0,-0,0,1.03,1.35,76,3416,3.7,3.74,,12.93,1.234,73.6,,42.9,5,,,,,,,,,,,,0,0,0,0,0,0,0,0,0,0,0,0,0,0,0,0,,,,,0.0,,,,,,
882450,1745065798220,,,,,,,,,,,,,,,,,,,,,,,,,,,,,,,,,,0,0,0,0,0,0,0,0,0,0,0,0,0,0,0,0,,,,,,,,,,,
882470,1745065798240,0.0,172.32,,-0.07,-0.11,1.1,0,-0,0,1.1,1.35,82,3416,3.7,3.74,,12.91,1.218,73.6,,42.9,5,,,,,,,,,,,,0,0,0,0,0,0,0,0,0,0,0,0,0,0,0,0,,,,,0.0,,,,,,
882490,1745065798260,,,,,,,,,,,,,,,,,,,,,,,0,0,0,0,0.0,0.0,0.0,0.0,2.24,,,0,0,0,0,0,0,0,0,0,0,0,0,0,0,0,0,0,,,,,39.239628,-77.964577,0.07,37,2,0.7
882510,1745065798280,0.0,172.32,,-0.04,-0.07,1.08,-0,-0,0,1.09,1.35,81,3476,3.6,3.75,,12.83,1.15,73.6,,46.4,5,,,,,,,,,,,,0,0,0,0,0,0,0,0,0,0,0,0,0,0,0,0,,,,,0.0,,,,,,
882530,1745065798304,,,,,,,,,,,,,,,,,,,,,,,,,,,,,,,,,,0,0,0,0,0,0,0,0,0,0,0,0,0,0,0,0,,,,,,,,,,,
882550,1745065798324,0.0,172.32,,-0.04,-0.07,1.04,0,-0,0,1.04,1.35,77,3542,3.7,3.71,,12.75,1.047,73.6,,46.4,5,,,,,,,,,,,,0,0,0,0,0,0,0,0,0,0,0,0,0,0,0,0,,,,,0.0,,,,,,
882570,1745065798344,,,,,,,,,,,,,,,,,,,,,,,,,,,,,,,,,,0,0,0,0,0,0,0,0,0,0,0,0,0,0,0,0,,,,,,,,,,,
882590,1745065798364,0.0,172.2,,-0.07,-0.12,1.08,0,-0,0,1.08,1.35,80,3480,3.7,3.69,,12.73,1.024,73.6,,46.4,5,0,0,0,0,0.0,0.0,0.0,0.0,2.25,,,0,0,0,0,0,0,0,0,0,0,0,0,0,0,0,0,0,,,,0.0,39.239628,-77.964577,0.07,37,2,0.7
882610,1745065798384,,,,,,,,,,,,,,,,,,,,,,,,,,,,,,,,,,0,0,0,0,0,0,0,0,0,0,0,0,0,0,0,0,,,,,,,,,,,
882630,1745065798404,0.0,172.2,,-0.05,-0.07,1.05,-0,-0,0,1.06,1.35,78,3474,3.7,3.7,,12.73,1.024,73.6,,46.5,5,,,,,,,,,,,,0,0,0,0,0,0,0,0,0,0,0,0,0,0,0,0,,,,,0.0,,,,,,
882650,1745065798424,,,,,,,,,,,,,,,,,,,,,,,,,,,,,,,,,,0,0,0,0,0,0,0,0,0,0,0,0,0,0,0,0,,,,,,,,,,,
882670,1745065798444,0.0,172.2,,-0.07,-0.12,1.02,0,-0,0,1.03,1.35,76,3474,3.7,3.7,,12.73,1.044,73.6,,46.5,5,,,,,,,,,,,,0,0,0,0,0,0,0,0,0,0,0,0,0,0,0,0,,,,,0.0,,,,,,
882690,1745065798464,,,,,,,,,,,,,,,,,,,,,,,0,0,0,0,0.0,0.0,0.0,0.0,2.24,,,0,0,0,0,0,0,0,0,0,0,0,0,0,0,0,0,0,,,,,39.239628,-77.964577,0.1,37,2,0.7
882710,1745065798484,0.0,172.2,,-0.06,-0.09,1.05,-0,-0,0,1.05,1.35,78,3421,3.8,3.7,,12.76,1.059,73.6,,45.0,5,,,,,,,,,,,,0,0,0,0,0,0,0,0,0,0,0,0,0,0,0,0,,,,,0.0,,,,,,
882730,1745065798504,,,,,,,,,,,,,,,,,,,,,,,,,,,,,,,,,,0,0,0,0,0,0,0,0,0,0,0,0,0,0,0,0,,,,,,,,,,,
882750,1745065798524,0.0,172.2,,-0.08,-0.12,1.04,0,-0,0,1.05,1.35,78,3359,3.9,3.7,,12.8,1.07,73.6,,45.0,5,,,,,,,,,,,,0,0,0,0,0,0,0,0,0,0,0,0,0,0,0,0,,,,,0.0,,,,,,
882770,1745065798544,,,,,,,,,,,,,,,,,,,,,,,,,,,,,,,,,,0,0,0,0,0,0,0,0,0,0,0,0,0,0,0,0,,,,,,,,,,,
882790,1745065798564,0.0,172.2,,-0.06,-0.05,0.99,-0,-0,0,1.0,1.35,74,3305,3.9,3.74,,12.84,1.119,73.6,,45.0,5,0,0,0,0,0.0,0.0,0.0,0.0,2.24,,,0,0,0,0,0,0,0,0,0,0,0,0,0,0,0,0,0,,,,0.0,39.239628,-77.964577,0.05,37,2,0.7
882810,1745065798584,,,,,,,,,,,,,,,,,,,,,,,,,,,,,,,,,,0,0,0,0,0,0,0,0,0,0,0,0,0,0,0,0,,,,,,,,,,,
882830,1745065798603,0.0,172.2,,-0.06,-0.09,1.06,-0,-0,0,1.07,1.35,79,3222,3.9,3.75,,12.84,1.119,73.6,,43.1,5,,,,,,,,,,,,0,0,0,0,0,0,0,0,0,0,0,0,0,0,0,0,,,,,0.0,,,,,,
882850,1745065798623,,,,,,,,,,,,,,,,,,,,,,,,,,,,,,,,,,0,0,0,0,0,0,0,0,0,0,0,0,0,0,0,0,,,,,,,,,,,
882870,1745065798643,0.0,172.32,,-0.07,-0.1,0.99,0,-0,0,0.99,1.35,74,3222,3.9,3.75,,12.83,1.138,73.6,,43.1,5,,,,,,,,,,,,0,0,0,0,0,0,0,0,0,0,0,0,0,0,0,0,,,,,0.0,,,,,,
882890,1745065798663,,,,,,,,,,,,,,,,,,,,,,,0,0,0,0,0.0,0.0,0.0,0.0,2.24,,,0,0,0,0,0,0,0,0,0,0,0,0,0,0,0,0,0,,,,,39.239628,-77.964577,0.05,37,2,0.7
882910,1745065798683,0.0,172.2,,-0.07,-0.1,1.05,-0,-0,0,1.06,1.35,78,3390,3.8,3.72,,12.88,1.154,73.6,,44.7,5,,,,,,,,,,,,0,0,0,0,0,0,0,0,0,0,0,0,0,0,0,0,,,,,0.0,,,,,,
882930,1745065798703,,,,,,,,,,,,,,,,,,,,,,,,,,,,,,,,,,0,0,0,0,0,0,0,0,0,0,0,0,0,0,0,0,,,,,,,,,,,
882950,1745065798723,0.0,172.32,,-0.05,-0.04,1.0,0,-0,0,1.0,1.35,74,3423,3.8,3.73,,12.83,1.199,73.6,,44.7,5,,,,,,,,,,,,0,0,0,0,0,0,0,0,0,0,0,0,0,0,0,0,,,,,0.0,,,,,,
882970,1745065798743,,,,,,,,,,,,,,,,,,,,,,,,,,,,,,,,,,0,0,0,0,0,0,0,0,0,0,0,0,0,0,0,0,,,,,,,,,,,
882990,1745065798763,0.0,172.32,,-0.07,-0.07,1.08,0,-0,0,1.09,1.35,80,3358,3.7,3.72,,12.83,1.12,73.6,,44.7,5,0,0,0,0,0.0,0.0,0.0,0.0,2.24,,,0,0,0,0,0,0,0,0,0,0,0,0,0,0,0,0,0,,,,0.0,39.239628,-77.964577,0.08,37,2,0.7
883010,1745065798783,,,,,,,,,,,,,,,,,,,,,,,,,,,,,,,,,,0,0,0,0,0,0,0,0,0,0,0,0,0,0,0,0,,,,,,,,,,,
883030,1745065798803,0.0,172.2,,-0.05,-0.01,0.99,0,-0,0,0.99,1.35,73,3362,3.6,3.72,,12.83,1.12,73.6,,44.4,5,,,,,,,,,,,,0,0,0,0,0,0,0,0,0,0,0,0,0,0,0,0,,,,,0.0,,,,,,
883050,1745065798823,,,,,,,,,,,,,,,,,,,,,,,,,,,,,,,,,,0,0,0,0,0,0,0,0,0,0,0,0,0,0,0,0,,,,,,,,,,,
883070,1745065798843,0.0,172.32,,-0.04,-0.03,1.07,-0,-0,0,1.07,1.35,79,3362,3.6,3.72,,12.83,1.057,73.6,,44.4,5,,,,,,,,,,,,0,0,0,0,0,0,0,0,0,0,0,0,0,0,0,0,,,,,0.0,,,,,,
883090,1745065798863,,,,,,,,,,,,,,,,,,,,,,,0,0,0,0,0.0,0.0,0.0,0.0,2.25,,,0,0,0,0,0,0,0,0,0,0,0,0,0,0,0,0,0,,,,,39.239628,-77.964577,0.07,37,2,0.7
883110,1745065798883,0.0,172.32,,-0.07,-0.05,1.05,0,-0,0,1.06,1.35,78,3248,3.6,3.68,,12.83,1.009,73.6,,42.9,5,,,,,,,,,,,,0,0,0,0,0,0,0,0,0,0,0,0,0,0,0,0,,,,,0.0,,,,,,
883130,1745065798903,,,,,,,,,,,,,,,,,,,,,,,,,,,,,,,,,,0,0,0,0,0,0,0,0,0,0,0,0,0,0,0,0,,,,,,,,,,,
883150,1745065798923,0.0,172.2,,-0.06,-0.01,0.97,0,-0,0,0.97,1.35,72,3193,3.6,3.76,,12.91,1.031,73.6,,42.9,5,,,,,,,,,,,,0,0,0,0,0,0,0,0,0,0,0,0,0,0,0,0,,,,,0.0,,,,,,
883170,1745065798943,,,,,,,,,,,,,,,,,,,,,,,,,,,,,,,,,,0,0,0,0,0,0,0,0,0,0,0,0,0,0,0,0,,,,,,,,,,,
883190,1745065798963,0.0,172.2,,-0.04,0.04,0.99,-0,-0,1,0.99,1.35,73,3214,3.7,3.73,,12.91,1.093,73.6,,42.9,5,0,0,0,0,0.0,0.0,0.0,0.0,2.25,,,0,0,0,0,0,0,0,0,0,0,0,0,0,0,0,0,0,,,,0.0,39.239628,-77.964577,0.13,37,2,0.7
883210,1745065798983,,,,,,,,,,,,,,,,,,,,,,,,,,,,,,,,,,0,0,0,0,0,0,0,0,0,0,0,0,0,0,0,0,,,,,,,,,,,
883230,1745065799003,0.0,172.32,,-0.05,-0.01,1.04,-0,-0,1,1.05,1.35,77,3141,3.8,3.74,,12.91,1.093,73.6,,41.5,5,,,,,,,,,,,,0,0,0,0,0,0,0,0,0,0,0,0,0,0,0,0,,,,,0.0,,,,,,
883250,1745065799013,,,,,,,,,,,,,,,,,,,,,,,,,,,,,,,,,,0,0,0,0,0,0,0,0,0,0,0,0,0,0,0,0,,,,,,,,,,,
883270,1745065799033,0.0,172.32,,-0.08,-0.04,1.08,-0,-0,0,1.09,1.35,80,3141,3.8,3.74,,12.89,1.125,73.6,,41.5,5,,,,,,,,,,,,0,0,0,0,0,0,0,0,0,0,0,0,0,0,0,0,,,,,0.0,,,,,,
883290,1745065799053,,,,,,,,,,,,,,,,,,,,,,,0,0,0,0,0.0,0.0,0.0,0.0,2.24,,,0,0,0,0,0,0,0,0,0,0,0,0,0,0,0,0,0,,,,,39.239628,-77.964577,0.04,35,2,0.8
883310,1745065799073,0.0,172.32,,-0.09,-0.03,1.01,0,-0,0,1.02,1.35,75,3113,3.9,3.73,,12.95,1.143,73.6,,40.4,5,,,,,,,,,,,,0,0,0,0,0,0,0,0,0,0,0,0,0,0,0,0,,,,,0.0,,,,,,
883330,1745065799103,,,,,,,,,,,,,,,,,,,,,,,,,,,,,,,,,,0,0,0,0,0,0,0,0,0,0,0,0,0,0,0,0,,,,,,,,,,,
883350,1745065799123,0.0,172.32,,-0.07,0.01,0.93,0,-0,0,0.94,1.35,69,3162,3.9,3.75,,12.92,1.158,73.6,,40.4,5,,,,,,,,,,,,0,0,0,0,0,0,0,0,0,0,0,0,0,0,0,0,,,,,0.0,,,,,,
883370,1745065799143,,,,,,,,,,,,,,,,,,,,,,,,,,,,,,,,,,0,0,0,0,0,0,0,0,0,0,0,0,0,0,0,0,,,,,,,,,,,
883390,1745065799163,0.0,172.32,12.76,-0.04,0.06,0.93,-0,-0,0,0.93,1.35,69,3124,3.8,3.73,15,12.95,1.153,73.6,183,40.4,5,0,0,0,0,0.0,0.0,0.0,0.0,2.24,0,1.0,0,0,0,0,0,0,0,0,0,0,0,0,0,0,0,0,0,0.0,0,0,0.0,39.239628,-77.964577,0.11,35,2,0.8
883410,1745065799183,,,,,,,,,,,,,,,,,,,,,,,,,,,,,,,,,,0,0,0,0,0,0,0,0,0,0,0,0,0,0,0,0,,,,,,,,,,,
883430,1745065799201,0.0,172.32,,-0.03,0.03,0.98,-0,-0,1,0.99,1.35,73,3101,3.9,3.75,,12.95,1.153,73.6,,40.5,5,,,,,,,,,,,,0,0,0,0,0,0,0,0,0,0,0,0,0,0,0,0,,,,,0.0,,,,,,
883450,1745065799221,,,,,,,,,,,,,,,,,,,,,,,,,,,,,,,,,,0,0,0,0,0,0,0,0,0,0,0,0,0,0,0,0,,,,,,,,,,,
883470,1745065799241,0.0,172.32,,-0.04,-0.03,1.04,-0,-0,1,1.04,1.35,77,3101,3.9,3.75,,12.96,1.148,73.6,,40.5,5,,,,,,,,,,,,0,0,0,0,0,0,0,0,0,0,0,0,0,0,0,0,,,,,0.0,,,,,,
883490,1745065799261,,,,,,,,,,,,,,,,,,,,,,,0,0,0,0,0.0,0.0,0.0,0.0,2.24,,,0,0,0,0,0,0,0,0,0,0,0,0,0,0,0,0,0,,,,,39.239628,-77.964577,0.06,35,2,0.8
883510,1745065799281,0.0,172.2,,-0.06,-0.08,1.08,-0,-0,0,1.08,1.35,80,3142,3.8,3.75,,12.96,1.158,73.6,,39.8,5,,,,,,,,,,,,0,0,0,0,0,0,0,0,0,0,0,0,0,0,0,0,,,,,0.0,,,,,,
883530,1745065799305,,,,,,,,,,,,,,,,,,,,,,,,,,,,,,,,,,0,0,0,0,0,0,0,0,0,0,0,0,0,0,0,0,,,,,,,,,,,
883550,1745065799325,0.0,172.2,,-0.08,-0.07,1.03,0,-0,0,1.04,1.35,77,3143,3.7,3.75,,12.92,1.161,73.6,,39.8,5,,,,,,,,,,,,0,0,0,0,0,0,0,0,0,0,0,0,0,0,0,0,,,,,0.0,,,,,,
883570,1745065799345,,,,,,,,,,,,,,,,,,,,,,,,,,,,,,,,,,0,0,0,0,0,0,0,0,0,0,0,0,0,0,0,0,,,,,,,,,,,
883590,1745065799365,0.0,172.2,,-0.06,-0.02,0.96,0,-0,0,0.97,1.35,71,3121,3.7,3.75,,12.96,1.164,73.6,,39.8,5,0,0,0,0,0.0,0.0,0.0,0.0,2.25,,,0,0,0,0,0,0,0,0,0,0,0,0,0,0,0,0,0,,,,0.0,39.239628,-77.964577,0.11,35,2,0.8
883610,1745065799385,,,,,,,,,,,,,,,,,,,,,,,,,,,,,,,,,,0,0,0,0,0,0,0,0,0,0,0,0,0,0,0,0,,,,,,,,,,,
883630,1745065799401,0.0,172.2,,-0.05,0.02,0.96,-0,-0,0,0.97,1.35,71,3188,3.6,3.71,,12.96,1.164,73.6,,40.8,5,,,,,,,,,,,,0,0,0,0,0,0,0,0,0,0,0,0,0,0,0,0,,,,,0.0,,,,,,
883650,1745065799421,,,,,,,,,,,,,,,,,,,,,,,,,,,,,,,,,,0,0,0,0,0,0,0,0,0,0,0,0,0,0,0,0,,,,,,,,,,,
883670,1745065799441,0.0,172.32,,-0.05,-0.03,1.03,-0,-0,1,1.04,1.35,77,3188,3.6,3.71,,12.96,1.175,73.6,,40.8,5,,,,,,,,,,,,0,0,0,0,0,0,0,0,0,0,0,0,0,0,0,0,,,,,0.0,,,,,,
883690,1745065799461,,,,,,,,,,,,,,,,,,,,,,,0,0,0,0,0.0,0.0,0.0,0.0,2.24,,,0,0,0,0,0,0,0,0,0,0,0,0,0,0,0,0,0,,,,,39.239628,-77.964577,0.04,35,2,0.8
883710,1745065799481,0.0,172.32,,-0.07,-0.09,1.06,-0,-0,0,1.06,1.35,79,3173,3.6,3.71,,12.89,1.183,73.6,,40.9,5,,,,,,,,,,,,0,0,0,0,0,0,0,0,0,0,0,0,0,0,0,0,,,,,0.0,,,,,,
883730,1745065799504,,,,,,,,,,,,,,,,,,,,,,,,,,,,,,,,,,0,0,0,0,0,0,0,0,0,0,0,0,0,0,0,0,,,,,,,,,,,
883750,1745065799524,0.0,172.32,,-0.08,-0.07,0.99,0,-0,0,0.99,1.35,74,3152,3.7,3.7,,12.92,1.178,73.6,,40.9,5,,,,,,,,,,,,0,0,0,0,0,0,0,0,0,0,0,0,0,0,0,0,,,,,0.0,,,,,,
883770,1745065799544,,,,,,,,,,,,,,,,,,,,,,,,,,,,,,,,,,0,0,0,0,0,0,0,0,0,0,0,0,0,0,0,0,,,,,,,,,,,
883790,1745065799564,0.0,172.2,,-0.06,-0.01,0.93,0,-0,0,0.93,1.35,69,3136,3.8,3.73,,12.95,1.167,73.6,,40.9,5,0,0,0,0,0.0,0.0,0.0,0.0,2.24,,,0,0,0,0,0,0,0,0,0,0,0,0,0,0,0,0,0,,,,0.0,39.239628,-77.964577,0.09,35,2,0.8
883810,1745065799584,,,,,,,,,,,,,,,,,,,,,,,,,,,,,,,,,,0,0,0,0,0,0,0,0,0,0,0,0,0,0,0,0,,,,,,,,,,,
883830,1745065799604,0.0,172.2,,-0.04,-0.01,0.98,-0,-0,0,0.98,1.35,73,3190,3.8,3.73,,12.95,1.167,73.6,,40.6,5,,,,,,,,,,,,0,0,0,0,0,0,0,0,0,0,0,0,0,0,0,0,,,,,0.0,,,,,,
883850,1745065799624,,,,,,,,,,,,,,,,,,,,,,,,,,,,,,,,,,0,0,0,0,0,0,0,0,0,0,0,0,0,0,0,0,,,,,,,,,,,
883870,1745065799644,0.0,172.2,,-0.05,-0.07,1.04,-0,-0,1,1.04,1.35,77,3190,3.8,3.73,,12.89,1.162,73.6,,40.6,5,,,,,,,,,,,,0,0,0,0,0,0,0,0,0,0,0,0,0,0,0,0,,,,,0.0,,,,,,
883890,1745065799664,,,,,,,,,,,,,,,,,,,,,,,0,0,0,0,0.0,0.0,0.0,0.0,2.24,,,0,0,0,0,0,0,0,0,0,0,0,0,0,0,0,0,0,,,,,39.239628,-77.964577,0.11,35,2,0.8
883910,1745065799684,0.0,172.2,,-0.07,-0.1,1.04,-0,-0,0,1.05,1.35,77,3146,3.8,3.74,,12.91,1.176,73.6,,40.9,5,,,,,,,,,,,,0,0,0,0,0,0,0,0,0,0,0,0,0,0,0,0,,,,,0.0,,,,,,
883930,1745065799704,,,,,,,,,,,,,,,,,,,,,,,,,,,,,,,,,,0,0,0,0,0,0,0,0,0,0,0,0,0,0,0,0,,,,,,,,,,,
883950,1745065799724,0.0,172.07,,-0.07,-0.05,0.96,0,-0,0,0.96,1.35,71,3119,3.9,3.73,,12.93,1.158,73.6,,40.9,5,,,,,,,,,,,,0,0,0,0,0,0,0,0,0,0,0,0,0,0,0,0,,,,,0.0,,,,,,
883970,1745065799744,,,,,,,,,,,,,,,,,,,,,,,,,,,,,,,,,,0,0,0,0,0,0,0,0,0,0,0,0,0,0,0,0,,,,,,,,,,,
883990,1745065799764,0.0,172.07,,-0.05,0.01,0.9,0,-0,0,0.9,1.35,67,3150,3.8,3.77,,12.92,1.166,73.6,,40.9,5,0,0,0,0,0.0,0.0,0.0,0.0,2.24,,,0,0,0,0,0,0,0,0,0,0,0,0,0,0,0,0,0,,,,0.0,39.239628,-77.964577,0.21,35,2,0.8
884010,1745065799784,,,,,,,,,,,,,,,,,,,,,,,,,,,,,,,,,,0,0,0,0,0,0,0,0,0,0,0,0,0,0,0,0,,,,,,,,,,,
884030,1745065799804,0.0,172.07,,-0.05,0.03,0.94,-0,-0,0,0.94,1.35,70,3090,3.8,3.75,,12.92,1.166,73.6,,40.1,5,,,,,,,,,,,,0,0,0,0,0,0,0,0,0,0,0,0,0,0,0,0,,,,,0.0,,,,,,
884050,1745065799824,,,,,,,,,,,,,,,,,,,,,,,,,,,,,,,,,,0,0,0,0,0,0,0,0,0,0,0,0,0,0,0,0,,,,,,,,,,,
884070,1745065799844,0.0,172.07,,-0.05,-0.0,1.01,-0,-0,1,1.01,1.35,75,3090,3.8,3.75,,12.95,1.175,73.6,,40.1,5,,,,,,,,,,,,0,0,0,0,0,0,0,0,0,0,0,0,0,0,0,0,,,,,0.0,,,,,,
884090,1745065799864,,,,,,,,,,,,,,,,,,,,,,,0,0,0,0,0.0,0.0,0.0,0.0,2.25,,,0,0,0,0,0,0,0,0,0,0,0,0,0,0,0,0,0,,,,,39.239628,-77.964577,0.19,35,2,0.8
884110,1745065799884,0.0,171.95,,-0.06,-0.06,1.07,-0,-0,1,1.07,1.35,80,3073,3.7,3.75,,12.99,1.18,73.6,,40.2,5,,,,,,,,,,,,0,0,0,0,0,0,0,0,0,0,0,0,0,0,0,0,,,,,0.0,,,,,,
884130,1745065799904,,,,,,,,,,,,,,,,,,,,,,,,,,,,,,,,,,0,0,0,0,0,0,0,0,0,0,0,0,0,0,0,0,,,,,,,,,,,
884150,1745065799924,0.0,171.95,,-0.08,-0.09,1.07,-0,-0,0,1.08,1.35,80,3144,3.7,3.75,,12.95,1.187,73.6,,40.2,5,,,,,,,,,,,,0,0,0,0,0,0,0,0,0,0,0,0,0,0,0,0,,,,,0.0,,,,,,
884170,1745065799944,,,,,,,,,,,,,,,,,,,,,,,,,,,,,,,,,,0,0,0,0,0,0,0,0,0,0,0,0,0,0,0,0,,,,,,,,,,,
884190,1745065799964,0.0,171.95,,-0.08,-0.04,0.98,0,-0,-0,0.98,1.35,73,3196,3.7,3.75,,12.92,1.173,73.6,,40.2,5,0,0,0,0,0.0,0.0,0.0,0.0,2.25,,,0,0,0,0,0,0,0,0,0,0,0,0,0,0,0,0,0,,,,0.0,39.239628,-77.964577,0.16,35,2,0.8
884210,1745065799984,,,,,,,,,,,,,,,,,,,,,,,,,,,,,,,,,,0,0,0,0,0,0,0,0,0,0,0,0,0,0,0,0,,,,,,,,,,,
