"Interval"|"ms"|0|0|1,"Utc"|"ms"|0|0|1,"FrontBP"|"psi"|-5.0|5.0|25,"SteerAng"|"Degrees"|-145.0|145.0|25,"Battery"|"Volts"|-5.0|20.0|1,"AccelX"|"G"|-3.0|3.0|25,"AccelY"|"G"|-3.0|3.0|25,"AccelZ"|"G"|-3.0|3.0|25,"Yaw"|"Deg/Sec"|-120|120|25,"Pitch"|"Deg/Sec"|-120|120|25,"Roll"|"Deg/Sec"|-120|120|25,"Gsum"|"G"|0.0|3.0|25,"GsumMax"|"G"|0.0|3.0|25,"GsumPct"|"%"|0|100|25,"RPM"|""|0|10000|25,"TPS"|"%"|0.0|100.0|25,"InjectorPW"|"ms"|0.0|100.0|25,"Baro"|"kPa"|0|105|1,"MAP"|"Psi"|0.0|255.0|25,"Lambda"|""|-2.0|2.0|25,"IAT"|"C"|0.0|200.0|25,"EngineTemp"|"C"|0|200|1,"EOP"|"PSI"|0.0|152.0|25,"EOT"|"F"|0|250|25,"WSFR"|"MPH"|0|150|10,"WSFL"|"MPH"|0|100|10,"WSRR"|"MPH"|0|100|10,"WSRL"|""|0|100|10,"TCSet"|"%"|0.0|100.0|10,"TCSlip"|"%"|0.0|100.0|10,"TCComp"|"deg"|0.0|50.0|10,"TCCut"|"%"|0.0|100.0|10,"Analog8"|""|0.0|5.0|10,"OilTemp"|"F"|0|300|1,"AA_On"|""|0.0|1.0|1,"ThermLF1"|"C"|0|400|50,"ThermLF2"|"C"|0|400|50,"ThermRR1"|"C"|0|400|50,"ThermRR2"|"C"|0|400|50,"ThermLF3"|"C"|0|400|50,"ThermLF4"|"C"|0|400|50,"ThermLF5"|"C"|0|400|50,"ThermLF6"|"C"|0|400|50,"ThermLF7"|"C"|0|400|50,"ThermLF8"|"C"|0|400|50,"ThermRR3"|"C"|0|400|50,"ThermRR4"|"C"|0|400|50,"ThermRR5"|"C"|0|400|50,"ThermRR6"|"C"|0|400|50,"ThermRR7"|"C"|0|400|50,"ThermRR8"|"C"|0|400|50,"Gear"|""|1|6|10,"AA_On"|""|0.0|1.0|1,"AA_LowDrag"|""|0|1|1,"Fuel_Mix"|""|-10|10|1,"AA_Packages"|""|0.0|1000.0|25,"Latitude"|"Degrees"|-180.0|180.0|10,"Longitude"|"Degrees"|-180.0|180.0|10,"Speed"|"kph"|0.0|150.0|10,"GPSSats"|""|0|20|10,"GPSQual"|""|0|5|10,"GPSDOP"|""|0.0|20.0|10
2166834,1745089288905,,,,,,,,,,,,,,,,,,,,,,,,,,,,,,,,,,0,0,0,0,0,0,0,0,0,0,0,0,0,0,0,0,,,,,,,,,,,
2166854,1745089288925,0.0,183.51,,0.05,-0.12,0.8,2,-0,-1,0.81,0.81,100,4489,14.2,3.47,,12.72,1.011,95.2,,28.2,5,,,,,,,,,,,,0,0,0,0,0,0,0,0,0,0,0,0,0,0,0,0,,,,,0.0,,,,,,
2166874,1745089288945,,,,,,,,,,,,,,,,,,,,,,,,,,,,,,,,,,0,0,0,0,0,0,0,0,0,0,0,0,0,0,0,0,,,,,,,,,,,
2166894,1745089288965,0.0,183.51,,0.08,-0.11,0.74,2,-0,-1,0.75,0.81,93,4463,14.1,3.49,,12.79,1.02,95.2,,28.2,5,,,,,,,,,,,,0,0,0,0,0,0,0,0,0,0,0,0,0,0,0,0,,,,,0.0,,,,,,
2166914,1745089288985,,,,,,,,,,,,,,,,,,,,,,,0,0,0,0,0.0,0.0,0.0,0.0,2.26,,,0,0,0,0,0,0,0,0,0,0,0,0,0,0,0,0,0,,,,,39.239918,-77.96563,0.04,34,3,0.9
2166934,1745089288997,0.0,183.63,,0.1,-0.18,0.66,3,-0,-2,0.7,0.81,86,4424,14.0,3.48,,12.68,1.02,95.2,,28.2,5,,,,,,,,,,,,0,0,0,0,0,0,0,0,0,0,0,0,0,0,0,0,,,,,0.0,,,,,,
2166954,1745089289017,,,,,,,,,,,,,,,,,,,,,,,,,,,,,,,,,,0,0,0,0,0,0,0,0,0,0,0,0,0,0,0,0,,,,,,,,,,,
2166974,1745089289037,0.0,183.63,,0.1,-0.23,0.63,3,-0,-2,0.68,0.81,84,4419,14.0,3.53,,12.68,1.02,95.2,,26.9,5,,,,,,,,,,,,0,0,0,0,0,0,0,0,0,0,0,0,0,0,0,0,,,,,0.0,,,,,,
2166994,1745089289057,,,,,,,,,,,,,,,,,,,,,,,,,,,,,,,,,,0,0,0,0,0,0,0,0,0,0,0,0,0,0,0,0,,,,,,,,,,,
2167014,1745089289077,0.0,183.63,,0.04,-0.19,0.72,2,-0,-1,0.75,0.81,93,4419,14.0,3.53,,12.72,1.02,95.2,,26.9,5,0,0,0,0,0.0,0.0,0.0,0.0,2.26,,,0,0,0,0,0,0,0,0,0,0,0,0,0,0,0,0,0,,,,0.0,39.239918,-77.96563,0.04,34,3,0.9
2167034,1745089289101,,,,,,,,,,,,,,,,,,,,,,,,,,,,,,,,,,0,0,0,0,0,0,0,0,0,0,0,0,0,0,0,0,,,,,,,,,,,
2167054,1745089289121,0.0,183.51,,0.0,-0.09,0.85,1,-0,-1,0.85,0.85,100,4336,14.1,3.53,,12.79,1.009,95.2,,26.7,5,,,,,,,,,,,,0,0,0,0,0,0,0,0,0,0,0,0,0,0,0,0,,,,,0.0,,,,,,
2167074,1745089289141,,,,,,,,,,,,,,,,,,,,,,,,,,,,,,,,,,0,0,0,0,0,0,0,0,0,0,0,0,0,0,0,0,,,,,,,,,,,
2167094,1745089289161,0.0,183.51,,0.04,-0.07,0.83,1,-0,-1,0.84,0.85,98,4302,14.2,3.52,,12.83,1.044,95.2,,26.7,5,,,,,,,,,,,,0,0,0,0,0,0,0,0,0,0,0,0,0,0,0,0,,,,,0.0,,,,,,
2167114,1745089289181,,,,,,,,,,,,,,,,,,,,,,,0,0,0,0,0.0,0.0,0.0,0.0,2.26,,,0,0,0,0,0,0,0,0,0,0,0,0,0,0,0,0,0,,,,,39.239918,-77.96563,0.04,34,3,0.9
2167134,1745089289200,0.0,183.38,,0.02,-0.15,0.81,1,-0,-1,0.82,0.85,97,4185,14.3,3.54,,12.85,1.042,95.2,,26.7,5,,,,,,,,,,,,0,0,0,0,0,0,0,0,0,0,0,0,0,0,0,0,,,,,0.0,,,,,,
2167154,1745089289220,,,,,,,,,,,,,,,,,,,,,,,,,,,,,,,,,,0,0,0,0,0,0,0,0,0,0,0,0,0,0,0,0,,,,,,,,,,,
2167174,1745089289240,0.0,183.51,,-0.01,-0.05,0.96,0,-0,-0,0.96,0.96,100,4192,14.9,3.64,,12.85,1.042,95.2,,26.1,5,,,,,,,,,,,,0,0,0,0,0,0,0,0,0,0,0,0,0,0,0,0,,,,,0.0,,,,,,
2167194,1745089289260,,,,,,,,,,,,,,,,,,,,,,,,,,,,,,,,,,0,0,0,0,0,0,0,0,0,0,0,0,0,0,0,0,,,,,,,,,,,
2167214,1745089289280,0.0,183.38,,0.01,-0.1,0.87,1,-0,-1,0.88,0.96,92,4192,14.9,3.64,,12.85,1.009,95.2,,26.1,5,0,0,0,0,0.0,0.0,0.0,0.0,2.25,,,0,0,0,0,0,0,0,0,0,0,0,0,0,0,0,0,0,,,,0.0,39.239918,-77.96563,0.04,34,3,0.9
2167234,1745089289304,,,,,,,,,,,,,,,,,,,,,,,,,,,,,,,,,,0,0,0,0,0,0,0,0,0,0,0,0,0,0,0,0,,,,,,,,,,,
2167254,1745089289324,0.0,183.38,,-0.0,-0.13,0.87,1,-0,-0,0.88,0.96,92,4249,15.8,3.75,,12.84,1.011,95.2,,26.0,5,,,,,,,,,,,,0,0,0,0,0,0,0,0,0,0,0,0,0,0,0,0,,,,,0.0,,,,,,
2167274,1745089289344,,,,,,,,,,,,,,,,,,,,,,,,,,,,,,,,,,0,0,0,0,0,0,0,0,0,0,0,0,0,0,0,0,,,,,,,,,,,
2167294,1745089289364,0.0,183.26,,-0.01,-0.01,1.0,0,-0,0,1.0,1.0,100,4258,16.9,3.84,,12.92,1.032,95.2,,26.0,5,,,,,,,,,,,,0,0,0,0,0,0,0,0,0,0,0,0,0,0,0,0,,,,,0.0,,,,,,
2167314,1745089289384,,,,,,,,,,,,,,,,,,,,,,,0,0,0,0,0.0,0.0,0.0,0.0,2.26,,,0,0,0,0,0,0,0,0,0,0,0,0,0,0,0,0,0,,,,,39.239918,-77.96563,0.05,34,3,0.9
2167334,1745089289402,0.0,183.26,,0.0,-0.04,0.91,1,-0,-0,0.91,1.0,91,4224,19.5,3.9,,13.15,1.069,95.2,,26.0,5,,,,,,,,,,,,0,0,0,0,0,0,0,0,0,0,0,0,0,0,0,0,,,,,0.0,,,,,,
2167354,1745089289422,,,,,,,,,,,,,,,,,,,,,,,,,,,,,,,,,,0,0,0,0,0,0,0,0,0,0,0,0,0,0,0,0,,,,,,,,,,,
2167374,1745089289442,0.0,183.26,,-0.0,-0.11,0.83,1,-0,-1,0.83,1.0,84,4260,20.0,3.92,,13.15,1.069,95.2,,26.4,5,,,,,,,,,,,,0,0,0,0,0,0,0,0,0,0,0,0,0,0,0,0,,,,,0.0,,,,,,
2167394,1745089289462,,,,,,,,,,,,,,,,,,,,,,,,,,,,,,,,,,0,0,0,0,0,0,0,0,0,0,0,0,0,0,0,0,,,,,,,,,,,
2167414,1745089289482,0.0,183.13,13.45,-0.04,-0.05,0.9,0,-0,-0,0.9,1.0,91,4260,20.0,3.92,15,13.23,1.043,95.2,192,26.4,5,0,0,0,0,0.0,0.0,0.0,0.0,2.26,0,0.0,0,0,0,0,0,0,0,0,0,0,0,0,0,0,0,0,0,0.0,0,0,0.0,39.239918,-77.96563,0.04,34,3,0.9
2167434,1745089289504,,,,,,,,,,,,,,,,,,,,,,,,,,,,,,,,,,0,0,0,0,0,0,0,0,0,0,0,0,0,0,0,0,,,,,,,,,,,
2167454,1745089289524,0.0,183.01,,-0.1,-0.01,1.01,-1,-0,0,1.01,1.01,100,4414,20.1,3.91,,13.23,1.033,95.2,,27.1,5,,,,,,,,,,,,0,0,0,0,0,0,0,0,0,0,0,0,0,0,0,0,,,,,0.0,,,,,,
2167474,1745089289544,,,,,,,,,,,,,,,,,,,,,,,,,,,,,,,,,,0,0,0,0,0,0,0,0,0,0,0,0,0,0,0,0,,,,,,,,,,,
2167494,1745089289564,0.0,183.01,,-0.12,0.08,1.08,-1,-0,1,1.09,1.09,100,4473,20.1,3.88,,13.23,1.031,95.2,,27.1,5,,,,,,,,,,,,0,0,0,0,0,0,0,0,0,0,0,0,0,0,0,0,,,,,0.0,,,,,,
2167514,1745089289584,,,,,,,,,,,,,,,,,,,,,,,0,0,0,0,0.0,0.0,0.0,0.0,2.26,,,0,0,0,0,0,0,0,0,0,0,0,0,0,0,0,0,0,,,,,39.239918,-77.96563,0.11,34,3,0.9
2167534,1745089289604,0.0,182.88,,-0.16,0.1,1.15,-2,-0,1,1.17,1.17,100,4575,20.1,3.82,,13.16,1.05,95.2,,27.1,5,,,,,,,,,,,,0,0,0,0,0,0,0,0,0,0,0,0,0,0,0,0,,,,,0.0,,,,,,
2167554,1745089289624,,,,,,,,,,,,,,,,,,,,,,,,,,,,,,,,,,0,0,0,0,0,0,0,0,0,0,0,0,0,0,0,0,,,,,,,,,,,
2167574,1745089289644,0.0,182.88,,-0.19,0.07,1.14,-3,-0,2,1.16,1.17,99,4660,20.3,3.77,,13.16,1.05,95.2,,28.3,5,,,,,,,,,,,,0,0,0,0,0,0,0,0,0,0,0,0,0,0,0,0,,,,,0.0,,,,,,
2167594,1745089289664,,,,,,,,,,,,,,,,,,,,,,,,,,,,,,,,,,0,0,0,0,0,0,0,0,0,0,0,0,0,0,0,0,,,,,,,,,,,
2167614,1745089289684,0.0,182.88,,-0.17,-0.04,1.06,-2,-0,1,1.07,1.17,92,4660,20.3,3.77,,13.21,1.11,95.2,,28.3,5,0,0,0,0,0.0,0.0,0.0,0.0,2.26,,,0,0,0,0,0,0,0,0,0,0,0,0,0,0,0,0,0,,,,0.0,39.239918,-77.96563,0.04,34,3,0.9
2167634,1745089289704,,,,,,,,,,,,,,,,,,,,,,,,,,,,,,,,,,0,0,0,0,0,0,0,0,0,0,0,0,0,0,0,0,,,,,,,,,,,
2167654,1745089289724,0.0,183.01,,-0.11,-0.05,1.02,-1,-0,0,1.03,1.17,88,4717,20.4,3.7,,13.23,1.162,95.2,,28.9,5,,,,,,,,,,,,0,0,0,0,0,0,0,0,0,0,0,0,0,0,0,0,,,,,0.0,,,,,,
2167674,1745089289744,,,,,,,,,,,,,,,,,,,,,,,,,,,,,,,,,,0,0,0,0,0,0,0,0,0,0,0,0,0,0,0,0,,,,,,,,,,,
2167694,1745089289764,0.0,182.88,,-0.13,0.06,1.08,-2,-0,1,1.09,1.17,93,4705,20.4,3.66,,13.21,1.221,95.2,,28.9,5,,,,,,,,,,,,0,0,0,0,0,0,0,0,0,0,0,0,0,0,0,0,,,,,0.0,,,,,,
2167714,1745089289784,,,,,,,,,,,,,,,,,,,,,,,0,0,0,0,0.0,0.0,0.0,0.0,2.26,,,0,0,0,0,0,0,0,0,0,0,0,0,0,0,0,0,0,,,,,39.239918,-77.96563,0.05,34,3,0.9
2167734,1745089289804,0.0,182.88,,-0.12,-0.02,1.02,-2,-0,1,1.03,1.17,88,4718,20.4,3.65,,13.21,1.224,95.2,,28.9,5,,,,,,,,,,,,0,0,0,0,0,0,0,0,0,0,0,0,0,0,0,0,,,,,0.0,,,,,,
2167754,1745089289824,,,,,,,,,,,,,,,,,,,,,,,,,,,,,,,,,,0,0,0,0,0,0,0,0,0,0,0,0,0,0,0,0,,,,,,,,,,,
2167774,1745089289844,0.0,183.01,,-0.07,-0.07,0.97,-1,-0,0,0.97,1.17,83,4763,20.4,3.61,,13.21,1.224,95.2,,29.8,5,,,,,,,,,,,,0,0,0,0,0,0,0,0,0,0,0,0,0,0,0,0,,,,,0.0,,,,,,
2167794,1745089289864,,,,,,,,,,,,,,,,,,,,,,,,,,,,,,,,,,0,0,0,0,0,0,0,0,0,0,0,0,0,0,0,0,,,,,,,,,,,
2167814,1745089289884,0.0,182.88,,-0.1,0.03,1.03,-1,-0,1,1.03,1.17,88,4763,20.4,3.61,,13.21,1.247,93.4,,29.8,5,0,0,0,0,0.0,0.0,0.0,0.0,2.26,,,0,0,0,0,0,0,0,0,0,0,0,0,0,0,0,0,0,,,,0.0,39.239918,-77.96563,0.0,34,3,0.9
2167834,1745089289904,,,,,,,,,,,,,,,,,,,,,,,,,,,,,,,,,,0,0,0,0,0,0,0,0,0,0,0,0,0,0,0,0,,,,,,,,,,,
2167854,1745089289924,0.0,182.88,,-0.09,-0.05,0.98,-0,-0,0,0.98,1.17,84,4789,20.4,3.6,,13.2,1.239,93.4,,30.1,5,,,,,,,,,,,,0,0,0,0,0,0,0,0,0,0,0,0,0,0,0,0,,,,,0.0,,,,,,
2167874,1745089289944,,,,,,,,,,,,,,,,,,,,,,,,,,,,,,,,,,0,0,0,0,0,0,0,0,0,0,0,0,0,0,0,0,,,,,,,,,,,
2167894,1745089289964,0.0,182.88,,-0.1,0.01,1.02,-1,-0,1,1.02,1.17,88,4916,20.3,3.55,,13.28,1.233,93.4,,30.1,5,,,,,,,,,,,,0,0,0,0,0,0,0,0,0,0,0,0,0,0,0,0,,,,,0.0,,,,,,
2167914,1745089289984,,,,,,,,,,,,,,,,,,,,,,,0,0,0,0,0.0,0.0,0.0,0.0,2.26,,,0,0,0,0,0,0,0,0,0,0,0,0,0,0,0,0,0,,,,,39.239918,-77.96563,0.05,34,3,0.9
2167934,1745089289996,0.0,182.88,,-0.07,-0.03,0.98,-0,-0,0,0.99,1.17,84,4936,20.4,3.57,,13.12,1.101,93.4,,30.1,5,,,,,,,,,,,,0,0,0,0,0,0,0,0,0,0,0,0,0,0,0,0,,,,,0.0,,,,,,
2167954,1745089290016,,,,,,,,,,,,,,,,,,,,,,,,,,,,,,,,,,0,0,0,0,0,0,0,0,0,0,0,0,0,0,0,0,,,,,,,,,,,
2167974,1745089290036,0.0,182.88,,-0.1,0.0,1.01,-1,-0,1,1.01,1.17,87,4909,20.5,3.59,,13.12,1.101,93.4,,30.6,5,,,,,,,,,,,,0,0,0,0,0,0,0,0,0,0,0,0,0,0,0,0,,,,,0.0,,,,,,
2167994,1745089290056,,,,,,,,,,,,,,,,,,,,,,,,,,,,,,,,,,0,0,0,0,0,0,0,0,0,0,0,0,0,0,0,0,,,,,,,,,,,
2168014,1745089290076,0.0,182.88,,-0.06,-0.07,0.97,-0,-0,0,0.97,1.17,83,4909,20.5,3.59,,13.15,1.066,93.4,,30.6,5,0,0,0,0,0.0,0.0,0.0,0.0,2.26,,,0,0,0,0,0,0,0,0,0,0,0,0,0,0,0,0,0,,,,0.0,39.239918,-77.96563,0.04,33,3,0.9
2168034,1745089290100,,,,,,,,,,,,,,,,,,,,,,,,,,,,,,,,,,0,0,0,0,0,0,0,0,0,0,0,0,0,0,0,0,,,,,,,,,,,
2168054,1745089290120,0.0,182.88,,-0.1,-0.01,1.0,-1,-0,0,1.01,1.17,86,4920,20.9,3.61,,13.16,1.029,93.4,,30.6,5,,,,,,,,,,,,0,0,0,0,0,0,0,0,0,0,0,0,0,0,0,0,,,,,0.0,,,,,,
2168074,1745089290140,,,,,,,,,,,,,,,,,,,,,,,,,,,,,,,,,,0,0,0,0,0,0,0,0,0,0,0,0,0,0,0,0,,,,,,,,,,,
2168094,1745089290160,0.0,182.88,,-0.05,-0.05,0.97,0,-0,-0,0.97,1.17,83,4901,21.7,3.67,,13.25,1.029,93.4,,30.6,5,,,,,,,,,,,,0,0,0,0,0,0,0,0,0,0,0,0,0,0,0,0,,,,,0.0,,,,,,
2168114,1745089290180,,,,,,,,,,,,,,,,,,,,,,,0,0,0,0,0.0,0.0,0.0,0.0,2.26,,,0,0,0,0,0,0,0,0,0,0,0,0,0,0,0,0,0,,,,,39.239918,-77.96563,0.0,32,3,0.9
2168134,1745089290203,0.0,182.88,,-0.08,-0.05,0.99,-0,-0,0,1.0,1.17,85,4919,23.5,3.83,,13.27,1.03,93.4,,30.6,5,,,,,,,,,,,,0,0,0,0,0,0,0,0,0,0,0,0,0,0,0,0,,,,,0.0,,,,,,
2168154,1745089290223,,,,,,,,,,,,,,,,,,,,,,,,,,,,,,,,,,0,0,0,0,0,0,0,0,0,0,0,0,0,0,0,0,,,,,,,,,,,
2168174,1745089290243,0.0,182.88,,-0.09,-0.02,0.98,-0,-0,0,0.98,1.17,84,5172,24.0,3.78,,13.27,1.03,93.4,,30.6,5,,,,,,,,,,,,0,0,0,0,0,0,0,0,0,0,0,0,0,0,0,0,,,,,0.0,,,,,,
2168194,1745089290263,,,,,,,,,,,,,,,,,,,,,,,,,,,,,,,,,,0,0,0,0,0,0,0,0,0,0,0,0,0,0,0,0,,,,,,,,,,,
2168214,1745089290283,0.0,182.88,,-0.09,-0.02,0.95,-0,-0,0,0.96,1.17,82,5172,24.0,3.78,,13.35,1.03,93.4,,30.6,5,0,0,0,0,0.0,0.0,0.0,0.0,2.25,,,0,0,0,0,0,0,0,0,0,0,0,0,0,0,0,0,0,,,,0.0,39.239918,-77.96563,0.11,32,3,0.9
2168234,1745089290303,,,,,,,,,,,,,,,,,,,,,,,,,,,,,,,,,,0,0,0,0,0,0,0,0,0,0,0,0,0,0,0,0,,,,,,,,,,,
2168254,1745089290323,0.0,182.88,,-0.1,-0.01,0.95,0,-0,-0,0.95,1.17,82,5319,25.0,4.02,,13.28,1.033,93.4,,33.3,5,,,,,,,,,,,,0,0,0,0,0,0,0,0,0,0,0,0,0,0,0,0,,,,,0.0,,,,,,
2168274,1745089290343,,,,,,,,,,,,,,,,,,,,,,,,,,,,,,,,,,0,0,0,0,0,0,0,0,0,0,0,0,0,0,0,0,,,,,,,,,,,
2168294,1745089290363,0.0,182.88,,-0.08,0.01,1.0,0,-0,0,1.0,1.17,86,5376,25.8,4.18,,13.27,1.006,93.4,,33.3,5,,,,,,,,,,,,0,0,0,0,0,0,0,0,0,0,0,0,0,0,0,0,,,,,0.0,,,,,,
2168314,1745089290383,,,,,,,,,,,,,,,,,,,,,,,0,0,0,0,0.0,0.0,0.0,0.0,2.26,,,0,0,0,0,0,0,0,0,0,0,0,0,0,0,0,0,0,,,,,39.239918,-77.96563,0.09,32,3,0.9
2168334,1745089290403,0.0,182.76,,-0.1,-0.09,0.93,1,-0,-0,0.94,1.17,81,5688,27.0,4.43,,13.2,1.016,93.4,,33.3,5,,,,,,,,,,,,0,0,0,0,0,0,0,0,0,0,0,0,0,0,0,0,,,,,0.0,,,,,,
2168354,1745089290423,,,,,,,,,,,,,,,,,,,,,,,,,,,,,,,,,,0,0,0,0,0,0,0,0,0,0,0,0,0,0,0,0,,,,,,,,,,,
2168374,1745089290443,0.0,182.88,,-0.11,-0.13,0.89,1,-0,-0,0.91,1.17,78,6228,27.7,4.59,,13.2,1.016,93.4,,36.2,5,,,,,,,,,,,,0,0,0,0,0,0,0,0,0,0,0,0,0,0,0,0,,,,,0.0,,,,,,
2168394,1745089290463,,,,,,,,,,,,,,,,,,,,,,,,,,,,,,,,,,0,0,0,0,0,0,0,0,0,0,0,0,0,0,0,0,,,,,,,,,,,
2168414,1745089290483,0.0,182.76,13.39,-0.1,-0.16,0.9,0,-0,-0,0.92,1.17,79,6228,27.7,4.59,15,12.92,1.038,93.4,191,36.2,5,0,0,0,0,0.0,0.0,0.0,0.0,2.26,0,0.0,0,0,0,0,0,0,0,0,0,0,0,0,0,0,0,0,0,0.0,0,0,0.0,39.239918,-77.96563,0.04,32,3,0.9
2168434,1745089290503,,,,,,,,,,,,,,,,,,,,,,,,,,,,,,,,,,0,0,0,0,0,0,0,0,0,0,0,0,0,0,0,0,,,,,,,,,,,
2168454,1745089290523,0.0,182.76,,-0.1,-0.07,0.96,0,-0,0,0.97,1.17,83,6831,27.7,5.08,,12.59,1.078,93.4,,43.1,5,,,,,,,,,,,,0,0,0,0,0,0,0,0,0,0,0,0,0,0,0,0,,,,,0.0,,,,,,
2168474,1745089290543,,,,,,,,,,,,,,,,,,,,,,,,,,,,,,,,,,0,0,0,0,0,0,0,0,0,0,0,0,0,0,0,0,,,,,,,,,,,
2168494,1745089290563,0.0,182.76,,-0.07,-0.01,0.94,-1,-0,1,0.95,1.17,81,7501,28.3,5.19,,12.31,1.087,93.4,,43.1,5,,,,,,,,,,,,0,0,0,0,0,0,0,0,0,0,0,0,0,0,0,0,,,,,0.0,,,,,,
2168514,1745089290583,,,,,,,,,,,,,,,,,,,,,,,0,0,0,0,0.0,0.0,0.0,0.0,2.26,,,0,0,0,0,0,0,0,0,0,0,0,0,0,0,0,0,0,,,,,39.239918,-77.96563,0.09,32,3,0.9
2168534,1745089290603,0.0,182.63,,-0.04,-0.06,1.03,0,-0,0,1.03,1.17,88,8466,30.4,4.84,,11.97,1.022,93.4,,43.1,5,,,,,,,,,,,,0,0,0,0,0,0,0,0,0,0,0,0,0,0,0,0,,,,,0.0,,,,,,
2168554,1745089290623,,,,,,,,,,,,,,,,,,,,,,,,,,,,,,,,,,0,0,0,0,0,0,0,0,0,0,0,0,0,0,0,0,,,,,,,,,,,
2168574,1745089290643,0.0,182.63,,-0.05,-0.02,1.14,1,-0,1,1.14,1.17,98,9968,33.1,4.77,,11.97,1.022,93.4,,51.3,5,,,,,,,,,,,,0,0,0,0,0,0,0,0,0,0,0,0,0,0,0,0,,,,,0.0,,,,,,
2168594,1745089290663,,,,,,,,,,,,,,,,,,,,,,,,,,,,,,,,,,0,0,0,0,0,0,0,0,0,0,0,0,0,0,0,0,,,,,,,,,,,
2168614,1745089290683,0.0,182.63,,-0.03,-0.2,1.09,2,-0,-0,1.11,1.17,95,9968,33.1,4.77,,11.65,0.899,93.4,,51.3,5,0,0,0,0,0.0,0.0,0.0,0.0,2.26,,,0,0,0,0,0,0,0,0,0,0,0,0,0,0,0,0,0,,,,0.0,39.239918,-77.96563,0.11,32,3,0.9
2168634,1745089290705,,,,,,,,,,,,,,,,,,,,,,,,,,,,,,,,,,0,0,0,0,0,0,0,0,0,0,0,0,0,0,0,0,,,,,,,,,,,
2168654,1745089290725,0.0,182.63,,-0.03,-0.32,1.06,3,-0,-0,1.11,1.17,95,11329,34.3,3.72,,11.25,0.867,93.4,,50.8,5,,,,,,,,,,,,0,0,0,0,0,0,0,0,0,0,0,0,0,0,0,0,,,,,0.0,,,,,,
2168674,1745089290745,,,,,,,,,,,,,,,,,,,,,,,,,,,,,,,,,,0,0,0,0,0,0,0,0,0,0,0,0,0,0,0,0,,,,,,,,,,,
2168694,1745089290765,0.0,182.38,,-0.07,-0.21,1.0,3,-0,-1,1.03,1.17,88,12400,36.6,3.75,,11.02,0.867,93.4,,50.8,5,,,,,,,,,,,,0,0,0,0,0,0,0,0,0,0,0,0,0,0,0,0,,,,,0.0,,,,,,
2168714,1745089290785,,,,,,,,,,,,,,,,,,,,,,,0,0,0,0,0.0,0.0,0.0,0.0,2.26,,,0,0,0,0,0,0,0,0,0,0,0,0,0,0,0,0,0,,,,,39.239918,-77.96563,0.0,32,3,0.9
2168734,1745089290805,0.0,182.38,,-0.02,-0.04,1.0,1,-0,-0,1.0,1.17,86,13258,38.7,3.21,,10.93,0.89,93.4,,50.8,5,,,,,,,,,,,,0,0,0,0,0,0,0,0,0,0,0,0,0,0,0,0,,,,,0.0,,,,,,
2168754,1745089290825,,,,,,,,,,,,,,,,,,,,,,,,,,,,,,,,,,0,0,0,0,0,0,0,0,0,0,0,0,0,0,0,0,,,,,,,,,,,
2168774,1745089290845,0.0,182.38,,-0.01,0.01,0.99,1,-0,-0,0.99,1.17,84,13863,43.9,3.61,,10.93,0.89,93.4,,60.0,5,,,,,,,,,,,,0,0,0,0,0,0,0,0,0,0,0,0,0,0,0,0,,,,,0.0,,,,,,
2168794,1745089290865,,,,,,,,,,,,,,,,,,,,,,,,,,,,,,,,,,0,0,0,0,0,0,0,0,0,0,0,0,0,0,0,0,,,,,,,,,,,
2168814,1745089290885,0.0,182.25,,-0.04,-0.02,1.03,1,-0,0,1.03,1.17,88,13863,43.9,3.61,,11.13,0.958,91.6,,60.0,5,0,0,0,0,0.0,0.0,0.0,0.0,2.26,,,0,0,0,0,0,0,0,0,0,0,0,0,0,0,0,0,0,,,,0.0,39.239918,-77.96563,0.04,32,3,0.9
2168834,1745089290903,,,,,,,,,,,,,,,,,,,,,,,,,,,,,,,,,,0,0,0,0,0,0,0,0,0,0,0,0,0,0,0,0,,,,,,,,,,,
2168854,1745089290923,0.0,182.13,,-0.02,-0.07,1.0,0,-0,1,1.01,1.17,86,13161,54.1,3.88,,11.69,1.01,91.6,,64.9,5,,,,,,,,,,,,0,0,0,0,0,0,0,0,0,0,0,0,0,0,0,0,,,,,0.0,,,,,,
2168874,1745089290943,,,,,,,,,,,,,,,,,,,,,,,,,,,,,,,,,,0,0,0,0,0,0,0,0,0,0,0,0,0,0,0,0,,,,,,,,,,,
2168894,1745089290963,0.0,182.13,,0.03,-0.15,0.98,0,0,1,0.99,1.17,85,12901,59.8,4.33,,12.48,1.246,91.6,,64.9,5,,,,,,,,,,,,0,0,0,0,0,0,0,0,0,0,0,0,0,0,0,0,,,,,0.0,,,,,,
2168914,1745089290983,,,,,,,,,,,,,,,,,,,,,,,0,0,0,0,0.0,0.0,0.0,0.0,2.26,,,0,0,0,0,0,0,0,0,0,0,0,0,0,0,0,0,0,,,,,39.239918,-77.96563,0.08,32,3,0.9
2168934,1745089290997,0.0,182.0,,0.1,-0.09,1.01,1,1,1,1.02,1.17,87,12755,61.2,4.42,,12.48,1.244,91.6,,64.9,5,,,,,,,,,,,,0,0,0,0,0,0,0,0,0,0,0,0,0,0,0,0,,,,,0.0,,,,,,
2168954,1745089291017,,,,,,,,,,,,,,,,,,,,,,,,,,,,,,,,,,0,0,0,0,0,0,0,0,0,0,0,0,0,0,0,0,,,,,,,,,,,
2168974,1745089291037,0.0,181.88,,0.2,-0.16,0.99,1,2,1,1.02,1.17,87,11497,62.4,4.0,,12.48,1.244,91.6,,60.7,5,,,,,,,,,,,,0,0,0,0,0,0,0,0,0,0,0,0,0,0,0,0,,,,,0.0,,,,,,
2168994,1745089291057,,,,,,,,,,,,,,,,,,,,,,,,,,,,,,,,,,0,0,0,0,0,0,0,0,0,0,0,0,0,0,0,0,,,,,,,,,,,
2169014,1745089291077,0.0,181.88,,0.26,-0.31,0.98,0,2,1,1.06,1.17,91,11497,62.4,4.0,,12.84,1.089,91.6,,60.7,5,0,0,0,0,0.0,0.0,0.0,0.0,2.26,,,0,0,0,0,0,0,0,0,0,0,0,0,0,0,0,0,0,,,,0.0,39.239918,-77.96563,0.4,32,3,0.9
2169034,1745089291100,,,,,,,,,,,,,,,,,,,,,,,,,,,,,,,,,,0,0,0,0,0,0,0,0,0,0,0,0,0,0,0,0,,,,,,,,,,,
2169054,1745089291120,0.0,181.62,,0.3,-0.43,0.98,-1,1,1,1.11,1.17,95,9704,62.0,5.38,,13.27,1.078,91.6,,53.8,5,,,,,,,,,,,,0,0,0,0,0,0,0,0,0,0,0,0,0,0,0,0,,,,,0.0,,,,,,
2169074,1745089291140,,,,,,,,,,,,,,,,,,,,,,,,,,,,,,,,,,0,0,0,0,0,0,0,0,0,0,0,0,0,0,0,0,,,,,,,,,,,
2169094,1745089291160,0.0,181.5,,0.36,-0.35,0.96,-0,1,1,1.08,1.17,93,8379,62.6,5.26,,13.75,1.206,91.6,,53.8,5,,,,,,,,,,,,0,0,0,0,0,0,0,0,0,0,0,0,0,0,0,0,,,,,0.0,,,,,,
2169114,1745089291180,,,,,,,,,,,,,,,,,,,,,,,3,0,18,14,0.0,0.0,0.0,0.0,2.26,,,0,0,0,0,0,0,0,0,0,0,0,0,0,0,0,0,0,,,,,39.239918,-77.96563,2.44,32,3,0.9
2169134,1745089291202,0.0,181.25,,0.4,-0.12,0.98,-3,1,2,1.06,1.17,91,7304,70.2,5.49,,14.04,1.09,91.6,,53.8,5,,,,,,,,,,,,0,0,0,0,0,0,0,0,0,0,0,0,0,0,0,0,,,,,0.0,,,,,,
2169154,1745089291222,,,,,,,,,,,,,,,,,,,,,,,,,,,,,,,,,,0,0,0,0,0,0,0,0,0,0,0,0,0,0,0,0,,,,,,,,,,,
2169174,1745089291242,0.0,181.12,,0.45,-0.15,0.96,-2,1,1,1.07,1.17,91,6953,71.5,5.49,,14.04,1.09,91.6,,44.6,5,,,,,,,,,,,,0,0,0,0,0,0,0,0,0,0,0,0,0,0,0,0,,,,,0.0,,,,,,
2169194,1745089291262,,,,,,,,,,,,,,,,,,,,,,,,,,,,,,,,,,0,0,0,0,0,0,0,0,0,0,0,0,0,0,0,0,,,,,,,,,,,
2169214,1745089291282,0.0,181.0,,0.5,-0.13,1.01,-1,1,1,1.14,1.17,97,6953,71.5,5.49,,14.02,1.009,91.6,,44.6,5,6,0,30,28,0.0,0.0,0.0,0.0,2.26,,,0,0,0,0,0,0,0,0,0,0,0,0,0,0,0,0,0,,,,0.0,39.239918,-77.96563,7.46,32,3,0.9
2169234,1745089291304,,,,,,,,,,,,,,,,,,,,,,,,,,,,,,,,,,0,0,0,0,0,0,0,0,0,0,0,0,0,0,0,0,,,,,,,,,,,
2169254,1745089291324,0.0,181.12,,0.54,0.04,1.06,-1,1,1,1.19,1.19,100,6279,71.7,5.45,,14.18,1.029,91.6,,36.7,5,,,,,,,,,,,,0,0,0,0,0,0,0,0,0,0,0,0,0,0,0,0,,,,,0.0,,,,,,
2169274,1745089291344,,,,,,,,,,,,,,,,,,,,,,,,,,,,,,,,,,0,0,0,0,0,0,0,0,0,0,0,0,0,0,0,0,,,,,,,,,,,
2169294,1745089291364,0.0,181.12,,0.55,0.06,1.05,1,0,1,1.19,1.19,100,5886,71.9,5.47,,14.03,1.041,91.6,,36.7,5,,,,,,,,,,,,0,0,0,0,0,0,0,0,0,0,0,0,0,0,0,0,,,,,0.0,,,,,,
2169314,1745089291384,,,,,,,,,,,,,,,,,,,,,,,7,0,24,23,0.0,122.0,0.0,0.0,2.25,,,0,0,0,0,0,0,0,0,0,0,0,0,0,0,0,0,2,,,,,39.239914,-77.96563,9.96,32,3,0.9
2169334,1745089291404,0.0,181.0,,0.58,0.06,1.05,2,0,1,1.2,1.2,100,5373,71.9,5.49,,14.16,0.99,91.6,,36.7,5,,,,,,,,,,,,0,0,0,0,0,0,0,0,0,0,0,0,0,0,0,0,,,,,0.0,,,,,,
2169354,1745089291424,,,,,,,,,,,,,,,,,,,,,,,,,,,,,,,,,,0,0,0,0,0,0,0,0,0,0,0,0,0,0,0,0,,,,,,,,,,,
2169374,1745089291444,0.0,181.0,,0.64,0.12,1.08,2,0,1,1.27,1.27,100,4598,71.9,5.32,,14.16,0.99,91.6,,31.3,5,,,,,,,,,,,,0,0,0,0,0,0,0,0,0,0,0,0,0,0,0,0,,,,,0.0,,,,,,
2169394,1745089291464,,,,,,,,,,,,,,,,,,,,,,,,,,,,,,,,,,0,0,0,0,0,0,0,0,0,0,0,0,0,0,0,0,,,,,,,,,,,
2169414,1745089291484,0.0,181.0,13.43,0.7,0.07,1.05,3,0,1,1.27,1.27,100,4598,71.9,5.32,15,14.24,0.918,91.6,185,31.3,5,10,0,19,19,0.0,76.0,0.0,0.0,2.25,0,0.0,0,0,0,0,0,0,0,0,0,0,0,0,0,0,0,0,2,0.0,0,0,0.0,39.239914,-77.96563,13.36,32,3,0.9
2169434,1745089291504,,,,,,,,,,,,,,,,,,,,,,,,,,,,,,,,,,0,0,0,0,0,0,0,0,0,0,0,0,0,0,0,0,,,,,,,,,,,
2169454,1745089291524,0.0,181.0,,0.7,0.05,1.04,4,0,0,1.26,1.27,99,3792,71.8,4.66,,14.26,0.921,91.6,,20.4,5,,,,,,,,,,,,0,0,0,0,0,0,0,0,0,0,0,0,0,0,0,0,,,,,0.0,,,,,,
2169474,1745089291544,,,,,,,,,,,,,,,,,,,,,,,,,,,,,,,,,,0,0,0,0,0,0,0,0,0,0,0,0,0,0,0,0,,,,,,,,,,,
2169494,1745089291564,0.0,181.0,,0.61,0.06,1.06,4,-1,0,1.23,1.27,97,2712,71.8,4.03,,14.31,0.862,91.6,,20.4,5,,,,,,,,,,,,0,0,0,0,0,0,0,0,0,0,0,0,0,0,0,0,,,,,0.0,,,,,,
2169514,1745089291584,,,,,,,,,,,,,,,,,,,,,,,11,0,12,12,0.0,136.0,0.0,0.0,2.26,,,0,0,0,0,0,0,0,0,0,0,0,0,0,0,0,0,2,,,,,39.23991,-77.96563,16.15,32,3,0.9
2169534,1745089291604,0.0,181.0,,0.51,0.01,1.06,3,-1,0,1.17,1.27,93,2407,72.4,4.46,,14.27,0.831,91.6,,20.4,5,,,,,,,,,,,,0,0,0,0,0,0,0,0,0,0,0,0,0,0,0,0,,,,,0.0,,,,,,
2169554,1745089291624,,,,,,,,,,,,,,,,,,,,,,,,,,,,,,,,,,0,0,0,0,0,0,0,0,0,0,0,0,0,0,0,0,,,,,,,,,,,
2169574,1745089291644,0.0,181.0,,0.43,0.05,1.02,3,-1,0,1.11,1.27,88,2748,72.3,4.29,,14.27,0.831,91.6,,15.5,5,,,,,,,,,,,,0,0,0,0,0,0,0,0,0,0,0,0,0,0,0,0,,,,,0.0,,,,,,
2169594,1745089291664,,,,,,,,,,,,,,,,,,,,,,,,,,,,,,,,,,0,0,0,0,0,0,0,0,0,0,0,0,0,0,0,0,,,,,,,,,,,
2169614,1745089291684,0.0,181.0,,0.37,0.01,0.97,4,-1,-0,1.04,1.27,82,2748,72.3,4.29,,14.26,0.842,91.6,,15.5,5,12,0,11,11,0.0,251.0,0.0,0.0,2.26,,,0,0,0,0,0,0,0,0,0,0,0,0,0,0,0,0,2,,,,0.0,39.239906,-77.965637,19.42,32,3,0.9
2169634,1745089291702,,,,,,,,,,,,,,,,,,,,,,,,,,,,,,,,,,0,0,0,0,0,0,0,0,0,0,0,0,0,0,0,0,,,,,,,,,,,
2169654,1745089291722,0.0,181.0,,0.4,0.07,0.92,3,-0,0,1.0,1.27,79,3059,72.3,4.1,,14.27,0.853,91.6,,19.3,5,,,,,,,,,,,,0,0,0,0,0,0,0,0,0,0,0,0,0,0,0,0,,,,,0.0,,,,,,
2169674,1745089291742,,,,,,,,,,,,,,,,,,,,,,,,,,,,,,,,,,0,0,0,0,0,0,0,0,0,0,0,0,0,0,0,0,,,,,,,,,,,
2169694,1745089291762,0.0,180.87,,0.42,0.08,0.94,3,-0,0,1.03,1.27,81,3223,72.9,4.14,,14.31,0.851,91.6,,19.3,5,,,,,,,,,,,,0,0,0,0,0,0,0,0,0,0,0,0,0,0,0,0,,,,,0.0,,,,,,
2169714,1745089291782,,,,,,,,,,,,,,,,,,,,,,,12,0,12,13,0.0,58.0,0.0,0.0,2.26,,,0,0,0,0,0,0,0,0,0,0,0,0,0,0,0,0,2,,,,,39.239906,-77.965637,18.82,32,3,0.9
2169734,1745089291804,0.0,181.0,,0.35,0.09,0.93,3,-1,0,1.0,1.27,79,2592,72.3,4.05,,14.28,0.863,91.6,,19.3,5,,,,,,,,,,,,0,0,0,0,0,0,0,0,0,0,0,0,0,0,0,0,,,,,0.0,,,,,,
2169754,1745089291824,,,,,,,,,,,,,,,,,,,,,,,,,,,,,,,,,,0,0,0,0,0,0,0,0,0,0,0,0,0,0,0,0,,,,,,,,,,,
2169774,1745089291844,0.0,181.0,,0.31,0.05,1.02,4,-1,-0,1.07,1.27,84,2919,72.3,4.17,,14.28,0.863,91.6,,16.7,5,,,,,,,,,,,,0,0,0,0,0,0,0,0,0,0,0,0,0,0,0,0,,,,,0.0,,,,,,
2169794,1745089291864,,,,,,,,,,,,,,,,,,,,,,,,,,,,,,,,,,0,0,0,0,0,0,0,0,0,0,0,0,0,0,0,0,,,,,,,,,,,
2169814,1745089291884,0.0,181.0,,0.27,0.0,1.1,5,-1,-0,1.14,1.27,90,2919,72.3,4.17,,14.24,0.928,95.2,,16.7,5,13,0,13,12,0.0,235.0,0.0,0.0,2.25,,,0,0,0,0,0,0,0,0,0,0,0,0,0,0,0,0,3,,,,0.0,39.239902,-77.965645,18.7,32,3,0.9
2169834,1745089291904,,,,,,,,,,,,,,,,,,,,,,,,,,,,,,,,,,0,0,0,0,0,0,0,0,0,0,0,0,0,0,0,0,,,,,,,,,,,
2169854,1745089291924,0.0,181.12,,0.24,0.03,1.07,6,-0,-0,1.1,1.27,87,3152,72.3,4.05,,14.27,0.987,95.2,,19.3,5,,,,,,,,,,,,0,0,0,0,0,0,0,0,0,0,0,0,0,0,0,0,,,,,0.0,,,,,,
2169874,1745089291944,,,,,,,,,,,,,,,,,,,,,,,,,,,,,,,,,,0,0,0,0,0,0,0,0,0,0,0,0,0,0,0,0,,,,,,,,,,,
2169894,1745089291964,0.0,181.25,,0.25,0.09,0.99,6,-1,-0,1.02,1.27,81,3144,72.5,4.11,,14.28,1.031,95.2,,19.3,5,,,,,,,,,,,,0,0,0,0,0,0,0,0,0,0,0,0,0,0,0,0,,,,,0.0,,,,,,
2169914,1745089291984,,,,,,,,,,,,,,,,,,,,,,,13,0,13,13,0.0,44.0,0.0,0.0,2.26,,,0,0,0,0,0,0,0,0,0,0,0,0,0,0,0,0,3,,,,,39.239895,-77.965652,19.85,32,3,0.9
2169934,1745089291996,0.0,181.25,,0.23,0.15,0.91,7,-1,-0,0.95,1.27,75,2940,72.3,4.08,,14.3,1.072,95.2,,19.3,5,,,,,,,,,,,,0,0,0,0,0,0,0,0,0,0,0,0,0,0,0,0,,,,,0.0,,,,,,
2169954,1745089292016,,,,,,,,,,,,,,,,,,,,,,,,,,,,,,,,,,0,0,0,0,0,0,0,0,0,0,0,0,0,0,0,0,,,,,,,,,,,
2169974,1745089292036,0.0,181.37,,0.21,0.22,0.85,7,-1,-0,0.9,1.27,71,3076,72.5,4.06,,14.3,1.072,95.2,,18.3,5,,,,,,,,,,,,0,0,0,0,0,0,0,0,0,0,0,0,0,0,0,0,,,,,0.0,,,,,,
2169994,1745089292056,,,,,,,,,,,,,,,,,,,,,,,,,,,,,,,,,,0,0,0,0,0,0,0,0,0,0,0,0,0,0,0,0,,,,,,,,,,,
2170014,1745089292076,0.0,181.5,,0.21,0.27,0.84,7,-1,0,0.91,1.27,71,3076,72.5,4.06,,14.26,1.142,95.2,,18.3,5,13,0,13,13,0.0,21.0,0.0,0.0,2.26,,,0,0,0,0,0,0,0,0,0,0,0,0,0,0,0,0,2,,,,0.0,39.239891,-77.965652,19.59,33,3,0.9
2170034,1745089292103,,,,,,,,,,,,,,,,,,,,,,,,,,,,,,,,,,0,0,0,0,0,0,0,0,0,0,0,0,0,0,0,0,,,,,,,,,,,
2170054,1745089292123,0.0,181.5,,0.22,0.25,0.91,7,-1,1,0.97,1.27,77,3180,72.2,4.03,,14.32,1.166,95.2,,19.1,5,,,,,,,,,,,,0,0,0,0,0,0,0,0,0,0,0,0,0,0,0,0,,,,,0.0,,,,,,
2170074,1745089292143,,,,,,,,,,,,,,,,,,,,,,,,,,,,,,,,,,0,0,0,0,0,0,0,0,0,0,0,0,0,0,0,0,,,,,,,,,,,
2170094,1745089292163,0.0,181.62,,0.2,0.16,1.0,7,-1,0,1.03,1.27,81,3108,72.2,4.1,,14.27,1.182,95.2,,19.1,5,,,,,,,,,,,,0,0,0,0,0,0,0,0,0,0,0,0,0,0,0,0,,,,,0.0,,,,,,
2170114,1745089292183,,,,,,,,,,,,,,,,,,,,,,,13,0,13,13,0.0,26.0,0.0,0.0,2.26,,,0,0,0,0,0,0,0,0,0,0,0,0,0,0,0,0,2,,,,,39.239887,-77.96566,20.26,33,3,0.9
2170134,1745089292201,0.0,181.75,,0.2,0.17,0.94,8,-1,0,0.98,1.27,77,3202,72.2,4.05,,14.24,1.207,95.2,,19.1,5,,,,,,,,,,,,0,0,0,0,0,0,0,0,0,0,0,0,0,0,0,0,,,,,0.0,,,,,,
2170154,1745089292221,,,,,,,,,,,,,,,,,,,,,,,,,,,,,,,,,,0,0,0,0,0,0,0,0,0,0,0,0,0,0,0,0,,,,,,,,,,,
2170174,1745089292241,0.0,181.75,,0.22,0.21,0.95,8,-1,1,1.0,1.27,79,3321,72.2,4.16,,14.24,1.207,95.2,,19.9,5,,,,,,,,,,,,0,0,0,0,0,0,0,0,0,0,0,0,0,0,0,0,,,,,0.0,,,,,,
2170194,1745089292261,,,,,,,,,,,,,,,,,,,,,,,,,,,,,,,,,,0,0,0,0,0,0,0,0,0,0,0,0,0,0,0,0,,,,,,,,,,,
2170214,1745089292281,0.0,181.88,,0.18,0.18,1.01,8,-1,0,1.04,1.27,82,3321,72.2,4.16,,14.36,1.247,95.2,,19.9,5,13,0,14,14,0.0,246.0,0.0,0.0,2.26,,,0,0,0,0,0,0,0,0,0,0,0,0,0,0,0,0,2,,,,0.0,39.239883,-77.96566,20.57,33,3,0.9
2170234,1745089292303,,,,,,,,,,,,,,,,,,,,,,,,,,,,,,,,,,0,0,0,0,0,0,0,0,0,0,0,0,0,0,0,0,,,,,,,,,,,
2170254,1745089292323,0.0,182.0,,0.2,0.18,1.06,9,-1,0,1.09,1.27,86,3176,72.2,4.12,,14.27,1.218,95.2,,19.1,5,,,,,,,,,,,,0,0,0,0,0,0,0,0,0,0,0,0,0,0,0,0,,,,,0.0,,,,,,
2170274,1745089292343,,,,,,,,,,,,,,,,,,,,,,,,,,,,,,,,,,0,0,0,0,0,0,0,0,0,0,0,0,0,0,0,0,,,,,,,,,,,
2170294,1745089292363,0.0,182.13,,0.18,0.1,1.09,9,-1,0,1.11,1.27,88,3423,72.3,4.11,,14.27,1.13,95.2,,19.1,5,,,,,,,,,,,,0,0,0,0,0,0,0,0,0,0,0,0,0,0,0,0,,,,,0.0,,,,,,
2170314,1745089292383,,,,,,,,,,,,,,,,,,,,,,,14,0,14,14,0.0,242.0,0.0,0.0,2.26,,,0,0,0,0,0,0,0,0,0,0,0,0,0,0,0,0,2,,,,,39.23988,-77.965668,20.92,33,3,0.9
2170334,1745089292403,0.0,182.13,,0.16,0.13,1.02,9,-1,-0,1.04,1.27,82,3299,72.3,4.16,,14.32,1.112,95.2,,19.1,5,,,,,,,,,,,,0,0,0,0,0,0,0,0,0,0,0,0,0,0,0,0,,,,,0.0,,,,,,
2170354,1745089292423,,,,,,,,,,,,,,,,,,,,,,,,,,,,,,,,,,0,0,0,0,0,0,0,0,0,0,0,0,0,0,0,0,,,,,,,,,,,
2170374,1745089292443,0.0,182.25,,0.15,0.13,1.06,9,-1,0,1.08,1.27,85,3404,72.4,4.12,,14.32,1.112,95.2,,20.5,5,,,,,,,,,,,,0,0,0,0,0,0,0,0,0,0,0,0,0,0,0,0,,,,,0.0,,,,,,
2170394,1745089292463,,,,,,,,,,,,,,,,,,,,,,,,,,,,,,,,,,0,0,0,0,0,0,0,0,0,0,0,0,0,0,0,0,,,,,,,,,,,
2170414,1745089292483,0.0,182.25,13.57,0.12,0.14,1.02,10,-1,0,1.04,1.27,82,3404,72.4,4.12,15,14.26,1.135,95.2,180,20.5,5,14,0,14,14,0.0,4.0,0.0,0.0,2.26,0,0.0,0,0,0,0,0,0,0,0,0,0,0,0,0,0,0,0,0,0.0,0,0,0.0,39.239876,-77.965668,21.83,33,3,0.9
2170434,1745089292503,,,,,,,,,,,,,,,,,,,,,,,,,,,,,,,,,,0,0,0,0,0,0,0,0,0,0,0,0,0,0,0,0,,,,,,,,,,,
2170454,1745089292523,0.0,182.38,,0.13,0.15,1.08,10,-0,0,1.1,1.27,87,3433,72.4,4.16,,14.27,1.151,95.2,,20.7,5,,,,,,,,,,,,0,0,0,0,0,0,0,0,0,0,0,0,0,0,0,0,,,,,0.0,,,,,,
2170474,1745089292543,,,,,,,,,,,,,,,,,,,,,,,,,,,,,,,,,,0,0,0,0,0,0,0,0,0,0,0,0,0,0,0,0,,,,,,,,,,,
2170494,1745089292563,0.0,182.38,,0.12,0.18,1.02,10,-1,0,1.05,1.27,83,3392,72.3,4.18,,14.28,1.188,95.2,,20.7,5,,,,,,,,,,,,0,0,0,0,0,0,0,0,0,0,0,0,0,0,0,0,,,,,0.0,,,,,,
2170514,1745089292583,,,,,,,,,,,,,,,,,,,,,,,14,0,14,14,0.0,243.0,0.0,0.0,2.26,,,0,0,0,0,0,0,0,0,0,0,0,0,0,0,0,0,0,,,,,39.239872,-77.965668,22.04,33,3,0.9
2170534,1745089292603,0.0,182.38,,0.08,0.11,1.05,10,-1,-0,1.06,1.27,84,3502,72.3,4.16,,14.24,1.201,95.2,,20.7,5,,,,,,,,,,,,0,0,0,0,0,0,0,0,0,0,0,0,0,0,0,0,,,,,0.0,,,,,,
2170554,1745089292623,,,,,,,,,,,,,,,,,,,,,,,,,,,,,,,,,,0,0,0,0,0,0,0,0,0,0,0,0,0,0,0,0,,,,,,,,,,,
2170574,1745089292643,0.0,182.5,,0.1,0.2,1.05,9,-1,1,1.07,1.27,84,3408,72.2,4.22,,14.24,1.201,95.2,,20.9,5,,,,,,,,,,,,0,0,0,0,0,0,0,0,0,0,0,0,0,0,0,0,,,,,0.0,,,,,,
2170594,1745089292663,,,,,,,,,,,,,,,,,,,,,,,,,,,,,,,,,,0,0,0,0,0,0,0,0,0,0,0,0,0,0,0,0,,,,,,,,,,,
2170614,1745089292683,0.0,182.5,,0.09,0.19,1.01,10,-1,0,1.03,1.27,81,3408,72.2,4.22,,14.27,1.224,95.2,,20.9,5,15,0,14,14,0.0,29.0,0.0,0.0,2.26,,,0,0,0,0,0,0,0,0,0,0,0,0,0,0,0,0,2,,,,0.0,39.239864,-77.965675,22.38,33,3,0.9
2170634,1745089292703,,,,,,,,,,,,,,,,,,,,,,,,,,,,,,,,,,0,0,0,0,0,0,0,0,0,0,0,0,0,0,0,0,,,,,,,,,,,
2170654,1745089292723,0.0,182.5,,0.08,0.16,1.04,8,-0,-0,1.05,1.27,83,3509,72.3,4.17,,14.3,1.247,95.2,,21.0,5,,,,,,,,,,,,0,0,0,0,0,0,0,0,0,0,0,0,0,0,0,0,,,,,0.0,,,,,,
2170674,1745089292743,,,,,,,,,,,,,,,,,,,,,,,,,,,,,,,,,,0,0,0,0,0,0,0,0,0,0,0,0,0,0,0,0,,,,,,,,,,,
2170694,1745089292763,0.0,182.5,,0.09,0.21,1.03,8,-0,0,1.05,1.27,83,3465,72.3,4.22,,14.28,1.247,95.2,,21.0,5,,,,,,,,,,,,0,0,0,0,0,0,0,0,0,0,0,0,0,0,0,0,,,,,0.0,,,,,,
2170714,1745089292783,,,,,,,,,,,,,,,,,,,,,,,15,0,15,15,0.0,9.0,0.0,0.0,2.26,,,0,0,0,0,0,0,0,0,0,0,0,0,0,0,0,0,2,,,,,39.239864,-77.965675,22.56,33,3,0.9
2170734,1745089292803,0.0,182.5,,0.08,0.2,0.99,8,-0,-0,1.01,1.27,80,3602,72.3,4.22,,14.2,1.248,95.2,,21.0,5,,,,,,,,,,,,0,0,0,0,0,0,0,0,0,0,0,0,0,0,0,0,,,,,0.0,,,,,,
2170754,1745089292823,,,,,,,,,,,,,,,,,,,,,,,,,,,,,,,,,,0,0,0,0,0,0,0,0,0,0,0,0,0,0,0,0,,,,,,,,,,,
2170774,1745089292843,0.0,182.5,,0.05,0.15,1.02,8,-0,-0,1.03,1.27,81,3525,72.4,4.24,,14.2,1.248,95.2,,21.3,5,,,,,,,,,,,,0,0,0,0,0,0,0,0,0,0,0,0,0,0,0,0,,,,,0.0,,,,,,
2170794,1745089292863,,,,,,,,,,,,,,,,,,,,,,,,,,,,,,,,,,0,0,0,0,0,0,0,0,0,0,0,0,0,0,0,0,,,,,,,,,,,
2170814,1745089292883,0.0,182.5,,0.09,0.14,0.99,7,-0,-0,1.0,1.27,79,3525,72.4,4.24,,14.22,1.242,91.6,,21.3,5,14,0,14,15,0.0,18.0,0.0,0.0,2.26,,,0,0,0,0,0,0,0,0,0,0,0,0,0,0,0,0,2,,,,0.0,39.239857,-77.965683,22.9,33,3,0.9
2170834,1745089292905,,,,,,,,,,,,,,,,,,,,,,,,,,,,,,,,,,0,0,0,0,0,0,0,0,0,0,0,0,0,0,0,0,,,,,,,,,,,
2170854,1745089292925,0.0,182.63,,0.08,0.13,1.02,6,-0,0,1.03,1.27,81,3799,72.3,4.26,,14.23,1.248,91.6,,21.9,5,,,,,,,,,,,,0,0,0,0,0,0,0,0,0,0,0,0,0,0,0,0,,,,,0.0,,,,,,
2170874,1745089292945,,,,,,,,,,,,,,,,,,,,,,,,,,,,,,,,,,0,0,0,0,0,0,0,0,0,0,0,0,0,0,0,0,,,,,,,,,,,
2170894,1745089292965,0.0,182.63,,0.07,0.18,0.99,5,-1,-0,1.0,1.27,79,3490,72.3,4.25,,14.3,1.247,91.6,,21.9,5,,,,,,,,,,,,0,0,0,0,0,0,0,0,0,0,0,0,0,0,0,0,,,,,0.0,,,,,,
2170914,1745089292985,,,,,,,,,,,,,,,,,,,,,,,15,0,15,15,0.0,64.0,0.0,0.0,2.26,,,0,0,0,0,0,0,0,0,0,0,0,0,0,0,0,0,2,,,,,39.239853,-77.965691,23.33,33,3,0.9
2170934,1745089292995,0.0,182.63,,0.06,0.16,0.95,5,-1,-0,0.97,1.27,76,3660,72.3,4.24,,14.2,1.192,91.6,,21.9,5,,,,,,,,,,,,0,0,0,0,0,0,0,0,0,0,0,0,0,0,0,0,,,,,0.0,,,,,,
2170954,1745089293015,,,,,,,,,,,,,,,,,,,,,,,,,,,,,,,,,,0,0,0,0,0,0,0,0,0,0,0,0,0,0,0,0,,,,,,,,,,,
2170974,1745089293035,0.0,182.63,,0.06,0.13,0.98,5,-1,-0,0.99,1.27,78,3654,72.4,4.29,,14.2,1.192,91.6,,22.2,5,,,,,,,,,,,,0,0,0,0,0,0,0,0,0,0,0,0,0,0,0,0,,,,,0.0,,,,,,
2170994,1745089293055,,,,,,,,,,,,,,,,,,,,,,,,,,,,,,,,,,0,0,0,0,0,0,0,0,0,0,0,0,0,0,0,0,,,,,,,,,,,
2171014,1745089293075,0.0,182.5,,0.06,0.11,1.0,4,-0,-0,1.01,1.01,100,3654,72.4,4.29,,14.26,1.192,91.6,,22.2,5,15,0,15,15,0.0,22.0,0.0,0.0,2.26,,,0,0,0,0,0,0,0,0,0,0,0,0,0,0,0,0,2,,,,0.0,39.239845,-77.965691,23.68,34,3,0.8
2171034,1745089293101,,,,,,,,,,,,,,,,,,,,,,,,,,,,,,,,,,0,0,0,0,0,0,0,0,0,0,0,0,0,0,0,0,,,,,,,,,,,
2171054,1745089293121,0.0,182.5,,0.06,0.08,0.99,3,-0,-0,0.99,1.01,98,3793,72.3,4.29,,14.23,1.233,91.6,,22.3,5,,,,,,,,,,,,0,0,0,0,0,0,0,0,0,0,0,0,0,0,0,0,,,,,0.0,,,,,,
2171074,1745089293141,,,,,,,,,,,,,,,,,,,,,,,,,,,,,,,,,,0,0,0,0,0,0,0,0,0,0,0,0,0,0,0,0,,,,,,,,,,,
2171094,1745089293161,0.0,182.5,,0.03,0.06,0.95,3,-0,-1,0.96,1.01,94,3663,72.3,4.3,,14.26,1.229,91.6,,22.3,5,,,,,,,,,,,,0,0,0,0,0,0,0,0,0,0,0,0,0,0,0,0,,,,,0.0,,,,,,
2171114,1745089293181,,,,,,,,,,,,,,,,,,,,,,,15,0,15,16,0.0,44.0,0.0,0.0,2.26,,,0,0,0,0,0,0,0,0,0,0,0,0,0,0,0,0,2,,,,,39.239841,-77.965698,23.98,34,3,0.8
2171134,1745089293198,0.0,182.5,,0.04,0.06,0.97,2,-0,-0,0.98,1.01,97,3831,72.3,4.29,,14.26,1.247,91.6,,22.3,5,,,,,,,,,,,,0,0,0,0,0,0,0,0,0,0,0,0,0,0,0,0,,,,,0.0,,,,,,
2171154,1745089293218,,,,,,,,,,,,,,,,,,,,,,,,,,,,,,,,,,0,0,0,0,0,0,0,0,0,0,0,0,0,0,0,0,,,,,,,,,,,
2171174,1745089293238,0.0,182.5,,0.07,0.09,1.03,1,-0,0,1.03,1.03,100,3744,72.3,4.36,,14.26,1.247,91.6,,22.8,5,,,,,,,,,,,,0,0,0,0,0,0,0,0,0,0,0,0,0,0,0,0,,,,,0.0,,,,,,
2171194,1745089293258,,,,,,,,,,,,,,,,,,,,,,,,,,,,,,,,,,0,0,0,0,0,0,0,0,0,0,0,0,0,0,0,0,,,,,,,,,,,
2171214,1745089293278,0.0,182.5,,0.07,0.05,1.02,0,0,0,1.02,1.03,99,3744,72.3,4.36,,14.28,1.248,91.6,,22.8,5,16,0,16,15,0.0,239.0,0.0,0.0,2.26,,,0,0,0,0,0,0,0,0,0,0,0,0,0,0,0,0,2,,,,0.0,39.239838,-77.965698,24.29,34,3,0.8
2171234,1745089293302,,,,,,,,,,,,,,,,,,,,,,,,,,,,,,,,,,0,0,0,0,0,0,0,0,0,0,0,0,0,0,0,0,,,,,,,,,,,
2171254,1745089293322,0.0,182.5,,0.05,-0.05,0.98,-1,0,0,0.98,1.03,95,3795,57.2,4.06,,14.2,1.244,91.6,,23.4,5,,,,,,,,,,,,0,0,0,0,0,0,0,0,0,0,0,0,0,0,0,0,,,,,0.0,,,,,,
2171274,1745089293342,,,,,,,,,,,,,,,,,,,,,,,,,,,,,,,,,,0,0,0,0,0,0,0,0,0,0,0,0,0,0,0,0,,,,,,,,,,,
2171294,1745089293362,0.0,182.5,,0.11,-0.05,0.94,-1,1,0,0.95,1.03,92,4002,51.5,5.09,,14.18,1.244,91.6,,23.4,5,,,,,,,,,,,,0,0,0,0,0,0,0,0,0,0,0,0,0,0,0,0,,,,,0.0,,,,,,
2171314,1745089293382,,,,,,,,,,,,,,,,,,,,,,,16,0,16,17,0.0,21.0,0.0,0.0,2.26,,,0,0,0,0,0,0,0,0,0,0,0,0,0,0,0,0,2,,,,,39.23983,-77.965706,24.78,34,3,0.8
2171334,1745089293402,0.0,182.5,,0.1,-0.03,0.95,-1,1,1,0.96,1.03,93,3822,51.4,5.13,,14.19,1.09,91.6,,23.4,5,,,,,,,,,,,,0,0,0,0,0,0,0,0,0,0,0,0,0,0,0,0,,,,,0.0,,,,,,
2171354,1745089293422,,,,,,,,,,,,,,,,,,,,,,,,,,,,,,,,,,0,0,0,0,0,0,0,0,0,0,0,0,0,0,0,0,,,,,,,,,,,
2171374,1745089293442,0.0,182.5,,0.11,-0.02,0.98,-2,1,1,0.98,1.03,95,4148,51.3,5.14,,14.19,1.09,91.6,,23.2,5,,,,,,,,,,,,0,0,0,0,0,0,0,0,0,0,0,0,0,0,0,0,,,,,0.0,,,,,,
2171394,1745089293462,,,,,,,,,,,,,,,,,,,,,,,,,,,,,,,,,,0,0,0,0,0,0,0,0,0,0,0,0,0,0,0,0,,,,,,,,,,,
2171414,1745089293482,0.0,182.5,13.56,0.19,0.07,0.99,-2,1,1,1.01,1.03,98,4148,51.3,5.14,15,14.24,0.991,91.6,176,23.2,5,16,0,17,16,0.0,8.0,0.0,0.0,2.26,0,0.0,0,0,0,0,0,0,0,0,0,0,0,0,0,0,0,0,0,0.0,0,0,0.0,39.239826,-77.965714,25.16,34,3,0.8
2171434,1745089293504,,,,,,,,,,,,,,,,,,,,,,,,,,,,,,,,,,0,0,0,0,0,0,0,0,0,0,0,0,0,0,0,0,,,,,,,,,,,
2171454,1745089293524,0.0,182.5,,0.18,0.08,1.0,-2,1,1,1.02,1.03,99,4202,51.3,5.15,,14.14,0.943,91.6,,24.3,5,,,,,,,,,,,,0,0,0,0,0,0,0,0,0,0,0,0,0,0,0,0,,,,,0.0,,,,,,
2171474,1745089293544,,,,,,,,,,,,,,,,,,,,,,,,,,,,,,,,,,0,0,0,0,0,0,0,0,0,0,0,0,0,0,0,0,,,,,,,,,,,
2171494,1745089293564,0.0,182.5,,0.15,0.01,0.91,-2,0,0,0.92,1.03,89,3914,51.1,5.13,,14.19,0.883,91.6,,24.3,5,,,,,,,,,,,,0,0,0,0,0,0,0,0,0,0,0,0,0,0,0,0,,,,,0.0,,,,,,
2171514,1745089293584,,,,,,,,,,,,,,,,,,,,,,,17,0,17,17,0.0,32.0,0.0,0.0,2.26,,,0,0,0,0,0,0,0,0,0,0,0,0,0,0,0,0,0,,,,,39.239822,-77.965714,25.88,34,3,0.8
2171534,1745089293604,0.0,182.63,,0.16,0.08,1.01,-3,0,1,1.02,1.03,99,4114,50.2,5.24,,14.18,0.868,91.6,,24.3,5,,,,,,,,,,,,0,0,0,0,0,0,0,0,0,0,0,0,0,0,0,0,,,,,0.0,,,,,,
2171554,1745089293624,,,,,,,,,,,,,,,,,,,,,,,,,,,,,,,,,,0,0,0,0,0,0,0,0,0,0,0,0,0,0,0,0,,,,,,,,,,,
2171574,1745089293644,0.0,182.63,,0.18,0.08,0.98,-2,1,0,1.0,1.03,96,4264,50.0,5.17,,14.18,0.868,91.6,,25.8,5,,,,,,,,,,,,0,0,0,0,0,0,0,0,0,0,0,0,0,0,0,0,,,,,0.0,,,,,,
2171594,1745089293664,,,,,,,,,,,,,,,,,,,,,,,,,,,,,,,,,,0,0,0,0,0,0,0,0,0,0,0,0,0,0,0,0,,,,,,,,,,,
2171614,1745089293684,0.0,182.63,,0.13,0.04,0.97,-3,1,1,0.98,1.03,95,4264,50.0,5.17,,14.1,0.909,91.6,,25.8,5,17,0,18,17,0.0,0.0,0.0,0.0,2.26,,,0,0,0,0,0,0,0,0,0,0,0,0,0,0,0,0,2,,,,0.0,39.239815,-77.965714,26.74,34,3,0.8
2171634,1745089293704,,,,,,,,,,,,,,,,,,,,,,,,,,,,,,,,,,0,0,0,0,0,0,0,0,0,0,0,0,0,0,0,0,,,,,,,,,,,
2171654,1745089293724,0.0,182.63,,0.14,0.09,1.02,-4,1,1,1.04,1.04,100,4267,50.1,5.18,,14.14,0.951,91.6,,26.5,5,,,,,,,,,,,,0,0,0,0,0,0,0,0,0,0,0,0,0,0,0,0,,,,,0.0,,,,,,
2171674,1745089293744,,,,,,,,,,,,,,,,,,,,,,,,,,,,,,,,,,0,0,0,0,0,0,0,0,0,0,0,0,0,0,0,0,,,,,,,,,,,
2171694,1745089293764,0.0,182.63,,0.16,0.05,0.94,-3,0,0,0.95,1.04,92,4283,50.0,5.15,,14.2,1.031,91.6,,26.5,5,,,,,,,,,,,,0,0,0,0,0,0,0,0,0,0,0,0,0,0,0,0,,,,,0.0,,,,,,
2171714,1745089293784,,,,,,,,,,,,,,,,,,,,,,,18,0,18,17,0.0,47.0,0.0,0.0,2.26,,,0,0,0,0,0,0,0,0,0,0,0,0,0,0,0,0,2,,,,,39.239807,-77.965721,27.19,34,3,0.8
2171734,1745089293804,0.0,182.63,,0.11,0.06,0.95,-5,0,1,0.96,1.04,92,4173,50.1,5.15,,14.2,1.013,91.6,,26.5,5,,,,,,,,,,,,0,0,0,0,0,0,0,0,0,0,0,0,0,0,0,0,,,,,0.0,,,,,,
2171754,1745089293824,,,,,,,,,,,,,,,,,,,,,,,,,,,,,,,,,,0,0,0,0,0,0,0,0,0,0,0,0,0,0,0,0,,,,,,,,,,,
2171774,1745089293844,0.0,182.63,,0.1,0.11,1.08,-6,1,1,1.09,1.09,100,4328,50.1,5.14,,14.2,1.013,91.6,,25.8,5,,,,,,,,,,,,0,0,0,0,0,0,0,0,0,0,0,0,0,0,0,0,,,,,0.0,,,,,,
2171794,1745089293864,,,,,,,,,,,,,,,,,,,,,,,,,,,,,,,,,,0,0,0,0,0,0,0,0,0,0,0,0,0,0,0,0,,,,,,,,,,,
2171814,1745089293884,0.0,182.63,,0.12,0.15,1.1,-6,1,1,1.12,1.12,100,4328,50.1,5.14,,14.15,0.978,91.6,,25.8,5,17,0,18,18,0.0,39.0,0.0,0.0,2.26,,,0,0,0,0,0,0,0,0,0,0,0,0,0,0,0,0,2,,,,0.0,39.239803,-77.965729,27.73,34,3,0.8
2171834,1745089293904,,,,,,,,,,,,,,,,,,,,,,,,,,,,,,,,,,0,0,0,0,0,0,0,0,0,0,0,0,0,0,0,0,,,,,,,,,,,
2171854,1745089293924,0.0,182.63,,0.15,0.19,1.08,-6,1,1,1.11,1.12,99,4460,50.2,5.13,,14.12,1.002,91.6,,26.7,5,,,,,,,,,,,,0,0,0,0,0,0,0,0,0,0,0,0,0,0,0,0,,,,,0.0,,,,,,
2171874,1745089293944,,,,,,,,,,,,,,,,,,,,,,,,,,,,,,,,,,0,0,0,0,0,0,0,0,0,0,0,0,0,0,0,0,,,,,,,,,,,
2171894,1745089293964,0.0,182.63,,0.15,0.08,0.98,-6,1,0,1.0,1.12,89,4406,46.0,4.81,,14.11,1.019,91.6,,26.7,5,,,,,,,,,,,,0,0,0,0,0,0,0,0,0,0,0,0,0,0,0,0,,,,,0.0,,,,,,
2171914,1745089293984,,,,,,,,,,,,,,,,,,,,,,,17,0,18,18,0.0,228.0,0.0,0.0,2.26,,,0,0,0,0,0,0,0,0,0,0,0,0,0,0,0,0,2,,,,,39.239796,-77.965729,28.13,34,3,0.8
2171934,1745089293994,0.0,182.63,,0.17,0.01,0.9,-5,1,-0,0.92,1.12,82,4611,45.5,4.84,,14.1,1.009,91.6,,26.7,5,,,,,,,,,,,,0,0,0,0,0,0,0,0,0,0,0,0,0,0,0,0,,,,,0.0,,,,,,
2171954,1745089294014,,,,,,,,,,,,,,,,,,,,,,,,,,,,,,,,,,0,0,0,0,0,0,0,0,0,0,0,0,0,0,0,0,,,,,,,,,,,
2171974,1745089294034,0.0,182.76,,0.16,-0.1,0.81,-4,1,-1,0.83,1.12,74,4355,39.6,4.38,,14.1,1.009,91.6,,27.2,5,,,,,,,,,,,,0,0,0,0,0,0,0,0,0,0,0,0,0,0,0,0,,,,,0.0,,,,,,
2171994,1745089294054,,,,,,,,,,,,,,,,,,,,,,,,,,,,,,,,,,0,0,0,0,0,0,0,0,0,0,0,0,0,0,0,0,,,,,,,,,,,
2172014,1745089294074,0.0,182.63,,0.14,-0.15,0.76,-3,0,-1,0.79,1.12,70,4355,39.6,4.38,,14.04,1.032,91.6,,27.2,5,18,0,18,18,0.0,57.0,0.0,0.0,2.26,,,0,0,0,0,0,0,0,0,0,0,0,0,0,0,0,0,2,,,,0.0,39.239792,-77.965736,28.62,34,3,0.8
2172034,1745089294099,,,,,,,,,,,,,,,,,,,,,,,,,,,,,,,,,,0,0,0,0,0,0,0,0,0,0,0,0,0,0,0,0,,,,,,,,,,,
2172054,1745089294119,0.0,182.76,,0.12,-0.27,0.71,-3,0,-1,0.76,1.12,68,4457,27.3,4.75,,13.72,0.988,91.6,,26.9,5,,,,,,,,,,,,0,0,0,0,0,0,0,0,0,0,0,0,0,0,0,0,,,,,0.0,,,,,,
2172074,1745089294139,,,,,,,,,,,,,,,,,,,,,,,,,,,,,,,,,,0,0,0,0,0,0,0,0,0,0,0,0,0,0,0,0,,,,,,,,,,,
2172094,1745089294159,0.0,182.76,,0.1,-0.35,0.65,-3,1,-2,0.75,1.12,67,4474,24.7,4.29,,13.51,1.017,91.6,,26.9,5,,,,,,,,,,,,0,0,0,0,0,0,0,0,0,0,0,0,0,0,0,0,,,,,0.0,,,,,,
2172114,1745089294179,,,,,,,,,,,,,,,,,,,,,,,18,0,19,19,0.0,29.0,0.0,0.0,2.26,,,0,0,0,0,0,0,0,0,0,0,0,0,0,0,0,0,2,,,,,39.239784,-77.965744,29.11,34,3,0.8
2172134,1745089294201,0.0,182.76,,0.07,-0.45,0.58,-2,0,-2,0.74,1.12,66,4450,23.3,4.13,,13.41,1.067,91.6,,26.9,5,,,,,,,,,,,,0,0,0,0,0,0,0,0,0,0,0,0,0,0,0,0,,,,,0.0,,,,,,
2172154,1745089294221,,,,,,,,,,,,,,,,,,,,,,,,,,,,,,,,,,0,0,0,0,0,0,0,0,0,0,0,0,0,0,0,0,,,,,,,,,,,
2172174,1745089294241,0.0,182.76,,0.08,-0.51,0.57,-2,0,-2,0.76,1.12,68,4521,19.6,3.85,,13.41,1.067,91.6,,27.1,5,,,,,,,,,,,,0,0,0,0,0,0,0,0,0,0,0,0,0,0,0,0,,,,,0.0,,,,,,
2172194,1745089294261,,,,,,,,,,,,,,,,,,,,,,,,,,,,,,,,,,0,0,0,0,0,0,0,0,0,0,0,0,0,0,0,0,,,,,,,,,,,
2172214,1745089294281,0.0,182.76,,0.04,-0.56,0.54,-3,1,-3,0.78,1.12,70,4521,19.6,3.85,,13.29,1.059,91.6,,27.1,5,19,0,19,19,0.0,66.0,0.0,0.0,2.26,,,0,0,0,0,0,0,0,0,0,0,0,0,0,0,0,0,2,,,,0.0,39.23978,-77.965752,29.49,34,3,0.8
2172234,1745089294303,,,,,,,,,,,,,,,,,,,,,,,,,,,,,,,,,,0,0,0,0,0,0,0,0,0,0,0,0,0,0,0,0,,,,,,,,,,,
2172254,1745089294323,0.0,182.88,,0.01,-0.49,0.57,-3,1,-2,0.75,1.12,67,4483,16.6,3.82,,13.2,1.046,91.6,,27.0,5,,,,,,,,,,,,0,0,0,0,0,0,0,0,0,0,0,0,0,0,0,0,,,,,0.0,,,,,,
2172274,1745089294343,,,,,,,,,,,,,,,,,,,,,,,,,,,,,,,,,,0,0,0,0,0,0,0,0,0,0,0,0,0,0,0,0,,,,,,,,,,,
2172294,1745089294363,0.0,183.01,,-0.05,-0.42,0.63,-4,0,-1,0.76,1.12,68,4442,0.1,2.53,,12.39,1.061,91.6,,27.0,5,,,,,,,,,,,,0,0,0,0,0,0,0,0,0,0,0,0,0,0,0,0,,,,,0.0,,,,,,
2172314,1745089294383,,,,,,,,,,,,,,,,,,,,,,,19,0,19,19,0.0,0.0,0.0,0.0,2.25,,,0,0,0,0,0,0,0,0,0,0,0,0,0,0,0,0,2,,,,,39.239773,-77.965752,29.54,34,3,0.8
2172334,1745089294403,0.0,183.13,,-0.11,-0.31,0.76,-4,0,-1,0.83,1.12,74,4340,0.0,2.5,,11.65,1.079,91.6,,27.0,5,,,,,,,,,,,,0,0,0,0,0,0,0,0,0,0,0,0,0,0,0,0,,,,,0.0,,,,,,
2172354,1745089294423,,,,,,,,,,,,,,,,,,,,,,,,,,,,,,,,,,0,0,0,0,0,0,0,0,0,0,0,0,0,0,0,0,,,,,,,,,,,
2172374,1745089294443,10.81,183.26,,-0.11,-0.3,0.76,-3,0,-1,0.82,0.82,100,4233,0.0,2.48,,11.65,1.079,91.6,,26.1,5,,,,,,,,,,,,0,0,0,0,0,0,0,0,0,0,0,0,0,0,0,0,,,,,0.0,,,,,,
2172394,1745089294463,,,,,,,,,,,,,,,,,,,,,,,,,,,,,,,,,,0,0,0,0,0,0,0,0,0,0,0,0,0,0,0,0,,,,,,,,,,,
2172414,1745089294483,22.12,183.38,13.63,-0.16,-0.29,0.78,-3,0,-1,0.85,0.85,100,4233,0.0,2.48,15,11.24,1.086,91.6,173,26.1,5,18,0,18,19,0.0,253.0,0.0,0.0,2.26,0,0.0,0,0,0,0,0,0,0,0,0,0,0,0,0,0,0,0,0,0.0,0,0,0.0,39.239765,-77.965752,29.43,34,3,0.8
2172434,1745089294503,,,,,,,,,,,,,,,,,,,,,,,,,,,,,,,,,,0,0,0,0,0,0,0,0,0,0,0,0,0,0,0,0,,,,,,,,,,,
2172454,1745089294523,34.69,183.51,,-0.18,-0.26,0.81,-2,-0,-1,0.87,0.87,100,4138,0.0,2.41,,10.97,1.106,91.6,,24.7,5,,,,,,,,,,,,0,0,0,0,0,0,0,0,0,0,0,0,0,0,0,0,,,,,0.0,,,,,,
2172474,1745089294543,,,,,,,,,,,,,,,,,,,,,,,,,,,,,,,,,,0,0,0,0,0,0,0,0,0,0,0,0,0,0,0,0,,,,,,,,,,,
2172494,1745089294563,44.12,183.63,,-0.22,-0.19,0.89,-3,-0,-0,0.93,0.93,100,3998,0.0,2.18,,10.81,1.15,91.6,,24.7,5,,,,,,,,,,,,0,0,0,0,0,0,0,0,0,0,0,0,0,0,0,0,,,,,0.0,,,,,,
2172514,1745089294583,,,,,,,,,,,,,,,,,,,,,,,17,0,17,17,0.0,0.0,0.0,0.0,2.26,,,0,0,0,0,0,0,0,0,0,0,0,0,0,0,0,0,0,,,,,39.239761,-77.965759,28.87,34,3,0.8
2172534,1745089294603,52.29,183.63,,-0.25,-0.21,0.87,-3,-0,0,0.93,0.93,99,3923,3.8,1.96,,11.0,1.221,91.6,,24.7,5,,,,,,,,,,,,0,0,0,0,0,0,0,0,0,0,0,0,0,0,0,0,,,,,0.0,,,,,,
2172554,1745089294623,,,,,,,,,,,,,,,,,,,,,,,,,,,,,,,,,,0,0,0,0,0,0,0,0,0,0,0,0,0,0,0,0,,,,,,,,,,,
2172574,1745089294643,60.46,183.76,,-0.27,-0.2,0.9,-3,0,0,0.96,0.96,100,3811,19.1,4.24,,11.0,1.221,91.6,,23.5,5,,,,,,,,,,,,0,0,0,0,0,0,0,0,0,0,0,0,0,0,0,0,,,,,0.0,,,,,,
2172594,1745089294663,,,,,,,,,,,,,,,,,,,,,,,,,,,,,,,,,,0,0,0,0,0,0,0,0,0,0,0,0,0,0,0,0,,,,,,,,,,,
2172614,1745089294683,66.11,183.76,,-0.28,-0.2,0.89,-2,0,0,0.95,0.96,99,3811,19.1,4.24,,12.37,1.245,91.6,,23.5,5,16,0,16,17,0.0,248.0,0.0,0.0,2.26,,,0,0,0,0,0,0,0,0,0,0,0,0,0,0,0,0,0,,,,0.0,39.239754,-77.965767,27.88,34,3,0.8
2172634,1745089294703,,,,,,,,,,,,,,,,,,,,,,,,,,,,,,,,,,0,0,0,0,0,0,0,0,0,0,0,0,0,0,0,0,,,,,,,,,,,
2172654,1745089294723,71.77,184.01,,-0.26,-0.15,0.91,-2,0,-0,0.95,0.96,99,3801,19.8,4.27,,13.16,1.199,91.6,,23.5,5,,,,,,,,,,,,0,0,0,0,0,0,0,0,0,0,0,0,0,0,0,0,,,,,0.0,,,,,,
2172674,1745089294743,,,,,,,,,,,,,,,,,,,,,,,,,,,,,,,,,,0,0,0,0,0,0,0,0,0,0,0,0,0,0,0,0,,,,,,,,,,,
2172694,1745089294763,75.54,184.01,,-0.27,-0.04,0.97,-2,0,0,1.01,1.01,100,3973,20.1,4.17,,13.32,1.166,91.6,,23.5,5,,,,,,,,,,,,0,0,0,0,0,0,0,0,0,0,0,0,0,0,0,0,,,,,0.0,,,,,,
2172714,1745089294783,,,,,,,,,,,,,,,,,,,,,,,16,0,16,16,0.0,244.0,0.0,0.0,2.26,,,0,0,0,0,0,0,0,0,0,0,0,0,0,0,0,0,0,,,,,39.23975,-77.965775,26.48,34,3,0.8
2172734,1745089294803,79.94,184.14,,-0.27,-0.06,0.89,-1,0,-0,0.93,1.01,93,4152,20.2,4.15,,13.36,1.142,91.6,,23.5,5,,,,,,,,,,,,0,0,0,0,0,0,0,0,0,0,0,0,0,0,0,0,,,,,0.0,,,,,,
2172754,1745089294823,,,,,,,,,,,,,,,,,,,,,,,,,,,,,,,,,,0,0,0,0,0,0,0,0,0,0,0,0,0,0,0,0,,,,,,,,,,,
2172774,1745089294843,85.6,184.26,,-0.3,-0.05,0.89,-2,0,0,0.94,1.01,93,4324,20.3,4.03,,13.36,1.142,91.6,,25.4,5,,,,,,,,,,,,0,0,0,0,0,0,0,0,0,0,0,0,0,0,0,0,,,,,0.0,,,,,,
2172794,1745089294863,,,,,,,,,,,,,,,,,,,,,,,,,,,,,,,,,,0,0,0,0,0,0,0,0,0,0,0,0,0,0,0,0,,,,,,,,,,,
2172814,1745089294883,89.37,184.26,,-0.36,0.02,0.97,-4,-0,1,1.03,1.03,100,4324,20.3,4.03,,13.29,1.125,89.8,,25.4,5,16,0,15,15,0.0,252.0,0.0,0.0,2.26,,,0,0,0,0,0,0,0,0,0,0,0,0,0,0,0,0,0,,,,0.0,39.239746,-77.965782,24.72,34,3,0.8
2172834,1745089294903,,,,,,,,,,,,,,,,,,,,,,,,,,,,,,,,,,0,0,0,0,0,0,0,0,0,0,0,0,0,0,0,0,,,,,,,,,,,
2172854,1745089294923,92.51,184.26,,-0.41,0.09,1.04,-5,-0,2,1.13,1.13,100,4384,20.6,3.89,,13.29,1.127,89.8,,27.4,5,,,,,,,,,,,,0,0,0,0,0,0,0,0,0,0,0,0,0,0,0,0,,,,,0.0,,,,,,
2172874,1745089294943,,,,,,,,,,,,,,,,,,,,,,,,,,,,,,,,,,0,0,0,0,0,0,0,0,0,0,0,0,0,0,0,0,,,,,,,,,,,
2172894,1745089294963,92.51,184.39,,-0.45,0.0,1.01,-5,-0,2,1.1,1.13,98,4618,18.0,3.65,,13.16,1.14,89.8,,27.4,5,,,,,,,,,,,,0,0,0,0,0,0,0,0,0,0,0,0,0,0,0,0,,,,,0.0,,,,,,
2172914,1745089294983,,,,,,,,,,,,,,,,,,,,,,,14,0,14,14,0.0,0.0,0.0,0.0,2.26,,,0,0,0,0,0,0,0,0,0,0,0,0,0,0,0,0,0,,,,,39.239742,-77.965782,23.5,34,3,0.8
2172934,1745089294995,93.77,184.39,,-0.41,-0.07,0.92,-4,-0,1,1.01,1.13,90,4653,15.8,3.6,,12.97,1.028,89.8,,27.4,5,,,,,,,,,,,,0,0,0,0,0,0,0,0,0,0,0,0,0,0,0,0,,,,,0.0,,,,,,
2172954,1745089295015,,,,,,,,,,,,,,,,,,,,,,,,,,,,,,,,,,0,0,0,0,0,0,0,0,0,0,0,0,0,0,0,0,,,,,,,,,,,
2172974,1745089295035,93.77,184.51,,-0.37,-0.06,0.88,-3,-0,1,0.96,1.13,85,4679,13.6,3.4,,12.97,1.028,89.8,,28.2,5,,,,,,,,,,,,0,0,0,0,0,0,0,0,0,0,0,0,0,0,0,0,,,,,0.0,,,,,,
2172994,1745089295055,,,,,,,,,,,,,,,,,,,,,,,,,,,,,,,,,,0,0,0,0,0,0,0,0,0,0,0,0,0,0,0,0,,,,,,,,,,,
2173014,1745089295075,95.02,184.51,,-0.36,0.02,0.98,-3,-0,1,1.04,1.13,93,4679,13.6,3.4,,12.76,0.99,89.8,,28.2,5,14,0,13,13,0.0,36.0,0.0,0.0,2.26,,,0,0,0,0,0,0,0,0,0,0,0,0,0,0,0,0,0,,,,0.0,39.239735,-77.96579,22.09,34,3,0.8
2173034,1745089295104,,,,,,,,,,,,,,,,,,,,,,,,,,,,,,,,,,0,0,0,0,0,0,0,0,0,0,0,0,0,0,0,0,,,,,,,,,,,
2173054,1745089295124,92.51,184.51,,-0.4,0.06,1.03,-4,-0,2,1.1,1.13,98,4681,13.3,3.37,,12.63,1.006,89.8,,28.2,5,,,,,,,,,,,,0,0,0,0,0,0,0,0,0,0,0,0,0,0,0,0,,,,,0.0,,,,,,
2173074,1745089295144,,,,,,,,,,,,,,,,,,,,,,,,,,,,,,,,,,0,0,0,0,0,0,0,0,0,0,0,0,0,0,0,0,,,,,,,,,,,
2173094,1745089295164,87.48,184.51,,-0.39,0.03,0.97,-3,-0,1,1.05,1.13,93,4656,11.8,3.3,,12.48,1.071,89.8,,28.2,5,,,,,,,,,,,,0,0,0,0,0,0,0,0,0,0,0,0,0,0,0,0,,,,,0.0,,,,,,
2173114,1745089295184,,,,,,,,,,,,,,,,,,,,,,,13,0,13,13,0.0,0.0,0.0,0.0,2.26,,,0,0,0,0,0,0,0,0,0,0,0,0,0,0,0,0,0,,,,,39.239731,-77.96579,20.96,34,3,0.8
2173134,1745089295202,83.71,184.64,,-0.36,-0.08,0.89,-1,-0,0,0.97,1.13,86,4594,11.4,3.28,,12.43,1.14,89.8,,28.2,5,,,,,,,,,,,,0,0,0,0,0,0,0,0,0,0,0,0,0,0,0,0,,,,,0.0,,,,,,
2173154,1745089295222,,,,,,,,,,,,,,,,,,,,,,,,,,,,,,,,,,0,0,0,0,0,0,0,0,0,0,0,0,0,0,0,0,,,,,,,,,,,
2173174,1745089295242,76.8,184.64,,-0.31,-0.1,0.88,-1,-0,0,0.94,1.13,83,4603,9.5,3.22,,12.43,1.14,89.8,,28.2,5,,,,,,,,,,,,0,0,0,0,0,0,0,0,0,0,0,0,0,0,0,0,,,,,0.0,,,,,,
2173194,1745089295262,,,,,,,,,,,,,,,,,,,,,,,,,,,,,,,,,,0,0,0,0,0,0,0,0,0,0,0,0,0,0,0,0,,,,,,,,,,,
2173214,1745089295282,72.4,184.64,,-0.27,-0.05,0.93,-1,0,0,0.97,1.13,86,4603,9.5,3.22,,12.33,1.175,89.8,,28.2,5,13,0,12,12,0.0,34.0,0.0,0.0,2.26,,,0,0,0,0,0,0,0,0,0,0,0,0,0,0,0,0,0,,,,0.0,39.239727,-77.96579,19.49,34,3,0.8
2173234,1745089295302,,,,,,,,,,,,,,,,,,,,,,,,,,,,,,,,,,0,0,0,0,0,0,0,0,0,0,0,0,0,0,0,0,,,,,,,,,,,
2173254,1745089295322,64.86,184.64,,-0.25,0.03,1.0,-1,-0,1,1.03,1.13,91,4564,9.2,3.23,,12.19,1.2,89.8,,27.4,5,,,,,,,,,,,,0,0,0,0,0,0,0,0,0,0,0,0,0,0,0,0,,,,,0.0,,,,,,
2173274,1745089295342,,,,,,,,,,,,,,,,,,,,,,,,,,,,,,,,,,0,0,0,0,0,0,0,0,0,0,0,0,0,0,0,0,,,,,,,,,,,
2173294,1745089295362,57.32,184.51,,-0.22,0.08,1.04,-0,0,1,1.06,1.13,94,4498,9.2,3.22,,12.23,1.196,89.8,,27.4,5,,,,,,,,,,,,0,0,0,0,0,0,0,0,0,0,0,0,0,0,0,0,,,,,0.0,,,,,,
2173314,1745089295382,,,,,,,,,,,,,,,,,,,,,,,12,0,12,12,0.0,11.0,0.0,0.0,2.26,,,0,0,0,0,0,0,0,0,0,0,0,0,0,0,0,0,0,,,,,39.239723,-77.965797,19.02,34,3,0.8
2173334,1745089295404,50.4,184.51,,-0.19,0.09,1.0,-0,0,1,1.02,1.13,91,4421,9.3,3.26,,12.12,1.195,89.8,,27.4,5,,,,,,,,,,,,0,0,0,0,0,0,0,0,0,0,0,0,0,0,0,0,,,,,0.0,,,,,,
2173354,1745089295424,,,,,,,,,,,,,,,,,,,,,,,,,,,,,,,,,,0,0,0,0,0,0,0,0,0,0,0,0,0,0,0,0,,,,,,,,,,,
2173374,1745089295444,45.37,184.51,,-0.17,-0.06,0.89,1,0,0,0.9,1.13,80,4324,9.2,3.25,,12.12,1.195,89.8,,26.5,5,,,,,,,,,,,,0,0,0,0,0,0,0,0,0,0,0,0,0,0,0,0,,,,,0.0,,,,,,
2173394,1745089295464,,,,,,,,,,,,,,,,,,,,,,,,,,,,,,,,,,0,0,0,0,0,0,0,0,0,0,0,0,0,0,0,0,,,,,,,,,,,
2173414,1745089295484,42.86,184.39,13.65,-0.18,-0.12,0.87,1,0,-0,0.89,1.13,79,4324,9.2,3.25,15,12.13,1.22,89.8,173,26.5,5,11,0,11,11,0.0,0.0,0.0,0.0,2.26,0,0.0,0,0,0,0,0,0,0,0,0,0,0,0,0,0,0,0,0,0.0,0,0,0.0,39.239719,-77.965805,18.46,34,3,0.8
2173434,1745089295504,,,,,,,,,,,,,,,,,,,,,,,,,,,,,,,,,,0,0,0,0,0,0,0,0,0,0,0,0,0,0,0,0,,,,,,,,,,,
2173454,1745089295524,41.6,184.51,,-0.22,0.01,1.01,-0,-0,1,1.04,1.13,92,4285,9.3,3.27,,12.2,1.218,89.8,,25.8,5,,,,,,,,,,,,0,0,0,0,0,0,0,0,0,0,0,0,0,0,0,0,,,,,0.0,,,,,,
2173474,1745089295544,,,,,,,,,,,,,,,,,,,,,,,,,,,,,,,,,,0,0,0,0,0,0,0,0,0,0,0,0,0,0,0,0,,,,,,,,,,,
2173494,1745089295564,42.23,184.51,,-0.21,-0.01,0.93,1,-0,0,0.95,1.13,85,4260,9.2,3.3,,12.19,1.214,89.8,,25.8,5,,,,,,,,,,,,0,0,0,0,0,0,0,0,0,0,0,0,0,0,0,0,,,,,0.0,,,,,,
2173514,1745089295584,,,,,,,,,,,,,,,,,,,,,,,11,0,11,11,0.0,12.0,0.0,0.0,2.26,,,0,0,0,0,0,0,0,0,0,0,0,0,0,0,0,0,0,,,,,39.239716,-77.965805,17.95,34,3,0.8
2173534,1745089295604,45.37,184.51,,-0.24,-0.05,0.89,0,-0,0,0.92,1.13,82,4211,9.2,3.35,,12.16,1.228,89.8,,25.8,5,,,,,,,,,,,,0,0,0,0,0,0,0,0,0,0,0,0,0,0,0,0,,,,,0.0,,,,,,
2173554,1745089295624,,,,,,,,,,,,,,,,,,,,,,,,,,,,,,,,,,0,0,0,0,0,0,0,0,0,0,0,0,0,0,0,0,,,,,,,,,,,
2173574,1745089295644,48.52,184.51,,-0.23,0.06,0.96,0,-0,0,0.98,1.13,87,4132,9.2,3.34,,12.16,1.228,89.8,,25.4,5,,,,,,,,,,,,0,0,0,0,0,0,0,0,0,0,0,0,0,0,0,0,,,,,0.0,,,,,,
2173594,1745089295664,,,,,,,,,,,,,,,,,,,,,,,,,,,,,,,,,,0,0,0,0,0,0,0,0,0,0,0,0,0,0,0,0,,,,,,,,,,,
2173614,1745089295684,51.66,184.51,,-0.24,-0.04,0.91,-0,-0,0,0.94,1.13,84,4132,9.2,3.34,,12.23,1.234,89.8,,25.4,5,10,0,10,10,0.0,6.0,0.0,0.0,2.26,,,0,0,0,0,0,0,0,0,0,0,0,0,0,0,0,0,0,,,,0.0,39.239712,-77.965813,17.34,34,3,0.8
2173634,1745089295704,,,,,,,,,,,,,,,,,,,,,,,,,,,,,,,,,,0,0,0,0,0,0,0,0,0,0,0,0,0,0,0,0,,,,,,,,,,,
2173654,1745089295724,56.69,184.64,,-0.25,0.06,1.0,-0,-0,0,1.03,1.13,91,4112,9.1,3.35,,12.15,1.216,89.8,,25.4,5,,,,,,,,,,,,0,0,0,0,0,0,0,0,0,0,0,0,0,0,0,0,,,,,0.0,,,,,,
2173674,1745089295744,,,,,,,,,,,,,,,,,,,,,,,,,,,,,,,,,,0,0,0,0,0,0,0,0,0,0,0,0,0,0,0,0,,,,,,,,,,,
2173694,1745089295764,61.09,184.64,,-0.28,-0.03,0.92,-0,-0,0,0.96,1.13,85,4136,9.0,3.35,,12.23,1.224,89.8,,25.4,5,,,,,,,,,,,,0,0,0,0,0,0,0,0,0,0,0,0,0,0,0,0,,,,,0.0,,,,,,
2173714,1745089295784,,,,,,,,,,,,,,,,,,,,,,,10,0,10,10,0.0,7.0,0.0,0.0,2.26,,,0,0,0,0,0,0,0,0,0,0,0,0,0,0,0,0,0,,,,,39.239708,-77.965813,16.5,34,3,0.8
2173734,1745089295804,65.49,184.51,,-0.29,0.05,0.98,-0,-0,0,1.03,1.13,91,4102,10.6,3.44,,12.35,1.236,89.8,,25.4,5,,,,,,,,,,,,0,0,0,0,0,0,0,0,0,0,0,0,0,0,0,0,,,,,0.0,,,,,,
2173754,1745089295824,,,,,,,,,,,,,,,,,,,,,,,,,,,,,,,,,,0,0,0,0,0,0,0,0,0,0,0,0,0,0,0,0,,,,,,,,,,,
2173774,1745089295844,70.51,184.64,,-0.32,-0.0,0.97,-1,-1,1,1.02,1.13,90,4049,12.7,3.39,,12.35,1.236,89.8,,24.6,5,,,,,,,,,,,,0,0,0,0,0,0,0,0,0,0,0,0,0,0,0,0,,,,,0.0,,,,,,
2173794,1745089295864,,,,,,,,,,,,,,,,,,,,,,,,,,,,,,,,,,0,0,0,0,0,0,0,0,0,0,0,0,0,0,0,0,,,,,,,,,,,
2173814,1745089295884,73.03,184.64,,-0.32,-0.02,0.93,-0,-1,0,0.99,1.13,88,4049,12.7,3.39,,12.61,1.22,88.0,,24.6,5,9,0,9,9,0.0,220.0,0.0,0.0,2.26,,,0,0,0,0,0,0,0,0,0,0,0,0,0,0,0,0,0,,,,0.0,39.239708,-77.96582,15.4,34,3,0.8
2173834,1745089295904,,,,,,,,,,,,,,,,,,,,,,,,,,,,,,,,,,0,0,0,0,0,0,0,0,0,0,0,0,0,0,0,0,,,,,,,,,,,
2173854,1745089295924,73.66,184.51,,-0.33,0.01,1.0,-1,-1,1,1.05,1.13,93,4079,14.4,3.44,,12.79,1.224,88.0,,24.1,5,,,,,,,,,,,,0,0,0,0,0,0,0,0,0,0,0,0,0,0,0,0,,,,,0.0,,,,,,
2173874,1745089295944,,,,,,,,,,,,,,,,,,,,,,,,,,,,,,,,,,0,0,0,0,0,0,0,0,0,0,0,0,0,0,0,0,,,,,,,,,,,
2173894,1745089295964,74.28,184.51,,-0.35,-0.05,0.9,-0,-0,0,0.97,1.13,86,4067,15.1,3.46,,13.01,1.217,88.0,,24.1,5,,,,,,,,,,,,0,0,0,0,0,0,0,0,0,0,0,0,0,0,0,0,,,,,0.0,,,,,,
2173914,1745089295984,,,,,,,,,,,,,,,,,,,,,,,8,0,8,8,0.0,248.0,0.0,0.0,2.26,,,0,0,0,0,0,0,0,0,0,0,0,0,0,0,0,0,0,,,,,39.239704,-77.96582,14.4,34,3,0.8
2173934,1745089295996,74.28,184.64,,-0.33,-0.0,0.93,0,-0,-0,0.98,1.13,87,3982,15.2,3.45,,13.0,1.231,88.0,,24.1,5,,,,,,,,,,,,0,0,0,0,0,0,0,0,0,0,0,0,0,0,0,0,,,,,0.0,,,,,,
2173954,1745089296016,,,,,,,,,,,,,,,,,,,,,,,,,,,,,,,,,,0,0,0,0,0,0,0,0,0,0,0,0,0,0,0,0,,,,,,,,,,,
2173974,1745089296036,73.66,184.51,,-0.34,0.01,0.95,-0,-0,0,1.0,1.13,89,3997,15.2,3.46,,13.0,1.231,88.0,,24.1,5,,,,,,,,,,,,0,0,0,0,0,0,0,0,0,0,0,0,0,0,0,0,,,,,0.0,,,,,,
2173994,1745089296056,,,,,,,,,,,,,,,,,,,,,,,,,,,,,,,,,,0,0,0,0,0,0,0,0,0,0,0,0,0,0,0,0,,,,,,,,,,,
2174434,1745089296503,,,,,,,,,,,,,,,,,,,,,,,,,,,,,,,,,,0,0,0,0,0,0,0,0,0,0,0,0,0,0,0,0,,,,,,,,,,,
2174454,1745089296523,70.51,184.51,,-0.35,0.07,1.02,-1,0,1,1.08,1.08,100,4352,4.1,3.25,,11.8,1.188,88.0,,25.8,5,,,,,,,,,,,,0,0,0,0,0,0,0,0,0,0,0,0,0,0,0,0,,,,,0.0,,,,,,
2174474,1745089296543,,,,,,,,,,,,,,,,,,,,,,,,,,,,,,,,,,0,0,0,0,0,0,0,0,0,0,0,0,0,0,0,0,,,,,,,,,,,
2174494,1745089296563,69.88,184.26,,-0.33,-0.04,0.9,0,0,-0,0.96,1.08,88,4279,4.1,3.22,,11.68,1.173,88.0,,25.8,5,,,,,,,,,,,,0,0,0,0,0,0,0,0,0,0,0,0,0,0,0,0,,,,,0.0,,,,,,
2174514,1745089296583,,,,,,,,,,,,,,,,,,,,,,,4,0,4,4,0.0,0.0,0.0,0.0,2.26,,,0,0,0,0,0,0,0,0,0,0,0,0,0,0,0,0,0,,,,,39.239689,-77.965828,7.92,34,3,0.8
2174534,1745089296603,68.63,184.39,,-0.34,-0.0,0.94,-0,-0,0,1.0,1.08,92,4222,4.1,3.22,,11.58,1.164,88.0,,25.8,5,,,,,,,,,,,,0,0,0,0,0,0,0,0,0,0,0,0,0,0,0,0,,,,,0.0,,,,,,
2174554,1745089296623,,,,,,,,,,,,,,,,,,,,,,,,,,,,,,,,,,0,0,0,0,0,0,0,0,0,0,0,0,0,0,0,0,,,,,,,,,,,
2174574,1745089296643,66.74,184.26,,-0.31,0.03,0.95,-0,-0,-0,1.0,1.08,92,4136,4.1,3.93,,11.58,1.164,88.0,,25.3,5,,,,,,,,,,,,0,0,0,0,0,0,0,0,0,0,0,0,0,0,0,0,,,,,0.0,,,,,,
2174594,1745089296663,,,,,,,,,,,,,,,,,,,,,,,,,,,,,,,,,,0,0,0,0,0,0,0,0,0,0,0,0,0,0,0,0,,,,,,,,,,,
2174614,1745089296683,66.11,184.26,,-0.33,0.04,0.99,-1,-0,0,1.04,1.08,96,4136,4.1,3.93,,11.48,1.158,88.0,,25.3,5,4,0,4,4,0.0,0.0,0.0,0.0,2.26,,,0,0,0,0,0,0,0,0,0,0,0,0,0,0,0,0,0,,,,0.0,39.239685,-77.965828,6.92,34,3,0.8
2174634,1745089296703,,,,,,,,,,,,,,,,,,,,,,,,,,,,,,,,,,0,0,0,0,0,0,0,0,0,0,0,0,0,0,0,0,,,,,,,,,,,
2174654,1745089296723,65.49,184.26,,-0.32,-0.02,0.96,0,-0,-0,1.01,1.08,93,4088,4.0,3.95,,11.48,1.142,88.0,,24.5,5,,,,,,,,,,,,0,0,0,0,0,0,0,0,0,0,0,0,0,0,0,0,,,,,0.0,,,,,,
2174674,1745089296743,,,,,,,,,,,,,,,,,,,,,,,,,,,,,,,,,,0,0,0,0,0,0,0,0,0,0,0,0,0,0,0,0,,,,,,,,,,,
2174694,1745089296763,66.74,184.26,,-0.32,0.05,1.02,0,-0,0,1.07,1.08,98,3996,3.9,3.9,,11.52,1.14,88.0,,24.5,5,,,,,,,,,,,,0,0,0,0,0,0,0,0,0,0,0,0,0,0,0,0,,,,,0.0,,,,,,
2174714,1745089296783,,,,,,,,,,,,,,,,,,,,,,,3,0,3,3,0.0,0.0,0.0,0.0,2.26,,,0,0,0,0,0,0,0,0,0,0,0,0,0,0,0,0,0,,,,,39.239685,-77.965828,5.38,34,3,0.8
2174734,1745089296803,68.0,184.26,,-0.31,0.08,1.04,-0,-0,0,1.09,1.09,100,3826,3.9,3.95,,11.67,1.115,88.0,,24.5,5,,,,,,,,,,,,0,0,0,0,0,0,0,0,0,0,0,0,0,0,0,0,,,,,0.0,,,,,,
2174754,1745089296823,,,,,,,,,,,,,,,,,,,,,,,,,,,,,,,,,,0,0,0,0,0,0,0,0,0,0,0,0,0,0,0,0,,,,,,,,,,,
2174774,1745089296843,68.63,184.26,,-0.3,0.07,1.02,-0,-0,0,1.07,1.09,98,3709,3.9,3.97,,11.67,1.115,88.0,,22.9,5,,,,,,,,,,,,0,0,0,0,0,0,0,0,0,0,0,0,0,0,0,0,,,,,0.0,,,,,,
2174794,1745089296863,,,,,,,,,,,,,,,,,,,,,,,,,,,,,,,,,,0,0,0,0,0,0,0,0,0,0,0,0,0,0,0,0,,,,,,,,,,,
2174814,1745089296883,69.88,184.26,,-0.32,0.04,0.98,0,-0,-0,1.04,1.09,95,3709,3.9,3.97,,11.76,1.076,82.6,,22.9,5,3,0,3,3,0.0,0.0,0.0,0.0,2.26,,,0,0,0,0,0,0,0,0,0,0,0,0,0,0,0,0,0,,,,0.0,39.239685,-77.965836,4.49,34,3,0.8
2174834,1745089296903,,,,,,,,,,,,,,,,,,,,,,,,,,,,,,,,,,0,0,0,0,0,0,0,0,0,0,0,0,0,0,0,0,,,,,,,,,,,
2174854,1745089296923,69.26,184.14,,-0.33,0.04,1.04,-0,-0,0,1.09,1.09,100,3543,4.0,3.95,,11.99,1.051,82.6,,20.8,5,,,,,,,,,,,,0,0,0,0,0,0,0,0,0,0,0,0,0,0,0,0,,,,,0.0,,,,,,
2174874,1745089296943,,,,,,,,,,,,,,,,,,,,,,,,,,,,,,,,,,0,0,0,0,0,0,0,0,0,0,0,0,0,0,0,0,,,,,,,,,,,
2174894,1745089296963,69.88,184.26,,-0.32,0.07,0.96,0,-0,-0,1.01,1.09,93,3395,4.0,4.04,,12.15,1.036,82.6,,20.8,5,,,,,,,,,,,,0,0,0,0,0,0,0,0,0,0,0,0,0,0,0,0,,,,,0.0,,,,,,
2174914,1745089296983,,,,,,,,,,,,,,,,,,,,,,,2,0,2,2,0.0,0.0,0.0,0.0,2.26,,,0,0,0,0,0,0,0,0,0,0,0,0,0,0,0,0,0,,,,,39.239685,-77.965836,3.42,34,3,0.8
2174934,1745089296995,69.26,184.26,,-0.3,0.11,0.98,-0,-0,0,1.03,1.09,95,3260,4.0,4.11,,12.32,1.014,82.6,,20.8,5,,,,,,,,,,,,0,0,0,0,0,0,0,0,0,0,0,0,0,0,0,0,,,,,0.0,,,,,,
2174954,1745089297015,,,,,,,,,,,,,,,,,,,,,,,,,,,,,,,,,,0,0,0,0,0,0,0,0,0,0,0,0,0,0,0,0,,,,,,,,,,,
2174974,1745089297035,68.63,184.39,,-0.28,0.1,1.01,-1,-0,1,1.05,1.09,96,3025,5.2,4.15,,12.32,1.014,82.6,,18.8,5,,,,,,,,,,,,0,0,0,0,0,0,0,0,0,0,0,0,0,0,0,0,,,,,0.0,,,,,,
2174994,1745089297055,,,,,,,,,,,,,,,,,,,,,,,,,,,,,,,,,,0,0,0,0,0,0,0,0,0,0,0,0,0,0,0,0,,,,,,,,,,,
2175014,1745089297075,69.88,184.39,,-0.27,0.12,1.0,-1,-0,1,1.04,1.09,95,3025,5.2,4.15,,12.59,1.009,82.6,,18.8,5,2,0,1,1,0.0,0.0,0.0,0.0,2.25,,,0,0,0,0,0,0,0,0,0,0,0,0,0,0,0,0,0,,,,0.0,39.239685,-77.965836,2.85,33,3,0.9
2175034,1745089297105,,,,,,,,,,,,,,,,,,,,,,,,,,,,,,,,,,0,0,0,0,0,0,0,0,0,0,0,0,0,0,0,0,,,,,,,,,,,
2175054,1745089297125,71.14,184.39,,-0.28,0.12,0.96,-1,-0,1,1.01,1.09,92,2874,7.8,4.27,,12.96,0.98,82.6,,17.1,5,,,,,,,,,,,,0,0,0,0,0,0,0,0,0,0,0,0,0,0,0,0,,,,,0.0,,,,,,
2175074,1745089297145,,,,,,,,,,,,,,,,,,,,,,,,,,,,,,,,,,0,0,0,0,0,0,0,0,0,0,0,0,0,0,0,0,,,,,,,,,,,
2175094,1745089297165,76.17,184.51,,-0.31,0.11,1.0,-0,-0,0,1.05,1.09,96,2780,12.9,4.46,,13.36,0.944,82.6,,17.1,5,,,,,,,,,,,,0,0,0,0,0,0,0,0,0,0,0,0,0,0,0,0,,,,,0.0,,,,,,
2175114,1745089297185,,,,,,,,,,,,,,,,,,,,,,,1,0,1,1,0.0,0.0,0.0,0.0,2.26,,,0,0,0,0,0,0,0,0,0,0,0,0,0,0,0,0,0,,,,,39.239685,-77.965836,1.94,33,3,0.9
2175134,1745089297202,81.83,184.51,,-0.3,0.12,0.99,-0,-0,1,1.04,1.09,95,2728,13.7,4.66,,13.6,0.916,82.6,,17.1,5,,,,,,,,,,,,0,0,0,0,0,0,0,0,0,0,0,0,0,0,0,0,,,,,0.0,,,,,,
2175154,1745089297222,,,,,,,,,,,,,,,,,,,,,,,,,,,,,,,,,,0,0,0,0,0,0,0,0,0,0,0,0,0,0,0,0,,,,,,,,,,,
2175174,1745089297242,86.85,184.51,,-0.26,0.13,0.95,-0,-0,0,0.99,1.09,91,2800,14.0,4.65,,13.6,0.916,82.6,,16.6,5,,,,,,,,,,,,0,0,0,0,0,0,0,0,0,0,0,0,0,0,0,0,,,,,0.0,,,,,,
2175194,1745089297262,,,,,,,,,,,,,,,,,,,,,,,,,,,,,,,,,,0,0,0,0,0,0,0,0,0,0,0,0,0,0,0,0,,,,,,,,,,,
2175214,1745089297282,90.62,184.64,,-0.25,0.11,0.96,-0,0,0,1.0,1.09,92,2800,14.0,4.65,,13.68,0.916,82.6,,16.6,5,1,0,1,1,0.0,0.0,0.0,0.0,2.26,,,0,0,0,0,0,0,0,0,0,0,0,0,0,0,0,0,0,,,,0.0,39.239685,-77.965836,0.79,33,3,0.9
2175234,1745089297304,,,,,,,,,,,,,,,,,,,,,,,,,,,,,,,,,,0,0,0,0,0,0,0,0,0,0,0,0,0,0,0,0,,,,,,,,,,,
2175254,1745089297324,95.02,184.64,,-0.23,0.07,1.03,0,0,0,1.06,1.09,96,2826,7.4,4.1,,13.48,0.923,82.6,,17.1,5,,,,,,,,,,,,0,0,0,0,0,0,0,0,0,0,0,0,0,0,0,0,,,,,0.0,,,,,,
2175274,1745089297344,,,,,,,,,,,,,,,,,,,,,,,,,,,,,,,,,,0,0,0,0,0,0,0,0,0,0,0,0,0,0,0,0,,,,,,,,,,,
2175294,1745089297364,96.91,184.64,,-0.18,0.02,1.08,0,0,0,1.1,1.1,100,2892,6.9,4.1,,13.37,0.93,82.6,,17.1,5,,,,,,,,,,,,0,0,0,0,0,0,0,0,0,0,0,0,0,0,0,0,,,,,0.0,,,,,,
2175314,1745089297384,,,,,,,,,,,,,,,,,,,,,,,1,0,1,1,0.0,0.0,0.0,0.0,2.26,,,0,0,0,0,0,0,0,0,0,0,0,0,0,0,0,0,0,,,,,39.239685,-77.965836,0.63,33,3,0.9
2175334,1745089297404,98.79,184.64,,-0.15,-0.05,1.11,-0,-0,0,1.12,1.12,100,2960,6.8,4.09,,13.28,0.939,82.6,,17.1,5,,,,,,,,,,,,0,0,0,0,0,0,0,0,0,0,0,0,0,0,0,0,,,,,0.0,,,,,,
2175354,1745089297424,,,,,,,,,,,,,,,,,,,,,,,,,,,,,,,,,,0,0,0,0,0,0,0,0,0,0,0,0,0,0,0,0,,,,,,,,,,,
2175374,1745089297444,100.05,184.64,,-0.12,-0.07,1.11,-1,-0,1,1.12,1.12,100,2976,7.5,4.09,,13.28,0.939,82.6,,18.0,5,,,,,,,,,,,,0,0,0,0,0,0,0,0,0,0,0,0,0,0,0,0,,,,,0.0,,,,,,
