"Interval"|"ms"|0|0|1,"Utc"|"ms"|0|0|1,"FrontBP"|"psi"|-5.0|5.0|25,"SteerAng"|"Degrees"|-145.0|145.0|25,"Battery"|"Volts"|-5.0|20.0|1,"AccelX"|"G"|-3.0|3.0|25,"AccelY"|"G"|-3.0|3.0|25,"AccelZ"|"G"|-3.0|3.0|25,"Yaw"|"Deg/Sec"|-120|120|25,"Pitch"|"Deg/Sec"|-120|120|25,"Roll"|"Deg/Sec"|-120|120|25,"Gsum"|"G"|0.0|3.0|25,"GsumMax"|"G"|0.0|3.0|25,"GsumPct"|"%"|0|100|25,"RPM"|""|0|10000|25,"TPS"|"%"|0.0|100.0|25,"InjectorPW"|"ms"|0.0|100.0|25,"Baro"|"kPa"|0|105|1,"MAP"|"Psi"|0.0|255.0|25,"Lambda"|""|-2.0|2.0|25,"IAT"|"C"|0.0|200.0|25,"EngineTemp"|"C"|0|200|1,"EOP"|"PSI"|0.0|152.0|25,"EOT"|"F"|0|250|25,"WSFR"|"MPH"|0|150|10,"WSFL"|"MPH"|0|100|10,"WSRR"|"MPH"|0|100|10,"WSRL"|""|0|100|10,"TCSet"|"%"|0.0|100.0|10,"TCSlip"|"%"|0.0|100.0|10,"TCComp"|"deg"|0.0|50.0|10,"TCCut"|"%"|0.0|100.0|10,"Analog8"|""|0.0|5.0|10,"OilTemp"|"F"|0|300|1,"AA_On"|""|0.0|1.0|1,"ThermLF1"|"C"|0|400|50,"ThermLF2"|"C"|0|400|50,"ThermRR1"|"C"|0|400|50,"ThermRR2"|"C"|0|400|50,"ThermLF3"|"C"|0|400|50,"ThermLF4"|"C"|0|400|50,"ThermLF5"|"C"|0|400|50,"ThermLF6"|"C"|0|400|50,"ThermLF7"|"C"|0|400|50,"ThermLF8"|"C"|0|400|50,"ThermRR3"|"C"|0|400|50,"ThermRR4"|"C"|0|400|50,"ThermRR5"|"C"|0|400|50,"ThermRR6"|"C"|0|400|50,"ThermRR7"|"C"|0|400|50,"ThermRR8"|"C"|0|400|50,"Gear"|""|1|6|10,"AA_On"|""|0.0|1.0|1,"AA_LowDrag"|""|0|1|1,"Fuel_Mix"|""|-10|10|1,"AA_Packages"|""|0.0|1000.0|25,"Latitude"|"Degrees"|-180.0|180.0|10,"Longitude"|"Degrees"|-180.0|180.0|10,"Speed"|"kph"|0.0|150.0|10,"GPSSats"|""|0|20|10,"GPSQual"|""|0|5|10,"GPSDOP"|""|0.0|20.0|10
125898,1745094838362,0.0,200.48,,-0.08,0.62,1.56,0,-0,1,1.68,1.68,100,4546,2.9,3.18,,10.9,0.887,95.2,,60.5,5,,,,,,,,,,,,0,0,0,0,0,0,0,0,0,0,0,0,0,0,0,0,,,,,0.0,,,,,,
125918,1745094838382,,,,,,,,,,,,,,,,,,,,,,,,,,,,,,,,,,0,0,0,0,0,0,0,0,0,0,0,0,0,0,0,0,,,,,,,,,,,
125938,1745094838400,0.0,200.48,,-0.08,0.67,1.6,1,-0,1,1.74,1.74,100,4483,2.8,3.13,,10.97,0.885,93.4,,60.5,5,,,,,,,,,,,,0,0,0,0,0,0,0,0,0,0,0,0,0,0,0,0,,,,,0.0,,,,,,
125958,1745094838420,,,,,,,,,,,,,,,,,,,,,,,,,,,,,,,,,,0,0,0,0,0,0,0,0,0,0,0,0,0,0,0,0,,,,,,,,,,,
125978,1745094838440,0.0,200.48,,-0.06,0.68,1.61,1,-0,1,1.75,1.75,100,4466,2.8,3.06,,11.01,0.89,93.4,,60.5,5,0,0,0,0,0.0,0.0,0.0,0.0,2.26,,,0,0,0,0,0,0,0,0,0,0,0,0,0,0,0,0,0,,,,0.0,39.240116,-77.964874,0.07,25,2,1.0
125998,1745094838460,,,,,,,,,,,,,,,,,,,,,,,,,,,,,,,,,,0,0,0,0,0,0,0,0,0,0,0,0,0,0,0,0,,,,,,,,,,,
126018,1745094838480,0.0,200.6,,-0.04,0.63,1.59,2,-0,0,1.71,1.75,98,4435,2.7,3.06,,11.01,0.89,93.4,,59.2,5,,,,,,,,,,,,0,0,0,0,0,0,0,0,0,0,0,0,0,0,0,0,,,,,0.0,,,,,,
126038,1745094838501,,,,,,,,,,,,,,,,,,,,,,,,,,,,,,,,,,0,0,0,0,0,0,0,0,0,0,0,0,0,0,0,0,,,,,,,,,,,
126058,1745094838521,0.0,200.6,,-0.0,0.52,1.47,3,-0,-1,1.55,1.75,89,4398,2.2,3.11,,10.97,0.889,93.4,,59.2,5,,,,,,,,,,,,0,0,0,0,0,0,0,0,0,0,0,0,0,0,0,0,,,,,0.0,,,,,,
126078,1745094838541,,,,,,,,,,,,,,,,,,,,,,,0,0,0,0,0.0,0.0,0.0,0.0,2.27,,,0,0,0,0,0,0,0,0,0,0,0,0,0,0,0,0,0,,,,,39.240116,-77.964874,0.08,25,2,1.0
126098,1745094838561,0.0,200.6,,0.03,0.38,1.32,3,-0,-1,1.37,1.75,79,4398,2.2,3.11,,11.04,0.882,93.4,,58.7,5,,,,,,,,,,,,0,0,0,0,0,0,0,0,0,0,0,0,0,0,0,0,,,,,0.0,,,,,,
126118,1745094838581,,,,,,,,,,,,,,,,,,,,,,,,,,,,,,,,,,0,0,0,0,0,0,0,0,0,0,0,0,0,0,0,0,,,,,,,,,,,
126138,1745094838601,0.0,200.48,,0.0,0.25,1.25,3,-0,-1,1.27,1.75,73,4400,0.8,2.42,,10.78,0.878,93.4,,58.7,5,,,,,,,,,,,,0,0,0,0,0,0,0,0,0,0,0,0,0,0,0,0,,,,,0.0,,,,,,
126158,1745094838621,,,,,,,,,,,,,,,,,,,,,,,,,,,,,,,,,,0,0,0,0,0,0,0,0,0,0,0,0,0,0,0,0,,,,,,,,,,,
126178,1745094838641,0.0,200.6,,-0.05,0.24,1.25,2,-0,-1,1.27,1.75,73,4343,0.4,2.09,,10.72,0.882,93.4,,58.7,5,0,0,0,0,0.0,0.0,0.0,0.0,2.26,,,0,0,0,0,0,0,0,0,0,0,0,0,0,0,0,0,0,,,,0.0,39.240116,-77.964874,0.0,25,2,1.0
126198,1745094838661,,,,,,,,,,,,,,,,,,,,,,,,,,,,,,,,,,0,0,0,0,0,0,0,0,0,0,0,0,0,0,0,0,,,,,,,,,,,
126218,1745094838681,0.0,200.6,,-0.03,0.3,1.28,2,-0,-0,1.31,1.75,75,4256,0.0,1.85,,10.66,0.885,93.4,,56.8,5,,,,,,,,,,,,0,0,0,0,0,0,0,0,0,0,0,0,0,0,0,0,,,,,0.0,,,,,,
126238,1745094838702,,,,,,,,,,,,,,,,,,,,,,,,,,,,,,,,,,0,0,0,0,0,0,0,0,0,0,0,0,0,0,0,0,,,,,,,,,,,
126258,1745094838722,0.0,200.48,,-0.04,0.19,1.19,2,-0,-1,1.21,1.75,69,4007,0.0,1.8,,10.66,0.885,93.4,,56.8,5,,,,,,,,,,,,0,0,0,0,0,0,0,0,0,0,0,0,0,0,0,0,,,,,0.0,,,,,,
126278,1745094838742,,,,,,,,,,,,,,,,,,,,,,,0,0,0,0,0.0,0.0,0.0,0.0,2.26,,,0,0,0,0,0,0,0,0,0,0,0,0,0,0,0,0,0,,,,,39.240116,-77.964874,0.04,25,2,1.0
126298,1745094838762,0.0,200.6,,-0.05,0.15,1.16,2,-0,-1,1.17,1.75,67,4007,0.0,1.8,,10.57,0.898,93.4,,53.1,5,,,,,,,,,,,,0,0,0,0,0,0,0,0,0,0,0,0,0,0,0,0,,,,,0.0,,,,,,
126318,1745094838782,,,,,,,,,,,,,,,,,,,,,,,,,,,,,,,,,,0,0,0,0,0,0,0,0,0,0,0,0,0,0,0,0,,,,,,,,,,,
126338,1745094838801,0.0,200.6,,-0.04,0.13,1.15,1,-0,-0,1.16,1.75,67,3788,0.0,1.85,,10.74,0.952,93.4,,53.1,5,,,,,,,,,,,,0,0,0,0,0,0,0,0,0,0,0,0,0,0,0,0,,,,,0.0,,,,,,
126358,1745094838821,,,,,,,,,,,,,,,,,,,,,,,,,,,,,,,,,,0,0,0,0,0,0,0,0,0,0,0,0,0,0,0,0,,,,,,,,,,,
126378,1745094838841,0.0,200.6,13.36,-0.04,0.15,1.17,0,-0,-0,1.18,1.75,68,3617,0.0,2.07,15,10.94,1.03,93.4,106,53.1,5,0,0,0,0,0.0,0.0,0.0,0.0,2.26,0,0.0,0,0,0,0,0,0,0,0,0,0,0,0,0,0,0,0,0,0.0,0,0,0.0,39.240116,-77.964874,0.04,25,2,1.0
126398,1745094838861,,,,,,,,,,,,,,,,,,,,,,,,,,,,,,,,,,0,0,0,0,0,0,0,0,0,0,0,0,0,0,0,0,,,,,,,,,,,
126418,1745094838881,0.0,200.6,,-0.02,0.16,1.08,1,-0,-0,1.09,1.75,63,3432,0.0,2.58,,11.08,1.095,93.4,,50.7,5,,,,,,,,,,,,0,0,0,0,0,0,0,0,0,0,0,0,0,0,0,0,,,,,0.0,,,,,,
126438,1745094838901,,,,,,,,,,,,,,,,,,,,,,,,,,,,,,,,,,0,0,0,0,0,0,0,0,0,0,0,0,0,0,0,0,,,,,,,,,,,
126458,1745094838921,0.0,200.6,,-0.04,0.08,1.16,0,-0,-0,1.16,1.75,67,3267,0.0,2.67,,11.08,1.095,93.4,,50.7,5,,,,,,,,,,,,0,0,0,0,0,0,0,0,0,0,0,0,0,0,0,0,,,,,0.0,,,,,,
126478,1745094838941,,,,,,,,,,,,,,,,,,,,,,,0,0,0,0,0.0,0.0,0.0,0.0,2.26,,,0,0,0,0,0,0,0,0,0,0,0,0,0,0,0,0,0,,,,,39.240116,-77.964874,0.13,25,2,1.0
126498,1745094838961,0.0,200.6,,-0.06,0.04,1.11,1,-0,-0,1.11,1.75,64,3267,0.0,2.67,,11.32,1.146,93.4,,45.2,5,,,,,,,,,,,,0,0,0,0,0,0,0,0,0,0,0,0,0,0,0,0,,,,,0.0,,,,,,
126518,1745094838981,,,,,,,,,,,,,,,,,,,,,,,,,,,,,,,,,,0,0,0,0,0,0,0,0,0,0,0,0,0,0,0,0,,,,,,,,,,,
126538,1745094838993,0.0,200.6,,-0.05,0.06,1.01,1,-0,-0,1.01,1.75,58,3161,0.0,2.71,,11.49,1.173,93.4,,45.2,5,,,,,,,,,,,,0,0,0,0,0,0,0,0,0,0,0,0,0,0,0,0,,,,,0.0,,,,,,
126558,1745094839013,,,,,,,,,,,,,,,,,,,,,,,,,,,,,,,,,,0,0,0,0,0,0,0,0,0,0,0,0,0,0,0,0,,,,,,,,,,,
126578,1745094839033,0.0,200.6,,-0.03,0.09,0.94,1,-0,-0,0.95,1.75,54,2999,3.6,3.41,,12.01,1.16,93.4,,45.2,5,0,0,0,0,0.0,0.0,0.0,0.0,2.26,,,0,0,0,0,0,0,0,0,0,0,0,0,0,0,0,0,0,,,,0.0,39.240116,-77.964874,0.1,25,2,1.0
126598,1745094839053,,,,,,,,,,,,,,,,,,,,,,,,,,,,,,,,,,0,0,0,0,0,0,0,0,0,0,0,0,0,0,0,0,,,,,,,,,,,
126618,1745094839073,0.0,200.6,,-0.03,0.05,0.9,1,-0,-1,0.9,1.75,52,2936,5.4,3.59,,12.43,1.117,93.4,,40.7,5,,,,,,,,,,,,0,0,0,0,0,0,0,0,0,0,0,0,0,0,0,0,,,,,0.0,,,,,,
126638,1745094839095,,,,,,,,,,,,,,,,,,,,,,,,,,,,,,,,,,0,0,0,0,0,0,0,0,0,0,0,0,0,0,0,0,,,,,,,,,,,
126658,1745094839115,0.0,200.6,,-0.04,0.01,0.9,1,-0,-1,0.9,1.75,52,2871,5.9,3.63,,12.43,1.117,93.4,,40.7,5,,,,,,,,,,,,0,0,0,0,0,0,0,0,0,0,0,0,0,0,0,0,,,,,0.0,,,,,,
126678,1745094839135,,,,,,,,,,,,,,,,,,,,,,,0,0,0,0,0.0,0.0,0.0,0.0,2.26,,,0,0,0,0,0,0,0,0,0,0,0,0,0,0,0,0,0,,,,,39.240116,-77.964874,0.13,25,2,1.0
126698,1745094839155,0.0,200.6,,-0.05,-0.04,0.94,1,-0,-1,0.94,1.75,54,2871,5.9,3.63,,12.71,1.082,93.4,,39.9,5,,,,,,,,,,,,0,0,0,0,0,0,0,0,0,0,0,0,0,0,0,0,,,,,0.0,,,,,,
126718,1745094839175,,,,,,,,,,,,,,,,,,,,,,,,,,,,,,,,,,0,0,0,0,0,0,0,0,0,0,0,0,0,0,0,0,,,,,,,,,,,
126738,1745094839199,0.0,200.6,,-0.06,-0.05,0.97,1,-0,-1,0.98,1.75,56,2880,6.1,3.65,,12.87,1.048,93.4,,39.9,5,,,,,,,,,,,,0,0,0,0,0,0,0,0,0,0,0,0,0,0,0,0,,,,,0.0,,,,,,
126758,1745094839219,,,,,,,,,,,,,,,,,,,,,,,,,,,,,,,,,,0,0,0,0,0,0,0,0,0,0,0,0,0,0,0,0,,,,,,,,,,,
126778,1745094839239,0.0,200.6,,-0.05,-0.02,0.93,1,-0,-0,0.93,1.75,53,2706,6.1,3.64,,13.05,1.018,93.4,,39.9,5,0,0,0,0,0.0,0.0,0.0,0.0,2.26,,,0,0,0,0,0,0,0,0,0,0,0,0,0,0,0,0,0,,,,0.0,39.240116,-77.964874,0.05,25,2,1.0
126798,1745094839259,,,,,,,,,,,,,,,,,,,,,,,,,,,,,,,,,,0,0,0,0,0,0,0,0,0,0,0,0,0,0,0,0,,,,,,,,,,,
126818,1745094839279,0.0,200.73,,-0.05,-0.03,0.96,1,-0,-0,0.96,1.75,55,2884,6.2,3.64,,13.12,1.022,93.4,,36.5,5,,,,,,,,,,,,0,0,0,0,0,0,0,0,0,0,0,0,0,0,0,0,,,,,0.0,,,,,,
126838,1745094839301,,,,,,,,,,,,,,,,,,,,,,,,,,,,,,,,,,0,0,0,0,0,0,0,0,0,0,0,0,0,0,0,0,,,,,,,,,,,
126858,1745094839321,0.0,200.6,,-0.06,-0.01,0.93,1,-0,-0,0.94,1.75,54,2601,6.2,3.47,,13.12,1.022,93.4,,36.5,5,,,,,,,,,,,,0,0,0,0,0,0,0,0,0,0,0,0,0,0,0,0,,,,,0.0,,,,,,
126878,1745094839341,,,,,,,,,,,,,,,,,,,,,,,0,0,0,0,0.0,0.0,0.0,0.0,2.26,,,0,0,0,0,0,0,0,0,0,0,0,0,0,0,0,0,0,,,,,39.240116,-77.964874,0.04,25,2,1.0
126898,1745094839361,0.0,200.6,,-0.05,-0.03,0.93,1,-0,-0,0.93,1.75,53,2601,6.2,3.47,,13.24,1.06,93.4,,32.5,5,,,,,,,,,,,,0,0,0,0,0,0,0,0,0,0,0,0,0,0,0,0,,,,,0.0,,,,,,
126918,1745094839381,,,,,,,,,,,,,,,,,,,,,,,,,,,,,,,,,,0,0,0,0,0,0,0,0,0,0,0,0,0,0,0,0,,,,,,,,,,,
126938,1745094839401,0.0,200.73,,-0.07,-0.02,0.94,0,-0,-0,0.94,1.75,54,2375,4.5,3.62,,13.32,1.111,93.4,,32.5,5,,,,,,,,,,,,0,0,0,0,0,0,0,0,0,0,0,0,0,0,0,0,,,,,0.0,,,,,,
126958,1745094839421,,,,,,,,,,,,,,,,,,,,,,,,,,,,,,,,,,0,0,0,0,0,0,0,0,0,0,0,0,0,0,0,0,,,,,,,,,,,
126978,1745094839441,0.0,200.6,,-0.07,-0.02,0.93,0,-0,-0,0.94,1.75,54,2260,3.9,3.61,,13.36,1.166,93.4,,32.5,5,0,0,0,0,0.0,0.0,0.0,0.0,2.26,,,0,0,0,0,0,0,0,0,0,0,0,0,0,0,0,0,0,,,,0.0,39.240116,-77.964874,0.04,25,2,1.0
126998,1745094839461,,,,,,,,,,,,,,,,,,,,,,,,,,,,,,,,,,0,0,0,0,0,0,0,0,0,0,0,0,0,0,0,0,,,,,,,,,,,
127018,1745094839481,0.0,200.6,,-0.06,-0.02,0.93,0,-0,-0,0.93,1.75,53,2117,3.7,3.59,,13.48,1.247,93.4,,28.5,5,,,,,,,,,,,,0,0,0,0,0,0,0,0,0,0,0,0,0,0,0,0,,,,,0.0,,,,,,
127038,1745094839502,,,,,,,,,,,,,,,,,,,,,,,,,,,,,,,,,,0,0,0,0,0,0,0,0,0,0,0,0,0,0,0,0,,,,,,,,,,,
127058,1745094839522,0.0,200.6,,-0.05,-0.04,0.94,0,-0,-0,0.94,1.75,54,2166,3.6,3.6,,13.48,1.247,93.4,,28.5,5,,,,,,,,,,,,0,0,0,0,0,0,0,0,0,0,0,0,0,0,0,0,,,,,0.0,,,,,,
127078,1745094839542,,,,,,,,,,,,,,,,,,,,,,,0,0,0,0,0.0,0.0,0.0,0.0,2.26,,,0,0,0,0,0,0,0,0,0,0,0,0,0,0,0,0,0,,,,,39.240116,-77.964874,0.05,25,2,1.0
127098,1745094839562,0.0,200.6,,-0.04,-0.03,0.95,0,-0,-0,0.95,1.75,55,2166,3.6,3.6,,13.52,1.249,93.4,,27.4,5,,,,,,,,,,,,0,0,0,0,0,0,0,0,0,0,0,0,0,0,0,0,,,,,0.0,,,,,,
127118,1745094839582,,,,,,,,,,,,,,,,,,,,,,,,,,,,,,,,,,0,0,0,0,0,0,0,0,0,0,0,0,0,0,0,0,,,,,,,,,,,
127138,1745094839600,0.0,200.73,,-0.05,-0.03,0.96,0,-0,-0,0.96,1.75,55,1926,3.6,3.62,,13.65,1.249,93.4,,27.4,5,,,,,,,,,,,,0,0,0,0,0,0,0,0,0,0,0,0,0,0,0,0,,,,,0.0,,,,,,
127158,1745094839620,,,,,,,,,,,,,,,,,,,,,,,,,,,,,,,,,,0,0,0,0,0,0,0,0,0,0,0,0,0,0,0,0,,,,,,,,,,,
127178,1745094839640,0.0,200.73,,-0.06,-0.03,0.97,0,-0,0,0.97,1.75,56,2085,3.7,3.64,,13.6,1.25,93.4,,27.4,5,0,0,0,0,0.0,0.0,0.0,0.0,2.26,,,0,0,0,0,0,0,0,0,0,0,0,0,0,0,0,0,0,,,,0.0,39.240116,-77.964874,0.07,25,2,1.0
127198,1745094839660,,,,,,,,,,,,,,,,,,,,,,,,,,,,,,,,,,0,0,0,0,0,0,0,0,0,0,0,0,0,0,0,0,,,,,,,,,,,
127218,1745094839680,0.0,200.73,,-0.06,-0.02,0.95,0,-0,0,0.96,1.75,55,1901,9.6,3.65,,13.83,1.252,93.4,,25.6,5,,,,,,,,,,,,0,0,0,0,0,0,0,0,0,0,0,0,0,0,0,0,,,,,0.0,,,,,,
127238,1745094839700,,,,,,,,,,,,,,,,,,,,,,,,,,,,,,,,,,0,0,0,0,0,0,0,0,0,0,0,0,0,0,0,0,,,,,,,,,,,
127258,1745094839720,0.0,200.73,,-0.04,-0.02,0.97,-0,-0,0,0.97,1.75,56,1901,9.6,3.65,,13.83,1.252,93.4,,25.6,5,,,,,,,,,,,,0,0,0,0,0,0,0,0,0,0,0,0,0,0,0,0,,,,,0.0,,,,,,
127278,1745094839740,,,,,,,,,,,,,,,,,,,,,,,0,0,0,0,0.0,0.0,0.0,0.0,2.26,,,0,0,0,0,0,0,0,0,0,0,0,0,0,0,0,0,0,,,,,39.240116,-77.964874,0.07,25,2,1.0
127298,1745094839760,0.0,200.73,,-0.05,-0.01,0.96,0,-0,0,0.96,1.75,55,1907,13.3,4.11,,13.99,1.252,93.4,,23.7,5,,,,,,,,,,,,0,0,0,0,0,0,0,0,0,0,0,0,0,0,0,0,,,,,0.0,,,,,,
127318,1745094839780,,,,,,,,,,,,,,,,,,,,,,,,,,,,,,,,,,0,0,0,0,0,0,0,0,0,0,0,0,0,0,0,0,,,,,,,,,,,
127338,1745094839800,0.0,200.73,,-0.04,-0.02,0.98,0,-0,0,0.98,1.75,56,1786,13.9,3.93,,14.06,1.252,93.4,,23.7,5,,,,,,,,,,,,0,0,0,0,0,0,0,0,0,0,0,0,0,0,0,0,,,,,0.0,,,,,,
127358,1745094839820,,,,,,,,,,,,,,,,,,,,,,,,,,,,,,,,,,0,0,0,0,0,0,0,0,0,0,0,0,0,0,0,0,,,,,,,,,,,
127378,1745094839840,0.0,200.73,13.41,-0.06,-0.01,0.97,0,-0,0,0.97,1.75,55,1786,14.0,3.98,15,14.03,1.252,93.4,106,23.7,5,0,0,0,0,0.0,0.0,0.0,0.0,2.26,0,0.0,0,0,0,0,0,0,0,0,0,0,0,0,0,0,0,0,0,0.0,0,0,0.0,39.240116,-77.964874,0.04,25,2,1.0
127398,1745094839860,,,,,,,,,,,,,,,,,,,,,,,,,,,,,,,,,,0,0,0,0,0,0,0,0,0,0,0,0,0,0,0,0,,,,,,,,,,,
127418,1745094839880,0.0,200.73,,-0.06,-0.01,0.99,0,-0,0,0.99,1.75,57,1966,14.1,3.95,,14.03,1.25,93.4,,24.7,5,,,,,,,,,,,,0,0,0,0,0,0,0,0,0,0,0,0,0,0,0,0,,,,,0.0,,,,,,
127438,1745094839900,,,,,,,,,,,,,,,,,,,,,,,,,,,,,,,,,,0,0,0,0,0,0,0,0,0,0,0,0,0,0,0,0,,,,,,,,,,,
127458,1745094839920,0.0,200.73,,-0.07,-0.01,0.98,0,-0,0,0.98,1.75,56,1950,14.0,3.99,,14.03,1.25,93.4,,24.7,5,,,,,,,,,,,,0,0,0,0,0,0,0,0,0,0,0,0,0,0,0,0,,,,,0.0,,,,,,
127478,1745094839940,,,,,,,,,,,,,,,,,,,,,,,0,0,0,0,0.0,0.0,0.0,0.0,2.26,,,0,0,0,0,0,0,0,0,0,0,0,0,0,0,0,0,0,,,,,39.240116,-77.964874,0.07,25,2,1.0
127498,1745094839960,0.0,200.73,,-0.05,-0.01,0.99,-0,-0,0,0.99,1.75,57,1950,14.0,3.99,,14.04,1.249,93.4,,24.4,5,,,,,,,,,,,,0,0,0,0,0,0,0,0,0,0,0,0,0,0,0,0,,,,,0.0,,,,,,
127518,1745094839980,,,,,,,,,,,,,,,,,,,,,,,,,,,,,,,,,,0,0,0,0,0,0,0,0,0,0,0,0,0,0,0,0,,,,,,,,,,,
127538,1745094839994,0.0,200.85,,-0.06,-0.01,0.98,0,-0,0,0.98,1.75,56,1868,13.9,3.95,,14.07,1.249,93.4,,24.4,5,,,,,,,,,,,,0,0,0,0,0,0,0,0,0,0,0,0,0,0,0,0,,,,,0.0,,,,,,
127558,1745094840014,,,,,,,,,,,,,,,,,,,,,,,,,,,,,,,,,,0,0,0,0,0,0,0,0,0,0,0,0,0,0,0,0,,,,,,,,,,,
127578,1745094840034,0.0,200.85,,-0.04,-0.01,0.99,-0,-0,0,0.99,1.75,57,1793,13.8,4.0,,14.07,1.249,93.4,,24.4,5,0,0,0,0,0.0,0.0,0.0,0.0,2.26,,,0,0,0,0,0,0,0,0,0,0,0,0,0,0,0,0,0,,,,0.0,39.240116,-77.964874,0.1,24,2,1.1
127598,1745094840054,,,,,,,,,,,,,,,,,,,,,,,,,,,,,,,,,,0,0,0,0,0,0,0,0,0,0,0,0,0,0,0,0,,,,,,,,,,,
127618,1745094840074,0.0,200.85,,-0.05,-0.01,0.98,-0,-0,0,0.98,1.75,56,1945,14.0,3.96,,13.98,1.249,93.4,,25.2,5,,,,,,,,,,,,0,0,0,0,0,0,0,0,0,0,0,0,0,0,0,0,,,,,0.0,,,,,,
127638,1745094840096,,,,,,,,,,,,,,,,,,,,,,,,,,,,,,,,,,0,0,0,0,0,0,0,0,0,0,0,0,0,0,0,0,,,,,,,,,,,
127658,1745094840116,0.0,200.85,,-0.04,-0.02,0.97,0,-0,0,0.97,1.75,56,1958,8.4,3.64,,13.98,1.249,93.4,,25.2,5,,,,,,,,,,,,0,0,0,0,0,0,0,0,0,0,0,0,0,0,0,0,,,,,0.0,,,,,,
127678,1745094840136,,,,,,,,,,,,,,,,,,,,,,,0,0,0,0,0.0,0.0,0.0,0.0,2.26,,,0,0,0,0,0,0,0,0,0,0,0,0,0,0,0,0,0,,,,,39.240116,-77.964874,0.15,24,2,1.1
127698,1745094840156,0.0,200.85,,-0.03,-0.01,0.98,0,-0,0,0.98,1.75,56,1958,8.4,3.64,,13.96,1.25,93.4,,26.9,5,,,,,,,,,,,,0,0,0,0,0,0,0,0,0,0,0,0,0,0,0,0,,,,,0.0,,,,,,
127718,1745094840176,,,,,,,,,,,,,,,,,,,,,,,,,,,,,,,,,,0,0,0,0,0,0,0,0,0,0,0,0,0,0,0,0,,,,,,,,,,,
127738,1745094840198,0.0,200.85,,-0.03,-0.01,0.98,0,-0,0,0.98,1.75,56,2186,5.3,3.63,,13.72,1.252,93.4,,26.9,5,,,,,,,,,,,,0,0,0,0,0,0,0,0,0,0,0,0,0,0,0,0,,,,,0.0,,,,,,
127758,1745094840218,,,,,,,,,,,,,,,,,,,,,,,,,,,,,,,,,,0,0,0,0,0,0,0,0,0,0,0,0,0,0,0,0,,,,,,,,,,,
127778,1745094840238,0.0,200.85,,-0.02,-0.02,0.98,0,-0,0,0.98,1.75,56,2161,5.3,3.61,,13.73,1.253,93.4,,26.9,5,0,0,0,0,0.0,0.0,0.0,0.0,2.27,,,0,0,0,0,0,0,0,0,0,0,0,0,0,0,0,0,0,,,,0.0,39.240116,-77.964874,0.08,24,2,1.1
127798,1745094840258,,,,,,,,,,,,,,,,,,,,,,,,,,,,,,,,,,0,0,0,0,0,0,0,0,0,0,0,0,0,0,0,0,,,,,,,,,,,
127818,1745094840278,0.0,200.98,,-0.03,-0.02,0.98,0,-0,0,0.98,1.75,56,1992,5.3,3.61,,13.73,1.253,93.4,,26.3,5,,,,,,,,,,,,0,0,0,0,0,0,0,0,0,0,0,0,0,0,0,0,,,,,0.0,,,,,,
127838,1745094840302,,,,,,,,,,,,,,,,,,,,,,,,,,,,,,,,,,0,0,0,0,0,0,0,0,0,0,0,0,0,0,0,0,,,,,,,,,,,
127858,1745094840322,0.0,200.98,,-0.03,-0.03,0.99,0,-0,0,0.99,1.75,57,2001,5.4,3.61,,13.73,1.253,93.4,,26.3,5,,,,,,,,,,,,0,0,0,0,0,0,0,0,0,0,0,0,0,0,0,0,,,,,0.0,,,,,,
127878,1745094840342,,,,,,,,,,,,,,,,,,,,,,,0,0,0,0,0.0,0.0,0.0,0.0,2.26,,,0,0,0,0,0,0,0,0,0,0,0,0,0,0,0,0,0,,,,,39.240116,-77.964874,0.07,24,2,1.1
127898,1745094840362,0.0,200.85,,-0.03,-0.02,0.98,0,-0,0,0.98,1.75,56,2001,5.4,3.61,,13.77,1.253,93.4,,26.2,5,,,,,,,,,,,,0,0,0,0,0,0,0,0,0,0,0,0,0,0,0,0,,,,,0.0,,,,,,
127918,1745094840382,,,,,,,,,,,,,,,,,,,,,,,,,,,,,,,,,,0,0,0,0,0,0,0,0,0,0,0,0,0,0,0,0,,,,,,,,,,,
127938,1745094840402,0.0,200.85,,-0.03,-0.02,0.99,0,-0,0,0.99,1.75,57,1856,10.0,3.57,,13.92,1.252,95.2,,26.2,5,,,,,,,,,,,,0,0,0,0,0,0,0,0,0,0,0,0,0,0,0,0,,,,,0.0,,,,,,
127958,1745094840422,,,,,,,,,,,,,,,,,,,,,,,,,,,,,,,,,,0,0,0,0,0,0,0,0,0,0,0,0,0,0,0,0,,,,,,,,,,,
127978,1745094840442,0.0,200.85,,-0.04,-0.04,0.99,0,-0,0,1.0,1.75,57,1924,14.4,3.82,,14.0,1.25,95.2,,26.2,5,0,0,0,0,0.0,0.0,0.0,0.0,2.26,,,0,0,0,0,0,0,0,0,0,0,0,0,0,0,0,0,0,,,,0.0,39.240116,-77.964874,0.04,24,2,1.1
127998,1745094840462,,,,,,,,,,,,,,,,,,,,,,,,,,,,,,,,,,0,0,0,0,0,0,0,0,0,0,0,0,0,0,0,0,,,,,,,,,,,
128018,1745094840482,0.0,200.98,,-0.03,-0.02,0.99,0,-0,0,0.99,1.75,57,2251,15.0,4.2,,13.99,1.25,95.2,,28.8,5,,,,,,,,,,,,0,0,0,0,0,0,0,0,0,0,0,0,0,0,0,0,,,,,0.0,,,,,,
128038,1745094840501,,,,,,,,,,,,,,,,,,,,,,,,,,,,,,,,,,0,0,0,0,0,0,0,0,0,0,0,0,0,0,0,0,,,,,,,,,,,
128058,1745094840521,0.0,200.98,,-0.04,-0.01,0.99,0,-0,0,0.99,1.75,57,2417,14.9,4.16,,13.99,1.25,95.2,,28.8,5,,,,,,,,,,,,0,0,0,0,0,0,0,0,0,0,0,0,0,0,0,0,,,,,0.0,,,,,,
128078,1745094840541,,,,,,,,,,,,,,,,,,,,,,,0,0,0,0,0.0,0.0,0.0,0.0,2.26,,,0,0,0,0,0,0,0,0,0,0,0,0,0,0,0,0,0,,,,,39.240116,-77.964874,0.04,24,2,1.1
128098,1745094840561,0.0,200.98,,-0.03,-0.02,1.0,0,-0,0,1.0,1.75,57,2417,14.9,4.16,,13.92,1.25,95.2,,31.3,5,,,,,,,,,,,,0,0,0,0,0,0,0,0,0,0,0,0,0,0,0,0,,,,,0.0,,,,,,
128118,1745094840581,,,,,,,,,,,,,,,,,,,,,,,,,,,,,,,,,,0,0,0,0,0,0,0,0,0,0,0,0,0,0,0,0,,,,,,,,,,,
128138,1745094840601,0.0,200.98,,-0.04,-0.02,1.02,0,-0,0,1.02,1.75,59,2413,14.9,4.14,,13.88,1.25,95.2,,31.3,5,,,,,,,,,,,,0,0,0,0,0,0,0,0,0,0,0,0,0,0,0,0,,,,,0.0,,,,,,
128158,1745094840621,,,,,,,,,,,,,,,,,,,,,,,,,,,,,,,,,,0,0,0,0,0,0,0,0,0,0,0,0,0,0,0,0,,,,,,,,,,,
128178,1745094840641,0.0,200.98,,-0.05,-0.03,1.03,0,-0,0,1.03,1.75,59,2395,13.7,4.16,,13.84,1.25,95.2,,31.3,5,0,0,0,0,0.0,0.0,0.0,0.0,2.26,,,0,0,0,0,0,0,0,0,0,0,0,0,0,0,0,0,0,,,,0.0,39.240116,-77.964874,0.04,24,2,1.1
128198,1745094840661,,,,,,,,,,,,,,,,,,,,,,,,,,,,,,,,,,0,0,0,0,0,0,0,0,0,0,0,0,0,0,0,0,,,,,,,,,,,
128218,1745094840681,0.0,200.98,,-0.03,-0.03,1.02,0,-0,0,1.02,1.75,58,2371,5.5,3.64,,13.68,1.251,95.2,,30.3,5,,,,,,,,,,,,0,0,0,0,0,0,0,0,0,0,0,0,0,0,0,0,,,,,0.0,,,,,,
128238,1745094840701,,,,,,,,,,,,,,,,,,,,,,,,,,,,,,,,,,0,0,0,0,0,0,0,0,0,0,0,0,0,0,0,0,,,,,,,,,,,
128258,1745094840721,0.0,200.98,,-0.03,-0.05,1.03,-0,-0,0,1.03,1.75,59,2325,0.5,3.39,,13.68,1.251,95.2,,30.3,5,,,,,,,,,,,,0,0,0,0,0,0,0,0,0,0,0,0,0,0,0,0,,,,,0.0,,,,,,
128278,1745094840741,,,,,,,,,,,,,,,,,,,,,,,0,0,0,0,0.0,0.0,0.0,0.0,2.27,,,0,0,0,0,0,0,0,0,0,0,0,0,0,0,0,0,0,,,,,39.240116,-77.964874,0.08,24,2,1.1
128298,1745094840761,0.0,200.85,,-0.04,-0.04,1.01,0,-0,0,1.02,1.75,58,2325,0.5,3.39,,13.48,1.253,95.2,,33.0,5,,,,,,,,,,,,0,0,0,0,0,0,0,0,0,0,0,0,0,0,0,0,,,,,0.0,,,,,,
128318,1745094840781,,,,,,,,,,,,,,,,,,,,,,,,,,,,,,,,,,0,0,0,0,0,0,0,0,0,0,0,0,0,0,0,0,,,,,,,,,,,
128338,1745094840801,0.0,200.98,,-0.04,-0.06,1.03,0,-0,0,1.03,1.75,59,2575,0.1,3.14,,13.23,1.253,95.2,,33.0,5,,,,,,,,,,,,0,0,0,0,0,0,0,0,0,0,0,0,0,0,0,0,,,,,0.0,,,,,,
128358,1745094840821,,,,,,,,,,,,,,,,,,,,,,,,,,,,,,,,,,0,0,0,0,0,0,0,0,0,0,0,0,0,0,0,0,,,,,,,,,,,
128378,1745094840841,0.0,200.85,13.34,-0.05,-0.06,1.04,0,-0,0,1.04,1.75,60,2465,0.1,3.11,15,13.15,1.253,95.2,108,33.0,5,0,0,0,0,0.0,0.0,0.0,0.0,2.26,0,0.0,0,0,0,0,0,0,0,0,0,0,0,0,0,0,0,0,0,0.0,0,0,0.0,39.240116,-77.964874,0.05,24,2,1.1
128398,1745094840861,,,,,,,,,,,,,,,,,,,,,,,,,,,,,,,,,,0,0,0,0,0,0,0,0,0,0,0,0,0,0,0,0,,,,,,,,,,,
128418,1745094840881,0.0,200.85,,-0.04,-0.07,1.03,0,-0,0,1.03,1.75,59,2346,1.1,3.17,,13.19,1.251,95.2,,30.5,5,,,,,,,,,,,,0,0,0,0,0,0,0,0,0,0,0,0,0,0,0,0,,,,,0.0,,,,,,
128438,1745094840901,,,,,,,,,,,,,,,,,,,,,,,,,,,,,,,,,,0,0,0,0,0,0,0,0,0,0,0,0,0,0,0,0,,,,,,,,,,,
128458,1745094840921,0.0,200.98,,-0.05,-0.06,1.02,0,-0,0,1.02,1.75,58,2487,2.9,3.45,,13.19,1.251,95.2,,30.5,5,,,,,,,,,,,,0,0,0,0,0,0,0,0,0,0,0,0,0,0,0,0,,,,,0.0,,,,,,
128478,1745094840941,,,,,,,,,,,,,,,,,,,,,,,0,0,0,0,0.0,0.0,0.0,0.0,2.26,,,0,0,0,0,0,0,0,0,0,0,0,0,0,0,0,0,0,,,,,39.240116,-77.964874,0.04,24,2,1.1
128498,1745094840961,0.0,200.98,,-0.05,-0.06,1.01,0,-0,0,1.01,1.75,58,2487,2.9,3.45,,13.24,1.25,95.2,,31.6,5,,,,,,,,,,,,0,0,0,0,0,0,0,0,0,0,0,0,0,0,0,0,,,,,0.0,,,,,,
128518,1745094840981,,,,,,,,,,,,,,,,,,,,,,,,,,,,,,,,,,0,0,0,0,0,0,0,0,0,0,0,0,0,0,0,0,,,,,,,,,,,
128538,1745094840993,0.0,200.98,,-0.04,-0.06,1.01,0,-0,0,1.02,1.75,58,2437,3.2,3.49,,13.31,1.25,95.2,,31.6,5,,,,,,,,,,,,0,0,0,0,0,0,0,0,0,0,0,0,0,0,0,0,,,,,0.0,,,,,,
128558,1745094841013,,,,,,,,,,,,,,,,,,,,,,,,,,,,,,,,,,0,0,0,0,0,0,0,0,0,0,0,0,0,0,0,0,,,,,,,,,,,
128578,1745094841033,0.0,200.98,,-0.05,-0.07,1.04,0,-0,0,1.04,1.75,60,2355,6.9,3.61,,13.49,1.249,95.2,,31.6,5,0,0,0,0,0.0,0.0,0.0,0.0,2.26,,,0,0,0,0,0,0,0,0,0,0,0,0,0,0,0,0,0,,,,0.0,39.240116,-77.964874,0.11,24,2,1.1
128598,1745094841053,,,,,,,,,,,,,,,,,,,,,,,,,,,,,,,,,,0,0,0,0,0,0,0,0,0,0,0,0,0,0,0,0,,,,,,,,,,,
128618,1745094841073,0.0,200.98,,-0.05,-0.06,1.02,0,-0,0,1.02,1.75,59,2557,7.8,3.63,,13.57,1.249,95.2,,33.2,5,,,,,,,,,,,,0,0,0,0,0,0,0,0,0,0,0,0,0,0,0,0,,,,,0.0,,,,,,
128638,1745094841099,,,,,,,,,,,,,,,,,,,,,,,,,,,,,,,,,,0,0,0,0,0,0,0,0,0,0,0,0,0,0,0,0,,,,,,,,,,,
128658,1745094841119,0.0,200.98,,-0.06,-0.07,1.03,0,-0,0,1.04,1.75,59,2585,7.8,3.64,,13.57,1.249,95.2,,33.2,5,,,,,,,,,,,,0,0,0,0,0,0,0,0,0,0,0,0,0,0,0,0,,,,,0.0,,,,,,
128678,1745094841139,,,,,,,,,,,,,,,,,,,,,,,0,0,0,0,0.0,0.0,0.0,0.0,2.27,,,0,0,0,0,0,0,0,0,0,0,0,0,0,0,0,0,0,,,,,39.240116,-77.964874,0.09,24,2,1.1
128698,1745094841159,0.0,200.98,,-0.05,-0.07,1.03,0,-0,0,1.03,1.75,59,2585,7.8,3.64,,13.56,1.249,95.2,,33.4,5,,,,,,,,,,,,0,0,0,0,0,0,0,0,0,0,0,0,0,0,0,0,,,,,0.0,,,,,,
128718,1745094841179,,,,,,,,,,,,,,,,,,,,,,,,,,,,,,,,,,0,0,0,0,0,0,0,0,0,0,0,0,0,0,0,0,,,,,,,,,,,
128738,1745094841201,0.0,200.98,,-0.06,-0.06,1.02,0,-0,0,1.03,1.75,59,2505,7.8,3.64,,13.6,1.231,95.2,,33.4,5,,,,,,,,,,,,0,0,0,0,0,0,0,0,0,0,0,0,0,0,0,0,,,,,0.0,,,,,,
128758,1745094841221,,,,,,,,,,,,,,,,,,,,,,,,,,,,,,,,,,0,0,0,0,0,0,0,0,0,0,0,0,0,0,0,0,,,,,,,,,,,
128778,1745094841241,0.0,200.98,,-0.05,-0.05,1.0,0,-0,0,1.0,1.75,58,2442,7.8,3.62,,13.61,1.251,95.2,,33.4,5,0,0,0,0,0.0,0.0,0.0,0.0,2.27,,,0,0,0,0,0,0,0,0,0,0,0,0,0,0,0,0,0,,,,0.0,39.240116,-77.964874,0.04,24,2,1.1
128798,1745094841261,,,,,,,,,,,,,,,,,,,,,,,,,,,,,,,,,,0,0,0,0,0,0,0,0,0,0,0,0,0,0,0,0,,,,,,,,,,,
128818,1745094841281,0.0,200.98,,-0.04,-0.03,1.0,-0,-0,0,1.0,1.75,58,2403,7.9,3.6,,13.65,1.252,95.2,,31.7,5,,,,,,,,,,,,0,0,0,0,0,0,0,0,0,0,0,0,0,0,0,0,,,,,0.0,,,,,,
128838,1745094841301,,,,,,,,,,,,,,,,,,,,,,,,,,,,,,,,,,0,0,0,0,0,0,0,0,0,0,0,0,0,0,0,0,,,,,,,,,,,
128858,1745094841321,0.0,200.98,,-0.04,-0.04,1.0,0,-0,0,1.0,1.75,57,2403,7.9,3.6,,13.65,1.252,95.2,,31.7,5,,,,,,,,,,,,0,0,0,0,0,0,0,0,0,0,0,0,0,0,0,0,,,,,0.0,,,,,,
128878,1745094841341,,,,,,,,,,,,,,,,,,,,,,,0,0,0,0,0.0,0.0,0.0,0.0,2.26,,,0,0,0,0,0,0,0,0,0,0,0,0,0,0,0,0,0,,,,,39.240116,-77.964874,0.06,24,2,1.1
128898,1745094841361,0.0,200.98,,-0.04,-0.04,1.02,0,-0,0,1.02,1.75,59,2577,8.1,3.67,,13.61,1.252,95.2,,35.7,5,,,,,,,,,,,,0,0,0,0,0,0,0,0,0,0,0,0,0,0,0,0,,,,,0.0,,,,,,
128918,1745094841381,,,,,,,,,,,,,,,,,,,,,,,,,,,,,,,,,,0,0,0,0,0,0,0,0,0,0,0,0,0,0,0,0,,,,,,,,,,,
128938,1745094841403,0.0,200.98,,-0.04,-0.02,0.99,0,-0,0,0.99,1.75,57,2658,8.1,3.7,,13.55,1.252,93.4,,35.7,5,,,,,,,,,,,,0,0,0,0,0,0,0,0,0,0,0,0,0,0,0,0,,,,,0.0,,,,,,
128958,1745094841423,,,,,,,,,,,,,,,,,,,,,,,,,,,,,,,,,,0,0,0,0,0,0,0,0,0,0,0,0,0,0,0,0,,,,,,,,,,,
128978,1745094841443,0.0,201.11,,-0.07,-0.05,1.03,0,-0,0,1.04,1.75,59,2705,8.1,3.7,,13.47,1.25,93.4,,35.7,5,0,0,0,0,0.0,0.0,0.0,0.0,2.26,,,0,0,0,0,0,0,0,0,0,0,0,0,0,0,0,0,0,,,,0.0,39.240116,-77.964874,0.07,24,2,1.1
128998,1745094841463,,,,,,,,,,,,,,,,,,,,,,,,,,,,,,,,,,0,0,0,0,0,0,0,0,0,0,0,0,0,0,0,0,,,,,,,,,,,
129018,1745094841483,0.0,201.11,,-0.08,-0.08,1.1,0,-0,-0,1.1,1.75,63,3051,8.0,3.75,,13.37,1.249,93.4,,38.0,5,,,,,,,,,,,,0,0,0,0,0,0,0,0,0,0,0,0,0,0,0,0,,,,,0.0,,,,,,
129038,1745094841502,,,,,,,,,,,,,,,,,,,,,,,,,,,,,,,,,,0,0,0,0,0,0,0,0,0,0,0,0,0,0,0,0,,,,,,,,,,,
129058,1745094841522,0.0,200.98,,-0.12,-0.13,1.11,1,0,-0,1.13,1.75,64,3067,8.0,3.77,,13.37,1.249,93.4,,38.0,5,,,,,,,,,,,,0,0,0,0,0,0,0,0,0,0,0,0,0,0,0,0,,,,,0.0,,,,,,
129078,1745094841542,,,,,,,,,,,,,,,,,,,,,,,0,0,0,0,0.0,0.0,0.0,0.0,2.26,,,0,0,0,0,0,0,0,0,0,0,0,0,0,0,0,0,0,,,,,39.240116,-77.964874,0.05,24,2,1.1
129098,1745094841562,0.0,200.98,,-0.14,-0.14,1.08,1,0,-1,1.1,1.75,63,3067,8.0,3.77,,13.32,1.249,93.4,,42.2,5,,,,,,,,,,,,0,0,0,0,0,0,0,0,0,0,0,0,0,0,0,0,,,,,0.0,,,,,,
129118,1745094841582,,,,,,,,,,,,,,,,,,,,,,,,,,,,,,,,,,0,0,0,0,0,0,0,0,0,0,0,0,0,0,0,0,,,,,,,,,,,
129138,1745094841602,0.0,200.98,,-0.13,-0.09,0.99,1,-0,-1,1.0,1.75,57,3074,8.2,3.77,,13.27,1.249,93.4,,42.2,5,,,,,,,,,,,,0,0,0,0,0,0,0,0,0,0,0,0,0,0,0,0,,,,,0.0,,,,,,
129158,1745094841622,,,,,,,,,,,,,,,,,,,,,,,,,,,,,,,,,,0,0,0,0,0,0,0,0,0,0,0,0,0,0,0,0,,,,,,,,,,,
129178,1745094841642,0.0,200.98,,-0.1,0.01,0.92,1,-0,-0,0.92,1.75,53,3116,8.4,3.77,,13.2,1.225,93.4,,42.2,5,0,0,0,0,0.0,0.0,0.0,0.0,2.27,,,0,0,0,0,0,0,0,0,0,0,0,0,0,0,0,0,0,,,,0.0,39.240116,-77.964874,0.04,24,2,1.1
129198,1745094841662,,,,,,,,,,,,,,,,,,,,,,,,,,,,,,,,,,0,0,0,0,0,0,0,0,0,0,0,0,0,0,0,0,,,,,,,,,,,
129218,1745094841682,0.0,200.98,,-0.08,-0.02,1.0,0,-0,0,1.01,1.75,58,3235,5.6,3.7,,13.07,1.226,93.4,,44.7,5,,,,,,,,,,,,0,0,0,0,0,0,0,0,0,0,0,0,0,0,0,0,,,,,0.0,,,,,,
129238,1745094841702,,,,,,,,,,,,,,,,,,,,,,,,,,,,,,,,,,0,0,0,0,0,0,0,0,0,0,0,0,0,0,0,0,,,,,,,,,,,
129258,1745094841722,0.0,200.85,,-0.1,-0.11,1.01,1,-0,-0,1.02,1.75,59,3223,3.5,3.49,,13.07,1.226,93.4,,44.7,5,,,,,,,,,,,,0,0,0,0,0,0,0,0,0,0,0,0,0,0,0,0,,,,,0.0,,,,,,
129278,1745094841742,,,,,,,,,,,,,,,,,,,,,,,0,0,0,0,0.0,0.0,0.0,0.0,2.27,,,0,0,0,0,0,0,0,0,0,0,0,0,0,0,0,0,0,,,,,39.240116,-77.964874,0.04,24,2,1.1
129298,1745094841762,0.0,200.85,,-0.08,-0.0,0.92,1,-0,-0,0.92,1.75,53,3223,3.5,3.49,,12.87,1.212,93.4,,44.9,5,,,,,,,,,,,,0,0,0,0,0,0,0,0,0,0,0,0,0,0,0,0,,,,,0.0,,,,,,
129318,1745094841782,,,,,,,,,,,,,,,,,,,,,,,,,,,,,,,,,,0,0,0,0,0,0,0,0,0,0,0,0,0,0,0,0,,,,,,,,,,,
129338,1745094841802,0.0,200.85,,-0.06,0.02,0.97,0,-0,0,0.97,1.75,56,3241,3.3,3.47,,12.75,1.201,93.4,,44.9,5,,,,,,,,,,,,0,0,0,0,0,0,0,0,0,0,0,0,0,0,0,0,,,,,0.0,,,,,,
129358,1745094841822,,,,,,,,,,,,,,,,,,,,,,,,,,,,,,,,,,0,0,0,0,0,0,0,0,0,0,0,0,0,0,0,0,,,,,,,,,,,
129378,1745094841842,0.0,200.85,13.32,-0.09,-0.05,1.05,-0,-0,0,1.06,1.75,61,3162,1.3,3.04,15,12.65,1.19,93.4,108,44.9,5,0,0,0,0,0.0,0.0,0.0,0.0,2.26,0,0.0,0,0,0,0,0,0,0,0,0,0,0,0,0,0,0,0,0,0.0,0,0,0.0,39.240116,-77.964874,0.04,24,2,1.1
129398,1745094841862,,,,,,,,,,,,,,,,,,,,,,,,,,,,,,,,,,0,0,0,0,0,0,0,0,0,0,0,0,0,0,0,0,,,,,,,,,,,
129418,1745094841882,0.0,200.98,,-0.13,-0.11,1.09,0,-0,-0,1.1,1.75,63,3038,0.9,2.98,,12.51,1.18,93.4,,43.7,5,,,,,,,,,,,,0,0,0,0,0,0,0,0,0,0,0,0,0,0,0,0,,,,,0.0,,,,,,
129438,1745094841903,,,,,,,,,,,,,,,,,,,,,,,,,,,,,,,,,,0,0,0,0,0,0,0,0,0,0,0,0,0,0,0,0,,,,,,,,,,,
129458,1745094841923,0.0,200.98,,-0.14,-0.11,1.11,1,0,-0,1.12,1.75,64,2901,0.8,3.0,,12.51,1.18,93.4,,43.7,5,,,,,,,,,,,,0,0,0,0,0,0,0,0,0,0,0,0,0,0,0,0,,,,,0.0,,,,,,
129478,1745094841943,,,,,,,,,,,,,,,,,,,,,,,0,0,0,0,0.0,0.0,0.0,0.0,2.26,,,0,0,0,0,0,0,0,0,0,0,0,0,0,0,0,0,0,,,,,39.240116,-77.964874,0.04,24,2,1.1
129498,1745094841963,0.0,200.98,,-0.13,-0.1,1.11,0,-0,-0,1.13,1.75,65,2901,0.8,3.0,,12.53,1.161,93.4,,39.2,5,,,,,,,,,,,,0,0,0,0,0,0,0,0,0,0,0,0,0,0,0,0,,,,,0.0,,,,,,
129518,1745094841983,,,,,,,,,,,,,,,,,,,,,,,,,,,,,,,,,,0,0,0,0,0,0,0,0,0,0,0,0,0,0,0,0,,,,,,,,,,,
129538,1745094841992,0.0,200.98,,-0.12,-0.06,1.05,0,-0,-0,1.06,1.75,61,2759,0.8,3.02,,12.61,1.14,93.4,,39.2,5,,,,,,,,,,,,0,0,0,0,0,0,0,0,0,0,0,0,0,0,0,0,,,,,0.0,,,,,,
129558,1745094842012,,,,,,,,,,,,,,,,,,,,,,,,,,,,,,,,,,0,0,0,0,0,0,0,0,0,0,0,0,0,0,0,0,,,,,,,,,,,
129578,1745094842032,0.0,200.98,,-0.12,-0.06,1.05,0,-0,-0,1.05,1.75,60,2807,0.7,3.08,,12.61,1.137,93.4,,39.2,5,0,0,0,0,0.0,0.0,0.0,0.0,2.26,,,0,0,0,0,0,0,0,0,0,0,0,0,0,0,0,0,0,,,,0.0,39.240116,-77.964874,0.13,24,2,1.1
129598,1745094842052,,,,,,,,,,,,,,,,,,,,,,,,,,,,,,,,,,0,0,0,0,0,0,0,0,0,0,0,0,0,0,0,0,,,,,,,,,,,
129618,1745094842072,0.0,200.85,,-0.11,-0.07,1.04,0,-0,-0,1.05,1.75,60,2704,0.7,3.1,,12.65,1.208,93.4,,37.2,5,,,,,,,,,,,,0,0,0,0,0,0,0,0,0,0,0,0,0,0,0,0,,,,,0.0,,,,,,
129638,1745094842102,,,,,,,,,,,,,,,,,,,,,,,,,,,,,,,,,,0,0,0,0,0,0,0,0,0,0,0,0,0,0,0,0,,,,,,,,,,,
129658,1745094842122,0.0,200.98,,-0.11,-0.06,1.03,0,-0,-0,1.04,1.75,59,2652,3.9,3.52,,12.65,1.208,93.4,,37.2,5,,,,,,,,,,,,0,0,0,0,0,0,0,0,0,0,0,0,0,0,0,0,,,,,0.0,,,,,,
129678,1745094842142,,,,,,,,,,,,,,,,,,,,,,,0,0,0,0,0.0,0.0,0.0,0.0,2.27,,,0,0,0,0,0,0,0,0,0,0,0,0,0,0,0,0,0,,,,,39.240116,-77.964874,0.04,24,2,1.1
129698,1745094842162,0.0,200.98,,-0.1,-0.05,1.03,0,-0,-0,1.04,1.75,59,2652,3.9,3.52,,12.88,1.176,93.4,,35.3,5,,,,,,,,,,,,0,0,0,0,0,0,0,0,0,0,0,0,0,0,0,0,,,,,0.0,,,,,,
129718,1745094842182,,,,,,,,,,,,,,,,,,,,,,,,,,,,,,,,,,0,0,0,0,0,0,0,0,0,0,0,0,0,0,0,0,,,,,,,,,,,
129738,1745094842198,0.0,200.98,,-0.08,0.01,1.03,-0,-0,1,1.04,1.75,59,2835,5.7,3.61,,13.11,1.128,93.4,,35.3,5,,,,,,,,,,,,0,0,0,0,0,0,0,0,0,0,0,0,0,0,0,0,,,,,0.0,,,,,,
129758,1745094842218,,,,,,,,,,,,,,,,,,,,,,,,,,,,,,,,,,0,0,0,0,0,0,0,0,0,0,0,0,0,0,0,0,,,,,,,,,,,
129778,1745094842238,0.0,200.98,,-0.07,0.0,1.08,-1,-0,1,1.08,1.75,62,3085,6.8,3.69,,13.08,1.151,93.4,,35.3,5,0,0,0,0,0.0,0.0,0.0,0.0,2.27,,,0,0,0,0,0,0,0,0,0,0,0,0,0,0,0,0,0,,,,0.0,39.240116,-77.964874,0.05,24,2,1.1
129798,1745094842258,,,,,,,,,,,,,,,,,,,,,,,,,,,,,,,,,,0,0,0,0,0,0,0,0,0,0,0,0,0,0,0,0,,,,,,,,,,,
129818,1745094842278,0.0,200.98,,-0.06,0.0,1.1,-1,-0,1,1.1,1.75,63,2997,7.2,3.71,,13.15,1.179,93.4,,41.8,5,,,,,,,,,,,,0,0,0,0,0,0,0,0,0,0,0,0,0,0,0,0,,,,,0.0,,,,,,
129838,1745094842302,,,,,,,,,,,,,,,,,,,,,,,,,,,,,,,,,,0,0,0,0,0,0,0,0,0,0,0,0,0,0,0,0,,,,,,,,,,,
129858,1745094842322,0.0,200.98,,-0.05,0.04,1.08,-1,-0,1,1.08,1.75,62,2967,7.4,3.7,,13.15,1.179,93.4,,41.8,5,,,,,,,,,,,,0,0,0,0,0,0,0,0,0,0,0,0,0,0,0,0,,,,,0.0,,,,,,
129878,1745094842342,,,,,,,,,,,,,,,,,,,,,,,0,0,0,0,0.0,0.0,0.0,0.0,2.26,,,0,0,0,0,0,0,0,0,0,0,0,0,0,0,0,0,0,,,,,39.240116,-77.964874,0.0,24,2,1.1
129898,1745094842362,0.0,200.98,,-0.03,0.07,1.04,-1,-0,1,1.04,1.75,60,2967,7.4,3.7,,13.13,1.174,93.4,,39.1,5,,,,,,,,,,,,0,0,0,0,0,0,0,0,0,0,0,0,0,0,0,0,,,,,0.0,,,,,,
129918,1745094842382,,,,,,,,,,,,,,,,,,,,,,,,,,,,,,,,,,0,0,0,0,0,0,0,0,0,0,0,0,0,0,0,0,,,,,,,,,,,
129938,1745094842402,0.0,200.98,,-0.04,0.04,1.04,-1,-0,1,1.04,1.75,60,2844,7.5,3.7,,13.17,1.145,93.4,,39.1,5,,,,,,,,,,,,0,0,0,0,0,0,0,0,0,0,0,0,0,0,0,0,,,,,0.0,,,,,,
129958,1745094842422,,,,,,,,,,,,,,,,,,,,,,,,,,,,,,,,,,0,0,0,0,0,0,0,0,0,0,0,0,0,0,0,0,,,,,,,,,,,
129978,1745094842442,0.0,200.98,,-0.03,0.01,1.07,-1,-0,1,1.07,1.75,61,2808,7.4,3.68,,13.25,1.145,93.4,,39.1,5,0,0,0,0,0.0,0.0,0.0,0.0,2.26,,,0,0,0,0,0,0,0,0,0,0,0,0,0,0,0,0,0,,,,0.0,39.240116,-77.964874,0.04,24,2,1.1
129998,1745094842462,,,,,,,,,,,,,,,,,,,,,,,,,,,,,,,,,,0,0,0,0,0,0,0,0,0,0,0,0,0,0,0,0,,,,,,,,,,,
130018,1745094842482,0.0,200.98,,-0.03,0.02,1.04,-1,-0,1,1.04,1.75,59,2609,7.5,3.68,,13.35,1.187,93.4,,36.8,5,,,,,,,,,,,,0,0,0,0,0,0,0,0,0,0,0,0,0,0,0,0,,,,,0.0,,,,,,
130038,1745094842501,,,,,,,,,,,,,,,,,,,,,,,,,,,,,,,,,,0,0,0,0,0,0,0,0,0,0,0,0,0,0,0,0,,,,,,,,,,,
130058,1745094842521,0.0,200.98,,-0.04,0.02,1.04,-0,-0,1,1.04,1.75,60,2544,7.4,3.66,,13.35,1.187,93.4,,36.8,5,,,,,,,,,,,,0,0,0,0,0,0,0,0,0,0,0,0,0,0,0,0,,,,,0.0,,,,,,
130078,1745094842541,,,,,,,,,,,,,,,,,,,,,,,0,0,0,0,0.0,0.0,0.0,0.0,2.26,,,0,0,0,0,0,0,0,0,0,0,0,0,0,0,0,0,0,,,,,39.240116,-77.964874,0.12,24,2,1.1
130098,1745094842561,0.0,200.98,,-0.04,0.02,1.02,-0,-0,0,1.03,1.75,59,2544,7.4,3.66,,13.43,1.24,93.4,,34.6,5,,,,,,,,,,,,0,0,0,0,0,0,0,0,0,0,0,0,0,0,0,0,,,,,0.0,,,,,,
130118,1745094842581,,,,,,,,,,,,,,,,,,,,,,,,,,,,,,,,,,0,0,0,0,0,0,0,0,0,0,0,0,0,0,0,0,,,,,,,,,,,
130138,1745094842601,0.0,200.98,,-0.04,0.01,1.03,-0,-0,0,1.03,1.75,59,2537,5.1,3.63,,13.36,1.25,93.4,,34.6,5,,,,,,,,,,,,0,0,0,0,0,0,0,0,0,0,0,0,0,0,0,0,,,,,0.0,,,,,,
130158,1745094842621,,,,,,,,,,,,,,,,,,,,,,,,,,,,,,,,,,0,0,0,0,0,0,0,0,0,0,0,0,0,0,0,0,,,,,,,,,,,
130178,1745094842641,0.0,200.98,,-0.04,0.0,1.03,-0,-0,0,1.03,1.75,59,0,5.0,3.65,,13.33,1.25,93.4,,34.6,5,0,0,0,0,0.0,0.0,0.0,0.0,2.27,,,0,0,0,0,0,0,0,0,0,0,0,0,0,0,0,0,0,,,,0.0,39.240116,-77.964874,0.04,24,2,1.1
130198,1745094842661,,,,,,,,,,,,,,,,,,,,,,,,,,,,,,,,,,0,0,0,0,0,0,0,0,0,0,0,0,0,0,0,0,,,,,,,,,,,
130218,1745094842681,0.0,200.98,,-0.03,0.05,0.99,-0,-0,1,1.0,1.75,57,2624,5.0,3.63,,13.27,1.25,93.4,,33.0,5,,,,,,,,,,,,0,0,0,0,0,0,0,0,0,0,0,0,0,0,0,0,,,,,0.0,,,,,,
130238,1745094842703,,,,,,,,,,,,,,,,,,,,,,,,,,,,,,,,,,0,0,0,0,0,0,0,0,0,0,0,0,0,0,0,0,,,,,,,,,,,
130258,1745094842723,0.0,200.98,,-0.02,0.1,0.95,-0,-0,1,0.95,1.75,55,2954,4.9,3.64,,13.27,1.25,93.4,,33.0,5,,,,,,,,,,,,0,0,0,0,0,0,0,0,0,0,0,0,0,0,0,0,,,,,0.0,,,,,,
130278,1745094842743,,,,,,,,,,,,,,,,,,,,,,,0,0,0,0,0.0,0.0,0.0,0.0,2.26,,,0,0,0,0,0,0,0,0,0,0,0,0,0,0,0,0,0,,,,,39.240116,-77.964874,0.05,24,2,1.1
130298,1745094842763,0.0,200.98,,-0.0,0.11,0.88,0,-0,0,0.88,1.75,51,2954,4.9,3.64,,13.16,1.252,93.4,,39.9,5,,,,,,,,,,,,0,0,0,0,0,0,0,0,0,0,0,0,0,0,0,0,,,,,0.0,,,,,,
130318,1745094842783,,,,,,,,,,,,,,,,,,,,,,,,,,,,,,,,,,0,0,0,0,0,0,0,0,0,0,0,0,0,0,0,0,,,,,,,,,,,
130338,1745094842801,0.0,200.98,,0.01,0.12,0.84,0,-0,0,0.85,1.75,49,3054,5.4,3.64,,13.13,1.253,93.4,,39.9,5,,,,,,,,,,,,0,0,0,0,0,0,0,0,0,0,0,0,0,0,0,0,,,,,0.0,,,,,,
130358,1745094842821,,,,,,,,,,,,,,,,,,,,,,,,,,,,,,,,,,0,0,0,0,0,0,0,0,0,0,0,0,0,0,0,0,,,,,,,,,,,
130378,1745094842841,0.0,200.98,13.42,0.02,0.12,0.79,1,-0,-0,0.8,1.75,46,2932,7.2,3.71,15,13.2,1.192,93.4,108,39.9,5,0,0,0,0,0.0,0.0,0.0,0.0,2.26,0,0.0,0,0,0,0,0,0,0,0,0,0,0,0,0,0,0,0,0,0.0,0,0,0.0,39.240116,-77.964874,0.08,24,2,1.1
130398,1745094842861,,,,,,,,,,,,,,,,,,,,,,,,,,,,,,,,,,0,0,0,0,0,0,0,0,0,0,0,0,0,0,0,0,,,,,,,,,,,
130418,1745094842881,0.0,200.98,,0.02,0.11,0.76,1,-0,-0,0.77,1.75,44,2964,7.8,3.73,,13.23,1.108,93.4,,40.9,5,,,,,,,,,,,,0,0,0,0,0,0,0,0,0,0,0,0,0,0,0,0,,,,,0.0,,,,,,
130438,1745094842901,,,,,,,,,,,,,,,,,,,,,,,,,,,,,,,,,,0,0,0,0,0,0,0,0,0,0,0,0,0,0,0,0,,,,,,,,,,,
130458,1745094842921,0.0,200.98,,0.04,0.16,0.77,1,-0,-0,0.79,1.75,45,3321,8.0,3.74,,13.23,1.108,93.4,,40.9,5,,,,,,,,,,,,0,0,0,0,0,0,0,0,0,0,0,0,0,0,0,0,,,,,0.0,,,,,,
130478,1745094842941,,,,,,,,,,,,,,,,,,,,,,,0,0,0,0,0.0,0.0,0.0,0.0,2.26,,,0,0,0,0,0,0,0,0,0,0,0,0,0,0,0,0,0,,,,,39.240116,-77.964874,0.04,24,2,1.1
130498,1745094842961,0.0,200.98,,0.0,0.03,0.8,1,-0,-0,0.8,1.75,46,3321,8.0,3.74,,13.17,1.132,93.4,,47.1,5,,,,,,,,,,,,0,0,0,0,0,0,0,0,0,0,0,0,0,0,0,0,,,,,0.0,,,,,,
130518,1745094842981,,,,,,,,,,,,,,,,,,,,,,,,,,,,,,,,,,0,0,0,0,0,0,0,0,0,0,0,0,0,0,0,0,,,,,,,,,,,
130538,1745094842993,0.0,200.98,,0.02,0.09,0.85,0,-0,0,0.85,1.75,49,3438,8.1,3.74,,13.09,1.147,93.4,,47.1,5,,,,,,,,,,,,0,0,0,0,0,0,0,0,0,0,0,0,0,0,0,0,,,,,0.0,,,,,,
130558,1745094843013,,,,,,,,,,,,,,,,,,,,,,,,,,,,,,,,,,0,0,0,0,0,0,0,0,0,0,0,0,0,0,0,0,,,,,,,,,,,
130578,1745094843033,0.0,200.98,,0.01,0.04,0.82,1,-0,-1,0.82,1.75,47,3412,6.7,3.68,,13.01,1.1,93.4,,47.1,5,0,0,0,0,0.0,0.0,0.0,0.0,2.26,,,0,0,0,0,0,0,0,0,0,0,0,0,0,0,0,0,0,,,,0.0,39.240116,-77.964874,0.07,24,2,1.1
130598,1745094843053,,,,,,,,,,,,,,,,,,,,,,,,,,,,,,,,,,0,0,0,0,0,0,0,0,0,0,0,0,0,0,0,0,,,,,,,,,,,
130618,1745094843073,0.0,200.98,,-0.0,0.08,0.86,0,-0,0,0.86,1.75,49,3446,5.2,3.64,,12.87,1.06,93.4,,48.0,5,,,,,,,,,,,,0,0,0,0,0,0,0,0,0,0,0,0,0,0,0,0,,,,,0.0,,,,,,
130638,1745094843101,,,,,,,,,,,,,,,,,,,,,,,,,,,,,,,,,,0,0,0,0,0,0,0,0,0,0,0,0,0,0,0,0,,,,,,,,,,,
130658,1745094843121,0.0,200.85,,0.01,0.03,0.83,1,-0,-0,0.83,1.75,47,3496,5.1,3.61,,12.87,1.06,93.4,,48.0,5,,,,,,,,,,,,0,0,0,0,0,0,0,0,0,0,0,0,0,0,0,0,,,,,0.0,,,,,,
130678,1745094843141,,,,,,,,,,,,,,,,,,,,,,,0,0,0,0,0.0,0.0,0.0,0.0,2.27,,,0,0,0,0,0,0,0,0,0,0,0,0,0,0,0,0,0,,,,,39.240116,-77.964874,0.08,24,2,1.1
130698,1745094843161,0.0,200.85,,-0.01,-0.05,0.85,1,-0,-1,0.85,1.75,49,3496,5.1,3.61,,12.8,1.05,93.4,,50.7,5,,,,,,,,,,,,0,0,0,0,0,0,0,0,0,0,0,0,0,0,0,0,,,,,0.0,,,,,,
130718,1745094843181,,,,,,,,,,,,,,,,,,,,,,,,,,,,,,,,,,0,0,0,0,0,0,0,0,0,0,0,0,0,0,0,0,,,,,,,,,,,
130738,1745094843197,0.0,200.85,,-0.04,-0.05,0.9,1,-0,-0,0.9,1.75,52,3622,1.3,3.36,,12.45,1.104,93.4,,50.7,5,,,,,,,,,,,,0,0,0,0,0,0,0,0,0,0,0,0,0,0,0,0,,,,,0.0,,,,,,
130758,1745094843217,,,,,,,,,,,,,,,,,,,,,,,,,,,,,,,,,,0,0,0,0,0,0,0,0,0,0,0,0,0,0,0,0,,,,,,,,,,,
130778,1745094843237,0.0,200.98,,-0.01,0.04,0.91,0,-0,0,0.91,1.75,52,3567,0.0,2.62,,12.15,1.051,93.4,,50.7,5,0,0,0,0,0.0,0.0,0.0,0.0,2.27,,,0,0,0,0,0,0,0,0,0,0,0,0,0,0,0,0,0,,,,0.0,39.240116,-77.964874,0.0,24,2,1.1
130798,1745094843257,,,,,,,,,,,,,,,,,,,,,,,,,,,,,,,,,,0,0,0,0,0,0,0,0,0,0,0,0,0,0,0,0,,,,,,,,,,,
130818,1745094843277,0.0,200.98,,-0.03,-0.01,0.88,1,-0,-0,0.88,1.75,51,3716,0.0,2.64,,12.05,1.003,93.4,,49.7,5,,,,,,,,,,,,0,0,0,0,0,0,0,0,0,0,0,0,0,0,0,0,,,,,0.0,,,,,,
130838,1745094843303,,,,,,,,,,,,,,,,,,,,,,,,,,,,,,,,,,0,0,0,0,0,0,0,0,0,0,0,0,0,0,0,0,,,,,,,,,,,
130858,1745094843323,0.0,200.85,,-0.03,0.07,0.95,0,-0,0,0.95,1.75,54,3288,0.0,2.65,,12.05,1.003,93.4,,49.7,5,,,,,,,,,,,,0,0,0,0,0,0,0,0,0,0,0,0,0,0,0,0,,,,,0.0,,,,,,
130878,1745094843343,,,,,,,,,,,,,,,,,,,,,,,0,0,0,0,0.0,0.0,0.0,0.0,2.26,,,0,0,0,0,0,0,0,0,0,0,0,0,0,0,0,0,0,,,,,39.240116,-77.964874,0.13,24,2,1.1
130898,1745094843363,0.0,200.85,,-0.05,-0.02,1.01,1,-0,-0,1.01,1.75,58,3288,0.0,2.65,,11.96,1.012,93.4,,45.3,5,,,,,,,,,,,,0,0,0,0,0,0,0,0,0,0,0,0,0,0,0,0,,,,,0.0,,,,,,
130918,1745094843383,,,,,,,,,,,,,,,,,,,,,,,,,,,,,,,,,,0,0,0,0,0,0,0,0,0,0,0,0,0,0,0,0,,,,,,,,,,,
130938,1745094843403,0.0,200.85,,-0.08,-0.06,1.0,1,-0,-1,1.01,1.75,58,3103,0.0,2.77,,12.05,1.066,93.4,,45.3,5,,,,,,,,,,,,0,0,0,0,0,0,0,0,0,0,0,0,0,0,0,0,,,,,0.0,,,,,,
130958,1745094843423,,,,,,,,,,,,,,,,,,,,,,,,,,,,,,,,,,0,0,0,0,0,0,0,0,0,0,0,0,0,0,0,0,,,,,,,,,,,
130978,1745094843443,0.0,200.98,,-0.06,-0.0,0.9,1,-0,-1,0.9,1.75,52,3131,0.2,2.82,,12.12,1.119,93.4,,45.3,5,0,0,0,0,0.0,0.0,0.0,0.0,2.26,,,0,0,0,0,0,0,0,0,0,0,0,0,0,0,0,0,0,,,,0.0,39.240116,-77.964874,0.11,24,2,1.1
130998,1745094843463,,,,,,,,,,,,,,,,,,,,,,,,,,,,,,,,,,0,0,0,0,0,0,0,0,0,0,0,0,0,0,0,0,,,,,,,,,,,
131018,1745094843483,0.0,200.98,,-0.04,0.09,0.86,1,-0,-0,0.86,1.75,49,3074,0.4,2.86,,12.16,1.246,93.4,,44.2,5,,,,,,,,,,,,0,0,0,0,0,0,0,0,0,0,0,0,0,0,0,0,,,,,0.0,,,,,,
131038,1745094843502,,,,,,,,,,,,,,,,,,,,,,,,,,,,,,,,,,0,0,0,0,0,0,0,0,0,0,0,0,0,0,0,0,,,,,,,,,,,
131058,1745094843522,0.0,200.85,,-0.03,0.12,0.87,0,-0,0,0.88,1.75,50,3051,0.9,2.88,,12.16,1.246,93.4,,44.2,5,,,,,,,,,,,,0,0,0,0,0,0,0,0,0,0,0,0,0,0,0,0,,,,,0.0,,,,,,
131078,1745094843542,,,,,,,,,,,,,,,,,,,,,,,0,0,0,0,0.0,0.0,0.0,0.0,2.26,,,0,0,0,0,0,0,0,0,0,0,0,0,0,0,0,0,0,,,,,39.240116,-77.964874,0.05,24,2,1.1
131098,1745094843562,0.0,200.85,,-0.01,0.11,0.91,-0,-0,1,0.91,1.75,52,3051,0.9,2.88,,12.29,1.249,93.4,,41.8,5,,,,,,,,,,,,0,0,0,0,0,0,0,0,0,0,0,0,0,0,0,0,,,,,0.0,,,,,,
131118,1745094843582,,,,,,,,,,,,,,,,,,,,,,,,,,,,,,,,,,0,0,0,0,0,0,0,0,0,0,0,0,0,0,0,0,,,,,,,,,,,
131138,1745094843602,0.0,200.85,,0.01,0.12,0.91,-0,-0,1,0.92,1.75,53,3023,2.1,3.18,,12.41,1.195,93.4,,41.8,5,,,,,,,,,,,,0,0,0,0,0,0,0,0,0,0,0,0,0,0,0,0,,,,,0.0,,,,,,
131158,1745094843622,,,,,,,,,,,,,,,,,,,,,,,,,,,,,,,,,,0,0,0,0,0,0,0,0,0,0,0,0,0,0,0,0,,,,,,,,,,,
131178,1745094843642,0.0,200.85,,0.02,0.14,0.87,-0,-0,1,0.88,1.75,50,2873,2.4,3.32,,12.55,1.175,93.4,,41.8,5,0,0,0,0,0.0,0.0,0.0,0.0,2.26,,,0,0,0,0,0,0,0,0,0,0,0,0,0,0,0,0,0,,,,0.0,39.240116,-77.964874,0.04,24,2,1.1
131198,1745094843662,,,,,,,,,,,,,,,,,,,,,,,,,,,,,,,,,,0,0,0,0,0,0,0,0,0,0,0,0,0,0,0,0,,,,,,,,,,,
131218,1745094843682,0.0,200.85,,0.02,0.14,0.84,-0,-0,0,0.85,1.75,49,2845,2.4,3.29,,12.59,1.127,93.4,,39.9,5,,,,,,,,,,,,0,0,0,0,0,0,0,0,0,0,0,0,0,0,0,0,,,,,0.0,,,,,,
131238,1745094843702,,,,,,,,,,,,,,,,,,,,,,,,,,,,,,,,,,0,0,0,0,0,0,0,0,0,0,0,0,0,0,0,0,,,,,,,,,,,
131258,1745094843722,0.0,200.85,,0.01,0.09,0.89,0,-0,0,0.9,1.75,51,2674,2.4,3.32,,12.59,1.127,93.4,,39.9,5,,,,,,,,,,,,0,0,0,0,0,0,0,0,0,0,0,0,0,0,0,0,,,,,0.0,,,,,,
131278,1745094843742,,,,,,,,,,,,,,,,,,,,,,,0,0,0,0,0.0,0.0,0.0,0.0,2.26,,,0,0,0,0,0,0,0,0,0,0,0,0,0,0,0,0,0,,,,,39.240116,-77.964874,0.11,24,2,1.1
131298,1745094843762,0.0,200.85,,0.0,0.1,0.9,-0,-0,0,0.91,1.75,52,2674,2.4,3.32,,12.76,1.091,93.4,,35.6,5,,,,,,,,,,,,0,0,0,0,0,0,0,0,0,0,0,0,0,0,0,0,,,,,0.0,,,,,,
131318,1745094843782,,,,,,,,,,,,,,,,,,,,,,,,,,,,,,,,,,0,0,0,0,0,0,0,0,0,0,0,0,0,0,0,0,,,,,,,,,,,
131338,1745094843800,0.0,200.85,,-0.01,0.09,0.92,-0,-0,0,0.92,1.75,53,2530,2.4,3.35,,12.89,1.065,93.4,,35.6,5,,,,,,,,,,,,0,0,0,0,0,0,0,0,0,0,0,0,0,0,0,0,,,,,0.0,,,,,,
131358,1745094843820,,,,,,,,,,,,,,,,,,,,,,,,,,,,,,,,,,0,0,0,0,0,0,0,0,0,0,0,0,0,0,0,0,,,,,,,,,,,
131378,1745094843840,0.0,200.98,13.35,-0.01,0.07,0.94,-0,-0,0,0.95,1.75,54,2377,4.3,3.57,15,13.16,1.074,93.4,108,35.6,5,0,0,0,0,0.0,0.0,0.0,0.0,2.26,0,0.0,0,0,0,0,0,0,0,0,0,0,0,0,0,0,0,0,0,0.0,0,-0,0.0,39.240116,-77.964874,0.04,24,2,1.1
131398,1745094843860,,,,,,,,,,,,,,,,,,,,,,,,,,,,,,,,,,0,0,0,0,0,0,0,0,0,0,0,0,0,0,0,0,,,,,,,,,,,
131418,1745094843880,0.0,200.98,,-0.03,0.06,0.93,-0,-0,0,0.94,1.75,54,2582,5.0,3.62,,13.29,1.108,93.4,,32.5,5,,,,,,,,,,,,0,0,0,0,0,0,0,0,0,0,0,0,0,0,0,0,,,,,0.0,,,,,,
131438,1745094843902,,,,,,,,,,,,,,,,,,,,,,,,,,,,,,,,,,0,0,0,0,0,0,0,0,0,0,0,0,0,0,0,0,,,,,,,,,,,
131458,1745094843922,0.0,200.98,,-0.01,0.06,0.93,-0,-0,0,0.94,1.75,54,2499,7.2,3.62,,13.29,1.108,93.4,,32.5,5,,,,,,,,,,,,0,0,0,0,0,0,0,0,0,0,0,0,0,0,0,0,,,,,0.0,,,,,,
131478,1745094843942,,,,,,,,,,,,,,,,,,,,,,,0,0,0,0,0.0,0.0,0.0,0.0,2.26,,,0,0,0,0,0,0,0,0,0,0,0,0,0,0,0,0,0,,,,,39.240116,-77.964874,0.04,24,2,1.1
131498,1745094843962,0.0,200.98,,-0.03,0.04,0.95,-0,-0,0,0.95,1.75,54,2499,7.2,3.62,,13.43,1.21,93.4,,33.6,5,,,,,,,,,,,,0,0,0,0,0,0,0,0,0,0,0,0,0,0,0,0,,,,,0.0,,,,,,
131518,1745094843982,,,,,,,,,,,,,,,,,,,,,,,,,,,,,,,,,,0,0,0,0,0,0,0,0,0,0,0,0,0,0,0,0,,,,,,,,,,,
131538,1745094843994,0.0,200.98,,-0.03,0.04,0.95,-0,-0,0,0.95,1.75,55,2493,9.3,3.66,,13.55,1.22,93.4,,33.6,5,,,,,,,,,,,,0,0,0,0,0,0,0,0,0,0,0,0,0,0,0,0,,,,,0.0,,,,,,
131558,1745094844014,,,,,,,,,,,,,,,,,,,,,,,,,,,,,,,,,,0,0,0,0,0,0,0,0,0,0,0,0,0,0,0,0,,,,,,,,,,,
131578,1745094844034,0.0,200.98,,-0.04,0.03,0.96,0,-0,0,0.96,1.75,55,2401,9.4,3.66,,13.65,1.163,93.4,,33.6,5,0,0,0,0,0.0,0.0,0.0,0.0,2.26,,,0,0,0,0,0,0,0,0,0,0,0,0,0,0,0,0,0,,,,0.0,39.240116,-77.964874,0.0,24,2,1.1
131598,1745094844054,,,,,,,,,,,,,,,,,,,,,,,,,,,,,,,,,,0,0,0,0,0,0,0,0,0,0,0,0,0,0,0,0,,,,,,,,,,,
131618,1745094844074,0.0,200.85,,-0.04,0.02,0.97,0,-0,0,0.97,1.75,55,2362,9.3,3.66,,13.71,1.148,93.4,,31.8,5,,,,,,,,,,,,0,0,0,0,0,0,0,0,0,0,0,0,0,0,0,0,,,,,0.0,,,,,,
131638,1745094844096,,,,,,,,,,,,,,,,,,,,,,,,,,,,,,,,,,0,0,0,0,0,0,0,0,0,0,0,0,0,0,0,0,,,,,,,,,,,
131658,1745094844116,0.0,200.85,,-0.04,0.0,1.0,0,-0,0,1.0,1.75,57,2311,8.3,3.65,,13.71,1.148,93.4,,31.8,5,,,,,,,,,,,,0,0,0,0,0,0,0,0,0,0,0,0,0,0,0,0,,,,,0.0,,,,,,
131678,1745094844136,,,,,,,,,,,,,,,,,,,,,,,0,0,0,0,0.0,0.0,0.0,0.0,2.26,,,0,0,0,0,0,0,0,0,0,0,0,0,0,0,0,0,0,,,,,39.240116,-77.964874,0.05,24,2,1.1
131698,1745094844156,0.0,200.85,,-0.05,-0.01,1.01,0,-0,0,1.01,1.75,58,2311,8.3,3.65,,13.71,1.174,93.4,,31.4,5,,,,,,,,,,,,0,0,0,0,0,0,0,0,0,0,0,0,0,0,0,0,,,,,0.0,,,,,,
131718,1745094844176,,,,,,,,,,,,,,,,,,,,,,,,,,,,,,,,,,0,0,0,0,0,0,0,0,0,0,0,0,0,0,0,0,,,,,,,,,,,
131738,1745094844198,0.0,200.98,,-0.05,-0.02,1.01,0,-0,0,1.01,1.75,58,2306,2.9,3.64,,13.59,1.243,93.4,,31.4,5,,,,,,,,,,,,0,0,0,0,0,0,0,0,0,0,0,0,0,0,0,0,,,,,0.0,,,,,,
131758,1745094844218,,,,,,,,,,,,,,,,,,,,,,,,,,,,,,,,,,0,0,0,0,0,0,0,0,0,0,0,0,0,0,0,0,,,,,,,,,,,
131778,1745094844238,0.0,200.98,,-0.05,-0.02,1.0,0,-0,0,1.0,1.75,58,2452,2.3,3.49,,13.33,1.251,93.4,,31.4,5,0,0,0,0,0.0,0.0,0.0,0.0,2.26,,,0,0,0,0,0,0,0,0,0,0,0,0,0,0,0,0,0,,,,0.0,39.240116,-77.964874,0.04,24,2,1.1
131798,1745094844258,,,,,,,,,,,,,,,,,,,,,,,,,,,,,,,,,,0,0,0,0,0,0,0,0,0,0,0,0,0,0,0,0,,,,,,,,,,,
131818,1745094844278,0.0,200.98,,-0.04,-0.01,0.99,0,-0,0,1.0,1.75,57,2664,2.1,3.35,,13.16,1.252,93.4,,34.1,5,,,,,,,,,,,,0,0,0,0,0,0,0,0,0,0,0,0,0,0,0,0,,,,,0.0,,,,,,
131838,1745094844303,,,,,,,,,,,,,,,,,,,,,,,,,,,,,,,,,,0,0,0,0,0,0,0,0,0,0,0,0,0,0,0,0,,,,,,,,,,,
131858,1745094844323,0.0,200.98,,-0.05,-0.01,0.99,-0,-0,0,0.99,1.75,57,2673,2.1,3.34,,13.16,1.252,93.4,,34.1,5,,,,,,,,,,,,0,0,0,0,0,0,0,0,0,0,0,0,0,0,0,0,,,,,0.0,,,,,,
131878,1745094844343,,,,,,,,,,,,,,,,,,,,,,,0,0,0,0,0.0,0.0,0.0,0.0,2.26,,,0,0,0,0,0,0,0,0,0,0,0,0,0,0,0,0,0,,,,,39.240116,-77.964874,0.44,24,2,1.1
131898,1745094844363,0.0,200.98,,-0.05,-0.01,0.99,0,-0,0,0.99,1.75,57,2673,2.1,3.34,,13.09,1.252,93.4,,35.3,5,,,,,,,,,,,,0,0,0,0,0,0,0,0,0,0,0,0,0,0,0,0,,,,,0.0,,,,,,
131918,1745094844383,,,,,,,,,,,,,,,,,,,,,,,,,,,,,,,,,,0,0,0,0,0,0,0,0,0,0,0,0,0,0,0,0,,,,,,,,,,,
131938,1745094844402,0.0,200.98,,-0.04,-0.01,0.99,-0,-0,0,0.99,1.75,57,2639,3.8,3.5,,13.13,1.216,93.4,,35.3,5,,,,,,,,,,,,0,0,0,0,0,0,0,0,0,0,0,0,0,0,0,0,,,,,0.0,,,,,,
131958,1745094844422,,,,,,,,,,,,,,,,,,,,,,,,,,,,,,,,,,0,0,0,0,0,0,0,0,0,0,0,0,0,0,0,0,,,,,,,,,,,
131978,1745094844442,0.0,200.98,,-0.05,-0.0,0.96,-0,-0,0,0.96,1.75,55,2722,5.4,3.62,,13.23,1.187,93.4,,35.3,5,0,0,0,0,0.0,0.0,0.0,0.0,2.26,,,0,0,0,0,0,0,0,0,0,0,0,0,0,0,0,0,0,,,,0.0,39.240116,-77.964874,0.34,24,2,1.1
131998,1745094844462,,,,,,,,,,,,,,,,,,,,,,,,,,,,,,,,,,0,0,0,0,0,0,0,0,0,0,0,0,0,0,0,0,,,,,,,,,,,
132018,1745094844482,0.0,201.11,,-0.05,-0.01,0.97,-0,-0,0,0.98,1.75,56,2695,6.1,3.64,,13.25,1.163,93.4,,36.4,5,,,,,,,,,,,,0,0,0,0,0,0,0,0,0,0,0,0,0,0,0,0,,,,,0.0,,,,,,
132038,1745094844499,,,,,,,,,,,,,,,,,,,,,,,,,,,,,,,,,,0,0,0,0,0,0,0,0,0,0,0,0,0,0,0,0,,,,,,,,,,,
132058,1745094844519,0.0,201.11,,-0.05,0.01,0.93,-0,-0,0,0.93,1.75,54,2711,7.2,3.66,,13.25,1.163,93.4,,36.4,5,,,,,,,,,,,,0,0,0,0,0,0,0,0,0,0,0,0,0,0,0,0,,,,,0.0,,,,,,
132078,1745094844539,,,,,,,,,,,,,,,,,,,,,,,0,0,0,0,0.0,0.0,0.0,0.0,2.26,,,0,0,0,0,0,0,0,0,0,0,0,0,0,0,0,0,0,,,,,39.240116,-77.964874,0.05,24,2,1.1
132098,1745094844559,0.0,200.98,,-0.05,-0.02,0.95,0,-0,-0,0.95,1.75,55,2711,7.2,3.66,,13.37,1.166,93.4,,37.4,5,,,,,,,,,,,,0,0,0,0,0,0,0,0,0,0,0,0,0,0,0,0,,,,,0.0,,,,,,
132118,1745094844579,,,,,,,,,,,,,,,,,,,,,,,,,,,,,,,,,,0,0,0,0,0,0,0,0,0,0,0,0,0,0,0,0,,,,,,,,,,,
132138,1745094844601,0.0,200.98,,-0.06,-0.05,0.99,0,-0,0,0.99,1.75,57,2754,7.5,3.71,,13.37,1.193,93.4,,37.4,5,,,,,,,,,,,,0,0,0,0,0,0,0,0,0,0,0,0,0,0,0,0,,,,,0.0,,,,,,
132158,1745094844621,,,,,,,,,,,,,,,,,,,,,,,,,,,,,,,,,,0,0,0,0,0,0,0,0,0,0,0,0,0,0,0,0,,,,,,,,,,,
132178,1745094844641,0.0,201.11,,-0.06,-0.03,0.96,0,-0,0,0.96,1.75,55,2685,7.4,3.7,,13.4,1.198,93.4,,37.4,5,0,0,0,0,0.0,0.0,0.0,0.0,2.26,,,0,0,0,0,0,0,0,0,0,0,0,0,0,0,0,0,0,,,,0.0,39.240116,-77.964874,0.08,24,2,1.1
132198,1745094844661,,,,,,,,,,,,,,,,,,,,,,,,,,,,,,,,,,0,0,0,0,0,0,0,0,0,0,0,0,0,0,0,0,,,,,,,,,,,
132218,1745094844681,0.0,201.11,,-0.06,-0.03,0.99,-0,-0,0,0.99,1.75,57,2574,4.7,3.67,,13.35,1.21,93.4,,35.5,5,,,,,,,,,,,,0,0,0,0,0,0,0,0,0,0,0,0,0,0,0,0,,,,,0.0,,,,,,
132238,1745094844699,,,,,,,,,,,,,,,,,,,,,,,,,,,,,,,,,,0,0,0,0,0,0,0,0,0,0,0,0,0,0,0,0,,,,,,,,,,,
132258,1745094844719,0.0,201.11,,-0.06,-0.03,0.99,-0,-0,0,0.99,1.75,57,2574,4.7,3.67,,13.35,1.21,93.4,,35.5,5,,,,,,,,,,,,0,0,0,0,0,0,0,0,0,0,0,0,0,0,0,0,,,,,0.0,,,,,,
132278,1745094844739,,,,,,,,,,,,,,,,,,,,,,,0,0,0,0,0.0,0.0,0.0,0.0,2.26,,,0,0,0,0,0,0,0,0,0,0,0,0,0,0,0,0,0,,,,,39.240116,-77.964874,0.21,24,2,1.1
132298,1745094844759,0.0,200.98,,-0.05,-0.02,0.98,-0,-0,0,0.98,1.75,56,2613,3.0,3.49,,13.23,1.229,93.4,,33.9,5,,,,,,,,,,,,0,0,0,0,0,0,0,0,0,0,0,0,0,0,0,0,,,,,0.0,,,,,,
132318,1745094844779,,,,,,,,,,,,,,,,,,,,,,,,,,,,,,,,,,0,0,0,0,0,0,0,0,0,0,0,0,0,0,0,0,,,,,,,,,,,
132338,1745094844801,0.0,201.11,,-0.06,-0.03,0.99,-0,-0,0,0.99,1.75,57,2536,2.9,3.47,,13.21,1.245,93.4,,33.9,5,,,,,,,,,,,,0,0,0,0,0,0,0,0,0,0,0,0,0,0,0,0,,,,,0.0,,,,,,
132358,1745094844821,,,,,,,,,,,,,,,,,,,,,,,,,,,,,,,,,,0,0,0,0,0,0,0,0,0,0,0,0,0,0,0,0,,,,,,,,,,,
132378,1745094844841,0.0,200.98,13.41,-0.05,-0.03,0.99,-0,-0,0,0.99,1.75,57,2445,2.8,3.47,15,13.25,1.252,93.4,110,33.9,5,0,0,0,0,0.0,0.0,0.0,0.0,2.27,0,0.0,0,0,0,0,0,0,0,0,0,0,0,0,0,0,0,0,0,0.0,0,-0,0.0,39.240116,-77.964874,0.23,24,2,1.1
132398,1745094844861,,,,,,,,,,,,,,,,,,,,,,,,,,,,,,,,,,0,0,0,0,0,0,0,0,0,0,0,0,0,0,0,0,,,,,,,,,,,
132418,1745094844881,0.0,201.11,,-0.06,-0.03,0.99,-1,-0,0,0.99,1.75,57,2351,5.2,3.61,,13.4,1.253,93.4,,30.7,5,,,,,,,,,,,,0,0,0,0,0,0,0,0,0,0,0,0,0,0,0,0,,,,,0.0,,,,,,
132438,1745094844901,,,,,,,,,,,,,,,,,,,,,,,,,,,,,,,,,,0,0,0,0,0,0,0,0,0,0,0,0,0,0,0,0,,,,,,,,,,,
132458,1745094844921,0.0,201.11,,-0.07,-0.03,0.97,-0,-0,0,0.98,1.75,56,2334,8.8,3.6,,13.4,1.253,93.4,,30.7,5,,,,,,,,,,,,0,0,0,0,0,0,0,0,0,0,0,0,0,0,0,0,,,,,0.0,,,,,,
132478,1745094844941,,,,,,,,,,,,,,,,,,,,,,,0,0,0,0,0.0,0.0,0.0,0.0,2.26,,,0,0,0,0,0,0,0,0,0,0,0,0,0,0,0,0,0,,,,,39.240116,-77.964874,0.11,24,2,1.1
132498,1745094844961,0.0,201.11,,-0.05,-0.02,0.97,-0,-0,0,0.97,1.75,56,2334,8.8,3.6,,13.64,1.253,93.4,,32.5,5,,,,,,,,,,,,0,0,0,0,0,0,0,0,0,0,0,0,0,0,0,0,,,,,0.0,,,,,,
132518,1745094844981,,,,,,,,,,,,,,,,,,,,,,,,,,,,,,,,,,0,0,0,0,0,0,0,0,0,0,0,0,0,0,0,0,,,,,,,,,,,
132538,1745094844993,0.0,200.98,,-0.06,-0.02,0.93,-0,-0,0,0.94,1.75,54,2594,10.8,3.72,,13.63,1.252,93.4,,32.5,5,,,,,,,,,,,,0,0,0,0,0,0,0,0,0,0,0,0,0,0,0,0,,,,,0.0,,,,,,
132558,1745094845013,,,,,,,,,,,,,,,,,,,,,,,,,,,,,,,,,,0,0,0,0,0,0,0,0,0,0,0,0,0,0,0,0,,,,,,,,,,,
132578,1745094845033,0.0,201.11,,-0.07,-0.03,0.93,0,-0,-0,0.93,1.75,53,2909,12.2,3.8,,13.59,1.25,93.4,,32.5,5,0,0,0,0,0.0,0.0,0.0,0.0,2.26,,,0,0,0,0,0,0,0,0,0,0,0,0,0,0,0,0,0,,,,0.0,39.240116,-77.964874,0.24,25,2,1.0
132598,1745094845053,,,,,,,,,,,,,,,,,,,,,,,,,,,,,,,,,,0,0,0,0,0,0,0,0,0,0,0,0,0,0,0,0,,,,,,,,,,,
132618,1745094845073,0.0,201.11,,-0.09,-0.07,0.92,0,-0,-0,0.93,1.75,53,3003,12.5,3.9,,13.53,1.234,93.4,,39.2,5,,,,,,,,,,,,0,0,0,0,0,0,0,0,0,0,0,0,0,0,0,0,,,,,0.0,,,,,,
132638,1745094845100,,,,,,,,,,,,,,,,,,,,,,,,,,,,,,,,,,0,0,0,0,0,0,0,0,0,0,0,0,0,0,0,0,,,,,,,,,,,
132658,1745094845120,0.0,201.11,,-0.08,-0.01,0.83,1,-0,-1,0.83,1.75,48,3234,12.7,3.9,,13.53,1.234,93.4,,39.2,5,,,,,,,,,,,,0,0,0,0,0,0,0,0,0,0,0,0,0,0,0,0,,,,,0.0,,,,,,
132678,1745094845140,,,,,,,,,,,,,,,,,,,,,,,0,0,0,0,0.0,0.0,0.0,0.0,2.26,,,0,0,0,0,0,0,0,0,0,0,0,0,0,0,0,0,0,,,,,39.240116,-77.964874,0.18,25,2,1.0
132698,1745094845160,0.0,200.98,,-0.08,-0.05,0.9,0,-0,-0,0.91,1.75,52,3234,12.7,3.9,,13.47,1.14,93.4,,46.5,5,,,,,,,,,,,,0,0,0,0,0,0,0,0,0,0,0,0,0,0,0,0,,,,,0.0,,,,,,
132718,1745094845180,,,,,,,,,,,,,,,,,,,,,,,,,,,,,,,,,,0,0,0,0,0,0,0,0,0,0,0,0,0,0,0,0,,,,,,,,,,,
132738,1745094845199,0.0,201.11,,-0.09,-0.02,0.9,-0,-0,0,0.91,1.75,52,3546,12.0,3.89,,13.33,1.238,93.4,,46.5,5,,,,,,,,,,,,0,0,0,0,0,0,0,0,0,0,0,0,0,0,0,0,,,,,0.0,,,,,,
132758,1745094845219,,,,,,,,,,,,,,,,,,,,,,,,,,,,,,,,,,0,0,0,0,0,0,0,0,0,0,0,0,0,0,0,0,,,,,,,,,,,
132778,1745094845239,0.0,201.11,,-0.08,-0.01,0.91,-0,-0,0,0.92,1.75,53,3720,4.2,3.61,,12.88,1.223,93.4,,46.5,5,0,0,0,0,0.0,0.0,0.0,0.0,2.26,,,0,0,0,0,0,0,0,0,0,0,0,0,0,0,0,0,0,,,,0.0,39.240116,-77.964874,0.08,25,2,1.0
132798,1745094845259,,,,,,,,,,,,,,,,,,,,,,,,,,,,,,,,,,0,0,0,0,0,0,0,0,0,0,0,0,0,0,0,0,,,,,,,,,,,
132818,1745094845279,0.0,201.11,,-0.08,0.01,0.92,-0,-0,0,0.92,1.75,53,3745,1.9,3.25,,12.39,1.168,93.4,,52.8,5,,,,,,,,,,,,0,0,0,0,0,0,0,0,0,0,0,0,0,0,0,0,,,,,0.0,,,,,,
132838,1745094845301,,,,,,,,,,,,,,,,,,,,,,,,,,,,,,,,,,0,0,0,0,0,0,0,0,0,0,0,0,0,0,0,0,,,,,,,,,,,
132858,1745094845321,0.0,201.11,,-0.04,0.06,0.91,-0,-0,0,0.92,1.75,53,3686,0.0,2.57,,12.39,1.168,93.4,,52.8,5,,,,,,,,,,,,0,0,0,0,0,0,0,0,0,0,0,0,0,0,0,0,,,,,0.0,,,,,,
132878,1745094845341,,,,,,,,,,,,,,,,,,,,,,,0,0,0,0,0.0,0.0,0.0,0.0,2.26,,,0,0,0,0,0,0,0,0,0,0,0,0,0,0,0,0,0,,,,,39.240116,-77.964874,0.42,25,2,1.0
132898,1745094845361,0.0,200.98,,-0.04,0.03,0.9,0,-0,-0,0.91,1.75,52,3686,0.0,2.57,,12.11,1.123,93.4,,51.6,5,,,,,,,,,,,,0,0,0,0,0,0,0,0,0,0,0,0,0,0,0,0,,,,,0.0,,,,,,
132918,1745094845381,,,,,,,,,,,,,,,,,,,,,,,,,,,,,,,,,,0,0,0,0,0,0,0,0,0,0,0,0,0,0,0,0,,,,,,,,,,,
132938,1745094845401,0.0,200.98,,-0.07,-0.09,0.91,1,-0,-1,0.92,1.75,53,3588,0.0,2.57,,11.91,1.137,93.4,,51.6,5,,,,,,,,,,,,0,0,0,0,0,0,0,0,0,0,0,0,0,0,0,0,,,,,0.0,,,,,,
132958,1745094845421,,,,,,,,,,,,,,,,,,,,,,,,,,,,,,,,,,0,0,0,0,0,0,0,0,0,0,0,0,0,0,0,0,,,,,,,,,,,
132978,1745094845441,0.0,201.11,,-0.04,0.02,0.93,0,-0,0,0.93,1.75,53,3459,0.0,2.62,,11.81,1.143,93.4,,51.6,5,0,0,0,0,0.0,0.0,0.0,0.0,2.26,,,0,0,0,0,0,0,0,0,0,0,0,0,0,0,0,0,0,,,,0.0,39.240116,-77.964874,0.37,25,2,1.0
132998,1745094845461,,,,,,,,,,,,,,,,,,,,,,,,,,,,,,,,,,0,0,0,0,0,0,0,0,0,0,0,0,0,0,0,0,,,,,,,,,,,
133018,1745094845481,0.0,201.11,,-0.06,-0.08,0.96,1,-0,-0,0.97,1.75,55,3296,0.0,2.67,,11.81,1.133,93.4,,47.4,5,,,,,,,,,,,,0,0,0,0,0,0,0,0,0,0,0,0,0,0,0,0,,,,,0.0,,,,,,
133038,1745094845500,,,,,,,,,,,,,,,,,,,,,,,,,,,,,,,,,,0,0,0,0,0,0,0,0,0,0,0,0,0,0,0,0,,,,,,,,,,,
133058,1745094845520,0.0,201.11,,-0.04,0.01,0.89,0,-0,-0,0.89,1.75,51,3260,2.0,2.86,,11.81,1.133,93.4,,47.4,5,,,,,,,,,,,,0,0,0,0,0,0,0,0,0,0,0,0,0,0,0,0,,,,,0.0,,,,,,
133078,1745094845540,,,,,,,,,,,,,,,,,,,,,,,0,0,0,0,0.0,0.0,0.0,0.0,2.26,,,0,0,0,0,0,0,0,0,0,0,0,0,0,0,0,0,0,,,,,39.240116,-77.964874,0.04,25,2,1.0
133098,1745094845560,0.0,201.11,,-0.03,0.01,0.96,-0,-0,0,0.96,1.75,55,3260,2.0,2.86,,11.97,1.212,93.4,,44.7,5,,,,,,,,,,,,0,0,0,0,0,0,0,0,0,0,0,0,0,0,0,0,,,,,0.0,,,,,,
133118,1745094845580,,,,,,,,,,,,,,,,,,,,,,,,,,,,,,,,,,0,0,0,0,0,0,0,0,0,0,0,0,0,0,0,0,,,,,,,,,,,
133138,1745094845600,0.0,201.11,,-0.08,-0.07,1.02,0,-0,-0,1.02,1.75,59,3203,5.3,3.59,,12.35,1.16,93.4,,44.7,5,,,,,,,,,,,,0,0,0,0,0,0,0,0,0,0,0,0,0,0,0,0,,,,,0.0,,,,,,
133158,1745094845620,,,,,,,,,,,,,,,,,,,,,,,,,,,,,,,,,,0,0,0,0,0,0,0,0,0,0,0,0,0,0,0,0,,,,,,,,,,,
133178,1745094845640,0.0,201.11,,-0.08,-0.07,0.93,1,-0,-1,0.94,1.75,54,3205,7.4,3.67,,12.67,1.051,93.4,,44.7,5,0,0,0,0,0.0,0.0,0.0,0.0,2.26,,,0,0,0,0,0,0,0,0,0,0,0,0,0,0,0,0,0,,,,0.0,39.240116,-77.964874,0.37,25,2,1.0
133198,1745094845660,,,,,,,,,,,,,,,,,,,,,,,,,,,,,,,,,,0,0,0,0,0,0,0,0,0,0,0,0,0,0,0,0,,,,,,,,,,,
133218,1745094845680,0.0,201.11,,-0.04,0.03,0.9,0,-0,0,0.91,1.75,52,3166,9.6,3.76,,12.99,0.991,93.4,,44.6,5,,,,,,,,,,,,0,0,0,0,0,0,0,0,0,0,0,0,0,0,0,0,,,,,0.0,,,,,,
133238,1745094845700,,,,,,,,,,,,,,,,,,,,,,,,,,,,,,,,,,0,0,0,0,0,0,0,0,0,0,0,0,0,0,0,0,,,,,,,,,,,
133258,1745094845720,0.0,201.11,,-0.04,0.0,0.98,-0,-0,0,0.98,1.75,56,3166,9.6,3.76,,12.99,0.991,93.4,,44.6,5,,,,,,,,,,,,0,0,0,0,0,0,0,0,0,0,0,0,0,0,0,0,,,,,0.0,,,,,,
133278,1745094845740,,,,,,,,,,,,,,,,,,,,,,,0,0,0,0,0.0,0.0,0.0,0.0,2.27,,,0,0,0,0,0,0,0,0,0,0,0,0,0,0,0,0,0,,,,,39.240116,-77.964874,0.42,25,2,1.0
133298,1745094845760,0.0,200.98,,-0.07,-0.13,1.01,0,-0,-0,1.02,1.75,59,3246,10.2,3.8,,13.13,0.966,93.4,,43.5,5,,,,,,,,,,,,0,0,0,0,0,0,0,0,0,0,0,0,0,0,0,0,,,,,0.0,,,,,,
133318,1745094845780,,,,,,,,,,,,,,,,,,,,,,,,,,,,,,,,,,0,0,0,0,0,0,0,0,0,0,0,0,0,0,0,0,,,,,,,,,,,
133338,1745094845800,0.0,201.11,,-0.06,-0.08,0.93,1,-0,-0,0.94,1.75,54,3226,10.3,3.8,,13.13,0.971,93.4,,43.5,5,,,,,,,,,,,,0,0,0,0,0,0,0,0,0,0,0,0,0,0,0,0,,,,,0.0,,,,,,
133358,1745094845820,,,,,,,,,,,,,,,,,,,,,,,,,,,,,,,,,,0,0,0,0,0,0,0,0,0,0,0,0,0,0,0,0,,,,,,,,,,,
133378,1745094845840,0.0,201.11,13.42,-0.04,0.02,0.91,0,-0,0,0.91,1.75,52,3123,5.8,3.74,15,13.08,0.972,93.4,110,43.5,5,0,0,0,0,0.0,0.0,0.0,0.0,2.26,0,0.0,0,0,0,0,0,0,0,0,0,0,0,0,0,0,0,0,0,0.0,0,-0,0.0,39.240116,-77.964874,0.04,25,2,1.0
133398,1745094845860,,,,,,,,,,,,,,,,,,,,,,,,,,,,,,,,,,0,0,0,0,0,0,0,0,0,0,0,0,0,0,0,0,,,,,,,,,,,
133418,1745094845880,0.0,201.11,,-0.03,0.04,0.93,-0,-0,1,0.93,1.75,54,3072,0.4,3.34,,12.83,1.028,93.4,,43.1,5,,,,,,,,,,,,0,0,0,0,0,0,0,0,0,0,0,0,0,0,0,0,,,,,0.0,,,,,,
133438,1745094845903,,,,,,,,,,,,,,,,,,,,,,,,,,,,,,,,,,0,0,0,0,0,0,0,0,0,0,0,0,0,0,0,0,,,,,,,,,,,
133458,1745094845923,0.0,201.11,,-0.02,0.04,0.94,-0,-0,1,0.94,1.75,54,2919,0.0,2.88,,12.83,1.028,93.4,,43.1,5,,,,,,,,,,,,0,0,0,0,0,0,0,0,0,0,0,0,0,0,0,0,,,,,0.0,,,,,,
133478,1745094845943,,,,,,,,,,,,,,,,,,,,,,,0,0,0,0,0.0,0.0,0.0,0.0,2.26,,,0,0,0,0,0,0,0,0,0,0,0,0,0,0,0,0,0,,,,,39.240116,-77.964874,0.06,25,2,1.0
133498,1745094845963,0.0,201.11,,-0.01,0.06,0.91,-0,-0,1,0.91,1.75,52,2919,0.0,2.88,,12.53,1.108,93.4,,38.4,5,,,,,,,,,,,,0,0,0,0,0,0,0,0,0,0,0,0,0,0,0,0,,,,,0.0,,,,,,
133518,1745094845983,,,,,,,,,,,,,,,,,,,,,,,,,,,,,,,,,,0,0,0,0,0,0,0,0,0,0,0,0,0,0,0,0,,,,,,,,,,,
133538,1745094845992,0.0,201.11,,-0.01,0.01,0.95,-0,-0,0,0.95,1.75,55,2778,0.0,2.92,,12.49,1.217,93.4,,38.4,5,,,,,,,,,,,,0,0,0,0,0,0,0,0,0,0,0,0,0,0,0,0,,,,,0.0,,,,,,
133558,1745094846012,,,,,,,,,,,,,,,,,,,,,,,,,,,,,,,,,,0,0,0,0,0,0,0,0,0,0,0,0,0,0,0,0,,,,,,,,,,,
133578,1745094846032,0.0,201.23,,-0.02,0.01,0.96,-0,-0,0,0.96,1.75,55,2608,0.0,3.0,,12.55,1.25,93.4,,38.4,5,0,0,0,0,0.0,0.0,0.0,0.0,2.26,,,0,0,0,0,0,0,0,0,0,0,0,0,0,0,0,0,0,,,,0.0,39.240116,-77.964874,0.06,25,2,1.0
133598,1745094846052,,,,,,,,,,,,,,,,,,,,,,,,,,,,,,,,,,0,0,0,0,0,0,0,0,0,0,0,0,0,0,0,0,,,,,,,,,,,
133618,1745094846072,0.0,201.11,,-0.01,0.0,0.97,0,-0,0,0.97,1.75,55,2428,4.6,3.18,,12.92,1.249,93.4,,33.1,5,,,,,,,,,,,,0,0,0,0,0,0,0,0,0,0,0,0,0,0,0,0,,,,,0.0,,,,,,
133638,1745094846100,,,,,,,,,,,,,,,,,,,,,,,,,,,,,,,,,,0,0,0,0,0,0,0,0,0,0,0,0,0,0,0,0,,,,,,,,,,,
133658,1745094846120,0.0,201.11,,-0.02,0.0,0.98,-0,-0,0,0.98,1.75,56,2207,10.6,3.64,,12.92,1.249,93.4,,33.1,5,,,,,,,,,,,,0,0,0,0,0,0,0,0,0,0,0,0,0,0,0,0,,,,,0.0,,,,,,
133678,1745094846140,,,,,,,,,,,,,,,,,,,,,,,0,0,0,0,0.0,0.0,0.0,0.0,2.26,,,0,0,0,0,0,0,0,0,0,0,0,0,0,0,0,0,0,,,,,39.240116,-77.964874,0.07,25,2,1.0
133698,1745094846160,0.0,201.11,,-0.03,-0.01,0.99,-0,-0,0,0.99,1.75,57,2207,10.6,3.64,,13.48,1.249,93.4,,27.6,5,,,,,,,,,,,,0,0,0,0,0,0,0,0,0,0,0,0,0,0,0,0,,,,,0.0,,,,,,
133718,1745094846180,,,,,,,,,,,,,,,,,,,,,,,,,,,,,,,,,,0,0,0,0,0,0,0,0,0,0,0,0,0,0,0,0,,,,,,,,,,,
133738,1745094846202,0.0,201.11,,-0.03,-0.01,0.98,-0,-0,0,0.98,1.75,56,2194,13.6,3.98,,13.84,1.249,93.4,,27.6,5,,,,,,,,,,,,0,0,0,0,0,0,0,0,0,0,0,0,0,0,0,0,,,,,0.0,,,,,,
133758,1745094846222,,,,,,,,,,,,,,,,,,,,,,,,,,,,,,,,,,0,0,0,0,0,0,0,0,0,0,0,0,0,0,0,0,,,,,,,,,,,
133778,1745094846242,0.0,201.11,,-0.03,0.0,0.97,-0,-0,0,0.97,1.75,56,2131,13.8,3.96,,13.94,1.249,93.4,,27.6,5,0,0,0,0,0.0,0.0,0.0,0.0,2.26,,,0,0,0,0,0,0,0,0,0,0,0,0,0,0,0,0,0,,,,0.0,39.240116,-77.964874,0.07,25,2,1.0
133798,1745094846262,,,,,,,,,,,,,,,,,,,,,,,,,,,,,,,,,,0,0,0,0,0,0,0,0,0,0,0,0,0,0,0,0,,,,,,,,,,,
133818,1745094846282,0.0,201.11,,-0.02,-0.0,0.97,-0,-0,0,0.97,1.75,55,2012,13.7,3.99,,14.03,1.251,93.4,,26.7,5,,,,,,,,,,,,0,0,0,0,0,0,0,0,0,0,0,0,0,0,0,0,,,,,0.0,,,,,,
133838,1745094846302,,,,,,,,,,,,,,,,,,,,,,,,,,,,,,,,,,0,0,0,0,0,0,0,0,0,0,0,0,0,0,0,0,,,,,,,,,,,
133858,1745094846322,0.0,201.11,,-0.02,-0.0,0.98,-0,-0,0,0.98,1.75,56,2072,13.8,3.97,,14.03,1.251,93.4,,26.7,5,,,,,,,,,,,,0,0,0,0,0,0,0,0,0,0,0,0,0,0,0,0,,,,,0.0,,,,,,
133878,1745094846342,,,,,,,,,,,,,,,,,,,,,,,0,0,0,0,0.0,0.0,0.0,0.0,2.26,,,0,0,0,0,0,0,0,0,0,0,0,0,0,0,0,0,0,,,,,39.240116,-77.964874,0.04,25,2,1.0
133898,1745094846362,0.0,201.11,,-0.02,-0.01,0.98,-0,-0,0,0.98,1.75,56,2072,13.8,3.97,,13.98,1.25,93.4,,27.0,5,,,,,,,,,,,,0,0,0,0,0,0,0,0,0,0,0,0,0,0,0,0,,,,,0.0,,,,,,
133918,1745094846382,,,,,,,,,,,,,,,,,,,,,,,,,,,,,,,,,,0,0,0,0,0,0,0,0,0,0,0,0,0,0,0,0,,,,,,,,,,,
133938,1745094846402,0.0,201.23,,-0.03,-0.01,0.98,-0,-0,0,0.98,1.75,56,1967,13.8,3.95,,14.04,1.252,93.4,,27.0,5,,,,,,,,,,,,0,0,0,0,0,0,0,0,0,0,0,0,0,0,0,0,,,,,0.0,,,,,,
133958,1745094846422,,,,,,,,,,,,,,,,,,,,,,,,,,,,,,,,,,0,0,0,0,0,0,0,0,0,0,0,0,0,0,0,0,,,,,,,,,,,
133978,1745094846442,0.0,201.23,,-0.03,-0.0,0.99,-0,-0,0,0.99,1.75,57,2128,13.9,3.97,,13.94,1.252,93.4,,27.0,5,0,0,0,0,0.0,0.0,0.0,0.0,2.26,,,0,0,0,0,0,0,0,0,0,0,0,0,0,0,0,0,0,,,,0.0,39.240116,-77.964874,0.0,25,2,1.0
133998,1745094846462,,,,,,,,,,,,,,,,,,,,,,,,,,,,,,,,,,0,0,0,0,0,0,0,0,0,0,0,0,0,0,0,0,,,,,,,,,,,
134018,1745094846482,0.0,201.23,,-0.04,-0.01,1.0,-0,-0,0,1.0,1.75,58,2127,13.9,3.96,,13.99,1.252,93.4,,27.2,5,,,,,,,,,,,,0,0,0,0,0,0,0,0,0,0,0,0,0,0,0,0,,,,,0.0,,,,,,
134038,1745094846501,,,,,,,,,,,,,,,,,,,,,,,,,,,,,,,,,,0,0,0,0,0,0,0,0,0,0,0,0,0,0,0,0,,,,,,,,,,,
134058,1745094846521,0.0,201.23,,-0.05,-0.01,1.01,0,-0,0,1.01,1.75,58,2148,13.9,3.97,,13.99,1.252,93.4,,27.2,5,,,,,,,,,,,,0,0,0,0,0,0,0,0,0,0,0,0,0,0,0,0,,,,,0.0,,,,,,
134078,1745094846541,,,,,,,,,,,,,,,,,,,,,,,0,0,0,0,0.0,0.0,0.0,0.0,2.26,,,0,0,0,0,0,0,0,0,0,0,0,0,0,0,0,0,0,,,,,39.240116,-77.964874,0.09,24,2,1.0
134098,1745094846561,0.0,201.23,,-0.06,-0.01,1.01,0,-0,0,1.01,1.75,58,2148,13.9,3.97,,13.91,1.25,93.4,,26.6,5,,,,,,,,,,,,0,0,0,0,0,0,0,0,0,0,0,0,0,0,0,0,,,,,0.0,,,,,,
