"Interval"|"ms"|0|0|1,"Utc"|"ms"|0|0|1,"FrontBP"|"psi"|-5.0|5.0|25,"SteerAng"|"Degrees"|-145.0|145.0|25,"Battery"|"Volts"|-5.0|20.0|1,"AccelX"|"G"|-3.0|3.0|25,"AccelY"|"G"|-3.0|3.0|25,"AccelZ"|"G"|-3.0|3.0|25,"Yaw"|"Deg/Sec"|-120|120|25,"Pitch"|"Deg/Sec"|-120|120|25,"Roll"|"Deg/Sec"|-120|120|25,"Gsum"|"G"|0.0|3.0|25,"GsumMax"|"G"|0.0|3.0|25,"GsumPct"|"%"|0|100|25,"RPM"|""|0|10000|25,"TPS"|"%"|0.0|100.0|25,"InjectorPW"|"ms"|0.0|100.0|25,"Baro"|"kPa"|0|105|1,"MAP"|"Psi"|0.0|255.0|25,"Lambda"|""|-2.0|2.0|25,"IAT"|"C"|0.0|200.0|25,"EngineTemp"|"C"|0|200|1,"EOP"|"PSI"|0.0|152.0|25,"EOT"|"F"|0|250|25,"WSFR"|"MPH"|0|150|10,"WSFL"|"MPH"|0|100|10,"WSRR"|"MPH"|0|100|10,"WSRL"|""|0|100|10,"TCSet"|"%"|0.0|100.0|10,"TCSlip"|"%"|0.0|100.0|10,"TCComp"|"deg"|0.0|50.0|10,"TCCut"|"%"|0.0|100.0|10,"Analog8"|""|0.0|5.0|10,"OilTemp"|"F"|0|300|1,"AA_On"|""|0.0|1.0|1,"ThermLF1"|"C"|0|400|50,"ThermLF2"|"C"|0|400|50,"ThermRR1"|"C"|0|400|50,"ThermRR2"|"C"|0|400|50,"ThermLF3"|"C"|0|400|50,"ThermLF4"|"C"|0|400|50,"ThermLF5"|"C"|0|400|50,"ThermLF6"|"C"|0|400|50,"ThermLF7"|"C"|0|400|50,"ThermLF8"|"C"|0|400|50,"ThermRR3"|"C"|0|400|50,"ThermRR4"|"C"|0|400|50,"ThermRR5"|"C"|0|400|50,"ThermRR6"|"C"|0|400|50,"ThermRR7"|"C"|0|400|50,"ThermRR8"|"C"|0|400|50,"Gear"|""|1|6|10,"AA_On"|""|0.0|1.0|1,"AA_LowDrag"|""|0|1|1,"Fuel_Mix"|""|-10|10|1,"AA_Packages"|""|0.0|1000.0|25,"Latitude"|"Degrees"|-180.0|180.0|10,"Longitude"|"Degrees"|-180.0|180.0|10,"Speed"|"kph"|0.0|150.0|10,"GPSSats"|""|0|20|10,"GPSQual"|""|0|5|10,"GPSDOP"|""|0.0|20.0|10
632398,1745095344864,,,,,,,,,,,,,,,,,,,,,,,,,,,,,,,,,,0,0,0,0,0,0,0,0,0,0,0,0,0,0,0,0,,,,,,,,,,,
632418,1745095344884,7.67,202.36,,-0.01,0.06,1.01,0,-0,0,1.01,1.01,100,4730,8.2,3.61,,12.04,1.052,95.2,,52.8,5,,,,,,,,,,,,0,0,0,0,0,0,0,0,0,0,0,0,0,0,0,0,,,,,0.0,,,,,,
632438,1745095344904,,,,,,,,,,,,,,,,,,,,,,,,,,,,,,,,,,0,0,0,0,0,0,0,0,0,0,0,0,0,0,0,0,,,,,,,,,,,
632458,1745095344924,6.41,202.24,,0.01,0.04,0.96,0,-0,0,0.96,1.01,96,4730,8.2,3.61,,11.91,0.945,95.2,,52.8,5,,,,,,,,,,,,0,0,0,0,0,0,0,0,0,0,0,0,0,0,0,0,,,,,0.0,,,,,,
632478,1745095344944,,,,,,,,,,,,,,,,,,,,,,,0,0,0,0,0.0,0.0,0.0,0.0,2.26,,,0,0,0,0,0,0,0,0,0,0,0,0,0,0,0,0,0,,,,,39.239765,-77.965752,0.08,34,3,0.8
632498,1745095344964,7.04,202.24,,-0.01,0.07,1.03,-0,-0,0,1.03,1.03,100,4757,8.1,3.6,,11.83,0.908,95.2,,52.9,5,,,,,,,,,,,,0,0,0,0,0,0,0,0,0,0,0,0,0,0,0,0,,,,,0.0,,,,,,
632518,1745095344984,,,,,,,,,,,,,,,,,,,,,,,,,,,,,,,,,,0,0,0,0,0,0,0,0,0,0,0,0,0,0,0,0,,,,,,,,,,,
632538,1745095344995,7.04,202.24,,-0.04,0.03,1.0,-0,-0,0,1.0,1.03,97,4806,8.1,3.58,,11.79,0.924,95.2,,52.9,5,,,,,,,,,,,,0,0,0,0,0,0,0,0,0,0,0,0,0,0,0,0,,,,,0.0,,,,,,
632558,1745095345015,,,,,,,,,,,,,,,,,,,,,,,,,,,,,,,,,,0,0,0,0,0,0,0,0,0,0,0,0,0,0,0,0,,,,,,,,,,,
632578,1745095345035,8.92,202.24,,0.0,0.02,1.01,-0,-0,0,1.01,1.03,98,4800,8.2,3.56,,11.73,0.968,95.2,,52.9,5,0,0,0,0,0.0,0.0,0.0,0.0,2.26,,,0,0,0,0,0,0,0,0,0,0,0,0,0,0,0,0,0,,,,0.0,39.239765,-77.965752,0.05,34,3,0.8
632598,1745095345055,,,,,,,,,,,,,,,,,,,,,,,,,,,,,,,,,,0,0,0,0,0,0,0,0,0,0,0,0,0,0,0,0,,,,,,,,,,,
632618,1745095345075,8.3,202.24,,-0.05,0.07,1.03,-1,-0,0,1.03,1.03,100,4812,8.2,3.57,,11.73,0.968,95.2,,53.6,5,,,,,,,,,,,,0,0,0,0,0,0,0,0,0,0,0,0,0,0,0,0,,,,,0.0,,,,,,
632638,1745095345099,,,,,,,,,,,,,,,,,,,,,,,,,,,,,,,,,,0,0,0,0,0,0,0,0,0,0,0,0,0,0,0,0,,,,,,,,,,,
632658,1745095345119,7.04,202.11,,-0.01,0.03,0.99,-0,-0,0,0.99,1.03,96,4812,8.2,3.57,,11.73,0.992,95.2,,53.6,5,,,,,,,,,,,,0,0,0,0,0,0,0,0,0,0,0,0,0,0,0,0,,,,,0.0,,,,,,
632678,1745095345139,,,,,,,,,,,,,,,,,,,,,,,0,0,0,0,0.0,0.0,0.0,0.0,2.26,,,0,0,0,0,0,0,0,0,0,0,0,0,0,0,0,0,0,,,,,39.239765,-77.965752,0.04,34,3,0.8
632698,1745095345159,7.04,202.11,,-0.05,0.07,1.04,-1,-0,0,1.04,1.04,100,4833,8.2,3.55,,11.72,0.996,95.2,,53.8,5,,,,,,,,,,,,0,0,0,0,0,0,0,0,0,0,0,0,0,0,0,0,,,,,0.0,,,,,,
632718,1745095345179,,,,,,,,,,,,,,,,,,,,,,,,,,,,,,,,,,0,0,0,0,0,0,0,0,0,0,0,0,0,0,0,0,,,,,,,,,,,
632738,1745095345201,7.04,202.11,,-0.02,0.01,0.98,-0,-0,0,0.98,1.04,95,4843,8.1,3.53,,11.68,1.003,95.2,,53.8,5,,,,,,,,,,,,0,0,0,0,0,0,0,0,0,0,0,0,0,0,0,0,,,,,0.0,,,,,,
632758,1745095345221,,,,,,,,,,,,,,,,,,,,,,,,,,,,,,,,,,0,0,0,0,0,0,0,0,0,0,0,0,0,0,0,0,,,,,,,,,,,
632778,1745095345241,7.04,201.99,,-0.07,0.03,1.03,-1,-0,0,1.03,1.04,99,4940,8.0,3.53,,11.73,1.029,95.2,,53.8,5,0,0,0,0,0.0,0.0,0.0,0.0,2.26,,,0,0,0,0,0,0,0,0,0,0,0,0,0,0,0,0,0,,,,0.0,39.239765,-77.965752,0.04,34,3,0.8
632798,1745095345261,,,,,,,,,,,,,,,,,,,,,,,,,,,,,,,,,,0,0,0,0,0,0,0,0,0,0,0,0,0,0,0,0,,,,,,,,,,,
632818,1745095345281,7.04,201.99,,-0.02,0.01,0.98,0,-0,0,0.98,1.04,94,4925,8.0,3.52,,11.73,1.029,95.2,,53.9,5,,,,,,,,,,,,0,0,0,0,0,0,0,0,0,0,0,0,0,0,0,0,,,,,0.0,,,,,,
632838,1745095345303,,,,,,,,,,,,,,,,,,,,,,,,,,,,,,,,,,0,0,0,0,0,0,0,0,0,0,0,0,0,0,0,0,,,,,,,,,,,
632858,1745095345323,8.3,202.11,,-0.08,0.03,0.99,-0,-0,0,0.99,1.04,95,4925,8.0,3.52,,11.79,0.983,95.2,,53.9,5,,,,,,,,,,,,0,0,0,0,0,0,0,0,0,0,0,0,0,0,0,0,,,,,0.0,,,,,,
632878,1745095345343,,,,,,,,,,,,,,,,,,,,,,,0,0,0,0,0.0,0.0,0.0,0.0,2.26,,,0,0,0,0,0,0,0,0,0,0,0,0,0,0,0,0,0,,,,,39.239765,-77.965752,0.05,34,3,0.8
632898,1745095345363,7.67,202.11,,-0.02,0.02,0.97,0,-0,-0,0.97,1.04,94,4873,8.1,3.51,,11.71,0.917,95.2,,53.6,5,,,,,,,,,,,,0,0,0,0,0,0,0,0,0,0,0,0,0,0,0,0,,,,,0.0,,,,,,
632918,1745095345383,,,,,,,,,,,,,,,,,,,,,,,,,,,,,,,,,,0,0,0,0,0,0,0,0,0,0,0,0,0,0,0,0,,,,,,,,,,,
632938,1745095345403,5.78,202.11,,-0.07,0.07,1.01,-0,-0,0,1.02,1.04,98,4827,8.2,3.51,,11.72,0.924,95.2,,53.6,5,,,,,,,,,,,,0,0,0,0,0,0,0,0,0,0,0,0,0,0,0,0,,,,,0.0,,,,,,
632958,1745095345423,,,,,,,,,,,,,,,,,,,,,,,,,,,,,,,,,,0,0,0,0,0,0,0,0,0,0,0,0,0,0,0,0,,,,,,,,,,,
632978,1745095345443,7.04,202.11,,-0.03,0.02,0.98,0,-0,0,0.98,1.04,95,4876,8.2,3.51,,11.77,0.967,95.2,,53.6,5,0,0,0,0,0.0,0.0,0.0,0.0,2.26,,,0,0,0,0,0,0,0,0,0,0,0,0,0,0,0,0,0,,,,0.0,39.239765,-77.965752,0.07,34,3,0.8
632998,1745095345463,,,,,,,,,,,,,,,,,,,,,,,,,,,,,,,,,,0,0,0,0,0,0,0,0,0,0,0,0,0,0,0,0,,,,,,,,,,,
633018,1745095345483,7.04,202.11,,-0.07,0.04,1.01,-0,-0,0,1.02,1.04,98,4893,8.2,3.49,,11.77,0.967,95.2,,54.6,5,,,,,,,,,,,,0,0,0,0,0,0,0,0,0,0,0,0,0,0,0,0,,,,,0.0,,,,,,
633038,1745095345503,,,,,,,,,,,,,,,,,,,,,,,,,,,,,,,,,,0,0,0,0,0,0,0,0,0,0,0,0,0,0,0,0,,,,,,,,,,,
633058,1745095345523,5.78,202.11,,-0.04,0.02,1.01,0,-0,0,1.01,1.04,97,4893,8.2,3.49,,11.65,0.962,95.2,,54.6,5,,,,,,,,,,,,0,0,0,0,0,0,0,0,0,0,0,0,0,0,0,0,,,,,0.0,,,,,,
633078,1745095345543,,,,,,,,,,,,,,,,,,,,,,,0,0,0,0,0.0,0.0,0.0,0.0,2.25,,,0,0,0,0,0,0,0,0,0,0,0,0,0,0,0,0,0,,,,,39.239765,-77.965752,0.1,34,3,0.8
633098,1745095345563,5.15,201.99,,-0.09,0.05,1.0,-0,-0,0,1.01,1.04,97,4933,8.2,3.47,,11.64,0.922,95.2,,54.7,5,,,,,,,,,,,,0,0,0,0,0,0,0,0,0,0,0,0,0,0,0,0,,,,,0.0,,,,,,
633118,1745095345583,,,,,,,,,,,,,,,,,,,,,,,,,,,,,,,,,,0,0,0,0,0,0,0,0,0,0,0,0,0,0,0,0,,,,,,,,,,,
633138,1745095345603,4.52,201.86,,-0.05,0.04,0.99,-0,-0,0,0.99,1.04,96,4918,8.2,3.47,,11.64,0.952,95.2,,54.7,5,,,,,,,,,,,,0,0,0,0,0,0,0,0,0,0,0,0,0,0,0,0,,,,,0.0,,,,,,
633158,1745095345623,,,,,,,,,,,,,,,,,,,,,,,,,,,,,,,,,,0,0,0,0,0,0,0,0,0,0,0,0,0,0,0,0,,,,,,,,,,,
633178,1745095345643,5.15,201.99,,-0.07,0.04,0.97,0,-0,0,0.98,1.04,94,4948,8.2,3.46,,11.6,0.987,95.2,,54.7,5,0,0,0,0,0.0,0.0,0.0,0.0,2.26,,,0,0,0,0,0,0,0,0,0,0,0,0,0,0,0,0,0,,,,0.0,39.239765,-77.965752,0.07,34,3,0.8
633198,1745095345663,,,,,,,,,,,,,,,,,,,,,,,,,,,,,,,,,,0,0,0,0,0,0,0,0,0,0,0,0,0,0,0,0,,,,,,,,,,,
633218,1745095345683,4.52,201.99,,-0.08,0.05,1.01,-0,-0,0,1.02,1.04,98,5021,8.1,3.46,,11.6,0.987,95.2,,55.2,5,,,,,,,,,,,,0,0,0,0,0,0,0,0,0,0,0,0,0,0,0,0,,,,,0.0,,,,,,
633238,1745095345703,,,,,,,,,,,,,,,,,,,,,,,,,,,,,,,,,,0,0,0,0,0,0,0,0,0,0,0,0,0,0,0,0,,,,,,,,,,,
633258,1745095345723,5.15,201.99,,-0.04,0.07,1.01,-0,-0,0,1.01,1.04,97,5021,8.1,3.46,,11.64,1.021,95.2,,55.2,5,,,,,,,,,,,,0,0,0,0,0,0,0,0,0,0,0,0,0,0,0,0,,,,,0.0,,,,,,
633278,1745095345743,,,,,,,,,,,,,,,,,,,,,,,0,0,0,0,0.0,0.0,0.0,0.0,2.26,,,0,0,0,0,0,0,0,0,0,0,0,0,0,0,0,0,0,,,,,39.239765,-77.965752,0.0,34,3,0.8
633298,1745095345763,4.52,201.99,,-0.03,0.05,1.0,0,-0,0,1.01,1.04,97,5068,8.0,3.47,,11.68,0.955,95.2,,57.0,5,,,,,,,,,,,,0,0,0,0,0,0,0,0,0,0,0,0,0,0,0,0,,,,,0.0,,,,,,
633318,1745095345783,,,,,,,,,,,,,,,,,,,,,,,,,,,,,,,,,,0,0,0,0,0,0,0,0,0,0,0,0,0,0,0,0,,,,,,,,,,,
633338,1745095345805,5.15,201.99,,-0.04,0.04,1.0,-0,-0,0,1.0,1.04,96,5163,8.0,3.52,,11.61,0.915,95.2,,57.0,5,,,,,,,,,,,,0,0,0,0,0,0,0,0,0,0,0,0,0,0,0,0,,,,,0.0,,,,,,
633358,1745095345825,,,,,,,,,,,,,,,,,,,,,,,,,,,,,,,,,,0,0,0,0,0,0,0,0,0,0,0,0,0,0,0,0,,,,,,,,,,,
633378,1745095345845,4.52,201.99,13.42,-0.06,0.06,0.99,0,-0,0,0.99,1.04,96,5148,8.0,3.51,15,11.57,0.895,95.2,147,57.0,5,0,0,0,0,0.0,0.0,0.0,0.0,2.26,0,0.0,0,0,0,0,0,0,0,0,0,0,0,0,0,0,0,0,0,0.0,0,0,0.0,39.239765,-77.965752,0.04,34,3,0.8
633398,1745095345865,,,,,,,,,,,,,,,,,,,,,,,,,,,,,,,,,,0,0,0,0,0,0,0,0,0,0,0,0,0,0,0,0,,,,,,,,,,,
633418,1745095345885,3.9,201.86,,-0.07,0.05,0.99,-0,-0,0,1.0,1.04,96,5120,8.2,3.5,,11.57,0.895,95.2,,56.8,5,,,,,,,,,,,,0,0,0,0,0,0,0,0,0,0,0,0,0,0,0,0,,,,,0.0,,,,,,
633438,1745095345905,,,,,,,,,,,,,,,,,,,,,,,,,,,,,,,,,,0,0,0,0,0,0,0,0,0,0,0,0,0,0,0,0,,,,,,,,,,,
633458,1745095345925,3.9,201.86,,-0.05,0.06,1.02,-0,-0,0,1.03,1.04,99,5120,8.2,3.5,,11.58,0.899,95.2,,56.8,5,,,,,,,,,,,,0,0,0,0,0,0,0,0,0,0,0,0,0,0,0,0,,,,,0.0,,,,,,
633478,1745095345945,,,,,,,,,,,,,,,,,,,,,,,0,0,0,0,0.0,0.0,0.0,0.0,2.26,,,0,0,0,0,0,0,0,0,0,0,0,0,0,0,0,0,0,,,,,39.239765,-77.965752,0.04,34,3,0.8
633498,1745095345965,4.52,201.86,,-0.04,0.07,1.01,0,-0,0,1.01,1.04,97,4993,8.2,3.41,,11.52,0.939,95.2,,56.6,5,,,,,,,,,,,,0,0,0,0,0,0,0,0,0,0,0,0,0,0,0,0,,,,,0.0,,,,,,
633518,1745095345985,,,,,,,,,,,,,,,,,,,,,,,,,,,,,,,,,,0,0,0,0,0,0,0,0,0,0,0,0,0,0,0,0,,,,,,,,,,,
633538,1745095345996,3.9,201.86,,-0.05,0.02,0.98,0,-0,0,0.98,1.04,95,5118,8.2,3.49,,11.58,0.979,95.2,,56.6,5,,,,,,,,,,,,0,0,0,0,0,0,0,0,0,0,0,0,0,0,0,0,,,,,0.0,,,,,,
633558,1745095346016,,,,,,,,,,,,,,,,,,,,,,,,,,,,,,,,,,0,0,0,0,0,0,0,0,0,0,0,0,0,0,0,0,,,,,,,,,,,
633578,1745095346036,3.9,201.86,,-0.05,0.09,0.99,0,-0,0,1.0,1.04,96,5207,8.2,3.52,,11.65,0.969,95.2,,56.6,5,0,0,0,0,0.0,0.0,0.0,0.0,2.25,,,0,0,0,0,0,0,0,0,0,0,0,0,0,0,0,0,0,,,,0.0,39.239765,-77.965752,0.08,33,3,0.8
633598,1745095346056,,,,,,,,,,,,,,,,,,,,,,,,,,,,,,,,,,0,0,0,0,0,0,0,0,0,0,0,0,0,0,0,0,,,,,,,,,,,
633618,1745095346076,5.15,201.86,,-0.04,0.15,1.02,-0,-0,0,1.03,1.04,99,5207,8.2,3.52,,11.65,0.969,95.2,,59.1,5,,,,,,,,,,,,0,0,0,0,0,0,0,0,0,0,0,0,0,0,0,0,,,,,0.0,,,,,,
633638,1745095346102,,,,,,,,,,,,,,,,,,,,,,,,,,,,,,,,,,0,0,0,0,0,0,0,0,0,0,0,0,0,0,0,0,,,,,,,,,,,
633658,1745095346122,4.52,201.86,,-0.05,0.09,1.02,-0,-0,0,1.03,1.04,99,5343,8.2,3.59,,11.6,0.91,95.2,,59.1,5,,,,,,,,,,,,0,0,0,0,0,0,0,0,0,0,0,0,0,0,0,0,,,,,0.0,,,,,,
633678,1745095346142,,,,,,,,,,,,,,,,,,,,,,,0,0,0,0,0.0,0.0,0.0,0.0,2.26,,,0,0,0,0,0,0,0,0,0,0,0,0,0,0,0,0,0,,,,,39.239765,-77.965752,0.07,33,3,0.8
633698,1745095346162,6.41,201.86,,-0.06,0.05,0.95,-0,-0,0,0.95,1.04,92,5491,8.2,3.65,,11.45,0.875,95.2,,61.3,5,,,,,,,,,,,,0,0,0,0,0,0,0,0,0,0,0,0,0,0,0,0,,,,,0.0,,,,,,
633718,1745095346182,,,,,,,,,,,,,,,,,,,,,,,,,,,,,,,,,,0,0,0,0,0,0,0,0,0,0,0,0,0,0,0,0,,,,,,,,,,,
633738,1745095346202,7.67,201.86,,-0.07,0.1,1.01,-1,-0,0,1.02,1.04,98,5689,8.0,3.74,,11.17,0.865,95.2,,61.3,5,,,,,,,,,,,,0,0,0,0,0,0,0,0,0,0,0,0,0,0,0,0,,,,,0.0,,,,,,
633758,1745095346222,,,,,,,,,,,,,,,,,,,,,,,,,,,,,,,,,,0,0,0,0,0,0,0,0,0,0,0,0,0,0,0,0,,,,,,,,,,,
633778,1745095346242,7.04,201.73,,-0.04,0.13,1.14,-1,-0,1,1.14,1.14,100,5968,4.3,3.17,,10.65,0.869,95.2,,61.3,5,0,0,0,0,0.0,0.0,0.0,0.0,2.26,,,0,0,0,0,0,0,0,0,0,0,0,0,0,0,0,0,0,,,,0.0,39.239765,-77.965752,0.04,33,3,0.8
633798,1745095346262,,,,,,,,,,,,,,,,,,,,,,,,,,,,,,,,,,0,0,0,0,0,0,0,0,0,0,0,0,0,0,0,0,,,,,,,,,,,
633818,1745095346282,6.41,201.73,,-0.05,0.14,1.18,-1,-0,1,1.19,1.19,100,6299,3.4,2.46,,10.65,0.869,95.2,,64.5,5,,,,,,,,,,,,0,0,0,0,0,0,0,0,0,0,0,0,0,0,0,0,,,,,0.0,,,,,,
633838,1745095346304,,,,,,,,,,,,,,,,,,,,,,,,,,,,,,,,,,0,0,0,0,0,0,0,0,0,0,0,0,0,0,0,0,,,,,,,,,,,
633858,1745095346324,5.15,201.73,,-0.03,0.13,1.12,-1,-0,0,1.12,1.19,95,6299,3.4,2.46,,10.01,0.873,95.2,,64.5,5,,,,,,,,,,,,0,0,0,0,0,0,0,0,0,0,0,0,0,0,0,0,,,,,0.0,,,,,,
633878,1745095346344,,,,,,,,,,,,,,,,,,,,,,,0,0,0,0,0.0,0.0,0.0,0.0,2.26,,,0,0,0,0,0,0,0,0,0,0,0,0,0,0,0,0,0,,,,,39.239765,-77.965752,0.0,33,3,0.8
633898,1745095346364,3.9,201.86,,-0.03,0.07,1.08,-0,-0,0,1.08,1.19,91,6489,3.7,2.46,,9.45,0.879,95.2,,64.7,5,,,,,,,,,,,,0,0,0,0,0,0,0,0,0,0,0,0,0,0,0,0,,,,,0.0,,,,,,
633918,1745095346384,,,,,,,,,,,,,,,,,,,,,,,,,,,,,,,,,,0,0,0,0,0,0,0,0,0,0,0,0,0,0,0,0,,,,,,,,,,,
633938,1745095346402,3.9,201.73,,-0.03,0.06,1.08,-0,-0,0,1.08,1.19,91,6704,3.8,2.43,,9.02,0.931,95.2,,64.7,5,,,,,,,,,,,,0,0,0,0,0,0,0,0,0,0,0,0,0,0,0,0,,,,,0.0,,,,,,
633958,1745095346422,,,,,,,,,,,,,,,,,,,,,,,,,,,,,,,,,,0,0,0,0,0,0,0,0,0,0,0,0,0,0,0,0,,,,,,,,,,,
633978,1745095346442,3.27,201.73,,-0.03,0.1,1.08,-0,-0,0,1.08,1.19,91,6903,3.9,2.36,,9.02,0.931,95.2,,64.7,5,0,0,0,0,0.0,0.0,0.0,0.0,2.26,,,0,0,0,0,0,0,0,0,0,0,0,0,0,0,0,0,0,,,,0.0,39.239765,-77.965752,0.05,33,3,0.8
633998,1745095346462,,,,,,,,,,,,,,,,,,,,,,,,,,,,,,,,,,0,0,0,0,0,0,0,0,0,0,0,0,0,0,0,0,,,,,,,,,,,
634018,1745095346482,3.9,201.61,,-0.04,0.04,1.04,-1,-0,0,1.04,1.19,88,7179,3.9,2.28,,8.46,0.972,95.2,,66.3,5,,,,,,,,,,,,0,0,0,0,0,0,0,0,0,0,0,0,0,0,0,0,,,,,0.0,,,,,,
634038,1745095346504,,,,,,,,,,,,,,,,,,,,,,,,,,,,,,,,,,0,0,0,0,0,0,0,0,0,0,0,0,0,0,0,0,,,,,,,,,,,
634058,1745095346524,1.38,201.61,,-0.04,0.18,1.08,-0,-0,1,1.09,1.19,92,7179,3.9,2.28,,8.18,0.98,95.2,,66.3,5,,,,,,,,,,,,0,0,0,0,0,0,0,0,0,0,0,0,0,0,0,0,,,,,0.0,,,,,,
634078,1745095346544,,,,,,,,,,,,,,,,,,,,,,,0,0,0,0,0.0,0.0,0.0,0.0,2.25,,,0,0,0,0,0,0,0,0,0,0,0,0,0,0,0,0,0,,,,,39.239765,-77.965752,0.11,33,3,0.8
634098,1745095346564,2.64,201.61,,-0.03,0.29,1.07,0,-0,0,1.11,1.19,93,7396,3.9,2.2,,7.7,0.967,95.2,,67.3,5,,,,,,,,,,,,0,0,0,0,0,0,0,0,0,0,0,0,0,0,0,0,,,,,0.0,,,,,,
634118,1745095346584,,,,,,,,,,,,,,,,,,,,,,,,,,,,,,,,,,0,0,0,0,0,0,0,0,0,0,0,0,0,0,0,0,,,,,,,,,,,
634138,1745095346602,4.52,201.48,,-0.02,0.38,1.06,1,-0,0,1.13,1.19,95,7577,4.0,2.08,,7.47,0.961,95.2,,67.3,5,,,,,,,,,,,,0,0,0,0,0,0,0,0,0,0,0,0,0,0,0,0,,,,,0.0,,,,,,
634158,1745095346622,,,,,,,,,,,,,,,,,,,,,,,,,,,,,,,,,,0,0,0,0,0,0,0,0,0,0,0,0,0,0,0,0,,,,,,,,,,,
634178,1745095346642,5.78,201.61,,-0.04,0.35,1.0,-0,-0,1,1.06,1.19,90,7720,3.9,2.01,,7.16,0.964,95.2,,67.3,5,0,0,0,0,0.0,0.0,0.0,0.0,2.26,,,0,0,0,0,0,0,0,0,0,0,0,0,0,0,0,0,0,,,,0.0,39.239765,-77.965752,0.0,33,3,0.8
634198,1745095346662,,,,,,,,,,,,,,,,,,,,,,,,,,,,,,,,,,0,0,0,0,0,0,0,0,0,0,0,0,0,0,0,0,,,,,,,,,,,
634218,1745095346682,5.15,201.48,,-0.02,0.33,1.01,1,-0,0,1.06,1.19,89,7720,3.9,2.01,,7.16,0.964,95.2,,66.4,5,,,,,,,,,,,,0,0,0,0,0,0,0,0,0,0,0,0,0,0,0,0,,,,,0.0,,,,,,
634238,1745095346705,,,,,,,,,,,,,,,,,,,,,,,,,,,,,,,,,,0,0,0,0,0,0,0,0,0,0,0,0,0,0,0,0,,,,,,,,,,,
634258,1745095346725,5.78,201.48,,-0.03,0.45,1.01,1,-0,0,1.1,1.19,93,7792,3.7,1.8,,6.98,0.968,95.2,,66.4,5,,,,,,,,,,,,0,0,0,0,0,0,0,0,0,0,0,0,0,0,0,0,,,,,0.0,,,,,,
634278,1745095346745,,,,,,,,,,,,,,,,,,,,,,,0,0,0,0,0.0,0.0,0.0,0.0,2.26,,,0,0,0,0,0,0,0,0,0,0,0,0,0,0,0,0,0,,,,,39.239765,-77.965752,0.05,33,3,0.8
634298,1745095346765,4.52,201.48,,-0.05,0.3,0.96,0,-0,0,1.01,1.19,85,7792,3.6,1.82,,6.82,0.97,95.2,,64.4,5,,,,,,,,,,,,0,0,0,0,0,0,0,0,0,0,0,0,0,0,0,0,,,,,0.0,,,,,,
634318,1745095346785,,,,,,,,,,,,,,,,,,,,,,,,,,,,,,,,,,0,0,0,0,0,0,0,0,0,0,0,0,0,0,0,0,,,,,,,,,,,
634338,1745095346804,3.27,201.36,,-0.05,0.16,1.02,2,-0,-0,1.04,1.19,87,7749,3.6,1.66,,6.67,0.984,95.2,,64.4,5,,,,,,,,,,,,0,0,0,0,0,0,0,0,0,0,0,0,0,0,0,0,,,,,0.0,,,,,,
634358,1745095346824,,,,,,,,,,,,,,,,,,,,,,,,,,,,,,,,,,0,0,0,0,0,0,0,0,0,0,0,0,0,0,0,0,,,,,,,,,,,
634378,1745095346844,3.9,201.36,13.45,-0.04,0.27,1.01,2,-0,-0,1.05,1.19,88,7634,3.7,1.69,15,6.66,1.003,95.2,147,64.4,5,0,0,0,0,0.0,0.0,0.0,0.0,2.26,0,0.0,0,0,0,0,0,0,0,0,0,0,0,0,0,0,0,0,0,0.0,0,0,0.0,39.239765,-77.965752,0.0,33,3,0.8
634398,1745095346864,,,,,,,,,,,,,,,,,,,,,,,,,,,,,,,,,,0,0,0,0,0,0,0,0,0,0,0,0,0,0,0,0,,,,,,,,,,,
634418,1745095346884,3.9,201.36,,-0.05,0.38,1.0,1,-0,-0,1.07,1.19,90,7522,3.8,1.66,,6.66,1.003,95.2,,63.1,5,,,,,,,,,,,,0,0,0,0,0,0,0,0,0,0,0,0,0,0,0,0,,,,,0.0,,,,,,
634438,1745095346904,,,,,,,,,,,,,,,,,,,,,,,,,,,,,,,,,,0,0,0,0,0,0,0,0,0,0,0,0,0,0,0,0,,,,,,,,,,,
634458,1745095346924,4.52,201.36,,-0.04,0.43,1.01,1,-0,-0,1.1,1.19,92,7522,3.8,1.66,,6.63,1.037,95.2,,63.1,5,,,,,,,,,,,,0,0,0,0,0,0,0,0,0,0,0,0,0,0,0,0,,,,,0.0,,,,,,
634478,1745095346944,,,,,,,,,,,,,,,,,,,,,,,0,0,0,0,0.0,0.0,0.0,0.0,2.26,,,0,0,0,0,0,0,0,0,0,0,0,0,0,0,0,0,0,,,,,39.239765,-77.965752,0.08,33,3,0.8
634498,1745095346964,5.78,201.36,,-0.02,0.38,1.04,2,-0,-0,1.11,1.19,93,7350,3.9,1.73,,6.79,1.052,95.2,,60.5,5,,,,,,,,,,,,0,0,0,0,0,0,0,0,0,0,0,0,0,0,0,0,,,,,0.0,,,,,,
634518,1745095346984,,,,,,,,,,,,,,,,,,,,,,,,,,,,,,,,,,0,0,0,0,0,0,0,0,0,0,0,0,0,0,0,0,,,,,,,,,,,
634538,1745095346995,5.78,201.36,,-0.04,0.28,1.01,2,-0,-0,1.05,1.19,88,7239,3.9,1.82,,6.64,1.119,95.2,,60.5,5,,,,,,,,,,,,0,0,0,0,0,0,0,0,0,0,0,0,0,0,0,0,,,,,0.0,,,,,,
634558,1745095347015,,,,,,,,,,,,,,,,,,,,,,,,,,,,,,,,,,0,0,0,0,0,0,0,0,0,0,0,0,0,0,0,0,,,,,,,,,,,
634578,1745095347035,5.15,201.36,,-0.01,0.31,1.03,2,-0,-0,1.07,1.19,90,7095,3.9,1.89,,6.64,1.119,95.2,,60.5,5,0,0,0,0,0.0,0.0,0.0,0.0,2.26,,,0,0,0,0,0,0,0,0,0,0,0,0,0,0,0,0,0,,,,0.0,39.239765,-77.965752,0.0,33,3,0.8
634598,1745095347055,,,,,,,,,,,,,,,,,,,,,,,,,,,,,,,,,,0,0,0,0,0,0,0,0,0,0,0,0,0,0,0,0,,,,,,,,,,,
634618,1745095347075,6.41,201.23,,-0.04,0.25,1.03,1,-0,0,1.06,1.19,89,6949,3.8,1.97,,6.98,1.124,95.2,,58.8,5,,,,,,,,,,,,0,0,0,0,0,0,0,0,0,0,0,0,0,0,0,0,,,,,0.0,,,,,,
634638,1745095347101,,,,,,,,,,,,,,,,,,,,,,,,,,,,,,,,,,0,0,0,0,0,0,0,0,0,0,0,0,0,0,0,0,,,,,,,,,,,
634658,1745095347121,7.04,201.23,,-0.04,0.19,1.01,1,-0,0,1.02,1.19,86,6949,3.8,1.97,,7.15,1.077,95.2,,58.8,5,,,,,,,,,,,,0,0,0,0,0,0,0,0,0,0,0,0,0,0,0,0,,,,,0.0,,,,,,
634678,1745095347141,,,,,,,,,,,,,,,,,,,,,,,0,0,0,0,0.0,0.0,0.0,0.0,2.26,,,0,0,0,0,0,0,0,0,0,0,0,0,0,0,0,0,0,,,,,39.239765,-77.965752,0.0,33,3,0.8
634698,1745095347161,7.04,201.11,,-0.02,0.17,0.98,1,-0,-0,1.0,1.19,84,6792,3.8,2.0,,7.26,1.059,95.2,,58.6,5,,,,,,,,,,,,0,0,0,0,0,0,0,0,0,0,0,0,0,0,0,0,,,,,0.0,,,,,,
634718,1745095347181,,,,,,,,,,,,,,,,,,,,,,,,,,,,,,,,,,0,0,0,0,0,0,0,0,0,0,0,0,0,0,0,0,,,,,,,,,,,
634738,1745095347201,7.04,201.11,,0.0,0.17,0.98,1,-0,0,1.0,1.19,84,6634,3.8,2.0,,7.47,1.051,95.2,,58.6,5,,,,,,,,,,,,0,0,0,0,0,0,0,0,0,0,0,0,0,0,0,0,,,,,0.0,,,,,,
634758,1745095347221,,,,,,,,,,,,,,,,,,,,,,,,,,,,,,,,,,0,0,0,0,0,0,0,0,0,0,0,0,0,0,0,0,,,,,,,,,,,
634778,1745095347241,7.04,201.11,,-0.03,0.08,0.96,1,-0,0,0.96,1.19,81,6515,3.6,2.06,,7.62,1.042,95.2,,58.6,5,0,0,0,0,0.0,0.0,0.0,0.0,2.26,,,0,0,0,0,0,0,0,0,0,0,0,0,0,0,0,0,0,,,,0.0,39.239765,-77.965752,0.07,33,3,0.8
634798,1745095347261,,,,,,,,,,,,,,,,,,,,,,,,,,,,,,,,,,0,0,0,0,0,0,0,0,0,0,0,0,0,0,0,0,,,,,,,,,,,
634818,1745095347281,5.15,201.11,,-0.03,0.15,1.04,0,-0,0,1.05,1.19,89,6305,3.7,2.02,,7.62,1.042,95.2,,57.4,5,,,,,,,,,,,,0,0,0,0,0,0,0,0,0,0,0,0,0,0,0,0,,,,,0.0,,,,,,
634838,1745095347303,,,,,,,,,,,,,,,,,,,,,,,,,,,,,,,,,,0,0,0,0,0,0,0,0,0,0,0,0,0,0,0,0,,,,,,,,,,,
634858,1745095347323,6.41,201.11,,-0.09,0.16,0.98,0,-0,0,1.0,1.19,84,6305,3.7,2.02,,7.93,1.039,95.2,,57.4,5,,,,,,,,,,,,0,0,0,0,0,0,0,0,0,0,0,0,0,0,0,0,,,,,0.0,,,,,,
634878,1745095347343,,,,,,,,,,,,,,,,,,,,,,,0,0,0,0,0.0,0.0,0.0,0.0,2.26,,,0,0,0,0,0,0,0,0,0,0,0,0,0,0,0,0,0,,,,,39.239765,-77.965752,0.07,33,3,0.8
634898,1745095347363,5.78,201.11,,-0.1,0.06,0.85,1,-0,-0,0.86,1.19,72,6154,3.6,2.05,,8.13,1.048,95.2,,56.5,5,,,,,,,,,,,,0,0,0,0,0,0,0,0,0,0,0,0,0,0,0,0,,,,,0.0,,,,,,
634918,1745095347383,,,,,,,,,,,,,,,,,,,,,,,,,,,,,,,,,,0,0,0,0,0,0,0,0,0,0,0,0,0,0,0,0,,,,,,,,,,,
634938,1745095347403,5.78,201.23,,-0.12,-0.02,0.75,1,-0,-0,0.76,1.19,64,5973,3.7,2.09,,8.55,1.06,95.2,,56.5,5,,,,,,,,,,,,0,0,0,0,0,0,0,0,0,0,0,0,0,0,0,0,,,,,0.0,,,,,,
634958,1745095347423,,,,,,,,,,,,,,,,,,,,,,,,,,,,,,,,,,0,0,0,0,0,0,0,0,0,0,0,0,0,0,0,0,,,,,,,,,,,
634978,1745095347443,5.15,201.11,,-0.14,0.06,0.81,-0,-0,0,0.83,1.19,70,5726,3.8,2.14,,8.78,1.063,95.2,,56.5,5,0,0,0,0,0.0,0.0,0.0,0.0,2.26,,,0,0,0,0,0,0,0,0,0,0,0,0,0,0,0,0,0,,,,0.0,39.239765,-77.965752,0.06,33,3,0.8
634998,1745095347463,,,,,,,,,,,,,,,,,,,,,,,,,,,,,,,,,,0,0,0,0,0,0,0,0,0,0,0,0,0,0,0,0,,,,,,,,,,,
635018,1745095347483,5.15,201.23,,-0.13,0.07,0.83,1,-0,-0,0.84,1.19,71,5495,3.8,2.24,,8.78,1.063,95.2,,56.6,5,,,,,,,,,,,,0,0,0,0,0,0,0,0,0,0,0,0,0,0,0,0,,,,,0.0,,,,,,
635038,1745095347505,,,,,,,,,,,,,,,,,,,,,,,,,,,,,,,,,,0,0,0,0,0,0,0,0,0,0,0,0,0,0,0,0,,,,,,,,,,,
635058,1745095347525,5.15,201.11,,-0.11,0.1,0.89,0,-0,0,0.91,1.19,76,5495,3.8,2.24,,9.09,1.057,95.2,,56.6,5,,,,,,,,,,,,0,0,0,0,0,0,0,0,0,0,0,0,0,0,0,0,,,,,0.0,,,,,,
635078,1745095347545,,,,,,,,,,,,,,,,,,,,,,,0,0,0,0,0.0,0.0,0.0,0.0,2.26,,,0,0,0,0,0,0,0,0,0,0,0,0,0,0,0,0,0,,,,,39.239765,-77.965752,0.04,33,3,0.8
635098,1745095347565,6.41,201.11,,-0.1,0.1,0.88,0,-0,0,0.9,1.19,75,5366,3.7,2.34,,9.33,1.071,95.2,,56.5,5,,,,,,,,,,,,0,0,0,0,0,0,0,0,0,0,0,0,0,0,0,0,,,,,0.0,,,,,,
635118,1745095347585,,,,,,,,,,,,,,,,,,,,,,,,,,,,,,,,,,0,0,0,0,0,0,0,0,0,0,0,0,0,0,0,0,,,,,,,,,,,
635138,1745095347603,5.78,200.98,,-0.1,0.09,0.87,0,-0,-0,0.88,1.19,74,5187,3.6,2.37,,9.58,1.05,95.2,,56.5,5,,,,,,,,,,,,0,0,0,0,0,0,0,0,0,0,0,0,0,0,0,0,,,,,0.0,,,,,,
635158,1745095347623,,,,,,,,,,,,,,,,,,,,,,,,,,,,,,,,,,0,0,0,0,0,0,0,0,0,0,0,0,0,0,0,0,,,,,,,,,,,
635178,1745095347643,5.78,200.98,,-0.11,0.11,0.92,0,-0,0,0.93,1.19,78,4983,3.6,2.4,,9.8,1.052,95.2,,56.5,5,0,0,0,0,0.0,0.0,0.0,0.0,2.26,,,0,0,0,0,0,0,0,0,0,0,0,0,0,0,0,0,0,,,,0.0,39.239765,-77.965752,0.1,33,3,0.8
635198,1745095347663,,,,,,,,,,,,,,,,,,,,,,,,,,,,,,,,,,0,0,0,0,0,0,0,0,0,0,0,0,0,0,0,0,,,,,,,,,,,
635218,1745095347683,5.15,201.11,,-0.09,0.07,0.9,0,-0,0,0.91,1.19,76,4854,3.4,2.45,,9.8,1.052,95.2,,54.4,5,,,,,,,,,,,,0,0,0,0,0,0,0,0,0,0,0,0,0,0,0,0,,,,,0.0,,,,,,
635238,1745095347705,,,,,,,,,,,,,,,,,,,,,,,,,,,,,,,,,,0,0,0,0,0,0,0,0,0,0,0,0,0,0,0,0,,,,,,,,,,,
635258,1745095347725,6.41,200.98,,-0.1,0.13,0.97,-0,-0,0,0.98,1.19,83,4854,3.4,2.45,,9.97,1.05,95.2,,54.4,5,,,,,,,,,,,,0,0,0,0,0,0,0,0,0,0,0,0,0,0,0,0,,,,,0.0,,,,,,
635278,1745095347745,,,,,,,,,,,,,,,,,,,,,,,0,0,0,0,0.0,0.0,0.0,0.0,2.26,,,0,0,0,0,0,0,0,0,0,0,0,0,0,0,0,0,0,,,,,39.239765,-77.965752,0.05,33,3,0.8
635298,1745095347765,7.67,200.98,,-0.14,0.19,1.03,-1,-0,1,1.06,1.19,89,4686,3.3,2.44,,10.12,1.036,95.2,,50.5,5,,,,,,,,,,,,0,0,0,0,0,0,0,0,0,0,0,0,0,0,0,0,,,,,0.0,,,,,,
635318,1745095347785,,,,,,,,,,,,,,,,,,,,,,,,,,,,,,,,,,0,0,0,0,0,0,0,0,0,0,0,0,0,0,0,0,,,,,,,,,,,
635338,1745095347805,8.92,200.98,,-0.17,0.25,1.1,-1,-0,1,1.14,1.19,96,4485,3.2,2.42,,10.25,1.035,95.2,,50.5,5,,,,,,,,,,,,0,0,0,0,0,0,0,0,0,0,0,0,0,0,0,0,,,,,0.0,,,,,,
635358,1745095347825,,,,,,,,,,,,,,,,,,,,,,,,,,,,,,,,,,0,0,0,0,0,0,0,0,0,0,0,0,0,0,0,0,,,,,,,,,,,
635378,1745095347845,8.92,200.98,13.44,-0.18,0.32,1.19,-2,-0,1,1.24,1.24,100,4326,3.1,2.42,15,10.46,1.091,95.2,147,50.5,5,0,0,0,0,0.0,0.0,0.0,0.0,2.26,0,0.0,0,0,0,0,0,0,0,0,0,0,0,0,0,0,0,0,0,0.0,0,0,0.0,39.239765,-77.965752,0.0,33,3,0.8
635398,1745095347865,,,,,,,,,,,,,,,,,,,,,,,,,,,,,,,,,,0,0,0,0,0,0,0,0,0,0,0,0,0,0,0,0,,,,,,,,,,,
635418,1745095347885,8.3,200.98,,-0.16,0.16,1.07,-1,-0,1,1.09,1.24,88,4013,3.2,2.45,,10.46,1.091,95.2,,45.4,5,,,,,,,,,,,,0,0,0,0,0,0,0,0,0,0,0,0,0,0,0,0,,,,,0.0,,,,,,
635438,1745095347905,,,,,,,,,,,,,,,,,,,,,,,,,,,,,,,,,,0,0,0,0,0,0,0,0,0,0,0,0,0,0,0,0,,,,,,,,,,,
635458,1745095347925,7.04,200.85,,-0.14,0.13,1.03,-0,-0,0,1.05,1.24,84,4013,3.2,2.45,,10.64,1.104,95.2,,45.4,5,,,,,,,,,,,,0,0,0,0,0,0,0,0,0,0,0,0,0,0,0,0,,,,,0.0,,,,,,
635478,1745095347945,,,,,,,,,,,,,,,,,,,,,,,0,0,0,0,0.0,0.0,0.0,0.0,2.26,,,0,0,0,0,0,0,0,0,0,0,0,0,0,0,0,0,0,,,,,39.239765,-77.965752,0.05,33,3,0.8
635498,1745095347965,7.04,200.98,,-0.13,0.14,1.03,-0,-0,0,1.05,1.24,85,3891,3.1,2.69,,10.96,1.143,95.2,,39.8,5,,,,,,,,,,,,0,0,0,0,0,0,0,0,0,0,0,0,0,0,0,0,,,,,0.0,,,,,,
635518,1745095347985,,,,,,,,,,,,,,,,,,,,,,,,,,,,,,,,,,0,0,0,0,0,0,0,0,0,0,0,0,0,0,0,0,,,,,,,,,,,
635538,1745095347996,6.41,200.98,,-0.14,0.08,1.06,-0,-0,0,1.08,1.24,86,3618,3.0,3.18,,11.24,1.225,95.2,,39.8,5,,,,,,,,,,,,0,0,0,0,0,0,0,0,0,0,0,0,0,0,0,0,,,,,0.0,,,,,,
635558,1745095348016,,,,,,,,,,,,,,,,,,,,,,,,,,,,,,,,,,0,0,0,0,0,0,0,0,0,0,0,0,0,0,0,0,,,,,,,,,,,
635578,1745095348036,6.41,200.98,,-0.12,0.12,1.08,-1,-0,1,1.1,1.24,88,3527,2.9,3.22,,11.24,1.225,95.2,,39.8,5,0,0,0,0,0.0,0.0,0.0,0.0,2.25,,,0,0,0,0,0,0,0,0,0,0,0,0,0,0,0,0,0,,,,0.0,39.239765,-77.965752,0.0,33,3,0.8
635598,1745095348056,,,,,,,,,,,,,,,,,,,,,,,,,,,,,,,,,,0,0,0,0,0,0,0,0,0,0,0,0,0,0,0,0,,,,,,,,,,,
635618,1745095348076,5.15,200.98,,-0.1,0.07,1.01,-0,-0,0,1.01,1.24,81,3384,2.8,3.24,,11.45,1.224,95.2,,36.1,5,,,,,,,,,,,,0,0,0,0,0,0,0,0,0,0,0,0,0,0,0,0,,,,,0.0,,,,,,
635638,1745095348104,,,,,,,,,,,,,,,,,,,,,,,,,,,,,,,,,,0,0,0,0,0,0,0,0,0,0,0,0,0,0,0,0,,,,,,,,,,,
635658,1745095348124,5.78,200.98,,-0.09,0.08,1.05,-1,-0,1,1.05,1.24,85,3384,2.8,3.24,,11.68,1.23,95.2,,36.1,5,,,,,,,,,,,,0,0,0,0,0,0,0,0,0,0,0,0,0,0,0,0,,,,,0.0,,,,,,
635678,1745095348144,,,,,,,,,,,,,,,,,,,,,,,0,0,0,0,0.0,0.0,0.0,0.0,2.26,,,0,0,0,0,0,0,0,0,0,0,0,0,0,0,0,0,0,,,,,39.239765,-77.965752,0.04,33,3,0.8
635698,1745095348164,5.78,200.98,,-0.1,0.02,1.11,-1,-0,1,1.11,1.24,89,3224,2.8,3.26,,11.89,1.204,95.2,,32.0,5,,,,,,,,,,,,0,0,0,0,0,0,0,0,0,0,0,0,0,0,0,0,,,,,0.0,,,,,,
635718,1745095348184,,,,,,,,,,,,,,,,,,,,,,,,,,,,,,,,,,0,0,0,0,0,0,0,0,0,0,0,0,0,0,0,0,,,,,,,,,,,
635738,1745095348204,4.52,200.98,,-0.12,-0.0,1.07,-0,-0,0,1.07,1.24,86,3241,2.7,3.29,,12.01,1.197,95.2,,32.0,5,,,,,,,,,,,,0,0,0,0,0,0,0,0,0,0,0,0,0,0,0,0,,,,,0.0,,,,,,
635758,1745095348224,,,,,,,,,,,,,,,,,,,,,,,,,,,,,,,,,,0,0,0,0,0,0,0,0,0,0,0,0,0,0,0,0,,,,,,,,,,,
635778,1745095348244,4.52,200.98,,-0.11,0.01,0.98,-0,-0,0,0.99,1.24,79,3135,2.6,3.28,,12.2,1.247,95.2,,32.0,5,0,0,0,0,0.0,0.0,0.0,0.0,2.26,,,0,0,0,0,0,0,0,0,0,0,0,0,0,0,0,0,0,,,,0.0,39.239765,-77.965752,0.0,33,3,0.8
635798,1745095348264,,,,,,,,,,,,,,,,,,,,,,,,,,,,,,,,,,0,0,0,0,0,0,0,0,0,0,0,0,0,0,0,0,,,,,,,,,,,
635818,1745095348284,3.27,200.98,,-0.09,0.04,0.9,0,-0,-0,0.9,1.24,73,3010,2.5,3.31,,12.2,1.247,95.2,,31.0,5,,,,,,,,,,,,0,0,0,0,0,0,0,0,0,0,0,0,0,0,0,0,,,,,0.0,,,,,,
635838,1745095348305,,,,,,,,,,,,,,,,,,,,,,,,,,,,,,,,,,0,0,0,0,0,0,0,0,0,0,0,0,0,0,0,0,,,,,,,,,,,
635858,1745095348325,3.9,200.85,,-0.1,0.03,0.86,0,-0,-0,0.86,1.24,69,3010,2.5,3.31,,12.31,1.244,95.2,,31.0,5,,,,,,,,,,,,0,0,0,0,0,0,0,0,0,0,0,0,0,0,0,0,,,,,0.0,,,,,,
635878,1745095348345,,,,,,,,,,,,,,,,,,,,,,,0,0,0,0,0.0,0.0,0.0,0.0,2.26,,,0,0,0,0,0,0,0,0,0,0,0,0,0,0,0,0,0,,,,,39.239765,-77.965752,0.05,33,3,0.8
635898,1745095348365,4.52,200.85,,-0.11,-0.01,0.9,0,-0,-0,0.91,1.24,73,2821,2.5,3.31,,12.45,1.186,95.2,,28.3,5,,,,,,,,,,,,0,0,0,0,0,0,0,0,0,0,0,0,0,0,0,0,,,,,0.0,,,,,,
635918,1745095348385,,,,,,,,,,,,,,,,,,,,,,,,,,,,,,,,,,0,0,0,0,0,0,0,0,0,0,0,0,0,0,0,0,,,,,,,,,,,
635938,1745095348404,3.9,200.85,,-0.11,0.01,0.92,0,-0,-0,0.93,1.24,74,2706,2.6,3.34,,12.63,1.141,95.2,,28.3,5,,,,,,,,,,,,0,0,0,0,0,0,0,0,0,0,0,0,0,0,0,0,,,,,0.0,,,,,,
635958,1745095348424,,,,,,,,,,,,,,,,,,,,,,,,,,,,,,,,,,0,0,0,0,0,0,0,0,0,0,0,0,0,0,0,0,,,,,,,,,,,
635978,1745095348444,5.15,200.85,,-0.1,0.02,0.94,0,-0,-0,0.95,1.24,76,2600,2.7,3.35,,12.77,1.126,95.2,,28.3,5,0,0,0,0,0.0,0.0,0.0,0.0,2.26,,,0,0,0,0,0,0,0,0,0,0,0,0,0,0,0,0,0,,,,0.0,39.239765,-77.965752,0.07,33,3,0.8
635998,1745095348464,,,,,,,,,,,,,,,,,,,,,,,,,,,,,,,,,,0,0,0,0,0,0,0,0,0,0,0,0,0,0,0,0,,,,,,,,,,,
636018,1745095348484,4.52,200.98,,-0.09,0.04,0.93,0,-0,-0,0.94,1.24,75,2501,2.7,3.36,,12.77,1.126,95.2,,25.9,5,,,,,,,,,,,,0,0,0,0,0,0,0,0,0,0,0,0,0,0,0,0,,,,,0.0,,,,,,
636038,1745095348504,,,,,,,,,,,,,,,,,,,,,,,,,,,,,,,,,,0,0,0,0,0,0,0,0,0,0,0,0,0,0,0,0,,,,,,,,,,,
636058,1745095348524,4.52,200.85,,-0.09,0.04,0.94,0,-0,-0,0.94,1.24,76,2501,2.7,3.36,,12.97,1.156,95.2,,25.9,5,,,,,,,,,,,,0,0,0,0,0,0,0,0,0,0,0,0,0,0,0,0,,,,,0.0,,,,,,
636078,1745095348544,,,,,,,,,,,,,,,,,,,,,,,0,0,0,0,0.0,0.0,0.0,0.0,2.26,,,0,0,0,0,0,0,0,0,0,0,0,0,0,0,0,0,0,,,,,39.239765,-77.965752,0.05,33,3,0.8
636098,1745095348564,5.15,200.98,,-0.08,0.03,0.94,0,-0,-0,0.95,1.24,76,2387,2.6,3.38,,13.08,1.197,95.2,,24.4,5,,,,,,,,,,,,0,0,0,0,0,0,0,0,0,0,0,0,0,0,0,0,,,,,0.0,,,,,,
636118,1745095348584,,,,,,,,,,,,,,,,,,,,,,,,,,,,,,,,,,0,0,0,0,0,0,0,0,0,0,0,0,0,0,0,0,,,,,,,,,,,
636138,1745095348604,5.78,200.98,,-0.06,0.03,0.95,0,-0,-0,0.95,1.24,77,2338,3.7,3.43,,13.21,1.198,95.2,,24.4,5,,,,,,,,,,,,0,0,0,0,0,0,0,0,0,0,0,0,0,0,0,0,,,,,0.0,,,,,,
636158,1745095348624,,,,,,,,,,,,,,,,,,,,,,,,,,,,,,,,,,0,0,0,0,0,0,0,0,0,0,0,0,0,0,0,0,,,,,,,,,,,
636178,1745095348644,5.15,200.85,,-0.07,0.03,0.96,0,-0,0,0.97,1.24,78,2199,4.8,3.62,,13.4,1.218,95.2,,24.4,5,0,0,0,0,0.0,0.0,0.0,0.0,2.26,,,0,0,0,0,0,0,0,0,0,0,0,0,0,0,0,0,0,,,,0.0,39.239765,-77.965752,0.05,33,3,0.8
636198,1745095348664,,,,,,,,,,,,,,,,,,,,,,,,,,,,,,,,,,0,0,0,0,0,0,0,0,0,0,0,0,0,0,0,0,,,,,,,,,,,
636218,1745095348684,5.15,200.98,,-0.07,0.03,0.96,0,-0,0,0.96,1.24,77,2145,4.8,3.62,,13.4,1.218,95.2,,22.3,5,,,,,,,,,,,,0,0,0,0,0,0,0,0,0,0,0,0,0,0,0,0,,,,,0.0,,,,,,
636238,1745095348704,,,,,,,,,,,,,,,,,,,,,,,,,,,,,,,,,,0,0,0,0,0,0,0,0,0,0,0,0,0,0,0,0,,,,,,,,,,,
636258,1745095348724,5.15,200.98,,-0.07,0.02,0.95,0,-0,-0,0.95,1.24,77,2145,4.8,3.62,,13.57,1.218,95.2,,22.3,5,,,,,,,,,,,,0,0,0,0,0,0,0,0,0,0,0,0,0,0,0,0,,,,,0.0,,,,,,
636278,1745095348744,,,,,,,,,,,,,,,,,,,,,,,0,0,0,0,0.0,0.0,0.0,0.0,2.26,,,0,0,0,0,0,0,0,0,0,0,0,0,0,0,0,0,0,,,,,39.239765,-77.965752,0.07,33,3,0.8
636298,1745095348764,6.41,200.98,,-0.06,0.01,0.96,0,-0,-0,0.96,1.24,77,2147,4.8,3.62,,13.57,1.219,95.2,,21.0,5,,,,,,,,,,,,0,0,0,0,0,0,0,0,0,0,0,0,0,0,0,0,,,,,0.0,,,,,,
636318,1745095348784,,,,,,,,,,,,,,,,,,,,,,,,,,,,,,,,,,0,0,0,0,0,0,0,0,0,0,0,0,0,0,0,0,,,,,,,,,,,
636338,1745095348804,5.78,200.98,,-0.04,0.0,0.96,0,-0,-0,0.96,1.24,77,2127,4.9,3.61,,13.67,1.226,95.2,,21.0,5,,,,,,,,,,,,0,0,0,0,0,0,0,0,0,0,0,0,0,0,0,0,,,,,0.0,,,,,,
636358,1745095348824,,,,,,,,,,,,,,,,,,,,,,,,,,,,,,,,,,0,0,0,0,0,0,0,0,0,0,0,0,0,0,0,0,,,,,,,,,,,
636378,1745095348844,6.41,200.98,13.48,-0.04,0.02,0.95,0,-0,0,0.96,1.24,77,2062,4.9,3.63,15,13.67,1.235,95.2,147,21.0,5,0,0,0,0,0.0,0.0,0.0,0.0,2.26,0,0.0,0,0,0,0,0,0,0,0,0,0,0,0,0,0,0,0,0,0.0,0,0,0.0,39.239765,-77.965752,0.08,33,3,0.8
636398,1745095348864,,,,,,,,,,,,,,,,,,,,,,,,,,,,,,,,,,0,0,0,0,0,0,0,0,0,0,0,0,0,0,0,0,,,,,,,,,,,
636418,1745095348884,5.15,200.98,,-0.03,0.02,0.96,-0,-0,0,0.96,1.24,78,2001,5.0,3.62,,13.67,1.235,95.2,,20.2,5,,,,,,,,,,,,0,0,0,0,0,0,0,0,0,0,0,0,0,0,0,0,,,,,0.0,,,,,,
636438,1745095348902,,,,,,,,,,,,,,,,,,,,,,,,,,,,,,,,,,0,0,0,0,0,0,0,0,0,0,0,0,0,0,0,0,,,,,,,,,,,
636458,1745095348922,4.52,200.98,,-0.03,0.02,0.96,0,-0,0,0.96,1.24,77,2001,5.0,3.62,,13.73,1.247,95.2,,20.2,5,,,,,,,,,,,,0,0,0,0,0,0,0,0,0,0,0,0,0,0,0,0,,,,,0.0,,,,,,
636478,1745095348942,,,,,,,,,,,,,,,,,,,,,,,0,0,0,0,0.0,0.0,0.0,0.0,2.26,,,0,0,0,0,0,0,0,0,0,0,0,0,0,0,0,0,0,,,,,39.239765,-77.965752,0.11,33,3,0.8
636498,1745095348962,5.15,200.98,,-0.02,0.03,0.96,0,-0,0,0.96,1.24,77,1902,5.1,3.62,,13.83,1.25,95.2,,19.5,5,,,,,,,,,,,,0,0,0,0,0,0,0,0,0,0,0,0,0,0,0,0,,,,,0.0,,,,,,
636518,1745095348982,,,,,,,,,,,,,,,,,,,,,,,,,,,,,,,,,,0,0,0,0,0,0,0,0,0,0,0,0,0,0,0,0,,,,,,,,,,,
636538,1745095348995,5.78,200.98,,-0.03,0.01,0.96,0,-0,0,0.97,1.24,78,1805,5.5,3.62,,13.88,1.251,95.2,,19.5,5,,,,,,,,,,,,0,0,0,0,0,0,0,0,0,0,0,0,0,0,0,0,,,,,0.0,,,,,,
636558,1745095349015,,,,,,,,,,,,,,,,,,,,,,,,,,,,,,,,,,0,0,0,0,0,0,0,0,0,0,0,0,0,0,0,0,,,,,,,,,,,
636578,1745095349035,6.41,200.85,,-0.04,0.01,0.98,0,-0,0,0.98,1.24,79,1912,5.8,3.61,,13.87,1.251,95.2,,19.5,5,0,0,0,0,0.0,0.0,0.0,0.0,2.26,,,0,0,0,0,0,0,0,0,0,0,0,0,0,0,0,0,0,,,,0.0,39.239765,-77.965752,0.07,33,3,0.8
636598,1745095349055,,,,,,,,,,,,,,,,,,,,,,,,,,,,,,,,,,0,0,0,0,0,0,0,0,0,0,0,0,0,0,0,0,,,,,,,,,,,
636618,1745095349075,6.41,200.85,,-0.04,0.01,0.97,0,-0,0,0.97,1.24,78,1892,5.9,3.61,,13.87,1.251,95.2,,18.7,5,,,,,,,,,,,,0,0,0,0,0,0,0,0,0,0,0,0,0,0,0,0,,,,,0.0,,,,,,
636638,1745095349103,,,,,,,,,,,,,,,,,,,,,,,,,,,,,,,,,,0,0,0,0,0,0,0,0,0,0,0,0,0,0,0,0,,,,,,,,,,,
636658,1745095349123,7.67,200.85,,-0.04,0.01,0.99,0,-0,0,0.99,1.24,80,1892,5.9,3.61,,13.88,1.249,95.2,,18.7,5,,,,,,,,,,,,0,0,0,0,0,0,0,0,0,0,0,0,0,0,0,0,,,,,0.0,,,,,,
636678,1745095349143,,,,,,,,,,,,,,,,,,,,,,,0,0,0,0,0.0,0.0,0.0,0.0,2.26,,,0,0,0,0,0,0,0,0,0,0,0,0,0,0,0,0,0,,,,,39.239765,-77.965752,0.04,33,3,0.8
636698,1745095349163,7.67,200.85,,-0.04,0.01,0.98,0,-0,0,0.98,1.24,79,1814,8.3,3.6,,13.94,1.248,95.2,,18.9,5,,,,,,,,,,,,0,0,0,0,0,0,0,0,0,0,0,0,0,0,0,0,,,,,0.0,,,,,,
636718,1745095349183,,,,,,,,,,,,,,,,,,,,,,,,,,,,,,,,,,0,0,0,0,0,0,0,0,0,0,0,0,0,0,0,0,,,,,,,,,,,
636738,1745095349203,6.41,200.85,,-0.02,0.02,0.99,0,-0,0,0.99,1.24,79,1803,9.0,3.57,,13.96,1.248,95.2,,18.9,5,,,,,,,,,,,,0,0,0,0,0,0,0,0,0,0,0,0,0,0,0,0,,,,,0.0,,,,,,
636758,1745095349223,,,,,,,,,,,,,,,,,,,,,,,,,,,,,,,,,,0,0,0,0,0,0,0,0,0,0,0,0,0,0,0,0,,,,,,,,,,,
636778,1745095349243,6.41,200.85,,-0.04,0.02,0.98,0,-0,0,0.98,1.24,79,1835,9.0,3.59,,13.95,1.248,95.2,,18.9,5,0,0,0,0,0.0,0.0,0.0,0.0,2.26,,,0,0,0,0,0,0,0,0,0,0,0,0,0,0,0,0,0,,,,0.0,39.239765,-77.965752,0.04,33,3,0.8
636798,1745095349263,,,,,,,,,,,,,,,,,,,,,,,,,,,,,,,,,,0,0,0,0,0,0,0,0,0,0,0,0,0,0,0,0,,,,,,,,,,,
636818,1745095349283,5.78,200.98,,-0.03,0.01,0.99,0,-0,0,0.99,1.24,80,1887,9.1,3.59,,13.95,1.248,95.2,,18.1,5,,,,,,,,,,,,0,0,0,0,0,0,0,0,0,0,0,0,0,0,0,0,,,,,0.0,,,,,,
636838,1745095349305,,,,,,,,,,,,,,,,,,,,,,,,,,,,,,,,,,0,0,0,0,0,0,0,0,0,0,0,0,0,0,0,0,,,,,,,,,,,
636858,1745095349325,5.78,200.85,,-0.04,0.0,0.99,0,-0,0,0.99,1.24,80,1887,9.1,3.59,,13.95,1.249,95.2,,18.1,5,,,,,,,,,,,,0,0,0,0,0,0,0,0,0,0,0,0,0,0,0,0,,,,,0.0,,,,,,
636878,1745095349345,,,,,,,,,,,,,,,,,,,,,,,0,0,0,0,0.0,0.0,0.0,0.0,2.26,,,0,0,0,0,0,0,0,0,0,0,0,0,0,0,0,0,0,,,,,39.239765,-77.965752,0.04,33,3,0.8
636898,1745095349365,5.78,200.98,,-0.03,0.01,0.98,0,-0,0,0.99,1.24,79,1804,9.0,3.58,,13.96,1.25,95.2,,18.6,5,,,,,,,,,,,,0,0,0,0,0,0,0,0,0,0,0,0,0,0,0,0,,,,,0.0,,,,,,
636918,1745095349385,,,,,,,,,,,,,,,,,,,,,,,,,,,,,,,,,,0,0,0,0,0,0,0,0,0,0,0,0,0,0,0,0,,,,,,,,,,,
636938,1745095349405,6.41,200.98,,-0.03,-0.0,0.99,0,-0,0,0.99,1.24,80,1770,9.2,3.57,,13.98,1.25,95.2,,18.6,5,,,,,,,,,,,,0,0,0,0,0,0,0,0,0,0,0,0,0,0,0,0,,,,,0.0,,,,,,
636958,1745095349425,,,,,,,,,,,,,,,,,,,,,,,,,,,,,,,,,,0,0,0,0,0,0,0,0,0,0,0,0,0,0,0,0,,,,,,,,,,,
636978,1745095349445,6.41,200.98,,-0.04,0.0,0.98,0,-0,0,0.98,1.24,79,1865,9.3,3.61,,13.91,1.25,95.2,,18.6,5,0,0,0,0,0.0,0.0,0.0,0.0,2.26,,,0,0,0,0,0,0,0,0,0,0,0,0,0,0,0,0,0,,,,0.0,39.239765,-77.965752,0.0,33,3,0.8
636998,1745095349465,,,,,,,,,,,,,,,,,,,,,,,,,,,,,,,,,,0,0,0,0,0,0,0,0,0,0,0,0,0,0,0,0,,,,,,,,,,,
637018,1745095349485,5.15,200.85,,-0.03,0.01,0.99,0,-0,0,0.99,1.24,80,1878,9.3,3.59,,13.91,1.25,95.2,,18.1,5,,,,,,,,,,,,0,0,0,0,0,0,0,0,0,0,0,0,0,0,0,0,,,,,0.0,,,,,,
637038,1745095349505,,,,,,,,,,,,,,,,,,,,,,,,,,,,,,,,,,0,0,0,0,0,0,0,0,0,0,0,0,0,0,0,0,,,,,,,,,,,
637058,1745095349525,5.15,200.85,,-0.05,0.04,0.97,0,-0,0,0.97,1.24,78,1878,9.3,3.59,,13.92,1.25,95.2,,18.1,5,,,,,,,,,,,,0,0,0,0,0,0,0,0,0,0,0,0,0,0,0,0,,,,,0.0,,,,,,
637078,1745095349545,,,,,,,,,,,,,,,,,,,,,,,0,0,0,0,0.0,0.0,0.0,0.0,2.26,,,0,0,0,0,0,0,0,0,0,0,0,0,0,0,0,0,0,,,,,39.239765,-77.965752,0.0,33,3,0.8
637098,1745095349565,5.15,200.85,,-0.03,0.02,0.99,0,-0,0,0.99,1.24,80,1842,9.3,3.61,,13.96,1.25,95.2,,18.6,5,,,,,,,,,,,,0,0,0,0,0,0,0,0,0,0,0,0,0,0,0,0,,,,,0.0,,,,,,
637118,1745095349585,,,,,,,,,,,,,,,,,,,,,,,,,,,,,,,,,,0,0,0,0,0,0,0,0,0,0,0,0,0,0,0,0,,,,,,,,,,,
637138,1745095349605,5.15,200.85,,-0.04,0.02,0.99,0,-0,0,1.0,1.24,80,1781,15.9,4.03,,14.08,1.249,95.2,,18.6,5,,,,,,,,,,,,0,0,0,0,0,0,0,0,0,0,0,0,0,0,0,0,,,,,0.0,,,,,,
637158,1745095349625,,,,,,,,,,,,,,,,,,,,,,,,,,,,,,,,,,0,0,0,0,0,0,0,0,0,0,0,0,0,0,0,0,,,,,,,,,,,
637178,1745095349645,5.15,200.85,,-0.03,0.02,0.99,0,-0,0,0.99,1.24,80,1817,17.1,4.47,,14.08,1.248,95.2,,18.6,5,0,0,0,0,0.0,0.0,0.0,0.0,2.26,,,0,0,0,0,0,0,0,0,0,0,0,0,0,0,0,0,0,,,,0.0,39.239765,-77.965752,0.08,33,3,0.8
637198,1745095349665,,,,,,,,,,,,,,,,,,,,,,,,,,,,,,,,,,0,0,0,0,0,0,0,0,0,0,0,0,0,0,0,0,,,,,,,,,,,
637218,1745095349685,5.15,200.98,,-0.03,0.02,0.99,0,-0,0,0.99,1.24,79,1931,17.1,4.31,,14.08,1.248,95.2,,18.6,5,,,,,,,,,,,,0,0,0,0,0,0,0,0,0,0,0,0,0,0,0,0,,,,,0.0,,,,,,
637238,1745095349705,,,,,,,,,,,,,,,,,,,,,,,,,,,,,,,,,,0,0,0,0,0,0,0,0,0,0,0,0,0,0,0,0,,,,,,,,,,,
637258,1745095349725,5.78,200.98,,-0.02,0.03,0.99,0,-0,0,0.99,1.24,79,1931,17.1,4.31,,14.08,1.247,95.2,,18.6,5,,,,,,,,,,,,0,0,0,0,0,0,0,0,0,0,0,0,0,0,0,0,,,,,0.0,,,,,,
637278,1745095349745,,,,,,,,,,,,,,,,,,,,,,,0,0,0,0,0.0,0.0,0.0,0.0,2.26,,,0,0,0,0,0,0,0,0,0,0,0,0,0,0,0,0,0,,,,,39.239765,-77.965752,0.16,33,3,0.8
637298,1745095349765,5.15,200.85,,-0.01,0.03,0.99,0,-0,0,0.99,1.24,80,2069,17.0,4.35,,14.03,1.248,95.2,,19.8,5,,,,,,,,,,,,0,0,0,0,0,0,0,0,0,0,0,0,0,0,0,0,,,,,0.0,,,,,,
637318,1745095349785,,,,,,,,,,,,,,,,,,,,,,,,,,,,,,,,,,0,0,0,0,0,0,0,0,0,0,0,0,0,0,0,0,,,,,,,,,,,
637338,1745095349805,3.9,200.98,,0.0,0.03,0.98,0,-0,0,0.98,1.24,79,2195,17.0,4.38,,14.06,1.248,95.2,,19.8,5,,,,,,,,,,,,0,0,0,0,0,0,0,0,0,0,0,0,0,0,0,0,,,,,0.0,,,,,,
637358,1745095349825,,,,,,,,,,,,,,,,,,,,,,,,,,,,,,,,,,0,0,0,0,0,0,0,0,0,0,0,0,0,0,0,0,,,,,,,,,,,
637378,1745095349845,4.52,200.85,13.48,-0.0,0.04,0.99,0,-0,0,0.99,1.24,80,2298,17.0,4.36,15,14.02,1.25,95.2,147,19.8,5,0,0,0,0,0.0,0.0,0.0,0.0,2.26,0,0.0,0,0,0,0,0,0,0,0,0,0,0,0,0,0,0,0,0,0.0,0,-0,0.0,39.239765,-77.965752,0.04,33,3,0.8
637398,1745095349865,,,,,,,,,,,,,,,,,,,,,,,,,,,,,,,,,,0,0,0,0,0,0,0,0,0,0,0,0,0,0,0,0,,,,,,,,,,,
637418,1745095349885,5.15,200.98,,-0.02,0.03,0.98,0,-0,0,0.98,1.24,79,2298,17.0,4.36,,14.02,1.25,95.2,,22.8,5,,,,,,,,,,,,0,0,0,0,0,0,0,0,0,0,0,0,0,0,0,0,,,,,0.0,,,,,,
637438,1745095349905,,,,,,,,,,,,,,,,,,,,,,,,,,,,,,,,,,0,0,0,0,0,0,0,0,0,0,0,0,0,0,0,0,,,,,,,,,,,
637458,1745095349925,3.9,200.98,,-0.02,0.03,0.97,-0,-0,0,0.97,1.24,78,2458,17.2,4.33,,13.95,1.25,95.2,,22.8,5,,,,,,,,,,,,0,0,0,0,0,0,0,0,0,0,0,0,0,0,0,0,,,,,0.0,,,,,,
637478,1745095349945,,,,,,,,,,,,,,,,,,,,,,,0,0,0,0,0.0,0.0,0.0,0.0,2.26,,,0,0,0,0,0,0,0,0,0,0,0,0,0,0,0,0,0,,,,,39.239765,-77.965752,0.08,33,3,0.8
637498,1745095349965,3.9,200.98,,-0.03,0.03,1.0,0,-0,0,1.0,1.24,80,2568,17.2,4.3,,13.92,1.245,95.2,,25.2,5,,,,,,,,,,,,0,0,0,0,0,0,0,0,0,0,0,0,0,0,0,0,,,,,0.0,,,,,,
637518,1745095349985,,,,,,,,,,,,,,,,,,,,,,,,,,,,,,,,,,0,0,0,0,0,0,0,0,0,0,0,0,0,0,0,0,,,,,,,,,,,
637538,1745095349996,5.15,200.98,,-0.02,0.04,0.99,-0,-0,0,1.0,1.24,80,2716,17.3,4.27,,13.86,1.228,95.2,,25.2,5,,,,,,,,,,,,0,0,0,0,0,0,0,0,0,0,0,0,0,0,0,0,,,,,0.0,,,,,,
637558,1745095350016,,,,,,,,,,,,,,,,,,,,,,,,,,,,,,,,,,0,0,0,0,0,0,0,0,0,0,0,0,0,0,0,0,,,,,,,,,,,
637578,1745095350036,3.9,200.98,,-0.02,0.06,0.94,0,-0,0,0.94,1.24,76,2847,17.4,4.23,,13.8,1.228,95.2,,25.2,5,0,0,0,0,0.0,0.0,0.0,0.0,2.26,,,0,0,0,0,0,0,0,0,0,0,0,0,0,0,0,0,0,,,,0.0,39.239765,-77.965752,0.0,35,3,0.8
637598,1745095350056,,,,,,,,,,,,,,,,,,,,,,,,,,,,,,,,,,0,0,0,0,0,0,0,0,0,0,0,0,0,0,0,0,,,,,,,,,,,
637618,1745095350076,3.27,200.98,,-0.03,0.06,0.87,0,-0,-0,0.87,1.24,70,0,17.5,4.12,,13.8,1.228,95.2,,28.3,5,,,,,,,,,,,,0,0,0,0,0,0,0,0,0,0,0,0,0,0,0,0,,,,,0.0,,,,,,
637638,1745095350100,,,,,,,,,,,,,,,,,,,,,,,,,,,,,,,,,,0,0,0,0,0,0,0,0,0,0,0,0,0,0,0,0,,,,,,,,,,,
637658,1745095350120,4.52,200.98,,-0.05,0.06,0.83,0,-0,-0,0.83,1.24,67,0,17.5,4.12,,13.76,1.211,95.2,,28.3,5,,,,,,,,,,,,0,0,0,0,0,0,0,0,0,0,0,0,0,0,0,0,,,,,0.0,,,,,,
637678,1745095350140,,,,,,,,,,,,,,,,,,,,,,,0,0,0,0,0.0,0.0,0.0,0.0,2.26,,,0,0,0,0,0,0,0,0,0,0,0,0,0,0,0,0,0,,,,,39.239765,-77.965752,0.04,35,3,0.8
637698,1745095350160,3.9,200.98,,-0.07,0.03,0.82,1,-0,-0,0.83,1.24,67,2933,17.7,4.16,,13.83,1.229,95.2,,29.7,5,,,,,,,,,,,,0,0,0,0,0,0,0,0,0,0,0,0,0,0,0,0,,,,,0.0,,,,,,
637718,1745095350180,,,,,,,,,,,,,,,,,,,,,,,,,,,,,,,,,,0,0,0,0,0,0,0,0,0,0,0,0,0,0,0,0,,,,,,,,,,,
637738,1745095350204,3.9,200.98,,-0.09,0.01,0.85,0,-0,-0,0.85,1.24,69,2994,17.6,4.21,,13.8,1.153,95.2,,29.7,5,,,,,,,,,,,,0,0,0,0,0,0,0,0,0,0,0,0,0,0,0,0,,,,,0.0,,,,,,
637758,1745095350224,,,,,,,,,,,,,,,,,,,,,,,,,,,,,,,,,,0,0,0,0,0,0,0,0,0,0,0,0,0,0,0,0,,,,,,,,,,,
637778,1745095350244,3.9,200.85,,-0.11,-0.01,0.87,1,-0,-0,0.88,1.24,70,3036,17.4,4.21,,13.73,1.059,95.2,,29.7,5,0,0,0,0,0.0,0.0,0.0,0.0,2.26,,,0,0,0,0,0,0,0,0,0,0,0,0,0,0,0,0,0,,,,0.0,39.239765,-77.965752,0.05,35,3,0.8
637798,1745095350264,,,,,,,,,,,,,,,,,,,,,,,,,,,,,,,,,,0,0,0,0,0,0,0,0,0,0,0,0,0,0,0,0,,,,,,,,,,,
637818,1745095350284,2.64,200.98,,-0.12,-0.02,0.88,1,-0,-0,0.89,1.24,71,2992,17.4,4.16,,13.73,1.059,95.2,,30.4,5,,,,,,,,,,,,0,0,0,0,0,0,0,0,0,0,0,0,0,0,0,0,,,,,0.0,,,,,,
637838,1745095350302,,,,,,,,,,,,,,,,,,,,,,,,,,,,,,,,,,0,0,0,0,0,0,0,0,0,0,0,0,0,0,0,0,,,,,,,,,,,
637858,1745095350322,3.27,200.98,,-0.13,-0.02,0.85,1,-0,-1,0.86,1.24,69,2992,17.4,4.16,,13.82,1.033,95.2,,30.4,5,,,,,,,,,,,,0,0,0,0,0,0,0,0,0,0,0,0,0,0,0,0,,,,,0.0,,,,,,
637878,1745095350342,,,,,,,,,,,,,,,,,,,,,,,0,0,0,0,0.0,0.0,0.0,0.0,2.26,,,0,0,0,0,0,0,0,0,0,0,0,0,0,0,0,0,0,,,,,39.239765,-77.965752,0.04,35,3,0.8
637898,1745095350362,2.64,200.98,,-0.14,-0.01,0.83,1,-0,-1,0.84,1.24,67,3022,17.4,4.16,,13.79,1.0,95.2,,30.5,5,,,,,,,,,,,,0,0,0,0,0,0,0,0,0,0,0,0,0,0,0,0,,,,,0.0,,,,,,
637918,1745095350382,,,,,,,,,,,,,,,,,,,,,,,,,,,,,,,,,,0,0,0,0,0,0,0,0,0,0,0,0,0,0,0,0,,,,,,,,,,,
637938,1745095350404,2.64,200.98,,-0.13,0.04,0.76,1,-0,-1,0.77,1.24,62,3186,17.5,4.17,,13.68,1.009,95.2,,30.5,5,,,,,,,,,,,,0,0,0,0,0,0,0,0,0,0,0,0,0,0,0,0,,,,,0.0,,,,,,
637958,1745095350424,,,,,,,,,,,,,,,,,,,,,,,,,,,,,,,,,,0,0,0,0,0,0,0,0,0,0,0,0,0,0,0,0,,,,,,,,,,,
637978,1745095350444,2.01,200.98,,-0.11,0.07,0.84,0,-0,-0,0.85,1.24,68,3293,17.6,4.12,,13.59,1.078,95.2,,30.5,5,0,0,0,0,0.0,0.0,0.0,0.0,2.26,,,0,0,0,0,0,0,0,0,0,0,0,0,0,0,0,0,0,,,,0.0,39.239765,-77.965752,0.04,35,3,0.8
637998,1745095350464,,,,,,,,,,,,,,,,,,,,,,,,,,,,,,,,,,0,0,0,0,0,0,0,0,0,0,0,0,0,0,0,0,,,,,,,,,,,
638018,1745095350484,1.38,200.98,,-0.11,-0.0,0.82,1,-0,-1,0.83,1.24,67,3358,17.6,4.07,,13.59,1.078,95.2,,33.4,5,,,,,,,,,,,,0,0,0,0,0,0,0,0,0,0,0,0,0,0,0,0,,,,,0.0,,,,,,
638038,1745095350504,,,,,,,,,,,,,,,,,,,,,,,,,,,,,,,,,,0,0,0,0,0,0,0,0,0,0,0,0,0,0,0,0,,,,,,,,,,,
638058,1745095350524,0.0,200.98,,-0.12,0.04,0.9,0,-0,-0,0.91,1.24,73,3358,17.6,4.07,,13.6,1.131,95.2,,33.4,5,,,,,,,,,,,,0,0,0,0,0,0,0,0,0,0,0,0,0,0,0,0,,,,,0.0,,,,,,
638078,1745095350544,,,,,,,,,,,,,,,,,,,,,,,0,0,0,0,0.0,0.0,0.0,0.0,2.26,,,0,0,0,0,0,0,0,0,0,0,0,0,0,0,0,0,0,,,,,39.239765,-77.965752,0.0,35,3,0.8
638098,1745095350564,0.0,200.98,,-0.09,0.11,0.89,0,-0,0,0.9,1.24,72,3517,17.6,4.07,,13.57,1.185,95.2,,36.2,5,,,,,,,,,,,,0,0,0,0,0,0,0,0,0,0,0,0,0,0,0,0,,,,,0.0,,,,,,
638118,1745095350584,,,,,,,,,,,,,,,,,,,,,,,,,,,,,,,,,,0,0,0,0,0,0,0,0,0,0,0,0,0,0,0,0,,,,,,,,,,,
638138,1745095350604,0.0,200.98,,-0.08,0.1,0.87,0,-0,-0,0.88,1.24,71,3553,17.6,4.03,,13.56,1.207,95.2,,36.2,5,,,,,,,,,,,,0,0,0,0,0,0,0,0,0,0,0,0,0,0,0,0,,,,,0.0,,,,,,
638158,1745095350624,,,,,,,,,,,,,,,,,,,,,,,,,,,,,,,,,,0,0,0,0,0,0,0,0,0,0,0,0,0,0,0,0,,,,,,,,,,,
638178,1745095350644,0.0,200.98,,-0.09,0.05,0.88,1,-0,-0,0.89,1.24,71,3672,17.6,4.03,,13.48,1.222,95.2,,36.2,5,0,0,0,0,0.0,0.0,0.0,0.0,2.26,,,0,0,0,0,0,0,0,0,0,0,0,0,0,0,0,0,0,,,,0.0,39.239765,-77.965752,0.0,35,3,0.8
638198,1745095350664,,,,,,,,,,,,,,,,,,,,,,,,,,,,,,,,,,0,0,0,0,0,0,0,0,0,0,0,0,0,0,0,0,,,,,,,,,,,
638218,1745095350684,0.0,200.98,,-0.09,0.1,0.91,0,-0,-0,0.92,1.24,74,3783,17.5,3.97,,13.48,1.222,95.2,,38.5,5,,,,,,,,,,,,0,0,0,0,0,0,0,0,0,0,0,0,0,0,0,0,,,,,0.0,,,,,,
638238,1745095350704,,,,,,,,,,,,,,,,,,,,,,,,,,,,,,,,,,0,0,0,0,0,0,0,0,0,0,0,0,0,0,0,0,,,,,,,,,,,
638258,1745095350724,0.0,201.11,,-0.07,0.11,0.96,0,-0,-0,0.97,1.24,78,3783,17.5,3.97,,13.4,1.216,95.2,,38.5,5,,,,,,,,,,,,0,0,0,0,0,0,0,0,0,0,0,0,0,0,0,0,,,,,0.0,,,,,,
638278,1745095350744,,,,,,,,,,,,,,,,,,,,,,,0,0,0,0,0.0,0.0,0.0,0.0,2.26,,,0,0,0,0,0,0,0,0,0,0,0,0,0,0,0,0,0,,,,,39.239765,-77.965752,0.04,35,3,0.8
638298,1745095350764,0.0,201.11,,-0.06,0.11,1.0,-0,-0,0,1.01,1.24,81,3866,17.4,3.94,,13.31,1.11,95.2,,38.5,5,,,,,,,,,,,,0,0,0,0,0,0,0,0,0,0,0,0,0,0,0,0,,,,,0.0,,,,,,
638318,1745095350784,,,,,,,,,,,,,,,,,,,,,,,,,,,,,,,,,,0,0,0,0,0,0,0,0,0,0,0,0,0,0,0,0,,,,,,,,,,,
638338,1745095350804,0.0,200.98,,-0.05,0.01,0.91,0,-0,-0,0.91,1.24,73,4004,17.4,3.95,,13.37,1.074,95.2,,40.8,5,,,,,,,,,,,,0,0,0,0,0,0,0,0,0,0,0,0,0,0,0,0,,,,,0.0,,,,,,
638358,1745095350824,,,,,,,,,,,,,,,,,,,,,,,,,,,,,,,,,,0,0,0,0,0,0,0,0,0,0,0,0,0,0,0,0,,,,,,,,,,,
638378,1745095350844,0.0,200.98,13.47,-0.03,0.12,1.0,-0,-0,0,1.01,1.24,81,4073,17.4,3.93,15,13.25,1.088,95.2,147,40.8,5,0,0,0,0,0.0,0.0,0.0,0.0,2.26,0,0.0,0,0,0,0,0,0,0,0,0,0,0,0,0,0,0,0,0,0.0,0,0,0.0,39.239765,-77.965752,0.08,35,3,0.8
638398,1745095350864,,,,,,,,,,,,,,,,,,,,,,,,,,,,,,,,,,0,0,0,0,0,0,0,0,0,0,0,0,0,0,0,0,,,,,,,,,,,
638418,1745095350884,0.0,200.98,,-0.03,0.01,0.94,0,-0,-0,0.94,1.24,75,4115,17.6,3.93,,13.25,1.088,95.2,,43.4,5,,,,,,,,,,,,0,0,0,0,0,0,0,0,0,0,0,0,0,0,0,0,,,,,0.0,,,,,,
638438,1745095350904,,,,,,,,,,,,,,,,,,,,,,,,,,,,,,,,,,0,0,0,0,0,0,0,0,0,0,0,0,0,0,0,0,,,,,,,,,,,
638458,1745095350924,0.0,200.85,,-0.04,0.1,1.05,-0,-0,0,1.05,1.24,85,4115,17.6,3.93,,13.15,1.097,95.2,,43.4,5,,,,,,,,,,,,0,0,0,0,0,0,0,0,0,0,0,0,0,0,0,0,,,,,0.0,,,,,,
638478,1745095350944,,,,,,,,,,,,,,,,,,,,,,,0,0,0,0,0.0,0.0,0.0,0.0,2.26,,,0,0,0,0,0,0,0,0,0,0,0,0,0,0,0,0,0,,,,,39.239765,-77.965752,0.0,35,3,0.8
638498,1745095350964,0.0,200.85,,-0.03,-0.01,0.94,1,-0,-0,0.94,1.24,75,4180,17.6,3.92,,13.17,1.128,95.2,,44.5,5,,,,,,,,,,,,0,0,0,0,0,0,0,0,0,0,0,0,0,0,0,0,,,,,0.0,,,,,,
638518,1745095350984,,,,,,,,,,,,,,,,,,,,,,,,,,,,,,,,,,0,0,0,0,0,0,0,0,0,0,0,0,0,0,0,0,,,,,,,,,,,
638538,1745095350993,0.0,200.85,,-0.07,0.06,1.0,-0,-0,0,1.0,1.24,81,4252,17.6,3.93,,13.16,1.204,95.2,,44.5,5,,,,,,,,,,,,0,0,0,0,0,0,0,0,0,0,0,0,0,0,0,0,,,,,0.0,,,,,,
638558,1745095351013,,,,,,,,,,,,,,,,,,,,,,,,,,,,,,,,,,0,0,0,0,0,0,0,0,0,0,0,0,0,0,0,0,,,,,,,,,,,
638578,1745095351033,0.0,200.85,,-0.04,0.14,1.09,-0,-0,0,1.1,1.24,88,4337,21.7,4.13,,13.33,1.249,95.2,,44.5,5,0,0,0,0,0.0,0.0,0.0,0.0,2.26,,,0,0,0,0,0,0,0,0,0,0,0,0,0,0,0,0,0,,,,0.0,39.239765,-77.965752,0.04,33,3,0.8
638598,1745095351053,,,,,,,,,,,,,,,,,,,,,,,,,,,,,,,,,,0,0,0,0,0,0,0,0,0,0,0,0,0,0,0,0,,,,,,,,,,,
638618,1745095351073,0.0,200.85,,-0.04,0.17,1.17,-0,-0,1,1.18,1.24,95,4599,22.5,4.14,,13.33,1.249,95.2,,47.5,5,,,,,,,,,,,,0,0,0,0,0,0,0,0,0,0,0,0,0,0,0,0,,,,,0.0,,,,,,
638638,1745095351097,,,,,,,,,,,,,,,,,,,,,,,,,,,,,,,,,,0,0,0,0,0,0,0,0,0,0,0,0,0,0,0,0,,,,,,,,,,,
638658,1745095351117,0.0,200.85,,-0.06,0.23,1.16,-2,-0,1,1.19,1.24,95,4599,22.5,4.14,,13.39,1.249,95.2,,47.5,5,,,,,,,,,,,,0,0,0,0,0,0,0,0,0,0,0,0,0,0,0,0,,,,,0.0,,,,,,
638678,1745095351137,,,,,,,,,,,,,,,,,,,,,,,0,0,0,0,0.0,0.0,0.0,0.0,2.26,,,0,0,0,0,0,0,0,0,0,0,0,0,0,0,0,0,0,,,,,39.239765,-77.965752,0.04,33,3,0.8
638698,1745095351157,0.0,200.85,,-0.06,0.22,1.14,-1,-0,1,1.17,1.24,94,0,22.7,4.13,,13.28,1.192,95.2,,54.2,5,,,,,,,,,,,,0,0,0,0,0,0,0,0,0,0,0,0,0,0,0,0,,,,,0.0,,,,,,
638718,1745095351177,,,,,,,,,,,,,,,,,,,,,,,,,,,,,,,,,,0,0,0,0,0,0,0,0,0,0,0,0,0,0,0,0,,,,,,,,,,,
638738,1745095351199,0.0,200.73,,-0.05,0.23,1.16,-1,-0,1,1.18,1.24,95,5138,22.7,4.12,,13.2,1.157,95.2,,54.2,5,,,,,,,,,,,,0,0,0,0,0,0,0,0,0,0,0,0,0,0,0,0,,,,,0.0,,,,,,
638758,1745095351219,,,,,,,,,,,,,,,,,,,,,,,,,,,,,,,,,,0,0,0,0,0,0,0,0,0,0,0,0,0,0,0,0,,,,,,,,,,,
638778,1745095351239,0.0,200.73,,-0.03,0.17,1.1,-1,-0,1,1.11,1.24,90,5015,22.0,4.09,,13.12,1.05,95.2,,54.2,5,0,0,0,0,0.0,0.0,0.0,0.0,2.26,,,0,0,0,0,0,0,0,0,0,0,0,0,0,0,0,0,0,,,,0.0,39.239765,-77.965752,0.05,33,3,0.8
638798,1745095351259,,,,,,,,,,,,,,,,,,,,,,,,,,,,,,,,,,0,0,0,0,0,0,0,0,0,0,0,0,0,0,0,0,,,,,,,,,,,
638818,1745095351279,0.0,200.73,,-0.06,0.19,1.12,-1,-0,1,1.13,1.24,91,4912,18.7,4.0,,13.12,1.05,95.2,,53.7,5,,,,,,,,,,,,0,0,0,0,0,0,0,0,0,0,0,0,0,0,0,0,,,,,0.0,,,,,,
638838,1745095351303,,,,,,,,,,,,,,,,,,,,,,,,,,,,,,,,,,0,0,0,0,0,0,0,0,0,0,0,0,0,0,0,0,,,,,,,,,,,
638858,1745095351323,0.0,200.73,,-0.02,0.15,1.1,-1,-0,1,1.11,1.24,89,4912,18.7,4.0,,13.05,1.038,95.2,,53.7,5,,,,,,,,,,,,0,0,0,0,0,0,0,0,0,0,0,0,0,0,0,0,,,,,0.0,,,,,,
638878,1745095351343,,,,,,,,,,,,,,,,,,,,,,,0,0,0,0,0.0,0.0,0.0,0.0,2.26,,,0,0,0,0,0,0,0,0,0,0,0,0,0,0,0,0,0,,,,,39.239765,-77.965752,0.11,33,3,0.8
638898,1745095351363,0.0,200.73,,-0.02,0.13,1.08,-1,-0,1,1.08,1.24,87,5043,17.4,4.01,,13.04,1.112,95.2,,55.7,5,,,,,,,,,,,,0,0,0,0,0,0,0,0,0,0,0,0,0,0,0,0,,,,,0.0,,,,,,
638918,1745095351383,,,,,,,,,,,,,,,,,,,,,,,,,,,,,,,,,,0,0,0,0,0,0,0,0,0,0,0,0,0,0,0,0,,,,,,,,,,,
638938,1745095351403,0.0,200.73,,-0.05,0.11,1.05,-1,-0,1,1.06,1.24,85,5364,17.4,4.05,,12.88,1.036,95.2,,55.7,5,,,,,,,,,,,,0,0,0,0,0,0,0,0,0,0,0,0,0,0,0,0,,,,,0.0,,,,,,
638958,1745095351423,,,,,,,,,,,,,,,,,,,,,,,,,,,,,,,,,,0,0,0,0,0,0,0,0,0,0,0,0,0,0,0,0,,,,,,,,,,,
638978,1745095351443,0.0,200.73,,-0.04,0.18,1.16,-0,-0,1,1.18,1.24,95,5807,17.3,4.06,,12.4,0.933,95.2,,55.7,5,0,0,0,0,0.0,0.0,0.0,0.0,2.26,,,0,0,0,0,0,0,0,0,0,0,0,0,0,0,0,0,0,,,,0.0,39.239765,-77.965752,0.04,33,3,0.8
638998,1745095351463,,,,,,,,,,,,,,,,,,,,,,,,,,,,,,,,,,0,0,0,0,0,0,0,0,0,0,0,0,0,0,0,0,,,,,,,,,,,
639018,1745095351483,0.0,200.73,,-0.05,0.22,1.21,-1,-0,1,1.23,1.24,99,6333,17.4,4.33,,12.4,0.933,95.2,,64.5,5,,,,,,,,,,,,0,0,0,0,0,0,0,0,0,0,0,0,0,0,0,0,,,,,0.0,,,,,,
639038,1745095351505,,,,,,,,,,,,,,,,,,,,,,,,,,,,,,,,,,0,0,0,0,0,0,0,0,0,0,0,0,0,0,0,0,,,,,,,,,,,
639058,1745095351525,0.0,200.73,,-0.04,0.19,1.17,-1,-0,1,1.19,1.24,95,6333,17.4,4.33,,11.96,0.915,95.2,,64.5,5,,,,,,,,,,,,0,0,0,0,0,0,0,0,0,0,0,0,0,0,0,0,,,,,0.0,,,,,,
639078,1745095351545,,,,,,,,,,,,,,,,,,,,,,,0,0,0,0,0.0,0.0,0.0,0.0,2.26,,,0,0,0,0,0,0,0,0,0,0,0,0,0,0,0,0,0,,,,,39.239765,-77.965752,0.34,33,3,0.8
639098,1745095351565,0.0,200.73,,-0.03,0.12,1.11,-1,-0,1,1.11,1.24,89,6820,17.4,4.91,,11.52,0.936,95.2,,65.8,5,,,,,,,,,,,,0,0,0,0,0,0,0,0,0,0,0,0,0,0,0,0,,,,,0.0,,,,,,
639118,1745095351585,,,,,,,,,,,,,,,,,,,,,,,,,,,,,,,,,,0,0,0,0,0,0,0,0,0,0,0,0,0,0,0,0,,,,,,,,,,,
639138,1745095351603,0.0,200.73,,-0.03,0.21,1.09,-1,-0,1,1.11,1.24,90,7366,17.5,5.09,,11.13,0.942,95.2,,65.8,5,,,,,,,,,,,,0,0,0,0,0,0,0,0,0,0,0,0,0,0,0,0,,,,,0.0,,,,,,
639158,1745095351623,,,,,,,,,,,,,,,,,,,,,,,,,,,,,,,,,,0,0,0,0,0,0,0,0,0,0,0,0,0,0,0,0,,,,,,,,,,,
639178,1745095351643,0.0,200.6,,-0.05,0.17,1.08,-0,-0,0,1.1,1.24,88,8113,16.9,4.03,,10.56,0.918,95.2,,65.8,5,0,0,0,0,0.0,0.0,0.0,0.0,2.26,,,0,0,0,0,0,0,0,0,0,0,0,0,0,0,0,0,0,,,,0.0,39.239765,-77.965752,0.23,33,3,0.8
639198,1745095351663,,,,,,,,,,,,,,,,,,,,,,,,,,,,,,,,,,0,0,0,0,0,0,0,0,0,0,0,0,0,0,0,0,,,,,,,,,,,
639218,1745095351683,0.0,200.35,,0.0,-0.04,1.13,-1,-0,1,1.13,1.24,91,8113,16.9,4.03,,10.56,0.918,95.2,,65.9,5,,,,,,,,,,,,0,0,0,0,0,0,0,0,0,0,0,0,0,0,0,0,,,,,0.0,,,,,,
639238,1745095351703,,,,,,,,,,,,,,,,,,,,,,,,,,,,,,,,,,0,0,0,0,0,0,0,0,0,0,0,0,0,0,0,0,,,,,,,,,,,
639258,1745095351723,0.0,200.35,,0.06,0.1,1.11,0,-0,0,1.11,1.24,89,9037,15.9,3.19,,9.86,0.78,95.2,,65.9,5,,,,,,,,,,,,0,0,0,0,0,0,0,0,0,0,0,0,0,0,0,0,,,,,0.0,,,,,,
639278,1745095351743,,,,,,,,,,,,,,,,,,,,,,,0,0,0,0,0.0,0.0,0.0,0.0,2.26,,,0,0,0,0,0,0,0,0,0,0,0,0,0,0,0,0,0,,,,,39.239765,-77.965752,0.07,33,3,0.8
639298,1745095351763,0.0,200.48,,0.04,0.06,1.09,1,-0,0,1.1,1.24,88,9949,15.6,3.05,,9.09,0.759,95.2,,69.1,5,,,,,,,,,,,,0,0,0,0,0,0,0,0,0,0,0,0,0,0,0,0,,,,,0.0,,,,,,
639318,1745095351783,,,,,,,,,,,,,,,,,,,,,,,,,,,,,,,,,,0,0,0,0,0,0,0,0,0,0,0,0,0,0,0,0,,,,,,,,,,,
639338,1745095351803,0.0,200.35,,0.0,0.13,1.1,1,-0,0,1.1,1.24,89,10635,15.7,2.86,,8.43,0.804,95.2,,69.1,5,,,,,,,,,,,,0,0,0,0,0,0,0,0,0,0,0,0,0,0,0,0,,,,,0.0,,,,,,
639358,1745095351823,,,,,,,,,,,,,,,,,,,,,,,,,,,,,,,,,,0,0,0,0,0,0,0,0,0,0,0,0,0,0,0,0,,,,,,,,,,,
639378,1745095351843,0.0,200.23,13.49,0.0,0.17,1.03,1,-1,0,1.04,1.24,84,11213,15.7,2.61,15,7.95,0.832,95.2,147,69.1,5,0,0,0,0,0.0,0.0,0.0,0.0,2.26,0,0.0,0,0,0,0,0,0,0,0,0,0,0,0,0,0,0,0,0,0.0,0,0,0.0,39.239765,-77.965752,0.29,33,3,0.8
639398,1745095351863,,,,,,,,,,,,,,,,,,,,,,,,,,,,,,,,,,0,0,0,0,0,0,0,0,0,0,0,0,0,0,0,0,,,,,,,,,,,
639418,1745095351883,0.0,200.23,,-0.0,0.13,1.02,-0,-1,-0,1.02,1.24,82,11606,15.6,2.42,,7.95,0.832,95.2,,66.2,5,,,,,,,,,,,,0,0,0,0,0,0,0,0,0,0,0,0,0,0,0,0,,,,,0.0,,,,,,
639438,1745095351905,,,,,,,,,,,,,,,,,,,,,,,,,,,,,,,,,,0,0,0,0,0,0,0,0,0,0,0,0,0,0,0,0,,,,,,,,,,,
639458,1745095351925,0.0,200.1,,-0.04,0.12,1.01,1,-0,-0,1.02,1.24,82,11606,15.6,2.42,,7.77,0.835,95.2,,66.2,5,,,,,,,,,,,,0,0,0,0,0,0,0,0,0,0,0,0,0,0,0,0,,,,,0.0,,,,,,
639478,1745095351945,,,,,,,,,,,,,,,,,,,,,,,0,0,0,0,0.0,0.0,0.0,0.0,2.26,,,0,0,0,0,0,0,0,0,0,0,0,0,0,0,0,0,0,,,,,39.239765,-77.965752,0.19,33,3,0.8
639498,1745095351965,0.0,199.97,,-0.03,0.1,0.91,1,-0,-0,0.91,1.24,73,11752,14.7,2.24,,7.41,0.846,95.2,,66.2,5,,,,,,,,,,,,0,0,0,0,0,0,0,0,0,0,0,0,0,0,0,0,,,,,0.0,,,,,,
639518,1745095351985,,,,,,,,,,,,,,,,,,,,,,,,,,,,,,,,,,0,0,0,0,0,0,0,0,0,0,0,0,0,0,0,0,,,,,,,,,,,
639538,1745095351996,0.0,199.85,,-0.07,0.26,0.84,-0,-0,-0,0.88,1.24,71,11786,14.4,2.13,,7.14,0.86,95.2,,67.8,5,,,,,,,,,,,,0,0,0,0,0,0,0,0,0,0,0,0,0,0,0,0,,,,,0.0,,,,,,
639558,1745095352016,,,,,,,,,,,,,,,,,,,,,,,,,,,,,,,,,,0,0,0,0,0,0,0,0,0,0,0,0,0,0,0,0,,,,,,,,,,,
639578,1745095352036,0.0,199.85,,-0.1,0.26,1.01,-1,-0,-0,1.05,1.24,84,11773,10.4,2.02,,6.8,0.9,95.2,,67.8,5,0,0,0,0,0.0,0.0,0.0,0.0,2.26,,,0,0,0,0,0,0,0,0,0,0,0,0,0,0,0,0,0,,,,0.0,39.239765,-77.965752,0.1,33,3,0.8
639598,1745095352056,,,,,,,,,,,,,,,,,,,,,,,,,,,,,,,,,,0,0,0,0,0,0,0,0,0,0,0,0,0,0,0,0,,,,,,,,,,,
639618,1745095352076,0.0,199.85,,-0.08,0.32,1.13,-1,-0,1,1.18,1.24,95,11682,3.8,1.49,,6.8,0.9,95.2,,66.9,5,,,,,,,,,,,,0,0,0,0,0,0,0,0,0,0,0,0,0,0,0,0,,,,,0.0,,,,,,
639638,1745095352100,,,,,,,,,,,,,,,,,,,,,,,,,,,,,,,,,,0,0,0,0,0,0,0,0,0,0,0,0,0,0,0,0,,,,,,,,,,,
639658,1745095352120,0.0,199.72,,-0.01,0.2,1.07,-1,-1,0,1.08,1.24,87,11682,3.8,1.49,,5.88,0.938,95.2,,66.9,5,,,,,,,,,,,,0,0,0,0,0,0,0,0,0,0,0,0,0,0,0,0,,,,,0.0,,,,,,
639678,1745095352140,,,,,,,,,,,,,,,,,,,,,,,0,0,0,0,0.0,0.0,0.0,0.0,2.26,,,0,0,0,0,0,0,0,0,0,0,0,0,0,0,0,0,0,,,,,39.239765,-77.965752,0.04,33,3,0.8
639698,1745095352160,0.0,199.72,,-0.01,0.13,1.05,-0,-0,0,1.06,1.24,85,11406,3.3,1.4,,5.28,0.94,95.2,,64.8,5,,,,,,,,,,,,0,0,0,0,0,0,0,0,0,0,0,0,0,0,0,0,,,,,0.0,,,,,,
639718,1745095352180,,,,,,,,,,,,,,,,,,,,,,,,,,,,,,,,,,0,0,0,0,0,0,0,0,0,0,0,0,0,0,0,0,,,,,,,,,,,
639738,1745095352202,0.0,199.6,,-0.01,0.14,1.03,0,-0,-0,1.03,1.24,83,10999,3.6,1.4,,4.97,0.957,95.2,,64.8,5,,,,,,,,,,,,0,0,0,0,0,0,0,0,0,0,0,0,0,0,0,0,,,,,0.0,,,,,,
639758,1745095352222,,,,,,,,,,,,,,,,,,,,,,,,,,,,,,,,,,0,0,0,0,0,0,0,0,0,0,0,0,0,0,0,0,,,,,,,,,,,
639778,1745095352242,0.0,199.47,,-0.02,0.01,1.14,0,-0,0,1.14,1.24,91,10660,3.7,1.4,,5.12,1.032,95.2,,64.8,5,0,0,0,0,0.0,0.0,0.0,0.0,2.26,,,0,0,0,0,0,0,0,0,0,0,0,0,0,0,0,0,0,,,,0.0,39.239765,-77.965752,0.19,33,3,0.8
639798,1745095352262,,,,,,,,,,,,,,,,,,,,,,,,,,,,,,,,,,0,0,0,0,0,0,0,0,0,0,0,0,0,0,0,0,,,,,,,,,,,
639818,1745095352282,0.0,199.35,,-0.05,-0.01,1.12,1,-0,-0,1.12,1.24,90,10288,3.8,1.4,,5.12,1.032,95.2,,65.6,5,,,,,,,,,,,,0,0,0,0,0,0,0,0,0,0,0,0,0,0,0,0,,,,,0.0,,,,,,
639838,1745095352304,,,,,,,,,,,,,,,,,,,,,,,,,,,,,,,,,,0,0,0,0,0,0,0,0,0,0,0,0,0,0,0,0,,,,,,,,,,,
639858,1745095352324,0.0,199.35,,-0.06,0.04,1.14,-0,-0,0,1.14,1.24,91,10288,3.8,1.4,,5.2,1.051,95.2,,65.6,5,,,,,,,,,,,,0,0,0,0,0,0,0,0,0,0,0,0,0,0,0,0,,,,,0.0,,,,,,
639878,1745095352344,,,,,,,,,,,,,,,,,,,,,,,0,0,0,0,0.0,0.0,0.0,0.0,2.27,,,0,0,0,0,0,0,0,0,0,0,0,0,0,0,0,0,0,,,,,39.239765,-77.965752,0.09,33,3,0.8
639898,1745095352364,0.0,199.22,,-0.03,0.12,1.12,-1,-0,0,1.13,1.24,91,9960,3.9,1.4,,5.2,1.047,95.2,,63.4,5,,,,,,,,,,,,0,0,0,0,0,0,0,0,0,0,0,0,0,0,0,0,,,,,0.0,,,,,,
639918,1745095352384,,,,,,,,,,,,,,,,,,,,,,,,,,,,,,,,,,0,0,0,0,0,0,0,0,0,0,0,0,0,0,0,0,,,,,,,,,,,
639938,1745095352402,0.0,199.1,,-0.03,-0.03,1.14,0,-1,0,1.14,1.24,92,9479,5.5,1.4,,5.3,1.075,95.2,,63.4,5,,,,,,,,,,,,0,0,0,0,0,0,0,0,0,0,0,0,0,0,0,0,,,,,0.0,,,,,,
639958,1745095352422,,,,,,,,,,,,,,,,,,,,,,,,,,,,,,,,,,0,0,0,0,0,0,0,0,0,0,0,0,0,0,0,0,,,,,,,,,,,
639978,1745095352442,0.0,198.97,,-0.04,-0.05,1.12,1,-0,-0,1.13,1.24,90,8866,8.1,1.64,,5.58,1.149,95.2,,63.4,5,0,0,0,0,0.0,0.0,0.0,0.0,2.26,,,0,0,0,0,0,0,0,0,0,0,0,0,0,0,0,0,0,,,,0.0,39.239765,-77.965752,0.23,33,3,0.8
639998,1745095352462,,,,,,,,,,,,,,,,,,,,,,,,,,,,,,,,,,0,0,0,0,0,0,0,0,0,0,0,0,0,0,0,0,,,,,,,,,,,
640018,1745095352482,0.0,198.84,,-0.04,-0.04,1.09,1,-1,-0,1.09,1.24,88,8378,8.7,1.85,,5.58,1.149,95.2,,60.6,5,,,,,,,,,,,,0,0,0,0,0,0,0,0,0,0,0,0,0,0,0,0,,,,,0.0,,,,,,
640038,1745095352504,,,,,,,,,,,,,,,,,,,,,,,,,,,,,,,,,,0,0,0,0,0,0,0,0,0,0,0,0,0,0,0,0,,,,,,,,,,,
640058,1745095352524,0.0,198.72,,-0.04,0.03,1.1,1,-0,0,1.1,1.24,89,8378,8.7,1.85,,6.06,1.251,95.2,,60.6,5,,,,,,,,,,,,0,0,0,0,0,0,0,0,0,0,0,0,0,0,0,0,,,,,0.0,,,,,,
640078,1745095352544,,,,,,,,,,,,,,,,,,,,,,,0,0,0,0,0.0,0.0,0.0,0.0,2.26,,,0,0,0,0,0,0,0,0,0,0,0,0,0,0,0,0,0,,,,,39.239765,-77.965752,0.13,33,3,0.8
640098,1745095352564,0.0,198.47,,-0.04,-0.01,1.1,1,-0,0,1.1,1.24,89,7985,12.4,2.12,,6.8,1.251,95.2,,61.6,5,,,,,,,,,,,,0,0,0,0,0,0,0,0,0,0,0,0,0,0,0,0,,,,,0.0,,,,,,
640118,1745095352584,,,,,,,,,,,,,,,,,,,,,,,,,,,,,,,,,,0,0,0,0,0,0,0,0,0,0,0,0,0,0,0,0,,,,,,,,,,,
640138,1745095352604,0.0,198.47,,-0.03,0.09,1.11,1,-0,-0,1.11,1.24,89,7769,13.3,2.38,,7.57,1.25,95.2,,61.6,5,,,,,,,,,,,,0,0,0,0,0,0,0,0,0,0,0,0,0,0,0,0,,,,,0.0,,,,,,
640158,1745095352624,,,,,,,,,,,,,,,,,,,,,,,,,,,,,,,,,,0,0,0,0,0,0,0,0,0,0,0,0,0,0,0,0,,,,,,,,,,,
640178,1745095352644,0.0,198.34,,-0.04,0.07,1.07,0,-0,0,1.08,1.24,86,7603,13.7,2.69,,8.14,1.248,95.2,,61.6,5,0,0,0,0,0.0,0.0,0.0,0.0,2.26,,,0,0,0,0,0,0,0,0,0,0,0,0,0,0,0,0,0,,,,0.0,39.239765,-77.965752,0.13,33,3,0.8
640198,1745095352664,,,,,,,,,,,,,,,,,,,,,,,,,,,,,,,,,,0,0,0,0,0,0,0,0,0,0,0,0,0,0,0,0,,,,,,,,,,,
640218,1745095352684,0.0,198.47,,-0.03,0.18,1.04,-2,-0,1,1.06,1.24,85,7488,14.3,2.88,,8.14,1.248,95.2,,60.6,5,,,,,,,,,,,,0,0,0,0,0,0,0,0,0,0,0,0,0,0,0,0,,,,,0.0,,,,,,
640238,1745095352704,,,,,,,,,,,,,,,,,,,,,,,,,,,,,,,,,,0,0,0,0,0,0,0,0,0,0,0,0,0,0,0,0,,,,,,,,,,,
640258,1745095352724,0.0,198.47,,-0.04,0.22,1.03,-2,-0,1,1.05,1.24,85,7488,14.3,2.88,,8.67,1.228,95.2,,60.6,5,,,,,,,,,,,,0,0,0,0,0,0,0,0,0,0,0,0,0,0,0,0,,,,,0.0,,,,,,
640278,1745095352744,,,,,,,,,,,,,,,,,,,,,,,0,0,0,0,0.0,0.0,0.0,0.0,2.26,,,0,0,0,0,0,0,0,0,0,0,0,0,0,0,0,0,0,,,,,39.239765,-77.965752,0.04,33,3,0.8
640298,1745095352764,0.0,198.47,,-0.02,0.35,1.04,-3,-0,1,1.09,1.24,88,7395,14.3,3.0,,8.94,1.145,95.2,,61.6,5,,,,,,,,,,,,0,0,0,0,0,0,0,0,0,0,0,0,0,0,0,0,,,,,0.0,,,,,,
640318,1745095352784,,,,,,,,,,,,,,,,,,,,,,,,,,,,,,,,,,0,0,0,0,0,0,0,0,0,0,0,0,0,0,0,0,,,,,,,,,,,
640338,1745095352804,0.0,198.47,,-0.01,0.37,1.04,-2,-0,0,1.1,1.24,88,7392,14.3,3.1,,9.21,1.109,95.2,,61.6,5,,,,,,,,,,,,0,0,0,0,0,0,0,0,0,0,0,0,0,0,0,0,,,,,0.0,,,,,,
640358,1745095352824,,,,,,,,,,,,,,,,,,,,,,,,,,,,,,,,,,0,0,0,0,0,0,0,0,0,0,0,0,0,0,0,0,,,,,,,,,,,
640378,1745095352844,0.0,198.47,13.5,-0.01,0.31,1.03,0,-0,0,1.08,1.24,87,7435,14.2,3.14,15,9.31,1.093,95.2,147,61.6,5,0,0,0,0,0.0,0.0,0.0,0.0,2.26,0,0.0,0,0,0,0,0,0,0,0,0,0,0,0,0,0,0,0,0,0.0,0,0,0.0,39.239765,-77.965752,0.04,33,3,0.8
640398,1745095352864,,,,,,,,,,,,,,,,,,,,,,,,,,,,,,,,,,0,0,0,0,0,0,0,0,0,0,0,0,0,0,0,0,,,,,,,,,,,
640418,1745095352884,0.0,198.47,,-0.03,0.14,1.06,2,-0,-0,1.07,1.24,86,7435,14.2,3.14,,9.31,1.093,95.2,,61.8,5,,,,,,,,,,,,0,0,0,0,0,0,0,0,0,0,0,0,0,0,0,0,,,,,0.0,,,,,,
640438,1745095352904,,,,,,,,,,,,,,,,,,,,,,,,,,,,,,,,,,0,0,0,0,0,0,0,0,0,0,0,0,0,0,0,0,,,,,,,,,,,
640458,1745095352924,0.0,198.47,,-0.03,0.05,1.06,3,-0,-1,1.06,1.24,86,7470,14.3,3.2,,9.39,1.084,95.2,,61.8,5,,,,,,,,,,,,0,0,0,0,0,0,0,0,0,0,0,0,0,0,0,0,,,,,0.0,,,,,,
640478,1745095352944,,,,,,,,,,,,,,,,,,,,,,,0,0,0,0,0.0,0.0,0.0,0.0,2.26,,,0,0,0,0,0,0,0,0,0,0,0,0,0,0,0,0,0,,,,,39.239765,-77.965752,0.04,33,3,0.8
640498,1745095352964,0.0,198.59,,-0.01,-0.05,1.05,3,-0,-1,1.06,1.24,85,7467,14.3,3.19,,9.49,1.076,95.2,,61.8,5,,,,,,,,,,,,0,0,0,0,0,0,0,0,0,0,0,0,0,0,0,0,,,,,0.0,,,,,,
640518,1745095352984,,,,,,,,,,,,,,,,,,,,,,,,,,,,,,,,,,0,0,0,0,0,0,0,0,0,0,0,0,0,0,0,0,,,,,,,,,,,
640538,1745095352995,0.0,198.47,,-0.03,-0.19,1.03,3,-0,-1,1.05,1.24,84,7374,14.4,3.17,,9.41,1.096,95.2,,62.3,5,,,,,,,,,,,,0,0,0,0,0,0,0,0,0,0,0,0,0,0,0,0,,,,,0.0,,,,,,
640558,1745095353015,,,,,,,,,,,,,,,,,,,,,,,,,,,,,,,,,,0,0,0,0,0,0,0,0,0,0,0,0,0,0,0,0,,,,,,,,,,,
640578,1745095353035,0.0,198.59,,-0.03,-0.08,1.06,1,-0,-0,1.06,1.24,85,7116,14.4,3.32,,9.68,1.08,95.2,,62.3,5,0,0,0,0,0.0,0.0,0.0,0.0,2.26,,,0,0,0,0,0,0,0,0,0,0,0,0,0,0,0,0,0,,,,0.0,39.239765,-77.965752,0.04,33,3,0.8
640598,1745095353055,,,,,,,,,,,,,,,,,,,,,,,,,,,,,,,,,,0,0,0,0,0,0,0,0,0,0,0,0,0,0,0,0,,,,,,,,,,,
