"Interval"|"ms"|0|0|1,"Utc"|"ms"|0|0|1,"FrontBP"|"psi"|-5.0|5.0|25,"SteerAng"|"Degrees"|-145.0|145.0|25,"Battery"|"Volts"|-5.0|20.0|1,"AccelX"|"G"|-3.0|3.0|25,"AccelY"|"G"|-3.0|3.0|25,"AccelZ"|"G"|-3.0|3.0|25,"Yaw"|"Deg/Sec"|-120|120|25,"Pitch"|"Deg/Sec"|-120|120|25,"Roll"|"Deg/Sec"|-120|120|25,"Gsum"|"G"|0.0|3.0|25,"GsumMax"|"G"|0.0|3.0|25,"GsumPct"|"%"|0|100|25,"RPM"|""|0|10000|25,"TPS"|"%"|0.0|100.0|25,"InjectorPW"|"ms"|0.0|100.0|25,"Baro"|"kPa"|0|105|1,"MAP"|"Psi"|0.0|255.0|25,"Lambda"|""|-2.0|2.0|25,"IAT"|"C"|0.0|200.0|25,"EngineTemp"|"C"|0|200|1,"EOP"|"PSI"|0.0|152.0|25,"EOT"|"F"|0|250|25,"WSFR"|"MPH"|0|150|10,"WSFL"|"MPH"|0|100|10,"WSRR"|"MPH"|0|100|10,"WSRL"|""|0|100|10,"TCSet"|"%"|0.0|100.0|10,"TCSlip"|"%"|0.0|100.0|10,"TCComp"|"deg"|0.0|50.0|10,"TCCut"|"%"|0.0|100.0|10,"Analog8"|""|0.0|5.0|10,"OilTemp"|"F"|0|300|1,"AA_On"|""|0.0|1.0|1,"ThermLF1"|"C"|0|400|50,"ThermLF2"|"C"|0|400|50,"ThermRR1"|"C"|0|400|50,"ThermRR2"|"C"|0|400|50,"ThermLF3"|"C"|0|400|50,"ThermLF4"|"C"|0|400|50,"ThermLF5"|"C"|0|400|50,"ThermLF6"|"C"|0|400|50,"ThermLF7"|"C"|0|400|50,"ThermLF8"|"C"|0|400|50,"ThermRR3"|"C"|0|400|50,"ThermRR4"|"C"|0|400|50,"ThermRR5"|"C"|0|400|50,"ThermRR6"|"C"|0|400|50,"ThermRR7"|"C"|0|400|50,"ThermRR8"|"C"|0|400|50,"Gear"|""|1|6|10,"AA_On"|""|0.0|1.0|1,"AA_LowDrag"|""|0|1|1,"Fuel_Mix"|""|-10|10|1,"AA_Packages"|""|0.0|1000.0|25,"Latitude"|"Degrees"|-180.0|180.0|10,"Longitude"|"Degrees"|-180.0|180.0|10,"Speed"|"kph"|0.0|150.0|10,"GPSSats"|""|0|20|10,"GPSQual"|""|0|5|10,"GPSDOP"|""|0.0|20.0|10
873353,1745091037029,,,,,,,,,,,,,,,,,,,,,,,,,,,,,,,,,,0,0,0,0,0,0,0,0,0,0,0,0,0,0,0,0,,,,,,,,,,,
873373,1745091037049,0.0,202.36,,-0.11,0.05,1.09,-1,-0,1,1.1,1.1,100,5015,11.6,3.64,,12.33,0.991,95.2,,43.9,5,,,,,,,,,,,,0,0,0,0,0,0,0,0,0,0,0,0,0,0,0,0,,,,,0.0,,,,,,
873393,1745091037069,,,,,,,,,,,,,,,,,,,,,,,,,,,,,,,,,,0,0,0,0,0,0,0,0,0,0,0,0,0,0,0,0,,,,,,,,,,,
873413,1745091037089,0.0,202.24,,-0.07,0.03,1.08,-1,-0,1,1.09,1.1,99,5131,11.6,3.68,,12.15,1.009,95.2,,43.9,5,,,,,,,,,,,,0,0,0,0,0,0,0,0,0,0,0,0,0,0,0,0,,,,,0.0,,,,,,
873433,1745091037117,,,,,,,,,,,,,,,,,,,,,,,0,0,0,0,0.0,0.0,0.0,0.0,2.26,,,0,0,0,0,0,0,0,0,0,0,0,0,0,0,0,0,0,,,,,39.240097,-77.964836,0.04,33,3,0.8
873453,1745091037137,0.0,202.24,,-0.08,0.01,1.09,-1,-0,1,1.09,1.1,99,5263,11.5,3.73,,12.24,1.077,95.2,,44.7,5,,,,,,,,,,,,0,0,0,0,0,0,0,0,0,0,0,0,0,0,0,0,,,,,0.0,,,,,,
873473,1745091037157,,,,,,,,,,,,,,,,,,,,,,,,,,,,,,,,,,0,0,0,0,0,0,0,0,0,0,0,0,0,0,0,0,,,,,,,,,,,
873493,1745091037177,0.0,202.24,,-0.1,-0.03,1.02,-0,-0,0,1.03,1.1,94,5490,11.5,3.86,,12.24,1.077,95.2,,44.7,5,,,,,,,,,,,,0,0,0,0,0,0,0,0,0,0,0,0,0,0,0,0,,,,,0.0,,,,,,
873513,1745091037197,,,,,,,,,,,,,,,,,,,,,,,,,,,,,,,,,,0,0,0,0,0,0,0,0,0,0,0,0,0,0,0,0,,,,,,,,,,,
873533,1745091037219,0.0,202.24,,-0.07,0.04,1.06,-1,-0,1,1.07,1.1,97,5490,11.5,3.86,,12.03,1.043,95.2,,49.7,5,0,0,0,0,0.0,0.0,0.0,0.0,2.26,,,0,0,0,0,0,0,0,0,0,0,0,0,0,0,0,0,0,,,,0.0,39.240097,-77.964836,0.04,33,3,0.8
873553,1745091037239,,,,,,,,,,,,,,,,,,,,,,,,,,,,,,,,,,0,0,0,0,0,0,0,0,0,0,0,0,0,0,0,0,,,,,,,,,,,
873573,1745091037259,0.0,202.24,,-0.1,-0.07,0.97,1,-0,-0,0.98,1.1,89,5700,11.5,3.94,,11.79,0.952,95.2,,49.7,5,,,,,,,,,,,,0,0,0,0,0,0,0,0,0,0,0,0,0,0,0,0,,,,,0.0,,,,,,
873593,1745091037279,,,,,,,,,,,,,,,,,,,,,,,,,,,,,,,,,,0,0,0,0,0,0,0,0,0,0,0,0,0,0,0,0,,,,,,,,,,,
873613,1745091037299,0.0,202.24,,-0.12,-0.18,0.88,1,-0,-1,0.91,1.1,83,5950,11.5,4.01,,11.48,0.955,95.2,,49.7,5,,,,,,,,,,,,0,0,0,0,0,0,0,0,0,0,0,0,0,0,0,0,,,,,0.0,,,,,,
873633,1745091037317,,,,,,,,,,,,,,,,,,,,,,,0,0,0,0,0.0,0.0,0.0,0.0,2.26,,,0,0,0,0,0,0,0,0,0,0,0,0,0,0,0,0,0,,,,,39.240097,-77.964836,0.0,33,3,0.8
873653,1745091037337,0.0,202.24,,-0.1,-0.1,0.92,0,-0,-0,0.94,1.1,85,6393,11.6,4.29,,11.14,1.006,95.2,,54.6,5,,,,,,,,,,,,0,0,0,0,0,0,0,0,0,0,0,0,0,0,0,0,,,,,0.0,,,,,,
873673,1745091037357,,,,,,,,,,,,,,,,,,,,,,,,,,,,,,,,,,0,0,0,0,0,0,0,0,0,0,0,0,0,0,0,0,,,,,,,,,,,
873693,1745091037377,0.0,202.24,,-0.14,-0.13,0.93,1,-0,-0,0.95,1.1,86,6961,11.6,3.6,,11.14,1.006,95.2,,54.6,5,,,,,,,,,,,,0,0,0,0,0,0,0,0,0,0,0,0,0,0,0,0,,,,,0.0,,,,,,
873713,1745091037397,,,,,,,,,,,,,,,,,,,,,,,,,,,,,,,,,,0,0,0,0,0,0,0,0,0,0,0,0,0,0,0,0,,,,,,,,,,,
873733,1745091037418,0.0,202.11,13.08,-0.12,-0.0,0.95,0,-0,-0,0.95,1.1,87,6961,11.6,3.6,15,10.49,0.937,95.2,167,64.4,5,0,0,0,0,0.0,0.0,0.0,0.0,2.26,0,0.0,0,0,0,0,0,0,0,0,0,0,0,0,0,0,0,0,0,0.0,0,-0,0.0,39.240097,-77.964836,0.11,33,3,0.8
873753,1745091037438,,,,,,,,,,,,,,,,,,,,,,,,,,,,,,,,,,0,0,0,0,0,0,0,0,0,0,0,0,0,0,0,0,,,,,,,,,,,
873773,1745091037458,0.0,202.11,,-0.11,0.04,0.93,0,-0,0,0.94,1.1,85,7461,11.6,3.41,,9.96,0.908,95.2,,64.4,5,,,,,,,,,,,,0,0,0,0,0,0,0,0,0,0,0,0,0,0,0,0,,,,,0.0,,,,,,
873793,1745091037478,,,,,,,,,,,,,,,,,,,,,,,,,,,,,,,,,,0,0,0,0,0,0,0,0,0,0,0,0,0,0,0,0,,,,,,,,,,,
873813,1745091037498,0.0,202.11,,-0.12,0.09,0.96,-0,-0,-0,0.97,1.1,88,8050,12.5,3.14,,9.65,0.908,95.2,,64.4,5,,,,,,,,,,,,0,0,0,0,0,0,0,0,0,0,0,0,0,0,0,0,,,,,0.0,,,,,,
873833,1745091037516,,,,,,,,,,,,,,,,,,,,,,,0,0,0,0,0.0,0.0,0.0,0.0,2.26,,,0,0,0,0,0,0,0,0,0,0,0,0,0,0,0,0,0,,,,,39.240097,-77.964836,0.12,33,3,0.8
873853,1745091037536,0.0,202.11,,-0.05,-0.02,0.98,1,-0,-0,0.98,1.1,89,8715,9.5,2.87,,8.81,0.901,95.2,,61.1,5,,,,,,,,,,,,0,0,0,0,0,0,0,0,0,0,0,0,0,0,0,0,,,,,0.0,,,,,,
873873,1745091037556,,,,,,,,,,,,,,,,,,,,,,,,,,,,,,,,,,0,0,0,0,0,0,0,0,0,0,0,0,0,0,0,0,,,,,,,,,,,
873893,1745091037576,0.0,201.99,,-0.03,0.1,1.02,0,-1,0,1.03,1.1,93,9422,3.0,1.49,,8.81,0.901,95.2,,61.1,5,,,,,,,,,,,,0,0,0,0,0,0,0,0,0,0,0,0,0,0,0,0,,,,,0.0,,,,,,
873913,1745091037596,,,,,,,,,,,,,,,,,,,,,,,,,,,,,,,,,,0,0,0,0,0,0,0,0,0,0,0,0,0,0,0,0,,,,,,,,,,,
873933,1745091037618,0.0,201.86,,-0.08,-0.1,1.0,1,-0,0,1.01,1.1,91,9422,3.0,1.49,,7.58,0.881,95.2,,65.5,5,0,0,0,0,0.0,0.0,0.0,0.0,2.26,,,0,0,0,0,0,0,0,0,0,0,0,0,0,0,0,0,0,,,,0.0,39.240097,-77.964836,0.08,33,3,0.8
873953,1745091037638,,,,,,,,,,,,,,,,,,,,,,,,,,,,,,,,,,0,0,0,0,0,0,0,0,0,0,0,0,0,0,0,0,,,,,,,,,,,
873973,1745091037658,0.0,201.73,,-0.1,-0.02,0.95,-0,-0,0,0.96,1.1,87,9552,0.2,1.4,,6.42,0.871,95.2,,65.5,5,,,,,,,,,,,,0,0,0,0,0,0,0,0,0,0,0,0,0,0,0,0,,,,,0.0,,,,,,
873993,1745091037678,,,,,,,,,,,,,,,,,,,,,,,,,,,,,,,,,,0,0,0,0,0,0,0,0,0,0,0,0,0,0,0,0,,,,,,,,,,,
874013,1745091037698,0.0,201.48,,-0.03,-0.16,1.03,1,-1,0,1.05,1.1,95,9204,0.3,1.4,,5.71,0.914,95.2,,65.5,5,,,,,,,,,,,,0,0,0,0,0,0,0,0,0,0,0,0,0,0,0,0,,,,,0.0,,,,,,
874033,1745091037718,,,,,,,,,,,,,,,,,,,,,,,0,0,0,0,0.0,0.0,0.0,0.0,2.26,,,0,0,0,0,0,0,0,0,0,0,0,0,0,0,0,0,0,,,,,39.240097,-77.964836,0.1,33,3,0.8
874053,1745091037738,0.0,201.36,,0.04,-0.22,1.08,1,-0,0,1.1,1.1,100,8965,0.3,1.4,,5.42,1.113,95.2,,61.7,5,,,,,,,,,,,,0,0,0,0,0,0,0,0,0,0,0,0,0,0,0,0,,,,,0.0,,,,,,
874073,1745091037758,,,,,,,,,,,,,,,,,,,,,,,,,,,,,,,,,,0,0,0,0,0,0,0,0,0,0,0,0,0,0,0,0,,,,,,,,,,,
874093,1745091037778,0.0,201.11,,0.02,-0.18,1.06,1,-0,0,1.07,1.1,98,8792,0.3,1.4,,5.42,1.113,95.2,,61.7,5,,,,,,,,,,,,0,0,0,0,0,0,0,0,0,0,0,0,0,0,0,0,,,,,0.0,,,,,,
874113,1745091037798,,,,,,,,,,,,,,,,,,,,,,,,,,,,,,,,,,0,0,0,0,0,0,0,0,0,0,0,0,0,0,0,0,,,,,,,,,,,
874133,1745091037818,0.0,201.11,,-0.04,-0.09,1.09,1,-0,0,1.09,1.1,99,8792,0.3,1.4,,5.28,1.25,95.2,,61.0,5,0,0,0,0,0.0,0.0,0.0,0.0,2.26,,,0,0,0,0,0,0,0,0,0,0,0,0,0,0,0,0,0,,,,0.0,39.240097,-77.964836,0.59,33,3,0.8
874153,1745091037838,,,,,,,,,,,,,,,,,,,,,,,,,,,,,,,,,,0,0,0,0,0,0,0,0,0,0,0,0,0,0,0,0,,,,,,,,,,,
874173,1745091037858,0.0,200.85,,-0.03,-0.1,1.06,0,-0,0,1.07,1.1,97,8566,6.2,1.61,,5.54,1.216,95.2,,61.0,5,,,,,,,,,,,,0,0,0,0,0,0,0,0,0,0,0,0,0,0,0,0,,,,,0.0,,,,,,
874193,1745091037878,,,,,,,,,,,,,,,,,,,,,,,,,,,,,,,,,,0,0,0,0,0,0,0,0,0,0,0,0,0,0,0,0,,,,,,,,,,,
874213,1745091037898,0.0,200.6,,-0.02,-0.09,1.03,0,-0,0,1.04,1.1,94,8294,11.6,1.98,,6.47,1.107,95.2,,61.0,5,,,,,,,,,,,,0,0,0,0,0,0,0,0,0,0,0,0,0,0,0,0,,,,,0.0,,,,,,
874233,1745091037918,,,,,,,,,,,,,,,,,,,,,,,0,0,0,0,0.0,0.0,0.0,0.0,2.26,,,0,0,0,0,0,0,0,0,0,0,0,0,0,0,0,0,0,,,,,39.240097,-77.964836,0.31,33,3,0.8
874253,1745091037938,0.0,200.35,,-0.04,-0.05,1.05,-0,-0,0,1.05,1.1,96,8161,13.6,2.31,,7.35,1.139,95.2,,61.1,5,,,,,,,,,,,,0,0,0,0,0,0,0,0,0,0,0,0,0,0,0,0,,,,,0.0,,,,,,
874273,1745091037958,,,,,,,,,,,,,,,,,,,,,,,,,,,,,,,,,,0,0,0,0,0,0,0,0,0,0,0,0,0,0,0,0,,,,,,,,,,,
874293,1745091037978,0.0,200.1,,-0.03,-0.05,1.05,0,-0,0,1.05,1.1,96,8118,15.9,2.54,,7.35,1.139,95.2,,61.1,5,,,,,,,,,,,,0,0,0,0,0,0,0,0,0,0,0,0,0,0,0,0,,,,,0.0,,,,,,
874313,1745091037998,,,,,,,,,,,,,,,,,,,,,,,,,,,,,,,,,,0,0,0,0,0,0,0,0,0,0,0,0,0,0,0,0,,,,,,,,,,,
874333,1745091038010,0.0,199.85,,-0.03,-0.14,1.05,1,-0,0,1.06,1.1,96,8118,15.9,2.54,,8.13,1.155,95.2,,61.1,5,0,0,0,0,0.0,0.0,0.0,0.0,2.26,,,0,0,0,0,0,0,0,0,0,0,0,0,0,0,0,0,0,,,,0.0,39.240097,-77.964836,0.0,33,3,0.8
874353,1745091038030,,,,,,,,,,,,,,,,,,,,,,,,,,,,,,,,,,0,0,0,0,0,0,0,0,0,0,0,0,0,0,0,0,,,,,,,,,,,
874373,1745091038050,0.0,199.72,,-0.03,-0.14,1.03,1,-0,-0,1.04,1.1,95,8103,16.5,2.84,,8.73,1.118,95.2,,61.1,5,,,,,,,,,,,,0,0,0,0,0,0,0,0,0,0,0,0,0,0,0,0,,,,,0.0,,,,,,
874393,1745091038070,,,,,,,,,,,,,,,,,,,,,,,,,,,,,,,,,,0,0,0,0,0,0,0,0,0,0,0,0,0,0,0,0,,,,,,,,,,,
874413,1745091038090,0.0,199.6,,-0.03,-0.08,1.04,1,-0,-0,1.04,1.1,95,8281,7.1,2.62,,8.39,1.107,95.2,,61.1,5,,,,,,,,,,,,0,0,0,0,0,0,0,0,0,0,0,0,0,0,0,0,,,,,0.0,,,,,,
874433,1745091038118,,,,,,,,,,,,,,,,,,,,,,,0,0,0,0,0.0,0.0,0.0,0.0,2.26,,,0,0,0,0,0,0,0,0,0,0,0,0,0,0,0,0,0,,,,,39.240097,-77.964836,0.0,33,3,0.8
874453,1745091038138,0.0,199.47,,-0.05,-0.09,1.02,1,-0,0,1.02,1.1,93,8420,0.1,1.4,,7.11,1.081,95.2,,63.3,5,,,,,,,,,,,,0,0,0,0,0,0,0,0,0,0,0,0,0,0,0,0,,,,,0.0,,,,,,
874473,1745091038158,,,,,,,,,,,,,,,,,,,,,,,,,,,,,,,,,,0,0,0,0,0,0,0,0,0,0,0,0,0,0,0,0,,,,,,,,,,,
874493,1745091038178,0.0,199.1,,-0.06,-0.22,1.0,1,-0,-0,1.03,1.1,94,7878,0.0,1.4,,7.11,1.081,95.2,,63.3,5,,,,,,,,,,,,0,0,0,0,0,0,0,0,0,0,0,0,0,0,0,0,,,,,0.0,,,,,,
874513,1745091038198,,,,,,,,,,,,,,,,,,,,,,,,,,,,,,,,,,0,0,0,0,0,0,0,0,0,0,0,0,0,0,0,0,,,,,,,,,,,
874533,1745091038218,0.0,199.1,,-0.04,-0.27,1.06,3,-0,-1,1.09,1.1,99,7878,0.0,1.4,,6.35,1.05,95.2,,59.5,5,0,0,0,0,0.0,0.0,0.0,0.0,2.26,,,0,0,0,0,0,0,0,0,0,0,0,0,0,0,0,0,0,,,,0.0,39.240097,-77.964836,0.1,33,3,0.8
874553,1745091038238,,,,,,,,,,,,,,,,,,,,,,,,,,,,,,,,,,0,0,0,0,0,0,0,0,0,0,0,0,0,0,0,0,,,,,,,,,,,
874573,1745091038258,0.0,199.22,,-0.07,-0.32,1.0,3,-0,-1,1.05,1.1,95,7387,0.0,1.4,,6.06,1.129,95.2,,59.5,5,,,,,,,,,,,,0,0,0,0,0,0,0,0,0,0,0,0,0,0,0,0,,,,,0.0,,,,,,
874593,1745091038278,,,,,,,,,,,,,,,,,,,,,,,,,,,,,,,,,,0,0,0,0,0,0,0,0,0,0,0,0,0,0,0,0,,,,,,,,,,,
874613,1745091038298,0.0,199.35,,-0.05,-0.28,1.0,3,-0,-1,1.04,1.1,95,6896,0.0,1.4,,6.27,1.25,95.2,,59.5,5,,,,,,,,,,,,0,0,0,0,0,0,0,0,0,0,0,0,0,0,0,0,,,,,0.0,,,,,,
874633,1745091038318,,,,,,,,,,,,,,,,,,,,,,,0,0,0,0,0.0,0.0,0.0,0.0,2.25,,,0,0,0,0,0,0,0,0,0,0,0,0,0,0,0,0,0,,,,,39.240097,-77.964836,0.1,33,3,0.8
874653,1745091038338,0.0,199.47,,-0.03,-0.22,1.06,3,-0,-1,1.08,1.1,98,6484,8.4,2.0,,7.14,1.25,95.2,,54.6,5,,,,,,,,,,,,0,0,0,0,0,0,0,0,0,0,0,0,0,0,0,0,,,,,0.0,,,,,,
874673,1745091038358,,,,,,,,,,,,,,,,,,,,,,,,,,,,,,,,,,0,0,0,0,0,0,0,0,0,0,0,0,0,0,0,0,,,,,,,,,,,
874693,1745091038378,0.0,199.72,,-0.08,-0.1,1.13,2,-0,-0,1.14,1.14,100,6126,13.8,2.41,,7.14,1.25,95.2,,54.6,5,,,,,,,,,,,,0,0,0,0,0,0,0,0,0,0,0,0,0,0,0,0,,,,,0.0,,,,,,
874713,1745091038398,,,,,,,,,,,,,,,,,,,,,,,,,,,,,,,,,,0,0,0,0,0,0,0,0,0,0,0,0,0,0,0,0,,,,,,,,,,,
874733,1745091038418,0.0,199.85,13.12,-0.12,-0.05,1.2,2,-0,-0,1.2,1.2,100,6126,13.8,2.41,15,8.67,1.251,95.2,167,53.6,5,0,0,0,0,0.0,0.0,0.0,0.0,2.26,0,0.0,0,0,0,0,0,0,0,0,0,0,0,0,0,0,0,0,0,0.0,0,-0,0.0,39.240097,-77.964836,0.0,33,3,0.8
874753,1745091038438,,,,,,,,,,,,,,,,,,,,,,,,,,,,,,,,,,0,0,0,0,0,0,0,0,0,0,0,0,0,0,0,0,,,,,,,,,,,
874773,1745091038458,0.0,199.97,,-0.08,-0.03,1.24,2,-0,-1,1.24,1.24,100,5858,15.1,2.8,,10.08,1.25,95.2,,53.6,5,,,,,,,,,,,,0,0,0,0,0,0,0,0,0,0,0,0,0,0,0,0,,,,,0.0,,,,,,
874793,1745091038478,,,,,,,,,,,,,,,,,,,,,,,,,,,,,,,,,,0,0,0,0,0,0,0,0,0,0,0,0,0,0,0,0,,,,,,,,,,,
874813,1745091038498,0.0,200.23,,-0.1,-0.11,1.12,2,-0,-1,1.13,1.24,91,0,15.3,3.17,,10.97,1.248,95.2,,53.6,5,,,,,,,,,,,,0,0,0,0,0,0,0,0,0,0,0,0,0,0,0,0,,,,,0.0,,,,,,
874833,1745091038517,,,,,,,,,,,,,,,,,,,,,,,0,0,0,0,0.0,0.0,0.0,0.0,2.26,,,0,0,0,0,0,0,0,0,0,0,0,0,0,0,0,0,0,,,,,39.240097,-77.964836,0.04,33,3,0.8
874853,1745091038537,0.0,200.48,,-0.08,-0.05,1.16,2,-0,-0,1.16,1.24,93,5537,8.9,3.79,,11.13,1.248,95.2,,52.1,5,,,,,,,,,,,,0,0,0,0,0,0,0,0,0,0,0,0,0,0,0,0,,,,,0.0,,,,,,
874873,1745091038557,,,,,,,,,,,,,,,,,,,,,,,,,,,,,,,,,,0,0,0,0,0,0,0,0,0,0,0,0,0,0,0,0,,,,,,,,,,,
874893,1745091038577,0.0,200.6,,-0.09,-0.03,1.11,1,-0,-0,1.11,1.24,89,5407,0.0,1.53,,11.13,1.248,95.2,,52.1,5,,,,,,,,,,,,0,0,0,0,0,0,0,0,0,0,0,0,0,0,0,0,,,,,0.0,,,,,,
874913,1745091038597,,,,,,,,,,,,,,,,,,,,,,,,,,,,,,,,,,0,0,0,0,0,0,0,0,0,0,0,0,0,0,0,0,,,,,,,,,,,
874933,1745091038617,0.0,200.73,,-0.08,-0.03,1.06,1,-0,-0,1.06,1.24,85,5407,0.0,1.53,,10.48,1.247,95.2,,47.5,5,0,0,0,0,0.0,0.0,0.0,0.0,2.26,,,0,0,0,0,0,0,0,0,0,0,0,0,0,0,0,0,0,,,,0.0,39.240097,-77.964836,0.0,33,3,0.8
874953,1745091038637,,,,,,,,,,,,,,,,,,,,,,,,,,,,,,,,,,0,0,0,0,0,0,0,0,0,0,0,0,0,0,0,0,,,,,,,,,,,
874973,1745091038657,0.0,200.85,,-0.1,0.01,1.07,1,-0,-0,1.08,1.24,87,5124,0.0,1.54,,9.98,1.246,95.2,,47.5,5,,,,,,,,,,,,0,0,0,0,0,0,0,0,0,0,0,0,0,0,0,0,,,,,0.0,,,,,,
874993,1745091038677,,,,,,,,,,,,,,,,,,,,,,,,,,,,,,,,,,0,0,0,0,0,0,0,0,0,0,0,0,0,0,0,0,,,,,,,,,,,
875013,1745091038697,0.0,201.11,,-0.08,-0.05,1.02,1,-0,-0,1.03,1.24,83,4778,0.0,1.63,,9.8,1.223,95.2,,47.5,5,,,,,,,,,,,,0,0,0,0,0,0,0,0,0,0,0,0,0,0,0,0,,,,,0.0,,,,,,
875033,1745091038717,,,,,,,,,,,,,,,,,,,,,,,0,0,0,0,0.0,0.0,0.0,0.0,2.26,,,0,0,0,0,0,0,0,0,0,0,0,0,0,0,0,0,0,,,,,39.240097,-77.964836,0.0,33,3,0.8
875053,1745091038737,0.0,201.23,,-0.09,-0.13,0.97,1,-0,-0,0.98,1.24,79,4384,1.0,1.86,,9.93,1.246,95.2,,41.6,5,,,,,,,,,,,,0,0,0,0,0,0,0,0,0,0,0,0,0,0,0,0,,,,,0.0,,,,,,
875073,1745091038757,,,,,,,,,,,,,,,,,,,,,,,,,,,,,,,,,,0,0,0,0,0,0,0,0,0,0,0,0,0,0,0,0,,,,,,,,,,,
875093,1745091038777,0.0,201.36,,-0.08,-0.05,1.0,1,-0,-0,1.01,1.24,81,4071,12.6,2.84,,9.93,1.246,95.2,,41.6,5,,,,,,,,,,,,0,0,0,0,0,0,0,0,0,0,0,0,0,0,0,0,,,,,0.0,,,,,,
875113,1745091038797,,,,,,,,,,,,,,,,,,,,,,,,,,,,,,,,,,0,0,0,0,0,0,0,0,0,0,0,0,0,0,0,0,,,,,,,,,,,
875133,1745091038817,0.0,201.48,,-0.07,-0.06,1.0,1,-0,-0,1.0,1.24,81,4071,12.6,2.84,,11.12,1.25,95.2,,33.9,5,0,0,0,0,0.0,0.0,0.0,0.0,2.26,,,0,0,0,0,0,0,0,0,0,0,0,0,0,0,0,0,0,,,,0.0,39.240097,-77.964836,0.05,33,3,0.8
875153,1745091038837,,,,,,,,,,,,,,,,,,,,,,,,,,,,,,,,,,0,0,0,0,0,0,0,0,0,0,0,0,0,0,0,0,,,,,,,,,,,
875173,1745091038857,0.0,201.61,,-0.08,-0.1,1.0,0,-0,-0,1.01,1.24,81,3778,20.6,4.06,,12.59,1.25,95.2,,33.9,5,,,,,,,,,,,,0,0,0,0,0,0,0,0,0,0,0,0,0,0,0,0,,,,,0.0,,,,,,
875193,1745091038877,,,,,,,,,,,,,,,,,,,,,,,,,,,,,,,,,,0,0,0,0,0,0,0,0,0,0,0,0,0,0,0,0,,,,,,,,,,,
875213,1745091038897,0.0,201.73,,-0.07,-0.15,0.91,1,-0,-1,0.93,1.24,74,3984,24.3,4.31,,13.28,1.251,95.2,,33.9,5,,,,,,,,,,,,0,0,0,0,0,0,0,0,0,0,0,0,0,0,0,0,,,,,0.0,,,,,,
875233,1745091038919,,,,,,,,,,,,,,,,,,,,,,,0,0,0,0,0.0,0.0,0.0,0.0,2.26,,,0,0,0,0,0,0,0,0,0,0,0,0,0,0,0,0,0,,,,,39.240097,-77.964836,0.04,33,3,0.8
875253,1745091038939,0.0,201.86,,-0.09,-0.13,0.94,0,-0,-0,0.95,1.24,77,4267,24.7,4.25,,13.43,1.25,95.2,,34.5,5,,,,,,,,,,,,0,0,0,0,0,0,0,0,0,0,0,0,0,0,0,0,,,,,0.0,,,,,,
875273,1745091038959,,,,,,,,,,,,,,,,,,,,,,,,,,,,,,,,,,0,0,0,0,0,0,0,0,0,0,0,0,0,0,0,0,,,,,,,,,,,
875293,1745091038979,0.0,201.86,,-0.08,-0.03,1.04,0,-0,-0,1.05,1.24,84,4352,22.6,4.16,,13.43,1.25,95.2,,34.5,5,,,,,,,,,,,,0,0,0,0,0,0,0,0,0,0,0,0,0,0,0,0,,,,,0.0,,,,,,
875313,1745091038999,,,,,,,,,,,,,,,,,,,,,,,,,,,,,,,,,,0,0,0,0,0,0,0,0,0,0,0,0,0,0,0,0,,,,,,,,,,,
875333,1745091039011,0.0,201.99,,-0.05,-0.03,1.01,1,-0,-0,1.01,1.24,81,4352,22.6,4.16,,13.33,1.249,95.2,,37.3,5,0,0,0,0,0.0,0.0,0.0,0.0,2.26,,,0,0,0,0,0,0,0,0,0,0,0,0,0,0,0,0,0,,,,0.0,39.240097,-77.964836,0.04,33,3,0.8
875353,1745091039031,,,,,,,,,,,,,,,,,,,,,,,,,,,,,,,,,,0,0,0,0,0,0,0,0,0,0,0,0,0,0,0,0,,,,,,,,,,,
875373,1745091039051,0.0,201.99,,-0.03,-0.12,0.89,1,-0,-1,0.9,1.24,72,4331,2.7,3.58,,12.52,1.249,95.2,,37.3,5,,,,,,,,,,,,0,0,0,0,0,0,0,0,0,0,0,0,0,0,0,0,,,,,0.0,,,,,,
875393,1745091039071,,,,,,,,,,,,,,,,,,,,,,,,,,,,,,,,,,0,0,0,0,0,0,0,0,0,0,0,0,0,0,0,0,,,,,,,,,,,
875413,1745091039091,0.0,201.99,,-0.04,-0.1,0.91,1,-0,-0,0.92,1.24,74,4292,0.0,2.38,,11.68,1.247,95.2,,37.3,5,,,,,,,,,,,,0,0,0,0,0,0,0,0,0,0,0,0,0,0,0,0,,,,,0.0,,,,,,
875433,1745091039113,,,,,,,,,,,,,,,,,,,,,,,0,0,0,0,0.0,0.0,0.0,0.0,2.26,,,0,0,0,0,0,0,0,0,0,0,0,0,0,0,0,0,0,,,,,39.240097,-77.964836,0.08,33,3,0.8
875453,1745091039133,0.0,202.11,,-0.04,-0.05,0.95,1,-0,-0,0.95,1.24,76,4186,0.0,2.37,,11.16,1.247,95.2,,36.9,5,,,,,,,,,,,,0,0,0,0,0,0,0,0,0,0,0,0,0,0,0,0,,,,,0.0,,,,,,
875473,1745091039153,,,,,,,,,,,,,,,,,,,,,,,,,,,,,,,,,,0,0,0,0,0,0,0,0,0,0,0,0,0,0,0,0,,,,,,,,,,,
875493,1745091039173,0.0,202.11,,-0.03,-0.04,1.0,0,-0,0,1.0,1.24,80,3901,0.0,2.39,,11.16,1.247,95.2,,36.9,5,,,,,,,,,,,,0,0,0,0,0,0,0,0,0,0,0,0,0,0,0,0,,,,,0.0,,,,,,
875513,1745091039193,,,,,,,,,,,,,,,,,,,,,,,,,,,,,,,,,,0,0,0,0,0,0,0,0,0,0,0,0,0,0,0,0,,,,,,,,,,,
875533,1745091039211,0.0,202.11,,-0.03,-0.02,1.0,0,-0,0,1.0,1.24,80,3901,0.0,2.39,,11.06,1.249,95.2,,32.3,5,0,0,0,0,0.0,0.0,0.0,0.0,2.26,,,0,0,0,0,0,0,0,0,0,0,0,0,0,0,0,0,0,,,,0.0,39.240097,-77.964836,0.08,33,3,0.8
875553,1745091039231,,,,,,,,,,,,,,,,,,,,,,,,,,,,,,,,,,0,0,0,0,0,0,0,0,0,0,0,0,0,0,0,0,,,,,,,,,,,
875573,1745091039251,0.0,202.11,,-0.01,-0.02,0.96,0,-0,0,0.96,1.24,77,3734,5.4,3.54,,11.36,1.249,95.2,,32.3,5,,,,,,,,,,,,0,0,0,0,0,0,0,0,0,0,0,0,0,0,0,0,,,,,0.0,,,,,,
875593,1745091039271,,,,,,,,,,,,,,,,,,,,,,,,,,,,,,,,,,0,0,0,0,0,0,0,0,0,0,0,0,0,0,0,0,,,,,,,,,,,
875613,1745091039291,0.0,201.99,,-0.03,-0.01,0.96,0,-0,-0,0.96,1.24,78,3603,10.2,3.74,,12.24,1.251,95.2,,32.3,5,,,,,,,,,,,,0,0,0,0,0,0,0,0,0,0,0,0,0,0,0,0,,,,,0.0,,,,,,
875633,1745091039317,,,,,,,,,,,,,,,,,,,,,,,0,0,0,0,0.0,0.0,0.0,0.0,2.26,,,0,0,0,0,0,0,0,0,0,0,0,0,0,0,0,0,0,,,,,39.240097,-77.964836,0.0,33,3,0.8
875653,1745091039337,0.0,201.99,,-0.04,-0.02,0.97,1,-0,-0,0.97,1.24,78,3711,11.8,3.82,,12.64,1.251,95.2,,31.0,5,,,,,,,,,,,,0,0,0,0,0,0,0,0,0,0,0,0,0,0,0,0,,,,,0.0,,,,,,
875673,1745091039357,,,,,,,,,,,,,,,,,,,,,,,,,,,,,,,,,,0,0,0,0,0,0,0,0,0,0,0,0,0,0,0,0,,,,,,,,,,,
875693,1745091039377,0.0,202.11,,-0.05,-0.05,0.94,1,-0,-0,0.94,1.24,76,3715,12.5,3.82,,12.64,1.251,95.2,,31.0,5,,,,,,,,,,,,0,0,0,0,0,0,0,0,0,0,0,0,0,0,0,0,,,,,0.0,,,,,,
875713,1745091039397,,,,,,,,,,,,,,,,,,,,,,,,,,,,,,,,,,0,0,0,0,0,0,0,0,0,0,0,0,0,0,0,0,,,,,,,,,,,
875733,1745091039416,0.0,202.11,13.16,-0.06,-0.07,0.94,1,-0,-0,0.94,1.24,76,3715,12.5,3.82,15,12.93,1.25,95.2,169,31.0,5,0,0,0,0,0.0,0.0,0.0,0.0,2.26,0,0.0,0,0,0,0,0,0,0,0,0,0,0,0,0,0,0,0,0,0.0,0,0,0.0,39.240097,-77.964836,0.05,33,3,0.8
875753,1745091039436,,,,,,,,,,,,,,,,,,,,,,,,,,,,,,,,,,0,0,0,0,0,0,0,0,0,0,0,0,0,0,0,0,,,,,,,,,,,
875773,1745091039456,0.0,202.11,,-0.07,-0.08,0.96,1,-0,-0,0.96,1.24,77,3660,12.7,3.82,,13.11,1.221,95.2,,31.0,5,,,,,,,,,,,,0,0,0,0,0,0,0,0,0,0,0,0,0,0,0,0,,,,,0.0,,,,,,
875793,1745091039476,,,,,,,,,,,,,,,,,,,,,,,,,,,,,,,,,,0,0,0,0,0,0,0,0,0,0,0,0,0,0,0,0,,,,,,,,,,,
875813,1745091039496,0.0,202.24,,-0.05,-0.09,0.96,0,-0,-0,0.96,1.24,77,3721,12.9,3.83,,13.05,1.182,95.2,,31.0,5,,,,,,,,,,,,0,0,0,0,0,0,0,0,0,0,0,0,0,0,0,0,,,,,0.0,,,,,,
875833,1745091039514,,,,,,,,,,,,,,,,,,,,,,,0,0,0,0,0.0,0.0,0.0,0.0,2.26,,,0,0,0,0,0,0,0,0,0,0,0,0,0,0,0,0,0,,,,,39.240097,-77.964836,0.07,33,3,0.8
875853,1745091039534,0.0,202.24,,-0.05,-0.08,0.97,-0,-0,0,0.97,1.24,78,3684,12.7,3.83,,13.03,1.198,95.2,,31.0,5,,,,,,,,,,,,0,0,0,0,0,0,0,0,0,0,0,0,0,0,0,0,,,,,0.0,,,,,,
875873,1745091039554,,,,,,,,,,,,,,,,,,,,,,,,,,,,,,,,,,0,0,0,0,0,0,0,0,0,0,0,0,0,0,0,0,,,,,,,,,,,
875893,1745091039574,0.0,202.24,,-0.04,-0.0,1.02,-0,-0,0,1.03,1.24,82,3706,12.7,3.84,,13.03,1.198,95.2,,31.0,5,,,,,,,,,,,,0,0,0,0,0,0,0,0,0,0,0,0,0,0,0,0,,,,,0.0,,,,,,
875913,1745091039594,,,,,,,,,,,,,,,,,,,,,,,,,,,,,,,,,,0,0,0,0,0,0,0,0,0,0,0,0,0,0,0,0,,,,,,,,,,,
875933,1745091039614,0.0,202.24,,-0.04,0.02,1.03,-0,-0,0,1.03,1.24,83,3706,12.7,3.84,,13.07,1.238,95.2,,31.1,5,0,0,0,0,0.0,0.0,0.0,0.0,2.26,,,0,0,0,0,0,0,0,0,0,0,0,0,0,0,0,0,0,,,,0.0,39.240097,-77.964836,0.04,33,3,0.8
875953,1745091039634,,,,,,,,,,,,,,,,,,,,,,,,,,,,,,,,,,0,0,0,0,0,0,0,0,0,0,0,0,0,0,0,0,,,,,,,,,,,
875973,1745091039654,0.0,202.24,,-0.05,0.02,1.02,-0,-0,0,1.02,1.24,82,3646,12.6,3.83,,13.11,1.246,97.0,,31.1,5,,,,,,,,,,,,0,0,0,0,0,0,0,0,0,0,0,0,0,0,0,0,,,,,0.0,,,,,,
875993,1745091039674,,,,,,,,,,,,,,,,,,,,,,,,,,,,,,,,,,0,0,0,0,0,0,0,0,0,0,0,0,0,0,0,0,,,,,,,,,,,
876013,1745091039694,0.0,202.36,,-0.05,0.01,1.03,-0,-0,0,1.04,1.24,83,3696,12.5,3.84,,13.03,1.247,97.0,,31.1,5,,,,,,,,,,,,0,0,0,0,0,0,0,0,0,0,0,0,0,0,0,0,,,,,0.0,,,,,,
876033,1745091039714,,,,,,,,,,,,,,,,,,,,,,,0,0,0,0,0.0,0.0,0.0,0.0,2.26,,,0,0,0,0,0,0,0,0,0,0,0,0,0,0,0,0,0,,,,,39.240097,-77.964836,0.04,33,3,0.8
876053,1745091039734,0.0,202.36,,-0.03,0.02,1.04,-0,-0,0,1.04,1.24,83,3657,12.5,3.84,,13.08,1.249,97.0,,31.0,5,,,,,,,,,,,,0,0,0,0,0,0,0,0,0,0,0,0,0,0,0,0,,,,,0.0,,,,,,
876073,1745091039754,,,,,,,,,,,,,,,,,,,,,,,,,,,,,,,,,,0,0,0,0,0,0,0,0,0,0,0,0,0,0,0,0,,,,,,,,,,,
876093,1745091039774,0.0,202.36,,-0.02,-0.0,1.02,-0,-0,0,1.02,1.24,82,3747,12.6,3.83,,13.08,1.249,97.0,,31.0,5,,,,,,,,,,,,0,0,0,0,0,0,0,0,0,0,0,0,0,0,0,0,,,,,0.0,,,,,,
876113,1745091039794,,,,,,,,,,,,,,,,,,,,,,,,,,,,,,,,,,0,0,0,0,0,0,0,0,0,0,0,0,0,0,0,0,,,,,,,,,,,
876133,1745091039818,0.0,202.36,,-0.01,-0.0,1.03,-0,-0,0,1.03,1.24,83,3747,12.6,3.83,,13.08,1.25,97.0,,31.4,5,0,0,0,0,0.0,0.0,0.0,0.0,2.26,,,0,0,0,0,0,0,0,0,0,0,0,0,0,0,0,0,0,,,,0.0,39.240097,-77.964836,0.1,33,3,0.8
876153,1745091039838,,,,,,,,,,,,,,,,,,,,,,,,,,,,,,,,,,0,0,0,0,0,0,0,0,0,0,0,0,0,0,0,0,,,,,,,,,,,
876173,1745091039858,0.0,202.36,,-0.01,-0.02,1.04,-0,-0,0,1.04,1.24,84,3739,12.5,3.84,,13.07,1.252,97.0,,31.4,5,,,,,,,,,,,,0,0,0,0,0,0,0,0,0,0,0,0,0,0,0,0,,,,,0.0,,,,,,
876193,1745091039878,,,,,,,,,,,,,,,,,,,,,,,,,,,,,,,,,,0,0,0,0,0,0,0,0,0,0,0,0,0,0,0,0,,,,,,,,,,,
876213,1745091039898,0.0,202.36,,-0.01,-0.0,1.03,0,-0,-0,1.03,1.24,83,3725,12.7,3.83,,13.0,1.252,97.0,,31.4,5,,,,,,,,,,,,0,0,0,0,0,0,0,0,0,0,0,0,0,0,0,0,,,,,0.0,,,,,,
876233,1745091039918,,,,,,,,,,,,,,,,,,,,,,,0,0,0,0,0.0,0.0,0.0,0.0,2.26,,,0,0,0,0,0,0,0,0,0,0,0,0,0,0,0,0,0,,,,,39.240097,-77.964836,0.04,33,3,0.8
876253,1745091039938,0.0,202.49,,-0.03,0.03,1.01,0,-0,-0,1.01,1.24,81,3785,12.8,3.83,,13.0,1.251,97.0,,31.6,5,,,,,,,,,,,,0,0,0,0,0,0,0,0,0,0,0,0,0,0,0,0,,,,,0.0,,,,,,
876273,1745091039958,,,,,,,,,,,,,,,,,,,,,,,,,,,,,,,,,,0,0,0,0,0,0,0,0,0,0,0,0,0,0,0,0,,,,,,,,,,,
876293,1745091039978,0.0,202.49,,-0.04,0.04,1.03,0,-0,-0,1.03,1.24,83,3750,12.7,3.83,,13.0,1.251,97.0,,31.6,5,,,,,,,,,,,,0,0,0,0,0,0,0,0,0,0,0,0,0,0,0,0,,,,,0.0,,,,,,
876313,1745091039998,,,,,,,,,,,,,,,,,,,,,,,,,,,,,,,,,,0,0,0,0,0,0,0,0,0,0,0,0,0,0,0,0,,,,,,,,,,,
876333,1745091040010,0.0,202.36,,-0.04,0.05,1.05,0,-0,0,1.05,1.24,85,3750,12.7,3.83,,13.07,1.25,97.0,,31.9,5,0,0,0,0,0.0,0.0,0.0,0.0,2.26,,,0,0,0,0,0,0,0,0,0,0,0,0,0,0,0,0,0,,,,0.0,39.240097,-77.964836,0.0,33,3,0.8
876353,1745091040030,,,,,,,,,,,,,,,,,,,,,,,,,,,,,,,,,,0,0,0,0,0,0,0,0,0,0,0,0,0,0,0,0,,,,,,,,,,,
876373,1745091040050,0.0,202.36,,-0.03,0.04,1.05,-0,-0,0,1.05,1.24,85,3836,12.8,3.83,,12.93,1.248,97.0,,31.9,5,,,,,,,,,,,,0,0,0,0,0,0,0,0,0,0,0,0,0,0,0,0,,,,,0.0,,,,,,
876393,1745091040070,,,,,,,,,,,,,,,,,,,,,,,,,,,,,,,,,,0,0,0,0,0,0,0,0,0,0,0,0,0,0,0,0,,,,,,,,,,,
876413,1745091040090,0.0,202.49,,-0.02,0.0,1.04,-0,-0,0,1.04,1.24,84,3778,12.7,3.82,,13.0,1.246,97.0,,31.9,5,,,,,,,,,,,,0,0,0,0,0,0,0,0,0,0,0,0,0,0,0,0,,,,,0.0,,,,,,
876433,1745091040112,,,,,,,,,,,,,,,,,,,,,,,0,0,0,0,0.0,0.0,0.0,0.0,2.26,,,0,0,0,0,0,0,0,0,0,0,0,0,0,0,0,0,0,,,,,39.240097,-77.964836,0.04,33,3,0.8
876453,1745091040132,0.0,202.36,,-0.04,-0.04,1.0,-0,-0,-0,1.0,1.24,80,3813,12.6,3.81,,12.96,1.247,97.0,,32.5,5,,,,,,,,,,,,0,0,0,0,0,0,0,0,0,0,0,0,0,0,0,0,,,,,0.0,,,,,,
876473,1745091040152,,,,,,,,,,,,,,,,,,,,,,,,,,,,,,,,,,0,0,0,0,0,0,0,0,0,0,0,0,0,0,0,0,,,,,,,,,,,
876493,1745091040172,0.0,202.36,,-0.06,-0.08,0.95,0,-0,-0,0.96,1.24,77,3909,12.6,3.82,,12.96,1.247,97.0,,32.5,5,,,,,,,,,,,,0,0,0,0,0,0,0,0,0,0,0,0,0,0,0,0,,,,,0.0,,,,,,
876513,1745091040192,,,,,,,,,,,,,,,,,,,,,,,,,,,,,,,,,,0,0,0,0,0,0,0,0,0,0,0,0,0,0,0,0,,,,,,,,,,,
876533,1745091040216,0.0,202.36,,-0.05,-0.07,0.96,1,-0,-0,0.97,1.24,78,3909,12.6,3.82,,12.93,1.247,97.0,,33.0,5,0,0,0,0,0.0,0.0,0.0,0.0,2.26,,,0,0,0,0,0,0,0,0,0,0,0,0,0,0,0,0,0,,,,0.0,39.240097,-77.964836,0.0,33,3,0.8
876553,1745091040236,,,,,,,,,,,,,,,,,,,,,,,,,,,,,,,,,,0,0,0,0,0,0,0,0,0,0,0,0,0,0,0,0,,,,,,,,,,,
876573,1745091040256,0.0,202.36,,-0.05,-0.01,1.01,0,-0,-0,1.01,1.24,81,3833,12.6,3.81,,13.0,1.248,97.0,,33.0,5,,,,,,,,,,,,0,0,0,0,0,0,0,0,0,0,0,0,0,0,0,0,,,,,0.0,,,,,,
876593,1745091040276,,,,,,,,,,,,,,,,,,,,,,,,,,,,,,,,,,0,0,0,0,0,0,0,0,0,0,0,0,0,0,0,0,,,,,,,,,,,
876613,1745091040296,0.0,202.36,,-0.05,0.0,1.06,-0,-0,0,1.06,1.24,85,3914,12.5,3.81,,12.95,1.25,97.0,,33.0,5,,,,,,,,,,,,0,0,0,0,0,0,0,0,0,0,0,0,0,0,0,0,,,,,0.0,,,,,,
876633,1745091040318,,,,,,,,,,,,,,,,,,,,,,,0,0,0,0,0.0,0.0,0.0,0.0,2.26,,,0,0,0,0,0,0,0,0,0,0,0,0,0,0,0,0,0,,,,,39.240097,-77.964836,0.0,33,3,0.8
876653,1745091040338,0.0,202.36,,-0.06,-0.02,1.05,-0,-0,0,1.05,1.24,84,3869,12.6,3.81,,12.99,1.251,97.0,,33.0,5,,,,,,,,,,,,0,0,0,0,0,0,0,0,0,0,0,0,0,0,0,0,,,,,0.0,,,,,,
876673,1745091040358,,,,,,,,,,,,,,,,,,,,,,,,,,,,,,,,,,0,0,0,0,0,0,0,0,0,0,0,0,0,0,0,0,,,,,,,,,,,
876693,1745091040378,0.0,202.36,,-0.06,-0.08,0.98,0,-0,-0,0.99,1.24,79,3907,9.7,3.74,,12.99,1.251,97.0,,33.0,5,,,,,,,,,,,,0,0,0,0,0,0,0,0,0,0,0,0,0,0,0,0,,,,,0.0,,,,,,
876713,1745091040398,,,,,,,,,,,,,,,,,,,,,,,,,,,,,,,,,,0,0,0,0,0,0,0,0,0,0,0,0,0,0,0,0,,,,,,,,,,,
876733,1745091040418,0.0,202.36,13.15,-0.02,-0.04,1.01,1,-0,-0,1.01,1.24,81,3907,9.7,3.74,15,12.8,1.251,97.0,169,33.6,5,0,0,0,0,0.0,0.0,0.0,0.0,2.26,0,0.0,0,0,0,0,0,0,0,0,0,0,0,0,0,0,0,0,0,0.0,0,0,0.0,39.240097,-77.964836,0.0,33,3,0.8
876753,1745091040438,,,,,,,,,,,,,,,,,,,,,,,,,,,,,,,,,,0,0,0,0,0,0,0,0,0,0,0,0,0,0,0,0,,,,,,,,,,,
876773,1745091040458,0.0,202.36,,-0.0,0.08,1.09,-0,-0,0,1.09,1.24,88,3961,7.4,3.64,,12.59,1.252,97.0,,33.6,5,,,,,,,,,,,,0,0,0,0,0,0,0,0,0,0,0,0,0,0,0,0,,,,,0.0,,,,,,
876793,1745091040478,,,,,,,,,,,,,,,,,,,,,,,,,,,,,,,,,,0,0,0,0,0,0,0,0,0,0,0,0,0,0,0,0,,,,,,,,,,,
876813,1745091040498,0.0,202.36,,0.0,0.02,1.08,-0,-0,0,1.08,1.24,87,3876,6.5,3.6,,12.4,1.245,97.0,,33.6,5,,,,,,,,,,,,0,0,0,0,0,0,0,0,0,0,0,0,0,0,0,0,,,,,0.0,,,,,,
876833,1745091040515,,,,,,,,,,,,,,,,,,,,,,,0,0,0,0,0.0,0.0,0.0,0.0,2.26,,,0,0,0,0,0,0,0,0,0,0,0,0,0,0,0,0,0,,,,,39.240097,-77.964836,0.0,33,3,0.8
876853,1745091040535,0.0,202.36,,-0.02,-0.03,1.03,-0,-0,0,1.04,1.24,83,3863,6.3,3.58,,12.35,1.226,97.0,,32.7,5,,,,,,,,,,,,0,0,0,0,0,0,0,0,0,0,0,0,0,0,0,0,,,,,0.0,,,,,,
876873,1745091040555,,,,,,,,,,,,,,,,,,,,,,,,,,,,,,,,,,0,0,0,0,0,0,0,0,0,0,0,0,0,0,0,0,,,,,,,,,,,
876893,1745091040575,0.0,202.36,,-0.04,-0.04,1.01,-0,-0,0,1.01,1.24,81,3824,6.3,3.6,,12.35,1.226,97.0,,32.7,5,,,,,,,,,,,,0,0,0,0,0,0,0,0,0,0,0,0,0,0,0,0,,,,,0.0,,,,,,
876913,1745091040595,,,,,,,,,,,,,,,,,,,,,,,,,,,,,,,,,,0,0,0,0,0,0,0,0,0,0,0,0,0,0,0,0,,,,,,,,,,,
876933,1745091040615,0.0,202.24,,-0.05,-0.06,1.01,-0,-0,0,1.01,1.24,81,3824,6.3,3.6,,12.25,1.215,97.0,,32.0,5,0,0,0,0,0.0,0.0,0.0,0.0,2.26,,,0,0,0,0,0,0,0,0,0,0,0,0,0,0,0,0,0,,,,0.0,39.240097,-77.964836,0.04,33,3,0.8
876953,1745091040635,,,,,,,,,,,,,,,,,,,,,,,,,,,,,,,,,,0,0,0,0,0,0,0,0,0,0,0,0,0,0,0,0,,,,,,,,,,,
876973,1745091040655,0.0,202.24,,-0.05,-0.05,1.0,0,-0,0,1.01,1.24,81,3779,6.1,3.58,,12.24,1.224,97.0,,32.0,5,,,,,,,,,,,,0,0,0,0,0,0,0,0,0,0,0,0,0,0,0,0,,,,,0.0,,,,,,
876993,1745091040675,,,,,,,,,,,,,,,,,,,,,,,,,,,,,,,,,,0,0,0,0,0,0,0,0,0,0,0,0,0,0,0,0,,,,,,,,,,,
877013,1745091040695,0.0,202.24,,-0.05,-0.02,0.99,0,-0,0,0.99,1.24,80,3753,6.1,3.59,,12.27,1.225,97.0,,32.0,5,,,,,,,,,,,,0,0,0,0,0,0,0,0,0,0,0,0,0,0,0,0,,,,,0.0,,,,,,
877033,1745091040713,,,,,,,,,,,,,,,,,,,,,,,0,0,0,0,0.0,0.0,0.0,0.0,2.27,,,0,0,0,0,0,0,0,0,0,0,0,0,0,0,0,0,0,,,,,39.240097,-77.964836,0.05,33,3,0.8
877053,1745091040733,0.0,202.36,,-0.06,0.01,1.0,0,-0,0,1.0,1.24,80,3685,6.1,3.59,,12.32,1.207,97.0,,31.4,5,,,,,,,,,,,,0,0,0,0,0,0,0,0,0,0,0,0,0,0,0,0,,,,,0.0,,,,,,
877073,1745091040753,,,,,,,,,,,,,,,,,,,,,,,,,,,,,,,,,,0,0,0,0,0,0,0,0,0,0,0,0,0,0,0,0,,,,,,,,,,,
877093,1745091040773,0.0,202.36,,-0.05,0.03,1.01,0,-0,0,1.01,1.24,81,3655,6.0,3.59,,12.32,1.207,97.0,,31.4,5,,,,,,,,,,,,0,0,0,0,0,0,0,0,0,0,0,0,0,0,0,0,,,,,0.0,,,,,,
877113,1745091040793,,,,,,,,,,,,,,,,,,,,,,,,,,,,,,,,,,0,0,0,0,0,0,0,0,0,0,0,0,0,0,0,0,,,,,,,,,,,
877133,1745091040817,0.0,202.36,,-0.04,0.01,0.97,0,-0,-0,0.97,1.24,78,3655,6.0,3.59,,12.37,1.206,97.0,,30.6,5,0,0,0,0,0.0,0.0,0.0,0.0,2.26,,,0,0,0,0,0,0,0,0,0,0,0,0,0,0,0,0,0,,,,0.0,39.240097,-77.964836,0.04,33,3,0.8
877153,1745091040837,,,,,,,,,,,,,,,,,,,,,,,,,,,,,,,,,,0,0,0,0,0,0,0,0,0,0,0,0,0,0,0,0,,,,,,,,,,,
877173,1745091040857,0.0,202.36,,-0.06,-0.07,0.96,1,-0,-0,0.96,1.24,78,3576,6.1,3.6,,12.41,1.196,97.0,,30.6,5,,,,,,,,,,,,0,0,0,0,0,0,0,0,0,0,0,0,0,0,0,0,,,,,0.0,,,,,,
877193,1745091040877,,,,,,,,,,,,,,,,,,,,,,,,,,,,,,,,,,0,0,0,0,0,0,0,0,0,0,0,0,0,0,0,0,,,,,,,,,,,
877213,1745091040897,0.0,202.49,,-0.06,-0.06,0.97,0,-0,-0,0.97,1.24,78,3516,6.2,3.6,,12.53,1.204,97.0,,30.6,5,,,,,,,,,,,,0,0,0,0,0,0,0,0,0,0,0,0,0,0,0,0,,,,,0.0,,,,,,
877233,1745091040917,,,,,,,,,,,,,,,,,,,,,,,0,0,0,0,0.0,0.0,0.0,0.0,2.26,,,0,0,0,0,0,0,0,0,0,0,0,0,0,0,0,0,0,,,,,39.240097,-77.964836,0.04,33,3,0.8
877253,1745091040937,0.0,202.36,,-0.06,-0.05,0.97,0,-0,0,0.97,1.24,78,3708,6.2,3.59,,12.45,1.23,97.0,,30.8,5,,,,,,,,,,,,0,0,0,0,0,0,0,0,0,0,0,0,0,0,0,0,,,,,0.0,,,,,,
877273,1745091040957,,,,,,,,,,,,,,,,,,,,,,,,,,,,,,,,,,0,0,0,0,0,0,0,0,0,0,0,0,0,0,0,0,,,,,,,,,,,
877293,1745091040977,0.0,202.36,,-0.05,-0.03,1.01,-0,-0,0,1.01,1.24,81,3690,6.1,3.6,,12.45,1.23,97.0,,30.8,5,,,,,,,,,,,,0,0,0,0,0,0,0,0,0,0,0,0,0,0,0,0,,,,,0.0,,,,,,
877313,1745091040997,,,,,,,,,,,,,,,,,,,,,,,,,,,,,,,,,,0,0,0,0,0,0,0,0,0,0,0,0,0,0,0,0,,,,,,,,,,,
877333,1745091041009,0.0,202.36,,-0.04,0.01,1.01,-0,-0,0,1.01,1.24,82,3690,6.1,3.6,,12.45,1.205,97.0,,30.6,5,0,0,0,0,0.0,0.0,0.0,0.0,2.26,,,0,0,0,0,0,0,0,0,0,0,0,0,0,0,0,0,0,,,,0.0,39.240097,-77.964836,0.04,33,3,0.8
877353,1745091041029,,,,,,,,,,,,,,,,,,,,,,,,,,,,,,,,,,0,0,0,0,0,0,0,0,0,0,0,0,0,0,0,0,,,,,,,,,,,
877373,1745091041049,0.0,202.36,,-0.03,0.01,0.98,0,-0,-0,0.98,1.24,79,3607,6.1,3.6,,12.44,1.106,97.0,,30.6,5,,,,,,,,,,,,0,0,0,0,0,0,0,0,0,0,0,0,0,0,0,0,,,,,0.0,,,,,,
877393,1745091041069,,,,,,,,,,,,,,,,,,,,,,,,,,,,,,,,,,0,0,0,0,0,0,0,0,0,0,0,0,0,0,0,0,,,,,,,,,,,
877413,1745091041089,0.0,202.36,,-0.04,-0.09,0.96,1,-0,-0,0.97,1.24,78,3544,6.1,3.6,,12.52,1.078,97.0,,30.6,5,,,,,,,,,,,,0,0,0,0,0,0,0,0,0,0,0,0,0,0,0,0,,,,,0.0,,,,,,
877433,1745091041113,,,,,,,,,,,,,,,,,,,,,,,0,0,0,0,0.0,0.0,0.0,0.0,2.26,,,0,0,0,0,0,0,0,0,0,0,0,0,0,0,0,0,0,,,,,39.240097,-77.964836,0.04,33,3,0.8
877453,1745091041133,0.0,202.36,,-0.06,-0.03,1.01,0,-0,0,1.02,1.24,82,3463,6.1,3.61,,12.57,1.111,97.0,,29.4,5,,,,,,,,,,,,0,0,0,0,0,0,0,0,0,0,0,0,0,0,0,0,,,,,0.0,,,,,,
877473,1745091041153,,,,,,,,,,,,,,,,,,,,,,,,,,,,,,,,,,0,0,0,0,0,0,0,0,0,0,0,0,0,0,0,0,,,,,,,,,,,
877493,1745091041173,0.0,202.36,,-0.04,-0.05,0.96,1,-0,-0,0.96,1.24,77,3434,5.9,3.63,,12.57,1.111,97.0,,29.4,5,,,,,,,,,,,,0,0,0,0,0,0,0,0,0,0,0,0,0,0,0,0,,,,,0.0,,,,,,
877513,1745091041193,,,,,,,,,,,,,,,,,,,,,,,,,,,,,,,,,,0,0,0,0,0,0,0,0,0,0,0,0,0,0,0,0,,,,,,,,,,,
877533,1745091041219,0.0,202.36,,-0.04,-0.06,1.04,0,-0,0,1.04,1.24,83,3434,5.9,3.63,,12.67,1.145,97.0,,28.0,5,0,0,0,0,0.0,0.0,0.0,0.0,2.26,,,0,0,0,0,0,0,0,0,0,0,0,0,0,0,0,0,0,,,,0.0,39.240097,-77.964836,0.05,33,3,0.8
877553,1745091041239,,,,,,,,,,,,,,,,,,,,,,,,,,,,,,,,,,0,0,0,0,0,0,0,0,0,0,0,0,0,0,0,0,,,,,,,,,,,
877573,1745091041259,0.0,202.36,,-0.04,-0.07,0.96,1,-0,-0,0.96,1.24,77,3333,5.9,3.61,,12.63,1.154,97.0,,28.0,5,,,,,,,,,,,,0,0,0,0,0,0,0,0,0,0,0,0,0,0,0,0,,,,,0.0,,,,,,
877593,1745091041279,,,,,,,,,,,,,,,,,,,,,,,,,,,,,,,,,,0,0,0,0,0,0,0,0,0,0,0,0,0,0,0,0,,,,,,,,,,,
877613,1745091041299,0.0,202.36,,-0.02,-0.0,0.96,-0,-0,0,0.96,1.24,77,3283,5.9,3.64,,12.75,1.163,97.0,,28.0,5,,,,,,,,,,,,0,0,0,0,0,0,0,0,0,0,0,0,0,0,0,0,,,,,0.0,,,,,,
877633,1745091041317,,,,,,,,,,,,,,,,,,,,,,,0,0,0,0,0.0,0.0,0.0,0.0,2.26,,,0,0,0,0,0,0,0,0,0,0,0,0,0,0,0,0,0,,,,,39.240097,-77.964836,0.04,33,3,0.8
877653,1745091041337,0.0,202.36,,-0.03,-0.05,1.03,-0,-0,-0,1.03,1.24,83,3275,5.8,3.63,,12.67,1.168,97.0,,26.9,5,,,,,,,,,,,,0,0,0,0,0,0,0,0,0,0,0,0,0,0,0,0,,,,,0.0,,,,,,
877673,1745091041357,,,,,,,,,,,,,,,,,,,,,,,,,,,,,,,,,,0,0,0,0,0,0,0,0,0,0,0,0,0,0,0,0,,,,,,,,,,,
877693,1745091041377,0.0,202.36,,-0.03,-0.04,0.95,0,-0,-0,0.96,1.24,77,3411,5.9,3.63,,12.67,1.168,97.0,,26.9,5,,,,,,,,,,,,0,0,0,0,0,0,0,0,0,0,0,0,0,0,0,0,,,,,0.0,,,,,,
877713,1745091041397,,,,,,,,,,,,,,,,,,,,,,,,,,,,,,,,,,0,0,0,0,0,0,0,0,0,0,0,0,0,0,0,0,,,,,,,,,,,
877733,1745091041419,0.0,202.49,13.15,-0.05,-0.12,1.01,0,-0,-0,1.02,1.24,82,3411,5.9,3.63,15,12.75,1.18,97.0,169,28.3,5,0,0,0,0,0.0,0.0,0.0,0.0,2.26,0,0.0,0,0,0,0,0,0,0,0,0,0,0,0,0,0,0,0,0,0.0,0,-0,0.0,39.240097,-77.964836,0.0,33,3,0.8
877753,1745091041439,,,,,,,,,,,,,,,,,,,,,,,,,,,,,,,,,,0,0,0,0,0,0,0,0,0,0,0,0,0,0,0,0,,,,,,,,,,,
877773,1745091041459,0.0,202.36,,-0.02,0.01,0.99,-0,-0,0,0.99,1.24,79,3455,6.0,3.61,,12.75,1.249,97.0,,28.3,5,,,,,,,,,,,,0,0,0,0,0,0,0,0,0,0,0,0,0,0,0,0,,,,,0.0,,,,,,
877793,1745091041479,,,,,,,,,,,,,,,,,,,,,,,,,,,,,,,,,,0,0,0,0,0,0,0,0,0,0,0,0,0,0,0,0,,,,,,,,,,,
877813,1745091041499,0.0,202.36,,-0.05,-0.12,1.0,0,-0,-0,1.01,1.24,81,3372,6.0,3.63,,12.73,1.222,97.0,,28.3,5,,,,,,,,,,,,0,0,0,0,0,0,0,0,0,0,0,0,0,0,0,0,,,,,0.0,,,,,,
877833,1745091041514,,,,,,,,,,,,,,,,,,,,,,,0,0,0,0,0.0,0.0,0.0,0.0,2.26,,,0,0,0,0,0,0,0,0,0,0,0,0,0,0,0,0,0,,,,,39.240097,-77.964836,0.0,33,3,0.8
877853,1745091041534,0.0,202.49,,-0.04,-0.02,0.95,0,-0,0,0.95,1.24,77,3329,6.0,3.62,,12.77,1.12,97.0,,28.0,5,,,,,,,,,,,,0,0,0,0,0,0,0,0,0,0,0,0,0,0,0,0,,,,,0.0,,,,,,
877873,1745091041554,,,,,,,,,,,,,,,,,,,,,,,,,,,,,,,,,,0,0,0,0,0,0,0,0,0,0,0,0,0,0,0,0,,,,,,,,,,,
877893,1745091041574,0.0,202.36,,-0.03,-0.06,1.03,-0,-0,0,1.03,1.24,83,3280,5.9,3.64,,12.77,1.12,97.0,,28.0,5,,,,,,,,,,,,0,0,0,0,0,0,0,0,0,0,0,0,0,0,0,0,,,,,0.0,,,,,,
877913,1745091041594,,,,,,,,,,,,,,,,,,,,,,,,,,,,,,,,,,0,0,0,0,0,0,0,0,0,0,0,0,0,0,0,0,,,,,,,,,,,
877933,1745091041614,0.0,202.36,,-0.05,-0.08,0.98,0,-0,-0,0.98,1.24,79,3280,5.9,3.64,,12.68,1.078,97.0,,27.2,5,0,0,0,0,0.0,0.0,0.0,0.0,2.26,,,0,0,0,0,0,0,0,0,0,0,0,0,0,0,0,0,0,,,,0.0,39.240097,-77.964836,0.04,33,3,0.8
877953,1745091041634,,,,,,,,,,,,,,,,,,,,,,,,,,,,,,,,,,0,0,0,0,0,0,0,0,0,0,0,0,0,0,0,0,,,,,,,,,,,
877973,1745091041654,0.0,202.36,,-0.04,-0.01,0.97,-0,-0,0,0.97,1.24,78,0,5.9,3.62,,12.71,1.117,97.0,,27.2,5,,,,,,,,,,,,0,0,0,0,0,0,0,0,0,0,0,0,0,0,0,0,,,,,0.0,,,,,,
877993,1745091041674,,,,,,,,,,,,,,,,,,,,,,,,,,,,,,,,,,0,0,0,0,0,0,0,0,0,0,0,0,0,0,0,0,,,,,,,,,,,
878013,1745091041694,0.0,202.36,,-0.03,-0.03,1.02,-0,-0,0,1.02,1.24,82,3158,5.8,3.63,,12.76,1.164,97.0,,27.2,5,,,,,,,,,,,,0,0,0,0,0,0,0,0,0,0,0,0,0,0,0,0,,,,,0.0,,,,,,
878033,1745091041714,,,,,,,,,,,,,,,,,,,,,,,0,0,0,0,0.0,0.0,0.0,0.0,2.26,,,0,0,0,0,0,0,0,0,0,0,0,0,0,0,0,0,0,,,,,39.240097,-77.964836,0.0,33,3,0.8
878053,1745091041734,0.0,202.36,,-0.06,-0.08,1.07,0,-0,0,1.08,1.24,87,3182,5.8,3.64,,12.83,1.222,97.0,,25.9,5,,,,,,,,,,,,0,0,0,0,0,0,0,0,0,0,0,0,0,0,0,0,,,,,0.0,,,,,,
878073,1745091041754,,,,,,,,,,,,,,,,,,,,,,,,,,,,,,,,,,0,0,0,0,0,0,0,0,0,0,0,0,0,0,0,0,,,,,,,,,,,
878093,1745091041774,0.0,202.36,,-0.08,-0.11,1.04,0,-0,-0,1.05,1.24,85,3112,5.8,3.63,,12.83,1.222,97.0,,25.9,5,,,,,,,,,,,,0,0,0,0,0,0,0,0,0,0,0,0,0,0,0,0,,,,,0.0,,,,,,
878113,1745091041794,,,,,,,,,,,,,,,,,,,,,,,,,,,,,,,,,,0,0,0,0,0,0,0,0,0,0,0,0,0,0,0,0,,,,,,,,,,,
878133,1745091041816,0.0,202.36,,-0.08,-0.11,0.95,1,-0,-1,0.96,1.24,77,3112,5.8,3.63,,12.77,1.22,97.0,,25.4,5,0,0,0,0,0.0,0.0,0.0,0.0,2.26,,,0,0,0,0,0,0,0,0,0,0,0,0,0,0,0,0,0,,,,0.0,39.240097,-77.964836,0.05,33,3,0.8
878153,1745091041836,,,,,,,,,,,,,,,,,,,,,,,,,,,,,,,,,,0,0,0,0,0,0,0,0,0,0,0,0,0,0,0,0,,,,,,,,,,,
878173,1745091041856,0.0,202.24,,-0.07,-0.05,0.87,1,-0,-1,0.87,1.24,70,3029,5.8,3.65,,12.89,1.237,97.0,,25.4,5,,,,,,,,,,,,0,0,0,0,0,0,0,0,0,0,0,0,0,0,0,0,,,,,0.0,,,,,,
878193,1745091041876,,,,,,,,,,,,,,,,,,,,,,,,,,,,,,,,,,0,0,0,0,0,0,0,0,0,0,0,0,0,0,0,0,,,,,,,,,,,
878213,1745091041896,0.0,202.24,,-0.06,-0.01,0.83,1,-0,-1,0.83,1.24,67,3054,5.8,3.65,,12.89,1.251,97.0,,25.4,5,,,,,,,,,,,,0,0,0,0,0,0,0,0,0,0,0,0,0,0,0,0,,,,,0.0,,,,,,
878233,1745091041916,,,,,,,,,,,,,,,,,,,,,,,0,0,0,0,0.0,0.0,0.0,0.0,2.26,,,0,0,0,0,0,0,0,0,0,0,0,0,0,0,0,0,0,,,,,39.240097,-77.964836,0.07,33,3,0.8
878253,1745091041936,0.0,202.24,,-0.04,0.06,0.8,1,-1,-0,0.8,1.24,65,3068,5.9,3.64,,12.95,1.239,97.0,,24.6,5,,,,,,,,,,,,0,0,0,0,0,0,0,0,0,0,0,0,0,0,0,0,,,,,0.0,,,,,,
878273,1745091041956,,,,,,,,,,,,,,,,,,,,,,,,,,,,,,,,,,0,0,0,0,0,0,0,0,0,0,0,0,0,0,0,0,,,,,,,,,,,
878293,1745091041976,0.0,202.36,,-0.03,0.07,0.85,0,-1,0,0.86,1.24,69,3186,5.9,3.65,,12.95,1.239,97.0,,24.6,5,,,,,,,,,,,,0,0,0,0,0,0,0,0,0,0,0,0,0,0,0,0,,,,,0.0,,,,,,
878313,1745091041996,,,,,,,,,,,,,,,,,,,,,,,,,,,,,,,,,,0,0,0,0,0,0,0,0,0,0,0,0,0,0,0,0,,,,,,,,,,,
878333,1745091042010,0.0,202.36,,-0.04,-0.04,0.86,1,-0,-0,0.86,1.24,70,3186,5.9,3.65,,12.92,1.226,97.0,,27.3,5,0,0,0,0,0.0,0.0,0.0,0.0,2.26,,,0,0,0,0,0,0,0,0,0,0,0,0,0,0,0,0,0,,,,0.0,39.240097,-77.964836,0.0,33,3,0.8
878353,1745091042030,,,,,,,,,,,,,,,,,,,,,,,,,,,,,,,,,,0,0,0,0,0,0,0,0,0,0,0,0,0,0,0,0,,,,,,,,,,,
878373,1745091042050,0.0,202.24,,-0.04,0.06,0.87,-0,-1,0,0.87,1.24,70,3358,5.9,3.64,,12.81,1.239,97.0,,27.3,5,,,,,,,,,,,,0,0,0,0,0,0,0,0,0,0,0,0,0,0,0,0,,,,,0.0,,,,,,
878393,1745091042070,,,,,,,,,,,,,,,,,,,,,,,,,,,,,,,,,,0,0,0,0,0,0,0,0,0,0,0,0,0,0,0,0,,,,,,,,,,,
878413,1745091042090,0.0,202.36,,-0.05,-0.05,0.9,0,-0,-0,0.9,1.24,73,3319,6.0,3.64,,12.77,1.204,97.0,,27.3,5,,,,,,,,,,,,0,0,0,0,0,0,0,0,0,0,0,0,0,0,0,0,,,,,0.0,,,,,,
878433,1745091042118,,,,,,,,,,,,,,,,,,,,,,,0,0,0,0,0.0,0.0,0.0,0.0,2.26,,,0,0,0,0,0,0,0,0,0,0,0,0,0,0,0,0,0,,,,,39.240097,-77.964836,0.06,33,3,0.8
878453,1745091042138,0.0,202.36,,-0.03,-0.0,0.94,-0,-0,0,0.94,1.24,75,3409,5.9,3.64,,12.79,1.163,97.0,,27.6,5,,,,,,,,,,,,0,0,0,0,0,0,0,0,0,0,0,0,0,0,0,0,,,,,0.0,,,,,,
878473,1745091042158,,,,,,,,,,,,,,,,,,,,,,,,,,,,,,,,,,0,0,0,0,0,0,0,0,0,0,0,0,0,0,0,0,,,,,,,,,,,
878493,1745091042178,0.0,202.36,,-0.02,-0.03,0.88,0,-1,-0,0.88,1.24,71,3573,5.7,3.63,,12.79,1.163,97.0,,27.6,5,,,,,,,,,,,,0,0,0,0,0,0,0,0,0,0,0,0,0,0,0,0,,,,,0.0,,,,,,
878513,1745091042198,,,,,,,,,,,,,,,,,,,,,,,,,,,,,,,,,,0,0,0,0,0,0,0,0,0,0,0,0,0,0,0,0,,,,,,,,,,,
878533,1745091042218,0.0,202.36,,-0.06,-0.11,0.92,0,-0,-0,0.92,1.24,74,3573,5.7,3.63,,12.71,1.156,97.0,,29.0,5,0,0,0,0,0.0,0.0,0.0,0.0,2.26,,,0,0,0,0,0,0,0,0,0,0,0,0,0,0,0,0,0,,,,0.0,39.240097,-77.964836,0.0,33,3,0.8
878553,1745091042238,,,,,,,,,,,,,,,,,,,,,,,,,,,,,,,,,,0,0,0,0,0,0,0,0,0,0,0,0,0,0,0,0,,,,,,,,,,,
878573,1745091042258,0.0,202.36,,-0.04,-0.07,0.95,-0,-0,0,0.95,1.24,76,3501,5.8,3.63,,12.64,1.115,97.0,,29.0,5,,,,,,,,,,,,0,0,0,0,0,0,0,0,0,0,0,0,0,0,0,0,,,,,0.0,,,,,,
878593,1745091042278,,,,,,,,,,,,,,,,,,,,,,,,,,,,,,,,,,0,0,0,0,0,0,0,0,0,0,0,0,0,0,0,0,,,,,,,,,,,
878613,1745091042298,0.0,202.36,,-0.04,-0.08,0.91,0,-0,-0,0.91,1.24,73,3462,5.7,3.62,,12.63,1.116,97.0,,29.0,5,,,,,,,,,,,,0,0,0,0,0,0,0,0,0,0,0,0,0,0,0,0,,,,,0.0,,,,,,
878633,1745091042318,,,,,,,,,,,,,,,,,,,,,,,0,0,0,0,0.0,0.0,0.0,0.0,2.26,,,0,0,0,0,0,0,0,0,0,0,0,0,0,0,0,0,0,,,,,39.240097,-77.964836,0.0,33,3,0.8
878653,1745091042338,0.0,202.49,,-0.05,-0.05,0.98,-0,-0,0,0.99,1.24,79,3384,5.7,3.62,,12.69,1.115,97.0,,28.2,5,,,,,,,,,,,,0,0,0,0,0,0,0,0,0,0,0,0,0,0,0,0,,,,,0.0,,,,,,
878673,1745091042358,,,,,,,,,,,,,,,,,,,,,,,,,,,,,,,,,,0,0,0,0,0,0,0,0,0,0,0,0,0,0,0,0,,,,,,,,,,,
878693,1745091042378,0.0,202.49,,-0.05,-0.04,0.92,1,-0,-0,0.93,1.24,74,3350,5.9,3.62,,12.69,1.115,97.0,,28.2,5,,,,,,,,,,,,0,0,0,0,0,0,0,0,0,0,0,0,0,0,0,0,,,,,0.0,,,,,,
878713,1745091042398,,,,,,,,,,,,,,,,,,,,,,,,,,,,,,,,,,0,0,0,0,0,0,0,0,0,0,0,0,0,0,0,0,,,,,,,,,,,
878733,1745091042418,0.0,202.49,13.17,-0.03,0.0,0.98,0,-0,0,0.98,1.24,79,3350,5.9,3.62,15,12.68,1.11,97.0,169,27.5,5,0,0,0,0,0.0,0.0,0.0,0.0,2.26,0,0.0,0,0,0,0,0,0,0,0,0,0,0,0,0,0,0,0,0,0.0,0,-0,0.0,39.240097,-77.964836,0.39,33,3,0.8
878753,1745091042438,,,,,,,,,,,,,,,,,,,,,,,,,,,,,,,,,,0,0,0,0,0,0,0,0,0,0,0,0,0,0,0,0,,,,,,,,,,,
878773,1745091042458,0.0,202.49,,-0.05,-0.07,0.99,1,-0,-0,1.0,1.24,80,3284,5.9,3.64,,12.69,1.126,97.0,,27.5,5,,,,,,,,,,,,0,0,0,0,0,0,0,0,0,0,0,0,0,0,0,0,,,,,0.0,,,,,,
878793,1745091042478,,,,,,,,,,,,,,,,,,,,,,,,,,,,,,,,,,0,0,0,0,0,0,0,0,0,0,0,0,0,0,0,0,,,,,,,,,,,
878813,1745091042498,0.0,202.49,,-0.04,0.03,0.94,1,-0,-0,0.94,1.24,76,3248,5.9,3.62,,12.76,1.143,97.0,,27.5,5,,,,,,,,,,,,0,0,0,0,0,0,0,0,0,0,0,0,0,0,0,0,,,,,0.0,,,,,,
878833,1745091042513,,,,,,,,,,,,,,,,,,,,,,,0,0,0,0,0.0,0.0,0.0,0.0,2.26,,,0,0,0,0,0,0,0,0,0,0,0,0,0,0,0,0,0,,,,,39.240097,-77.964836,0.42,33,3,0.8
878853,1745091042533,0.0,202.49,,-0.06,-0.04,0.95,1,-0,-1,0.95,1.24,77,3501,5.9,3.63,,12.71,1.183,97.0,,27.4,5,,,,,,,,,,,,0,0,0,0,0,0,0,0,0,0,0,0,0,0,0,0,,,,,0.0,,,,,,
878873,1745091042553,,,,,,,,,,,,,,,,,,,,,,,,,,,,,,,,,,0,0,0,0,0,0,0,0,0,0,0,0,0,0,0,0,,,,,,,,,,,
878893,1745091042573,0.0,202.49,,-0.03,0.1,0.97,-0,-0,0,0.98,1.24,79,3416,5.9,3.63,,12.71,1.183,97.0,,27.4,5,,,,,,,,,,,,0,0,0,0,0,0,0,0,0,0,0,0,0,0,0,0,,,,,0.0,,,,,,
878913,1745091042593,,,,,,,,,,,,,,,,,,,,,,,,,,,,,,,,,,0,0,0,0,0,0,0,0,0,0,0,0,0,0,0,0,,,,,,,,,,,
878933,1745091042615,0.0,202.36,,-0.04,-0.02,0.93,1,-0,-0,0.93,1.24,75,3416,5.9,3.63,,12.72,1.222,97.0,,28.5,5,0,0,0,0,0.0,0.0,0.0,0.0,2.26,,,0,0,0,0,0,0,0,0,0,0,0,0,0,0,0,0,0,,,,0.0,39.240097,-77.964836,0.13,33,3,0.8
878953,1745091042635,,,,,,,,,,,,,,,,,,,,,,,,,,,,,,,,,,0,0,0,0,0,0,0,0,0,0,0,0,0,0,0,0,,,,,,,,,,,
878973,1745091042655,0.0,202.36,,-0.04,0.06,0.95,0,-0,0,0.95,1.24,76,3394,5.8,3.63,,12.75,1.165,97.0,,28.5,5,,,,,,,,,,,,0,0,0,0,0,0,0,0,0,0,0,0,0,0,0,0,,,,,0.0,,,,,,
878993,1745091042675,,,,,,,,,,,,,,,,,,,,,,,,,,,,,,,,,,0,0,0,0,0,0,0,0,0,0,0,0,0,0,0,0,,,,,,,,,,,
879013,1745091042695,0.0,202.36,,-0.06,-0.03,0.96,1,-0,-0,0.96,1.24,78,3288,5.8,3.62,,12.72,1.138,97.0,,28.5,5,,,,,,,,,,,,0,0,0,0,0,0,0,0,0,0,0,0,0,0,0,0,,,,,0.0,,,,,,
879033,1745091042715,,,,,,,,,,,,,,,,,,,,,,,0,0,0,0,0.0,0.0,0.0,0.0,2.26,,,0,0,0,0,0,0,0,0,0,0,0,0,0,0,0,0,0,,,,,39.240097,-77.964836,0.13,33,3,0.8
879053,1745091042735,0.0,202.49,,-0.05,0.03,0.91,1,-1,-0,0.91,1.24,73,3284,5.7,3.64,,12.77,1.122,97.0,,27.7,5,,,,,,,,,,,,0,0,0,0,0,0,0,0,0,0,0,0,0,0,0,0,,,,,0.0,,,,,,
879073,1745091042755,,,,,,,,,,,,,,,,,,,,,,,,,,,,,,,,,,0,0,0,0,0,0,0,0,0,0,0,0,0,0,0,0,,,,,,,,,,,
879093,1745091042775,0.0,202.49,,-0.05,-0.0,0.99,0,-0,-0,0.99,1.24,80,3321,5.7,3.63,,12.77,1.122,97.0,,27.7,5,,,,,,,,,,,,0,0,0,0,0,0,0,0,0,0,0,0,0,0,0,0,,,,,0.0,,,,,,
879113,1745091042795,,,,,,,,,,,,,,,,,,,,,,,,,,,,,,,,,,0,0,0,0,0,0,0,0,0,0,0,0,0,0,0,0,,,,,,,,,,,
879133,1745091042817,0.0,202.49,,-0.06,-0.05,0.94,1,-0,-0,0.94,1.24,76,3321,5.7,3.63,,12.71,1.139,97.0,,27.2,5,0,0,0,0,0.0,0.0,0.0,0.0,2.26,,,0,0,0,0,0,0,0,0,0,0,0,0,0,0,0,0,0,,,,0.0,39.240097,-77.964836,0.0,33,3,0.8
879153,1745091042837,,,,,,,,,,,,,,,,,,,,,,,,,,,,,,,,,,0,0,0,0,0,0,0,0,0,0,0,0,0,0,0,0,,,,,,,,,,,
879173,1745091042857,0.0,202.49,,-0.04,0.01,0.95,-0,-0,0,0.95,1.24,76,3257,5.7,3.62,,12.8,1.157,97.0,,27.2,5,,,,,,,,,,,,0,0,0,0,0,0,0,0,0,0,0,0,0,0,0,0,,,,,0.0,,,,,,
879193,1745091042877,,,,,,,,,,,,,,,,,,,,,,,,,,,,,,,,,,0,0,0,0,0,0,0,0,0,0,0,0,0,0,0,0,,,,,,,,,,,
879213,1745091042897,0.0,202.49,,-0.05,-0.04,1.02,0,-0,-0,1.02,1.24,82,3272,5.8,3.64,,12.79,1.172,97.0,,27.2,5,,,,,,,,,,,,0,0,0,0,0,0,0,0,0,0,0,0,0,0,0,0,,,,,0.0,,,,,,
879233,1745091042919,,,,,,,,,,,,,,,,,,,,,,,0,0,0,0,0.0,0.0,0.0,0.0,2.26,,,0,0,0,0,0,0,0,0,0,0,0,0,0,0,0,0,0,,,,,39.240097,-77.964836,0.04,33,3,0.8
879253,1745091042939,0.0,202.36,,-0.07,-0.07,0.94,1,-0,-1,0.94,1.24,76,3250,5.9,3.62,,12.75,1.181,97.0,,26.9,5,,,,,,,,,,,,0,0,0,0,0,0,0,0,0,0,0,0,0,0,0,0,,,,,0.0,,,,,,
879273,1745091042959,,,,,,,,,,,,,,,,,,,,,,,,,,,,,,,,,,0,0,0,0,0,0,0,0,0,0,0,0,0,0,0,0,,,,,,,,,,,
879293,1745091042979,0.0,202.36,,-0.04,0.01,0.95,0,-1,0,0.95,1.24,76,3215,5.9,3.63,,12.75,1.181,97.0,,26.9,5,,,,,,,,,,,,0,0,0,0,0,0,0,0,0,0,0,0,0,0,0,0,,,,,0.0,,,,,,
879313,1745091042999,,,,,,,,,,,,,,,,,,,,,,,,,,,,,,,,,,0,0,0,0,0,0,0,0,0,0,0,0,0,0,0,0,,,,,,,,,,,
879333,1745091043011,0.0,202.36,,-0.04,-0.04,1.01,0,-0,0,1.01,1.24,82,3215,5.9,3.63,,12.79,1.183,97.0,,26.5,5,0,0,0,0,0.0,0.0,0.0,0.0,2.26,,,0,0,0,0,0,0,0,0,0,0,0,0,0,0,0,0,0,,,,0.0,39.240097,-77.964836,0.04,33,3,0.8
879353,1745091043031,,,,,,,,,,,,,,,,,,,,,,,,,,,,,,,,,,0,0,0,0,0,0,0,0,0,0,0,0,0,0,0,0,,,,,,,,,,,
879373,1745091043051,0.0,202.36,,-0.05,-0.02,0.96,1,-0,-0,0.96,1.24,77,3223,6.0,3.65,,12.79,1.191,97.0,,26.5,5,,,,,,,,,,,,0,0,0,0,0,0,0,0,0,0,0,0,0,0,0,0,,,,,0.0,,,,,,
879393,1745091043071,,,,,,,,,,,,,,,,,,,,,,,,,,,,,,,,,,0,0,0,0,0,0,0,0,0,0,0,0,0,0,0,0,,,,,,,,,,,
879413,1745091043091,0.0,202.36,,-0.07,-0.02,1.01,-0,-0,-0,1.01,1.24,82,3433,5.9,3.63,,12.79,1.236,97.0,,26.5,5,,,,,,,,,,,,0,0,0,0,0,0,0,0,0,0,0,0,0,0,0,0,,,,,0.0,,,,,,
879433,1745091043117,,,,,,,,,,,,,,,,,,,,,,,0,0,0,0,0.0,0.0,0.0,0.0,2.26,,,0,0,0,0,0,0,0,0,0,0,0,0,0,0,0,0,0,,,,,39.240097,-77.964836,0.05,33,3,0.8
879453,1745091043137,0.0,202.36,,-0.03,0.04,1.01,-1,-1,0,1.01,1.24,81,3494,5.8,3.63,,12.72,1.197,97.0,,28.8,5,,,,,,,,,,,,0,0,0,0,0,0,0,0,0,0,0,0,0,0,0,0,,,,,0.0,,,,,,
879473,1745091043157,,,,,,,,,,,,,,,,,,,,,,,,,,,,,,,,,,0,0,0,0,0,0,0,0,0,0,0,0,0,0,0,0,,,,,,,,,,,
879493,1745091043177,0.0,202.36,,-0.03,0.04,0.96,-0,-1,0,0.96,1.24,77,3594,5.7,3.62,,12.72,1.197,97.0,,28.8,5,,,,,,,,,,,,0,0,0,0,0,0,0,0,0,0,0,0,0,0,0,0,,,,,0.0,,,,,,
879513,1745091043197,,,,,,,,,,,,,,,,,,,,,,,,,,,,,,,,,,0,0,0,0,0,0,0,0,0,0,0,0,0,0,0,0,,,,,,,,,,,
879533,1745091043213,0.0,202.36,,-0.06,-0.04,0.96,0,-0,-0,0.97,1.24,78,3594,5.7,3.62,,12.64,1.119,97.0,,30.1,5,0,0,0,0,0.0,0.0,0.0,0.0,2.26,,,0,0,0,0,0,0,0,0,0,0,0,0,0,0,0,0,0,,,,0.0,39.240097,-77.964836,0.04,33,3,0.8
879553,1745091043233,,,,,,,,,,,,,,,,,,,,,,,,,,,,,,,,,,0,0,0,0,0,0,0,0,0,0,0,0,0,0,0,0,,,,,,,,,,,
879573,1745091043253,0.0,202.36,,-0.06,-0.01,1.0,-1,-0,0,1.0,1.24,80,3548,5.7,3.61,,12.63,1.074,97.0,,30.1,5,,,,,,,,,,,,0,0,0,0,0,0,0,0,0,0,0,0,0,0,0,0,,,,,0.0,,,,,,
879593,1745091043273,,,,,,,,,,,,,,,,,,,,,,,,,,,,,,,,,,0,0,0,0,0,0,0,0,0,0,0,0,0,0,0,0,,,,,,,,,,,
879613,1745091043293,0.0,202.49,,-0.05,0.04,0.98,-0,-0,0,0.98,1.24,79,3522,5.7,3.61,,12.57,1.092,97.0,,30.1,5,,,,,,,,,,,,0,0,0,0,0,0,0,0,0,0,0,0,0,0,0,0,,,,,0.0,,,,,,
879633,1745091043317,,,,,,,,,,,,,,,,,,,,,,,0,0,0,0,0.0,0.0,0.0,0.0,2.26,,,0,0,0,0,0,0,0,0,0,0,0,0,0,0,0,0,0,,,,,39.240097,-77.964836,0.05,33,3,0.8
879653,1745091043337,0.0,202.36,,-0.07,-0.07,0.95,0,-0,-0,0.96,1.24,77,3453,5.7,3.6,,12.63,1.103,97.0,,28.9,5,,,,,,,,,,,,0,0,0,0,0,0,0,0,0,0,0,0,0,0,0,0,,,,,0.0,,,,,,
879673,1745091043357,,,,,,,,,,,,,,,,,,,,,,,,,,,,,,,,,,0,0,0,0,0,0,0,0,0,0,0,0,0,0,0,0,,,,,,,,,,,
879693,1745091043377,0.0,202.36,,-0.08,-0.05,0.99,-0,-0,0,1.0,1.24,80,3431,5.8,3.62,,12.63,1.103,97.0,,28.9,5,,,,,,,,,,,,0,0,0,0,0,0,0,0,0,0,0,0,0,0,0,0,,,,,0.0,,,,,,
879713,1745091043397,,,,,,,,,,,,,,,,,,,,,,,,,,,,,,,,,,0,0,0,0,0,0,0,0,0,0,0,0,0,0,0,0,,,,,,,,,,,
879733,1745091043417,0.0,202.36,13.19,-0.05,-0.05,0.95,0,-1,-0,0.96,1.24,77,3431,5.8,3.62,15,12.67,1.121,97.0,169,29.9,5,0,0,0,0,0.0,0.0,0.0,0.0,2.26,0,0.0,0,0,0,0,0,0,0,0,0,0,0,0,0,0,0,0,0,0.0,0,0,0.0,39.240097,-77.964836,0.0,33,3,0.8
879753,1745091043437,,,,,,,,,,,,,,,,,,,,,,,,,,,,,,,,,,0,0,0,0,0,0,0,0,0,0,0,0,0,0,0,0,,,,,,,,,,,
879773,1745091043457,0.0,202.36,,-0.06,-0.07,0.95,0,-0,-0,0.95,1.24,77,3546,5.9,3.6,,12.61,1.204,97.0,,29.9,5,,,,,,,,,,,,0,0,0,0,0,0,0,0,0,0,0,0,0,0,0,0,,,,,0.0,,,,,,
879793,1745091043477,,,,,,,,,,,,,,,,,,,,,,,,,,,,,,,,,,0,0,0,0,0,0,0,0,0,0,0,0,0,0,0,0,,,,,,,,,,,
879813,1745091043497,0.0,202.36,,-0.07,-0.12,0.94,1,-0,-0,0.95,1.24,77,3628,5.9,3.61,,12.6,1.207,97.0,,29.9,5,,,,,,,,,,,,0,0,0,0,0,0,0,0,0,0,0,0,0,0,0,0,,,,,0.0,,,,,,
879833,1745091043516,,,,,,,,,,,,,,,,,,,,,,,0,0,0,0,0.0,0.0,0.0,0.0,2.26,,,0,0,0,0,0,0,0,0,0,0,0,0,0,0,0,0,0,,,,,39.240097,-77.964836,0.05,33,3,0.8
879853,1745091043536,0.0,202.36,,-0.08,-0.12,0.96,-0,-0,-0,0.97,1.24,78,3608,5.9,3.6,,12.57,1.138,97.0,,30.5,5,,,,,,,,,,,,0,0,0,0,0,0,0,0,0,0,0,0,0,0,0,0,,,,,0.0,,,,,,
879873,1745091043556,,,,,,,,,,,,,,,,,,,,,,,,,,,,,,,,,,0,0,0,0,0,0,0,0,0,0,0,0,0,0,0,0,,,,,,,,,,,
879893,1745091043576,0.0,202.36,,-0.06,-0.07,1.0,-0,-0,0,1.0,1.24,81,3568,5.9,3.61,,12.57,1.138,97.0,,30.5,5,,,,,,,,,,,,0,0,0,0,0,0,0,0,0,0,0,0,0,0,0,0,,,,,0.0,,,,,,
879913,1745091043596,,,,,,,,,,,,,,,,,,,,,,,,,,,,,,,,,,0,0,0,0,0,0,0,0,0,0,0,0,0,0,0,0,,,,,,,,,,,
879933,1745091043614,0.0,202.36,,-0.04,-0.08,0.95,-0,-1,-0,0.95,1.24,76,3568,5.9,3.61,,12.53,1.084,97.0,,29.4,5,0,0,0,0,0.0,0.0,0.0,0.0,2.27,,,0,0,0,0,0,0,0,0,0,0,0,0,0,0,0,0,0,,,,0.0,39.240097,-77.964836,0.0,33,3,0.8
879953,1745091043634,,,,,,,,,,,,,,,,,,,,,,,,,,,,,,,,,,0,0,0,0,0,0,0,0,0,0,0,0,0,0,0,0,,,,,,,,,,,
879973,1745091043654,0.0,202.36,,-0.07,-0.17,0.98,0,-0,-0,0.99,1.24,80,3492,5.8,3.62,,12.6,1.063,97.0,,29.4,5,,,,,,,,,,,,0,0,0,0,0,0,0,0,0,0,0,0,0,0,0,0,,,,,0.0,,,,,,
879993,1745091043674,,,,,,,,,,,,,,,,,,,,,,,,,,,,,,,,,,0,0,0,0,0,0,0,0,0,0,0,0,0,0,0,0,,,,,,,,,,,
880013,1745091043694,0.0,202.36,,-0.04,-0.07,0.98,-1,-0,0,0.99,1.24,79,3453,5.7,3.62,,12.67,1.092,97.0,,29.4,5,,,,,,,,,,,,0,0,0,0,0,0,0,0,0,0,0,0,0,0,0,0,,,,,0.0,,,,,,
880033,1745091043714,,,,,,,,,,,,,,,,,,,,,,,0,0,0,0,0.0,0.0,0.0,0.0,2.26,,,0,0,0,0,0,0,0,0,0,0,0,0,0,0,0,0,0,,,,,39.240097,-77.964836,0.05,33,3,0.8
880053,1745091043734,0.0,202.36,,-0.05,-0.13,0.95,0,-0,-0,0.96,1.24,78,3374,5.7,3.62,,12.65,1.107,97.0,,28.5,5,,,,,,,,,,,,0,0,0,0,0,0,0,0,0,0,0,0,0,0,0,0,,,,,0.0,,,,,,
880073,1745091043754,,,,,,,,,,,,,,,,,,,,,,,,,,,,,,,,,,0,0,0,0,0,0,0,0,0,0,0,0,0,0,0,0,,,,,,,,,,,
880093,1745091043774,0.0,202.36,,-0.05,-0.04,0.97,-1,-1,0,0.97,1.24,78,3348,5.7,3.62,,12.65,1.107,97.0,,28.5,5,,,,,,,,,,,,0,0,0,0,0,0,0,0,0,0,0,0,0,0,0,0,,,,,0.0,,,,,,
880113,1745091043794,,,,,,,,,,,,,,,,,,,,,,,,,,,,,,,,,,0,0,0,0,0,0,0,0,0,0,0,0,0,0,0,0,,,,,,,,,,,
880133,1745091043818,0.0,202.36,,-0.07,-0.12,0.98,-0,-0,-0,0.99,1.24,80,3348,5.7,3.62,,12.75,1.144,97.0,,27.4,5,0,0,0,0,0.0,0.0,0.0,0.0,2.26,,,0,0,0,0,0,0,0,0,0,0,0,0,0,0,0,0,0,,,,0.0,39.240097,-77.964836,0.04,33,3,0.8
880153,1745091043838,,,,,,,,,,,,,,,,,,,,,,,,,,,,,,,,,,0,0,0,0,0,0,0,0,0,0,0,0,0,0,0,0,,,,,,,,,,,
880173,1745091043858,0.0,202.36,,-0.06,-0.04,0.93,-0,-0,-0,0.93,1.24,75,3315,5.7,3.63,,12.68,1.145,97.0,,27.4,5,,,,,,,,,,,,0,0,0,0,0,0,0,0,0,0,0,0,0,0,0,0,,,,,0.0,,,,,,
880193,1745091043878,,,,,,,,,,,,,,,,,,,,,,,,,,,,,,,,,,0,0,0,0,0,0,0,0,0,0,0,0,0,0,0,0,,,,,,,,,,,
880213,1745091043898,0.0,202.24,,-0.05,-0.07,1.01,-1,-0,0,1.01,1.24,81,3273,5.8,3.62,,12.76,1.143,97.0,,27.4,5,,,,,,,,,,,,0,0,0,0,0,0,0,0,0,0,0,0,0,0,0,0,,,,,0.0,,,,,,
880233,1745091043918,,,,,,,,,,,,,,,,,,,,,,,0,0,0,0,0.0,0.0,0.0,0.0,2.26,,,0,0,0,0,0,0,0,0,0,0,0,0,0,0,0,0,0,,,,,39.240097,-77.964836,0.0,33,3,0.8
880253,1745091043938,0.0,202.24,,-0.06,-0.08,0.99,-0,-0,-0,0.99,1.24,80,3277,5.9,3.62,,12.73,1.151,97.0,,27.0,5,,,,,,,,,,,,0,0,0,0,0,0,0,0,0,0,0,0,0,0,0,0,,,,,0.0,,,,,,
880273,1745091043958,,,,,,,,,,,,,,,,,,,,,,,,,,,,,,,,,,0,0,0,0,0,0,0,0,0,0,0,0,0,0,0,0,,,,,,,,,,,
880293,1745091043978,0.0,202.36,,-0.05,-0.0,0.92,-0,-0,-0,0.92,1.24,74,3267,5.9,3.62,,12.73,1.151,97.0,,27.0,5,,,,,,,,,,,,0,0,0,0,0,0,0,0,0,0,0,0,0,0,0,0,,,,,0.0,,,,,,
880313,1745091043998,,,,,,,,,,,,,,,,,,,,,,,,,,,,,,,,,,0,0,0,0,0,0,0,0,0,0,0,0,0,0,0,0,,,,,,,,,,,
880333,1745091044010,0.0,202.36,,-0.04,-0.0,0.97,-0,-0,0,0.97,1.24,78,3267,5.9,3.62,,12.71,1.176,97.0,,26.7,5,0,0,0,0,0.0,0.0,0.0,0.0,2.26,,,0,0,0,0,0,0,0,0,0,0,0,0,0,0,0,0,0,,,,0.0,39.240097,-77.964836,0.04,33,3,0.8
880353,1745091044030,,,,,,,,,,,,,,,,,,,,,,,,,,,,,,,,,,0,0,0,0,0,0,0,0,0,0,0,0,0,0,0,0,,,,,,,,,,,
880373,1745091044050,0.0,202.24,,-0.06,-0.04,1.02,-0,-0,0,1.02,1.24,82,3213,5.9,3.64,,12.73,1.181,97.0,,26.7,5,,,,,,,,,,,,0,0,0,0,0,0,0,0,0,0,0,0,0,0,0,0,,,,,0.0,,,,,,
880393,1745091044070,,,,,,,,,,,,,,,,,,,,,,,,,,,,,,,,,,0,0,0,0,0,0,0,0,0,0,0,0,0,0,0,0,,,,,,,,,,,
880413,1745091044090,0.0,202.24,,-0.06,-0.05,0.93,0,-0,-0,0.94,1.24,75,3251,5.9,3.65,,12.76,1.187,97.0,,26.7,5,,,,,,,,,,,,0,0,0,0,0,0,0,0,0,0,0,0,0,0,0,0,,,,,0.0,,,,,,
880433,1745091044114,,,,,,,,,,,,,,,,,,,,,,,0,0,0,0,0.0,0.0,0.0,0.0,2.27,,,0,0,0,0,0,0,0,0,0,0,0,0,0,0,0,0,0,,,,,39.240097,-77.964836,0.0,33,3,0.8
880453,1745091044134,0.0,202.24,,-0.03,0.0,0.96,-0,-0,0,0.96,1.24,77,3243,5.8,3.64,,12.73,1.189,97.0,,26.4,5,,,,,,,,,,,,0,0,0,0,0,0,0,0,0,0,0,0,0,0,0,0,,,,,0.0,,,,,,
880473,1745091044154,,,,,,,,,,,,,,,,,,,,,,,,,,,,,,,,,,0,0,0,0,0,0,0,0,0,0,0,0,0,0,0,0,,,,,,,,,,,
880493,1745091044174,0.0,202.36,,-0.04,-0.04,1.02,-0,-0,0,1.03,1.24,82,3172,5.7,3.64,,12.73,1.189,97.0,,26.4,5,,,,,,,,,,,,0,0,0,0,0,0,0,0,0,0,0,0,0,0,0,0,,,,,0.0,,,,,,
880513,1745091044194,,,,,,,,,,,,,,,,,,,,,,,,,,,,,,,,,,0,0,0,0,0,0,0,0,0,0,0,0,0,0,0,0,,,,,,,,,,,
880533,1745091044212,0.0,202.36,,-0.06,-0.11,1.0,0,-0,-0,1.01,1.24,81,3172,5.7,3.64,,12.8,1.186,97.0,,26.3,5,0,0,0,0,0.0,0.0,0.0,0.0,2.26,,,0,0,0,0,0,0,0,0,0,0,0,0,0,0,0,0,0,,,,0.0,39.240097,-77.964836,0.04,33,3,0.8
880553,1745091044232,,,,,,,,,,,,,,,,,,,,,,,,,,,,,,,,,,0,0,0,0,0,0,0,0,0,0,0,0,0,0,0,0,,,,,,,,,,,
880573,1745091044252,0.0,202.36,,-0.05,-0.07,0.93,1,-0,-0,0.93,1.24,75,3246,5.7,3.45,,12.8,1.204,97.0,,26.3,5,,,,,,,,,,,,0,0,0,0,0,0,0,0,0,0,0,0,0,0,0,0,,,,,0.0,,,,,,
880593,1745091044272,,,,,,,,,,,,,,,,,,,,,,,,,,,,,,,,,,0,0,0,0,0,0,0,0,0,0,0,0,0,0,0,0,,,,,,,,,,,
880613,1745091044292,0.0,202.36,,-0.03,0.03,0.9,-0,-1,0,0.9,1.24,73,3109,5.7,3.65,,12.84,1.223,97.0,,26.3,5,,,,,,,,,,,,0,0,0,0,0,0,0,0,0,0,0,0,0,0,0,0,,,,,0.0,,,,,,
880633,1745091044318,,,,,,,,,,,,,,,,,,,,,,,0,0,0,0,0.0,0.0,0.0,0.0,2.26,,,0,0,0,0,0,0,0,0,0,0,0,0,0,0,0,0,0,,,,,39.240097,-77.964836,0.04,33,3,0.8
880653,1745091044338,0.0,202.24,,-0.03,0.05,0.93,-1,-1,1,0.94,1.24,75,3081,5.7,3.65,,12.88,1.241,97.0,,25.7,5,,,,,,,,,,,,0,0,0,0,0,0,0,0,0,0,0,0,0,0,0,0,,,,,0.0,,,,,,
880673,1745091044358,,,,,,,,,,,,,,,,,,,,,,,,,,,,,,,,,,0,0,0,0,0,0,0,0,0,0,0,0,0,0,0,0,,,,,,,,,,,
880693,1745091044378,0.0,202.24,,-0.03,-0.02,0.99,-1,-1,0,0.99,1.24,80,3081,5.8,3.66,,12.88,1.241,97.0,,25.7,5,,,,,,,,,,,,0,0,0,0,0,0,0,0,0,0,0,0,0,0,0,0,,,,,0.0,,,,,,
880713,1745091044398,,,,,,,,,,,,,,,,,,,,,,,,,,,,,,,,,,0,0,0,0,0,0,0,0,0,0,0,0,0,0,0,0,,,,,,,,,,,
880733,1745091044418,0.0,202.24,13.17,-0.02,-0.07,1.05,-0,-0,0,1.05,1.24,85,3081,5.8,3.66,15,12.92,1.229,97.0,169,24.8,5,0,0,0,0,0.0,0.0,0.0,0.0,2.26,0,0.0,0,0,0,0,0,0,0,0,0,0,0,0,0,0,0,0,0,0.0,0,0,0.0,39.240097,-77.964836,0.0,33,3,0.8
880753,1745091044438,,,,,,,,,,,,,,,,,,,,,,,,,,,,,,,,,,0,0,0,0,0,0,0,0,0,0,0,0,0,0,0,0,,,,,,,,,,,
880773,1745091044458,0.0,202.24,,-0.01,-0.07,1.09,-0,-0,0,1.09,1.24,88,3019,5.9,3.64,,12.93,1.217,97.0,,24.8,5,,,,,,,,,,,,0,0,0,0,0,0,0,0,0,0,0,0,0,0,0,0,,,,,0.0,,,,,,
880793,1745091044478,,,,,,,,,,,,,,,,,,,,,,,,,,,,,,,,,,0,0,0,0,0,0,0,0,0,0,0,0,0,0,0,0,,,,,,,,,,,
880813,1745091044498,0.0,202.24,,-0.0,-0.07,1.12,-0,-0,1,1.12,1.24,90,2939,6.0,3.67,,13.01,1.216,97.0,,24.8,5,,,,,,,,,,,,0,0,0,0,0,0,0,0,0,0,0,0,0,0,0,0,,,,,0.0,,,,,,
880833,1745091044515,,,,,,,,,,,,,,,,,,,,,,,0,0,0,0,0.0,0.0,0.0,0.0,2.26,,,0,0,0,0,0,0,0,0,0,0,0,0,0,0,0,0,0,,,,,39.240097,-77.964836,0.0,33,3,0.8
880853,1745091044535,0.0,202.24,,0.01,-0.08,1.12,-1,-0,1,1.12,1.24,90,2934,6.0,3.66,,13.05,1.222,97.0,,24.0,5,,,,,,,,,,,,0,0,0,0,0,0,0,0,0,0,0,0,0,0,0,0,,,,,0.0,,,,,,
880873,1745091044555,,,,,,,,,,,,,,,,,,,,,,,,,,,,,,,,,,0,0,0,0,0,0,0,0,0,0,0,0,0,0,0,0,,,,,,,,,,,
880893,1745091044575,0.0,202.24,,0.02,-0.06,1.11,-1,-1,1,1.11,1.24,89,2939,6.0,3.65,,13.05,1.222,97.0,,24.0,5,,,,,,,,,,,,0,0,0,0,0,0,0,0,0,0,0,0,0,0,0,0,,,,,0.0,,,,,,
880913,1745091044595,,,,,,,,,,,,,,,,,,,,,,,,,,,,,,,,,,0,0,0,0,0,0,0,0,0,0,0,0,0,0,0,0,,,,,,,,,,,
880933,1745091044613,0.0,202.24,,0.03,-0.02,1.08,-1,-1,1,1.08,1.24,87,2939,6.0,3.65,,13.05,1.216,97.0,,24.4,5,0,0,0,0,0.0,0.0,0.0,0.0,2.26,,,0,0,0,0,0,0,0,0,0,0,0,0,0,0,0,0,0,,,,0.0,39.240097,-77.964836,0.04,33,3,0.8
880953,1745091044633,,,,,,,,,,,,,,,,,,,,,,,,,,,,,,,,,,0,0,0,0,0,0,0,0,0,0,0,0,0,0,0,0,,,,,,,,,,,
880973,1745091044653,0.0,202.24,,0.04,0.03,1.05,-1,-1,1,1.05,1.24,84,2983,5.9,3.66,,13.03,1.194,97.0,,24.4,5,,,,,,,,,,,,0,0,0,0,0,0,0,0,0,0,0,0,0,0,0,0,,,,,0.0,,,,,,
880993,1745091044673,,,,,,,,,,,,,,,,,,,,,,,,,,,,,,,,,,0,0,0,0,0,0,0,0,0,0,0,0,0,0,0,0,,,,,,,,,,,
881013,1745091044693,0.0,202.24,,0.04,0.06,1.01,-1,-1,1,1.01,1.24,81,3006,5.7,3.67,,13.03,1.191,97.0,,24.4,5,,,,,,,,,,,,0,0,0,0,0,0,0,0,0,0,0,0,0,0,0,0,,,,,0.0,,,,,,
881033,1745091044715,,,,,,,,,,,,,,,,,,,,,,,0,0,0,0,0.0,0.0,0.0,0.0,2.26,,,0,0,0,0,0,0,0,0,0,0,0,0,0,0,0,0,0,,,,,39.240097,-77.964836,0.0,33,3,0.8
881053,1745091044735,0.0,202.24,,0.05,0.09,0.97,-1,-1,1,0.98,1.24,79,2958,5.7,3.67,,13.05,1.201,97.0,,24.1,5,,,,,,,,,,,,0,0,0,0,0,0,0,0,0,0,0,0,0,0,0,0,,,,,0.0,,,,,,
881073,1745091044755,,,,,,,,,,,,,,,,,,,,,,,,,,,,,,,,,,0,0,0,0,0,0,0,0,0,0,0,0,0,0,0,0,,,,,,,,,,,
881093,1745091044775,0.0,202.36,,0.05,0.12,0.93,-1,-1,1,0.94,1.24,76,2970,5.7,3.67,,13.05,1.201,97.0,,24.1,5,,,,,,,,,,,,0,0,0,0,0,0,0,0,0,0,0,0,0,0,0,0,,,,,0.0,,,,,,
881113,1745091044795,,,,,,,,,,,,,,,,,,,,,,,,,,,,,,,,,,0,0,0,0,0,0,0,0,0,0,0,0,0,0,0,0,,,,,,,,,,,
881133,1745091044817,0.0,202.36,,0.06,0.15,0.9,-1,-1,1,0.91,1.24,73,2970,5.7,3.67,,13.07,1.203,97.0,,24.7,5,0,0,0,0,0.0,0.0,0.0,0.0,2.26,,,0,0,0,0,0,0,0,0,0,0,0,0,0,0,0,0,0,,,,0.0,39.240097,-77.964836,0.12,33,3,0.8
881153,1745091044837,,,,,,,,,,,,,,,,,,,,,,,,,,,,,,,,,,0,0,0,0,0,0,0,0,0,0,0,0,0,0,0,0,,,,,,,,,,,
881173,1745091044857,0.0,202.49,,0.06,0.17,0.87,-1,-1,1,0.89,1.24,71,3013,5.7,3.66,,13.04,1.197,97.0,,24.7,5,,,,,,,,,,,,0,0,0,0,0,0,0,0,0,0,0,0,0,0,0,0,,,,,0.0,,,,,,
881193,1745091044877,,,,,,,,,,,,,,,,,,,,,,,,,,,,,,,,,,0,0,0,0,0,0,0,0,0,0,0,0,0,0,0,0,,,,,,,,,,,
881233,1745091044919,,,,,,,,,,,,,,,,,,,,,,,0,0,0,0,0.0,0.0,0.0,0.0,2.26,,,0,0,0,0,0,0,0,0,0,0,0,0,0,0,0,0,0,,,,,39.240097,-77.964836,0.04,33,3,0.8
881253,1745091044939,0.0,202.24,,0.06,0.21,0.84,-2,-1,1,0.86,1.24,69,3033,5.9,3.64,,13.0,1.189,97.0,,24.4,5,,,,,,,,,,,,0,0,0,0,0,0,0,0,0,0,0,0,0,0,0,0,,,,,0.0,,,,,,
881333,1745091045011,0.0,202.36,,0.05,0.2,0.86,-2,-1,2,0.88,1.24,71,2992,5.9,3.64,,13.05,1.185,97.0,,24.8,5,0,0,0,0,0.0,0.0,0.0,0.0,2.26,,,0,0,0,0,0,0,0,0,0,0,0,0,0,0,0,0,0,,,,0.0,39.240097,-77.964836,0.08,33,3,0.8
881833,1745091045514,,,,,,,,,,,,,,,,,,,,,,,0,0,0,0,0.0,0.0,0.0,0.0,2.26,,,0,0,0,0,0,0,0,0,0,0,0,0,0,0,0,0,0,,,,,39.240097,-77.964836,0.04,33,3,0.8
881853,1745091045534,0.0,202.49,,-0.02,0.12,0.73,-0,-1,0,0.74,1.24,60,3045,5.9,3.65,,12.96,1.196,97.0,,25.0,5,,,,,,,,,,,,0,0,0,0,0,0,0,0,0,0,0,0,0,0,0,0,,,,,0.0,,,,,,
881873,1745091045554,,,,,,,,,,,,,,,,,,,,,,,,,,,,,,,,,,0,0,0,0,0,0,0,0,0,0,0,0,0,0,0,0,,,,,,,,,,,
881893,1745091045574,0.0,202.36,,-0.0,0.1,0.79,-1,-1,1,0.8,1.24,64,3091,5.9,3.66,,12.96,1.196,97.0,,25.0,5,,,,,,,,,,,,0,0,0,0,0,0,0,0,0,0,0,0,0,0,0,0,,,,,0.0,,,,,,
881913,1745091045594,,,,,,,,,,,,,,,,,,,,,,,,,,,,,,,,,,0,0,0,0,0,0,0,0,0,0,0,0,0,0,0,0,,,,,,,,,,,
881933,1745091045614,0.0,202.36,,0.01,0.05,0.89,-1,-1,1,0.89,1.24,71,3091,5.9,3.66,,12.95,1.195,97.0,,25.2,5,0,0,0,0,0.0,0.0,0.0,0.0,2.26,,,0,0,0,0,0,0,0,0,0,0,0,0,0,0,0,0,0,,,,0.0,39.240097,-77.964836,0.11,33,3,0.8
881953,1745091045634,,,,,,,,,,,,,,,,,,,,,,,,,,,,,,,,,,0,0,0,0,0,0,0,0,0,0,0,0,0,0,0,0,,,,,,,,,,,
881973,1745091045654,0.0,202.36,,-0.01,-0.01,0.96,-0,-1,0,0.96,1.24,77,3099,5.9,3.66,,12.92,1.195,97.0,,25.2,5,,,,,,,,,,,,0,0,0,0,0,0,0,0,0,0,0,0,0,0,0,0,,,,,0.0,,,,,,
881993,1745091045674,,,,,,,,,,,,,,,,,,,,,,,,,,,,,,,,,,0,0,0,0,0,0,0,0,0,0,0,0,0,0,0,0,,,,,,,,,,,
882013,1745091045694,0.0,202.36,,-0.02,-0.02,0.92,0,-1,-0,0.92,1.24,74,3110,5.8,3.65,,12.91,1.199,97.0,,25.2,5,,,,,,,,,,,,0,0,0,0,0,0,0,0,0,0,0,0,0,0,0,0,,,,,0.0,,,,,,
882033,1745091045714,,,,,,,,,,,,,,,,,,,,,,,0,0,0,0,0.0,0.0,0.0,0.0,2.26,,,0,0,0,0,0,0,0,0,0,0,0,0,0,0,0,0,0,,,,,39.240097,-77.964836,0.04,33,3,0.8
882053,1745091045734,0.0,202.36,,-0.02,0.02,0.97,-1,-0,0,0.97,1.24,78,3394,5.7,3.65,,12.84,1.2,97.0,,25.8,5,,,,,,,,,,,,0,0,0,0,0,0,0,0,0,0,0,0,0,0,0,0,,,,,0.0,,,,,,
882073,1745091045754,,,,,,,,,,,,,,,,,,,,,,,,,,,,,,,,,,0,0,0,0,0,0,0,0,0,0,0,0,0,0,0,0,,,,,,,,,,,
882093,1745091045774,0.0,202.36,,-0.0,-0.0,0.93,-0,-1,0,0.93,1.24,75,3486,5.7,3.63,,12.84,1.2,97.0,,25.8,5,,,,,,,,,,,,0,0,0,0,0,0,0,0,0,0,0,0,0,0,0,0,,,,,0.0,,,,,,
882113,1745091045794,,,,,,,,,,,,,,,,,,,,,,,,,,,,,,,,,,0,0,0,0,0,0,0,0,0,0,0,0,0,0,0,0,,,,,,,,,,,
