"Interval"|"ms"|0|0|1,"Utc"|"ms"|0|0|1,"FrontBP"|"psi"|-5.0|5.0|25,"SteerAng"|"Degrees"|-145.0|145.0|25,"Battery"|"Volts"|-5.0|20.0|1,"AccelX"|"G"|-3.0|3.0|25,"AccelY"|"G"|-3.0|3.0|25,"AccelZ"|"G"|-3.0|3.0|25,"Yaw"|"Deg/Sec"|-120|120|25,"Pitch"|"Deg/Sec"|-120|120|25,"Roll"|"Deg/Sec"|-120|120|25,"Gsum"|"G"|0.0|3.0|25,"GsumMax"|"G"|0.0|3.0|25,"GsumPct"|"%"|0|100|25,"RPM"|""|0|10000|25,"TPS"|"%"|0.0|100.0|25,"InjectorPW"|"ms"|0.0|100.0|25,"Baro"|"kPa"|0|105|1,"MAP"|"Psi"|0.0|255.0|25,"Lambda"|""|-2.0|2.0|25,"IAT"|"C"|0.0|200.0|25,"EngineTemp"|"C"|0|200|1,"EOP"|"PSI"|0.0|152.0|25,"EOT"|"F"|0|250|25,"WSFR"|"MPH"|0|150|10,"WSFL"|"MPH"|0|100|10,"WSRR"|"MPH"|0|100|10,"WSRL"|""|0|100|10,"TCSet"|"%"|0.0|100.0|10,"TCSlip"|"%"|0.0|100.0|10,"TCComp"|"deg"|0.0|50.0|10,"TCCut"|"%"|0.0|100.0|10,"Analog8"|""|0.0|5.0|10,"OilTemp"|"F"|0|300|1,"AA_On"|""|0.0|1.0|1,"ThermLF1"|"C"|0|400|50,"ThermLF2"|"C"|0|400|50,"ThermRR1"|"C"|0|400|50,"ThermRR2"|"C"|0|400|50,"ThermLF3"|"C"|0|400|50,"ThermLF4"|"C"|0|400|50,"ThermLF5"|"C"|0|400|50,"ThermLF6"|"C"|0|400|50,"ThermLF7"|"C"|0|400|50,"ThermLF8"|"C"|0|400|50,"ThermRR3"|"C"|0|400|50,"ThermRR4"|"C"|0|400|50,"ThermRR5"|"C"|0|400|50,"ThermRR6"|"C"|0|400|50,"ThermRR7"|"C"|0|400|50,"ThermRR8"|"C"|0|400|50,"Gear"|""|1|6|10,"AA_On"|""|0.0|1.0|1,"AA_LowDrag"|""|0|1|1,"Fuel_Mix"|""|-10|10|1,"AA_Packages"|""|0.0|1000.0|25,"Latitude"|"Degrees"|-180.0|180.0|10,"Longitude"|"Degrees"|-180.0|180.0|10,"Speed"|"kph"|0.0|150.0|10,"GPSSats"|""|0|20|10,"GPSQual"|""|0|5|10,"GPSDOP"|""|0.0|20.0|10
1425053,1745091588734,0.0,200.35,,-0.04,-0.02,1.0,0,-0,0,1.0,1.0,100,4970,19.3,4.09,,12.77,1.248,102.4,,54.7,5,,,,,,,,,,,,0,0,0,0,0,0,0,0,0,0,0,0,0,0,0,0,,,,,0.0,,,,,,
1425073,1745091588754,,,,,,,,,,,,,,,,,,,,,,,,,,,,,,,,,,0,0,0,0,0,0,0,0,0,0,0,0,0,0,0,0,,,,,,,,,,,
1425093,1745091588774,0.0,200.23,,-0.03,-0.03,0.97,-0,-0,0,0.97,1.0,97,5064,19.4,4.09,,12.84,1.249,102.4,,54.7,5,,,,,,,,,,,,0,0,0,0,0,0,0,0,0,0,0,0,0,0,0,0,,,,,0.0,,,,,,
1425113,1745091588794,,,,,,,,,,,,,,,,,,,,,,,,,,,,,,,,,,0,0,0,0,0,0,0,0,0,0,0,0,0,0,0,0,,,,,,,,,,,
1425133,1745091588814,0.0,200.23,,-0.04,-0.04,0.99,0,-0,0,0.99,1.0,99,5204,19.3,4.09,,12.84,1.249,102.4,,54.7,5,0,0,0,0,0.0,0.0,0.0,0.0,2.27,,,0,0,0,0,0,0,0,0,0,0,0,0,0,0,0,0,0,,,,0.0,39.239891,-77.965652,0.0,33,3,0.8
1425153,1745091588834,,,,,,,,,,,,,,,,,,,,,,,,,,,,,,,,,,0,0,0,0,0,0,0,0,0,0,0,0,0,0,0,0,,,,,,,,,,,
1425173,1745091588854,0.0,200.23,,-0.05,-0.05,0.98,0,-0,0,0.99,1.0,99,5204,19.3,4.09,,12.72,1.235,102.4,,57.7,5,,,,,,,,,,,,0,0,0,0,0,0,0,0,0,0,0,0,0,0,0,0,,,,,0.0,,,,,,
1425193,1745091588874,,,,,,,,,,,,,,,,,,,,,,,,,,,,,,,,,,0,0,0,0,0,0,0,0,0,0,0,0,0,0,0,0,,,,,,,,,,,
1425213,1745091588894,0.0,200.23,,-0.03,-0.12,0.98,0,-0,0,0.99,1.0,99,5273,19.4,4.08,,12.68,1.163,102.4,,57.7,5,,,,,,,,,,,,0,0,0,0,0,0,0,0,0,0,0,0,0,0,0,0,,,,,0.0,,,,,,
1425233,1745091588914,,,,,,,,,,,,,,,,,,,,,,,0,0,0,0,0.0,0.0,0.0,0.0,2.26,,,0,0,0,0,0,0,0,0,0,0,0,0,0,0,0,0,0,,,,,39.239891,-77.965652,0.08,33,3,0.8
1425253,1745091588934,0.0,200.23,,-0.01,-0.11,1.0,0,-0,-0,1.01,1.01,100,5418,19.5,4.07,,12.56,1.167,102.4,,57.7,5,,,,,,,,,,,,0,0,0,0,0,0,0,0,0,0,0,0,0,0,0,0,,,,,0.0,,,,,,
1425273,1745091588954,,,,,,,,,,,,,,,,,,,,,,,,,,,,,,,,,,0,0,0,0,0,0,0,0,0,0,0,0,0,0,0,0,,,,,,,,,,,
1425293,1745091588974,0.0,200.23,,-0.03,-0.08,1.0,0,-0,0,1.0,1.01,100,5469,19.6,4.06,,12.51,1.157,102.4,,57.5,5,,,,,,,,,,,,0,0,0,0,0,0,0,0,0,0,0,0,0,0,0,0,,,,,0.0,,,,,,
1425313,1745091588994,,,,,,,,,,,,,,,,,,,,,,,,,,,,,,,,,,0,0,0,0,0,0,0,0,0,0,0,0,0,0,0,0,,,,,,,,,,,
1425333,1745091589005,0.0,200.23,,-0.04,-0.09,0.96,0,-0,-0,0.96,1.01,96,5522,19.5,4.06,,12.51,1.157,102.4,,57.5,5,0,0,0,0,0.0,0.0,0.0,0.0,2.26,,,0,0,0,0,0,0,0,0,0,0,0,0,0,0,0,0,0,,,,0.0,39.239891,-77.965652,0.07,33,3,0.8
1425353,1745091589025,,,,,,,,,,,,,,,,,,,,,,,,,,,,,,,,,,0,0,0,0,0,0,0,0,0,0,0,0,0,0,0,0,,,,,,,,,,,
1425373,1745091589045,0.0,200.23,,-0.02,-0.06,1.02,0,-0,0,1.02,1.02,100,5522,19.5,4.06,,12.41,1.2,102.4,,57.7,5,,,,,,,,,,,,0,0,0,0,0,0,0,0,0,0,0,0,0,0,0,0,,,,,0.0,,,,,,
1425393,1745091589065,,,,,,,,,,,,,,,,,,,,,,,,,,,,,,,,,,0,0,0,0,0,0,0,0,0,0,0,0,0,0,0,0,,,,,,,,,,,
1425413,1745091589085,0.0,200.23,,-0.06,-0.07,0.98,0,-0,-0,0.99,1.02,96,5552,19.5,4.06,,12.37,1.23,102.4,,57.7,5,,,,,,,,,,,,0,0,0,0,0,0,0,0,0,0,0,0,0,0,0,0,,,,,0.0,,,,,,
1425433,1745091589109,,,,,,,,,,,,,,,,,,,,,,,0,0,0,0,0.0,0.0,0.0,0.0,2.26,,,0,0,0,0,0,0,0,0,0,0,0,0,0,0,0,0,0,,,,,39.239891,-77.965652,0.11,33,3,0.8
1425453,1745091589129,0.0,200.23,,-0.03,-0.08,1.0,0,-0,0,1.0,1.02,98,5568,19.5,4.05,,12.44,1.247,102.4,,57.7,5,,,,,,,,,,,,0,0,0,0,0,0,0,0,0,0,0,0,0,0,0,0,,,,,0.0,,,,,,
1425473,1745091589149,,,,,,,,,,,,,,,,,,,,,,,,,,,,,,,,,,0,0,0,0,0,0,0,0,0,0,0,0,0,0,0,0,,,,,,,,,,,
1425493,1745091589169,0.0,200.23,,-0.05,-0.03,0.94,-0,-0,0,0.95,1.02,92,5673,19.5,4.04,,12.23,1.248,102.4,,58.1,5,,,,,,,,,,,,0,0,0,0,0,0,0,0,0,0,0,0,0,0,0,0,,,,,0.0,,,,,,
1425513,1745091589191,,,,,,,,,,,,,,,,,,,,,,,,,,,,,,,,,,0,0,0,0,0,0,0,0,0,0,0,0,0,0,0,0,,,,,,,,,,,
1425533,1745091589211,0.0,200.23,,-0.01,-0.02,1.04,0,-0,-0,1.04,1.04,100,5712,19.5,4.03,,12.23,1.248,100.6,,58.1,5,0,0,0,0,0.0,0.0,0.0,0.0,2.27,,,0,0,0,0,0,0,0,0,0,0,0,0,0,0,0,0,0,,,,0.0,39.239891,-77.965652,0.04,33,3,0.8
1425553,1745091589231,,,,,,,,,,,,,,,,,,,,,,,,,,,,,,,,,,0,0,0,0,0,0,0,0,0,0,0,0,0,0,0,0,,,,,,,,,,,
1425573,1745091589251,0.0,200.23,,0.0,-0.13,0.94,1,-1,-1,0.95,1.04,91,5712,19.5,4.03,,12.29,1.248,100.6,,58.3,5,,,,,,,,,,,,0,0,0,0,0,0,0,0,0,0,0,0,0,0,0,0,,,,,0.0,,,,,,
1425593,1745091589271,,,,,,,,,,,,,,,,,,,,,,,,,,,,,,,,,,0,0,0,0,0,0,0,0,0,0,0,0,0,0,0,0,,,,,,,,,,,
1425613,1745091589293,0.0,200.23,,-0.05,-0.13,0.8,0,-1,-1,0.81,1.04,78,5844,10.6,3.99,,11.58,1.25,100.6,,58.3,5,,,,,,,,,,,,0,0,0,0,0,0,0,0,0,0,0,0,0,0,0,0,,,,,0.0,,,,,,
1425633,1745091589313,,,,,,,,,,,,,,,,,,,,,,,0,0,0,0,0.0,0.0,0.0,0.0,2.27,,,0,0,0,0,0,0,0,0,0,0,0,0,0,0,0,0,0,,,,,39.239891,-77.965652,0.0,33,3,0.8
1425653,1745091589333,0.0,200.23,,-0.09,-0.09,0.71,-0,-1,-0,0.72,1.04,69,5968,9.3,3.92,,10.92,1.25,100.6,,58.3,5,,,,,,,,,,,,0,0,0,0,0,0,0,0,0,0,0,0,0,0,0,0,,,,,0.0,,,,,,
1425673,1745091589353,,,,,,,,,,,,,,,,,,,,,,,,,,,,,,,,,,0,0,0,0,0,0,0,0,0,0,0,0,0,0,0,0,,,,,,,,,,,
1425693,1745091589373,0.0,200.23,,-0.05,-0.14,0.75,-1,-1,-1,0.76,1.04,73,6349,9.2,3.16,,10.44,1.227,100.6,,59.5,5,,,,,,,,,,,,0,0,0,0,0,0,0,0,0,0,0,0,0,0,0,0,,,,,0.0,,,,,,
1425713,1745091589393,,,,,,,,,,,,,,,,,,,,,,,,,,,,,,,,,,0,0,0,0,0,0,0,0,0,0,0,0,0,0,0,0,,,,,,,,,,,
1425733,1745091589413,0.0,200.23,12.56,-0.05,-0.09,0.79,-0,-1,-1,0.8,1.04,77,6723,9.2,3.26,15,10.44,1.227,100.6,160,59.5,5,0,0,0,0,0.0,0.0,0.0,0.0,2.26,0,0.0,0,0,0,0,0,0,0,0,0,0,0,0,0,0,0,0,0,0.0,0,-0,0.0,39.239891,-77.965652,0.08,33,3,0.8
1425753,1745091589433,,,,,,,,,,,,,,,,,,,,,,,,,,,,,,,,,,0,0,0,0,0,0,0,0,0,0,0,0,0,0,0,0,,,,,,,,,,,
1425773,1745091589453,0.0,200.23,,-0.06,-0.04,0.81,-1,-1,-0,0.82,1.04,79,6723,9.2,3.26,,9.98,1.026,100.6,,62.2,5,,,,,,,,,,,,0,0,0,0,0,0,0,0,0,0,0,0,0,0,0,0,,,,,0.0,,,,,,
1425793,1745091589473,,,,,,,,,,,,,,,,,,,,,,,,,,,,,,,,,,0,0,0,0,0,0,0,0,0,0,0,0,0,0,0,0,,,,,,,,,,,
1425813,1745091589495,0.0,200.1,,-0.06,-0.1,0.81,1,-1,-1,0.82,1.04,79,7026,9.3,3.25,,9.69,0.976,100.6,,62.2,5,,,,,,,,,,,,0,0,0,0,0,0,0,0,0,0,0,0,0,0,0,0,,,,,0.0,,,,,,
1425833,1745091589515,,,,,,,,,,,,,,,,,,,,,,,0,0,0,0,0.0,0.0,0.0,0.0,2.26,,,0,0,0,0,0,0,0,0,0,0,0,0,0,0,0,0,0,,,,,39.239891,-77.965652,0.06,33,3,0.8
1425853,1745091589535,0.0,199.97,,-0.07,-0.18,0.81,-1,-1,-0,0.83,1.04,80,7324,9.3,3.12,,9.27,0.982,100.6,,62.2,5,,,,,,,,,,,,0,0,0,0,0,0,0,0,0,0,0,0,0,0,0,0,,,,,0.0,,,,,,
1425873,1745091589555,,,,,,,,,,,,,,,,,,,,,,,,,,,,,,,,,,0,0,0,0,0,0,0,0,0,0,0,0,0,0,0,0,,,,,,,,,,,
1425893,1745091589575,0.0,199.97,,-0.08,-0.18,0.85,-0,-1,-0,0.87,1.04,84,7684,8.5,2.92,,8.77,0.978,100.6,,62.8,5,,,,,,,,,,,,0,0,0,0,0,0,0,0,0,0,0,0,0,0,0,0,,,,,0.0,,,,,,
1425913,1745091589593,,,,,,,,,,,,,,,,,,,,,,,,,,,,,,,,,,0,0,0,0,0,0,0,0,0,0,0,0,0,0,0,0,,,,,,,,,,,
1425933,1745091589613,0.0,200.1,,-0.07,-0.08,0.85,-0,-1,-0,0.85,1.04,82,8100,7.9,2.73,,8.77,0.978,100.6,,62.8,5,0,0,0,0,0.0,0.0,0.0,0.0,2.26,,,0,0,0,0,0,0,0,0,0,0,0,0,0,0,0,0,0,,,,0.0,39.239891,-77.965652,0.11,33,3,0.8
1425953,1745091589633,,,,,,,,,,,,,,,,,,,,,,,,,,,,,,,,,,0,0,0,0,0,0,0,0,0,0,0,0,0,0,0,0,,,,,,,,,,,
1425973,1745091589653,0.0,199.97,,-0.06,-0.03,0.85,-0,-1,-0,0.85,1.04,82,8100,7.9,2.73,,8.34,0.962,100.6,,63.5,5,,,,,,,,,,,,0,0,0,0,0,0,0,0,0,0,0,0,0,0,0,0,,,,,0.0,,,,,,
1425993,1745091589673,,,,,,,,,,,,,,,,,,,,,,,,,,,,,,,,,,0,0,0,0,0,0,0,0,0,0,0,0,0,0,0,0,,,,,,,,,,,
1426013,1745091589693,0.0,199.97,,-0.05,-0.08,0.9,0,-1,-0,0.91,1.04,87,8434,7.4,2.4,,7.82,0.937,100.6,,63.5,5,,,,,,,,,,,,0,0,0,0,0,0,0,0,0,0,0,0,0,0,0,0,,,,,0.0,,,,,,
1426033,1745091589713,,,,,,,,,,,,,,,,,,,,,,,0,0,0,0,0.0,0.0,0.0,0.0,2.27,,,0,0,0,0,0,0,0,0,0,0,0,0,0,0,0,0,0,,,,,39.239891,-77.965652,0.04,33,3,0.8
1426053,1745091589733,0.0,199.85,,-0.07,-0.07,0.88,-1,-1,-0,0.89,1.04,85,8685,7.2,2.18,,7.35,0.929,100.6,,63.5,5,,,,,,,,,,,,0,0,0,0,0,0,0,0,0,0,0,0,0,0,0,0,,,,,0.0,,,,,,
1426073,1745091589753,,,,,,,,,,,,,,,,,,,,,,,,,,,,,,,,,,0,0,0,0,0,0,0,0,0,0,0,0,0,0,0,0,,,,,,,,,,,
1426093,1745091589773,0.0,199.85,,-0.05,0.06,0.9,-0,-1,-0,0.9,1.04,87,8783,7.0,2.05,,6.98,0.951,100.6,,64.5,5,,,,,,,,,,,,0,0,0,0,0,0,0,0,0,0,0,0,0,0,0,0,,,,,0.0,,,,,,
1426113,1745091589793,,,,,,,,,,,,,,,,,,,,,,,,,,,,,,,,,,0,0,0,0,0,0,0,0,0,0,0,0,0,0,0,0,,,,,,,,,,,
1426133,1745091589813,0.0,199.72,,-0.01,0.01,0.93,0,-1,-0,0.93,1.04,89,8778,6.9,2.0,,6.98,0.951,100.6,,64.5,5,0,0,0,0,0.0,0.0,0.0,0.0,2.27,,,0,0,0,0,0,0,0,0,0,0,0,0,0,0,0,0,0,,,,0.0,39.239891,-77.965652,0.04,33,3,0.8
1426153,1745091589833,,,,,,,,,,,,,,,,,,,,,,,,,,,,,,,,,,0,0,0,0,0,0,0,0,0,0,0,0,0,0,0,0,,,,,,,,,,,
1426173,1745091589853,0.0,199.47,,-0.02,-0.04,0.91,-0,-1,-0,0.91,1.04,87,8778,6.9,2.0,,6.78,0.984,100.6,,62.8,5,,,,,,,,,,,,0,0,0,0,0,0,0,0,0,0,0,0,0,0,0,0,,,,,0.0,,,,,,
1426193,1745091589873,,,,,,,,,,,,,,,,,,,,,,,,,,,,,,,,,,0,0,0,0,0,0,0,0,0,0,0,0,0,0,0,0,,,,,,,,,,,
1426213,1745091589895,0.0,199.35,,-0.03,0.05,0.92,-0,-1,0,0.92,1.04,89,8667,7.0,1.95,,6.55,1.027,100.6,,62.8,5,,,,,,,,,,,,0,0,0,0,0,0,0,0,0,0,0,0,0,0,0,0,,,,,0.0,,,,,,
1426233,1745091589915,,,,,,,,,,,,,,,,,,,,,,,0,0,0,0,0.0,0.0,0.0,0.0,2.26,,,0,0,0,0,0,0,0,0,0,0,0,0,0,0,0,0,0,,,,,39.239891,-77.965652,0.07,33,3,0.8
1426253,1745091589935,0.0,199.22,,-0.03,0.05,0.91,-0,-1,-0,0.91,1.04,87,8508,7.1,1.93,,6.54,1.062,100.6,,62.8,5,,,,,,,,,,,,0,0,0,0,0,0,0,0,0,0,0,0,0,0,0,0,,,,,0.0,,,,,,
1426273,1745091589955,,,,,,,,,,,,,,,,,,,,,,,,,,,,,,,,,,0,0,0,0,0,0,0,0,0,0,0,0,0,0,0,0,,,,,,,,,,,
1426293,1745091589975,0.0,199.1,,-0.02,0.02,0.9,-1,-1,-0,0.9,1.04,86,8290,7.2,2.0,,6.54,1.103,100.6,,64.0,5,,,,,,,,,,,,0,0,0,0,0,0,0,0,0,0,0,0,0,0,0,0,,,,,0.0,,,,,,
1426313,1745091589995,,,,,,,,,,,,,,,,,,,,,,,,,,,,,,,,,,0,0,0,0,0,0,0,0,0,0,0,0,0,0,0,0,,,,,,,,,,,
1426333,1745091590006,0.0,198.84,,-0.02,0.02,0.92,-0,-0,-0,0.92,1.04,89,8048,7.2,2.05,,6.54,1.103,100.6,,64.0,5,0,0,0,0,0.0,0.0,0.0,0.0,2.26,,,0,0,0,0,0,0,0,0,0,0,0,0,0,0,0,0,0,,,,0.0,39.239891,-77.96566,0.11,33,3,0.8
1426353,1745091590026,,,,,,,,,,,,,,,,,,,,,,,,,,,,,,,,,,0,0,0,0,0,0,0,0,0,0,0,0,0,0,0,0,,,,,,,,,,,
1426373,1745091590046,0.0,198.72,,-0.05,-0.11,0.93,-1,-0,-0,0.94,1.04,90,8048,7.2,2.05,,6.66,1.164,100.6,,63.2,5,,,,,,,,,,,,0,0,0,0,0,0,0,0,0,0,0,0,0,0,0,0,,,,,0.0,,,,,,
1426393,1745091590066,,,,,,,,,,,,,,,,,,,,,,,,,,,,,,,,,,0,0,0,0,0,0,0,0,0,0,0,0,0,0,0,0,,,,,,,,,,,
1426413,1745091590086,0.0,198.59,,-0.07,-0.12,0.94,0,-0,-0,0.95,1.04,91,7782,7.2,2.07,,6.7,1.221,100.6,,63.2,5,,,,,,,,,,,,0,0,0,0,0,0,0,0,0,0,0,0,0,0,0,0,,,,,0.0,,,,,,
1426433,1745091590106,,,,,,,,,,,,,,,,,,,,,,,0,0,0,0,0.0,0.0,0.0,0.0,2.26,,,0,0,0,0,0,0,0,0,0,0,0,0,0,0,0,0,0,,,,,39.239891,-77.96566,0.04,33,3,0.8
1426453,1745091590126,0.0,198.47,,-0.06,-0.2,0.99,1,-0,-0,1.01,1.04,97,7594,7.0,2.12,,6.87,1.248,100.6,,63.2,5,,,,,,,,,,,,0,0,0,0,0,0,0,0,0,0,0,0,0,0,0,0,,,,,0.0,,,,,,
1426473,1745091590146,,,,,,,,,,,,,,,,,,,,,,,,,,,,,,,,,,0,0,0,0,0,0,0,0,0,0,0,0,0,0,0,0,,,,,,,,,,,
1426493,1745091590166,0.0,198.47,,-0.07,-0.21,0.99,2,-0,-1,1.01,1.04,97,7363,6.9,2.19,,7.08,1.248,100.6,,63.1,5,,,,,,,,,,,,0,0,0,0,0,0,0,0,0,0,0,0,0,0,0,0,,,,,0.0,,,,,,
1426513,1745091590192,,,,,,,,,,,,,,,,,,,,,,,,,,,,,,,,,,0,0,0,0,0,0,0,0,0,0,0,0,0,0,0,0,,,,,,,,,,,
1426533,1745091590212,0.0,198.47,,-0.1,-0.31,0.95,3,-0,-1,1.01,1.04,97,7233,6.9,2.26,,7.08,1.248,100.6,,63.1,5,0,0,0,0,0.0,0.0,0.0,0.0,2.27,,,0,0,0,0,0,0,0,0,0,0,0,0,0,0,0,0,0,,,,0.0,39.239891,-77.96566,0.08,33,3,0.8
1426553,1745091590232,,,,,,,,,,,,,,,,,,,,,,,,,,,,,,,,,,0,0,0,0,0,0,0,0,0,0,0,0,0,0,0,0,,,,,,,,,,,
1426573,1745091590252,0.0,198.34,,-0.07,-0.14,1.01,1,-0,-1,1.02,1.04,98,7233,6.9,2.26,,7.27,1.248,100.6,,61.8,5,,,,,,,,,,,,0,0,0,0,0,0,0,0,0,0,0,0,0,0,0,0,,,,,0.0,,,,,,
1426593,1745091590272,,,,,,,,,,,,,,,,,,,,,,,,,,,,,,,,,,0,0,0,0,0,0,0,0,0,0,0,0,0,0,0,0,,,,,,,,,,,
1426613,1745091590292,0.0,198.47,,-0.09,-0.25,0.96,3,-0,-1,1.0,1.04,96,7109,6.9,2.3,,7.46,1.209,100.6,,61.8,5,,,,,,,,,,,,0,0,0,0,0,0,0,0,0,0,0,0,0,0,0,0,,,,,0.0,,,,,,
1426633,1745091590312,,,,,,,,,,,,,,,,,,,,,,,0,0,0,0,0.0,0.0,0.0,0.0,2.27,,,0,0,0,0,0,0,0,0,0,0,0,0,0,0,0,0,0,,,,,39.239891,-77.96566,0.04,33,3,0.8
1426653,1745091590332,0.0,198.47,,-0.07,-0.24,1.01,2,-0,-1,1.04,1.04,100,7004,6.8,2.39,,7.55,1.136,100.6,,61.8,5,,,,,,,,,,,,0,0,0,0,0,0,0,0,0,0,0,0,0,0,0,0,,,,,0.0,,,,,,
1426673,1745091590352,,,,,,,,,,,,,,,,,,,,,,,,,,,,,,,,,,0,0,0,0,0,0,0,0,0,0,0,0,0,0,0,0,,,,,,,,,,,
1426693,1745091590372,0.0,198.47,,-0.08,-0.27,1.02,1,-0,-1,1.06,1.06,100,6956,6.9,2.41,,7.73,1.109,100.6,,62.8,5,,,,,,,,,,,,0,0,0,0,0,0,0,0,0,0,0,0,0,0,0,0,,,,,0.0,,,,,,
1426713,1745091590392,,,,,,,,,,,,,,,,,,,,,,,,,,,,,,,,,,0,0,0,0,0,0,0,0,0,0,0,0,0,0,0,0,,,,,,,,,,,
1426733,1745091590412,0.0,198.59,12.56,-0.09,-0.31,0.99,2,-0,-1,1.04,1.06,98,6883,6.8,2.42,15,7.73,1.109,100.6,158,62.8,5,0,0,0,0,0.0,0.0,0.0,0.0,2.26,0,0.0,0,0,0,0,0,0,0,0,0,0,0,0,0,0,0,0,0,0.0,0,0,0.0,39.239891,-77.96566,0.04,33,3,0.8
1426753,1745091590432,,,,,,,,,,,,,,,,,,,,,,,,,,,,,,,,,,0,0,0,0,0,0,0,0,0,0,0,0,0,0,0,0,,,,,,,,,,,
1426773,1745091590452,0.0,198.72,,-0.06,-0.33,0.99,2,-0,-0,1.04,1.06,99,6883,6.8,2.42,,7.97,1.082,100.6,,62.6,5,,,,,,,,,,,,0,0,0,0,0,0,0,0,0,0,0,0,0,0,0,0,,,,,0.0,,,,,,
1426793,1745091590472,,,,,,,,,,,,,,,,,,,,,,,,,,,,,,,,,,0,0,0,0,0,0,0,0,0,0,0,0,0,0,0,0,,,,,,,,,,,
1426813,1745091590494,0.0,198.84,,-0.09,-0.26,0.99,2,-0,-1,1.03,1.06,97,6785,7.1,2.52,,8.17,1.072,100.6,,62.6,5,,,,,,,,,,,,0,0,0,0,0,0,0,0,0,0,0,0,0,0,0,0,,,,,0.0,,,,,,
1426833,1745091590514,,,,,,,,,,,,,,,,,,,,,,,0,0,0,0,0.0,0.0,0.0,0.0,2.26,,,0,0,0,0,0,0,0,0,0,0,0,0,0,0,0,0,0,,,,,39.239891,-77.96566,0.08,33,3,0.8
1426853,1745091590534,0.0,198.84,,-0.07,-0.26,1.01,2,-0,-1,1.04,1.06,99,6727,7.5,2.58,,8.37,1.067,100.6,,62.6,5,,,,,,,,,,,,0,0,0,0,0,0,0,0,0,0,0,0,0,0,0,0,,,,,0.0,,,,,,
1426873,1745091590554,,,,,,,,,,,,,,,,,,,,,,,,,,,,,,,,,,0,0,0,0,0,0,0,0,0,0,0,0,0,0,0,0,,,,,,,,,,,
1426893,1745091590574,0.0,198.84,,-0.06,-0.23,1.0,1,-0,-1,1.03,1.06,97,6641,7.6,2.63,,8.67,1.073,100.6,,61.6,5,,,,,,,,,,,,0,0,0,0,0,0,0,0,0,0,0,0,0,0,0,0,,,,,0.0,,,,,,
1426913,1745091590592,,,,,,,,,,,,,,,,,,,,,,,,,,,,,,,,,,0,0,0,0,0,0,0,0,0,0,0,0,0,0,0,0,,,,,,,,,,,
1426933,1745091590612,0.0,198.97,,-0.03,-0.15,1.02,1,-0,-0,1.03,1.06,97,6583,7.5,2.67,,8.67,1.073,100.6,,61.6,5,0,0,0,0,0.0,0.0,0.0,0.0,2.26,,,0,0,0,0,0,0,0,0,0,0,0,0,0,0,0,0,0,,,,0.0,39.239891,-77.96566,0.1,33,3,0.8
1426953,1745091590632,,,,,,,,,,,,,,,,,,,,,,,,,,,,,,,,,,0,0,0,0,0,0,0,0,0,0,0,0,0,0,0,0,,,,,,,,,,,
1426973,1745091590652,0.0,198.97,,-0.05,-0.2,0.98,1,-0,-0,1.0,1.06,95,6583,7.5,2.67,,8.82,1.089,100.6,,61.3,5,,,,,,,,,,,,0,0,0,0,0,0,0,0,0,0,0,0,0,0,0,0,,,,,0.0,,,,,,
1426993,1745091590672,,,,,,,,,,,,,,,,,,,,,,,,,,,,,,,,,,0,0,0,0,0,0,0,0,0,0,0,0,0,0,0,0,,,,,,,,,,,
1427013,1745091590694,0.0,198.97,,-0.07,-0.15,1.04,1,-0,-0,1.06,1.06,100,6445,7.4,2.65,,9.02,1.094,100.6,,61.3,5,,,,,,,,,,,,0,0,0,0,0,0,0,0,0,0,0,0,0,0,0,0,,,,,0.0,,,,,,
1427033,1745091590714,,,,,,,,,,,,,,,,,,,,,,,0,0,0,0,0.0,0.0,0.0,0.0,2.27,,,0,0,0,0,0,0,0,0,0,0,0,0,0,0,0,0,0,,,,,39.239891,-77.96566,0.0,33,3,0.8
1427053,1745091590734,0.0,199.1,,-0.06,-0.12,0.94,1,-0,-0,0.95,1.06,90,6367,7.5,2.68,,9.15,1.109,100.6,,61.3,5,,,,,,,,,,,,0,0,0,0,0,0,0,0,0,0,0,0,0,0,0,0,,,,,0.0,,,,,,
1427073,1745091590754,,,,,,,,,,,,,,,,,,,,,,,,,,,,,,,,,,0,0,0,0,0,0,0,0,0,0,0,0,0,0,0,0,,,,,,,,,,,
1427093,1745091590774,0.0,199.1,,0.02,-0.2,1.01,1,-0,-1,1.03,1.06,98,6194,7.5,2.66,,9.37,1.115,100.6,,61.1,5,,,,,,,,,,,,0,0,0,0,0,0,0,0,0,0,0,0,0,0,0,0,,,,,0.0,,,,,,
1427113,1745091590794,,,,,,,,,,,,,,,,,,,,,,,,,,,,,,,,,,0,0,0,0,0,0,0,0,0,0,0,0,0,0,0,0,,,,,,,,,,,
1427133,1745091590814,0.0,199.22,,0.06,-0.2,1.15,1,-0,-1,1.17,1.17,100,6060,7.5,2.66,,9.37,1.115,100.6,,61.1,5,0,0,0,0,0.0,0.0,0.0,0.0,2.27,,,0,0,0,0,0,0,0,0,0,0,0,0,0,0,0,0,0,,,,0.0,39.239891,-77.96566,0.09,33,3,0.8
1427153,1745091590834,,,,,,,,,,,,,,,,,,,,,,,,,,,,,,,,,,0,0,0,0,0,0,0,0,0,0,0,0,0,0,0,0,,,,,,,,,,,
1427173,1745091590854,0.0,199.22,,0.09,-0.19,1.27,1,-0,-1,1.28,1.28,100,6060,7.5,2.66,,9.69,1.125,100.6,,59.9,5,,,,,,,,,,,,0,0,0,0,0,0,0,0,0,0,0,0,0,0,0,0,,,,,0.0,,,,,,
1427193,1745091590874,,,,,,,,,,,,,,,,,,,,,,,,,,,,,,,,,,0,0,0,0,0,0,0,0,0,0,0,0,0,0,0,0,,,,,,,,,,,
1427213,1745091590894,0.0,199.22,,0.13,-0.25,1.24,2,-0,-1,1.27,1.28,99,5870,7.5,2.63,,9.93,1.15,100.6,,59.9,5,,,,,,,,,,,,0,0,0,0,0,0,0,0,0,0,0,0,0,0,0,0,,,,,0.0,,,,,,
1427233,1745091590914,,,,,,,,,,,,,,,,,,,,,,,0,0,0,0,0.0,0.0,0.0,0.0,2.26,,,0,0,0,0,0,0,0,0,0,0,0,0,0,0,0,0,0,,,,,39.239891,-77.96566,0.09,33,3,0.8
1427253,1745091590934,0.0,199.35,,0.08,-0.2,1.18,1,-0,-1,1.2,1.28,93,5644,7.6,2.64,,10.21,1.143,100.6,,59.9,5,,,,,,,,,,,,0,0,0,0,0,0,0,0,0,0,0,0,0,0,0,0,,,,,0.0,,,,,,
1427273,1745091590954,,,,,,,,,,,,,,,,,,,,,,,,,,,,,,,,,,0,0,0,0,0,0,0,0,0,0,0,0,0,0,0,0,,,,,,,,,,,
1427293,1745091590974,0.0,199.35,,0.06,-0.14,1.16,1,-0,-1,1.17,1.28,91,5402,7.7,2.62,,10.36,1.152,100.6,,58.4,5,,,,,,,,,,,,0,0,0,0,0,0,0,0,0,0,0,0,0,0,0,0,,,,,0.0,,,,,,
1427313,1745091590994,,,,,,,,,,,,,,,,,,,,,,,,,,,,,,,,,,0,0,0,0,0,0,0,0,0,0,0,0,0,0,0,0,,,,,,,,,,,
1427333,1745091591005,0.0,199.35,,0.03,-0.08,1.15,1,-0,-1,1.15,1.28,90,5171,7.7,2.59,,10.36,1.152,100.6,,58.4,5,0,0,0,0,0.0,0.0,0.0,0.0,2.26,,,0,0,0,0,0,0,0,0,0,0,0,0,0,0,0,0,0,,,,0.0,39.239891,-77.96566,0.04,33,3,0.8
1427353,1745091591025,,,,,,,,,,,,,,,,,,,,,,,,,,,,,,,,,,0,0,0,0,0,0,0,0,0,0,0,0,0,0,0,0,,,,,,,,,,,
1427373,1745091591045,0.0,199.35,,0.06,-0.11,1.12,1,-0,-1,1.13,1.28,88,5171,7.7,2.59,,10.65,1.195,100.6,,54.6,5,,,,,,,,,,,,0,0,0,0,0,0,0,0,0,0,0,0,0,0,0,0,,,,,0.0,,,,,,
1427393,1745091591065,,,,,,,,,,,,,,,,,,,,,,,,,,,,,,,,,,0,0,0,0,0,0,0,0,0,0,0,0,0,0,0,0,,,,,,,,,,,
1427413,1745091591091,0.0,199.35,,0.02,0.0,1.16,0,-0,-0,1.16,1.28,91,4888,7.6,2.78,,10.84,1.248,100.6,,54.6,5,,,,,,,,,,,,0,0,0,0,0,0,0,0,0,0,0,0,0,0,0,0,,,,,0.0,,,,,,
1427433,1745091591111,,,,,,,,,,,,,,,,,,,,,,,0,0,0,0,0.0,0.0,0.0,0.0,2.26,,,0,0,0,0,0,0,0,0,0,0,0,0,0,0,0,0,0,,,,,39.239891,-77.96566,0.08,33,3,0.8
1427453,1745091591131,0.0,199.35,,-0.03,-0.0,1.16,-1,-0,0,1.16,1.28,91,4613,7.5,3.37,,11.08,1.248,100.6,,54.6,5,,,,,,,,,,,,0,0,0,0,0,0,0,0,0,0,0,0,0,0,0,0,,,,,0.0,,,,,,
1427473,1745091591151,,,,,,,,,,,,,,,,,,,,,,,,,,,,,,,,,,0,0,0,0,0,0,0,0,0,0,0,0,0,0,0,0,,,,,,,,,,,
1427493,1745091591171,0.0,199.22,,-0.09,-0.01,1.17,-2,-0,1,1.18,1.28,92,4470,7.4,3.43,,11.37,1.249,100.6,,47.0,5,,,,,,,,,,,,0,0,0,0,0,0,0,0,0,0,0,0,0,0,0,0,,,,,0.0,,,,,,
1427513,1745091591193,,,,,,,,,,,,,,,,,,,,,,,,,,,,,,,,,,0,0,0,0,0,0,0,0,0,0,0,0,0,0,0,0,,,,,,,,,,,
1427533,1745091591213,0.0,199.35,,-0.14,0.05,1.2,-2,-0,1,1.21,1.28,94,4425,8.3,3.46,,11.37,1.249,100.6,,47.0,5,0,0,0,0,0.0,0.0,0.0,0.0,2.27,,,0,0,0,0,0,0,0,0,0,0,0,0,0,0,0,0,0,,,,0.0,39.239891,-77.96566,0.07,33,3,0.8
1427553,1745091591233,,,,,,,,,,,,,,,,,,,,,,,,,,,,,,,,,,0,0,0,0,0,0,0,0,0,0,0,0,0,0,0,0,,,,,,,,,,,
1427573,1745091591253,0.0,199.35,,-0.17,0.14,1.27,-3,-0,2,1.29,1.29,100,4425,8.3,3.46,,11.54,1.25,100.6,,45.6,5,,,,,,,,,,,,0,0,0,0,0,0,0,0,0,0,0,0,0,0,0,0,,,,,0.0,,,,,,
1427593,1745091591273,,,,,,,,,,,,,,,,,,,,,,,,,,,,,,,,,,0,0,0,0,0,0,0,0,0,0,0,0,0,0,0,0,,,,,,,,,,,
1427613,1745091591293,0.0,199.47,,-0.18,0.2,1.32,-3,-0,2,1.35,1.35,100,4470,11.4,3.56,,11.91,1.251,100.6,,45.6,5,,,,,,,,,,,,0,0,0,0,0,0,0,0,0,0,0,0,0,0,0,0,,,,,0.0,,,,,,
1427633,1745091591313,,,,,,,,,,,,,,,,,,,,,,,0,0,0,0,0.0,0.0,0.0,0.0,2.27,,,0,0,0,0,0,0,0,0,0,0,0,0,0,0,0,0,0,,,,,39.239891,-77.96566,0.06,33,3,0.8
1427653,1745091591333,0.0,199.47,,-0.16,0.28,1.38,-3,-0,2,1.42,1.42,100,4458,15.1,3.76,,12.32,1.187,100.6,,45.6,5,,,,,,,,,,,,0,0,0,0,0,0,0,0,0,0,0,0,0,0,0,0,,,,,0.0,,,,,,
1427673,1745091591353,,,,,,,,,,,,,,,,,,,,,,,,,,,,,,,,,,0,0,0,0,0,0,0,0,0,0,0,0,0,0,0,0,,,,,,,,,,,
1427693,1745091591373,0.0,199.47,,-0.12,0.27,1.34,-2,-0,1,1.38,1.42,97,4371,16.4,3.86,,12.63,1.185,100.6,,45.9,5,,,,,,,,,,,,0,0,0,0,0,0,0,0,0,0,0,0,0,0,0,0,,,,,0.0,,,,,,
1427713,1745091591393,,,,,,,,,,,,,,,,,,,,,,,,,,,,,,,,,,0,0,0,0,0,0,0,0,0,0,0,0,0,0,0,0,,,,,,,,,,,
1427733,1745091591413,0.0,199.47,12.64,-0.08,0.18,1.21,-2,-0,1,1.23,1.42,86,4172,16.6,3.86,15,12.63,1.185,100.6,155,45.9,5,0,0,0,0,0.0,0.0,0.0,0.0,2.26,0,0.0,0,0,0,0,0,0,0,0,0,0,0,0,0,0,0,0,0,0.0,0,0,0.0,39.239891,-77.96566,0.0,33,3,0.8
1427753,1745091591433,,,,,,,,,,,,,,,,,,,,,,,,,,,,,,,,,,0,0,0,0,0,0,0,0,0,0,0,0,0,0,0,0,,,,,,,,,,,
1427773,1745091591453,0.0,199.6,,-0.07,0.23,1.23,-2,-0,1,1.25,1.42,88,4172,16.6,3.86,,12.81,1.228,100.6,,42.2,5,,,,,,,,,,,,0,0,0,0,0,0,0,0,0,0,0,0,0,0,0,0,,,,,0.0,,,,,,
1427793,1745091591473,,,,,,,,,,,,,,,,,,,,,,,,,,,,,,,,,,0,0,0,0,0,0,0,0,0,0,0,0,0,0,0,0,,,,,,,,,,,
1427813,1745091591493,0.0,199.47,,-0.07,0.14,1.15,-1,-0,1,1.16,1.42,82,4073,16.7,3.85,,12.97,1.251,100.6,,42.2,5,,,,,,,,,,,,0,0,0,0,0,0,0,0,0,0,0,0,0,0,0,0,,,,,0.0,,,,,,
1427833,1745091591513,,,,,,,,,,,,,,,,,,,,,,,0,0,0,0,0.0,0.0,0.0,0.0,2.26,,,0,0,0,0,0,0,0,0,0,0,0,0,0,0,0,0,0,,,,,39.239891,-77.96566,0.04,33,3,0.8
1427853,1745091591533,0.0,199.47,,-0.05,0.18,1.15,-1,-0,1,1.16,1.42,82,4088,16.7,3.84,,13.08,1.249,100.6,,42.2,5,,,,,,,,,,,,0,0,0,0,0,0,0,0,0,0,0,0,0,0,0,0,,,,,0.0,,,,,,
1427873,1745091591553,,,,,,,,,,,,,,,,,,,,,,,,,,,,,,,,,,0,0,0,0,0,0,0,0,0,0,0,0,0,0,0,0,,,,,,,,,,,
1427893,1745091591573,0.0,199.47,,-0.05,0.16,1.19,-1,-0,1,1.2,1.42,84,3980,16.6,3.86,,13.11,1.249,100.6,,40.9,5,,,,,,,,,,,,0,0,0,0,0,0,0,0,0,0,0,0,0,0,0,0,,,,,0.0,,,,,,
1427913,1745091591595,,,,,,,,,,,,,,,,,,,,,,,,,,,,,,,,,,0,0,0,0,0,0,0,0,0,0,0,0,0,0,0,0,,,,,,,,,,,
1427933,1745091591615,0.0,199.6,,-0.05,0.09,1.12,-1,-0,1,1.13,1.42,79,3889,16.6,3.86,,13.11,1.249,100.6,,40.9,5,0,0,0,0,0.0,0.0,0.0,0.0,2.26,,,0,0,0,0,0,0,0,0,0,0,0,0,0,0,0,0,0,,,,0.0,39.239891,-77.96566,0.04,33,3,0.8
1427953,1745091591635,,,,,,,,,,,,,,,,,,,,,,,,,,,,,,,,,,0,0,0,0,0,0,0,0,0,0,0,0,0,0,0,0,,,,,,,,,,,
1427973,1745091591655,0.0,199.6,,-0.04,0.09,1.08,-1,-0,1,1.09,1.42,77,3889,16.6,3.86,,13.12,1.25,100.6,,38.9,5,,,,,,,,,,,,0,0,0,0,0,0,0,0,0,0,0,0,0,0,0,0,,,,,0.0,,,,,,
1427993,1745091591675,,,,,,,,,,,,,,,,,,,,,,,,,,,,,,,,,,0,0,0,0,0,0,0,0,0,0,0,0,0,0,0,0,,,,,,,,,,,
1428013,1745091591695,0.0,199.6,,-0.03,0.11,1.08,-0,-0,0,1.09,1.42,76,3884,16.6,3.89,,13.23,1.249,100.6,,38.9,5,,,,,,,,,,,,0,0,0,0,0,0,0,0,0,0,0,0,0,0,0,0,,,,,0.0,,,,,,
1428033,1745091591715,,,,,,,,,,,,,,,,,,,,,,,0,0,0,0,0.0,0.0,0.0,0.0,2.27,,,0,0,0,0,0,0,0,0,0,0,0,0,0,0,0,0,0,,,,,39.239891,-77.96566,0.08,33,3,0.8
1428053,1745091591735,0.0,199.6,,-0.03,0.15,1.08,-0,-0,1,1.09,1.42,77,3805,16.6,3.88,,13.23,1.249,100.6,,38.9,5,,,,,,,,,,,,0,0,0,0,0,0,0,0,0,0,0,0,0,0,0,0,,,,,0.0,,,,,,
1428073,1745091591755,,,,,,,,,,,,,,,,,,,,,,,,,,,,,,,,,,0,0,0,0,0,0,0,0,0,0,0,0,0,0,0,0,,,,,,,,,,,
1428093,1745091591775,0.0,199.6,,-0.04,0.15,1.08,-1,-0,1,1.09,1.42,77,3849,16.6,3.89,,13.23,1.251,100.6,,37.8,5,,,,,,,,,,,,0,0,0,0,0,0,0,0,0,0,0,0,0,0,0,0,,,,,0.0,,,,,,
1428113,1745091591793,,,,,,,,,,,,,,,,,,,,,,,,,,,,,,,,,,0,0,0,0,0,0,0,0,0,0,0,0,0,0,0,0,,,,,,,,,,,
1428133,1745091591813,0.0,199.6,,-0.04,0.12,1.08,-1,-0,1,1.09,1.42,77,3820,16.6,3.88,,13.23,1.251,100.6,,37.8,5,0,0,0,0,0.0,0.0,0.0,0.0,2.27,,,0,0,0,0,0,0,0,0,0,0,0,0,0,0,0,0,0,,,,0.0,39.239891,-77.96566,0.14,33,3,0.8
1428153,1745091591833,,,,,,,,,,,,,,,,,,,,,,,,,,,,,,,,,,0,0,0,0,0,0,0,0,0,0,0,0,0,0,0,0,,,,,,,,,,,
1428173,1745091591853,0.0,199.72,,-0.04,0.1,1.1,-1,-0,1,1.11,1.42,78,3820,16.6,3.88,,13.24,1.252,100.6,,37.2,5,,,,,,,,,,,,0,0,0,0,0,0,0,0,0,0,0,0,0,0,0,0,,,,,0.0,,,,,,
1428193,1745091591873,,,,,,,,,,,,,,,,,,,,,,,,,,,,,,,,,,0,0,0,0,0,0,0,0,0,0,0,0,0,0,0,0,,,,,,,,,,,
1428213,1745091591895,0.0,199.6,,-0.03,0.08,1.09,-1,-0,1,1.1,1.42,77,3744,16.6,3.91,,13.28,1.253,100.6,,37.2,5,,,,,,,,,,,,0,0,0,0,0,0,0,0,0,0,0,0,0,0,0,0,,,,,0.0,,,,,,
1428233,1745091591915,,,,,,,,,,,,,,,,,,,,,,,0,0,0,0,0.0,0.0,0.0,0.0,2.26,,,0,0,0,0,0,0,0,0,0,0,0,0,0,0,0,0,0,,,,,39.239891,-77.96566,0.08,33,3,0.8
1428253,1745091591935,0.0,199.6,,-0.04,0.04,1.07,-1,-0,1,1.07,1.42,76,3810,16.7,3.92,,13.24,1.253,100.6,,37.2,5,,,,,,,,,,,,0,0,0,0,0,0,0,0,0,0,0,0,0,0,0,0,,,,,0.0,,,,,,
1428273,1745091591955,,,,,,,,,,,,,,,,,,,,,,,,,,,,,,,,,,0,0,0,0,0,0,0,0,0,0,0,0,0,0,0,0,,,,,,,,,,,
1428293,1745091591975,0.0,199.6,,-0.05,0.01,1.04,-1,-0,0,1.04,1.42,73,3819,16.4,3.9,,13.21,1.252,100.6,,37.6,5,,,,,,,,,,,,0,0,0,0,0,0,0,0,0,0,0,0,0,0,0,0,,,,,0.0,,,,,,
1428313,1745091591995,,,,,,,,,,,,,,,,,,,,,,,,,,,,,,,,,,0,0,0,0,0,0,0,0,0,0,0,0,0,0,0,0,,,,,,,,,,,
1428333,1745091592006,0.0,199.6,,-0.07,-0.01,1.0,-0,-0,0,1.0,1.42,71,3861,15.8,3.86,,13.21,1.252,100.6,,37.6,5,0,0,0,0,0.0,0.0,0.0,0.0,2.27,,,0,0,0,0,0,0,0,0,0,0,0,0,0,0,0,0,0,,,,0.0,39.239891,-77.96566,0.04,33,3,0.8
1428353,1745091592026,,,,,,,,,,,,,,,,,,,,,,,,,,,,,,,,,,0,0,0,0,0,0,0,0,0,0,0,0,0,0,0,0,,,,,,,,,,,
1428373,1745091592046,0.0,199.72,,-0.06,-0.0,1.01,0,-0,-0,1.01,1.42,71,3861,15.8,3.86,,13.11,1.25,100.6,,38.3,5,,,,,,,,,,,,0,0,0,0,0,0,0,0,0,0,0,0,0,0,0,0,,,,,0.0,,,,,,
1428393,1745091592066,,,,,,,,,,,,,,,,,,,,,,,,,,,,,,,,,,0,0,0,0,0,0,0,0,0,0,0,0,0,0,0,0,,,,,,,,,,,
1428413,1745091592094,0.0,199.72,,-0.05,0.01,1.01,-0,-0,0,1.01,1.42,71,3800,15.7,3.85,,13.13,1.249,100.6,,38.3,5,,,,,,,,,,,,0,0,0,0,0,0,0,0,0,0,0,0,0,0,0,0,,,,,0.0,,,,,,
1428433,1745091592114,,,,,,,,,,,,,,,,,,,,,,,0,0,0,0,0.0,0.0,0.0,0.0,2.26,,,0,0,0,0,0,0,0,0,0,0,0,0,0,0,0,0,0,,,,,39.239891,-77.96566,0.04,33,3,0.8
1428453,1745091592134,0.0,199.72,,-0.04,0.0,1.01,0,-0,0,1.01,1.42,71,3815,15.5,3.86,,13.19,1.25,100.6,,38.3,5,,,,,,,,,,,,0,0,0,0,0,0,0,0,0,0,0,0,0,0,0,0,,,,,0.0,,,,,,
1428473,1745091592154,,,,,,,,,,,,,,,,,,,,,,,,,,,,,,,,,,0,0,0,0,0,0,0,0,0,0,0,0,0,0,0,0,,,,,,,,,,,
1428493,1745091592174,0.0,199.72,,-0.04,-0.01,0.99,0,-0,-0,0.99,1.42,69,3788,15.5,3.87,,13.11,1.249,100.6,,37.5,5,,,,,,,,,,,,0,0,0,0,0,0,0,0,0,0,0,0,0,0,0,0,,,,,0.0,,,,,,
1428513,1745091592192,,,,,,,,,,,,,,,,,,,,,,,,,,,,,,,,,,0,0,0,0,0,0,0,0,0,0,0,0,0,0,0,0,,,,,,,,,,,
1428533,1745091592212,0.0,199.72,,-0.06,-0.0,0.98,0,-0,-0,0.99,1.42,69,3753,15.5,3.86,,13.11,1.249,100.6,,37.5,5,0,0,0,0,0.0,0.0,0.0,0.0,2.27,,,0,0,0,0,0,0,0,0,0,0,0,0,0,0,0,0,0,,,,0.0,39.239891,-77.96566,0.05,33,3,0.8
1428553,1745091592232,,,,,,,,,,,,,,,,,,,,,,,,,,,,,,,,,,0,0,0,0,0,0,0,0,0,0,0,0,0,0,0,0,,,,,,,,,,,
1428573,1745091592252,0.0,199.72,,-0.07,0.01,1.0,0,-0,-0,1.0,1.42,70,3753,15.5,3.86,,13.15,1.25,100.6,,37.3,5,,,,,,,,,,,,0,0,0,0,0,0,0,0,0,0,0,0,0,0,0,0,,,,,0.0,,,,,,
1428593,1745091592272,,,,,,,,,,,,,,,,,,,,,,,,,,,,,,,,,,0,0,0,0,0,0,0,0,0,0,0,0,0,0,0,0,,,,,,,,,,,
1428613,1745091592294,0.0,199.72,,-0.06,0.03,1.01,0,-0,-0,1.01,1.42,71,3790,15.5,3.87,,13.2,1.252,100.6,,37.3,5,,,,,,,,,,,,0,0,0,0,0,0,0,0,0,0,0,0,0,0,0,0,,,,,0.0,,,,,,
1428633,1745091592314,,,,,,,,,,,,,,,,,,,,,,,0,0,0,0,0.0,0.0,0.0,0.0,2.27,,,0,0,0,0,0,0,0,0,0,0,0,0,0,0,0,0,0,,,,,39.239891,-77.96566,0.15,33,3,0.8
1428653,1745091592334,0.0,199.72,,-0.06,0.07,1.0,1,-0,-0,1.01,1.42,71,3793,15.5,3.86,,13.17,1.252,100.6,,37.3,5,,,,,,,,,,,,0,0,0,0,0,0,0,0,0,0,0,0,0,0,0,0,,,,,0.0,,,,,,
1428673,1745091592354,,,,,,,,,,,,,,,,,,,,,,,,,,,,,,,,,,0,0,0,0,0,0,0,0,0,0,0,0,0,0,0,0,,,,,,,,,,,
1428693,1745091592374,0.0,199.6,,-0.06,0.07,1.0,0,-0,-0,1.01,1.42,71,3803,15.5,3.87,,13.15,1.253,100.6,,37.2,5,,,,,,,,,,,,0,0,0,0,0,0,0,0,0,0,0,0,0,0,0,0,,,,,0.0,,,,,,
1428713,1745091592394,,,,,,,,,,,,,,,,,,,,,,,,,,,,,,,,,,0,0,0,0,0,0,0,0,0,0,0,0,0,0,0,0,,,,,,,,,,,
1428733,1745091592414,0.0,199.72,12.65,-0.05,0.06,1.01,0,-0,0,1.02,1.42,72,3731,15.5,3.86,15,13.15,1.253,100.6,153,37.2,5,0,0,0,0,0.0,0.0,0.0,0.0,2.26,0,0.0,0,0,0,0,0,0,0,0,0,0,0,0,0,0,0,0,0,0.0,0,-0,0.0,39.239891,-77.96566,0.0,33,3,0.8
1428753,1745091592434,,,,,,,,,,,,,,,,,,,,,,,,,,,,,,,,,,0,0,0,0,0,0,0,0,0,0,0,0,0,0,0,0,,,,,,,,,,,
1428773,1745091592454,0.0,199.72,,-0.05,0.06,1.04,0,-0,0,1.04,1.42,73,3731,15.5,3.86,,13.21,1.252,100.6,,37.0,5,,,,,,,,,,,,0,0,0,0,0,0,0,0,0,0,0,0,0,0,0,0,,,,,0.0,,,,,,
1428793,1745091592474,,,,,,,,,,,,,,,,,,,,,,,,,,,,,,,,,,0,0,0,0,0,0,0,0,0,0,0,0,0,0,0,0,,,,,,,,,,,
1428813,1745091592493,0.0,199.72,,-0.04,0.07,1.03,0,-0,0,1.03,1.42,73,3821,15.6,3.87,,13.15,1.252,100.6,,37.0,5,,,,,,,,,,,,0,0,0,0,0,0,0,0,0,0,0,0,0,0,0,0,,,,,0.0,,,,,,
1428833,1745091592513,,,,,,,,,,,,,,,,,,,,,,,0,0,0,0,0.0,0.0,0.0,0.0,2.26,,,0,0,0,0,0,0,0,0,0,0,0,0,0,0,0,0,0,,,,,39.239891,-77.96566,0.07,33,3,0.8
1428853,1745091592533,0.0,199.72,,-0.02,0.05,1.02,-0,-0,0,1.02,1.42,72,3741,15.6,3.88,,13.13,1.25,100.6,,37.0,5,,,,,,,,,,,,0,0,0,0,0,0,0,0,0,0,0,0,0,0,0,0,,,,,0.0,,,,,,
1428873,1745091592553,,,,,,,,,,,,,,,,,,,,,,,,,,,,,,,,,,0,0,0,0,0,0,0,0,0,0,0,0,0,0,0,0,,,,,,,,,,,
1428893,1745091592573,0.0,199.72,,-0.02,0.05,1.02,0,-0,0,1.02,1.42,72,3711,13.8,3.85,,13.13,1.249,100.6,,36.2,5,,,,,,,,,,,,0,0,0,0,0,0,0,0,0,0,0,0,0,0,0,0,,,,,0.0,,,,,,
1428913,1745091592594,,,,,,,,,,,,,,,,,,,,,,,,,,,,,,,,,,0,0,0,0,0,0,0,0,0,0,0,0,0,0,0,0,,,,,,,,,,,
1428933,1745091592614,0.0,199.72,,-0.01,0.05,1.02,0,-0,0,1.02,1.42,72,3737,13.4,3.84,,13.13,1.249,100.6,,36.2,5,0,0,0,0,0.0,0.0,0.0,0.0,2.27,,,0,0,0,0,0,0,0,0,0,0,0,0,0,0,0,0,0,,,,0.0,39.239891,-77.96566,0.12,33,3,0.8
1428953,1745091592634,,,,,,,,,,,,,,,,,,,,,,,,,,,,,,,,,,0,0,0,0,0,0,0,0,0,0,0,0,0,0,0,0,,,,,,,,,,,
1428973,1745091592654,0.0,199.85,,-0.02,0.07,0.99,0,-0,-0,0.99,1.42,70,3737,13.4,3.84,,13.07,1.249,100.6,,36.3,5,,,,,,,,,,,,0,0,0,0,0,0,0,0,0,0,0,0,0,0,0,0,,,,,0.0,,,,,,
1428993,1745091592674,,,,,,,,,,,,,,,,,,,,,,,,,,,,,,,,,,0,0,0,0,0,0,0,0,0,0,0,0,0,0,0,0,,,,,,,,,,,
1429013,1745091592694,0.0,199.85,,-0.04,0.08,0.97,1,-0,-0,0.98,1.42,69,3674,13.4,3.84,,13.11,1.25,100.6,,36.3,5,,,,,,,,,,,,0,0,0,0,0,0,0,0,0,0,0,0,0,0,0,0,,,,,0.0,,,,,,
1429033,1745091592714,,,,,,,,,,,,,,,,,,,,,,,0,0,0,0,0.0,0.0,0.0,0.0,2.27,,,0,0,0,0,0,0,0,0,0,0,0,0,0,0,0,0,0,,,,,39.239891,-77.96566,0.04,33,3,0.8
1429053,1745091592734,0.0,199.85,,-0.05,0.06,0.97,1,-0,-0,0.98,1.42,69,3732,13.4,3.84,,13.04,1.25,100.6,,36.3,5,,,,,,,,,,,,0,0,0,0,0,0,0,0,0,0,0,0,0,0,0,0,,,,,0.0,,,,,,
1429073,1745091592754,,,,,,,,,,,,,,,,,,,,,,,,,,,,,,,,,,0,0,0,0,0,0,0,0,0,0,0,0,0,0,0,0,,,,,,,,,,,
1429093,1745091592774,0.0,199.72,,-0.04,0.02,0.96,1,-0,-0,0.97,1.42,68,3668,13.4,3.83,,13.04,1.25,100.6,,36.5,5,,,,,,,,,,,,0,0,0,0,0,0,0,0,0,0,0,0,0,0,0,0,,,,,0.0,,,,,,
1429113,1745091592794,,,,,,,,,,,,,,,,,,,,,,,,,,,,,,,,,,0,0,0,0,0,0,0,0,0,0,0,0,0,0,0,0,,,,,,,,,,,
1429133,1745091592814,0.0,199.72,,-0.04,0.0,0.95,1,-0,-0,0.95,1.42,67,3782,13.4,3.83,,13.04,1.25,100.6,,36.5,5,0,0,0,0,0.0,0.0,0.0,0.0,2.27,,,0,0,0,0,0,0,0,0,0,0,0,0,0,0,0,0,0,,,,0.0,39.239891,-77.96566,0.11,33,3,0.8
1429153,1745091592834,,,,,,,,,,,,,,,,,,,,,,,,,,,,,,,,,,0,0,0,0,0,0,0,0,0,0,0,0,0,0,0,0,,,,,,,,,,,
1429173,1745091592854,0.0,199.72,,-0.06,-0.06,0.96,0,-0,-0,0.96,1.42,68,3782,13.4,3.83,,12.96,1.252,100.6,,37.2,5,,,,,,,,,,,,0,0,0,0,0,0,0,0,0,0,0,0,0,0,0,0,,,,,0.0,,,,,,
1429193,1745091592874,,,,,,,,,,,,,,,,,,,,,,,,,,,,,,,,,,0,0,0,0,0,0,0,0,0,0,0,0,0,0,0,0,,,,,,,,,,,
1429213,1745091592894,0.0,199.72,,-0.06,-0.03,0.97,0,-0,-0,0.97,1.42,69,3765,13.5,3.83,,13.04,1.253,100.6,,37.2,5,,,,,,,,,,,,0,0,0,0,0,0,0,0,0,0,0,0,0,0,0,0,,,,,0.0,,,,,,
1429233,1745091592914,,,,,,,,,,,,,,,,,,,,,,,0,0,0,0,0.0,0.0,0.0,0.0,2.26,,,0,0,0,0,0,0,0,0,0,0,0,0,0,0,0,0,0,,,,,39.239891,-77.96566,0.0,33,3,0.8
1429253,1745091592934,0.0,199.72,,-0.05,0.01,0.99,0,-0,0,0.99,1.42,69,3832,13.5,3.82,,13.0,1.253,100.6,,37.2,5,,,,,,,,,,,,0,0,0,0,0,0,0,0,0,0,0,0,0,0,0,0,,,,,0.0,,,,,,
1429273,1745091592954,,,,,,,,,,,,,,,,,,,,,,,,,,,,,,,,,,0,0,0,0,0,0,0,0,0,0,0,0,0,0,0,0,,,,,,,,,,,
1429293,1745091592974,0.0,199.85,,-0.04,0.06,1.0,-0,-0,0,1.0,1.42,70,3871,13.5,3.81,,12.96,1.252,100.6,,37.6,5,,,,,,,,,,,,0,0,0,0,0,0,0,0,0,0,0,0,0,0,0,0,,,,,0.0,,,,,,
1429313,1745091592994,,,,,,,,,,,,,,,,,,,,,,,,,,,,,,,,,,0,0,0,0,0,0,0,0,0,0,0,0,0,0,0,0,,,,,,,,,,,
1429333,1745091593005,0.0,199.85,,-0.04,0.03,1.01,-0,-0,0,1.01,1.42,71,3855,13.5,3.81,,12.96,1.252,100.6,,37.6,5,0,0,0,0,0.0,0.0,0.0,0.0,2.27,,,0,0,0,0,0,0,0,0,0,0,0,0,0,0,0,0,0,,,,0.0,39.239891,-77.96566,0.05,33,3,0.8
1429353,1745091593025,,,,,,,,,,,,,,,,,,,,,,,,,,,,,,,,,,0,0,0,0,0,0,0,0,0,0,0,0,0,0,0,0,,,,,,,,,,,
1429373,1745091593045,0.0,199.72,,-0.06,-0.03,0.99,-0,-0,0,0.99,1.42,70,3855,13.5,3.81,,12.99,1.25,100.6,,37.8,5,,,,,,,,,,,,0,0,0,0,0,0,0,0,0,0,0,0,0,0,0,0,,,,,0.0,,,,,,
1429393,1745091593065,,,,,,,,,,,,,,,,,,,,,,,,,,,,,,,,,,0,0,0,0,0,0,0,0,0,0,0,0,0,0,0,0,,,,,,,,,,,
1429413,1745091593093,0.0,199.72,,-0.04,-0.06,0.92,1,-0,-0,0.93,1.42,65,3921,13.4,3.81,,13.01,1.25,100.6,,37.8,5,,,,,,,,,,,,0,0,0,0,0,0,0,0,0,0,0,0,0,0,0,0,,,,,0.0,,,,,,
1429433,1745091593113,,,,,,,,,,,,,,,,,,,,,,,0,0,0,0,0.0,0.0,0.0,0.0,2.26,,,0,0,0,0,0,0,0,0,0,0,0,0,0,0,0,0,0,,,,,39.239891,-77.96566,0.0,33,3,0.8
1429453,1745091593133,0.0,199.85,,-0.06,-0.02,0.99,-0,-0,0,1.0,1.42,70,4132,13.3,3.8,,12.87,1.25,100.6,,37.8,5,,,,,,,,,,,,0,0,0,0,0,0,0,0,0,0,0,0,0,0,0,0,,,,,0.0,,,,,,
1429473,1745091593153,,,,,,,,,,,,,,,,,,,,,,,,,,,,,,,,,,0,0,0,0,0,0,0,0,0,0,0,0,0,0,0,0,,,,,,,,,,,
1429493,1745091593173,0.0,199.85,,-0.05,-0.12,0.89,1,-0,-1,0.9,1.42,63,4039,13.3,3.78,,12.87,1.25,100.6,,41.2,5,,,,,,,,,,,,0,0,0,0,0,0,0,0,0,0,0,0,0,0,0,0,,,,,0.0,,,,,,
1429513,1745091593193,,,,,,,,,,,,,,,,,,,,,,,,,,,,,,,,,,0,0,0,0,0,0,0,0,0,0,0,0,0,0,0,0,,,,,,,,,,,
1429533,1745091593213,0.0,199.85,,-0.05,-0.02,0.97,0,-0,-0,0.97,1.42,68,4070,13.3,3.8,,12.87,1.25,100.6,,41.2,5,0,0,0,0,0.0,0.0,0.0,0.0,2.27,,,0,0,0,0,0,0,0,0,0,0,0,0,0,0,0,0,0,,,,0.0,39.239891,-77.96566,0.05,33,3,0.8
1429553,1745091593233,,,,,,,,,,,,,,,,,,,,,,,,,,,,,,,,,,0,0,0,0,0,0,0,0,0,0,0,0,0,0,0,0,,,,,,,,,,,
1429573,1745091593253,0.0,199.72,,-0.05,-0.09,0.92,0,-0,-0,0.93,1.42,65,4070,13.3,3.8,,12.81,1.214,100.6,,40.2,5,,,,,,,,,,,,0,0,0,0,0,0,0,0,0,0,0,0,0,0,0,0,,,,,0.0,,,,,,
1429593,1745091593273,,,,,,,,,,,,,,,,,,,,,,,,,,,,,,,,,,0,0,0,0,0,0,0,0,0,0,0,0,0,0,0,0,,,,,,,,,,,
1429613,1745091593293,0.0,199.72,,-0.02,-0.04,0.91,1,-0,-1,0.91,1.42,64,4021,13.2,3.8,,12.83,1.239,100.6,,40.2,5,,,,,,,,,,,,0,0,0,0,0,0,0,0,0,0,0,0,0,0,0,0,,,,,0.0,,,,,,
1429633,1745091593313,,,,,,,,,,,,,,,,,,,,,,,0,0,0,0,0.0,0.0,0.0,0.0,2.27,,,0,0,0,0,0,0,0,0,0,0,0,0,0,0,0,0,0,,,,,39.239891,-77.96566,0.05,33,3,0.8
1429653,1745091593333,0.0,199.72,,-0.02,0.04,0.96,0,-0,-0,0.97,1.42,68,3980,13.2,3.8,,12.89,1.252,100.6,,40.2,5,,,,,,,,,,,,0,0,0,0,0,0,0,0,0,0,0,0,0,0,0,0,,,,,0.0,,,,,,
1429673,1745091593353,,,,,,,,,,,,,,,,,,,,,,,,,,,,,,,,,,0,0,0,0,0,0,0,0,0,0,0,0,0,0,0,0,,,,,,,,,,,
1429693,1745091593373,0.0,199.72,,-0.03,-0.03,0.94,0,-0,-0,0.94,1.42,67,3981,13.3,3.81,,12.88,1.253,100.6,,39.0,5,,,,,,,,,,,,0,0,0,0,0,0,0,0,0,0,0,0,0,0,0,0,,,,,0.0,,,,,,
1429713,1745091593393,,,,,,,,,,,,,,,,,,,,,,,,,,,,,,,,,,0,0,0,0,0,0,0,0,0,0,0,0,0,0,0,0,,,,,,,,,,,
1429733,1745091593413,0.0,199.72,12.7,-0.03,-0.07,0.9,1,-1,-1,0.9,1.42,63,3958,13.3,3.8,15,12.88,1.253,100.6,149,39.0,5,0,0,0,0,0.0,0.0,0.0,0.0,2.26,0,0.0,0,0,0,0,0,0,0,0,0,0,0,0,0,0,0,0,0,0.0,0,-0,0.0,39.239891,-77.96566,0.07,33,3,0.8
1429753,1745091593433,,,,,,,,,,,,,,,,,,,,,,,,,,,,,,,,,,0,0,0,0,0,0,0,0,0,0,0,0,0,0,0,0,,,,,,,,,,,
1429773,1745091593453,0.0,199.72,,-0.02,-0.04,0.93,1,-1,-1,0.93,1.42,65,3958,13.3,3.8,,12.95,1.254,100.6,,39.0,5,,,,,,,,,,,,0,0,0,0,0,0,0,0,0,0,0,0,0,0,0,0,,,,,0.0,,,,,,
1429793,1745091593473,,,,,,,,,,,,,,,,,,,,,,,,,,,,,,,,,,0,0,0,0,0,0,0,0,0,0,0,0,0,0,0,0,,,,,,,,,,,
1429813,1745091593493,0.0,199.72,,-0.03,-0.05,0.98,0,-0,-0,0.98,1.42,69,3909,13.3,3.8,,12.92,1.252,100.6,,39.0,5,,,,,,,,,,,,0,0,0,0,0,0,0,0,0,0,0,0,0,0,0,0,,,,,0.0,,,,,,
1429833,1745091593513,,,,,,,,,,,,,,,,,,,,,,,0,0,0,0,0.0,0.0,0.0,0.0,2.27,,,0,0,0,0,0,0,0,0,0,0,0,0,0,0,0,0,0,,,,,39.239891,-77.96566,0.1,33,3,0.8
1429853,1745091593533,0.0,199.6,,-0.05,-0.14,0.9,1,-0,-1,0.91,1.42,64,4008,13.4,3.8,,12.85,1.25,100.6,,39.0,5,,,,,,,,,,,,0,0,0,0,0,0,0,0,0,0,0,0,0,0,0,0,,,,,0.0,,,,,,
1429873,1745091593553,,,,,,,,,,,,,,,,,,,,,,,,,,,,,,,,,,0,0,0,0,0,0,0,0,0,0,0,0,0,0,0,0,,,,,,,,,,,
1429893,1745091593573,0.0,199.6,,-0.04,-0.1,0.88,1,-0,-1,0.89,1.42,63,3983,13.2,3.8,,12.92,1.251,100.6,,39.4,5,,,,,,,,,,,,0,0,0,0,0,0,0,0,0,0,0,0,0,0,0,0,,,,,0.0,,,,,,
1429913,1745091593593,,,,,,,,,,,,,,,,,,,,,,,,,,,,,,,,,,0,0,0,0,0,0,0,0,0,0,0,0,0,0,0,0,,,,,,,,,,,
1429933,1745091593613,0.0,199.72,,-0.05,0.0,0.95,0,-0,-0,0.95,1.42,67,3945,13.1,3.8,,12.92,1.251,100.6,,39.4,5,0,0,0,0,0.0,0.0,0.0,0.0,2.27,,,0,0,0,0,0,0,0,0,0,0,0,0,0,0,0,0,0,,,,0.0,39.239891,-77.96566,0.0,33,3,0.8
1429953,1745091593633,,,,,,,,,,,,,,,,,,,,,,,,,,,,,,,,,,0,0,0,0,0,0,0,0,0,0,0,0,0,0,0,0,,,,,,,,,,,
1429973,1745091593653,0.0,199.72,,-0.07,-0.04,0.96,-0,-0,-0,0.96,1.42,68,3945,13.1,3.8,,12.85,1.25,100.6,,38.9,5,,,,,,,,,,,,0,0,0,0,0,0,0,0,0,0,0,0,0,0,0,0,,,,,0.0,,,,,,
1429993,1745091593673,,,,,,,,,,,,,,,,,,,,,,,,,,,,,,,,,,0,0,0,0,0,0,0,0,0,0,0,0,0,0,0,0,,,,,,,,,,,
1430013,1745091593695,0.0,199.6,,-0.07,-0.09,0.87,1,-0,-1,0.88,1.42,62,3966,13.2,3.81,,12.88,1.25,100.6,,38.9,5,,,,,,,,,,,,0,0,0,0,0,0,0,0,0,0,0,0,0,0,0,0,,,,,0.0,,,,,,
1430033,1745091593715,,,,,,,,,,,,,,,,,,,,,,,0,0,0,0,0.0,0.0,0.0,0.0,2.27,,,0,0,0,0,0,0,0,0,0,0,0,0,0,0,0,0,0,,,,,39.239891,-77.96566,0.0,33,3,0.8
1430053,1745091593735,0.0,199.6,,-0.08,0.03,0.96,-0,-0,0,0.96,1.42,68,4089,13.2,3.8,,12.89,1.249,100.6,,38.9,5,,,,,,,,,,,,0,0,0,0,0,0,0,0,0,0,0,0,0,0,0,0,,,,,0.0,,,,,,
1430073,1745091593755,,,,,,,,,,,,,,,,,,,,,,,,,,,,,,,,,,0,0,0,0,0,0,0,0,0,0,0,0,0,0,0,0,,,,,,,,,,,
1430093,1745091593775,0.0,199.6,,-0.08,-0.09,0.87,-0,-0,-0,0.88,1.42,62,4046,13.1,3.79,,12.89,1.251,100.6,,40.3,5,,,,,,,,,,,,0,0,0,0,0,0,0,0,0,0,0,0,0,0,0,0,,,,,0.0,,,,,,
1430113,1745091593795,,,,,,,,,,,,,,,,,,,,,,,,,,,,,,,,,,0,0,0,0,0,0,0,0,0,0,0,0,0,0,0,0,,,,,,,,,,,
1430133,1745091593815,0.0,199.6,,-0.07,-0.02,0.91,0,-1,-0,0.92,1.42,65,4097,13.1,3.8,,12.89,1.251,100.6,,40.3,5,0,0,0,0,0.0,0.0,0.0,0.0,2.27,,,0,0,0,0,0,0,0,0,0,0,0,0,0,0,0,0,0,,,,0.0,39.239891,-77.96566,0.04,33,3,0.8
1430153,1745091593835,,,,,,,,,,,,,,,,,,,,,,,,,,,,,,,,,,0,0,0,0,0,0,0,0,0,0,0,0,0,0,0,0,,,,,,,,,,,
1430173,1745091593855,0.0,199.6,,-0.08,-0.07,0.92,-0,-0,-0,0.92,1.42,65,4097,13.1,3.8,,12.83,1.252,100.6,,40.6,5,,,,,,,,,,,,0,0,0,0,0,0,0,0,0,0,0,0,0,0,0,0,,,,,0.0,,,,,,
1430193,1745091593875,,,,,,,,,,,,,,,,,,,,,,,,,,,,,,,,,,0,0,0,0,0,0,0,0,0,0,0,0,0,0,0,0,,,,,,,,,,,
1430213,1745091593895,0.0,199.47,,-0.06,-0.1,0.86,1,-1,-1,0.87,1.42,61,4036,13.2,3.8,,12.84,1.252,100.6,,40.6,5,,,,,,,,,,,,0,0,0,0,0,0,0,0,0,0,0,0,0,0,0,0,,,,,0.0,,,,,,
1430233,1745091593915,,,,,,,,,,,,,,,,,,,,,,,0,0,0,0,0.0,0.0,0.0,0.0,2.27,,,0,0,0,0,0,0,0,0,0,0,0,0,0,0,0,0,0,,,,,39.239891,-77.96566,0.0,33,3,0.8
1430253,1745091593935,0.0,199.47,,-0.05,0.01,0.95,1,-1,-0,0.95,1.42,67,3992,13.3,3.79,,12.95,1.253,100.6,,40.6,5,,,,,,,,,,,,0,0,0,0,0,0,0,0,0,0,0,0,0,0,0,0,,,,,0.0,,,,,,
1430273,1745091593955,,,,,,,,,,,,,,,,,,,,,,,,,,,,,,,,,,0,0,0,0,0,0,0,0,0,0,0,0,0,0,0,0,,,,,,,,,,,
1430293,1745091593975,0.0,199.6,,-0.05,-0.06,0.91,0,-1,-0,0.91,1.42,64,4042,13.2,3.8,,12.85,1.252,100.6,,39.6,5,,,,,,,,,,,,0,0,0,0,0,0,0,0,0,0,0,0,0,0,0,0,,,,,0.0,,,,,,
1430313,1745091593995,,,,,,,,,,,,,,,,,,,,,,,,,,,,,,,,,,0,0,0,0,0,0,0,0,0,0,0,0,0,0,0,0,,,,,,,,,,,
1430333,1745091594006,0.0,199.6,,-0.03,-0.03,0.9,1,-1,-1,0.9,1.42,63,4024,13.3,3.8,,12.85,1.252,100.6,,39.6,5,0,0,0,0,0.0,0.0,0.0,0.0,2.26,,,0,0,0,0,0,0,0,0,0,0,0,0,0,0,0,0,0,,,,0.0,39.239891,-77.96566,0.0,33,3,0.8
1430353,1745091594026,,,,,,,,,,,,,,,,,,,,,,,,,,,,,,,,,,0,0,0,0,0,0,0,0,0,0,0,0,0,0,0,0,,,,,,,,,,,
1430373,1745091594046,0.0,199.47,,-0.02,0.06,0.97,0,-1,-0,0.97,1.42,68,4024,13.3,3.8,,12.88,1.25,100.6,,39.8,5,,,,,,,,,,,,0,0,0,0,0,0,0,0,0,0,0,0,0,0,0,0,,,,,0.0,,,,,,
1430393,1745091594066,,,,,,,,,,,,,,,,,,,,,,,,,,,,,,,,,,0,0,0,0,0,0,0,0,0,0,0,0,0,0,0,0,,,,,,,,,,,
1430413,1745091594086,0.0,199.47,,-0.03,-0.0,0.94,0,-0,-0,0.94,1.42,66,3935,13.3,3.8,,12.92,1.251,100.6,,39.8,5,,,,,,,,,,,,0,0,0,0,0,0,0,0,0,0,0,0,0,0,0,0,,,,,0.0,,,,,,
1430433,1745091594108,,,,,,,,,,,,,,,,,,,,,,,0,0,0,0,0.0,0.0,0.0,0.0,2.27,,,0,0,0,0,0,0,0,0,0,0,0,0,0,0,0,0,0,,,,,39.239891,-77.96566,0.05,33,3,0.8
1430453,1745091594128,0.0,199.6,,-0.02,-0.05,0.9,1,-0,-1,0.9,1.42,63,4005,10.1,3.76,,12.72,1.25,100.6,,39.8,5,,,,,,,,,,,,0,0,0,0,0,0,0,0,0,0,0,0,0,0,0,0,,,,,0.0,,,,,,
1430473,1745091594148,,,,,,,,,,,,,,,,,,,,,,,,,,,,,,,,,,0,0,0,0,0,0,0,0,0,0,0,0,0,0,0,0,,,,,,,,,,,
1430493,1745091594168,0.0,199.47,,-0.01,0.01,0.93,1,-1,-1,0.93,1.42,66,3943,9.5,3.7,,12.6,1.25,100.6,,39.3,5,,,,,,,,,,,,0,0,0,0,0,0,0,0,0,0,0,0,0,0,0,0,,,,,0.0,,,,,,
1430513,1745091594188,,,,,,,,,,,,,,,,,,,,,,,,,,,,,,,,,,0,0,0,0,0,0,0,0,0,0,0,0,0,0,0,0,,,,,,,,,,,
1430533,1745091594208,0.0,199.6,,-0.02,0.0,0.98,1,-0,-0,0.98,1.42,69,3895,9.3,3.7,,12.6,1.25,98.8,,39.3,5,0,0,0,0,0.0,0.0,0.0,0.0,2.27,,,0,0,0,0,0,0,0,0,0,0,0,0,0,0,0,0,0,,,,0.0,39.239891,-77.96566,0.05,33,3,0.8
1430553,1745091594228,,,,,,,,,,,,,,,,,,,,,,,,,,,,,,,,,,0,0,0,0,0,0,0,0,0,0,0,0,0,0,0,0,,,,,,,,,,,
1430573,1745091594248,0.0,199.6,,-0.04,-0.04,0.99,0,-0,-0,0.99,1.42,70,3895,9.3,3.7,,12.57,1.25,98.8,,38.9,5,,,,,,,,,,,,0,0,0,0,0,0,0,0,0,0,0,0,0,0,0,0,,,,,0.0,,,,,,
1430593,1745091594268,,,,,,,,,,,,,,,,,,,,,,,,,,,,,,,,,,0,0,0,0,0,0,0,0,0,0,0,0,0,0,0,0,,,,,,,,,,,
1430613,1745091594292,0.0,199.6,,-0.06,-0.08,0.95,1,-0,-1,0.96,1.42,67,3922,9.2,3.69,,12.49,1.251,98.8,,38.9,5,,,,,,,,,,,,0,0,0,0,0,0,0,0,0,0,0,0,0,0,0,0,,,,,0.0,,,,,,
1430633,1745091594312,,,,,,,,,,,,,,,,,,,,,,,0,0,0,0,0.0,0.0,0.0,0.0,2.27,,,0,0,0,0,0,0,0,0,0,0,0,0,0,0,0,0,0,,,,,39.239891,-77.96566,0.0,33,3,0.8
1430653,1745091594332,0.0,199.6,,-0.06,-0.09,0.96,1,-0,-1,0.96,1.42,68,3842,9.2,3.68,,12.56,1.252,98.8,,38.9,5,,,,,,,,,,,,0,0,0,0,0,0,0,0,0,0,0,0,0,0,0,0,,,,,0.0,,,,,,
1430673,1745091594352,,,,,,,,,,,,,,,,,,,,,,,,,,,,,,,,,,0,0,0,0,0,0,0,0,0,0,0,0,0,0,0,0,,,,,,,,,,,
1430693,1745091594372,0.0,199.6,,-0.05,-0.07,0.97,1,-0,-0,0.97,1.42,68,3795,9.2,3.69,,12.53,1.253,98.8,,37.8,5,,,,,,,,,,,,0,0,0,0,0,0,0,0,0,0,0,0,0,0,0,0,,,,,0.0,,,,,,
1430713,1745091594394,,,,,,,,,,,,,,,,,,,,,,,,,,,,,,,,,,0,0,0,0,0,0,0,0,0,0,0,0,0,0,0,0,,,,,,,,,,,
1430733,1745091594414,0.0,199.47,12.73,-0.04,-0.06,0.96,1,-0,-0,0.97,1.42,68,3822,9.2,3.69,15,12.53,1.253,98.8,147,37.8,5,0,0,0,0,0.0,0.0,0.0,0.0,2.26,0,0.0,0,0,0,0,0,0,0,0,0,0,0,0,0,0,0,0,0,0.0,0,-0,0.0,39.239891,-77.96566,0.07,33,3,0.8
1430753,1745091594434,,,,,,,,,,,,,,,,,,,,,,,,,,,,,,,,,,0,0,0,0,0,0,0,0,0,0,0,0,0,0,0,0,,,,,,,,,,,
1430773,1745091594454,0.0,199.47,,-0.03,-0.07,0.96,1,-0,-1,0.96,1.42,68,3822,9.2,3.69,,12.52,1.253,98.8,,37.2,5,,,,,,,,,,,,0,0,0,0,0,0,0,0,0,0,0,0,0,0,0,0,,,,,0.0,,,,,,
1430793,1745091594474,,,,,,,,,,,,,,,,,,,,,,,,,,,,,,,,,,0,0,0,0,0,0,0,0,0,0,0,0,0,0,0,0,,,,,,,,,,,
1430813,1745091594494,0.0,199.47,,-0.04,-0.03,0.97,1,-0,-0,0.97,1.42,68,3773,9.2,3.68,,12.51,1.252,98.8,,37.2,5,,,,,,,,,,,,0,0,0,0,0,0,0,0,0,0,0,0,0,0,0,0,,,,,0.0,,,,,,
1430833,1745091594514,,,,,,,,,,,,,,,,,,,,,,,0,0,0,0,0.0,0.0,0.0,0.0,2.27,,,0,0,0,0,0,0,0,0,0,0,0,0,0,0,0,0,0,,,,,39.239891,-77.96566,0.07,33,3,0.8
1430853,1745091594534,0.0,199.47,,-0.05,-0.01,0.98,1,-0,-0,0.98,1.42,69,3841,9.1,3.3,,12.53,1.251,98.8,,37.2,5,,,,,,,,,,,,0,0,0,0,0,0,0,0,0,0,0,0,0,0,0,0,,,,,0.0,,,,,,
1430873,1745091594554,,,,,,,,,,,,,,,,,,,,,,,,,,,,,,,,,,0,0,0,0,0,0,0,0,0,0,0,0,0,0,0,0,,,,,,,,,,,
1430893,1745091594574,0.0,199.35,,-0.06,0.0,0.98,1,-0,-0,0.98,1.42,69,3713,8.9,3.7,,12.65,1.251,98.8,,36.7,5,,,,,,,,,,,,0,0,0,0,0,0,0,0,0,0,0,0,0,0,0,0,,,,,0.0,,,,,,
1430913,1745091594594,,,,,,,,,,,,,,,,,,,,,,,,,,,,,,,,,,0,0,0,0,0,0,0,0,0,0,0,0,0,0,0,0,,,,,,,,,,,
1430933,1745091594614,0.0,199.47,,-0.07,-0.08,0.95,1,-0,-1,0.96,1.42,67,3659,8.7,3.71,,12.65,1.251,98.8,,36.7,5,0,0,0,0,0.0,0.0,0.0,0.0,2.27,,,0,0,0,0,0,0,0,0,0,0,0,0,0,0,0,0,0,,,,0.0,39.239891,-77.96566,0.04,33,3,0.8
1430953,1745091594634,,,,,,,,,,,,,,,,,,,,,,,,,,,,,,,,,,0,0,0,0,0,0,0,0,0,0,0,0,0,0,0,0,,,,,,,,,,,
1430973,1745091594654,0.0,199.47,,-0.07,-0.07,1.0,1,-0,-1,1.0,1.42,71,3659,8.7,3.71,,12.61,1.192,98.8,,35.4,5,,,,,,,,,,,,0,0,0,0,0,0,0,0,0,0,0,0,0,0,0,0,,,,,0.0,,,,,,
1430993,1745091594674,,,,,,,,,,,,,,,,,,,,,,,,,,,,,,,,,,0,0,0,0,0,0,0,0,0,0,0,0,0,0,0,0,,,,,,,,,,,
1431013,1745091594694,0.0,199.47,,-0.05,-0.02,1.0,1,-0,-0,1.0,1.42,71,3577,8.7,3.69,,12.72,1.107,98.8,,35.4,5,,,,,,,,,,,,0,0,0,0,0,0,0,0,0,0,0,0,0,0,0,0,,,,,0.0,,,,,,
1431033,1745091594714,,,,,,,,,,,,,,,,,,,,,,,0,0,0,0,0.0,0.0,0.0,0.0,2.27,,,0,0,0,0,0,0,0,0,0,0,0,0,0,0,0,0,0,,,,,39.239891,-77.96566,0.55,33,3,0.8
1431053,1745091594734,0.0,199.47,,-0.05,-0.04,0.95,1,-0,-1,0.95,1.42,67,3500,8.7,3.7,,12.83,1.065,98.8,,35.4,5,,,,,,,,,,,,0,0,0,0,0,0,0,0,0,0,0,0,0,0,0,0,,,,,0.0,,,,,,
1431073,1745091594754,,,,,,,,,,,,,,,,,,,,,,,,,,,,,,,,,,0,0,0,0,0,0,0,0,0,0,0,0,0,0,0,0,,,,,,,,,,,
1431093,1745091594774,0.0,199.47,,-0.06,-0.07,0.99,1,-0,-0,1.0,1.42,70,3474,8.6,3.71,,12.91,1.055,98.8,,33.7,5,,,,,,,,,,,,0,0,0,0,0,0,0,0,0,0,0,0,0,0,0,0,,,,,0.0,,,,,,
1431113,1745091594794,,,,,,,,,,,,,,,,,,,,,,,,,,,,,,,,,,0,0,0,0,0,0,0,0,0,0,0,0,0,0,0,0,,,,,,,,,,,
1431133,1745091594814,0.0,199.47,,-0.05,0.03,0.98,0,-0,-0,0.99,1.42,69,3497,8.6,3.71,,12.91,1.055,98.8,,33.7,5,0,0,0,0,0.0,0.0,0.0,0.0,2.27,,,0,0,0,0,0,0,0,0,0,0,0,0,0,0,0,0,0,,,,0.0,39.239891,-77.96566,0.35,33,3,0.8
1431153,1745091594834,,,,,,,,,,,,,,,,,,,,,,,,,,,,,,,,,,0,0,0,0,0,0,0,0,0,0,0,0,0,0,0,0,,,,,,,,,,,
1431173,1745091594854,0.0,199.47,,-0.06,0.01,0.93,1,-0,-1,0.94,1.42,66,3497,8.6,3.71,,12.88,1.093,98.8,,33.6,5,,,,,,,,,,,,0,0,0,0,0,0,0,0,0,0,0,0,0,0,0,0,,,,,0.0,,,,,,
1431193,1745091594874,,,,,,,,,,,,,,,,,,,,,,,,,,,,,,,,,,0,0,0,0,0,0,0,0,0,0,0,0,0,0,0,0,,,,,,,,,,,
1431213,1745091594894,0.0,199.35,,-0.05,0.05,1.01,0,-0,-0,1.01,1.42,71,3445,8.7,3.71,,12.87,1.153,98.8,,33.6,5,,,,,,,,,,,,0,0,0,0,0,0,0,0,0,0,0,0,0,0,0,0,,,,,0.0,,,,,,
1431233,1745091594914,,,,,,,,,,,,,,,,,,,,,,,0,0,0,0,0.0,0.0,0.0,0.0,2.27,,,0,0,0,0,0,0,0,0,0,0,0,0,0,0,0,0,0,,,,,39.239891,-77.96566,0.13,33,3,0.8
1431253,1745091594934,0.0,199.47,,-0.03,0.08,0.94,0,-1,-0,0.94,1.42,66,3499,8.8,3.32,,12.87,1.201,98.8,,33.6,5,,,,,,,,,,,,0,0,0,0,0,0,0,0,0,0,0,0,0,0,0,0,,,,,0.0,,,,,,
1431273,1745091594954,,,,,,,,,,,,,,,,,,,,,,,,,,,,,,,,,,0,0,0,0,0,0,0,0,0,0,0,0,0,0,0,0,,,,,,,,,,,
1431293,1745091594974,0.0,199.47,,-0.04,0.04,1.01,0,-0,-0,1.02,1.42,71,3337,8.9,3.71,,12.91,1.248,98.8,,32.2,5,,,,,,,,,,,,0,0,0,0,0,0,0,0,0,0,0,0,0,0,0,0,,,,,0.0,,,,,,
1431313,1745091594994,,,,,,,,,,,,,,,,,,,,,,,,,,,,,,,,,,0,0,0,0,0,0,0,0,0,0,0,0,0,0,0,0,,,,,,,,,,,
1431333,1745091595005,0.0,199.47,,-0.06,0.01,0.98,1,-0,-0,0.98,1.42,69,3211,8.9,3.72,,12.91,1.248,98.8,,32.2,5,0,0,0,0,0.0,0.0,0.0,0.0,2.26,,,0,0,0,0,0,0,0,0,0,0,0,0,0,0,0,0,0,,,,0.0,39.239891,-77.96566,0.23,33,3,0.8
1431353,1745091595025,,,,,,,,,,,,,,,,,,,,,,,,,,,,,,,,,,0,0,0,0,0,0,0,0,0,0,0,0,0,0,0,0,,,,,,,,,,,
1431373,1745091595045,0.0,199.6,,-0.03,0.09,0.96,0,-1,-0,0.96,1.42,68,3211,8.9,3.72,,13.01,1.251,98.8,,30.8,5,,,,,,,,,,,,0,0,0,0,0,0,0,0,0,0,0,0,0,0,0,0,,,,,0.0,,,,,,
1431393,1745091595065,,,,,,,,,,,,,,,,,,,,,,,,,,,,,,,,,,0,0,0,0,0,0,0,0,0,0,0,0,0,0,0,0,,,,,,,,,,,
1431413,1745091595085,0.0,199.47,,-0.02,0.04,1.01,-0,-0,0,1.01,1.42,71,3222,8.8,3.73,,12.99,1.251,98.8,,30.8,5,,,,,,,,,,,,0,0,0,0,0,0,0,0,0,0,0,0,0,0,0,0,,,,,0.0,,,,,,
1431433,1745091595107,,,,,,,,,,,,,,,,,,,,,,,0,0,0,0,0.0,0.0,0.0,0.0,2.27,,,0,0,0,0,0,0,0,0,0,0,0,0,0,0,0,0,0,,,,,39.239891,-77.96566,0.16,33,3,0.8
1431453,1745091595127,0.0,199.6,,-0.04,-0.01,1.05,-0,-0,0,1.05,1.42,74,3209,8.8,3.74,,13.0,1.251,98.8,,30.8,5,,,,,,,,,,,,0,0,0,0,0,0,0,0,0,0,0,0,0,0,0,0,,,,,0.0,,,,,,
1431473,1745091595147,,,,,,,,,,,,,,,,,,,,,,,,,,,,,,,,,,0,0,0,0,0,0,0,0,0,0,0,0,0,0,0,0,,,,,,,,,,,
1431493,1745091595167,0.0,199.6,,-0.06,-0.05,1.02,0,-0,-0,1.03,1.42,72,3078,8.8,3.74,,13.05,1.25,98.8,,30.0,5,,,,,,,,,,,,0,0,0,0,0,0,0,0,0,0,0,0,0,0,0,0,,,,,0.0,,,,,,
1431513,1745091595191,,,,,,,,,,,,,,,,,,,,,,,,,,,,,,,,,,0,0,0,0,0,0,0,0,0,0,0,0,0,0,0,0,,,,,,,,,,,
1431533,1745091595211,0.0,199.47,,-0.06,0.02,0.94,1,-0,-1,0.94,1.42,66,3183,8.8,3.74,,13.05,1.25,98.8,,30.0,5,0,0,0,0,0.0,0.0,0.0,0.0,2.27,,,0,0,0,0,0,0,0,0,0,0,0,0,0,0,0,0,0,,,,0.0,39.239891,-77.96566,0.11,33,3,0.8
1431553,1745091595231,,,,,,,,,,,,,,,,,,,,,,,,,,,,,,,,,,0,0,0,0,0,0,0,0,0,0,0,0,0,0,0,0,,,,,,,,,,,
1431573,1745091595251,0.0,199.47,,-0.04,0.08,0.94,0,-0,0,0.94,1.42,66,3183,8.8,3.74,,13.07,1.25,98.8,,29.5,5,,,,,,,,,,,,0,0,0,0,0,0,0,0,0,0,0,0,0,0,0,0,,,,,0.0,,,,,,
1431593,1745091595271,,,,,,,,,,,,,,,,,,,,,,,,,,,,,,,,,,0,0,0,0,0,0,0,0,0,0,0,0,0,0,0,0,,,,,,,,,,,
1431613,1745091595293,0.0,199.47,,-0.04,0.04,1.0,-0,-0,0,1.01,1.42,71,3190,8.7,3.74,,13.07,1.251,98.8,,29.5,5,,,,,,,,,,,,0,0,0,0,0,0,0,0,0,0,0,0,0,0,0,0,,,,,0.0,,,,,,
1431633,1745091595313,,,,,,,,,,,,,,,,,,,,,,,0,0,0,0,0.0,0.0,0.0,0.0,2.27,,,0,0,0,0,0,0,0,0,0,0,0,0,0,0,0,0,0,,,,,39.239891,-77.96566,0.3,33,3,0.8
1431653,1745091595333,0.0,199.47,,-0.07,-0.05,1.03,-0,-0,0,1.03,1.42,73,3143,8.8,3.74,,13.09,1.252,98.8,,29.5,5,,,,,,,,,,,,0,0,0,0,0,0,0,0,0,0,0,0,0,0,0,0,,,,,0.0,,,,,,
1431673,1745091595353,,,,,,,,,,,,,,,,,,,,,,,,,,,,,,,,,,0,0,0,0,0,0,0,0,0,0,0,0,0,0,0,0,,,,,,,,,,,
1431693,1745091595373,0.0,199.6,,-0.06,-0.0,0.96,0,-0,-0,0.96,1.42,68,3299,8.8,3.33,,13.0,1.253,98.8,,30.5,5,,,,,,,,,,,,0,0,0,0,0,0,0,0,0,0,0,0,0,0,0,0,,,,,0.0,,,,,,
1431713,1745091595393,,,,,,,,,,,,,,,,,,,,,,,,,,,,,,,,,,0,0,0,0,0,0,0,0,0,0,0,0,0,0,0,0,,,,,,,,,,,
1431733,1745091595413,0.0,199.6,12.74,-0.03,0.07,0.94,0,-0,0,0.95,1.42,67,3114,8.9,3.73,15,13.0,1.253,98.8,146,30.5,5,0,0,0,0,0.0,0.0,0.0,0.0,2.27,0,0.0,0,0,0,0,0,0,0,0,0,0,0,0,0,0,0,0,0,0.0,0,-0,0.0,39.239891,-77.96566,0.23,33,3,0.8
1431753,1745091595433,,,,,,,,,,,,,,,,,,,,,,,,,,,,,,,,,,0,0,0,0,0,0,0,0,0,0,0,0,0,0,0,0,,,,,,,,,,,
1431773,1745091595453,0.0,199.6,,-0.01,0.11,0.95,-0,-1,0,0.95,1.42,67,3114,8.9,3.73,,13.05,1.254,98.8,,28.8,5,,,,,,,,,,,,0,0,0,0,0,0,0,0,0,0,0,0,0,0,0,0,,,,,0.0,,,,,,
1431793,1745091595473,,,,,,,,,,,,,,,,,,,,,,,,,,,,,,,,,,0,0,0,0,0,0,0,0,0,0,0,0,0,0,0,0,,,,,,,,,,,
1431813,1745091595495,0.0,199.6,,0.01,0.08,1.02,-1,-1,1,1.02,1.42,72,2967,9.0,3.74,,13.17,1.253,98.8,,28.8,5,,,,,,,,,,,,0,0,0,0,0,0,0,0,0,0,0,0,0,0,0,0,,,,,0.0,,,,,,
1431833,1745091595515,,,,,,,,,,,,,,,,,,,,,,,0,0,0,0,0.0,0.0,0.0,0.0,2.27,,,0,0,0,0,0,0,0,0,0,0,0,0,0,0,0,0,0,,,,,39.239891,-77.96566,0.08,33,3,0.8
1431853,1745091595535,0.0,199.6,,-0.01,-0.03,1.09,-1,-0,1,1.09,1.42,77,3128,9.0,3.75,,13.16,1.25,98.8,,28.8,5,,,,,,,,,,,,0,0,0,0,0,0,0,0,0,0,0,0,0,0,0,0,,,,,0.0,,,,,,
1431873,1745091595555,,,,,,,,,,,,,,,,,,,,,,,,,,,,,,,,,,0,0,0,0,0,0,0,0,0,0,0,0,0,0,0,0,,,,,,,,,,,
1431893,1745091595575,0.0,199.6,,-0.02,-0.01,1.01,-0,-0,0,1.01,1.42,71,3254,13.1,3.84,,13.23,1.251,98.8,,30.2,5,,,,,,,,,,,,0,0,0,0,0,0,0,0,0,0,0,0,0,0,0,0,,,,,0.0,,,,,,
1431913,1745091595595,,,,,,,,,,,,,,,,,,,,,,,,,,,,,,,,,,0,0,0,0,0,0,0,0,0,0,0,0,0,0,0,0,,,,,,,,,,,
1431933,1745091595615,0.0,199.6,,-0.01,0.06,0.96,-0,-1,0,0.97,1.42,68,3125,15.4,3.99,,13.23,1.251,98.8,,30.2,5,0,0,0,0,0.0,0.0,0.0,0.0,2.27,,,0,0,0,0,0,0,0,0,0,0,0,0,0,0,0,0,0,,,,0.0,39.239891,-77.96566,0.21,33,3,0.8
1431953,1745091595635,,,,,,,,,,,,,,,,,,,,,,,,,,,,,,,,,,0,0,0,0,0,0,0,0,0,0,0,0,0,0,0,0,,,,,,,,,,,
1431973,1745091595655,0.0,199.6,,0.01,0.07,0.99,-0,-1,1,0.99,1.42,70,3125,15.4,3.99,,13.44,1.251,98.8,,30.4,5,,,,,,,,,,,,0,0,0,0,0,0,0,0,0,0,0,0,0,0,0,0,,,,,0.0,,,,,,
1431993,1745091595675,,,,,,,,,,,,,,,,,,,,,,,,,,,,,,,,,,0,0,0,0,0,0,0,0,0,0,0,0,0,0,0,0,,,,,,,,,,,
1432013,1745091595695,0.0,199.6,,-0.01,0.03,1.05,-0,-0,0,1.05,1.42,74,0,15.8,3.96,,13.44,1.251,98.8,,30.4,5,,,,,,,,,,,,0,0,0,0,0,0,0,0,0,0,0,0,0,0,0,0,,,,,0.0,,,,,,
1432033,1745091595715,,,,,,,,,,,,,,,,,,,,,,,0,0,0,0,0.0,0.0,0.0,0.0,2.27,,,0,0,0,0,0,0,0,0,0,0,0,0,0,0,0,0,0,,,,,39.239891,-77.96566,0.39,33,3,0.8
1432053,1745091595735,0.0,199.6,,-0.04,-0.03,1.1,-0,-0,0,1.1,1.42,77,3106,16.0,4.03,,13.52,1.251,98.8,,30.4,5,,,,,,,,,,,,0,0,0,0,0,0,0,0,0,0,0,0,0,0,0,0,,,,,0.0,,,,,,
1432073,1745091595755,,,,,,,,,,,,,,,,,,,,,,,,,,,,,,,,,,0,0,0,0,0,0,0,0,0,0,0,0,0,0,0,0,,,,,,,,,,,
1432093,1745091595775,0.0,199.6,,-0.07,-0.05,1.1,0,-0,-0,1.1,1.42,77,3027,15.9,4.07,,13.61,1.25,98.8,,28.8,5,,,,,,,,,,,,0,0,0,0,0,0,0,0,0,0,0,0,0,0,0,0,,,,,0.0,,,,,,
1432113,1745091595795,,,,,,,,,,,,,,,,,,,,,,,,,,,,,,,,,,0,0,0,0,0,0,0,0,0,0,0,0,0,0,0,0,,,,,,,,,,,
1432133,1745091595815,0.0,199.6,,-0.09,-0.03,1.02,0,-0,-0,1.02,1.42,72,3072,15.9,4.05,,13.61,1.25,98.8,,28.8,5,0,0,0,0,0.0,0.0,0.0,0.0,2.27,,,0,0,0,0,0,0,0,0,0,0,0,0,0,0,0,0,0,,,,0.0,39.239891,-77.96566,0.06,33,3,0.8
1432153,1745091595835,,,,,,,,,,,,,,,,,,,,,,,,,,,,,,,,,,0,0,0,0,0,0,0,0,0,0,0,0,0,0,0,0,,,,,,,,,,,
1432173,1745091595855,0.0,199.6,,-0.08,-0.01,0.92,1,-0,-1,0.92,1.42,65,3072,15.9,4.05,,13.6,1.253,98.8,,28.5,5,,,,,,,,,,,,0,0,0,0,0,0,0,0,0,0,0,0,0,0,0,0,,,,,0.0,,,,,,
1432193,1745091595875,,,,,,,,,,,,,,,,,,,,,,,,,,,,,,,,,,0,0,0,0,0,0,0,0,0,0,0,0,0,0,0,0,,,,,,,,,,,
1432213,1745091595895,0.0,199.6,,-0.07,0.02,0.84,1,-1,-1,0.84,1.42,59,3091,16.0,4.09,,13.63,1.254,98.8,,28.5,5,,,,,,,,,,,,0,0,0,0,0,0,0,0,0,0,0,0,0,0,0,0,,,,,0.0,,,,,,
1432233,1745091595915,,,,,,,,,,,,,,,,,,,,,,,0,0,0,0,0.0,0.0,0.0,0.0,2.26,,,0,0,0,0,0,0,0,0,0,0,0,0,0,0,0,0,0,,,,,39.239891,-77.96566,0.5,33,3,0.8
1432253,1745091595935,0.0,199.6,,-0.06,0.04,0.78,1,-1,-1,0.78,1.42,55,3037,16.1,4.07,,13.6,1.253,98.8,,28.5,5,,,,,,,,,,,,0,0,0,0,0,0,0,0,0,0,0,0,0,0,0,0,,,,,0.0,,,,,,
1432273,1745091595955,,,,,,,,,,,,,,,,,,,,,,,,,,,,,,,,,,0,0,0,0,0,0,0,0,0,0,0,0,0,0,0,0,,,,,,,,,,,
1432293,1745091595975,0.0,199.6,,-0.04,0.09,0.75,1,-1,-0,0.75,1.42,53,3022,16.1,4.07,,13.61,1.253,98.8,,28.9,5,,,,,,,,,,,,0,0,0,0,0,0,0,0,0,0,0,0,0,0,0,0,,,,,0.0,,,,,,
1432313,1745091595995,,,,,,,,,,,,,,,,,,,,,,,,,,,,,,,,,,0,0,0,0,0,0,0,0,0,0,0,0,0,0,0,0,,,,,,,,,,,
1432333,1745091596006,0.0,199.47,,-0.02,0.13,0.79,0,-1,0,0.8,1.42,56,3076,16.0,4.05,,13.61,1.253,98.8,,28.9,5,0,0,0,0,0.0,0.0,0.0,0.0,2.27,,,0,0,0,0,0,0,0,0,0,0,0,0,0,0,0,0,0,,,,0.0,39.239891,-77.96566,0.46,33,3,0.8
1432353,1745091596026,,,,,,,,,,,,,,,,,,,,,,,,,,,,,,,,,,0,0,0,0,0,0,0,0,0,0,0,0,0,0,0,0,,,,,,,,,,,
1432373,1745091596046,0.0,199.6,,-0.02,0.05,0.89,0,-1,0,0.89,1.42,63,3076,16.0,4.05,,13.59,1.25,98.8,,29.9,5,,,,,,,,,,,,0,0,0,0,0,0,0,0,0,0,0,0,0,0,0,0,,,,,0.0,,,,,,
1432393,1745091596066,,,,,,,,,,,,,,,,,,,,,,,,,,,,,,,,,,0,0,0,0,0,0,0,0,0,0,0,0,0,0,0,0,,,,,,,,,,,
1432413,1745091596092,0.0,199.47,,-0.03,0.01,0.86,1,-1,-0,0.86,1.42,61,3268,16.0,4.04,,13.55,1.25,98.8,,29.9,5,,,,,,,,,,,,0,0,0,0,0,0,0,0,0,0,0,0,0,0,0,0,,,,,0.0,,,,,,
1432433,1745091596112,,,,,,,,,,,,,,,,,,,,,,,0,0,0,0,0.0,0.0,0.0,0.0,2.27,,,0,0,0,0,0,0,0,0,0,0,0,0,0,0,0,0,0,,,,,39.239891,-77.96566,0.62,33,3,0.8
1432453,1745091596132,0.0,199.6,,-0.03,0.05,0.91,0,-1,0,0.92,1.42,65,3309,15.9,4.01,,13.55,1.251,98.8,,29.9,5,,,,,,,,,,,,0,0,0,0,0,0,0,0,0,0,0,0,0,0,0,0,,,,,0.0,,,,,,
1432473,1745091596152,,,,,,,,,,,,,,,,,,,,,,,,,,,,,,,,,,0,0,0,0,0,0,0,0,0,0,0,0,0,0,0,0,,,,,,,,,,,
1432493,1745091596172,0.0,199.47,,-0.03,0.03,0.86,1,-1,-0,0.86,1.42,61,3401,15.9,3.99,,13.53,1.251,98.8,,32.4,5,,,,,,,,,,,,0,0,0,0,0,0,0,0,0,0,0,0,0,0,0,0,,,,,0.0,,,,,,
1432513,1745091596194,,,,,,,,,,,,,,,,,,,,,,,,,,,,,,,,,,0,0,0,0,0,0,0,0,0,0,0,0,0,0,0,0,,,,,,,,,,,
1432533,1745091596214,0.0,199.47,,-0.03,0.07,0.94,0,-1,0,0.94,1.42,66,3470,16.0,3.99,,13.53,1.251,98.8,,32.4,5,0,0,0,0,0.0,0.0,0.0,0.0,2.27,,,0,0,0,0,0,0,0,0,0,0,0,0,0,0,0,0,0,,,,0.0,39.239891,-77.96566,0.11,33,3,0.8
1432553,1745091596234,,,,,,,,,,,,,,,,,,,,,,,,,,,,,,,,,,0,0,0,0,0,0,0,0,0,0,0,0,0,0,0,0,,,,,,,,,,,
1432573,1745091596254,0.0,199.6,,-0.02,0.07,0.9,0,-1,-0,0.9,1.42,63,3470,16.0,3.99,,13.52,1.251,98.8,,33.6,5,,,,,,,,,,,,0,0,0,0,0,0,0,0,0,0,0,0,0,0,0,0,,,,,0.0,,,,,,
1432593,1745091596274,,,,,,,,,,,,,,,,,,,,,,,,,,,,,,,,,,0,0,0,0,0,0,0,0,0,0,0,0,0,0,0,0,,,,,,,,,,,
1432613,1745091596294,0.0,199.6,,-0.04,0.02,0.91,1,-0,-0,0.91,1.42,64,3477,16.0,3.96,,13.43,1.251,98.8,,33.6,5,,,,,,,,,,,,0,0,0,0,0,0,0,0,0,0,0,0,0,0,0,0,,,,,0.0,,,,,,
1432633,1745091596314,,,,,,,,,,,,,,,,,,,,,,,0,0,0,0,0.0,0.0,0.0,0.0,2.27,,,0,0,0,0,0,0,0,0,0,0,0,0,0,0,0,0,0,,,,,39.239891,-77.96566,0.04,33,3,0.8
1432653,1745091596334,0.0,199.6,,-0.05,0.02,0.93,0,-0,-0,0.93,1.42,66,3574,15.9,3.95,,13.39,1.252,98.8,,33.6,5,,,,,,,,,,,,0,0,0,0,0,0,0,0,0,0,0,0,0,0,0,0,,,,,0.0,,,,,,
1432673,1745091596354,,,,,,,,,,,,,,,,,,,,,,,,,,,,,,,,,,0,0,0,0,0,0,0,0,0,0,0,0,0,0,0,0,,,,,,,,,,,
1432693,1745091596374,0.0,199.6,,-0.06,0.06,0.94,0,-0,0,0.94,1.42,66,3612,15.9,3.91,,13.37,1.253,98.8,,35.3,5,,,,,,,,,,,,0,0,0,0,0,0,0,0,0,0,0,0,0,0,0,0,,,,,0.0,,,,,,
1432713,1745091596394,,,,,,,,,,,,,,,,,,,,,,,,,,,,,,,,,,0,0,0,0,0,0,0,0,0,0,0,0,0,0,0,0,,,,,,,,,,,
1432733,1745091596414,0.0,199.6,12.75,-0.05,0.07,0.95,0,-0,0,0.95,1.42,67,3722,14.9,3.9,15,13.37,1.253,98.8,146,35.3,5,0,0,0,0,0.0,0.0,0.0,0.0,2.27,0,0.0,0,0,0,0,0,0,0,0,0,0,0,0,0,0,0,0,0,0.0,0,-0,0.0,39.239891,-77.96566,0.05,33,3,0.8
1432753,1745091596434,,,,,,,,,,,,,,,,,,,,,,,,,,,,,,,,,,0,0,0,0,0,0,0,0,0,0,0,0,0,0,0,0,,,,,,,,,,,
1432773,1745091596454,0.0,199.6,,-0.05,0.04,0.94,0,-0,0,0.94,1.42,67,3722,14.9,3.9,,13.23,1.253,98.8,,36.2,5,,,,,,,,,,,,0,0,0,0,0,0,0,0,0,0,0,0,0,0,0,0,,,,,0.0,,,,,,
1432793,1745091596474,,,,,,,,,,,,,,,,,,,,,,,,,,,,,,,,,,0,0,0,0,0,0,0,0,0,0,0,0,0,0,0,0,,,,,,,,,,,
1432813,1745091596494,0.0,199.6,,-0.06,0.02,0.91,1,-0,-0,0.91,1.42,64,3819,13.1,3.83,,13.07,1.252,98.8,,36.2,5,,,,,,,,,,,,0,0,0,0,0,0,0,0,0,0,0,0,0,0,0,0,,,,,0.0,,,,,,
1432833,1745091596514,,,,,,,,,,,,,,,,,,,,,,,0,0,0,0,0.0,0.0,0.0,0.0,2.27,,,0,0,0,0,0,0,0,0,0,0,0,0,0,0,0,0,0,,,,,39.239891,-77.96566,0.08,33,3,0.8
1432853,1745091596534,0.0,199.6,,-0.06,0.01,0.89,1,-0,-0,0.89,1.42,63,3873,11.3,3.8,,12.87,1.251,98.8,,36.2,5,,,,,,,,,,,,0,0,0,0,0,0,0,0,0,0,0,0,0,0,0,0,,,,,0.0,,,,,,
1432873,1745091596554,,,,,,,,,,,,,,,,,,,,,,,,,,,,,,,,,,0,0,0,0,0,0,0,0,0,0,0,0,0,0,0,0,,,,,,,,,,,
1432893,1745091596574,0.0,199.6,,-0.05,0.06,0.93,1,-1,-0,0.94,1.42,66,3894,9.9,3.73,,12.76,1.251,98.8,,37.8,5,,,,,,,,,,,,0,0,0,0,0,0,0,0,0,0,0,0,0,0,0,0,,,,,0.0,,,,,,
1432913,1745091596594,,,,,,,,,,,,,,,,,,,,,,,,,,,,,,,,,,0,0,0,0,0,0,0,0,0,0,0,0,0,0,0,0,,,,,,,,,,,
1432933,1745091596614,0.0,199.72,,-0.06,0.07,0.99,-0,-1,0,0.99,1.42,70,3922,9.3,3.71,,12.76,1.251,98.8,,37.8,5,0,0,0,0,0.0,0.0,0.0,0.0,2.26,,,0,0,0,0,0,0,0,0,0,0,0,0,0,0,0,0,0,,,,0.0,39.239891,-77.96566,0.11,33,3,0.8
1432953,1745091596634,,,,,,,,,,,,,,,,,,,,,,,,,,,,,,,,,,0,0,0,0,0,0,0,0,0,0,0,0,0,0,0,0,,,,,,,,,,,
1432973,1745091596654,0.0,199.6,,-0.08,-0.01,0.95,-0,-0,0,0.95,1.42,67,3922,9.3,3.71,,12.67,1.251,98.8,,38.5,5,,,,,,,,,,,,0,0,0,0,0,0,0,0,0,0,0,0,0,0,0,0,,,,,0.0,,,,,,
1432993,1745091596674,,,,,,,,,,,,,,,,,,,,,,,,,,,,,,,,,,0,0,0,0,0,0,0,0,0,0,0,0,0,0,0,0,,,,,,,,,,,
1433013,1745091596694,0.0,199.6,,-0.07,-0.02,0.94,0,-0,-0,0.94,1.42,66,3928,9.3,3.69,,12.55,1.178,98.8,,38.5,5,,,,,,,,,,,,0,0,0,0,0,0,0,0,0,0,0,0,0,0,0,0,,,,,0.0,,,,,,
1433033,1745091596714,,,,,,,,,,,,,,,,,,,,,,,0,0,0,0,0.0,0.0,0.0,0.0,2.27,,,0,0,0,0,0,0,0,0,0,0,0,0,0,0,0,0,0,,,,,39.239891,-77.96566,0.0,33,3,0.8
1433053,1745091596734,0.0,199.72,,-0.07,0.08,1.02,0,-0,0,1.02,1.42,72,3986,9.3,3.68,,12.55,1.114,98.8,,38.5,5,,,,,,,,,,,,0,0,0,0,0,0,0,0,0,0,0,0,0,0,0,0,,,,,0.0,,,,,,
1433073,1745091596754,,,,,,,,,,,,,,,,,,,,,,,,,,,,,,,,,,0,0,0,0,0,0,0,0,0,0,0,0,0,0,0,0,,,,,,,,,,,
1433093,1745091596774,0.0,199.72,,-0.08,0.03,1.06,-0,-0,0,1.06,1.42,75,3929,9.2,3.69,,12.53,1.084,98.8,,38.8,5,,,,,,,,,,,,0,0,0,0,0,0,0,0,0,0,0,0,0,0,0,0,,,,,0.0,,,,,,
1433113,1745091596794,,,,,,,,,,,,,,,,,,,,,,,,,,,,,,,,,,0,0,0,0,0,0,0,0,0,0,0,0,0,0,0,0,,,,,,,,,,,
1433133,1745091596814,0.0,199.72,,-0.08,-0.06,1.0,-0,-0,0,1.01,1.42,71,3933,9.3,3.69,,12.53,1.084,98.8,,38.8,5,0,0,0,0,0.0,0.0,0.0,0.0,2.27,,,0,0,0,0,0,0,0,0,0,0,0,0,0,0,0,0,0,,,,0.0,39.239891,-77.96566,0.07,33,3,0.8
1433153,1745091596834,,,,,,,,,,,,,,,,,,,,,,,,,,,,,,,,,,0,0,0,0,0,0,0,0,0,0,0,0,0,0,0,0,,,,,,,,,,,
1433173,1745091596854,0.0,199.85,,-0.07,-0.01,1.0,0,-0,-0,1.0,1.42,71,3933,9.3,3.69,,12.52,1.076,98.8,,38.3,5,,,,,,,,,,,,0,0,0,0,0,0,0,0,0,0,0,0,0,0,0,0,,,,,0.0,,,,,,
1433193,1745091596874,,,,,,,,,,,,,,,,,,,,,,,,,,,,,,,,,,0,0,0,0,0,0,0,0,0,0,0,0,0,0,0,0,,,,,,,,,,,
