"Interval"|"ms"|0|0|1,"Utc"|"ms"|0|0|1,"FrontBP"|"psi"|-5.0|5.0|25,"SteerAng"|"Degrees"|-145.0|145.0|25,"Battery"|"Volts"|-5.0|20.0|1,"AccelX"|"G"|-3.0|3.0|25,"AccelY"|"G"|-3.0|3.0|25,"AccelZ"|"G"|-3.0|3.0|25,"Yaw"|"Deg/Sec"|-120|120|25,"Pitch"|"Deg/Sec"|-120|120|25,"Roll"|"Deg/Sec"|-120|120|25,"Gsum"|"G"|0.0|3.0|25,"GsumMax"|"G"|0.0|3.0|25,"GsumPct"|"%"|0|100|25,"RPM"|""|0|10000|25,"TPS"|"%"|0.0|100.0|25,"InjectorPW"|"ms"|0.0|100.0|25,"Baro"|"kPa"|0|105|1,"MAP"|"Psi"|0.0|255.0|25,"Lambda"|""|-2.0|2.0|25,"IAT"|"C"|0.0|200.0|25,"EngineTemp"|"C"|0|200|1,"EOP"|"PSI"|0.0|152.0|25,"EOT"|"F"|0|250|25,"WSFR"|"MPH"|0|150|10,"WSFL"|"MPH"|0|100|10,"WSRR"|"MPH"|0|100|10,"WSRL"|""|0|100|10,"TCSet"|"%"|0.0|100.0|10,"TCSlip"|"%"|0.0|100.0|10,"TCComp"|"deg"|0.0|50.0|10,"TCCut"|"%"|0.0|100.0|10,"Analog8"|""|0.0|5.0|10,"OilTemp"|"F"|0|300|1,"AA_On"|""|0.0|1.0|1,"ThermLF1"|"C"|0|400|50,"ThermLF2"|"C"|0|400|50,"ThermRR1"|"C"|0|400|50,"ThermRR2"|"C"|0|400|50,"ThermLF3"|"C"|0|400|50,"ThermLF4"|"C"|0|400|50,"ThermLF5"|"C"|0|400|50,"ThermLF6"|"C"|0|400|50,"ThermLF7"|"C"|0|400|50,"ThermLF8"|"C"|0|400|50,"ThermRR3"|"C"|0|400|50,"ThermRR4"|"C"|0|400|50,"ThermRR5"|"C"|0|400|50,"ThermRR6"|"C"|0|400|50,"ThermRR7"|"C"|0|400|50,"ThermRR8"|"C"|0|400|50,"Gear"|""|1|6|10,"AA_On"|""|0.0|1.0|1,"AA_LowDrag"|""|0|1|1,"Fuel_Mix"|""|-10|10|1,"AA_Packages"|""|0.0|1000.0|25,"Latitude"|"Degrees"|-180.0|180.0|10,"Longitude"|"Degrees"|-180.0|180.0|10,"Speed"|"kph"|0.0|150.0|10,"GPSSats"|""|0|20|10,"GPSQual"|""|0|5|10,"GPSDOP"|""|0.0|20.0|10
801953,1745090965636,,,,,,,,,,,,,,,,,,,,,,,,,,,,,,,,,,0,0,0,0,0,0,0,0,0,0,0,0,0,0,0,0,,,,,,,,,,,
801973,1745090965656,0.0,202.99,,-0.09,-0.0,0.96,0,-0,0,0.96,0.96,100,8726,57.8,5.66,,13.29,1.085,98.8,,65.5,5,,,,,,,,,,,,0,0,0,0,0,0,0,0,0,0,0,0,0,0,0,0,,,,,0.0,,,,,,
801993,1745090965676,,,,,,,,,,,,,,,,,,,,,,,,,,,,,,,,,,0,0,0,0,0,0,0,0,0,0,0,0,0,0,0,0,,,,,,,,,,,
802013,1745090965696,0.0,202.99,,-0.05,-0.4,0.96,1,-0,-0,1.04,1.04,100,10354,51.0,5.04,,12.83,1.017,98.8,,65.5,5,,,,,,,,,,,,0,0,0,0,0,0,0,0,0,0,0,0,0,0,0,0,,,,,0.0,,,,,,
802033,1745090965718,,,,,,,,,,,,,,,,,,,,,,,0,0,0,0,0.0,0.0,0.0,0.0,2.27,,,0,0,0,0,0,0,0,0,0,0,0,0,0,0,0,0,0,,,,,39.240097,-77.964836,0.2,31,3,0.9
802053,1745090965738,0.0,202.99,,-0.02,-0.15,0.95,1,-0,-1,0.96,1.04,93,11783,11.2,4.55,,9.86,0.996,98.8,,70.8,5,,,,,,,,,,,,0,0,0,0,0,0,0,0,0,0,0,0,0,0,0,0,,,,,0.0,,,,,,
802073,1745090965758,,,,,,,,,,,,,,,,,,,,,,,,,,,,,,,,,,0,0,0,0,0,0,0,0,0,0,0,0,0,0,0,0,,,,,,,,,,,
802093,1745090965778,0.0,202.99,,-0.04,-0.1,0.98,0,-0,-0,0.98,1.04,94,12188,3.0,1.98,,9.86,0.996,98.8,,70.8,5,,,,,,,,,,,,0,0,0,0,0,0,0,0,0,0,0,0,0,0,0,0,,,,,0.0,,,,,,
802113,1745090965798,,,,,,,,,,,,,,,,,,,,,,,,,,,,,,,,,,0,0,0,0,0,0,0,0,0,0,0,0,0,0,0,0,,,,,,,,,,,
802133,1745090965816,0.0,202.74,,-0.07,-0.13,0.95,1,-0,-0,0.96,1.04,92,12188,3.0,1.98,,7.27,0.979,98.8,,72.1,5,0,0,0,0,0.0,0.0,0.0,0.0,2.27,,,0,0,0,0,0,0,0,0,0,0,0,0,0,0,0,0,0,,,,0.0,39.240097,-77.964836,0.41,31,3,0.9
802153,1745090965836,,,,,,,,,,,,,,,,,,,,,,,,,,,,,,,,,,0,0,0,0,0,0,0,0,0,0,0,0,0,0,0,0,,,,,,,,,,,
802173,1745090965856,0.0,202.74,,-0.06,-0.15,0.86,2,-1,-0,0.87,1.04,84,12149,4.6,1.72,,6.19,0.936,98.8,,72.1,5,,,,,,,,,,,,0,0,0,0,0,0,0,0,0,0,0,0,0,0,0,0,,,,,0.0,,,,,,
802193,1745090965876,,,,,,,,,,,,,,,,,,,,,,,,,,,,,,,,,,0,0,0,0,0,0,0,0,0,0,0,0,0,0,0,0,,,,,,,,,,,
802213,1745090965896,0.0,202.74,,-0.06,-0.22,0.78,3,-1,-1,0.81,1.04,78,11848,35.5,2.05,,7.99,0.942,98.8,,72.1,5,,,,,,,,,,,,0,0,0,0,0,0,0,0,0,0,0,0,0,0,0,0,,,,,0.0,,,,,,
802233,1745090965918,,,,,,,,,,,,,,,,,,,,,,,0,0,0,0,0.0,0.0,0.0,0.0,2.26,,,0,0,0,0,0,0,0,0,0,0,0,0,0,0,0,0,0,,,,,39.240097,-77.964836,0.32,31,3,0.9
802253,1745090965938,0.0,202.74,,-0.06,-0.17,0.84,2,-1,-1,0.86,1.04,82,11383,48.8,2.62,,10.1,1.025,98.8,,70.1,5,,,,,,,,,,,,0,0,0,0,0,0,0,0,0,0,0,0,0,0,0,0,,,,,0.0,,,,,,
802273,1745090965958,,,,,,,,,,,,,,,,,,,,,,,,,,,,,,,,,,0,0,0,0,0,0,0,0,0,0,0,0,0,0,0,0,,,,,,,,,,,
802293,1745090965978,0.0,202.61,,-0.06,-0.1,0.86,1,-1,-1,0.86,1.04,83,10853,50.3,3.97,,10.1,1.025,98.8,,70.1,5,,,,,,,,,,,,0,0,0,0,0,0,0,0,0,0,0,0,0,0,0,0,,,,,0.0,,,,,,
802313,1745090965998,,,,,,,,,,,,,,,,,,,,,,,,,,,,,,,,,,0,0,0,0,0,0,0,0,0,0,0,0,0,0,0,0,,,,,,,,,,,
802333,1745090966010,0.0,202.49,,-0.02,-0.47,0.93,1,-1,-1,1.04,1.04,100,10853,50.3,3.97,,11.96,1.225,98.8,,67.6,5,0,0,0,0,0.0,0.0,0.0,0.0,2.27,,,0,0,0,0,0,0,0,0,0,0,0,0,0,0,0,0,0,,,,0.0,39.240097,-77.964836,0.18,33,3,0.8
802353,1745090966030,,,,,,,,,,,,,,,,,,,,,,,,,,,,,,,,,,0,0,0,0,0,0,0,0,0,0,0,0,0,0,0,0,,,,,,,,,,,
802373,1745090966050,0.0,202.49,,-0.05,-0.54,0.91,2,-1,-1,1.05,1.05,100,10585,24.8,4.49,,10.93,1.252,98.8,,67.6,5,,,,,,,,,,,,0,0,0,0,0,0,0,0,0,0,0,0,0,0,0,0,,,,,0.0,,,,,,
802393,1745090966070,,,,,,,,,,,,,,,,,,,,,,,,,,,,,,,,,,0,0,0,0,0,0,0,0,0,0,0,0,0,0,0,0,,,,,,,,,,,
802413,1745090966090,0.0,202.61,,-0.04,-0.39,1.02,1,-1,-1,1.09,1.09,100,11395,1.8,1.4,,8.09,1.254,98.8,,67.6,5,,,,,,,,,,,,0,0,0,0,0,0,0,0,0,0,0,0,0,0,0,0,,,,,0.0,,,,,,
802433,1745090966108,,,,,,,,,,,,,,,,,,,,,,,0,0,0,0,0.0,0.0,0.0,0.0,2.27,,,0,0,0,0,0,0,0,0,0,0,0,0,0,0,0,0,0,,,,,39.240097,-77.964836,0.04,33,3,0.8
802453,1745090966128,0.0,202.49,,-0.04,-0.41,0.96,2,-1,-1,1.05,1.09,96,10989,0.9,1.4,,6.26,1.246,98.8,,70.3,5,,,,,,,,,,,,0,0,0,0,0,0,0,0,0,0,0,0,0,0,0,0,,,,,0.0,,,,,,
802473,1745090966148,,,,,,,,,,,,,,,,,,,,,,,,,,,,,,,,,,0,0,0,0,0,0,0,0,0,0,0,0,0,0,0,0,,,,,,,,,,,
802493,1745090966168,0.0,202.49,,-0.06,-0.16,0.9,1,-1,-0,0.92,1.09,84,10416,15.3,2.09,,6.26,1.246,98.8,,70.3,5,,,,,,,,,,,,0,0,0,0,0,0,0,0,0,0,0,0,0,0,0,0,,,,,0.0,,,,,,
802513,1745090966188,,,,,,,,,,,,,,,,,,,,,,,,,,,,,,,,,,0,0,0,0,0,0,0,0,0,0,0,0,0,0,0,0,,,,,,,,,,,
802533,1745090966216,0.0,202.36,,-0.08,-0.1,0.95,1,-1,-1,0.96,1.09,88,10416,15.3,2.09,,6.62,1.175,98.8,,68.8,5,0,0,0,0,0.0,0.0,0.0,0.0,2.26,,,0,0,0,0,0,0,0,0,0,0,0,0,0,0,0,0,0,,,,0.0,39.240097,-77.964836,0.54,33,3,0.8
802553,1745090966236,,,,,,,,,,,,,,,,,,,,,,,,,,,,,,,,,,0,0,0,0,0,0,0,0,0,0,0,0,0,0,0,0,,,,,,,,,,,
802573,1745090966256,0.0,202.36,,-0.09,-0.08,0.88,2,-1,-1,0.89,1.09,82,10022,34.4,2.79,,8.89,1.253,98.8,,68.8,5,,,,,,,,,,,,0,0,0,0,0,0,0,0,0,0,0,0,0,0,0,0,,,,,0.0,,,,,,
802593,1745090966276,,,,,,,,,,,,,,,,,,,,,,,,,,,,,,,,,,0,0,0,0,0,0,0,0,0,0,0,0,0,0,0,0,,,,,,,,,,,
802613,1745090966296,0.0,202.24,,-0.1,-0.0,0.9,1,-0,-1,0.91,1.09,83,9702,38.3,3.57,,10.56,1.252,98.8,,68.8,5,,,,,,,,,,,,0,0,0,0,0,0,0,0,0,0,0,0,0,0,0,0,,,,,0.0,,,,,,
802633,1745090966316,,,,,,,,,,,,,,,,,,,,,,,0,0,0,0,0.0,0.0,0.0,0.0,2.27,,,0,0,0,0,0,0,0,0,0,0,0,0,0,0,0,0,0,,,,,39.240097,-77.964836,0.21,33,3,0.8
802653,1745090966336,0.0,202.24,,-0.07,0.01,0.88,1,-1,-1,0.88,1.09,81,9477,38.8,4.86,,11.32,1.252,98.8,,66.3,5,,,,,,,,,,,,0,0,0,0,0,0,0,0,0,0,0,0,0,0,0,0,,,,,0.0,,,,,,
802673,1745090966356,,,,,,,,,,,,,,,,,,,,,,,,,,,,,,,,,,0,0,0,0,0,0,0,0,0,0,0,0,0,0,0,0,,,,,,,,,,,
802693,1745090966376,0.0,202.11,,-0.08,-0.07,0.9,1,-1,-0,0.91,1.09,83,10155,16.3,4.07,,11.32,1.252,98.8,,66.3,5,,,,,,,,,,,,0,0,0,0,0,0,0,0,0,0,0,0,0,0,0,0,,,,,0.0,,,,,,
802713,1745090966396,,,,,,,,,,,,,,,,,,,,,,,,,,,,,,,,,,0,0,0,0,0,0,0,0,0,0,0,0,0,0,0,0,,,,,,,,,,,
802733,1745090966415,0.0,202.11,12.36,-0.11,-0.28,0.95,2,-0,-0,1.0,1.09,92,10155,16.3,4.07,15,9.9,1.251,98.8,153,69.6,5,0,0,0,0,0.0,0.0,0.0,0.0,2.27,0,0.0,0,0,0,0,0,0,0,0,0,0,0,0,0,0,0,0,0,0.0,0,-0,0.0,39.240097,-77.964836,0.09,33,3,0.8
802753,1745090966435,,,,,,,,,,,,,,,,,,,,,,,,,,,,,,,,,,0,0,0,0,0,0,0,0,0,0,0,0,0,0,0,0,,,,,,,,,,,
802773,1745090966455,0.0,201.99,,-0.07,-0.23,1.02,2,-0,-1,1.05,1.09,96,10927,10.0,2.41,,8.26,1.251,98.8,,69.6,5,,,,,,,,,,,,0,0,0,0,0,0,0,0,0,0,0,0,0,0,0,0,,,,,0.0,,,,,,
802793,1745090966475,,,,,,,,,,,,,,,,,,,,,,,,,,,,,,,,,,0,0,0,0,0,0,0,0,0,0,0,0,0,0,0,0,,,,,,,,,,,
802813,1745090966495,0.0,201.99,,-0.08,-0.16,0.96,3,-0,-1,0.97,1.09,89,10885,24.6,2.9,,8.33,1.146,98.8,,69.6,5,,,,,,,,,,,,0,0,0,0,0,0,0,0,0,0,0,0,0,0,0,0,,,,,0.0,,,,,,
802833,1745090966517,,,,,,,,,,,,,,,,,,,,,,,0,0,0,0,0.0,0.0,0.0,0.0,2.26,,,0,0,0,0,0,0,0,0,0,0,0,0,0,0,0,0,0,,,,,39.240097,-77.964836,0.13,33,3,0.8
802853,1745090966537,0.0,201.99,,-0.11,-0.02,0.98,1,-0,-1,0.98,1.09,90,10580,45.8,3.04,,10.22,1.13,98.8,,69.0,5,,,,,,,,,,,,0,0,0,0,0,0,0,0,0,0,0,0,0,0,0,0,,,,,0.0,,,,,,
802873,1745090966557,,,,,,,,,,,,,,,,,,,,,,,,,,,,,,,,,,0,0,0,0,0,0,0,0,0,0,0,0,0,0,0,0,,,,,,,,,,,
802893,1745090966577,0.0,201.99,,-0.15,-0.04,0.97,2,-0,-0,0.98,1.09,90,9991,51.0,4.97,,10.22,1.13,98.8,,69.0,5,,,,,,,,,,,,0,0,0,0,0,0,0,0,0,0,0,0,0,0,0,0,,,,,0.0,,,,,,
802913,1745090966597,,,,,,,,,,,,,,,,,,,,,,,,,,,,,,,,,,0,0,0,0,0,0,0,0,0,0,0,0,0,0,0,0,,,,,,,,,,,
802933,1745090966617,0.0,201.86,,-0.13,0.07,0.91,2,-1,-1,0.93,1.09,85,9991,51.0,4.97,,12.05,1.248,98.8,,66.9,5,0,0,0,0,0.0,0.0,0.0,0.0,2.26,,,0,0,0,0,0,0,0,0,0,0,0,0,0,0,0,0,0,,,,0.0,39.240097,-77.964836,0.0,33,3,0.8
802953,1745090966637,,,,,,,,,,,,,,,,,,,,,,,,,,,,,,,,,,0,0,0,0,0,0,0,0,0,0,0,0,0,0,0,0,,,,,,,,,,,
802973,1745090966657,0.0,201.99,,-0.16,0.24,0.88,1,-0,0,0.93,1.09,85,10250,49.4,4.93,,12.25,1.254,98.8,,66.9,5,,,,,,,,,,,,0,0,0,0,0,0,0,0,0,0,0,0,0,0,0,0,,,,,0.0,,,,,,
802993,1745090966677,,,,,,,,,,,,,,,,,,,,,,,,,,,,,,,,,,0,0,0,0,0,0,0,0,0,0,0,0,0,0,0,0,,,,,,,,,,,
803013,1745090966697,0.0,201.99,,-0.14,0.25,1.02,1,-0,0,1.06,1.09,97,11369,13.5,3.18,,10.08,1.253,98.8,,66.9,5,,,,,,,,,,,,0,0,0,0,0,0,0,0,0,0,0,0,0,0,0,0,,,,,0.0,,,,,,
803033,1745090966717,,,,,,,,,,,,,,,,,,,,,,,0,0,0,0,0.0,0.0,0.0,0.0,2.27,,,0,0,0,0,0,0,0,0,0,0,0,0,0,0,0,0,0,,,,,39.240097,-77.964836,0.08,33,3,0.8
803053,1745090966737,0.0,201.99,,-0.1,0.29,1.02,-0,-0,0,1.06,1.09,97,11876,2.6,1.66,,7.27,1.217,98.8,,71.9,5,,,,,,,,,,,,0,0,0,0,0,0,0,0,0,0,0,0,0,0,0,0,,,,,0.0,,,,,,
803073,1745090966757,,,,,,,,,,,,,,,,,,,,,,,,,,,,,,,,,,0,0,0,0,0,0,0,0,0,0,0,0,0,0,0,0,,,,,,,,,,,
803093,1745090966777,0.0,201.86,,-0.04,0.22,0.97,-0,-0,1,1.0,1.09,91,11435,7.3,1.68,,7.27,1.217,98.8,,71.9,5,,,,,,,,,,,,0,0,0,0,0,0,0,0,0,0,0,0,0,0,0,0,,,,,0.0,,,,,,
803113,1745090966797,,,,,,,,,,,,,,,,,,,,,,,,,,,,,,,,,,0,0,0,0,0,0,0,0,0,0,0,0,0,0,0,0,,,,,,,,,,,
803133,1745090966817,0.0,201.86,,-0.05,0.2,0.89,-0,-0,0,0.91,1.09,84,11435,7.3,1.68,,6.23,1.066,98.8,,68.7,5,0,0,0,0,0.0,0.0,0.0,0.0,2.27,,,0,0,0,0,0,0,0,0,0,0,0,0,0,0,0,0,0,,,,0.0,39.240097,-77.964836,0.04,33,3,0.8
803153,1745090966837,,,,,,,,,,,,,,,,,,,,,,,,,,,,,,,,,,0,0,0,0,0,0,0,0,0,0,0,0,0,0,0,0,,,,,,,,,,,
803173,1745090966857,0.0,201.86,,-0.08,0.12,0.96,-0,-0,0,0.97,1.09,89,10946,30.5,2.38,,8.31,1.142,98.8,,68.7,5,,,,,,,,,,,,0,0,0,0,0,0,0,0,0,0,0,0,0,0,0,0,,,,,0.0,,,,,,
803193,1745090966877,,,,,,,,,,,,,,,,,,,,,,,,,,,,,,,,,,0,0,0,0,0,0,0,0,0,0,0,0,0,0,0,0,,,,,,,,,,,
803213,1745090966897,0.0,201.86,,-0.08,-0.01,0.99,1,-1,-0,0.99,1.09,91,10402,42.2,3.12,,10.3,1.252,98.8,,68.7,5,,,,,,,,,,,,0,0,0,0,0,0,0,0,0,0,0,0,0,0,0,0,,,,,0.0,,,,,,
803233,1745090966917,,,,,,,,,,,,,,,,,,,,,,,0,0,0,0,0.0,0.0,0.0,0.0,2.27,,,0,0,0,0,0,0,0,0,0,0,0,0,0,0,0,0,0,,,,,39.240097,-77.964836,0.11,33,3,0.8
803253,1745090966937,0.0,201.86,,-0.08,-0.02,1.0,2,-1,-1,1.0,1.09,92,9757,43.8,4.84,,11.56,1.252,98.8,,67.3,5,,,,,,,,,,,,0,0,0,0,0,0,0,0,0,0,0,0,0,0,0,0,,,,,0.0,,,,,,
803273,1745090966957,,,,,,,,,,,,,,,,,,,,,,,,,,,,,,,,,,0,0,0,0,0,0,0,0,0,0,0,0,0,0,0,0,,,,,,,,,,,
803293,1745090966977,0.0,201.86,,-0.07,-0.1,0.89,1,-1,-1,0.9,1.09,83,10197,28.7,2.35,,11.56,1.252,98.8,,67.3,5,,,,,,,,,,,,0,0,0,0,0,0,0,0,0,0,0,0,0,0,0,0,,,,,0.0,,,,,,
803313,1745090966997,,,,,,,,,,,,,,,,,,,,,,,,,,,,,,,,,,0,0,0,0,0,0,0,0,0,0,0,0,0,0,0,0,,,,,,,,,,,
803333,1745090967009,0.0,201.73,,-0.1,-0.05,0.92,2,-1,-0,0.93,1.09,85,10197,28.7,2.35,,11.09,1.252,98.8,,67.3,5,0,0,0,0,0.0,0.0,0.0,0.0,2.26,,,0,0,0,0,0,0,0,0,0,0,0,0,0,0,0,0,0,,,,0.0,39.240097,-77.964836,0.08,33,3,0.8
803353,1745090967029,,,,,,,,,,,,,,,,,,,,,,,,,,,,,,,,,,0,0,0,0,0,0,0,0,0,0,0,0,0,0,0,0,,,,,,,,,,,
803373,1745090967049,0.0,201.73,,-0.12,-0.12,0.95,2,-1,-1,0.97,1.09,89,9946,3.5,2.55,,8.49,1.254,98.8,,67.3,5,,,,,,,,,,,,0,0,0,0,0,0,0,0,0,0,0,0,0,0,0,0,,,,,0.0,,,,,,
803393,1745090967069,,,,,,,,,,,,,,,,,,,,,,,,,,,,,,,,,,0,0,0,0,0,0,0,0,0,0,0,0,0,0,0,0,,,,,,,,,,,
803413,1745090967089,0.0,201.73,,-0.07,-0.03,0.93,1,-1,-1,0.93,1.09,86,9533,0.8,1.4,,6.92,1.255,98.8,,67.3,5,,,,,,,,,,,,0,0,0,0,0,0,0,0,0,0,0,0,0,0,0,0,,,,,0.0,,,,,,
803433,1745090967115,,,,,,,,,,,,,,,,,,,,,,,0,0,0,0,0.0,0.0,0.0,0.0,2.27,,,0,0,0,0,0,0,0,0,0,0,0,0,0,0,0,0,0,,,,,39.240097,-77.964836,0.04,33,3,0.8
803453,1745090967135,0.0,201.73,,-0.07,0.01,0.93,1,-1,-1,0.93,1.09,85,8866,8.7,2.22,,6.56,1.254,98.8,,65.2,5,,,,,,,,,,,,0,0,0,0,0,0,0,0,0,0,0,0,0,0,0,0,,,,,0.0,,,,,,
803473,1745090967155,,,,,,,,,,,,,,,,,,,,,,,,,,,,,,,,,,0,0,0,0,0,0,0,0,0,0,0,0,0,0,0,0,,,,,,,,,,,
803493,1745090967175,0.0,201.61,,-0.02,-0.03,0.94,1,-0,-1,0.94,1.09,86,8419,28.5,3.09,,6.56,1.254,98.8,,65.2,5,,,,,,,,,,,,0,0,0,0,0,0,0,0,0,0,0,0,0,0,0,0,,,,,0.0,,,,,,
803513,1745090967195,,,,,,,,,,,,,,,,,,,,,,,,,,,,,,,,,,0,0,0,0,0,0,0,0,0,0,0,0,0,0,0,0,,,,,,,,,,,
803533,1745090967215,0.0,201.48,,-0.05,-0.05,0.95,1,-0,-1,0.96,1.09,88,8419,28.5,3.09,,8.61,1.253,98.8,,63.8,5,0,0,0,0,0.0,0.0,0.0,0.0,2.27,,,0,0,0,0,0,0,0,0,0,0,0,0,0,0,0,0,0,,,,0.0,39.240097,-77.964836,0.04,33,3,0.8
803553,1745090967235,,,,,,,,,,,,,,,,,,,,,,,,,,,,,,,,,,0,0,0,0,0,0,0,0,0,0,0,0,0,0,0,0,,,,,,,,,,,
803573,1745090967255,0.0,201.36,,-0.03,-0.01,0.96,1,-0,-1,0.96,1.09,88,8265,38.6,4.23,,11.12,1.252,98.8,,63.8,5,,,,,,,,,,,,0,0,0,0,0,0,0,0,0,0,0,0,0,0,0,0,,,,,0.0,,,,,,
803593,1745090967275,,,,,,,,,,,,,,,,,,,,,,,,,,,,,,,,,,0,0,0,0,0,0,0,0,0,0,0,0,0,0,0,0,,,,,,,,,,,
803613,1745090967295,0.0,201.23,,-0.07,0.08,0.87,1,-1,-1,0.88,1.09,80,8519,40.2,5.55,,12.2,1.252,98.8,,63.8,5,,,,,,,,,,,,0,0,0,0,0,0,0,0,0,0,0,0,0,0,0,0,,,,,0.0,,,,,,
803633,1745090967315,,,,,,,,,,,,,,,,,,,,,,,0,0,0,0,0.0,0.0,0.0,0.0,2.26,,,0,0,0,0,0,0,0,0,0,0,0,0,0,0,0,0,0,,,,,39.240097,-77.964836,0.0,33,3,0.8
803653,1745090967335,0.0,200.98,,-0.06,0.16,0.92,1,-0,-0,0.94,1.09,86,9445,40.6,5.18,,11.89,1.252,98.8,,65.5,5,,,,,,,,,,,,0,0,0,0,0,0,0,0,0,0,0,0,0,0,0,0,,,,,0.0,,,,,,
803673,1745090967355,,,,,,,,,,,,,,,,,,,,,,,,,,,,,,,,,,0,0,0,0,0,0,0,0,0,0,0,0,0,0,0,0,,,,,,,,,,,
803693,1745090967375,0.0,200.85,,-0.07,-0.24,1.05,1,-0,-1,1.08,1.09,99,10531,40.6,4.93,,11.89,1.252,98.8,,65.5,5,,,,,,,,,,,,0,0,0,0,0,0,0,0,0,0,0,0,0,0,0,0,,,,,0.0,,,,,,
803713,1745090967395,,,,,,,,,,,,,,,,,,,,,,,,,,,,,,,,,,0,0,0,0,0,0,0,0,0,0,0,0,0,0,0,0,,,,,,,,,,,
803733,1745090967416,0.0,200.85,12.36,-0.05,-0.3,1.01,1,-0,-1,1.05,1.09,96,10531,40.6,4.93,15,11.77,1.248,98.8,151,68.7,5,0,0,0,0,0.0,0.0,0.0,0.0,2.26,0,0.0,0,0,0,0,0,0,0,0,0,0,0,0,0,0,0,0,0,0.0,0,0,0.0,39.240097,-77.964836,0.04,33,3,0.8
803753,1745090967436,,,,,,,,,,,,,,,,,,,,,,,,,,,,,,,,,,0,0,0,0,0,0,0,0,0,0,0,0,0,0,0,0,,,,,,,,,,,
803773,1745090967456,0.0,200.73,,-0.05,-0.08,0.99,0,-0,-1,0.99,1.09,91,11658,28.4,3.97,,10.72,1.147,98.8,,68.7,5,,,,,,,,,,,,0,0,0,0,0,0,0,0,0,0,0,0,0,0,0,0,,,,,0.0,,,,,,
803793,1745090967476,,,,,,,,,,,,,,,,,,,,,,,,,,,,,,,,,,0,0,0,0,0,0,0,0,0,0,0,0,0,0,0,0,,,,,,,,,,,
803813,1745090967496,0.0,200.73,,-0.12,-0.04,0.9,1,-0,-1,0.91,1.09,83,12379,11.3,2.85,,8.41,1.071,98.8,,68.7,5,,,,,,,,,,,,0,0,0,0,0,0,0,0,0,0,0,0,0,0,0,0,,,,,0.0,,,,,,
803833,1745090967516,,,,,,,,,,,,,,,,,,,,,,,0,0,0,0,0.0,0.0,0.0,0.0,2.26,,,0,0,0,0,0,0,0,0,0,0,0,0,0,0,0,0,0,,,,,39.240097,-77.964836,0.04,33,3,0.8
803853,1745090967536,0.0,200.73,,-0.07,-0.09,0.94,1,-0,-1,0.94,1.09,87,12566,4.9,1.97,,6.74,1.012,98.8,,71.7,5,,,,,,,,,,,,0,0,0,0,0,0,0,0,0,0,0,0,0,0,0,0,,,,,0.0,,,,,,
803873,1745090967556,,,,,,,,,,,,,,,,,,,,,,,,,,,,,,,,,,0,0,0,0,0,0,0,0,0,0,0,0,0,0,0,0,,,,,,,,,,,
803893,1745090967576,0.0,200.85,,-0.03,-0.04,0.99,1,-0,-1,0.99,1.09,91,12352,2.8,1.4,,6.74,1.012,98.8,,71.7,5,,,,,,,,,,,,0,0,0,0,0,0,0,0,0,0,0,0,0,0,0,0,,,,,0.0,,,,,,
803913,1745090967596,,,,,,,,,,,,,,,,,,,,,,,,,,,,,,,,,,0,0,0,0,0,0,0,0,0,0,0,0,0,0,0,0,,,,,,,,,,,
803933,1745090967616,0.0,200.98,,-0.05,0.02,1.24,1,-0,0,1.24,1.24,100,12352,2.8,1.4,,5.71,0.993,98.8,,68.8,5,0,0,0,0,0.0,0.0,0.0,0.0,2.27,,,0,0,0,0,0,0,0,0,0,0,0,0,0,0,0,0,0,,,,0.0,39.240097,-77.964836,0.0,33,3,0.8
803953,1745090967636,,,,,,,,,,,,,,,,,,,,,,,,,,,,,,,,,,0,0,0,0,0,0,0,0,0,0,0,0,0,0,0,0,,,,,,,,,,,
803973,1745090967656,0.0,200.98,,0.0,0.1,1.22,1,0,0,1.22,1.24,99,11860,1.1,1.4,,5.08,1.012,97.0,,68.8,5,,,,,,,,,,,,0,0,0,0,0,0,0,0,0,0,0,0,0,0,0,0,,,,,0.0,,,,,,
803993,1745090967676,,,,,,,,,,,,,,,,,,,,,,,,,,,,,,,,,,0,0,0,0,0,0,0,0,0,0,0,0,0,0,0,0,,,,,,,,,,,
804013,1745090967696,0.0,201.11,,0.0,0.01,1.15,2,-0,-0,1.15,1.24,93,11289,1.1,1.4,,4.72,1.115,97.0,,68.8,5,,,,,,,,,,,,0,0,0,0,0,0,0,0,0,0,0,0,0,0,0,0,,,,,0.0,,,,,,
804033,1745090967716,,,,,,,,,,,,,,,,,,,,,,,0,0,0,0,0.0,0.0,0.0,0.0,2.27,,,0,0,0,0,0,0,0,0,0,0,0,0,0,0,0,0,0,,,,,39.240097,-77.964836,0.11,33,3,0.8
804053,1745090967736,0.0,201.23,,0.03,0.04,1.08,0,-0,-0,1.08,1.24,87,10744,1.1,1.4,,4.77,1.209,97.0,,69.0,5,,,,,,,,,,,,0,0,0,0,0,0,0,0,0,0,0,0,0,0,0,0,,,,,0.0,,,,,,
804073,1745090967756,,,,,,,,,,,,,,,,,,,,,,,,,,,,,,,,,,0,0,0,0,0,0,0,0,0,0,0,0,0,0,0,0,,,,,,,,,,,
804093,1745090967776,0.0,201.23,,0.05,0.06,1.07,-0,-0,0,1.07,1.24,87,10187,1.0,1.4,,4.77,1.209,97.0,,69.0,5,,,,,,,,,,,,0,0,0,0,0,0,0,0,0,0,0,0,0,0,0,0,,,,,0.0,,,,,,
804113,1745090967796,,,,,,,,,,,,,,,,,,,,,,,,,,,,,,,,,,0,0,0,0,0,0,0,0,0,0,0,0,0,0,0,0,,,,,,,,,,,
804133,1745090967816,0.0,201.36,,0.08,0.22,1.1,1,-0,0,1.12,1.24,91,10187,1.0,1.4,,4.55,1.252,97.0,,66.7,5,0,0,0,0,0.0,0.0,0.0,0.0,2.27,,,0,0,0,0,0,0,0,0,0,0,0,0,0,0,0,0,0,,,,0.0,39.240097,-77.964836,0.04,33,3,0.8
804153,1745090967836,,,,,,,,,,,,,,,,,,,,,,,,,,,,,,,,,,0,0,0,0,0,0,0,0,0,0,0,0,0,0,0,0,,,,,,,,,,,
804173,1745090967856,0.0,201.48,,0.04,0.29,1.04,1,-0,-0,1.08,1.24,87,9685,1.0,1.4,,4.52,1.253,97.0,,66.7,5,,,,,,,,,,,,0,0,0,0,0,0,0,0,0,0,0,0,0,0,0,0,,,,,0.0,,,,,,
804193,1745090967876,,,,,,,,,,,,,,,,,,,,,,,,,,,,,,,,,,0,0,0,0,0,0,0,0,0,0,0,0,0,0,0,0,,,,,,,,,,,
804213,1745090967896,0.0,201.48,,0.02,0.31,1.04,2,-0,-0,1.08,1.24,88,9083,1.0,1.4,,4.51,1.253,97.0,,66.7,5,,,,,,,,,,,,0,0,0,0,0,0,0,0,0,0,0,0,0,0,0,0,,,,,0.0,,,,,,
804233,1745090967916,,,,,,,,,,,,,,,,,,,,,,,0,0,0,0,0.0,0.0,0.0,0.0,2.27,,,0,0,0,0,0,0,0,0,0,0,0,0,0,0,0,0,0,,,,,39.240097,-77.964836,0.04,33,3,0.8
804253,1745090967936,0.0,201.48,,0.01,0.31,1.0,1,-0,-0,1.04,1.24,84,8543,1.1,1.4,,4.6,1.253,97.0,,64.2,5,,,,,,,,,,,,0,0,0,0,0,0,0,0,0,0,0,0,0,0,0,0,,,,,0.0,,,,,,
804273,1745090967956,,,,,,,,,,,,,,,,,,,,,,,,,,,,,,,,,,0,0,0,0,0,0,0,0,0,0,0,0,0,0,0,0,,,,,,,,,,,
804293,1745090967976,0.0,201.36,,0.01,0.34,1.01,1,-0,-0,1.07,1.24,86,7971,1.5,1.4,,4.6,1.253,97.0,,64.2,5,,,,,,,,,,,,0,0,0,0,0,0,0,0,0,0,0,0,0,0,0,0,,,,,0.0,,,,,,
804313,1745090967996,,,,,,,,,,,,,,,,,,,,,,,,,,,,,,,,,,0,0,0,0,0,0,0,0,0,0,0,0,0,0,0,0,,,,,,,,,,,
804333,1745090968010,0.0,201.11,,0.02,0.42,0.97,-2,-0,0,1.06,1.24,85,7971,1.5,1.4,,4.91,1.252,97.0,,62.8,5,0,0,0,0,0.0,0.0,0.0,0.0,2.27,,,0,0,0,0,0,0,0,0,0,0,0,0,0,0,0,0,0,,,,0.0,39.240097,-77.964836,0.0,33,3,0.8
804353,1745090968030,,,,,,,,,,,,,,,,,,,,,,,,,,,,,,,,,,0,0,0,0,0,0,0,0,0,0,0,0,0,0,0,0,,,,,,,,,,,
804373,1745090968050,0.0,201.11,,0.05,0.49,1.0,-4,-0,1,1.12,1.24,90,7456,7.0,1.65,,5.58,1.252,97.0,,62.8,5,,,,,,,,,,,,0,0,0,0,0,0,0,0,0,0,0,0,0,0,0,0,,,,,0.0,,,,,,
804393,1745090968070,,,,,,,,,,,,,,,,,,,,,,,,,,,,,,,,,,0,0,0,0,0,0,0,0,0,0,0,0,0,0,0,0,,,,,,,,,,,
804413,1745090968090,0.0,201.11,,0.03,0.45,0.99,-4,-0,1,1.09,1.24,88,6949,12.5,2.3,,6.8,1.254,97.0,,62.8,5,,,,,,,,,,,,0,0,0,0,0,0,0,0,0,0,0,0,0,0,0,0,,,,,0.0,,,,,,
804433,1745090968116,,,,,,,,,,,,,,,,,,,,,,,0,0,0,0,0.0,0.0,0.0,0.0,2.27,,,0,0,0,0,0,0,0,0,0,0,0,0,0,0,0,0,0,,,,,39.240097,-77.964836,0.0,33,3,0.8
804453,1745090968136,0.0,200.98,,0.0,0.38,1.03,-3,-0,1,1.1,1.24,89,6672,13.4,2.78,,8.23,1.254,97.0,,60.6,5,,,,,,,,,,,,0,0,0,0,0,0,0,0,0,0,0,0,0,0,0,0,,,,,0.0,,,,,,
804473,1745090968156,,,,,,,,,,,,,,,,,,,,,,,,,,,,,,,,,,0,0,0,0,0,0,0,0,0,0,0,0,0,0,0,0,,,,,,,,,,,
804493,1745090968176,0.0,201.11,,0.01,0.34,0.99,-2,-0,1,1.05,1.24,85,6582,13.7,3.05,,8.23,1.254,97.0,,60.6,5,,,,,,,,,,,,0,0,0,0,0,0,0,0,0,0,0,0,0,0,0,0,,,,,0.0,,,,,,
804513,1745090968196,,,,,,,,,,,,,,,,,,,,,,,,,,,,,,,,,,0,0,0,0,0,0,0,0,0,0,0,0,0,0,0,0,,,,,,,,,,,
804533,1745090968214,0.0,201.11,,-0.02,0.23,0.97,-1,-0,0,1.0,1.24,81,6582,13.7,3.05,,9.07,1.253,97.0,,61.1,5,0,0,0,0,0.0,0.0,0.0,0.0,2.27,,,0,0,0,0,0,0,0,0,0,0,0,0,0,0,0,0,0,,,,0.0,39.240097,-77.964836,0.05,33,3,0.8
804553,1745090968234,,,,,,,,,,,,,,,,,,,,,,,,,,,,,,,,,,0,0,0,0,0,0,0,0,0,0,0,0,0,0,0,0,,,,,,,,,,,
804573,1745090968254,0.0,201.11,,0.02,0.22,0.98,-3,-0,0,1.0,1.24,81,6513,13.8,3.26,,9.7,1.253,97.0,,61.1,5,,,,,,,,,,,,0,0,0,0,0,0,0,0,0,0,0,0,0,0,0,0,,,,,0.0,,,,,,
804593,1745090968274,,,,,,,,,,,,,,,,,,,,,,,,,,,,,,,,,,0,0,0,0,0,0,0,0,0,0,0,0,0,0,0,0,,,,,,,,,,,
804613,1745090968294,0.0,201.11,,0.04,0.22,1.0,-2,-0,1,1.03,1.24,83,6518,13.8,3.38,,10.05,1.252,97.0,,61.1,5,,,,,,,,,,,,0,0,0,0,0,0,0,0,0,0,0,0,0,0,0,0,,,,,0.0,,,,,,
804633,1745090968316,,,,,,,,,,,,,,,,,,,,,,,0,0,0,0,0.0,0.0,0.0,0.0,2.26,,,0,0,0,0,0,0,0,0,0,0,0,0,0,0,0,0,0,,,,,39.240097,-77.964836,0.08,33,3,0.8
804653,1745090968336,0.0,201.36,,-0.02,0.13,0.98,-2,-0,0,0.99,1.24,80,6459,13.8,3.44,,10.28,1.177,97.0,,61.1,5,,,,,,,,,,,,0,0,0,0,0,0,0,0,0,0,0,0,0,0,0,0,,,,,0.0,,,,,,
804673,1745090968356,,,,,,,,,,,,,,,,,,,,,,,,,,,,,,,,,,0,0,0,0,0,0,0,0,0,0,0,0,0,0,0,0,,,,,,,,,,,
804693,1745090968376,0.0,201.48,,0.01,0.13,1.02,-2,-0,0,1.03,1.24,83,6299,13.8,3.43,,10.28,1.177,97.0,,61.1,5,,,,,,,,,,,,0,0,0,0,0,0,0,0,0,0,0,0,0,0,0,0,,,,,0.0,,,,,,
804713,1745090968396,,,,,,,,,,,,,,,,,,,,,,,,,,,,,,,,,,0,0,0,0,0,0,0,0,0,0,0,0,0,0,0,0,,,,,,,,,,,
804733,1745090968415,0.0,201.61,12.49,-0.04,0.14,1.05,-1,-0,0,1.06,1.24,86,6299,13.8,3.43,15,10.62,1.152,97.0,151,60.9,5,0,0,0,0,0.0,0.0,0.0,0.0,2.26,0,0.0,0,0,0,0,0,0,0,0,0,0,0,0,0,0,0,0,0,0.0,0,0,0.0,39.240097,-77.964836,0.05,33,3,0.8
804753,1745090968435,,,,,,,,,,,,,,,,,,,,,,,,,,,,,,,,,,0,0,0,0,0,0,0,0,0,0,0,0,0,0,0,0,,,,,,,,,,,
804773,1745090968455,0.0,201.61,,0.01,0.09,0.99,-1,-0,0,1.0,1.24,81,6349,13.8,3.48,,10.6,1.198,97.0,,60.9,5,,,,,,,,,,,,0,0,0,0,0,0,0,0,0,0,0,0,0,0,0,0,,,,,0.0,,,,,,
804793,1745090968475,,,,,,,,,,,,,,,,,,,,,,,,,,,,,,,,,,0,0,0,0,0,0,0,0,0,0,0,0,0,0,0,0,,,,,,,,,,,
804813,1745090968495,0.0,201.73,,-0.02,0.04,1.06,-1,-0,-0,1.06,1.24,85,6326,10.8,3.4,,10.5,1.182,97.0,,60.9,5,,,,,,,,,,,,0,0,0,0,0,0,0,0,0,0,0,0,0,0,0,0,,,,,0.0,,,,,,
804833,1745090968517,,,,,,,,,,,,,,,,,,,,,,,0,0,0,0,0.0,0.0,0.0,0.0,2.27,,,0,0,0,0,0,0,0,0,0,0,0,0,0,0,0,0,0,,,,,39.240097,-77.964836,0.08,33,3,0.8
804853,1745090968537,0.0,201.86,,0.02,0.06,0.94,0,-0,-0,0.95,1.24,76,6308,10.5,3.3,,10.28,1.137,97.0,,60.0,5,,,,,,,,,,,,0,0,0,0,0,0,0,0,0,0,0,0,0,0,0,0,,,,,0.0,,,,,,
804873,1745090968557,,,,,,,,,,,,,,,,,,,,,,,,,,,,,,,,,,0,0,0,0,0,0,0,0,0,0,0,0,0,0,0,0,,,,,,,,,,,
804893,1745090968577,0.0,201.99,,0.08,0.06,1.01,-1,-0,0,1.02,1.24,82,6230,10.4,3.24,,10.28,1.137,97.0,,60.0,5,,,,,,,,,,,,0,0,0,0,0,0,0,0,0,0,0,0,0,0,0,0,,,,,0.0,,,,,,
804913,1745090968597,,,,,,,,,,,,,,,,,,,,,,,,,,,,,,,,,,0,0,0,0,0,0,0,0,0,0,0,0,0,0,0,0,,,,,,,,,,,
804933,1745090968617,0.0,201.99,,0.01,0.01,0.99,-1,-0,0,0.99,1.24,80,6230,10.4,3.24,,10.22,1.158,97.0,,60.2,5,0,0,0,0,0.0,0.0,0.0,0.0,2.27,,,0,0,0,0,0,0,0,0,0,0,0,0,0,0,0,0,0,,,,0.0,39.240097,-77.964836,0.0,33,3,0.8
804953,1745090968637,,,,,,,,,,,,,,,,,,,,,,,,,,,,,,,,,,0,0,0,0,0,0,0,0,0,0,0,0,0,0,0,0,,,,,,,,,,,
804973,1745090968657,0.0,202.11,,0.02,-0.01,0.9,0,-0,-0,0.9,1.24,73,6252,10.4,3.23,,10.22,1.223,98.8,,60.2,5,,,,,,,,,,,,0,0,0,0,0,0,0,0,0,0,0,0,0,0,0,0,,,,,0.0,,,,,,
804993,1745090968677,,,,,,,,,,,,,,,,,,,,,,,,,,,,,,,,,,0,0,0,0,0,0,0,0,0,0,0,0,0,0,0,0,,,,,,,,,,,
805013,1745090968697,0.0,202.11,,0.06,0.01,1.0,0,-0,-0,1.0,1.24,81,6185,10.4,3.18,,10.21,1.218,98.8,,60.2,5,,,,,,,,,,,,0,0,0,0,0,0,0,0,0,0,0,0,0,0,0,0,,,,,0.0,,,,,,
805033,1745090968717,,,,,,,,,,,,,,,,,,,,,,,0,0,0,0,0.0,0.0,0.0,0.0,2.27,,,0,0,0,0,0,0,0,0,0,0,0,0,0,0,0,0,0,,,,,39.240097,-77.964836,0.04,33,3,0.8
805053,1745090968737,0.0,202.24,,0.09,0.04,1.14,0,-0,0,1.14,1.24,92,6046,10.4,3.08,,10.34,1.16,98.8,,59.8,5,,,,,,,,,,,,0,0,0,0,0,0,0,0,0,0,0,0,0,0,0,0,,,,,0.0,,,,,,
805073,1745090968757,,,,,,,,,,,,,,,,,,,,,,,,,,,,,,,,,,0,0,0,0,0,0,0,0,0,0,0,0,0,0,0,0,,,,,,,,,,,
805093,1745090968777,0.0,202.24,,0.1,0.04,1.19,0,-0,0,1.2,1.24,97,5821,10.4,3.06,,10.34,1.16,98.8,,59.8,5,,,,,,,,,,,,0,0,0,0,0,0,0,0,0,0,0,0,0,0,0,0,,,,,0.0,,,,,,
805113,1745090968797,,,,,,,,,,,,,,,,,,,,,,,,,,,,,,,,,,0,0,0,0,0,0,0,0,0,0,0,0,0,0,0,0,,,,,,,,,,,
805133,1745090968817,0.0,202.24,,0.04,-0.03,1.09,1,-0,-0,1.09,1.24,88,5821,10.4,3.06,,10.53,1.179,98.8,,57.9,5,0,0,0,0,0.0,0.0,0.0,0.0,2.27,,,0,0,0,0,0,0,0,0,0,0,0,0,0,0,0,0,0,,,,0.0,39.240097,-77.964836,0.04,33,3,0.8
805153,1745090968837,,,,,,,,,,,,,,,,,,,,,,,,,,,,,,,,,,0,0,0,0,0,0,0,0,0,0,0,0,0,0,0,0,,,,,,,,,,,
805173,1745090968857,0.0,202.36,,0.05,-0.02,1.12,0,-0,0,1.13,1.24,91,5668,10.4,3.05,,10.68,1.239,98.8,,57.9,5,,,,,,,,,,,,0,0,0,0,0,0,0,0,0,0,0,0,0,0,0,0,,,,,0.0,,,,,,
805193,1745090968877,,,,,,,,,,,,,,,,,,,,,,,,,,,,,,,,,,0,0,0,0,0,0,0,0,0,0,0,0,0,0,0,0,,,,,,,,,,,
805213,1745090968897,0.0,202.36,,0.04,-0.06,1.11,0,-0,0,1.11,1.24,90,5477,10.3,3.17,,10.88,1.253,98.8,,57.9,5,,,,,,,,,,,,0,0,0,0,0,0,0,0,0,0,0,0,0,0,0,0,,,,,0.0,,,,,,
805233,1745090968917,,,,,,,,,,,,,,,,,,,,,,,0,0,0,0,0.0,0.0,0.0,0.0,2.27,,,0,0,0,0,0,0,0,0,0,0,0,0,0,0,0,0,0,,,,,39.240097,-77.964836,0.04,33,3,0.8
805253,1745090968937,0.0,202.36,,0.03,-0.13,1.09,0,-0,-0,1.1,1.24,89,5239,10.3,3.74,,11.17,1.252,98.8,,53.0,5,,,,,,,,,,,,0,0,0,0,0,0,0,0,0,0,0,0,0,0,0,0,,,,,0.0,,,,,,
805273,1745090968957,,,,,,,,,,,,,,,,,,,,,,,,,,,,,,,,,,0,0,0,0,0,0,0,0,0,0,0,0,0,0,0,0,,,,,,,,,,,
805293,1745090968977,0.0,202.49,,0.03,-0.13,1.06,0,-0,-0,1.07,1.24,87,5124,10.3,3.7,,11.17,1.252,98.8,,53.0,5,,,,,,,,,,,,0,0,0,0,0,0,0,0,0,0,0,0,0,0,0,0,,,,,0.0,,,,,,
805313,1745090968997,,,,,,,,,,,,,,,,,,,,,,,,,,,,,,,,,,0,0,0,0,0,0,0,0,0,0,0,0,0,0,0,0,,,,,,,,,,,
805333,1745090969009,0.0,202.49,,-0.0,-0.06,1.04,0,-0,-0,1.04,1.24,84,5124,10.3,3.7,,11.28,1.253,98.8,,49.5,5,0,0,0,0,0.0,0.0,0.0,0.0,2.26,,,0,0,0,0,0,0,0,0,0,0,0,0,0,0,0,0,0,,,,0.0,39.240097,-77.964836,0.07,33,3,0.8
805353,1745090969029,,,,,,,,,,,,,,,,,,,,,,,,,,,,,,,,,,0,0,0,0,0,0,0,0,0,0,0,0,0,0,0,0,,,,,,,,,,,
805373,1745090969049,0.0,202.49,,0.0,-0.03,1.04,1,-0,-0,1.04,1.24,84,5011,10.3,3.65,,11.41,1.253,98.8,,49.5,5,,,,,,,,,,,,0,0,0,0,0,0,0,0,0,0,0,0,0,0,0,0,,,,,0.0,,,,,,
805393,1745090969069,,,,,,,,,,,,,,,,,,,,,,,,,,,,,,,,,,0,0,0,0,0,0,0,0,0,0,0,0,0,0,0,0,,,,,,,,,,,
805413,1745090969089,0.0,202.61,,-0.01,-0.09,1.01,0,-0,-0,1.01,1.24,82,4898,10.3,3.63,,11.58,1.255,98.8,,49.5,5,,,,,,,,,,,,0,0,0,0,0,0,0,0,0,0,0,0,0,0,0,0,,,,,0.0,,,,,,
805433,1745090969117,,,,,,,,,,,,,,,,,,,,,,,0,0,0,0,0.0,0.0,0.0,0.0,2.26,,,0,0,0,0,0,0,0,0,0,0,0,0,0,0,0,0,0,,,,,39.240097,-77.964836,0.04,33,3,0.8
805453,1745090969137,0.0,202.61,,0.0,-0.09,1.01,0,-0,-0,1.02,1.24,82,4790,10.0,3.63,,11.72,1.253,98.8,,46.9,5,,,,,,,,,,,,0,0,0,0,0,0,0,0,0,0,0,0,0,0,0,0,,,,,0.0,,,,,,
805473,1745090969157,,,,,,,,,,,,,,,,,,,,,,,,,,,,,,,,,,0,0,0,0,0,0,0,0,0,0,0,0,0,0,0,0,,,,,,,,,,,
805493,1745090969177,0.0,202.61,,-0.03,-0.01,1.08,-0,-0,0,1.08,1.24,87,4641,10.1,3.67,,11.72,1.253,98.8,,46.9,5,,,,,,,,,,,,0,0,0,0,0,0,0,0,0,0,0,0,0,0,0,0,,,,,0.0,,,,,,
805513,1745090969197,,,,,,,,,,,,,,,,,,,,,,,,,,,,,,,,,,0,0,0,0,0,0,0,0,0,0,0,0,0,0,0,0,,,,,,,,,,,
805533,1745090969217,0.0,202.49,,-0.06,0.01,1.09,-1,-0,1,1.09,1.24,88,4641,10.1,3.67,,11.83,1.253,98.8,,44.2,5,0,0,0,0,0.0,0.0,0.0,0.0,2.26,,,0,0,0,0,0,0,0,0,0,0,0,0,0,0,0,0,0,,,,0.0,39.240097,-77.964836,0.0,33,3,0.8
805553,1745090969237,,,,,,,,,,,,,,,,,,,,,,,,,,,,,,,,,,0,0,0,0,0,0,0,0,0,0,0,0,0,0,0,0,,,,,,,,,,,
805573,1745090969257,0.0,202.49,,-0.1,-0.05,1.05,-1,-0,1,1.06,1.24,85,4533,10.2,3.7,,11.95,1.25,98.8,,44.2,5,,,,,,,,,,,,0,0,0,0,0,0,0,0,0,0,0,0,0,0,0,0,,,,,0.0,,,,,,
805593,1745090969277,,,,,,,,,,,,,,,,,,,,,,,,,,,,,,,,,,0,0,0,0,0,0,0,0,0,0,0,0,0,0,0,0,,,,,,,,,,,
805613,1745090969297,0.0,202.61,,-0.14,0.03,1.12,-2,-0,1,1.13,1.24,91,4452,10.3,3.73,,12.07,1.251,98.8,,44.2,5,,,,,,,,,,,,0,0,0,0,0,0,0,0,0,0,0,0,0,0,0,0,,,,,0.0,,,,,,
805633,1745090969317,,,,,,,,,,,,,,,,,,,,,,,0,0,0,0,0.0,0.0,0.0,0.0,2.26,,,0,0,0,0,0,0,0,0,0,0,0,0,0,0,0,0,0,,,,,39.240097,-77.964836,0.0,33,3,0.8
805653,1745090969337,0.0,202.61,,-0.14,0.1,1.21,-3,-0,2,1.22,1.24,99,4335,10.2,3.77,,12.17,1.251,98.8,,41.0,5,,,,,,,,,,,,0,0,0,0,0,0,0,0,0,0,0,0,0,0,0,0,,,,,0.0,,,,,,
805673,1745090969357,,,,,,,,,,,,,,,,,,,,,,,,,,,,,,,,,,0,0,0,0,0,0,0,0,0,0,0,0,0,0,0,0,,,,,,,,,,,
805693,1745090969377,0.0,202.61,,-0.1,0.08,1.13,-2,-0,1,1.14,1.24,92,4314,10.3,3.78,,12.17,1.251,98.8,,41.0,5,,,,,,,,,,,,0,0,0,0,0,0,0,0,0,0,0,0,0,0,0,0,,,,,0.0,,,,,,
805713,1745090969397,,,,,,,,,,,,,,,,,,,,,,,,,,,,,,,,,,0,0,0,0,0,0,0,0,0,0,0,0,0,0,0,0,,,,,,,,,,,
805733,1745090969414,0.0,202.49,12.56,-0.1,0.03,1.07,-2,-0,1,1.07,1.24,87,4314,10.3,3.78,15,12.28,1.251,98.8,149,39.4,5,0,0,0,0,0.0,0.0,0.0,0.0,2.26,0,0.0,0,0,0,0,0,0,0,0,0,0,0,0,0,0,0,0,0,0.0,0,0,0.0,39.240097,-77.964836,0.0,33,3,0.8
805753,1745090969434,,,,,,,,,,,,,,,,,,,,,,,,,,,,,,,,,,0,0,0,0,0,0,0,0,0,0,0,0,0,0,0,0,,,,,,,,,,,
805773,1745090969454,0.0,202.49,,-0.08,0.12,1.12,-2,-0,1,1.13,1.24,91,4179,10.3,3.82,,12.29,1.25,98.8,,39.4,5,,,,,,,,,,,,0,0,0,0,0,0,0,0,0,0,0,0,0,0,0,0,,,,,0.0,,,,,,
805793,1745090969474,,,,,,,,,,,,,,,,,,,,,,,,,,,,,,,,,,0,0,0,0,0,0,0,0,0,0,0,0,0,0,0,0,,,,,,,,,,,
805813,1745090969494,0.0,202.49,,-0.08,0.01,1.07,-1,-0,1,1.07,1.24,86,4067,10.3,3.82,,12.44,1.251,98.8,,39.4,5,,,,,,,,,,,,0,0,0,0,0,0,0,0,0,0,0,0,0,0,0,0,,,,,0.0,,,,,,
805833,1745090969516,,,,,,,,,,,,,,,,,,,,,,,0,0,0,0,0.0,0.0,0.0,0.0,2.27,,,0,0,0,0,0,0,0,0,0,0,0,0,0,0,0,0,0,,,,,39.240097,-77.964836,0.0,33,3,0.8
805853,1745090969536,0.0,202.49,,-0.06,0.08,1.05,-1,-0,1,1.06,1.24,85,4067,10.5,3.86,,12.51,1.251,98.8,,37.1,5,,,,,,,,,,,,0,0,0,0,0,0,0,0,0,0,0,0,0,0,0,0,,,,,0.0,,,,,,
805873,1745090969556,,,,,,,,,,,,,,,,,,,,,,,,,,,,,,,,,,0,0,0,0,0,0,0,0,0,0,0,0,0,0,0,0,,,,,,,,,,,
805893,1745090969576,0.0,202.36,,-0.06,0.11,1.12,-2,-0,1,1.13,1.24,91,4027,10.4,3.85,,12.51,1.251,98.8,,37.1,5,,,,,,,,,,,,0,0,0,0,0,0,0,0,0,0,0,0,0,0,0,0,,,,,0.0,,,,,,
805913,1745090969596,,,,,,,,,,,,,,,,,,,,,,,,,,,,,,,,,,0,0,0,0,0,0,0,0,0,0,0,0,0,0,0,0,,,,,,,,,,,
805933,1745090969616,0.0,202.36,,-0.07,0.03,1.04,-1,-0,1,1.04,1.24,84,4027,10.4,3.85,,12.55,1.252,98.8,,36.7,5,0,0,0,0,0.0,0.0,0.0,0.0,2.26,,,0,0,0,0,0,0,0,0,0,0,0,0,0,0,0,0,0,,,,0.0,39.240097,-77.964836,0.04,33,3,0.8
805953,1745090969636,,,,,,,,,,,,,,,,,,,,,,,,,,,,,,,,,,0,0,0,0,0,0,0,0,0,0,0,0,0,0,0,0,,,,,,,,,,,
805973,1745090969656,0.0,202.49,,-0.06,0.03,1.01,-0,-0,0,1.02,1.24,82,3933,10.5,3.86,,12.64,1.254,98.8,,36.7,5,,,,,,,,,,,,0,0,0,0,0,0,0,0,0,0,0,0,0,0,0,0,,,,,0.0,,,,,,
805993,1745090969676,,,,,,,,,,,,,,,,,,,,,,,,,,,,,,,,,,0,0,0,0,0,0,0,0,0,0,0,0,0,0,0,0,,,,,,,,,,,
806013,1745090969696,0.0,202.36,,-0.04,0.11,1.05,-1,-0,1,1.05,1.24,85,3927,10.5,3.86,,12.65,1.253,98.8,,36.7,5,,,,,,,,,,,,0,0,0,0,0,0,0,0,0,0,0,0,0,0,0,0,,,,,0.0,,,,,,
806033,1745090969716,,,,,,,,,,,,,,,,,,,,,,,0,0,0,0,0.0,0.0,0.0,0.0,2.26,,,0,0,0,0,0,0,0,0,0,0,0,0,0,0,0,0,0,,,,,39.240097,-77.964836,0.04,33,3,0.8
806053,1745090969736,0.0,202.36,,-0.04,0.12,1.06,-1,-0,1,1.07,1.24,86,3880,10.6,3.86,,12.67,1.252,98.8,,35.5,5,,,,,,,,,,,,0,0,0,0,0,0,0,0,0,0,0,0,0,0,0,0,,,,,0.0,,,,,,
806073,1745090969756,,,,,,,,,,,,,,,,,,,,,,,,,,,,,,,,,,0,0,0,0,0,0,0,0,0,0,0,0,0,0,0,0,,,,,,,,,,,
806093,1745090969776,0.0,202.36,,-0.03,0.06,1.05,-1,-0,1,1.05,1.24,85,3790,10.6,3.85,,12.67,1.252,98.8,,35.5,5,,,,,,,,,,,,0,0,0,0,0,0,0,0,0,0,0,0,0,0,0,0,,,,,0.0,,,,,,
806113,1745090969796,,,,,,,,,,,,,,,,,,,,,,,,,,,,,,,,,,0,0,0,0,0,0,0,0,0,0,0,0,0,0,0,0,,,,,,,,,,,
806133,1745090969816,0.0,202.36,,-0.04,0.04,1.04,-1,-0,1,1.04,1.24,84,3790,10.6,3.85,,12.68,1.25,98.8,,34.0,5,0,0,0,0,0.0,0.0,0.0,0.0,2.26,,,0,0,0,0,0,0,0,0,0,0,0,0,0,0,0,0,0,,,,0.0,39.240097,-77.964836,0.0,33,3,0.8
806153,1745090969836,,,,,,,,,,,,,,,,,,,,,,,,,,,,,,,,,,0,0,0,0,0,0,0,0,0,0,0,0,0,0,0,0,,,,,,,,,,,
806173,1745090969856,0.0,202.36,,-0.05,0.02,1.05,-1,-0,1,1.05,1.24,85,3821,10.5,3.85,,12.8,1.251,98.8,,34.0,5,,,,,,,,,,,,0,0,0,0,0,0,0,0,0,0,0,0,0,0,0,0,,,,,0.0,,,,,,
806193,1745090969876,,,,,,,,,,,,,,,,,,,,,,,,,,,,,,,,,,0,0,0,0,0,0,0,0,0,0,0,0,0,0,0,0,,,,,,,,,,,
806213,1745090969896,0.0,202.36,,-0.04,0.01,1.04,-1,-0,1,1.04,1.24,84,3760,10.5,3.86,,12.75,1.25,98.8,,34.0,5,,,,,,,,,,,,0,0,0,0,0,0,0,0,0,0,0,0,0,0,0,0,,,,,0.0,,,,,,
806233,1745090969916,,,,,,,,,,,,,,,,,,,,,,,0,0,0,0,0.0,0.0,0.0,0.0,2.27,,,0,0,0,0,0,0,0,0,0,0,0,0,0,0,0,0,0,,,,,39.240097,-77.964836,0.0,33,3,0.8
806253,1745090969936,0.0,202.36,,-0.05,0.02,1.03,-1,-0,1,1.03,1.24,83,3752,10.4,3.85,,12.81,1.251,98.8,,33.1,5,,,,,,,,,,,,0,0,0,0,0,0,0,0,0,0,0,0,0,0,0,0,,,,,0.0,,,,,,
806273,1745090969956,,,,,,,,,,,,,,,,,,,,,,,,,,,,,,,,,,0,0,0,0,0,0,0,0,0,0,0,0,0,0,0,0,,,,,,,,,,,
806293,1745090969976,0.0,202.36,,-0.05,0.01,1.02,-1,-0,1,1.02,1.24,82,3703,10.5,3.84,,12.81,1.251,98.8,,33.1,5,,,,,,,,,,,,0,0,0,0,0,0,0,0,0,0,0,0,0,0,0,0,,,,,0.0,,,,,,
806313,1745090969996,,,,,,,,,,,,,,,,,,,,,,,,,,,,,,,,,,0,0,0,0,0,0,0,0,0,0,0,0,0,0,0,0,,,,,,,,,,,
806333,1745090970010,0.0,202.36,,-0.05,0.01,1.04,-1,-0,1,1.04,1.24,84,3703,10.5,3.84,,12.79,1.25,98.8,,32.9,5,0,0,0,0,0.0,0.0,0.0,0.0,2.27,,,0,0,0,0,0,0,0,0,0,0,0,0,0,0,0,0,0,,,,0.0,39.240097,-77.964836,0.05,33,3,0.8
806353,1745090970030,,,,,,,,,,,,,,,,,,,,,,,,,,,,,,,,,,0,0,0,0,0,0,0,0,0,0,0,0,0,0,0,0,,,,,,,,,,,
806373,1745090970050,0.0,202.36,,-0.03,0.02,1.03,-1,-0,1,1.03,1.24,83,3732,10.4,3.85,,12.87,1.251,98.8,,32.9,5,,,,,,,,,,,,0,0,0,0,0,0,0,0,0,0,0,0,0,0,0,0,,,,,0.0,,,,,,
806393,1745090970070,,,,,,,,,,,,,,,,,,,,,,,,,,,,,,,,,,0,0,0,0,0,0,0,0,0,0,0,0,0,0,0,0,,,,,,,,,,,
806413,1745090970090,0.0,202.36,,-0.03,0.03,0.98,-1,-0,0,0.98,1.24,79,3626,10.5,3.84,,12.93,1.252,98.8,,32.9,5,,,,,,,,,,,,0,0,0,0,0,0,0,0,0,0,0,0,0,0,0,0,,,,,0.0,,,,,,
806433,1745090970118,,,,,,,,,,,,,,,,,,,,,,,0,0,0,0,0.0,0.0,0.0,0.0,2.26,,,0,0,0,0,0,0,0,0,0,0,0,0,0,0,0,0,0,,,,,39.240097,-77.964836,0.13,33,3,0.8
806453,1745090970138,0.0,202.36,,-0.05,-0.02,0.97,-0,-0,0,0.97,1.24,79,3651,10.4,3.84,,12.92,1.253,98.8,,32.0,5,,,,,,,,,,,,0,0,0,0,0,0,0,0,0,0,0,0,0,0,0,0,,,,,0.0,,,,,,
806473,1745090970158,,,,,,,,,,,,,,,,,,,,,,,,,,,,,,,,,,0,0,0,0,0,0,0,0,0,0,0,0,0,0,0,0,,,,,,,,,,,
806493,1745090970178,0.0,202.49,,-0.06,-0.05,0.99,-1,-0,0,0.99,1.24,80,3575,10.6,3.83,,12.92,1.253,98.8,,32.0,5,,,,,,,,,,,,0,0,0,0,0,0,0,0,0,0,0,0,0,0,0,0,,,,,0.0,,,,,,
806513,1745090970198,,,,,,,,,,,,,,,,,,,,,,,,,,,,,,,,,,0,0,0,0,0,0,0,0,0,0,0,0,0,0,0,0,,,,,,,,,,,
806533,1745090970214,0.0,202.49,,-0.07,-0.02,1.01,-1,-0,0,1.01,1.24,82,3575,10.6,3.83,,12.99,1.254,98.8,,31.8,5,0,0,0,0,0.0,0.0,0.0,0.0,2.26,,,0,0,0,0,0,0,0,0,0,0,0,0,0,0,0,0,0,,,,0.0,39.240097,-77.964836,0.04,33,3,0.8
806553,1745090970234,,,,,,,,,,,,,,,,,,,,,,,,,,,,,,,,,,0,0,0,0,0,0,0,0,0,0,0,0,0,0,0,0,,,,,,,,,,,
806573,1745090970254,0.0,202.49,,-0.05,0.02,1.02,-1,-0,0,1.02,1.24,82,3613,10.5,3.82,,12.97,1.252,98.8,,31.8,5,,,,,,,,,,,,0,0,0,0,0,0,0,0,0,0,0,0,0,0,0,0,,,,,0.0,,,,,,
806593,1745090970274,,,,,,,,,,,,,,,,,,,,,,,,,,,,,,,,,,0,0,0,0,0,0,0,0,0,0,0,0,0,0,0,0,,,,,,,,,,,
806613,1745090970294,0.0,202.36,,-0.03,0.01,0.98,-1,-0,0,0.98,1.24,79,3591,10.6,3.82,,12.99,1.251,98.8,,31.8,5,,,,,,,,,,,,0,0,0,0,0,0,0,0,0,0,0,0,0,0,0,0,,,,,0.0,,,,,,
806633,1745090970316,,,,,,,,,,,,,,,,,,,,,,,0,0,0,0,0.0,0.0,0.0,0.0,2.26,,,0,0,0,0,0,0,0,0,0,0,0,0,0,0,0,0,0,,,,,39.240097,-77.964836,0.04,33,3,0.8
806653,1745090970336,0.0,202.49,,-0.05,-0.05,0.97,0,-0,-0,0.97,1.24,78,3590,10.5,3.81,,12.99,1.25,98.8,,31.7,5,,,,,,,,,,,,0,0,0,0,0,0,0,0,0,0,0,0,0,0,0,0,,,,,0.0,,,,,,
806673,1745090970356,,,,,,,,,,,,,,,,,,,,,,,,,,,,,,,,,,0,0,0,0,0,0,0,0,0,0,0,0,0,0,0,0,,,,,,,,,,,
806693,1745090970376,0.0,202.49,,-0.06,-0.05,1.0,-0,-0,0,1.0,1.24,81,3541,10.4,3.81,,12.99,1.25,98.8,,31.7,5,,,,,,,,,,,,0,0,0,0,0,0,0,0,0,0,0,0,0,0,0,0,,,,,0.0,,,,,,
806713,1745090970396,,,,,,,,,,,,,,,,,,,,,,,,,,,,,,,,,,0,0,0,0,0,0,0,0,0,0,0,0,0,0,0,0,,,,,,,,,,,
806733,1745090970415,0.0,202.36,12.55,-0.06,0.04,1.01,-1,-0,0,1.01,1.24,81,3541,10.4,3.81,15,13.08,1.251,98.8,149,31.4,5,0,0,0,0,0.0,0.0,0.0,0.0,2.27,0,0.0,0,0,0,0,0,0,0,0,0,0,0,0,0,0,0,0,0,0.0,0,-0,0.0,39.240097,-77.964836,0.08,33,3,0.8
806753,1745090970435,,,,,,,,,,,,,,,,,,,,,,,,,,,,,,,,,,0,0,0,0,0,0,0,0,0,0,0,0,0,0,0,0,,,,,,,,,,,
806773,1745090970455,0.0,202.36,,-0.04,0.03,0.98,-1,-0,0,0.98,1.24,79,3586,10.4,3.81,,13.04,1.251,98.8,,31.4,5,,,,,,,,,,,,0,0,0,0,0,0,0,0,0,0,0,0,0,0,0,0,,,,,0.0,,,,,,
806793,1745090970475,,,,,,,,,,,,,,,,,,,,,,,,,,,,,,,,,,0,0,0,0,0,0,0,0,0,0,0,0,0,0,0,0,,,,,,,,,,,
806813,1745090970495,0.0,202.36,,-0.07,-0.01,0.95,0,-0,-0,0.96,1.24,77,3553,10.5,3.81,,13.04,1.252,98.8,,31.4,5,,,,,,,,,,,,0,0,0,0,0,0,0,0,0,0,0,0,0,0,0,0,,,,,0.0,,,,,,
806833,1745090970517,,,,,,,,,,,,,,,,,,,,,,,0,0,0,0,0.0,0.0,0.0,0.0,2.27,,,0,0,0,0,0,0,0,0,0,0,0,0,0,0,0,0,0,,,,,39.240097,-77.964836,0.05,33,3,0.8
806853,1745090970537,0.0,202.36,,-0.09,0.0,1.0,-0,-0,0,1.01,1.24,81,3563,10.4,3.8,,13.01,1.25,98.8,,31.3,5,,,,,,,,,,,,0,0,0,0,0,0,0,0,0,0,0,0,0,0,0,0,,,,,0.0,,,,,,
806873,1745090970557,,,,,,,,,,,,,,,,,,,,,,,,,,,,,,,,,,0,0,0,0,0,0,0,0,0,0,0,0,0,0,0,0,,,,,,,,,,,
806893,1745090970577,0.0,202.36,,-0.07,0.08,1.0,-1,-0,0,1.0,1.24,81,3516,10.5,3.8,,13.01,1.25,98.8,,31.3,5,,,,,,,,,,,,0,0,0,0,0,0,0,0,0,0,0,0,0,0,0,0,,,,,0.0,,,,,,
806913,1745090970597,,,,,,,,,,,,,,,,,,,,,,,,,,,,,,,,,,0,0,0,0,0,0,0,0,0,0,0,0,0,0,0,0,,,,,,,,,,,
806933,1745090970617,0.0,202.36,,-0.05,0.06,0.98,-0,-0,0,0.99,1.24,80,3516,10.5,3.8,,13.05,1.252,98.8,,31.1,5,0,0,0,0,0.0,0.0,0.0,0.0,2.26,,,0,0,0,0,0,0,0,0,0,0,0,0,0,0,0,0,0,,,,0.0,39.240097,-77.964836,0.05,33,3,0.8
806953,1745090970637,,,,,,,,,,,,,,,,,,,,,,,,,,,,,,,,,,0,0,0,0,0,0,0,0,0,0,0,0,0,0,0,0,,,,,,,,,,,
806973,1745090970657,0.0,202.49,,-0.08,-0.09,0.97,0,-0,-0,0.98,1.24,79,3590,10.4,3.8,,13.01,1.253,98.8,,31.1,5,,,,,,,,,,,,0,0,0,0,0,0,0,0,0,0,0,0,0,0,0,0,,,,,0.0,,,,,,
806993,1745090970677,,,,,,,,,,,,,,,,,,,,,,,,,,,,,,,,,,0,0,0,0,0,0,0,0,0,0,0,0,0,0,0,0,,,,,,,,,,,
807013,1745090970697,0.0,202.49,,-0.06,-0.07,1.02,-0,-0,0,1.02,1.24,83,3545,10.6,3.78,,13.0,1.253,98.8,,31.1,5,,,,,,,,,,,,0,0,0,0,0,0,0,0,0,0,0,0,0,0,0,0,,,,,0.0,,,,,,
807033,1745090970717,,,,,,,,,,,,,,,,,,,,,,,0,0,0,0,0.0,0.0,0.0,0.0,2.26,,,0,0,0,0,0,0,0,0,0,0,0,0,0,0,0,0,0,,,,,39.240097,-77.964836,0.07,33,3,0.8
807053,1745090970737,0.0,202.49,,-0.04,-0.03,1.0,-0,-0,0,1.0,1.24,81,3573,10.6,3.78,,13.04,1.252,98.8,,31.1,5,,,,,,,,,,,,0,0,0,0,0,0,0,0,0,0,0,0,0,0,0,0,,,,,0.0,,,,,,
807073,1745090970757,,,,,,,,,,,,,,,,,,,,,,,,,,,,,,,,,,0,0,0,0,0,0,0,0,0,0,0,0,0,0,0,0,,,,,,,,,,,
807093,1745090970777,0.0,202.49,,-0.05,-0.05,0.97,0,-0,-0,0.97,1.24,78,3528,10.7,3.78,,13.04,1.252,98.8,,31.1,5,,,,,,,,,,,,0,0,0,0,0,0,0,0,0,0,0,0,0,0,0,0,,,,,0.0,,,,,,
807113,1745090970797,,,,,,,,,,,,,,,,,,,,,,,,,,,,,,,,,,0,0,0,0,0,0,0,0,0,0,0,0,0,0,0,0,,,,,,,,,,,
807133,1745090970817,0.0,202.49,,-0.06,-0.11,0.99,0,-0,-0,1.0,1.24,81,3528,10.7,3.78,,13.07,1.251,98.8,,31.5,5,0,0,0,0,0.0,0.0,0.0,0.0,2.26,,,0,0,0,0,0,0,0,0,0,0,0,0,0,0,0,0,0,,,,0.0,39.240097,-77.964836,0.05,33,3,0.8
807153,1745090970837,,,,,,,,,,,,,,,,,,,,,,,,,,,,,,,,,,0,0,0,0,0,0,0,0,0,0,0,0,0,0,0,0,,,,,,,,,,,
807173,1745090970857,0.0,202.49,,-0.06,-0.05,1.01,-0,-0,0,1.01,1.24,82,3556,10.5,3.78,,13.09,1.251,98.8,,31.5,5,,,,,,,,,,,,0,0,0,0,0,0,0,0,0,0,0,0,0,0,0,0,,,,,0.0,,,,,,
807193,1745090970877,,,,,,,,,,,,,,,,,,,,,,,,,,,,,,,,,,0,0,0,0,0,0,0,0,0,0,0,0,0,0,0,0,,,,,,,,,,,
807213,1745090970897,0.0,202.49,,-0.04,-0.05,0.96,0,-0,-0,0.96,1.24,77,3456,10.5,3.78,,13.09,1.251,98.8,,31.5,5,,,,,,,,,,,,0,0,0,0,0,0,0,0,0,0,0,0,0,0,0,0,,,,,0.0,,,,,,
807233,1745090970917,,,,,,,,,,,,,,,,,,,,,,,0,0,0,0,0.0,0.0,0.0,0.0,2.27,,,0,0,0,0,0,0,0,0,0,0,0,0,0,0,0,0,0,,,,,39.240097,-77.964836,0.07,33,3,0.8
807253,1745090970937,0.0,202.49,,-0.07,-0.17,0.97,1,-0,-0,0.99,1.24,80,3561,10.5,3.79,,13.08,1.252,98.8,,31.2,5,,,,,,,,,,,,0,0,0,0,0,0,0,0,0,0,0,0,0,0,0,0,,,,,0.0,,,,,,
807273,1745090970957,,,,,,,,,,,,,,,,,,,,,,,,,,,,,,,,,,0,0,0,0,0,0,0,0,0,0,0,0,0,0,0,0,,,,,,,,,,,
807293,1745090970977,0.0,202.61,,-0.07,-0.13,1.01,-0,-0,0,1.02,1.24,82,3540,10.5,3.77,,13.08,1.252,98.8,,31.2,5,,,,,,,,,,,,0,0,0,0,0,0,0,0,0,0,0,0,0,0,0,0,,,,,0.0,,,,,,
807313,1745090970997,,,,,,,,,,,,,,,,,,,,,,,,,,,,,,,,,,0,0,0,0,0,0,0,0,0,0,0,0,0,0,0,0,,,,,,,,,,,
807333,1745090971009,0.0,202.61,,-0.04,-0.06,0.99,-0,-0,0,0.99,1.24,80,3540,10.5,3.77,,13.04,1.25,98.8,,31.4,5,0,0,0,0,0.0,0.0,0.0,0.0,2.26,,,0,0,0,0,0,0,0,0,0,0,0,0,0,0,0,0,0,,,,0.0,39.240097,-77.964836,0.04,33,3,0.8
807353,1745090971029,,,,,,,,,,,,,,,,,,,,,,,,,,,,,,,,,,0,0,0,0,0,0,0,0,0,0,0,0,0,0,0,0,,,,,,,,,,,
807373,1745090971049,0.0,202.61,,-0.04,-0.05,0.97,0,-0,-0,0.97,1.24,78,3570,10.5,3.78,,13.01,1.251,98.8,,31.4,5,,,,,,,,,,,,0,0,0,0,0,0,0,0,0,0,0,0,0,0,0,0,,,,,0.0,,,,,,
807393,1745090971069,,,,,,,,,,,,,,,,,,,,,,,,,,,,,,,,,,0,0,0,0,0,0,0,0,0,0,0,0,0,0,0,0,,,,,,,,,,,
807413,1745090971089,0.0,202.61,,-0.06,-0.09,1.0,0,-0,-0,1.01,1.24,81,3504,10.4,3.77,,13.04,1.252,98.8,,31.4,5,,,,,,,,,,,,0,0,0,0,0,0,0,0,0,0,0,0,0,0,0,0,,,,,0.0,,,,,,
807433,1745090971109,,,,,,,,,,,,,,,,,,,,,,,0,0,0,0,0.0,0.0,0.0,0.0,2.26,,,0,0,0,0,0,0,0,0,0,0,0,0,0,0,0,0,0,,,,,39.240097,-77.964836,0.04,33,3,0.8
807453,1745090971129,0.0,202.61,,-0.04,-0.04,1.02,-0,-0,0,1.02,1.24,83,3542,10.5,3.79,,13.11,1.253,98.8,,31.4,5,,,,,,,,,,,,0,0,0,0,0,0,0,0,0,0,0,0,0,0,0,0,,,,,0.0,,,,,,
807473,1745090971149,,,,,,,,,,,,,,,,,,,,,,,,,,,,,,,,,,0,0,0,0,0,0,0,0,0,0,0,0,0,0,0,0,,,,,,,,,,,
807493,1745090971169,0.0,202.61,,-0.03,-0.07,0.95,0,-1,-0,0.95,1.24,77,3459,10.5,3.78,,13.11,1.253,98.8,,31.4,5,,,,,,,,,,,,0,0,0,0,0,0,0,0,0,0,0,0,0,0,0,0,,,,,0.0,,,,,,
807513,1745090971189,,,,,,,,,,,,,,,,,,,,,,,,,,,,,,,,,,0,0,0,0,0,0,0,0,0,0,0,0,0,0,0,0,,,,,,,,,,,
807533,1745090971217,0.0,202.61,,-0.06,-0.12,1.01,0,-0,-0,1.02,1.24,82,3459,10.5,3.78,,13.07,1.254,98.8,,31.2,5,0,0,0,0,0.0,0.0,0.0,0.0,2.26,,,0,0,0,0,0,0,0,0,0,0,0,0,0,0,0,0,0,,,,0.0,39.240097,-77.964836,0.05,33,3,0.8
807553,1745090971237,,,,,,,,,,,,,,,,,,,,,,,,,,,,,,,,,,0,0,0,0,0,0,0,0,0,0,0,0,0,0,0,0,,,,,,,,,,,
807573,1745090971257,0.0,202.61,,-0.03,-0.0,1.0,-0,-0,0,1.0,1.24,81,3445,10.6,3.79,,13.13,1.251,98.8,,31.2,5,,,,,,,,,,,,0,0,0,0,0,0,0,0,0,0,0,0,0,0,0,0,,,,,0.0,,,,,,
807593,1745090971277,,,,,,,,,,,,,,,,,,,,,,,,,,,,,,,,,,0,0,0,0,0,0,0,0,0,0,0,0,0,0,0,0,,,,,,,,,,,
807613,1745090971297,0.0,202.61,,-0.03,-0.03,0.96,0,-0,-0,0.96,1.24,77,3481,10.7,3.79,,13.11,1.252,98.8,,31.2,5,,,,,,,,,,,,0,0,0,0,0,0,0,0,0,0,0,0,0,0,0,0,,,,,0.0,,,,,,
807633,1745090971317,,,,,,,,,,,,,,,,,,,,,,,0,0,0,0,0.0,0.0,0.0,0.0,2.26,,,0,0,0,0,0,0,0,0,0,0,0,0,0,0,0,0,0,,,,,39.240097,-77.964836,0.05,33,3,0.8
807653,1745090971337,0.0,202.61,,-0.06,-0.01,1.02,-0,-0,0,1.02,1.24,82,3454,10.5,3.79,,13.15,1.25,98.8,,31.5,5,,,,,,,,,,,,0,0,0,0,0,0,0,0,0,0,0,0,0,0,0,0,,,,,0.0,,,,,,
807673,1745090971357,,,,,,,,,,,,,,,,,,,,,,,,,,,,,,,,,,0,0,0,0,0,0,0,0,0,0,0,0,0,0,0,0,,,,,,,,,,,
807693,1745090971377,0.0,202.61,,-0.03,0.08,1.0,-0,-0,0,1.01,1.24,81,3575,10.5,3.39,,13.15,1.25,98.8,,31.5,5,,,,,,,,,,,,0,0,0,0,0,0,0,0,0,0,0,0,0,0,0,0,,,,,0.0,,,,,,
807713,1745090971397,,,,,,,,,,,,,,,,,,,,,,,,,,,,,,,,,,0,0,0,0,0,0,0,0,0,0,0,0,0,0,0,0,,,,,,,,,,,
807733,1745090971416,0.0,202.49,12.59,-0.07,-0.01,1.0,0,-0,-0,1.01,1.24,81,3575,10.5,3.39,15,13.03,1.25,98.8,149,30.4,5,0,0,0,0,0.0,0.0,0.0,0.0,2.27,0,0.0,0,0,0,0,0,0,0,0,0,0,0,0,0,0,0,0,0,0.0,0,0,0.0,39.240097,-77.964836,0.07,33,3,0.8
807753,1745090971436,,,,,,,,,,,,,,,,,,,,,,,,,,,,,,,,,,0,0,0,0,0,0,0,0,0,0,0,0,0,0,0,0,,,,,,,,,,,
807773,1745090971456,0.0,202.49,,-0.04,0.09,0.95,0,-0,-0,0.96,1.24,77,3312,10.5,3.79,,13.19,1.252,98.8,,30.4,5,,,,,,,,,,,,0,0,0,0,0,0,0,0,0,0,0,0,0,0,0,0,,,,,0.0,,,,,,
807793,1745090971476,,,,,,,,,,,,,,,,,,,,,,,,,,,,,,,,,,0,0,0,0,0,0,0,0,0,0,0,0,0,0,0,0,,,,,,,,,,,
807813,1745090971496,0.0,202.49,,-0.05,0.03,1.03,0,-0,0,1.03,1.24,83,3350,10.5,3.38,,13.15,1.252,98.8,,30.4,5,,,,,,,,,,,,0,0,0,0,0,0,0,0,0,0,0,0,0,0,0,0,,,,,0.0,,,,,,
807833,1745090971516,,,,,,,,,,,,,,,,,,,,,,,0,0,0,0,0.0,0.0,0.0,0.0,2.27,,,0,0,0,0,0,0,0,0,0,0,0,0,0,0,0,0,0,,,,,39.240097,-77.964836,0.05,33,3,0.8
807853,1745090971536,0.0,202.49,,-0.08,-0.03,1.04,0,-0,-0,1.04,1.24,84,3182,10.5,3.79,,13.19,1.252,98.8,,28.5,5,,,,,,,,,,,,0,0,0,0,0,0,0,0,0,0,0,0,0,0,0,0,,,,,0.0,,,,,,
807873,1745090971556,,,,,,,,,,,,,,,,,,,,,,,,,,,,,,,,,,0,0,0,0,0,0,0,0,0,0,0,0,0,0,0,0,,,,,,,,,,,
807893,1745090971576,0.0,202.49,,-0.09,-0.04,0.96,1,-0,-1,0.97,1.24,78,3054,10.5,3.79,,13.19,1.252,98.8,,28.5,5,,,,,,,,,,,,0,0,0,0,0,0,0,0,0,0,0,0,0,0,0,0,,,,,0.0,,,,,,
807913,1745090971596,,,,,,,,,,,,,,,,,,,,,,,,,,,,,,,,,,0,0,0,0,0,0,0,0,0,0,0,0,0,0,0,0,,,,,,,,,,,
807933,1745090971616,0.0,202.49,,-0.06,0.01,0.87,1,-0,-1,0.87,1.24,70,3054,10.5,3.79,,13.31,1.254,98.8,,27.0,5,0,0,0,0,0.0,0.0,0.0,0.0,2.26,,,0,0,0,0,0,0,0,0,0,0,0,0,0,0,0,0,0,,,,0.0,39.240097,-77.964836,0.0,33,3,0.8
807953,1745090971636,,,,,,,,,,,,,,,,,,,,,,,,,,,,,,,,,,0,0,0,0,0,0,0,0,0,0,0,0,0,0,0,0,,,,,,,,,,,
807973,1745090971656,0.0,202.49,,-0.03,0.09,0.84,1,-0,-1,0.84,1.24,68,3091,10.5,3.8,,13.35,1.254,98.8,,27.0,5,,,,,,,,,,,,0,0,0,0,0,0,0,0,0,0,0,0,0,0,0,0,,,,,0.0,,,,,,
807993,1745090971676,,,,,,,,,,,,,,,,,,,,,,,,,,,,,,,,,,0,0,0,0,0,0,0,0,0,0,0,0,0,0,0,0,,,,,,,,,,,
808013,1745090971696,0.0,202.49,,-0.01,0.13,0.83,1,-1,-0,0.84,1.24,68,3077,10.6,3.8,,13.28,1.254,98.8,,27.0,5,,,,,,,,,,,,0,0,0,0,0,0,0,0,0,0,0,0,0,0,0,0,,,,,0.0,,,,,,
808033,1745090971714,,,,,,,,,,,,,,,,,,,,,,,0,0,0,0,0.0,0.0,0.0,0.0,2.27,,,0,0,0,0,0,0,0,0,0,0,0,0,0,0,0,0,0,,,,,39.240097,-77.964836,0.1,33,3,0.8
808053,1745090971734,0.0,202.49,,0.02,0.17,0.83,0,-1,0,0.85,1.24,68,2979,10.6,3.8,,13.37,1.253,98.8,,27.0,5,,,,,,,,,,,,0,0,0,0,0,0,0,0,0,0,0,0,0,0,0,0,,,,,0.0,,,,,,
808073,1745090971754,,,,,,,,,,,,,,,,,,,,,,,,,,,,,,,,,,0,0,0,0,0,0,0,0,0,0,0,0,0,0,0,0,,,,,,,,,,,
808093,1745090971774,0.0,202.61,,0.03,0.17,0.87,-0,-1,1,0.89,1.24,72,3053,10.8,3.8,,13.37,1.253,98.8,,27.0,5,,,,,,,,,,,,0,0,0,0,0,0,0,0,0,0,0,0,0,0,0,0,,,,,0.0,,,,,,
808113,1745090971794,,,,,,,,,,,,,,,,,,,,,,,,,,,,,,,,,,0,0,0,0,0,0,0,0,0,0,0,0,0,0,0,0,,,,,,,,,,,
808133,1745090971816,0.0,202.49,,0.04,0.13,0.93,-1,-1,1,0.94,1.24,76,3053,10.8,3.8,,13.41,1.25,98.8,,26.5,5,0,0,0,0,0.0,0.0,0.0,0.0,2.26,,,0,0,0,0,0,0,0,0,0,0,0,0,0,0,0,0,0,,,,0.0,39.240097,-77.964836,0.09,33,3,0.8
808153,1745090971836,,,,,,,,,,,,,,,,,,,,,,,,,,,,,,,,,,0,0,0,0,0,0,0,0,0,0,0,0,0,0,0,0,,,,,,,,,,,
808173,1745090971856,0.0,202.49,,0.02,0.04,1.01,-1,-1,1,1.02,1.24,82,3156,19.5,4.38,,13.63,1.252,98.8,,26.5,5,,,,,,,,,,,,0,0,0,0,0,0,0,0,0,0,0,0,0,0,0,0,,,,,0.0,,,,,,
808193,1745090971876,,,,,,,,,,,,,,,,,,,,,,,,,,,,,,,,,,0,0,0,0,0,0,0,0,0,0,0,0,0,0,0,0,,,,,,,,,,,
808213,1745090971896,0.0,202.49,,-0.01,-0.03,1.02,-0,-0,0,1.02,1.24,82,3145,24.3,4.44,,13.84,1.253,98.8,,26.5,5,,,,,,,,,,,,0,0,0,0,0,0,0,0,0,0,0,0,0,0,0,0,,,,,0.0,,,,,,
808233,1745090971916,,,,,,,,,,,,,,,,,,,,,,,0,0,0,0,0.0,0.0,0.0,0.0,2.26,,,0,0,0,0,0,0,0,0,0,0,0,0,0,0,0,0,0,,,,,39.240097,-77.964836,0.04,33,3,0.8
808253,1745090971936,0.0,202.49,,0.0,0.08,0.98,-0,-0,0,0.98,1.24,79,3228,26.3,4.34,,13.88,1.252,98.8,,29.0,5,,,,,,,,,,,,0,0,0,0,0,0,0,0,0,0,0,0,0,0,0,0,,,,,0.0,,,,,,
808273,1745090971956,,,,,,,,,,,,,,,,,,,,,,,,,,,,,,,,,,0,0,0,0,0,0,0,0,0,0,0,0,0,0,0,0,,,,,,,,,,,
808293,1745090971976,0.0,202.49,,-0.02,-0.08,0.97,-0,-0,0,0.97,1.24,79,3510,26.7,4.17,,13.88,1.252,98.8,,29.0,5,,,,,,,,,,,,0,0,0,0,0,0,0,0,0,0,0,0,0,0,0,0,,,,,0.0,,,,,,
808313,1745090971996,,,,,,,,,,,,,,,,,,,,,,,,,,,,,,,,,,0,0,0,0,0,0,0,0,0,0,0,0,0,0,0,0,,,,,,,,,,,
808333,1745090972008,0.0,202.61,,-0.02,-0.04,0.96,-0,-0,0,0.96,1.24,78,3510,26.7,4.17,,13.86,1.252,98.8,,33.9,5,0,0,0,0,0.0,0.0,0.0,0.0,2.27,,,0,0,0,0,0,0,0,0,0,0,0,0,0,0,0,0,0,,,,0.0,39.240097,-77.964836,0.04,33,3,0.8
808353,1745090972028,,,,,,,,,,,,,,,,,,,,,,,,,,,,,,,,,,0,0,0,0,0,0,0,0,0,0,0,0,0,0,0,0,,,,,,,,,,,
808373,1745090972048,0.0,202.49,,-0.0,-0.06,0.93,1,-0,-0,0.93,1.24,75,3744,26.7,4.22,,13.79,1.252,98.8,,33.9,5,,,,,,,,,,,,0,0,0,0,0,0,0,0,0,0,0,0,0,0,0,0,,,,,0.0,,,,,,
808393,1745090972068,,,,,,,,,,,,,,,,,,,,,,,,,,,,,,,,,,0,0,0,0,0,0,0,0,0,0,0,0,0,0,0,0,,,,,,,,,,,
808413,1745090972088,0.0,202.49,,-0.03,-0.09,0.93,0,-0,-0,0.94,1.24,76,4207,21.8,4.24,,13.53,1.253,98.8,,33.9,5,,,,,,,,,,,,0,0,0,0,0,0,0,0,0,0,0,0,0,0,0,0,,,,,0.0,,,,,,
808433,1745090972116,,,,,,,,,,,,,,,,,,,,,,,0,0,0,0,0.0,0.0,0.0,0.0,2.26,,,0,0,0,0,0,0,0,0,0,0,0,0,0,0,0,0,0,,,,,39.240097,-77.964836,0.0,33,3,0.8
808453,1745090972136,0.0,202.49,,-0.09,-0.01,1.0,-0,-0,0,1.0,1.24,81,4389,10.6,3.78,,12.95,1.254,98.8,,40.0,5,,,,,,,,,,,,0,0,0,0,0,0,0,0,0,0,0,0,0,0,0,0,,,,,0.0,,,,,,
808473,1745090972156,,,,,,,,,,,,,,,,,,,,,,,,,,,,,,,,,,0,0,0,0,0,0,0,0,0,0,0,0,0,0,0,0,,,,,,,,,,,
808493,1745090972176,0.0,202.49,,-0.1,0.09,1.09,-1,-0,1,1.09,1.24,88,4440,6.8,3.56,,12.95,1.254,98.8,,40.0,5,,,,,,,,,,,,0,0,0,0,0,0,0,0,0,0,0,0,0,0,0,0,,,,,0.0,,,,,,
808513,1745090972196,,,,,,,,,,,,,,,,,,,,,,,,,,,,,,,,,,0,0,0,0,0,0,0,0,0,0,0,0,0,0,0,0,,,,,,,,,,,
808533,1745090972216,0.0,202.49,,-0.09,0.14,1.16,-2,-0,1,1.17,1.24,95,4440,6.8,3.56,,12.51,1.242,98.8,,41.2,5,0,0,0,0,0.0,0.0,0.0,0.0,2.27,,,0,0,0,0,0,0,0,0,0,0,0,0,0,0,0,0,0,,,,0.0,39.240097,-77.964836,0.13,33,3,0.8
808553,1745090972236,,,,,,,,,,,,,,,,,,,,,,,,,,,,,,,,,,0,0,0,0,0,0,0,0,0,0,0,0,0,0,0,0,,,,,,,,,,,
808573,1745090972256,0.0,202.49,,-0.05,0.16,1.13,-1,-0,1,1.14,1.24,92,4365,6.5,3.53,,12.25,1.211,98.8,,41.2,5,,,,,,,,,,,,0,0,0,0,0,0,0,0,0,0,0,0,0,0,0,0,,,,,0.0,,,,,,
808593,1745090972276,,,,,,,,,,,,,,,,,,,,,,,,,,,,,,,,,,0,0,0,0,0,0,0,0,0,0,0,0,0,0,0,0,,,,,,,,,,,
808613,1745090972296,0.0,202.61,,-0.02,0.17,1.06,-1,-0,1,1.08,1.24,87,4428,6.4,3.5,,12.0,1.252,98.8,,41.2,5,,,,,,,,,,,,0,0,0,0,0,0,0,0,0,0,0,0,0,0,0,0,,,,,0.0,,,,,,
808633,1745090972318,,,,,,,,,,,,,,,,,,,,,,,0,0,0,0,0.0,0.0,0.0,0.0,2.26,,,0,0,0,0,0,0,0,0,0,0,0,0,0,0,0,0,0,,,,,39.240097,-77.964836,0.05,33,3,0.8
808653,1745090972338,0.0,202.74,,0.01,0.06,0.95,0,-0,-0,0.95,1.24,77,4346,6.4,3.51,,11.95,1.245,98.8,,41.0,5,,,,,,,,,,,,0,0,0,0,0,0,0,0,0,0,0,0,0,0,0,0,,,,,0.0,,,,,,
808673,1745090972358,,,,,,,,,,,,,,,,,,,,,,,,,,,,,,,,,,0,0,0,0,0,0,0,0,0,0,0,0,0,0,0,0,,,,,,,,,,,
808693,1745090972378,0.0,202.61,,0.01,-0.02,0.91,1,-0,-0,0.91,1.24,73,4374,8.1,3.51,,11.95,1.245,98.8,,41.0,5,,,,,,,,,,,,0,0,0,0,0,0,0,0,0,0,0,0,0,0,0,0,,,,,0.0,,,,,,
808713,1745090972398,,,,,,,,,,,,,,,,,,,,,,,,,,,,,,,,,,0,0,0,0,0,0,0,0,0,0,0,0,0,0,0,0,,,,,,,,,,,
808733,1745090972417,0.0,202.61,12.62,-0.04,0.04,1.02,-0,-0,0,1.02,1.24,82,4374,8.1,3.51,15,12.0,1.212,98.8,149,39.6,5,0,0,0,0,0.0,0.0,0.0,0.0,2.27,0,0.0,0,0,0,0,0,0,0,0,0,0,0,0,0,0,0,0,0,0.0,0,-0,0.0,39.240097,-77.964836,0.07,33,3,0.8
808753,1745090972437,,,,,,,,,,,,,,,,,,,,,,,,,,,,,,,,,,0,0,0,0,0,0,0,0,0,0,0,0,0,0,0,0,,,,,,,,,,,
808773,1745090972457,0.0,202.61,,-0.03,0.02,0.98,0,-0,-0,0.98,1.24,79,4272,12.5,3.71,,12.35,1.187,98.8,,39.6,5,,,,,,,,,,,,0,0,0,0,0,0,0,0,0,0,0,0,0,0,0,0,,,,,0.0,,,,,,
808793,1745090972477,,,,,,,,,,,,,,,,,,,,,,,,,,,,,,,,,,0,0,0,0,0,0,0,0,0,0,0,0,0,0,0,0,,,,,,,,,,,
808813,1745090972497,0.0,202.61,,-0.04,-0.02,0.94,-0,-0,-0,0.94,1.24,76,4208,14.3,3.78,,12.68,1.2,98.8,,39.6,5,,,,,,,,,,,,0,0,0,0,0,0,0,0,0,0,0,0,0,0,0,0,,,,,0.0,,,,,,
808833,1745090972517,,,,,,,,,,,,,,,,,,,,,,,0,0,0,0,0.0,0.0,0.0,0.0,2.27,,,0,0,0,0,0,0,0,0,0,0,0,0,0,0,0,0,0,,,,,39.240097,-77.964836,0.19,33,3,0.8
808853,1745090972537,0.0,202.74,,-0.02,0.04,1.01,0,-0,-0,1.01,1.24,82,4103,14.9,3.8,,12.92,1.238,98.8,,38.5,5,,,,,,,,,,,,0,0,0,0,0,0,0,0,0,0,0,0,0,0,0,0,,,,,0.0,,,,,,
808873,1745090972557,,,,,,,,,,,,,,,,,,,,,,,,,,,,,,,,,,0,0,0,0,0,0,0,0,0,0,0,0,0,0,0,0,,,,,,,,,,,
808893,1745090972577,0.0,202.74,,-0.02,-0.05,0.96,0,-0,-0,0.96,1.24,77,4134,15.1,3.81,,12.92,1.238,98.8,,38.5,5,,,,,,,,,,,,0,0,0,0,0,0,0,0,0,0,0,0,0,0,0,0,,,,,0.0,,,,,,
808913,1745090972597,,,,,,,,,,,,,,,,,,,,,,,,,,,,,,,,,,0,0,0,0,0,0,0,0,0,0,0,0,0,0,0,0,,,,,,,,,,,
808933,1745090972617,0.0,202.74,,-0.01,0.08,1.05,0,-0,0,1.05,1.24,85,4134,15.1,3.81,,12.97,1.253,98.8,,37.5,5,0,0,0,0,0.0,0.0,0.0,0.0,2.26,,,0,0,0,0,0,0,0,0,0,0,0,0,0,0,0,0,0,,,,0.0,39.240097,-77.964836,0.08,33,3,0.8
808953,1745090972637,,,,,,,,,,,,,,,,,,,,,,,,,,,,,,,,,,0,0,0,0,0,0,0,0,0,0,0,0,0,0,0,0,,,,,,,,,,,
808973,1745090972657,0.0,202.74,,-0.03,-0.04,0.96,0,-0,0,0.96,1.24,78,4147,15.3,3.81,,13.01,1.254,98.8,,37.5,5,,,,,,,,,,,,0,0,0,0,0,0,0,0,0,0,0,0,0,0,0,0,,,,,0.0,,,,,,
808993,1745090972677,,,,,,,,,,,,,,,,,,,,,,,,,,,,,,,,,,0,0,0,0,0,0,0,0,0,0,0,0,0,0,0,0,,,,,,,,,,,
809013,1745090972697,0.0,202.61,,-0.06,0.05,1.06,-0,-0,0,1.06,1.24,86,4157,15.4,3.82,,13.03,1.254,98.8,,37.5,5,,,,,,,,,,,,0,0,0,0,0,0,0,0,0,0,0,0,0,0,0,0,,,,,0.0,,,,,,
809033,1745090972717,,,,,,,,,,,,,,,,,,,,,,,0,0,0,0,0.0,0.0,0.0,0.0,2.27,,,0,0,0,0,0,0,0,0,0,0,0,0,0,0,0,0,0,,,,,39.240097,-77.964836,0.18,33,3,0.8
809053,1745090972737,0.0,202.61,,-0.05,-0.04,0.93,0,-0,-0,0.93,1.24,75,4118,15.5,3.83,,12.99,1.253,98.8,,38.0,5,,,,,,,,,,,,0,0,0,0,0,0,0,0,0,0,0,0,0,0,0,0,,,,,0.0,,,,,,
809073,1745090972757,,,,,,,,,,,,,,,,,,,,,,,,,,,,,,,,,,0,0,0,0,0,0,0,0,0,0,0,0,0,0,0,0,,,,,,,,,,,
809093,1745090972777,0.0,202.61,,-0.06,0.04,1.03,-0,-0,0,1.03,1.24,83,4177,15.4,3.83,,12.99,1.253,98.8,,38.0,5,,,,,,,,,,,,0,0,0,0,0,0,0,0,0,0,0,0,0,0,0,0,,,,,0.0,,,,,,
809113,1745090972797,,,,,,,,,,,,,,,,,,,,,,,,,,,,,,,,,,0,0,0,0,0,0,0,0,0,0,0,0,0,0,0,0,,,,,,,,,,,
809133,1745090972817,0.0,202.61,,-0.03,-0.04,0.94,1,-0,-0,0.94,1.24,76,4177,15.4,3.83,,12.93,1.254,98.8,,38.0,5,0,0,0,0,0.0,0.0,0.0,0.0,2.26,,,0,0,0,0,0,0,0,0,0,0,0,0,0,0,0,0,0,,,,0.0,39.240097,-77.964836,0.11,33,3,0.8
809153,1745090972837,,,,,,,,,,,,,,,,,,,,,,,,,,,,,,,,,,0,0,0,0,0,0,0,0,0,0,0,0,0,0,0,0,,,,,,,,,,,
809173,1745090972857,0.0,202.61,,-0.05,-0.01,1.01,-0,-0,0,1.01,1.24,82,4193,15.3,3.82,,12.95,1.254,98.8,,38.0,5,,,,,,,,,,,,0,0,0,0,0,0,0,0,0,0,0,0,0,0,0,0,,,,,0.0,,,,,,
809193,1745090972877,,,,,,,,,,,,,,,,,,,,,,,,,,,,,,,,,,0,0,0,0,0,0,0,0,0,0,0,0,0,0,0,0,,,,,,,,,,,
809213,1745090972897,0.0,202.49,,-0.04,0.0,1.0,0,-0,0,1.0,1.24,81,4144,15.3,3.83,,12.99,1.253,98.8,,38.0,5,,,,,,,,,,,,0,0,0,0,0,0,0,0,0,0,0,0,0,0,0,0,,,,,0.0,,,,,,
809233,1745090972917,,,,,,,,,,,,,,,,,,,,,,,0,0,0,0,0.0,0.0,0.0,0.0,2.27,,,0,0,0,0,0,0,0,0,0,0,0,0,0,0,0,0,0,,,,,39.240097,-77.964836,0.13,33,3,0.8
809253,1745090972937,0.0,202.61,,-0.06,-0.05,0.97,-0,-0,0,0.97,1.24,78,4114,15.2,3.82,,12.96,1.253,98.8,,37.8,5,,,,,,,,,,,,0,0,0,0,0,0,0,0,0,0,0,0,0,0,0,0,,,,,0.0,,,,,,
809273,1745090972957,,,,,,,,,,,,,,,,,,,,,,,,,,,,,,,,,,0,0,0,0,0,0,0,0,0,0,0,0,0,0,0,0,,,,,,,,,,,
809293,1745090972977,0.0,202.61,,-0.05,0.02,1.01,0,-0,0,1.01,1.24,82,4197,15.2,3.82,,12.96,1.253,98.8,,37.8,5,,,,,,,,,,,,0,0,0,0,0,0,0,0,0,0,0,0,0,0,0,0,,,,,0.0,,,,,,
809313,1745090972997,,,,,,,,,,,,,,,,,,,,,,,,,,,,,,,,,,0,0,0,0,0,0,0,0,0,0,0,0,0,0,0,0,,,,,,,,,,,
809333,1745090973011,0.0,202.61,,-0.04,-0.1,0.92,0,-0,-0,0.93,1.24,75,4197,15.2,3.82,,12.93,1.252,98.8,,37.7,5,0,0,0,0,0.0,0.0,0.0,0.0,2.26,,,0,0,0,0,0,0,0,0,0,0,0,0,0,0,0,0,0,,,,0.0,39.240097,-77.964836,0.15,33,3,0.8
809353,1745090973031,,,,,,,,,,,,,,,,,,,,,,,,,,,,,,,,,,0,0,0,0,0,0,0,0,0,0,0,0,0,0,0,0,,,,,,,,,,,
809373,1745090973051,0.0,202.74,,-0.03,0.03,1.02,0,-0,0,1.02,1.24,83,4170,15.3,3.82,,12.99,1.253,98.8,,37.7,5,,,,,,,,,,,,0,0,0,0,0,0,0,0,0,0,0,0,0,0,0,0,,,,,0.0,,,,,,
809393,1745090973071,,,,,,,,,,,,,,,,,,,,,,,,,,,,,,,,,,0,0,0,0,0,0,0,0,0,0,0,0,0,0,0,0,,,,,,,,,,,
809413,1745090973091,0.0,202.61,,-0.02,-0.06,0.92,1,-0,-0,0.92,1.24,74,4167,15.3,3.82,,12.96,1.253,98.8,,37.7,5,,,,,,,,,,,,0,0,0,0,0,0,0,0,0,0,0,0,0,0,0,0,,,,,0.0,,,,,,
809433,1745090973117,,,,,,,,,,,,,,,,,,,,,,,0,0,0,0,0.0,0.0,0.0,0.0,2.26,,,0,0,0,0,0,0,0,0,0,0,0,0,0,0,0,0,0,,,,,39.240097,-77.964836,0.07,33,3,0.8
809453,1745090973137,0.0,202.61,,-0.04,-0.13,0.87,0,-0,-0,0.89,1.24,71,4368,15.4,3.84,,12.85,1.254,98.8,,38.7,5,,,,,,,,,,,,0,0,0,0,0,0,0,0,0,0,0,0,0,0,0,0,,,,,0.0,,,,,,
809473,1745090973157,,,,,,,,,,,,,,,,,,,,,,,,,,,,,,,,,,0,0,0,0,0,0,0,0,0,0,0,0,0,0,0,0,,,,,,,,,,,
809493,1745090973177,0.0,202.61,,-0.06,-0.13,0.89,-0,-0,0,0.9,1.24,73,4451,15.3,3.85,,12.85,1.254,98.8,,38.7,5,,,,,,,,,,,,0,0,0,0,0,0,0,0,0,0,0,0,0,0,0,0,,,,,0.0,,,,,,
809513,1745090973197,,,,,,,,,,,,,,,,,,,,,,,,,,,,,,,,,,0,0,0,0,0,0,0,0,0,0,0,0,0,0,0,0,,,,,,,,,,,
809533,1745090973217,0.0,202.49,,-0.1,-0.19,0.87,-1,-0,0,0.89,1.24,72,4451,15.3,3.85,,12.88,1.255,98.8,,41.3,5,0,0,0,0,0.0,0.0,0.0,0.0,2.26,,,0,0,0,0,0,0,0,0,0,0,0,0,0,0,0,0,0,,,,0.0,39.240097,-77.964836,0.05,33,3,0.8
809553,1745090973237,,,,,,,,,,,,,,,,,,,,,,,,,,,,,,,,,,0,0,0,0,0,0,0,0,0,0,0,0,0,0,0,0,,,,,,,,,,,
809573,1745090973257,0.0,202.49,,-0.08,-0.26,0.81,-1,-0,0,0.86,1.24,69,4588,15.5,3.85,,12.83,1.251,98.8,,41.3,5,,,,,,,,,,,,0,0,0,0,0,0,0,0,0,0,0,0,0,0,0,0,,,,,0.0,,,,,,
809593,1745090973277,,,,,,,,,,,,,,,,,,,,,,,,,,,,,,,,,,0,0,0,0,0,0,0,0,0,0,0,0,0,0,0,0,,,,,,,,,,,
809613,1745090973297,0.0,202.49,,-0.05,-0.33,0.75,-0,-0,-0,0.82,1.24,66,4606,15.3,3.86,,12.81,1.253,98.8,,41.3,5,,,,,,,,,,,,0,0,0,0,0,0,0,0,0,0,0,0,0,0,0,0,,,,,0.0,,,,,,
809633,1745090973317,,,,,,,,,,,,,,,,,,,,,,,0,0,0,0,0.0,0.0,0.0,0.0,2.26,,,0,0,0,0,0,0,0,0,0,0,0,0,0,0,0,0,0,,,,,39.240097,-77.964836,0.11,33,3,0.8
809653,1745090973337,0.0,202.49,,-0.02,-0.26,0.79,0,-0,-0,0.84,1.24,68,4673,15.3,3.89,,12.84,1.246,98.8,,42.7,5,,,,,,,,,,,,0,0,0,0,0,0,0,0,0,0,0,0,0,0,0,0,,,,,0.0,,,,,,
809673,1745090973357,,,,,,,,,,,,,,,,,,,,,,,,,,,,,,,,,,0,0,0,0,0,0,0,0,0,0,0,0,0,0,0,0,,,,,,,,,,,
809693,1745090973377,0.0,202.49,,-0.04,-0.14,0.88,0,-0,-0,0.9,1.24,72,4713,12.2,3.73,,12.84,1.246,98.8,,42.7,5,,,,,,,,,,,,0,0,0,0,0,0,0,0,0,0,0,0,0,0,0,0,,,,,0.0,,,,,,
809713,1745090973397,,,,,,,,,,,,,,,,,,,,,,,,,,,,,,,,,,0,0,0,0,0,0,0,0,0,0,0,0,0,0,0,0,,,,,,,,,,,
809733,1745090973416,0.0,202.49,12.57,-0.07,-0.08,0.93,-0,-0,-0,0.94,1.24,76,4713,12.2,3.73,15,12.72,1.192,98.8,149,43.9,5,0,0,0,0,0.0,0.0,0.0,0.0,2.27,0,0.0,0,0,0,0,0,0,0,0,0,0,0,0,0,0,0,0,0,0.0,0,-0,0.0,39.240097,-77.964836,0.04,33,3,0.8
809753,1745090973436,,,,,,,,,,,,,,,,,,,,,,,,,,,,,,,,,,0,0,0,0,0,0,0,0,0,0,0,0,0,0,0,0,,,,,,,,,,,
809773,1745090973456,0.0,202.49,,-0.06,-0.12,0.89,-0,-0,-0,0.9,1.24,72,4708,11.0,3.6,,12.39,1.208,98.8,,43.9,5,,,,,,,,,,,,0,0,0,0,0,0,0,0,0,0,0,0,0,0,0,0,,,,,0.0,,,,,,
809793,1745090973476,,,,,,,,,,,,,,,,,,,,,,,,,,,,,,,,,,0,0,0,0,0,0,0,0,0,0,0,0,0,0,0,0,,,,,,,,,,,
809813,1745090973496,0.0,202.61,,-0.03,-0.19,0.83,1,-0,-1,0.85,1.24,69,4652,10.8,3.59,,12.33,1.15,98.8,,43.9,5,,,,,,,,,,,,0,0,0,0,0,0,0,0,0,0,0,0,0,0,0,0,,,,,0.0,,,,,,
809833,1745090973516,,,,,,,,,,,,,,,,,,,,,,,0,0,0,0,0.0,0.0,0.0,0.0,2.27,,,0,0,0,0,0,0,0,0,0,0,0,0,0,0,0,0,0,,,,,39.240097,-77.964836,0.04,33,3,0.8
809853,1745090973536,0.0,202.49,,-0.0,-0.18,0.83,1,-0,-1,0.85,1.24,69,4570,10.7,3.59,,12.36,1.141,98.8,,42.7,5,,,,,,,,,,,,0,0,0,0,0,0,0,0,0,0,0,0,0,0,0,0,,,,,0.0,,,,,,
809873,1745090973556,,,,,,,,,,,,,,,,,,,,,,,,,,,,,,,,,,0,0,0,0,0,0,0,0,0,0,0,0,0,0,0,0,,,,,,,,,,,
809893,1745090973576,0.0,202.49,,0.02,-0.1,0.88,1,-0,-1,0.88,1.24,71,4491,10.7,3.62,,12.36,1.141,98.8,,42.7,5,,,,,,,,,,,,0,0,0,0,0,0,0,0,0,0,0,0,0,0,0,0,,,,,0.0,,,,,,
809913,1745090973596,,,,,,,,,,,,,,,,,,,,,,,,,,,,,,,,,,0,0,0,0,0,0,0,0,0,0,0,0,0,0,0,0,,,,,,,,,,,
809933,1745090973616,0.0,202.61,,0.02,-0.01,0.95,1,-0,-0,0.95,1.24,77,4491,10.7,3.62,,12.31,1.227,98.8,,41.4,5,0,0,0,0,0.0,0.0,0.0,0.0,2.26,,,0,0,0,0,0,0,0,0,0,0,0,0,0,0,0,0,0,,,,0.0,39.240097,-77.964836,0.04,33,3,0.8
809953,1745090973636,,,,,,,,,,,,,,,,,,,,,,,,,,,,,,,,,,0,0,0,0,0,0,0,0,0,0,0,0,0,0,0,0,,,,,,,,,,,
809973,1745090973656,0.0,202.61,,0.04,0.08,1.01,1,-0,-0,1.02,1.24,82,4489,10.9,3.62,,12.31,1.254,97.0,,41.4,5,,,,,,,,,,,,0,0,0,0,0,0,0,0,0,0,0,0,0,0,0,0,,,,,0.0,,,,,,
809993,1745090973676,,,,,,,,,,,,,,,,,,,,,,,,,,,,,,,,,,0,0,0,0,0,0,0,0,0,0,0,0,0,0,0,0,,,,,,,,,,,
810013,1745090973696,0.0,202.61,,0.05,0.09,1.03,1,-0,0,1.03,1.24,83,4420,10.9,3.64,,12.25,1.254,97.0,,41.4,5,,,,,,,,,,,,0,0,0,0,0,0,0,0,0,0,0,0,0,0,0,0,,,,,0.0,,,,,,
810033,1745090973716,,,,,,,,,,,,,,,,,,,,,,,0,0,0,0,0.0,0.0,0.0,0.0,2.27,,,0,0,0,0,0,0,0,0,0,0,0,0,0,0,0,0,0,,,,,39.240097,-77.964836,0.0,33,3,0.8
810053,1745090973736,0.0,202.61,,0.08,0.09,0.94,1,-0,-0,0.95,1.24,77,4403,11.0,3.66,,12.32,1.253,97.0,,39.1,5,,,,,,,,,,,,0,0,0,0,0,0,0,0,0,0,0,0,0,0,0,0,,,,,0.0,,,,,,
810073,1745090973756,,,,,,,,,,,,,,,,,,,,,,,,,,,,,,,,,,0,0,0,0,0,0,0,0,0,0,0,0,0,0,0,0,,,,,,,,,,,
810093,1745090973776,0.0,202.61,,0.08,0.0,0.87,2,-0,-1,0.87,1.24,70,4347,11.0,3.66,,12.32,1.253,97.0,,39.1,5,,,,,,,,,,,,0,0,0,0,0,0,0,0,0,0,0,0,0,0,0,0,,,,,0.0,,,,,,
810113,1745090973796,,,,,,,,,,,,,,,,,,,,,,,,,,,,,,,,,,0,0,0,0,0,0,0,0,0,0,0,0,0,0,0,0,,,,,,,,,,,
810133,1745090973816,0.0,202.61,,0.03,-0.02,0.88,1,-0,-1,0.88,1.24,71,4347,11.0,3.66,,12.35,1.253,97.0,,39.2,5,0,0,0,0,0.0,0.0,0.0,0.0,2.27,,,0,0,0,0,0,0,0,0,0,0,0,0,0,0,0,0,0,,,,0.0,39.240097,-77.964836,0.0,33,3,0.8
