"Interval"|"ms"|0|0|1,"Utc"|"ms"|0|0|1,"FrontBP"|"psi"|-5.0|5.0|25,"SteerAng"|"Degrees"|-145.0|145.0|25,"Battery"|"Volts"|-5.0|20.0|1,"AccelX"|"G"|-3.0|3.0|25,"AccelY"|"G"|-3.0|3.0|25,"AccelZ"|"G"|-3.0|3.0|25,"Yaw"|"Deg/Sec"|-120|120|25,"Pitch"|"Deg/Sec"|-120|120|25,"Roll"|"Deg/Sec"|-120|120|25,"Gsum"|"G"|0.0|3.0|25,"GsumMax"|"G"|0.0|3.0|25,"GsumPct"|"%"|0|100|25,"RPM"|""|0|10000|25,"TPS"|"%"|0.0|100.0|25,"InjectorPW"|"ms"|0.0|100.0|25,"Baro"|"kPa"|0|105|1,"MAP"|"Psi"|0.0|255.0|25,"Lambda"|""|-2.0|2.0|25,"IAT"|"C"|0.0|200.0|25,"EngineTemp"|"C"|0|200|1,"EOP"|"PSI"|0.0|152.0|25,"EOT"|"F"|0|250|25,"WSFR"|"MPH"|0|150|10,"WSFL"|"MPH"|0|100|10,"WSRR"|"MPH"|0|100|10,"WSRL"|""|0|100|10,"TCSet"|"%"|0.0|100.0|10,"TCSlip"|"%"|0.0|100.0|10,"TCComp"|"deg"|0.0|50.0|10,"TCCut"|"%"|0.0|100.0|10,"Analog8"|""|0.0|5.0|10,"OilTemp"|"F"|0|300|1,"AA_On"|""|0.0|1.0|1,"ThermLF1"|"C"|0|400|50,"ThermLF2"|"C"|0|400|50,"ThermRR1"|"C"|0|400|50,"ThermRR2"|"C"|0|400|50,"ThermLF3"|"C"|0|400|50,"ThermLF4"|"C"|0|400|50,"ThermLF5"|"C"|0|400|50,"ThermLF6"|"C"|0|400|50,"ThermLF7"|"C"|0|400|50,"ThermLF8"|"C"|0|400|50,"ThermRR3"|"C"|0|400|50,"ThermRR4"|"C"|0|400|50,"ThermRR5"|"C"|0|400|50,"ThermRR6"|"C"|0|400|50,"ThermRR7"|"C"|0|400|50,"ThermRR8"|"C"|0|400|50,"Gear"|""|1|6|10,"AA_On"|""|0.0|1.0|1,"AA_LowDrag"|""|0|1|1,"Fuel_Mix"|""|-10|10|1,"AA_Packages"|""|0.0|1000.0|25,"Latitude"|"Degrees"|-180.0|180.0|10,"Longitude"|"Degrees"|-180.0|180.0|10,"Speed"|"kph"|0.0|150.0|10,"GPSSats"|""|0|20|10,"GPSQual"|""|0|5|10,"GPSDOP"|""|0.0|20.0|10
601998,1745095314464,,,,,,,,,,,,,,,,,,,,,,,,,,,,,,,,,,0,0,0,0,0,0,0,0,0,0,0,0,0,0,0,0,,,,,,,,,,,
602018,1745095314484,0.0,204.63,,-0.03,0.12,0.96,-0,-0,0,0.96,0.96,100,3924,4.5,3.51,,12.03,1.209,95.2,,44.8,5,,,,,,,,,,,,0,0,0,0,0,0,0,0,0,0,0,0,0,0,0,0,,,,,0.0,,,,,,
602038,1745095314504,,,,,,,,,,,,,,,,,,,,,,,,,,,,,,,,,,0,0,0,0,0,0,0,0,0,0,0,0,0,0,0,0,,,,,,,,,,,
602058,1745095314524,0.0,204.63,,-0.04,0.08,0.99,-1,-0,0,1.0,1.0,100,3954,4.7,3.51,,12.0,1.249,95.2,,44.8,5,,,,,,,,,,,,0,0,0,0,0,0,0,0,0,0,0,0,0,0,0,0,,,,,0.0,,,,,,
602078,1745095314544,,,,,,,,,,,,,,,,,,,,,,,0,0,0,0,0.0,0.0,0.0,0.0,2.26,,,0,0,0,0,0,0,0,0,0,0,0,0,0,0,0,0,0,,,,,39.240089,-77.965401,0.11,33,3,0.8
602098,1745095314564,0.0,204.5,,-0.06,0.0,0.96,-1,-0,0,0.96,1.0,96,3914,4.5,3.51,,11.95,1.109,95.2,,44.8,5,,,,,,,,,,,,0,0,0,0,0,0,0,0,0,0,0,0,0,0,0,0,,,,,0.0,,,,,,
602118,1745095314584,,,,,,,,,,,,,,,,,,,,,,,,,,,,,,,,,,0,0,0,0,0,0,0,0,0,0,0,0,0,0,0,0,,,,,,,,,,,
602138,1745095314602,0.0,204.37,,-0.05,-0.02,0.94,-0,-0,-0,0.94,1.0,94,3955,4.6,3.51,,11.96,1.027,95.2,,45.0,5,,,,,,,,,,,,0,0,0,0,0,0,0,0,0,0,0,0,0,0,0,0,,,,,0.0,,,,,,
602158,1745095314622,,,,,,,,,,,,,,,,,,,,,,,,,,,,,,,,,,0,0,0,0,0,0,0,0,0,0,0,0,0,0,0,0,,,,,,,,,,,
602178,1745095314642,0.0,204.37,,-0.05,0.07,0.97,0,-0,-0,0.98,1.0,98,3862,4.5,3.5,,11.96,1.027,95.2,,45.0,5,0,0,0,0,0.0,0.0,0.0,0.0,2.26,,,0,0,0,0,0,0,0,0,0,0,0,0,0,0,0,0,0,,,,0.0,39.240089,-77.965401,0.08,33,3,0.8
602198,1745095314662,,,,,,,,,,,,,,,,,,,,,,,,,,,,,,,,,,0,0,0,0,0,0,0,0,0,0,0,0,0,0,0,0,,,,,,,,,,,
602218,1745095314682,0.0,204.37,,-0.08,0.11,1.05,-0,-0,0,1.05,1.05,100,3862,4.5,3.5,,11.83,1.017,95.2,,44.1,5,,,,,,,,,,,,0,0,0,0,0,0,0,0,0,0,0,0,0,0,0,0,,,,,0.0,,,,,,
602238,1745095314704,,,,,,,,,,,,,,,,,,,,,,,,,,,,,,,,,,0,0,0,0,0,0,0,0,0,0,0,0,0,0,0,0,,,,,,,,,,,
602258,1745095314724,0.0,204.37,,-0.07,0.03,1.01,-0,-0,0,1.01,1.05,96,4000,4.6,3.5,,11.8,1.028,95.2,,44.1,5,,,,,,,,,,,,0,0,0,0,0,0,0,0,0,0,0,0,0,0,0,0,,,,,0.0,,,,,,
602278,1745095314744,,,,,,,,,,,,,,,,,,,,,,,0,0,0,0,0.0,0.0,0.0,0.0,2.26,,,0,0,0,0,0,0,0,0,0,0,0,0,0,0,0,0,0,,,,,39.240089,-77.965401,0.08,33,3,0.8
602298,1745095314764,0.0,204.5,,-0.07,0.0,1.0,-0,-0,0,1.0,1.05,95,3902,4.5,3.5,,11.77,1.078,95.2,,44.1,5,,,,,,,,,,,,0,0,0,0,0,0,0,0,0,0,0,0,0,0,0,0,,,,,0.0,,,,,,
602318,1745095314784,,,,,,,,,,,,,,,,,,,,,,,,,,,,,,,,,,0,0,0,0,0,0,0,0,0,0,0,0,0,0,0,0,,,,,,,,,,,
602338,1745095314804,0.0,204.37,,-0.05,-0.01,1.0,-0,-0,0,1.0,1.05,95,3758,4.3,3.5,,11.81,1.041,95.2,,43.7,5,,,,,,,,,,,,0,0,0,0,0,0,0,0,0,0,0,0,0,0,0,0,,,,,0.0,,,,,,
602358,1745095314824,,,,,,,,,,,,,,,,,,,,,,,,,,,,,,,,,,0,0,0,0,0,0,0,0,0,0,0,0,0,0,0,0,,,,,,,,,,,
602378,1745095314844,0.0,204.5,13.47,-0.05,-0.06,0.98,0,-0,-0,0.98,1.05,93,3781,4.3,3.5,15,11.81,1.041,95.2,142,43.7,5,0,0,0,0,0.0,0.0,0.0,0.0,2.26,0,0.0,0,0,0,0,0,0,0,0,0,0,0,0,0,0,0,0,0,0.0,0,0,0.0,39.240089,-77.965401,0.13,33,3,0.8
602398,1745095314864,,,,,,,,,,,,,,,,,,,,,,,,,,,,,,,,,,0,0,0,0,0,0,0,0,0,0,0,0,0,0,0,0,,,,,,,,,,,
602418,1745095314884,0.0,204.5,,-0.05,-0.07,0.99,0,-0,-0,0.99,1.05,94,3781,4.3,3.5,,11.93,1.044,95.2,,42.7,5,,,,,,,,,,,,0,0,0,0,0,0,0,0,0,0,0,0,0,0,0,0,,,,,0.0,,,,,,
602438,1745095314904,,,,,,,,,,,,,,,,,,,,,,,,,,,,,,,,,,0,0,0,0,0,0,0,0,0,0,0,0,0,0,0,0,,,,,,,,,,,
602458,1745095314924,0.0,204.37,,-0.05,-0.05,0.99,1,-0,-0,0.99,1.05,94,3790,4.4,3.5,,11.95,1.116,95.2,,42.7,5,,,,,,,,,,,,0,0,0,0,0,0,0,0,0,0,0,0,0,0,0,0,,,,,0.0,,,,,,
602478,1745095314944,,,,,,,,,,,,,,,,,,,,,,,0,0,0,0,0.0,0.0,0.0,0.0,2.26,,,0,0,0,0,0,0,0,0,0,0,0,0,0,0,0,0,0,,,,,39.240089,-77.965401,0.08,33,3,0.8
602498,1745095314964,0.0,204.37,,-0.05,-0.01,0.99,1,-0,-0,0.99,1.05,94,3824,4.4,3.51,,12.0,1.075,95.2,,42.7,5,,,,,,,,,,,,0,0,0,0,0,0,0,0,0,0,0,0,0,0,0,0,,,,,0.0,,,,,,
602518,1745095314984,,,,,,,,,,,,,,,,,,,,,,,,,,,,,,,,,,0,0,0,0,0,0,0,0,0,0,0,0,0,0,0,0,,,,,,,,,,,
602538,1745095314995,0.0,204.37,,-0.04,0.05,1.0,1,-0,-0,1.0,1.05,95,3778,4.5,3.51,,11.99,1.032,95.2,,43.2,5,,,,,,,,,,,,0,0,0,0,0,0,0,0,0,0,0,0,0,0,0,0,,,,,0.0,,,,,,
602558,1745095315015,,,,,,,,,,,,,,,,,,,,,,,,,,,,,,,,,,0,0,0,0,0,0,0,0,0,0,0,0,0,0,0,0,,,,,,,,,,,
602578,1745095315035,0.0,204.37,,-0.04,0.06,1.0,1,-0,-0,1.0,1.05,95,3810,4.5,3.51,,11.99,1.032,95.2,,43.2,5,0,0,0,0,0.0,0.0,0.0,0.0,2.26,,,0,0,0,0,0,0,0,0,0,0,0,0,0,0,0,0,0,,,,0.0,39.240089,-77.965401,0.04,34,3,0.8
602598,1745095315055,,,,,,,,,,,,,,,,,,,,,,,,,,,,,,,,,,0,0,0,0,0,0,0,0,0,0,0,0,0,0,0,0,,,,,,,,,,,
602618,1745095315075,0.0,204.37,,-0.03,0.05,1.01,0,-0,0,1.01,1.05,96,3810,4.5,3.51,,12.0,1.015,95.2,,43.1,5,,,,,,,,,,,,0,0,0,0,0,0,0,0,0,0,0,0,0,0,0,0,,,,,0.0,,,,,,
602638,1745095315103,,,,,,,,,,,,,,,,,,,,,,,,,,,,,,,,,,0,0,0,0,0,0,0,0,0,0,0,0,0,0,0,0,,,,,,,,,,,
602658,1745095315123,0.0,204.37,,-0.04,0.02,1.04,-0,-0,0,1.04,1.05,98,3797,4.5,3.51,,12.03,1.022,95.2,,43.1,5,,,,,,,,,,,,0,0,0,0,0,0,0,0,0,0,0,0,0,0,0,0,,,,,0.0,,,,,,
602678,1745095315143,,,,,,,,,,,,,,,,,,,,,,,0,0,0,0,0.0,0.0,0.0,0.0,2.26,,,0,0,0,0,0,0,0,0,0,0,0,0,0,0,0,0,0,,,,,39.240089,-77.965401,0.07,34,3,0.8
602698,1745095315163,0.0,204.5,,-0.04,0.02,1.05,-1,-0,0,1.05,1.05,99,3771,4.5,3.52,,11.99,1.029,95.2,,43.1,5,,,,,,,,,,,,0,0,0,0,0,0,0,0,0,0,0,0,0,0,0,0,,,,,0.0,,,,,,
602718,1745095315183,,,,,,,,,,,,,,,,,,,,,,,,,,,,,,,,,,0,0,0,0,0,0,0,0,0,0,0,0,0,0,0,0,,,,,,,,,,,
602738,1745095315201,0.0,204.5,,-0.04,-0.0,1.04,-1,-0,0,1.04,1.05,99,3797,4.5,3.51,,12.03,1.03,95.2,,43.1,5,,,,,,,,,,,,0,0,0,0,0,0,0,0,0,0,0,0,0,0,0,0,,,,,0.0,,,,,,
602758,1745095315221,,,,,,,,,,,,,,,,,,,,,,,,,,,,,,,,,,0,0,0,0,0,0,0,0,0,0,0,0,0,0,0,0,,,,,,,,,,,
602778,1745095315241,0.0,204.37,,-0.05,-0.03,1.01,-1,-0,0,1.01,1.05,96,3823,4.4,3.52,,12.03,1.03,95.2,,43.1,5,0,0,0,0,0.0,0.0,0.0,0.0,2.26,,,0,0,0,0,0,0,0,0,0,0,0,0,0,0,0,0,0,,,,0.0,39.240089,-77.965401,0.05,34,3,0.8
602798,1745095315261,,,,,,,,,,,,,,,,,,,,,,,,,,,,,,,,,,0,0,0,0,0,0,0,0,0,0,0,0,0,0,0,0,,,,,,,,,,,
602818,1745095315281,0.0,204.37,,-0.06,-0.01,1.0,-0,-0,0,1.01,1.05,95,3823,4.4,3.52,,11.99,1.025,95.2,,42.9,5,,,,,,,,,,,,0,0,0,0,0,0,0,0,0,0,0,0,0,0,0,0,,,,,0.0,,,,,,
602838,1745095315303,,,,,,,,,,,,,,,,,,,,,,,,,,,,,,,,,,0,0,0,0,0,0,0,0,0,0,0,0,0,0,0,0,,,,,,,,,,,
602858,1745095315323,0.0,204.37,,-0.04,0.06,1.04,-0,-0,0,1.04,1.05,99,3783,4.3,3.51,,12.03,1.032,95.2,,42.9,5,,,,,,,,,,,,0,0,0,0,0,0,0,0,0,0,0,0,0,0,0,0,,,,,0.0,,,,,,
602878,1745095315343,,,,,,,,,,,,,,,,,,,,,,,0,0,0,0,0.0,0.0,0.0,0.0,2.26,,,0,0,0,0,0,0,0,0,0,0,0,0,0,0,0,0,0,,,,,39.240089,-77.965401,0.06,34,3,0.8
602898,1745095315363,0.0,204.37,,-0.05,0.05,1.03,0,-0,0,1.03,1.05,98,3717,4.3,3.51,,12.01,1.039,95.2,,42.9,5,,,,,,,,,,,,0,0,0,0,0,0,0,0,0,0,0,0,0,0,0,0,,,,,0.0,,,,,,
602918,1745095315383,,,,,,,,,,,,,,,,,,,,,,,,,,,,,,,,,,0,0,0,0,0,0,0,0,0,0,0,0,0,0,0,0,,,,,,,,,,,
602938,1745095315403,0.0,204.37,,-0.05,0.04,1.02,0,-0,0,1.02,1.05,97,3751,4.3,3.52,,12.03,1.034,95.2,,42.4,5,,,,,,,,,,,,0,0,0,0,0,0,0,0,0,0,0,0,0,0,0,0,,,,,0.0,,,,,,
602958,1745095315423,,,,,,,,,,,,,,,,,,,,,,,,,,,,,,,,,,0,0,0,0,0,0,0,0,0,0,0,0,0,0,0,0,,,,,,,,,,,
602978,1745095315443,0.0,204.37,,-0.06,0.05,1.03,0,-0,0,1.04,1.05,98,3763,4.4,3.51,,12.03,1.034,95.2,,42.4,5,0,0,0,0,0.0,0.0,0.0,0.0,2.26,,,0,0,0,0,0,0,0,0,0,0,0,0,0,0,0,0,0,,,,0.0,39.240089,-77.965401,0.07,34,3,0.8
602998,1745095315463,,,,,,,,,,,,,,,,,,,,,,,,,,,,,,,,,,0,0,0,0,0,0,0,0,0,0,0,0,0,0,0,0,,,,,,,,,,,
603018,1745095315483,0.0,204.37,,-0.06,0.0,1.02,1,-0,0,1.02,1.05,97,3763,4.4,3.51,,12.09,1.053,95.2,,42.7,5,,,,,,,,,,,,0,0,0,0,0,0,0,0,0,0,0,0,0,0,0,0,,,,,0.0,,,,,,
603038,1745095315504,,,,,,,,,,,,,,,,,,,,,,,,,,,,,,,,,,0,0,0,0,0,0,0,0,0,0,0,0,0,0,0,0,,,,,,,,,,,
603058,1745095315524,0.0,204.37,,-0.06,0.02,1.02,0,-0,0,1.02,1.05,97,3790,4.5,3.51,,11.99,1.055,95.2,,42.7,5,,,,,,,,,,,,0,0,0,0,0,0,0,0,0,0,0,0,0,0,0,0,,,,,0.0,,,,,,
603078,1745095315544,,,,,,,,,,,,,,,,,,,,,,,0,0,0,0,0.0,0.0,0.0,0.0,2.26,,,0,0,0,0,0,0,0,0,0,0,0,0,0,0,0,0,0,,,,,39.240089,-77.965401,0.15,34,3,0.8
603098,1745095315564,0.0,204.37,,-0.04,0.08,1.01,0,-0,0,1.02,1.05,96,3695,4.5,3.52,,12.03,1.05,95.2,,42.7,5,,,,,,,,,,,,0,0,0,0,0,0,0,0,0,0,0,0,0,0,0,0,,,,,0.0,,,,,,
603118,1745095315584,,,,,,,,,,,,,,,,,,,,,,,,,,,,,,,,,,0,0,0,0,0,0,0,0,0,0,0,0,0,0,0,0,,,,,,,,,,,
603138,1745095315603,0.0,204.37,,-0.03,0.04,0.97,1,-0,-0,0.97,1.05,92,3507,4.5,3.53,,12.11,1.035,95.2,,40.8,5,,,,,,,,,,,,0,0,0,0,0,0,0,0,0,0,0,0,0,0,0,0,,,,,0.0,,,,,,
603158,1745095315623,,,,,,,,,,,,,,,,,,,,,,,,,,,,,,,,,,0,0,0,0,0,0,0,0,0,0,0,0,0,0,0,0,,,,,,,,,,,
603178,1745095315643,0.0,204.25,,-0.05,-0.01,0.95,1,-0,-1,0.95,1.05,90,3627,4.5,3.53,,12.11,1.035,95.2,,40.8,5,0,0,0,0,0.0,0.0,0.0,0.0,2.26,,,0,0,0,0,0,0,0,0,0,0,0,0,0,0,0,0,0,,,,0.0,39.240089,-77.965401,0.05,34,3,0.8
603198,1745095315663,,,,,,,,,,,,,,,,,,,,,,,,,,,,,,,,,,0,0,0,0,0,0,0,0,0,0,0,0,0,0,0,0,,,,,,,,,,,
603218,1745095315683,0.0,204.37,,-0.06,-0.06,0.97,1,-0,-0,0.97,1.05,92,3627,4.5,3.53,,12.24,1.075,95.2,,40.4,5,,,,,,,,,,,,0,0,0,0,0,0,0,0,0,0,0,0,0,0,0,0,,,,,0.0,,,,,,
603238,1745095315703,,,,,,,,,,,,,,,,,,,,,,,,,,,,,,,,,,0,0,0,0,0,0,0,0,0,0,0,0,0,0,0,0,,,,,,,,,,,
603258,1745095315723,0.0,204.37,,-0.07,-0.05,1.0,1,-0,-0,1.0,1.05,95,3663,4.4,3.53,,12.17,1.141,95.2,,40.4,5,,,,,,,,,,,,0,0,0,0,0,0,0,0,0,0,0,0,0,0,0,0,,,,,0.0,,,,,,
603278,1745095315743,,,,,,,,,,,,,,,,,,,,,,,0,0,0,0,0.0,0.0,0.0,0.0,2.26,,,0,0,0,0,0,0,0,0,0,0,0,0,0,0,0,0,0,,,,,39.240089,-77.965401,0.24,34,3,0.8
603298,1745095315763,0.0,204.25,,-0.06,-0.0,1.01,0,-0,0,1.01,1.05,96,3666,4.4,3.53,,12.28,1.118,95.2,,40.4,5,,,,,,,,,,,,0,0,0,0,0,0,0,0,0,0,0,0,0,0,0,0,,,,,0.0,,,,,,
603318,1745095315783,,,,,,,,,,,,,,,,,,,,,,,,,,,,,,,,,,0,0,0,0,0,0,0,0,0,0,0,0,0,0,0,0,,,,,,,,,,,
603338,1745095315803,0.0,204.25,,-0.06,0.05,1.02,0,-0,0,1.03,1.05,97,3610,4.3,3.53,,12.23,1.063,95.2,,41.0,5,,,,,,,,,,,,0,0,0,0,0,0,0,0,0,0,0,0,0,0,0,0,,,,,0.0,,,,,,
603358,1745095315823,,,,,,,,,,,,,,,,,,,,,,,,,,,,,,,,,,0,0,0,0,0,0,0,0,0,0,0,0,0,0,0,0,,,,,,,,,,,
603378,1745095315843,0.0,204.25,13.47,-0.04,0.06,1.0,0,-0,0,1.0,1.05,95,3602,4.3,3.53,15,12.23,1.063,95.2,142,41.0,5,0,0,0,0,0.0,0.0,0.0,0.0,2.26,0,0.0,0,0,0,0,0,0,0,0,0,0,0,0,0,0,0,0,0,0.0,0,0,0.0,39.240089,-77.965401,0.45,34,3,0.8
603398,1745095315863,,,,,,,,,,,,,,,,,,,,,,,,,,,,,,,,,,0,0,0,0,0,0,0,0,0,0,0,0,0,0,0,0,,,,,,,,,,,
603418,1745095315883,0.0,204.25,,-0.05,0.07,0.96,0,-0,0,0.97,1.05,92,3602,4.3,3.53,,12.29,1.033,95.2,,40.4,5,,,,,,,,,,,,0,0,0,0,0,0,0,0,0,0,0,0,0,0,0,0,,,,,0.0,,,,,,
603438,1745095315903,,,,,,,,,,,,,,,,,,,,,,,,,,,,,,,,,,0,0,0,0,0,0,0,0,0,0,0,0,0,0,0,0,,,,,,,,,,,
603458,1745095315923,0.0,204.25,,-0.07,-0.01,0.99,1,-0,-0,0.99,1.05,94,3621,4.3,3.53,,12.33,1.018,95.2,,40.4,5,,,,,,,,,,,,0,0,0,0,0,0,0,0,0,0,0,0,0,0,0,0,,,,,0.0,,,,,,
603478,1745095315943,,,,,,,,,,,,,,,,,,,,,,,0,0,0,0,0.0,0.0,0.0,0.0,2.26,,,0,0,0,0,0,0,0,0,0,0,0,0,0,0,0,0,0,,,,,39.240089,-77.965401,0.22,34,3,0.8
603498,1745095315963,0.0,204.25,,-0.07,0.02,0.99,0,-0,0,1.0,1.05,95,3536,4.4,3.53,,12.31,1.029,95.2,,40.4,5,,,,,,,,,,,,0,0,0,0,0,0,0,0,0,0,0,0,0,0,0,0,,,,,0.0,,,,,,
603518,1745095315983,,,,,,,,,,,,,,,,,,,,,,,,,,,,,,,,,,0,0,0,0,0,0,0,0,0,0,0,0,0,0,0,0,,,,,,,,,,,
603538,1745095315994,0.0,204.25,,-0.07,0.06,0.99,-0,-0,0,0.99,1.05,94,3642,4.5,3.53,,12.33,1.051,95.2,,40.3,5,,,,,,,,,,,,0,0,0,0,0,0,0,0,0,0,0,0,0,0,0,0,,,,,0.0,,,,,,
603558,1745095316014,,,,,,,,,,,,,,,,,,,,,,,,,,,,,,,,,,0,0,0,0,0,0,0,0,0,0,0,0,0,0,0,0,,,,,,,,,,,
603578,1745095316034,0.0,204.25,,-0.05,0.09,0.99,-0,-0,0,1.0,1.05,95,3651,4.5,3.53,,12.33,1.051,95.2,,40.3,5,0,0,0,0,0.0,0.0,0.0,0.0,2.26,,,0,0,0,0,0,0,0,0,0,0,0,0,0,0,0,0,0,,,,0.0,39.240089,-77.965401,0.18,34,3,0.8
603598,1745095316054,,,,,,,,,,,,,,,,,,,,,,,,,,,,,,,,,,0,0,0,0,0,0,0,0,0,0,0,0,0,0,0,0,,,,,,,,,,,
603618,1745095316074,0.0,204.25,,-0.04,0.06,0.93,0,-0,0,0.94,1.05,89,3651,4.5,3.53,,12.24,1.07,95.2,,40.4,5,,,,,,,,,,,,0,0,0,0,0,0,0,0,0,0,0,0,0,0,0,0,,,,,0.0,,,,,,
603638,1745095316100,,,,,,,,,,,,,,,,,,,,,,,,,,,,,,,,,,0,0,0,0,0,0,0,0,0,0,0,0,0,0,0,0,,,,,,,,,,,
603658,1745095316120,0.0,204.25,,-0.06,-0.03,0.99,0,-0,0,1.0,1.05,94,3491,4.5,3.54,,12.28,1.025,95.2,,40.4,5,,,,,,,,,,,,0,0,0,0,0,0,0,0,0,0,0,0,0,0,0,0,,,,,0.0,,,,,,
603678,1745095316140,,,,,,,,,,,,,,,,,,,,,,,0,0,0,0,0.0,0.0,0.0,0.0,2.25,,,0,0,0,0,0,0,0,0,0,0,0,0,0,0,0,0,0,,,,,39.240089,-77.965401,0.0,34,3,0.8
603698,1745095316160,0.0,204.25,,-0.03,0.08,0.96,0,-0,0,0.97,1.05,92,3443,4.5,3.56,,12.29,1.032,95.2,,40.4,5,,,,,,,,,,,,0,0,0,0,0,0,0,0,0,0,0,0,0,0,0,0,,,,,0.0,,,,,,
603718,1745095316180,,,,,,,,,,,,,,,,,,,,,,,,,,,,,,,,,,0,0,0,0,0,0,0,0,0,0,0,0,0,0,0,0,,,,,,,,,,,
603738,1745095316202,0.0,204.25,,-0.04,0.01,1.04,0,-0,0,1.04,1.05,99,3263,4.5,3.56,,12.43,1.057,95.2,,38.0,5,,,,,,,,,,,,0,0,0,0,0,0,0,0,0,0,0,0,0,0,0,0,,,,,0.0,,,,,,
603758,1745095316222,,,,,,,,,,,,,,,,,,,,,,,,,,,,,,,,,,0,0,0,0,0,0,0,0,0,0,0,0,0,0,0,0,,,,,,,,,,,
603778,1745095316242,0.0,204.25,,-0.05,0.01,0.96,1,-0,-0,0.96,1.05,91,3209,4.4,3.57,,12.43,1.057,95.2,,38.0,5,0,0,0,0,0.0,0.0,0.0,0.0,2.26,,,0,0,0,0,0,0,0,0,0,0,0,0,0,0,0,0,0,,,,0.0,39.240089,-77.965401,0.04,34,3,0.8
603798,1745095316262,,,,,,,,,,,,,,,,,,,,,,,,,,,,,,,,,,0,0,0,0,0,0,0,0,0,0,0,0,0,0,0,0,,,,,,,,,,,
603818,1745095316282,0.0,204.12,,-0.04,0.09,0.92,0,-0,0,0.92,1.05,87,3209,4.4,3.57,,12.49,1.091,95.2,,35.1,5,,,,,,,,,,,,0,0,0,0,0,0,0,0,0,0,0,0,0,0,0,0,,,,,0.0,,,,,,
603838,1745095316304,,,,,,,,,,,,,,,,,,,,,,,,,,,,,,,,,,0,0,0,0,0,0,0,0,0,0,0,0,0,0,0,0,,,,,,,,,,,
603858,1745095316324,0.0,204.12,,-0.02,0.14,0.92,0,-0,0,0.93,1.05,88,3151,4.3,3.59,,12.55,1.113,95.2,,35.1,5,,,,,,,,,,,,0,0,0,0,0,0,0,0,0,0,0,0,0,0,0,0,,,,,0.0,,,,,,
603878,1745095316344,,,,,,,,,,,,,,,,,,,,,,,0,0,0,0,0.0,0.0,0.0,0.0,2.26,,,0,0,0,0,0,0,0,0,0,0,0,0,0,0,0,0,0,,,,,39.240089,-77.965401,0.32,34,3,0.8
603898,1745095316364,0.0,204.12,,-0.02,0.13,0.96,-0,-0,1,0.97,1.05,92,3094,4.3,3.59,,12.6,1.143,95.2,,35.1,5,,,,,,,,,,,,0,0,0,0,0,0,0,0,0,0,0,0,0,0,0,0,,,,,0.0,,,,,,
603918,1745095316384,,,,,,,,,,,,,,,,,,,,,,,,,,,,,,,,,,0,0,0,0,0,0,0,0,0,0,0,0,0,0,0,0,,,,,,,,,,,
603938,1745095316402,0.0,204.12,,-0.04,0.01,1.06,-0,-0,1,1.06,1.06,100,3147,4.3,3.59,,12.64,1.155,95.2,,32.6,5,,,,,,,,,,,,0,0,0,0,0,0,0,0,0,0,0,0,0,0,0,0,,,,,0.0,,,,,,
603958,1745095316422,,,,,,,,,,,,,,,,,,,,,,,,,,,,,,,,,,0,0,0,0,0,0,0,0,0,0,0,0,0,0,0,0,,,,,,,,,,,
603978,1745095316442,0.0,204.25,,-0.03,0.04,0.97,0,-0,0,0.98,1.06,92,3365,4.4,3.57,,12.64,1.155,95.2,,32.6,5,0,0,0,0,0.0,0.0,0.0,0.0,2.26,,,0,0,0,0,0,0,0,0,0,0,0,0,0,0,0,0,0,,,,0.0,39.240089,-77.965401,0.1,34,3,0.8
603998,1745095316462,,,,,,,,,,,,,,,,,,,,,,,,,,,,,,,,,,0,0,0,0,0,0,0,0,0,0,0,0,0,0,0,0,,,,,,,,,,,
604018,1745095316482,0.0,204.25,,-0.03,0.06,1.05,-0,-0,1,1.05,1.06,99,3365,4.4,3.57,,12.61,1.231,95.2,,36.4,5,,,,,,,,,,,,0,0,0,0,0,0,0,0,0,0,0,0,0,0,0,0,,,,,0.0,,,,,,
604038,1745095316502,,,,,,,,,,,,,,,,,,,,,,,,,,,,,,,,,,0,0,0,0,0,0,0,0,0,0,0,0,0,0,0,0,,,,,,,,,,,
604058,1745095316522,0.0,204.25,,-0.04,0.04,1.0,0,-0,0,1.01,1.06,95,3308,4.5,3.58,,12.56,1.172,95.2,,36.4,5,,,,,,,,,,,,0,0,0,0,0,0,0,0,0,0,0,0,0,0,0,0,,,,,0.0,,,,,,
604078,1745095316542,,,,,,,,,,,,,,,,,,,,,,,0,0,0,0,0.0,0.0,0.0,0.0,2.25,,,0,0,0,0,0,0,0,0,0,0,0,0,0,0,0,0,0,,,,,39.240089,-77.965401,0.34,34,3,0.8
604098,1745095316562,0.0,204.25,,-0.03,0.1,0.95,0,-0,0,0.96,1.06,91,3237,4.5,3.57,,12.59,1.093,95.2,,36.4,5,,,,,,,,,,,,0,0,0,0,0,0,0,0,0,0,0,0,0,0,0,0,,,,,0.0,,,,,,
604118,1745095316582,,,,,,,,,,,,,,,,,,,,,,,,,,,,,,,,,,0,0,0,0,0,0,0,0,0,0,0,0,0,0,0,0,,,,,,,,,,,
604138,1745095316602,0.0,204.12,,-0.03,0.08,1.03,-0,-0,1,1.03,1.06,97,3232,4.5,3.58,,12.56,1.09,95.2,,35.1,5,,,,,,,,,,,,0,0,0,0,0,0,0,0,0,0,0,0,0,0,0,0,,,,,0.0,,,,,,
604158,1745095316622,,,,,,,,,,,,,,,,,,,,,,,,,,,,,,,,,,0,0,0,0,0,0,0,0,0,0,0,0,0,0,0,0,,,,,,,,,,,
604178,1745095316642,0.0,204.25,,-0.07,0.02,1.04,-0,-0,0,1.05,1.06,99,3298,4.5,3.58,,12.56,1.09,95.2,,35.1,5,0,0,0,0,0.0,0.0,0.0,0.0,2.26,,,0,0,0,0,0,0,0,0,0,0,0,0,0,0,0,0,0,,,,0.0,39.240089,-77.965401,0.11,34,3,0.8
604198,1745095316662,,,,,,,,,,,,,,,,,,,,,,,,,,,,,,,,,,0,0,0,0,0,0,0,0,0,0,0,0,0,0,0,0,,,,,,,,,,,
604218,1745095316682,0.0,204.12,,-0.04,0.12,1.0,-0,-0,1,1.01,1.06,95,3298,4.5,3.58,,12.57,1.099,95.2,,36.1,5,,,,,,,,,,,,0,0,0,0,0,0,0,0,0,0,0,0,0,0,0,0,,,,,0.0,,,,,,
604238,1745095316704,,,,,,,,,,,,,,,,,,,,,,,,,,,,,,,,,,0,0,0,0,0,0,0,0,0,0,0,0,0,0,0,0,,,,,,,,,,,
604258,1745095316724,0.0,204.12,,-0.04,0.05,1.08,-0,-0,1,1.08,1.08,100,3336,4.5,3.57,,12.61,1.176,95.2,,36.1,5,,,,,,,,,,,,0,0,0,0,0,0,0,0,0,0,0,0,0,0,0,0,,,,,0.0,,,,,,
604278,1745095316744,,,,,,,,,,,,,,,,,,,,,,,0,0,0,0,0.0,0.0,0.0,0.0,2.26,,,0,0,0,0,0,0,0,0,0,0,0,0,0,0,0,0,0,,,,,39.240089,-77.965401,0.13,34,3,0.8
604298,1745095316764,0.0,204.12,,-0.05,0.03,1.01,0,-0,0,1.02,1.08,94,3267,4.4,3.58,,12.56,1.179,95.2,,36.1,5,,,,,,,,,,,,0,0,0,0,0,0,0,0,0,0,0,0,0,0,0,0,,,,,0.0,,,,,,
604318,1745095316784,,,,,,,,,,,,,,,,,,,,,,,,,,,,,,,,,,0,0,0,0,0,0,0,0,0,0,0,0,0,0,0,0,,,,,,,,,,,
604338,1745095316804,0.0,204.25,,-0.04,0.07,1.01,-0,-0,1,1.01,1.08,94,3306,4.4,3.59,,12.53,1.104,95.2,,35.3,5,,,,,,,,,,,,0,0,0,0,0,0,0,0,0,0,0,0,0,0,0,0,,,,,0.0,,,,,,
604358,1745095316824,,,,,,,,,,,,,,,,,,,,,,,,,,,,,,,,,,0,0,0,0,0,0,0,0,0,0,0,0,0,0,0,0,,,,,,,,,,,
604378,1745095316844,0.0,204.25,13.49,-0.04,-0.01,0.98,0,-0,0,0.99,1.08,91,3412,4.4,3.57,15,12.53,1.104,95.2,142,35.3,5,0,0,0,0,0.0,0.0,0.0,0.0,2.26,0,0.0,0,0,0,0,0,0,0,0,0,0,0,0,0,0,0,0,0,0.0,0,0,0.0,39.240089,-77.965401,0.08,34,3,0.8
604398,1745095316864,,,,,,,,,,,,,,,,,,,,,,,,,,,,,,,,,,0,0,0,0,0,0,0,0,0,0,0,0,0,0,0,0,,,,,,,,,,,
604418,1745095316884,0.0,204.12,,-0.04,0.03,1.03,-0,-0,1,1.03,1.08,96,3412,4.4,3.57,,12.56,1.104,95.2,,37.3,5,,,,,,,,,,,,0,0,0,0,0,0,0,0,0,0,0,0,0,0,0,0,,,,,0.0,,,,,,
604438,1745095316904,,,,,,,,,,,,,,,,,,,,,,,,,,,,,,,,,,0,0,0,0,0,0,0,0,0,0,0,0,0,0,0,0,,,,,,,,,,,
604458,1745095316924,0.0,204.12,,-0.04,0.03,0.99,0,-0,0,1.0,1.08,92,3424,4.3,3.56,,12.55,1.098,95.2,,37.3,5,,,,,,,,,,,,0,0,0,0,0,0,0,0,0,0,0,0,0,0,0,0,,,,,0.0,,,,,,
604478,1745095316944,,,,,,,,,,,,,,,,,,,,,,,0,0,0,0,0.0,0.0,0.0,0.0,2.26,,,0,0,0,0,0,0,0,0,0,0,0,0,0,0,0,0,0,,,,,39.240089,-77.965401,0.07,34,3,0.8
604498,1745095316964,0.0,204.25,,-0.06,-0.03,1.01,0,-0,0,1.01,1.08,93,3643,4.4,3.55,,12.39,1.074,95.2,,37.3,5,,,,,,,,,,,,0,0,0,0,0,0,0,0,0,0,0,0,0,0,0,0,,,,,0.0,,,,,,
604518,1745095316984,,,,,,,,,,,,,,,,,,,,,,,,,,,,,,,,,,0,0,0,0,0,0,0,0,0,0,0,0,0,0,0,0,,,,,,,,,,,
604538,1745095316995,0.0,204.25,,-0.06,0.03,1.05,-0,-0,0,1.06,1.08,98,3512,4.5,3.55,,12.33,1.143,95.2,,39.9,5,,,,,,,,,,,,0,0,0,0,0,0,0,0,0,0,0,0,0,0,0,0,,,,,0.0,,,,,,
604558,1745095317015,,,,,,,,,,,,,,,,,,,,,,,,,,,,,,,,,,0,0,0,0,0,0,0,0,0,0,0,0,0,0,0,0,,,,,,,,,,,
604578,1745095317035,0.0,204.25,,-0.04,0.1,1.0,-0,-0,1,1.01,1.08,93,3457,4.6,3.54,,12.33,1.143,95.2,,39.9,5,0,0,0,0,0.0,0.0,0.0,0.0,2.26,,,0,0,0,0,0,0,0,0,0,0,0,0,0,0,0,0,0,,,,0.0,39.240089,-77.965401,0.0,33,3,0.8
604598,1745095317055,,,,,,,,,,,,,,,,,,,,,,,,,,,,,,,,,,0,0,0,0,0,0,0,0,0,0,0,0,0,0,0,0,,,,,,,,,,,
604618,1745095317075,0.0,204.12,,-0.07,-0.01,1.06,0,-0,0,1.06,1.08,98,3457,4.6,3.54,,12.4,1.07,95.2,,37.5,5,,,,,,,,,,,,0,0,0,0,0,0,0,0,0,0,0,0,0,0,0,0,,,,,0.0,,,,,,
604638,1745095317104,,,,,,,,,,,,,,,,,,,,,,,,,,,,,,,,,,0,0,0,0,0,0,0,0,0,0,0,0,0,0,0,0,,,,,,,,,,,
604658,1745095317124,0.0,204.12,,-0.05,0.07,0.98,-0,-0,0,0.98,1.08,91,3405,4.6,3.57,,12.43,1.025,95.2,,37.5,5,,,,,,,,,,,,0,0,0,0,0,0,0,0,0,0,0,0,0,0,0,0,,,,,0.0,,,,,,
604678,1745095317144,,,,,,,,,,,,,,,,,,,,,,,0,0,0,0,0.0,0.0,0.0,0.0,2.25,,,0,0,0,0,0,0,0,0,0,0,0,0,0,0,0,0,0,,,,,39.240089,-77.965401,0.0,33,3,0.8
604698,1745095317164,0.0,204.25,,-0.04,0.02,1.07,-0,-0,0,1.07,1.08,99,3273,4.6,3.57,,12.45,1.052,95.2,,37.5,5,,,,,,,,,,,,0,0,0,0,0,0,0,0,0,0,0,0,0,0,0,0,,,,,0.0,,,,,,
604718,1745095317184,,,,,,,,,,,,,,,,,,,,,,,,,,,,,,,,,,0,0,0,0,0,0,0,0,0,0,0,0,0,0,0,0,,,,,,,,,,,
604738,1745095317203,0.0,204.25,,-0.06,-0.02,1.06,-0,-0,0,1.06,1.08,98,3230,4.6,3.58,,12.52,1.098,95.2,,36.2,5,,,,,,,,,,,,0,0,0,0,0,0,0,0,0,0,0,0,0,0,0,0,,,,,0.0,,,,,,
604758,1745095317223,,,,,,,,,,,,,,,,,,,,,,,,,,,,,,,,,,0,0,0,0,0,0,0,0,0,0,0,0,0,0,0,0,,,,,,,,,,,
604778,1745095317243,0.0,204.12,,-0.05,0.02,0.96,0,-0,0,0.96,1.08,88,3170,4.4,3.59,,12.52,1.098,95.2,,36.2,5,0,0,0,0,0.0,0.0,0.0,0.0,2.26,,,0,0,0,0,0,0,0,0,0,0,0,0,0,0,0,0,0,,,,0.0,39.240089,-77.965401,0.04,33,3,0.8
604798,1745095317263,,,,,,,,,,,,,,,,,,,,,,,,,,,,,,,,,,0,0,0,0,0,0,0,0,0,0,0,0,0,0,0,0,,,,,,,,,,,
604818,1745095317283,0.0,204.12,,-0.05,0.04,1.03,-0,-0,0,1.03,1.08,95,3170,4.4,3.59,,12.51,1.122,95.2,,36.5,5,,,,,,,,,,,,0,0,0,0,0,0,0,0,0,0,0,0,0,0,0,0,,,,,0.0,,,,,,
604838,1745095317303,,,,,,,,,,,,,,,,,,,,,,,,,,,,,,,,,,0,0,0,0,0,0,0,0,0,0,0,0,0,0,0,0,,,,,,,,,,,
604858,1745095317323,0.0,204.12,,-0.03,0.07,0.94,0,-0,0,0.94,1.08,87,3353,4.4,3.58,,12.57,1.166,95.2,,36.5,5,,,,,,,,,,,,0,0,0,0,0,0,0,0,0,0,0,0,0,0,0,0,,,,,0.0,,,,,,
604878,1745095317343,,,,,,,,,,,,,,,,,,,,,,,0,0,0,0,0.0,0.0,0.0,0.0,2.26,,,0,0,0,0,0,0,0,0,0,0,0,0,0,0,0,0,0,,,,,39.240089,-77.965401,0.0,33,3,0.8
604898,1745095317363,0.0,204.0,,-0.06,-0.01,1.03,0,-0,0,1.04,1.08,96,3431,4.3,3.57,,12.53,1.163,95.2,,36.5,5,,,,,,,,,,,,0,0,0,0,0,0,0,0,0,0,0,0,0,0,0,0,,,,,0.0,,,,,,
604918,1745095317383,,,,,,,,,,,,,,,,,,,,,,,,,,,,,,,,,,0,0,0,0,0,0,0,0,0,0,0,0,0,0,0,0,,,,,,,,,,,
604938,1745095317403,0.0,204.0,,-0.04,0.02,0.95,1,-0,-0,0.95,1.08,87,3299,4.3,3.57,,12.52,1.1,95.2,,37.1,5,,,,,,,,,,,,0,0,0,0,0,0,0,0,0,0,0,0,0,0,0,0,,,,,0.0,,,,,,
604958,1745095317423,,,,,,,,,,,,,,,,,,,,,,,,,,,,,,,,,,0,0,0,0,0,0,0,0,0,0,0,0,0,0,0,0,,,,,,,,,,,
604978,1745095317443,0.0,204.12,,-0.04,0.06,0.99,0,-0,0,1.0,1.08,92,3262,4.3,3.58,,12.52,1.1,95.2,,37.1,5,0,0,0,0,0.0,0.0,0.0,0.0,2.26,,,0,0,0,0,0,0,0,0,0,0,0,0,0,0,0,0,0,,,,0.0,39.240089,-77.965401,0.04,33,3,0.8
604998,1745095317463,,,,,,,,,,,,,,,,,,,,,,,,,,,,,,,,,,0,0,0,0,0,0,0,0,0,0,0,0,0,0,0,0,,,,,,,,,,,
605018,1745095317483,0.0,204.12,,-0.06,-0.01,1.06,0,-0,0,1.06,1.08,98,3262,4.3,3.58,,12.57,1.078,95.2,,34.8,5,,,,,,,,,,,,0,0,0,0,0,0,0,0,0,0,0,0,0,0,0,0,,,,,0.0,,,,,,
605038,1745095317503,,,,,,,,,,,,,,,,,,,,,,,,,,,,,,,,,,0,0,0,0,0,0,0,0,0,0,0,0,0,0,0,0,,,,,,,,,,,
605058,1745095317523,0.0,204.0,,-0.08,-0.04,1.03,1,-0,-0,1.04,1.08,96,3194,4.4,3.58,,12.55,1.076,95.2,,34.8,5,,,,,,,,,,,,0,0,0,0,0,0,0,0,0,0,0,0,0,0,0,0,,,,,0.0,,,,,,
605078,1745095317543,,,,,,,,,,,,,,,,,,,,,,,0,0,0,0,0.0,0.0,0.0,0.0,2.26,,,0,0,0,0,0,0,0,0,0,0,0,0,0,0,0,0,0,,,,,39.240089,-77.965401,0.05,33,3,0.8
605098,1745095317563,0.0,204.12,,-0.06,-0.01,0.94,1,-0,-0,0.94,1.08,87,3121,4.5,3.58,,12.6,1.079,95.2,,34.8,5,,,,,,,,,,,,0,0,0,0,0,0,0,0,0,0,0,0,0,0,0,0,,,,,0.0,,,,,,
605118,1745095317583,,,,,,,,,,,,,,,,,,,,,,,,,,,,,,,,,,0,0,0,0,0,0,0,0,0,0,0,0,0,0,0,0,,,,,,,,,,,
605138,1745095317603,0.0,204.0,,-0.04,0.06,0.86,0,-0,-0,0.86,1.08,80,3060,4.5,3.58,,12.67,1.094,95.2,,34.1,5,,,,,,,,,,,,0,0,0,0,0,0,0,0,0,0,0,0,0,0,0,0,,,,,0.0,,,,,,
605158,1745095317623,,,,,,,,,,,,,,,,,,,,,,,,,,,,,,,,,,0,0,0,0,0,0,0,0,0,0,0,0,0,0,0,0,,,,,,,,,,,
605178,1745095317643,0.0,204.0,,-0.03,0.13,0.83,0,-0,0,0.84,1.08,78,3063,4.5,3.59,,12.67,1.094,95.2,,34.1,5,0,0,0,0,0.0,0.0,0.0,0.0,2.26,,,0,0,0,0,0,0,0,0,0,0,0,0,0,0,0,0,0,,,,0.0,39.240089,-77.965401,0.04,33,3,0.8
605198,1745095317663,,,,,,,,,,,,,,,,,,,,,,,,,,,,,,,,,,0,0,0,0,0,0,0,0,0,0,0,0,0,0,0,0,,,,,,,,,,,
605218,1745095317683,0.0,204.0,,-0.04,0.09,0.94,-0,-0,0,0.95,1.08,88,3063,4.5,3.59,,12.71,1.115,95.2,,34.4,5,,,,,,,,,,,,0,0,0,0,0,0,0,0,0,0,0,0,0,0,0,0,,,,,0.0,,,,,,
605238,1745095317705,,,,,,,,,,,,,,,,,,,,,,,,,,,,,,,,,,0,0,0,0,0,0,0,0,0,0,0,0,0,0,0,0,,,,,,,,,,,
605258,1745095317725,0.0,204.0,,-0.04,0.05,0.88,0,-0,-0,0.88,1.08,81,3265,4.5,3.58,,12.67,1.167,95.2,,34.4,5,,,,,,,,,,,,0,0,0,0,0,0,0,0,0,0,0,0,0,0,0,0,,,,,0.0,,,,,,
605278,1745095317745,,,,,,,,,,,,,,,,,,,,,,,0,0,0,0,0.0,0.0,0.0,0.0,2.26,,,0,0,0,0,0,0,0,0,0,0,0,0,0,0,0,0,0,,,,,39.240089,-77.965401,0.0,33,3,0.8
605298,1745095317765,0.0,204.12,,-0.04,0.07,0.97,-0,-0,0,0.98,1.08,90,3388,4.4,3.57,,12.65,1.178,95.2,,34.4,5,,,,,,,,,,,,0,0,0,0,0,0,0,0,0,0,0,0,0,0,0,0,,,,,0.0,,,,,,
605318,1745095317785,,,,,,,,,,,,,,,,,,,,,,,,,,,,,,,,,,0,0,0,0,0,0,0,0,0,0,0,0,0,0,0,0,,,,,,,,,,,
605338,1745095317803,0.0,204.0,,-0.04,0.03,0.89,1,-0,-0,0.89,1.08,82,3357,4.4,3.58,,12.59,1.092,95.2,,36.5,5,,,,,,,,,,,,0,0,0,0,0,0,0,0,0,0,0,0,0,0,0,0,,,,,0.0,,,,,,
605358,1745095317823,,,,,,,,,,,,,,,,,,,,,,,,,,,,,,,,,,0,0,0,0,0,0,0,0,0,0,0,0,0,0,0,0,,,,,,,,,,,
605378,1745095317843,0.0,204.12,13.47,-0.03,0.09,0.94,-0,-0,0,0.94,1.08,87,3276,4.3,3.57,15,12.59,1.092,95.2,142,36.5,5,0,0,0,0,0.0,0.0,0.0,0.0,2.26,0,0.0,0,0,0,0,0,0,0,0,0,0,0,0,0,0,0,0,0,0.0,0,0,0.0,39.240089,-77.965401,0.07,33,3,0.8
605398,1745095317863,,,,,,,,,,,,,,,,,,,,,,,,,,,,,,,,,,0,0,0,0,0,0,0,0,0,0,0,0,0,0,0,0,,,,,,,,,,,
605418,1745095317883,0.0,204.0,,-0.04,0.02,1.0,-0,-0,0,1.0,1.08,92,3276,4.3,3.57,,12.57,1.084,95.2,,35.7,5,,,,,,,,,,,,0,0,0,0,0,0,0,0,0,0,0,0,0,0,0,0,,,,,0.0,,,,,,
605438,1745095317905,,,,,,,,,,,,,,,,,,,,,,,,,,,,,,,,,,0,0,0,0,0,0,0,0,0,0,0,0,0,0,0,0,,,,,,,,,,,
605458,1745095317925,0.0,204.0,,-0.05,0.03,0.93,0,-0,-0,0.94,1.08,86,3238,4.3,3.58,,12.57,1.1,95.2,,35.7,5,,,,,,,,,,,,0,0,0,0,0,0,0,0,0,0,0,0,0,0,0,0,,,,,0.0,,,,,,
605478,1745095317945,,,,,,,,,,,,,,,,,,,,,,,0,0,0,0,0.0,0.0,0.0,0.0,2.26,,,0,0,0,0,0,0,0,0,0,0,0,0,0,0,0,0,0,,,,,39.240089,-77.965401,0.0,33,3,0.8
605498,1745095317965,0.0,204.12,,-0.04,0.1,0.88,0,-0,-0,0.88,1.08,82,3172,4.3,3.58,,12.61,1.096,95.2,,35.7,5,,,,,,,,,,,,0,0,0,0,0,0,0,0,0,0,0,0,0,0,0,0,,,,,0.0,,,,,,
605518,1745095317985,,,,,,,,,,,,,,,,,,,,,,,,,,,,,,,,,,0,0,0,0,0,0,0,0,0,0,0,0,0,0,0,0,,,,,,,,,,,
605538,1745095317996,0.0,204.0,,-0.02,0.17,0.87,0,-0,0,0.89,1.08,82,3064,4.4,3.58,,12.61,1.111,95.2,,34.1,5,,,,,,,,,,,,0,0,0,0,0,0,0,0,0,0,0,0,0,0,0,0,,,,,0.0,,,,,,
605558,1745095318016,,,,,,,,,,,,,,,,,,,,,,,,,,,,,,,,,,0,0,0,0,0,0,0,0,0,0,0,0,0,0,0,0,,,,,,,,,,,
605578,1745095318036,0.0,204.0,,-0.01,0.15,0.92,-0,-0,1,0.94,1.08,87,3069,4.5,3.58,,12.61,1.111,95.2,,34.1,5,0,0,0,0,0.0,0.0,0.0,0.0,2.26,,,0,0,0,0,0,0,0,0,0,0,0,0,0,0,0,0,0,,,,0.0,39.240089,-77.965401,0.04,34,3,0.8
605598,1745095318056,,,,,,,,,,,,,,,,,,,,,,,,,,,,,,,,,,0,0,0,0,0,0,0,0,0,0,0,0,0,0,0,0,,,,,,,,,,,
605618,1745095318076,0.0,204.0,,-0.02,0.08,1.0,-1,-0,1,1.0,1.08,92,3069,4.5,3.58,,12.73,1.135,95.2,,32.9,5,,,,,,,,,,,,0,0,0,0,0,0,0,0,0,0,0,0,0,0,0,0,,,,,0.0,,,,,,
605638,1745095318100,,,,,,,,,,,,,,,,,,,,,,,,,,,,,,,,,,0,0,0,0,0,0,0,0,0,0,0,0,0,0,0,0,,,,,,,,,,,
605658,1745095318120,0.0,204.0,,-0.02,0.0,1.06,-1,-0,1,1.06,1.08,98,3079,4.5,3.6,,12.69,1.144,95.2,,32.9,5,,,,,,,,,,,,0,0,0,0,0,0,0,0,0,0,0,0,0,0,0,0,,,,,0.0,,,,,,
605678,1745095318140,,,,,,,,,,,,,,,,,,,,,,,0,0,0,0,0.0,0.0,0.0,0.0,2.26,,,0,0,0,0,0,0,0,0,0,0,0,0,0,0,0,0,0,,,,,39.240089,-77.965401,0.05,34,3,0.8
605698,1745095318160,0.0,204.0,,-0.02,-0.04,1.12,-1,-0,1,1.12,1.12,100,3047,4.5,3.59,,12.75,1.152,95.2,,32.9,5,,,,,,,,,,,,0,0,0,0,0,0,0,0,0,0,0,0,0,0,0,0,,,,,0.0,,,,,,
605718,1745095318180,,,,,,,,,,,,,,,,,,,,,,,,,,,,,,,,,,0,0,0,0,0,0,0,0,0,0,0,0,0,0,0,0,,,,,,,,,,,
605738,1745095318204,0.0,204.0,,-0.02,-0.08,1.15,-1,-0,1,1.15,1.15,100,2941,4.5,3.6,,12.83,1.177,95.2,,32.2,5,,,,,,,,,,,,0,0,0,0,0,0,0,0,0,0,0,0,0,0,0,0,,,,,0.0,,,,,,
605758,1745095318224,,,,,,,,,,,,,,,,,,,,,,,,,,,,,,,,,,0,0,0,0,0,0,0,0,0,0,0,0,0,0,0,0,,,,,,,,,,,
605778,1745095318244,0.0,204.0,,-0.01,-0.09,1.15,-1,-0,1,1.16,1.16,100,2922,4.5,3.6,,12.83,1.177,95.2,,32.2,5,0,0,0,0,0.0,0.0,0.0,0.0,2.26,,,0,0,0,0,0,0,0,0,0,0,0,0,0,0,0,0,0,,,,0.0,39.240089,-77.965401,0.06,34,3,0.8
605798,1745095318264,,,,,,,,,,,,,,,,,,,,,,,,,,,,,,,,,,0,0,0,0,0,0,0,0,0,0,0,0,0,0,0,0,,,,,,,,,,,
605818,1745095318284,0.0,204.0,,0.01,-0.05,1.12,-1,-0,1,1.12,1.16,97,2922,4.5,3.6,,12.88,1.183,95.2,,31.4,5,,,,,,,,,,,,0,0,0,0,0,0,0,0,0,0,0,0,0,0,0,0,,,,,0.0,,,,,,
605838,1745095318302,,,,,,,,,,,,,,,,,,,,,,,,,,,,,,,,,,0,0,0,0,0,0,0,0,0,0,0,0,0,0,0,0,,,,,,,,,,,
605858,1745095318322,0.0,204.0,,0.02,0.01,1.11,-1,-0,1,1.11,1.16,96,2919,8.1,3.76,,12.99,1.18,95.2,,31.4,5,,,,,,,,,,,,0,0,0,0,0,0,0,0,0,0,0,0,0,0,0,0,,,,,0.0,,,,,,
605878,1745095318342,,,,,,,,,,,,,,,,,,,,,,,0,0,0,0,0.0,0.0,0.0,0.0,2.26,,,0,0,0,0,0,0,0,0,0,0,0,0,0,0,0,0,0,,,,,39.240089,-77.965401,0.04,34,3,0.8
605898,1745095318362,0.0,204.12,,-0.01,-0.08,1.16,-1,-0,1,1.17,1.17,100,3160,10.4,3.86,,13.19,1.198,95.2,,31.4,5,,,,,,,,,,,,0,0,0,0,0,0,0,0,0,0,0,0,0,0,0,0,,,,,0.0,,,,,,
605918,1745095318382,,,,,,,,,,,,,,,,,,,,,,,,,,,,,,,,,,0,0,0,0,0,0,0,0,0,0,0,0,0,0,0,0,,,,,,,,,,,
605938,1745095318404,0.0,204.12,,-0.01,-0.02,1.07,-1,-0,1,1.07,1.17,91,3274,10.6,3.8,,13.23,1.183,95.2,,35.5,5,,,,,,,,,,,,0,0,0,0,0,0,0,0,0,0,0,0,0,0,0,0,,,,,0.0,,,,,,
605958,1745095318424,,,,,,,,,,,,,,,,,,,,,,,,,,,,,,,,,,0,0,0,0,0,0,0,0,0,0,0,0,0,0,0,0,,,,,,,,,,,
605978,1745095318444,0.0,204.0,,-0.0,-0.02,1.13,-1,-0,1,1.13,1.17,97,3350,10.7,3.8,,13.23,1.183,95.2,,35.5,5,0,0,0,0,0.0,0.0,0.0,0.0,2.26,,,0,0,0,0,0,0,0,0,0,0,0,0,0,0,0,0,0,,,,0.0,39.240089,-77.965401,0.05,34,3,0.8
605998,1745095318464,,,,,,,,,,,,,,,,,,,,,,,,,,,,,,,,,,0,0,0,0,0,0,0,0,0,0,0,0,0,0,0,0,,,,,,,,,,,
606018,1745095318484,0.0,204.0,,-0.01,-0.04,1.05,-0,-0,1,1.05,1.17,90,3350,10.7,3.8,,13.17,1.119,95.2,,36.3,5,,,,,,,,,,,,0,0,0,0,0,0,0,0,0,0,0,0,0,0,0,0,,,,,0.0,,,,,,
606038,1745095318504,,,,,,,,,,,,,,,,,,,,,,,,,,,,,,,,,,0,0,0,0,0,0,0,0,0,0,0,0,0,0,0,0,,,,,,,,,,,
606058,1745095318524,0.0,204.12,,-0.0,0.02,1.05,-1,-0,1,1.05,1.17,90,3311,10.8,3.8,,13.13,1.12,95.2,,36.3,5,,,,,,,,,,,,0,0,0,0,0,0,0,0,0,0,0,0,0,0,0,0,,,,,0.0,,,,,,
606078,1745095318544,,,,,,,,,,,,,,,,,,,,,,,0,0,0,0,0.0,0.0,0.0,0.0,2.26,,,0,0,0,0,0,0,0,0,0,0,0,0,0,0,0,0,0,,,,,39.240089,-77.965401,0.0,34,3,0.8
606098,1745095318564,0.0,204.12,,-0.03,-0.06,1.05,-0,-0,0,1.05,1.17,90,3406,10.9,3.81,,13.2,1.127,95.2,,36.3,5,,,,,,,,,,,,0,0,0,0,0,0,0,0,0,0,0,0,0,0,0,0,,,,,0.0,,,,,,
606118,1745095318584,,,,,,,,,,,,,,,,,,,,,,,,,,,,,,,,,,0,0,0,0,0,0,0,0,0,0,0,0,0,0,0,0,,,,,,,,,,,
606138,1745095318604,0.0,204.12,,-0.01,0.04,1.05,-1,-0,1,1.05,1.17,90,3379,10.9,3.8,,13.17,1.154,95.2,,36.9,5,,,,,,,,,,,,0,0,0,0,0,0,0,0,0,0,0,0,0,0,0,0,,,,,0.0,,,,,,
606158,1745095318624,,,,,,,,,,,,,,,,,,,,,,,,,,,,,,,,,,0,0,0,0,0,0,0,0,0,0,0,0,0,0,0,0,,,,,,,,,,,
606178,1745095318644,0.0,204.12,,-0.02,-0.06,1.04,-0,-0,0,1.04,1.17,89,3367,10.9,3.81,,13.17,1.154,95.2,,36.9,5,0,0,0,0,0.0,0.0,0.0,0.0,2.26,,,0,0,0,0,0,0,0,0,0,0,0,0,0,0,0,0,0,,,,0.0,39.240089,-77.965401,0.1,34,3,0.8
606198,1745095318664,,,,,,,,,,,,,,,,,,,,,,,,,,,,,,,,,,0,0,0,0,0,0,0,0,0,0,0,0,0,0,0,0,,,,,,,,,,,
606218,1745095318684,0.0,204.25,,-0.01,0.03,1.04,-1,-0,1,1.04,1.17,89,3367,10.9,3.81,,13.2,1.173,95.2,,37.1,5,,,,,,,,,,,,0,0,0,0,0,0,0,0,0,0,0,0,0,0,0,0,,,,,0.0,,,,,,
606238,1745095318705,,,,,,,,,,,,,,,,,,,,,,,,,,,,,,,,,,0,0,0,0,0,0,0,0,0,0,0,0,0,0,0,0,,,,,,,,,,,
606258,1745095318725,0.0,204.25,,-0.03,-0.05,1.01,-0,-0,0,1.01,1.17,86,3398,10.9,3.81,,13.16,1.197,95.2,,37.1,5,,,,,,,,,,,,0,0,0,0,0,0,0,0,0,0,0,0,0,0,0,0,,,,,0.0,,,,,,
606278,1745095318745,,,,,,,,,,,,,,,,,,,,,,,0,0,0,0,0.0,0.0,0.0,0.0,2.26,,,0,0,0,0,0,0,0,0,0,0,0,0,0,0,0,0,0,,,,,39.240089,-77.965401,0.11,34,3,0.8
606298,1745095318765,0.0,204.37,,-0.01,0.04,1.0,-1,-0,1,1.0,1.17,86,3333,10.9,3.81,,13.21,1.193,95.2,,37.1,5,,,,,,,,,,,,0,0,0,0,0,0,0,0,0,0,0,0,0,0,0,0,,,,,0.0,,,,,,
606318,1745095318785,,,,,,,,,,,,,,,,,,,,,,,,,,,,,,,,,,0,0,0,0,0,0,0,0,0,0,0,0,0,0,0,0,,,,,,,,,,,
606338,1745095318804,0.0,204.37,,-0.04,-0.02,1.02,0,-0,0,1.02,1.17,88,3375,10.8,3.81,,13.21,1.211,95.2,,36.8,5,,,,,,,,,,,,0,0,0,0,0,0,0,0,0,0,0,0,0,0,0,0,,,,,0.0,,,,,,
606358,1745095318824,,,,,,,,,,,,,,,,,,,,,,,,,,,,,,,,,,0,0,0,0,0,0,0,0,0,0,0,0,0,0,0,0,,,,,,,,,,,
606378,1745095318844,0.0,204.25,13.49,-0.03,0.06,0.98,-0,-0,0,0.98,1.17,84,3369,10.7,3.81,15,13.21,1.211,95.2,142,36.8,5,0,0,0,0,0.0,0.0,0.0,0.0,2.26,0,0.0,0,0,0,0,0,0,0,0,0,0,0,0,0,0,0,0,0,0.0,0,0,0.0,39.240089,-77.965401,0.05,34,3,0.8
606398,1745095318864,,,,,,,,,,,,,,,,,,,,,,,,,,,,,,,,,,0,0,0,0,0,0,0,0,0,0,0,0,0,0,0,0,,,,,,,,,,,
606418,1745095318884,0.0,204.25,,-0.05,-0.01,1.03,0,-0,0,1.03,1.17,88,3369,10.7,3.81,,13.2,1.216,95.2,,36.9,5,,,,,,,,,,,,0,0,0,0,0,0,0,0,0,0,0,0,0,0,0,0,,,,,0.0,,,,,,
606438,1745095318904,,,,,,,,,,,,,,,,,,,,,,,,,,,,,,,,,,0,0,0,0,0,0,0,0,0,0,0,0,0,0,0,0,,,,,,,,,,,
606458,1745095318924,0.0,204.12,,-0.02,0.11,0.98,-0,-0,1,0.99,1.17,85,3352,10.8,3.81,,13.21,1.216,95.2,,36.9,5,,,,,,,,,,,,0,0,0,0,0,0,0,0,0,0,0,0,0,0,0,0,,,,,0.0,,,,,,
606478,1745095318944,,,,,,,,,,,,,,,,,,,,,,,0,0,0,0,0.0,0.0,0.0,0.0,2.26,,,0,0,0,0,0,0,0,0,0,0,0,0,0,0,0,0,0,,,,,39.240089,-77.965401,0.05,34,3,0.8
606498,1745095318964,0.0,204.12,,-0.04,0.01,1.02,0,-0,0,1.02,1.17,88,3406,10.7,3.8,,13.2,1.216,95.2,,36.9,5,,,,,,,,,,,,0,0,0,0,0,0,0,0,0,0,0,0,0,0,0,0,,,,,0.0,,,,,,
606518,1745095318984,,,,,,,,,,,,,,,,,,,,,,,,,,,,,,,,,,0,0,0,0,0,0,0,0,0,0,0,0,0,0,0,0,,,,,,,,,,,
606538,1745095318995,0.0,204.12,,-0.04,0.05,1.02,-0,-0,0,1.02,1.17,88,3497,10.9,3.8,,13.25,1.203,93.4,,37.1,5,,,,,,,,,,,,0,0,0,0,0,0,0,0,0,0,0,0,0,0,0,0,,,,,0.0,,,,,,
606558,1745095319015,,,,,,,,,,,,,,,,,,,,,,,,,,,,,,,,,,0,0,0,0,0,0,0,0,0,0,0,0,0,0,0,0,,,,,,,,,,,
606578,1745095319035,0.0,204.12,,-0.03,0.04,1.02,-0,-0,0,1.02,1.17,87,3767,11.0,3.8,,13.25,1.203,93.4,,37.1,5,0,0,0,0,0.0,0.0,0.0,0.0,2.26,,,0,0,0,0,0,0,0,0,0,0,0,0,0,0,0,0,0,,,,0.0,39.240089,-77.965401,0.05,33,3,0.8
606598,1745095319055,,,,,,,,,,,,,,,,,,,,,,,,,,,,,,,,,,0,0,0,0,0,0,0,0,0,0,0,0,0,0,0,0,,,,,,,,,,,
606618,1745095319075,0.0,204.12,,-0.02,0.03,1.01,-0,-0,0,1.01,1.17,87,3726,11.0,3.8,,13.04,1.249,93.4,,41.5,5,,,,,,,,,,,,0,0,0,0,0,0,0,0,0,0,0,0,0,0,0,0,,,,,0.0,,,,,,
606638,1745095319097,,,,,,,,,,,,,,,,,,,,,,,,,,,,,,,,,,0,0,0,0,0,0,0,0,0,0,0,0,0,0,0,0,,,,,,,,,,,
606658,1745095319117,0.0,204.12,,-0.03,0.03,1.0,-0,-0,0,1.0,1.17,86,3726,10.9,3.78,,12.91,1.192,93.4,,41.5,5,,,,,,,,,,,,0,0,0,0,0,0,0,0,0,0,0,0,0,0,0,0,,,,,0.0,,,,,,
606678,1745095319137,,,,,,,,,,,,,,,,,,,,,,,0,0,0,0,0.0,0.0,0.0,0.0,2.26,,,0,0,0,0,0,0,0,0,0,0,0,0,0,0,0,0,0,,,,,39.240089,-77.965401,0.07,33,3,0.8
606698,1745095319157,0.0,204.25,,-0.05,0.05,1.01,0,-0,0,1.01,1.17,87,3765,10.9,3.78,,12.87,1.141,93.4,,42.1,5,,,,,,,,,,,,0,0,0,0,0,0,0,0,0,0,0,0,0,0,0,0,,,,,0.0,,,,,,
606718,1745095319177,,,,,,,,,,,,,,,,,,,,,,,,,,,,,,,,,,0,0,0,0,0,0,0,0,0,0,0,0,0,0,0,0,,,,,,,,,,,
606738,1745095319201,0.0,204.12,,-0.04,0.05,1.01,0,-0,0,1.01,1.17,87,3693,10.9,3.78,,12.87,1.124,93.4,,42.1,5,,,,,,,,,,,,0,0,0,0,0,0,0,0,0,0,0,0,0,0,0,0,,,,,0.0,,,,,,
606758,1745095319221,,,,,,,,,,,,,,,,,,,,,,,,,,,,,,,,,,0,0,0,0,0,0,0,0,0,0,0,0,0,0,0,0,,,,,,,,,,,
606778,1745095319241,0.0,204.12,,-0.04,0.03,1.0,0,-0,0,1.0,1.17,86,3739,10.9,3.77,,12.92,1.159,93.4,,42.1,5,0,0,0,0,0.0,0.0,0.0,0.0,2.26,,,0,0,0,0,0,0,0,0,0,0,0,0,0,0,0,0,0,,,,0.0,39.240089,-77.965401,0.0,33,3,0.8
606798,1745095319261,,,,,,,,,,,,,,,,,,,,,,,,,,,,,,,,,,0,0,0,0,0,0,0,0,0,0,0,0,0,0,0,0,,,,,,,,,,,
606818,1745095319281,0.0,204.12,,-0.03,0.02,1.0,0,-0,0,1.0,1.17,85,3739,10.9,3.77,,12.92,1.159,93.4,,41.5,5,,,,,,,,,,,,0,0,0,0,0,0,0,0,0,0,0,0,0,0,0,0,,,,,0.0,,,,,,
606838,1745095319303,,,,,,,,,,,,,,,,,,,,,,,,,,,,,,,,,,0,0,0,0,0,0,0,0,0,0,0,0,0,0,0,0,,,,,,,,,,,
606858,1745095319323,0.0,204.12,,-0.02,-0.01,1.01,0,-0,0,1.01,1.17,86,3719,10.8,3.78,,12.88,1.17,93.4,,41.5,5,,,,,,,,,,,,0,0,0,0,0,0,0,0,0,0,0,0,0,0,0,0,,,,,0.0,,,,,,
606878,1745095319343,,,,,,,,,,,,,,,,,,,,,,,0,0,0,0,0.0,0.0,0.0,0.0,2.26,,,0,0,0,0,0,0,0,0,0,0,0,0,0,0,0,0,0,,,,,39.240089,-77.965401,0.07,33,3,0.8
606898,1745095319363,0.0,204.12,,-0.02,0.01,0.99,0,-0,-0,0.99,1.17,85,3668,10.7,3.78,,12.84,1.182,93.4,,41.3,5,,,,,,,,,,,,0,0,0,0,0,0,0,0,0,0,0,0,0,0,0,0,,,,,0.0,,,,,,
606918,1745095319383,,,,,,,,,,,,,,,,,,,,,,,,,,,,,,,,,,0,0,0,0,0,0,0,0,0,0,0,0,0,0,0,0,,,,,,,,,,,
606938,1745095319405,0.0,204.12,,-0.03,0.03,0.96,1,-0,-0,0.96,1.17,82,3690,10.7,3.78,,12.91,1.204,93.4,,41.3,5,,,,,,,,,,,,0,0,0,0,0,0,0,0,0,0,0,0,0,0,0,0,,,,,0.0,,,,,,
606958,1745095319425,,,,,,,,,,,,,,,,,,,,,,,,,,,,,,,,,,0,0,0,0,0,0,0,0,0,0,0,0,0,0,0,0,,,,,,,,,,,
606978,1745095319445,0.0,204.12,,-0.05,0.0,0.95,1,-0,-0,0.95,1.17,82,3645,10.7,3.78,,12.93,1.2,93.4,,41.3,5,0,0,0,0,0.0,0.0,0.0,0.0,2.26,,,0,0,0,0,0,0,0,0,0,0,0,0,0,0,0,0,0,,,,0.0,39.240089,-77.965401,0.08,33,3,0.8
606998,1745095319465,,,,,,,,,,,,,,,,,,,,,,,,,,,,,,,,,,0,0,0,0,0,0,0,0,0,0,0,0,0,0,0,0,,,,,,,,,,,
607018,1745095319485,0.0,204.25,,-0.05,-0.03,0.97,1,-0,-0,0.97,1.17,83,3641,10.8,3.78,,12.93,1.2,93.4,,40.7,5,,,,,,,,,,,,0,0,0,0,0,0,0,0,0,0,0,0,0,0,0,0,,,,,0.0,,,,,,
607038,1745095319505,,,,,,,,,,,,,,,,,,,,,,,,,,,,,,,,,,0,0,0,0,0,0,0,0,0,0,0,0,0,0,0,0,,,,,,,,,,,
607058,1745095319525,0.0,204.12,,-0.06,0.01,1.0,-0,-0,0,1.0,1.17,86,3641,10.8,3.78,,12.95,1.214,93.4,,40.7,5,,,,,,,,,,,,0,0,0,0,0,0,0,0,0,0,0,0,0,0,0,0,,,,,0.0,,,,,,
607078,1745095319545,,,,,,,,,,,,,,,,,,,,,,,0,0,0,0,0.0,0.0,0.0,0.0,2.26,,,0,0,0,0,0,0,0,0,0,0,0,0,0,0,0,0,0,,,,,39.240089,-77.965401,0.1,33,3,0.8
607098,1745095319565,0.0,204.37,,-0.04,0.05,1.0,-0,-0,0,1.0,1.17,86,3557,10.9,3.78,,12.99,1.212,93.4,,40.7,5,,,,,,,,,,,,0,0,0,0,0,0,0,0,0,0,0,0,0,0,0,0,,,,,0.0,,,,,,
607118,1745095319585,,,,,,,,,,,,,,,,,,,,,,,,,,,,,,,,,,0,0,0,0,0,0,0,0,0,0,0,0,0,0,0,0,,,,,,,,,,,
607138,1745095319603,0.0,204.25,,-0.07,-0.08,1.03,-0,-0,0,1.03,1.17,88,3584,11.0,3.79,,13.0,1.212,93.4,,39.7,5,,,,,,,,,,,,0,0,0,0,0,0,0,0,0,0,0,0,0,0,0,0,,,,,0.0,,,,,,
607158,1745095319623,,,,,,,,,,,,,,,,,,,,,,,,,,,,,,,,,,0,0,0,0,0,0,0,0,0,0,0,0,0,0,0,0,,,,,,,,,,,
607178,1745095319643,0.0,204.25,,-0.09,-0.15,1.03,0,-0,-0,1.04,1.17,89,3514,10.9,3.8,,13.0,1.204,93.4,,39.7,5,0,0,0,0,0.0,0.0,0.0,0.0,2.26,,,0,0,0,0,0,0,0,0,0,0,0,0,0,0,0,0,0,,,,0.0,39.240089,-77.965401,0.0,33,3,0.8
607198,1745095319663,,,,,,,,,,,,,,,,,,,,,,,,,,,,,,,,,,0,0,0,0,0,0,0,0,0,0,0,0,0,0,0,0,,,,,,,,,,,
607218,1745095319683,0.0,204.12,,-0.1,-0.1,1.05,-0,-0,0,1.06,1.17,91,3514,10.9,3.8,,13.0,1.204,93.4,,39.5,5,,,,,,,,,,,,0,0,0,0,0,0,0,0,0,0,0,0,0,0,0,0,,,,,0.0,,,,,,
607238,1745095319705,,,,,,,,,,,,,,,,,,,,,,,,,,,,,,,,,,0,0,0,0,0,0,0,0,0,0,0,0,0,0,0,0,,,,,,,,,,,
607258,1745095319725,0.0,204.12,,-0.08,-0.02,1.05,-0,-0,1,1.06,1.17,90,3625,13.7,3.92,,13.17,1.211,93.4,,39.5,5,,,,,,,,,,,,0,0,0,0,0,0,0,0,0,0,0,0,0,0,0,0,,,,,0.0,,,,,,
607278,1745095319745,,,,,,,,,,,,,,,,,,,,,,,0,0,0,0,0.0,0.0,0.0,0.0,2.26,,,0,0,0,0,0,0,0,0,0,0,0,0,0,0,0,0,0,,,,,39.240089,-77.965401,0.0,33,3,0.8
607298,1745095319765,0.0,204.12,,-0.07,-0.01,1.05,-0,-0,0,1.05,1.17,90,3617,14.7,3.95,,13.16,1.193,93.4,,39.5,5,,,,,,,,,,,,0,0,0,0,0,0,0,0,0,0,0,0,0,0,0,0,,,,,0.0,,,,,,
607318,1745095319785,,,,,,,,,,,,,,,,,,,,,,,,,,,,,,,,,,0,0,0,0,0,0,0,0,0,0,0,0,0,0,0,0,,,,,,,,,,,
607338,1745095319805,0.0,204.25,,-0.06,-0.03,1.04,-1,-0,0,1.05,1.17,90,3746,14.8,3.89,,13.24,1.194,93.4,,41.0,5,,,,,,,,,,,,0,0,0,0,0,0,0,0,0,0,0,0,0,0,0,0,,,,,0.0,,,,,,
607358,1745095319825,,,,,,,,,,,,,,,,,,,,,,,,,,,,,,,,,,0,0,0,0,0,0,0,0,0,0,0,0,0,0,0,0,,,,,,,,,,,
607378,1745095319845,0.0,204.25,13.52,-0.07,-0.06,1.03,-1,-0,1,1.04,1.17,89,3845,14.9,3.88,15,13.24,1.194,93.4,142,41.0,5,0,0,0,0,0.0,0.0,0.0,0.0,2.26,0,0.0,0,0,0,0,0,0,0,0,0,0,0,0,0,0,0,0,0,0.0,0,0,0.0,39.240089,-77.965401,0.13,33,3,0.8
607398,1745095319865,,,,,,,,,,,,,,,,,,,,,,,,,,,,,,,,,,0,0,0,0,0,0,0,0,0,0,0,0,0,0,0,0,,,,,,,,,,,
607418,1745095319885,0.0,204.12,,-0.07,-0.09,0.96,-0,-0,0,0.97,1.17,83,3969,14.9,3.85,,13.35,1.201,93.4,,43.7,5,,,,,,,,,,,,0,0,0,0,0,0,0,0,0,0,0,0,0,0,0,0,,,,,0.0,,,,,,
607438,1745095319905,,,,,,,,,,,,,,,,,,,,,,,,,,,,,,,,,,0,0,0,0,0,0,0,0,0,0,0,0,0,0,0,0,,,,,,,,,,,
607458,1745095319925,0.0,204.0,,-0.07,0.0,0.98,0,-0,0,0.98,1.17,84,3969,14.9,3.85,,13.11,1.18,93.4,,43.7,5,,,,,,,,,,,,0,0,0,0,0,0,0,0,0,0,0,0,0,0,0,0,,,,,0.0,,,,,,
607478,1745095319945,,,,,,,,,,,,,,,,,,,,,,,0,0,0,0,0.0,0.0,0.0,0.0,2.26,,,0,0,0,0,0,0,0,0,0,0,0,0,0,0,0,0,0,,,,,39.240093,-77.965401,0.08,33,3,0.8
607498,1745095319965,0.0,204.0,,-0.08,0.02,1.02,-1,-0,0,1.02,1.17,88,4023,14.9,3.85,,13.09,1.091,93.4,,43.7,5,,,,,,,,,,,,0,0,0,0,0,0,0,0,0,0,0,0,0,0,0,0,,,,,0.0,,,,,,
607518,1745095319985,,,,,,,,,,,,,,,,,,,,,,,,,,,,,,,,,,0,0,0,0,0,0,0,0,0,0,0,0,0,0,0,0,,,,,,,,,,,
607538,1745095319996,0.0,204.0,,-0.09,-0.04,0.94,-0,-0,0,0.94,1.17,81,3950,15.0,3.84,,13.09,1.041,93.4,,44.5,5,,,,,,,,,,,,0,0,0,0,0,0,0,0,0,0,0,0,0,0,0,0,,,,,0.0,,,,,,
607558,1745095320016,,,,,,,,,,,,,,,,,,,,,,,,,,,,,,,,,,0,0,0,0,0,0,0,0,0,0,0,0,0,0,0,0,,,,,,,,,,,
607578,1745095320036,0.0,204.0,,-0.09,0.04,0.96,0,-0,-0,0.97,1.17,83,4040,15.1,3.84,,13.08,1.026,93.4,,44.5,5,0,0,0,0,0.0,0.0,0.0,0.0,2.26,,,0,0,0,0,0,0,0,0,0,0,0,0,0,0,0,0,0,,,,0.0,39.240093,-77.965401,0.04,34,3,0.8
607598,1745095320056,,,,,,,,,,,,,,,,,,,,,,,,,,,,,,,,,,0,0,0,0,0,0,0,0,0,0,0,0,0,0,0,0,,,,,,,,,,,
607618,1745095320076,0.0,204.0,,-0.09,0.03,0.98,-0,-0,0,0.99,1.17,84,4040,15.1,3.84,,13.08,1.026,93.4,,45.2,5,,,,,,,,,,,,0,0,0,0,0,0,0,0,0,0,0,0,0,0,0,0,,,,,0.0,,,,,,
607638,1745095320100,,,,,,,,,,,,,,,,,,,,,,,,,,,,,,,,,,0,0,0,0,0,0,0,0,0,0,0,0,0,0,0,0,,,,,,,,,,,
607658,1745095320120,0.0,203.87,,-0.08,-0.09,0.9,1,-0,-0,0.91,1.17,78,3992,15.1,3.84,,13.12,1.02,93.4,,45.2,5,,,,,,,,,,,,0,0,0,0,0,0,0,0,0,0,0,0,0,0,0,0,,,,,0.0,,,,,,
607678,1745095320140,,,,,,,,,,,,,,,,,,,,,,,0,0,0,0,0.0,0.0,0.0,0.0,2.26,,,0,0,0,0,0,0,0,0,0,0,0,0,0,0,0,0,0,,,,,39.240093,-77.965401,0.04,34,3,0.8
607698,1745095320160,0.0,204.0,,-0.12,0.01,1.01,-0,-0,0,1.02,1.17,87,4161,15.1,3.84,,13.01,1.042,93.4,,47.3,5,,,,,,,,,,,,0,0,0,0,0,0,0,0,0,0,0,0,0,0,0,0,,,,,0.0,,,,,,
607718,1745095320180,,,,,,,,,,,,,,,,,,,,,,,,,,,,,,,,,,0,0,0,0,0,0,0,0,0,0,0,0,0,0,0,0,,,,,,,,,,,
607738,1745095320200,0.0,203.87,,-0.07,-0.09,0.91,1,-0,-0,0.92,1.17,79,4190,15.1,3.84,,12.97,1.031,93.4,,47.3,5,,,,,,,,,,,,0,0,0,0,0,0,0,0,0,0,0,0,0,0,0,0,,,,,0.0,,,,,,
607758,1745095320220,,,,,,,,,,,,,,,,,,,,,,,,,,,,,,,,,,0,0,0,0,0,0,0,0,0,0,0,0,0,0,0,0,,,,,,,,,,,
607778,1745095320240,0.0,203.87,,-0.09,-0.12,0.91,0,-0,-0,0.92,1.17,79,4277,15.1,3.84,,12.95,1.043,93.4,,47.3,5,0,0,0,0,0.0,0.0,0.0,0.0,2.26,,,0,0,0,0,0,0,0,0,0,0,0,0,0,0,0,0,0,,,,0.0,39.240093,-77.965401,0.04,34,3,0.8
607798,1745095320260,,,,,,,,,,,,,,,,,,,,,,,,,,,,,,,,,,0,0,0,0,0,0,0,0,0,0,0,0,0,0,0,0,,,,,,,,,,,
607818,1745095320280,0.0,203.87,,-0.15,-0.03,1.02,-0,-0,0,1.03,1.17,88,4277,15.1,3.84,,12.95,1.043,93.4,,49.8,5,,,,,,,,,,,,0,0,0,0,0,0,0,0,0,0,0,0,0,0,0,0,,,,,0.0,,,,,,
607838,1745095320304,,,,,,,,,,,,,,,,,,,,,,,,,,,,,,,,,,0,0,0,0,0,0,0,0,0,0,0,0,0,0,0,0,,,,,,,,,,,
607858,1745095320324,0.0,203.87,,-0.2,-0.02,1.06,-1,-0,0,1.08,1.17,93,4461,15.0,3.86,,12.84,1.112,93.4,,49.8,5,,,,,,,,,,,,0,0,0,0,0,0,0,0,0,0,0,0,0,0,0,0,,,,,0.0,,,,,,
607878,1745095320344,,,,,,,,,,,,,,,,,,,,,,,0,0,0,0,0.0,0.0,0.0,0.0,2.26,,,0,0,0,0,0,0,0,0,0,0,0,0,0,0,0,0,0,,,,,39.240093,-77.965401,0.04,34,3,0.8
607898,1745095320364,0.0,203.87,,-0.2,-0.11,1.0,-0,-0,-0,1.02,1.17,88,4700,14.9,3.88,,12.83,1.103,93.4,,54.7,5,,,,,,,,,,,,0,0,0,0,0,0,0,0,0,0,0,0,0,0,0,0,,,,,0.0,,,,,,
607918,1745095320384,,,,,,,,,,,,,,,,,,,,,,,,,,,,,,,,,,0,0,0,0,0,0,0,0,0,0,0,0,0,0,0,0,,,,,,,,,,,
607938,1745095320404,0.0,204.0,,-0.17,-0.07,1.05,-0,-0,0,1.06,1.17,91,4849,14.9,3.88,,12.83,1.074,93.4,,54.7,5,,,,,,,,,,,,0,0,0,0,0,0,0,0,0,0,0,0,0,0,0,0,,,,,0.0,,,,,,
607958,1745095320424,,,,,,,,,,,,,,,,,,,,,,,,,,,,,,,,,,0,0,0,0,0,0,0,0,0,0,0,0,0,0,0,0,,,,,,,,,,,
607978,1745095320444,0.0,204.0,,-0.19,-0.06,1.02,-0,-0,0,1.04,1.17,89,4793,14.9,3.87,,12.75,0.983,93.4,,54.7,5,0,0,0,0,0.0,0.0,0.0,0.0,2.26,,,0,0,0,0,0,0,0,0,0,0,0,0,0,0,0,0,0,,,,0.0,39.240093,-77.965401,0.05,34,3,0.8
607998,1745095320464,,,,,,,,,,,,,,,,,,,,,,,,,,,,,,,,,,0,0,0,0,0,0,0,0,0,0,0,0,0,0,0,0,,,,,,,,,,,
608018,1745095320484,0.0,204.0,,-0.13,-0.11,0.99,1,-0,-0,1.0,1.17,86,4793,14.9,3.87,,12.75,0.983,93.4,,54.8,5,,,,,,,,,,,,0,0,0,0,0,0,0,0,0,0,0,0,0,0,0,0,,,,,0.0,,,,,,
608038,1745095320504,,,,,,,,,,,,,,,,,,,,,,,,,,,,,,,,,,0,0,0,0,0,0,0,0,0,0,0,0,0,0,0,0,,,,,,,,,,,
608058,1745095320524,0.0,203.87,,-0.16,0.01,1.06,-0,-0,0,1.07,1.17,92,4787,15.0,3.88,,12.72,0.942,93.4,,54.8,5,,,,,,,,,,,,0,0,0,0,0,0,0,0,0,0,0,0,0,0,0,0,,,,,0.0,,,,,,
608078,1745095320544,,,,,,,,,,,,,,,,,,,,,,,0,0,0,0,0.0,0.0,0.0,0.0,2.26,,,0,0,0,0,0,0,0,0,0,0,0,0,0,0,0,0,0,,,,,39.240093,-77.965401,0.04,34,3,0.8
608098,1745095320564,0.0,204.0,,-0.13,-0.06,1.01,0,-0,-0,1.02,1.17,88,4837,15.1,3.88,,12.71,1.017,93.4,,56.2,5,,,,,,,,,,,,0,0,0,0,0,0,0,0,0,0,0,0,0,0,0,0,,,,,0.0,,,,,,
608118,1745095320584,,,,,,,,,,,,,,,,,,,,,,,,,,,,,,,,,,0,0,0,0,0,0,0,0,0,0,0,0,0,0,0,0,,,,,,,,,,,
608138,1745095320604,0.0,204.0,,-0.14,-0.03,1.03,0,-0,0,1.04,1.17,89,5039,15.1,3.9,,12.69,1.062,93.4,,56.2,5,,,,,,,,,,,,0,0,0,0,0,0,0,0,0,0,0,0,0,0,0,0,,,,,0.0,,,,,,
608158,1745095320624,,,,,,,,,,,,,,,,,,,,,,,,,,,,,,,,,,0,0,0,0,0,0,0,0,0,0,0,0,0,0,0,0,,,,,,,,,,,
608178,1745095320644,0.0,204.12,,-0.14,-0.08,1.01,0,-0,-0,1.02,1.17,88,5276,15.1,3.95,,12.65,1.011,93.4,,56.2,5,0,0,0,0,0.0,0.0,0.0,0.0,2.25,,,0,0,0,0,0,0,0,0,0,0,0,0,0,0,0,0,0,,,,0.0,39.240093,-77.965401,0.11,34,3,0.8
608198,1745095320664,,,,,,,,,,,,,,,,,,,,,,,,,,,,,,,,,,0,0,0,0,0,0,0,0,0,0,0,0,0,0,0,0,,,,,,,,,,,
608218,1745095320684,0.0,204.0,,-0.11,-0.04,1.07,0,-0,0,1.08,1.17,93,5276,15.1,3.95,,12.65,1.011,93.4,,61.0,5,,,,,,,,,,,,0,0,0,0,0,0,0,0,0,0,0,0,0,0,0,0,,,,,0.0,,,,,,
608238,1745095320704,,,,,,,,,,,,,,,,,,,,,,,,,,,,,,,,,,0,0,0,0,0,0,0,0,0,0,0,0,0,0,0,0,,,,,,,,,,,
608258,1745095320724,0.0,204.0,,-0.07,-0.14,1.0,1,-0,-0,1.02,1.17,87,5568,15.1,4.01,,12.43,0.899,93.4,,61.0,5,,,,,,,,,,,,0,0,0,0,0,0,0,0,0,0,0,0,0,0,0,0,,,,,0.0,,,,,,
608278,1745095320744,,,,,,,,,,,,,,,,,,,,,,,0,0,0,0,0.0,0.0,0.0,0.0,2.25,,,0,0,0,0,0,0,0,0,0,0,0,0,0,0,0,0,0,,,,,39.240093,-77.965401,0.14,34,3,0.8
608298,1745095320764,0.0,204.0,,-0.01,-0.26,0.97,1,-0,-1,1.01,1.17,86,6118,15.1,4.11,,11.84,0.877,93.4,,61.0,5,,,,,,,,,,,,0,0,0,0,0,0,0,0,0,0,0,0,0,0,0,0,,,,,0.0,,,,,,
608318,1745095320784,,,,,,,,,,,,,,,,,,,,,,,,,,,,,,,,,,0,0,0,0,0,0,0,0,0,0,0,0,0,0,0,0,,,,,,,,,,,
608338,1745095320804,0.0,203.87,,0.03,-0.38,0.96,1,-0,-1,1.03,1.17,88,5965,15.0,4.06,,11.71,0.917,93.4,,62.6,5,,,,,,,,,,,,0,0,0,0,0,0,0,0,0,0,0,0,0,0,0,0,,,,,0.0,,,,,,
608358,1745095320824,,,,,,,,,,,,,,,,,,,,,,,,,,,,,,,,,,0,0,0,0,0,0,0,0,0,0,0,0,0,0,0,0,,,,,,,,,,,
608378,1745095320844,0.0,204.0,13.49,0.04,-0.46,0.85,1,-0,-2,0.97,1.17,83,5852,15.0,4.03,15,11.71,0.917,93.4,144,62.6,5,0,0,0,0,0.0,0.0,0.0,0.0,2.26,0,0.0,0,0,0,0,0,0,0,0,0,0,0,0,0,0,0,0,0,0.0,0,0,0.0,39.240093,-77.965401,0.04,34,3,0.8
608398,1745095320864,,,,,,,,,,,,,,,,,,,,,,,,,,,,,,,,,,0,0,0,0,0,0,0,0,0,0,0,0,0,0,0,0,,,,,,,,,,,
608418,1745095320884,0.0,203.87,,0.07,-0.52,0.77,1,-0,-2,0.93,1.17,79,5852,15.0,4.03,,11.84,0.955,93.4,,61.7,5,,,,,,,,,,,,0,0,0,0,0,0,0,0,0,0,0,0,0,0,0,0,,,,,0.0,,,,,,
608438,1745095320904,,,,,,,,,,,,,,,,,,,,,,,,,,,,,,,,,,0,0,0,0,0,0,0,0,0,0,0,0,0,0,0,0,,,,,,,,,,,
608458,1745095320924,0.0,203.87,,0.05,-0.55,0.81,1,-0,-2,0.98,1.17,84,6259,15.0,4.18,,11.61,0.999,93.4,,61.7,5,,,,,,,,,,,,0,0,0,0,0,0,0,0,0,0,0,0,0,0,0,0,,,,,0.0,,,,,,
608478,1745095320944,,,,,,,,,,,,,,,,,,,,,,,0,0,0,0,0.0,0.0,0.0,0.0,2.26,,,0,0,0,0,0,0,0,0,0,0,0,0,0,0,0,0,0,,,,,39.240093,-77.965401,0.04,34,3,0.8
608498,1745095320964,0.0,203.87,,0.07,-0.36,0.84,1,-0,-1,0.92,1.17,79,6810,15.0,4.65,,11.09,0.899,93.4,,61.7,5,,,,,,,,,,,,0,0,0,0,0,0,0,0,0,0,0,0,0,0,0,0,,,,,0.0,,,,,,
608518,1745095320984,,,,,,,,,,,,,,,,,,,,,,,,,,,,,,,,,,0,0,0,0,0,0,0,0,0,0,0,0,0,0,0,0,,,,,,,,,,,
608538,1745095320995,0.0,203.87,,0.04,-0.41,0.88,3,-0,-2,0.97,1.17,83,7477,15.0,4.09,,10.58,0.868,93.4,,66.4,5,,,,,,,,,,,,0,0,0,0,0,0,0,0,0,0,0,0,0,0,0,0,,,,,0.0,,,,,,
608558,1745095321015,,,,,,,,,,,,,,,,,,,,,,,,,,,,,,,,,,0,0,0,0,0,0,0,0,0,0,0,0,0,0,0,0,,,,,,,,,,,
608578,1745095321035,0.0,203.87,,0.04,-0.28,0.92,2,-0,-1,0.96,1.17,82,8135,15.9,3.35,,10.22,0.83,93.4,,66.4,5,0,0,0,0,0.0,0.0,0.0,0.0,2.26,,,0,0,0,0,0,0,0,0,0,0,0,0,0,0,0,0,0,,,,0.0,39.240093,-77.965401,0.0,34,3,0.8
608598,1745095321055,,,,,,,,,,,,,,,,,,,,,,,,,,,,,,,,,,0,0,0,0,0,0,0,0,0,0,0,0,0,0,0,0,,,,,,,,,,,
608618,1745095321075,0.0,203.87,,0.03,-0.14,0.92,2,-0,-1,0.93,1.17,79,8135,15.9,3.35,,10.22,0.83,93.4,,70.3,5,,,,,,,,,,,,0,0,0,0,0,0,0,0,0,0,0,0,0,0,0,0,,,,,0.0,,,,,,
608638,1745095321101,,,,,,,,,,,,,,,,,,,,,,,,,,,,,,,,,,0,0,0,0,0,0,0,0,0,0,0,0,0,0,0,0,,,,,,,,,,,
608658,1745095321121,0.0,203.87,,0.02,-0.15,0.98,1,-0,-1,0.99,1.17,85,8902,16.1,3.14,,9.74,0.774,93.4,,70.3,5,,,,,,,,,,,,0,0,0,0,0,0,0,0,0,0,0,0,0,0,0,0,,,,,0.0,,,,,,
608678,1745095321141,,,,,,,,,,,,,,,,,,,,,,,0,0,0,0,0.0,0.0,0.0,0.0,2.26,,,0,0,0,0,0,0,0,0,0,0,0,0,0,0,0,0,0,,,,,39.240093,-77.965401,0.26,34,3,0.8
608698,1745095321161,0.0,203.87,,0.01,-0.14,0.93,2,-0,-1,0.94,1.17,80,9803,16.2,3.08,,8.87,0.773,93.4,,70.3,5,,,,,,,,,,,,0,0,0,0,0,0,0,0,0,0,0,0,0,0,0,0,,,,,0.0,,,,,,
608718,1745095321181,,,,,,,,,,,,,,,,,,,,,,,,,,,,,,,,,,0,0,0,0,0,0,0,0,0,0,0,0,0,0,0,0,,,,,,,,,,,
608738,1745095321203,0.0,203.75,,0.01,0.01,0.93,2,-0,-1,0.93,1.17,80,10580,16.2,2.92,,8.54,0.805,93.4,,67.7,5,,,,,,,,,,,,0,0,0,0,0,0,0,0,0,0,0,0,0,0,0,0,,,,,0.0,,,,,,
608758,1745095321223,,,,,,,,,,,,,,,,,,,,,,,,,,,,,,,,,,0,0,0,0,0,0,0,0,0,0,0,0,0,0,0,0,,,,,,,,,,,
608778,1745095321243,0.0,203.75,,0.01,0.09,0.92,2,-0,-1,0.93,1.17,79,11102,16.4,2.68,,8.09,0.824,93.4,,67.7,5,0,0,0,0,0.0,0.0,0.0,0.0,2.26,,,0,0,0,0,0,0,0,0,0,0,0,0,0,0,0,0,0,,,,0.0,39.240093,-77.965401,0.16,34,3,0.8
608798,1745095321263,,,,,,,,,,,,,,,,,,,,,,,,,,,,,,,,,,0,0,0,0,0,0,0,0,0,0,0,0,0,0,0,0,,,,,,,,,,,
608818,1745095321283,0.0,203.62,,0.01,0.17,0.93,2,-0,-1,0.94,1.17,81,11102,16.4,2.68,,8.09,0.824,93.4,,66.4,5,,,,,,,,,,,,0,0,0,0,0,0,0,0,0,0,0,0,0,0,0,0,,,,,0.0,,,,,,
608838,1745095321303,,,,,,,,,,,,,,,,,,,,,,,,,,,,,,,,,,0,0,0,0,0,0,0,0,0,0,0,0,0,0,0,0,,,,,,,,,,,
608858,1745095321323,0.0,203.62,,-0.02,0.09,0.91,1,-1,0,0.91,1.17,78,11427,16.3,2.48,,7.86,0.817,93.4,,66.4,5,,,,,,,,,,,,0,0,0,0,0,0,0,0,0,0,0,0,0,0,0,0,,,,,0.0,,,,,,
608878,1745095321343,,,,,,,,,,,,,,,,,,,,,,,0,0,0,0,0.0,0.0,0.0,0.0,2.26,,,0,0,0,0,0,0,0,0,0,0,0,0,0,0,0,0,0,,,,,39.240093,-77.965401,0.08,34,3,0.8
608898,1745095321363,0.0,203.49,,-0.03,0.14,0.78,-1,-1,0,0.8,1.17,68,11746,16.2,2.37,,7.78,0.819,93.4,,66.4,5,,,,,,,,,,,,0,0,0,0,0,0,0,0,0,0,0,0,0,0,0,0,,,,,0.0,,,,,,
608918,1745095321383,,,,,,,,,,,,,,,,,,,,,,,,,,,,,,,,,,0,0,0,0,0,0,0,0,0,0,0,0,0,0,0,0,,,,,,,,,,,
608938,1745095321405,0.0,203.49,,-0.01,0.2,0.84,-0,-1,0,0.86,1.17,74,11838,16.2,2.3,,7.55,0.824,93.4,,68.2,5,,,,,,,,,,,,0,0,0,0,0,0,0,0,0,0,0,0,0,0,0,0,,,,,0.0,,,,,,
608958,1745095321425,,,,,,,,,,,,,,,,,,,,,,,,,,,,,,,,,,0,0,0,0,0,0,0,0,0,0,0,0,0,0,0,0,,,,,,,,,,,
608978,1745095321445,0.0,203.37,,-0.01,0.32,1.04,1,-0,0,1.09,1.17,93,11792,16.2,2.26,,7.46,0.87,93.4,,68.2,5,0,0,0,0,0.0,0.0,0.0,0.0,2.26,,,0,0,0,0,0,0,0,0,0,0,0,0,0,0,0,0,0,,,,0.0,39.240093,-77.965401,0.11,34,3,0.8
608998,1745095321465,,,,,,,,,,,,,,,,,,,,,,,,,,,,,,,,,,0,0,0,0,0,0,0,0,0,0,0,0,0,0,0,0,,,,,,,,,,,
609018,1745095321485,0.0,203.12,,0.03,0.35,1.08,3,-0,-0,1.14,1.17,97,11571,16.2,2.27,,7.46,0.87,93.4,,67.6,5,,,,,,,,,,,,0,0,0,0,0,0,0,0,0,0,0,0,0,0,0,0,,,,,0.0,,,,,,
609038,1745095321503,,,,,,,,,,,,,,,,,,,,,,,,,,,,,,,,,,0,0,0,0,0,0,0,0,0,0,0,0,0,0,0,0,,,,,,,,,,,
609058,1745095321523,0.0,202.99,,0.09,0.14,1.03,3,-0,-1,1.05,1.17,90,11571,16.2,2.27,,7.53,0.906,93.4,,67.6,5,,,,,,,,,,,,0,0,0,0,0,0,0,0,0,0,0,0,0,0,0,0,,,,,0.0,,,,,,
609078,1745095321543,,,,,,,,,,,,,,,,,,,,,,,0,0,0,0,0.0,0.0,0.0,0.0,2.26,,,0,0,0,0,0,0,0,0,0,0,0,0,0,0,0,0,0,,,,,39.240093,-77.965401,0.2,34,3,0.8
609098,1745095321563,0.0,202.99,,0.12,0.17,1.02,3,0,-1,1.04,1.17,89,11089,16.3,2.43,,7.47,0.926,93.4,,67.6,5,,,,,,,,,,,,0,0,0,0,0,0,0,0,0,0,0,0,0,0,0,0,,,,,0.0,,,,,,
609118,1745095321583,,,,,,,,,,,,,,,,,,,,,,,,,,,,,,,,,,0,0,0,0,0,0,0,0,0,0,0,0,0,0,0,0,,,,,,,,,,,
609138,1745095321603,0.0,202.87,,0.12,0.23,0.98,3,-0,-1,1.02,1.17,87,10494,16.3,2.56,,7.74,0.932,93.4,,65.8,5,,,,,,,,,,,,0,0,0,0,0,0,0,0,0,0,0,0,0,0,0,0,,,,,0.0,,,,,,
609158,1745095321623,,,,,,,,,,,,,,,,,,,,,,,,,,,,,,,,,,0,0,0,0,0,0,0,0,0,0,0,0,0,0,0,0,,,,,,,,,,,
609178,1745095321643,0.0,202.74,,0.11,0.16,0.95,2,-0,-1,0.97,1.17,83,10008,15.2,2.48,,7.74,0.932,93.4,,65.8,5,0,0,0,0,0.0,0.0,0.0,0.0,2.25,,,0,0,0,0,0,0,0,0,0,0,0,0,0,0,0,0,0,,,,0.0,39.240093,-77.965401,0.85,34,3,0.8
609198,1745095321663,,,,,,,,,,,,,,,,,,,,,,,,,,,,,,,,,,0,0,0,0,0,0,0,0,0,0,0,0,0,0,0,0,,,,,,,,,,,
609218,1745095321683,0.0,202.74,,0.15,0.19,0.92,2,-0,-1,0.95,1.17,81,10008,15.2,2.48,,7.53,0.949,93.4,,64.4,5,,,,,,,,,,,,0,0,0,0,0,0,0,0,0,0,0,0,0,0,0,0,,,,,0.0,,,,,,
609238,1745095321705,,,,,,,,,,,,,,,,,,,,,,,,,,,,,,,,,,0,0,0,0,0,0,0,0,0,0,0,0,0,0,0,0,,,,,,,,,,,
609258,1745095321725,0.0,202.74,,0.14,0.07,0.96,1,-0,-0,0.97,1.17,83,9687,14.8,2.41,,7.63,0.966,93.4,,64.4,5,,,,,,,,,,,,0,0,0,0,0,0,0,0,0,0,0,0,0,0,0,0,,,,,0.0,,,,,,
609278,1745095321745,,,,,,,,,,,,,,,,,,,,,,,0,0,1,0,0.0,0.0,0.0,0.0,2.26,,,0,0,0,0,0,0,0,0,0,0,0,0,0,0,0,0,0,,,,,39.240089,-77.965401,1.58,34,3,0.8
609298,1745095321765,0.0,202.61,,0.16,0.02,0.95,2,-0,-0,0.96,1.17,83,9627,14.6,2.42,,7.73,0.962,93.4,,64.4,5,,,,,,,,,,,,0,0,0,0,0,0,0,0,0,0,0,0,0,0,0,0,,,,,0.0,,,,,,
609318,1745095321785,,,,,,,,,,,,,,,,,,,,,,,,,,,,,,,,,,0,0,0,0,0,0,0,0,0,0,0,0,0,0,0,0,,,,,,,,,,,
609338,1745095321805,0.0,202.49,,0.14,0.01,0.97,1,-0,-0,0.98,1.17,84,9650,15.0,2.48,,7.71,0.954,93.4,,65.2,5,,,,,,,,,,,,0,0,0,0,0,0,0,0,0,0,0,0,0,0,0,0,,,,,0.0,,,,,,
609358,1745095321825,,,,,,,,,,,,,,,,,,,,,,,,,,,,,,,,,,0,0,0,0,0,0,0,0,0,0,0,0,0,0,0,0,,,,,,,,,,,
609378,1745095321845,0.0,202.24,13.46,0.13,0.1,0.98,1,-0,-0,0.99,1.17,85,9765,16.1,2.64,15,7.71,0.954,93.4,144,65.2,5,2,0,2,2,0.0,0.0,0.0,0.0,2.26,0,0.0,0,0,0,0,0,0,0,0,0,0,0,0,0,0,0,0,0,0.0,0,-0,0.0,39.240089,-77.965401,3.29,34,3,0.8
609398,1745095321865,,,,,,,,,,,,,,,,,,,,,,,,,,,,,,,,,,0,0,0,0,0,0,0,0,0,0,0,0,0,0,0,0,,,,,,,,,,,
609418,1745095321885,0.0,202.11,,0.13,0.06,0.96,1,-0,-0,0.97,1.17,83,9765,16.1,2.64,,7.87,0.959,93.4,,65.7,5,,,,,,,,,,,,0,0,0,0,0,0,0,0,0,0,0,0,0,0,0,0,,,,,0.0,,,,,,
609438,1745095321905,,,,,,,,,,,,,,,,,,,,,,,,,,,,,,,,,,0,0,0,0,0,0,0,0,0,0,0,0,0,0,0,0,,,,,,,,,,,
609458,1745095321925,0.0,201.99,,0.13,0.03,0.97,1,-0,-0,0.98,1.17,84,9951,16.9,2.7,,8.06,0.983,93.4,,65.7,5,,,,,,,,,,,,0,0,0,0,0,0,0,0,0,0,0,0,0,0,0,0,,,,,0.0,,,,,,
609478,1745095321945,,,,,,,,,,,,,,,,,,,,,,,2,0,2,2,0.0,0.0,0.0,0.0,2.26,,,0,0,0,0,0,0,0,0,0,0,0,0,0,0,0,0,0,,,,,39.240089,-77.965401,3.18,34,3,0.8
609498,1745095321965,0.0,201.86,,0.12,0.09,0.99,1,-0,-0,1.0,1.17,86,10137,17.2,2.79,,8.02,0.991,93.4,,65.7,5,,,,,,,,,,,,0,0,0,0,0,0,0,0,0,0,0,0,0,0,0,0,,,,,0.0,,,,,,
609518,1745095321985,,,,,,,,,,,,,,,,,,,,,,,,,,,,,,,,,,0,0,0,0,0,0,0,0,0,0,0,0,0,0,0,0,,,,,,,,,,,
609538,1745095321996,0.0,201.73,,0.1,-0.05,1.06,2,-0,-0,1.06,1.17,91,10273,17.3,2.73,,8.13,0.992,93.4,,65.4,5,,,,,,,,,,,,0,0,0,0,0,0,0,0,0,0,0,0,0,0,0,0,,,,,0.0,,,,,,
609558,1745095322016,,,,,,,,,,,,,,,,,,,,,,,,,,,,,,,,,,0,0,0,0,0,0,0,0,0,0,0,0,0,0,0,0,,,,,,,,,,,
609578,1745095322036,0.0,201.61,,0.1,-0.11,0.98,2,-0,-1,0.99,1.17,85,10440,17.4,2.76,,8.13,0.992,93.4,,65.4,5,2,0,2,2,0.0,0.0,0.0,0.0,2.26,,,0,0,0,0,0,0,0,0,0,0,0,0,0,0,0,0,0,,,,0.0,39.240089,-77.965401,3.33,35,3,0.8
609598,1745095322056,,,,,,,,,,,,,,,,,,,,,,,,,,,,,,,,,,0,0,0,0,0,0,0,0,0,0,0,0,0,0,0,0,,,,,,,,,,,
609618,1745095322076,0.0,201.48,,0.14,-0.1,1.04,2,-0,-0,1.05,1.17,90,10440,17.4,2.76,,8.13,0.992,93.4,,65.4,5,,,,,,,,,,,,0,0,0,0,0,0,0,0,0,0,0,0,0,0,0,0,,,,,0.0,,,,,,
609638,1745095322102,,,,,,,,,,,,,,,,,,,,,,,,,,,,,,,,,,0,0,0,0,0,0,0,0,0,0,0,0,0,0,0,0,,,,,,,,,,,
609658,1745095322122,0.0,201.36,,0.17,0.02,0.94,2,-0,-1,0.96,1.17,82,10496,17.5,2.73,,8.1,0.996,93.4,,65.4,5,,,,,,,,,,,,0,0,0,0,0,0,0,0,0,0,0,0,0,0,0,0,,,,,0.0,,,,,,
609678,1745095322142,,,,,,,,,,,,,,,,,,,,,,,2,0,2,2,0.0,0.0,0.0,0.0,2.25,,,0,0,0,0,0,0,0,0,0,0,0,0,0,0,0,0,0,,,,,39.240089,-77.965401,3.58,35,3,0.8
609698,1745095322162,0.0,201.23,,0.18,0.0,0.93,2,-0,-1,0.94,1.17,81,10236,17.5,2.72,,8.15,1.001,93.4,,65.4,5,,,,,,,,,,,,0,0,0,0,0,0,0,0,0,0,0,0,0,0,0,0,,,,,0.0,,,,,,
609718,1745095322182,,,,,,,,,,,,,,,,,,,,,,,,,,,,,,,,,,0,0,0,0,0,0,0,0,0,0,0,0,0,0,0,0,,,,,,,,,,,
609738,1745095322200,0.0,201.11,,0.2,-0.02,0.9,3,-0,-0,0.92,1.17,79,9879,16.8,2.8,,8.07,1.002,93.4,,64.7,5,,,,,,,,,,,,0,0,0,0,0,0,0,0,0,0,0,0,0,0,0,0,,,,,0.0,,,,,,
609758,1745095322220,,,,,,,,,,,,,,,,,,,,,,,,,,,,,,,,,,0,0,0,0,0,0,0,0,0,0,0,0,0,0,0,0,,,,,,,,,,,
609778,1745095322240,0.0,200.98,,0.18,-0.12,0.92,2,-0,0,0.95,1.17,81,9592,15.9,2.64,,8.06,0.995,93.4,,64.7,5,3,0,3,3,0.0,0.0,0.0,0.0,2.26,,,0,0,0,0,0,0,0,0,0,0,0,0,0,0,0,0,0,,,,0.0,39.240089,-77.965401,4.06,35,3,0.8
609798,1745095322260,,,,,,,,,,,,,,,,,,,,,,,,,,,,,,,,,,0,0,0,0,0,0,0,0,0,0,0,0,0,0,0,0,,,,,,,,,,,
609818,1745095322280,0.0,200.85,,0.18,-0.02,0.88,2,-0,-0,0.9,1.17,77,9592,15.9,2.64,,8.06,0.995,93.4,,64.1,5,,,,,,,,,,,,0,0,0,0,0,0,0,0,0,0,0,0,0,0,0,0,,,,,0.0,,,,,,
609838,1745095322304,,,,,,,,,,,,,,,,,,,,,,,,,,,,,,,,,,0,0,0,0,0,0,0,0,0,0,0,0,0,0,0,0,,,,,,,,,,,
609858,1745095322324,0.0,200.73,,0.19,-0.12,0.94,1,-0,-0,0.97,1.17,83,9255,15.7,2.63,,8.09,0.983,93.4,,64.1,5,,,,,,,,,,,,0,0,0,0,0,0,0,0,0,0,0,0,0,0,0,0,,,,,0.0,,,,,,
609878,1745095322344,,,,,,,,,,,,,,,,,,,,,,,4,0,4,4,0.0,0.0,0.0,0.0,2.26,,,0,0,0,0,0,0,0,0,0,0,0,0,0,0,0,0,0,,,,,39.240086,-77.965408,5.19,35,3,0.8
609898,1745095322364,0.0,200.6,,0.21,-0.17,0.93,1,-0,0,0.97,1.17,83,8960,15.5,2.6,,8.15,0.976,93.4,,64.1,5,,,,,,,,,,,,0,0,0,0,0,0,0,0,0,0,0,0,0,0,0,0,,,,,0.0,,,,,,
609918,1745095322384,,,,,,,,,,,,,,,,,,,,,,,,,,,,,,,,,,0,0,0,0,0,0,0,0,0,0,0,0,0,0,0,0,,,,,,,,,,,
609938,1745095322402,0.0,200.48,,0.2,-0.07,0.97,0,-0,0,1.0,1.17,85,8548,15.5,2.67,,8.45,0.978,93.4,,62.0,5,,,,,,,,,,,,0,0,0,0,0,0,0,0,0,0,0,0,0,0,0,0,,,,,0.0,,,,,,
609958,1745095322422,,,,,,,,,,,,,,,,,,,,,,,,,,,,,,,,,,0,0,0,0,0,0,0,0,0,0,0,0,0,0,0,0,,,,,,,,,,,
609978,1745095322442,0.0,200.35,,0.22,-0.12,0.98,-0,-0,0,1.01,1.17,87,8121,15.3,2.81,,8.45,0.978,93.4,,62.0,5,4,0,4,4,0.0,0.0,0.0,0.0,2.26,,,0,0,0,0,0,0,0,0,0,0,0,0,0,0,0,0,0,,,,0.0,39.240086,-77.965408,6.32,35,3,0.8
609998,1745095322462,,,,,,,,,,,,,,,,,,,,,,,,,,,,,,,,,,0,0,0,0,0,0,0,0,0,0,0,0,0,0,0,0,,,,,,,,,,,
610018,1745095322482,0.0,200.23,,0.23,-0.13,1.01,2,-0,-0,1.04,1.17,89,8121,15.3,2.81,,8.81,0.989,93.4,,58.3,5,,,,,,,,,,,,0,0,0,0,0,0,0,0,0,0,0,0,0,0,0,0,,,,,0.0,,,,,,
610038,1745095322504,,,,,,,,,,,,,,,,,,,,,,,,,,,,,,,,,,0,0,0,0,0,0,0,0,0,0,0,0,0,0,0,0,,,,,,,,,,,
610058,1745095322524,0.0,200.1,,0.25,-0.17,0.98,3,-0,-1,1.02,1.17,88,7503,15.2,3.0,,9.15,0.995,93.4,,58.3,5,,,,,,,,,,,,0,0,0,0,0,0,0,0,0,0,0,0,0,0,0,0,,,,,0.0,,,,,,
610078,1745095322544,,,,,,,,,,,,,,,,,,,,,,,5,0,5,5,0.0,0.0,0.0,0.0,2.26,,,0,0,0,0,0,0,0,0,0,0,0,0,0,0,0,0,0,,,,,39.240086,-77.965408,7.72,35,3,0.8
610098,1745095322564,0.0,200.1,,0.24,-0.19,0.97,2,-0,-0,1.02,1.17,87,6898,15.2,3.33,,9.57,1.011,93.4,,55.2,5,,,,,,,,,,,,0,0,0,0,0,0,0,0,0,0,0,0,0,0,0,0,,,,,0.0,,,,,,
610118,1745095322584,,,,,,,,,,,,,,,,,,,,,,,,,,,,,,,,,,0,0,0,0,0,0,0,0,0,0,0,0,0,0,0,0,,,,,,,,,,,
610138,1745095322604,0.0,200.1,,0.24,-0.11,1.05,2,-0,-0,1.08,1.17,93,6398,15.3,3.17,,10.18,1.039,93.4,,55.2,5,,,,,,,,,,,,0,0,0,0,0,0,0,0,0,0,0,0,0,0,0,0,,,,,0.0,,,,,,
610158,1745095322624,,,,,,,,,,,,,,,,,,,,,,,,,,,,,,,,,,0,0,0,0,0,0,0,0,0,0,0,0,0,0,0,0,,,,,,,,,,,
610178,1745095322644,0.0,200.23,,0.27,-0.03,1.16,3,-0,-0,1.19,1.19,100,5862,15.3,3.02,,10.86,1.025,93.4,,55.2,5,6,0,6,6,0.0,0.0,0.0,0.0,2.26,,,0,0,0,0,0,0,0,0,0,0,0,0,0,0,0,0,0,,,,0.0,39.240082,-77.965408,9.27,35,3,0.8
610198,1745095322664,,,,,,,,,,,,,,,,,,,,,,,,,,,,,,,,,,0,0,0,0,0,0,0,0,0,0,0,0,0,0,0,0,,,,,,,,,,,
