"Interval"|"ms"|0|0|1,"Utc"|"ms"|0|0|1,"FrontBP"|"psi"|-5.0|5.0|25,"SteerAng"|"Degrees"|-145.0|145.0|25,"Battery"|"Volts"|-5.0|20.0|1,"AccelX"|"G"|-3.0|3.0|25,"AccelY"|"G"|-3.0|3.0|25,"AccelZ"|"G"|-3.0|3.0|25,"Yaw"|"Deg/Sec"|-120|120|25,"Pitch"|"Deg/Sec"|-120|120|25,"Roll"|"Deg/Sec"|-120|120|25,"Gsum"|"G"|0.0|3.0|25,"GsumMax"|"G"|0.0|3.0|25,"GsumPct"|"%"|0|100|25,"RPM"|""|0|10000|25,"TPS"|"%"|0.0|100.0|25,"InjectorPW"|"ms"|0.0|100.0|25,"Baro"|"kPa"|0|105|1,"MAP"|"Psi"|0.0|255.0|25,"Lambda"|""|-2.0|2.0|25,"IAT"|"C"|0.0|200.0|25,"EngineTemp"|"C"|0|200|1,"EOP"|"PSI"|0.0|152.0|25,"EOT"|"F"|0|250|25,"WSFR"|"MPH"|0|150|10,"WSFL"|"MPH"|0|100|10,"WSRR"|"MPH"|0|100|10,"WSRL"|""|0|100|10,"TCSet"|"%"|0.0|100.0|10,"TCSlip"|"%"|0.0|100.0|10,"TCComp"|"deg"|0.0|50.0|10,"TCCut"|"%"|0.0|100.0|10,"Analog8"|""|0.0|5.0|10,"OilTemp"|"F"|0|300|1,"AA_On"|""|0.0|1.0|1,"ThermLF1"|"C"|0|400|50,"ThermLF2"|"C"|0|400|50,"ThermRR1"|"C"|0|400|50,"ThermRR2"|"C"|0|400|50,"ThermLF3"|"C"|0|400|50,"ThermLF4"|"C"|0|400|50,"ThermLF5"|"C"|0|400|50,"ThermLF6"|"C"|0|400|50,"ThermLF7"|"C"|0|400|50,"ThermLF8"|"C"|0|400|50,"ThermRR3"|"C"|0|400|50,"ThermRR4"|"C"|0|400|50,"ThermRR5"|"C"|0|400|50,"ThermRR6"|"C"|0|400|50,"ThermRR7"|"C"|0|400|50,"ThermRR8"|"C"|0|400|50,"Gear"|""|1|6|10,"AA_On"|""|0.0|1.0|1,"AA_LowDrag"|""|0|1|1,"Fuel_Mix"|""|-10|10|1,"AA_Packages"|""|0.0|1000.0|25,"Latitude"|"Degrees"|-180.0|180.0|10,"Longitude"|"Degrees"|-180.0|180.0|10,"Speed"|"kph"|0.0|150.0|10,"GPSSats"|""|0|20|10,"GPSQual"|""|0|5|10,"GPSDOP"|""|0.0|20.0|10
556198,1745095268660,,,,,,,,,,,,,,,,,,,,,,,,,,,,,,,,,,0,0,0,0,0,0,0,0,0,0,0,0,0,0,0,0,,,,,,,,,,,
556218,1745095268680,0.0,207.39,,-0.09,-0.01,1.03,-0,-0,0,1.04,1.04,100,5338,19.0,3.99,,12.56,1.133,98.8,,58.5,5,,,,,,,,,,,,0,0,0,0,0,0,0,0,0,0,0,0,0,0,0,0,,,,,0.0,,,,,,
556238,1745095268700,,,,,,,,,,,,,,,,,,,,,,,,,,,,,,,,,,0,0,0,0,0,0,0,0,0,0,0,0,0,0,0,0,,,,,,,,,,,
556258,1745095268720,0.0,207.26,,-0.08,0.0,1.02,-0,-0,0,1.03,1.04,99,5162,18.9,3.97,,12.56,1.096,98.8,,58.5,5,,,,,,,,,,,,0,0,0,0,0,0,0,0,0,0,0,0,0,0,0,0,,,,,0.0,,,,,,
556278,1745095268740,,,,,,,,,,,,,,,,,,,,,,,0,0,0,0,0.0,0.0,0.0,0.0,2.26,,,0,0,0,0,0,0,0,0,0,0,0,0,0,0,0,0,0,,,,,39.240185,-77.964806,0.15,35,3,0.8
556298,1745095268760,0.0,207.26,,-0.04,0.03,1.09,-0,-0,0,1.09,1.09,100,5348,12.4,4.0,,12.45,1.18,98.8,,58.5,5,,,,,,,,,,,,0,0,0,0,0,0,0,0,0,0,0,0,0,0,0,0,,,,,0.0,,,,,,
556318,1745095268780,,,,,,,,,,,,,,,,,,,,,,,,,,,,,,,,,,0,0,0,0,0,0,0,0,0,0,0,0,0,0,0,0,,,,,,,,,,,
556338,1745095268800,0.0,207.26,,-0.01,-0.07,1.02,1,-0,-0,1.03,1.09,94,5794,0.0,1.62,,11.02,1.102,98.8,,61.9,5,,,,,,,,,,,,0,0,0,0,0,0,0,0,0,0,0,0,0,0,0,0,,,,,0.0,,,,,,
556358,1745095268820,,,,,,,,,,,,,,,,,,,,,,,,,,,,,,,,,,0,0,0,0,0,0,0,0,0,0,0,0,0,0,0,0,,,,,,,,,,,
556378,1745095268840,0.0,207.26,13.3,-0.02,-0.19,0.9,1,-0,-1,0.92,1.09,84,5860,0.0,1.4,15,11.02,1.102,98.8,135,61.9,5,0,0,0,0,0.0,0.0,0.0,0.0,2.26,0,0.0,0,0,0,0,0,0,0,0,0,0,0,0,0,0,0,0,0,0.0,0,0,0.0,39.240185,-77.964806,0.14,35,3,0.8
556398,1745095268860,,,,,,,,,,,,,,,,,,,,,,,,,,,,,,,,,,0,0,0,0,0,0,0,0,0,0,0,0,0,0,0,0,,,,,,,,,,,
556418,1745095268880,0.0,207.14,,-0.07,-0.14,0.89,-1,-0,-0,0.9,1.09,83,5860,0.0,1.4,,10.06,1.026,98.8,,60.7,5,,,,,,,,,,,,0,0,0,0,0,0,0,0,0,0,0,0,0,0,0,0,,,,,0.0,,,,,,
556438,1745095268903,,,,,,,,,,,,,,,,,,,,,,,,,,,,,,,,,,0,0,0,0,0,0,0,0,0,0,0,0,0,0,0,0,,,,,,,,,,,
556458,1745095268923,0.0,207.14,,-0.06,-0.1,0.93,0,-0,-0,0.94,1.09,86,5639,0.0,1.4,,9.65,1.032,98.8,,60.7,5,,,,,,,,,,,,0,0,0,0,0,0,0,0,0,0,0,0,0,0,0,0,,,,,0.0,,,,,,
556478,1745095268943,,,,,,,,,,,,,,,,,,,,,,,0,0,0,0,0.0,0.0,0.0,0.0,2.27,,,0,0,0,0,0,0,0,0,0,0,0,0,0,0,0,0,0,,,,,39.240185,-77.964806,0.07,35,3,0.8
556498,1745095268963,0.0,207.26,,-0.05,-0.06,0.95,-0,-0,0,0.95,1.09,87,5455,0.0,1.4,,9.45,1.054,98.8,,60.7,5,,,,,,,,,,,,0,0,0,0,0,0,0,0,0,0,0,0,0,0,0,0,,,,,0.0,,,,,,
556518,1745095268983,,,,,,,,,,,,,,,,,,,,,,,,,,,,,,,,,,0,0,0,0,0,0,0,0,0,0,0,0,0,0,0,0,,,,,,,,,,,
556538,1745095268995,0.0,207.14,,-0.05,-0.05,0.92,-0,-0,0,0.92,1.09,85,5227,0.0,1.4,,9.41,1.1,98.8,,56.2,5,,,,,,,,,,,,0,0,0,0,0,0,0,0,0,0,0,0,0,0,0,0,,,,,0.0,,,,,,
556558,1745095269015,,,,,,,,,,,,,,,,,,,,,,,,,,,,,,,,,,0,0,0,0,0,0,0,0,0,0,0,0,0,0,0,0,,,,,,,,,,,
556578,1745095269035,0.0,207.14,,-0.08,0.03,0.97,-0,-0,0,0.97,1.09,89,4915,0.2,1.59,,9.41,1.1,98.8,,56.2,5,0,0,0,0,0.0,0.0,0.0,0.0,2.26,,,0,0,0,0,0,0,0,0,0,0,0,0,0,0,0,0,0,,,,0.0,39.240185,-77.964806,0.04,35,3,0.8
556598,1745095269055,,,,,,,,,,,,,,,,,,,,,,,,,,,,,,,,,,0,0,0,0,0,0,0,0,0,0,0,0,0,0,0,0,,,,,,,,,,,
556618,1745095269075,0.0,207.14,,-0.08,-0.05,0.91,-0,-0,0,0.91,1.09,84,4915,0.2,1.59,,9.45,1.166,98.8,,54.1,5,,,,,,,,,,,,0,0,0,0,0,0,0,0,0,0,0,0,0,0,0,0,,,,,0.0,,,,,,
556638,1745095269103,,,,,,,,,,,,,,,,,,,,,,,,,,,,,,,,,,0,0,0,0,0,0,0,0,0,0,0,0,0,0,0,0,,,,,,,,,,,
556658,1745095269123,0.0,207.14,,-0.04,-0.14,0.82,1,-0,-0,0.83,1.09,77,4662,0.5,1.68,,9.54,1.241,98.8,,54.1,5,,,,,,,,,,,,0,0,0,0,0,0,0,0,0,0,0,0,0,0,0,0,,,,,0.0,,,,,,
556678,1745095269143,,,,,,,,,,,,,,,,,,,,,,,0,0,0,0,0.0,0.0,0.0,0.0,2.26,,,0,0,0,0,0,0,0,0,0,0,0,0,0,0,0,0,0,,,,,39.240185,-77.964806,0.11,35,3,0.8
556698,1745095269163,0.0,207.14,,-0.0,-0.21,0.74,1,-0,-1,0.77,1.09,71,4522,0.6,1.71,,9.73,1.252,98.8,,54.1,5,,,,,,,,,,,,0,0,0,0,0,0,0,0,0,0,0,0,0,0,0,0,,,,,0.0,,,,,,
556718,1745095269183,,,,,,,,,,,,,,,,,,,,,,,,,,,,,,,,,,0,0,0,0,0,0,0,0,0,0,0,0,0,0,0,0,,,,,,,,,,,
556738,1745095269203,0.0,207.14,,-0.04,-0.12,0.86,0,-0,-0,0.87,1.09,80,4264,0.5,1.73,,9.88,1.184,98.8,,54.0,5,,,,,,,,,,,,0,0,0,0,0,0,0,0,0,0,0,0,0,0,0,0,,,,,0.0,,,,,,
556758,1745095269223,,,,,,,,,,,,,,,,,,,,,,,,,,,,,,,,,,0,0,0,0,0,0,0,0,0,0,0,0,0,0,0,0,,,,,,,,,,,
556778,1745095269243,0.0,207.14,,-0.04,-0.19,0.84,1,-0,-1,0.86,1.09,79,4036,0.9,1.87,,9.88,1.184,98.8,,54.0,5,0,0,0,0,0.0,0.0,0.0,0.0,2.26,,,0,0,0,0,0,0,0,0,0,0,0,0,0,0,0,0,0,,,,0.0,39.240185,-77.964806,0.05,35,3,0.8
556798,1745095269263,,,,,,,,,,,,,,,,,,,,,,,,,,,,,,,,,,0,0,0,0,0,0,0,0,0,0,0,0,0,0,0,0,,,,,,,,,,,
556818,1745095269283,0.0,207.14,,-0.05,-0.15,0.88,1,-0,-1,0.89,1.09,82,4036,0.9,1.87,,10.04,1.138,98.8,,49.2,5,,,,,,,,,,,,0,0,0,0,0,0,0,0,0,0,0,0,0,0,0,0,,,,,0.0,,,,,,
556838,1745095269303,,,,,,,,,,,,,,,,,,,,,,,,,,,,,,,,,,0,0,0,0,0,0,0,0,0,0,0,0,0,0,0,0,,,,,,,,,,,
556858,1745095269323,0.0,207.14,,-0.06,-0.18,0.9,1,-0,-1,0.92,1.09,84,3746,1.2,2.01,,10.36,1.146,98.8,,49.2,5,,,,,,,,,,,,0,0,0,0,0,0,0,0,0,0,0,0,0,0,0,0,,,,,0.0,,,,,,
556878,1745095269343,,,,,,,,,,,,,,,,,,,,,,,0,0,0,0,0.0,0.0,0.0,0.0,2.27,,,0,0,0,0,0,0,0,0,0,0,0,0,0,0,0,0,0,,,,,39.240185,-77.964806,0.08,35,3,0.8
556898,1745095269363,0.0,207.14,,-0.05,-0.09,0.95,0,-0,-0,0.96,1.09,88,3528,1.4,2.19,,10.7,1.195,98.8,,49.2,5,,,,,,,,,,,,0,0,0,0,0,0,0,0,0,0,0,0,0,0,0,0,,,,,0.0,,,,,,
556918,1745095269383,,,,,,,,,,,,,,,,,,,,,,,,,,,,,,,,,,0,0,0,0,0,0,0,0,0,0,0,0,0,0,0,0,,,,,,,,,,,
556938,1745095269403,0.0,207.01,,-0.05,-0.09,0.88,1,-0,-0,0.89,1.09,81,3392,1.5,2.58,,11.09,1.245,98.8,,42.4,5,,,,,,,,,,,,0,0,0,0,0,0,0,0,0,0,0,0,0,0,0,0,,,,,0.0,,,,,,
556958,1745095269423,,,,,,,,,,,,,,,,,,,,,,,,,,,,,,,,,,0,0,0,0,0,0,0,0,0,0,0,0,0,0,0,0,,,,,,,,,,,
556978,1745095269443,0.0,207.14,,-0.03,0.01,0.89,0,-0,0,0.89,1.09,82,3232,1.7,2.98,,11.09,1.245,98.8,,42.4,5,0,0,0,0,0.0,0.0,0.0,0.0,2.27,,,0,0,0,0,0,0,0,0,0,0,0,0,0,0,0,0,0,,,,0.0,39.240185,-77.964806,0.08,35,3,0.8
556998,1745095269463,,,,,,,,,,,,,,,,,,,,,,,,,,,,,,,,,,0,0,0,0,0,0,0,0,0,0,0,0,0,0,0,0,,,,,,,,,,,
557018,1745095269483,0.0,207.14,,-0.01,-0.01,0.96,-0,-0,0,0.96,1.09,88,3232,1.7,2.98,,11.33,1.253,98.8,,37.4,5,,,,,,,,,,,,0,0,0,0,0,0,0,0,0,0,0,0,0,0,0,0,,,,,0.0,,,,,,
557038,1745095269499,,,,,,,,,,,,,,,,,,,,,,,,,,,,,,,,,,0,0,0,0,0,0,0,0,0,0,0,0,0,0,0,0,,,,,,,,,,,
557058,1745095269519,0.0,207.14,,-0.01,-0.05,1.0,-0,-0,0,1.0,1.09,92,3029,1.8,3.09,,11.64,1.255,98.8,,37.4,5,,,,,,,,,,,,0,0,0,0,0,0,0,0,0,0,0,0,0,0,0,0,,,,,0.0,,,,,,
557078,1745095269539,,,,,,,,,,,,,,,,,,,,,,,0,0,0,0,0.0,0.0,0.0,0.0,2.26,,,0,0,0,0,0,0,0,0,0,0,0,0,0,0,0,0,0,,,,,39.240185,-77.964806,0.08,35,3,0.8
557098,1745095269559,0.0,207.14,,-0.01,-0.02,0.98,-0,-0,1,0.98,1.09,90,2873,1.9,3.13,,11.91,1.256,98.8,,37.4,5,,,,,,,,,,,,0,0,0,0,0,0,0,0,0,0,0,0,0,0,0,0,,,,,0.0,,,,,,
557118,1745095269579,,,,,,,,,,,,,,,,,,,,,,,,,,,,,,,,,,0,0,0,0,0,0,0,0,0,0,0,0,0,0,0,0,,,,,,,,,,,
557138,1745095269599,0.0,207.14,,-0.01,-0.02,0.97,-0,-0,0,0.98,1.09,90,2712,2.1,3.17,,12.17,1.255,98.8,,32.3,5,,,,,,,,,,,,0,0,0,0,0,0,0,0,0,0,0,0,0,0,0,0,,,,,0.0,,,,,,
557158,1745095269619,,,,,,,,,,,,,,,,,,,,,,,,,,,,,,,,,,0,0,0,0,0,0,0,0,0,0,0,0,0,0,0,0,,,,,,,,,,,
557178,1745095269639,0.0,207.14,,-0.02,-0.01,0.97,-0,-0,0,0.97,1.09,90,2593,2.3,3.22,,12.17,1.255,98.8,,32.3,5,0,0,0,0,0.0,0.0,0.0,0.0,2.26,,,0,0,0,0,0,0,0,0,0,0,0,0,0,0,0,0,0,,,,0.0,39.240185,-77.964806,0.0,35,3,0.8
557198,1745095269659,,,,,,,,,,,,,,,,,,,,,,,,,,,,,,,,,,0,0,0,0,0,0,0,0,0,0,0,0,0,0,0,0,,,,,,,,,,,
557218,1745095269679,0.0,207.14,,-0.02,-0.03,0.99,-0,-0,0,0.99,1.09,91,2593,2.3,3.22,,12.43,1.253,98.8,,29.2,5,,,,,,,,,,,,0,0,0,0,0,0,0,0,0,0,0,0,0,0,0,0,,,,,0.0,,,,,,
557238,1745095269699,,,,,,,,,,,,,,,,,,,,,,,,,,,,,,,,,,0,0,0,0,0,0,0,0,0,0,0,0,0,0,0,0,,,,,,,,,,,
557258,1745095269719,0.0,207.01,,-0.03,-0.04,1.0,-0,-0,0,1.0,1.09,92,2477,2.4,3.29,,12.69,1.253,98.8,,29.2,5,,,,,,,,,,,,0,0,0,0,0,0,0,0,0,0,0,0,0,0,0,0,,,,,0.0,,,,,,
557278,1745095269739,,,,,,,,,,,,,,,,,,,,,,,0,0,0,0,0.0,0.0,0.0,0.0,2.26,,,0,0,0,0,0,0,0,0,0,0,0,0,0,0,0,0,0,,,,,39.240185,-77.964806,0.05,35,3,0.8
557298,1745095269759,0.0,207.01,,-0.03,-0.03,0.99,-0,-0,0,0.99,1.09,91,2294,3.4,3.36,,13.0,1.253,98.8,,29.2,5,,,,,,,,,,,,0,0,0,0,0,0,0,0,0,0,0,0,0,0,0,0,,,,,0.0,,,,,,
557318,1745095269779,,,,,,,,,,,,,,,,,,,,,,,,,,,,,,,,,,0,0,0,0,0,0,0,0,0,0,0,0,0,0,0,0,,,,,,,,,,,
557338,1745095269799,0.0,207.14,,-0.03,-0.04,1.0,-0,-0,0,1.0,1.09,92,2158,4.3,3.58,,13.31,1.252,98.8,,25.7,5,,,,,,,,,,,,0,0,0,0,0,0,0,0,0,0,0,0,0,0,0,0,,,,,0.0,,,,,,
557358,1745095269819,,,,,,,,,,,,,,,,,,,,,,,,,,,,,,,,,,0,0,0,0,0,0,0,0,0,0,0,0,0,0,0,0,,,,,,,,,,,
557378,1745095269839,0.0,207.14,13.3,-0.04,-0.03,1.01,-0,-0,0,1.01,1.09,93,2470,4.6,3.59,15,13.31,1.252,98.8,135,25.7,5,0,0,0,0,0.0,0.0,0.0,0.0,2.27,0,0.0,0,0,0,0,0,0,0,0,0,0,0,0,0,0,0,0,0,0.0,0,-0,0.0,39.240185,-77.964806,0.34,35,3,0.8
557398,1745095269859,,,,,,,,,,,,,,,,,,,,,,,,,,,,,,,,,,0,0,0,0,0,0,0,0,0,0,0,0,0,0,0,0,,,,,,,,,,,
557418,1745095269879,0.0,207.14,,-0.04,-0.02,1.01,-0,-0,0,1.01,1.09,93,2470,4.6,3.59,,13.33,1.253,98.8,,26.9,5,,,,,,,,,,,,0,0,0,0,0,0,0,0,0,0,0,0,0,0,0,0,,,,,0.0,,,,,,
557438,1745095269904,,,,,,,,,,,,,,,,,,,,,,,,,,,,,,,,,,0,0,0,0,0,0,0,0,0,0,0,0,0,0,0,0,,,,,,,,,,,
557458,1745095269924,0.0,207.14,,-0.04,-0.01,1.0,-0,-0,0,1.01,1.09,92,2304,4.8,3.6,,13.41,1.253,98.8,,26.9,5,,,,,,,,,,,,0,0,0,0,0,0,0,0,0,0,0,0,0,0,0,0,,,,,0.0,,,,,,
557478,1745095269944,,,,,,,,,,,,,,,,,,,,,,,0,0,0,0,0.0,0.0,0.0,0.0,2.26,,,0,0,0,0,0,0,0,0,0,0,0,0,0,0,0,0,0,,,,,39.240185,-77.964806,0.5,35,3,0.8
557498,1745095269964,0.0,207.14,,-0.05,-0.0,1.01,-0,-0,0,1.01,1.09,93,2343,7.9,3.59,,13.53,1.253,98.8,,26.9,5,,,,,,,,,,,,0,0,0,0,0,0,0,0,0,0,0,0,0,0,0,0,,,,,0.0,,,,,,
557518,1745095269984,,,,,,,,,,,,,,,,,,,,,,,,,,,,,,,,,,0,0,0,0,0,0,0,0,0,0,0,0,0,0,0,0,,,,,,,,,,,
557538,1745095269994,0.0,207.14,,-0.05,-0.02,1.01,0,-0,0,1.01,1.09,93,2493,8.1,3.58,,13.56,1.255,98.8,,27.2,5,,,,,,,,,,,,0,0,0,0,0,0,0,0,0,0,0,0,0,0,0,0,,,,,0.0,,,,,,
557558,1745095270014,,,,,,,,,,,,,,,,,,,,,,,,,,,,,,,,,,0,0,0,0,0,0,0,0,0,0,0,0,0,0,0,0,,,,,,,,,,,
557578,1745095270034,0.0,207.14,,-0.06,-0.01,0.99,0,-0,0,0.99,1.09,91,2470,8.4,3.64,,13.56,1.255,98.8,,27.2,5,0,0,0,0,0.0,0.0,0.0,0.0,2.26,,,0,0,0,0,0,0,0,0,0,0,0,0,0,0,0,0,0,,,,0.0,39.240185,-77.964806,0.19,35,3,0.8
557598,1745095270054,,,,,,,,,,,,,,,,,,,,,,,,,,,,,,,,,,0,0,0,0,0,0,0,0,0,0,0,0,0,0,0,0,,,,,,,,,,,
557618,1745095270074,0.0,207.14,,-0.04,-0.0,0.97,0,-0,0,0.97,1.09,89,2470,8.4,3.64,,13.59,1.256,98.8,,28.1,5,,,,,,,,,,,,0,0,0,0,0,0,0,0,0,0,0,0,0,0,0,0,,,,,0.0,,,,,,
557638,1745095270098,,,,,,,,,,,,,,,,,,,,,,,,,,,,,,,,,,0,0,0,0,0,0,0,0,0,0,0,0,0,0,0,0,,,,,,,,,,,
557658,1745095270118,0.0,207.01,,-0.05,0.01,0.97,0,-0,0,0.97,1.09,89,2411,8.5,3.62,,13.59,1.255,98.8,,28.1,5,,,,,,,,,,,,0,0,0,0,0,0,0,0,0,0,0,0,0,0,0,0,,,,,0.0,,,,,,
557678,1745095270138,,,,,,,,,,,,,,,,,,,,,,,0,0,0,0,0.0,0.0,0.0,0.0,2.26,,,0,0,0,0,0,0,0,0,0,0,0,0,0,0,0,0,0,,,,,39.240185,-77.964806,0.07,35,3,0.8
557698,1745095270158,0.0,207.01,,-0.06,0.02,0.97,0,-0,0,0.97,1.09,89,2285,8.7,3.61,,13.67,1.253,98.8,,28.1,5,,,,,,,,,,,,0,0,0,0,0,0,0,0,0,0,0,0,0,0,0,0,,,,,0.0,,,,,,
557718,1745095270178,,,,,,,,,,,,,,,,,,,,,,,,,,,,,,,,,,0,0,0,0,0,0,0,0,0,0,0,0,0,0,0,0,,,,,,,,,,,
557738,1745095270204,0.0,207.01,,-0.05,0.02,0.97,0,-0,0,0.98,1.09,90,2318,8.6,3.6,,13.69,1.252,98.8,,27.0,5,,,,,,,,,,,,0,0,0,0,0,0,0,0,0,0,0,0,0,0,0,0,,,,,0.0,,,,,,
557758,1745095270224,,,,,,,,,,,,,,,,,,,,,,,,,,,,,,,,,,0,0,0,0,0,0,0,0,0,0,0,0,0,0,0,0,,,,,,,,,,,
557778,1745095270244,0.0,207.01,,-0.05,0.04,0.99,0,-0,0,0.99,1.09,91,2299,8.5,3.6,,13.69,1.252,98.8,,27.0,5,0,0,0,0,0.0,0.0,0.0,0.0,2.26,,,0,0,0,0,0,0,0,0,0,0,0,0,0,0,0,0,0,,,,0.0,39.240185,-77.964806,0.0,35,3,0.8
557798,1745095270264,,,,,,,,,,,,,,,,,,,,,,,,,,,,,,,,,,0,0,0,0,0,0,0,0,0,0,0,0,0,0,0,0,,,,,,,,,,,
557818,1745095270284,0.0,207.01,,-0.06,0.03,0.97,0,-0,-0,0.97,1.09,89,2299,8.5,3.6,,13.72,1.252,98.8,,27.2,5,,,,,,,,,,,,0,0,0,0,0,0,0,0,0,0,0,0,0,0,0,0,,,,,0.0,,,,,,
557838,1745095270302,,,,,,,,,,,,,,,,,,,,,,,,,,,,,,,,,,0,0,0,0,0,0,0,0,0,0,0,0,0,0,0,0,,,,,,,,,,,
557858,1745095270322,0.0,207.14,,-0.06,0.03,0.98,0,-0,-0,0.98,1.09,90,2478,8.4,3.59,,13.64,1.251,98.8,,27.2,5,,,,,,,,,,,,0,0,0,0,0,0,0,0,0,0,0,0,0,0,0,0,,,,,0.0,,,,,,
557878,1745095270342,,,,,,,,,,,,,,,,,,,,,,,0,0,0,0,0.0,0.0,0.0,0.0,2.26,,,0,0,0,0,0,0,0,0,0,0,0,0,0,0,0,0,0,,,,,39.240185,-77.964806,0.08,35,3,0.8
557898,1745095270362,0.0,207.01,,-0.05,0.03,0.97,0,-0,0,0.97,1.09,89,2520,8.6,3.65,,13.57,1.252,98.8,,27.2,5,,,,,,,,,,,,0,0,0,0,0,0,0,0,0,0,0,0,0,0,0,0,,,,,0.0,,,,,,
557918,1745095270382,,,,,,,,,,,,,,,,,,,,,,,,,,,,,,,,,,0,0,0,0,0,0,0,0,0,0,0,0,0,0,0,0,,,,,,,,,,,
557938,1745095270402,0.0,206.89,,-0.07,0.03,0.96,0,-0,0,0.96,1.09,89,2434,8.6,3.64,,13.56,1.252,98.8,,28.4,5,,,,,,,,,,,,0,0,0,0,0,0,0,0,0,0,0,0,0,0,0,0,,,,,0.0,,,,,,
557958,1745095270422,,,,,,,,,,,,,,,,,,,,,,,,,,,,,,,,,,0,0,0,0,0,0,0,0,0,0,0,0,0,0,0,0,,,,,,,,,,,
557978,1745095270442,0.0,206.89,,-0.07,0.04,0.97,0,-0,0,0.97,1.09,89,2452,8.6,3.64,,13.56,1.252,98.8,,28.4,5,0,0,0,0,0.0,0.0,0.0,0.0,2.26,,,0,0,0,0,0,0,0,0,0,0,0,0,0,0,0,0,0,,,,0.0,39.240185,-77.964806,0.09,35,3,0.8
557998,1745095270462,,,,,,,,,,,,,,,,,,,,,,,,,,,,,,,,,,0,0,0,0,0,0,0,0,0,0,0,0,0,0,0,0,,,,,,,,,,,
558018,1745095270482,0.0,206.89,,-0.07,0.02,0.99,0,-0,0,0.99,1.09,91,2452,8.6,3.64,,13.57,1.252,98.8,,28.2,5,,,,,,,,,,,,0,0,0,0,0,0,0,0,0,0,0,0,0,0,0,0,,,,,0.0,,,,,,
558038,1745095270498,,,,,,,,,,,,,,,,,,,,,,,,,,,,,,,,,,0,0,0,0,0,0,0,0,0,0,0,0,0,0,0,0,,,,,,,,,,,
558058,1745095270518,0.0,206.89,,-0.07,0.01,0.99,0,-0,0,0.99,1.09,91,2464,8.6,3.61,,13.59,1.253,98.8,,28.2,5,,,,,,,,,,,,0,0,0,0,0,0,0,0,0,0,0,0,0,0,0,0,,,,,0.0,,,,,,
558078,1745095270538,,,,,,,,,,,,,,,,,,,,,,,0,0,0,0,0.0,0.0,0.0,0.0,2.26,,,0,0,0,0,0,0,0,0,0,0,0,0,0,0,0,0,0,,,,,39.240185,-77.964806,0.08,35,3,0.8
558098,1745095270558,0.0,206.89,,-0.07,0.02,0.99,0,-0,0,0.99,1.09,91,2442,8.6,3.61,,13.6,1.254,98.8,,28.2,5,,,,,,,,,,,,0,0,0,0,0,0,0,0,0,0,0,0,0,0,0,0,,,,,0.0,,,,,,
558118,1745095270578,,,,,,,,,,,,,,,,,,,,,,,,,,,,,,,,,,0,0,0,0,0,0,0,0,0,0,0,0,0,0,0,0,,,,,,,,,,,
558138,1745095270598,0.0,206.89,,-0.07,0.02,0.99,0,-0,0,0.99,1.09,91,2358,15.1,3.62,,13.76,1.254,98.8,,27.3,5,,,,,,,,,,,,0,0,0,0,0,0,0,0,0,0,0,0,0,0,0,0,,,,,0.0,,,,,,
558158,1745095270618,,,,,,,,,,,,,,,,,,,,,,,,,,,,,,,,,,0,0,0,0,0,0,0,0,0,0,0,0,0,0,0,0,,,,,,,,,,,
558178,1745095270638,0.0,206.89,,-0.07,0.01,0.99,0,-0,0,0.99,1.09,91,2305,21.8,4.49,,13.76,1.254,98.8,,27.3,5,0,0,0,0,0.0,0.0,0.0,0.0,2.26,,,0,0,0,0,0,0,0,0,0,0,0,0,0,0,0,0,0,,,,0.0,39.240185,-77.964806,0.07,35,3,0.8
558198,1745095270658,,,,,,,,,,,,,,,,,,,,,,,,,,,,,,,,,,0,0,0,0,0,0,0,0,0,0,0,0,0,0,0,0,,,,,,,,,,,
558218,1745095270678,0.0,206.89,,-0.06,-0.01,1.01,-0,-0,0,1.02,1.09,93,2305,21.8,4.49,,14.0,1.253,98.8,,26.4,5,,,,,,,,,,,,0,0,0,0,0,0,0,0,0,0,0,0,0,0,0,0,,,,,0.0,,,,,,
558238,1745095270701,,,,,,,,,,,,,,,,,,,,,,,,,,,,,,,,,,0,0,0,0,0,0,0,0,0,0,0,0,0,0,0,0,,,,,,,,,,,
558258,1745095270721,0.0,206.89,,-0.07,-0.01,1.02,0,-0,0,1.02,1.09,94,2284,22.2,4.5,,14.04,1.252,98.8,,26.4,5,,,,,,,,,,,,0,0,0,0,0,0,0,0,0,0,0,0,0,0,0,0,,,,,0.0,,,,,,
558278,1745095270741,,,,,,,,,,,,,,,,,,,,,,,0,0,0,0,0.0,0.0,0.0,0.0,2.26,,,0,0,0,0,0,0,0,0,0,0,0,0,0,0,0,0,0,,,,,39.240185,-77.964806,0.08,35,3,0.8
558298,1745095270761,0.0,206.89,,-0.07,-0.0,1.01,0,-0,0,1.01,1.09,93,2572,22.2,4.36,,13.98,1.251,98.8,,26.4,5,,,,,,,,,,,,0,0,0,0,0,0,0,0,0,0,0,0,0,0,0,0,,,,,0.0,,,,,,
558318,1745095270781,,,,,,,,,,,,,,,,,,,,,,,,,,,,,,,,,,0,0,0,0,0,0,0,0,0,0,0,0,0,0,0,0,,,,,,,,,,,
558338,1745095270798,0.0,206.89,,-0.08,-0.04,1.06,0,-0,0,1.06,1.09,98,2613,22.3,4.34,,13.95,1.252,98.8,,28.7,5,,,,,,,,,,,,0,0,0,0,0,0,0,0,0,0,0,0,0,0,0,0,,,,,0.0,,,,,,
558358,1745095270818,,,,,,,,,,,,,,,,,,,,,,,,,,,,,,,,,,0,0,0,0,0,0,0,0,0,0,0,0,0,0,0,0,,,,,,,,,,,
558378,1745095270838,0.0,207.01,13.29,-0.09,-0.11,1.13,0,-0,0,1.14,1.14,100,3033,22.3,4.29,15,13.95,1.252,98.8,135,28.7,5,0,0,0,0,0.0,0.0,0.0,0.0,2.27,0,0.0,0,0,0,0,0,0,0,0,0,0,0,0,0,0,0,0,0,0.0,0,-0,0.0,39.240185,-77.964806,0.11,35,3,0.8
558398,1745095270858,,,,,,,,,,,,,,,,,,,,,,,,,,,,,,,,,,0,0,0,0,0,0,0,0,0,0,0,0,0,0,0,0,,,,,,,,,,,
558418,1745095270878,0.0,206.89,,-0.1,-0.18,1.12,1,-0,-1,1.14,1.14,100,3033,22.3,4.29,,13.9,1.252,98.8,,35.7,5,,,,,,,,,,,,0,0,0,0,0,0,0,0,0,0,0,0,0,0,0,0,,,,,0.0,,,,,,
558438,1745095270903,,,,,,,,,,,,,,,,,,,,,,,,,,,,,,,,,,0,0,0,0,0,0,0,0,0,0,0,0,0,0,0,0,,,,,,,,,,,
558458,1745095270923,0.0,206.89,,-0.09,-0.12,1.14,0,-0,0,1.15,1.15,100,3402,21.8,4.24,,13.84,1.252,98.8,,35.7,5,,,,,,,,,,,,0,0,0,0,0,0,0,0,0,0,0,0,0,0,0,0,,,,,0.0,,,,,,
558478,1745095270943,,,,,,,,,,,,,,,,,,,,,,,0,0,0,0,0.0,0.0,0.0,0.0,2.27,,,0,0,0,0,0,0,0,0,0,0,0,0,0,0,0,0,0,,,,,39.240185,-77.964806,0.07,35,3,0.8
558498,1745095270963,0.0,206.89,,-0.07,-0.07,1.09,0,-0,0,1.1,1.15,96,3645,19.3,4.15,,13.61,1.252,98.8,,35.7,5,,,,,,,,,,,,0,0,0,0,0,0,0,0,0,0,0,0,0,0,0,0,,,,,0.0,,,,,,
558518,1745095270983,,,,,,,,,,,,,,,,,,,,,,,,,,,,,,,,,,0,0,0,0,0,0,0,0,0,0,0,0,0,0,0,0,,,,,,,,,,,
558538,1745095270995,0.0,206.89,,-0.05,-0.07,1.09,0,-0,0,1.09,1.15,96,3585,18.9,4.07,,13.49,1.253,98.8,,43.8,5,,,,,,,,,,,,0,0,0,0,0,0,0,0,0,0,0,0,0,0,0,0,,,,,0.0,,,,,,
558558,1745095271015,,,,,,,,,,,,,,,,,,,,,,,,,,,,,,,,,,0,0,0,0,0,0,0,0,0,0,0,0,0,0,0,0,,,,,,,,,,,
558578,1745095271035,0.0,207.01,,-0.05,-0.04,1.1,-0,-0,0,1.1,1.15,96,3831,18.8,4.02,,13.49,1.253,98.8,,43.8,5,0,0,0,0,0.0,0.0,0.0,0.0,2.26,,,0,0,0,0,0,0,0,0,0,0,0,0,0,0,0,0,0,,,,0.0,39.240185,-77.964806,0.0,35,3,0.8
558598,1745095271055,,,,,,,,,,,,,,,,,,,,,,,,,,,,,,,,,,0,0,0,0,0,0,0,0,0,0,0,0,0,0,0,0,,,,,,,,,,,
558618,1745095271075,0.0,207.01,,-0.05,-0.06,1.1,-0,-0,0,1.1,1.15,96,3831,18.8,4.02,,13.41,1.247,98.8,,47.1,5,,,,,,,,,,,,0,0,0,0,0,0,0,0,0,0,0,0,0,0,0,0,,,,,0.0,,,,,,
558638,1745095271095,,,,,,,,,,,,,,,,,,,,,,,,,,,,,,,,,,0,0,0,0,0,0,0,0,0,0,0,0,0,0,0,0,,,,,,,,,,,
558658,1745095271115,0.0,207.01,,-0.07,-0.09,1.03,1,-0,-0,1.03,1.15,90,3858,17.5,3.96,,13.31,1.254,98.8,,47.1,5,,,,,,,,,,,,0,0,0,0,0,0,0,0,0,0,0,0,0,0,0,0,,,,,0.0,,,,,,
558678,1745095271135,,,,,,,,,,,,,,,,,,,,,,,0,0,0,0,0.0,0.0,0.0,0.0,2.26,,,0,0,0,0,0,0,0,0,0,0,0,0,0,0,0,0,0,,,,,39.240185,-77.964806,0.06,35,3,0.8
558698,1745095271155,0.0,207.01,,-0.07,-0.11,0.98,1,-0,-1,0.99,1.15,86,3909,16.5,3.86,,13.23,1.253,98.8,,47.1,5,,,,,,,,,,,,0,0,0,0,0,0,0,0,0,0,0,0,0,0,0,0,,,,,0.0,,,,,,
558718,1745095271175,,,,,,,,,,,,,,,,,,,,,,,,,,,,,,,,,,0,0,0,0,0,0,0,0,0,0,0,0,0,0,0,0,,,,,,,,,,,
558738,1745095271201,0.0,206.89,,-0.07,-0.12,1.0,1,-0,-1,1.01,1.15,88,3817,16.2,3.87,,13.19,1.251,98.8,,47.8,5,,,,,,,,,,,,0,0,0,0,0,0,0,0,0,0,0,0,0,0,0,0,,,,,0.0,,,,,,
558758,1745095271221,,,,,,,,,,,,,,,,,,,,,,,,,,,,,,,,,,0,0,0,0,0,0,0,0,0,0,0,0,0,0,0,0,,,,,,,,,,,
558778,1745095271241,0.0,207.01,,-0.08,-0.08,1.01,1,-0,-1,1.02,1.15,89,3775,16.1,3.87,,13.19,1.251,98.8,,47.8,5,0,0,0,0,0.0,0.0,0.0,0.0,2.26,,,0,0,0,0,0,0,0,0,0,0,0,0,0,0,0,0,0,,,,0.0,39.240185,-77.964806,0.05,35,3,0.8
558798,1745095271261,,,,,,,,,,,,,,,,,,,,,,,,,,,,,,,,,,0,0,0,0,0,0,0,0,0,0,0,0,0,0,0,0,,,,,,,,,,,
558818,1745095271281,0.0,207.01,,-0.06,-0.01,1.02,1,-0,-0,1.02,1.15,89,3775,16.1,3.87,,13.25,1.251,98.8,,46.5,5,,,,,,,,,,,,0,0,0,0,0,0,0,0,0,0,0,0,0,0,0,0,,,,,0.0,,,,,,
558838,1745095271303,,,,,,,,,,,,,,,,,,,,,,,,,,,,,,,,,,0,0,0,0,0,0,0,0,0,0,0,0,0,0,0,0,,,,,,,,,,,
558858,1745095271323,0.0,207.01,,-0.05,0.07,1.04,0,-0,0,1.04,1.15,91,3880,16.0,3.87,,13.23,1.252,98.8,,46.5,5,,,,,,,,,,,,0,0,0,0,0,0,0,0,0,0,0,0,0,0,0,0,,,,,0.0,,,,,,
558878,1745095271343,,,,,,,,,,,,,,,,,,,,,,,0,0,0,0,0.0,0.0,0.0,0.0,2.26,,,0,0,0,0,0,0,0,0,0,0,0,0,0,0,0,0,0,,,,,39.240185,-77.964806,0.0,35,3,0.8
558898,1745095271363,0.0,207.01,,-0.06,0.05,1.04,-0,-0,0,1.05,1.15,91,3801,16.0,3.86,,13.24,1.251,98.8,,46.5,5,,,,,,,,,,,,0,0,0,0,0,0,0,0,0,0,0,0,0,0,0,0,,,,,0.0,,,,,,
558918,1745095271383,,,,,,,,,,,,,,,,,,,,,,,,,,,,,,,,,,0,0,0,0,0,0,0,0,0,0,0,0,0,0,0,0,,,,,,,,,,,
558938,1745095271403,0.0,207.01,,-0.06,0.02,1.03,-0,-0,0,1.03,1.15,90,3850,15.9,3.87,,13.23,1.252,98.8,,46.6,5,,,,,,,,,,,,0,0,0,0,0,0,0,0,0,0,0,0,0,0,0,0,,,,,0.0,,,,,,
558958,1745095271423,,,,,,,,,,,,,,,,,,,,,,,,,,,,,,,,,,0,0,0,0,0,0,0,0,0,0,0,0,0,0,0,0,,,,,,,,,,,
558978,1745095271443,0.0,207.01,,-0.08,0.02,1.04,-0,-0,0,1.05,1.15,91,3833,15.9,3.87,,13.23,1.252,98.8,,46.6,5,0,0,0,0,0.0,0.0,0.0,0.0,2.27,,,0,0,0,0,0,0,0,0,0,0,0,0,0,0,0,0,0,,,,0.0,39.240185,-77.964806,0.0,35,3,0.8
558998,1745095271463,,,,,,,,,,,,,,,,,,,,,,,,,,,,,,,,,,0,0,0,0,0,0,0,0,0,0,0,0,0,0,0,0,,,,,,,,,,,
559018,1745095271483,0.0,207.01,,-0.07,-0.01,1.03,0,-0,0,1.03,1.15,90,3833,15.9,3.87,,13.19,1.252,98.8,,46.2,5,,,,,,,,,,,,0,0,0,0,0,0,0,0,0,0,0,0,0,0,0,0,,,,,0.0,,,,,,
559038,1745095271501,,,,,,,,,,,,,,,,,,,,,,,,,,,,,,,,,,0,0,0,0,0,0,0,0,0,0,0,0,0,0,0,0,,,,,,,,,,,
559058,1745095271521,0.0,207.01,,-0.06,0.01,1.01,0,-0,0,1.02,1.15,89,3736,15.9,3.86,,13.23,1.253,98.8,,46.2,5,,,,,,,,,,,,0,0,0,0,0,0,0,0,0,0,0,0,0,0,0,0,,,,,0.0,,,,,,
559078,1745095271541,,,,,,,,,,,,,,,,,,,,,,,0,0,0,0,0.0,0.0,0.0,0.0,2.26,,,0,0,0,0,0,0,0,0,0,0,0,0,0,0,0,0,0,,,,,39.240185,-77.964806,0.0,35,3,0.8
559098,1745095271561,0.0,207.14,,-0.04,0.04,1.0,0,-0,0,1.0,1.15,87,3705,15.9,3.9,,13.27,1.253,98.8,,46.2,5,,,,,,,,,,,,0,0,0,0,0,0,0,0,0,0,0,0,0,0,0,0,,,,,0.0,,,,,,
559118,1745095271581,,,,,,,,,,,,,,,,,,,,,,,,,,,,,,,,,,0,0,0,0,0,0,0,0,0,0,0,0,0,0,0,0,,,,,,,,,,,
559138,1745095271599,0.0,207.01,,-0.03,0.0,0.96,1,-0,-0,0.96,1.15,84,3472,16.0,3.92,,13.41,1.254,98.8,,44.1,5,,,,,,,,,,,,0,0,0,0,0,0,0,0,0,0,0,0,0,0,0,0,,,,,0.0,,,,,,
559158,1745095271619,,,,,,,,,,,,,,,,,,,,,,,,,,,,,,,,,,0,0,0,0,0,0,0,0,0,0,0,0,0,0,0,0,,,,,,,,,,,
559178,1745095271639,0.0,207.01,,-0.03,0.03,1.03,0,-0,0,1.03,1.15,90,3378,16.1,3.98,,13.41,1.254,98.8,,44.1,5,0,0,0,0,0.0,0.0,0.0,0.0,2.26,,,0,0,0,0,0,0,0,0,0,0,0,0,0,0,0,0,0,,,,0.0,39.240185,-77.964806,0.05,35,3,0.8
559198,1745095271659,,,,,,,,,,,,,,,,,,,,,,,,,,,,,,,,,,0,0,0,0,0,0,0,0,0,0,0,0,0,0,0,0,,,,,,,,,,,
559218,1745095271679,0.0,207.01,,-0.05,-0.02,1.03,1,-0,-0,1.04,1.15,90,3378,16.1,3.98,,13.52,1.254,98.8,,39.0,5,,,,,,,,,,,,0,0,0,0,0,0,0,0,0,0,0,0,0,0,0,0,,,,,0.0,,,,,,
559238,1745095271699,,,,,,,,,,,,,,,,,,,,,,,,,,,,,,,,,,0,0,0,0,0,0,0,0,0,0,0,0,0,0,0,0,,,,,,,,,,,
559258,1745095271719,0.0,207.01,,-0.06,-0.01,1.02,1,-0,-0,1.02,1.15,89,3484,16.1,4.03,,13.53,1.252,98.8,,39.0,5,,,,,,,,,,,,0,0,0,0,0,0,0,0,0,0,0,0,0,0,0,0,,,,,0.0,,,,,,
559278,1745095271739,,,,,,,,,,,,,,,,,,,,,,,0,0,0,0,0.0,0.0,0.0,0.0,2.27,,,0,0,0,0,0,0,0,0,0,0,0,0,0,0,0,0,0,,,,,39.240181,-77.964806,0.46,35,3,0.8
559298,1745095271759,0.0,207.26,,-0.06,-0.0,1.04,1,-0,-1,1.04,1.15,91,2917,16.0,4.08,,13.59,1.251,98.8,,39.0,5,,,,,,,,,,,,0,0,0,0,0,0,0,0,0,0,0,0,0,0,0,0,,,,,0.0,,,,,,
559318,1745095271779,,,,,,,,,,,,,,,,,,,,,,,,,,,,,,,,,,0,0,0,0,0,0,0,0,0,0,0,0,0,0,0,0,,,,,,,,,,,
559338,1745095271799,0.0,207.14,,-0.06,-0.0,1.07,1,-0,-0,1.07,1.15,93,2781,15.9,4.12,,13.75,1.251,98.8,,34.4,5,,,,,,,,,,,,0,0,0,0,0,0,0,0,0,0,0,0,0,0,0,0,,,,,0.0,,,,,,
559358,1745095271819,,,,,,,,,,,,,,,,,,,,,,,,,,,,,,,,,,0,0,0,0,0,0,0,0,0,0,0,0,0,0,0,0,,,,,,,,,,,
559378,1745095271839,0.0,207.14,13.36,-0.07,0.01,1.03,1,-0,-0,1.03,1.15,90,2635,15.9,4.13,15,13.75,1.251,98.8,135,34.4,5,0,0,0,0,0.0,0.0,0.0,0.0,2.27,0,0.0,0,0,0,0,0,0,0,0,0,0,0,0,0,0,0,0,0,0.0,0,-0,0.0,39.240181,-77.964806,0.75,35,3,0.8
559398,1745095271859,,,,,,,,,,,,,,,,,,,,,,,,,,,,,,,,,,0,0,0,0,0,0,0,0,0,0,0,0,0,0,0,0,,,,,,,,,,,
559418,1745095271879,0.0,207.14,,-0.06,0.02,1.03,1,-0,-0,1.03,1.15,90,2635,15.9,4.13,,13.86,1.251,98.8,,30.0,5,,,,,,,,,,,,0,0,0,0,0,0,0,0,0,0,0,0,0,0,0,0,,,,,0.0,,,,,,
559438,1745095271902,,,,,,,,,,,,,,,,,,,,,,,,,,,,,,,,,,0,0,0,0,0,0,0,0,0,0,0,0,0,0,0,0,,,,,,,,,,,
559458,1745095271922,0.0,207.01,,-0.08,0.01,1.01,1,-0,-0,1.02,1.15,89,2519,15.9,4.18,,13.83,1.251,98.8,,30.0,5,,,,,,,,,,,,0,0,0,0,0,0,0,0,0,0,0,0,0,0,0,0,,,,,0.0,,,,,,
559478,1745095271942,,,,,,,,,,,,,,,,,,,,,,,0,0,0,0,0.0,0.0,0.0,0.0,2.26,,,0,0,0,0,0,0,0,0,0,0,0,0,0,0,0,0,0,,,,,39.240185,-77.964806,1.03,35,3,0.8
559498,1745095271962,0.0,207.01,,-0.08,0.0,1.02,1,-0,-0,1.02,1.15,89,2647,15.8,4.17,,13.79,1.25,98.8,,30.0,5,,,,,,,,,,,,0,0,0,0,0,0,0,0,0,0,0,0,0,0,0,0,,,,,0.0,,,,,,
559518,1745095271982,,,,,,,,,,,,,,,,,,,,,,,,,,,,,,,,,,0,0,0,0,0,0,0,0,0,0,0,0,0,0,0,0,,,,,,,,,,,
559538,1745095271994,0.0,206.89,,-0.07,0.02,1.0,1,-0,-0,1.0,1.15,87,2678,15.9,4.18,,13.77,1.252,98.8,,29.5,5,,,,,,,,,,,,0,0,0,0,0,0,0,0,0,0,0,0,0,0,0,0,,,,,0.0,,,,,,
559558,1745095272014,,,,,,,,,,,,,,,,,,,,,,,,,,,,,,,,,,0,0,0,0,0,0,0,0,0,0,0,0,0,0,0,0,,,,,,,,,,,
559578,1745095272034,0.0,206.89,,-0.09,0.01,1.04,1,-0,-0,1.04,1.15,91,2723,15.9,4.17,,13.77,1.252,97.0,,29.5,5,0,0,0,0,0.0,0.0,0.0,0.0,2.26,,,0,0,0,0,0,0,0,0,0,0,0,0,0,0,0,0,0,,,,0.0,39.240185,-77.964806,1.08,35,3,0.8
559598,1745095272054,,,,,,,,,,,,,,,,,,,,,,,,,,,,,,,,,,0,0,0,0,0,0,0,0,0,0,0,0,0,0,0,0,,,,,,,,,,,
559618,1745095272074,0.0,206.89,,-0.08,0.04,1.0,1,-0,-0,1.0,1.15,87,2723,15.9,4.17,,13.72,1.252,97.0,,30.5,5,,,,,,,,,,,,0,0,0,0,0,0,0,0,0,0,0,0,0,0,0,0,,,,,0.0,,,,,,
559638,1745095272098,,,,,,,,,,,,,,,,,,,,,,,,,,,,,,,,,,0,0,0,0,0,0,0,0,0,0,0,0,0,0,0,0,,,,,,,,,,,
559658,1745095272118,0.0,206.76,,-0.08,0.04,0.95,2,-0,-0,0.95,1.15,83,2798,15.9,4.14,,13.71,1.255,97.0,,30.5,5,,,,,,,,,,,,0,0,0,0,0,0,0,0,0,0,0,0,0,0,0,0,,,,,0.0,,,,,,
559678,1745095272138,,,,,,,,,,,,,,,,,,,,,,,0,0,0,0,0.0,0.0,0.0,0.0,2.26,,,0,0,0,0,0,0,0,0,0,0,0,0,0,0,0,0,0,,,,,39.240185,-77.964806,0.89,35,3,0.8
559698,1745095272158,0.0,206.76,,-0.1,-0.01,0.97,1,-0,-0,0.97,1.15,85,2842,16.0,4.11,,13.71,1.255,97.0,,30.5,5,,,,,,,,,,,,0,0,0,0,0,0,0,0,0,0,0,0,0,0,0,0,,,,,0.0,,,,,,
559718,1745095272178,,,,,,,,,,,,,,,,,,,,,,,,,,,,,,,,,,0,0,0,0,0,0,0,0,0,0,0,0,0,0,0,0,,,,,,,,,,,
559738,1745095272200,0.0,206.76,,-0.13,-0.02,1.02,1,-0,-0,1.03,1.15,90,2896,16.0,4.09,,13.71,1.253,97.0,,33.4,5,,,,,,,,,,,,0,0,0,0,0,0,0,0,0,0,0,0,0,0,0,0,,,,,0.0,,,,,,
559758,1745095272220,,,,,,,,,,,,,,,,,,,,,,,,,,,,,,,,,,0,0,0,0,0,0,0,0,0,0,0,0,0,0,0,0,,,,,,,,,,,
559778,1745095272240,0.0,206.76,,-0.16,-0.05,1.02,2,-0,-1,1.03,1.15,90,3126,16.1,4.09,,13.71,1.253,97.0,,33.4,5,1,0,1,0,0.0,0.0,0.0,0.0,2.26,,,0,0,0,0,0,0,0,0,0,0,0,0,0,0,0,0,0,,,,0.0,39.240185,-77.964806,0.76,35,3,0.8
559798,1745095272260,,,,,,,,,,,,,,,,,,,,,,,,,,,,,,,,,,0,0,0,0,0,0,0,0,0,0,0,0,0,0,0,0,,,,,,,,,,,
559818,1745095272280,0.0,206.64,,-0.16,0.01,0.93,2,-0,-1,0.94,1.15,82,3126,16.1,4.09,,13.59,1.252,97.0,,36.1,5,,,,,,,,,,,,0,0,0,0,0,0,0,0,0,0,0,0,0,0,0,0,,,,,0.0,,,,,,
559838,1745095272304,,,,,,,,,,,,,,,,,,,,,,,,,,,,,,,,,,0,0,0,0,0,0,0,0,0,0,0,0,0,0,0,0,,,,,,,,,,,
559858,1745095272324,0.0,206.64,,-0.13,0.09,0.92,1,-0,-0,0.93,1.15,81,3201,16.0,4.05,,13.56,1.252,97.0,,36.1,5,,,,,,,,,,,,0,0,0,0,0,0,0,0,0,0,0,0,0,0,0,0,,,,,0.0,,,,,,
559878,1745095272344,,,,,,,,,,,,,,,,,,,,,,,1,0,1,0,0.0,0.0,0.0,0.0,2.27,,,0,0,0,0,0,0,0,0,0,0,0,0,0,0,0,0,0,,,,,39.240185,-77.964806,0.54,35,3,0.8
559898,1745095272364,0.0,206.64,,-0.14,-0.01,0.99,1,-0,-0,1.0,1.15,87,3214,15.9,4.02,,13.56,1.252,97.0,,36.1,5,,,,,,,,,,,,0,0,0,0,0,0,0,0,0,0,0,0,0,0,0,0,,,,,0.0,,,,,,
559918,1745095272384,,,,,,,,,,,,,,,,,,,,,,,,,,,,,,,,,,0,0,0,0,0,0,0,0,0,0,0,0,0,0,0,0,,,,,,,,,,,
559938,1745095272404,0.0,206.51,,-0.15,-0.02,0.94,1,-0,-1,0.95,1.15,83,3338,16.0,4.03,,13.53,1.251,97.0,,38.6,5,,,,,,,,,,,,0,0,0,0,0,0,0,0,0,0,0,0,0,0,0,0,,,,,0.0,,,,,,
559958,1745095272424,,,,,,,,,,,,,,,,,,,,,,,,,,,,,,,,,,0,0,0,0,0,0,0,0,0,0,0,0,0,0,0,0,,,,,,,,,,,
559978,1745095272444,0.0,206.51,,-0.14,0.01,1.01,1,-0,-0,1.02,1.15,89,3365,16.0,3.98,,13.53,1.251,97.0,,38.6,5,1,0,1,0,0.0,0.0,0.0,0.0,2.26,,,0,0,0,0,0,0,0,0,0,0,0,0,0,0,0,0,0,,,,0.0,39.240185,-77.964806,0.34,35,3,0.8
559998,1745095272464,,,,,,,,,,,,,,,,,,,,,,,,,,,,,,,,,,0,0,0,0,0,0,0,0,0,0,0,0,0,0,0,0,,,,,,,,,,,
560018,1745095272484,0.0,206.51,,-0.16,-0.12,1.0,2,-0,-1,1.02,1.15,89,3365,16.0,3.98,,13.55,1.252,97.0,,40.7,5,,,,,,,,,,,,0,0,0,0,0,0,0,0,0,0,0,0,0,0,0,0,,,,,0.0,,,,,,
560038,1745095272504,,,,,,,,,,,,,,,,,,,,,,,,,,,,,,,,,,0,0,0,0,0,0,0,0,0,0,0,0,0,0,0,0,,,,,,,,,,,
560058,1745095272524,0.0,206.51,,-0.16,-0.17,1.06,2,0,-1,1.09,1.15,95,3477,16.0,3.98,,13.52,1.252,97.0,,40.7,5,,,,,,,,,,,,0,0,0,0,0,0,0,0,0,0,0,0,0,0,0,0,,,,,0.0,,,,,,
560078,1745095272544,,,,,,,,,,,,,,,,,,,,,,,1,0,1,0,0.0,0.0,0.0,0.0,2.26,,,0,0,0,0,0,0,0,0,0,0,0,0,0,0,0,0,0,,,,,39.240185,-77.964806,0.18,35,3,0.8
560098,1745095272564,0.0,206.51,,-0.14,-0.04,1.05,1,-0,-0,1.06,1.15,93,3498,15.9,3.98,,13.52,1.253,97.0,,40.7,5,,,,,,,,,,,,0,0,0,0,0,0,0,0,0,0,0,0,0,0,0,0,,,,,0.0,,,,,,
560118,1745095272584,,,,,,,,,,,,,,,,,,,,,,,,,,,,,,,,,,0,0,0,0,0,0,0,0,0,0,0,0,0,0,0,0,,,,,,,,,,,
560138,1745095272604,0.0,206.51,,-0.13,-0.04,1.0,2,-0,-1,1.01,1.15,88,3471,15.9,3.95,,13.47,1.254,97.0,,41.6,5,,,,,,,,,,,,0,0,0,0,0,0,0,0,0,0,0,0,0,0,0,0,,,,,0.0,,,,,,
560158,1745095272624,,,,,,,,,,,,,,,,,,,,,,,,,,,,,,,,,,0,0,0,0,0,0,0,0,0,0,0,0,0,0,0,0,,,,,,,,,,,
560178,1745095272644,0.0,206.51,,-0.14,-0.06,1.06,1,-0,-0,1.07,1.15,93,3496,16.0,3.96,,13.47,1.254,97.0,,41.6,5,1,0,1,0,0.0,0.0,0.0,0.0,2.26,,,0,0,0,0,0,0,0,0,0,0,0,0,0,0,0,0,0,,,,0.0,39.240185,-77.964806,0.12,35,3,0.8
560198,1745095272664,,,,,,,,,,,,,,,,,,,,,,,,,,,,,,,,,,0,0,0,0,0,0,0,0,0,0,0,0,0,0,0,0,,,,,,,,,,,
560218,1745095272684,0.0,206.51,,-0.12,0.02,1.05,0,-0,-0,1.05,1.15,92,3496,16.0,3.96,,13.52,1.254,97.0,,43.1,5,,,,,,,,,,,,0,0,0,0,0,0,0,0,0,0,0,0,0,0,0,0,,,,,0.0,,,,,,
560238,1745095272704,,,,,,,,,,,,,,,,,,,,,,,,,,,,,,,,,,0,0,0,0,0,0,0,0,0,0,0,0,0,0,0,0,,,,,,,,,,,
560258,1745095272724,0.0,206.39,,-0.13,-0.0,0.99,1,-0,-0,1.0,1.15,87,3676,16.1,3.92,,13.39,1.253,97.0,,43.1,5,,,,,,,,,,,,0,0,0,0,0,0,0,0,0,0,0,0,0,0,0,0,,,,,0.0,,,,,,
560278,1745095272744,,,,,,,,,,,,,,,,,,,,,,,1,0,1,0,0.0,0.0,0.0,0.0,2.26,,,0,0,0,0,0,0,0,0,0,0,0,0,0,0,0,0,0,,,,,39.240185,-77.964806,0.18,35,3,0.8
560298,1745095272764,0.0,206.39,,-0.12,-0.03,0.95,1,-0,-1,0.96,1.15,84,3831,16.1,3.87,,13.25,1.244,97.0,,43.1,5,,,,,,,,,,,,0,0,0,0,0,0,0,0,0,0,0,0,0,0,0,0,,,,,0.0,,,,,,
560318,1745095272784,,,,,,,,,,,,,,,,,,,,,,,,,,,,,,,,,,0,0,0,0,0,0,0,0,0,0,0,0,0,0,0,0,,,,,,,,,,,
560338,1745095272802,0.0,206.39,,-0.11,0.07,0.99,1,-0,-0,1.0,1.15,87,3978,16.0,3.86,,13.28,1.18,97.0,,47.1,5,,,,,,,,,,,,0,0,0,0,0,0,0,0,0,0,0,0,0,0,0,0,,,,,0.0,,,,,,
560358,1745095272822,,,,,,,,,,,,,,,,,,,,,,,,,,,,,,,,,,0,0,0,0,0,0,0,0,0,0,0,0,0,0,0,0,,,,,,,,,,,
560378,1745095272842,0.0,206.39,13.37,-0.12,0.06,1.02,-0,-0,0,1.03,1.15,90,3948,16.0,3.83,15,13.28,1.18,97.0,135,47.1,5,1,0,1,0,0.0,0.0,0.0,0.0,2.26,0,0.0,0,0,0,0,0,0,0,0,0,0,0,0,0,0,0,0,0,0.0,0,0,0.0,39.240185,-77.964806,0.04,35,3,0.8
560398,1745095272862,,,,,,,,,,,,,,,,,,,,,,,,,,,,,,,,,,0,0,0,0,0,0,0,0,0,0,0,0,0,0,0,0,,,,,,,,,,,
560418,1745095272882,0.0,206.39,,-0.13,-0.02,0.94,0,-0,-0,0.95,1.15,83,3948,16.0,3.83,,13.17,1.193,97.0,,48.9,5,,,,,,,,,,,,0,0,0,0,0,0,0,0,0,0,0,0,0,0,0,0,,,,,0.0,,,,,,
560438,1745095272903,,,,,,,,,,,,,,,,,,,,,,,,,,,,,,,,,,0,0,0,0,0,0,0,0,0,0,0,0,0,0,0,0,,,,,,,,,,,
560458,1745095272923,0.0,206.39,,-0.12,0.01,0.95,1,-0,-0,0.96,1.15,84,3997,15.9,3.85,,13.17,1.192,97.0,,48.9,5,,,,,,,,,,,,0,0,0,0,0,0,0,0,0,0,0,0,0,0,0,0,,,,,0.0,,,,,,
560478,1745095272943,,,,,,,,,,,,,,,,,,,,,,,1,0,1,0,0.0,0.0,0.0,0.0,2.27,,,0,0,0,0,0,0,0,0,0,0,0,0,0,0,0,0,0,,,,,39.240185,-77.964806,0.12,35,3,0.8
560498,1745095272963,0.0,206.26,,-0.12,0.11,1.03,-0,-0,0,1.05,1.15,91,3946,15.8,3.86,,13.2,1.187,97.0,,48.9,5,,,,,,,,,,,,0,0,0,0,0,0,0,0,0,0,0,0,0,0,0,0,,,,,0.0,,,,,,
560518,1745095272983,,,,,,,,,,,,,,,,,,,,,,,,,,,,,,,,,,0,0,0,0,0,0,0,0,0,0,0,0,0,0,0,0,,,,,,,,,,,
560538,1745095272993,0.0,206.26,,-0.14,0.05,1.0,-0,-0,0,1.01,1.15,88,3961,15.9,3.83,,13.15,1.249,97.0,,48.9,5,,,,,,,,,,,,0,0,0,0,0,0,0,0,0,0,0,0,0,0,0,0,,,,,0.0,,,,,,
560558,1745095273013,,,,,,,,,,,,,,,,,,,,,,,,,,,,,,,,,,0,0,0,0,0,0,0,0,0,0,0,0,0,0,0,0,,,,,,,,,,,
560578,1745095273033,0.0,206.39,,-0.12,0.03,0.98,1,-0,-0,0.99,1.15,87,4027,15.9,3.83,,13.15,1.249,97.0,,48.9,5,1,0,1,0,0.0,0.0,0.0,0.0,2.26,,,0,0,0,0,0,0,0,0,0,0,0,0,0,0,0,0,0,,,,0.0,39.240185,-77.964806,0.14,35,3,0.8
560598,1745095273053,,,,,,,,,,,,,,,,,,,,,,,,,,,,,,,,,,0,0,0,0,0,0,0,0,0,0,0,0,0,0,0,0,,,,,,,,,,,
560618,1745095273073,0.0,206.26,,-0.11,0.14,1.07,-0,-0,0,1.08,1.15,95,4027,15.9,3.83,,13.12,1.252,97.0,,49.6,5,,,,,,,,,,,,0,0,0,0,0,0,0,0,0,0,0,0,0,0,0,0,,,,,0.0,,,,,,
560638,1745095273101,,,,,,,,,,,,,,,,,,,,,,,,,,,,,,,,,,0,0,0,0,0,0,0,0,0,0,0,0,0,0,0,0,,,,,,,,,,,
560658,1745095273121,0.0,206.26,,-0.12,0.08,1.03,-0,-0,0,1.04,1.15,91,4039,15.9,3.84,,13.15,1.232,97.0,,49.6,5,,,,,,,,,,,,0,0,0,0,0,0,0,0,0,0,0,0,0,0,0,0,,,,,0.0,,,,,,
560678,1745095273141,,,,,,,,,,,,,,,,,,,,,,,1,0,1,0,0.0,0.0,0.0,0.0,2.26,,,0,0,0,0,0,0,0,0,0,0,0,0,0,0,0,0,0,,,,,39.240185,-77.964806,0.05,34,3,0.8
560698,1745095273161,0.0,206.26,,-0.1,0.06,1.01,0,-0,0,1.01,1.15,89,3932,15.9,3.83,,13.23,1.226,97.0,,49.6,5,,,,,,,,,,,,0,0,0,0,0,0,0,0,0,0,0,0,0,0,0,0,,,,,0.0,,,,,,
560718,1745095273181,,,,,,,,,,,,,,,,,,,,,,,,,,,,,,,,,,0,0,0,0,0,0,0,0,0,0,0,0,0,0,0,0,,,,,,,,,,,
560738,1745095273203,0.0,206.26,,-0.09,0.17,1.08,-0,-0,0,1.09,1.15,96,3996,16.1,3.84,,13.17,1.253,97.0,,48.8,5,,,,,,,,,,,,0,0,0,0,0,0,0,0,0,0,0,0,0,0,0,0,,,,,0.0,,,,,,
560758,1745095273223,,,,,,,,,,,,,,,,,,,,,,,,,,,,,,,,,,0,0,0,0,0,0,0,0,0,0,0,0,0,0,0,0,,,,,,,,,,,
560778,1745095273243,0.0,206.26,,-0.1,0.16,1.11,-1,-0,1,1.12,1.15,98,3947,16.0,3.85,,13.17,1.253,97.0,,48.8,5,1,0,1,0,0.0,0.0,0.0,0.0,2.26,,,0,0,0,0,0,0,0,0,0,0,0,0,0,0,0,0,0,,,,0.0,39.240185,-77.964806,0.11,34,3,0.8
560798,1745095273263,,,,,,,,,,,,,,,,,,,,,,,,,,,,,,,,,,0,0,0,0,0,0,0,0,0,0,0,0,0,0,0,0,,,,,,,,,,,
560818,1745095273283,0.0,206.26,,-0.1,0.06,1.06,-0,-0,0,1.07,1.15,93,3947,16.0,3.85,,13.2,1.252,97.0,,47.9,5,,,,,,,,,,,,0,0,0,0,0,0,0,0,0,0,0,0,0,0,0,0,,,,,0.0,,,,,,
560838,1745095273303,,,,,,,,,,,,,,,,,,,,,,,,,,,,,,,,,,0,0,0,0,0,0,0,0,0,0,0,0,0,0,0,0,,,,,,,,,,,
560858,1745095273323,0.0,206.26,,-0.09,0.04,1.04,0,-0,0,1.04,1.15,91,3859,16.0,3.85,,13.24,1.25,97.0,,47.9,5,,,,,,,,,,,,0,0,0,0,0,0,0,0,0,0,0,0,0,0,0,0,,,,,0.0,,,,,,
560878,1745095273343,,,,,,,,,,,,,,,,,,,,,,,1,0,1,0,0.0,0.0,0.0,0.0,2.26,,,0,0,0,0,0,0,0,0,0,0,0,0,0,0,0,0,0,,,,,39.240185,-77.964806,0.04,35,3,0.8
560898,1745095273363,0.0,206.26,,-0.07,0.02,1.03,0,-0,0,1.03,1.15,90,3875,15.9,3.88,,13.16,1.251,97.0,,47.9,5,,,,,,,,,,,,0,0,0,0,0,0,0,0,0,0,0,0,0,0,0,0,,,,,0.0,,,,,,
560918,1745095273383,,,,,,,,,,,,,,,,,,,,,,,,,,,,,,,,,,0,0,0,0,0,0,0,0,0,0,0,0,0,0,0,0,,,,,,,,,,,
560938,1745095273403,0.0,206.26,,-0.05,0.01,1.03,1,-0,-0,1.03,1.15,90,3809,15.9,3.86,,13.23,1.25,97.0,,47.4,5,,,,,,,,,,,,0,0,0,0,0,0,0,0,0,0,0,0,0,0,0,0,,,,,0.0,,,,,,
560958,1745095273423,,,,,,,,,,,,,,,,,,,,,,,,,,,,,,,,,,0,0,0,0,0,0,0,0,0,0,0,0,0,0,0,0,,,,,,,,,,,
560978,1745095273443,0.0,206.26,,-0.04,-0.02,1.08,0,0,0,1.08,1.15,95,3647,15.9,3.91,,13.23,1.25,97.0,,47.4,5,1,0,1,0,0.0,0.0,0.0,0.0,2.26,,,0,0,0,0,0,0,0,0,0,0,0,0,0,0,0,0,0,,,,0.0,39.240185,-77.964806,0.04,35,3,0.8
560998,1745095273463,,,,,,,,,,,,,,,,,,,,,,,,,,,,,,,,,,0,0,0,0,0,0,0,0,0,0,0,0,0,0,0,0,,,,,,,,,,,
561018,1745095273483,0.0,206.26,,-0.0,0.08,1.02,0,-0,0,1.02,1.15,89,3647,15.9,3.91,,13.33,1.25,97.0,,42.4,5,,,,,,,,,,,,0,0,0,0,0,0,0,0,0,0,0,0,0,0,0,0,,,,,0.0,,,,,,
561038,1745095273503,,,,,,,,,,,,,,,,,,,,,,,,,,,,,,,,,,0,0,0,0,0,0,0,0,0,0,0,0,0,0,0,0,,,,,,,,,,,
561058,1745095273523,0.0,206.26,,0.0,0.02,1.08,-0,-0,1,1.08,1.15,94,3266,15.9,3.97,,13.48,1.251,97.0,,42.4,5,,,,,,,,,,,,0,0,0,0,0,0,0,0,0,0,0,0,0,0,0,0,,,,,0.0,,,,,,
561078,1745095273543,,,,,,,,,,,,,,,,,,,,,,,1,0,0,0,0.0,0.0,0.0,0.0,2.26,,,0,0,0,0,0,0,0,0,0,0,0,0,0,0,0,0,0,,,,,39.240185,-77.964806,0.21,35,3,0.8
561098,1745095273563,0.0,206.13,,-0.0,-0.03,1.12,-0,-0,1,1.12,1.15,98,3014,15.9,2.65,,13.63,1.252,97.0,,42.4,5,,,,,,,,,,,,0,0,0,0,0,0,0,0,0,0,0,0,0,0,0,0,,,,,0.0,,,,,,
561118,1745095273583,,,,,,,,,,,,,,,,,,,,,,,,,,,,,,,,,,0,0,0,0,0,0,0,0,0,0,0,0,0,0,0,0,,,,,,,,,,,
561138,1745095273603,0.0,206.13,,0.01,-0.01,1.09,-0,-0,1,1.09,1.15,95,2843,15.9,4.08,,13.65,1.253,97.0,,35.1,5,,,,,,,,,,,,0,0,0,0,0,0,0,0,0,0,0,0,0,0,0,0,,,,,0.0,,,,,,
561158,1745095273623,,,,,,,,,,,,,,,,,,,,,,,,,,,,,,,,,,0,0,0,0,0,0,0,0,0,0,0,0,0,0,0,0,,,,,,,,,,,
561178,1745095273643,0.0,206.13,,0.02,-0.01,1.09,-0,-0,1,1.09,1.15,95,2685,16.0,4.16,,13.65,1.253,97.0,,35.1,5,0,0,0,0,0.0,0.0,0.0,0.0,2.26,,,0,0,0,0,0,0,0,0,0,0,0,0,0,0,0,0,0,,,,0.0,39.240185,-77.964806,0.71,35,3,0.8
561198,1745095273663,,,,,,,,,,,,,,,,,,,,,,,,,,,,,,,,,,0,0,0,0,0,0,0,0,0,0,0,0,0,0,0,0,,,,,,,,,,,
561218,1745095273683,0.0,206.26,,0.02,-0.01,1.06,-0,-0,1,1.07,1.15,93,2685,16.0,4.16,,13.77,1.252,97.0,,28.8,5,,,,,,,,,,,,0,0,0,0,0,0,0,0,0,0,0,0,0,0,0,0,,,,,0.0,,,,,,
561238,1745095273703,,,,,,,,,,,,,,,,,,,,,,,,,,,,,,,,,,0,0,0,0,0,0,0,0,0,0,0,0,0,0,0,0,,,,,,,,,,,
561258,1745095273723,0.0,206.26,,0.02,-0.0,1.04,0,-0,0,1.04,1.15,91,2508,16.1,4.21,,13.87,1.253,97.0,,28.8,5,,,,,,,,,,,,0,0,0,0,0,0,0,0,0,0,0,0,0,0,0,0,,,,,0.0,,,,,,
561278,1745095273743,,,,,,,,,,,,,,,,,,,,,,,0,0,0,0,0.0,0.0,0.0,0.0,2.26,,,0,0,0,0,0,0,0,0,0,0,0,0,0,0,0,0,0,,,,,39.240185,-77.964806,1.13,35,3,0.8
561298,1745095273763,0.0,206.13,,0.02,-0.01,1.03,0,-0,0,1.03,1.15,90,2284,16.1,4.26,,13.94,1.249,97.0,,28.8,5,,,,,,,,,,,,0,0,0,0,0,0,0,0,0,0,0,0,0,0,0,0,,,,,0.0,,,,,,
561318,1745095273783,,,,,,,,,,,,,,,,,,,,,,,,,,,,,,,,,,0,0,0,0,0,0,0,0,0,0,0,0,0,0,0,0,,,,,,,,,,,
561338,1745095273803,0.0,206.13,,0.02,-0.01,1.01,0,-0,0,1.01,1.15,88,2062,16.1,4.34,,14.07,1.244,97.0,,23.9,5,,,,,,,,,,,,0,0,0,0,0,0,0,0,0,0,0,0,0,0,0,0,,,,,0.0,,,,,,
561358,1745095273823,,,,,,,,,,,,,,,,,,,,,,,,,,,,,,,,,,0,0,0,0,0,0,0,0,0,0,0,0,0,0,0,0,,,,,,,,,,,
561378,1745095273843,0.0,206.01,13.36,0.03,-0.02,1.01,0,-0,0,1.01,1.15,88,1842,16.0,4.33,15,14.07,1.244,97.0,135,23.9,5,1,0,0,1,0.0,0.0,0.0,0.0,2.26,0,0.0,0,0,0,0,0,0,0,0,0,0,0,0,0,0,0,0,0,0.0,0,0,0.0,39.240185,-77.964806,1.49,35,3,0.8
561398,1745095273863,,,,,,,,,,,,,,,,,,,,,,,,,,,,,,,,,,0,0,0,0,0,0,0,0,0,0,0,0,0,0,0,0,,,,,,,,,,,
561418,1745095273883,0.0,206.01,,0.03,-0.02,1.01,0,-0,0,1.01,1.15,88,1842,16.0,4.33,,14.18,1.25,97.0,,21.0,5,,,,,,,,,,,,0,0,0,0,0,0,0,0,0,0,0,0,0,0,0,0,,,,,0.0,,,,,,
561438,1745095273904,,,,,,,,,,,,,,,,,,,,,,,,,,,,,,,,,,0,0,0,0,0,0,0,0,0,0,0,0,0,0,0,0,,,,,,,,,,,
561458,1745095273924,0.0,205.88,,0.02,-0.01,1.03,0,-0,0,1.03,1.15,90,1816,15.9,4.26,,14.1,1.251,97.0,,21.0,5,,,,,,,,,,,,0,0,0,0,0,0,0,0,0,0,0,0,0,0,0,0,,,,,0.0,,,,,,
561478,1745095273944,,,,,,,,,,,,,,,,,,,,,,,1,0,1,1,0.0,0.0,0.0,0.0,2.26,,,0,0,0,0,0,0,0,0,0,0,0,0,0,0,0,0,0,,,,,39.240185,-77.964806,1.85,35,3,0.8
561498,1745095273964,0.0,205.88,,0.01,0.01,1.04,1,-0,0,1.04,1.15,91,1518,15.9,4.15,,14.19,1.251,97.0,,21.0,5,,,,,,,,,,,,0,0,0,0,0,0,0,0,0,0,0,0,0,0,0,0,,,,,0.0,,,,,,
561518,1745095273984,,,,,,,,,,,,,,,,,,,,,,,,,,,,,,,,,,0,0,0,0,0,0,0,0,0,0,0,0,0,0,0,0,,,,,,,,,,,
561538,1745095273994,0.0,205.76,,0.01,0.01,1.03,1,-0,0,1.03,1.15,90,1269,15.9,4.11,,14.24,1.251,97.0,,17.0,5,,,,,,,,,,,,0,0,0,0,0,0,0,0,0,0,0,0,0,0,0,0,,,,,0.0,,,,,,
561558,1745095274014,,,,,,,,,,,,,,,,,,,,,,,,,,,,,,,,,,0,0,0,0,0,0,0,0,0,0,0,0,0,0,0,0,,,,,,,,,,,
561578,1745095274034,0.0,205.76,,0.01,0.0,1.02,1,-0,0,1.02,1.15,89,1416,15.9,3.99,,14.24,1.251,97.0,,17.0,5,1,0,1,1,0.0,0.0,0.0,0.0,2.26,,,0,0,0,0,0,0,0,0,0,0,0,0,0,0,0,0,0,,,,0.0,39.240185,-77.964806,2.16,35,3,0.8
561598,1745095274054,,,,,,,,,,,,,,,,,,,,,,,,,,,,,,,,,,0,0,0,0,0,0,0,0,0,0,0,0,0,0,0,0,,,,,,,,,,,
561618,1745095274074,0.0,205.88,,0.02,-0.01,1.02,1,-0,0,1.02,1.15,89,1416,15.9,3.99,,14.14,1.252,97.0,,15.4,5,,,,,,,,,,,,0,0,0,0,0,0,0,0,0,0,0,0,0,0,0,0,,,,,0.0,,,,,,
561638,1745095274104,,,,,,,,,,,,,,,,,,,,,,,,,,,,,,,,,,0,0,0,0,0,0,0,0,0,0,0,0,0,0,0,0,,,,,,,,,,,
561658,1745095274124,0.0,205.76,,0.03,-0.01,1.03,1,-0,0,1.03,1.15,90,1219,15.9,4.06,,14.15,1.253,97.0,,15.4,5,,,,,,,,,,,,0,0,0,0,0,0,0,0,0,0,0,0,0,0,0,0,,,,,0.0,,,,,,
561678,1745095274144,,,,,,,,,,,,,,,,,,,,,,,1,0,1,1,0.0,0.0,0.0,0.0,2.26,,,0,0,0,0,0,0,0,0,0,0,0,0,0,0,0,0,0,,,,,39.240185,-77.964806,2.42,35,3,0.8
561698,1745095274164,0.0,205.76,,0.02,0.0,1.03,1,-0,0,1.03,1.15,90,1316,15.9,3.97,,14.16,1.254,97.0,,15.4,5,,,,,,,,,,,,0,0,0,0,0,0,0,0,0,0,0,0,0,0,0,0,,,,,0.0,,,,,,
561718,1745095274184,,,,,,,,,,,,,,,,,,,,,,,,,,,,,,,,,,0,0,0,0,0,0,0,0,0,0,0,0,0,0,0,0,,,,,,,,,,,
561738,1745095274200,0.0,205.63,,-0.01,-0.01,1.03,1,-0,-0,1.03,1.15,90,1161,15.9,4.01,,14.19,1.254,97.0,,14.6,5,,,,,,,,,,,,0,0,0,0,0,0,0,0,0,0,0,0,0,0,0,0,,,,,0.0,,,,,,
561758,1745095274220,,,,,,,,,,,,,,,,,,,,,,,,,,,,,,,,,,0,0,0,0,0,0,0,0,0,0,0,0,0,0,0,0,,,,,,,,,,,
561778,1745095274240,0.0,205.63,,-0.04,-0.0,1.02,1,-0,-0,1.02,1.15,89,1456,16.1,3.93,,14.19,1.254,97.0,,14.6,5,2,0,1,1,0.0,0.0,0.0,0.0,2.26,,,0,0,0,0,0,0,0,0,0,0,0,0,0,0,0,0,0,,,,0.0,39.240185,-77.964806,2.54,35,3,0.8
561798,1745095274260,,,,,,,,,,,,,,,,,,,,,,,,,,,,,,,,,,0,0,0,0,0,0,0,0,0,0,0,0,0,0,0,0,,,,,,,,,,,
561818,1745095274280,0.0,205.63,,-0.07,0.0,1.03,1,-0,-0,1.03,1.15,90,1456,16.1,3.93,,14.15,1.253,97.0,,15.9,5,,,,,,,,,,,,0,0,0,0,0,0,0,0,0,0,0,0,0,0,0,0,,,,,0.0,,,,,,
561838,1745095274304,,,,,,,,,,,,,,,,,,,,,,,,,,,,,,,,,,0,0,0,0,0,0,0,0,0,0,0,0,0,0,0,0,,,,,,,,,,,
561858,1745095274324,0.0,205.63,,-0.08,0.02,1.01,1,-0,-0,1.01,1.15,88,1563,16.1,4.08,,14.15,1.249,97.0,,15.9,5,,,,,,,,,,,,0,0,0,0,0,0,0,0,0,0,0,0,0,0,0,0,,,,,0.0,,,,,,
561878,1745095274344,,,,,,,,,,,,,,,,,,,,,,,2,0,2,2,0.0,0.0,0.0,0.0,2.26,,,0,0,0,0,0,0,0,0,0,0,0,0,0,0,0,0,0,,,,,39.240185,-77.964806,2.6,35,3,0.8
561898,1745095274364,0.0,205.63,,-0.1,0.02,0.99,1,-0,-0,1.0,1.15,87,1575,16.0,4.11,,14.14,1.249,97.0,,15.9,5,,,,,,,,,,,,0,0,0,0,0,0,0,0,0,0,0,0,0,0,0,0,,,,,0.0,,,,,,
561918,1745095274384,,,,,,,,,,,,,,,,,,,,,,,,,,,,,,,,,,0,0,0,0,0,0,0,0,0,0,0,0,0,0,0,0,,,,,,,,,,,
561938,1745095274404,0.0,205.63,,-0.11,0.02,1.01,1,-0,-0,1.02,1.15,89,1821,16.0,4.27,,14.06,1.235,97.0,,19.1,5,,,,,,,,,,,,0,0,0,0,0,0,0,0,0,0,0,0,0,0,0,0,,,,,0.0,,,,,,
561958,1745095274424,,,,,,,,,,,,,,,,,,,,,,,,,,,,,,,,,,0,0,0,0,0,0,0,0,0,0,0,0,0,0,0,0,,,,,,,,,,,
561978,1745095274444,0.0,205.63,,-0.1,0.03,1.01,1,-0,-0,1.02,1.15,89,1928,15.8,4.27,,14.06,1.235,97.0,,19.1,5,2,0,2,1,0.0,0.0,0.0,0.0,2.27,,,0,0,0,0,0,0,0,0,0,0,0,0,0,0,0,0,0,,,,0.0,39.240185,-77.964813,2.43,35,3,0.8
561998,1745095274464,,,,,,,,,,,,,,,,,,,,,,,,,,,,,,,,,,0,0,0,0,0,0,0,0,0,0,0,0,0,0,0,0,,,,,,,,,,,
562018,1745095274484,0.0,205.63,,-0.1,0.03,1.01,1,-0,0,1.02,1.15,89,1928,15.8,4.27,,14.04,1.222,97.0,,21.2,5,,,,,,,,,,,,0,0,0,0,0,0,0,0,0,0,0,0,0,0,0,0,,,,,0.0,,,,,,
562038,1745095274504,,,,,,,,,,,,,,,,,,,,,,,,,,,,,,,,,,0,0,0,0,0,0,0,0,0,0,0,0,0,0,0,0,,,,,,,,,,,
562058,1745095274524,0.0,205.51,,-0.1,0.04,1.03,1,-0,0,1.04,1.15,91,2152,15.9,4.33,,13.98,1.218,97.0,,21.2,5,,,,,,,,,,,,0,0,0,0,0,0,0,0,0,0,0,0,0,0,0,0,,,,,0.0,,,,,,
562078,1745095274544,,,,,,,,,,,,,,,,,,,,,,,1,0,1,1,0.0,0.0,0.0,0.0,2.27,,,0,0,0,0,0,0,0,0,0,0,0,0,0,0,0,0,0,,,,,39.240185,-77.964813,2.3,35,3,0.8
562098,1745095274564,0.0,205.51,,-0.11,0.02,1.03,1,-0,0,1.04,1.15,91,2334,15.8,4.3,,13.94,1.2,97.0,,21.2,5,,,,,,,,,,,,0,0,0,0,0,0,0,0,0,0,0,0,0,0,0,0,,,,,0.0,,,,,,
562118,1745095274584,,,,,,,,,,,,,,,,,,,,,,,,,,,,,,,,,,0,0,0,0,0,0,0,0,0,0,0,0,0,0,0,0,,,,,,,,,,,
562138,1745095274602,0.0,205.51,,-0.11,0.04,1.01,1,-0,0,1.02,1.15,89,2510,15.8,4.26,,13.87,1.2,97.0,,25.2,5,,,,,,,,,,,,0,0,0,0,0,0,0,0,0,0,0,0,0,0,0,0,,,,,0.0,,,,,,
562158,1745095274622,,,,,,,,,,,,,,,,,,,,,,,,,,,,,,,,,,0,0,0,0,0,0,0,0,0,0,0,0,0,0,0,0,,,,,,,,,,,
562178,1745095274642,0.0,205.51,,-0.11,0.03,1.05,1,-0,0,1.06,1.15,92,2649,15.9,4.21,,13.87,1.2,97.0,,25.2,5,1,0,1,1,0.0,0.0,0.0,0.0,2.26,,,0,0,0,0,0,0,0,0,0,0,0,0,0,0,0,0,0,,,,0.0,39.240185,-77.964813,2.11,35,3,0.8
562198,1745095274662,,,,,,,,,,,,,,,,,,,,,,,,,,,,,,,,,,0,0,0,0,0,0,0,0,0,0,0,0,0,0,0,0,,,,,,,,,,,
562218,1745095274682,0.0,205.51,,-0.11,0.06,1.01,1,-0,0,1.02,1.15,89,2649,15.9,4.21,,13.79,1.203,97.0,,29.6,5,,,,,,,,,,,,0,0,0,0,0,0,0,0,0,0,0,0,0,0,0,0,,,,,0.0,,,,,,
562238,1745095274704,,,,,,,,,,,,,,,,,,,,,,,,,,,,,,,,,,0,0,0,0,0,0,0,0,0,0,0,0,0,0,0,0,,,,,,,,,,,
562258,1745095274724,0.0,205.51,,-0.1,0.08,0.96,1,-0,0,0.97,1.15,85,2778,15.9,4.17,,13.73,1.21,97.0,,29.6,5,,,,,,,,,,,,0,0,0,0,0,0,0,0,0,0,0,0,0,0,0,0,,,,,0.0,,,,,,
562278,1745095274744,,,,,,,,,,,,,,,,,,,,,,,1,0,1,1,0.0,0.0,0.0,0.0,2.26,,,0,0,0,0,0,0,0,0,0,0,0,0,0,0,0,0,0,,,,,39.240185,-77.964813,1.95,35,3,0.8
562298,1745095274764,0.0,205.51,,-0.11,0.04,0.97,1,-0,0,0.98,1.15,86,0,16.1,4.06,,13.67,1.218,97.0,,29.6,5,,,,,,,,,,,,0,0,0,0,0,0,0,0,0,0,0,0,0,0,0,0,,,,,0.0,,,,,,
562318,1745095274784,,,,,,,,,,,,,,,,,,,,,,,,,,,,,,,,,,0,0,0,0,0,0,0,0,0,0,0,0,0,0,0,0,,,,,,,,,,,
562338,1745095274804,0.0,205.51,,-0.11,0.03,1.0,1,-0,0,1.01,1.15,88,2760,16.1,4.11,,13.72,1.251,97.0,,32.8,5,,,,,,,,,,,,0,0,0,0,0,0,0,0,0,0,0,0,0,0,0,0,,,,,0.0,,,,,,
562358,1745095274824,,,,,,,,,,,,,,,,,,,,,,,,,,,,,,,,,,0,0,0,0,0,0,0,0,0,0,0,0,0,0,0,0,,,,,,,,,,,
562378,1745095274844,0.0,205.38,13.38,-0.1,0.07,0.95,1,-0,0,0.96,1.15,84,2729,16.0,4.14,15,13.72,1.251,97.0,135,32.8,5,1,0,1,1,0.0,0.0,0.0,0.0,2.26,0,0.0,0,0,0,0,0,0,0,0,0,0,0,0,0,0,0,0,0,0.0,0,0,0.0,39.240185,-77.964813,2.04,35,3,0.8
562398,1745095274864,,,,,,,,,,,,,,,,,,,,,,,,,,,,,,,,,,0,0,0,0,0,0,0,0,0,0,0,0,0,0,0,0,,,,,,,,,,,
562418,1745095274884,0.0,205.51,,-0.1,0.09,0.91,1,-0,0,0.92,1.15,80,2729,16.0,4.14,,13.76,1.25,97.0,,32.5,5,,,,,,,,,,,,0,0,0,0,0,0,0,0,0,0,0,0,0,0,0,0,,,,,0.0,,,,,,
562438,1745095274903,,,,,,,,,,,,,,,,,,,,,,,,,,,,,,,,,,0,0,0,0,0,0,0,0,0,0,0,0,0,0,0,0,,,,,,,,,,,
562458,1745095274923,0.0,205.38,,-0.11,0.04,0.92,1,-0,-0,0.93,1.15,81,2895,16.0,4.14,,13.68,1.25,97.0,,32.5,5,,,,,,,,,,,,0,0,0,0,0,0,0,0,0,0,0,0,0,0,0,0,,,,,0.0,,,,,,
562478,1745095274943,,,,,,,,,,,,,,,,,,,,,,,1,0,1,1,0.0,0.0,0.0,0.0,2.27,,,0,0,0,0,0,0,0,0,0,0,0,0,0,0,0,0,0,,,,,39.240189,-77.964813,1.78,35,3,0.8
562498,1745095274963,0.0,205.38,,-0.12,-0.0,0.98,1,-0,-0,0.99,1.15,86,2900,15.9,4.13,,13.71,1.25,97.0,,32.5,5,,,,,,,,,,,,0,0,0,0,0,0,0,0,0,0,0,0,0,0,0,0,,,,,0.0,,,,,,
562518,1745095274983,,,,,,,,,,,,,,,,,,,,,,,,,,,,,,,,,,0,0,0,0,0,0,0,0,0,0,0,0,0,0,0,0,,,,,,,,,,,
562538,1745095274995,0.0,205.38,,-0.11,0.01,1.01,1,-0,-0,1.02,1.15,89,2806,15.9,4.12,,13.71,1.251,97.0,,32.7,5,,,,,,,,,,,,0,0,0,0,0,0,0,0,0,0,0,0,0,0,0,0,,,,,0.0,,,,,,
562558,1745095275015,,,,,,,,,,,,,,,,,,,,,,,,,,,,,,,,,,0,0,0,0,0,0,0,0,0,0,0,0,0,0,0,0,,,,,,,,,,,
562578,1745095275035,0.0,205.38,,-0.1,0.05,0.96,1,-0,0,0.97,1.15,85,2809,15.9,4.12,,13.71,1.251,97.0,,32.7,5,1,0,1,1,0.0,0.0,0.0,0.0,2.27,,,0,0,0,0,0,0,0,0,0,0,0,0,0,0,0,0,0,,,,0.0,39.240189,-77.964813,1.52,34,3,0.8
562598,1745095275055,,,,,,,,,,,,,,,,,,,,,,,,,,,,,,,,,,0,0,0,0,0,0,0,0,0,0,0,0,0,0,0,0,,,,,,,,,,,
562618,1745095275075,0.0,205.51,,-0.08,0.07,0.9,1,-0,-0,0.91,1.15,79,2809,15.9,4.12,,13.71,1.25,97.0,,33.5,5,,,,,,,,,,,,0,0,0,0,0,0,0,0,0,0,0,0,0,0,0,0,,,,,0.0,,,,,,
562638,1745095275101,,,,,,,,,,,,,,,,,,,,,,,,,,,,,,,,,,0,0,0,0,0,0,0,0,0,0,0,0,0,0,0,0,,,,,,,,,,,
562658,1745095275121,0.0,205.38,,-0.07,0.07,0.84,1,-0,-0,0.84,1.15,73,2875,15.9,4.11,,13.75,1.252,97.0,,33.5,5,,,,,,,,,,,,0,0,0,0,0,0,0,0,0,0,0,0,0,0,0,0,,,,,0.0,,,,,,
562678,1745095275141,,,,,,,,,,,,,,,,,,,,,,,1,0,1,1,0.0,0.0,0.0,0.0,2.26,,,0,0,0,0,0,0,0,0,0,0,0,0,0,0,0,0,0,,,,,39.240189,-77.964813,1.53,34,3,0.8
562698,1745095275161,0.0,205.38,,-0.06,0.07,0.75,1,-0,-0,0.76,1.15,66,3028,16.0,4.1,,13.64,1.253,97.0,,33.5,5,,,,,,,,,,,,0,0,0,0,0,0,0,0,0,0,0,0,0,0,0,0,,,,,0.0,,,,,,
562718,1745095275181,,,,,,,,,,,,,,,,,,,,,,,,,,,,,,,,,,0,0,0,0,0,0,0,0,0,0,0,0,0,0,0,0,,,,,,,,,,,
562738,1745095275197,0.0,205.51,,-0.04,0.13,0.71,1,-0,-0,0.73,1.15,63,3113,19.8,4.09,,13.68,1.253,97.0,,34.9,5,,,,,,,,,,,,0,0,0,0,0,0,0,0,0,0,0,0,0,0,0,0,,,,,0.0,,,,,,
562758,1745095275217,,,,,,,,,,,,,,,,,,,,,,,,,,,,,,,,,,0,0,0,0,0,0,0,0,0,0,0,0,0,0,0,0,,,,,,,,,,,
562778,1745095275237,0.0,205.38,,-0.03,0.12,0.8,0,-0,0,0.81,1.15,71,3157,22.7,4.29,,13.68,1.253,97.0,,34.9,5,1,0,1,1,0.0,0.0,0.0,0.0,2.26,,,0,0,0,0,0,0,0,0,0,0,0,0,0,0,0,0,0,,,,0.0,39.240189,-77.964813,1.38,34,3,0.8
562798,1745095275257,,,,,,,,,,,,,,,,,,,,,,,,,,,,,,,,,,0,0,0,0,0,0,0,0,0,0,0,0,0,0,0,0,,,,,,,,,,,
562818,1745095275277,0.0,205.38,,-0.06,0.08,0.78,1,-0,-0,0.79,1.15,69,3157,22.7,4.29,,13.8,1.253,97.0,,38.1,5,,,,,,,,,,,,0,0,0,0,0,0,0,0,0,0,0,0,0,0,0,0,,,,,0.0,,,,,,
562838,1745095275303,,,,,,,,,,,,,,,,,,,,,,,,,,,,,,,,,,0,0,0,0,0,0,0,0,0,0,0,0,0,0,0,0,,,,,,,,,,,
562858,1745095275323,0.0,205.51,,-0.07,0.07,0.81,1,-0,-0,0.81,1.15,71,3624,23.2,4.25,,13.77,1.251,97.0,,38.1,5,,,,,,,,,,,,0,0,0,0,0,0,0,0,0,0,0,0,0,0,0,0,,,,,0.0,,,,,,
562878,1745095275343,,,,,,,,,,,,,,,,,,,,,,,1,0,1,1,0.0,0.0,0.0,0.0,2.26,,,0,0,0,0,0,0,0,0,0,0,0,0,0,0,0,0,0,,,,,39.240189,-77.964813,1.42,34,3,0.8
562898,1745095275363,0.0,205.51,,-0.09,0.13,0.87,0,-0,0,0.88,1.15,77,3819,23.3,4.23,,13.59,1.25,97.0,,38.1,5,,,,,,,,,,,,0,0,0,0,0,0,0,0,0,0,0,0,0,0,0,0,,,,,0.0,,,,,,
562918,1745095275383,,,,,,,,,,,,,,,,,,,,,,,,,,,,,,,,,,0,0,0,0,0,0,0,0,0,0,0,0,0,0,0,0,,,,,,,,,,,
562938,1745095275403,0.0,205.51,,-0.1,0.0,0.79,0,-0,0,0.8,1.15,70,4040,23.2,4.22,,13.56,1.25,97.0,,47.5,5,,,,,,,,,,,,0,0,0,0,0,0,0,0,0,0,0,0,0,0,0,0,,,,,0.0,,,,,,
562958,1745095275423,,,,,,,,,,,,,,,,,,,,,,,,,,,,,,,,,,0,0,0,0,0,0,0,0,0,0,0,0,0,0,0,0,,,,,,,,,,,
562978,1745095275443,0.0,205.51,,-0.1,0.08,0.89,1,-0,0,0.9,1.15,79,4180,23.2,4.21,,13.56,1.25,97.0,,47.5,5,1,0,1,1,0.0,0.0,0.0,0.0,2.26,,,0,0,0,0,0,0,0,0,0,0,0,0,0,0,0,0,0,,,,0.0,39.240189,-77.964813,1.24,34,3,0.8
562998,1745095275463,,,,,,,,,,,,,,,,,,,,,,,,,,,,,,,,,,0,0,0,0,0,0,0,0,0,0,0,0,0,0,0,0,,,,,,,,,,,
563018,1745095275483,0.0,205.51,,-0.09,-0.04,0.81,1,-0,-0,0.82,1.15,71,4180,23.2,4.21,,13.49,1.237,97.0,,52.0,5,,,,,,,,,,,,0,0,0,0,0,0,0,0,0,0,0,0,0,0,0,0,,,,,0.0,,,,,,
563038,1745095275504,,,,,,,,,,,,,,,,,,,,,,,,,,,,,,,,,,0,0,0,0,0,0,0,0,0,0,0,0,0,0,0,0,,,,,,,,,,,
563058,1745095275524,0.0,205.51,,-0.15,-0.01,0.88,0,-0,0,0.89,1.15,78,4162,23.0,4.21,,13.48,1.217,97.0,,52.0,5,,,,,,,,,,,,0,0,0,0,0,0,0,0,0,0,0,0,0,0,0,0,,,,,0.0,,,,,,
563078,1745095275544,,,,,,,,,,,,,,,,,,,,,,,1,0,1,1,0.0,0.0,0.0,0.0,2.26,,,0,0,0,0,0,0,0,0,0,0,0,0,0,0,0,0,0,,,,,39.240189,-77.964813,1.01,34,3,0.8
563098,1745095275564,0.0,205.51,,-0.17,-0.06,0.85,-0,-0,0,0.86,1.15,75,4543,23.1,4.19,,13.41,1.248,97.0,,52.0,5,,,,,,,,,,,,0,0,0,0,0,0,0,0,0,0,0,0,0,0,0,0,,,,,0.0,,,,,,
563118,1745095275584,,,,,,,,,,,,,,,,,,,,,,,,,,,,,,,,,,0,0,0,0,0,0,0,0,0,0,0,0,0,0,0,0,,,,,,,,,,,
563138,1745095275603,0.0,205.51,,-0.13,-0.04,0.89,-0,-0,0,0.9,1.15,78,4899,23.1,4.15,,13.35,1.233,97.0,,59.2,5,,,,,,,,,,,,0,0,0,0,0,0,0,0,0,0,0,0,0,0,0,0,,,,,0.0,,,,,,
563158,1745095275623,,,,,,,,,,,,,,,,,,,,,,,,,,,,,,,,,,0,0,0,0,0,0,0,0,0,0,0,0,0,0,0,0,,,,,,,,,,,
563178,1745095275643,0.0,205.63,,-0.14,-0.04,0.87,-0,-0,0,0.89,1.15,77,5383,23.0,4.13,,13.35,1.233,97.0,,59.2,5,1,0,1,1,0.0,0.0,0.0,0.0,2.27,,,0,0,0,0,0,0,0,0,0,0,0,0,0,0,0,0,0,,,,0.0,39.240189,-77.964813,0.93,34,3,0.8
563198,1745095275663,,,,,,,,,,,,,,,,,,,,,,,,,,,,,,,,,,0,0,0,0,0,0,0,0,0,0,0,0,0,0,0,0,,,,,,,,,,,
563218,1745095275683,0.0,205.63,,-0.12,-0.03,0.92,0,-0,-0,0.93,1.15,81,5383,23.0,4.13,,13.24,1.051,97.0,,61.7,5,,,,,,,,,,,,0,0,0,0,0,0,0,0,0,0,0,0,0,0,0,0,,,,,0.0,,,,,,
563238,1745095275703,,,,,,,,,,,,,,,,,,,,,,,,,,,,,,,,,,0,0,0,0,0,0,0,0,0,0,0,0,0,0,0,0,,,,,,,,,,,
563258,1745095275723,0.0,205.63,,-0.11,-0.16,0.82,2,-0,-1,0.85,1.15,74,5744,23.2,4.13,,12.73,0.994,97.0,,61.7,5,,,,,,,,,,,,0,0,0,0,0,0,0,0,0,0,0,0,0,0,0,0,,,,,0.0,,,,,,
563278,1745095275743,,,,,,,,,,,,,,,,,,,,,,,1,0,1,1,0.0,0.0,0.0,0.0,2.26,,,0,0,0,0,0,0,0,0,0,0,0,0,0,0,0,0,0,,,,,39.240189,-77.964813,0.81,34,3,0.8
563298,1745095275763,0.0,205.63,,-0.12,-0.15,0.86,1,-0,-1,0.88,1.15,77,6191,23.2,4.22,,12.39,1.016,97.0,,61.7,5,,,,,,,,,,,,0,0,0,0,0,0,0,0,0,0,0,0,0,0,0,0,,,,,0.0,,,,,,
563318,1745095275783,,,,,,,,,,,,,,,,,,,,,,,,,,,,,,,,,,0,0,0,0,0,0,0,0,0,0,0,0,0,0,0,0,,,,,,,,,,,
563338,1745095275803,0.0,205.63,,-0.11,-0.16,0.86,2,-0,-1,0.88,1.15,77,6765,23.3,4.86,,12.03,1.042,97.0,,64.4,5,,,,,,,,,,,,0,0,0,0,0,0,0,0,0,0,0,0,0,0,0,0,,,,,0.0,,,,,,
563358,1745095275823,,,,,,,,,,,,,,,,,,,,,,,,,,,,,,,,,,0,0,0,0,0,0,0,0,0,0,0,0,0,0,0,0,,,,,,,,,,,
563378,1745095275843,0.0,205.51,13.41,-0.08,-0.01,0.86,-1,-0,0,0.86,1.15,75,7677,23.3,5.07,15,12.03,1.042,97.0,135,64.4,5,1,0,1,1,0.0,0.0,0.0,0.0,2.26,0,0.0,0,0,0,0,0,0,0,0,0,0,0,0,0,0,0,0,0,0.0,0,0,0.0,39.240189,-77.964821,0.81,34,3,0.8
563398,1745095275863,,,,,,,,,,,,,,,,,,,,,,,,,,,,,,,,,,0,0,0,0,0,0,0,0,0,0,0,0,0,0,0,0,,,,,,,,,,,
563418,1745095275883,0.0,205.63,,-0.08,-0.03,0.91,-1,-0,0,0.91,1.15,79,7677,23.3,5.07,,11.76,1.016,97.0,,69.2,5,,,,,,,,,,,,0,0,0,0,0,0,0,0,0,0,0,0,0,0,0,0,,,,,0.0,,,,,,
563438,1745095275904,,,,,,,,,,,,,,,,,,,,,,,,,,,,,,,,,,0,0,0,0,0,0,0,0,0,0,0,0,0,0,0,0,,,,,,,,,,,
563458,1745095275924,0.0,205.51,,-0.04,-0.09,0.94,-1,-0,0,0.94,1.15,82,8748,24.4,4.61,,11.14,0.907,97.0,,69.2,5,,,,,,,,,,,,0,0,0,0,0,0,0,0,0,0,0,0,0,0,0,0,,,,,0.0,,,,,,
563478,1745095275944,,,,,,,,,,,,,,,,,,,,,,,0,0,1,1,0.0,0.0,0.0,0.0,2.26,,,0,0,0,0,0,0,0,0,0,0,0,0,0,0,0,0,0,,,,,39.240189,-77.964821,0.57,34,3,0.8
563498,1745095275964,0.0,205.51,,-0.03,0.06,0.88,-1,0,0,0.88,1.15,77,9838,24.2,3.52,,10.25,0.781,97.0,,69.2,5,,,,,,,,,,,,0,0,0,0,0,0,0,0,0,0,0,0,0,0,0,0,,,,,0.0,,,,,,
563518,1745095275984,,,,,,,,,,,,,,,,,,,,,,,,,,,,,,,,,,0,0,0,0,0,0,0,0,0,0,0,0,0,0,0,0,,,,,,,,,,,
563538,1745095275994,0.0,205.38,,-0.03,0.14,0.86,-1,0,0,0.87,1.15,76,10701,24.2,3.48,,9.97,0.779,97.0,,70.5,5,,,,,,,,,,,,0,0,0,0,0,0,0,0,0,0,0,0,0,0,0,0,,,,,0.0,,,,,,
563558,1745095276014,,,,,,,,,,,,,,,,,,,,,,,,,,,,,,,,,,0,0,0,0,0,0,0,0,0,0,0,0,0,0,0,0,,,,,,,,,,,
563578,1745095276034,0.0,205.38,,0.03,0.31,0.83,-2,-0,1,0.89,1.15,78,11300,24.2,3.42,,9.97,0.779,97.0,,70.5,5,0,0,1,0,0.0,0.0,0.0,0.0,2.26,,,0,0,0,0,0,0,0,0,0,0,0,0,0,0,0,0,0,,,,0.0,39.240189,-77.964821,0.64,33,3,0.8
563598,1745095276054,,,,,,,,,,,,,,,,,,,,,,,,,,,,,,,,,,0,0,0,0,0,0,0,0,0,0,0,0,0,0,0,0,,,,,,,,,,,
563618,1745095276074,0.0,205.38,,-0.02,0.11,0.84,-1,-0,0,0.85,1.15,74,11300,24.2,3.42,,9.66,0.814,97.0,,69.2,5,,,,,,,,,,,,0,0,0,0,0,0,0,0,0,0,0,0,0,0,0,0,,,,,0.0,,,,,,
563638,1745095276098,,,,,,,,,,,,,,,,,,,,,,,,,,,,,,,,,,0,0,0,0,0,0,0,0,0,0,0,0,0,0,0,0,,,,,,,,,,,
563658,1745095276118,0.0,205.25,,-0.07,-0.19,0.86,1,-0,-0,0.88,1.15,77,11807,24.3,3.3,,9.35,0.802,97.0,,69.2,5,,,,,,,,,,,,0,0,0,0,0,0,0,0,0,0,0,0,0,0,0,0,,,,,0.0,,,,,,
563678,1745095276138,,,,,,,,,,,,,,,,,,,,,,,0,0,0,0,0.0,0.0,0.0,0.0,2.27,,,0,0,0,0,0,0,0,0,0,0,0,0,0,0,0,0,0,,,,,39.240189,-77.964821,1.15,33,3,0.8
563698,1745095276158,0.0,205.25,,-0.04,-0.21,0.83,-0,-0,-1,0.86,1.15,75,12241,24.2,3.01,,8.98,0.796,97.0,,69.2,5,,,,,,,,,,,,0,0,0,0,0,0,0,0,0,0,0,0,0,0,0,0,,,,,0.0,,,,,,
563718,1745095276178,,,,,,,,,,,,,,,,,,,,,,,,,,,,,,,,,,0,0,0,0,0,0,0,0,0,0,0,0,0,0,0,0,,,,,,,,,,,
563738,1745095276200,0.0,205.13,,-0.01,-0.11,0.77,1,-0,-1,0.78,1.15,68,12451,24.2,2.76,,8.86,0.818,97.0,,70.1,5,,,,,,,,,,,,0,0,0,0,0,0,0,0,0,0,0,0,0,0,0,0,,,,,0.0,,,,,,
563758,1745095276220,,,,,,,,,,,,,,,,,,,,,,,,,,,,,,,,,,0,0,0,0,0,0,0,0,0,0,0,0,0,0,0,0,,,,,,,,,,,
563778,1745095276240,0.0,205.13,,0.01,-0.07,0.74,1,-0,-1,0.74,1.15,65,12590,24.4,2.55,,8.86,0.818,97.0,,70.1,5,0,0,0,1,0.0,0.0,0.0,0.0,2.26,,,0,0,0,0,0,0,0,0,0,0,0,0,0,0,0,0,0,,,,0.0,39.240189,-77.964821,1.48,33,3,0.8
563798,1745095276260,,,,,,,,,,,,,,,,,,,,,,,,,,,,,,,,,,0,0,0,0,0,0,0,0,0,0,0,0,0,0,0,0,,,,,,,,,,,
563818,1745095276280,0.0,205.13,,0.06,-0.11,0.71,1,-0,-1,0.72,1.15,63,12590,24.4,2.55,,8.57,0.87,97.0,,68.8,5,,,,,,,,,,,,0,0,0,0,0,0,0,0,0,0,0,0,0,0,0,0,,,,,0.0,,,,,,
563838,1745095276304,,,,,,,,,,,,,,,,,,,,,,,,,,,,,,,,,,0,0,0,0,0,0,0,0,0,0,0,0,0,0,0,0,,,,,,,,,,,
563858,1745095276324,0.0,205.13,,0.04,-0.01,0.89,1,-0,-0,0.89,1.15,78,12587,24.4,2.58,,8.55,0.929,97.0,,68.8,5,,,,,,,,,,,,0,0,0,0,0,0,0,0,0,0,0,0,0,0,0,0,,,,,0.0,,,,,,
563878,1745095276344,,,,,,,,,,,,,,,,,,,,,,,1,0,1,1,0.0,0.0,0.0,0.0,2.26,,,0,0,0,0,0,0,0,0,0,0,0,0,0,0,0,0,0,,,,,39.240189,-77.964821,1.8,33,3,0.8
563898,1745095276364,0.0,205.13,,0.04,-0.02,0.86,1,-1,-0,0.86,1.15,75,12541,24.4,2.56,,8.55,0.987,97.0,,68.8,5,,,,,,,,,,,,0,0,0,0,0,0,0,0,0,0,0,0,0,0,0,0,,,,,0.0,,,,,,
563918,1745095276384,,,,,,,,,,,,,,,,,,,,,,,,,,,,,,,,,,0,0,0,0,0,0,0,0,0,0,0,0,0,0,0,0,,,,,,,,,,,
563938,1745095276402,0.0,205.13,,0.06,-0.07,0.85,1,-0,-0,0.85,1.15,74,12376,24.4,2.7,,8.49,1.007,97.0,,69.4,5,,,,,,,,,,,,0,0,0,0,0,0,0,0,0,0,0,0,0,0,0,0,,,,,0.0,,,,,,
563958,1745095276422,,,,,,,,,,,,,,,,,,,,,,,,,,,,,,,,,,0,0,0,0,0,0,0,0,0,0,0,0,0,0,0,0,,,,,,,,,,,
563978,1745095276442,0.0,205.13,,0.11,-0.08,0.84,1,-0,-0,0.85,1.15,74,12087,24.3,2.91,,8.49,1.007,97.0,,69.4,5,1,0,1,1,0.0,0.0,0.0,0.0,2.26,,,0,0,0,0,0,0,0,0,0,0,0,0,0,0,0,0,0,,,,0.0,39.240189,-77.964821,2.19,33,3,0.8
563998,1745095276462,,,,,,,,,,,,,,,,,,,,,,,,,,,,,,,,,,0,0,0,0,0,0,0,0,0,0,0,0,0,0,0,0,,,,,,,,,,,
564018,1745095276482,0.0,205.13,,0.12,-0.03,0.84,0,-0,-0,0.85,1.15,74,12087,24.3,2.91,,8.61,1.034,97.0,,68.5,5,,,,,,,,,,,,0,0,0,0,0,0,0,0,0,0,0,0,0,0,0,0,,,,,0.0,,,,,,
564038,1745095276504,,,,,,,,,,,,,,,,,,,,,,,,,,,,,,,,,,0,0,0,0,0,0,0,0,0,0,0,0,0,0,0,0,,,,,,,,,,,
564058,1745095276524,0.0,205.0,,0.12,-0.11,0.89,1,-0,-0,0.91,1.15,79,11703,24.2,3.02,,8.77,1.053,97.0,,68.5,5,,,,,,,,,,,,0,0,0,0,0,0,0,0,0,0,0,0,0,0,0,0,,,,,0.0,,,,,,
564078,1745095276544,,,,,,,,,,,,,,,,,,,,,,,2,0,2,2,0.0,0.0,0.0,0.0,2.26,,,0,0,0,0,0,0,0,0,0,0,0,0,0,0,0,0,0,,,,,39.240189,-77.964821,2.77,33,3,0.8
564098,1745095276564,0.0,205.13,,0.13,-0.08,0.94,1,-0,0,0.95,1.15,83,11415,24.2,3.06,,9.13,1.034,97.0,,68.5,5,,,,,,,,,,,,0,0,0,0,0,0,0,0,0,0,0,0,0,0,0,0,,,,,0.0,,,,,,
564118,1745095276584,,,,,,,,,,,,,,,,,,,,,,,,,,,,,,,,,,0,0,0,0,0,0,0,0,0,0,0,0,0,0,0,0,,,,,,,,,,,
564138,1745095276604,0.0,205.0,,0.16,-0.0,0.98,2,-0,-0,0.99,1.15,87,11146,24.2,3.22,,9.17,0.977,97.0,,66.6,5,,,,,,,,,,,,0,0,0,0,0,0,0,0,0,0,0,0,0,0,0,0,,,,,0.0,,,,,,
564158,1745095276624,,,,,,,,,,,,,,,,,,,,,,,,,,,,,,,,,,0,0,0,0,0,0,0,0,0,0,0,0,0,0,0,0,,,,,,,,,,,
564178,1745095276644,0.0,205.0,,0.17,0.07,0.94,1,-0,0,0.96,1.15,83,10967,24.2,3.21,,9.17,0.977,97.0,,66.6,5,2,0,2,3,0.0,0.0,0.0,0.0,2.26,,,0,0,0,0,0,0,0,0,0,0,0,0,0,0,0,0,0,,,,0.0,39.240189,-77.964821,3.82,33,3,0.8
564198,1745095276664,,,,,,,,,,,,,,,,,,,,,,,,,,,,,,,,,,0,0,0,0,0,0,0,0,0,0,0,0,0,0,0,0,,,,,,,,,,,
564218,1745095276684,0.0,205.13,,0.15,-0.02,0.97,1,-0,0,0.98,1.15,86,10967,24.2,3.21,,9.23,0.961,97.0,,66.7,5,,,,,,,,,,,,0,0,0,0,0,0,0,0,0,0,0,0,0,0,0,0,,,,,0.0,,,,,,
564238,1745095276704,,,,,,,,,,,,,,,,,,,,,,,,,,,,,,,,,,0,0,0,0,0,0,0,0,0,0,0,0,0,0,0,0,,,,,,,,,,,
564258,1745095276724,0.0,205.0,,0.13,0.02,0.95,2,-0,0,0.96,1.15,84,10809,24.2,3.2,,9.23,0.966,97.0,,66.7,5,,,,,,,,,,,,0,0,0,0,0,0,0,0,0,0,0,0,0,0,0,0,,,,,0.0,,,,,,
564278,1745095276744,,,,,,,,,,,,,,,,,,,,,,,4,0,3,3,0.0,0.0,0.0,0.0,2.26,,,0,0,0,0,0,0,0,0,0,0,0,0,0,0,0,0,0,,,,,39.240192,-77.964821,5.01,33,3,0.8
564298,1745095276764,0.0,204.88,,0.15,0.11,0.89,1,-0,0,0.91,1.15,80,10593,24.3,3.22,,9.33,0.983,97.0,,66.7,5,,,,,,,,,,,,0,0,0,0,0,0,0,0,0,0,0,0,0,0,0,0,,,,,0.0,,,,,,
564318,1745095276784,,,,,,,,,,,,,,,,,,,,,,,,,,,,,,,,,,0,0,0,0,0,0,0,0,0,0,0,0,0,0,0,0,,,,,,,,,,,
564338,1745095276804,0.0,204.88,,0.15,0.26,0.88,1,-0,0,0.93,1.15,81,10482,24.4,3.26,,9.42,1.011,97.0,,66.3,5,,,,,,,,,,,,0,0,0,0,0,0,0,0,0,0,0,0,0,0,0,0,,,,,0.0,,,,,,
564358,1745095276824,,,,,,,,,,,,,,,,,,,,,,,,,,,,,,,,,,0,0,0,0,0,0,0,0,0,0,0,0,0,0,0,0,,,,,,,,,,,
564378,1745095276844,0.0,204.75,13.39,0.14,0.3,0.85,-0,0,1,0.92,1.15,80,10423,24.4,3.21,15,9.42,1.011,97.0,135,66.3,5,4,0,4,4,0.0,0.0,0.0,0.0,2.26,0,0.0,0,0,0,0,0,0,0,0,0,0,0,0,0,0,0,0,0,0.0,0,0,0.0,39.240192,-77.964828,6.67,33,3,0.8
