"Interval"|"ms"|0|0|1,"Utc"|"ms"|0|0|1,"FrontBP"|"psi"|-5.0|5.0|25,"SteerAng"|"Degrees"|-145.0|145.0|25,"Battery"|"Volts"|-5.0|20.0|1,"AccelX"|"G"|-3.0|3.0|25,"AccelY"|"G"|-3.0|3.0|25,"AccelZ"|"G"|-3.0|3.0|25,"Yaw"|"Deg/Sec"|-120|120|25,"Pitch"|"Deg/Sec"|-120|120|25,"Roll"|"Deg/Sec"|-120|120|25,"Gsum"|"G"|0.0|3.0|25,"GsumMax"|"G"|0.0|3.0|25,"GsumPct"|"%"|0|100|25,"RPM"|""|0|10000|25,"TPS"|"%"|0.0|100.0|25,"InjectorPW"|"ms"|0.0|100.0|25,"Baro"|"kPa"|0|105|1,"MAP"|"Psi"|0.0|255.0|25,"Lambda"|""|-2.0|2.0|25,"IAT"|"C"|0.0|200.0|25,"EngineTemp"|"C"|0|200|1,"EOP"|"PSI"|0.0|152.0|25,"EOT"|"F"|0|250|25,"WSFR"|"MPH"|0|150|10,"WSFL"|"MPH"|0|100|10,"WSRR"|"MPH"|0|100|10,"WSRL"|""|0|100|10,"TCSet"|"%"|0.0|100.0|10,"TCSlip"|"%"|0.0|100.0|10,"TCComp"|"deg"|0.0|50.0|10,"TCCut"|"%"|0.0|100.0|10,"Analog8"|""|0.0|5.0|10,"OilTemp"|"F"|0|300|1,"AA_On"|""|0.0|1.0|1,"ThermLF1"|"C"|0|400|50,"ThermLF2"|"C"|0|400|50,"ThermRR1"|"C"|0|400|50,"ThermRR2"|"C"|0|400|50,"ThermLF3"|"C"|0|400|50,"ThermLF4"|"C"|0|400|50,"ThermLF5"|"C"|0|400|50,"ThermLF6"|"C"|0|400|50,"ThermLF7"|"C"|0|400|50,"ThermLF8"|"C"|0|400|50,"ThermRR3"|"C"|0|400|50,"ThermRR4"|"C"|0|400|50,"ThermRR5"|"C"|0|400|50,"ThermRR6"|"C"|0|400|50,"ThermRR7"|"C"|0|400|50,"ThermRR8"|"C"|0|400|50,"Gear"|""|1|6|10,"AA_On"|""|0.0|1.0|1,"AA_LowDrag"|""|0|1|1,"Fuel_Mix"|""|-10|10|1,"AA_Packages"|""|0.0|1000.0|25,"Latitude"|"Degrees"|-180.0|180.0|10,"Longitude"|"Degrees"|-180.0|180.0|10,"Speed"|"kph"|0.0|150.0|10,"GPSSats"|""|0|20|10,"GPSQual"|""|0|5|10,"GPSDOP"|""|0.0|20.0|10
1129109,1745076402364,0.0,176.97,,-0.08,0.29,1.07,2,-0,0,1.11,1.11,100,7502,10.9,3.51,,10.01,0.752,77.2,,76.2,5,,,,,,,,,,,,0,0,0,0,0,0,0,0,0,0,0,0,0,0,0,0,,,,,0.0,,,,,,
1129129,1745076402384,,,,,,,,,,,,,,,,,,,,,,,,,,,,,,,,,,0,0,0,0,0,0,0,0,0,0,0,0,0,0,0,0,,,,,,,,,,,
1129149,1745076402406,0.0,176.97,,-0.08,0.31,1.07,3,-0,-0,1.11,1.11,100,7662,11.1,3.34,,9.88,0.733,77.2,,73.5,5,,,,,,,,,,,,0,0,0,0,0,0,0,0,0,0,0,0,0,0,0,0,,,,,0.0,,,,,,
1129169,1745076402426,,,,,,,,,,,,,,,,,,,,,,,,,,,,,,,,,,0,0,0,0,0,0,0,0,0,0,0,0,0,0,0,0,,,,,,,,,,,
1129189,1745076402446,0.0,176.97,,-0.05,0.26,1.08,1,-0,0,1.11,1.11,99,7696,11.3,3.3,,9.88,0.733,77.2,,73.5,5,0,0,0,0,0.0,0.0,0.0,0.0,2.26,,,0,0,0,0,0,0,0,0,0,0,0,0,0,0,0,0,0,,,,0.0,39.239529,-77.96463,0.07,27,3,1.0
1129209,1745076402466,,,,,,,,,,,,,,,,,,,,,,,,,,,,,,,,,,0,0,0,0,0,0,0,0,0,0,0,0,0,0,0,0,,,,,,,,,,,
1129229,1745076402486,0.0,176.97,,-0.05,0.14,1.08,0,-0,0,1.09,1.11,98,7696,11.3,3.3,,9.7,0.738,77.2,,75.4,5,,,,,,,,,,,,0,0,0,0,0,0,0,0,0,0,0,0,0,0,0,0,,,,,0.0,,,,,,
1129249,1745076402506,,,,,,,,,,,,,,,,,,,,,,,,,,,,,,,,,,0,0,0,0,0,0,0,0,0,0,0,0,0,0,0,0,,,,,,,,,,,
1129269,1745076402526,0.0,176.97,,-0.07,-0.02,1.12,0,-0,0,1.12,1.12,100,7580,11.5,3.31,,9.53,0.743,77.2,,75.4,5,,,,,,,,,,,,0,0,0,0,0,0,0,0,0,0,0,0,0,0,0,0,,,,,0.0,,,,,,
1129289,1745076402546,,,,,,,,,,,,,,,,,,,,,,,0,0,0,0,0.0,0.0,0.0,0.0,2.26,,,0,0,0,0,0,0,0,0,0,0,0,0,0,0,0,0,0,,,,,39.239529,-77.96463,0.15,27,3,1.0
1129309,1745076402566,0.0,176.85,,-0.1,-0.1,1.09,0,-0,0,1.1,1.12,99,7610,11.6,3.26,,9.66,0.752,77.2,,75.4,5,,,,,,,,,,,,0,0,0,0,0,0,0,0,0,0,0,0,0,0,0,0,,,,,0.0,,,,,,
1129329,1745076402586,,,,,,,,,,,,,,,,,,,,,,,,,,,,,,,,,,0,0,0,0,0,0,0,0,0,0,0,0,0,0,0,0,,,,,,,,,,,
1129349,1745076402606,0.0,176.85,,-0.09,-0.08,1.04,2,-0,-0,1.05,1.12,93,7585,11.8,3.27,,9.49,0.757,77.2,,74.1,5,,,,,,,,,,,,0,0,0,0,0,0,0,0,0,0,0,0,0,0,0,0,,,,,0.0,,,,,,
1129369,1745076402626,,,,,,,,,,,,,,,,,,,,,,,,,,,,,,,,,,0,0,0,0,0,0,0,0,0,0,0,0,0,0,0,0,,,,,,,,,,,
1129389,1745076402646,0.0,176.85,13.86,-0.07,-0.01,1.03,2,-0,-0,1.03,1.12,92,7592,11.8,3.22,15,9.49,0.757,77.2,97,74.1,5,0,0,0,0,0.0,0.0,0.0,0.0,2.26,0,0.0,0,0,0,0,0,0,0,0,0,0,0,0,0,0,0,0,0,0.0,0,0,0.0,39.239529,-77.96463,0.31,27,3,1.0
1129409,1745076402666,,,,,,,,,,,,,,,,,,,,,,,,,,,,,,,,,,0,0,0,0,0,0,0,0,0,0,0,0,0,0,0,0,,,,,,,,,,,
1129429,1745076402686,0.0,176.85,,-0.03,0.14,1.03,3,-0,-1,1.04,1.12,93,7592,11.8,3.22,,9.69,0.758,77.2,,75.0,5,,,,,,,,,,,,0,0,0,0,0,0,0,0,0,0,0,0,0,0,0,0,,,,,0.0,,,,,,
1129449,1745076402707,,,,,,,,,,,,,,,,,,,,,,,,,,,,,,,,,,0,0,0,0,0,0,0,0,0,0,0,0,0,0,0,0,,,,,,,,,,,
1129469,1745076402727,0.0,176.72,,-0.01,0.09,1.05,1,-0,-0,1.06,1.12,94,7574,11.8,3.25,,9.56,0.757,77.2,,75.0,5,,,,,,,,,,,,0,0,0,0,0,0,0,0,0,0,0,0,0,0,0,0,,,,,0.0,,,,,,
1129489,1745076402747,,,,,,,,,,,,,,,,,,,,,,,0,0,0,0,0.0,0.0,0.0,0.0,2.26,,,0,0,0,0,0,0,0,0,0,0,0,0,0,0,0,0,0,,,,,39.239529,-77.96463,0.53,27,3,1.0
1129509,1745076402767,0.0,176.72,,-0.01,0.07,1.08,-0,-0,0,1.09,1.12,97,7591,11.9,3.22,,9.62,0.761,77.2,,75.0,5,,,,,,,,,,,,0,0,0,0,0,0,0,0,0,0,0,0,0,0,0,0,,,,,0.0,,,,,,
1129529,1745076402787,,,,,,,,,,,,,,,,,,,,,,,,,,,,,,,,,,0,0,0,0,0,0,0,0,0,0,0,0,0,0,0,0,,,,,,,,,,,
1129549,1745076402806,0.0,176.72,,-0.02,-0.03,1.09,-0,-0,0,1.09,1.12,97,7696,12.4,3.29,,9.49,0.768,77.2,,75.3,5,,,,,,,,,,,,0,0,0,0,0,0,0,0,0,0,0,0,0,0,0,0,,,,,0.0,,,,,,
1129569,1745076402826,,,,,,,,,,,,,,,,,,,,,,,,,,,,,,,,,,0,0,0,0,0,0,0,0,0,0,0,0,0,0,0,0,,,,,,,,,,,
1129589,1745076402846,0.0,176.72,,-0.04,-0.08,1.09,-1,-0,0,1.1,1.12,98,7759,12.9,3.27,,9.49,0.768,77.2,,75.3,5,0,0,0,0,0.0,0.0,0.0,0.0,2.26,,,0,0,0,0,0,0,0,0,0,0,0,0,0,0,0,0,0,,,,0.0,39.239529,-77.96463,0.81,27,3,1.0
1129609,1745076402866,,,,,,,,,,,,,,,,,,,,,,,,,,,,,,,,,,0,0,0,0,0,0,0,0,0,0,0,0,0,0,0,0,,,,,,,,,,,
1129629,1745076402886,0.0,176.72,,-0.02,-0.16,1.1,-2,-0,0,1.11,1.12,100,7759,12.9,3.27,,9.53,0.775,77.2,,78.3,5,,,,,,,,,,,,0,0,0,0,0,0,0,0,0,0,0,0,0,0,0,0,,,,,0.0,,,,,,
1129649,1745076402906,,,,,,,,,,,,,,,,,,,,,,,,,,,,,,,,,,0,0,0,0,0,0,0,0,0,0,0,0,0,0,0,0,,,,,,,,,,,
1129669,1745076402926,0.0,176.6,,-0.01,-0.07,1.08,-2,-0,1,1.08,1.12,97,7915,13.3,3.27,,9.7,0.781,77.2,,78.3,5,,,,,,,,,,,,0,0,0,0,0,0,0,0,0,0,0,0,0,0,0,0,,,,,0.0,,,,,,
1129689,1745076402946,,,,,,,,,,,,,,,,,,,,,,,0,0,0,0,0.0,0.0,0.0,0.0,2.26,,,0,0,0,0,0,0,0,0,0,0,0,0,0,0,0,0,0,,,,,39.239529,-77.96463,1.0,27,3,1.0
1129709,1745076402966,0.0,176.6,,-0.02,-0.07,1.1,-2,-0,1,1.11,1.12,99,8105,14.1,3.25,,9.6,0.788,77.2,,78.3,5,,,,,,,,,,,,0,0,0,0,0,0,0,0,0,0,0,0,0,0,0,0,,,,,0.0,,,,,,
1129729,1745076402986,,,,,,,,,,,,,,,,,,,,,,,,,,,,,,,,,,0,0,0,0,0,0,0,0,0,0,0,0,0,0,0,0,,,,,,,,,,,
1129749,1745076402998,0.0,176.6,,-0.03,-0.08,1.12,-2,-0,1,1.12,1.12,100,8392,15.0,3.23,,9.54,0.792,77.2,,77.9,5,,,,,,,,,,,,0,0,0,0,0,0,0,0,0,0,0,0,0,0,0,0,,,,,0.0,,,,,,
1129769,1745076403018,,,,,,,,,,,,,,,,,,,,,,,,,,,,,,,,,,0,0,0,0,0,0,0,0,0,0,0,0,0,0,0,0,,,,,,,,,,,
1129789,1745076403038,0.0,176.6,,-0.03,-0.02,1.11,-1,-0,1,1.11,1.12,99,8663,15.5,3.16,,9.54,0.792,77.2,,77.9,5,1,0,1,1,0.0,0.0,0.0,0.0,2.26,,,0,0,0,0,0,0,0,0,0,0,0,0,0,0,0,0,0,,,,0.0,39.239529,-77.96463,1.2,27,3,1.0
1129809,1745076403058,,,,,,,,,,,,,,,,,,,,,,,,,,,,,,,,,,0,0,0,0,0,0,0,0,0,0,0,0,0,0,0,0,,,,,,,,,,,
1129829,1745076403078,0.0,176.47,,-0.03,-0.06,1.08,-1,-0,0,1.08,1.12,96,8663,15.5,3.16,,9.42,0.801,77.2,,76.3,5,,,,,,,,,,,,0,0,0,0,0,0,0,0,0,0,0,0,0,0,0,0,,,,,0.0,,,,,,
1129849,1745076403102,,,,,,,,,,,,,,,,,,,,,,,,,,,,,,,,,,0,0,0,0,0,0,0,0,0,0,0,0,0,0,0,0,,,,,,,,,,,
1129869,1745076403122,0.0,176.47,,-0.04,-0.11,1.07,-1,-0,0,1.07,1.12,96,8872,16.1,3.11,,9.39,0.812,77.2,,76.3,5,,,,,,,,,,,,0,0,0,0,0,0,0,0,0,0,0,0,0,0,0,0,,,,,0.0,,,,,,
1129889,1745076403142,,,,,,,,,,,,,,,,,,,,,,,1,0,1,1,0.0,0.0,0.0,0.0,2.26,,,0,0,0,0,0,0,0,0,0,0,0,0,0,0,0,0,0,,,,,39.239529,-77.96463,1.5,27,3,1.0
1129909,1745076403162,0.0,176.47,,-0.02,-0.15,1.07,-2,-0,0,1.08,1.12,96,8955,16.4,3.08,,9.29,0.829,77.2,,76.3,5,,,,,,,,,,,,0,0,0,0,0,0,0,0,0,0,0,0,0,0,0,0,,,,,0.0,,,,,,
1129929,1745076403182,,,,,,,,,,,,,,,,,,,,,,,,,,,,,,,,,,0,0,0,0,0,0,0,0,0,0,0,0,0,0,0,0,,,,,,,,,,,
1129949,1745076403204,0.0,176.34,,0.01,-0.14,1.06,-2,-0,0,1.07,1.12,96,8974,16.5,3.04,,9.26,0.841,77.2,,74.9,5,,,,,,,,,,,,0,0,0,0,0,0,0,0,0,0,0,0,0,0,0,0,,,,,0.0,,,,,,
1129969,1745076403224,,,,,,,,,,,,,,,,,,,,,,,,,,,,,,,,,,0,0,0,0,0,0,0,0,0,0,0,0,0,0,0,0,,,,,,,,,,,
1129989,1745076403244,0.0,176.34,,0.05,-0.15,1.04,-2,0,0,1.05,1.12,94,9001,16.5,3.07,,9.26,0.841,77.2,,74.9,5,1,0,1,1,0.0,0.0,0.0,0.0,2.26,,,0,0,0,0,0,0,0,0,0,0,0,0,0,0,0,0,0,,,,0.0,39.239529,-77.96463,1.83,27,3,1.0
1130009,1745076403264,,,,,,,,,,,,,,,,,,,,,,,,,,,,,,,,,,0,0,0,0,0,0,0,0,0,0,0,0,0,0,0,0,,,,,,,,,,,
1130029,1745076403284,0.0,176.34,,0.08,-0.13,1.01,-3,-0,0,1.02,1.12,91,9001,16.5,3.07,,9.17,0.855,77.2,,73.9,5,,,,,,,,,,,,0,0,0,0,0,0,0,0,0,0,0,0,0,0,0,0,,,,,0.0,,,,,,
1130049,1745076403305,,,,,,,,,,,,,,,,,,,,,,,,,,,,,,,,,,0,0,0,0,0,0,0,0,0,0,0,0,0,0,0,0,,,,,,,,,,,
1130069,1745076403325,0.0,176.22,,0.09,-0.13,0.98,-3,-0,0,1.0,1.12,89,9005,16.5,3.07,,9.07,0.86,77.2,,73.9,5,,,,,,,,,,,,0,0,0,0,0,0,0,0,0,0,0,0,0,0,0,0,,,,,0.0,,,,,,
1130089,1745076403345,,,,,,,,,,,,,,,,,,,,,,,2,0,2,2,0.0,0.0,0.0,0.0,2.26,,,0,0,0,0,0,0,0,0,0,0,0,0,0,0,0,0,0,,,,,39.239529,-77.96463,2.58,27,3,1.0
1130109,1745076403365,0.0,176.34,,0.12,-0.09,0.97,-4,-0,1,0.99,1.12,88,8951,16.5,3.05,,9.11,0.868,77.2,,73.9,5,,,,,,,,,,,,0,0,0,0,0,0,0,0,0,0,0,0,0,0,0,0,,,,,0.0,,,,,,
1130129,1745076403385,,,,,,,,,,,,,,,,,,,,,,,,,,,,,,,,,,0,0,0,0,0,0,0,0,0,0,0,0,0,0,0,0,,,,,,,,,,,
1130149,1745076403405,0.0,176.22,,0.14,-0.02,0.96,-4,-0,1,0.97,1.12,87,8916,16.4,3.07,,9.07,0.876,77.2,,74.7,5,,,,,,,,,,,,0,0,0,0,0,0,0,0,0,0,0,0,0,0,0,0,,,,,0.0,,,,,,
1130169,1745076403425,,,,,,,,,,,,,,,,,,,,,,,,,,,,,,,,,,0,0,0,0,0,0,0,0,0,0,0,0,0,0,0,0,,,,,,,,,,,
1130189,1745076403445,0.0,176.34,,0.16,0.06,0.97,-4,-0,0,0.98,1.12,88,8933,16.3,3.04,,9.07,0.876,77.2,,74.7,5,2,0,2,2,0.0,0.0,0.0,0.0,2.26,,,0,0,0,0,0,0,0,0,0,0,0,0,0,0,0,0,0,,,,0.0,39.239529,-77.96463,3.35,27,3,1.0
1130209,1745076403465,,,,,,,,,,,,,,,,,,,,,,,,,,,,,,,,,,0,0,0,0,0,0,0,0,0,0,0,0,0,0,0,0,,,,,,,,,,,
1130229,1745076403485,0.0,176.34,,0.19,0.12,0.98,-3,-0,1,1.0,1.12,90,8933,16.3,3.04,,9.17,0.875,77.2,,74.4,5,,,,,,,,,,,,0,0,0,0,0,0,0,0,0,0,0,0,0,0,0,0,,,,,0.0,,,,,,
1130249,1745076403505,,,,,,,,,,,,,,,,,,,,,,,,,,,,,,,,,,0,0,0,0,0,0,0,0,0,0,0,0,0,0,0,0,,,,,,,,,,,
1130269,1745076403525,0.0,176.34,,0.21,0.16,1.01,-3,-0,0,1.04,1.12,93,8942,16.3,3.09,,9.11,0.88,77.2,,74.4,5,,,,,,,,,,,,0,0,0,0,0,0,0,0,0,0,0,0,0,0,0,0,,,,,0.0,,,,,,
1130289,1745076403545,,,,,,,,,,,,,,,,,,,,,,,3,0,3,3,0.0,0.0,0.0,0.0,2.27,,,0,0,0,0,0,0,0,0,0,0,0,0,0,0,0,0,0,,,,,39.239525,-77.96463,4.07,27,3,1.0
1130309,1745076403565,0.0,176.34,,0.22,0.14,1.02,-1,-0,0,1.05,1.12,94,8930,16.4,3.04,,9.15,0.888,77.2,,74.4,5,,,,,,,,,,,,0,0,0,0,0,0,0,0,0,0,0,0,0,0,0,0,,,,,0.0,,,,,,
1130329,1745076403585,,,,,,,,,,,,,,,,,,,,,,,,,,,,,,,,,,0,0,0,0,0,0,0,0,0,0,0,0,0,0,0,0,,,,,,,,,,,
1130349,1745076403603,0.0,176.34,,0.24,0.05,1.04,-1,-0,0,1.07,1.12,96,8925,16.4,3.06,,9.15,0.893,77.2,,74.6,5,,,,,,,,,,,,0,0,0,0,0,0,0,0,0,0,0,0,0,0,0,0,,,,,0.0,,,,,,
1130369,1745076403623,,,,,,,,,,,,,,,,,,,,,,,,,,,,,,,,,,0,0,0,0,0,0,0,0,0,0,0,0,0,0,0,0,,,,,,,,,,,
1130389,1745076403643,0.0,176.34,13.8,0.25,-0.08,1.1,-0,-0,0,1.13,1.13,100,8935,16.5,3.07,15,9.15,0.893,77.2,97,74.6,5,3,0,3,3,0.0,0.0,0.0,0.0,2.26,0,0.0,0,0,0,0,0,0,0,0,0,0,0,0,0,0,0,0,0,0.0,0,0,0.0,39.239525,-77.96463,4.84,27,3,1.0
1130409,1745076403663,,,,,,,,,,,,,,,,,,,,,,,,,,,,,,,,,,0,0,0,0,0,0,0,0,0,0,0,0,0,0,0,0,,,,,,,,,,,
1130429,1745076403683,0.0,176.34,,0.24,-0.19,1.11,-0,-0,0,1.15,1.15,100,8935,16.5,3.07,,9.19,0.895,77.2,,75.3,5,,,,,,,,,,,,0,0,0,0,0,0,0,0,0,0,0,0,0,0,0,0,,,,,0.0,,,,,,
1130449,1745076403705,,,,,,,,,,,,,,,,,,,,,,,,,,,,,,,,,,0,0,0,0,0,0,0,0,0,0,0,0,0,0,0,0,,,,,,,,,,,
1130469,1745076403725,0.0,176.22,,0.24,-0.25,1.11,-0,-0,0,1.17,1.17,100,8958,16.6,3.06,,9.17,0.904,77.2,,75.3,5,,,,,,,,,,,,0,0,0,0,0,0,0,0,0,0,0,0,0,0,0,0,,,,,0.0,,,,,,
1130489,1745076403745,,,,,,,,,,,,,,,,,,,,,,,4,0,4,4,0.0,0.0,0.0,0.0,2.26,,,0,0,0,0,0,0,0,0,0,0,0,0,0,0,0,0,0,,,,,39.239525,-77.96463,5.56,27,3,1.0
1130509,1745076403765,0.0,176.22,,0.21,-0.26,1.1,-0,-0,0,1.15,1.17,98,8969,16.6,3.07,,9.15,0.91,77.2,,75.3,5,,,,,,,,,,,,0,0,0,0,0,0,0,0,0,0,0,0,0,0,0,0,,,,,0.0,,,,,,
1130529,1745076403785,,,,,,,,,,,,,,,,,,,,,,,,,,,,,,,,,,0,0,0,0,0,0,0,0,0,0,0,0,0,0,0,0,,,,,,,,,,,
1130549,1745076403805,0.0,176.09,,0.18,-0.23,1.09,-1,-0,0,1.13,1.17,96,8965,16.6,3.07,,9.06,0.917,77.2,,75.5,5,,,,,,,,,,,,0,0,0,0,0,0,0,0,0,0,0,0,0,0,0,0,,,,,0.0,,,,,,
1130569,1745076403825,,,,,,,,,,,,,,,,,,,,,,,,,,,,,,,,,,0,0,0,0,0,0,0,0,0,0,0,0,0,0,0,0,,,,,,,,,,,
1130589,1745076403845,0.0,175.97,,0.15,-0.2,1.05,-1,-0,1,1.08,1.17,93,8987,16.7,3.05,,9.06,0.917,77.2,,75.5,5,4,0,4,4,0.0,0.0,0.0,0.0,2.26,,,0,0,0,0,0,0,0,0,0,0,0,0,0,0,0,0,0,,,,0.0,39.239521,-77.96463,6.18,27,3,1.0
1130609,1745076403865,,,,,,,,,,,,,,,,,,,,,,,,,,,,,,,,,,0,0,0,0,0,0,0,0,0,0,0,0,0,0,0,0,,,,,,,,,,,
1130629,1745076403885,0.0,175.97,,0.13,-0.18,1.02,-1,0,1,1.05,1.17,90,8987,16.7,3.05,,9.05,0.919,77.2,,75.3,5,,,,,,,,,,,,0,0,0,0,0,0,0,0,0,0,0,0,0,0,0,0,,,,,0.0,,,,,,
1130649,1745076403905,,,,,,,,,,,,,,,,,,,,,,,,,,,,,,,,,,0,0,0,0,0,0,0,0,0,0,0,0,0,0,0,0,,,,,,,,,,,
1130669,1745076403925,0.0,175.97,,0.11,-0.17,0.99,-1,-0,1,1.01,1.17,87,8967,16.5,3.02,,9.15,0.923,77.2,,75.3,5,,,,,,,,,,,,0,0,0,0,0,0,0,0,0,0,0,0,0,0,0,0,,,,,0.0,,,,,,
1130689,1745076403945,,,,,,,,,,,,,,,,,,,,,,,4,0,5,4,0.0,0.0,0.0,0.0,2.26,,,0,0,0,0,0,0,0,0,0,0,0,0,0,0,0,0,0,,,,,39.239521,-77.964638,6.86,27,3,1.0
1130709,1745076403965,0.0,175.84,,0.1,-0.19,0.97,-2,-0,1,0.99,1.17,85,8998,16.4,3.03,,9.18,0.924,77.2,,75.3,5,,,,,,,,,,,,0,0,0,0,0,0,0,0,0,0,0,0,0,0,0,0,,,,,0.0,,,,,,
1130729,1745076403985,,,,,,,,,,,,,,,,,,,,,,,,,,,,,,,,,,0,0,0,0,0,0,0,0,0,0,0,0,0,0,0,0,,,,,,,,,,,
1130749,1745076403997,0.0,175.84,,0.1,-0.19,0.94,-2,0,1,0.97,1.17,83,8987,16.4,3.05,,9.11,0.925,77.2,,75.3,5,,,,,,,,,,,,0,0,0,0,0,0,0,0,0,0,0,0,0,0,0,0,,,,,0.0,,,,,,
1130769,1745076404017,,,,,,,,,,,,,,,,,,,,,,,,,,,,,,,,,,0,0,0,0,0,0,0,0,0,0,0,0,0,0,0,0,,,,,,,,,,,
1130789,1745076404037,0.0,175.84,,0.11,-0.16,0.92,-2,0,1,0.94,1.17,80,8955,16.2,3.05,,9.11,0.925,77.2,,75.3,5,5,0,5,5,0.0,0.0,0.0,0.0,2.26,,,0,0,0,0,0,0,0,0,0,0,0,0,0,0,0,0,0,,,,0.0,39.239517,-77.964638,7.5,26,3,1.0
1130809,1745076404057,,,,,,,,,,,,,,,,,,,,,,,,,,,,,,,,,,0,0,0,0,0,0,0,0,0,0,0,0,0,0,0,0,,,,,,,,,,,
1130829,1745076404077,0.0,175.72,,0.11,-0.12,0.89,-3,0,1,0.91,1.17,78,8955,16.2,3.05,,9.14,0.931,77.2,,75.3,5,,,,,,,,,,,,0,0,0,0,0,0,0,0,0,0,0,0,0,0,0,0,,,,,0.0,,,,,,
1130849,1745076404101,,,,,,,,,,,,,,,,,,,,,,,,,,,,,,,,,,0,0,0,0,0,0,0,0,0,0,0,0,0,0,0,0,,,,,,,,,,,
1130869,1745076404121,0.0,175.59,,0.12,-0.08,0.85,-3,0,1,0.87,1.17,74,8992,16.0,3.01,,9.06,0.933,77.2,,75.3,5,,,,,,,,,,,,0,0,0,0,0,0,0,0,0,0,0,0,0,0,0,0,,,,,0.0,,,,,,
1130889,1745076404141,,,,,,,,,,,,,,,,,,,,,,,5,0,5,6,0.0,0.0,0.0,0.0,2.26,,,0,0,0,0,0,0,0,0,0,0,0,0,0,0,0,0,0,,,,,39.239517,-77.964638,8.24,26,3,1.0
1130909,1745076404161,0.0,175.47,,0.12,-0.04,0.81,-3,0,1,0.82,1.17,70,9003,16.0,2.99,,9.05,0.934,77.2,,75.3,5,,,,,,,,,,,,0,0,0,0,0,0,0,0,0,0,0,0,0,0,0,0,,,,,0.0,,,,,,
1130929,1745076404181,,,,,,,,,,,,,,,,,,,,,,,,,,,,,,,,,,0,0,0,0,0,0,0,0,0,0,0,0,0,0,0,0,,,,,,,,,,,
1130949,1745076404205,0.0,175.34,,0.12,0.03,0.77,-3,0,1,0.78,1.17,67,8985,15.9,2.97,,9.06,0.937,77.2,,74.7,5,,,,,,,,,,,,0,0,0,0,0,0,0,0,0,0,0,0,0,0,0,0,,,,,0.0,,,,,,
1130969,1745076404225,,,,,,,,,,,,,,,,,,,,,,,,,,,,,,,,,,0,0,0,0,0,0,0,0,0,0,0,0,0,0,0,0,,,,,,,,,,,
1130989,1745076404245,0.0,175.34,,0.12,0.12,0.75,-3,-0,1,0.77,1.17,66,8962,15.8,2.96,,9.06,0.937,77.2,,74.7,5,6,0,6,6,0.0,0.0,0.0,0.0,2.26,,,0,0,0,0,0,0,0,0,0,0,0,0,0,0,0,0,0,,,,0.0,39.239513,-77.964638,8.82,27,3,0.1
1131009,1745076404265,,,,,,,,,,,,,,,,,,,,,,,,,,,,,,,,,,0,0,0,0,0,0,0,0,0,0,0,0,0,0,0,0,,,,,,,,,,,
1131029,1745076404285,0.0,175.21,,0.11,0.19,0.72,-2,-0,1,0.76,1.17,65,8962,15.8,2.96,,9.06,0.937,77.2,,73.8,5,,,,,,,,,,,,0,0,0,0,0,0,0,0,0,0,0,0,0,0,0,0,,,,,0.0,,,,,,
1131049,1745076404305,,,,,,,,,,,,,,,,,,,,,,,,,,,,,,,,,,0,0,0,0,0,0,0,0,0,0,0,0,0,0,0,0,,,,,,,,,,,
1131069,1745076404325,0.0,175.21,,0.09,0.22,0.72,-1,-0,1,0.76,1.17,65,8928,15.8,2.98,,8.99,0.936,77.2,,73.8,5,,,,,,,,,,,,0,0,0,0,0,0,0,0,0,0,0,0,0,0,0,0,,,,,0.0,,,,,,
1131089,1745076404345,,,,,,,,,,,,,,,,,,,,,,,6,0,6,6,0.0,0.0,0.0,0.0,2.26,,,0,0,0,0,0,0,0,0,0,0,0,0,0,0,0,0,0,,,,,39.23951,-77.964638,9.59,27,3,0.1
1131109,1745076404365,0.0,175.09,,0.09,0.27,0.74,0,-0,0,0.8,1.17,68,8914,15.5,2.96,,8.98,0.94,77.2,,73.8,5,,,,,,,,,,,,0,0,0,0,0,0,0,0,0,0,0,0,0,0,0,0,,,,,0.0,,,,,,
1131129,1745076404385,,,,,,,,,,,,,,,,,,,,,,,,,,,,,,,,,,0,0,0,0,0,0,0,0,0,0,0,0,0,0,0,0,,,,,,,,,,,
1131149,1745076404404,0.0,174.96,,0.09,0.22,0.76,1,-1,-0,0.8,1.17,68,8891,14.6,2.9,,8.82,0.94,77.2,,72.9,5,,,,,,,,,,,,0,0,0,0,0,0,0,0,0,0,0,0,0,0,0,0,,,,,0.0,,,,,,
1131169,1745076404424,,,,,,,,,,,,,,,,,,,,,,,,,,,,,,,,,,0,0,0,0,0,0,0,0,0,0,0,0,0,0,0,0,,,,,,,,,,,
1131189,1745076404444,0.0,174.96,,0.08,0.08,0.8,1,-1,-0,0.81,1.17,69,8833,12.5,2.87,,8.82,0.94,77.2,,72.9,5,7,0,7,7,0.0,0.0,0.0,0.0,2.26,,,0,0,0,0,0,0,0,0,0,0,0,0,0,0,0,0,0,,,,0.0,39.23951,-77.964638,10.1,27,3,0.1
1131209,1745076404464,,,,,,,,,,,,,,,,,,,,,,,,,,,,,,,,,,0,0,0,0,0,0,0,0,0,0,0,0,0,0,0,0,,,,,,,,,,,
1131229,1745076404484,0.0,174.84,,0.06,0.06,0.85,0,-1,-0,0.85,1.17,73,8833,12.5,2.87,,8.66,0.937,77.2,,73.7,5,,,,,,,,,,,,0,0,0,0,0,0,0,0,0,0,0,0,0,0,0,0,,,,,0.0,,,,,,
1131249,1745076404504,,,,,,,,,,,,,,,,,,,,,,,,,,,,,,,,,,0,0,0,0,0,0,0,0,0,0,0,0,0,0,0,0,,,,,,,,,,,
1131269,1745076404524,0.0,174.84,,0.08,0.06,0.88,1,-1,-0,0.88,1.17,76,8770,5.6,2.55,,7.94,0.933,77.2,,73.7,5,,,,,,,,,,,,0,0,0,0,0,0,0,0,0,0,0,0,0,0,0,0,,,,,0.0,,,,,,
1131289,1745076404544,,,,,,,,,,,,,,,,,,,,,,,7,0,7,7,0.0,247.0,0.0,0.0,2.26,,,0,0,0,0,0,0,0,0,0,0,0,0,0,0,0,0,0,,,,,39.239506,-77.964638,10.93,27,3,0.1
1131309,1745076404564,0.0,174.84,,0.07,0.03,0.92,1,-1,0,0.92,1.17,79,8463,0.5,1.4,,7.18,0.914,77.2,,73.7,5,,,,,,,,,,,,0,0,0,0,0,0,0,0,0,0,0,0,0,0,0,0,,,,,0.0,,,,,,
1131329,1745076404584,,,,,,,,,,,,,,,,,,,,,,,,,,,,,,,,,,0,0,0,0,0,0,0,0,0,0,0,0,0,0,0,0,,,,,,,,,,,
1131349,1745076404604,0.0,174.59,,0.08,-0.1,0.9,-1,-1,0,0.91,1.17,78,7904,0.0,1.4,,6.71,0.894,77.2,,69.3,5,,,,,,,,,,,,0,0,0,0,0,0,0,0,0,0,0,0,0,0,0,0,,,,,0.0,,,,,,
1131369,1745076404624,,,,,,,,,,,,,,,,,,,,,,,,,,,,,,,,,,0,0,0,0,0,0,0,0,0,0,0,0,0,0,0,0,,,,,,,,,,,
1131389,1745076404644,0.0,174.59,13.85,0.07,-0.06,0.96,-2,-1,1,0.96,1.17,82,7234,0.0,1.4,15,6.71,0.894,77.2,97,69.3,5,7,0,7,7,0.0,47.0,0.0,0.0,2.27,0,0.0,0,0,0,0,0,0,0,0,0,0,0,0,0,0,0,0,0,0.0,0,0,0.0,39.239506,-77.964638,11.35,27,3,0.1
1131409,1745076404664,,,,,,,,,,,,,,,,,,,,,,,,,,,,,,,,,,0,0,0,0,0,0,0,0,0,0,0,0,0,0,0,0,,,,,,,,,,,
1131429,1745076404684,0.0,174.59,,0.09,-0.05,0.99,-2,-1,1,0.99,1.17,85,7234,0.0,1.4,,6.52,0.947,77.2,,59.5,5,,,,,,,,,,,,0,0,0,0,0,0,0,0,0,0,0,0,0,0,0,0,,,,,0.0,,,,,,
1131449,1745076404704,,,,,,,,,,,,,,,,,,,,,,,,,,,,,,,,,,0,0,0,0,0,0,0,0,0,0,0,0,0,0,0,0,,,,,,,,,,,
1131469,1745076404724,0.0,174.59,,0.11,-0.02,1.09,-1,-1,0,1.1,1.17,94,6322,0.0,1.4,,6.84,0.999,77.2,,59.5,5,,,,,,,,,,,,0,0,0,0,0,0,0,0,0,0,0,0,0,0,0,0,,,,,0.0,,,,,,
1131489,1745076404744,,,,,,,,,,,,,,,,,,,,,,,8,0,8,8,0.0,17.0,0.0,0.0,2.26,,,0,0,0,0,0,0,0,0,0,0,0,0,0,0,0,0,0,,,,,39.239502,-77.964638,12.06,27,3,0.1
1131509,1745076404764,0.0,174.59,,0.11,-0.04,1.03,-0,-1,-0,1.04,1.17,89,5402,0.0,1.4,,7.38,1.027,77.2,,59.5,5,,,,,,,,,,,,0,0,0,0,0,0,0,0,0,0,0,0,0,0,0,0,,,,,0.0,,,,,,
1131529,1745076404784,,,,,,,,,,,,,,,,,,,,,,,,,,,,,,,,,,0,0,0,0,0,0,0,0,0,0,0,0,0,0,0,0,,,,,,,,,,,
1131549,1745076404804,0.0,174.46,,0.14,-0.06,1.04,1,-1,-1,1.05,1.17,90,4579,0.0,1.4,,7.91,1.044,77.2,,57.9,5,,,,,,,,,,,,0,0,0,0,0,0,0,0,0,0,0,0,0,0,0,0,,,,,0.0,,,,,,
1131569,1745076404824,,,,,,,,,,,,,,,,,,,,,,,,,,,,,,,,,,0,0,0,0,0,0,0,0,0,0,0,0,0,0,0,0,,,,,,,,,,,
1131589,1745076404844,0.0,174.46,,0.11,-0.07,1.03,1,-1,-0,1.04,1.17,89,4025,0.0,1.45,,7.91,1.044,77.2,,57.9,5,8,0,8,8,0.0,0.0,0.0,0.0,2.26,,,0,0,0,0,0,0,0,0,0,0,0,0,0,0,0,0,0,,,,0.0,39.239498,-77.964638,12.5,27,3,0.1
1131609,1745076404864,,,,,,,,,,,,,,,,,,,,,,,,,,,,,,,,,,0,0,0,0,0,0,0,0,0,0,0,0,0,0,0,0,,,,,,,,,,,
1131629,1745076404884,0.0,174.46,,0.09,-0.03,1.02,1,-0,-0,1.03,1.17,88,4025,0.0,1.45,,8.54,1.049,77.2,,54.8,5,,,,,,,,,,,,0,0,0,0,0,0,0,0,0,0,0,0,0,0,0,0,,,,,0.0,,,,,,
1131649,1745076404904,,,,,,,,,,,,,,,,,,,,,,,,,,,,,,,,,,0,0,0,0,0,0,0,0,0,0,0,0,0,0,0,0,,,,,,,,,,,
1131669,1745076404924,0.0,174.46,,0.05,-0.09,1.01,2,-0,-1,1.01,1.17,87,3588,0.0,1.66,,9.17,1.054,77.2,,54.8,5,,,,,,,,,,,,0,0,0,0,0,0,0,0,0,0,0,0,0,0,0,0,,,,,0.0,,,,,,
1131689,1745076404944,,,,,,,,,,,,,,,,,,,,,,,8,0,8,8,0.0,16.0,0.0,0.0,2.26,,,0,0,0,0,0,0,0,0,0,0,0,0,0,0,0,0,0,,,,,39.239494,-77.964638,13.02,27,3,0.1
1131709,1745076404964,0.0,174.46,,0.05,-0.05,0.93,2,0,-1,0.93,1.17,80,3182,0.0,1.89,,9.8,1.061,77.2,,54.8,5,,,,,,,,,,,,0,0,0,0,0,0,0,0,0,0,0,0,0,0,0,0,,,,,0.0,,,,,,
1131729,1745076404984,,,,,,,,,,,,,,,,,,,,,,,,,,,,,,,,,,0,0,0,0,0,0,0,0,0,0,0,0,0,0,0,0,,,,,,,,,,,
1131749,1745076404996,0.0,174.46,,0.02,-0.04,0.91,2,0,-1,0.91,1.17,78,2942,0.0,2.06,,10.42,1.067,77.2,,53.1,5,,,,,,,,,,,,0,0,0,0,0,0,0,0,0,0,0,0,0,0,0,0,,,,,0.0,,,,,,
1131769,1745076405016,,,,,,,,,,,,,,,,,,,,,,,,,,,,,,,,,,0,0,0,0,0,0,0,0,0,0,0,0,0,0,0,0,,,,,,,,,,,
1131789,1745076405036,0.0,174.59,,0.01,-0.02,0.92,2,0,-1,0.92,1.17,79,2715,0.0,2.26,,10.42,1.067,77.2,,53.1,5,8,0,8,8,0.0,232.0,0.0,0.0,2.26,,,0,0,0,0,0,0,0,0,0,0,0,0,0,0,0,0,0,,,,0.0,39.239491,-77.964645,12.8,27,3,0.1
1131809,1745076405056,,,,,,,,,,,,,,,,,,,,,,,,,,,,,,,,,,0,0,0,0,0,0,0,0,0,0,0,0,0,0,0,0,,,,,,,,,,,
1131829,1745076405076,0.0,174.59,,-0.01,-0.02,0.94,2,1,-1,0.94,1.17,80,2715,0.0,2.26,,10.96,1.078,77.2,,50.9,5,,,,,,,,,,,,0,0,0,0,0,0,0,0,0,0,0,0,0,0,0,0,,,,,0.0,,,,,,
1131849,1745076405105,,,,,,,,,,,,,,,,,,,,,,,,,,,,,,,,,,0,0,0,0,0,0,0,0,0,0,0,0,0,0,0,0,,,,,,,,,,,
1131869,1745076405125,0.0,174.59,,-0.04,-0.01,0.94,2,1,-1,0.94,1.17,80,2455,0.0,3.05,,11.52,1.103,77.2,,50.9,5,,,,,,,,,,,,0,0,0,0,0,0,0,0,0,0,0,0,0,0,0,0,,,,,0.0,,,,,,
1131889,1745076405145,,,,,,,,,,,,,,,,,,,,,,,8,0,8,8,0.0,248.0,0.0,0.0,2.26,,,0,0,0,0,0,0,0,0,0,0,0,0,0,0,0,0,0,,,,,39.239487,-77.964645,12.59,27,3,0.1
1131909,1745076405165,0.0,174.59,,-0.04,-0.02,0.95,2,1,-1,0.95,1.17,81,2198,0.0,3.19,,12.13,1.138,77.2,,50.9,5,,,,,,,,,,,,0,0,0,0,0,0,0,0,0,0,0,0,0,0,0,0,,,,,0.0,,,,,,
1131929,1745076405185,,,,,,,,,,,,,,,,,,,,,,,,,,,,,,,,,,0,0,0,0,0,0,0,0,0,0,0,0,0,0,0,0,,,,,,,,,,,
1131949,1745076405202,0.0,174.46,,-0.04,-0.03,0.95,3,1,-0,0.95,1.17,82,1969,0.0,3.31,,12.55,1.145,77.2,,43.0,5,,,,,,,,,,,,0,0,0,0,0,0,0,0,0,0,0,0,0,0,0,0,,,,,0.0,,,,,,
1131969,1745076405222,,,,,,,,,,,,,,,,,,,,,,,,,,,,,,,,,,0,0,0,0,0,0,0,0,0,0,0,0,0,0,0,0,,,,,,,,,,,
1131989,1745076405242,0.0,174.59,,-0.04,-0.02,0.98,2,1,-0,0.98,1.17,84,1784,0.0,3.36,,12.55,1.145,77.2,,43.0,5,8,0,8,8,0.0,35.0,0.0,0.0,2.26,,,0,0,0,0,0,0,0,0,0,0,0,0,0,0,0,0,0,,,,0.0,39.239487,-77.964645,12.31,27,3,0.1
1132009,1745076405262,,,,,,,,,,,,,,,,,,,,,,,,,,,,,,,,,,0,0,0,0,0,0,0,0,0,0,0,0,0,0,0,0,,,,,,,,,,,
1132029,1745076405282,0.0,174.59,,-0.07,-0.01,0.99,2,1,-0,1.0,1.17,85,1784,0.0,3.36,,13.04,1.143,77.2,,32.9,5,,,,,,,,,,,,0,0,0,0,0,0,0,0,0,0,0,0,0,0,0,0,,,,,0.0,,,,,,
1132049,1745076405305,,,,,,,,,,,,,,,,,,,,,,,,,,,,,,,,,,0,0,0,0,0,0,0,0,0,0,0,0,0,0,0,0,,,,,,,,,,,
1132069,1745076405325,0.0,174.59,,-0.08,-0.01,1.01,2,1,-0,1.01,1.17,86,1548,0.0,3.44,,13.23,1.139,77.2,,32.9,5,,,,,,,,,,,,0,0,0,0,0,0,0,0,0,0,0,0,0,0,0,0,,,,,0.0,,,,,,
1132089,1745076405345,,,,,,,,,,,,,,,,,,,,,,,8,0,7,7,0.0,17.0,0.0,0.0,2.26,,,0,0,0,0,0,0,0,0,0,0,0,0,0,0,0,0,0,,,,,39.239487,-77.964645,12.08,27,3,0.1
1132109,1745076405365,0.0,174.59,,-0.09,-0.01,1.01,2,1,-0,1.01,1.17,87,1369,0.0,3.46,,13.57,1.132,77.2,,32.9,5,,,,,,,,,,,,0,0,0,0,0,0,0,0,0,0,0,0,0,0,0,0,,,,,0.0,,,,,,
1132129,1745076405385,,,,,,,,,,,,,,,,,,,,,,,,,,,,,,,,,,0,0,0,0,0,0,0,0,0,0,0,0,0,0,0,0,,,,,,,,,,,
1132149,1745076405403,0.0,174.59,,-0.1,0.0,1.01,2,1,-0,1.01,1.17,86,1163,0.0,3.49,,13.71,1.125,77.2,,25.8,5,,,,,,,,,,,,0,0,0,0,0,0,0,0,0,0,0,0,0,0,0,0,,,,,0.0,,,,,,
1132169,1745076405423,,,,,,,,,,,,,,,,,,,,,,,,,,,,,,,,,,0,0,0,0,0,0,0,0,0,0,0,0,0,0,0,0,,,,,,,,,,,
1132189,1745076405443,0.0,174.59,,-0.1,-0.01,1.0,2,1,-0,1.0,1.17,86,1163,0.0,3.49,,13.71,1.125,77.2,,25.8,5,7,0,7,7,0.0,238.0,0.0,0.0,2.26,,,0,0,0,0,0,0,0,0,0,0,0,0,0,0,0,0,4,,,,0.0,39.239483,-77.964645,11.81,27,3,0.1
1132209,1745076405463,,,,,,,,,,,,,,,,,,,,,,,,,,,,,,,,,,0,0,0,0,0,0,0,0,0,0,0,0,0,0,0,0,,,,,,,,,,,
1132229,1745076405483,0.0,174.59,,-0.1,-0.0,1.0,2,1,-0,1.01,1.17,86,1163,0.0,3.49,,13.86,1.123,77.2,,22.7,5,,,,,,,,,,,,0,0,0,0,0,0,0,0,0,0,0,0,0,0,0,0,,,,,0.0,,,,,,
1132249,1745076405501,,,,,,,,,,,,,,,,,,,,,,,,,,,,,,,,,,0,0,0,0,0,0,0,0,0,0,0,0,0,0,0,0,,,,,,,,,,,
1132269,1745076405521,0.0,174.59,,-0.12,-0.01,1.0,2,1,-0,1.01,1.17,87,1016,0.0,3.53,,13.94,1.119,77.2,,22.7,5,,,,,,,,,,,,0,0,0,0,0,0,0,0,0,0,0,0,0,0,0,0,,,,,0.0,,,,,,
1132289,1745076405541,,,,,,,,,,,,,,,,,,,,,,,7,0,7,7,0.0,219.0,0.0,0.0,2.27,,,0,0,0,0,0,0,0,0,0,0,0,0,0,0,0,0,4,,,,,39.239479,-77.964645,11.62,27,3,0.1
1132309,1745076405561,0.0,174.59,,-0.13,-0.0,1.0,2,1,-0,1.01,1.17,86,1128,0.0,3.54,,14.03,1.103,77.2,,22.7,5,,,,,,,,,,,,0,0,0,0,0,0,0,0,0,0,0,0,0,0,0,0,,,,,0.0,,,,,,
1132329,1745076405581,,,,,,,,,,,,,,,,,,,,,,,,,,,,,,,,,,0,0,0,0,0,0,0,0,0,0,0,0,0,0,0,0,,,,,,,,,,,
1132349,1745076405601,0.0,174.59,,-0.13,-0.0,0.98,2,1,-0,0.99,1.17,85,1003,0.0,3.53,,14.02,1.1,77.2,,21.6,5,,,,,,,,,,,,0,0,0,0,0,0,0,0,0,0,0,0,0,0,0,0,,,,,0.0,,,,,,
1132369,1745076405621,,,,,,,,,,,,,,,,,,,,,,,,,,,,,,,,,,0,0,0,0,0,0,0,0,0,0,0,0,0,0,0,0,,,,,,,,,,,
1132389,1745076405641,0.75,174.59,13.75,-0.15,-0.02,0.98,2,0,-0,0.99,1.17,85,1674,0.0,3.5,15,14.02,1.1,77.2,97,21.6,5,7,0,7,7,0.0,201.0,0.0,0.0,2.27,0,0.0,0,0,0,0,0,0,0,0,0,0,0,0,0,0,0,0,5,0.0,0,-0,0.0,39.239475,-77.964653,11.26,27,3,0.1
1132409,1745076405661,,,,,,,,,,,,,,,,,,,,,,,,,,,,,,,,,,0,0,0,0,0,0,0,0,0,0,0,0,0,0,0,0,,,,,,,,,,,
1132429,1745076405681,2.64,174.71,,-0.13,-0.02,1.0,2,0,-0,1.0,1.17,86,1674,0.0,3.5,,13.83,1.093,77.2,,31.4,5,,,,,,,,,,,,0,0,0,0,0,0,0,0,0,0,0,0,0,0,0,0,,,,,0.0,,,,,,
1132449,1745076405701,,,,,,,,,,,,,,,,,,,,,,,,,,,,,,,,,,0,0,0,0,0,0,0,0,0,0,0,0,0,0,0,0,,,,,,,,,,,
1132469,1745076405721,5.78,174.59,,-0.13,-0.02,1.02,1,0,-0,1.03,1.17,88,1639,0.0,3.47,,13.76,1.11,79.0,,31.4,5,,,,,,,,,,,,0,0,0,0,0,0,0,0,0,0,0,0,0,0,0,0,,,,,0.0,,,,,,
1132489,1745076405741,,,,,,,,,,,,,,,,,,,,,,,7,0,7,7,0.0,237.0,0.0,0.0,2.27,,,0,0,0,0,0,0,0,0,0,0,0,0,0,0,0,0,5,,,,,39.239471,-77.964653,10.79,27,3,0.1
1132509,1745076405761,9.55,174.59,,-0.15,-0.02,1.0,1,0,-0,1.01,1.17,87,1670,0.0,3.47,,13.75,1.097,79.0,,31.4,5,,,,,,,,,,,,0,0,0,0,0,0,0,0,0,0,0,0,0,0,0,0,,,,,0.0,,,,,,
1132529,1745076405781,,,,,,,,,,,,,,,,,,,,,,,,,,,,,,,,,,0,0,0,0,0,0,0,0,0,0,0,0,0,0,0,0,,,,,,,,,,,
1132549,1745076405801,13.32,174.59,,-0.16,-0.01,0.99,1,-0,-0,1.0,1.17,86,1599,0.0,3.46,,13.82,1.104,79.0,,32.7,5,,,,,,,,,,,,0,0,0,0,0,0,0,0,0,0,0,0,0,0,0,0,,,,,0.0,,,,,,
1132569,1745076405821,,,,,,,,,,,,,,,,,,,,,,,,,,,,,,,,,,0,0,0,0,0,0,0,0,0,0,0,0,0,0,0,0,,,,,,,,,,,
1132589,1745076405841,15.21,174.59,,-0.16,-0.02,1.01,1,-0,-0,1.02,1.17,88,1675,0.0,3.47,,13.82,1.104,79.0,,32.7,5,6,0,6,6,0.0,0.0,0.0,0.0,2.26,,,0,0,0,0,0,0,0,0,0,0,0,0,0,0,0,0,2,,,,0.0,39.239468,-77.964653,10.42,27,3,0.1
1132609,1745076405861,,,,,,,,,,,,,,,,,,,,,,,,,,,,,,,,,,0,0,0,0,0,0,0,0,0,0,0,0,0,0,0,0,,,,,,,,,,,
1132629,1745076405881,15.21,174.59,,-0.17,-0.02,1.0,1,0,-0,1.01,1.17,87,1675,0.0,3.47,,13.79,1.105,79.0,,36.6,5,,,,,,,,,,,,0,0,0,0,0,0,0,0,0,0,0,0,0,0,0,0,,,,,0.0,,,,,,
1132649,1745076405906,,,,,,,,,,,,,,,,,,,,,,,,,,,,,,,,,,0,0,0,0,0,0,0,0,0,0,0,0,0,0,0,0,,,,,,,,,,,
1132669,1745076405926,15.21,174.59,,-0.17,-0.04,1.01,0,0,-0,1.02,1.17,88,1799,0.0,3.43,,13.73,1.102,79.0,,36.6,5,,,,,,,,,,,,0,0,0,0,0,0,0,0,0,0,0,0,0,0,0,0,,,,,0.0,,,,,,
1132689,1745076405946,,,,,,,,,,,,,,,,,,,,,,,6,0,6,6,0.0,0.0,0.0,0.0,2.26,,,0,0,0,0,0,0,0,0,0,0,0,0,0,0,0,0,2,,,,,39.239468,-77.964653,9.91,27,3,0.1
1132709,1745076405966,17.09,174.59,,-0.17,-0.03,1.0,-0,0,-0,1.01,1.17,87,1784,0.0,3.45,,13.67,1.107,79.0,,36.6,5,,,,,,,,,,,,0,0,0,0,0,0,0,0,0,0,0,0,0,0,0,0,,,,,0.0,,,,,,
1132729,1745076405986,,,,,,,,,,,,,,,,,,,,,,,,,,,,,,,,,,0,0,0,0,0,0,0,0,0,0,0,0,0,0,0,0,,,,,,,,,,,
1132749,1745076405997,17.72,174.71,,-0.18,-0.04,0.99,-0,0,-0,1.0,1.17,86,1785,0.0,3.43,,13.67,1.101,79.0,,37.8,5,,,,,,,,,,,,0,0,0,0,0,0,0,0,0,0,0,0,0,0,0,0,,,,,0.0,,,,,,
1132769,1745076406017,,,,,,,,,,,,,,,,,,,,,,,,,,,,,,,,,,0,0,0,0,0,0,0,0,0,0,0,0,0,0,0,0,,,,,,,,,,,
1132789,1745076406037,18.35,174.71,,-0.17,-0.03,0.99,-1,0,-0,1.01,1.17,86,1717,0.0,3.45,,13.67,1.101,79.0,,37.8,5,6,0,6,6,0.0,0.0,0.0,0.0,2.26,,,0,0,0,0,0,0,0,0,0,0,0,0,0,0,0,0,0,,,,0.0,39.239468,-77.964653,9.43,27,3,0.1
1132809,1745076406057,,,,,,,,,,,,,,,,,,,,,,,,,,,,,,,,,,0,0,0,0,0,0,0,0,0,0,0,0,0,0,0,0,,,,,,,,,,,
1132829,1745076406077,18.98,174.84,,-0.16,-0.02,1.0,-1,0,-0,1.02,1.17,87,1717,0.0,3.45,,13.69,1.11,79.0,,31.4,5,,,,,,,,,,,,0,0,0,0,0,0,0,0,0,0,0,0,0,0,0,0,,,,,0.0,,,,,,
1132849,1745076406101,,,,,,,,,,,,,,,,,,,,,,,,,,,,,,,,,,0,0,0,0,0,0,0,0,0,0,0,0,0,0,0,0,,,,,,,,,,,
1132869,1745076406121,18.35,174.84,,-0.16,-0.04,1.03,-1,0,-0,1.04,1.17,89,1567,0.0,3.45,,13.69,1.12,79.0,,31.4,5,,,,,,,,,,,,0,0,0,0,0,0,0,0,0,0,0,0,0,0,0,0,,,,,0.0,,,,,,
1132889,1745076406141,,,,,,,,,,,,,,,,,,,,,,,6,0,5,6,0.0,0.0,0.0,0.0,2.27,,,0,0,0,0,0,0,0,0,0,0,0,0,0,0,0,0,0,,,,,39.239464,-77.964653,8.98,27,3,0.1
1132909,1745076406161,18.98,174.84,,-0.17,-0.02,1.01,-2,0,-0,1.03,1.17,88,1663,0.0,3.47,,13.71,1.12,79.0,,31.4,5,,,,,,,,,,,,0,0,0,0,0,0,0,0,0,0,0,0,0,0,0,0,,,,,0.0,,,,,,
1132929,1745076406181,,,,,,,,,,,,,,,,,,,,,,,,,,,,,,,,,,0,0,0,0,0,0,0,0,0,0,0,0,0,0,0,0,,,,,,,,,,,
1132949,1745076406203,21.49,174.84,,-0.16,-0.05,1.01,-2,0,-0,1.02,1.17,87,1769,0.0,3.47,,13.75,1.117,79.0,,35.1,5,,,,,,,,,,,,0,0,0,0,0,0,0,0,0,0,0,0,0,0,0,0,,,,,0.0,,,,,,
1132969,1745076406223,,,,,,,,,,,,,,,,,,,,,,,,,,,,,,,,,,0,0,0,0,0,0,0,0,0,0,0,0,0,0,0,0,,,,,,,,,,,
1132989,1745076406243,22.75,174.84,,-0.17,-0.04,1.02,-2,1,-0,1.03,1.17,88,1803,0.0,3.47,,13.75,1.117,79.0,,35.1,5,5,0,5,5,0.0,0.0,0.0,0.0,2.26,,,0,0,0,0,0,0,0,0,0,0,0,0,0,0,0,0,0,,,,0.0,39.239464,-77.964661,8.51,27,3,0.1
1133009,1745076406263,,,,,,,,,,,,,,,,,,,,,,,,,,,,,,,,,,0,0,0,0,0,0,0,0,0,0,0,0,0,0,0,0,,,,,,,,,,,
1133029,1745076406283,24.64,174.96,,-0.17,-0.02,1.0,-2,1,-0,1.01,1.17,87,1803,0.0,3.47,,13.73,1.134,79.0,,33.6,5,,,,,,,,,,,,0,0,0,0,0,0,0,0,0,0,0,0,0,0,0,0,,,,,0.0,,,,,,
1133049,1745076406306,,,,,,,,,,,,,,,,,,,,,,,,,,,,,,,,,,0,0,0,0,0,0,0,0,0,0,0,0,0,0,0,0,,,,,,,,,,,
1133069,1745076406326,25.26,174.96,,-0.18,-0.03,0.99,-3,0,-0,1.01,1.17,86,1672,0.0,3.45,,13.83,1.169,79.0,,33.6,5,,,,,,,,,,,,0,0,0,0,0,0,0,0,0,0,0,0,0,0,0,0,,,,,0.0,,,,,,
1133089,1745076406346,,,,,,,,,,,,,,,,,,,,,,,5,0,5,5,0.0,0.0,0.0,0.0,2.26,,,0,0,0,0,0,0,0,0,0,0,0,0,0,0,0,0,0,,,,,39.23946,-77.964661,8.05,27,3,0.1
1133109,1745076406366,26.52,174.84,,-0.16,-0.03,1.0,-3,0,-0,1.01,1.17,86,1629,0.0,3.46,,13.77,1.18,79.0,,33.6,5,,,,,,,,,,,,0,0,0,0,0,0,0,0,0,0,0,0,0,0,0,0,,,,,0.0,,,,,,
1133129,1745076406386,,,,,,,,,,,,,,,,,,,,,,,,,,,,,,,,,,0,0,0,0,0,0,0,0,0,0,0,0,0,0,0,0,,,,,,,,,,,
1133149,1745076406406,26.52,174.84,,-0.16,-0.01,0.99,-3,1,-0,1.0,1.17,86,1684,0.0,3.47,,13.73,1.18,79.0,,32.9,5,,,,,,,,,,,,0,0,0,0,0,0,0,0,0,0,0,0,0,0,0,0,,,,,0.0,,,,,,
1133169,1745076406426,,,,,,,,,,,,,,,,,,,,,,,,,,,,,,,,,,0,0,0,0,0,0,0,0,0,0,0,0,0,0,0,0,,,,,,,,,,,
1133189,1745076406446,25.89,174.84,,-0.15,-0.02,1.01,-3,0,0,1.02,1.17,87,1955,0.0,3.42,,13.73,1.18,79.0,,32.9,5,5,0,4,5,0.0,0.0,0.0,0.0,2.26,,,0,0,0,0,0,0,0,0,0,0,0,0,0,0,0,0,0,,,,0.0,39.239456,-77.964661,7.61,27,3,0.1
1133209,1745076406466,,,,,,,,,,,,,,,,,,,,,,,,,,,,,,,,,,0,0,0,0,0,0,0,0,0,0,0,0,0,0,0,0,,,,,,,,,,,
1133229,1745076406486,24.01,174.84,,-0.15,-0.02,1.01,-3,0,-0,1.03,1.17,88,1955,0.0,3.42,,13.71,1.206,79.0,,39.7,5,,,,,,,,,,,,0,0,0,0,0,0,0,0,0,0,0,0,0,0,0,0,,,,,0.0,,,,,,
1133249,1745076406506,,,,,,,,,,,,,,,,,,,,,,,,,,,,,,,,,,0,0,0,0,0,0,0,0,0,0,0,0,0,0,0,0,,,,,,,,,,,
1133269,1745076406526,24.01,174.84,,-0.16,0.01,1.0,-3,0,-0,1.01,1.17,87,2030,0.0,3.43,,13.55,1.25,79.0,,39.7,5,,,,,,,,,,,,0,0,0,0,0,0,0,0,0,0,0,0,0,0,0,0,,,,,0.0,,,,,,
1133289,1745076406546,,,,,,,,,,,,,,,,,,,,,,,4,0,4,5,0.0,0.0,0.0,0.0,2.26,,,0,0,0,0,0,0,0,0,0,0,0,0,0,0,0,0,0,,,,,39.239456,-77.964661,7.05,27,3,0.1
1133309,1745076406566,24.01,174.84,,-0.16,0.01,1.0,-3,0,-0,1.01,1.17,86,1994,0.0,3.39,,13.6,1.218,79.0,,39.7,5,,,,,,,,,,,,0,0,0,0,0,0,0,0,0,0,0,0,0,0,0,0,,,,,0.0,,,,,,
1133329,1745076406586,,,,,,,,,,,,,,,,,,,,,,,,,,,,,,,,,,0,0,0,0,0,0,0,0,0,0,0,0,0,0,0,0,,,,,,,,,,,
1133349,1745076406604,24.64,174.84,,-0.15,0.01,0.99,-3,0,0,1.01,1.17,86,2013,0.0,3.41,,13.57,1.157,79.0,,40.9,5,,,,,,,,,,,,0,0,0,0,0,0,0,0,0,0,0,0,0,0,0,0,,,,,0.0,,,,,,
1133369,1745076406624,,,,,,,,,,,,,,,,,,,,,,,,,,,,,,,,,,0,0,0,0,0,0,0,0,0,0,0,0,0,0,0,0,,,,,,,,,,,
1133389,1745076406644,24.64,174.84,13.73,-0.16,0.01,1.0,-3,0,0,1.01,1.17,87,1890,0.0,3.41,15,13.57,1.157,79.0,99,40.9,5,4,0,4,4,0.0,0.0,0.0,0.0,2.27,0,0.0,0,0,0,0,0,0,0,0,0,0,0,0,0,0,0,0,0,0.0,0,0,0.0,39.239452,-77.964661,6.74,27,3,0.1
1133409,1745076406664,,,,,,,,,,,,,,,,,,,,,,,,,,,,,,,,,,0,0,0,0,0,0,0,0,0,0,0,0,0,0,0,0,,,,,,,,,,,
1133429,1745076406684,23.38,174.96,,-0.16,0.0,1.0,-3,0,0,1.02,1.17,87,1890,0.0,3.41,,13.61,1.122,79.0,,36.7,5,,,,,,,,,,,,0,0,0,0,0,0,0,0,0,0,0,0,0,0,0,0,,,,,0.0,,,,,,
1133449,1745076406708,,,,,,,,,,,,,,,,,,,,,,,,,,,,,,,,,,0,0,0,0,0,0,0,0,0,0,0,0,0,0,0,0,,,,,,,,,,,
1133469,1745076406728,22.75,174.96,,-0.17,0.0,1.02,-3,0,0,1.03,1.17,88,1847,0.0,3.45,,13.65,1.118,79.0,,36.7,5,,,,,,,,,,,,0,0,0,0,0,0,0,0,0,0,0,0,0,0,0,0,,,,,0.0,,,,,,
1133489,1745076406748,,,,,,,,,,,,,,,,,,,,,,,4,0,4,4,0.0,0.0,0.0,0.0,2.27,,,0,0,0,0,0,0,0,0,0,0,0,0,0,0,0,0,0,,,,,39.239452,-77.964661,6.24,27,3,0.1
1133509,1745076406768,24.01,174.96,,-0.17,0.01,0.99,-3,0,0,1.01,1.17,86,1883,0.0,3.44,,13.65,1.111,79.0,,36.7,5,,,,,,,,,,,,0,0,0,0,0,0,0,0,0,0,0,0,0,0,0,0,,,,,0.0,,,,,,
1133529,1745076406788,,,,,,,,,,,,,,,,,,,,,,,,,,,,,,,,,,0,0,0,0,0,0,0,0,0,0,0,0,0,0,0,0,,,,,,,,,,,
1133549,1745076406806,23.38,174.96,,-0.17,-0.0,0.99,-3,0,0,1.01,1.17,86,1683,0.0,3.45,,13.73,1.109,79.0,,35.1,5,,,,,,,,,,,,0,0,0,0,0,0,0,0,0,0,0,0,0,0,0,0,,,,,0.0,,,,,,
1133569,1745076406826,,,,,,,,,,,,,,,,,,,,,,,,,,,,,,,,,,0,0,0,0,0,0,0,0,0,0,0,0,0,0,0,0,,,,,,,,,,,
1133589,1745076406846,23.38,174.96,,-0.17,-0.01,1.01,-3,0,0,1.02,1.17,87,1803,0.0,3.46,,13.73,1.109,79.0,,35.1,5,4,0,3,3,0.0,0.0,0.0,0.0,2.26,,,0,0,0,0,0,0,0,0,0,0,0,0,0,0,0,0,0,,,,0.0,39.239449,-77.964661,5.69,27,3,0.1
1133609,1745076406866,,,,,,,,,,,,,,,,,,,,,,,,,,,,,,,,,,0,0,0,0,0,0,0,0,0,0,0,0,0,0,0,0,,,,,,,,,,,
1133629,1745076406886,25.26,174.96,,-0.18,-0.0,0.99,-3,0,-0,1.01,1.17,86,1803,0.0,3.46,,13.75,1.109,79.0,,34.4,5,,,,,,,,,,,,0,0,0,0,0,0,0,0,0,0,0,0,0,0,0,0,,,,,0.0,,,,,,
1133649,1745076406906,,,,,,,,,,,,,,,,,,,,,,,,,,,,,,,,,,0,0,0,0,0,0,0,0,0,0,0,0,0,0,0,0,,,,,,,,,,,
1133669,1745076406926,25.26,175.09,,-0.18,0.0,0.98,-3,0,0,0.99,1.17,85,1659,0.0,3.45,,13.82,1.123,79.0,,34.4,5,,,,,,,,,,,,0,0,0,0,0,0,0,0,0,0,0,0,0,0,0,0,,,,,0.0,,,,,,
1133689,1745076406946,,,,,,,,,,,,,,,,,,,,,,,3,0,3,3,0.0,0.0,0.0,0.0,2.26,,,0,0,0,0,0,0,0,0,0,0,0,0,0,0,0,0,0,,,,,39.239449,-77.964661,5.44,27,3,0.1
1133709,1745076406966,25.26,174.96,,-0.17,-0.02,0.98,-3,0,0,1.0,1.17,85,1648,0.0,3.47,,13.73,1.141,79.0,,34.4,5,,,,,,,,,,,,0,0,0,0,0,0,0,0,0,0,0,0,0,0,0,0,,,,,0.0,,,,,,
1133729,1745076406986,,,,,,,,,,,,,,,,,,,,,,,,,,,,,,,,,,0,0,0,0,0,0,0,0,0,0,0,0,0,0,0,0,,,,,,,,,,,
1133749,1745076407000,25.26,174.96,,-0.17,-0.01,0.98,-3,0,0,1.0,1.17,85,1863,0.0,3.47,,13.69,1.154,79.0,,33.2,5,,,,,,,,,,,,0,0,0,0,0,0,0,0,0,0,0,0,0,0,0,0,,,,,0.0,,,,,,
1133769,1745076407020,,,,,,,,,,,,,,,,,,,,,,,,,,,,,,,,,,0,0,0,0,0,0,0,0,0,0,0,0,0,0,0,0,,,,,,,,,,,
1133789,1745076407040,25.89,174.96,,-0.16,-0.01,1.0,-3,0,0,1.01,1.17,86,1963,0.0,3.44,,13.69,1.154,79.0,,33.2,5,3,0,3,3,0.0,0.0,0.0,0.0,2.26,,,0,0,0,0,0,0,0,0,0,0,0,0,0,0,0,0,0,,,,0.0,39.239449,-77.964668,4.94,27,3,0.1
1133809,1745076407060,,,,,,,,,,,,,,,,,,,,,,,,,,,,,,,,,,0,0,0,0,0,0,0,0,0,0,0,0,0,0,0,0,,,,,,,,,,,
1133829,1745076407080,25.89,174.96,,-0.16,-0.02,1.0,-3,0,0,1.02,1.17,87,1963,0.0,3.44,,13.72,1.198,79.0,,39.9,5,,,,,,,,,,,,0,0,0,0,0,0,0,0,0,0,0,0,0,0,0,0,,,,,0.0,,,,,,
1133849,1745076407100,,,,,,,,,,,,,,,,,,,,,,,,,,,,,,,,,,0,0,0,0,0,0,0,0,0,0,0,0,0,0,0,0,,,,,,,,,,,
1133869,1745076407120,26.52,175.09,,-0.17,-0.01,1.0,-3,0,0,1.02,1.17,87,2054,0.0,3.43,,13.57,1.235,79.0,,39.9,5,,,,,,,,,,,,0,0,0,0,0,0,0,0,0,0,0,0,0,0,0,0,,,,,0.0,,,,,,
1133889,1745076407140,,,,,,,,,,,,,,,,,,,,,,,3,0,3,3,0.0,0.0,0.0,0.0,2.27,,,0,0,0,0,0,0,0,0,0,0,0,0,0,0,0,0,0,,,,,39.239449,-77.964668,4.48,27,3,0.1
1133909,1745076407160,26.52,175.09,,-0.16,-0.0,1.0,-3,0,0,1.02,1.17,87,1947,0.0,3.42,,13.56,1.207,79.0,,39.9,5,,,,,,,,,,,,0,0,0,0,0,0,0,0,0,0,0,0,0,0,0,0,,,,,0.0,,,,,,
1133929,1745076407180,,,,,,,,,,,,,,,,,,,,,,,,,,,,,,,,,,0,0,0,0,0,0,0,0,0,0,0,0,0,0,0,0,,,,,,,,,,,
1133949,1745076407204,25.26,175.09,,-0.17,0.01,0.99,-3,0,0,1.01,1.17,86,1887,0.0,3.43,,13.63,1.15,79.0,,38.2,5,,,,,,,,,,,,0,0,0,0,0,0,0,0,0,0,0,0,0,0,0,0,,,,,0.0,,,,,,
1133969,1745076407224,,,,,,,,,,,,,,,,,,,,,,,,,,,,,,,,,,0,0,0,0,0,0,0,0,0,0,0,0,0,0,0,0,,,,,,,,,,,
1133989,1745076407244,25.26,175.09,,-0.18,0.01,0.99,-3,0,0,1.01,1.17,86,2085,0.0,3.42,,13.63,1.15,79.0,,38.2,5,3,0,2,3,0.0,0.0,0.0,0.0,2.27,,,0,0,0,0,0,0,0,0,0,0,0,0,0,0,0,0,0,,,,0.0,39.239449,-77.964668,3.99,27,3,0.1
1134009,1745076407264,,,,,,,,,,,,,,,,,,,,,,,,,,,,,,,,,,0,0,0,0,0,0,0,0,0,0,0,0,0,0,0,0,,,,,,,,,,,
1134029,1745076407284,25.89,175.09,,-0.17,0.01,1.0,-2,0,0,1.01,1.17,87,2085,0.0,3.42,,13.53,1.1,79.0,,40.8,5,,,,,,,,,,,,0,0,0,0,0,0,0,0,0,0,0,0,0,0,0,0,,,,,0.0,,,,,,
1134049,1745076407305,,,,,,,,,,,,,,,,,,,,,,,,,,,,,,,,,,0,0,0,0,0,0,0,0,0,0,0,0,0,0,0,0,,,,,,,,,,,
1134069,1745076407325,25.26,175.09,,-0.18,0.01,0.99,-2,0,0,1.01,1.17,87,2022,0.0,3.38,,13.49,1.094,79.0,,40.8,5,,,,,,,,,,,,0,0,0,0,0,0,0,0,0,0,0,0,0,0,0,0,,,,,0.0,,,,,,
1134089,1745076407345,,,,,,,,,,,,,,,,,,,,,,,2,0,2,2,0.0,0.0,0.0,0.0,2.26,,,0,0,0,0,0,0,0,0,0,0,0,0,0,0,0,0,0,,,,,39.239449,-77.964668,3.54,27,3,0.1
1134109,1745076407365,23.38,175.09,,-0.17,0.02,1.0,-2,0,0,1.01,1.17,87,1878,0.0,3.43,,13.59,1.104,79.0,,40.8,5,,,,,,,,,,,,0,0,0,0,0,0,0,0,0,0,0,0,0,0,0,0,,,,,0.0,,,,,,
1134129,1745076407385,,,,,,,,,,,,,,,,,,,,,,,,,,,,,,,,,,0,0,0,0,0,0,0,0,0,0,0,0,0,0,0,0,,,,,,,,,,,
1134149,1745076407407,23.38,175.09,,-0.18,0.01,1.0,-2,0,0,1.02,1.17,87,1814,0.0,3.44,,13.67,1.099,79.0,,37.3,5,,,,,,,,,,,,0,0,0,0,0,0,0,0,0,0,0,0,0,0,0,0,,,,,0.0,,,,,,
1134169,1745076407427,,,,,,,,,,,,,,,,,,,,,,,,,,,,,,,,,,0,0,0,0,0,0,0,0,0,0,0,0,0,0,0,0,,,,,,,,,,,
1134189,1745076407447,20.24,175.09,,-0.18,0.02,1.0,-2,0,0,1.01,1.17,87,1753,0.0,3.44,,13.67,1.099,79.0,,37.3,5,2,0,2,2,0.0,0.0,0.0,0.0,2.26,,,0,0,0,0,0,0,0,0,0,0,0,0,0,0,0,0,0,,,,0.0,39.239445,-77.964668,2.99,27,3,0.1
1134209,1745076407467,,,,,,,,,,,,,,,,,,,,,,,,,,,,,,,,,,0,0,0,0,0,0,0,0,0,0,0,0,0,0,0,0,,,,,,,,,,,
1134229,1745076407487,16.47,175.09,,-0.16,0.01,1.0,-2,0,0,1.02,1.17,87,1753,0.0,3.44,,13.67,1.102,79.0,,34.7,5,,,,,,,,,,,,0,0,0,0,0,0,0,0,0,0,0,0,0,0,0,0,,,,,0.0,,,,,,
1134249,1745076407508,,,,,,,,,,,,,,,,,,,,,,,,,,,,,,,,,,0,0,0,0,0,0,0,0,0,0,0,0,0,0,0,0,,,,,,,,,,,
1134269,1745076407528,14.58,175.21,,-0.15,0.01,1.02,-2,0,0,1.03,1.17,88,1714,0.0,3.46,,13.68,1.103,79.0,,34.7,5,,,,,,,,,,,,0,0,0,0,0,0,0,0,0,0,0,0,0,0,0,0,,,,,0.0,,,,,,
1134289,1745076407548,,,,,,,,,,,,,,,,,,,,,,,2,0,2,2,0.0,0.0,0.0,0.0,2.26,,,0,0,0,0,0,0,0,0,0,0,0,0,0,0,0,0,0,,,,,39.239445,-77.964668,2.54,27,3,0.1
1134309,1745076407568,9.55,175.09,,-0.16,0.01,1.03,-2,0,0,1.05,1.17,90,1606,0.0,3.47,,13.84,1.11,79.0,,34.7,5,,,,,,,,,,,,0,0,0,0,0,0,0,0,0,0,0,0,0,0,0,0,,,,,0.0,,,,,,
1134329,1745076407588,,,,,,,,,,,,,,,,,,,,,,,,,,,,,,,,,,0,0,0,0,0,0,0,0,0,0,0,0,0,0,0,0,,,,,,,,,,,
1134349,1745076407607,5.78,175.09,,-0.17,0.01,1.02,-2,0,-0,1.03,1.17,88,1610,0.0,3.47,,13.82,1.128,79.0,,32.2,5,,,,,,,,,,,,0,0,0,0,0,0,0,0,0,0,0,0,0,0,0,0,,,,,0.0,,,,,,
1134369,1745076407627,,,,,,,,,,,,,,,,,,,,,,,,,,,,,,,,,,0,0,0,0,0,0,0,0,0,0,0,0,0,0,0,0,,,,,,,,,,,
1134389,1745076407647,2.64,175.09,13.7,-0.15,0.02,0.99,-2,0,-0,1.01,1.17,86,1643,0.0,3.47,15,13.82,1.128,79.0,99,32.2,5,1,0,1,1,0.0,0.0,0.0,0.0,2.26,0,0.0,0,0,0,0,0,0,0,0,0,0,0,0,0,0,0,0,0,0.0,0,0,0.0,39.239445,-77.964668,2.12,27,3,0.1
1134409,1745076407667,,,,,,,,,,,,,,,,,,,,,,,,,,,,,,,,,,0,0,0,0,0,0,0,0,0,0,0,0,0,0,0,0,,,,,,,,,,,
1134429,1745076407687,0.0,175.09,,-0.15,0.02,0.98,-2,0,0,0.99,1.17,85,1643,0.0,3.47,,13.73,1.144,79.0,,31.4,5,,,,,,,,,,,,0,0,0,0,0,0,0,0,0,0,0,0,0,0,0,0,,,,,0.0,,,,,,
1134449,1745076407705,,,,,,,,,,,,,,,,,,,,,,,,,,,,,,,,,,0,0,0,0,0,0,0,0,0,0,0,0,0,0,0,0,,,,,,,,,,,
1134469,1745076407725,0.0,175.09,,-0.14,0.0,0.98,-1,-0,0,0.99,1.17,85,1512,0.0,3.48,,13.91,1.15,79.0,,31.4,5,,,,,,,,,,,,0,0,0,0,0,0,0,0,0,0,0,0,0,0,0,0,,,,,0.0,,,,,,
1134489,1745076407745,,,,,,,,,,,,,,,,,,,,,,,1,0,1,1,0.0,0.0,0.0,0.0,2.27,,,0,0,0,0,0,0,0,0,0,0,0,0,0,0,0,0,0,,,,,39.239445,-77.964668,1.96,27,3,0.1
1134509,1745076407765,0.0,175.09,,-0.13,-0.01,0.98,-1,-0,0,0.99,1.17,85,1585,0.0,3.48,,13.8,1.162,79.0,,31.4,5,,,,,,,,,,,,0,0,0,0,0,0,0,0,0,0,0,0,0,0,0,0,,,,,0.0,,,,,,
1134529,1745076407785,,,,,,,,,,,,,,,,,,,,,,,,,,,,,,,,,,0,0,0,0,0,0,0,0,0,0,0,0,0,0,0,0,,,,,,,,,,,
1134549,1745076407805,0.0,175.09,,-0.11,-0.01,0.99,-1,-0,0,0.99,1.17,85,1600,0.0,3.48,,13.8,1.163,79.0,,32.1,5,,,,,,,,,,,,0,0,0,0,0,0,0,0,0,0,0,0,0,0,0,0,,,,,0.0,,,,,,
1134569,1745076407825,,,,,,,,,,,,,,,,,,,,,,,,,,,,,,,,,,0,0,0,0,0,0,0,0,0,0,0,0,0,0,0,0,,,,,,,,,,,
1134589,1745076407845,0.0,175.09,,-0.09,-0.0,1.0,-1,-0,0,1.0,1.17,86,1567,0.0,3.48,,13.8,1.163,79.0,,32.1,5,1,0,1,1,0.0,0.0,0.0,0.0,2.27,,,0,0,0,0,0,0,0,0,0,0,0,0,0,0,0,0,0,,,,0.0,39.239445,-77.964668,1.67,27,3,0.1
1134609,1745076407865,,,,,,,,,,,,,,,,,,,,,,,,,,,,,,,,,,0,0,0,0,0,0,0,0,0,0,0,0,0,0,0,0,,,,,,,,,,,
1134629,1745076407885,0.0,175.09,,-0.09,-0.0,1.02,-1,-0,0,1.03,1.17,88,1567,0.0,3.48,,13.91,1.159,79.0,,32.3,5,,,,,,,,,,,,0,0,0,0,0,0,0,0,0,0,0,0,0,0,0,0,,,,,0.0,,,,,,
1134649,1745076407905,,,,,,,,,,,,,,,,,,,,,,,,,,,,,,,,,,0,0,0,0,0,0,0,0,0,0,0,0,0,0,0,0,,,,,,,,,,,
1134669,1745076407925,0.0,175.09,,-0.11,-0.0,1.03,-1,0,0,1.04,1.17,89,1632,0.0,3.48,,13.79,1.162,79.0,,32.3,5,,,,,,,,,,,,0,0,0,0,0,0,0,0,0,0,0,0,0,0,0,0,,,,,0.0,,,,,,
1134689,1745076407945,,,,,,,,,,,,,,,,,,,,,,,1,0,1,1,0.0,0.0,0.0,0.0,2.26,,,0,0,0,0,0,0,0,0,0,0,0,0,0,0,0,0,0,,,,,39.239445,-77.964668,1.51,27,3,0.1
1134709,1745076407965,0.0,175.09,,-0.12,0.0,1.01,-1,-0,0,1.02,1.17,87,1596,0.0,3.47,,13.76,1.17,79.0,,32.3,5,,,,,,,,,,,,0,0,0,0,0,0,0,0,0,0,0,0,0,0,0,0,,,,,0.0,,,,,,
1134729,1745076407985,,,,,,,,,,,,,,,,,,,,,,,,,,,,,,,,,,0,0,0,0,0,0,0,0,0,0,0,0,0,0,0,0,,,,,,,,,,,
1134749,1745076407999,0.0,174.96,,-0.12,-0.01,1.03,-1,0,0,1.03,1.17,88,1879,0.0,3.46,,13.65,1.176,79.0,,34.6,5,,,,,,,,,,,,0,0,0,0,0,0,0,0,0,0,0,0,0,0,0,0,,,,,0.0,,,,,,
1134769,1745076408019,,,,,,,,,,,,,,,,,,,,,,,,,,,,,,,,,,0,0,0,0,0,0,0,0,0,0,0,0,0,0,0,0,,,,,,,,,,,
1134789,1745076408039,0.0,175.09,,-0.12,-0.02,1.03,-1,0,0,1.04,1.17,89,2043,0.0,3.44,,13.65,1.176,79.0,,34.6,5,1,0,1,1,0.0,0.0,0.0,0.0,2.26,,,0,0,0,0,0,0,0,0,0,0,0,0,0,0,0,0,0,,,,0.0,39.239445,-77.964668,1.35,28,3,0.1
1134809,1745076408059,,,,,,,,,,,,,,,,,,,,,,,,,,,,,,,,,,0,0,0,0,0,0,0,0,0,0,0,0,0,0,0,0,,,,,,,,,,,
1134829,1745076408079,0.0,175.21,,-0.12,-0.02,1.03,-1,-0,0,1.03,1.17,88,2043,0.0,3.44,,13.67,1.211,79.0,,42.7,5,,,,,,,,,,,,0,0,0,0,0,0,0,0,0,0,0,0,0,0,0,0,,,,,0.0,,,,,,
1134849,1745076408105,,,,,,,,,,,,,,,,,,,,,,,,,,,,,,,,,,0,0,0,0,0,0,0,0,0,0,0,0,0,0,0,0,,,,,,,,,,,
1134869,1745076408125,0.0,175.21,,-0.11,-0.0,1.02,-1,-0,0,1.03,1.17,88,2238,0.0,3.4,,13.49,1.183,79.0,,42.7,5,,,,,,,,,,,,0,0,0,0,0,0,0,0,0,0,0,0,0,0,0,0,,,,,0.0,,,,,,
1134889,1745076408145,,,,,,,,,,,,,,,,,,,,,,,1,0,1,1,0.0,0.0,0.0,0.0,2.26,,,0,0,0,0,0,0,0,0,0,0,0,0,0,0,0,0,0,,,,,39.239445,-77.964668,1.16,28,3,0.1
1134909,1745076408165,0.0,175.21,,-0.1,0.01,1.02,-1,-0,0,1.02,1.17,87,2235,0.0,3.35,,13.41,1.148,79.0,,42.7,5,,,,,,,,,,,,0,0,0,0,0,0,0,0,0,0,0,0,0,0,0,0,,,,,0.0,,,,,,
1134929,1745076408185,,,,,,,,,,,,,,,,,,,,,,,,,,,,,,,,,,0,0,0,0,0,0,0,0,0,0,0,0,0,0,0,0,,,,,,,,,,,
1134949,1745076408203,0.0,175.21,,-0.1,0.02,1.02,-1,-0,0,1.02,1.17,88,2245,0.0,3.28,,13.44,1.091,79.0,,46.1,5,,,,,,,,,,,,0,0,0,0,0,0,0,0,0,0,0,0,0,0,0,0,,,,,0.0,,,,,,
1134969,1745076408223,,,,,,,,,,,,,,,,,,,,,,,,,,,,,,,,,,0,0,0,0,0,0,0,0,0,0,0,0,0,0,0,0,,,,,,,,,,,
1134989,1745076408243,0.0,175.21,,-0.1,0.02,1.02,-1,-0,0,1.03,1.17,88,2258,0.0,3.31,,13.44,1.091,79.0,,46.1,5,1,0,1,1,0.0,0.0,0.0,0.0,2.27,,,0,0,0,0,0,0,0,0,0,0,0,0,0,0,0,0,0,,,,0.0,39.239445,-77.964668,0.91,28,3,0.1
1135009,1745076408263,,,,,,,,,,,,,,,,,,,,,,,,,,,,,,,,,,0,0,0,0,0,0,0,0,0,0,0,0,0,0,0,0,,,,,,,,,,,
1135029,1745076408283,0.0,175.34,,-0.1,0.02,1.02,-1,-0,0,1.02,1.17,88,2258,0.0,3.31,,13.39,1.056,79.0,,45.6,5,,,,,,,,,,,,0,0,0,0,0,0,0,0,0,0,0,0,0,0,0,0,,,,,0.0,,,,,,
1135049,1745076408305,,,,,,,,,,,,,,,,,,,,,,,,,,,,,,,,,,0,0,0,0,0,0,0,0,0,0,0,0,0,0,0,0,,,,,,,,,,,
1135069,1745076408325,0.0,175.34,,-0.1,0.02,1.0,-0,-0,0,1.0,1.17,86,2139,0.0,3.3,,13.37,1.046,79.0,,45.6,5,,,,,,,,,,,,0,0,0,0,0,0,0,0,0,0,0,0,0,0,0,0,,,,,0.0,,,,,,
1135089,1745076408345,,,,,,,,,,,,,,,,,,,,,,,1,0,1,1,0.0,0.0,0.0,0.0,2.27,,,0,0,0,0,0,0,0,0,0,0,0,0,0,0,0,0,0,,,,,39.239441,-77.964668,0.71,28,3,0.1
1135109,1745076408365,0.0,175.34,,-0.1,0.02,1.01,-0,-0,0,1.01,1.17,87,2055,0.0,3.35,,13.48,1.032,79.0,,45.6,5,,,,,,,,,,,,0,0,0,0,0,0,0,0,0,0,0,0,0,0,0,0,,,,,0.0,,,,,,
1135129,1745076408385,,,,,,,,,,,,,,,,,,,,,,,,,,,,,,,,,,0,0,0,0,0,0,0,0,0,0,0,0,0,0,0,0,,,,,,,,,,,
1135149,1745076408404,0.0,175.21,,-0.1,0.01,1.0,-0,-0,0,1.0,1.17,86,2008,0.0,3.39,,13.55,1.026,79.0,,41.7,5,,,,,,,,,,,,0,0,0,0,0,0,0,0,0,0,0,0,0,0,0,0,,,,,0.0,,,,,,
1135169,1745076408424,,,,,,,,,,,,,,,,,,,,,,,,,,,,,,,,,,0,0,0,0,0,0,0,0,0,0,0,0,0,0,0,0,,,,,,,,,,,
1135189,1745076408444,0.0,175.21,,-0.1,0.0,0.99,-0,-0,0,1.0,1.17,86,1960,0.0,3.44,,13.55,1.026,79.0,,41.7,5,1,0,0,1,0.0,0.0,0.0,0.0,2.26,,,0,0,0,0,0,0,0,0,0,0,0,0,0,0,0,0,0,,,,0.0,39.239441,-77.964668,0.6,28,3,0.1
1135209,1745076408464,,,,,,,,,,,,,,,,,,,,,,,,,,,,,,,,,,0,0,0,0,0,0,0,0,0,0,0,0,0,0,0,0,,,,,,,,,,,
1135229,1745076408484,0.0,175.34,,-0.09,0.01,1.0,-0,-0,0,1.0,1.17,86,1960,0.0,3.44,,13.52,1.031,79.0,,38.5,5,,,,,,,,,,,,0,0,0,0,0,0,0,0,0,0,0,0,0,0,0,0,,,,,0.0,,,,,,
1135249,1745076408504,,,,,,,,,,,,,,,,,,,,,,,,,,,,,,,,,,0,0,0,0,0,0,0,0,0,0,0,0,0,0,0,0,,,,,,,,,,,
1135269,1745076408524,0.0,175.34,,-0.09,0.01,1.02,-0,-0,0,1.02,1.17,87,1887,0.0,3.42,,13.56,1.04,79.0,,38.5,5,,,,,,,,,,,,0,0,0,0,0,0,0,0,0,0,0,0,0,0,0,0,,,,,0.0,,,,,,
1135289,1745076408544,,,,,,,,,,,,,,,,,,,,,,,1,0,0,1,0.0,0.0,0.0,0.0,2.26,,,0,0,0,0,0,0,0,0,0,0,0,0,0,0,0,0,0,,,,,39.239441,-77.964668,0.37,28,3,0.1
1135309,1745076408564,0.0,175.34,,-0.1,0.01,1.0,-0,-0,0,1.01,1.17,86,1687,0.0,3.44,,13.68,1.066,79.0,,38.5,5,,,,,,,,,,,,0,0,0,0,0,0,0,0,0,0,0,0,0,0,0,0,,,,,0.0,,,,,,
1135329,1745076408584,,,,,,,,,,,,,,,,,,,,,,,,,,,,,,,,,,0,0,0,0,0,0,0,0,0,0,0,0,0,0,0,0,,,,,,,,,,,
1135349,1745076408604,0.0,175.34,,-0.09,0.01,0.99,-0,-0,0,0.99,1.17,85,1733,0.0,3.46,,13.75,1.101,79.0,,35.1,5,,,,,,,,,,,,0,0,0,0,0,0,0,0,0,0,0,0,0,0,0,0,,,,,0.0,,,,,,
1135369,1745076408624,,,,,,,,,,,,,,,,,,,,,,,,,,,,,,,,,,0,0,0,0,0,0,0,0,0,0,0,0,0,0,0,0,,,,,,,,,,,
1135389,1745076408644,0.0,175.34,13.72,-0.09,0.02,0.98,-0,-0,0,0.98,1.17,84,1553,0.0,3.45,15,13.75,1.101,79.0,99,35.1,5,1,0,0,1,0.0,0.0,0.0,0.0,2.26,0,0.0,0,0,0,0,0,0,0,0,0,0,0,0,0,0,0,0,0,0.0,0,0,0.0,39.239441,-77.964668,0.12,28,3,0.1
1135409,1745076408664,,,,,,,,,,,,,,,,,,,,,,,,,,,,,,,,,,0,0,0,0,0,0,0,0,0,0,0,0,0,0,0,0,,,,,,,,,,,
1135429,1745076408684,0.0,175.34,,-0.09,0.02,0.98,-0,-0,0,0.98,1.17,84,1553,0.0,3.45,,13.75,1.148,79.0,,29.9,5,,,,,,,,,,,,0,0,0,0,0,0,0,0,0,0,0,0,0,0,0,0,,,,,0.0,,,,,,
1135449,1745076408704,,,,,,,,,,,,,,,,,,,,,,,,,,,,,,,,,,0,0,0,0,0,0,0,0,0,0,0,0,0,0,0,0,,,,,,,,,,,
1135469,1745076408724,0.0,175.34,,-0.1,0.01,0.99,-0,-0,0,0.99,1.17,85,1349,0.0,3.48,,13.82,1.173,79.0,,29.9,5,,,,,,,,,,,,0,0,0,0,0,0,0,0,0,0,0,0,0,0,0,0,,,,,0.0,,,,,,
1135489,1745076408744,,,,,,,,,,,,,,,,,,,,,,,1,0,0,1,0.0,0.0,0.0,0.0,2.26,,,0,0,0,0,0,0,0,0,0,0,0,0,0,0,0,0,0,,,,,39.239441,-77.964668,0.0,28,3,0.1
1135509,1745076408764,0.0,175.34,,-0.1,0.0,0.99,-0,-0,0,1.0,1.17,85,1408,0.0,3.51,,13.96,1.188,79.0,,29.9,5,,,,,,,,,,,,0,0,0,0,0,0,0,0,0,0,0,0,0,0,0,0,,,,,0.0,,,,,,
1135529,1745076408784,,,,,,,,,,,,,,,,,,,,,,,,,,,,,,,,,,0,0,0,0,0,0,0,0,0,0,0,0,0,0,0,0,,,,,,,,,,,
1135549,1745076408804,0.0,175.34,,-0.09,0.0,0.99,-0,-0,0,0.99,1.17,85,1168,0.0,3.5,,14.0,1.195,79.0,,26.0,5,,,,,,,,,,,,0,0,0,0,0,0,0,0,0,0,0,0,0,0,0,0,,,,,0.0,,,,,,
1135569,1745076408824,,,,,,,,,,,,,,,,,,,,,,,,,,,,,,,,,,0,0,0,0,0,0,0,0,0,0,0,0,0,0,0,0,,,,,,,,,,,
1135589,1745076408844,0.0,175.21,,-0.09,-0.0,0.99,0,-0,0,0.99,1.17,85,1268,0.0,3.53,,14.0,1.195,79.0,,26.0,5,1,0,0,1,0.0,0.0,0.0,0.0,2.26,,,0,0,0,0,0,0,0,0,0,0,0,0,0,0,0,0,0,,,,0.0,39.239441,-77.964668,0.04,28,3,0.1
1135609,1745076408864,,,,,,,,,,,,,,,,,,,,,,,,,,,,,,,,,,0,0,0,0,0,0,0,0,0,0,0,0,0,0,0,0,,,,,,,,,,,
1135629,1745076408884,0.0,175.34,,-0.09,-0.0,0.99,0,-0,0,1.0,1.17,85,1268,0.0,3.53,,14.04,1.197,79.0,,23.6,5,,,,,,,,,,,,0,0,0,0,0,0,0,0,0,0,0,0,0,0,0,0,,,,,0.0,,,,,,
1135649,1745076408904,,,,,,,,,,,,,,,,,,,,,,,,,,,,,,,,,,0,0,0,0,0,0,0,0,0,0,0,0,0,0,0,0,,,,,,,,,,,
1135669,1745076408924,0.0,175.34,,-0.08,-0.01,1.0,0,-0,0,1.0,1.17,86,1024,0.0,3.52,,13.99,1.199,79.0,,23.6,5,,,,,,,,,,,,0,0,0,0,0,0,0,0,0,0,0,0,0,0,0,0,,,,,0.0,,,,,,
1135689,1745076408944,,,,,,,,,,,,,,,,,,,,,,,0,0,0,0,0.0,0.0,0.0,0.0,2.27,,,0,0,0,0,0,0,0,0,0,0,0,0,0,0,0,0,0,,,,,39.239441,-77.964668,0.13,28,3,0.1
1135709,1745076408964,0.0,175.34,,-0.07,-0.01,1.0,0,-0,0,1.0,1.17,86,1024,0.0,3.52,,13.96,1.199,79.0,,23.6,5,,,,,,,,,,,,0,0,0,0,0,0,0,0,0,0,0,0,0,0,0,0,,,,,0.0,,,,,,
1135729,1745076408984,,,,,,,,,,,,,,,,,,,,,,,,,,,,,,,,,,0,0,0,0,0,0,0,0,0,0,0,0,0,0,0,0,,,,,,,,,,,
1135749,1745076408998,0.0,175.34,,-0.07,-0.01,0.99,0,-0,0,0.99,1.17,85,1149,0.0,3.54,,14.2,1.226,79.0,,22.2,5,,,,,,,,,,,,0,0,0,0,0,0,0,0,0,0,0,0,0,0,0,0,,,,,0.0,,,,,,
1135769,1745076409018,,,,,,,,,,,,,,,,,,,,,,,,,,,,,,,,,,0,0,0,0,0,0,0,0,0,0,0,0,0,0,0,0,,,,,,,,,,,
1135789,1745076409038,0.0,175.34,,-0.05,-0.01,1.0,0,-0,0,1.0,1.17,86,895,0.0,3.54,,14.2,1.226,79.0,,22.2,5,0,0,0,0,0.0,0.0,0.0,0.0,2.26,,,0,0,0,0,0,0,0,0,0,0,0,0,0,0,0,0,0,,,,0.0,39.239441,-77.964668,0.15,27,3,1.0
1135809,1745076409058,,,,,,,,,,,,,,,,,,,,,,,,,,,,,,,,,,0,0,0,0,0,0,0,0,0,0,0,0,0,0,0,0,,,,,,,,,,,
1135829,1745076409078,0.0,175.34,,-0.04,-0.0,1.01,-0,-0,0,1.01,1.17,87,895,0.0,3.54,,14.1,1.226,79.0,,24.2,5,,,,,,,,,,,,0,0,0,0,0,0,0,0,0,0,0,0,0,0,0,0,,,,,0.0,,,,,,
1135849,1745076409103,,,,,,,,,,,,,,,,,,,,,,,,,,,,,,,,,,0,0,0,0,0,0,0,0,0,0,0,0,0,0,0,0,,,,,,,,,,,
1135869,1745076409123,0.0,175.34,,-0.04,-0.0,1.03,-0,-0,0,1.03,1.17,89,1214,0.0,3.68,,13.86,1.237,79.0,,24.2,5,,,,,,,,,,,,0,0,0,0,0,0,0,0,0,0,0,0,0,0,0,0,,,,,0.0,,,,,,
1135889,1745076409143,,,,,,,,,,,,,,,,,,,,,,,0,0,0,0,0.0,0.0,0.0,0.0,2.26,,,0,0,0,0,0,0,0,0,0,0,0,0,0,0,0,0,0,,,,,39.239441,-77.964668,0.14,27,3,1.0
1135909,1745076409163,0.0,175.34,,-0.05,-0.0,1.03,0,-0,0,1.03,1.17,88,1564,0.0,3.48,,13.94,1.251,79.0,,24.2,5,,,,,,,,,,,,0,0,0,0,0,0,0,0,0,0,0,0,0,0,0,0,,,,,0.0,,,,,,
1135929,1745076409183,,,,,,,,,,,,,,,,,,,,,,,,,,,,,,,,,,0,0,0,0,0,0,0,0,0,0,0,0,0,0,0,0,,,,,,,,,,,
1135949,1745076409206,0.0,175.34,,-0.05,0.02,1.0,0,-0,0,1.01,1.17,86,1681,0.0,3.48,,13.9,1.25,79.0,,32.3,5,,,,,,,,,,,,0,0,0,0,0,0,0,0,0,0,0,0,0,0,0,0,,,,,0.0,,,,,,
1135969,1745076409226,,,,,,,,,,,,,,,,,,,,,,,,,,,,,,,,,,0,0,0,0,0,0,0,0,0,0,0,0,0,0,0,0,,,,,,,,,,,
1135989,1745076409246,0.0,175.34,,-0.05,0.0,1.0,0,-0,0,1.0,1.17,86,1667,0.0,3.47,,13.9,1.25,79.0,,32.3,5,0,0,0,0,0.0,0.0,0.0,0.0,2.26,,,0,0,0,0,0,0,0,0,0,0,0,0,0,0,0,0,0,,,,0.0,39.239441,-77.964668,0.08,27,3,1.0
1136009,1745076409266,,,,,,,,,,,,,,,,,,,,,,,,,,,,,,,,,,0,0,0,0,0,0,0,0,0,0,0,0,0,0,0,0,,,,,,,,,,,
1136029,1745076409286,0.0,175.34,,-0.03,-0.02,1.01,0,-0,0,1.01,1.17,86,1667,0.0,3.47,,13.76,1.251,79.0,,32.3,5,,,,,,,,,,,,0,0,0,0,0,0,0,0,0,0,0,0,0,0,0,0,,,,,0.0,,,,,,
1136049,1745076409305,,,,,,,,,,,,,,,,,,,,,,,,,,,,,,,,,,0,0,0,0,0,0,0,0,0,0,0,0,0,0,0,0,,,,,,,,,,,
1136069,1745076409325,0.0,175.34,,-0.01,-0.02,1.0,0,-0,0,1.0,1.17,86,1542,0.0,3.47,,13.84,1.214,79.0,,32.3,5,,,,,,,,,,,,0,0,0,0,0,0,0,0,0,0,0,0,0,0,0,0,,,,,0.0,,,,,,
1136089,1745076409345,,,,,,,,,,,,,,,,,,,,,,,0,0,0,0,0.0,0.0,0.0,0.0,2.27,,,0,0,0,0,0,0,0,0,0,0,0,0,0,0,0,0,0,,,,,39.239441,-77.964668,0.08,27,3,1.0
1136109,1745076409365,0.0,175.34,,-0.01,-0.02,1.02,0,-0,0,1.02,1.17,87,1584,0.0,3.48,,13.9,1.177,79.0,,32.3,5,,,,,,,,,,,,0,0,0,0,0,0,0,0,0,0,0,0,0,0,0,0,,,,,0.0,,,,,,
1136129,1745076409385,,,,,,,,,,,,,,,,,,,,,,,,,,,,,,,,,,0,0,0,0,0,0,0,0,0,0,0,0,0,0,0,0,,,,,,,,,,,
1136149,1745076409405,0.0,175.47,,-0.03,-0.02,1.03,0,-0,0,1.03,1.17,88,1614,0.0,3.47,,13.76,1.145,79.0,,32.8,5,,,,,,,,,,,,0,0,0,0,0,0,0,0,0,0,0,0,0,0,0,0,,,,,0.0,,,,,,
1136169,1745076409425,,,,,,,,,,,,,,,,,,,,,,,,,,,,,,,,,,0,0,0,0,0,0,0,0,0,0,0,0,0,0,0,0,,,,,,,,,,,
1136189,1745076409445,0.0,175.47,,-0.05,-0.03,1.02,0,-0,-0,1.02,1.17,88,1530,0.0,3.47,,13.76,1.145,79.0,,32.8,5,0,0,0,0,0.0,0.0,0.0,0.0,2.27,,,0,0,0,0,0,0,0,0,0,0,0,0,0,0,0,0,0,,,,0.0,39.239441,-77.964668,0.11,27,3,1.0
1136209,1745076409465,,,,,,,,,,,,,,,,,,,,,,,,,,,,,,,,,,0,0,0,0,0,0,0,0,0,0,0,0,0,0,0,0,,,,,,,,,,,
1136229,1745076409485,0.0,175.59,,-0.05,-0.02,1.0,0,-0,-0,1.0,1.17,86,1530,0.0,3.47,,13.86,1.135,79.0,,31.2,5,,,,,,,,,,,,0,0,0,0,0,0,0,0,0,0,0,0,0,0,0,0,,,,,0.0,,,,,,
1136249,1745076409505,,,,,,,,,,,,,,,,,,,,,,,,,,,,,,,,,,0,0,0,0,0,0,0,0,0,0,0,0,0,0,0,0,,,,,,,,,,,
1136269,1745076409525,0.0,175.47,,-0.05,-0.02,0.99,0,-0,0,0.99,1.17,85,1590,0.0,3.48,,13.87,1.154,79.0,,31.2,5,,,,,,,,,,,,0,0,0,0,0,0,0,0,0,0,0,0,0,0,0,0,,,,,0.0,,,,,,
1136289,1745076409545,,,,,,,,,,,,,,,,,,,,,,,0,0,0,0,0.0,0.0,0.0,0.0,2.26,,,0,0,0,0,0,0,0,0,0,0,0,0,0,0,0,0,0,,,,,39.239441,-77.964668,0.04,27,3,1.0
1136309,1745076409565,0.0,175.59,,-0.04,-0.03,0.99,0,-0,0,0.99,1.17,85,1628,0.0,3.48,,13.77,1.155,79.0,,31.2,5,,,,,,,,,,,,0,0,0,0,0,0,0,0,0,0,0,0,0,0,0,0,,,,,0.0,,,,,,
1136329,1745076409585,,,,,,,,,,,,,,,,,,,,,,,,,,,,,,,,,,0,0,0,0,0,0,0,0,0,0,0,0,0,0,0,0,,,,,,,,,,,
1136349,1745076409605,0.0,175.59,,-0.03,-0.04,0.99,0,-0,0,0.99,1.17,85,1607,0.0,3.48,,13.87,1.148,79.0,,31.8,5,,,,,,,,,,,,0,0,0,0,0,0,0,0,0,0,0,0,0,0,0,0,,,,,0.0,,,,,,
1136369,1745076409625,,,,,,,,,,,,,,,,,,,,,,,,,,,,,,,,,,0,0,0,0,0,0,0,0,0,0,0,0,0,0,0,0,,,,,,,,,,,
1136389,1745076409645,0.0,175.59,13.78,-0.02,-0.03,0.99,0,-0,0,0.99,1.17,85,1587,0.0,3.47,15,13.87,1.148,79.0,101,31.8,5,0,0,0,0,0.0,0.0,0.0,0.0,2.26,0,0.0,0,0,0,0,0,0,0,0,0,0,0,0,0,0,0,0,0,0.0,0,-0,0.0,39.239441,-77.964668,0.09,27,3,1.0
1136409,1745076409665,,,,,,,,,,,,,,,,,,,,,,,,,,,,,,,,,,0,0,0,0,0,0,0,0,0,0,0,0,0,0,0,0,,,,,,,,,,,
1136429,1745076409685,0.0,175.59,,-0.0,-0.02,1.0,0,-0,0,1.0,1.17,85,1587,0.0,3.47,,13.86,1.145,79.0,,30.9,5,,,,,,,,,,,,0,0,0,0,0,0,0,0,0,0,0,0,0,0,0,0,,,,,0.0,,,,,,
1136449,1745076409705,,,,,,,,,,,,,,,,,,,,,,,,,,,,,,,,,,0,0,0,0,0,0,0,0,0,0,0,0,0,0,0,0,,,,,,,,,,,
1136469,1745076409725,0.0,175.59,,-0.01,-0.02,1.02,0,-0,0,1.02,1.17,87,1516,0.0,3.48,,13.77,1.146,79.0,,30.9,5,,,,,,,,,,,,0,0,0,0,0,0,0,0,0,0,0,0,0,0,0,0,,,,,0.0,,,,,,
1136489,1745076409745,,,,,,,,,,,,,,,,,,,,,,,0,0,0,0,0.0,0.0,0.0,0.0,2.26,,,0,0,0,0,0,0,0,0,0,0,0,0,0,0,0,0,0,,,,,39.239441,-77.964668,0.13,27,3,1.0
1136509,1745076409765,0.0,175.59,,-0.03,-0.01,1.01,0,-0,0,1.01,1.17,87,1670,0.0,3.48,,13.88,1.158,79.0,,30.9,5,,,,,,,,,,,,0,0,0,0,0,0,0,0,0,0,0,0,0,0,0,0,,,,,0.0,,,,,,
1136529,1745076409785,,,,,,,,,,,,,,,,,,,,,,,,,,,,,,,,,,0,0,0,0,0,0,0,0,0,0,0,0,0,0,0,0,,,,,,,,,,,
1136549,1745076409805,0.0,175.59,,-0.03,-0.01,0.99,0,-0,0,0.99,1.17,85,1655,0.0,3.47,,13.84,1.149,79.0,,32.8,5,,,,,,,,,,,,0,0,0,0,0,0,0,0,0,0,0,0,0,0,0,0,,,,,0.0,,,,,,
1136569,1745076409825,,,,,,,,,,,,,,,,,,,,,,,,,,,,,,,,,,0,0,0,0,0,0,0,0,0,0,0,0,0,0,0,0,,,,,,,,,,,
1136589,1745076409845,0.0,175.59,,-0.03,0.0,0.98,0,-0,0,0.98,1.17,84,1524,0.0,3.47,,13.84,1.149,79.0,,32.8,5,0,0,0,0,0.0,0.0,0.0,0.0,2.27,,,0,0,0,0,0,0,0,0,0,0,0,0,0,0,0,0,0,,,,0.0,39.239441,-77.964668,0.11,27,3,1.0
1136609,1745076409865,,,,,,,,,,,,,,,,,,,,,,,,,,,,,,,,,,0,0,0,0,0,0,0,0,0,0,0,0,0,0,0,0,,,,,,,,,,,
1136629,1745076409885,0.0,175.59,,-0.02,-0.02,0.99,0,-0,0,0.99,1.17,85,1524,0.0,3.47,,13.76,1.144,79.0,,33.0,5,,,,,,,,,,,,0,0,0,0,0,0,0,0,0,0,0,0,0,0,0,0,,,,,0.0,,,,,,
1136649,1745076409907,,,,,,,,,,,,,,,,,,,,,,,,,,,,,,,,,,0,0,0,0,0,0,0,0,0,0,0,0,0,0,0,0,,,,,,,,,,,
1136669,1745076409927,0.0,175.59,,-0.01,-0.02,0.99,0,-0,0,0.99,1.17,85,1685,0.0,3.48,,13.82,1.145,79.0,,33.0,5,,,,,,,,,,,,0,0,0,0,0,0,0,0,0,0,0,0,0,0,0,0,,,,,0.0,,,,,,
1136689,1745076409947,,,,,,,,,,,,,,,,,,,,,,,0,0,0,0,0.0,0.0,0.0,0.0,2.27,,,0,0,0,0,0,0,0,0,0,0,0,0,0,0,0,0,0,,,,,39.239441,-77.964668,0.04,27,3,1.0
1136709,1745076409967,0.0,175.59,,-0.01,-0.01,1.01,0,-0,0,1.01,1.17,87,1681,0.0,3.47,,13.88,1.134,79.0,,33.0,5,,,,,,,,,,,,0,0,0,0,0,0,0,0,0,0,0,0,0,0,0,0,,,,,0.0,,,,,,
1136729,1745076409987,,,,,,,,,,,,,,,,,,,,,,,,,,,,,,,,,,0,0,0,0,0,0,0,0,0,0,0,0,0,0,0,0,,,,,,,,,,,
1136749,1745076409999,0.0,175.59,,-0.02,-0.02,1.01,0,-0,0,1.01,1.17,87,1598,0.0,3.47,,13.87,1.128,79.0,,31.3,5,,,,,,,,,,,,0,0,0,0,0,0,0,0,0,0,0,0,0,0,0,0,,,,,0.0,,,,,,
1136769,1745076410019,,,,,,,,,,,,,,,,,,,,,,,,,,,,,,,,,,0,0,0,0,0,0,0,0,0,0,0,0,0,0,0,0,,,,,,,,,,,
1136789,1745076410039,0.0,175.72,,-0.01,-0.02,1.01,0,-0,0,1.01,1.17,86,1423,0.0,3.51,,13.87,1.128,79.0,,31.3,5,0,0,0,0,0.0,0.0,0.0,0.0,2.26,,,0,0,0,0,0,0,0,0,0,0,0,0,0,0,0,0,0,,,,0.0,39.239441,-77.964668,0.11,27,3,1.0
1136809,1745076410059,,,,,,,,,,,,,,,,,,,,,,,,,,,,,,,,,,0,0,0,0,0,0,0,0,0,0,0,0,0,0,0,0,,,,,,,,,,,
1136829,1745076410079,0.0,175.72,,-0.01,-0.03,1.0,0,-0,0,1.0,1.17,86,1423,0.0,3.51,,13.83,1.128,79.0,,27.4,5,,,,,,,,,,,,0,0,0,0,0,0,0,0,0,0,0,0,0,0,0,0,,,,,0.0,,,,,,
1136849,1745076410105,,,,,,,,,,,,,,,,,,,,,,,,,,,,,,,,,,0,0,0,0,0,0,0,0,0,0,0,0,0,0,0,0,,,,,,,,,,,
1136869,1745076410125,0.0,175.72,,-0.02,-0.03,1.0,0,-0,0,1.0,1.17,86,1245,0.0,3.5,,13.91,1.126,79.0,,27.4,5,,,,,,,,,,,,0,0,0,0,0,0,0,0,0,0,0,0,0,0,0,0,,,,,0.0,,,,,,
1136889,1745076410145,,,,,,,,,,,,,,,,,,,,,,,0,0,0,0,0.0,0.0,0.0,0.0,2.26,,,0,0,0,0,0,0,0,0,0,0,0,0,0,0,0,0,0,,,,,39.239441,-77.964668,0.11,27,3,1.0
1136909,1745076410165,0.0,175.72,,-0.02,-0.03,1.0,0,-0,0,1.0,1.17,86,1236,0.0,3.52,,13.94,1.12,79.0,,27.4,5,,,,,,,,,,,,0,0,0,0,0,0,0,0,0,0,0,0,0,0,0,0,,,,,0.0,,,,,,
1136929,1745076410185,,,,,,,,,,,,,,,,,,,,,,,,,,,,,,,,,,0,0,0,0,0,0,0,0,0,0,0,0,0,0,0,0,,,,,,,,,,,
1136949,1745076410205,0.0,175.72,,-0.02,-0.03,1.0,0,-0,0,1.0,1.17,86,1236,0.0,3.52,,14.1,1.128,79.0,,23.5,5,,,,,,,,,,,,0,0,0,0,0,0,0,0,0,0,0,0,0,0,0,0,,,,,0.0,,,,,,
1136969,1745076410225,,,,,,,,,,,,,,,,,,,,,,,,,,,,,,,,,,0,0,0,0,0,0,0,0,0,0,0,0,0,0,0,0,,,,,,,,,,,
1136989,1745076410245,0.0,175.59,,-0.02,-0.02,1.0,0,-0,0,1.0,1.17,86,974,0.0,3.53,,14.1,1.128,79.0,,23.5,5,0,0,0,0,0.0,0.0,0.0,0.0,2.26,,,0,0,0,0,0,0,0,0,0,0,0,0,0,0,0,0,0,,,,0.0,39.239441,-77.964668,0.05,27,3,1.0
1137009,1745076410265,,,,,,,,,,,,,,,,,,,,,,,,,,,,,,,,,,0,0,0,0,0,0,0,0,0,0,0,0,0,0,0,0,,,,,,,,,,,
1137029,1745076410285,0.0,175.59,,-0.02,-0.02,1.0,0,-0,0,1.0,1.17,86,974,0.0,3.53,,14.07,1.131,79.0,,22.8,5,,,,,,,,,,,,0,0,0,0,0,0,0,0,0,0,0,0,0,0,0,0,,,,,0.0,,,,,,
1137049,1745076410304,,,,,,,,,,,,,,,,,,,,,,,,,,,,,,,,,,0,0,0,0,0,0,0,0,0,0,0,0,0,0,0,0,,,,,,,,,,,
1137069,1745076410324,0.0,175.59,,-0.02,-0.02,1.0,0,-0,0,1.0,1.17,86,1175,0.0,3.57,,14.07,1.145,79.0,,22.8,5,,,,,,,,,,,,0,0,0,0,0,0,0,0,0,0,0,0,0,0,0,0,,,,,0.0,,,,,,
1137089,1745076410344,,,,,,,,,,,,,,,,,,,,,,,0,0,0,0,0.0,0.0,0.0,0.0,2.26,,,0,0,0,0,0,0,0,0,0,0,0,0,0,0,0,0,0,,,,,39.239441,-77.964668,0.0,27,3,1.0
1137109,1745076410364,0.0,175.59,,-0.02,-0.02,1.0,0,-0,0,1.0,1.17,85,868,0.0,3.53,,14.06,1.148,79.0,,22.8,5,,,,,,,,,,,,0,0,0,0,0,0,0,0,0,0,0,0,0,0,0,0,,,,,0.0,,,,,,
1137129,1745076410384,,,,,,,,,,,,,,,,,,,,,,,,,,,,,,,,,,0,0,0,0,0,0,0,0,0,0,0,0,0,0,0,0,,,,,,,,,,,
1137149,1745076410406,0.0,175.59,,-0.02,-0.01,0.98,0,-0,0,0.98,1.17,84,1199,0.0,3.72,,13.96,1.174,79.0,,22.2,5,,,,,,,,,,,,0,0,0,0,0,0,0,0,0,0,0,0,0,0,0,0,,,,,0.0,,,,,,
1137169,1745076410426,,,,,,,,,,,,,,,,,,,,,,,,,,,,,,,,,,0,0,0,0,0,0,0,0,0,0,0,0,0,0,0,0,,,,,,,,,,,
1137189,1745076410446,0.0,175.72,,-0.02,0.0,0.96,0,-0,0,0.96,1.17,83,1623,0.0,3.52,,13.96,1.174,79.0,,22.2,5,0,0,0,0,0.0,0.0,0.0,0.0,2.27,,,0,0,0,0,0,0,0,0,0,0,0,0,0,0,0,0,0,,,,0.0,39.239441,-77.964668,0.05,27,3,1.0
1137209,1745076410466,,,,,,,,,,,,,,,,,,,,,,,,,,,,,,,,,,0,0,0,0,0,0,0,0,0,0,0,0,0,0,0,0,,,,,,,,,,,
1137229,1745076410486,0.0,175.72,,-0.02,-0.02,0.96,0,-0,0,0.97,1.17,83,1623,0.0,3.52,,13.83,1.218,79.0,,32.1,5,,,,,,,,,,,,0,0,0,0,0,0,0,0,0,0,0,0,0,0,0,0,,,,,0.0,,,,,,
1137249,1745076410506,,,,,,,,,,,,,,,,,,,,,,,,,,,,,,,,,,0,0,0,0,0,0,0,0,0,0,0,0,0,0,0,0,,,,,,,,,,,
