"Interval"|"ms"|0|0|1,"Utc"|"ms"|0|0|1,"FrontBP"|"psi"|-5.0|5.0|25,"SteerAng"|"Degrees"|-145.0|145.0|25,"Battery"|"Volts"|-5.0|20.0|1,"AccelX"|"G"|-3.0|3.0|25,"AccelY"|"G"|-3.0|3.0|25,"AccelZ"|"G"|-3.0|3.0|25,"Yaw"|"Deg/Sec"|-120|120|25,"Pitch"|"Deg/Sec"|-120|120|25,"Roll"|"Deg/Sec"|-120|120|25,"Gsum"|"G"|0.0|3.0|25,"GsumMax"|"G"|0.0|3.0|25,"GsumPct"|"%"|0|100|25,"RPM"|""|0|10000|25,"TPS"|"%"|0.0|100.0|25,"InjectorPW"|"ms"|0.0|100.0|25,"Baro"|"kPa"|0|105|1,"MAP"|"Psi"|0.0|255.0|25,"Lambda"|""|-2.0|2.0|25,"IAT"|"C"|0.0|200.0|25,"EngineTemp"|"C"|0|200|1,"EOP"|"PSI"|0.0|152.0|25,"EOT"|"F"|0|250|25,"WSFR"|"MPH"|0|150|10,"WSFL"|"MPH"|0|100|10,"WSRR"|"MPH"|0|100|10,"WSRL"|""|0|100|10,"TCSet"|"%"|0.0|100.0|10,"TCSlip"|"%"|0.0|100.0|10,"TCComp"|"deg"|0.0|50.0|10,"TCCut"|"%"|0.0|100.0|10,"Analog8"|""|0.0|5.0|10,"OilTemp"|"F"|0|300|1,"AA_On"|""|0.0|1.0|1,"ThermLF1"|"C"|0|400|50,"ThermLF2"|"C"|0|400|50,"ThermRR1"|"C"|0|400|50,"ThermRR2"|"C"|0|400|50,"ThermLF3"|"C"|0|400|50,"ThermLF4"|"C"|0|400|50,"ThermLF5"|"C"|0|400|50,"ThermLF6"|"C"|0|400|50,"ThermLF7"|"C"|0|400|50,"ThermLF8"|"C"|0|400|50,"ThermRR3"|"C"|0|400|50,"ThermRR4"|"C"|0|400|50,"ThermRR5"|"C"|0|400|50,"ThermRR6"|"C"|0|400|50,"ThermRR7"|"C"|0|400|50,"ThermRR8"|"C"|0|400|50,"Gear"|""|1|6|10,"AA_On"|""|0.0|1.0|1,"AA_LowDrag"|""|0|1|1,"Fuel_Mix"|""|-10|10|1,"AA_Packages"|""|0.0|1000.0|25,"Latitude"|"Degrees"|-180.0|180.0|10,"Longitude"|"Degrees"|-180.0|180.0|10,"Speed"|"kph"|0.0|150.0|10,"GPSSats"|""|0|20|10,"GPSQual"|""|0|5|10,"GPSDOP"|""|0.0|20.0|10
1491709,1745076764966,0.0,176.34,,-0.03,0.28,0.87,-0,-0,-0,0.91,0.91,100,12636,27.8,2.76,,9.68,1.219,86.2,,69.9,5,,,,,,,,,,,,0,0,0,0,0,0,0,0,0,0,0,0,0,0,0,0,,,,,0.0,,,,,,
1491729,1745076764986,,,,,,,,,,,,,,,,,,,,,,,,,,,,,,,,,,0,0,0,0,0,0,0,0,0,0,0,0,0,0,0,0,,,,,,,,,,,
1491749,1745076764998,0.0,176.22,,-0.03,0.29,0.93,-1,-0,0,0.97,0.97,100,12683,27.9,2.76,,9.66,1.231,86.2,,69.5,5,,,,,,,,,,,,0,0,0,0,0,0,0,0,0,0,0,0,0,0,0,0,,,,,0.0,,,,,,
1491769,1745076765018,,,,,,,,,,,,,,,,,,,,,,,,,,,,,,,,,,0,0,0,0,0,0,0,0,0,0,0,0,0,0,0,0,,,,,,,,,,,
1491789,1745076765038,0.0,176.22,,-0.07,0.24,0.91,-1,-0,0,0.94,0.97,97,12566,29.0,2.82,,9.69,1.231,86.2,,69.5,5,0,0,0,0,0.0,0.0,0.0,0.0,2.26,,,0,0,0,0,0,0,0,0,0,0,0,0,0,0,0,0,0,,,,0.0,39.239239,-77.965454,0.15,30,3,0.8
1491809,1745076765058,,,,,,,,,,,,,,,,,,,,,,,,,,,,,,,,,,0,0,0,0,0,0,0,0,0,0,0,0,0,0,0,0,,,,,,,,,,,
1491829,1745076765078,0.0,176.22,,-0.05,0.26,0.88,-1,-0,0,0.92,0.97,94,12461,30.4,2.83,,10.04,1.246,86.2,,69.5,5,,,,,,,,,,,,0,0,0,0,0,0,0,0,0,0,0,0,0,0,0,0,,,,,0.0,,,,,,
1491849,1745076765105,,,,,,,,,,,,,,,,,,,,,,,,,,,,,,,,,,0,0,0,0,0,0,0,0,0,0,0,0,0,0,0,0,,,,,,,,,,,
1491869,1745076765125,0.0,176.09,,-0.04,0.26,0.8,-1,-0,0,0.84,0.97,86,12093,32.2,2.76,,10.04,1.246,86.2,,71.1,5,,,,,,,,,,,,0,0,0,0,0,0,0,0,0,0,0,0,0,0,0,0,,,,,0.0,,,,,,
1491889,1745076765145,,,,,,,,,,,,,,,,,,,,,,,0,0,0,0,0.0,0.0,0.0,0.0,2.26,,,0,0,0,0,0,0,0,0,0,0,0,0,0,0,0,0,0,,,,,39.239239,-77.965454,0.08,30,3,0.8
1491909,1745076765165,0.0,176.09,,-0.05,0.1,0.74,-1,-0,-0,0.75,0.97,77,12093,32.2,2.76,,10.26,1.246,86.2,,71.1,5,,,,,,,,,,,,0,0,0,0,0,0,0,0,0,0,0,0,0,0,0,0,,,,,0.0,,,,,,
1491929,1745076765185,,,,,,,,,,,,,,,,,,,,,,,,,,,,,,,,,,0,0,0,0,0,0,0,0,0,0,0,0,0,0,0,0,,,,,,,,,,,
1491949,1745076765206,0.0,175.97,,-0.02,0.12,0.8,-2,-0,0,0.81,0.97,83,11470,32.8,2.92,,10.62,1.247,86.2,,69.5,5,,,,,,,,,,,,0,0,0,0,0,0,0,0,0,0,0,0,0,0,0,0,,,,,0.0,,,,,,
1491969,1745076765226,,,,,,,,,,,,,,,,,,,,,,,,,,,,,,,,,,0,0,0,0,0,0,0,0,0,0,0,0,0,0,0,0,,,,,,,,,,,
1491989,1745076765246,0.0,175.97,,-0.02,0.1,0.77,-2,-0,0,0.78,0.97,80,10845,33.0,4.02,,11.04,1.249,86.2,,69.5,5,0,0,0,0,0.0,0.0,0.0,0.0,2.26,,,0,0,0,0,0,0,0,0,0,0,0,0,0,0,0,0,0,,,,0.0,39.239239,-77.965454,0.13,30,3,0.8
1492009,1745076765266,,,,,,,,,,,,,,,,,,,,,,,,,,,,,,,,,,0,0,0,0,0,0,0,0,0,0,0,0,0,0,0,0,,,,,,,,,,,
1492029,1745076765286,0.0,175.97,,-0.03,0.1,0.77,-1,-0,0,0.78,0.97,80,10215,33.0,4.75,,11.17,1.249,86.2,,69.5,5,,,,,,,,,,,,0,0,0,0,0,0,0,0,0,0,0,0,0,0,0,0,,,,,0.0,,,,,,
1492049,1745076765306,,,,,,,,,,,,,,,,,,,,,,,,,,,,,,,,,,0,0,0,0,0,0,0,0,0,0,0,0,0,0,0,0,,,,,,,,,,,
1492069,1745076765326,0.0,175.97,,-0.02,0.14,0.77,-1,-0,-0,0.78,0.97,80,10747,33.1,4.3,,11.17,1.249,86.2,,69.4,5,,,,,,,,,,,,0,0,0,0,0,0,0,0,0,0,0,0,0,0,0,0,,,,,0.0,,,,,,
1492089,1745076765346,,,,,,,,,,,,,,,,,,,,,,,0,0,0,0,0.0,0.0,0.0,0.0,2.26,,,0,0,0,0,0,0,0,0,0,0,0,0,0,0,0,0,0,,,,,39.239239,-77.965454,0.29,30,3,0.8
1492109,1745076765366,0.0,175.84,,0.01,0.19,0.77,-1,-0,-0,0.8,0.97,82,10747,33.1,4.3,,11.28,1.248,86.2,,69.4,5,,,,,,,,,,,,0,0,0,0,0,0,0,0,0,0,0,0,0,0,0,0,,,,,0.0,,,,,,
1492129,1745076765386,,,,,,,,,,,,,,,,,,,,,,,,,,,,,,,,,,0,0,0,0,0,0,0,0,0,0,0,0,0,0,0,0,,,,,,,,,,,
1492149,1745076765406,0.0,175.84,,0.0,0.13,0.78,-2,-0,-0,0.79,0.97,81,11264,33.1,3.9,,11.28,1.078,86.2,,67.8,5,,,,,,,,,,,,0,0,0,0,0,0,0,0,0,0,0,0,0,0,0,0,,,,,0.0,,,,,,
1492169,1745076765426,,,,,,,,,,,,,,,,,,,,,,,,,,,,,,,,,,0,0,0,0,0,0,0,0,0,0,0,0,0,0,0,0,,,,,,,,,,,
1492189,1745076765446,0.0,175.84,,0.02,0.13,0.85,-1,-1,-0,0.86,0.97,89,11773,34.3,3.82,,11.12,1.004,86.2,,67.8,5,0,0,0,0,0.0,0.0,0.0,0.0,2.25,,,0,0,0,0,0,0,0,0,0,0,0,0,0,0,0,0,0,,,,0.0,39.239239,-77.965454,0.8,30,3,0.8
1492209,1745076765466,,,,,,,,,,,,,,,,,,,,,,,,,,,,,,,,,,0,0,0,0,0,0,0,0,0,0,0,0,0,0,0,0,,,,,,,,,,,
1492229,1745076765486,0.0,175.84,,-0.01,0.17,0.81,-1,-1,-1,0.83,0.97,85,12676,42.2,4.13,,11.64,0.994,86.2,,67.8,5,,,,,,,,,,,,0,0,0,0,0,0,0,0,0,0,0,0,0,0,0,0,,,,,0.0,,,,,,
1492249,1745076765506,,,,,,,,,,,,,,,,,,,,,,,,,,,,,,,,,,0,0,0,0,0,0,0,0,0,0,0,0,0,0,0,0,,,,,,,,,,,
1492269,1745076765526,0.0,175.84,,0.03,0.14,0.81,-2,-0,-1,0.82,0.97,84,13477,48.8,3.97,,11.64,0.994,86.2,,70.1,5,,,,,,,,,,,,0,0,0,0,0,0,0,0,0,0,0,0,0,0,0,0,,,,,0.0,,,,,,
1492289,1745076765546,,,,,,,,,,,,,,,,,,,,,,,0,0,0,0,0.0,0.0,0.0,0.0,2.26,,,0,0,0,0,0,0,0,0,0,0,0,0,0,0,0,0,0,,,,,39.239239,-77.965454,1.22,30,3,0.8
1492309,1745076765566,0.0,175.72,,0.0,0.13,0.8,-3,-0,0,0.81,0.97,83,13477,48.8,3.97,,12.05,0.945,86.2,,70.1,5,,,,,,,,,,,,0,0,0,0,0,0,0,0,0,0,0,0,0,0,0,0,,,,,0.0,,,,,,
1492329,1745076765586,,,,,,,,,,,,,,,,,,,,,,,,,,,,,,,,,,0,0,0,0,0,0,0,0,0,0,0,0,0,0,0,0,,,,,,,,,,,
1492349,1745076765604,0.0,175.47,,-0.02,0.21,0.82,-2,-0,0,0.85,0.97,87,13706,51.3,3.96,,12.29,0.965,86.2,,71.6,5,,,,,,,,,,,,0,0,0,0,0,0,0,0,0,0,0,0,0,0,0,0,,,,,0.0,,,,,,
1492369,1745076765624,,,,,,,,,,,,,,,,,,,,,,,,,,,,,,,,,,0,0,0,0,0,0,0,0,0,0,0,0,0,0,0,0,,,,,,,,,,,
1492389,1745076765644,0.0,175.34,13.51,-0.02,0.1,0.83,-2,-0,-0,0.84,0.97,86,12975,52.7,4.1,15,12.29,1.21,86.2,153,71.6,5,1,0,1,1,0.0,0.0,0.0,0.0,2.26,0,0.0,0,0,0,0,0,0,0,0,0,0,0,0,0,0,0,0,0,0.0,0,0,0.0,39.239239,-77.965454,1.36,30,3,0.8
1492409,1745076765664,,,,,,,,,,,,,,,,,,,,,,,,,,,,,,,,,,0,0,0,0,0,0,0,0,0,0,0,0,0,0,0,0,,,,,,,,,,,
1492429,1745076765684,0.0,175.21,,-0.02,0.0,0.82,-2,0,0,0.82,0.97,84,13005,50.8,4.06,,12.21,1.246,86.2,,71.6,5,,,,,,,,,,,,0,0,0,0,0,0,0,0,0,0,0,0,0,0,0,0,,,,,0.0,,,,,,
1492449,1745076765705,,,,,,,,,,,,,,,,,,,,,,,,,,,,,,,,,,0,0,0,0,0,0,0,0,0,0,0,0,0,0,0,0,,,,,,,,,,,
1492469,1745076765725,0.0,175.09,,0.06,0.05,0.82,-2,0,-0,0.82,0.97,85,12733,42.1,4.02,,12.21,1.246,86.2,,70.1,5,,,,,,,,,,,,0,0,0,0,0,0,0,0,0,0,0,0,0,0,0,0,,,,,0.0,,,,,,
1492489,1745076765745,,,,,,,,,,,,,,,,,,,,,,,1,0,1,1,0.0,0.0,0.0,0.0,2.25,,,0,0,0,0,0,0,0,0,0,0,0,0,0,0,0,0,0,,,,,39.239235,-77.965454,1.43,30,3,0.8
1492509,1745076765765,0.0,174.84,,0.08,0.12,0.86,-3,0,0,0.87,0.97,89,12733,42.1,4.02,,11.91,1.192,86.2,,70.1,5,,,,,,,,,,,,0,0,0,0,0,0,0,0,0,0,0,0,0,0,0,0,,,,,0.0,,,,,,
1492529,1745076765785,,,,,,,,,,,,,,,,,,,,,,,,,,,,,,,,,,0,0,0,0,0,0,0,0,0,0,0,0,0,0,0,0,,,,,,,,,,,
1492549,1745076765805,0.0,174.71,,0.11,0.1,0.86,-5,0,1,0.87,0.97,90,12451,41.7,4.21,,11.69,1.094,86.2,,70.0,5,,,,,,,,,,,,0,0,0,0,0,0,0,0,0,0,0,0,0,0,0,0,,,,,0.0,,,,,,
1492569,1745076765825,,,,,,,,,,,,,,,,,,,,,,,,,,,,,,,,,,0,0,0,0,0,0,0,0,0,0,0,0,0,0,0,0,,,,,,,,,,,
1492589,1745076765845,0.0,174.71,,0.1,0.1,0.88,-6,1,1,0.89,0.97,92,12051,44.3,4.52,,12.07,1.026,86.2,,70.0,5,2,0,2,2,0.0,0.0,0.0,0.0,2.25,,,0,0,0,0,0,0,0,0,0,0,0,0,0,0,0,0,0,,,,0.0,39.239235,-77.965454,2.25,30,3,0.8
1492609,1745076765865,,,,,,,,,,,,,,,,,,,,,,,,,,,,,,,,,,0,0,0,0,0,0,0,0,0,0,0,0,0,0,0,0,,,,,,,,,,,
1492629,1745076765885,0.0,174.59,,0.09,-0.02,0.89,-7,0,2,0.89,0.97,92,11667,47.2,3.92,,12.31,0.969,86.2,,70.0,5,,,,,,,,,,,,0,0,0,0,0,0,0,0,0,0,0,0,0,0,0,0,,,,,0.0,,,,,,
1492649,1745076765906,,,,,,,,,,,,,,,,,,,,,,,,,,,,,,,,,,0,0,0,0,0,0,0,0,0,0,0,0,0,0,0,0,,,,,,,,,,,
1492669,1745076765926,0.0,174.46,,0.17,0.06,0.95,-8,0,2,0.96,0.97,99,10864,52.8,3.9,,12.31,0.969,86.2,,70.4,5,,,,,,,,,,,,0,0,0,0,0,0,0,0,0,0,0,0,0,0,0,0,,,,,0.0,,,,,,
1492689,1745076765946,,,,,,,,,,,,,,,,,,,,,,,3,0,4,4,0.0,0.0,0.0,0.0,2.26,,,0,0,0,0,0,0,0,0,0,0,0,0,0,0,0,0,0,,,,,39.239235,-77.965454,3.89,30,3,0.8
1492709,1745076765966,0.0,174.46,,0.2,0.04,0.93,-8,0,1,0.96,0.97,98,10864,52.8,3.9,,12.8,0.986,86.2,,70.4,5,,,,,,,,,,,,0,0,0,0,0,0,0,0,0,0,0,0,0,0,0,0,,,,,0.0,,,,,,
1492729,1745076765986,,,,,,,,,,,,,,,,,,,,,,,,,,,,,,,,,,0,0,0,0,0,0,0,0,0,0,0,0,0,0,0,0,,,,,,,,,,,
1492749,1745076765997,0.0,174.33,,0.23,-0.01,0.96,-9,0,1,0.99,0.99,100,9638,58.9,5.35,,13.28,1.134,86.2,,68.0,5,,,,,,,,,,,,0,0,0,0,0,0,0,0,0,0,0,0,0,0,0,0,,,,,0.0,,,,,,
1492769,1745076766017,,,,,,,,,,,,,,,,,,,,,,,,,,,,,,,,,,0,0,0,0,0,0,0,0,0,0,0,0,0,0,0,0,,,,,,,,,,,
1492789,1745076766037,0.0,174.33,,0.28,0.19,0.95,-11,0,2,1.0,1.0,100,9291,64.0,5.44,,13.67,1.238,86.2,,68.0,5,5,0,6,5,0.0,0.0,0.0,0.0,2.25,,,0,0,0,0,0,0,0,0,0,0,0,0,0,0,0,0,0,,,,0.0,39.239235,-77.965454,6.58,30,3,0.8
1492809,1745076766057,,,,,,,,,,,,,,,,,,,,,,,,,,,,,,,,,,0,0,0,0,0,0,0,0,0,0,0,0,0,0,0,0,,,,,,,,,,,
1492829,1745076766077,0.0,174.33,,0.33,0.18,0.91,-13,1,2,0.99,1.0,98,8914,76.9,5.71,,13.73,1.109,86.2,,68.0,5,,,,,,,,,,,,0,0,0,0,0,0,0,0,0,0,0,0,0,0,0,0,,,,,0.0,,,,,,
1492849,1745076766105,,,,,,,,,,,,,,,,,,,,,,,,,,,,,,,,,,0,0,0,0,0,0,0,0,0,0,0,0,0,0,0,0,,,,,,,,,,,
1492869,1745076766125,0.0,174.33,,0.4,0.2,0.94,-13,1,2,1.04,1.04,100,8789,87.2,5.72,,13.73,1.109,86.2,,66.7,5,,,,,,,,,,,,0,0,0,0,0,0,0,0,0,0,0,0,0,0,0,0,,,,,0.0,,,,,,
1492889,1745076766145,,,,,,,,,,,,,,,,,,,,,,,6,0,7,7,0.0,0.0,0.0,0.0,2.25,,,0,0,0,0,0,0,0,0,0,0,0,0,0,0,0,0,0,,,,,39.239231,-77.965454,8.99,30,3,0.8
1492909,1745076766165,0.0,174.08,,0.43,0.07,0.96,-13,1,1,1.06,1.06,100,8789,87.2,5.72,,14.03,1.04,86.2,,66.7,5,,,,,,,,,,,,0,0,0,0,0,0,0,0,0,0,0,0,0,0,0,0,,,,,0.0,,,,,,
1492929,1745076766185,,,,,,,,,,,,,,,,,,,,,,,,,,,,,,,,,,0,0,0,0,0,0,0,0,0,0,0,0,0,0,0,0,,,,,,,,,,,
1492949,1745076766203,0.0,174.08,,0.44,0.1,0.98,-14,1,1,1.08,1.08,100,8633,93.6,5.71,,13.94,0.981,86.2,,66.9,5,,,,,,,,,,,,0,0,0,0,0,0,0,0,0,0,0,0,0,0,0,0,,,,,0.0,,,,,,
1492969,1745076766223,,,,,,,,,,,,,,,,,,,,,,,,,,,,,,,,,,0,0,0,0,0,0,0,0,0,0,0,0,0,0,0,0,,,,,,,,,,,
1492989,1745076766243,0.0,173.96,,0.45,0.09,0.96,-16,1,1,1.07,1.08,99,8460,97.4,5.71,,13.9,0.94,86.2,,66.9,5,7,0,10,9,0.0,235.0,0.0,0.0,2.26,,,0,0,0,0,0,0,0,0,0,0,0,0,0,0,0,0,0,,,,0.0,39.239231,-77.965454,11.35,30,3,0.8
1493009,1745076766263,,,,,,,,,,,,,,,,,,,,,,,,,,,,,,,,,,0,0,0,0,0,0,0,0,0,0,0,0,0,0,0,0,,,,,,,,,,,
1493029,1745076766283,0.0,173.96,,0.48,0.02,0.97,-16,2,1,1.09,1.09,100,7967,99.3,5.67,,14.02,0.931,86.2,,66.9,5,,,,,,,,,,,,0,0,0,0,0,0,0,0,0,0,0,0,0,0,0,0,,,,,0.0,,,,,,
1493049,1745076766305,,,,,,,,,,,,,,,,,,,,,,,,,,,,,,,,,,0,0,0,0,0,0,0,0,0,0,0,0,0,0,0,0,,,,,,,,,,,
1493069,1745076766325,0.0,173.83,,0.54,-0.03,0.98,-17,2,2,1.12,1.12,100,6819,99.4,5.33,,14.02,0.931,86.2,,62.0,5,,,,,,,,,,,,0,0,0,0,0,0,0,0,0,0,0,0,0,0,0,0,,,,,0.0,,,,,,
1493089,1745076766345,,,,,,,,,,,,,,,,,,,,,,,9,0,22,21,0.0,30.0,0.0,0.0,2.26,,,0,0,0,0,0,0,0,0,0,0,0,0,0,0,0,0,0,,,,,39.239227,-77.965454,13.64,30,3,0.8
1493109,1745076766365,0.0,173.71,,0.58,-0.1,1.04,-20,1,2,1.19,1.19,100,6819,99.4,5.33,,14.1,0.932,86.2,,62.0,5,,,,,,,,,,,,0,0,0,0,0,0,0,0,0,0,0,0,0,0,0,0,,,,,0.0,,,,,,
1493129,1745076766385,,,,,,,,,,,,,,,,,,,,,,,,,,,,,,,,,,0,0,0,0,0,0,0,0,0,0,0,0,0,0,0,0,,,,,,,,,,,
1493149,1745076766405,0.0,173.58,,0.56,-0.14,1.0,-22,1,1,1.16,1.19,97,5385,99.4,4.87,,14.27,0.939,86.2,,50.8,5,,,,,,,,,,,,0,0,0,0,0,0,0,0,0,0,0,0,0,0,0,0,,,,,0.0,,,,,,
1493169,1745076766425,,,,,,,,,,,,,,,,,,,,,,,,,,,,,,,,,,0,0,0,0,0,0,0,0,0,0,0,0,0,0,0,0,,,,,,,,,,,
1493189,1745076766445,0.0,173.58,,0.6,-0.11,1.04,-24,1,1,1.2,1.2,100,4843,99.4,4.32,,14.28,0.929,86.2,,50.8,5,10,0,24,25,0.0,101.0,0.0,0.0,2.25,,,0,0,0,0,0,0,0,0,0,0,0,0,0,0,0,0,0,,,,0.0,39.239223,-77.965462,16.48,30,3,0.8
1493209,1745076766465,,,,,,,,,,,,,,,,,,,,,,,,,,,,,,,,,,0,0,0,0,0,0,0,0,0,0,0,0,0,0,0,0,,,,,,,,,,,
1493229,1745076766485,0.0,173.58,,0.58,-0.17,1.01,-26,1,1,1.18,1.2,98,4088,99.3,4.6,,14.38,0.87,86.2,,50.8,5,,,,,,,,,,,,0,0,0,0,0,0,0,0,0,0,0,0,0,0,0,0,,,,,0.0,,,,,,
1493249,1745076766505,,,,,,,,,,,,,,,,,,,,,,,,,,,,,,,,,,0,0,0,0,0,0,0,0,0,0,0,0,0,0,0,0,,,,,,,,,,,
1493269,1745076766525,0.0,173.58,,0.61,-0.16,1.04,-27,1,1,1.22,1.22,100,3604,99.3,4.65,,14.38,0.87,86.2,,38.9,5,,,,,,,,,,,,0,0,0,0,0,0,0,0,0,0,0,0,0,0,0,0,,,,,0.0,,,,,,
1493289,1745076766545,,,,,,,,,,,,,,,,,,,,,,,12,0,18,18,0.0,77.0,0.0,0.0,2.26,,,0,0,0,0,0,0,0,0,0,0,0,0,0,0,0,0,0,,,,,39.23922,-77.965462,19.48,30,3,0.8
1493309,1745076766565,0.0,173.58,,0.62,-0.19,0.99,-27,1,1,1.18,1.22,97,3604,99.3,4.65,,14.39,0.816,86.2,,38.9,5,,,,,,,,,,,,0,0,0,0,0,0,0,0,0,0,0,0,0,0,0,0,,,,,0.0,,,,,,
1493329,1745076766585,,,,,,,,,,,,,,,,,,,,,,,,,,,,,,,,,,0,0,0,0,0,0,0,0,0,0,0,0,0,0,0,0,,,,,,,,,,,
1493349,1745076766605,0.0,173.58,,0.57,-0.23,0.99,-26,1,1,1.17,1.22,96,2978,99.4,4.39,,14.32,0.813,86.2,,27.6,5,,,,,,,,,,,,0,0,0,0,0,0,0,0,0,0,0,0,0,0,0,0,,,,,0.0,,,,,,
1493369,1745076766625,,,,,,,,,,,,,,,,,,,,,,,,,,,,,,,,,,0,0,0,0,0,0,0,0,0,0,0,0,0,0,0,0,,,,,,,,,,,
1493389,1745076766645,0.0,173.71,13.58,0.49,-0.21,0.98,-25,0,0,1.11,1.22,92,2518,99.4,4.29,15,14.34,0.836,86.2,153,27.6,5,14,0,13,14,0.0,82.0,0.0,0.0,2.26,0,0.0,0,0,0,0,0,0,0,0,0,0,0,0,0,0,0,0,4,0.0,0,0,0.0,39.239212,-77.965462,21.39,30,3,0.8
1493409,1745076766665,,,,,,,,,,,,,,,,,,,,,,,,,,,,,,,,,,0,0,0,0,0,0,0,0,0,0,0,0,0,0,0,0,,,,,,,,,,,
1493429,1745076766685,0.0,173.96,,0.42,-0.16,0.94,-24,0,-0,1.04,1.22,86,2736,99.4,4.29,,14.27,0.837,86.2,,27.6,5,,,,,,,,,,,,0,0,0,0,0,0,0,0,0,0,0,0,0,0,0,0,,,,,0.0,,,,,,
1493449,1745076766706,,,,,,,,,,,,,,,,,,,,,,,,,,,,,,,,,,0,0,0,0,0,0,0,0,0,0,0,0,0,0,0,0,,,,,,,,,,,
1493469,1745076766726,0.0,174.21,,0.4,-0.16,0.96,-22,1,-1,1.05,1.22,86,2969,99.4,4.28,,14.27,0.837,86.2,,25.2,5,,,,,,,,,,,,0,0,0,0,0,0,0,0,0,0,0,0,0,0,0,0,,,,,0.0,,,,,,
1493489,1745076766746,,,,,,,,,,,,,,,,,,,,,,,14,0,14,14,0.0,89.0,0.0,0.0,2.26,,,0,0,0,0,0,0,0,0,0,0,0,0,0,0,0,0,4,,,,,39.239208,-77.965469,22.82,30,3,0.8
1493509,1745076766766,0.0,174.33,,0.37,-0.22,1.02,-20,1,-1,1.1,1.22,91,2969,99.4,4.28,,14.36,0.822,86.2,,25.2,5,,,,,,,,,,,,0,0,0,0,0,0,0,0,0,0,0,0,0,0,0,0,,,,,0.0,,,,,,
1493529,1745076766786,,,,,,,,,,,,,,,,,,,,,,,,,,,,,,,,,,0,0,0,0,0,0,0,0,0,0,0,0,0,0,0,0,,,,,,,,,,,
1493549,1745076766806,0.0,174.46,,0.33,-0.16,1.06,-18,0,-0,1.12,1.22,92,2810,99.4,4.28,,14.35,0.826,86.2,,25.2,5,,,,,,,,,,,,0,0,0,0,0,0,0,0,0,0,0,0,0,0,0,0,,,,,0.0,,,,,,
1493569,1745076766826,,,,,,,,,,,,,,,,,,,,,,,,,,,,,,,,,,0,0,0,0,0,0,0,0,0,0,0,0,0,0,0,0,,,,,,,,,,,
1493589,1745076766846,0.0,174.59,,0.3,-0.17,1.02,-16,0,-0,1.08,1.22,89,2802,99.4,4.28,,14.3,0.838,86.2,,25.2,5,14,0,14,14,0.0,19.0,0.0,0.0,2.26,,,0,0,0,0,0,0,0,0,0,0,0,0,0,0,0,0,3,,,,0.0,39.239204,-77.965469,22.09,30,3,0.8
1493609,1745076766866,,,,,,,,,,,,,,,,,,,,,,,,,,,,,,,,,,0,0,0,0,0,0,0,0,0,0,0,0,0,0,0,0,,,,,,,,,,,
1493629,1745076766886,0.0,174.71,,0.27,-0.13,0.95,-15,0,0,1.0,1.22,82,2965,99.4,4.28,,14.28,0.911,86.2,,25.2,5,,,,,,,,,,,,0,0,0,0,0,0,0,0,0,0,0,0,0,0,0,0,,,,,0.0,,,,,,
1493649,1745076766906,,,,,,,,,,,,,,,,,,,,,,,,,,,,,,,,,,0,0,0,0,0,0,0,0,0,0,0,0,0,0,0,0,,,,,,,,,,,
1493669,1745076766926,0.0,174.71,,0.23,-0.09,0.9,-14,-0,0,0.94,1.22,77,2988,99.4,4.27,,14.28,0.911,86.2,,25.6,5,,,,,,,,,,,,0,0,0,0,0,0,0,0,0,0,0,0,0,0,0,0,,,,,0.0,,,,,,
1493689,1745076766946,,,,,,,,,,,,,,,,,,,,,,,14,0,15,15,0.0,44.0,0.0,0.0,2.26,,,0,0,0,0,0,0,0,0,0,0,0,0,0,0,0,0,3,,,,,39.239201,-77.965469,23.18,30,3,0.8
1493709,1745076766966,0.0,174.71,,0.19,-0.06,0.88,-14,-0,0,0.9,1.22,74,2988,99.4,4.27,,14.34,0.996,86.2,,25.6,5,,,,,,,,,,,,0,0,0,0,0,0,0,0,0,0,0,0,0,0,0,0,,,,,0.0,,,,,,
1493729,1745076766986,,,,,,,,,,,,,,,,,,,,,,,,,,,,,,,,,,0,0,0,0,0,0,0,0,0,0,0,0,0,0,0,0,,,,,,,,,,,
1493749,1745076766998,0.0,174.71,,0.15,-0.13,0.89,-13,0,-0,0.91,1.22,75,2982,99.3,4.28,,14.35,1.037,86.2,,25.8,5,,,,,,,,,,,,0,0,0,0,0,0,0,0,0,0,0,0,0,0,0,0,,,,,0.0,,,,,,
1493769,1745076767018,,,,,,,,,,,,,,,,,,,,,,,,,,,,,,,,,,0,0,0,0,0,0,0,0,0,0,0,0,0,0,0,0,,,,,,,,,,,
1493789,1745076767038,0.0,174.71,,0.11,-0.19,0.94,-13,0,-0,0.96,1.22,79,2892,99.4,4.28,,14.32,1.061,86.2,,25.8,5,14,0,14,15,0.0,72.0,0.0,0.0,2.25,,,0,0,0,0,0,0,0,0,0,0,0,0,0,0,0,0,3,,,,0.0,39.239193,-77.965469,22.82,30,3,0.8
1493809,1745076767058,,,,,,,,,,,,,,,,,,,,,,,,,,,,,,,,,,0,0,0,0,0,0,0,0,0,0,0,0,0,0,0,0,,,,,,,,,,,
1493829,1745076767078,0.0,174.84,,0.09,-0.26,1.01,-13,0,-1,1.04,1.22,86,2923,99.4,4.29,,14.3,1.075,86.2,,25.8,5,,,,,,,,,,,,0,0,0,0,0,0,0,0,0,0,0,0,0,0,0,0,,,,,0.0,,,,,,
1493849,1745076767104,,,,,,,,,,,,,,,,,,,,,,,,,,,,,,,,,,0,0,0,0,0,0,0,0,0,0,0,0,0,0,0,0,,,,,,,,,,,
1493869,1745076767124,0.0,174.84,,0.08,-0.28,0.96,-13,0,-1,1.0,1.22,82,3212,99.4,4.32,,14.3,1.075,86.2,,26.3,5,,,,,,,,,,,,0,0,0,0,0,0,0,0,0,0,0,0,0,0,0,0,,,,,0.0,,,,,,
1493889,1745076767144,,,,,,,,,,,,,,,,,,,,,,,14,0,15,15,0.0,51.0,0.0,0.0,2.26,,,0,0,0,0,0,0,0,0,0,0,0,0,0,0,0,0,3,,,,,39.239189,-77.965477,23.11,30,3,0.8
1493909,1745076767164,0.0,174.84,,0.06,-0.22,0.91,-13,1,-1,0.94,1.22,77,3212,99.4,4.32,,14.36,1.099,86.2,,26.3,5,,,,,,,,,,,,0,0,0,0,0,0,0,0,0,0,0,0,0,0,0,0,,,,,0.0,,,,,,
1493929,1745076767184,,,,,,,,,,,,,,,,,,,,,,,,,,,,,,,,,,0,0,0,0,0,0,0,0,0,0,0,0,0,0,0,0,,,,,,,,,,,
1493949,1745076767202,0.0,174.84,,0.07,-0.12,0.84,-13,0,-1,0.86,1.22,70,2940,99.4,4.32,,14.38,1.059,86.2,,26.0,5,,,,,,,,,,,,0,0,0,0,0,0,0,0,0,0,0,0,0,0,0,0,,,,,0.0,,,,,,
1493969,1745076767222,,,,,,,,,,,,,,,,,,,,,,,,,,,,,,,,,,0,0,0,0,0,0,0,0,0,0,0,0,0,0,0,0,,,,,,,,,,,
1493989,1745076767242,0.0,174.84,,0.09,-0.05,0.77,-13,-0,-1,0.78,1.22,64,2979,99.4,4.32,,14.3,0.985,86.2,,26.0,5,15,0,15,15,0.0,31.0,0.0,0.0,2.26,,,0,0,0,0,0,0,0,0,0,0,0,0,0,0,0,0,0,,,,0.0,39.239185,-77.965485,23.36,30,3,0.8
1494009,1745076767262,,,,,,,,,,,,,,,,,,,,,,,,,,,,,,,,,,0,0,0,0,0,0,0,0,0,0,0,0,0,0,0,0,,,,,,,,,,,
1494029,1745076767282,0.0,174.96,,0.12,0.0,0.76,-13,-0,-1,0.77,1.22,63,3155,99.4,4.29,,14.27,1.006,86.2,,26.0,5,,,,,,,,,,,,0,0,0,0,0,0,0,0,0,0,0,0,0,0,0,0,,,,,0.0,,,,,,
1494049,1745076767306,,,,,,,,,,,,,,,,,,,,,,,,,,,,,,,,,,0,0,0,0,0,0,0,0,0,0,0,0,0,0,0,0,,,,,,,,,,,
1494069,1745076767326,0.0,174.96,,0.12,-0.02,0.85,-12,0,-0,0.86,1.22,70,3209,99.4,4.31,,14.27,1.006,86.2,,27.4,5,,,,,,,,,,,,0,0,0,0,0,0,0,0,0,0,0,0,0,0,0,0,,,,,0.0,,,,,,
1494089,1745076767346,,,,,,,,,,,,,,,,,,,,,,,16,0,16,16,0.0,40.0,0.0,0.0,2.26,,,0,0,0,0,0,0,0,0,0,0,0,0,0,0,0,0,0,,,,,39.239178,-77.965485,24.27,30,3,0.8
1494109,1745076767366,0.0,175.09,,0.11,-0.1,0.96,-12,0,-0,0.97,1.22,80,3209,99.4,4.31,,14.35,1.028,86.2,,27.4,5,,,,,,,,,,,,0,0,0,0,0,0,0,0,0,0,0,0,0,0,0,0,,,,,0.0,,,,,,
1494129,1745076767386,,,,,,,,,,,,,,,,,,,,,,,,,,,,,,,,,,0,0,0,0,0,0,0,0,0,0,0,0,0,0,0,0,,,,,,,,,,,
1494149,1745076767408,0.0,175.21,,0.07,-0.15,0.93,-10,0,-0,0.95,1.22,78,3108,99.3,4.37,,14.35,1.041,86.2,,27.7,5,,,,,,,,,,,,0,0,0,0,0,0,0,0,0,0,0,0,0,0,0,0,,,,,0.0,,,,,,
1494169,1745076767428,,,,,,,,,,,,,,,,,,,,,,,,,,,,,,,,,,0,0,0,0,0,0,0,0,0,0,0,0,0,0,0,0,,,,,,,,,,,
1494189,1745076767448,0.0,175.21,,0.08,-0.07,0.85,-9,0,-1,0.86,1.22,70,3232,99.4,4.33,,14.27,1.081,86.2,,27.7,5,15,0,16,16,0.0,248.0,0.0,0.0,2.26,,,0,0,0,0,0,0,0,0,0,0,0,0,0,0,0,0,3,,,,0.0,39.239174,-77.965492,24.45,30,3,0.8
1494209,1745076767468,,,,,,,,,,,,,,,,,,,,,,,,,,,,,,,,,,0,0,0,0,0,0,0,0,0,0,0,0,0,0,0,0,,,,,,,,,,,
1494229,1745076767488,0.0,175.34,,0.1,-0.01,0.89,-9,0,-0,0.9,1.22,74,3253,99.4,4.35,,14.35,1.114,86.2,,27.7,5,,,,,,,,,,,,0,0,0,0,0,0,0,0,0,0,0,0,0,0,0,0,,,,,0.0,,,,,,
1494249,1745076767509,,,,,,,,,,,,,,,,,,,,,,,,,,,,,,,,,,0,0,0,0,0,0,0,0,0,0,0,0,0,0,0,0,,,,,,,,,,,
1494269,1745076767529,0.0,175.34,,0.11,-0.12,0.95,-8,0,-0,0.96,1.22,79,3302,99.4,4.37,,14.35,1.114,86.2,,28.4,5,,,,,,,,,,,,0,0,0,0,0,0,0,0,0,0,0,0,0,0,0,0,,,,,0.0,,,,,,
1494289,1745076767549,,,,,,,,,,,,,,,,,,,,,,,16,0,16,16,0.0,38.0,0.0,0.0,2.25,,,0,0,0,0,0,0,0,0,0,0,0,0,0,0,0,0,3,,,,,39.23917,-77.9655,24.91,30,3,0.8
1494309,1745076767569,0.0,175.47,,0.13,-0.02,0.91,-7,0,-0,0.92,1.22,75,3302,99.4,4.37,,14.34,1.124,86.2,,28.4,5,,,,,,,,,,,,0,0,0,0,0,0,0,0,0,0,0,0,0,0,0,0,,,,,0.0,,,,,,
1494329,1745076767589,,,,,,,,,,,,,,,,,,,,,,,,,,,,,,,,,,0,0,0,0,0,0,0,0,0,0,0,0,0,0,0,0,,,,,,,,,,,
1494349,1745076767608,0.0,175.47,,0.1,-0.0,0.93,-7,0,0,0.94,1.22,77,3270,99.4,4.42,,14.3,1.153,86.2,,28.6,5,,,,,,,,,,,,0,0,0,0,0,0,0,0,0,0,0,0,0,0,0,0,,,,,0.0,,,,,,
1494369,1745076767628,,,,,,,,,,,,,,,,,,,,,,,,,,,,,,,,,,0,0,0,0,0,0,0,0,0,0,0,0,0,0,0,0,,,,,,,,,,,
1494389,1745076767648,0.0,175.47,13.68,0.07,-0.09,0.99,-6,-0,-0,0.99,1.22,82,3143,99.4,4.29,15,14.32,1.07,86.2,153,28.6,5,16,0,16,17,0.0,232.0,0.0,0.0,2.26,0,0.0,0,0,0,0,0,0,0,0,0,0,0,0,0,0,0,0,3,0.0,0,0,0.0,39.239162,-77.9655,25.2,30,3,0.8
1494409,1745076767668,,,,,,,,,,,,,,,,,,,,,,,,,,,,,,,,,,0,0,0,0,0,0,0,0,0,0,0,0,0,0,0,0,,,,,,,,,,,
1494429,1745076767688,0.0,175.47,,0.07,0.01,0.95,-5,-0,-0,0.95,1.22,78,3342,99.3,4.43,,14.3,1.04,86.2,,28.6,5,,,,,,,,,,,,0,0,0,0,0,0,0,0,0,0,0,0,0,0,0,0,,,,,0.0,,,,,,
1494449,1745076767707,,,,,,,,,,,,,,,,,,,,,,,,,,,,,,,,,,0,0,0,0,0,0,0,0,0,0,0,0,0,0,0,0,,,,,,,,,,,
1494469,1745076767727,0.0,175.47,,0.07,-0.06,1.03,-4,0,-0,1.04,1.22,85,3412,99.4,4.45,,14.3,1.04,86.2,,30.2,5,,,,,,,,,,,,0,0,0,0,0,0,0,0,0,0,0,0,0,0,0,0,,,,,0.0,,,,,,
1494489,1745076767747,,,,,,,,,,,,,,,,,,,,,,,17,0,17,17,0.0,25.0,0.0,0.0,2.26,,,0,0,0,0,0,0,0,0,0,0,0,0,0,0,0,0,3,,,,,39.239159,-77.965508,25.82,30,3,0.8
1494509,1745076767767,0.0,175.47,,0.02,-0.0,0.92,-3,-0,-1,0.92,1.22,76,3412,99.4,4.45,,14.32,1.03,86.2,,30.2,5,,,,,,,,,,,,0,0,0,0,0,0,0,0,0,0,0,0,0,0,0,0,,,,,0.0,,,,,,
1494529,1745076767787,,,,,,,,,,,,,,,,,,,,,,,,,,,,,,,,,,0,0,0,0,0,0,0,0,0,0,0,0,0,0,0,0,,,,,,,,,,,
1494549,1745076767807,0.0,175.47,,0.06,0.07,0.97,-3,-1,0,0.97,0.97,100,0,99.4,4.57,,14.34,1.074,86.2,,29.9,5,,,,,,,,,,,,0,0,0,0,0,0,0,0,0,0,0,0,0,0,0,0,,,,,0.0,,,,,,
1494569,1745076767827,,,,,,,,,,,,,,,,,,,,,,,,,,,,,,,,,,0,0,0,0,0,0,0,0,0,0,0,0,0,0,0,0,,,,,,,,,,,
1494589,1745076767847,0.0,175.47,,0.03,0.01,0.96,-1,-0,-0,0.96,0.97,99,3297,99.4,4.46,,14.31,1.129,86.2,,29.9,5,17,0,17,17,0.0,240.0,0.0,0.0,2.26,,,0,0,0,0,0,0,0,0,0,0,0,0,0,0,0,0,0,,,,0.0,39.239151,-77.965508,25.85,30,3,0.8
1494609,1745076767867,,,,,,,,,,,,,,,,,,,,,,,,,,,,,,,,,,0,0,0,0,0,0,0,0,0,0,0,0,0,0,0,0,,,,,,,,,,,
1494629,1745076767887,0.0,175.47,,0.01,0.07,0.92,-1,-0,-0,0.92,0.97,94,3111,99.4,4.42,,14.32,1.005,86.2,,29.9,5,,,,,,,,,,,,0,0,0,0,0,0,0,0,0,0,0,0,0,0,0,0,,,,,0.0,,,,,,
1494649,1745076767907,,,,,,,,,,,,,,,,,,,,,,,,,,,,,,,,,,0,0,0,0,0,0,0,0,0,0,0,0,0,0,0,0,,,,,,,,,,,
1494669,1745076767927,0.0,175.59,,-0.02,0.06,0.91,-0,-0,-0,0.92,0.97,94,2858,99.4,4.29,,14.32,1.005,86.2,,27.7,5,,,,,,,,,,,,0,0,0,0,0,0,0,0,0,0,0,0,0,0,0,0,,,,,0.0,,,,,,
1494689,1745076767947,,,,,,,,,,,,,,,,,,,,,,,17,0,16,16,0.0,28.0,0.0,0.0,2.26,,,0,0,0,0,0,0,0,0,0,0,0,0,0,0,0,0,0,,,,,39.239147,-77.965508,26.4,30,3,0.8
1494709,1745076767967,0.0,175.59,,-0.09,0.0,1.01,1,-1,-1,1.01,1.01,100,2858,99.4,4.29,,14.31,0.97,86.2,,27.7,5,,,,,,,,,,,,0,0,0,0,0,0,0,0,0,0,0,0,0,0,0,0,,,,,0.0,,,,,,
1494729,1745076767987,,,,,,,,,,,,,,,,,,,,,,,,,,,,,,,,,,0,0,0,0,0,0,0,0,0,0,0,0,0,0,0,0,,,,,,,,,,,
1494749,1745076767999,0.0,175.59,,-0.1,-0.06,1.0,2,-1,-1,1.01,1.01,100,3032,99.4,4.29,,14.31,1.022,86.2,,27.4,5,,,,,,,,,,,,0,0,0,0,0,0,0,0,0,0,0,0,0,0,0,0,,,,,0.0,,,,,,
1494769,1745076768019,,,,,,,,,,,,,,,,,,,,,,,,,,,,,,,,,,0,0,0,0,0,0,0,0,0,0,0,0,0,0,0,0,,,,,,,,,,,
1494789,1745076768039,0.0,175.59,,-0.09,0.02,0.97,1,-0,-0,0.97,1.01,96,3332,99.4,4.45,,14.31,1.234,86.2,,27.4,5,16,0,16,16,0.0,26.0,0.0,0.0,2.25,,,0,0,0,0,0,0,0,0,0,0,0,0,0,0,0,0,3,,,,0.0,39.239143,-77.965515,26.27,29,3,0.8
1494809,1745076768059,,,,,,,,,,,,,,,,,,,,,,,,,,,,,,,,,,0,0,0,0,0,0,0,0,0,0,0,0,0,0,0,0,,,,,,,,,,,
1494829,1745076768079,0.0,175.47,,-0.1,0.01,1.02,1,-0,-0,1.03,1.03,100,3137,99.4,4.39,,14.31,1.249,86.2,,27.4,5,,,,,,,,,,,,0,0,0,0,0,0,0,0,0,0,0,0,0,0,0,0,,,,,0.0,,,,,,
1494849,1745076768103,,,,,,,,,,,,,,,,,,,,,,,,,,,,,,,,,,0,0,0,0,0,0,0,0,0,0,0,0,0,0,0,0,,,,,,,,,,,
1494869,1745076768123,0.0,175.47,,-0.13,-0.06,1.07,1,-1,-0,1.08,1.08,100,3111,99.4,4.32,,14.31,1.249,86.2,,28.2,5,,,,,,,,,,,,0,0,0,0,0,0,0,0,0,0,0,0,0,0,0,0,,,,,0.0,,,,,,
1494889,1745076768143,,,,,,,,,,,,,,,,,,,,,,,16,0,15,15,0.0,239.0,0.0,0.0,2.25,,,0,0,0,0,0,0,0,0,0,0,0,0,0,0,0,0,3,,,,,39.239136,-77.965523,25.46,29,3,0.8
1494909,1745076768163,0.0,175.47,,-0.17,-0.1,1.11,1,-0,-1,1.13,1.13,100,3111,99.4,4.32,,14.31,1.249,86.2,,28.2,5,,,,,,,,,,,,0,0,0,0,0,0,0,0,0,0,0,0,0,0,0,0,,,,,0.0,,,,,,
1494929,1745076768183,,,,,,,,,,,,,,,,,,,,,,,,,,,,,,,,,,0,0,0,0,0,0,0,0,0,0,0,0,0,0,0,0,,,,,,,,,,,
1494949,1745076768203,0.0,175.47,,-0.21,-0.07,1.1,1,0,-1,1.12,1.13,99,3132,99.4,4.35,,14.31,1.248,86.2,,27.7,5,,,,,,,,,,,,0,0,0,0,0,0,0,0,0,0,0,0,0,0,0,0,,,,,0.0,,,,,,
1494969,1745076768223,,,,,,,,,,,,,,,,,,,,,,,,,,,,,,,,,,0,0,0,0,0,0,0,0,0,0,0,0,0,0,0,0,,,,,,,,,,,
1494989,1745076768243,0.0,175.47,,-0.23,-0.06,1.05,1,-0,-1,1.08,1.13,95,3044,99.4,4.31,,14.3,1.246,86.2,,27.7,5,16,0,15,15,0.0,226.0,0.0,0.0,2.26,,,0,0,0,0,0,0,0,0,0,0,0,0,0,0,0,0,3,,,,0.0,39.239132,-77.96553,25.08,29,3,0.8
1495009,1745076768263,,,,,,,,,,,,,,,,,,,,,,,,,,,,,,,,,,0,0,0,0,0,0,0,0,0,0,0,0,0,0,0,0,,,,,,,,,,,
1495029,1745076768283,0.0,175.47,,-0.22,-0.03,0.97,1,-1,-1,1.0,1.13,88,3012,99.4,4.31,,14.31,1.247,86.2,,27.7,5,,,,,,,,,,,,0,0,0,0,0,0,0,0,0,0,0,0,0,0,0,0,,,,,0.0,,,,,,
1495049,1745076768308,,,,,,,,,,,,,,,,,,,,,,,,,,,,,,,,,,0,0,0,0,0,0,0,0,0,0,0,0,0,0,0,0,,,,,,,,,,,
1495069,1745076768328,0.0,175.59,,-0.23,-0.0,0.93,1,-0,-1,0.96,1.13,85,2970,60.8,4.2,,14.31,1.247,86.2,,26.9,5,,,,,,,,,,,,0,0,0,0,0,0,0,0,0,0,0,0,0,0,0,0,,,,,0.0,,,,,,
1495089,1745076768348,,,,,,,,,,,,,,,,,,,,,,,15,0,15,15,0.0,248.0,0.0,0.0,2.26,,,0,0,0,0,0,0,0,0,0,0,0,0,0,0,0,0,3,,,,,39.239128,-77.96553,24.27,29,3,0.8
1495109,1745076768368,0.0,175.59,,-0.24,-0.0,0.9,1,0,-1,0.94,1.13,83,2970,60.8,4.2,,14.28,1.247,86.2,,26.9,5,,,,,,,,,,,,0,0,0,0,0,0,0,0,0,0,0,0,0,0,0,0,,,,,0.0,,,,,,
1495129,1745076768388,,,,,,,,,,,,,,,,,,,,,,,,,,,,,,,,,,0,0,0,0,0,0,0,0,0,0,0,0,0,0,0,0,,,,,,,,,,,
1495149,1745076768405,0.0,175.72,,-0.25,-0.02,0.9,1,0,-1,0.94,1.13,83,2975,3.3,4.24,,13.8,1.248,86.2,,26.3,5,,,,,,,,,,,,0,0,0,0,0,0,0,0,0,0,0,0,0,0,0,0,,,,,0.0,,,,,,
1495169,1745076768425,,,,,,,,,,,,,,,,,,,,,,,,,,,,,,,,,,0,0,0,0,0,0,0,0,0,0,0,0,0,0,0,0,,,,,,,,,,,
1495189,1745076768445,0.0,175.72,,-0.23,-0.02,0.86,2,-0,-1,0.89,1.13,78,3057,3.3,3.34,,13.56,1.249,86.2,,26.3,5,15,0,15,15,0.0,247.0,0.0,0.0,2.26,,,0,0,0,0,0,0,0,0,0,0,0,0,0,0,0,0,3,,,,0.0,39.23912,-77.965538,23.74,29,3,0.8
1495209,1745076768465,,,,,,,,,,,,,,,,,,,,,,,,,,,,,,,,,,0,0,0,0,0,0,0,0,0,0,0,0,0,0,0,0,,,,,,,,,,,
1495229,1745076768485,0.0,175.72,,-0.18,0.08,0.81,1,0,-1,0.84,1.13,74,3137,37.5,5.03,,14.22,1.249,86.2,,26.3,5,,,,,,,,,,,,0,0,0,0,0,0,0,0,0,0,0,0,0,0,0,0,,,,,0.0,,,,,,
1495249,1745076768507,,,,,,,,,,,,,,,,,,,,,,,,,,,,,,,,,,0,0,0,0,0,0,0,0,0,0,0,0,0,0,0,0,,,,,,,,,,,
1495269,1745076768527,0.0,175.72,,-0.15,-0.02,0.87,1,0,-1,0.88,1.13,78,3677,79.7,5.06,,14.22,1.249,86.2,,28.0,5,,,,,,,,,,,,0,0,0,0,0,0,0,0,0,0,0,0,0,0,0,0,,,,,0.0,,,,,,
1495289,1745076768547,,,,,,,,,,,,,,,,,,,,,,,15,0,15,15,0.0,18.0,0.0,0.0,2.26,,,0,0,0,0,0,0,0,0,0,0,0,0,0,0,0,0,3,,,,,39.239117,-77.965538,23.26,29,3,0.8
1495309,1745076768567,0.0,175.84,,-0.03,0.03,0.88,1,1,-0,0.88,1.13,78,3677,79.7,5.06,,14.26,1.249,84.4,,28.0,5,,,,,,,,,,,,0,0,0,0,0,0,0,0,0,0,0,0,0,0,0,0,,,,,0.0,,,,,,
1495329,1745076768587,,,,,,,,,,,,,,,,,,,,,,,,,,,,,,,,,,0,0,0,0,0,0,0,0,0,0,0,0,0,0,0,0,,,,,,,,,,,
1495349,1745076768609,0.0,175.72,,-0.02,0.06,0.92,-0,0,0,0.92,1.13,82,3461,84.8,4.88,,14.39,1.249,84.4,,28.0,5,,,,,,,,,,,,0,0,0,0,0,0,0,0,0,0,0,0,0,0,0,0,,,,,0.0,,,,,,
1495369,1745076768629,,,,,,,,,,,,,,,,,,,,,,,,,,,,,,,,,,0,0,0,0,0,0,0,0,0,0,0,0,0,0,0,0,,,,,,,,,,,
1495389,1745076768649,0.0,175.84,13.74,-0.04,0.12,0.91,-1,-0,1,0.92,1.13,82,2810,56.4,4.27,15,14.28,1.248,84.4,153,28.0,5,15,0,15,15,0.0,243.0,0.0,0.0,2.26,0,0.0,0,0,0,0,0,0,0,0,0,0,0,0,0,0,0,0,4,0.0,0,0,0.0,39.239109,-77.965546,23.22,29,3,0.8
1495409,1745076768669,,,,,,,,,,,,,,,,,,,,,,,,,,,,,,,,,,0,0,0,0,0,0,0,0,0,0,0,0,0,0,0,0,,,,,,,,,,,
1495429,1745076768689,0.0,175.84,,-0.03,0.03,0.98,-1,-0,1,0.98,1.13,87,3177,22.2,4.32,,14.04,1.12,84.4,,28.0,5,,,,,,,,,,,,0,0,0,0,0,0,0,0,0,0,0,0,0,0,0,0,,,,,0.0,,,,,,
1495449,1745076768708,,,,,,,,,,,,,,,,,,,,,,,,,,,,,,,,,,0,0,0,0,0,0,0,0,0,0,0,0,0,0,0,0,,,,,,,,,,,
1495469,1745076768728,0.0,175.84,,-0.02,0.02,0.95,-0,0,0,0.95,1.13,84,3272,33.0,4.55,,14.04,1.12,84.4,,28.4,5,,,,,,,,,,,,0,0,0,0,0,0,0,0,0,0,0,0,0,0,0,0,,,,,0.0,,,,,,
1495489,1745076768748,,,,,,,,,,,,,,,,,,,,,,,16,0,16,16,0.0,34.0,0.0,0.0,2.26,,,0,0,0,0,0,0,0,0,0,0,0,0,0,0,0,0,4,,,,,39.239105,-77.965553,24.51,29,3,0.8
1495509,1745076768768,0.0,175.84,,-0.01,0.07,0.87,-0,-0,0,0.87,1.13,77,3272,33.0,4.55,,14.15,1.033,84.4,,28.4,5,,,,,,,,,,,,0,0,0,0,0,0,0,0,0,0,0,0,0,0,0,0,,,,,0.0,,,,,,
1495529,1745076768788,,,,,,,,,,,,,,,,,,,,,,,,,,,,,,,,,,0,0,0,0,0,0,0,0,0,0,0,0,0,0,0,0,,,,,,,,,,,
1495549,1745076768808,0.0,175.72,,0.04,0.04,0.95,-1,-0,1,0.95,1.13,84,3155,45.8,5.04,,14.27,0.99,84.4,,28.7,5,,,,,,,,,,,,0,0,0,0,0,0,0,0,0,0,0,0,0,0,0,0,,,,,0.0,,,,,,
1495569,1745076768828,,,,,,,,,,,,,,,,,,,,,,,,,,,,,,,,,,0,0,0,0,0,0,0,0,0,0,0,0,0,0,0,0,,,,,,,,,,,
1495589,1745076768848,0.0,175.84,,0.05,0.03,0.9,-0,0,1,0.9,1.13,80,3277,35.2,4.79,,14.15,0.979,84.4,,28.7,5,17,0,16,16,0.0,29.0,0.0,0.0,2.26,,,0,0,0,0,0,0,0,0,0,0,0,0,0,0,0,0,3,,,,0.0,39.239101,-77.965553,24.79,29,3,0.8
1495609,1745076768868,,,,,,,,,,,,,,,,,,,,,,,,,,,,,,,,,,0,0,0,0,0,0,0,0,0,0,0,0,0,0,0,0,,,,,,,,,,,
1495629,1745076768888,0.0,175.72,,0.05,0.05,0.9,-1,0,1,0.9,1.13,80,3293,22.0,4.32,,14.04,0.983,84.4,,28.7,5,,,,,,,,,,,,0,0,0,0,0,0,0,0,0,0,0,0,0,0,0,0,,,,,0.0,,,,,,
1495649,1745076768908,,,,,,,,,,,,,,,,,,,,,,,,,,,,,,,,,,0,0,0,0,0,0,0,0,0,0,0,0,0,0,0,0,,,,,,,,,,,
1495669,1745076768928,0.0,175.84,,0.03,-0.03,0.96,-1,0,1,0.96,1.13,85,3307,43.3,4.66,,14.04,0.983,84.4,,29.3,5,,,,,,,,,,,,0,0,0,0,0,0,0,0,0,0,0,0,0,0,0,0,,,,,0.0,,,,,,
1495689,1745076768948,,,,,,,,,,,,,,,,,,,,,,,16,0,16,17,0.0,28.0,0.0,0.0,2.26,,,0,0,0,0,0,0,0,0,0,0,0,0,0,0,0,0,3,,,,,39.239094,-77.965553,25.53,29,3,0.8
1495709,1745076768968,0.0,175.84,,0.06,0.01,0.95,-1,0,1,0.95,1.13,84,3307,43.3,4.66,,14.27,0.962,84.4,,29.3,5,,,,,,,,,,,,0,0,0,0,0,0,0,0,0,0,0,0,0,0,0,0,,,,,0.0,,,,,,
1495729,1745076768988,,,,,,,,,,,,,,,,,,,,,,,,,,,,,,,,,,0,0,0,0,0,0,0,0,0,0,0,0,0,0,0,0,,,,,,,,,,,
1495749,1745076769000,0.0,175.72,,0.06,-0.08,0.93,1,0,1,0.93,1.13,83,3503,63.1,4.58,,14.27,0.946,84.4,,30.6,5,,,,,,,,,,,,0,0,0,0,0,0,0,0,0,0,0,0,0,0,0,0,,,,,0.0,,,,,,
1495769,1745076769020,,,,,,,,,,,,,,,,,,,,,,,,,,,,,,,,,,0,0,0,0,0,0,0,0,0,0,0,0,0,0,0,0,,,,,,,,,,,
1495789,1745076769040,0.0,175.84,,0.05,-0.04,0.97,-0,-0,1,0.97,1.13,86,3388,87.7,4.52,,14.3,0.94,84.4,,30.6,5,17,0,17,17,0.0,24.0,0.0,0.0,2.26,,,0,0,0,0,0,0,0,0,0,0,0,0,0,0,0,0,3,,,,0.0,39.23909,-77.965561,26.03,29,3,0.8
1495809,1745076769060,,,,,,,,,,,,,,,,,,,,,,,,,,,,,,,,,,0,0,0,0,0,0,0,0,0,0,0,0,0,0,0,0,,,,,,,,,,,
1495829,1745076769080,0.0,175.84,,0.04,-0.04,0.96,0,-1,1,0.96,1.13,85,3267,99.6,4.87,,14.27,0.945,84.4,,30.6,5,,,,,,,,,,,,0,0,0,0,0,0,0,0,0,0,0,0,0,0,0,0,,,,,0.0,,,,,,
1495849,1745076769104,,,,,,,,,,,,,,,,,,,,,,,,,,,,,,,,,,0,0,0,0,0,0,0,0,0,0,0,0,0,0,0,0,,,,,,,,,,,
1495869,1745076769124,0.0,175.84,,0.04,-0.03,1.02,0,-1,1,1.02,1.13,90,3493,99.6,4.43,,14.27,0.945,84.4,,29.7,5,,,,,,,,,,,,0,0,0,0,0,0,0,0,0,0,0,0,0,0,0,0,,,,,0.0,,,,,,
1495889,1745076769144,,,,,,,,,,,,,,,,,,,,,,,17,0,17,17,0.0,253.0,0.0,0.0,2.25,,,0,0,0,0,0,0,0,0,0,0,0,0,0,0,0,0,3,,,,,39.239086,-77.965561,26.93,29,3,0.8
1495909,1745076769164,0.0,175.84,,0.04,-0.01,0.97,1,-0,1,0.97,1.13,86,3493,99.6,4.43,,14.34,0.974,84.4,,29.7,5,,,,,,,,,,,,0,0,0,0,0,0,0,0,0,0,0,0,0,0,0,0,,,,,0.0,,,,,,
1495929,1745076769184,,,,,,,,,,,,,,,,,,,,,,,,,,,,,,,,,,0,0,0,0,0,0,0,0,0,0,0,0,0,0,0,0,,,,,,,,,,,
1495949,1745076769208,0.0,175.72,,0.01,-0.06,0.97,2,-0,0,0.97,1.13,86,3482,99.6,4.55,,14.28,1.0,84.4,,31.6,5,,,,,,,,,,,,0,0,0,0,0,0,0,0,0,0,0,0,0,0,0,0,,,,,0.0,,,,,,
1495969,1745076769228,,,,,,,,,,,,,,,,,,,,,,,,,,,,,,,,,,0,0,0,0,0,0,0,0,0,0,0,0,0,0,0,0,,,,,,,,,,,
1495989,1745076769248,0.0,175.72,,-0.01,-0.02,0.98,1,-1,1,0.98,0.98,100,3522,99.5,4.49,,14.31,1.057,84.4,,31.6,5,17,0,17,18,0.0,7.0,0.0,0.0,2.26,,,0,0,0,0,0,0,0,0,0,0,0,0,0,0,0,0,3,,,,0.0,39.239079,-77.965569,27.11,29,3,0.8
1496009,1745076769268,,,,,,,,,,,,,,,,,,,,,,,,,,,,,,,,,,0,0,0,0,0,0,0,0,0,0,0,0,0,0,0,0,,,,,,,,,,,
1496029,1745076769288,0.0,175.72,,0.0,0.01,0.96,1,-1,0,0.96,0.98,97,3473,37.6,4.97,,14.18,1.108,84.4,,31.6,5,,,,,,,,,,,,0,0,0,0,0,0,0,0,0,0,0,0,0,0,0,0,,,,,0.0,,,,,,
1496049,1745076769308,,,,,,,,,,,,,,,,,,,,,,,,,,,,,,,,,,0,0,0,0,0,0,0,0,0,0,0,0,0,0,0,0,,,,,,,,,,,
1496069,1745076769328,0.0,175.84,,-0.0,-0.09,0.94,2,-1,-0,0.94,0.98,96,3612,25.6,4.28,,14.18,1.108,84.4,,31.3,5,,,,,,,,,,,,0,0,0,0,0,0,0,0,0,0,0,0,0,0,0,0,,,,,0.0,,,,,,
1496089,1745076769348,,,,,,,,,,,,,,,,,,,,,,,17,0,18,18,0.0,23.0,0.0,0.0,2.26,,,0,0,0,0,0,0,0,0,0,0,0,0,0,0,0,0,3,,,,,39.239071,-77.965576,27.52,29,3,0.8
1496109,1745076769368,0.0,175.97,,-0.01,-0.1,1.01,1,-1,-0,1.01,1.01,100,3612,25.6,4.28,,13.99,1.148,84.4,,31.3,5,,,,,,,,,,,,0,0,0,0,0,0,0,0,0,0,0,0,0,0,0,0,,,,,0.0,,,,,,
1496129,1745076769388,,,,,,,,,,,,,,,,,,,,,,,,,,,,,,,,,,0,0,0,0,0,0,0,0,0,0,0,0,0,0,0,0,,,,,,,,,,,
1496149,1745076769408,0.0,175.97,,0.02,-0.04,1.03,1,-1,-0,1.03,1.03,100,3484,31.5,4.48,,14.12,1.162,84.4,,31.7,5,,,,,,,,,,,,0,0,0,0,0,0,0,0,0,0,0,0,0,0,0,0,,,,,0.0,,,,,,
1496169,1745076769428,,,,,,,,,,,,,,,,,,,,,,,,,,,,,,,,,,0,0,0,0,0,0,0,0,0,0,0,0,0,0,0,0,,,,,,,,,,,
1496189,1745076769448,0.0,175.84,,0.06,0.01,1.01,1,-0,-0,1.01,1.03,98,3644,60.3,4.88,,14.27,1.149,84.4,,31.7,5,18,0,18,18,0.0,227.0,0.0,0.0,2.26,,,0,0,0,0,0,0,0,0,0,0,0,0,0,0,0,0,3,,,,0.0,39.239067,-77.965584,27.77,29,3,0.8
1496209,1745076769468,,,,,,,,,,,,,,,,,,,,,,,,,,,,,,,,,,0,0,0,0,0,0,0,0,0,0,0,0,0,0,0,0,,,,,,,,,,,
1496229,1745076769488,0.0,175.84,,0.07,0.03,1.03,1,0,-0,1.04,1.04,100,3597,78.8,4.72,,14.34,1.138,84.4,,31.7,5,,,,,,,,,,,,0,0,0,0,0,0,0,0,0,0,0,0,0,0,0,0,,,,,0.0,,,,,,
1496249,1745076769508,,,,,,,,,,,,,,,,,,,,,,,,,,,,,,,,,,0,0,0,0,0,0,0,0,0,0,0,0,0,0,0,0,,,,,,,,,,,
1496269,1745076769528,0.0,175.84,,0.05,-0.07,1.02,1,-0,-1,1.02,1.04,99,3677,85.8,4.59,,14.34,1.138,84.4,,32.7,5,,,,,,,,,,,,0,0,0,0,0,0,0,0,0,0,0,0,0,0,0,0,,,,,0.0,,,,,,
1496289,1745076769548,,,,,,,,,,,,,,,,,,,,,,,18,0,18,19,0.0,3.0,0.0,0.0,2.26,,,0,0,0,0,0,0,0,0,0,0,0,0,0,0,0,0,3,,,,,39.239059,-77.965584,28.11,29,3,0.8
1496309,1745076769568,0.0,175.97,,0.04,-0.1,1.03,0,-1,-1,1.04,1.04,100,3677,85.8,4.59,,14.3,1.137,84.4,,32.7,5,,,,,,,,,,,,0,0,0,0,0,0,0,0,0,0,0,0,0,0,0,0,,,,,0.0,,,,,,
1496329,1745076769588,,,,,,,,,,,,,,,,,,,,,,,,,,,,,,,,,,0,0,0,0,0,0,0,0,0,0,0,0,0,0,0,0,,,,,,,,,,,
1496349,1745076769608,0.0,175.84,,0.04,-0.06,1.05,0,-0,-1,1.06,1.06,100,3583,91.3,4.53,,14.27,1.135,84.4,,32.8,5,,,,,,,,,,,,0,0,0,0,0,0,0,0,0,0,0,0,0,0,0,0,,,,,0.0,,,,,,
1496369,1745076769628,,,,,,,,,,,,,,,,,,,,,,,,,,,,,,,,,,0,0,0,0,0,0,0,0,0,0,0,0,0,0,0,0,,,,,,,,,,,
1496389,1745076769648,0.0,175.84,13.78,0.06,-0.08,1.01,0,-1,-1,1.01,1.06,96,3744,80.7,4.2,15,14.24,1.141,84.4,153,32.8,5,19,0,19,18,0.0,19.0,0.0,0.0,2.26,0,0.0,0,0,0,0,0,0,0,0,0,0,0,0,0,0,0,0,3,0.0,0,0,0.0,39.239052,-77.965591,28.49,30,3,0.8
1496409,1745076769668,,,,,,,,,,,,,,,,,,,,,,,,,,,,,,,,,,0,0,0,0,0,0,0,0,0,0,0,0,0,0,0,0,,,,,,,,,,,
1496429,1745076769688,0.0,175.84,,0.04,-0.03,1.01,-0,-1,-1,1.01,1.06,96,3629,4.1,3.96,,13.68,1.162,84.4,,32.8,5,,,,,,,,,,,,0,0,0,0,0,0,0,0,0,0,0,0,0,0,0,0,,,,,0.0,,,,,,
1496449,1745076769707,,,,,,,,,,,,,,,,,,,,,,,,,,,,,,,,,,0,0,0,0,0,0,0,0,0,0,0,0,0,0,0,0,,,,,,,,,,,
1496469,1745076769727,0.0,175.97,,0.04,0.02,1.03,-1,-1,-1,1.03,1.06,98,3612,0.0,2.68,,13.68,1.162,84.4,,33.3,5,,,,,,,,,,,,0,0,0,0,0,0,0,0,0,0,0,0,0,0,0,0,,,,,0.0,,,,,,
1496489,1745076769747,,,,,,,,,,,,,,,,,,,,,,,19,0,18,19,0.0,33.0,0.0,0.0,2.26,,,0,0,0,0,0,0,0,0,0,0,0,0,0,0,0,0,3,,,,,39.239052,-77.965591,28.86,29,3,0.8
1496509,1745076769767,0.0,175.97,,0.04,-0.01,0.98,-1,-1,-1,0.98,1.06,93,3612,0.0,2.68,,12.93,1.126,84.4,,33.3,5,,,,,,,,,,,,0,0,0,0,0,0,0,0,0,0,0,0,0,0,0,0,,,,,0.0,,,,,,
1496529,1745076769787,,,,,,,,,,,,,,,,,,,,,,,,,,,,,,,,,,0,0,0,0,0,0,0,0,0,0,0,0,0,0,0,0,,,,,,,,,,,
1496549,1745076769807,0.0,175.84,,0.01,-0.02,0.99,-0,-1,-1,0.99,1.06,94,3683,31.8,4.8,,13.87,1.092,84.4,,32.9,5,,,,,,,,,,,,0,0,0,0,0,0,0,0,0,0,0,0,0,0,0,0,,,,,0.0,,,,,,
1496569,1745076769827,,,,,,,,,,,,,,,,,,,,,,,,,,,,,,,,,,0,0,0,0,0,0,0,0,0,0,0,0,0,0,0,0,,,,,,,,,,,
1496589,1745076769847,0.0,175.84,,0.03,-0.03,1.06,-1,-0,-0,1.06,1.06,100,3809,85.4,5.2,,14.34,0.984,84.4,,32.9,5,18,0,18,18,0.0,239.0,0.0,0.0,2.26,,,0,0,0,0,0,0,0,0,0,0,0,0,0,0,0,0,3,,,,0.0,39.239044,-77.965599,29.37,29,3,0.8
1496609,1745076769867,,,,,,,,,,,,,,,,,,,,,,,,,,,,,,,,,,0,0,0,0,0,0,0,0,0,0,0,0,0,0,0,0,,,,,,,,,,,
1496629,1745076769887,0.0,175.97,,0.07,-0.05,1.0,-0,0,-0,1.01,1.06,95,4078,99.3,5.53,,14.22,0.923,84.4,,32.9,5,,,,,,,,,,,,0,0,0,0,0,0,0,0,0,0,0,0,0,0,0,0,,,,,0.0,,,,,,
1496649,1745076769909,,,,,,,,,,,,,,,,,,,,,,,,,,,,,,,,,,0,0,0,0,0,0,0,0,0,0,0,0,0,0,0,0,,,,,,,,,,,
1496669,1745076769929,0.0,175.97,,0.06,-0.08,1.01,-0,0,-1,1.02,1.06,95,3743,97.9,4.72,,14.22,0.923,84.4,,36.7,5,,,,,,,,,,,,0,0,0,0,0,0,0,0,0,0,0,0,0,0,0,0,,,,,0.0,,,,,,
1496689,1745076769949,,,,,,,,,,,,,,,,,,,,,,,19,0,19,19,0.0,62.0,0.0,0.0,2.26,,,0,0,0,0,0,0,0,0,0,0,0,0,0,0,0,0,0,,,,,39.239037,-77.965607,29.24,29,3,0.8
1496709,1745076769969,0.0,175.97,,0.08,-0.09,0.99,-0,-0,-1,1.0,1.06,94,3743,97.9,4.72,,14.31,0.899,84.4,,36.7,5,,,,,,,,,,,,0,0,0,0,0,0,0,0,0,0,0,0,0,0,0,0,,,,,0.0,,,,,,
1496729,1745076769989,,,,,,,,,,,,,,,,,,,,,,,,,,,,,,,,,,0,0,0,0,0,0,0,0,0,0,0,0,0,0,0,0,,,,,,,,,,,
1496749,1745076769999,0.0,175.84,,0.09,-0.03,1.01,-1,0,-1,1.02,1.06,96,3879,17.7,4.61,,13.84,0.865,84.4,,35.6,5,,,,,,,,,,,,0,0,0,0,0,0,0,0,0,0,0,0,0,0,0,0,,,,,0.0,,,,,,
1496769,1745076770019,,,,,,,,,,,,,,,,,,,,,,,,,,,,,,,,,,0,0,0,0,0,0,0,0,0,0,0,0,0,0,0,0,,,,,,,,,,,
1496789,1745076770039,0.0,175.84,,0.09,-0.06,1.0,-1,0,-1,1.01,1.06,95,3848,0.0,2.51,,13.12,0.877,84.4,,35.6,5,20,0,19,20,0.0,57.0,0.0,0.0,2.26,,,0,0,0,0,0,0,0,0,0,0,0,0,0,0,0,0,0,,,,0.0,39.239033,-77.965607,30.18,29,3,0.8
1496809,1745076770059,,,,,,,,,,,,,,,,,,,,,,,,,,,,,,,,,,0,0,0,0,0,0,0,0,0,0,0,0,0,0,0,0,,,,,,,,,,,
1496829,1745076770079,0.0,175.84,,0.08,-0.08,0.99,-1,-0,-1,0.99,1.06,94,3700,31.1,5.36,,13.77,0.916,84.4,,35.6,5,,,,,,,,,,,,0,0,0,0,0,0,0,0,0,0,0,0,0,0,0,0,,,,,0.0,,,,,,
1496849,1745076770103,,,,,,,,,,,,,,,,,,,,,,,,,,,,,,,,,,0,0,0,0,0,0,0,0,0,0,0,0,0,0,0,0,,,,,,,,,,,
1496869,1745076770123,0.0,175.84,,0.03,-0.12,0.97,-0,0,-1,0.98,1.06,92,3968,78.0,5.04,,13.77,0.916,84.4,,33.8,5,,,,,,,,,,,,0,0,0,0,0,0,0,0,0,0,0,0,0,0,0,0,,,,,0.0,,,,,,
1496889,1745076770143,,,,,,,,,,,,,,,,,,,,,,,19,0,19,19,0.0,35.0,0.0,0.0,2.26,,,0,0,0,0,0,0,0,0,0,0,0,0,0,0,0,0,4,,,,,39.239025,-77.965614,30.95,29,3,0.8
1496909,1745076770163,0.0,175.84,,0.06,-0.05,1.08,-1,0,-0,1.08,1.08,100,3968,78.0,5.04,,14.32,0.92,84.4,,33.8,5,,,,,,,,,,,,0,0,0,0,0,0,0,0,0,0,0,0,0,0,0,0,,,,,0.0,,,,,,
1496929,1745076770183,,,,,,,,,,,,,,,,,,,,,,,,,,,,,,,,,,0,0,0,0,0,0,0,0,0,0,0,0,0,0,0,0,,,,,,,,,,,
1496949,1745076770205,0.0,175.84,,0.11,-0.07,1.08,-0,1,-0,1.08,1.08,100,4395,85.3,5.35,,14.34,1.01,84.4,,39.4,5,,,,,,,,,,,,0,0,0,0,0,0,0,0,0,0,0,0,0,0,0,0,,,,,0.0,,,,,,
1496969,1745076770225,,,,,,,,,,,,,,,,,,,,,,,,,,,,,,,,,,0,0,0,0,0,0,0,0,0,0,0,0,0,0,0,0,,,,,,,,,,,
1496989,1745076770245,0.0,175.84,,0.09,-0.03,1.07,-1,-0,-0,1.07,1.08,99,3728,31.4,4.72,,14.06,1.07,84.4,,39.4,5,20,0,20,21,0.0,77.0,0.0,0.0,2.26,,,0,0,0,0,0,0,0,0,0,0,0,0,0,0,0,0,4,,,,0.0,39.239017,-77.965622,30.98,29,3,0.8
1497009,1745076770265,,,,,,,,,,,,,,,,,,,,,,,,,,,,,,,,,,0,0,0,0,0,0,0,0,0,0,0,0,0,0,0,0,,,,,,,,,,,
1497029,1745076770285,0.0,175.84,,0.06,-0.07,1.05,-1,-1,-1,1.05,1.08,97,4091,0.0,2.56,,12.92,0.96,84.4,,39.4,5,,,,,,,,,,,,0,0,0,0,0,0,0,0,0,0,0,0,0,0,0,0,,,,,0.0,,,,,,
1497049,1745076770307,,,,,,,,,,,,,,,,,,,,,,,,,,,,,,,,,,0,0,0,0,0,0,0,0,0,0,0,0,0,0,0,0,,,,,,,,,,,
1497069,1745076770327,0.0,175.84,,0.06,-0.09,0.99,0,-0,-1,0.99,1.08,92,4018,15.9,4.38,,12.92,0.96,84.4,,36.4,5,,,,,,,,,,,,0,0,0,0,0,0,0,0,0,0,0,0,0,0,0,0,,,,,0.0,,,,,,
1497089,1745076770347,,,,,,,,,,,,,,,,,,,,,,,21,0,20,21,0.0,23.0,0.0,0.0,2.25,,,0,0,0,0,0,0,0,0,0,0,0,0,0,0,0,0,3,,,,,39.23901,-77.96563,31.85,29,3,0.8
1497109,1745076770367,0.0,175.84,,0.04,-0.01,1.02,-0,-0,-0,1.02,1.08,94,4018,15.9,4.38,,13.08,0.883,84.4,,36.4,5,,,,,,,,,,,,0,0,0,0,0,0,0,0,0,0,0,0,0,0,0,0,,,,,0.0,,,,,,
1497129,1745076770387,,,,,,,,,,,,,,,,,,,,,,,,,,,,,,,,,,0,0,0,0,0,0,0,0,0,0,0,0,0,0,0,0,,,,,,,,,,,
1497149,1745076770407,0.0,175.84,,0.03,-0.07,0.92,0,-0,-0,0.93,1.08,86,3982,81.6,5.49,,14.32,0.899,84.4,,37.5,5,,,,,,,,,,,,0,0,0,0,0,0,0,0,0,0,0,0,0,0,0,0,,,,,0.0,,,,,,
1497169,1745076770427,,,,,,,,,,,,,,,,,,,,,,,,,,,,,,,,,,0,0,0,0,0,0,0,0,0,0,0,0,0,0,0,0,,,,,,,,,,,
1497189,1745076770447,0.0,175.72,,0.05,-0.11,0.93,0,-0,-0,0.94,0.94,100,4397,99.4,5.52,,14.31,0.99,84.4,,37.5,5,21,0,21,21,0.0,246.0,0.0,0.0,2.26,,,0,0,0,0,0,0,0,0,0,0,0,0,0,0,0,0,3,,,,0.0,39.239006,-77.96563,32.11,29,3,0.8
1497209,1745076770467,,,,,,,,,,,,,,,,,,,,,,,,,,,,,,,,,,0,0,0,0,0,0,0,0,0,0,0,0,0,0,0,0,,,,,,,,,,,
1497229,1745076770487,0.0,175.72,,0.04,-0.04,0.96,1,-0,-0,0.96,0.96,100,4163,98.3,4.63,,14.23,1.12,84.4,,37.5,5,,,,,,,,,,,,0,0,0,0,0,0,0,0,0,0,0,0,0,0,0,0,,,,,0.0,,,,,,
1497249,1745076770507,,,,,,,,,,,,,,,,,,,,,,,,,,,,,,,,,,0,0,0,0,0,0,0,0,0,0,0,0,0,0,0,0,,,,,,,,,,,
1497269,1745076770527,0.0,175.72,,0.01,-0.09,0.89,0,-1,0,0.9,0.96,94,4316,19.4,4.09,,14.23,1.12,84.4,,37.8,5,,,,,,,,,,,,0,0,0,0,0,0,0,0,0,0,0,0,0,0,0,0,,,,,0.0,,,,,,
1497289,1745076770547,,,,,,,,,,,,,,,,,,,,,,,21,0,21,22,0.0,6.0,0.0,0.0,2.26,,,0,0,0,0,0,0,0,0,0,0,0,0,0,0,0,0,3,,,,,39.238995,-77.965637,32.12,29,3,0.8
1497309,1745076770567,0.0,175.72,,0.01,-0.03,0.96,-0,-1,0,0.96,0.96,100,4316,19.4,4.09,,13.86,1.019,84.4,,37.8,5,,,,,,,,,,,,0,0,0,0,0,0,0,0,0,0,0,0,0,0,0,0,,,,,0.0,,,,,,
1497329,1745076770587,,,,,,,,,,,,,,,,,,,,,,,,,,,,,,,,,,0,0,0,0,0,0,0,0,0,0,0,0,0,0,0,0,,,,,,,,,,,
1497349,1745076770609,0.0,175.72,,-0.0,-0.11,0.88,1,-0,0,0.89,0.96,93,4096,6.3,3.67,,13.16,0.928,84.4,,37.6,5,,,,,,,,,,,,0,0,0,0,0,0,0,0,0,0,0,0,0,0,0,0,,,,,0.0,,,,,,
1497369,1745076770629,,,,,,,,,,,,,,,,,,,,,,,,,,,,,,,,,,0,0,0,0,0,0,0,0,0,0,0,0,0,0,0,0,,,,,,,,,,,
1497389,1745076770649,0.0,175.84,13.71,-0.0,-0.01,0.99,-0,0,1,0.99,0.99,100,4133,19.4,4.13,15,13.33,0.935,84.4,155,37.6,5,21,0,21,20,0.0,241.0,0.0,0.0,2.26,0,0.0,0,0,0,0,0,0,0,0,0,0,0,0,0,0,0,0,3,0.0,0,0,0.0,39.238991,-77.965645,32.97,29,3,0.8
1497409,1745076770669,,,,,,,,,,,,,,,,,,,,,,,,,,,,,,,,,,0,0,0,0,0,0,0,0,0,0,0,0,0,0,0,0,,,,,,,,,,,
1497429,1745076770689,0.0,175.84,,0.0,0.05,1.01,0,0,1,1.01,1.01,100,4397,38.4,4.66,,14.04,0.992,84.4,,37.6,5,,,,,,,,,,,,0,0,0,0,0,0,0,0,0,0,0,0,0,0,0,0,,,,,0.0,,,,,,
1497449,1745076770708,,,,,,,,,,,,,,,,,,,,,,,,,,,,,,,,,,0,0,0,0,0,0,0,0,0,0,0,0,0,0,0,0,,,,,,,,,,,
1497469,1745076770728,0.0,175.84,,0.09,0.01,0.92,1,1,0,0.93,1.01,92,4477,49.4,5.51,,14.04,0.992,84.4,,39.6,5,,,,,,,,,,,,0,0,0,0,0,0,0,0,0,0,0,0,0,0,0,0,,,,,0.0,,,,,,
1497489,1745076770748,,,,,,,,,,,,,,,,,,,,,,,21,0,22,22,0.0,26.0,0.0,0.0,2.25,,,0,0,0,0,0,0,0,0,0,0,0,0,0,0,0,0,0,,,,,39.238983,-77.965652,33.2,29,3,0.8
1497509,1745076770768,0.0,175.84,,0.11,-0.06,0.86,1,1,0,0.87,1.01,86,4477,49.4,5.51,,14.19,1.048,84.4,,39.6,5,,,,,,,,,,,,0,0,0,0,0,0,0,0,0,0,0,0,0,0,0,0,,,,,0.0,,,,,,
1497529,1745076770788,,,,,,,,,,,,,,,,,,,,,,,,,,,,,,,,,,0,0,0,0,0,0,0,0,0,0,0,0,0,0,0,0,,,,,,,,,,,
1497549,1745076770808,0.0,175.84,,0.09,-0.12,0.83,1,0,0,0.84,1.01,84,4339,50.3,5.5,,14.19,1.034,84.4,,40.2,5,,,,,,,,,,,,0,0,0,0,0,0,0,0,0,0,0,0,0,0,0,0,,,,,0.0,,,,,,
1497569,1745076770828,,,,,,,,,,,,,,,,,,,,,,,,,,,,,,,,,,0,0,0,0,0,0,0,0,0,0,0,0,0,0,0,0,,,,,,,,,,,
1497589,1745076770848,0.0,175.84,,0.06,-0.14,0.85,0,0,-0,0.87,1.01,86,4416,50.6,5.17,,14.22,0.976,84.4,,40.2,5,21,0,22,22,0.0,19.0,0.0,0.0,2.26,,,0,0,0,0,0,0,0,0,0,0,0,0,0,0,0,0,0,,,,0.0,39.238976,-77.965652,33.4,29,3,0.8
1497609,1745076770868,,,,,,,,,,,,,,,,,,,,,,,,,,,,,,,,,,0,0,0,0,0,0,0,0,0,0,0,0,0,0,0,0,,,,,,,,,,,
1497629,1745076770888,0.0,175.72,,0.04,-0.16,0.84,-0,0,0,0.86,1.01,85,4496,50.5,5.16,,14.18,0.842,84.4,,40.2,5,,,,,,,,,,,,0,0,0,0,0,0,0,0,0,0,0,0,0,0,0,0,,,,,0.0,,,,,,
1497649,1745076770908,,,,,,,,,,,,,,,,,,,,,,,,,,,,,,,,,,0,0,0,0,0,0,0,0,0,0,0,0,0,0,0,0,,,,,,,,,,,
1497669,1745076770928,0.0,175.72,,-0.0,-0.16,0.86,-1,-0,1,0.87,1.01,87,4491,49.8,5.18,,14.18,0.842,84.4,,40.7,5,,,,,,,,,,,,0,0,0,0,0,0,0,0,0,0,0,0,0,0,0,0,,,,,0.0,,,,,,
1497689,1745076770948,,,,,,,,,,,,,,,,,,,,,,,22,0,22,22,0.0,9.0,0.0,0.0,2.25,,,0,0,0,0,0,0,0,0,0,0,0,0,0,0,0,0,3,,,,,39.238972,-77.96566,34.39,29,3,0.8
1497709,1745076770968,0.0,175.84,,-0.02,-0.18,0.84,-1,0,0,0.86,1.01,85,4491,49.8,5.18,,14.26,0.777,84.4,,40.7,5,,,,,,,,,,,,0,0,0,0,0,0,0,0,0,0,0,0,0,0,0,0,,,,,0.0,,,,,,
1497729,1745076770988,,,,,,,,,,,,,,,,,,,,,,,,,,,,,,,,,,0,0,0,0,0,0,0,0,0,0,0,0,0,0,0,0,,,,,,,,,,,
1497749,1745076771000,0.0,175.84,,-0.04,-0.22,0.79,-0,0,0,0.82,1.01,81,4577,49.4,5.19,,14.14,0.762,84.4,,41.9,5,,,,,,,,,,,,0,0,0,0,0,0,0,0,0,0,0,0,0,0,0,0,,,,,0.0,,,,,,
1497769,1745076771020,,,,,,,,,,,,,,,,,,,,,,,,,,,,,,,,,,0,0,0,0,0,0,0,0,0,0,0,0,0,0,0,0,,,,,,,,,,,
1497789,1745076771040,0.0,175.84,,-0.05,-0.24,0.71,0,0,-0,0.75,1.01,75,4577,35.8,4.28,,14.1,0.756,84.4,,41.9,5,23,0,23,23,0.0,251.0,0.0,0.0,2.25,,,0,0,0,0,0,0,0,0,0,0,0,0,0,0,0,0,3,,,,0.0,39.23896,-77.965668,35.23,29,3,0.8
1497809,1745076771060,,,,,,,,,,,,,,,,,,,,,,,,,,,,,,,,,,0,0,0,0,0,0,0,0,0,0,0,0,0,0,0,0,,,,,,,,,,,
1497829,1745076771080,0.0,175.84,,0.02,-0.2,0.78,1,0,-0,0.8,1.01,80,4734,23.4,4.49,,13.86,0.747,84.4,,41.9,5,,,,,,,,,,,,0,0,0,0,0,0,0,0,0,0,0,0,0,0,0,0,,,,,0.0,,,,,,
1497849,1745076771106,,,,,,,,,,,,,,,,,,,,,,,,,,,,,,,,,,0,0,0,0,0,0,0,0,0,0,0,0,0,0,0,0,,,,,,,,,,,
1497869,1745076771126,0.0,175.97,,0.04,-0.07,0.91,2,-0,0,0.91,1.01,90,4498,11.1,3.82,,13.86,0.747,84.4,,42.8,5,,,,,,,,,,,,0,0,0,0,0,0,0,0,0,0,0,0,0,0,0,0,,,,,0.0,,,,,,
1497889,1745076771146,,,,,,,,,,,,,,,,,,,,,,,24,0,23,24,0.0,242.0,0.0,0.0,2.26,,,0,0,0,0,0,0,0,0,0,0,0,0,0,0,0,0,3,,,,,39.238953,-77.965668,35.93,29,3,0.8
1497909,1745076771166,0.0,176.09,,0.01,0.08,1.03,2,-0,1,1.03,1.03,100,4498,11.1,3.82,,13.39,0.744,84.4,,42.8,5,,,,,,,,,,,,0,0,0,0,0,0,0,0,0,0,0,0,0,0,0,0,,,,,0.0,,,,,,
1497929,1745076771186,,,,,,,,,,,,,,,,,,,,,,,,,,,,,,,,,,0,0,0,0,0,0,0,0,0,0,0,0,0,0,0,0,,,,,,,,,,,
1497949,1745076771208,0.0,176.34,,-0.01,0.1,1.05,2,-1,1,1.06,1.06,100,4639,8.8,3.6,,13.07,0.75,84.4,,43.1,5,,,,,,,,,,,,0,0,0,0,0,0,0,0,0,0,0,0,0,0,0,0,,,,,0.0,,,,,,
1497969,1745076771228,,,,,,,,,,,,,,,,,,,,,,,,,,,,,,,,,,0,0,0,0,0,0,0,0,0,0,0,0,0,0,0,0,,,,,,,,,,,
1497989,1745076771248,0.0,176.47,,0.0,0.03,0.95,3,-1,1,0.95,1.06,90,4664,8.5,3.56,,12.96,0.76,84.4,,43.1,5,23,0,23,23,0.0,254.0,0.0,0.0,2.25,,,0,0,0,0,0,0,0,0,0,0,0,0,0,0,0,0,3,,,,0.0,39.238949,-77.965675,36.72,29,3,0.8
1498009,1745076771268,,,,,,,,,,,,,,,,,,,,,,,,,,,,,,,,,,0,0,0,0,0,0,0,0,0,0,0,0,0,0,0,0,,,,,,,,,,,
1498029,1745076771288,0.0,176.6,,0.03,-0.0,0.87,5,-1,1,0.87,1.06,82,4681,8.4,3.57,,12.89,0.761,84.4,,43.1,5,,,,,,,,,,,,0,0,0,0,0,0,0,0,0,0,0,0,0,0,0,0,,,,,0.0,,,,,,
1498049,1745076771306,,,,,,,,,,,,,,,,,,,,,,,,,,,,,,,,,,0,0,0,0,0,0,0,0,0,0,0,0,0,0,0,0,,,,,,,,,,,
1498069,1745076771326,0.0,176.72,,0.04,0.06,0.91,7,-1,0,0.91,1.06,86,4646,8.6,3.55,,12.89,0.761,84.4,,42.9,5,,,,,,,,,,,,0,0,0,0,0,0,0,0,0,0,0,0,0,0,0,0,,,,,0.0,,,,,,
1498089,1745076771346,,,,,,,,,,,,,,,,,,,,,,,24,0,23,24,0.0,248.0,0.0,0.0,2.26,,,0,0,0,0,0,0,0,0,0,0,0,0,0,0,0,0,3,,,,,39.238937,-77.965683,36.73,29,3,0.8
1498109,1745076771366,0.0,176.72,,0.01,0.16,1.0,7,-1,1,1.01,1.06,96,4646,8.6,3.55,,12.87,0.774,84.4,,42.9,5,,,,,,,,,,,,0,0,0,0,0,0,0,0,0,0,0,0,0,0,0,0,,,,,0.0,,,,,,
1498129,1745076771386,,,,,,,,,,,,,,,,,,,,,,,,,,,,,,,,,,0,0,0,0,0,0,0,0,0,0,0,0,0,0,0,0,,,,,,,,,,,
1498149,1745076771406,0.0,176.72,,-0.0,0.11,0.96,8,-0,0,0.96,1.06,91,4669,11.1,3.66,,13.01,0.777,84.4,,43.2,5,,,,,,,,,,,,0,0,0,0,0,0,0,0,0,0,0,0,0,0,0,0,,,,,0.0,,,,,,
1498169,1745076771426,,,,,,,,,,,,,,,,,,,,,,,,,,,,,,,,,,0,0,0,0,0,0,0,0,0,0,0,0,0,0,0,0,,,,,,,,,,,
1498189,1745076771446,0.0,176.72,,0.04,0.11,0.91,9,-1,1,0.92,1.06,87,4704,13.8,3.85,,13.16,0.78,84.4,,43.2,5,24,0,24,23,0.0,237.0,0.0,0.0,2.26,,,0,0,0,0,0,0,0,0,0,0,0,0,0,0,0,0,3,,,,0.0,39.238934,-77.965691,36.84,29,3,0.8
1498209,1745076771466,,,,,,,,,,,,,,,,,,,,,,,,,,,,,,,,,,0,0,0,0,0,0,0,0,0,0,0,0,0,0,0,0,,,,,,,,,,,
1498229,1745076771486,0.0,176.72,,0.04,0.18,0.96,11,-1,0,0.98,0.98,100,4645,16.4,3.98,,13.39,0.784,84.4,,43.2,5,,,,,,,,,,,,0,0,0,0,0,0,0,0,0,0,0,0,0,0,0,0,,,,,0.0,,,,,,
1498249,1745076771508,,,,,,,,,,,,,,,,,,,,,,,,,,,,,,,,,,0,0,0,0,0,0,0,0,0,0,0,0,0,0,0,0,,,,,,,,,,,
1498269,1745076771528,0.0,176.72,,0.02,0.23,1.04,10,-1,0,1.06,1.06,100,4709,27.2,4.42,,13.39,0.784,84.4,,43.6,5,,,,,,,,,,,,0,0,0,0,0,0,0,0,0,0,0,0,0,0,0,0,,,,,0.0,,,,,,
1498289,1745076771548,,,,,,,,,,,,,,,,,,,,,,,24,0,24,23,0.0,32.0,0.0,0.0,2.26,,,0,0,0,0,0,0,0,0,0,0,0,0,0,0,0,0,3,,,,,39.238922,-77.965698,36.97,29,3,0.8
1498309,1745076771568,0.0,176.85,,0.03,0.19,0.94,11,-1,0,0.96,1.06,91,4709,27.2,4.42,,13.75,0.79,84.4,,43.6,5,,,,,,,,,,,,0,0,0,0,0,0,0,0,0,0,0,0,0,0,0,0,,,,,0.0,,,,,,
1498329,1745076771588,,,,,,,,,,,,,,,,,,,,,,,,,,,,,,,,,,0,0,0,0,0,0,0,0,0,0,0,0,0,0,0,0,,,,,,,,,,,
1498349,1745076771606,0.0,176.85,,0.09,0.21,1.03,12,-1,-0,1.05,1.06,99,4746,32.0,5.0,,13.98,0.828,84.4,,44.0,5,,,,,,,,,,,,0,0,0,0,0,0,0,0,0,0,0,0,0,0,0,0,,,,,0.0,,,,,,
1498369,1745076771626,,,,,,,,,,,,,,,,,,,,,,,,,,,,,,,,,,0,0,0,0,0,0,0,0,0,0,0,0,0,0,0,0,,,,,,,,,,,
1498389,1745076771646,0.0,176.97,13.76,0.08,0.19,1.04,11,-1,0,1.06,1.06,100,4732,32.7,4.85,15,14.0,0.86,84.4,155,44.0,5,23,0,24,23,0.0,254.0,0.0,0.0,2.26,0,0.0,0,0,0,0,0,0,0,0,0,0,0,0,0,0,0,0,3,0.0,0,0,0.0,39.238914,-77.965706,37.03,29,3,0.8
1498409,1745076771666,,,,,,,,,,,,,,,,,,,,,,,,,,,,,,,,,,0,0,0,0,0,0,0,0,0,0,0,0,0,0,0,0,,,,,,,,,,,
1498429,1745076771686,0.0,176.97,,0.15,0.21,1.08,12,-1,0,1.11,1.11,100,4969,33.0,4.9,,14.0,0.88,84.4,,44.0,5,,,,,,,,,,,,0,0,0,0,0,0,0,0,0,0,0,0,0,0,0,0,,,,,0.0,,,,,,
1498449,1745076771707,,,,,,,,,,,,,,,,,,,,,,,,,,,,,,,,,,0,0,0,0,0,0,0,0,0,0,0,0,0,0,0,0,,,,,,,,,,,
1498469,1745076771727,0.0,176.97,,0.12,0.21,1.05,12,-1,0,1.07,1.11,97,4815,33.8,4.83,,14.0,0.88,84.4,,45.0,5,,,,,,,,,,,,0,0,0,0,0,0,0,0,0,0,0,0,0,0,0,0,,,,,0.0,,,,,,
1498489,1745076771747,,,,,,,,,,,,,,,,,,,,,,,24,0,25,23,0.0,11.0,0.0,0.0,2.25,,,0,0,0,0,0,0,0,0,0,0,0,0,0,0,0,0,0,,,,,39.238907,-77.965714,37.37,29,3,0.8
1498509,1745076771767,0.0,177.1,,0.15,0.24,0.98,13,-1,-0,1.02,1.11,92,4815,33.8,4.83,,13.98,0.836,84.4,,45.0,5,,,,,,,,,,,,0,0,0,0,0,0,0,0,0,0,0,0,0,0,0,0,,,,,0.0,,,,,,
1498529,1745076771787,,,,,,,,,,,,,,,,,,,,,,,,,,,,,,,,,,0,0,0,0,0,0,0,0,0,0,0,0,0,0,0,0,,,,,,,,,,,
1498549,1745076771805,0.0,177.1,,0.15,0.22,1.0,13,-1,0,1.04,1.11,93,4963,34.4,4.8,,13.91,0.789,84.4,,46.0,5,,,,,,,,,,,,0,0,0,0,0,0,0,0,0,0,0,0,0,0,0,0,,,,,0.0,,,,,,
1498569,1745076771825,,,,,,,,,,,,,,,,,,,,,,,,,,,,,,,,,,0,0,0,0,0,0,0,0,0,0,0,0,0,0,0,0,,,,,,,,,,,
1498589,1745076771845,0.0,177.1,,0.14,0.21,1.02,13,-1,-0,1.05,1.11,94,5048,34.0,4.87,,13.95,0.764,84.4,,46.0,5,25,0,25,25,0.0,33.0,0.0,0.0,2.26,,,0,0,0,0,0,0,0,0,0,0,0,0,0,0,0,0,0,,,,0.0,39.238899,-77.965714,38.26,29,3,0.8
1498609,1745076771865,,,,,,,,,,,,,,,,,,,,,,,,,,,,,,,,,,0,0,0,0,0,0,0,0,0,0,0,0,0,0,0,0,,,,,,,,,,,
1498629,1745076771885,0.0,177.22,,0.15,0.22,0.99,14,-1,-0,1.02,1.11,92,4953,34.4,4.81,,13.94,0.76,84.4,,46.0,5,,,,,,,,,,,,0,0,0,0,0,0,0,0,0,0,0,0,0,0,0,0,,,,,0.0,,,,,,
1498649,1745076771905,,,,,,,,,,,,,,,,,,,,,,,,,,,,,,,,,,0,0,0,0,0,0,0,0,0,0,0,0,0,0,0,0,,,,,,,,,,,
1498669,1745076771925,0.0,177.22,,0.16,0.25,0.98,15,-1,-0,1.03,1.11,93,5129,35.2,4.82,,13.94,0.76,84.4,,47.0,5,,,,,,,,,,,,0,0,0,0,0,0,0,0,0,0,0,0,0,0,0,0,,,,,0.0,,,,,,
1498689,1745076771945,,,,,,,,,,,,,,,,,,,,,,,26,0,26,25,0.0,8.0,0.0,0.0,2.26,,,0,0,0,0,0,0,0,0,0,0,0,0,0,0,0,0,3,,,,,39.238892,-77.965714,39.23,29,3,0.8
1498709,1745076771965,0.0,177.22,,0.15,0.26,1.01,16,-1,-0,1.05,1.11,95,5129,35.2,4.82,,13.94,0.758,84.4,,47.0,5,,,,,,,,,,,,0,0,0,0,0,0,0,0,0,0,0,0,0,0,0,0,,,,,0.0,,,,,,
1498729,1745076771985,,,,,,,,,,,,,,,,,,,,,,,,,,,,,,,,,,0,0,0,0,0,0,0,0,0,0,0,0,0,0,0,0,,,,,,,,,,,
1498749,1745076771997,0.0,177.22,,0.15,0.28,0.98,16,-1,-0,1.03,1.11,93,5125,35.7,4.81,,14.08,0.752,84.4,,47.4,5,,,,,,,,,,,,0,0,0,0,0,0,0,0,0,0,0,0,0,0,0,0,,,,,0.0,,,,,,
1498769,1745076772017,,,,,,,,,,,,,,,,,,,,,,,,,,,,,,,,,,0,0,0,0,0,0,0,0,0,0,0,0,0,0,0,0,,,,,,,,,,,
1498789,1745076772037,0.0,177.22,,0.17,0.31,0.97,16,-1,-0,1.03,1.11,93,5200,36.1,4.8,,14.06,0.749,84.4,,47.4,5,27,0,26,26,0.0,15.0,0.0,0.0,2.26,,,0,0,0,0,0,0,0,0,0,0,0,0,0,0,0,0,3,,,,0.0,39.23888,-77.965721,40.13,30,3,0.8
1498809,1745076772057,,,,,,,,,,,,,,,,,,,,,,,,,,,,,,,,,,0,0,0,0,0,0,0,0,0,0,0,0,0,0,0,0,,,,,,,,,,,
1498829,1745076772077,0.0,177.22,,0.18,0.37,0.97,16,-1,-0,1.05,1.11,95,5285,36.3,4.79,,13.9,0.749,84.4,,47.4,5,,,,,,,,,,,,0,0,0,0,0,0,0,0,0,0,0,0,0,0,0,0,,,,,0.0,,,,,,
1498849,1745076772105,,,,,,,,,,,,,,,,,,,,,,,,,,,,,,,,,,0,0,0,0,0,0,0,0,0,0,0,0,0,0,0,0,,,,,,,,,,,
1498869,1745076772125,0.0,177.35,,0.16,0.43,0.99,17,-1,-0,1.09,1.11,98,5345,37.0,4.75,,13.9,0.749,84.4,,48.7,5,,,,,,,,,,,,0,0,0,0,0,0,0,0,0,0,0,0,0,0,0,0,,,,,0.0,,,,,,
1498889,1745076772145,,,,,,,,,,,,,,,,,,,,,,,26,0,27,26,0.0,15.0,0.0,0.0,2.26,,,0,0,0,0,0,0,0,0,0,0,0,0,0,0,0,0,3,,,,,39.238873,-77.965729,40.62,30,3,0.8
1498909,1745076772165,0.0,177.35,,0.2,0.46,0.96,17,-1,-0,1.08,1.11,97,5345,37.0,4.75,,13.99,0.751,84.4,,48.7,5,,,,,,,,,,,,0,0,0,0,0,0,0,0,0,0,0,0,0,0,0,0,,,,,0.0,,,,,,
1498929,1745076772185,,,,,,,,,,,,,,,,,,,,,,,,,,,,,,,,,,0,0,0,0,0,0,0,0,0,0,0,0,0,0,0,0,,,,,,,,,,,
1498949,1745076772203,0.0,177.35,,0.22,0.45,0.97,16,-1,-0,1.1,1.11,99,5383,37.5,4.71,,14.02,0.761,84.4,,50.5,5,,,,,,,,,,,,0,0,0,0,0,0,0,0,0,0,0,0,0,0,0,0,,,,,0.0,,,,,,
1498969,1745076772223,,,,,,,,,,,,,,,,,,,,,,,,,,,,,,,,,,0,0,0,0,0,0,0,0,0,0,0,0,0,0,0,0,,,,,,,,,,,
1498989,1745076772243,0.0,177.35,,0.2,0.39,0.94,17,-1,-0,1.04,1.11,93,5493,37.8,4.74,,13.9,0.773,84.4,,50.5,5,27,0,27,28,0.0,20.0,0.0,0.0,2.26,,,0,0,0,0,0,0,0,0,0,0,0,0,0,0,0,0,3,,,,0.0,39.238861,-77.965729,41.54,30,3,0.8
1499009,1745076772263,,,,,,,,,,,,,,,,,,,,,,,,,,,,,,,,,,0,0,0,0,0,0,0,0,0,0,0,0,0,0,0,0,,,,,,,,,,,
1499029,1745076772283,0.0,177.35,,0.22,0.48,1.0,17,-0,-0,1.13,1.13,100,5535,38.3,4.68,,13.86,0.786,84.4,,50.5,5,,,,,,,,,,,,0,0,0,0,0,0,0,0,0,0,0,0,0,0,0,0,,,,,0.0,,,,,,
1499049,1745076772308,,,,,,,,,,,,,,,,,,,,,,,,,,,,,,,,,,0,0,0,0,0,0,0,0,0,0,0,0,0,0,0,0,,,,,,,,,,,
1499069,1745076772328,0.0,177.35,,0.21,0.25,0.91,18,-1,-1,0.96,1.13,86,5686,38.8,4.69,,13.86,0.786,84.4,,51.4,5,,,,,,,,,,,,0,0,0,0,0,0,0,0,0,0,0,0,0,0,0,0,,,,,0.0,,,,,,
1499089,1745076772348,,,,,,,,,,,,,,,,,,,,,,,28,0,28,29,0.0,29.0,0.0,0.0,2.25,,,0,0,0,0,0,0,0,0,0,0,0,0,0,0,0,0,3,,,,,39.238853,-77.965736,42.89,30,3,0.8
1499109,1745076772368,0.0,177.35,,0.26,0.38,1.01,16,-0,0,1.11,1.13,99,5686,38.8,4.69,,13.86,0.798,84.4,,51.4,5,,,,,,,,,,,,0,0,0,0,0,0,0,0,0,0,0,0,0,0,0,0,,,,,0.0,,,,,,
1499129,1745076772388,,,,,,,,,,,,,,,,,,,,,,,,,,,,,,,,,,0,0,0,0,0,0,0,0,0,0,0,0,0,0,0,0,,,,,,,,,,,
1499149,1745076772407,0.0,177.35,,0.25,0.36,0.98,17,-1,-0,1.07,1.07,100,5711,39.4,4.65,,13.86,0.809,84.4,,53.1,5,,,,,,,,,,,,0,0,0,0,0,0,0,0,0,0,0,0,0,0,0,0,,,,,0.0,,,,,,
1499169,1745076772427,,,,,,,,,,,,,,,,,,,,,,,,,,,,,,,,,,0,0,0,0,0,0,0,0,0,0,0,0,0,0,0,0,,,,,,,,,,,
1499189,1745076772447,0.0,177.22,,0.25,0.12,0.91,17,-1,-1,0.95,1.07,88,5790,40.6,4.6,,13.79,0.836,84.4,,53.1,5,28,0,29,29,0.0,57.0,0.0,0.0,2.26,,,0,0,0,0,0,0,0,0,0,0,0,0,0,0,0,0,3,,,,0.0,39.238838,-77.965744,44.1,30,3,0.8
1499209,1745076772467,,,,,,,,,,,,,,,,,,,,,,,,,,,,,,,,,,0,0,0,0,0,0,0,0,0,0,0,0,0,0,0,0,,,,,,,,,,,
1499229,1745076772487,0.0,177.22,,0.27,-0.04,0.93,16,-1,-0,0.97,1.07,91,5963,40.1,4.64,,13.82,0.851,84.4,,53.1,5,,,,,,,,,,,,0,0,0,0,0,0,0,0,0,0,0,0,0,0,0,0,,,,,0.0,,,,,,
1499249,1745076772505,,,,,,,,,,,,,,,,,,,,,,,,,,,,,,,,,,0,0,0,0,0,0,0,0,0,0,0,0,0,0,0,0,,,,,,,,,,,
1499269,1745076772525,0.0,177.1,,0.28,-0.07,0.97,13,-1,1,1.02,1.07,95,5965,40.0,4.65,,13.82,0.851,84.4,,55.0,5,,,,,,,,,,,,0,0,0,0,0,0,0,0,0,0,0,0,0,0,0,0,,,,,0.0,,,,,,
1499289,1745076772545,,,,,,,,,,,,,,,,,,,,,,,30,0,29,30,0.0,93.0,0.0,0.0,2.26,,,0,0,0,0,0,0,0,0,0,0,0,0,0,0,0,0,3,,,,,39.238831,-77.965744,45.22,30,3,0.8
1499309,1745076772565,0.0,177.1,,0.29,-0.06,1.04,11,-1,1,1.08,1.08,100,5965,40.0,4.65,,13.64,0.871,82.6,,55.0,5,,,,,,,,,,,,0,0,0,0,0,0,0,0,0,0,0,0,0,0,0,0,,,,,0.0,,,,,,
1499329,1745076772585,,,,,,,,,,,,,,,,,,,,,,,,,,,,,,,,,,0,0,0,0,0,0,0,0,0,0,0,0,0,0,0,0,,,,,,,,,,,
1499349,1745076772607,0.0,176.85,,0.3,-0.18,1.06,8,-1,2,1.11,1.11,100,6069,39.9,4.71,,13.82,0.884,82.6,,57.2,5,,,,,,,,,,,,0,0,0,0,0,0,0,0,0,0,0,0,0,0,0,0,,,,,0.0,,,,,,
1499369,1745076772627,,,,,,,,,,,,,,,,,,,,,,,,,,,,,,,,,,0,0,0,0,0,0,0,0,0,0,0,0,0,0,0,0,,,,,,,,,,,
1499389,1745076772647,0.0,176.72,13.77,0.31,-0.39,0.99,8,-1,2,1.11,1.11,100,6118,39.8,4.75,15,13.82,0.886,82.6,155,57.2,5,31,0,30,31,0.0,252.0,0.0,0.0,2.26,0,0.0,0,0,0,0,0,0,0,0,0,0,0,0,0,0,0,0,3,0.0,0,0,0.0,39.238815,-77.965744,47.33,30,3,0.8
1499409,1745076772667,,,,,,,,,,,,,,,,,,,,,,,,,,,,,,,,,,0,0,0,0,0,0,0,0,0,0,0,0,0,0,0,0,,,,,,,,,,,
1499429,1745076772687,0.0,176.72,,0.31,-0.34,1.02,8,-0,1,1.12,1.12,100,6249,39.7,5.03,,13.65,0.902,82.6,,57.2,5,,,,,,,,,,,,0,0,0,0,0,0,0,0,0,0,0,0,0,0,0,0,,,,,0.0,,,,,,
1499449,1745076772704,,,,,,,,,,,,,,,,,,,,,,,,,,,,,,,,,,0,0,0,0,0,0,0,0,0,0,0,0,0,0,0,0,,,,,,,,,,,
1499469,1745076772724,0.0,176.6,,0.3,-0.18,1.05,5,-0,2,1.1,1.12,98,6239,32.0,5.14,,13.65,0.902,82.6,,58.5,5,,,,,,,,,,,,0,0,0,0,0,0,0,0,0,0,0,0,0,0,0,0,,,,,0.0,,,,,,
1499489,1745076772744,,,,,,,,,,,,,,,,,,,,,,,31,0,31,30,0.0,6.0,0.0,0.0,2.26,,,0,0,0,0,0,0,0,0,0,0,0,0,0,0,0,0,3,,,,,39.238808,-77.965752,47.92,30,3,0.8
1499509,1745076772764,0.0,176.47,,0.28,-0.24,1.06,2,-0,2,1.12,1.12,100,6239,32.0,5.14,,13.33,0.893,82.6,,58.5,5,,,,,,,,,,,,0,0,0,0,0,0,0,0,0,0,0,0,0,0,0,0,,,,,0.0,,,,,,
1499529,1745076772784,,,,,,,,,,,,,,,,,,,,,,,,,,,,,,,,,,0,0,0,0,0,0,0,0,0,0,0,0,0,0,0,0,,,,,,,,,,,
1499549,1745076772804,0.0,176.34,,0.25,-0.22,1.07,-0,-0,3,1.12,1.12,100,6450,26.5,4.97,,12.91,0.901,82.6,,59.7,5,,,,,,,,,,,,0,0,0,0,0,0,0,0,0,0,0,0,0,0,0,0,,,,,0.0,,,,,,
1499569,1745076772824,,,,,,,,,,,,,,,,,,,,,,,,,,,,,,,,,,0,0,0,0,0,0,0,0,0,0,0,0,0,0,0,0,,,,,,,,,,,
1499589,1745076772844,0.0,176.22,,0.24,-0.33,1.04,-3,-1,3,1.11,1.12,99,6421,22.5,4.68,,12.71,0.857,82.6,,59.7,5,30,0,32,32,0.0,41.0,0.0,0.0,2.25,,,0,0,0,0,0,0,0,0,0,0,0,0,0,0,0,0,3,,,,0.0,39.238792,-77.965752,49.48,30,3,0.8
1499609,1745076772864,,,,,,,,,,,,,,,,,,,,,,,,,,,,,,,,,,0,0,0,0,0,0,0,0,0,0,0,0,0,0,0,0,,,,,,,,,,,
1499629,1745076772884,0.0,176.09,,0.23,-0.38,1.02,-4,-0,2,1.11,1.12,99,6558,21.0,4.92,,12.35,0.828,82.6,,59.7,5,,,,,,,,,,,,0,0,0,0,0,0,0,0,0,0,0,0,0,0,0,0,,,,,0.0,,,,,,
1499649,1745076772904,,,,,,,,,,,,,,,,,,,,,,,,,,,,,,,,,,0,0,0,0,0,0,0,0,0,0,0,0,0,0,0,0,,,,,,,,,,,
1499669,1745076772924,0.0,175.97,,0.24,-0.41,1.01,-6,-0,2,1.12,1.12,100,6627,20.2,5.1,,12.35,0.828,82.6,,62.3,5,,,,,,,,,,,,0,0,0,0,0,0,0,0,0,0,0,0,0,0,0,0,,,,,0.0,,,,,,
1499689,1745076772944,,,,,,,,,,,,,,,,,,,,,,,32,0,33,33,0.0,67.0,0.0,0.0,2.25,,,0,0,0,0,0,0,0,0,0,0,0,0,0,0,0,0,3,,,,,39.238781,-77.965752,50.09,30,3,0.8
1499709,1745076772964,0.0,175.72,,0.19,-0.41,1.03,-8,-0,2,1.13,1.13,100,6627,20.2,5.1,,12.17,0.813,82.6,,62.3,5,,,,,,,,,,,,0,0,0,0,0,0,0,0,0,0,0,0,0,0,0,0,,,,,0.0,,,,,,
1499729,1745076772984,,,,,,,,,,,,,,,,,,,,,,,,,,,,,,,,,,0,0,0,0,0,0,0,0,0,0,0,0,0,0,0,0,,,,,,,,,,,
1499749,1745076772996,0.0,175.59,,0.15,-0.44,1.05,-9,-0,2,1.15,1.15,100,6566,12.4,4.54,,11.67,0.799,82.6,,62.8,5,,,,,,,,,,,,0,0,0,0,0,0,0,0,0,0,0,0,0,0,0,0,,,,,0.0,,,,,,
1499769,1745076773016,,,,,,,,,,,,,,,,,,,,,,,,,,,,,,,,,,0,0,0,0,0,0,0,0,0,0,0,0,0,0,0,0,,,,,,,,,,,
