"Interval"|"ms"|0|0|1,"Utc"|"ms"|0|0|1,"FrontBP"|"psi"|-5.0|5.0|25,"SteerAng"|"Degrees"|-145.0|145.0|25,"Battery"|"Volts"|-5.0|20.0|1,"AccelX"|"G"|-3.0|3.0|25,"AccelY"|"G"|-3.0|3.0|25,"AccelZ"|"G"|-3.0|3.0|25,"Yaw"|"Deg/Sec"|-120|120|25,"Pitch"|"Deg/Sec"|-120|120|25,"Roll"|"Deg/Sec"|-120|120|25,"Gsum"|"G"|0.0|3.0|25,"GsumMax"|"G"|0.0|3.0|25,"GsumPct"|"%"|0|100|25,"RPM"|""|0|10000|25,"TPS"|"%"|0.0|100.0|25,"InjectorPW"|"ms"|0.0|100.0|25,"Baro"|"kPa"|0|105|1,"MAP"|"Psi"|0.0|255.0|25,"Lambda"|""|-2.0|2.0|25,"IAT"|"C"|0.0|200.0|25,"EngineTemp"|"C"|0|200|1,"EOP"|"PSI"|0.0|152.0|25,"EOT"|"F"|0|250|25,"WSFR"|"MPH"|0|150|10,"WSFL"|"MPH"|0|100|10,"WSRR"|"MPH"|0|100|10,"WSRL"|""|0|100|10,"TCSet"|"%"|0.0|100.0|10,"TCSlip"|"%"|0.0|100.0|10,"TCComp"|"deg"|0.0|50.0|10,"TCCut"|"%"|0.0|100.0|10,"Analog8"|""|0.0|5.0|10,"OilTemp"|"F"|0|300|1,"AA_On"|""|0.0|1.0|1,"ThermLF1"|"C"|0|400|50,"ThermLF2"|"C"|0|400|50,"ThermRR1"|"C"|0|400|50,"ThermRR2"|"C"|0|400|50,"ThermLF3"|"C"|0|400|50,"ThermLF4"|"C"|0|400|50,"ThermLF5"|"C"|0|400|50,"ThermLF6"|"C"|0|400|50,"ThermLF7"|"C"|0|400|50,"ThermLF8"|"C"|0|400|50,"ThermRR3"|"C"|0|400|50,"ThermRR4"|"C"|0|400|50,"ThermRR5"|"C"|0|400|50,"ThermRR6"|"C"|0|400|50,"ThermRR7"|"C"|0|400|50,"ThermRR8"|"C"|0|400|50,"Gear"|""|1|6|10,"AA_On"|""|0.0|1.0|1,"AA_LowDrag"|""|0|1|1,"Fuel_Mix"|""|-10|10|1,"AA_Packages"|""|0.0|1000.0|25,"Latitude"|"Degrees"|-180.0|180.0|10,"Longitude"|"Degrees"|-180.0|180.0|10,"Speed"|"kph"|0.0|150.0|10,"GPSSats"|""|0|20|10,"GPSQual"|""|0|5|10,"GPSDOP"|""|0.0|20.0|10
2186109,1745077459385,0.0,183.89,,-0.0,-0.04,1.08,0,-0,0,1.08,1.08,100,4948,0.0,2.44,,12.89,1.248,86.2,,58.6,5,,,,,,,,,,,,0,0,0,0,0,0,0,0,0,0,0,0,0,0,0,0,,,,,0.0,,,,,,
2186129,1745077459406,,,,,,,,,,,,,,,,,,,,,,,,,,,,,,,,,,0,0,0,0,0,0,0,0,0,0,0,0,0,0,0,0,,,,,,,,,,,
2186149,1745077459426,0.0,183.89,,-0.04,0.01,1.11,-0,-0,0,1.11,1.11,100,4948,0.0,2.44,,11.75,1.233,86.2,,58.6,5,,,,,,,,,,,,0,0,0,0,0,0,0,0,0,0,0,0,0,0,0,0,,,,,0.0,,,,,,
2186169,1745077459446,,,,,,,,,,,,,,,,,,,,,,,,,,,,,,,,,,0,0,0,0,0,0,0,0,0,0,0,0,0,0,0,0,,,,,,,,,,,
2186189,1745077459466,0.0,183.89,,-0.05,-0.07,1.03,0,-0,0,1.04,1.11,94,4837,0.0,2.39,,11.13,1.135,86.2,,58.9,5,0,0,0,0,0.0,0.0,0.0,0.0,2.26,,,0,0,0,0,0,0,0,0,0,0,0,0,0,0,0,0,0,,,,0.0,39.239586,-77.9646,0.15,29,2,0.8
2186209,1745077459486,,,,,,,,,,,,,,,,,,,,,,,,,,,,,,,,,,0,0,0,0,0,0,0,0,0,0,0,0,0,0,0,0,,,,,,,,,,,
2186229,1745077459506,0.0,184.01,,-0.01,-0.13,0.96,1,-0,-0,0.97,1.11,87,4673,5.1,2.17,,11.1,1.096,86.2,,58.9,5,,,,,,,,,,,,0,0,0,0,0,0,0,0,0,0,0,0,0,0,0,0,,,,,0.0,,,,,,
2186249,1745077459526,,,,,,,,,,,,,,,,,,,,,,,,,,,,,,,,,,0,0,0,0,0,0,0,0,0,0,0,0,0,0,0,0,,,,,,,,,,,
2186269,1745077459546,0.0,184.01,,0.01,-0.14,1.0,1,-0,-0,1.01,1.11,91,4594,28.6,4.76,,12.96,1.165,86.2,,58.9,5,,,,,,,,,,,,0,0,0,0,0,0,0,0,0,0,0,0,0,0,0,0,,,,,0.0,,,,,,
2186289,1745077459566,,,,,,,,,,,,,,,,,,,,,,,0,0,0,0,0.0,0.0,0.0,0.0,2.26,,,0,0,0,0,0,0,0,0,0,0,0,0,0,0,0,0,0,,,,,39.239586,-77.9646,0.15,29,2,0.8
2186309,1745077459586,0.0,184.01,,-0.01,-0.15,0.98,1,-0,-0,1.0,1.11,90,5019,32.9,5.29,,12.96,1.165,86.2,,58.1,5,,,,,,,,,,,,0,0,0,0,0,0,0,0,0,0,0,0,0,0,0,0,,,,,0.0,,,,,,
2186329,1745077459604,,,,,,,,,,,,,,,,,,,,,,,,,,,,,,,,,,0,0,0,0,0,0,0,0,0,0,0,0,0,0,0,0,,,,,,,,,,,
2186349,1745077459624,0.0,184.01,,-0.02,-0.08,1.04,1,-0,-0,1.04,1.11,94,5019,32.9,5.29,,13.59,1.118,86.2,,58.1,5,,,,,,,,,,,,0,0,0,0,0,0,0,0,0,0,0,0,0,0,0,0,,,,,0.0,,,,,,
2186369,1745077459644,,,,,,,,,,,,,,,,,,,,,,,,,,,,,,,,,,0,0,0,0,0,0,0,0,0,0,0,0,0,0,0,0,,,,,,,,,,,
2186389,1745077459664,0.0,183.89,13.35,-0.0,-0.09,1.0,2,-0,-1,1.0,1.11,90,5661,14.8,4.14,15,12.88,1.066,86.2,138,65.0,5,0,0,0,0,0.0,0.0,0.0,0.0,2.26,0,0.0,0,0,0,0,0,0,0,0,0,0,0,0,0,0,0,0,0,0.0,0,0,0.0,39.239586,-77.9646,0.05,29,2,0.8
2186409,1745077459684,,,,,,,,,,,,,,,,,,,,,,,,,,,,,,,,,,0,0,0,0,0,0,0,0,0,0,0,0,0,0,0,0,,,,,,,,,,,
2186429,1745077459704,0.0,183.89,,0.03,-0.1,1.04,2,-0,-1,1.04,1.11,94,6138,0.0,1.4,,10.92,1.09,86.2,,65.0,5,,,,,,,,,,,,0,0,0,0,0,0,0,0,0,0,0,0,0,0,0,0,,,,,0.0,,,,,,
2186449,1745077459724,,,,,,,,,,,,,,,,,,,,,,,,,,,,,,,,,,0,0,0,0,0,0,0,0,0,0,0,0,0,0,0,0,,,,,,,,,,,
2186469,1745077459744,0.0,183.89,,0.04,-0.17,1.01,2,-0,-1,1.02,1.11,92,5822,0.0,1.4,,10.06,1.069,86.2,,65.0,5,,,,,,,,,,,,0,0,0,0,0,0,0,0,0,0,0,0,0,0,0,0,,,,,0.0,,,,,,
2186489,1745077459764,,,,,,,,,,,,,,,,,,,,,,,0,0,0,0,0.0,0.0,0.0,0.0,2.26,,,0,0,0,0,0,0,0,0,0,0,0,0,0,0,0,0,0,,,,,39.239586,-77.9646,0.06,29,2,0.8
2186509,1745077459784,0.0,183.89,,0.01,-0.2,1.0,2,-0,-1,1.02,1.11,92,5507,0.0,1.4,,10.06,1.069,86.2,,62.9,5,,,,,,,,,,,,0,0,0,0,0,0,0,0,0,0,0,0,0,0,0,0,,,,,0.0,,,,,,
2186529,1745077459804,,,,,,,,,,,,,,,,,,,,,,,,,,,,,,,,,,0,0,0,0,0,0,0,0,0,0,0,0,0,0,0,0,,,,,,,,,,,
2186549,1745077459824,0.0,183.76,,-0.0,-0.19,1.01,2,-0,-1,1.02,1.11,92,5507,0.0,1.4,,9.64,1.132,86.2,,62.9,5,,,,,,,,,,,,0,0,0,0,0,0,0,0,0,0,0,0,0,0,0,0,,,,,0.0,,,,,,
2186569,1745077459844,,,,,,,,,,,,,,,,,,,,,,,,,,,,,,,,,,0,0,0,0,0,0,0,0,0,0,0,0,0,0,0,0,,,,,,,,,,,
2186589,1745077459864,0.0,183.76,,-0.01,-0.19,0.95,1,-0,-1,0.97,1.11,88,5108,0.0,1.47,,9.42,1.247,86.2,,62.3,5,0,0,0,0,0.0,0.0,0.0,0.0,2.26,,,0,0,0,0,0,0,0,0,0,0,0,0,0,0,0,0,0,,,,0.0,39.239586,-77.9646,0.0,29,2,0.8
2186609,1745077459884,,,,,,,,,,,,,,,,,,,,,,,,,,,,,,,,,,0,0,0,0,0,0,0,0,0,0,0,0,0,0,0,0,,,,,,,,,,,
2186629,1745077459904,0.0,183.76,,0.02,-0.21,0.94,2,-0,-1,0.96,1.11,87,4745,0.0,1.59,,9.42,1.249,86.2,,62.3,5,,,,,,,,,,,,0,0,0,0,0,0,0,0,0,0,0,0,0,0,0,0,,,,,0.0,,,,,,
2186649,1745077459924,,,,,,,,,,,,,,,,,,,,,,,,,,,,,,,,,,0,0,0,0,0,0,0,0,0,0,0,0,0,0,0,0,,,,,,,,,,,
2186669,1745077459944,0.0,183.76,,0.04,-0.25,0.9,2,-0,-1,0.94,1.11,84,4387,0.0,1.61,,9.6,1.249,86.2,,62.3,5,,,,,,,,,,,,0,0,0,0,0,0,0,0,0,0,0,0,0,0,0,0,,,,,0.0,,,,,,
2186689,1745077459964,,,,,,,,,,,,,,,,,,,,,,,0,0,0,0,0.0,0.0,0.0,0.0,2.27,,,0,0,0,0,0,0,0,0,0,0,0,0,0,0,0,0,0,,,,,39.239586,-77.9646,0.04,29,2,0.8
2186709,1745077459984,0.0,183.76,,0.01,-0.3,0.87,2,-0,-1,0.92,1.11,83,4117,15.7,2.85,,9.6,1.249,86.2,,52.7,5,,,,,,,,,,,,0,0,0,0,0,0,0,0,0,0,0,0,0,0,0,0,,,,,0.0,,,,,,
2186729,1745077460004,,,,,,,,,,,,,,,,,,,,,,,,,,,,,,,,,,0,0,0,0,0,0,0,0,0,0,0,0,0,0,0,0,,,,,,,,,,,
2186749,1745077460016,0.0,183.63,,0.02,-0.28,0.85,2,-0,-1,0.9,1.11,81,4117,15.7,2.85,,10.9,1.249,86.2,,52.7,5,,,,,,,,,,,,0,0,0,0,0,0,0,0,0,0,0,0,0,0,0,0,,,,,0.0,,,,,,
2186769,1745077460036,,,,,,,,,,,,,,,,,,,,,,,,,,,,,,,,,,0,0,0,0,0,0,0,0,0,0,0,0,0,0,0,0,,,,,,,,,,,
2186789,1745077460056,0.0,183.76,,0.01,-0.21,0.89,2,-0,-1,0.91,1.11,82,3911,24.7,4.55,,12.93,1.25,86.2,,45.5,5,0,0,0,0,0.0,0.0,0.0,0.0,2.26,,,0,0,0,0,0,0,0,0,0,0,0,0,0,0,0,0,0,,,,0.0,39.239586,-77.9646,0.0,29,2,0.8
2186809,1745077460076,,,,,,,,,,,,,,,,,,,,,,,,,,,,,,,,,,0,0,0,0,0,0,0,0,0,0,0,0,0,0,0,0,,,,,,,,,,,
2186829,1745077460104,0.0,183.76,,-0.02,-0.24,0.9,2,-0,-1,0.93,1.11,84,4053,26.2,4.28,,13.63,1.251,86.2,,45.5,5,,,,,,,,,,,,0,0,0,0,0,0,0,0,0,0,0,0,0,0,0,0,,,,,0.0,,,,,,
2186849,1745077460124,,,,,,,,,,,,,,,,,,,,,,,,,,,,,,,,,,0,0,0,0,0,0,0,0,0,0,0,0,0,0,0,0,,,,,,,,,,,
2186869,1745077460144,0.0,183.63,,-0.0,-0.23,0.87,2,-0,-1,0.9,1.11,81,4104,16.5,4.3,,13.45,1.251,86.2,,45.5,5,,,,,,,,,,,,0,0,0,0,0,0,0,0,0,0,0,0,0,0,0,0,,,,,0.0,,,,,,
2186889,1745077460164,,,,,,,,,,,,,,,,,,,,,,,0,0,0,0,0.0,0.0,0.0,0.0,2.26,,,0,0,0,0,0,0,0,0,0,0,0,0,0,0,0,0,0,,,,,39.239586,-77.9646,0.07,29,2,0.8
2186909,1745077460184,0.0,183.63,,-0.02,-0.17,0.91,1,-0,-1,0.93,1.11,84,4160,0.0,2.47,,13.45,1.251,86.2,,47.9,5,,,,,,,,,,,,0,0,0,0,0,0,0,0,0,0,0,0,0,0,0,0,,,,,0.0,,,,,,
2186929,1745077460204,,,,,,,,,,,,,,,,,,,,,,,,,,,,,,,,,,0,0,0,0,0,0,0,0,0,0,0,0,0,0,0,0,,,,,,,,,,,
2186949,1745077460224,0.0,183.63,,-0.01,-0.18,0.88,2,-0,-1,0.9,1.11,81,4160,0.0,2.47,,12.36,1.251,86.2,,47.9,5,,,,,,,,,,,,0,0,0,0,0,0,0,0,0,0,0,0,0,0,0,0,,,,,0.0,,,,,,
2186969,1745077460244,,,,,,,,,,,,,,,,,,,,,,,,,,,,,,,,,,0,0,0,0,0,0,0,0,0,0,0,0,0,0,0,0,,,,,,,,,,,
2186989,1745077460264,0.0,183.63,,0.0,-0.09,0.94,1,-0,-0,0.95,1.11,85,4032,0.0,2.44,,11.71,1.251,86.2,,46.2,5,0,0,0,0,0.0,0.0,0.0,0.0,2.26,,,0,0,0,0,0,0,0,0,0,0,0,0,0,0,0,0,0,,,,0.0,39.239586,-77.9646,0.04,29,2,0.8
2187009,1745077460284,,,,,,,,,,,,,,,,,,,,,,,,,,,,,,,,,,0,0,0,0,0,0,0,0,0,0,0,0,0,0,0,0,,,,,,,,,,,
2187029,1745077460307,0.0,183.51,,0.0,-0.08,0.94,1,-0,-0,0.95,1.11,85,3810,0.0,2.46,,11.38,1.25,86.2,,46.2,5,,,,,,,,,,,,0,0,0,0,0,0,0,0,0,0,0,0,0,0,0,0,,,,,0.0,,,,,,
2187049,1745077460327,,,,,,,,,,,,,,,,,,,,,,,,,,,,,,,,,,0,0,0,0,0,0,0,0,0,0,0,0,0,0,0,0,,,,,,,,,,,
2187069,1745077460347,0.0,183.51,,-0.01,-0.09,0.89,1,-0,-1,0.9,1.11,81,3661,14.5,4.1,,12.13,1.249,86.2,,46.2,5,,,,,,,,,,,,0,0,0,0,0,0,0,0,0,0,0,0,0,0,0,0,,,,,0.0,,,,,,
2187089,1745077460367,,,,,,,,,,,,,,,,,,,,,,,0,0,0,0,0.0,0.0,0.0,0.0,2.26,,,0,0,0,0,0,0,0,0,0,0,0,0,0,0,0,0,0,,,,,39.239586,-77.9646,0.04,29,2,0.8
2187109,1745077460387,0.0,183.51,,-0.02,-0.19,0.91,1,-0,-1,0.93,1.11,84,3567,28.9,4.61,,12.13,1.249,86.2,,40.8,5,,,,,,,,,,,,0,0,0,0,0,0,0,0,0,0,0,0,0,0,0,0,,,,,0.0,,,,,,
2187129,1745077460405,,,,,,,,,,,,,,,,,,,,,,,,,,,,,,,,,,0,0,0,0,0,0,0,0,0,0,0,0,0,0,0,0,,,,,,,,,,,
2187149,1745077460425,0.0,183.51,,0.0,-0.12,0.94,1,-0,-1,0.94,1.11,85,3567,28.9,4.61,,13.67,1.249,86.2,,40.8,5,,,,,,,,,,,,0,0,0,0,0,0,0,0,0,0,0,0,0,0,0,0,,,,,0.0,,,,,,
2187169,1745077460445,,,,,,,,,,,,,,,,,,,,,,,,,,,,,,,,,,0,0,0,0,0,0,0,0,0,0,0,0,0,0,0,0,,,,,,,,,,,
2187189,1745077460465,0.0,183.51,,-0.02,-0.11,0.96,0,-0,-0,0.97,1.11,87,3952,30.4,4.98,,13.83,1.249,86.2,,46.4,5,0,0,0,0,0.0,0.0,0.0,0.0,2.26,,,0,0,0,0,0,0,0,0,0,0,0,0,0,0,0,0,0,,,,0.0,39.239586,-77.9646,0.07,29,2,0.8
2187209,1745077460485,,,,,,,,,,,,,,,,,,,,,,,,,,,,,,,,,,0,0,0,0,0,0,0,0,0,0,0,0,0,0,0,0,,,,,,,,,,,
2187229,1745077460505,0.0,183.63,,-0.07,-0.02,1.04,-0,-0,0,1.04,1.11,94,4415,31.1,4.68,,13.91,1.249,86.2,,46.4,5,,,,,,,,,,,,0,0,0,0,0,0,0,0,0,0,0,0,0,0,0,0,,,,,0.0,,,,,,
2187249,1745077460525,,,,,,,,,,,,,,,,,,,,,,,,,,,,,,,,,,0,0,0,0,0,0,0,0,0,0,0,0,0,0,0,0,,,,,,,,,,,
2187269,1745077460545,0.0,183.51,,-0.05,-0.05,1.0,0,-0,0,1.01,1.11,91,4916,16.2,4.17,,13.25,1.25,86.2,,46.4,5,,,,,,,,,,,,0,0,0,0,0,0,0,0,0,0,0,0,0,0,0,0,,,,,0.0,,,,,,
2187289,1745077460565,,,,,,,,,,,,,,,,,,,,,,,0,0,0,0,0.0,0.0,0.0,0.0,2.26,,,0,0,0,0,0,0,0,0,0,0,0,0,0,0,0,0,0,,,,,39.239586,-77.9646,0.06,29,2,0.8
2187309,1745077460585,0.0,183.51,,-0.06,-0.02,0.99,-0,-0,0,1.0,1.11,90,5211,0.0,2.22,,13.25,1.25,86.2,,61.3,5,,,,,,,,,,,,0,0,0,0,0,0,0,0,0,0,0,0,0,0,0,0,,,,,0.0,,,,,,
2187329,1745077460605,,,,,,,,,,,,,,,,,,,,,,,,,,,,,,,,,,0,0,0,0,0,0,0,0,0,0,0,0,0,0,0,0,,,,,,,,,,,
2187349,1745077460625,0.0,183.51,,-0.08,0.0,1.0,-0,-0,0,1.0,1.11,90,5211,0.0,2.22,,11.89,1.249,86.2,,61.3,5,,,,,,,,,,,,0,0,0,0,0,0,0,0,0,0,0,0,0,0,0,0,,,,,0.0,,,,,,
2187369,1745077460645,,,,,,,,,,,,,,,,,,,,,,,,,,,,,,,,,,0,0,0,0,0,0,0,0,0,0,0,0,0,0,0,0,,,,,,,,,,,
2187389,1745077460665,0.0,183.51,13.44,-0.04,-0.06,1.01,-0,-0,0,1.02,1.11,92,5047,0.0,2.24,15,11.09,1.183,86.2,140,61.7,5,0,0,0,0,0.0,0.0,0.0,0.0,2.26,0,0.0,0,0,0,0,0,0,0,0,0,0,0,0,0,0,0,0,0,0.0,0,-0,0.0,39.239586,-77.9646,0.08,29,2,0.8
2187409,1745077460685,,,,,,,,,,,,,,,,,,,,,,,,,,,,,,,,,,0,0,0,0,0,0,0,0,0,0,0,0,0,0,0,0,,,,,,,,,,,
2187429,1745077460705,0.0,183.51,,-0.08,0.02,1.04,-1,-0,0,1.05,1.11,94,4810,0.0,1.77,,10.65,1.179,86.2,,61.7,5,,,,,,,,,,,,0,0,0,0,0,0,0,0,0,0,0,0,0,0,0,0,,,,,0.0,,,,,,
2187449,1745077460725,,,,,,,,,,,,,,,,,,,,,,,,,,,,,,,,,,0,0,0,0,0,0,0,0,0,0,0,0,0,0,0,0,,,,,,,,,,,
2187469,1745077460745,0.0,183.51,,-0.07,-0.06,0.97,-0,-0,0,0.97,1.11,88,4735,11.3,3.07,,11.22,1.251,86.2,,61.7,5,,,,,,,,,,,,0,0,0,0,0,0,0,0,0,0,0,0,0,0,0,0,,,,,0.0,,,,,,
2187489,1745077460765,,,,,,,,,,,,,,,,,,,,,,,0,0,0,0,0.0,0.0,0.0,0.0,2.26,,,0,0,0,0,0,0,0,0,0,0,0,0,0,0,0,0,0,,,,,39.239586,-77.9646,0.1,29,2,0.8
2187509,1745077460785,0.0,183.51,,-0.05,-0.14,0.88,0,-0,-0,0.89,1.11,80,4452,22.1,4.23,,11.22,1.251,86.2,,55.9,5,,,,,,,,,,,,0,0,0,0,0,0,0,0,0,0,0,0,0,0,0,0,,,,,0.0,,,,,,
2187529,1745077460805,,,,,,,,,,,,,,,,,,,,,,,,,,,,,,,,,,0,0,0,0,0,0,0,0,0,0,0,0,0,0,0,0,,,,,,,,,,,
2187549,1745077460825,0.0,183.63,,-0.03,-0.2,0.8,1,-0,-0,0.83,1.11,75,4452,22.1,4.23,,12.72,1.25,86.2,,55.9,5,,,,,,,,,,,,0,0,0,0,0,0,0,0,0,0,0,0,0,0,0,0,,,,,0.0,,,,,,
2187569,1745077460845,,,,,,,,,,,,,,,,,,,,,,,,,,,,,,,,,,0,0,0,0,0,0,0,0,0,0,0,0,0,0,0,0,,,,,,,,,,,
2187589,1745077460865,0.0,183.63,,0.0,-0.26,0.73,1,-0,-1,0.78,1.11,70,4541,23.2,4.39,,13.33,1.249,86.2,,54.5,5,0,0,0,0,0.0,0.0,0.0,0.0,2.26,,,0,0,0,0,0,0,0,0,0,0,0,0,0,0,0,0,0,,,,0.0,39.239586,-77.9646,0.04,29,2,0.8
2187609,1745077460885,,,,,,,,,,,,,,,,,,,,,,,,,,,,,,,,,,0,0,0,0,0,0,0,0,0,0,0,0,0,0,0,0,,,,,,,,,,,
2187629,1745077460905,0.0,183.63,,0.03,-0.35,0.67,2,-0,-1,0.76,1.11,68,4545,4.4,3.65,,12.79,1.248,86.2,,54.5,5,,,,,,,,,,,,0,0,0,0,0,0,0,0,0,0,0,0,0,0,0,0,,,,,0.0,,,,,,
2187649,1745077460925,,,,,,,,,,,,,,,,,,,,,,,,,,,,,,,,,,0,0,0,0,0,0,0,0,0,0,0,0,0,0,0,0,,,,,,,,,,,
2187669,1745077460945,0.0,183.63,,0.06,-0.4,0.61,2,-0,-1,0.73,1.11,66,4494,0.0,2.4,,11.91,1.249,86.2,,54.5,5,,,,,,,,,,,,0,0,0,0,0,0,0,0,0,0,0,0,0,0,0,0,,,,,0.0,,,,,,
2187689,1745077460965,,,,,,,,,,,,,,,,,,,,,,,0,0,0,0,0.0,0.0,0.0,0.0,2.27,,,0,0,0,0,0,0,0,0,0,0,0,0,0,0,0,0,0,,,,,39.239586,-77.9646,0.0,29,2,0.8
2187709,1745077460985,0.0,183.51,,0.05,-0.47,0.56,3,-0,-2,0.74,1.11,66,4300,0.0,2.39,,11.91,1.249,86.2,,53.4,5,,,,,,,,,,,,0,0,0,0,0,0,0,0,0,0,0,0,0,0,0,0,,,,,0.0,,,,,,
2187729,1745077461005,,,,,,,,,,,,,,,,,,,,,,,,,,,,,,,,,,0,0,0,0,0,0,0,0,0,0,0,0,0,0,0,0,,,,,,,,,,,
2187749,1745077461017,0.0,183.51,,0.03,-0.32,0.69,2,-0,-1,0.77,1.11,69,4300,0.0,2.39,,11.29,1.249,86.2,,53.4,5,,,,,,,,,,,,0,0,0,0,0,0,0,0,0,0,0,0,0,0,0,0,,,,,0.0,,,,,,
2187769,1745077461037,,,,,,,,,,,,,,,,,,,,,,,,,,,,,,,,,,0,0,0,0,0,0,0,0,0,0,0,0,0,0,0,0,,,,,,,,,,,
2187789,1745077461057,0.0,183.51,,0.02,-0.42,0.67,2,-0,-1,0.79,1.11,71,4100,0.0,2.39,,11.0,1.25,86.2,,47.6,5,0,0,0,0,0.0,0.0,0.0,0.0,2.27,,,0,0,0,0,0,0,0,0,0,0,0,0,0,0,0,0,0,,,,0.0,39.239586,-77.9646,0.05,29,2,0.8
2187809,1745077461077,,,,,,,,,,,,,,,,,,,,,,,,,,,,,,,,,,0,0,0,0,0,0,0,0,0,0,0,0,0,0,0,0,,,,,,,,,,,
2187829,1745077461103,0.0,183.51,,0.02,-0.36,0.7,2,-0,-1,0.79,1.11,71,3943,17.0,3.97,,12.09,1.252,86.2,,47.6,5,,,,,,,,,,,,0,0,0,0,0,0,0,0,0,0,0,0,0,0,0,0,,,,,0.0,,,,,,
2187849,1745077461123,,,,,,,,,,,,,,,,,,,,,,,,,,,,,,,,,,0,0,0,0,0,0,0,0,0,0,0,0,0,0,0,0,,,,,,,,,,,
2187869,1745077461143,0.0,183.51,,0.03,-0.24,0.79,1,-0,-1,0.83,1.11,75,3850,29.5,4.58,,13.56,1.251,86.2,,47.6,5,,,,,,,,,,,,0,0,0,0,0,0,0,0,0,0,0,0,0,0,0,0,,,,,0.0,,,,,,
2187889,1745077461163,,,,,,,,,,,,,,,,,,,,,,,0,0,0,0,0.0,0.0,0.0,0.0,2.26,,,0,0,0,0,0,0,0,0,0,0,0,0,0,0,0,0,0,,,,,39.239586,-77.9646,0.04,29,2,0.8
2187909,1745077461183,0.0,183.51,,0.02,-0.24,0.83,1,-0,-0,0.86,1.11,78,4031,30.7,4.52,,13.56,1.251,86.2,,44.9,5,,,,,,,,,,,,0,0,0,0,0,0,0,0,0,0,0,0,0,0,0,0,,,,,0.0,,,,,,
2187929,1745077461203,,,,,,,,,,,,,,,,,,,,,,,,,,,,,,,,,,0,0,0,0,0,0,0,0,0,0,0,0,0,0,0,0,,,,,,,,,,,
2187949,1745077461223,0.0,183.38,,0.01,-0.12,0.96,0,-0,0,0.97,1.11,88,4031,30.7,4.52,,13.82,1.252,86.2,,44.9,5,,,,,,,,,,,,0,0,0,0,0,0,0,0,0,0,0,0,0,0,0,0,,,,,0.0,,,,,,
2187969,1745077461243,,,,,,,,,,,,,,,,,,,,,,,,,,,,,,,,,,0,0,0,0,0,0,0,0,0,0,0,0,0,0,0,0,,,,,,,,,,,
2187989,1745077461263,0.0,183.38,,-0.03,-0.08,1.0,-0,-0,0,1.0,1.11,90,4495,27.0,4.7,,13.68,1.251,86.2,,55.4,5,0,0,0,0,0.0,0.0,0.0,0.0,2.25,,,0,0,0,0,0,0,0,0,0,0,0,0,0,0,0,0,0,,,,0.0,39.239586,-77.9646,0.04,29,2,0.8
2188009,1745077461283,,,,,,,,,,,,,,,,,,,,,,,,,,,,,,,,,,0,0,0,0,0,0,0,0,0,0,0,0,0,0,0,0,,,,,,,,,,,
2188029,1745077461305,0.0,183.38,,-0.01,-0.11,0.99,0,-0,0,0.99,1.11,89,4931,0.0,2.51,,12.39,1.25,86.2,,55.4,5,,,,,,,,,,,,0,0,0,0,0,0,0,0,0,0,0,0,0,0,0,0,,,,,0.0,,,,,,
2188049,1745077461325,,,,,,,,,,,,,,,,,,,,,,,,,,,,,,,,,,0,0,0,0,0,0,0,0,0,0,0,0,0,0,0,0,,,,,,,,,,,
2188069,1745077461345,0.0,183.38,,-0.04,-0.09,0.99,-0,-0,0,0.99,1.11,90,4935,0.0,2.34,,11.49,1.249,86.2,,55.4,5,,,,,,,,,,,,0,0,0,0,0,0,0,0,0,0,0,0,0,0,0,0,,,,,0.0,,,,,,
2188089,1745077461365,,,,,,,,,,,,,,,,,,,,,,,0,0,0,0,0.0,0.0,0.0,0.0,2.26,,,0,0,0,0,0,0,0,0,0,0,0,0,0,0,0,0,0,,,,,39.239586,-77.9646,0.16,29,2,0.8
2188109,1745077461385,0.0,183.38,,-0.0,-0.11,0.98,0,-0,0,0.98,1.11,89,4797,0.0,2.33,,11.49,1.249,86.2,,60.1,5,,,,,,,,,,,,0,0,0,0,0,0,0,0,0,0,0,0,0,0,0,0,,,,,0.0,,,,,,
2188129,1745077461406,,,,,,,,,,,,,,,,,,,,,,,,,,,,,,,,,,0,0,0,0,0,0,0,0,0,0,0,0,0,0,0,0,,,,,,,,,,,
2188149,1745077461426,0.0,183.38,,-0.04,-0.02,1.06,-0,-0,0,1.06,1.11,96,4797,0.0,2.33,,11.0,1.212,86.2,,60.1,5,,,,,,,,,,,,0,0,0,0,0,0,0,0,0,0,0,0,0,0,0,0,,,,,0.0,,,,,,
2188169,1745077461446,,,,,,,,,,,,,,,,,,,,,,,,,,,,,,,,,,0,0,0,0,0,0,0,0,0,0,0,0,0,0,0,0,,,,,,,,,,,
2188189,1745077461466,0.0,183.38,,-0.08,-0.0,1.06,-1,-0,1,1.06,1.11,96,4691,0.0,1.93,,10.68,1.248,86.2,,56.1,5,0,0,0,0,0.0,0.0,0.0,0.0,2.26,,,0,0,0,0,0,0,0,0,0,0,0,0,0,0,0,0,0,,,,0.0,39.239586,-77.9646,0.11,29,2,0.8
2188209,1745077461486,,,,,,,,,,,,,,,,,,,,,,,,,,,,,,,,,,0,0,0,0,0,0,0,0,0,0,0,0,0,0,0,0,,,,,,,,,,,
2188229,1745077461504,0.0,183.38,,-0.11,0.0,1.03,-1,-0,1,1.04,1.11,94,4565,0.0,1.79,,10.54,1.203,86.2,,56.1,5,,,,,,,,,,,,0,0,0,0,0,0,0,0,0,0,0,0,0,0,0,0,,,,,0.0,,,,,,
2188249,1745077461524,,,,,,,,,,,,,,,,,,,,,,,,,,,,,,,,,,0,0,0,0,0,0,0,0,0,0,0,0,0,0,0,0,,,,,,,,,,,
2188269,1745077461544,0.0,183.38,,-0.12,0.12,1.1,-1,-0,1,1.12,1.12,100,4230,6.1,3.25,,11.05,1.152,86.2,,56.1,5,,,,,,,,,,,,0,0,0,0,0,0,0,0,0,0,0,0,0,0,0,0,,,,,0.0,,,,,,
2188289,1745077461564,,,,,,,,,,,,,,,,,,,,,,,0,0,0,0,0.0,0.0,0.0,0.0,2.26,,,0,0,0,0,0,0,0,0,0,0,0,0,0,0,0,0,0,,,,,39.239586,-77.9646,0.04,29,2,0.8
2188309,1745077461584,0.0,183.38,,-0.11,0.0,1.03,-1,-0,1,1.03,1.12,92,3995,8.8,3.68,,11.05,1.152,86.2,,49.1,5,,,,,,,,,,,,0,0,0,0,0,0,0,0,0,0,0,0,0,0,0,0,,,,,0.0,,,,,,
2188329,1745077461606,,,,,,,,,,,,,,,,,,,,,,,,,,,,,,,,,,0,0,0,0,0,0,0,0,0,0,0,0,0,0,0,0,,,,,,,,,,,
2188349,1745077461626,0.0,183.38,,-0.08,0.04,1.02,-1,-0,1,1.03,1.12,92,3995,8.8,3.68,,11.8,1.189,86.2,,49.1,5,,,,,,,,,,,,0,0,0,0,0,0,0,0,0,0,0,0,0,0,0,0,,,,,0.0,,,,,,
2188369,1745077461646,,,,,,,,,,,,,,,,,,,,,,,,,,,,,,,,,,0,0,0,0,0,0,0,0,0,0,0,0,0,0,0,0,,,,,,,,,,,
2188389,1745077461666,0.0,183.38,13.45,-0.08,0.03,1.05,-1,-0,1,1.05,1.12,94,4012,9.3,3.69,15,12.29,1.25,86.2,138,46.8,5,0,0,0,0,0.0,0.0,0.0,0.0,2.26,0,0.0,0,0,0,0,0,0,0,0,0,0,0,0,0,0,0,0,0,0.0,0,-0,0.0,39.239586,-77.9646,0.08,29,2,0.8
2188409,1745077461686,,,,,,,,,,,,,,,,,,,,,,,,,,,,,,,,,,0,0,0,0,0,0,0,0,0,0,0,0,0,0,0,0,,,,,,,,,,,
2188429,1745077461706,0.0,183.51,,-0.06,-0.01,1.0,-0,-0,0,1.0,1.12,89,4111,9.4,3.7,,12.45,1.251,86.2,,46.8,5,,,,,,,,,,,,0,0,0,0,0,0,0,0,0,0,0,0,0,0,0,0,,,,,0.0,,,,,,
2188449,1745077461726,,,,,,,,,,,,,,,,,,,,,,,,,,,,,,,,,,0,0,0,0,0,0,0,0,0,0,0,0,0,0,0,0,,,,,,,,,,,
2188469,1745077461746,0.0,183.63,,-0.04,0.06,1.06,-1,-0,1,1.07,1.12,96,3980,9.4,3.72,,12.56,1.251,86.2,,46.8,5,,,,,,,,,,,,0,0,0,0,0,0,0,0,0,0,0,0,0,0,0,0,,,,,0.0,,,,,,
2188489,1745077461766,,,,,,,,,,,,,,,,,,,,,,,0,0,0,0,0.0,0.0,0.0,0.0,2.26,,,0,0,0,0,0,0,0,0,0,0,0,0,0,0,0,0,0,,,,,39.239586,-77.9646,0.04,29,2,0.8
2188509,1745077461786,0.0,183.63,,-0.04,0.02,1.07,-1,-0,1,1.07,1.12,96,3914,9.4,3.73,,12.56,1.251,86.2,,45.4,5,,,,,,,,,,,,0,0,0,0,0,0,0,0,0,0,0,0,0,0,0,0,,,,,0.0,,,,,,
2188529,1745077461806,,,,,,,,,,,,,,,,,,,,,,,,,,,,,,,,,,0,0,0,0,0,0,0,0,0,0,0,0,0,0,0,0,,,,,,,,,,,
2188549,1745077461826,0.0,183.63,,-0.04,-0.05,1.02,-1,-0,1,1.02,1.12,91,3914,9.4,3.73,,12.73,1.22,86.2,,45.4,5,,,,,,,,,,,,0,0,0,0,0,0,0,0,0,0,0,0,0,0,0,0,,,,,0.0,,,,,,
2188569,1745077461846,,,,,,,,,,,,,,,,,,,,,,,,,,,,,,,,,,0,0,0,0,0,0,0,0,0,0,0,0,0,0,0,0,,,,,,,,,,,
2188589,1745077461866,0.0,183.63,,-0.02,-0.04,0.97,-0,-0,0,0.98,1.12,88,3877,9.4,3.76,,12.84,1.232,86.2,,43.6,5,0,0,0,0,0.0,0.0,0.0,0.0,2.27,,,0,0,0,0,0,0,0,0,0,0,0,0,0,0,0,0,0,,,,0.0,39.239586,-77.9646,0.04,29,2,0.8
2188609,1745077461886,,,,,,,,,,,,,,,,,,,,,,,,,,,,,,,,,,0,0,0,0,0,0,0,0,0,0,0,0,0,0,0,0,,,,,,,,,,,
2188629,1745077461906,0.0,183.63,,-0.03,-0.08,0.96,-0,-0,0,0.97,1.12,87,3815,9.3,3.76,,12.88,1.248,86.2,,43.6,5,,,,,,,,,,,,0,0,0,0,0,0,0,0,0,0,0,0,0,0,0,0,,,,,0.0,,,,,,
2188649,1745077461926,,,,,,,,,,,,,,,,,,,,,,,,,,,,,,,,,,0,0,0,0,0,0,0,0,0,0,0,0,0,0,0,0,,,,,,,,,,,
2188669,1745077461946,0.0,183.51,,-0.02,-0.03,0.97,-0,-0,0,0.97,1.12,87,3813,9.2,3.76,,12.93,1.249,86.2,,43.6,5,,,,,,,,,,,,0,0,0,0,0,0,0,0,0,0,0,0,0,0,0,0,,,,,0.0,,,,,,
2188689,1745077461966,,,,,,,,,,,,,,,,,,,,,,,0,0,0,0,0.0,0.0,0.0,0.0,2.26,,,0,0,0,0,0,0,0,0,0,0,0,0,0,0,0,0,0,,,,,39.239586,-77.9646,0.08,29,2,0.8
2188709,1745077461986,0.0,183.63,,-0.03,0.01,1.05,-1,-0,1,1.05,1.12,94,3918,9.2,3.76,,12.93,1.249,86.2,,44.5,5,,,,,,,,,,,,0,0,0,0,0,0,0,0,0,0,0,0,0,0,0,0,,,,,0.0,,,,,,
2188729,1745077462006,,,,,,,,,,,,,,,,,,,,,,,,,,,,,,,,,,0,0,0,0,0,0,0,0,0,0,0,0,0,0,0,0,,,,,,,,,,,
2188749,1745077462016,0.0,183.51,,-0.07,-0.01,1.04,-1,-0,1,1.04,1.12,93,3918,9.2,3.76,,12.81,1.248,86.2,,44.5,5,,,,,,,,,,,,0,0,0,0,0,0,0,0,0,0,0,0,0,0,0,0,,,,,0.0,,,,,,
2188769,1745077462036,,,,,,,,,,,,,,,,,,,,,,,,,,,,,,,,,,0,0,0,0,0,0,0,0,0,0,0,0,0,0,0,0,,,,,,,,,,,
2188789,1745077462056,0.0,183.51,,-0.06,-0.05,1.01,-1,-0,0,1.01,1.12,91,3894,8.6,3.72,,12.68,1.25,86.2,,44.0,5,0,0,0,0,0.0,0.0,0.0,0.0,2.26,,,0,0,0,0,0,0,0,0,0,0,0,0,0,0,0,0,0,,,,0.0,39.239586,-77.9646,0.04,29,2,0.8
2188809,1745077462076,,,,,,,,,,,,,,,,,,,,,,,,,,,,,,,,,,0,0,0,0,0,0,0,0,0,0,0,0,0,0,0,0,,,,,,,,,,,
2188829,1745077462102,0.0,183.38,,-0.05,-0.05,1.0,-0,-0,0,1.0,1.12,90,3890,5.5,3.63,,12.59,1.237,86.2,,44.0,5,,,,,,,,,,,,0,0,0,0,0,0,0,0,0,0,0,0,0,0,0,0,,,,,0.0,,,,,,
2188849,1745077462122,,,,,,,,,,,,,,,,,,,,,,,,,,,,,,,,,,0,0,0,0,0,0,0,0,0,0,0,0,0,0,0,0,,,,,,,,,,,
2188869,1745077462142,0.0,183.26,,-0.03,-0.0,1.01,-0,-0,0,1.01,1.12,91,3834,5.2,3.59,,12.47,1.217,86.2,,44.0,5,,,,,,,,,,,,0,0,0,0,0,0,0,0,0,0,0,0,0,0,0,0,,,,,0.0,,,,,,
2188889,1745077462162,,,,,,,,,,,,,,,,,,,,,,,0,0,0,0,0.0,0.0,0.0,0.0,2.26,,,0,0,0,0,0,0,0,0,0,0,0,0,0,0,0,0,0,,,,,39.239586,-77.9646,0.04,29,2,0.8
2188909,1745077462182,0.0,183.26,,-0.03,-0.01,1.0,0,-0,0,1.0,1.12,90,3821,5.2,3.59,,12.47,1.217,86.2,,43.4,5,,,,,,,,,,,,0,0,0,0,0,0,0,0,0,0,0,0,0,0,0,0,,,,,0.0,,,,,,
2188929,1745077462204,,,,,,,,,,,,,,,,,,,,,,,,,,,,,,,,,,0,0,0,0,0,0,0,0,0,0,0,0,0,0,0,0,,,,,,,,,,,
2188949,1745077462224,0.0,183.26,,-0.04,0.0,0.98,0,-0,0,0.98,1.12,88,3821,5.2,3.59,,12.43,1.249,86.2,,43.4,5,,,,,,,,,,,,0,0,0,0,0,0,0,0,0,0,0,0,0,0,0,0,,,,,0.0,,,,,,
2188969,1745077462244,,,,,,,,,,,,,,,,,,,,,,,,,,,,,,,,,,0,0,0,0,0,0,0,0,0,0,0,0,0,0,0,0,,,,,,,,,,,
2188989,1745077462264,0.0,183.13,,-0.06,0.04,1.0,0,-0,0,1.01,1.12,90,3699,5.3,3.58,,12.44,1.252,86.2,,42.9,5,0,0,0,0,0.0,0.0,0.0,0.0,2.26,,,0,0,0,0,0,0,0,0,0,0,0,0,0,0,0,0,0,,,,0.0,39.239586,-77.9646,0.04,29,2,0.8
2189009,1745077462284,,,,,,,,,,,,,,,,,,,,,,,,,,,,,,,,,,0,0,0,0,0,0,0,0,0,0,0,0,0,0,0,0,,,,,,,,,,,
2189029,1745077462306,0.0,183.13,,-0.05,0.03,1.03,-0,-0,0,1.03,1.12,92,3838,5.1,3.58,,12.39,1.25,86.2,,42.9,5,,,,,,,,,,,,0,0,0,0,0,0,0,0,0,0,0,0,0,0,0,0,,,,,0.0,,,,,,
2189049,1745077462326,,,,,,,,,,,,,,,,,,,,,,,,,,,,,,,,,,0,0,0,0,0,0,0,0,0,0,0,0,0,0,0,0,,,,,,,,,,,
2189069,1745077462346,0.0,183.13,,-0.05,0.03,1.03,-0,-0,0,1.03,1.12,92,3798,0.4,2.65,,12.09,1.249,86.2,,42.9,5,,,,,,,,,,,,0,0,0,0,0,0,0,0,0,0,0,0,0,0,0,0,,,,,0.0,,,,,,
2189089,1745077462366,,,,,,,,,,,,,,,,,,,,,,,0,0,0,0,0.0,0.0,0.0,0.0,2.27,,,0,0,0,0,0,0,0,0,0,0,0,0,0,0,0,0,0,,,,,39.239586,-77.9646,0.04,29,2,0.8
2189109,1745077462386,0.0,183.01,,-0.05,0.02,0.99,-0,-0,0,0.99,1.12,89,3686,0.0,2.55,,12.09,1.249,86.2,,42.4,5,,,,,,,,,,,,0,0,0,0,0,0,0,0,0,0,0,0,0,0,0,0,,,,,0.0,,,,,,
2189129,1745077462405,,,,,,,,,,,,,,,,,,,,,,,,,,,,,,,,,,0,0,0,0,0,0,0,0,0,0,0,0,0,0,0,0,,,,,,,,,,,
2189149,1745077462425,0.0,183.01,,-0.06,-0.03,0.96,0,-0,0,0.96,1.12,86,3686,0.0,2.55,,11.85,1.226,86.2,,42.4,5,,,,,,,,,,,,0,0,0,0,0,0,0,0,0,0,0,0,0,0,0,0,,,,,0.0,,,,,,
2189169,1745077462445,,,,,,,,,,,,,,,,,,,,,,,,,,,,,,,,,,0,0,0,0,0,0,0,0,0,0,0,0,0,0,0,0,,,,,,,,,,,
2189189,1745077462465,0.0,183.01,,-0.06,0.0,1.04,-1,-0,1,1.04,1.12,93,3503,0.0,2.62,,11.84,1.192,86.2,,38.0,5,0,0,0,0,0.0,0.0,0.0,0.0,2.27,,,0,0,0,0,0,0,0,0,0,0,0,0,0,0,0,0,0,,,,0.0,39.239586,-77.9646,0.04,29,2,0.8
2189209,1745077462485,,,,,,,,,,,,,,,,,,,,,,,,,,,,,,,,,,0,0,0,0,0,0,0,0,0,0,0,0,0,0,0,0,,,,,,,,,,,
2189229,1745077462505,0.0,183.13,,-0.07,-0.06,1.0,-0,-0,0,1.01,1.12,90,3382,0.0,2.67,,11.89,1.205,84.4,,38.0,5,,,,,,,,,,,,0,0,0,0,0,0,0,0,0,0,0,0,0,0,0,0,,,,,0.0,,,,,,
2189249,1745077462525,,,,,,,,,,,,,,,,,,,,,,,,,,,,,,,,,,0,0,0,0,0,0,0,0,0,0,0,0,0,0,0,0,,,,,,,,,,,
2189269,1745077462545,0.0,183.01,,-0.06,-0.0,0.93,-0,-0,0,0.93,1.12,84,3157,0.0,2.73,,12.01,1.248,84.4,,38.0,5,,,,,,,,,,,,0,0,0,0,0,0,0,0,0,0,0,0,0,0,0,0,,,,,0.0,,,,,,
2189289,1745077462565,,,,,,,,,,,,,,,,,,,,,,,0,0,0,0,0.0,0.0,0.0,0.0,2.26,,,0,0,0,0,0,0,0,0,0,0,0,0,0,0,0,0,0,,,,,39.239586,-77.9646,0.0,29,2,0.8
2189309,1745077462585,0.0,183.01,,-0.03,0.05,0.91,-0,-0,1,0.91,1.12,82,3003,0.0,2.82,,12.01,1.248,84.4,,34.1,5,,,,,,,,,,,,0,0,0,0,0,0,0,0,0,0,0,0,0,0,0,0,,,,,0.0,,,,,,
2189329,1745077462605,,,,,,,,,,,,,,,,,,,,,,,,,,,,,,,,,,0,0,0,0,0,0,0,0,0,0,0,0,0,0,0,0,,,,,,,,,,,
2189349,1745077462625,0.0,183.01,,-0.02,0.1,0.86,-1,-0,1,0.86,1.12,77,3003,0.0,2.82,,12.09,1.251,84.4,,34.1,5,,,,,,,,,,,,0,0,0,0,0,0,0,0,0,0,0,0,0,0,0,0,,,,,0.0,,,,,,
2189369,1745077462645,,,,,,,,,,,,,,,,,,,,,,,,,,,,,,,,,,0,0,0,0,0,0,0,0,0,0,0,0,0,0,0,0,,,,,,,,,,,
2189389,1745077462665,0.0,182.88,13.44,-0.02,0.06,0.88,-0,-0,0,0.88,1.12,79,2878,0.0,2.9,15,12.21,1.252,84.4,138,30.1,5,0,0,0,0,0.0,0.0,0.0,0.0,2.26,0,0.0,0,0,0,0,0,0,0,0,0,0,0,0,0,0,0,0,0,0.0,0,-0,0.0,39.239586,-77.9646,0.07,29,2,0.8
2189409,1745077462685,,,,,,,,,,,,,,,,,,,,,,,,,,,,,,,,,,0,0,0,0,0,0,0,0,0,0,0,0,0,0,0,0,,,,,,,,,,,
2189429,1745077462707,0.0,183.01,,-0.01,0.06,0.88,-0,-0,0,0.89,1.12,80,2725,0.0,2.94,,12.4,1.252,84.4,,30.1,5,,,,,,,,,,,,0,0,0,0,0,0,0,0,0,0,0,0,0,0,0,0,,,,,0.0,,,,,,
2189449,1745077462727,,,,,,,,,,,,,,,,,,,,,,,,,,,,,,,,,,0,0,0,0,0,0,0,0,0,0,0,0,0,0,0,0,,,,,,,,,,,
2189469,1745077462747,0.0,182.88,,-0.01,0.05,0.9,-0,-0,0,0.9,1.12,81,2613,0.0,3.04,,12.55,1.252,84.4,,30.1,5,,,,,,,,,,,,0,0,0,0,0,0,0,0,0,0,0,0,0,0,0,0,,,,,0.0,,,,,,
2189489,1745077462767,,,,,,,,,,,,,,,,,,,,,,,0,0,0,0,0.0,0.0,0.0,0.0,2.26,,,0,0,0,0,0,0,0,0,0,0,0,0,0,0,0,0,0,,,,,39.239586,-77.9646,0.0,29,2,0.8
2189509,1745077462787,0.0,183.01,,-0.02,0.04,0.91,-0,-0,0,0.91,1.12,82,2434,0.0,3.09,,12.55,1.252,84.4,,26.8,5,,,,,,,,,,,,0,0,0,0,0,0,0,0,0,0,0,0,0,0,0,0,,,,,0.0,,,,,,
2189529,1745077462803,,,,,,,,,,,,,,,,,,,,,,,,,,,,,,,,,,0,0,0,0,0,0,0,0,0,0,0,0,0,0,0,0,,,,,,,,,,,
2189549,1745077462823,0.0,182.88,,-0.04,0.03,0.92,-0,-0,0,0.93,1.12,83,2434,0.0,3.09,,12.77,1.25,84.4,,26.8,5,,,,,,,,,,,,0,0,0,0,0,0,0,0,0,0,0,0,0,0,0,0,,,,,0.0,,,,,,
2189569,1745077462843,,,,,,,,,,,,,,,,,,,,,,,,,,,,,,,,,,0,0,0,0,0,0,0,0,0,0,0,0,0,0,0,0,,,,,,,,,,,
2189589,1745077462863,0.0,182.88,,-0.05,0.04,0.93,-0,-0,0,0.94,1.12,84,2336,0.0,3.19,,13.0,1.249,84.4,,23.6,5,0,0,0,0,0.0,0.0,0.0,0.0,2.27,,,0,0,0,0,0,0,0,0,0,0,0,0,0,0,0,0,0,,,,0.0,39.239586,-77.9646,0.07,29,2,0.8
2189609,1745077462883,,,,,,,,,,,,,,,,,,,,,,,,,,,,,,,,,,0,0,0,0,0,0,0,0,0,0,0,0,0,0,0,0,,,,,,,,,,,
2189629,1745077462905,0.0,182.88,,-0.05,0.02,0.93,-0,-0,0,0.94,1.12,84,2211,0.0,3.22,,13.19,1.249,84.4,,23.6,5,,,,,,,,,,,,0,0,0,0,0,0,0,0,0,0,0,0,0,0,0,0,,,,,0.0,,,,,,
2189649,1745077462925,,,,,,,,,,,,,,,,,,,,,,,,,,,,,,,,,,0,0,0,0,0,0,0,0,0,0,0,0,0,0,0,0,,,,,,,,,,,
2189669,1745077462945,0.0,182.88,,-0.05,0.02,0.93,-0,-0,0,0.93,1.12,84,2102,0.0,3.3,,13.37,1.249,84.4,,23.6,5,,,,,,,,,,,,0,0,0,0,0,0,0,0,0,0,0,0,0,0,0,0,,,,,0.0,,,,,,
2189689,1745077462965,,,,,,,,,,,,,,,,,,,,,,,0,0,0,0,0.0,0.0,0.0,0.0,2.26,,,0,0,0,0,0,0,0,0,0,0,0,0,0,0,0,0,0,,,,,39.239586,-77.9646,0.04,29,2,0.8
2189709,1745077462985,0.0,182.88,,-0.04,0.02,0.95,-0,-0,0,0.95,1.12,85,1984,0.0,3.29,,13.37,1.249,84.4,,21.0,5,,,,,,,,,,,,0,0,0,0,0,0,0,0,0,0,0,0,0,0,0,0,,,,,0.0,,,,,,
2189729,1745077463005,,,,,,,,,,,,,,,,,,,,,,,,,,,,,,,,,,0,0,0,0,0,0,0,0,0,0,0,0,0,0,0,0,,,,,,,,,,,
2189749,1745077463015,0.0,182.88,,-0.05,0.0,0.94,-0,-0,0,0.94,1.12,84,1984,0.0,3.29,,13.49,1.249,84.4,,21.0,5,,,,,,,,,,,,0,0,0,0,0,0,0,0,0,0,0,0,0,0,0,0,,,,,0.0,,,,,,
2189769,1745077463035,,,,,,,,,,,,,,,,,,,,,,,,,,,,,,,,,,0,0,0,0,0,0,0,0,0,0,0,0,0,0,0,0,,,,,,,,,,,
2189789,1745077463055,0.0,182.88,,-0.04,0.0,0.97,-0,-0,0,0.97,1.12,87,1823,0.0,3.35,,13.63,1.25,84.4,,19.2,5,0,0,0,0,0.0,0.0,0.0,0.0,2.26,,,0,0,0,0,0,0,0,0,0,0,0,0,0,0,0,0,0,,,,0.0,39.239586,-77.9646,0.08,29,2,0.8
2189809,1745077463075,,,,,,,,,,,,,,,,,,,,,,,,,,,,,,,,,,0,0,0,0,0,0,0,0,0,0,0,0,0,0,0,0,,,,,,,,,,,
2189829,1745077463095,0.0,182.88,,-0.06,-0.01,0.99,-0,-0,0,0.99,1.12,88,1824,1.4,3.38,,13.75,1.252,84.4,,19.2,5,,,,,,,,,,,,0,0,0,0,0,0,0,0,0,0,0,0,0,0,0,0,,,,,0.0,,,,,,
2189849,1745077463117,,,,,,,,,,,,,,,,,,,,,,,,,,,,,,,,,,0,0,0,0,0,0,0,0,0,0,0,0,0,0,0,0,,,,,,,,,,,
2189869,1745077463137,0.0,182.88,,-0.07,-0.02,0.96,-0,-0,0,0.97,1.12,87,1719,2.4,3.57,,13.94,1.253,84.4,,19.2,5,,,,,,,,,,,,0,0,0,0,0,0,0,0,0,0,0,0,0,0,0,0,,,,,0.0,,,,,,
2189889,1745077463157,,,,,,,,,,,,,,,,,,,,,,,0,0,0,0,0.0,0.0,0.0,0.0,2.26,,,0,0,0,0,0,0,0,0,0,0,0,0,0,0,0,0,0,,,,,39.239586,-77.9646,0.05,29,2,0.8
2189909,1745077463177,0.0,182.88,,-0.08,-0.04,0.96,0,-0,0,0.96,1.12,86,1641,2.6,3.57,,13.94,1.253,84.4,,17.3,5,,,,,,,,,,,,0,0,0,0,0,0,0,0,0,0,0,0,0,0,0,0,,,,,0.0,,,,,,
2189929,1745077463205,,,,,,,,,,,,,,,,,,,,,,,,,,,,,,,,,,0,0,0,0,0,0,0,0,0,0,0,0,0,0,0,0,,,,,,,,,,,
2189949,1745077463225,0.0,182.76,,-0.08,-0.04,0.98,-0,-0,0,0.99,1.12,88,1641,2.6,3.57,,14.06,1.252,84.4,,17.3,5,,,,,,,,,,,,0,0,0,0,0,0,0,0,0,0,0,0,0,0,0,0,,,,,0.0,,,,,,
2189969,1745077463245,,,,,,,,,,,,,,,,,,,,,,,,,,,,,,,,,,0,0,0,0,0,0,0,0,0,0,0,0,0,0,0,0,,,,,,,,,,,
2189989,1745077463265,0.0,182.76,,-0.1,-0.03,0.99,-0,-0,0,0.99,1.12,89,1673,2.7,3.58,,13.99,1.252,84.4,,17.5,5,0,0,0,0,0.0,0.0,0.0,0.0,2.26,,,0,0,0,0,0,0,0,0,0,0,0,0,0,0,0,0,0,,,,0.0,39.239586,-77.9646,0.06,29,2,0.8
2190009,1745077463285,,,,,,,,,,,,,,,,,,,,,,,,,,,,,,,,,,0,0,0,0,0,0,0,0,0,0,0,0,0,0,0,0,,,,,,,,,,,
2190029,1745077463305,0.0,182.76,,-0.11,-0.02,0.97,-0,-0,0,0.98,1.12,87,1703,2.7,3.59,,13.92,1.25,84.4,,17.5,5,,,,,,,,,,,,0,0,0,0,0,0,0,0,0,0,0,0,0,0,0,0,,,,,0.0,,,,,,
2190049,1745077463325,,,,,,,,,,,,,,,,,,,,,,,,,,,,,,,,,,0,0,0,0,0,0,0,0,0,0,0,0,0,0,0,0,,,,,,,,,,,
2190069,1745077463345,0.0,182.76,,-0.11,-0.02,0.96,-0,-0,0,0.97,1.12,87,1608,2.7,3.58,,14.0,1.249,84.4,,17.5,5,,,,,,,,,,,,0,0,0,0,0,0,0,0,0,0,0,0,0,0,0,0,,,,,0.0,,,,,,
2190089,1745077463365,,,,,,,,,,,,,,,,,,,,,,,0,0,0,0,0.0,0.0,0.0,0.0,2.26,,,0,0,0,0,0,0,0,0,0,0,0,0,0,0,0,0,0,,,,,39.239586,-77.9646,0.0,29,2,0.8
2190109,1745077463385,0.0,182.76,,-0.1,-0.02,0.96,-0,-0,0,0.97,1.12,87,1566,2.6,3.6,,14.0,1.249,84.4,,17.2,5,,,,,,,,,,,,0,0,0,0,0,0,0,0,0,0,0,0,0,0,0,0,,,,,0.0,,,,,,
2190129,1745077463404,,,,,,,,,,,,,,,,,,,,,,,,,,,,,,,,,,0,0,0,0,0,0,0,0,0,0,0,0,0,0,0,0,,,,,,,,,,,
2190149,1745077463424,0.0,182.76,,-0.07,-0.01,0.99,-0,-0,0,0.99,1.12,89,1566,2.6,3.6,,14.08,1.249,84.4,,17.2,5,,,,,,,,,,,,0,0,0,0,0,0,0,0,0,0,0,0,0,0,0,0,,,,,0.0,,,,,,
2190169,1745077463444,,,,,,,,,,,,,,,,,,,,,,,,,,,,,,,,,,0,0,0,0,0,0,0,0,0,0,0,0,0,0,0,0,,,,,,,,,,,
2190189,1745077463464,0.0,182.76,,-0.06,-0.02,0.99,-0,-0,0,1.0,1.12,89,1604,2.5,3.61,,13.96,1.249,84.4,,16.1,5,0,0,0,0,0.0,0.0,0.0,0.0,2.26,,,0,0,0,0,0,0,0,0,0,0,0,0,0,0,0,0,0,,,,0.0,39.239586,-77.9646,0.08,29,2,0.8
2190209,1745077463484,,,,,,,,,,,,,,,,,,,,,,,,,,,,,,,,,,0,0,0,0,0,0,0,0,0,0,0,0,0,0,0,0,,,,,,,,,,,
2190229,1745077463506,0.0,182.76,,-0.04,-0.03,1.01,-0,-0,0,1.01,1.12,91,1513,2.5,3.6,,14.08,1.249,84.4,,16.1,5,,,,,,,,,,,,0,0,0,0,0,0,0,0,0,0,0,0,0,0,0,0,,,,,0.0,,,,,,
2190249,1745077463526,,,,,,,,,,,,,,,,,,,,,,,,,,,,,,,,,,0,0,0,0,0,0,0,0,0,0,0,0,0,0,0,0,,,,,,,,,,,
2190269,1745077463546,0.0,182.76,,-0.03,-0.03,1.02,-0,-0,0,1.02,1.12,91,1473,2.5,3.6,,13.99,1.251,84.4,,16.1,5,,,,,,,,,,,,0,0,0,0,0,0,0,0,0,0,0,0,0,0,0,0,,,,,0.0,,,,,,
2190289,1745077463566,,,,,,,,,,,,,,,,,,,,,,,0,0,0,0,0.0,0.0,0.0,0.0,2.26,,,0,0,0,0,0,0,0,0,0,0,0,0,0,0,0,0,0,,,,,39.239586,-77.9646,0.05,29,2,0.8
2190309,1745077463586,0.0,182.76,,-0.03,-0.03,1.03,-0,-0,0,1.03,1.12,93,1595,2.5,3.61,,13.99,1.251,84.4,,15.5,5,,,,,,,,,,,,0,0,0,0,0,0,0,0,0,0,0,0,0,0,0,0,,,,,0.0,,,,,,
2190329,1745077463604,,,,,,,,,,,,,,,,,,,,,,,,,,,,,,,,,,0,0,0,0,0,0,0,0,0,0,0,0,0,0,0,0,,,,,,,,,,,
2190349,1745077463624,0.0,182.76,,-0.04,-0.03,1.05,-0,-0,0,1.05,1.12,94,1595,2.5,3.61,,14.0,1.252,84.4,,15.5,5,,,,,,,,,,,,0,0,0,0,0,0,0,0,0,0,0,0,0,0,0,0,,,,,0.0,,,,,,
2190369,1745077463644,,,,,,,,,,,,,,,,,,,,,,,,,,,,,,,,,,0,0,0,0,0,0,0,0,0,0,0,0,0,0,0,0,,,,,,,,,,,
2190389,1745077463664,0.0,182.76,13.35,-0.07,-0.02,1.03,-0,-0,0,1.04,1.12,93,1538,2.6,3.61,15,14.11,1.252,84.4,138,16.6,5,0,0,0,0,0.0,0.0,0.0,0.0,2.26,0,0.0,0,0,0,0,0,0,0,0,0,0,0,0,0,0,0,0,0,0.0,0,0,0.0,39.239586,-77.9646,0.04,29,2,0.8
2190409,1745077463684,,,,,,,,,,,,,,,,,,,,,,,,,,,,,,,,,,0,0,0,0,0,0,0,0,0,0,0,0,0,0,0,0,,,,,,,,,,,
2190429,1745077463704,0.0,182.76,,-0.08,-0.03,1.02,-0,-0,0,1.02,1.12,91,1597,2.7,3.61,,13.96,1.252,84.4,,16.6,5,,,,,,,,,,,,0,0,0,0,0,0,0,0,0,0,0,0,0,0,0,0,,,,,0.0,,,,,,
2190449,1745077463724,,,,,,,,,,,,,,,,,,,,,,,,,,,,,,,,,,0,0,0,0,0,0,0,0,0,0,0,0,0,0,0,0,,,,,,,,,,,
2190469,1745077463744,0.0,182.63,,-0.09,-0.03,0.99,0,-0,-0,0.99,1.12,89,1588,2.8,3.61,,14.08,1.252,84.4,,16.6,5,,,,,,,,,,,,0,0,0,0,0,0,0,0,0,0,0,0,0,0,0,0,,,,,0.0,,,,,,
2190489,1745077463764,,,,,,,,,,,,,,,,,,,,,,,0,0,0,0,0.0,0.0,0.0,0.0,2.26,,,0,0,0,0,0,0,0,0,0,0,0,0,0,0,0,0,0,,,,,39.239586,-77.9646,0.04,29,2,0.8
2190509,1745077463784,0.0,182.63,,-0.1,-0.03,0.97,0,-0,-0,0.98,1.12,88,1475,2.8,3.6,,14.08,1.252,84.4,,15.9,5,,,,,,,,,,,,0,0,0,0,0,0,0,0,0,0,0,0,0,0,0,0,,,,,0.0,,,,,,
2190529,1745077463804,,,,,,,,,,,,,,,,,,,,,,,,,,,,,,,,,,0,0,0,0,0,0,0,0,0,0,0,0,0,0,0,0,,,,,,,,,,,
2190549,1745077463824,0.0,182.63,,-0.1,-0.03,0.95,0,-0,-0,0.96,1.12,86,1475,2.8,3.6,,14.02,1.25,84.4,,15.9,5,,,,,,,,,,,,0,0,0,0,0,0,0,0,0,0,0,0,0,0,0,0,,,,,0.0,,,,,,
2190569,1745077463844,,,,,,,,,,,,,,,,,,,,,,,,,,,,,,,,,,0,0,0,0,0,0,0,0,0,0,0,0,0,0,0,0,,,,,,,,,,,
2190589,1745077463864,0.0,182.76,,-0.1,-0.03,0.93,0,-0,-0,0.94,1.12,84,1542,2.8,3.61,,14.06,1.249,84.4,,15.6,5,0,0,0,0,0.0,0.0,0.0,0.0,2.26,,,0,0,0,0,0,0,0,0,0,0,0,0,0,0,0,0,0,,,,0.0,39.239586,-77.9646,0.08,29,2,0.8
2190609,1745077463884,,,,,,,,,,,,,,,,,,,,,,,,,,,,,,,,,,0,0,0,0,0,0,0,0,0,0,0,0,0,0,0,0,,,,,,,,,,,
2190629,1745077463906,0.0,182.63,,-0.09,-0.03,0.92,0,-0,-0,0.92,1.12,83,1588,2.7,3.61,,14.02,1.249,84.4,,15.6,5,,,,,,,,,,,,0,0,0,0,0,0,0,0,0,0,0,0,0,0,0,0,,,,,0.0,,,,,,
2190649,1745077463926,,,,,,,,,,,,,,,,,,,,,,,,,,,,,,,,,,0,0,0,0,0,0,0,0,0,0,0,0,0,0,0,0,,,,,,,,,,,
2190669,1745077463946,0.0,182.63,,-0.09,-0.02,0.91,-0,-0,0,0.92,1.12,82,1512,2.6,3.62,,14.08,1.249,84.4,,15.6,5,,,,,,,,,,,,0,0,0,0,0,0,0,0,0,0,0,0,0,0,0,0,,,,,0.0,,,,,,
2190689,1745077463966,,,,,,,,,,,,,,,,,,,,,,,0,0,0,0,0.0,0.0,0.0,0.0,2.26,,,0,0,0,0,0,0,0,0,0,0,0,0,0,0,0,0,0,,,,,39.239586,-77.9646,0.04,29,2,0.8
2190709,1745077463986,0.0,182.63,,-0.08,-0.04,0.92,-0,-0,0,0.92,1.12,83,1561,2.6,3.61,,14.08,1.249,84.4,,16.1,5,,,,,,,,,,,,0,0,0,0,0,0,0,0,0,0,0,0,0,0,0,0,,,,,0.0,,,,,,
2190729,1745077464006,,,,,,,,,,,,,,,,,,,,,,,,,,,,,,,,,,0,0,0,0,0,0,0,0,0,0,0,0,0,0,0,0,,,,,,,,,,,
2190749,1745077464016,0.0,182.63,,-0.08,-0.02,0.92,-0,-0,0,0.92,1.12,83,1561,2.6,3.61,,14.0,1.248,84.4,,16.1,5,,,,,,,,,,,,0,0,0,0,0,0,0,0,0,0,0,0,0,0,0,0,,,,,0.0,,,,,,
2190769,1745077464036,,,,,,,,,,,,,,,,,,,,,,,,,,,,,,,,,,0,0,0,0,0,0,0,0,0,0,0,0,0,0,0,0,,,,,,,,,,,
2190789,1745077464056,0.0,182.5,,-0.07,-0.02,0.92,-0,-0,0,0.93,1.12,83,1435,2.6,3.62,,14.1,1.25,84.4,,16.1,5,0,0,0,0,0.0,0.0,0.0,0.0,2.27,,,0,0,0,0,0,0,0,0,0,0,0,0,0,0,0,0,0,,,,0.0,39.239586,-77.9646,0.04,29,2,0.8
2190809,1745077464076,,,,,,,,,,,,,,,,,,,,,,,,,,,,,,,,,,0,0,0,0,0,0,0,0,0,0,0,0,0,0,0,0,,,,,,,,,,,
2190829,1745077464106,0.0,182.5,,-0.06,-0.01,0.93,-0,-0,0,0.93,1.12,83,1488,2.6,3.6,,14.03,1.252,84.4,,16.1,5,,,,,,,,,,,,0,0,0,0,0,0,0,0,0,0,0,0,0,0,0,0,,,,,0.0,,,,,,
2190849,1745077464126,,,,,,,,,,,,,,,,,,,,,,,,,,,,,,,,,,0,0,0,0,0,0,0,0,0,0,0,0,0,0,0,0,,,,,,,,,,,
2190869,1745077464146,0.0,182.5,,-0.06,-0.03,0.94,-0,-0,1,0.94,1.12,84,1576,2.6,3.61,,14.0,1.252,84.4,,16.1,5,,,,,,,,,,,,0,0,0,0,0,0,0,0,0,0,0,0,0,0,0,0,,,,,0.0,,,,,,
2190889,1745077464166,,,,,,,,,,,,,,,,,,,,,,,0,0,0,0,0.0,0.0,0.0,0.0,2.26,,,0,0,0,0,0,0,0,0,0,0,0,0,0,0,0,0,0,,,,,39.239586,-77.9646,0.0,29,2,0.8
2190909,1745077464186,0.0,182.5,,-0.05,-0.04,0.95,-0,-0,1,0.95,1.12,85,1509,2.7,3.61,,14.0,1.252,84.4,,15.8,5,,,,,,,,,,,,0,0,0,0,0,0,0,0,0,0,0,0,0,0,0,0,,,,,0.0,,,,,,
2190929,1745077464206,,,,,,,,,,,,,,,,,,,,,,,,,,,,,,,,,,0,0,0,0,0,0,0,0,0,0,0,0,0,0,0,0,,,,,,,,,,,
2190949,1745077464226,0.0,182.5,,-0.04,-0.05,0.96,-0,-0,1,0.96,1.12,86,1509,2.7,3.61,,14.14,1.252,84.4,,15.8,5,,,,,,,,,,,,0,0,0,0,0,0,0,0,0,0,0,0,0,0,0,0,,,,,0.0,,,,,,
2190969,1745077464246,,,,,,,,,,,,,,,,,,,,,,,,,,,,,,,,,,0,0,0,0,0,0,0,0,0,0,0,0,0,0,0,0,,,,,,,,,,,
2190989,1745077464266,0.0,182.5,,-0.03,-0.06,0.97,-0,-0,1,0.98,1.12,87,1589,2.8,3.62,,13.96,1.252,84.4,,15.8,5,0,0,0,0,0.0,0.0,0.0,0.0,2.26,,,0,0,0,0,0,0,0,0,0,0,0,0,0,0,0,0,0,,,,0.0,39.239586,-77.9646,0.04,29,2,0.8
2191009,1745077464286,,,,,,,,,,,,,,,,,,,,,,,,,,,,,,,,,,0,0,0,0,0,0,0,0,0,0,0,0,0,0,0,0,,,,,,,,,,,
2191029,1745077464306,0.0,182.5,,-0.02,-0.06,0.99,-0,-0,1,0.99,1.12,89,1602,2.8,3.61,,14.07,1.251,84.4,,15.8,5,,,,,,,,,,,,0,0,0,0,0,0,0,0,0,0,0,0,0,0,0,0,,,,,0.0,,,,,,
2191049,1745077464326,,,,,,,,,,,,,,,,,,,,,,,,,,,,,,,,,,0,0,0,0,0,0,0,0,0,0,0,0,0,0,0,0,,,,,,,,,,,
2191069,1745077464346,0.0,182.38,,-0.01,-0.06,1.0,-0,-0,0,1.0,1.12,90,1522,2.8,3.61,,14.06,1.249,84.4,,15.8,5,,,,,,,,,,,,0,0,0,0,0,0,0,0,0,0,0,0,0,0,0,0,,,,,0.0,,,,,,
2191089,1745077464366,,,,,,,,,,,,,,,,,,,,,,,0,0,0,0,0.0,0.0,0.0,0.0,2.26,,,0,0,0,0,0,0,0,0,0,0,0,0,0,0,0,0,0,,,,,39.239586,-77.9646,0.05,29,2,0.8
2191109,1745077464386,0.0,182.5,,-0.01,-0.06,1.02,-0,-0,0,1.02,1.12,92,1598,2.7,3.61,,14.06,1.249,84.4,,16.7,5,,,,,,,,,,,,0,0,0,0,0,0,0,0,0,0,0,0,0,0,0,0,,,,,0.0,,,,,,
2191129,1745077464403,,,,,,,,,,,,,,,,,,,,,,,,,,,,,,,,,,0,0,0,0,0,0,0,0,0,0,0,0,0,0,0,0,,,,,,,,,,,
2191149,1745077464423,0.0,182.5,,-0.02,-0.05,1.04,-0,-0,0,1.04,1.12,94,1598,2.7,3.61,,14.02,1.249,84.4,,16.7,5,,,,,,,,,,,,0,0,0,0,0,0,0,0,0,0,0,0,0,0,0,0,,,,,0.0,,,,,,
2191169,1745077464443,,,,,,,,,,,,,,,,,,,,,,,,,,,,,,,,,,0,0,0,0,0,0,0,0,0,0,0,0,0,0,0,0,,,,,,,,,,,
2191189,1745077464463,0.0,182.38,,-0.05,-0.04,1.04,-0,-0,0,1.04,1.12,93,1606,2.6,3.62,,14.08,1.249,84.4,,16.3,5,0,0,0,0,0.0,0.0,0.0,0.0,2.27,,,0,0,0,0,0,0,0,0,0,0,0,0,0,0,0,0,0,,,,0.0,39.239586,-77.9646,0.0,29,2,0.8
2191209,1745077464483,,,,,,,,,,,,,,,,,,,,,,,,,,,,,,,,,,0,0,0,0,0,0,0,0,0,0,0,0,0,0,0,0,,,,,,,,,,,
2191229,1745077464503,0.0,182.5,,-0.07,-0.05,1.03,-0,-0,0,1.04,1.12,93,1522,2.6,3.62,,14.03,1.249,84.4,,16.3,5,,,,,,,,,,,,0,0,0,0,0,0,0,0,0,0,0,0,0,0,0,0,,,,,0.0,,,,,,
2191249,1745077464523,,,,,,,,,,,,,,,,,,,,,,,,,,,,,,,,,,0,0,0,0,0,0,0,0,0,0,0,0,0,0,0,0,,,,,,,,,,,
2191269,1745077464543,0.0,182.38,,-0.09,-0.06,1.03,-0,-0,0,1.03,1.12,93,1516,2.6,3.61,,14.06,1.25,84.4,,16.3,5,,,,,,,,,,,,0,0,0,0,0,0,0,0,0,0,0,0,0,0,0,0,,,,,0.0,,,,,,
2191289,1745077464563,,,,,,,,,,,,,,,,,,,,,,,0,0,0,0,0.0,0.0,0.0,0.0,2.27,,,0,0,0,0,0,0,0,0,0,0,0,0,0,0,0,0,0,,,,,39.239586,-77.9646,0.08,29,2,0.8
2191309,1745077464583,0.0,182.38,,-0.09,-0.05,1.04,-0,-0,0,1.05,1.12,94,1383,2.6,3.62,,14.06,1.25,84.4,,14.9,5,,,,,,,,,,,,0,0,0,0,0,0,0,0,0,0,0,0,0,0,0,0,,,,,0.0,,,,,,
2191329,1745077464603,,,,,,,,,,,,,,,,,,,,,,,,,,,,,,,,,,0,0,0,0,0,0,0,0,0,0,0,0,0,0,0,0,,,,,,,,,,,
2191349,1745077464623,0.0,182.38,,-0.11,-0.05,1.05,-0,-0,0,1.06,1.12,95,1383,2.6,3.62,,14.06,1.252,84.4,,14.9,5,,,,,,,,,,,,0,0,0,0,0,0,0,0,0,0,0,0,0,0,0,0,,,,,0.0,,,,,,
2191369,1745077464643,,,,,,,,,,,,,,,,,,,,,,,,,,,,,,,,,,0,0,0,0,0,0,0,0,0,0,0,0,0,0,0,0,,,,,,,,,,,
2191389,1745077464663,0.0,182.38,13.49,-0.11,-0.04,1.06,-0,-0,0,1.07,1.12,96,1483,2.6,3.6,15,14.07,1.252,84.4,138,15.6,5,0,0,0,0,0.0,0.0,0.0,0.0,2.26,0,0.0,0,0,0,0,0,0,0,0,0,0,0,0,0,0,0,0,0,0.0,0,-0,0.0,39.239586,-77.9646,0.08,29,2,0.8
2191409,1745077464683,,,,,,,,,,,,,,,,,,,,,,,,,,,,,,,,,,0,0,0,0,0,0,0,0,0,0,0,0,0,0,0,0,,,,,,,,,,,
2191429,1745077464703,0.0,182.5,,-0.13,-0.03,1.06,-0,-0,0,1.07,1.12,96,1543,2.7,3.61,,14.0,1.253,84.4,,15.6,5,,,,,,,,,,,,0,0,0,0,0,0,0,0,0,0,0,0,0,0,0,0,,,,,0.0,,,,,,
2191449,1745077464723,,,,,,,,,,,,,,,,,,,,,,,,,,,,,,,,,,0,0,0,0,0,0,0,0,0,0,0,0,0,0,0,0,,,,,,,,,,,
2191469,1745077464743,0.0,182.38,,-0.14,-0.04,1.06,-0,0,0,1.07,1.12,96,1468,2.8,3.61,,14.14,1.253,84.4,,15.6,5,,,,,,,,,,,,0,0,0,0,0,0,0,0,0,0,0,0,0,0,0,0,,,,,0.0,,,,,,
2191489,1745077464763,,,,,,,,,,,,,,,,,,,,,,,0,0,0,0,0.0,0.0,0.0,0.0,2.26,,,0,0,0,0,0,0,0,0,0,0,0,0,0,0,0,0,0,,,,,39.239586,-77.9646,0.04,29,2,0.8
2191509,1745077464783,0.0,182.38,,-0.14,-0.01,1.04,-0,0,0,1.05,1.12,94,1807,2.8,3.6,,14.14,1.253,84.4,,16.4,5,,,,,,,,,,,,0,0,0,0,0,0,0,0,0,0,0,0,0,0,0,0,,,,,0.0,,,,,,
2191529,1745077464805,,,,,,,,,,,,,,,,,,,,,,,,,,,,,,,,,,0,0,0,0,0,0,0,0,0,0,0,0,0,0,0,0,,,,,,,,,,,
2191549,1745077464825,0.0,182.38,,-0.14,-0.02,1.03,0,-0,-0,1.03,1.12,93,1807,2.8,3.6,,13.98,1.251,84.4,,16.4,5,,,,,,,,,,,,0,0,0,0,0,0,0,0,0,0,0,0,0,0,0,0,,,,,0.0,,,,,,
2191569,1745077464845,,,,,,,,,,,,,,,,,,,,,,,,,,,,,,,,,,0,0,0,0,0,0,0,0,0,0,0,0,0,0,0,0,,,,,,,,,,,
2191589,1745077464865,0.0,182.38,,-0.13,-0.03,1.02,0,-0,-0,1.03,1.12,92,2014,2.8,3.58,,13.83,1.25,84.4,,20.4,5,0,0,0,0,0.0,0.0,0.0,0.0,2.27,,,0,0,0,0,0,0,0,0,0,0,0,0,0,0,0,0,0,,,,0.0,39.239586,-77.9646,0.0,29,2,0.8
2191609,1745077464885,,,,,,,,,,,,,,,,,,,,,,,,,,,,,,,,,,0,0,0,0,0,0,0,0,0,0,0,0,0,0,0,0,,,,,,,,,,,
2191629,1745077464905,0.0,182.38,,-0.12,-0.04,1.0,0,-0,-0,1.01,1.12,90,2099,2.7,3.58,,13.8,1.249,84.4,,20.4,5,,,,,,,,,,,,0,0,0,0,0,0,0,0,0,0,0,0,0,0,0,0,,,,,0.0,,,,,,
2191649,1745077464925,,,,,,,,,,,,,,,,,,,,,,,,,,,,,,,,,,0,0,0,0,0,0,0,0,0,0,0,0,0,0,0,0,,,,,,,,,,,
2191669,1745077464945,0.0,182.38,,-0.11,-0.06,0.99,0,-0,-0,0.99,1.12,89,2058,2.6,3.59,,13.84,1.249,84.4,,20.4,5,,,,,,,,,,,,0,0,0,0,0,0,0,0,0,0,0,0,0,0,0,0,,,,,0.0,,,,,,
2191689,1745077464965,,,,,,,,,,,,,,,,,,,,,,,0,0,0,0,0.0,0.0,0.0,0.0,2.26,,,0,0,0,0,0,0,0,0,0,0,0,0,0,0,0,0,0,,,,,39.239586,-77.9646,0.04,29,2,0.8
2191709,1745077464985,0.0,182.38,,-0.1,-0.08,0.99,0,-0,-0,1.0,1.12,90,1982,2.7,3.57,,13.84,1.249,84.4,,20.3,5,,,,,,,,,,,,0,0,0,0,0,0,0,0,0,0,0,0,0,0,0,0,,,,,0.0,,,,,,
2191729,1745077465005,,,,,,,,,,,,,,,,,,,,,,,,,,,,,,,,,,0,0,0,0,0,0,0,0,0,0,0,0,0,0,0,0,,,,,,,,,,,
2191749,1745077465015,0.0,182.38,,-0.09,-0.07,0.98,0,-0,-0,0.99,1.12,88,1982,2.7,3.57,,13.88,1.249,84.4,,20.3,5,,,,,,,,,,,,0,0,0,0,0,0,0,0,0,0,0,0,0,0,0,0,,,,,0.0,,,,,,
2191769,1745077465035,,,,,,,,,,,,,,,,,,,,,,,,,,,,,,,,,,0,0,0,0,0,0,0,0,0,0,0,0,0,0,0,0,,,,,,,,,,,
2191789,1745077465055,0.0,182.38,,-0.09,-0.07,1.0,0,-0,-0,1.0,1.12,90,1817,2.6,3.58,,13.91,1.25,84.4,,19.8,5,0,0,0,0,0.0,0.0,0.0,0.0,2.26,,,0,0,0,0,0,0,0,0,0,0,0,0,0,0,0,0,0,,,,0.0,39.239586,-77.9646,0.0,29,2,0.8
2191809,1745077465075,,,,,,,,,,,,,,,,,,,,,,,,,,,,,,,,,,0,0,0,0,0,0,0,0,0,0,0,0,0,0,0,0,,,,,,,,,,,
2191829,1745077465102,0.0,182.38,,-0.1,-0.08,0.99,0,-0,-0,1.0,1.12,89,1890,2.6,3.6,,13.82,1.248,84.4,,19.8,5,,,,,,,,,,,,0,0,0,0,0,0,0,0,0,0,0,0,0,0,0,0,,,,,0.0,,,,,,
2191849,1745077465122,,,,,,,,,,,,,,,,,,,,,,,,,,,,,,,,,,0,0,0,0,0,0,0,0,0,0,0,0,0,0,0,0,,,,,,,,,,,
2191869,1745077465142,0.0,182.25,,-0.08,-0.07,1.0,0,-0,-0,1.01,1.12,90,1911,2.7,3.59,,13.86,1.25,84.4,,19.8,5,,,,,,,,,,,,0,0,0,0,0,0,0,0,0,0,0,0,0,0,0,0,,,,,0.0,,,,,,
2191889,1745077465162,,,,,,,,,,,,,,,,,,,,,,,0,0,0,0,0.0,0.0,0.0,0.0,2.26,,,0,0,0,0,0,0,0,0,0,0,0,0,0,0,0,0,0,,,,,39.239586,-77.9646,0.05,29,2,0.8
2191909,1745077465182,0.0,182.25,,-0.09,-0.07,1.01,0,-0,-0,1.01,1.12,91,1882,2.8,3.6,,13.86,1.25,84.4,,18.7,5,,,,,,,,,,,,0,0,0,0,0,0,0,0,0,0,0,0,0,0,0,0,,,,,0.0,,,,,,
2191929,1745077465203,,,,,,,,,,,,,,,,,,,,,,,,,,,,,,,,,,0,0,0,0,0,0,0,0,0,0,0,0,0,0,0,0,,,,,,,,,,,
2191949,1745077465223,0.0,182.25,,-0.07,-0.08,1.0,0,-0,0,1.01,1.12,90,1882,2.8,3.6,,13.91,1.252,84.4,,18.7,5,,,,,,,,,,,,0,0,0,0,0,0,0,0,0,0,0,0,0,0,0,0,,,,,0.0,,,,,,
2191969,1745077465243,,,,,,,,,,,,,,,,,,,,,,,,,,,,,,,,,,0,0,0,0,0,0,0,0,0,0,0,0,0,0,0,0,,,,,,,,,,,
2191989,1745077465263,0.0,182.25,,-0.07,-0.07,1.0,0,-0,-0,1.0,1.12,90,1806,2.9,3.57,,13.96,1.253,84.4,,19.1,5,0,0,0,0,0.0,0.0,0.0,0.0,2.26,,,0,0,0,0,0,0,0,0,0,0,0,0,0,0,0,0,0,,,,0.0,39.239586,-77.9646,0.07,29,2,0.8
2192009,1745077465283,,,,,,,,,,,,,,,,,,,,,,,,,,,,,,,,,,0,0,0,0,0,0,0,0,0,0,0,0,0,0,0,0,,,,,,,,,,,
2192029,1745077465305,0.0,182.25,,-0.07,-0.05,0.99,0,-0,0,1.0,1.12,89,1760,2.9,3.61,,13.91,1.251,84.4,,19.1,5,,,,,,,,,,,,0,0,0,0,0,0,0,0,0,0,0,0,0,0,0,0,,,,,0.0,,,,,,
2192049,1745077465325,,,,,,,,,,,,,,,,,,,,,,,,,,,,,,,,,,0,0,0,0,0,0,0,0,0,0,0,0,0,0,0,0,,,,,,,,,,,
2192069,1745077465345,0.0,182.25,,-0.07,-0.06,1.01,0,-0,0,1.02,1.12,91,1850,2.8,3.61,,13.91,1.25,84.4,,19.1,5,,,,,,,,,,,,0,0,0,0,0,0,0,0,0,0,0,0,0,0,0,0,,,,,0.0,,,,,,
2192089,1745077465365,,,,,,,,,,,,,,,,,,,,,,,0,0,0,0,0.0,0.0,0.0,0.0,2.26,,,0,0,0,0,0,0,0,0,0,0,0,0,0,0,0,0,0,,,,,39.239586,-77.9646,0.05,29,2,0.8
2192109,1745077465385,0.0,182.25,,-0.09,-0.06,1.01,0,-0,-0,1.01,1.12,91,1770,2.7,3.57,,13.91,1.25,84.4,,18.2,5,,,,,,,,,,,,0,0,0,0,0,0,0,0,0,0,0,0,0,0,0,0,,,,,0.0,,,,,,
2192129,1745077465402,,,,,,,,,,,,,,,,,,,,,,,,,,,,,,,,,,0,0,0,0,0,0,0,0,0,0,0,0,0,0,0,0,,,,,,,,,,,
2192149,1745077465422,0.0,182.25,,-0.1,-0.04,1.0,0,-0,-0,1.0,1.12,90,1770,2.7,3.57,,13.91,1.249,84.4,,18.2,5,,,,,,,,,,,,0,0,0,0,0,0,0,0,0,0,0,0,0,0,0,0,,,,,0.0,,,,,,
2192169,1745077465442,,,,,,,,,,,,,,,,,,,,,,,,,,,,,,,,,,0,0,0,0,0,0,0,0,0,0,0,0,0,0,0,0,,,,,,,,,,,
2192189,1745077465462,0.0,182.25,,-0.11,-0.03,0.98,0,-0,-0,0.99,1.12,89,1409,2.7,3.62,,14.08,1.249,84.4,,17.4,5,0,0,0,0,0.0,0.0,0.0,0.0,2.27,,,0,0,0,0,0,0,0,0,0,0,0,0,0,0,0,0,0,,,,0.0,39.239586,-77.9646,0.04,29,2,0.8
2192209,1745077465482,,,,,,,,,,,,,,,,,,,,,,,,,,,,,,,,,,0,0,0,0,0,0,0,0,0,0,0,0,0,0,0,0,,,,,,,,,,,
2192229,1745077465502,0.0,182.25,,-0.09,-0.04,0.98,0,-0,-0,0.98,1.12,88,1791,2.7,3.63,,13.96,1.249,84.4,,17.4,5,,,,,,,,,,,,0,0,0,0,0,0,0,0,0,0,0,0,0,0,0,0,,,,,0.0,,,,,,
2192249,1745077465522,,,,,,,,,,,,,,,,,,,,,,,,,,,,,,,,,,0,0,0,0,0,0,0,0,0,0,0,0,0,0,0,0,,,,,,,,,,,
2192269,1745077465542,0.0,182.25,,-0.09,-0.04,0.98,0,-0,-0,0.98,1.12,88,1822,2.7,3.6,,13.98,1.25,84.4,,17.4,5,,,,,,,,,,,,0,0,0,0,0,0,0,0,0,0,0,0,0,0,0,0,,,,,0.0,,,,,,
2192289,1745077465562,,,,,,,,,,,,,,,,,,,,,,,0,0,0,0,0.0,0.0,0.0,0.0,2.27,,,0,0,0,0,0,0,0,0,0,0,0,0,0,0,0,0,0,,,,,39.239586,-77.9646,0.04,29,2,0.8
2192309,1745077465582,0.0,182.25,,-0.08,-0.05,0.98,0,-0,-0,0.98,1.12,88,1790,2.7,3.6,,13.98,1.25,84.4,,18.3,5,,,,,,,,,,,,0,0,0,0,0,0,0,0,0,0,0,0,0,0,0,0,,,,,0.0,,,,,,
2192329,1745077465604,,,,,,,,,,,,,,,,,,,,,,,,,,,,,,,,,,0,0,0,0,0,0,0,0,0,0,0,0,0,0,0,0,,,,,,,,,,,
2192349,1745077465624,0.0,182.25,,-0.09,-0.05,0.99,0,-0,-0,0.99,1.12,89,1790,2.7,3.6,,14.03,1.252,84.4,,18.3,5,,,,,,,,,,,,0,0,0,0,0,0,0,0,0,0,0,0,0,0,0,0,,,,,0.0,,,,,,
2192369,1745077465644,,,,,,,,,,,,,,,,,,,,,,,,,,,,,,,,,,0,0,0,0,0,0,0,0,0,0,0,0,0,0,0,0,,,,,,,,,,,
2192389,1745077465664,0.0,182.13,13.55,-0.09,-0.05,0.98,0,-0,-0,0.98,1.12,88,1824,2.7,3.57,15,13.99,1.253,84.4,138,19.1,5,0,0,0,0,0.0,0.0,0.0,0.0,2.26,0,0.0,0,0,0,0,0,0,0,0,0,0,0,0,0,0,0,0,0,0.0,0,-0,0.0,39.239586,-77.9646,0.04,29,2,0.8
2192409,1745077465684,,,,,,,,,,,,,,,,,,,,,,,,,,,,,,,,,,0,0,0,0,0,0,0,0,0,0,0,0,0,0,0,0,,,,,,,,,,,
2192429,1745077465704,0.0,182.25,,-0.09,-0.04,1.0,0,-0,0,1.0,1.12,90,1893,2.7,3.59,,13.87,1.253,84.4,,19.1,5,,,,,,,,,,,,0,0,0,0,0,0,0,0,0,0,0,0,0,0,0,0,,,,,0.0,,,,,,
2192449,1745077465724,,,,,,,,,,,,,,,,,,,,,,,,,,,,,,,,,,0,0,0,0,0,0,0,0,0,0,0,0,0,0,0,0,,,,,,,,,,,
2192469,1745077465744,0.0,182.13,,-0.08,-0.05,0.99,0,-0,0,0.99,1.12,89,1906,2.8,3.59,,13.86,1.252,84.4,,19.1,5,,,,,,,,,,,,0,0,0,0,0,0,0,0,0,0,0,0,0,0,0,0,,,,,0.0,,,,,,
2192489,1745077465764,,,,,,,,,,,,,,,,,,,,,,,0,0,0,0,0.0,0.0,0.0,0.0,2.26,,,0,0,0,0,0,0,0,0,0,0,0,0,0,0,0,0,0,,,,,39.239586,-77.9646,0.04,29,2,0.8
2192509,1745077465784,0.0,182.25,,-0.08,-0.05,0.99,0,-0,0,1.0,1.12,89,1836,2.9,3.57,,13.86,1.252,84.4,,18.8,5,,,,,,,,,,,,0,0,0,0,0,0,0,0,0,0,0,0,0,0,0,0,,,,,0.0,,,,,,
2192529,1745077465804,,,,,,,,,,,,,,,,,,,,,,,,,,,,,,,,,,0,0,0,0,0,0,0,0,0,0,0,0,0,0,0,0,,,,,,,,,,,
2192549,1745077465824,0.0,182.13,,-0.08,-0.05,0.98,0,-0,0,0.98,1.12,88,1836,2.9,3.57,,13.9,1.251,84.4,,18.8,5,,,,,,,,,,,,0,0,0,0,0,0,0,0,0,0,0,0,0,0,0,0,,,,,0.0,,,,,,
2192569,1745077465844,,,,,,,,,,,,,,,,,,,,,,,,,,,,,,,,,,0,0,0,0,0,0,0,0,0,0,0,0,0,0,0,0,,,,,,,,,,,
2192589,1745077465864,0.0,182.13,,-0.08,-0.06,1.0,0,-0,0,1.0,1.12,90,1792,2.9,3.57,,13.92,1.249,84.4,,19.0,5,0,0,0,0,0.0,0.0,0.0,0.0,2.26,,,0,0,0,0,0,0,0,0,0,0,0,0,0,0,0,0,0,,,,0.0,39.239586,-77.9646,0.04,29,2,0.8
2192609,1745077465884,,,,,,,,,,,,,,,,,,,,,,,,,,,,,,,,,,0,0,0,0,0,0,0,0,0,0,0,0,0,0,0,0,,,,,,,,,,,
2192629,1745077465906,0.0,182.13,,-0.09,-0.04,0.98,0,-0,-0,0.98,1.12,88,1828,2.7,3.6,,13.86,1.249,84.4,,19.0,5,,,,,,,,,,,,0,0,0,0,0,0,0,0,0,0,0,0,0,0,0,0,,,,,0.0,,,,,,
2192649,1745077465926,,,,,,,,,,,,,,,,,,,,,,,,,,,,,,,,,,0,0,0,0,0,0,0,0,0,0,0,0,0,0,0,0,,,,,,,,,,,
2192669,1745077465946,0.0,182.13,,-0.08,-0.04,0.99,0,-0,0,1.0,1.12,89,1874,2.7,3.6,,13.87,1.249,84.4,,19.0,5,,,,,,,,,,,,0,0,0,0,0,0,0,0,0,0,0,0,0,0,0,0,,,,,0.0,,,,,,
2192689,1745077465966,,,,,,,,,,,,,,,,,,,,,,,0,0,0,0,0.0,0.0,0.0,0.0,2.26,,,0,0,0,0,0,0,0,0,0,0,0,0,0,0,0,0,0,,,,,39.239586,-77.9646,0.0,29,2,0.8
2192709,1745077465986,0.0,182.13,,-0.08,-0.04,1.0,0,-0,0,1.0,1.12,90,1878,2.7,3.6,,13.87,1.249,84.4,,18.5,5,,,,,,,,,,,,0,0,0,0,0,0,0,0,0,0,0,0,0,0,0,0,,,,,0.0,,,,,,
2192729,1745077466006,,,,,,,,,,,,,,,,,,,,,,,,,,,,,,,,,,0,0,0,0,0,0,0,0,0,0,0,0,0,0,0,0,,,,,,,,,,,
2192749,1745077466016,0.0,182.13,,-0.07,-0.05,0.99,0,-0,0,1.0,1.12,90,1878,2.7,3.6,,13.91,1.249,84.4,,18.5,5,,,,,,,,,,,,0,0,0,0,0,0,0,0,0,0,0,0,0,0,0,0,,,,,0.0,,,,,,
2192769,1745077466036,,,,,,,,,,,,,,,,,,,,,,,,,,,,,,,,,,0,0,0,0,0,0,0,0,0,0,0,0,0,0,0,0,,,,,,,,,,,
2192789,1745077466056,0.0,182.0,,-0.07,-0.04,0.99,0,-0,0,1.0,1.12,89,1813,2.7,3.59,,13.98,1.25,84.4,,19.2,5,0,0,0,0,0.0,0.0,0.0,0.0,2.26,,,0,0,0,0,0,0,0,0,0,0,0,0,0,0,0,0,0,,,,0.0,39.239586,-77.9646,0.04,29,2,0.8
2192809,1745077466076,,,,,,,,,,,,,,,,,,,,,,,,,,,,,,,,,,0,0,0,0,0,0,0,0,0,0,0,0,0,0,0,0,,,,,,,,,,,
2192829,1745077466104,0.0,182.0,,-0.06,-0.05,0.99,0,-0,-0,0.99,1.12,89,2011,2.7,3.58,,13.9,1.252,84.4,,19.2,5,,,,,,,,,,,,0,0,0,0,0,0,0,0,0,0,0,0,0,0,0,0,,,,,0.0,,,,,,
2192849,1745077466124,,,,,,,,,,,,,,,,,,,,,,,,,,,,,,,,,,0,0,0,0,0,0,0,0,0,0,0,0,0,0,0,0,,,,,,,,,,,
2192869,1745077466144,0.0,182.0,,-0.05,-0.05,0.98,0,-0,-0,0.99,1.12,89,2120,2.7,3.55,,13.76,1.253,84.4,,19.2,5,,,,,,,,,,,,0,0,0,0,0,0,0,0,0,0,0,0,0,0,0,0,,,,,0.0,,,,,,
2192889,1745077466164,,,,,,,,,,,,,,,,,,,,,,,0,0,0,0,0.0,0.0,0.0,0.0,2.26,,,0,0,0,0,0,0,0,0,0,0,0,0,0,0,0,0,0,,,,,39.239586,-77.9646,0.08,29,2,0.8
2192909,1745077466184,0.0,182.0,,-0.04,-0.08,0.99,0,-0,0,1.0,1.12,89,2237,2.8,3.57,,13.76,1.253,84.4,,22.2,5,,,,,,,,,,,,0,0,0,0,0,0,0,0,0,0,0,0,0,0,0,0,,,,,0.0,,,,,,
2192929,1745077466204,,,,,,,,,,,,,,,,,,,,,,,,,,,,,,,,,,0,0,0,0,0,0,0,0,0,0,0,0,0,0,0,0,,,,,,,,,,,
2192949,1745077466224,0.0,182.0,,-0.05,-0.07,1.0,0,-0,0,1.0,1.12,90,2237,2.8,3.57,,13.71,1.253,84.4,,22.2,5,,,,,,,,,,,,0,0,0,0,0,0,0,0,0,0,0,0,0,0,0,0,,,,,0.0,,,,,,
2192969,1745077466244,,,,,,,,,,,,,,,,,,,,,,,,,,,,,,,,,,0,0,0,0,0,0,0,0,0,0,0,0,0,0,0,0,,,,,,,,,,,
2192989,1745077466264,0.0,182.0,,-0.06,-0.06,1.01,0,-0,0,1.01,1.12,91,2247,2.9,3.56,,13.72,1.253,84.4,,22.6,5,0,0,0,0,0.0,0.0,0.0,0.0,2.26,,,0,0,0,0,0,0,0,0,0,0,0,0,0,0,0,0,0,,,,0.0,39.239586,-77.9646,0.05,29,2,0.8
2193009,1745077466284,,,,,,,,,,,,,,,,,,,,,,,,,,,,,,,,,,0,0,0,0,0,0,0,0,0,0,0,0,0,0,0,0,,,,,,,,,,,
2193029,1745077466304,0.0,182.0,,-0.06,-0.05,1.0,0,-0,0,1.01,1.12,90,2291,2.9,3.54,,13.68,1.252,84.4,,22.6,5,,,,,,,,,,,,0,0,0,0,0,0,0,0,0,0,0,0,0,0,0,0,,,,,0.0,,,,,,
2193049,1745077466324,,,,,,,,,,,,,,,,,,,,,,,,,,,,,,,,,,0,0,0,0,0,0,0,0,0,0,0,0,0,0,0,0,,,,,,,,,,,
2193069,1745077466344,0.0,181.88,,-0.06,-0.04,0.99,0,-0,0,0.99,1.12,89,2291,2.9,3.57,,13.65,1.25,84.4,,22.6,5,,,,,,,,,,,,0,0,0,0,0,0,0,0,0,0,0,0,0,0,0,0,,,,,0.0,,,,,,
2193089,1745077466364,,,,,,,,,,,,,,,,,,,,,,,0,0,0,0,0.0,0.0,0.0,0.0,2.26,,,0,0,0,0,0,0,0,0,0,0,0,0,0,0,0,0,0,,,,,39.239586,-77.9646,0.04,29,2,0.8
2193109,1745077466384,0.0,182.0,,-0.06,-0.03,0.99,-0,-0,0,0.99,1.12,89,2293,2.8,3.56,,13.65,1.25,84.4,,22.9,5,,,,,,,,,,,,0,0,0,0,0,0,0,0,0,0,0,0,0,0,0,0,,,,,0.0,,,,,,
2193129,1745077466405,,,,,,,,,,,,,,,,,,,,,,,,,,,,,,,,,,0,0,0,0,0,0,0,0,0,0,0,0,0,0,0,0,,,,,,,,,,,
2193149,1745077466425,0.0,182.0,,-0.07,-0.02,1.01,-0,-0,0,1.01,1.12,90,2293,2.8,3.56,,13.68,1.25,84.4,,22.9,5,,,,,,,,,,,,0,0,0,0,0,0,0,0,0,0,0,0,0,0,0,0,,,,,0.0,,,,,,
2193169,1745077466445,,,,,,,,,,,,,,,,,,,,,,,,,,,,,,,,,,0,0,0,0,0,0,0,0,0,0,0,0,0,0,0,0,,,,,,,,,,,
2193189,1745077466465,0.0,182.0,,-0.07,-0.02,1.0,0,-0,0,1.0,1.12,90,2270,2.7,3.56,,13.72,1.25,84.4,,22.7,5,0,0,0,0,0.0,0.0,0.0,0.0,2.27,,,0,0,0,0,0,0,0,0,0,0,0,0,0,0,0,0,0,,,,0.0,39.239586,-77.9646,0.04,29,2,0.8
2193209,1745077466485,,,,,,,,,,,,,,,,,,,,,,,,,,,,,,,,,,0,0,0,0,0,0,0,0,0,0,0,0,0,0,0,0,,,,,,,,,,,
2193229,1745077466503,0.0,182.0,,-0.06,-0.02,0.99,-0,-0,0,0.99,1.12,89,2289,2.7,3.56,,13.69,1.249,84.4,,22.7,5,,,,,,,,,,,,0,0,0,0,0,0,0,0,0,0,0,0,0,0,0,0,,,,,0.0,,,,,,
2193249,1745077466523,,,,,,,,,,,,,,,,,,,,,,,,,,,,,,,,,,0,0,0,0,0,0,0,0,0,0,0,0,0,0,0,0,,,,,,,,,,,
2193269,1745077466543,0.0,182.0,,-0.06,-0.0,0.99,-0,-0,0,0.99,1.12,89,2227,2.7,3.54,,13.69,1.251,84.4,,22.7,5,,,,,,,,,,,,0,0,0,0,0,0,0,0,0,0,0,0,0,0,0,0,,,,,0.0,,,,,,
2193289,1745077466563,,,,,,,,,,,,,,,,,,,,,,,0,0,0,0,0.0,0.0,0.0,0.0,2.27,,,0,0,0,0,0,0,0,0,0,0,0,0,0,0,0,0,0,,,,,39.239586,-77.9646,0.04,29,2,0.8
2193309,1745077466583,0.0,182.0,,-0.07,0.0,1.0,-0,-0,0,1.0,1.12,90,2256,2.7,3.54,,13.69,1.251,84.4,,23.4,5,,,,,,,,,,,,0,0,0,0,0,0,0,0,0,0,0,0,0,0,0,0,,,,,0.0,,,,,,
2193329,1745077466605,,,,,,,,,,,,,,,,,,,,,,,,,,,,,,,,,,0,0,0,0,0,0,0,0,0,0,0,0,0,0,0,0,,,,,,,,,,,
2193349,1745077466625,0.0,181.88,,-0.06,0.01,1.0,-0,-0,0,1.0,1.12,89,2256,2.7,3.54,,13.68,1.252,84.4,,23.4,5,,,,,,,,,,,,0,0,0,0,0,0,0,0,0,0,0,0,0,0,0,0,,,,,0.0,,,,,,
2193369,1745077466645,,,,,,,,,,,,,,,,,,,,,,,,,,,,,,,,,,0,0,0,0,0,0,0,0,0,0,0,0,0,0,0,0,,,,,,,,,,,
2193389,1745077466665,0.0,182.0,13.55,-0.06,-0.02,1.0,-0,-0,0,1.0,1.12,90,2298,2.7,3.53,15,13.72,1.253,84.4,138,23.4,5,0,0,0,0,0.0,0.0,0.0,0.0,2.26,0,0.0,0,0,0,0,0,0,0,0,0,0,0,0,0,0,0,0,0,0.0,0,-0,0.0,39.239586,-77.9646,0.0,29,2,0.8
2193409,1745077466685,,,,,,,,,,,,,,,,,,,,,,,,,,,,,,,,,,0,0,0,0,0,0,0,0,0,0,0,0,0,0,0,0,,,,,,,,,,,
2193429,1745077466705,0.0,182.0,,-0.06,-0.04,1.0,0,-0,0,1.01,1.12,90,2202,2.9,3.54,,13.77,1.252,84.4,,23.4,5,,,,,,,,,,,,0,0,0,0,0,0,0,0,0,0,0,0,0,0,0,0,,,,,0.0,,,,,,
2193449,1745077466725,,,,,,,,,,,,,,,,,,,,,,,,,,,,,,,,,,0,0,0,0,0,0,0,0,0,0,0,0,0,0,0,0,,,,,,,,,,,
2193469,1745077466745,0.0,181.88,,-0.08,-0.04,0.99,0,-0,0,0.99,1.12,89,2212,3.0,3.54,,13.72,1.253,84.4,,23.4,5,,,,,,,,,,,,0,0,0,0,0,0,0,0,0,0,0,0,0,0,0,0,,,,,0.0,,,,,,
2193489,1745077466765,,,,,,,,,,,,,,,,,,,,,,,0,0,0,0,0.0,0.0,0.0,0.0,2.26,,,0,0,0,0,0,0,0,0,0,0,0,0,0,0,0,0,0,,,,,39.239586,-77.9646,0.08,29,2,0.8
2193509,1745077466785,0.0,182.0,,-0.07,-0.04,0.98,0,-0,0,0.98,1.12,88,2245,3.0,3.54,,13.72,1.253,84.4,,23.5,5,,,,,,,,,,,,0,0,0,0,0,0,0,0,0,0,0,0,0,0,0,0,,,,,0.0,,,,,,
2193529,1745077466803,,,,,,,,,,,,,,,,,,,,,,,,,,,,,,,,,,0,0,0,0,0,0,0,0,0,0,0,0,0,0,0,0,,,,,,,,,,,
2193549,1745077466823,0.0,181.88,,-0.06,-0.05,0.99,0,-0,0,0.99,1.12,89,2245,3.0,3.54,,13.72,1.251,84.4,,23.5,5,,,,,,,,,,,,0,0,0,0,0,0,0,0,0,0,0,0,0,0,0,0,,,,,0.0,,,,,,
2193569,1745077466843,,,,,,,,,,,,,,,,,,,,,,,,,,,,,,,,,,0,0,0,0,0,0,0,0,0,0,0,0,0,0,0,0,,,,,,,,,,,
2193589,1745077466863,0.0,181.88,,-0.06,-0.07,0.98,0,-0,0,0.99,1.12,88,2233,6.6,3.66,,13.8,1.25,84.4,,24.0,5,0,0,0,0,0.0,0.0,0.0,0.0,2.26,,,0,0,0,0,0,0,0,0,0,0,0,0,0,0,0,0,0,,,,0.0,39.239586,-77.9646,0.05,29,2,0.8
2193609,1745077466883,,,,,,,,,,,,,,,,,,,,,,,,,,,,,,,,,,0,0,0,0,0,0,0,0,0,0,0,0,0,0,0,0,,,,,,,,,,,
2193629,1745077466905,0.0,181.88,,-0.07,-0.06,0.98,0,-0,0,0.98,1.12,88,2288,7.9,3.64,,13.9,1.25,84.4,,24.0,5,,,,,,,,,,,,0,0,0,0,0,0,0,0,0,0,0,0,0,0,0,0,,,,,0.0,,,,,,
2193649,1745077466925,,,,,,,,,,,,,,,,,,,,,,,,,,,,,,,,,,0,0,0,0,0,0,0,0,0,0,0,0,0,0,0,0,,,,,,,,,,,
2193669,1745077466945,0.0,181.88,,-0.07,-0.08,1.0,0,-0,0,1.0,1.12,90,2378,8.3,3.67,,13.87,1.251,84.4,,24.0,5,,,,,,,,,,,,0,0,0,0,0,0,0,0,0,0,0,0,0,0,0,0,,,,,0.0,,,,,,
2193689,1745077466965,,,,,,,,,,,,,,,,,,,,,,,0,0,0,0,0.0,0.0,0.0,0.0,2.26,,,0,0,0,0,0,0,0,0,0,0,0,0,0,0,0,0,0,,,,,39.239586,-77.9646,0.04,29,2,0.8
2193709,1745077466985,0.0,181.88,,-0.08,-0.1,0.99,0,-0,0,1.0,1.12,90,2444,8.5,3.7,,13.87,1.251,84.4,,25.6,5,,,,,,,,,,,,0,0,0,0,0,0,0,0,0,0,0,0,0,0,0,0,,,,,0.0,,,,,,
2193729,1745077467005,,,,,,,,,,,,,,,,,,,,,,,,,,,,,,,,,,0,0,0,0,0,0,0,0,0,0,0,0,0,0,0,0,,,,,,,,,,,
2193749,1745077467015,0.0,181.88,,-0.08,-0.09,0.99,0,-0,0,1.0,1.12,90,2444,8.5,3.7,,13.86,1.25,84.4,,25.6,5,,,,,,,,,,,,0,0,0,0,0,0,0,0,0,0,0,0,0,0,0,0,,,,,0.0,,,,,,
2193769,1745077467035,,,,,,,,,,,,,,,,,,,,,,,,,,,,,,,,,,0,0,0,0,0,0,0,0,0,0,0,0,0,0,0,0,,,,,,,,,,,
2193789,1745077467055,0.0,181.88,,-0.09,-0.08,1.01,0,-0,0,1.01,1.12,91,2417,8.6,3.7,,13.84,1.251,84.4,,26.3,5,0,0,0,0,0.0,0.0,0.0,0.0,2.27,,,0,0,0,0,0,0,0,0,0,0,0,0,0,0,0,0,0,,,,0.0,39.239586,-77.9646,0.04,29,2,0.8
2193809,1745077467075,,,,,,,,,,,,,,,,,,,,,,,,,,,,,,,,,,0,0,0,0,0,0,0,0,0,0,0,0,0,0,0,0,,,,,,,,,,,
2193829,1745077467103,0.0,182.0,,-0.08,-0.06,0.98,0,-0,0,0.99,1.12,88,2501,8.7,3.71,,13.8,1.252,84.4,,26.3,5,,,,,,,,,,,,0,0,0,0,0,0,0,0,0,0,0,0,0,0,0,0,,,,,0.0,,,,,,
2193849,1745077467123,,,,,,,,,,,,,,,,,,,,,,,,,,,,,,,,,,0,0,0,0,0,0,0,0,0,0,0,0,0,0,0,0,,,,,,,,,,,
2193869,1745077467143,0.0,181.88,,-0.08,-0.07,1.0,0,-0,0,1.0,1.12,90,2556,8.8,3.73,,13.77,1.253,84.4,,26.3,5,,,,,,,,,,,,0,0,0,0,0,0,0,0,0,0,0,0,0,0,0,0,,,,,0.0,,,,,,
2193889,1745077467163,,,,,,,,,,,,,,,,,,,,,,,0,0,0,0,0.0,0.0,0.0,0.0,2.26,,,0,0,0,0,0,0,0,0,0,0,0,0,0,0,0,0,0,,,,,39.239586,-77.9646,0.0,29,2,0.8
2193909,1745077467183,0.0,181.88,,-0.09,-0.06,0.99,0,-0,0,1.0,1.12,89,2575,8.9,3.74,,13.77,1.253,84.4,,27.4,5,,,,,,,,,,,,0,0,0,0,0,0,0,0,0,0,0,0,0,0,0,0,,,,,0.0,,,,,,
2193929,1745077467205,,,,,,,,,,,,,,,,,,,,,,,,,,,,,,,,,,0,0,0,0,0,0,0,0,0,0,0,0,0,0,0,0,,,,,,,,,,,
2193949,1745077467225,0.0,181.88,,-0.08,-0.05,1.0,0,-0,0,1.0,1.12,90,2575,8.9,3.74,,13.73,1.252,84.4,,27.4,5,,,,,,,,,,,,0,0,0,0,0,0,0,0,0,0,0,0,0,0,0,0,,,,,0.0,,,,,,
2193969,1745077467245,,,,,,,,,,,,,,,,,,,,,,,,,,,,,,,,,,0,0,0,0,0,0,0,0,0,0,0,0,0,0,0,0,,,,,,,,,,,
2193989,1745077467265,0.0,181.88,,-0.08,-0.04,0.97,0,-0,0,0.97,1.12,87,2711,9.0,3.74,,13.67,1.253,84.4,,27.9,5,0,0,0,0,0.0,0.0,0.0,0.0,2.26,,,0,0,0,0,0,0,0,0,0,0,0,0,0,0,0,0,0,,,,0.0,39.239586,-77.9646,0.0,29,2,0.8
2194009,1745077467285,,,,,,,,,,,,,,,,,,,,,,,,,,,,,,,,,,0,0,0,0,0,0,0,0,0,0,0,0,0,0,0,0,,,,,,,,,,,
2194029,1745077467305,0.0,182.0,,-0.08,-0.06,0.99,0,-0,0,0.99,1.12,89,2711,9.0,3.75,,13.68,1.251,84.4,,27.9,5,,,,,,,,,,,,0,0,0,0,0,0,0,0,0,0,0,0,0,0,0,0,,,,,0.0,,,,,,
2194049,1745077467325,,,,,,,,,,,,,,,,,,,,,,,,,,,,,,,,,,0,0,0,0,0,0,0,0,0,0,0,0,0,0,0,0,,,,,,,,,,,
2194069,1745077467345,0.0,182.0,,-0.08,-0.03,0.96,0,-0,0,0.97,1.12,87,2720,9.7,3.75,,13.69,1.25,84.4,,27.9,5,,,,,,,,,,,,0,0,0,0,0,0,0,0,0,0,0,0,0,0,0,0,,,,,0.0,,,,,,
2194089,1745077467365,,,,,,,,,,,,,,,,,,,,,,,0,0,0,0,0.0,0.0,0.0,0.0,2.26,,,0,0,0,0,0,0,0,0,0,0,0,0,0,0,0,0,0,,,,,39.239586,-77.9646,0.05,29,2,0.8
2194109,1745077467385,0.0,182.0,,-0.07,-0.04,0.98,0,-0,0,0.99,1.12,88,2746,10.7,3.79,,13.69,1.25,84.4,,28.5,5,,,,,,,,,,,,0,0,0,0,0,0,0,0,0,0,0,0,0,0,0,0,,,,,0.0,,,,,,
2194129,1745077467404,,,,,,,,,,,,,,,,,,,,,,,,,,,,,,,,,,0,0,0,0,0,0,0,0,0,0,0,0,0,0,0,0,,,,,,,,,,,
2194149,1745077467424,0.0,182.0,,-0.08,-0.06,1.0,-0,-0,0,1.01,1.12,90,2746,10.7,3.79,,13.73,1.25,84.4,,28.5,5,,,,,,,,,,,,0,0,0,0,0,0,0,0,0,0,0,0,0,0,0,0,,,,,0.0,,,,,,
2194169,1745077467444,,,,,,,,,,,,,,,,,,,,,,,,,,,,,,,,,,0,0,0,0,0,0,0,0,0,0,0,0,0,0,0,0,,,,,,,,,,,
2194189,1745077467464,0.0,182.0,,-0.06,-0.03,0.95,0,-0,0,0.95,1.12,85,2699,11.2,3.84,,13.76,1.25,84.4,,29.6,5,0,0,0,0,0.0,0.0,0.0,0.0,2.26,,,0,0,0,0,0,0,0,0,0,0,0,0,0,0,0,0,0,,,,0.0,39.239586,-77.9646,0.08,29,2,0.8
2194209,1745077467484,,,,,,,,,,,,,,,,,,,,,,,,,,,,,,,,,,0,0,0,0,0,0,0,0,0,0,0,0,0,0,0,0,,,,,,,,,,,
2194229,1745077467505,0.0,182.13,,-0.07,-0.05,0.95,0,-0,-0,0.95,1.12,85,2785,11.4,3.86,,13.75,1.25,84.4,,29.6,5,,,,,,,,,,,,0,0,0,0,0,0,0,0,0,0,0,0,0,0,0,0,,,,,0.0,,,,,,
2194249,1745077467525,,,,,,,,,,,,,,,,,,,,,,,,,,,,,,,,,,0,0,0,0,0,0,0,0,0,0,0,0,0,0,0,0,,,,,,,,,,,
2194269,1745077467545,0.0,182.13,,-0.06,-0.09,1.01,0,-0,-0,1.01,1.12,91,2832,11.6,3.88,,13.77,1.25,84.4,,29.6,5,,,,,,,,,,,,0,0,0,0,0,0,0,0,0,0,0,0,0,0,0,0,,,,,0.0,,,,,,
