"Interval"|"ms"|0|0|1,"Utc"|"ms"|0|0|1,"FrontBP"|"psi"|-5.0|5.0|25,"SteerAng"|"Degrees"|-145.0|145.0|25,"Battery"|"Volts"|-5.0|20.0|1,"AccelX"|"G"|-3.0|3.0|25,"AccelY"|"G"|-3.0|3.0|25,"AccelZ"|"G"|-3.0|3.0|25,"Yaw"|"Deg/Sec"|-120|120|25,"Pitch"|"Deg/Sec"|-120|120|25,"Roll"|"Deg/Sec"|-120|120|25,"Gsum"|"G"|0.0|3.0|25,"GsumMax"|"G"|0.0|3.0|25,"GsumPct"|"%"|0|100|25,"RPM"|""|0|10000|25,"TPS"|"%"|0.0|100.0|25,"InjectorPW"|"ms"|0.0|100.0|25,"Baro"|"kPa"|0|105|1,"MAP"|"Psi"|0.0|255.0|25,"Lambda"|""|-2.0|2.0|25,"IAT"|"C"|0.0|200.0|25,"EngineTemp"|"C"|0|200|1,"EOP"|"PSI"|0.0|152.0|25,"EOT"|"F"|0|250|25,"WSFR"|"MPH"|0|150|10,"WSFL"|"MPH"|0|100|10,"WSRR"|"MPH"|0|100|10,"WSRL"|""|0|100|10,"TCSet"|"%"|0.0|100.0|10,"TCSlip"|"%"|0.0|100.0|10,"TCComp"|"deg"|0.0|50.0|10,"TCCut"|"%"|0.0|100.0|10,"Analog8"|""|0.0|5.0|10,"OilTemp"|"F"|0|300|1,"AA_On"|""|0.0|1.0|1,"ThermLF1"|"C"|0|400|50,"ThermLF2"|"C"|0|400|50,"ThermRR1"|"C"|0|400|50,"ThermRR2"|"C"|0|400|50,"ThermLF3"|"C"|0|400|50,"ThermLF4"|"C"|0|400|50,"ThermLF5"|"C"|0|400|50,"ThermLF6"|"C"|0|400|50,"ThermLF7"|"C"|0|400|50,"ThermLF8"|"C"|0|400|50,"ThermRR3"|"C"|0|400|50,"ThermRR4"|"C"|0|400|50,"ThermRR5"|"C"|0|400|50,"ThermRR6"|"C"|0|400|50,"ThermRR7"|"C"|0|400|50,"ThermRR8"|"C"|0|400|50,"Gear"|""|1|6|10,"AA_On"|""|0.0|1.0|1,"AA_LowDrag"|""|0|1|1,"Fuel_Mix"|""|-10|10|1,"AA_Packages"|""|0.0|1000.0|25,"Latitude"|"Degrees"|-180.0|180.0|10,"Longitude"|"Degrees"|-180.0|180.0|10,"Speed"|"kph"|0.0|150.0|10,"GPSSats"|""|0|20|10,"GPSQual"|""|0|5|10,"GPSDOP"|""|0.0|20.0|10
2335709,1745077608987,0.0,181.25,,-0.09,-0.05,0.96,1,-0,-0,0.97,0.97,100,3623,10.0,3.89,,13.24,1.212,82.6,,31.5,5,,,,,,,,,,,,0,0,0,0,0,0,0,0,0,0,0,0,0,0,0,0,,,,,0.0,,,,,,
2335729,1745077609007,,,,,,,,,,,,,,,,,,,,,,,,,,,,,,,,,,0,0,0,0,0,0,0,0,0,0,0,0,0,0,0,0,,,,,,,,,,,
2335749,1745077609019,0.0,181.5,,-0.08,-0.07,0.97,0,-0,-0,0.97,0.97,100,3755,10.2,3.88,,13.24,1.212,82.6,,31.5,5,,,,,,,,,,,,0,0,0,0,0,0,0,0,0,0,0,0,0,0,0,0,,,,,0.0,,,,,,
2335769,1745077609039,,,,,,,,,,,,,,,,,,,,,,,,,,,,,,,,,,0,0,0,0,0,0,0,0,0,0,0,0,0,0,0,0,,,,,,,,,,,
2335789,1745077609059,0.0,181.5,,-0.07,-0.06,0.98,-0,-0,0,0.98,0.98,100,3755,10.2,3.88,,13.19,1.238,82.6,,34.6,5,0,0,0,0,0.0,0.0,0.0,0.0,2.25,,,0,0,0,0,0,0,0,0,0,0,0,0,0,0,0,0,0,,,,0.0,39.240173,-77.965271,0.04,29,3,0.8
2335809,1745077609079,,,,,,,,,,,,,,,,,,,,,,,,,,,,,,,,,,0,0,0,0,0,0,0,0,0,0,0,0,0,0,0,0,,,,,,,,,,,
2335829,1745077609104,0.0,181.5,,-0.07,-0.0,1.08,-1,-0,1,1.08,1.08,100,3935,10.4,3.87,,13.07,1.251,82.6,,34.6,5,,,,,,,,,,,,0,0,0,0,0,0,0,0,0,0,0,0,0,0,0,0,,,,,0.0,,,,,,
2335849,1745077609124,,,,,,,,,,,,,,,,,,,,,,,,,,,,,,,,,,0,0,0,0,0,0,0,0,0,0,0,0,0,0,0,0,,,,,,,,,,,
2335869,1745077609144,0.0,181.5,,-0.07,-0.1,1.01,-0,-0,0,1.01,1.08,93,4028,10.5,3.85,,13.0,1.194,82.6,,34.6,5,,,,,,,,,,,,0,0,0,0,0,0,0,0,0,0,0,0,0,0,0,0,,,,,0.0,,,,,,
2335889,1745077609164,,,,,,,,,,,,,,,,,,,,,,,0,0,0,0,0.0,0.0,0.0,0.0,2.26,,,0,0,0,0,0,0,0,0,0,0,0,0,0,0,0,0,0,,,,,39.240173,-77.965271,0.07,29,3,0.8
2335909,1745077609184,0.0,181.5,,-0.04,-0.02,1.05,-0,-0,1,1.05,1.08,97,4017,10.5,3.85,,13.01,1.154,82.6,,36.0,5,,,,,,,,,,,,0,0,0,0,0,0,0,0,0,0,0,0,0,0,0,0,,,,,0.0,,,,,,
2335929,1745077609207,,,,,,,,,,,,,,,,,,,,,,,,,,,,,,,,,,0,0,0,0,0,0,0,0,0,0,0,0,0,0,0,0,,,,,,,,,,,
2335949,1745077609227,0.0,181.5,,-0.05,-0.09,1.03,-0,-0,0,1.03,1.08,95,4111,10.5,3.82,,13.01,1.154,82.6,,36.0,5,,,,,,,,,,,,0,0,0,0,0,0,0,0,0,0,0,0,0,0,0,0,,,,,0.0,,,,,,
2335969,1745077609247,,,,,,,,,,,,,,,,,,,,,,,,,,,,,,,,,,0,0,0,0,0,0,0,0,0,0,0,0,0,0,0,0,,,,,,,,,,,
2335989,1745077609267,0.0,181.5,,-0.03,-0.05,1.05,0,-0,0,1.05,1.08,97,4111,10.5,3.82,,12.87,1.182,82.6,,37.4,5,0,0,0,0,0.0,0.0,0.0,0.0,2.26,,,0,0,0,0,0,0,0,0,0,0,0,0,0,0,0,0,0,,,,0.0,39.240173,-77.965271,0.0,29,3,0.8
2336009,1745077609287,,,,,,,,,,,,,,,,,,,,,,,,,,,,,,,,,,0,0,0,0,0,0,0,0,0,0,0,0,0,0,0,0,,,,,,,,,,,
2336029,1745077609307,0.0,181.5,,-0.05,-0.1,1.02,-0,-0,0,1.03,1.08,95,4171,10.4,3.83,,12.87,1.207,82.6,,37.4,5,,,,,,,,,,,,0,0,0,0,0,0,0,0,0,0,0,0,0,0,0,0,,,,,0.0,,,,,,
2336049,1745077609327,,,,,,,,,,,,,,,,,,,,,,,,,,,,,,,,,,0,0,0,0,0,0,0,0,0,0,0,0,0,0,0,0,,,,,,,,,,,
2336069,1745077609347,0.0,181.5,,-0.05,0.02,1.1,-0,-0,1,1.1,1.1,100,4215,10.5,3.81,,12.84,1.221,82.6,,37.4,5,,,,,,,,,,,,0,0,0,0,0,0,0,0,0,0,0,0,0,0,0,0,,,,,0.0,,,,,,
2336089,1745077609367,,,,,,,,,,,,,,,,,,,,,,,0,0,0,0,0.0,0.0,0.0,0.0,2.26,,,0,0,0,0,0,0,0,0,0,0,0,0,0,0,0,0,0,,,,,39.240173,-77.965271,0.04,29,3,0.8
2336109,1745077609387,0.0,181.5,,-0.04,-0.08,0.98,0,-0,0,0.99,1.1,90,4197,10.5,3.8,,12.84,1.228,82.6,,38.5,5,,,,,,,,,,,,0,0,0,0,0,0,0,0,0,0,0,0,0,0,0,0,,,,,0.0,,,,,,
2336129,1745077609405,,,,,,,,,,,,,,,,,,,,,,,,,,,,,,,,,,0,0,0,0,0,0,0,0,0,0,0,0,0,0,0,0,,,,,,,,,,,
2336149,1745077609425,0.0,181.37,,-0.07,-0.05,1.02,-0,-0,0,1.02,1.1,93,4323,10.8,3.8,,12.84,1.228,82.6,,38.5,5,,,,,,,,,,,,0,0,0,0,0,0,0,0,0,0,0,0,0,0,0,0,,,,,0.0,,,,,,
2336169,1745077609445,,,,,,,,,,,,,,,,,,,,,,,,,,,,,,,,,,0,0,0,0,0,0,0,0,0,0,0,0,0,0,0,0,,,,,,,,,,,
2336189,1745077609465,0.0,181.37,,-0.09,0.06,1.14,-1,-0,1,1.15,1.15,100,4323,10.8,3.8,,12.88,1.25,82.6,,39.9,5,0,0,0,0,0.0,0.0,0.0,0.0,2.26,,,0,0,0,0,0,0,0,0,0,0,0,0,0,0,0,0,0,,,,0.0,39.240173,-77.965271,0.06,29,3,0.8
2336209,1745077609485,,,,,,,,,,,,,,,,,,,,,,,,,,,,,,,,,,0,0,0,0,0,0,0,0,0,0,0,0,0,0,0,0,,,,,,,,,,,
2336229,1745077609506,0.0,181.5,,-0.08,0.09,1.16,-1,-0,1,1.17,1.17,100,4403,11.2,3.78,,12.8,1.22,82.6,,39.9,5,,,,,,,,,,,,0,0,0,0,0,0,0,0,0,0,0,0,0,0,0,0,,,,,0.0,,,,,,
2336249,1745077609526,,,,,,,,,,,,,,,,,,,,,,,,,,,,,,,,,,0,0,0,0,0,0,0,0,0,0,0,0,0,0,0,0,,,,,,,,,,,
2336269,1745077609546,0.0,181.37,,-0.03,0.07,1.11,-0,-0,1,1.11,1.17,95,4413,11.6,3.77,,12.83,1.159,82.6,,39.9,5,,,,,,,,,,,,0,0,0,0,0,0,0,0,0,0,0,0,0,0,0,0,,,,,0.0,,,,,,
2336289,1745077609566,,,,,,,,,,,,,,,,,,,,,,,0,0,0,0,0.0,0.0,0.0,0.0,2.26,,,0,0,0,0,0,0,0,0,0,0,0,0,0,0,0,0,0,,,,,39.240173,-77.965271,0.04,29,3,0.8
2336309,1745077609586,0.0,181.37,,0.01,0.02,1.07,0,-0,0,1.07,1.17,91,4573,12.0,3.77,,12.83,1.159,82.6,,40.5,5,,,,,,,,,,,,0,0,0,0,0,0,0,0,0,0,0,0,0,0,0,0,,,,,0.0,,,,,,
2336329,1745077609604,,,,,,,,,,,,,,,,,,,,,,,,,,,,,,,,,,0,0,0,0,0,0,0,0,0,0,0,0,0,0,0,0,,,,,,,,,,,
2336349,1745077609624,0.0,181.25,,0.03,0.09,1.15,-0,-0,1,1.15,1.17,98,4683,12.7,3.78,,12.91,1.197,82.6,,40.5,5,,,,,,,,,,,,0,0,0,0,0,0,0,0,0,0,0,0,0,0,0,0,,,,,0.0,,,,,,
2336369,1745077609644,,,,,,,,,,,,,,,,,,,,,,,,,,,,,,,,,,0,0,0,0,0,0,0,0,0,0,0,0,0,0,0,0,,,,,,,,,,,
2336389,1745077609664,0.0,181.25,13.59,-0.03,0.14,1.17,-1,-0,1,1.17,1.17,100,4683,12.7,3.78,15,12.84,1.155,82.6,160,43.7,5,0,0,0,0,0.0,0.0,0.0,0.0,2.26,0,0.0,0,0,0,0,0,0,0,0,0,0,0,0,0,0,0,0,0,0.0,0,0,0.0,39.240173,-77.965271,0.04,29,3,0.8
2336409,1745077609684,,,,,,,,,,,,,,,,,,,,,,,,,,,,,,,,,,0,0,0,0,0,0,0,0,0,0,0,0,0,0,0,0,,,,,,,,,,,
2336429,1745077609706,0.0,181.25,,-0.06,0.03,1.1,-0,-0,1,1.1,1.17,93,4693,13.2,3.8,,12.88,1.09,82.6,,43.7,5,,,,,,,,,,,,0,0,0,0,0,0,0,0,0,0,0,0,0,0,0,0,,,,,0.0,,,,,,
2336449,1745077609726,,,,,,,,,,,,,,,,,,,,,,,,,,,,,,,,,,0,0,0,0,0,0,0,0,0,0,0,0,0,0,0,0,,,,,,,,,,,
2336469,1745077609746,0.0,181.25,,-0.02,0.03,1.11,0,-0,0,1.11,1.17,94,4803,13.7,3.84,,12.97,1.075,82.6,,43.7,5,,,,,,,,,,,,0,0,0,0,0,0,0,0,0,0,0,0,0,0,0,0,,,,,0.0,,,,,,
2336489,1745077609766,,,,,,,,,,,,,,,,,,,,,,,0,0,0,0,0.0,0.0,0.0,0.0,2.26,,,0,0,0,0,0,0,0,0,0,0,0,0,0,0,0,0,0,,,,,39.240173,-77.965271,0.08,29,3,0.8
2336509,1745077609786,0.0,181.25,,-0.06,0.03,1.09,-0,-0,1,1.09,1.17,93,4853,13.8,3.84,,12.93,1.08,82.6,,45.6,5,,,,,,,,,,,,0,0,0,0,0,0,0,0,0,0,0,0,0,0,0,0,,,,,0.0,,,,,,
2336529,1745077609806,,,,,,,,,,,,,,,,,,,,,,,,,,,,,,,,,,0,0,0,0,0,0,0,0,0,0,0,0,0,0,0,0,,,,,,,,,,,
2336549,1745077609826,0.0,181.25,,-0.02,-0.09,1.02,0,-0,-0,1.02,1.17,87,4853,13.8,3.84,,12.93,1.08,82.6,,45.6,5,,,,,,,,,,,,0,0,0,0,0,0,0,0,0,0,0,0,0,0,0,0,,,,,0.0,,,,,,
2336569,1745077609846,,,,,,,,,,,,,,,,,,,,,,,,,,,,,,,,,,0,0,0,0,0,0,0,0,0,0,0,0,0,0,0,0,,,,,,,,,,,
2336589,1745077609866,0.0,181.25,,0.03,-0.09,1.01,1,-0,-0,1.01,1.17,86,4693,13.8,3.85,,13.0,1.097,82.6,,43.7,5,0,0,0,0,0.0,0.0,0.0,0.0,2.26,,,0,0,0,0,0,0,0,0,0,0,0,0,0,0,0,0,0,,,,0.0,39.240173,-77.965271,0.06,29,3,0.8
2336609,1745077609886,,,,,,,,,,,,,,,,,,,,,,,,,,,,,,,,,,0,0,0,0,0,0,0,0,0,0,0,0,0,0,0,0,,,,,,,,,,,
2336629,1745077609906,0.0,181.25,,0.07,-0.15,0.93,1,-0,-1,0.94,1.17,80,4439,13.8,3.85,,12.99,1.087,82.6,,43.7,5,,,,,,,,,,,,0,0,0,0,0,0,0,0,0,0,0,0,0,0,0,0,,,,,0.0,,,,,,
2336649,1745077609926,,,,,,,,,,,,,,,,,,,,,,,,,,,,,,,,,,0,0,0,0,0,0,0,0,0,0,0,0,0,0,0,0,,,,,,,,,,,
2336669,1745077609946,0.0,181.12,,0.04,-0.14,0.96,1,-0,-0,0.97,1.17,83,4216,13.8,3.87,,13.05,1.107,82.6,,43.7,5,,,,,,,,,,,,0,0,0,0,0,0,0,0,0,0,0,0,0,0,0,0,,,,,0.0,,,,,,
2336689,1745077609966,,,,,,,,,,,,,,,,,,,,,,,0,0,0,0,0.0,0.0,0.0,0.0,2.26,,,0,0,0,0,0,0,0,0,0,0,0,0,0,0,0,0,0,,,,,39.240173,-77.965271,0.13,29,3,0.8
2336709,1745077609986,0.0,181.25,,0.04,-0.15,0.96,1,-0,-1,0.97,1.17,83,4039,14.2,3.88,,13.11,1.213,82.6,,38.7,5,,,,,,,,,,,,0,0,0,0,0,0,0,0,0,0,0,0,0,0,0,0,,,,,0.0,,,,,,
2336729,1745077610006,,,,,,,,,,,,,,,,,,,,,,,,,,,,,,,,,,0,0,0,0,0,0,0,0,0,0,0,0,0,0,0,0,,,,,,,,,,,
2336749,1745077610016,0.0,181.25,,0.04,-0.16,0.99,1,-0,-0,1.0,1.17,85,3624,14.3,3.91,,13.11,1.213,82.6,,38.7,5,,,,,,,,,,,,0,0,0,0,0,0,0,0,0,0,0,0,0,0,0,0,,,,,0.0,,,,,,
2336769,1745077610036,,,,,,,,,,,,,,,,,,,,,,,,,,,,,,,,,,0,0,0,0,0,0,0,0,0,0,0,0,0,0,0,0,,,,,,,,,,,
2336789,1745077610056,0.0,181.25,,0.07,-0.08,1.02,-0,-0,0,1.02,1.17,87,3624,14.3,3.91,,13.37,1.198,82.6,,31.0,5,0,0,0,0,0.0,0.0,0.0,0.0,2.26,,,0,0,0,0,0,0,0,0,0,0,0,0,0,0,0,0,0,,,,0.0,39.240173,-77.965271,0.46,28,3,0.8
2336809,1745077610076,,,,,,,,,,,,,,,,,,,,,,,,,,,,,,,,,,0,0,0,0,0,0,0,0,0,0,0,0,0,0,0,0,,,,,,,,,,,
2336829,1745077610104,0.0,181.37,,0.06,-0.15,1.08,-0,-0,0,1.09,1.17,93,3299,14.4,3.98,,13.57,1.169,82.6,,31.0,5,,,,,,,,,,,,0,0,0,0,0,0,0,0,0,0,0,0,0,0,0,0,,,,,0.0,,,,,,
2336849,1745077610124,,,,,,,,,,,,,,,,,,,,,,,,,,,,,,,,,,0,0,0,0,0,0,0,0,0,0,0,0,0,0,0,0,,,,,,,,,,,
2336869,1745077610144,0.0,181.25,,0.07,-0.18,1.13,-0,-0,0,1.15,1.17,98,3047,14.5,4.04,,13.77,1.175,82.6,,31.0,5,,,,,,,,,,,,0,0,0,0,0,0,0,0,0,0,0,0,0,0,0,0,,,,,0.0,,,,,,
2336889,1745077610164,,,,,,,,,,,,,,,,,,,,,,,0,0,0,0,0.0,0.0,0.0,0.0,2.26,,,0,0,0,0,0,0,0,0,0,0,0,0,0,0,0,0,0,,,,,39.240173,-77.965271,1.01,28,3,0.8
2336909,1745077610184,0.0,181.25,,0.07,-0.18,1.08,-0,-0,0,1.1,1.17,93,2655,15.8,4.16,,13.95,1.197,82.6,,25.1,5,,,,,,,,,,,,0,0,0,0,0,0,0,0,0,0,0,0,0,0,0,0,,,,,0.0,,,,,,
2336929,1745077610206,,,,,,,,,,,,,,,,,,,,,,,,,,,,,,,,,,0,0,0,0,0,0,0,0,0,0,0,0,0,0,0,0,,,,,,,,,,,
2336949,1745077610226,0.0,181.12,,0.06,-0.16,1.06,-0,-0,0,1.08,1.17,92,2444,16.2,4.25,,13.95,1.197,82.6,,25.1,5,,,,,,,,,,,,0,0,0,0,0,0,0,0,0,0,0,0,0,0,0,0,,,,,0.0,,,,,,
2336969,1745077610246,,,,,,,,,,,,,,,,,,,,,,,,,,,,,,,,,,0,0,0,0,0,0,0,0,0,0,0,0,0,0,0,0,,,,,,,,,,,
2336989,1745077610266,0.0,181.12,,0.07,-0.15,1.03,-0,-0,0,1.05,1.17,89,2444,16.2,4.25,,14.04,1.203,82.6,,21.4,5,1,0,0,1,0.0,0.0,0.0,0.0,2.26,,,0,0,0,0,0,0,0,0,0,0,0,0,0,0,0,0,0,,,,0.0,39.240173,-77.965271,1.42,28,3,0.8
2337009,1745077610286,,,,,,,,,,,,,,,,,,,,,,,,,,,,,,,,,,0,0,0,0,0,0,0,0,0,0,0,0,0,0,0,0,,,,,,,,,,,
2337029,1745077610306,0.0,181.12,,0.07,-0.16,1.03,-0,-0,0,1.05,1.17,89,2210,20.4,4.37,,14.19,1.213,82.6,,21.4,5,,,,,,,,,,,,0,0,0,0,0,0,0,0,0,0,0,0,0,0,0,0,,,,,0.0,,,,,,
2337049,1745077610326,,,,,,,,,,,,,,,,,,,,,,,,,,,,,,,,,,0,0,0,0,0,0,0,0,0,0,0,0,0,0,0,0,,,,,,,,,,,
2337069,1745077610346,0.0,181.12,,0.09,-0.17,1.04,-0,-0,0,1.06,1.17,90,2170,30.3,4.61,,14.24,1.228,82.6,,21.4,5,,,,,,,,,,,,0,0,0,0,0,0,0,0,0,0,0,0,0,0,0,0,,,,,0.0,,,,,,
2337089,1745077610366,,,,,,,,,,,,,,,,,,,,,,,1,0,1,1,0.0,0.0,0.0,0.0,2.26,,,0,0,0,0,0,0,0,0,0,0,0,0,0,0,0,0,0,,,,,39.240173,-77.965271,1.88,28,3,0.8
2337109,1745077610386,0.0,181.12,,0.08,-0.14,1.04,-0,-0,0,1.05,1.17,89,1919,42.2,4.36,,14.24,1.231,82.6,,16.8,5,,,,,,,,,,,,0,0,0,0,0,0,0,0,0,0,0,0,0,0,0,0,,,,,0.0,,,,,,
2337129,1745077610406,,,,,,,,,,,,,,,,,,,,,,,,,,,,,,,,,,0,0,0,0,0,0,0,0,0,0,0,0,0,0,0,0,,,,,,,,,,,
2337149,1745077610426,0.0,181.12,,0.07,-0.13,1.03,-0,-0,0,1.04,1.17,88,2097,48.2,4.74,,14.24,1.231,82.6,,16.8,5,,,,,,,,,,,,0,0,0,0,0,0,0,0,0,0,0,0,0,0,0,0,,,,,0.0,,,,,,
2337169,1745077610446,,,,,,,,,,,,,,,,,,,,,,,,,,,,,,,,,,0,0,0,0,0,0,0,0,0,0,0,0,0,0,0,0,,,,,,,,,,,
2337189,1745077610466,0.0,181.25,,0.08,-0.12,1.04,-1,-0,0,1.05,1.17,89,2097,48.2,4.74,,14.34,1.22,82.6,,17.1,5,1,0,1,1,0.0,0.0,0.0,0.0,2.26,,,0,0,0,0,0,0,0,0,0,0,0,0,0,0,0,0,0,,,,0.0,39.240173,-77.965271,2.44,28,3,0.8
2337209,1745077610486,,,,,,,,,,,,,,,,,,,,,,,,,,,,,,,,,,0,0,0,0,0,0,0,0,0,0,0,0,0,0,0,0,,,,,,,,,,,
2337229,1745077610505,0.0,181.25,,0.05,-0.14,1.03,-1,-0,0,1.04,1.17,89,1855,48.2,4.55,,14.27,1.251,82.6,,17.1,5,,,,,,,,,,,,0,0,0,0,0,0,0,0,0,0,0,0,0,0,0,0,,,,,0.0,,,,,,
2337249,1745077610525,,,,,,,,,,,,,,,,,,,,,,,,,,,,,,,,,,0,0,0,0,0,0,0,0,0,0,0,0,0,0,0,0,,,,,,,,,,,
2337269,1745077610545,0.0,181.25,,0.03,-0.14,1.03,-1,-0,0,1.04,1.17,89,2336,47.8,4.53,,14.31,1.172,82.6,,17.1,5,,,,,,,,,,,,0,0,0,0,0,0,0,0,0,0,0,0,0,0,0,0,,,,,0.0,,,,,,
2337289,1745077610565,,,,,,,,,,,,,,,,,,,,,,,2,0,2,2,0.0,0.0,0.0,0.0,2.26,,,0,0,0,0,0,0,0,0,0,0,0,0,0,0,0,0,0,,,,,39.240173,-77.965271,2.71,28,3,0.8
2337309,1745077610585,0.0,181.37,,0.01,-0.12,1.01,-1,-0,0,1.02,1.17,87,2097,42.5,4.62,,14.31,1.172,82.6,,18.8,5,,,,,,,,,,,,0,0,0,0,0,0,0,0,0,0,0,0,0,0,0,0,,,,,0.0,,,,,,
2337329,1745077610605,,,,,,,,,,,,,,,,,,,,,,,,,,,,,,,,,,0,0,0,0,0,0,0,0,0,0,0,0,0,0,0,0,,,,,,,,,,,
2337349,1745077610625,0.0,181.37,,0.02,-0.11,1.0,-1,-0,0,1.01,1.17,86,2227,42.3,4.65,,14.31,1.135,82.6,,18.8,5,,,,,,,,,,,,0,0,0,0,0,0,0,0,0,0,0,0,0,0,0,0,,,,,0.0,,,,,,
2337369,1745077610645,,,,,,,,,,,,,,,,,,,,,,,,,,,,,,,,,,0,0,0,0,0,0,0,0,0,0,0,0,0,0,0,0,,,,,,,,,,,
2337389,1745077610665,0.0,181.37,13.56,0.01,-0.13,1.01,-1,-0,0,1.02,1.17,87,2227,42.3,4.65,15,14.28,1.071,82.6,160,20.3,5,2,0,2,2,0.0,0.0,0.0,0.0,2.25,0,0.0,0,0,0,0,0,0,0,0,0,0,0,0,0,0,0,0,0,0.0,0,0,0.0,39.240177,-77.965271,2.91,28,3,0.8
2337409,1745077610685,,,,,,,,,,,,,,,,,,,,,,,,,,,,,,,,,,0,0,0,0,0,0,0,0,0,0,0,0,0,0,0,0,,,,,,,,,,,
2337429,1745077610705,0.0,181.25,,0.0,-0.13,1.01,-1,-0,0,1.02,1.17,87,2289,42.3,4.63,,14.28,1.01,82.6,,20.3,5,,,,,,,,,,,,0,0,0,0,0,0,0,0,0,0,0,0,0,0,0,0,,,,,0.0,,,,,,
2337449,1745077610725,,,,,,,,,,,,,,,,,,,,,,,,,,,,,,,,,,0,0,0,0,0,0,0,0,0,0,0,0,0,0,0,0,,,,,,,,,,,
2337469,1745077610745,0.0,181.25,,0.01,-0.13,1.03,-1,-0,0,1.03,1.17,88,2334,42.2,4.63,,14.3,1.011,82.6,,20.3,5,,,,,,,,,,,,0,0,0,0,0,0,0,0,0,0,0,0,0,0,0,0,,,,,0.0,,,,,,
2337489,1745077610765,,,,,,,,,,,,,,,,,,,,,,,2,0,2,2,0.0,0.0,0.0,0.0,2.26,,,0,0,0,0,0,0,0,0,0,0,0,0,0,0,0,0,0,,,,,39.240177,-77.965271,3.08,28,3,0.8
2337509,1745077610785,0.0,181.25,,0.0,-0.14,1.04,-1,-0,0,1.05,1.17,89,2354,42.2,4.63,,14.28,1.047,82.6,,21.0,5,,,,,,,,,,,,0,0,0,0,0,0,0,0,0,0,0,0,0,0,0,0,,,,,0.0,,,,,,
2337529,1745077610805,,,,,,,,,,,,,,,,,,,,,,,,,,,,,,,,,,0,0,0,0,0,0,0,0,0,0,0,0,0,0,0,0,,,,,,,,,,,
2337549,1745077610825,0.0,181.12,,-0.0,-0.13,1.02,-1,-0,0,1.02,1.17,87,2428,42.2,4.63,,14.28,1.047,82.6,,21.0,5,,,,,,,,,,,,0,0,0,0,0,0,0,0,0,0,0,0,0,0,0,0,,,,,0.0,,,,,,
2337569,1745077610845,,,,,,,,,,,,,,,,,,,,,,,,,,,,,,,,,,0,0,0,0,0,0,0,0,0,0,0,0,0,0,0,0,,,,,,,,,,,
2337589,1745077610865,0.0,181.25,,-0.0,-0.13,1.02,-1,-0,0,1.03,1.17,87,2428,42.2,4.63,,14.28,1.084,82.6,,22.3,5,2,0,2,2,0.0,0.0,0.0,0.0,2.26,,,0,0,0,0,0,0,0,0,0,0,0,0,0,0,0,0,0,,,,0.0,39.240177,-77.965271,3.22,28,3,0.8
2337609,1745077610885,,,,,,,,,,,,,,,,,,,,,,,,,,,,,,,,,,0,0,0,0,0,0,0,0,0,0,0,0,0,0,0,0,,,,,,,,,,,
2337629,1745077610905,0.0,181.25,,0.01,-0.13,1.01,-1,-0,-0,1.02,1.17,87,2513,38.3,4.5,,14.26,1.114,82.6,,22.3,5,,,,,,,,,,,,0,0,0,0,0,0,0,0,0,0,0,0,0,0,0,0,,,,,0.0,,,,,,
2337649,1745077610925,,,,,,,,,,,,,,,,,,,,,,,,,,,,,,,,,,0,0,0,0,0,0,0,0,0,0,0,0,0,0,0,0,,,,,,,,,,,
2337669,1745077610945,0.0,181.25,,-0.01,-0.16,1.03,-1,-0,-0,1.04,1.17,89,2584,38.3,4.45,,14.2,1.121,82.6,,22.3,5,,,,,,,,,,,,0,0,0,0,0,0,0,0,0,0,0,0,0,0,0,0,,,,,0.0,,,,,,
2337689,1745077610965,,,,,,,,,,,,,,,,,,,,,,,2,0,2,2,0.0,0.0,0.0,0.0,2.26,,,0,0,0,0,0,0,0,0,0,0,0,0,0,0,0,0,0,,,,,39.240177,-77.965263,3.48,28,3,0.8
2337709,1745077610985,0.0,181.12,,0.01,-0.11,0.97,-1,-0,0,0.98,1.17,83,2815,38.1,4.43,,14.19,1.118,82.6,,23.6,5,,,,,,,,,,,,0,0,0,0,0,0,0,0,0,0,0,0,0,0,0,0,,,,,0.0,,,,,,
2337729,1745077611005,,,,,,,,,,,,,,,,,,,,,,,,,,,,,,,,,,0,0,0,0,0,0,0,0,0,0,0,0,0,0,0,0,,,,,,,,,,,
2337749,1745077611017,0.0,181.12,,0.03,-0.14,1.0,-1,0,0,1.01,1.17,86,2754,37.7,4.41,,14.19,1.118,82.6,,23.6,5,,,,,,,,,,,,0,0,0,0,0,0,0,0,0,0,0,0,0,0,0,0,,,,,0.0,,,,,,
2337769,1745077611037,,,,,,,,,,,,,,,,,,,,,,,,,,,,,,,,,,0,0,0,0,0,0,0,0,0,0,0,0,0,0,0,0,,,,,,,,,,,
2337789,1745077611057,0.0,181.12,,0.03,-0.13,0.96,-1,-0,-0,0.97,1.17,83,2754,37.7,4.41,,14.23,1.127,82.6,,21.6,5,2,0,2,2,0.0,0.0,0.0,0.0,2.26,,,0,0,0,0,0,0,0,0,0,0,0,0,0,0,0,0,0,,,,0.0,39.240177,-77.965263,3.67,28,3,0.8
2337809,1745077611077,,,,,,,,,,,,,,,,,,,,,,,,,,,,,,,,,,0,0,0,0,0,0,0,0,0,0,0,0,0,0,0,0,,,,,,,,,,,
2337829,1745077611103,0.0,181.12,,0.04,-0.13,0.96,-1,-0,-0,0.97,1.17,82,2522,37.7,4.4,,14.24,1.155,82.6,,21.6,5,,,,,,,,,,,,0,0,0,0,0,0,0,0,0,0,0,0,0,0,0,0,,,,,0.0,,,,,,
2337849,1745077611123,,,,,,,,,,,,,,,,,,,,,,,,,,,,,,,,,,0,0,0,0,0,0,0,0,0,0,0,0,0,0,0,0,,,,,,,,,,,
2337869,1745077611143,0.0,181.12,,0.07,-0.14,0.98,-1,-0,-0,0.99,1.17,85,2266,37.7,4.41,,14.28,1.172,82.6,,21.6,5,,,,,,,,,,,,0,0,0,0,0,0,0,0,0,0,0,0,0,0,0,0,,,,,0.0,,,,,,
2337889,1745077611163,,,,,,,,,,,,,,,,,,,,,,,3,0,3,3,0.0,0.0,0.0,0.0,2.26,,,0,0,0,0,0,0,0,0,0,0,0,0,0,0,0,0,0,,,,,39.240177,-77.965263,4.05,28,3,0.8
2337909,1745077611183,0.0,181.12,,0.06,-0.13,0.99,-1,-0,-0,1.0,1.17,85,1943,37.7,4.41,,14.26,1.199,82.6,,17.8,5,,,,,,,,,,,,0,0,0,0,0,0,0,0,0,0,0,0,0,0,0,0,,,,,0.0,,,,,,
2337929,1745077611205,,,,,,,,,,,,,,,,,,,,,,,,,,,,,,,,,,0,0,0,0,0,0,0,0,0,0,0,0,0,0,0,0,,,,,,,,,,,
2337949,1745077611225,0.0,181.12,,0.07,-0.12,0.98,-1,-0,-0,0.99,1.17,84,1497,37.7,4.34,,14.26,1.199,82.6,,17.8,5,,,,,,,,,,,,0,0,0,0,0,0,0,0,0,0,0,0,0,0,0,0,,,,,0.0,,,,,,
2337969,1745077611245,,,,,,,,,,,,,,,,,,,,,,,,,,,,,,,,,,0,0,0,0,0,0,0,0,0,0,0,0,0,0,0,0,,,,,,,,,,,
2337989,1745077611265,0.0,181.25,,0.06,-0.11,0.97,-1,-0,0,0.98,1.17,84,1497,37.7,4.34,,14.38,1.231,82.6,,13.9,5,3,0,3,3,0.0,0.0,0.0,0.0,2.26,,,0,0,0,0,0,0,0,0,0,0,0,0,0,0,0,0,0,,,,0.0,39.240177,-77.965263,4.79,28,3,0.8
2338009,1745077611285,,,,,,,,,,,,,,,,,,,,,,,,,,,,,,,,,,0,0,0,0,0,0,0,0,0,0,0,0,0,0,0,0,,,,,,,,,,,
2338029,1745077611307,0.0,181.37,,0.03,-0.1,0.97,-1,-0,0,0.98,1.17,83,1452,37.6,3.86,,14.38,1.225,82.6,,13.9,5,,,,,,,,,,,,0,0,0,0,0,0,0,0,0,0,0,0,0,0,0,0,,,,,0.0,,,,,,
2338049,1745077611327,,,,,,,,,,,,,,,,,,,,,,,,,,,,,,,,,,0,0,0,0,0,0,0,0,0,0,0,0,0,0,0,0,,,,,,,,,,,
2338069,1745077611347,0.0,181.37,,0.01,-0.11,0.97,-1,-0,-0,0.98,1.17,83,1452,39.7,3.86,,14.24,1.215,82.6,,13.9,5,,,,,,,,,,,,0,0,0,0,0,0,0,0,0,0,0,0,0,0,0,0,,,,,0.0,,,,,,
2338089,1745077611367,,,,,,,,,,,,,,,,,,,,,,,3,0,4,4,0.0,0.0,0.0,0.0,2.26,,,0,0,0,0,0,0,0,0,0,0,0,0,0,0,0,0,0,,,,,39.240181,-77.965263,5.44,28,3,0.8
2338109,1745077611387,0.0,181.25,,-0.01,-0.09,0.97,-1,-0,0,0.97,1.17,83,907,44.3,3.99,,14.22,1.209,82.6,,10.1,5,,,,,,,,,,,,0,0,0,0,0,0,0,0,0,0,0,0,0,0,0,0,,,,,0.0,,,,,,
2338129,1745077611407,,,,,,,,,,,,,,,,,,,,,,,,,,,,,,,,,,0,0,0,0,0,0,0,0,0,0,0,0,0,0,0,0,,,,,,,,,,,
2338149,1745077611427,0.0,181.0,,-0.02,-0.09,0.97,-1,-0,0,0.97,1.17,83,1236,44.6,3.57,,14.22,1.209,82.6,,10.1,5,,,,,,,,,,,,0,0,0,0,0,0,0,0,0,0,0,0,0,0,0,0,,,,,0.0,,,,,,
2338169,1745077611447,,,,,,,,,,,,,,,,,,,,,,,,,,,,,,,,,,0,0,0,0,0,0,0,0,0,0,0,0,0,0,0,0,,,,,,,,,,,
2338189,1745077611467,0.0,181.0,,-0.03,-0.1,0.97,-1,-0,0,0.98,1.17,83,1236,44.6,3.57,,14.27,1.249,82.6,,11.4,5,4,0,4,4,0.0,0.0,0.0,0.0,2.26,,,0,0,0,0,0,0,0,0,0,0,0,0,0,0,0,0,0,,,,0.0,39.240181,-77.965256,5.8,28,3,0.8
2338209,1745077611487,,,,,,,,,,,,,,,,,,,,,,,,,,,,,,,,,,0,0,0,0,0,0,0,0,0,0,0,0,0,0,0,0,,,,,,,,,,,
2338229,1745077611507,0.0,180.87,,-0.03,-0.1,0.98,-1,-0,0,0.98,1.17,84,1247,44.6,3.79,,14.38,1.241,82.6,,11.4,5,,,,,,,,,,,,0,0,0,0,0,0,0,0,0,0,0,0,0,0,0,0,,,,,0.0,,,,,,
2338249,1745077611527,,,,,,,,,,,,,,,,,,,,,,,,,,,,,,,,,,0,0,0,0,0,0,0,0,0,0,0,0,0,0,0,0,,,,,,,,,,,
2338269,1745077611547,0.0,180.87,,-0.05,-0.09,0.98,-1,-0,0,0.99,1.17,84,1247,44.7,3.79,,14.36,1.214,82.6,,11.4,5,,,,,,,,,,,,0,0,0,0,0,0,0,0,0,0,0,0,0,0,0,0,,,,,0.0,,,,,,
2338289,1745077611567,,,,,,,,,,,,,,,,,,,,,,,3,0,3,4,0.0,0.0,0.0,0.0,2.26,,,0,0,0,0,0,0,0,0,0,0,0,0,0,0,0,0,0,,,,,39.240181,-77.965256,5.5,28,3,0.8
2338309,1745077611587,0.0,180.87,,-0.05,-0.08,0.98,-1,-0,0,0.99,1.17,84,709,44.8,3.8,,14.35,1.201,82.6,,8.0,5,,,,,,,,,,,,0,0,0,0,0,0,0,0,0,0,0,0,0,0,0,0,,,,,0.0,,,,,,
2338329,1745077611606,,,,,,,,,,,,,,,,,,,,,,,,,,,,,,,,,,0,0,0,0,0,0,0,0,0,0,0,0,0,0,0,0,,,,,,,,,,,
2338349,1745077611626,0.0,181.0,,-0.06,-0.08,0.98,-1,-0,0,0.99,1.17,84,709,44.8,3.8,,14.35,1.201,82.6,,8.0,5,,,,,,,,,,,,0,0,0,0,0,0,0,0,0,0,0,0,0,0,0,0,,,,,0.0,,,,,,
2338369,1745077611646,,,,,,,,,,,,,,,,,,,,,,,,,,,,,,,,,,0,0,0,0,0,0,0,0,0,0,0,0,0,0,0,0,,,,,,,,,,,
2338389,1745077611666,0.0,181.12,13.13,-0.06,-0.08,0.98,-1,0,0,0.99,1.17,84,709,44.8,3.8,15,14.35,1.194,82.6,160,6.5,5,3,0,3,3,0.0,0.0,0.0,0.0,2.26,0,0.0,0,0,0,0,0,0,0,0,0,0,0,0,0,0,0,0,0,0.0,0,0,0.0,39.240181,-77.965256,5.37,28,3,0.8
2338409,1745077611686,,,,,,,,,,,,,,,,,,,,,,,,,,,,,,,,,,0,0,0,0,0,0,0,0,0,0,0,0,0,0,0,0,,,,,,,,,,,
2338429,1745077611706,0.0,181.12,,-0.07,-0.08,0.99,-1,-0,0,0.99,1.17,85,709,43.3,3.8,,14.35,1.188,82.6,,6.5,5,,,,,,,,,,,,0,0,0,0,0,0,0,0,0,0,0,0,0,0,0,0,,,,,0.0,,,,,,
2338449,1745077611726,,,,,,,,,,,,,,,,,,,,,,,,,,,,,,,,,,0,0,0,0,0,0,0,0,0,0,0,0,0,0,0,0,,,,,,,,,,,
2338469,1745077611746,0.0,181.12,,-0.08,-0.08,0.99,-1,-0,0,1.0,1.17,85,709,32.6,3.8,,14.35,1.183,82.6,,6.5,5,,,,,,,,,,,,0,0,0,0,0,0,0,0,0,0,0,0,0,0,0,0,,,,,0.0,,,,,,
2338489,1745077611766,,,,,,,,,,,,,,,,,,,,,,,3,0,3,3,0.0,0.0,0.0,0.0,2.26,,,0,0,0,0,0,0,0,0,0,0,0,0,0,0,0,0,0,,,,,39.240181,-77.965256,5.12,28,3,0.8
2338509,1745077611786,0.0,181.0,,-0.08,-0.07,1.0,-1,0,0,1.0,1.17,85,709,18.4,3.8,,14.35,1.182,82.6,,6.5,5,,,,,,,,,,,,0,0,0,0,0,0,0,0,0,0,0,0,0,0,0,0,,,,,0.0,,,,,,
2338529,1745077611806,,,,,,,,,,,,,,,,,,,,,,,,,,,,,,,,,,0,0,0,0,0,0,0,0,0,0,0,0,0,0,0,0,,,,,,,,,,,
2338549,1745077611826,0.0,181.12,,-0.08,-0.07,0.99,-1,0,0,1.0,1.17,85,709,8.6,3.8,,14.35,1.182,82.6,,6.5,5,,,,,,,,,,,,0,0,0,0,0,0,0,0,0,0,0,0,0,0,0,0,,,,,0.0,,,,,,
2338569,1745077611846,,,,,,,,,,,,,,,,,,,,,,,,,,,,,,,,,,0,0,0,0,0,0,0,0,0,0,0,0,0,0,0,0,,,,,,,,,,,
2338589,1745077611866,0.0,181.12,,-0.08,-0.07,0.99,-1,0,0,1.0,1.17,85,709,8.6,3.8,,14.35,1.18,82.6,,6.5,5,3,0,3,3,0.0,0.0,0.0,0.0,2.26,,,0,0,0,0,0,0,0,0,0,0,0,0,0,0,0,0,0,,,,0.0,39.240181,-77.965248,5.02,28,3,0.8
2338609,1745077611886,,,,,,,,,,,,,,,,,,,,,,,,,,,,,,,,,,0,0,0,0,0,0,0,0,0,0,0,0,0,0,0,0,,,,,,,,,,,
2338629,1745077611906,0.0,181.0,,-0.09,-0.07,0.99,-1,0,0,1.0,1.17,85,709,7.3,3.8,,14.35,1.175,82.6,,6.5,5,,,,,,,,,,,,0,0,0,0,0,0,0,0,0,0,0,0,0,0,0,0,,,,,0.0,,,,,,
2338649,1745077611926,,,,,,,,,,,,,,,,,,,,,,,,,,,,,,,,,,0,0,0,0,0,0,0,0,0,0,0,0,0,0,0,0,,,,,,,,,,,
2338669,1745077611946,0.0,181.0,,-0.09,-0.07,0.99,-1,0,0,1.0,1.17,85,709,3.8,3.8,,14.35,1.17,82.6,,6.5,5,,,,,,,,,,,,0,0,0,0,0,0,0,0,0,0,0,0,0,0,0,0,,,,,0.0,,,,,,
2338689,1745077611966,,,,,,,,,,,,,,,,,,,,,,,3,0,3,3,0.0,0.0,0.0,0.0,2.26,,,0,0,0,0,0,0,0,0,0,0,0,0,0,0,0,0,0,,,,,39.240181,-77.965248,4.77,28,3,0.8
2338709,1745077611986,0.0,181.0,,-0.09,-0.07,0.99,-1,0,-0,1.0,1.17,85,709,3.7,3.8,,14.35,1.166,82.6,,6.4,5,,,,,,,,,,,,0,0,0,0,0,0,0,0,0,0,0,0,0,0,0,0,,,,,0.0,,,,,,
2338729,1745077612006,,,,,,,,,,,,,,,,,,,,,,,,,,,,,,,,,,0,0,0,0,0,0,0,0,0,0,0,0,0,0,0,0,,,,,,,,,,,
2338749,1745077612018,0.0,180.87,,-0.1,-0.06,0.99,-1,0,-0,1.0,1.17,85,709,1.0,3.8,,14.35,1.166,82.6,,6.4,5,,,,,,,,,,,,0,0,0,0,0,0,0,0,0,0,0,0,0,0,0,0,,,,,0.0,,,,,,
2338769,1745077612038,,,,,,,,,,,,,,,,,,,,,,,,,,,,,,,,,,0,0,0,0,0,0,0,0,0,0,0,0,0,0,0,0,,,,,,,,,,,
2338789,1745077612058,0.0,180.87,,-0.1,-0.07,0.99,-1,0,-0,1.0,1.17,85,709,1.0,3.8,,14.35,1.162,82.6,,6.4,5,3,0,3,3,0.0,0.0,0.0,0.0,2.26,,,0,0,0,0,0,0,0,0,0,0,0,0,0,0,0,0,0,,,,0.0,39.240181,-77.965248,4.68,29,3,0.8
2338809,1745077612078,,,,,,,,,,,,,,,,,,,,,,,,,,,,,,,,,,0,0,0,0,0,0,0,0,0,0,0,0,0,0,0,0,,,,,,,,,,,
2338829,1745077612098,0.0,180.87,,-0.1,-0.07,0.99,-1,0,-0,1.0,1.17,85,709,0.6,3.8,,14.35,1.158,82.6,,6.4,5,,,,,,,,,,,,0,0,0,0,0,0,0,0,0,0,0,0,0,0,0,0,,,,,0.0,,,,,,
2338849,1745077612120,,,,,,,,,,,,,,,,,,,,,,,,,,,,,,,,,,0,0,0,0,0,0,0,0,0,0,0,0,0,0,0,0,,,,,,,,,,,
2338869,1745077612140,0.0,180.74,,-0.1,-0.06,0.99,-1,0,-0,1.0,1.17,85,709,0.0,3.8,,14.35,1.153,82.6,,6.4,5,,,,,,,,,,,,0,0,0,0,0,0,0,0,0,0,0,0,0,0,0,0,,,,,0.0,,,,,,
2338889,1745077612160,,,,,,,,,,,,,,,,,,,,,,,3,0,3,3,0.0,0.0,0.0,0.0,2.26,,,0,0,0,0,0,0,0,0,0,0,0,0,0,0,0,0,0,,,,,39.240181,-77.965248,4.34,29,3,0.8
2338909,1745077612180,0.0,180.74,,-0.1,-0.06,0.99,-1,0,-0,1.0,1.17,85,709,0.0,3.8,,14.35,1.148,82.6,,6.3,5,,,,,,,,,,,,0,0,0,0,0,0,0,0,0,0,0,0,0,0,0,0,,,,,0.0,,,,,,
2338929,1745077612204,,,,,,,,,,,,,,,,,,,,,,,,,,,,,,,,,,0,0,0,0,0,0,0,0,0,0,0,0,0,0,0,0,,,,,,,,,,,
2338949,1745077612224,0.0,180.74,,-0.11,-0.06,0.99,-1,0,-0,1.0,1.17,85,709,0.0,3.8,,14.35,1.148,82.6,,6.3,5,,,,,,,,,,,,0,0,0,0,0,0,0,0,0,0,0,0,0,0,0,0,,,,,0.0,,,,,,
2338969,1745077612244,,,,,,,,,,,,,,,,,,,,,,,,,,,,,,,,,,0,0,0,0,0,0,0,0,0,0,0,0,0,0,0,0,,,,,,,,,,,
2338989,1745077612264,0.0,180.74,,-0.11,-0.06,0.99,-1,0,-0,1.0,1.17,85,709,0.0,3.8,,14.35,1.143,82.6,,6.2,5,3,0,3,3,0.0,0.0,0.0,0.0,2.26,,,0,0,0,0,0,0,0,0,0,0,0,0,0,0,0,0,0,,,,0.0,39.240181,-77.965248,4.24,29,3,0.8
2339009,1745077612284,,,,,,,,,,,,,,,,,,,,,,,,,,,,,,,,,,0,0,0,0,0,0,0,0,0,0,0,0,0,0,0,0,,,,,,,,,,,
2339029,1745077612307,0.0,180.74,,-0.11,-0.06,0.99,-1,0,-0,1.0,1.17,85,709,0.0,3.8,,14.35,1.14,82.6,,6.2,5,,,,,,,,,,,,0,0,0,0,0,0,0,0,0,0,0,0,0,0,0,0,,,,,0.0,,,,,,
2339049,1745077612327,,,,,,,,,,,,,,,,,,,,,,,,,,,,,,,,,,0,0,0,0,0,0,0,0,0,0,0,0,0,0,0,0,,,,,,,,,,,
2339069,1745077612347,0.0,180.74,,-0.11,-0.06,0.99,-1,0,-0,1.0,1.17,85,709,0.0,3.8,,14.35,1.135,82.6,,6.2,5,,,,,,,,,,,,0,0,0,0,0,0,0,0,0,0,0,0,0,0,0,0,,,,,0.0,,,,,,
2339089,1745077612367,,,,,,,,,,,,,,,,,,,,,,,2,0,3,3,0.0,0.0,0.0,0.0,2.26,,,0,0,0,0,0,0,0,0,0,0,0,0,0,0,0,0,0,,,,,39.240181,-77.96524,4.28,29,3,0.8
2339109,1745077612387,0.0,180.74,,-0.11,-0.05,0.99,-1,0,0,1.0,1.17,85,709,0.0,3.8,,14.35,1.126,82.6,,6.5,5,,,,,,,,,,,,0,0,0,0,0,0,0,0,0,0,0,0,0,0,0,0,,,,,0.0,,,,,,
2339129,1745077612406,,,,,,,,,,,,,,,,,,,,,,,,,,,,,,,,,,0,0,0,0,0,0,0,0,0,0,0,0,0,0,0,0,,,,,,,,,,,
2339149,1745077612426,0.0,180.74,,-0.12,-0.05,0.99,-1,0,0,1.0,1.17,85,709,0.0,3.8,,14.35,1.126,82.6,,6.5,5,,,,,,,,,,,,0,0,0,0,0,0,0,0,0,0,0,0,0,0,0,0,,,,,0.0,,,,,,
2339169,1745077612446,,,,,,,,,,,,,,,,,,,,,,,,,,,,,,,,,,0,0,0,0,0,0,0,0,0,0,0,0,0,0,0,0,,,,,,,,,,,
2339189,1745077612466,0.0,180.74,,-0.12,-0.05,0.99,-1,0,-0,1.0,1.17,85,709,0.0,3.8,,14.35,1.127,82.6,,6.4,5,3,0,2,2,0.0,0.0,0.0,0.0,2.26,,,0,0,0,0,0,0,0,0,0,0,0,0,0,0,0,0,0,,,,0.0,39.240185,-77.96524,3.84,29,3,0.8
2339209,1745077612486,,,,,,,,,,,,,,,,,,,,,,,,,,,,,,,,,,0,0,0,0,0,0,0,0,0,0,0,0,0,0,0,0,,,,,,,,,,,
2339229,1745077612505,0.0,180.74,,-0.12,-0.05,0.99,-1,0,0,1.0,1.17,85,709,0.0,3.8,,14.35,1.123,82.6,,6.4,5,,,,,,,,,,,,0,0,0,0,0,0,0,0,0,0,0,0,0,0,0,0,,,,,0.0,,,,,,
2339249,1745077612525,,,,,,,,,,,,,,,,,,,,,,,,,,,,,,,,,,0,0,0,0,0,0,0,0,0,0,0,0,0,0,0,0,,,,,,,,,,,
2339269,1745077612545,0.0,180.74,,-0.13,-0.05,0.99,-1,0,-0,1.0,1.17,85,709,0.0,3.8,,14.35,1.12,82.6,,6.4,5,,,,,,,,,,,,0,0,0,0,0,0,0,0,0,0,0,0,0,0,0,0,,,,,0.0,,,,,,
2339289,1745077612565,,,,,,,,,,,,,,,,,,,,,,,2,0,2,2,0.0,0.0,0.0,0.0,2.26,,,0,0,0,0,0,0,0,0,0,0,0,0,0,0,0,0,0,,,,,39.240185,-77.96524,3.7,29,3,0.8
2339309,1745077612585,0.0,180.74,,-0.13,-0.05,0.99,-1,-0,-0,1.0,1.17,85,709,0.0,3.8,,14.35,1.115,82.6,,6.4,5,,,,,,,,,,,,0,0,0,0,0,0,0,0,0,0,0,0,0,0,0,0,,,,,0.0,,,,,,
2339329,1745077612605,,,,,,,,,,,,,,,,,,,,,,,,,,,,,,,,,,0,0,0,0,0,0,0,0,0,0,0,0,0,0,0,0,,,,,,,,,,,
2339349,1745077612625,0.0,180.74,,-0.13,-0.05,0.99,-1,-0,-0,1.0,1.17,85,709,0.0,3.8,,14.35,1.115,82.6,,6.4,5,,,,,,,,,,,,0,0,0,0,0,0,0,0,0,0,0,0,0,0,0,0,,,,,0.0,,,,,,
2339369,1745077612645,,,,,,,,,,,,,,,,,,,,,,,,,,,,,,,,,,0,0,0,0,0,0,0,0,0,0,0,0,0,0,0,0,,,,,,,,,,,
2339389,1745077612665,0.0,180.74,13.01,-0.13,-0.05,0.99,-0,-0,-0,1.0,1.17,85,709,0.0,3.8,15,14.35,1.112,82.6,160,6.5,5,2,0,2,2,0.0,0.0,0.0,0.0,2.26,0,0.0,0,0,0,0,0,0,0,0,0,0,0,0,0,0,0,0,0,0.0,0,0,0.0,39.240185,-77.96524,3.36,29,3,0.8
2339409,1745077612685,,,,,,,,,,,,,,,,,,,,,,,,,,,,,,,,,,0,0,0,0,0,0,0,0,0,0,0,0,0,0,0,0,,,,,,,,,,,
2339429,1745077612707,0.0,180.74,,-0.13,-0.05,0.99,-1,-0,-0,1.0,1.17,85,709,0.0,3.8,,14.35,1.109,82.6,,6.5,5,,,,,,,,,,,,0,0,0,0,0,0,0,0,0,0,0,0,0,0,0,0,,,,,0.0,,,,,,
2339449,1745077612727,,,,,,,,,,,,,,,,,,,,,,,,,,,,,,,,,,0,0,0,0,0,0,0,0,0,0,0,0,0,0,0,0,,,,,,,,,,,
2339469,1745077612747,0.0,180.62,,-0.13,-0.05,0.99,-0,-0,-0,1.0,1.17,85,709,0.0,3.8,,14.35,1.106,82.6,,6.5,5,,,,,,,,,,,,0,0,0,0,0,0,0,0,0,0,0,0,0,0,0,0,,,,,0.0,,,,,,
2339489,1745077612767,,,,,,,,,,,,,,,,,,,,,,,2,0,2,2,0.0,0.0,0.0,0.0,2.26,,,0,0,0,0,0,0,0,0,0,0,0,0,0,0,0,0,0,,,,,39.240185,-77.96524,3.15,29,3,0.8
2339509,1745077612787,0.0,180.74,,-0.14,-0.05,0.99,-0,-0,-0,1.0,1.17,85,709,0.0,3.8,,14.35,1.103,82.6,,6.5,5,,,,,,,,,,,,0,0,0,0,0,0,0,0,0,0,0,0,0,0,0,0,,,,,0.0,,,,,,
2339529,1745077612805,,,,,,,,,,,,,,,,,,,,,,,,,,,,,,,,,,0,0,0,0,0,0,0,0,0,0,0,0,0,0,0,0,,,,,,,,,,,
2339549,1745077612825,0.0,180.74,,-0.14,-0.05,0.99,-0,-0,-0,1.0,1.17,85,709,0.0,3.8,,14.35,1.103,82.6,,6.5,5,,,,,,,,,,,,0,0,0,0,0,0,0,0,0,0,0,0,0,0,0,0,,,,,0.0,,,,,,
2339569,1745077612845,,,,,,,,,,,,,,,,,,,,,,,,,,,,,,,,,,0,0,0,0,0,0,0,0,0,0,0,0,0,0,0,0,,,,,,,,,,,
2339589,1745077612865,0.0,180.62,,-0.14,-0.05,0.99,-0,-0,-0,1.0,1.17,85,709,0.0,3.8,,14.35,1.099,82.6,,6.5,5,2,0,2,2,0.0,0.0,0.0,0.0,2.26,,,0,0,0,0,0,0,0,0,0,0,0,0,0,0,0,0,0,,,,0.0,39.240185,-77.96524,2.8,29,3,0.8
2339609,1745077612885,,,,,,,,,,,,,,,,,,,,,,,,,,,,,,,,,,0,0,0,0,0,0,0,0,0,0,0,0,0,0,0,0,,,,,,,,,,,
2339629,1745077612907,0.0,180.74,,-0.14,-0.05,0.99,-0,-0,-0,1.0,1.17,85,709,0.0,3.8,,14.35,1.096,82.6,,6.5,5,,,,,,,,,,,,0,0,0,0,0,0,0,0,0,0,0,0,0,0,0,0,,,,,0.0,,,,,,
2339649,1745077612927,,,,,,,,,,,,,,,,,,,,,,,,,,,,,,,,,,0,0,0,0,0,0,0,0,0,0,0,0,0,0,0,0,,,,,,,,,,,
2339669,1745077612947,0.0,180.74,,-0.14,-0.05,0.99,-0,-0,-0,1.0,1.17,85,709,0.0,3.8,,14.35,1.095,82.6,,6.5,5,,,,,,,,,,,,0,0,0,0,0,0,0,0,0,0,0,0,0,0,0,0,,,,,0.0,,,,,,
2339689,1745077612967,,,,,,,,,,,,,,,,,,,,,,,2,0,2,2,0.0,0.0,0.0,0.0,2.26,,,0,0,0,0,0,0,0,0,0,0,0,0,0,0,0,0,0,,,,,39.240185,-77.965233,2.51,29,3,0.8
2339709,1745077612987,0.0,180.74,,-0.15,-0.05,0.99,-0,-0,0,1.01,1.17,86,709,0.0,3.8,,14.35,1.093,82.6,,6.3,5,,,,,,,,,,,,0,0,0,0,0,0,0,0,0,0,0,0,0,0,0,0,,,,,0.0,,,,,,
2339729,1745077613007,,,,,,,,,,,,,,,,,,,,,,,,,,,,,,,,,,0,0,0,0,0,0,0,0,0,0,0,0,0,0,0,0,,,,,,,,,,,
2339749,1745077613017,0.0,180.74,,-0.15,-0.05,0.99,-0,-0,0,1.0,1.17,85,709,0.0,3.8,,14.35,1.093,82.6,,6.3,5,,,,,,,,,,,,0,0,0,0,0,0,0,0,0,0,0,0,0,0,0,0,,,,,0.0,,,,,,
2339769,1745077613037,,,,,,,,,,,,,,,,,,,,,,,,,,,,,,,,,,0,0,0,0,0,0,0,0,0,0,0,0,0,0,0,0,,,,,,,,,,,
2339789,1745077613057,0.0,180.74,,-0.15,-0.05,0.99,-0,-0,0,1.0,1.17,85,709,0.0,3.8,,14.35,1.089,82.6,,6.3,5,1,0,1,1,0.0,0.0,0.0,0.0,2.26,,,0,0,0,0,0,0,0,0,0,0,0,0,0,0,0,0,0,,,,0.0,39.240185,-77.965233,2.13,29,3,0.8
2339809,1745077613077,,,,,,,,,,,,,,,,,,,,,,,,,,,,,,,,,,0,0,0,0,0,0,0,0,0,0,0,0,0,0,0,0,,,,,,,,,,,
2339829,1745077613103,0.0,180.74,,-0.15,-0.05,0.99,-0,-0,0,1.0,1.17,85,709,0.0,3.8,,14.35,1.09,82.6,,6.3,5,,,,,,,,,,,,0,0,0,0,0,0,0,0,0,0,0,0,0,0,0,0,,,,,0.0,,,,,,
2339849,1745077613123,,,,,,,,,,,,,,,,,,,,,,,,,,,,,,,,,,0,0,0,0,0,0,0,0,0,0,0,0,0,0,0,0,,,,,,,,,,,
2339869,1745077613143,0.0,180.74,,-0.15,-0.05,0.99,-0,-0,0,1.01,1.17,86,709,0.0,3.8,,14.35,1.088,82.6,,6.3,5,,,,,,,,,,,,0,0,0,0,0,0,0,0,0,0,0,0,0,0,0,0,,,,,0.0,,,,,,
2339889,1745077613163,,,,,,,,,,,,,,,,,,,,,,,1,0,1,1,0.0,0.0,0.0,0.0,2.26,,,0,0,0,0,0,0,0,0,0,0,0,0,0,0,0,0,0,,,,,39.240185,-77.965233,1.83,29,3,0.8
2339909,1745077613183,0.0,180.87,,-0.15,-0.05,0.99,-0,-0,0,1.0,1.17,85,709,0.0,3.8,,14.35,1.088,82.6,,6.5,5,,,,,,,,,,,,0,0,0,0,0,0,0,0,0,0,0,0,0,0,0,0,,,,,0.0,,,,,,
2339929,1745077613207,,,,,,,,,,,,,,,,,,,,,,,,,,,,,,,,,,0,0,0,0,0,0,0,0,0,0,0,0,0,0,0,0,,,,,,,,,,,
2339949,1745077613227,0.0,180.87,,-0.15,-0.05,0.99,-0,-0,0,1.0,1.17,85,709,0.0,3.8,,14.35,1.088,82.6,,6.5,5,,,,,,,,,,,,0,0,0,0,0,0,0,0,0,0,0,0,0,0,0,0,,,,,0.0,,,,,,
2339969,1745077613247,,,,,,,,,,,,,,,,,,,,,,,,,,,,,,,,,,0,0,0,0,0,0,0,0,0,0,0,0,0,0,0,0,,,,,,,,,,,
2339989,1745077613267,0.0,180.87,,-0.15,-0.05,0.99,-0,-0,0,1.0,1.17,85,709,0.0,3.8,,14.35,1.088,82.6,,6.6,5,1,0,1,1,0.0,0.0,0.0,0.0,2.26,,,0,0,0,0,0,0,0,0,0,0,0,0,0,0,0,0,0,,,,0.0,39.240185,-77.965233,1.54,29,3,0.8
2340009,1745077613287,,,,,,,,,,,,,,,,,,,,,,,,,,,,,,,,,,0,0,0,0,0,0,0,0,0,0,0,0,0,0,0,0,,,,,,,,,,,
2340029,1745077613305,0.0,180.87,,-0.15,-0.05,0.99,-0,-0,0,1.0,1.17,86,709,0.0,3.8,,14.35,1.086,82.6,,6.6,5,,,,,,,,,,,,0,0,0,0,0,0,0,0,0,0,0,0,0,0,0,0,,,,,0.0,,,,,,
2340049,1745077613325,,,,,,,,,,,,,,,,,,,,,,,,,,,,,,,,,,0,0,0,0,0,0,0,0,0,0,0,0,0,0,0,0,,,,,,,,,,,
2340069,1745077613345,0.0,180.87,,-0.15,-0.05,0.99,-0,-0,0,1.01,1.17,86,709,0.0,3.8,,14.35,1.086,82.6,,6.6,5,,,,,,,,,,,,0,0,0,0,0,0,0,0,0,0,0,0,0,0,0,0,,,,,0.0,,,,,,
2340089,1745077613365,,,,,,,,,,,,,,,,,,,,,,,1,0,1,1,0.0,0.0,0.0,0.0,2.26,,,0,0,0,0,0,0,0,0,0,0,0,0,0,0,0,0,0,,,,,39.240185,-77.965233,1.13,29,3,0.8
2340109,1745077613385,0.0,180.87,,-0.15,-0.04,0.99,-0,-0,0,1.0,1.17,86,0,0.0,4.77,,14.35,1.086,82.6,,6.3,5,,,,,,,,,,,,0,0,0,0,0,0,0,0,0,0,0,0,0,0,0,0,,,,,0.0,,,,,,
2340129,1745077613407,,,,,,,,,,,,,,,,,,,,,,,,,,,,,,,,,,0,0,0,0,0,0,0,0,0,0,0,0,0,0,0,0,,,,,,,,,,,
2340149,1745077613427,0.0,180.74,,-0.15,-0.04,0.99,-0,-0,0,1.0,1.17,85,0,0.0,4.77,,14.35,1.088,82.6,,6.3,5,,,,,,,,,,,,0,0,0,0,0,0,0,0,0,0,0,0,0,0,0,0,,,,,0.0,,,,,,
2340169,1745077613447,,,,,,,,,,,,,,,,,,,,,,,,,,,,,,,,,,0,0,0,0,0,0,0,0,0,0,0,0,0,0,0,0,,,,,,,,,,,
2340189,1745077613467,0.0,180.62,,-0.15,-0.04,0.99,-0,-0,0,1.01,1.17,86,0,0.0,4.77,,14.35,1.086,82.6,,6.4,5,1,0,1,1,0.0,0.0,0.0,0.0,2.26,,,0,0,0,0,0,0,0,0,0,0,0,0,0,0,0,0,0,,,,0.0,39.240185,-77.965233,0.82,29,3,0.8
2340209,1745077613487,,,,,,,,,,,,,,,,,,,,,,,,,,,,,,,,,,0,0,0,0,0,0,0,0,0,0,0,0,0,0,0,0,,,,,,,,,,,
2340229,1745077613506,0.0,180.49,,-0.15,-0.04,0.99,-0,-0,0,1.0,1.17,86,0,0.0,4.77,,14.35,1.086,82.6,,6.4,5,,,,,,,,,,,,0,0,0,0,0,0,0,0,0,0,0,0,0,0,0,0,,,,,0.0,,,,,,
2340249,1745077613526,,,,,,,,,,,,,,,,,,,,,,,,,,,,,,,,,,0,0,0,0,0,0,0,0,0,0,0,0,0,0,0,0,,,,,,,,,,,
2340269,1745077613546,0.0,180.49,,-0.15,-0.04,0.99,-0,-0,0,1.0,1.17,85,0,0.0,4.77,,14.35,1.084,82.6,,6.4,5,,,,,,,,,,,,0,0,0,0,0,0,0,0,0,0,0,0,0,0,0,0,,,,,0.0,,,,,,
2340289,1745077613566,,,,,,,,,,,,,,,,,,,,,,,1,0,1,1,0.0,0.0,0.0,0.0,2.26,,,0,0,0,0,0,0,0,0,0,0,0,0,0,0,0,0,0,,,,,39.240185,-77.965233,0.46,29,3,0.8
2340309,1745077613586,0.0,180.37,,-0.15,-0.04,0.99,-0,-0,0,1.0,1.17,85,0,0.0,4.77,,14.35,1.084,82.6,,6.5,5,,,,,,,,,,,,0,0,0,0,0,0,0,0,0,0,0,0,0,0,0,0,,,,,0.0,,,,,,
2340329,1745077613606,,,,,,,,,,,,,,,,,,,,,,,,,,,,,,,,,,0,0,0,0,0,0,0,0,0,0,0,0,0,0,0,0,,,,,,,,,,,
2340349,1745077613626,0.0,180.37,,-0.14,-0.04,0.99,-0,-0,0,1.0,1.17,85,0,0.0,4.77,,14.35,1.085,82.6,,6.5,5,,,,,,,,,,,,0,0,0,0,0,0,0,0,0,0,0,0,0,0,0,0,,,,,0.0,,,,,,
2340369,1745077613646,,,,,,,,,,,,,,,,,,,,,,,,,,,,,,,,,,0,0,0,0,0,0,0,0,0,0,0,0,0,0,0,0,,,,,,,,,,,
2340389,1745077613666,0.0,180.37,9.06,-0.13,-0.04,0.99,-0,-0,0,1.0,1.17,85,0,0.0,4.77,15,14.35,1.085,82.6,160,107.4,5,1,0,1,1,0.0,0.0,0.0,0.0,2.26,0,0.0,0,0,0,0,0,0,0,0,0,0,0,0,0,0,0,0,0,0.0,0,0,0.0,39.240185,-77.965233,0.13,29,3,0.8
2340409,1745077613686,,,,,,,,,,,,,,,,,,,,,,,,,,,,,,,,,,0,0,0,0,0,0,0,0,0,0,0,0,0,0,0,0,,,,,,,,,,,
2340429,1745077613706,0.0,180.49,,-0.12,-0.04,1.0,-0,-0,0,1.01,1.17,86,0,0.0,4.77,,14.35,1.085,82.6,,107.4,5,,,,,,,,,,,,0,0,0,0,0,0,0,0,0,0,0,0,0,0,0,0,,,,,0.0,,,,,,
2340449,1745077613726,,,,,,,,,,,,,,,,,,,,,,,,,,,,,,,,,,0,0,0,0,0,0,0,0,0,0,0,0,0,0,0,0,,,,,,,,,,,
2340469,1745077613746,0.0,180.37,,-0.11,-0.05,1.0,0,-0,0,1.0,1.17,85,0,0.0,4.77,,14.34,1.086,82.6,,107.4,5,,,,,,,,,,,,0,0,0,0,0,0,0,0,0,0,0,0,0,0,0,0,,,,,0.0,,,,,,
2340489,1745077613766,,,,,,,,,,,,,,,,,,,,,,,1,0,1,1,0.0,0.0,0.0,0.0,2.26,,,0,0,0,0,0,0,0,0,0,0,0,0,0,0,0,0,0,,,,,39.240185,-77.965233,0.11,29,3,0.8
2340509,1745077613786,0.0,180.49,,-0.1,-0.05,1.0,0,-0,0,1.0,1.17,85,0,0.0,4.77,,14.34,1.086,82.6,,107.4,5,,,,,,,,,,,,0,0,0,0,0,0,0,0,0,0,0,0,0,0,0,0,,,,,0.0,,,,,,
2340529,1745077613806,,,,,,,,,,,,,,,,,,,,,,,,,,,,,,,,,,0,0,0,0,0,0,0,0,0,0,0,0,0,0,0,0,,,,,,,,,,,
2340549,1745077613826,0.0,180.49,,-0.09,-0.05,0.99,0,-0,0,1.0,1.17,85,0,0.0,4.77,,14.3,1.086,82.6,,107.4,5,,,,,,,,,,,,0,0,0,0,0,0,0,0,0,0,0,0,0,0,0,0,,,,,0.0,,,,,,
2340569,1745077613846,,,,,,,,,,,,,,,,,,,,,,,,,,,,,,,,,,0,0,0,0,0,0,0,0,0,0,0,0,0,0,0,0,,,,,,,,,,,
2340589,1745077613866,0.0,180.62,,-0.09,-0.05,0.99,0,-0,0,1.0,1.17,85,0,0.0,4.77,,14.32,1.087,82.6,,107.4,5,1,0,1,1,0.0,0.0,0.0,0.0,2.26,,,0,0,0,0,0,0,0,0,0,0,0,0,0,0,0,0,0,,,,0.0,39.240185,-77.965233,0.16,29,3,0.8
2340609,1745077613886,,,,,,,,,,,,,,,,,,,,,,,,,,,,,,,,,,0,0,0,0,0,0,0,0,0,0,0,0,0,0,0,0,,,,,,,,,,,
2340629,1745077613908,0.0,180.62,,-0.09,-0.06,0.99,0,-0,0,1.0,1.17,85,0,0.0,4.77,,14.32,1.081,82.6,,107.4,5,,,,,,,,,,,,0,0,0,0,0,0,0,0,0,0,0,0,0,0,0,0,,,,,0.0,,,,,,
2340649,1745077613928,,,,,,,,,,,,,,,,,,,,,,,,,,,,,,,,,,0,0,0,0,0,0,0,0,0,0,0,0,0,0,0,0,,,,,,,,,,,
2340669,1745077613948,0.0,180.62,,-0.08,-0.06,1.0,0,-0,0,1.0,1.17,85,0,0.0,4.77,,14.26,1.077,82.6,,107.4,5,,,,,,,,,,,,0,0,0,0,0,0,0,0,0,0,0,0,0,0,0,0,,,,,0.0,,,,,,
2340689,1745077613968,,,,,,,,,,,,,,,,,,,,,,,1,0,1,1,0.0,0.0,0.0,0.0,2.26,,,0,0,0,0,0,0,0,0,0,0,0,0,0,0,0,0,0,,,,,39.240185,-77.965233,0.11,29,3,0.8
2340709,1745077613988,0.0,180.74,,-0.08,-0.05,0.99,0,-0,0,1.0,1.17,85,0,0.0,4.77,,14.26,1.077,82.6,,107.4,5,,,,,,,,,,,,0,0,0,0,0,0,0,0,0,0,0,0,0,0,0,0,,,,,0.0,,,,,,
2340729,1745077614008,,,,,,,,,,,,,,,,,,,,,,,,,,,,,,,,,,0,0,0,0,0,0,0,0,0,0,0,0,0,0,0,0,,,,,,,,,,,
2340749,1745077614018,0.0,180.74,,-0.08,-0.06,0.99,0,-0,0,1.0,1.17,85,0,0.0,4.77,,14.35,1.072,82.6,,107.4,5,,,,,,,,,,,,0,0,0,0,0,0,0,0,0,0,0,0,0,0,0,0,,,,,0.0,,,,,,
2340769,1745077614038,,,,,,,,,,,,,,,,,,,,,,,,,,,,,,,,,,0,0,0,0,0,0,0,0,0,0,0,0,0,0,0,0,,,,,,,,,,,
2340789,1745077614058,0.0,180.74,,-0.08,-0.06,0.99,-0,-0,0,1.0,1.17,85,0,0.0,4.77,,14.26,1.071,82.6,,107.4,5,1,0,1,1,0.0,0.0,0.0,0.0,2.26,,,0,0,0,0,0,0,0,0,0,0,0,0,0,0,0,0,0,,,,0.0,39.240185,-77.965233,0.05,29,3,0.8
2340809,1745077614078,,,,,,,,,,,,,,,,,,,,,,,,,,,,,,,,,,0,0,0,0,0,0,0,0,0,0,0,0,0,0,0,0,,,,,,,,,,,
2340829,1745077614104,2.01,180.74,,-0.08,-0.07,0.99,0,-0,0,0.99,1.17,85,0,0.0,4.77,,14.28,1.073,82.6,,107.4,5,,,,,,,,,,,,0,0,0,0,0,0,0,0,0,0,0,0,0,0,0,0,,,,,0.0,,,,,,
2340849,1745077614124,,,,,,,,,,,,,,,,,,,,,,,,,,,,,,,,,,0,0,0,0,0,0,0,0,0,0,0,0,0,0,0,0,,,,,,,,,,,
2340869,1745077614144,3.27,180.74,,-0.08,-0.07,0.99,0,-0,0,0.99,1.17,85,0,0.0,4.77,,14.36,1.07,82.6,,107.4,5,,,,,,,,,,,,0,0,0,0,0,0,0,0,0,0,0,0,0,0,0,0,,,,,0.0,,,,,,
2340889,1745077614164,,,,,,,,,,,,,,,,,,,,,,,1,0,1,1,0.0,0.0,0.0,0.0,2.26,,,0,0,0,0,0,0,0,0,0,0,0,0,0,0,0,0,0,,,,,39.240185,-77.965233,0.04,29,3,0.8
2340909,1745077614184,3.9,180.87,,-0.08,-0.06,0.99,0,-0,0,0.99,1.17,84,0,0.0,4.77,,14.36,1.07,82.6,,107.4,5,,,,,,,,,,,,0,0,0,0,0,0,0,0,0,0,0,0,0,0,0,0,,,,,0.0,,,,,,
2340929,1745077614206,,,,,,,,,,,,,,,,,,,,,,,,,,,,,,,,,,0,0,0,0,0,0,0,0,0,0,0,0,0,0,0,0,,,,,,,,,,,
2340949,1745077614226,2.64,181.0,,-0.08,-0.06,0.99,0,-0,0,0.99,1.17,84,0,0.0,4.77,,14.24,1.073,82.6,,107.4,5,,,,,,,,,,,,0,0,0,0,0,0,0,0,0,0,0,0,0,0,0,0,,,,,0.0,,,,,,
2340969,1745077614246,,,,,,,,,,,,,,,,,,,,,,,,,,,,,,,,,,0,0,0,0,0,0,0,0,0,0,0,0,0,0,0,0,,,,,,,,,,,
2340989,1745077614266,3.27,181.12,,-0.08,-0.06,0.98,0,-0,0,0.99,1.17,84,0,0.0,4.76,,14.28,1.076,82.6,,107.4,5,1,0,1,1,0.0,0.0,0.0,0.0,2.26,,,0,0,0,0,0,0,0,0,0,0,0,0,0,0,0,0,0,,,,0.0,39.240185,-77.965233,0.07,29,3,0.8
2341009,1745077614286,,,,,,,,,,,,,,,,,,,,,,,,,,,,,,,,,,0,0,0,0,0,0,0,0,0,0,0,0,0,0,0,0,,,,,,,,,,,
2341029,1745077614306,4.52,181.25,,-0.07,-0.05,0.99,-0,-0,0,0.99,1.17,84,0,0.0,4.76,,14.35,1.079,82.6,,107.4,5,,,,,,,,,,,,0,0,0,0,0,0,0,0,0,0,0,0,0,0,0,0,,,,,0.0,,,,,,
2341049,1745077614326,,,,,,,,,,,,,,,,,,,,,,,,,,,,,,,,,,0,0,0,0,0,0,0,0,0,0,0,0,0,0,0,0,,,,,,,,,,,
2341069,1745077614346,2.64,181.37,,-0.06,-0.06,0.99,0,-0,0,0.99,1.17,85,423,0.0,4.76,,14.22,1.083,82.6,,107.4,5,,,,,,,,,,,,0,0,0,0,0,0,0,0,0,0,0,0,0,0,0,0,,,,,0.0,,,,,,
2341089,1745077614366,,,,,,,,,,,,,,,,,,,,,,,1,0,1,1,0.0,0.0,0.0,0.0,2.26,,,0,0,0,0,0,0,0,0,0,0,0,0,0,0,0,0,0,,,,,39.240185,-77.965233,0.07,29,3,0.8
2341109,1745077614386,3.27,181.5,,-0.05,-0.06,0.99,0,-0,0,0.99,1.17,85,423,0.0,4.76,,14.22,1.083,82.6,,107.4,5,,,,,,,,,,,,0,0,0,0,0,0,0,0,0,0,0,0,0,0,0,0,,,,,0.0,,,,,,
2341129,1745077614404,,,,,,,,,,,,,,,,,,,,,,,,,,,,,,,,,,0,0,0,0,0,0,0,0,0,0,0,0,0,0,0,0,,,,,,,,,,,
2341149,1745077614424,2.64,181.62,,-0.07,-0.06,0.99,0,-0,0,0.99,1.17,85,423,0.0,4.76,,14.15,1.101,82.6,,107.4,5,,,,,,,,,,,,0,0,0,0,0,0,0,0,0,0,0,0,0,0,0,0,,,,,0.0,,,,,,
2341169,1745077614444,,,,,,,,,,,,,,,,,,,,,,,,,,,,,,,,,,0,0,0,0,0,0,0,0,0,0,0,0,0,0,0,0,,,,,,,,,,,
2341189,1745077614464,2.64,181.62,,-0.08,-0.06,0.99,-0,-0,0,0.99,1.17,84,1292,0.0,3.78,,14.02,1.132,82.6,,107.4,5,1,0,1,1,0.0,0.0,0.0,0.0,2.26,,,0,0,0,0,0,0,0,0,0,0,0,0,0,0,0,0,0,,,,0.0,39.240185,-77.965233,0.23,29,3,0.8
2341209,1745077614484,,,,,,,,,,,,,,,,,,,,,,,,,,,,,,,,,,0,0,0,0,0,0,0,0,0,0,0,0,0,0,0,0,,,,,,,,,,,
2341229,1745077614505,2.01,181.62,,-0.08,-0.07,0.98,-0,-0,0,0.99,1.17,84,1297,0.0,3.44,,14.0,1.25,82.6,,107.4,5,,,,,,,,,,,,0,0,0,0,0,0,0,0,0,0,0,0,0,0,0,0,,,,,0.0,,,,,,
2341249,1745077614525,,,,,,,,,,,,,,,,,,,,,,,,,,,,,,,,,,0,0,0,0,0,0,0,0,0,0,0,0,0,0,0,0,,,,,,,,,,,
2341269,1745077614545,0.13,181.75,,-0.08,-0.08,0.97,0,-0,0,0.98,1.17,83,1310,0.0,3.44,,14.06,1.251,82.6,,107.4,5,,,,,,,,,,,,0,0,0,0,0,0,0,0,0,0,0,0,0,0,0,0,,,,,0.0,,,,,,
2341289,1745077614565,,,,,,,,,,,,,,,,,,,,,,,1,0,1,1,0.0,0.0,0.0,0.0,2.26,,,0,0,0,0,0,0,0,0,0,0,0,0,0,0,0,0,0,,,,,39.240185,-77.965233,0.05,29,3,0.8
2341309,1745077614585,0.0,181.75,,-0.08,-0.09,0.98,0,-0,0,0.99,1.17,84,1266,0.0,3.44,,14.06,1.251,82.6,,107.5,5,,,,,,,,,,,,0,0,0,0,0,0,0,0,0,0,0,0,0,0,0,0,,,,,0.0,,,,,,
2341329,1745077614605,,,,,,,,,,,,,,,,,,,,,,,,,,,,,,,,,,0,0,0,0,0,0,0,0,0,0,0,0,0,0,0,0,,,,,,,,,,,
2341349,1745077614625,0.0,181.75,,-0.09,-0.07,1.0,0,-0,0,1.0,1.17,85,1266,0.0,3.44,,14.11,1.251,82.6,,107.5,5,,,,,,,,,,,,0,0,0,0,0,0,0,0,0,0,0,0,0,0,0,0,,,,,0.0,,,,,,
2341369,1745077614645,,,,,,,,,,,,,,,,,,,,,,,,,,,,,,,,,,0,0,0,0,0,0,0,0,0,0,0,0,0,0,0,0,,,,,,,,,,,
2341389,1745077614665,0.0,181.75,12.57,-0.09,-0.07,1.0,0,-0,0,1.0,1.17,86,1413,0.0,3.46,15,13.95,1.251,82.6,160,107.4,5,1,0,1,1,0.0,0.0,0.0,0.0,2.26,0,0.0,0,0,0,0,0,0,0,0,0,0,0,0,0,0,0,0,0,0.0,0,0,0.0,39.240185,-77.965233,0.14,29,3,0.8
2341409,1745077614685,,,,,,,,,,,,,,,,,,,,,,,,,,,,,,,,,,0,0,0,0,0,0,0,0,0,0,0,0,0,0,0,0,,,,,,,,,,,
2341429,1745077614708,0.0,181.75,,-0.08,-0.08,0.99,0,-0,0,1.0,1.17,85,1319,0.0,3.44,,13.99,1.251,82.6,,107.4,5,,,,,,,,,,,,0,0,0,0,0,0,0,0,0,0,0,0,0,0,0,0,,,,,0.0,,,,,,
2341449,1745077614728,,,,,,,,,,,,,,,,,,,,,,,,,,,,,,,,,,0,0,0,0,0,0,0,0,0,0,0,0,0,0,0,0,,,,,,,,,,,
2341469,1745077614748,0.0,181.75,,-0.08,-0.08,0.98,0,-0,0,0.99,1.17,84,1346,0.0,3.44,,14.0,1.25,82.6,,107.4,5,,,,,,,,,,,,0,0,0,0,0,0,0,0,0,0,0,0,0,0,0,0,,,,,0.0,,,,,,
2341489,1745077614768,,,,,,,,,,,,,,,,,,,,,,,1,0,1,1,0.0,0.0,0.0,0.0,2.26,,,0,0,0,0,0,0,0,0,0,0,0,0,0,0,0,0,0,,,,,39.240185,-77.965233,0.21,29,3,0.8
2341509,1745077614788,0.0,181.88,,-0.09,-0.07,1.01,-0,-0,0,1.01,1.17,86,1249,0.0,3.44,,14.0,1.25,82.6,,107.4,5,,,,,,,,,,,,0,0,0,0,0,0,0,0,0,0,0,0,0,0,0,0,,,,,0.0,,,,,,
2341529,1745077614805,,,,,,,,,,,,,,,,,,,,,,,,,,,,,,,,,,0,0,0,0,0,0,0,0,0,0,0,0,0,0,0,0,,,,,,,,,,,
2341549,1745077614825,0.0,181.88,,-0.09,-0.06,1.01,-0,-0,0,1.02,1.17,86,1249,0.0,3.44,,14.11,1.213,82.6,,107.4,5,,,,,,,,,,,,0,0,0,0,0,0,0,0,0,0,0,0,0,0,0,0,,,,,0.0,,,,,,
2341569,1745077614845,,,,,,,,,,,,,,,,,,,,,,,,,,,,,,,,,,0,0,0,0,0,0,0,0,0,0,0,0,0,0,0,0,,,,,,,,,,,
2341589,1745077614865,0.0,181.88,,-0.09,-0.07,1.0,0,-0,0,1.01,1.17,86,1408,0.0,3.46,,14.04,1.183,82.6,,107.4,5,1,0,1,1,0.0,0.0,0.0,0.0,2.26,,,0,0,0,0,0,0,0,0,0,0,0,0,0,0,0,0,0,,,,0.0,39.240185,-77.965233,0.13,29,3,0.8
2341609,1745077614885,,,,,,,,,,,,,,,,,,,,,,,,,,,,,,,,,,0,0,0,0,0,0,0,0,0,0,0,0,0,0,0,0,,,,,,,,,,,
2341629,1745077614905,0.0,181.88,,-0.1,-0.06,0.99,-0,-0,0,1.0,1.17,85,1241,0.0,3.44,,14.02,1.164,82.6,,107.4,5,,,,,,,,,,,,0,0,0,0,0,0,0,0,0,0,0,0,0,0,0,0,,,,,0.0,,,,,,
2341649,1745077614925,,,,,,,,,,,,,,,,,,,,,,,,,,,,,,,,,,0,0,0,0,0,0,0,0,0,0,0,0,0,0,0,0,,,,,,,,,,,
2341669,1745077614945,0.0,181.88,,-0.08,-0.06,0.99,-0,-0,0,1.0,1.17,85,1321,0.0,3.46,,13.98,1.199,82.6,,107.4,5,,,,,,,,,,,,0,0,0,0,0,0,0,0,0,0,0,0,0,0,0,0,,,,,0.0,,,,,,
2341689,1745077614965,,,,,,,,,,,,,,,,,,,,,,,1,0,1,1,0.0,0.0,0.0,0.0,2.26,,,0,0,0,0,0,0,0,0,0,0,0,0,0,0,0,0,0,,,,,39.240185,-77.965233,0.23,29,3,0.8
2341709,1745077614985,0.0,181.88,,-0.06,-0.06,1.0,-0,-0,0,1.01,1.17,86,1425,0.0,3.45,,13.98,1.199,82.6,,107.4,5,,,,,,,,,,,,0,0,0,0,0,0,0,0,0,0,0,0,0,0,0,0,,,,,0.0,,,,,,
2341729,1745077615005,,,,,,,,,,,,,,,,,,,,,,,,,,,,,,,,,,0,0,0,0,0,0,0,0,0,0,0,0,0,0,0,0,,,,,,,,,,,
2341749,1745077615017,0.0,181.88,,-0.05,-0.06,1.0,-0,-0,0,1.01,1.17,86,1425,0.0,3.45,,14.04,1.213,82.6,,107.4,5,,,,,,,,,,,,0,0,0,0,0,0,0,0,0,0,0,0,0,0,0,0,,,,,0.0,,,,,,
2341769,1745077615037,,,,,,,,,,,,,,,,,,,,,,,,,,,,,,,,,,0,0,0,0,0,0,0,0,0,0,0,0,0,0,0,0,,,,,,,,,,,
2341789,1745077615057,0.0,181.88,,-0.06,-0.04,0.99,-0,-0,0,0.99,1.17,85,1311,10.3,3.77,,14.24,1.243,82.6,,107.5,5,1,0,1,1,0.0,0.0,0.0,0.0,2.26,,,0,0,0,0,0,0,0,0,0,0,0,0,0,0,0,0,0,,,,0.0,39.240185,-77.965233,0.07,29,3,0.8
2341809,1745077615077,,,,,,,,,,,,,,,,,,,,,,,,,,,,,,,,,,0,0,0,0,0,0,0,0,0,0,0,0,0,0,0,0,,,,,,,,,,,
2341829,1745077615107,0.0,181.88,,-0.06,-0.05,0.99,-0,-0,0,1.0,1.17,85,1377,15.8,4.05,,14.23,1.251,82.6,,107.5,5,,,,,,,,,,,,0,0,0,0,0,0,0,0,0,0,0,0,0,0,0,0,,,,,0.0,,,,,,
2341849,1745077615127,,,,,,,,,,,,,,,,,,,,,,,,,,,,,,,,,,0,0,0,0,0,0,0,0,0,0,0,0,0,0,0,0,,,,,,,,,,,
2341869,1745077615147,0.0,181.88,,-0.06,-0.05,1.01,-0,-0,0,1.01,1.17,86,1303,17.4,4.1,,14.19,1.251,82.6,,107.5,5,,,,,,,,,,,,0,0,0,0,0,0,0,0,0,0,0,0,0,0,0,0,,,,,0.0,,,,,,
2341889,1745077615167,,,,,,,,,,,,,,,,,,,,,,,1,0,1,1,0.0,0.0,0.0,0.0,2.26,,,0,0,0,0,0,0,0,0,0,0,0,0,0,0,0,0,0,,,,,39.240185,-77.965233,0.05,29,3,0.8
2341909,1745077615187,0.0,181.88,,-0.07,-0.04,1.04,-0,-0,0,1.04,1.17,88,1404,19.9,4.05,,14.19,1.251,82.6,,107.4,5,,,,,,,,,,,,0,0,0,0,0,0,0,0,0,0,0,0,0,0,0,0,,,,,0.0,,,,,,
2341929,1745077615205,,,,,,,,,,,,,,,,,,,,,,,,,,,,,,,,,,0,0,0,0,0,0,0,0,0,0,0,0,0,0,0,0,,,,,,,,,,,
2341949,1745077615225,0.0,181.75,,-0.07,-0.04,1.03,-0,-0,0,1.03,1.17,88,1404,19.9,4.05,,14.24,1.251,82.6,,107.4,5,,,,,,,,,,,,0,0,0,0,0,0,0,0,0,0,0,0,0,0,0,0,,,,,0.0,,,,,,
2341969,1745077615245,,,,,,,,,,,,,,,,,,,,,,,,,,,,,,,,,,0,0,0,0,0,0,0,0,0,0,0,0,0,0,0,0,,,,,,,,,,,
2341989,1745077615265,0.0,181.75,,-0.07,-0.04,1.02,-0,-0,0,1.03,1.17,87,2081,24.2,4.3,,14.15,1.249,82.6,,107.4,5,1,0,1,1,0.0,0.0,0.0,0.0,2.26,,,0,0,0,0,0,0,0,0,0,0,0,0,0,0,0,0,0,,,,0.0,39.240185,-77.965233,0.11,29,3,0.8
2342009,1745077615285,,,,,,,,,,,,,,,,,,,,,,,,,,,,,,,,,,0,0,0,0,0,0,0,0,0,0,0,0,0,0,0,0,,,,,,,,,,,
2342029,1745077615307,0.0,181.88,,-0.08,-0.03,1.01,-0,-0,0,1.02,1.17,87,2159,24.4,4.53,,14.2,1.249,82.6,,107.4,5,,,,,,,,,,,,0,0,0,0,0,0,0,0,0,0,0,0,0,0,0,0,,,,,0.0,,,,,,
2342049,1745077615327,,,,,,,,,,,,,,,,,,,,,,,,,,,,,,,,,,0,0,0,0,0,0,0,0,0,0,0,0,0,0,0,0,,,,,,,,,,,
2342069,1745077615347,0.0,181.88,,-0.08,-0.03,1.02,-0,-0,0,1.02,1.17,87,1991,24.5,4.42,,14.15,1.248,82.6,,107.4,5,,,,,,,,,,,,0,0,0,0,0,0,0,0,0,0,0,0,0,0,0,0,,,,,0.0,,,,,,
2342089,1745077615367,,,,,,,,,,,,,,,,,,,,,,,1,0,1,0,0.0,0.0,0.0,0.0,2.26,,,0,0,0,0,0,0,0,0,0,0,0,0,0,0,0,0,0,,,,,39.240185,-77.965233,0.38,29,3,0.8
2342109,1745077615387,0.0,181.88,,-0.07,-0.03,1.04,-0,-0,0,1.05,1.17,89,2224,14.6,4.5,,14.15,1.248,82.6,,107.4,5,,,,,,,,,,,,0,0,0,0,0,0,0,0,0,0,0,0,0,0,0,0,,,,,0.0,,,,,,
2342129,1745077615405,,,,,,,,,,,,,,,,,,,,,,,,,,,,,,,,,,0,0,0,0,0,0,0,0,0,0,0,0,0,0,0,0,,,,,,,,,,,
2342149,1745077615425,0.0,181.88,,-0.08,-0.01,1.03,-1,-0,0,1.03,1.17,88,2224,14.6,4.5,,14.02,1.248,82.6,,107.4,5,,,,,,,,,,,,0,0,0,0,0,0,0,0,0,0,0,0,0,0,0,0,,,,,0.0,,,,,,
2342169,1745077615445,,,,,,,,,,,,,,,,,,,,,,,,,,,,,,,,,,0,0,0,0,0,0,0,0,0,0,0,0,0,0,0,0,,,,,,,,,,,
2342189,1745077615465,0.0,181.75,,-0.06,0.05,1.01,-1,-0,1,1.01,1.17,86,2896,8.9,3.81,,13.77,1.248,82.6,,24.3,5,1,0,0,0,0.0,0.0,0.0,0.0,2.26,,,0,0,0,0,0,0,0,0,0,0,0,0,0,0,0,0,0,,,,0.0,39.240185,-77.965233,0.26,29,3,0.8
2342209,1745077615485,,,,,,,,,,,,,,,,,,,,,,,,,,,,,,,,,,0,0,0,0,0,0,0,0,0,0,0,0,0,0,0,0,,,,,,,,,,,
2342229,1745077615507,0.0,181.88,,-0.06,-0.01,1.07,-1,-0,1,1.07,1.17,91,3144,1.3,3.65,,13.35,1.25,82.6,,24.3,5,,,,,,,,,,,,0,0,0,0,0,0,0,0,0,0,0,0,0,0,0,0,,,,,0.0,,,,,,
2342249,1745077615527,,,,,,,,,,,,,,,,,,,,,,,,,,,,,,,,,,0,0,0,0,0,0,0,0,0,0,0,0,0,0,0,0,,,,,,,,,,,
2342269,1745077615547,0.0,181.75,,-0.09,-0.08,1.11,-1,-0,1,1.11,1.17,95,3141,0.0,2.83,,13.04,1.251,82.6,,24.3,5,,,,,,,,,,,,0,0,0,0,0,0,0,0,0,0,0,0,0,0,0,0,,,,,0.0,,,,,,
2342289,1745077615567,,,,,,,,,,,,,,,,,,,,,,,0,0,0,0,0.0,0.0,0.0,0.0,2.26,,,0,0,0,0,0,0,0,0,0,0,0,0,0,0,0,0,0,,,,,39.240185,-77.965233,0.04,29,3,0.8
2342309,1745077615587,0.0,181.75,,-0.11,-0.08,1.09,-0,-0,0,1.1,1.17,94,3072,5.4,3.73,,13.04,1.251,82.6,,27.4,5,,,,,,,,,,,,0,0,0,0,0,0,0,0,0,0,0,0,0,0,0,0,,,,,0.0,,,,,,
2342329,1745077615606,,,,,,,,,,,,,,,,,,,,,,,,,,,,,,,,,,0,0,0,0,0,0,0,0,0,0,0,0,0,0,0,0,,,,,,,,,,,
2342349,1745077615626,0.0,181.88,,-0.13,-0.09,1.09,-0,-0,0,1.1,1.17,93,3072,5.4,3.73,,13.12,1.251,82.6,,27.4,5,,,,,,,,,,,,0,0,0,0,0,0,0,0,0,0,0,0,0,0,0,0,,,,,0.0,,,,,,
2342369,1745077615646,,,,,,,,,,,,,,,,,,,,,,,,,,,,,,,,,,0,0,0,0,0,0,0,0,0,0,0,0,0,0,0,0,,,,,,,,,,,
2342389,1745077615666,0.0,181.88,13.4,-0.14,-0.11,1.1,0,-0,-0,1.11,1.17,94,2996,7.7,3.82,15,13.37,1.251,82.6,160,25.6,5,0,0,0,0,0.0,0.0,0.0,0.0,2.26,0,0.0,0,0,0,0,0,0,0,0,0,0,0,0,0,0,0,0,0,0.0,0,0,0.0,39.240185,-77.965233,0.25,29,3,0.8
2342409,1745077615686,,,,,,,,,,,,,,,,,,,,,,,,,,,,,,,,,,0,0,0,0,0,0,0,0,0,0,0,0,0,0,0,0,,,,,,,,,,,
2342429,1745077615706,0.0,181.88,,-0.16,-0.11,1.11,0,0,-0,1.12,1.17,96,3010,7.1,3.77,,13.37,1.251,82.6,,25.6,5,,,,,,,,,,,,0,0,0,0,0,0,0,0,0,0,0,0,0,0,0,0,,,,,0.0,,,,,,
2342449,1745077615726,,,,,,,,,,,,,,,,,,,,,,,,,,,,,,,,,,0,0,0,0,0,0,0,0,0,0,0,0,0,0,0,0,,,,,,,,,,,
2342469,1745077615746,0.0,181.88,,-0.16,-0.14,1.16,0,0,-0,1.18,1.18,100,2847,2.8,3.46,,13.32,1.25,82.6,,25.6,5,,,,,,,,,,,,0,0,0,0,0,0,0,0,0,0,0,0,0,0,0,0,,,,,0.0,,,,,,
2342489,1745077615766,,,,,,,,,,,,,,,,,,,,,,,0,0,0,0,0.0,0.0,0.0,0.0,2.26,,,0,0,0,0,0,0,0,0,0,0,0,0,0,0,0,0,0,,,,,39.240185,-77.965233,0.23,29,3,0.8
2342509,1745077615786,0.0,181.88,,-0.16,-0.17,1.2,1,0,-0,1.22,1.22,100,3022,2.7,3.41,,13.32,1.25,82.6,,26.1,5,,,,,,,,,,,,0,0,0,0,0,0,0,0,0,0,0,0,0,0,0,0,,,,,0.0,,,,,,
2342529,1745077615806,,,,,,,,,,,,,,,,,,,,,,,,,,,,,,,,,,0,0,0,0,0,0,0,0,0,0,0,0,0,0,0,0,,,,,,,,,,,
2342549,1745077615826,0.0,181.88,,-0.17,-0.18,1.23,1,0,-0,1.26,1.26,100,3022,2.7,3.41,,13.15,1.249,82.6,,26.1,5,,,,,,,,,,,,0,0,0,0,0,0,0,0,0,0,0,0,0,0,0,0,,,,,0.0,,,,,,
2342569,1745077615846,,,,,,,,,,,,,,,,,,,,,,,,,,,,,,,,,,0,0,0,0,0,0,0,0,0,0,0,0,0,0,0,0,,,,,,,,,,,
2342589,1745077615866,0.0,181.75,,-0.17,-0.18,1.26,1,0,-0,1.28,1.28,100,2923,2.7,3.42,,13.13,1.247,82.6,,24.7,5,0,0,0,0,0.0,0.0,0.0,0.0,2.26,,,0,0,0,0,0,0,0,0,0,0,0,0,0,0,0,0,0,,,,0.0,39.240185,-77.965233,0.05,29,3,0.8
2342609,1745077615886,,,,,,,,,,,,,,,,,,,,,,,,,,,,,,,,,,0,0,0,0,0,0,0,0,0,0,0,0,0,0,0,0,,,,,,,,,,,
2342629,1745077615906,0.0,181.75,,-0.15,-0.19,1.27,0,-0,0,1.29,1.29,100,2946,2.6,3.44,,13.17,1.248,82.6,,24.7,5,,,,,,,,,,,,0,0,0,0,0,0,0,0,0,0,0,0,0,0,0,0,,,,,0.0,,,,,,
2342649,1745077615926,,,,,,,,,,,,,,,,,,,,,,,,,,,,,,,,,,0,0,0,0,0,0,0,0,0,0,0,0,0,0,0,0,,,,,,,,,,,
2342669,1745077615946,0.0,181.75,,-0.13,-0.18,1.25,-0,-0,1,1.27,1.29,99,2928,2.7,3.45,,13.2,1.248,82.6,,24.7,5,,,,,,,,,,,,0,0,0,0,0,0,0,0,0,0,0,0,0,0,0,0,,,,,0.0,,,,,,
2342689,1745077615966,,,,,,,,,,,,,,,,,,,,,,,0,0,0,0,0.0,0.0,0.0,0.0,2.26,,,0,0,0,0,0,0,0,0,0,0,0,0,0,0,0,0,0,,,,,39.240185,-77.965233,0.22,29,3,0.8
2342709,1745077615986,0.0,181.75,,-0.11,-0.11,1.22,-1,-0,1,1.23,1.29,95,2920,3.1,3.51,,13.2,1.248,82.6,,25.6,5,,,,,,,,,,,,0,0,0,0,0,0,0,0,0,0,0,0,0,0,0,0,,,,,0.0,,,,,,
2342729,1745077616006,,,,,,,,,,,,,,,,,,,,,,,,,,,,,,,,,,0,0,0,0,0,0,0,0,0,0,0,0,0,0,0,0,,,,,,,,,,,
2342749,1745077616018,0.0,181.75,,-0.1,-0.05,1.17,-1,-0,1,1.17,1.29,91,2920,3.1,3.51,,13.24,1.25,82.6,,25.6,5,,,,,,,,,,,,0,0,0,0,0,0,0,0,0,0,0,0,0,0,0,0,,,,,0.0,,,,,,
2342769,1745077616038,,,,,,,,,,,,,,,,,,,,,,,,,,,,,,,,,,0,0,0,0,0,0,0,0,0,0,0,0,0,0,0,0,,,,,,,,,,,
2342789,1745077616058,0.0,181.62,,-0.08,-0.01,1.09,-1,-0,1,1.09,1.29,85,2966,3.3,3.51,,13.2,1.251,82.6,,25.0,5,0,0,0,0,0.0,0.0,0.0,0.0,2.26,,,0,0,0,0,0,0,0,0,0,0,0,0,0,0,0,0,0,,,,0.0,39.240185,-77.965233,0.07,29,3,0.8
2342809,1745077616078,,,,,,,,,,,,,,,,,,,,,,,,,,,,,,,,,,0,0,0,0,0,0,0,0,0,0,0,0,0,0,0,0,,,,,,,,,,,
2342829,1745077616106,0.0,181.62,,-0.07,0.02,1.0,-0,-0,1,1.0,1.29,78,2944,3.5,3.55,,13.25,1.251,82.6,,25.0,5,,,,,,,,,,,,0,0,0,0,0,0,0,0,0,0,0,0,0,0,0,0,,,,,0.0,,,,,,
2342849,1745077616126,,,,,,,,,,,,,,,,,,,,,,,,,,,,,,,,,,0,0,0,0,0,0,0,0,0,0,0,0,0,0,0,0,,,,,,,,,,,
2342869,1745077616146,0.0,181.62,,-0.08,0.03,0.93,-0,-0,0,0.93,1.29,72,2906,3.6,3.54,,13.29,1.252,82.6,,25.0,5,,,,,,,,,,,,0,0,0,0,0,0,0,0,0,0,0,0,0,0,0,0,,,,,0.0,,,,,,
2342889,1745077616166,,,,,,,,,,,,,,,,,,,,,,,0,0,0,0,0.0,0.0,0.0,0.0,2.26,,,0,0,0,0,0,0,0,0,0,0,0,0,0,0,0,0,0,,,,,39.240185,-77.965233,0.06,29,3,0.8
2342909,1745077616186,0.0,181.62,,-0.08,0.02,0.89,0,-0,-0,0.89,1.29,69,2929,3.6,3.56,,13.29,1.252,82.6,,25.2,5,,,,,,,,,,,,0,0,0,0,0,0,0,0,0,0,0,0,0,0,0,0,,,,,0.0,,,,,,
2342929,1745077616202,,,,,,,,,,,,,,,,,,,,,,,,,,,,,,,,,,0,0,0,0,0,0,0,0,0,0,0,0,0,0,0,0,,,,,,,,,,,
2342949,1745077616222,0.0,181.75,,-0.09,0.0,0.86,0,-0,-0,0.87,1.29,67,2929,3.6,3.56,,13.27,1.252,82.6,,25.2,5,,,,,,,,,,,,0,0,0,0,0,0,0,0,0,0,0,0,0,0,0,0,,,,,0.0,,,,,,
2342969,1745077616242,,,,,,,,,,,,,,,,,,,,,,,,,,,,,,,,,,0,0,0,0,0,0,0,0,0,0,0,0,0,0,0,0,,,,,,,,,,,
2342989,1745077616262,0.0,181.62,,-0.1,0.01,0.82,1,-0,-1,0.83,1.29,64,3035,3.7,3.58,,13.23,1.25,82.6,,25.8,5,0,0,0,0,0.0,0.0,0.0,0.0,2.26,,,0,0,0,0,0,0,0,0,0,0,0,0,0,0,0,0,0,,,,0.0,39.240185,-77.965233,0.09,29,3,0.8
2343009,1745077616282,,,,,,,,,,,,,,,,,,,,,,,,,,,,,,,,,,0,0,0,0,0,0,0,0,0,0,0,0,0,0,0,0,,,,,,,,,,,
2343029,1745077616308,0.0,181.62,,-0.1,0.02,0.77,1,-0,-1,0.78,1.29,60,3038,3.7,3.58,,13.17,1.249,82.6,,25.8,5,,,,,,,,,,,,0,0,0,0,0,0,0,0,0,0,0,0,0,0,0,0,,,,,0.0,,,,,,
2343049,1745077616328,,,,,,,,,,,,,,,,,,,,,,,,,,,,,,,,,,0,0,0,0,0,0,0,0,0,0,0,0,0,0,0,0,,,,,,,,,,,
2343069,1745077616348,0.0,181.62,,-0.11,0.0,0.77,1,-0,-1,0.78,1.29,60,3010,3.7,3.58,,13.19,1.248,82.6,,25.8,5,,,,,,,,,,,,0,0,0,0,0,0,0,0,0,0,0,0,0,0,0,0,,,,,0.0,,,,,,
2343089,1745077616368,,,,,,,,,,,,,,,,,,,,,,,0,0,0,0,0.0,0.0,0.0,0.0,2.26,,,0,0,0,0,0,0,0,0,0,0,0,0,0,0,0,0,0,,,,,39.240185,-77.965233,0.08,29,3,0.8
2343109,1745077616388,0.0,181.62,,-0.11,-0.01,0.75,1,-0,-1,0.76,1.29,59,2980,3.6,3.6,,13.19,1.248,82.6,,26.1,5,,,,,,,,,,,,0,0,0,0,0,0,0,0,0,0,0,0,0,0,0,0,,,,,0.0,,,,,,
2343129,1745077616406,,,,,,,,,,,,,,,,,,,,,,,,,,,,,,,,,,0,0,0,0,0,0,0,0,0,0,0,0,0,0,0,0,,,,,,,,,,,
2343149,1745077616426,0.0,181.62,,-0.11,0.02,0.71,1,-0,-1,0.72,1.29,55,2980,3.6,3.6,,13.2,1.248,82.6,,26.1,5,,,,,,,,,,,,0,0,0,0,0,0,0,0,0,0,0,0,0,0,0,0,,,,,0.0,,,,,,
2343169,1745077616446,,,,,,,,,,,,,,,,,,,,,,,,,,,,,,,,,,0,0,0,0,0,0,0,0,0,0,0,0,0,0,0,0,,,,,,,,,,,
2343189,1745077616466,0.0,181.62,,-0.1,0.06,0.66,1,-0,-1,0.67,1.29,52,3077,3.5,3.6,,13.15,1.248,82.6,,26.1,5,0,0,0,0,0.0,0.0,0.0,0.0,2.26,,,0,0,0,0,0,0,0,0,0,0,0,0,0,0,0,0,0,,,,0.0,39.240185,-77.965233,0.2,29,3,0.8
2343209,1745077616486,,,,,,,,,,,,,,,,,,,,,,,,,,,,,,,,,,0,0,0,0,0,0,0,0,0,0,0,0,0,0,0,0,,,,,,,,,,,
2343229,1745077616505,0.0,181.62,,-0.08,0.12,0.63,1,-0,-1,0.65,1.29,50,3084,3.5,3.58,,13.11,1.249,82.6,,26.1,5,,,,,,,,,,,,0,0,0,0,0,0,0,0,0,0,0,0,0,0,0,0,,,,,0.0,,,,,,
2343249,1745077616525,,,,,,,,,,,,,,,,,,,,,,,,,,,,,,,,,,0,0,0,0,0,0,0,0,0,0,0,0,0,0,0,0,,,,,,,,,,,
2343269,1745077616545,0.0,181.62,,-0.08,0.11,0.72,0,-0,-0,0.73,1.29,57,3208,3.5,3.55,,13.09,1.251,82.6,,26.1,5,,,,,,,,,,,,0,0,0,0,0,0,0,0,0,0,0,0,0,0,0,0,,,,,0.0,,,,,,
2343289,1745077616565,,,,,,,,,,,,,,,,,,,,,,,0,0,0,0,0.0,0.0,0.0,0.0,2.26,,,0,0,0,0,0,0,0,0,0,0,0,0,0,0,0,0,0,,,,,39.240185,-77.965233,0.28,29,3,0.8
2343309,1745077616585,0.0,181.5,,-0.08,0.07,0.69,1,-0,-1,0.7,1.29,54,3389,3.6,3.52,,13.09,1.251,82.6,,28.6,5,,,,,,,,,,,,0,0,0,0,0,0,0,0,0,0,0,0,0,0,0,0,,,,,0.0,,,,,,
2343329,1745077616607,,,,,,,,,,,,,,,,,,,,,,,,,,,,,,,,,,0,0,0,0,0,0,0,0,0,0,0,0,0,0,0,0,,,,,,,,,,,
2343349,1745077616627,0.0,181.62,,-0.06,0.08,0.78,0,-0,-0,0.79,1.29,61,3389,3.6,3.52,,13.04,1.251,82.6,,28.6,5,,,,,,,,,,,,0,0,0,0,0,0,0,0,0,0,0,0,0,0,0,0,,,,,0.0,,,,,,
2343369,1745077616647,,,,,,,,,,,,,,,,,,,,,,,,,,,,,,,,,,0,0,0,0,0,0,0,0,0,0,0,0,0,0,0,0,,,,,,,,,,,
2343389,1745077616667,0.0,181.62,13.5,-0.07,0.03,0.78,1,-0,-0,0.79,1.29,61,3310,3.7,3.55,15,12.96,1.246,82.6,160,29.3,5,0,0,0,0,0.0,0.0,0.0,0.0,2.26,0,0.0,0,0,0,0,0,0,0,0,0,0,0,0,0,0,0,0,0,0.0,0,0,0.0,39.240185,-77.965233,0.04,29,3,0.8
2343409,1745077616687,,,,,,,,,,,,,,,,,,,,,,,,,,,,,,,,,,0,0,0,0,0,0,0,0,0,0,0,0,0,0,0,0,,,,,,,,,,,
2343429,1745077616705,0.0,181.62,,-0.05,0.08,0.81,0,-0,0,0.81,1.29,63,3317,3.7,3.51,,12.99,1.223,82.6,,29.3,5,,,,,,,,,,,,0,0,0,0,0,0,0,0,0,0,0,0,0,0,0,0,,,,,0.0,,,,,,
2343449,1745077616725,,,,,,,,,,,,,,,,,,,,,,,,,,,,,,,,,,0,0,0,0,0,0,0,0,0,0,0,0,0,0,0,0,,,,,,,,,,,
2343469,1745077616745,0.0,181.62,,-0.06,-0.03,0.84,1,-0,-0,0.84,1.29,65,3336,3.7,3.56,,12.97,1.202,82.6,,29.3,5,,,,,,,,,,,,0,0,0,0,0,0,0,0,0,0,0,0,0,0,0,0,,,,,0.0,,,,,,
2343489,1745077616765,,,,,,,,,,,,,,,,,,,,,,,0,0,0,0,0.0,0.0,0.0,0.0,2.26,,,0,0,0,0,0,0,0,0,0,0,0,0,0,0,0,0,0,,,,,39.240185,-77.965233,0.08,29,3,0.8
2343509,1745077616785,0.0,181.62,,-0.06,0.02,0.9,-0,-0,0,0.9,1.29,70,3473,3.7,3.54,,12.97,1.202,82.6,,30.3,5,,,,,,,,,,,,0,0,0,0,0,0,0,0,0,0,0,0,0,0,0,0,,,,,0.0,,,,,,
2343529,1745077616805,,,,,,,,,,,,,,,,,,,,,,,,,,,,,,,,,,0,0,0,0,0,0,0,0,0,0,0,0,0,0,0,0,,,,,,,,,,,
2343549,1745077616825,0.0,181.75,,-0.04,0.05,0.86,0,-0,0,0.86,1.29,67,3473,3.7,3.54,,12.89,1.247,82.6,,30.3,5,,,,,,,,,,,,0,0,0,0,0,0,0,0,0,0,0,0,0,0,0,0,,,,,0.0,,,,,,
2343569,1745077616845,,,,,,,,,,,,,,,,,,,,,,,,,,,,,,,,,,0,0,0,0,0,0,0,0,0,0,0,0,0,0,0,0,,,,,,,,,,,
2343589,1745077616865,0.0,181.62,,-0.06,-0.08,0.92,0,-0,-0,0.93,1.29,72,3475,3.7,3.55,,12.89,1.243,82.6,,30.1,5,0,0,0,0,0.0,0.0,0.0,0.0,2.26,,,0,0,0,0,0,0,0,0,0,0,0,0,0,0,0,0,0,,,,0.0,39.240185,-77.965233,0.11,29,3,0.8
2343609,1745077616885,,,,,,,,,,,,,,,,,,,,,,,,,,,,,,,,,,0,0,0,0,0,0,0,0,0,0,0,0,0,0,0,0,,,,,,,,,,,
2343629,1745077616905,0.0,181.62,,-0.05,-0.01,0.92,-0,-0,0,0.92,1.29,72,3417,3.6,3.54,,12.87,1.19,82.6,,30.1,5,,,,,,,,,,,,0,0,0,0,0,0,0,0,0,0,0,0,0,0,0,0,,,,,0.0,,,,,,
2343649,1745077616925,,,,,,,,,,,,,,,,,,,,,,,,,,,,,,,,,,0,0,0,0,0,0,0,0,0,0,0,0,0,0,0,0,,,,,,,,,,,
2343669,1745077616945,0.0,181.62,,-0.04,-0.02,0.88,0,-0,0,0.88,1.29,68,3595,3.5,3.55,,12.87,1.195,82.6,,30.1,5,,,,,,,,,,,,0,0,0,0,0,0,0,0,0,0,0,0,0,0,0,0,,,,,0.0,,,,,,
2343689,1745077616965,,,,,,,,,,,,,,,,,,,,,,,0,0,0,0,0.0,0.0,0.0,0.0,2.26,,,0,0,0,0,0,0,0,0,0,0,0,0,0,0,0,0,0,,,,,39.240185,-77.965233,0.05,29,3,0.8
2343709,1745077616985,0.0,181.62,,-0.06,-0.09,0.9,0,-0,-0,0.91,1.29,70,3521,3.6,3.53,,12.87,1.195,82.6,,31.2,5,,,,,,,,,,,,0,0,0,0,0,0,0,0,0,0,0,0,0,0,0,0,,,,,0.0,,,,,,
2343729,1745077617005,,,,,,,,,,,,,,,,,,,,,,,,,,,,,,,,,,0,0,0,0,0,0,0,0,0,0,0,0,0,0,0,0,,,,,,,,,,,
2343749,1745077617019,0.0,181.62,,-0.07,-0.05,0.96,-0,-0,0,0.96,1.29,74,3521,3.6,3.53,,12.81,1.245,82.6,,31.2,5,,,,,,,,,,,,0,0,0,0,0,0,0,0,0,0,0,0,0,0,0,0,,,,,0.0,,,,,,
2343769,1745077617039,,,,,,,,,,,,,,,,,,,,,,,,,,,,,,,,,,0,0,0,0,0,0,0,0,0,0,0,0,0,0,0,0,,,,,,,,,,,
2343789,1745077617059,0.0,181.5,,-0.04,0.01,0.92,0,-0,0,0.92,1.29,72,3506,3.7,3.53,,12.84,1.165,82.6,,30.0,5,0,0,0,0,0.0,0.0,0.0,0.0,2.26,,,0,0,0,0,0,0,0,0,0,0,0,0,0,0,0,0,0,,,,0.0,39.240185,-77.965233,0.11,28,3,0.9
2343809,1745077617079,,,,,,,,,,,,,,,,,,,,,,,,,,,,,,,,,,0,0,0,0,0,0,0,0,0,0,0,0,0,0,0,0,,,,,,,,,,,
2343829,1745077617106,0.0,181.5,,-0.07,-0.12,0.95,0,-0,-0,0.96,1.29,75,3433,3.8,3.57,,12.88,1.14,82.6,,30.0,5,,,,,,,,,,,,0,0,0,0,0,0,0,0,0,0,0,0,0,0,0,0,,,,,0.0,,,,,,
2343849,1745077617126,,,,,,,,,,,,,,,,,,,,,,,,,,,,,,,,,,0,0,0,0,0,0,0,0,0,0,0,0,0,0,0,0,,,,,,,,,,,
2343869,1745077617146,0.0,181.62,,-0.04,-0.03,0.93,-0,-0,0,0.93,1.29,72,3387,3.9,3.57,,12.91,1.173,82.6,,30.0,5,,,,,,,,,,,,0,0,0,0,0,0,0,0,0,0,0,0,0,0,0,0,,,,,0.0,,,,,,
