"Interval"|"ms"|0|0|1,"Utc"|"ms"|0|0|1,"FrontBP"|"psi"|-5.0|5.0|25,"SteerAng"|"Degrees"|-145.0|145.0|25,"Battery"|"Volts"|-5.0|20.0|1,"AccelX"|"G"|-3.0|3.0|25,"AccelY"|"G"|-3.0|3.0|25,"AccelZ"|"G"|-3.0|3.0|25,"Yaw"|"Deg/Sec"|-120|120|25,"Pitch"|"Deg/Sec"|-120|120|25,"Roll"|"Deg/Sec"|-120|120|25,"Gsum"|"G"|0.0|3.0|25,"GsumMax"|"G"|0.0|3.0|25,"GsumPct"|"%"|0|100|25,"RPM"|""|0|10000|25,"TPS"|"%"|0.0|100.0|25,"InjectorPW"|"ms"|0.0|100.0|25,"Baro"|"kPa"|0|105|1,"MAP"|"Psi"|0.0|255.0|25,"Lambda"|""|-2.0|2.0|25,"IAT"|"C"|0.0|200.0|25,"EngineTemp"|"C"|0|200|1,"EOP"|"PSI"|0.0|152.0|25,"EOT"|"F"|0|250|25,"WSFR"|"MPH"|0|150|10,"WSFL"|"MPH"|0|100|10,"WSRR"|"MPH"|0|100|10,"WSRL"|""|0|100|10,"TCSet"|"%"|0.0|100.0|10,"TCSlip"|"%"|0.0|100.0|10,"TCComp"|"deg"|0.0|50.0|10,"TCCut"|"%"|0.0|100.0|10,"Analog8"|""|0.0|5.0|10,"OilTemp"|"F"|0|300|1,"AA_On"|""|0.0|1.0|1,"ThermLF1"|"C"|0|400|50,"ThermLF2"|"C"|0|400|50,"ThermRR1"|"C"|0|400|50,"ThermRR2"|"C"|0|400|50,"ThermLF3"|"C"|0|400|50,"ThermLF4"|"C"|0|400|50,"ThermLF5"|"C"|0|400|50,"ThermLF6"|"C"|0|400|50,"ThermLF7"|"C"|0|400|50,"ThermLF8"|"C"|0|400|50,"ThermRR3"|"C"|0|400|50,"ThermRR4"|"C"|0|400|50,"ThermRR5"|"C"|0|400|50,"ThermRR6"|"C"|0|400|50,"ThermRR7"|"C"|0|400|50,"ThermRR8"|"C"|0|400|50,"Gear"|""|1|6|10,"AA_On"|""|0.0|1.0|1,"AA_LowDrag"|""|0|1|1,"Fuel_Mix"|""|-10|10|1,"AA_Packages"|""|0.0|1000.0|25,"Latitude"|"Degrees"|-180.0|180.0|10,"Longitude"|"Degrees"|-180.0|180.0|10,"Speed"|"kph"|0.0|150.0|10,"GPSSats"|""|0|20|10,"GPSQual"|""|0|5|10,"GPSDOP"|""|0.0|20.0|10
2536109,1745077809389,0.0,183.89,,-0.09,-0.04,1.0,0,-0,0,1.0,1.0,100,4252,20.7,4.13,,13.41,1.251,86.2,,42.3,5,,,,,,,,,,,,0,0,0,0,0,0,0,0,0,0,0,0,0,0,0,0,,,,,0.0,,,,,,
2536129,1745077809409,,,,,,,,,,,,,,,,,,,,,,,,,,,,,,,,,,0,0,0,0,0,0,0,0,0,0,0,0,0,0,0,0,,,,,,,,,,,
2536149,1745077809429,0.0,183.89,,-0.05,-0.07,0.96,1,-0,0,0.96,1.0,96,4405,23.9,4.32,,13.41,1.251,86.2,,42.3,5,,,,,,,,,,,,0,0,0,0,0,0,0,0,0,0,0,0,0,0,0,0,,,,,0.0,,,,,,
2536169,1745077809449,,,,,,,,,,,,,,,,,,,,,,,,,,,,,,,,,,0,0,0,0,0,0,0,0,0,0,0,0,0,0,0,0,,,,,,,,,,,
2536189,1745077809469,0.0,183.89,,-0.0,-0.11,0.89,1,-0,-0,0.9,1.0,90,4405,23.9,4.32,,13.57,1.25,86.2,,44.6,5,0,0,0,0,0.0,0.0,0.0,0.0,2.26,,,0,0,0,0,0,0,0,0,0,0,0,0,0,0,0,0,0,,,,0.0,39.239735,-77.964531,0.05,28,3,0.9
2536209,1745077809489,,,,,,,,,,,,,,,,,,,,,,,,,,,,,,,,,,0,0,0,0,0,0,0,0,0,0,0,0,0,0,0,0,,,,,,,,,,,
2536229,1745077809509,0.0,183.89,,0.04,-0.09,0.93,1,-0,-0,0.94,1.0,93,4552,27.1,4.44,,13.6,1.251,86.2,,44.6,5,,,,,,,,,,,,0,0,0,0,0,0,0,0,0,0,0,0,0,0,0,0,,,,,0.0,,,,,,
2536249,1745077809529,,,,,,,,,,,,,,,,,,,,,,,,,,,,,,,,,,0,0,0,0,0,0,0,0,0,0,0,0,0,0,0,0,,,,,,,,,,,
2536269,1745077809549,0.0,183.89,,-0.0,-0.05,0.95,0,-0,0,0.95,1.0,94,4743,31.8,4.84,,13.76,1.25,86.2,,44.6,5,,,,,,,,,,,,0,0,0,0,0,0,0,0,0,0,0,0,0,0,0,0,,,,,0.0,,,,,,
2536289,1745077809569,,,,,,,,,,,,,,,,,,,,,,,0,0,0,0,0.0,0.0,0.0,0.0,2.26,,,0,0,0,0,0,0,0,0,0,0,0,0,0,0,0,0,0,,,,,39.239735,-77.964531,0.04,28,3,0.9
2536309,1745077809589,0.0,183.89,,-0.01,-0.11,0.95,1,-0,-0,0.96,1.0,95,5217,33.8,4.93,,13.71,1.249,86.2,,49.9,5,,,,,,,,,,,,0,0,0,0,0,0,0,0,0,0,0,0,0,0,0,0,,,,,0.0,,,,,,
2536329,1745077809609,,,,,,,,,,,,,,,,,,,,,,,,,,,,,,,,,,0,0,0,0,0,0,0,0,0,0,0,0,0,0,0,0,,,,,,,,,,,
2536349,1745077809629,0.0,183.89,,-0.04,-0.14,0.89,1,-0,-0,0.9,1.0,90,5872,34.6,4.98,,13.71,1.249,86.2,,49.9,5,,,,,,,,,,,,0,0,0,0,0,0,0,0,0,0,0,0,0,0,0,0,,,,,0.0,,,,,,
2536369,1745077809649,,,,,,,,,,,,,,,,,,,,,,,,,,,,,,,,,,0,0,0,0,0,0,0,0,0,0,0,0,0,0,0,0,,,,,,,,,,,
2536389,1745077809669,0.0,183.76,13.25,-0.04,-0.18,0.89,1,-0,-1,0.91,1.0,91,5872,34.6,4.98,15,13.41,1.24,86.2,158,63.8,5,0,0,0,0,0.0,0.0,0.0,0.0,2.26,0,0.0,0,0,0,0,0,0,0,0,0,0,0,0,0,0,0,0,0,0.0,0,0,0.0,39.239735,-77.964531,0.0,28,3,0.9
2536409,1745077809689,,,,,,,,,,,,,,,,,,,,,,,,,,,,,,,,,,0,0,0,0,0,0,0,0,0,0,0,0,0,0,0,0,,,,,,,,,,,
2536429,1745077809708,0.0,183.76,,-0.05,-0.22,0.89,1,-0,-1,0.92,1.0,92,6719,34.8,5.66,,13.31,1.185,86.2,,63.8,5,,,,,,,,,,,,0,0,0,0,0,0,0,0,0,0,0,0,0,0,0,0,,,,,0.0,,,,,,
2536449,1745077809728,,,,,,,,,,,,,,,,,,,,,,,,,,,,,,,,,,0,0,0,0,0,0,0,0,0,0,0,0,0,0,0,0,,,,,,,,,,,
2536469,1745077809748,0.0,183.76,,-0.05,-0.28,0.92,1,-0,-1,0.96,1.0,96,7971,35.7,5.77,,13.04,1.184,86.2,,63.8,5,,,,,,,,,,,,0,0,0,0,0,0,0,0,0,0,0,0,0,0,0,0,,,,,0.0,,,,,,
2536489,1745077809768,,,,,,,,,,,,,,,,,,,,,,,0,0,0,0,0.0,0.0,0.0,0.0,2.25,,,0,0,0,0,0,0,0,0,0,0,0,0,0,0,0,0,0,,,,,39.239735,-77.964531,0.0,28,3,0.9
2536509,1745077809788,0.0,183.76,,-0.01,-0.2,0.97,1,-0,-0,0.99,1.0,99,9592,36.3,5.17,,12.2,0.942,86.2,,73.0,5,,,,,,,,,,,,0,0,0,0,0,0,0,0,0,0,0,0,0,0,0,0,,,,,0.0,,,,,,
2536529,1745077809808,,,,,,,,,,,,,,,,,,,,,,,,,,,,,,,,,,0,0,0,0,0,0,0,0,0,0,0,0,0,0,0,0,,,,,,,,,,,
2536549,1745077809828,0.0,183.63,,-0.05,-0.07,0.98,0,-0,-0,0.98,1.0,98,11221,36.5,3.89,,12.2,0.942,86.2,,73.0,5,,,,,,,,,,,,0,0,0,0,0,0,0,0,0,0,0,0,0,0,0,0,,,,,0.0,,,,,,
2536569,1745077809848,,,,,,,,,,,,,,,,,,,,,,,,,,,,,,,,,,0,0,0,0,0,0,0,0,0,0,0,0,0,0,0,0,,,,,,,,,,,
2536589,1745077809868,0.0,183.63,,-0.08,-0.08,1.06,-0,-0,-0,1.07,1.07,100,11221,36.5,3.89,,11.69,0.862,86.2,,74.7,5,0,0,0,0,0.0,0.0,0.0,0.0,2.25,,,0,0,0,0,0,0,0,0,0,0,0,0,0,0,0,0,0,,,,0.0,39.239735,-77.964531,0.0,28,3,0.9
2536609,1745077809888,,,,,,,,,,,,,,,,,,,,,,,,,,,,,,,,,,0,0,0,0,0,0,0,0,0,0,0,0,0,0,0,0,,,,,,,,,,,
2536629,1745077809909,0.0,183.63,,-0.06,-0.02,1.03,-1,-0,-0,1.03,1.07,97,12369,36.5,3.82,,11.29,0.852,86.2,,74.7,5,,,,,,,,,,,,0,0,0,0,0,0,0,0,0,0,0,0,0,0,0,0,,,,,0.0,,,,,,
2536649,1745077809929,,,,,,,,,,,,,,,,,,,,,,,,,,,,,,,,,,0,0,0,0,0,0,0,0,0,0,0,0,0,0,0,0,,,,,,,,,,,
2536669,1745077809949,0.0,183.51,,-0.08,-0.22,1.02,1,-0,0,1.05,1.07,98,13134,36.8,3.29,,11.0,0.901,86.2,,74.7,5,,,,,,,,,,,,0,0,0,0,0,0,0,0,0,0,0,0,0,0,0,0,,,,,0.0,,,,,,
2536689,1745077809969,,,,,,,,,,,,,,,,,,,,,,,0,0,0,0,0.0,0.0,0.0,0.0,2.25,,,0,0,0,0,0,0,0,0,0,0,0,0,0,0,0,0,0,,,,,39.239735,-77.964531,0.0,28,3,0.9
2536709,1745077809989,0.0,183.51,,-0.02,-0.3,1.06,2,-0,-0,1.1,1.1,100,13456,37.0,2.96,,10.92,0.94,86.2,,75.3,5,,,,,,,,,,,,0,0,0,0,0,0,0,0,0,0,0,0,0,0,0,0,,,,,0.0,,,,,,
2536729,1745077810009,,,,,,,,,,,,,,,,,,,,,,,,,,,,,,,,,,0,0,0,0,0,0,0,0,0,0,0,0,0,0,0,0,,,,,,,,,,,
2536749,1745077810020,0.0,183.51,,-0.01,-0.31,1.07,2,0,-1,1.11,1.11,100,12905,37.2,2.81,,10.92,0.94,86.2,,75.3,5,,,,,,,,,,,,0,0,0,0,0,0,0,0,0,0,0,0,0,0,0,0,,,,,0.0,,,,,,
2536769,1745077810040,,,,,,,,,,,,,,,,,,,,,,,,,,,,,,,,,,0,0,0,0,0,0,0,0,0,0,0,0,0,0,0,0,,,,,,,,,,,
2536789,1745077810060,0.0,183.63,,-0.02,-0.28,0.96,1,0,-1,1.0,1.11,90,12905,37.2,2.81,,10.68,0.989,86.2,,74.1,5,0,0,0,0,0.0,0.0,0.0,0.0,2.26,,,0,0,0,0,0,0,0,0,0,0,0,0,0,0,0,0,0,,,,0.0,39.239735,-77.964531,0.26,28,3,0.9
2536809,1745077810080,,,,,,,,,,,,,,,,,,,,,,,,,,,,,,,,,,0,0,0,0,0,0,0,0,0,0,0,0,0,0,0,0,,,,,,,,,,,
2536829,1745077810104,0.0,183.76,,0.02,-0.21,0.98,1,0,-1,1.0,1.11,90,11453,37.2,3.92,,10.93,1.125,86.2,,74.1,5,,,,,,,,,,,,0,0,0,0,0,0,0,0,0,0,0,0,0,0,0,0,,,,,0.0,,,,,,
2536849,1745077810124,,,,,,,,,,,,,,,,,,,,,,,,,,,,,,,,,,0,0,0,0,0,0,0,0,0,0,0,0,0,0,0,0,,,,,,,,,,,
2536869,1745077810144,0.0,183.89,,0.06,-0.3,0.99,1,0,-0,1.04,1.11,93,10830,37.4,4.07,,11.36,1.247,86.2,,74.1,5,,,,,,,,,,,,0,0,0,0,0,0,0,0,0,0,0,0,0,0,0,0,,,,,0.0,,,,,,
2536889,1745077810164,,,,,,,,,,,,,,,,,,,,,,,0,0,0,0,0.0,0.0,0.0,0.0,2.26,,,0,0,0,0,0,0,0,0,0,0,0,0,0,0,0,0,0,,,,,39.239735,-77.964531,1.08,28,3,0.9
2536909,1745077810184,0.0,183.89,,0.09,-0.34,0.97,1,0,-0,1.03,1.11,93,10528,37.5,4.42,,11.56,1.224,86.2,,72.4,5,,,,,,,,,,,,0,0,0,0,0,0,0,0,0,0,0,0,0,0,0,0,,,,,0.0,,,,,,
2536929,1745077810206,,,,,,,,,,,,,,,,,,,,,,,,,,,,,,,,,,0,0,0,0,0,0,0,0,0,0,0,0,0,0,0,0,,,,,,,,,,,
2536949,1745077810226,0.0,183.76,,0.1,-0.39,0.96,0,0,0,1.04,1.11,94,10399,37.4,4.58,,11.56,1.224,86.2,,72.4,5,,,,,,,,,,,,0,0,0,0,0,0,0,0,0,0,0,0,0,0,0,0,,,,,0.0,,,,,,
2536969,1745077810246,,,,,,,,,,,,,,,,,,,,,,,,,,,,,,,,,,0,0,0,0,0,0,0,0,0,0,0,0,0,0,0,0,,,,,,,,,,,
2536989,1745077810266,0.0,183.76,,0.12,-0.44,0.99,2,0,-0,1.08,1.11,97,10399,37.4,4.58,,11.6,1.105,86.2,,71.7,5,1,0,1,1,0.0,0.0,0.0,0.0,2.26,,,0,0,0,0,0,0,0,0,0,0,0,0,0,0,0,0,0,,,,0.0,39.239735,-77.964531,2.37,28,3,0.9
2537009,1745077810286,,,,,,,,,,,,,,,,,,,,,,,,,,,,,,,,,,0,0,0,0,0,0,0,0,0,0,0,0,0,0,0,0,,,,,,,,,,,
2537029,1745077810308,0.0,183.76,,0.13,-0.36,1.01,2,-0,-0,1.08,1.11,97,10402,37.4,4.59,,11.65,1.05,86.2,,71.7,5,,,,,,,,,,,,0,0,0,0,0,0,0,0,0,0,0,0,0,0,0,0,,,,,0.0,,,,,,
2537049,1745077810328,,,,,,,,,,,,,,,,,,,,,,,,,,,,,,,,,,0,0,0,0,0,0,0,0,0,0,0,0,0,0,0,0,,,,,,,,,,,
2537069,1745077810348,0.0,183.76,,0.17,-0.36,1.01,2,0,-0,1.09,1.11,98,10411,37.4,4.58,,11.75,1.015,86.2,,71.7,5,,,,,,,,,,,,0,0,0,0,0,0,0,0,0,0,0,0,0,0,0,0,,,,,0.0,,,,,,
2537089,1745077810368,,,,,,,,,,,,,,,,,,,,,,,2,0,2,3,0.0,0.0,0.0,0.0,2.26,,,0,0,0,0,0,0,0,0,0,0,0,0,0,0,0,0,0,,,,,39.239735,-77.964531,4.75,28,3,0.9
2537109,1745077810388,0.0,183.76,,0.18,-0.32,1.06,1,0,-0,1.12,1.12,100,10445,37.5,4.56,,11.72,0.999,86.2,,73.6,5,,,,,,,,,,,,0,0,0,0,0,0,0,0,0,0,0,0,0,0,0,0,,,,,0.0,,,,,,
2537129,1745077810408,,,,,,,,,,,,,,,,,,,,,,,,,,,,,,,,,,0,0,0,0,0,0,0,0,0,0,0,0,0,0,0,0,,,,,,,,,,,
2537149,1745077810428,0.0,183.63,,0.19,-0.32,1.04,0,0,-0,1.11,1.12,99,10435,37.6,4.56,,11.72,0.999,86.2,,73.6,5,,,,,,,,,,,,0,0,0,0,0,0,0,0,0,0,0,0,0,0,0,0,,,,,0.0,,,,,,
2537169,1745077810448,,,,,,,,,,,,,,,,,,,,,,,,,,,,,,,,,,0,0,0,0,0,0,0,0,0,0,0,0,0,0,0,0,,,,,,,,,,,
2537189,1745077810468,0.0,183.63,,0.23,-0.22,1.04,-0,0,-0,1.08,1.12,97,10435,37.6,4.56,,11.81,0.986,86.2,,72.7,5,3,0,4,4,0.0,0.0,0.0,0.0,2.26,,,0,0,0,0,0,0,0,0,0,0,0,0,0,0,0,0,0,,,,0.0,39.239735,-77.964531,6.27,28,3,0.9
2537209,1745077810488,,,,,,,,,,,,,,,,,,,,,,,,,,,,,,,,,,0,0,0,0,0,0,0,0,0,0,0,0,0,0,0,0,,,,,,,,,,,
2537229,1745077810508,0.0,183.76,,0.25,-0.08,0.99,-1,0,-0,1.02,1.12,91,10414,37.9,4.59,,11.83,0.984,86.2,,72.7,5,,,,,,,,,,,,0,0,0,0,0,0,0,0,0,0,0,0,0,0,0,0,,,,,0.0,,,,,,
2537249,1745077810528,,,,,,,,,,,,,,,,,,,,,,,,,,,,,,,,,,0,0,0,0,0,0,0,0,0,0,0,0,0,0,0,0,,,,,,,,,,,
2537269,1745077810548,0.0,183.63,,0.3,0.07,0.96,-0,0,0,1.01,1.12,90,10435,38.3,4.59,,11.88,0.984,86.2,,72.7,5,,,,,,,,,,,,0,0,0,0,0,0,0,0,0,0,0,0,0,0,0,0,,,,,0.0,,,,,,
2537289,1745077810568,,,,,,,,,,,,,,,,,,,,,,,4,0,5,4,0.0,0.0,0.0,0.0,2.26,,,0,0,0,0,0,0,0,0,0,0,0,0,0,0,0,0,0,,,,,39.239731,-77.964531,8.1,28,3,0.9
2537309,1745077810588,0.0,183.63,,0.34,0.04,0.93,-0,0,0,0.99,1.12,88,10455,38.4,4.58,,11.79,0.981,86.2,,73.6,5,,,,,,,,,,,,0,0,0,0,0,0,0,0,0,0,0,0,0,0,0,0,,,,,0.0,,,,,,
2537329,1745077810608,,,,,,,,,,,,,,,,,,,,,,,,,,,,,,,,,,0,0,0,0,0,0,0,0,0,0,0,0,0,0,0,0,,,,,,,,,,,
2537349,1745077810628,0.0,183.51,,0.36,-0.06,0.94,-0,0,0,1.01,1.12,90,10452,38.4,4.58,,11.79,0.981,86.2,,73.6,5,,,,,,,,,,,,0,0,0,0,0,0,0,0,0,0,0,0,0,0,0,0,,,,,0.0,,,,,,
2537369,1745077810648,,,,,,,,,,,,,,,,,,,,,,,,,,,,,,,,,,0,0,0,0,0,0,0,0,0,0,0,0,0,0,0,0,,,,,,,,,,,
2537389,1745077810668,0.0,183.51,13.2,0.34,-0.1,0.96,0,0,0,1.03,1.12,91,10452,38.4,4.58,15,11.71,0.979,86.2,158,72.1,5,6,0,6,6,0.0,0.0,0.0,0.0,2.26,0,0.0,0,0,0,0,0,0,0,0,0,0,0,0,0,0,0,0,0,0.0,0,0,0.0,39.239727,-77.964531,9.28,28,3,0.9
2537409,1745077810688,,,,,,,,,,,,,,,,,,,,,,,,,,,,,,,,,,0,0,0,0,0,0,0,0,0,0,0,0,0,0,0,0,,,,,,,,,,,
2537429,1745077810709,0.0,183.51,,0.33,-0.33,0.96,1,0,0,1.07,1.12,95,10460,38.4,4.59,,11.85,0.977,86.2,,72.1,5,,,,,,,,,,,,0,0,0,0,0,0,0,0,0,0,0,0,0,0,0,0,,,,,0.0,,,,,,
2537449,1745077810729,,,,,,,,,,,,,,,,,,,,,,,,,,,,,,,,,,0,0,0,0,0,0,0,0,0,0,0,0,0,0,0,0,,,,,,,,,,,
2537469,1745077810749,0.0,183.51,,0.32,-0.38,0.98,1,0,0,1.1,1.12,98,10445,38.3,4.57,,11.87,0.98,86.2,,72.1,5,,,,,,,,,,,,0,0,0,0,0,0,0,0,0,0,0,0,0,0,0,0,,,,,0.0,,,,,,
2537489,1745077810769,,,,,,,,,,,,,,,,,,,,,,,7,0,7,7,0.0,44.0,0.0,0.0,2.26,,,0,0,0,0,0,0,0,0,0,0,0,0,0,0,0,0,0,,,,,39.239727,-77.964531,11.25,28,3,0.9
2537509,1745077810789,0.0,183.51,,0.32,-0.4,0.95,1,0,0,1.08,1.12,96,10419,38.2,4.61,,11.95,0.977,86.2,,71.1,5,,,,,,,,,,,,0,0,0,0,0,0,0,0,0,0,0,0,0,0,0,0,,,,,0.0,,,,,,
2537529,1745077810807,,,,,,,,,,,,,,,,,,,,,,,,,,,,,,,,,,0,0,0,0,0,0,0,0,0,0,0,0,0,0,0,0,,,,,,,,,,,
2537549,1745077810827,0.0,183.38,,0.32,-0.36,0.98,3,0,0,1.09,1.12,97,10419,35.2,4.5,,11.95,0.977,86.2,,71.1,5,,,,,,,,,,,,0,0,0,0,0,0,0,0,0,0,0,0,0,0,0,0,,,,,0.0,,,,,,
2537569,1745077810847,,,,,,,,,,,,,,,,,,,,,,,,,,,,,,,,,,0,0,0,0,0,0,0,0,0,0,0,0,0,0,0,0,,,,,,,,,,,
2537589,1745077810867,0.0,183.51,,0.32,-0.25,0.99,2,0,0,1.07,1.12,95,10419,35.2,4.5,,11.63,0.977,86.2,,71.6,5,8,0,8,8,0.0,86.0,0.0,0.0,2.26,,,0,0,0,0,0,0,0,0,0,0,0,0,0,0,0,0,0,,,,0.0,39.239727,-77.964531,12.71,28,3,0.9
2537629,1745077810907,0.0,183.51,,0.34,-0.21,0.97,2,0,0,1.05,1.12,93,10340,31.7,4.54,,11.33,0.96,86.2,,71.6,5,,,,,,,,,,,,0,0,0,0,0,0,0,0,0,0,0,0,0,0,0,0,,,,,0.0,,,,,,
2537729,1745077811007,,,,,,,,,,,,,,,,,,,,,,,,,,,,,,,,,,0,0,0,0,0,0,0,0,0,0,0,0,0,0,0,0,,,,,,,,,,,
2537749,1745077811017,0.0,183.38,,0.34,-0.13,1.01,1,0,-0,1.07,1.12,96,9881,25.2,3.52,,10.65,0.912,86.2,,70.4,5,,,,,,,,,,,,0,0,0,0,0,0,0,0,0,0,0,0,0,0,0,0,,,,,0.0,,,,,,
2537769,1745077811037,,,,,,,,,,,,,,,,,,,,,,,,,,,,,,,,,,0,0,0,0,0,0,0,0,0,0,0,0,0,0,0,0,,,,,,,,,,,
2537809,1745077811077,,,,,,,,,,,,,,,,,,,,,,,,,,,,,,,,,,0,0,0,0,0,0,0,0,0,0,0,0,0,0,0,0,,,,,,,,,,,
2537829,1745077811103,0.0,183.51,,0.39,-0.09,1.01,2,-0,0,1.09,1.12,97,9544,23.2,3.35,,10.02,0.958,86.2,,69.8,5,,,,,,,,,,,,0,0,0,0,0,0,0,0,0,0,0,0,0,0,0,0,,,,,0.0,,,,,,
2537909,1745077811183,0.0,183.38,,0.43,-0.04,1.05,1,-0,1,1.14,1.14,100,8777,18.7,3.38,,9.78,0.987,86.2,,65.8,5,,,,,,,,,,,,0,0,0,0,0,0,0,0,0,0,0,0,0,0,0,0,,,,,0.0,,,,,,
2537929,1745077811207,,,,,,,,,,,,,,,,,,,,,,,,,,,,,,,,,,0,0,0,0,0,0,0,0,0,0,0,0,0,0,0,0,,,,,,,,,,,
2537949,1745077811227,0.0,183.26,,0.44,-0.08,1.06,1,-0,1,1.15,1.15,100,8348,15.5,3.18,,9.78,0.987,86.2,,65.8,5,,,,,,,,,,,,0,0,0,0,0,0,0,0,0,0,0,0,0,0,0,0,,,,,0.0,,,,,,
2537969,1745077811247,,,,,,,,,,,,,,,,,,,,,,,,,,,,,,,,,,0,0,0,0,0,0,0,0,0,0,0,0,0,0,0,0,,,,,,,,,,,
2537989,1745077811267,0.0,182.63,,0.43,-0.12,1.03,-1,-1,1,1.12,1.15,98,8348,15.5,3.18,,9.82,0.948,86.2,,63.8,5,12,0,13,12,0.0,37.0,0.0,0.0,2.26,,,0,0,0,0,0,0,0,0,0,0,0,0,0,0,0,0,0,,,,0.0,39.239708,-77.964539,19.28,28,3,0.9
2538009,1745077811287,,,,,,,,,,,,,,,,,,,,,,,,,,,,,,,,,,0,0,0,0,0,0,0,0,0,0,0,0,0,0,0,0,,,,,,,,,,,
2538029,1745077811307,0.0,182.5,,0.41,-0.13,1.03,-1,-1,1,1.11,1.15,97,7700,10.8,3.13,,9.49,0.912,86.2,,63.8,5,,,,,,,,,,,,0,0,0,0,0,0,0,0,0,0,0,0,0,0,0,0,,,,,0.0,,,,,,
2538049,1745077811327,,,,,,,,,,,,,,,,,,,,,,,,,,,,,,,,,,0,0,0,0,0,0,0,0,0,0,0,0,0,0,0,0,,,,,,,,,,,
2538069,1745077811347,0.0,182.5,,0.44,-0.04,1.08,-2,-1,1,1.17,1.17,100,6878,7.3,3.02,,9.23,0.891,86.2,,63.8,5,,,,,,,,,,,,0,0,0,0,0,0,0,0,0,0,0,0,0,0,0,0,,,,,0.0,,,,,,
2538089,1745077811367,,,,,,,,,,,,,,,,,,,,,,,13,0,13,13,0.0,64.0,0.0,0.0,2.26,,,0,0,0,0,0,0,0,0,0,0,0,0,0,0,0,0,0,,,,,39.239704,-77.964546,21.24,28,3,0.9
2538109,1745077811387,0.0,182.5,,0.43,-0.03,1.15,-2,-1,1,1.23,1.23,100,5926,2.6,2.31,,9.09,0.9,86.2,,60.7,5,,,,,,,,,,,,0,0,0,0,0,0,0,0,0,0,0,0,0,0,0,0,,,,,0.0,,,,,,
2538129,1745077811409,,,,,,,,,,,,,,,,,,,,,,,,,,,,,,,,,,0,0,0,0,0,0,0,0,0,0,0,0,0,0,0,0,,,,,,,,,,,
2538149,1745077811429,0.0,182.63,,0.37,-0.01,1.15,-3,-1,1,1.21,1.23,98,4793,0.0,1.45,,9.09,0.9,86.2,,60.7,5,,,,,,,,,,,,0,0,0,0,0,0,0,0,0,0,0,0,0,0,0,0,,,,,0.0,,,,,,
2538169,1745077811449,,,,,,,,,,,,,,,,,,,,,,,,,,,,,,,,,,0,0,0,0,0,0,0,0,0,0,0,0,0,0,0,0,,,,,,,,,,,
2538189,1745077811469,0.0,182.63,,0.34,-0.06,1.14,-3,-1,1,1.19,1.23,97,4793,0.0,1.45,,9.33,0.901,86.2,,41.6,5,14,0,15,14,0.0,40.0,0.0,0.0,2.26,,,0,0,0,0,0,0,0,0,0,0,0,0,0,0,0,0,1,,,,0.0,39.2397,-77.964546,22.87,28,3,0.9
2538209,1745077811489,,,,,,,,,,,,,,,,,,,,,,,,,,,,,,,,,,0,0,0,0,0,0,0,0,0,0,0,0,0,0,0,0,,,,,,,,,,,
2538229,1745077811510,0.0,182.63,,0.27,-0.07,1.17,-3,-1,1,1.2,1.23,98,3673,0.0,1.62,,9.8,0.891,86.2,,41.6,5,,,,,,,,,,,,0,0,0,0,0,0,0,0,0,0,0,0,0,0,0,0,,,,,0.0,,,,,,
2538249,1745077811530,,,,,,,,,,,,,,,,,,,,,,,,,,,,,,,,,,0,0,0,0,0,0,0,0,0,0,0,0,0,0,0,0,,,,,,,,,,,
2538269,1745077811550,0.0,182.63,,0.2,-0.06,1.13,-3,-1,1,1.15,1.23,94,2728,0.0,1.98,,10.49,0.89,86.2,,41.6,5,,,,,,,,,,,,0,0,0,0,0,0,0,0,0,0,0,0,0,0,0,0,,,,,0.0,,,,,,
2538289,1745077811570,,,,,,,,,,,,,,,,,,,,,,,15,0,15,16,0.0,243.0,0.0,0.0,2.26,,,0,0,0,0,0,0,0,0,0,0,0,0,0,0,0,0,1,,,,,39.239693,-77.964546,24.22,28,3,0.9
2538309,1745077811590,0.0,182.76,,0.12,-0.04,1.12,-3,-1,0,1.13,1.23,92,2493,0.0,2.25,,11.14,0.894,86.2,,23.4,5,,,,,,,,,,,,0,0,0,0,0,0,0,0,0,0,0,0,0,0,0,0,,,,,0.0,,,,,,
2538329,1745077811609,,,,,,,,,,,,,,,,,,,,,,,,,,,,,,,,,,0,0,0,0,0,0,0,0,0,0,0,0,0,0,0,0,,,,,,,,,,,
2538349,1745077811629,0.0,182.76,,0.05,-0.05,1.09,-4,-1,0,1.09,1.23,89,2823,0.0,3.0,,11.14,0.894,86.2,,23.4,5,,,,,,,,,,,,0,0,0,0,0,0,0,0,0,0,0,0,0,0,0,0,,,,,0.0,,,,,,
2538369,1745077811649,,,,,,,,,,,,,,,,,,,,,,,,,,,,,,,,,,0,0,0,0,0,0,0,0,0,0,0,0,0,0,0,0,,,,,,,,,,,
2538389,1745077811669,0.0,182.76,13.24,0.0,-0.06,1.08,-4,-1,0,1.08,1.23,88,2823,0.0,3.0,15,11.46,0.903,86.2,158,25.4,5,15,0,14,15,0.0,223.0,0.0,0.0,2.26,0,0.0,0,0,0,0,0,0,0,0,0,0,0,0,0,0,0,0,3,0.0,0,0,0.0,39.239685,-77.964554,24.47,28,3,0.9
2538409,1745077811689,,,,,,,,,,,,,,,,,,,,,,,,,,,,,,,,,,0,0,0,0,0,0,0,0,0,0,0,0,0,0,0,0,,,,,,,,,,,
2538429,1745077811710,5.15,182.88,,-0.04,-0.1,1.12,-3,-1,0,1.13,1.23,92,2920,0.0,2.86,,11.61,0.93,86.2,,25.4,5,,,,,,,,,,,,0,0,0,0,0,0,0,0,0,0,0,0,0,0,0,0,,,,,0.0,,,,,,
2538449,1745077811730,,,,,,,,,,,,,,,,,,,,,,,,,,,,,,,,,,0,0,0,0,0,0,0,0,0,0,0,0,0,0,0,0,,,,,,,,,,,
2538469,1745077811750,8.3,182.88,,-0.08,-0.13,1.19,-4,-0,0,1.2,1.23,98,2866,0.0,2.87,,11.75,0.966,86.2,,25.4,5,,,,,,,,,,,,0,0,0,0,0,0,0,0,0,0,0,0,0,0,0,0,,,,,0.0,,,,,,
2538489,1745077811770,,,,,,,,,,,,,,,,,,,,,,,14,0,14,15,0.0,252.0,0.0,0.0,2.26,,,0,0,0,0,0,0,0,0,0,0,0,0,0,0,0,0,3,,,,,39.239681,-77.964554,23.17,28,3,0.9
2538509,1745077811790,7.67,182.76,,-0.1,-0.15,1.21,-4,-0,0,1.22,1.23,99,2962,0.0,2.87,,11.8,0.994,86.2,,26.2,5,,,,,,,,,,,,0,0,0,0,0,0,0,0,0,0,0,0,0,0,0,0,,,,,0.0,,,,,,
2538529,1745077811810,,,,,,,,,,,,,,,,,,,,,,,,,,,,,,,,,,0,0,0,0,0,0,0,0,0,0,0,0,0,0,0,0,,,,,,,,,,,
2538549,1745077811830,8.3,182.88,,-0.11,-0.11,1.17,-4,-0,0,1.18,1.23,96,2834,0.0,2.9,,11.8,0.994,86.2,,26.2,5,,,,,,,,,,,,0,0,0,0,0,0,0,0,0,0,0,0,0,0,0,0,,,,,0.0,,,,,,
2538569,1745077811850,,,,,,,,,,,,,,,,,,,,,,,,,,,,,,,,,,0,0,0,0,0,0,0,0,0,0,0,0,0,0,0,0,,,,,,,,,,,
2538589,1745077811870,8.3,182.88,,-0.1,-0.1,1.14,-4,0,0,1.15,1.23,94,2834,0.0,2.9,,11.89,1.049,86.2,,24.6,5,14,0,14,14,0.0,14.0,0.0,0.0,2.26,,,0,0,0,0,0,0,0,0,0,0,0,0,0,0,0,0,3,,,,0.0,39.239677,-77.964554,22.32,28,3,0.9
2538609,1745077811890,,,,,,,,,,,,,,,,,,,,,,,,,,,,,,,,,,0,0,0,0,0,0,0,0,0,0,0,0,0,0,0,0,,,,,,,,,,,
2538629,1745077811910,8.92,182.88,,-0.12,-0.08,1.11,-4,-0,0,1.12,1.23,91,2562,0.0,2.97,,12.11,1.043,86.2,,24.6,5,,,,,,,,,,,,0,0,0,0,0,0,0,0,0,0,0,0,0,0,0,0,,,,,0.0,,,,,,
2538649,1745077811930,,,,,,,,,,,,,,,,,,,,,,,,,,,,,,,,,,0,0,0,0,0,0,0,0,0,0,0,0,0,0,0,0,,,,,,,,,,,
2538669,1745077811950,8.92,182.88,,-0.12,-0.08,1.08,-3,-0,1,1.09,1.23,89,2464,0.0,3.05,,12.31,1.044,86.2,,24.6,5,,,,,,,,,,,,0,0,0,0,0,0,0,0,0,0,0,0,0,0,0,0,,,,,0.0,,,,,,
2538689,1745077811970,,,,,,,,,,,,,,,,,,,,,,,14,0,14,13,0.0,31.0,0.0,0.0,2.26,,,0,0,0,0,0,0,0,0,0,0,0,0,0,0,0,0,3,,,,,39.23967,-77.964561,21.7,28,3,0.9
2538709,1745077811990,8.92,182.88,,-0.12,-0.09,1.08,-3,-0,0,1.09,1.23,89,2250,0.0,3.13,,12.53,1.072,86.2,,21.9,5,,,,,,,,,,,,0,0,0,0,0,0,0,0,0,0,0,0,0,0,0,0,,,,,0.0,,,,,,
2538729,1745077812002,,,,,,,,,,,,,,,,,,,,,,,,,,,,,,,,,,0,0,0,0,0,0,0,0,0,0,0,0,0,0,0,0,,,,,,,,,,,
2538749,1745077812022,8.3,182.88,,-0.12,-0.1,1.07,-3,-0,0,1.09,1.23,88,2497,0.0,3.18,,12.53,1.072,86.2,,21.9,5,,,,,,,,,,,,0,0,0,0,0,0,0,0,0,0,0,0,0,0,0,0,,,,,0.0,,,,,,
2538769,1745077812042,,,,,,,,,,,,,,,,,,,,,,,,,,,,,,,,,,0,0,0,0,0,0,0,0,0,0,0,0,0,0,0,0,,,,,,,,,,,
2538789,1745077812062,7.67,182.88,,-0.12,-0.07,1.06,-3,-0,0,1.07,1.23,87,2497,0.0,3.18,,12.65,1.094,86.2,,21.9,5,13,0,13,13,0.0,251.0,0.0,0.0,2.26,,,0,0,0,0,0,0,0,0,0,0,0,0,0,0,0,0,4,,,,0.0,39.239666,-77.964561,21.5,28,3,0.9
2538809,1745077812082,,,,,,,,,,,,,,,,,,,,,,,,,,,,,,,,,,0,0,0,0,0,0,0,0,0,0,0,0,0,0,0,0,,,,,,,,,,,
2538829,1745077812108,9.55,182.88,,-0.12,-0.03,1.05,-3,-1,0,1.06,1.23,86,2432,0.0,3.09,,12.72,1.138,86.2,,21.9,5,,,,,,,,,,,,0,0,0,0,0,0,0,0,0,0,0,0,0,0,0,0,,,,,0.0,,,,,,
2538849,1745077812128,,,,,,,,,,,,,,,,,,,,,,,,,,,,,,,,,,0,0,0,0,0,0,0,0,0,0,0,0,0,0,0,0,,,,,,,,,,,
2538869,1745077812148,12.07,182.88,,-0.13,-0.04,1.06,-3,-0,0,1.06,1.23,87,2363,0.0,3.18,,12.8,1.196,86.2,,21.9,5,,,,,,,,,,,,0,0,0,0,0,0,0,0,0,0,0,0,0,0,0,0,,,,,0.0,,,,,,
2538889,1745077812168,,,,,,,,,,,,,,,,,,,,,,,13,0,13,13,0.0,226.0,0.0,0.0,2.26,,,0,0,0,0,0,0,0,0,0,0,0,0,0,0,0,0,4,,,,,39.239662,-77.964561,21.06,28,3,0.9
2538909,1745077812188,15.21,183.01,,-0.14,-0.05,1.05,-2,-0,0,1.06,1.23,86,2237,26.7,4.1,,13.9,1.184,86.2,,20.3,5,,,,,,,,,,,,0,0,0,0,0,0,0,0,0,0,0,0,0,0,0,0,,,,,0.0,,,,,,
2538929,1745077812208,,,,,,,,,,,,,,,,,,,,,,,,,,,,,,,,,,0,0,0,0,0,0,0,0,0,0,0,0,0,0,0,0,,,,,,,,,,,
2538949,1745077812228,17.72,183.01,,-0.15,-0.04,1.04,-2,-0,-0,1.05,1.23,85,2170,50.4,5.22,,13.9,1.184,86.2,,20.3,5,,,,,,,,,,,,0,0,0,0,0,0,0,0,0,0,0,0,0,0,0,0,,,,,0.0,,,,,,
2538969,1745077812248,,,,,,,,,,,,,,,,,,,,,,,,,,,,,,,,,,0,0,0,0,0,0,0,0,0,0,0,0,0,0,0,0,,,,,,,,,,,
2538989,1745077812268,22.12,183.01,,-0.15,-0.06,1.03,-2,-1,-0,1.04,1.23,85,2170,50.4,5.22,,14.3,1.151,86.2,,19.1,5,12,0,13,13,0.0,0.0,0.0,0.0,2.26,,,0,0,0,0,0,0,0,0,0,0,0,0,0,0,0,0,4,,,,0.0,39.239655,-77.964561,20.65,28,3,0.9
2539009,1745077812288,,,,,,,,,,,,,,,,,,,,,,,,,,,,,,,,,,0,0,0,0,0,0,0,0,0,0,0,0,0,0,0,0,,,,,,,,,,,
2539029,1745077812310,26.52,183.01,,-0.17,-0.05,0.98,-2,-0,-0,1.0,1.23,81,2397,50.6,4.4,,14.27,1.119,86.2,,19.1,5,,,,,,,,,,,,0,0,0,0,0,0,0,0,0,0,0,0,0,0,0,0,,,,,0.0,,,,,,
2539049,1745077812330,,,,,,,,,,,,,,,,,,,,,,,,,,,,,,,,,,0,0,0,0,0,0,0,0,0,0,0,0,0,0,0,0,,,,,,,,,,,
2539069,1745077812350,30.92,183.13,,-0.19,-0.09,1.03,-2,-0,-0,1.05,1.23,86,2679,16.7,4.36,,13.99,1.128,86.2,,19.1,5,,,,,,,,,,,,0,0,0,0,0,0,0,0,0,0,0,0,0,0,0,0,,,,,0.0,,,,,,
2539089,1745077812370,,,,,,,,,,,,,,,,,,,,,,,13,0,12,12,0.0,234.0,0.0,0.0,2.26,,,0,0,0,0,0,0,0,0,0,0,0,0,0,0,0,0,4,,,,,39.239651,-77.964561,20.19,28,3,0.9
2539109,1745077812390,35.95,183.13,,-0.23,-0.13,1.03,-1,0,-0,1.07,1.07,100,3088,0.0,2.96,,13.31,1.175,86.2,,25.0,5,,,,,,,,,,,,0,0,0,0,0,0,0,0,0,0,0,0,0,0,0,0,,,,,0.0,,,,,,
2539129,1745077812408,,,,,,,,,,,,,,,,,,,,,,,,,,,,,,,,,,0,0,0,0,0,0,0,0,0,0,0,0,0,0,0,0,,,,,,,,,,,
2539149,1745077812428,39.72,183.13,,-0.24,-0.07,0.96,-1,-0,-0,0.99,1.07,93,3142,0.0,2.81,,13.31,1.175,86.2,,25.0,5,,,,,,,,,,,,0,0,0,0,0,0,0,0,0,0,0,0,0,0,0,0,,,,,0.0,,,,,,
2539169,1745077812448,,,,,,,,,,,,,,,,,,,,,,,,,,,,,,,,,,0,0,0,0,0,0,0,0,0,0,0,0,0,0,0,0,,,,,,,,,,,
2539189,1745077812468,42.23,183.13,,-0.22,0.0,0.91,-1,-0,-0,0.94,1.07,88,3142,0.0,2.81,,12.81,1.213,86.2,,28.3,5,12,0,12,12,0.0,11.0,0.0,0.0,2.26,,,0,0,0,0,0,0,0,0,0,0,0,0,0,0,0,0,0,,,,0.0,39.239647,-77.964569,19.38,28,3,0.9
2539209,1745077812488,,,,,,,,,,,,,,,,,,,,,,,,,,,,,,,,,,0,0,0,0,0,0,0,0,0,0,0,0,0,0,0,0,,,,,,,,,,,
2539229,1745077812510,45.37,183.26,,-0.2,0.08,0.88,-2,-0,-0,0.9,1.07,85,3072,13.1,4.03,,13.15,1.212,86.2,,28.3,5,,,,,,,,,,,,0,0,0,0,0,0,0,0,0,0,0,0,0,0,0,0,,,,,0.0,,,,,,
2539249,1745077812530,,,,,,,,,,,,,,,,,,,,,,,,,,,,,,,,,,0,0,0,0,0,0,0,0,0,0,0,0,0,0,0,0,,,,,,,,,,,
2539269,1745077812550,45.37,183.26,,-0.19,0.13,0.87,-2,-0,0,0.9,1.07,84,3038,30.2,4.51,,14.02,1.222,86.2,,28.3,5,,,,,,,,,,,,0,0,0,0,0,0,0,0,0,0,0,0,0,0,0,0,,,,,0.0,,,,,,
2539289,1745077812570,,,,,,,,,,,,,,,,,,,,,,,12,0,11,12,0.0,227.0,0.0,0.0,2.26,,,0,0,0,0,0,0,0,0,0,0,0,0,0,0,0,0,0,,,,,39.239643,-77.964569,18.71,28,3,0.9
2539309,1745077812590,48.52,183.38,,-0.24,0.02,0.92,-2,-0,0,0.95,1.07,89,3213,16.6,4.23,,13.83,1.245,86.2,,28.8,5,,,,,,,,,,,,0,0,0,0,0,0,0,0,0,0,0,0,0,0,0,0,,,,,0.0,,,,,,
2539329,1745077812610,,,,,,,,,,,,,,,,,,,,,,,,,,,,,,,,,,0,0,0,0,0,0,0,0,0,0,0,0,0,0,0,0,,,,,,,,,,,
2539349,1745077812630,52.92,183.38,,-0.23,0.07,0.93,-3,-0,1,0.96,1.07,90,3568,0.0,2.76,,13.83,1.245,86.2,,28.8,5,,,,,,,,,,,,0,0,0,0,0,0,0,0,0,0,0,0,0,0,0,0,,,,,0.0,,,,,,
2539369,1745077812650,,,,,,,,,,,,,,,,,,,,,,,,,,,,,,,,,,0,0,0,0,0,0,0,0,0,0,0,0,0,0,0,0,,,,,,,,,,,
2539389,1745077812670,56.06,183.38,13.32,-0.24,0.06,0.89,-2,-0,0,0.92,1.07,86,3568,0.0,2.76,15,12.96,1.25,86.2,158,33.0,5,11,0,11,11,0.0,12.0,0.0,0.0,2.27,0,0.0,0,0,0,0,0,0,0,0,0,0,0,0,0,0,0,0,0,0.0,0,0,0.0,39.239639,-77.964569,17.96,28,3,0.9
2539409,1745077812690,,,,,,,,,,,,,,,,,,,,,,,,,,,,,,,,,,0,0,0,0,0,0,0,0,0,0,0,0,0,0,0,0,,,,,,,,,,,
2539429,1745077812709,57.32,183.51,,-0.27,0.01,0.98,-3,0,1,1.01,1.07,95,3502,0.0,2.65,,12.48,1.25,86.2,,33.0,5,,,,,,,,,,,,0,0,0,0,0,0,0,0,0,0,0,0,0,0,0,0,,,,,0.0,,,,,,
2539449,1745077812729,,,,,,,,,,,,,,,,,,,,,,,,,,,,,,,,,,0,0,0,0,0,0,0,0,0,0,0,0,0,0,0,0,,,,,,,,,,,
2539469,1745077812749,57.94,183.51,,-0.25,0.11,0.9,-2,-0,0,0.94,1.07,88,3411,8.1,3.8,,12.72,1.25,86.2,,33.0,5,,,,,,,,,,,,0,0,0,0,0,0,0,0,0,0,0,0,0,0,0,0,,,,,0.0,,,,,,
2539489,1745077812769,,,,,,,,,,,,,,,,,,,,,,,11,0,10,11,0.0,27.0,0.0,0.0,2.26,,,0,0,0,0,0,0,0,0,0,0,0,0,0,0,0,0,0,,,,,39.239632,-77.964577,17.12,28,3,0.9
2539509,1745077812789,57.94,183.51,,-0.26,0.04,0.98,-2,-0,1,1.02,1.07,95,3253,16.1,4.26,,13.51,1.251,86.2,,30.8,5,,,,,,,,,,,,0,0,0,0,0,0,0,0,0,0,0,0,0,0,0,0,,,,,0.0,,,,,,
2539529,1745077812809,,,,,,,,,,,,,,,,,,,,,,,,,,,,,,,,,,0,0,0,0,0,0,0,0,0,0,0,0,0,0,0,0,,,,,,,,,,,
2539549,1745077812829,57.32,183.51,,-0.26,0.06,0.91,-1,-0,0,0.95,1.07,89,3323,12.5,4.29,,13.51,1.251,86.2,,30.8,5,,,,,,,,,,,,0,0,0,0,0,0,0,0,0,0,0,0,0,0,0,0,,,,,0.0,,,,,,
2539569,1745077812849,,,,,,,,,,,,,,,,,,,,,,,,,,,,,,,,,,0,0,0,0,0,0,0,0,0,0,0,0,0,0,0,0,,,,,,,,,,,
2539589,1745077812869,57.32,183.63,,-0.28,-0.04,0.97,-2,0,0,1.01,1.07,95,3323,12.5,4.29,,13.56,1.253,86.2,,31.2,5,10,0,10,10,0.0,216.0,0.0,0.0,2.26,,,0,0,0,0,0,0,0,0,0,0,0,0,0,0,0,0,1,,,,0.0,39.239628,-77.964577,16.27,28,3,0.9
2539609,1745077812889,,,,,,,,,,,,,,,,,,,,,,,,,,,,,,,,,,0,0,0,0,0,0,0,0,0,0,0,0,0,0,0,0,,,,,,,,,,,
2539629,1745077812909,59.2,183.63,,-0.26,0.03,0.98,-2,-0,1,1.01,1.07,95,3538,0.0,2.73,,12.83,1.253,86.2,,31.2,5,,,,,,,,,,,,0,0,0,0,0,0,0,0,0,0,0,0,0,0,0,0,,,,,0.0,,,,,,
2539649,1745077812929,,,,,,,,,,,,,,,,,,,,,,,,,,,,,,,,,,0,0,0,0,0,0,0,0,0,0,0,0,0,0,0,0,,,,,,,,,,,
2539669,1745077812949,61.09,183.76,,-0.3,-0.02,0.97,-1,-0,0,1.02,1.07,95,3487,0.0,2.65,,12.41,1.253,86.2,,31.2,5,,,,,,,,,,,,0,0,0,0,0,0,0,0,0,0,0,0,0,0,0,0,,,,,0.0,,,,,,
2539689,1745077812969,,,,,,,,,,,,,,,,,,,,,,,9,0,10,10,0.0,38.0,0.0,0.0,2.26,,,0,0,0,0,0,0,0,0,0,0,0,0,0,0,0,0,1,,,,,39.239628,-77.964577,15.47,28,3,0.9
2539709,1745077812989,61.71,183.76,,-0.28,0.0,1.0,-2,-0,1,1.04,1.07,98,3394,0.0,2.7,,12.23,1.252,86.2,,31.5,5,,,,,,,,,,,,0,0,0,0,0,0,0,0,0,0,0,0,0,0,0,0,,,,,0.0,,,,,,
2539729,1745077813001,,,,,,,,,,,,,,,,,,,,,,,,,,,,,,,,,,0,0,0,0,0,0,0,0,0,0,0,0,0,0,0,0,,,,,,,,,,,
2539749,1745077813021,61.09,183.89,,-0.3,-0.04,1.06,-2,0,0,1.1,1.1,100,3184,15.7,4.07,,12.23,1.252,86.2,,31.5,5,,,,,,,,,,,,0,0,0,0,0,0,0,0,0,0,0,0,0,0,0,0,,,,,0.0,,,,,,
2539769,1745077813041,,,,,,,,,,,,,,,,,,,,,,,,,,,,,,,,,,0,0,0,0,0,0,0,0,0,0,0,0,0,0,0,0,,,,,,,,,,,
2539789,1745077813061,59.83,183.89,,-0.29,-0.05,0.97,-1,-0,-0,1.02,1.1,92,3184,15.7,4.07,,13.09,1.25,86.2,,29.9,5,9,0,9,9,0.0,7.0,0.0,0.0,2.26,,,0,0,0,0,0,0,0,0,0,0,0,0,0,0,0,0,0,,,,0.0,39.239624,-77.964577,14.88,28,3,0.9
2539809,1745077813081,,,,,,,,,,,,,,,,,,,,,,,,,,,,,,,,,,0,0,0,0,0,0,0,0,0,0,0,0,0,0,0,0,,,,,,,,,,,
2539829,1745077813110,57.94,184.01,,-0.27,-0.02,1.03,-2,-0,0,1.07,1.1,97,3198,22.4,4.47,,13.83,1.25,86.2,,29.9,5,,,,,,,,,,,,0,0,0,0,0,0,0,0,0,0,0,0,0,0,0,0,,,,,0.0,,,,,,
2539849,1745077813130,,,,,,,,,,,,,,,,,,,,,,,,,,,,,,,,,,0,0,0,0,0,0,0,0,0,0,0,0,0,0,0,0,,,,,,,,,,,
2539869,1745077813150,55.43,184.01,,-0.26,0.02,0.97,-1,-0,0,1.0,1.1,91,3442,17.8,4.28,,13.73,1.249,86.2,,29.9,5,,,,,,,,,,,,0,0,0,0,0,0,0,0,0,0,0,0,0,0,0,0,,,,,0.0,,,,,,
2539889,1745077813170,,,,,,,,,,,,,,,,,,,,,,,9,0,9,9,0.0,25.0,0.0,0.0,2.26,,,0,0,0,0,0,0,0,0,0,0,0,0,0,0,0,0,0,,,,,39.23962,-77.964584,13.96,28,3,0.9
2539909,1745077813190,55.43,184.01,,-0.28,-0.1,0.94,-0,-0,-0,0.99,1.1,90,3568,2.9,3.6,,13.16,1.25,86.2,,33.1,5,,,,,,,,,,,,0,0,0,0,0,0,0,0,0,0,0,0,0,0,0,0,,,,,0.0,,,,,,
2539929,1745077813207,,,,,,,,,,,,,,,,,,,,,,,,,,,,,,,,,,0,0,0,0,0,0,0,0,0,0,0,0,0,0,0,0,,,,,,,,,,,
2539949,1745077813227,55.43,184.01,,-0.28,-0.11,0.95,-0,-0,-0,1.0,1.1,91,3717,2.1,3.15,,13.16,1.25,86.2,,33.1,5,,,,,,,,,,,,0,0,0,0,0,0,0,0,0,0,0,0,0,0,0,0,,,,,0.0,,,,,,
2539969,1745077813247,,,,,,,,,,,,,,,,,,,,,,,,,,,,,,,,,,0,0,0,0,0,0,0,0,0,0,0,0,0,0,0,0,,,,,,,,,,,
2539989,1745077813267,56.69,184.14,,-0.29,-0.1,0.98,-1,-0,-0,1.02,1.1,93,3717,2.1,3.15,,12.68,1.251,86.2,,34.7,5,8,0,8,8,0.0,0.0,0.0,0.0,2.27,,,0,0,0,0,0,0,0,0,0,0,0,0,0,0,0,0,0,,,,0.0,39.239616,-77.964584,13.33,28,3,0.9
2540009,1745077813287,,,,,,,,,,,,,,,,,,,,,,,,,,,,,,,,,,0,0,0,0,0,0,0,0,0,0,0,0,0,0,0,0,,,,,,,,,,,
2540029,1745077813309,57.32,184.14,,-0.29,-0.06,1.02,-1,-0,0,1.06,1.1,96,3660,2.6,3.15,,12.61,1.252,86.2,,34.7,5,,,,,,,,,,,,0,0,0,0,0,0,0,0,0,0,0,0,0,0,0,0,,,,,0.0,,,,,,
2540049,1745077813329,,,,,,,,,,,,,,,,,,,,,,,,,,,,,,,,,,0,0,0,0,0,0,0,0,0,0,0,0,0,0,0,0,,,,,,,,,,,
2540069,1745077813349,57.32,184.14,,-0.28,0.04,1.01,-2,-0,1,1.05,1.1,95,3613,1.5,3.32,,12.49,1.252,86.2,,34.7,5,,,,,,,,,,,,0,0,0,0,0,0,0,0,0,0,0,0,0,0,0,0,,,,,0.0,,,,,,
2540089,1745077813369,,,,,,,,,,,,,,,,,,,,,,,8,0,8,8,0.0,27.0,0.0,0.0,2.26,,,0,0,0,0,0,0,0,0,0,0,0,0,0,0,0,0,0,,,,,39.239613,-77.964584,12.71,28,3,0.9
2540109,1745077813389,56.06,184.26,,-0.26,0.06,0.94,-1,-0,0,0.98,1.1,89,3512,0.0,2.64,,12.19,1.252,86.2,,33.4,5,,,,,,,,,,,,0,0,0,0,0,0,0,0,0,0,0,0,0,0,0,0,,,,,0.0,,,,,,
2540129,1745077813409,,,,,,,,,,,,,,,,,,,,,,,,,,,,,,,,,,0,0,0,0,0,0,0,0,0,0,0,0,0,0,0,0,,,,,,,,,,,
2540149,1745077813429,56.06,184.26,,-0.26,0.04,1.03,-1,-0,1,1.06,1.1,97,3375,0.0,2.69,,12.19,1.252,86.2,,33.4,5,,,,,,,,,,,,0,0,0,0,0,0,0,0,0,0,0,0,0,0,0,0,,,,,0.0,,,,,,
2540169,1745077813449,,,,,,,,,,,,,,,,,,,,,,,,,,,,,,,,,,0,0,0,0,0,0,0,0,0,0,0,0,0,0,0,0,,,,,,,,,,,
2540189,1745077813469,52.29,184.26,,-0.27,0.02,1.0,-1,-1,0,1.03,1.1,94,3375,0.0,2.69,,12.07,1.253,86.2,,30.7,5,7,0,7,7,0.0,0.0,0.0,0.0,2.26,,,0,0,0,0,0,0,0,0,0,0,0,0,0,0,0,0,0,,,,0.0,39.239609,-77.964584,11.87,28,3,0.9
2540209,1745077813489,,,,,,,,,,,,,,,,,,,,,,,,,,,,,,,,,,0,0,0,0,0,0,0,0,0,0,0,0,0,0,0,0,,,,,,,,,,,
2540229,1745077813509,46.63,184.26,,-0.24,0.06,0.93,-1,-1,-0,0.96,1.1,87,3201,0.0,2.74,,12.05,1.251,86.2,,30.7,5,,,,,,,,,,,,0,0,0,0,0,0,0,0,0,0,0,0,0,0,0,0,,,,,0.0,,,,,,
2540249,1745077813529,,,,,,,,,,,,,,,,,,,,,,,,,,,,,,,,,,0,0,0,0,0,0,0,0,0,0,0,0,0,0,0,0,,,,,,,,,,,
2540269,1745077813549,38.46,184.14,,-0.21,0.12,0.87,-1,-0,0,0.9,1.1,82,3063,0.0,2.79,,12.11,1.25,86.2,,30.7,5,,,,,,,,,,,,0,0,0,0,0,0,0,0,0,0,0,0,0,0,0,0,,,,,0.0,,,,,,
2540289,1745077813569,,,,,,,,,,,,,,,,,,,,,,,7,0,7,7,0.0,0.0,0.0,0.0,2.26,,,0,0,0,0,0,0,0,0,0,0,0,0,0,0,0,0,0,,,,,39.239609,-77.964592,11.29,28,3,0.9
2540309,1745077813589,29.66,184.14,,-0.19,0.13,0.83,-0,-0,-0,0.86,1.1,78,2897,0.0,2.88,,12.19,1.25,86.2,,27.0,5,,,,,,,,,,,,0,0,0,0,0,0,0,0,0,0,0,0,0,0,0,0,,,,,0.0,,,,,,
2540329,1745077813609,,,,,,,,,,,,,,,,,,,,,,,,,,,,,,,,,,0,0,0,0,0,0,0,0,0,0,0,0,0,0,0,0,,,,,,,,,,,
2540349,1745077813629,22.12,184.14,,-0.18,0.1,0.88,-0,-0,-0,0.9,1.1,82,2811,0.0,2.94,,12.19,1.25,86.2,,27.0,5,,,,,,,,,,,,0,0,0,0,0,0,0,0,0,0,0,0,0,0,0,0,,,,,0.0,,,,,,
2540369,1745077813649,,,,,,,,,,,,,,,,,,,,,,,,,,,,,,,,,,0,0,0,0,0,0,0,0,0,0,0,0,0,0,0,0,,,,,,,,,,,
2540389,1745077813669,15.21,184.14,13.37,-0.17,0.08,0.88,-0,-0,-0,0.9,1.1,82,2811,0.0,2.94,15,12.35,1.25,86.2,158,24.9,5,7,0,7,7,0.0,0.0,0.0,0.0,2.27,0,0.0,0,0,0,0,0,0,0,0,0,0,0,0,0,0,0,0,0,0.0,0,-0,0.0,39.239605,-77.964592,10.82,28,3,0.9
2540409,1745077813689,,,,,,,,,,,,,,,,,,,,,,,,,,,,,,,,,,0,0,0,0,0,0,0,0,0,0,0,0,0,0,0,0,,,,,,,,,,,
2540429,1745077813708,10.18,184.01,,-0.16,0.05,0.91,-0,-0,-0,0.93,1.1,84,2693,0.0,2.98,,12.52,1.25,86.2,,24.9,5,,,,,,,,,,,,0,0,0,0,0,0,0,0,0,0,0,0,0,0,0,0,,,,,0.0,,,,,,
2540449,1745077813728,,,,,,,,,,,,,,,,,,,,,,,,,,,,,,,,,,0,0,0,0,0,0,0,0,0,0,0,0,0,0,0,0,,,,,,,,,,,
2540469,1745077813748,7.04,184.01,,-0.16,0.03,0.91,0,-0,-0,0.92,1.1,84,2580,3.0,3.2,,12.95,1.25,86.2,,24.9,5,,,,,,,,,,,,0,0,0,0,0,0,0,0,0,0,0,0,0,0,0,0,,,,,0.0,,,,,,
2540489,1745077813768,,,,,,,,,,,,,,,,,,,,,,,7,0,7,7,0.0,0.0,0.0,0.0,2.27,,,0,0,0,0,0,0,0,0,0,0,0,0,0,0,0,0,0,,,,,39.239605,-77.964592,10.56,28,3,0.9
2540509,1745077813788,2.64,184.01,,-0.14,0.01,0.92,-0,-0,-0,0.93,1.1,84,2482,7.2,3.67,,13.47,1.252,86.2,,22.3,5,,,,,,,,,,,,0,0,0,0,0,0,0,0,0,0,0,0,0,0,0,0,,,,,0.0,,,,,,
2540529,1745077813808,,,,,,,,,,,,,,,,,,,,,,,,,,,,,,,,,,0,0,0,0,0,0,0,0,0,0,0,0,0,0,0,0,,,,,,,,,,,
2540549,1745077813828,0.13,184.01,,-0.14,0.02,0.94,-0,-0,0,0.95,1.1,86,2420,7.8,3.69,,13.47,1.252,86.2,,22.3,5,,,,,,,,,,,,0,0,0,0,0,0,0,0,0,0,0,0,0,0,0,0,,,,,0.0,,,,,,
2540569,1745077813848,,,,,,,,,,,,,,,,,,,,,,,,,,,,,,,,,,0,0,0,0,0,0,0,0,0,0,0,0,0,0,0,0,,,,,,,,,,,
2540589,1745077813868,0.0,184.01,,-0.14,0.01,0.94,-0,-0,0,0.95,1.1,86,2420,7.8,3.69,,13.71,1.253,86.2,,22.4,5,6,0,7,7,0.0,0.0,0.0,0.0,2.26,,,0,0,0,0,0,0,0,0,0,0,0,0,0,0,0,0,0,,,,0.0,39.239601,-77.964592,10.42,28,3,0.9
2540609,1745077813888,,,,,,,,,,,,,,,,,,,,,,,,,,,,,,,,,,0,0,0,0,0,0,0,0,0,0,0,0,0,0,0,0,,,,,,,,,,,
2540629,1745077813911,0.13,184.01,,-0.15,-0.02,0.96,-0,-0,0,0.97,1.1,88,2488,8.1,3.69,,13.77,1.253,86.2,,22.4,5,,,,,,,,,,,,0,0,0,0,0,0,0,0,0,0,0,0,0,0,0,0,,,,,0.0,,,,,,
2540649,1745077813931,,,,,,,,,,,,,,,,,,,,,,,,,,,,,,,,,,0,0,0,0,0,0,0,0,0,0,0,0,0,0,0,0,,,,,,,,,,,
2540669,1745077813951,0.13,184.01,,-0.14,-0.01,0.95,0,-1,-0,0.96,1.1,87,2584,1.1,3.66,,13.57,1.253,86.2,,22.4,5,,,,,,,,,,,,0,0,0,0,0,0,0,0,0,0,0,0,0,0,0,0,,,,,0.0,,,,,,
2540689,1745077813971,,,,,,,,,,,,,,,,,,,,,,,6,0,6,6,0.0,0.0,0.0,0.0,2.26,,,0,0,0,0,0,0,0,0,0,0,0,0,0,0,0,0,0,,,,,39.239597,-77.9646,10.07,28,3,0.9
2540709,1745077813991,2.01,184.14,,-0.15,-0.01,0.98,-0,-1,0,0.99,1.1,90,2649,0.0,3.04,,13.2,1.251,86.2,,24.0,5,,,,,,,,,,,,0,0,0,0,0,0,0,0,0,0,0,0,0,0,0,0,,,,,0.0,,,,,,
2540729,1745077814002,,,,,,,,,,,,,,,,,,,,,,,,,,,,,,,,,,0,0,0,0,0,0,0,0,0,0,0,0,0,0,0,0,,,,,,,,,,,
2540749,1745077814022,3.9,184.01,,-0.15,0.02,0.96,-0,-1,0,0.97,1.1,88,2652,0.0,3.02,,13.2,1.251,86.2,,24.0,5,,,,,,,,,,,,0,0,0,0,0,0,0,0,0,0,0,0,0,0,0,0,,,,,0.0,,,,,,
2540769,1745077814042,,,,,,,,,,,,,,,,,,,,,,,,,,,,,,,,,,0,0,0,0,0,0,0,0,0,0,0,0,0,0,0,0,,,,,,,,,,,
2540789,1745077814062,8.3,184.14,,-0.15,0.03,0.96,-0,-1,1,0.97,1.1,88,2652,0.0,3.02,,13.05,1.251,86.2,,23.5,5,6,0,6,6,0.0,0.0,0.0,0.0,2.26,,,0,0,0,0,0,0,0,0,0,0,0,0,0,0,0,0,0,,,,0.0,39.239594,-77.9646,9.81,28,3,0.9
2540809,1745077814082,,,,,,,,,,,,,,,,,,,,,,,,,,,,,,,,,,0,0,0,0,0,0,0,0,0,0,0,0,0,0,0,0,,,,,,,,,,,
2540829,1745077814104,9.55,184.14,,-0.16,0.03,0.98,-0,-1,1,0.99,1.1,90,2540,0.0,3.05,,12.93,1.25,86.2,,23.5,5,,,,,,,,,,,,0,0,0,0,0,0,0,0,0,0,0,0,0,0,0,0,,,,,0.0,,,,,,
2540849,1745077814124,,,,,,,,,,,,,,,,,,,,,,,,,,,,,,,,,,0,0,0,0,0,0,0,0,0,0,0,0,0,0,0,0,,,,,,,,,,,
2540869,1745077814144,12.07,184.14,,-0.17,0.04,0.98,-0,-1,1,0.99,1.1,90,2478,0.0,3.08,,12.97,1.25,86.2,,23.5,5,,,,,,,,,,,,0,0,0,0,0,0,0,0,0,0,0,0,0,0,0,0,,,,,0.0,,,,,,
2540889,1745077814164,,,,,,,,,,,,,,,,,,,,,,,6,0,6,6,0.0,0.0,0.0,0.0,2.26,,,0,0,0,0,0,0,0,0,0,0,0,0,0,0,0,0,0,,,,,39.239594,-77.9646,9.4,28,3,0.9
2540909,1745077814184,14.58,184.14,,-0.18,0.02,0.98,-0,-1,1,1.0,1.1,91,2402,0.0,3.12,,13.01,1.25,86.2,,22.0,5,,,,,,,,,,,,0,0,0,0,0,0,0,0,0,0,0,0,0,0,0,0,,,,,0.0,,,,,,
2540929,1745077814206,,,,,,,,,,,,,,,,,,,,,,,,,,,,,,,,,,0,0,0,0,0,0,0,0,0,0,0,0,0,0,0,0,,,,,,,,,,,
2540949,1745077814226,15.21,184.14,,-0.18,0.03,0.97,0,-1,1,0.99,1.1,90,2307,0.0,3.15,,13.01,1.25,86.2,,22.0,5,,,,,,,,,,,,0,0,0,0,0,0,0,0,0,0,0,0,0,0,0,0,,,,,0.0,,,,,,
2540969,1745077814246,,,,,,,,,,,,,,,,,,,,,,,,,,,,,,,,,,0,0,0,0,0,0,0,0,0,0,0,0,0,0,0,0,,,,,,,,,,,
2540989,1745077814266,16.47,184.14,,-0.17,0.02,0.97,-0,-1,1,0.98,1.1,89,2307,0.0,3.15,,13.09,1.25,86.2,,20.7,5,6,0,6,6,0.0,0.0,0.0,0.0,2.26,,,0,0,0,0,0,0,0,0,0,0,0,0,0,0,0,0,0,,,,0.0,39.23959,-77.9646,9.02,28,3,0.9
2541009,1745077814286,,,,,,,,,,,,,,,,,,,,,,,,,,,,,,,,,,0,0,0,0,0,0,0,0,0,0,0,0,0,0,0,0,,,,,,,,,,,
2541029,1745077814308,18.98,184.14,,-0.18,0.01,0.98,-0,-1,1,1.0,1.1,91,2229,0.0,3.18,,13.23,1.251,86.2,,20.7,5,,,,,,,,,,,,0,0,0,0,0,0,0,0,0,0,0,0,0,0,0,0,,,,,0.0,,,,,,
2541049,1745077814328,,,,,,,,,,,,,,,,,,,,,,,,,,,,,,,,,,0,0,0,0,0,0,0,0,0,0,0,0,0,0,0,0,,,,,,,,,,,
2541069,1745077814348,21.49,184.14,,-0.18,-0.0,0.98,-0,-1,1,1.0,1.1,91,2076,1.6,3.25,,13.4,1.253,86.2,,20.7,5,,,,,,,,,,,,0,0,0,0,0,0,0,0,0,0,0,0,0,0,0,0,,,,,0.0,,,,,,
2541089,1745077814368,,,,,,,,,,,,,,,,,,,,,,,5,0,5,5,0.0,0.0,0.0,0.0,2.26,,,0,0,0,0,0,0,0,0,0,0,0,0,0,0,0,0,0,,,,,39.239586,-77.9646,8.49,28,3,0.9
2541109,1745077814388,22.75,184.14,,-0.2,0.01,0.98,-0,-1,1,1.0,1.1,90,1990,12.2,3.78,,13.94,1.253,86.2,,19.0,5,,,,,,,,,,,,0,0,0,0,0,0,0,0,0,0,0,0,0,0,0,0,,,,,0.0,,,,,,
2541129,1745077814410,,,,,,,,,,,,,,,,,,,,,,,,,,,,,,,,,,0,0,0,0,0,0,0,0,0,0,0,0,0,0,0,0,,,,,,,,,,,
2541149,1745077814430,25.26,184.14,,-0.2,0.01,0.99,-0,-1,1,1.01,1.1,92,2002,17.0,4.47,,13.94,1.253,86.2,,19.0,5,,,,,,,,,,,,0,0,0,0,0,0,0,0,0,0,0,0,0,0,0,0,,,,,0.0,,,,,,
2541169,1745077814450,,,,,,,,,,,,,,,,,,,,,,,,,,,,,,,,,,0,0,0,0,0,0,0,0,0,0,0,0,0,0,0,0,,,,,,,,,,,
2541189,1745077814470,26.52,184.14,,-0.2,0.02,0.99,-0,-1,1,1.01,1.1,92,2002,17.0,4.47,,14.14,1.253,86.2,,17.6,5,5,0,5,5,0.0,0.0,0.0,0.0,2.26,,,0,0,0,0,0,0,0,0,0,0,0,0,0,0,0,0,0,,,,0.0,39.239586,-77.9646,8.06,28,3,0.9
2541209,1745077814490,,,,,,,,,,,,,,,,,,,,,,,,,,,,,,,,,,0,0,0,0,0,0,0,0,0,0,0,0,0,0,0,0,,,,,,,,,,,
2541229,1745077814510,27.15,184.26,,-0.22,0.03,0.99,-0,-1,1,1.02,1.1,92,2058,17.5,4.49,,14.08,1.251,86.2,,17.6,5,,,,,,,,,,,,0,0,0,0,0,0,0,0,0,0,0,0,0,0,0,0,,,,,0.0,,,,,,
2541249,1745077814530,,,,,,,,,,,,,,,,,,,,,,,,,,,,,,,,,,0,0,0,0,0,0,0,0,0,0,0,0,0,0,0,0,,,,,,,,,,,
2541269,1745077814550,27.78,184.26,,-0.24,0.03,0.98,-0,-1,1,1.01,1.1,92,2184,17.0,4.46,,14.08,1.25,86.2,,17.6,5,,,,,,,,,,,,0,0,0,0,0,0,0,0,0,0,0,0,0,0,0,0,,,,,0.0,,,,,,
2541289,1745077814570,,,,,,,,,,,,,,,,,,,,,,,5,0,5,5,0.0,0.0,0.0,0.0,2.26,,,0,0,0,0,0,0,0,0,0,0,0,0,0,0,0,0,0,,,,,39.239586,-77.9646,7.44,28,3,0.9
2541309,1745077814590,28.41,184.26,,-0.23,0.01,0.98,-0,-1,1,1.01,1.1,91,2423,11.3,3.73,,13.96,1.25,86.2,,19.4,5,,,,,,,,,,,,0,0,0,0,0,0,0,0,0,0,0,0,0,0,0,0,,,,,0.0,,,,,,
2541329,1745077814610,,,,,,,,,,,,,,,,,,,,,,,,,,,,,,,,,,0,0,0,0,0,0,0,0,0,0,0,0,0,0,0,0,,,,,,,,,,,
2541349,1745077814630,29.66,184.26,,-0.23,0.03,0.96,-0,-0,1,0.99,1.1,90,2548,10.5,3.74,,13.96,1.25,86.2,,19.4,5,,,,,,,,,,,,0,0,0,0,0,0,0,0,0,0,0,0,0,0,0,0,,,,,0.0,,,,,,
2541369,1745077814650,,,,,,,,,,,,,,,,,,,,,,,,,,,,,,,,,,0,0,0,0,0,0,0,0,0,0,0,0,0,0,0,0,,,,,,,,,,,
2541389,1745077814670,31.55,184.39,13.4,-0.23,0.02,1.0,-0,-1,1,1.03,1.1,93,2548,10.5,3.74,15,13.88,1.25,86.2,158,22.4,5,4,0,4,4,0.0,0.0,0.0,0.0,2.26,0,0.0,0,0,0,0,0,0,0,0,0,0,0,0,0,0,0,0,0,0.0,0,-0,0.0,39.239586,-77.9646,7.0,28,3,0.9
2541409,1745077814690,,,,,,,,,,,,,,,,,,,,,,,,,,,,,,,,,,0,0,0,0,0,0,0,0,0,0,0,0,0,0,0,0,,,,,,,,,,,
2541429,1745077814710,32.18,184.39,,-0.23,0.04,0.95,-0,-1,1,0.98,1.1,89,2663,10.5,3.76,,13.79,1.251,86.2,,22.4,5,,,,,,,,,,,,0,0,0,0,0,0,0,0,0,0,0,0,0,0,0,0,,,,,0.0,,,,,,
2541449,1745077814730,,,,,,,,,,,,,,,,,,,,,,,,,,,,,,,,,,0,0,0,0,0,0,0,0,0,0,0,0,0,0,0,0,,,,,,,,,,,
2541469,1745077814750,34.69,184.39,,-0.24,0.01,0.99,0,-0,1,1.02,1.1,92,2770,10.4,3.78,,13.76,1.249,86.2,,22.4,5,,,,,,,,,,,,0,0,0,0,0,0,0,0,0,0,0,0,0,0,0,0,,,,,0.0,,,,,,
2541489,1745077814770,,,,,,,,,,,,,,,,,,,,,,,4,0,4,4,0.0,0.0,0.0,0.0,2.27,,,0,0,0,0,0,0,0,0,0,0,0,0,0,0,0,0,0,,,,,39.239582,-77.9646,6.33,28,3,0.9
2541509,1745077814790,35.32,184.39,,-0.24,-0.02,1.04,-0,-0,1,1.07,1.1,97,2833,10.4,3.83,,13.72,1.25,86.2,,25.2,5,,,,,,,,,,,,0,0,0,0,0,0,0,0,0,0,0,0,0,0,0,0,,,,,0.0,,,,,,
2541529,1745077814809,,,,,,,,,,,,,,,,,,,,,,,,,,,,,,,,,,0,0,0,0,0,0,0,0,0,0,0,0,0,0,0,0,,,,,,,,,,,
2541549,1745077814829,36.58,184.39,,-0.24,-0.04,1.09,-0,-0,1,1.11,1.11,100,2925,8.2,3.82,,13.72,1.25,86.2,,25.2,5,,,,,,,,,,,,0,0,0,0,0,0,0,0,0,0,0,0,0,0,0,0,,,,,0.0,,,,,,
2541569,1745077814849,,,,,,,,,,,,,,,,,,,,,,,,,,,,,,,,,,0,0,0,0,0,0,0,0,0,0,0,0,0,0,0,0,,,,,,,,,,,
2541589,1745077814869,37.83,184.39,,-0.24,-0.06,1.13,-1,-0,1,1.16,1.16,100,2925,8.2,3.82,,13.61,1.253,86.2,,27.1,5,4,0,4,4,0.0,0.0,0.0,0.0,2.26,,,0,0,0,0,0,0,0,0,0,0,0,0,0,0,0,0,0,,,,0.0,39.239582,-77.9646,5.76,28,3,0.9
2541609,1745077814889,,,,,,,,,,,,,,,,,,,,,,,,,,,,,,,,,,0,0,0,0,0,0,0,0,0,0,0,0,0,0,0,0,,,,,,,,,,,
2541629,1745077814909,37.83,184.39,,-0.25,-0.13,1.19,-0,-0,1,1.22,1.22,100,3077,3.8,3.62,,13.35,1.252,86.2,,27.1,5,,,,,,,,,,,,0,0,0,0,0,0,0,0,0,0,0,0,0,0,0,0,,,,,0.0,,,,,,
2541649,1745077814929,,,,,,,,,,,,,,,,,,,,,,,,,,,,,,,,,,0,0,0,0,0,0,0,0,0,0,0,0,0,0,0,0,,,,,,,,,,,
2541669,1745077814949,35.95,184.39,,-0.26,-0.19,1.19,0,-0,0,1.23,1.23,100,3177,3.2,3.47,,13.11,1.253,86.2,,27.1,5,,,,,,,,,,,,0,0,0,0,0,0,0,0,0,0,0,0,0,0,0,0,,,,,0.0,,,,,,
2541689,1745077814969,,,,,,,,,,,,,,,,,,,,,,,3,0,3,3,0.0,0.0,0.0,0.0,2.26,,,0,0,0,0,0,0,0,0,0,0,0,0,0,0,0,0,0,,,,,39.239578,-77.9646,5.24,28,3,0.9
2541709,1745077814989,34.06,184.39,,-0.26,-0.16,1.09,1,-0,-0,1.13,1.23,92,3103,3.1,3.41,,13.01,1.252,86.2,,29.3,5,,,,,,,,,,,,0,0,0,0,0,0,0,0,0,0,0,0,0,0,0,0,,,,,0.0,,,,,,
2541729,1745077815001,,,,,,,,,,,,,,,,,,,,,,,,,,,,,,,,,,0,0,0,0,0,0,0,0,0,0,0,0,0,0,0,0,,,,,,,,,,,
2541749,1745077815021,29.66,184.39,,-0.22,-0.04,1.03,0,-0,0,1.06,1.23,86,3125,3.0,3.4,,13.01,1.252,86.2,,29.3,5,,,,,,,,,,,,0,0,0,0,0,0,0,0,0,0,0,0,0,0,0,0,,,,,0.0,,,,,,
2541769,1745077815041,,,,,,,,,,,,,,,,,,,,,,,,,,,,,,,,,,0,0,0,0,0,0,0,0,0,0,0,0,0,0,0,0,,,,,,,,,,,
2541789,1745077815061,23.38,184.39,,-0.22,-0.06,1.08,-0,0,1,1.1,1.23,89,3125,3.0,3.4,,12.95,1.25,86.2,,28.9,5,3,0,3,3,0.0,0.0,0.0,0.0,2.26,,,0,0,0,0,0,0,0,0,0,0,0,0,0,0,0,0,0,,,,0.0,39.239578,-77.9646,4.6,28,3,0.9
2541809,1745077815081,,,,,,,,,,,,,,,,,,,,,,,,,,,,,,,,,,0,0,0,0,0,0,0,0,0,0,0,0,0,0,0,0,,,,,,,,,,,
2541829,1745077815105,17.72,184.39,,-0.23,-0.13,1.13,-0,0,0,1.16,1.23,94,3193,2.9,3.43,,12.89,1.251,86.2,,28.9,5,,,,,,,,,,,,0,0,0,0,0,0,0,0,0,0,0,0,0,0,0,0,,,,,0.0,,,,,,
2541849,1745077815125,,,,,,,,,,,,,,,,,,,,,,,,,,,,,,,,,,0,0,0,0,0,0,0,0,0,0,0,0,0,0,0,0,,,,,,,,,,,
2541869,1745077815145,12.07,184.39,,-0.24,-0.14,1.09,0,0,-0,1.13,1.23,91,3135,2.8,3.43,,12.89,1.25,86.2,,28.9,5,,,,,,,,,,,,0,0,0,0,0,0,0,0,0,0,0,0,0,0,0,0,,,,,0.0,,,,,,
2541889,1745077815165,,,,,,,,,,,,,,,,,,,,,,,3,0,3,3,0.0,0.0,0.0,0.0,2.26,,,0,0,0,0,0,0,0,0,0,0,0,0,0,0,0,0,0,,,,,39.239578,-77.9646,4.22,28,3,0.9
2541909,1745077815185,7.67,184.39,,-0.21,-0.1,0.99,1,0,-0,1.02,1.23,83,3124,2.8,3.41,,12.89,1.25,86.2,,29.2,5,,,,,,,,,,,,0,0,0,0,0,0,0,0,0,0,0,0,0,0,0,0,,,,,0.0,,,,,,
2541929,1745077815207,,,,,,,,,,,,,,,,,,,,,,,,,,,,,,,,,,0,0,0,0,0,0,0,0,0,0,0,0,0,0,0,0,,,,,,,,,,,
2541949,1745077815227,2.01,184.26,,-0.17,-0.03,0.95,0,-0,0,0.97,1.23,78,3158,2.7,3.38,,12.89,1.25,86.2,,29.2,5,,,,,,,,,,,,0,0,0,0,0,0,0,0,0,0,0,0,0,0,0,0,,,,,0.0,,,,,,
2541969,1745077815247,,,,,,,,,,,,,,,,,,,,,,,,,,,,,,,,,,0,0,0,0,0,0,0,0,0,0,0,0,0,0,0,0,,,,,,,,,,,
2541989,1745077815267,0.0,184.26,,-0.15,-0.01,0.98,-0,-0,1,0.99,1.23,81,3158,2.7,3.38,,12.85,1.25,86.2,,28.5,5,3,0,2,2,0.0,0.0,0.0,0.0,2.27,,,0,0,0,0,0,0,0,0,0,0,0,0,0,0,0,0,0,,,,0.0,39.239574,-77.9646,3.81,28,3,0.9
2542009,1745077815287,,,,,,,,,,,,,,,,,,,,,,,,,,,,,,,,,,0,0,0,0,0,0,0,0,0,0,0,0,0,0,0,0,,,,,,,,,,,
2542029,1745077815311,0.0,184.26,,-0.14,-0.06,1.05,-1,-0,1,1.06,1.23,86,3099,2.8,3.38,,12.89,1.252,86.2,,28.5,5,,,,,,,,,,,,0,0,0,0,0,0,0,0,0,0,0,0,0,0,0,0,,,,,0.0,,,,,,
2542049,1745077815331,,,,,,,,,,,,,,,,,,,,,,,,,,,,,,,,,,0,0,0,0,0,0,0,0,0,0,0,0,0,0,0,0,,,,,,,,,,,
2542069,1745077815351,0.0,184.26,,-0.16,-0.13,1.1,-0,-0,0,1.12,1.23,91,3101,2.8,3.37,,12.91,1.253,86.2,,28.5,5,,,,,,,,,,,,0,0,0,0,0,0,0,0,0,0,0,0,0,0,0,0,,,,,0.0,,,,,,
2542089,1745077815371,,,,,,,,,,,,,,,,,,,,,,,2,0,2,2,0.0,0.0,0.0,0.0,2.26,,,0,0,0,0,0,0,0,0,0,0,0,0,0,0,0,0,0,,,,,39.239574,-77.9646,3.71,28,3,0.9
2542109,1745077815391,0.0,184.14,,-0.17,-0.17,1.11,0,0,0,1.13,1.23,92,3103,2.8,3.39,,12.87,1.253,86.2,,28.3,5,,,,,,,,,,,,0,0,0,0,0,0,0,0,0,0,0,0,0,0,0,0,,,,,0.0,,,,,,
2542129,1745077815411,,,,,,,,,,,,,,,,,,,,,,,,,,,,,,,,,,0,0,0,0,0,0,0,0,0,0,0,0,0,0,0,0,,,,,,,,,,,
2542149,1745077815431,0.0,184.26,,-0.16,-0.13,1.03,1,-0,-0,1.05,1.23,85,3140,2.9,3.37,,12.87,1.253,86.2,,28.3,5,,,,,,,,,,,,0,0,0,0,0,0,0,0,0,0,0,0,0,0,0,0,,,,,0.0,,,,,,
2542169,1745077815451,,,,,,,,,,,,,,,,,,,,,,,,,,,,,,,,,,0,0,0,0,0,0,0,0,0,0,0,0,0,0,0,0,,,,,,,,,,,
2542189,1745077815471,0.0,184.14,,-0.14,-0.04,0.94,1,-0,-0,0.96,1.23,77,3140,2.9,3.37,,12.85,1.253,86.2,,29.0,5,2,0,2,2,0.0,0.0,0.0,0.0,2.26,,,0,0,0,0,0,0,0,0,0,0,0,0,0,0,0,0,0,,,,0.0,39.239574,-77.9646,3.6,28,3,0.9
2542209,1745077815491,,,,,,,,,,,,,,,,,,,,,,,,,,,,,,,,,,0,0,0,0,0,0,0,0,0,0,0,0,0,0,0,0,,,,,,,,,,,
2542229,1745077815512,0.0,184.14,,-0.13,-0.01,0.96,-0,-0,0,0.97,1.23,79,3119,3.0,3.37,,12.87,1.251,86.2,,29.0,5,,,,,,,,,,,,0,0,0,0,0,0,0,0,0,0,0,0,0,0,0,0,,,,,0.0,,,,,,
2542249,1745077815532,,,,,,,,,,,,,,,,,,,,,,,,,,,,,,,,,,0,0,0,0,0,0,0,0,0,0,0,0,0,0,0,0,,,,,,,,,,,
2542269,1745077815552,0.0,184.26,,-0.13,-0.03,1.03,-0,0,1,1.03,1.23,84,3133,3.0,3.42,,12.89,1.25,86.2,,29.0,5,,,,,,,,,,,,0,0,0,0,0,0,0,0,0,0,0,0,0,0,0,0,,,,,0.0,,,,,,
2542289,1745077815572,,,,,,,,,,,,,,,,,,,,,,,2,0,2,2,0.0,0.0,0.0,0.0,2.26,,,0,0,0,0,0,0,0,0,0,0,0,0,0,0,0,0,0,,,,,39.239574,-77.9646,3.46,28,3,0.9
2542309,1745077815592,0.0,184.26,,-0.16,-0.1,1.09,-0,0,0,1.1,1.23,90,3142,2.8,3.43,,12.85,1.25,86.2,,28.1,5,,,,,,,,,,,,0,0,0,0,0,0,0,0,0,0,0,0,0,0,0,0,,,,,0.0,,,,,,
2542329,1745077815611,,,,,,,,,,,,,,,,,,,,,,,,,,,,,,,,,,0,0,0,0,0,0,0,0,0,0,0,0,0,0,0,0,,,,,,,,,,,
2542349,1745077815631,0.0,184.26,,-0.18,-0.14,1.09,0,0,-0,1.12,1.23,91,3096,2.7,3.42,,12.85,1.25,86.2,,28.1,5,,,,,,,,,,,,0,0,0,0,0,0,0,0,0,0,0,0,0,0,0,0,,,,,0.0,,,,,,
2542369,1745077815651,,,,,,,,,,,,,,,,,,,,,,,,,,,,,,,,,,0,0,0,0,0,0,0,0,0,0,0,0,0,0,0,0,,,,,,,,,,,
2542389,1745077815671,0.0,184.26,13.42,-0.17,-0.14,1.02,1,0,-0,1.05,1.23,85,3096,2.7,3.42,15,12.89,1.25,86.2,158,28.6,5,2,0,2,2,0.0,0.0,0.0,0.0,2.26,0,0.0,0,0,0,0,0,0,0,0,0,0,0,0,0,0,0,0,0,0.0,0,-0,0.0,39.239571,-77.9646,3.22,28,3,0.9
2542409,1745077815691,,,,,,,,,,,,,,,,,,,,,,,,,,,,,,,,,,0,0,0,0,0,0,0,0,0,0,0,0,0,0,0,0,,,,,,,,,,,
2542429,1745077815710,0.0,184.26,,-0.15,-0.08,0.92,1,0,-1,0.94,1.23,76,3068,2.7,3.42,,12.91,1.25,86.2,,28.6,5,,,,,,,,,,,,0,0,0,0,0,0,0,0,0,0,0,0,0,0,0,0,,,,,0.0,,,,,,
2542449,1745077815730,,,,,,,,,,,,,,,,,,,,,,,,,,,,,,,,,,0,0,0,0,0,0,0,0,0,0,0,0,0,0,0,0,,,,,,,,,,,
2542469,1745077815750,0.0,184.26,,-0.12,-0.01,0.85,1,0,-1,0.86,1.23,70,3100,2.7,3.39,,12.92,1.25,86.2,,28.6,5,,,,,,,,,,,,0,0,0,0,0,0,0,0,0,0,0,0,0,0,0,0,,,,,0.0,,,,,,
2542489,1745077815770,,,,,,,,,,,,,,,,,,,,,,,2,0,2,2,0.0,0.0,0.0,0.0,2.26,,,0,0,0,0,0,0,0,0,0,0,0,0,0,0,0,0,0,,,,,39.239571,-77.964607,3.04,28,3,0.9
2542509,1745077815790,0.0,184.14,,-0.09,0.05,0.84,1,0,-0,0.85,1.23,69,3080,2.7,3.41,,12.92,1.252,86.2,,27.9,5,,,,,,,,,,,,0,0,0,0,0,0,0,0,0,0,0,0,0,0,0,0,,,,,0.0,,,,,,
2542529,1745077815810,,,,,,,,,,,,,,,,,,,,,,,,,,,,,,,,,,0,0,0,0,0,0,0,0,0,0,0,0,0,0,0,0,,,,,,,,,,,
2542549,1745077815830,0.0,184.26,,-0.07,0.1,0.84,0,-0,0,0.85,1.23,69,3010,2.7,3.37,,12.92,1.252,86.2,,27.9,5,,,,,,,,,,,,0,0,0,0,0,0,0,0,0,0,0,0,0,0,0,0,,,,,0.0,,,,,,
2542569,1745077815850,,,,,,,,,,,,,,,,,,,,,,,,,,,,,,,,,,0,0,0,0,0,0,0,0,0,0,0,0,0,0,0,0,,,,,,,,,,,
2542589,1745077815870,0.0,184.14,,-0.06,0.14,0.87,-0,-0,1,0.88,1.23,71,3010,2.7,3.37,,12.96,1.253,86.2,,27.8,5,2,0,2,2,0.0,0.0,0.0,0.0,2.26,,,0,0,0,0,0,0,0,0,0,0,0,0,0,0,0,0,0,,,,0.0,39.239571,-77.964607,2.85,28,3,0.9
2542609,1745077815890,,,,,,,,,,,,,,,,,,,,,,,,,,,,,,,,,,0,0,0,0,0,0,0,0,0,0,0,0,0,0,0,0,,,,,,,,,,,
2542629,1745077815908,0.0,184.14,,-0.05,0.15,0.9,-1,-0,1,0.91,1.23,74,3007,2.8,3.37,,12.95,1.252,86.2,,27.8,5,,,,,,,,,,,,0,0,0,0,0,0,0,0,0,0,0,0,0,0,0,0,,,,,0.0,,,,,,
2542649,1745077815928,,,,,,,,,,,,,,,,,,,,,,,,,,,,,,,,,,0,0,0,0,0,0,0,0,0,0,0,0,0,0,0,0,,,,,,,,,,,
2542669,1745077815948,0.0,184.14,,-0.05,0.15,0.92,-1,-0,1,0.94,1.23,76,3039,2.9,3.4,,12.96,1.252,86.2,,27.8,5,,,,,,,,,,,,0,0,0,0,0,0,0,0,0,0,0,0,0,0,0,0,,,,,0.0,,,,,,
2542689,1745077815968,,,,,,,,,,,,,,,,,,,,,,,2,0,2,2,0.0,0.0,0.0,0.0,2.26,,,0,0,0,0,0,0,0,0,0,0,0,0,0,0,0,0,0,,,,,39.239571,-77.964607,2.78,28,3,0.9
2542709,1745077815988,0.0,184.14,,-0.04,0.16,0.94,-1,-0,1,0.95,1.23,77,3017,2.9,3.38,,13.01,1.251,86.2,,27.3,5,,,,,,,,,,,,0,0,0,0,0,0,0,0,0,0,0,0,0,0,0,0,,,,,0.0,,,,,,
2542729,1745077816002,,,,,,,,,,,,,,,,,,,,,,,,,,,,,,,,,,0,0,0,0,0,0,0,0,0,0,0,0,0,0,0,0,,,,,,,,,,,
2542749,1745077816022,0.0,184.14,,-0.03,0.17,0.92,-2,-0,2,0.94,1.23,76,2915,2.9,3.43,,13.01,1.251,86.2,,27.3,5,,,,,,,,,,,,0,0,0,0,0,0,0,0,0,0,0,0,0,0,0,0,,,,,0.0,,,,,,
2542769,1745077816042,,,,,,,,,,,,,,,,,,,,,,,,,,,,,,,,,,0,0,0,0,0,0,0,0,0,0,0,0,0,0,0,0,,,,,,,,,,,
2542789,1745077816062,0.0,184.14,,-0.02,0.18,0.88,-1,-0,2,0.9,1.23,73,2915,2.9,3.43,,13.05,1.25,86.2,,26.9,5,2,0,2,2,0.0,0.0,0.0,0.0,2.26,,,0,0,0,0,0,0,0,0,0,0,0,0,0,0,0,0,0,,,,0.0,39.239567,-77.964607,2.53,28,3,0.9
2542809,1745077816082,,,,,,,,,,,,,,,,,,,,,,,,,,,,,,,,,,0,0,0,0,0,0,0,0,0,0,0,0,0,0,0,0,,,,,,,,,,,
2542829,1745077816106,0.0,184.01,,-0.01,0.2,0.83,-1,-0,1,0.85,1.23,69,2898,2.8,3.4,,13.11,1.25,86.2,,26.9,5,,,,,,,,,,,,0,0,0,0,0,0,0,0,0,0,0,0,0,0,0,0,,,,,0.0,,,,,,
2542849,1745077816126,,,,,,,,,,,,,,,,,,,,,,,,,,,,,,,,,,0,0,0,0,0,0,0,0,0,0,0,0,0,0,0,0,,,,,,,,,,,
2542869,1745077816146,0.0,184.01,,-0.01,0.19,0.78,-1,-0,1,0.8,1.23,65,2957,2.7,3.47,,13.07,1.25,86.2,,26.9,5,,,,,,,,,,,,0,0,0,0,0,0,0,0,0,0,0,0,0,0,0,0,,,,,0.0,,,,,,
2542889,1745077816166,,,,,,,,,,,,,,,,,,,,,,,1,0,1,1,0.0,0.0,0.0,0.0,2.27,,,0,0,0,0,0,0,0,0,0,0,0,0,0,0,0,0,0,,,,,39.239567,-77.964607,2.39,28,3,0.9
2542909,1745077816186,0.0,184.14,,-0.03,0.17,0.76,-0,-0,1,0.78,1.23,63,2952,2.7,3.45,,13.05,1.25,86.2,,26.4,5,,,,,,,,,,,,0,0,0,0,0,0,0,0,0,0,0,0,0,0,0,0,,,,,0.0,,,,,,
2542929,1745077816210,,,,,,,,,,,,,,,,,,,,,,,,,,,,,,,,,,0,0,0,0,0,0,0,0,0,0,0,0,0,0,0,0,,,,,,,,,,,
2542949,1745077816230,0.0,184.14,,-0.06,0.13,0.79,-0,-0,0,0.8,1.23,65,2859,2.7,3.4,,13.05,1.25,86.2,,26.4,5,,,,,,,,,,,,0,0,0,0,0,0,0,0,0,0,0,0,0,0,0,0,,,,,0.0,,,,,,
2542969,1745077816250,,,,,,,,,,,,,,,,,,,,,,,,,,,,,,,,,,0,0,0,0,0,0,0,0,0,0,0,0,0,0,0,0,,,,,,,,,,,
2542989,1745077816270,0.0,184.01,,-0.08,0.07,0.87,0,-0,0,0.88,1.23,71,2859,2.7,3.4,,13.09,1.25,86.2,,26.7,5,1,0,1,1,0.0,0.0,0.0,0.0,2.27,,,0,0,0,0,0,0,0,0,0,0,0,0,0,0,0,0,0,,,,0.0,39.239567,-77.964607,2.22,28,3,0.9
2543009,1745077816290,,,,,,,,,,,,,,,,,,,,,,,,,,,,,,,,,,0,0,0,0,0,0,0,0,0,0,0,0,0,0,0,0,,,,,,,,,,,
2543029,1745077816311,0.0,184.14,,-0.1,0.02,0.95,0,-0,0,0.96,1.23,78,2891,2.7,3.41,,13.17,1.251,86.2,,26.7,5,,,,,,,,,,,,0,0,0,0,0,0,0,0,0,0,0,0,0,0,0,0,,,,,0.0,,,,,,
2543049,1745077816331,,,,,,,,,,,,,,,,,,,,,,,,,,,,,,,,,,0,0,0,0,0,0,0,0,0,0,0,0,0,0,0,0,,,,,,,,,,,
2543069,1745077816351,0.0,184.01,,-0.1,0.0,0.99,-0,-0,1,0.99,1.23,81,2939,2.7,3.42,,13.13,1.252,86.2,,26.7,5,,,,,,,,,,,,0,0,0,0,0,0,0,0,0,0,0,0,0,0,0,0,,,,,0.0,,,,,,
2543089,1745077816371,,,,,,,,,,,,,,,,,,,,,,,1,0,1,1,0.0,0.0,0.0,0.0,2.26,,,0,0,0,0,0,0,0,0,0,0,0,0,0,0,0,0,0,,,,,39.239567,-77.964607,2.05,28,3,0.9
2543109,1745077816391,0.0,184.01,,-0.1,0.03,1.0,-1,-0,1,1.0,1.23,81,2947,2.8,3.43,,13.08,1.252,86.2,,26.1,5,,,,,,,,,,,,0,0,0,0,0,0,0,0,0,0,0,0,0,0,0,0,,,,,0.0,,,,,,
2543129,1745077816410,,,,,,,,,,,,,,,,,,,,,,,,,,,,,,,,,,0,0,0,0,0,0,0,0,0,0,0,0,0,0,0,0,,,,,,,,,,,
2543149,1745077816430,0.0,184.01,,-0.09,0.06,0.99,-1,-0,1,1.0,1.23,81,3019,2.9,3.4,,13.08,1.252,86.2,,26.1,5,,,,,,,,,,,,0,0,0,0,0,0,0,0,0,0,0,0,0,0,0,0,,,,,0.0,,,,,,
2543169,1745077816450,,,,,,,,,,,,,,,,,,,,,,,,,,,,,,,,,,0,0,0,0,0,0,0,0,0,0,0,0,0,0,0,0,,,,,,,,,,,
2543189,1745077816470,0.0,184.14,,-0.08,0.09,0.98,-1,-0,1,0.99,1.23,80,3019,2.9,3.4,,13.03,1.253,86.2,,27.5,5,1,0,1,1,0.0,0.0,0.0,0.0,2.26,,,0,0,0,0,0,0,0,0,0,0,0,0,0,0,0,0,0,,,,0.0,39.239567,-77.964607,1.92,28,3,0.9
2543209,1745077816490,,,,,,,,,,,,,,,,,,,,,,,,,,,,,,,,,,0,0,0,0,0,0,0,0,0,0,0,0,0,0,0,0,,,,,,,,,,,
2543229,1745077816510,0.0,184.14,,-0.08,0.11,0.99,-1,-0,1,1.0,1.23,81,2995,2.9,3.41,,13.04,1.251,86.2,,27.5,5,,,,,,,,,,,,0,0,0,0,0,0,0,0,0,0,0,0,0,0,0,0,,,,,0.0,,,,,,
2543249,1745077816530,,,,,,,,,,,,,,,,,,,,,,,,,,,,,,,,,,0,0,0,0,0,0,0,0,0,0,0,0,0,0,0,0,,,,,,,,,,,
2543269,1745077816550,0.0,184.14,,-0.08,0.1,1.02,-2,-0,2,1.03,1.23,83,3000,2.9,3.37,,13.0,1.25,86.2,,27.5,5,,,,,,,,,,,,0,0,0,0,0,0,0,0,0,0,0,0,0,0,0,0,,,,,0.0,,,,,,
2543289,1745077816570,,,,,,,,,,,,,,,,,,,,,,,1,0,1,1,0.0,0.0,0.0,0.0,2.26,,,0,0,0,0,0,0,0,0,0,0,0,0,0,0,0,0,0,,,,,39.239567,-77.964607,1.74,28,3,0.9
2543309,1745077816590,0.0,184.14,,-0.08,0.07,1.06,-2,-0,2,1.06,1.23,86,3091,2.8,3.44,,13.0,1.25,86.2,,27.4,5,,,,,,,,,,,,0,0,0,0,0,0,0,0,0,0,0,0,0,0,0,0,,,,,0.0,,,,,,
2543329,1745077816610,,,,,,,,,,,,,,,,,,,,,,,,,,,,,,,,,,0,0,0,0,0,0,0,0,0,0,0,0,0,0,0,0,,,,,,,,,,,
2543349,1745077816630,0.0,184.14,,-0.09,0.02,1.11,-2,-0,2,1.11,1.23,90,3054,2.7,3.36,,13.0,1.25,86.2,,27.4,5,,,,,,,,,,,,0,0,0,0,0,0,0,0,0,0,0,0,0,0,0,0,,,,,0.0,,,,,,
2543369,1745077816650,,,,,,,,,,,,,,,,,,,,,,,,,,,,,,,,,,0,0,0,0,0,0,0,0,0,0,0,0,0,0,0,0,,,,,,,,,,,
2543389,1745077816670,0.0,184.26,13.41,-0.11,-0.05,1.16,-1,-0,1,1.17,1.23,95,3054,2.7,3.36,15,12.92,1.25,86.2,160,28.2,5,1,0,1,1,0.0,0.0,0.0,0.0,2.27,0,0.0,0,0,0,0,0,0,0,0,0,0,0,0,0,0,0,0,0,0.0,0,-0,0.0,39.239567,-77.964607,1.65,28,3,0.9
2543409,1745077816690,,,,,,,,,,,,,,,,,,,,,,,,,,,,,,,,,,0,0,0,0,0,0,0,0,0,0,0,0,0,0,0,0,,,,,,,,,,,
2543429,1745077816711,0.0,184.26,,-0.13,-0.11,1.21,-1,-0,1,1.22,1.23,99,3045,2.7,3.41,,12.99,1.25,86.2,,28.2,5,,,,,,,,,,,,0,0,0,0,0,0,0,0,0,0,0,0,0,0,0,0,,,,,0.0,,,,,,
2543449,1745077816731,,,,,,,,,,,,,,,,,,,,,,,,,,,,,,,,,,0,0,0,0,0,0,0,0,0,0,0,0,0,0,0,0,,,,,,,,,,,
2543469,1745077816751,0.0,184.26,,-0.15,-0.14,1.21,-1,-0,0,1.23,1.23,99,3101,2.7,3.4,,12.97,1.25,86.2,,28.2,5,,,,,,,,,,,,0,0,0,0,0,0,0,0,0,0,0,0,0,0,0,0,,,,,0.0,,,,,,
2543489,1745077816771,,,,,,,,,,,,,,,,,,,,,,,1,0,1,1,0.0,0.0,0.0,0.0,2.26,,,0,0,0,0,0,0,0,0,0,0,0,0,0,0,0,0,0,,,,,39.239567,-77.964607,1.36,28,3,0.9
2543509,1745077816791,0.0,184.26,,-0.16,-0.15,1.15,-0,-0,0,1.17,1.23,95,3084,2.7,3.42,,12.95,1.251,86.2,,27.6,5,,,,,,,,,,,,0,0,0,0,0,0,0,0,0,0,0,0,0,0,0,0,,,,,0.0,,,,,,
2543529,1745077816809,,,,,,,,,,,,,,,,,,,,,,,,,,,,,,,,,,0,0,0,0,0,0,0,0,0,0,0,0,0,0,0,0,,,,,,,,,,,
2543549,1745077816829,0.0,184.26,,-0.16,-0.13,1.06,0,-0,-0,1.08,1.23,88,3038,2.7,3.4,,12.95,1.251,86.2,,27.6,5,,,,,,,,,,,,0,0,0,0,0,0,0,0,0,0,0,0,0,0,0,0,,,,,0.0,,,,,,
2543569,1745077816849,,,,,,,,,,,,,,,,,,,,,,,,,,,,,,,,,,0,0,0,0,0,0,0,0,0,0,0,0,0,0,0,0,,,,,,,,,,,
2543589,1745077816869,0.0,184.14,,-0.14,-0.08,0.96,1,-0,-0,0.97,1.23,79,3038,2.7,3.4,,13.0,1.253,86.2,,28.1,5,1,0,1,1,0.0,0.0,0.0,0.0,2.26,,,0,0,0,0,0,0,0,0,0,0,0,0,0,0,0,0,0,,,,0.0,39.239567,-77.964607,1.31,28,3,0.9
2543609,1745077816889,,,,,,,,,,,,,,,,,,,,,,,,,,,,,,,,,,0,0,0,0,0,0,0,0,0,0,0,0,0,0,0,0,,,,,,,,,,,
2543629,1745077816911,0.0,184.14,,-0.12,-0.0,0.9,0,-0,-0,0.9,1.23,73,3023,2.9,3.4,,13.05,1.253,86.2,,28.1,5,,,,,,,,,,,,0,0,0,0,0,0,0,0,0,0,0,0,0,0,0,0,,,,,0.0,,,,,,
2543649,1745077816931,,,,,,,,,,,,,,,,,,,,,,,,,,,,,,,,,,0,0,0,0,0,0,0,0,0,0,0,0,0,0,0,0,,,,,,,,,,,
2543669,1745077816951,0.0,184.26,,-0.09,0.07,0.91,-0,-0,0,0.92,1.23,75,3131,3.0,3.4,,12.96,1.252,86.2,,28.1,5,,,,,,,,,,,,0,0,0,0,0,0,0,0,0,0,0,0,0,0,0,0,,,,,0.0,,,,,,
2543689,1745077816971,,,,,,,,,,,,,,,,,,,,,,,1,0,1,1,0.0,0.0,0.0,0.0,2.26,,,0,0,0,0,0,0,0,0,0,0,0,0,0,0,0,0,0,,,,,39.239567,-77.964607,1.15,28,3,0.9
2543709,1745077816991,0.0,184.14,,-0.08,0.03,0.97,-1,-0,1,0.97,0.97,100,3096,3.0,3.43,,12.95,1.251,86.2,,28.3,5,,,,,,,,,,,,0,0,0,0,0,0,0,0,0,0,0,0,0,0,0,0,,,,,0.0,,,,,,
2543729,1745077817003,,,,,,,,,,,,,,,,,,,,,,,,,,,,,,,,,,0,0,0,0,0,0,0,0,0,0,0,0,0,0,0,0,,,,,,,,,,,
2543749,1745077817023,0.0,184.14,,-0.09,-0.04,1.03,-1,-0,1,1.04,1.04,100,3046,3.0,3.43,,12.95,1.251,86.2,,28.3,5,,,,,,,,,,,,0,0,0,0,0,0,0,0,0,0,0,0,0,0,0,0,,,,,0.0,,,,,,
2543769,1745077817043,,,,,,,,,,,,,,,,,,,,,,,,,,,,,,,,,,0,0,0,0,0,0,0,0,0,0,0,0,0,0,0,0,,,,,,,,,,,
2543789,1745077817063,0.0,184.14,,-0.11,-0.11,1.08,-0,-0,0,1.09,1.09,100,3046,3.0,3.43,,12.97,1.25,86.2,,28.3,5,1,0,1,1,0.0,0.0,0.0,0.0,2.26,,,0,0,0,0,0,0,0,0,0,0,0,0,0,0,0,0,0,,,,0.0,39.239567,-77.964607,0.94,28,3,0.9
2543809,1745077817083,,,,,,,,,,,,,,,,,,,,,,,,,,,,,,,,,,0,0,0,0,0,0,0,0,0,0,0,0,0,0,0,0,,,,,,,,,,,
2543829,1745077817111,0.0,184.14,,-0.12,-0.14,1.04,0,-0,-0,1.05,1.09,97,3142,2.9,3.45,,12.96,1.25,86.2,,28.3,5,,,,,,,,,,,,0,0,0,0,0,0,0,0,0,0,0,0,0,0,0,0,,,,,0.0,,,,,,
2543849,1745077817131,,,,,,,,,,,,,,,,,,,,,,,,,,,,,,,,,,0,0,0,0,0,0,0,0,0,0,0,0,0,0,0,0,,,,,,,,,,,
2543869,1745077817151,0.0,184.26,,-0.12,-0.08,0.95,0,-0,-0,0.96,1.09,88,3142,2.8,3.42,,12.89,1.25,86.2,,28.3,5,,,,,,,,,,,,0,0,0,0,0,0,0,0,0,0,0,0,0,0,0,0,,,,,0.0,,,,,,
2543889,1745077817171,,,,,,,,,,,,,,,,,,,,,,,1,0,1,1,0.0,0.0,0.0,0.0,2.27,,,0,0,0,0,0,0,0,0,0,0,0,0,0,0,0,0,0,,,,,39.239567,-77.964607,0.88,28,3,0.9
2543909,1745077817191,0.0,184.14,,-0.09,0.01,0.91,0,-0,-0,0.92,1.09,84,3049,2.8,3.41,,12.97,1.25,86.2,,28.7,5,,,,,,,,,,,,0,0,0,0,0,0,0,0,0,0,0,0,0,0,0,0,,,,,0.0,,,,,,
2543929,1745077817211,,,,,,,,,,,,,,,,,,,,,,,,,,,,,,,,,,0,0,0,0,0,0,0,0,0,0,0,0,0,0,0,0,,,,,,,,,,,
2543949,1745077817231,0.0,184.26,,-0.08,0.06,0.91,-0,-0,0,0.92,1.09,84,3077,2.8,3.43,,12.97,1.25,86.2,,28.7,5,,,,,,,,,,,,0,0,0,0,0,0,0,0,0,0,0,0,0,0,0,0,,,,,0.0,,,,,,
2543969,1745077817251,,,,,,,,,,,,,,,,,,,,,,,,,,,,,,,,,,0,0,0,0,0,0,0,0,0,0,0,0,0,0,0,0,,,,,,,,,,,
2543989,1745077817271,0.0,184.14,,-0.08,0.06,0.95,-1,-0,1,0.96,1.09,88,3077,2.8,3.43,,12.97,1.25,86.2,,27.8,5,1,0,1,1,0.0,0.0,0.0,0.0,2.26,,,0,0,0,0,0,0,0,0,0,0,0,0,0,0,0,0,0,,,,0.0,39.239567,-77.964607,0.67,28,3,0.9
2544009,1745077817291,,,,,,,,,,,,,,,,,,,,,,,,,,,,,,,,,,0,0,0,0,0,0,0,0,0,0,0,0,0,0,0,0,,,,,,,,,,,
2544029,1745077817311,0.0,184.14,,-0.09,0.01,1.01,-1,-0,1,1.01,1.09,93,3112,2.7,3.4,,12.97,1.252,86.2,,27.8,5,,,,,,,,,,,,0,0,0,0,0,0,0,0,0,0,0,0,0,0,0,0,,,,,0.0,,,,,,
2544049,1745077817331,,,,,,,,,,,,,,,,,,,,,,,,,,,,,,,,,,0,0,0,0,0,0,0,0,0,0,0,0,0,0,0,0,,,,,,,,,,,
2544069,1745077817351,0.0,184.26,,-0.1,-0.06,1.07,-1,-0,1,1.08,1.09,99,3032,2.8,3.4,,12.95,1.252,86.2,,27.8,5,,,,,,,,,,,,0,0,0,0,0,0,0,0,0,0,0,0,0,0,0,0,,,,,0.0,,,,,,
2544089,1745077817371,,,,,,,,,,,,,,,,,,,,,,,1,0,1,1,0.0,0.0,0.0,0.0,2.26,,,0,0,0,0,0,0,0,0,0,0,0,0,0,0,0,0,0,,,,,39.239567,-77.964607,0.48,28,3,0.9
2544109,1745077817391,0.0,184.01,,-0.12,-0.11,1.14,-1,-0,0,1.15,1.15,100,2994,2.9,3.4,,13.04,1.253,86.2,,28.0,5,,,,,,,,,,,,0,0,0,0,0,0,0,0,0,0,0,0,0,0,0,0,,,,,0.0,,,,,,
2544129,1745077817409,,,,,,,,,,,,,,,,,,,,,,,,,,,,,,,,,,0,0,0,0,0,0,0,0,0,0,0,0,0,0,0,0,,,,,,,,,,,
2544149,1745077817429,0.0,184.14,,-0.14,-0.15,1.18,-0,-0,0,1.2,1.2,100,3084,3.0,3.45,,13.04,1.253,86.2,,28.0,5,,,,,,,,,,,,0,0,0,0,0,0,0,0,0,0,0,0,0,0,0,0,,,,,0.0,,,,,,
2544169,1745077817449,,,,,,,,,,,,,,,,,,,,,,,,,,,,,,,,,,0,0,0,0,0,0,0,0,0,0,0,0,0,0,0,0,,,,,,,,,,,
2544189,1745077817469,0.0,184.14,,-0.16,-0.18,1.19,0,-0,-0,1.22,1.22,100,3084,3.0,3.45,,12.97,1.253,86.2,,27.3,5,1,0,0,0,0.0,0.0,0.0,0.0,2.26,,,0,0,0,0,0,0,0,0,0,0,0,0,0,0,0,0,0,,,,0.0,39.239567,-77.964607,0.39,28,3,0.9
2544209,1745077817489,,,,,,,,,,,,,,,,,,,,,,,,,,,,,,,,,,0,0,0,0,0,0,0,0,0,0,0,0,0,0,0,0,,,,,,,,,,,
2544229,1745077817511,0.0,184.14,,-0.17,-0.17,1.13,1,-0,-0,1.15,1.22,94,3094,3.0,3.41,,12.97,1.252,84.4,,27.3,5,,,,,,,,,,,,0,0,0,0,0,0,0,0,0,0,0,0,0,0,0,0,,,,,0.0,,,,,,
2544249,1745077817531,,,,,,,,,,,,,,,,,,,,,,,,,,,,,,,,,,0,0,0,0,0,0,0,0,0,0,0,0,0,0,0,0,,,,,,,,,,,
2544269,1745077817551,0.0,184.14,,-0.15,-0.13,1.02,1,-0,-1,1.04,1.22,85,3056,3.0,3.43,,12.97,1.25,84.4,,27.3,5,,,,,,,,,,,,0,0,0,0,0,0,0,0,0,0,0,0,0,0,0,0,,,,,0.0,,,,,,
2544289,1745077817571,,,,,,,,,,,,,,,,,,,,,,,1,0,0,0,0.0,0.0,0.0,0.0,2.26,,,0,0,0,0,0,0,0,0,0,0,0,0,0,0,0,0,0,,,,,39.239567,-77.964607,0.23,28,3,0.9
2544309,1745077817591,0.0,184.26,,-0.13,-0.06,0.94,1,-0,-1,0.95,1.22,78,3065,2.8,3.39,,13.01,1.25,84.4,,28.4,5,,,,,,,,,,,,0,0,0,0,0,0,0,0,0,0,0,0,0,0,0,0,,,,,0.0,,,,,,
2544329,1745077817611,,,,,,,,,,,,,,,,,,,,,,,,,,,,,,,,,,0,0,0,0,0,0,0,0,0,0,0,0,0,0,0,0,,,,,,,,,,,
2544349,1745077817631,0.0,184.14,,-0.1,-0.01,0.88,1,-0,-0,0.89,1.22,73,3006,2.7,3.45,,13.01,1.25,84.4,,28.4,5,,,,,,,,,,,,0,0,0,0,0,0,0,0,0,0,0,0,0,0,0,0,,,,,0.0,,,,,,
2544369,1745077817651,,,,,,,,,,,,,,,,,,,,,,,,,,,,,,,,,,0,0,0,0,0,0,0,0,0,0,0,0,0,0,0,0,,,,,,,,,,,
2544389,1745077817671,0.0,184.26,13.54,-0.08,0.03,0.81,1,-0,-1,0.82,1.22,67,3006,2.7,3.45,15,12.97,1.25,84.4,160,26.8,5,1,0,0,0,0.0,0.0,0.0,0.0,2.26,0,0.0,0,0,0,0,0,0,0,0,0,0,0,0,0,0,0,0,0,0.0,0,-0,0.0,39.239567,-77.964607,0.05,28,3,0.9
2544409,1745077817691,,,,,,,,,,,,,,,,,,,,,,,,,,,,,,,,,,0,0,0,0,0,0,0,0,0,0,0,0,0,0,0,0,,,,,,,,,,,
