"Interval"|"ms"|0|0|1,"Utc"|"ms"|0|0|1,"FrontBP"|"psi"|-5.0|5.0|25,"SteerAng"|"Degrees"|-145.0|145.0|25,"Battery"|"Volts"|-5.0|20.0|1,"AccelX"|"G"|-3.0|3.0|25,"AccelY"|"G"|-3.0|3.0|25,"AccelZ"|"G"|-3.0|3.0|25,"Yaw"|"Deg/Sec"|-120|120|25,"Pitch"|"Deg/Sec"|-120|120|25,"Roll"|"Deg/Sec"|-120|120|25,"Gsum"|"G"|0.0|3.0|25,"GsumMax"|"G"|0.0|3.0|25,"GsumPct"|"%"|0|100|25,"RPM"|""|0|10000|25,"TPS"|"%"|0.0|100.0|25,"InjectorPW"|"ms"|0.0|100.0|25,"Baro"|"kPa"|0|105|1,"MAP"|"Psi"|0.0|255.0|25,"Lambda"|""|-2.0|2.0|25,"IAT"|"C"|0.0|200.0|25,"EngineTemp"|"C"|0|200|1,"EOP"|"PSI"|0.0|152.0|25,"EOT"|"F"|0|250|25,"WSFR"|"MPH"|0|150|10,"WSFL"|"MPH"|0|100|10,"WSRR"|"MPH"|0|100|10,"WSRL"|""|0|100|10,"TCSet"|"%"|0.0|100.0|10,"TCSlip"|"%"|0.0|100.0|10,"TCComp"|"deg"|0.0|50.0|10,"TCCut"|"%"|0.0|100.0|10,"Analog8"|""|0.0|5.0|10,"OilTemp"|"F"|0|300|1,"AA_On"|""|0.0|1.0|1,"ThermLF1"|"C"|0|400|50,"ThermLF2"|"C"|0|400|50,"ThermRR1"|"C"|0|400|50,"ThermRR2"|"C"|0|400|50,"ThermLF3"|"C"|0|400|50,"ThermLF4"|"C"|0|400|50,"ThermLF5"|"C"|0|400|50,"ThermLF6"|"C"|0|400|50,"ThermLF7"|"C"|0|400|50,"ThermLF8"|"C"|0|400|50,"ThermRR3"|"C"|0|400|50,"ThermRR4"|"C"|0|400|50,"ThermRR5"|"C"|0|400|50,"ThermRR6"|"C"|0|400|50,"ThermRR7"|"C"|0|400|50,"ThermRR8"|"C"|0|400|50,"Gear"|""|1|6|10,"AA_On"|""|0.0|1.0|1,"AA_LowDrag"|""|0|1|1,"Fuel_Mix"|""|-10|10|1,"AA_Packages"|""|0.0|1000.0|25,"Latitude"|"Degrees"|-180.0|180.0|10,"Longitude"|"Degrees"|-180.0|180.0|10,"Speed"|"kph"|0.0|150.0|10,"GPSSats"|""|0|20|10,"GPSQual"|""|0|5|10,"GPSDOP"|""|0.0|20.0|10
2958849,1745078232131,,,,,,,,,,,,,,,,,,,,,,,,,,,,,,,,,,0,0,0,0,0,0,0,0,0,0,0,0,0,0,0,0,,,,,,,,,,,
2958689,1745078231973,,,,,,,,,,,,,,,,,,,,,,,0,0,0,0,0.0,0.0,0.0,0.0,2.26,,,0,0,0,0,0,0,0,0,0,0,0,0,0,0,0,0,0,,,,,39.239613,-77.964584,0.04,29,3,0.8
2958709,1745078231993,0.0,186.65,,-0.24,0.18,1.08,-2,-0,-0,1.12,1.12,100,11783,17.0,2.24,,7.46,1.249,88.0,,73.8,5,,,,,,,,,,,,0,0,0,0,0,0,0,0,0,0,0,0,0,0,0,0,,,,,0.0,,,,,,
2958729,1745078232005,,,,,,,,,,,,,,,,,,,,,,,,,,,,,,,,,,0,0,0,0,0,0,0,0,0,0,0,0,0,0,0,0,,,,,,,,,,,
2958749,1745078232025,0.0,186.65,,-0.21,0.16,1.1,-1,0,-0,1.13,1.13,100,11562,19.0,2.41,,7.86,1.251,88.0,,73.8,5,,,,,,,,,,,,0,0,0,0,0,0,0,0,0,0,0,0,0,0,0,0,,,,,0.0,,,,,,
2958769,1745078232045,,,,,,,,,,,,,,,,,,,,,,,,,,,,,,,,,,0,0,0,0,0,0,0,0,0,0,0,0,0,0,0,0,,,,,,,,,,,
2958789,1745078232065,0.0,186.65,,-0.19,0.12,1.13,-1,-0,0,1.15,1.15,100,11424,21.7,2.7,,8.17,1.251,88.0,,71.8,5,0,0,0,0,0.0,0.0,0.0,0.0,2.26,,,0,0,0,0,0,0,0,0,0,0,0,0,0,0,0,0,0,,,,0.0,39.239613,-77.964584,0.07,29,3,0.8
2958809,1745078232085,,,,,,,,,,,,,,,,,,,,,,,,,,,,,,,,,,0,0,0,0,0,0,0,0,0,0,0,0,0,0,0,0,,,,,,,,,,,
2958829,1745078232111,0.0,186.78,,-0.19,-0.02,1.05,-0,-0,-0,1.07,1.15,93,11544,29.0,2.66,,8.17,1.251,88.0,,71.8,5,,,,,,,,,,,,0,0,0,0,0,0,0,0,0,0,0,0,0,0,0,0,,,,,0.0,,,,,,
2958849,1745078232131,,,,,,,,,,,,,,,,,,,,,,,,,,,,,,,,,,0,0,0,0,0,0,0,0,0,0,0,0,0,0,0,0,,,,,,,,,,,
2958869,1745078232151,0.0,186.65,,-0.18,-0.07,1.08,-0,-0,-0,1.09,1.15,95,11544,29.0,2.66,,9.26,1.251,88.0,,70.9,5,,,,,,,,,,,,0,0,0,0,0,0,0,0,0,0,0,0,0,0,0,0,,,,,0.0,,,,,,
2958889,1745078232171,,,,,,,,,,,,,,,,,,,,,,,0,0,0,0,0.0,0.0,0.0,0.0,2.26,,,0,0,0,0,0,0,0,0,0,0,0,0,0,0,0,0,0,,,,,39.239613,-77.964584,0.0,29,3,0.8
2958909,1745078232191,0.0,186.65,,-0.16,0.01,1.01,-0,-0,-1,1.03,1.15,89,11116,31.6,2.7,,9.96,1.193,88.0,,70.9,5,,,,,,,,,,,,0,0,0,0,0,0,0,0,0,0,0,0,0,0,0,0,,,,,0.0,,,,,,
2958929,1745078232212,,,,,,,,,,,,,,,,,,,,,,,,,,,,,,,,,,0,0,0,0,0,0,0,0,0,0,0,0,0,0,0,0,,,,,,,,,,,
2958949,1745078232232,0.0,186.9,,-0.13,-0.04,1.01,-1,-0,-0,1.02,1.15,89,10683,20.1,3.3,,9.57,1.249,88.0,,70.9,5,,,,,,,,,,,,0,0,0,0,0,0,0,0,0,0,0,0,0,0,0,0,,,,,0.0,,,,,,
2958969,1745078232252,,,,,,,,,,,,,,,,,,,,,,,,,,,,,,,,,,0,0,0,0,0,0,0,0,0,0,0,0,0,0,0,0,,,,,,,,,,,
2958989,1745078232272,0.0,186.78,,-0.14,-0.06,0.96,-1,-0,-0,0.97,1.15,84,11133,7.1,2.19,,8.11,1.248,88.0,,70.6,5,0,0,0,0,0.0,0.0,0.0,0.0,2.26,,,0,0,0,0,0,0,0,0,0,0,0,0,0,0,0,0,0,,,,0.0,39.239613,-77.964584,0.0,29,3,0.8
2959009,1745078232292,,,,,,,,,,,,,,,,,,,,,,,,,,,,,,,,,,0,0,0,0,0,0,0,0,0,0,0,0,0,0,0,0,,,,,,,,,,,
2959029,1745078232314,0.0,186.78,,-0.15,0.04,1.01,-1,-0,-0,1.02,1.15,89,11144,2.9,1.54,,8.11,1.248,88.0,,70.6,5,,,,,,,,,,,,0,0,0,0,0,0,0,0,0,0,0,0,0,0,0,0,,,,,0.0,,,,,,
2959049,1745078232334,,,,,,,,,,,,,,,,,,,,,,,,,,,,,,,,,,0,0,0,0,0,0,0,0,0,0,0,0,0,0,0,0,,,,,,,,,,,
2959069,1745078232354,0.0,186.78,,-0.14,-0.05,1.01,-0,-0,0,1.02,1.15,89,11144,2.9,1.54,,6.79,1.237,88.0,,69.5,5,,,,,,,,,,,,0,0,0,0,0,0,0,0,0,0,0,0,0,0,0,0,,,,,0.0,,,,,,
2959089,1745078232374,,,,,,,,,,,,,,,,,,,,,,,0,0,0,0,0.0,0.0,0.0,0.0,2.26,,,0,0,0,0,0,0,0,0,0,0,0,0,0,0,0,0,0,,,,,39.239613,-77.964584,0.0,29,3,0.8
2959109,1745078232394,0.0,186.65,,-0.14,-0.01,1.01,-0,-0,0,1.02,1.15,89,10484,2.3,1.4,,5.82,1.127,88.0,,69.5,5,,,,,,,,,,,,0,0,0,0,0,0,0,0,0,0,0,0,0,0,0,0,,,,,0.0,,,,,,
2959129,1745078232414,,,,,,,,,,,,,,,,,,,,,,,,,,,,,,,,,,0,0,0,0,0,0,0,0,0,0,0,0,0,0,0,0,,,,,,,,,,,
2959149,1745078232434,0.0,186.65,,-0.13,0.03,0.94,1,-0,-0,0.95,1.15,82,9786,11.1,1.8,,6.28,1.246,88.0,,69.5,5,,,,,,,,,,,,0,0,0,0,0,0,0,0,0,0,0,0,0,0,0,0,,,,,0.0,,,,,,
2959169,1745078232454,,,,,,,,,,,,,,,,,,,,,,,,,,,,,,,,,,0,0,0,0,0,0,0,0,0,0,0,0,0,0,0,0,,,,,,,,,,,
2959189,1745078232474,0.0,186.53,,-0.1,-0.11,1.0,1,-0,-0,1.01,1.15,88,9316,20.0,2.39,,7.55,1.25,88.0,,67.3,5,0,0,0,0,0.0,0.0,0.0,0.0,2.26,,,0,0,0,0,0,0,0,0,0,0,0,0,0,0,0,0,0,,,,0.0,39.239613,-77.964584,0.09,29,3,0.8
2959209,1745078232494,,,,,,,,,,,,,,,,,,,,,,,,,,,,,,,,,,0,0,0,0,0,0,0,0,0,0,0,0,0,0,0,0,,,,,,,,,,,
2959229,1745078232514,0.0,186.65,,-0.07,0.06,0.95,2,-0,0,0.96,1.15,84,9295,23.2,2.74,,7.55,1.25,88.0,,67.3,5,,,,,,,,,,,,0,0,0,0,0,0,0,0,0,0,0,0,0,0,0,0,,,,,0.0,,,,,,
2959249,1745078232534,,,,,,,,,,,,,,,,,,,,,,,,,,,,,,,,,,0,0,0,0,0,0,0,0,0,0,0,0,0,0,0,0,,,,,,,,,,,
2959269,1745078232554,0.0,186.53,,-0.09,-0.06,1.02,1,-0,-0,1.02,1.15,89,9295,23.2,2.74,,8.77,1.252,88.0,,67.0,5,,,,,,,,,,,,0,0,0,0,0,0,0,0,0,0,0,0,0,0,0,0,,,,,0.0,,,,,,
2959289,1745078232574,,,,,,,,,,,,,,,,,,,,,,,0,0,0,0,0.0,0.0,0.0,0.0,2.26,,,0,0,0,0,0,0,0,0,0,0,0,0,0,0,0,0,0,,,,,39.239613,-77.964584,0.04,29,3,0.8
2959309,1745078232594,0.0,186.53,,-0.1,0.07,0.99,1,-0,0,1.0,1.15,87,9416,24.2,3.03,,9.42,1.252,88.0,,67.0,5,,,,,,,,,,,,0,0,0,0,0,0,0,0,0,0,0,0,0,0,0,0,,,,,0.0,,,,,,
2959329,1745078232614,,,,,,,,,,,,,,,,,,,,,,,,,,,,,,,,,,0,0,0,0,0,0,0,0,0,0,0,0,0,0,0,0,,,,,,,,,,,
2959349,1745078232634,0.0,186.53,,-0.09,-0.08,0.96,2,-0,-0,0.97,1.15,84,9519,21.3,3.23,,9.29,1.252,88.0,,67.0,5,,,,,,,,,,,,0,0,0,0,0,0,0,0,0,0,0,0,0,0,0,0,,,,,0.0,,,,,,
2959369,1745078232654,,,,,,,,,,,,,,,,,,,,,,,,,,,,,,,,,,0,0,0,0,0,0,0,0,0,0,0,0,0,0,0,0,,,,,,,,,,,
2959389,1745078232674,0.0,186.4,13.14,-0.09,0.05,0.85,0,-0,0,0.86,1.15,75,9842,17.6,3.09,15,8.89,1.251,88.0,164,67.4,5,0,0,0,0,0.0,0.0,0.0,0.0,2.26,0,0.0,0,0,0,0,0,0,0,0,0,0,0,0,0,0,0,0,0,0.0,0,0,0.0,39.239613,-77.964584,0.05,29,3,0.8
2959409,1745078232694,,,,,,,,,,,,,,,,,,,,,,,,,,,,,,,,,,0,0,0,0,0,0,0,0,0,0,0,0,0,0,0,0,,,,,,,,,,,
2959429,1745078232714,0.0,186.4,,-0.1,-0.17,0.88,0,-0,0,0.9,1.15,78,10222,17.2,3.0,,8.89,1.251,88.0,,67.4,5,,,,,,,,,,,,0,0,0,0,0,0,0,0,0,0,0,0,0,0,0,0,,,,,0.0,,,,,,
2959449,1745078232734,,,,,,,,,,,,,,,,,,,,,,,,,,,,,,,,,,0,0,0,0,0,0,0,0,0,0,0,0,0,0,0,0,,,,,,,,,,,
2959469,1745078232754,0.0,186.27,,-0.12,-0.14,1.01,1,-0,0,1.02,1.15,89,10222,17.2,3.0,,8.62,1.248,88.0,,68.9,5,,,,,,,,,,,,0,0,0,0,0,0,0,0,0,0,0,0,0,0,0,0,,,,,0.0,,,,,,
2959489,1745078232774,,,,,,,,,,,,,,,,,,,,,,,0,0,0,0,0.0,0.0,0.0,0.0,2.26,,,0,0,0,0,0,0,0,0,0,0,0,0,0,0,0,0,0,,,,,39.239613,-77.964584,0.08,29,3,0.8
2959509,1745078232794,0.0,186.27,,-0.1,-0.17,0.99,1,-0,0,1.01,1.15,88,10615,16.4,2.83,,8.43,1.184,88.0,,68.9,5,,,,,,,,,,,,0,0,0,0,0,0,0,0,0,0,0,0,0,0,0,0,,,,,0.0,,,,,,
2959529,1745078232812,,,,,,,,,,,,,,,,,,,,,,,,,,,,,,,,,,0,0,0,0,0,0,0,0,0,0,0,0,0,0,0,0,,,,,,,,,,,
2959549,1745078232832,0.0,186.27,,-0.1,-0.18,1.01,1,-0,0,1.03,1.15,90,11048,14.1,2.53,,7.79,1.12,88.0,,68.9,5,,,,,,,,,,,,0,0,0,0,0,0,0,0,0,0,0,0,0,0,0,0,,,,,0.0,,,,,,
2959569,1745078232852,,,,,,,,,,,,,,,,,,,,,,,,,,,,,,,,,,0,0,0,0,0,0,0,0,0,0,0,0,0,0,0,0,,,,,,,,,,,
2959589,1745078232872,0.0,186.15,,-0.11,-0.07,1.04,1,-0,1,1.05,1.15,91,11169,13.1,2.21,,7.7,1.057,88.0,,67.0,5,0,0,0,0,0.0,0.0,0.0,0.0,2.26,,,0,0,0,0,0,0,0,0,0,0,0,0,0,0,0,0,0,,,,0.0,39.239613,-77.964584,0.06,29,3,0.8
2959609,1745078232892,,,,,,,,,,,,,,,,,,,,,,,,,,,,,,,,,,0,0,0,0,0,0,0,0,0,0,0,0,0,0,0,0,,,,,,,,,,,
2959629,1745078232912,0.0,186.27,,-0.09,-0.17,1.11,1,-0,1,1.13,1.15,98,11127,12.6,2.09,,7.7,1.057,88.0,,67.0,5,,,,,,,,,,,,0,0,0,0,0,0,0,0,0,0,0,0,0,0,0,0,,,,,0.0,,,,,,
2959649,1745078232932,,,,,,,,,,,,,,,,,,,,,,,,,,,,,,,,,,0,0,0,0,0,0,0,0,0,0,0,0,0,0,0,0,,,,,,,,,,,
2959669,1745078232952,0.0,186.15,,-0.1,-0.11,1.03,1,-0,1,1.04,1.15,91,11127,12.6,2.09,,7.26,1.073,88.0,,67.4,5,,,,,,,,,,,,0,0,0,0,0,0,0,0,0,0,0,0,0,0,0,0,,,,,0.0,,,,,,
2959689,1745078232972,,,,,,,,,,,,,,,,,,,,,,,0,0,0,0,0.0,0.0,0.0,0.0,2.26,,,0,0,0,0,0,0,0,0,0,0,0,0,0,0,0,0,0,,,,,39.239613,-77.964584,0.04,29,3,0.8
2959709,1745078232992,0.0,186.15,,-0.14,-0.15,1.11,1,-0,1,1.13,1.15,99,10919,12.5,2.0,,6.94,1.118,88.0,,67.4,5,,,,,,,,,,,,0,0,0,0,0,0,0,0,0,0,0,0,0,0,0,0,,,,,0.0,,,,,,
2959729,1745078233004,,,,,,,,,,,,,,,,,,,,,,,,,,,,,,,,,,0,0,0,0,0,0,0,0,0,0,0,0,0,0,0,0,,,,,,,,,,,
2959749,1745078233024,0.0,186.02,,-0.14,-0.3,1.07,1,-0,1,1.12,1.15,98,10666,12.3,2.02,,7.06,1.223,88.0,,67.4,5,,,,,,,,,,,,0,0,0,0,0,0,0,0,0,0,0,0,0,0,0,0,,,,,0.0,,,,,,
2959769,1745078233044,,,,,,,,,,,,,,,,,,,,,,,,,,,,,,,,,,0,0,0,0,0,0,0,0,0,0,0,0,0,0,0,0,,,,,,,,,,,
2959789,1745078233064,0.0,186.02,,-0.18,-0.28,1.11,2,-0,1,1.16,1.16,100,10414,11.4,1.9,,6.87,1.252,88.0,,68.5,5,0,0,0,0,0.0,0.0,0.0,0.0,2.25,,,0,0,0,0,0,0,0,0,0,0,0,0,0,0,0,0,0,,,,0.0,39.239613,-77.964584,0.04,29,3,0.8
2959809,1745078233084,,,,,,,,,,,,,,,,,,,,,,,,,,,,,,,,,,0,0,0,0,0,0,0,0,0,0,0,0,0,0,0,0,,,,,,,,,,,
2959829,1745078233111,0.0,186.02,,-0.16,-0.19,1.11,1,-0,0,1.14,1.16,98,10037,11.0,1.88,,6.87,1.252,88.0,,68.5,5,,,,,,,,,,,,0,0,0,0,0,0,0,0,0,0,0,0,0,0,0,0,,,,,0.0,,,,,,
2959849,1745078233131,,,,,,,,,,,,,,,,,,,,,,,,,,,,,,,,,,0,0,0,0,0,0,0,0,0,0,0,0,0,0,0,0,,,,,,,,,,,
2959869,1745078233151,0.0,186.02,,-0.16,-0.15,1.14,-0,0,1,1.16,1.16,100,10037,11.0,1.88,,6.7,1.252,88.0,,67.9,5,,,,,,,,,,,,0,0,0,0,0,0,0,0,0,0,0,0,0,0,0,0,,,,,0.0,,,,,,
2959889,1745078233171,,,,,,,,,,,,,,,,,,,,,,,0,0,0,0,0.0,0.0,0.0,0.0,2.26,,,0,0,0,0,0,0,0,0,0,0,0,0,0,0,0,0,0,,,,,39.239613,-77.964584,0.05,29,3,0.8
2959909,1745078233191,0.0,186.02,,-0.1,-0.01,1.09,1,-0,0,1.1,1.16,94,9702,10.8,1.93,,6.7,1.251,88.0,,67.9,5,,,,,,,,,,,,0,0,0,0,0,0,0,0,0,0,0,0,0,0,0,0,,,,,0.0,,,,,,
2959929,1745078233213,,,,,,,,,,,,,,,,,,,,,,,,,,,,,,,,,,0,0,0,0,0,0,0,0,0,0,0,0,0,0,0,0,,,,,,,,,,,
2959949,1745078233233,0.0,186.02,,-0.11,-0.06,1.08,-1,0,1,1.08,1.16,93,9253,10.8,1.98,,6.75,1.25,88.0,,67.9,5,,,,,,,,,,,,0,0,0,0,0,0,0,0,0,0,0,0,0,0,0,0,,,,,0.0,,,,,,
2959969,1745078233253,,,,,,,,,,,,,,,,,,,,,,,,,,,,,,,,,,0,0,0,0,0,0,0,0,0,0,0,0,0,0,0,0,,,,,,,,,,,
2959989,1745078233273,0.0,186.02,,-0.12,0.01,1.04,-1,-0,1,1.05,1.16,90,8882,11.6,2.11,,6.94,1.25,88.0,,66.7,5,0,0,0,0,0.0,0.0,0.0,0.0,2.26,,,0,0,0,0,0,0,0,0,0,0,0,0,0,0,0,0,0,,,,0.0,39.239613,-77.964584,0.05,29,3,0.8
2960009,1745078233293,,,,,,,,,,,,,,,,,,,,,,,,,,,,,,,,,,0,0,0,0,0,0,0,0,0,0,0,0,0,0,0,0,,,,,,,,,,,
2960029,1745078233313,0.0,185.9,,-0.1,-0.11,1.04,-2,-0,1,1.05,1.16,90,8307,13.1,2.3,,6.94,1.25,88.0,,66.7,5,,,,,,,,,,,,0,0,0,0,0,0,0,0,0,0,0,0,0,0,0,0,,,,,0.0,,,,,,
2960049,1745078233333,,,,,,,,,,,,,,,,,,,,,,,,,,,,,,,,,,0,0,0,0,0,0,0,0,0,0,0,0,0,0,0,0,,,,,,,,,,,
2960069,1745078233353,0.0,185.9,,-0.12,-0.08,1.07,-1,-0,1,1.08,1.16,93,8307,13.1,2.3,,7.45,1.25,88.0,,62.9,5,,,,,,,,,,,,0,0,0,0,0,0,0,0,0,0,0,0,0,0,0,0,,,,,0.0,,,,,,
2960089,1745078233373,,,,,,,,,,,,,,,,,,,,,,,0,0,0,0,0.0,0.0,0.0,0.0,2.26,,,0,0,0,0,0,0,0,0,0,0,0,0,0,0,0,0,0,,,,,39.239613,-77.964584,0.07,29,3,0.8
2960109,1745078233393,0.0,185.77,,-0.11,-0.17,1.06,-3,0,1,1.08,1.16,93,7868,15.9,2.62,,8.27,1.25,88.0,,62.9,5,,,,,,,,,,,,0,0,0,0,0,0,0,0,0,0,0,0,0,0,0,0,,,,,0.0,,,,,,
2960129,1745078233413,,,,,,,,,,,,,,,,,,,,,,,,,,,,,,,,,,0,0,0,0,0,0,0,0,0,0,0,0,0,0,0,0,,,,,,,,,,,
2960149,1745078233433,0.0,185.77,,-0.11,-0.28,1.09,-2,-0,1,1.13,1.16,97,7754,19.2,3.39,,9.29,1.249,88.0,,62.9,5,,,,,,,,,,,,0,0,0,0,0,0,0,0,0,0,0,0,0,0,0,0,,,,,0.0,,,,,,
2960169,1745078233453,,,,,,,,,,,,,,,,,,,,,,,,,,,,,,,,,,0,0,0,0,0,0,0,0,0,0,0,0,0,0,0,0,,,,,,,,,,,
2960189,1745078233473,0.0,185.77,,-0.1,-0.1,1.01,-2,-0,1,1.02,1.16,88,7905,24.6,3.59,,10.4,1.25,88.0,,62.9,5,0,0,0,0,0.0,0.0,0.0,0.0,2.26,,,0,0,0,0,0,0,0,0,0,0,0,0,0,0,0,0,0,,,,0.0,39.239613,-77.964584,0.0,29,3,0.8
2960209,1745078233493,,,,,,,,,,,,,,,,,,,,,,,,,,,,,,,,,,0,0,0,0,0,0,0,0,0,0,0,0,0,0,0,0,,,,,,,,,,,
2960229,1745078233513,0.0,185.77,,-0.1,-0.13,1.0,-1,-0,1,1.02,1.16,88,8345,28.7,4.43,,10.4,1.25,88.0,,62.9,5,,,,,,,,,,,,0,0,0,0,0,0,0,0,0,0,0,0,0,0,0,0,,,,,0.0,,,,,,
2960249,1745078233533,,,,,,,,,,,,,,,,,,,,,,,,,,,,,,,,,,0,0,0,0,0,0,0,0,0,0,0,0,0,0,0,0,,,,,,,,,,,
2960269,1745078233553,0.0,185.77,,-0.09,-0.0,0.98,-2,-0,1,0.98,1.16,85,8345,28.7,4.43,,11.28,1.251,88.0,,65.4,5,,,,,,,,,,,,0,0,0,0,0,0,0,0,0,0,0,0,0,0,0,0,,,,,0.0,,,,,,
2960289,1745078233573,,,,,,,,,,,,,,,,,,,,,,,0,0,0,0,0.0,0.0,0.0,0.0,2.26,,,0,0,0,0,0,0,0,0,0,0,0,0,0,0,0,0,0,,,,,39.239613,-77.964584,0.08,29,3,0.8
2960309,1745078233593,0.0,185.52,,-0.11,-0.15,0.93,-1,-0,0,0.95,1.16,81,9443,29.4,4.62,,11.09,1.159,88.0,,65.4,5,,,,,,,,,,,,0,0,0,0,0,0,0,0,0,0,0,0,0,0,0,0,,,,,0.0,,,,,,
2960329,1745078233615,,,,,,,,,,,,,,,,,,,,,,,,,,,,,,,,,,0,0,0,0,0,0,0,0,0,0,0,0,0,0,0,0,,,,,,,,,,,
2960349,1745078233635,0.0,185.52,,-0.05,-0.08,0.99,-1,-0,1,0.99,1.16,85,10598,29.2,4.21,,10.57,1.049,88.0,,65.4,5,,,,,,,,,,,,0,0,0,0,0,0,0,0,0,0,0,0,0,0,0,0,,,,,0.0,,,,,,
2960369,1745078233655,,,,,,,,,,,,,,,,,,,,,,,,,,,,,,,,,,0,0,0,0,0,0,0,0,0,0,0,0,0,0,0,0,,,,,,,,,,,
2960389,1745078233675,0.0,185.39,13.04,-0.05,-0.12,0.97,-0,-0,1,0.98,1.16,84,11651,18.0,3.13,15,9.66,0.972,88.0,164,65.8,5,0,0,0,0,0.0,0.0,0.0,0.0,2.26,0,0.0,0,0,0,0,0,0,0,0,0,0,0,0,0,0,0,0,0,0.0,0,0,0.0,39.239613,-77.964584,0.07,29,3,0.8
2960409,1745078233695,,,,,,,,,,,,,,,,,,,,,,,,,,,,,,,,,,0,0,0,0,0,0,0,0,0,0,0,0,0,0,0,0,,,,,,,,,,,
2960429,1745078233715,0.0,185.39,,0.0,-0.13,0.88,0,-0,0,0.89,1.16,77,12195,11.2,2.38,,9.66,0.972,88.0,,65.8,5,,,,,,,,,,,,0,0,0,0,0,0,0,0,0,0,0,0,0,0,0,0,,,,,0.0,,,,,,
2960449,1745078233735,,,,,,,,,,,,,,,,,,,,,,,,,,,,,,,,,,0,0,0,0,0,0,0,0,0,0,0,0,0,0,0,0,,,,,,,,,,,
2960469,1745078233755,0.0,185.39,,-0.0,-0.17,0.95,1,-0,-0,0.96,1.16,83,12195,11.2,2.38,,7.94,0.955,88.0,,66.4,5,,,,,,,,,,,,0,0,0,0,0,0,0,0,0,0,0,0,0,0,0,0,,,,,0.0,,,,,,
2960489,1745078233775,,,,,,,,,,,,,,,,,,,,,,,0,0,0,0,0.0,0.0,0.0,0.0,2.26,,,0,0,0,0,0,0,0,0,0,0,0,0,0,0,0,0,0,,,,,39.239613,-77.964584,0.04,29,3,0.8
2960509,1745078233795,0.0,185.39,,0.05,-0.16,0.96,1,-0,-0,0.98,1.16,84,12241,7.5,1.99,,6.78,0.994,88.0,,66.4,5,,,,,,,,,,,,0,0,0,0,0,0,0,0,0,0,0,0,0,0,0,0,,,,,0.0,,,,,,
2960529,1745078233813,,,,,,,,,,,,,,,,,,,,,,,,,,,,,,,,,,0,0,0,0,0,0,0,0,0,0,0,0,0,0,0,0,,,,,,,,,,,
2960549,1745078233833,0.0,185.39,,0.06,-0.15,0.9,1,-0,1,0.91,1.16,78,12109,6.2,1.7,,6.11,1.029,88.0,,66.4,5,,,,,,,,,,,,0,0,0,0,0,0,0,0,0,0,0,0,0,0,0,0,,,,,0.0,,,,,,
2960569,1745078233853,,,,,,,,,,,,,,,,,,,,,,,,,,,,,,,,,,0,0,0,0,0,0,0,0,0,0,0,0,0,0,0,0,,,,,,,,,,,
2960589,1745078233873,0.0,185.39,,0.1,-0.06,0.88,1,-0,1,0.89,1.16,77,11755,5.4,1.53,,5.68,1.06,88.0,,66.4,5,0,0,0,0,0.0,0.0,0.0,0.0,2.27,,,0,0,0,0,0,0,0,0,0,0,0,0,0,0,0,0,0,,,,0.0,39.239613,-77.964584,0.04,29,3,0.8
2960609,1745078233893,,,,,,,,,,,,,,,,,,,,,,,,,,,,,,,,,,0,0,0,0,0,0,0,0,0,0,0,0,0,0,0,0,,,,,,,,,,,
2960629,1745078233915,0.0,185.39,,0.07,-0.04,0.87,1,-0,0,0.87,1.16,75,11185,5.2,1.41,,5.68,1.06,88.0,,66.4,5,,,,,,,,,,,,0,0,0,0,0,0,0,0,0,0,0,0,0,0,0,0,,,,,0.0,,,,,,
2960649,1745078233935,,,,,,,,,,,,,,,,,,,,,,,,,,,,,,,,,,0,0,0,0,0,0,0,0,0,0,0,0,0,0,0,0,,,,,,,,,,,
2960669,1745078233955,0.0,185.39,,0.09,0.03,0.86,1,-0,1,0.87,1.16,74,11185,5.2,1.41,,5.44,1.118,88.0,,66.3,5,,,,,,,,,,,,0,0,0,0,0,0,0,0,0,0,0,0,0,0,0,0,,,,,0.0,,,,,,
2960689,1745078233975,,,,,,,,,,,,,,,,,,,,,,,0,0,0,0,0.0,0.0,0.0,0.0,2.26,,,0,0,0,0,0,0,0,0,0,0,0,0,0,0,0,0,0,,,,,39.239613,-77.964584,0.0,29,3,0.8
2960709,1745078233995,0.0,185.39,,0.1,0.17,0.9,0,-0,1,0.92,1.16,79,10588,5.2,1.4,,5.42,1.241,88.0,,66.3,5,,,,,,,,,,,,0,0,0,0,0,0,0,0,0,0,0,0,0,0,0,0,,,,,0.0,,,,,,
2960729,1745078234005,,,,,,,,,,,,,,,,,,,,,,,,,,,,,,,,,,0,0,0,0,0,0,0,0,0,0,0,0,0,0,0,0,,,,,,,,,,,
2960749,1745078234025,0.0,185.39,,0.09,0.21,0.95,-1,-0,1,0.98,1.16,84,9995,5.2,1.4,,5.6,1.252,88.0,,66.3,5,,,,,,,,,,,,0,0,0,0,0,0,0,0,0,0,0,0,0,0,0,0,,,,,0.0,,,,,,
2960769,1745078234045,,,,,,,,,,,,,,,,,,,,,,,,,,,,,,,,,,0,0,0,0,0,0,0,0,0,0,0,0,0,0,0,0,,,,,,,,,,,
2960789,1745078234065,0.0,185.39,,0.07,0.16,0.94,1,-0,1,0.96,1.16,82,9357,5.4,1.45,,5.63,1.252,88.0,,66.9,5,0,0,0,0,0.0,0.0,0.0,0.0,2.26,,,0,0,0,0,0,0,0,0,0,0,0,0,0,0,0,0,0,,,,0.0,39.239613,-77.964584,0.04,29,3,0.8
2960809,1745078234085,,,,,,,,,,,,,,,,,,,,,,,,,,,,,,,,,,0,0,0,0,0,0,0,0,0,0,0,0,0,0,0,0,,,,,,,,,,,
2960829,1745078234113,0.0,185.52,,0.03,0.07,0.97,2,-0,0,0.97,1.16,83,8690,8.9,1.77,,5.63,1.252,88.0,,66.9,5,,,,,,,,,,,,0,0,0,0,0,0,0,0,0,0,0,0,0,0,0,0,,,,,0.0,,,,,,
2960849,1745078234133,,,,,,,,,,,,,,,,,,,,,,,,,,,,,,,,,,0,0,0,0,0,0,0,0,0,0,0,0,0,0,0,0,,,,,,,,,,,
2960869,1745078234153,0.0,185.39,,0.0,0.13,0.97,3,-0,-0,0.98,1.16,85,8690,8.9,1.77,,5.96,1.252,88.0,,62.6,5,,,,,,,,,,,,0,0,0,0,0,0,0,0,0,0,0,0,0,0,0,0,,,,,0.0,,,,,,
2960889,1745078234173,,,,,,,,,,,,,,,,,,,,,,,0,0,0,0,0.0,0.0,0.0,0.0,2.26,,,0,0,0,0,0,0,0,0,0,0,0,0,0,0,0,0,0,,,,,39.239613,-77.964584,0.06,29,3,0.8
2960909,1745078234193,0.0,185.39,,0.0,0.05,0.95,2,-0,-0,0.96,1.16,82,8152,13.1,2.11,,6.78,1.251,88.0,,62.6,5,,,,,,,,,,,,0,0,0,0,0,0,0,0,0,0,0,0,0,0,0,0,,,,,0.0,,,,,,
2960929,1745078234212,,,,,,,,,,,,,,,,,,,,,,,,,,,,,,,,,,0,0,0,0,0,0,0,0,0,0,0,0,0,0,0,0,,,,,,,,,,,
2960949,1745078234232,0.0,185.52,,0.01,0.01,0.99,4,-0,-1,0.99,1.16,85,7735,15.2,2.45,,7.83,1.25,88.0,,62.6,5,,,,,,,,,,,,0,0,0,0,0,0,0,0,0,0,0,0,0,0,0,0,,,,,0.0,,,,,,
2960969,1745078234252,,,,,,,,,,,,,,,,,,,,,,,,,,,,,,,,,,0,0,0,0,0,0,0,0,0,0,0,0,0,0,0,0,,,,,,,,,,,
2960989,1745078234272,0.0,185.39,,0.01,0.05,1.0,5,-0,-1,1.0,1.16,86,7463,19.4,3.17,,9.14,1.25,88.0,,61.0,5,0,0,0,0,0.0,0.0,0.0,0.0,2.26,,,0,0,0,0,0,0,0,0,0,0,0,0,0,0,0,0,0,,,,0.0,39.239613,-77.964584,0.04,29,3,0.8
2961009,1745078234292,,,,,,,,,,,,,,,,,,,,,,,,,,,,,,,,,,0,0,0,0,0,0,0,0,0,0,0,0,0,0,0,0,,,,,,,,,,,
2961029,1745078234312,0.0,185.39,,-0.01,-0.11,1.02,6,-0,-1,1.03,1.16,88,7537,24.8,3.68,,9.14,1.25,88.0,,61.0,5,,,,,,,,,,,,0,0,0,0,0,0,0,0,0,0,0,0,0,0,0,0,,,,,0.0,,,,,,
2961049,1745078234332,,,,,,,,,,,,,,,,,,,,,,,,,,,,,,,,,,0,0,0,0,0,0,0,0,0,0,0,0,0,0,0,0,,,,,,,,,,,
2961069,1745078234352,0.0,185.39,,-0.03,0.02,0.98,5,-0,-1,0.98,1.16,84,7537,24.8,3.68,,10.3,1.25,88.0,,62.4,5,,,,,,,,,,,,0,0,0,0,0,0,0,0,0,0,0,0,0,0,0,0,,,,,0.0,,,,,,
2961089,1745078234372,,,,,,,,,,,,,,,,,,,,,,,0,0,0,0,0.0,0.0,0.0,0.0,2.26,,,0,0,0,0,0,0,0,0,0,0,0,0,0,0,0,0,0,,,,,39.239613,-77.964584,0.04,29,3,0.8
2961109,1745078234392,0.0,185.27,,-0.03,0.12,0.98,4,-0,-0,0.98,1.16,85,7914,27.2,4.94,,11.25,1.25,88.0,,62.4,5,,,,,,,,,,,,0,0,0,0,0,0,0,0,0,0,0,0,0,0,0,0,,,,,0.0,,,,,,
2961129,1745078234414,,,,,,,,,,,,,,,,,,,,,,,,,,,,,,,,,,0,0,0,0,0,0,0,0,0,0,0,0,0,0,0,0,,,,,,,,,,,
2961149,1745078234434,0.0,185.39,,0.01,0.23,0.96,3,-0,-0,0.99,1.16,85,8856,25.8,4.64,,11.1,1.175,88.0,,62.4,5,,,,,,,,,,,,0,0,0,0,0,0,0,0,0,0,0,0,0,0,0,0,,,,,0.0,,,,,,
2961169,1745078234454,,,,,,,,,,,,,,,,,,,,,,,,,,,,,,,,,,0,0,0,0,0,0,0,0,0,0,0,0,0,0,0,0,,,,,,,,,,,
2961189,1745078234474,0.0,185.27,,-0.05,0.12,1.06,2,-0,-0,1.07,1.16,92,10107,10.7,3.15,,9.45,0.994,88.0,,68.6,5,0,0,0,0,0.0,0.0,0.0,0.0,2.26,,,0,0,0,0,0,0,0,0,0,0,0,0,0,0,0,0,0,,,,0.0,39.239613,-77.964584,0.11,29,3,0.8
2961209,1745078234494,,,,,,,,,,,,,,,,,,,,,,,,,,,,,,,,,,0,0,0,0,0,0,0,0,0,0,0,0,0,0,0,0,,,,,,,,,,,
2961229,1745078234514,0.0,185.27,,-0.04,0.01,1.07,3,-0,-0,1.07,1.16,92,10693,4.1,2.0,,9.45,0.994,88.0,,68.6,5,,,,,,,,,,,,0,0,0,0,0,0,0,0,0,0,0,0,0,0,0,0,,,,,0.0,,,,,,
2961249,1745078234534,,,,,,,,,,,,,,,,,,,,,,,,,,,,,,,,,,0,0,0,0,0,0,0,0,0,0,0,0,0,0,0,0,,,,,,,,,,,
2961269,1745078234554,0.0,185.27,,-0.06,-0.03,1.05,2,-0,-0,1.05,1.16,90,10693,4.1,2.0,,7.67,0.94,88.0,,65.0,5,,,,,,,,,,,,0,0,0,0,0,0,0,0,0,0,0,0,0,0,0,0,,,,,0.0,,,,,,
2961289,1745078234574,,,,,,,,,,,,,,,,,,,,,,,0,0,0,0,0.0,0.0,0.0,0.0,2.26,,,0,0,0,0,0,0,0,0,0,0,0,0,0,0,0,0,0,,,,,39.239613,-77.964584,0.08,29,3,0.8
2961309,1745078234594,0.0,185.27,,-0.08,-0.08,1.02,3,-0,-0,1.03,1.16,88,10550,1.9,1.4,,6.46,0.983,88.0,,65.0,5,,,,,,,,,,,,0,0,0,0,0,0,0,0,0,0,0,0,0,0,0,0,,,,,0.0,,,,,,
2961329,1745078234614,,,,,,,,,,,,,,,,,,,,,,,,,,,,,,,,,,0,0,0,0,0,0,0,0,0,0,0,0,0,0,0,0,,,,,,,,,,,
2961349,1745078234634,0.0,185.27,,-0.09,0.02,1.07,3,-0,-0,1.07,1.16,92,9957,1.6,1.4,,5.86,1.068,88.0,,65.0,5,,,,,,,,,,,,0,0,0,0,0,0,0,0,0,0,0,0,0,0,0,0,,,,,0.0,,,,,,
2961369,1745078234654,,,,,,,,,,,,,,,,,,,,,,,,,,,,,,,,,,0,0,0,0,0,0,0,0,0,0,0,0,0,0,0,0,,,,,,,,,,,
2961389,1745078234674,0.0,185.27,13.19,-0.11,-0.01,1.01,2,-0,0,1.02,1.16,87,9369,1.7,1.4,15,5.56,1.25,88.0,164,65.0,5,0,0,0,0,0.0,0.0,0.0,0.0,2.26,0,0.0,0,0,0,0,0,0,0,0,0,0,0,0,0,0,0,0,0,0.0,0,0,0.0,39.239613,-77.964584,0.05,29,3,0.8
2961409,1745078234694,,,,,,,,,,,,,,,,,,,,,,,,,,,,,,,,,,0,0,0,0,0,0,0,0,0,0,0,0,0,0,0,0,,,,,,,,,,,
2961429,1745078234715,0.0,185.39,,-0.14,0.08,0.96,1,-0,0,0.97,1.16,83,8736,1.9,1.4,,5.56,1.25,88.0,,65.0,5,,,,,,,,,,,,0,0,0,0,0,0,0,0,0,0,0,0,0,0,0,0,,,,,0.0,,,,,,
2961449,1745078234735,,,,,,,,,,,,,,,,,,,,,,,,,,,,,,,,,,0,0,0,0,0,0,0,0,0,0,0,0,0,0,0,0,,,,,,,,,,,
2961469,1745078234755,0.0,185.27,,-0.13,-0.01,0.95,1,-0,0,0.96,1.16,83,8736,1.9,1.4,,5.46,1.25,88.0,,63.9,5,,,,,,,,,,,,0,0,0,0,0,0,0,0,0,0,0,0,0,0,0,0,,,,,0.0,,,,,,
2961489,1745078234775,,,,,,,,,,,,,,,,,,,,,,,0,0,0,0,0.0,0.0,0.0,0.0,2.26,,,0,0,0,0,0,0,0,0,0,0,0,0,0,0,0,0,0,,,,,39.239613,-77.964584,0.09,29,3,0.8
2961509,1745078234795,0.0,185.27,,-0.13,0.14,0.96,2,-0,-0,0.98,1.16,84,8171,6.2,1.69,,5.82,1.25,88.0,,63.9,5,,,,,,,,,,,,0,0,0,0,0,0,0,0,0,0,0,0,0,0,0,0,,,,,0.0,,,,,,
2961529,1745078234814,,,,,,,,,,,,,,,,,,,,,,,,,,,,,,,,,,0,0,0,0,0,0,0,0,0,0,0,0,0,0,0,0,,,,,,,,,,,
2961549,1745078234834,0.0,185.27,,-0.11,0.18,0.92,0,-0,0,0.95,1.16,81,7689,14.3,2.13,,6.99,1.25,88.0,,63.9,5,,,,,,,,,,,,0,0,0,0,0,0,0,0,0,0,0,0,0,0,0,0,,,,,0.0,,,,,,
2961569,1745078234854,,,,,,,,,,,,,,,,,,,,,,,,,,,,,,,,,,0,0,0,0,0,0,0,0,0,0,0,0,0,0,0,0,,,,,,,,,,,
2961589,1745078234874,0.0,185.14,,-0.1,0.34,0.96,-0,-0,1,1.03,1.16,88,7362,17.3,2.88,,8.59,1.25,88.0,,59.7,5,0,0,0,0,0.0,0.0,0.0,0.0,2.26,,,0,0,0,0,0,0,0,0,0,0,0,0,0,0,0,0,0,,,,0.0,39.239613,-77.964584,0.12,29,3,0.8
2961609,1745078234894,,,,,,,,,,,,,,,,,,,,,,,,,,,,,,,,,,0,0,0,0,0,0,0,0,0,0,0,0,0,0,0,0,,,,,,,,,,,
2961629,1745078234914,0.0,185.27,,-0.08,0.3,0.98,2,-0,0,1.03,1.16,88,7348,17.7,3.48,,8.59,1.25,88.0,,59.7,5,,,,,,,,,,,,0,0,0,0,0,0,0,0,0,0,0,0,0,0,0,0,,,,,0.0,,,,,,
2961649,1745078234934,,,,,,,,,,,,,,,,,,,,,,,,,,,,,,,,,,0,0,0,0,0,0,0,0,0,0,0,0,0,0,0,0,,,,,,,,,,,
2961669,1745078234954,0.0,185.27,,-0.09,0.12,1.0,3,-0,-0,1.01,1.16,87,7348,17.7,3.48,,9.44,1.25,88.0,,60.2,5,,,,,,,,,,,,0,0,0,0,0,0,0,0,0,0,0,0,0,0,0,0,,,,,0.0,,,,,,
2961689,1745078234974,,,,,,,,,,,,,,,,,,,,,,,0,0,0,0,0.0,0.0,0.0,0.0,2.26,,,0,0,0,0,0,0,0,0,0,0,0,0,0,0,0,0,0,,,,,39.239613,-77.964584,0.04,29,3,0.8
2961709,1745078234994,0.0,185.14,,-0.11,0.18,0.99,3,-0,-0,1.01,1.16,87,7584,15.9,3.39,,9.96,1.252,88.0,,60.2,5,,,,,,,,,,,,0,0,0,0,0,0,0,0,0,0,0,0,0,0,0,0,,,,,0.0,,,,,,
2961729,1745078235006,,,,,,,,,,,,,,,,,,,,,,,,,,,,,,,,,,0,0,0,0,0,0,0,0,0,0,0,0,0,0,0,0,,,,,,,,,,,
2961749,1745078235026,0.0,185.14,,-0.11,0.17,0.99,2,-0,-0,1.01,1.16,87,7985,8.2,3.12,,9.38,1.154,88.0,,60.2,5,,,,,,,,,,,,0,0,0,0,0,0,0,0,0,0,0,0,0,0,0,0,,,,,0.0,,,,,,
2961769,1745078235046,,,,,,,,,,,,,,,,,,,,,,,,,,,,,,,,,,0,0,0,0,0,0,0,0,0,0,0,0,0,0,0,0,,,,,,,,,,,
2961789,1745078235066,0.0,185.27,,-0.12,0.16,0.94,1,-0,0,0.96,1.16,83,8428,5.4,2.5,,8.49,1.059,88.0,,64.6,5,0,0,0,0,0.0,0.0,0.0,0.0,2.26,,,0,0,0,0,0,0,0,0,0,0,0,0,0,0,0,0,0,,,,0.0,39.239613,-77.964584,0.34,29,3,0.8
2961809,1745078235086,,,,,,,,,,,,,,,,,,,,,,,,,,,,,,,,,,0,0,0,0,0,0,0,0,0,0,0,0,0,0,0,0,,,,,,,,,,,
2961829,1745078235112,0.0,185.14,,-0.1,0.07,1.0,1,-0,0,1.01,1.16,87,8667,5.1,2.14,,8.49,1.059,88.0,,64.6,5,,,,,,,,,,,,0,0,0,0,0,0,0,0,0,0,0,0,0,0,0,0,,,,,0.0,,,,,,
2961849,1745078235132,,,,,,,,,,,,,,,,,,,,,,,,,,,,,,,,,,0,0,0,0,0,0,0,0,0,0,0,0,0,0,0,0,,,,,,,,,,,
2961869,1745078235152,0.0,185.27,,-0.12,0.15,0.96,1,-0,0,0.98,1.16,84,8667,5.1,2.14,,7.62,1.017,88.0,,64.7,5,,,,,,,,,,,,0,0,0,0,0,0,0,0,0,0,0,0,0,0,0,0,,,,,0.0,,,,,,
2961889,1745078235172,,,,,,,,,,,,,,,,,,,,,,,0,0,0,0,0.0,0.0,0.0,0.0,2.26,,,0,0,0,0,0,0,0,0,0,0,0,0,0,0,0,0,0,,,,,39.239613,-77.964584,0.31,29,3,0.8
2961909,1745078235192,0.0,185.14,,-0.1,0.05,0.97,0,-0,1,0.98,1.16,84,8566,5.1,2.01,,7.12,1.025,88.0,,64.7,5,,,,,,,,,,,,0,0,0,0,0,0,0,0,0,0,0,0,0,0,0,0,,,,,0.0,,,,,,
2961929,1745078235213,,,,,,,,,,,,,,,,,,,,,,,,,,,,,,,,,,0,0,0,0,0,0,0,0,0,0,0,0,0,0,0,0,,,,,,,,,,,
2961949,1745078235233,0.0,185.02,,-0.09,0.0,0.99,0,-0,1,0.99,1.16,85,8389,5.1,1.93,,6.84,1.096,88.0,,64.7,5,,,,,,,,,,,,0,0,0,0,0,0,0,0,0,0,0,0,0,0,0,0,,,,,0.0,,,,,,
2961969,1745078235253,,,,,,,,,,,,,,,,,,,,,,,,,,,,,,,,,,0,0,0,0,0,0,0,0,0,0,0,0,0,0,0,0,,,,,,,,,,,
2961989,1745078235273,0.0,185.02,,-0.09,0.08,0.96,0,-0,1,0.97,1.16,83,8135,6.2,2.02,,6.88,1.191,88.0,,62.9,5,0,0,0,0,0.0,0.0,0.0,0.0,2.26,,,0,0,0,0,0,0,0,0,0,0,0,0,0,0,0,0,0,,,,0.0,39.239613,-77.964584,0.07,29,3,0.8
2962009,1745078235293,,,,,,,,,,,,,,,,,,,,,,,,,,,,,,,,,,0,0,0,0,0,0,0,0,0,0,0,0,0,0,0,0,,,,,,,,,,,
2962029,1745078235311,0.0,184.89,,-0.08,-0.07,0.98,2,-0,0,0.99,1.16,85,7843,7.1,2.22,,6.88,1.191,88.0,,62.9,5,,,,,,,,,,,,0,0,0,0,0,0,0,0,0,0,0,0,0,0,0,0,,,,,0.0,,,,,,
2962049,1745078235331,,,,,,,,,,,,,,,,,,,,,,,,,,,,,,,,,,0,0,0,0,0,0,0,0,0,0,0,0,0,0,0,0,,,,,,,,,,,
2962069,1745078235351,0.0,184.77,,-0.08,-0.04,0.99,1,-0,0,0.99,1.16,85,7843,7.1,2.22,,7.1,1.25,88.0,,61.3,5,,,,,,,,,,,,0,0,0,0,0,0,0,0,0,0,0,0,0,0,0,0,,,,,0.0,,,,,,
2962089,1745078235371,,,,,,,,,,,,,,,,,,,,,,,0,0,0,0,0.0,0.0,0.0,0.0,2.27,,,0,0,0,0,0,0,0,0,0,0,0,0,0,0,0,0,0,,,,,39.239613,-77.964584,0.0,29,3,0.8
2962109,1745078235391,0.0,184.77,,-0.08,-0.0,0.96,0,-0,1,0.97,1.16,83,7751,7.3,2.35,,7.33,1.25,88.0,,61.3,5,,,,,,,,,,,,0,0,0,0,0,0,0,0,0,0,0,0,0,0,0,0,,,,,0.0,,,,,,
2962129,1745078235413,,,,,,,,,,,,,,,,,,,,,,,,,,,,,,,,,,0,0,0,0,0,0,0,0,0,0,0,0,0,0,0,0,,,,,,,,,,,
2962149,1745078235433,0.0,184.77,,-0.08,-0.1,0.97,1,-0,0,0.98,1.16,84,7718,7.5,2.39,,7.54,1.251,88.0,,61.3,5,,,,,,,,,,,,0,0,0,0,0,0,0,0,0,0,0,0,0,0,0,0,,,,,0.0,,,,,,
2962169,1745078235453,,,,,,,,,,,,,,,,,,,,,,,,,,,,,,,,,,0,0,0,0,0,0,0,0,0,0,0,0,0,0,0,0,,,,,,,,,,,
2962189,1745078235473,0.0,184.77,,-0.07,-0.03,1.0,1,-0,0,1.01,1.16,86,7749,7.5,2.42,,7.74,1.168,88.0,,62.0,5,0,0,0,0,0.0,0.0,0.0,0.0,2.27,,,0,0,0,0,0,0,0,0,0,0,0,0,0,0,0,0,0,,,,0.0,39.239613,-77.964584,0.0,29,3,0.8
2962209,1745078235493,,,,,,,,,,,,,,,,,,,,,,,,,,,,,,,,,,0,0,0,0,0,0,0,0,0,0,0,0,0,0,0,0,,,,,,,,,,,
2962229,1745078235513,0.0,184.64,,-0.08,0.01,0.96,0,-0,0,0.96,1.16,83,7741,7.5,2.45,,7.74,1.168,88.0,,62.0,5,,,,,,,,,,,,0,0,0,0,0,0,0,0,0,0,0,0,0,0,0,0,,,,,0.0,,,,,,
2962249,1745078235533,,,,,,,,,,,,,,,,,,,,,,,,,,,,,,,,,,0,0,0,0,0,0,0,0,0,0,0,0,0,0,0,0,,,,,,,,,,,
2962269,1745078235553,0.0,184.64,,-0.07,-0.11,0.99,1,-0,0,1.0,1.16,85,7741,7.5,2.45,,7.75,1.115,88.0,,61.5,5,,,,,,,,,,,,0,0,0,0,0,0,0,0,0,0,0,0,0,0,0,0,,,,,0.0,,,,,,
2962289,1745078235573,,,,,,,,,,,,,,,,,,,,,,,0,0,0,0,0.0,0.0,0.0,0.0,2.26,,,0,0,0,0,0,0,0,0,0,0,0,0,0,0,0,0,0,,,,,39.239613,-77.964584,0.04,29,3,0.8
2962309,1745078235593,0.0,184.64,,-0.06,0.07,0.99,-1,-0,1,1.0,1.16,86,7765,7.5,2.46,,7.83,1.095,88.0,,61.5,5,,,,,,,,,,,,0,0,0,0,0,0,0,0,0,0,0,0,0,0,0,0,,,,,0.0,,,,,,
2962329,1745078235613,,,,,,,,,,,,,,,,,,,,,,,,,,,,,,,,,,0,0,0,0,0,0,0,0,0,0,0,0,0,0,0,0,,,,,,,,,,,
2962349,1745078235633,0.0,184.64,,-0.07,-0.03,0.96,0,-0,0,0.96,1.16,82,7842,7.6,2.47,,7.74,1.086,88.0,,61.5,5,,,,,,,,,,,,0,0,0,0,0,0,0,0,0,0,0,0,0,0,0,0,,,,,0.0,,,,,,
2962369,1745078235653,,,,,,,,,,,,,,,,,,,,,,,,,,,,,,,,,,0,0,0,0,0,0,0,0,0,0,0,0,0,0,0,0,,,,,,,,,,,
2962389,1745078235673,0.0,184.77,13.18,-0.07,0.01,0.97,1,-0,0,0.97,1.16,84,7875,7.6,2.5,15,7.75,1.083,88.0,164,61.6,5,0,0,0,0,0.0,0.0,0.0,0.0,2.26,0,0.0,0,0,0,0,0,0,0,0,0,0,0,0,0,0,0,0,0,0.0,0,-0,0.0,39.239609,-77.964584,0.11,29,3,0.8
2962409,1745078235693,,,,,,,,,,,,,,,,,,,,,,,,,,,,,,,,,,0,0,0,0,0,0,0,0,0,0,0,0,0,0,0,0,,,,,,,,,,,
2962429,1745078235713,0.0,184.77,,-0.05,-0.12,0.98,1,-0,-0,0.99,1.16,85,7908,7.5,2.47,,7.75,1.083,88.0,,61.6,5,,,,,,,,,,,,0,0,0,0,0,0,0,0,0,0,0,0,0,0,0,0,,,,,0.0,,,,,,
2962449,1745078235733,,,,,,,,,,,,,,,,,,,,,,,,,,,,,,,,,,0,0,0,0,0,0,0,0,0,0,0,0,0,0,0,0,,,,,,,,,,,
2962469,1745078235753,0.0,184.77,,-0.07,-0.11,0.99,1,-0,0,1.0,1.16,85,7908,7.5,2.47,,7.63,1.079,88.0,,63.3,5,,,,,,,,,,,,0,0,0,0,0,0,0,0,0,0,0,0,0,0,0,0,,,,,0.0,,,,,,
2962489,1745078235773,,,,,,,,,,,,,,,,,,,,,,,0,0,0,0,0.0,0.0,0.0,0.0,2.26,,,0,0,0,0,0,0,0,0,0,0,0,0,0,0,0,0,0,,,,,39.239609,-77.964584,0.11,29,3,0.8
2962509,1745078235793,0.0,184.51,,-0.08,-0.27,0.99,2,-0,-0,1.03,1.16,89,7966,7.4,2.47,,7.74,1.075,88.0,,63.3,5,,,,,,,,,,,,0,0,0,0,0,0,0,0,0,0,0,0,0,0,0,0,,,,,0.0,,,,,,
2962529,1745078235813,,,,,,,,,,,,,,,,,,,,,,,,,,,,,,,,,,0,0,0,0,0,0,0,0,0,0,0,0,0,0,0,0,,,,,,,,,,,
2962549,1745078235833,0.0,184.51,,-0.08,-0.28,0.97,1,-0,-0,1.01,1.16,87,7984,7.3,2.43,,7.7,1.073,88.0,,63.3,5,,,,,,,,,,,,0,0,0,0,0,0,0,0,0,0,0,0,0,0,0,0,,,,,0.0,,,,,,
2962569,1745078235853,,,,,,,,,,,,,,,,,,,,,,,,,,,,,,,,,,0,0,0,0,0,0,0,0,0,0,0,0,0,0,0,0,,,,,,,,,,,
2962589,1745078235873,0.0,184.51,,-0.1,-0.24,0.97,1,-0,0,1.0,1.16,86,8004,7.2,2.41,,7.65,1.072,88.0,,62.8,5,0,0,0,0,0.0,0.0,0.0,0.0,2.27,,,0,0,0,0,0,0,0,0,0,0,0,0,0,0,0,0,0,,,,0.0,39.239609,-77.964584,0.05,29,3,0.8
2962609,1745078235893,,,,,,,,,,,,,,,,,,,,,,,,,,,,,,,,,,0,0,0,0,0,0,0,0,0,0,0,0,0,0,0,0,,,,,,,,,,,
2962629,1745078235913,0.0,184.64,,-0.12,-0.36,0.98,2,-0,-0,1.06,1.16,91,8009,7.2,2.41,,7.65,1.072,88.0,,62.8,5,,,,,,,,,,,,0,0,0,0,0,0,0,0,0,0,0,0,0,0,0,0,,,,,0.0,,,,,,
2962649,1745078235933,,,,,,,,,,,,,,,,,,,,,,,,,,,,,,,,,,0,0,0,0,0,0,0,0,0,0,0,0,0,0,0,0,,,,,,,,,,,
2962669,1745078235953,0.0,184.51,,-0.11,-0.4,0.98,2,-0,-0,1.07,1.16,92,8009,7.2,2.41,,7.65,1.066,88.0,,63.5,5,,,,,,,,,,,,0,0,0,0,0,0,0,0,0,0,0,0,0,0,0,0,,,,,0.0,,,,,,
2962689,1745078235973,,,,,,,,,,,,,,,,,,,,,,,0,0,0,0,0.0,0.0,0.0,0.0,2.26,,,0,0,0,0,0,0,0,0,0,0,0,0,0,0,0,0,0,,,,,39.239609,-77.964584,0.05,29,3,0.8
2962709,1745078235993,0.0,184.51,,-0.1,-0.38,0.97,2,-0,-0,1.05,1.16,90,8063,7.1,2.4,,7.62,1.068,88.0,,63.5,5,,,,,,,,,,,,0,0,0,0,0,0,0,0,0,0,0,0,0,0,0,0,,,,,0.0,,,,,,
2962729,1745078236005,,,,,,,,,,,,,,,,,,,,,,,,,,,,,,,,,,0,0,0,0,0,0,0,0,0,0,0,0,0,0,0,0,,,,,,,,,,,
2962749,1745078236025,0.0,184.64,,-0.11,-0.34,0.96,2,-0,-0,1.02,1.16,88,8067,7.2,2.38,,7.59,1.067,88.0,,63.5,5,,,,,,,,,,,,0,0,0,0,0,0,0,0,0,0,0,0,0,0,0,0,,,,,0.0,,,,,,
2962769,1745078236045,,,,,,,,,,,,,,,,,,,,,,,,,,,,,,,,,,0,0,0,0,0,0,0,0,0,0,0,0,0,0,0,0,,,,,,,,,,,
2962789,1745078236065,0.0,184.64,,-0.1,-0.3,0.97,3,-0,-1,1.02,1.16,88,8128,7.2,2.36,,7.61,1.063,88.0,,64.0,5,0,0,0,0,0.0,0.0,0.0,0.0,2.26,,,0,0,0,0,0,0,0,0,0,0,0,0,0,0,0,0,0,,,,0.0,39.239609,-77.964584,0.0,29,3,0.8
2962809,1745078236085,,,,,,,,,,,,,,,,,,,,,,,,,,,,,,,,,,0,0,0,0,0,0,0,0,0,0,0,0,0,0,0,0,,,,,,,,,,,
2962829,1745078236111,0.0,184.77,,-0.1,-0.28,0.98,3,-0,-1,1.02,1.16,88,8189,7.3,2.36,,7.61,1.063,88.0,,64.0,5,,,,,,,,,,,,0,0,0,0,0,0,0,0,0,0,0,0,0,0,0,0,,,,,0.0,,,,,,
2962849,1745078236131,,,,,,,,,,,,,,,,,,,,,,,,,,,,,,,,,,0,0,0,0,0,0,0,0,0,0,0,0,0,0,0,0,,,,,,,,,,,
2962869,1745078236151,0.0,184.77,,-0.09,-0.24,1.0,2,-0,-0,1.03,1.16,88,8189,7.3,2.36,,7.57,1.064,88.0,,63.2,5,,,,,,,,,,,,0,0,0,0,0,0,0,0,0,0,0,0,0,0,0,0,,,,,0.0,,,,,,
2962889,1745078236171,,,,,,,,,,,,,,,,,,,,,,,0,0,0,0,0.0,0.0,0.0,0.0,2.26,,,0,0,0,0,0,0,0,0,0,0,0,0,0,0,0,0,0,,,,,39.239609,-77.964584,0.05,29,3,0.8
2962909,1745078236191,0.0,184.77,,-0.09,-0.24,1.01,1,-0,0,1.05,1.16,90,8190,7.3,2.32,,7.39,1.069,88.0,,63.2,5,,,,,,,,,,,,0,0,0,0,0,0,0,0,0,0,0,0,0,0,0,0,,,,,0.0,,,,,,
2962929,1745078236210,,,,,,,,,,,,,,,,,,,,,,,,,,,,,,,,,,0,0,0,0,0,0,0,0,0,0,0,0,0,0,0,0,,,,,,,,,,,
2962949,1745078236230,0.0,184.64,,-0.06,-0.28,1.02,0,-0,0,1.06,1.16,91,8169,7.2,2.33,,7.46,1.068,88.0,,63.2,5,,,,,,,,,,,,0,0,0,0,0,0,0,0,0,0,0,0,0,0,0,0,,,,,0.0,,,,,,
2962969,1745078236250,,,,,,,,,,,,,,,,,,,,,,,,,,,,,,,,,,0,0,0,0,0,0,0,0,0,0,0,0,0,0,0,0,,,,,,,,,,,
2962989,1745078236270,0.0,184.64,,-0.06,-0.24,0.99,0,-0,0,1.02,1.16,88,8122,7.2,2.32,,7.38,1.076,88.0,,62.7,5,0,0,0,0,0.0,0.0,0.0,0.0,2.27,,,0,0,0,0,0,0,0,0,0,0,0,0,0,0,0,0,0,,,,0.0,39.239609,-77.964584,0.04,29,3,0.8
2963009,1745078236290,,,,,,,,,,,,,,,,,,,,,,,,,,,,,,,,,,0,0,0,0,0,0,0,0,0,0,0,0,0,0,0,0,,,,,,,,,,,
2963029,1745078236314,0.0,184.77,,-0.08,-0.21,0.97,0,-0,0,0.99,1.16,85,8108,7.2,2.35,,7.38,1.076,88.0,,62.7,5,,,,,,,,,,,,0,0,0,0,0,0,0,0,0,0,0,0,0,0,0,0,,,,,0.0,,,,,,
2963049,1745078236334,,,,,,,,,,,,,,,,,,,,,,,,,,,,,,,,,,0,0,0,0,0,0,0,0,0,0,0,0,0,0,0,0,,,,,,,,,,,
2963069,1745078236354,0.0,184.64,,-0.07,-0.15,0.99,1,-0,-0,1.0,1.16,86,8108,7.2,2.35,,7.47,1.094,88.0,,62.1,5,,,,,,,,,,,,0,0,0,0,0,0,0,0,0,0,0,0,0,0,0,0,,,,,0.0,,,,,,
2963089,1745078236374,,,,,,,,,,,,,,,,,,,,,,,0,0,0,0,0.0,0.0,0.0,0.0,2.27,,,0,0,0,0,0,0,0,0,0,0,0,0,0,0,0,0,0,,,,,39.239609,-77.964584,0.05,29,3,0.8
2963109,1745078236394,0.0,184.64,,-0.08,-0.17,0.98,2,-0,-0,1.0,1.16,86,8112,7.3,2.35,,7.45,1.088,88.0,,62.1,5,,,,,,,,,,,,0,0,0,0,0,0,0,0,0,0,0,0,0,0,0,0,,,,,0.0,,,,,,
2963129,1745078236412,,,,,,,,,,,,,,,,,,,,,,,,,,,,,,,,,,0,0,0,0,0,0,0,0,0,0,0,0,0,0,0,0,,,,,,,,,,,
2963149,1745078236432,0.0,184.64,,-0.07,-0.08,0.94,1,-0,-0,0.94,1.16,81,7980,7.6,2.37,,7.49,1.087,88.0,,62.1,5,,,,,,,,,,,,0,0,0,0,0,0,0,0,0,0,0,0,0,0,0,0,,,,,0.0,,,,,,
2963169,1745078236452,,,,,,,,,,,,,,,,,,,,,,,,,,,,,,,,,,0,0,0,0,0,0,0,0,0,0,0,0,0,0,0,0,,,,,,,,,,,
2963189,1745078236472,0.0,184.64,,-0.07,0.01,0.98,2,-0,-1,0.98,1.16,84,8011,8.5,2.48,,7.74,1.116,88.0,,60.7,5,0,0,0,0,0.0,0.0,0.0,0.0,2.26,,,0,0,0,0,0,0,0,0,0,0,0,0,0,0,0,0,0,,,,0.0,39.239609,-77.964584,0.15,29,3,0.8
2963209,1745078236492,,,,,,,,,,,,,,,,,,,,,,,,,,,,,,,,,,0,0,0,0,0,0,0,0,0,0,0,0,0,0,0,0,,,,,,,,,,,
2963229,1745078236512,0.0,184.64,,-0.07,-0.01,0.98,2,-0,-0,0.98,1.16,84,8029,9.8,2.54,,7.74,1.116,88.0,,60.7,5,,,,,,,,,,,,0,0,0,0,0,0,0,0,0,0,0,0,0,0,0,0,,,,,0.0,,,,,,
2963249,1745078236532,,,,,,,,,,,,,,,,,,,,,,,,,,,,,,,,,,0,0,0,0,0,0,0,0,0,0,0,0,0,0,0,0,,,,,,,,,,,
2963269,1745078236552,0.0,184.64,,-0.04,-0.02,0.96,1,-0,-1,0.97,1.16,83,8029,9.8,2.54,,7.89,1.096,88.0,,63.5,5,,,,,,,,,,,,0,0,0,0,0,0,0,0,0,0,0,0,0,0,0,0,,,,,0.0,,,,,,
2963289,1745078236572,,,,,,,,,,,,,,,,,,,,,,,0,0,0,0,0.0,0.0,0.0,0.0,2.26,,,0,0,0,0,0,0,0,0,0,0,0,0,0,0,0,0,0,,,,,39.239609,-77.964584,0.08,29,3,0.8
2963309,1745078236592,0.0,184.64,,-0.04,0.07,0.96,1,-0,-0,0.96,1.16,83,8109,10.8,2.59,,8.19,1.075,88.0,,63.5,5,,,,,,,,,,,,0,0,0,0,0,0,0,0,0,0,0,0,0,0,0,0,,,,,0.0,,,,,,
2963329,1745078236612,,,,,,,,,,,,,,,,,,,,,,,,,,,,,,,,,,0,0,0,0,0,0,0,0,0,0,0,0,0,0,0,0,,,,,,,,,,,
2963349,1745078236632,0.0,184.64,,-0.05,0.01,0.96,0,-0,0,0.96,1.16,83,8207,11.3,2.62,,8.23,1.067,88.0,,63.5,5,,,,,,,,,,,,0,0,0,0,0,0,0,0,0,0,0,0,0,0,0,0,,,,,0.0,,,,,,
2963369,1745078236652,,,,,,,,,,,,,,,,,,,,,,,,,,,,,,,,,,0,0,0,0,0,0,0,0,0,0,0,0,0,0,0,0,,,,,,,,,,,
2963389,1745078236672,0.0,184.64,13.24,-0.07,-0.02,0.96,-0,-0,0,0.96,1.16,83,8267,12.7,2.71,15,8.49,1.069,88.0,164,62.4,5,0,0,0,0,0.0,0.0,0.0,0.0,2.26,0,0.0,0,0,0,0,0,0,0,0,0,0,0,0,0,0,0,0,0,0.0,0,-0,0.0,39.239609,-77.964584,0.04,29,3,0.8
2963409,1745078236692,,,,,,,,,,,,,,,,,,,,,,,,,,,,,,,,,,0,0,0,0,0,0,0,0,0,0,0,0,0,0,0,0,,,,,,,,,,,
2963429,1745078236714,0.0,184.64,,-0.05,-0.04,0.96,0,-0,0,0.96,1.16,83,8367,14.3,2.77,,8.49,1.069,88.0,,62.4,5,,,,,,,,,,,,0,0,0,0,0,0,0,0,0,0,0,0,0,0,0,0,,,,,0.0,,,,,,
2963449,1745078236734,,,,,,,,,,,,,,,,,,,,,,,,,,,,,,,,,,0,0,0,0,0,0,0,0,0,0,0,0,0,0,0,0,,,,,,,,,,,
2963469,1745078236754,0.0,184.77,,-0.06,0.04,0.98,-0,-0,0,0.98,1.16,84,8367,14.3,2.77,,8.71,1.066,88.0,,62.4,5,,,,,,,,,,,,0,0,0,0,0,0,0,0,0,0,0,0,0,0,0,0,,,,,0.0,,,,,,
2963489,1745078236774,,,,,,,,,,,,,,,,,,,,,,,0,0,0,0,0.0,0.0,0.0,0.0,2.26,,,0,0,0,0,0,0,0,0,0,0,0,0,0,0,0,0,0,,,,,39.239609,-77.964584,0.05,29,3,0.8
2963509,1745078236794,0.0,184.89,,-0.06,0.09,0.96,0,-0,0,0.97,1.16,83,8436,15.5,2.9,,9.05,1.07,88.0,,62.4,5,,,,,,,,,,,,0,0,0,0,0,0,0,0,0,0,0,0,0,0,0,0,,,,,0.0,,,,,,
2963529,1745078236812,,,,,,,,,,,,,,,,,,,,,,,,,,,,,,,,,,0,0,0,0,0,0,0,0,0,0,0,0,0,0,0,0,,,,,,,,,,,
2963549,1745078236832,0.0,184.77,,-0.01,0.11,0.97,0,-0,-0,0.97,1.16,84,8392,16.0,2.95,,9.22,1.079,88.0,,62.4,5,,,,,,,,,,,,0,0,0,0,0,0,0,0,0,0,0,0,0,0,0,0,,,,,0.0,,,,,,
2963569,1745078236852,,,,,,,,,,,,,,,,,,,,,,,,,,,,,,,,,,0,0,0,0,0,0,0,0,0,0,0,0,0,0,0,0,,,,,,,,,,,
2963589,1745078236872,0.0,184.64,,0.01,0.13,1.0,1,-0,-0,1.0,1.16,86,8090,16.3,3.12,,9.57,1.072,88.0,,59.7,5,0,0,0,0,0.0,0.0,0.0,0.0,2.26,,,0,0,0,0,0,0,0,0,0,0,0,0,0,0,0,0,0,,,,0.0,39.239609,-77.964584,0.07,29,3,0.8
2963609,1745078236892,,,,,,,,,,,,,,,,,,,,,,,,,,,,,,,,,,0,0,0,0,0,0,0,0,0,0,0,0,0,0,0,0,,,,,,,,,,,
2963629,1745078236912,0.0,184.77,,0.05,0.21,0.97,-1,0,0,1.0,1.16,86,7579,16.6,3.35,,9.57,1.072,88.0,,59.7,5,,,,,,,,,,,,0,0,0,0,0,0,0,0,0,0,0,0,0,0,0,0,,,,,0.0,,,,,,
2963649,1745078236932,,,,,,,,,,,,,,,,,,,,,,,,,,,,,,,,,,0,0,0,0,0,0,0,0,0,0,0,0,0,0,0,0,,,,,,,,,,,
2963669,1745078236952,0.0,184.77,,0.08,0.2,0.97,0,0,-0,0.99,1.16,85,7579,16.6,3.35,,9.86,1.064,88.0,,56.2,5,,,,,,,,,,,,0,0,0,0,0,0,0,0,0,0,0,0,0,0,0,0,,,,,0.0,,,,,,
2963689,1745078236972,,,,,,,,,,,,,,,,,,,,,,,0,0,0,0,0.0,0.0,0.0,0.0,2.26,,,0,0,0,0,0,0,0,0,0,0,0,0,0,0,0,0,0,,,,,39.239609,-77.964584,0.4,29,3,0.8
2963709,1745078236992,0.0,184.64,,0.16,0.14,1.05,0,0,-0,1.07,1.16,92,6681,16.6,3.58,,10.4,1.071,88.0,,56.2,5,,,,,,,,,,,,0,0,0,0,0,0,0,0,0,0,0,0,0,0,0,0,,,,,0.0,,,,,,
2963729,1745078237004,,,,,,,,,,,,,,,,,,,,,,,,,,,,,,,,,,0,0,0,0,0,0,0,0,0,0,0,0,0,0,0,0,,,,,,,,,,,
2963749,1745078237024,0.0,184.77,,0.16,0.07,1.02,-0,0,-0,1.04,1.16,89,5627,16.6,3.63,,11.32,1.072,88.0,,56.2,5,,,,,,,,,,,,0,0,0,0,0,0,0,0,0,0,0,0,0,0,0,0,,,,,0.0,,,,,,
2963769,1745078237044,,,,,,,,,,,,,,,,,,,,,,,,,,,,,,,,,,0,0,0,0,0,0,0,0,0,0,0,0,0,0,0,0,,,,,,,,,,,
2963789,1745078237064,0.0,184.64,,0.14,0.04,0.98,-0,-0,-0,0.99,1.16,85,4897,17.7,3.96,,12.27,1.102,88.0,,43.5,5,1,0,1,1,0.0,0.0,0.0,0.0,2.26,,,0,0,0,0,0,0,0,0,0,0,0,0,0,0,0,0,0,,,,0.0,39.239609,-77.964584,1.31,29,3,0.8
2963809,1745078237084,,,,,,,,,,,,,,,,,,,,,,,,,,,,,,,,,,0,0,0,0,0,0,0,0,0,0,0,0,0,0,0,0,,,,,,,,,,,
2963829,1745078237111,0.0,184.77,,0.16,-0.03,0.9,0,-0,-1,0.92,1.16,79,4529,35.3,5.0,,12.27,1.102,88.0,,43.5,5,,,,,,,,,,,,0,0,0,0,0,0,0,0,0,0,0,0,0,0,0,0,,,,,0.0,,,,,,
2963849,1745078237131,,,,,,,,,,,,,,,,,,,,,,,,,,,,,,,,,,0,0,0,0,0,0,0,0,0,0,0,0,0,0,0,0,,,,,,,,,,,
2963869,1745078237151,0.0,184.64,,0.15,-0.13,0.85,1,-0,-1,0.87,1.16,75,4529,35.3,5.0,,13.61,1.106,88.0,,35.3,5,,,,,,,,,,,,0,0,0,0,0,0,0,0,0,0,0,0,0,0,0,0,,,,,0.0,,,,,,
2963889,1745078237171,,,,,,,,,,,,,,,,,,,,,,,2,0,2,2,0.0,0.0,0.0,0.0,2.26,,,0,0,0,0,0,0,0,0,0,0,0,0,0,0,0,0,0,,,,,39.239609,-77.964584,2.84,29,3,0.8
2963909,1745078237191,0.0,184.64,,0.11,-0.18,0.82,1,-0,-1,0.84,1.16,72,4464,45.2,4.91,,14.04,1.043,88.0,,35.3,5,,,,,,,,,,,,0,0,0,0,0,0,0,0,0,0,0,0,0,0,0,0,,,,,0.0,,,,,,
2963929,1745078237213,,,,,,,,,,,,,,,,,,,,,,,,,,,,,,,,,,0,0,0,0,0,0,0,0,0,0,0,0,0,0,0,0,,,,,,,,,,,
2963949,1745078237233,0.0,184.51,,0.06,-0.24,0.76,1,-0,-1,0.8,1.16,68,4470,48.4,5.44,,14.12,1.034,88.0,,35.3,5,,,,,,,,,,,,0,0,0,0,0,0,0,0,0,0,0,0,0,0,0,0,,,,,0.0,,,,,,
2963969,1745078237253,,,,,,,,,,,,,,,,,,,,,,,,,,,,,,,,,,0,0,0,0,0,0,0,0,0,0,0,0,0,0,0,0,,,,,,,,,,,
2963989,1745078237273,0.0,184.39,,0.05,-0.18,0.8,1,-0,-1,0.82,1.16,71,4790,48.6,5.39,,14.15,1.147,88.0,,37.0,5,2,0,2,2,0.0,0.0,0.0,0.0,2.26,,,0,0,0,0,0,0,0,0,0,0,0,0,0,0,0,0,0,,,,0.0,39.239609,-77.964584,3.62,29,3,0.8
2964009,1745078237293,,,,,,,,,,,,,,,,,,,,,,,,,,,,,,,,,,0,0,0,0,0,0,0,0,0,0,0,0,0,0,0,0,,,,,,,,,,,
2964029,1745078237313,0.0,184.39,,0.03,-0.17,0.83,1,-0,-1,0.85,1.16,73,5307,48.7,5.17,,14.15,1.147,88.0,,37.0,5,,,,,,,,,,,,0,0,0,0,0,0,0,0,0,0,0,0,0,0,0,0,,,,,0.0,,,,,,
2964049,1745078237333,,,,,,,,,,,,,,,,,,,,,,,,,,,,,,,,,,0,0,0,0,0,0,0,0,0,0,0,0,0,0,0,0,,,,,,,,,,,
2964069,1745078237353,0.0,184.26,,-0.0,-0.2,0.8,1,-0,-1,0.82,1.16,71,5307,48.7,5.17,,13.98,1.223,88.0,,42.4,5,,,,,,,,,,,,0,0,0,0,0,0,0,0,0,0,0,0,0,0,0,0,,,,,0.0,,,,,,
2964089,1745078237373,,,,,,,,,,,,,,,,,,,,,,,2,0,2,2,0.0,0.0,0.0,0.0,2.26,,,0,0,0,0,0,0,0,0,0,0,0,0,0,0,0,0,0,,,,,39.239609,-77.964584,3.46,29,3,0.8
2964109,1745078237393,0.0,184.26,,-0.04,-0.27,0.7,1,-0,-1,0.75,1.16,65,5706,48.7,5.18,,13.98,1.217,88.0,,42.4,5,,,,,,,,,,,,0,0,0,0,0,0,0,0,0,0,0,0,0,0,0,0,,,,,0.0,,,,,,
2964129,1745078237411,,,,,,,,,,,,,,,,,,,,,,,,,,,,,,,,,,0,0,0,0,0,0,0,0,0,0,0,0,0,0,0,0,,,,,,,,,,,
2964149,1745078237431,0.0,184.26,,-0.06,-0.18,0.76,1,-0,-1,0.78,1.16,67,6349,49.1,5.2,,13.79,1.223,88.0,,42.4,5,,,,,,,,,,,,0,0,0,0,0,0,0,0,0,0,0,0,0,0,0,0,,,,,0.0,,,,,,
2964169,1745078237451,,,,,,,,,,,,,,,,,,,,,,,,,,,,,,,,,,0,0,0,0,0,0,0,0,0,0,0,0,0,0,0,0,,,,,,,,,,,
2964189,1745078237471,0.0,184.26,,-0.07,-0.11,0.79,1,-0,-1,0.8,1.16,69,7162,36.7,6.02,,13.39,1.206,88.0,,51.5,5,2,0,2,2,0.0,0.0,0.0,0.0,2.26,,,0,0,0,0,0,0,0,0,0,0,0,0,0,0,0,0,0,,,,0.0,39.239609,-77.964592,3.2,29,3,0.8
2964209,1745078237491,,,,,,,,,,,,,,,,,,,,,,,,,,,,,,,,,,0,0,0,0,0,0,0,0,0,0,0,0,0,0,0,0,,,,,,,,,,,
2964229,1745078237513,0.0,184.14,,-0.07,0.0,0.76,1,-0,-1,0.76,1.16,65,8150,32.8,5.51,,13.39,1.206,88.0,,51.5,5,,,,,,,,,,,,0,0,0,0,0,0,0,0,0,0,0,0,0,0,0,0,,,,,0.0,,,,,,
2964249,1745078237533,,,,,,,,,,,,,,,,,,,,,,,,,,,,,,,,,,0,0,0,0,0,0,0,0,0,0,0,0,0,0,0,0,,,,,,,,,,,
2964269,1745078237553,0.0,184.14,,-0.11,0.1,0.75,1,-0,-1,0.77,1.16,66,8150,32.8,5.51,,12.76,1.099,88.0,,61.8,5,,,,,,,,,,,,0,0,0,0,0,0,0,0,0,0,0,0,0,0,0,0,,,,,0.0,,,,,,
2964289,1745078237573,,,,,,,,,,,,,,,,,,,,,,,2,0,2,2,0.0,0.0,0.0,0.0,2.26,,,0,0,0,0,0,0,0,0,0,0,0,0,0,0,0,0,0,,,,,39.239609,-77.964592,3.03,29,3,0.8
2964309,1745078237593,0.0,184.26,,-0.06,0.15,0.76,-0,-0,-0,0.78,1.16,67,9303,32.1,4.78,,12.17,0.978,88.0,,61.8,5,,,,,,,,,,,,0,0,0,0,0,0,0,0,0,0,0,0,0,0,0,0,,,,,0.0,,,,,,
2964329,1745078237611,,,,,,,,,,,,,,,,,,,,,,,,,,,,,,,,,,0,0,0,0,0,0,0,0,0,0,0,0,0,0,0,0,,,,,,,,,,,
2964349,1745078237631,0.0,184.14,,-0.02,0.12,0.81,-1,0,0,0.82,1.16,70,10565,30.9,4.46,,11.49,0.914,88.0,,61.8,5,,,,,,,,,,,,0,0,0,0,0,0,0,0,0,0,0,0,0,0,0,0,,,,,0.0,,,,,,
2964369,1745078237651,,,,,,,,,,,,,,,,,,,,,,,,,,,,,,,,,,0,0,0,0,0,0,0,0,0,0,0,0,0,0,0,0,,,,,,,,,,,
2964389,1745078237671,0.0,184.01,13.26,-0.0,-0.02,0.77,0,0,-1,0.77,1.16,66,10989,25.2,3.68,15,10.66,0.876,88.0,165,61.4,5,2,0,2,2,0.0,0.0,0.0,0.0,2.26,0,0.0,0,0,0,0,0,0,0,0,0,0,0,0,0,0,0,0,0,0.0,0,0,0.0,39.239609,-77.964592,2.94,29,3,0.8
2964409,1745078237691,,,,,,,,,,,,,,,,,,,,,,,,,,,,,,,,,,0,0,0,0,0,0,0,0,0,0,0,0,0,0,0,0,,,,,,,,,,,
2964429,1745078237713,0.0,184.01,,0.02,0.06,0.87,0,0,-1,0.87,1.16,75,11051,23.2,3.64,,10.66,0.876,88.0,,61.4,5,,,,,,,,,,,,0,0,0,0,0,0,0,0,0,0,0,0,0,0,0,0,,,,,0.0,,,,,,
2964449,1745078237733,,,,,,,,,,,,,,,,,,,,,,,,,,,,,,,,,,0,0,0,0,0,0,0,0,0,0,0,0,0,0,0,0,,,,,,,,,,,
2964469,1745078237753,0.0,183.89,,0.05,-0.01,0.92,-0,0,-1,0.92,1.16,79,11051,23.2,3.64,,10.0,0.845,88.0,,59.6,5,,,,,,,,,,,,0,0,0,0,0,0,0,0,0,0,0,0,0,0,0,0,,,,,0.0,,,,,,
2964489,1745078237773,,,,,,,,,,,,,,,,,,,,,,,3,0,3,3,0.0,0.0,0.0,0.0,2.26,,,0,0,0,0,0,0,0,0,0,0,0,0,0,0,0,0,0,,,,,39.239609,-77.964592,3.23,29,3,0.8
2964509,1745078237793,0.0,183.89,,0.06,-0.1,0.93,1,0,-1,0.93,1.16,80,10938,22.8,3.48,,9.61,0.853,88.0,,59.6,5,,,,,,,,,,,,0,0,0,0,0,0,0,0,0,0,0,0,0,0,0,0,,,,,0.0,,,,,,
2964529,1745078237811,,,,,,,,,,,,,,,,,,,,,,,,,,,,,,,,,,0,0,0,0,0,0,0,0,0,0,0,0,0,0,0,0,,,,,,,,,,,
2964549,1745078237831,0.0,183.89,,0.1,-0.05,0.88,1,-0,-1,0.89,1.16,76,10742,22.7,3.45,,9.78,0.87,88.0,,59.6,5,,,,,,,,,,,,0,0,0,0,0,0,0,0,0,0,0,0,0,0,0,0,,,,,0.0,,,,,,
2964569,1745078237851,,,,,,,,,,,,,,,,,,,,,,,,,,,,,,,,,,0,0,0,0,0,0,0,0,0,0,0,0,0,0,0,0,,,,,,,,,,,
2964589,1745078237871,0.0,183.89,,0.15,0.17,0.86,0,0,-1,0.89,1.16,77,10521,22.7,3.4,,9.64,0.904,88.0,,59.3,5,4,0,4,4,0.0,0.0,0.0,0.0,2.26,,,0,0,0,0,0,0,0,0,0,0,0,0,0,0,0,0,0,,,,0.0,39.239609,-77.964592,4.51,29,3,0.8
2964609,1745078237891,,,,,,,,,,,,,,,,,,,,,,,,,,,,,,,,,,0,0,0,0,0,0,0,0,0,0,0,0,0,0,0,0,,,,,,,,,,,
2964629,1745078237914,0.0,183.89,,0.16,0.13,0.84,-1,0,-0,0.87,1.16,75,10262,22.8,3.31,,9.64,0.904,88.0,,59.3,5,,,,,,,,,,,,0,0,0,0,0,0,0,0,0,0,0,0,0,0,0,0,,,,,0.0,,,,,,
2964649,1745078237934,,,,,,,,,,,,,,,,,,,,,,,,,,,,,,,,,,0,0,0,0,0,0,0,0,0,0,0,0,0,0,0,0,,,,,,,,,,,
2964669,1745078237954,0.0,183.89,,0.18,-0.01,0.93,-1,0,0,0.95,1.16,81,10262,22.8,3.31,,9.65,0.932,88.0,,60.6,5,,,,,,,,,,,,0,0,0,0,0,0,0,0,0,0,0,0,0,0,0,0,,,,,0.0,,,,,,
2964689,1745078237974,,,,,,,,,,,,,,,,,,,,,,,5,0,5,5,0.0,0.0,0.0,0.0,2.26,,,0,0,0,0,0,0,0,0,0,0,0,0,0,0,0,0,0,,,,,39.239605,-77.964592,5.72,29,3,0.8
2964709,1745078237994,0.0,184.01,,0.19,-0.02,0.88,-1,0,0,0.9,1.16,77,10076,22.8,3.34,,9.66,0.961,88.0,,60.6,5,,,,,,,,,,,,0,0,0,0,0,0,0,0,0,0,0,0,0,0,0,0,,,,,0.0,,,,,,
2964729,1745078238005,,,,,,,,,,,,,,,,,,,,,,,,,,,,,,,,,,0,0,0,0,0,0,0,0,0,0,0,0,0,0,0,0,,,,,,,,,,,
2964749,1745078238025,0.0,183.89,,0.2,-0.04,0.89,-2,0,1,0.91,1.16,78,9870,23.3,3.3,,9.86,0.985,88.0,,60.6,5,,,,,,,,,,,,0,0,0,0,0,0,0,0,0,0,0,0,0,0,0,0,,,,,0.0,,,,,,
2964769,1745078238045,,,,,,,,,,,,,,,,,,,,,,,,,,,,,,,,,,0,0,0,0,0,0,0,0,0,0,0,0,0,0,0,0,,,,,,,,,,,
2964789,1745078238065,0.0,183.76,,0.23,-0.06,0.93,-2,-0,0,0.96,1.16,82,9644,24.3,3.32,,9.93,0.999,88.0,,60.6,5,5,0,5,5,0.0,0.0,0.0,0.0,2.26,,,0,0,0,0,0,0,0,0,0,0,0,0,0,0,0,0,0,,,,0.0,39.239605,-77.964592,7.68,29,3,0.8
2964809,1745078238085,,,,,,,,,,,,,,,,,,,,,,,,,,,,,,,,,,0,0,0,0,0,0,0,0,0,0,0,0,0,0,0,0,,,,,,,,,,,
2964829,1745078238109,0.0,183.76,,0.23,-0.09,0.93,-2,-0,1,0.96,1.16,83,9392,25.2,3.31,,9.93,0.999,88.0,,60.6,5,,,,,,,,,,,,0,0,0,0,0,0,0,0,0,0,0,0,0,0,0,0,,,,,0.0,,,,,,
2964849,1745078238129,,,,,,,,,,,,,,,,,,,,,,,,,,,,,,,,,,0,0,0,0,0,0,0,0,0,0,0,0,0,0,0,0,,,,,,,,,,,
2964869,1745078238149,0.0,183.76,,0.23,-0.15,0.98,-1,-0,0,1.02,1.16,87,9392,25.2,3.31,,10.2,1.022,88.0,,60.4,5,,,,,,,,,,,,0,0,0,0,0,0,0,0,0,0,0,0,0,0,0,0,,,,,0.0,,,,,,
2964889,1745078238169,,,,,,,,,,,,,,,,,,,,,,,6,0,7,6,0.0,0.0,0.0,0.0,2.26,,,0,0,0,0,0,0,0,0,0,0,0,0,0,0,0,0,0,,,,,39.239601,-77.964592,9.23,29,3,0.8
2964909,1745078238189,0.0,183.76,,0.24,-0.23,1.04,-1,-0,1,1.09,1.16,94,9067,25.8,3.31,,10.41,1.037,88.0,,60.4,5,,,,,,,,,,,,0,0,0,0,0,0,0,0,0,0,0,0,0,0,0,0,,,,,0.0,,,,,,
2964929,1745078238212,,,,,,,,,,,,,,,,,,,,,,,,,,,,,,,,,,0,0,0,0,0,0,0,0,0,0,0,0,0,0,0,0,,,,,,,,,,,
2964949,1745078238232,0.0,183.63,,0.23,-0.25,1.05,-1,-0,1,1.11,1.16,95,8806,26.3,3.43,,10.72,1.049,88.0,,60.4,5,,,,,,,,,,,,0,0,0,0,0,0,0,0,0,0,0,0,0,0,0,0,,,,,0.0,,,,,,
2964969,1745078238252,,,,,,,,,,,,,,,,,,,,,,,,,,,,,,,,,,0,0,0,0,0,0,0,0,0,0,0,0,0,0,0,0,,,,,,,,,,,
2964989,1745078238272,0.0,183.63,,0.28,-0.22,1.07,-0,-0,1,1.13,1.16,97,8469,26.5,4.71,,11.01,1.053,88.0,,59.1,5,7,0,7,7,0.0,0.0,0.0,0.0,2.26,,,0,0,0,0,0,0,0,0,0,0,0,0,0,0,0,0,0,,,,0.0,39.239597,-77.964592,10.52,29,3,0.8
2965009,1745078238292,,,,,,,,,,,,,,,,,,,,,,,,,,,,,,,,,,0,0,0,0,0,0,0,0,0,0,0,0,0,0,0,0,,,,,,,,,,,
2965029,1745078238312,0.0,183.63,,0.27,-0.17,1.04,-1,-0,1,1.09,1.16,94,8393,26.8,4.79,,11.01,1.053,88.0,,59.1,5,,,,,,,,,,,,0,0,0,0,0,0,0,0,0,0,0,0,0,0,0,0,,,,,0.0,,,,,,
2965049,1745078238332,,,,,,,,,,,,,,,,,,,,,,,,,,,,,,,,,,0,0,0,0,0,0,0,0,0,0,0,0,0,0,0,0,,,,,,,,,,,
2965069,1745078238352,0.0,183.63,,0.29,-0.17,1.01,-0,-1,1,1.06,1.16,91,8393,26.8,4.79,,11.38,1.026,88.0,,58.4,5,,,,,,,,,,,,0,0,0,0,0,0,0,0,0,0,0,0,0,0,0,0,,,,,0.0,,,,,,
2965089,1745078238372,,,,,,,,,,,,,,,,,,,,,,,8,0,8,8,0.0,43.0,0.0,0.0,2.27,,,0,0,0,0,0,0,0,0,0,0,0,0,0,0,0,0,0,,,,,39.239597,-77.9646,11.93,29,3,0.8
2965109,1745078238392,0.0,183.51,,0.32,-0.12,1.01,-0,-0,1,1.07,1.16,92,8368,26.8,4.8,,11.37,0.924,88.0,,58.4,5,,,,,,,,,,,,0,0,0,0,0,0,0,0,0,0,0,0,0,0,0,0,,,,,0.0,,,,,,
2965129,1745078238412,,,,,,,,,,,,,,,,,,,,,,,,,,,,,,,,,,0,0,0,0,0,0,0,0,0,0,0,0,0,0,0,0,,,,,,,,,,,
2965149,1745078238432,0.0,183.51,,0.33,-0.17,1.01,-1,-1,1,1.07,1.16,92,8354,27.0,4.81,,11.53,0.867,88.0,,58.4,5,,,,,,,,,,,,0,0,0,0,0,0,0,0,0,0,0,0,0,0,0,0,,,,,0.0,,,,,,
2965169,1745078238452,,,,,,,,,,,,,,,,,,,,,,,,,,,,,,,,,,0,0,0,0,0,0,0,0,0,0,0,0,0,0,0,0,,,,,,,,,,,
2965189,1745078238472,0.0,183.51,,0.33,-0.18,0.99,0,-1,1,1.06,1.16,91,8296,26.9,4.85,,11.76,0.85,88.0,,58.8,5,9,0,9,9,0.0,60.0,0.0,0.0,2.26,,,0,0,0,0,0,0,0,0,0,0,0,0,0,0,0,0,0,,,,0.0,39.239594,-77.9646,13.54,29,3,0.8
2965209,1745078238492,,,,,,,,,,,,,,,,,,,,,,,,,,,,,,,,,,0,0,0,0,0,0,0,0,0,0,0,0,0,0,0,0,,,,,,,,,,,
2965229,1745078238512,0.0,183.51,,0.34,-0.18,1.01,1,-1,1,1.08,1.16,93,8208,27.1,4.9,,11.76,0.85,88.0,,58.8,5,,,,,,,,,,,,0,0,0,0,0,0,0,0,0,0,0,0,0,0,0,0,,,,,0.0,,,,,,
2965249,1745078238532,,,,,,,,,,,,,,,,,,,,,,,,,,,,,,,,,,0,0,0,0,0,0,0,0,0,0,0,0,0,0,0,0,,,,,,,,,,,
2965269,1745078238552,0.0,183.51,,0.35,-0.13,1.0,1,-1,1,1.07,1.16,92,8208,27.1,4.9,,11.84,0.838,88.0,,58.6,5,,,,,,,,,,,,0,0,0,0,0,0,0,0,0,0,0,0,0,0,0,0,,,,,0.0,,,,,,
2965289,1745078238572,,,,,,,,,,,,,,,,,,,,,,,10,0,11,11,0.0,60.0,0.0,0.0,2.26,,,0,0,0,0,0,0,0,0,0,0,0,0,0,0,0,0,0,,,,,39.23959,-77.9646,15.12,29,3,0.8
2965309,1745078238592,0.0,183.38,,0.36,-0.18,1.06,1,-0,1,1.13,1.16,97,8070,26.8,4.98,,11.73,0.83,88.0,,58.6,5,,,,,,,,,,,,0,0,0,0,0,0,0,0,0,0,0,0,0,0,0,0,,,,,0.0,,,,,,
2965329,1745078238612,,,,,,,,,,,,,,,,,,,,,,,,,,,,,,,,,,0,0,0,0,0,0,0,0,0,0,0,0,0,0,0,0,,,,,,,,,,,
2965349,1745078238632,0.0,183.38,,0.37,-0.05,1.03,-0,-0,2,1.09,1.16,94,7876,25.6,5.05,,11.84,0.821,88.0,,58.6,5,,,,,,,,,,,,0,0,0,0,0,0,0,0,0,0,0,0,0,0,0,0,,,,,0.0,,,,,,
2965369,1745078238652,,,,,,,,,,,,,,,,,,,,,,,,,,,,,,,,,,0,0,0,0,0,0,0,0,0,0,0,0,0,0,0,0,,,,,,,,,,,
2965389,1745078238672,0.0,183.26,13.31,0.38,-0.16,1.03,0,-0,2,1.11,1.16,96,7646,23.2,5.05,15,11.6,0.81,88.0,165,57.0,5,12,0,12,12,0.0,43.0,0.0,0.0,2.26,0,0.0,0,0,0,0,0,0,0,0,0,0,0,0,0,0,0,0,0,0.0,0,0,0.0,39.239586,-77.9646,17.01,29,3,0.8
2965409,1745078238692,,,,,,,,,,,,,,,,,,,,,,,,,,,,,,,,,,0,0,0,0,0,0,0,0,0,0,0,0,0,0,0,0,,,,,,,,,,,
2965429,1745078238712,0.0,183.13,,0.38,-0.34,1.03,0,0,1,1.15,1.16,99,7324,20.2,5.39,,11.6,0.81,88.0,,57.0,5,,,,,,,,,,,,0,0,0,0,0,0,0,0,0,0,0,0,0,0,0,0,,,,,0.0,,,,,,
2965449,1745078238732,,,,,,,,,,,,,,,,,,,,,,,,,,,,,,,,,,0,0,0,0,0,0,0,0,0,0,0,0,0,0,0,0,,,,,,,,,,,
2965469,1745078238752,0.0,183.13,,0.41,-0.23,1.03,1,-0,1,1.13,1.16,97,7324,20.2,5.39,,11.45,0.797,88.0,,53.9,5,,,,,,,,,,,,0,0,0,0,0,0,0,0,0,0,0,0,0,0,0,0,,,,,0.0,,,,,,
2965489,1745078238772,,,,,,,,,,,,,,,,,,,,,,,12,0,13,13,0.0,85.0,0.0,0.0,2.26,,,0,0,0,0,0,0,0,0,0,0,0,0,0,0,0,0,0,,,,,39.239582,-77.9646,18.57,29,3,0.8
2965509,1745078238792,0.0,183.26,,0.4,-0.26,1.01,1,0,1,1.12,1.16,96,6809,19.0,5.38,,11.4,0.786,88.0,,53.9,5,,,,,,,,,,,,0,0,0,0,0,0,0,0,0,0,0,0,0,0,0,0,,,,,0.0,,,,,,
2965529,1745078238812,,,,,,,,,,,,,,,,,,,,,,,,,,,,,,,,,,0,0,0,0,0,0,0,0,0,0,0,0,0,0,0,0,,,,,,,,,,,
2965549,1745078238832,0.0,183.13,,0.4,-0.25,0.91,1,0,1,1.02,1.16,88,6228,15.4,4.42,,11.53,0.763,88.0,,53.9,5,,,,,,,,,,,,0,0,0,0,0,0,0,0,0,0,0,0,0,0,0,0,,,,,0.0,,,,,,
2965569,1745078238852,,,,,,,,,,,,,,,,,,,,,,,,,,,,,,,,,,0,0,0,0,0,0,0,0,0,0,0,0,0,0,0,0,,,,,,,,,,,
2965589,1745078238872,0.0,183.13,,0.41,-0.2,0.9,2,0,1,1.01,1.16,87,5515,10.5,3.89,,11.65,0.75,88.0,,45.8,5,14,0,14,15,0.0,20.0,0.0,0.0,2.26,,,0,0,0,0,0,0,0,0,0,0,0,0,0,0,0,0,0,,,,0.0,39.239578,-77.9646,20.46,29,3,0.8
2965609,1745078238892,,,,,,,,,,,,,,,,,,,,,,,,,,,,,,,,,,0,0,0,0,0,0,0,0,0,0,0,0,0,0,0,0,,,,,,,,,,,
2965629,1745078238912,0.0,183.13,,0.46,-0.22,0.89,3,0,0,1.03,1.16,88,4446,6.1,3.47,,11.65,0.75,88.0,,45.8,5,,,,,,,,,,,,0,0,0,0,0,0,0,0,0,0,0,0,0,0,0,0,,,,,0.0,,,,,,
2965649,1745078238932,,,,,,,,,,,,,,,,,,,,,,,,,,,,,,,,,,0,0,0,0,0,0,0,0,0,0,0,0,0,0,0,0,,,,,,,,,,,
2965669,1745078238952,0.0,183.26,,0.45,-0.22,0.94,3,-0,-0,1.06,1.16,91,4446,6.1,3.47,,11.89,0.762,88.0,,31.9,5,,,,,,,,,,,,0,0,0,0,0,0,0,0,0,0,0,0,0,0,0,0,,,,,0.0,,,,,,
2965689,1745078238972,,,,,,,,,,,,,,,,,,,,,,,15,0,15,14,0.0,4.0,0.0,0.0,2.26,,,0,0,0,0,0,0,0,0,0,0,0,0,0,0,0,0,0,,,,,39.239571,-77.9646,21.89,29,3,0.8
2965709,1745078238992,0.0,183.38,,0.4,-0.2,0.97,3,-0,0,1.07,1.16,92,3306,0.4,2.91,,12.08,0.775,88.0,,31.9,5,,,,,,,,,,,,0,0,0,0,0,0,0,0,0,0,0,0,0,0,0,0,,,,,0.0,,,,,,
2965729,1745078239004,,,,,,,,,,,,,,,,,,,,,,,,,,,,,,,,,,0,0,0,0,0,0,0,0,0,0,0,0,0,0,0,0,,,,,,,,,,,
2965749,1745078239024,0.0,183.51,,0.35,-0.19,0.98,4,-1,-0,1.06,1.16,91,2518,0.0,2.9,,12.37,0.783,88.0,,31.9,5,,,,,,,,,,,,0,0,0,0,0,0,0,0,0,0,0,0,0,0,0,0,,,,,0.0,,,,,,
2965769,1745078239044,,,,,,,,,,,,,,,,,,,,,,,,,,,,,,,,,,0,0,0,0,0,0,0,0,0,0,0,0,0,0,0,0,,,,,,,,,,,
2965789,1745078239064,0.0,183.51,,0.22,-0.14,0.97,4,-1,-1,1.0,1.16,86,2311,0.0,3.1,,12.63,0.785,88.0,,20.8,5,15,0,14,14,0.0,243.0,0.0,0.0,2.26,,,0,0,0,0,0,0,0,0,0,0,0,0,0,0,0,0,5,,,,0.0,39.239567,-77.964607,23.89,29,3,0.8
2965809,1745078239084,,,,,,,,,,,,,,,,,,,,,,,,,,,,,,,,,,0,0,0,0,0,0,0,0,0,0,0,0,0,0,0,0,,,,,,,,,,,
2965829,1745078239112,0.0,183.51,,0.16,-0.15,1.03,4,-1,-1,1.05,1.16,91,2735,0.0,3.1,,12.63,0.785,88.0,,20.8,5,,,,,,,,,,,,0,0,0,0,0,0,0,0,0,0,0,0,0,0,0,0,,,,,0.0,,,,,,
2965849,1745078239132,,,,,,,,,,,,,,,,,,,,,,,,,,,,,,,,,,0,0,0,0,0,0,0,0,0,0,0,0,0,0,0,0,,,,,,,,,,,
2965869,1745078239152,0.0,183.63,,0.13,-0.18,1.09,5,-1,-1,1.12,1.16,96,2735,0.0,3.1,,12.57,0.791,88.0,,21.2,5,,,,,,,,,,,,0,0,0,0,0,0,0,0,0,0,0,0,0,0,0,0,,,,,0.0,,,,,,
2965889,1745078239172,,,,,,,,,,,,,,,,,,,,,,,14,0,14,14,0.0,4.0,0.0,0.0,2.27,,,0,0,0,0,0,0,0,0,0,0,0,0,0,0,0,0,5,,,,,39.239563,-77.964607,23.73,29,3,0.8
2965909,1745078239192,0.0,183.51,,0.08,-0.21,1.14,5,-1,-1,1.16,1.16,100,3070,0.0,2.85,,12.48,0.807,88.0,,21.2,5,,,,,,,,,,,,0,0,0,0,0,0,0,0,0,0,0,0,0,0,0,0,,,,,0.0,,,,,,
2965929,1745078239209,,,,,,,,,,,,,,,,,,,,,,,,,,,,,,,,,,0,0,0,0,0,0,0,0,0,0,0,0,0,0,0,0,,,,,,,,,,,
2965949,1745078239229,0.0,183.51,,0.05,-0.2,1.19,5,-1,-1,1.2,1.2,100,2952,0.0,2.85,,12.44,0.844,88.0,,21.2,5,,,,,,,,,,,,0,0,0,0,0,0,0,0,0,0,0,0,0,0,0,0,,,,,0.0,,,,,,
2965969,1745078239249,,,,,,,,,,,,,,,,,,,,,,,,,,,,,,,,,,0,0,0,0,0,0,0,0,0,0,0,0,0,0,0,0,,,,,,,,,,,
2965989,1745078239269,0.0,183.63,,0.03,-0.22,1.22,5,-1,-1,1.24,1.24,100,2881,0.0,2.9,,12.4,0.856,88.0,,22.1,5,14,0,14,13,0.0,247.0,0.0,0.0,2.26,,,0,0,0,0,0,0,0,0,0,0,0,0,0,0,0,0,5,,,,0.0,39.239555,-77.964615,22.74,29,3,0.8
2966009,1745078239289,,,,,,,,,,,,,,,,,,,,,,,,,,,,,,,,,,0,0,0,0,0,0,0,0,0,0,0,0,0,0,0,0,,,,,,,,,,,
2966029,1745078239313,0.0,183.63,,0.03,-0.16,1.17,5,-0,-0,1.18,1.24,95,2773,0.0,2.95,,12.4,0.856,88.0,,22.1,5,,,,,,,,,,,,0,0,0,0,0,0,0,0,0,0,0,0,0,0,0,0,,,,,0.0,,,,,,
2966049,1745078239333,,,,,,,,,,,,,,,,,,,,,,,,,,,,,,,,,,0,0,0,0,0,0,0,0,0,0,0,0,0,0,0,0,,,,,,,,,,,
2966069,1745078239353,0.0,183.51,,0.0,-0.17,1.15,5,-0,-0,1.16,1.24,94,2773,0.0,2.95,,12.43,0.853,88.0,,21.0,5,,,,,,,,,,,,0,0,0,0,0,0,0,0,0,0,0,0,0,0,0,0,,,,,0.0,,,,,,
2966089,1745078239373,,,,,,,,,,,,,,,,,,,,,,,14,0,14,14,0.0,247.0,0.0,0.0,2.27,,,0,0,0,0,0,0,0,0,0,0,0,0,0,0,0,0,3,,,,,39.239548,-77.964615,22.37,29,3,0.8
2966109,1745078239393,0.0,183.51,,-0.03,-0.16,1.07,5,-0,-1,1.09,1.24,88,2680,0.0,2.99,,12.51,0.874,88.0,,21.0,5,,,,,,,,,,,,0,0,0,0,0,0,0,0,0,0,0,0,0,0,0,0,,,,,0.0,,,,,,
2966129,1745078239413,,,,,,,,,,,,,,,,,,,,,,,,,,,,,,,,,,0,0,0,0,0,0,0,0,0,0,0,0,0,0,0,0,,,,,,,,,,,
2966149,1745078239433,0.0,183.51,,-0.04,-0.14,1.07,5,0,-1,1.08,1.24,87,2570,0.0,3.04,,12.56,0.938,88.0,,21.0,5,,,,,,,,,,,,0,0,0,0,0,0,0,0,0,0,0,0,0,0,0,0,,,,,0.0,,,,,,
2966169,1745078239453,,,,,,,,,,,,,,,,,,,,,,,,,,,,,,,,,,0,0,0,0,0,0,0,0,0,0,0,0,0,0,0,0,,,,,,,,,,,
2966189,1745078239473,0.0,183.51,,-0.05,-0.13,1.06,4,1,-1,1.06,1.24,86,2569,0.0,2.99,,12.61,1.052,88.0,,20.6,5,14,0,14,13,0.0,252.0,0.0,0.0,2.26,,,0,0,0,0,0,0,0,0,0,0,0,0,0,0,0,0,3,,,,0.0,39.239548,-77.964615,22.08,29,3,0.8
2966209,1745078239493,,,,,,,,,,,,,,,,,,,,,,,,,,,,,,,,,,0,0,0,0,0,0,0,0,0,0,0,0,0,0,0,0,,,,,,,,,,,
2966229,1745078239513,0.0,183.51,,-0.06,-0.12,1.07,4,1,-1,1.08,1.24,87,2543,0.0,3.05,,12.61,1.052,88.0,,20.6,5,,,,,,,,,,,,0,0,0,0,0,0,0,0,0,0,0,0,0,0,0,0,,,,,0.0,,,,,,
2966249,1745078239533,,,,,,,,,,,,,,,,,,,,,,,,,,,,,,,,,,0,0,0,0,0,0,0,0,0,0,0,0,0,0,0,0,,,,,,,,,,,
2966269,1745078239553,0.0,183.51,,-0.07,-0.08,1.04,3,0,-0,1.04,1.24,85,2543,0.0,3.05,,12.72,1.145,88.0,,19.1,5,,,,,,,,,,,,0,0,0,0,0,0,0,0,0,0,0,0,0,0,0,0,,,,,0.0,,,,,,
2966289,1745078239573,,,,,,,,,,,,,,,,,,,,,,,13,0,14,14,0.0,20.0,0.0,0.0,2.26,,,0,0,0,0,0,0,0,0,0,0,0,0,0,0,0,0,3,,,,,39.23954,-77.964622,21.91,29,3,0.8
2966309,1745078239593,0.0,183.51,,-0.1,-0.05,1.04,2,0,-0,1.04,1.24,84,2378,0.0,3.09,,12.85,1.118,88.0,,19.1,5,,,,,,,,,,,,0,0,0,0,0,0,0,0,0,0,0,0,0,0,0,0,,,,,0.0,,,,,,
2966329,1745078239613,,,,,,,,,,,,,,,,,,,,,,,,,,,,,,,,,,0,0,0,0,0,0,0,0,0,0,0,0,0,0,0,0,,,,,,,,,,,
2966349,1745078239633,0.0,183.51,,-0.1,-0.03,1.04,2,0,-0,1.04,1.24,84,2236,0.0,3.16,,12.95,1.066,88.0,,19.1,5,,,,,,,,,,,,0,0,0,0,0,0,0,0,0,0,0,0,0,0,0,0,,,,,0.0,,,,,,
2966369,1745078239653,,,,,,,,,,,,,,,,,,,,,,,,,,,,,,,,,,0,0,0,0,0,0,0,0,0,0,0,0,0,0,0,0,,,,,,,,,,,
2966389,1745078239673,0.0,183.51,13.29,-0.1,-0.04,1.02,1,0,-0,1.03,1.24,83,2187,0.0,3.21,15,13.08,1.05,88.0,165,17.5,5,13,0,13,13,0.0,25.0,0.0,0.0,2.26,0,0.0,0,0,0,0,0,0,0,0,0,0,0,0,0,0,0,0,3,0.0,0,-0,0.0,39.239532,-77.964622,21.53,29,3,0.8
2966409,1745078239693,,,,,,,,,,,,,,,,,,,,,,,,,,,,,,,,,,0,0,0,0,0,0,0,0,0,0,0,0,0,0,0,0,,,,,,,,,,,
2966429,1745078239713,0.0,183.51,,-0.1,-0.05,1.02,1,0,-0,1.02,1.24,83,2054,0.0,3.28,,13.08,1.05,88.0,,17.5,5,,,,,,,,,,,,0,0,0,0,0,0,0,0,0,0,0,0,0,0,0,0,,,,,0.0,,,,,,
2966449,1745078239733,,,,,,,,,,,,,,,,,,,,,,,,,,,,,,,,,,0,0,0,0,0,0,0,0,0,0,0,0,0,0,0,0,,,,,,,,,,,
2966469,1745078239753,0.0,183.51,,-0.09,-0.04,1.03,1,0,0,1.03,1.24,84,2054,0.0,3.28,,13.21,1.065,88.0,,16.4,5,,,,,,,,,,,,0,0,0,0,0,0,0,0,0,0,0,0,0,0,0,0,,,,,0.0,,,,,,
2966489,1745078239773,,,,,,,,,,,,,,,,,,,,,,,13,0,13,13,0.0,5.0,0.0,0.0,2.27,,,0,0,0,0,0,0,0,0,0,0,0,0,0,0,0,0,4,,,,,39.239529,-77.964622,21.28,29,3,0.8
2966509,1745078239793,0.0,183.51,,-0.11,-0.06,1.02,1,0,0,1.03,1.24,83,1900,0.0,3.32,,13.41,1.09,88.0,,16.4,5,,,,,,,,,,,,0,0,0,0,0,0,0,0,0,0,0,0,0,0,0,0,,,,,0.0,,,,,,
2966529,1745078239813,,,,,,,,,,,,,,,,,,,,,,,,,,,,,,,,,,0,0,0,0,0,0,0,0,0,0,0,0,0,0,0,0,,,,,,,,,,,
2966549,1745078239833,0.0,183.38,,-0.11,-0.07,1.01,1,-0,0,1.02,1.02,100,1757,0.0,3.34,,13.52,1.125,88.0,,16.4,5,,,,,,,,,,,,0,0,0,0,0,0,0,0,0,0,0,0,0,0,0,0,,,,,0.0,,,,,,
2966569,1745078239853,,,,,,,,,,,,,,,,,,,,,,,,,,,,,,,,,,0,0,0,0,0,0,0,0,0,0,0,0,0,0,0,0,,,,,,,,,,,
2966589,1745078239873,0.0,183.38,,-0.1,-0.08,1.01,0,0,0,1.02,1.02,100,1699,0.0,3.36,,13.63,1.161,88.0,,14.0,5,13,0,13,13,0.0,42.0,0.0,0.0,2.26,,,0,0,0,0,0,0,0,0,0,0,0,0,0,0,0,0,4,,,,0.0,39.239525,-77.96463,21.02,29,3,0.8
2966609,1745078239893,,,,,,,,,,,,,,,,,,,,,,,,,,,,,,,,,,0,0,0,0,0,0,0,0,0,0,0,0,0,0,0,0,,,,,,,,,,,
2966629,1745078239913,0.0,183.38,,-0.07,-0.09,1.03,0,0,1,1.03,1.03,100,1554,5.3,3.73,,13.63,1.161,88.0,,14.0,5,,,,,,,,,,,,0,0,0,0,0,0,0,0,0,0,0,0,0,0,0,0,,,,,0.0,,,,,,
2966649,1745078239933,,,,,,,,,,,,,,,,,,,,,,,,,,,,,,,,,,0,0,0,0,0,0,0,0,0,0,0,0,0,0,0,0,,,,,,,,,,,
2966669,1745078239953,0.0,183.38,,-0.07,-0.1,1.03,-0,0,0,1.03,1.03,100,1554,5.3,3.73,,13.98,1.17,88.0,,13.3,5,,,,,,,,,,,,0,0,0,0,0,0,0,0,0,0,0,0,0,0,0,0,,,,,0.0,,,,,,
2966689,1745078239973,,,,,,,,,,,,,,,,,,,,,,,13,0,13,13,0.0,53.0,0.0,0.0,2.27,,,0,0,0,0,0,0,0,0,0,0,0,0,0,0,0,0,0,,,,,39.239521,-77.96463,20.91,29,3,0.8
2966709,1745078239993,0.0,183.38,,-0.07,-0.1,1.03,-0,-0,1,1.03,1.03,100,1426,8.6,3.68,,14.15,1.174,88.0,,13.3,5,,,,,,,,,,,,0,0,0,0,0,0,0,0,0,0,0,0,0,0,0,0,,,,,0.0,,,,,,
2966729,1745078240005,,,,,,,,,,,,,,,,,,,,,,,,,,,,,,,,,,0,0,0,0,0,0,0,0,0,0,0,0,0,0,0,0,,,,,,,,,,,
2966749,1745078240025,0.0,183.51,,-0.07,-0.09,1.01,-1,-0,0,1.02,1.03,98,1512,8.8,3.67,,14.11,1.154,88.0,,13.3,5,,,,,,,,,,,,0,0,0,0,0,0,0,0,0,0,0,0,0,0,0,0,,,,,0.0,,,,,,
2966769,1745078240045,,,,,,,,,,,,,,,,,,,,,,,,,,,,,,,,,,0,0,0,0,0,0,0,0,0,0,0,0,0,0,0,0,,,,,,,,,,,
2966789,1745078240065,0.0,183.51,,-0.06,-0.09,1.02,-1,-1,0,1.02,1.03,99,1452,8.9,3.65,,14.1,1.135,88.0,,12.9,5,12,0,13,12,0.0,251.0,0.0,0.0,2.26,,,0,0,0,0,0,0,0,0,0,0,0,0,0,0,0,0,0,,,,0.0,39.239513,-77.96463,20.67,29,3,0.8
2966809,1745078240085,,,,,,,,,,,,,,,,,,,,,,,,,,,,,,,,,,0,0,0,0,0,0,0,0,0,0,0,0,0,0,0,0,,,,,,,,,,,
