,Interval,Utc,FrontBP,SteerAng,Battery,AccelX,AccelY,AccelZ,Yaw,Pitch,Roll,Gsum,GsumMax,GsumPct,RPM,TPS,InjectorPW,Baro,MAP,Lambda,IAT,EngineTemp,EOP,EOT,WSFR,WSFL,WSRR,WSRL,TCSet,TCSlip,TCComp,TCCut,Analog8,OilTemp,AA_On,ThermLF1,ThermLF2,ThermRR1,ThermRR2,ThermLF3,ThermLF4,ThermLF5,ThermLF6,ThermLF7,ThermLF8,ThermRR3,ThermRR4,ThermRR5,ThermRR6,ThermRR7,ThermRR8,Gear,AA_On1,AA_LowDrag,Fuel_Mix,AA_Packages,Latitude,Longitude,Speed,GPSSats,GPSQual,GPSDOP
0,3176765,0,0.0,183.01,,-0.06,0.05,1.01,0.0,0.0,0.0,1.01,1.01,100.0,5412.0,14.5,4.11,,11.96,0.866,86.2,,61.7,5.0,,,,,,,,,,,,0,0,0,0,0,0,0,0,0,0,0,0,0,0,0,0,,,,,0.0,,,,,,
1,3176785,0,,,,,,,,,,,,,,,,,,,,,,,,,,,,,,,,,,0,0,0,0,0,0,0,0,0,0,0,0,0,0,0,0,,,,,,,,,,,
2,3176805,0,0.0,183.26,,-0.09,0.11,1.06,0.0,0.0,0.0,1.07,1.07,100.0,5601.0,14.7,4.19,,11.96,0.866,86.2,,62.4,5.0,,,,,,,,,,,,0,0,0,0,0,0,0,0,0,0,0,0,0,0,0,0,,,,,0.0,,,,,,
3,3176825,0,,,,,,,,,,,,,,,,,,,,,,,,,,,,,,,,,,0,0,0,0,0,0,0,0,0,0,0,0,0,0,0,0,,,,,,,,,,,
4,3176845,0,0.0,183.26,13.94,-0.04,-0.01,1.02,1.0,0.0,0.0,1.02,1.07,95.0,5601.0,14.7,4.19,15.0,12.2,0.843,86.2,153.0,62.4,5.0,0.0,0.0,0.0,0.0,0.0,0.0,0.0,0.0,2.26,0.0,1.0,0,0,0,0,0,0,0,0,0,0,0,0,0,0,0,0,0.0,0.0,0.0,0.0,0.0,0.0,0.0,0.0,0.0,0.0,0.0
5,3176865,0,,,,,,,,,,,,,,,,,,,,,,,,,,,,,,,,,,0,0,0,0,0,0,0,0,0,0,0,0,0,0,0,0,,,,,,,,,,,
6,3176885,0,0.0,183.26,,-0.02,-0.09,0.99,1.0,0.0,0.0,0.99,1.07,93.0,5953.0,9.7,3.55,,11.68,0.817,86.2,,66.8,5.0,,,,,,,,,,,,0,0,0,0,0,0,0,0,0,0,0,0,0,0,0,0,,,,,0.0,,,,,,
7,3176905,0,,,,,,,,,,,,,,,,,,,,,,,,,,,,,,,,,,0,0,0,0,0,0,0,0,0,0,0,0,0,0,0,0,,,,,,,,,,,
8,3176925,0,0.0,183.13,,-0.05,-0.1,0.98,1.0,0.0,0.0,0.99,1.07,92.0,6338.0,5.2,3.5,,10.73,0.818,86.2,,66.8,5.0,,,,,,,,,,,,0,0,0,0,0,0,0,0,0,0,0,0,0,0,0,0,,,,,0.0,,,,,,
9,3176945,0,,,,,,,,,,,,,,,,,,,,,,,0.0,0.0,0.0,0.0,0.0,0.0,0.0,0.0,2.26,,,0,0,0,0,0,0,0,0,0,0,0,0,0,0,0,0,0.0,,,,,0.0,0.0,0.0,0.0,0.0,0.0
10,3176965,0,0.0,183.26,,-0.05,-0.11,1.0,1.0,0.0,0.0,1.01,1.07,94.0,6657.0,2.9,2.13,,9.88,0.839,86.2,,66.8,5.0,,,,,,,,,,,,0,0,0,0,0,0,0,0,0,0,0,0,0,0,0,0,,,,,0.0,,,,,,
11,3176985,0,,,,,,,,,,,,,,,,,,,,,,,,,,,,,,,,,,0,0,0,0,0,0,0,0,0,0,0,0,0,0,0,0,,,,,,,,,,,
12,3177005,0,0.0,183.26,,-0.06,-0.09,0.99,2.0,0.0,0.0,1.0,1.07,93.0,6871.0,2.2,1.4,,9.88,0.839,86.2,,65.5,5.0,,,,,,,,,,,,0,0,0,0,0,0,0,0,0,0,0,0,0,0,0,0,,,,,0.0,,,,,,
13,3177025,0,,,,,,,,,,,,,,,,,,,,,,,,,,,,,,,,,,0,0,0,0,0,0,0,0,0,0,0,0,0,0,0,0,,,,,,,,,,,
14,3177045,0,0.0,183.26,,-0.05,-0.1,0.99,2.0,0.0,0.0,0.99,1.07,93.0,6871.0,2.2,1.4,,9.1,0.84,86.2,,65.5,5.0,0.0,0.0,0.0,0.0,0.0,0.0,0.0,0.0,2.27,,,0,0,0,0,0,0,0,0,0,0,0,0,0,0,0,0,0.0,,,,0.0,0.0,0.0,0.0,0.0,0.0,0.0
15,3177065,0,,,,,,,,,,,,,,,,,,,,,,,,,,,,,,,,,,0,0,0,0,0,0,0,0,0,0,0,0,0,0,0,0,,,,,,,,,,,
16,3177085,0,0.0,183.13,,-0.05,-0.07,0.98,1.0,0.0,0.0,0.98,1.07,92.0,6750.0,1.9,1.4,,8.63,0.869,86.2,,63.8,5.0,,,,,,,,,,,,0,0,0,0,0,0,0,0,0,0,0,0,0,0,0,0,,,,,0.0,,,,,,
17,3177105,0,,,,,,,,,,,,,,,,,,,,,,,,,,,,,,,,,,0,0,0,0,0,0,0,0,0,0,0,0,0,0,0,0,,,,,,,,,,,
18,3177125,0,0.0,183.13,,-0.06,-0.06,1.0,1.0,0.0,0.0,1.0,1.07,94.0,6653.0,1.6,1.41,,8.38,0.943,86.2,,63.8,5.0,,,,,,,,,,,,0,0,0,0,0,0,0,0,0,0,0,0,0,0,0,0,,,,,0.0,,,,,,
19,3177145,0,,,,,,,,,,,,,,,,,,,,,,,0.0,0.0,0.0,0.0,0.0,0.0,0.0,0.0,2.27,,,0,0,0,0,0,0,0,0,0,0,0,0,0,0,0,0,0.0,,,,,0.0,0.0,0.0,0.0,0.0,0.0
20,3177165,0,0.0,183.13,,-0.05,-0.12,1.02,0.0,0.0,0.0,1.03,1.07,96.0,6423.0,1.6,1.4,,8.29,1.001,86.2,,63.8,5.0,,,,,,,,,,,,0,0,0,0,0,0,0,0,0,0,0,0,0,0,0,0,,,,,0.0,,,,,,
21,3177185,0,,,,,,,,,,,,,,,,,,,,,,,,,,,,,,,,,,0,0,0,0,0,0,0,0,0,0,0,0,0,0,0,0,,,,,,,,,,,
22,3177205,0,0.0,183.13,,-0.1,0.03,1.06,1.0,0.0,0.0,1.06,1.07,99.0,6203.0,1.6,1.4,,8.29,1.001,86.2,,60.8,5.0,,,,,,,,,,,,0,0,0,0,0,0,0,0,0,0,0,0,0,0,0,0,,,,,0.0,,,,,,
23,3177225,0,,,,,,,,,,,,,,,,,,,,,,,,,,,,,,,,,,0,0,0,0,0,0,0,0,0,0,0,0,0,0,0,0,,,,,,,,,,,
24,3177245,0,0.0,183.13,,-0.15,0.25,1.02,-1.0,0.0,1.0,1.06,1.07,99.0,6203.0,1.6,1.4,,8.43,1.052,86.2,,60.8,5.0,0.0,0.0,0.0,0.0,0.0,0.0,0.0,0.0,2.27,,,0,0,0,0,0,0,0,0,0,0,0,0,0,0,0,0,0.0,,,,0.0,0.0,0.0,0.0,0.0,0.0,0.0
25,3177265,0,,,,,,,,,,,,,,,,,,,,,,,,,,,,,,,,,,0,0,0,0,0,0,0,0,0,0,0,0,0,0,0,0,,,,,,,,,,,
26,3177285,0,0.0,183.13,,-0.19,0.44,1.09,-2.0,0.0,2.0,1.19,1.19,100.0,5936.0,1.9,1.65,,8.59,1.104,86.2,,55.5,5.0,,,,,,,,,,,,0,0,0,0,0,0,0,0,0,0,0,0,0,0,0,0,,,,,0.0,,,,,,
27,3177305,0,,,,,,,,,,,,,,,,,,,,,,,,,,,,,,,,,,0,0,0,0,0,0,0,0,0,0,0,0,0,0,0,0,,,,,,,,,,,
28,3177325,0,0.0,183.01,,-0.14,0.25,1.08,0.0,0.0,1.0,1.12,1.19,94.0,5663.0,2.9,2.1,,9.06,1.139,86.2,,55.5,5.0,,,,,,,,,,,,0,0,0,0,0,0,0,0,0,0,0,0,0,0,0,0,,,,,0.0,,,,,,
29,3177345,0,,,,,,,,,,,,,,,,,,,,,,,0.0,0.0,0.0,0.0,0.0,0.0,0.0,0.0,2.26,,,0,0,0,0,0,0,0,0,0,0,0,0,0,0,0,0,0.0,,,,,0.0,0.0,0.0,0.0,0.0,0.0
30,3177365,0,0.0,183.01,,-0.14,0.28,1.12,-1.0,0.0,1.0,1.16,1.19,98.0,5474.0,7.5,2.62,,9.8,1.154,86.2,,55.5,5.0,,,,,,,,,,,,0,0,0,0,0,0,0,0,0,0,0,0,0,0,0,0,,,,,0.0,,,,,,
31,3177385,0,,,,,,,,,,,,,,,,,,,,,,,,,,,,,,,,,,0,0,0,0,0,0,0,0,0,0,0,0,0,0,0,0,,,,,,,,,,,
32,3177405,0,0.0,183.01,,-0.15,0.22,1.1,-1.0,0.0,1.0,1.13,1.19,95.0,5360.0,10.6,2.92,,9.8,1.154,86.2,,55.7,5.0,,,,,,,,,,,,0,0,0,0,0,0,0,0,0,0,0,0,0,0,0,0,,,,,0.0,,,,,,
33,3177425,0,,,,,,,,,,,,,,,,,,,,,,,,,,,,,,,,,,0,0,0,0,0,0,0,0,0,0,0,0,0,0,0,0,,,,,,,,,,,
34,3177445,0,0.0,183.01,,-0.14,0.22,1.09,-1.0,0.0,1.0,1.12,1.19,94.0,5360.0,10.6,2.92,,10.72,1.17,86.2,,55.7,5.0,0.0,0.0,0.0,0.0,0.0,0.0,0.0,0.0,2.26,,,0,0,0,0,0,0,0,0,0,0,0,0,0,0,0,0,0.0,,,,0.0,0.0,0.0,0.0,0.0,0.0,0.0
35,3177465,0,,,,,,,,,,,,,,,,,,,,,,,,,,,,,,,,,,0,0,0,0,0,0,0,0,0,0,0,0,0,0,0,0,,,,,,,,,,,
36,3177485,0,0.0,183.13,,-0.13,0.24,1.04,-1.0,0.0,1.0,1.07,1.19,90.0,5302.0,11.6,3.92,,11.33,1.008,86.2,,56.0,5.0,,,,,,,,,,,,0,0,0,0,0,0,0,0,0,0,0,0,0,0,0,0,,,,,0.0,,,,,,
37,3177505,0,,,,,,,,,,,,,,,,,,,,,,,,,,,,,,,,,,0,0,0,0,0,0,0,0,0,0,0,0,0,0,0,0,,,,,,,,,,,
38,3177525,0,0.0,183.01,,-0.11,0.13,1.01,0.0,0.0,0.0,1.03,1.19,86.0,5376.0,9.8,3.26,,11.57,0.906,86.2,,56.0,5.0,,,,,,,,,,,,0,0,0,0,0,0,0,0,0,0,0,0,0,0,0,0,,,,,0.0,,,,,,
39,3177545,0,,,,,,,,,,,,,,,,,,,,,,,0.0,0.0,0.0,0.0,0.0,0.0,0.0,0.0,2.27,,,0,0,0,0,0,0,0,0,0,0,0,0,0,0,0,0,0.0,,,,,0.0,0.0,0.0,0.0,0.0,0.0
40,3177565,0,0.0,183.13,,-0.09,0.2,1.08,0.0,0.0,1.0,1.1,1.19,92.0,5462.0,6.4,3.25,,11.44,0.88,86.2,,56.0,5.0,,,,,,,,,,,,0,0,0,0,0,0,0,0,0,0,0,0,0,0,0,0,,,,,0.0,,,,,,
41,3177585,0,,,,,,,,,,,,,,,,,,,,,,,,,,,,,,,,,,0,0,0,0,0,0,0,0,0,0,0,0,0,0,0,0,,,,,,,,,,,
42,3177605,0,0.0,183.13,,-0.12,0.15,1.06,-1.0,0.0,1.0,1.07,1.19,90.0,5537.0,3.9,3.23,,11.44,0.88,86.2,,59.9,5.0,,,,,,,,,,,,0,0,0,0,0,0,0,0,0,0,0,0,0,0,0,0,,,,,0.0,,,,,,
43,3177625,0,,,,,,,,,,,,,,,,,,,,,,,,,,,,,,,,,,0,0,0,0,0,0,0,0,0,0,0,0,0,0,0,0,,,,,,,,,,,
44,3177645,0,0.0,183.13,,-0.08,0.06,1.03,0.0,0.0,0.0,1.04,1.19,87.0,5537.0,3.9,3.23,,11.17,0.858,86.2,,59.9,5.0,0.0,0.0,0.0,0.0,0.0,0.0,0.0,0.0,2.27,,,0,0,0,0,0,0,0,0,0,0,0,0,0,0,0,0,0.0,,,,0.0,0.0,0.0,0.0,0.0,0.0,0.0
45,3177665,0,,,,,,,,,,,,,,,,,,,,,,,,,,,,,,,,,,0,0,0,0,0,0,0,0,0,0,0,0,0,0,0,0,,,,,,,,,,,
46,3177685,0,0.0,183.13,,-0.06,-0.1,0.93,0.0,0.0,0.0,0.94,1.19,79.0,5683.0,2.9,2.41,,10.7,0.864,86.2,,63.4,5.0,,,,,,,,,,,,0,0,0,0,0,0,0,0,0,0,0,0,0,0,0,0,,,,,0.0,,,,,,
47,3177705,0,,,,,,,,,,,,,,,,,,,,,,,,,,,,,,,,,,0,0,0,0,0,0,0,0,0,0,0,0,0,0,0,0,,,,,,,,,,,
48,3177725,0,0.0,183.01,,-0.03,-0.01,1.02,1.0,0.0,0.0,1.02,1.19,86.0,5742.0,2.3,1.89,,10.44,0.862,86.2,,63.4,5.0,,,,,,,,,,,,0,0,0,0,0,0,0,0,0,0,0,0,0,0,0,0,,,,,0.0,,,,,,
49,3177745,0,,,,,,,,,,,,,,,,,,,,,,,0.0,0.0,0.0,0.0,0.0,0.0,0.0,0.0,2.27,,,0,0,0,0,0,0,0,0,0,0,0,0,0,0,0,0,0.0,,,,,0.0,0.0,0.0,0.0,0.0,0.0
50,3177765,0,0.0,183.01,,-0.0,-0.19,0.91,1.0,0.0,-1.0,0.93,1.19,78.0,5678.0,2.4,2.03,,10.26,0.858,86.2,,63.4,5.0,,,,,,,,,,,,0,0,0,0,0,0,0,0,0,0,0,0,0,0,0,0,,,,,0.0,,,,,,
51,3177785,0,,,,,,,,,,,,,,,,,,,,,,,,,,,,,,,,,,0,0,0,0,0,0,0,0,0,0,0,0,0,0,0,0,,,,,,,,,,,
52,3177805,0,0.0,183.01,,-0.04,-0.02,0.98,1.0,0.0,0.0,0.98,1.19,82.0,5678.0,2.4,2.03,,10.26,0.858,86.2,,61.2,5.0,,,,,,,,,,,,0,0,0,0,0,0,0,0,0,0,0,0,0,0,0,0,,,,,0.0,,,,,,
53,3177825,0,,,,,,,,,,,,,,,,,,,,,,,,,,,,,,,,,,0,0,0,0,0,0,0,0,0,0,0,0,0,0,0,0,,,,,,,,,,,
54,3177845,0,0.0,183.01,13.93,-0.04,-0.12,0.93,1.0,0.0,-1.0,0.94,1.19,79.0,5599.0,2.5,2.16,15.0,10.18,0.894,86.2,153.0,61.2,5.0,0.0,0.0,0.0,0.0,0.0,0.0,0.0,0.0,2.27,0.0,1.0,0,0,0,0,0,0,0,0,0,0,0,0,0,0,0,0,0.0,0.0,0.0,0.0,0.0,0.0,0.0,0.0,0.0,0.0,0.0
55,3177865,0,,,,,,,,,,,,,,,,,,,,,,,,,,,,,,,,,,0,0,0,0,0,0,0,0,0,0,0,0,0,0,0,0,,,,,,,,,,,
56,3177885,0,0.0,183.01,,-0.02,-0.09,0.97,1.0,0.0,-1.0,0.98,1.19,82.0,5491.0,2.5,2.19,,10.16,0.934,86.2,,59.0,5.0,,,,,,,,,,,,0,0,0,0,0,0,0,0,0,0,0,0,0,0,0,0,,,,,0.0,,,,,,
57,3177905,0,,,,,,,,,,,,,,,,,,,,,,,,,,,,,,,,,,0,0,0,0,0,0,0,0,0,0,0,0,0,0,0,0,,,,,,,,,,,
58,3177925,0,0.0,183.01,,-0.03,-0.05,0.99,1.0,0.0,0.0,0.99,1.19,83.0,5391.0,2.6,2.26,,10.3,0.951,86.2,,59.0,5.0,,,,,,,,,,,,0,0,0,0,0,0,0,0,0,0,0,0,0,0,0,0,,,,,0.0,,,,,,
59,3177945,0,,,,,,,,,,,,,,,,,,,,,,,0.0,0.0,0.0,0.0,0.0,0.0,0.0,0.0,2.26,,,0,0,0,0,0,0,0,0,0,0,0,0,0,0,0,0,0.0,,,,,0.0,0.0,0.0,0.0,0.0,0.0
60,3177965,0,0.0,183.01,,-0.03,-0.08,0.98,1.0,0.0,0.0,0.98,1.19,82.0,5264.0,5.2,2.53,,10.3,0.951,86.2,,59.0,5.0,,,,,,,,,,,,0,0,0,0,0,0,0,0,0,0,0,0,0,0,0,0,,,,,0.0,,,,,,
61,3177985,0,,,,,,,,,,,,,,,,,,,,,,,,,,,,,,,,,,0,0,0,0,0,0,0,0,0,0,0,0,0,0,0,0,,,,,,,,,,,
62,3178005,0,0.0,183.01,,-0.03,-0.12,0.97,1.0,0.0,0.0,0.97,1.19,82.0,5264.0,5.2,2.53,,10.64,0.959,86.2,,58.4,5.0,,,,,,,,,,,,0,0,0,0,0,0,0,0,0,0,0,0,0,0,0,0,,,,,0.0,,,,,,
63,3178025,0,,,,,,,,,,,,,,,,,,,,,,,,,,,,,,,,,,0,0,0,0,0,0,0,0,0,0,0,0,0,0,0,0,,,,,,,,,,,
64,3178045,0,0.0,183.01,,-0.04,-0.12,0.95,1.0,0.0,0.0,0.96,1.19,81.0,5195.0,7.6,2.95,,11.18,0.956,86.2,,58.4,5.0,0.0,0.0,0.0,0.0,0.0,0.0,0.0,0.0,2.27,,,0,0,0,0,0,0,0,0,0,0,0,0,0,0,0,0,0.0,,,,0.0,0.0,0.0,0.0,0.0,0.0,0.0
65,3178065,0,,,,,,,,,,,,,,,,,,,,,,,,,,,,,,,,,,0,0,0,0,0,0,0,0,0,0,0,0,0,0,0,0,,,,,,,,,,,
66,3178085,0,0.0,183.01,,-0.06,-0.08,0.95,1.0,0.0,0.0,0.96,1.19,80.0,5161.0,8.9,3.26,,11.52,0.953,86.2,,58.4,5.0,,,,,,,,,,,,0,0,0,0,0,0,0,0,0,0,0,0,0,0,0,0,,,,,0.0,,,,,,
67,3178105,0,,,,,,,,,,,,,,,,,,,,,,,,,,,,,,,,,,0,0,0,0,0,0,0,0,0,0,0,0,0,0,0,0,,,,,,,,,,,
68,3178125,0,0.0,183.01,,-0.05,-0.09,0.96,0.0,0.0,0.0,0.96,1.19,81.0,5161.0,10.9,3.33,,11.96,0.941,86.2,,57.6,5.0,,,,,,,,,,,,0,0,0,0,0,0,0,0,0,0,0,0,0,0,0,0,,,,,0.0,,,,,,
69,3178145,0,,,,,,,,,,,,,,,,,,,,,,,0.0,0.0,0.0,0.0,0.0,0.0,0.0,0.0,2.27,,,0,0,0,0,0,0,0,0,0,0,0,0,0,0,0,0,0.0,,,,,0.0,0.0,0.0,0.0,0.0,0.0
70,3178165,0,0.0,183.01,,-0.05,-0.13,0.96,0.0,0.0,0.0,0.97,1.19,81.0,5214.0,13.1,3.51,,11.96,0.941,86.2,,57.6,5.0,,,,,,,,,,,,0,0,0,0,0,0,0,0,0,0,0,0,0,0,0,0,,,,,0.0,,,,,,
71,3178185,0,,,,,,,,,,,,,,,,,,,,,,,,,,,,,,,,,,0,0,0,0,0,0,0,0,0,0,0,0,0,0,0,0,,,,,,,,,,,
72,3178205,0,0.0,183.01,,-0.05,-0.15,0.97,0.0,0.0,0.0,0.98,1.19,82.0,5214.0,13.1,3.51,,12.28,0.918,86.2,,60.4,5.0,,,,,,,,,,,,0,0,0,0,0,0,0,0,0,0,0,0,0,0,0,0,,,,,0.0,,,,,,
73,3178225,0,,,,,,,,,,,,,,,,,,,,,,,,,,,,,,,,,,0,0,0,0,0,0,0,0,0,0,0,0,0,0,0,0,,,,,,,,,,,
74,3178245,0,0.0,183.01,,-0.04,-0.19,0.96,1.0,0.0,0.0,0.98,1.19,82.0,5326.0,13.0,3.34,,12.45,0.902,86.2,,60.4,5.0,0.0,0.0,0.0,0.0,0.0,0.0,0.0,0.0,2.26,,,0,0,0,0,0,0,0,0,0,0,0,0,0,0,0,0,0.0,,,,0.0,0.0,0.0,0.0,0.0,0.0,0.0
75,3178265,0,,,,,,,,,,,,,,,,,,,,,,,,,,,,,,,,,,0,0,0,0,0,0,0,0,0,0,0,0,0,0,0,0,,,,,,,,,,,
76,3178285,0,0.0,183.13,,-0.04,-0.06,1.01,1.0,0.0,0.0,1.02,1.19,85.0,5396.0,10.8,3.28,,12.36,0.906,86.2,,60.4,5.0,,,,,,,,,,,,0,0,0,0,0,0,0,0,0,0,0,0,0,0,0,0,,,,,0.0,,,,,,
77,3178305,0,,,,,,,,,,,,,,,,,,,,,,,,,,,,,,,,,,0,0,0,0,0,0,0,0,0,0,0,0,0,0,0,0,,,,,,,,,,,
78,3178325,0,0.0,183.01,,-0.06,-0.1,0.94,0.0,0.0,0.0,0.95,1.19,79.0,5552.0,7.2,3.22,,11.96,0.925,86.2,,61.2,5.0,,,,,,,,,,,,0,0,0,0,0,0,0,0,0,0,0,0,0,0,0,0,,,,,0.0,,,,,,
79,3178345,0,,,,,,,,,,,,,,,,,,,,,,,0.0,0.0,0.0,0.0,0.0,0.0,0.0,0.0,2.26,,,0,0,0,0,0,0,0,0,0,0,0,0,0,0,0,0,0.0,,,,,0.0,0.0,0.0,0.0,0.0,0.0
80,3178365,0,0.0,183.13,,-0.04,0.02,1.04,1.0,0.0,0.0,1.04,1.19,87.0,5692.0,5.2,3.24,,11.96,0.925,86.2,,61.2,5.0,,,,,,,,,,,,0,0,0,0,0,0,0,0,0,0,0,0,0,0,0,0,,,,,0.0,,,,,,
81,3178385,0,,,,,,,,,,,,,,,,,,,,,,,,,,,,,,,,,,0,0,0,0,0,0,0,0,0,0,0,0,0,0,0,0,,,,,,,,,,,
82,3178405,0,0.0,183.01,,-0.04,-0.15,0.94,1.0,0.0,-1.0,0.95,1.19,80.0,5692.0,5.2,3.24,,11.57,0.959,86.2,,63.1,5.0,,,,,,,,,,,,0,0,0,0,0,0,0,0,0,0,0,0,0,0,0,0,,,,,0.0,,,,,,
83,3178425,0,,,,,,,,,,,,,,,,,,,,,,,,,,,,,,,,,,0,0,0,0,0,0,0,0,0,0,0,0,0,0,0,0,,,,,,,,,,,
84,3178445,0,0.0,183.01,,-0.1,-0.19,0.88,-1.0,0.0,0.0,0.9,1.19,76.0,5813.0,3.7,3.17,,11.0,0.954,86.2,,63.1,5.0,0.0,0.0,0.0,0.0,0.0,0.0,0.0,0.0,2.27,,,0,0,0,0,0,0,0,0,0,0,0,0,0,0,0,0,0.0,,,,0.0,0.0,0.0,0.0,0.0,0.0,0.0
85,3178465,0,,,,,,,,,,,,,,,,,,,,,,,,,,,,,,,,,,0,0,0,0,0,0,0,0,0,0,0,0,0,0,0,0,,,,,,,,,,,
86,3178485,0,0.0,183.01,,-0.13,-0.24,0.82,-1.0,0.0,1.0,0.87,1.19,73.0,6006.0,3.2,2.55,,10.44,0.925,86.2,,63.1,5.0,,,,,,,,,,,,0,0,0,0,0,0,0,0,0,0,0,0,0,0,0,0,,,,,0.0,,,,,,
87,3178505,0,,,,,,,,,,,,,,,,,,,,,,,,,,,,,,,,,,0,0,0,0,0,0,0,0,0,0,0,0,0,0,0,0,,,,,,,,,,,
88,3178525,0,0.0,183.01,,-0.13,-0.29,0.76,-1.0,0.0,0.0,0.82,1.19,69.0,6152.0,2.9,2.5,,10.01,0.909,86.2,,64.1,5.0,,,,,,,,,,,,0,0,0,0,0,0,0,0,0,0,0,0,0,0,0,0,,,,,0.0,,,,,,
89,3178545,0,,,,,,,,,,,,,,,,,,,,,,,0.0,0.0,0.0,0.0,0.0,0.0,0.0,0.0,2.27,,,0,0,0,0,0,0,0,0,0,0,0,0,0,0,0,0,0.0,,,,,0.0,0.0,0.0,0.0,0.0,0.0
90,3178565,0,0.0,183.01,,-0.11,-0.38,0.76,-1.0,0.0,0.0,0.86,1.19,72.0,6203.0,3.0,2.15,,10.01,0.909,86.2,,64.1,5.0,,,,,,,,,,,,0,0,0,0,0,0,0,0,0,0,0,0,0,0,0,0,,,,,0.0,,,,,,
91,3178585,0,,,,,,,,,,,,,,,,,,,,,,,,,,,,,,,,,,0,0,0,0,0,0,0,0,0,0,0,0,0,0,0,0,,,,,,,,,,,
92,3178605,0,0.0,183.01,,-0.09,-0.36,0.89,0.0,0.0,0.0,0.97,1.19,81.0,6203.0,3.0,2.15,,9.76,0.907,86.2,,62.9,5.0,,,,,,,,,,,,0,0,0,0,0,0,0,0,0,0,0,0,0,0,0,0,,,,,0.0,,,,,,
93,3178625,0,,,,,,,,,,,,,,,,,,,,,,,,,,,,,,,,,,0,0,0,0,0,0,0,0,0,0,0,0,0,0,0,0,,,,,,,,,,,
94,3178645,0,0.0,183.01,,-0.12,-0.17,0.96,0.0,0.0,0.0,0.98,1.19,83.0,6181.0,3.0,2.17,,9.6,0.946,86.2,,62.9,5.0,0.0,0.0,0.0,0.0,0.0,0.0,0.0,0.0,2.27,,,0,0,0,0,0,0,0,0,0,0,0,0,0,0,0,0,0.0,,,,0.0,0.0,0.0,0.0,0.0,0.0,0.0
95,3178665,0,,,,,,,,,,,,,,,,,,,,,,,,,,,,,,,,,,0,0,0,0,0,0,0,0,0,0,0,0,0,0,0,0,,,,,,,,,,,
96,3178685,0,0.0,183.01,,-0.13,-0.13,0.91,-1.0,0.0,0.0,0.93,1.19,78.0,6143.0,3.3,2.13,,9.54,0.968,86.2,,62.9,5.0,,,,,,,,,,,,0,0,0,0,0,0,0,0,0,0,0,0,0,0,0,0,,,,,0.0,,,,,,
97,3178705,0,,,,,,,,,,,,,,,,,,,,,,,,,,,,,,,,,,0,0,0,0,0,0,0,0,0,0,0,0,0,0,0,0,,,,,,,,,,,
98,3178725,0,0.0,183.01,,-0.11,-0.18,0.79,-1.0,0.0,0.0,0.82,1.19,69.0,6125.0,3.5,2.33,,9.54,0.968,86.2,,61.6,5.0,,,,,,,,,,,,0,0,0,0,0,0,0,0,0,0,0,0,0,0,0,0,,,,,0.0,,,,,,
99,3178745,0,,,,,,,,,,,,,,,,,,,,,,,0.0,0.0,0.0,0.0,0.0,0.0,0.0,0.0,2.27,,,0,0,0,0,0,0,0,0,0,0,0,0,0,0,0,0,0.0,,,,,0.0,0.0,0.0,0.0,0.0,0.0
100,3178765,0,0.0,183.01,,-0.05,-0.33,0.77,0.0,0.0,-1.0,0.83,1.19,70.0,6125.0,3.5,2.33,,9.45,0.975,86.2,,61.6,5.0,,,,,,,,,,,,0,0,0,0,0,0,0,0,0,0,0,0,0,0,0,0,,,,,0.0,,,,,,
101,3178785,0,,,,,,,,,,,,,,,,,,,,,,,,,,,,,,,,,,0,0,0,0,0,0,0,0,0,0,0,0,0,0,0,0,,,,,,,,,,,
102,3178805,0,0.0,183.01,,0.03,-0.47,0.82,1.0,0.0,-1.0,0.95,1.19,79.0,6090.0,3.5,2.28,,9.37,0.977,86.2,,62.1,5.0,,,,,,,,,,,,0,0,0,0,0,0,0,0,0,0,0,0,0,0,0,0,,,,,0.0,,,,,,
103,3178825,0,,,,,,,,,,,,,,,,,,,,,,,,,,,,,,,,,,0,0,0,0,0,0,0,0,0,0,0,0,0,0,0,0,,,,,,,,,,,
104,3178845,0,0.0,182.88,13.97,0.07,-0.61,0.91,3.0,0.0,-2.0,1.1,1.19,92.0,6023.0,3.5,2.29,15.0,9.33,0.98,86.2,153.0,62.1,5.0,0.0,0.0,0.0,0.0,0.0,0.0,0.0,0.0,2.27,0.0,1.0,0,0,0,0,0,0,0,0,0,0,0,0,0,0,0,0,0.0,0.0,0.0,0.0,0.0,0.0,0.0,0.0,0.0,0.0,0.0
105,3178865,0,,,,,,,,,,,,,,,,,,,,,,,,,,,,,,,,,,0,0,0,0,0,0,0,0,0,0,0,0,0,0,0,0,,,,,,,,,,,
106,3178885,0,0.0,183.01,,0.1,-0.69,1.02,4.0,0.0,-2.0,1.23,1.23,100.0,6014.0,3.3,2.31,,9.39,0.979,86.2,,62.1,5.0,,,,,,,,,,,,0,0,0,0,0,0,0,0,0,0,0,0,0,0,0,0,,,,,0.0,,,,,,
107,3178905,0,,,,,,,,,,,,,,,,,,,,,,,,,,,,,,,,,,0,0,0,0,0,0,0,0,0,0,0,0,0,0,0,0,,,,,,,,,,,
108,3178925,0,0.0,182.88,,0.16,-0.78,1.05,5.0,0.0,-2.0,1.32,1.32,100.0,5921.0,3.0,2.29,,9.39,0.979,86.2,,60.7,5.0,,,,,,,,,,,,0,0,0,0,0,0,0,0,0,0,0,0,0,0,0,0,,,,,0.0,,,,,,
109,3178945,0,,,,,,,,,,,,,,,,,,,,,,,0.0,0.0,0.0,0.0,0.0,0.0,0.0,0.0,2.27,,,0,0,0,0,0,0,0,0,0,0,0,0,0,0,0,0,0.0,,,,,0.0,0.0,0.0,0.0,0.0,0.0
110,3178965,0,0.0,183.01,,0.21,-0.89,0.99,6.0,0.0,-3.0,1.35,1.35,100.0,5921.0,3.0,2.29,,9.41,0.982,86.2,,60.7,5.0,,,,,,,,,,,,0,0,0,0,0,0,0,0,0,0,0,0,0,0,0,0,,,,,0.0,,,,,,
111,3178985,0,,,,,,,,,,,,,,,,,,,,,,,,,,,,,,,,,,0,0,0,0,0,0,0,0,0,0,0,0,0,0,0,0,,,,,,,,,,,
112,3179005,0,0.0,183.01,,0.17,-0.91,0.85,5.0,0.0,-3.0,1.25,1.35,93.0,5854.0,3.0,2.25,,9.49,0.981,86.2,,60.6,5.0,,,,,,,,,,,,0,0,0,0,0,0,0,0,0,0,0,0,0,0,0,0,,,,,0.0,,,,,,
113,3179025,0,,,,,,,,,,,,,,,,,,,,,,,,,,,,,,,,,,0,0,0,0,0,0,0,0,0,0,0,0,0,0,0,0,,,,,,,,,,,
114,3179045,0,0.0,182.88,,0.09,-0.59,0.93,2.0,0.0,-2.0,1.1,1.35,82.0,5771.0,3.0,2.16,,9.7,0.974,86.2,,60.6,5.0,0.0,0.0,0.0,0.0,0.0,0.0,0.0,0.0,2.28,,,0,0,0,0,0,0,0,0,0,0,0,0,0,0,0,0,0.0,,,,0.0,0.0,0.0,0.0,0.0,0.0,0.0
115,3179065,0,,,,,,,,,,,,,,,,,,,,,,,,,,,,,,,,,,0,0,0,0,0,0,0,0,0,0,0,0,0,0,0,0,,,,,,,,,,,
116,3179085,0,0.0,182.88,,0.12,-0.59,0.97,4.0,0.0,-2.0,1.14,1.35,85.0,5671.0,3.3,2.32,,9.89,0.973,86.2,,60.6,5.0,,,,,,,,,,,,0,0,0,0,0,0,0,0,0,0,0,0,0,0,0,0,,,,,0.0,,,,,,
117,3179105,0,,,,,,,,,,,,,,,,,,,,,,,,,,,,,,,,,,0,0,0,0,0,0,0,0,0,0,0,0,0,0,0,0,,,,,,,,,,,
118,3179125,0,0.0,182.88,,0.05,-0.51,0.99,3.0,0.0,-2.0,1.11,1.35,83.0,5585.0,3.5,2.18,,9.89,0.973,86.2,,60.4,5.0,,,,,,,,,,,,0,0,0,0,0,0,0,0,0,0,0,0,0,0,0,0,,,,,0.0,,,,,,
119,3179145,0,,,,,,,,,,,,,,,,,,,,,,,0.0,0.0,0.0,0.0,0.0,0.0,0.0,0.0,2.26,,,0,0,0,0,0,0,0,0,0,0,0,0,0,0,0,0,0.0,,,,,0.0,0.0,0.0,0.0,0.0,0.0
120,3179165,0,0.0,182.88,,0.07,-0.45,0.98,3.0,0.0,-1.0,1.08,1.35,80.0,5585.0,3.5,2.18,,9.97,0.961,86.2,,60.4,5.0,,,,,,,,,,,,0,0,0,0,0,0,0,0,0,0,0,0,0,0,0,0,,,,,0.0,,,,,,
121,3179185,0,,,,,,,,,,,,,,,,,,,,,,,,,,,,,,,,,,0,0,0,0,0,0,0,0,0,0,0,0,0,0,0,0,,,,,,,,,,,
122,3179205,0,0.0,182.88,,0.06,-0.38,1.0,2.0,0.0,-1.0,1.07,1.35,80.0,5473.0,3.5,2.33,,10.14,0.95,86.2,,59.2,5.0,,,,,,,,,,,,0,0,0,0,0,0,0,0,0,0,0,0,0,0,0,0,,,,,0.0,,,,,,
123,3179225,0,,,,,,,,,,,,,,,,,,,,,,,,,,,,,,,,,,0,0,0,0,0,0,0,0,0,0,0,0,0,0,0,0,,,,,,,,,,,
124,3179245,0,0.0,182.88,,0.05,-0.35,1.01,2.0,0.0,-1.0,1.07,1.35,79.0,5400.0,3.5,2.41,,10.28,0.939,86.2,,59.2,5.0,0.0,0.0,0.0,0.0,0.0,0.0,0.0,0.0,2.26,,,0,0,0,0,0,0,0,0,0,0,0,0,0,0,0,0,0.0,,,,0.0,0.0,0.0,0.0,0.0,0.0,0.0
125,3179265,0,,,,,,,,,,,,,,,,,,,,,,,,,,,,,,,,,,0,0,0,0,0,0,0,0,0,0,0,0,0,0,0,0,,,,,,,,,,,
126,3179285,0,0.0,182.88,,0.04,-0.35,1.0,2.0,0.0,-1.0,1.06,1.35,79.0,5279.0,3.5,2.46,,10.48,0.942,86.2,,59.2,5.0,,,,,,,,,,,,0,0,0,0,0,0,0,0,0,0,0,0,0,0,0,0,,,,,0.0,,,,,,
127,3179305,0,,,,,,,,,,,,,,,,,,,,,,,,,,,,,,,,,,0,0,0,0,0,0,0,0,0,0,0,0,0,0,0,0,,,,,,,,,,,
128,3179325,0,0.0,182.88,,0.04,-0.36,0.97,2.0,0.0,-1.0,1.03,1.35,77.0,5138.0,3.7,2.58,,10.48,0.942,86.2,,57.8,5.0,,,,,,,,,,,,0,0,0,0,0,0,0,0,0,0,0,0,0,0,0,0,,,,,0.0,,,,,,
129,3179345,0,,,,,,,,,,,,,,,,,,,,,,,0.0,0.0,0.0,0.0,0.0,0.0,0.0,0.0,2.27,,,0,0,0,0,0,0,0,0,0,0,0,0,0,0,0,0,0.0,,,,,0.0,0.0,0.0,0.0,0.0,0.0
130,3179365,0,0.0,182.88,,0.01,-0.32,0.95,1.0,0.0,-1.0,1.0,1.35,75.0,5138.0,3.7,2.58,,10.65,0.947,86.2,,57.8,5.0,,,,,,,,,,,,0,0,0,0,0,0,0,0,0,0,0,0,0,0,0,0,,,,,0.0,,,,,,
131,3179385,0,,,,,,,,,,,,,,,,,,,,,,,,,,,,,,,,,,0,0,0,0,0,0,0,0,0,0,0,0,0,0,0,0,,,,,,,,,,,
132,3179405,0,0.0,182.88,,-0.0,-0.2,0.99,1.0,0.0,-1.0,1.01,1.35,75.0,5039.0,4.0,2.58,,10.77,0.954,86.2,,57.2,5.0,,,,,,,,,,,,0,0,0,0,0,0,0,0,0,0,0,0,0,0,0,0,,,,,0.0,,,,,,
133,3179425,0,,,,,,,,,,,,,,,,,,,,,,,,,,,,,,,,,,0,0,0,0,0,0,0,0,0,0,0,0,0,0,0,0,,,,,,,,,,,
134,3179445,0,0.0,182.88,,0.01,-0.27,0.97,1.0,0.0,-1.0,1.01,1.35,75.0,4956.0,4.1,3.11,,10.96,0.96,86.2,,57.2,5.0,0.0,0.0,0.0,0.0,0.0,0.0,0.0,0.0,2.28,,,0,0,0,0,0,0,0,0,0,0,0,0,0,0,0,0,0.0,,,,0.0,0.0,0.0,0.0,0.0,0.0,0.0
135,3179465,0,,,,,,,,,,,,,,,,,,,,,,,,,,,,,,,,,,0,0,0,0,0,0,0,0,0,0,0,0,0,0,0,0,,,,,,,,,,,
136,3179485,0,0.0,182.88,,-0.02,-0.21,0.99,1.0,0.0,0.0,1.02,1.35,75.0,4934.0,4.1,3.18,,11.05,0.958,86.2,,57.2,5.0,,,,,,,,,,,,0,0,0,0,0,0,0,0,0,0,0,0,0,0,0,0,,,,,0.0,,,,,,
137,3179505,0,,,,,,,,,,,,,,,,,,,,,,,,,,,,,,,,,,0,0,0,0,0,0,0,0,0,0,0,0,0,0,0,0,,,,,,,,,,,
138,3179525,0,0.0,182.88,,-0.02,-0.2,1.0,1.0,0.0,-1.0,1.02,1.35,76.0,4916.0,4.1,3.21,,11.05,0.958,86.2,,56.9,5.0,,,,,,,,,,,,0,0,0,0,0,0,0,0,0,0,0,0,0,0,0,0,,,,,0.0,,,,,,
139,3179545,0,,,,,,,,,,,,,,,,,,,,,,,0.0,0.0,0.0,0.0,0.0,0.0,0.0,0.0,2.28,,,0,0,0,0,0,0,0,0,0,0,0,0,0,0,0,0,0.0,,,,,0.0,0.0,0.0,0.0,0.0,0.0
140,3179565,0,0.0,182.88,,-0.03,-0.14,0.98,0.0,0.0,0.0,0.99,1.35,74.0,4916.0,4.1,3.21,,11.17,0.937,86.2,,56.9,5.0,,,,,,,,,,,,0,0,0,0,0,0,0,0,0,0,0,0,0,0,0,0,,,,,0.0,,,,,,
141,3179585,0,,,,,,,,,,,,,,,,,,,,,,,,,,,,,,,,,,0,0,0,0,0,0,0,0,0,0,0,0,0,0,0,0,,,,,,,,,,,
142,3179605,0,0.0,183.01,,-0.02,-0.17,0.98,1.0,0.0,0.0,0.99,1.35,74.0,4841.0,4.3,3.2,,11.24,0.909,86.2,,56.6,5.0,,,,,,,,,,,,0,0,0,0,0,0,0,0,0,0,0,0,0,0,0,0,,,,,0.0,,,,,,
143,3179625,0,,,,,,,,,,,,,,,,,,,,,,,,,,,,,,,,,,0,0,0,0,0,0,0,0,0,0,0,0,0,0,0,0,,,,,,,,,,,
144,3179645,0,0.0,183.01,,-0.03,-0.06,0.99,0.0,0.0,0.0,0.99,1.35,74.0,4822.0,4.6,3.17,,11.3,0.896,86.2,,56.6,5.0,0.0,0.0,0.0,0.0,0.0,0.0,0.0,0.0,2.27,,,0,0,0,0,0,0,0,0,0,0,0,0,0,0,0,0,0.0,,,,0.0,0.0,0.0,0.0,0.0,0.0,0.0
145,3179665,0,,,,,,,,,,,,,,,,,,,,,,,,,,,,,,,,,,0,0,0,0,0,0,0,0,0,0,0,0,0,0,0,0,,,,,,,,,,,
146,3179685,0,0.0,183.01,,-0.04,-0.17,0.93,0.0,0.0,0.0,0.94,1.35,70.0,4804.0,4.7,3.18,,11.41,0.874,86.2,,56.6,5.0,,,,,,,,,,,,0,0,0,0,0,0,0,0,0,0,0,0,0,0,0,0,,,,,0.0,,,,,,
147,3179705,0,,,,,,,,,,,,,,,,,,,,,,,,,,,,,,,,,,0,0,0,0,0,0,0,0,0,0,0,0,0,0,0,0,,,,,,,,,,,
148,3179725,0,0.0,182.88,,-0.04,-0.0,1.0,-1.0,0.0,0.0,1.0,1.35,75.0,4800.0,4.7,3.18,,11.41,0.874,86.2,,56.7,5.0,,,,,,,,,,,,0,0,0,0,0,0,0,0,0,0,0,0,0,0,0,0,,,,,0.0,,,,,,
149,3179745,0,,,,,,,,,,,,,,,,,,,,,,,0.0,0.0,0.0,0.0,0.0,0.0,0.0,0.0,2.26,,,0,0,0,0,0,0,0,0,0,0,0,0,0,0,0,0,0.0,,,,,0.0,0.0,0.0,0.0,0.0,0.0
150,3179765,0,0.0,182.88,,-0.03,-0.08,0.94,-1.0,0.0,0.0,0.95,1.35,70.0,4800.0,4.7,3.18,,11.45,0.861,86.2,,56.7,5.0,,,,,,,,,,,,0,0,0,0,0,0,0,0,0,0,0,0,0,0,0,0,,,,,0.0,,,,,,
151,3179785,0,,,,,,,,,,,,,,,,,,,,,,,,,,,,,,,,,,0,0,0,0,0,0,0,0,0,0,0,0,0,0,0,0,,,,,,,,,,,
152,3179805,0,0.0,182.88,,-0.02,0.01,1.0,0.0,0.0,0.0,1.0,1.35,74.0,4791.0,4.3,3.19,,11.45,0.854,86.2,,56.7,5.0,,,,,,,,,,,,0,0,0,0,0,0,0,0,0,0,0,0,0,0,0,0,,,,,0.0,,,,,,
153,3179825,0,,,,,,,,,,,,,,,,,,,,,,,,,,,,,,,,,,0,0,0,0,0,0,0,0,0,0,0,0,0,0,0,0,,,,,,,,,,,
154,3179845,0,0.0,182.88,13.95,-0.03,0.06,0.99,-1.0,0.0,1.0,0.99,1.35,73.0,4791.0,4.1,3.25,15.0,11.48,0.857,86.2,153.0,56.3,5.0,0.0,0.0,0.0,0.0,0.0,0.0,0.0,0.0,2.27,0.0,1.0,0,0,0,0,0,0,0,0,0,0,0,0,0,0,0,0,0.0,0.0,0.0,0.0,0.0,0.0,0.0,0.0,0.0,0.0,0.0
155,3179865,0,,,,,,,,,,,,,,,,,,,,,,,,,,,,,,,,,,0,0,0,0,0,0,0,0,0,0,0,0,0,0,0,0,,,,,,,,,,,
156,3179885,0,0.0,183.01,,-0.01,-0.05,0.92,0.0,0.0,0.0,0.92,1.35,69.0,4709.0,4.0,3.24,,11.48,0.857,86.2,,56.3,5.0,,,,,,,,,,,,0,0,0,0,0,0,0,0,0,0,0,0,0,0,0,0,,,,,0.0,,,,,,
157,3179905,0,,,,,,,,,,,,,,,,,,,,,,,,,,,,,,,,,,0,0,0,0,0,0,0,0,0,0,0,0,0,0,0,0,,,,,,,,,,,
158,3179925,0,0.0,182.88,,0.01,0.08,1.02,0.0,0.0,0.0,1.02,1.35,76.0,4709.0,4.0,3.24,,11.48,0.856,86.2,,55.5,5.0,,,,,,,,,,,,0,0,0,0,0,0,0,0,0,0,0,0,0,0,0,0,,,,,0.0,,,,,,
159,3179945,0,,,,,,,,,,,,,,,,,,,,,,,0.0,0.0,0.0,0.0,0.0,0.0,0.0,0.0,2.28,,,0,0,0,0,0,0,0,0,0,0,0,0,0,0,0,0,0.0,,,,,0.0,0.0,0.0,0.0,0.0,0.0
160,3179965,0,0.0,183.01,,-0.02,0.08,1.02,-1.0,0.0,1.0,1.02,1.35,76.0,4700.0,4.1,3.24,,11.52,0.853,86.2,,55.5,5.0,,,,,,,,,,,,0,0,0,0,0,0,0,0,0,0,0,0,0,0,0,0,,,,,0.0,,,,,,
161,3179985,0,,,,,,,,,,,,,,,,,,,,,,,,,,,,,,,,,,0,0,0,0,0,0,0,0,0,0,0,0,0,0,0,0,,,,,,,,,,,
162,3180005,0,0.0,183.01,,-0.04,-0.07,0.94,-1.0,0.0,0.0,0.94,1.35,70.0,4702.0,4.3,3.24,,11.54,0.869,86.2,,55.5,5.0,,,,,,,,,,,,0,0,0,0,0,0,0,0,0,0,0,0,0,0,0,0,,,,,0.0,,,,,,
163,3180025,0,,,,,,,,,,,,,,,,,,,,,,,,,,,,,,,,,,0,0,0,0,0,0,0,0,0,0,0,0,0,0,0,0,,,,,,,,,,,
164,3180045,0,0.0,182.88,,-0.01,-0.06,0.94,0.0,0.0,0.0,0.94,1.35,70.0,4687.0,4.5,3.23,,11.57,0.866,86.2,,55.3,5.0,0.0,0.0,0.0,0.0,0.0,0.0,0.0,0.0,2.27,,,0,0,0,0,0,0,0,0,0,0,0,0,0,0,0,0,0.0,,,,0.0,0.0,0.0,0.0,0.0,0.0,0.0
165,3180065,0,,,,,,,,,,,,,,,,,,,,,,,,,,,,,,,,,,0,0,0,0,0,0,0,0,0,0,0,0,0,0,0,0,,,,,,,,,,,
166,3180085,0,0.0,182.88,,-0.01,0.09,1.04,0.0,0.0,0.0,1.04,1.35,77.0,4679.0,4.6,3.22,,11.57,0.866,86.2,,55.3,5.0,,,,,,,,,,,,0,0,0,0,0,0,0,0,0,0,0,0,0,0,0,0,,,,,0.0,,,,,,
167,3180105,0,,,,,,,,,,,,,,,,,,,,,,,,,,,,,,,,,,0,0,0,0,0,0,0,0,0,0,0,0,0,0,0,0,,,,,,,,,,,
168,3180125,0,0.0,182.88,,-0.04,0.13,1.03,-1.0,0.0,1.0,1.04,1.35,77.0,4679.0,4.6,3.22,,11.53,0.859,86.2,,55.5,5.0,,,,,,,,,,,,0,0,0,0,0,0,0,0,0,0,0,0,0,0,0,0,,,,,0.0,,,,,,
169,3180145,0,,,,,,,,,,,,,,,,,,,,,,,0.0,0.0,0.0,0.0,0.0,0.0,0.0,0.0,2.27,,,0,0,0,0,0,0,0,0,0,0,0,0,0,0,0,0,0.0,,,,,0.0,0.0,0.0,0.0,0.0,0.0
170,3180165,0,0.0,183.01,,-0.04,0.03,0.95,-1.0,0.0,0.0,0.95,1.35,70.0,4690.0,4.6,3.25,,11.54,0.859,86.2,,55.5,5.0,,,,,,,,,,,,0,0,0,0,0,0,0,0,0,0,0,0,0,0,0,0,,,,,0.0,,,,,,
171,3180185,0,,,,,,,,,,,,,,,,,,,,,,,,,,,,,,,,,,0,0,0,0,0,0,0,0,0,0,0,0,0,0,0,0,,,,,,,,,,,
172,3180205,0,0.0,183.01,,-0.02,0.07,0.99,0.0,0.0,0.0,0.99,1.35,74.0,4725.0,4.5,3.24,,11.61,0.861,86.2,,55.5,5.0,,,,,,,,,,,,0,0,0,0,0,0,0,0,0,0,0,0,0,0,0,0,,,,,0.0,,,,,,
173,3180225,0,,,,,,,,,,,,,,,,,,,,,,,,,,,,,,,,,,0,0,0,0,0,0,0,0,0,0,0,0,0,0,0,0,,,,,,,,,,,
174,3180245,0,0.0,183.01,,-0.04,0.16,1.04,0.0,0.0,0.0,1.05,1.35,78.0,4697.0,4.5,3.24,,11.58,0.856,86.2,,55.7,5.0,0.0,0.0,0.0,0.0,0.0,0.0,0.0,0.0,2.27,,,0,0,0,0,0,0,0,0,0,0,0,0,0,0,0,0,0.0,,,,0.0,0.0,0.0,0.0,0.0,0.0,0.0
175,3180265,0,,,,,,,,,,,,,,,,,,,,,,,,,,,,,,,,,,0,0,0,0,0,0,0,0,0,0,0,0,0,0,0,0,,,,,,,,,,,
176,3180285,0,0.0,183.01,,-0.04,0.03,0.97,0.0,0.0,0.0,0.97,1.35,72.0,4730.0,4.2,3.26,,11.58,0.856,86.2,,55.7,5.0,,,,,,,,,,,,0,0,0,0,0,0,0,0,0,0,0,0,0,0,0,0,,,,,0.0,,,,,,
177,3180305,0,,,,,,,,,,,,,,,,,,,,,,,,,,,,,,,,,,0,0,0,0,0,0,0,0,0,0,0,0,0,0,0,0,,,,,,,,,,,
178,3180325,0,0.0,183.01,,-0.02,-0.01,0.98,0.0,0.0,0.0,0.98,1.35,73.0,4730.0,4.2,3.26,,11.58,0.854,86.2,,56.9,5.0,,,,,,,,,,,,0,0,0,0,0,0,0,0,0,0,0,0,0,0,0,0,,,,,0.0,,,,,,
179,3180345,0,,,,,,,,,,,,,,,,,,,,,,,0.0,0.0,0.0,0.0,0.0,0.0,0.0,0.0,2.28,,,0,0,0,0,0,0,0,0,0,0,0,0,0,0,0,0,0.0,,,,,0.0,0.0,0.0,0.0,0.0,0.0
180,3180365,0,0.0,183.01,,-0.03,0.1,1.04,-1.0,0.0,1.0,1.05,1.35,78.0,4751.0,4.0,3.25,,11.57,0.85,86.2,,56.9,5.0,,,,,,,,,,,,0,0,0,0,0,0,0,0,0,0,0,0,0,0,0,0,,,,,0.0,,,,,,
181,3180385,0,,,,,,,,,,,,,,,,,,,,,,,,,,,,,,,,,,0,0,0,0,0,0,0,0,0,0,0,0,0,0,0,0,,,,,,,,,,,
182,3180405,0,0.0,183.01,,-0.04,-0.02,0.99,0.0,0.0,0.0,0.99,1.35,73.0,4775.0,4.0,3.17,,11.57,0.846,86.2,,56.9,5.0,,,,,,,,,,,,0,0,0,0,0,0,0,0,0,0,0,0,0,0,0,0,,,,,0.0,,,,,,
183,3180425,0,,,,,,,,,,,,,,,,,,,,,,,,,,,,,,,,,,0,0,0,0,0,0,0,0,0,0,0,0,0,0,0,0,,,,,,,,,,,
184,3180445,0,0.0,183.01,,-0.03,0.1,1.07,-1.0,0.0,1.0,1.07,1.35,80.0,4812.0,3.9,3.18,,11.58,0.843,86.2,,57.4,5.0,0.0,0.0,0.0,0.0,0.0,0.0,0.0,0.0,2.28,,,0,0,0,0,0,0,0,0,0,0,0,0,0,0,0,0,0.0,,,,0.0,0.0,0.0,0.0,0.0,0.0,0.0
185,3180465,0,,,,,,,,,,,,,,,,,,,,,,,,,,,,,,,,,,0,0,0,0,0,0,0,0,0,0,0,0,0,0,0,0,,,,,,,,,,,
186,3180485,0,0.0,183.01,,-0.05,0.03,1.01,-1.0,0.0,1.0,1.01,1.35,75.0,4810.0,4.2,3.18,,11.58,0.843,86.2,,57.4,5.0,,,,,,,,,,,,0,0,0,0,0,0,0,0,0,0,0,0,0,0,0,0,,,,,0.0,,,,,,
187,3180505,0,,,,,,,,,,,,,,,,,,,,,,,,,,,,,,,,,,0,0,0,0,0,0,0,0,0,0,0,0,0,0,0,0,,,,,,,,,,,
188,3180525,0,0.0,182.88,,-0.03,0.04,1.04,0.0,0.0,0.0,1.04,1.35,77.0,4810.0,4.2,3.18,,11.54,0.84,86.2,,57.2,5.0,,,,,,,,,,,,0,0,0,0,0,0,0,0,0,0,0,0,0,0,0,0,,,,,0.0,,,,,,
189,3180545,0,,,,,,,,,,,,,,,,,,,,,,,0.0,0.0,0.0,0.0,0.0,0.0,0.0,0.0,2.26,,,0,0,0,0,0,0,0,0,0,0,0,0,0,0,0,0,0.0,,,,,0.0,0.0,0.0,0.0,0.0,0.0
190,3180565,0,0.0,183.01,,-0.04,0.07,1.04,-1.0,0.0,1.0,1.04,1.35,77.0,4840.0,4.4,3.18,,11.58,0.84,86.2,,57.2,5.0,,,,,,,,,,,,0,0,0,0,0,0,0,0,0,0,0,0,0,0,0,0,,,,,0.0,,,,,,
191,3180585,0,,,,,,,,,,,,,,,,,,,,,,,,,,,,,,,,,,0,0,0,0,0,0,0,0,0,0,0,0,0,0,0,0,,,,,,,,,,,
192,3180605,0,0.0,183.01,,-0.03,0.03,1.03,0.0,0.0,0.0,1.03,1.35,76.0,4845.0,4.6,3.17,,11.53,0.836,86.2,,57.2,5.0,,,,,,,,,,,,0,0,0,0,0,0,0,0,0,0,0,0,0,0,0,0,,,,,0.0,,,,,,
193,3180625,0,,,,,,,,,,,,,,,,,,,,,,,,,,,,,,,,,,0,0,0,0,0,0,0,0,0,0,0,0,0,0,0,0,,,,,,,,,,,
194,3180645,0,0.0,182.88,,-0.04,0.12,1.06,-1.0,0.0,1.0,1.07,1.35,79.0,4823.0,4.6,3.06,,11.52,0.836,86.2,,57.5,5.0,0.0,0.0,0.0,0.0,0.0,0.0,0.0,0.0,2.26,,,0,0,0,0,0,0,0,0,0,0,0,0,0,0,0,0,0.0,,,,0.0,0.0,0.0,0.0,0.0,0.0,0.0
195,3180665,0,,,,,,,,,,,,,,,,,,,,,,,,,,,,,,,,,,0,0,0,0,0,0,0,0,0,0,0,0,0,0,0,0,,,,,,,,,,,
196,3180685,0,0.0,183.01,,-0.04,-0.03,0.98,0.0,0.0,0.0,0.98,1.35,73.0,4823.0,4.6,3.06,,11.52,0.836,86.2,,57.5,5.0,,,,,,,,,,,,0,0,0,0,0,0,0,0,0,0,0,0,0,0,0,0,,,,,0.0,,,,,,
197,3180705,0,,,,,,,,,,,,,,,,,,,,,,,,,,,,,,,,,,0,0,0,0,0,0,0,0,0,0,0,0,0,0,0,0,,,,,,,,,,,
198,3180725,0,0.0,182.88,,-0.05,0.07,1.03,-1.0,0.0,1.0,1.04,1.35,77.0,4843.0,4.6,3.04,,11.53,0.841,86.2,,57.5,5.0,,,,,,,,,,,,0,0,0,0,0,0,0,0,0,0,0,0,0,0,0,0,,,,,0.0,,,,,,
199,3180745,0,,,,,,,,,,,,,,,,,,,,,,,0.0,0.0,0.0,0.0,0.0,0.0,0.0,0.0,2.27,,,0,0,0,0,0,0,0,0,0,0,0,0,0,0,0,0,0.0,,,,,0.0,0.0,0.0,0.0,0.0,0.0
200,3180765,0,0.0,182.88,,-0.05,-0.06,0.96,0.0,0.0,0.0,0.96,1.35,71.0,4826.0,4.6,3.04,,11.52,0.844,86.2,,57.5,5.0,,,,,,,,,,,,0,0,0,0,0,0,0,0,0,0,0,0,0,0,0,0,,,,,0.0,,,,,,
201,3180785,0,,,,,,,,,,,,,,,,,,,,,,,,,,,,,,,,,,0,0,0,0,0,0,0,0,0,0,0,0,0,0,0,0,,,,,,,,,,,
202,3180805,0,0.0,182.88,,-0.04,0.03,1.03,0.0,0.0,0.0,1.03,1.35,77.0,4811.0,4.3,3.07,,11.5,0.848,86.2,,57.5,5.0,,,,,,,,,,,,0,0,0,0,0,0,0,0,0,0,0,0,0,0,0,0,,,,,0.0,,,,,,
203,3180825,0,,,,,,,,,,,,,,,,,,,,,,,,,,,,,,,,,,0,0,0,0,0,0,0,0,0,0,0,0,0,0,0,0,,,,,,,,,,,
204,3180845,0,0.0,182.88,13.97,-0.06,-0.0,0.98,-1.0,0.0,1.0,0.98,1.35,73.0,4847.0,4.1,3.09,15.0,11.52,0.846,86.2,153.0,56.3,5.0,0.0,0.0,0.0,0.0,0.0,0.0,0.0,0.0,2.28,0.0,1.0,0,0,0,0,0,0,0,0,0,0,0,0,0,0,0,0,0.0,0.0,0.0,0.0,0.0,0.0,0.0,0.0,0.0,0.0,0.0
205,3180865,0,,,,,,,,,,,,,,,,,,,,,,,,,,,,,,,,,,0,0,0,0,0,0,0,0,0,0,0,0,0,0,0,0,,,,,,,,,,,
206,3180885,0,0.0,182.88,,-0.03,-0.04,0.97,0.0,0.0,0.0,0.97,1.35,72.0,4847.0,4.1,3.09,,11.52,0.846,86.2,,56.3,5.0,,,,,,,,,,,,0,0,0,0,0,0,0,0,0,0,0,0,0,0,0,0,,,,,0.0,,,,,,
207,3180905,0,,,,,,,,,,,,,,,,,,,,,,,,,,,,,,,,,,0,0,0,0,0,0,0,0,0,0,0,0,0,0,0,0,,,,,,,,,,,
208,3180925,0,0.0,182.76,,-0.04,0.02,0.98,-1.0,0.0,1.0,0.99,1.35,73.0,4831.0,4.1,3.09,,11.48,0.849,86.2,,56.6,5.0,,,,,,,,,,,,0,0,0,0,0,0,0,0,0,0,0,0,0,0,0,0,,,,,0.0,,,,,,
209,3180945,0,,,,,,,,,,,,,,,,,,,,,,,0.0,0.0,0.0,0.0,0.0,0.0,0.0,0.0,2.28,,,0,0,0,0,0,0,0,0,0,0,0,0,0,0,0,0,0.0,,,,,0.0,0.0,0.0,0.0,0.0,0.0
210,3180965,0,0.0,182.88,,-0.03,-0.08,0.92,-1.0,0.0,0.0,0.93,1.35,69.0,4846.0,6.4,3.0,,11.65,0.86,86.2,,56.6,5.0,,,,,,,,,,,,0,0,0,0,0,0,0,0,0,0,0,0,0,0,0,0,,,,,0.0,,,,,,
211,3180985,0,,,,,,,,,,,,,,,,,,,,,,,,,,,,,,,,,,0,0,0,0,0,0,0,0,0,0,0,0,0,0,0,0,,,,,,,,,,,
212,3181005,0,0.0,182.88,,-0.04,0.06,0.98,-1.0,0.0,1.0,0.99,1.35,73.0,4860.0,9.2,2.99,,11.95,0.872,86.2,,56.6,5.0,,,,,,,,,,,,0,0,0,0,0,0,0,0,0,0,0,0,0,0,0,0,,,,,0.0,,,,,,
213,3181025,0,,,,,,,,,,,,,,,,,,,,,,,,,,,,,,,,,,0,0,0,0,0,0,0,0,0,0,0,0,0,0,0,0,,,,,,,,,,,
214,3181045,0,0.0,182.76,,-0.04,-0.06,0.93,-1.0,0.0,0.0,0.93,1.35,69.0,4854.0,9.6,3.02,,12.17,0.866,86.2,,56.8,5.0,0.0,0.0,0.0,0.0,0.0,0.0,0.0,0.0,2.26,,,0,0,0,0,0,0,0,0,0,0,0,0,0,0,0,0,0.0,,,,0.0,0.0,0.0,0.0,0.0,0.0,0.0
215,3181065,0,,,,,,,,,,,,,,,,,,,,,,,,,,,,,,,,,,0,0,0,0,0,0,0,0,0,0,0,0,0,0,0,0,,,,,,,,,,,
216,3181085,0,0.0,182.76,,-0.04,-0.0,1.01,-1.0,0.0,0.0,1.01,1.35,75.0,4803.0,5.7,2.91,,12.17,0.866,86.2,,56.8,5.0,,,,,,,,,,,,0,0,0,0,0,0,0,0,0,0,0,0,0,0,0,0,,,,,0.0,,,,,,
217,3181105,0,,,,,,,,,,,,,,,,,,,,,,,,,,,,,,,,,,0,0,0,0,0,0,0,0,0,0,0,0,0,0,0,0,,,,,,,,,,,
218,3181125,0,0.0,182.76,,-0.05,-0.07,0.96,-1.0,0.0,0.0,0.97,1.35,72.0,4803.0,5.7,2.91,,12.08,0.871,86.2,,56.4,5.0,,,,,,,,,,,,0,0,0,0,0,0,0,0,0,0,0,0,0,0,0,0,,,,,0.0,,,,,,
219,3181145,0,,,,,,,,,,,,,,,,,,,,,,,0.0,0.0,0.0,0.0,0.0,0.0,0.0,0.0,2.26,,,0,0,0,0,0,0,0,0,0,0,0,0,0,0,0,0,0.0,,,,,0.0,0.0,0.0,0.0,0.0,0.0
220,3181165,0,0.0,182.88,,-0.04,-0.06,0.99,0.0,0.0,0.0,1.0,1.35,74.0,4820.0,2.0,2.44,,11.75,0.897,86.2,,56.4,5.0,,,,,,,,,,,,0,0,0,0,0,0,0,0,0,0,0,0,0,0,0,0,,,,,0.0,,,,,,
221,3181185,0,,,,,,,,,,,,,,,,,,,,,,,,,,,,,,,,,,0,0,0,0,0,0,0,0,0,0,0,0,0,0,0,0,,,,,,,,,,,
222,3181205,0,0.0,182.88,,-0.04,0.02,1.02,-1.0,0.0,1.0,1.02,1.35,76.0,4785.0,1.0,2.18,,11.42,0.922,86.2,,56.4,5.0,,,,,,,,,,,,0,0,0,0,0,0,0,0,0,0,0,0,0,0,0,0,,,,,0.0,,,,,,
223,3181225,0,,,,,,,,,,,,,,,,,,,,,,,,,,,,,,,,,,0,0,0,0,0,0,0,0,0,0,0,0,0,0,0,0,,,,,,,,,,,
224,3181245,0,0.0,182.88,,-0.06,-0.11,0.96,-1.0,0.0,1.0,0.97,1.35,72.0,4627.0,1.1,2.19,,11.26,0.926,86.2,,56.1,5.0,0.0,0.0,0.0,0.0,0.0,0.0,0.0,0.0,2.27,,,0,0,0,0,0,0,0,0,0,0,0,0,0,0,0,0,0.0,,,,0.0,0.0,0.0,0.0,0.0,0.0,0.0
225,3181265,0,,,,,,,,,,,,,,,,,,,,,,,,,,,,,,,,,,0,0,0,0,0,0,0,0,0,0,0,0,0,0,0,0,,,,,,,,,,,
226,3181285,0,0.0,182.76,,-0.07,-0.26,0.87,-1.0,0.0,0.0,0.91,1.35,67.0,4521.0,3.7,2.64,,11.26,0.926,86.2,,56.1,5.0,,,,,,,,,,,,0,0,0,0,0,0,0,0,0,0,0,0,0,0,0,0,,,,,0.0,,,,,,
227,3181305,0,,,,,,,,,,,,,,,,,,,,,,,,,,,,,,,,,,0,0,0,0,0,0,0,0,0,0,0,0,0,0,0,0,,,,,,,,,,,
228,3181325,0,0.0,182.88,,-0.11,-0.36,0.81,-1.0,0.0,0.0,0.9,1.35,66.0,4521.0,3.7,2.64,,11.34,0.925,86.2,,52.1,5.0,,,,,,,,,,,,0,0,0,0,0,0,0,0,0,0,0,0,0,0,0,0,,,,,0.0,,,,,,
229,3181345,0,,,,,,,,,,,,,,,,,,,,,,,0.0,0.0,0.0,0.0,0.0,0.0,0.0,0.0,2.27,,,0,0,0,0,0,0,0,0,0,0,0,0,0,0,0,0,0.0,,,,,0.0,0.0,0.0,0.0,0.0,0.0
230,3181365,0,0.0,182.76,,-0.14,-0.34,0.86,-2.0,0.0,0.0,0.93,1.35,69.0,4374.0,11.5,3.04,,11.97,0.972,86.2,,52.1,5.0,,,,,,,,,,,,0,0,0,0,0,0,0,0,0,0,0,0,0,0,0,0,,,,,0.0,,,,,,
231,3181385,0,,,,,,,,,,,,,,,,,,,,,,,,,,,,,,,,,,0,0,0,0,0,0,0,0,0,0,0,0,0,0,0,0,,,,,,,,,,,
232,3181405,0,0.0,182.76,,-0.14,-0.21,0.98,-2.0,0.0,1.0,1.01,1.35,75.0,4348.0,15.8,3.19,,12.71,1.028,86.2,,52.1,5.0,,,,,,,,,,,,0,0,0,0,0,0,0,0,0,0,0,0,0,0,0,0,,,,,0.0,,,,,,
233,3181425,0,,,,,,,,,,,,,,,,,,,,,,,,,,,,,,,,,,0,0,0,0,0,0,0,0,0,0,0,0,0,0,0,0,,,,,,,,,,,
234,3181445,0,0.0,182.76,,-0.08,-0.16,0.96,-2.0,0.0,0.0,0.98,1.35,73.0,4271.0,16.2,3.18,,13.11,1.063,86.2,,49.9,5.0,0.0,0.0,0.0,0.0,0.0,0.0,0.0,0.0,2.27,,,0,0,0,0,0,0,0,0,0,0,0,0,0,0,0,0,0.0,,,,0.0,0.0,0.0,0.0,0.0,0.0,0.0
235,3181465,0,,,,,,,,,,,,,,,,,,,,,,,,,,,,,,,,,,0,0,0,0,0,0,0,0,0,0,0,0,0,0,0,0,,,,,,,,,,,
236,3181485,0,0.0,182.88,,-0.1,-0.2,0.92,-2.0,0.0,1.0,0.95,1.35,70.0,4129.0,14.3,3.14,,13.11,1.063,86.2,,49.9,5.0,,,,,,,,,,,,0,0,0,0,0,0,0,0,0,0,0,0,0,0,0,0,,,,,0.0,,,,,,
237,3181505,0,,,,,,,,,,,,,,,,,,,,,,,,,,,,,,,,,,0,0,0,0,0,0,0,0,0,0,0,0,0,0,0,0,,,,,,,,,,,
238,3181525,0,0.0,182.76,,-0.07,-0.14,0.94,-1.0,0.0,0.0,0.96,1.35,71.0,4129.0,14.3,3.14,,13.19,1.058,86.2,,51.0,5.0,,,,,,,,,,,,0,0,0,0,0,0,0,0,0,0,0,0,0,0,0,0,,,,,0.0,,,,,,
239,3181545,0,,,,,,,,,,,,,,,,,,,,,,,0.0,0.0,0.0,0.0,0.0,0.0,0.0,0.0,2.26,,,0,0,0,0,0,0,0,0,0,0,0,0,0,0,0,0,0.0,,,,,0.0,0.0,0.0,0.0,0.0,0.0
240,3181565,0,0.0,182.76,,-0.06,-0.05,1.02,-1.0,0.0,1.0,1.02,1.35,76.0,3961.0,9.8,3.07,,13.08,1.084,86.2,,51.0,5.0,,,,,,,,,,,,0,0,0,0,0,0,0,0,0,0,0,0,0,0,0,0,,,,,0.0,,,,,,
241,3181585,0,,,,,,,,,,,,,,,,,,,,,,,,,,,,,,,,,,0,0,0,0,0,0,0,0,0,0,0,0,0,0,0,0,,,,,,,,,,,
242,3181605,0,0.0,182.76,,-0.05,-0.08,1.01,-2.0,0.0,1.0,1.01,1.35,75.0,3923.0,7.0,2.99,,12.92,1.171,86.2,,51.0,5.0,,,,,,,,,,,,0,0,0,0,0,0,0,0,0,0,0,0,0,0,0,0,,,,,0.0,,,,,,
243,3181625,0,,,,,,,,,,,,,,,,,,,,,,,,,,,,,,,,,,0,0,0,0,0,0,0,0,0,0,0,0,0,0,0,0,,,,,,,,,,,
244,3181645,0,0.0,182.88,,-0.06,-0.09,0.98,-1.0,0.0,0.0,0.99,1.35,73.0,3816.0,5.9,3.22,,12.75,1.249,86.2,,51.1,5.0,0.0,0.0,0.0,0.0,0.0,0.0,0.0,0.0,2.26,,,0,0,0,0,0,0,0,0,0,0,0,0,0,0,0,0,0.0,,,,0.0,0.0,0.0,0.0,0.0,0.0,0.0
245,3181665,0,,,,,,,,,,,,,,,,,,,,,,,,,,,,,,,,,,0,0,0,0,0,0,0,0,0,0,0,0,0,0,0,0,,,,,,,,,,,
246,3181685,0,0.0,182.88,,-0.07,-0.1,0.97,-1.0,0.0,0.0,0.98,1.35,73.0,3816.0,5.9,3.22,,12.75,1.249,86.2,,51.1,5.0,,,,,,,,,,,,0,0,0,0,0,0,0,0,0,0,0,0,0,0,0,0,,,,,0.0,,,,,,
247,3181705,0,,,,,,,,,,,,,,,,,,,,,,,,,,,,,,,,,,0,0,0,0,0,0,0,0,0,0,0,0,0,0,0,0,,,,,,,,,,,
248,3181725,0,0.0,182.88,,-0.08,-0.05,0.99,-1.0,0.0,0.0,1.0,1.35,74.0,3761.0,6.6,3.25,,12.73,1.229,86.2,,50.5,5.0,,,,,,,,,,,,0,0,0,0,0,0,0,0,0,0,0,0,0,0,0,0,,,,,0.0,,,,,,
249,3181745,0,,,,,,,,,,,,,,,,,,,,,,,0.0,0.0,0.0,0.0,0.0,0.0,0.0,0.0,2.27,,,0,0,0,0,0,0,0,0,0,0,0,0,0,0,0,0,0.0,,,,,0.0,0.0,0.0,0.0,0.0,0.0
250,3181765,0,0.0,182.76,,-0.06,-0.01,0.96,-1.0,0.0,0.0,0.97,1.35,72.0,3597.0,13.0,3.47,,13.08,1.226,86.2,,50.5,5.0,,,,,,,,,,,,0,0,0,0,0,0,0,0,0,0,0,0,0,0,0,0,,,,,0.0,,,,,,
251,3181785,0,,,,,,,,,,,,,,,,,,,,,,,,,,,,,,,,,,0,0,0,0,0,0,0,0,0,0,0,0,0,0,0,0,,,,,,,,,,,
252,3181805,0,0.0,182.76,,-0.08,-0.14,0.97,0.0,0.0,0.0,0.98,1.35,73.0,3489.0,17.7,3.63,,13.67,1.205,86.2,,50.5,5.0,,,,,,,,,,,,0,0,0,0,0,0,0,0,0,0,0,0,0,0,0,0,,,,,0.0,,,,,,
253,3181825,0,,,,,,,,,,,,,,,,,,,,,,,,,,,,,,,,,,0,0,0,0,0,0,0,0,0,0,0,0,0,0,0,0,,,,,,,,,,,
254,3181845,0,0.0,182.76,13.9,-0.08,-0.1,1.0,-1.0,0.0,0.0,1.01,1.35,75.0,3461.0,19.0,3.76,15.0,13.88,1.215,86.2,155.0,48.9,5.0,0.0,0.0,0.0,0.0,0.0,0.0,0.0,0.0,2.28,0.0,1.0,0,0,0,0,0,0,0,0,0,0,0,0,0,0,0,0,0.0,0.0,0.0,0.0,0.0,0.0,0.0,0.0,0.0,0.0,0.0
255,3181865,0,,,,,,,,,,,,,,,,,,,,,,,,,,,,,,,,,,0,0,0,0,0,0,0,0,0,0,0,0,0,0,0,0,,,,,,,,,,,
256,3181885,0,0.0,182.76,,-0.07,-0.1,0.99,-1.0,0.0,0.0,0.99,1.35,74.0,3461.0,19.0,3.76,,13.88,1.215,86.2,,48.9,5.0,,,,,,,,,,,,0,0,0,0,0,0,0,0,0,0,0,0,0,0,0,0,,,,,0.0,,,,,,
257,3181905,0,,,,,,,,,,,,,,,,,,,,,,,,,,,,,,,,,,0,0,0,0,0,0,0,0,0,0,0,0,0,0,0,0,,,,,,,,,,,
258,3181925,0,0.0,182.76,,-0.08,-0.06,1.01,-1.0,0.0,0.0,1.01,1.35,75.0,3747.0,18.9,4.0,,13.88,1.248,86.2,,51.4,5.0,,,,,,,,,,,,0,0,0,0,0,0,0,0,0,0,0,0,0,0,0,0,,,,,0.0,,,,,,
259,3181945,0,,,,,,,,,,,,,,,,,,,,,,,0.0,0.0,0.0,0.0,0.0,0.0,0.0,0.0,2.28,,,0,0,0,0,0,0,0,0,0,0,0,0,0,0,0,0,0.0,,,,,0.0,0.0,0.0,0.0,0.0,0.0
260,3181965,0,0.0,182.88,,-0.06,-0.02,1.01,-1.0,0.0,0.0,1.01,1.35,75.0,3662.0,16.1,3.86,,13.67,1.251,86.2,,51.4,5.0,,,,,,,,,,,,0,0,0,0,0,0,0,0,0,0,0,0,0,0,0,0,,,,,0.0,,,,,,
261,3181985,0,,,,,,,,,,,,,,,,,,,,,,,,,,,,,,,,,,0,0,0,0,0,0,0,0,0,0,0,0,0,0,0,0,,,,,,,,,,,
262,3182005,0,0.0,182.76,,-0.04,-0.02,1.0,0.0,0.0,0.0,1.0,1.35,74.0,3712.0,12.4,3.79,,13.53,1.194,86.2,,51.4,5.0,,,,,,,,,,,,0,0,0,0,0,0,0,0,0,0,0,0,0,0,0,0,,,,,0.0,,,,,,
263,3182025,0,,,,,,,,,,,,,,,,,,,,,,,,,,,,,,,,,,0,0,0,0,0,0,0,0,0,0,0,0,0,0,0,0,,,,,,,,,,,
264,3182045,0,0.0,182.76,,-0.05,-0.02,1.02,0.0,0.0,0.0,1.02,1.35,76.0,3755.0,9.3,3.69,,13.45,1.168,86.2,,51.3,5.0,0.0,0.0,0.0,0.0,0.0,0.0,0.0,0.0,2.27,,,0,0,0,0,0,0,0,0,0,0,0,0,0,0,0,0,0.0,,,,0.0,0.0,0.0,0.0,0.0,0.0,0.0
265,3182065,0,,,,,,,,,,,,,,,,,,,,,,,,,,,,,,,,,,0,0,0,0,0,0,0,0,0,0,0,0,0,0,0,0,,,,,,,,,,,
266,3182085,0,0.0,182.88,,-0.05,-0.03,1.03,0.0,0.0,0.0,1.03,1.35,76.0,3760.0,6.8,3.59,,13.45,1.168,86.2,,51.3,5.0,,,,,,,,,,,,0,0,0,0,0,0,0,0,0,0,0,0,0,0,0,0,,,,,0.0,,,,,,
267,3182105,0,,,,,,,,,,,,,,,,,,,,,,,,,,,,,,,,,,0,0,0,0,0,0,0,0,0,0,0,0,0,0,0,0,,,,,,,,,,,
268,3182125,0,0.0,182.76,,-0.05,-0.03,0.99,0.0,0.0,0.0,0.99,1.35,74.0,3760.0,6.8,3.59,,13.12,1.166,86.2,,52.3,5.0,,,,,,,,,,,,0,0,0,0,0,0,0,0,0,0,0,0,0,0,0,0,,,,,0.0,,,,,,
269,3182145,0,,,,,,,,,,,,,,,,,,,,,,,0.0,0.0,0.0,0.0,0.0,0.0,0.0,0.0,2.26,,,0,0,0,0,0,0,0,0,0,0,0,0,0,0,0,0,0.0,,,,,0.0,0.0,0.0,0.0,0.0,0.0
270,3182165,0,0.0,182.88,,-0.07,-0.06,0.98,1.0,0.0,0.0,0.99,1.35,73.0,3655.0,6.6,3.57,,12.97,1.107,86.2,,52.3,5.0,,,,,,,,,,,,0,0,0,0,0,0,0,0,0,0,0,0,0,0,0,0,,,,,0.0,,,,,,
271,3182185,0,,,,,,,,,,,,,,,,,,,,,,,,,,,,,,,,,,0,0,0,0,0,0,0,0,0,0,0,0,0,0,0,0,,,,,,,,,,,
272,3182205,0,0.0,182.88,,-0.07,-0.08,1.02,0.0,0.0,0.0,1.03,1.35,76.0,3601.0,9.3,3.34,,13.09,1.106,86.2,,52.3,5.0,,,,,,,,,,,,0,0,0,0,0,0,0,0,0,0,0,0,0,0,0,0,,,,,0.0,,,,,,
273,3182225,0,,,,,,,,,,,,,,,,,,,,,,,,,,,,,,,,,,0,0,0,0,0,0,0,0,0,0,0,0,0,0,0,0,,,,,,,,,,,
274,3182245,0,0.0,182.88,,-0.03,0.02,1.01,0.0,0.0,0.0,1.01,1.35,75.0,3478.0,15.6,3.52,,13.49,1.119,86.2,,49.9,5.0,0.0,0.0,0.0,0.0,0.0,0.0,0.0,0.0,2.27,,,0,0,0,0,0,0,0,0,0,0,0,0,0,0,0,0,0.0,,,,0.0,0.0,0.0,0.0,0.0,0.0,0.0
275,3182265,0,,,,,,,,,,,,,,,,,,,,,,,,,,,,,,,,,,0,0,0,0,0,0,0,0,0,0,0,0,0,0,0,0,,,,,,,,,,,
276,3182285,0,0.0,182.88,,-0.04,-0.06,0.97,0.0,0.0,0.0,0.98,1.35,73.0,3496.0,18.8,3.67,,13.49,1.119,86.2,,49.9,5.0,,,,,,,,,,,,0,0,0,0,0,0,0,0,0,0,0,0,0,0,0,0,,,,,0.0,,,,,,
277,3182305,0,,,,,,,,,,,,,,,,,,,,,,,,,,,,,,,,,,0,0,0,0,0,0,0,0,0,0,0,0,0,0,0,0,,,,,,,,,,,
278,3182325,0,0.0,182.88,,-0.05,-0.11,1.02,0.0,0.0,0.0,1.03,1.35,76.0,3496.0,18.8,3.67,,13.86,1.146,86.2,,47.9,5.0,,,,,,,,,,,,0,0,0,0,0,0,0,0,0,0,0,0,0,0,0,0,,,,,0.0,,,,,,
279,3182345,0,,,,,,,,,,,,,,,,,,,,,,,0.0,0.0,0.0,0.0,0.0,0.0,0.0,0.0,2.28,,,0,0,0,0,0,0,0,0,0,0,0,0,0,0,0,0,0.0,,,,,0.0,0.0,0.0,0.0,0.0,0.0
280,3182365,0,0.0,182.88,,-0.03,-0.06,0.96,0.0,0.0,0.0,0.96,1.35,71.0,3410.0,19.4,3.67,,13.92,1.151,86.2,,47.9,5.0,,,,,,,,,,,,0,0,0,0,0,0,0,0,0,0,0,0,0,0,0,0,,,,,0.0,,,,,,
281,3182385,0,,,,,,,,,,,,,,,,,,,,,,,,,,,,,,,,,,0,0,0,0,0,0,0,0,0,0,0,0,0,0,0,0,,,,,,,,,,,
282,3182405,0,0.0,182.88,,-0.07,-0.13,1.0,0.0,0.0,0.0,1.01,1.35,75.0,3466.0,18.1,3.63,,13.95,1.176,86.2,,47.9,5.0,,,,,,,,,,,,0,0,0,0,0,0,0,0,0,0,0,0,0,0,0,0,,,,,0.0,,,,,,
283,3182425,0,,,,,,,,,,,,,,,,,,,,,,,,,,,,,,,,,,0,0,0,0,0,0,0,0,0,0,0,0,0,0,0,0,,,,,,,,,,,
284,3182445,0,0.0,182.88,,-0.04,-0.0,0.98,0.0,0.0,0.0,0.98,1.35,73.0,3460.0,15.4,3.55,,13.87,1.215,86.2,,47.5,5.0,0.0,0.0,0.0,0.0,0.0,0.0,0.0,0.0,2.27,,,0,0,0,0,0,0,0,0,0,0,0,0,0,0,0,0,0.0,,,,0.0,0.0,0.0,0.0,0.0,0.0,0.0
285,3182465,0,,,,,,,,,,,,,,,,,,,,,,,,,,,,,,,,,,0,0,0,0,0,0,0,0,0,0,0,0,0,0,0,0,,,,,,,,,,,
286,3182485,0,0.0,182.88,,-0.06,-0.12,0.97,1.0,0.0,0.0,0.98,1.35,73.0,3387.0,10.6,3.67,,13.87,1.215,86.2,,47.5,5.0,,,,,,,,,,,,0,0,0,0,0,0,0,0,0,0,0,0,0,0,0,0,,,,,0.0,,,,,,
287,3182505,0,,,,,,,,,,,,,,,,,,,,,,,,,,,,,,,,,,0,0,0,0,0,0,0,0,0,0,0,0,0,0,0,0,,,,,,,,,,,
288,3182525,0,0.0,182.88,,-0.04,-0.08,0.99,0.0,0.0,0.0,1.0,1.35,74.0,3387.0,10.6,3.67,,13.67,1.246,86.2,,47.2,5.0,,,,,,,,,,,,0,0,0,0,0,0,0,0,0,0,0,0,0,0,0,0,,,,,0.0,,,,,,
289,3182545,0,,,,,,,,,,,,,,,,,,,,,,,0.0,0.0,0.0,0.0,0.0,0.0,0.0,0.0,2.27,,,0,0,0,0,0,0,0,0,0,0,0,0,0,0,0,0,0.0,,,,,0.0,0.0,0.0,0.0,0.0,0.0
290,3182565,0,0.0,182.88,,-0.06,-0.1,0.96,1.0,0.0,0.0,0.97,1.35,72.0,3407.0,7.6,3.54,,13.47,1.252,86.2,,47.2,5.0,,,,,,,,,,,,0,0,0,0,0,0,0,0,0,0,0,0,0,0,0,0,,,,,0.0,,,,,,
291,3182585,0,,,,,,,,,,,,,,,,,,,,,,,,,,,,,,,,,,0,0,0,0,0,0,0,0,0,0,0,0,0,0,0,0,,,,,,,,,,,
292,3182605,0,0.0,182.88,,-0.05,-0.04,0.96,0.0,0.0,0.0,0.96,1.35,71.0,3288.0,7.2,3.53,,13.4,1.252,86.2,,47.2,5.0,,,,,,,,,,,,0,0,0,0,0,0,0,0,0,0,0,0,0,0,0,0,,,,,0.0,,,,,,
293,3182625,0,,,,,,,,,,,,,,,,,,,,,,,,,,,,,,,,,,0,0,0,0,0,0,0,0,0,0,0,0,0,0,0,0,,,,,,,,,,,
294,3182645,0,0.0,182.88,,-0.08,-0.12,1.02,0.0,0.0,0.0,1.03,1.35,76.0,3265.0,7.9,3.55,,13.41,1.251,86.2,,45.6,5.0,0.0,0.0,0.0,0.0,0.0,0.0,0.0,0.0,2.26,,,0,0,0,0,0,0,0,0,0,0,0,0,0,0,0,0,0.0,,,,0.0,0.0,0.0,0.0,0.0,0.0,0.0
295,3182665,0,,,,,,,,,,,,,,,,,,,,,,,,,,,,,,,,,,0,0,0,0,0,0,0,0,0,0,0,0,0,0,0,0,,,,,,,,,,,
296,3182685,0,0.0,182.88,,-0.05,-0.06,0.95,0.0,0.0,0.0,0.96,1.35,71.0,3354.0,13.3,3.72,,13.41,1.251,86.2,,45.6,5.0,,,,,,,,,,,,0,0,0,0,0,0,0,0,0,0,0,0,0,0,0,0,,,,,0.0,,,,,,
297,3182705,0,,,,,,,,,,,,,,,,,,,,,,,,,,,,,,,,,,0,0,0,0,0,0,0,0,0,0,0,0,0,0,0,0,,,,,,,,,,,
298,3182725,0,0.0,182.88,,-0.07,-0.13,0.94,1.0,0.0,0.0,0.95,1.35,70.0,3354.0,13.3,3.72,,13.67,1.221,86.2,,48.9,5.0,,,,,,,,,,,,0,0,0,0,0,0,0,0,0,0,0,0,0,0,0,0,,,,,0.0,,,,,,
299,3182745,0,,,,,,,,,,,,,,,,,,,,,,,0.0,0.0,0.0,0.0,0.0,0.0,0.0,0.0,2.27,,,0,0,0,0,0,0,0,0,0,0,0,0,0,0,0,0,0.0,,,,,0.0,0.0,0.0,0.0,0.0,0.0
300,3182765,0,0.0,182.88,,-0.09,-0.11,0.93,1.0,0.0,0.0,0.94,1.35,70.0,3646.0,17.6,3.83,,13.79,1.143,86.2,,48.9,5.0,,,,,,,,,,,,0,0,0,0,0,0,0,0,0,0,0,0,0,0,0,0,,,,,0.0,,,,,,
301,3182785,0,,,,,,,,,,,,,,,,,,,,,,,,,,,,,,,,,,0,0,0,0,0,0,0,0,0,0,0,0,0,0,0,0,,,,,,,,,,,
302,3182805,0,0.0,183.01,,-0.05,-0.04,0.98,0.0,0.0,0.0,0.98,1.35,73.0,3748.0,18.9,4.02,,13.77,1.046,86.2,,48.9,5.0,,,,,,,,,,,,0,0,0,0,0,0,0,0,0,0,0,0,0,0,0,0,,,,,0.0,,,,,,
303,3182825,0,,,,,,,,,,,,,,,,,,,,,,,,,,,,,,,,,,0,0,0,0,0,0,0,0,0,0,0,0,0,0,0,0,,,,,,,,,,,
304,3182845,0,0.0,183.01,13.96,-0.04,0.01,1.02,-1.0,0.0,1.0,1.02,1.35,76.0,3934.0,17.8,3.93,15.0,13.77,1.046,86.2,155.0,54.0,5.0,0.0,0.0,0.0,0.0,0.0,0.0,0.0,0.0,2.28,0.0,1.0,0,0,0,0,0,0,0,0,0,0,0,0,0,0,0,0,0.0,0.0,0.0,0.0,0.0,0.0,0.0,0.0,0.0,0.0,0.0
305,3182865,0,,,,,,,,,,,,,,,,,,,,,,,,,,,,,,,,,,0,0,0,0,0,0,0,0,0,0,0,0,0,0,0,0,,,,,,,,,,,
306,3182885,0,0.0,183.01,,-0.05,-0.1,0.94,0.0,0.0,0.0,0.95,1.35,70.0,4061.0,14.2,3.82,,13.71,1.007,86.2,,54.0,5.0,,,,,,,,,,,,0,0,0,0,0,0,0,0,0,0,0,0,0,0,0,0,,,,,0.0,,,,,,
307,3182905,0,,,,,,,,,,,,,,,,,,,,,,,,,,,,,,,,,,0,0,0,0,0,0,0,0,0,0,0,0,0,0,0,0,,,,,,,,,,,
308,3182925,0,0.0,183.01,,-0.03,0.06,1.05,-1.0,0.0,1.0,1.05,1.35,78.0,4061.0,14.2,3.82,,13.59,1.06,86.2,,58.7,5.0,,,,,,,,,,,,0,0,0,0,0,0,0,0,0,0,0,0,0,0,0,0,,,,,0.0,,,,,,
309,3182945,0,,,,,,,,,,,,,,,,,,,,,,,0.0,0.0,0.0,0.0,0.0,0.0,0.0,0.0,2.28,,,0,0,0,0,0,0,0,0,0,0,0,0,0,0,0,0,0.0,,,,,0.0,0.0,0.0,0.0,0.0,0.0
310,3182965,0,0.0,183.01,,-0.03,-0.03,0.99,0.0,0.0,0.0,0.99,1.35,73.0,4186.0,10.7,3.68,,13.2,1.054,86.2,,58.7,5.0,,,,,,,,,,,,0,0,0,0,0,0,0,0,0,0,0,0,0,0,0,0,,,,,0.0,,,,,,
311,3182985,0,,,,,,,,,,,,,,,,,,,,,,,,,,,,,,,,,,0,0,0,0,0,0,0,0,0,0,0,0,0,0,0,0,,,,,,,,,,,
312,3183005,0,0.0,183.01,,-0.05,0.07,1.07,-1.0,0.0,1.0,1.08,1.35,80.0,4156.0,9.1,3.65,,13.03,1.064,86.2,,58.7,5.0,,,,,,,,,,,,0,0,0,0,0,0,0,0,0,0,0,0,0,0,0,0,,,,,0.0,,,,,,
313,3183025,0,,,,,,,,,,,,,,,,,,,,,,,,,,,,,,,,,,0,0,0,0,0,0,0,0,0,0,0,0,0,0,0,0,,,,,,,,,,,
314,3183045,0,0.0,183.01,,-0.05,-0.03,0.98,0.0,0.0,0.0,0.98,1.35,73.0,4063.0,7.5,3.6,,12.81,1.082,86.2,,56.9,5.0,0.0,0.0,0.0,0.0,0.0,0.0,0.0,0.0,2.27,,,0,0,0,0,0,0,0,0,0,0,0,0,0,0,0,0,0.0,,,,0.0,0.0,0.0,0.0,0.0,0.0,0.0
315,3183065,0,,,,,,,,,,,,,,,,,,,,,,,,,,,,,,,,,,0,0,0,0,0,0,0,0,0,0,0,0,0,0,0,0,,,,,,,,,,,
316,3183085,0,0.0,182.88,,-0.05,0.1,1.03,0.0,0.0,0.0,1.03,1.35,77.0,3980.0,5.1,3.45,,12.81,1.082,86.2,,56.9,5.0,,,,,,,,,,,,0,0,0,0,0,0,0,0,0,0,0,0,0,0,0,0,,,,,0.0,,,,,,
317,3183105,0,,,,,,,,,,,,,,,,,,,,,,,,,,,,,,,,,,0,0,0,0,0,0,0,0,0,0,0,0,0,0,0,0,,,,,,,,,,,
318,3183125,0,0.0,182.88,,-0.07,0.06,1.04,-1.0,0.0,1.0,1.05,1.35,78.0,3980.0,5.1,3.45,,12.56,1.124,86.2,,53.6,5.0,,,,,,,,,,,,0,0,0,0,0,0,0,0,0,0,0,0,0,0,0,0,,,,,0.0,,,,,,
319,3183145,0,,,,,,,,,,,,,,,,,,,,,,,0.0,0.0,0.0,0.0,0.0,0.0,0.0,0.0,2.27,,,0,0,0,0,0,0,0,0,0,0,0,0,0,0,0,0,0.0,,,,,0.0,0.0,0.0,0.0,0.0,0.0
320,3183165,0,0.0,182.88,,-0.06,-0.03,0.95,0.0,0.0,0.0,0.95,1.35,71.0,4042.0,4.8,3.41,,12.51,1.15,86.2,,53.6,5.0,,,,,,,,,,,,0,0,0,0,0,0,0,0,0,0,0,0,0,0,0,0,,,,,0.0,,,,,,
321,3183185,0,,,,,,,,,,,,,,,,,,,,,,,,,,,,,,,,,,0,0,0,0,0,0,0,0,0,0,0,0,0,0,0,0,,,,,,,,,,,
322,3183205,0,0.0,182.88,,-0.06,0.1,1.05,-1.0,0.0,1.0,1.05,1.35,78.0,4122.0,5.1,3.44,,12.39,1.144,86.2,,53.6,5.0,,,,,,,,,,,,0,0,0,0,0,0,0,0,0,0,0,0,0,0,0,0,,,,,0.0,,,,,,
323,3183225,0,,,,,,,,,,,,,,,,,,,,,,,,,,,,,,,,,,0,0,0,0,0,0,0,0,0,0,0,0,0,0,0,0,,,,,,,,,,,
324,3183245,0,0.0,182.88,,-0.04,-0.0,0.94,0.0,0.0,0.0,0.94,1.35,70.0,4215.0,11.3,3.61,,12.63,1.061,86.2,,55.8,5.0,0.0,0.0,0.0,0.0,0.0,0.0,0.0,0.0,2.27,,,0,0,0,0,0,0,0,0,0,0,0,0,0,0,0,0,0.0,,,,0.0,0.0,0.0,0.0,0.0,0.0,0.0
325,3183265,0,,,,,,,,,,,,,,,,,,,,,,,,,,,,,,,,,,0,0,0,0,0,0,0,0,0,0,0,0,0,0,0,0,,,,,,,,,,,
326,3183285,0,0.0,182.88,,-0.07,-0.07,0.91,0.0,0.0,0.0,0.92,1.35,68.0,4215.0,11.3,3.61,,12.63,1.061,86.2,,55.8,5.0,,,,,,,,,,,,0,0,0,0,0,0,0,0,0,0,0,0,0,0,0,0,,,,,0.0,,,,,,
327,3183305,0,,,,,,,,,,,,,,,,,,,,,,,,,,,,,,,,,,0,0,0,0,0,0,0,0,0,0,0,0,0,0,0,0,,,,,,,,,,,
328,3183325,0,0.0,182.88,,-0.1,-0.11,0.94,-1.0,0.0,0.0,0.95,1.35,71.0,4366.0,17.5,3.82,,13.25,0.901,86.2,,58.4,5.0,,,,,,,,,,,,0,0,0,0,0,0,0,0,0,0,0,0,0,0,0,0,,,,,0.0,,,,,,
329,3183345,0,,,,,,,,,,,,,,,,,,,,,,,0.0,0.0,0.0,0.0,0.0,0.0,0.0,0.0,2.27,,,0,0,0,0,0,0,0,0,0,0,0,0,0,0,0,0,0.0,,,,,0.0,0.0,0.0,0.0,0.0,0.0
330,3183365,0,0.0,182.88,,-0.13,-0.2,0.92,-2.0,0.0,1.0,0.95,1.35,71.0,4577.0,20.0,3.53,,13.52,0.882,86.2,,58.4,5.0,,,,,,,,,,,,0,0,0,0,0,0,0,0,0,0,0,0,0,0,0,0,,,,,0.0,,,,,,
331,3183385,0,,,,,,,,,,,,,,,,,,,,,,,,,,,,,,,,,,0,0,0,0,0,0,0,0,0,0,0,0,0,0,0,0,,,,,,,,,,,
332,3183405,0,0.0,183.01,,-0.14,-0.34,0.85,-1.0,0.0,0.0,0.92,1.35,68.0,4661.0,19.3,3.54,,13.47,0.916,86.2,,58.4,5.0,,,,,,,,,,,,0,0,0,0,0,0,0,0,0,0,0,0,0,0,0,0,,,,,0.0,,,,,,
333,3183425,0,,,,,,,,,,,,,,,,,,,,,,,,,,,,,,,,,,0,0,0,0,0,0,0,0,0,0,0,0,0,0,0,0,,,,,,,,,,,
334,3183445,0,0.0,183.01,,-0.11,-0.33,0.87,0.0,0.0,0.0,0.94,1.35,70.0,4658.0,11.6,3.24,,13.47,0.916,86.2,,58.0,5.0,0.0,0.0,0.0,0.0,0.0,0.0,0.0,0.0,2.27,,,0,0,0,0,0,0,0,0,0,0,0,0,0,0,0,0,0.0,,,,0.0,0.0,0.0,0.0,0.0,0.0,0.0
335,3183465,0,,,,,,,,,,,,,,,,,,,,,,,,,,,,,,,,,,0,0,0,0,0,0,0,0,0,0,0,0,0,0,0,0,,,,,,,,,,,
336,3183485,0,0.0,183.01,,-0.09,-0.13,0.97,0.0,0.0,0.0,0.99,1.35,73.0,4658.0,11.6,3.24,,13.12,0.936,86.2,,58.0,5.0,,,,,,,,,,,,0,0,0,0,0,0,0,0,0,0,0,0,0,0,0,0,,,,,0.0,,,,,,
337,3183505,0,,,,,,,,,,,,,,,,,,,,,,,,,,,,,,,,,,0,0,0,0,0,0,0,0,0,0,0,0,0,0,0,0,,,,,,,,,,,
338,3183525,0,0.0,183.01,,-0.09,0.04,1.09,0.0,0.0,0.0,1.1,1.35,81.0,4623.0,7.5,3.08,,12.8,0.965,86.2,,56.2,5.0,,,,,,,,,,,,0,0,0,0,0,0,0,0,0,0,0,0,0,0,0,0,,,,,0.0,,,,,,
339,3183545,0,,,,,,,,,,,,,,,,,,,,,,,0.0,0.0,0.0,0.0,0.0,0.0,0.0,0.0,2.26,,,0,0,0,0,0,0,0,0,0,0,0,0,0,0,0,0,0.0,,,,,0.0,0.0,0.0,0.0,0.0,0.0
340,3183565,0,0.0,183.01,,-0.07,0.24,1.19,-1.0,0.0,1.0,1.22,1.35,91.0,4495.0,5.8,3.12,,12.45,1.069,86.2,,56.2,5.0,,,,,,,,,,,,0,0,0,0,0,0,0,0,0,0,0,0,0,0,0,0,,,,,0.0,,,,,,
341,3183585,0,,,,,,,,,,,,,,,,,,,,,,,,,,,,,,,,,,0,0,0,0,0,0,0,0,0,0,0,0,0,0,0,0,,,,,,,,,,,
342,3183605,0,0.0,183.01,,-0.05,0.32,1.27,-1.0,0.0,1.0,1.31,1.35,97.0,4438.0,5.1,3.26,,12.32,1.156,86.2,,56.2,5.0,,,,,,,,,,,,0,0,0,0,0,0,0,0,0,0,0,0,0,0,0,0,,,,,0.0,,,,,,
343,3183625,0,,,,,,,,,,,,,,,,,,,,,,,,,,,,,,,,,,0,0,0,0,0,0,0,0,0,0,0,0,0,0,0,0,,,,,,,,,,,
344,3183645,0,0.0,183.01,,-0.01,0.3,1.18,1.0,0.0,0.0,1.22,1.35,90.0,4311.0,5.7,3.25,,12.32,1.156,86.2,,54.5,5.0,0.0,0.0,0.0,0.0,0.0,0.0,0.0,0.0,2.27,,,0,0,0,0,0,0,0,0,0,0,0,0,0,0,0,0,0.0,,,,0.0,0.0,0.0,0.0,0.0,0.0,0.0
345,3183665,0,,,,,,,,,,,,,,,,,,,,,,,,,,,,,,,,,,0,0,0,0,0,0,0,0,0,0,0,0,0,0,0,0,,,,,,,,,,,
346,3183685,0,0.0,183.01,,-0.03,0.18,1.09,0.0,0.0,0.0,1.1,1.35,82.0,4311.0,5.7,3.25,,12.29,1.047,86.2,,54.5,5.0,,,,,,,,,,,,0,0,0,0,0,0,0,0,0,0,0,0,0,0,0,0,,,,,0.0,,,,,,
347,3183705,0,,,,,,,,,,,,,,,,,,,,,,,,,,,,,,,,,,0,0,0,0,0,0,0,0,0,0,0,0,0,0,0,0,,,,,,,,,,,
348,3183725,0,0.0,183.01,,-0.03,0.28,1.18,0.0,0.0,1.0,1.22,1.35,90.0,4237.0,12.0,3.4,,12.52,0.926,86.2,,54.5,5.0,,,,,,,,,,,,0,0,0,0,0,0,0,0,0,0,0,0,0,0,0,0,,,,,0.0,,,,,,
349,3183745,0,,,,,,,,,,,,,,,,,,,,,,,0.0,0.0,0.0,0.0,0.0,0.0,0.0,0.0,2.28,,,0,0,0,0,0,0,0,0,0,0,0,0,0,0,0,0,0.0,,,,,0.0,0.0,0.0,0.0,0.0,0.0
350,3183765,0,0.0,183.01,,-0.0,0.37,1.26,0.0,0.0,1.0,1.31,1.35,97.0,4417.0,18.0,3.64,,13.17,0.921,86.2,,52.2,5.0,,,,,,,,,,,,0,0,0,0,0,0,0,0,0,0,0,0,0,0,0,0,,,,,0.0,,,,,,
351,3183785,0,,,,,,,,,,,,,,,,,,,,,,,,,,,,,,,,,,0,0,0,0,0,0,0,0,0,0,0,0,0,0,0,0,,,,,,,,,,,
352,3183805,0,0.0,183.01,,-0.0,0.5,1.32,-1.0,0.0,1.0,1.41,1.41,100.0,4657.0,20.4,3.71,,13.57,0.974,86.2,,52.2,5.0,,,,,,,,,,,,0,0,0,0,0,0,0,0,0,0,0,0,0,0,0,0,,,,,0.0,,,,,,
353,3183825,0,,,,,,,,,,,,,,,,,,,,,,,,,,,,,,,,,,0,0,0,0,0,0,0,0,0,0,0,0,0,0,0,0,,,,,,,,,,,
354,3183845,0,0.0,183.01,13.92,-0.01,0.38,1.23,-1.0,0.0,1.0,1.29,1.41,91.0,4920.0,20.8,3.73,15.0,13.57,0.974,86.2,155.0,58.6,5.0,0.0,0.0,0.0,0.0,0.0,0.0,0.0,0.0,2.27,0.0,1.0,0,0,0,0,0,0,0,0,0,0,0,0,0,0,0,0,0.0,0.0,0.0,0.0,0.0,0.0,0.0,0.0,0.0,0.0,0.0
355,3183865,0,,,,,,,,,,,,,,,,,,,,,,,,,,,,,,,,,,0,0,0,0,0,0,0,0,0,0,0,0,0,0,0,0,,,,,,,,,,,
356,3183885,0,0.0,183.01,,-0.01,0.36,1.22,-1.0,0.0,1.0,1.28,1.41,90.0,4920.0,20.8,3.73,,13.73,0.973,86.2,,58.6,5.0,,,,,,,,,,,,0,0,0,0,0,0,0,0,0,0,0,0,0,0,0,0,,,,,0.0,,,,,,
357,3183905,0,,,,,,,,,,,,,,,,,,,,,,,,,,,,,,,,,,0,0,0,0,0,0,0,0,0,0,0,0,0,0,0,0,,,,,,,,,,,
358,3183925,0,0.0,183.13,,-0.03,0.36,1.22,-1.0,0.0,1.0,1.27,1.41,90.0,5100.0,15.9,3.29,,13.31,0.946,86.2,,60.7,5.0,,,,,,,,,,,,0,0,0,0,0,0,0,0,0,0,0,0,0,0,0,0,,,,,0.0,,,,,,
359,3183945,0,,,,,,,,,,,,,,,,,,,,,,,0.0,0.0,0.0,0.0,0.0,0.0,0.0,0.0,2.27,,,0,0,0,0,0,0,0,0,0,0,0,0,0,0,0,0,0.0,,,,,0.0,0.0,0.0,0.0,0.0,0.0
360,3183965,0,0.0,183.13,,-0.05,0.4,1.2,-1.0,0.0,1.0,1.26,1.41,90.0,5239.0,10.8,3.03,,12.92,0.942,86.2,,60.7,5.0,,,,,,,,,,,,0,0,0,0,0,0,0,0,0,0,0,0,0,0,0,0,,,,,0.0,,,,,,
361,3183985,0,,,,,,,,,,,,,,,,,,,,,,,,,,,,,,,,,,0,0,0,0,0,0,0,0,0,0,0,0,0,0,0,0,,,,,,,,,,,
362,3184005,0,0.0,183.13,,-0.05,0.32,1.13,-1.0,0.0,1.0,1.17,1.41,83.0,5415.0,8.3,2.97,,12.51,0.95,86.2,,60.7,5.0,,,,,,,,,,,,0,0,0,0,0,0,0,0,0,0,0,0,0,0,0,0,,,,,0.0,,,,,,
363,3184025,0,,,,,,,,,,,,,,,,,,,,,,,,,,,,,,,,,,0,0,0,0,0,0,0,0,0,0,0,0,0,0,0,0,,,,,,,,,,,
364,3184045,0,0.0,183.13,,-0.02,0.27,1.14,0.0,0.0,1.0,1.17,1.41,83.0,5415.0,8.3,2.97,,12.51,0.95,86.2,,61.5,5.0,0.0,0.0,0.0,0.0,0.0,0.0,0.0,0.0,2.27,,,0,0,0,0,0,0,0,0,0,0,0,0,0,0,0,0,0.0,,,,0.0,0.0,0.0,0.0,0.0,0.0,0.0
365,3184065,0,,,,,,,,,,,,,,,,,,,,,,,,,,,,,,,,,,0,0,0,0,0,0,0,0,0,0,0,0,0,0,0,0,,,,,,,,,,,
366,3184085,0,0.0,183.13,,-0.05,0.25,1.09,-1.0,0.0,1.0,1.12,1.41,79.0,5516.0,6.5,2.99,,12.15,0.938,86.2,,61.5,5.0,,,,,,,,,,,,0,0,0,0,0,0,0,0,0,0,0,0,0,0,0,0,,,,,0.0,,,,,,
367,3184105,0,,,,,,,,,,,,,,,,,,,,,,,,,,,,,,,,,,0,0,0,0,0,0,0,0,0,0,0,0,0,0,0,0,,,,,,,,,,,
368,3184125,0,0.0,183.13,,-0.03,0.23,1.16,0.0,0.0,1.0,1.18,1.41,83.0,5638.0,6.0,3.01,,11.76,0.931,86.2,,62.4,5.0,,,,,,,,,,,,0,0,0,0,0,0,0,0,0,0,0,0,0,0,0,0,,,,,0.0,,,,,,
369,3184145,0,,,,,,,,,,,,,,,,,,,,,,,0.0,0.0,0.0,0.0,0.0,0.0,0.0,0.0,2.27,,,0,0,0,0,0,0,0,0,0,0,0,0,0,0,0,0,0.0,,,,,0.0,0.0,0.0,0.0,0.0,0.0
370,3184165,0,0.0,183.13,,-0.03,0.01,1.04,1.0,0.0,0.0,1.04,1.41,73.0,5794.0,5.6,3.35,,11.28,0.916,86.2,,62.4,5.0,,,,,,,,,,,,0,0,0,0,0,0,0,0,0,0,0,0,0,0,0,0,,,,,0.0,,,,,,
371,3184185,0,,,,,,,,,,,,,,,,,,,,,,,,,,,,,,,,,,0,0,0,0,0,0,0,0,0,0,0,0,0,0,0,0,,,,,,,,,,,
372,3184205,0,0.0,183.26,,-0.07,-0.09,0.95,1.0,0.0,-1.0,0.95,1.41,67.0,6007.0,4.9,3.36,,10.88,0.89,86.2,,62.4,5.0,,,,,,,,,,,,0,0,0,0,0,0,0,0,0,0,0,0,0,0,0,0,,,,,0.0,,,,,,
373,3184225,0,,,,,,,,,,,,,,,,,,,,,,,,,,,,,,,,,,0,0,0,0,0,0,0,0,0,0,0,0,0,0,0,0,,,,,,,,,,,
374,3184245,0,0.0,183.13,,-0.07,-0.19,0.88,1.0,0.0,-1.0,0.91,1.41,64.0,6166.0,4.7,2.61,,10.88,0.89,86.2,,62.5,5.0,0.0,0.0,0.0,0.0,0.0,0.0,0.0,0.0,2.28,,,0,0,0,0,0,0,0,0,0,0,0,0,0,0,0,0,0.0,,,,0.0,0.0,0.0,0.0,0.0,0.0,0.0
375,3184265,0,,,,,,,,,,,,,,,,,,,,,,,,,,,,,,,,,,0,0,0,0,0,0,0,0,0,0,0,0,0,0,0,0,,,,,,,,,,,
376,3184285,0,0.0,183.13,,-0.07,-0.22,0.97,1.0,0.0,-1.0,1.0,1.41,71.0,6166.0,4.7,2.61,,10.46,0.867,86.2,,62.5,5.0,,,,,,,,,,,,0,0,0,0,0,0,0,0,0,0,0,0,0,0,0,0,,,,,0.0,,,,,,
377,3184305,0,,,,,,,,,,,,,,,,,,,,,,,,,,,,,,,,,,0,0,0,0,0,0,0,0,0,0,0,0,0,0,0,0,,,,,,,,,,,
378,3184325,0,0.0,183.13,,-0.07,-0.05,0.91,1.0,0.0,-1.0,0.92,1.41,65.0,6353.0,6.0,2.62,,10.13,0.848,86.2,,62.5,5.0,,,,,,,,,,,,0,0,0,0,0,0,0,0,0,0,0,0,0,0,0,0,,,,,0.0,,,,,,
379,3184345,0,,,,,,,,,,,,,,,,,,,,,,,0.0,0.0,0.0,0.0,0.0,0.0,0.0,0.0,2.28,,,0,0,0,0,0,0,0,0,0,0,0,0,0,0,0,0,0.0,,,,,0.0,0.0,0.0,0.0,0.0,0.0
380,3184365,0,0.0,183.13,,-0.07,-0.13,0.98,1.0,0.0,-1.0,0.99,1.41,70.0,6436.0,11.7,3.14,,10.49,0.858,86.2,,64.1,5.0,,,,,,,,,,,,0,0,0,0,0,0,0,0,0,0,0,0,0,0,0,0,,,,,0.0,,,,,,
381,3184385,0,,,,,,,,,,,,,,,,,,,,,,,,,,,,,,,,,,0,0,0,0,0,0,0,0,0,0,0,0,0,0,0,0,,,,,,,,,,,
382,3184405,0,0.0,183.26,,-0.04,-0.09,0.94,0.0,0.0,-1.0,0.95,1.41,67.0,6560.0,16.7,4.15,,10.98,0.907,86.2,,64.1,5.0,,,,,,,,,,,,0,0,0,0,0,0,0,0,0,0,0,0,0,0,0,0,,,,,0.0,,,,,,
383,3184425,0,,,,,,,,,,,,,,,,,,,,,,,,,,,,,,,,,,0,0,0,0,0,0,0,0,0,0,0,0,0,0,0,0,,,,,,,,,,,
384,3184445,0,0.0,183.26,,-0.03,-0.02,0.95,0.0,0.0,0.0,0.96,1.41,68.0,6899.0,19.0,4.98,,10.98,0.907,86.2,,64.4,5.0,0.0,0.0,0.0,0.0,0.0,0.0,0.0,0.0,2.27,,,0,0,0,0,0,0,0,0,0,0,0,0,0,0,0,0,0.0,,,,0.0,0.0,0.0,0.0,0.0,0.0,0.0
385,3184465,0,,,,,,,,,,,,,,,,,,,,,,,,,,,,,,,,,,0,0,0,0,0,0,0,0,0,0,0,0,0,0,0,0,,,,,,,,,,,
386,3184485,0,0.0,183.13,,-0.05,-0.09,0.93,2.0,0.0,-1.0,0.94,1.41,66.0,6899.0,19.0,4.98,,11.33,0.953,86.2,,64.4,5.0,,,,,,,,,,,,0,0,0,0,0,0,0,0,0,0,0,0,0,0,0,0,,,,,0.0,,,,,,
387,3184505,0,,,,,,,,,,,,,,,,,,,,,,,,,,,,,,,,,,0,0,0,0,0,0,0,0,0,0,0,0,0,0,0,0,,,,,,,,,,,
388,3184525,0,0.0,183.13,,-0.06,-0.24,0.92,4.0,0.0,-1.0,0.96,1.41,68.0,7521.0,16.3,4.67,,10.9,0.924,86.2,,67.5,5.0,,,,,,,,,,,,0,0,0,0,0,0,0,0,0,0,0,0,0,0,0,0,,,,,0.0,,,,,,
389,3184545,0,,,,,,,,,,,,,,,,,,,,,,,0.0,0.0,0.0,0.0,0.0,0.0,0.0,0.0,2.26,,,0,0,0,0,0,0,0,0,0,0,0,0,0,0,0,0,0.0,,,,,0.0,0.0,0.0,0.0,0.0,0.0
390,3184565,0,0.0,183.26,,-0.09,-0.26,0.95,3.0,0.0,-1.0,0.99,1.41,70.0,7957.0,7.1,3.02,,9.76,0.857,86.2,,67.5,5.0,,,,,,,,,,,,0,0,0,0,0,0,0,0,0,0,0,0,0,0,0,0,,,,,0.0,,,,,,
391,3184585,0,,,,,,,,,,,,,,,,,,,,,,,,,,,,,,,,,,0,0,0,0,0,0,0,0,0,0,0,0,0,0,0,0,,,,,,,,,,,
392,3184605,0,0.0,183.26,,-0.05,-0.2,0.95,3.0,0.0,-1.0,0.98,1.41,69.0,8412.0,1.1,1.4,,8.45,0.776,86.2,,67.5,5.0,,,,,,,,,,,,0,0,0,0,0,0,0,0,0,0,0,0,0,0,0,0,,,,,0.0,,,,,,
393,3184625,0,,,,,,,,,,,,,,,,,,,,,,,,,,,,,,,,,,0,0,0,0,0,0,0,0,0,0,0,0,0,0,0,0,,,,,,,,,,,
394,3184645,0,0.0,183.26,,-0.08,-0.19,0.92,2.0,0.0,0.0,0.94,1.41,66.0,8683.0,0.1,1.4,,8.45,0.776,86.2,,69.2,5.0,0.0,0.0,0.0,0.0,0.0,0.0,0.0,0.0,2.27,,,0,0,0,0,0,0,0,0,0,0,0,0,0,0,0,0,0.0,,,,0.0,0.0,0.0,0.0,0.0,0.0,0.0
395,3184665,0,,,,,,,,,,,,,,,,,,,,,,,,,,,,,,,,,,0,0,0,0,0,0,0,0,0,0,0,0,0,0,0,0,,,,,,,,,,,
396,3184685,0,0.0,183.13,,-0.08,-0.09,0.94,1.0,0.0,0.0,0.94,1.41,67.0,8683.0,0.1,1.4,,7.33,0.744,86.2,,69.2,5.0,,,,,,,,,,,,0,0,0,0,0,0,0,0,0,0,0,0,0,0,0,0,,,,,0.0,,,,,,
397,3184705,0,,,,,,,,,,,,,,,,,,,,,,,,,,,,,,,,,,0,0,0,0,0,0,0,0,0,0,0,0,0,0,0,0,,,,,,,,,,,
398,3184725,0,0.0,183.26,,-0.08,-0.16,1.0,2.0,0.0,-1.0,1.01,1.41,72.0,8756.0,0.0,1.4,,6.55,0.788,86.2,,69.2,5.0,,,,,,,,,,,,0,0,0,0,0,0,0,0,0,0,0,0,0,0,0,0,,,,,0.0,,,,,,
399,3184745,0,,,,,,,,,,,,,,,,,,,,,,,0.0,0.0,0.0,0.0,0.0,0.0,0.0,0.0,2.27,,,0,0,0,0,0,0,0,0,0,0,0,0,0,0,0,0,0.0,,,,,0.0,0.0,0.0,0.0,0.0,0.0
400,3184765,0,0.0,183.13,,-0.1,-0.16,0.94,1.0,0.0,-1.0,0.95,1.41,67.0,8770.0,0.0,1.4,,6.11,0.866,86.2,,66.3,5.0,,,,,,,,,,,,0,0,0,0,0,0,0,0,0,0,0,0,0,0,0,0,,,,,0.0,,,,,,
401,3184785,0,,,,,,,,,,,,,,,,,,,,,,,,,,,,,,,,,,0,0,0,0,0,0,0,0,0,0,0,0,0,0,0,0,,,,,,,,,,,
402,3184805,0,0.0,183.26,,-0.08,-0.12,0.96,2.0,0.0,-1.0,0.97,1.41,69.0,8702.0,0.0,1.4,,5.94,0.905,86.2,,66.3,5.0,,,,,,,,,,,,0,0,0,0,0,0,0,0,0,0,0,0,0,0,0,0,,,,,0.0,,,,,,
403,3184825,0,,,,,,,,,,,,,,,,,,,,,,,,,,,,,,,,,,0,0,0,0,0,0,0,0,0,0,0,0,0,0,0,0,,,,,,,,,,,
404,3184845,0,0.0,183.26,13.95,-0.05,-0.17,0.99,0.0,0.0,0.0,1.01,1.41,71.0,8591.0,5.3,1.56,15.0,5.94,0.905,86.2,155.0,65.2,5.0,0.0,0.0,0.0,0.0,0.0,0.0,0.0,0.0,2.27,0.0,1.0,0,0,0,0,0,0,0,0,0,0,0,0,0,0,0,0,0.0,0.0,0.0,0.0,0.0,0.0,0.0,0.0,0.0,0.0,0.0
405,3184865,0,,,,,,,,,,,,,,,,,,,,,,,,,,,,,,,,,,0,0,0,0,0,0,0,0,0,0,0,0,0,0,0,0,,,,,,,,,,,
406,3184885,0,0.0,183.26,,-0.07,-0.11,0.97,2.0,0.0,-1.0,0.98,1.41,69.0,8591.0,5.3,1.56,,6.2,0.911,86.2,,65.2,5.0,,,,,,,,,,,,0,0,0,0,0,0,0,0,0,0,0,0,0,0,0,0,,,,,0.0,,,,,,
407,3184905,0,,,,,,,,,,,,,,,,,,,,,,,,,,,,,,,,,,0,0,0,0,0,0,0,0,0,0,0,0,0,0,0,0,,,,,,,,,,,
408,3184925,0,0.0,183.26,,-0.08,-0.05,0.96,0.0,0.0,0.0,0.97,1.41,69.0,8508.0,11.9,1.99,,6.94,0.918,86.2,,63.6,5.0,,,,,,,,,,,,0,0,0,0,0,0,0,0,0,0,0,0,0,0,0,0,,,,,0.0,,,,,,
409,3184945,0,,,,,,,,,,,,,,,,,,,,,,,0.0,0.0,0.0,0.0,0.0,0.0,0.0,0.0,2.27,,,0,0,0,0,0,0,0,0,0,0,0,0,0,0,0,0,0.0,,,,,0.0,0.0,0.0,0.0,0.0,0.0
410,3184965,0,0.0,183.26,,-0.07,-0.09,0.96,1.0,0.0,-1.0,0.97,1.41,69.0,8527.0,14.7,2.37,,7.79,0.964,86.2,,63.6,5.0,,,,,,,,,,,,0,0,0,0,0,0,0,0,0,0,0,0,0,0,0,0,,,,,0.0,,,,,,
411,3184985,0,,,,,,,,,,,,,,,,,,,,,,,,,,,,,,,,,,0,0,0,0,0,0,0,0,0,0,0,0,0,0,0,0,,,,,,,,,,,
412,3185005,0,0.0,183.13,,-0.09,0.05,0.95,1.0,0.0,-1.0,0.96,1.41,68.0,8632.0,13.3,2.47,,8.06,0.992,77.2,,63.6,5.0,,,,,,,,,,,,0,0,0,0,0,0,0,0,0,0,0,0,0,0,0,0,,,,,0.0,,,,,,
413,3185025,0,,,,,,,,,,,,,,,,,,,,,,,,,,,,,,,,,,0,0,0,0,0,0,0,0,0,0,0,0,0,0,0,0,,,,,,,,,,,
414,3185045,0,0.0,183.13,,-0.08,-0.08,1.02,1.0,0.0,-1.0,1.03,1.41,73.0,8802.0,5.3,1.99,,8.06,0.992,77.2,,65.5,5.0,0.0,0.0,0.0,0.0,0.0,0.0,0.0,0.0,2.27,,,0,0,0,0,0,0,0,0,0,0,0,0,0,0,0,0,0.0,,,,0.0,0.0,0.0,0.0,0.0,0.0,0.0
415,3185065,0,,,,,,,,,,,,,,,,,,,,,,,,,,,,,,,,,,0,0,0,0,0,0,0,0,0,0,0,0,0,0,0,0,,,,,,,,,,,
416,3185085,0,0.0,183.13,,-0.09,-0.13,1.0,1.0,0.0,-1.0,1.01,1.41,72.0,8802.0,5.3,1.99,,7.46,0.991,77.2,,65.5,5.0,,,,,,,,,,,,0,0,0,0,0,0,0,0,0,0,0,0,0,0,0,0,,,,,0.0,,,,,,
417,3185105,0,,,,,,,,,,,,,,,,,,,,,,,,,,,,,,,,,,0,0,0,0,0,0,0,0,0,0,0,0,0,0,0,0,,,,,,,,,,,
418,3185125,0,0.0,183.13,,-0.08,-0.08,0.95,1.0,0.0,-1.0,0.96,1.41,68.0,8832.0,2.1,1.4,,6.74,0.97,77.2,,62.6,5.0,,,,,,,,,,,,0,0,0,0,0,0,0,0,0,0,0,0,0,0,0,0,,,,,0.0,,,,,,
419,3185145,0,,,,,,,,,,,,,,,,,,,,,,,0.0,0.0,0.0,0.0,0.0,0.0,0.0,0.0,2.27,,,0,0,0,0,0,0,0,0,0,0,0,0,0,0,0,0,0.0,,,,,0.0,0.0,0.0,0.0,0.0,0.0
420,3185165,0,0.0,183.13,,-0.06,-0.05,0.95,0.0,0.0,0.0,0.95,1.41,67.0,8411.0,0.8,1.4,,6.19,0.953,77.2,,62.6,5.0,,,,,,,,,,,,0,0,0,0,0,0,0,0,0,0,0,0,0,0,0,0,,,,,0.0,,,,,,
421,3185185,0,,,,,,,,,,,,,,,,,,,,,,,,,,,,,,,,,,0,0,0,0,0,0,0,0,0,0,0,0,0,0,0,0,,,,,,,,,,,
422,3185205,0,0.0,183.13,,-0.06,-0.05,0.98,0.0,0.0,-1.0,0.99,1.41,70.0,8128.0,0.3,1.4,,6.0,1.029,77.2,,62.6,5.0,,,,,,,,,,,,0,0,0,0,0,0,0,0,0,0,0,0,0,0,0,0,,,,,0.0,,,,,,
423,3185225,0,,,,,,,,,,,,,,,,,,,,,,,,,,,,,,,,,,0,0,0,0,0,0,0,0,0,0,0,0,0,0,0,0,,,,,,,,,,,
