,Interval,Utc,FrontBP,SteerAng,Battery,AccelX,AccelY,AccelZ,Yaw,Pitch,Roll,Gsum,GsumMax,GsumPct,RPM,TPS,InjectorPW,Baro,MAP,Lambda,IAT,EngineTemp,EOP,EOT,WSFR,WSFL,WSRR,WSRL,TCSet,TCSlip,TCComp,TCCut,Analog8,OilTemp,AA_On,ThermLF1,ThermLF2,ThermRR1,ThermRR2,ThermLF3,ThermLF4,ThermLF5,ThermLF6,ThermLF7,ThermLF8,ThermRR3,ThermRR4,ThermRR5,ThermRR6,ThermRR7,ThermRR8,AA_LowDrag,Gear,AA_On1,AA_LowDrag1,Fuel_Mix,AA_Packages,Latitude,Longitude,Speed,Altitude,GPSSats,GPSQual,GPSDOP
0,807594,1745299277383,,,,,,,,,,,,,,,,,,,,,,,,,,,,,,,,,,0,0,0,0,0,0,0,0,0,0,0,0,0,0,0,0,,,,,,,,,,,,,
1,807614,1745299277402,0.0,14.0,,-0.07,0.04,1.05,0.0,0.0,0.0,1.05,1.05,100.0,4947.0,0.0,2.47,,12.04,1.252,100.6,,36.6,5.0,,,,,,,,,,,,0,0,0,0,0,0,0,0,0,0,0,0,0,0,0,0,,,,,,0.0,,,,,,,
2,807634,1745299277422,,,,,,,,,,,,,,,,,,,,,,,,,,,,,,,,,,0,0,0,0,0,0,0,0,0,0,0,0,0,0,0,0,,,,,,,,,,,,,
3,807654,1745299277442,0.0,48.0,,-0.05,0.06,1.08,1.0,0.0,0.0,1.08,1.08,100.0,4947.0,0.0,2.47,,11.29,1.253,100.6,,36.5,5.0,,,,,,,,,,,,0,0,0,0,0,0,0,0,0,0,0,0,0,0,0,0,,,,,,0.0,,,,,,,
4,807674,1745299277462,,,,,,,,,,,,,,,,,,,,,,,0.0,0.0,0.0,0.0,0.0,0.0,0.0,0.0,2.25,,,0,0,0,0,0,0,0,0,0,0,0,0,0,0,0,0,,0.0,,,,,38.985332,-76.950233,0.0,48.5,34.0,3.0,0.8
5,807694,1745299277482,0.0,17.0,,-0.08,0.14,1.13,1.0,0.0,1.0,1.14,1.14,100.0,4785.0,0.0,2.18,,10.96,1.253,100.6,,36.5,5.0,,,,,,,,,,,,0,0,0,0,0,0,0,0,0,0,0,0,0,0,0,0,,,,,,0.0,,,,,,,
6,807714,1745299277502,,,,,,,,,,,,,,,,,,,,,,,,,,,,,,,,,,0,0,0,0,0,0,0,0,0,0,0,0,0,0,0,0,,,,,,,,,,,,,
7,807734,1745299277522,0.0,31.0,,-0.1,0.06,1.11,0.0,0.0,1.0,1.12,1.14,98.0,4629.0,0.0,1.88,,10.72,1.181,100.6,,36.5,5.0,,,,,,,,,,,,0,0,0,0,0,0,0,0,0,0,0,0,0,0,0,0,,,,,,0.0,,,,,,,
8,807754,1745299277542,,,,,,,,,,,,,,,,,,,,,,,,,,,,,,,,,,0,0,0,0,0,0,0,0,0,0,0,0,0,0,0,0,,,,,,,,,,,,,
9,807774,1745299277562,0.0,28.0,,-0.13,0.08,1.15,0.0,0.0,1.0,1.16,1.16,100.0,4440.0,8.3,3.59,,11.26,1.059,100.6,,33.9,5.0,0.0,0.0,0.0,0.0,0.0,0.0,0.0,0.0,2.26,,,0,0,0,0,0,0,0,0,0,0,0,0,0,0,0,0,,0.0,,,,0.0,38.985332,-76.950233,0.05,48.5,34.0,3.0,0.8
10,807794,1745299277582,,,,,,,,,,,,,,,,,,,,,,,,,,,,,,,,,,0,0,0,0,0,0,0,0,0,0,0,0,0,0,0,0,,,,,,,,,,,,,
11,807814,1745299277602,0.0,22.0,,-0.14,0.15,1.25,1.0,0.0,1.0,1.27,1.27,100.0,4285.0,21.9,4.46,,11.26,1.059,100.6,,33.9,5.0,,,,,,,,,,,,0,0,0,0,0,0,0,0,0,0,0,0,0,0,0,0,,,,,,0.0,,,,,,,
12,807834,1745299277622,,,,,,,,,,,,,,,,,,,,,,,,,,,,,,,,,,0,0,0,0,0,0,0,0,0,0,0,0,0,0,0,0,,,,,,,,,,,,,
13,807854,1745299277642,0.0,22.0,,-0.11,0.14,1.2,1.0,0.0,1.0,1.21,1.27,96.0,4285.0,21.9,4.46,,12.57,1.048,100.6,,31.8,5.0,,,,,,,,,,,,0,0,0,0,0,0,0,0,0,0,0,0,0,0,0,0,,,,,,0.0,,,,,,,
14,807874,1745299277662,,,,,,,,,,,,,,,,,,,,,,,0.0,0.0,0.0,0.0,0.0,0.0,0.0,0.0,2.26,,,0,0,0,0,0,0,0,0,0,0,0,0,0,0,0,0,,0.0,,,,,38.985332,-76.950233,0.04,48.5,34.0,3.0,0.8
15,807894,1745299277682,0.0,22.0,,-0.08,0.13,1.12,1.0,0.0,0.0,1.13,1.27,89.0,4393.0,32.8,4.92,,13.72,1.155,100.6,,31.8,5.0,,,,,,,,,,,,0,0,0,0,0,0,0,0,0,0,0,0,0,0,0,0,,,,,,0.0,,,,,,,
16,807914,1745299277702,,,,,,,,,,,,,,,,,,,,,,,,,,,,,,,,,,0,0,0,0,0,0,0,0,0,0,0,0,0,0,0,0,,,,,,,,,,,,,
17,807934,1745299277722,0.0,34.0,,-0.07,0.19,1.14,3.0,0.0,0.0,1.16,1.27,91.0,4640.0,42.8,4.7,,14.18,1.199,100.6,,31.8,5.0,,,,,,,,,,,,0,0,0,0,0,0,0,0,0,0,0,0,0,0,0,0,,,,,,0.0,,,,,,,
18,807954,1745299277742,,,,,,,,,,,,,,,,,,,,,,,,,,,,,,,,,,0,0,0,0,0,0,0,0,0,0,0,0,0,0,0,0,,,,,,,,,,,,,
19,807974,1745299277762,0.0,20.0,,-0.08,0.09,1.11,2.0,0.0,0.0,1.11,1.27,88.0,4888.0,43.2,4.85,,14.12,1.246,100.6,,34.5,5.0,0.0,0.0,0.0,0.0,0.0,0.0,0.0,0.0,2.25,,,0,0,0,0,0,0,0,0,0,0,0,0,0,0,0,0,,0.0,,,,0.0,38.985332,-76.950233,0.0,48.5,34.0,3.0,0.8
20,807994,1745299277782,,,,,,,,,,,,,,,,,,,,,,,,,,,,,,,,,,0,0,0,0,0,0,0,0,0,0,0,0,0,0,0,0,,,,,,,,,,,,,
21,808014,1745299277802,0.0,25.0,,-0.07,0.05,1.1,2.0,0.0,0.0,1.1,1.27,87.0,5222.0,28.7,4.98,,14.12,1.246,100.6,,34.5,5.0,,,,,,,,,,,,0,0,0,0,0,0,0,0,0,0,0,0,0,0,0,0,,,,,,0.0,,,,,,,
22,808034,1745299277822,,,,,,,,,,,,,,,,,,,,,,,,,,,,,,,,,,0,0,0,0,0,0,0,0,0,0,0,0,0,0,0,0,,,,,,,,,,,,,
23,808054,1745299277842,0.0,36.0,,-0.05,0.06,1.13,2.0,0.0,0.0,1.13,1.27,89.0,5222.0,28.7,4.98,,13.69,1.25,100.6,,40.2,5.0,,,,,,,,,,,,0,0,0,0,0,0,0,0,0,0,0,0,0,0,0,0,,,,,,0.0,,,,,,,
24,808074,1745299277862,,,,,,,,,,,,,,,,,,,,,,,0.0,0.0,0.0,0.0,0.0,0.0,0.0,0.0,2.25,,,0,0,0,0,0,0,0,0,0,0,0,0,0,0,0,0,,0.0,,,,,38.985332,-76.950233,0.0,48.4,34.0,3.0,0.8
25,808094,1745299277882,0.0,17.0,,-0.05,-0.07,1.01,1.0,0.0,0.0,1.01,1.27,80.0,5568.0,0.0,3.46,,12.11,1.251,100.6,,40.2,5.0,,,,,,,,,,,,0,0,0,0,0,0,0,0,0,0,0,0,0,0,0,0,,,,,,0.0,,,,,,,
26,808114,1745299277902,,,,,,,,,,,,,,,,,,,,,,,,,,,,,,,,,,0,0,0,0,0,0,0,0,0,0,0,0,0,0,0,0,,,,,,,,,,,,,
27,808134,1745299277922,0.0,28.0,,-0.08,0.07,1.08,2.0,0.0,0.0,1.08,1.27,86.0,5672.0,0.0,1.75,,10.98,1.248,100.6,,40.2,5.0,,,,,,,,,,,,0,0,0,0,0,0,0,0,0,0,0,0,0,0,0,0,,,,,,0.0,,,,,,,
28,808154,1745299277942,,,,,,,,,,,,,,,,,,,,,,,,,,,,,,,,,,0,0,0,0,0,0,0,0,0,0,0,0,0,0,0,0,,,,,,,,,,,,,
29,808174,1745299277962,0.0,28.0,,-0.07,-0.05,1.06,1.0,0.0,0.0,1.06,1.27,84.0,5408.0,0.0,1.48,,10.45,1.194,100.6,,43.7,5.0,0.0,0.0,0.0,0.0,0.0,0.0,0.0,0.0,2.25,,,0,0,0,0,0,0,0,0,0,0,0,0,0,0,0,0,,0.0,,,,0.0,38.985332,-76.950233,0.0,48.4,34.0,3.0,0.8
30,808194,1745299277982,,,,,,,,,,,,,,,,,,,,,,,,,,,,,,,,,,0,0,0,0,0,0,0,0,0,0,0,0,0,0,0,0,,,,,,,,,,,,,
31,808214,1745299278002,0.0,28.0,,-0.06,-0.1,1.01,1.0,0.0,0.0,1.02,1.27,81.0,5022.0,0.0,1.66,,10.45,1.194,100.6,,43.7,5.0,,,,,,,,,,,,0,0,0,0,0,0,0,0,0,0,0,0,0,0,0,0,,,,,,0.0,,,,,,,
32,808234,1745299278012,,,,,,,,,,,,,,,,,,,,,,,,,,,,,,,,,,0,0,0,0,0,0,0,0,0,0,0,0,0,0,0,0,,,,,,,,,,,,,
33,808254,1745299278032,0.0,36.0,,-0.07,0.04,1.11,2.0,0.0,0.0,1.12,1.27,88.0,5022.0,0.0,1.66,,10.12,1.242,100.6,,37.6,5.0,,,,,,,,,,,,0,0,0,0,0,0,0,0,0,0,0,0,0,0,0,0,,,,,,0.0,,,,,,,
34,808274,1745299278052,,,,,,,,,,,,,,,,,,,,,,,0.0,0.0,0.0,0.0,0.0,0.0,0.0,0.0,2.25,,,0,0,0,0,0,0,0,0,0,0,0,0,0,0,0,0,,0.0,,,,,38.985332,-76.950233,0.04,48.4,34.0,3.0,0.8
35,808294,1745299278072,0.0,28.0,,-0.1,0.1,1.17,2.0,0.0,1.0,1.18,1.27,93.0,4660.0,0.0,1.74,,10.06,1.25,100.6,,37.6,5.0,,,,,,,,,,,,0,0,0,0,0,0,0,0,0,0,0,0,0,0,0,0,,,,,,0.0,,,,,,,
36,808314,1745299278092,,,,,,,,,,,,,,,,,,,,,,,,,,,,,,,,,,0,0,0,0,0,0,0,0,0,0,0,0,0,0,0,0,,,,,,,,,,,,,
37,808334,1745299278116,0.0,34.0,,-0.09,0.14,1.17,3.0,0.0,0.0,1.18,1.27,93.0,4384.0,8.0,2.82,,10.69,1.249,100.6,,37.6,5.0,,,,,,,,,,,,0,0,0,0,0,0,0,0,0,0,0,0,0,0,0,0,,,,,,0.0,,,,,,,
38,808354,1745299278136,,,,,,,,,,,,,,,,,,,,,,,,,,,,,,,,,,0,0,0,0,0,0,0,0,0,0,0,0,0,0,0,0,,,,,,,,,,,,,
39,808374,1745299278156,0.0,17.0,,-0.07,0.07,1.15,1.0,0.0,1.0,1.16,1.27,91.0,4086.0,16.3,4.1,,12.11,1.249,100.6,,31.3,5.0,0.0,0.0,0.0,0.0,0.0,0.0,0.0,0.0,2.26,,,0,0,0,0,0,0,0,0,0,0,0,0,0,0,0,0,,0.0,,,,0.0,38.985332,-76.950233,0.11,48.4,34.0,3.0,0.8
40,808394,1745299278176,,,,,,,,,,,,,,,,,,,,,,,,,,,,,,,,,,0,0,0,0,0,0,0,0,0,0,0,0,0,0,0,0,,,,,,,,,,,,,
41,808414,1745299278202,0.0,25.0,,-0.07,0.12,1.13,3.0,0.0,0.0,1.14,1.27,90.0,4153.0,17.8,4.22,,12.11,1.249,100.6,,31.3,5.0,,,,,,,,,,,,0,0,0,0,0,0,0,0,0,0,0,0,0,0,0,0,,,,,,0.0,,,,,,,
42,808434,1745299278222,,,,,,,,,,,,,,,,,,,,,,,,,,,,,,,,,,0,0,0,0,0,0,0,0,0,0,0,0,0,0,0,0,,,,,,,,,,,,,
43,808454,1745299278242,0.0,28.0,,-0.05,0.0,1.04,1.0,0.0,0.0,1.04,1.27,82.0,4153.0,17.8,4.22,,12.97,1.249,100.6,,30.5,5.0,,,,,,,,,,,,0,0,0,0,0,0,0,0,0,0,0,0,0,0,0,0,,,,,,0.0,,,,,,,
44,808474,1745299278262,,,,,,,,,,,,,,,,,,,,,,,0.0,0.0,0.0,0.0,0.0,0.0,0.0,0.0,2.26,,,0,0,0,0,0,0,0,0,0,0,0,0,0,0,0,0,,0.0,,,,,38.985332,-76.950233,0.0,48.4,34.0,3.0,0.8
45,808494,1745299278282,0.0,22.0,,-0.09,0.07,1.09,1.0,0.0,0.0,1.09,1.27,86.0,4298.0,18.3,4.11,,13.19,1.249,100.6,,30.5,5.0,,,,,,,,,,,,0,0,0,0,0,0,0,0,0,0,0,0,0,0,0,0,,,,,,0.0,,,,,,,
46,808514,1745299278302,,,,,,,,,,,,,,,,,,,,,,,,,,,,,,,,,,0,0,0,0,0,0,0,0,0,0,0,0,0,0,0,0,,,,,,,,,,,,,
47,808534,1745299278322,0.0,28.0,,-0.1,0.13,1.19,1.0,0.0,1.0,1.2,1.27,95.0,4400.0,20.2,4.17,,13.37,1.25,100.6,,30.5,5.0,,,,,,,,,,,,0,0,0,0,0,0,0,0,0,0,0,0,0,0,0,0,,,,,,0.0,,,,,,,
48,808554,1745299278342,,,,,,,,,,,,,,,,,,,,,,,,,,,,,,,,,,0,0,0,0,0,0,0,0,0,0,0,0,0,0,0,0,,,,,,,,,,,,,
49,808574,1745299278362,0.0,34.0,13.15,-0.09,0.17,1.28,1.0,0.0,1.0,1.29,1.29,100.0,4487.0,20.9,4.23,15.0,13.41,1.251,100.6,169.0,32.4,5.0,0.0,0.0,0.0,0.0,0.0,0.0,0.0,0.0,2.25,0.0,1.0,0,0,0,0,0,0,0,0,0,0,0,0,0,0,0,0,0.0,0.0,1.0,0.0,0.0,0.0,38.985332,-76.950233,0.0,48.4,34.0,3.0,0.8
50,808594,1745299278382,,,,,,,,,,,,,,,,,,,,,,,,,,,,,,,,,,0,0,0,0,0,0,0,0,0,0,0,0,0,0,0,0,,,,,,,,,,,,,
51,808614,1745299278401,0.0,28.0,,-0.1,0.24,1.34,2.0,0.0,1.0,1.37,1.37,100.0,4624.0,12.2,4.14,,13.41,1.251,98.8,,32.4,5.0,,,,,,,,,,,,0,0,0,0,0,0,0,0,0,0,0,0,0,0,0,0,,,,,,0.0,,,,,,,
52,808634,1745299278421,,,,,,,,,,,,,,,,,,,,,,,,,,,,,,,,,,0,0,0,0,0,0,0,0,0,0,0,0,0,0,0,0,,,,,,,,,,,,,
53,808654,1745299278441,0.0,39.0,,-0.13,0.21,1.35,1.0,0.0,1.0,1.37,1.37,100.0,4624.0,12.2,4.14,,13.12,1.252,98.8,,34.0,5.0,,,,,,,,,,,,0,0,0,0,0,0,0,0,0,0,0,0,0,0,0,0,,,,,,0.0,,,,,,,
54,808674,1745299278461,,,,,,,,,,,,,,,,,,,,,,,0.0,0.0,0.0,0.0,0.0,0.0,0.0,0.0,2.25,,,0,0,0,0,0,0,0,0,0,0,0,0,0,0,0,0,,0.0,,,,,38.985332,-76.950233,0.05,48.4,34.0,3.0,0.8
55,808694,1745299278481,0.0,22.0,,-0.14,0.1,1.29,0.0,0.0,1.0,1.3,1.37,95.0,4638.0,0.0,2.48,,12.15,1.253,98.8,,34.0,5.0,,,,,,,,,,,,0,0,0,0,0,0,0,0,0,0,0,0,0,0,0,0,,,,,,0.0,,,,,,,
56,808714,1745299278501,,,,,,,,,,,,,,,,,,,,,,,,,,,,,,,,,,0,0,0,0,0,0,0,0,0,0,0,0,0,0,0,0,,,,,,,,,,,,,
57,808734,1745299278519,0.0,28.0,,-0.15,0.06,1.23,-2.0,0.0,1.0,1.24,1.37,90.0,4517.0,0.0,2.45,,11.58,1.253,98.8,,34.0,5.0,,,,,,,,,,,,0,0,0,0,0,0,0,0,0,0,0,0,0,0,0,0,,,,,,0.0,,,,,,,
58,808754,1745299278539,,,,,,,,,,,,,,,,,,,,,,,,,,,,,,,,,,0,0,0,0,0,0,0,0,0,0,0,0,0,0,0,0,,,,,,,,,,,,,
59,808774,1745299278559,0.0,22.0,,-0.15,0.12,1.28,-2.0,0.0,1.0,1.29,1.37,94.0,4363.0,0.0,2.44,,11.18,1.243,98.8,,33.0,5.0,0.0,0.0,0.0,0.0,0.0,0.0,0.0,0.0,2.26,,,0,0,0,0,0,0,0,0,0,0,0,0,0,0,0,0,,0.0,,,,0.0,38.985332,-76.950233,0.0,48.4,34.0,3.0,0.8
60,808794,1745299278579,,,,,,,,,,,,,,,,,,,,,,,,,,,,,,,,,,0,0,0,0,0,0,0,0,0,0,0,0,0,0,0,0,,,,,,,,,,,,,
61,808814,1745299278601,0.0,42.0,,-0.15,0.15,1.29,-1.0,0.0,1.0,1.3,1.37,95.0,4170.0,0.0,2.45,,11.18,1.243,98.8,,33.0,5.0,,,,,,,,,,,,0,0,0,0,0,0,0,0,0,0,0,0,0,0,0,0,,,,,,0.0,,,,,,,
62,808834,1745299278621,,,,,,,,,,,,,,,,,,,,,,,,,,,,,,,,,,0,0,0,0,0,0,0,0,0,0,0,0,0,0,0,0,,,,,,,,,,,,,
63,808854,1745299278641,0.0,42.0,,-0.13,-0.0,1.19,-2.0,0.0,1.0,1.2,1.37,87.0,4170.0,0.0,2.45,,10.98,1.251,98.8,,30.6,5.0,,,,,,,,,,,,0,0,0,0,0,0,0,0,0,0,0,0,0,0,0,0,,,,,,0.0,,,,,,,
64,808874,1745299278661,,,,,,,,,,,,,,,,,,,,,,,0.0,0.0,0.0,0.0,0.0,0.0,0.0,0.0,2.26,,,0,0,0,0,0,0,0,0,0,0,0,0,0,0,0,0,,0.0,,,,,38.985332,-76.950233,0.04,48.4,34.0,3.0,0.8
65,808894,1745299278681,0.0,42.0,,-0.14,0.06,1.15,-1.0,0.0,0.0,1.16,1.37,85.0,4064.0,0.0,2.32,,11.05,1.251,98.8,,30.6,5.0,,,,,,,,,,,,0,0,0,0,0,0,0,0,0,0,0,0,0,0,0,0,,,,,,0.0,,,,,,,
66,808914,1745299278701,,,,,,,,,,,,,,,,,,,,,,,,,,,,,,,,,,0,0,0,0,0,0,0,0,0,0,0,0,0,0,0,0,,,,,,,,,,,,,
67,808934,1745299278719,0.0,59.0,,-0.14,0.08,1.14,1.0,0.0,0.0,1.15,1.37,84.0,3889.0,4.3,3.63,,11.52,1.25,98.8,,30.6,5.0,,,,,,,,,,,,0,0,0,0,0,0,0,0,0,0,0,0,0,0,0,0,,,,,,0.0,,,,,,,
68,808954,1745299278739,,,,,,,,,,,,,,,,,,,,,,,,,,,,,,,,,,0,0,0,0,0,0,0,0,0,0,0,0,0,0,0,0,,,,,,,,,,,,,
69,808974,1745299278759,0.0,51.0,,-0.14,0.09,1.13,1.0,0.0,0.0,1.14,1.37,83.0,3831.0,4.9,3.69,,11.91,1.251,98.8,,27.4,5.0,0.0,0.0,0.0,0.0,0.0,0.0,0.0,0.0,2.26,,,0,0,0,0,0,0,0,0,0,0,0,0,0,0,0,0,,0.0,,,,0.0,38.985332,-76.950233,0.04,48.4,34.0,3.0,0.8
70,808994,1745299278779,,,,,,,,,,,,,,,,,,,,,,,,,,,,,,,,,,0,0,0,0,0,0,0,0,0,0,0,0,0,0,0,0,,,,,,,,,,,,,
71,809014,1745299278801,0.0,42.0,,-0.12,0.08,1.13,1.0,0.0,0.0,1.14,1.37,83.0,3796.0,12.0,4.0,,11.91,1.251,98.8,,27.4,5.0,,,,,,,,,,,,0,0,0,0,0,0,0,0,0,0,0,0,0,0,0,0,,,,,,0.0,,,,,,,
72,809034,1745299278821,,,,,,,,,,,,,,,,,,,,,,,,,,,,,,,,,,0,0,0,0,0,0,0,0,0,0,0,0,0,0,0,0,,,,,,,,,,,,,
73,809054,1745299278841,0.0,39.0,,-0.11,0.07,1.1,1.0,0.0,0.0,1.11,1.37,81.0,3796.0,12.0,4.0,,12.45,1.25,98.8,,26.8,5.0,,,,,,,,,,,,0,0,0,0,0,0,0,0,0,0,0,0,0,0,0,0,,,,,,0.0,,,,,,,
74,809074,1745299278861,,,,,,,,,,,,,,,,,,,,,,,0.0,0.0,0.0,0.0,0.0,0.0,0.0,0.0,2.26,,,0,0,0,0,0,0,0,0,0,0,0,0,0,0,0,0,,0.0,,,,,38.985332,-76.950233,0.04,48.4,34.0,3.0,0.8
75,809094,1745299278881,0.0,17.0,,-0.1,0.09,1.09,1.0,0.0,0.0,1.1,1.37,80.0,3750.0,14.3,4.06,,13.05,1.252,98.8,,26.8,5.0,,,,,,,,,,,,0,0,0,0,0,0,0,0,0,0,0,0,0,0,0,0,,,,,,0.0,,,,,,,
76,809114,1745299278901,,,,,,,,,,,,,,,,,,,,,,,,,,,,,,,,,,0,0,0,0,0,0,0,0,0,0,0,0,0,0,0,0,,,,,,,,,,,,,
77,809134,1745299278921,0.0,34.0,,-0.1,0.03,1.08,0.0,0.0,0.0,1.09,1.37,79.0,3890.0,18.3,4.18,,13.41,1.253,98.8,,26.8,5.0,,,,,,,,,,,,0,0,0,0,0,0,0,0,0,0,0,0,0,0,0,0,,,,,,0.0,,,,,,,
78,809154,1745299278941,,,,,,,,,,,,,,,,,,,,,,,,,,,,,,,,,,0,0,0,0,0,0,0,0,0,0,0,0,0,0,0,0,,,,,,,,,,,,,
79,809174,1745299278961,0.0,34.0,,-0.12,-0.04,0.99,-1.0,0.0,0.0,1.0,1.37,73.0,3902.0,19.0,4.14,,13.52,1.237,98.8,,28.4,5.0,0.0,0.0,0.0,0.0,0.0,0.0,0.0,0.0,2.25,,,0,0,0,0,0,0,0,0,0,0,0,0,0,0,0,0,,0.0,,,,0.0,38.985332,-76.950233,0.11,48.4,34.0,3.0,0.8
80,809194,1745299278981,,,,,,,,,,,,,,,,,,,,,,,,,,,,,,,,,,0,0,0,0,0,0,0,0,0,0,0,0,0,0,0,0,,,,,,,,,,,,,
81,809214,1745299279001,0.0,45.0,,-0.14,0.08,1.09,1.0,0.0,0.0,1.1,1.37,80.0,4118.0,19.3,4.16,,13.52,1.237,98.8,,28.4,5.0,,,,,,,,,,,,0,0,0,0,0,0,0,0,0,0,0,0,0,0,0,0,,,,,,0.0,,,,,,,
82,809234,1745299279011,,,,,,,,,,,,,,,,,,,,,,,,,,,,,,,,,,0,0,0,0,0,0,0,0,0,0,0,0,0,0,0,0,,,,,,,,,,,,,
83,809254,1745299279031,0.0,51.0,,-0.12,-0.02,0.97,-1.0,0.0,0.0,0.98,1.37,71.0,4118.0,19.3,4.16,,13.48,1.222,98.8,,30.6,5.0,,,,,,,,,,,,0,0,0,0,0,0,0,0,0,0,0,0,0,0,0,0,,,,,,0.0,,,,,,,
84,809274,1745299279051,,,,,,,,,,,,,,,,,,,,,,,0.0,0.0,0.0,0.0,0.0,0.0,0.0,0.0,2.25,,,0,0,0,0,0,0,0,0,0,0,0,0,0,0,0,0,,0.0,,,,,38.985332,-76.950233,0.04,48.4,34.0,3.0,0.8
85,809294,1745299279071,0.0,31.0,,-0.11,-0.06,0.93,-1.0,0.0,0.0,0.94,1.37,69.0,4297.0,19.4,4.16,,13.43,1.242,98.8,,30.6,5.0,,,,,,,,,,,,0,0,0,0,0,0,0,0,0,0,0,0,0,0,0,0,,,,,,0.0,,,,,,,
86,809314,1745299279101,,,,,,,,,,,,,,,,,,,,,,,,,,,,,,,,,,0,0,0,0,0,0,0,0,0,0,0,0,0,0,0,0,,,,,,,,,,,,,
87,809334,1745299279121,0.0,45.0,,-0.13,-0.06,0.95,-1.0,0.0,0.0,0.96,1.37,70.0,4433.0,19.5,4.17,,13.43,1.247,98.8,,30.6,5.0,,,,,,,,,,,,0,0,0,0,0,0,0,0,0,0,0,0,0,0,0,0,,,,,,0.0,,,,,,,
88,809354,1745299279141,,,,,,,,,,,,,,,,,,,,,,,,,,,,,,,,,,0,0,0,0,0,0,0,0,0,0,0,0,0,0,0,0,,,,,,,,,,,,,
89,809374,1745299279161,0.0,36.0,,-0.13,-0.09,0.95,-2.0,0.0,0.0,0.96,1.37,70.0,4541.0,19.5,4.16,,13.39,1.248,98.8,,32.5,5.0,0.0,0.0,0.0,0.0,0.0,0.0,0.0,0.0,2.26,,,0,0,0,0,0,0,0,0,0,0,0,0,0,0,0,0,,0.0,,,,0.0,38.985332,-76.950233,0.0,48.4,34.0,3.0,0.8
90,809394,1745299279181,,,,,,,,,,,,,,,,,,,,,,,,,,,,,,,,,,0,0,0,0,0,0,0,0,0,0,0,0,0,0,0,0,,,,,,,,,,,,,
91,809414,1745299279201,0.0,51.0,,-0.14,-0.13,0.92,-3.0,0.0,0.0,0.94,1.37,69.0,4520.0,19.3,4.18,,13.39,1.248,98.8,,32.5,5.0,,,,,,,,,,,,0,0,0,0,0,0,0,0,0,0,0,0,0,0,0,0,,,,,,0.0,,,,,,,
92,809434,1745299279219,,,,,,,,,,,,,,,,,,,,,,,,,,,,,,,,,,0,0,0,0,0,0,0,0,0,0,0,0,0,0,0,0,,,,,,,,,,,,,
93,809454,1745299279239,0.0,51.0,,-0.14,-0.14,0.85,-4.0,0.0,0.0,0.87,1.37,64.0,4520.0,19.3,4.18,,13.39,1.249,98.8,,33.7,5.0,,,,,,,,,,,,0,0,0,0,0,0,0,0,0,0,0,0,0,0,0,0,,,,,,0.0,,,,,,,
94,809474,1745299279259,,,,,,,,,,,,,,,,,,,,,,,0.0,0.0,0.0,0.0,0.0,0.0,0.0,0.0,2.26,,,0,0,0,0,0,0,0,0,0,0,0,0,0,0,0,0,,0.0,,,,,38.985332,-76.950233,0.0,48.4,35.0,3.0,0.8
95,809494,1745299279279,0.0,31.0,,-0.12,-0.09,0.9,-2.0,0.0,0.0,0.91,1.37,66.0,4673.0,19.3,4.17,,13.49,1.249,98.8,,33.7,5.0,,,,,,,,,,,,0,0,0,0,0,0,0,0,0,0,0,0,0,0,0,0,,,,,,0.0,,,,,,,
96,809514,1745299279301,,,,,,,,,,,,,,,,,,,,,,,,,,,,,,,,,,0,0,0,0,0,0,0,0,0,0,0,0,0,0,0,0,,,,,,,,,,,,,
97,809534,1745299279321,0.0,45.0,,-0.13,-0.13,0.91,-2.0,0.0,0.0,0.92,1.37,67.0,4801.0,19.3,4.17,,13.37,1.187,98.8,,33.7,5.0,,,,,,,,,,,,0,0,0,0,0,0,0,0,0,0,0,0,0,0,0,0,,,,,,0.0,,,,,,,
98,809554,1745299279341,,,,,,,,,,,,,,,,,,,,,,,,,,,,,,,,,,0,0,0,0,0,0,0,0,0,0,0,0,0,0,0,0,,,,,,,,,,,,,
99,809574,1745299279361,0.0,39.0,13.19,-0.1,-0.08,0.91,-2.0,0.0,0.0,0.92,1.37,67.0,4855.0,19.3,4.17,15.0,13.36,1.058,98.8,171.0,35.7,5.0,0.0,0.0,0.0,0.0,0.0,0.0,0.0,0.0,2.26,0.0,1.0,0,0,0,0,0,0,0,0,0,0,0,0,0,0,0,0,0.0,0.0,1.0,0.0,0.0,0.0,38.985332,-76.950233,0.05,48.4,35.0,3.0,0.8
100,809594,1745299279381,,,,,,,,,,,,,,,,,,,,,,,,,,,,,,,,,,0,0,0,0,0,0,0,0,0,0,0,0,0,0,0,0,,,,,,,,,,,,,
101,809614,1745299279402,0.0,51.0,,-0.11,-0.09,0.91,-2.0,0.0,0.0,0.92,1.37,67.0,4950.0,19.3,4.16,,13.36,1.058,98.8,,35.7,5.0,,,,,,,,,,,,0,0,0,0,0,0,0,0,0,0,0,0,0,0,0,0,,,,,,0.0,,,,,,,
102,809634,1745299279422,,,,,,,,,,,,,,,,,,,,,,,,,,,,,,,,,,0,0,0,0,0,0,0,0,0,0,0,0,0,0,0,0,,,,,,,,,,,,,
103,809654,1745299279442,0.0,39.0,,-0.1,-0.03,0.97,-1.0,0.0,0.0,0.97,1.37,71.0,4950.0,19.3,4.16,,13.31,1.028,98.8,,36.9,5.0,,,,,,,,,,,,0,0,0,0,0,0,0,0,0,0,0,0,0,0,0,0,,,,,,0.0,,,,,,,
104,809674,1745299279462,,,,,,,,,,,,,,,,,,,,,,,0.0,0.0,0.0,0.0,0.0,0.0,0.0,0.0,2.25,,,0,0,0,0,0,0,0,0,0,0,0,0,0,0,0,0,,0.0,,,,,38.985332,-76.950233,0.04,48.4,35.0,3.0,0.8
105,809694,1745299279482,0.0,34.0,,-0.09,-0.05,0.94,-1.0,0.0,0.0,0.95,1.37,69.0,5036.0,19.3,4.17,,13.19,1.03,98.8,,36.9,5.0,,,,,,,,,,,,0,0,0,0,0,0,0,0,0,0,0,0,0,0,0,0,,,,,,0.0,,,,,,,
106,809714,1745299279502,,,,,,,,,,,,,,,,,,,,,,,,,,,,,,,,,,0,0,0,0,0,0,0,0,0,0,0,0,0,0,0,0,,,,,,,,,,,,,
107,809734,1745299279520,0.0,36.0,,-0.08,-0.05,0.95,0.0,0.0,0.0,0.95,1.37,69.0,5190.0,19.4,4.17,,13.19,1.062,98.8,,36.9,5.0,,,,,,,,,,,,0,0,0,0,0,0,0,0,0,0,0,0,0,0,0,0,,,,,,0.0,,,,,,,
108,809754,1745299279540,,,,,,,,,,,,,,,,,,,,,,,,,,,,,,,,,,0,0,0,0,0,0,0,0,0,0,0,0,0,0,0,0,,,,,,,,,,,,,
109,809774,1745299279560,0.0,34.0,,-0.08,-0.08,0.94,0.0,0.0,0.0,0.95,1.37,69.0,5372.0,19.5,4.17,,13.07,1.079,98.8,,39.4,5.0,0.0,0.0,0.0,0.0,0.0,0.0,0.0,0.0,2.25,,,0,0,0,0,0,0,0,0,0,0,0,0,0,0,0,0,,0.0,,,,0.0,38.985332,-76.950233,0.07,48.4,35.0,3.0,0.8
110,809794,1745299279580,,,,,,,,,,,,,,,,,,,,,,,,,,,,,,,,,,0,0,0,0,0,0,0,0,0,0,0,0,0,0,0,0,,,,,,,,,,,,,
111,809814,1745299279602,0.0,48.0,,-0.08,-0.1,0.91,-1.0,0.0,0.0,0.92,1.37,67.0,5474.0,19.5,4.18,,13.07,1.079,98.8,,39.4,5.0,,,,,,,,,,,,0,0,0,0,0,0,0,0,0,0,0,0,0,0,0,0,,,,,,0.0,,,,,,,
112,809834,1745299279622,,,,,,,,,,,,,,,,,,,,,,,,,,,,,,,,,,0,0,0,0,0,0,0,0,0,0,0,0,0,0,0,0,,,,,,,,,,,,,
113,809854,1745299279642,0.0,51.0,,-0.07,-0.08,0.95,0.0,0.0,0.0,0.95,1.37,69.0,5474.0,19.5,4.18,,12.84,1.073,98.8,,41.6,5.0,,,,,,,,,,,,0,0,0,0,0,0,0,0,0,0,0,0,0,0,0,0,,,,,,0.0,,,,,,,
114,809874,1745299279662,,,,,,,,,,,,,,,,,,,,,,,0.0,0.0,0.0,0.0,0.0,0.0,0.0,0.0,2.26,,,0,0,0,0,0,0,0,0,0,0,0,0,0,0,0,0,,0.0,,,,,38.985332,-76.950233,0.1,48.4,35.0,3.0,0.8
115,809894,1745299279682,0.0,51.0,,-0.09,-0.08,0.9,-1.0,0.0,0.0,0.9,1.37,66.0,5616.0,19.4,4.17,,12.64,1.123,98.8,,41.6,5.0,,,,,,,,,,,,0,0,0,0,0,0,0,0,0,0,0,0,0,0,0,0,,,,,,0.0,,,,,,,
116,809914,1745299279702,,,,,,,,,,,,,,,,,,,,,,,,,,,,,,,,,,0,0,0,0,0,0,0,0,0,0,0,0,0,0,0,0,,,,,,,,,,,,,
117,809934,1745299279722,0.0,45.0,,-0.11,0.05,1.01,0.0,0.0,0.0,1.01,1.37,74.0,5778.0,19.4,4.16,,12.61,1.196,98.8,,41.6,5.0,,,,,,,,,,,,0,0,0,0,0,0,0,0,0,0,0,0,0,0,0,0,,,,,,0.0,,,,,,,
118,809954,1745299279742,,,,,,,,,,,,,,,,,,,,,,,,,,,,,,,,,,0,0,0,0,0,0,0,0,0,0,0,0,0,0,0,0,,,,,,,,,,,,,
119,809974,1745299279762,0.0,36.0,,-0.09,0.06,1.1,0.0,0.0,0.0,1.11,1.37,81.0,5985.0,19.4,4.17,,12.51,1.249,98.8,,44.1,5.0,0.0,0.0,0.0,0.0,0.0,0.0,0.0,0.0,2.26,,,0,0,0,0,0,0,0,0,0,0,0,0,0,0,0,0,,0.0,,,,0.0,38.985332,-76.950233,0.0,48.4,35.0,3.0,0.8
120,809994,1745299279782,,,,,,,,,,,,,,,,,,,,,,,,,,,,,,,,,,0,0,0,0,0,0,0,0,0,0,0,0,0,0,0,0,,,,,,,,,,,,,
121,810014,1745299279802,0.0,45.0,,-0.11,0.12,1.15,-1.0,0.0,0.0,1.16,1.37,84.0,6177.0,19.4,4.35,,12.51,1.249,98.8,,44.1,5.0,,,,,,,,,,,,0,0,0,0,0,0,0,0,0,0,0,0,0,0,0,0,,,,,,0.0,,,,,,,
122,810034,1745299279820,,,,,,,,,,,,,,,,,,,,,,,,,,,,,,,,,,0,0,0,0,0,0,0,0,0,0,0,0,0,0,0,0,,,,,,,,,,,,,
123,810054,1745299279840,0.0,53.0,,-0.11,0.07,1.08,-1.0,0.0,0.0,1.09,1.37,79.0,6177.0,19.4,4.35,,12.37,1.248,98.8,,48.1,5.0,,,,,,,,,,,,0,0,0,0,0,0,0,0,0,0,0,0,0,0,0,0,,,,,,0.0,,,,,,,
124,810074,1745299279860,,,,,,,,,,,,,,,,,,,,,,,0.0,0.0,0.0,0.0,0.0,0.0,0.0,0.0,2.26,,,0,0,0,0,0,0,0,0,0,0,0,0,0,0,0,0,,0.0,,,,,38.985332,-76.950233,0.04,48.4,35.0,3.0,0.8
125,810094,1745299279880,0.0,45.0,,-0.09,-0.0,1.04,-1.0,0.0,0.0,1.04,1.37,76.0,6464.0,19.4,4.73,,12.44,1.189,98.8,,48.1,5.0,,,,,,,,,,,,0,0,0,0,0,0,0,0,0,0,0,0,0,0,0,0,,,,,,0.0,,,,,,,
126,810114,1745299279902,,,,,,,,,,,,,,,,,,,,,,,,,,,,,,,,,,0,0,0,0,0,0,0,0,0,0,0,0,0,0,0,0,,,,,,,,,,,,,
127,810134,1745299279922,0.0,45.0,,-0.09,0.16,1.09,-1.0,0.0,0.0,1.1,1.37,80.0,6881.0,19.5,5.48,,11.87,1.102,98.8,,48.1,5.0,,,,,,,,,,,,0,0,0,0,0,0,0,0,0,0,0,0,0,0,0,0,,,,,,0.0,,,,,,,
128,810154,1745299279942,,,,,,,,,,,,,,,,,,,,,,,,,,,,,,,,,,0,0,0,0,0,0,0,0,0,0,0,0,0,0,0,0,,,,,,,,,,,,,
129,810174,1745299279962,0.0,48.0,,-0.07,0.2,1.08,-1.0,0.0,0.0,1.1,1.37,80.0,7415.0,19.6,5.63,,11.63,0.961,98.8,,53.1,5.0,0.0,0.0,0.0,0.0,0.0,0.0,0.0,0.0,2.25,,,0,0,0,0,0,0,0,0,0,0,0,0,0,0,0,0,,0.0,,,,0.0,38.985332,-76.950233,0.07,48.4,35.0,3.0,0.8
130,810194,1745299279982,,,,,,,,,,,,,,,,,,,,,,,,,,,,,,,,,,0,0,0,0,0,0,0,0,0,0,0,0,0,0,0,0,,,,,,,,,,,,,
131,810214,1745299280002,0.0,56.0,,-0.04,0.07,1.13,-1.0,0.0,0.0,1.13,1.37,82.0,7785.0,20.1,5.52,,11.63,0.961,98.8,,53.1,5.0,,,,,,,,,,,,0,0,0,0,0,0,0,0,0,0,0,0,0,0,0,0,,,,,,0.0,,,,,,,
132,810234,1745299280010,,,,,,,,,,,,,,,,,,,,,,,,,,,,,,,,,,0,0,0,0,0,0,0,0,0,0,0,0,0,0,0,0,,,,,,,,,,,,,
133,810254,1745299280030,0.0,59.0,,-0.03,0.04,1.1,0.0,0.0,0.0,1.1,1.37,80.0,7785.0,20.1,5.52,,11.18,0.883,98.8,,54.7,5.0,,,,,,,,,,,,0,0,0,0,0,0,0,0,0,0,0,0,0,0,0,0,,,,,,0.0,,,,,,,
134,810274,1745299280050,,,,,,,,,,,,,,,,,,,,,,,0.0,0.0,0.0,0.0,0.0,0.0,0.0,0.0,2.26,,,0,0,0,0,0,0,0,0,0,0,0,0,0,0,0,0,,0.0,,,,,38.985332,-76.950233,0.04,48.4,35.0,3.0,0.8
135,810294,1745299280070,0.0,53.0,,-0.03,-0.01,1.11,0.0,0.0,0.0,1.11,1.37,81.0,8076.0,20.9,5.36,,11.04,0.811,98.8,,54.7,5.0,,,,,,,,,,,,0,0,0,0,0,0,0,0,0,0,0,0,0,0,0,0,,,,,,0.0,,,,,,,
136,810314,1745299280090,,,,,,,,,,,,,,,,,,,,,,,,,,,,,,,,,,0,0,0,0,0,0,0,0,0,0,0,0,0,0,0,0,,,,,,,,,,,,,
137,810334,1745299280118,0.0,56.0,,0.01,0.23,1.13,0.0,0.0,0.0,1.15,1.37,84.0,8538.0,21.0,4.71,,10.77,0.791,98.8,,54.7,5.0,,,,,,,,,,,,0,0,0,0,0,0,0,0,0,0,0,0,0,0,0,0,,,,,,0.0,,,,,,,
138,810354,1745299280138,,,,,,,,,,,,,,,,,,,,,,,,,,,,,,,,,,0,0,0,0,0,0,0,0,0,0,0,0,0,0,0,0,,,,,,,,,,,,,
139,810374,1745299280158,0.0,45.0,,0.02,0.03,1.1,1.0,0.0,0.0,1.1,1.37,80.0,9509.0,21.1,3.59,,10.25,0.783,98.8,,56.3,5.0,0.0,0.0,0.0,0.0,0.0,0.0,0.0,0.0,2.25,,,0,0,0,0,0,0,0,0,0,0,0,0,0,0,0,0,,0.0,,,,0.0,38.985332,-76.950233,0.09,48.4,35.0,3.0,0.8
140,810394,1745299280178,,,,,,,,,,,,,,,,,,,,,,,,,,,,,,,,,,0,0,0,0,0,0,0,0,0,0,0,0,0,0,0,0,,,,,,,,,,,,,
141,810414,1745299280198,0.0,59.0,,0.05,0.14,1.04,0.0,0.0,1.0,1.05,1.37,76.0,10248.0,20.9,3.53,,10.25,0.783,98.8,,56.3,5.0,,,,,,,,,,,,0,0,0,0,0,0,0,0,0,0,0,0,0,0,0,0,,,,,,0.0,,,,,,,
142,810434,1745299280220,,,,,,,,,,,,,,,,,,,,,,,,,,,,,,,,,,0,0,0,0,0,0,0,0,0,0,0,0,0,0,0,0,,,,,,,,,,,,,
143,810454,1745299280240,0.0,70.0,,0.07,0.36,0.97,0.0,0.0,1.0,1.04,1.37,75.0,10248.0,20.9,3.53,,9.6,0.779,98.8,,57.1,5.0,,,,,,,,,,,,0,0,0,0,0,0,0,0,0,0,0,0,0,0,0,0,,,,,,0.0,,,,,,,
144,810474,1745299280260,,,,,,,,,,,,,,,,,,,,,,,0.0,0.0,0.0,0.0,0.0,0.0,0.0,0.0,2.25,,,0,0,0,0,0,0,0,0,0,0,0,0,0,0,0,0,,0.0,,,,,38.985332,-76.950233,0.31,48.4,35.0,3.0,0.8
145,810494,1745299280280,0.0,62.0,,0.08,0.19,0.99,-1.0,0.0,0.0,1.01,1.37,73.0,10791.0,20.9,3.42,,9.52,0.837,98.8,,57.1,5.0,,,,,,,,,,,,0,0,0,0,0,0,0,0,0,0,0,0,0,0,0,0,,,,,,0.0,,,,,,,
146,810514,1745299280302,,,,,,,,,,,,,,,,,,,,,,,,,,,,,,,,,,0,0,0,0,0,0,0,0,0,0,0,0,0,0,0,0,,,,,,,,,,,,,
147,810534,1745299280322,0.0,79.0,,0.13,0.27,1.03,0.0,0.0,0.0,1.07,1.37,78.0,11194.0,20.8,3.22,,9.02,0.865,98.8,,57.1,5.0,,,,,,,,,,,,0,0,0,0,0,0,0,0,0,0,0,0,0,0,0,0,,,,,,0.0,,,,,,,
148,810554,1745299280342,,,,,,,,,,,,,,,,,,,,,,,,,,,,,,,,,,0,0,0,0,0,0,0,0,0,0,0,0,0,0,0,0,,,,,,,,,,,,,
149,810574,1745299280362,0.0,73.0,13.11,0.13,0.15,1.0,0.0,0.0,0.0,1.02,1.37,74.0,11514.0,20.7,3.08,15.0,8.93,0.857,98.8,171.0,57.7,5.0,0.0,0.0,0.0,0.0,0.0,0.0,0.0,0.0,2.25,0.0,1.0,0,0,0,0,0,0,0,0,0,0,0,0,0,0,0,0,0.0,0.0,1.0,0.0,0.0,0.0,38.985332,-76.950233,0.9,48.4,35.0,3.0,0.8
150,810594,1745299280382,,,,,,,,,,,,,,,,,,,,,,,,,,,,,,,,,,0,0,0,0,0,0,0,0,0,0,0,0,0,0,0,0,,,,,,,,,,,,,
151,810614,1745299280402,0.0,68.0,,0.12,0.18,0.92,1.0,0.0,1.0,0.95,1.37,69.0,11591.0,20.8,2.97,,8.93,0.857,97.0,,57.7,5.0,,,,,,,,,,,,0,0,0,0,0,0,0,0,0,0,0,0,0,0,0,0,,,,,,0.0,,,,,,,
152,810634,1745299280419,,,,,,,,,,,,,,,,,,,,,,,,,,,,,,,,,,0,0,0,0,0,0,0,0,0,0,0,0,0,0,0,0,,,,,,,,,,,,,
153,810654,1745299280439,0.0,82.0,,0.12,0.3,0.96,2.0,0.0,0.0,1.01,1.37,74.0,11591.0,20.8,2.97,,8.77,0.862,97.0,,57.6,5.0,,,,,,,,,,,,0,0,0,0,0,0,0,0,0,0,0,0,0,0,0,0,,,,,,0.0,,,,,,,
154,810674,1745299280459,,,,,,,,,,,,,,,,,,,,,,,0.0,0.0,0.0,1.0,0.0,0.0,0.0,0.0,2.26,,,0,0,0,0,0,0,0,0,0,0,0,0,0,0,0,0,,0.0,,,,,38.985332,-76.950233,1.58,48.4,35.0,3.0,0.8
155,810694,1745299280479,0.0,65.0,,0.11,0.11,0.96,1.0,0.0,0.0,0.97,1.37,71.0,11642.0,20.8,2.91,,8.7,0.914,97.0,,57.6,5.0,,,,,,,,,,,,0,0,0,0,0,0,0,0,0,0,0,0,0,0,0,0,,,,,,0.0,,,,,,,
156,810714,1745299280499,,,,,,,,,,,,,,,,,,,,,,,,,,,,,,,,,,0,0,0,0,0,0,0,0,0,0,0,0,0,0,0,0,,,,,,,,,,,,,
157,810734,1745299280519,0.0,79.0,,0.13,-0.01,0.92,2.0,0.0,-2.0,0.93,1.37,68.0,11670.0,20.9,2.92,,8.67,0.936,97.0,,57.6,5.0,,,,,,,,,,,,0,0,0,0,0,0,0,0,0,0,0,0,0,0,0,0,,,,,,0.0,,,,,,,
158,810754,1745299280539,,,,,,,,,,,,,,,,,,,,,,,,,,,,,,,,,,0,0,0,0,0,0,0,0,0,0,0,0,0,0,0,0,,,,,,,,,,,,,
159,810774,1745299280559,0.0,59.0,,0.09,0.1,0.92,1.0,0.0,-2.0,0.93,1.37,68.0,11730.0,20.9,2.89,,8.57,0.951,97.0,,59.5,5.0,2.0,0.0,2.0,2.0,0.0,0.0,0.0,0.0,2.25,,,0,0,0,0,0,0,0,0,0,0,0,0,0,0,0,0,,0.0,,,,0.0,38.985332,-76.950233,2.36,48.4,35.0,3.0,0.8
160,810794,1745299280579,,,,,,,,,,,,,,,,,,,,,,,,,,,,,,,,,,0,0,0,0,0,0,0,0,0,0,0,0,0,0,0,0,,,,,,,,,,,,,
161,810814,1745299280599,0.0,73.0,,0.11,0.12,1.08,1.0,0.0,-1.0,1.09,1.37,79.0,11758.0,21.1,2.9,,8.57,0.951,97.0,,59.5,5.0,,,,,,,,,,,,0,0,0,0,0,0,0,0,0,0,0,0,0,0,0,0,,,,,,0.0,,,,,,,
162,810834,1745299280619,,,,,,,,,,,,,,,,,,,,,,,,,,,,,,,,,,0,0,0,0,0,0,0,0,0,0,0,0,0,0,0,0,,,,,,,,,,,,,
163,810854,1745299280639,0.0,76.0,,0.15,0.25,1.12,2.0,0.0,0.0,1.16,1.37,84.0,11758.0,21.1,2.9,,8.57,0.973,97.0,,63.0,5.0,,,,,,,,,,,,0,0,0,0,0,0,0,0,0,0,0,0,0,0,0,0,,,,,,0.0,,,,,,,
164,810874,1745299280659,,,,,,,,,,,,,,,,,,,,,,,2.0,0.0,2.0,2.0,0.0,0.0,0.0,0.0,2.25,,,0,0,0,0,0,0,0,0,0,0,0,0,0,0,0,0,,0.0,,,,,38.985332,-76.950233,3.11,48.4,35.0,3.0,0.8
165,810894,1745299280679,0.0,76.0,,0.17,0.11,1.11,3.0,0.0,0.0,1.13,1.37,82.0,11639.0,20.8,2.87,,8.61,0.976,97.0,,63.0,5.0,,,,,,,,,,,,0,0,0,0,0,0,0,0,0,0,0,0,0,0,0,0,,,,,,0.0,,,,,,,
166,810914,1745299280699,,,,,,,,,,,,,,,,,,,,,,,,,,,,,,,,,,0,0,0,0,0,0,0,0,0,0,0,0,0,0,0,0,,,,,,,,,,,,,
167,810934,1745299280719,0.0,82.0,,0.21,0.13,1.02,3.0,0.0,0.0,1.05,1.37,76.0,11369.0,20.2,2.86,,8.53,0.996,97.0,,63.0,5.0,,,,,,,,,,,,0,0,0,0,0,0,0,0,0,0,0,0,0,0,0,0,,,,,,0.0,,,,,,,
168,810954,1745299280739,,,,,,,,,,,,,,,,,,,,,,,,,,,,,,,,,,0,0,0,0,0,0,0,0,0,0,0,0,0,0,0,0,,,,,,,,,,,,,
169,810974,1745299280759,0.0,79.0,,0.24,0.19,0.97,4.0,0.0,0.0,1.02,1.37,74.0,11235.0,19.7,2.89,,8.46,1.017,97.0,,58.8,5.0,3.0,0.0,3.0,3.0,0.0,0.0,0.0,0.0,2.26,,,0,0,0,0,0,0,0,0,0,0,0,0,0,0,0,0,,0.0,,,,0.0,38.985332,-76.950233,3.87,48.5,35.0,3.0,0.8
170,810994,1745299280779,,,,,,,,,,,,,,,,,,,,,,,,,,,,,,,,,,0,0,0,0,0,0,0,0,0,0,0,0,0,0,0,0,,,,,,,,,,,,,
171,811014,1745299280799,0.0,76.0,,0.24,0.18,1.0,4.0,0.0,0.0,1.05,1.37,76.0,10940.0,19.3,2.96,,8.46,1.017,97.0,,58.8,5.0,,,,,,,,,,,,0,0,0,0,0,0,0,0,0,0,0,0,0,0,0,0,,,,,,0.0,,,,,,,
172,811034,1745299280817,,,,,,,,,,,,,,,,,,,,,,,,,,,,,,,,,,0,0,0,0,0,0,0,0,0,0,0,0,0,0,0,0,,,,,,,,,,,,,
173,811054,1745299280837,0.0,87.0,,0.25,-0.03,0.94,5.0,0.0,-1.0,0.97,1.37,71.0,10940.0,19.3,2.96,,8.45,0.99,97.0,,62.8,5.0,,,,,,,,,,,,0,0,0,0,0,0,0,0,0,0,0,0,0,0,0,0,,,,,,0.0,,,,,,,
174,811074,1745299280857,,,,,,,,,,,,,,,,,,,,,,,4.0,0.0,4.0,3.0,0.0,0.0,0.0,0.0,2.26,,,0,0,0,0,0,0,0,0,0,0,0,0,0,0,0,0,,0.0,,,,,38.985332,-76.950233,5.06,48.5,35.0,3.0,0.8
175,811094,1745299280877,0.0,85.0,,0.25,0.07,0.94,4.0,0.0,0.0,0.98,1.37,71.0,10817.0,19.1,2.96,,8.46,0.996,97.0,,62.8,5.0,,,,,,,,,,,,0,0,0,0,0,0,0,0,0,0,0,0,0,0,0,0,,,,,,0.0,,,,,,,
176,811114,1745299280897,,,,,,,,,,,,,,,,,,,,,,,,,,,,,,,,,,0,0,0,0,0,0,0,0,0,0,0,0,0,0,0,0,,,,,,,,,,,,,
177,811134,1745299280919,0.0,85.0,,0.3,0.21,1.0,5.0,0.0,0.0,1.06,1.37,78.0,10618.0,19.2,3.01,,8.43,0.971,97.0,,62.8,5.0,,,,,,,,,,,,0,0,0,0,0,0,0,0,0,0,0,0,0,0,0,0,,,,,,0.0,,,,,,,
178,811154,1745299280939,,,,,,,,,,,,,,,,,,,,,,,,,,,,,,,,,,0,0,0,0,0,0,0,0,0,0,0,0,0,0,0,0,,,,,,,,,,,,,
179,811174,1745299280959,0.0,87.0,,0.31,0.25,0.92,5.0,0.0,0.0,1.01,1.37,73.0,10518.0,19.4,3.01,,8.63,0.981,97.0,,57.3,5.0,5.0,0.0,5.0,5.0,0.0,0.0,0.0,0.0,2.26,,,0,0,0,0,0,0,0,0,0,0,0,0,0,0,0,0,,0.0,,,,0.0,38.985332,-76.950226,6.23,48.5,35.0,3.0,0.8
180,811194,1745299280979,,,,,,,,,,,,,,,,,,,,,,,,,,,,,,,,,,0,0,0,0,0,0,0,0,0,0,0,0,0,0,0,0,,,,,,,,,,,,,
181,811214,1745299280999,0.0,90.0,,0.32,0.45,0.96,6.0,0.0,0.0,1.11,1.37,81.0,10411.0,19.4,3.03,,8.63,0.981,97.0,,57.3,5.0,,,,,,,,,,,,0,0,0,0,0,0,0,0,0,0,0,0,0,0,0,0,,,,,,0.0,,,,,,,
182,811234,1745299281007,,,,,,,,,,,,,,,,,,,,,,,,,,,,,,,,,,0,0,0,0,0,0,0,0,0,0,0,0,0,0,0,0,,,,,,,,,,,,,
183,811254,1745299281027,0.0,96.0,,0.33,0.38,0.92,6.0,0.0,0.0,1.05,1.37,76.0,10411.0,19.4,3.03,,8.63,0.983,97.0,,60.5,5.0,,,,,,,,,,,,0,0,0,0,0,0,0,0,0,0,0,0,0,0,0,0,,,,,,0.0,,,,,,,
184,811274,1745299281047,,,,,,,,,,,,,,,,,,,,,,,6.0,0.0,6.0,5.0,0.0,0.0,0.0,0.0,2.25,,,0,0,0,0,0,0,0,0,0,0,0,0,0,0,0,0,,0.0,,,,,38.985329,-76.950226,8.23,48.5,34.0,3.0,0.8
185,811294,1745299281067,0.0,90.0,,0.31,0.38,0.91,6.0,0.0,0.0,1.03,1.37,75.0,10363.0,19.3,3.06,,8.66,0.978,97.0,,60.5,5.0,,,,,,,,,,,,0,0,0,0,0,0,0,0,0,0,0,0,0,0,0,0,,,,,,0.0,,,,,,,
186,811314,1745299281087,,,,,,,,,,,,,,,,,,,,,,,,,,,,,,,,,,0,0,0,0,0,0,0,0,0,0,0,0,0,0,0,0,,,,,,,,,,,,,
187,811334,1745299281117,0.0,90.0,,0.27,0.36,0.93,7.0,0.0,0.0,1.03,1.37,75.0,10337.0,19.4,3.09,,8.77,0.979,97.0,,60.5,5.0,,,,,,,,,,,,0,0,0,0,0,0,0,0,0,0,0,0,0,0,0,0,,,,,,0.0,,,,,,,
188,811354,1745299281137,,,,,,,,,,,,,,,,,,,,,,,,,,,,,,,,,,0,0,0,0,0,0,0,0,0,0,0,0,0,0,0,0,,,,,,,,,,,,,
189,811374,1745299281157,0.0,93.0,,0.26,0.37,0.89,8.0,-1.0,0.0,1.0,1.37,73.0,10304.0,19.4,3.11,,8.73,0.976,97.0,,57.9,5.0,7.0,0.0,7.0,6.0,0.0,0.0,0.0,0.0,2.25,,,0,0,0,0,0,0,0,0,0,0,0,0,0,0,0,0,,0.0,,,,0.0,38.985329,-76.950226,9.63,48.4,34.0,3.0,0.8
190,811394,1745299281177,,,,,,,,,,,,,,,,,,,,,,,,,,,,,,,,,,0,0,0,0,0,0,0,0,0,0,0,0,0,0,0,0,,,,,,,,,,,,,
191,811414,1745299281197,0.0,93.0,,0.32,0.41,0.88,9.0,-1.0,0.0,1.02,1.37,74.0,10285.0,19.4,3.1,,8.73,0.976,97.0,,57.9,5.0,,,,,,,,,,,,0,0,0,0,0,0,0,0,0,0,0,0,0,0,0,0,,,,,,0.0,,,,,,,
192,811434,1745299281209,,,,,,,,,,,,,,,,,,,,,,,,,,,,,,,,,,0,0,0,0,0,0,0,0,0,0,0,0,0,0,0,0,,,,,,,,,,,,,
193,811454,1745299281229,0.0,116.0,,0.3,0.46,0.89,9.0,-1.0,0.0,1.05,1.37,76.0,10285.0,19.4,3.1,,8.63,0.977,97.0,,56.9,5.0,,,,,,,,,,,,0,0,0,0,0,0,0,0,0,0,0,0,0,0,0,0,,,,,,0.0,,,,,,,
194,811474,1745299281249,,,,,,,,,,,,,,,,,,,,,,,8.0,0.0,7.0,7.0,0.0,9.0,0.0,0.0,2.26,,,0,0,0,0,0,0,0,0,0,0,0,0,0,0,0,0,,0.0,,,,,38.985329,-76.950218,10.8,48.5,34.0,3.0,0.8
195,811494,1745299281269,0.0,119.0,,0.27,0.37,0.93,10.0,-1.0,0.0,1.03,1.37,75.0,10264.0,19.2,3.12,,8.74,0.975,97.0,,56.9,5.0,,,,,,,,,,,,0,0,0,0,0,0,0,0,0,0,0,0,0,0,0,0,,,,,,0.0,,,,,,,
196,811514,1745299281289,,,,,,,,,,,,,,,,,,,,,,,,,,,,,,,,,,0,0,0,0,0,0,0,0,0,0,0,0,0,0,0,0,,,,,,,,,,,,,
197,811534,1745299281317,0.0,104.0,,0.28,0.31,0.84,9.0,-1.0,0.0,0.93,1.37,68.0,10236.0,19.2,3.15,,8.82,0.968,97.0,,56.9,5.0,,,,,,,,,,,,0,0,0,0,0,0,0,0,0,0,0,0,0,0,0,0,,,,,,0.0,,,,,,,
198,811554,1745299281337,,,,,,,,,,,,,,,,,,,,,,,,,,,,,,,,,,0,0,0,0,0,0,0,0,0,0,0,0,0,0,0,0,,,,,,,,,,,,,
199,811574,1745299281357,0.0,113.0,13.17,0.35,0.13,0.85,10.0,0.0,0.0,0.93,1.37,67.0,9920.0,19.2,3.18,15.0,8.74,0.965,97.0,171.0,56.8,5.0,9.0,0.0,9.0,10.0,0.0,16.0,0.0,0.0,2.26,0.0,1.0,0,0,0,0,0,0,0,0,0,0,0,0,0,0,0,0,0.0,0.0,1.0,0.0,0.0,0.0,38.985329,-76.950218,12.05,48.5,34.0,3.0,0.8
200,811594,1745299281377,,,,,,,,,,,,,,,,,,,,,,,,,,,,,,,,,,0,0,0,0,0,0,0,0,0,0,0,0,0,0,0,0,,,,,,,,,,,,,
201,811614,1745299281397,0.0,116.0,,0.4,0.37,0.91,11.0,0.0,0.0,1.06,1.37,77.0,9170.0,17.7,3.09,,8.74,0.965,97.0,,56.8,5.0,,,,,,,,,,,,0,0,0,0,0,0,0,0,0,0,0,0,0,0,0,0,,,,,,0.0,,,,,,,
202,811634,1745299281420,,,,,,,,,,,,,,,,,,,,,,,,,,,,,,,,,,0,0,0,0,0,0,0,0,0,0,0,0,0,0,0,0,,,,,,,,,,,,,
203,811654,1745299281440,0.0,130.0,,0.46,0.38,0.96,12.0,0.0,0.0,1.13,1.37,82.0,9170.0,17.7,3.09,,8.95,0.972,97.0,,52.9,5.0,,,,,,,,,,,,0,0,0,0,0,0,0,0,0,0,0,0,0,0,0,0,,,,,,0.0,,,,,,,
204,811674,1745299281460,,,,,,,,,,,,,,,,,,,,,,,10.0,0.0,19.0,16.0,0.0,45.0,0.0,0.0,2.26,,,0,0,0,0,0,0,0,0,0,0,0,0,0,0,0,0,,0.0,,,,,38.985332,-76.950218,13.61,48.5,34.0,3.0,0.8
205,811694,1745299281480,0.0,121.0,,0.51,0.39,1.06,13.0,0.0,1.0,1.24,1.37,90.0,8135.0,10.5,2.87,,8.9,0.97,97.0,,52.9,5.0,,,,,,,,,,,,0,0,0,0,0,0,0,0,0,0,0,0,0,0,0,0,,,,,,0.0,,,,,,,
206,811714,1745299281500,,,,,,,,,,,,,,,,,,,,,,,,,,,,,,,,,,0,0,0,0,0,0,0,0,0,0,0,0,0,0,0,0,,,,,,,,,,,,,
207,811734,1745299281518,0.0,119.0,,0.54,0.35,1.07,17.0,0.0,0.0,1.25,1.37,91.0,7128.0,8.8,3.03,,9.1,0.938,97.0,,52.9,5.0,,,,,,,,,,,,0,0,0,0,0,0,0,0,0,0,0,0,0,0,0,0,,,,,,0.0,,,,,,,
208,811754,1745299281538,,,,,,,,,,,,,,,,,,,,,,,,,,,,,,,,,,0,0,0,0,0,0,0,0,0,0,0,0,0,0,0,0,,,,,,,,,,,,,
209,811774,1745299281558,0.0,113.0,,0.59,0.26,1.02,18.0,-1.0,0.0,1.21,1.37,88.0,6484.0,9.3,3.02,,9.5,0.928,97.0,,49.4,5.0,13.0,0.0,18.0,18.0,0.0,191.0,0.0,0.0,2.25,,,0,0,0,0,0,0,0,0,0,0,0,0,0,0,0,0,,0.0,,,,0.0,38.985332,-76.950211,16.62,48.5,34.0,3.0,0.8
210,811794,1745299281578,,,,,,,,,,,,,,,,,,,,,,,,,,,,,,,,,,0,0,0,0,0,0,0,0,0,0,0,0,0,0,0,0,,,,,,,,,,,,,
211,811814,1745299281598,0.0,110.0,,0.59,0.3,1.03,21.0,0.0,0.0,1.22,1.37,89.0,5600.0,9.5,2.79,,9.5,0.928,97.0,,49.4,5.0,,,,,,,,,,,,0,0,0,0,0,0,0,0,0,0,0,0,0,0,0,0,,,,,,0.0,,,,,,,
212,811834,1745299281618,,,,,,,,,,,,,,,,,,,,,,,,,,,,,,,,,,0,0,0,0,0,0,0,0,0,0,0,0,0,0,0,0,,,,,,,,,,,,,
213,811854,1745299281638,0.0,110.0,,0.6,0.25,0.97,21.0,0.0,-1.0,1.17,1.37,85.0,5600.0,9.5,2.79,,10.26,0.938,97.0,,38.3,5.0,,,,,,,,,,,,0,0,0,0,0,0,0,0,0,0,0,0,0,0,0,0,,,,,,0.0,,,,,,,
214,811874,1745299281658,,,,,,,,,,,,,,,,,,,,,,,14.0,0.0,14.0,15.0,0.0,108.0,0.0,0.0,2.26,,,0,0,0,0,0,0,0,0,0,0,0,0,0,0,0,0,,0.0,,,,,38.985332,-76.950203,20.43,48.5,34.0,3.0,0.8
215,811894,1745299281678,0.0,107.0,,0.51,0.34,0.99,23.0,-1.0,-1.0,1.17,1.37,85.0,4495.0,9.3,2.85,,11.14,0.958,97.0,,38.3,5.0,,,,,,,,,,,,0,0,0,0,0,0,0,0,0,0,0,0,0,0,0,0,,,,,,0.0,,,,,,,
216,811914,1745299281698,,,,,,,,,,,,,,,,,,,,,,,,,,,,,,,,,,0,0,0,0,0,0,0,0,0,0,0,0,0,0,0,0,,,,,,,,,,,,,
217,811934,1745299281718,0.0,93.0,,0.44,0.34,0.99,24.0,-2.0,-1.0,1.13,1.37,82.0,3800.0,10.0,3.75,,11.89,0.942,97.0,,38.3,5.0,,,,,,,,,,,,0,0,0,0,0,0,0,0,0,0,0,0,0,0,0,0,,,,,,0.0,,,,,,,
218,811954,1745299281738,,,,,,,,,,,,,,,,,,,,,,,,,,,,,,,,,,0,0,0,0,0,0,0,0,0,0,0,0,0,0,0,0,,,,,,,,,,,,,
219,811974,1745299281758,0.0,93.0,,0.35,0.29,1.01,25.0,-2.0,-1.0,1.1,1.37,80.0,3727.0,11.0,3.86,,12.45,0.934,97.0,,26.1,5.0,14.0,0.0,14.0,13.0,0.0,223.0,0.0,0.0,2.26,,,0,0,0,0,0,0,0,0,0,0,0,0,0,0,0,0,,0.0,,,,0.0,38.985332,-76.950195,21.86,48.5,34.0,3.0,0.8
220,811994,1745299281778,,,,,,,,,,,,,,,,,,,,,,,,,,,,,,,,,,0,0,0,0,0,0,0,0,0,0,0,0,0,0,0,0,,,,,,,,,,,,,
221,812014,1745299281798,0.0,85.0,,0.24,0.32,1.05,25.0,-2.0,-1.0,1.13,1.37,82.0,3902.0,10.8,3.9,,12.45,0.934,97.0,,26.1,5.0,,,,,,,,,,,,0,0,0,0,0,0,0,0,0,0,0,0,0,0,0,0,,,,,,0.0,,,,,,,
222,812034,1745299281818,,,,,,,,,,,,,,,,,,,,,,,,,,,,,,,,,,0,0,0,0,0,0,0,0,0,0,0,0,0,0,0,0,,,,,,,,,,,,,
223,812054,1745299281838,0.0,85.0,,0.19,0.28,0.97,24.0,-2.0,-1.0,1.02,1.37,75.0,3902.0,10.8,3.9,,12.61,0.965,97.0,,28.8,5.0,,,,,,,,,,,,0,0,0,0,0,0,0,0,0,0,0,0,0,0,0,0,,,,,,0.0,,,,,,,
224,812074,1745299281858,,,,,,,,,,,,,,,,,,,,,,,13.0,0.0,13.0,12.0,0.0,251.0,0.0,0.0,2.26,,,0,0,0,0,0,0,0,0,0,0,0,0,0,0,0,0,,0.0,,,,,38.985332,-76.950188,21.88,48.5,34.0,3.0,0.8
225,812094,1745299281878,0.0,82.0,,0.16,0.23,0.88,23.0,-2.0,-1.0,0.92,1.37,67.0,4307.0,14.4,3.99,,12.75,1.023,97.0,,28.8,5.0,,,,,,,,,,,,0,0,0,0,0,0,0,0,0,0,0,0,0,0,0,0,,,,,,0.0,,,,,,,
226,812114,1745299281898,,,,,,,,,,,,,,,,,,,,,,,,,,,,,,,,,,0,0,0,0,0,0,0,0,0,0,0,0,0,0,0,0,,,,,,,,,,,,,
227,812134,1745299281918,0.0,85.0,,0.12,0.19,0.83,22.0,-2.0,-1.0,0.86,1.37,62.0,4470.0,15.6,4.09,,12.99,1.071,97.0,,28.8,5.0,,,,,,,,,,,,0,0,0,0,0,0,0,0,0,0,0,0,0,0,0,0,,,,,,0.0,,,,,,,
228,812154,1745299281938,,,,,,,,,,,,,,,,,,,,,,,,,,,,,,,,,,0,0,0,0,0,0,0,0,0,0,0,0,0,0,0,0,,,,,,,,,,,,,
229,812174,1745299281958,0.0,79.0,,0.1,0.11,0.82,20.0,-2.0,-1.0,0.84,1.37,61.0,4605.0,15.7,4.05,,13.12,1.128,97.0,,32.0,5.0,13.0,0.0,13.0,12.0,0.0,230.0,0.0,0.0,2.26,,,0,0,0,0,0,0,0,0,0,0,0,0,0,0,0,0,,0.0,,,,0.0,38.985336,-76.95018,19.88,48.5,34.0,3.0,0.8
230,812194,1745299281978,,,,,,,,,,,,,,,,,,,,,,,,,,,,,,,,,,0,0,0,0,0,0,0,0,0,0,0,0,0,0,0,0,,,,,,,,,,,,,
231,812214,1745299281998,0.0,76.0,,0.13,0.11,0.78,21.0,-2.0,-1.0,0.8,1.37,58.0,4549.0,15.8,4.08,,13.12,1.128,97.0,,32.0,5.0,,,,,,,,,,,,0,0,0,0,0,0,0,0,0,0,0,0,0,0,0,0,,,,,,0.0,,,,,,,
232,812234,1745299282008,,,,,,,,,,,,,,,,,,,,,,,,,,,,,,,,,,0,0,0,0,0,0,0,0,0,0,0,0,0,0,0,0,,,,,,,,,,,,,
233,812254,1745299282028,0.0,76.0,,0.15,0.1,0.79,20.0,-1.0,-2.0,0.81,1.37,59.0,4549.0,15.8,4.08,,13.01,1.156,97.0,,31.1,5.0,,,,,,,,,,,,0,0,0,0,0,0,0,0,0,0,0,0,0,0,0,0,,,,,,0.0,,,,,,,
234,812274,1745299282048,,,,,,,,,,,,,,,,,,,,,,,13.0,0.0,13.0,12.0,0.0,21.0,0.0,0.0,2.25,,,0,0,0,0,0,0,0,0,0,0,0,0,0,0,0,0,,0.0,,,,,38.985336,-76.95018,18.97,48.5,34.0,3.0,0.8
235,812294,1745299282068,0.0,62.0,,0.1,0.13,0.79,21.0,-2.0,-2.0,0.8,1.37,59.0,4108.0,15.9,4.02,,13.21,1.035,97.0,,31.1,5.0,,,,,,,,,,,,0,0,0,0,0,0,0,0,0,0,0,0,0,0,0,0,,,,,,0.0,,,,,,,
236,812314,1745299282088,,,,,,,,,,,,,,,,,,,,,,,,,,,,,,,,,,0,0,0,0,0,0,0,0,0,0,0,0,0,0,0,0,,,,,,,,,,,,,
237,812334,1745299282112,0.0,65.0,,0.07,0.18,0.84,23.0,-2.0,-2.0,0.86,1.37,63.0,3886.0,15.9,4.0,,13.39,0.999,97.0,,31.1,5.0,,,,,,,,,,,,0,0,0,0,0,0,0,0,0,0,0,0,0,0,0,0,,,,,,0.0,,,,,,,
238,812354,1745299282132,,,,,,,,,,,,,,,,,,,,,,,,,,,,,,,,,,0,0,0,0,0,0,0,0,0,0,0,0,0,0,0,0,,,,,,,,,,,,,
239,812374,1745299282152,0.0,65.0,,0.05,0.31,0.96,25.0,-2.0,-1.0,1.01,1.37,74.0,3977.0,16.1,4.0,,13.32,1.005,97.0,,27.5,5.0,13.0,0.0,13.0,12.0,0.0,202.0,0.0,0.0,2.26,,,0,0,0,0,0,0,0,0,0,0,0,0,0,0,0,0,,1.0,,,,0.0,38.985336,-76.950172,20.14,48.5,34.0,3.0,0.8
240,812394,1745299282172,,,,,,,,,,,,,,,,,,,,,,,,,,,,,,,,,,0,0,0,0,0,0,0,0,0,0,0,0,0,0,0,0,,,,,,,,,,,,,
241,812414,1745299282192,0.0,62.0,,0.02,0.28,0.89,25.0,-2.0,-1.0,0.94,1.37,68.0,4124.0,16.1,4.0,,13.32,1.005,97.0,,27.5,5.0,,,,,,,,,,,,0,0,0,0,0,0,0,0,0,0,0,0,0,0,0,0,,,,,,0.0,,,,,,,
242,812434,1745299282216,,,,,,,,,,,,,,,,,,,,,,,,,,,,,,,,,,0,0,0,0,0,0,0,0,0,0,0,0,0,0,0,0,,,,,,,,,,,,,
243,812454,1745299282236,0.0,65.0,,-0.01,0.33,0.99,25.0,-2.0,-1.0,1.04,1.37,76.0,4124.0,16.1,4.0,,13.32,1.052,97.0,,29.5,5.0,,,,,,,,,,,,0,0,0,0,0,0,0,0,0,0,0,0,0,0,0,0,,,,,,0.0,,,,,,,
244,812474,1745299282256,,,,,,,,,,,,,,,,,,,,,,,13.0,0.0,13.0,11.0,0.0,0.0,0.0,0.0,2.26,,,0,0,0,0,0,0,0,0,0,0,0,0,0,0,0,0,,1.0,,,,,38.985336,-76.950165,20.32,48.5,34.0,3.0,0.8
245,812494,1745299282276,0.0,56.0,,-0.03,0.32,0.95,26.0,-2.0,-1.0,1.0,1.37,73.0,4119.0,16.0,4.03,,13.32,1.111,97.0,,29.5,5.0,,,,,,,,,,,,0,0,0,0,0,0,0,0,0,0,0,0,0,0,0,0,,,,,,0.0,,,,,,,
246,812514,1745299282296,,,,,,,,,,,,,,,,,,,,,,,,,,,,,,,,,,0,0,0,0,0,0,0,0,0,0,0,0,0,0,0,0,,,,,,,,,,,,,
247,812534,1745299282320,0.0,59.0,,-0.01,0.23,0.87,25.0,-2.0,-1.0,0.9,1.37,66.0,4264.0,16.0,4.04,,13.25,1.158,97.0,,29.5,5.0,,,,,,,,,,,,0,0,0,0,0,0,0,0,0,0,0,0,0,0,0,0,,,,,,0.0,,,,,,,
248,812554,1745299282340,,,,,,,,,,,,,,,,,,,,,,,,,,,,,,,,,,0,0,0,0,0,0,0,0,0,0,0,0,0,0,0,0,,,,,,,,,,,,,
249,812574,1745299282360,0.0,51.0,13.27,0.0,0.21,0.95,24.0,-2.0,-1.0,0.97,1.37,71.0,4305.0,15.9,4.04,15.0,13.21,1.181,97.0,171.0,30.3,5.0,13.0,0.0,13.0,13.0,0.0,236.0,0.0,0.0,2.26,0.0,1.0,0,0,0,0,0,0,0,0,0,0,0,0,0,0,0,0,0.0,1.0,1.0,0.0,0.0,0.0,38.98534,-76.950157,19.75,48.5,34.0,3.0,0.8
250,812594,1745299282380,,,,,,,,,,,,,,,,,,,,,,,,,,,,,,,,,,0,0,0,0,0,0,0,0,0,0,0,0,0,0,0,0,,,,,,,,,,,,,
251,812614,1745299282401,0.0,56.0,,0.01,0.26,1.03,26.0,-2.0,-1.0,1.07,1.37,78.0,4255.0,15.9,4.03,,13.21,1.181,95.2,,30.3,5.0,,,,,,,,,,,,0,0,0,0,0,0,0,0,0,0,0,0,0,0,0,0,,,,,,0.0,,,,,,,
252,812634,1745299282421,,,,,,,,,,,,,,,,,,,,,,,,,,,,,,,,,,0,0,0,0,0,0,0,0,0,0,0,0,0,0,0,0,,,,,,,,,,,,,
253,812654,1745299282441,0.0,65.0,,-0.0,0.21,0.97,25.0,-2.0,-1.0,0.99,1.37,72.0,4255.0,15.9,4.03,,13.23,1.2,95.2,,29.4,5.0,,,,,,,,,,,,0,0,0,0,0,0,0,0,0,0,0,0,0,0,0,0,,,,,,0.0,,,,,,,
254,812674,1745299282461,,,,,,,,,,,,,,,,,,,,,,,13.0,0.0,13.0,12.0,0.0,251.0,0.0,0.0,2.26,,,0,0,0,0,0,0,0,0,0,0,0,0,0,0,0,0,,1.0,,,,,38.985344,-76.950157,19.78,48.5,34.0,3.0,0.8
255,812694,1745299282481,0.0,68.0,,0.0,0.27,0.96,27.0,-3.0,-1.0,1.0,1.37,73.0,4070.0,15.9,3.99,,13.32,1.216,95.2,,29.4,5.0,,,,,,,,,,,,0,0,0,0,0,0,0,0,0,0,0,0,0,0,0,0,,,,,,0.0,,,,,,,
256,812714,1745299282501,,,,,,,,,,,,,,,,,,,,,,,,,,,,,,,,,,0,0,0,0,0,0,0,0,0,0,0,0,0,0,0,0,,,,,,,,,,,,,
257,812734,1745299282519,0.0,48.0,,0.01,0.3,1.0,27.0,-2.0,-1.0,1.04,1.37,76.0,4003.0,15.9,4.0,,13.37,1.22,95.2,,29.4,5.0,,,,,,,,,,,,0,0,0,0,0,0,0,0,0,0,0,0,0,0,0,0,,,,,,0.0,,,,,,,
258,812754,1745299282539,,,,,,,,,,,,,,,,,,,,,,,,,,,,,,,,,,0,0,0,0,0,0,0,0,0,0,0,0,0,0,0,0,,,,,,,,,,,,,
259,812774,1745299282559,0.0,51.0,,-0.0,0.24,0.92,26.0,-2.0,-1.0,0.95,1.37,69.0,4050.0,16.0,3.99,,13.37,1.196,95.2,,27.9,5.0,13.0,0.0,13.0,12.0,0.0,21.0,0.0,0.0,2.26,,,0,0,0,0,0,0,0,0,0,0,0,0,0,0,0,0,,1.0,,,,0.0,38.985348,-76.95015,19.97,48.5,34.0,3.0,0.8
260,812794,1745299282579,,,,,,,,,,,,,,,,,,,,,,,,,,,,,,,,,,0,0,0,0,0,0,0,0,0,0,0,0,0,0,0,0,,,,,,,,,,,,,
261,812814,1745299282601,0.0,53.0,,-0.0,0.37,1.0,29.0,-2.0,0.0,1.06,1.37,77.0,4117.0,16.0,4.0,,13.37,1.196,95.2,,27.9,5.0,,,,,,,,,,,,0,0,0,0,0,0,0,0,0,0,0,0,0,0,0,0,,,,,,0.0,,,,,,,
262,812834,1745299282621,,,,,,,,,,,,,,,,,,,,,,,,,,,,,,,,,,0,0,0,0,0,0,0,0,0,0,0,0,0,0,0,0,,,,,,,,,,,,,
263,812854,1745299282641,0.0,62.0,,-0.0,0.28,0.92,26.0,-2.0,-1.0,0.97,1.37,70.0,4117.0,16.0,4.0,,13.35,1.172,95.2,,29.2,5.0,,,,,,,,,,,,0,0,0,0,0,0,0,0,0,0,0,0,0,0,0,0,,,,,,0.0,,,,,,,
264,812874,1745299282661,,,,,,,,,,,,,,,,,,,,,,,13.0,0.0,13.0,11.0,0.0,246.0,0.0,0.0,2.26,,,0,0,0,0,0,0,0,0,0,0,0,0,0,0,0,0,,0.0,,,,,38.985352,-76.950142,19.72,48.5,34.0,3.0,0.8
265,812894,1745299282681,0.0,45.0,,0.02,0.31,1.04,28.0,-2.0,0.0,1.09,1.37,79.0,4132.0,16.1,4.02,,13.33,1.163,95.2,,29.2,5.0,,,,,,,,,,,,0,0,0,0,0,0,0,0,0,0,0,0,0,0,0,0,,,,,,0.0,,,,,,,
266,812914,1745299282701,,,,,,,,,,,,,,,,,,,,,,,,,,,,,,,,,,0,0,0,0,0,0,0,0,0,0,0,0,0,0,0,0,,,,,,,,,,,,,
267,812934,1745299282721,0.0,39.0,,0.01,0.27,0.96,27.0,-2.0,0.0,0.99,1.37,72.0,4138.0,16.2,4.03,,13.2,1.179,95.2,,29.2,5.0,,,,,,,,,,,,0,0,0,0,0,0,0,0,0,0,0,0,0,0,0,0,,,,,,0.0,,,,,,,
268,812954,1745299282741,,,,,,,,,,,,,,,,,,,,,,,,,,,,,,,,,,0,0,0,0,0,0,0,0,0,0,0,0,0,0,0,0,,,,,,,,,,,,,
269,812974,1745299282761,0.0,34.0,,-0.02,0.33,1.03,29.0,-2.0,0.0,1.09,1.37,79.0,4179.0,16.4,4.02,,13.31,1.186,95.2,,29.3,5.0,13.0,0.0,13.0,12.0,0.0,241.0,0.0,0.0,2.26,,,0,0,0,0,0,0,0,0,0,0,0,0,0,0,0,0,,0.0,,,,0.0,38.985352,-76.950142,19.77,48.4,34.0,3.0,0.8
270,812994,1745299282781,,,,,,,,,,,,,,,,,,,,,,,,,,,,,,,,,,0,0,0,0,0,0,0,0,0,0,0,0,0,0,0,0,,,,,,,,,,,,,
271,813014,1745299282803,0.0,48.0,,-0.02,0.26,0.96,29.0,-2.0,-1.0,0.99,1.37,72.0,4154.0,16.5,4.02,,13.31,1.186,95.2,,29.3,5.0,,,,,,,,,,,,0,0,0,0,0,0,0,0,0,0,0,0,0,0,0,0,,,,,,0.0,,,,,,,
272,813034,1745299282823,,,,,,,,,,,,,,,,,,,,,,,,,,,,,,,,,,0,0,0,0,0,0,0,0,0,0,0,0,0,0,0,0,,,,,,,,,,,,,
273,813054,1745299282843,0.0,48.0,,0.01,0.3,1.02,30.0,-2.0,0.0,1.06,1.37,77.0,4154.0,16.5,4.02,,13.4,1.189,95.2,,29.0,5.0,,,,,,,,,,,,0,0,0,0,0,0,0,0,0,0,0,0,0,0,0,0,,,,,,0.0,,,,,,,
274,813074,1745299282863,,,,,,,,,,,,,,,,,,,,,,,13.0,0.0,13.0,11.0,0.0,251.0,0.0,0.0,2.26,,,0,0,0,0,0,0,0,0,0,0,0,0,0,0,0,0,,0.0,,,,,38.985355,-76.950134,19.59,48.4,34.0,3.0,0.8
275,813094,1745299282883,0.0,39.0,,-0.01,0.28,0.92,31.0,-2.0,-1.0,0.96,1.37,70.0,4072.0,16.4,4.04,,13.36,1.194,95.2,,29.0,5.0,,,,,,,,,,,,0,0,0,0,0,0,0,0,0,0,0,0,0,0,0,0,,,,,,0.0,,,,,,,
276,813114,1745299282903,,,,,,,,,,,,,,,,,,,,,,,,,,,,,,,,,,0,0,0,0,0,0,0,0,0,0,0,0,0,0,0,0,,,,,,,,,,,,,
277,813134,1745299282923,0.0,39.0,,0.01,0.35,1.0,32.0,-2.0,-1.0,1.06,1.37,77.0,4114.0,16.4,4.04,,13.33,1.195,95.2,,29.0,5.0,,,,,,,,,,,,0,0,0,0,0,0,0,0,0,0,0,0,0,0,0,0,,,,,,0.0,,,,,,,
278,813154,1745299282943,,,,,,,,,,,,,,,,,,,,,,,,,,,,,,,,,,0,0,0,0,0,0,0,0,0,0,0,0,0,0,0,0,,,,,,,,,,,,,
279,813174,1745299282963,0.0,48.0,,0.02,0.3,0.92,31.0,-2.0,-1.0,0.97,0.97,100.0,4112.0,16.4,4.03,,13.39,1.195,95.2,,28.9,5.0,13.0,0.0,13.0,11.0,0.0,15.0,0.0,0.0,2.26,,,0,0,0,0,0,0,0,0,0,0,0,0,0,0,0,0,,0.0,,,,0.0,38.985355,-76.950134,19.76,48.4,34.0,3.0,0.8
280,813194,1745299282983,,,,,,,,,,,,,,,,,,,,,,,,,,,,,,,,,,0,0,0,0,0,0,0,0,0,0,0,0,0,0,0,0,,,,,,,,,,,,,
281,813214,1745299283003,0.0,68.0,,0.01,0.36,0.99,34.0,-2.0,-1.0,1.05,1.05,100.0,4037.0,16.5,4.03,,13.39,1.195,95.2,,28.9,5.0,,,,,,,,,,,,0,0,0,0,0,0,0,0,0,0,0,0,0,0,0,0,,,,,,0.0,,,,,,,
282,813234,1745299283013,,,,,,,,,,,,,,,,,,,,,,,,,,,,,,,,,,0,0,0,0,0,0,0,0,0,0,0,0,0,0,0,0,,,,,,,,,,,,,
283,813254,1745299283033,0.0,42.0,,0.03,0.29,1.02,32.0,-1.0,0.0,1.06,1.06,100.0,4037.0,16.5,4.03,,13.43,1.195,95.2,,27.8,5.0,,,,,,,,,,,,0,0,0,0,0,0,0,0,0,0,0,0,0,0,0,0,,,,,,0.0,,,,,,,
284,813274,1745299283053,,,,,,,,,,,,,,,,,,,,,,,13.0,0.0,13.0,11.0,0.0,21.0,0.0,0.0,2.25,,,0,0,0,0,0,0,0,0,0,0,0,0,0,0,0,0,,0.0,,,,,38.985363,-76.950127,19.68,48.4,34.0,3.0,0.8
285,813294,1745299283073,0.0,34.0,,0.01,0.33,0.99,33.0,-1.0,0.0,1.05,1.06,99.0,4039.0,16.5,4.02,,13.39,1.184,95.2,,27.8,5.0,,,,,,,,,,,,0,0,0,0,0,0,0,0,0,0,0,0,0,0,0,0,,,,,,0.0,,,,,,,
286,813314,1745299283093,,,,,,,,,,,,,,,,,,,,,,,,,,,,,,,,,,0,0,0,0,0,0,0,0,0,0,0,0,0,0,0,0,,,,,,,,,,,,,
287,813334,1745299283111,0.0,25.0,,0.02,0.38,1.08,34.0,-1.0,0.0,1.15,1.15,100.0,4102.0,16.5,4.03,,13.45,1.189,95.2,,27.8,5.0,,,,,,,,,,,,0,0,0,0,0,0,0,0,0,0,0,0,0,0,0,0,,,,,,0.0,,,,,,,
288,813354,1745299283131,,,,,,,,,,,,,,,,,,,,,,,,,,,,,,,,,,0,0,0,0,0,0,0,0,0,0,0,0,0,0,0,0,,,,,,,,,,,,,
289,813374,1745299283151,0.0,28.0,,0.02,0.24,0.99,32.0,-1.0,0.0,1.02,1.15,89.0,4083.0,16.6,4.03,,13.41,1.177,95.2,,29.4,5.0,13.0,0.0,13.0,12.0,0.0,192.0,0.0,0.0,2.26,,,0,0,0,0,0,0,0,0,0,0,0,0,0,0,0,0,,1.0,,,,0.0,38.985367,-76.950119,19.68,48.4,34.0,3.0,0.8
290,813394,1745299283171,,,,,,,,,,,,,,,,,,,,,,,,,,,,,,,,,,0,0,0,0,0,0,0,0,0,0,0,0,0,0,0,0,,,,,,,,,,,,,
291,813414,1745299283203,0.0,28.0,,-0.01,0.34,1.09,34.0,-1.0,-1.0,1.14,1.15,99.0,4071.0,16.8,4.04,,13.41,1.177,95.2,,29.4,5.0,,,,,,,,,,,,0,0,0,0,0,0,0,0,0,0,0,0,0,0,0,0,,,,,,0.0,,,,,,,
292,813434,1745299283223,,,,,,,,,,,,,,,,,,,,,,,,,,,,,,,,,,0,0,0,0,0,0,0,0,0,0,0,0,0,0,0,0,,,,,,,,,,,,,
293,813454,1745299283243,0.0,39.0,,-0.03,0.28,0.98,33.0,-1.0,-1.0,1.02,1.15,89.0,4071.0,16.8,4.04,,13.36,1.175,95.2,,29.0,5.0,,,,,,,,,,,,0,0,0,0,0,0,0,0,0,0,0,0,0,0,0,0,,,,,,0.0,,,,,,,
294,813474,1745299283263,,,,,,,,,,,,,,,,,,,,,,,14.0,3.0,13.0,11.0,0.0,10.0,0.0,0.0,2.26,,,0,0,0,0,0,0,0,0,0,0,0,0,0,0,0,0,,1.0,,,,,38.985371,-76.950119,19.5,48.4,34.0,3.0,0.8
295,813494,1745299283283,0.0,36.0,,-0.03,0.34,1.06,37.0,-1.0,-1.0,1.11,1.15,97.0,4132.0,16.8,4.03,,13.4,1.189,95.2,,29.0,5.0,,,,,,,,,,,,0,0,0,0,0,0,0,0,0,0,0,0,0,0,0,0,,,,,,0.0,,,,,,,
296,813514,1745299283301,,,,,,,,,,,,,,,,,,,,,,,,,,,,,,,,,,0,0,0,0,0,0,0,0,0,0,0,0,0,0,0,0,,,,,,,,,,,,,
297,813534,1745299283321,0.0,22.0,,-0.05,0.32,0.99,36.0,-2.0,-1.0,1.04,1.15,91.0,4093.0,16.8,4.04,,13.45,1.185,95.2,,29.0,5.0,,,,,,,,,,,,0,0,0,0,0,0,0,0,0,0,0,0,0,0,0,0,,,,,,0.0,,,,,,,
298,813554,1745299283341,,,,,,,,,,,,,,,,,,,,,,,,,,,,,,,,,,0,0,0,0,0,0,0,0,0,0,0,0,0,0,0,0,,,,,,,,,,,,,
299,813574,1745299283361,0.0,22.0,13.24,-0.02,0.37,0.99,38.0,-2.0,-1.0,1.05,1.15,92.0,4006.0,17.7,4.09,15.0,13.53,1.195,95.2,171.0,28.5,5.0,13.0,6.0,13.0,11.0,0.0,5.0,0.0,0.0,2.26,0.0,1.0,0,0,0,0,0,0,0,0,0,0,0,0,0,0,0,0,0.0,0.0,1.0,0.0,0.0,0.0,38.985374,-76.950111,19.44,48.4,34.0,3.0,0.8
300,813594,1745299283381,,,,,,,,,,,,,,,,,,,,,,,,,,,,,,,,,,0,0,0,0,0,0,0,0,0,0,0,0,0,0,0,0,,,,,,,,,,,,,
301,813614,1745299283402,0.0,17.0,,-0.01,0.38,0.99,39.0,-2.0,-1.0,1.06,1.15,93.0,4086.0,18.0,4.11,,13.53,1.195,97.0,,28.5,5.0,,,,,,,,,,,,0,0,0,0,0,0,0,0,0,0,0,0,0,0,0,0,,,,,,0.0,,,,,,,
302,813634,1745299283422,,,,,,,,,,,,,,,,,,,,,,,,,,,,,,,,,,0,0,0,0,0,0,0,0,0,0,0,0,0,0,0,0,,,,,,,,,,,,,
303,813654,1745299283442,0.0,28.0,,-0.01,0.31,0.95,39.0,-2.0,-1.0,1.0,1.15,87.0,4086.0,18.0,4.11,,13.52,1.193,97.0,,28.6,5.0,,,,,,,,,,,,0,0,0,0,0,0,0,0,0,0,0,0,0,0,0,0,,,,,,0.0,,,,,,,
304,813674,1745299283462,,,,,,,,,,,,,,,,,,,,,,,13.0,3.0,13.0,11.0,0.0,246.0,0.0,0.0,2.26,,,0,0,0,0,0,0,0,0,0,0,0,0,0,0,0,0,,0.0,,,,,38.985378,-76.950111,19.74,48.4,34.0,3.0,0.8
305,813694,1745299283482,0.0,28.0,,-0.0,0.4,1.0,42.0,-3.0,-2.0,1.08,1.15,94.0,4040.0,18.2,4.12,,13.55,1.193,97.0,,28.6,5.0,,,,,,,,,,,,0,0,0,0,0,0,0,0,0,0,0,0,0,0,0,0,,,,,,0.0,,,,,,,
306,813714,1745299283502,,,,,,,,,,,,,,,,,,,,,,,,,,,,,,,,,,0,0,0,0,0,0,0,0,0,0,0,0,0,0,0,0,,,,,,,,,,,,,
307,813734,1745299283518,0.0,28.0,,0.0,0.39,1.01,41.0,-3.0,-1.0,1.08,1.15,94.0,3978.0,18.3,4.12,,13.56,1.195,97.0,,28.6,5.0,,,,,,,,,,,,0,0,0,0,0,0,0,0,0,0,0,0,0,0,0,0,,,,,,0.0,,,,,,,
308,813754,1745299283538,,,,,,,,,,,,,,,,,,,,,,,,,,,,,,,,,,0,0,0,0,0,0,0,0,0,0,0,0,0,0,0,0,,,,,,,,,,,,,
309,813774,1745299283558,0.0,22.0,,0.0,0.41,0.95,41.0,-3.0,-1.0,1.04,1.15,90.0,4086.0,18.3,4.12,,13.51,1.184,97.0,,28.1,5.0,13.0,2.0,13.0,11.0,0.0,236.0,0.0,0.0,2.25,,,0,0,0,0,0,0,0,0,0,0,0,0,0,0,0,0,,0.0,,,,0.0,38.985382,-76.950104,19.64,48.4,34.0,3.0,0.8
310,813794,1745299283578,,,,,,,,,,,,,,,,,,,,,,,,,,,,,,,,,,0,0,0,0,0,0,0,0,0,0,0,0,0,0,0,0,,,,,,,,,,,,,
311,813814,1745299283602,0.0,20.0,,0.0,0.49,1.01,42.0,-3.0,-1.0,1.12,1.15,98.0,4083.0,18.2,4.12,,13.51,1.184,97.0,,28.1,5.0,,,,,,,,,,,,0,0,0,0,0,0,0,0,0,0,0,0,0,0,0,0,,,,,,0.0,,,,,,,
312,813834,1745299283622,,,,,,,,,,,,,,,,,,,,,,,,,,,,,,,,,,0,0,0,0,0,0,0,0,0,0,0,0,0,0,0,0,,,,,,,,,,,,,
313,813854,1745299283642,0.0,31.0,,0.01,0.43,0.95,41.0,-3.0,-1.0,1.04,1.15,91.0,4083.0,18.2,4.12,,13.53,1.172,97.0,,28.7,5.0,,,,,,,,,,,,0,0,0,0,0,0,0,0,0,0,0,0,0,0,0,0,,,,,,0.0,,,,,,,
314,813874,1745299283662,,,,,,,,,,,,,,,,,,,,,,,14.0,4.0,13.0,11.0,0.0,251.0,0.0,0.0,2.25,,,0,0,0,0,0,0,0,0,0,0,0,0,0,0,0,0,,0.0,,,,,38.98539,-76.950104,19.92,48.4,34.0,3.0,0.8
315,813894,1745299283682,0.0,14.0,,0.01,0.49,1.03,43.0,-3.0,-1.0,1.14,1.15,100.0,4033.0,18.3,4.12,,13.53,1.163,97.0,,28.7,5.0,,,,,,,,,,,,0,0,0,0,0,0,0,0,0,0,0,0,0,0,0,0,,,,,,0.0,,,,,,,
316,813914,1745299283702,,,,,,,,,,,,,,,,,,,,,,,,,,,,,,,,,,0,0,0,0,0,0,0,0,0,0,0,0,0,0,0,0,,,,,,,,,,,,,
317,813934,1745299283722,0.0,25.0,,-0.0,0.41,1.03,41.0,-3.0,0.0,1.11,1.15,97.0,4065.0,18.4,4.12,,13.55,1.164,97.0,,28.7,5.0,,,,,,,,,,,,0,0,0,0,0,0,0,0,0,0,0,0,0,0,0,0,,,,,,0.0,,,,,,,
318,813954,1745299283742,,,,,,,,,,,,,,,,,,,,,,,,,,,,,,,,,,0,0,0,0,0,0,0,0,0,0,0,0,0,0,0,0,,,,,,,,,,,,,
319,813974,1745299283762,0.0,20.0,,-0.01,0.42,1.03,41.0,-3.0,0.0,1.11,1.15,97.0,4055.0,18.5,4.11,,13.61,1.166,97.0,,28.3,5.0,13.0,6.0,13.0,11.0,0.0,236.0,0.0,0.0,2.26,,,0,0,0,0,0,0,0,0,0,0,0,0,0,0,0,0,,0.0,,,,0.0,38.985394,-76.950104,19.47,48.4,34.0,3.0,0.8
320,813994,1745299283782,,,,,,,,,,,,,,,,,,,,,,,,,,,,,,,,,,0,0,0,0,0,0,0,0,0,0,0,0,0,0,0,0,,,,,,,,,,,,,
321,814014,1745299283802,0.0,20.0,,-0.0,0.44,1.09,41.0,-3.0,0.0,1.17,1.17,100.0,3985.0,18.6,4.13,,13.61,1.166,97.0,,28.3,5.0,,,,,,,,,,,,0,0,0,0,0,0,0,0,0,0,0,0,0,0,0,0,,,,,,0.0,,,,,,,
322,814034,1745299283822,,,,,,,,,,,,,,,,,,,,,,,,,,,,,,,,,,0,0,0,0,0,0,0,0,0,0,0,0,0,0,0,0,,,,,,,,,,,,,
323,814054,1745299283842,0.0,25.0,,-0.0,0.39,1.05,39.0,-2.0,0.0,1.12,1.17,96.0,3985.0,18.6,4.13,,13.53,1.165,97.0,,28.0,5.0,,,,,,,,,,,,0,0,0,0,0,0,0,0,0,0,0,0,0,0,0,0,,,,,,0.0,,,,,,,
324,814074,1745299283862,,,,,,,,,,,,,,,,,,,,,,,14.0,36.0,13.0,11.0,0.0,135.0,0.0,0.0,2.26,,,0,0,0,0,0,0,0,0,0,0,0,0,0,0,0,0,,0.0,,,,,38.985397,-76.950104,19.6,48.4,34.0,3.0,0.8
325,814094,1745299283882,0.0,11.0,,-0.01,0.38,1.08,39.0,-1.0,0.0,1.14,1.17,97.0,3979.0,18.6,4.14,,13.6,1.161,97.0,,28.0,5.0,,,,,,,,,,,,0,0,0,0,0,0,0,0,0,0,0,0,0,0,0,0,,,,,,0.0,,,,,,,
326,814114,1745299283902,,,,,,,,,,,,,,,,,,,,,,,,,,,,,,,,,,0,0,0,0,0,0,0,0,0,0,0,0,0,0,0,0,,,,,,,,,,,,,
327,814134,1745299283922,0.0,25.0,,-0.0,0.4,1.17,40.0,-1.0,0.0,1.24,1.24,100.0,4097.0,18.6,4.14,,13.56,1.158,97.0,,28.0,5.0,,,,,,,,,,,,0,0,0,0,0,0,0,0,0,0,0,0,0,0,0,0,,,,,,0.0,,,,,,,
328,814154,1745299283942,,,,,,,,,,,,,,,,,,,,,,,,,,,,,,,,,,0,0,0,0,0,0,0,0,0,0,0,0,0,0,0,0,,,,,,,,,,,,,
329,814174,1745299283962,0.0,42.0,,-0.03,0.33,1.08,37.0,-1.0,0.0,1.13,1.24,91.0,4032.0,19.8,4.16,,13.6,1.149,97.0,,29.1,5.0,13.0,36.0,13.0,12.0,0.0,135.0,0.0,0.0,2.27,,,0,0,0,0,0,0,0,0,0,0,0,0,0,0,0,0,,1.0,,,,0.0,38.985401,-76.950104,19.26,48.4,34.0,3.0,0.8
330,814194,1745299283982,,,,,,,,,,,,,,,,,,,,,,,,,,,,,,,,,,0,0,0,0,0,0,0,0,0,0,0,0,0,0,0,0,,,,,,,,,,,,,
331,814214,1745299284002,0.0,56.0,,-0.04,0.31,1.13,38.0,-1.0,0.0,1.17,1.24,95.0,4079.0,19.4,4.17,,13.6,1.149,97.0,,29.1,5.0,,,,,,,,,,,,0,0,0,0,0,0,0,0,0,0,0,0,0,0,0,0,,,,,,0.0,,,,,,,
332,814234,1745299284014,,,,,,,,,,,,,,,,,,,,,,,,,,,,,,,,,,0,0,0,0,0,0,0,0,0,0,0,0,0,0,0,0,,,,,,,,,,,,,
333,814254,1745299284034,0.0,79.0,,-0.05,0.26,1.03,36.0,0.0,0.0,1.06,1.24,86.0,4079.0,19.4,4.17,,13.55,1.145,97.0,,29.7,5.0,,,,,,,,,,,,0,0,0,0,0,0,0,0,0,0,0,0,0,0,0,0,,,,,,0.0,,,,,,,
334,814274,1745299284054,,,,,,,,,,,,,,,,,,,,,,,13.0,36.0,13.0,12.0,0.0,128.0,0.0,0.0,2.28,,,0,0,0,0,0,0,0,0,0,0,0,0,0,0,0,0,,1.0,,,,,38.985409,-76.950104,19.56,48.4,35.0,3.0,0.7
335,814294,1745299284074,0.0,73.0,,-0.06,0.35,1.11,37.0,0.0,0.0,1.17,1.24,94.0,4186.0,20.2,4.21,,13.51,1.15,97.0,,29.7,5.0,,,,,,,,,,,,0,0,0,0,0,0,0,0,0,0,0,0,0,0,0,0,,,,,,0.0,,,,,,,
336,814314,1745299284104,,,,,,,,,,,,,,,,,,,,,,,,,,,,,,,,,,0,0,0,0,0,0,0,0,0,0,0,0,0,0,0,0,,,,,,,,,,,,,
337,814334,1745299284124,0.0,79.0,,-0.04,0.22,1.02,35.0,0.0,0.0,1.05,1.24,85.0,4153.0,20.4,4.22,,13.64,1.147,97.0,,29.7,5.0,,,,,,,,,,,,0,0,0,0,0,0,0,0,0,0,0,0,0,0,0,0,,,,,,0.0,,,,,,,
338,814354,1745299284144,,,,,,,,,,,,,,,,,,,,,,,,,,,,,,,,,,0,0,0,0,0,0,0,0,0,0,0,0,0,0,0,0,,,,,,,,,,,,,
339,814374,1745299284164,0.0,62.0,,-0.04,0.35,1.05,38.0,-1.0,0.0,1.11,1.24,90.0,4040.0,20.9,4.24,,13.71,1.156,97.0,,29.0,5.0,13.0,36.0,13.0,11.0,0.0,128.0,0.0,0.0,2.27,,,0,0,0,0,0,0,0,0,0,0,0,0,0,0,0,0,,0.0,,,,0.0,38.985413,-76.950104,19.28,48.4,35.0,3.0,0.7
340,814394,1745299284184,,,,,,,,,,,,,,,,,,,,,,,,,,,,,,,,,,0,0,0,0,0,0,0,0,0,0,0,0,0,0,0,0,,,,,,,,,,,,,
341,814414,1745299284202,0.0,59.0,,-0.03,0.31,1.03,34.0,-1.0,0.0,1.07,1.24,87.0,4074.0,20.5,4.27,,13.71,1.156,97.0,,29.0,5.0,,,,,,,,,,,,0,0,0,0,0,0,0,0,0,0,0,0,0,0,0,0,,,,,,0.0,,,,,,,
342,814434,1745299284222,,,,,,,,,,,,,,,,,,,,,,,,,,,,,,,,,,0,0,0,0,0,0,0,0,0,0,0,0,0,0,0,0,,,,,,,,,,,,,
343,814454,1745299284242,0.0,62.0,,-0.02,0.3,1.01,34.0,-1.0,0.0,1.05,1.24,85.0,4074.0,20.5,4.27,,13.67,1.171,97.0,,28.8,5.0,,,,,,,,,,,,0,0,0,0,0,0,0,0,0,0,0,0,0,0,0,0,,,,,,0.0,,,,,,,
344,814474,1745299284262,,,,,,,,,,,,,,,,,,,,,,,13.0,36.0,13.0,11.0,0.0,124.0,0.0,0.0,2.26,,,0,0,0,0,0,0,0,0,0,0,0,0,0,0,0,0,,0.0,,,,,38.985416,-76.950104,19.67,48.4,35.0,3.0,0.7
345,814494,1745299284282,0.0,59.0,,-0.02,0.34,1.04,32.0,-2.0,0.0,1.09,1.24,88.0,4092.0,20.7,4.25,,13.68,1.195,97.0,,28.8,5.0,,,,,,,,,,,,0,0,0,0,0,0,0,0,0,0,0,0,0,0,0,0,,,,,,0.0,,,,,,,
346,814514,1745299284304,,,,,,,,,,,,,,,,,,,,,,,,,,,,,,,,,,0,0,0,0,0,0,0,0,0,0,0,0,0,0,0,0,,,,,,,,,,,,,
347,814534,1745299284324,0.0,56.0,,-0.02,0.29,1.0,30.0,-1.0,0.0,1.04,1.24,84.0,4084.0,20.7,4.23,,13.64,1.174,97.0,,28.8,5.0,,,,,,,,,,,,0,0,0,0,0,0,0,0,0,0,0,0,0,0,0,0,,,,,,0.0,,,,,,,
348,814554,1745299284344,,,,,,,,,,,,,,,,,,,,,,,,,,,,,,,,,,0,0,0,0,0,0,0,0,0,0,0,0,0,0,0,0,,,,,,,,,,,,,
349,814574,1745299284364,0.0,51.0,13.25,-0.01,0.21,1.05,27.0,-2.0,0.0,1.08,1.24,87.0,4120.0,20.7,4.23,15.0,13.57,1.156,97.0,173.0,28.8,5.0,12.0,36.0,13.0,12.0,0.0,120.0,0.0,0.0,2.26,0.0,1.0,0,0,0,0,0,0,0,0,0,0,0,0,0,0,0,0,0.0,1.0,1.0,0.0,0.0,0.0,38.98542,-76.950104,19.71,48.4,35.0,3.0,0.7
350,814594,1745299284384,,,,,,,,,,,,,,,,,,,,,,,,,,,,,,,,,,0,0,0,0,0,0,0,0,0,0,0,0,0,0,0,0,,,,,,,,,,,,,
351,814614,1745299284403,0.0,51.0,,-0.0,0.22,1.06,27.0,-2.0,0.0,1.08,1.24,88.0,4190.0,21.0,4.26,,13.57,1.156,95.2,,28.8,5.0,,,,,,,,,,,,0,0,0,0,0,0,0,0,0,0,0,0,0,0,0,0,,,,,,0.0,,,,,,,
352,814634,1745299284423,,,,,,,,,,,,,,,,,,,,,,,,,,,,,,,,,,0,0,0,0,0,0,0,0,0,0,0,0,0,0,0,0,,,,,,,,,,,,,
353,814654,1745299284443,0.0,62.0,,-0.02,0.18,1.07,25.0,-2.0,0.0,1.09,1.24,88.0,4190.0,21.0,4.26,,13.65,1.149,95.2,,28.9,5.0,,,,,,,,,,,,0,0,0,0,0,0,0,0,0,0,0,0,0,0,0,0,,,,,,0.0,,,,,,,
354,814674,1745299284463,,,,,,,,,,,,,,,,,,,,,,,12.0,36.0,13.0,12.0,0.0,120.0,0.0,0.0,2.26,,,0,0,0,0,0,0,0,0,0,0,0,0,0,0,0,0,,1.0,,,,,38.985428,-76.950104,19.63,48.4,35.0,3.0,0.7
355,814694,1745299284483,0.0,62.0,,-0.02,0.14,1.02,25.0,-2.0,0.0,1.02,1.24,83.0,4118.0,21.4,4.28,,13.76,1.155,95.2,,28.9,5.0,,,,,,,,,,,,0,0,0,0,0,0,0,0,0,0,0,0,0,0,0,0,,,,,,0.0,,,,,,,
356,814714,1745299284503,,,,,,,,,,,,,,,,,,,,,,,,,,,,,,,,,,0,0,0,0,0,0,0,0,0,0,0,0,0,0,0,0,,,,,,,,,,,,,
357,814734,1745299284523,0.0,62.0,,-0.03,0.13,1.03,23.0,-2.0,0.0,1.04,1.24,84.0,4101.0,21.4,4.27,,13.67,1.168,95.2,,28.9,5.0,,,,,,,,,,,,0,0,0,0,0,0,0,0,0,0,0,0,0,0,0,0,,,,,,0.0,,,,,,,
358,814754,1745299284543,,,,,,,,,,,,,,,,,,,,,,,,,,,,,,,,,,0,0,0,0,0,0,0,0,0,0,0,0,0,0,0,0,,,,,,,,,,,,,
359,814774,1745299284563,0.0,76.0,,-0.04,0.19,0.98,22.0,-2.0,0.0,1.0,1.24,81.0,4166.0,21.3,4.28,,13.64,1.176,95.2,,28.6,5.0,13.0,36.0,12.0,12.0,0.0,124.0,0.0,0.0,2.26,,,0,0,0,0,0,0,0,0,0,0,0,0,0,0,0,0,,1.0,,,,0.0,38.985432,-76.950104,19.98,48.4,35.0,3.0,0.7
360,814794,1745299284583,,,,,,,,,,,,,,,,,,,,,,,,,,,,,,,,,,0,0,0,0,0,0,0,0,0,0,0,0,0,0,0,0,,,,,,,,,,,,,
361,814814,1745299284603,0.0,65.0,,-0.03,0.07,0.97,18.0,-2.0,0.0,0.98,1.24,79.0,4246.0,21.3,4.28,,13.64,1.176,95.2,,28.6,5.0,,,,,,,,,,,,0,0,0,0,0,0,0,0,0,0,0,0,0,0,0,0,,,,,,0.0,,,,,,,
362,814834,1745299284623,,,,,,,,,,,,,,,,,,,,,,,,,,,,,,,,,,0,0,0,0,0,0,0,0,0,0,0,0,0,0,0,0,,,,,,,,,,,,,
363,814854,1745299284643,0.0,73.0,,-0.01,0.05,1.07,17.0,-2.0,0.0,1.07,1.24,87.0,4246.0,21.3,4.28,,13.69,1.152,95.2,,29.9,5.0,,,,,,,,,,,,0,0,0,0,0,0,0,0,0,0,0,0,0,0,0,0,,,,,,0.0,,,,,,,
364,814874,1745299284663,,,,,,,,,,,,,,,,,,,,,,,13.0,36.0,13.0,13.0,0.0,116.0,0.0,0.0,2.26,,,0,0,0,0,0,0,0,0,0,0,0,0,0,0,0,0,,0.0,,,,,38.985436,-76.950104,19.69,48.4,35.0,3.0,0.7
365,814894,1745299284683,0.0,73.0,,-0.0,-0.03,0.99,15.0,-1.0,0.0,0.99,1.24,80.0,4175.0,21.4,4.27,,13.65,1.157,95.2,,29.9,5.0,,,,,,,,,,,,0,0,0,0,0,0,0,0,0,0,0,0,0,0,0,0,,,,,,0.0,,,,,,,
366,814914,1745299284703,,,,,,,,,,,,,,,,,,,,,,,,,,,,,,,,,,0,0,0,0,0,0,0,0,0,0,0,0,0,0,0,0,,,,,,,,,,,,,
367,814934,1745299284723,0.0,73.0,,-0.03,0.06,1.06,15.0,-1.0,0.0,1.06,1.24,86.0,4153.0,21.5,4.28,,13.73,1.172,95.2,,29.9,5.0,,,,,,,,,,,,0,0,0,0,0,0,0,0,0,0,0,0,0,0,0,0,,,,,,0.0,,,,,,,
368,814954,1745299284743,,,,,,,,,,,,,,,,,,,,,,,,,,,,,,,,,,0,0,0,0,0,0,0,0,0,0,0,0,0,0,0,0,,,,,,,,,,,,,
369,814974,1745299284763,0.0,73.0,,-0.03,0.04,0.99,14.0,-1.0,0.0,0.99,1.24,80.0,4170.0,21.7,4.3,,13.67,1.183,95.2,,29.0,5.0,12.0,36.0,13.0,13.0,0.0,120.0,0.0,0.0,2.25,,,0,0,0,0,0,0,0,0,0,0,0,0,0,0,0,0,,1.0,,,,0.0,38.985439,-76.950104,19.92,48.4,35.0,3.0,0.7
370,814994,1745299284783,,,,,,,,,,,,,,,,,,,,,,,,,,,,,,,,,,0,0,0,0,0,0,0,0,0,0,0,0,0,0,0,0,,,,,,,,,,,,,
371,815014,1745299284803,0.0,62.0,,-0.03,-0.03,0.99,11.0,-1.0,0.0,0.99,0.99,100.0,4275.0,21.9,4.29,,13.67,1.183,95.2,,29.0,5.0,,,,,,,,,,,,0,0,0,0,0,0,0,0,0,0,0,0,0,0,0,0,,,,,,0.0,,,,,,,
372,815034,1745299284823,,,,,,,,,,,,,,,,,,,,,,,,,,,,,,,,,,0,0,0,0,0,0,0,0,0,0,0,0,0,0,0,0,,,,,,,,,,,,,
373,815054,1745299284843,0.0,70.0,,-0.01,-0.02,1.09,10.0,-1.0,0.0,1.1,1.1,100.0,4275.0,21.9,4.29,,13.68,1.178,95.2,,30.1,5.0,,,,,,,,,,,,0,0,0,0,0,0,0,0,0,0,0,0,0,0,0,0,,,,,,0.0,,,,,,,
374,815074,1745299284863,,,,,,,,,,,,,,,,,,,,,,,13.0,36.0,13.0,12.0,0.0,139.0,0.0,0.0,2.26,,,0,0,0,0,0,0,0,0,0,0,0,0,0,0,0,0,,1.0,,,,,38.985447,-76.950111,20.05,48.4,35.0,3.0,0.7
375,815094,1745299284883,0.0,90.0,,0.01,-0.03,1.03,11.0,-1.0,0.0,1.03,1.1,94.0,4269.0,22.8,4.34,,13.76,1.17,95.2,,30.1,5.0,,,,,,,,,,,,0,0,0,0,0,0,0,0,0,0,0,0,0,0,0,0,,,,,,0.0,,,,,,,
376,815114,1745299284903,,,,,,,,,,,,,,,,,,,,,,,,,,,,,,,,,,0,0,0,0,0,0,0,0,0,0,0,0,0,0,0,0,,,,,,,,,,,,,
377,815134,1745299284923,0.0,85.0,,0.01,-0.04,1.01,9.0,-1.0,1.0,1.01,1.1,92.0,4227.0,23.3,4.38,,13.75,1.18,95.2,,30.1,5.0,,,,,,,,,,,,0,0,0,0,0,0,0,0,0,0,0,0,0,0,0,0,,,,,,0.0,,,,,,,
378,815154,1745299284943,,,,,,,,,,,,,,,,,,,,,,,,,,,,,,,,,,0,0,0,0,0,0,0,0,0,0,0,0,0,0,0,0,,,,,,,,,,,,,
