,Interval,Utc,FrontBP,SteerAng,Battery,AccelX,AccelY,AccelZ,Yaw,Pitch,Roll,Gsum,GsumMax,GsumPct,RPM,TPS,InjectorPW,Baro,MAP,Lambda,IAT,EngineTemp,EOP,EOT,WSFR,WSFL,WSRR,WSRL,TCSet,TCSlip,TCComp,TCCut,Analog8,OilTemp,AA_On,ThermLF1,ThermLF2,ThermRR1,ThermRR2,ThermLF3,ThermLF4,ThermLF5,ThermLF6,ThermLF7,ThermLF8,ThermRR3,ThermRR4,ThermRR5,ThermRR6,ThermRR7,ThermRR8,Gear,AA_On1,AA_LowDrag,Fuel_Mix,AA_Packages,Latitude,Longitude,Speed,GPSSats,GPSQual,GPSDOP
0,3389365,0,0.0,183.26,,-0.13,0.02,1.03,-1.0,-1.0,2.0,1.04,1.04,100.0,11281.0,0.0,1.4,,4.6,0.869,88.0,,68.2,5.0,,,,,,,,,,,,0,0,0,0,0,0,0,0,0,0,0,0,0,0,0,0,,,,,0.0,,,,,,
1,3389385,0,,,,,,,,,,,,,,,,,,,,,,,,,,,,,,,,,,0,0,0,0,0,0,0,0,0,0,0,0,0,0,0,0,,,,,,,,,,,
2,3389405,0,0.0,183.13,,-0.1,-0.22,0.98,-1.0,-1.0,2.0,1.01,1.04,97.0,10832.0,0.0,1.4,,4.36,0.855,88.0,,68.2,5.0,,,,,,,,,,,,0,0,0,0,0,0,0,0,0,0,0,0,0,0,0,0,,,,,0.0,,,,,,
3,3389425,0,,,,,,,,,,,,,,,,,,,,,,,,,,,,,,,,,,0,0,0,0,0,0,0,0,0,0,0,0,0,0,0,0,,,,,,,,,,,
4,3389445,0,0.0,183.01,,-0.07,-0.49,1.05,-1.0,-1.0,1.0,1.17,1.17,100.0,10484.0,0.0,1.4,,4.36,0.866,88.0,,68.6,5.0,0.0,0.0,0.0,0.0,0.0,0.0,0.0,0.0,2.27,,,0,0,0,0,0,0,0,0,0,0,0,0,0,0,0,0,0.0,,,,0.0,0.0,0.0,0.0,0.0,0.0,0.0
5,3389465,0,,,,,,,,,,,,,,,,,,,,,,,,,,,,,,,,,,0,0,0,0,0,0,0,0,0,0,0,0,0,0,0,0,,,,,,,,,,,
6,3389485,0,0.0,183.01,,-0.06,-0.55,0.94,-2.0,0.0,1.0,1.09,1.17,94.0,10121.0,0.0,1.4,,4.36,0.866,88.0,,68.6,5.0,,,,,,,,,,,,0,0,0,0,0,0,0,0,0,0,0,0,0,0,0,0,,,,,0.0,,,,,,
7,3389505,0,,,,,,,,,,,,,,,,,,,,,,,,,,,,,,,,,,0,0,0,0,0,0,0,0,0,0,0,0,0,0,0,0,,,,,,,,,,,
8,3389525,0,0.0,182.88,,-0.06,-0.44,0.95,-3.0,0.0,1.0,1.05,1.17,90.0,10121.0,0.0,1.4,,4.57,0.872,88.0,,66.9,5.0,,,,,,,,,,,,0,0,0,0,0,0,0,0,0,0,0,0,0,0,0,0,,,,,0.0,,,,,,
9,3389545,0,,,,,,,,,,,,,,,,,,,,,,,0.0,0.0,0.0,0.0,0.0,0.0,0.0,0.0,2.26,,,0,0,0,0,0,0,0,0,0,0,0,0,0,0,0,0,0.0,,,,,0.0,0.0,0.0,0.0,0.0,0.0
10,3389565,0,0.0,182.88,,-0.06,-0.33,0.94,-3.0,-1.0,1.0,1.0,1.17,85.0,9825.0,8.5,1.4,,5.36,0.889,88.0,,66.9,5.0,,,,,,,,,,,,0,0,0,0,0,0,0,0,0,0,0,0,0,0,0,0,,,,,0.0,,,,,,
11,3389585,0,,,,,,,,,,,,,,,,,,,,,,,,,,,,,,,,,,0,0,0,0,0,0,0,0,0,0,0,0,0,0,0,0,,,,,,,,,,,
12,3389605,0,0.0,182.88,,-0.05,-0.26,0.98,-1.0,0.0,0.0,1.02,1.17,87.0,9523.0,10.0,1.66,,5.98,0.903,88.0,,66.9,5.0,,,,,,,,,,,,0,0,0,0,0,0,0,0,0,0,0,0,0,0,0,0,,,,,0.0,,,,,,
13,3389625,0,,,,,,,,,,,,,,,,,,,,,,,,,,,,,,,,,,0,0,0,0,0,0,0,0,0,0,0,0,0,0,0,0,,,,,,,,,,,
14,3389645,0,0.0,182.88,,-0.03,-0.13,0.95,-2.0,0.0,1.0,0.96,1.17,82.0,9219.0,9.9,1.79,,6.23,0.992,88.0,,64.7,5.0,0.0,0.0,0.0,0.0,0.0,0.0,0.0,0.0,2.26,,,0,0,0,0,0,0,0,0,0,0,0,0,0,0,0,0,0.0,,,,0.0,0.0,0.0,0.0,0.0,0.0,0.0
15,3389665,0,,,,,,,,,,,,,,,,,,,,,,,,,,,,,,,,,,0,0,0,0,0,0,0,0,0,0,0,0,0,0,0,0,,,,,,,,,,,
16,3389685,0,0.0,183.01,,-0.02,-0.21,0.92,-3.0,0.0,1.0,0.95,1.17,81.0,9014.0,10.1,1.93,,6.23,0.992,88.0,,64.7,5.0,,,,,,,,,,,,0,0,0,0,0,0,0,0,0,0,0,0,0,0,0,0,,,,,0.0,,,,,,
17,3389705,0,,,,,,,,,,,,,,,,,,,,,,,,,,,,,,,,,,0,0,0,0,0,0,0,0,0,0,0,0,0,0,0,0,,,,,,,,,,,
18,3389725,0,0.0,183.01,,-0.03,-0.23,0.9,-4.0,0.0,1.0,0.93,1.17,79.0,9014.0,10.1,1.93,,6.6,1.177,88.0,,63.4,5.0,,,,,,,,,,,,0,0,0,0,0,0,0,0,0,0,0,0,0,0,0,0,,,,,0.0,,,,,,
19,3389745,0,,,,,,,,,,,,,,,,,,,,,,,0.0,0.0,0.0,0.0,0.0,0.0,0.0,0.0,2.27,,,0,0,0,0,0,0,0,0,0,0,0,0,0,0,0,0,0.0,,,,,0.0,0.0,0.0,0.0,0.0,0.0
20,3389765,0,0.0,182.88,,-0.02,-0.16,0.86,-4.0,0.0,1.0,0.88,1.17,75.0,8921.0,12.8,2.15,,7.25,1.247,88.0,,63.4,5.0,,,,,,,,,,,,0,0,0,0,0,0,0,0,0,0,0,0,0,0,0,0,,,,,0.0,,,,,,
21,3389785,0,,,,,,,,,,,,,,,,,,,,,,,,,,,,,,,,,,0,0,0,0,0,0,0,0,0,0,0,0,0,0,0,0,,,,,,,,,,,
22,3389805,0,0.0,182.76,,-0.0,-0.05,0.85,-4.0,-1.0,2.0,0.85,1.17,73.0,8940.0,12.4,2.28,,7.43,1.204,88.0,,63.4,5.0,,,,,,,,,,,,0,0,0,0,0,0,0,0,0,0,0,0,0,0,0,0,,,,,0.0,,,,,,
23,3389825,0,,,,,,,,,,,,,,,,,,,,,,,,,,,,,,,,,,0,0,0,0,0,0,0,0,0,0,0,0,0,0,0,0,,,,,,,,,,,
24,3389845,0,0.0,182.88,13.91,0.02,0.01,0.8,-4.0,-1.0,1.0,0.8,1.17,69.0,9027.0,10.5,2.2,15.0,7.41,1.128,88.0,178.0,64.5,5.0,0.0,0.0,0.0,0.0,0.0,0.0,0.0,0.0,2.27,0.0,1.0,0,0,0,0,0,0,0,0,0,0,0,0,0,0,0,0,0.0,0.0,0.0,0.0,0.0,0.0,0.0,0.0,0.0,0.0,0.0
25,3389865,0,,,,,,,,,,,,,,,,,,,,,,,,,,,,,,,,,,0,0,0,0,0,0,0,0,0,0,0,0,0,0,0,0,,,,,,,,,,,
26,3389885,0,0.0,182.88,,0.01,-0.08,0.8,-5.0,-1.0,2.0,0.8,1.17,69.0,9151.0,9.3,2.14,,7.41,1.128,88.0,,64.5,5.0,,,,,,,,,,,,0,0,0,0,0,0,0,0,0,0,0,0,0,0,0,0,,,,,0.0,,,,,,
27,3389905,0,,,,,,,,,,,,,,,,,,,,,,,,,,,,,,,,,,0,0,0,0,0,0,0,0,0,0,0,0,0,0,0,0,,,,,,,,,,,
28,3389925,0,0.0,182.76,,-0.03,-0.15,0.89,-6.0,-1.0,2.0,0.9,1.17,77.0,9151.0,9.3,2.14,,7.19,1.082,88.0,,66.4,5.0,,,,,,,,,,,,0,0,0,0,0,0,0,0,0,0,0,0,0,0,0,0,,,,,0.0,,,,,,
29,3389945,0,,,,,,,,,,,,,,,,,,,,,,,0.0,0.0,0.0,0.0,0.0,0.0,0.0,0.0,2.27,,,0,0,0,0,0,0,0,0,0,0,0,0,0,0,0,0,0.0,,,,,0.0,0.0,0.0,0.0,0.0,0.0
30,3389965,0,0.0,182.63,,-0.05,-0.18,0.97,-4.0,0.0,1.0,0.99,1.17,85.0,9206.0,7.9,2.0,,6.94,1.052,88.0,,66.4,5.0,,,,,,,,,,,,0,0,0,0,0,0,0,0,0,0,0,0,0,0,0,0,,,,,0.0,,,,,,
31,3389985,0,,,,,,,,,,,,,,,,,,,,,,,,,,,,,,,,,,0,0,0,0,0,0,0,0,0,0,0,0,0,0,0,0,,,,,,,,,,,
32,3390005,0,0.0,182.63,,-0.08,-0.21,1.03,-2.0,0.0,1.0,1.06,1.17,91.0,9185.0,7.1,1.94,,6.71,1.047,88.0,,66.4,5.0,,,,,,,,,,,,0,0,0,0,0,0,0,0,0,0,0,0,0,0,0,0,,,,,0.0,,,,,,
33,3390025,0,,,,,,,,,,,,,,,,,,,,,,,,,,,,,,,,,,0,0,0,0,0,0,0,0,0,0,0,0,0,0,0,0,,,,,,,,,,,
34,3390045,0,0.0,182.76,,-0.1,0.03,1.01,-2.0,0.0,1.0,1.01,1.17,87.0,9135.0,7.0,1.87,,6.71,1.047,88.0,,67.5,5.0,0.0,0.0,0.0,0.0,0.0,0.0,0.0,0.0,2.26,,,0,0,0,0,0,0,0,0,0,0,0,0,0,0,0,0,0.0,,,,0.0,0.0,0.0,0.0,0.0,0.0,0.0
35,3390065,0,,,,,,,,,,,,,,,,,,,,,,,,,,,,,,,,,,0,0,0,0,0,0,0,0,0,0,0,0,0,0,0,0,,,,,,,,,,,
36,3390085,0,0.0,182.76,,-0.12,0.16,0.94,-3.0,0.0,1.0,0.97,1.17,83.0,9135.0,7.0,1.87,,6.6,1.055,88.0,,67.5,5.0,,,,,,,,,,,,0,0,0,0,0,0,0,0,0,0,0,0,0,0,0,0,,,,,0.0,,,,,,
37,3390105,0,,,,,,,,,,,,,,,,,,,,,,,,,,,,,,,,,,0,0,0,0,0,0,0,0,0,0,0,0,0,0,0,0,,,,,,,,,,,
38,3390125,0,0.0,182.63,,-0.12,0.24,0.9,-4.0,0.0,2.0,0.94,1.17,81.0,9019.0,5.6,1.77,,6.35,1.073,88.0,,66.0,5.0,,,,,,,,,,,,0,0,0,0,0,0,0,0,0,0,0,0,0,0,0,0,,,,,0.0,,,,,,
39,3390145,0,,,,,,,,,,,,,,,,,,,,,,,0.0,0.0,0.0,0.0,0.0,0.0,0.0,0.0,2.26,,,0,0,0,0,0,0,0,0,0,0,0,0,0,0,0,0,0.0,,,,,0.0,0.0,0.0,0.0,0.0,0.0
40,3390165,0,0.0,182.63,,-0.11,0.26,0.94,-4.0,0.0,2.0,0.98,1.17,84.0,8835.0,3.2,1.4,,6.06,1.082,95.2,,66.0,5.0,,,,,,,,,,,,0,0,0,0,0,0,0,0,0,0,0,0,0,0,0,0,,,,,0.0,,,,,,
41,3390185,0,,,,,,,,,,,,,,,,,,,,,,,,,,,,,,,,,,0,0,0,0,0,0,0,0,0,0,0,0,0,0,0,0,,,,,,,,,,,
42,3390205,0,0.0,182.5,,-0.12,0.14,0.95,-2.0,0.0,1.0,0.96,1.17,83.0,8381.0,2.3,1.4,,5.8,1.093,95.2,,66.0,5.0,,,,,,,,,,,,0,0,0,0,0,0,0,0,0,0,0,0,0,0,0,0,,,,,0.0,,,,,,
43,3390225,0,,,,,,,,,,,,,,,,,,,,,,,,,,,,,,,,,,0,0,0,0,0,0,0,0,0,0,0,0,0,0,0,0,,,,,,,,,,,
44,3390245,0,0.0,182.63,,-0.15,0.18,0.94,-3.0,0.0,1.0,0.97,1.17,83.0,7869.0,2.0,1.4,,5.8,1.093,95.2,,61.0,5.0,0.0,0.0,0.0,0.0,0.0,0.0,0.0,0.0,2.27,,,0,0,0,0,0,0,0,0,0,0,0,0,0,0,0,0,0.0,,,,0.0,0.0,0.0,0.0,0.0,0.0,0.0
45,3390265,0,,,,,,,,,,,,,,,,,,,,,,,,,,,,,,,,,,0,0,0,0,0,0,0,0,0,0,0,0,0,0,0,0,,,,,,,,,,,
46,3390285,0,0.0,182.63,,-0.18,-0.08,0.94,0.0,0.0,1.0,0.96,1.17,82.0,7869.0,2.0,1.4,,5.86,1.153,95.2,,61.0,5.0,,,,,,,,,,,,0,0,0,0,0,0,0,0,0,0,0,0,0,0,0,0,,,,,0.0,,,,,,
47,3390305,0,,,,,,,,,,,,,,,,,,,,,,,,,,,,,,,,,,0,0,0,0,0,0,0,0,0,0,0,0,0,0,0,0,,,,,,,,,,,
48,3390325,0,0.0,182.5,,-0.2,-0.03,0.97,-1.0,0.0,1.0,0.99,1.17,85.0,7447.0,1.6,1.4,,5.91,1.248,95.2,,60.9,5.0,,,,,,,,,,,,0,0,0,0,0,0,0,0,0,0,0,0,0,0,0,0,,,,,0.0,,,,,,
49,3390345,0,,,,,,,,,,,,,,,,,,,,,,,0.0,0.0,0.0,0.0,0.0,0.0,0.0,0.0,2.27,,,0,0,0,0,0,0,0,0,0,0,0,0,0,0,0,0,0.0,,,,,0.0,0.0,0.0,0.0,0.0,0.0
50,3390365,0,0.0,182.5,,-0.18,-0.06,0.96,0.0,0.0,0.0,0.98,1.17,84.0,7033.0,1.6,1.4,,6.26,1.249,95.2,,60.9,5.0,,,,,,,,,,,,0,0,0,0,0,0,0,0,0,0,0,0,0,0,0,0,,,,,0.0,,,,,,
51,3390385,0,,,,,,,,,,,,,,,,,,,,,,,,,,,,,,,,,,0,0,0,0,0,0,0,0,0,0,0,0,0,0,0,0,,,,,,,,,,,
52,3390405,0,0.0,182.5,,-0.12,-0.01,1.01,0.0,0.0,1.0,1.02,1.17,87.0,6565.0,1.8,1.4,,6.75,1.251,95.2,,60.9,5.0,,,,,,,,,,,,0,0,0,0,0,0,0,0,0,0,0,0,0,0,0,0,,,,,0.0,,,,,,
53,3390425,0,,,,,,,,,,,,,,,,,,,,,,,,,,,,,,,,,,0,0,0,0,0,0,0,0,0,0,0,0,0,0,0,0,,,,,,,,,,,
54,3390445,0,0.0,182.5,,-0.19,0.07,1.01,-1.0,0.0,1.0,1.03,1.17,88.0,6154.0,3.6,1.86,,6.75,1.251,95.2,,59.4,5.0,0.0,0.0,0.0,0.0,0.0,0.0,0.0,0.0,2.27,,,0,0,0,0,0,0,0,0,0,0,0,0,0,0,0,0,0.0,,,,0.0,0.0,0.0,0.0,0.0,0.0,0.0
55,3390465,0,,,,,,,,,,,,,,,,,,,,,,,,,,,,,,,,,,0,0,0,0,0,0,0,0,0,0,0,0,0,0,0,0,,,,,,,,,,,
56,3390485,0,0.0,182.5,,-0.25,0.2,1.05,-2.0,0.0,2.0,1.1,1.17,94.0,6154.0,3.6,1.86,,7.41,1.251,95.2,,59.4,5.0,,,,,,,,,,,,0,0,0,0,0,0,0,0,0,0,0,0,0,0,0,0,,,,,0.0,,,,,,
57,3390505,0,,,,,,,,,,,,,,,,,,,,,,,,,,,,,,,,,,0,0,0,0,0,0,0,0,0,0,0,0,0,0,0,0,,,,,,,,,,,
58,3390525,0,0.0,182.63,,-0.16,0.13,1.07,-1.0,0.0,1.0,1.09,1.17,94.0,5771.0,8.5,2.29,,8.46,1.25,95.2,,57.9,5.0,,,,,,,,,,,,0,0,0,0,0,0,0,0,0,0,0,0,0,0,0,0,,,,,0.0,,,,,,
59,3390545,0,,,,,,,,,,,,,,,,,,,,,,,0.0,0.0,0.0,0.0,0.0,0.0,0.0,0.0,2.26,,,0,0,0,0,0,0,0,0,0,0,0,0,0,0,0,0,0.0,,,,,0.0,0.0,0.0,0.0,0.0,0.0
60,3390565,0,0.0,182.63,,-0.18,0.16,1.08,-2.0,0.0,1.0,1.11,1.17,95.0,5523.0,10.5,2.34,,9.56,1.25,95.2,,57.9,5.0,,,,,,,,,,,,0,0,0,0,0,0,0,0,0,0,0,0,0,0,0,0,,,,,0.0,,,,,,
61,3390585,0,,,,,,,,,,,,,,,,,,,,,,,,,,,,,,,,,,0,0,0,0,0,0,0,0,0,0,0,0,0,0,0,0,,,,,,,,,,,
62,3390605,0,0.0,182.63,,-0.18,0.14,1.07,-1.0,0.0,1.0,1.09,1.17,93.0,5345.0,10.7,2.52,,10.46,1.251,95.2,,57.9,5.0,,,,,,,,,,,,0,0,0,0,0,0,0,0,0,0,0,0,0,0,0,0,,,,,0.0,,,,,,
63,3390625,0,,,,,,,,,,,,,,,,,,,,,,,,,,,,,,,,,,0,0,0,0,0,0,0,0,0,0,0,0,0,0,0,0,,,,,,,,,,,
64,3390645,0,0.0,182.76,,-0.15,0.13,1.06,-1.0,0.0,1.0,1.08,1.17,93.0,5189.0,10.6,2.87,,10.46,1.251,95.2,,58.2,5.0,0.0,0.0,0.0,0.0,0.0,0.0,0.0,0.0,2.27,,,0,0,0,0,0,0,0,0,0,0,0,0,0,0,0,0,0.0,,,,0.0,0.0,0.0,0.0,0.0,0.0,0.0
65,3390665,0,,,,,,,,,,,,,,,,,,,,,,,,,,,,,,,,,,0,0,0,0,0,0,0,0,0,0,0,0,0,0,0,0,,,,,,,,,,,
66,3390685,0,0.0,182.76,,-0.13,0.04,1.03,0.0,0.0,1.0,1.04,1.17,89.0,5189.0,10.6,2.87,,11.01,1.25,95.2,,58.2,5.0,,,,,,,,,,,,0,0,0,0,0,0,0,0,0,0,0,0,0,0,0,0,,,,,0.0,,,,,,
67,3390705,0,,,,,,,,,,,,,,,,,,,,,,,,,,,,,,,,,,0,0,0,0,0,0,0,0,0,0,0,0,0,0,0,0,,,,,,,,,,,
68,3390725,0,0.0,182.76,,-0.13,0.06,1.01,0.0,0.0,1.0,1.02,1.17,88.0,5068.0,10.1,3.27,,11.34,1.235,95.2,,57.6,5.0,,,,,,,,,,,,0,0,0,0,0,0,0,0,0,0,0,0,0,0,0,0,,,,,0.0,,,,,,
69,3390745,0,,,,,,,,,,,,,,,,,,,,,,,0.0,0.0,0.0,0.0,0.0,0.0,0.0,0.0,2.27,,,0,0,0,0,0,0,0,0,0,0,0,0,0,0,0,0,0.0,,,,,0.0,0.0,0.0,0.0,0.0,0.0
70,3390765,0,0.0,182.76,,-0.12,0.06,1.01,0.0,0.0,1.0,1.02,1.17,87.0,5054.0,8.2,3.17,,11.61,1.127,95.2,,57.6,5.0,,,,,,,,,,,,0,0,0,0,0,0,0,0,0,0,0,0,0,0,0,0,,,,,0.0,,,,,,
71,3390785,0,,,,,,,,,,,,,,,,,,,,,,,,,,,,,,,,,,0,0,0,0,0,0,0,0,0,0,0,0,0,0,0,0,,,,,,,,,,,
72,3390805,0,0.0,182.76,,-0.11,0.08,1.04,0.0,0.0,1.0,1.05,1.17,90.0,5097.0,7.5,3.05,,11.57,1.12,95.2,,57.6,5.0,,,,,,,,,,,,0,0,0,0,0,0,0,0,0,0,0,0,0,0,0,0,,,,,0.0,,,,,,
73,3390825,0,,,,,,,,,,,,,,,,,,,,,,,,,,,,,,,,,,0,0,0,0,0,0,0,0,0,0,0,0,0,0,0,0,,,,,,,,,,,
74,3390845,0,0.0,182.88,13.9,-0.1,0.03,0.98,0.0,0.0,0.0,0.99,1.17,85.0,4966.0,7.5,3.0,15.0,11.57,1.12,95.2,180.0,58.7,5.0,0.0,0.0,0.0,0.0,0.0,0.0,0.0,0.0,2.27,0.0,1.0,0,0,0,0,0,0,0,0,0,0,0,0,0,0,0,0,0.0,0.0,0.0,0.0,0.0,0.0,0.0,0.0,0.0,0.0,0.0
75,3390865,0,,,,,,,,,,,,,,,,,,,,,,,,,,,,,,,,,,0,0,0,0,0,0,0,0,0,0,0,0,0,0,0,0,,,,,,,,,,,
76,3390885,0,0.0,183.01,,-0.1,0.08,1.03,0.0,0.0,1.0,1.04,1.17,89.0,4966.0,7.5,3.0,,11.61,1.055,95.2,,58.7,5.0,,,,,,,,,,,,0,0,0,0,0,0,0,0,0,0,0,0,0,0,0,0,,,,,0.0,,,,,,
77,3390905,0,,,,,,,,,,,,,,,,,,,,,,,,,,,,,,,,,,0,0,0,0,0,0,0,0,0,0,0,0,0,0,0,0,,,,,,,,,,,
78,3390925,0,0.0,183.01,,-0.08,-0.03,0.98,0.0,0.0,0.0,0.98,1.17,84.0,5387.0,7.4,3.04,,11.76,1.018,95.2,,57.0,5.0,,,,,,,,,,,,0,0,0,0,0,0,0,0,0,0,0,0,0,0,0,0,,,,,0.0,,,,,,
79,3390945,0,,,,,,,,,,,,,,,,,,,,,,,0.0,0.0,0.0,0.0,0.0,0.0,0.0,0.0,2.27,,,0,0,0,0,0,0,0,0,0,0,0,0,0,0,0,0,0.0,,,,,0.0,0.0,0.0,0.0,0.0,0.0
80,3390965,0,0.0,183.01,,-0.06,0.04,1.02,0.0,0.0,0.0,1.02,1.17,87.0,4795.0,7.5,3.41,,11.71,1.045,95.2,,57.0,5.0,,,,,,,,,,,,0,0,0,0,0,0,0,0,0,0,0,0,0,0,0,0,,,,,0.0,,,,,,
81,3390985,0,,,,,,,,,,,,,,,,,,,,,,,,,,,,,,,,,,0,0,0,0,0,0,0,0,0,0,0,0,0,0,0,0,,,,,,,,,,,
82,3391005,0,0.0,183.13,,-0.08,0.18,1.1,0.0,0.0,1.0,1.12,1.17,96.0,4672.0,7.6,3.45,,11.79,1.035,95.2,,57.0,5.0,,,,,,,,,,,,0,0,0,0,0,0,0,0,0,0,0,0,0,0,0,0,,,,,0.0,,,,,,
83,3391025,0,,,,,,,,,,,,,,,,,,,,,,,,,,,,,,,,,,0,0,0,0,0,0,0,0,0,0,0,0,0,0,0,0,,,,,,,,,,,
84,3391045,0,0.0,183.13,,-0.09,0.28,1.17,-1.0,0.0,1.0,1.21,1.21,100.0,4525.0,7.3,3.12,,11.79,1.035,95.2,,54.8,5.0,0.0,0.0,0.0,0.0,0.0,0.0,0.0,0.0,2.26,,,0,0,0,0,0,0,0,0,0,0,0,0,0,0,0,0,0.0,,,,0.0,0.0,0.0,0.0,0.0,0.0,0.0
85,3391065,0,,,,,,,,,,,,,,,,,,,,,,,,,,,,,,,,,,0,0,0,0,0,0,0,0,0,0,0,0,0,0,0,0,,,,,,,,,,,
86,3391085,0,0.0,183.13,,-0.11,0.38,1.24,-2.0,0.0,2.0,1.3,1.3,100.0,4525.0,7.3,3.12,,11.92,1.087,95.2,,54.8,5.0,,,,,,,,,,,,0,0,0,0,0,0,0,0,0,0,0,0,0,0,0,0,,,,,0.0,,,,,,
87,3391105,0,,,,,,,,,,,,,,,,,,,,,,,,,,,,,,,,,,0,0,0,0,0,0,0,0,0,0,0,0,0,0,0,0,,,,,,,,,,,
88,3391125,0,0.0,183.13,,-0.14,0.42,1.25,-3.0,0.0,2.0,1.33,1.33,100.0,4579.0,7.2,3.12,,11.91,1.043,95.2,,53.9,5.0,,,,,,,,,,,,0,0,0,0,0,0,0,0,0,0,0,0,0,0,0,0,,,,,0.0,,,,,,
89,3391145,0,,,,,,,,,,,,,,,,,,,,,,,0.0,0.0,0.0,0.0,0.0,0.0,0.0,0.0,2.28,,,0,0,0,0,0,0,0,0,0,0,0,0,0,0,0,0,0.0,,,,,0.0,0.0,0.0,0.0,0.0,0.0
90,3391165,0,0.0,183.13,,-0.14,0.29,1.19,-3.0,0.0,2.0,1.23,1.33,93.0,4609.0,7.0,3.12,,12.05,1.039,95.2,,53.9,5.0,,,,,,,,,,,,0,0,0,0,0,0,0,0,0,0,0,0,0,0,0,0,,,,,0.0,,,,,,
91,3391185,0,,,,,,,,,,,,,,,,,,,,,,,,,,,,,,,,,,0,0,0,0,0,0,0,0,0,0,0,0,0,0,0,0,,,,,,,,,,,
92,3391205,0,0.0,183.26,,-0.12,0.28,1.17,-3.0,0.0,2.0,1.21,1.33,91.0,4639.0,6.8,3.11,,12.05,1.039,95.2,,53.9,5.0,,,,,,,,,,,,0,0,0,0,0,0,0,0,0,0,0,0,0,0,0,0,,,,,0.0,,,,,,
93,3391225,0,,,,,,,,,,,,,,,,,,,,,,,,,,,,,,,,,,0,0,0,0,0,0,0,0,0,0,0,0,0,0,0,0,,,,,,,,,,,
94,3391245,0,0.0,183.26,,-0.1,0.18,1.08,-1.0,0.0,1.0,1.1,1.33,83.0,4639.0,6.8,3.11,,11.99,0.997,95.2,,55.4,5.0,0.0,0.0,0.0,0.0,0.0,0.0,0.0,0.0,2.27,,,0,0,0,0,0,0,0,0,0,0,0,0,0,0,0,0,0.0,,,,0.0,0.0,0.0,0.0,0.0,0.0,0.0
95,3391265,0,,,,,,,,,,,,,,,,,,,,,,,,,,,,,,,,,,0,0,0,0,0,0,0,0,0,0,0,0,0,0,0,0,,,,,,,,,,,
96,3391285,0,0.0,183.26,,-0.07,0.24,1.13,0.0,0.0,1.0,1.15,1.33,87.0,4615.0,6.8,3.13,,11.96,0.989,95.2,,55.4,5.0,,,,,,,,,,,,0,0,0,0,0,0,0,0,0,0,0,0,0,0,0,0,,,,,0.0,,,,,,
97,3391305,0,,,,,,,,,,,,,,,,,,,,,,,,,,,,,,,,,,0,0,0,0,0,0,0,0,0,0,0,0,0,0,0,0,,,,,,,,,,,
98,3391325,0,0.0,183.26,,-0.05,0.39,1.2,0.0,0.0,1.0,1.26,1.33,95.0,4606.0,6.9,3.12,,12.09,1.006,95.2,,55.4,5.0,,,,,,,,,,,,0,0,0,0,0,0,0,0,0,0,0,0,0,0,0,0,,,,,0.0,,,,,,
99,3391345,0,,,,,,,,,,,,,,,,,,,,,,,0.0,0.0,0.0,0.0,0.0,0.0,0.0,0.0,2.27,,,0,0,0,0,0,0,0,0,0,0,0,0,0,0,0,0,0.0,,,,,0.0,0.0,0.0,0.0,0.0,0.0
100,3391365,0,0.0,183.26,,-0.06,0.46,1.24,-1.0,0.0,1.0,1.32,1.33,100.0,4645.0,7.1,3.12,,12.07,1.034,95.2,,54.3,5.0,,,,,,,,,,,,0,0,0,0,0,0,0,0,0,0,0,0,0,0,0,0,,,,,0.0,,,,,,
101,3391385,0,,,,,,,,,,,,,,,,,,,,,,,,,,,,,,,,,,0,0,0,0,0,0,0,0,0,0,0,0,0,0,0,0,,,,,,,,,,,
102,3391405,0,0.0,183.38,,-0.08,0.35,1.19,-2.0,0.0,2.0,1.24,1.33,93.0,4613.0,7.3,3.11,,12.07,1.034,95.2,,54.3,5.0,,,,,,,,,,,,0,0,0,0,0,0,0,0,0,0,0,0,0,0,0,0,,,,,0.0,,,,,,
103,3391425,0,,,,,,,,,,,,,,,,,,,,,,,,,,,,,,,,,,0,0,0,0,0,0,0,0,0,0,0,0,0,0,0,0,,,,,,,,,,,
104,3391445,0,0.0,183.38,,-0.07,0.16,1.09,-1.0,0.0,1.0,1.1,1.33,83.0,4613.0,7.3,3.11,,12.03,1.046,95.2,,54.4,5.0,0.0,0.0,0.0,0.0,0.0,0.0,0.0,0.0,2.26,,,0,0,0,0,0,0,0,0,0,0,0,0,0,0,0,0,0.0,,,,0.0,0.0,0.0,0.0,0.0,0.0,0.0
105,3391465,0,,,,,,,,,,,,,,,,,,,,,,,,,,,,,,,,,,0,0,0,0,0,0,0,0,0,0,0,0,0,0,0,0,,,,,,,,,,,
106,3391485,0,0.0,183.51,,-0.05,0.13,1.07,-1.0,0.0,1.0,1.08,1.33,81.0,4655.0,7.3,3.12,,12.11,1.026,95.2,,54.4,5.0,,,,,,,,,,,,0,0,0,0,0,0,0,0,0,0,0,0,0,0,0,0,,,,,0.0,,,,,,
107,3391505,0,,,,,,,,,,,,,,,,,,,,,,,,,,,,,,,,,,0,0,0,0,0,0,0,0,0,0,0,0,0,0,0,0,,,,,,,,,,,
108,3391525,0,0.0,183.51,,-0.06,0.22,1.12,-1.0,0.0,1.0,1.15,1.33,86.0,4720.0,7.3,3.11,,12.09,1.012,95.2,,54.4,5.0,,,,,,,,,,,,0,0,0,0,0,0,0,0,0,0,0,0,0,0,0,0,,,,,0.0,,,,,,
109,3391545,0,,,,,,,,,,,,,,,,,,,,,,,0.0,0.0,0.0,0.0,0.0,0.0,0.0,0.0,2.27,,,0,0,0,0,0,0,0,0,0,0,0,0,0,0,0,0,0.0,,,,,0.0,0.0,0.0,0.0,0.0,0.0
110,3391565,0,0.0,183.51,,-0.06,0.12,1.05,-1.0,0.0,1.0,1.06,1.33,80.0,4737.0,7.3,3.02,,12.08,0.998,95.2,,56.7,5.0,,,,,,,,,,,,0,0,0,0,0,0,0,0,0,0,0,0,0,0,0,0,,,,,0.0,,,,,,
111,3391585,0,,,,,,,,,,,,,,,,,,,,,,,,,,,,,,,,,,0,0,0,0,0,0,0,0,0,0,0,0,0,0,0,0,,,,,,,,,,,
112,3391605,0,0.0,183.51,,-0.04,0.13,1.06,0.0,0.0,0.0,1.07,1.33,81.0,4764.0,7.2,3.01,,11.99,0.998,95.2,,56.7,5.0,,,,,,,,,,,,0,0,0,0,0,0,0,0,0,0,0,0,0,0,0,0,,,,,0.0,,,,,,
113,3391625,0,,,,,,,,,,,,,,,,,,,,,,,,,,,,,,,,,,0,0,0,0,0,0,0,0,0,0,0,0,0,0,0,0,,,,,,,,,,,
114,3391645,0,0.0,183.63,,-0.06,0.21,1.11,0.0,0.0,1.0,1.13,1.33,85.0,4736.0,7.2,3.01,,11.99,0.985,95.2,,56.7,5.0,0.0,0.0,0.0,0.0,0.0,0.0,0.0,0.0,2.27,,,0,0,0,0,0,0,0,0,0,0,0,0,0,0,0,0,0.0,,,,0.0,0.0,0.0,0.0,0.0,0.0,0.0
115,3391665,0,,,,,,,,,,,,,,,,,,,,,,,,,,,,,,,,,,0,0,0,0,0,0,0,0,0,0,0,0,0,0,0,0,,,,,,,,,,,
116,3391685,0,0.0,183.63,,-0.07,0.09,1.04,-1.0,0.0,1.0,1.05,1.33,79.0,4736.0,7.0,3.02,,12.01,1.013,95.2,,56.7,5.0,,,,,,,,,,,,0,0,0,0,0,0,0,0,0,0,0,0,0,0,0,0,,,,,0.0,,,,,,
117,3391705,0,,,,,,,,,,,,,,,,,,,,,,,,,,,,,,,,,,0,0,0,0,0,0,0,0,0,0,0,0,0,0,0,0,,,,,,,,,,,
118,3391725,0,0.0,183.63,,-0.05,-0.08,0.97,0.0,0.0,0.0,0.98,1.33,74.0,4722.0,6.8,3.04,,12.07,1.03,95.2,,56.7,5.0,,,,,,,,,,,,0,0,0,0,0,0,0,0,0,0,0,0,0,0,0,0,,,,,0.0,,,,,,
119,3391745,0,,,,,,,,,,,,,,,,,,,,,,,0.0,0.0,0.0,0.0,0.0,0.0,0.0,0.0,2.27,,,0,0,0,0,0,0,0,0,0,0,0,0,0,0,0,0,0.0,,,,,0.0,0.0,0.0,0.0,0.0,0.0
120,3391765,0,0.0,183.63,,-0.02,-0.03,0.99,0.0,0.0,0.0,0.99,1.33,75.0,4684.0,6.7,3.05,,12.04,1.037,95.2,,55.7,5.0,,,,,,,,,,,,0,0,0,0,0,0,0,0,0,0,0,0,0,0,0,0,,,,,0.0,,,,,,
121,3391785,0,,,,,,,,,,,,,,,,,,,,,,,,,,,,,,,,,,0,0,0,0,0,0,0,0,0,0,0,0,0,0,0,0,,,,,,,,,,,
122,3391805,0,0.0,183.51,,-0.03,0.11,1.07,-1.0,0.0,1.0,1.07,1.33,81.0,4698.0,6.8,3.06,,12.04,1.037,95.2,,55.7,5.0,,,,,,,,,,,,0,0,0,0,0,0,0,0,0,0,0,0,0,0,0,0,,,,,0.0,,,,,,
123,3391825,0,,,,,,,,,,,,,,,,,,,,,,,,,,,,,,,,,,0,0,0,0,0,0,0,0,0,0,0,0,0,0,0,0,,,,,,,,,,,
124,3391845,0,0.0,183.63,13.93,-0.05,0.07,1.03,-1.0,0.0,1.0,1.03,1.33,78.0,4698.0,6.8,3.06,15.0,12.0,1.029,95.2,178.0,55.4,5.0,0.0,0.0,0.0,0.0,0.0,0.0,0.0,0.0,2.27,0.0,1.0,0,0,0,0,0,0,0,0,0,0,0,0,0,0,0,0,0.0,0.0,0.0,0.0,0.0,0.0,0.0,0.0,0.0,0.0,0.0
125,3391865,0,,,,,,,,,,,,,,,,,,,,,,,,,,,,,,,,,,0,0,0,0,0,0,0,0,0,0,0,0,0,0,0,0,,,,,,,,,,,
126,3391885,0,0.0,183.63,,-0.04,-0.07,0.93,0.0,0.0,0.0,0.94,1.33,71.0,4659.0,7.2,3.05,,12.03,1.039,95.2,,55.4,5.0,,,,,,,,,,,,0,0,0,0,0,0,0,0,0,0,0,0,0,0,0,0,,,,,0.0,,,,,,
127,3391905,0,,,,,,,,,,,,,,,,,,,,,,,,,,,,,,,,,,0,0,0,0,0,0,0,0,0,0,0,0,0,0,0,0,,,,,,,,,,,
128,3391925,0,0.0,183.63,,-0.03,-0.06,0.96,1.0,0.0,0.0,0.96,1.33,73.0,4653.0,7.2,3.05,,11.99,1.025,95.2,,55.4,5.0,,,,,,,,,,,,0,0,0,0,0,0,0,0,0,0,0,0,0,0,0,0,,,,,0.0,,,,,,
129,3391945,0,,,,,,,,,,,,,,,,,,,,,,,0.0,0.0,0.0,0.0,0.0,0.0,0.0,0.0,2.27,,,0,0,0,0,0,0,0,0,0,0,0,0,0,0,0,0,0.0,,,,,0.0,0.0,0.0,0.0,0.0,0.0
130,3391965,0,0.0,183.63,,-0.04,0.07,1.02,0.0,0.0,0.0,1.03,1.33,77.0,4714.0,7.2,3.05,,12.04,1.027,95.2,,55.7,5.0,,,,,,,,,,,,0,0,0,0,0,0,0,0,0,0,0,0,0,0,0,0,,,,,0.0,,,,,,
131,3391985,0,,,,,,,,,,,,,,,,,,,,,,,,,,,,,,,,,,0,0,0,0,0,0,0,0,0,0,0,0,0,0,0,0,,,,,,,,,,,
132,3392005,0,0.0,183.63,,-0.04,-0.01,0.96,0.0,0.0,0.0,0.96,1.33,73.0,4714.0,7.2,3.05,,12.04,1.027,95.2,,55.7,5.0,,,,,,,,,,,,0,0,0,0,0,0,0,0,0,0,0,0,0,0,0,0,,,,,0.0,,,,,,
133,3392025,0,,,,,,,,,,,,,,,,,,,,,,,,,,,,,,,,,,0,0,0,0,0,0,0,0,0,0,0,0,0,0,0,0,,,,,,,,,,,
134,3392045,0,0.0,183.63,,-0.02,-0.05,0.95,1.0,0.0,0.0,0.95,1.33,71.0,4764.0,7.2,3.03,,11.99,1.011,95.2,,56.1,5.0,0.0,0.0,0.0,0.0,0.0,0.0,0.0,0.0,2.27,,,0,0,0,0,0,0,0,0,0,0,0,0,0,0,0,0,0.0,,,,0.0,0.0,0.0,0.0,0.0,0.0,0.0
135,3392065,0,,,,,,,,,,,,,,,,,,,,,,,,,,,,,,,,,,0,0,0,0,0,0,0,0,0,0,0,0,0,0,0,0,,,,,,,,,,,
136,3392085,0,0.0,183.63,,-0.02,0.1,1.05,0.0,0.0,0.0,1.06,1.33,80.0,4650.0,6.7,3.03,,12.04,0.994,95.2,,56.1,5.0,,,,,,,,,,,,0,0,0,0,0,0,0,0,0,0,0,0,0,0,0,0,,,,,0.0,,,,,,
137,3392105,0,,,,,,,,,,,,,,,,,,,,,,,,,,,,,,,,,,0,0,0,0,0,0,0,0,0,0,0,0,0,0,0,0,,,,,,,,,,,
138,3392125,0,0.0,183.63,,-0.04,0.17,1.1,-1.0,0.0,1.0,1.11,1.33,84.0,4681.0,6.9,3.03,,12.03,1.026,95.2,,56.1,5.0,,,,,,,,,,,,0,0,0,0,0,0,0,0,0,0,0,0,0,0,0,0,,,,,0.0,,,,,,
139,3392145,0,,,,,,,,,,,,,,,,,,,,,,,0.0,0.0,0.0,0.0,0.0,0.0,0.0,0.0,2.27,,,0,0,0,0,0,0,0,0,0,0,0,0,0,0,0,0,0.0,,,,,0.0,0.0,0.0,0.0,0.0,0.0
140,3392165,0,0.0,183.76,,-0.06,0.02,1.03,-1.0,0.0,1.0,1.03,1.33,78.0,4664.0,7.1,3.02,,12.03,1.026,95.2,,55.6,5.0,,,,,,,,,,,,0,0,0,0,0,0,0,0,0,0,0,0,0,0,0,0,,,,,0.0,,,,,,
141,3392185,0,,,,,,,,,,,,,,,,,,,,,,,,,,,,,,,,,,0,0,0,0,0,0,0,0,0,0,0,0,0,0,0,0,,,,,,,,,,,
142,3392205,0,0.0,183.76,,-0.06,0.02,1.0,-1.0,0.0,0.0,1.0,1.33,75.0,4664.0,7.1,3.02,,11.99,1.041,95.2,,55.6,5.0,,,,,,,,,,,,0,0,0,0,0,0,0,0,0,0,0,0,0,0,0,0,,,,,0.0,,,,,,
143,3392225,0,,,,,,,,,,,,,,,,,,,,,,,,,,,,,,,,,,0,0,0,0,0,0,0,0,0,0,0,0,0,0,0,0,,,,,,,,,,,
144,3392245,0,0.0,183.76,,-0.05,0.05,1.03,0.0,0.0,0.0,1.03,1.33,78.0,4659.0,7.2,3.02,,12.07,1.035,95.2,,55.8,5.0,0.0,0.0,0.0,0.0,0.0,0.0,0.0,0.0,2.26,,,0,0,0,0,0,0,0,0,0,0,0,0,0,0,0,0,0.0,,,,0.0,0.0,0.0,0.0,0.0,0.0,0.0
145,3392265,0,,,,,,,,,,,,,,,,,,,,,,,,,,,,,,,,,,0,0,0,0,0,0,0,0,0,0,0,0,0,0,0,0,,,,,,,,,,,
146,3392285,0,0.0,183.89,,-0.07,0.17,1.1,0.0,0.0,1.0,1.11,1.33,84.0,4671.0,7.2,3.02,,12.04,1.012,95.2,,55.8,5.0,,,,,,,,,,,,0,0,0,0,0,0,0,0,0,0,0,0,0,0,0,0,,,,,0.0,,,,,,
147,3392305,0,,,,,,,,,,,,,,,,,,,,,,,,,,,,,,,,,,0,0,0,0,0,0,0,0,0,0,0,0,0,0,0,0,,,,,,,,,,,
148,3392325,0,0.0,183.89,,-0.07,0.08,1.05,-1.0,0.0,1.0,1.06,1.33,80.0,4719.0,7.2,3.02,,12.04,0.994,95.2,,55.8,5.0,,,,,,,,,,,,0,0,0,0,0,0,0,0,0,0,0,0,0,0,0,0,,,,,0.0,,,,,,
149,3392345,0,,,,,,,,,,,,,,,,,,,,,,,0.0,0.0,0.0,0.0,0.0,0.0,0.0,0.0,2.27,,,0,0,0,0,0,0,0,0,0,0,0,0,0,0,0,0,0.0,,,,,0.0,0.0,0.0,0.0,0.0,0.0
150,3392365,0,0.0,183.89,,-0.04,-0.03,0.99,0.0,0.0,0.0,0.99,1.33,75.0,4719.0,7.2,3.02,,12.04,0.994,95.2,,55.8,5.0,,,,,,,,,,,,0,0,0,0,0,0,0,0,0,0,0,0,0,0,0,0,,,,,0.0,,,,,,
151,3392385,0,,,,,,,,,,,,,,,,,,,,,,,,,,,,,,,,,,0,0,0,0,0,0,0,0,0,0,0,0,0,0,0,0,,,,,,,,,,,
152,3392405,0,0.0,183.76,,-0.05,0.07,1.07,0.0,0.0,1.0,1.07,1.33,81.0,4721.0,7.0,3.02,,11.96,0.994,95.2,,55.8,5.0,,,,,,,,,,,,0,0,0,0,0,0,0,0,0,0,0,0,0,0,0,0,,,,,0.0,,,,,,
153,3392425,0,,,,,,,,,,,,,,,,,,,,,,,,,,,,,,,,,,0,0,0,0,0,0,0,0,0,0,0,0,0,0,0,0,,,,,,,,,,,
154,3392445,0,0.0,183.89,,-0.05,0.03,1.03,-1.0,0.0,1.0,1.03,1.33,78.0,4737.0,6.8,3.02,,11.99,1.003,95.2,,55.8,5.0,0.0,0.0,0.0,0.0,0.0,0.0,0.0,0.0,2.27,,,0,0,0,0,0,0,0,0,0,0,0,0,0,0,0,0,0.0,,,,0.0,0.0,0.0,0.0,0.0,0.0,0.0
155,3392465,0,,,,,,,,,,,,,,,,,,,,,,,,,,,,,,,,,,0,0,0,0,0,0,0,0,0,0,0,0,0,0,0,0,,,,,,,,,,,
156,3392485,0,0.0,183.76,,-0.04,-0.03,1.0,0.0,0.0,0.0,1.0,1.33,75.0,4773.0,6.4,3.03,,12.03,0.992,95.2,,57.1,5.0,,,,,,,,,,,,0,0,0,0,0,0,0,0,0,0,0,0,0,0,0,0,,,,,0.0,,,,,,
157,3392505,0,,,,,,,,,,,,,,,,,,,,,,,,,,,,,,,,,,0,0,0,0,0,0,0,0,0,0,0,0,0,0,0,0,,,,,,,,,,,
158,3392525,0,0.0,183.89,,-0.04,0.08,1.03,-1.0,0.0,1.0,1.04,1.33,78.0,4823.0,6.6,3.03,,12.03,0.992,95.2,,57.1,5.0,,,,,,,,,,,,0,0,0,0,0,0,0,0,0,0,0,0,0,0,0,0,,,,,0.0,,,,,,
159,3392545,0,,,,,,,,,,,,,,,,,,,,,,,0.0,0.0,0.0,0.0,0.0,0.0,0.0,0.0,2.28,,,0,0,0,0,0,0,0,0,0,0,0,0,0,0,0,0,0.0,,,,,0.0,0.0,0.0,0.0,0.0,0.0
160,3392565,0,0.0,183.89,,-0.03,-0.0,0.99,0.0,0.0,0.0,0.99,1.33,74.0,4823.0,6.6,3.03,,12.0,0.991,95.2,,57.9,5.0,,,,,,,,,,,,0,0,0,0,0,0,0,0,0,0,0,0,0,0,0,0,,,,,0.0,,,,,,
161,3392585,0,,,,,,,,,,,,,,,,,,,,,,,,,,,,,,,,,,0,0,0,0,0,0,0,0,0,0,0,0,0,0,0,0,,,,,,,,,,,
162,3392605,0,0.0,183.89,,-0.05,0.08,1.06,-1.0,0.0,1.0,1.06,1.33,80.0,4837.0,6.7,2.93,,11.95,0.989,95.2,,57.9,5.0,,,,,,,,,,,,0,0,0,0,0,0,0,0,0,0,0,0,0,0,0,0,,,,,0.0,,,,,,
163,3392625,0,,,,,,,,,,,,,,,,,,,,,,,,,,,,,,,,,,0,0,0,0,0,0,0,0,0,0,0,0,0,0,0,0,,,,,,,,,,,
164,3392645,0,0.0,183.89,,-0.05,-0.02,0.99,0.0,0.0,0.0,0.99,1.33,75.0,4822.0,6.6,2.93,,11.96,1.001,95.2,,57.9,5.0,0.0,0.0,0.0,0.0,0.0,0.0,0.0,0.0,2.26,,,0,0,0,0,0,0,0,0,0,0,0,0,0,0,0,0,0.0,,,,0.0,0.0,0.0,0.0,0.0,0.0,0.0
165,3392665,0,,,,,,,,,,,,,,,,,,,,,,,,,,,,,,,,,,0,0,0,0,0,0,0,0,0,0,0,0,0,0,0,0,,,,,,,,,,,
166,3392685,0,0.0,183.76,,-0.05,0.05,1.05,0.0,0.0,1.0,1.05,1.33,79.0,4880.0,6.6,2.93,,11.88,1.003,95.2,,57.9,5.0,,,,,,,,,,,,0,0,0,0,0,0,0,0,0,0,0,0,0,0,0,0,,,,,0.0,,,,,,
167,3392705,0,,,,,,,,,,,,,,,,,,,,,,,,,,,,,,,,,,0,0,0,0,0,0,0,0,0,0,0,0,0,0,0,0,,,,,,,,,,,
168,3392725,0,0.0,183.89,,-0.03,-0.01,1.0,0.0,0.0,0.0,1.0,1.33,75.0,4928.0,6.4,2.91,,11.88,1.003,95.2,,57.9,5.0,,,,,,,,,,,,0,0,0,0,0,0,0,0,0,0,0,0,0,0,0,0,,,,,0.0,,,,,,
169,3392745,0,,,,,,,,,,,,,,,,,,,,,,,0.0,0.0,0.0,0.0,0.0,0.0,0.0,0.0,2.26,,,0,0,0,0,0,0,0,0,0,0,0,0,0,0,0,0,0.0,,,,,0.0,0.0,0.0,0.0,0.0,0.0
170,3392765,0,0.0,183.89,,-0.05,0.05,1.02,-1.0,0.0,1.0,1.02,1.33,77.0,4928.0,6.4,2.91,,11.88,0.997,95.2,,59.0,5.0,,,,,,,,,,,,0,0,0,0,0,0,0,0,0,0,0,0,0,0,0,0,,,,,0.0,,,,,,
171,3392785,0,,,,,,,,,,,,,,,,,,,,,,,,,,,,,,,,,,0,0,0,0,0,0,0,0,0,0,0,0,0,0,0,0,,,,,,,,,,,
172,3392805,0,0.0,183.76,,-0.04,-0.03,0.98,0.0,0.0,0.0,0.98,1.33,74.0,4905.0,6.4,2.91,,11.76,0.994,95.2,,59.0,5.0,,,,,,,,,,,,0,0,0,0,0,0,0,0,0,0,0,0,0,0,0,0,,,,,0.0,,,,,,
173,3392825,0,,,,,,,,,,,,,,,,,,,,,,,,,,,,,,,,,,0,0,0,0,0,0,0,0,0,0,0,0,0,0,0,0,,,,,,,,,,,
174,3392845,0,0.0,183.76,13.95,-0.05,0.05,1.0,-1.0,0.0,1.0,1.01,1.33,76.0,4881.0,6.1,2.88,15.0,11.84,0.997,95.2,178.0,59.0,5.0,0.0,0.0,0.0,0.0,0.0,0.0,0.0,0.0,2.27,0.0,1.0,0,0,0,0,0,0,0,0,0,0,0,0,0,0,0,0,0.0,0.0,0.0,0.0,0.0,0.0,0.0,0.0,0.0,0.0,0.0
175,3392865,0,,,,,,,,,,,,,,,,,,,,,,,,,,,,,,,,,,0,0,0,0,0,0,0,0,0,0,0,0,0,0,0,0,,,,,,,,,,,
176,3392885,0,0.0,183.89,,-0.03,0.05,1.01,0.0,0.0,0.0,1.02,1.33,77.0,4956.0,6.0,2.87,,11.84,0.987,95.2,,58.6,5.0,,,,,,,,,,,,0,0,0,0,0,0,0,0,0,0,0,0,0,0,0,0,,,,,0.0,,,,,,
177,3392905,0,,,,,,,,,,,,,,,,,,,,,,,,,,,,,,,,,,0,0,0,0,0,0,0,0,0,0,0,0,0,0,0,0,,,,,,,,,,,
178,3392925,0,0.0,183.89,,-0.05,0.04,1.01,-1.0,0.0,1.0,1.01,1.33,76.0,4875.0,5.9,2.92,,11.84,0.987,95.2,,58.6,5.0,,,,,,,,,,,,0,0,0,0,0,0,0,0,0,0,0,0,0,0,0,0,,,,,0.0,,,,,,
179,3392945,0,,,,,,,,,,,,,,,,,,,,,,,0.0,0.0,0.0,0.0,0.0,0.0,0.0,0.0,2.28,,,0,0,0,0,0,0,0,0,0,0,0,0,0,0,0,0,0.0,,,,,0.0,0.0,0.0,0.0,0.0,0.0
180,3392965,0,0.0,183.89,,-0.04,0.02,1.0,0.0,0.0,0.0,1.01,1.33,76.0,4875.0,5.9,2.92,,11.77,0.982,95.2,,57.6,5.0,,,,,,,,,,,,0,0,0,0,0,0,0,0,0,0,0,0,0,0,0,0,,,,,0.0,,,,,,
181,3392985,0,,,,,,,,,,,,,,,,,,,,,,,,,,,,,,,,,,0,0,0,0,0,0,0,0,0,0,0,0,0,0,0,0,,,,,,,,,,,
182,3393005,0,0.0,183.89,,-0.06,0.0,0.99,-1.0,0.0,1.0,0.99,1.33,75.0,4895.0,6.0,2.92,,11.83,0.989,95.2,,57.6,5.0,,,,,,,,,,,,0,0,0,0,0,0,0,0,0,0,0,0,0,0,0,0,,,,,0.0,,,,,,
183,3393025,0,,,,,,,,,,,,,,,,,,,,,,,,,,,,,,,,,,0,0,0,0,0,0,0,0,0,0,0,0,0,0,0,0,,,,,,,,,,,
184,3393045,0,0.0,184.01,,-0.04,-0.05,0.99,0.0,0.0,0.0,0.99,1.33,75.0,4858.0,9.9,2.98,,12.0,0.984,95.2,,57.6,5.0,0.0,0.0,0.0,0.0,0.0,0.0,0.0,0.0,2.28,,,0,0,0,0,0,0,0,0,0,0,0,0,0,0,0,0,0.0,,,,0.0,0.0,0.0,0.0,0.0,0.0,0.0
185,3393065,0,,,,,,,,,,,,,,,,,,,,,,,,,,,,,,,,,,0,0,0,0,0,0,0,0,0,0,0,0,0,0,0,0,,,,,,,,,,,
186,3393085,0,0.0,183.89,,-0.06,-0.03,0.98,-1.0,0.0,1.0,0.99,1.33,74.0,4842.0,29.7,4.84,,13.35,0.989,95.2,,57.1,5.0,,,,,,,,,,,,0,0,0,0,0,0,0,0,0,0,0,0,0,0,0,0,,,,,0.0,,,,,,
187,3393105,0,,,,,,,,,,,,,,,,,,,,,,,,,,,,,,,,,,0,0,0,0,0,0,0,0,0,0,0,0,0,0,0,0,,,,,,,,,,,
188,3393125,0,0.0,183.89,,-0.06,-0.05,0.99,-1.0,0.0,0.0,0.99,1.33,75.0,5104.0,43.8,5.1,,13.35,0.989,95.2,,57.1,5.0,,,,,,,,,,,,0,0,0,0,0,0,0,0,0,0,0,0,0,0,0,0,,,,,0.0,,,,,,
189,3393145,0,,,,,,,,,,,,,,,,,,,,,,,0.0,0.0,0.0,0.0,0.0,0.0,0.0,0.0,2.27,,,0,0,0,0,0,0,0,0,0,0,0,0,0,0,0,0,0.0,,,,,0.0,0.0,0.0,0.0,0.0,0.0
190,3393165,0,0.0,184.01,,-0.06,-0.11,0.92,-1.0,0.0,0.0,0.93,1.33,70.0,5104.0,43.8,5.1,,14.27,0.998,95.2,,61.1,5.0,,,,,,,,,,,,0,0,0,0,0,0,0,0,0,0,0,0,0,0,0,0,,,,,0.0,,,,,,
191,3393185,0,,,,,,,,,,,,,,,,,,,,,,,,,,,,,,,,,,0,0,0,0,0,0,0,0,0,0,0,0,0,0,0,0,,,,,,,,,,,
192,3393205,0,0.0,183.89,,-0.04,-0.08,0.89,-1.0,0.0,1.0,0.89,1.33,67.0,5745.0,52.0,5.43,,14.12,1.037,95.2,,61.1,5.0,,,,,,,,,,,,0,0,0,0,0,0,0,0,0,0,0,0,0,0,0,0,,,,,0.0,,,,,,
193,3393225,0,,,,,,,,,,,,,,,,,,,,,,,,,,,,,,,,,,0,0,0,0,0,0,0,0,0,0,0,0,0,0,0,0,,,,,,,,,,,
194,3393245,0,0.0,183.89,,-0.05,-0.24,0.87,-2.0,0.0,1.0,0.9,1.33,68.0,6933.0,48.2,5.12,,13.79,1.019,95.2,,61.1,5.0,0.0,0.0,0.0,0.0,0.0,0.0,0.0,0.0,2.27,,,0,0,0,0,0,0,0,0,0,0,0,0,0,0,0,0,0.0,,,,0.0,0.0,0.0,0.0,0.0,0.0,0.0
195,3393265,0,,,,,,,,,,,,,,,,,,,,,,,,,,,,,,,,,,0,0,0,0,0,0,0,0,0,0,0,0,0,0,0,0,,,,,,,,,,,
196,3393285,0,0.0,183.89,,-0.07,-0.15,0.86,-2.0,0.0,1.0,0.88,1.33,66.0,8225.0,13.2,4.71,,13.79,1.019,95.2,,67.6,5.0,,,,,,,,,,,,0,0,0,0,0,0,0,0,0,0,0,0,0,0,0,0,,,,,0.0,,,,,,
197,3393305,0,,,,,,,,,,,,,,,,,,,,,,,,,,,,,,,,,,0,0,0,0,0,0,0,0,0,0,0,0,0,0,0,0,,,,,,,,,,,
198,3393325,0,0.0,183.89,,-0.08,0.01,0.82,-1.0,0.0,0.0,0.83,1.33,62.0,8225.0,13.2,4.71,,12.07,1.0,95.2,,67.6,5.0,,,,,,,,,,,,0,0,0,0,0,0,0,0,0,0,0,0,0,0,0,0,,,,,0.0,,,,,,
199,3393345,0,,,,,,,,,,,,,,,,,,,,,,,0.0,0.0,0.0,0.0,0.0,0.0,0.0,0.0,2.27,,,0,0,0,0,0,0,0,0,0,0,0,0,0,0,0,0,0.0,,,,,0.0,0.0,0.0,0.0,0.0,0.0
200,3393365,0,0.0,183.89,,-0.1,-0.1,0.79,-2.0,0.0,1.0,0.8,1.33,61.0,9259.0,0.0,1.4,,9.33,0.93,95.2,,69.3,5.0,,,,,,,,,,,,0,0,0,0,0,0,0,0,0,0,0,0,0,0,0,0,,,,,0.0,,,,,,
201,3393385,0,,,,,,,,,,,,,,,,,,,,,,,,,,,,,,,,,,0,0,0,0,0,0,0,0,0,0,0,0,0,0,0,0,,,,,,,,,,,
202,3393405,0,0.0,183.89,,-0.06,-0.17,0.88,-2.0,0.0,0.0,0.89,1.33,67.0,9170.0,0.0,1.4,,7.54,0.815,95.2,,69.3,5.0,,,,,,,,,,,,0,0,0,0,0,0,0,0,0,0,0,0,0,0,0,0,,,,,0.0,,,,,,
203,3393425,0,,,,,,,,,,,,,,,,,,,,,,,,,,,,,,,,,,0,0,0,0,0,0,0,0,0,0,0,0,0,0,0,0,,,,,,,,,,,
204,3393445,0,0.0,183.89,,-0.08,-0.12,0.84,-2.0,0.0,0.0,0.86,1.33,65.0,8734.0,0.0,1.4,,6.54,0.91,95.2,,69.3,5.0,0.0,0.0,0.0,0.0,0.0,0.0,0.0,0.0,2.28,,,0,0,0,0,0,0,0,0,0,0,0,0,0,0,0,0,0.0,,,,0.0,0.0,0.0,0.0,0.0,0.0,0.0
205,3393465,0,,,,,,,,,,,,,,,,,,,,,,,,,,,,,,,,,,0,0,0,0,0,0,0,0,0,0,0,0,0,0,0,0,,,,,,,,,,,
206,3393485,0,0.0,183.76,,-0.11,-0.2,0.87,-1.0,0.0,0.0,0.9,1.33,68.0,8566.0,0.0,1.4,,6.2,1.241,95.2,,64.1,5.0,,,,,,,,,,,,0,0,0,0,0,0,0,0,0,0,0,0,0,0,0,0,,,,,0.0,,,,,,
207,3393505,0,,,,,,,,,,,,,,,,,,,,,,,,,,,,,,,,,,0,0,0,0,0,0,0,0,0,0,0,0,0,0,0,0,,,,,,,,,,,
208,3393525,0,0.0,183.76,,-0.07,-0.11,0.9,-1.0,0.0,0.0,0.91,1.33,69.0,8397.0,0.0,1.4,,6.2,1.241,95.2,,64.1,5.0,,,,,,,,,,,,0,0,0,0,0,0,0,0,0,0,0,0,0,0,0,0,,,,,0.0,,,,,,
209,3393545,0,,,,,,,,,,,,,,,,,,,,,,,0.0,0.0,0.0,0.0,0.0,0.0,0.0,0.0,2.27,,,0,0,0,0,0,0,0,0,0,0,0,0,0,0,0,0,0.0,,,,,0.0,0.0,0.0,0.0,0.0,0.0
210,3393565,0,0.0,183.76,,-0.08,-0.09,0.91,-1.0,0.0,0.0,0.92,1.33,69.0,8397.0,0.0,1.4,,6.11,1.252,95.2,,62.1,5.0,,,,,,,,,,,,0,0,0,0,0,0,0,0,0,0,0,0,0,0,0,0,,,,,0.0,,,,,,
211,3393585,0,,,,,,,,,,,,,,,,,,,,,,,,,,,,,,,,,,0,0,0,0,0,0,0,0,0,0,0,0,0,0,0,0,,,,,,,,,,,
212,3393605,0,0.0,183.76,,-0.07,-0.15,0.94,0.0,0.0,0.0,0.95,1.33,72.0,8178.0,0.0,1.4,,5.91,1.239,95.2,,62.1,5.0,,,,,,,,,,,,0,0,0,0,0,0,0,0,0,0,0,0,0,0,0,0,,,,,0.0,,,,,,
213,3393625,0,,,,,,,,,,,,,,,,,,,,,,,,,,,,,,,,,,0,0,0,0,0,0,0,0,0,0,0,0,0,0,0,0,,,,,,,,,,,
214,3393645,0,0.0,183.76,,-0.09,-0.04,0.96,-1.0,0.0,0.0,0.96,1.33,73.0,7964.0,0.0,1.4,,5.91,1.132,95.2,,62.1,5.0,0.0,0.0,0.0,0.0,0.0,0.0,0.0,0.0,2.26,,,0,0,0,0,0,0,0,0,0,0,0,0,0,0,0,0,0.0,,,,0.0,0.0,0.0,0.0,0.0,0.0,0.0
215,3393665,0,,,,,,,,,,,,,,,,,,,,,,,,,,,,,,,,,,0,0,0,0,0,0,0,0,0,0,0,0,0,0,0,0,,,,,,,,,,,
216,3393685,0,0.0,183.63,,-0.1,-0.17,0.93,0.0,0.0,0.0,0.95,1.33,72.0,7679.0,0.0,1.4,,5.83,1.097,95.2,,60.0,5.0,,,,,,,,,,,,0,0,0,0,0,0,0,0,0,0,0,0,0,0,0,0,,,,,0.0,,,,,,
217,3393705,0,,,,,,,,,,,,,,,,,,,,,,,,,,,,,,,,,,0,0,0,0,0,0,0,0,0,0,0,0,0,0,0,0,,,,,,,,,,,
218,3393725,0,0.0,183.63,,-0.13,-0.33,0.91,2.0,0.0,0.0,0.97,1.33,73.0,7369.0,0.0,1.4,,5.83,1.097,95.2,,60.0,5.0,,,,,,,,,,,,0,0,0,0,0,0,0,0,0,0,0,0,0,0,0,0,,,,,0.0,,,,,,
219,3393745,0,,,,,,,,,,,,,,,,,,,,,,,0.0,0.0,0.0,0.0,0.0,0.0,0.0,0.0,2.26,,,0,0,0,0,0,0,0,0,0,0,0,0,0,0,0,0,0.0,,,,,0.0,0.0,0.0,0.0,0.0,0.0
220,3393765,0,0.0,183.63,,-0.13,-0.26,0.94,0.0,0.0,0.0,0.98,1.33,74.0,7369.0,0.0,1.4,,5.88,1.091,95.2,,60.5,5.0,,,,,,,,,,,,0,0,0,0,0,0,0,0,0,0,0,0,0,0,0,0,,,,,0.0,,,,,,
221,3393785,0,,,,,,,,,,,,,,,,,,,,,,,,,,,,,,,,,,0,0,0,0,0,0,0,0,0,0,0,0,0,0,0,0,,,,,,,,,,,
222,3393805,0,0.0,183.63,,-0.15,-0.26,0.95,1.0,0.0,0.0,1.0,1.33,75.0,7019.0,0.0,1.4,,6.07,1.135,95.2,,60.5,5.0,,,,,,,,,,,,0,0,0,0,0,0,0,0,0,0,0,0,0,0,0,0,,,,,0.0,,,,,,
223,3393825,0,,,,,,,,,,,,,,,,,,,,,,,,,,,,,,,,,,0,0,0,0,0,0,0,0,0,0,0,0,0,0,0,0,,,,,,,,,,,
224,3393845,0,0.0,183.63,13.94,-0.12,-0.23,0.99,1.0,0.0,0.0,1.02,1.33,77.0,6642.0,0.0,1.4,15.0,6.39,1.182,95.2,180.0,60.5,5.0,0.0,0.0,0.0,0.0,0.0,0.0,0.0,0.0,2.27,0.0,1.0,0,0,0,0,0,0,0,0,0,0,0,0,0,0,0,0,0.0,0.0,0.0,0.0,0.0,0.0,0.0,0.0,0.0,0.0,0.0
225,3393865,0,,,,,,,,,,,,,,,,,,,,,,,,,,,,,,,,,,0,0,0,0,0,0,0,0,0,0,0,0,0,0,0,0,,,,,,,,,,,
226,3393885,0,0.0,183.51,,-0.12,-0.11,0.92,1.0,0.0,0.0,0.93,1.33,70.0,6288.0,5.5,2.11,,7.25,1.243,95.2,,58.9,5.0,,,,,,,,,,,,0,0,0,0,0,0,0,0,0,0,0,0,0,0,0,0,,,,,0.0,,,,,,
227,3393905,0,,,,,,,,,,,,,,,,,,,,,,,,,,,,,,,,,,0,0,0,0,0,0,0,0,0,0,0,0,0,0,0,0,,,,,,,,,,,
228,3393925,0,0.0,183.51,,-0.1,-0.12,0.8,0.0,0.0,0.0,0.82,1.33,62.0,5931.0,33.7,3.38,,7.25,1.243,95.2,,58.9,5.0,,,,,,,,,,,,0,0,0,0,0,0,0,0,0,0,0,0,0,0,0,0,,,,,0.0,,,,,,
229,3393945,0,,,,,,,,,,,,,,,,,,,,,,,0.0,0.0,0.0,0.0,0.0,0.0,0.0,0.0,2.28,,,0,0,0,0,0,0,0,0,0,0,0,0,0,0,0,0,0.0,,,,,0.0,0.0,0.0,0.0,0.0,0.0
230,3393965,0,0.0,183.63,,-0.12,-0.03,0.73,-1.0,0.0,0.0,0.74,1.33,56.0,5931.0,33.7,3.38,,10.76,1.25,95.2,,57.0,5.0,,,,,,,,,,,,0,0,0,0,0,0,0,0,0,0,0,0,0,0,0,0,,,,,0.0,,,,,,
231,3393985,0,,,,,,,,,,,,,,,,,,,,,,,,,,,,,,,,,,0,0,0,0,0,0,0,0,0,0,0,0,0,0,0,0,,,,,,,,,,,
232,3394005,0,0.0,183.63,,-0.13,0.12,0.73,-1.0,0.0,0.0,0.75,1.33,57.0,5834.0,54.5,5.57,,13.92,1.251,95.2,,57.0,5.0,,,,,,,,,,,,0,0,0,0,0,0,0,0,0,0,0,0,0,0,0,0,,,,,0.0,,,,,,
233,3394025,0,,,,,,,,,,,,,,,,,,,,,,,,,,,,,,,,,,0,0,0,0,0,0,0,0,0,0,0,0,0,0,0,0,,,,,,,,,,,
234,3394045,0,0.0,183.63,,-0.13,0.11,0.73,-1.0,0.0,0.0,0.75,1.33,57.0,6542.0,60.0,5.22,,14.18,1.251,95.2,,57.0,5.0,0.0,0.0,0.0,0.0,0.0,0.0,0.0,0.0,2.27,,,0,0,0,0,0,0,0,0,0,0,0,0,0,0,0,0,0.0,,,,0.0,0.0,0.0,0.0,0.0,0.0,0.0
235,3394065,0,,,,,,,,,,,,,,,,,,,,,,,,,,,,,,,,,,0,0,0,0,0,0,0,0,0,0,0,0,0,0,0,0,,,,,,,,,,,
236,3394085,0,0.0,183.63,,-0.09,0.28,0.81,-3.0,0.0,1.0,0.86,1.33,65.0,7334.0,57.3,5.02,,13.98,1.211,95.2,,65.3,5.0,,,,,,,,,,,,0,0,0,0,0,0,0,0,0,0,0,0,0,0,0,0,,,,,0.0,,,,,,
237,3394105,0,,,,,,,,,,,,,,,,,,,,,,,,,,,,,,,,,,0,0,0,0,0,0,0,0,0,0,0,0,0,0,0,0,,,,,,,,,,,
238,3394125,0,0.0,183.63,,-0.08,0.24,0.84,-2.0,0.0,0.0,0.88,1.33,66.0,8461.0,56.1,4.7,,13.98,1.211,95.2,,65.3,5.0,,,,,,,,,,,,0,0,0,0,0,0,0,0,0,0,0,0,0,0,0,0,,,,,0.0,,,,,,
239,3394145,0,,,,,,,,,,,,,,,,,,,,,,,0.0,0.0,0.0,0.0,0.0,0.0,0.0,0.0,2.26,,,0,0,0,0,0,0,0,0,0,0,0,0,0,0,0,0,0.0,,,,,0.0,0.0,0.0,0.0,0.0,0.0
240,3394165,0,0.0,183.51,,-0.05,0.19,0.92,-1.0,0.0,1.0,0.94,1.33,71.0,8461.0,56.1,4.7,,13.77,1.094,95.2,,69.7,5.0,,,,,,,,,,,,0,0,0,0,0,0,0,0,0,0,0,0,0,0,0,0,,,,,0.0,,,,,,
241,3394185,0,,,,,,,,,,,,,,,,,,,,,,,,,,,,,,,,,,0,0,0,0,0,0,0,0,0,0,0,0,0,0,0,0,,,,,,,,,,,
242,3394205,0,0.0,183.51,,-0.05,0.16,0.83,-3.0,0.0,1.0,0.84,1.33,64.0,9771.0,31.2,4.64,,12.27,1.032,95.2,,69.7,5.0,,,,,,,,,,,,0,0,0,0,0,0,0,0,0,0,0,0,0,0,0,0,,,,,0.0,,,,,,
243,3394225,0,,,,,,,,,,,,,,,,,,,,,,,,,,,,,,,,,,0,0,0,0,0,0,0,0,0,0,0,0,0,0,0,0,,,,,,,,,,,
244,3394245,0,0.0,183.63,,-0.01,0.06,0.91,-2.0,0.0,1.0,0.92,1.33,69.0,10762.0,0.3,1.4,,9.15,1.006,95.2,,69.7,5.0,0.0,0.0,0.0,0.0,0.0,0.0,0.0,0.0,2.26,,,0,0,0,0,0,0,0,0,0,0,0,0,0,0,0,0,0.0,,,,0.0,0.0,0.0,0.0,0.0,0.0,0.0
245,3394265,0,,,,,,,,,,,,,,,,,,,,,,,,,,,,,,,,,,0,0,0,0,0,0,0,0,0,0,0,0,0,0,0,0,,,,,,,,,,,
246,3394285,0,0.0,183.51,,-0.03,0.01,0.91,-1.0,0.0,1.0,0.91,1.33,68.0,10620.0,0.0,1.4,,7.15,0.883,95.2,,66.8,5.0,,,,,,,,,,,,0,0,0,0,0,0,0,0,0,0,0,0,0,0,0,0,,,,,0.0,,,,,,
247,3394305,0,,,,,,,,,,,,,,,,,,,,,,,,,,,,,,,,,,0,0,0,0,0,0,0,0,0,0,0,0,0,0,0,0,,,,,,,,,,,
248,3394325,0,0.0,183.51,,-0.07,0.13,1.0,-1.0,-1.0,1.0,1.01,1.33,76.0,10217.0,0.0,1.4,,7.15,0.883,95.2,,66.8,5.0,,,,,,,,,,,,0,0,0,0,0,0,0,0,0,0,0,0,0,0,0,0,,,,,0.0,,,,,,
249,3394345,0,,,,,,,,,,,,,,,,,,,,,,,0.0,0.0,0.0,0.0,0.0,0.0,0.0,0.0,2.28,,,0,0,0,0,0,0,0,0,0,0,0,0,0,0,0,0,0.0,,,,,0.0,0.0,0.0,0.0,0.0,0.0
250,3394365,0,0.0,183.51,,-0.07,0.01,0.94,-1.0,0.0,1.0,0.95,1.33,71.0,10217.0,0.0,1.4,,6.16,0.945,95.2,,65.7,5.0,,,,,,,,,,,,0,0,0,0,0,0,0,0,0,0,0,0,0,0,0,0,,,,,0.0,,,,,,
251,3394385,0,,,,,,,,,,,,,,,,,,,,,,,,,,,,,,,,,,0,0,0,0,0,0,0,0,0,0,0,0,0,0,0,0,,,,,,,,,,,
252,3394405,0,0.0,183.38,,-0.05,0.07,0.97,-2.0,0.0,1.0,0.97,1.33,73.0,9887.0,0.0,1.4,,5.68,1.237,95.2,,65.7,5.0,,,,,,,,,,,,0,0,0,0,0,0,0,0,0,0,0,0,0,0,0,0,,,,,0.0,,,,,,
253,3394425,0,,,,,,,,,,,,,,,,,,,,,,,,,,,,,,,,,,0,0,0,0,0,0,0,0,0,0,0,0,0,0,0,0,,,,,,,,,,,
254,3394445,0,0.0,183.51,,-0.05,-0.03,1.05,-2.0,0.0,1.0,1.05,1.33,79.0,9535.0,0.0,1.4,,5.31,1.252,95.2,,65.7,5.0,0.0,0.0,0.0,0.0,0.0,0.0,0.0,0.0,2.28,,,0,0,0,0,0,0,0,0,0,0,0,0,0,0,0,0,0.0,,,,0.0,0.0,0.0,0.0,0.0,0.0,0.0
255,3394465,0,,,,,,,,,,,,,,,,,,,,,,,,,,,,,,,,,,0,0,0,0,0,0,0,0,0,0,0,0,0,0,0,0,,,,,,,,,,,
256,3394485,0,0.0,183.38,,-0.08,0.05,0.95,-2.0,0.0,1.0,0.95,1.33,72.0,9221.0,0.0,1.4,,5.31,1.252,95.2,,64.8,5.0,,,,,,,,,,,,0,0,0,0,0,0,0,0,0,0,0,0,0,0,0,0,,,,,0.0,,,,,,
257,3394505,0,,,,,,,,,,,,,,,,,,,,,,,,,,,,,,,,,,0,0,0,0,0,0,0,0,0,0,0,0,0,0,0,0,,,,,,,,,,,
258,3394525,0,0.0,183.38,,-0.1,-0.1,0.9,-3.0,0.0,1.0,0.92,1.33,69.0,9221.0,0.0,1.4,,5.26,1.231,95.2,,64.8,5.0,,,,,,,,,,,,0,0,0,0,0,0,0,0,0,0,0,0,0,0,0,0,,,,,0.0,,,,,,
259,3394545,0,,,,,,,,,,,,,,,,,,,,,,,0.0,0.0,0.0,0.0,0.0,0.0,0.0,0.0,2.27,,,0,0,0,0,0,0,0,0,0,0,0,0,0,0,0,0,0.0,,,,,0.0,0.0,0.0,0.0,0.0,0.0
260,3394565,0,0.0,183.38,,-0.12,-0.02,0.86,-3.0,0.0,1.0,0.87,1.33,65.0,8957.0,0.0,1.4,,5.12,1.229,95.2,,62.4,5.0,,,,,,,,,,,,0,0,0,0,0,0,0,0,0,0,0,0,0,0,0,0,,,,,0.0,,,,,,
261,3394585,0,,,,,,,,,,,,,,,,,,,,,,,,,,,,,,,,,,0,0,0,0,0,0,0,0,0,0,0,0,0,0,0,0,,,,,,,,,,,
262,3394605,0,0.0,183.38,,-0.11,-0.08,0.91,-1.0,0.0,1.0,0.92,1.33,69.0,8665.0,0.0,1.4,,5.2,1.232,95.2,,62.4,5.0,,,,,,,,,,,,0,0,0,0,0,0,0,0,0,0,0,0,0,0,0,0,,,,,0.0,,,,,,
263,3394625,0,,,,,,,,,,,,,,,,,,,,,,,,,,,,,,,,,,0,0,0,0,0,0,0,0,0,0,0,0,0,0,0,0,,,,,,,,,,,
264,3394645,0,0.0,183.38,,-0.1,-0.06,0.91,-1.0,0.0,1.0,0.92,1.33,69.0,8331.0,0.0,1.4,,5.22,1.179,95.2,,62.4,5.0,0.0,0.0,0.0,0.0,0.0,0.0,0.0,0.0,2.26,,,0,0,0,0,0,0,0,0,0,0,0,0,0,0,0,0,0.0,,,,0.0,0.0,0.0,0.0,0.0,0.0,0.0
265,3394665,0,,,,,,,,,,,,,,,,,,,,,,,,,,,,,,,,,,0,0,0,0,0,0,0,0,0,0,0,0,0,0,0,0,,,,,,,,,,,
266,3394685,0,0.0,183.38,,-0.09,-0.11,0.92,-2.0,0.0,1.0,0.93,1.33,70.0,8012.0,0.0,1.4,,5.22,1.179,95.2,,60.3,5.0,,,,,,,,,,,,0,0,0,0,0,0,0,0,0,0,0,0,0,0,0,0,,,,,0.0,,,,,,
267,3394705,0,,,,,,,,,,,,,,,,,,,,,,,,,,,,,,,,,,0,0,0,0,0,0,0,0,0,0,0,0,0,0,0,0,,,,,,,,,,,
268,3394725,0,0.0,183.38,,-0.07,-0.03,0.95,-1.0,0.0,1.0,0.95,1.33,72.0,8012.0,0.0,1.4,,5.28,1.121,95.2,,60.3,5.0,,,,,,,,,,,,0,0,0,0,0,0,0,0,0,0,0,0,0,0,0,0,,,,,0.0,,,,,,
269,3394745,0,,,,,,,,,,,,,,,,,,,,,,,0.0,0.0,0.0,0.0,0.0,0.0,0.0,0.0,2.28,,,0,0,0,0,0,0,0,0,0,0,0,0,0,0,0,0,0.0,,,,,0.0,0.0,0.0,0.0,0.0,0.0
270,3394765,0,0.0,183.38,,-0.07,0.09,0.97,-3.0,0.0,1.0,0.98,1.33,74.0,7704.0,0.0,1.4,,5.44,1.11,95.2,,59.8,5.0,,,,,,,,,,,,0,0,0,0,0,0,0,0,0,0,0,0,0,0,0,0,,,,,0.0,,,,,,
271,3394785,0,,,,,,,,,,,,,,,,,,,,,,,,,,,,,,,,,,0,0,0,0,0,0,0,0,0,0,0,0,0,0,0,0,,,,,,,,,,,
272,3394805,0,0.0,183.26,,-0.03,0.17,1.02,-3.0,0.0,1.0,1.03,1.33,78.0,7345.0,7.2,2.01,,6.38,1.135,95.2,,59.8,5.0,,,,,,,,,,,,0,0,0,0,0,0,0,0,0,0,0,0,0,0,0,0,,,,,0.0,,,,,,
273,3394825,0,,,,,,,,,,,,,,,,,,,,,,,,,,,,,,,,,,0,0,0,0,0,0,0,0,0,0,0,0,0,0,0,0,,,,,,,,,,,
274,3394845,0,0.0,183.38,13.92,-0.03,0.04,0.97,-2.0,0.0,1.0,0.97,1.33,73.0,7127.0,9.5,2.48,15.0,7.47,1.229,95.2,180.0,59.8,5.0,0.0,0.0,0.0,0.0,0.0,0.0,0.0,0.0,2.28,0.0,1.0,0,0,0,0,0,0,0,0,0,0,0,0,0,0,0,0,0.0,0.0,0.0,0.0,0.0,0.0,0.0,0.0,0.0,0.0,0.0
275,3394865,0,,,,,,,,,,,,,,,,,,,,,,,,,,,,,,,,,,0,0,0,0,0,0,0,0,0,0,0,0,0,0,0,0,,,,,,,,,,,
276,3394885,0,0.0,183.26,,-0.03,0.1,1.01,-2.0,0.0,1.0,1.02,1.33,77.0,7096.0,9.7,2.81,,7.47,1.229,95.2,,60.5,5.0,,,,,,,,,,,,0,0,0,0,0,0,0,0,0,0,0,0,0,0,0,0,,,,,0.0,,,,,,
277,3394905,0,,,,,,,,,,,,,,,,,,,,,,,,,,,,,,,,,,0,0,0,0,0,0,0,0,0,0,0,0,0,0,0,0,,,,,,,,,,,
278,3394925,0,0.0,183.26,,-0.04,-0.04,0.99,-1.0,0.0,0.0,0.99,1.33,75.0,7096.0,9.7,2.81,,8.02,1.252,95.2,,60.5,5.0,,,,,,,,,,,,0,0,0,0,0,0,0,0,0,0,0,0,0,0,0,0,,,,,0.0,,,,,,
279,3394945,0,,,,,,,,,,,,,,,,,,,,,,,0.0,0.0,0.0,0.0,0.0,0.0,0.0,0.0,2.27,,,0,0,0,0,0,0,0,0,0,0,0,0,0,0,0,0,0.0,,,,,0.0,0.0,0.0,0.0,0.0,0.0
280,3394965,0,0.0,183.26,,-0.06,0.05,1.01,-3.0,0.0,1.0,1.01,1.33,76.0,7219.0,9.9,3.01,,8.43,1.058,95.2,,62.4,5.0,,,,,,,,,,,,0,0,0,0,0,0,0,0,0,0,0,0,0,0,0,0,,,,,0.0,,,,,,
281,3394985,0,,,,,,,,,,,,,,,,,,,,,,,,,,,,,,,,,,0,0,0,0,0,0,0,0,0,0,0,0,0,0,0,0,,,,,,,,,,,
282,3395005,0,0.0,183.38,,-0.04,0.18,1.04,-3.0,0.0,1.0,1.06,1.33,80.0,7425.0,10.1,3.18,,8.67,0.927,95.2,,62.4,5.0,,,,,,,,,,,,0,0,0,0,0,0,0,0,0,0,0,0,0,0,0,0,,,,,0.0,,,,,,
283,3395025,0,,,,,,,,,,,,,,,,,,,,,,,,,,,,,,,,,,0,0,0,0,0,0,0,0,0,0,0,0,0,0,0,0,,,,,,,,,,,
284,3395045,0,0.0,183.26,,-0.04,0.24,0.99,-4.0,0.0,1.0,1.02,1.33,77.0,7687.0,9.7,3.11,,8.54,0.903,95.2,,62.4,5.0,0.0,0.0,0.0,0.0,0.0,0.0,0.0,0.0,2.26,,,0,0,0,0,0,0,0,0,0,0,0,0,0,0,0,0,0.0,,,,0.0,0.0,0.0,0.0,0.0,0.0,0.0
285,3395065,0,,,,,,,,,,,,,,,,,,,,,,,,,,,,,,,,,,0,0,0,0,0,0,0,0,0,0,0,0,0,0,0,0,,,,,,,,,,,
286,3395085,0,0.0,183.38,,-0.05,0.12,0.99,-2.0,0.0,1.0,1.0,1.33,76.0,7951.0,8.8,3.01,,8.54,0.903,95.2,,68.0,5.0,,,,,,,,,,,,0,0,0,0,0,0,0,0,0,0,0,0,0,0,0,0,,,,,0.0,,,,,,
287,3395105,0,,,,,,,,,,,,,,,,,,,,,,,,,,,,,,,,,,0,0,0,0,0,0,0,0,0,0,0,0,0,0,0,0,,,,,,,,,,,
288,3395125,0,0.0,183.38,,-0.04,0.01,1.0,-2.0,0.0,1.0,1.01,1.33,76.0,7951.0,8.8,3.01,,8.25,0.897,95.2,,68.0,5.0,,,,,,,,,,,,0,0,0,0,0,0,0,0,0,0,0,0,0,0,0,0,,,,,0.0,,,,,,
289,3395145,0,,,,,,,,,,,,,,,,,,,,,,,0.0,0.0,0.0,0.0,0.0,0.0,0.0,0.0,2.27,,,0,0,0,0,0,0,0,0,0,0,0,0,0,0,0,0,0.0,,,,,0.0,0.0,0.0,0.0,0.0,0.0
290,3395165,0,0.0,183.38,,-0.02,0.05,1.01,-1.0,0.0,0.0,1.01,1.33,76.0,8214.0,8.1,2.85,,8.02,0.884,95.2,,67.5,5.0,,,,,,,,,,,,0,0,0,0,0,0,0,0,0,0,0,0,0,0,0,0,,,,,0.0,,,,,,
291,3395185,0,,,,,,,,,,,,,,,,,,,,,,,,,,,,,,,,,,0,0,0,0,0,0,0,0,0,0,0,0,0,0,0,0,,,,,,,,,,,
292,3395205,0,0.0,183.38,,-0.05,0.14,0.97,-1.0,0.0,0.0,0.98,1.33,74.0,8458.0,7.2,2.55,,7.73,0.862,84.4,,67.5,5.0,,,,,,,,,,,,0,0,0,0,0,0,0,0,0,0,0,0,0,0,0,0,,,,,0.0,,,,,,
293,3395225,0,,,,,,,,,,,,,,,,,,,,,,,,,,,,,,,,,,0,0,0,0,0,0,0,0,0,0,0,0,0,0,0,0,,,,,,,,,,,
294,3395245,0,0.0,183.38,,-0.06,0.11,0.93,-1.0,0.0,0.0,0.94,1.33,71.0,8668.0,6.6,2.34,,7.33,0.84,84.4,,67.5,5.0,0.0,0.0,0.0,0.0,0.0,0.0,0.0,0.0,2.28,,,0,0,0,0,0,0,0,0,0,0,0,0,0,0,0,0,0.0,,,,0.0,0.0,0.0,0.0,0.0,0.0,0.0
295,3395265,0,,,,,,,,,,,,,,,,,,,,,,,,,,,,,,,,,,0,0,0,0,0,0,0,0,0,0,0,0,0,0,0,0,,,,,,,,,,,
296,3395285,0,0.0,183.38,,-0.06,0.18,0.91,-2.0,0.0,0.0,0.92,1.33,70.0,8847.0,6.5,2.24,,7.33,0.84,84.4,,68.6,5.0,,,,,,,,,,,,0,0,0,0,0,0,0,0,0,0,0,0,0,0,0,0,,,,,0.0,,,,,,
297,3395305,0,,,,,,,,,,,,,,,,,,,,,,,,,,,,,,,,,,0,0,0,0,0,0,0,0,0,0,0,0,0,0,0,0,,,,,,,,,,,
298,3395325,0,0.0,183.51,,-0.04,0.25,0.93,-3.0,0.0,1.0,0.96,1.33,72.0,8847.0,6.5,2.24,,7.02,0.847,84.4,,68.6,5.0,,,,,,,,,,,,0,0,0,0,0,0,0,0,0,0,0,0,0,0,0,0,,,,,0.0,,,,,,
299,3395345,0,,,,,,,,,,,,,,,,,,,,,,,0.0,0.0,0.0,0.0,0.0,0.0,0.0,0.0,2.28,,,0,0,0,0,0,0,0,0,0,0,0,0,0,0,0,0,0.0,,,,,0.0,0.0,0.0,0.0,0.0,0.0
300,3395365,0,0.0,183.38,,-0.01,0.35,0.95,-3.0,0.0,1.0,1.01,1.33,76.0,8974.0,6.6,2.16,,6.91,0.881,84.4,,68.4,5.0,,,,,,,,,,,,0,0,0,0,0,0,0,0,0,0,0,0,0,0,0,0,,,,,0.0,,,,,,
301,3395385,0,,,,,,,,,,,,,,,,,,,,,,,,,,,,,,,,,,0,0,0,0,0,0,0,0,0,0,0,0,0,0,0,0,,,,,,,,,,,
302,3395405,0,0.0,183.38,,0.01,0.42,0.92,-4.0,0.0,1.0,1.01,1.33,76.0,9047.0,25.1,2.65,,8.31,0.915,84.4,,68.4,5.0,,,,,,,,,,,,0,0,0,0,0,0,0,0,0,0,0,0,0,0,0,0,,,,,0.0,,,,,,
303,3395425,0,,,,,,,,,,,,,,,,,,,,,,,,,,,,,,,,,,0,0,0,0,0,0,0,0,0,0,0,0,0,0,0,0,,,,,,,,,,,
304,3395445,0,0.0,183.38,,-0.0,0.28,0.91,-4.0,0.0,1.0,0.95,1.33,72.0,9261.0,50.8,3.84,,11.26,0.966,84.4,,68.4,5.0,0.0,0.0,0.0,0.0,0.0,0.0,0.0,0.0,2.27,,,0,0,0,0,0,0,0,0,0,0,0,0,0,0,0,0,0.0,,,,0.0,0.0,0.0,0.0,0.0,0.0,0.0
305,3395465,0,,,,,,,,,,,,,,,,,,,,,,,,,,,,,,,,,,0,0,0,0,0,0,0,0,0,0,0,0,0,0,0,0,,,,,,,,,,,
306,3395485,0,0.0,183.38,,-0.04,0.29,0.91,-3.0,0.0,0.0,0.96,1.33,72.0,9386.0,61.6,5.27,,11.26,0.966,84.4,,68.3,5.0,,,,,,,,,,,,0,0,0,0,0,0,0,0,0,0,0,0,0,0,0,0,,,,,0.0,,,,,,
307,3395505,0,,,,,,,,,,,,,,,,,,,,,,,,,,,,,,,,,,0,0,0,0,0,0,0,0,0,0,0,0,0,0,0,0,,,,,,,,,,,
308,3395525,0,0.0,183.26,,-0.01,0.24,0.93,-3.0,0.0,1.0,0.96,1.33,72.0,9386.0,61.6,5.27,,12.96,1.078,84.4,,68.3,5.0,,,,,,,,,,,,0,0,0,0,0,0,0,0,0,0,0,0,0,0,0,0,,,,,0.0,,,,,,
309,3395545,0,,,,,,,,,,,,,,,,,,,,,,,0.0,0.0,0.0,0.0,0.0,0.0,0.0,0.0,2.26,,,0,0,0,0,0,0,0,0,0,0,0,0,0,0,0,0,0.0,,,,,0.0,0.0,0.0,0.0,0.0,0.0
310,3395565,0,0.0,183.26,,-0.02,0.55,0.96,-5.0,0.0,2.0,1.11,1.33,84.0,10259.0,53.8,5.05,,13.05,1.248,84.4,,68.3,5.0,,,,,,,,,,,,0,0,0,0,0,0,0,0,0,0,0,0,0,0,0,0,,,,,0.0,,,,,,
311,3395585,0,,,,,,,,,,,,,,,,,,,,,,,,,,,,,,,,,,0,0,0,0,0,0,0,0,0,0,0,0,0,0,0,0,,,,,,,,,,,
312,3395605,0,0.0,183.13,,0.01,0.43,0.97,-4.0,0.0,1.0,1.06,1.33,80.0,11565.0,13.0,4.05,,10.61,1.145,84.4,,66.7,5.0,,,,,,,,,,,,0,0,0,0,0,0,0,0,0,0,0,0,0,0,0,0,,,,,0.0,,,,,,
313,3395625,0,,,,,,,,,,,,,,,,,,,,,,,,,,,,,,,,,,0,0,0,0,0,0,0,0,0,0,0,0,0,0,0,0,,,,,,,,,,,
314,3395645,0,0.0,183.13,,0.02,0.26,1.04,-1.0,0.0,-1.0,1.07,1.33,81.0,11854.0,0.1,1.4,,7.69,0.95,84.4,,66.7,5.0,0.0,0.0,0.0,0.0,0.0,0.0,0.0,0.0,2.27,,,0,0,0,0,0,0,0,0,0,0,0,0,0,0,0,0,0.0,,,,0.0,0.0,0.0,0.0,0.0,0.0,0.0
315,3395665,0,,,,,,,,,,,,,,,,,,,,,,,,,,,,,,,,,,0,0,0,0,0,0,0,0,0,0,0,0,0,0,0,0,,,,,,,,,,,
316,3395685,0,0.0,183.13,,-0.03,0.17,0.99,-1.0,0.0,-1.0,1.01,1.33,76.0,11854.0,0.1,1.4,,7.69,0.95,84.4,,65.9,5.0,,,,,,,,,,,,0,0,0,0,0,0,0,0,0,0,0,0,0,0,0,0,,,,,0.0,,,,,,
317,3395705,0,,,,,,,,,,,,,,,,,,,,,,,,,,,,,,,,,,0,0,0,0,0,0,0,0,0,0,0,0,0,0,0,0,,,,,,,,,,,
318,3395725,0,0.0,183.13,,-0.02,0.15,1.05,0.0,0.0,-1.0,1.06,1.33,80.0,11315.0,0.0,1.4,,6.28,0.88,84.4,,65.9,5.0,,,,,,,,,,,,0,0,0,0,0,0,0,0,0,0,0,0,0,0,0,0,,,,,0.0,,,,,,
319,3395745,0,,,,,,,,,,,,,,,,,,,,,,,0.0,0.0,0.0,0.0,0.0,0.0,0.0,0.0,2.28,,,0,0,0,0,0,0,0,0,0,0,0,0,0,0,0,0,0.0,,,,,0.0,0.0,0.0,0.0,0.0,0.0
320,3395765,0,0.0,183.01,,-0.04,0.36,1.02,-1.0,0.0,0.0,1.09,1.33,82.0,10906.0,0.0,1.4,,5.5,1.131,84.4,,64.7,5.0,,,,,,,,,,,,0,0,0,0,0,0,0,0,0,0,0,0,0,0,0,0,,,,,0.0,,,,,,
321,3395785,0,,,,,,,,,,,,,,,,,,,,,,,,,,,,,,,,,,0,0,0,0,0,0,0,0,0,0,0,0,0,0,0,0,,,,,,,,,,,
322,3395805,0,0.0,183.01,,-0.0,0.32,1.0,-2.0,0.0,0.0,1.05,1.33,79.0,10543.0,0.0,1.4,,5.26,1.245,84.4,,64.7,5.0,,,,,,,,,,,,0,0,0,0,0,0,0,0,0,0,0,0,0,0,0,0,,,,,0.0,,,,,,
323,3395825,0,,,,,,,,,,,,,,,,,,,,,,,,,,,,,,,,,,0,0,0,0,0,0,0,0,0,0,0,0,0,0,0,0,,,,,,,,,,,
324,3395845,0,0.0,183.01,13.94,-0.01,0.41,0.94,-2.0,0.0,0.0,1.02,1.33,77.0,10269.0,0.0,1.4,15.0,5.11,1.25,84.4,180.0,64.7,5.0,0.0,0.0,0.0,0.0,0.0,0.0,0.0,0.0,2.27,0.0,1.0,0,0,0,0,0,0,0,0,0,0,0,0,0,0,0,0,0.0,0.0,0.0,0.0,0.0,0.0,0.0,0.0,0.0,0.0,0.0
325,3395865,0,,,,,,,,,,,,,,,,,,,,,,,,,,,,,,,,,,0,0,0,0,0,0,0,0,0,0,0,0,0,0,0,0,,,,,,,,,,,
326,3395885,0,0.0,183.01,,-0.04,0.38,0.88,-1.0,0.0,0.0,0.96,1.33,72.0,10269.0,0.0,1.4,,5.11,1.25,84.4,,65.6,5.0,,,,,,,,,,,,0,0,0,0,0,0,0,0,0,0,0,0,0,0,0,0,,,,,0.0,,,,,,
327,3395905,0,,,,,,,,,,,,,,,,,,,,,,,,,,,,,,,,,,0,0,0,0,0,0,0,0,0,0,0,0,0,0,0,0,,,,,,,,,,,
328,3395925,0,0.0,183.01,,-0.04,0.28,0.87,0.0,0.0,0.0,0.92,1.33,69.0,9935.0,0.0,1.4,,4.93,1.143,84.4,,65.6,5.0,,,,,,,,,,,,0,0,0,0,0,0,0,0,0,0,0,0,0,0,0,0,,,,,0.0,,,,,,
329,3395945,0,,,,,,,,,,,,,,,,,,,,,,,0.0,0.0,0.0,0.0,0.0,0.0,0.0,0.0,2.27,,,0,0,0,0,0,0,0,0,0,0,0,0,0,0,0,0,0.0,,,,,0.0,0.0,0.0,0.0,0.0,0.0
330,3395965,0,0.0,183.01,,-0.05,0.24,0.88,-1.0,0.0,0.0,0.91,1.33,69.0,9613.0,0.0,1.4,,4.91,1.089,84.4,,65.6,5.0,,,,,,,,,,,,0,0,0,0,0,0,0,0,0,0,0,0,0,0,0,0,,,,,0.0,,,,,,
331,3395985,0,,,,,,,,,,,,,,,,,,,,,,,,,,,,,,,,,,0,0,0,0,0,0,0,0,0,0,0,0,0,0,0,0,,,,,,,,,,,
332,3396005,0,0.0,182.88,,-0.06,0.06,0.86,-1.0,0.0,0.0,0.86,1.33,65.0,9236.0,0.1,1.4,,4.89,1.084,84.4,,64.1,5.0,,,,,,,,,,,,0,0,0,0,0,0,0,0,0,0,0,0,0,0,0,0,,,,,0.0,,,,,,
333,3396025,0,,,,,,,,,,,,,,,,,,,,,,,,,,,,,,,,,,0,0,0,0,0,0,0,0,0,0,0,0,0,0,0,0,,,,,,,,,,,
334,3396045,0,0.0,182.88,,-0.06,-0.02,0.88,-1.0,-1.0,0.0,0.88,1.33,67.0,8919.0,1.2,1.4,,4.89,1.084,84.4,,64.1,5.0,0.0,0.0,0.0,0.0,0.0,0.0,0.0,0.0,2.26,,,0,0,0,0,0,0,0,0,0,0,0,0,0,0,0,0,0.0,,,,0.0,0.0,0.0,0.0,0.0,0.0,0.0
335,3396065,0,,,,,,,,,,,,,,,,,,,,,,,,,,,,,,,,,,0,0,0,0,0,0,0,0,0,0,0,0,0,0,0,0,,,,,,,,,,,
336,3396085,0,0.0,183.01,,-0.08,0.1,0.84,-1.0,-1.0,1.0,0.85,1.33,64.0,8919.0,1.2,1.4,,5.04,1.099,84.4,,63.7,5.0,,,,,,,,,,,,0,0,0,0,0,0,0,0,0,0,0,0,0,0,0,0,,,,,0.0,,,,,,
337,3396105,0,,,,,,,,,,,,,,,,,,,,,,,,,,,,,,,,,,0,0,0,0,0,0,0,0,0,0,0,0,0,0,0,0,,,,,,,,,,,
338,3396125,0,0.0,182.88,,-0.08,0.07,0.89,-1.0,-1.0,1.0,0.9,1.33,68.0,8550.0,11.3,1.87,,5.87,1.165,84.4,,63.7,5.0,,,,,,,,,,,,0,0,0,0,0,0,0,0,0,0,0,0,0,0,0,0,,,,,0.0,,,,,,
339,3396145,0,,,,,,,,,,,,,,,,,,,,,,,0.0,0.0,0.0,0.0,0.0,0.0,0.0,0.0,2.27,,,0,0,0,0,0,0,0,0,0,0,0,0,0,0,0,0,0.0,,,,,0.0,0.0,0.0,0.0,0.0,0.0
340,3396165,0,0.0,183.01,,-0.07,0.0,0.9,0.0,-1.0,0.0,0.91,1.33,68.0,8186.0,18.8,2.75,,7.55,1.226,84.4,,62.4,5.0,,,,,,,,,,,,0,0,0,0,0,0,0,0,0,0,0,0,0,0,0,0,,,,,0.0,,,,,,
341,3396185,0,,,,,,,,,,,,,,,,,,,,,,,,,,,,,,,,,,0,0,0,0,0,0,0,0,0,0,0,0,0,0,0,0,,,,,,,,,,,
342,3396205,0,0.0,183.01,,-0.06,0.02,0.9,0.0,-1.0,0.0,0.9,1.33,68.0,8265.0,16.5,2.88,,8.51,1.25,89.8,,62.4,5.0,,,,,,,,,,,,0,0,0,0,0,0,0,0,0,0,0,0,0,0,0,0,,,,,0.0,,,,,,
343,3396225,0,,,,,,,,,,,,,,,,,,,,,,,,,,,,,,,,,,0,0,0,0,0,0,0,0,0,0,0,0,0,0,0,0,,,,,,,,,,,
344,3396245,0,0.0,182.88,,-0.04,-0.04,0.93,0.0,-1.0,0.0,0.93,1.33,70.0,8509.0,7.9,2.63,,8.51,1.25,89.8,,62.4,5.0,0.0,0.0,0.0,0.0,0.0,0.0,0.0,0.0,2.28,,,0,0,0,0,0,0,0,0,0,0,0,0,0,0,0,0,0.0,,,,0.0,0.0,0.0,0.0,0.0,0.0,0.0
345,3396265,0,,,,,,,,,,,,,,,,,,,,,,,,,,,,,,,,,,0,0,0,0,0,0,0,0,0,0,0,0,0,0,0,0,,,,,,,,,,,
346,3396285,0,0.0,183.01,,-0.06,0.08,0.89,0.0,-1.0,0.0,0.89,1.33,67.0,8732.0,6.6,2.3,,8.06,1.216,89.8,,64.9,5.0,,,,,,,,,,,,0,0,0,0,0,0,0,0,0,0,0,0,0,0,0,0,,,,,0.0,,,,,,
347,3396305,0,,,,,,,,,,,,,,,,,,,,,,,,,,,,,,,,,,0,0,0,0,0,0,0,0,0,0,0,0,0,0,0,0,,,,,,,,,,,
348,3396325,0,0.0,183.01,,-0.07,0.07,0.93,1.0,-1.0,0.0,0.93,1.33,70.0,8732.0,6.6,2.3,,7.53,1.023,89.8,,64.9,5.0,,,,,,,,,,,,0,0,0,0,0,0,0,0,0,0,0,0,0,0,0,0,,,,,0.0,,,,,,
349,3396345,0,,,,,,,,,,,,,,,,,,,,,,,0.0,0.0,0.0,0.0,0.0,0.0,0.0,0.0,2.28,,,0,0,0,0,0,0,0,0,0,0,0,0,0,0,0,0,0.0,,,,,0.0,0.0,0.0,0.0,0.0,0.0
350,3396365,0,0.0,182.88,,-0.06,-0.07,0.99,1.0,-1.0,0.0,1.0,1.33,75.0,8888.0,5.3,2.0,,7.04,0.962,89.8,,65.6,5.0,,,,,,,,,,,,0,0,0,0,0,0,0,0,0,0,0,0,0,0,0,0,,,,,0.0,,,,,,
351,3396385,0,,,,,,,,,,,,,,,,,,,,,,,,,,,,,,,,,,0,0,0,0,0,0,0,0,0,0,0,0,0,0,0,0,,,,,,,,,,,
352,3396405,0,0.0,182.88,,-0.08,-0.19,0.99,1.0,0.0,0.0,1.01,1.33,76.0,8830.0,4.9,1.89,,6.63,0.965,89.8,,65.6,5.0,,,,,,,,,,,,0,0,0,0,0,0,0,0,0,0,0,0,0,0,0,0,,,,,0.0,,,,,,
353,3396425,0,,,,,,,,,,,,,,,,,,,,,,,,,,,,,,,,,,0,0,0,0,0,0,0,0,0,0,0,0,0,0,0,0,,,,,,,,,,,
354,3396445,0,0.0,182.88,,-0.09,-0.12,0.96,0.0,0.0,0.0,0.97,1.33,73.0,8712.0,3.5,1.46,,6.63,0.965,89.8,,65.6,5.0,0.0,0.0,0.0,0.0,0.0,0.0,0.0,0.0,2.27,,,0,0,0,0,0,0,0,0,0,0,0,0,0,0,0,0,0.0,,,,0.0,0.0,0.0,0.0,0.0,0.0,0.0
355,3396465,0,,,,,,,,,,,,,,,,,,,,,,,,,,,,,,,,,,0,0,0,0,0,0,0,0,0,0,0,0,0,0,0,0,,,,,,,,,,,
356,3396485,0,0.0,182.88,,-0.09,-0.06,0.95,0.0,0.0,0.0,0.96,1.33,72.0,8712.0,3.5,1.46,,6.32,1.002,89.8,,64.3,5.0,,,,,,,,,,,,0,0,0,0,0,0,0,0,0,0,0,0,0,0,0,0,,,,,0.0,,,,,,
357,3396505,0,,,,,,,,,,,,,,,,,,,,,,,,,,,,,,,,,,0,0,0,0,0,0,0,0,0,0,0,0,0,0,0,0,,,,,,,,,,,
358,3396525,0,0.0,182.76,,-0.07,0.06,0.96,0.0,0.0,0.0,0.96,1.33,72.0,8208.0,2.7,1.4,,6.22,1.04,89.8,,64.3,5.0,,,,,,,,,,,,0,0,0,0,0,0,0,0,0,0,0,0,0,0,0,0,,,,,0.0,,,,,,
359,3396545,0,,,,,,,,,,,,,,,,,,,,,,,0.0,0.0,0.0,0.0,0.0,0.0,0.0,0.0,2.27,,,0,0,0,0,0,0,0,0,0,0,0,0,0,0,0,0,0.0,,,,,0.0,0.0,0.0,0.0,0.0,0.0
360,3396565,0,0.0,182.76,,-0.09,0.03,0.92,-2.0,0.0,1.0,0.92,1.33,70.0,7698.0,2.4,1.4,,6.11,1.115,89.8,,64.3,5.0,,,,,,,,,,,,0,0,0,0,0,0,0,0,0,0,0,0,0,0,0,0,,,,,0.0,,,,,,
361,3396585,0,,,,,,,,,,,,,,,,,,,,,,,,,,,,,,,,,,0,0,0,0,0,0,0,0,0,0,0,0,0,0,0,0,,,,,,,,,,,
362,3396605,0,0.0,182.76,,-0.11,0.03,0.9,-5.0,0.0,1.0,0.91,1.33,69.0,7267.0,2.2,1.4,,6.31,1.248,89.8,,60.9,5.0,,,,,,,,,,,,0,0,0,0,0,0,0,0,0,0,0,0,0,0,0,0,,,,,0.0,,,,,,
363,3396625,0,,,,,,,,,,,,,,,,,,,,,,,,,,,,,,,,,,0,0,0,0,0,0,0,0,0,0,0,0,0,0,0,0,,,,,,,,,,,
364,3396645,0,0.0,182.76,,-0.11,0.05,0.91,-3.0,0.0,1.0,0.91,1.33,69.0,7267.0,2.2,1.4,,6.31,1.248,89.8,,60.9,5.0,0.0,0.0,0.0,0.0,0.0,0.0,0.0,0.0,2.28,,,0,0,0,0,0,0,0,0,0,0,0,0,0,0,0,0,0.0,,,,0.0,0.0,0.0,0.0,0.0,0.0,0.0
365,3396665,0,,,,,,,,,,,,,,,,,,,,,,,,,,,,,,,,,,0,0,0,0,0,0,0,0,0,0,0,0,0,0,0,0,,,,,,,,,,,
366,3396685,0,0.0,182.88,,-0.11,-0.0,0.95,-3.0,0.0,1.0,0.95,1.33,72.0,6811.0,2.0,1.4,,6.52,1.249,89.8,,59.5,5.0,,,,,,,,,,,,0,0,0,0,0,0,0,0,0,0,0,0,0,0,0,0,,,,,0.0,,,,,,
367,3396705,0,,,,,,,,,,,,,,,,,,,,,,,,,,,,,,,,,,0,0,0,0,0,0,0,0,0,0,0,0,0,0,0,0,,,,,,,,,,,
368,3396725,0,0.0,182.88,,-0.07,0.03,0.86,-3.0,0.0,1.0,0.87,1.33,65.0,6426.0,2.2,1.4,,7.02,1.25,89.8,,59.5,5.0,,,,,,,,,,,,0,0,0,0,0,0,0,0,0,0,0,0,0,0,0,0,,,,,0.0,,,,,,
369,3396745,0,,,,,,,,,,,,,,,,,,,,,,,0.0,0.0,0.0,0.0,0.0,0.0,0.0,0.0,2.28,,,0,0,0,0,0,0,0,0,0,0,0,0,0,0,0,0,0.0,,,,,0.0,0.0,0.0,0.0,0.0,0.0
370,3396765,0,0.0,182.76,,-0.01,-0.1,0.79,-2.0,0.0,1.0,0.79,1.33,60.0,6013.0,2.3,1.48,,7.57,1.251,89.8,,59.5,5.0,,,,,,,,,,,,0,0,0,0,0,0,0,0,0,0,0,0,0,0,0,0,,,,,0.0,,,,,,
371,3396785,0,,,,,,,,,,,,,,,,,,,,,,,,,,,,,,,,,,0,0,0,0,0,0,0,0,0,0,0,0,0,0,0,0,,,,,,,,,,,
372,3396805,0,0.0,182.88,,-0.07,-0.03,0.77,-3.0,0.0,1.0,0.77,1.33,58.0,5610.0,2.6,1.79,,8.13,1.252,89.8,,56.8,5.0,,,,,,,,,,,,0,0,0,0,0,0,0,0,0,0,0,0,0,0,0,0,,,,,0.0,,,,,,
373,3396825,0,,,,,,,,,,,,,,,,,,,,,,,,,,,,,,,,,,0,0,0,0,0,0,0,0,0,0,0,0,0,0,0,0,,,,,,,,,,,
374,3396845,0,0.0,182.88,13.93,-0.05,-0.03,0.77,-3.0,0.0,1.0,0.77,1.33,58.0,5610.0,2.6,1.79,15.0,8.13,1.252,89.8,180.0,56.8,5.0,0.0,0.0,0.0,0.0,0.0,0.0,0.0,0.0,2.27,0.0,1.0,0,0,0,0,0,0,0,0,0,0,0,0,0,0,0,0,0.0,0.0,0.0,0.0,0.0,0.0,0.0,0.0,0.0,0.0,0.0
375,3396865,0,,,,,,,,,,,,,,,,,,,,,,,,,,,,,,,,,,0,0,0,0,0,0,0,0,0,0,0,0,0,0,0,0,,,,,,,,,,,
376,3396885,0,0.0,182.88,,-0.05,-0.02,0.83,-2.0,0.0,1.0,0.84,1.33,63.0,5244.0,3.2,2.13,,8.93,1.251,89.8,,56.3,5.0,,,,,,,,,,,,0,0,0,0,0,0,0,0,0,0,0,0,0,0,0,0,,,,,0.0,,,,,,
377,3396905,0,,,,,,,,,,,,,,,,,,,,,,,,,,,,,,,,,,0,0,0,0,0,0,0,0,0,0,0,0,0,0,0,0,,,,,,,,,,,
378,3396925,0,0.0,182.88,,-0.03,-0.05,0.83,-2.0,0.0,1.0,0.83,1.33,63.0,5026.0,8.3,2.02,,9.81,1.25,89.8,,56.3,5.0,,,,,,,,,,,,0,0,0,0,0,0,0,0,0,0,0,0,0,0,0,0,,,,,0.0,,,,,,
379,3396945,0,,,,,,,,,,,,,,,,,,,,,,,0.0,0.0,0.0,0.0,0.0,0.0,0.0,0.0,2.27,,,0,0,0,0,0,0,0,0,0,0,0,0,0,0,0,0,0.0,,,,,0.0,0.0,0.0,0.0,0.0,0.0
380,3396965,0,0.0,182.88,,-0.05,0.09,0.91,-2.0,0.0,1.0,0.92,1.33,69.0,4832.0,11.1,2.35,,10.77,1.25,89.8,,56.3,5.0,,,,,,,,,,,,0,0,0,0,0,0,0,0,0,0,0,0,0,0,0,0,,,,,0.0,,,,,,
381,3396985,0,,,,,,,,,,,,,,,,,,,,,,,,,,,,,,,,,,0,0,0,0,0,0,0,0,0,0,0,0,0,0,0,0,,,,,,,,,,,
382,3397005,0,0.0,183.01,,-0.08,0.18,0.98,-3.0,0.0,1.0,1.0,1.33,75.0,4561.0,11.1,3.19,,10.77,1.25,89.8,,51.0,5.0,,,,,,,,,,,,0,0,0,0,0,0,0,0,0,0,0,0,0,0,0,0,,,,,0.0,,,,,,
383,3397025,0,,,,,,,,,,,,,,,,,,,,,,,,,,,,,,,,,,0,0,0,0,0,0,0,0,0,0,0,0,0,0,0,0,,,,,,,,,,,
384,3397045,0,0.0,183.01,,-0.09,0.28,1.05,-4.0,0.0,2.0,1.09,1.33,82.0,4561.0,11.1,3.19,,11.45,1.25,89.8,,51.0,5.0,0.0,0.0,0.0,0.0,0.0,0.0,0.0,0.0,2.28,,,0,0,0,0,0,0,0,0,0,0,0,0,0,0,0,0,0.0,,,,0.0,0.0,0.0,0.0,0.0,0.0,0.0
385,3397065,0,,,,,,,,,,,,,,,,,,,,,,,,,,,,,,,,,,0,0,0,0,0,0,0,0,0,0,0,0,0,0,0,0,,,,,,,,,,,
386,3397085,0,0.0,183.13,,-0.08,0.39,1.17,-4.0,0.0,2.0,1.24,1.33,93.0,4402.0,9.6,3.16,,11.81,1.234,89.8,,45.9,5.0,,,,,,,,,,,,0,0,0,0,0,0,0,0,0,0,0,0,0,0,0,0,,,,,0.0,,,,,,
387,3397105,0,,,,,,,,,,,,,,,,,,,,,,,,,,,,,,,,,,0,0,0,0,0,0,0,0,0,0,0,0,0,0,0,0,,,,,,,,,,,
388,3397125,0,0.0,183.13,,-0.03,0.43,1.17,-4.0,0.0,2.0,1.25,1.33,94.0,4374.0,6.8,3.13,,11.93,1.25,89.8,,45.9,5.0,,,,,,,,,,,,0,0,0,0,0,0,0,0,0,0,0,0,0,0,0,0,,,,,0.0,,,,,,
389,3397145,0,,,,,,,,,,,,,,,,,,,,,,,0.0,0.0,0.0,0.0,0.0,0.0,0.0,0.0,2.28,,,0,0,0,0,0,0,0,0,0,0,0,0,0,0,0,0,0.0,,,,,0.0,0.0,0.0,0.0,0.0,0.0
390,3397165,0,0.0,183.13,,-0.02,0.3,1.07,-3.0,0.0,2.0,1.11,1.33,84.0,4327.0,4.5,3.33,,11.84,1.251,89.8,,45.9,5.0,,,,,,,,,,,,0,0,0,0,0,0,0,0,0,0,0,0,0,0,0,0,,,,,0.0,,,,,,
391,3397185,0,,,,,,,,,,,,,,,,,,,,,,,,,,,,,,,,,,0,0,0,0,0,0,0,0,0,0,0,0,0,0,0,0,,,,,,,,,,,
392,3397205,0,0.0,183.13,,-0.06,0.3,1.08,-3.0,0.0,2.0,1.12,1.33,85.0,4211.0,3.9,3.33,,11.84,1.251,89.8,,44.8,5.0,,,,,,,,,,,,0,0,0,0,0,0,0,0,0,0,0,0,0,0,0,0,,,,,0.0,,,,,,
393,3397225,0,,,,,,,,,,,,,,,,,,,,,,,,,,,,,,,,,,0,0,0,0,0,0,0,0,0,0,0,0,0,0,0,0,,,,,,,,,,,
394,3397245,0,0.0,183.26,,-0.04,0.37,1.14,-3.0,0.0,2.0,1.2,1.33,90.0,4211.0,3.9,3.33,,11.72,1.217,91.6,,44.8,5.0,0.0,0.0,0.0,0.0,0.0,0.0,0.0,0.0,2.27,,,0,0,0,0,0,0,0,0,0,0,0,0,0,0,0,0,0.0,,,,0.0,0.0,0.0,0.0,0.0,0.0,0.0
395,3397265,0,,,,,,,,,,,,,,,,,,,,,,,,,,,,,,,,,,0,0,0,0,0,0,0,0,0,0,0,0,0,0,0,0,,,,,,,,,,,
396,3397285,0,0.0,183.26,,-0.03,0.19,1.02,-1.0,0.0,1.0,1.04,1.33,79.0,4246.0,4.2,3.3,,11.68,1.189,91.6,,43.6,5.0,,,,,,,,,,,,0,0,0,0,0,0,0,0,0,0,0,0,0,0,0,0,,,,,0.0,,,,,,
397,3397305,0,,,,,,,,,,,,,,,,,,,,,,,,,,,,,,,,,,0,0,0,0,0,0,0,0,0,0,0,0,0,0,0,0,,,,,,,,,,,
398,3397325,0,0.0,183.26,,-0.05,0.24,1.1,-2.0,0.0,1.0,1.13,1.33,85.0,4196.0,4.4,3.32,,11.72,1.174,91.6,,43.6,5.0,,,,,,,,,,,,0,0,0,0,0,0,0,0,0,0,0,0,0,0,0,0,,,,,0.0,,,,,,
399,3397345,0,,,,,,,,,,,,,,,,,,,,,,,0.0,0.0,0.0,0.0,0.0,0.0,0.0,0.0,2.27,,,0,0,0,0,0,0,0,0,0,0,0,0,0,0,0,0,0.0,,,,,0.0,0.0,0.0,0.0,0.0,0.0
400,3397365,0,0.0,183.26,,-0.03,0.2,1.08,-1.0,0.0,1.0,1.09,1.33,83.0,4182.0,4.6,3.34,,11.67,1.138,91.6,,43.6,5.0,,,,,,,,,,,,0,0,0,0,0,0,0,0,0,0,0,0,0,0,0,0,,,,,0.0,,,,,,
401,3397385,0,,,,,,,,,,,,,,,,,,,,,,,,,,,,,,,,,,0,0,0,0,0,0,0,0,0,0,0,0,0,0,0,0,,,,,,,,,,,
402,3397405,0,0.0,183.26,,-0.06,0.1,1.03,-1.0,0.0,1.0,1.04,1.33,78.0,4186.0,4.5,3.69,,11.67,1.138,91.6,,43.3,5.0,,,,,,,,,,,,0,0,0,0,0,0,0,0,0,0,0,0,0,0,0,0,,,,,0.0,,,,,,
403,3397425,0,,,,,,,,,,,,,,,,,,,,,,,,,,,,,,,,,,0,0,0,0,0,0,0,0,0,0,0,0,0,0,0,0,,,,,,,,,,,
404,3397445,0,0.0,183.38,,-0.04,0.17,1.08,-1.0,0.0,1.0,1.1,1.33,83.0,4186.0,4.5,3.69,,11.69,1.116,91.6,,43.3,5.0,0.0,0.0,0.0,0.0,0.0,0.0,0.0,0.0,2.27,,,0,0,0,0,0,0,0,0,0,0,0,0,0,0,0,0,0.0,,,,0.0,0.0,0.0,0.0,0.0,0.0,0.0
405,3397465,0,,,,,,,,,,,,,,,,,,,,,,,,,,,,,,,,,,0,0,0,0,0,0,0,0,0,0,0,0,0,0,0,0,,,,,,,,,,,
406,3397485,0,0.0,183.38,,-0.05,0.03,0.98,-1.0,0.0,0.0,0.98,1.33,74.0,4147.0,4.1,3.68,,11.72,1.075,91.6,,42.9,5.0,,,,,,,,,,,,0,0,0,0,0,0,0,0,0,0,0,0,0,0,0,0,,,,,0.0,,,,,,
407,3397505,0,,,,,,,,,,,,,,,,,,,,,,,,,,,,,,,,,,0,0,0,0,0,0,0,0,0,0,0,0,0,0,0,0,,,,,,,,,,,
408,3397525,0,0.0,183.38,,-0.02,0.15,1.05,-1.0,0.0,1.0,1.06,1.33,80.0,4115.0,3.9,3.68,,11.73,1.042,91.6,,42.9,5.0,,,,,,,,,,,,0,0,0,0,0,0,0,0,0,0,0,0,0,0,0,0,,,,,0.0,,,,,,
409,3397545,0,,,,,,,,,,,,,,,,,,,,,,,0.0,0.0,0.0,0.0,0.0,0.0,0.0,0.0,2.28,,,0,0,0,0,0,0,0,0,0,0,0,0,0,0,0,0,0.0,,,,,0.0,0.0,0.0,0.0,0.0,0.0
410,3397565,0,0.0,183.38,,-0.05,0.02,1.0,-1.0,0.0,1.0,1.01,1.33,76.0,4069.0,4.0,3.67,,11.79,1.022,91.6,,42.9,5.0,,,,,,,,,,,,0,0,0,0,0,0,0,0,0,0,0,0,0,0,0,0,,,,,0.0,,,,,,
411,3397585,0,,,,,,,,,,,,,,,,,,,,,,,,,,,,,,,,,,0,0,0,0,0,0,0,0,0,0,0,0,0,0,0,0,,,,,,,,,,,
412,3397605,0,0.0,183.38,,-0.01,0.12,1.05,0.0,0.0,1.0,1.06,1.33,80.0,4148.0,4.0,3.64,,11.79,1.022,91.6,,42.0,5.0,,,,,,,,,,,,0,0,0,0,0,0,0,0,0,0,0,0,0,0,0,0,,,,,0.0,,,,,,
413,3397625,0,,,,,,,,,,,,,,,,,,,,,,,,,,,,,,,,,,0,0,0,0,0,0,0,0,0,0,0,0,0,0,0,0,,,,,,,,,,,
414,3397645,0,0.0,183.51,,-0.05,0.01,0.98,0.0,0.0,0.0,0.98,1.33,74.0,4148.0,4.0,3.64,,11.8,0.997,91.6,,42.0,5.0,0.0,0.0,0.0,0.0,0.0,0.0,0.0,0.0,2.28,,,0,0,0,0,0,0,0,0,0,0,0,0,0,0,0,0,0.0,,,,0.0,0.0,0.0,0.0,0.0,0.0,0.0
415,3397665,0,,,,,,,,,,,,,,,,,,,,,,,,,,,,,,,,,,0,0,0,0,0,0,0,0,0,0,0,0,0,0,0,0,,,,,,,,,,,
416,3397685,0,0.0,183.51,,-0.05,0.13,1.07,-1.0,0.0,1.0,1.08,1.33,82.0,4202.0,17.8,4.14,,12.51,1.025,91.6,,42.5,5.0,,,,,,,,,,,,0,0,0,0,0,0,0,0,0,0,0,0,0,0,0,0,,,,,0.0,,,,,,
417,3397705,0,,,,,,,,,,,,,,,,,,,,,,,,,,,,,,,,,,0,0,0,0,0,0,0,0,0,0,0,0,0,0,0,0,,,,,,,,,,,
418,3397725,0,0.0,183.51,,-0.01,0.17,1.1,-1.0,0.0,1.0,1.12,1.33,84.0,4256.0,52.9,5.34,,14.32,0.931,91.6,,42.5,5.0,,,,,,,,,,,,0,0,0,0,0,0,0,0,0,0,0,0,0,0,0,0,,,,,0.0,,,,,,
419,3397745,0,,,,,,,,,,,,,,,,,,,,,,,0.0,0.0,0.0,0.0,0.0,0.0,0.0,0.0,2.27,,,0,0,0,0,0,0,0,0,0,0,0,0,0,0,0,0,0.0,,,,,0.0,0.0,0.0,0.0,0.0,0.0
420,3397765,0,0.0,183.51,,-0.01,0.18,1.11,-1.0,0.0,1.0,1.13,1.33,85.0,4830.0,67.9,5.5,,14.44,0.924,91.6,,42.5,5.0,,,,,,,,,,,,0,0,0,0,0,0,0,0,0,0,0,0,0,0,0,0,,,,,0.0,,,,,,
421,3397785,0,,,,,,,,,,,,,,,,,,,,,,,,,,,,,,,,,,0,0,0,0,0,0,0,0,0,0,0,0,0,0,0,0,,,,,,,,,,,
422,3397805,0,0.0,183.51,,-0.03,0.26,1.18,-1.0,0.0,1.0,1.21,1.33,91.0,5739.0,58.8,4.89,,14.44,0.924,91.6,,51.4,5.0,,,,,,,,,,,,0,0,0,0,0,0,0,0,0,0,0,0,0,0,0,0,,,,,0.0,,,,,,
423,3397825,0,,,,,,,,,,,,,,,,,,,,,,,,,,,,,,,,,,0,0,0,0,0,0,0,0,0,0,0,0,0,0,0,0,,,,,,,,,,,
