,Interval,Utc,ElapsedTime,FrontBP,SteerAng,Battery,AccelX,AccelY,AccelZ,Yaw,Pitch,Roll,Gsum,GsumMax,GsumPct,RPM,TPS,InjectorPW,Baro,MAP,Lambda,IAT,EngineTemp,EOP,EOT,WSFR,WSFL,WSRR,WSRL,TCSet,TCSlip,TCComp,TCCut,Analog8,OilTemp,AA_On,ThermLF1,ThermLF2,ThermRR1,ThermRR2,ThermLF3,ThermLF4,ThermLF5,ThermLF6,ThermLF7,ThermLF8,ThermRR3,ThermRR4,ThermRR5,ThermRR6,ThermRR7,ThermRR8,AA_LowDrag,Gear,AA_On1,AA_LowDrag1,Fuel_Mix,AA_Packages,Latitude,Longitude,Speed,Altitude,GPSSats,GPSQual,GPSDOP,LapCount,LapTime,Sector,SectorTime,PredTime,CurrentLap,Distance,SessionTime
0,1218523,1745295461882,0.0003,0.0,-102.0,,-0.08,-0.26,1.1,2.0,0.0,0.0,1.13,1.13,100.0,9746.0,0.0,1.4,,5.04,1.249,82.6,,63.0,5.0,,,,,,,,,,,,0,0,0,0,0,0,0,0,0,0,0,0,0,0,0,0,,,,,,0.0,,,,,,,,,,,,,,,
1,1218563,1745295461922,0.001,0.0,-135.0,,-0.09,-0.06,1.03,2.0,0.0,0.0,1.03,1.13,91.0,9404.0,9.3,1.62,,5.04,1.249,82.6,,62.2,5.0,,,,,,,,,,,,0,0,0,0,0,0,0,0,0,0,0,0,0,0,0,0,,,,,,0.0,,,,,,,,,,,,,,,
2,1218583,1745295461942,0.0013,,,,,,,,,,,,,,,,,,,,,,,,,,,,,,,,,,0,0,0,0,0,0,0,0,0,0,0,0,0,0,0,0,,,,,,,,,,,,,,,,,,,,,
3,1218603,1745295461962,0.0016,0.0,-125.0,,-0.07,-0.26,1.07,2.0,0.0,0.0,1.11,1.13,98.0,9404.0,9.3,1.62,,5.5,1.25,82.6,,62.2,5.0,0.0,0.0,0.0,0.0,0.0,0.0,0.0,0.0,2.25,,,0,0,0,0,0,0,0,0,0,0,0,0,0,0,0,0,,0.0,,,,0.0,38.985764,-76.950226,0.07,48.0,34.0,3.0,0.8,0.0,0.0,-1.0,0.0,0.0,0.0,0.0,0.0016
4,1218623,1745295461982,0.002,,,,,,,,,,,,,,,,,,,,,,,,,,,,,,,,,,0,0,0,0,0,0,0,0,0,0,0,0,0,0,0,0,,,,,,,,,,,,,,,,,,,,,
5,1218643,1745295462002,0.0023,0.0,-135.0,,-0.04,0.01,1.13,2.0,0.0,0.0,1.13,1.13,100.0,9148.0,18.9,2.34,,6.95,1.204,82.6,,61.2,5.0,,,,,,,,,,,,0,0,0,0,0,0,0,0,0,0,0,0,0,0,0,0,,,,,,0.0,,,,,,,,,,,,,,,
6,1218663,1745295462012,0.0026,,,,,,,,,,,,,,,,,,,,,,,,,,,,,,,,,,0,0,0,0,0,0,0,0,0,0,0,0,0,0,0,0,,,,,,,,,,,,,,,,,,,,,
7,1218683,1745295462032,0.003,0.0,-117.0,,-0.02,-0.16,1.09,3.0,0.0,-1.0,1.1,1.13,97.0,9430.0,23.6,2.8,,8.37,1.25,82.6,,61.2,5.0,,,,,,,,,,,,0,0,0,0,0,0,0,0,0,0,0,0,0,0,0,0,,,,,,0.0,,,,,,,,,,,,,,,
8,1218703,1745295462052,0.0033,,,,,,,,,,,,,,,,,,,,,,,0.0,0.0,0.0,0.0,0.0,0.0,0.0,0.0,2.26,,,0,0,0,0,0,0,0,0,0,0,0,0,0,0,0,0,,0.0,,,,,38.985764,-76.950226,0.04,48.0,34.0,3.0,0.8,0.0,0.0,-1.0,0.0,,0.0,0.0,0.0033
9,1218723,1745295462072,0.0036,0.0,-129.0,,-0.05,-0.12,1.08,1.0,0.0,-1.0,1.09,1.13,96.0,9911.0,25.9,3.19,,9.3,1.185,82.6,,61.2,5.0,,,,,,,,,,,,0,0,0,0,0,0,0,0,0,0,0,0,0,0,0,0,,,,,,0.0,,,,,,,,,,,,,,,
10,1218743,1745295462092,0.004,,,,,,,,,,,,,,,,,,,,,,,,,,,,,,,,,,0,0,0,0,0,0,0,0,0,0,0,0,0,0,0,0,,,,,,,,,,,,,,,,,,,,,
11,1218763,1745295462113,0.0043,0.0,-113.0,,-0.03,-0.15,0.99,1.0,0.0,0.0,1.0,1.13,89.0,10373.0,26.1,3.35,,9.3,1.185,82.6,,62.9,5.0,,,,,,,,,,,,0,0,0,0,0,0,0,0,0,0,0,0,0,0,0,0,,,,,,0.0,,,,,,,,,,,,,,,
12,1218783,1745295462133,0.0046,,,,,,,,,,,,,,,,,,,,,,,,,,,,,,,,,,0,0,0,0,0,0,0,0,0,0,0,0,0,0,0,0,,,,,,,,,,,,,,,,,,,,,
13,1218803,1745295462153,0.005,0.0,-106.0,,-0.03,-0.14,1.07,1.0,0.0,0.0,1.08,1.13,96.0,10373.0,26.1,3.35,,9.62,1.101,82.6,,62.9,5.0,0.0,0.0,0.0,0.0,0.0,0.0,0.0,0.0,2.25,,,0,0,0,0,0,0,0,0,0,0,0,0,0,0,0,0,,0.0,,,,0.0,38.985764,-76.950226,0.05,48.0,34.0,3.0,0.8,0.0,0.0,-1.0,0.0,0.0,0.0,0.0,0.005
14,1218823,1745295462173,0.0053,,,,,,,,,,,,,,,,,,,,,,,,,,,,,,,,,,0,0,0,0,0,0,0,0,0,0,0,0,0,0,0,0,,,,,,,,,,,,,,,,,,,,,
15,1218843,1745295462201,0.0056,0.0,-121.0,,-0.03,-0.07,1.0,2.0,0.0,0.0,1.01,1.13,89.0,11018.0,25.2,3.29,,9.66,1.113,82.6,,60.7,5.0,,,,,,,,,,,,0,0,0,0,0,0,0,0,0,0,0,0,0,0,0,0,,,,,,0.0,,,,,,,,,,,,,,,
16,1218863,1745295462221,0.006,,,,,,,,,,,,,,,,,,,,,,,,,,,,,,,,,,0,0,0,0,0,0,0,0,0,0,0,0,0,0,0,0,,,,,,,,,,,,,,,,,,,,,
17,1218883,1745295462241,0.0063,0.0,-106.0,,-0.02,-0.24,1.03,2.0,0.0,0.0,1.06,1.13,94.0,11740.0,11.6,2.6,,8.47,1.078,82.6,,60.7,5.0,,,,,,,,,,,,0,0,0,0,0,0,0,0,0,0,0,0,0,0,0,0,,,,,,0.0,,,,,,,,,,,,,,,
18,1218903,1745295462261,0.0066,,,,,,,,,,,,,,,,,,,,,,,0.0,0.0,0.0,0.0,0.0,0.0,0.0,0.0,2.25,,,0,0,0,0,0,0,0,0,0,0,0,0,0,0,0,0,,0.0,,,,,38.985764,-76.950226,0.0,48.0,34.0,3.0,0.8,0.0,0.0,-1.0,0.0,,0.0,0.0,0.0066
19,1218923,1745295462281,0.007,0.0,-102.0,,-0.01,-0.4,1.01,2.0,0.0,0.0,1.08,1.13,96.0,11996.0,0.9,1.4,,6.64,0.977,82.6,,60.7,5.0,,,,,,,,,,,,0,0,0,0,0,0,0,0,0,0,0,0,0,0,0,0,,,,,,0.0,,,,,,,,,,,,,,,
20,1218943,1745295462301,0.0073,,,,,,,,,,,,,,,,,,,,,,,,,,,,,,,,,,0,0,0,0,0,0,0,0,0,0,0,0,0,0,0,0,,,,,,,,,,,,,,,,,,,,,
21,1218963,1745295462321,0.0076,0.0,-113.0,,0.0,-0.31,0.98,2.0,0.0,1.0,1.03,1.13,91.0,11497.0,0.1,1.4,,6.64,0.977,82.6,,62.2,5.0,,,,,,,,,,,,0,0,0,0,0,0,0,0,0,0,0,0,0,0,0,0,,,,,,0.0,,,,,,,,,,,,,,,
22,1218983,1745295462341,0.008,,,,,,,,,,,,,,,,,,,,,,,,,,,,,,,,,,0,0,0,0,0,0,0,0,0,0,0,0,0,0,0,0,,,,,,,,,,,,,,,,,,,,,
23,1219003,1745295462361,0.0083,0.0,-102.0,,-0.04,-0.3,1.01,1.0,0.0,1.0,1.05,1.13,93.0,11497.0,0.1,1.4,,5.64,0.938,82.6,,62.2,5.0,0.0,0.0,0.0,0.0,0.0,0.0,0.0,0.0,2.26,,,0,0,0,0,0,0,0,0,0,0,0,0,0,0,0,0,,0.0,,,,0.0,38.985764,-76.950226,0.1,48.0,34.0,3.0,0.8,0.0,0.0,-1.0,0.0,0.0,0.0,0.0,0.0083
24,1219023,1745295462381,0.0086,,,,,,,,,,,,,,,,,,,,,,,,,,,,,,,,,,0,0,0,0,0,0,0,0,0,0,0,0,0,0,0,0,,,,,,,,,,,,,,,,,,,,,
25,1219043,1745295462401,0.009,0.0,-113.0,,-0.03,-0.19,0.96,1.0,0.0,1.0,0.98,1.13,87.0,10938.0,0.0,1.4,,5.08,1.127,82.6,,61.5,5.0,,,,,,,,,,,,0,0,0,0,0,0,0,0,0,0,0,0,0,0,0,0,,,,,,0.0,,,,,,,,,,,,,,,
26,1219063,1745295462421,0.0093,,,,,,,,,,,,,,,,,,,,,,,,,,,,,,,,,,0,0,0,0,0,0,0,0,0,0,0,0,0,0,0,0,,,,,,,,,,,,,,,,,,,,,
27,1219083,1745295462441,0.0096,0.0,-106.0,,-0.02,-0.15,0.92,0.0,0.0,1.0,0.93,1.13,82.0,10499.0,0.0,1.4,,4.81,1.25,82.6,,61.5,5.0,,,,,,,,,,,,0,0,0,0,0,0,0,0,0,0,0,0,0,0,0,0,,,,,,0.0,,,,,,,,,,,,,,,
28,1219103,1745295462461,0.01,,,,,,,,,,,,,,,,,,,,,,,0.0,0.0,0.0,0.0,0.0,0.0,0.0,0.0,2.25,,,0,0,0,0,0,0,0,0,0,0,0,0,0,0,0,0,,0.0,,,,,38.985764,-76.950226,0.05,48.0,34.0,3.0,0.8,0.0,0.0,-1.0,0.0,,0.0,0.0,0.01
29,1219123,1745295462481,0.0103,0.0,-91.0,,-0.02,-0.34,0.93,1.0,0.0,1.0,0.99,1.13,88.0,10114.0,0.1,1.4,,4.68,1.251,82.6,,61.5,5.0,,,,,,,,,,,,0,0,0,0,0,0,0,0,0,0,0,0,0,0,0,0,,,,,,0.0,,,,,,,,,,,,,,,
30,1219143,1745295462501,0.0106,,,,,,,,,,,,,,,,,,,,,,,,,,,,,,,,,,0,0,0,0,0,0,0,0,0,0,0,0,0,0,0,0,,,,,,,,,,,,,,,,,,,,,
31,1219163,1745295462521,0.011,0.0,-98.0,,-0.05,-0.3,0.92,1.0,0.0,1.0,0.97,1.13,86.0,9708.0,0.2,1.4,,4.68,1.251,82.6,,61.7,5.0,,,,,,,,,,,,0,0,0,0,0,0,0,0,0,0,0,0,0,0,0,0,,,,,,0.0,,,,,,,,,,,,,,,
32,1219183,1745295462541,0.0113,,,,,,,,,,,,,,,,,,,,,,,,,,,,,,,,,,0,0,0,0,0,0,0,0,0,0,0,0,0,0,0,0,,,,,,,,,,,,,,,,,,,,,
33,1219203,1745295462561,0.0116,0.0,-83.0,,-0.04,-0.24,0.93,2.0,0.0,1.0,0.96,1.13,85.0,9708.0,0.2,1.4,,4.63,1.251,82.6,,61.7,5.0,0.0,0.0,0.0,0.0,0.0,0.0,0.0,0.0,2.25,,,0,0,0,0,0,0,0,0,0,0,0,0,0,0,0,0,,0.0,,,,0.0,38.985764,-76.950226,0.05,48.0,34.0,3.0,0.8,0.0,0.0,-1.0,0.0,0.0,0.0,0.0,0.0116
34,1219223,1745295462581,0.012,,,,,,,,,,,,,,,,,,,,,,,,,,,,,,,,,,0,0,0,0,0,0,0,0,0,0,0,0,0,0,0,0,,,,,,,,,,,,,,,,,,,,,
35,1219243,1745295462603,0.0123,0.0,-95.0,,-0.06,-0.56,0.94,1.0,0.0,0.0,1.1,1.13,97.0,9261.0,0.2,1.4,,4.52,1.251,82.6,,60.0,5.0,,,,,,,,,,,,0,0,0,0,0,0,0,0,0,0,0,0,0,0,0,0,,,,,,0.0,,,,,,,,,,,,,,,
36,1219263,1745295462623,0.0126,,,,,,,,,,,,,,,,,,,,,,,,,,,,,,,,,,0,0,0,0,0,0,0,0,0,0,0,0,0,0,0,0,,,,,,,,,,,,,,,,,,,,,
37,1219283,1745295462643,0.013,0.0,-102.0,,-0.04,-0.39,0.96,1.0,0.0,0.0,1.04,1.13,92.0,8801.0,0.3,1.4,,4.61,1.251,82.6,,60.0,5.0,,,,,,,,,,,,0,0,0,0,0,0,0,0,0,0,0,0,0,0,0,0,,,,,,0.0,,,,,,,,,,,,,,,
38,1219303,1745295462663,0.0133,,,,,,,,,,,,,,,,,,,,,,,0.0,0.0,0.0,0.0,0.0,0.0,0.0,0.0,2.25,,,0,0,0,0,0,0,0,0,0,0,0,0,0,0,0,0,,0.0,,,,,38.985764,-76.950226,0.04,48.0,34.0,3.0,0.8,0.0,0.0,-1.0,0.0,,0.0,0.0,0.0133
39,1219323,1745295462683,0.0136,0.0,-87.0,,-0.04,-0.27,0.99,1.0,0.0,0.0,1.02,1.13,91.0,8390.0,1.1,1.4,,4.84,1.25,82.6,,60.0,5.0,,,,,,,,,,,,0,0,0,0,0,0,0,0,0,0,0,0,0,0,0,0,,,,,,0.0,,,,,,,,,,,,,,,
40,1219343,1745295462701,0.014,,,,,,,,,,,,,,,,,,,,,,,,,,,,,,,,,,0,0,0,0,0,0,0,0,0,0,0,0,0,0,0,0,,,,,,,,,,,,,,,,,,,,,
41,1219363,1745295462721,0.0143,0.0,-102.0,,-0.03,-0.17,1.03,1.0,0.0,0.0,1.04,1.13,93.0,7935.0,4.3,1.5,,4.84,1.25,82.6,,57.2,5.0,,,,,,,,,,,,0,0,0,0,0,0,0,0,0,0,0,0,0,0,0,0,,,,,,0.0,,,,,,,,,,,,,,,
42,1219383,1745295462741,0.0146,,,,,,,,,,,,,,,,,,,,,,,,,,,,,,,,,,0,0,0,0,0,0,0,0,0,0,0,0,0,0,0,0,,,,,,,,,,,,,,,,,,,,,
43,1219403,1745295462761,0.015,0.0,-98.0,13.66,-0.04,-0.11,1.0,1.0,0.0,0.0,1.01,1.13,90.0,7935.0,4.3,1.5,15.0,5.32,1.249,82.6,180.0,57.2,5.0,0.0,0.0,0.0,0.0,0.0,0.0,0.0,0.0,2.26,0.0,1.0,0,0,0,0,0,0,0,0,0,0,0,0,0,0,0,0,0.0,0.0,1.0,0.0,0.0,0.0,38.985764,-76.950226,0.07,48.0,34.0,3.0,0.8,0.0,0.0,-1.0,0.0,0.0,0.0,0.0,0.015
44,1219423,1745295462781,0.0153,,,,,,,,,,,,,,,,,,,,,,,,,,,,,,,,,,0,0,0,0,0,0,0,0,0,0,0,0,0,0,0,0,,,,,,,,,,,,,,,,,,,,,
45,1219443,1745295462803,0.0156,0.0,-98.0,,-0.06,-0.12,0.98,0.0,0.0,0.0,0.99,1.13,88.0,7522.0,6.6,2.03,,5.91,1.248,82.6,,54.9,5.0,,,,,,,,,,,,0,0,0,0,0,0,0,0,0,0,0,0,0,0,0,0,,,,,,0.0,,,,,,,,,,,,,,,
46,1219463,1745295462823,0.016,,,,,,,,,,,,,,,,,,,,,,,,,,,,,,,,,,0,0,0,0,0,0,0,0,0,0,0,0,0,0,0,0,,,,,,,,,,,,,,,,,,,,,
47,1219483,1745295462843,0.0163,0.0,-91.0,,-0.05,0.03,0.97,0.0,0.0,0.0,0.97,1.13,86.0,7336.0,7.8,2.54,,6.59,1.248,82.6,,54.9,5.0,,,,,,,,,,,,0,0,0,0,0,0,0,0,0,0,0,0,0,0,0,0,,,,,,0.0,,,,,,,,,,,,,,,
48,1219503,1745295462863,0.0166,,,,,,,,,,,,,,,,,,,,,,,0.0,0.0,0.0,0.0,0.0,0.0,0.0,0.0,2.26,,,0,0,0,0,0,0,0,0,0,0,0,0,0,0,0,0,,0.0,,,,,38.985764,-76.950226,0.04,48.0,34.0,3.0,0.8,0.0,0.0,-1.0,0.0,,0.0,0.0,0.0166
49,1219523,1745295462883,0.017,0.0,-83.0,,-0.03,0.09,1.02,1.0,0.0,0.0,1.02,1.13,91.0,7426.0,8.9,2.7,,7.34,1.248,82.6,,54.9,5.0,,,,,,,,,,,,0,0,0,0,0,0,0,0,0,0,0,0,0,0,0,0,,,,,,0.0,,,,,,,,,,,,,,,
50,1219543,1745295462903,0.0173,,,,,,,,,,,,,,,,,,,,,,,,,,,,,,,,,,0,0,0,0,0,0,0,0,0,0,0,0,0,0,0,0,,,,,,,,,,,,,,,,,,,,,
51,1219563,1745295462923,0.0176,0.0,-91.0,,-0.01,0.19,1.02,1.0,0.0,0.0,1.04,1.13,92.0,7633.0,11.2,2.79,,7.34,1.248,82.6,,56.2,5.0,,,,,,,,,,,,0,0,0,0,0,0,0,0,0,0,0,0,0,0,0,0,,,,,,0.0,,,,,,,,,,,,,,,
52,1219583,1745295462943,0.018,,,,,,,,,,,,,,,,,,,,,,,,,,,,,,,,,,0,0,0,0,0,0,0,0,0,0,0,0,0,0,0,0,,,,,,,,,,,,,,,,,,,,,
53,1219603,1745295462963,0.0183,0.0,-83.0,,-0.03,0.13,1.01,0.0,0.0,0.0,1.02,1.13,90.0,7633.0,11.2,2.79,,7.85,1.153,82.6,,56.2,5.0,0.0,0.0,0.0,0.0,0.0,0.0,0.0,0.0,2.26,,,0,0,0,0,0,0,0,0,0,0,0,0,0,0,0,0,,0.0,,,,0.0,38.985764,-76.950226,0.04,48.0,34.0,3.0,0.8,0.0,0.0,-1.0,0.0,0.0,0.0,0.0,0.0183
54,1219623,1745295462983,0.0187,,,,,,,,,,,,,,,,,,,,,,,,,,,,,,,,,,0,0,0,0,0,0,0,0,0,0,0,0,0,0,0,0,,,,,,,,,,,,,,,,,,,,,
55,1219643,1745295463003,0.019,0.0,-98.0,,-0.02,0.05,1.01,0.0,0.0,0.0,1.01,1.13,89.0,7798.0,12.9,2.84,,8.35,0.952,82.6,,58.5,5.0,,,,,,,,,,,,0,0,0,0,0,0,0,0,0,0,0,0,0,0,0,0,,,,,,0.0,,,,,,,,,,,,,,,
56,1219663,1745295463012,0.0193,,,,,,,,,,,,,,,,,,,,,,,,,,,,,,,,,,0,0,0,0,0,0,0,0,0,0,0,0,0,0,0,0,,,,,,,,,,,,,,,,,,,,,
57,1219683,1745295463032,0.0196,0.0,-87.0,,-0.03,0.07,1.01,0.0,0.0,0.0,1.01,1.13,89.0,7994.0,14.1,2.95,,8.71,0.963,82.6,,58.5,5.0,,,,,,,,,,,,0,0,0,0,0,0,0,0,0,0,0,0,0,0,0,0,,,,,,0.0,,,,,,,,,,,,,,,
58,1219703,1745295463052,0.02,,,,,,,,,,,,,,,,,,,,,,,0.0,0.0,0.0,0.0,0.0,0.0,0.0,0.0,2.25,,,0,0,0,0,0,0,0,0,0,0,0,0,0,0,0,0,,0.0,,,,,38.985764,-76.950226,0.07,48.0,34.0,3.0,0.8,0.0,0.0,-1.0,0.0,,0.0,0.0,0.02
59,1219723,1745295463072,0.0203,0.0,-91.0,,-0.03,-0.02,0.99,0.0,0.0,0.0,0.99,1.13,88.0,8264.0,14.3,2.96,,8.91,0.985,82.6,,58.5,5.0,,,,,,,,,,,,0,0,0,0,0,0,0,0,0,0,0,0,0,0,0,0,,,,,,0.0,,,,,,,,,,,,,,,
60,1219743,1745295463092,0.0206,,,,,,,,,,,,,,,,,,,,,,,,,,,,,,,,,,0,0,0,0,0,0,0,0,0,0,0,0,0,0,0,0,,,,,,,,,,,,,,,,,,,,,
61,1219763,1745295463118,0.021,0.0,-83.0,,-0.01,0.08,1.01,0.0,0.0,0.0,1.01,1.13,90.0,8790.0,14.3,2.92,,8.91,0.985,82.6,,61.1,5.0,,,,,,,,,,,,0,0,0,0,0,0,0,0,0,0,0,0,0,0,0,0,,,,,,0.0,,,,,,,,,,,,,,,
62,1219783,1745295463138,0.0213,,,,,,,,,,,,,,,,,,,,,,,,,,,,,,,,,,0,0,0,0,0,0,0,0,0,0,0,0,0,0,0,0,,,,,,,,,,,,,,,,,,,,,
63,1219803,1745295463158,0.0216,0.0,-64.0,,0.01,0.32,1.03,1.0,0.0,1.0,1.08,1.13,95.0,8790.0,14.3,2.92,,8.82,0.997,82.6,,61.1,5.0,0.0,0.0,0.0,0.0,0.0,0.0,0.0,0.0,2.25,,,0,0,0,0,0,0,0,0,0,0,0,0,0,0,0,0,,0.0,,,,0.0,38.985764,-76.950226,0.0,48.0,34.0,3.0,0.8,0.0,0.0,-1.0,0.0,0.0,0.0,0.0,0.0216
64,1219823,1745295463178,0.022,,,,,,,,,,,,,,,,,,,,,,,,,,,,,,,,,,0,0,0,0,0,0,0,0,0,0,0,0,0,0,0,0,,,,,,,,,,,,,,,,,,,,,
65,1219843,1745295463198,0.0223,0.0,-83.0,,0.01,0.23,1.0,1.0,0.0,0.0,1.03,1.13,91.0,9293.0,14.4,2.8,,8.61,0.987,82.6,,60.3,5.0,,,,,,,,,,,,0,0,0,0,0,0,0,0,0,0,0,0,0,0,0,0,,,,,,0.0,,,,,,,,,,,,,,,
66,1219863,1745295463219,0.0226,,,,,,,,,,,,,,,,,,,,,,,,,,,,,,,,,,0,0,0,0,0,0,0,0,0,0,0,0,0,0,0,0,,,,,,,,,,,,,,,,,,,,,
67,1219883,1745295463239,0.023,0.0,-76.0,,0.01,0.18,1.01,1.0,0.0,1.0,1.02,1.13,91.0,9801.0,14.4,2.8,,8.31,0.989,82.6,,60.3,5.0,,,,,,,,,,,,0,0,0,0,0,0,0,0,0,0,0,0,0,0,0,0,,,,,,0.0,,,,,,,,,,,,,,,
68,1219903,1745295463259,0.0233,,,,,,,,,,,,,,,,,,,,,,,0.0,0.0,0.0,0.0,0.0,0.0,0.0,0.0,2.25,,,0,0,0,0,0,0,0,0,0,0,0,0,0,0,0,0,,0.0,,,,,38.985764,-76.950226,0.0,48.0,34.0,3.0,0.8,0.0,0.0,-1.0,0.0,,0.0,0.0,0.0233
69,1219923,1745295463279,0.0236,0.0,-64.0,,-0.01,0.18,1.0,1.0,0.0,1.0,1.02,1.13,90.0,10290.0,13.9,2.65,,7.99,1.014,82.6,,60.3,5.0,,,,,,,,,,,,0,0,0,0,0,0,0,0,0,0,0,0,0,0,0,0,,,,,,0.0,,,,,,,,,,,,,,,
70,1219943,1745295463302,0.024,,,,,,,,,,,,,,,,,,,,,,,,,,,,,,,,,,0,0,0,0,0,0,0,0,0,0,0,0,0,0,0,0,,,,,,,,,,,,,,,,,,,,,
71,1219963,1745295463322,0.0243,0.0,-80.0,,-0.02,0.15,1.08,1.0,0.0,1.0,1.1,1.13,97.0,10676.0,12.7,2.3,,7.99,1.014,82.6,,60.2,5.0,,,,,,,,,,,,0,0,0,0,0,0,0,0,0,0,0,0,0,0,0,0,,,,,,0.0,,,,,,,,,,,,,,,
72,1219983,1745295463342,0.0246,,,,,,,,,,,,,,,,,,,,,,,,,,,,,,,,,,0,0,0,0,0,0,0,0,0,0,0,0,0,0,0,0,,,,,,,,,,,,,,,,,,,,,
73,1220003,1745295463362,0.025,0.0,-72.0,,-0.05,0.15,1.02,0.0,0.0,1.0,1.03,1.13,91.0,10676.0,12.7,2.3,,7.61,1.014,82.6,,60.2,5.0,0.0,0.0,0.0,0.0,0.0,0.0,0.0,0.0,2.26,,,0,0,0,0,0,0,0,0,0,0,0,0,0,0,0,0,,0.0,,,,0.0,38.985764,-76.950226,0.0,48.0,34.0,3.0,0.8,0.0,0.0,-1.0,0.0,0.0,0.0,0.0,0.025
74,1220023,1745295463382,0.0253,,,,,,,,,,,,,,,,,,,,,,,,,,,,,,,,,,0,0,0,0,0,0,0,0,0,0,0,0,0,0,0,0,,,,,,,,,,,,,,,,,,,,,
75,1220043,1745295463402,0.0256,0.0,-95.0,,-0.05,0.15,1.06,0.0,0.0,1.0,1.07,1.13,95.0,10872.0,12.1,2.09,,7.25,1.008,82.6,,58.9,5.0,,,,,,,,,,,,0,0,0,0,0,0,0,0,0,0,0,0,0,0,0,0,,,,,,0.0,,,,,,,,,,,,,,,
76,1220063,1745295463422,0.026,,,,,,,,,,,,,,,,,,,,,,,,,,,,,,,,,,0,0,0,0,0,0,0,0,0,0,0,0,0,0,0,0,,,,,,,,,,,,,,,,,,,,,
77,1220083,1745295463442,0.0263,0.0,-80.0,,-0.06,0.12,1.03,0.0,0.0,1.0,1.03,1.13,92.0,10783.0,11.8,2.01,,7.07,1.039,82.6,,58.9,5.0,,,,,,,,,,,,0,0,0,0,0,0,0,0,0,0,0,0,0,0,0,0,,,,,,0.0,,,,,,,,,,,,,,,
78,1220103,1745295463462,0.0266,,,,,,,,,,,,,,,,,,,,,,,0.0,0.0,0.0,0.0,0.0,0.0,0.0,0.0,2.25,,,0,0,0,0,0,0,0,0,0,0,0,0,0,0,0,0,,0.0,,,,,38.985764,-76.950226,0.08,48.0,34.0,3.0,0.8,0.0,0.0,-1.0,0.0,,0.0,0.0,0.0266
79,1220123,1745295463482,0.027,0.0,-57.0,,-0.04,0.15,0.98,0.0,0.0,0.0,1.0,1.13,88.0,10762.0,11.2,1.94,,6.83,1.111,82.6,,58.9,5.0,,,,,,,,,,,,0,0,0,0,0,0,0,0,0,0,0,0,0,0,0,0,,,,,,0.0,,,,,,,,,,,,,,,
80,1220143,1745295463502,0.0273,,,,,,,,,,,,,,,,,,,,,,,,,,,,,,,,,,0,0,0,0,0,0,0,0,0,0,0,0,0,0,0,0,,,,,,,,,,,,,,,,,,,,,
81,1220163,1745295463520,0.0276,0.0,-64.0,,-0.0,0.14,1.02,0.0,0.0,0.0,1.03,1.13,91.0,10550.0,6.1,1.7,,6.83,1.111,82.6,,59.2,5.0,,,,,,,,,,,,0,0,0,0,0,0,0,0,0,0,0,0,0,0,0,0,,,,,,0.0,,,,,,,,,,,,,,,
82,1220183,1745295463540,0.028,,,,,,,,,,,,,,,,,,,,,,,,,,,,,,,,,,0,0,0,0,0,0,0,0,0,0,0,0,0,0,0,0,,,,,,,,,,,,,,,,,,,,,
83,1220203,1745295463560,0.0283,0.0,-61.0,,0.0,0.08,0.92,0.0,0.0,0.0,0.92,1.13,82.0,10550.0,6.1,1.7,,6.27,1.138,82.6,,59.2,5.0,0.0,0.0,0.0,0.0,0.0,0.0,0.0,0.0,2.26,,,0,0,0,0,0,0,0,0,0,0,0,0,0,0,0,0,,0.0,,,,0.0,38.985764,-76.950226,0.04,48.0,34.0,3.0,0.8,0.0,0.0,-1.0,0.0,0.0,0.0,0.0,0.0283
84,1220223,1745295463580,0.0286,,,,,,,,,,,,,,,,,,,,,,,,,,,,,,,,,,0,0,0,0,0,0,0,0,0,0,0,0,0,0,0,0,,,,,,,,,,,,,,,,,,,,,
85,1220243,1745295463602,0.029,0.0,-68.0,,0.02,-0.15,0.89,0.0,0.0,0.0,0.91,1.13,80.0,10194.0,2.7,1.4,,5.79,1.189,82.6,,59.6,5.0,,,,,,,,,,,,0,0,0,0,0,0,0,0,0,0,0,0,0,0,0,0,,,,,,0.0,,,,,,,,,,,,,,,
86,1220263,1745295463622,0.0293,,,,,,,,,,,,,,,,,,,,,,,,,,,,,,,,,,0,0,0,0,0,0,0,0,0,0,0,0,0,0,0,0,,,,,,,,,,,,,,,,,,,,,
87,1220283,1745295463642,0.0296,0.0,-76.0,,-0.02,0.03,0.89,0.0,0.0,1.0,0.89,1.13,79.0,9615.0,2.2,1.4,,5.44,1.248,82.6,,59.6,5.0,,,,,,,,,,,,0,0,0,0,0,0,0,0,0,0,0,0,0,0,0,0,,,,,,0.0,,,,,,,,,,,,,,,
88,1220303,1745295463662,0.03,,,,,,,,,,,,,,,,,,,,,,,0.0,0.0,0.0,0.0,0.0,0.0,0.0,0.0,2.26,,,0,0,0,0,0,0,0,0,0,0,0,0,0,0,0,0,,0.0,,,,,38.985764,-76.950226,0.0,48.0,34.0,3.0,0.8,0.0,0.0,-1.0,0.0,,0.0,0.0,0.03
89,1220323,1745295463682,0.0303,0.0,-46.0,,-0.03,-0.44,0.86,1.0,0.0,0.0,0.96,1.13,85.0,9016.0,2.1,1.4,,5.36,1.25,82.6,,59.6,5.0,,,,,,,,,,,,0,0,0,0,0,0,0,0,0,0,0,0,0,0,0,0,,,,,,0.0,,,,,,,,,,,,,,,
90,1220343,1745295463702,0.0306,,,,,,,,,,,,,,,,,,,,,,,,,,,,,,,,,,0,0,0,0,0,0,0,0,0,0,0,0,0,0,0,0,,,,,,,,,,,,,,,,,,,,,
91,1220363,1745295463722,0.031,0.0,-76.0,,-0.07,-0.4,0.84,1.0,0.0,0.0,0.93,1.13,82.0,8490.0,1.9,1.4,,5.36,1.25,82.6,,58.7,5.0,,,,,,,,,,,,0,0,0,0,0,0,0,0,0,0,0,0,0,0,0,0,,,,,,0.0,,,,,,,,,,,,,,,
92,1220383,1745295463742,0.0313,,,,,,,,,,,,,,,,,,,,,,,,,,,,,,,,,,0,0,0,0,0,0,0,0,0,0,0,0,0,0,0,0,,,,,,,,,,,,,,,,,,,,,
93,1220403,1745295463762,0.0316,0.0,-49.0,13.69,-0.05,-0.33,0.88,1.0,0.0,1.0,0.95,1.13,84.0,8490.0,1.9,1.4,15.0,5.34,1.249,82.6,180.0,58.7,5.0,0.0,0.0,0.0,0.0,0.0,0.0,0.0,0.0,2.25,0.0,1.0,0,0,0,0,0,0,0,0,0,0,0,0,0,0,0,0,0.0,0.0,1.0,0.0,0.0,0.0,38.985764,-76.950226,0.08,48.0,34.0,3.0,0.8,0.0,0.0,-1.0,0.0,0.0,0.0,0.0,0.0316
94,1220423,1745295463782,0.032,,,,,,,,,,,,,,,,,,,,,,,,,,,,,,,,,,0,0,0,0,0,0,0,0,0,0,0,0,0,0,0,0,,,,,,,,,,,,,,,,,,,,,
95,1220443,1745295463802,0.0323,0.0,-76.0,,-0.06,-0.28,0.88,0.0,0.0,1.0,0.92,1.13,82.0,7957.0,0.6,1.4,,5.42,1.247,82.6,,56.2,5.0,,,,,,,,,,,,0,0,0,0,0,0,0,0,0,0,0,0,0,0,0,0,,,,,,0.0,,,,,,,,,,,,,,,
96,1220463,1745295463822,0.0326,,,,,,,,,,,,,,,,,,,,,,,,,,,,,,,,,,0,0,0,0,0,0,0,0,0,0,0,0,0,0,0,0,,,,,,,,,,,,,,,,,,,,,
97,1220483,1745295463842,0.033,0.0,-76.0,,-0.1,-0.31,0.85,0.0,0.0,1.0,0.91,1.13,81.0,7516.0,0.4,1.4,,5.59,1.248,82.6,,56.2,5.0,,,,,,,,,,,,0,0,0,0,0,0,0,0,0,0,0,0,0,0,0,0,,,,,,0.0,,,,,,,,,,,,,,,
98,1220503,1745295463862,0.0333,,,,,,,,,,,,,,,,,,,,,,,0.0,0.0,0.0,0.0,0.0,0.0,0.0,0.0,2.26,,,0,0,0,0,0,0,0,0,0,0,0,0,0,0,0,0,,0.0,,,,,38.985764,-76.950226,0.05,48.0,34.0,3.0,0.8,0.0,0.0,-1.0,0.0,,0.0,0.0,0.0333
99,1220523,1745295463882,0.0336,0.0,-57.0,,-0.06,-0.23,0.87,0.0,0.0,1.0,0.9,1.13,80.0,7056.0,9.9,2.46,,6.59,1.248,82.6,,56.2,5.0,,,,,,,,,,,,0,0,0,0,0,0,0,0,0,0,0,0,0,0,0,0,,,,,,0.0,,,,,,,,,,,,,,,
100,1220543,1745295463902,0.034,,,,,,,,,,,,,,,,,,,,,,,,,,,,,,,,,,0,0,0,0,0,0,0,0,0,0,0,0,0,0,0,0,,,,,,,,,,,,,,,,,,,,,
101,1220563,1745295463922,0.0343,0.0,-57.0,,-0.08,-0.21,0.93,0.0,0.0,1.0,0.95,1.13,84.0,6935.0,29.2,3.55,,6.59,1.248,82.6,,52.6,5.0,,,,,,,,,,,,0,0,0,0,0,0,0,0,0,0,0,0,0,0,0,0,,,,,,0.0,,,,,,,,,,,,,,,
102,1220583,1745295463942,0.0347,,,,,,,,,,,,,,,,,,,,,,,,,,,,,,,,,,0,0,0,0,0,0,0,0,0,0,0,0,0,0,0,0,,,,,,,,,,,,,,,,,,,,,
103,1220603,1745295463962,0.035,0.0,-76.0,,-0.09,-0.25,0.9,0.0,0.0,1.0,0.94,1.13,84.0,6935.0,29.2,3.55,,9.74,1.249,82.6,,52.6,5.0,0.0,0.0,0.0,0.0,0.0,0.0,0.0,0.0,2.25,,,0,0,0,0,0,0,0,0,0,0,0,0,0,0,0,0,,0.0,,,,0.0,38.985764,-76.950226,0.08,48.0,34.0,3.0,0.8,0.0,0.0,-1.0,0.0,0.0,0.0,0.0,0.035
104,1220623,1745295463982,0.0353,,,,,,,,,,,,,,,,,,,,,,,,,,,,,,,,,,0,0,0,0,0,0,0,0,0,0,0,0,0,0,0,0,,,,,,,,,,,,,,,,,,,,,
105,1220643,1745295464002,0.0356,0.0,-83.0,,-0.08,-0.18,0.93,0.0,0.0,0.0,0.95,1.13,84.0,7159.0,43.6,5.38,,12.67,1.25,82.6,,54.0,5.0,,,,,,,,,,,,0,0,0,0,0,0,0,0,0,0,0,0,0,0,0,0,,,,,,0.0,,,,,,,,,,,,,,,
106,1220663,1745295464012,0.036,,,,,,,,,,,,,,,,,,,,,,,,,,,,,,,,,,0,0,0,0,0,0,0,0,0,0,0,0,0,0,0,0,,,,,,,,,,,,,,,,,,,,,
107,1220683,1745295464032,0.0363,0.0,-68.0,,-0.06,-0.19,0.93,0.0,0.0,0.0,0.95,1.13,85.0,7413.0,60.5,5.5,,14.06,1.234,82.6,,54.0,5.0,,,,,,,,,,,,0,0,0,0,0,0,0,0,0,0,0,0,0,0,0,0,,,,,,0.0,,,,,,,,,,,,,,,
108,1220703,1745295464052,0.0366,,,,,,,,,,,,,,,,,,,,,,,0.0,0.0,0.0,0.0,0.0,0.0,0.0,0.0,2.25,,,0,0,0,0,0,0,0,0,0,0,0,0,0,0,0,0,,0.0,,,,,38.985764,-76.950226,0.05,48.0,34.0,3.0,0.8,0.0,0.0,-1.0,0.0,,0.0,0.0,0.0366
109,1220723,1745295464072,0.037,0.0,-49.0,,-0.06,0.0,0.95,-1.0,0.0,0.0,0.95,1.13,84.0,8537.0,71.3,5.41,,13.98,1.241,82.6,,54.0,5.0,,,,,,,,,,,,0,0,0,0,0,0,0,0,0,0,0,0,0,0,0,0,,,,,,0.0,,,,,,,,,,,,,,,
110,1220743,1745295464092,0.0373,,,,,,,,,,,,,,,,,,,,,,,,,,,,,,,,,,0,0,0,0,0,0,0,0,0,0,0,0,0,0,0,0,,,,,,,,,,,,,,,,,,,,,
111,1220763,1745295464115,0.0376,0.0,-53.0,,-0.07,-0.09,0.92,-1.0,0.0,0.0,0.93,1.13,82.0,9973.0,82.2,6.05,,13.98,1.241,82.6,,60.2,5.0,,,,,,,,,,,,0,0,0,0,0,0,0,0,0,0,0,0,0,0,0,0,,,,,,0.0,,,,,,,,,,,,,,,
112,1220783,1745295464135,0.038,,,,,,,,,,,,,,,,,,,,,,,,,,,,,,,,,,0,0,0,0,0,0,0,0,0,0,0,0,0,0,0,0,,,,,,,,,,,,,,,,,,,,,
113,1220803,1745295464155,0.0383,0.0,-53.0,,-0.08,0.02,1.01,-1.0,0.0,1.0,1.02,1.13,90.0,9973.0,82.2,6.05,,13.82,1.115,82.6,,60.2,5.0,0.0,0.0,0.0,0.0,0.0,0.0,0.0,0.0,2.25,,,0,0,0,0,0,0,0,0,0,0,0,0,0,0,0,0,,0.0,,,,0.0,38.985764,-76.950226,0.08,48.0,34.0,3.0,0.8,0.0,0.0,-1.0,0.0,0.0,0.0,0.0,0.0383
114,1220823,1745295464175,0.0386,,,,,,,,,,,,,,,,,,,,,,,,,,,,,,,,,,0,0,0,0,0,0,0,0,0,0,0,0,0,0,0,0,,,,,,,,,,,,,,,,,,,,,
115,1220843,1745295464195,0.039,0.0,-76.0,,-0.05,0.04,1.0,1.0,0.0,0.0,1.0,1.13,89.0,11876.0,91.4,5.88,,13.8,0.992,82.6,,60.5,5.0,,,,,,,,,,,,0,0,0,0,0,0,0,0,0,0,0,0,0,0,0,0,,,,,,0.0,,,,,,,,,,,,,,,
116,1220863,1745295464219,0.0393,,,,,,,,,,,,,,,,,,,,,,,,,,,,,,,,,,0,0,0,0,0,0,0,0,0,0,0,0,0,0,0,0,,,,,,,,,,,,,,,,,,,,,
117,1220883,1745295464239,0.0396,0.0,-57.0,,-0.06,-0.02,0.92,0.0,-1.0,0.0,0.92,1.13,82.0,13321.0,97.6,4.75,,13.36,0.896,82.6,,60.5,5.0,,,,,,,,,,,,0,0,0,0,0,0,0,0,0,0,0,0,0,0,0,0,,,,,,0.0,,,,,,,,,,,,,,,
118,1220903,1745295464259,0.04,,,,,,,,,,,,,,,,,,,,,,,0.0,0.0,0.0,0.0,0.0,0.0,0.0,0.0,2.24,,,0,0,0,0,0,0,0,0,0,0,0,0,0,0,0,0,,0.0,,,,,38.985764,-76.950226,0.08,48.0,34.0,3.0,0.8,0.0,0.0,-1.0,0.0,,0.0,0.0,0.04
119,1220923,1745295464279,0.0403,0.0,-57.0,,-0.09,0.17,0.9,0.0,-1.0,-2.0,0.92,1.13,81.0,13812.0,99.4,4.61,,11.53,0.885,82.6,,60.5,5.0,,,,,,,,,,,,0,0,0,0,0,0,0,0,0,0,0,0,0,0,0,0,,,,,,0.0,,,,,,,,,,,,,,,
120,1220943,1745295464301,0.0406,,,,,,,,,,,,,,,,,,,,,,,,,,,,,,,,,,0,0,0,0,0,0,0,0,0,0,0,0,0,0,0,0,,,,,,,,,,,,,,,,,,,,,
121,1220963,1745295464321,0.041,0.0,-49.0,,-0.1,0.11,0.84,0.0,-1.0,-2.0,0.85,1.13,75.0,13188.0,99.4,4.36,,11.53,0.885,82.6,,73.2,5.0,,,,,,,,,,,,0,0,0,0,0,0,0,0,0,0,0,0,0,0,0,0,,,,,,0.0,,,,,,,,,,,,,,,
122,1220983,1745295464341,0.0413,,,,,,,,,,,,,,,,,,,,,,,,,,,,,,,,,,0,0,0,0,0,0,0,0,0,0,0,0,0,0,0,0,,,,,,,,,,,,,,,,,,,,,
123,1221003,1745295464361,0.0416,0.0,-57.0,,-0.12,0.24,0.86,1.0,-1.0,-3.0,0.9,1.13,80.0,13188.0,99.4,4.36,,10.82,1.022,82.6,,73.2,5.0,0.0,0.0,0.0,0.0,0.0,0.0,0.0,0.0,2.26,,,0,0,0,0,0,0,0,0,0,0,0,0,0,0,0,0,,0.0,,,,0.0,38.985764,-76.950226,0.05,48.0,34.0,3.0,0.8,0.0,0.0,-1.0,0.0,0.0,0.0,0.0,0.0416
124,1221023,1745295464381,0.042,,,,,,,,,,,,,,,,,,,,,,,,,,,,,,,,,,0,0,0,0,0,0,0,0,0,0,0,0,0,0,0,0,,,,,,,,,,,,,,,,,,,,,
125,1221043,1745295464401,0.0423,0.0,-53.0,,-0.09,0.31,0.91,1.0,0.0,-1.0,0.96,1.13,85.0,13897.0,99.3,3.36,,10.34,1.248,82.6,,71.3,5.0,,,,,,,,,,,,0,0,0,0,0,0,0,0,0,0,0,0,0,0,0,0,,,,,,0.0,,,,,,,,,,,,,,,
126,1221063,1745295464421,0.0426,,,,,,,,,,,,,,,,,,,,,,,,,,,,,,,,,,0,0,0,0,0,0,0,0,0,0,0,0,0,0,0,0,,,,,,,,,,,,,,,,,,,,,
127,1221083,1745295464441,0.043,0.0,-49.0,,-0.09,0.42,0.94,0.0,0.0,-2.0,1.03,1.13,91.0,13181.0,99.4,3.33,,10.49,1.006,82.6,,71.3,5.0,,,,,,,,,,,,0,0,0,0,0,0,0,0,0,0,0,0,0,0,0,0,,,,,,0.0,,,,,,,,,,,,,,,
128,1221103,1745295464461,0.0433,,,,,,,,,,,,,,,,,,,,,,,0.0,0.0,0.0,0.0,0.0,0.0,0.0,0.0,2.25,,,0,0,0,0,0,0,0,0,0,0,0,0,0,0,0,0,,0.0,,,,,38.985764,-76.950226,0.04,48.0,34.0,3.0,0.8,0.0,0.0,-1.0,0.0,,0.0,0.0,0.0433
129,1221123,1745295464481,0.0436,0.0,-49.0,,-0.12,0.07,0.92,2.0,0.0,-2.0,0.93,1.13,82.0,13270.0,99.4,3.32,,10.22,1.248,82.6,,71.3,5.0,,,,,,,,,,,,0,0,0,0,0,0,0,0,0,0,0,0,0,0,0,0,,,,,,0.0,,,,,,,,,,,,,,,
130,1221143,1745295464501,0.044,,,,,,,,,,,,,,,,,,,,,,,,,,,,,,,,,,0,0,0,0,0,0,0,0,0,0,0,0,0,0,0,0,,,,,,,,,,,,,,,,,,,,,
131,1221163,1745295464521,0.0443,0.0,-46.0,,-0.13,-0.04,0.91,3.0,0.0,-1.0,0.92,1.13,81.0,13765.0,99.4,3.17,,10.22,1.248,82.6,,70.3,5.0,,,,,,,,,,,,0,0,0,0,0,0,0,0,0,0,0,0,0,0,0,0,,,,,,0.0,,,,,,,,,,,,,,,
132,1221183,1745295464541,0.0446,,,,,,,,,,,,,,,,,,,,,,,,,,,,,,,,,,0,0,0,0,0,0,0,0,0,0,0,0,0,0,0,0,,,,,,,,,,,,,,,,,,,,,
133,1221203,1745295464561,0.045,0.0,-46.0,,-0.16,0.13,0.84,5.0,0.0,-2.0,0.87,1.13,77.0,13765.0,99.4,3.17,,10.0,1.251,82.6,,70.3,5.0,0.0,0.0,0.0,0.0,0.0,0.0,0.0,0.0,2.25,,,0,0,0,0,0,0,0,0,0,0,0,0,0,0,0,0,,0.0,,,,0.0,38.985764,-76.950226,0.13,48.0,34.0,3.0,0.8,0.0,0.0,-1.0,0.0,0.0,0.0,0.0,0.045
134,1221223,1745295464581,0.0453,,,,,,,,,,,,,,,,,,,,,,,,,,,,,,,,,,0,0,0,0,0,0,0,0,0,0,0,0,0,0,0,0,,,,,,,,,,,,,,,,,,,,,
135,1221243,1745295464601,0.0457,0.0,-61.0,,-0.13,-0.01,0.95,4.0,0.0,-3.0,0.96,1.13,85.0,13337.0,99.4,3.19,,10.12,1.075,82.6,,71.6,5.0,,,,,,,,,,,,0,0,0,0,0,0,0,0,0,0,0,0,0,0,0,0,,,,,,0.0,,,,,,,,,,,,,,,
136,1221263,1745295464621,0.046,,,,,,,,,,,,,,,,,,,,,,,,,,,,,,,,,,0,0,0,0,0,0,0,0,0,0,0,0,0,0,0,0,,,,,,,,,,,,,,,,,,,,,
137,1221283,1745295464641,0.0463,0.0,-61.0,,-0.11,0.11,0.95,2.0,0.0,0.0,0.96,1.13,85.0,13115.0,99.4,3.36,,10.22,1.244,82.6,,71.6,5.0,,,,,,,,,,,,0,0,0,0,0,0,0,0,0,0,0,0,0,0,0,0,,,,,,0.0,,,,,,,,,,,,,,,
138,1221303,1745295464661,0.0466,,,,,,,,,,,,,,,,,,,,,,,0.0,0.0,0.0,0.0,0.0,0.0,0.0,0.0,2.25,,,0,0,0,0,0,0,0,0,0,0,0,0,0,0,0,0,,0.0,,,,,38.985764,-76.950226,0.08,48.0,34.0,3.0,0.8,0.0,0.0,-1.0,0.0,,0.0,0.0,0.0466
139,1221323,1745295464681,0.047,0.0,-53.0,,-0.1,0.17,0.87,3.0,0.0,0.0,0.89,1.13,79.0,13537.0,99.5,3.18,,10.04,1.251,82.6,,71.6,5.0,,,,,,,,,,,,0,0,0,0,0,0,0,0,0,0,0,0,0,0,0,0,,,,,,0.0,,,,,,,,,,,,,,,
140,1221343,1745295464701,0.0473,,,,,,,,,,,,,,,,,,,,,,,,,,,,,,,,,,0,0,0,0,0,0,0,0,0,0,0,0,0,0,0,0,,,,,,,,,,,,,,,,,,,,,
141,1221363,1745295464721,0.0476,0.0,-38.0,,-0.11,0.24,0.85,1.0,0.0,3.0,0.89,1.13,79.0,13850.0,99.5,3.28,,10.04,1.251,82.6,,73.1,5.0,,,,,,,,,,,,0,0,0,0,0,0,0,0,0,0,0,0,0,0,0,0,,,,,,0.0,,,,,,,,,,,,,,,
142,1221383,1745295464741,0.048,,,,,,,,,,,,,,,,,,,,,,,,,,,,,,,,,,0,0,0,0,0,0,0,0,0,0,0,0,0,0,0,0,,,,,,,,,,,,,,,,,,,,,
143,1221403,1745295464761,0.0483,0.0,-53.0,13.67,-0.1,0.01,0.92,0.0,0.0,3.0,0.92,1.13,82.0,13850.0,99.5,3.28,15.0,10.0,1.138,82.6,182.0,73.1,5.0,0.0,0.0,0.0,0.0,0.0,0.0,0.0,0.0,2.25,0.0,1.0,0,0,0,0,0,0,0,0,0,0,0,0,0,0,0,0,0.0,0.0,1.0,0.0,0.0,0.0,38.985764,-76.950226,0.04,48.0,34.0,3.0,0.8,0.0,0.0,-1.0,0.0,0.0,0.0,0.0,0.0483
144,1221423,1745295464781,0.0486,,,,,,,,,,,,,,,,,,,,,,,,,,,,,,,,,,0,0,0,0,0,0,0,0,0,0,0,0,0,0,0,0,,,,,,,,,,,,,,,,,,,,,
145,1221443,1745295464801,0.049,0.0,-53.0,,-0.1,0.08,0.91,0.0,-1.0,2.0,0.92,1.13,82.0,13017.0,99.5,3.37,,10.12,1.102,82.6,,72.8,5.0,,,,,,,,,,,,0,0,0,0,0,0,0,0,0,0,0,0,0,0,0,0,,,,,,0.0,,,,,,,,,,,,,,,
146,1221463,1745295464821,0.0493,,,,,,,,,,,,,,,,,,,,,,,,,,,,,,,,,,0,0,0,0,0,0,0,0,0,0,0,0,0,0,0,0,,,,,,,,,,,,,,,,,,,,,
147,1221483,1745295464841,0.0496,0.0,-57.0,,-0.11,0.17,0.87,-1.0,0.0,4.0,0.89,1.13,79.0,13215.0,99.5,3.26,,10.28,1.248,82.6,,72.8,5.0,,,,,,,,,,,,0,0,0,0,0,0,0,0,0,0,0,0,0,0,0,0,,,,,,0.0,,,,,,,,,,,,,,,
148,1221503,1745295464861,0.05,,,,,,,,,,,,,,,,,,,,,,,0.0,0.0,0.0,0.0,0.0,0.0,0.0,0.0,2.25,,,0,0,0,0,0,0,0,0,0,0,0,0,0,0,0,0,,0.0,,,,,38.985764,-76.950226,0.04,48.0,34.0,3.0,0.8,0.0,0.0,-1.0,0.0,,0.0,0.0,0.05
149,1221523,1745295464881,0.0503,0.0,-31.0,,-0.05,0.17,0.89,-3.0,0.0,4.0,0.91,1.13,81.0,13146.0,99.5,3.29,,9.94,1.243,82.6,,72.8,5.0,,,,,,,,,,,,0,0,0,0,0,0,0,0,0,0,0,0,0,0,0,0,,,,,,0.0,,,,,,,,,,,,,,,
150,1221543,1745295464903,0.0506,,,,,,,,,,,,,,,,,,,,,,,,,,,,,,,,,,0,0,0,0,0,0,0,0,0,0,0,0,0,0,0,0,,,,,,,,,,,,,,,,,,,,,
151,1221563,1745295464923,0.051,0.0,-46.0,,-0.02,0.08,0.89,-2.0,1.0,4.0,0.9,1.13,79.0,12417.0,99.6,3.44,,9.94,1.243,82.6,,71.4,5.0,,,,,,,,,,,,0,0,0,0,0,0,0,0,0,0,0,0,0,0,0,0,,,,,,0.0,,,,,,,,,,,,,,,
152,1221583,1745295464943,0.0513,,,,,,,,,,,,,,,,,,,,,,,,,,,,,,,,,,0,0,0,0,0,0,0,0,0,0,0,0,0,0,0,0,,,,,,,,,,,,,,,,,,,,,
153,1221603,1745295464963,0.0516,0.0,-46.0,,0.05,-0.02,0.9,-1.0,1.0,3.0,0.9,1.13,80.0,12417.0,99.6,3.44,,10.12,1.114,82.6,,71.4,5.0,0.0,0.0,0.0,0.0,0.0,0.0,0.0,0.0,2.26,,,0,0,0,0,0,0,0,0,0,0,0,0,0,0,0,0,,0.0,,,,0.0,38.985764,-76.950226,0.08,48.0,34.0,3.0,0.8,0.0,0.0,-1.0,0.0,0.0,0.0,0.0,0.0516
154,1221623,1745295464983,0.052,,,,,,,,,,,,,,,,,,,,,,,,,,,,,,,,,,0,0,0,0,0,0,0,0,0,0,0,0,0,0,0,0,,,,,,,,,,,,,,,,,,,,,
155,1221643,1745295465003,0.0523,0.0,-27.0,,0.09,-0.15,0.89,0.0,1.0,2.0,0.91,1.13,81.0,11709.0,99.6,3.8,,10.44,1.103,82.6,,61.3,5.0,,,,,,,,,,,,0,0,0,0,0,0,0,0,0,0,0,0,0,0,0,0,,,,,,0.0,,,,,,,,,,,,,,,
156,1221663,1745295465011,0.0526,,,,,,,,,,,,,,,,,,,,,,,,,,,,,,,,,,0,0,0,0,0,0,0,0,0,0,0,0,0,0,0,0,,,,,,,,,,,,,,,,,,,,,
157,1221683,1745295465031,0.053,0.0,-27.0,,0.2,-0.24,1.01,0.0,1.0,2.0,1.06,1.13,94.0,10793.0,99.6,4.04,,10.89,1.05,82.6,,61.3,5.0,,,,,,,,,,,,0,0,0,0,0,0,0,0,0,0,0,0,0,0,0,0,,,,,,0.0,,,,,,,,,,,,,,,
158,1221703,1745295465051,0.0533,,,,,,,,,,,,,,,,,,,,,,,0.0,0.0,0.0,0.0,0.0,0.0,0.0,0.0,2.26,,,0,0,0,0,0,0,0,0,0,0,0,0,0,0,0,0,,0.0,,,,,38.985764,-76.950226,1.16,48.0,34.0,3.0,0.8,0.0,0.0,-1.0,0.0,,0.0,0.0,0.0533
159,1221723,1745295465071,0.0536,0.0,-15.0,,0.24,-0.16,1.01,-1.0,1.0,2.0,1.05,1.13,93.0,10135.0,99.6,4.96,,11.09,0.988,82.6,,61.3,5.0,,,,,,,,,,,,0,0,0,0,0,0,0,0,0,0,0,0,0,0,0,0,,,,,,0.0,,,,,,,,,,,,,,,
160,1221743,1745295465091,0.054,,,,,,,,,,,,,,,,,,,,,,,,,,,,,,,,,,0,0,0,0,0,0,0,0,0,0,0,0,0,0,0,0,,,,,,,,,,,,,,,,,,,,,
161,1221763,1745295465118,0.0543,0.0,-15.0,,0.31,-0.22,1.03,-1.0,1.0,1.0,1.1,1.13,97.0,9509.0,99.6,5.73,,11.09,0.988,82.6,,59.5,5.0,,,,,,,,,,,,0,0,0,0,0,0,0,0,0,0,0,0,0,0,0,0,,,,,,0.0,,,,,,,,,,,,,,,
162,1221783,1745295465138,0.0546,,,,,,,,,,,,,,,,,,,,,,,,,,,,,,,,,,0,0,0,0,0,0,0,0,0,0,0,0,0,0,0,0,,,,,,,,,,,,,,,,,,,,,
163,1221803,1745295465158,0.055,0.0,-19.0,,0.37,-0.09,1.01,-2.0,1.0,2.0,1.08,1.13,96.0,9509.0,99.6,5.73,,11.3,0.919,84.4,,59.5,5.0,3.0,0.0,3.0,3.0,0.0,0.0,0.0,0.0,2.25,,,0,0,0,0,0,0,0,0,0,0,0,0,0,0,0,0,,0.0,,,,0.0,38.985764,-76.950226,3.51,48.0,34.0,3.0,0.8,0.0,0.0,-1.0,0.0,0.0,0.0,0.0,0.055
164,1221823,1745295465178,0.0553,,,,,,,,,,,,,,,,,,,,,,,,,,,,,,,,,,0,0,0,0,0,0,0,0,0,0,0,0,0,0,0,0,,,,,,,,,,,,,,,,,,,,,
165,1221843,1745295465198,0.0556,0.0,-27.0,,0.41,-0.03,0.97,-3.0,1.0,2.0,1.06,1.13,94.0,9027.0,99.6,5.67,,11.54,0.83,84.4,,57.5,5.0,,,,,,,,,,,,0,0,0,0,0,0,0,0,0,0,0,0,0,0,0,0,,,,,,0.0,,,,,,,,,,,,,,,
166,1221863,1745295465218,0.056,,,,,,,,,,,,,,,,,,,,,,,,,,,,,,,,,,0,0,0,0,0,0,0,0,0,0,0,0,0,0,0,0,,,,,,,,,,,,,,,,,,,,,
167,1221883,1745295465238,0.0563,0.0,-19.0,,0.44,-0.06,0.94,-3.0,0.0,2.0,1.03,1.13,92.0,8534.0,99.6,5.78,,11.83,0.778,84.4,,57.5,5.0,,,,,,,,,,,,0,0,0,0,0,0,0,0,0,0,0,0,0,0,0,0,,,,,,0.0,,,,,,,,,,,,,,,
168,1221903,1745295465258,0.0566,,,,,,,,,,,,,,,,,,,,,,,5.0,46.0,6.0,5.0,0.0,149.0,0.0,0.0,2.25,,,0,0,0,0,0,0,0,0,0,0,0,0,0,0,0,0,,0.0,,,,,38.985764,-76.950226,8.0,48.0,34.0,3.0,0.8,0.0,0.0,-1.0,0.0,,0.0,0.0001,0.0566
169,1221923,1745295465278,0.057,0.0,-12.0,,0.49,-0.08,0.99,0.0,0.0,1.0,1.11,1.13,98.0,7897.0,99.7,5.97,,12.23,0.756,84.4,,57.5,5.0,,,,,,,,,,,,0,0,0,0,0,0,0,0,0,0,0,0,0,0,0,0,,,,,,0.0,,,,,,,,,,,,,,,
170,1221943,1745295465298,0.0573,,,,,,,,,,,,,,,,,,,,,,,,,,,,,,,,,,0,0,0,0,0,0,0,0,0,0,0,0,0,0,0,0,,,,,,,,,,,,,,,,,,,,,
171,1221963,1745295465320,0.0576,0.0,-12.0,,0.52,-0.16,1.01,1.0,0.0,0.0,1.15,1.15,100.0,7251.0,99.7,5.38,,12.23,0.756,84.4,,52.9,5.0,,,,,,,,,,,,0,0,0,0,0,0,0,0,0,0,0,0,0,0,0,0,,,,,,0.0,,,,,,,,,,,,,,,
172,1221983,1745295465340,0.058,,,,,,,,,,,,,,,,,,,,,,,,,,,,,,,,,,0,0,0,0,0,0,0,0,0,0,0,0,0,0,0,0,,,,,,,,,,,,,,,,,,,,,
173,1222003,1745295465360,0.0583,0.0,-15.0,,0.55,-0.12,1.03,1.0,0.0,0.0,1.17,1.17,100.0,7251.0,99.7,5.38,,12.6,0.743,84.4,,52.9,5.0,7.0,9.0,8.0,7.0,0.0,209.0,0.0,0.0,2.26,,,0,0,0,0,0,0,0,0,0,0,0,0,0,0,0,0,,0.0,,,,0.0,38.985764,-76.950233,10.82,48.0,34.0,3.0,0.8,0.0,0.0,-1.0,0.0,0.0,0.0,0.0003,0.0583
174,1222023,1745295465380,0.0586,,,,,,,,,,,,,,,,,,,,,,,,,,,,,,,,,,0,0,0,0,0,0,0,0,0,0,0,0,0,0,0,0,,,,,,,,,,,,,,,,,,,,,
175,1222043,1745295465402,0.059,0.0,-27.0,,0.57,-0.19,1.01,1.0,0.0,0.0,1.17,1.17,100.0,6680.0,99.7,5.09,,12.8,0.742,84.4,,47.3,5.0,,,,,,,,,,,,0,0,0,0,0,0,0,0,0,0,0,0,0,0,0,0,,,,,,0.0,,,,,,,,,,,,,,,
176,1222063,1745295465422,0.0593,,,,,,,,,,,,,,,,,,,,,,,,,,,,,,,,,,0,0,0,0,0,0,0,0,0,0,0,0,0,0,0,0,,,,,,,,,,,,,,,,,,,,,
177,1222083,1745295465442,0.0596,0.0,-12.0,,0.56,-0.35,0.94,2.0,0.0,-1.0,1.15,1.17,98.0,6155.0,99.7,5.15,,13.12,0.759,84.4,,47.3,5.0,,,,,,,,,,,,0,0,0,0,0,0,0,0,0,0,0,0,0,0,0,0,,,,,,0.0,,,,,,,,,,,,,,,
178,1222103,1745295465462,0.06,,,,,,,,,,,,,,,,,,,,,,,9.0,33.0,9.0,10.0,0.0,230.0,0.0,0.0,2.25,,,0,0,0,0,0,0,0,0,0,0,0,0,0,0,0,0,,0.0,,,,,38.985764,-76.950233,13.6,48.0,34.0,3.0,0.8,0.0,0.0,-1.0,0.0,,0.0,0.0005,0.06
179,1222123,1745295465482,0.0603,0.0,-8.0,,0.56,-0.32,0.95,1.0,0.0,-1.0,1.15,1.17,98.0,5675.0,99.7,4.92,,13.37,0.795,84.4,,47.3,5.0,,,,,,,,,,,,0,0,0,0,0,0,0,0,0,0,0,0,0,0,0,0,,,,,,0.0,,,,,,,,,,,,,,,
180,1222143,1745295465502,0.0606,,,,,,,,,,,,,,,,,,,,,,,,,,,,,,,,,,0,0,0,0,0,0,0,0,0,0,0,0,0,0,0,0,,,,,,,,,,,,,,,,,,,,,
181,1222163,1745295465520,0.061,0.0,-12.0,,0.57,-0.26,0.97,0.0,0.0,0.0,1.16,1.17,99.0,5155.0,99.7,4.45,,13.37,0.795,84.4,,41.1,5.0,,,,,,,,,,,,0,0,0,0,0,0,0,0,0,0,0,0,0,0,0,0,,,,,,0.0,,,,,,,,,,,,,,,
182,1222183,1745295465540,0.0613,,,,,,,,,,,,,,,,,,,,,,,,,,,,,,,,,,0,0,0,0,0,0,0,0,0,0,0,0,0,0,0,0,,,,,,,,,,,,,,,,,,,,,
183,1222203,1745295465560,0.0616,0.0,-23.0,,0.6,-0.2,1.05,-1.0,0.0,0.0,1.22,1.22,100.0,5155.0,99.7,4.45,,13.79,0.828,84.4,,41.1,5.0,11.0,33.0,11.0,12.0,0.0,92.0,0.0,0.0,2.26,,,0,0,0,0,0,0,0,0,0,0,0,0,0,0,0,0,,0.0,,,,0.0,38.985764,-76.950241,16.42,48.0,34.0,3.0,0.8,0.0,0.0,-1.0,0.0,0.0,0.0,0.0008,0.0616
184,1222223,1745295465580,0.062,,,,,,,,,,,,,,,,,,,,,,,,,,,,,,,,,,0,0,0,0,0,0,0,0,0,0,0,0,0,0,0,0,,,,,,,,,,,,,,,,,,,,,
185,1222243,1745295465602,0.0623,0.0,-15.0,,0.62,-0.2,1.02,-1.0,0.0,0.0,1.21,1.22,98.0,4085.0,99.7,4.56,,14.12,0.822,84.4,,28.2,5.0,,,,,,,,,,,,0,0,0,0,0,0,0,0,0,0,0,0,0,0,0,0,,,,,,0.0,,,,,,,,,,,,,,,
186,1222263,1745295465622,0.0626,,,,,,,,,,,,,,,,,,,,,,,,,,,,,,,,,,0,0,0,0,0,0,0,0,0,0,0,0,0,0,0,0,,,,,,,,,,,,,,,,,,,,,
187,1222283,1745295465642,0.063,0.0,-23.0,,0.6,-0.26,1.11,-2.0,0.0,0.0,1.29,1.29,100.0,3418.0,99.7,4.66,,14.34,0.793,84.4,,28.2,5.0,,,,,,,,,,,,0,0,0,0,0,0,0,0,0,0,0,0,0,0,0,0,,,,,,0.0,,,,,,,,,,,,,,,
188,1222303,1745295465662,0.0633,,,,,,,,,,,,,,,,,,,,,,,13.0,16.0,13.0,13.0,0.0,212.0,0.0,0.0,2.26,,,0,0,0,0,0,0,0,0,0,0,0,0,0,0,0,0,,2.0,,,,,38.985764,-76.950249,19.19,48.0,34.0,3.0,0.8,0.0,0.0,-1.0,0.0,,0.0,0.0011,0.0633
189,1222323,1745295465682,0.0636,0.0,-12.0,,0.54,-0.23,1.17,-2.0,-1.0,0.0,1.31,1.31,100.0,2911.0,99.7,4.51,,14.4,0.782,84.4,,28.2,5.0,,,,,,,,,,,,0,0,0,0,0,0,0,0,0,0,0,0,0,0,0,0,,,,,,0.0,,,,,,,,,,,,,,,
190,1222343,1745295465702,0.064,,,,,,,,,,,,,,,,,,,,,,,,,,,,,,,,,,0,0,0,0,0,0,0,0,0,0,0,0,0,0,0,0,,,,,,,,,,,,,,,,,,,,,
191,1222363,1745295465722,0.0643,0.0,-15.0,,0.47,-0.23,1.2,-2.0,-2.0,0.0,1.31,1.31,100.0,3051.0,99.8,4.41,,14.4,0.782,84.4,,21.0,5.0,,,,,,,,,,,,0,0,0,0,0,0,0,0,0,0,0,0,0,0,0,0,,,,,,0.0,,,,,,,,,,,,,,,
192,1222383,1745295465742,0.0646,,,,,,,,,,,,,,,,,,,,,,,,,,,,,,,,,,0,0,0,0,0,0,0,0,0,0,0,0,0,0,0,0,,,,,,,,,,,,,,,,,,,,,
193,1222403,1745295465762,0.065,0.0,-27.0,13.71,0.39,-0.28,1.24,-2.0,-2.0,0.0,1.33,1.33,100.0,3051.0,99.8,4.41,15.0,14.34,0.791,84.4,182.0,21.0,5.0,13.0,15.0,13.0,13.0,0.0,147.0,0.0,0.0,2.26,0.0,1.0,0,0,0,0,0,0,0,0,0,0,0,0,0,0,0,0,0.0,2.0,1.0,0.0,0.0,0.0,38.985767,-76.950256,21.54,48.0,34.0,3.0,0.8,0.0,0.0,-1.0,0.0,0.0,0.0,0.0014,0.065
194,1222423,1745295465782,0.0653,,,,,,,,,,,,,,,,,,,,,,,,,,,,,,,,,,0,0,0,0,0,0,0,0,0,0,0,0,0,0,0,0,,,,,,,,,,,,,,,,,,,,,
195,1222443,1745295465802,0.0656,0.0,-27.0,,0.35,-0.2,1.14,-2.0,-1.0,0.0,1.2,1.33,91.0,3196.0,99.7,4.4,,14.27,0.792,84.4,,23.5,5.0,,,,,,,,,,,,0,0,0,0,0,0,0,0,0,0,0,0,0,0,0,0,,,,,,0.0,,,,,,,,,,,,,,,
196,1222463,1745295465822,0.066,,,,,,,,,,,,,,,,,,,,,,,,,,,,,,,,,,0,0,0,0,0,0,0,0,0,0,0,0,0,0,0,0,,,,,,,,,,,,,,,,,,,,,
197,1222483,1745295465842,0.0663,0.0,-27.0,,0.34,-0.18,1.19,-2.0,-1.0,0.0,1.25,1.33,94.0,3381.0,99.7,4.59,,14.31,0.789,84.4,,23.5,5.0,,,,,,,,,,,,0,0,0,0,0,0,0,0,0,0,0,0,0,0,0,0,,,,,,0.0,,,,,,,,,,,,,,,
198,1222503,1745295465862,0.0667,,,,,,,,,,,,,,,,,,,,,,,13.0,15.0,13.0,14.0,0.0,161.0,0.0,0.0,2.26,,,0,0,0,0,0,0,0,0,0,0,0,0,0,0,0,0,,2.0,,,,,38.985767,-76.950256,21.26,48.0,34.0,3.0,0.8,0.0,0.0,-1.0,0.0,,0.0,0.0018,0.0667
199,1222523,1745295465882,0.067,0.0,-31.0,,0.33,-0.11,1.1,-2.0,-1.0,0.0,1.15,1.33,87.0,3403.0,99.8,4.63,,14.36,0.86,84.4,,23.5,5.0,,,,,,,,,,,,0,0,0,0,0,0,0,0,0,0,0,0,0,0,0,0,,,,,,0.0,,,,,,,,,,,,,,,
200,1222543,1745295465902,0.0673,,,,,,,,,,,,,,,,,,,,,,,,,,,,,,,,,,0,0,0,0,0,0,0,0,0,0,0,0,0,0,0,0,,,,,,,,,,,,,,,,,,,,,
201,1222563,1745295465922,0.0676,0.0,-31.0,,0.31,-0.04,1.09,-2.0,-1.0,0.0,1.13,1.33,85.0,2965.0,99.7,4.47,,14.36,0.86,84.4,,24.0,5.0,,,,,,,,,,,,0,0,0,0,0,0,0,0,0,0,0,0,0,0,0,0,,,,,,0.0,,,,,,,,,,,,,,,
202,1222583,1745295465942,0.068,,,,,,,,,,,,,,,,,,,,,,,,,,,,,,,,,,0,0,0,0,0,0,0,0,0,0,0,0,0,0,0,0,,,,,,,,,,,,,,,,,,,,,
203,1222603,1745295465962,0.0683,0.0,-46.0,,0.28,-0.06,1.14,-3.0,-2.0,0.0,1.17,1.33,88.0,2965.0,99.7,4.47,,14.38,0.975,84.4,,24.0,5.0,14.0,15.0,14.0,14.0,0.0,183.0,0.0,0.0,2.26,,,0,0,0,0,0,0,0,0,0,0,0,0,0,0,0,0,,0.0,,,,0.0,38.985767,-76.950264,21.28,48.0,34.0,3.0,0.8,0.0,0.0,-1.0,0.0,0.0,0.0,0.0022,0.0683
204,1222623,1745295465982,0.0686,,,,,,,,,,,,,,,,,,,,,,,,,,,,,,,,,,0,0,0,0,0,0,0,0,0,0,0,0,0,0,0,0,,,,,,,,,,,,,,,,,,,,,
205,1222643,1745295466002,0.069,0.0,-34.0,,0.21,-0.09,1.08,-2.0,-1.0,0.0,1.1,1.33,83.0,3168.0,99.7,4.46,,14.36,0.965,84.4,,23.6,5.0,,,,,,,,,,,,0,0,0,0,0,0,0,0,0,0,0,0,0,0,0,0,,,,,,0.0,,,,,,,,,,,,,,,
206,1222663,1745295466010,0.0693,,,,,,,,,,,,,,,,,,,,,,,,,,,,,,,,,,0,0,0,0,0,0,0,0,0,0,0,0,0,0,0,0,,,,,,,,,,,,,,,,,,,,,
207,1222683,1745295466030,0.0696,0.0,-46.0,,0.19,-0.13,1.06,-2.0,-1.0,0.0,1.08,1.33,82.0,3562.0,99.7,4.57,,14.24,0.922,84.4,,23.6,5.0,,,,,,,,,,,,0,0,0,0,0,0,0,0,0,0,0,0,0,0,0,0,,,,,,0.0,,,,,,,,,,,,,,,
208,1222703,1745295466050,0.07,,,,,,,,,,,,,,,,,,,,,,,14.0,15.0,14.0,13.0,0.0,188.0,0.0,0.0,2.25,,,0,0,0,0,0,0,0,0,0,0,0,0,0,0,0,0,,0.0,,,,,38.985767,-76.950272,22.12,48.0,34.0,3.0,0.8,0.0,0.0,-1.0,0.0,,0.0,0.0026,0.07
209,1222723,1745295466070,0.0703,0.0,-27.0,,0.22,-0.07,1.07,-2.0,-1.0,0.0,1.09,1.33,82.0,3602.0,99.7,4.72,,14.23,0.959,84.4,,23.6,5.0,,,,,,,,,,,,0,0,0,0,0,0,0,0,0,0,0,0,0,0,0,0,,,,,,0.0,,,,,,,,,,,,,,,
210,1222743,1745295466090,0.0706,,,,,,,,,,,,,,,,,,,,,,,,,,,,,,,,,,0,0,0,0,0,0,0,0,0,0,0,0,0,0,0,0,,,,,,,,,,,,,,,,,,,,,
211,1222763,1745295466117,0.071,0.0,-31.0,,0.23,-0.02,1.04,-2.0,-1.0,0.0,1.07,1.33,81.0,3507.0,99.8,4.67,,14.23,0.959,84.4,,26.1,5.0,,,,,,,,,,,,0,0,0,0,0,0,0,0,0,0,0,0,0,0,0,0,,,,,,0.0,,,,,,,,,,,,,,,
212,1222783,1745295466137,0.0713,,,,,,,,,,,,,,,,,,,,,,,,,,,,,,,,,,0,0,0,0,0,0,0,0,0,0,0,0,0,0,0,0,,,,,,,,,,,,,,,,,,,,,
213,1222803,1745295466157,0.0716,0.0,-46.0,,0.18,-0.06,1.06,-1.0,-1.0,-1.0,1.08,1.33,81.0,3507.0,99.8,4.67,,14.35,1.048,84.4,,26.1,5.0,14.0,15.0,15.0,16.0,0.0,4.0,0.0,0.0,2.26,,,0,0,0,0,0,0,0,0,0,0,0,0,0,0,0,0,,0.0,,,,0.0,38.985767,-76.950279,21.91,48.0,34.0,3.0,0.8,0.0,0.0,-1.0,0.0,0.0,0.0,0.0029,0.0716
214,1222823,1745295466177,0.072,,,,,,,,,,,,,,,,,,,,,,,,,,,,,,,,,,0,0,0,0,0,0,0,0,0,0,0,0,0,0,0,0,,,,,,,,,,,,,,,,,,,,,
215,1222843,1745295466197,0.0723,0.0,-38.0,,0.18,-0.02,1.07,-1.0,-1.0,0.0,1.09,1.33,82.0,3415.0,99.7,4.55,,14.34,1.09,84.4,,24.7,5.0,,,,,,,,,,,,0,0,0,0,0,0,0,0,0,0,0,0,0,0,0,0,,,,,,0.0,,,,,,,,,,,,,,,
216,1222863,1745295466215,0.0726,,,,,,,,,,,,,,,,,,,,,,,,,,,,,,,,,,0,0,0,0,0,0,0,0,0,0,0,0,0,0,0,0,,,,,,,,,,,,,,,,,,,,,
217,1222883,1745295466235,0.073,0.0,-46.0,,0.17,-0.01,1.05,-1.0,-1.0,0.0,1.07,1.33,80.0,3566.0,99.7,4.59,,14.28,1.006,84.4,,24.7,5.0,,,,,,,,,,,,0,0,0,0,0,0,0,0,0,0,0,0,0,0,0,0,,,,,,0.0,,,,,,,,,,,,,,,
218,1222903,1745295466255,0.0733,,,,,,,,,,,,,,,,,,,,,,,15.0,15.0,15.0,16.0,0.0,247.0,0.0,0.0,2.25,,,0,0,0,0,0,0,0,0,0,0,0,0,0,0,0,0,,0.0,,,,,38.985767,-76.950287,23.02,48.0,34.0,3.0,0.8,0.0,0.0,-1.0,0.0,,0.0,0.0033,0.0733
219,1222923,1745295466275,0.0736,0.0,-31.0,,0.17,-0.03,1.06,-1.0,-1.0,0.0,1.08,1.33,81.0,3680.0,99.7,4.73,,14.26,0.94,84.4,,24.7,5.0,,,,,,,,,,,,0,0,0,0,0,0,0,0,0,0,0,0,0,0,0,0,,,,,,0.0,,,,,,,,,,,,,,,
220,1222943,1745295466301,0.074,,,,,,,,,,,,,,,,,,,,,,,,,,,,,,,,,,0,0,0,0,0,0,0,0,0,0,0,0,0,0,0,0,,,,,,,,,,,,,,,,,,,,,
221,1222963,1745295466321,0.0743,0.0,-31.0,,0.16,-0.03,1.02,-1.0,-1.0,0.0,1.04,1.33,78.0,3719.0,99.7,4.7,,14.26,0.94,84.4,,27.1,5.0,,,,,,,,,,,,0,0,0,0,0,0,0,0,0,0,0,0,0,0,0,0,,,,,,0.0,,,,,,,,,,,,,,,
222,1222983,1745295466341,0.0746,,,,,,,,,,,,,,,,,,,,,,,,,,,,,,,,,,0,0,0,0,0,0,0,0,0,0,0,0,0,0,0,0,,,,,,,,,,,,,,,,,,,,,
223,1223003,1745295466361,0.075,0.0,-27.0,,0.12,-0.08,1.03,-1.0,-1.0,0.0,1.04,1.33,79.0,3719.0,99.7,4.7,,14.27,0.947,84.4,,27.1,5.0,15.0,15.0,15.0,15.0,0.0,13.0,0.0,0.0,2.25,,,0,0,0,0,0,0,0,0,0,0,0,0,0,0,0,0,,2.0,,,,0.0,38.985767,-76.950302,23.37,48.0,34.0,3.0,0.8,0.0,0.0,-1.0,0.0,0.0,0.0,0.0037,0.075
224,1223023,1745295466381,0.0753,,,,,,,,,,,,,,,,,,,,,,,,,,,,,,,,,,0,0,0,0,0,0,0,0,0,0,0,0,0,0,0,0,,,,,,,,,,,,,,,,,,,,,
225,1223043,1745295466401,0.0756,0.0,-27.0,,0.11,-0.08,1.04,-1.0,-1.0,0.0,1.05,1.33,79.0,3543.0,99.8,4.68,,14.28,1.011,84.4,,26.1,5.0,,,,,,,,,,,,0,0,0,0,0,0,0,0,0,0,0,0,0,0,0,0,,,,,,0.0,,,,,,,,,,,,,,,
226,1223063,1745295466421,0.076,,,,,,,,,,,,,,,,,,,,,,,,,,,,,,,,,,0,0,0,0,0,0,0,0,0,0,0,0,0,0,0,0,,,,,,,,,,,,,,,,,,,,,
227,1223083,1745295466441,0.0763,0.0,-27.0,,0.12,-0.1,0.99,-1.0,0.0,0.0,1.0,1.33,76.0,3790.0,99.7,4.69,,14.28,1.052,84.4,,26.1,5.0,,,,,,,,,,,,0,0,0,0,0,0,0,0,0,0,0,0,0,0,0,0,,,,,,0.0,,,,,,,,,,,,,,,
228,1223103,1745295466461,0.0766,,,,,,,,,,,,,,,,,,,,,,,16.0,15.0,16.0,15.0,0.0,252.0,0.0,0.0,2.25,,,0,0,0,0,0,0,0,0,0,0,0,0,0,0,0,0,,2.0,,,,,38.985767,-76.950302,23.89,48.0,34.0,3.0,0.8,0.0,0.0,-1.0,0.0,,0.0,0.0041,0.0766
229,1223123,1745295466481,0.077,0.0,-38.0,,0.11,-0.12,0.97,0.0,0.0,0.0,0.98,1.33,74.0,3848.0,99.7,4.74,,14.2,1.067,84.4,,26.1,5.0,,,,,,,,,,,,0,0,0,0,0,0,0,0,0,0,0,0,0,0,0,0,,,,,,0.0,,,,,,,,,,,,,,,
230,1223143,1745295466501,0.0773,,,,,,,,,,,,,,,,,,,,,,,,,,,,,,,,,,0,0,0,0,0,0,0,0,0,0,0,0,0,0,0,0,,,,,,,,,,,,,,,,,,,,,
231,1223163,1745295466521,0.0777,0.0,-27.0,,0.1,-0.14,0.98,-1.0,0.0,0.0,1.0,1.33,75.0,3714.0,99.7,4.77,,14.2,1.067,84.4,,27.4,5.0,,,,,,,,,,,,0,0,0,0,0,0,0,0,0,0,0,0,0,0,0,0,,,,,,0.0,,,,,,,,,,,,,,,
232,1223183,1745295466541,0.078,,,,,,,,,,,,,,,,,,,,,,,,,,,,,,,,,,0,0,0,0,0,0,0,0,0,0,0,0,0,0,0,0,,,,,,,,,,,,,,,,,,,,,
233,1223203,1745295466561,0.0783,0.0,-42.0,,0.1,-0.08,0.99,-1.0,0.0,0.0,0.99,1.33,75.0,3714.0,99.7,4.77,,14.22,1.071,84.4,,27.4,5.0,16.0,15.0,16.0,16.0,0.0,30.0,0.0,0.0,2.26,,,0,0,0,0,0,0,0,0,0,0,0,0,0,0,0,0,,2.0,,,,0.0,38.985767,-76.95031,24.2,48.0,34.0,3.0,0.8,0.0,0.0,-1.0,0.0,0.0,0.0,0.0045,0.0783
234,1223223,1745295466581,0.0786,,,,,,,,,,,,,,,,,,,,,,,,,,,,,,,,,,0,0,0,0,0,0,0,0,0,0,0,0,0,0,0,0,,,,,,,,,,,,,,,,,,,,,
235,1223243,1745295466601,0.079,0.0,-27.0,,0.12,-0.03,1.02,-1.0,0.0,1.0,1.03,1.33,78.0,3895.0,99.7,4.75,,14.27,1.073,84.4,,27.9,5.0,,,,,,,,,,,,0,0,0,0,0,0,0,0,0,0,0,0,0,0,0,0,,,,,,0.0,,,,,,,,,,,,,,,
236,1223263,1745295466621,0.0793,,,,,,,,,,,,,,,,,,,,,,,,,,,,,,,,,,0,0,0,0,0,0,0,0,0,0,0,0,0,0,0,0,,,,,,,,,,,,,,,,,,,,,
237,1223283,1745295466641,0.0796,0.0,-34.0,,0.11,-0.04,1.03,-1.0,0.0,1.0,1.04,1.33,78.0,3829.0,99.7,4.81,,14.19,1.086,84.4,,27.9,5.0,,,,,,,,,,,,0,0,0,0,0,0,0,0,0,0,0,0,0,0,0,0,,,,,,0.0,,,,,,,,,,,,,,,
238,1223303,1745295466661,0.08,,,,,,,,,,,,,,,,,,,,,,,16.0,15.0,16.0,16.0,0.0,252.0,0.0,0.0,2.26,,,0,0,0,0,0,0,0,0,0,0,0,0,0,0,0,0,,2.0,,,,,38.985767,-76.950317,24.83,47.9,34.0,3.0,0.8,0.0,0.0,-1.0,0.0,,0.0,0.005,0.08
239,1223323,1745295466681,0.0803,0.0,-31.0,,0.1,-0.04,1.02,0.0,0.0,0.0,1.02,1.33,77.0,3961.0,99.7,4.8,,14.22,1.066,84.4,,27.9,5.0,,,,,,,,,,,,0,0,0,0,0,0,0,0,0,0,0,0,0,0,0,0,,,,,,0.0,,,,,,,,,,,,,,,
240,1223343,1745295466701,0.0806,,,,,,,,,,,,,,,,,,,,,,,,,,,,,,,,,,0,0,0,0,0,0,0,0,0,0,0,0,0,0,0,0,,,,,,,,,,,,,,,,,,,,,
241,1223363,1745295466721,0.081,0.0,-46.0,,0.08,-0.1,0.94,0.0,0.0,0.0,0.94,1.33,71.0,3962.0,99.7,4.79,,14.22,1.066,84.4,,28.3,5.0,,,,,,,,,,,,0,0,0,0,0,0,0,0,0,0,0,0,0,0,0,0,,,,,,0.0,,,,,,,,,,,,,,,
242,1223383,1745295466741,0.0813,,,,,,,,,,,,,,,,,,,,,,,,,,,,,,,,,,0,0,0,0,0,0,0,0,0,0,0,0,0,0,0,0,,,,,,,,,,,,,,,,,,,,,
243,1223403,1745295466761,0.0816,0.0,-31.0,13.79,0.09,-0.07,0.96,0.0,0.0,0.0,0.97,1.33,73.0,3962.0,99.7,4.79,15.0,14.26,1.064,84.4,182.0,28.3,5.0,16.0,15.0,16.0,16.0,0.0,59.0,0.0,0.0,2.26,0.0,1.0,0,0,0,0,0,0,0,0,0,0,0,0,0,0,0,0,0.0,2.0,1.0,0.0,0.0,0.0,38.985767,-76.950325,25.21,47.9,34.0,3.0,0.8,0.0,0.0,-1.0,0.0,0.0,0.0,0.0054,0.0816
244,1223423,1745295466781,0.082,,,,,,,,,,,,,,,,,,,,,,,,,,,,,,,,,,0,0,0,0,0,0,0,0,0,0,0,0,0,0,0,0,,,,,,,,,,,,,,,,,,,,,
245,1223443,1745295466801,0.0823,0.0,-8.0,,0.07,-0.1,0.99,0.0,0.0,0.0,0.99,1.33,75.0,3931.0,99.7,4.85,,14.26,1.046,84.4,,28.7,5.0,,,,,,,,,,,,0,0,0,0,0,0,0,0,0,0,0,0,0,0,0,0,,,,,,0.0,,,,,,,,,,,,,,,
246,1223483,1745295466841,0.083,0.0,11.0,,0.07,-0.13,0.94,0.0,0.0,0.0,0.95,1.33,72.0,4073.0,99.8,4.86,,14.19,1.026,84.4,,28.7,5.0,,,,,,,,,,,,0,0,0,0,0,0,0,0,0,0,0,0,0,0,0,0,,,,,,0.0,,,,,,,,,,,,,,,
247,1224023,1745295467378,0.092,,,,,,,,,,,,,,,,,,,,,,,,,,,,,,,,,,0,0,0,0,0,0,0,0,0,0,0,0,0,0,0,0,,,,,,,,,,,,,,,,,,,,,
248,1224043,1745295467398,0.0923,0.0,-27.0,,0.01,-0.15,0.98,1.0,-1.0,0.0,0.99,1.03,96.0,4400.0,99.6,4.51,,14.18,1.022,82.6,,32.2,5.0,,,,,,,,,,,,0,0,0,0,0,0,0,0,0,0,0,0,0,0,0,0,,,,,,0.0,,,,,,,,,,,,,,,
249,1224063,1745295467420,0.0926,,,,,,,,,,,,,,,,,,,,,,,,,,,,,,,,,,0,0,0,0,0,0,0,0,0,0,0,0,0,0,0,0,,,,,,,,,,,,,,,,,,,,,
250,1224083,1745295467440,0.093,0.0,-34.0,,0.02,-0.11,1.07,0.0,-1.0,1.0,1.08,1.08,100.0,4485.0,99.7,4.58,,14.16,0.932,82.6,,32.2,5.0,,,,,,,,,,,,0,0,0,0,0,0,0,0,0,0,0,0,0,0,0,0,,,,,,0.0,,,,,,,,,,,,,,,
251,1224103,1745295467460,0.0933,,,,,,,,,,,,,,,,,,,,,,,19.0,15.0,18.0,19.0,0.0,235.0,0.0,0.0,2.26,,,0,0,0,0,0,0,0,0,0,0,0,0,0,0,0,0,,2.0,,,,,38.985771,-76.950386,28.62,47.9,34.0,3.0,0.8,0.0,0.0,-1.0,0.0,,0.0,0.0086,0.0933
252,1224123,1745295467480,0.0936,0.0,-53.0,,0.03,-0.11,1.15,0.0,-1.0,1.0,1.15,1.15,100.0,4600.0,99.7,4.51,,14.16,0.895,82.6,,32.2,5.0,,,,,,,,,,,,0,0,0,0,0,0,0,0,0,0,0,0,0,0,0,0,,,,,,0.0,,,,,,,,,,,,,,,
253,1224143,1745295467500,0.094,,,,,,,,,,,,,,,,,,,,,,,,,,,,,,,,,,0,0,0,0,0,0,0,0,0,0,0,0,0,0,0,0,,,,,,,,,,,,,,,,,,,,,
254,1224163,1745295467518,0.0943,0.0,-31.0,,-0.01,-0.15,1.12,0.0,0.0,1.0,1.13,1.15,99.0,4597.0,99.7,4.44,,14.16,0.895,82.6,,34.3,5.0,,,,,,,,,,,,0,0,0,0,0,0,0,0,0,0,0,0,0,0,0,0,,,,,,0.0,,,,,,,,,,,,,,,
255,1224183,1745295467538,0.0946,,,,,,,,,,,,,,,,,,,,,,,,,,,,,,,,,,0,0,0,0,0,0,0,0,0,0,0,0,0,0,0,0,,,,,,,,,,,,,,,,,,,,,
256,1224203,1745295467558,0.095,0.0,-46.0,,-0.05,-0.22,1.02,0.0,-1.0,0.0,1.04,1.15,90.0,4597.0,99.7,4.44,,14.14,0.877,82.6,,34.3,5.0,19.0,15.0,19.0,19.0,0.0,48.0,0.0,0.0,2.26,,,0,0,0,0,0,0,0,0,0,0,0,0,0,0,0,0,,2.0,,,,0.0,38.985771,-76.950394,29.33,47.9,34.0,3.0,0.8,0.0,0.0,-1.0,0.0,0.0,0.0,0.0091,0.095
257,1224223,1745295467578,0.0953,,,,,,,,,,,,,,,,,,,,,,,,,,,,,,,,,,0,0,0,0,0,0,0,0,0,0,0,0,0,0,0,0,,,,,,,,,,,,,,,,,,,,,
258,1224243,1745295467598,0.0956,0.0,-46.0,,-0.04,-0.21,0.92,1.0,0.0,0.0,0.95,1.15,82.0,4665.0,99.8,4.43,,14.2,0.875,82.6,,34.3,5.0,,,,,,,,,,,,0,0,0,0,0,0,0,0,0,0,0,0,0,0,0,0,,,,,,0.0,,,,,,,,,,,,,,,
259,1224263,1745295467620,0.096,,,,,,,,,,,,,,,,,,,,,,,,,,,,,,,,,,0,0,0,0,0,0,0,0,0,0,0,0,0,0,0,0,,,,,,,,,,,,,,,,,,,,,
260,1224283,1745295467640,0.0963,0.0,-46.0,,0.05,-0.07,1.04,0.0,0.0,1.0,1.04,1.15,90.0,4731.0,99.7,4.38,,14.24,0.873,82.6,,34.3,5.0,,,,,,,,,,,,0,0,0,0,0,0,0,0,0,0,0,0,0,0,0,0,,,,,,0.0,,,,,,,,,,,,,,,
261,1224303,1745295467660,0.0966,,,,,,,,,,,,,,,,,,,,,,,20.0,15.0,19.0,20.0,0.0,35.0,0.0,0.0,2.26,,,0,0,0,0,0,0,0,0,0,0,0,0,0,0,0,0,,2.0,,,,,38.985771,-76.950409,29.96,47.9,34.0,3.0,0.8,0.0,0.0,-1.0,0.0,,0.0,0.0097,0.0966
262,1224323,1745295467680,0.097,0.0,-42.0,,0.04,-0.17,1.02,1.0,0.0,1.0,1.04,1.15,90.0,4792.0,99.7,4.34,,14.19,0.877,82.6,,34.3,5.0,,,,,,,,,,,,0,0,0,0,0,0,0,0,0,0,0,0,0,0,0,0,,,,,,0.0,,,,,,,,,,,,,,,
263,1224343,1745295467700,0.0973,,,,,,,,,,,,,,,,,,,,,,,,,,,,,,,,,,0,0,0,0,0,0,0,0,0,0,0,0,0,0,0,0,,,,,,,,,,,,,,,,,,,,,
264,1224363,1745295467720,0.0976,0.0,-42.0,,0.03,-0.22,0.93,2.0,0.0,0.0,0.96,1.15,84.0,4803.0,99.7,4.34,,14.19,0.877,82.6,,35.1,5.0,,,,,,,,,,,,0,0,0,0,0,0,0,0,0,0,0,0,0,0,0,0,,,,,,0.0,,,,,,,,,,,,,,,
265,1224383,1745295467740,0.098,,,,,,,,,,,,,,,,,,,,,,,,,,,,,,,,,,0,0,0,0,0,0,0,0,0,0,0,0,0,0,0,0,,,,,,,,,,,,,,,,,,,,,
266,1224403,1745295467760,0.0983,0.0,-38.0,13.78,0.07,-0.21,0.96,2.0,0.0,0.0,0.99,1.15,86.0,4803.0,99.7,4.34,15.0,14.2,0.886,82.6,183.0,35.1,5.0,20.0,0.0,20.0,20.0,0.0,6.0,0.0,0.0,2.26,0.0,1.0,0,0,0,0,0,0,0,0,0,0,0,0,0,0,0,0,0.0,2.0,1.0,0.0,0.0,0.0,38.985775,-76.950417,30.53,47.9,34.0,3.0,0.8,0.0,0.0,-1.0,0.0,0.0,0.0,0.0102,0.0983
267,1224423,1745295467780,0.0986,,,,,,,,,,,,,,,,,,,,,,,,,,,,,,,,,,0,0,0,0,0,0,0,0,0,0,0,0,0,0,0,0,,,,,,,,,,,,,,,,,,,,,
268,1224443,1745295467800,0.099,0.0,-49.0,,0.12,-0.14,0.98,1.0,0.0,0.0,0.99,1.15,86.0,5068.0,99.7,4.21,,14.18,0.92,82.6,,36.4,5.0,,,,,,,,,,,,0,0,0,0,0,0,0,0,0,0,0,0,0,0,0,0,,,,,,0.0,,,,,,,,,,,,,,,
269,1224463,1745295467819,0.0993,,,,,,,,,,,,,,,,,,,,,,,,,,,,,,,,,,0,0,0,0,0,0,0,0,0,0,0,0,0,0,0,0,,,,,,,,,,,,,,,,,,,,,
270,1224483,1745295467839,0.0996,0.0,-57.0,,0.09,-0.12,0.99,1.0,-1.0,0.0,1.0,1.15,87.0,4815.0,99.7,4.31,,14.18,0.886,82.6,,36.4,5.0,,,,,,,,,,,,0,0,0,0,0,0,0,0,0,0,0,0,0,0,0,0,,,,,,0.0,,,,,,,,,,,,,,,
271,1224503,1745295467859,0.1,,,,,,,,,,,,,,,,,,,,,,,21.0,0.0,20.0,21.0,0.0,44.0,0.0,0.0,2.25,,,0,0,0,0,0,0,0,0,0,0,0,0,0,0,0,0,,2.0,,,,,38.985775,-76.950424,31.41,47.9,34.0,3.0,0.8,0.0,0.0,-1.0,0.0,,0.0,0.0107,0.1
272,1224523,1745295467879,0.1003,0.0,-53.0,,0.09,-0.05,1.01,0.0,-1.0,0.0,1.02,1.15,88.0,5016.0,99.7,4.2,,14.1,0.866,82.6,,36.4,5.0,,,,,,,,,,,,0,0,0,0,0,0,0,0,0,0,0,0,0,0,0,0,,,,,,0.0,,,,,,,,,,,,,,,
273,1224543,1745295467899,0.1006,,,,,,,,,,,,,,,,,,,,,,,,,,,,,,,,,,0,0,0,0,0,0,0,0,0,0,0,0,0,0,0,0,,,,,,,,,,,,,,,,,,,,,
274,1224563,1745295467920,0.101,0.0,-49.0,,0.09,-0.09,0.96,1.0,-1.0,0.0,0.97,1.15,84.0,5053.0,99.8,4.16,,14.1,0.866,82.6,,37.0,5.0,,,,,,,,,,,,0,0,0,0,0,0,0,0,0,0,0,0,0,0,0,0,,,,,,0.0,,,,,,,,,,,,,,,
275,1224583,1745295467940,0.1013,,,,,,,,,,,,,,,,,,,,,,,,,,,,,,,,,,0,0,0,0,0,0,0,0,0,0,0,0,0,0,0,0,,,,,,,,,,,,,,,,,,,,,
276,1224603,1745295467960,0.1016,0.0,-53.0,,0.09,-0.07,0.95,1.0,0.0,0.0,0.96,1.15,83.0,5053.0,99.8,4.16,,14.14,0.894,82.6,,37.0,5.0,20.0,0.0,21.0,21.0,0.0,26.0,0.0,0.0,2.25,,,0,0,0,0,0,0,0,0,0,0,0,0,0,0,0,0,,2.0,,,,0.0,38.985775,-76.950432,32.44,47.8,34.0,3.0,0.8,0.0,0.0,-1.0,0.0,0.0,0.0,0.0113,0.1016
277,1224623,1745295467980,0.102,,,,,,,,,,,,,,,,,,,,,,,,,,,,,,,,,,0,0,0,0,0,0,0,0,0,0,0,0,0,0,0,0,,,,,,,,,,,,,,,,,,,,,
278,1224643,1745295468000,0.1023,0.0,-46.0,,0.08,-0.05,1.01,1.0,0.0,0.0,1.02,1.15,89.0,5016.0,99.7,4.32,,14.03,0.98,82.6,,36.7,5.0,,,,,,,,,,,,0,0,0,0,0,0,0,0,0,0,0,0,0,0,0,0,,,,,,0.0,,,,,,,,,,,,,,,
279,1224663,1745295468008,0.1026,,,,,,,,,,,,,,,,,,,,,,,,,,,,,,,,,,0,0,0,0,0,0,0,0,0,0,0,0,0,0,0,0,,,,,,,,,,,,,,,,,,,,,
280,1224683,1745295468028,0.103,0.0,-61.0,,0.07,-0.03,1.02,2.0,0.0,0.0,1.02,1.15,88.0,4910.0,99.8,4.17,,14.06,1.006,82.6,,36.7,5.0,,,,,,,,,,,,0,0,0,0,0,0,0,0,0,0,0,0,0,0,0,0,,,,,,0.0,,,,,,,,,,,,,,,
281,1224703,1745295468048,0.1033,,,,,,,,,,,,,,,,,,,,,,,22.0,0.0,22.0,21.0,0.0,250.0,0.0,0.0,2.25,,,0,0,0,0,0,0,0,0,0,0,0,0,0,0,0,0,,0.0,,,,,38.985775,-76.950447,32.74,47.8,34.0,3.0,0.8,0.0,0.0,-1.0,0.0,,0.0,0.0118,0.1033
282,1224723,1745295468068,0.1036,0.0,-53.0,,0.09,-0.01,1.06,2.0,0.0,0.0,1.06,1.15,92.0,5255.0,99.7,4.32,,13.94,1.043,82.6,,36.7,5.0,,,,,,,,,,,,0,0,0,0,0,0,0,0,0,0,0,0,0,0,0,0,,,,,,0.0,,,,,,,,,,,,,,,
283,1224743,1745295468088,0.104,,,,,,,,,,,,,,,,,,,,,,,,,,,,,,,,,,0,0,0,0,0,0,0,0,0,0,0,0,0,0,0,0,,,,,,,,,,,,,,,,,,,,,
284,1224763,1745295468105,0.1043,0.0,-49.0,,0.11,-0.05,1.04,2.0,0.0,0.0,1.04,1.15,91.0,5258.0,99.7,4.45,,13.94,1.043,82.6,,38.3,5.0,,,,,,,,,,,,0,0,0,0,0,0,0,0,0,0,0,0,0,0,0,0,,,,,,0.0,,,,,,,,,,,,,,,
285,1224783,1745295468125,0.1046,,,,,,,,,,,,,,,,,,,,,,,,,,,,,,,,,,0,0,0,0,0,0,0,0,0,0,0,0,0,0,0,0,,,,,,,,,,,,,,,,,,,,,
286,1224803,1745295468145,0.105,0.0,-53.0,,0.13,-0.02,1.06,2.0,0.0,0.0,1.07,1.15,93.0,5258.0,99.7,4.45,,14.03,1.153,82.6,,38.3,5.0,22.0,0.0,22.0,22.0,0.0,0.0,0.0,0.0,2.25,,,0,0,0,0,0,0,0,0,0,0,0,0,0,0,0,0,,2.0,,,,0.0,38.985775,-76.950455,33.26,47.8,34.0,3.0,0.8,0.0,0.0,-1.0,0.0,0.0,0.0,0.0124,0.105
287,1224823,1745295468165,0.1053,,,,,,,,,,,,,,,,,,,,,,,,,,,,,,,,,,0,0,0,0,0,0,0,0,0,0,0,0,0,0,0,0,,,,,,,,,,,,,,,,,,,,,
288,1224843,1745295468185,0.1056,0.0,-38.0,,0.15,-0.09,1.01,2.0,0.0,0.0,1.03,1.03,100.0,5360.0,99.7,4.48,,13.95,1.118,82.6,,39.2,5.0,,,,,,,,,,,,0,0,0,0,0,0,0,0,0,0,0,0,0,0,0,0,,,,,,0.0,,,,,,,,,,,,,,,
289,1224863,1745295468213,0.106,,,,,,,,,,,,,,,,,,,,,,,,,,,,,,,,,,0,0,0,0,0,0,0,0,0,0,0,0,0,0,0,0,,,,,,,,,,,,,,,,,,,,,
290,1224883,1745295468233,0.1063,0.0,-64.0,,0.19,-0.04,1.01,3.0,0.0,-1.0,1.02,1.03,100.0,5445.0,99.7,4.6,,13.98,1.027,82.6,,39.2,5.0,,,,,,,,,,,,0,0,0,0,0,0,0,0,0,0,0,0,0,0,0,0,,,,,,0.0,,,,,,,,,,,,,,,
291,1224903,1745295468253,0.1066,,,,,,,,,,,,,,,,,,,,,,,22.0,0.0,23.0,22.0,0.0,52.0,0.0,0.0,2.26,,,0,0,0,0,0,0,0,0,0,0,0,0,0,0,0,0,,2.0,,,,,38.985775,-76.950462,33.92,47.8,34.0,3.0,0.8,0.0,0.0,-1.0,0.0,,0.0,0.013,0.1066
292,1224923,1745295468273,0.107,0.0,-64.0,,0.15,0.03,1.04,4.0,0.0,-1.0,1.05,1.05,100.0,5316.0,99.7,4.49,,13.96,0.931,82.6,,39.2,5.0,,,,,,,,,,,,0,0,0,0,0,0,0,0,0,0,0,0,0,0,0,0,,,,,,0.0,,,,,,,,,,,,,,,
293,1224943,1745295468293,0.1073,,,,,,,,,,,,,,,,,,,,,,,,,,,,,,,,,,0,0,0,0,0,0,0,0,0,0,0,0,0,0,0,0,,,,,,,,,,,,,,,,,,,,,
294,1224963,1745295468317,0.1076,0.0,-46.0,,0.14,0.08,1.09,2.0,0.0,0.0,1.1,1.1,100.0,5540.0,99.8,4.65,,13.96,0.931,82.6,,39.3,5.0,,,,,,,,,,,,0,0,0,0,0,0,0,0,0,0,0,0,0,0,0,0,,,,,,0.0,,,,,,,,,,,,,,,
295,1224983,1745295468337,0.108,,,,,,,,,,,,,,,,,,,,,,,,,,,,,,,,,,0,0,0,0,0,0,0,0,0,0,0,0,0,0,0,0,,,,,,,,,,,,,,,,,,,,,
296,1225003,1745295468357,0.1083,0.0,-53.0,,0.16,0.09,1.03,4.0,0.0,0.0,1.04,1.1,95.0,5540.0,99.8,4.65,,13.86,0.893,82.6,,39.3,5.0,22.0,0.0,23.0,23.0,0.0,0.0,0.0,0.0,2.25,,,0,0,0,0,0,0,0,0,0,0,0,0,0,0,0,0,,2.0,,,,0.0,38.985775,-76.950478,35.3,47.8,34.0,3.0,0.8,0.0,0.0,-1.0,0.0,0.0,0.0,0.0136,0.1083
297,1225023,1745295468377,0.1086,,,,,,,,,,,,,,,,,,,,,,,,,,,,,,,,,,0,0,0,0,0,0,0,0,0,0,0,0,0,0,0,0,,,,,,,,,,,,,,,,,,,,,
298,1225043,1745295468397,0.109,0.0,-46.0,,0.17,0.04,1.01,2.0,0.0,0.0,1.03,1.1,93.0,5734.0,99.8,4.89,,13.72,0.92,82.6,,41.5,5.0,,,,,,,,,,,,0,0,0,0,0,0,0,0,0,0,0,0,0,0,0,0,,,,,,0.0,,,,,,,,,,,,,,,
299,1225063,1745295468419,0.1093,,,,,,,,,,,,,,,,,,,,,,,,,,,,,,,,,,0,0,0,0,0,0,0,0,0,0,0,0,0,0,0,0,,,,,,,,,,,,,,,,,,,,,
300,1225083,1745295468439,0.1096,0.0,-68.0,,0.19,0.08,1.07,3.0,0.0,0.0,1.09,1.1,99.0,5668.0,99.8,4.82,,13.71,0.988,82.6,,41.5,5.0,,,,,,,,,,,,0,0,0,0,0,0,0,0,0,0,0,0,0,0,0,0,,,,,,0.0,,,,,,,,,,,,,,,
301,1225103,1745295468459,0.11,,,,,,,,,,,,,,,,,,,,,,,24.0,0.0,24.0,24.0,0.0,17.0,0.0,0.0,2.25,,,0,0,0,0,0,0,0,0,0,0,0,0,0,0,0,0,,2.0,,,,,38.985775,-76.950493,36.61,47.8,34.0,3.0,0.8,0.0,0.0,-1.0,0.0,,0.0,0.0142,0.11
302,1225123,1745295468479,0.1103,0.0,-49.0,,0.18,-0.0,0.94,3.0,-1.0,0.0,0.96,1.1,88.0,5820.0,99.8,4.96,,13.64,1.014,82.6,,41.5,5.0,,,,,,,,,,,,0,0,0,0,0,0,0,0,0,0,0,0,0,0,0,0,,,,,,0.0,,,,,,,,,,,,,,,
303,1225143,1745295468499,0.1106,,,,,,,,,,,,,,,,,,,,,,,,,,,,,,,,,,0,0,0,0,0,0,0,0,0,0,0,0,0,0,0,0,,,,,,,,,,,,,,,,,,,,,
304,1225163,1745295468517,0.111,0.0,-57.0,,0.17,-0.04,0.87,3.0,-1.0,0.0,0.89,1.1,81.0,5922.0,99.8,5.11,,13.64,1.014,82.6,,42.8,5.0,,,,,,,,,,,,0,0,0,0,0,0,0,0,0,0,0,0,0,0,0,0,,,,,,0.0,,,,,,,,,,,,,,,
305,1225183,1745295468537,0.1113,,,,,,,,,,,,,,,,,,,,,,,,,,,,,,,,,,0,0,0,0,0,0,0,0,0,0,0,0,0,0,0,0,,,,,,,,,,,,,,,,,,,,,
306,1225203,1745295468557,0.1116,0.0,-53.0,,0.15,-0.03,0.83,2.0,0.0,1.0,0.85,1.1,77.0,5922.0,99.8,5.11,,13.63,0.991,82.6,,42.8,5.0,24.0,0.0,25.0,24.0,0.0,240.0,0.0,0.0,2.26,,,0,0,0,0,0,0,0,0,0,0,0,0,0,0,0,0,,2.0,,,,0.0,38.985775,-76.9505,37.77,47.8,34.0,3.0,0.8,0.0,0.0,-1.0,0.0,0.0,0.0,0.0148,0.1116
307,1225223,1745295468577,0.112,,,,,,,,,,,,,,,,,,,,,,,,,,,,,,,,,,0,0,0,0,0,0,0,0,0,0,0,0,0,0,0,0,,,,,,,,,,,,,,,,,,,,,
308,1225243,1745295468597,0.1123,0.0,-53.0,,0.13,0.01,0.84,1.0,0.0,1.0,0.85,1.1,77.0,5932.0,95.8,5.16,,13.55,0.985,82.6,,43.4,5.0,,,,,,,,,,,,0,0,0,0,0,0,0,0,0,0,0,0,0,0,0,0,,,,,,0.0,,,,,,,,,,,,,,,
309,1225263,1745295468619,0.1126,,,,,,,,,,,,,,,,,,,,,,,,,,,,,,,,,,0,0,0,0,0,0,0,0,0,0,0,0,0,0,0,0,,,,,,,,,,,,,,,,,,,,,
310,1225283,1745295468639,0.113,0.0,-64.0,,0.12,0.0,0.81,0.0,0.0,1.0,0.82,1.1,75.0,6059.0,46.7,5.19,,13.55,0.96,82.6,,43.4,5.0,,,,,,,,,,,,0,0,0,0,0,0,0,0,0,0,0,0,0,0,0,0,,,,,,0.0,,,,,,,,,,,,,,,
311,1225303,1745295468659,0.1133,,,,,,,,,,,,,,,,,,,,,,,25.0,0.0,26.0,25.0,0.0,232.0,0.0,0.0,2.26,,,0,0,0,0,0,0,0,0,0,0,0,0,0,0,0,0,,2.0,,,,,38.985775,-76.950516,38.8,47.8,34.0,3.0,0.8,0.0,0.0,-1.0,0.0,,0.0,0.0155,0.1133
312,1225323,1745295468679,0.1136,0.0,-61.0,,0.12,-0.02,0.76,1.0,0.0,1.0,0.76,1.1,70.0,6174.0,40.3,4.85,,13.29,0.936,82.6,,43.4,5.0,,,,,,,,,,,,0,0,0,0,0,0,0,0,0,0,0,0,0,0,0,0,,,,,,0.0,,,,,,,,,,,,,,,
313,1225343,1745295468699,0.114,,,,,,,,,,,,,,,,,,,,,,,,,,,,,,,,,,0,0,0,0,0,0,0,0,0,0,0,0,0,0,0,0,,,,,,,,,,,,,,,,,,,,,
314,1225363,1745295468719,0.1143,0.0,-53.0,,0.17,-0.03,0.78,1.0,0.0,1.0,0.8,1.1,73.0,6220.0,40.3,4.91,,13.29,0.936,82.6,,44.4,5.0,,,,,,,,,,,,0,0,0,0,0,0,0,0,0,0,0,0,0,0,0,0,,,,,,0.0,,,,,,,,,,,,,,,
315,1225383,1745295468739,0.1146,,,,,,,,,,,,,,,,,,,,,,,,,,,,,,,,,,0,0,0,0,0,0,0,0,0,0,0,0,0,0,0,0,,,,,,,,,,,,,,,,,,,,,
316,1225403,1745295468759,0.115,0.0,-68.0,13.8,0.16,-0.01,0.84,1.0,-1.0,1.0,0.86,1.1,78.0,6220.0,40.3,4.91,15.0,13.11,0.913,82.6,183.0,44.4,5.0,25.0,0.0,26.0,26.0,0.0,26.0,0.0,0.0,2.25,0.0,1.0,0,0,0,0,0,0,0,0,0,0,0,0,0,0,0,0,0.0,2.0,1.0,0.0,0.0,0.0,38.985775,-76.950531,39.92,47.7,34.0,3.0,0.8,0.0,0.0,-1.0,0.0,0.0,0.0,0.0162,0.115
317,1225423,1745295468779,0.1153,,,,,,,,,,,,,,,,,,,,,,,,,,,,,,,,,,0,0,0,0,0,0,0,0,0,0,0,0,0,0,0,0,,,,,,,,,,,,,,,,,,,,,
318,1225443,1745295468799,0.1156,0.0,-61.0,,0.15,-0.07,0.81,2.0,-1.0,0.0,0.83,1.1,76.0,6256.0,42.0,5.03,,13.23,0.906,82.6,,44.9,5.0,,,,,,,,,,,,0,0,0,0,0,0,0,0,0,0,0,0,0,0,0,0,,,,,,0.0,,,,,,,,,,,,,,,
319,1225463,1745295468819,0.116,,,,,,,,,,,,,,,,,,,,,,,,,,,,,,,,,,0,0,0,0,0,0,0,0,0,0,0,0,0,0,0,0,,,,,,,,,,,,,,,,,,,,,
320,1225483,1745295468839,0.1163,0.0,-53.0,,0.18,0.0,0.86,1.0,0.0,1.0,0.88,1.1,80.0,6407.0,61.5,5.41,,13.27,0.918,82.6,,44.9,5.0,,,,,,,,,,,,0,0,0,0,0,0,0,0,0,0,0,0,0,0,0,0,,,,,,0.0,,,,,,,,,,,,,,,
321,1225503,1745295468859,0.1166,,,,,,,,,,,,,,,,,,,,,,,26.0,0.0,26.0,26.0,0.0,25.0,0.0,0.0,2.25,,,0,0,0,0,0,0,0,0,0,0,0,0,0,0,0,0,,2.0,,,,,38.985775,-76.950539,41.1,47.7,34.0,3.0,0.8,0.0,0.0,-1.0,0.0,,0.0,0.0169,0.1166
322,1225523,1745295468879,0.117,0.0,-61.0,,0.19,-0.04,0.89,2.0,0.0,0.0,0.91,1.1,83.0,6556.0,62.6,5.17,,13.32,0.915,82.6,,44.9,5.0,,,,,,,,,,,,0,0,0,0,0,0,0,0,0,0,0,0,0,0,0,0,,,,,,0.0,,,,,,,,,,,,,,,
323,1225543,1745295468899,0.1173,,,,,,,,,,,,,,,,,,,,,,,,,,,,,,,,,,0,0,0,0,0,0,0,0,0,0,0,0,0,0,0,0,,,,,,,,,,,,,,,,,,,,,
324,1225563,1745295468919,0.1176,0.0,-42.0,,0.23,-0.03,0.88,1.0,0.0,0.0,0.91,1.1,83.0,6753.0,62.5,5.29,,13.32,0.915,82.6,,46.3,5.0,,,,,,,,,,,,0,0,0,0,0,0,0,0,0,0,0,0,0,0,0,0,,,,,,0.0,,,,,,,,,,,,,,,
325,1225583,1745295468939,0.118,,,,,,,,,,,,,,,,,,,,,,,,,,,,,,,,,,0,0,0,0,0,0,0,0,0,0,0,0,0,0,0,0,,,,,,,,,,,,,,,,,,,,,
326,1225603,1745295468959,0.1183,0.0,-49.0,,0.26,-0.05,0.9,1.0,0.0,0.0,0.93,1.1,85.0,6753.0,62.5,5.29,,13.05,0.898,82.6,,46.3,5.0,26.0,0.0,27.0,28.0,0.0,2.0,0.0,0.0,2.26,,,0,0,0,0,0,0,0,0,0,0,0,0,0,0,0,0,,2.0,,,,0.0,38.985775,-76.950554,41.98,47.7,34.0,3.0,0.8,0.0,0.0,-1.0,0.0,0.0,0.0,0.0176,0.1183
327,1225623,1745295468979,0.1186,,,,,,,,,,,,,,,,,,,,,,,,,,,,,,,,,,0,0,0,0,0,0,0,0,0,0,0,0,0,0,0,0,,,,,,,,,,,,,,,,,,,,,
328,1225643,1745295468999,0.119,0.0,-46.0,,0.28,-0.01,0.91,1.0,0.0,0.0,0.95,1.1,87.0,6748.0,64.1,5.38,,13.07,0.83,82.6,,47.8,5.0,,,,,,,,,,,,0,0,0,0,0,0,0,0,0,0,0,0,0,0,0,0,,,,,,0.0,,,,,,,,,,,,,,,
329,1225663,1745295469007,0.1193,,,,,,,,,,,,,,,,,,,,,,,,,,,,,,,,,,0,0,0,0,0,0,0,0,0,0,0,0,0,0,0,0,,,,,,,,,,,,,,,,,,,,,
330,1225683,1745295469027,0.1196,0.0,-42.0,,0.31,-0.13,0.88,1.0,0.0,0.0,0.95,1.1,86.0,7006.0,80.9,6.2,,13.13,0.81,82.6,,47.8,5.0,,,,,,,,,,,,0,0,0,0,0,0,0,0,0,0,0,0,0,0,0,0,,,,,,0.0,,,,,,,,,,,,,,,
331,1225703,1745295469047,0.12,,,,,,,,,,,,,,,,,,,,,,,28.0,0.0,29.0,28.0,0.0,90.0,0.0,0.0,2.26,,,0,0,0,0,0,0,0,0,0,0,0,0,0,0,0,0,,2.0,,,,,38.985775,-76.950569,43.64,47.7,34.0,3.0,0.8,0.0,0.0,-1.0,0.0,,0.0,0.0183,0.12
