,Interval,Utc,ElapsedTime,FrontBP,SteerAng,Battery,AccelX,AccelY,AccelZ,Yaw,Pitch,Roll,Gsum,GsumMax,GsumPct,RPM,TPS,InjectorPW,Baro,MAP,Lambda,IAT,EngineTemp,EOP,EOT,WSFR,WSFL,WSRR,WSRL,TCSet,TCSlip,TCComp,TCCut,Analog8,OilTemp,AA_On,ThermLF1,ThermLF2,ThermRR1,ThermRR2,ThermLF3,ThermLF4,ThermLF5,ThermLF6,ThermLF7,ThermLF8,ThermRR3,ThermRR4,ThermRR5,ThermRR6,ThermRR7,ThermRR8,AA_LowDrag,Gear,AA_On1,AA_LowDrag1,Fuel_Mix,AA_Packages,Latitude,Longitude,Speed,Altitude,GPSSats,GPSQual,GPSDOP,LapCount,LapTime,Sector,SectorTime,PredTime,CurrentLap,Distance,SessionTime
0,2102823,1745296347761,0.0003,,,,,,,,,,,,,,,,,,,,,,,,,,,,,,,,,,0,0,0,0,0,0,0,0,0,0,0,0,0,0,0,0,,,,,,,,,,,,,,,,,,,,,
1,2102843,1745296347781,0.0006,0.0,-135.0,,-0.08,0.23,1.17,-2.0,0.0,1.0,1.19,1.19,100.0,4065.0,3.9,2.99,,10.72,1.248,106.0,,40.7,5.0,,,,,,,,,,,,0,0,0,0,0,0,0,0,0,0,0,0,0,0,0,0,,,,,,0.0,,,,,,,,,,,,,,,
2,2102863,1745296347801,0.001,,,,,,,,,,,,,,,,,,,,,,,,,,,,,,,,,,0,0,0,0,0,0,0,0,0,0,0,0,0,0,0,0,,,,,,,,,,,,,,,,,,,,,
3,2102883,1745296347821,0.0013,0.0,-129.0,,-0.08,0.13,1.12,-2.0,0.0,1.0,1.13,1.19,95.0,3936.0,23.3,4.81,,12.49,1.247,106.0,,40.7,5.0,,,,,,,,,,,,0,0,0,0,0,0,0,0,0,0,0,0,0,0,0,0,,,,,,0.0,,,,,,,,,,,,,,,
4,2102903,1745296347841,0.0016,,,,,,,,,,,,,,,,,,,,,,,0.0,0.0,0.0,0.0,0.0,0.0,0.0,0.0,2.26,,,0,0,0,0,0,0,0,0,0,0,0,0,0,0,0,0,,0.0,,,,,38.985771,-76.950218,0.08,48.3,32.0,3.0,0.9,0.0,0.0,-1.0,0.0,,0.0,0.0,0.0016
5,2102923,1745296347861,0.002,0.0,-129.0,,-0.05,0.12,1.05,-1.0,0.0,1.0,1.06,1.19,89.0,4016.0,34.0,5.19,,12.49,1.247,106.0,,37.7,5.0,,,,,,,,,,,,0,0,0,0,0,0,0,0,0,0,0,0,0,0,0,0,,,,,,0.0,,,,,,,,,,,,,,,
6,2102943,1745296347881,0.0023,,,,,,,,,,,,,,,,,,,,,,,,,,,,,,,,,,0,0,0,0,0,0,0,0,0,0,0,0,0,0,0,0,,,,,,,,,,,,,,,,,,,,,
7,2102963,1745296347901,0.0026,0.0,-135.0,,-0.07,0.06,1.06,-2.0,0.0,1.0,1.06,1.19,89.0,4016.0,34.0,5.19,,13.92,1.248,106.0,,37.7,5.0,,,,,,,,,,,,0,0,0,0,0,0,0,0,0,0,0,0,0,0,0,0,,,,,,0.0,,,,,,,,,,,,,,,
8,2102983,1745296347921,0.003,,,,,,,,,,,,,,,,,,,,,,,,,,,,,,,,,,0,0,0,0,0,0,0,0,0,0,0,0,0,0,0,0,,,,,,,,,,,,,,,,,,,,,
9,2103003,1745296347941,0.0033,0.0,-135.0,,-0.06,0.05,1.01,-1.0,0.0,1.0,1.01,1.19,85.0,4444.0,35.3,4.76,,14.06,1.249,106.0,,37.7,5.0,0.0,0.0,0.0,0.0,0.0,0.0,0.0,0.0,2.26,,,0,0,0,0,0,0,0,0,0,0,0,0,0,0,0,0,,0.0,,,,0.0,38.985771,-76.950218,0.05,48.3,32.0,3.0,0.9,0.0,0.0,-1.0,0.0,0.0,0.0,0.0,0.0033
10,2103023,1745296347961,0.0036,,,,,,,,,,,,,,,,,,,,,,,,,,,,,,,,,,0,0,0,0,0,0,0,0,0,0,0,0,0,0,0,0,,,,,,,,,,,,,,,,,,,,,
11,2103043,1745296347981,0.004,0.0,-129.0,,-0.05,0.06,1.05,-1.0,0.0,1.0,1.05,1.19,88.0,5236.0,35.3,5.24,,13.88,1.25,106.0,,45.6,5.0,,,,,,,,,,,,0,0,0,0,0,0,0,0,0,0,0,0,0,0,0,0,,,,,,0.0,,,,,,,,,,,,,,,
12,2103063,1745296348001,0.0043,,,,,,,,,,,,,,,,,,,,,,,,,,,,,,,,,,0,0,0,0,0,0,0,0,0,0,0,0,0,0,0,0,,,,,,,,,,,,,,,,,,,,,
13,2103083,1745296348012,0.0046,0.0,-135.0,,0.01,0.07,1.09,-1.0,0.0,1.0,1.09,1.19,91.0,5974.0,7.2,4.26,,12.53,1.2,106.0,,45.6,5.0,,,,,,,,,,,,0,0,0,0,0,0,0,0,0,0,0,0,0,0,0,0,,,,,,0.0,,,,,,,,,,,,,,,
14,2103103,1745296348032,0.005,,,,,,,,,,,,,,,,,,,,,,,0.0,0.0,0.0,0.0,0.0,0.0,0.0,0.0,2.26,,,0,0,0,0,0,0,0,0,0,0,0,0,0,0,0,0,,0.0,,,,,38.985771,-76.950218,0.04,48.3,33.0,3.0,0.8,0.0,0.0,-1.0,0.0,,0.0,0.0,0.005
15,2103123,1745296348052,0.0053,0.0,-129.0,,-0.02,0.05,1.04,-1.0,0.0,1.0,1.05,1.19,88.0,6477.0,0.0,1.4,,12.53,1.2,106.0,,58.1,5.0,,,,,,,,,,,,0,0,0,0,0,0,0,0,0,0,0,0,0,0,0,0,,,,,,0.0,,,,,,,,,,,,,,,
16,2103143,1745296348072,0.0056,,,,,,,,,,,,,,,,,,,,,,,,,,,,,,,,,,0,0,0,0,0,0,0,0,0,0,0,0,0,0,0,0,,,,,,,,,,,,,,,,,,,,,
17,2103163,1745296348092,0.006,0.0,-132.0,,0.03,0.09,1.07,0.0,0.0,1.0,1.07,1.19,90.0,6477.0,0.0,1.4,,10.84,1.143,106.0,,58.1,5.0,,,,,,,,,,,,0,0,0,0,0,0,0,0,0,0,0,0,0,0,0,0,,,,,,0.0,,,,,,,,,,,,,,,
18,2103183,1745296348112,0.0063,,,,,,,,,,,,,,,,,,,,,,,,,,,,,,,,,,0,0,0,0,0,0,0,0,0,0,0,0,0,0,0,0,,,,,,,,,,,,,,,,,,,,,
19,2103203,1745296348132,0.0066,0.0,-121.0,,0.09,0.18,1.17,1.0,0.0,1.0,1.18,1.19,99.0,6079.0,0.0,1.4,,9.73,1.107,106.0,,58.1,5.0,0.0,0.0,0.0,0.0,0.0,0.0,0.0,0.0,2.26,,,0,0,0,0,0,0,0,0,0,0,0,0,0,0,0,0,,0.0,,,,0.0,38.985771,-76.950218,0.05,48.3,33.0,3.0,0.8,0.0,0.0,-1.0,0.0,0.0,0.0,0.0,0.0066
20,2103223,1745296348152,0.007,,,,,,,,,,,,,,,,,,,,,,,,,,,,,,,,,,0,0,0,0,0,0,0,0,0,0,0,0,0,0,0,0,,,,,,,,,,,,,,,,,,,,,
21,2103243,1745296348172,0.0073,0.0,-117.0,,0.05,0.12,1.1,1.0,0.0,0.0,1.1,1.19,93.0,5645.0,0.0,1.4,,9.27,1.072,104.2,,58.9,5.0,,,,,,,,,,,,0,0,0,0,0,0,0,0,0,0,0,0,0,0,0,0,,,,,,0.0,,,,,,,,,,,,,,,
22,2103263,1745296348192,0.0076,,,,,,,,,,,,,,,,,,,,,,,,,,,,,,,,,,0,0,0,0,0,0,0,0,0,0,0,0,0,0,0,0,,,,,,,,,,,,,,,,,,,,,
23,2103283,1745296348216,0.008,0.0,-132.0,,0.04,0.08,1.09,1.0,0.0,0.0,1.1,1.19,92.0,5287.0,0.0,1.41,,9.31,1.219,104.2,,58.9,5.0,,,,,,,,,,,,0,0,0,0,0,0,0,0,0,0,0,0,0,0,0,0,,,,,,0.0,,,,,,,,,,,,,,,
24,2103303,1745296348236,0.0083,,,,,,,,,,,,,,,,,,,,,,,0.0,0.0,0.0,0.0,0.0,0.0,0.0,0.0,2.26,,,0,0,0,0,0,0,0,0,0,0,0,0,0,0,0,0,,0.0,,,,,38.985771,-76.950218,0.0,48.3,33.0,3.0,0.8,0.0,0.0,-1.0,0.0,,0.0,0.0,0.0083
25,2103323,1745296348256,0.0086,0.0,-129.0,,0.05,0.07,1.09,1.0,0.0,0.0,1.1,1.19,92.0,4916.0,0.0,1.64,,9.31,1.219,104.2,,54.4,5.0,,,,,,,,,,,,0,0,0,0,0,0,0,0,0,0,0,0,0,0,0,0,,,,,,0.0,,,,,,,,,,,,,,,
26,2103343,1745296348276,0.009,,,,,,,,,,,,,,,,,,,,,,,,,,,,,,,,,,0,0,0,0,0,0,0,0,0,0,0,0,0,0,0,0,,,,,,,,,,,,,,,,,,,,,
27,2103363,1745296348296,0.0093,0.0,-132.0,,-0.0,0.14,1.13,0.0,0.0,1.0,1.14,1.19,96.0,4916.0,0.0,1.64,,9.25,1.248,104.2,,54.4,5.0,,,,,,,,,,,,0,0,0,0,0,0,0,0,0,0,0,0,0,0,0,0,,,,,,0.0,,,,,,,,,,,,,,,
28,2103383,1745296348320,0.0096,,,,,,,,,,,,,,,,,,,,,,,,,,,,,,,,,,0,0,0,0,0,0,0,0,0,0,0,0,0,0,0,0,,,,,,,,,,,,,,,,,,,,,
29,2103403,1745296348340,0.01,0.0,-135.0,13.39,-0.04,0.26,1.22,-1.0,0.0,1.0,1.25,1.25,100.0,4532.0,0.0,1.68,15.0,9.38,1.249,104.2,160.0,44.7,5.0,0.0,0.0,0.0,0.0,0.0,0.0,0.0,0.0,2.26,0.0,1.0,0,0,0,0,0,0,0,0,0,0,0,0,0,0,0,0,0.0,0.0,1.0,0.0,0.0,0.0,38.985771,-76.950218,0.1,48.3,33.0,3.0,0.8,0.0,0.0,-1.0,0.0,0.0,0.0,0.0,0.01
30,2103423,1745296348360,0.0103,,,,,,,,,,,,,,,,,,,,,,,,,,,,,,,,,,0,0,0,0,0,0,0,0,0,0,0,0,0,0,0,0,,,,,,,,,,,,,,,,,,,,,
31,2103443,1745296348380,0.0106,0.0,-129.0,,-0.03,0.2,1.16,0.0,0.0,1.0,1.18,1.25,94.0,4137.0,0.0,1.75,,9.6,1.248,104.2,,44.7,5.0,,,,,,,,,,,,0,0,0,0,0,0,0,0,0,0,0,0,0,0,0,0,,,,,,0.0,,,,,,,,,,,,,,,
32,2103463,1745296348400,0.011,,,,,,,,,,,,,,,,,,,,,,,,,,,,,,,,,,0,0,0,0,0,0,0,0,0,0,0,0,0,0,0,0,,,,,,,,,,,,,,,,,,,,,
33,2103483,1745296348420,0.0113,0.0,-129.0,,-0.03,0.25,1.17,0.0,0.0,1.0,1.2,1.25,96.0,3818.0,0.0,1.82,,9.97,1.25,104.2,,44.7,5.0,,,,,,,,,,,,0,0,0,0,0,0,0,0,0,0,0,0,0,0,0,0,,,,,,0.0,,,,,,,,,,,,,,,
34,2103503,1745296348440,0.0116,,,,,,,,,,,,,,,,,,,,,,,0.0,0.0,0.0,0.0,0.0,0.0,0.0,0.0,2.26,,,0,0,0,0,0,0,0,0,0,0,0,0,0,0,0,0,,0.0,,,,,38.985771,-76.950218,0.04,48.3,33.0,3.0,0.8,0.0,0.0,-1.0,0.0,,0.0,0.0,0.0116
35,2103523,1745296348460,0.012,0.0,-129.0,,-0.05,0.17,1.15,0.0,0.0,1.0,1.17,1.25,93.0,3503.0,0.0,2.0,,9.97,1.25,104.2,,35.7,5.0,,,,,,,,,,,,0,0,0,0,0,0,0,0,0,0,0,0,0,0,0,0,,,,,,0.0,,,,,,,,,,,,,,,
36,2103543,1745296348480,0.0123,,,,,,,,,,,,,,,,,,,,,,,,,,,,,,,,,,0,0,0,0,0,0,0,0,0,0,0,0,0,0,0,0,,,,,,,,,,,,,,,,,,,,,
37,2103563,1745296348500,0.0126,0.0,-129.0,,-0.03,0.28,1.13,0.0,0.0,1.0,1.17,1.25,93.0,3503.0,0.0,2.0,,10.37,1.251,104.2,,35.7,5.0,,,,,,,,,,,,0,0,0,0,0,0,0,0,0,0,0,0,0,0,0,0,,,,,,0.0,,,,,,,,,,,,,,,
38,2103583,1745296348518,0.013,,,,,,,,,,,,,,,,,,,,,,,,,,,,,,,,,,0,0,0,0,0,0,0,0,0,0,0,0,0,0,0,0,,,,,,,,,,,,,,,,,,,,,
39,2103603,1745296348538,0.0133,0.0,-110.0,,-0.05,0.16,1.19,0.0,0.0,1.0,1.2,1.25,96.0,3345.0,0.0,2.11,,10.78,1.251,104.2,,30.1,5.0,0.0,0.0,0.0,0.0,0.0,0.0,0.0,0.0,2.26,,,0,0,0,0,0,0,0,0,0,0,0,0,0,0,0,0,,0.0,,,,0.0,38.985771,-76.950218,0.05,48.3,33.0,3.0,0.8,0.0,0.0,-1.0,0.0,0.0,0.0,0.0,0.0133
40,2103623,1745296348558,0.0136,,,,,,,,,,,,,,,,,,,,,,,,,,,,,,,,,,0,0,0,0,0,0,0,0,0,0,0,0,0,0,0,0,,,,,,,,,,,,,,,,,,,,,
41,2103643,1745296348578,0.014,0.0,-125.0,,-0.08,0.1,1.22,0.0,0.0,1.0,1.22,1.25,98.0,3046.0,32.9,4.9,,13.39,1.252,104.2,,30.1,5.0,,,,,,,,,,,,0,0,0,0,0,0,0,0,0,0,0,0,0,0,0,0,,,,,,0.0,,,,,,,,,,,,,,,
42,2103663,1745296348602,0.0143,,,,,,,,,,,,,,,,,,,,,,,,,,,,,,,,,,0,0,0,0,0,0,0,0,0,0,0,0,0,0,0,0,,,,,,,,,,,,,,,,,,,,,
43,2103683,1745296348622,0.0146,0.0,-129.0,,-0.1,0.03,1.25,0.0,0.0,1.0,1.25,1.25,100.0,3093.0,42.6,5.51,,14.4,1.251,104.2,,30.1,5.0,,,,,,,,,,,,0,0,0,0,0,0,0,0,0,0,0,0,0,0,0,0,,,,,,0.0,,,,,,,,,,,,,,,
44,2103703,1745296348642,0.015,,,,,,,,,,,,,,,,,,,,,,,0.0,0.0,0.0,0.0,0.0,0.0,0.0,0.0,2.26,,,0,0,0,0,0,0,0,0,0,0,0,0,0,0,0,0,,0.0,,,,,38.985771,-76.950218,0.04,48.3,33.0,3.0,0.8,0.0,0.0,-1.0,0.0,,0.0,0.0,0.015
45,2103723,1745296348662,0.0153,0.0,-132.0,,-0.12,0.03,1.16,1.0,0.0,0.0,1.17,1.25,93.0,3344.0,42.9,4.82,,14.4,1.251,104.2,,28.4,5.0,,,,,,,,,,,,0,0,0,0,0,0,0,0,0,0,0,0,0,0,0,0,,,,,,0.0,,,,,,,,,,,,,,,
46,2103743,1745296348682,0.0156,,,,,,,,,,,,,,,,,,,,,,,,,,,,,,,,,,0,0,0,0,0,0,0,0,0,0,0,0,0,0,0,0,,,,,,,,,,,,,,,,,,,,,
47,2103763,1745296348702,0.016,0.0,-135.0,,-0.1,0.08,1.21,0.0,0.0,0.0,1.21,1.25,97.0,3344.0,42.9,4.82,,14.36,1.249,104.2,,28.4,5.0,,,,,,,,,,,,0,0,0,0,0,0,0,0,0,0,0,0,0,0,0,0,,,,,,0.0,,,,,,,,,,,,,,,
48,2103783,1745296348722,0.0163,,,,,,,,,,,,,,,,,,,,,,,,,,,,,,,,,,0,0,0,0,0,0,0,0,0,0,0,0,0,0,0,0,,,,,,,,,,,,,,,,,,,,,
49,2103803,1745296348742,0.0166,0.0,-110.0,,-0.08,0.11,1.18,0.0,0.0,0.0,1.19,1.25,95.0,3588.0,24.9,4.92,,14.14,1.249,104.2,,35.0,5.0,0.0,0.0,0.0,0.0,0.0,0.0,0.0,0.0,2.26,,,0,0,0,0,0,0,0,0,0,0,0,0,0,0,0,0,,0.0,,,,0.0,38.985771,-76.950218,0.05,48.3,33.0,3.0,0.8,0.0,0.0,-1.0,0.0,0.0,0.0,0.0,0.0166
50,2103823,1745296348762,0.017,,,,,,,,,,,,,,,,,,,,,,,,,,,,,,,,,,0,0,0,0,0,0,0,0,0,0,0,0,0,0,0,0,,,,,,,,,,,,,,,,,,,,,
51,2103843,1745296348782,0.0173,0.0,-110.0,,-0.09,0.04,1.09,1.0,0.0,0.0,1.1,1.25,88.0,3886.0,0.0,2.71,,13.03,1.249,104.2,,35.0,5.0,,,,,,,,,,,,0,0,0,0,0,0,0,0,0,0,0,0,0,0,0,0,,,,,,0.0,,,,,,,,,,,,,,,
52,2103863,1745296348802,0.0176,,,,,,,,,,,,,,,,,,,,,,,,,,,,,,,,,,0,0,0,0,0,0,0,0,0,0,0,0,0,0,0,0,,,,,,,,,,,,,,,,,,,,,
53,2103883,1745296348820,0.018,0.0,-117.0,,-0.1,-0.01,1.07,1.0,0.0,0.0,1.08,1.25,86.0,3829.0,0.0,2.6,,12.33,1.249,104.2,,35.0,5.0,,,,,,,,,,,,0,0,0,0,0,0,0,0,0,0,0,0,0,0,0,0,,,,,,0.0,,,,,,,,,,,,,,,
54,2103903,1745296348840,0.0183,,,,,,,,,,,,,,,,,,,,,,,0.0,0.0,0.0,0.0,0.0,0.0,0.0,0.0,2.26,,,0,0,0,0,0,0,0,0,0,0,0,0,0,0,0,0,,0.0,,,,,38.985771,-76.950218,0.0,48.3,33.0,3.0,0.8,0.0,0.0,-1.0,0.0,,0.0,0.0,0.0183
55,2103923,1745296348860,0.0187,0.0,-113.0,,-0.1,-0.01,1.1,1.0,0.0,0.0,1.1,1.25,88.0,3659.0,0.0,2.62,,12.33,1.249,104.2,,35.7,5.0,,,,,,,,,,,,0,0,0,0,0,0,0,0,0,0,0,0,0,0,0,0,,,,,,0.0,,,,,,,,,,,,,,,
56,2103943,1745296348880,0.019,,,,,,,,,,,,,,,,,,,,,,,,,,,,,,,,,,0,0,0,0,0,0,0,0,0,0,0,0,0,0,0,0,,,,,,,,,,,,,,,,,,,,,
57,2103963,1745296348902,0.0193,0.0,-117.0,,-0.09,0.04,1.12,0.0,0.0,0.0,1.13,1.25,90.0,3659.0,0.0,2.62,,12.01,1.249,104.2,,35.7,5.0,,,,,,,,,,,,0,0,0,0,0,0,0,0,0,0,0,0,0,0,0,0,,,,,,0.0,,,,,,,,,,,,,,,
58,2103983,1745296348922,0.0196,,,,,,,,,,,,,,,,,,,,,,,,,,,,,,,,,,0,0,0,0,0,0,0,0,0,0,0,0,0,0,0,0,,,,,,,,,,,,,,,,,,,,,
59,2104003,1745296348942,0.02,0.0,-113.0,,-0.06,0.08,1.07,0.0,0.0,1.0,1.08,1.25,86.0,3576.0,0.0,2.68,,11.83,1.25,104.2,,32.6,5.0,0.0,0.0,0.0,0.0,0.0,0.0,0.0,0.0,2.26,,,0,0,0,0,0,0,0,0,0,0,0,0,0,0,0,0,,0.0,,,,0.0,38.985771,-76.950218,0.04,48.3,33.0,3.0,0.8,0.0,0.0,-1.0,0.0,0.0,0.0,0.0,0.02
60,2104023,1745296348962,0.0203,,,,,,,,,,,,,,,,,,,,,,,,,,,,,,,,,,0,0,0,0,0,0,0,0,0,0,0,0,0,0,0,0,,,,,,,,,,,,,,,,,,,,,
61,2104043,1745296348982,0.0206,0.0,-121.0,,-0.07,-0.08,1.07,1.0,0.0,0.0,1.07,1.25,86.0,3405.0,0.0,2.73,,11.8,1.251,104.2,,32.6,5.0,,,,,,,,,,,,0,0,0,0,0,0,0,0,0,0,0,0,0,0,0,0,,,,,,0.0,,,,,,,,,,,,,,,
62,2104063,1745296349002,0.021,,,,,,,,,,,,,,,,,,,,,,,,,,,,,,,,,,0,0,0,0,0,0,0,0,0,0,0,0,0,0,0,0,,,,,,,,,,,,,,,,,,,,,
63,2104083,1745296349011,0.0213,0.0,-110.0,,-0.05,0.05,1.04,0.0,0.0,0.0,1.04,1.25,83.0,3275.0,18.8,4.39,,12.97,1.251,104.2,,32.6,5.0,,,,,,,,,,,,0,0,0,0,0,0,0,0,0,0,0,0,0,0,0,0,,,,,,0.0,,,,,,,,,,,,,,,
64,2104103,1745296349031,0.0216,,,,,,,,,,,,,,,,,,,,,,,0.0,0.0,0.0,0.0,0.0,0.0,0.0,0.0,2.25,,,0,0,0,0,0,0,0,0,0,0,0,0,0,0,0,0,,0.0,,,,,38.985771,-76.950218,0.06,48.3,33.0,3.0,0.8,0.0,0.0,-1.0,0.0,,0.0,0.0,0.0216
65,2104123,1745296349051,0.022,0.0,-129.0,,-0.06,-0.08,1.06,0.0,0.0,0.0,1.06,1.25,85.0,3419.0,25.3,4.71,,12.97,1.251,104.2,,30.7,5.0,,,,,,,,,,,,0,0,0,0,0,0,0,0,0,0,0,0,0,0,0,0,,,,,,0.0,,,,,,,,,,,,,,,
66,2104143,1745296349071,0.0223,,,,,,,,,,,,,,,,,,,,,,,,,,,,,,,,,,0,0,0,0,0,0,0,0,0,0,0,0,0,0,0,0,,,,,,,,,,,,,,,,,,,,,
67,2104163,1745296349091,0.0226,0.0,-117.0,,-0.06,0.03,1.06,0.0,0.0,0.0,1.06,1.25,85.0,3419.0,25.3,4.71,,13.92,1.251,104.2,,30.7,5.0,,,,,,,,,,,,0,0,0,0,0,0,0,0,0,0,0,0,0,0,0,0,,,,,,0.0,,,,,,,,,,,,,,,
68,2104183,1745296349117,0.023,,,,,,,,,,,,,,,,,,,,,,,,,,,,,,,,,,0,0,0,0,0,0,0,0,0,0,0,0,0,0,0,0,,,,,,,,,,,,,,,,,,,,,
69,2104203,1745296349137,0.0233,0.0,-117.0,,-0.05,0.06,1.05,0.0,0.0,0.0,1.06,1.25,84.0,3531.0,25.7,4.4,,14.02,1.251,104.2,,34.4,5.0,0.0,0.0,0.0,0.0,0.0,0.0,0.0,0.0,2.25,,,0,0,0,0,0,0,0,0,0,0,0,0,0,0,0,0,,0.0,,,,0.0,38.985771,-76.950218,0.04,48.3,33.0,3.0,0.8,0.0,0.0,-1.0,0.0,0.0,0.0,0.0,0.0233
70,2104223,1745296349157,0.0236,,,,,,,,,,,,,,,,,,,,,,,,,,,,,,,,,,0,0,0,0,0,0,0,0,0,0,0,0,0,0,0,0,,,,,,,,,,,,,,,,,,,,,
71,2104243,1745296349177,0.024,0.0,-113.0,,-0.06,0.01,1.05,0.0,0.0,0.0,1.05,1.25,84.0,3849.0,6.8,4.07,,13.53,1.25,104.2,,34.4,5.0,,,,,,,,,,,,0,0,0,0,0,0,0,0,0,0,0,0,0,0,0,0,,,,,,0.0,,,,,,,,,,,,,,,
72,2104263,1745296349197,0.0243,,,,,,,,,,,,,,,,,,,,,,,,,,,,,,,,,,0,0,0,0,0,0,0,0,0,0,0,0,0,0,0,0,,,,,,,,,,,,,,,,,,,,,
73,2104283,1745296349219,0.0246,0.0,-121.0,,-0.08,-0.05,0.99,0.0,0.0,0.0,0.99,1.25,79.0,3920.0,0.0,2.61,,12.63,1.249,104.2,,34.4,5.0,,,,,,,,,,,,0,0,0,0,0,0,0,0,0,0,0,0,0,0,0,0,,,,,,0.0,,,,,,,,,,,,,,,
74,2104303,1745296349239,0.025,,,,,,,,,,,,,,,,,,,,,,,0.0,0.0,0.0,0.0,0.0,0.0,0.0,0.0,2.25,,,0,0,0,0,0,0,0,0,0,0,0,0,0,0,0,0,,0.0,,,,,38.985771,-76.950218,0.05,48.3,33.0,3.0,0.8,0.0,0.0,-1.0,0.0,,0.0,0.0,0.025
75,2104323,1745296349259,0.0253,0.0,-106.0,,-0.08,-0.09,1.01,0.0,0.0,0.0,1.01,1.25,81.0,3754.0,0.0,2.59,,12.63,1.249,104.2,,37.0,5.0,,,,,,,,,,,,0,0,0,0,0,0,0,0,0,0,0,0,0,0,0,0,,,,,,0.0,,,,,,,,,,,,,,,
76,2104343,1745296349279,0.0256,,,,,,,,,,,,,,,,,,,,,,,,,,,,,,,,,,0,0,0,0,0,0,0,0,0,0,0,0,0,0,0,0,,,,,,,,,,,,,,,,,,,,,
77,2104363,1745296349301,0.026,0.0,-129.0,,-0.08,-0.06,1.03,0.0,0.0,0.0,1.03,1.25,83.0,3754.0,0.0,2.59,,12.13,1.249,104.2,,37.0,5.0,,,,,,,,,,,,0,0,0,0,0,0,0,0,0,0,0,0,0,0,0,0,,,,,,0.0,,,,,,,,,,,,,,,
78,2104383,1745296349321,0.0263,,,,,,,,,,,,,,,,,,,,,,,,,,,,,,,,,,0,0,0,0,0,0,0,0,0,0,0,0,0,0,0,0,,,,,,,,,,,,,,,,,,,,,
79,2104403,1745296349341,0.0266,0.0,-121.0,13.41,-0.06,0.04,1.03,0.0,0.0,0.0,1.03,1.25,83.0,3609.0,0.0,2.66,15.0,11.95,1.249,104.2,162.0,37.0,5.0,0.0,0.0,0.0,0.0,0.0,0.0,0.0,0.0,2.26,0.0,1.0,0,0,0,0,0,0,0,0,0,0,0,0,0,0,0,0,0.0,0.0,1.0,0.0,0.0,0.0,38.985771,-76.950218,0.0,48.3,33.0,3.0,0.8,0.0,0.0,-1.0,0.0,0.0,0.0,0.0,0.0266
80,2104423,1745296349361,0.027,,,,,,,,,,,,,,,,,,,,,,,,,,,,,,,,,,0,0,0,0,0,0,0,0,0,0,0,0,0,0,0,0,,,,,,,,,,,,,,,,,,,,,
81,2104443,1745296349381,0.0273,0.0,-110.0,,-0.06,0.04,0.98,0.0,0.0,0.0,0.98,1.25,78.0,3429.0,0.0,2.71,,11.85,1.249,104.2,,32.9,5.0,,,,,,,,,,,,0,0,0,0,0,0,0,0,0,0,0,0,0,0,0,0,,,,,,0.0,,,,,,,,,,,,,,,
82,2104463,1745296349401,0.0276,,,,,,,,,,,,,,,,,,,,,,,,,,,,,,,,,,0,0,0,0,0,0,0,0,0,0,0,0,0,0,0,0,,,,,,,,,,,,,,,,,,,,,
83,2104483,1745296349419,0.028,0.0,-117.0,,-0.07,0.03,1.05,0.0,0.0,0.0,1.05,1.25,84.0,3332.0,0.0,2.77,,11.95,1.25,104.2,,32.9,5.0,,,,,,,,,,,,0,0,0,0,0,0,0,0,0,0,0,0,0,0,0,0,,,,,,0.0,,,,,,,,,,,,,,,
84,2104503,1745296349439,0.0283,,,,,,,,,,,,,,,,,,,,,,,0.0,0.0,0.0,0.0,0.0,0.0,0.0,0.0,2.26,,,0,0,0,0,0,0,0,0,0,0,0,0,0,0,0,0,,0.0,,,,,38.985771,-76.950218,0.04,48.3,33.0,3.0,0.8,0.0,0.0,-1.0,0.0,,0.0,0.0,0.0283
85,2104523,1745296349459,0.0286,0.0,-106.0,,-0.1,-0.02,1.03,0.0,0.0,0.0,1.04,1.25,83.0,3246.0,1.9,3.16,,11.95,1.25,104.2,,29.9,5.0,,,,,,,,,,,,0,0,0,0,0,0,0,0,0,0,0,0,0,0,0,0,,,,,,0.0,,,,,,,,,,,,,,,
86,2104543,1745296349479,0.029,,,,,,,,,,,,,,,,,,,,,,,,,,,,,,,,,,0,0,0,0,0,0,0,0,0,0,0,0,0,0,0,0,,,,,,,,,,,,,,,,,,,,,
87,2104563,1745296349501,0.0293,0.0,-125.0,,-0.09,0.04,0.94,1.0,0.0,0.0,0.94,1.25,75.0,3246.0,1.9,3.16,,12.21,1.252,104.2,,29.9,5.0,,,,,,,,,,,,0,0,0,0,0,0,0,0,0,0,0,0,0,0,0,0,,,,,,0.0,,,,,,,,,,,,,,,
88,2104583,1745296349521,0.0296,,,,,,,,,,,,,,,,,,,,,,,,,,,,,,,,,,0,0,0,0,0,0,0,0,0,0,0,0,0,0,0,0,,,,,,,,,,,,,,,,,,,,,
89,2104603,1745296349541,0.03,0.0,-117.0,,-0.07,0.12,0.89,3.0,0.0,0.0,0.9,1.25,72.0,3087.0,2.6,3.4,,12.43,1.251,104.2,,29.2,5.0,0.0,0.0,0.0,0.0,0.0,0.0,0.0,0.0,2.26,,,0,0,0,0,0,0,0,0,0,0,0,0,0,0,0,0,,0.0,,,,0.0,38.985771,-76.950218,0.06,48.3,33.0,3.0,0.8,0.0,0.0,-1.0,0.0,0.0,0.0,0.0,0.03
90,2104623,1745296349561,0.0303,,,,,,,,,,,,,,,,,,,,,,,,,,,,,,,,,,0,0,0,0,0,0,0,0,0,0,0,0,0,0,0,0,,,,,,,,,,,,,,,,,,,,,
91,2104643,1745296349581,0.0306,0.0,-113.0,,-0.05,0.16,0.93,4.0,0.0,0.0,0.94,1.25,75.0,3096.0,0.8,3.38,,12.52,1.251,104.2,,29.2,5.0,,,,,,,,,,,,0,0,0,0,0,0,0,0,0,0,0,0,0,0,0,0,,,,,,0.0,,,,,,,,,,,,,,,
92,2104663,1745296349601,0.031,,,,,,,,,,,,,,,,,,,,,,,,,,,,,,,,,,0,0,0,0,0,0,0,0,0,0,0,0,0,0,0,0,,,,,,,,,,,,,,,,,,,,,
93,2104683,1745296349621,0.0313,0.0,-113.0,,-0.02,0.11,1.0,5.0,0.0,1.0,1.0,1.25,80.0,3084.0,0.0,2.94,,12.39,1.252,104.2,,29.2,5.0,,,,,,,,,,,,0,0,0,0,0,0,0,0,0,0,0,0,0,0,0,0,,,,,,0.0,,,,,,,,,,,,,,,
94,2104703,1745296349641,0.0316,,,,,,,,,,,,,,,,,,,,,,,0.0,0.0,0.0,0.0,0.0,0.0,0.0,0.0,2.25,,,0,0,0,0,0,0,0,0,0,0,0,0,0,0,0,0,,0.0,,,,,38.985771,-76.950218,0.04,48.3,33.0,3.0,0.8,0.0,0.0,-1.0,0.0,,0.0,0.0,0.0316
95,2104723,1745296349661,0.032,0.0,-113.0,,-0.0,0.08,1.04,5.0,0.0,1.0,1.04,1.25,83.0,2987.0,1.7,2.94,,12.39,1.252,104.2,,27.7,5.0,,,,,,,,,,,,0,0,0,0,0,0,0,0,0,0,0,0,0,0,0,0,,,,,,0.0,,,,,,,,,,,,,,,
96,2104743,1745296349681,0.0323,,,,,,,,,,,,,,,,,,,,,,,,,,,,,,,,,,0,0,0,0,0,0,0,0,0,0,0,0,0,0,0,0,,,,,,,,,,,,,,,,,,,,,
97,2104763,1745296349701,0.0326,0.0,-129.0,,0.0,0.09,1.02,5.0,0.0,1.0,1.02,1.25,81.0,2987.0,1.7,2.94,,12.47,1.25,104.2,,27.7,5.0,,,,,,,,,,,,0,0,0,0,0,0,0,0,0,0,0,0,0,0,0,0,,,,,,0.0,,,,,,,,,,,,,,,
98,2104783,1745296349721,0.033,,,,,,,,,,,,,,,,,,,,,,,,,,,,,,,,,,0,0,0,0,0,0,0,0,0,0,0,0,0,0,0,0,,,,,,,,,,,,,,,,,,,,,
99,2104803,1745296349741,0.0333,0.0,-129.0,,0.0,0.14,0.95,6.0,0.0,1.0,0.96,1.25,77.0,2839.0,16.7,4.51,,13.4,1.249,104.2,,26.9,5.0,0.0,0.0,0.0,0.0,0.0,0.0,0.0,0.0,2.26,,,0,0,0,0,0,0,0,0,0,0,0,0,0,0,0,0,,0.0,,,,0.0,38.985771,-76.950218,0.05,48.3,33.0,3.0,0.8,0.0,0.0,-1.0,0.0,0.0,0.0,0.0,0.0333
100,2104823,1745296349761,0.0336,,,,,,,,,,,,,,,,,,,,,,,,,,,,,,,,,,0,0,0,0,0,0,0,0,0,0,0,0,0,0,0,0,,,,,,,,,,,,,,,,,,,,,
101,2104843,1745296349781,0.034,0.0,-106.0,,0.01,0.18,0.89,6.0,-1.0,1.0,0.91,1.25,72.0,2918.0,20.3,4.7,,13.92,1.249,104.2,,26.9,5.0,,,,,,,,,,,,0,0,0,0,0,0,0,0,0,0,0,0,0,0,0,0,,,,,,0.0,,,,,,,,,,,,,,,
102,2104863,1745296349801,0.0343,,,,,,,,,,,,,,,,,,,,,,,,,,,,,,,,,,0,0,0,0,0,0,0,0,0,0,0,0,0,0,0,0,,,,,,,,,,,,,,,,,,,,,
103,2104883,1745296349821,0.0347,0.0,-113.0,,0.03,0.21,0.93,7.0,-1.0,1.0,0.95,1.25,76.0,3241.0,20.5,4.44,,13.94,1.248,104.2,,26.9,5.0,,,,,,,,,,,,0,0,0,0,0,0,0,0,0,0,0,0,0,0,0,0,,,,,,0.0,,,,,,,,,,,,,,,
104,2104903,1745296349841,0.035,,,,,,,,,,,,,,,,,,,,,,,0.0,0.0,0.0,0.0,0.0,0.0,0.0,0.0,2.26,,,0,0,0,0,0,0,0,0,0,0,0,0,0,0,0,0,,0.0,,,,,38.985771,-76.950218,0.04,48.3,33.0,3.0,0.8,0.0,0.0,-1.0,0.0,,0.0,0.0,0.035
105,2104923,1745296349861,0.0353,0.0,-110.0,,0.01,0.11,0.94,5.0,0.0,0.0,0.95,1.25,76.0,3431.0,20.7,4.37,,13.94,1.248,104.2,,30.0,5.0,,,,,,,,,,,,0,0,0,0,0,0,0,0,0,0,0,0,0,0,0,0,,,,,,0.0,,,,,,,,,,,,,,,
106,2104943,1745296349881,0.0356,,,,,,,,,,,,,,,,,,,,,,,,,,,,,,,,,,0,0,0,0,0,0,0,0,0,0,0,0,0,0,0,0,,,,,,,,,,,,,,,,,,,,,
107,2104963,1745296349901,0.036,0.0,-129.0,,0.0,0.01,0.98,5.0,0.0,0.0,0.98,1.25,78.0,3431.0,20.7,4.37,,13.95,1.249,104.2,,30.0,5.0,,,,,,,,,,,,0,0,0,0,0,0,0,0,0,0,0,0,0,0,0,0,,,,,,0.0,,,,,,,,,,,,,,,
108,2104983,1745296349921,0.0363,,,,,,,,,,,,,,,,,,,,,,,,,,,,,,,,,,0,0,0,0,0,0,0,0,0,0,0,0,0,0,0,0,,,,,,,,,,,,,,,,,,,,,
109,2105003,1745296349941,0.0366,0.0,-132.0,,-0.01,0.04,0.96,4.0,0.0,0.0,0.96,1.25,77.0,3704.0,3.3,3.58,,13.41,1.25,104.2,,34.2,5.0,0.0,0.0,0.0,0.0,0.0,0.0,0.0,0.0,2.26,,,0,0,0,0,0,0,0,0,0,0,0,0,0,0,0,0,,0.0,,,,0.0,38.985771,-76.950218,0.0,48.3,33.0,3.0,0.8,0.0,0.0,-1.0,0.0,0.0,0.0,0.0,0.0366
110,2105023,1745296349961,0.037,,,,,,,,,,,,,,,,,,,,,,,,,,,,,,,,,,0,0,0,0,0,0,0,0,0,0,0,0,0,0,0,0,,,,,,,,,,,,,,,,,,,,,
111,2105043,1745296349981,0.0373,0.0,-110.0,,-0.04,0.02,0.94,3.0,0.0,0.0,0.95,1.25,75.0,3741.0,0.0,2.66,,12.63,1.251,104.2,,34.2,5.0,,,,,,,,,,,,0,0,0,0,0,0,0,0,0,0,0,0,0,0,0,0,,,,,,0.0,,,,,,,,,,,,,,,
112,2105063,1745296350001,0.0376,,,,,,,,,,,,,,,,,,,,,,,,,,,,,,,,,,0,0,0,0,0,0,0,0,0,0,0,0,0,0,0,0,,,,,,,,,,,,,,,,,,,,,
113,2105083,1745296350012,0.038,0.0,-106.0,,-0.03,-0.0,0.96,3.0,0.0,0.0,0.97,1.25,77.0,3735.0,0.0,2.64,,12.21,1.252,104.2,,34.2,5.0,,,,,,,,,,,,0,0,0,0,0,0,0,0,0,0,0,0,0,0,0,0,,,,,,0.0,,,,,,,,,,,,,,,
114,2105103,1745296350032,0.0383,,,,,,,,,,,,,,,,,,,,,,,0.0,0.0,0.0,0.0,0.0,0.0,0.0,0.0,2.26,,,0,0,0,0,0,0,0,0,0,0,0,0,0,0,0,0,,0.0,,,,,38.985771,-76.950218,0.05,48.3,32.0,3.0,0.9,0.0,0.0,-1.0,0.0,,0.0,0.0,0.0383
115,2105123,1745296350052,0.0386,0.0,-102.0,,-0.03,0.02,0.96,3.0,0.0,0.0,0.96,1.25,77.0,3568.0,7.9,3.82,,12.21,1.252,104.2,,34.1,5.0,,,,,,,,,,,,0,0,0,0,0,0,0,0,0,0,0,0,0,0,0,0,,,,,,0.0,,,,,,,,,,,,,,,
116,2105143,1745296350072,0.039,,,,,,,,,,,,,,,,,,,,,,,,,,,,,,,,,,0,0,0,0,0,0,0,0,0,0,0,0,0,0,0,0,,,,,,,,,,,,,,,,,,,,,
117,2105163,1745296350092,0.0393,0.0,-113.0,,-0.04,0.03,0.91,2.0,0.0,0.0,0.91,1.25,73.0,3568.0,7.9,3.82,,12.35,1.252,104.2,,34.1,5.0,,,,,,,,,,,,0,0,0,0,0,0,0,0,0,0,0,0,0,0,0,0,,,,,,0.0,,,,,,,,,,,,,,,
118,2105183,1745296350118,0.0396,,,,,,,,,,,,,,,,,,,,,,,,,,,,,,,,,,0,0,0,0,0,0,0,0,0,0,0,0,0,0,0,0,,,,,,,,,,,,,,,,,,,,,
119,2105203,1745296350138,0.04,0.0,-117.0,,-0.04,0.01,0.93,2.0,0.0,0.0,0.93,1.25,74.0,3550.0,16.2,4.29,,13.2,1.252,104.2,,32.9,5.0,0.0,0.0,0.0,0.0,0.0,0.0,0.0,0.0,2.25,,,0,0,0,0,0,0,0,0,0,0,0,0,0,0,0,0,,0.0,,,,0.0,38.985771,-76.950218,0.07,48.3,32.0,3.0,0.9,0.0,0.0,-1.0,0.0,0.0,0.0,0.0,0.04
120,2105223,1745296350158,0.0403,,,,,,,,,,,,,,,,,,,,,,,,,,,,,,,,,,0,0,0,0,0,0,0,0,0,0,0,0,0,0,0,0,,,,,,,,,,,,,,,,,,,,,
121,2105243,1745296350178,0.0406,0.0,-106.0,,-0.05,0.01,0.95,1.0,0.0,0.0,0.95,1.25,76.0,3572.0,16.7,4.12,,13.56,1.251,102.4,,32.9,5.0,,,,,,,,,,,,0,0,0,0,0,0,0,0,0,0,0,0,0,0,0,0,,,,,,0.0,,,,,,,,,,,,,,,
122,2105263,1745296350198,0.041,,,,,,,,,,,,,,,,,,,,,,,,,,,,,,,,,,0,0,0,0,0,0,0,0,0,0,0,0,0,0,0,0,,,,,,,,,,,,,,,,,,,,,
123,2105283,1745296350218,0.0413,0.0,-106.0,,-0.05,-0.0,0.96,1.0,0.0,0.0,0.96,1.25,77.0,3716.0,1.2,3.02,,13.11,1.249,102.4,,32.9,5.0,,,,,,,,,,,,0,0,0,0,0,0,0,0,0,0,0,0,0,0,0,0,,,,,,0.0,,,,,,,,,,,,,,,
124,2105303,1745296350238,0.0416,,,,,,,,,,,,,,,,,,,,,,,0.0,0.0,0.0,0.0,0.0,0.0,0.0,0.0,2.26,,,0,0,0,0,0,0,0,0,0,0,0,0,0,0,0,0,,0.0,,,,,38.985771,-76.950218,0.07,48.3,32.0,3.0,0.9,0.0,0.0,-1.0,0.0,,0.0,0.0,0.0416
125,2105323,1745296350258,0.042,0.0,-113.0,,-0.05,0.03,0.96,1.0,0.0,0.0,0.96,1.25,77.0,3690.0,0.0,2.65,,13.11,1.249,102.4,,34.8,5.0,,,,,,,,,,,,0,0,0,0,0,0,0,0,0,0,0,0,0,0,0,0,,,,,,0.0,,,,,,,,,,,,,,,
126,2105343,1745296350278,0.0423,,,,,,,,,,,,,,,,,,,,,,,,,,,,,,,,,,0,0,0,0,0,0,0,0,0,0,0,0,0,0,0,0,,,,,,,,,,,,,,,,,,,,,
127,2105363,1745296350298,0.0426,0.0,-129.0,,-0.04,0.05,0.96,1.0,0.0,0.0,0.96,1.25,77.0,3690.0,0.0,2.65,,12.43,1.249,102.4,,34.8,5.0,,,,,,,,,,,,0,0,0,0,0,0,0,0,0,0,0,0,0,0,0,0,,,,,,0.0,,,,,,,,,,,,,,,
128,2105383,1745296350318,0.043,,,,,,,,,,,,,,,,,,,,,,,,,,,,,,,,,,0,0,0,0,0,0,0,0,0,0,0,0,0,0,0,0,,,,,,,,,,,,,,,,,,,,,
129,2105403,1745296350338,0.0433,0.0,-132.0,13.48,-0.03,0.1,0.93,1.0,0.0,0.0,0.93,1.25,74.0,3600.0,0.0,2.67,15.0,12.11,1.249,102.4,162.0,32.9,5.0,0.0,0.0,0.0,0.0,0.0,0.0,0.0,0.0,2.26,0.0,1.0,0,0,0,0,0,0,0,0,0,0,0,0,0,0,0,0,0.0,0.0,1.0,0.0,0.0,0.0,38.985771,-76.950218,0.04,48.3,32.0,3.0,0.9,0.0,0.0,-1.0,0.0,0.0,0.0,0.0,0.0433
130,2105423,1745296350358,0.0436,,,,,,,,,,,,,,,,,,,,,,,,,,,,,,,,,,0,0,0,0,0,0,0,0,0,0,0,0,0,0,0,0,,,,,,,,,,,,,,,,,,,,,
131,2105443,1745296350378,0.044,0.0,-106.0,,-0.04,0.05,0.92,1.0,0.0,0.0,0.92,1.25,73.0,3581.0,0.0,2.71,,12.0,1.248,102.4,,32.9,5.0,,,,,,,,,,,,0,0,0,0,0,0,0,0,0,0,0,0,0,0,0,0,,,,,,0.0,,,,,,,,,,,,,,,
132,2105463,1745296350402,0.0443,,,,,,,,,,,,,,,,,,,,,,,,,,,,,,,,,,0,0,0,0,0,0,0,0,0,0,0,0,0,0,0,0,,,,,,,,,,,,,,,,,,,,,
133,2105483,1745296350422,0.0446,0.0,-106.0,,-0.05,-0.02,0.96,1.0,0.0,0.0,0.96,1.25,77.0,3661.0,5.0,3.56,,12.21,1.25,102.4,,32.9,5.0,,,,,,,,,,,,0,0,0,0,0,0,0,0,0,0,0,0,0,0,0,0,,,,,,0.0,,,,,,,,,,,,,,,
134,2105503,1745296350442,0.045,,,,,,,,,,,,,,,,,,,,,,,0.0,0.0,0.0,0.0,0.0,0.0,0.0,0.0,2.26,,,0,0,0,0,0,0,0,0,0,0,0,0,0,0,0,0,,0.0,,,,,38.985771,-76.950218,0.07,48.3,32.0,3.0,0.9,0.0,0.0,-1.0,0.0,,0.0,0.0,0.045
135,2105523,1745296350462,0.0453,0.0,-113.0,,-0.05,0.06,0.99,1.0,0.0,0.0,0.99,1.25,79.0,3554.0,7.5,3.82,,12.21,1.25,102.4,,33.6,5.0,,,,,,,,,,,,0,0,0,0,0,0,0,0,0,0,0,0,0,0,0,0,,,,,,0.0,,,,,,,,,,,,,,,
136,2105543,1745296350482,0.0457,,,,,,,,,,,,,,,,,,,,,,,,,,,,,,,,,,0,0,0,0,0,0,0,0,0,0,0,0,0,0,0,0,,,,,,,,,,,,,,,,,,,,,
137,2105563,1745296350502,0.046,0.0,-125.0,,-0.03,0.1,0.97,1.0,0.0,0.0,0.97,1.25,78.0,3554.0,7.5,3.82,,12.49,1.251,102.4,,33.6,5.0,,,,,,,,,,,,0,0,0,0,0,0,0,0,0,0,0,0,0,0,0,0,,,,,,0.0,,,,,,,,,,,,,,,
138,2105583,1745296350520,0.0463,,,,,,,,,,,,,,,,,,,,,,,,,,,,,,,,,,0,0,0,0,0,0,0,0,0,0,0,0,0,0,0,0,,,,,,,,,,,,,,,,,,,,,
139,2105603,1745296350540,0.0466,0.0,-121.0,,-0.04,0.02,0.95,1.0,0.0,0.0,0.95,1.25,76.0,3612.0,7.9,3.81,,12.75,1.252,102.4,,33.6,5.0,0.0,0.0,0.0,0.0,0.0,0.0,0.0,0.0,2.26,,,0,0,0,0,0,0,0,0,0,0,0,0,0,0,0,0,,0.0,,,,0.0,38.985771,-76.950218,0.04,48.3,32.0,3.0,0.9,0.0,0.0,-1.0,0.0,0.0,0.0,0.0,0.0466
140,2105623,1745296350560,0.047,,,,,,,,,,,,,,,,,,,,,,,,,,,,,,,,,,0,0,0,0,0,0,0,0,0,0,0,0,0,0,0,0,,,,,,,,,,,,,,,,,,,,,
141,2105643,1745296350580,0.0473,0.0,-106.0,,-0.06,-0.01,0.94,1.0,0.0,0.0,0.94,1.25,75.0,3583.0,0.0,2.69,,12.35,1.231,102.4,,33.6,5.0,,,,,,,,,,,,0,0,0,0,0,0,0,0,0,0,0,0,0,0,0,0,,,,,,0.0,,,,,,,,,,,,,,,
142,2105663,1745296350602,0.0476,,,,,,,,,,,,,,,,,,,,,,,,,,,,,,,,,,0,0,0,0,0,0,0,0,0,0,0,0,0,0,0,0,,,,,,,,,,,,,,,,,,,,,
143,2105683,1745296350622,0.048,0.0,-117.0,,-0.04,0.09,1.01,0.0,0.0,0.0,1.02,1.25,81.0,3534.0,0.0,2.72,,12.09,1.206,102.4,,33.6,5.0,,,,,,,,,,,,0,0,0,0,0,0,0,0,0,0,0,0,0,0,0,0,,,,,,0.0,,,,,,,,,,,,,,,
144,2105703,1745296350642,0.0483,,,,,,,,,,,,,,,,,,,,,,,0.0,0.0,0.0,0.0,0.0,0.0,0.0,0.0,2.26,,,0,0,0,0,0,0,0,0,0,0,0,0,0,0,0,0,,0.0,,,,,38.985771,-76.950218,0.08,48.3,32.0,3.0,0.9,0.0,0.0,-1.0,0.0,,0.0,0.0,0.0483
145,2105723,1745296350662,0.0486,0.0,-106.0,,-0.05,0.11,0.96,0.0,0.0,0.0,0.97,1.25,77.0,3359.0,0.0,2.76,,12.09,1.206,102.4,,32.0,5.0,,,,,,,,,,,,0,0,0,0,0,0,0,0,0,0,0,0,0,0,0,0,,,,,,0.0,,,,,,,,,,,,,,,
146,2105743,1745296350682,0.049,,,,,,,,,,,,,,,,,,,,,,,,,,,,,,,,,,0,0,0,0,0,0,0,0,0,0,0,0,0,0,0,0,,,,,,,,,,,,,,,,,,,,,
147,2105763,1745296350702,0.0493,0.0,-113.0,,-0.04,0.1,1.03,0.0,0.0,0.0,1.03,1.25,82.0,3359.0,0.0,2.76,,12.04,1.223,102.4,,32.0,5.0,,,,,,,,,,,,0,0,0,0,0,0,0,0,0,0,0,0,0,0,0,0,,,,,,0.0,,,,,,,,,,,,,,,
148,2105783,1745296350719,0.0496,,,,,,,,,,,,,,,,,,,,,,,,,,,,,,,,,,0,0,0,0,0,0,0,0,0,0,0,0,0,0,0,0,,,,,,,,,,,,,,,,,,,,,
149,2105803,1745296350739,0.05,0.0,-106.0,,-0.08,0.02,1.04,0.0,0.0,0.0,1.05,1.25,84.0,3277.0,0.2,2.84,,12.05,1.246,102.4,,29.4,5.0,0.0,0.0,0.0,0.0,0.0,0.0,0.0,0.0,2.26,,,0,0,0,0,0,0,0,0,0,0,0,0,0,0,0,0,,0.0,,,,0.0,38.985771,-76.950218,0.05,48.3,32.0,3.0,0.9,0.0,0.0,-1.0,0.0,0.0,0.0,0.0,0.05
150,2105823,1745296350759,0.0503,,,,,,,,,,,,,,,,,,,,,,,,,,,,,,,,,,0,0,0,0,0,0,0,0,0,0,0,0,0,0,0,0,,,,,,,,,,,,,,,,,,,,,
151,2105843,1745296350779,0.0506,0.0,-98.0,,-0.08,0.03,0.95,1.0,0.0,0.0,0.95,1.25,76.0,3190.0,11.0,4.0,,12.71,1.25,102.4,,29.4,5.0,,,,,,,,,,,,0,0,0,0,0,0,0,0,0,0,0,0,0,0,0,0,,,,,,0.0,,,,,,,,,,,,,,,
152,2105863,1745296350802,0.051,,,,,,,,,,,,,,,,,,,,,,,,,,,,,,,,,,0,0,0,0,0,0,0,0,0,0,0,0,0,0,0,0,,,,,,,,,,,,,,,,,,,,,
153,2105883,1745296350822,0.0513,0.0,-91.0,,-0.04,0.12,0.92,0.0,0.0,0.0,0.93,1.25,74.0,3174.0,12.8,4.02,,13.27,1.25,102.4,,29.4,5.0,,,,,,,,,,,,0,0,0,0,0,0,0,0,0,0,0,0,0,0,0,0,,,,,,0.0,,,,,,,,,,,,,,,
154,2105903,1745296350842,0.0516,,,,,,,,,,,,,,,,,,,,,,,0.0,0.0,0.0,0.0,0.0,0.0,0.0,0.0,2.26,,,0,0,0,0,0,0,0,0,0,0,0,0,0,0,0,0,,0.0,,,,,38.985771,-76.950218,0.0,48.3,32.0,3.0,0.9,0.0,0.0,-1.0,0.0,,0.0,0.0,0.0516
155,2105923,1745296350862,0.052,0.0,-106.0,,-0.05,0.01,0.97,0.0,0.0,0.0,0.97,1.25,77.0,3590.0,11.2,3.98,,13.27,1.25,102.4,,30.0,5.0,,,,,,,,,,,,0,0,0,0,0,0,0,0,0,0,0,0,0,0,0,0,,,,,,0.0,,,,,,,,,,,,,,,
156,2105943,1745296350882,0.0523,,,,,,,,,,,,,,,,,,,,,,,,,,,,,,,,,,0,0,0,0,0,0,0,0,0,0,0,0,0,0,0,0,,,,,,,,,,,,,,,,,,,,,
157,2105963,1745296350902,0.0526,0.0,-117.0,,-0.07,0.02,1.0,0.0,0.0,0.0,1.0,1.25,80.0,3590.0,11.2,3.98,,13.35,1.25,102.4,,30.0,5.0,,,,,,,,,,,,0,0,0,0,0,0,0,0,0,0,0,0,0,0,0,0,,,,,,0.0,,,,,,,,,,,,,,,
158,2105983,1745296350920,0.053,,,,,,,,,,,,,,,,,,,,,,,,,,,,,,,,,,0,0,0,0,0,0,0,0,0,0,0,0,0,0,0,0,,,,,,,,,,,,,,,,,,,,,
159,2106003,1745296350940,0.0533,0.0,-117.0,,-0.06,0.01,1.0,0.0,0.0,0.0,1.0,1.25,80.0,3593.0,0.0,2.71,,12.77,1.25,102.4,,33.9,5.0,0.0,0.0,0.0,0.0,0.0,0.0,0.0,0.0,2.26,,,0,0,0,0,0,0,0,0,0,0,0,0,0,0,0,0,,0.0,,,,0.0,38.985771,-76.950218,0.04,48.3,32.0,3.0,0.9,0.0,0.0,-1.0,0.0,0.0,0.0,0.0,0.0533
160,2106023,1745296350960,0.0536,,,,,,,,,,,,,,,,,,,,,,,,,,,,,,,,,,0,0,0,0,0,0,0,0,0,0,0,0,0,0,0,0,,,,,,,,,,,,,,,,,,,,,
161,2106043,1745296350980,0.054,0.0,-106.0,,-0.04,0.04,0.94,0.0,0.0,0.0,0.94,1.25,75.0,3595.0,0.0,2.68,,12.29,1.251,102.4,,33.9,5.0,,,,,,,,,,,,0,0,0,0,0,0,0,0,0,0,0,0,0,0,0,0,,,,,,0.0,,,,,,,,,,,,,,,
162,2106063,1745296351000,0.0543,,,,,,,,,,,,,,,,,,,,,,,,,,,,,,,,,,0,0,0,0,0,0,0,0,0,0,0,0,0,0,0,0,,,,,,,,,,,,,,,,,,,,,
163,2106083,1745296351011,0.0546,0.0,-98.0,,-0.07,-0.03,0.99,0.0,0.0,0.0,0.99,1.25,79.0,3428.0,0.0,2.73,,12.11,1.252,102.4,,33.9,5.0,,,,,,,,,,,,0,0,0,0,0,0,0,0,0,0,0,0,0,0,0,0,,,,,,0.0,,,,,,,,,,,,,,,
164,2106103,1745296351031,0.055,,,,,,,,,,,,,,,,,,,,,,,0.0,0.0,0.0,0.0,0.0,0.0,0.0,0.0,2.25,,,0,0,0,0,0,0,0,0,0,0,0,0,0,0,0,0,,0.0,,,,,38.985771,-76.950218,0.0,48.3,33.0,3.0,0.8,0.0,0.0,-1.0,0.0,,0.0,0.0,0.055
165,2106123,1745296351051,0.0553,0.0,-91.0,,-0.04,0.11,0.99,0.0,0.0,0.0,1.0,1.25,79.0,3373.0,12.8,4.16,,12.11,1.252,102.4,,31.9,5.0,,,,,,,,,,,,0,0,0,0,0,0,0,0,0,0,0,0,0,0,0,0,,,,,,0.0,,,,,,,,,,,,,,,
166,2106143,1745296351071,0.0556,,,,,,,,,,,,,,,,,,,,,,,,,,,,,,,,,,0,0,0,0,0,0,0,0,0,0,0,0,0,0,0,0,,,,,,,,,,,,,,,,,,,,,
167,2106163,1745296351091,0.056,0.0,-106.0,,-0.05,0.01,1.02,0.0,0.0,0.0,1.02,1.25,81.0,3373.0,12.8,4.16,,12.85,1.244,102.4,,31.9,5.0,,,,,,,,,,,,0,0,0,0,0,0,0,0,0,0,0,0,0,0,0,0,,,,,,0.0,,,,,,,,,,,,,,,
168,2106183,1745296351117,0.0563,,,,,,,,,,,,,,,,,,,,,,,,,,,,,,,,,,0,0,0,0,0,0,0,0,0,0,0,0,0,0,0,0,,,,,,,,,,,,,,,,,,,,,
169,2106203,1745296351137,0.0566,0.0,-106.0,,-0.04,0.11,1.02,0.0,0.0,0.0,1.02,1.25,82.0,3380.0,14.4,4.07,,13.39,1.252,102.4,,31.7,5.0,0.0,0.0,0.0,0.0,0.0,0.0,0.0,0.0,2.26,,,0,0,0,0,0,0,0,0,0,0,0,0,0,0,0,0,,0.0,,,,0.0,38.985771,-76.950218,0.04,48.3,33.0,3.0,0.8,0.0,0.0,-1.0,0.0,0.0,0.0,0.0,0.0566
170,2106223,1745296351157,0.057,,,,,,,,,,,,,,,,,,,,,,,,,,,,,,,,,,0,0,0,0,0,0,0,0,0,0,0,0,0,0,0,0,,,,,,,,,,,,,,,,,,,,,
171,2106243,1745296351177,0.0573,0.0,-98.0,,-0.06,0.01,0.97,0.0,0.0,0.0,0.98,1.25,78.0,3404.0,14.5,4.08,,13.61,1.251,102.4,,31.7,5.0,,,,,,,,,,,,0,0,0,0,0,0,0,0,0,0,0,0,0,0,0,0,,,,,,0.0,,,,,,,,,,,,,,,
172,2106263,1745296351201,0.0576,,,,,,,,,,,,,,,,,,,,,,,,,,,,,,,,,,0,0,0,0,0,0,0,0,0,0,0,0,0,0,0,0,,,,,,,,,,,,,,,,,,,,,
173,2106283,1745296351221,0.058,0.0,-98.0,,-0.05,-0.02,1.03,0.0,0.0,0.0,1.03,1.25,82.0,3526.0,0.0,2.8,,12.99,1.249,102.4,,31.7,5.0,,,,,,,,,,,,0,0,0,0,0,0,0,0,0,0,0,0,0,0,0,0,,,,,,0.0,,,,,,,,,,,,,,,
174,2106303,1745296351241,0.0583,,,,,,,,,,,,,,,,,,,,,,,0.0,0.0,0.0,0.0,0.0,0.0,0.0,0.0,2.26,,,0,0,0,0,0,0,0,0,0,0,0,0,0,0,0,0,,0.0,,,,,38.985771,-76.950218,0.05,48.3,33.0,3.0,0.8,0.0,0.0,-1.0,0.0,,0.0,0.0,0.0583
175,2106323,1745296351261,0.0586,0.0,-102.0,,-0.03,-0.01,0.97,0.0,0.0,0.0,0.97,1.25,77.0,3479.0,0.0,2.75,,12.99,1.249,102.4,,32.3,5.0,,,,,,,,,,,,0,0,0,0,0,0,0,0,0,0,0,0,0,0,0,0,,,,,,0.0,,,,,,,,,,,,,,,
176,2106343,1745296351281,0.059,,,,,,,,,,,,,,,,,,,,,,,,,,,,,,,,,,0,0,0,0,0,0,0,0,0,0,0,0,0,0,0,0,,,,,,,,,,,,,,,,,,,,,
177,2106363,1745296351301,0.0593,0.0,-117.0,,-0.06,-0.12,1.01,0.0,0.0,0.0,1.02,1.25,81.0,3479.0,0.0,2.75,,12.53,1.249,102.4,,32.3,5.0,,,,,,,,,,,,0,0,0,0,0,0,0,0,0,0,0,0,0,0,0,0,,,,,,0.0,,,,,,,,,,,,,,,
178,2106383,1745296351321,0.0596,,,,,,,,,,,,,,,,,,,,,,,,,,,,,,,,,,0,0,0,0,0,0,0,0,0,0,0,0,0,0,0,0,,,,,,,,,,,,,,,,,,,,,
179,2106403,1745296351341,0.06,0.0,-106.0,13.51,-0.03,0.02,0.98,0.0,0.0,0.0,0.98,1.25,79.0,3393.0,0.0,2.79,15.0,12.33,1.249,102.4,160.0,32.3,5.0,0.0,0.0,0.0,0.0,0.0,0.0,0.0,0.0,2.26,0.0,1.0,0,0,0,0,0,0,0,0,0,0,0,0,0,0,0,0,0.0,0.0,1.0,0.0,0.0,0.0,38.985771,-76.950218,0.0,48.3,33.0,3.0,0.8,0.0,0.0,-1.0,0.0,0.0,0.0,0.0,0.06
180,2106423,1745296351361,0.0603,,,,,,,,,,,,,,,,,,,,,,,,,,,,,,,,,,0,0,0,0,0,0,0,0,0,0,0,0,0,0,0,0,,,,,,,,,,,,,,,,,,,,,
181,2106443,1745296351381,0.0606,0.0,-121.0,,-0.04,-0.09,1.05,0.0,0.0,0.0,1.05,1.25,84.0,0.0,0.5,2.8,,12.27,1.249,102.4,,30.8,5.0,,,,,,,,,,,,0,0,0,0,0,0,0,0,0,0,0,0,0,0,0,0,,,,,,0.0,,,,,,,,,,,,,,,
182,2106463,1745296351401,0.061,,,,,,,,,,,,,,,,,,,,,,,,,,,,,,,,,,0,0,0,0,0,0,0,0,0,0,0,0,0,0,0,0,,,,,,,,,,,,,,,,,,,,,
183,2106483,1745296351421,0.0613,0.0,-102.0,,-0.06,-0.05,0.97,0.0,0.0,0.0,0.97,1.25,78.0,3196.0,7.6,3.8,,12.68,1.249,102.4,,30.8,5.0,,,,,,,,,,,,0,0,0,0,0,0,0,0,0,0,0,0,0,0,0,0,,,,,,0.0,,,,,,,,,,,,,,,
184,2106503,1745296351441,0.0616,,,,,,,,,,,,,,,,,,,,,,,0.0,0.0,0.0,0.0,0.0,0.0,0.0,0.0,2.25,,,0,0,0,0,0,0,0,0,0,0,0,0,0,0,0,0,,0.0,,,,,38.985771,-76.950218,0.46,48.3,33.0,3.0,0.8,0.0,0.0,-1.0,0.0,,0.0,0.0,0.0616
185,2106523,1745296351461,0.062,0.0,-98.0,,-0.04,-0.01,0.89,0.0,0.0,0.0,0.9,1.25,72.0,3048.0,8.0,3.86,,12.68,1.249,102.4,,28.7,5.0,,,,,,,,,,,,0,0,0,0,0,0,0,0,0,0,0,0,0,0,0,0,,,,,,0.0,,,,,,,,,,,,,,,
186,2106543,1745296351481,0.0623,,,,,,,,,,,,,,,,,,,,,,,,,,,,,,,,,,0,0,0,0,0,0,0,0,0,0,0,0,0,0,0,0,,,,,,,,,,,,,,,,,,,,,
187,2106563,1745296351501,0.0626,0.0,-113.0,,-0.02,0.04,0.85,1.0,0.0,0.0,0.85,1.25,68.0,3048.0,8.0,3.86,,13.03,1.25,102.4,,28.7,5.0,,,,,,,,,,,,0,0,0,0,0,0,0,0,0,0,0,0,0,0,0,0,,,,,,0.0,,,,,,,,,,,,,,,
188,2106583,1745296351521,0.063,,,,,,,,,,,,,,,,,,,,,,,,,,,,,,,,,,0,0,0,0,0,0,0,0,0,0,0,0,0,0,0,0,,,,,,,,,,,,,,,,,,,,,
189,2106603,1745296351541,0.0633,0.0,-106.0,,-0.01,0.08,0.88,0.0,0.0,0.0,0.88,1.25,71.0,3129.0,2.4,3.86,,13.05,1.251,102.4,,28.6,5.0,0.0,0.0,0.0,0.0,0.0,0.0,0.0,0.0,2.26,,,0,0,0,0,0,0,0,0,0,0,0,0,0,0,0,0,,0.0,,,,0.0,38.985771,-76.950218,0.47,48.3,33.0,3.0,0.8,0.0,0.0,-1.0,0.0,0.0,0.0,0.0,0.0633
190,2106623,1745296351561,0.0636,,,,,,,,,,,,,,,,,,,,,,,,,,,,,,,,,,0,0,0,0,0,0,0,0,0,0,0,0,0,0,0,0,,,,,,,,,,,,,,,,,,,,,
191,2106643,1745296351581,0.064,0.0,-110.0,,-0.0,0.04,0.96,0.0,0.0,0.0,0.96,1.25,77.0,3095.0,0.0,2.91,,12.71,1.252,102.4,,28.6,5.0,,,,,,,,,,,,0,0,0,0,0,0,0,0,0,0,0,0,0,0,0,0,,,,,,0.0,,,,,,,,,,,,,,,
192,2106663,1745296351601,0.0643,,,,,,,,,,,,,,,,,,,,,,,,,,,,,,,,,,0,0,0,0,0,0,0,0,0,0,0,0,0,0,0,0,,,,,,,,,,,,,,,,,,,,,
193,2106683,1745296351621,0.0646,0.0,-110.0,,-0.01,-0.0,1.02,0.0,0.0,0.0,1.02,1.25,82.0,3027.0,0.0,2.92,,12.59,1.251,102.4,,28.6,5.0,,,,,,,,,,,,0,0,0,0,0,0,0,0,0,0,0,0,0,0,0,0,,,,,,0.0,,,,,,,,,,,,,,,
194,2106703,1745296351641,0.065,,,,,,,,,,,,,,,,,,,,,,,0.0,0.0,0.0,0.0,0.0,0.0,0.0,0.0,2.26,,,0,0,0,0,0,0,0,0,0,0,0,0,0,0,0,0,,0.0,,,,,38.985771,-76.950218,0.16,48.3,33.0,3.0,0.8,0.0,0.0,-1.0,0.0,,0.0,0.0,0.065
195,2106723,1745296351661,0.0653,0.0,-102.0,,-0.01,0.0,1.05,0.0,0.0,1.0,1.05,1.25,84.0,2956.0,10.0,4.14,,12.59,1.251,102.4,,26.7,5.0,,,,,,,,,,,,0,0,0,0,0,0,0,0,0,0,0,0,0,0,0,0,,,,,,0.0,,,,,,,,,,,,,,,
196,2106743,1745296351681,0.0656,,,,,,,,,,,,,,,,,,,,,,,,,,,,,,,,,,0,0,0,0,0,0,0,0,0,0,0,0,0,0,0,0,,,,,,,,,,,,,,,,,,,,,
197,2106763,1745296351701,0.066,0.0,-102.0,,-0.01,0.04,1.02,-1.0,0.0,1.0,1.03,1.25,82.0,2956.0,10.0,4.14,,12.91,1.251,102.4,,26.7,5.0,,,,,,,,,,,,0,0,0,0,0,0,0,0,0,0,0,0,0,0,0,0,,,,,,0.0,,,,,,,,,,,,,,,
198,2106783,1745296351721,0.0663,,,,,,,,,,,,,,,,,,,,,,,,,,,,,,,,,,0,0,0,0,0,0,0,0,0,0,0,0,0,0,0,0,,,,,,,,,,,,,,,,,,,,,
199,2106803,1745296351741,0.0667,0.0,-113.0,,-0.01,0.07,0.96,0.0,0.0,1.0,0.96,1.25,77.0,2863.0,20.0,4.7,,13.75,1.25,102.4,,26.3,5.0,0.0,0.0,0.0,0.0,0.0,0.0,0.0,0.0,2.26,,,0,0,0,0,0,0,0,0,0,0,0,0,0,0,0,0,,0.0,,,,0.0,38.985771,-76.950218,0.53,48.3,33.0,3.0,0.8,0.0,0.0,-1.0,0.0,0.0,0.0,0.0,0.0667
200,2106823,1745296351761,0.067,,,,,,,,,,,,,,,,,,,,,,,,,,,,,,,,,,0,0,0,0,0,0,0,0,0,0,0,0,0,0,0,0,,,,,,,,,,,,,,,,,,,,,
201,2106843,1745296351781,0.0673,0.0,-102.0,,0.02,0.13,0.93,0.0,0.0,1.0,0.94,1.25,75.0,3033.0,24.1,4.68,,14.04,1.249,102.4,,26.3,5.0,,,,,,,,,,,,0,0,0,0,0,0,0,0,0,0,0,0,0,0,0,0,,,,,,0.0,,,,,,,,,,,,,,,
202,2106863,1745296351801,0.0676,,,,,,,,,,,,,,,,,,,,,,,,,,,,,,,,,,0,0,0,0,0,0,0,0,0,0,0,0,0,0,0,0,,,,,,,,,,,,,,,,,,,,,
203,2106883,1745296351821,0.068,0.0,-125.0,,-0.0,0.02,0.99,0.0,0.0,0.0,0.99,1.25,79.0,3441.0,25.2,4.39,,14.08,1.248,102.4,,26.3,5.0,,,,,,,,,,,,0,0,0,0,0,0,0,0,0,0,0,0,0,0,0,0,,,,,,0.0,,,,,,,,,,,,,,,
204,2106903,1745296351841,0.0683,,,,,,,,,,,,,,,,,,,,,,,0.0,0.0,0.0,0.0,0.0,0.0,0.0,0.0,2.26,,,0,0,0,0,0,0,0,0,0,0,0,0,0,0,0,0,,0.0,,,,,38.985771,-76.950218,0.27,48.3,33.0,3.0,0.8,0.0,0.0,-1.0,0.0,,0.0,0.0,0.0683
205,2106923,1745296351861,0.0686,0.0,-106.0,,-0.01,0.09,1.0,0.0,0.0,1.0,1.0,1.25,80.0,3441.0,25.2,4.39,,14.08,1.248,102.4,,31.0,5.0,,,,,,,,,,,,0,0,0,0,0,0,0,0,0,0,0,0,0,0,0,0,,,,,,0.0,,,,,,,,,,,,,,,
206,2106943,1745296351881,0.069,,,,,,,,,,,,,,,,,,,,,,,,,,,,,,,,,,0,0,0,0,0,0,0,0,0,0,0,0,0,0,0,0,,,,,,,,,,,,,,,,,,,,,
207,2106963,1745296351901,0.0693,0.0,-106.0,,-0.0,0.07,1.0,0.0,0.0,1.0,1.0,1.25,80.0,3629.0,17.0,4.18,,13.8,1.248,102.4,,31.0,5.0,,,,,,,,,,,,0,0,0,0,0,0,0,0,0,0,0,0,0,0,0,0,,,,,,0.0,,,,,,,,,,,,,,,
208,2106983,1745296351921,0.0696,,,,,,,,,,,,,,,,,,,,,,,,,,,,,,,,,,0,0,0,0,0,0,0,0,0,0,0,0,0,0,0,0,,,,,,,,,,,,,,,,,,,,,
209,2107003,1745296351941,0.07,0.0,-113.0,,-0.04,0.07,1.07,-1.0,0.0,1.0,1.07,1.25,85.0,3845.0,0.0,2.68,,12.96,1.249,102.4,,35.5,5.0,0.0,0.0,0.0,0.0,0.0,0.0,0.0,0.0,2.26,,,0,0,0,0,0,0,0,0,0,0,0,0,0,0,0,0,,0.0,,,,0.0,38.985771,-76.950218,0.05,48.3,33.0,3.0,0.8,0.0,0.0,-1.0,0.0,0.0,0.0,0.0,0.07
210,2107023,1745296351961,0.0703,,,,,,,,,,,,,,,,,,,,,,,,,,,,,,,,,,0,0,0,0,0,0,0,0,0,0,0,0,0,0,0,0,,,,,,,,,,,,,,,,,,,,,
211,2107043,1745296351981,0.0706,0.0,-98.0,,-0.06,0.05,1.05,-1.0,0.0,1.0,1.05,1.25,84.0,3782.0,0.0,2.6,,12.36,1.25,102.4,,35.5,5.0,,,,,,,,,,,,0,0,0,0,0,0,0,0,0,0,0,0,0,0,0,0,,,,,,0.0,,,,,,,,,,,,,,,
212,2107063,1745296352001,0.071,,,,,,,,,,,,,,,,,,,,,,,,,,,,,,,,,,0,0,0,0,0,0,0,0,0,0,0,0,0,0,0,0,,,,,,,,,,,,,,,,,,,,,
213,2107083,1745296352012,0.0713,0.0,-98.0,,-0.06,0.05,1.06,-1.0,0.0,1.0,1.06,1.25,84.0,3705.0,0.0,2.63,,12.03,1.243,102.4,,35.5,5.0,,,,,,,,,,,,0,0,0,0,0,0,0,0,0,0,0,0,0,0,0,0,,,,,,0.0,,,,,,,,,,,,,,,
214,2107103,1745296352032,0.0716,,,,,,,,,,,,,,,,,,,,,,,0.0,0.0,0.0,0.0,0.0,0.0,0.0,0.0,2.26,,,0,0,0,0,0,0,0,0,0,0,0,0,0,0,0,0,,0.0,,,,,38.985771,-76.950218,0.04,48.3,33.0,3.0,0.8,0.0,0.0,-1.0,0.0,,0.0,0.0,0.0716
215,2107123,1745296352052,0.072,0.0,-95.0,,-0.04,0.06,1.02,-1.0,0.0,1.0,1.02,1.25,82.0,3563.0,3.9,3.7,,12.03,1.243,102.4,,33.6,5.0,,,,,,,,,,,,0,0,0,0,0,0,0,0,0,0,0,0,0,0,0,0,,,,,,0.0,,,,,,,,,,,,,,,
216,2107143,1745296352072,0.0723,,,,,,,,,,,,,,,,,,,,,,,,,,,,,,,,,,0,0,0,0,0,0,0,0,0,0,0,0,0,0,0,0,,,,,,,,,,,,,,,,,,,,,
217,2107163,1745296352092,0.0726,0.0,-106.0,,-0.06,-0.05,0.98,0.0,0.0,0.0,0.98,1.25,78.0,3563.0,3.9,3.7,,12.11,1.251,102.4,,33.6,5.0,,,,,,,,,,,,0,0,0,0,0,0,0,0,0,0,0,0,0,0,0,0,,,,,,0.0,,,,,,,,,,,,,,,
218,2107183,1745296352116,0.073,,,,,,,,,,,,,,,,,,,,,,,,,,,,,,,,,,0,0,0,0,0,0,0,0,0,0,0,0,0,0,0,0,,,,,,,,,,,,,,,,,,,,,
219,2107203,1745296352136,0.0733,0.0,-106.0,,-0.07,-0.08,1.04,-1.0,0.0,1.0,1.05,1.25,83.0,3482.0,7.1,3.86,,12.56,1.252,102.4,,31.5,5.0,0.0,0.0,0.0,0.0,0.0,0.0,0.0,0.0,2.25,,,0,0,0,0,0,0,0,0,0,0,0,0,0,0,0,0,,0.0,,,,0.0,38.985771,-76.950218,0.13,48.3,33.0,3.0,0.8,0.0,0.0,-1.0,0.0,0.0,0.0,0.0,0.0733
220,2107223,1745296352156,0.0736,,,,,,,,,,,,,,,,,,,,,,,,,,,,,,,,,,0,0,0,0,0,0,0,0,0,0,0,0,0,0,0,0,,,,,,,,,,,,,,,,,,,,,
221,2107243,1745296352176,0.074,0.0,-95.0,,-0.06,-0.03,0.98,0.0,0.0,0.0,0.99,1.25,79.0,3418.0,7.3,3.81,,12.83,1.251,102.4,,31.5,5.0,,,,,,,,,,,,0,0,0,0,0,0,0,0,0,0,0,0,0,0,0,0,,,,,,0.0,,,,,,,,,,,,,,,
222,2107263,1745296352196,0.0743,,,,,,,,,,,,,,,,,,,,,,,,,,,,,,,,,,0,0,0,0,0,0,0,0,0,0,0,0,0,0,0,0,,,,,,,,,,,,,,,,,,,,,
223,2107283,1745296352220,0.0746,0.0,-110.0,,-0.08,-0.12,1.01,0.0,0.0,0.0,1.02,1.25,82.0,3453.0,0.0,2.79,,12.57,1.25,102.4,,31.5,5.0,,,,,,,,,,,,0,0,0,0,0,0,0,0,0,0,0,0,0,0,0,0,,,,,,0.0,,,,,,,,,,,,,,,
224,2107303,1745296352240,0.075,,,,,,,,,,,,,,,,,,,,,,,0.0,0.0,0.0,0.0,0.0,0.0,0.0,0.0,2.26,,,0,0,0,0,0,0,0,0,0,0,0,0,0,0,0,0,,0.0,,,,,38.985771,-76.950218,0.04,48.3,33.0,3.0,0.8,0.0,0.0,-1.0,0.0,,0.0,0.0,0.075
225,2107323,1745296352260,0.0753,0.0,-102.0,,-0.06,0.01,0.97,0.0,0.0,0.0,0.98,1.25,78.0,3405.0,0.0,2.78,,12.57,1.25,102.4,,31.2,5.0,,,,,,,,,,,,0,0,0,0,0,0,0,0,0,0,0,0,0,0,0,0,,,,,,0.0,,,,,,,,,,,,,,,
226,2107343,1745296352280,0.0756,,,,,,,,,,,,,,,,,,,,,,,,,,,,,,,,,,0,0,0,0,0,0,0,0,0,0,0,0,0,0,0,0,,,,,,,,,,,,,,,,,,,,,
227,2107363,1745296352300,0.076,0.0,-106.0,,-0.08,-0.11,1.04,0.0,0.0,0.0,1.05,1.25,84.0,3405.0,0.0,2.78,,12.32,1.249,102.4,,31.2,5.0,,,,,,,,,,,,0,0,0,0,0,0,0,0,0,0,0,0,0,0,0,0,,,,,,0.0,,,,,,,,,,,,,,,
228,2107383,1745296352320,0.0763,,,,,,,,,,,,,,,,,,,,,,,,,,,,,,,,,,0,0,0,0,0,0,0,0,0,0,0,0,0,0,0,0,,,,,,,,,,,,,,,,,,,,,
229,2107403,1745296352340,0.0766,0.0,-106.0,13.55,-0.08,-0.06,0.95,0.0,0.0,0.0,0.96,1.25,77.0,3270.0,0.0,2.8,15.0,12.23,1.248,102.4,160.0,29.9,5.0,0.0,0.0,0.0,0.0,0.0,0.0,0.0,0.0,2.25,0.0,1.0,0,0,0,0,0,0,0,0,0,0,0,0,0,0,0,0,0.0,0.0,1.0,0.0,0.0,0.0,38.985771,-76.950218,0.04,48.3,33.0,3.0,0.8,0.0,0.0,-1.0,0.0,0.0,0.0,0.0,0.0766
230,2107423,1745296352360,0.077,,,,,,,,,,,,,,,,,,,,,,,,,,,,,,,,,,0,0,0,0,0,0,0,0,0,0,0,0,0,0,0,0,,,,,,,,,,,,,,,,,,,,,
231,2107443,1745296352380,0.0773,0.0,-91.0,,-0.05,-0.01,0.94,0.0,0.0,0.0,0.94,1.25,75.0,3221.0,0.0,2.85,,12.21,1.249,102.4,,29.9,5.0,,,,,,,,,,,,0,0,0,0,0,0,0,0,0,0,0,0,0,0,0,0,,,,,,0.0,,,,,,,,,,,,,,,
232,2107463,1745296352400,0.0777,,,,,,,,,,,,,,,,,,,,,,,,,,,,,,,,,,0,0,0,0,0,0,0,0,0,0,0,0,0,0,0,0,,,,,,,,,,,,,,,,,,,,,
233,2107483,1745296352420,0.078,0.0,-113.0,,-0.05,-0.01,1.01,0.0,0.0,1.0,1.01,1.25,81.0,3128.0,7.6,3.89,,12.71,1.248,102.4,,29.9,5.0,,,,,,,,,,,,0,0,0,0,0,0,0,0,0,0,0,0,0,0,0,0,,,,,,0.0,,,,,,,,,,,,,,,
234,2107503,1745296352440,0.0783,,,,,,,,,,,,,,,,,,,,,,,0.0,0.0,0.0,0.0,0.0,0.0,0.0,0.0,2.26,,,0,0,0,0,0,0,0,0,0,0,0,0,0,0,0,0,,0.0,,,,,38.985771,-76.950218,0.07,48.3,33.0,3.0,0.8,0.0,0.0,-1.0,0.0,,0.0,0.0,0.0783
235,2107523,1745296352460,0.0786,0.0,-95.0,,-0.06,-0.07,1.09,-1.0,0.0,1.0,1.09,1.25,87.0,3071.0,8.8,3.88,,12.71,1.248,102.4,,28.4,5.0,,,,,,,,,,,,0,0,0,0,0,0,0,0,0,0,0,0,0,0,0,0,,,,,,0.0,,,,,,,,,,,,,,,
236,2107543,1745296352480,0.079,,,,,,,,,,,,,,,,,,,,,,,,,,,,,,,,,,0,0,0,0,0,0,0,0,0,0,0,0,0,0,0,0,,,,,,,,,,,,,,,,,,,,,
237,2107563,1745296352500,0.0793,0.0,-95.0,,-0.09,-0.12,1.14,-1.0,0.0,1.0,1.15,1.25,91.0,3071.0,8.8,3.88,,13.13,1.25,102.4,,28.4,5.0,,,,,,,,,,,,0,0,0,0,0,0,0,0,0,0,0,0,0,0,0,0,,,,,,0.0,,,,,,,,,,,,,,,
238,2107583,1745296352520,0.0796,,,,,,,,,,,,,,,,,,,,,,,,,,,,,,,,,,0,0,0,0,0,0,0,0,0,0,0,0,0,0,0,0,,,,,,,,,,,,,,,,,,,,,
239,2107603,1745296352540,0.08,0.0,-98.0,,-0.12,-0.14,1.1,0.0,0.0,0.0,1.11,1.25,89.0,3168.0,8.8,3.9,,13.25,1.251,102.4,,28.4,5.0,0.0,0.0,0.0,0.0,0.0,0.0,0.0,0.0,2.25,,,0,0,0,0,0,0,0,0,0,0,0,0,0,0,0,0,,0.0,,,,0.0,38.985771,-76.950218,0.04,48.3,33.0,3.0,0.8,0.0,0.0,-1.0,0.0,0.0,0.0,0.0,0.08
240,2107623,1745296352560,0.0803,,,,,,,,,,,,,,,,,,,,,,,,,,,,,,,,,,0,0,0,0,0,0,0,0,0,0,0,0,0,0,0,0,,,,,,,,,,,,,,,,,,,,,
241,2107643,1745296352580,0.0806,0.0,-91.0,,-0.1,-0.05,0.98,0.0,0.0,0.0,0.99,1.25,79.0,3255.0,0.0,2.93,,12.8,1.252,102.4,,28.4,5.0,,,,,,,,,,,,0,0,0,0,0,0,0,0,0,0,0,0,0,0,0,0,,,,,,0.0,,,,,,,,,,,,,,,
242,2107663,1745296352602,0.081,,,,,,,,,,,,,,,,,,,,,,,,,,,,,,,,,,0,0,0,0,0,0,0,0,0,0,0,0,0,0,0,0,,,,,,,,,,,,,,,,,,,,,
243,2107683,1745296352622,0.0813,0.0,-110.0,,-0.08,-0.03,1.04,-1.0,0.0,1.0,1.04,1.25,83.0,3199.0,0.0,2.85,,12.8,1.252,102.4,,28.4,5.0,,,,,,,,,,,,0,0,0,0,0,0,0,0,0,0,0,0,0,0,0,0,,,,,,0.0,,,,,,,,,,,,,,,
244,2107703,1745296352642,0.0816,,,,,,,,,,,,,,,,,,,,,,,0.0,0.0,0.0,0.0,0.0,0.0,0.0,0.0,2.25,,,0,0,0,0,0,0,0,0,0,0,0,0,0,0,0,0,,0.0,,,,,38.985771,-76.950218,0.11,48.3,33.0,3.0,0.8,0.0,0.0,-1.0,0.0,,0.0,0.0,0.0816
245,2107723,1745296352662,0.082,0.0,-91.0,,-0.09,-0.09,1.1,-1.0,0.0,0.0,1.1,1.25,88.0,3157.0,0.0,2.88,,12.52,1.252,102.4,,29.7,5.0,,,,,,,,,,,,0,0,0,0,0,0,0,0,0,0,0,0,0,0,0,0,,,,,,0.0,,,,,,,,,,,,,,,
246,2107743,1745296352682,0.0823,,,,,,,,,,,,,,,,,,,,,,,,,,,,,,,,,,0,0,0,0,0,0,0,0,0,0,0,0,0,0,0,0,,,,,,,,,,,,,,,,,,,,,
247,2107763,1745296352702,0.0826,0.0,-98.0,,-0.12,-0.14,1.09,0.0,0.0,0.0,1.11,1.25,88.0,3157.0,0.0,2.88,,12.4,1.252,102.4,,29.7,5.0,,,,,,,,,,,,0,0,0,0,0,0,0,0,0,0,0,0,0,0,0,0,,,,,,0.0,,,,,,,,,,,,,,,
248,2107783,1745296352722,0.083,,,,,,,,,,,,,,,,,,,,,,,,,,,,,,,,,,0,0,0,0,0,0,0,0,0,0,0,0,0,0,0,0,,,,,,,,,,,,,,,,,,,,,
249,2107803,1745296352742,0.0833,0.0,-91.0,,-0.13,-0.12,1.04,0.0,0.0,0.0,1.05,1.25,84.0,3107.0,4.8,3.58,,12.57,1.251,102.4,,27.7,5.0,0.0,0.0,0.0,0.0,0.0,0.0,0.0,0.0,2.26,,,0,0,0,0,0,0,0,0,0,0,0,0,0,0,0,0,,0.0,,,,0.0,38.985771,-76.950218,0.0,48.3,33.0,3.0,0.8,0.0,0.0,-1.0,0.0,0.0,0.0,0.0,0.0833
250,2107823,1745296352762,0.0836,,,,,,,,,,,,,,,,,,,,,,,,,,,,,,,,,,0,0,0,0,0,0,0,0,0,0,0,0,0,0,0,0,,,,,,,,,,,,,,,,,,,,,
251,2107843,1745296352782,0.084,0.0,-87.0,,-0.14,-0.1,0.98,0.0,0.0,0.0,0.99,1.25,79.0,2984.0,7.9,3.9,,12.97,1.249,102.4,,27.7,5.0,,,,,,,,,,,,0,0,0,0,0,0,0,0,0,0,0,0,0,0,0,0,,,,,,0.0,,,,,,,,,,,,,,,
252,2107863,1745296352802,0.0843,,,,,,,,,,,,,,,,,,,,,,,,,,,,,,,,,,0,0,0,0,0,0,0,0,0,0,0,0,0,0,0,0,,,,,,,,,,,,,,,,,,,,,
253,2107883,1745296352820,0.0846,0.0,-106.0,,-0.13,-0.06,0.89,1.0,0.0,-1.0,0.9,1.25,72.0,3027.0,8.3,3.89,,13.24,1.25,102.4,,27.7,5.0,,,,,,,,,,,,0,0,0,0,0,0,0,0,0,0,0,0,0,0,0,0,,,,,,0.0,,,,,,,,,,,,,,,
254,2107903,1745296352840,0.085,,,,,,,,,,,,,,,,,,,,,,,0.0,0.0,0.0,0.0,0.0,0.0,0.0,0.0,2.26,,,0,0,0,0,0,0,0,0,0,0,0,0,0,0,0,0,,0.0,,,,,38.985771,-76.950218,0.04,48.3,33.0,3.0,0.8,0.0,0.0,-1.0,0.0,,0.0,0.0,0.085
255,2107923,1745296352860,0.0853,0.0,-83.0,,-0.1,0.01,0.86,0.0,0.0,0.0,0.87,1.25,69.0,3211.0,5.5,3.8,,13.24,1.25,102.4,,28.5,5.0,,,,,,,,,,,,0,0,0,0,0,0,0,0,0,0,0,0,0,0,0,0,,,,,,0.0,,,,,,,,,,,,,,,
256,2107943,1745296352880,0.0856,,,,,,,,,,,,,,,,,,,,,,,,,,,,,,,,,,0,0,0,0,0,0,0,0,0,0,0,0,0,0,0,0,,,,,,,,,,,,,,,,,,,,,
257,2107963,1745296352902,0.086,0.0,-102.0,,-0.09,-0.04,0.95,0.0,0.0,0.0,0.95,1.25,76.0,3211.0,5.5,3.8,,13.2,1.249,102.4,,28.5,5.0,,,,,,,,,,,,0,0,0,0,0,0,0,0,0,0,0,0,0,0,0,0,,,,,,0.0,,,,,,,,,,,,,,,
258,2107983,1745296352922,0.0863,,,,,,,,,,,,,,,,,,,,,,,,,,,,,,,,,,0,0,0,0,0,0,0,0,0,0,0,0,0,0,0,0,,,,,,,,,,,,,,,,,,,,,
259,2108003,1745296352942,0.0866,0.0,-98.0,,-0.12,-0.09,0.97,0.0,0.0,0.0,0.98,1.25,78.0,3212.0,0.0,2.87,,12.75,1.25,102.4,,29.6,5.0,0.0,0.0,0.0,0.0,0.0,0.0,0.0,0.0,2.25,,,0,0,0,0,0,0,0,0,0,0,0,0,0,0,0,0,,0.0,,,,0.0,38.985771,-76.950218,0.0,48.3,33.0,3.0,0.8,0.0,0.0,-1.0,0.0,0.0,0.0,0.0,0.0866
260,2108023,1745296352962,0.087,,,,,,,,,,,,,,,,,,,,,,,,,,,,,,,,,,0,0,0,0,0,0,0,0,0,0,0,0,0,0,0,0,,,,,,,,,,,,,,,,,,,,,
261,2108043,1745296352982,0.0873,0.0,-95.0,,-0.11,-0.04,0.88,1.0,0.0,0.0,0.89,1.25,71.0,3168.0,0.0,2.86,,12.53,1.25,102.4,,29.6,5.0,,,,,,,,,,,,0,0,0,0,0,0,0,0,0,0,0,0,0,0,0,0,,,,,,0.0,,,,,,,,,,,,,,,
262,2108063,1745296353002,0.0876,,,,,,,,,,,,,,,,,,,,,,,,,,,,,,,,,,0,0,0,0,0,0,0,0,0,0,0,0,0,0,0,0,,,,,,,,,,,,,,,,,,,,,
263,2108083,1745296353011,0.088,0.0,-106.0,,-0.08,0.01,0.84,0.0,0.0,0.0,0.84,1.25,67.0,3123.0,0.0,2.9,,12.39,1.251,102.4,,29.6,5.0,,,,,,,,,,,,0,0,0,0,0,0,0,0,0,0,0,0,0,0,0,0,,,,,,0.0,,,,,,,,,,,,,,,
264,2108103,1745296353031,0.0883,,,,,,,,,,,,,,,,,,,,,,,0.0,0.0,0.0,0.0,0.0,0.0,0.0,0.0,2.26,,,0,0,0,0,0,0,0,0,0,0,0,0,0,0,0,0,,0.0,,,,,38.985771,-76.950218,0.05,48.3,33.0,3.0,0.8,0.0,0.0,-1.0,0.0,,0.0,0.0,0.0883
265,2108123,1745296353051,0.0887,0.0,-83.0,,-0.05,0.06,0.86,0.0,0.0,0.0,0.86,1.25,69.0,3086.0,1.3,2.92,,12.39,1.251,102.4,,27.6,5.0,,,,,,,,,,,,0,0,0,0,0,0,0,0,0,0,0,0,0,0,0,0,,,,,,0.0,,,,,,,,,,,,,,,
266,2108143,1745296353071,0.089,,,,,,,,,,,,,,,,,,,,,,,,,,,,,,,,,,0,0,0,0,0,0,0,0,0,0,0,0,0,0,0,0,,,,,,,,,,,,,,,,,,,,,
267,2108163,1745296353091,0.0893,0.0,-95.0,,-0.03,0.08,0.89,0.0,0.0,0.0,0.9,1.25,72.0,3086.0,1.3,2.92,,12.44,1.252,102.4,,27.6,5.0,,,,,,,,,,,,0,0,0,0,0,0,0,0,0,0,0,0,0,0,0,0,,,,,,0.0,,,,,,,,,,,,,,,
268,2108183,1745296353115,0.0896,,,,,,,,,,,,,,,,,,,,,,,,,,,,,,,,,,0,0,0,0,0,0,0,0,0,0,0,0,0,0,0,0,,,,,,,,,,,,,,,,,,,,,
269,2108203,1745296353135,0.09,0.0,-102.0,,-0.01,0.11,0.92,0.0,0.0,1.0,0.92,1.25,74.0,2958.0,7.4,3.86,,12.89,1.252,102.4,,27.4,5.0,0.0,0.0,0.0,0.0,0.0,0.0,0.0,0.0,2.26,,,0,0,0,0,0,0,0,0,0,0,0,0,0,0,0,0,,0.0,,,,0.0,38.985771,-76.950218,0.0,48.3,33.0,3.0,0.8,0.0,0.0,-1.0,0.0,0.0,0.0,0.0,0.09
270,2108223,1745296353155,0.0903,,,,,,,,,,,,,,,,,,,,,,,,,,,,,,,,,,0,0,0,0,0,0,0,0,0,0,0,0,0,0,0,0,,,,,,,,,,,,,,,,,,,,,
271,2108243,1745296353175,0.0906,0.0,-91.0,,0.01,0.13,0.95,-1.0,0.0,1.0,0.96,1.25,77.0,2981.0,9.1,3.92,,13.28,1.253,100.6,,27.4,5.0,,,,,,,,,,,,0,0,0,0,0,0,0,0,0,0,0,0,0,0,0,0,,,,,,0.0,,,,,,,,,,,,,,,
272,2108263,1745296353195,0.091,,,,,,,,,,,,,,,,,,,,,,,,,,,,,,,,,,0,0,0,0,0,0,0,0,0,0,0,0,0,0,0,0,,,,,,,,,,,,,,,,,,,,,
273,2108283,1745296353219,0.0913,0.0,-106.0,,0.02,0.09,1.04,-1.0,0.0,1.0,1.04,1.25,83.0,3131.0,9.4,3.92,,13.4,1.252,100.6,,27.4,5.0,,,,,,,,,,,,0,0,0,0,0,0,0,0,0,0,0,0,0,0,0,0,,,,,,0.0,,,,,,,,,,,,,,,
274,2108303,1745296353239,0.0916,,,,,,,,,,,,,,,,,,,,,,,0.0,0.0,0.0,0.0,0.0,0.0,0.0,0.0,2.26,,,0,0,0,0,0,0,0,0,0,0,0,0,0,0,0,0,,0.0,,,,,38.985771,-76.950218,0.08,48.3,33.0,3.0,0.8,0.0,0.0,-1.0,0.0,,0.0,0.0,0.0916
275,2108323,1745296353259,0.092,0.0,-98.0,,-0.02,-0.0,1.08,-1.0,0.0,1.0,1.08,1.25,86.0,3131.0,9.4,3.92,,13.4,1.252,100.6,,28.2,5.0,,,,,,,,,,,,0,0,0,0,0,0,0,0,0,0,0,0,0,0,0,0,,,,,,0.0,,,,,,,,,,,,,,,
276,2108343,1745296353279,0.0923,,,,,,,,,,,,,,,,,,,,,,,,,,,,,,,,,,0,0,0,0,0,0,0,0,0,0,0,0,0,0,0,0,,,,,,,,,,,,,,,,,,,,,
277,2108363,1745296353301,0.0926,0.0,-102.0,,-0.02,0.04,0.97,0.0,0.0,1.0,0.97,1.25,78.0,3207.0,0.0,2.9,,13.09,1.25,100.6,,28.2,5.0,,,,,,,,,,,,0,0,0,0,0,0,0,0,0,0,0,0,0,0,0,0,,,,,,0.0,,,,,,,,,,,,,,,
278,2108383,1745296353321,0.093,,,,,,,,,,,,,,,,,,,,,,,,,,,,,,,,,,0,0,0,0,0,0,0,0,0,0,0,0,0,0,0,0,,,,,,,,,,,,,,,,,,,,,
279,2108403,1745296353341,0.0933,0.0,-91.0,13.56,-0.01,0.05,1.04,-1.0,0.0,1.0,1.04,1.25,83.0,3265.0,0.0,2.85,15.0,12.69,1.25,100.6,160.0,29.6,5.0,0.0,0.0,0.0,0.0,0.0,0.0,0.0,0.0,2.26,0.0,1.0,0,0,0,0,0,0,0,0,0,0,0,0,0,0,0,0,0.0,0.0,1.0,0.0,0.0,0.0,38.985771,-76.950218,0.04,48.3,33.0,3.0,0.8,0.0,0.0,-1.0,0.0,0.0,0.0,0.0,0.0933
280,2108423,1745296353361,0.0936,,,,,,,,,,,,,,,,,,,,,,,,,,,,,,,,,,0,0,0,0,0,0,0,0,0,0,0,0,0,0,0,0,,,,,,,,,,,,,,,,,,,,,
281,2108443,1745296353381,0.094,0.0,-83.0,,-0.05,-0.01,1.09,-1.0,0.0,1.0,1.09,1.25,87.0,3247.0,0.0,2.87,,12.47,1.25,100.6,,29.6,5.0,,,,,,,,,,,,0,0,0,0,0,0,0,0,0,0,0,0,0,0,0,0,,,,,,0.0,,,,,,,,,,,,,,,
282,2108463,1745296353401,0.0943,,,,,,,,,,,,,,,,,,,,,,,,,,,,,,,,,,0,0,0,0,0,0,0,0,0,0,0,0,0,0,0,0,,,,,,,,,,,,,,,,,,,,,
283,2108483,1745296353421,0.0946,0.0,-95.0,,-0.06,-0.0,1.0,0.0,0.0,0.0,1.0,1.25,80.0,3143.0,8.3,4.09,,12.73,1.25,100.6,,29.6,5.0,,,,,,,,,,,,0,0,0,0,0,0,0,0,0,0,0,0,0,0,0,0,,,,,,0.0,,,,,,,,,,,,,,,
284,2108503,1745296353441,0.095,,,,,,,,,,,,,,,,,,,,,,,0.0,0.0,0.0,0.0,0.0,0.0,0.0,0.0,2.26,,,0,0,0,0,0,0,0,0,0,0,0,0,0,0,0,0,,0.0,,,,,38.985771,-76.950218,0.06,48.3,33.0,3.0,0.8,0.0,0.0,-1.0,0.0,,0.0,0.0,0.095
285,2108523,1745296353461,0.0953,0.0,-91.0,,-0.04,0.05,0.91,0.0,0.0,0.0,0.91,1.25,73.0,3090.0,18.0,4.46,,12.73,1.25,100.6,,29.0,5.0,,,,,,,,,,,,0,0,0,0,0,0,0,0,0,0,0,0,0,0,0,0,,,,,,0.0,,,,,,,,,,,,,,,
286,2108543,1745296353481,0.0956,,,,,,,,,,,,,,,,,,,,,,,,,,,,,,,,,,0,0,0,0,0,0,0,0,0,0,0,0,0,0,0,0,,,,,,,,,,,,,,,,,,,,,
287,2108563,1745296353501,0.096,0.0,-98.0,,-0.02,0.04,0.98,0.0,0.0,1.0,0.98,1.25,78.0,3090.0,18.0,4.46,,13.57,1.25,100.6,,29.0,5.0,,,,,,,,,,,,0,0,0,0,0,0,0,0,0,0,0,0,0,0,0,0,,,,,,0.0,,,,,,,,,,,,,,,
288,2108583,1745296353521,0.0963,,,,,,,,,,,,,,,,,,,,,,,,,,,,,,,,,,0,0,0,0,0,0,0,0,0,0,0,0,0,0,0,0,,,,,,,,,,,,,,,,,,,,,
289,2108603,1745296353541,0.0966,0.0,-98.0,,-0.03,0.02,0.93,0.0,0.0,0.0,0.93,1.25,75.0,3378.0,23.1,4.66,,13.98,1.251,100.6,,31.1,5.0,0.0,0.0,0.0,0.0,0.0,0.0,0.0,0.0,2.26,,,0,0,0,0,0,0,0,0,0,0,0,0,0,0,0,0,,0.0,,,,0.0,38.985771,-76.950218,0.07,48.3,33.0,3.0,0.8,0.0,0.0,-1.0,0.0,0.0,0.0,0.0,0.0966
290,2108623,1745296353561,0.097,,,,,,,,,,,,,,,,,,,,,,,,,,,,,,,,,,0,0,0,0,0,0,0,0,0,0,0,0,0,0,0,0,,,,,,,,,,,,,,,,,,,,,
291,2108643,1745296353581,0.0973,0.0,-91.0,,-0.03,-0.02,0.94,0.0,0.0,0.0,0.94,1.25,75.0,3532.0,23.7,4.43,,14.02,1.253,100.6,,31.1,5.0,,,,,,,,,,,,0,0,0,0,0,0,0,0,0,0,0,0,0,0,0,0,,,,,,0.0,,,,,,,,,,,,,,,
292,2108663,1745296353601,0.0976,,,,,,,,,,,,,,,,,,,,,,,,,,,,,,,,,,0,0,0,0,0,0,0,0,0,0,0,0,0,0,0,0,,,,,,,,,,,,,,,,,,,,,
293,2108683,1745296353621,0.098,0.0,-106.0,,-0.03,0.05,0.96,0.0,0.0,0.0,0.96,1.25,77.0,3885.0,23.7,4.44,,13.92,1.252,100.6,,31.1,5.0,,,,,,,,,,,,0,0,0,0,0,0,0,0,0,0,0,0,0,0,0,0,,,,,,0.0,,,,,,,,,,,,,,,
294,2108703,1745296353641,0.0983,,,,,,,,,,,,,,,,,,,,,,,0.0,0.0,0.0,0.0,0.0,0.0,0.0,0.0,2.26,,,0,0,0,0,0,0,0,0,0,0,0,0,0,0,0,0,,0.0,,,,,38.985771,-76.950218,0.04,48.3,33.0,3.0,0.8,0.0,0.0,-1.0,0.0,,0.0,0.0,0.0983
295,2108723,1745296353661,0.0986,0.0,-87.0,,-0.05,0.06,1.03,0.0,0.0,0.0,1.03,1.25,82.0,4071.0,0.0,2.57,,13.92,1.252,100.6,,36.9,5.0,,,,,,,,,,,,0,0,0,0,0,0,0,0,0,0,0,0,0,0,0,0,,,,,,0.0,,,,,,,,,,,,,,,
296,2108743,1745296353681,0.099,,,,,,,,,,,,,,,,,,,,,,,,,,,,,,,,,,0,0,0,0,0,0,0,0,0,0,0,0,0,0,0,0,,,,,,,,,,,,,,,,,,,,,
297,2108763,1745296353701,0.0993,0.0,-95.0,,-0.06,-0.02,0.93,0.0,0.0,0.0,0.93,1.25,74.0,4071.0,0.0,2.57,,13.09,1.252,100.6,,36.9,5.0,,,,,,,,,,,,0,0,0,0,0,0,0,0,0,0,0,0,0,0,0,0,,,,,,0.0,,,,,,,,,,,,,,,
298,2108783,1745296353721,0.0996,,,,,,,,,,,,,,,,,,,,,,,,,,,,,,,,,,0,0,0,0,0,0,0,0,0,0,0,0,0,0,0,0,,,,,,,,,,,,,,,,,,,,,
299,2108803,1745296353741,0.1,0.0,-91.0,,-0.06,0.08,0.97,0.0,0.0,0.0,0.98,1.25,78.0,4009.0,0.0,2.53,,12.29,1.245,100.6,,37.3,5.0,0.0,0.0,0.0,0.0,0.0,0.0,0.0,0.0,2.25,,,0,0,0,0,0,0,0,0,0,0,0,0,0,0,0,0,,0.0,,,,0.0,38.985771,-76.950218,0.0,48.3,33.0,3.0,0.8,0.0,0.0,-1.0,0.0,0.0,0.0,0.0,0.1
300,2108823,1745296353761,0.1003,,,,,,,,,,,,,,,,,,,,,,,,,,,,,,,,,,0,0,0,0,0,0,0,0,0,0,0,0,0,0,0,0,,,,,,,,,,,,,,,,,,,,,
301,2108843,1745296353781,0.1006,0.0,-72.0,,-0.06,0.06,1.02,0.0,0.0,0.0,1.02,1.25,81.0,3923.0,0.0,2.54,,11.93,1.228,100.6,,37.3,5.0,,,,,,,,,,,,0,0,0,0,0,0,0,0,0,0,0,0,0,0,0,0,,,,,,0.0,,,,,,,,,,,,,,,
302,2108863,1745296353801,0.101,,,,,,,,,,,,,,,,,,,,,,,,,,,,,,,,,,0,0,0,0,0,0,0,0,0,0,0,0,0,0,0,0,,,,,,,,,,,,,,,,,,,,,
303,2108883,1745296353821,0.1013,0.0,-106.0,,-0.06,0.04,1.04,0.0,0.0,0.0,1.04,1.25,83.0,3800.0,0.0,2.56,,11.75,1.245,100.6,,37.3,5.0,,,,,,,,,,,,0,0,0,0,0,0,0,0,0,0,0,0,0,0,0,0,,,,,,0.0,,,,,,,,,,,,,,,
304,2108903,1745296353841,0.1016,,,,,,,,,,,,,,,,,,,,,,,0.0,0.0,0.0,0.0,0.0,0.0,0.0,0.0,2.26,,,0,0,0,0,0,0,0,0,0,0,0,0,0,0,0,0,,0.0,,,,,38.985771,-76.950218,0.0,48.3,33.0,3.0,0.8,0.0,0.0,-1.0,0.0,,0.0,0.0,0.1016
305,2108923,1745296353861,0.102,0.0,-83.0,,-0.05,0.05,1.02,0.0,0.0,0.0,1.02,1.25,81.0,3688.0,0.0,2.61,,11.75,1.245,100.6,,34.3,5.0,,,,,,,,,,,,0,0,0,0,0,0,0,0,0,0,0,0,0,0,0,0,,,,,,0.0,,,,,,,,,,,,,,,
306,2108943,1745296353881,0.1023,,,,,,,,,,,,,,,,,,,,,,,,,,,,,,,,,,0,0,0,0,0,0,0,0,0,0,0,0,0,0,0,0,,,,,,,,,,,,,,,,,,,,,
307,2108963,1745296353901,0.1026,0.0,-91.0,,-0.06,-0.0,0.97,0.0,0.0,0.0,0.97,1.25,78.0,3688.0,0.0,2.61,,11.61,1.25,100.6,,34.3,5.0,,,,,,,,,,,,0,0,0,0,0,0,0,0,0,0,0,0,0,0,0,0,,,,,,0.0,,,,,,,,,,,,,,,
308,2108983,1745296353921,0.103,,,,,,,,,,,,,,,,,,,,,,,,,,,,,,,,,,0,0,0,0,0,0,0,0,0,0,0,0,0,0,0,0,,,,,,,,,,,,,,,,,,,,,
309,2109003,1745296353941,0.1033,0.0,-106.0,,-0.09,-0.03,1.04,0.0,0.0,0.0,1.04,1.25,83.0,3562.0,0.0,2.65,,11.63,1.25,100.6,,31.6,5.0,0.0,0.0,0.0,0.0,0.0,0.0,0.0,0.0,2.26,,,0,0,0,0,0,0,0,0,0,0,0,0,0,0,0,0,,0.0,,,,0.0,38.985771,-76.950218,0.0,48.3,33.0,3.0,0.8,0.0,0.0,-1.0,0.0,0.0,0.0,0.0,0.1033
310,2109023,1745296353961,0.1036,,,,,,,,,,,,,,,,,,,,,,,,,,,,,,,,,,0,0,0,0,0,0,0,0,0,0,0,0,0,0,0,0,,,,,,,,,,,,,,,,,,,,,
311,2109043,1745296353981,0.104,0.0,-76.0,,-0.07,0.07,0.97,1.0,0.0,0.0,0.97,1.25,78.0,3445.0,0.0,2.73,,11.71,1.25,100.6,,31.6,5.0,,,,,,,,,,,,0,0,0,0,0,0,0,0,0,0,0,0,0,0,0,0,,,,,,0.0,,,,,,,,,,,,,,,
312,2109063,1745296354001,0.1043,,,,,,,,,,,,,,,,,,,,,,,,,,,,,,,,,,0,0,0,0,0,0,0,0,0,0,0,0,0,0,0,0,,,,,,,,,,,,,,,,,,,,,
313,2109083,1745296354012,0.1046,0.0,-95.0,,-0.07,-0.02,1.05,0.0,0.0,0.0,1.06,1.25,84.0,3220.0,7.3,3.7,,11.71,1.25,100.6,,31.6,5.0,,,,,,,,,,,,0,0,0,0,0,0,0,0,0,0,0,0,0,0,0,0,,,,,,0.0,,,,,,,,,,,,,,,
314,2109103,1745296354032,0.105,,,,,,,,,,,,,,,,,,,,,,,0.0,0.0,0.0,0.0,0.0,0.0,0.0,0.0,2.26,,,0,0,0,0,0,0,0,0,0,0,0,0,0,0,0,0,,0.0,,,,,38.985771,-76.950218,0.0,48.3,33.0,3.0,0.8,0.0,0.0,-1.0,0.0,,0.0,0.0,0.105
315,2109123,1745296354052,0.1053,0.0,-72.0,,-0.09,-0.09,1.05,0.0,0.0,0.0,1.06,1.25,85.0,3200.0,12.3,4.06,,12.31,1.251,100.6,,29.6,5.0,,,,,,,,,,,,0,0,0,0,0,0,0,0,0,0,0,0,0,0,0,0,,,,,,0.0,,,,,,,,,,,,,,,
316,2109143,1745296354072,0.1056,,,,,,,,,,,,,,,,,,,,,,,,,,,,,,,,,,0,0,0,0,0,0,0,0,0,0,0,0,0,0,0,0,,,,,,,,,,,,,,,,,,,,,
317,2109163,1745296354092,0.106,0.0,-83.0,,-0.07,0.04,1.03,0.0,0.0,0.0,1.04,1.25,83.0,3200.0,12.3,4.06,,13.11,1.252,100.6,,29.6,5.0,,,,,,,,,,,,0,0,0,0,0,0,0,0,0,0,0,0,0,0,0,0,,,,,,0.0,,,,,,,,,,,,,,,
318,2109183,1745296354120,0.1063,,,,,,,,,,,,,,,,,,,,,,,,,,,,,,,,,,0,0,0,0,0,0,0,0,0,0,0,0,0,0,0,0,,,,,,,,,,,,,,,,,,,,,
319,2109203,1745296354140,0.1066,0.0,-98.0,,-0.06,0.03,1.0,0.0,0.0,0.0,1.0,1.25,80.0,3520.0,14.4,4.15,,13.41,1.252,100.6,,33.5,5.0,0.0,0.0,0.0,0.0,0.0,0.0,0.0,0.0,2.26,,,0,0,0,0,0,0,0,0,0,0,0,0,0,0,0,0,,0.0,,,,0.0,38.985771,-76.950218,0.07,48.3,33.0,3.0,0.8,0.0,0.0,-1.0,0.0,0.0,0.0,0.0,0.1066
320,2109223,1745296354160,0.107,,,,,,,,,,,,,,,,,,,,,,,,,,,,,,,,,,0,0,0,0,0,0,0,0,0,0,0,0,0,0,0,0,,,,,,,,,,,,,,,,,,,,,
321,2109243,1745296354180,0.1073,0.0,-91.0,,-0.08,0.04,1.0,0.0,0.0,0.0,1.0,1.25,80.0,3739.0,16.0,4.15,,13.56,1.252,100.6,,33.5,5.0,,,,,,,,,,,,0,0,0,0,0,0,0,0,0,0,0,0,0,0,0,0,,,,,,0.0,,,,,,,,,,,,,,,
322,2109263,1745296354200,0.1076,,,,,,,,,,,,,,,,,,,,,,,,,,,,,,,,,,0,0,0,0,0,0,0,0,0,0,0,0,0,0,0,0,,,,,,,,,,,,,,,,,,,,,
323,2109283,1745296354218,0.108,0.0,-121.0,,-0.08,0.05,1.03,0.0,0.0,0.0,1.04,1.25,83.0,3815.0,16.1,4.05,,13.48,1.238,100.6,,33.5,5.0,,,,,,,,,,,,0,0,0,0,0,0,0,0,0,0,0,0,0,0,0,0,,,,,,0.0,,,,,,,,,,,,,,,
324,2109303,1745296354238,0.1083,,,,,,,,,,,,,,,,,,,,,,,0.0,0.0,0.0,0.0,0.0,0.0,0.0,0.0,2.25,,,0,0,0,0,0,0,0,0,0,0,0,0,0,0,0,0,,0.0,,,,,38.985771,-76.950218,0.05,48.3,33.0,3.0,0.8,0.0,0.0,-1.0,0.0,,0.0,0.0,0.1083
325,2109323,1745296354258,0.1086,0.0,-83.0,,-0.09,0.02,1.07,0.0,0.0,0.0,1.07,1.25,85.0,4007.0,3.6,3.84,,13.48,1.238,100.6,,36.2,5.0,,,,,,,,,,,,0,0,0,0,0,0,0,0,0,0,0,0,0,0,0,0,,,,,,0.0,,,,,,,,,,,,,,,
326,2109343,1745296354278,0.109,,,,,,,,,,,,,,,,,,,,,,,,,,,,,,,,,,0,0,0,0,0,0,0,0,0,0,0,0,0,0,0,0,,,,,,,,,,,,,,,,,,,,,
327,2109363,1745296354298,0.1093,0.0,-87.0,,-0.09,-0.03,1.0,0.0,0.0,0.0,1.01,1.25,80.0,4007.0,3.6,3.84,,13.07,1.177,100.6,,36.2,5.0,,,,,,,,,,,,0,0,0,0,0,0,0,0,0,0,0,0,0,0,0,0,,,,,,0.0,,,,,,,,,,,,,,,
328,2109383,1745296354320,0.1096,,,,,,,,,,,,,,,,,,,,,,,,,,,,,,,,,,0,0,0,0,0,0,0,0,0,0,0,0,0,0,0,0,,,,,,,,,,,,,,,,,,,,,
329,2109403,1745296354340,0.11,0.0,-98.0,13.66,-0.07,0.04,1.02,1.0,0.0,0.0,1.02,1.25,82.0,3936.0,0.0,2.55,15.0,12.33,1.163,100.6,160.0,36.6,5.0,0.0,0.0,0.0,0.0,0.0,0.0,0.0,0.0,2.26,0.0,1.0,0,0,0,0,0,0,0,0,0,0,0,0,0,0,0,0,0.0,0.0,1.0,0.0,0.0,0.0,38.985771,-76.950218,0.0,48.3,33.0,3.0,0.8,0.0,0.0,-1.0,0.0,0.0,0.0,0.0,0.11
330,2109423,1745296354360,0.1103,,,,,,,,,,,,,,,,,,,,,,,,,,,,,,,,,,0,0,0,0,0,0,0,0,0,0,0,0,0,0,0,0,,,,,,,,,,,,,,,,,,,,,
331,2109443,1745296354380,0.1106,0.0,-91.0,,-0.07,0.06,1.02,0.0,0.0,0.0,1.03,1.25,82.0,3811.0,0.0,2.56,,11.93,1.191,100.6,,36.6,5.0,,,,,,,,,,,,0,0,0,0,0,0,0,0,0,0,0,0,0,0,0,0,,,,,,0.0,,,,,,,,,,,,,,,
332,2109463,1745296354400,0.111,,,,,,,,,,,,,,,,,,,,,,,,,,,,,,,,,,0,0,0,0,0,0,0,0,0,0,0,0,0,0,0,0,,,,,,,,,,,,,,,,,,,,,
333,2109483,1745296354420,0.1113,0.0,-91.0,,-0.06,0.06,0.99,0.0,0.0,0.0,1.0,1.25,80.0,3729.0,0.0,2.61,,11.81,1.234,100.6,,36.6,5.0,,,,,,,,,,,,0,0,0,0,0,0,0,0,0,0,0,0,0,0,0,0,,,,,,0.0,,,,,,,,,,,,,,,
