,Interval,Utc,FrontBP,SteerAng,Battery,AccelX,AccelY,AccelZ,Yaw,Pitch,Roll,Gsum,GsumMax,GsumPct,RPM,TPS,InjectorPW,Baro,MAP,Lambda,IAT,EngineTemp,EOP,EOT,WSFR,WSFL,WSRR,WSRL,TCSet,TCSlip,TCComp,TCCut,Analog8,OilTemp,AA_On,ThermLF1,ThermLF2,ThermRR1,ThermRR2,ThermLF3,ThermLF4,ThermLF5,ThermLF6,ThermLF7,ThermLF8,ThermRR3,ThermRR4,ThermRR5,ThermRR6,ThermRR7,ThermRR8,AA_LowDrag,Gear,AA_On1,AA_LowDrag1,Fuel_Mix,AA_Packages,Latitude,Longitude,Speed,Altitude,GPSSats,GPSQual,GPSDOP
0,502094,1745298966914,0.0,-19.0,,-0.08,-0.05,0.96,1.0,0.0,0.0,0.97,0.97,100.0,4847.0,47.3,6.38,,14.22,1.249,97.0,,34.4,5.0,,,,,,,,,,,,0.0,0.0,0.0,0.0,0.0,0.0,0.0,0.0,0.0,0.0,0.0,0.0,0.0,0.0,0.0,0.0,,,,,,0.0,,,,,,,
1,502114,1745298966934,,,,,,,,,,,,,,,,,,,,,,,,,,,,,,,,,,0.0,0.0,0.0,0.0,0.0,0.0,0.0,0.0,0.0,0.0,0.0,0.0,0.0,0.0,0.0,0.0,,,,,,,,,,,,,
2,502134,1745298966954,0.0,-38.0,,-0.06,-0.05,0.98,1.0,0.0,0.0,0.98,0.98,100.0,5309.0,37.6,5.71,,13.91,1.249,97.0,,34.4,5.0,,,,,,,,,,,,0.0,0.0,0.0,0.0,0.0,0.0,0.0,0.0,0.0,0.0,0.0,0.0,0.0,0.0,0.0,0.0,,,,,,0.0,,,,,,,
3,502154,1745298966974,,,,,,,,,,,,,,,,,,,,,,,,,,,,,,,,,,0.0,0.0,0.0,0.0,0.0,0.0,0.0,0.0,0.0,0.0,0.0,0.0,0.0,0.0,0.0,0.0,,,,,,,,,,,,,
4,502174,1745298966994,0.0,-15.0,,-0.06,-0.24,0.87,-1.0,0.0,-1.0,0.9,0.98,92.0,6122.0,0.0,1.58,,13.91,1.249,97.0,,43.3,5.0,0.0,22.0,0.0,0.0,0.0,24.0,0.0,0.0,2.26,,,0.0,0.0,0.0,0.0,0.0,0.0,0.0,0.0,0.0,0.0,0.0,0.0,0.0,0.0,0.0,0.0,,0.0,,,,0.0,38.986019,-76.95002,0.0,50.3,35.0,3.0,0.7
5,502194,1745298967004,,,,,,,,,,,,,,,,,,,,,,,,,,,,,,,,,,0.0,0.0,0.0,0.0,0.0,0.0,0.0,0.0,0.0,0.0,0.0,0.0,0.0,0.0,0.0,0.0,,,,,,,,,,,,,
6,502214,1745298967024,0.0,-12.0,,-0.03,-0.26,0.94,-1.0,0.0,-1.0,0.98,0.98,99.0,6122.0,0.0,1.58,,11.96,1.199,97.0,,43.3,5.0,,,,,,,,,,,,0.0,0.0,0.0,0.0,0.0,0.0,0.0,0.0,0.0,0.0,0.0,0.0,0.0,0.0,0.0,0.0,,,,,,0.0,,,,,,,
7,502234,1745298967044,,,,,,,,,,,,,,,,,,,,,,,,,,,,,,,,,,0.0,0.0,0.0,0.0,0.0,0.0,0.0,0.0,0.0,0.0,0.0,0.0,0.0,0.0,0.0,0.0,,,,,,,,,,,,,
8,502254,1745298967064,0.0,-8.0,,-0.08,-0.04,1.04,0.0,0.0,0.0,1.04,1.04,100.0,6237.0,0.0,1.4,,10.61,1.067,97.0,,50.6,5.0,,,,,,,,,,,,0.0,0.0,0.0,0.0,0.0,0.0,0.0,0.0,0.0,0.0,0.0,0.0,0.0,0.0,0.0,0.0,,,,,,0.0,,,,,,,
9,502274,1745298967084,,,,,,,,,,,,,,,,,,,,,,,0.0,22.0,0.0,0.0,0.0,24.0,0.0,0.0,2.26,,,0.0,0.0,0.0,0.0,0.0,0.0,0.0,0.0,0.0,0.0,0.0,0.0,0.0,0.0,0.0,0.0,,0.0,,,,,38.986019,-76.95002,0.0,50.3,35.0,3.0,0.7
10,502294,1745298967109,0.0,-19.0,,-0.1,0.08,1.14,2.0,0.0,0.0,1.15,1.15,100.0,5881.0,0.0,1.4,,9.93,1.006,97.0,,50.6,5.0,,,,,,,,,,,,0.0,0.0,0.0,0.0,0.0,0.0,0.0,0.0,0.0,0.0,0.0,0.0,0.0,0.0,0.0,0.0,,,,,,0.0,,,,,,,
11,502314,1745298967129,,,,,,,,,,,,,,,,,,,,,,,,,,,,,,,,,,0.0,0.0,0.0,0.0,0.0,0.0,0.0,0.0,0.0,0.0,0.0,0.0,0.0,0.0,0.0,0.0,,,,,,,,,,,,,
12,502334,1745298967149,0.0,-34.0,,-0.1,-0.02,1.09,1.0,0.0,0.0,1.09,1.15,95.0,5463.0,0.0,1.4,,9.58,1.131,97.0,,50.6,5.0,,,,,,,,,,,,0.0,0.0,0.0,0.0,0.0,0.0,0.0,0.0,0.0,0.0,0.0,0.0,0.0,0.0,0.0,0.0,,,,,,0.0,,,,,,,
13,502354,1745298967169,,,,,,,,,,,,,,,,,,,,,,,,,,,,,,,,,,0.0,0.0,0.0,0.0,0.0,0.0,0.0,0.0,0.0,0.0,0.0,0.0,0.0,0.0,0.0,0.0,,,,,,,,,,,,,
14,502374,1745298967189,0.0,-12.0,,-0.11,0.03,1.11,1.0,0.0,0.0,1.11,1.15,97.0,5106.0,0.0,1.61,,9.58,1.131,97.0,,43.6,5.0,0.0,22.0,0.0,0.0,0.0,24.0,0.0,0.0,2.25,,,0.0,0.0,0.0,0.0,0.0,0.0,0.0,0.0,0.0,0.0,0.0,0.0,0.0,0.0,0.0,0.0,,0.0,,,,0.0,38.986019,-76.95002,0.04,50.3,35.0,3.0,0.7
15,502394,1745298967207,,,,,,,,,,,,,,,,,,,,,,,,,,,,,,,,,,0.0,0.0,0.0,0.0,0.0,0.0,0.0,0.0,0.0,0.0,0.0,0.0,0.0,0.0,0.0,0.0,,,,,,,,,,,,,
16,502414,1745298967227,0.0,-19.0,,-0.11,-0.05,1.04,0.0,0.0,0.0,1.05,1.15,91.0,5106.0,0.0,1.61,,9.52,1.251,97.0,,43.6,5.0,,,,,,,,,,,,0.0,0.0,0.0,0.0,0.0,0.0,0.0,0.0,0.0,0.0,0.0,0.0,0.0,0.0,0.0,0.0,,,,,,0.0,,,,,,,
17,502434,1745298967247,,,,,,,,,,,,,,,,,,,,,,,,,,,,,,,,,,0.0,0.0,0.0,0.0,0.0,0.0,0.0,0.0,0.0,0.0,0.0,0.0,0.0,0.0,0.0,0.0,,,,,,,,,,,,,
18,502454,1745298967267,0.0,-19.0,,-0.07,-0.15,0.95,0.0,0.0,0.0,0.96,1.15,84.0,4735.0,0.0,1.78,,9.66,1.252,97.0,,36.3,5.0,,,,,,,,,,,,0.0,0.0,0.0,0.0,0.0,0.0,0.0,0.0,0.0,0.0,0.0,0.0,0.0,0.0,0.0,0.0,,,,,,0.0,,,,,,,
19,502474,1745298967287,,,,,,,,,,,,,,,,,,,,,,,0.0,22.0,0.0,0.0,0.0,24.0,0.0,0.0,2.26,,,0.0,0.0,0.0,0.0,0.0,0.0,0.0,0.0,0.0,0.0,0.0,0.0,0.0,0.0,0.0,0.0,,0.0,,,,,38.986019,-76.95002,0.04,50.3,35.0,3.0,0.7
20,502494,1745298967313,0.0,-23.0,,-0.06,-0.26,0.9,-1.0,0.0,0.0,0.94,1.15,82.0,4353.0,0.0,1.83,,9.82,1.25,97.0,,36.3,5.0,,,,,,,,,,,,0.0,0.0,0.0,0.0,0.0,0.0,0.0,0.0,0.0,0.0,0.0,0.0,0.0,0.0,0.0,0.0,,,,,,0.0,,,,,,,
21,502514,1745298967333,,,,,,,,,,,,,,,,,,,,,,,,,,,,,,,,,,0.0,0.0,0.0,0.0,0.0,0.0,0.0,0.0,0.0,0.0,0.0,0.0,0.0,0.0,0.0,0.0,,,,,,,,,,,,,
22,502534,1745298967353,0.0,-19.0,,-0.08,-0.08,0.95,1.0,0.0,0.0,0.96,1.15,83.0,4065.0,1.6,1.86,,10.2,1.249,97.0,,36.3,5.0,,,,,,,,,,,,0.0,0.0,0.0,0.0,0.0,0.0,0.0,0.0,0.0,0.0,0.0,0.0,0.0,0.0,0.0,0.0,,,,,,0.0,,,,,,,
23,502554,1745298967373,,,,,,,,,,,,,,,,,,,,,,,,,,,,,,,,,,0.0,0.0,0.0,0.0,0.0,0.0,0.0,0.0,0.0,0.0,0.0,0.0,0.0,0.0,0.0,0.0,,,,,,,,,,,,,
24,502574,1745298967393,0.0,-12.0,13.17,-0.08,-0.1,0.96,0.0,0.0,0.0,0.97,1.15,84.0,3750.0,21.4,4.65,15.0,10.2,1.249,97.0,167.0,30.0,5.0,0.0,22.0,0.0,0.0,0.0,24.0,0.0,0.0,2.26,0.0,1.0,0.0,0.0,0.0,0.0,0.0,0.0,0.0,0.0,0.0,0.0,0.0,0.0,0.0,0.0,0.0,0.0,0.0,0.0,1.0,0.0,0.0,0.0,38.986019,-76.95002,0.04,50.3,35.0,3.0,0.7
25,502594,1745298967413,,,,,,,,,,,,,,,,,,,,,,,,,,,,,,,,,,0.0,0.0,0.0,0.0,0.0,0.0,0.0,0.0,0.0,0.0,0.0,0.0,0.0,0.0,0.0,0.0,,,,,,,,,,,,,
26,502614,1745298967433,0.0,0.0,,-0.09,-0.14,0.95,0.0,0.0,0.0,0.97,1.15,84.0,3750.0,21.4,4.65,,12.21,1.248,97.0,,30.0,5.0,,,,,,,,,,,,0.0,0.0,0.0,0.0,0.0,0.0,0.0,0.0,0.0,0.0,0.0,0.0,0.0,0.0,0.0,0.0,,,,,,0.0,,,,,,,
27,502634,1745298967453,,,,,,,,,,,,,,,,,,,,,,,,,,,,,,,,,,0.0,0.0,0.0,0.0,0.0,0.0,0.0,0.0,0.0,0.0,0.0,0.0,0.0,0.0,0.0,0.0,,,,,,,,,,,,,
28,502654,1745298967473,0.0,-23.0,,-0.09,-0.26,0.97,-1.0,0.0,0.0,1.01,1.15,88.0,3620.0,25.7,4.94,,13.68,1.249,97.0,,26.6,5.0,,,,,,,,,,,,0.0,0.0,0.0,0.0,0.0,0.0,0.0,0.0,0.0,0.0,0.0,0.0,0.0,0.0,0.0,0.0,,,,,,0.0,,,,,,,
29,502674,1745298967493,,,,,,,,,,,,,,,,,,,,,,,0.0,22.0,0.0,0.0,0.0,24.0,0.0,0.0,2.26,,,0.0,0.0,0.0,0.0,0.0,0.0,0.0,0.0,0.0,0.0,0.0,0.0,0.0,0.0,0.0,0.0,,0.0,,,,,38.986019,-76.95002,0.05,50.3,35.0,3.0,0.7
30,502694,1745298967513,0.0,-12.0,,-0.07,-0.25,0.97,-2.0,0.0,0.0,1.0,1.15,87.0,3561.0,25.9,4.97,,13.87,1.249,97.0,,26.6,5.0,,,,,,,,,,,,0.0,0.0,0.0,0.0,0.0,0.0,0.0,0.0,0.0,0.0,0.0,0.0,0.0,0.0,0.0,0.0,,,,,,0.0,,,,,,,
31,502714,1745298967533,,,,,,,,,,,,,,,,,,,,,,,,,,,,,,,,,,0.0,0.0,0.0,0.0,0.0,0.0,0.0,0.0,0.0,0.0,0.0,0.0,0.0,0.0,0.0,0.0,,,,,,,,,,,,,
32,502734,1745298967553,0.0,-15.0,,-0.08,-0.14,0.98,0.0,0.0,0.0,0.99,1.15,86.0,3970.0,0.0,2.72,,12.97,1.25,97.0,,26.6,5.0,,,,,,,,,,,,0.0,0.0,0.0,0.0,0.0,0.0,0.0,0.0,0.0,0.0,0.0,0.0,0.0,0.0,0.0,0.0,,,,,,0.0,,,,,,,
33,502754,1745298967573,,,,,,,,,,,,,,,,,,,,,,,,,,,,,,,,,,0.0,0.0,0.0,0.0,0.0,0.0,0.0,0.0,0.0,0.0,0.0,0.0,0.0,0.0,0.0,0.0,,,,,,,,,,,,,
34,502774,1745298967593,0.0,-8.0,,-0.05,-0.11,1.04,0.0,0.0,0.0,1.05,1.15,91.0,3964.0,0.0,2.66,,12.97,1.25,97.0,,30.1,5.0,0.0,22.0,0.0,0.0,0.0,24.0,0.0,0.0,2.26,,,0.0,0.0,0.0,0.0,0.0,0.0,0.0,0.0,0.0,0.0,0.0,0.0,0.0,0.0,0.0,0.0,,0.0,,,,0.0,38.986019,-76.95002,0.05,50.3,35.0,3.0,0.7
35,502794,1745298967613,,,,,,,,,,,,,,,,,,,,,,,,,,,,,,,,,,0.0,0.0,0.0,0.0,0.0,0.0,0.0,0.0,0.0,0.0,0.0,0.0,0.0,0.0,0.0,0.0,,,,,,,,,,,,,
36,502814,1745298967633,0.0,-4.0,,-0.04,-0.14,1.03,-2.0,0.0,0.0,1.04,1.15,91.0,3964.0,0.0,2.66,,12.25,1.252,97.0,,30.1,5.0,,,,,,,,,,,,0.0,0.0,0.0,0.0,0.0,0.0,0.0,0.0,0.0,0.0,0.0,0.0,0.0,0.0,0.0,0.0,,,,,,0.0,,,,,,,
37,502834,1745298967653,,,,,,,,,,,,,,,,,,,,,,,,,,,,,,,,,,0.0,0.0,0.0,0.0,0.0,0.0,0.0,0.0,0.0,0.0,0.0,0.0,0.0,0.0,0.0,0.0,,,,,,,,,,,,,
38,502854,1745298967673,0.0,-8.0,,-0.05,-0.1,1.01,-2.0,0.0,0.0,1.02,1.15,89.0,3870.0,0.0,2.67,,11.81,1.252,97.0,,28.3,5.0,,,,,,,,,,,,0.0,0.0,0.0,0.0,0.0,0.0,0.0,0.0,0.0,0.0,0.0,0.0,0.0,0.0,0.0,0.0,,,,,,0.0,,,,,,,
39,502874,1745298967693,,,,,,,,,,,,,,,,,,,,,,,0.0,22.0,0.0,0.0,0.0,24.0,0.0,0.0,2.26,,,0.0,0.0,0.0,0.0,0.0,0.0,0.0,0.0,0.0,0.0,0.0,0.0,0.0,0.0,0.0,0.0,,0.0,,,,,38.986019,-76.95002,0.0,50.3,35.0,3.0,0.7
40,502894,1745298967715,0.0,-15.0,,-0.05,-0.07,1.01,-2.0,0.0,0.0,1.01,1.15,88.0,3777.0,0.0,2.72,,11.61,1.252,97.0,,28.3,5.0,,,,,,,,,,,,0.0,0.0,0.0,0.0,0.0,0.0,0.0,0.0,0.0,0.0,0.0,0.0,0.0,0.0,0.0,0.0,,,,,,0.0,,,,,,,
41,502914,1745298967735,,,,,,,,,,,,,,,,,,,,,,,,,,,,,,,,,,0.0,0.0,0.0,0.0,0.0,0.0,0.0,0.0,0.0,0.0,0.0,0.0,0.0,0.0,0.0,0.0,,,,,,,,,,,,,
42,502934,1745298967755,0.0,-23.0,,-0.05,-0.04,1.02,0.0,0.0,0.0,1.02,1.15,89.0,3608.0,0.0,2.73,,11.54,1.251,97.0,,28.3,5.0,,,,,,,,,,,,0.0,0.0,0.0,0.0,0.0,0.0,0.0,0.0,0.0,0.0,0.0,0.0,0.0,0.0,0.0,0.0,,,,,,0.0,,,,,,,
43,502954,1745298967775,,,,,,,,,,,,,,,,,,,,,,,,,,,,,,,,,,0.0,0.0,0.0,0.0,0.0,0.0,0.0,0.0,0.0,0.0,0.0,0.0,0.0,0.0,0.0,0.0,,,,,,,,,,,,,
44,502974,1745298967795,0.0,-8.0,,-0.07,-0.04,0.96,1.0,0.0,0.0,0.97,1.15,84.0,3524.0,3.6,3.41,,11.54,1.251,97.0,,26.6,5.0,0.0,22.0,0.0,0.0,0.0,24.0,0.0,0.0,2.26,,,0.0,0.0,0.0,0.0,0.0,0.0,0.0,0.0,0.0,0.0,0.0,0.0,0.0,0.0,0.0,0.0,,0.0,,,,0.0,38.986019,-76.95002,0.0,50.3,35.0,3.0,0.7
45,502994,1745298967813,,,,,,,,,,,,,,,,,,,,,,,,,,,,,,,,,,0.0,0.0,0.0,0.0,0.0,0.0,0.0,0.0,0.0,0.0,0.0,0.0,0.0,0.0,0.0,0.0,,,,,,,,,,,,,
46,503014,1745298967833,0.0,-23.0,,-0.06,-0.06,1.05,-1.0,0.0,0.0,1.05,1.15,91.0,3524.0,3.6,3.41,,11.84,1.25,97.0,,26.6,5.0,,,,,,,,,,,,0.0,0.0,0.0,0.0,0.0,0.0,0.0,0.0,0.0,0.0,0.0,0.0,0.0,0.0,0.0,0.0,,,,,,0.0,,,,,,,
47,503034,1745298967853,,,,,,,,,,,,,,,,,,,,,,,,,,,,,,,,,,0.0,0.0,0.0,0.0,0.0,0.0,0.0,0.0,0.0,0.0,0.0,0.0,0.0,0.0,0.0,0.0,,,,,,,,,,,,,
48,503054,1745298967873,0.0,-15.0,,-0.07,-0.07,0.95,1.0,0.0,0.0,0.95,1.15,83.0,3370.0,14.2,4.13,,12.73,1.249,97.0,,25.7,5.0,,,,,,,,,,,,0.0,0.0,0.0,0.0,0.0,0.0,0.0,0.0,0.0,0.0,0.0,0.0,0.0,0.0,0.0,0.0,,,,,,0.0,,,,,,,
49,503074,1745298967893,,,,,,,,,,,,,,,,,,,,,,,0.0,22.0,0.0,0.0,0.0,24.0,0.0,0.0,2.26,,,0.0,0.0,0.0,0.0,0.0,0.0,0.0,0.0,0.0,0.0,0.0,0.0,0.0,0.0,0.0,0.0,,0.0,,,,,38.986019,-76.95002,0.0,50.3,35.0,3.0,0.7
50,503094,1745298967915,0.0,-8.0,,-0.07,-0.09,1.02,-1.0,0.0,0.0,1.03,1.15,89.0,3441.0,17.2,4.44,,13.49,1.249,97.0,,25.7,5.0,,,,,,,,,,,,0.0,0.0,0.0,0.0,0.0,0.0,0.0,0.0,0.0,0.0,0.0,0.0,0.0,0.0,0.0,0.0,,,,,,0.0,,,,,,,
51,503114,1745298967935,,,,,,,,,,,,,,,,,,,,,,,,,,,,,,,,,,0.0,0.0,0.0,0.0,0.0,0.0,0.0,0.0,0.0,0.0,0.0,0.0,0.0,0.0,0.0,0.0,,,,,,,,,,,,,
52,503134,1745298967955,0.0,-19.0,,-0.06,0.04,1.02,0.0,0.0,1.0,1.02,1.15,89.0,3494.0,17.2,4.32,,13.61,1.249,97.0,,25.7,5.0,,,,,,,,,,,,0.0,0.0,0.0,0.0,0.0,0.0,0.0,0.0,0.0,0.0,0.0,0.0,0.0,0.0,0.0,0.0,,,,,,0.0,,,,,,,
53,503154,1745298967975,,,,,,,,,,,,,,,,,,,,,,,,,,,,,,,,,,0.0,0.0,0.0,0.0,0.0,0.0,0.0,0.0,0.0,0.0,0.0,0.0,0.0,0.0,0.0,0.0,,,,,,,,,,,,,
54,503174,1745298967995,0.0,0.0,,-0.06,0.13,1.01,1.0,0.0,0.0,1.02,1.15,89.0,3667.0,0.0,2.83,,13.61,1.249,97.0,,26.3,5.0,0.0,22.0,0.0,0.0,0.0,24.0,0.0,0.0,2.26,,,0.0,0.0,0.0,0.0,0.0,0.0,0.0,0.0,0.0,0.0,0.0,0.0,0.0,0.0,0.0,0.0,,0.0,,,,0.0,38.986019,-76.95002,0.0,50.3,35.0,3.0,0.7
55,503194,1745298968006,,,,,,,,,,,,,,,,,,,,,,,,,,,,,,,,,,0.0,0.0,0.0,0.0,0.0,0.0,0.0,0.0,0.0,0.0,0.0,0.0,0.0,0.0,0.0,0.0,,,,,,,,,,,,,
56,503214,1745298968026,0.0,3.0,,-0.06,0.08,0.98,2.0,0.0,0.0,0.99,1.15,86.0,3667.0,0.0,2.83,,12.96,1.249,97.0,,26.3,5.0,,,,,,,,,,,,0.0,0.0,0.0,0.0,0.0,0.0,0.0,0.0,0.0,0.0,0.0,0.0,0.0,0.0,0.0,0.0,,,,,,0.0,,,,,,,
57,503234,1745298968046,,,,,,,,,,,,,,,,,,,,,,,,,,,,,,,,,,0.0,0.0,0.0,0.0,0.0,0.0,0.0,0.0,0.0,0.0,0.0,0.0,0.0,0.0,0.0,0.0,,,,,,,,,,,,,
58,503254,1745298968066,0.0,3.0,,-0.09,0.08,0.97,1.0,0.0,0.0,0.97,1.15,84.0,3658.0,0.0,2.71,,12.4,1.213,97.0,,27.5,5.0,,,,,,,,,,,,0.0,0.0,0.0,0.0,0.0,0.0,0.0,0.0,0.0,0.0,0.0,0.0,0.0,0.0,0.0,0.0,,,,,,0.0,,,,,,,
59,503274,1745298968086,,,,,,,,,,,,,,,,,,,,,,,0.0,22.0,0.0,0.0,0.0,24.0,0.0,0.0,2.26,,,0.0,0.0,0.0,0.0,0.0,0.0,0.0,0.0,0.0,0.0,0.0,0.0,0.0,0.0,0.0,0.0,,0.0,,,,,38.986019,-76.95002,0.07,50.3,35.0,3.0,0.7
60,503294,1745298968104,0.0,-23.0,,-0.1,-0.02,1.02,0.0,0.0,0.0,1.02,1.15,89.0,3605.0,0.0,2.72,,12.11,1.194,97.0,,27.5,5.0,,,,,,,,,,,,0.0,0.0,0.0,0.0,0.0,0.0,0.0,0.0,0.0,0.0,0.0,0.0,0.0,0.0,0.0,0.0,,,,,,0.0,,,,,,,
61,503314,1745298968124,,,,,,,,,,,,,,,,,,,,,,,,,,,,,,,,,,0.0,0.0,0.0,0.0,0.0,0.0,0.0,0.0,0.0,0.0,0.0,0.0,0.0,0.0,0.0,0.0,,,,,,,,,,,,,
62,503334,1745298968144,0.0,-19.0,,-0.07,0.14,1.03,0.0,0.0,0.0,1.04,1.15,91.0,3477.0,0.0,2.73,,11.92,1.209,97.0,,27.5,5.0,,,,,,,,,,,,0.0,0.0,0.0,0.0,0.0,0.0,0.0,0.0,0.0,0.0,0.0,0.0,0.0,0.0,0.0,0.0,,,,,,0.0,,,,,,,
63,503354,1745298968164,,,,,,,,,,,,,,,,,,,,,,,,,,,,,,,,,,0.0,0.0,0.0,0.0,0.0,0.0,0.0,0.0,0.0,0.0,0.0,0.0,0.0,0.0,0.0,0.0,,,,,,,,,,,,,
64,503374,1745298968184,0.0,-8.0,,-0.09,0.13,0.98,1.0,0.0,0.0,0.99,1.15,86.0,3396.0,6.8,3.93,,11.92,1.209,97.0,,25.7,5.0,0.0,22.0,0.0,0.0,0.0,24.0,0.0,0.0,2.25,,,0.0,0.0,0.0,0.0,0.0,0.0,0.0,0.0,0.0,0.0,0.0,0.0,0.0,0.0,0.0,0.0,,0.0,,,,0.0,38.986019,-76.95002,0.08,50.3,35.0,3.0,0.7
65,503394,1745298968214,,,,,,,,,,,,,,,,,,,,,,,,,,,,,,,,,,0.0,0.0,0.0,0.0,0.0,0.0,0.0,0.0,0.0,0.0,0.0,0.0,0.0,0.0,0.0,0.0,,,,,,,,,,,,,
66,503414,1745298968234,0.0,-8.0,,-0.07,0.14,1.01,0.0,0.0,0.0,1.02,1.15,89.0,3396.0,6.8,3.93,,12.32,1.25,97.0,,25.7,5.0,,,,,,,,,,,,0.0,0.0,0.0,0.0,0.0,0.0,0.0,0.0,0.0,0.0,0.0,0.0,0.0,0.0,0.0,0.0,,,,,,0.0,,,,,,,
67,503434,1745298968254,,,,,,,,,,,,,,,,,,,,,,,,,,,,,,,,,,0.0,0.0,0.0,0.0,0.0,0.0,0.0,0.0,0.0,0.0,0.0,0.0,0.0,0.0,0.0,0.0,,,,,,,,,,,,,
68,503454,1745298968274,0.0,-15.0,,-0.1,0.07,1.0,0.0,0.0,0.0,1.0,1.15,87.0,3327.0,9.1,3.99,,12.85,1.252,97.0,,25.1,5.0,,,,,,,,,,,,0.0,0.0,0.0,0.0,0.0,0.0,0.0,0.0,0.0,0.0,0.0,0.0,0.0,0.0,0.0,0.0,,,,,,0.0,,,,,,,
69,503474,1745298968294,,,,,,,,,,,,,,,,,,,,,,,0.0,0.0,0.0,0.0,0.0,0.0,0.0,0.0,2.25,,,0.0,0.0,0.0,0.0,0.0,0.0,0.0,0.0,0.0,0.0,0.0,0.0,0.0,0.0,0.0,0.0,,0.0,,,,,38.986019,-76.95002,0.06,50.3,35.0,3.0,0.7
70,503494,1745298968314,0.0,0.0,,-0.06,0.1,1.0,0.0,0.0,0.0,1.01,1.15,88.0,3357.0,11.5,4.08,,13.25,1.251,97.0,,25.1,5.0,,,,,,,,,,,,0.0,0.0,0.0,0.0,0.0,0.0,0.0,0.0,0.0,0.0,0.0,0.0,0.0,0.0,0.0,0.0,,,,,,0.0,,,,,,,
71,503514,1745298968334,,,,,,,,,,,,,,,,,,,,,,,,,,,,,,,,,,0.0,0.0,0.0,0.0,0.0,0.0,0.0,0.0,0.0,0.0,0.0,0.0,0.0,0.0,0.0,0.0,,,,,,,,,,,,,
72,503534,1745298968354,0.0,-27.0,,-0.09,0.12,0.97,1.0,0.0,0.0,0.98,1.15,85.0,3475.0,11.6,3.98,,13.29,1.249,97.0,,25.1,5.0,,,,,,,,,,,,0.0,0.0,0.0,0.0,0.0,0.0,0.0,0.0,0.0,0.0,0.0,0.0,0.0,0.0,0.0,0.0,,,,,,0.0,,,,,,,
73,503554,1745298968374,,,,,,,,,,,,,,,,,,,,,,,,,,,,,,,,,,0.0,0.0,0.0,0.0,0.0,0.0,0.0,0.0,0.0,0.0,0.0,0.0,0.0,0.0,0.0,0.0,,,,,,,,,,,,,
74,503574,1745298968394,0.0,-15.0,13.23,-0.1,0.1,1.03,-1.0,0.0,0.0,1.03,1.15,90.0,3517.0,0.0,2.76,15.0,13.29,1.249,97.0,171.0,26.2,5.0,0.0,0.0,0.0,0.0,0.0,0.0,0.0,0.0,2.26,0.0,1.0,0.0,0.0,0.0,0.0,0.0,0.0,0.0,0.0,0.0,0.0,0.0,0.0,0.0,0.0,0.0,0.0,0.0,0.0,1.0,0.0,0.0,0.0,38.986019,-76.95002,0.05,50.3,35.0,3.0,0.7
75,503594,1745298968414,,,,,,,,,,,,,,,,,,,,,,,,,,,,,,,,,,0.0,0.0,0.0,0.0,0.0,0.0,0.0,0.0,0.0,0.0,0.0,0.0,0.0,0.0,0.0,0.0,,,,,,,,,,,,,
76,503614,1745298968434,0.0,-8.0,,-0.07,0.19,1.02,0.0,0.0,0.0,1.04,1.15,91.0,3517.0,0.0,2.76,,12.81,1.248,97.0,,26.2,5.0,,,,,,,,,,,,0.0,0.0,0.0,0.0,0.0,0.0,0.0,0.0,0.0,0.0,0.0,0.0,0.0,0.0,0.0,0.0,,,,,,0.0,,,,,,,
77,503634,1745298968454,,,,,,,,,,,,,,,,,,,,,,,,,,,,,,,,,,0.0,0.0,0.0,0.0,0.0,0.0,0.0,0.0,0.0,0.0,0.0,0.0,0.0,0.0,0.0,0.0,,,,,,,,,,,,,
78,503654,1745298968474,0.0,-15.0,,-0.09,0.15,0.97,1.0,0.0,0.0,0.99,1.15,86.0,3499.0,0.0,2.74,,12.41,1.223,97.0,,25.8,5.0,,,,,,,,,,,,0.0,0.0,0.0,0.0,0.0,0.0,0.0,0.0,0.0,0.0,0.0,0.0,0.0,0.0,0.0,0.0,,,,,,0.0,,,,,,,
79,503674,1745298968494,,,,,,,,,,,,,,,,,,,,,,,0.0,0.0,0.0,0.0,0.0,0.0,0.0,0.0,2.26,,,0.0,0.0,0.0,0.0,0.0,0.0,0.0,0.0,0.0,0.0,0.0,0.0,0.0,0.0,0.0,0.0,,0.0,,,,,38.986019,-76.95002,0.04,50.3,35.0,3.0,0.7
80,503694,1745298968514,0.0,-12.0,,-0.06,0.15,1.01,0.0,0.0,0.0,1.02,1.15,89.0,3338.0,0.0,2.77,,12.24,1.207,97.0,,25.8,5.0,,,,,,,,,,,,0.0,0.0,0.0,0.0,0.0,0.0,0.0,0.0,0.0,0.0,0.0,0.0,0.0,0.0,0.0,0.0,,,,,,0.0,,,,,,,
81,503714,1745298968534,,,,,,,,,,,,,,,,,,,,,,,,,,,,,,,,,,0.0,0.0,0.0,0.0,0.0,0.0,0.0,0.0,0.0,0.0,0.0,0.0,0.0,0.0,0.0,0.0,,,,,,,,,,,,,
82,503734,1745298968554,0.0,-27.0,,-0.08,0.08,1.06,-1.0,0.0,0.0,1.07,1.15,93.0,3226.0,8.1,3.49,,12.64,1.219,97.0,,25.8,5.0,,,,,,,,,,,,0.0,0.0,0.0,0.0,0.0,0.0,0.0,0.0,0.0,0.0,0.0,0.0,0.0,0.0,0.0,0.0,,,,,,0.0,,,,,,,
83,503754,1745298968574,,,,,,,,,,,,,,,,,,,,,,,,,,,,,,,,,,0.0,0.0,0.0,0.0,0.0,0.0,0.0,0.0,0.0,0.0,0.0,0.0,0.0,0.0,0.0,0.0,,,,,,,,,,,,,
84,503774,1745298968594,0.0,-27.0,,-0.11,0.11,0.98,0.0,0.0,0.0,0.99,1.15,86.0,3217.0,11.3,4.05,,12.64,1.219,97.0,,23.3,5.0,0.0,0.0,0.0,0.0,0.0,0.0,0.0,0.0,2.26,,,0.0,0.0,0.0,0.0,0.0,0.0,0.0,0.0,0.0,0.0,0.0,0.0,0.0,0.0,0.0,0.0,,0.0,,,,0.0,38.986019,-76.95002,0.05,50.3,35.0,3.0,0.7
85,503794,1745298968614,,,,,,,,,,,,,,,,,,,,,,,,,,,,,,,,,,0.0,0.0,0.0,0.0,0.0,0.0,0.0,0.0,0.0,0.0,0.0,0.0,0.0,0.0,0.0,0.0,,,,,,,,,,,,,
86,503814,1745298968634,0.0,-19.0,,-0.08,0.16,0.96,1.0,0.0,0.0,0.98,1.15,85.0,3217.0,11.3,4.05,,13.17,1.251,97.0,,23.3,5.0,,,,,,,,,,,,0.0,0.0,0.0,0.0,0.0,0.0,0.0,0.0,0.0,0.0,0.0,0.0,0.0,0.0,0.0,0.0,,,,,,0.0,,,,,,,
87,503834,1745298968654,,,,,,,,,,,,,,,,,,,,,,,,,,,,,,,,,,0.0,0.0,0.0,0.0,0.0,0.0,0.0,0.0,0.0,0.0,0.0,0.0,0.0,0.0,0.0,0.0,,,,,,,,,,,,,
88,503854,1745298968674,0.0,-4.0,,-0.1,0.01,1.01,-1.0,0.0,0.0,1.02,1.15,88.0,3265.0,12.3,4.1,,13.45,1.252,97.0,,25.0,5.0,,,,,,,,,,,,0.0,0.0,0.0,0.0,0.0,0.0,0.0,0.0,0.0,0.0,0.0,0.0,0.0,0.0,0.0,0.0,,,,,,0.0,,,,,,,
89,503874,1745298968694,,,,,,,,,,,,,,,,,,,,,,,0.0,0.0,0.0,0.0,0.0,0.0,0.0,0.0,2.25,,,0.0,0.0,0.0,0.0,0.0,0.0,0.0,0.0,0.0,0.0,0.0,0.0,0.0,0.0,0.0,0.0,,0.0,,,,,38.986019,-76.95002,0.05,50.3,35.0,3.0,0.7
90,503894,1745298968714,0.0,-15.0,,-0.08,0.11,1.0,0.0,0.0,0.0,1.01,1.15,88.0,3472.0,0.0,2.84,,13.16,1.252,97.0,,25.0,5.0,,,,,,,,,,,,0.0,0.0,0.0,0.0,0.0,0.0,0.0,0.0,0.0,0.0,0.0,0.0,0.0,0.0,0.0,0.0,,,,,,0.0,,,,,,,
91,503914,1745298968734,,,,,,,,,,,,,,,,,,,,,,,,,,,,,,,,,,0.0,0.0,0.0,0.0,0.0,0.0,0.0,0.0,0.0,0.0,0.0,0.0,0.0,0.0,0.0,0.0,,,,,,,,,,,,,
92,503934,1745298968754,0.0,-27.0,,-0.09,0.08,0.95,1.0,0.0,0.0,0.95,1.15,83.0,3480.0,0.0,2.75,,12.64,1.252,97.0,,25.0,5.0,,,,,,,,,,,,0.0,0.0,0.0,0.0,0.0,0.0,0.0,0.0,0.0,0.0,0.0,0.0,0.0,0.0,0.0,0.0,,,,,,0.0,,,,,,,
93,503954,1745298968774,,,,,,,,,,,,,,,,,,,,,,,,,,,,,,,,,,0.0,0.0,0.0,0.0,0.0,0.0,0.0,0.0,0.0,0.0,0.0,0.0,0.0,0.0,0.0,0.0,,,,,,,,,,,,,
94,503974,1745298968794,0.0,-38.0,,-0.08,0.04,1.03,-1.0,0.0,0.0,1.03,1.15,90.0,3394.0,0.0,2.76,,12.64,1.252,97.0,,25.8,5.0,0.0,0.0,0.0,0.0,0.0,0.0,0.0,0.0,2.25,,,0.0,0.0,0.0,0.0,0.0,0.0,0.0,0.0,0.0,0.0,0.0,0.0,0.0,0.0,0.0,0.0,,0.0,,,,0.0,38.986019,-76.95002,0.11,50.3,35.0,3.0,0.7
95,503994,1745298968812,,,,,,,,,,,,,,,,,,,,,,,,,,,,,,,,,,0.0,0.0,0.0,0.0,0.0,0.0,0.0,0.0,0.0,0.0,0.0,0.0,0.0,0.0,0.0,0.0,,,,,,,,,,,,,
96,504014,1745298968832,0.0,3.0,,-0.11,0.02,0.98,1.0,0.0,0.0,0.99,1.15,86.0,3394.0,0.0,2.76,,12.44,1.25,97.0,,25.8,5.0,,,,,,,,,,,,0.0,0.0,0.0,0.0,0.0,0.0,0.0,0.0,0.0,0.0,0.0,0.0,0.0,0.0,0.0,0.0,,,,,,0.0,,,,,,,
97,504034,1745298968852,,,,,,,,,,,,,,,,,,,,,,,,,,,,,,,,,,0.0,0.0,0.0,0.0,0.0,0.0,0.0,0.0,0.0,0.0,0.0,0.0,0.0,0.0,0.0,0.0,,,,,,,,,,,,,
98,504054,1745298968872,0.0,-15.0,,-0.08,0.11,0.98,1.0,0.0,0.0,0.99,1.15,86.0,3313.0,0.0,2.81,,12.2,1.249,97.0,,24.7,5.0,,,,,,,,,,,,0.0,0.0,0.0,0.0,0.0,0.0,0.0,0.0,0.0,0.0,0.0,0.0,0.0,0.0,0.0,0.0,,,,,,0.0,,,,,,,
99,504074,1745298968892,,,,,,,,,,,,,,,,,,,,,,,0.0,0.0,0.0,0.0,0.0,0.0,0.0,0.0,2.25,,,0.0,0.0,0.0,0.0,0.0,0.0,0.0,0.0,0.0,0.0,0.0,0.0,0.0,0.0,0.0,0.0,,0.0,,,,,38.986019,-76.95002,0.05,50.3,35.0,3.0,0.7
100,504094,1745298968914,0.0,0.0,,-0.06,0.01,1.06,-1.0,0.0,0.0,1.07,1.15,93.0,3168.0,0.0,2.84,,12.13,1.249,97.0,,24.7,5.0,,,,,,,,,,,,0.0,0.0,0.0,0.0,0.0,0.0,0.0,0.0,0.0,0.0,0.0,0.0,0.0,0.0,0.0,0.0,,,,,,0.0,,,,,,,
101,504114,1745298968934,,,,,,,,,,,,,,,,,,,,,,,,,,,,,,,,,,0.0,0.0,0.0,0.0,0.0,0.0,0.0,0.0,0.0,0.0,0.0,0.0,0.0,0.0,0.0,0.0,,,,,,,,,,,,,
102,504134,1745298968954,0.0,-38.0,,-0.07,-0.02,1.11,-1.0,0.0,0.0,1.11,1.15,97.0,3089.0,0.0,2.87,,12.2,1.249,97.0,,24.7,5.0,,,,,,,,,,,,0.0,0.0,0.0,0.0,0.0,0.0,0.0,0.0,0.0,0.0,0.0,0.0,0.0,0.0,0.0,0.0,,,,,,0.0,,,,,,,
103,504154,1745298968974,,,,,,,,,,,,,,,,,,,,,,,,,,,,,,,,,,0.0,0.0,0.0,0.0,0.0,0.0,0.0,0.0,0.0,0.0,0.0,0.0,0.0,0.0,0.0,0.0,,,,,,,,,,,,,
104,504174,1745298968994,0.0,-27.0,,-0.08,-0.05,1.15,-2.0,0.0,0.0,1.15,1.15,100.0,3021.0,0.0,2.93,,12.2,1.249,97.0,,22.3,5.0,0.0,0.0,0.0,0.0,0.0,0.0,0.0,0.0,2.26,,,0.0,0.0,0.0,0.0,0.0,0.0,0.0,0.0,0.0,0.0,0.0,0.0,0.0,0.0,0.0,0.0,,0.0,,,,0.0,38.986019,-76.95002,0.07,50.3,35.0,3.0,0.7
105,504194,1745298969004,,,,,,,,,,,,,,,,,,,,,,,,,,,,,,,,,,0.0,0.0,0.0,0.0,0.0,0.0,0.0,0.0,0.0,0.0,0.0,0.0,0.0,0.0,0.0,0.0,,,,,,,,,,,,,
106,504214,1745298969024,0.0,-19.0,,-0.08,-0.06,1.18,-2.0,0.0,0.0,1.18,1.18,100.0,3021.0,0.0,2.93,,12.23,1.249,97.0,,22.3,5.0,,,,,,,,,,,,0.0,0.0,0.0,0.0,0.0,0.0,0.0,0.0,0.0,0.0,0.0,0.0,0.0,0.0,0.0,0.0,,,,,,0.0,,,,,,,
107,504294,1745298969111,0.0,3.0,,-0.03,-0.05,1.14,-3.0,0.0,1.0,1.14,1.19,96.0,2819.0,5.0,3.74,,12.92,1.252,97.0,,21.3,5.0,,,,,,,,,,,,0.0,0.0,0.0,0.0,0.0,0.0,0.0,0.0,0.0,0.0,0.0,0.0,0.0,0.0,0.0,0.0,,,,,,0.0,,,,,,,
108,504374,1745298969191,0.0,-83.0,,-0.03,-0.01,0.98,0.0,0.0,0.0,0.98,1.19,82.0,2989.0,0.0,3.02,,13.07,1.252,97.0,,21.6,5.0,0.0,0.0,0.0,0.0,0.0,0.0,0.0,0.0,2.25,,,0.0,0.0,0.0,0.0,0.0,0.0,0.0,0.0,0.0,0.0,0.0,0.0,0.0,0.0,0.0,0.0,,0.0,,,,0.0,38.986019,-76.95002,0.04,50.3,35.0,3.0,0.7
109,504474,1745298969293,,,,,,,,,,,,,,,,,,,,,,,0.0,0.0,0.0,0.0,0.0,0.0,0.0,0.0,2.26,,,0.0,0.0,0.0,0.0,0.0,0.0,0.0,0.0,0.0,0.0,0.0,0.0,0.0,0.0,0.0,0.0,,0.0,,,,,38.986019,-76.95002,0.11,50.3,35.0,3.0,0.7
110,504554,1745298969375,,,,,,,,,,,,,,,,,,,,,,,,,,,,,,,,,,0.0,0.0,0.0,0.0,0.0,0.0,0.0,0.0,0.0,0.0,0.0,0.0,0.0,0.0,0.0,0.0,,,,,,,,,,,,,
111,504654,1745298969475,0.0,-83.0,,-0.08,-0.05,0.96,0.0,0.0,0.0,0.96,1.19,81.0,2632.0,10.7,3.86,,13.59,1.248,97.0,,20.2,5.0,,,,,,,,,,,,0.0,0.0,0.0,0.0,0.0,0.0,0.0,0.0,0.0,0.0,0.0,0.0,0.0,0.0,0.0,0.0,,,,,,0.0,,,,,,,
112,504674,1745298969495,,,,,,,,,,,,,,,,,,,,,,,0.0,0.0,0.0,0.0,0.0,0.0,0.0,0.0,2.25,,,0.0,0.0,0.0,0.0,0.0,0.0,0.0,0.0,0.0,0.0,0.0,0.0,0.0,0.0,0.0,0.0,,0.0,,,,,38.986019,-76.95002,0.05,50.3,35.0,3.0,0.7
113,504694,1745298969515,0.0,-15.0,,-0.09,-0.05,1.01,0.0,0.0,0.0,1.01,1.19,85.0,2695.0,12.1,3.95,,13.79,1.25,97.0,,20.2,5.0,,,,,,,,,,,,0.0,0.0,0.0,0.0,0.0,0.0,0.0,0.0,0.0,0.0,0.0,0.0,0.0,0.0,0.0,0.0,,,,,,0.0,,,,,,,
114,504734,1745298969555,0.0,-27.0,,-0.08,-0.06,1.03,-1.0,0.0,0.0,1.03,1.19,86.0,2875.0,0.0,3.79,,13.49,1.251,97.0,,20.2,5.0,,,,,,,,,,,,0.0,0.0,0.0,0.0,0.0,0.0,0.0,0.0,0.0,0.0,0.0,0.0,0.0,0.0,0.0,0.0,,,,,,0.0,,,,,,,
115,504754,1745298969575,,,,,,,,,,,,,,,,,,,,,,,,,,,,,,,,,,0.0,0.0,0.0,0.0,0.0,0.0,0.0,0.0,0.0,0.0,0.0,0.0,0.0,0.0,0.0,0.0,,,,,,,,,,,,,
116,504774,1745298969595,0.0,-15.0,,-0.06,-0.02,1.03,-1.0,0.0,0.0,1.03,1.19,87.0,2952.0,0.0,3.07,,13.49,1.251,97.0,,20.9,5.0,0.0,0.0,0.0,0.0,0.0,0.0,0.0,0.0,2.26,,,0.0,0.0,0.0,0.0,0.0,0.0,0.0,0.0,0.0,0.0,0.0,0.0,0.0,0.0,0.0,0.0,,0.0,,,,0.0,38.986019,-76.95002,0.21,50.3,35.0,3.0,0.7
117,504794,1745298969615,,,,,,,,,,,,,,,,,,,,,,,,,,,,,,,,,,0.0,0.0,0.0,0.0,0.0,0.0,0.0,0.0,0.0,0.0,0.0,0.0,0.0,0.0,0.0,0.0,,,,,,,,,,,,,
118,504814,1745298969635,0.0,-4.0,,-0.02,0.02,1.02,0.0,0.0,1.0,1.03,1.19,86.0,2952.0,0.0,3.07,,13.09,1.252,97.0,,20.9,5.0,,,,,,,,,,,,0.0,0.0,0.0,0.0,0.0,0.0,0.0,0.0,0.0,0.0,0.0,0.0,0.0,0.0,0.0,0.0,,,,,,0.0,,,,,,,
119,504834,1745298969655,,,,,,,,,,,,,,,,,,,,,,,,,,,,,,,,,,0.0,0.0,0.0,0.0,0.0,0.0,0.0,0.0,0.0,0.0,0.0,0.0,0.0,0.0,0.0,0.0,,,,,,,,,,,,,
120,504854,1745298969675,0.0,-15.0,,0.01,0.05,0.99,0.0,0.0,1.0,0.99,1.19,83.0,2947.0,0.0,2.97,,12.89,1.252,97.0,,21.8,5.0,,,,,,,,,,,,0.0,0.0,0.0,0.0,0.0,0.0,0.0,0.0,0.0,0.0,0.0,0.0,0.0,0.0,0.0,0.0,,,,,,0.0,,,,,,,
121,504874,1745298969695,,,,,,,,,,,,,,,,,,,,,,,0.0,0.0,0.0,0.0,0.0,0.0,0.0,0.0,2.26,,,0.0,0.0,0.0,0.0,0.0,0.0,0.0,0.0,0.0,0.0,0.0,0.0,0.0,0.0,0.0,0.0,,0.0,,,,,38.986019,-76.95002,0.43,50.3,35.0,3.0,0.7
122,504894,1745298969715,0.0,-8.0,,0.01,0.07,0.92,1.0,0.0,0.0,0.93,1.19,78.0,2878.0,6.7,3.83,,13.04,1.252,97.0,,21.8,5.0,,,,,,,,,,,,0.0,0.0,0.0,0.0,0.0,0.0,0.0,0.0,0.0,0.0,0.0,0.0,0.0,0.0,0.0,0.0,,,,,,0.0,,,,,,,
123,504914,1745298969735,,,,,,,,,,,,,,,,,,,,,,,,,,,,,,,,,,0.0,0.0,0.0,0.0,0.0,0.0,0.0,0.0,0.0,0.0,0.0,0.0,0.0,0.0,0.0,0.0,,,,,,,,,,,,,
124,504934,1745298969755,0.0,-27.0,,-0.03,0.06,0.88,2.0,0.0,0.0,0.88,1.19,74.0,2971.0,13.4,4.24,,13.56,1.251,97.0,,21.8,5.0,,,,,,,,,,,,0.0,0.0,0.0,0.0,0.0,0.0,0.0,0.0,0.0,0.0,0.0,0.0,0.0,0.0,0.0,0.0,,,,,,0.0,,,,,,,
125,504954,1745298969775,,,,,,,,,,,,,,,,,,,,,,,,,,,,,,,,,,0.0,0.0,0.0,0.0,0.0,0.0,0.0,0.0,0.0,0.0,0.0,0.0,0.0,0.0,0.0,0.0,,,,,,,,,,,,,
126,504974,1745298969795,0.0,-8.0,,-0.06,0.07,0.82,3.0,0.0,0.0,0.82,1.19,69.0,3091.0,14.2,4.3,,13.56,1.251,97.0,,21.6,5.0,0.0,0.0,0.0,0.0,0.0,0.0,0.0,0.0,2.26,,,0.0,0.0,0.0,0.0,0.0,0.0,0.0,0.0,0.0,0.0,0.0,0.0,0.0,0.0,0.0,0.0,,0.0,,,,0.0,38.986019,-76.95002,0.31,50.3,35.0,3.0,0.7
127,504994,1745298969815,,,,,,,,,,,,,,,,,,,,,,,,,,,,,,,,,,0.0,0.0,0.0,0.0,0.0,0.0,0.0,0.0,0.0,0.0,0.0,0.0,0.0,0.0,0.0,0.0,,,,,,,,,,,,,
128,505014,1745298969835,0.0,-8.0,,-0.06,0.13,0.78,3.0,0.0,0.0,0.79,1.19,66.0,3091.0,14.2,4.3,,13.68,1.249,97.0,,21.6,5.0,,,,,,,,,,,,0.0,0.0,0.0,0.0,0.0,0.0,0.0,0.0,0.0,0.0,0.0,0.0,0.0,0.0,0.0,0.0,,,,,,0.0,,,,,,,
129,505034,1745298969855,,,,,,,,,,,,,,,,,,,,,,,,,,,,,,,,,,0.0,0.0,0.0,0.0,0.0,0.0,0.0,0.0,0.0,0.0,0.0,0.0,0.0,0.0,0.0,0.0,,,,,,,,,,,,,
130,505054,1745298969875,0.0,-8.0,,-0.06,0.03,0.89,1.0,0.0,0.0,0.89,1.19,75.0,3238.0,13.3,4.12,,13.61,1.248,97.0,,24.7,5.0,,,,,,,,,,,,0.0,0.0,0.0,0.0,0.0,0.0,0.0,0.0,0.0,0.0,0.0,0.0,0.0,0.0,0.0,0.0,,,,,,0.0,,,,,,,
131,505074,1745298969895,,,,,,,,,,,,,,,,,,,,,,,0.0,0.0,0.0,0.0,0.0,0.0,0.0,0.0,2.26,,,0.0,0.0,0.0,0.0,0.0,0.0,0.0,0.0,0.0,0.0,0.0,0.0,0.0,0.0,0.0,0.0,,0.0,,,,,38.986019,-76.95002,0.25,50.3,35.0,3.0,0.7
132,505094,1745298969915,0.0,-8.0,,-0.05,0.07,0.85,3.0,0.0,0.0,0.85,1.19,71.0,3495.0,0.0,2.84,,12.99,1.249,97.0,,24.7,5.0,,,,,,,,,,,,0.0,0.0,0.0,0.0,0.0,0.0,0.0,0.0,0.0,0.0,0.0,0.0,0.0,0.0,0.0,0.0,,,,,,0.0,,,,,,,
133,505114,1745298969935,,,,,,,,,,,,,,,,,,,,,,,,,,,,,,,,,,0.0,0.0,0.0,0.0,0.0,0.0,0.0,0.0,0.0,0.0,0.0,0.0,0.0,0.0,0.0,0.0,,,,,,,,,,,,,
134,505134,1745298969955,0.0,-12.0,,-0.08,-0.06,0.85,2.0,0.0,-1.0,0.86,1.19,72.0,3459.0,0.0,2.75,,12.61,1.25,97.0,,24.7,5.0,,,,,,,,,,,,0.0,0.0,0.0,0.0,0.0,0.0,0.0,0.0,0.0,0.0,0.0,0.0,0.0,0.0,0.0,0.0,,,,,,0.0,,,,,,,
135,505154,1745298969975,,,,,,,,,,,,,,,,,,,,,,,,,,,,,,,,,,0.0,0.0,0.0,0.0,0.0,0.0,0.0,0.0,0.0,0.0,0.0,0.0,0.0,0.0,0.0,0.0,,,,,,,,,,,,,
136,505174,1745298969995,0.0,-8.0,,-0.06,-0.1,0.92,1.0,0.0,0.0,0.93,1.19,78.0,3410.0,0.0,2.75,,12.61,1.25,97.0,,25.7,5.0,0.0,0.0,0.0,0.0,0.0,0.0,0.0,0.0,2.26,,,0.0,0.0,0.0,0.0,0.0,0.0,0.0,0.0,0.0,0.0,0.0,0.0,0.0,0.0,0.0,0.0,,0.0,,,,0.0,38.986019,-76.95002,0.21,50.3,35.0,3.0,0.7
137,505194,1745298970006,,,,,,,,,,,,,,,,,,,,,,,,,,,,,,,,,,0.0,0.0,0.0,0.0,0.0,0.0,0.0,0.0,0.0,0.0,0.0,0.0,0.0,0.0,0.0,0.0,,,,,,,,,,,,,
138,505214,1745298970026,0.0,3.0,,-0.08,-0.11,0.88,2.0,0.0,-1.0,0.89,1.19,74.0,3410.0,0.0,2.75,,12.39,1.246,97.0,,25.7,5.0,,,,,,,,,,,,0.0,0.0,0.0,0.0,0.0,0.0,0.0,0.0,0.0,0.0,0.0,0.0,0.0,0.0,0.0,0.0,,,,,,0.0,,,,,,,
139,505234,1745298970046,,,,,,,,,,,,,,,,,,,,,,,,,,,,,,,,,,0.0,0.0,0.0,0.0,0.0,0.0,0.0,0.0,0.0,0.0,0.0,0.0,0.0,0.0,0.0,0.0,,,,,,,,,,,,,
140,505254,1745298970066,0.0,-12.0,,-0.05,-0.03,0.91,2.0,0.0,0.0,0.91,1.19,76.0,3358.0,0.0,2.81,,12.32,1.242,97.0,,24.6,5.0,,,,,,,,,,,,0.0,0.0,0.0,0.0,0.0,0.0,0.0,0.0,0.0,0.0,0.0,0.0,0.0,0.0,0.0,0.0,,,,,,0.0,,,,,,,
141,505274,1745298970086,,,,,,,,,,,,,,,,,,,,,,,0.0,0.0,0.0,0.0,0.0,0.0,0.0,0.0,2.26,,,0.0,0.0,0.0,0.0,0.0,0.0,0.0,0.0,0.0,0.0,0.0,0.0,0.0,0.0,0.0,0.0,,0.0,,,,,38.986019,-76.95002,0.05,50.3,35.0,3.0,0.7
142,505294,1745298970114,0.0,-15.0,,-0.06,-0.12,0.99,0.0,0.0,0.0,1.0,1.19,84.0,3215.0,6.0,3.88,,12.69,1.251,97.0,,24.6,5.0,,,,,,,,,,,,0.0,0.0,0.0,0.0,0.0,0.0,0.0,0.0,0.0,0.0,0.0,0.0,0.0,0.0,0.0,0.0,,,,,,0.0,,,,,,,
143,505314,1745298970134,,,,,,,,,,,,,,,,,,,,,,,,,,,,,,,,,,0.0,0.0,0.0,0.0,0.0,0.0,0.0,0.0,0.0,0.0,0.0,0.0,0.0,0.0,0.0,0.0,,,,,,,,,,,,,
144,505334,1745298970154,0.0,-12.0,,-0.09,-0.1,0.95,1.0,0.0,0.0,0.96,1.19,80.0,3236.0,6.3,3.8,,12.92,1.252,97.0,,24.6,5.0,,,,,,,,,,,,0.0,0.0,0.0,0.0,0.0,0.0,0.0,0.0,0.0,0.0,0.0,0.0,0.0,0.0,0.0,0.0,,,,,,0.0,,,,,,,
145,505354,1745298970174,,,,,,,,,,,,,,,,,,,,,,,,,,,,,,,,,,0.0,0.0,0.0,0.0,0.0,0.0,0.0,0.0,0.0,0.0,0.0,0.0,0.0,0.0,0.0,0.0,,,,,,,,,,,,,
146,505374,1745298970194,0.0,-23.0,,-0.07,-0.01,0.91,2.0,0.0,0.0,0.91,1.19,76.0,3292.0,0.0,3.79,,12.92,1.252,97.0,,23.5,5.0,0.0,0.0,0.0,0.0,0.0,0.0,0.0,0.0,2.26,,,0.0,0.0,0.0,0.0,0.0,0.0,0.0,0.0,0.0,0.0,0.0,0.0,0.0,0.0,0.0,0.0,,0.0,,,,0.0,38.986019,-76.95002,0.0,50.3,35.0,3.0,0.7
147,505394,1745298970212,,,,,,,,,,,,,,,,,,,,,,,,,,,,,,,,,,0.0,0.0,0.0,0.0,0.0,0.0,0.0,0.0,0.0,0.0,0.0,0.0,0.0,0.0,0.0,0.0,,,,,,,,,,,,,
148,505414,1745298970232,0.0,-8.0,,-0.07,-0.11,1.0,0.0,0.0,0.0,1.01,1.19,84.0,3292.0,0.0,3.79,,12.81,1.252,97.0,,23.5,5.0,,,,,,,,,,,,0.0,0.0,0.0,0.0,0.0,0.0,0.0,0.0,0.0,0.0,0.0,0.0,0.0,0.0,0.0,0.0,,,,,,0.0,,,,,,,
149,505434,1745298970252,,,,,,,,,,,,,,,,,,,,,,,,,,,,,,,,,,0.0,0.0,0.0,0.0,0.0,0.0,0.0,0.0,0.0,0.0,0.0,0.0,0.0,0.0,0.0,0.0,,,,,,,,,,,,,
150,505454,1745298970272,0.0,0.0,,-0.09,-0.08,0.91,2.0,0.0,0.0,0.92,1.19,77.0,3298.0,0.0,2.82,,12.59,1.25,97.0,,24.0,5.0,,,,,,,,,,,,0.0,0.0,0.0,0.0,0.0,0.0,0.0,0.0,0.0,0.0,0.0,0.0,0.0,0.0,0.0,0.0,,,,,,0.0,,,,,,,
151,505474,1745298970292,,,,,,,,,,,,,,,,,,,,,,,0.0,0.0,0.0,0.0,0.0,0.0,0.0,0.0,2.25,,,0.0,0.0,0.0,0.0,0.0,0.0,0.0,0.0,0.0,0.0,0.0,0.0,0.0,0.0,0.0,0.0,,0.0,,,,,38.986019,-76.95002,0.16,50.3,35.0,3.0,0.7
152,505494,1745298970314,0.0,0.0,,-0.06,-0.03,0.92,2.0,0.0,0.0,0.93,1.19,78.0,3247.0,0.0,2.86,,12.36,1.25,97.0,,24.0,5.0,,,,,,,,,,,,0.0,0.0,0.0,0.0,0.0,0.0,0.0,0.0,0.0,0.0,0.0,0.0,0.0,0.0,0.0,0.0,,,,,,0.0,,,,,,,
153,505514,1745298970334,,,,,,,,,,,,,,,,,,,,,,,,,,,,,,,,,,0.0,0.0,0.0,0.0,0.0,0.0,0.0,0.0,0.0,0.0,0.0,0.0,0.0,0.0,0.0,0.0,,,,,,,,,,,,,
154,505534,1745298970354,0.0,-15.0,,-0.05,-0.11,1.01,0.0,0.0,0.0,1.02,1.19,85.0,3171.0,0.0,2.87,,12.27,1.249,97.0,,24.0,5.0,,,,,,,,,,,,0.0,0.0,0.0,0.0,0.0,0.0,0.0,0.0,0.0,0.0,0.0,0.0,0.0,0.0,0.0,0.0,,,,,,0.0,,,,,,,
155,505554,1745298970374,,,,,,,,,,,,,,,,,,,,,,,,,,,,,,,,,,0.0,0.0,0.0,0.0,0.0,0.0,0.0,0.0,0.0,0.0,0.0,0.0,0.0,0.0,0.0,0.0,,,,,,,,,,,,,
156,505574,1745298970394,0.0,0.0,13.31,-0.05,-0.14,1.07,-1.0,0.0,0.0,1.08,1.19,91.0,3027.0,0.0,2.9,15.0,12.27,1.249,97.0,176.0,23.1,5.0,0.0,0.0,0.0,0.0,0.0,0.0,0.0,0.0,2.26,0.0,1.0,0.0,0.0,0.0,0.0,0.0,0.0,0.0,0.0,0.0,0.0,0.0,0.0,0.0,0.0,0.0,0.0,0.0,0.0,1.0,0.0,0.0,0.0,38.986019,-76.95002,0.04,50.3,35.0,3.0,0.7
157,505594,1745298970414,,,,,,,,,,,,,,,,,,,,,,,,,,,,,,,,,,0.0,0.0,0.0,0.0,0.0,0.0,0.0,0.0,0.0,0.0,0.0,0.0,0.0,0.0,0.0,0.0,,,,,,,,,,,,,
158,505614,1745298970434,0.0,-12.0,,-0.05,-0.15,1.11,-2.0,0.0,0.0,1.13,1.19,94.0,3027.0,0.0,2.9,,12.28,1.249,97.0,,23.1,5.0,,,,,,,,,,,,0.0,0.0,0.0,0.0,0.0,0.0,0.0,0.0,0.0,0.0,0.0,0.0,0.0,0.0,0.0,0.0,,,,,,0.0,,,,,,,
159,505634,1745298970454,,,,,,,,,,,,,,,,,,,,,,,,,,,,,,,,,,0.0,0.0,0.0,0.0,0.0,0.0,0.0,0.0,0.0,0.0,0.0,0.0,0.0,0.0,0.0,0.0,,,,,,,,,,,,,
160,505654,1745298970474,0.0,-8.0,,-0.04,-0.17,1.13,-2.0,0.0,0.0,1.14,1.19,96.0,2957.0,3.0,3.32,,12.64,1.249,97.0,,21.5,5.0,,,,,,,,,,,,0.0,0.0,0.0,0.0,0.0,0.0,0.0,0.0,0.0,0.0,0.0,0.0,0.0,0.0,0.0,0.0,,,,,,0.0,,,,,,,
161,505674,1745298970494,,,,,,,,,,,,,,,,,,,,,,,0.0,0.0,0.0,0.0,0.0,0.0,0.0,0.0,2.26,,,0.0,0.0,0.0,0.0,0.0,0.0,0.0,0.0,0.0,0.0,0.0,0.0,0.0,0.0,0.0,0.0,,0.0,,,,,38.986019,-76.95002,0.05,50.3,35.0,3.0,0.7
162,505694,1745298970514,0.0,-4.0,,-0.02,-0.14,1.11,-2.0,0.0,1.0,1.12,1.19,93.0,2890.0,5.6,3.76,,12.95,1.25,97.0,,21.5,5.0,,,,,,,,,,,,0.0,0.0,0.0,0.0,0.0,0.0,0.0,0.0,0.0,0.0,0.0,0.0,0.0,0.0,0.0,0.0,,,,,,0.0,,,,,,,
163,505714,1745298970534,,,,,,,,,,,,,,,,,,,,,,,,,,,,,,,,,,0.0,0.0,0.0,0.0,0.0,0.0,0.0,0.0,0.0,0.0,0.0,0.0,0.0,0.0,0.0,0.0,,,,,,,,,,,,,
164,505734,1745298970554,0.0,-15.0,,0.01,-0.08,1.07,-1.0,0.0,1.0,1.07,1.19,90.0,2931.0,9.5,3.88,,13.29,1.251,97.0,,21.5,5.0,,,,,,,,,,,,0.0,0.0,0.0,0.0,0.0,0.0,0.0,0.0,0.0,0.0,0.0,0.0,0.0,0.0,0.0,0.0,,,,,,0.0,,,,,,,
165,505754,1745298970574,,,,,,,,,,,,,,,,,,,,,,,,,,,,,,,,,,0.0,0.0,0.0,0.0,0.0,0.0,0.0,0.0,0.0,0.0,0.0,0.0,0.0,0.0,0.0,0.0,,,,,,,,,,,,,
166,505774,1745298970594,0.0,-4.0,,0.02,-0.03,1.01,0.0,0.0,0.0,1.01,1.19,84.0,3002.0,10.0,3.95,,13.29,1.251,97.0,,22.0,5.0,0.0,0.0,0.0,0.0,0.0,0.0,0.0,0.0,2.26,,,0.0,0.0,0.0,0.0,0.0,0.0,0.0,0.0,0.0,0.0,0.0,0.0,0.0,0.0,0.0,0.0,,0.0,,,,0.0,38.986019,-76.95002,0.05,50.3,35.0,3.0,0.7
167,505794,1745298970614,,,,,,,,,,,,,,,,,,,,,,,,,,,,,,,,,,0.0,0.0,0.0,0.0,0.0,0.0,0.0,0.0,0.0,0.0,0.0,0.0,0.0,0.0,0.0,0.0,,,,,,,,,,,,,
168,505814,1745298970634,0.0,-4.0,,0.03,0.02,0.99,1.0,0.0,0.0,0.99,1.19,83.0,3002.0,10.0,3.95,,13.47,1.252,97.0,,22.0,5.0,,,,,,,,,,,,0.0,0.0,0.0,0.0,0.0,0.0,0.0,0.0,0.0,0.0,0.0,0.0,0.0,0.0,0.0,0.0,,,,,,0.0,,,,,,,
169,505834,1745298970654,,,,,,,,,,,,,,,,,,,,,,,,,,,,,,,,,,0.0,0.0,0.0,0.0,0.0,0.0,0.0,0.0,0.0,0.0,0.0,0.0,0.0,0.0,0.0,0.0,,,,,,,,,,,,,
170,505854,1745298970674,0.0,-15.0,,0.04,-0.03,1.07,0.0,0.0,1.0,1.07,1.19,90.0,3059.0,10.0,3.95,,13.47,1.252,97.0,,23.4,5.0,,,,,,,,,,,,0.0,0.0,0.0,0.0,0.0,0.0,0.0,0.0,0.0,0.0,0.0,0.0,0.0,0.0,0.0,0.0,,,,,,0.0,,,,,,,
171,505874,1745298970694,,,,,,,,,,,,,,,,,,,,,,,0.0,0.0,0.0,0.0,0.0,0.0,0.0,0.0,2.25,,,0.0,0.0,0.0,0.0,0.0,0.0,0.0,0.0,0.0,0.0,0.0,0.0,0.0,0.0,0.0,0.0,,0.0,,,,,38.986019,-76.95002,0.0,50.3,35.0,3.0,0.7
172,505894,1745298970714,0.0,3.0,,-0.01,-0.09,1.07,0.0,0.0,0.0,1.08,1.19,90.0,3266.0,0.0,2.93,,12.95,1.251,97.0,,23.4,5.0,,,,,,,,,,,,0.0,0.0,0.0,0.0,0.0,0.0,0.0,0.0,0.0,0.0,0.0,0.0,0.0,0.0,0.0,0.0,,,,,,0.0,,,,,,,
173,505914,1745298970734,,,,,,,,,,,,,,,,,,,,,,,,,,,,,,,,,,0.0,0.0,0.0,0.0,0.0,0.0,0.0,0.0,0.0,0.0,0.0,0.0,0.0,0.0,0.0,0.0,,,,,,,,,,,,,
174,505934,1745298970754,0.0,-12.0,,-0.02,0.01,0.97,1.0,0.0,0.0,0.97,1.19,81.0,3195.0,0.0,2.86,,12.61,1.248,97.0,,23.4,5.0,,,,,,,,,,,,0.0,0.0,0.0,0.0,0.0,0.0,0.0,0.0,0.0,0.0,0.0,0.0,0.0,0.0,0.0,0.0,,,,,,0.0,,,,,,,
175,505954,1745298970774,,,,,,,,,,,,,,,,,,,,,,,,,,,,,,,,,,0.0,0.0,0.0,0.0,0.0,0.0,0.0,0.0,0.0,0.0,0.0,0.0,0.0,0.0,0.0,0.0,,,,,,,,,,,,,
176,505974,1745298970794,0.0,-12.0,,-0.01,0.08,0.91,2.0,0.0,0.0,0.92,1.19,77.0,3101.0,0.0,2.88,,12.61,1.248,97.0,,23.7,5.0,0.0,0.0,0.0,0.0,0.0,0.0,0.0,0.0,2.26,,,0.0,0.0,0.0,0.0,0.0,0.0,0.0,0.0,0.0,0.0,0.0,0.0,0.0,0.0,0.0,0.0,,0.0,,,,0.0,38.986019,-76.95002,0.04,50.3,35.0,3.0,0.7
177,505994,1745298970814,,,,,,,,,,,,,,,,,,,,,,,,,,,,,,,,,,0.0,0.0,0.0,0.0,0.0,0.0,0.0,0.0,0.0,0.0,0.0,0.0,0.0,0.0,0.0,0.0,,,,,,,,,,,,,
178,506014,1745298970834,0.0,5.0,,0.02,0.09,0.96,1.0,0.0,1.0,0.96,1.19,80.0,3101.0,0.0,2.88,,12.45,1.248,95.2,,23.7,5.0,,,,,,,,,,,,0.0,0.0,0.0,0.0,0.0,0.0,0.0,0.0,0.0,0.0,0.0,0.0,0.0,0.0,0.0,0.0,,,,,,0.0,,,,,,,
179,506034,1745298970854,,,,,,,,,,,,,,,,,,,,,,,,,,,,,,,,,,0.0,0.0,0.0,0.0,0.0,0.0,0.0,0.0,0.0,0.0,0.0,0.0,0.0,0.0,0.0,0.0,,,,,,,,,,,,,
180,506054,1745298970874,0.0,-4.0,,0.04,0.05,1.01,0.0,0.0,1.0,1.01,1.19,85.0,3065.0,0.0,2.9,,12.35,1.249,95.2,,22.1,5.0,,,,,,,,,,,,0.0,0.0,0.0,0.0,0.0,0.0,0.0,0.0,0.0,0.0,0.0,0.0,0.0,0.0,0.0,0.0,,,,,,0.0,,,,,,,
181,506074,1745298970894,,,,,,,,,,,,,,,,,,,,,,,0.0,0.0,0.0,0.0,0.0,0.0,0.0,0.0,2.26,,,0.0,0.0,0.0,0.0,0.0,0.0,0.0,0.0,0.0,0.0,0.0,0.0,0.0,0.0,0.0,0.0,,0.0,,,,,38.986019,-76.95002,0.0,50.3,35.0,3.0,0.7
182,506094,1745298970914,0.0,3.0,,0.05,-0.03,1.09,-1.0,0.0,1.0,1.09,1.19,91.0,3058.0,0.0,2.96,,12.33,1.249,95.2,,22.1,5.0,,,,,,,,,,,,0.0,0.0,0.0,0.0,0.0,0.0,0.0,0.0,0.0,0.0,0.0,0.0,0.0,0.0,0.0,0.0,,,,,,0.0,,,,,,,
183,506114,1745298970934,,,,,,,,,,,,,,,,,,,,,,,,,,,,,,,,,,0.0,0.0,0.0,0.0,0.0,0.0,0.0,0.0,0.0,0.0,0.0,0.0,0.0,0.0,0.0,0.0,,,,,,,,,,,,,
184,506134,1745298970954,0.0,-4.0,,0.01,-0.08,1.1,-1.0,0.0,0.0,1.1,1.19,92.0,3135.0,0.0,2.86,,12.27,1.25,95.2,,22.1,5.0,,,,,,,,,,,,0.0,0.0,0.0,0.0,0.0,0.0,0.0,0.0,0.0,0.0,0.0,0.0,0.0,0.0,0.0,0.0,,,,,,0.0,,,,,,,
185,506154,1745298970974,,,,,,,,,,,,,,,,,,,,,,,,,,,,,,,,,,0.0,0.0,0.0,0.0,0.0,0.0,0.0,0.0,0.0,0.0,0.0,0.0,0.0,0.0,0.0,0.0,,,,,,,,,,,,,
186,506174,1745298970994,0.0,0.0,,-0.02,-0.03,1.01,1.0,0.0,0.0,1.01,1.19,84.0,3114.0,2.4,3.37,,12.27,1.25,95.2,,23.1,5.0,0.0,0.0,0.0,0.0,0.0,0.0,0.0,0.0,2.25,,,0.0,0.0,0.0,0.0,0.0,0.0,0.0,0.0,0.0,0.0,0.0,0.0,0.0,0.0,0.0,0.0,,0.0,,,,0.0,38.986019,-76.95002,0.11,50.3,35.0,3.0,0.7
187,506194,1745298971006,,,,,,,,,,,,,,,,,,,,,,,,,,,,,,,,,,0.0,0.0,0.0,0.0,0.0,0.0,0.0,0.0,0.0,0.0,0.0,0.0,0.0,0.0,0.0,0.0,,,,,,,,,,,,,
188,506214,1745298971026,0.0,5.0,,-0.03,0.01,0.94,2.0,0.0,0.0,0.94,1.19,78.0,3114.0,2.4,3.37,,12.51,1.25,95.2,,23.1,5.0,,,,,,,,,,,,0.0,0.0,0.0,0.0,0.0,0.0,0.0,0.0,0.0,0.0,0.0,0.0,0.0,0.0,0.0,0.0,,,,,,0.0,,,,,,,
189,506234,1745298971046,,,,,,,,,,,,,,,,,,,,,,,,,,,,,,,,,,0.0,0.0,0.0,0.0,0.0,0.0,0.0,0.0,0.0,0.0,0.0,0.0,0.0,0.0,0.0,0.0,,,,,,,,,,,,,
190,506254,1745298971066,0.0,0.0,,-0.01,0.06,0.94,1.0,0.0,0.0,0.94,1.19,78.0,3158.0,4.0,3.64,,12.71,1.251,95.2,,22.9,5.0,,,,,,,,,,,,0.0,0.0,0.0,0.0,0.0,0.0,0.0,0.0,0.0,0.0,0.0,0.0,0.0,0.0,0.0,0.0,,,,,,0.0,,,,,,,
191,506274,1745298971086,,,,,,,,,,,,,,,,,,,,,,,0.0,0.0,0.0,0.0,0.0,0.0,0.0,0.0,2.26,,,0.0,0.0,0.0,0.0,0.0,0.0,0.0,0.0,0.0,0.0,0.0,0.0,0.0,0.0,0.0,0.0,,0.0,,,,,38.986019,-76.95002,0.0,50.3,35.0,3.0,0.7
192,506294,1745298971109,0.0,3.0,,0.0,0.04,0.99,0.0,0.0,1.0,1.0,1.19,83.0,3063.0,4.7,3.73,,12.88,1.252,95.2,,22.9,5.0,,,,,,,,,,,,0.0,0.0,0.0,0.0,0.0,0.0,0.0,0.0,0.0,0.0,0.0,0.0,0.0,0.0,0.0,0.0,,,,,,0.0,,,,,,,
193,506314,1745298971129,,,,,,,,,,,,,,,,,,,,,,,,,,,,,,,,,,0.0,0.0,0.0,0.0,0.0,0.0,0.0,0.0,0.0,0.0,0.0,0.0,0.0,0.0,0.0,0.0,,,,,,,,,,,,,
194,506334,1745298971149,0.0,-12.0,,-0.01,-0.05,1.06,-1.0,0.0,0.0,1.07,1.19,89.0,3120.0,0.0,3.74,,12.85,1.252,95.2,,22.9,5.0,,,,,,,,,,,,0.0,0.0,0.0,0.0,0.0,0.0,0.0,0.0,0.0,0.0,0.0,0.0,0.0,0.0,0.0,0.0,,,,,,0.0,,,,,,,
195,506354,1745298971169,,,,,,,,,,,,,,,,,,,,,,,,,,,,,,,,,,0.0,0.0,0.0,0.0,0.0,0.0,0.0,0.0,0.0,0.0,0.0,0.0,0.0,0.0,0.0,0.0,,,,,,,,,,,,,
196,506374,1745298971189,0.0,-8.0,,-0.05,-0.05,1.04,0.0,0.0,0.0,1.05,1.19,88.0,3185.0,0.0,2.9,,12.85,1.252,95.2,,23.0,5.0,0.0,0.0,0.0,0.0,0.0,0.0,0.0,0.0,2.25,,,0.0,0.0,0.0,0.0,0.0,0.0,0.0,0.0,0.0,0.0,0.0,0.0,0.0,0.0,0.0,0.0,,0.0,,,,0.0,38.986019,-76.95002,0.04,50.3,35.0,3.0,0.7
197,506394,1745298971215,,,,,,,,,,,,,,,,,,,,,,,,,,,,,,,,,,0.0,0.0,0.0,0.0,0.0,0.0,0.0,0.0,0.0,0.0,0.0,0.0,0.0,0.0,0.0,0.0,,,,,,,,,,,,,
198,506414,1745298971235,0.0,3.0,,-0.06,-0.02,0.95,1.0,0.0,0.0,0.95,1.19,79.0,3185.0,0.0,2.9,,12.52,1.248,95.2,,23.0,5.0,,,,,,,,,,,,0.0,0.0,0.0,0.0,0.0,0.0,0.0,0.0,0.0,0.0,0.0,0.0,0.0,0.0,0.0,0.0,,,,,,0.0,,,,,,,
199,506434,1745298971255,,,,,,,,,,,,,,,,,,,,,,,,,,,,,,,,,,0.0,0.0,0.0,0.0,0.0,0.0,0.0,0.0,0.0,0.0,0.0,0.0,0.0,0.0,0.0,0.0,,,,,,,,,,,,,
200,506454,1745298971275,0.0,-8.0,,-0.05,0.03,0.89,1.0,0.0,0.0,0.89,1.19,75.0,3095.0,0.0,2.88,,12.4,1.228,95.2,,23.1,5.0,,,,,,,,,,,,0.0,0.0,0.0,0.0,0.0,0.0,0.0,0.0,0.0,0.0,0.0,0.0,0.0,0.0,0.0,0.0,,,,,,0.0,,,,,,,
201,506474,1745298971295,,,,,,,,,,,,,,,,,,,,,,,0.0,0.0,0.0,0.0,0.0,0.0,0.0,0.0,2.26,,,0.0,0.0,0.0,0.0,0.0,0.0,0.0,0.0,0.0,0.0,0.0,0.0,0.0,0.0,0.0,0.0,,0.0,,,,,38.986019,-76.95002,0.0,50.3,35.0,3.0,0.7
202,506494,1745298971313,0.0,8.0,,-0.04,0.07,0.89,1.0,0.0,0.0,0.89,1.19,74.0,3061.0,0.0,2.89,,12.36,1.242,95.2,,23.1,5.0,,,,,,,,,,,,0.0,0.0,0.0,0.0,0.0,0.0,0.0,0.0,0.0,0.0,0.0,0.0,0.0,0.0,0.0,0.0,,,,,,0.0,,,,,,,
203,506514,1745298971333,,,,,,,,,,,,,,,,,,,,,,,,,,,,,,,,,,0.0,0.0,0.0,0.0,0.0,0.0,0.0,0.0,0.0,0.0,0.0,0.0,0.0,0.0,0.0,0.0,,,,,,,,,,,,,
204,506534,1745298971353,0.0,-12.0,,-0.03,0.11,0.89,2.0,0.0,0.0,0.9,1.19,75.0,3001.0,0.0,2.95,,12.32,1.249,95.2,,23.1,5.0,,,,,,,,,,,,0.0,0.0,0.0,0.0,0.0,0.0,0.0,0.0,0.0,0.0,0.0,0.0,0.0,0.0,0.0,0.0,,,,,,0.0,,,,,,,
205,506554,1745298971373,,,,,,,,,,,,,,,,,,,,,,,,,,,,,,,,,,0.0,0.0,0.0,0.0,0.0,0.0,0.0,0.0,0.0,0.0,0.0,0.0,0.0,0.0,0.0,0.0,,,,,,,,,,,,,
206,506574,1745298971393,0.0,3.0,13.35,-0.02,0.13,0.85,2.0,0.0,0.0,0.86,1.19,72.0,2939.0,0.0,2.98,15.0,12.32,1.249,95.2,178.0,21.2,5.0,0.0,0.0,0.0,0.0,0.0,0.0,0.0,0.0,2.26,0.0,1.0,0.0,0.0,0.0,0.0,0.0,0.0,0.0,0.0,0.0,0.0,0.0,0.0,0.0,0.0,0.0,0.0,0.0,0.0,1.0,0.0,0.0,0.0,38.986019,-76.95002,0.05,50.3,35.0,3.0,0.7
207,506594,1745298971415,,,,,,,,,,,,,,,,,,,,,,,,,,,,,,,,,,0.0,0.0,0.0,0.0,0.0,0.0,0.0,0.0,0.0,0.0,0.0,0.0,0.0,0.0,0.0,0.0,,,,,,,,,,,,,
208,506614,1745298971435,0.0,5.0,,-0.03,0.11,0.82,3.0,0.0,0.0,0.83,1.19,69.0,2939.0,0.0,2.98,,12.36,1.249,95.2,,21.2,5.0,,,,,,,,,,,,0.0,0.0,0.0,0.0,0.0,0.0,0.0,0.0,0.0,0.0,0.0,0.0,0.0,0.0,0.0,0.0,,,,,,0.0,,,,,,,
209,506634,1745298971455,,,,,,,,,,,,,,,,,,,,,,,,,,,,,,,,,,0.0,0.0,0.0,0.0,0.0,0.0,0.0,0.0,0.0,0.0,0.0,0.0,0.0,0.0,0.0,0.0,,,,,,,,,,,,,
210,506654,1745298971475,0.0,0.0,,-0.06,0.06,0.87,3.0,0.0,0.0,0.87,1.19,73.0,2874.0,0.0,3.01,,12.43,1.25,95.2,,21.1,5.0,,,,,,,,,,,,0.0,0.0,0.0,0.0,0.0,0.0,0.0,0.0,0.0,0.0,0.0,0.0,0.0,0.0,0.0,0.0,,,,,,0.0,,,,,,,
211,506674,1745298971495,,,,,,,,,,,,,,,,,,,,,,,0.0,0.0,0.0,0.0,0.0,0.0,0.0,0.0,2.25,,,0.0,0.0,0.0,0.0,0.0,0.0,0.0,0.0,0.0,0.0,0.0,0.0,0.0,0.0,0.0,0.0,,0.0,,,,,38.986019,-76.95002,0.04,50.3,35.0,3.0,0.7
212,506694,1745298971513,0.0,5.0,,-0.07,0.06,0.9,2.0,0.0,0.0,0.9,1.19,76.0,2762.0,0.0,3.03,,12.63,1.251,95.2,,21.1,5.0,,,,,,,,,,,,0.0,0.0,0.0,0.0,0.0,0.0,0.0,0.0,0.0,0.0,0.0,0.0,0.0,0.0,0.0,0.0,,,,,,0.0,,,,,,,
213,506714,1745298971533,,,,,,,,,,,,,,,,,,,,,,,,,,,,,,,,,,0.0,0.0,0.0,0.0,0.0,0.0,0.0,0.0,0.0,0.0,0.0,0.0,0.0,0.0,0.0,0.0,,,,,,,,,,,,,
214,506734,1745298971553,0.0,-12.0,,-0.07,0.08,0.88,2.0,0.0,0.0,0.89,1.19,74.0,2691.0,0.2,3.08,,12.83,1.252,95.2,,21.1,5.0,,,,,,,,,,,,0.0,0.0,0.0,0.0,0.0,0.0,0.0,0.0,0.0,0.0,0.0,0.0,0.0,0.0,0.0,0.0,,,,,,0.0,,,,,,,
215,506754,1745298971573,,,,,,,,,,,,,,,,,,,,,,,,,,,,,,,,,,0.0,0.0,0.0,0.0,0.0,0.0,0.0,0.0,0.0,0.0,0.0,0.0,0.0,0.0,0.0,0.0,,,,,,,,,,,,,
216,506774,1745298971593,0.0,-4.0,,-0.06,0.03,0.93,2.0,0.0,0.0,0.93,1.19,78.0,2643.0,0.4,3.16,,12.83,1.252,95.2,,20.1,5.0,0.0,0.0,0.0,0.0,0.0,0.0,0.0,0.0,2.26,,,0.0,0.0,0.0,0.0,0.0,0.0,0.0,0.0,0.0,0.0,0.0,0.0,0.0,0.0,0.0,0.0,,0.0,,,,0.0,38.986019,-76.95002,0.13,50.3,35.0,3.0,0.7
217,506794,1745298971615,,,,,,,,,,,,,,,,,,,,,,,,,,,,,,,,,,0.0,0.0,0.0,0.0,0.0,0.0,0.0,0.0,0.0,0.0,0.0,0.0,0.0,0.0,0.0,0.0,,,,,,,,,,,,,
218,506814,1745298971635,0.0,3.0,,-0.06,0.03,0.9,1.0,0.0,0.0,0.91,1.19,76.0,2643.0,0.4,3.16,,12.96,1.252,95.2,,20.1,5.0,,,,,,,,,,,,0.0,0.0,0.0,0.0,0.0,0.0,0.0,0.0,0.0,0.0,0.0,0.0,0.0,0.0,0.0,0.0,,,,,,0.0,,,,,,,
219,506834,1745298971655,,,,,,,,,,,,,,,,,,,,,,,,,,,,,,,,,,0.0,0.0,0.0,0.0,0.0,0.0,0.0,0.0,0.0,0.0,0.0,0.0,0.0,0.0,0.0,0.0,,,,,,,,,,,,,
220,506854,1745298971675,0.0,0.0,,-0.07,0.02,0.93,1.0,0.0,0.0,0.93,1.19,78.0,2578.0,0.0,3.13,,12.91,1.252,95.2,,19.4,5.0,,,,,,,,,,,,0.0,0.0,0.0,0.0,0.0,0.0,0.0,0.0,0.0,0.0,0.0,0.0,0.0,0.0,0.0,0.0,,,,,,0.0,,,,,,,
221,506874,1745298971695,,,,,,,,,,,,,,,,,,,,,,,0.0,0.0,0.0,0.0,0.0,0.0,0.0,0.0,2.26,,,0.0,0.0,0.0,0.0,0.0,0.0,0.0,0.0,0.0,0.0,0.0,0.0,0.0,0.0,0.0,0.0,,0.0,,,,,38.986019,-76.95002,0.0,50.3,35.0,3.0,0.7
222,506894,1745298971715,0.0,-4.0,,-0.08,0.03,0.92,1.0,0.0,0.0,0.93,1.19,78.0,2628.0,0.0,3.15,,12.91,1.252,95.2,,19.4,5.0,,,,,,,,,,,,0.0,0.0,0.0,0.0,0.0,0.0,0.0,0.0,0.0,0.0,0.0,0.0,0.0,0.0,0.0,0.0,,,,,,0.0,,,,,,,
223,506914,1745298971735,,,,,,,,,,,,,,,,,,,,,,,,,,,,,,,,,,0.0,0.0,0.0,0.0,0.0,0.0,0.0,0.0,0.0,0.0,0.0,0.0,0.0,0.0,0.0,0.0,,,,,,,,,,,,,
224,506934,1745298971755,0.0,-23.0,,-0.08,0.02,0.94,1.0,0.0,0.0,0.95,1.19,79.0,2575.0,0.0,3.16,,12.96,1.251,95.2,,19.4,5.0,,,,,,,,,,,,0.0,0.0,0.0,0.0,0.0,0.0,0.0,0.0,0.0,0.0,0.0,0.0,0.0,0.0,0.0,0.0,,,,,,0.0,,,,,,,
225,506954,1745298971775,,,,,,,,,,,,,,,,,,,,,,,,,,,,,,,,,,0.0,0.0,0.0,0.0,0.0,0.0,0.0,0.0,0.0,0.0,0.0,0.0,0.0,0.0,0.0,0.0,,,,,,,,,,,,,
226,506974,1745298971795,0.0,-15.0,,-0.08,0.0,0.95,1.0,0.0,0.0,0.95,1.19,80.0,2514.0,0.4,3.2,,12.96,1.251,95.2,,18.7,5.0,0.0,0.0,0.0,0.0,0.0,0.0,0.0,0.0,2.26,,,0.0,0.0,0.0,0.0,0.0,0.0,0.0,0.0,0.0,0.0,0.0,0.0,0.0,0.0,0.0,0.0,,0.0,,,,0.0,38.986019,-76.95002,0.04,50.3,35.0,3.0,0.7
227,506994,1745298971815,,,,,,,,,,,,,,,,,,,,,,,,,,,,,,,,,,0.0,0.0,0.0,0.0,0.0,0.0,0.0,0.0,0.0,0.0,0.0,0.0,0.0,0.0,0.0,0.0,,,,,,,,,,,,,
228,507014,1745298971835,0.0,-8.0,,-0.09,0.01,0.94,1.0,0.0,0.0,0.94,1.19,79.0,2514.0,0.4,3.2,,13.05,1.249,95.2,,18.7,5.0,,,,,,,,,,,,0.0,0.0,0.0,0.0,0.0,0.0,0.0,0.0,0.0,0.0,0.0,0.0,0.0,0.0,0.0,0.0,,,,,,0.0,,,,,,,
229,507034,1745298971855,,,,,,,,,,,,,,,,,,,,,,,,,,,,,,,,,,0.0,0.0,0.0,0.0,0.0,0.0,0.0,0.0,0.0,0.0,0.0,0.0,0.0,0.0,0.0,0.0,,,,,,,,,,,,,
230,507054,1745298971875,0.0,5.0,,-0.07,0.01,0.93,1.0,0.0,0.0,0.94,1.19,78.0,2459.0,3.9,3.67,,13.37,1.249,95.2,,17.9,5.0,,,,,,,,,,,,0.0,0.0,0.0,0.0,0.0,0.0,0.0,0.0,0.0,0.0,0.0,0.0,0.0,0.0,0.0,0.0,,,,,,0.0,,,,,,,
231,507074,1745298971895,,,,,,,,,,,,,,,,,,,,,,,0.0,0.0,0.0,0.0,0.0,0.0,0.0,0.0,2.26,,,0.0,0.0,0.0,0.0,0.0,0.0,0.0,0.0,0.0,0.0,0.0,0.0,0.0,0.0,0.0,0.0,,0.0,,,,,38.986019,-76.95002,0.0,50.2,35.0,3.0,0.7
232,507094,1745298971914,0.0,-8.0,,-0.08,0.02,0.94,1.0,0.0,0.0,0.94,1.19,79.0,2444.0,6.7,3.74,,13.65,1.249,95.2,,17.9,5.0,,,,,,,,,,,,0.0,0.0,0.0,0.0,0.0,0.0,0.0,0.0,0.0,0.0,0.0,0.0,0.0,0.0,0.0,0.0,,,,,,0.0,,,,,,,
233,507114,1745298971934,,,,,,,,,,,,,,,,,,,,,,,,,,,,,,,,,,0.0,0.0,0.0,0.0,0.0,0.0,0.0,0.0,0.0,0.0,0.0,0.0,0.0,0.0,0.0,0.0,,,,,,,,,,,,,
234,507134,1745298971954,0.0,-12.0,,-0.08,0.0,0.93,0.0,0.0,0.0,0.93,1.19,78.0,2489.0,7.2,3.76,,13.76,1.25,95.2,,17.9,5.0,,,,,,,,,,,,0.0,0.0,0.0,0.0,0.0,0.0,0.0,0.0,0.0,0.0,0.0,0.0,0.0,0.0,0.0,0.0,,,,,,0.0,,,,,,,
235,507154,1745298971974,,,,,,,,,,,,,,,,,,,,,,,,,,,,,,,,,,0.0,0.0,0.0,0.0,0.0,0.0,0.0,0.0,0.0,0.0,0.0,0.0,0.0,0.0,0.0,0.0,,,,,,,,,,,,,
236,507174,1745298971994,0.0,-8.0,,-0.08,0.01,0.93,1.0,0.0,0.0,0.93,1.19,78.0,2552.0,7.1,3.77,,13.76,1.25,95.2,,18.3,5.0,0.0,0.0,0.0,0.0,0.0,0.0,0.0,0.0,2.26,,,0.0,0.0,0.0,0.0,0.0,0.0,0.0,0.0,0.0,0.0,0.0,0.0,0.0,0.0,0.0,0.0,,0.0,,,,0.0,38.986019,-76.95002,0.0,50.2,35.0,3.0,0.7
237,507194,1745298972005,,,,,,,,,,,,,,,,,,,,,,,,,,,,,,,,,,0.0,0.0,0.0,0.0,0.0,0.0,0.0,0.0,0.0,0.0,0.0,0.0,0.0,0.0,0.0,0.0,,,,,,,,,,,,,
238,507214,1745298972025,0.0,3.0,,-0.09,0.02,0.97,0.0,0.0,0.0,0.97,1.19,81.0,2552.0,7.1,3.77,,13.75,1.251,95.2,,18.3,5.0,,,,,,,,,,,,0.0,0.0,0.0,0.0,0.0,0.0,0.0,0.0,0.0,0.0,0.0,0.0,0.0,0.0,0.0,0.0,,,,,,0.0,,,,,,,
239,507234,1745298972045,,,,,,,,,,,,,,,,,,,,,,,,,,,,,,,,,,0.0,0.0,0.0,0.0,0.0,0.0,0.0,0.0,0.0,0.0,0.0,0.0,0.0,0.0,0.0,0.0,,,,,,,,,,,,,
240,507254,1745298972065,0.0,3.0,,-0.09,0.01,0.95,1.0,0.0,0.0,0.96,1.19,80.0,2609.0,0.0,3.23,,13.44,1.251,95.2,,19.2,5.0,,,,,,,,,,,,0.0,0.0,0.0,0.0,0.0,0.0,0.0,0.0,0.0,0.0,0.0,0.0,0.0,0.0,0.0,0.0,,,,,,0.0,,,,,,,
241,507274,1745298972085,,,,,,,,,,,,,,,,,,,,,,,0.0,0.0,0.0,0.0,0.0,0.0,0.0,0.0,2.26,,,0.0,0.0,0.0,0.0,0.0,0.0,0.0,0.0,0.0,0.0,0.0,0.0,0.0,0.0,0.0,0.0,,0.0,,,,,38.986019,-76.95002,0.04,50.2,35.0,3.0,0.7
242,507294,1745298972114,0.0,-4.0,,-0.08,0.03,0.96,0.0,0.0,0.0,0.96,1.19,80.0,2608.0,0.0,3.19,,13.24,1.25,95.2,,19.2,5.0,,,,,,,,,,,,0.0,0.0,0.0,0.0,0.0,0.0,0.0,0.0,0.0,0.0,0.0,0.0,0.0,0.0,0.0,0.0,,,,,,0.0,,,,,,,
243,507314,1745298972134,,,,,,,,,,,,,,,,,,,,,,,,,,,,,,,,,,0.0,0.0,0.0,0.0,0.0,0.0,0.0,0.0,0.0,0.0,0.0,0.0,0.0,0.0,0.0,0.0,,,,,,,,,,,,,
244,507334,1745298972154,0.0,-12.0,,-0.09,-0.0,0.97,0.0,0.0,0.0,0.97,1.19,82.0,2597.0,0.0,3.18,,13.13,1.251,95.2,,19.2,5.0,,,,,,,,,,,,0.0,0.0,0.0,0.0,0.0,0.0,0.0,0.0,0.0,0.0,0.0,0.0,0.0,0.0,0.0,0.0,,,,,,0.0,,,,,,,
245,507354,1745298972174,,,,,,,,,,,,,,,,,,,,,,,,,,,,,,,,,,0.0,0.0,0.0,0.0,0.0,0.0,0.0,0.0,0.0,0.0,0.0,0.0,0.0,0.0,0.0,0.0,,,,,,,,,,,,,
246,507374,1745298972194,0.0,-4.0,,-0.08,0.02,0.97,1.0,0.0,0.0,0.97,1.19,81.0,2505.0,0.0,3.18,,13.13,1.251,95.2,,19.2,5.0,0.0,0.0,0.0,0.0,0.0,0.0,0.0,0.0,2.26,,,0.0,0.0,0.0,0.0,0.0,0.0,0.0,0.0,0.0,0.0,0.0,0.0,0.0,0.0,0.0,0.0,,0.0,,,,0.0,38.986019,-76.95002,0.04,50.2,35.0,3.0,0.7
247,507394,1745298972206,,,,,,,,,,,,,,,,,,,,,,,,,,,,,,,,,,0.0,0.0,0.0,0.0,0.0,0.0,0.0,0.0,0.0,0.0,0.0,0.0,0.0,0.0,0.0,0.0,,,,,,,,,,,,,
248,507414,1745298972226,0.0,-4.0,,-0.09,0.01,0.98,1.0,0.0,0.0,0.99,1.19,83.0,2505.0,0.0,3.18,,13.13,1.252,95.2,,19.2,5.0,,,,,,,,,,,,0.0,0.0,0.0,0.0,0.0,0.0,0.0,0.0,0.0,0.0,0.0,0.0,0.0,0.0,0.0,0.0,,,,,,0.0,,,,,,,
249,507434,1745298972246,,,,,,,,,,,,,,,,,,,,,,,,,,,,,,,,,,0.0,0.0,0.0,0.0,0.0,0.0,0.0,0.0,0.0,0.0,0.0,0.0,0.0,0.0,0.0,0.0,,,,,,,,,,,,,
250,507454,1745298972266,0.0,8.0,,-0.08,0.01,0.98,1.0,0.0,0.0,0.98,1.19,82.0,2465.0,0.0,3.18,,13.13,1.251,95.2,,19.0,5.0,,,,,,,,,,,,0.0,0.0,0.0,0.0,0.0,0.0,0.0,0.0,0.0,0.0,0.0,0.0,0.0,0.0,0.0,0.0,,,,,,0.0,,,,,,,
251,507474,1745298972286,,,,,,,,,,,,,,,,,,,,,,,0.0,0.0,0.0,0.0,0.0,0.0,0.0,0.0,2.25,,,0.0,0.0,0.0,0.0,0.0,0.0,0.0,0.0,0.0,0.0,0.0,0.0,0.0,0.0,0.0,0.0,,0.0,,,,,38.986019,-76.95002,0.0,50.2,35.0,3.0,0.7
252,507494,1745298972314,0.0,-4.0,,-0.08,0.02,0.96,0.0,0.0,0.0,0.96,1.19,81.0,2448.0,0.0,3.2,,13.17,1.249,95.2,,19.0,5.0,,,,,,,,,,,,0.0,0.0,0.0,0.0,0.0,0.0,0.0,0.0,0.0,0.0,0.0,0.0,0.0,0.0,0.0,0.0,,,,,,0.0,,,,,,,
253,507514,1745298972334,,,,,,,,,,,,,,,,,,,,,,,,,,,,,,,,,,0.0,0.0,0.0,0.0,0.0,0.0,0.0,0.0,0.0,0.0,0.0,0.0,0.0,0.0,0.0,0.0,,,,,,,,,,,,,
254,507534,1745298972354,0.0,-19.0,,-0.08,0.01,0.96,0.0,0.0,0.0,0.96,1.19,81.0,2422.0,0.0,3.2,,13.2,1.25,95.2,,19.0,5.0,,,,,,,,,,,,0.0,0.0,0.0,0.0,0.0,0.0,0.0,0.0,0.0,0.0,0.0,0.0,0.0,0.0,0.0,0.0,,,,,,0.0,,,,,,,
255,507554,1745298972374,,,,,,,,,,,,,,,,,,,,,,,,,,,,,,,,,,0.0,0.0,0.0,0.0,0.0,0.0,0.0,0.0,0.0,0.0,0.0,0.0,0.0,0.0,0.0,0.0,,,,,,,,,,,,,
256,507574,1745298972394,0.0,-23.0,13.39,-0.09,0.01,0.98,0.0,0.0,0.0,0.98,1.19,82.0,2369.0,0.0,3.23,15.0,13.2,1.25,95.2,178.0,18.5,5.0,0.0,0.0,0.0,0.0,0.0,0.0,0.0,0.0,2.26,0.0,1.0,0.0,0.0,0.0,0.0,0.0,0.0,0.0,0.0,0.0,0.0,0.0,0.0,0.0,0.0,0.0,0.0,0.0,0.0,1.0,0.0,0.0,0.0,38.986019,-76.95002,0.05,50.2,35.0,3.0,0.7
257,507594,1745298972414,,,,,,,,,,,,,,,,,,,,,,,,,,,,,,,,,,0.0,0.0,0.0,0.0,0.0,0.0,0.0,0.0,0.0,0.0,0.0,0.0,0.0,0.0,0.0,0.0,,,,,,,,,,,,,
258,507614,1745298972434,0.0,0.0,,-0.08,-0.0,0.98,0.0,0.0,0.0,0.98,1.19,82.0,2369.0,0.0,3.23,,13.23,1.249,95.2,,18.5,5.0,,,,,,,,,,,,0.0,0.0,0.0,0.0,0.0,0.0,0.0,0.0,0.0,0.0,0.0,0.0,0.0,0.0,0.0,0.0,,,,,,0.0,,,,,,,
259,507634,1745298972454,,,,,,,,,,,,,,,,,,,,,,,,,,,,,,,,,,0.0,0.0,0.0,0.0,0.0,0.0,0.0,0.0,0.0,0.0,0.0,0.0,0.0,0.0,0.0,0.0,,,,,,,,,,,,,
260,507654,1745298972474,0.0,-8.0,,-0.09,0.01,0.98,0.0,0.0,0.0,0.99,1.19,83.0,2307.0,2.2,3.27,,13.4,1.249,95.2,,18.1,5.0,,,,,,,,,,,,0.0,0.0,0.0,0.0,0.0,0.0,0.0,0.0,0.0,0.0,0.0,0.0,0.0,0.0,0.0,0.0,,,,,,0.0,,,,,,,
261,507674,1745298972494,,,,,,,,,,,,,,,,,,,,,,,0.0,0.0,0.0,0.0,0.0,0.0,0.0,0.0,2.26,,,0.0,0.0,0.0,0.0,0.0,0.0,0.0,0.0,0.0,0.0,0.0,0.0,0.0,0.0,0.0,0.0,,0.0,,,,,38.986019,-76.95002,0.04,50.2,35.0,3.0,0.7
262,507694,1745298972514,0.0,-8.0,,-0.1,0.02,1.0,0.0,0.0,0.0,1.01,1.19,84.0,2305.0,7.7,3.79,,13.73,1.25,95.2,,18.1,5.0,,,,,,,,,,,,0.0,0.0,0.0,0.0,0.0,0.0,0.0,0.0,0.0,0.0,0.0,0.0,0.0,0.0,0.0,0.0,,,,,,0.0,,,,,,,
263,507714,1745298972534,,,,,,,,,,,,,,,,,,,,,,,,,,,,,,,,,,0.0,0.0,0.0,0.0,0.0,0.0,0.0,0.0,0.0,0.0,0.0,0.0,0.0,0.0,0.0,0.0,,,,,,,,,,,,,
264,507734,1745298972554,0.0,-12.0,,-0.08,0.02,0.98,0.0,0.0,0.0,0.99,1.19,83.0,2303.0,12.7,4.01,,14.04,1.252,95.2,,18.1,5.0,,,,,,,,,,,,0.0,0.0,0.0,0.0,0.0,0.0,0.0,0.0,0.0,0.0,0.0,0.0,0.0,0.0,0.0,0.0,,,,,,0.0,,,,,,,
265,507754,1745298972574,,,,,,,,,,,,,,,,,,,,,,,,,,,,,,,,,,0.0,0.0,0.0,0.0,0.0,0.0,0.0,0.0,0.0,0.0,0.0,0.0,0.0,0.0,0.0,0.0,,,,,,,,,,,,,
266,507774,1745298972594,0.0,-8.0,,-0.09,0.02,0.98,0.0,0.0,0.0,0.98,1.19,82.0,2436.0,13.8,4.12,,14.04,1.252,95.2,,18.1,5.0,0.0,0.0,0.0,0.0,0.0,0.0,0.0,0.0,2.26,,,0.0,0.0,0.0,0.0,0.0,0.0,0.0,0.0,0.0,0.0,0.0,0.0,0.0,0.0,0.0,0.0,,0.0,,,,0.0,38.986019,-76.95002,0.0,50.2,35.0,3.0,0.7
267,507794,1745298972612,,,,,,,,,,,,,,,,,,,,,,,,,,,,,,,,,,0.0,0.0,0.0,0.0,0.0,0.0,0.0,0.0,0.0,0.0,0.0,0.0,0.0,0.0,0.0,0.0,,,,,,,,,,,,,
268,507814,1745298972632,0.0,5.0,,-0.08,-0.01,0.97,0.0,0.0,0.0,0.97,1.19,82.0,2436.0,13.8,4.12,,14.14,1.252,95.2,,18.1,5.0,,,,,,,,,,,,0.0,0.0,0.0,0.0,0.0,0.0,0.0,0.0,0.0,0.0,0.0,0.0,0.0,0.0,0.0,0.0,,,,,,0.0,,,,,,,
269,507834,1745298972652,,,,,,,,,,,,,,,,,,,,,,,,,,,,,,,,,,0.0,0.0,0.0,0.0,0.0,0.0,0.0,0.0,0.0,0.0,0.0,0.0,0.0,0.0,0.0,0.0,,,,,,,,,,,,,
270,507854,1745298972672,0.0,11.0,,-0.08,-0.01,0.99,0.0,0.0,0.0,0.99,1.19,83.0,2515.0,14.1,4.13,,14.1,1.252,95.2,,19.6,5.0,,,,,,,,,,,,0.0,0.0,0.0,0.0,0.0,0.0,0.0,0.0,0.0,0.0,0.0,0.0,0.0,0.0,0.0,0.0,,,,,,0.0,,,,,,,
271,507874,1745298972692,,,,,,,,,,,,,,,,,,,,,,,0.0,0.0,0.0,0.0,0.0,0.0,0.0,0.0,2.25,,,0.0,0.0,0.0,0.0,0.0,0.0,0.0,0.0,0.0,0.0,0.0,0.0,0.0,0.0,0.0,0.0,,0.0,,,,,38.986019,-76.95002,0.04,50.2,35.0,3.0,0.7
272,507894,1745298972712,0.0,3.0,,-0.08,-0.0,0.94,1.0,0.0,0.0,0.94,1.19,79.0,2680.0,3.5,3.85,,13.84,1.252,95.2,,19.6,5.0,,,,,,,,,,,,0.0,0.0,0.0,0.0,0.0,0.0,0.0,0.0,0.0,0.0,0.0,0.0,0.0,0.0,0.0,0.0,,,,,,0.0,,,,,,,
273,507914,1745298972732,,,,,,,,,,,,,,,,,,,,,,,,,,,,,,,,,,0.0,0.0,0.0,0.0,0.0,0.0,0.0,0.0,0.0,0.0,0.0,0.0,0.0,0.0,0.0,0.0,,,,,,,,,,,,,
274,507934,1745298972752,0.0,-4.0,,-0.1,-0.04,0.95,1.0,0.0,0.0,0.96,1.19,80.0,2812.0,0.0,3.09,,13.32,1.25,95.2,,19.6,5.0,,,,,,,,,,,,0.0,0.0,0.0,0.0,0.0,0.0,0.0,0.0,0.0,0.0,0.0,0.0,0.0,0.0,0.0,0.0,,,,,,0.0,,,,,,,
275,507954,1745298972772,,,,,,,,,,,,,,,,,,,,,,,,,,,,,,,,,,0.0,0.0,0.0,0.0,0.0,0.0,0.0,0.0,0.0,0.0,0.0,0.0,0.0,0.0,0.0,0.0,,,,,,,,,,,,,
276,507974,1745298972792,0.0,-23.0,,-0.12,-0.06,1.01,0.0,0.0,0.0,1.02,1.19,85.0,2934.0,0.0,3.04,,13.32,1.25,95.2,,21.3,5.0,0.0,0.0,0.0,0.0,0.0,0.0,0.0,0.0,2.26,,,0.0,0.0,0.0,0.0,0.0,0.0,0.0,0.0,0.0,0.0,0.0,0.0,0.0,0.0,0.0,0.0,,0.0,,,,0.0,38.986019,-76.95002,0.05,50.2,35.0,3.0,0.7
277,507994,1745298972812,,,,,,,,,,,,,,,,,,,,,,,,,,,,,,,,,,0.0,0.0,0.0,0.0,0.0,0.0,0.0,0.0,0.0,0.0,0.0,0.0,0.0,0.0,0.0,0.0,,,,,,,,,,,,,
278,508014,1745298972832,0.0,3.0,,-0.1,-0.06,1.04,-1.0,0.0,0.0,1.04,1.19,87.0,2934.0,0.0,3.04,,13.0,1.247,95.2,,21.3,5.0,,,,,,,,,,,,0.0,0.0,0.0,0.0,0.0,0.0,0.0,0.0,0.0,0.0,0.0,0.0,0.0,0.0,0.0,0.0,,,,,,0.0,,,,,,,
279,508034,1745298972852,,,,,,,,,,,,,,,,,,,,,,,,,,,,,,,,,,0.0,0.0,0.0,0.0,0.0,0.0,0.0,0.0,0.0,0.0,0.0,0.0,0.0,0.0,0.0,0.0,,,,,,,,,,,,,
280,508054,1745298972872,0.0,-8.0,,-0.07,-0.03,1.0,0.0,0.0,0.0,1.0,1.19,84.0,2863.0,0.0,3.05,,12.85,1.246,95.2,,21.1,5.0,,,,,,,,,,,,0.0,0.0,0.0,0.0,0.0,0.0,0.0,0.0,0.0,0.0,0.0,0.0,0.0,0.0,0.0,0.0,,,,,,0.0,,,,,,,
281,508074,1745298972892,,,,,,,,,,,,,,,,,,,,,,,0.0,0.0,0.0,0.0,0.0,0.0,0.0,0.0,2.26,,,0.0,0.0,0.0,0.0,0.0,0.0,0.0,0.0,0.0,0.0,0.0,0.0,0.0,0.0,0.0,0.0,,0.0,,,,,38.986019,-76.95002,0.04,50.2,35.0,3.0,0.7
282,508094,1745298972912,0.0,3.0,,-0.09,-0.05,0.97,1.0,0.0,0.0,0.98,1.19,82.0,2767.0,0.0,3.04,,12.79,1.238,95.2,,21.1,5.0,,,,,,,,,,,,0.0,0.0,0.0,0.0,0.0,0.0,0.0,0.0,0.0,0.0,0.0,0.0,0.0,0.0,0.0,0.0,,,,,,0.0,,,,,,,
283,508114,1745298972932,,,,,,,,,,,,,,,,,,,,,,,,,,,,,,,,,,0.0,0.0,0.0,0.0,0.0,0.0,0.0,0.0,0.0,0.0,0.0,0.0,0.0,0.0,0.0,0.0,,,,,,,,,,,,,
284,508134,1745298972952,0.0,3.0,,-0.09,-0.08,1.0,0.0,0.0,0.0,1.01,1.19,84.0,2802.0,0.0,3.03,,12.75,1.249,95.2,,21.1,5.0,,,,,,,,,,,,0.0,0.0,0.0,0.0,0.0,0.0,0.0,0.0,0.0,0.0,0.0,0.0,0.0,0.0,0.0,0.0,,,,,,0.0,,,,,,,
285,508154,1745298972972,,,,,,,,,,,,,,,,,,,,,,,,,,,,,,,,,,0.0,0.0,0.0,0.0,0.0,0.0,0.0,0.0,0.0,0.0,0.0,0.0,0.0,0.0,0.0,0.0,,,,,,,,,,,,,
286,508174,1745298972992,0.0,-8.0,,-0.08,-0.03,0.99,0.0,0.0,0.0,0.99,1.19,83.0,2697.0,0.0,3.05,,12.75,1.249,95.2,,20.1,5.0,0.0,0.0,0.0,0.0,0.0,0.0,0.0,0.0,2.26,,,0.0,0.0,0.0,0.0,0.0,0.0,0.0,0.0,0.0,0.0,0.0,0.0,0.0,0.0,0.0,0.0,,0.0,,,,0.0,38.986019,-76.95002,0.04,50.2,35.0,3.0,0.7
287,508194,1745298973004,,,,,,,,,,,,,,,,,,,,,,,,,,,,,,,,,,0.0,0.0,0.0,0.0,0.0,0.0,0.0,0.0,0.0,0.0,0.0,0.0,0.0,0.0,0.0,0.0,,,,,,,,,,,,,
288,508214,1745298973024,0.0,8.0,,-0.09,-0.02,0.97,0.0,0.0,0.0,0.98,1.19,82.0,2697.0,0.0,3.05,,12.83,1.249,95.2,,20.1,5.0,,,,,,,,,,,,0.0,0.0,0.0,0.0,0.0,0.0,0.0,0.0,0.0,0.0,0.0,0.0,0.0,0.0,0.0,0.0,,,,,,0.0,,,,,,,
289,508234,1745298973044,,,,,,,,,,,,,,,,,,,,,,,,,,,,,,,,,,0.0,0.0,0.0,0.0,0.0,0.0,0.0,0.0,0.0,0.0,0.0,0.0,0.0,0.0,0.0,0.0,,,,,,,,,,,,,
290,508254,1745298973064,0.0,3.0,,-0.1,-0.03,1.0,0.0,0.0,0.0,1.01,1.19,84.0,2709.0,0.0,3.07,,12.8,1.252,95.2,,19.9,5.0,,,,,,,,,,,,0.0,0.0,0.0,0.0,0.0,0.0,0.0,0.0,0.0,0.0,0.0,0.0,0.0,0.0,0.0,0.0,,,,,,0.0,,,,,,,
291,508274,1745298973084,,,,,,,,,,,,,,,,,,,,,,,0.0,0.0,0.0,0.0,0.0,0.0,0.0,0.0,2.26,,,0.0,0.0,0.0,0.0,0.0,0.0,0.0,0.0,0.0,0.0,0.0,0.0,0.0,0.0,0.0,0.0,,0.0,,,,,38.986019,-76.95002,0.04,50.2,35.0,3.0,0.7
292,508294,1745298973101,0.0,-8.0,,-0.09,-0.02,0.99,0.0,0.0,0.0,0.99,1.19,83.0,2631.0,0.0,3.12,,12.85,1.252,95.2,,19.9,5.0,,,,,,,,,,,,0.0,0.0,0.0,0.0,0.0,0.0,0.0,0.0,0.0,0.0,0.0,0.0,0.0,0.0,0.0,0.0,,,,,,0.0,,,,,,,
293,508314,1745298973121,,,,,,,,,,,,,,,,,,,,,,,,,,,,,,,,,,0.0,0.0,0.0,0.0,0.0,0.0,0.0,0.0,0.0,0.0,0.0,0.0,0.0,0.0,0.0,0.0,,,,,,,,,,,,,
294,508334,1745298973141,0.0,-15.0,,-0.1,-0.03,1.0,0.0,0.0,0.0,1.0,1.19,84.0,2566.0,1.0,3.26,,13.11,1.252,95.2,,19.9,5.0,,,,,,,,,,,,0.0,0.0,0.0,0.0,0.0,0.0,0.0,0.0,0.0,0.0,0.0,0.0,0.0,0.0,0.0,0.0,,,,,,0.0,,,,,,,
295,508354,1745298973161,,,,,,,,,,,,,,,,,,,,,,,,,,,,,,,,,,0.0,0.0,0.0,0.0,0.0,0.0,0.0,0.0,0.0,0.0,0.0,0.0,0.0,0.0,0.0,0.0,,,,,,,,,,,,,
296,508374,1745298973181,0.0,-12.0,,-0.09,-0.03,0.99,0.0,0.0,0.0,1.0,1.19,83.0,2558.0,2.0,3.44,,13.11,1.252,95.2,,18.4,5.0,0.0,0.0,0.0,0.0,0.0,0.0,0.0,0.0,2.26,,,0.0,0.0,0.0,0.0,0.0,0.0,0.0,0.0,0.0,0.0,0.0,0.0,0.0,0.0,0.0,0.0,,0.0,,,,0.0,38.986019,-76.95002,0.04,50.2,35.0,3.0,0.7
297,508394,1745298973213,,,,,,,,,,,,,,,,,,,,,,,,,,,,,,,,,,0.0,0.0,0.0,0.0,0.0,0.0,0.0,0.0,0.0,0.0,0.0,0.0,0.0,0.0,0.0,0.0,,,,,,,,,,,,,
298,508414,1745298973233,0.0,5.0,,-0.09,-0.02,0.96,0.0,0.0,0.0,0.97,1.19,81.0,2558.0,2.0,3.44,,13.27,1.252,95.2,,18.4,5.0,,,,,,,,,,,,0.0,0.0,0.0,0.0,0.0,0.0,0.0,0.0,0.0,0.0,0.0,0.0,0.0,0.0,0.0,0.0,,,,,,0.0,,,,,,,
299,508434,1745298973253,,,,,,,,,,,,,,,,,,,,,,,,,,,,,,,,,,0.0,0.0,0.0,0.0,0.0,0.0,0.0,0.0,0.0,0.0,0.0,0.0,0.0,0.0,0.0,0.0,,,,,,,,,,,,,
300,508454,1745298973273,0.0,5.0,,-0.09,-0.01,0.97,0.0,0.0,0.0,0.98,1.19,82.0,2525.0,2.6,3.56,,13.41,1.25,95.2,,18.4,5.0,,,,,,,,,,,,0.0,0.0,0.0,0.0,0.0,0.0,0.0,0.0,0.0,0.0,0.0,0.0,0.0,0.0,0.0,0.0,,,,,,0.0,,,,,,,
301,508474,1745298973293,,,,,,,,,,,,,,,,,,,,,,,0.0,0.0,0.0,0.0,0.0,0.0,0.0,0.0,2.26,,,0.0,0.0,0.0,0.0,0.0,0.0,0.0,0.0,0.0,0.0,0.0,0.0,0.0,0.0,0.0,0.0,,0.0,,,,,38.986019,-76.95002,0.0,50.2,35.0,3.0,0.7
302,508494,1745298973313,0.0,5.0,,-0.09,-0.03,0.99,0.0,0.0,0.0,0.99,1.19,83.0,2502.0,0.3,3.6,,13.43,1.249,95.2,,18.4,5.0,,,,,,,,,,,,0.0,0.0,0.0,0.0,0.0,0.0,0.0,0.0,0.0,0.0,0.0,0.0,0.0,0.0,0.0,0.0,,,,,,0.0,,,,,,,
303,508514,1745298973333,,,,,,,,,,,,,,,,,,,,,,,,,,,,,,,,,,0.0,0.0,0.0,0.0,0.0,0.0,0.0,0.0,0.0,0.0,0.0,0.0,0.0,0.0,0.0,0.0,,,,,,,,,,,,,
304,508534,1745298973353,0.0,-19.0,,-0.09,-0.01,0.99,0.0,0.0,0.0,1.0,1.19,83.0,2519.0,0.0,3.24,,13.31,1.249,95.2,,18.4,5.0,,,,,,,,,,,,0.0,0.0,0.0,0.0,0.0,0.0,0.0,0.0,0.0,0.0,0.0,0.0,0.0,0.0,0.0,0.0,,,,,,0.0,,,,,,,
305,508554,1745298973373,,,,,,,,,,,,,,,,,,,,,,,,,,,,,,,,,,0.0,0.0,0.0,0.0,0.0,0.0,0.0,0.0,0.0,0.0,0.0,0.0,0.0,0.0,0.0,0.0,,,,,,,,,,,,,
306,508574,1745298973393,0.0,0.0,13.41,-0.1,-0.01,0.99,0.0,0.0,0.0,1.0,1.19,83.0,2480.0,0.0,3.22,15.0,13.31,1.249,95.2,178.0,18.6,5.0,0.0,0.0,0.0,0.0,0.0,0.0,0.0,0.0,2.27,0.0,1.0,0.0,0.0,0.0,0.0,0.0,0.0,0.0,0.0,0.0,0.0,0.0,0.0,0.0,0.0,0.0,0.0,0.0,0.0,1.0,0.0,0.0,0.0,38.986019,-76.95002,0.05,50.2,35.0,3.0,0.7
307,508594,1745298973413,,,,,,,,,,,,,,,,,,,,,,,,,,,,,,,,,,0.0,0.0,0.0,0.0,0.0,0.0,0.0,0.0,0.0,0.0,0.0,0.0,0.0,0.0,0.0,0.0,,,,,,,,,,,,,
308,508614,1745298973433,0.0,0.0,,-0.08,-0.04,1.0,0.0,0.0,0.0,1.0,1.19,84.0,2480.0,0.0,3.22,,13.27,1.249,95.2,,18.6,5.0,,,,,,,,,,,,0.0,0.0,0.0,0.0,0.0,0.0,0.0,0.0,0.0,0.0,0.0,0.0,0.0,0.0,0.0,0.0,,,,,,0.0,,,,,,,
309,508634,1745298973453,,,,,,,,,,,,,,,,,,,,,,,,,,,,,,,,,,0.0,0.0,0.0,0.0,0.0,0.0,0.0,0.0,0.0,0.0,0.0,0.0,0.0,0.0,0.0,0.0,,,,,,,,,,,,,
310,508654,1745298973473,0.0,0.0,,-0.09,-0.02,1.01,0.0,0.0,0.0,1.01,1.19,85.0,2468.0,0.0,3.25,,13.23,1.249,95.2,,18.2,5.0,,,,,,,,,,,,0.0,0.0,0.0,0.0,0.0,0.0,0.0,0.0,0.0,0.0,0.0,0.0,0.0,0.0,0.0,0.0,,,,,,0.0,,,,,,,
311,508674,1745298973493,,,,,,,,,,,,,,,,,,,,,,,0.0,0.0,0.0,0.0,0.0,0.0,0.0,0.0,2.26,,,0.0,0.0,0.0,0.0,0.0,0.0,0.0,0.0,0.0,0.0,0.0,0.0,0.0,0.0,0.0,0.0,,0.0,,,,,38.986019,-76.95002,0.0,50.2,35.0,3.0,0.7
312,508694,1745298973513,0.0,3.0,,-0.09,-0.02,0.99,0.0,0.0,0.0,1.0,1.19,84.0,2485.0,0.0,3.24,,13.23,1.25,95.2,,18.2,5.0,,,,,,,,,,,,0.0,0.0,0.0,0.0,0.0,0.0,0.0,0.0,0.0,0.0,0.0,0.0,0.0,0.0,0.0,0.0,,,,,,0.0,,,,,,,
313,508714,1745298973533,,,,,,,,,,,,,,,,,,,,,,,,,,,,,,,,,,0.0,0.0,0.0,0.0,0.0,0.0,0.0,0.0,0.0,0.0,0.0,0.0,0.0,0.0,0.0,0.0,,,,,,,,,,,,,
314,508734,1745298973553,0.0,5.0,,-0.08,-0.03,0.98,0.0,0.0,0.0,0.99,1.19,83.0,2437.0,1.3,3.24,,13.32,1.252,95.2,,18.2,5.0,,,,,,,,,,,,0.0,0.0,0.0,0.0,0.0,0.0,0.0,0.0,0.0,0.0,0.0,0.0,0.0,0.0,0.0,0.0,,,,,,0.0,,,,,,,
315,508754,1745298973573,,,,,,,,,,,,,,,,,,,,,,,,,,,,,,,,,,0.0,0.0,0.0,0.0,0.0,0.0,0.0,0.0,0.0,0.0,0.0,0.0,0.0,0.0,0.0,0.0,,,,,,,,,,,,,
