,Interval,Utc,FrontBP,SteerAng,Battery,AccelX,AccelY,AccelZ,Yaw,Pitch,Roll,Gsum,GsumMax,GsumPct,RPM,TPS,InjectorPW,Baro,MAP,Lambda,IAT,EngineTemp,EOP,EOT,WSFR,WSFL,WSRR,WSRL,TCSet,TCSlip,TCComp,TCCut,Analog8,OilTemp,AA_On,ThermLF1,ThermLF2,ThermRR1,ThermRR2,ThermLF3,ThermLF4,ThermLF5,ThermLF6,ThermLF7,ThermLF8,ThermRR3,ThermRR4,ThermRR5,ThermRR6,ThermRR7,ThermRR8,AA_LowDrag,Gear,AA_On1,AA_LowDrag1,Fuel_Mix,AA_Packages,Latitude,Longitude,Speed,Altitude,GPSSats,GPSQual,GPSDOP
0,1128394,1745299606650,,,,,,,,,,,,,,,,,,,,,,,,,,,,,,,,,,0,0,0,0,0,0,0,0,0,0,0,0,0,0,0,0,,,,,,,,,,,,,
1,1128414,1745299606670,0.0,-102.0,,-0.07,-0.19,0.94,-2.0,0.0,0.0,0.97,0.97,100.0,8084.0,26.0,4.08,,10.78,1.249,88.0,,51.2,5.0,,,,,,,,,,,,0,0,0,0,0,0,0,0,0,0,0,0,0,0,0,0,,,,,,0.0,,,,,,,
2,1128434,1745299606690,,,,,,,,,,,,,,,,,,,,,,,,,,,,,,,,,,0,0,0,0,0,0,0,0,0,0,0,0,0,0,0,0,,,,,,,,,,,,,
3,1128454,1745299606707,0.0,-38.0,,-0.08,-0.52,0.91,-2.0,0.0,0.0,1.05,1.05,100.0,8893.0,0.2,1.4,,8.77,1.152,88.0,,55.7,5.0,,,,,,,,,,,,0,0,0,0,0,0,0,0,0,0,0,0,0,0,0,0,,,,,,0.0,,,,,,,
4,1128474,1745299606727,,,,,,,,,,,,,,,,,,,,,,,0.0,0.0,0.0,0.0,0.0,0.0,0.0,0.0,2.25,,,0,0,0,0,0,0,0,0,0,0,0,0,0,0,0,0,,0.0,,,,,38.986023,-76.95002,0.08,49.4,34.0,3.0,0.8
5,1128494,1745299606747,0.0,-61.0,,-0.11,-0.67,0.9,-2.0,0.0,0.0,1.13,1.13,100.0,8965.0,0.1,1.4,,7.16,0.904,88.0,,55.7,5.0,,,,,,,,,,,,0,0,0,0,0,0,0,0,0,0,0,0,0,0,0,0,,,,,,0.0,,,,,,,
6,1128514,1745299606767,,,,,,,,,,,,,,,,,,,,,,,,,,,,,,,,,,0,0,0,0,0,0,0,0,0,0,0,0,0,0,0,0,,,,,,,,,,,,,
7,1128534,1745299606787,0.0,-68.0,,-0.1,-0.68,0.89,-2.0,0.0,0.0,1.12,1.13,99.0,8433.0,0.0,1.4,,6.27,0.858,88.0,,55.7,5.0,,,,,,,,,,,,0,0,0,0,0,0,0,0,0,0,0,0,0,0,0,0,,,,,,0.0,,,,,,,
8,1128554,1745299606807,,,,,,,,,,,,,,,,,,,,,,,,,,,,,,,,,,0,0,0,0,0,0,0,0,0,0,0,0,0,0,0,0,,,,,,,,,,,,,
9,1128574,1745299606827,0.0,-42.0,13.09,-0.07,-0.65,0.91,-2.0,0.0,-1.0,1.12,1.13,99.0,7922.0,0.4,1.4,15.0,6.27,0.858,88.0,178.0,49.8,5.0,0.0,0.0,0.0,0.0,0.0,0.0,0.0,0.0,2.26,0.0,1.0,0,0,0,0,0,0,0,0,0,0,0,0,0,0,0,0,0.0,0.0,1.0,0.0,0.0,0.0,38.986023,-76.95002,0.0,49.4,34.0,3.0,0.8
10,1128594,1745299606847,,,,,,,,,,,,,,,,,,,,,,,,,,,,,,,,,,0,0,0,0,0,0,0,0,0,0,0,0,0,0,0,0,,,,,,,,,,,,,
11,1128614,1745299606867,0.0,-34.0,,-0.06,-0.52,0.95,-2.0,0.0,-1.0,1.08,1.13,96.0,7922.0,0.4,1.4,,5.99,1.209,88.0,,49.8,5.0,,,,,,,,,,,,0,0,0,0,0,0,0,0,0,0,0,0,0,0,0,0,,,,,,0.0,,,,,,,
12,1128634,1745299606887,,,,,,,,,,,,,,,,,,,,,,,,,,,,,,,,,,0,0,0,0,0,0,0,0,0,0,0,0,0,0,0,0,,,,,,,,,,,,,
13,1128654,1745299606909,0.0,-27.0,,-0.06,-0.34,0.96,-2.0,0.0,0.0,1.02,1.13,90.0,7501.0,9.8,2.35,,6.56,1.252,88.0,,49.2,5.0,,,,,,,,,,,,0,0,0,0,0,0,0,0,0,0,0,0,0,0,0,0,,,,,,0.0,,,,,,,
14,1128674,1745299606929,,,,,,,,,,,,,,,,,,,,,,,0.0,0.0,0.0,0.0,0.0,0.0,0.0,0.0,2.26,,,0,0,0,0,0,0,0,0,0,0,0,0,0,0,0,0,,0.0,,,,,38.986023,-76.95002,0.0,49.4,34.0,3.0,0.8
15,1128694,1745299606949,0.0,-27.0,,-0.07,-0.23,1.0,-2.0,0.0,0.0,1.02,1.13,90.0,7468.0,13.5,2.69,,7.65,1.252,88.0,,49.2,5.0,,,,,,,,,,,,0,0,0,0,0,0,0,0,0,0,0,0,0,0,0,0,,,,,,0.0,,,,,,,
16,1128714,1745299606969,,,,,,,,,,,,,,,,,,,,,,,,,,,,,,,,,,0,0,0,0,0,0,0,0,0,0,0,0,0,0,0,0,,,,,,,,,,,,,
17,1128734,1745299606989,0.0,-27.0,,-0.08,-0.17,0.95,-1.0,0.0,0.0,0.96,1.13,85.0,7636.0,15.2,2.96,,8.45,1.252,88.0,,49.2,5.0,,,,,,,,,,,,0,0,0,0,0,0,0,0,0,0,0,0,0,0,0,0,,,,,,0.0,,,,,,,
18,1128754,1745299607009,,,,,,,,,,,,,,,,,,,,,,,,,,,,,,,,,,0,0,0,0,0,0,0,0,0,0,0,0,0,0,0,0,,,,,,,,,,,,,
19,1128774,1745299607019,0.0,-42.0,,-0.1,-0.17,0.95,-1.0,0.0,0.0,0.97,1.13,86.0,7874.0,1.3,1.4,,7.66,1.053,88.0,,51.6,5.0,0.0,0.0,0.0,0.0,0.0,0.0,0.0,0.0,2.27,,,0,0,0,0,0,0,0,0,0,0,0,0,0,0,0,0,,0.0,,,,0.0,38.986023,-76.95002,0.0,49.4,34.0,3.0,0.8
20,1128794,1745299607039,,,,,,,,,,,,,,,,,,,,,,,,,,,,,,,,,,0,0,0,0,0,0,0,0,0,0,0,0,0,0,0,0,,,,,,,,,,,,,
21,1128814,1745299607059,0.0,-34.0,,-0.11,-0.21,0.92,-2.0,0.0,0.0,0.95,1.13,84.0,7874.0,1.3,1.4,,7.66,1.053,88.0,,51.6,5.0,,,,,,,,,,,,0,0,0,0,0,0,0,0,0,0,0,0,0,0,0,0,,,,,,0.0,,,,,,,
22,1128834,1745299607079,,,,,,,,,,,,,,,,,,,,,,,,,,,,,,,,,,0,0,0,0,0,0,0,0,0,0,0,0,0,0,0,0,,,,,,,,,,,,,
23,1128854,1745299607105,0.0,-23.0,,-0.12,-0.26,0.9,-2.0,0.0,-1.0,0.94,1.13,83.0,7730.0,2.2,1.4,,6.86,0.981,88.0,,50.0,5.0,,,,,,,,,,,,0,0,0,0,0,0,0,0,0,0,0,0,0,0,0,0,,,,,,0.0,,,,,,,
24,1128874,1745299607125,,,,,,,,,,,,,,,,,,,,,,,0.0,0.0,0.0,0.0,0.0,0.0,0.0,0.0,2.26,,,0,0,0,0,0,0,0,0,0,0,0,0,0,0,0,0,,0.0,,,,,38.986023,-76.95002,0.05,49.4,34.0,3.0,0.8
25,1128894,1745299607145,0.0,-53.0,,-0.11,-0.16,0.92,-1.0,0.0,0.0,0.94,1.13,83.0,7266.0,9.5,2.48,,7.03,0.967,88.0,,50.0,5.0,,,,,,,,,,,,0,0,0,0,0,0,0,0,0,0,0,0,0,0,0,0,,,,,,0.0,,,,,,,
26,1128914,1745299607165,,,,,,,,,,,,,,,,,,,,,,,,,,,,,,,,,,0,0,0,0,0,0,0,0,0,0,0,0,0,0,0,0,,,,,,,,,,,,,
27,1128934,1745299607185,0.0,-38.0,,-0.11,-0.15,0.9,-2.0,0.0,0.0,0.92,1.13,82.0,7014.0,18.7,3.56,,8.74,1.12,88.0,,50.0,5.0,,,,,,,,,,,,0,0,0,0,0,0,0,0,0,0,0,0,0,0,0,0,,,,,,0.0,,,,,,,
28,1128954,1745299607203,,,,,,,,,,,,,,,,,,,,,,,,,,,,,,,,,,0,0,0,0,0,0,0,0,0,0,0,0,0,0,0,0,,,,,,,,,,,,,
29,1128974,1745299607223,0.0,-34.0,,-0.09,-0.01,0.94,-1.0,0.0,0.0,0.95,1.13,84.0,7182.0,22.7,3.99,,10.38,1.248,88.0,,48.2,5.0,0.0,0.0,0.0,0.0,0.0,0.0,0.0,0.0,2.26,,,0,0,0,0,0,0,0,0,0,0,0,0,0,0,0,0,,0.0,,,,0.0,38.986023,-76.95002,0.07,49.4,34.0,3.0,0.8
30,1128994,1745299607243,,,,,,,,,,,,,,,,,,,,,,,,,,,,,,,,,,0,0,0,0,0,0,0,0,0,0,0,0,0,0,0,0,,,,,,,,,,,,,
31,1129014,1745299607263,0.0,-34.0,,-0.09,0.06,1.04,0.0,0.0,0.0,1.04,1.13,92.0,7182.0,22.7,3.99,,10.38,1.248,88.0,,48.2,5.0,,,,,,,,,,,,0,0,0,0,0,0,0,0,0,0,0,0,0,0,0,0,,,,,,0.0,,,,,,,
32,1129034,1745299607283,,,,,,,,,,,,,,,,,,,,,,,,,,,,,,,,,,0,0,0,0,0,0,0,0,0,0,0,0,0,0,0,0,,,,,,,,,,,,,
33,1129054,1745299607309,0.0,-23.0,,-0.1,0.11,1.05,0.0,0.0,0.0,1.06,1.13,94.0,7690.0,23.5,4.44,,10.89,1.248,88.0,,51.3,5.0,,,,,,,,,,,,0,0,0,0,0,0,0,0,0,0,0,0,0,0,0,0,,,,,,0.0,,,,,,,
34,1129074,1745299607329,,,,,,,,,,,,,,,,,,,,,,,0.0,0.0,0.0,0.0,0.0,0.0,0.0,0.0,2.25,,,0,0,0,0,0,0,0,0,0,0,0,0,0,0,0,0,,0.0,,,,,38.986023,-76.95002,0.05,49.4,34.0,3.0,0.8
35,1129094,1745299607349,0.0,-27.0,,-0.11,-0.11,1.0,0.0,0.0,0.0,1.02,1.13,90.0,8564.0,0.5,1.4,,9.35,1.012,88.0,,51.3,5.0,,,,,,,,,,,,0,0,0,0,0,0,0,0,0,0,0,0,0,0,0,0,,,,,,0.0,,,,,,,
36,1129114,1745299607369,,,,,,,,,,,,,,,,,,,,,,,,,,,,,,,,,,0,0,0,0,0,0,0,0,0,0,0,0,0,0,0,0,,,,,,,,,,,,,
37,1129134,1745299607389,0.0,-31.0,,-0.08,-0.11,1.01,-1.0,0.0,0.0,1.02,1.13,90.0,8773.0,0.3,1.4,,7.5,0.866,88.0,,51.3,5.0,,,,,,,,,,,,0,0,0,0,0,0,0,0,0,0,0,0,0,0,0,0,,,,,,0.0,,,,,,,
38,1129154,1745299607409,,,,,,,,,,,,,,,,,,,,,,,,,,,,,,,,,,0,0,0,0,0,0,0,0,0,0,0,0,0,0,0,0,,,,,,,,,,,,,
39,1129174,1745299607429,0.0,-31.0,,-0.09,-0.01,1.01,0.0,0.0,0.0,1.01,1.13,89.0,8232.0,0.5,1.4,,6.56,0.836,88.0,,52.2,5.0,0.0,0.0,0.0,0.0,0.0,0.0,0.0,0.0,2.25,,,0,0,0,0,0,0,0,0,0,0,0,0,0,0,0,0,,0.0,,,,0.0,38.986023,-76.95002,0.0,49.4,34.0,3.0,0.8
40,1129194,1745299607449,,,,,,,,,,,,,,,,,,,,,,,,,,,,,,,,,,0,0,0,0,0,0,0,0,0,0,0,0,0,0,0,0,,,,,,,,,,,,,
41,1129214,1745299607469,0.0,-31.0,,-0.1,0.02,0.96,0.0,0.0,0.0,0.97,1.13,86.0,8232.0,0.5,1.4,,6.56,0.836,88.0,,52.2,5.0,,,,,,,,,,,,0,0,0,0,0,0,0,0,0,0,0,0,0,0,0,0,,,,,,0.0,,,,,,,
42,1129234,1745299607489,,,,,,,,,,,,,,,,,,,,,,,,,,,,,,,,,,0,0,0,0,0,0,0,0,0,0,0,0,0,0,0,0,,,,,,,,,,,,,
43,1129254,1745299607509,0.0,3.0,,-0.1,-0.17,0.93,-1.0,0.0,-1.0,0.95,1.13,84.0,7676.0,0.4,1.4,,6.28,1.148,88.0,,48.5,5.0,,,,,,,,,,,,0,0,0,0,0,0,0,0,0,0,0,0,0,0,0,0,,,,,,0.0,,,,,,,
44,1129274,1745299607529,,,,,,,,,,,,,,,,,,,,,,,0.0,0.0,0.0,0.0,0.0,0.0,0.0,0.0,2.26,,,0,0,0,0,0,0,0,0,0,0,0,0,0,0,0,0,,0.0,,,,,38.986023,-76.95002,0.0,49.4,34.0,3.0,0.8
45,1129294,1745299607549,0.0,-42.0,,-0.11,-0.1,0.97,-1.0,0.0,0.0,0.98,1.13,87.0,7203.0,4.9,1.95,,6.51,1.25,88.0,,48.5,5.0,,,,,,,,,,,,0,0,0,0,0,0,0,0,0,0,0,0,0,0,0,0,,,,,,0.0,,,,,,,
46,1129314,1745299607569,,,,,,,,,,,,,,,,,,,,,,,,,,,,,,,,,,0,0,0,0,0,0,0,0,0,0,0,0,0,0,0,0,,,,,,,,,,,,,
47,1129334,1745299607589,0.0,-23.0,,-0.1,-0.08,0.95,-1.0,0.0,0.0,0.95,1.13,84.0,6935.0,5.3,2.16,,7.06,1.248,88.0,,48.5,5.0,,,,,,,,,,,,0,0,0,0,0,0,0,0,0,0,0,0,0,0,0,0,,,,,,0.0,,,,,,,
48,1129354,1745299607607,,,,,,,,,,,,,,,,,,,,,,,,,,,,,,,,,,0,0,0,0,0,0,0,0,0,0,0,0,0,0,0,0,,,,,,,,,,,,,
49,1129374,1745299607627,0.0,-31.0,,-0.06,-0.13,0.91,0.0,0.0,0.0,0.92,1.13,82.0,6897.0,2.5,2.2,,7.06,1.248,88.0,,48.4,5.0,0.0,0.0,0.0,0.0,0.0,0.0,0.0,0.0,2.26,,,0,0,0,0,0,0,0,0,0,0,0,0,0,0,0,0,,0.0,,,,0.0,38.986023,-76.95002,0.0,49.4,34.0,3.0,0.8
50,1129394,1745299607647,,,,,,,,,,,,,,,,,,,,,,,,,,,,,,,,,,0,0,0,0,0,0,0,0,0,0,0,0,0,0,0,0,,,,,,,,,,,,,
51,1129414,1745299607667,0.0,14.0,,-0.06,-0.13,0.92,0.0,0.0,0.0,0.94,1.13,83.0,6744.0,1.3,1.4,,7.16,1.248,88.0,,48.4,5.0,,,,,,,,,,,,0,0,0,0,0,0,0,0,0,0,0,0,0,0,0,0,,,,,,0.0,,,,,,,
52,1129434,1745299607687,,,,,,,,,,,,,,,,,,,,,,,,,,,,,,,,,,0,0,0,0,0,0,0,0,0,0,0,0,0,0,0,0,,,,,,,,,,,,,
53,1129454,1745299607708,0.0,-19.0,,-0.09,-0.05,0.99,0.0,0.0,0.0,1.0,1.13,88.0,6744.0,1.3,1.4,,7.07,1.248,88.0,,47.4,5.0,,,,,,,,,,,,0,0,0,0,0,0,0,0,0,0,0,0,0,0,0,0,,,,,,0.0,,,,,,,
54,1129474,1745299607728,,,,,,,,,,,,,,,,,,,,,,,0.0,0.0,0.0,0.0,0.0,0.0,0.0,0.0,2.26,,,0,0,0,0,0,0,0,0,0,0,0,0,0,0,0,0,,0.0,,,,,38.986023,-76.95002,0.0,49.4,34.0,3.0,0.8
55,1129494,1745299607748,0.0,-42.0,,-0.13,-0.01,0.92,1.0,0.0,0.0,0.93,1.13,82.0,6356.0,1.3,1.4,,7.1,1.145,88.0,,47.4,5.0,,,,,,,,,,,,0,0,0,0,0,0,0,0,0,0,0,0,0,0,0,0,,,,,,0.0,,,,,,,
56,1129514,1745299607768,,,,,,,,,,,,,,,,,,,,,,,,,,,,,,,,,,0,0,0,0,0,0,0,0,0,0,0,0,0,0,0,0,,,,,,,,,,,,,
57,1129534,1745299607788,0.0,-38.0,,-0.17,0.06,0.89,1.0,0.0,0.0,0.91,1.13,81.0,5937.0,1.9,1.4,,7.43,1.083,88.0,,47.4,5.0,,,,,,,,,,,,0,0,0,0,0,0,0,0,0,0,0,0,0,0,0,0,,,,,,0.0,,,,,,,
58,1129554,1745299607808,,,,,,,,,,,,,,,,,,,,,,,,,,,,,,,,,,0,0,0,0,0,0,0,0,0,0,0,0,0,0,0,0,,,,,,,,,,,,,
59,1129574,1745299607828,0.0,-31.0,13.18,-0.14,0.04,0.92,1.0,0.0,0.0,0.93,1.13,82.0,5501.0,11.1,2.32,15.0,8.85,1.214,88.0,180.0,41.8,5.0,0.0,0.0,0.0,0.0,0.0,0.0,0.0,0.0,2.25,0.0,1.0,0,0,0,0,0,0,0,0,0,0,0,0,0,0,0,0,0.0,0.0,1.0,0.0,0.0,0.0,38.986023,-76.95002,0.08,49.4,34.0,3.0,0.8
60,1129594,1745299607848,,,,,,,,,,,,,,,,,,,,,,,,,,,,,,,,,,0,0,0,0,0,0,0,0,0,0,0,0,0,0,0,0,,,,,,,,,,,,,
61,1129614,1745299607868,0.0,-49.0,,-0.14,0.06,0.94,1.0,0.0,0.0,0.95,1.13,84.0,5501.0,11.1,2.32,,8.85,1.214,88.0,,41.8,5.0,,,,,,,,,,,,0,0,0,0,0,0,0,0,0,0,0,0,0,0,0,0,,,,,,0.0,,,,,,,
62,1129634,1745299607888,,,,,,,,,,,,,,,,,,,,,,,,,,,,,,,,,,0,0,0,0,0,0,0,0,0,0,0,0,0,0,0,0,,,,,,,,,,,,,
63,1129654,1745299607908,0.0,-27.0,,-0.14,-0.01,0.95,1.0,0.0,0.0,0.96,1.13,84.0,5215.0,18.1,3.06,,10.76,1.252,88.0,,36.0,5.0,,,,,,,,,,,,0,0,0,0,0,0,0,0,0,0,0,0,0,0,0,0,,,,,,0.0,,,,,,,
64,1129674,1745299607928,,,,,,,,,,,,,,,,,,,,,,,0.0,0.0,0.0,0.0,0.0,0.0,0.0,0.0,2.26,,,0,0,0,0,0,0,0,0,0,0,0,0,0,0,0,0,,0.0,,,,,38.986023,-76.95002,0.0,49.4,34.0,3.0,0.8
65,1129694,1745299607948,0.0,-38.0,,-0.13,0.03,0.97,1.0,0.0,0.0,0.98,1.13,86.0,5056.0,20.2,4.16,,12.04,1.251,88.0,,36.0,5.0,,,,,,,,,,,,0,0,0,0,0,0,0,0,0,0,0,0,0,0,0,0,,,,,,0.0,,,,,,,
66,1129714,1745299607968,,,,,,,,,,,,,,,,,,,,,,,,,,,,,,,,,,0,0,0,0,0,0,0,0,0,0,0,0,0,0,0,0,,,,,,,,,,,,,
67,1129734,1745299607988,0.0,-61.0,,-0.11,0.01,0.96,1.0,0.0,0.0,0.96,1.13,85.0,5022.0,20.3,4.11,,12.75,1.251,88.0,,36.0,5.0,,,,,,,,,,,,0,0,0,0,0,0,0,0,0,0,0,0,0,0,0,0,,,,,,0.0,,,,,,,
68,1129754,1745299608008,,,,,,,,,,,,,,,,,,,,,,,,,,,,,,,,,,0,0,0,0,0,0,0,0,0,0,0,0,0,0,0,0,,,,,,,,,,,,,
69,1129774,1745299608020,0.0,-27.0,,-0.12,-0.03,0.95,0.0,0.0,0.0,0.96,1.13,85.0,5008.0,16.0,4.15,,12.77,1.25,88.0,,34.4,5.0,0.0,0.0,0.0,0.0,0.0,0.0,0.0,0.0,2.25,,,0,0,0,0,0,0,0,0,0,0,0,0,0,0,0,0,,0.0,,,,0.0,38.986023,-76.95002,0.07,49.4,34.0,3.0,0.8
70,1129794,1745299608040,,,,,,,,,,,,,,,,,,,,,,,,,,,,,,,,,,0,0,0,0,0,0,0,0,0,0,0,0,0,0,0,0,,,,,,,,,,,,,
71,1129814,1745299608060,0.0,-46.0,,-0.11,0.02,0.98,1.0,0.0,0.0,0.99,1.13,87.0,4991.0,0.0,2.43,,12.77,1.25,88.0,,34.4,5.0,,,,,,,,,,,,0,0,0,0,0,0,0,0,0,0,0,0,0,0,0,0,,,,,,0.0,,,,,,,
72,1129834,1745299608080,,,,,,,,,,,,,,,,,,,,,,,,,,,,,,,,,,0,0,0,0,0,0,0,0,0,0,0,0,0,0,0,0,,,,,,,,,,,,,
73,1129854,1745299608102,0.0,-23.0,,-0.1,-0.03,0.94,0.0,0.0,0.0,0.94,1.13,83.0,4991.0,0.0,2.43,,11.68,1.249,88.0,,34.0,5.0,,,,,,,,,,,,0,0,0,0,0,0,0,0,0,0,0,0,0,0,0,0,,,,,,0.0,,,,,,,
74,1129874,1745299608122,,,,,,,,,,,,,,,,,,,,,,,0.0,0.0,0.0,0.0,0.0,0.0,0.0,0.0,2.26,,,0,0,0,0,0,0,0,0,0,0,0,0,0,0,0,0,,0.0,,,,,38.986023,-76.95002,0.07,49.4,34.0,3.0,0.8
75,1129894,1745299608142,0.0,-46.0,,-0.11,0.07,1.03,1.0,0.0,0.0,1.04,1.13,92.0,4861.0,0.0,2.4,,11.05,1.195,88.0,,34.0,5.0,,,,,,,,,,,,0,0,0,0,0,0,0,0,0,0,0,0,0,0,0,0,,,,,,0.0,,,,,,,
76,1129914,1745299608162,,,,,,,,,,,,,,,,,,,,,,,,,,,,,,,,,,0,0,0,0,0,0,0,0,0,0,0,0,0,0,0,0,,,,,,,,,,,,,
77,1129934,1745299608182,0.0,-46.0,,-0.13,0.15,1.11,1.0,0.0,1.0,1.13,1.13,100.0,4645.0,0.1,1.95,,10.77,1.173,88.0,,34.0,5.0,,,,,,,,,,,,0,0,0,0,0,0,0,0,0,0,0,0,0,0,0,0,,,,,,0.0,,,,,,,
78,1129954,1745299608208,,,,,,,,,,,,,,,,,,,,,,,,,,,,,,,,,,0,0,0,0,0,0,0,0,0,0,0,0,0,0,0,0,,,,,,,,,,,,,
79,1129974,1745299608228,0.0,-34.0,,-0.15,0.18,1.19,1.0,0.0,1.0,1.22,1.22,100.0,4399.0,7.0,3.55,,10.77,1.173,88.0,,30.9,5.0,0.0,0.0,0.0,0.0,0.0,0.0,0.0,0.0,2.26,,,0,0,0,0,0,0,0,0,0,0,0,0,0,0,0,0,,0.0,,,,0.0,38.986023,-76.95002,0.04,49.4,34.0,3.0,0.8
80,1129994,1745299608248,,,,,,,,,,,,,,,,,,,,,,,,,,,,,,,,,,0,0,0,0,0,0,0,0,0,0,0,0,0,0,0,0,,,,,,,,,,,,,
81,1130014,1745299608268,0.0,-49.0,,-0.13,0.19,1.2,2.0,0.0,1.0,1.22,1.22,100.0,4259.0,12.3,3.76,,11.17,1.205,88.0,,30.9,5.0,,,,,,,,,,,,0,0,0,0,0,0,0,0,0,0,0,0,0,0,0,0,,,,,,0.0,,,,,,,
82,1130034,1745299608288,,,,,,,,,,,,,,,,,,,,,,,,,,,,,,,,,,0,0,0,0,0,0,0,0,0,0,0,0,0,0,0,0,,,,,,,,,,,,,
83,1130054,1745299608308,0.0,-38.0,,-0.11,0.01,1.08,0.0,0.0,0.0,1.08,1.22,89.0,4259.0,12.3,3.76,,11.93,1.25,88.0,,28.3,5.0,,,,,,,,,,,,0,0,0,0,0,0,0,0,0,0,0,0,0,0,0,0,,,,,,0.0,,,,,,,
84,1130074,1745299608328,,,,,,,,,,,,,,,,,,,,,,,0.0,0.0,0.0,0.0,0.0,0.0,0.0,0.0,2.26,,,0,0,0,0,0,0,0,0,0,0,0,0,0,0,0,0,,0.0,,,,,38.986023,-76.95002,0.07,49.4,34.0,3.0,0.8
85,1130094,1745299608348,0.0,-42.0,,-0.13,0.08,1.16,1.0,0.0,1.0,1.17,1.22,96.0,4181.0,13.8,3.93,,12.51,1.25,88.0,,28.3,5.0,,,,,,,,,,,,0,0,0,0,0,0,0,0,0,0,0,0,0,0,0,0,,,,,,0.0,,,,,,,
86,1130114,1745299608368,,,,,,,,,,,,,,,,,,,,,,,,,,,,,,,,,,0,0,0,0,0,0,0,0,0,0,0,0,0,0,0,0,,,,,,,,,,,,,
87,1130134,1745299608388,0.0,-38.0,,-0.12,0.09,1.11,1.0,0.0,0.0,1.12,1.22,92.0,4204.0,16.0,3.99,,12.84,1.25,88.0,,28.3,5.0,,,,,,,,,,,,0,0,0,0,0,0,0,0,0,0,0,0,0,0,0,0,,,,,,0.0,,,,,,,
88,1130154,1745299608408,,,,,,,,,,,,,,,,,,,,,,,,,,,,,,,,,,0,0,0,0,0,0,0,0,0,0,0,0,0,0,0,0,,,,,,,,,,,,,
89,1130174,1745299608428,0.0,-34.0,,-0.1,-0.03,1.03,-1.0,0.0,0.0,1.03,1.22,84.0,4293.0,17.2,4.04,,13.08,1.229,88.0,,28.4,5.0,0.0,0.0,0.0,0.0,0.0,0.0,0.0,0.0,2.25,,,0,0,0,0,0,0,0,0,0,0,0,0,0,0,0,0,,0.0,,,,0.0,38.986023,-76.95002,0.04,49.4,34.0,3.0,0.8
90,1130194,1745299608448,,,,,,,,,,,,,,,,,,,,,,,,,,,,,,,,,,0,0,0,0,0,0,0,0,0,0,0,0,0,0,0,0,,,,,,,,,,,,,
91,1130214,1745299608468,0.0,-49.0,,-0.12,0.08,1.13,1.0,0.0,1.0,1.14,1.22,93.0,4291.0,17.3,4.07,,13.08,1.229,88.0,,28.4,5.0,,,,,,,,,,,,0,0,0,0,0,0,0,0,0,0,0,0,0,0,0,0,,,,,,0.0,,,,,,,
92,1130234,1745299608488,,,,,,,,,,,,,,,,,,,,,,,,,,,,,,,,,,0,0,0,0,0,0,0,0,0,0,0,0,0,0,0,0,,,,,,,,,,,,,
93,1130254,1745299608508,0.0,-34.0,,-0.12,0.12,1.14,1.0,0.0,0.0,1.15,1.22,94.0,4291.0,17.3,4.07,,13.19,1.218,88.0,,28.7,5.0,,,,,,,,,,,,0,0,0,0,0,0,0,0,0,0,0,0,0,0,0,0,,,,,,0.0,,,,,,,
94,1130274,1745299608528,,,,,,,,,,,,,,,,,,,,,,,0.0,0.0,0.0,0.0,0.0,0.0,0.0,0.0,2.25,,,0,0,0,0,0,0,0,0,0,0,0,0,0,0,0,0,,0.0,,,,,38.986023,-76.95002,0.05,49.4,34.0,3.0,0.8
95,1130294,1745299608548,0.0,-38.0,,-0.09,0.02,1.03,1.0,0.0,0.0,1.03,1.22,84.0,4284.0,12.5,4.06,,13.05,1.201,88.0,,28.7,5.0,,,,,,,,,,,,0,0,0,0,0,0,0,0,0,0,0,0,0,0,0,0,,,,,,0.0,,,,,,,
96,1130314,1745299608568,,,,,,,,,,,,,,,,,,,,,,,,,,,,,,,,,,0,0,0,0,0,0,0,0,0,0,0,0,0,0,0,0,,,,,,,,,,,,,
97,1130334,1745299608588,0.0,-57.0,,-0.09,-0.08,0.93,0.0,0.0,0.0,0.93,1.22,76.0,4390.0,0.0,2.5,,12.13,1.206,88.0,,28.7,5.0,,,,,,,,,,,,0,0,0,0,0,0,0,0,0,0,0,0,0,0,0,0,,,,,,0.0,,,,,,,
98,1130354,1745299608608,,,,,,,,,,,,,,,,,,,,,,,,,,,,,,,,,,0,0,0,0,0,0,0,0,0,0,0,0,0,0,0,0,,,,,,,,,,,,,
99,1130374,1745299608628,0.0,-42.0,,-0.1,-0.09,0.93,-1.0,0.0,0.0,0.94,1.22,77.0,4334.0,0.0,2.48,,11.58,1.213,88.0,,29.5,5.0,0.0,0.0,0.0,0.0,0.0,0.0,0.0,0.0,2.26,,,0,0,0,0,0,0,0,0,0,0,0,0,0,0,0,0,,0.0,,,,0.0,38.986023,-76.95002,0.04,49.4,34.0,3.0,0.8
100,1130394,1745299608648,,,,,,,,,,,,,,,,,,,,,,,,,,,,,,,,,,0,0,0,0,0,0,0,0,0,0,0,0,0,0,0,0,,,,,,,,,,,,,
101,1130414,1745299608668,0.0,-34.0,,-0.1,0.03,1.0,1.0,0.0,0.0,1.01,1.22,82.0,4174.0,0.0,2.47,,11.58,1.213,88.0,,29.5,5.0,,,,,,,,,,,,0,0,0,0,0,0,0,0,0,0,0,0,0,0,0,0,,,,,,0.0,,,,,,,
102,1130434,1745299608688,,,,,,,,,,,,,,,,,,,,,,,,,,,,,,,,,,0,0,0,0,0,0,0,0,0,0,0,0,0,0,0,0,,,,,,,,,,,,,
103,1130454,1745299608707,0.0,-31.0,,-0.08,0.02,1.01,-1.0,0.0,0.0,1.02,1.22,83.0,4174.0,0.0,2.47,,11.24,1.207,88.0,,27.6,5.0,,,,,,,,,,,,0,0,0,0,0,0,0,0,0,0,0,0,0,0,0,0,,,,,,0.0,,,,,,,
104,1130474,1745299608727,,,,,,,,,,,,,,,,,,,,,,,0.0,0.0,0.0,0.0,0.0,0.0,0.0,0.0,2.26,,,0,0,0,0,0,0,0,0,0,0,0,0,0,0,0,0,,0.0,,,,,38.986023,-76.95002,0.0,49.4,34.0,3.0,0.8
105,1130494,1745299608747,0.0,-34.0,,-0.08,-0.02,0.96,0.0,0.0,0.0,0.97,1.22,79.0,3984.0,0.0,2.47,,11.13,1.217,88.0,,27.6,5.0,,,,,,,,,,,,0,0,0,0,0,0,0,0,0,0,0,0,0,0,0,0,,,,,,0.0,,,,,,,
106,1130514,1745299608767,,,,,,,,,,,,,,,,,,,,,,,,,,,,,,,,,,0,0,0,0,0,0,0,0,0,0,0,0,0,0,0,0,,,,,,,,,,,,,
107,1130534,1745299608787,0.0,-34.0,,-0.08,-0.02,0.95,0.0,0.0,0.0,0.95,1.22,78.0,3779.0,6.5,3.7,,11.57,1.249,88.0,,27.6,5.0,,,,,,,,,,,,0,0,0,0,0,0,0,0,0,0,0,0,0,0,0,0,,,,,,0.0,,,,,,,
108,1130554,1745299608807,,,,,,,,,,,,,,,,,,,,,,,,,,,,,,,,,,0,0,0,0,0,0,0,0,0,0,0,0,0,0,0,0,,,,,,,,,,,,,
109,1130574,1745299608827,0.0,-34.0,13.27,-0.09,-0.02,0.94,1.0,0.0,0.0,0.95,1.22,77.0,3778.0,12.9,3.98,15.0,12.4,1.251,88.0,180.0,25.5,5.0,0.0,0.0,0.0,0.0,0.0,0.0,0.0,0.0,2.25,0.0,1.0,0,0,0,0,0,0,0,0,0,0,0,0,0,0,0,0,0.0,0.0,1.0,0.0,0.0,0.0,38.986023,-76.95002,0.05,49.4,34.0,3.0,0.8
110,1130594,1745299608847,,,,,,,,,,,,,,,,,,,,,,,,,,,,,,,,,,0,0,0,0,0,0,0,0,0,0,0,0,0,0,0,0,,,,,,,,,,,,,
111,1130614,1745299608867,0.0,-49.0,,-0.09,-0.03,0.98,0.0,0.0,0.0,0.98,1.22,80.0,3693.0,16.7,4.1,,12.4,1.251,88.0,,25.5,5.0,,,,,,,,,,,,0,0,0,0,0,0,0,0,0,0,0,0,0,0,0,0,,,,,,0.0,,,,,,,
112,1130634,1745299608887,,,,,,,,,,,,,,,,,,,,,,,,,,,,,,,,,,0,0,0,0,0,0,0,0,0,0,0,0,0,0,0,0,,,,,,,,,,,,,
113,1130654,1745299608907,0.0,-31.0,,-0.08,-0.06,0.98,0.0,0.0,0.0,0.99,1.22,81.0,3693.0,16.7,4.1,,13.19,1.252,88.0,,25.2,5.0,,,,,,,,,,,,0,0,0,0,0,0,0,0,0,0,0,0,0,0,0,0,,,,,,0.0,,,,,,,
114,1130674,1745299608927,,,,,,,,,,,,,,,,,,,,,,,0.0,0.0,0.0,0.0,0.0,0.0,0.0,0.0,2.25,,,0,0,0,0,0,0,0,0,0,0,0,0,0,0,0,0,,0.0,,,,,38.986023,-76.95002,0.07,49.4,34.0,3.0,0.8
115,1130694,1745299608947,0.0,-38.0,,-0.07,-0.01,0.97,1.0,0.0,0.0,0.97,1.22,80.0,3842.0,21.6,4.34,,13.55,1.245,88.0,,25.2,5.0,,,,,,,,,,,,0,0,0,0,0,0,0,0,0,0,0,0,0,0,0,0,,,,,,0.0,,,,,,,
116,1130714,1745299608967,,,,,,,,,,,,,,,,,,,,,,,,,,,,,,,,,,0,0,0,0,0,0,0,0,0,0,0,0,0,0,0,0,,,,,,,,,,,,,
117,1130734,1745299608987,0.0,-38.0,,-0.05,0.05,1.03,1.0,0.0,0.0,1.03,1.22,84.0,3901.0,22.4,4.4,,13.71,1.18,88.0,,25.2,5.0,,,,,,,,,,,,0,0,0,0,0,0,0,0,0,0,0,0,0,0,0,0,,,,,,0.0,,,,,,,
118,1130754,1745299609007,,,,,,,,,,,,,,,,,,,,,,,,,,,,,,,,,,0,0,0,0,0,0,0,0,0,0,0,0,0,0,0,0,,,,,,,,,,,,,
119,1130774,1745299609017,0.0,-31.0,,-0.06,-0.1,0.93,0.0,0.0,0.0,0.94,1.22,77.0,4090.0,13.1,4.0,,13.39,1.157,88.0,,26.5,5.0,0.0,0.0,0.0,0.0,0.0,0.0,0.0,0.0,2.26,,,0,0,0,0,0,0,0,0,0,0,0,0,0,0,0,0,,0.0,,,,0.0,38.986023,-76.95002,0.09,49.4,34.0,3.0,0.8
120,1130794,1745299609037,,,,,,,,,,,,,,,,,,,,,,,,,,,,,,,,,,0,0,0,0,0,0,0,0,0,0,0,0,0,0,0,0,,,,,,,,,,,,,
121,1130814,1745299609057,0.0,-53.0,,-0.06,0.06,1.05,1.0,0.0,1.0,1.06,1.22,86.0,4246.0,0.0,2.53,,13.39,1.157,88.0,,26.5,5.0,,,,,,,,,,,,0,0,0,0,0,0,0,0,0,0,0,0,0,0,0,0,,,,,,0.0,,,,,,,
122,1130834,1745299609077,,,,,,,,,,,,,,,,,,,,,,,,,,,,,,,,,,0,0,0,0,0,0,0,0,0,0,0,0,0,0,0,0,,,,,,,,,,,,,
123,1130854,1745299609103,0.0,-23.0,,-0.05,-0.03,0.98,1.0,0.0,0.0,0.98,1.22,80.0,4246.0,0.0,2.53,,12.44,1.167,88.0,,28.3,5.0,,,,,,,,,,,,0,0,0,0,0,0,0,0,0,0,0,0,0,0,0,0,,,,,,0.0,,,,,,,
124,1130874,1745299609123,,,,,,,,,,,,,,,,,,,,,,,0.0,0.0,0.0,0.0,0.0,0.0,0.0,0.0,2.25,,,0,0,0,0,0,0,0,0,0,0,0,0,0,0,0,0,,0.0,,,,,38.986023,-76.95002,0.25,49.4,34.0,3.0,0.8
125,1130894,1745299609143,0.0,-19.0,,-0.06,-0.0,1.03,0.0,0.0,0.0,1.03,1.22,84.0,4186.0,0.0,2.5,,11.81,1.157,88.0,,28.3,5.0,,,,,,,,,,,,0,0,0,0,0,0,0,0,0,0,0,0,0,0,0,0,,,,,,0.0,,,,,,,
126,1130914,1745299609163,,,,,,,,,,,,,,,,,,,,,,,,,,,,,,,,,,0,0,0,0,0,0,0,0,0,0,0,0,0,0,0,0,,,,,,,,,,,,,
127,1130934,1745299609183,0.0,-46.0,,-0.08,-0.04,0.96,1.0,0.0,0.0,0.97,1.22,79.0,4036.0,0.0,2.48,,11.44,1.143,88.0,,28.3,5.0,,,,,,,,,,,,0,0,0,0,0,0,0,0,0,0,0,0,0,0,0,0,,,,,,0.0,,,,,,,
128,1130954,1745299609207,,,,,,,,,,,,,,,,,,,,,,,,,,,,,,,,,,0,0,0,0,0,0,0,0,0,0,0,0,0,0,0,0,,,,,,,,,,,,,
129,1130974,1745299609227,0.0,-15.0,,-0.08,0.05,0.99,1.0,0.0,0.0,0.99,1.22,81.0,3944.0,1.5,2.5,,11.37,1.184,88.0,,26.9,5.0,0.0,0.0,0.0,0.0,0.0,0.0,0.0,0.0,2.26,,,0,0,0,0,0,0,0,0,0,0,0,0,0,0,0,0,,0.0,,,,0.0,38.986023,-76.95002,0.2,49.4,34.0,3.0,0.8
130,1130994,1745299609247,,,,,,,,,,,,,,,,,,,,,,,,,,,,,,,,,,0,0,0,0,0,0,0,0,0,0,0,0,0,0,0,0,,,,,,,,,,,,,
131,1131014,1745299609267,0.0,-53.0,,-0.09,0.02,1.0,1.0,0.0,0.0,1.01,1.22,82.0,3763.0,6.6,3.68,,11.37,1.184,88.0,,26.9,5.0,,,,,,,,,,,,0,0,0,0,0,0,0,0,0,0,0,0,0,0,0,0,,,,,,0.0,,,,,,,
132,1131034,1745299609287,,,,,,,,,,,,,,,,,,,,,,,,,,,,,,,,,,0,0,0,0,0,0,0,0,0,0,0,0,0,0,0,0,,,,,,,,,,,,,
133,1131054,1745299609305,0.0,-19.0,,-0.08,-0.0,1.0,0.0,0.0,0.0,1.0,1.22,82.0,3763.0,6.6,3.68,,11.93,1.247,88.0,,24.6,5.0,,,,,,,,,,,,0,0,0,0,0,0,0,0,0,0,0,0,0,0,0,0,,,,,,0.0,,,,,,,
134,1131074,1745299609325,,,,,,,,,,,,,,,,,,,,,,,0.0,0.0,0.0,0.0,0.0,0.0,0.0,0.0,2.26,,,0,0,0,0,0,0,0,0,0,0,0,0,0,0,0,0,,0.0,,,,,38.986023,-76.95002,0.04,49.4,34.0,3.0,0.8
135,1131094,1745299609345,0.0,-38.0,,-0.08,-0.03,0.98,0.0,0.0,0.0,0.98,1.22,80.0,3685.0,9.9,3.83,,12.47,1.251,88.0,,24.6,5.0,,,,,,,,,,,,0,0,0,0,0,0,0,0,0,0,0,0,0,0,0,0,,,,,,0.0,,,,,,,
136,1131114,1745299609365,,,,,,,,,,,,,,,,,,,,,,,,,,,,,,,,,,0,0,0,0,0,0,0,0,0,0,0,0,0,0,0,0,,,,,,,,,,,,,
137,1131134,1745299609385,0.0,-46.0,,-0.08,-0.11,1.02,-1.0,0.0,0.0,1.03,1.22,84.0,3637.0,13.0,4.01,,13.01,1.251,88.0,,24.6,5.0,,,,,,,,,,,,0,0,0,0,0,0,0,0,0,0,0,0,0,0,0,0,,,,,,0.0,,,,,,,
138,1131154,1745299609407,,,,,,,,,,,,,,,,,,,,,,,,,,,,,,,,,,0,0,0,0,0,0,0,0,0,0,0,0,0,0,0,0,,,,,,,,,,,,,
139,1131174,1745299609427,0.0,-23.0,,-0.07,-0.04,1.03,0.0,0.0,0.0,1.04,1.22,85.0,3618.0,14.5,4.06,,13.28,1.247,88.0,,23.7,5.0,0.0,0.0,0.0,0.0,0.0,0.0,0.0,0.0,2.26,,,0,0,0,0,0,0,0,0,0,0,0,0,0,0,0,0,,0.0,,,,0.0,38.986023,-76.95002,0.08,49.4,34.0,3.0,0.8
140,1131194,1745299609447,,,,,,,,,,,,,,,,,,,,,,,,,,,,,,,,,,0,0,0,0,0,0,0,0,0,0,0,0,0,0,0,0,,,,,,,,,,,,,
141,1131214,1745299609467,0.0,-34.0,,-0.06,-0.04,1.03,0.0,0.0,0.0,1.03,1.22,84.0,3618.0,14.5,4.06,,13.28,1.247,88.0,,23.7,5.0,,,,,,,,,,,,0,0,0,0,0,0,0,0,0,0,0,0,0,0,0,0,,,,,,0.0,,,,,,,
142,1131234,1745299609487,,,,,,,,,,,,,,,,,,,,,,,,,,,,,,,,,,0,0,0,0,0,0,0,0,0,0,0,0,0,0,0,0,,,,,,,,,,,,,
143,1131254,1745299609507,0.0,-31.0,,-0.06,-0.0,1.05,0.0,0.0,0.0,1.05,1.22,86.0,3678.0,14.8,4.06,,13.41,1.178,88.0,,24.2,5.0,,,,,,,,,,,,0,0,0,0,0,0,0,0,0,0,0,0,0,0,0,0,,,,,,0.0,,,,,,,
144,1131274,1745299609527,,,,,,,,,,,,,,,,,,,,,,,0.0,0.0,0.0,0.0,0.0,0.0,0.0,0.0,2.26,,,0,0,0,0,0,0,0,0,0,0,0,0,0,0,0,0,,0.0,,,,,38.986023,-76.95002,0.08,49.4,34.0,3.0,0.8
145,1131294,1745299609547,0.0,-27.0,,-0.06,-0.0,1.06,0.0,0.0,0.0,1.06,1.22,87.0,3706.0,14.9,4.05,,13.43,1.15,88.0,,24.2,5.0,,,,,,,,,,,,0,0,0,0,0,0,0,0,0,0,0,0,0,0,0,0,,,,,,0.0,,,,,,,
146,1131314,1745299609567,,,,,,,,,,,,,,,,,,,,,,,,,,,,,,,,,,0,0,0,0,0,0,0,0,0,0,0,0,0,0,0,0,,,,,,,,,,,,,
147,1131334,1745299609587,0.0,-38.0,,-0.06,-0.08,1.02,0.0,0.0,0.0,1.03,1.22,84.0,3887.0,14.8,4.04,,13.33,1.139,88.0,,24.2,5.0,,,,,,,,,,,,0,0,0,0,0,0,0,0,0,0,0,0,0,0,0,0,,,,,,0.0,,,,,,,
148,1131354,1745299609607,,,,,,,,,,,,,,,,,,,,,,,,,,,,,,,,,,0,0,0,0,0,0,0,0,0,0,0,0,0,0,0,0,,,,,,,,,,,,,
149,1131374,1745299609627,0.0,-19.0,,-0.07,-0.12,0.95,0.0,0.0,0.0,0.96,1.22,78.0,3919.0,14.8,4.0,,13.33,1.149,88.0,,26.1,5.0,0.0,0.0,0.0,0.0,0.0,0.0,0.0,0.0,2.25,,,0,0,0,0,0,0,0,0,0,0,0,0,0,0,0,0,,0.0,,,,0.0,38.986023,-76.95002,0.21,49.5,34.0,3.0,0.8
150,1131394,1745299609647,,,,,,,,,,,,,,,,,,,,,,,,,,,,,,,,,,0,0,0,0,0,0,0,0,0,0,0,0,0,0,0,0,,,,,,,,,,,,,
151,1131414,1745299609667,0.0,-38.0,,-0.06,0.01,0.99,2.0,0.0,0.0,0.99,1.22,81.0,4038.0,14.9,4.0,,13.33,1.149,88.0,,26.1,5.0,,,,,,,,,,,,0,0,0,0,0,0,0,0,0,0,0,0,0,0,0,0,,,,,,0.0,,,,,,,
152,1131434,1745299609687,,,,,,,,,,,,,,,,,,,,,,,,,,,,,,,,,,0,0,0,0,0,0,0,0,0,0,0,0,0,0,0,0,,,,,,,,,,,,,
153,1131454,1745299609704,0.0,-15.0,,-0.07,-0.05,0.98,0.0,0.0,0.0,0.98,1.22,80.0,4038.0,14.9,4.0,,13.28,1.144,88.0,,27.0,5.0,,,,,,,,,,,,0,0,0,0,0,0,0,0,0,0,0,0,0,0,0,0,,,,,,0.0,,,,,,,
154,1131474,1745299609724,,,,,,,,,,,,,,,,,,,,,,,0.0,0.0,0.0,0.0,0.0,0.0,0.0,0.0,2.26,,,0,0,0,0,0,0,0,0,0,0,0,0,0,0,0,0,,0.0,,,,,38.986019,-76.95002,0.13,49.5,34.0,3.0,0.8
155,1131494,1745299609744,0.0,-8.0,,-0.07,-0.04,0.92,1.0,0.0,0.0,0.93,1.22,76.0,4074.0,14.8,3.98,,13.36,1.145,88.0,,27.0,5.0,,,,,,,,,,,,0,0,0,0,0,0,0,0,0,0,0,0,0,0,0,0,,,,,,0.0,,,,,,,
156,1131514,1745299609764,,,,,,,,,,,,,,,,,,,,,,,,,,,,,,,,,,0,0,0,0,0,0,0,0,0,0,0,0,0,0,0,0,,,,,,,,,,,,,
157,1131534,1745299609784,0.0,-31.0,,-0.06,-0.03,0.98,1.0,0.0,0.0,0.98,1.22,80.0,4086.0,15.0,3.99,,13.27,1.151,88.0,,27.0,5.0,,,,,,,,,,,,0,0,0,0,0,0,0,0,0,0,0,0,0,0,0,0,,,,,,0.0,,,,,,,
158,1131554,1745299609806,,,,,,,,,,,,,,,,,,,,,,,,,,,,,,,,,,0,0,0,0,0,0,0,0,0,0,0,0,0,0,0,0,,,,,,,,,,,,,
159,1131574,1745299609826,0.0,-34.0,13.32,-0.05,0.03,0.98,2.0,0.0,0.0,0.98,1.22,80.0,4217.0,7.1,3.75,15.0,12.92,1.148,88.0,182.0,27.2,5.0,0.0,0.0,0.0,0.0,0.0,0.0,0.0,0.0,2.25,0.0,1.0,0,0,0,0,0,0,0,0,0,0,0,0,0,0,0,0,0.0,0.0,1.0,0.0,0.0,0.0,38.986019,-76.95002,0.0,49.5,34.0,3.0,0.8
160,1131594,1745299609846,,,,,,,,,,,,,,,,,,,,,,,,,,,,,,,,,,0,0,0,0,0,0,0,0,0,0,0,0,0,0,0,0,,,,,,,,,,,,,
161,1131614,1745299609866,0.0,-27.0,,-0.05,-0.13,0.89,0.0,0.0,0.0,0.9,1.22,73.0,4277.0,0.0,2.51,,12.92,1.148,88.0,,27.2,5.0,,,,,,,,,,,,0,0,0,0,0,0,0,0,0,0,0,0,0,0,0,0,,,,,,0.0,,,,,,,
162,1131634,1745299609886,,,,,,,,,,,,,,,,,,,,,,,,,,,,,,,,,,0,0,0,0,0,0,0,0,0,0,0,0,0,0,0,0,,,,,,,,,,,,,
163,1131654,1745299609904,0.0,-23.0,,-0.07,-0.05,1.0,1.0,0.0,0.0,1.0,1.22,82.0,4277.0,0.0,2.51,,12.08,1.157,88.0,,28.6,5.0,,,,,,,,,,,,0,0,0,0,0,0,0,0,0,0,0,0,0,0,0,0,,,,,,0.0,,,,,,,
164,1131674,1745299609924,,,,,,,,,,,,,,,,,,,,,,,0.0,0.0,0.0,0.0,0.0,0.0,0.0,0.0,2.26,,,0,0,0,0,0,0,0,0,0,0,0,0,0,0,0,0,,0.0,,,,,38.986019,-76.95002,0.0,49.5,34.0,3.0,0.8
165,1131694,1745299609944,0.0,-19.0,,-0.07,-0.1,0.91,1.0,0.0,-1.0,0.92,1.22,75.0,4184.0,0.0,2.49,,11.58,1.145,88.0,,28.6,5.0,,,,,,,,,,,,0,0,0,0,0,0,0,0,0,0,0,0,0,0,0,0,,,,,,0.0,,,,,,,
166,1131714,1745299609964,,,,,,,,,,,,,,,,,,,,,,,,,,,,,,,,,,0,0,0,0,0,0,0,0,0,0,0,0,0,0,0,0,,,,,,,,,,,,,
167,1131734,1745299609984,0.0,-23.0,,-0.05,-0.01,0.98,2.0,0.0,0.0,0.98,1.22,80.0,4028.0,0.0,2.48,,11.28,1.154,88.0,,28.6,5.0,,,,,,,,,,,,0,0,0,0,0,0,0,0,0,0,0,0,0,0,0,0,,,,,,0.0,,,,,,,
168,1131754,1745299610004,,,,,,,,,,,,,,,,,,,,,,,,,,,,,,,,,,0,0,0,0,0,0,0,0,0,0,0,0,0,0,0,0,,,,,,,,,,,,,
169,1131774,1745299610016,0.0,-31.0,,-0.05,-0.06,0.97,1.0,0.0,0.0,0.97,1.22,80.0,3910.0,0.0,2.5,,11.21,1.181,88.0,,26.1,5.0,0.0,0.0,0.0,0.0,0.0,0.0,0.0,0.0,2.26,,,0,0,0,0,0,0,0,0,0,0,0,0,0,0,0,0,,0.0,,,,0.0,38.986019,-76.95002,0.04,49.4,34.0,3.0,0.8
170,1131794,1745299610036,,,,,,,,,,,,,,,,,,,,,,,,,,,,,,,,,,0,0,0,0,0,0,0,0,0,0,0,0,0,0,0,0,,,,,,,,,,,,,
171,1131814,1745299610056,0.0,-19.0,,-0.06,-0.1,0.96,1.0,0.0,0.0,0.96,1.22,79.0,3733.0,5.9,3.71,,11.21,1.181,88.0,,26.1,5.0,,,,,,,,,,,,0,0,0,0,0,0,0,0,0,0,0,0,0,0,0,0,,,,,,0.0,,,,,,,
172,1131834,1745299610076,,,,,,,,,,,,,,,,,,,,,,,,,,,,,,,,,,0,0,0,0,0,0,0,0,0,0,0,0,0,0,0,0,,,,,,,,,,,,,
173,1131854,1745299610104,0.0,-15.0,,-0.06,-0.04,0.98,1.0,0.0,0.0,0.98,1.22,80.0,3733.0,5.9,3.71,,11.65,1.228,88.0,,24.5,5.0,,,,,,,,,,,,0,0,0,0,0,0,0,0,0,0,0,0,0,0,0,0,,,,,,0.0,,,,,,,
174,1131874,1745299610124,,,,,,,,,,,,,,,,,,,,,,,0.0,0.0,0.0,0.0,0.0,0.0,0.0,0.0,2.26,,,0,0,0,0,0,0,0,0,0,0,0,0,0,0,0,0,,0.0,,,,,38.986019,-76.95002,0.04,49.4,34.0,3.0,0.8
175,1131894,1745299610144,0.0,-23.0,,-0.07,0.03,0.96,2.0,0.0,0.0,0.96,1.22,78.0,3612.0,12.4,3.99,,12.51,1.249,88.0,,24.5,5.0,,,,,,,,,,,,0,0,0,0,0,0,0,0,0,0,0,0,0,0,0,0,,,,,,0.0,,,,,,,
176,1131914,1745299610164,,,,,,,,,,,,,,,,,,,,,,,,,,,,,,,,,,0,0,0,0,0,0,0,0,0,0,0,0,0,0,0,0,,,,,,,,,,,,,
177,1131934,1745299610184,0.0,-23.0,,-0.08,-0.01,0.94,1.0,0.0,0.0,0.94,1.22,77.0,3606.0,14.3,4.04,,13.17,1.25,88.0,,24.5,5.0,,,,,,,,,,,,0,0,0,0,0,0,0,0,0,0,0,0,0,0,0,0,,,,,,0.0,,,,,,,
178,1131954,1745299610202,,,,,,,,,,,,,,,,,,,,,,,,,,,,,,,,,,0,0,0,0,0,0,0,0,0,0,0,0,0,0,0,0,,,,,,,,,,,,,
179,1131974,1745299610222,0.0,-19.0,,-0.09,-0.03,0.97,1.0,0.0,0.0,0.97,1.22,80.0,3634.0,14.7,4.04,,13.43,1.25,88.0,,23.7,5.0,0.0,0.0,0.0,0.0,0.0,0.0,0.0,0.0,2.26,,,0,0,0,0,0,0,0,0,0,0,0,0,0,0,0,0,,0.0,,,,0.0,38.986019,-76.95002,0.04,49.4,34.0,3.0,0.8
180,1131994,1745299610242,,,,,,,,,,,,,,,,,,,,,,,,,,,,,,,,,,0,0,0,0,0,0,0,0,0,0,0,0,0,0,0,0,,,,,,,,,,,,,
181,1132014,1745299610262,0.0,-31.0,,-0.09,-0.05,0.98,0.0,0.0,0.0,0.98,1.22,80.0,3691.0,14.9,4.06,,13.43,1.25,88.0,,23.7,5.0,,,,,,,,,,,,0,0,0,0,0,0,0,0,0,0,0,0,0,0,0,0,,,,,,0.0,,,,,,,
182,1132034,1745299610282,,,,,,,,,,,,,,,,,,,,,,,,,,,,,,,,,,0,0,0,0,0,0,0,0,0,0,0,0,0,0,0,0,,,,,,,,,,,,,
183,1132054,1745299610306,0.0,-12.0,,-0.1,-0.04,0.96,0.0,0.0,0.0,0.97,1.22,79.0,3691.0,14.9,4.06,,13.44,1.181,88.0,,24.1,5.0,,,,,,,,,,,,0,0,0,0,0,0,0,0,0,0,0,0,0,0,0,0,,,,,,0.0,,,,,,,
184,1132074,1745299610326,,,,,,,,,,,,,,,,,,,,,,,0.0,0.0,0.0,0.0,0.0,0.0,0.0,0.0,2.25,,,0,0,0,0,0,0,0,0,0,0,0,0,0,0,0,0,,0.0,,,,,38.986019,-76.95002,0.05,49.4,34.0,3.0,0.8
185,1132094,1745299610346,0.0,-27.0,,-0.1,-0.07,0.97,0.0,0.0,0.0,0.97,1.22,80.0,3741.0,6.2,3.89,,13.08,1.143,88.0,,24.1,5.0,,,,,,,,,,,,0,0,0,0,0,0,0,0,0,0,0,0,0,0,0,0,,,,,,0.0,,,,,,,
186,1132114,1745299610366,,,,,,,,,,,,,,,,,,,,,,,,,,,,,,,,,,0,0,0,0,0,0,0,0,0,0,0,0,0,0,0,0,,,,,,,,,,,,,
187,1132134,1745299610386,0.0,-15.0,,-0.09,-0.06,0.97,0.0,0.0,0.0,0.98,1.22,80.0,3837.0,0.0,2.68,,12.49,1.142,88.0,,24.1,5.0,,,,,,,,,,,,0,0,0,0,0,0,0,0,0,0,0,0,0,0,0,0,,,,,,0.0,,,,,,,
188,1132154,1745299610406,,,,,,,,,,,,,,,,,,,,,,,,,,,,,,,,,,0,0,0,0,0,0,0,0,0,0,0,0,0,0,0,0,,,,,,,,,,,,,
189,1132174,1745299610426,0.0,-23.0,,-0.08,-0.06,0.97,1.0,0.0,0.0,0.98,1.22,80.0,3732.0,0.0,2.61,,12.01,1.139,88.0,,25.5,5.0,0.0,0.0,0.0,0.0,0.0,0.0,0.0,0.0,2.26,,,0,0,0,0,0,0,0,0,0,0,0,0,0,0,0,0,,0.0,,,,0.0,38.986019,-76.95002,0.04,49.4,34.0,3.0,0.8
190,1132194,1745299611916,,,,,,,,,,,,,,,,,,,,,,,,,,,,,,,,,,0,0,0,0,0,0,0,0,0,0,0,0,0,0,0,0,,,,,,,,,,,,,
191,1132214,1745299611936,0.0,-4.0,,-0.09,-0.03,0.98,1.0,0.0,0.0,0.99,1.22,81.0,3732.0,0.0,2.61,,12.24,1.054,88.0,,36.0,5.0,,,,,,,,,,,,0,0,0,0,0,0,0,0,0,0,0,0,0,0,0,0,,,,,,0.0,,,,,,,
192,1132234,1745299612020,,,,,,,,,,,,,,,,,,,,,,,,,,,,,,,,,,0,0,0,0,0,0,0,0,0,0,0,0,0,0,0,0,,,,,,,,,,,,,
193,1132254,1745299612040,0.0,-19.0,,-0.08,0.01,1.01,1.0,0.0,0.0,1.01,1.22,83.0,5186.0,2.7,3.71,,11.84,1.088,88.0,,36.0,5.0,,,,,,,,,,,,0,0,0,0,0,0,0,0,0,0,0,0,0,0,0,0,,,,,,0.0,,,,,,,
194,1132274,1745299612060,,,,,,,,,,,,,,,,,,,,,,,0.0,0.0,0.0,0.0,0.0,0.0,0.0,0.0,2.26,,,0,0,0,0,0,0,0,0,0,0,0,0,0,0,0,0,,0.0,,,,,38.986019,-76.95002,0.0,49.5,33.0,3.0,0.8
195,1132294,1745299612080,0.0,-8.0,,-0.09,0.07,1.04,1.0,0.0,0.0,1.04,1.22,85.0,5381.0,0.8,2.43,,11.2,0.944,88.0,,36.0,5.0,,,,,,,,,,,,0,0,0,0,0,0,0,0,0,0,0,0,0,0,0,0,,,,,,0.0,,,,,,,
196,1132314,1745299612112,,,,,,,,,,,,,,,,,,,,,,,,,,,,,,,,,,0,0,0,0,0,0,0,0,0,0,0,0,0,0,0,0,,,,,,,,,,,,,
197,1132334,1745299612132,0.0,5.0,,-0.09,0.04,1.01,1.0,0.0,0.0,1.02,1.22,83.0,5472.0,0.0,1.97,,10.76,0.841,88.0,,37.1,5.0,,,,,,,,,,,,0,0,0,0,0,0,0,0,0,0,0,0,0,0,0,0,,,,,,0.0,,,,,,,
198,1132354,1745299612152,,,,,,,,,,,,,,,,,,,,,,,,,,,,,,,,,,0,0,0,0,0,0,0,0,0,0,0,0,0,0,0,0,,,,,,,,,,,,,
199,1132374,1745299612172,0.0,-8.0,,-0.09,0.01,1.0,1.0,0.0,0.0,1.0,1.22,82.0,5329.0,0.3,1.63,,10.76,0.841,88.0,,37.1,5.0,0.0,0.0,0.0,0.0,0.0,0.0,0.0,0.0,2.26,,,0,0,0,0,0,0,0,0,0,0,0,0,0,0,0,0,,0.0,,,,0.0,38.986019,-76.95002,0.05,49.5,33.0,3.0,0.8
200,1132394,1745299612192,,,,,,,,,,,,,,,,,,,,,,,,,,,,,,,,,,0,0,0,0,0,0,0,0,0,0,0,0,0,0,0,0,,,,,,,,,,,,,
201,1132414,1745299612206,0.0,-8.0,,-0.09,0.08,1.03,1.0,0.0,0.0,1.04,1.22,85.0,5329.0,0.3,1.63,,10.41,0.813,88.0,,36.0,5.0,,,,,,,,,,,,0,0,0,0,0,0,0,0,0,0,0,0,0,0,0,0,,,,,,0.0,,,,,,,
202,1132434,1745299612226,,,,,,,,,,,,,,,,,,,,,,,,,,,,,,,,,,0,0,0,0,0,0,0,0,0,0,0,0,0,0,0,0,,,,,,,,,,,,,
203,1132454,1745299612246,0.0,-8.0,,-0.07,0.03,0.98,1.0,0.0,0.0,0.98,1.22,80.0,5070.0,2.2,1.83,,10.4,0.858,88.0,,36.0,5.0,,,,,,,,,,,,0,0,0,0,0,0,0,0,0,0,0,0,0,0,0,0,,,,,,0.0,,,,,,,
204,1132474,1745299612266,,,,,,,,,,,,,,,,,,,,,,,0.0,0.0,0.0,0.0,0.0,0.0,0.0,0.0,2.25,,,0,0,0,0,0,0,0,0,0,0,0,0,0,0,0,0,,0.0,,,,,38.986019,-76.95002,0.04,49.5,33.0,3.0,0.8
205,1132494,1745299612286,0.0,-8.0,,-0.07,0.06,1.04,1.0,0.0,0.0,1.05,1.22,86.0,4805.0,9.3,2.83,,11.04,0.968,88.0,,36.0,5.0,,,,,,,,,,,,0,0,0,0,0,0,0,0,0,0,0,0,0,0,0,0,,,,,,0.0,,,,,,,
206,1132514,1745299612312,,,,,,,,,,,,,,,,,,,,,,,,,,,,,,,,,,0,0,0,0,0,0,0,0,0,0,0,0,0,0,0,0,,,,,,,,,,,,,
207,1132534,1745299612332,0.0,3.0,,-0.1,0.05,1.09,1.0,0.0,0.0,1.09,1.22,89.0,4670.0,12.5,3.75,,11.85,1.16,88.0,,32.3,5.0,,,,,,,,,,,,0,0,0,0,0,0,0,0,0,0,0,0,0,0,0,0,,,,,,0.0,,,,,,,
208,1132554,1745299612352,,,,,,,,,,,,,,,,,,,,,,,,,,,,,,,,,,0,0,0,0,0,0,0,0,0,0,0,0,0,0,0,0,,,,,,,,,,,,,
209,1132574,1745299612372,0.0,-19.0,13.42,-0.11,-0.02,1.06,1.0,0.0,0.0,1.07,1.22,87.0,4616.0,15.0,3.95,15.0,11.85,1.16,88.0,182.0,32.3,5.0,0.0,0.0,0.0,0.0,0.0,0.0,0.0,0.0,2.25,0.0,1.0,0,0,0,0,0,0,0,0,0,0,0,0,0,0,0,0,0.0,0.0,1.0,0.0,0.0,0.0,38.986019,-76.95002,0.04,49.5,33.0,3.0,0.8
210,1132594,1745299612392,,,,,,,,,,,,,,,,,,,,,,,,,,,,,,,,,,0,0,0,0,0,0,0,0,0,0,0,0,0,0,0,0,,,,,,,,,,,,,
211,1132614,1745299612412,0.0,0.0,,-0.09,-0.08,0.97,0.0,0.0,0.0,0.98,1.22,80.0,4616.0,15.0,3.95,,12.4,1.248,88.0,,31.3,5.0,,,,,,,,,,,,0,0,0,0,0,0,0,0,0,0,0,0,0,0,0,0,,,,,,0.0,,,,,,,
212,1132634,1745299612432,,,,,,,,,,,,,,,,,,,,,,,,,,,,,,,,,,0,0,0,0,0,0,0,0,0,0,0,0,0,0,0,0,,,,,,,,,,,,,
213,1132654,1745299612452,0.0,-19.0,,-0.07,-0.09,0.98,0.0,0.0,0.0,0.98,1.22,80.0,4704.0,27.2,4.77,,13.33,1.224,88.0,,31.3,5.0,,,,,,,,,,,,0,0,0,0,0,0,0,0,0,0,0,0,0,0,0,0,,,,,,0.0,,,,,,,
214,1132674,1745299612472,,,,,,,,,,,,,,,,,,,,,,,0.0,0.0,0.0,0.0,0.0,0.0,0.0,0.0,2.26,,,0,0,0,0,0,0,0,0,0,0,0,0,0,0,0,0,,0.0,,,,,38.986019,-76.95002,0.04,49.5,33.0,3.0,0.8
215,1132694,1745299612492,0.0,0.0,,-0.08,-0.09,0.98,0.0,0.0,0.0,0.99,1.22,81.0,4860.0,39.6,4.56,,14.11,1.045,88.0,,31.3,5.0,,,,,,,,,,,,0,0,0,0,0,0,0,0,0,0,0,0,0,0,0,0,,,,,,0.0,,,,,,,
216,1132714,1745299612514,,,,,,,,,,,,,,,,,,,,,,,,,,,,,,,,,,0,0,0,0,0,0,0,0,0,0,0,0,0,0,0,0,,,,,,,,,,,,,
217,1132734,1745299612534,0.0,8.0,,-0.09,-0.15,0.96,0.0,0.0,0.0,0.98,1.22,80.0,5263.0,47.5,5.35,,14.19,0.979,88.0,,33.7,5.0,,,,,,,,,,,,0,0,0,0,0,0,0,0,0,0,0,0,0,0,0,0,,,,,,0.0,,,,,,,
218,1132754,1745299612554,,,,,,,,,,,,,,,,,,,,,,,,,,,,,,,,,,0,0,0,0,0,0,0,0,0,0,0,0,0,0,0,0,,,,,,,,,,,,,
219,1132774,1745299612574,0.0,-8.0,,-0.09,-0.13,0.93,-1.0,0.0,0.0,0.94,1.22,77.0,5739.0,51.6,5.55,,14.19,0.979,88.0,,33.7,5.0,0.0,0.0,0.0,0.0,0.0,0.0,0.0,0.0,2.25,,,0,0,0,0,0,0,0,0,0,0,0,0,0,0,0,0,,0.0,,,,0.0,38.986019,-76.95002,0.0,49.5,33.0,3.0,0.8
220,1132794,1745299612594,,,,,,,,,,,,,,,,,,,,,,,,,,,,,,,,,,0,0,0,0,0,0,0,0,0,0,0,0,0,0,0,0,,,,,,,,,,,,,
221,1132814,1745299612614,0.0,-8.0,,-0.08,0.01,0.96,-1.0,0.0,0.0,0.97,1.22,79.0,5739.0,51.6,5.55,,14.14,0.988,88.0,,39.8,5.0,,,,,,,,,,,,0,0,0,0,0,0,0,0,0,0,0,0,0,0,0,0,,,,,,0.0,,,,,,,
222,1132834,1745299612634,,,,,,,,,,,,,,,,,,,,,,,,,,,,,,,,,,0,0,0,0,0,0,0,0,0,0,0,0,0,0,0,0,,,,,,,,,,,,,
223,1132854,1745299612654,0.0,79.0,,-0.1,0.0,0.94,-1.0,0.0,0.0,0.95,1.22,77.0,6635.0,52.7,5.42,,14.08,1.07,88.0,,39.8,5.0,,,,,,,,,,,,0,0,0,0,0,0,0,0,0,0,0,0,0,0,0,0,,,,,,0.0,,,,,,,
224,1132874,1745299612674,,,,,,,,,,,,,,,,,,,,,,,0.0,0.0,0.0,0.0,0.0,0.0,0.0,0.0,2.26,,,0,0,0,0,0,0,0,0,0,0,0,0,0,0,0,0,,0.0,,,,,38.986019,-76.95002,0.04,49.6,33.0,3.0,0.8
225,1132894,1745299612694,0.0,17.0,,-0.07,-0.09,0.94,-1.0,0.0,0.0,0.95,1.22,77.0,7633.0,53.6,4.95,,13.82,1.039,88.0,,39.8,5.0,,,,,,,,,,,,0,0,0,0,0,0,0,0,0,0,0,0,0,0,0,0,,,,,,0.0,,,,,,,
226,1132914,1745299612715,,,,,,,,,,,,,,,,,,,,,,,,,,,,,,,,,,0,0,0,0,0,0,0,0,0,0,0,0,0,0,0,0,,,,,,,,,,,,,
227,1132934,1745299612735,0.0,39.0,,-0.1,-0.35,0.9,-1.0,0.0,0.0,0.97,1.22,79.0,8739.0,51.6,4.89,,13.48,0.991,88.0,,52.3,5.0,,,,,,,,,,,,0,0,0,0,0,0,0,0,0,0,0,0,0,0,0,0,,,,,,0.0,,,,,,,
228,1132954,1745299612755,,,,,,,,,,,,,,,,,,,,,,,,,,,,,,,,,,0,0,0,0,0,0,0,0,0,0,0,0,0,0,0,0,,,,,,,,,,,,,
229,1132974,1745299612775,0.0,36.0,,-0.12,-0.28,0.94,0.0,0.0,0.0,0.99,1.22,81.0,10262.0,47.5,5.06,,13.48,0.991,88.0,,52.3,5.0,0.0,0.0,0.0,0.0,0.0,0.0,0.0,0.0,2.26,,,0,0,0,0,0,0,0,0,0,0,0,0,0,0,0,0,,0.0,,,,0.0,38.986019,-76.95002,0.05,49.6,33.0,3.0,0.8
230,1132994,1745299612795,,,,,,,,,,,,,,,,,,,,,,,,,,,,,,,,,,0,0,0,0,0,0,0,0,0,0,0,0,0,0,0,0,,,,,,,,,,,,,
231,1133014,1745299612815,0.0,62.0,,-0.08,-0.17,0.93,1.0,0.0,0.0,0.95,1.22,77.0,10262.0,47.5,5.06,,12.87,1.027,88.0,,53.0,5.0,,,,,,,,,,,,0,0,0,0,0,0,0,0,0,0,0,0,0,0,0,0,,,,,,0.0,,,,,,,
232,1133034,1745299612835,,,,,,,,,,,,,,,,,,,,,,,,,,,,,,,,,,0,0,0,0,0,0,0,0,0,0,0,0,0,0,0,0,,,,,,,,,,,,,
233,1133054,1745299612855,0.0,34.0,,-0.05,-0.06,0.93,1.0,0.0,0.0,0.93,1.22,76.0,11786.0,48.1,4.03,,12.59,0.944,88.0,,53.0,5.0,,,,,,,,,,,,0,0,0,0,0,0,0,0,0,0,0,0,0,0,0,0,,,,,,0.0,,,,,,,
234,1133074,1745299612875,,,,,,,,,,,,,,,,,,,,,,,0.0,0.0,0.0,0.0,0.0,0.0,0.0,0.0,2.26,,,0,0,0,0,0,0,0,0,0,0,0,0,0,0,0,0,,0.0,,,,,38.986019,-76.95002,0.05,49.6,33.0,3.0,0.8
235,1133094,1745299612895,0.0,14.0,,-0.04,-0.05,0.89,0.0,0.0,0.0,0.9,1.22,73.0,12661.0,61.4,4.67,,12.69,0.913,88.0,,53.0,5.0,,,,,,,,,,,,0,0,0,0,0,0,0,0,0,0,0,0,0,0,0,0,,,,,,0.0,,,,,,,
236,1133114,1745299612915,,,,,,,,,,,,,,,,,,,,,,,,,,,,,,,,,,0,0,0,0,0,0,0,0,0,0,0,0,0,0,0,0,,,,,,,,,,,,,
237,1133134,1745299612935,0.0,11.0,,-0.05,0.1,0.81,0.0,1.0,4.0,0.82,1.22,67.0,13748.0,78.8,4.7,,13.24,0.986,88.0,,57.8,5.0,,,,,,,,,,,,0,0,0,0,0,0,0,0,0,0,0,0,0,0,0,0,,,,,,0.0,,,,,,,
238,1133154,1745299612955,,,,,,,,,,,,,,,,,,,,,,,,,,,,,,,,,,0,0,0,0,0,0,0,0,0,0,0,0,0,0,0,0,,,,,,,,,,,,,
239,1133174,1745299612975,0.0,25.0,,0.0,-0.07,0.86,-2.0,0.0,3.0,0.87,1.22,71.0,13282.0,86.3,4.78,,13.24,0.986,88.0,,57.8,5.0,0.0,0.0,0.0,0.0,0.0,0.0,0.0,0.0,2.26,,,0,0,0,0,0,0,0,0,0,0,0,0,0,0,0,0,,0.0,,,,0.0,38.986019,-76.95002,0.04,49.6,33.0,3.0,0.8
240,1133194,1745299612995,,,,,,,,,,,,,,,,,,,,,,,,,,,,,,,,,,0,0,0,0,0,0,0,0,0,0,0,0,0,0,0,0,,,,,,,,,,,,,
241,1133214,1745299613007,0.0,14.0,,0.06,-0.11,0.93,-3.0,1.0,3.0,0.94,1.22,76.0,13282.0,86.3,4.78,,13.31,0.931,88.0,,62.1,5.0,,,,,,,,,,,,0,0,0,0,0,0,0,0,0,0,0,0,0,0,0,0,,,,,,0.0,,,,,,,
242,1133234,1745299613027,,,,,,,,,,,,,,,,,,,,,,,,,,,,,,,,,,0,0,0,0,0,0,0,0,0,0,0,0,0,0,0,0,,,,,,,,,,,,,
243,1133254,1745299613047,0.0,34.0,,0.08,-0.12,0.95,-3.0,0.0,3.0,0.96,1.22,78.0,12590.0,87.5,5.02,,13.57,1.24,88.0,,62.1,5.0,,,,,,,,,,,,0,0,0,0,0,0,0,0,0,0,0,0,0,0,0,0,,,,,,0.0,,,,,,,
244,1133274,1745299613067,,,,,,,,,,,,,,,,,,,,,,,0.0,0.0,0.0,0.0,0.0,0.0,0.0,0.0,2.26,,,0,0,0,0,0,0,0,0,0,0,0,0,0,0,0,0,,0.0,,,,,38.986019,-76.95002,0.18,49.6,33.0,3.0,0.8
245,1133294,1745299613087,0.0,68.0,,0.12,-0.18,1.01,-2.0,0.0,3.0,1.03,1.22,84.0,12897.0,89.8,4.84,,13.43,1.241,88.0,,62.1,5.0,,,,,,,,,,,,0,0,0,0,0,0,0,0,0,0,0,0,0,0,0,0,,,,,,0.0,,,,,,,
246,1133314,1745299613109,,,,,,,,,,,,,,,,,,,,,,,,,,,,,,,,,,0,0,0,0,0,0,0,0,0,0,0,0,0,0,0,0,,,,,,,,,,,,,
247,1133334,1745299613129,0.0,45.0,,0.21,0.0,1.05,-3.0,1.0,4.0,1.07,1.22,87.0,13309.0,99.1,4.69,,13.41,1.062,88.0,,66.0,5.0,,,,,,,,,,,,0,0,0,0,0,0,0,0,0,0,0,0,0,0,0,0,,,,,,0.0,,,,,,,
248,1133354,1745299613149,,,,,,,,,,,,,,,,,,,,,,,,,,,,,,,,,,0,0,0,0,0,0,0,0,0,0,0,0,0,0,0,0,,,,,,,,,,,,,
249,1133374,1745299613169,0.0,48.0,,0.28,0.12,1.0,-2.0,1.0,3.0,1.04,1.22,85.0,12580.0,99.4,4.91,,13.41,1.062,88.0,,66.0,5.0,0.0,0.0,0.0,0.0,0.0,0.0,0.0,0.0,2.25,,,0,0,0,0,0,0,0,0,0,0,0,0,0,0,0,0,,0.0,,,,0.0,38.986019,-76.95002,1.38,49.6,33.0,3.0,0.8
250,1133394,1745299613189,,,,,,,,,,,,,,,,,,,,,,,,,,,,,,,,,,0,0,0,0,0,0,0,0,0,0,0,0,0,0,0,0,,,,,,,,,,,,,
251,1133414,1745299613217,0.0,36.0,,0.31,0.18,0.99,-2.0,2.0,2.0,1.05,1.22,86.0,12580.0,99.4,4.91,,13.55,1.015,88.0,,63.6,5.0,,,,,,,,,,,,0,0,0,0,0,0,0,0,0,0,0,0,0,0,0,0,,,,,,0.0,,,,,,,
252,1133434,1745299613237,,,,,,,,,,,,,,,,,,,,,,,,,,,,,,,,,,0,0,0,0,0,0,0,0,0,0,0,0,0,0,0,0,,,,,,,,,,,,,
253,1133454,1745299613257,0.0,51.0,,0.35,0.23,1.03,-1.0,1.0,2.0,1.11,1.22,91.0,11191.0,99.5,5.48,,13.99,1.033,88.0,,63.6,5.0,,,,,,,,,,,,0,0,0,0,0,0,0,0,0,0,0,0,0,0,0,0,,,,,,0.0,,,,,,,
254,1133474,1745299613277,,,,,,,,,,,,,,,,,,,,,,,2.0,0.0,33.0,33.0,0.0,0.0,0.0,0.0,2.25,,,0,0,0,0,0,0,0,0,0,0,0,0,0,0,0,0,,1.0,,,,,38.986019,-76.95002,2.97,49.6,33.0,3.0,0.8
255,1133494,1745299613297,0.0,42.0,,0.38,-0.05,0.98,0.0,1.0,2.0,1.05,1.22,86.0,11571.0,99.6,5.4,,13.94,1.023,88.0,,63.6,5.0,,,,,,,,,,,,0,0,0,0,0,0,0,0,0,0,0,0,0,0,0,0,,,,,,0.0,,,,,,,
256,1133514,1745299613317,,,,,,,,,,,,,,,,,,,,,,,,,,,,,,,,,,0,0,0,0,0,0,0,0,0,0,0,0,0,0,0,0,,,,,,,,,,,,,
257,1133534,1745299613337,0.0,51.0,,0.44,-0.03,0.92,-2.0,1.0,2.0,1.02,1.22,83.0,11968.0,99.5,5.24,,13.94,0.981,88.0,,61.2,5.0,,,,,,,,,,,,0,0,0,0,0,0,0,0,0,0,0,0,0,0,0,0,,,,,,0.0,,,,,,,
258,1133554,1745299613357,,,,,,,,,,,,,,,,,,,,,,,,,,,,,,,,,,0,0,0,0,0,0,0,0,0,0,0,0,0,0,0,0,,,,,,,,,,,,,
259,1133574,1745299613377,0.0,48.0,13.22,0.48,-0.22,0.9,-3.0,1.0,1.0,1.04,1.22,85.0,12261.0,99.5,5.15,15.0,13.94,0.981,88.0,182.0,61.2,5.0,4.0,6.0,34.0,35.0,0.0,0.0,0.0,0.0,2.25,0.0,1.0,0,0,0,0,0,0,0,0,0,0,0,0,0,0,0,0,0.0,1.0,1.0,0.0,0.0,0.0,38.986019,-76.95002,7.33,49.6,33.0,3.0,0.8
260,1133594,1745299613397,,,,,,,,,,,,,,,,,,,,,,,,,,,,,,,,,,0,0,0,0,0,0,0,0,0,0,0,0,0,0,0,0,,,,,,,,,,,,,
261,1133614,1745299613415,0.0,59.0,,0.55,-0.5,0.81,-2.0,1.0,0.0,1.1,1.22,90.0,12261.0,99.5,5.15,,13.87,0.941,88.0,,65.8,5.0,,,,,,,,,,,,0,0,0,0,0,0,0,0,0,0,0,0,0,0,0,0,,,,,,0.0,,,,,,,
262,1133634,1745299613435,,,,,,,,,,,,,,,,,,,,,,,,,,,,,,,,,,0,0,0,0,0,0,0,0,0,0,0,0,0,0,0,0,,,,,,,,,,,,,
263,1133654,1745299613455,0.0,65.0,,0.58,-0.8,0.72,-1.0,1.0,-1.0,1.22,1.22,100.0,12057.0,99.5,5.21,,13.86,0.965,88.0,,65.8,5.0,,,,,,,,,,,,0,0,0,0,0,0,0,0,0,0,0,0,0,0,0,0,,,,,,0.0,,,,,,,
264,1133674,1745299613475,,,,,,,,,,,,,,,,,,,,,,,6.0,6.0,36.0,35.0,0.0,0.0,0.0,0.0,2.25,,,0,0,0,0,0,0,0,0,0,0,0,0,0,0,0,0,,1.0,,,,,38.986023,-76.95002,9.53,49.6,33.0,3.0,0.8
265,1133694,1745299613495,0.0,62.0,,0.64,-1.01,0.67,-1.0,0.0,-1.0,1.37,1.37,100.0,12000.0,99.6,5.22,,13.98,1.009,88.0,,65.8,5.0,,,,,,,,,,,,0,0,0,0,0,0,0,0,0,0,0,0,0,0,0,0,,,,,,0.0,,,,,,,
266,1133714,1745299613515,,,,,,,,,,,,,,,,,,,,,,,,,,,,,,,,,,0,0,0,0,0,0,0,0,0,0,0,0,0,0,0,0,,,,,,,,,,,,,
267,1133734,1745299613535,0.0,73.0,,0.64,-0.92,0.7,-2.0,0.0,-2.0,1.32,1.37,96.0,12254.0,99.5,5.16,,13.87,0.976,88.0,,65.1,5.0,,,,,,,,,,,,0,0,0,0,0,0,0,0,0,0,0,0,0,0,0,0,,,,,,0.0,,,,,,,
268,1133754,1745299613555,,,,,,,,,,,,,,,,,,,,,,,,,,,,,,,,,,0,0,0,0,0,0,0,0,0,0,0,0,0,0,0,0,,,,,,,,,,,,,
269,1133774,1745299613575,0.0,59.0,,0.63,-0.75,0.78,-1.0,1.0,-2.0,1.26,1.37,91.0,12342.0,99.5,5.12,,13.87,0.976,88.0,,65.1,5.0,9.0,7.0,36.0,37.0,0.0,213.0,0.0,0.0,2.25,,,0,0,0,0,0,0,0,0,0,0,0,0,0,0,0,0,,1.0,,,,0.0,38.986023,-76.950027,12.61,49.6,33.0,3.0,0.8
270,1133794,1745299613595,,,,,,,,,,,,,,,,,,,,,,,,,,,,,,,,,,0,0,0,0,0,0,0,0,0,0,0,0,0,0,0,0,,,,,,,,,,,,,
271,1133814,1745299613615,0.0,56.0,,0.6,-0.73,0.8,0.0,1.0,-2.0,1.24,1.37,90.0,12342.0,99.5,5.12,,13.87,0.962,88.0,,64.6,5.0,,,,,,,,,,,,0,0,0,0,0,0,0,0,0,0,0,0,0,0,0,0,,,,,,0.0,,,,,,,
272,1133834,1745299613635,,,,,,,,,,,,,,,,,,,,,,,,,,,,,,,,,,0,0,0,0,0,0,0,0,0,0,0,0,0,0,0,0,,,,,,,,,,,,,
273,1133854,1745299613655,0.0,56.0,,0.6,-0.58,0.78,-2.0,0.0,-1.0,1.14,1.37,83.0,12241.0,99.6,5.14,,13.9,0.962,88.0,,64.6,5.0,,,,,,,,,,,,0,0,0,0,0,0,0,0,0,0,0,0,0,0,0,0,,,,,,0.0,,,,,,,
274,1133874,1745299613675,,,,,,,,,,,,,,,,,,,,,,,10.0,7.0,38.0,38.0,0.0,159.0,0.0,0.0,2.24,,,0,0,0,0,0,0,0,0,0,0,0,0,0,0,0,0,,0.0,,,,,38.986023,-76.950027,15.63,49.6,33.0,3.0,0.8
275,1133894,1745299613695,0.0,48.0,,0.66,-0.54,0.9,-1.0,0.0,-1.0,1.24,1.37,91.0,12165.0,99.5,5.17,,13.9,0.983,88.0,,64.6,5.0,,,,,,,,,,,,0,0,0,0,0,0,0,0,0,0,0,0,0,0,0,0,,,,,,0.0,,,,,,,
276,1133914,1745299613714,,,,,,,,,,,,,,,,,,,,,,,,,,,,,,,,,,0,0,0,0,0,0,0,0,0,0,0,0,0,0,0,0,,,,,,,,,,,,,
277,1133934,1745299613734,0.0,56.0,,0.65,-0.5,0.93,-1.0,1.0,-2.0,1.25,1.37,91.0,12019.0,99.5,5.2,,13.92,0.956,88.0,,66.1,5.0,,,,,,,,,,,,0,0,0,0,0,0,0,0,0,0,0,0,0,0,0,0,,,,,,0.0,,,,,,,
278,1133954,1745299613754,,,,,,,,,,,,,,,,,,,,,,,,,,,,,,,,,,0,0,0,0,0,0,0,0,0,0,0,0,0,0,0,0,,,,,,,,,,,,,
279,1133974,1745299613774,0.0,68.0,,0.69,-0.46,1.0,-1.0,1.0,-2.0,1.29,1.37,94.0,12129.0,99.5,5.18,,13.92,0.956,88.0,,66.1,5.0,12.0,13.0,37.0,38.0,0.0,208.0,0.0,0.0,2.25,,,0,0,0,0,0,0,0,0,0,0,0,0,0,0,0,0,,0.0,,,,0.0,38.986027,-76.950035,18.74,49.6,33.0,3.0,0.8
280,1133994,1745299613794,,,,,,,,,,,,,,,,,,,,,,,,,,,,,,,,,,0,0,0,0,0,0,0,0,0,0,0,0,0,0,0,0,,,,,,,,,,,,,
281,1134014,1745299613814,0.0,62.0,,0.72,-0.5,1.0,-1.0,1.0,-3.0,1.33,1.37,97.0,12129.0,99.5,5.18,,13.91,0.99,88.0,,65.9,5.0,,,,,,,,,,,,0,0,0,0,0,0,0,0,0,0,0,0,0,0,0,0,,,,,,0.0,,,,,,,
282,1134034,1745299613834,,,,,,,,,,,,,,,,,,,,,,,,,,,,,,,,,,0,0,0,0,0,0,0,0,0,0,0,0,0,0,0,0,,,,,,,,,,,,,
283,1134054,1745299613854,0.0,53.0,,0.83,-0.39,0.94,-2.0,1.0,-2.0,1.31,1.37,95.0,12048.0,99.5,5.22,,13.95,0.985,88.0,,65.9,5.0,,,,,,,,,,,,0,0,0,0,0,0,0,0,0,0,0,0,0,0,0,0,,,,,,0.0,,,,,,,
284,1134074,1745299613874,,,,,,,,,,,,,,,,,,,,,,,14.0,65.0,37.0,36.0,0.0,56.0,0.0,0.0,2.25,,,0,0,0,0,0,0,0,0,0,0,0,0,0,0,0,0,,1.0,,,,,38.986031,-76.950043,22.18,49.6,33.0,3.0,0.8
285,1134094,1745299613894,0.0,62.0,,0.88,-0.45,0.94,2.0,1.0,-2.0,1.36,1.37,99.0,11939.0,99.6,5.24,,13.96,0.95,88.0,,65.9,5.0,,,,,,,,,,,,0,0,0,0,0,0,0,0,0,0,0,0,0,0,0,0,,,,,,0.0,,,,,,,
286,1134114,1745299613914,,,,,,,,,,,,,,,,,,,,,,,,,,,,,,,,,,0,0,0,0,0,0,0,0,0,0,0,0,0,0,0,0,,,,,,,,,,,,,
287,1134134,1745299613934,0.0,93.0,,0.9,-0.33,1.01,4.0,1.0,-2.0,1.39,1.39,100.0,11845.0,99.6,5.27,,13.95,0.943,88.0,,65.4,5.0,,,,,,,,,,,,0,0,0,0,0,0,0,0,0,0,0,0,0,0,0,0,,,,,,0.0,,,,,,,
288,1134154,1745299613954,,,,,,,,,,,,,,,,,,,,,,,,,,,,,,,,,,0,0,0,0,0,0,0,0,0,0,0,0,0,0,0,0,,,,,,,,,,,,,
289,1134174,1745299613974,0.0,82.0,,0.91,-0.13,1.02,5.0,1.0,-1.0,1.37,1.39,98.0,11838.0,99.6,5.29,,13.95,0.943,88.0,,65.4,5.0,17.0,65.0,36.0,37.0,0.0,95.0,0.0,0.0,2.26,,,0,0,0,0,0,0,0,0,0,0,0,0,0,0,0,0,,1.0,,,,0.0,38.986031,-76.95005,25.04,49.6,33.0,3.0,0.8
290,1134194,1745299613994,,,,,,,,,,,,,,,,,,,,,,,,,,,,,,,,,,0,0,0,0,0,0,0,0,0,0,0,0,0,0,0,0,,,,,,,,,,,,,
291,1134214,1745299614006,0.0,90.0,,0.93,-0.06,0.97,6.0,1.0,0.0,1.34,1.39,96.0,11838.0,99.6,5.29,,14.06,0.955,88.0,,65.4,5.0,,,,,,,,,,,,0,0,0,0,0,0,0,0,0,0,0,0,0,0,0,0,,,,,,0.0,,,,,,,
292,1134234,1745299614026,,,,,,,,,,,,,,,,,,,,,,,,,,,,,,,,,,0,0,0,0,0,0,0,0,0,0,0,0,0,0,0,0,,,,,,,,,,,,,
293,1134254,1745299614046,0.0,93.0,,0.92,0.02,0.87,7.0,1.0,0.0,1.27,1.39,91.0,11817.0,99.6,5.29,,13.99,0.936,88.0,,65.4,5.0,,,,,,,,,,,,0,0,0,0,0,0,0,0,0,0,0,0,0,0,0,0,,,,,,0.0,,,,,,,
294,1134274,1745299614066,,,,,,,,,,,,,,,,,,,,,,,19.0,65.0,37.0,36.0,0.0,54.0,0.0,0.0,2.26,,,0,0,0,0,0,0,0,0,0,0,0,0,0,0,0,0,,1.0,,,,,38.986031,-76.950058,29.35,49.5,33.0,3.0,0.8
295,1134294,1745299614086,0.0,76.0,,0.94,0.02,0.85,8.0,0.0,0.0,1.27,1.39,91.0,11600.0,99.6,5.36,,14.0,0.963,88.0,,65.4,5.0,,,,,,,,,,,,0,0,0,0,0,0,0,0,0,0,0,0,0,0,0,0,,,,,,0.0,,,,,,,
296,1134314,1745299614108,,,,,,,,,,,,,,,,,,,,,,,,,,,,,,,,,,0,0,0,0,0,0,0,0,0,0,0,0,0,0,0,0,,,,,,,,,,,,,
297,1134334,1745299614128,0.0,96.0,,0.95,-0.08,0.83,9.0,1.0,-1.0,1.27,1.39,91.0,11503.0,99.6,5.4,,13.87,0.967,88.0,,65.1,5.0,,,,,,,,,,,,0,0,0,0,0,0,0,0,0,0,0,0,0,0,0,0,,,,,,0.0,,,,,,,
298,1134354,1745299614148,,,,,,,,,,,,,,,,,,,,,,,,,,,,,,,,,,0,0,0,0,0,0,0,0,0,0,0,0,0,0,0,0,,,,,,,,,,,,,
299,1134374,1745299614168,0.0,90.0,,0.9,0.01,0.79,8.0,1.0,0.0,1.2,1.39,86.0,11464.0,99.5,5.39,,13.87,0.967,88.0,,65.1,5.0,21.0,65.0,35.0,35.0,0.0,32.0,0.0,0.0,2.25,,,0,0,0,0,0,0,0,0,0,0,0,0,0,0,0,0,,1.0,,,,0.0,38.986034,-76.950066,31.93,49.5,33.0,3.0,0.8
300,1134394,1745299614188,,,,,,,,,,,,,,,,,,,,,,,,,,,,,,,,,,0,0,0,0,0,0,0,0,0,0,0,0,0,0,0,0,,,,,,,,,,,,,
301,1134414,1745299614214,0.0,76.0,,0.91,0.01,0.9,9.0,1.0,-1.0,1.28,1.39,92.0,11464.0,99.5,5.39,,14.18,0.955,88.0,,65.9,5.0,,,,,,,,,,,,0,0,0,0,0,0,0,0,0,0,0,0,0,0,0,0,,,,,,0.0,,,,,,,
302,1134434,1745299614234,,,,,,,,,,,,,,,,,,,,,,,,,,,,,,,,,,0,0,0,0,0,0,0,0,0,0,0,0,0,0,0,0,,,,,,,,,,,,,
303,1134454,1745299614254,0.0,70.0,,0.93,-0.16,0.91,10.0,1.0,0.0,1.32,1.39,95.0,11467.0,99.6,5.42,,13.94,0.939,88.0,,65.9,5.0,,,,,,,,,,,,0,0,0,0,0,0,0,0,0,0,0,0,0,0,0,0,,,,,,0.0,,,,,,,
304,1134474,1745299614274,,,,,,,,,,,,,,,,,,,,,,,24.0,65.0,34.0,36.0,0.0,59.0,0.0,0.0,2.25,,,0,0,0,0,0,0,0,0,0,0,0,0,0,0,0,0,,0.0,,,,,38.986038,-76.950081,35.72,49.5,33.0,3.0,0.8
305,1134494,1745299614294,0.0,65.0,,0.9,-0.05,0.92,11.0,1.0,0.0,1.29,1.39,92.0,11547.0,99.5,5.37,,14.1,0.926,88.0,,65.9,5.0,,,,,,,,,,,,0,0,0,0,0,0,0,0,0,0,0,0,0,0,0,0,,,,,,0.0,,,,,,,
306,1134514,1745299614314,,,,,,,,,,,,,,,,,,,,,,,,,,,,,,,,,,0,0,0,0,0,0,0,0,0,0,0,0,0,0,0,0,,,,,,,,,,,,,
307,1134534,1745299614334,0.0,76.0,,0.89,0.03,0.95,11.0,-1.0,-1.0,1.3,1.39,94.0,11406.0,99.5,5.42,,13.95,0.926,88.0,,65.6,5.0,,,,,,,,,,,,0,0,0,0,0,0,0,0,0,0,0,0,0,0,0,0,,,,,,0.0,,,,,,,
308,1134554,1745299614354,,,,,,,,,,,,,,,,,,,,,,,,,,,,,,,,,,0,0,0,0,0,0,0,0,0,0,0,0,0,0,0,0,,,,,,,,,,,,,
309,1134574,1745299614374,0.0,79.0,13.27,0.88,0.04,0.92,11.0,-2.0,-1.0,1.27,1.39,91.0,11395.0,99.5,5.45,15.0,13.95,0.926,88.0,183.0,65.6,5.0,24.0,31.0,32.0,35.0,0.0,152.0,0.0,0.0,2.25,0.0,1.0,0,0,0,0,0,0,0,0,0,0,0,0,0,0,0,0,0.0,1.0,1.0,0.0,0.0,0.0,38.986042,-76.950088,39.09,49.5,33.0,3.0,0.8
310,1134594,1745299614394,,,,,,,,,,,,,,,,,,,,,,,,,,,,,,,,,,0,0,0,0,0,0,0,0,0,0,0,0,0,0,0,0,,,,,,,,,,,,,
311,1134614,1745299614414,0.0,68.0,,0.81,0.06,1.0,12.0,-2.0,0.0,1.29,1.39,92.0,11395.0,99.5,5.45,,13.94,0.914,88.0,,65.0,5.0,,,,,,,,,,,,0,0,0,0,0,0,0,0,0,0,0,0,0,0,0,0,,,,,,0.0,,,,,,,
312,1134634,1745299614434,,,,,,,,,,,,,,,,,,,,,,,,,,,,,,,,,,0,0,0,0,0,0,0,0,0,0,0,0,0,0,0,0,,,,,,,,,,,,,
313,1134654,1745299614454,0.0,102.0,,0.72,0.05,1.12,11.0,-1.0,0.0,1.33,1.39,96.0,11804.0,99.5,5.31,,14.08,0.914,88.0,,65.0,5.0,,,,,,,,,,,,0,0,0,0,0,0,0,0,0,0,0,0,0,0,0,0,,,,,,0.0,,,,,,,
314,1134674,1745299614474,,,,,,,,,,,,,,,,,,,,,,,27.0,14.0,34.0,35.0,0.0,79.0,0.0,0.0,2.26,,,0,0,0,0,0,0,0,0,0,0,0,0,0,0,0,0,,0.0,,,,,38.986046,-76.950104,43.85,49.5,33.0,3.0,0.8
315,1134694,1745299614494,0.0,53.0,,0.76,0.06,1.21,8.0,0.0,0.0,1.43,1.43,100.0,12057.0,99.5,5.2,,13.95,0.9,88.0,,65.0,5.0,,,,,,,,,,,,0,0,0,0,0,0,0,0,0,0,0,0,0,0,0,0,,,,,,0.0,,,,,,,
316,1134714,1745299614514,,,,,,,,,,,,,,,,,,,,,,,,,,,,,,,,,,0,0,0,0,0,0,0,0,0,0,0,0,0,0,0,0,,,,,,,,,,,,,
317,1134734,1745299614534,0.0,82.0,,0.82,0.05,1.18,6.0,0.0,-1.0,1.43,1.43,100.0,11562.0,99.5,5.35,,13.98,0.903,88.0,,64.1,5.0,,,,,,,,,,,,0,0,0,0,0,0,0,0,0,0,0,0,0,0,0,0,,,,,,0.0,,,,,,,
318,1134754,1745299614554,,,,,,,,,,,,,,,,,,,,,,,,,,,,,,,,,,0,0,0,0,0,0,0,0,0,0,0,0,0,0,0,0,,,,,,,,,,,,,
319,1134774,1745299614574,0.0,68.0,,0.81,0.12,1.16,5.0,0.0,-1.0,1.42,1.43,99.0,11157.0,99.6,5.53,,13.98,0.903,88.0,,64.1,5.0,30.0,15.0,34.0,34.0,0.0,24.0,0.0,0.0,2.25,,,0,0,0,0,0,0,0,0,0,0,0,0,0,0,0,0,,1.0,,,,0.0,38.98605,-76.950111,45.0,49.5,33.0,3.0,0.8
320,1134794,1745299614594,,,,,,,,,,,,,,,,,,,,,,,,,,,,,,,,,,0,0,0,0,0,0,0,0,0,0,0,0,0,0,0,0,,,,,,,,,,,,,
321,1134814,1745299614614,0.0,53.0,,0.81,0.0,1.23,6.0,0.0,-1.0,1.48,1.48,100.0,11157.0,99.6,5.53,,14.04,0.914,88.0,,65.9,5.0,,,,,,,,,,,,0,0,0,0,0,0,0,0,0,0,0,0,0,0,0,0,,,,,,0.0,,,,,,,
322,1134834,1745299614634,,,,,,,,,,,,,,,,,,,,,,,,,,,,,,,,,,0,0,0,0,0,0,0,0,0,0,0,0,0,0,0,0,,,,,,,,,,,,,
323,1134854,1745299614654,0.0,59.0,,0.81,-0.05,1.28,5.0,0.0,-1.0,1.51,1.51,100.0,11306.0,99.6,5.48,,14.15,0.931,88.0,,65.9,5.0,,,,,,,,,,,,0,0,0,0,0,0,0,0,0,0,0,0,0,0,0,0,,,,,,0.0,,,,,,,
324,1134874,1745299614674,,,,,,,,,,,,,,,,,,,,,,,32.0,15.0,34.0,34.0,0.0,71.0,0.0,0.0,2.24,,,0,0,0,0,0,0,0,0,0,0,0,0,0,0,0,0,,1.0,,,,,38.986053,-76.950134,49.59,49.5,33.0,3.0,0.8
325,1134894,1745299614694,0.0,45.0,,0.82,-0.13,1.32,4.0,0.0,-1.0,1.56,1.56,100.0,11517.0,91.5,5.82,,13.8,0.922,88.0,,65.9,5.0,,,,,,,,,,,,0,0,0,0,0,0,0,0,0,0,0,0,0,0,0,0,,,,,,0.0,,,,,,,
326,1134914,1745299614713,,,,,,,,,,,,,,,,,,,,,,,,,,,,,,,,,,0,0,0,0,0,0,0,0,0,0,0,0,0,0,0,0,,,,,,,,,,,,,
327,1134934,1745299614733,0.0,62.0,,0.83,-0.31,1.22,2.0,0.0,-2.0,1.51,1.56,97.0,11565.0,28.6,4.37,,11.93,0.906,88.0,,67.2,5.0,,,,,,,,,,,,0,0,0,0,0,0,0,0,0,0,0,0,0,0,0,0,,,,,,0.0,,,,,,,
328,1134954,1745299614753,,,,,,,,,,,,,,,,,,,,,,,,,,,,,,,,,,0,0,0,0,0,0,0,0,0,0,0,0,0,0,0,0,,,,,,,,,,,,,
329,1134974,1745299614773,0.0,59.0,,0.73,-0.27,1.2,2.0,-1.0,-1.0,1.43,1.56,92.0,11375.0,0.0,1.4,,11.93,0.906,88.0,,67.2,5.0,33.0,15.0,35.0,35.0,0.0,115.0,0.0,0.0,2.25,,,0,0,0,0,0,0,0,0,0,0,0,0,0,0,0,0,,1.0,,,,0.0,38.986053,-76.950142,53.44,49.5,33.0,3.0,0.8
330,1134994,1745299614793,,,,,,,,,,,,,,,,,,,,,,,,,,,,,,,,,,0,0,0,0,0,0,0,0,0,0,0,0,0,0,0,0,,,,,,,,,,,,,
331,1135014,1745299614813,0.0,51.0,,0.62,-0.27,1.2,3.0,-2.0,-2.0,1.38,1.56,89.0,11375.0,0.0,1.4,,8.87,0.887,88.0,,63.4,5.0,,,,,,,,,,,,0,0,0,0,0,0,0,0,0,0,0,0,0,0,0,0,,,,,,0.0,,,,,,,
332,1135034,1745299614833,,,,,,,,,,,,,,,,,,,,,,,,,,,,,,,,,,0,0,0,0,0,0,0,0,0,0,0,0,0,0,0,0,,,,,,,,,,,,,
333,1135054,1745299614853,0.0,62.0,,0.52,-0.25,1.17,3.0,-2.0,-2.0,1.31,1.56,84.0,11116.0,0.0,1.4,,7.0,0.824,88.0,,63.4,5.0,,,,,,,,,,,,0,0,0,0,0,0,0,0,0,0,0,0,0,0,0,0,,,,,,0.0,,,,,,,
334,1135074,1745299614873,,,,,,,,,,,,,,,,,,,,,,,35.0,15.0,35.0,33.0,0.0,38.0,0.0,0.0,2.26,,,0,0,0,0,0,0,0,0,0,0,0,0,0,0,0,0,,1.0,,,,,38.986057,-76.950165,55.66,49.4,33.0,3.0,0.8
335,1135094,1745299614893,0.0,62.0,,0.46,-0.05,1.08,5.0,-1.0,-2.0,1.17,1.56,76.0,10951.0,0.0,1.4,,6.22,0.928,88.0,,63.4,5.0,,,,,,,,,,,,0,0,0,0,0,0,0,0,0,0,0,0,0,0,0,0,,,,,,0.0,,,,,,,
336,1135114,1745299614913,,,,,,,,,,,,,,,,,,,,,,,,,,,,,,,,,,0,0,0,0,0,0,0,0,0,0,0,0,0,0,0,0,,,,,,,,,,,,,
337,1135134,1745299614933,0.0,68.0,,0.4,-0.03,1.08,7.0,-1.0,-2.0,1.15,1.56,74.0,10861.0,0.0,1.4,,5.62,1.03,88.0,,59.6,5.0,,,,,,,,,,,,0,0,0,0,0,0,0,0,0,0,0,0,0,0,0,0,,,,,,0.0,,,,,,,
338,1135154,1745299614953,,,,,,,,,,,,,,,,,,,,,,,,,,,,,,,,,,0,0,0,0,0,0,0,0,0,0,0,0,0,0,0,0,,,,,,,,,,,,,
339,1135174,1745299614973,0.0,107.0,,0.28,0.13,1.06,9.0,-2.0,-3.0,1.1,1.56,71.0,11070.0,0.0,1.4,,5.62,1.03,88.0,,59.6,5.0,36.0,15.0,35.0,35.0,0.0,247.0,0.0,0.0,2.27,,,0,0,0,0,0,0,0,0,0,0,0,0,0,0,0,0,,0.0,,,,0.0,38.986061,-76.95018,56.26,49.4,33.0,3.0,0.8
340,1135194,1745299614993,,,,,,,,,,,,,,,,,,,,,,,,,,,,,,,,,,0,0,0,0,0,0,0,0,0,0,0,0,0,0,0,0,,,,,,,,,,,,,
341,1135214,1745299615005,0.0,62.0,,0.24,0.14,1.07,11.0,-2.0,-2.0,1.1,1.56,71.0,11070.0,0.0,1.4,,5.26,1.023,88.0,,54.8,5.0,,,,,,,,,,,,0,0,0,0,0,0,0,0,0,0,0,0,0,0,0,0,,,,,,0.0,,,,,,,
342,1135234,1745299615025,,,,,,,,,,,,,,,,,,,,,,,,,,,,,,,,,,0,0,0,0,0,0,0,0,0,0,0,0,0,0,0,0,,,,,,,,,,,,,
343,1135254,1745299615045,0.0,53.0,,0.2,0.25,0.97,14.0,-2.0,-3.0,1.02,1.56,66.0,11202.0,22.1,2.19,,6.59,0.989,88.0,,54.8,5.0,,,,,,,,,,,,0,0,0,0,0,0,0,0,0,0,0,0,0,0,0,0,,,,,,0.0,,,,,,,
344,1135274,1745299615065,,,,,,,,,,,,,,,,,,,,,,,34.0,15.0,34.0,33.0,0.0,247.0,0.0,0.0,2.26,,,0,0,0,0,0,0,0,0,0,0,0,0,0,0,0,0,,1.0,,,,,38.986065,-76.950195,54.22,49.4,33.0,3.0,0.8
345,1135294,1745299615085,0.0,119.0,,0.16,0.37,0.97,15.0,-2.0,-1.0,1.05,1.56,67.0,11182.0,38.5,2.32,,9.22,1.021,88.0,,54.8,5.0,,,,,,,,,,,,0,0,0,0,0,0,0,0,0,0,0,0,0,0,0,0,,,,,,0.0,,,,,,,
346,1135314,1745299615115,,,,,,,,,,,,,,,,,,,,,,,,,,,,,,,,,,0,0,0,0,0,0,0,0,0,0,0,0,0,0,0,0,,,,,,,,,,,,,
347,1135334,1745299615135,0.0,107.0,,0.16,0.31,0.99,17.0,-1.0,-2.0,1.05,1.56,68.0,11130.0,42.9,3.17,,11.01,1.143,88.0,,54.3,5.0,,,,,,,,,,,,0,0,0,0,0,0,0,0,0,0,0,0,0,0,0,0,,,,,,0.0,,,,,,,
348,1135354,1745299615155,,,,,,,,,,,,,,,,,,,,,,,,,,,,,,,,,,0,0,0,0,0,0,0,0,0,0,0,0,0,0,0,0,,,,,,,,,,,,,
349,1135374,1745299615175,0.0,82.0,,0.15,0.43,1.05,20.0,-1.0,-2.0,1.14,1.56,73.0,11547.0,43.2,4.37,,11.01,1.143,88.0,,54.3,5.0,35.0,15.0,34.0,35.0,0.0,249.0,0.0,0.0,2.26,,,0,0,0,0,0,0,0,0,0,0,0,0,0,0,0,0,,0.0,,,,0.0,38.986069,-76.950218,52.89,49.4,33.0,3.0,0.8
350,1135394,1745299615195,,,,,,,,,,,,,,,,,,,,,,,,,,,,,,,,,,0,0,0,0,0,0,0,0,0,0,0,0,0,0,0,0,,,,,,,,,,,,,
351,1135414,1745299615213,0.0,79.0,,0.17,0.56,1.05,22.0,-2.0,-2.0,1.2,1.56,77.0,11547.0,43.2,4.37,,11.75,1.25,88.0,,60.6,5.0,,,,,,,,,,,,0,0,0,0,0,0,0,0,0,0,0,0,0,0,0,0,,,,,,0.0,,,,,,,
352,1135434,1745299615233,,,,,,,,,,,,,,,,,,,,,,,,,,,,,,,,,,0,0,0,0,0,0,0,0,0,0,0,0,0,0,0,0,,,,,,,,,,,,,
353,1135454,1745299615253,0.0,90.0,,0.28,0.47,1.03,24.0,-2.0,-2.0,1.17,1.56,75.0,12335.0,38.0,4.13,,11.45,1.205,88.0,,60.6,5.0,,,,,,,,,,,,0,0,0,0,0,0,0,0,0,0,0,0,0,0,0,0,,,,,,0.0,,,,,,,
354,1135474,1745299615273,,,,,,,,,,,,,,,,,,,,,,,34.0,15.0,35.0,36.0,0.0,33.0,0.0,0.0,2.29,,,0,0,0,0,0,0,0,0,0,0,0,0,0,0,0,0,,1.0,,,,,38.986073,-76.950226,52.15,49.4,33.0,3.0,0.8
355,1135494,1745299615293,0.0,110.0,,0.33,0.57,0.94,27.0,-1.0,-2.0,1.15,1.56,74.0,12228.0,37.6,4.03,,11.29,0.957,88.0,,60.6,5.0,,,,,,,,,,,,0,0,0,0,0,0,0,0,0,0,0,0,0,0,0,0,,,,,,0.0,,,,,,,
356,1135514,1745299615315,,,,,,,,,,,,,,,,,,,,,,,,,,,,,,,,,,0,0,0,0,0,0,0,0,0,0,0,0,0,0,0,0,,,,,,,,,,,,,
357,1135534,1745299615335,0.0,93.0,,0.41,0.65,0.93,28.0,-1.0,-2.0,1.21,1.21,100.0,12129.0,37.1,4.04,,11.42,0.94,88.0,,66.4,5.0,,,,,,,,,,,,0,0,0,0,0,0,0,0,0,0,0,0,0,0,0,0,,,,,,0.0,,,,,,,
358,1135554,1745299615355,,,,,,,,,,,,,,,,,,,,,,,,,,,,,,,,,,0,0,0,0,0,0,0,0,0,0,0,0,0,0,0,0,,,,,,,,,,,,,
359,1135574,1745299615375,0.0,104.0,13.07,0.45,0.8,1.05,29.0,-1.0,-2.0,1.39,1.39,100.0,12044.0,37.8,4.17,15.0,11.42,0.94,88.0,183.0,66.4,5.0,36.0,15.0,37.0,35.0,0.0,70.0,0.0,0.0,2.29,0.0,1.0,0,0,0,0,0,0,0,0,0,0,0,0,0,0,0,0,0.0,0.0,1.0,0.0,0.0,0.0,38.986073,-76.950249,53.04,49.3,33.0,3.0,0.8
360,1135594,1745299615395,,,,,,,,,,,,,,,,,,,,,,,,,,,,,,,,,,0,0,0,0,0,0,0,0,0,0,0,0,0,0,0,0,,,,,,,,,,,,,
361,1135614,1745299615415,0.0,90.0,,0.43,0.89,1.05,29.0,-2.0,-2.0,1.44,1.44,100.0,12044.0,37.8,4.17,,11.64,0.922,88.0,,65.0,5.0,,,,,,,,,,,,0,0,0,0,0,0,0,0,0,0,0,0,0,0,0,0,,,,,,0.0,,,,,,,
362,1135634,1745299615435,,,,,,,,,,,,,,,,,,,,,,,,,,,,,,,,,,0,0,0,0,0,0,0,0,0,0,0,0,0,0,0,0,,,,,,,,,,,,,
363,1135654,1745299615455,0.0,133.0,,0.42,1.0,1.04,28.0,-3.0,-1.0,1.5,1.5,100.0,12315.0,39.5,4.27,,11.79,0.947,88.0,,65.0,5.0,,,,,,,,,,,,0,0,0,0,0,0,0,0,0,0,0,0,0,0,0,0,,,,,,0.0,,,,,,,
364,1135674,1745299615475,,,,,,,,,,,,,,,,,,,,,,,36.0,15.0,37.0,38.0,0.0,74.0,0.0,0.0,2.26,,,0,0,0,0,0,0,0,0,0,0,0,0,0,0,0,0,,1.0,,,,,38.986073,-76.950264,55.39,49.3,33.0,3.0,0.8
365,1135694,1745299615495,0.0,102.0,,0.38,0.85,1.04,27.0,-2.0,0.0,1.39,1.5,92.0,12510.0,40.1,4.16,,11.71,0.92,88.0,,65.0,5.0,,,,,,,,,,,,0,0,0,0,0,0,0,0,0,0,0,0,0,0,0,0,,,,,,0.0,,,,,,,
366,1135714,1745299615515,,,,,,,,,,,,,,,,,,,,,,,,,,,,,,,,,,0,0,0,0,0,0,0,0,0,0,0,0,0,0,0,0,,,,,,,,,,,,,
367,1135734,1745299615535,0.0,99.0,,0.36,0.78,1.04,28.0,-2.0,0.0,1.35,1.5,90.0,12552.0,39.8,4.05,,11.61,0.917,88.0,,63.1,5.0,,,,,,,,,,,,0,0,0,0,0,0,0,0,0,0,0,0,0,0,0,0,,,,,,0.0,,,,,,,
368,1135754,1745299615555,,,,,,,,,,,,,,,,,,,,,,,,,,,,,,,,,,0,0,0,0,0,0,0,0,0,0,0,0,0,0,0,0,,,,,,,,,,,,,
369,1135774,1745299615575,0.0,134.0,,0.35,0.87,1.1,27.0,-1.0,0.0,1.45,1.5,96.0,12566.0,39.9,4.07,,11.61,0.917,88.0,,63.1,5.0,38.0,15.0,38.0,37.0,0.0,20.0,0.0,0.0,2.27,,,0,0,0,0,0,0,0,0,0,0,0,0,0,0,0,0,,1.0,,,,0.0,38.986073,-76.950287,57.34,49.3,33.0,3.0,0.8
370,1135794,1745299615595,,,,,,,,,,,,,,,,,,,,,,,,,,,,,,,,,,0,0,0,0,0,0,0,0,0,0,0,0,0,0,0,0,,,,,,,,,,,,,
371,1135814,1745299615615,0.0,73.0,,0.4,0.77,1.06,26.0,-1.0,-1.0,1.37,1.5,91.0,12566.0,39.9,4.07,,11.68,0.933,88.0,,65.7,5.0,,,,,,,,,,,,0,0,0,0,0,0,0,0,0,0,0,0,0,0,0,0,,,,,,0.0,,,,,,,
372,1135834,1745299615635,,,,,,,,,,,,,,,,,,,,,,,,,,,,,,,,,,0,0,0,0,0,0,0,0,0,0,0,0,0,0,0,0,,,,,,,,,,,,,
373,1135854,1745299615655,0.0,70.0,,0.38,0.83,1.04,25.0,-1.0,-1.0,1.39,1.5,92.0,12569.0,43.5,4.27,,12.07,0.945,88.0,,65.7,5.0,,,,,,,,,,,,0,0,0,0,0,0,0,0,0,0,0,0,0,0,0,0,,,,,,0.0,,,,,,,
374,1135874,1745299615675,,,,,,,,,,,,,,,,,,,,,,,38.0,15.0,39.0,42.0,0.0,43.0,0.0,0.0,2.26,,,0,0,0,0,0,0,0,0,0,0,0,0,0,0,0,0,,0.0,,,,,38.986073,-76.950302,58.29,49.3,33.0,3.0,0.8
375,1135894,1745299615695,0.0,96.0,,0.41,0.71,1.02,23.0,0.0,-1.0,1.31,1.5,87.0,12697.0,48.3,4.26,,12.33,0.959,88.0,,65.7,5.0,,,,,,,,,,,,0,0,0,0,0,0,0,0,0,0,0,0,0,0,0,0,,,,,,0.0,,,,,,,
376,1135914,1745299615714,,,,,,,,,,,,,,,,,,,,,,,,,,,,,,,,,,0,0,0,0,0,0,0,0,0,0,0,0,0,0,0,0,,,,,,,,,,,,,
