,Interval,Utc,FrontBP,SteerAng,Battery,AccelX,AccelY,AccelZ,Yaw,Pitch,Roll,Gsum,GsumMax,GsumPct,RPM,TPS,InjectorPW,Baro,MAP,Lambda,IAT,EngineTemp,EOP,EOT,WSFR,WSFL,WSRR,WSRL,TCSet,TCSlip,TCComp,TCCut,Analog8,OilTemp,AA_On,ThermLF1,ThermLF2,ThermRR1,ThermRR2,ThermLF3,ThermLF4,ThermLF5,ThermLF6,ThermLF7,ThermLF8,ThermRR3,ThermRR4,ThermRR5,ThermRR6,ThermRR7,ThermRR8,AA_LowDrag,Gear,AA_On1,AA_LowDrag1,Fuel_Mix,AA_Packages,Latitude,Longitude,Speed,Altitude,GPSSats,GPSQual,GPSDOP
0,1067494,1745299543618,7.67,-46.0,,-0.03,-0.05,0.82,-2.0,0.0,0.0,0.82,0.82,100.0,4774.0,0.0,2.5,,11.45,1.251,95.2,,35.2,5.0,,,,,,,,,,,,0,0,0,0,0,0,0,0,0,0,0,0,0,0,0,0,,,,,,0.0,,,,,,,
1,1067514,1745299543638,,,,,,,,,,,,,,,,,,,,,,,,,,,,,,,,,,0,0,0,0,0,0,0,0,0,0,0,0,0,0,0,0,,,,,,,,,,,,,
2,1067534,1745299543658,7.04,-46.0,,-0.02,-0.04,0.88,0.0,0.0,0.0,0.88,0.88,100.0,4774.0,0.0,2.5,,11.22,1.25,95.2,,35.2,5.0,,,,,,,,,,,,0,0,0,0,0,0,0,0,0,0,0,0,0,0,0,0,,,,,,0.0,,,,,,,
3,1067554,1745299543678,,,,,,,,,,,,,,,,,,,,,,,,,,,,,,,,,,0,0,0,0,0,0,0,0,0,0,0,0,0,0,0,0,,,,,,,,,,,,,
4,1067574,1745299543698,7.04,-23.0,13.09,-0.05,-0.03,0.93,0.0,0.0,0.0,0.93,0.93,100.0,4684.0,5.2,3.32,15.0,11.1,1.217,95.2,165.0,34.1,5.0,0.0,0.0,0.0,0.0,0.0,0.0,0.0,0.0,2.25,0.0,1.0,0,0,0,0,0,0,0,0,0,0,0,0,0,0,0,0,0.0,0.0,1.0,0.0,0.0,0.0,38.985352,-76.951256,0.17,47.1,35.0,3.0,0.7
5,1067594,1745299543718,,,,,,,,,,,,,,,,,,,,,,,,,,,,,,,,,,0,0,0,0,0,0,0,0,0,0,0,0,0,0,0,0,,,,,,,,,,,,,
6,1067614,1745299543738,5.78,-38.0,,-0.03,-0.06,0.88,-2.0,0.0,0.0,0.88,0.93,94.0,4751.0,15.5,4.22,,11.99,1.089,95.2,,34.1,5.0,,,,,,,,,,,,0,0,0,0,0,0,0,0,0,0,0,0,0,0,0,0,,,,,,0.0,,,,,,,
7,1067634,1745299543758,,,,,,,,,,,,,,,,,,,,,,,,,,,,,,,,,,0,0,0,0,0,0,0,0,0,0,0,0,0,0,0,0,,,,,,,,,,,,,
8,1067654,1745299543778,6.41,-23.0,,-0.05,0.02,0.97,0.0,0.0,0.0,0.97,0.97,100.0,4946.0,26.8,4.8,,13.19,1.027,95.2,,34.1,5.0,,,,,,,,,,,,0,0,0,0,0,0,0,0,0,0,0,0,0,0,0,0,,,,,,0.0,,,,,,,
9,1067674,1745299543798,,,,,,,,,,,,,,,,,,,,,,,0.0,0.0,0.0,0.0,0.0,0.0,0.0,0.0,2.26,,,0,0,0,0,0,0,0,0,0,0,0,0,0,0,0,0,,0.0,,,,,38.985352,-76.951256,0.43,47.1,35.0,3.0,0.7
10,1067694,1745299543818,6.41,-27.0,,-0.05,0.07,0.97,-1.0,0.0,0.0,0.98,0.98,100.0,5383.0,30.0,5.23,,13.19,1.027,95.2,,36.9,5.0,,,,,,,,,,,,0,0,0,0,0,0,0,0,0,0,0,0,0,0,0,0,,,,,,0.0,,,,,,,
11,1067714,1745299543838,,,,,,,,,,,,,,,,,,,,,,,,,,,,,,,,,,0,0,0,0,0,0,0,0,0,0,0,0,0,0,0,0,,,,,,,,,,,,,
12,1067734,1745299543858,6.41,-38.0,,-0.06,0.04,1.05,-2.0,0.0,0.0,1.05,1.05,100.0,5383.0,30.0,5.23,,13.44,0.952,95.2,,36.9,5.0,,,,,,,,,,,,0,0,0,0,0,0,0,0,0,0,0,0,0,0,0,0,,,,,,0.0,,,,,,,
13,1067754,1745299543878,,,,,,,,,,,,,,,,,,,,,,,,,,,,,,,,,,0,0,0,0,0,0,0,0,0,0,0,0,0,0,0,0,,,,,,,,,,,,,
14,1067774,1745299543898,7.67,-23.0,,-0.06,0.04,1.05,-3.0,0.0,0.0,1.05,1.05,100.0,6225.0,30.7,5.29,,13.27,1.033,95.2,,49.2,5.0,0.0,0.0,0.0,0.0,0.0,0.0,0.0,0.0,2.25,,,0,0,0,0,0,0,0,0,0,0,0,0,0,0,0,0,,0.0,,,,0.0,38.985352,-76.951256,0.22,47.1,35.0,3.0,0.7
15,1067794,1745299543920,,,,,,,,,,,,,,,,,,,,,,,,,,,,,,,,,,0,0,0,0,0,0,0,0,0,0,0,0,0,0,0,0,,,,,,,,,,,,,
16,1067814,1745299543940,8.3,-23.0,,-0.04,0.02,1.07,-2.0,0.0,0.0,1.07,1.07,100.0,7253.0,0.0,1.4,,11.24,1.079,95.2,,49.2,5.0,,,,,,,,,,,,0,0,0,0,0,0,0,0,0,0,0,0,0,0,0,0,,,,,,0.0,,,,,,,
17,1067834,1745299543960,,,,,,,,,,,,,,,,,,,,,,,,,,,,,,,,,,0,0,0,0,0,0,0,0,0,0,0,0,0,0,0,0,,,,,,,,,,,,,
18,1067854,1745299543980,7.67,-23.0,,-0.03,0.06,1.06,-2.0,0.0,0.0,1.06,1.07,100.0,7466.0,0.0,1.4,,9.38,0.95,95.2,,49.2,5.0,,,,,,,,,,,,0,0,0,0,0,0,0,0,0,0,0,0,0,0,0,0,,,,,,0.0,,,,,,,
19,1067874,1745299544000,,,,,,,,,,,,,,,,,,,,,,,0.0,0.0,0.0,0.0,0.0,0.0,0.0,0.0,2.26,,,0,0,0,0,0,0,0,0,0,0,0,0,0,0,0,0,,0.0,,,,,38.985352,-76.951256,0.08,47.1,35.0,3.0,0.7
20,1067894,1745299544012,7.67,-38.0,,-0.05,0.01,1.05,-2.0,0.0,0.0,1.05,1.07,98.0,7041.0,0.1,1.4,,9.38,0.95,95.2,,52.5,5.0,,,,,,,,,,,,0,0,0,0,0,0,0,0,0,0,0,0,0,0,0,0,,,,,,0.0,,,,,,,
21,1067914,1745299544032,,,,,,,,,,,,,,,,,,,,,,,,,,,,,,,,,,0,0,0,0,0,0,0,0,0,0,0,0,0,0,0,0,,,,,,,,,,,,,
22,1067934,1745299544052,7.04,-23.0,,-0.03,-0.04,1.06,-2.0,0.0,0.0,1.06,1.07,99.0,7041.0,0.1,1.4,,8.34,0.932,95.2,,52.5,5.0,,,,,,,,,,,,0,0,0,0,0,0,0,0,0,0,0,0,0,0,0,0,,,,,,0.0,,,,,,,
23,1067954,1745299544072,,,,,,,,,,,,,,,,,,,,,,,,,,,,,,,,,,0,0,0,0,0,0,0,0,0,0,0,0,0,0,0,0,,,,,,,,,,,,,
24,1067974,1745299544092,7.67,-8.0,,-0.0,0.02,1.02,-1.0,0.0,0.0,1.02,1.07,95.0,6552.0,0.2,1.4,,7.99,1.192,95.2,,49.6,5.0,0.0,0.0,0.0,0.0,0.0,0.0,0.0,0.0,2.25,,,0,0,0,0,0,0,0,0,0,0,0,0,0,0,0,0,,0.0,,,,0.0,38.985352,-76.951256,0.07,47.1,35.0,3.0,0.7
25,1067994,1745299544112,,,,,,,,,,,,,,,,,,,,,,,,,,,,,,,,,,0,0,0,0,0,0,0,0,0,0,0,0,0,0,0,0,,,,,,,,,,,,,
26,1068014,1745299544132,7.04,-15.0,,0.03,-0.04,1.07,0.0,0.0,0.0,1.07,1.07,100.0,6135.0,0.2,1.4,,7.89,1.251,95.2,,49.6,5.0,,,,,,,,,,,,0,0,0,0,0,0,0,0,0,0,0,0,0,0,0,0,,,,,,0.0,,,,,,,
27,1068034,1745299544152,,,,,,,,,,,,,,,,,,,,,,,,,,,,,,,,,,0,0,0,0,0,0,0,0,0,0,0,0,0,0,0,0,,,,,,,,,,,,,
28,1068054,1745299544172,7.67,-19.0,,0.06,-0.03,1.02,0.0,0.0,0.0,1.02,1.07,95.0,5709.0,0.3,1.4,,8.03,1.251,95.2,,49.6,5.0,,,,,,,,,,,,0,0,0,0,0,0,0,0,0,0,0,0,0,0,0,0,,,,,,0.0,,,,,,,
29,1068074,1745299544192,,,,,,,,,,,,,,,,,,,,,,,0.0,0.0,0.0,0.0,0.0,0.0,0.0,0.0,2.25,,,0,0,0,0,0,0,0,0,0,0,0,0,0,0,0,0,,0.0,,,,,38.985352,-76.951256,0.04,47.1,35.0,3.0,0.7
30,1068094,1745299544220,7.67,-31.0,,0.04,0.06,1.02,1.0,0.0,0.0,1.02,1.07,96.0,5366.0,0.3,1.4,,8.03,1.251,95.2,,43.9,5.0,,,,,,,,,,,,0,0,0,0,0,0,0,0,0,0,0,0,0,0,0,0,,,,,,0.0,,,,,,,
31,1068114,1745299544240,,,,,,,,,,,,,,,,,,,,,,,,,,,,,,,,,,0,0,0,0,0,0,0,0,0,0,0,0,0,0,0,0,,,,,,,,,,,,,
32,1068134,1745299544260,8.3,-31.0,,0.02,0.08,1.0,0.0,0.0,0.0,1.0,1.07,94.0,5366.0,0.3,1.4,,8.38,1.25,95.2,,43.9,5.0,,,,,,,,,,,,0,0,0,0,0,0,0,0,0,0,0,0,0,0,0,0,,,,,,0.0,,,,,,,
33,1068154,1745299544280,,,,,,,,,,,,,,,,,,,,,,,,,,,,,,,,,,0,0,0,0,0,0,0,0,0,0,0,0,0,0,0,0,,,,,,,,,,,,,
34,1068174,1745299544300,8.3,-8.0,,0.02,0.02,1.03,1.0,0.0,0.0,1.03,1.07,96.0,4918.0,7.7,2.34,,8.94,1.249,95.2,,36.6,5.0,0.0,0.0,0.0,0.0,0.0,0.0,0.0,0.0,2.26,,,0,0,0,0,0,0,0,0,0,0,0,0,0,0,0,0,,0.0,,,,0.0,38.985352,-76.951256,0.04,47.1,35.0,3.0,0.7
35,1068194,1745299544320,,,,,,,,,,,,,,,,,,,,,,,,,,,,,,,,,,0,0,0,0,0,0,0,0,0,0,0,0,0,0,0,0,,,,,,,,,,,,,
36,1068214,1745299544340,9.55,-23.0,,0.01,0.12,1.1,3.0,0.0,0.0,1.1,1.1,100.0,4546.0,18.5,3.29,,10.97,1.248,95.2,,36.6,5.0,,,,,,,,,,,,0,0,0,0,0,0,0,0,0,0,0,0,0,0,0,0,,,,,,0.0,,,,,,,
37,1068234,1745299544360,,,,,,,,,,,,,,,,,,,,,,,,,,,,,,,,,,0,0,0,0,0,0,0,0,0,0,0,0,0,0,0,0,,,,,,,,,,,,,
38,1068254,1745299544380,9.55,-31.0,,0.01,0.17,1.15,4.0,0.0,0.0,1.16,1.16,100.0,4473.0,25.0,4.62,,12.72,1.248,95.2,,36.6,5.0,,,,,,,,,,,,0,0,0,0,0,0,0,0,0,0,0,0,0,0,0,0,,,,,,0.0,,,,,,,
39,1068274,1745299544400,,,,,,,,,,,,,,,,,,,,,,,0.0,0.0,0.0,0.0,0.0,0.0,0.0,0.0,2.26,,,0,0,0,0,0,0,0,0,0,0,0,0,0,0,0,0,,0.0,,,,,38.985352,-76.951256,0.0,47.1,35.0,3.0,0.7
40,1068294,1745299544420,8.92,-19.0,,0.01,0.23,1.18,6.0,0.0,0.0,1.21,1.21,100.0,4606.0,26.4,4.81,,12.72,1.248,95.2,,32.6,5.0,,,,,,,,,,,,0,0,0,0,0,0,0,0,0,0,0,0,0,0,0,0,,,,,,0.0,,,,,,,
41,1068314,1745299544440,,,,,,,,,,,,,,,,,,,,,,,,,,,,,,,,,,0,0,0,0,0,0,0,0,0,0,0,0,0,0,0,0,,,,,,,,,,,,,
42,1068334,1745299544460,8.3,-27.0,,-0.02,0.27,1.25,6.0,0.0,0.0,1.28,1.28,100.0,4606.0,26.4,4.81,,13.45,1.248,95.2,,32.6,5.0,,,,,,,,,,,,0,0,0,0,0,0,0,0,0,0,0,0,0,0,0,0,,,,,,0.0,,,,,,,
43,1068354,1745299544480,,,,,,,,,,,,,,,,,,,,,,,,,,,,,,,,,,0,0,0,0,0,0,0,0,0,0,0,0,0,0,0,0,,,,,,,,,,,,,
44,1068374,1745299544500,7.67,-8.0,,-0.01,0.2,1.16,4.0,0.0,0.0,1.18,1.28,93.0,4810.0,26.7,4.62,,13.6,1.25,95.2,,36.0,5.0,0.0,0.0,0.0,0.0,0.0,0.0,0.0,0.0,2.25,,,0,0,0,0,0,0,0,0,0,0,0,0,0,0,0,0,,0.0,,,,0.0,38.985352,-76.951256,0.04,47.1,35.0,3.0,0.7
45,1068394,1745299544520,,,,,,,,,,,,,,,,,,,,,,,,,,,,,,,,,,0,0,0,0,0,0,0,0,0,0,0,0,0,0,0,0,,,,,,,,,,,,,
46,1068414,1745299544540,7.67,0.0,,-0.03,0.18,1.14,4.0,0.0,0.0,1.15,1.28,90.0,5035.0,15.2,4.21,,13.13,1.251,95.2,,36.0,5.0,,,,,,,,,,,,0,0,0,0,0,0,0,0,0,0,0,0,0,0,0,0,,,,,,0.0,,,,,,,
47,1068434,1745299544560,,,,,,,,,,,,,,,,,,,,,,,,,,,,,,,,,,0,0,0,0,0,0,0,0,0,0,0,0,0,0,0,0,,,,,,,,,,,,,
48,1068454,1745299544580,8.3,-12.0,,-0.03,0.16,1.12,4.0,0.0,0.0,1.13,1.28,89.0,5176.0,0.0,2.31,,11.85,1.251,95.2,,36.0,5.0,,,,,,,,,,,,0,0,0,0,0,0,0,0,0,0,0,0,0,0,0,0,,,,,,0.0,,,,,,,
49,1068474,1745299544600,,,,,,,,,,,,,,,,,,,,,,,0.0,0.0,0.0,0.0,0.0,0.0,0.0,0.0,2.25,,,0,0,0,0,0,0,0,0,0,0,0,0,0,0,0,0,,0.0,,,,,38.985352,-76.951256,0.04,47.1,35.0,3.0,0.7
50,1068494,1745299544619,9.55,-8.0,,-0.03,0.23,1.13,4.0,0.0,0.0,1.15,1.28,90.0,5017.0,0.0,2.3,,11.85,1.251,95.2,,38.6,5.0,,,,,,,,,,,,0,0,0,0,0,0,0,0,0,0,0,0,0,0,0,0,,,,,,0.0,,,,,,,
51,1068514,1745299544639,,,,,,,,,,,,,,,,,,,,,,,,,,,,,,,,,,0,0,0,0,0,0,0,0,0,0,0,0,0,0,0,0,,,,,,,,,,,,,
52,1068534,1745299544659,9.55,-19.0,,-0.02,0.12,1.07,3.0,0.0,0.0,1.07,1.28,84.0,5017.0,0.0,2.3,,11.05,1.251,95.2,,38.6,5.0,,,,,,,,,,,,0,0,0,0,0,0,0,0,0,0,0,0,0,0,0,0,,,,,,0.0,,,,,,,
53,1068554,1745299544679,,,,,,,,,,,,,,,,,,,,,,,,,,,,,,,,,,0,0,0,0,0,0,0,0,0,0,0,0,0,0,0,0,,,,,,,,,,,,,
54,1068574,1745299544699,9.55,-19.0,13.13,-0.03,0.18,1.13,3.0,0.0,0.0,1.15,1.28,90.0,4840.0,0.0,2.0,15.0,10.64,1.251,95.2,167.0,35.8,5.0,0.0,0.0,0.0,0.0,0.0,0.0,0.0,0.0,2.25,0.0,1.0,0,0,0,0,0,0,0,0,0,0,0,0,0,0,0,0,0.0,0.0,1.0,0.0,0.0,0.0,38.985352,-76.951256,0.04,47.1,35.0,3.0,0.7
55,1068594,1745299544719,,,,,,,,,,,,,,,,,,,,,,,,,,,,,,,,,,0,0,0,0,0,0,0,0,0,0,0,0,0,0,0,0,,,,,,,,,,,,,
56,1068614,1745299544739,9.55,3.0,,-0.06,0.2,1.18,3.0,0.0,1.0,1.2,1.28,94.0,4616.0,0.0,1.81,,10.46,1.25,95.2,,35.8,5.0,,,,,,,,,,,,0,0,0,0,0,0,0,0,0,0,0,0,0,0,0,0,,,,,,0.0,,,,,,,
57,1068634,1745299544759,,,,,,,,,,,,,,,,,,,,,,,,,,,,,,,,,,0,0,0,0,0,0,0,0,0,0,0,0,0,0,0,0,,,,,,,,,,,,,
58,1068654,1745299544779,8.92,-15.0,,-0.08,0.26,1.26,3.0,0.0,1.0,1.29,1.29,100.0,4414.0,0.0,1.82,,10.46,1.249,95.2,,35.8,5.0,,,,,,,,,,,,0,0,0,0,0,0,0,0,0,0,0,0,0,0,0,0,,,,,,0.0,,,,,,,
59,1068674,1745299544799,,,,,,,,,,,,,,,,,,,,,,,0.0,0.0,0.0,0.0,0.0,0.0,0.0,0.0,2.26,,,0,0,0,0,0,0,0,0,0,0,0,0,0,0,0,0,,0.0,,,,,38.985352,-76.951256,0.04,47.1,35.0,3.0,0.7
60,1068694,1745299544819,7.04,0.0,,-0.07,0.2,1.15,3.0,0.0,0.0,1.17,1.29,91.0,4047.0,0.0,1.84,,10.46,1.249,95.2,,31.2,5.0,,,,,,,,,,,,0,0,0,0,0,0,0,0,0,0,0,0,0,0,0,0,,,,,,0.0,,,,,,,
61,1068714,1745299544839,,,,,,,,,,,,,,,,,,,,,,,,,,,,,,,,,,0,0,0,0,0,0,0,0,0,0,0,0,0,0,0,0,,,,,,,,,,,,,
62,1068734,1745299544859,5.78,3.0,,-0.06,0.21,1.13,5.0,0.0,0.0,1.15,1.29,89.0,4047.0,0.0,1.84,,10.37,1.248,95.2,,31.2,5.0,,,,,,,,,,,,0,0,0,0,0,0,0,0,0,0,0,0,0,0,0,0,,,,,,0.0,,,,,,,
63,1068754,1745299544879,,,,,,,,,,,,,,,,,,,,,,,,,,,,,,,,,,0,0,0,0,0,0,0,0,0,0,0,0,0,0,0,0,,,,,,,,,,,,,
64,1068774,1745299544901,6.41,-27.0,,-0.08,0.14,1.13,3.0,0.0,0.0,1.14,1.29,89.0,3715.0,5.8,2.44,,10.93,1.249,95.2,,25.9,5.0,0.0,0.0,0.0,0.0,0.0,0.0,0.0,0.0,2.26,,,0,0,0,0,0,0,0,0,0,0,0,0,0,0,0,0,,0.0,,,,0.0,38.985352,-76.951256,0.04,47.1,35.0,3.0,0.7
65,1068794,1745299544921,,,,,,,,,,,,,,,,,,,,,,,,,,,,,,,,,,0,0,0,0,0,0,0,0,0,0,0,0,0,0,0,0,,,,,,,,,,,,,
66,1068814,1745299544941,6.41,3.0,,-0.06,0.24,1.12,3.0,0.0,0.0,1.14,1.29,88.0,3381.0,19.9,4.35,,12.68,1.249,95.2,,25.9,5.0,,,,,,,,,,,,0,0,0,0,0,0,0,0,0,0,0,0,0,0,0,0,,,,,,0.0,,,,,,,
67,1068834,1745299544961,,,,,,,,,,,,,,,,,,,,,,,,,,,,,,,,,,0,0,0,0,0,0,0,0,0,0,0,0,0,0,0,0,,,,,,,,,,,,,
68,1068854,1745299544981,7.04,-23.0,,-0.06,0.25,1.08,4.0,0.0,0.0,1.11,1.29,86.0,3454.0,25.7,4.58,,13.83,1.25,95.2,,25.9,5.0,,,,,,,,,,,,0,0,0,0,0,0,0,0,0,0,0,0,0,0,0,0,,,,,,0.0,,,,,,,
69,1068874,1745299545001,,,,,,,,,,,,,,,,,,,,,,,0.0,0.0,0.0,0.0,0.0,0.0,0.0,0.0,2.26,,,0,0,0,0,0,0,0,0,0,0,0,0,0,0,0,0,,0.0,,,,,38.985352,-76.951256,0.04,47.1,35.0,3.0,0.7
70,1068894,1745299545011,6.41,-4.0,,-0.05,0.17,1.07,3.0,0.0,0.0,1.08,1.29,84.0,3751.0,30.7,4.91,,13.83,1.25,95.2,,25.6,5.0,,,,,,,,,,,,0,0,0,0,0,0,0,0,0,0,0,0,0,0,0,0,,,,,,0.0,,,,,,,
71,1068914,1745299545031,,,,,,,,,,,,,,,,,,,,,,,,,,,,,,,,,,0,0,0,0,0,0,0,0,0,0,0,0,0,0,0,0,,,,,,,,,,,,,
72,1068934,1745299545051,7.67,-4.0,,-0.06,0.21,1.03,4.0,0.0,0.0,1.05,1.29,81.0,3751.0,30.7,4.91,,14.03,1.251,95.2,,25.6,5.0,,,,,,,,,,,,0,0,0,0,0,0,0,0,0,0,0,0,0,0,0,0,,,,,,0.0,,,,,,,
73,1068954,1745299545071,,,,,,,,,,,,,,,,,,,,,,,,,,,,,,,,,,0,0,0,0,0,0,0,0,0,0,0,0,0,0,0,0,,,,,,,,,,,,,
74,1068974,1745299545091,8.92,3.0,,-0.05,0.2,1.07,3.0,0.0,1.0,1.09,1.29,84.0,3976.0,31.3,4.76,,14.06,1.252,95.2,,29.5,5.0,0.0,0.0,0.0,0.0,0.0,0.0,0.0,0.0,2.26,,,0,0,0,0,0,0,0,0,0,0,0,0,0,0,0,0,,0.0,,,,0.0,38.985352,-76.951256,0.04,47.1,35.0,3.0,0.7
75,1068994,1745299545119,,,,,,,,,,,,,,,,,,,,,,,,,,,,,,,,,,0,0,0,0,0,0,0,0,0,0,0,0,0,0,0,0,,,,,,,,,,,,,
76,1069014,1745299545139,8.92,-8.0,,-0.07,0.28,1.16,5.0,0.0,1.0,1.2,1.29,93.0,4374.0,20.5,4.24,,13.75,1.251,95.2,,29.5,5.0,,,,,,,,,,,,0,0,0,0,0,0,0,0,0,0,0,0,0,0,0,0,,,,,,0.0,,,,,,,
77,1069034,1745299545159,,,,,,,,,,,,,,,,,,,,,,,,,,,,,,,,,,0,0,0,0,0,0,0,0,0,0,0,0,0,0,0,0,,,,,,,,,,,,,
78,1069054,1745299545179,8.92,-8.0,,-0.09,0.24,1.19,4.0,0.0,1.0,1.22,1.29,94.0,4635.0,0.0,2.51,,12.47,1.252,95.2,,29.5,5.0,,,,,,,,,,,,0,0,0,0,0,0,0,0,0,0,0,0,0,0,0,0,,,,,,0.0,,,,,,,
79,1069074,1745299545199,,,,,,,,,,,,,,,,,,,,,,,0.0,0.0,0.0,0.0,0.0,0.0,0.0,0.0,2.25,,,0,0,0,0,0,0,0,0,0,0,0,0,0,0,0,0,,0.0,,,,,38.985352,-76.951256,0.04,47.1,35.0,3.0,0.7
80,1069094,1745299545219,8.3,-15.0,,-0.1,0.18,1.17,3.0,0.0,1.0,1.19,1.29,92.0,4541.0,0.0,2.46,,12.47,1.252,95.2,,33.8,5.0,,,,,,,,,,,,0,0,0,0,0,0,0,0,0,0,0,0,0,0,0,0,,,,,,0.0,,,,,,,
81,1069114,1745299545239,,,,,,,,,,,,,,,,,,,,,,,,,,,,,,,,,,0,0,0,0,0,0,0,0,0,0,0,0,0,0,0,0,,,,,,,,,,,,,
82,1069134,1745299545259,8.3,-27.0,,-0.11,0.16,1.19,2.0,0.0,1.0,1.2,1.29,93.0,4541.0,0.0,2.46,,11.75,1.249,95.2,,33.8,5.0,,,,,,,,,,,,0,0,0,0,0,0,0,0,0,0,0,0,0,0,0,0,,,,,,0.0,,,,,,,
83,1069154,1745299545279,,,,,,,,,,,,,,,,,,,,,,,,,,,,,,,,,,0,0,0,0,0,0,0,0,0,0,0,0,0,0,0,0,,,,,,,,,,,,,
84,1069174,1745299545299,7.04,-15.0,,-0.12,0.24,1.27,4.0,0.0,1.0,1.3,1.3,100.0,4382.0,0.0,2.46,,11.33,1.241,95.2,,31.9,5.0,0.0,0.0,0.0,0.0,0.0,0.0,0.0,0.0,2.26,,,0,0,0,0,0,0,0,0,0,0,0,0,0,0,0,0,,0.0,,,,0.0,38.985352,-76.951256,0.1,47.1,35.0,3.0,0.7
85,1069194,1745299545319,,,,,,,,,,,,,,,,,,,,,,,,,,,,,,,,,,0,0,0,0,0,0,0,0,0,0,0,0,0,0,0,0,,,,,,,,,,,,,
86,1069214,1745299545339,7.67,-8.0,,-0.09,0.12,1.17,2.0,0.0,1.0,1.18,1.3,91.0,4206.0,0.0,2.45,,11.1,1.248,95.2,,31.9,5.0,,,,,,,,,,,,0,0,0,0,0,0,0,0,0,0,0,0,0,0,0,0,,,,,,0.0,,,,,,,
87,1069234,1745299545359,,,,,,,,,,,,,,,,,,,,,,,,,,,,,,,,,,0,0,0,0,0,0,0,0,0,0,0,0,0,0,0,0,,,,,,,,,,,,,
88,1069254,1745299545379,7.67,3.0,,-0.09,0.23,1.24,5.0,0.0,1.0,1.26,1.3,97.0,3997.0,0.0,2.46,,10.98,1.247,95.2,,31.9,5.0,,,,,,,,,,,,0,0,0,0,0,0,0,0,0,0,0,0,0,0,0,0,,,,,,0.0,,,,,,,
89,1069274,1745299545399,,,,,,,,,,,,,,,,,,,,,,,0.0,0.0,0.0,0.0,0.0,0.0,0.0,0.0,2.25,,,0,0,0,0,0,0,0,0,0,0,0,0,0,0,0,0,,0.0,,,,,38.985352,-76.951256,0.0,47.1,35.0,3.0,0.7
90,1069294,1745299545419,7.04,-15.0,,-0.07,0.14,1.23,2.0,0.0,1.0,1.24,1.3,96.0,3827.0,4.3,3.14,,10.98,1.247,95.2,,28.0,5.0,,,,,,,,,,,,0,0,0,0,0,0,0,0,0,0,0,0,0,0,0,0,,,,,,0.0,,,,,,,
91,1069314,1745299545439,,,,,,,,,,,,,,,,,,,,,,,,,,,,,,,,,,0,0,0,0,0,0,0,0,0,0,0,0,0,0,0,0,,,,,,,,,,,,,
92,1069334,1745299545459,7.04,-8.0,,-0.06,0.13,1.2,2.0,0.0,1.0,1.21,1.3,93.0,3827.0,4.3,3.14,,11.29,1.249,95.2,,28.0,5.0,,,,,,,,,,,,0,0,0,0,0,0,0,0,0,0,0,0,0,0,0,0,,,,,,0.0,,,,,,,
93,1069354,1745299545479,,,,,,,,,,,,,,,,,,,,,,,,,,,,,,,,,,0,0,0,0,0,0,0,0,0,0,0,0,0,0,0,0,,,,,,,,,,,,,
94,1069374,1745299545501,8.3,5.0,,-0.05,0.13,1.17,2.0,0.0,1.0,1.18,1.3,91.0,3656.0,10.1,3.89,,12.13,1.25,95.2,,26.8,5.0,0.0,0.0,0.0,0.0,0.0,0.0,0.0,0.0,2.25,,,0,0,0,0,0,0,0,0,0,0,0,0,0,0,0,0,,0.0,,,,0.0,38.985352,-76.951256,0.0,47.1,35.0,3.0,0.7
95,1069394,1745299545521,,,,,,,,,,,,,,,,,,,,,,,,,,,,,,,,,,0,0,0,0,0,0,0,0,0,0,0,0,0,0,0,0,,,,,,,,,,,,,
96,1069414,1745299545541,8.3,5.0,,-0.04,0.1,1.15,2.0,0.0,1.0,1.16,1.3,89.0,3792.0,12.5,4.02,,12.69,1.251,95.2,,26.8,5.0,,,,,,,,,,,,0,0,0,0,0,0,0,0,0,0,0,0,0,0,0,0,,,,,,0.0,,,,,,,
97,1069434,1745299545561,,,,,,,,,,,,,,,,,,,,,,,,,,,,,,,,,,0,0,0,0,0,0,0,0,0,0,0,0,0,0,0,0,,,,,,,,,,,,,
98,1069454,1745299545581,6.41,-15.0,,-0.05,0.08,1.15,1.0,0.0,1.0,1.16,1.3,89.0,3776.0,14.1,4.06,,13.03,1.251,95.2,,26.8,5.0,,,,,,,,,,,,0,0,0,0,0,0,0,0,0,0,0,0,0,0,0,0,,,,,,0.0,,,,,,,
99,1069474,1745299545601,,,,,,,,,,,,,,,,,,,,,,,0.0,0.0,0.0,0.0,0.0,0.0,0.0,0.0,2.25,,,0,0,0,0,0,0,0,0,0,0,0,0,0,0,0,0,,0.0,,,,,38.985352,-76.951256,0.0,47.1,35.0,3.0,0.7
100,1069494,1745299545620,5.78,5.0,,-0.06,0.05,1.11,-1.0,0.0,1.0,1.11,1.3,85.0,3876.0,14.8,4.07,,13.03,1.251,95.2,,27.0,5.0,,,,,,,,,,,,0,0,0,0,0,0,0,0,0,0,0,0,0,0,0,0,,,,,,0.0,,,,,,,
101,1069514,1745299545640,,,,,,,,,,,,,,,,,,,,,,,,,,,,,,,,,,0,0,0,0,0,0,0,0,0,0,0,0,0,0,0,0,,,,,,,,,,,,,
102,1069534,1745299545660,6.41,-12.0,,-0.06,0.03,1.07,0.0,0.0,0.0,1.07,1.3,83.0,3876.0,14.8,4.07,,13.19,1.252,95.2,,27.0,5.0,,,,,,,,,,,,0,0,0,0,0,0,0,0,0,0,0,0,0,0,0,0,,,,,,0.0,,,,,,,
103,1069554,1745299545680,,,,,,,,,,,,,,,,,,,,,,,,,,,,,,,,,,0,0,0,0,0,0,0,0,0,0,0,0,0,0,0,0,,,,,,,,,,,,,
104,1069574,1745299545700,7.04,3.0,13.06,-0.03,0.12,1.15,3.0,0.0,1.0,1.15,1.3,89.0,4001.0,15.1,3.99,15.0,13.25,1.24,95.2,167.0,28.8,5.0,0.0,0.0,0.0,0.0,0.0,0.0,0.0,0.0,2.26,0.0,1.0,0,0,0,0,0,0,0,0,0,0,0,0,0,0,0,0,0.0,0.0,1.0,0.0,0.0,0.0,38.985352,-76.951256,0.05,47.1,35.0,3.0,0.7
105,1069594,1745299545720,,,,,,,,,,,,,,,,,,,,,,,,,,,,,,,,,,0,0,0,0,0,0,0,0,0,0,0,0,0,0,0,0,,,,,,,,,,,,,
106,1069614,1745299545740,7.67,3.0,,-0.02,0.07,1.11,-1.0,0.0,1.0,1.11,1.3,86.0,4036.0,0.6,3.74,,12.79,1.211,93.4,,28.8,5.0,,,,,,,,,,,,0,0,0,0,0,0,0,0,0,0,0,0,0,0,0,0,,,,,,0.0,,,,,,,
107,1069634,1745299545760,,,,,,,,,,,,,,,,,,,,,,,,,,,,,,,,,,0,0,0,0,0,0,0,0,0,0,0,0,0,0,0,0,,,,,,,,,,,,,
108,1069654,1745299545780,6.41,-8.0,,-0.03,0.12,1.1,2.0,0.0,0.0,1.11,1.3,86.0,4060.0,0.0,2.51,,12.01,1.228,93.4,,28.8,5.0,,,,,,,,,,,,0,0,0,0,0,0,0,0,0,0,0,0,0,0,0,0,,,,,,0.0,,,,,,,
109,1069674,1745299545800,,,,,,,,,,,,,,,,,,,,,,,0.0,0.0,0.0,0.0,0.0,0.0,0.0,0.0,2.25,,,0,0,0,0,0,0,0,0,0,0,0,0,0,0,0,0,,0.0,,,,,38.985352,-76.951256,0.04,47.1,35.0,3.0,0.7
110,1069694,1745299545820,5.78,3.0,,0.0,0.13,1.16,1.0,0.0,1.0,1.17,1.3,90.0,3956.0,0.0,2.5,,12.01,1.228,93.4,,29.2,5.0,,,,,,,,,,,,0,0,0,0,0,0,0,0,0,0,0,0,0,0,0,0,,,,,,0.0,,,,,,,
111,1069714,1745299545840,,,,,,,,,,,,,,,,,,,,,,,,,,,,,,,,,,0,0,0,0,0,0,0,0,0,0,0,0,0,0,0,0,,,,,,,,,,,,,
112,1069734,1745299545860,5.78,-4.0,,0.0,0.06,1.14,-1.0,0.0,1.0,1.14,1.3,88.0,3956.0,0.0,2.5,,11.67,1.218,93.4,,29.2,5.0,,,,,,,,,,,,0,0,0,0,0,0,0,0,0,0,0,0,0,0,0,0,,,,,,0.0,,,,,,,
113,1069754,1745299545880,,,,,,,,,,,,,,,,,,,,,,,,,,,,,,,,,,0,0,0,0,0,0,0,0,0,0,0,0,0,0,0,0,,,,,,,,,,,,,
114,1069774,1745299545900,5.15,-4.0,,0.0,0.07,1.11,-1.0,0.0,1.0,1.11,1.3,85.0,3792.0,0.0,2.55,,11.48,1.24,93.4,,26.8,5.0,0.0,0.0,0.0,0.0,0.0,0.0,0.0,0.0,2.26,,,0,0,0,0,0,0,0,0,0,0,0,0,0,0,0,0,,0.0,,,,0.0,38.985352,-76.951256,0.05,47.1,35.0,3.0,0.7
115,1069794,1745299545920,,,,,,,,,,,,,,,,,,,,,,,,,,,,,,,,,,0,0,0,0,0,0,0,0,0,0,0,0,0,0,0,0,,,,,,,,,,,,,
116,1069814,1745299545940,5.15,8.0,,0.01,0.1,1.07,1.0,0.0,1.0,1.07,1.3,83.0,3699.0,0.0,2.6,,11.4,1.25,93.4,,26.8,5.0,,,,,,,,,,,,0,0,0,0,0,0,0,0,0,0,0,0,0,0,0,0,,,,,,0.0,,,,,,,
117,1069834,1745299545960,,,,,,,,,,,,,,,,,,,,,,,,,,,,,,,,,,0,0,0,0,0,0,0,0,0,0,0,0,0,0,0,0,,,,,,,,,,,,,
118,1069854,1745299545980,5.78,0.0,,0.02,0.13,1.07,0.0,0.0,1.0,1.07,1.3,83.0,3539.0,2.4,2.78,,11.64,1.251,93.4,,26.8,5.0,,,,,,,,,,,,0,0,0,0,0,0,0,0,0,0,0,0,0,0,0,0,,,,,,0.0,,,,,,,
119,1069874,1745299546000,,,,,,,,,,,,,,,,,,,,,,,0.0,0.0,0.0,0.0,0.0,0.0,0.0,0.0,2.25,,,0,0,0,0,0,0,0,0,0,0,0,0,0,0,0,0,,0.0,,,,,38.985352,-76.951256,0.0,47.1,35.0,3.0,0.7
120,1069894,1745299546012,5.78,3.0,,0.0,0.07,1.12,-2.0,0.0,1.0,1.13,1.3,87.0,3425.0,10.2,3.87,,11.64,1.251,93.4,,24.6,5.0,,,,,,,,,,,,0,0,0,0,0,0,0,0,0,0,0,0,0,0,0,0,,,,,,0.0,,,,,,,
121,1069914,1745299546032,,,,,,,,,,,,,,,,,,,,,,,,,,,,,,,,,,0,0,0,0,0,0,0,0,0,0,0,0,0,0,0,0,,,,,,,,,,,,,
122,1069934,1745299546052,6.41,-8.0,,-0.01,0.11,1.04,0.0,0.0,1.0,1.05,1.3,81.0,3425.0,10.2,3.87,,12.37,1.251,93.4,,24.6,5.0,,,,,,,,,,,,0,0,0,0,0,0,0,0,0,0,0,0,0,0,0,0,,,,,,0.0,,,,,,,
123,1069954,1745299546072,,,,,,,,,,,,,,,,,,,,,,,,,,,,,,,,,,0,0,0,0,0,0,0,0,0,0,0,0,0,0,0,0,,,,,,,,,,,,,
124,1069974,1745299546092,6.41,11.0,,-0.01,0.02,1.1,-1.0,0.0,1.0,1.1,1.3,85.0,3373.0,14.1,4.04,,13.13,1.252,93.4,,24.2,5.0,0.0,0.0,0.0,0.0,0.0,0.0,0.0,0.0,2.25,,,0,0,0,0,0,0,0,0,0,0,0,0,0,0,0,0,,0.0,,,,0.0,38.985352,-76.951256,0.04,47.1,35.0,3.0,0.7
125,1069994,1745299546120,,,,,,,,,,,,,,,,,,,,,,,,,,,,,,,,,,0,0,0,0,0,0,0,0,0,0,0,0,0,0,0,0,,,,,,,,,,,,,
126,1070014,1745299546140,5.78,3.0,,-0.01,0.13,1.05,0.0,0.0,1.0,1.05,1.3,81.0,3467.0,17.5,4.23,,13.59,1.251,93.4,,24.2,5.0,,,,,,,,,,,,0,0,0,0,0,0,0,0,0,0,0,0,0,0,0,0,,,,,,0.0,,,,,,,
127,1070034,1745299546160,,,,,,,,,,,,,,,,,,,,,,,,,,,,,,,,,,0,0,0,0,0,0,0,0,0,0,0,0,0,0,0,0,,,,,,,,,,,,,
128,1070054,1745299546180,6.41,0.0,,-0.02,0.05,1.01,1.0,0.0,1.0,1.02,1.3,78.0,3558.0,19.4,4.33,,13.67,1.25,93.4,,24.2,5.0,,,,,,,,,,,,0,0,0,0,0,0,0,0,0,0,0,0,0,0,0,0,,,,,,0.0,,,,,,,
129,1070074,1745299546200,,,,,,,,,,,,,,,,,,,,,,,0.0,0.0,0.0,0.0,0.0,0.0,0.0,0.0,2.26,,,0,0,0,0,0,0,0,0,0,0,0,0,0,0,0,0,,0.0,,,,,38.985352,-76.951256,0.04,47.1,35.0,3.0,0.7
130,1070094,1745299546216,6.41,3.0,,-0.02,0.1,1.02,1.0,0.0,1.0,1.03,1.3,79.0,3793.0,20.4,4.35,,13.67,1.25,93.4,,26.2,5.0,,,,,,,,,,,,0,0,0,0,0,0,0,0,0,0,0,0,0,0,0,0,,,,,,0.0,,,,,,,
131,1070114,1745299546236,,,,,,,,,,,,,,,,,,,,,,,,,,,,,,,,,,0,0,0,0,0,0,0,0,0,0,0,0,0,0,0,0,,,,,,,,,,,,,
132,1070134,1745299546256,6.41,-12.0,,-0.01,0.09,1.06,1.0,0.0,1.0,1.06,1.3,82.0,3793.0,20.4,4.35,,13.75,1.248,93.4,,26.2,5.0,,,,,,,,,,,,0,0,0,0,0,0,0,0,0,0,0,0,0,0,0,0,,,,,,0.0,,,,,,,
133,1070154,1745299546276,,,,,,,,,,,,,,,,,,,,,,,,,,,,,,,,,,0,0,0,0,0,0,0,0,0,0,0,0,0,0,0,0,,,,,,,,,,,,,
134,1070174,1745299546296,7.04,3.0,,-0.01,-0.06,0.98,-2.0,0.0,0.0,0.98,1.3,75.0,3956.0,22.0,4.27,,13.75,1.244,93.4,,29.0,5.0,0.0,0.0,0.0,0.0,0.0,0.0,0.0,0.0,2.26,,,0,0,0,0,0,0,0,0,0,0,0,0,0,0,0,0,,0.0,,,,0.0,38.985352,-76.951256,0.0,47.1,35.0,3.0,0.7
135,1070194,1745299546319,,,,,,,,,,,,,,,,,,,,,,,,,,,,,,,,,,0,0,0,0,0,0,0,0,0,0,0,0,0,0,0,0,,,,,,,,,,,,,
136,1070214,1745299546339,5.78,3.0,,-0.02,0.09,1.08,1.0,0.0,1.0,1.09,1.3,84.0,4201.0,23.0,4.38,,13.64,1.225,93.4,,29.0,5.0,,,,,,,,,,,,0,0,0,0,0,0,0,0,0,0,0,0,0,0,0,0,,,,,,0.0,,,,,,,
137,1070234,1745299546359,,,,,,,,,,,,,,,,,,,,,,,,,,,,,,,,,,0,0,0,0,0,0,0,0,0,0,0,0,0,0,0,0,,,,,,,,,,,,,
138,1070254,1745299546379,5.78,3.0,,-0.02,0.05,1.03,1.0,0.0,0.0,1.03,1.3,79.0,4344.0,23.2,4.38,,13.71,1.226,93.4,,29.0,5.0,,,,,,,,,,,,0,0,0,0,0,0,0,0,0,0,0,0,0,0,0,0,,,,,,0.0,,,,,,,
139,1070274,1745299546399,,,,,,,,,,,,,,,,,,,,,,,0.0,0.0,0.0,0.0,0.0,0.0,0.0,0.0,2.26,,,0,0,0,0,0,0,0,0,0,0,0,0,0,0,0,0,,0.0,,,,,38.985352,-76.951256,0.11,47.2,35.0,3.0,0.7
140,1070294,1745299546420,5.78,-12.0,,0.01,-0.0,0.96,2.0,0.0,0.0,0.96,1.3,74.0,4549.0,23.3,4.35,,13.71,1.226,93.4,,32.1,5.0,,,,,,,,,,,,0,0,0,0,0,0,0,0,0,0,0,0,0,0,0,0,,,,,,0.0,,,,,,,
141,1070314,1745299546440,,,,,,,,,,,,,,,,,,,,,,,,,,,,,,,,,,0,0,0,0,0,0,0,0,0,0,0,0,0,0,0,0,,,,,,,,,,,,,
142,1070334,1745299546460,6.41,-12.0,,0.01,0.01,0.98,3.0,0.0,0.0,0.98,1.3,75.0,4549.0,23.3,4.35,,13.69,1.25,93.4,,32.1,5.0,,,,,,,,,,,,0,0,0,0,0,0,0,0,0,0,0,0,0,0,0,0,,,,,,0.0,,,,,,,
143,1070354,1745299546480,,,,,,,,,,,,,,,,,,,,,,,,,,,,,,,,,,0,0,0,0,0,0,0,0,0,0,0,0,0,0,0,0,,,,,,,,,,,,,
144,1070374,1745299546500,7.67,0.0,,-0.01,0.09,1.05,4.0,0.0,0.0,1.05,1.3,81.0,4681.0,20.5,4.22,,13.49,1.246,93.4,,34.4,5.0,0.0,0.0,0.0,0.0,0.0,0.0,0.0,0.0,2.26,,,0,0,0,0,0,0,0,0,0,0,0,0,0,0,0,0,,0.0,,,,0.0,38.985352,-76.951256,0.04,47.2,35.0,3.0,0.7
145,1070394,1745299546520,,,,,,,,,,,,,,,,,,,,,,,,,,,,,,,,,,0,0,0,0,0,0,0,0,0,0,0,0,0,0,0,0,,,,,,,,,,,,,
146,1070414,1745299546540,7.04,20.0,,-0.02,0.02,1.01,2.0,0.0,0.0,1.01,1.3,78.0,4744.0,0.0,2.47,,12.37,1.252,93.4,,34.4,5.0,,,,,,,,,,,,0,0,0,0,0,0,0,0,0,0,0,0,0,0,0,0,,,,,,0.0,,,,,,,
147,1070434,1745299546560,,,,,,,,,,,,,,,,,,,,,,,,,,,,,,,,,,0,0,0,0,0,0,0,0,0,0,0,0,0,0,0,0,,,,,,,,,,,,,
148,1070454,1745299546580,7.04,5.0,,-0.0,0.0,0.95,3.0,0.0,0.0,0.95,1.3,73.0,4734.0,0.0,2.44,,11.71,1.249,93.4,,34.4,5.0,,,,,,,,,,,,0,0,0,0,0,0,0,0,0,0,0,0,0,0,0,0,,,,,,0.0,,,,,,,
149,1070474,1745299546600,,,,,,,,,,,,,,,,,,,,,,,0.0,0.0,0.0,0.0,0.0,0.0,0.0,0.0,2.26,,,0,0,0,0,0,0,0,0,0,0,0,0,0,0,0,0,,0.0,,,,,38.985352,-76.951256,0.0,47.2,35.0,3.0,0.7
150,1070494,1745299546620,7.67,3.0,,0.0,0.08,1.02,4.0,0.0,0.0,1.02,1.3,79.0,4612.0,0.0,2.42,,11.71,1.249,93.4,,34.7,5.0,,,,,,,,,,,,0,0,0,0,0,0,0,0,0,0,0,0,0,0,0,0,,,,,,0.0,,,,,,,
151,1070514,1745299546640,,,,,,,,,,,,,,,,,,,,,,,,,,,,,,,,,,0,0,0,0,0,0,0,0,0,0,0,0,0,0,0,0,,,,,,,,,,,,,
152,1070534,1745299546660,7.04,-4.0,,-0.02,0.19,1.11,5.0,0.0,0.0,1.13,1.3,87.0,4612.0,0.0,2.42,,11.29,1.172,93.4,,34.7,5.0,,,,,,,,,,,,0,0,0,0,0,0,0,0,0,0,0,0,0,0,0,0,,,,,,0.0,,,,,,,
153,1070554,1745299546680,,,,,,,,,,,,,,,,,,,,,,,,,,,,,,,,,,0,0,0,0,0,0,0,0,0,0,0,0,0,0,0,0,,,,,,,,,,,,,
154,1070574,1745299546700,6.41,53.0,13.12,-0.01,0.2,1.11,7.0,0.0,0.0,1.13,1.3,87.0,4443.0,0.0,2.43,15.0,10.97,1.12,93.4,169.0,31.4,5.0,0.0,0.0,0.0,0.0,0.0,0.0,0.0,0.0,2.26,0.0,1.0,0,0,0,0,0,0,0,0,0,0,0,0,0,0,0,0,0.0,0.0,1.0,0.0,0.0,0.0,38.985352,-76.951256,0.1,47.2,35.0,3.0,0.7
155,1070594,1745299546719,,,,,,,,,,,,,,,,,,,,,,,,,,,,,,,,,,0,0,0,0,0,0,0,0,0,0,0,0,0,0,0,0,,,,,,,,,,,,,
156,1070614,1745299546739,5.78,5.0,,-0.0,0.06,1.01,4.0,0.0,0.0,1.01,1.3,78.0,4242.0,0.0,2.4,,10.88,1.181,93.4,,31.4,5.0,,,,,,,,,,,,0,0,0,0,0,0,0,0,0,0,0,0,0,0,0,0,,,,,,0.0,,,,,,,
157,1070634,1745299546759,,,,,,,,,,,,,,,,,,,,,,,,,,,,,,,,,,0,0,0,0,0,0,0,0,0,0,0,0,0,0,0,0,,,,,,,,,,,,,
158,1070654,1745299546779,4.52,0.0,,-0.04,0.19,1.08,6.0,0.0,0.0,1.09,1.3,84.0,4086.0,3.0,2.82,,10.98,1.248,93.4,,31.4,5.0,,,,,,,,,,,,0,0,0,0,0,0,0,0,0,0,0,0,0,0,0,0,,,,,,0.0,,,,,,,
159,1070674,1745299546799,,,,,,,,,,,,,,,,,,,,,,,0.0,0.0,0.0,0.0,0.0,0.0,0.0,0.0,2.26,,,0,0,0,0,0,0,0,0,0,0,0,0,0,0,0,0,,0.0,,,,,38.985352,-76.951256,0.04,47.2,35.0,3.0,0.7
160,1070694,1745299546819,5.78,0.0,,-0.03,0.09,1.08,3.0,0.0,0.0,1.08,1.3,83.0,3935.0,8.8,3.79,,10.98,1.248,93.4,,29.0,5.0,,,,,,,,,,,,0,0,0,0,0,0,0,0,0,0,0,0,0,0,0,0,,,,,,0.0,,,,,,,
161,1070714,1745299546839,,,,,,,,,,,,,,,,,,,,,,,,,,,,,,,,,,0,0,0,0,0,0,0,0,0,0,0,0,0,0,0,0,,,,,,,,,,,,,
162,1070734,1745299546859,4.52,-19.0,,-0.06,0.04,1.03,2.0,0.0,0.0,1.03,1.3,79.0,3935.0,8.8,3.79,,11.75,1.249,93.4,,29.0,5.0,,,,,,,,,,,,0,0,0,0,0,0,0,0,0,0,0,0,0,0,0,0,,,,,,0.0,,,,,,,
163,1070754,1745299546879,,,,,,,,,,,,,,,,,,,,,,,,,,,,,,,,,,0,0,0,0,0,0,0,0,0,0,0,0,0,0,0,0,,,,,,,,,,,,,
164,1070774,1745299546899,3.27,3.0,,-0.06,-0.01,1.02,2.0,0.0,0.0,1.02,1.3,79.0,3835.0,13.0,3.92,,12.47,1.25,93.4,,27.5,5.0,0.0,0.0,0.0,0.0,0.0,0.0,0.0,0.0,2.26,,,0,0,0,0,0,0,0,0,0,0,0,0,0,0,0,0,,0.0,,,,0.0,38.985352,-76.951256,0.05,47.2,35.0,3.0,0.7
165,1070794,1745299546919,,,,,,,,,,,,,,,,,,,,,,,,,,,,,,,,,,0,0,0,0,0,0,0,0,0,0,0,0,0,0,0,0,,,,,,,,,,,,,
166,1070814,1745299546939,3.27,3.0,,-0.06,0.06,1.04,3.0,0.0,0.0,1.04,1.3,80.0,3922.0,16.1,4.0,,13.11,1.251,93.4,,27.5,5.0,,,,,,,,,,,,0,0,0,0,0,0,0,0,0,0,0,0,0,0,0,0,,,,,,0.0,,,,,,,
167,1070834,1745299546959,,,,,,,,,,,,,,,,,,,,,,,,,,,,,,,,,,0,0,0,0,0,0,0,0,0,0,0,0,0,0,0,0,,,,,,,,,,,,,
168,1070854,1745299546979,3.27,-15.0,,-0.02,0.14,1.15,4.0,0.0,1.0,1.16,1.3,89.0,3932.0,17.9,4.08,,13.35,1.252,93.4,,27.5,5.0,,,,,,,,,,,,0,0,0,0,0,0,0,0,0,0,0,0,0,0,0,0,,,,,,0.0,,,,,,,
169,1070874,1745299546999,,,,,,,,,,,,,,,,,,,,,,,0.0,0.0,0.0,0.0,0.0,0.0,0.0,0.0,2.26,,,0,0,0,0,0,0,0,0,0,0,0,0,0,0,0,0,,0.0,,,,,38.985352,-76.951256,0.04,47.2,35.0,3.0,0.7
170,1070894,1745299547011,3.9,-8.0,,-0.01,0.05,1.08,1.0,0.0,1.0,1.09,1.3,84.0,4007.0,18.7,4.13,,13.35,1.252,93.4,,28.2,5.0,,,,,,,,,,,,0,0,0,0,0,0,0,0,0,0,0,0,0,0,0,0,,,,,,0.0,,,,,,,
171,1070914,1745299547031,,,,,,,,,,,,,,,,,,,,,,,,,,,,,,,,,,0,0,0,0,0,0,0,0,0,0,0,0,0,0,0,0,,,,,,,,,,,,,
172,1070934,1745299547051,3.9,-15.0,,-0.01,0.16,1.12,4.0,0.0,0.0,1.13,1.3,87.0,4007.0,18.7,4.13,,13.48,1.228,93.4,,28.2,5.0,,,,,,,,,,,,0,0,0,0,0,0,0,0,0,0,0,0,0,0,0,0,,,,,,0.0,,,,,,,
173,1070954,1745299547071,,,,,,,,,,,,,,,,,,,,,,,,,,,,,,,,,,0,0,0,0,0,0,0,0,0,0,0,0,0,0,0,0,,,,,,,,,,,,,
174,1070974,1745299547091,3.9,8.0,,-0.01,0.02,1.03,0.0,0.0,1.0,1.03,1.3,79.0,4168.0,20.0,4.15,,13.55,1.226,93.4,,30.4,5.0,0.0,0.0,0.0,0.0,0.0,0.0,0.0,0.0,2.25,,,0,0,0,0,0,0,0,0,0,0,0,0,0,0,0,0,,0.0,,,,0.0,38.985352,-76.951256,0.11,47.2,35.0,3.0,0.7
175,1070994,1745299547115,,,,,,,,,,,,,,,,,,,,,,,,,,,,,,,,,,0,0,0,0,0,0,0,0,0,0,0,0,0,0,0,0,,,,,,,,,,,,,
176,1071014,1745299547135,3.27,8.0,,-0.03,0.09,1.12,1.0,0.0,1.0,1.13,1.3,87.0,4298.0,21.7,4.29,,13.56,1.245,93.4,,30.4,5.0,,,,,,,,,,,,0,0,0,0,0,0,0,0,0,0,0,0,0,0,0,0,,,,,,0.0,,,,,,,
177,1071034,1745299547155,,,,,,,,,,,,,,,,,,,,,,,,,,,,,,,,,,0,0,0,0,0,0,0,0,0,0,0,0,0,0,0,0,,,,,,,,,,,,,
178,1071054,1745299547175,4.52,0.0,,-0.04,0.12,1.19,2.0,0.0,1.0,1.2,1.3,92.0,4366.0,22.4,4.31,,13.59,1.247,93.4,,30.4,5.0,,,,,,,,,,,,0,0,0,0,0,0,0,0,0,0,0,0,0,0,0,0,,,,,,0.0,,,,,,,
179,1071074,1745299547195,,,,,,,,,,,,,,,,,,,,,,,0.0,0.0,0.0,0.0,0.0,0.0,0.0,0.0,2.26,,,0,0,0,0,0,0,0,0,0,0,0,0,0,0,0,0,,0.0,,,,,38.985352,-76.951256,0.07,47.2,35.0,3.0,0.7
180,1071094,1745299547217,4.52,5.0,,-0.03,0.18,1.27,2.0,0.0,1.0,1.28,1.3,99.0,4524.0,22.6,4.33,,13.59,1.247,93.4,,31.8,5.0,,,,,,,,,,,,0,0,0,0,0,0,0,0,0,0,0,0,0,0,0,0,,,,,,0.0,,,,,,,
181,1071114,1745299547237,,,,,,,,,,,,,,,,,,,,,,,,,,,,,,,,,,0,0,0,0,0,0,0,0,0,0,0,0,0,0,0,0,,,,,,,,,,,,,
182,1071134,1745299547257,2.01,-23.0,,-0.04,0.18,1.3,2.0,0.0,1.0,1.31,1.31,100.0,4524.0,22.6,4.33,,13.57,1.249,93.4,,31.8,5.0,,,,,,,,,,,,0,0,0,0,0,0,0,0,0,0,0,0,0,0,0,0,,,,,,0.0,,,,,,,
183,1071154,1745299547277,,,,,,,,,,,,,,,,,,,,,,,,,,,,,,,,,,0,0,0,0,0,0,0,0,0,0,0,0,0,0,0,0,,,,,,,,,,,,,
184,1071174,1745299547297,2.01,8.0,,-0.06,0.12,1.21,0.0,0.0,1.0,1.22,1.31,93.0,4681.0,22.5,4.31,,13.55,1.249,93.4,,34.1,5.0,0.0,0.0,0.0,0.0,0.0,0.0,0.0,0.0,2.26,,,0,0,0,0,0,0,0,0,0,0,0,0,0,0,0,0,,0.0,,,,0.0,38.985352,-76.951256,0.0,47.2,35.0,3.0,0.7
185,1071194,1745299547317,,,,,,,,,,,,,,,,,,,,,,,,,,,,,,,,,,0,0,0,0,0,0,0,0,0,0,0,0,0,0,0,0,,,,,,,,,,,,,
186,1071214,1745299547337,1.38,3.0,,-0.04,0.14,1.18,2.0,0.0,1.0,1.19,1.31,91.0,4793.0,21.5,4.26,,13.44,1.249,93.4,,34.1,5.0,,,,,,,,,,,,0,0,0,0,0,0,0,0,0,0,0,0,0,0,0,0,,,,,,0.0,,,,,,,
187,1071234,1745299547357,,,,,,,,,,,,,,,,,,,,,,,,,,,,,,,,,,0,0,0,0,0,0,0,0,0,0,0,0,0,0,0,0,,,,,,,,,,,,,
188,1071254,1745299547377,0.0,0.0,,-0.06,0.09,1.14,0.0,0.0,1.0,1.15,1.31,87.0,4868.0,21.1,4.22,,13.45,1.25,93.4,,34.1,5.0,,,,,,,,,,,,0,0,0,0,0,0,0,0,0,0,0,0,0,0,0,0,,,,,,0.0,,,,,,,
189,1071274,1745299547397,,,,,,,,,,,,,,,,,,,,,,,0.0,0.0,0.0,0.0,0.0,0.0,0.0,0.0,2.25,,,0,0,0,0,0,0,0,0,0,0,0,0,0,0,0,0,,0.0,,,,,38.985352,-76.951256,0.0,47.2,35.0,3.0,0.7
190,1071294,1745299547419,0.0,-8.0,,-0.06,0.12,1.16,1.0,0.0,1.0,1.17,1.31,89.0,4945.0,21.0,4.23,,13.45,1.25,93.4,,35.6,5.0,,,,,,,,,,,,0,0,0,0,0,0,0,0,0,0,0,0,0,0,0,0,,,,,,0.0,,,,,,,
191,1071314,1745299547439,,,,,,,,,,,,,,,,,,,,,,,,,,,,,,,,,,0,0,0,0,0,0,0,0,0,0,0,0,0,0,0,0,,,,,,,,,,,,,
192,1071334,1745299547459,0.0,-12.0,,-0.05,0.1,1.13,1.0,0.0,0.0,1.13,1.31,86.0,4945.0,21.0,4.23,,13.31,1.237,93.4,,35.6,5.0,,,,,,,,,,,,0,0,0,0,0,0,0,0,0,0,0,0,0,0,0,0,,,,,,0.0,,,,,,,
193,1071354,1745299547479,,,,,,,,,,,,,,,,,,,,,,,,,,,,,,,,,,0,0,0,0,0,0,0,0,0,0,0,0,0,0,0,0,,,,,,,,,,,,,
194,1071374,1745299547499,0.0,3.0,,-0.05,0.08,1.11,1.0,0.0,0.0,1.11,1.31,85.0,5073.0,21.1,4.21,,13.24,1.25,93.4,,38.1,5.0,0.0,0.0,0.0,0.0,0.0,0.0,0.0,0.0,2.25,,,0,0,0,0,0,0,0,0,0,0,0,0,0,0,0,0,,0.0,,,,0.0,38.985352,-76.951256,0.06,47.2,35.0,3.0,0.7
195,1071394,1745299547517,,,,,,,,,,,,,,,,,,,,,,,,,,,,,,,,,,0,0,0,0,0,0,0,0,0,0,0,0,0,0,0,0,,,,,,,,,,,,,
196,1071414,1745299547537,0.0,8.0,,-0.06,0.03,1.11,1.0,0.0,0.0,1.11,1.31,85.0,5407.0,21.1,4.23,,13.28,1.253,93.4,,38.1,5.0,,,,,,,,,,,,0,0,0,0,0,0,0,0,0,0,0,0,0,0,0,0,,,,,,0.0,,,,,,,
197,1071434,1745299547557,,,,,,,,,,,,,,,,,,,,,,,,,,,,,,,,,,0,0,0,0,0,0,0,0,0,0,0,0,0,0,0,0,,,,,,,,,,,,,
198,1071454,1745299547577,0.0,-8.0,,-0.04,0.02,1.08,1.0,0.0,0.0,1.08,1.31,82.0,5689.0,21.2,4.22,,12.99,1.18,93.4,,38.1,5.0,,,,,,,,,,,,0,0,0,0,0,0,0,0,0,0,0,0,0,0,0,0,,,,,,0.0,,,,,,,
199,1071474,1745299547597,,,,,,,,,,,,,,,,,,,,,,,0.0,0.0,0.0,0.0,0.0,0.0,0.0,0.0,2.25,,,0,0,0,0,0,0,0,0,0,0,0,0,0,0,0,0,,0.0,,,,,38.985352,-76.951256,0.0,47.2,35.0,3.0,0.7
200,1071494,1745299547618,0.0,-8.0,,-0.08,-0.05,1.01,0.0,0.0,0.0,1.01,1.31,77.0,5797.0,21.4,4.23,,12.99,1.18,93.4,,42.9,5.0,,,,,,,,,,,,0,0,0,0,0,0,0,0,0,0,0,0,0,0,0,0,,,,,,0.0,,,,,,,
201,1071514,1745299547638,,,,,,,,,,,,,,,,,,,,,,,,,,,,,,,,,,0,0,0,0,0,0,0,0,0,0,0,0,0,0,0,0,,,,,,,,,,,,,
202,1071534,1745299547658,0.0,-4.0,,-0.1,-0.03,1.05,-1.0,0.0,1.0,1.06,1.31,81.0,5797.0,21.4,4.23,,12.76,1.09,93.4,,42.9,5.0,,,,,,,,,,,,0,0,0,0,0,0,0,0,0,0,0,0,0,0,0,0,,,,,,0.0,,,,,,,
203,1071554,1745299547678,,,,,,,,,,,,,,,,,,,,,,,,,,,,,,,,,,0,0,0,0,0,0,0,0,0,0,0,0,0,0,0,0,,,,,,,,,,,,,
204,1071574,1745299547698,0.0,-8.0,13.18,-0.13,-0.03,1.07,-1.0,0.0,1.0,1.08,1.31,82.0,6025.0,21.4,4.22,15.0,12.61,1.127,93.4,169.0,45.6,5.0,0.0,0.0,0.0,0.0,0.0,0.0,0.0,0.0,2.26,0.0,1.0,0,0,0,0,0,0,0,0,0,0,0,0,0,0,0,0,0.0,0.0,1.0,0.0,0.0,0.0,38.985352,-76.951256,0.13,47.2,35.0,3.0,0.7
205,1071594,1745299547716,,,,,,,,,,,,,,,,,,,,,,,,,,,,,,,,,,0,0,0,0,0,0,0,0,0,0,0,0,0,0,0,0,,,,,,,,,,,,,
206,1071614,1745299547736,0.0,5.0,,-0.14,-0.03,1.08,-2.0,0.0,1.0,1.09,1.31,83.0,6128.0,21.4,4.43,,12.53,1.204,93.4,,45.6,5.0,,,,,,,,,,,,0,0,0,0,0,0,0,0,0,0,0,0,0,0,0,0,,,,,,0.0,,,,,,,
207,1071634,1745299547756,,,,,,,,,,,,,,,,,,,,,,,,,,,,,,,,,,0,0,0,0,0,0,0,0,0,0,0,0,0,0,0,0,,,,,,,,,,,,,
208,1071654,1745299547776,0.0,-19.0,,-0.13,0.01,1.08,-1.0,0.0,1.0,1.09,1.31,83.0,6577.0,21.2,4.97,,12.45,1.23,93.4,,45.6,5.0,,,,,,,,,,,,0,0,0,0,0,0,0,0,0,0,0,0,0,0,0,0,,,,,,0.0,,,,,,,
209,1071674,1745299547796,,,,,,,,,,,,,,,,,,,,,,,0.0,0.0,0.0,0.0,0.0,0.0,0.0,0.0,2.25,,,0,0,0,0,0,0,0,0,0,0,0,0,0,0,0,0,,0.0,,,,,38.985352,-76.951256,0.21,47.2,35.0,3.0,0.7
210,1071694,1745299547818,0.0,-8.0,,-0.15,0.02,1.05,-1.0,0.0,1.0,1.07,1.31,81.0,6991.0,21.5,5.5,,12.45,1.23,93.4,,50.6,5.0,,,,,,,,,,,,0,0,0,0,0,0,0,0,0,0,0,0,0,0,0,0,,,,,,0.0,,,,,,,
211,1071714,1745299547838,,,,,,,,,,,,,,,,,,,,,,,,,,,,,,,,,,0,0,0,0,0,0,0,0,0,0,0,0,0,0,0,0,,,,,,,,,,,,,
212,1071734,1745299547858,0.0,-23.0,,-0.14,0.1,1.05,-1.0,0.0,1.0,1.06,1.31,81.0,6991.0,21.5,5.5,,12.17,1.155,93.4,,50.6,5.0,,,,,,,,,,,,0,0,0,0,0,0,0,0,0,0,0,0,0,0,0,0,,,,,,0.0,,,,,,,
213,1071754,1745299547878,,,,,,,,,,,,,,,,,,,,,,,,,,,,,,,,,,0,0,0,0,0,0,0,0,0,0,0,0,0,0,0,0,,,,,,,,,,,,,
214,1071774,1745299547898,0.0,-4.0,,-0.16,0.06,0.98,-1.0,0.0,0.0,1.0,1.31,76.0,7642.0,22.5,5.37,,11.79,1.015,93.4,,53.1,5.0,0.0,0.0,0.0,0.0,0.0,0.0,0.0,0.0,2.25,,,0,0,0,0,0,0,0,0,0,0,0,0,0,0,0,0,,0.0,,,,0.0,38.985352,-76.951256,0.28,47.2,35.0,3.0,0.7
215,1071794,1745299547918,,,,,,,,,,,,,,,,,,,,,,,,,,,,,,,,,,0,0,0,0,0,0,0,0,0,0,0,0,0,0,0,0,,,,,,,,,,,,,
216,1071814,1745299547938,0.0,-12.0,,-0.16,0.15,1.06,-1.0,0.0,1.0,1.08,1.31,82.0,8313.0,23.9,5.1,,11.58,0.871,93.4,,53.1,5.0,,,,,,,,,,,,0,0,0,0,0,0,0,0,0,0,0,0,0,0,0,0,,,,,,0.0,,,,,,,
217,1071834,1745299547958,,,,,,,,,,,,,,,,,,,,,,,,,,,,,,,,,,0,0,0,0,0,0,0,0,0,0,0,0,0,0,0,0,,,,,,,,,,,,,
218,1071854,1745299547978,0.0,0.0,,-0.16,0.12,1.0,-2.0,0.0,0.0,1.02,1.31,78.0,9694.0,24.1,4.43,,10.9,0.838,93.4,,53.1,5.0,,,,,,,,,,,,0,0,0,0,0,0,0,0,0,0,0,0,0,0,0,0,,,,,,0.0,,,,,,,
219,1071874,1745299547998,,,,,,,,,,,,,,,,,,,,,,,0.0,0.0,0.0,0.0,0.0,0.0,0.0,0.0,2.25,,,0,0,0,0,0,0,0,0,0,0,0,0,0,0,0,0,,0.0,,,,,38.985352,-76.951256,0.05,47.2,35.0,3.0,0.7
220,1071894,1745299548010,0.0,3.0,,-0.12,0.27,1.1,-2.0,0.0,0.0,1.14,1.31,87.0,10893.0,24.1,3.79,,10.9,0.838,93.4,,57.0,5.0,,,,,,,,,,,,0,0,0,0,0,0,0,0,0,0,0,0,0,0,0,0,,,,,,0.0,,,,,,,
221,1071914,1745299548030,,,,,,,,,,,,,,,,,,,,,,,,,,,,,,,,,,0,0,0,0,0,0,0,0,0,0,0,0,0,0,0,0,,,,,,,,,,,,,
222,1071934,1745299548050,0.0,-4.0,,-0.12,0.16,1.06,-1.0,0.0,0.0,1.08,1.31,82.0,10893.0,24.1,3.79,,10.29,0.801,93.4,,57.0,5.0,,,,,,,,,,,,0,0,0,0,0,0,0,0,0,0,0,0,0,0,0,0,,,,,,0.0,,,,,,,
223,1071954,1745299548070,,,,,,,,,,,,,,,,,,,,,,,,,,,,,,,,,,0,0,0,0,0,0,0,0,0,0,0,0,0,0,0,0,,,,,,,,,,,,,
224,1071974,1745299548090,0.0,11.0,,-0.12,0.2,1.03,-1.0,0.0,0.0,1.06,1.31,81.0,11517.0,23.8,3.61,,9.85,0.81,93.4,,57.2,5.0,0.0,0.0,0.0,0.0,0.0,0.0,0.0,0.0,2.25,,,0,0,0,0,0,0,0,0,0,0,0,0,0,0,0,0,,0.0,,,,0.0,38.985352,-76.951256,0.05,47.2,35.0,3.0,0.7
225,1071994,1745299548116,,,,,,,,,,,,,,,,,,,,,,,,,,,,,,,,,,0,0,0,0,0,0,0,0,0,0,0,0,0,0,0,0,,,,,,,,,,,,,
226,1072014,1745299548136,0.0,14.0,,-0.13,0.12,0.98,-3.0,0.0,0.0,1.0,1.31,76.0,11990.0,23.3,3.38,,9.38,0.82,93.4,,57.2,5.0,,,,,,,,,,,,0,0,0,0,0,0,0,0,0,0,0,0,0,0,0,0,,,,,,0.0,,,,,,,
227,1072034,1745299548156,,,,,,,,,,,,,,,,,,,,,,,,,,,,,,,,,,0,0,0,0,0,0,0,0,0,0,0,0,0,0,0,0,,,,,,,,,,,,,
228,1072054,1745299548176,0.0,11.0,,-0.1,0.09,0.98,-2.0,0.0,0.0,0.99,1.31,76.0,12214.0,23.1,3.05,,9.15,0.831,93.4,,57.2,5.0,,,,,,,,,,,,0,0,0,0,0,0,0,0,0,0,0,0,0,0,0,0,,,,,,0.0,,,,,,,
229,1072074,1745299548196,,,,,,,,,,,,,,,,,,,,,,,0.0,0.0,0.0,0.0,0.0,0.0,0.0,0.0,2.26,,,0,0,0,0,0,0,0,0,0,0,0,0,0,0,0,0,,0.0,,,,,38.985352,-76.951256,0.12,47.2,35.0,3.0,0.7
230,1072094,1745299548210,0.0,14.0,,-0.09,0.12,0.87,-2.0,0.0,-1.0,0.88,1.31,67.0,12393.0,23.2,2.9,,9.15,0.831,93.4,,63.7,5.0,,,,,,,,,,,,0,0,0,0,0,0,0,0,0,0,0,0,0,0,0,0,,,,,,0.0,,,,,,,
231,1072114,1745299548230,,,,,,,,,,,,,,,,,,,,,,,,,,,,,,,,,,0,0,0,0,0,0,0,0,0,0,0,0,0,0,0,0,,,,,,,,,,,,,
232,1072134,1745299548250,0.0,3.0,,-0.07,0.09,0.82,-1.0,0.0,-1.0,0.83,1.31,63.0,12393.0,23.2,2.9,,8.93,0.89,93.4,,63.7,5.0,,,,,,,,,,,,0,0,0,0,0,0,0,0,0,0,0,0,0,0,0,0,,,,,,0.0,,,,,,,
233,1072154,1745299548270,,,,,,,,,,,,,,,,,,,,,,,,,,,,,,,,,,0,0,0,0,0,0,0,0,0,0,0,0,0,0,0,0,,,,,,,,,,,,,
234,1072174,1745299548290,0.0,0.0,,0.02,0.13,0.81,0.0,-1.0,-1.0,0.82,1.31,62.0,12510.0,23.1,2.74,,8.87,0.944,93.4,,62.8,5.0,0.0,0.0,0.0,0.0,0.0,0.0,0.0,0.0,2.26,,,0,0,0,0,0,0,0,0,0,0,0,0,0,0,0,0,,0.0,,,,0.0,38.985352,-76.951256,0.55,47.2,35.0,3.0,0.7
235,1072194,1745299548318,,,,,,,,,,,,,,,,,,,,,,,,,,,,,,,,,,0,0,0,0,0,0,0,0,0,0,0,0,0,0,0,0,,,,,,,,,,,,,
236,1072214,1745299548338,0.0,17.0,,0.01,0.12,0.96,2.0,0.0,0.0,0.97,1.31,74.0,12362.0,23.0,2.81,,8.62,0.979,93.4,,62.8,5.0,,,,,,,,,,,,0,0,0,0,0,0,0,0,0,0,0,0,0,0,0,0,,,,,,0.0,,,,,,,
237,1072234,1745299548358,,,,,,,,,,,,,,,,,,,,,,,,,,,,,,,,,,0,0,0,0,0,0,0,0,0,0,0,0,0,0,0,0,,,,,,,,,,,,,
238,1072254,1745299548378,0.0,3.0,,0.02,0.26,1.03,1.0,0.0,1.0,1.06,1.31,81.0,12191.0,23.0,2.97,,8.85,1.021,93.4,,62.8,5.0,,,,,,,,,,,,0,0,0,0,0,0,0,0,0,0,0,0,0,0,0,0,,,,,,0.0,,,,,,,
239,1072274,1745299548398,,,,,,,,,,,,,,,,,,,,,,,0.0,0.0,0.0,0.0,0.0,0.0,0.0,0.0,2.26,,,0,0,0,0,0,0,0,0,0,0,0,0,0,0,0,0,,0.0,,,,,38.985352,-76.951256,0.98,47.2,35.0,3.0,0.7
240,1072294,1745299548418,0.0,5.0,,-0.02,0.31,0.96,0.0,0.0,1.0,1.01,1.31,77.0,12116.0,23.0,2.99,,8.85,1.021,93.4,,61.3,5.0,,,,,,,,,,,,0,0,0,0,0,0,0,0,0,0,0,0,0,0,0,0,,,,,,0.0,,,,,,,
241,1072314,1745299548438,,,,,,,,,,,,,,,,,,,,,,,,,,,,,,,,,,0,0,0,0,0,0,0,0,0,0,0,0,0,0,0,0,,,,,,,,,,,,,
242,1072334,1745299548458,0.0,-4.0,,0.06,0.3,0.9,-2.0,0.0,1.0,0.95,1.31,72.0,12116.0,23.0,2.99,,8.73,1.016,93.4,,61.3,5.0,,,,,,,,,,,,0,0,0,0,0,0,0,0,0,0,0,0,0,0,0,0,,,,,,0.0,,,,,,,
243,1072354,1745299548478,,,,,,,,,,,,,,,,,,,,,,,,,,,,,,,,,,0,0,0,0,0,0,0,0,0,0,0,0,0,0,0,0,,,,,,,,,,,,,
244,1072374,1745299548498,0.0,3.0,,0.08,0.33,0.87,-4.0,0.0,1.0,0.93,1.31,71.0,11961.0,23.1,3.13,,8.89,0.997,93.4,,60.9,5.0,0.0,0.0,0.0,0.0,0.0,0.0,0.0,0.0,2.25,,,0,0,0,0,0,0,0,0,0,0,0,0,0,0,0,0,,0.0,,,,0.0,38.985352,-76.951256,1.6,47.2,35.0,3.0,0.7
245,1072394,1745299548518,,,,,,,,,,,,,,,,,,,,,,,,,,,,,,,,,,0,0,0,0,0,0,0,0,0,0,0,0,0,0,0,0,,,,,,,,,,,,,
246,1072414,1745299548538,0.0,11.0,,0.11,0.34,0.94,-1.0,0.0,2.0,1.01,1.31,77.0,11642.0,23.1,3.18,,8.86,1.005,93.4,,60.9,5.0,,,,,,,,,,,,0,0,0,0,0,0,0,0,0,0,0,0,0,0,0,0,,,,,,0.0,,,,,,,
247,1072434,1745299548558,,,,,,,,,,,,,,,,,,,,,,,,,,,,,,,,,,0,0,0,0,0,0,0,0,0,0,0,0,0,0,0,0,,,,,,,,,,,,,
248,1072454,1745299548578,0.0,3.0,,0.18,0.32,0.95,-1.0,0.0,2.0,1.02,1.31,78.0,11450.0,23.2,3.29,,9.14,1.004,93.4,,60.9,5.0,,,,,,,,,,,,0,0,0,0,0,0,0,0,0,0,0,0,0,0,0,0,,,,,,0.0,,,,,,,
249,1072474,1745299548598,,,,,,,,,,,,,,,,,,,,,,,2.0,0.0,2.0,2.0,0.0,0.0,0.0,0.0,2.25,,,0,0,0,0,0,0,0,0,0,0,0,0,0,0,0,0,,0.0,,,,,38.985352,-76.951256,2.49,47.2,35.0,3.0,0.7
250,1072494,1745299548616,0.0,5.0,,0.18,0.22,0.9,-1.0,0.0,1.0,0.94,1.31,72.0,11369.0,23.1,3.36,,9.14,1.004,93.4,,59.7,5.0,,,,,,,,,,,,0,0,0,0,0,0,0,0,0,0,0,0,0,0,0,0,,,,,,0.0,,,,,,,
251,1072514,1745299548636,,,,,,,,,,,,,,,,,,,,,,,,,,,,,,,,,,0,0,0,0,0,0,0,0,0,0,0,0,0,0,0,0,,,,,,,,,,,,,
252,1072534,1745299548656,0.0,0.0,,0.19,0.29,0.96,1.0,0.0,1.0,1.02,1.31,78.0,11369.0,23.1,3.36,,9.13,0.964,93.4,,59.7,5.0,,,,,,,,,,,,0,0,0,0,0,0,0,0,0,0,0,0,0,0,0,0,,,,,,0.0,,,,,,,
253,1072554,1745299548676,,,,,,,,,,,,,,,,,,,,,,,,,,,,,,,,,,0,0,0,0,0,0,0,0,0,0,0,0,0,0,0,0,,,,,,,,,,,,,
254,1072574,1745299548696,0.0,-12.0,13.13,0.21,0.1,0.92,0.0,0.0,0.0,0.94,1.31,72.0,11317.0,23.0,3.36,15.0,9.31,0.934,93.4,169.0,57.6,5.0,3.0,0.0,2.0,3.0,0.0,0.0,0.0,0.0,2.26,0.0,1.0,0,0,0,0,0,0,0,0,0,0,0,0,0,0,0,0,0.0,0.0,1.0,0.0,0.0,0.0,38.985352,-76.951256,3.58,47.2,35.0,3.0,0.7
255,1072594,1745299548715,,,,,,,,,,,,,,,,,,,,,,,,,,,,,,,,,,0,0,0,0,0,0,0,0,0,0,0,0,0,0,0,0,,,,,,,,,,,,,
256,1072614,1745299548735,0.0,5.0,,0.24,0.23,0.99,1.0,0.0,1.0,1.04,1.31,79.0,11329.0,23.0,3.37,,9.18,0.927,91.6,,57.6,5.0,,,,,,,,,,,,0,0,0,0,0,0,0,0,0,0,0,0,0,0,0,0,,,,,,0.0,,,,,,,
257,1072634,1745299548755,,,,,,,,,,,,,,,,,,,,,,,,,,,,,,,,,,0,0,0,0,0,0,0,0,0,0,0,0,0,0,0,0,,,,,,,,,,,,,
258,1072654,1745299548775,0.0,3.0,,0.25,0.15,1.03,1.0,0.0,1.0,1.07,1.31,81.0,11269.0,23.9,3.49,,9.5,0.932,91.6,,57.6,5.0,,,,,,,,,,,,0,0,0,0,0,0,0,0,0,0,0,0,0,0,0,0,,,,,,0.0,,,,,,,
259,1072674,1745299548795,,,,,,,,,,,,,,,,,,,,,,,4.0,0.0,4.0,4.0,0.0,0.0,0.0,0.0,2.25,,,0,0,0,0,0,0,0,0,0,0,0,0,0,0,0,0,,0.0,,,,,38.985352,-76.951256,5.61,47.2,35.0,3.0,0.7
260,1072694,1745299548815,0.0,17.0,,0.23,0.08,0.96,2.0,0.0,0.0,0.99,1.31,76.0,11312.0,26.2,3.29,,9.5,0.932,91.6,,57.1,5.0,,,,,,,,,,,,0,0,0,0,0,0,0,0,0,0,0,0,0,0,0,0,,,,,,0.0,,,,,,,
261,1072714,1745299548835,,,,,,,,,,,,,,,,,,,,,,,,,,,,,,,,,,0,0,0,0,0,0,0,0,0,0,0,0,0,0,0,0,,,,,,,,,,,,,
262,1072734,1745299548855,0.0,5.0,,0.19,-0.07,0.95,2.0,0.0,-1.0,0.97,1.31,74.0,11312.0,26.2,3.29,,9.88,0.95,91.6,,57.1,5.0,,,,,,,,,,,,0,0,0,0,0,0,0,0,0,0,0,0,0,0,0,0,,,,,,0.0,,,,,,,
263,1072754,1745299548875,,,,,,,,,,,,,,,,,,,,,,,,,,,,,,,,,,0,0,0,0,0,0,0,0,0,0,0,0,0,0,0,0,,,,,,,,,,,,,
264,1072774,1745299548895,0.0,-12.0,,0.18,-0.01,1.0,3.0,0.0,0.0,1.02,1.31,77.0,11286.0,27.7,3.25,,10.04,0.954,91.6,,55.9,5.0,5.0,0.0,5.0,4.0,0.0,0.0,0.0,0.0,2.25,,,0,0,0,0,0,0,0,0,0,0,0,0,0,0,0,0,,0.0,,,,0.0,38.985352,-76.951256,7.05,47.2,35.0,3.0,0.7
265,1072794,1745299548917,,,,,,,,,,,,,,,,,,,,,,,,,,,,,,,,,,0,0,0,0,0,0,0,0,0,0,0,0,0,0,0,0,,,,,,,,,,,,,
266,1072814,1745299548937,0.0,20.0,,0.21,0.01,1.01,2.0,0.0,0.0,1.04,1.31,79.0,11053.0,28.1,3.23,,10.26,0.992,91.6,,55.9,5.0,,,,,,,,,,,,0,0,0,0,0,0,0,0,0,0,0,0,0,0,0,0,,,,,,0.0,,,,,,,
267,1072834,1745299548957,,,,,,,,,,,,,,,,,,,,,,,,,,,,,,,,,,0,0,0,0,0,0,0,0,0,0,0,0,0,0,0,0,,,,,,,,,,,,,
268,1072854,1745299548977,0.0,-8.0,,0.23,-0.03,0.96,3.0,0.0,-1.0,0.99,1.31,75.0,10819.0,28.5,3.3,,10.44,1.08,91.6,,55.9,5.0,,,,,,,,,,,,0,0,0,0,0,0,0,0,0,0,0,0,0,0,0,0,,,,,,0.0,,,,,,,
269,1072874,1745299548997,,,,,,,,,,,,,,,,,,,,,,,6.0,0.0,6.0,5.0,0.0,0.0,0.0,0.0,2.25,,,0,0,0,0,0,0,0,0,0,0,0,0,0,0,0,0,,0.0,,,,,38.985352,-76.951248,8.49,47.2,35.0,3.0,0.7
270,1072894,1745299549011,0.0,11.0,,0.22,-0.02,1.01,4.0,0.0,-1.0,1.03,1.31,79.0,10755.0,28.6,3.42,,10.44,1.08,91.6,,55.4,5.0,,,,,,,,,,,,0,0,0,0,0,0,0,0,0,0,0,0,0,0,0,0,,,,,,0.0,,,,,,,
271,1072914,1745299549031,,,,,,,,,,,,,,,,,,,,,,,,,,,,,,,,,,0,0,0,0,0,0,0,0,0,0,0,0,0,0,0,0,,,,,,,,,,,,,
272,1072934,1745299549051,0.0,5.0,,0.27,0.13,1.0,4.0,0.0,0.0,1.05,1.31,80.0,10755.0,28.6,3.42,,10.61,1.13,91.6,,55.4,5.0,,,,,,,,,,,,0,0,0,0,0,0,0,0,0,0,0,0,0,0,0,0,,,,,,0.0,,,,,,,
273,1072954,1745299549071,,,,,,,,,,,,,,,,,,,,,,,,,,,,,,,,,,0,0,0,0,0,0,0,0,0,0,0,0,0,0,0,0,,,,,,,,,,,,,
274,1072974,1745299549091,0.0,5.0,,0.24,0.2,1.01,5.0,0.0,1.0,1.06,1.31,81.0,10314.0,28.7,3.57,,10.6,1.14,91.6,,55.1,5.0,6.0,0.0,6.0,6.0,0.0,9.0,0.0,0.0,2.26,,,0,0,0,0,0,0,0,0,0,0,0,0,0,0,0,0,,0.0,,,,0.0,38.985352,-76.951248,9.47,47.2,35.0,3.0,0.7
275,1072994,1745299549111,,,,,,,,,,,,,,,,,,,,,,,,,,,,,,,,,,0,0,0,0,0,0,0,0,0,0,0,0,0,0,0,0,,,,,,,,,,,,,
276,1073014,1745299549131,0.0,3.0,,0.26,-0.03,0.99,5.0,0.0,0.0,1.02,1.31,78.0,10227.0,28.6,3.74,,10.57,1.194,91.6,,55.1,5.0,,,,,,,,,,,,0,0,0,0,0,0,0,0,0,0,0,0,0,0,0,0,,,,,,0.0,,,,,,,
277,1073034,1745299549151,,,,,,,,,,,,,,,,,,,,,,,,,,,,,,,,,,0,0,0,0,0,0,0,0,0,0,0,0,0,0,0,0,,,,,,,,,,,,,
278,1073054,1745299549171,0.0,0.0,,0.29,0.07,1.03,5.0,-1.0,0.0,1.07,1.31,81.0,10250.0,28.4,3.64,,10.76,1.124,91.6,,55.1,5.0,,,,,,,,,,,,0,0,0,0,0,0,0,0,0,0,0,0,0,0,0,0,,,,,,0.0,,,,,,,
279,1073074,1745299549191,,,,,,,,,,,,,,,,,,,,,,,7.0,0.0,7.0,7.0,0.0,77.0,0.0,0.0,2.26,,,0,0,0,0,0,0,0,0,0,0,0,0,0,0,0,0,,0.0,,,,,38.985352,-76.951241,10.86,47.2,35.0,3.0,0.7
280,1073094,1745299549219,0.0,22.0,,0.29,0.15,1.02,6.0,0.0,0.0,1.07,1.31,82.0,10285.0,28.4,3.66,,10.76,1.124,91.6,,55.2,5.0,,,,,,,,,,,,0,0,0,0,0,0,0,0,0,0,0,0,0,0,0,0,,,,,,0.0,,,,,,,
281,1073114,1745299549239,,,,,,,,,,,,,,,,,,,,,,,,,,,,,,,,,,0,0,0,0,0,0,0,0,0,0,0,0,0,0,0,0,,,,,,,,,,,,,
282,1073134,1745299549259,0.0,3.0,,0.33,-0.06,1.04,8.0,0.0,1.0,1.1,1.31,84.0,10285.0,28.4,3.66,,10.53,1.081,91.6,,55.2,5.0,,,,,,,,,,,,0,0,0,0,0,0,0,0,0,0,0,0,0,0,0,0,,,,,,0.0,,,,,,,
283,1073154,1745299549279,,,,,,,,,,,,,,,,,,,,,,,,,,,,,,,,,,0,0,0,0,0,0,0,0,0,0,0,0,0,0,0,0,,,,,,,,,,,,,
284,1073174,1745299549299,0.0,11.0,,0.36,0.03,1.05,9.0,0.0,1.0,1.12,1.31,85.0,10302.0,27.6,3.6,,10.52,1.054,91.6,,54.8,5.0,8.0,0.0,8.0,9.0,0.0,70.0,0.0,0.0,2.25,,,0,0,0,0,0,0,0,0,0,0,0,0,0,0,0,0,,0.0,,,,0.0,38.985352,-76.951241,12.34,47.2,35.0,3.0,0.7
285,1073194,1745299549319,,,,,,,,,,,,,,,,,,,,,,,,,,,,,,,,,,0,0,0,0,0,0,0,0,0,0,0,0,0,0,0,0,,,,,,,,,,,,,
286,1073214,1745299549339,0.0,8.0,,0.4,0.16,1.02,9.0,0.0,1.0,1.11,1.31,85.0,10278.0,27.2,3.58,,10.4,1.042,91.6,,54.8,5.0,,,,,,,,,,,,0,0,0,0,0,0,0,0,0,0,0,0,0,0,0,0,,,,,,0.0,,,,,,,
287,1073234,1745299549359,,,,,,,,,,,,,,,,,,,,,,,,,,,,,,,,,,0,0,0,0,0,0,0,0,0,0,0,0,0,0,0,0,,,,,,,,,,,,,
288,1073254,1745299549379,0.0,11.0,,0.39,0.06,1.07,10.0,0.0,0.0,1.14,1.31,87.0,10273.0,27.1,3.59,,10.34,1.04,91.6,,54.8,5.0,,,,,,,,,,,,0,0,0,0,0,0,0,0,0,0,0,0,0,0,0,0,,,,,,0.0,,,,,,,
289,1073274,1745299549399,,,,,,,,,,,,,,,,,,,,,,,9.0,0.0,9.0,9.0,0.0,39.0,0.0,0.0,2.25,,,0,0,0,0,0,0,0,0,0,0,0,0,0,0,0,0,,0.0,,,,,38.985352,-76.951233,13.78,47.2,35.0,3.0,0.7
290,1073294,1745299549419,0.0,3.0,,0.43,-0.0,0.99,10.0,0.0,0.0,1.08,1.31,82.0,10183.0,26.9,3.65,,10.34,1.04,91.6,,55.6,5.0,,,,,,,,,,,,0,0,0,0,0,0,0,0,0,0,0,0,0,0,0,0,,,,,,0.0,,,,,,,
291,1073314,1745299549439,,,,,,,,,,,,,,,,,,,,,,,,,,,,,,,,,,0,0,0,0,0,0,0,0,0,0,0,0,0,0,0,0,,,,,,,,,,,,,
292,1073334,1745299549459,0.0,0.0,,0.43,-0.0,0.99,11.0,0.0,0.0,1.08,1.31,82.0,10183.0,26.9,3.65,,10.37,1.033,91.6,,55.6,5.0,,,,,,,,,,,,0,0,0,0,0,0,0,0,0,0,0,0,0,0,0,0,,,,,,0.0,,,,,,,
293,1073354,1745299549479,,,,,,,,,,,,,,,,,,,,,,,,,,,,,,,,,,0,0,0,0,0,0,0,0,0,0,0,0,0,0,0,0,,,,,,,,,,,,,
294,1073374,1745299549501,0.0,14.0,,0.48,0.12,0.95,11.0,-1.0,0.0,1.07,1.31,82.0,10004.0,26.6,3.67,,10.38,1.028,91.6,,54.4,5.0,10.0,0.0,11.0,11.0,0.0,54.0,0.0,0.0,2.26,,,0,0,0,0,0,0,0,0,0,0,0,0,0,0,0,0,,0.0,,,,0.0,38.985352,-76.951218,17.7,47.3,35.0,3.0,0.7
295,1073394,1745299549521,,,,,,,,,,,,,,,,,,,,,,,,,,,,,,,,,,0,0,0,0,0,0,0,0,0,0,0,0,0,0,0,0,,,,,,,,,,,,,
296,1073414,1745299549541,0.0,20.0,,0.5,0.11,0.9,11.0,0.0,0.0,1.04,1.31,79.0,9872.0,26.5,3.66,,10.34,1.019,91.6,,54.4,5.0,,,,,,,,,,,,0,0,0,0,0,0,0,0,0,0,0,0,0,0,0,0,,,,,,0.0,,,,,,,
297,1073434,1745299549561,,,,,,,,,,,,,,,,,,,,,,,,,,,,,,,,,,0,0,0,0,0,0,0,0,0,0,0,0,0,0,0,0,,,,,,,,,,,,,
298,1073454,1745299549581,0.0,5.0,,0.53,0.09,0.95,12.0,0.0,1.0,1.1,1.31,83.0,9708.0,26.1,3.61,,10.53,1.011,91.6,,54.4,5.0,,,,,,,,,,,,0,0,0,0,0,0,0,0,0,0,0,0,0,0,0,0,,,,,,0.0,,,,,,,
299,1073474,1745299549601,,,,,,,,,,,,,,,,,,,,,,,12.0,0.0,12.0,12.0,0.0,41.0,0.0,0.0,2.26,,,0,0,0,0,0,0,0,0,0,0,0,0,0,0,0,0,,0.0,,,,,38.985352,-76.951218,17.7,47.3,35.0,3.0,0.7
300,1073494,1745299549618,0.0,8.0,,0.52,0.05,0.99,13.0,0.0,1.0,1.12,1.31,86.0,9483.0,25.7,3.6,,10.53,1.011,91.6,,54.4,5.0,,,,,,,,,,,,0,0,0,0,0,0,0,0,0,0,0,0,0,0,0,0,,,,,,0.0,,,,,,,
301,1073514,1745299549638,,,,,,,,,,,,,,,,,,,,,,,,,,,,,,,,,,0,0,0,0,0,0,0,0,0,0,0,0,0,0,0,0,,,,,,,,,,,,,
302,1073534,1745299549658,0.0,8.0,,0.54,-0.09,0.95,12.0,0.0,1.0,1.09,1.31,83.0,9483.0,25.7,3.6,,10.57,1.014,91.6,,54.4,5.0,,,,,,,,,,,,0,0,0,0,0,0,0,0,0,0,0,0,0,0,0,0,,,,,,0.0,,,,,,,
303,1073554,1745299549678,,,,,,,,,,,,,,,,,,,,,,,,,,,,,,,,,,0,0,0,0,0,0,0,0,0,0,0,0,0,0,0,0,,,,,,,,,,,,,
304,1073574,1745299549698,0.0,17.0,13.2,0.56,-0.51,0.95,13.0,0.0,0.0,1.21,1.31,92.0,9255.0,25.4,3.54,15.0,10.61,1.02,91.6,169.0,53.6,5.0,13.0,0.0,14.0,14.0,0.0,41.0,0.0,0.0,2.26,0.0,1.0,0,0,0,0,0,0,0,0,0,0,0,0,0,0,0,0,0.0,0.0,1.0,0.0,0.0,0.0,38.985352,-76.951218,19.61,47.3,35.0,3.0,0.7
305,1073594,1745299549718,,,,,,,,,,,,,,,,,,,,,,,,,,,,,,,,,,0,0,0,0,0,0,0,0,0,0,0,0,0,0,0,0,,,,,,,,,,,,,
306,1073614,1745299549738,0.0,25.0,,0.55,-0.81,0.89,14.0,0.0,-1.0,1.32,1.32,100.0,8992.0,24.1,3.43,,10.6,1.028,91.6,,53.6,5.0,,,,,,,,,,,,0,0,0,0,0,0,0,0,0,0,0,0,0,0,0,0,,,,,,0.0,,,,,,,
307,1073634,1745299549758,,,,,,,,,,,,,,,,,,,,,,,,,,,,,,,,,,0,0,0,0,0,0,0,0,0,0,0,0,0,0,0,0,,,,,,,,,,,,,
308,1073654,1745299549778,0.0,31.0,,0.54,-0.74,0.85,14.0,0.0,-1.0,1.25,1.32,95.0,8727.0,23.4,3.58,,10.61,1.024,91.6,,53.6,5.0,,,,,,,,,,,,0,0,0,0,0,0,0,0,0,0,0,0,0,0,0,0,,,,,,0.0,,,,,,,
309,1073674,1745299549798,,,,,,,,,,,,,,,,,,,,,,,15.0,0.0,15.0,15.0,0.0,68.0,0.0,0.0,2.26,,,0,0,0,0,0,0,0,0,0,0,0,0,0,0,0,0,,0.0,,,,,38.985352,-76.95121,22.23,47.3,35.0,3.0,0.7
310,1073694,1745299549820,0.0,68.0,,0.53,-0.77,0.89,12.0,-1.0,-1.0,1.3,1.32,98.0,8460.0,22.7,4.14,,10.61,1.024,91.6,,50.8,5.0,,,,,,,,,,,,0,0,0,0,0,0,0,0,0,0,0,0,0,0,0,0,,,,,,0.0,,,,,,,
311,1073714,1745299549840,,,,,,,,,,,,,,,,,,,,,,,,,,,,,,,,,,0,0,0,0,0,0,0,0,0,0,0,0,0,0,0,0,,,,,,,,,,,,,
312,1073734,1745299549860,0.0,62.0,,0.56,-0.66,0.91,12.0,-1.0,0.0,1.26,1.32,95.0,8460.0,22.7,4.14,,10.78,1.011,91.6,,50.8,5.0,,,,,,,,,,,,0,0,0,0,0,0,0,0,0,0,0,0,0,0,0,0,,,,,,0.0,,,,,,,
313,1073754,1745299549880,,,,,,,,,,,,,,,,,,,,,,,,,,,,,,,,,,0,0,0,0,0,0,0,0,0,0,0,0,0,0,0,0,,,,,,,,,,,,,
314,1073774,1745299549900,0.0,56.0,,0.53,-0.56,0.91,10.0,-1.0,0.0,1.2,1.32,91.0,8190.0,20.7,4.6,,10.84,0.983,91.6,,49.9,5.0,16.0,0.0,16.0,17.0,0.0,94.0,0.0,0.0,2.26,,,0,0,0,0,0,0,0,0,0,0,0,0,0,0,0,0,,0.0,,,,0.0,38.985352,-76.951202,24.37,47.3,35.0,3.0,0.7
315,1073794,1745299549919,,,,,,,,,,,,,,,,,,,,,,,,,,,,,,,,,,0,0,0,0,0,0,0,0,0,0,0,0,0,0,0,0,,,,,,,,,,,,,
316,1073814,1745299549939,0.0,62.0,,0.53,-0.48,0.95,7.0,0.0,1.0,1.19,1.32,90.0,7849.0,20.2,5.41,,10.93,0.912,91.6,,49.9,5.0,,,,,,,,,,,,0,0,0,0,0,0,0,0,0,0,0,0,0,0,0,0,,,,,,0.0,,,,,,,
317,1073834,1745299549959,,,,,,,,,,,,,,,,,,,,,,,,,,,,,,,,,,0,0,0,0,0,0,0,0,0,0,0,0,0,0,0,0,,,,,,,,,,,,,
318,1073854,1745299549979,0.0,65.0,,0.54,-0.36,1.02,4.0,0.0,1.0,1.21,1.32,91.0,7493.0,20.4,5.52,,10.97,0.836,91.6,,49.9,5.0,,,,,,,,,,,,0,0,0,0,0,0,0,0,0,0,0,0,0,0,0,0,,,,,,0.0,,,,,,,
319,1073874,1745299549999,,,,,,,,,,,,,,,,,,,,,,,17.0,0.0,18.0,17.0,0.0,81.0,0.0,0.0,2.27,,,0,0,0,0,0,0,0,0,0,0,0,0,0,0,0,0,,0.0,,,,,38.985352,-76.951195,27.12,47.3,35.0,3.0,0.7
320,1073894,1745299550010,0.0,93.0,,0.52,-0.37,1.03,2.0,0.0,1.0,1.21,1.32,92.0,7071.0,20.1,5.71,,10.97,0.836,91.6,,49.3,5.0,,,,,,,,,,,,0,0,0,0,0,0,0,0,0,0,0,0,0,0,0,0,,,,,,0.0,,,,,,,
321,1073914,1745299550030,,,,,,,,,,,,,,,,,,,,,,,,,,,,,,,,,,0,0,0,0,0,0,0,0,0,0,0,0,0,0,0,0,,,,,,,,,,,,,
322,1073934,1745299550050,0.0,70.0,,0.52,-0.41,0.98,-1.0,0.0,0.0,1.19,1.32,90.0,7071.0,20.1,5.71,,11.26,0.786,91.6,,49.3,5.0,,,,,,,,,,,,0,0,0,0,0,0,0,0,0,0,0,0,0,0,0,0,,,,,,0.0,,,,,,,
323,1073954,1745299550070,,,,,,,,,,,,,,,,,,,,,,,,,,,,,,,,,,0,0,0,0,0,0,0,0,0,0,0,0,0,0,0,0,,,,,,,,,,,,,
324,1073974,1745299550090,0.0,73.0,,0.51,-0.42,1.04,-3.0,-1.0,1.0,1.23,1.32,93.0,6611.0,20.5,5.18,,11.67,0.752,91.6,,46.9,5.0,19.0,0.0,20.0,20.0,0.0,109.0,0.0,0.0,2.27,,,0,0,0,0,0,0,0,0,0,0,0,0,0,0,0,0,,0.0,,,,0.0,38.985352,-76.951187,29.23,47.3,35.0,3.0,0.7
325,1073994,1745299550114,,,,,,,,,,,,,,,,,,,,,,,,,,,,,,,,,,0,0,0,0,0,0,0,0,0,0,0,0,0,0,0,0,,,,,,,,,,,,,
326,1074014,1745299550134,0.0,56.0,,0.42,-0.42,1.05,-6.0,-1.0,0.0,1.21,1.32,92.0,6499.0,20.6,4.94,,11.87,0.737,91.6,,46.9,5.0,,,,,,,,,,,,0,0,0,0,0,0,0,0,0,0,0,0,0,0,0,0,,,,,,0.0,,,,,,,
327,1074034,1745299550154,,,,,,,,,,,,,,,,,,,,,,,,,,,,,,,,,,0,0,0,0,0,0,0,0,0,0,0,0,0,0,0,0,,,,,,,,,,,,,
328,1074054,1745299550174,0.0,51.0,,0.36,-0.38,1.05,-7.0,-1.0,0.0,1.18,1.32,89.0,6704.0,20.9,5.16,,12.0,0.742,91.6,,46.9,5.0,,,,,,,,,,,,0,0,0,0,0,0,0,0,0,0,0,0,0,0,0,0,,,,,,0.0,,,,,,,
329,1074074,1745299550194,,,,,,,,,,,,,,,,,,,,,,,20.0,0.0,20.0,20.0,0.0,20.0,0.0,0.0,2.25,,,0,0,0,0,0,0,0,0,0,0,0,0,0,0,0,0,,1.0,,,,,38.985352,-76.951172,31.32,47.3,35.0,3.0,0.7
330,1074094,1745299550218,0.0,62.0,,0.3,-0.34,1.02,-10.0,-1.0,0.0,1.12,1.32,85.0,6873.0,21.1,5.47,,12.0,0.742,91.6,,48.1,5.0,,,,,,,,,,,,0,0,0,0,0,0,0,0,0,0,0,0,0,0,0,0,,,,,,0.0,,,,,,,
331,1074114,1745299550238,,,,,,,,,,,,,,,,,,,,,,,,,,,,,,,,,,0,0,0,0,0,0,0,0,0,0,0,0,0,0,0,0,,,,,,,,,,,,,
332,1074134,1745299550258,0.0,42.0,,0.28,-0.36,1.0,-12.0,-1.0,1.0,1.1,1.32,83.0,6873.0,21.1,5.47,,11.84,0.789,91.6,,48.1,5.0,,,,,,,,,,,,0,0,0,0,0,0,0,0,0,0,0,0,0,0,0,0,,,,,,0.0,,,,,,,
333,1074154,1745299550278,,,,,,,,,,,,,,,,,,,,,,,,,,,,,,,,,,0,0,0,0,0,0,0,0,0,0,0,0,0,0,0,0,,,,,,,,,,,,,
334,1074174,1745299550298,0.0,68.0,,0.28,-0.42,1.0,-13.0,-1.0,0.0,1.12,1.32,85.0,6938.0,21.2,5.48,,11.87,0.831,91.6,,49.2,5.0,20.0,0.0,20.0,21.0,0.0,61.0,0.0,0.0,2.26,,,0,0,0,0,0,0,0,0,0,0,0,0,0,0,0,0,,1.0,,,,0.0,38.985352,-76.951172,32.69,47.4,35.0,3.0,0.7
335,1074194,1745299550318,,,,,,,,,,,,,,,,,,,,,,,,,,,,,,,,,,0,0,0,0,0,0,0,0,0,0,0,0,0,0,0,0,,,,,,,,,,,,,
336,1074214,1745299550338,0.0,76.0,,0.26,-0.39,1.03,-14.0,-1.0,0.0,1.13,1.32,85.0,7157.0,22.2,5.49,,11.8,0.82,91.6,,49.2,5.0,,,,,,,,,,,,0,0,0,0,0,0,0,0,0,0,0,0,0,0,0,0,,,,,,0.0,,,,,,,
337,1074234,1745299550358,,,,,,,,,,,,,,,,,,,,,,,,,,,,,,,,,,0,0,0,0,0,0,0,0,0,0,0,0,0,0,0,0,,,,,,,,,,,,,
338,1074254,1745299550378,0.0,73.0,,0.29,-0.26,1.08,-14.0,0.0,0.0,1.15,1.32,87.0,7295.0,20.8,5.62,,11.65,0.751,91.6,,49.2,5.0,,,,,,,,,,,,0,0,0,0,0,0,0,0,0,0,0,0,0,0,0,0,,,,,,0.0,,,,,,,
339,1074274,1745299550398,,,,,,,,,,,,,,,,,,,,,,,21.0,0.0,21.0,21.0,0.0,61.0,0.0,0.0,2.3,,,0,0,0,0,0,0,0,0,0,0,0,0,0,0,0,0,,1.0,,,,,38.985352,-76.951157,32.17,47.4,35.0,3.0,0.7
340,1074294,1745299550418,0.0,62.0,,0.31,-0.25,1.05,-13.0,0.0,0.0,1.12,1.32,85.0,7253.0,20.9,5.6,,11.65,0.751,91.6,,52.3,5.0,,,,,,,,,,,,0,0,0,0,0,0,0,0,0,0,0,0,0,0,0,0,,,,,,0.0,,,,,,,
341,1074314,1745299550438,,,,,,,,,,,,,,,,,,,,,,,,,,,,,,,,,,0,0,0,0,0,0,0,0,0,0,0,0,0,0,0,0,,,,,,,,,,,,,
342,1074334,1745299550458,0.0,135.0,,0.3,-0.21,1.03,-11.0,0.0,-1.0,1.1,1.32,83.0,7253.0,20.9,5.6,,11.38,0.733,91.6,,52.3,5.0,,,,,,,,,,,,0,0,0,0,0,0,0,0,0,0,0,0,0,0,0,0,,,,,,0.0,,,,,,,
343,1074354,1745299550478,,,,,,,,,,,,,,,,,,,,,,,,,,,,,,,,,,0,0,0,0,0,0,0,0,0,0,0,0,0,0,0,0,,,,,,,,,,,,,
344,1074374,1745299550498,0.0,73.0,,0.27,-0.07,1.02,-10.0,0.0,0.0,1.06,1.32,80.0,7404.0,21.3,5.6,,11.56,0.721,91.6,,52.4,5.0,22.0,0.0,22.0,21.0,0.0,58.0,0.0,0.0,2.27,,,0,0,0,0,0,0,0,0,0,0,0,0,0,0,0,0,,1.0,,,,0.0,38.985352,-76.951141,33.43,47.4,35.0,3.0,0.7
345,1074394,1745299550520,,,,,,,,,,,,,,,,,,,,,,,,,,,,,,,,,,0,0,0,0,0,0,0,0,0,0,0,0,0,0,0,0,,,,,,,,,,,,,
346,1074414,1745299550540,0.0,87.0,,0.22,0.02,1.01,-8.0,0.0,-1.0,1.04,1.04,100.0,7495.0,20.4,5.55,,11.41,0.715,91.6,,52.4,5.0,,,,,,,,,,,,0,0,0,0,0,0,0,0,0,0,0,0,0,0,0,0,,,,,,0.0,,,,,,,
347,1074434,1745299550560,,,,,,,,,,,,,,,,,,,,,,,,,,,,,,,,,,0,0,0,0,0,0,0,0,0,0,0,0,0,0,0,0,,,,,,,,,,,,,
348,1074454,1745299550580,0.0,62.0,,0.2,0.05,1.02,-6.0,0.0,-1.0,1.04,1.04,100.0,7600.0,20.8,5.49,,11.18,0.712,91.6,,52.4,5.0,,,,,,,,,,,,0,0,0,0,0,0,0,0,0,0,0,0,0,0,0,0,,,,,,0.0,,,,,,,
349,1074474,1745299550600,,,,,,,,,,,,,,,,,,,,,,,21.0,0.0,22.0,23.0,0.0,11.0,0.0,0.0,2.26,,,0,0,0,0,0,0,0,0,0,0,0,0,0,0,0,0,,1.0,,,,,38.985348,-76.951134,35.16,47.4,35.0,3.0,0.7
350,1074494,1745299550620,0.0,51.0,,0.21,-0.06,1.0,-5.0,-1.0,-1.0,1.03,1.04,99.0,7684.0,16.7,4.96,,11.18,0.712,91.6,,51.9,5.0,,,,,,,,,,,,0,0,0,0,0,0,0,0,0,0,0,0,0,0,0,0,,,,,,0.0,,,,,,,
351,1074514,1745299550640,,,,,,,,,,,,,,,,,,,,,,,,,,,,,,,,,,0,0,0,0,0,0,0,0,0,0,0,0,0,0,0,0,,,,,,,,,,,,,
352,1074534,1745299550660,0.0,39.0,,0.25,-0.01,1.04,-3.0,0.0,-1.0,1.07,1.07,100.0,7684.0,16.7,4.96,,10.96,0.713,91.6,,51.9,5.0,,,,,,,,,,,,0,0,0,0,0,0,0,0,0,0,0,0,0,0,0,0,,,,,,0.0,,,,,,,
353,1074554,1745299550680,,,,,,,,,,,,,,,,,,,,,,,,,,,,,,,,,,0,0,0,0,0,0,0,0,0,0,0,0,0,0,0,0,,,,,,,,,,,,,
354,1074574,1745299550700,0.0,39.0,13.21,0.25,0.01,1.05,-2.0,-1.0,-2.0,1.08,1.08,100.0,7601.0,10.0,3.6,15.0,10.14,0.709,91.6,169.0,52.0,5.0,23.0,0.0,24.0,22.0,0.0,234.0,0.0,0.0,2.27,0.0,1.0,0,0,0,0,0,0,0,0,0,0,0,0,0,0,0,0,0.0,0.0,1.0,0.0,0.0,0.0,38.985348,-76.951126,36.06,47.4,35.0,3.0,0.7
355,1074594,1745299550719,,,,,,,,,,,,,,,,,,,,,,,,,,,,,,,,,,0,0,0,0,0,0,0,0,0,0,0,0,0,0,0,0,,,,,,,,,,,,,
356,1074614,1745299550739,0.0,34.0,,0.27,0.03,1.04,1.0,-1.0,-2.0,1.08,1.08,99.0,7901.0,9.2,3.22,,9.53,0.712,89.8,,52.0,5.0,,,,,,,,,,,,0,0,0,0,0,0,0,0,0,0,0,0,0,0,0,0,,,,,,0.0,,,,,,,
357,1074634,1745299550759,,,,,,,,,,,,,,,,,,,,,,,,,,,,,,,,,,0,0,0,0,0,0,0,0,0,0,0,0,0,0,0,0,,,,,,,,,,,,,
358,1074654,1745299550779,0.0,28.0,,0.26,0.1,1.09,3.0,-1.0,-2.0,1.12,1.12,100.0,7932.0,8.4,3.11,,9.13,0.724,89.8,,52.0,5.0,,,,,,,,,,,,0,0,0,0,0,0,0,0,0,0,0,0,0,0,0,0,,,,,,0.0,,,,,,,
359,1074674,1745299550799,,,,,,,,,,,,,,,,,,,,,,,24.0,0.0,24.0,24.0,0.0,231.0,0.0,0.0,2.26,,,0,0,0,0,0,0,0,0,0,0,0,0,0,0,0,0,,1.0,,,,,38.985348,-76.951111,36.96,47.4,35.0,3.0,0.7
360,1074694,1745299550819,0.0,31.0,,0.24,0.06,1.06,5.0,-1.0,-1.0,1.09,1.12,97.0,7912.0,7.8,3.02,,9.13,0.724,89.8,,52.8,5.0,,,,,,,,,,,,0,0,0,0,0,0,0,0,0,0,0,0,0,0,0,0,,,,,,0.0,,,,,,,
361,1074714,1745299550839,,,,,,,,,,,,,,,,,,,,,,,,,,,,,,,,,,0,0,0,0,0,0,0,0,0,0,0,0,0,0,0,0,,,,,,,,,,,,,
362,1074734,1745299550859,0.0,31.0,,0.23,0.27,1.06,7.0,-2.0,-1.0,1.12,1.12,100.0,7912.0,7.8,3.02,,8.87,0.738,89.8,,52.8,5.0,,,,,,,,,,,,0,0,0,0,0,0,0,0,0,0,0,0,0,0,0,0,,,,,,0.0,,,,,,,
363,1074754,1745299550879,,,,,,,,,,,,,,,,,,,,,,,,,,,,,,,,,,0,0,0,0,0,0,0,0,0,0,0,0,0,0,0,0,,,,,,,,,,,,,
364,1074774,1745299550899,0.0,25.0,,0.22,0.31,1.07,9.0,-1.0,-1.0,1.14,1.14,100.0,7929.0,6.8,2.78,,8.49,0.75,89.8,,52.1,5.0,25.0,0.0,24.0,23.0,0.0,19.0,0.0,0.0,2.26,,,0,0,0,0,0,0,0,0,0,0,0,0,0,0,0,0,,1.0,,,,0.0,38.985348,-76.951096,37.6,47.4,35.0,3.0,0.7
365,1074794,1745299550919,,,,,,,,,,,,,,,,,,,,,,,,,,,,,,,,,,0,0,0,0,0,0,0,0,0,0,0,0,0,0,0,0,,,,,,,,,,,,,
366,1074814,1745299550939,0.0,36.0,,0.19,0.4,1.09,9.0,-1.0,0.0,1.18,1.18,100.0,8019.0,7.3,2.69,,8.38,0.763,89.8,,52.1,5.0,,,,,,,,,,,,0,0,0,0,0,0,0,0,0,0,0,0,0,0,0,0,,,,,,0.0,,,,,,,
367,1074834,1745299550959,,,,,,,,,,,,,,,,,,,,,,,,,,,,,,,,,,0,0,0,0,0,0,0,0,0,0,0,0,0,0,0,0,,,,,,,,,,,,,
368,1074854,1745299550979,0.0,65.0,,0.19,0.37,1.09,11.0,-1.0,0.0,1.16,1.18,99.0,8124.0,7.4,2.64,,7.97,0.783,89.8,,52.1,5.0,,,,,,,,,,,,0,0,0,0,0,0,0,0,0,0,0,0,0,0,0,0,,,,,,0.0,,,,,,,
369,1074874,1745299550999,,,,,,,,,,,,,,,,,,,,,,,25.0,0.0,24.0,25.0,0.0,245.0,0.0,0.0,2.27,,,0,0,0,0,0,0,0,0,0,0,0,0,0,0,0,0,,1.0,,,,,38.985348,-76.951088,38.17,47.4,35.0,3.0,0.7
370,1074894,1745299551011,0.0,93.0,,0.18,0.44,1.09,13.0,-1.0,0.0,1.18,1.18,100.0,8047.0,4.8,2.27,,7.97,0.783,89.8,,52.9,5.0,,,,,,,,,,,,0,0,0,0,0,0,0,0,0,0,0,0,0,0,0,0,,,,,,0.0,,,,,,,
371,1074914,1745299551031,,,,,,,,,,,,,,,,,,,,,,,,,,,,,,,,,,0,0,0,0,0,0,0,0,0,0,0,0,0,0,0,0,,,,,,,,,,,,,
372,1074934,1745299551051,0.0,53.0,,0.16,0.46,1.06,13.0,-1.0,0.0,1.17,1.18,99.0,8047.0,4.8,2.27,,7.75,0.8,89.8,,52.9,5.0,,,,,,,,,,,,0,0,0,0,0,0,0,0,0,0,0,0,0,0,0,0,,,,,,0.0,,,,,,,
373,1074954,1745299551071,,,,,,,,,,,,,,,,,,,,,,,,,,,,,,,,,,0,0,0,0,0,0,0,0,0,0,0,0,0,0,0,0,,,,,,,,,,,,,
374,1074974,1745299551091,0.0,51.0,,0.15,0.36,1.03,15.0,-1.0,0.0,1.11,1.18,94.0,8063.0,3.0,1.56,,7.41,0.813,89.8,,52.1,5.0,25.0,0.0,24.0,24.0,0.0,10.0,0.0,0.0,2.27,,,0,0,0,0,0,0,0,0,0,0,0,0,0,0,0,0,,1.0,,,,0.0,38.985348,-76.951073,38.2,47.4,34.0,3.0,0.8
375,1074994,1745299551119,,,,,,,,,,,,,,,,,,,,,,,,,,,,,,,,,,0,0,0,0,0,0,0,0,0,0,0,0,0,0,0,0,,,,,,,,,,,,,
376,1075014,1745299551139,0.0,51.0,,0.11,0.4,1.09,16.0,0.0,0.0,1.17,1.18,99.0,7890.0,3.4,1.66,,7.03,0.835,89.8,,52.1,5.0,,,,,,,,,,,,0,0,0,0,0,0,0,0,0,0,0,0,0,0,0,0,,,,,,0.0,,,,,,,
377,1075034,1745299551159,,,,,,,,,,,,,,,,,,,,,,,,,,,,,,,,,,0,0,0,0,0,0,0,0,0,0,0,0,0,0,0,0,,,,,,,,,,,,,
