,Interval,Utc,FrontBP,SteerAng,Battery,AccelX,AccelY,AccelZ,Yaw,Pitch,Roll,Gsum,GsumMax,GsumPct,RPM,TPS,InjectorPW,Baro,MAP,Lambda,IAT,EngineTemp,EOP,EOT,WSFR,WSFL,WSRR,WSRL,TCSet,TCSlip,TCComp,TCCut,Analog8,OilTemp,AA_On,ThermLF1,ThermLF2,ThermRR1,ThermRR2,ThermLF3,ThermLF4,ThermLF5,ThermLF6,ThermLF7,ThermLF8,ThermRR3,ThermRR4,ThermRR5,ThermRR6,ThermRR7,ThermRR8,Gear,AA_On1,AA_LowDrag,Fuel_Mix,AA_Packages,Latitude,Longitude,Speed,GPSSats,GPSQual,GPSDOP
0,3543365,0,0.0,179.24,,-0.1,-0.1,1.03,1.0,0.0,-1.0,1.04,1.04,100.0,3125.0,1.9,3.58,,12.55,1.147,102.4,,32.1,5.0,,,,,,,,,,,,0,0,0,0,0,0,0,0,0,0,0,0,0,0,0,0,,,,,0.0,,,,,,
1,3543385,0,,,,,,,,,,,,,,,,,,,,,,,,,,,,,,,,,,0,0,0,0,0,0,0,0,0,0,0,0,0,0,0,0,,,,,,,,,,,
2,3543405,0,0.0,179.36,,-0.08,-0.05,0.93,1.0,0.0,-1.0,0.93,1.04,90.0,3066.0,2.4,3.63,,12.72,1.133,102.4,,32.1,5.0,,,,,,,,,,,,0,0,0,0,0,0,0,0,0,0,0,0,0,0,0,0,,,,,0.0,,,,,,
3,3543425,0,,,,,,,,,,,,,,,,,,,,,,,,,,,,,,,,,,0,0,0,0,0,0,0,0,0,0,0,0,0,0,0,0,,,,,,,,,,,
4,3543445,0,0.0,179.36,,-0.07,0.05,0.85,1.0,0.0,0.0,0.85,1.04,82.0,3095.0,4.2,4.1,,12.87,1.135,102.4,,32.1,5.0,0.0,0.0,0.0,0.0,0.0,0.0,0.0,0.0,2.27,,,0,0,0,0,0,0,0,0,0,0,0,0,0,0,0,0,0.0,,,,0.0,0.0,0.0,0.0,0.0,0.0,0.0
5,3543465,0,,,,,,,,,,,,,,,,,,,,,,,,,,,,,,,,,,0,0,0,0,0,0,0,0,0,0,0,0,0,0,0,0,,,,,,,,,,,
6,3543485,0,0.0,179.36,,-0.07,0.03,0.95,0.0,0.0,0.0,0.95,1.04,92.0,3188.0,5.4,3.95,,12.87,1.135,102.4,,32.3,5.0,,,,,,,,,,,,0,0,0,0,0,0,0,0,0,0,0,0,0,0,0,0,,,,,0.0,,,,,,
7,3543505,0,,,,,,,,,,,,,,,,,,,,,,,,,,,,,,,,,,0,0,0,0,0,0,0,0,0,0,0,0,0,0,0,0,,,,,,,,,,,
8,3543525,0,0.0,179.36,,-0.11,-0.07,1.0,0.0,0.0,0.0,1.01,1.04,97.0,3188.0,5.4,3.95,,12.95,1.192,102.4,,32.3,5.0,,,,,,,,,,,,0,0,0,0,0,0,0,0,0,0,0,0,0,0,0,0,,,,,0.0,,,,,,
9,3543545,0,,,,,,,,,,,,,,,,,,,,,,,0.0,0.0,0.0,0.0,0.0,0.0,0.0,0.0,2.26,,,0,0,0,0,0,0,0,0,0,0,0,0,0,0,0,0,0.0,,,,,0.0,0.0,0.0,0.0,0.0,0.0
10,3543565,0,0.0,179.36,,-0.08,-0.03,0.9,1.0,0.0,0.0,0.9,1.04,87.0,3192.0,5.2,4.0,,13.0,1.217,102.4,,32.7,5.0,,,,,,,,,,,,0,0,0,0,0,0,0,0,0,0,0,0,0,0,0,0,,,,,0.0,,,,,,
11,3543585,0,,,,,,,,,,,,,,,,,,,,,,,,,,,,,,,,,,0,0,0,0,0,0,0,0,0,0,0,0,0,0,0,0,,,,,,,,,,,
12,3543605,0,0.0,179.36,,-0.05,0.06,0.91,0.0,0.0,0.0,0.91,1.04,88.0,3226.0,5.1,3.98,,12.99,1.125,102.4,,32.7,5.0,,,,,,,,,,,,0,0,0,0,0,0,0,0,0,0,0,0,0,0,0,0,,,,,0.0,,,,,,
13,3543625,0,,,,,,,,,,,,,,,,,,,,,,,,,,,,,,,,,,0,0,0,0,0,0,0,0,0,0,0,0,0,0,0,0,,,,,,,,,,,
14,3543645,0,0.0,179.36,,-0.06,0.01,1.0,0.0,0.0,1.0,1.0,1.04,96.0,3159.0,4.8,3.98,,13.0,1.073,102.4,,32.7,5.0,0.0,0.0,0.0,0.0,0.0,0.0,0.0,0.0,2.26,,,0,0,0,0,0,0,0,0,0,0,0,0,0,0,0,0,0.0,,,,0.0,0.0,0.0,0.0,0.0,0.0,0.0
15,3543665,0,,,,,,,,,,,,,,,,,,,,,,,,,,,,,,,,,,0,0,0,0,0,0,0,0,0,0,0,0,0,0,0,0,,,,,,,,,,,
16,3543685,0,0.0,179.36,,-0.1,-0.08,1.01,1.0,0.0,0.0,1.02,1.04,98.0,3176.0,2.3,3.76,,13.0,1.073,102.4,,32.7,5.0,,,,,,,,,,,,0,0,0,0,0,0,0,0,0,0,0,0,0,0,0,0,,,,,0.0,,,,,,
17,3543705,0,,,,,,,,,,,,,,,,,,,,,,,,,,,,,,,,,,0,0,0,0,0,0,0,0,0,0,0,0,0,0,0,0,,,,,,,,,,,
18,3543725,0,0.0,179.36,,-0.07,0.0,0.93,1.0,0.0,0.0,0.93,1.04,90.0,3176.0,2.3,3.76,,12.89,1.089,102.4,,32.7,5.0,,,,,,,,,,,,0,0,0,0,0,0,0,0,0,0,0,0,0,0,0,0,,,,,0.0,,,,,,
19,3543745,0,,,,,,,,,,,,,,,,,,,,,,,0.0,0.0,0.0,0.0,0.0,0.0,0.0,0.0,2.27,,,0,0,0,0,0,0,0,0,0,0,0,0,0,0,0,0,0.0,,,,,0.0,0.0,0.0,0.0,0.0,0.0
20,3543765,0,0.0,179.36,,-0.04,0.08,0.89,0.0,0.0,0.0,0.89,1.04,86.0,3176.0,0.1,3.24,,12.69,1.105,102.4,,31.6,5.0,,,,,,,,,,,,0,0,0,0,0,0,0,0,0,0,0,0,0,0,0,0,,,,,0.0,,,,,,
21,3543785,0,,,,,,,,,,,,,,,,,,,,,,,,,,,,,,,,,,0,0,0,0,0,0,0,0,0,0,0,0,0,0,0,0,,,,,,,,,,,
22,3543805,0,0.0,179.24,,-0.05,0.09,0.96,0.0,0.0,1.0,0.97,1.04,93.0,3096.0,0.0,3.06,,12.56,1.13,102.4,,31.6,5.0,,,,,,,,,,,,0,0,0,0,0,0,0,0,0,0,0,0,0,0,0,0,,,,,0.0,,,,,,
23,3543825,0,,,,,,,,,,,,,,,,,,,,,,,,,,,,,,,,,,0,0,0,0,0,0,0,0,0,0,0,0,0,0,0,0,,,,,,,,,,,
24,3543845,0,0.0,179.36,13.5,-0.07,-0.01,1.06,0.0,0.0,1.0,1.07,1.07,100.0,3205.0,0.0,3.07,15.0,12.48,1.142,102.4,178.0,31.6,5.0,0.0,0.0,0.0,0.0,0.0,0.0,0.0,0.0,2.27,0.0,1.0,0,0,0,0,0,0,0,0,0,0,0,0,0,0,0,0,0.0,0.0,0.0,0.0,0.0,0.0,0.0,0.0,0.0,0.0,0.0
25,3543865,0,,,,,,,,,,,,,,,,,,,,,,,,,,,,,,,,,,0,0,0,0,0,0,0,0,0,0,0,0,0,0,0,0,,,,,,,,,,,
26,3543885,0,0.0,179.36,,-0.1,-0.06,1.07,0.0,0.0,0.0,1.08,1.08,100.0,3110.0,0.0,3.05,,12.48,1.142,102.4,,31.9,5.0,,,,,,,,,,,,0,0,0,0,0,0,0,0,0,0,0,0,0,0,0,0,,,,,0.0,,,,,,
27,3543905,0,,,,,,,,,,,,,,,,,,,,,,,,,,,,,,,,,,0,0,0,0,0,0,0,0,0,0,0,0,0,0,0,0,,,,,,,,,,,
28,3543925,0,0.0,179.36,,-0.12,-0.07,1.05,1.0,0.0,0.0,1.06,1.08,98.0,3110.0,0.0,3.05,,12.41,1.239,102.4,,31.9,5.0,,,,,,,,,,,,0,0,0,0,0,0,0,0,0,0,0,0,0,0,0,0,,,,,0.0,,,,,,
29,3543945,0,,,,,,,,,,,,,,,,,,,,,,,0.0,0.0,0.0,0.0,0.0,0.0,0.0,0.0,2.27,,,0,0,0,0,0,0,0,0,0,0,0,0,0,0,0,0,0.0,,,,,0.0,0.0,0.0,0.0,0.0,0.0
30,3543965,0,0.0,179.36,,-0.13,-0.04,0.97,1.0,0.0,-1.0,0.98,1.08,91.0,2998.0,0.0,3.11,,12.33,1.225,102.4,,31.1,5.0,,,,,,,,,,,,0,0,0,0,0,0,0,0,0,0,0,0,0,0,0,0,,,,,0.0,,,,,,
31,3543985,0,,,,,,,,,,,,,,,,,,,,,,,,,,,,,,,,,,0,0,0,0,0,0,0,0,0,0,0,0,0,0,0,0,,,,,,,,,,,
32,3544005,0,0.0,179.36,,-0.1,0.01,0.88,1.0,0.0,-1.0,0.89,1.08,82.0,3069.0,0.0,3.04,,12.37,1.198,102.4,,31.1,5.0,,,,,,,,,,,,0,0,0,0,0,0,0,0,0,0,0,0,0,0,0,0,,,,,0.0,,,,,,
33,3544025,0,,,,,,,,,,,,,,,,,,,,,,,,,,,,,,,,,,0,0,0,0,0,0,0,0,0,0,0,0,0,0,0,0,,,,,,,,,,,
34,3544045,0,0.0,179.36,,-0.08,0.07,0.8,1.0,0.0,-1.0,0.81,1.08,75.0,3036.0,0.0,3.09,,12.36,1.208,102.4,,31.1,5.0,0.0,0.0,0.0,0.0,0.0,0.0,0.0,0.0,2.26,,,0,0,0,0,0,0,0,0,0,0,0,0,0,0,0,0,0.0,,,,0.0,0.0,0.0,0.0,0.0,0.0,0.0
35,3544065,0,,,,,,,,,,,,,,,,,,,,,,,,,,,,,,,,,,0,0,0,0,0,0,0,0,0,0,0,0,0,0,0,0,,,,,,,,,,,
36,3544085,0,0.0,179.36,,-0.05,0.1,0.77,1.0,0.0,0.0,0.78,1.08,72.0,3077.0,0.0,3.11,,12.36,1.208,102.4,,30.9,5.0,,,,,,,,,,,,0,0,0,0,0,0,0,0,0,0,0,0,0,0,0,0,,,,,0.0,,,,,,
37,3544105,0,,,,,,,,,,,,,,,,,,,,,,,,,,,,,,,,,,0,0,0,0,0,0,0,0,0,0,0,0,0,0,0,0,,,,,,,,,,,
38,3544125,0,0.0,179.24,,-0.03,0.1,0.74,0.0,0.0,0.0,0.75,1.08,70.0,3077.0,0.0,3.11,,12.35,1.159,102.4,,30.9,5.0,,,,,,,,,,,,0,0,0,0,0,0,0,0,0,0,0,0,0,0,0,0,,,,,0.0,,,,,,
39,3544145,0,,,,,,,,,,,,,,,,,,,,,,,0.0,0.0,0.0,0.0,0.0,0.0,0.0,0.0,2.26,,,0,0,0,0,0,0,0,0,0,0,0,0,0,0,0,0,0.0,,,,,0.0,0.0,0.0,0.0,0.0,0.0
40,3544165,0,0.0,179.24,,-0.03,0.1,0.72,0.0,0.0,0.0,0.73,1.08,68.0,2957.0,0.0,3.13,,12.4,1.116,102.4,,29.2,5.0,,,,,,,,,,,,0,0,0,0,0,0,0,0,0,0,0,0,0,0,0,0,,,,,0.0,,,,,,
41,3544185,0,,,,,,,,,,,,,,,,,,,,,,,,,,,,,,,,,,0,0,0,0,0,0,0,0,0,0,0,0,0,0,0,0,,,,,,,,,,,
42,3544205,0,0.0,179.24,,-0.07,0.05,0.79,1.0,0.0,0.0,0.79,1.08,74.0,2796.0,0.0,3.16,,12.48,1.118,102.4,,29.2,5.0,,,,,,,,,,,,0,0,0,0,0,0,0,0,0,0,0,0,0,0,0,0,,,,,0.0,,,,,,
43,3544225,0,,,,,,,,,,,,,,,,,,,,,,,,,,,,,,,,,,0,0,0,0,0,0,0,0,0,0,0,0,0,0,0,0,,,,,,,,,,,
44,3544245,0,0.0,179.24,,-0.07,0.01,0.87,0.0,0.0,0.0,0.87,1.08,81.0,2919.0,0.0,3.18,,12.53,1.128,102.4,,29.2,5.0,0.0,0.0,0.0,0.0,0.0,0.0,0.0,0.0,2.27,,,0,0,0,0,0,0,0,0,0,0,0,0,0,0,0,0,0.0,,,,0.0,0.0,0.0,0.0,0.0,0.0,0.0
45,3544265,0,,,,,,,,,,,,,,,,,,,,,,,,,,,,,,,,,,0,0,0,0,0,0,0,0,0,0,0,0,0,0,0,0,,,,,,,,,,,
46,3544285,0,0.0,179.24,,-0.06,0.0,0.98,0.0,0.0,0.0,0.98,1.08,91.0,3016.0,0.0,3.15,,12.53,1.128,102.4,,28.8,5.0,,,,,,,,,,,,0,0,0,0,0,0,0,0,0,0,0,0,0,0,0,0,,,,,0.0,,,,,,
47,3544305,0,,,,,,,,,,,,,,,,,,,,,,,,,,,,,,,,,,0,0,0,0,0,0,0,0,0,0,0,0,0,0,0,0,,,,,,,,,,,
48,3544325,0,0.0,179.24,,-0.05,0.03,1.02,0.0,0.0,1.0,1.03,1.08,95.0,3016.0,0.0,3.15,,12.55,1.238,102.4,,28.8,5.0,,,,,,,,,,,,0,0,0,0,0,0,0,0,0,0,0,0,0,0,0,0,,,,,0.0,,,,,,
49,3544345,0,,,,,,,,,,,,,,,,,,,,,,,0.0,0.0,0.0,0.0,0.0,0.0,0.0,0.0,2.27,,,0,0,0,0,0,0,0,0,0,0,0,0,0,0,0,0,0.0,,,,,0.0,0.0,0.0,0.0,0.0,0.0
50,3544365,0,0.0,179.24,,-0.04,0.05,1.05,-1.0,0.0,1.0,1.05,1.08,98.0,2936.0,0.0,3.14,,12.51,1.201,102.4,,29.7,5.0,,,,,,,,,,,,0,0,0,0,0,0,0,0,0,0,0,0,0,0,0,0,,,,,0.0,,,,,,
51,3544385,0,,,,,,,,,,,,,,,,,,,,,,,,,,,,,,,,,,0,0,0,0,0,0,0,0,0,0,0,0,0,0,0,0,,,,,,,,,,,
52,3544405,0,0.0,179.11,,-0.03,0.04,1.01,-1.0,0.0,1.0,1.01,1.08,94.0,2962.0,0.0,3.13,,12.45,1.124,100.6,,29.7,5.0,,,,,,,,,,,,0,0,0,0,0,0,0,0,0,0,0,0,0,0,0,0,,,,,0.0,,,,,,
53,3544425,0,,,,,,,,,,,,,,,,,,,,,,,,,,,,,,,,,,0,0,0,0,0,0,0,0,0,0,0,0,0,0,0,0,,,,,,,,,,,
54,3544445,0,0.0,179.24,,-0.03,0.05,0.96,0.0,0.0,1.0,0.96,1.08,89.0,2804.0,0.0,3.15,,12.55,1.077,100.6,,29.7,5.0,0.0,0.0,0.0,0.0,0.0,0.0,0.0,0.0,2.27,,,0,0,0,0,0,0,0,0,0,0,0,0,0,0,0,0,0.0,,,,0.0,0.0,0.0,0.0,0.0,0.0,0.0
55,3544465,0,,,,,,,,,,,,,,,,,,,,,,,,,,,,,,,,,,0,0,0,0,0,0,0,0,0,0,0,0,0,0,0,0,,,,,,,,,,,
56,3544485,0,0.0,179.24,,-0.05,-0.0,0.99,0.0,0.0,0.0,0.99,1.08,92.0,2796.0,0.0,3.17,,12.55,1.077,100.6,,28.6,5.0,,,,,,,,,,,,0,0,0,0,0,0,0,0,0,0,0,0,0,0,0,0,,,,,0.0,,,,,,
57,3544505,0,,,,,,,,,,,,,,,,,,,,,,,,,,,,,,,,,,0,0,0,0,0,0,0,0,0,0,0,0,0,0,0,0,,,,,,,,,,,
58,3544525,0,0.0,179.24,,-0.06,0.02,0.98,0.0,0.0,1.0,0.98,1.08,91.0,2796.0,0.0,3.17,,12.59,1.072,100.6,,28.6,5.0,,,,,,,,,,,,0,0,0,0,0,0,0,0,0,0,0,0,0,0,0,0,,,,,0.0,,,,,,
59,3544545,0,,,,,,,,,,,,,,,,,,,,,,,0.0,0.0,0.0,0.0,0.0,0.0,0.0,0.0,2.26,,,0,0,0,0,0,0,0,0,0,0,0,0,0,0,0,0,0.0,,,,,0.0,0.0,0.0,0.0,0.0,0.0
60,3544565,0,0.0,179.24,,-0.05,0.02,0.99,0.0,0.0,0.0,0.99,1.08,92.0,2647.0,0.0,3.19,,12.71,1.105,100.6,,26.7,5.0,,,,,,,,,,,,0,0,0,0,0,0,0,0,0,0,0,0,0,0,0,0,,,,,0.0,,,,,,
61,3544585,0,,,,,,,,,,,,,,,,,,,,,,,,,,,,,,,,,,0,0,0,0,0,0,0,0,0,0,0,0,0,0,0,0,,,,,,,,,,,
62,3544605,0,0.0,179.24,,-0.04,0.01,0.98,0.0,0.0,1.0,0.99,1.08,92.0,2563.0,0.0,3.22,,12.79,1.124,100.6,,26.7,5.0,,,,,,,,,,,,0,0,0,0,0,0,0,0,0,0,0,0,0,0,0,0,,,,,0.0,,,,,,
63,3544625,0,,,,,,,,,,,,,,,,,,,,,,,,,,,,,,,,,,0,0,0,0,0,0,0,0,0,0,0,0,0,0,0,0,,,,,,,,,,,
64,3544645,0,0.0,179.24,,-0.05,0.03,1.0,0.0,0.0,0.0,1.0,1.08,93.0,2495.0,0.0,3.24,,12.89,1.143,100.6,,26.7,5.0,0.0,0.0,0.0,0.0,0.0,0.0,0.0,0.0,2.26,,,0,0,0,0,0,0,0,0,0,0,0,0,0,0,0,0,0.0,,,,0.0,0.0,0.0,0.0,0.0,0.0,0.0
65,3544665,0,,,,,,,,,,,,,,,,,,,,,,,,,,,,,,,,,,0,0,0,0,0,0,0,0,0,0,0,0,0,0,0,0,,,,,,,,,,,
66,3544685,0,0.0,179.24,,-0.04,-0.01,1.0,0.0,0.0,0.0,1.0,1.08,93.0,2346.0,0.0,3.26,,12.89,1.143,100.6,,24.9,5.0,,,,,,,,,,,,0,0,0,0,0,0,0,0,0,0,0,0,0,0,0,0,,,,,0.0,,,,,,
67,3544705,0,,,,,,,,,,,,,,,,,,,,,,,,,,,,,,,,,,0,0,0,0,0,0,0,0,0,0,0,0,0,0,0,0,,,,,,,,,,,
68,3544725,0,0.0,179.24,,-0.04,0.01,1.01,0.0,0.0,1.0,1.01,1.08,94.0,2346.0,0.0,3.26,,13.03,1.153,100.6,,24.9,5.0,,,,,,,,,,,,0,0,0,0,0,0,0,0,0,0,0,0,0,0,0,0,,,,,0.0,,,,,,
69,3544745,0,,,,,,,,,,,,,,,,,,,,,,,0.0,0.0,0.0,0.0,0.0,0.0,0.0,0.0,2.27,,,0,0,0,0,0,0,0,0,0,0,0,0,0,0,0,0,0.0,,,,,0.0,0.0,0.0,0.0,0.0,0.0
70,3544765,0,0.0,179.36,,-0.04,-0.01,0.99,0.0,0.0,0.0,1.0,1.08,93.0,2261.0,0.0,3.29,,13.2,1.182,100.6,,23.7,5.0,,,,,,,,,,,,0,0,0,0,0,0,0,0,0,0,0,0,0,0,0,0,,,,,0.0,,,,,,
71,3544785,0,,,,,,,,,,,,,,,,,,,,,,,,,,,,,,,,,,0,0,0,0,0,0,0,0,0,0,0,0,0,0,0,0,,,,,,,,,,,
72,3544805,0,0.0,179.36,,-0.04,-0.0,1.01,0.0,0.0,0.0,1.01,1.08,94.0,2414.0,0.0,3.26,,13.16,1.188,100.6,,23.7,5.0,,,,,,,,,,,,0,0,0,0,0,0,0,0,0,0,0,0,0,0,0,0,,,,,0.0,,,,,,
73,3544825,0,,,,,,,,,,,,,,,,,,,,,,,,,,,,,,,,,,0,0,0,0,0,0,0,0,0,0,0,0,0,0,0,0,,,,,,,,,,,
74,3544845,0,0.0,179.36,13.58,-0.05,0.0,1.01,0.0,0.0,0.0,1.01,1.08,94.0,2407.0,0.0,3.28,15.0,13.24,1.25,100.6,178.0,23.7,5.0,0.0,0.0,0.0,0.0,0.0,0.0,0.0,0.0,2.27,0.0,1.0,0,0,0,0,0,0,0,0,0,0,0,0,0,0,0,0,0.0,0.0,0.0,0.0,0.0,0.0,0.0,0.0,0.0,0.0,0.0
75,3544865,0,,,,,,,,,,,,,,,,,,,,,,,,,,,,,,,,,,0,0,0,0,0,0,0,0,0,0,0,0,0,0,0,0,,,,,,,,,,,
76,3544885,0,0.0,179.36,,-0.04,0.0,1.0,0.0,0.0,0.0,1.01,1.08,94.0,2345.0,0.0,3.27,,13.24,1.25,100.6,,23.7,5.0,,,,,,,,,,,,0,0,0,0,0,0,0,0,0,0,0,0,0,0,0,0,,,,,0.0,,,,,,
77,3544905,0,,,,,,,,,,,,,,,,,,,,,,,,,,,,,,,,,,0,0,0,0,0,0,0,0,0,0,0,0,0,0,0,0,,,,,,,,,,,
78,3544925,0,0.0,179.36,,-0.03,-0.02,0.99,0.0,0.0,0.0,0.99,1.08,92.0,2345.0,0.0,3.27,,13.31,1.246,100.6,,23.7,5.0,,,,,,,,,,,,0,0,0,0,0,0,0,0,0,0,0,0,0,0,0,0,,,,,0.0,,,,,,
79,3544945,0,,,,,,,,,,,,,,,,,,,,,,,0.0,0.0,0.0,0.0,0.0,0.0,0.0,0.0,2.26,,,0,0,0,0,0,0,0,0,0,0,0,0,0,0,0,0,0.0,,,,,0.0,0.0,0.0,0.0,0.0,0.0
80,3544965,0,0.0,179.24,,-0.03,-0.02,1.0,0.0,0.0,0.0,1.0,1.08,93.0,2220.0,0.0,3.28,,13.41,1.201,100.6,,22.4,5.0,,,,,,,,,,,,0,0,0,0,0,0,0,0,0,0,0,0,0,0,0,0,,,,,0.0,,,,,,
81,3544985,0,,,,,,,,,,,,,,,,,,,,,,,,,,,,,,,,,,0,0,0,0,0,0,0,0,0,0,0,0,0,0,0,0,,,,,,,,,,,
82,3545005,0,0.0,179.36,,-0.04,0.0,1.0,0.0,0.0,0.0,1.0,1.08,93.0,2115.0,0.0,3.3,,13.4,1.151,100.6,,22.4,5.0,,,,,,,,,,,,0,0,0,0,0,0,0,0,0,0,0,0,0,0,0,0,,,,,0.0,,,,,,
83,3545025,0,,,,,,,,,,,,,,,,,,,,,,,,,,,,,,,,,,0,0,0,0,0,0,0,0,0,0,0,0,0,0,0,0,,,,,,,,,,,
84,3545045,0,0.0,179.24,,-0.06,0.02,0.99,0.0,0.0,0.0,1.0,1.08,93.0,1954.0,0.0,3.32,,13.49,1.126,100.6,,22.4,5.0,0.0,0.0,0.0,0.0,0.0,0.0,0.0,0.0,2.26,,,0,0,0,0,0,0,0,0,0,0,0,0,0,0,0,0,0.0,,,,0.0,0.0,0.0,0.0,0.0,0.0,0.0
85,3545065,0,,,,,,,,,,,,,,,,,,,,,,,,,,,,,,,,,,0,0,0,0,0,0,0,0,0,0,0,0,0,0,0,0,,,,,,,,,,,
86,3545085,0,0.0,179.24,,-0.05,0.0,1.02,0.0,0.0,1.0,1.02,1.08,95.0,1967.0,0.0,3.33,,13.49,1.126,100.6,,20.1,5.0,,,,,,,,,,,,0,0,0,0,0,0,0,0,0,0,0,0,0,0,0,0,,,,,0.0,,,,,,
87,3545105,0,,,,,,,,,,,,,,,,,,,,,,,,,,,,,,,,,,0,0,0,0,0,0,0,0,0,0,0,0,0,0,0,0,,,,,,,,,,,
88,3545125,0,0.0,179.24,,-0.07,0.01,0.99,0.0,0.0,0.0,1.0,1.08,93.0,1967.0,0.0,3.33,,13.61,1.139,100.6,,20.1,5.0,,,,,,,,,,,,0,0,0,0,0,0,0,0,0,0,0,0,0,0,0,0,,,,,0.0,,,,,,
89,3545145,0,,,,,,,,,,,,,,,,,,,,,,,0.0,0.0,0.0,0.0,0.0,0.0,0.0,0.0,2.27,,,0,0,0,0,0,0,0,0,0,0,0,0,0,0,0,0,0.0,,,,,0.0,0.0,0.0,0.0,0.0,0.0
90,3545165,0,0.0,179.24,,-0.05,-0.0,0.99,0.0,0.0,0.0,0.99,1.08,92.0,1863.0,0.0,3.35,,13.76,1.17,100.6,,18.8,5.0,,,,,,,,,,,,0,0,0,0,0,0,0,0,0,0,0,0,0,0,0,0,,,,,0.0,,,,,,
91,3545185,0,,,,,,,,,,,,,,,,,,,,,,,,,,,,,,,,,,0,0,0,0,0,0,0,0,0,0,0,0,0,0,0,0,,,,,,,,,,,
92,3545205,0,0.0,179.24,,-0.05,-0.01,1.01,0.0,0.0,0.0,1.01,1.08,94.0,1762.0,0.0,3.35,,13.87,1.199,100.6,,18.8,5.0,,,,,,,,,,,,0,0,0,0,0,0,0,0,0,0,0,0,0,0,0,0,,,,,0.0,,,,,,
93,3545225,0,,,,,,,,,,,,,,,,,,,,,,,,,,,,,,,,,,0,0,0,0,0,0,0,0,0,0,0,0,0,0,0,0,,,,,,,,,,,
94,3545245,0,0.0,179.24,,-0.07,-0.01,1.02,0.0,0.0,0.0,1.02,1.08,95.0,1555.0,0.0,3.35,,13.82,1.228,100.6,,18.8,5.0,0.0,0.0,0.0,0.0,0.0,0.0,0.0,0.0,2.27,,,0,0,0,0,0,0,0,0,0,0,0,0,0,0,0,0,0.0,,,,0.0,0.0,0.0,0.0,0.0,0.0,0.0
95,3545265,0,,,,,,,,,,,,,,,,,,,,,,,,,,,,,,,,,,0,0,0,0,0,0,0,0,0,0,0,0,0,0,0,0,,,,,,,,,,,
96,3545285,0,0.0,179.24,,-0.1,0.01,1.02,0.0,0.0,0.0,1.02,1.08,95.0,1576.0,0.0,3.38,,13.82,1.228,100.6,,16.5,5.0,,,,,,,,,,,,0,0,0,0,0,0,0,0,0,0,0,0,0,0,0,0,,,,,0.0,,,,,,
97,3545305,0,,,,,,,,,,,,,,,,,,,,,,,,,,,,,,,,,,0,0,0,0,0,0,0,0,0,0,0,0,0,0,0,0,,,,,,,,,,,
98,3545325,0,0.0,179.24,,-0.11,0.01,1.01,0.0,0.0,0.0,1.02,1.08,95.0,1576.0,0.0,3.38,,14.0,1.238,100.6,,16.5,5.0,,,,,,,,,,,,0,0,0,0,0,0,0,0,0,0,0,0,0,0,0,0,,,,,0.0,,,,,,
99,3545345,0,,,,,,,,,,,,,,,,,,,,,,,0.0,0.0,0.0,0.0,0.0,0.0,0.0,0.0,2.27,,,0,0,0,0,0,0,0,0,0,0,0,0,0,0,0,0,0.0,,,,,0.0,0.0,0.0,0.0,0.0,0.0
100,3545365,0,0.0,179.11,,-0.13,0.03,1.03,0.0,0.0,0.0,1.04,1.08,96.0,1472.0,0.0,3.39,,13.98,1.246,100.6,,15.6,5.0,,,,,,,,,,,,0,0,0,0,0,0,0,0,0,0,0,0,0,0,0,0,,,,,0.0,,,,,,
101,3545385,0,,,,,,,,,,,,,,,,,,,,,,,,,,,,,,,,,,0,0,0,0,0,0,0,0,0,0,0,0,0,0,0,0,,,,,,,,,,,
102,3545405,0,0.0,179.24,,-0.12,0.02,1.03,0.0,0.0,0.0,1.03,1.08,96.0,1474.0,0.0,3.4,,14.1,1.251,100.6,,15.6,5.0,,,,,,,,,,,,0,0,0,0,0,0,0,0,0,0,0,0,0,0,0,0,,,,,0.0,,,,,,
103,3545425,0,,,,,,,,,,,,,,,,,,,,,,,,,,,,,,,,,,0,0,0,0,0,0,0,0,0,0,0,0,0,0,0,0,,,,,,,,,,,
104,3545445,0,0.0,179.24,,-0.08,0.02,1.03,0.0,0.0,0.0,1.03,1.08,96.0,1365.0,0.0,3.4,,14.15,1.252,100.6,,15.6,5.0,0.0,0.0,0.0,0.0,0.0,0.0,0.0,0.0,2.26,,,0,0,0,0,0,0,0,0,0,0,0,0,0,0,0,0,0.0,,,,0.0,0.0,0.0,0.0,0.0,0.0,0.0
105,3545465,0,,,,,,,,,,,,,,,,,,,,,,,,,,,,,,,,,,0,0,0,0,0,0,0,0,0,0,0,0,0,0,0,0,,,,,,,,,,,
106,3545485,0,0.0,179.24,,-0.08,0.02,1.03,0.0,0.0,0.0,1.03,1.08,96.0,1437.0,7.6,3.41,,14.15,1.252,100.6,,15.2,5.0,,,,,,,,,,,,0,0,0,0,0,0,0,0,0,0,0,0,0,0,0,0,,,,,0.0,,,,,,
107,3545505,0,,,,,,,,,,,,,,,,,,,,,,,,,,,,,,,,,,0,0,0,0,0,0,0,0,0,0,0,0,0,0,0,0,,,,,,,,,,,
108,3545525,0,0.0,179.24,,-0.08,0.04,1.03,0.0,0.0,0.0,1.04,1.08,96.0,1437.0,7.6,3.41,,14.28,1.252,100.6,,15.2,5.0,,,,,,,,,,,,0,0,0,0,0,0,0,0,0,0,0,0,0,0,0,0,,,,,0.0,,,,,,
109,3545545,0,,,,,,,,,,,,,,,,,,,,,,,0.0,0.0,0.0,0.0,0.0,0.0,0.0,0.0,2.26,,,0,0,0,0,0,0,0,0,0,0,0,0,0,0,0,0,0.0,,,,,0.0,0.0,0.0,0.0,0.0,0.0
110,3545565,0,0.0,179.24,,-0.09,0.04,1.03,0.0,0.0,0.0,1.04,1.08,96.0,1256.0,10.1,3.79,,14.36,1.247,100.6,,14.5,5.0,,,,,,,,,,,,0,0,0,0,0,0,0,0,0,0,0,0,0,0,0,0,,,,,0.0,,,,,,
111,3545585,0,,,,,,,,,,,,,,,,,,,,,,,,,,,,,,,,,,0,0,0,0,0,0,0,0,0,0,0,0,0,0,0,0,,,,,,,,,,,
112,3545605,0,0.0,179.36,,-0.07,0.06,1.01,-1.0,0.0,0.0,1.01,1.08,94.0,1183.0,9.9,3.68,,14.38,1.249,100.6,,14.5,5.0,,,,,,,,,,,,0,0,0,0,0,0,0,0,0,0,0,0,0,0,0,0,,,,,0.0,,,,,,
113,3545625,0,,,,,,,,,,,,,,,,,,,,,,,,,,,,,,,,,,0,0,0,0,0,0,0,0,0,0,0,0,0,0,0,0,,,,,,,,,,,
114,3545645,0,0.0,179.36,,-0.06,0.02,1.0,-1.0,0.0,1.0,1.0,1.08,93.0,1512.0,5.0,3.68,,14.35,1.248,100.6,,14.5,5.0,0.0,0.0,0.0,0.0,0.0,0.0,0.0,0.0,2.27,,,0,0,0,0,0,0,0,0,0,0,0,0,0,0,0,0,0.0,,,,0.0,0.0,0.0,0.0,0.0,0.0,0.0
115,3545665,0,,,,,,,,,,,,,,,,,,,,,,,,,,,,,,,,,,0,0,0,0,0,0,0,0,0,0,0,0,0,0,0,0,,,,,,,,,,,
116,3545685,0,0.0,179.36,,-0.05,0.01,0.98,-1.0,0.0,1.0,0.98,1.08,92.0,1448.0,4.6,3.75,,14.35,1.248,100.6,,15.3,5.0,,,,,,,,,,,,0,0,0,0,0,0,0,0,0,0,0,0,0,0,0,0,,,,,0.0,,,,,,
117,3545705,0,,,,,,,,,,,,,,,,,,,,,,,,,,,,,,,,,,0,0,0,0,0,0,0,0,0,0,0,0,0,0,0,0,,,,,,,,,,,
118,3545725,0,0.0,179.24,,-0.04,0.0,0.98,-1.0,0.0,1.0,0.98,1.08,91.0,1448.0,4.6,3.75,,14.3,1.248,100.6,,15.3,5.0,,,,,,,,,,,,0,0,0,0,0,0,0,0,0,0,0,0,0,0,0,0,,,,,0.0,,,,,,
119,3545745,0,,,,,,,,,,,,,,,,,,,,,,,0.0,0.0,0.0,0.0,0.0,0.0,0.0,0.0,2.27,,,0,0,0,0,0,0,0,0,0,0,0,0,0,0,0,0,0.0,,,,,0.0,0.0,0.0,0.0,0.0,0.0
120,3545765,0,0.0,179.36,,-0.03,-0.02,0.96,-1.0,0.0,1.0,0.97,1.08,90.0,1538.0,4.6,3.73,,14.28,1.249,100.6,,15.3,5.0,,,,,,,,,,,,0,0,0,0,0,0,0,0,0,0,0,0,0,0,0,0,,,,,0.0,,,,,,
121,3545785,0,,,,,,,,,,,,,,,,,,,,,,,,,,,,,,,,,,0,0,0,0,0,0,0,0,0,0,0,0,0,0,0,0,,,,,,,,,,,
122,3545805,0,0.0,179.36,,-0.02,-0.04,0.97,-1.0,0.0,1.0,0.97,1.08,90.0,1597.0,2.0,3.61,,14.2,1.25,100.6,,15.3,5.0,,,,,,,,,,,,0,0,0,0,0,0,0,0,0,0,0,0,0,0,0,0,,,,,0.0,,,,,,
123,3545825,0,,,,,,,,,,,,,,,,,,,,,,,,,,,,,,,,,,0,0,0,0,0,0,0,0,0,0,0,0,0,0,0,0,,,,,,,,,,,
124,3545845,0,0.0,179.24,13.58,0.01,-0.02,0.99,-1.0,0.0,1.0,0.99,1.08,92.0,1540.0,0.0,3.38,15.0,14.2,1.251,100.6,178.0,15.3,5.0,0.0,0.0,0.0,0.0,0.0,0.0,0.0,0.0,2.27,0.0,1.0,0,0,0,0,0,0,0,0,0,0,0,0,0,0,0,0,0.0,0.0,0.0,0.0,0.0,0.0,0.0,0.0,0.0,0.0,0.0
125,3545865,0,,,,,,,,,,,,,,,,,,,,,,,,,,,,,,,,,,0,0,0,0,0,0,0,0,0,0,0,0,0,0,0,0,,,,,,,,,,,
126,3545885,0,0.0,179.24,,0.02,-0.01,1.01,-1.0,0.0,1.0,1.01,1.08,94.0,1591.0,0.0,3.39,,14.2,1.251,100.6,,15.9,5.0,,,,,,,,,,,,0,0,0,0,0,0,0,0,0,0,0,0,0,0,0,0,,,,,0.0,,,,,,
127,3545905,0,,,,,,,,,,,,,,,,,,,,,,,,,,,,,,,,,,0,0,0,0,0,0,0,0,0,0,0,0,0,0,0,0,,,,,,,,,,,
128,3545925,0,0.0,179.24,,0.02,-0.02,1.01,-1.0,0.0,1.0,1.01,1.08,94.0,1591.0,0.0,3.39,,14.04,1.25,100.6,,15.9,5.0,,,,,,,,,,,,0,0,0,0,0,0,0,0,0,0,0,0,0,0,0,0,,,,,0.0,,,,,,
129,3545945,0,,,,,,,,,,,,,,,,,,,,,,,0.0,0.0,0.0,0.0,0.0,0.0,0.0,0.0,2.27,,,0,0,0,0,0,0,0,0,0,0,0,0,0,0,0,0,0.0,,,,,0.0,0.0,0.0,0.0,0.0,0.0
130,3545965,0,0.0,179.24,,0.0,-0.03,1.03,-1.0,0.0,0.0,1.03,1.08,96.0,1592.0,0.0,3.39,,14.07,1.251,100.6,,16.5,5.0,,,,,,,,,,,,0,0,0,0,0,0,0,0,0,0,0,0,0,0,0,0,,,,,0.0,,,,,,
131,3545985,0,,,,,,,,,,,,,,,,,,,,,,,,,,,,,,,,,,0,0,0,0,0,0,0,0,0,0,0,0,0,0,0,0,,,,,,,,,,,
132,3546005,0,0.0,179.24,,-0.01,-0.02,1.04,0.0,0.0,0.0,1.04,1.08,97.0,1509.0,0.0,3.39,,14.1,1.251,100.6,,16.5,5.0,,,,,,,,,,,,0,0,0,0,0,0,0,0,0,0,0,0,0,0,0,0,,,,,0.0,,,,,,
133,3546025,0,,,,,,,,,,,,,,,,,,,,,,,,,,,,,,,,,,0,0,0,0,0,0,0,0,0,0,0,0,0,0,0,0,,,,,,,,,,,
134,3546045,0,0.0,179.24,,-0.03,-0.0,1.05,0.0,0.0,0.0,1.05,1.08,98.0,1517.0,0.0,3.39,,14.04,1.249,100.6,,16.5,5.0,0.0,0.0,0.0,0.0,0.0,0.0,0.0,0.0,2.26,,,0,0,0,0,0,0,0,0,0,0,0,0,0,0,0,0,0.0,,,,0.0,0.0,0.0,0.0,0.0,0.0,0.0
135,3546065,0,,,,,,,,,,,,,,,,,,,,,,,,,,,,,,,,,,0,0,0,0,0,0,0,0,0,0,0,0,0,0,0,0,,,,,,,,,,,
136,3546085,0,0.0,179.24,,-0.01,-0.02,1.04,0.0,0.0,0.0,1.04,1.08,97.0,1424.0,0.0,3.38,,14.04,1.249,100.6,,15.5,5.0,,,,,,,,,,,,0,0,0,0,0,0,0,0,0,0,0,0,0,0,0,0,,,,,0.0,,,,,,
137,3546105,0,,,,,,,,,,,,,,,,,,,,,,,,,,,,,,,,,,0,0,0,0,0,0,0,0,0,0,0,0,0,0,0,0,,,,,,,,,,,
138,3546125,0,0.0,179.24,,-0.01,-0.02,1.03,0.0,0.0,0.0,1.03,1.08,96.0,1424.0,0.0,3.38,,14.12,1.248,100.6,,15.5,5.0,,,,,,,,,,,,0,0,0,0,0,0,0,0,0,0,0,0,0,0,0,0,,,,,0.0,,,,,,
139,3546145,0,,,,,,,,,,,,,,,,,,,,,,,0.0,0.0,0.0,0.0,0.0,0.0,0.0,0.0,2.27,,,0,0,0,0,0,0,0,0,0,0,0,0,0,0,0,0,0.0,,,,,0.0,0.0,0.0,0.0,0.0,0.0
140,3546165,0,0.0,179.24,,-0.02,-0.03,1.03,0.0,0.0,0.0,1.03,1.08,96.0,1493.0,0.0,3.38,,14.14,1.248,100.6,,15.1,5.0,,,,,,,,,,,,0,0,0,0,0,0,0,0,0,0,0,0,0,0,0,0,,,,,0.0,,,,,,
141,3546185,0,,,,,,,,,,,,,,,,,,,,,,,,,,,,,,,,,,0,0,0,0,0,0,0,0,0,0,0,0,0,0,0,0,,,,,,,,,,,
142,3546205,0,0.0,179.24,,-0.02,-0.03,1.02,0.0,0.0,0.0,1.02,1.08,95.0,1457.0,0.0,3.39,,14.08,1.248,100.6,,15.1,5.0,,,,,,,,,,,,0,0,0,0,0,0,0,0,0,0,0,0,0,0,0,0,,,,,0.0,,,,,,
143,3546225,0,,,,,,,,,,,,,,,,,,,,,,,,,,,,,,,,,,0,0,0,0,0,0,0,0,0,0,0,0,0,0,0,0,,,,,,,,,,,
144,3546245,0,0.0,179.24,,-0.01,-0.01,1.02,0.0,0.0,0.0,1.02,1.08,95.0,1373.0,0.0,3.4,,14.18,1.249,100.6,,15.1,5.0,0.0,0.0,0.0,0.0,0.0,0.0,0.0,0.0,2.27,,,0,0,0,0,0,0,0,0,0,0,0,0,0,0,0,0,0.0,,,,0.0,0.0,0.0,0.0,0.0,0.0,0.0
145,3546265,0,,,,,,,,,,,,,,,,,,,,,,,,,,,,,,,,,,0,0,0,0,0,0,0,0,0,0,0,0,0,0,0,0,,,,,,,,,,,
146,3546285,0,0.0,179.24,,-0.01,0.01,1.0,0.0,0.0,0.0,1.0,1.08,93.0,1468.0,0.0,3.41,,14.18,1.249,100.6,,15.1,5.0,,,,,,,,,,,,0,0,0,0,0,0,0,0,0,0,0,0,0,0,0,0,,,,,0.0,,,,,,
147,3546305,0,,,,,,,,,,,,,,,,,,,,,,,,,,,,,,,,,,0,0,0,0,0,0,0,0,0,0,0,0,0,0,0,0,,,,,,,,,,,
148,3546325,0,0.0,179.24,,-0.0,0.02,1.0,0.0,0.0,0.0,1.0,1.08,93.0,1468.0,0.0,3.41,,14.14,1.25,100.6,,15.1,5.0,,,,,,,,,,,,0,0,0,0,0,0,0,0,0,0,0,0,0,0,0,0,,,,,0.0,,,,,,
149,3546345,0,,,,,,,,,,,,,,,,,,,,,,,0.0,0.0,0.0,0.0,0.0,0.0,0.0,0.0,2.27,,,0,0,0,0,0,0,0,0,0,0,0,0,0,0,0,0,0.0,,,,,0.0,0.0,0.0,0.0,0.0,0.0
150,3546365,0,0.0,179.24,,-0.03,0.03,1.03,0.0,0.0,0.0,1.03,1.08,96.0,1339.0,0.0,3.41,,14.12,1.251,100.6,,14.7,5.0,,,,,,,,,,,,0,0,0,0,0,0,0,0,0,0,0,0,0,0,0,0,,,,,0.0,,,,,,
151,3546385,0,,,,,,,,,,,,,,,,,,,,,,,,,,,,,,,,,,0,0,0,0,0,0,0,0,0,0,0,0,0,0,0,0,,,,,,,,,,,
152,3546405,0,0.0,179.24,,-0.03,0.03,1.03,0.0,0.0,0.0,1.03,1.08,96.0,1387.0,0.0,3.42,,14.15,1.25,100.6,,14.7,5.0,,,,,,,,,,,,0,0,0,0,0,0,0,0,0,0,0,0,0,0,0,0,,,,,0.0,,,,,,
153,3546425,0,,,,,,,,,,,,,,,,,,,,,,,,,,,,,,,,,,0,0,0,0,0,0,0,0,0,0,0,0,0,0,0,0,,,,,,,,,,,
154,3546445,0,0.0,179.24,,-0.02,0.03,1.04,0.0,0.0,0.0,1.04,1.08,96.0,1307.0,0.0,3.4,,14.24,1.251,100.6,,14.7,5.0,0.0,0.0,0.0,0.0,0.0,0.0,0.0,0.0,2.26,,,0,0,0,0,0,0,0,0,0,0,0,0,0,0,0,0,0.0,,,,0.0,0.0,0.0,0.0,0.0,0.0,0.0
155,3546465,0,,,,,,,,,,,,,,,,,,,,,,,,,,,,,,,,,,0,0,0,0,0,0,0,0,0,0,0,0,0,0,0,0,,,,,,,,,,,
156,3546485,0,0.0,179.24,,-0.01,0.03,1.03,0.0,0.0,0.0,1.03,1.08,96.0,1463.0,0.0,3.41,,14.24,1.251,100.6,,15.3,5.0,,,,,,,,,,,,0,0,0,0,0,0,0,0,0,0,0,0,0,0,0,0,,,,,0.0,,,,,,
157,3546505,0,,,,,,,,,,,,,,,,,,,,,,,,,,,,,,,,,,0,0,0,0,0,0,0,0,0,0,0,0,0,0,0,0,,,,,,,,,,,
158,3546525,0,0.0,179.24,,-0.03,0.06,1.03,0.0,0.0,0.0,1.04,1.08,96.0,1463.0,0.0,3.41,,14.12,1.251,100.6,,15.3,5.0,,,,,,,,,,,,0,0,0,0,0,0,0,0,0,0,0,0,0,0,0,0,,,,,0.0,,,,,,
159,3546545,0,,,,,,,,,,,,,,,,,,,,,,,0.0,0.0,0.0,0.0,0.0,0.0,0.0,0.0,2.27,,,0,0,0,0,0,0,0,0,0,0,0,0,0,0,0,0,0.0,,,,,0.0,0.0,0.0,0.0,0.0,0.0
160,3546565,0,0.0,179.24,,-0.03,0.04,1.03,0.0,0.0,0.0,1.04,1.08,96.0,1375.0,0.0,3.41,,14.12,1.249,100.6,,15.0,5.0,,,,,,,,,,,,0,0,0,0,0,0,0,0,0,0,0,0,0,0,0,0,,,,,0.0,,,,,,
161,3546585,0,,,,,,,,,,,,,,,,,,,,,,,,,,,,,,,,,,0,0,0,0,0,0,0,0,0,0,0,0,0,0,0,0,,,,,,,,,,,
162,3546605,0,0.0,179.24,,-0.02,0.0,1.03,0.0,0.0,0.0,1.03,1.08,95.0,1286.0,0.0,3.41,,14.19,1.248,100.6,,15.0,5.0,,,,,,,,,,,,0,0,0,0,0,0,0,0,0,0,0,0,0,0,0,0,,,,,0.0,,,,,,
163,3546625,0,,,,,,,,,,,,,,,,,,,,,,,,,,,,,,,,,,0,0,0,0,0,0,0,0,0,0,0,0,0,0,0,0,,,,,,,,,,,
164,3546645,0,0.0,179.24,,-0.01,-0.01,1.02,0.0,0.0,0.0,1.02,1.08,95.0,1435.0,0.0,3.41,,14.19,1.248,100.6,,15.0,5.0,0.0,0.0,0.0,0.0,0.0,0.0,0.0,0.0,2.27,,,0,0,0,0,0,0,0,0,0,0,0,0,0,0,0,0,0.0,,,,0.0,0.0,0.0,0.0,0.0,0.0,0.0
165,3546665,0,,,,,,,,,,,,,,,,,,,,,,,,,,,,,,,,,,0,0,0,0,0,0,0,0,0,0,0,0,0,0,0,0,,,,,,,,,,,
166,3546685,0,0.0,179.11,,-0.02,-0.02,1.0,0.0,0.0,0.0,1.0,1.08,93.0,1329.0,0.0,3.41,,14.19,1.248,100.6,,15.2,5.0,,,,,,,,,,,,0,0,0,0,0,0,0,0,0,0,0,0,0,0,0,0,,,,,0.0,,,,,,
167,3546705,0,,,,,,,,,,,,,,,,,,,,,,,,,,,,,,,,,,0,0,0,0,0,0,0,0,0,0,0,0,0,0,0,0,,,,,,,,,,,
168,3546725,0,0.0,179.11,,-0.02,-0.04,0.98,0.0,0.0,0.0,0.99,1.08,92.0,1329.0,0.0,3.41,,14.14,1.248,100.6,,15.2,5.0,,,,,,,,,,,,0,0,0,0,0,0,0,0,0,0,0,0,0,0,0,0,,,,,0.0,,,,,,
169,3546745,0,,,,,,,,,,,,,,,,,,,,,,,0.0,0.0,0.0,0.0,0.0,0.0,0.0,0.0,2.27,,,0,0,0,0,0,0,0,0,0,0,0,0,0,0,0,0,0.0,,,,,0.0,0.0,0.0,0.0,0.0,0.0
170,3546765,0,0.0,179.11,,-0.02,-0.05,0.98,0.0,0.0,0.0,0.99,1.08,92.0,1427.0,0.0,3.42,,14.14,1.249,100.6,,14.3,5.0,,,,,,,,,,,,0,0,0,0,0,0,0,0,0,0,0,0,0,0,0,0,,,,,0.0,,,,,,
171,3546785,0,,,,,,,,,,,,,,,,,,,,,,,,,,,,,,,,,,0,0,0,0,0,0,0,0,0,0,0,0,0,0,0,0,,,,,,,,,,,
172,3546805,0,0.0,179.11,,-0.05,-0.03,1.01,0.0,0.0,0.0,1.01,1.08,94.0,1311.0,0.0,3.4,,14.27,1.25,100.6,,14.3,5.0,,,,,,,,,,,,0,0,0,0,0,0,0,0,0,0,0,0,0,0,0,0,,,,,0.0,,,,,,
173,3546825,0,,,,,,,,,,,,,,,,,,,,,,,,,,,,,,,,,,0,0,0,0,0,0,0,0,0,0,0,0,0,0,0,0,,,,,,,,,,,
174,3546845,0,0.0,179.11,13.56,-0.05,-0.03,1.0,0.0,0.0,0.0,1.0,1.08,93.0,1390.0,0.0,3.42,15.0,14.2,1.25,100.6,178.0,14.3,5.0,0.0,0.0,0.0,0.0,0.0,0.0,0.0,0.0,2.28,0.0,1.0,0,0,0,0,0,0,0,0,0,0,0,0,0,0,0,0,0.0,0.0,0.0,0.0,0.0,0.0,0.0,0.0,0.0,0.0,0.0
175,3546865,0,,,,,,,,,,,,,,,,,,,,,,,,,,,,,,,,,,0,0,0,0,0,0,0,0,0,0,0,0,0,0,0,0,,,,,,,,,,,
176,3546885,0,0.0,179.11,,-0.05,-0.06,0.98,0.0,0.0,0.0,0.98,1.08,91.0,1379.0,0.0,3.42,,14.2,1.25,100.6,,14.0,5.0,,,,,,,,,,,,0,0,0,0,0,0,0,0,0,0,0,0,0,0,0,0,,,,,0.0,,,,,,
177,3546905,0,,,,,,,,,,,,,,,,,,,,,,,,,,,,,,,,,,0,0,0,0,0,0,0,0,0,0,0,0,0,0,0,0,,,,,,,,,,,
178,3546925,0,0.0,179.11,,-0.05,-0.05,0.97,0.0,0.0,0.0,0.98,1.08,91.0,1379.0,0.0,3.42,,14.15,1.251,100.6,,14.0,5.0,,,,,,,,,,,,0,0,0,0,0,0,0,0,0,0,0,0,0,0,0,0,,,,,0.0,,,,,,
179,3546945,0,,,,,,,,,,,,,,,,,,,,,,,0.0,0.0,0.0,0.0,0.0,0.0,0.0,0.0,2.26,,,0,0,0,0,0,0,0,0,0,0,0,0,0,0,0,0,0.0,,,,,0.0,0.0,0.0,0.0,0.0,0.0
180,3546965,0,0.0,179.11,,-0.06,-0.04,1.0,0.0,0.0,0.0,1.01,1.08,94.0,1274.0,0.0,3.41,,14.12,1.251,100.6,,14.0,5.0,,,,,,,,,,,,0,0,0,0,0,0,0,0,0,0,0,0,0,0,0,0,,,,,0.0,,,,,,
181,3546985,0,,,,,,,,,,,,,,,,,,,,,,,,,,,,,,,,,,0,0,0,0,0,0,0,0,0,0,0,0,0,0,0,0,,,,,,,,,,,
182,3547005,0,0.0,179.11,,-0.07,-0.03,1.0,0.0,0.0,0.0,1.01,1.08,94.0,1380.0,0.0,3.43,,14.22,1.25,100.6,,14.0,5.0,,,,,,,,,,,,0,0,0,0,0,0,0,0,0,0,0,0,0,0,0,0,,,,,0.0,,,,,,
183,3547025,0,,,,,,,,,,,,,,,,,,,,,,,,,,,,,,,,,,0,0,0,0,0,0,0,0,0,0,0,0,0,0,0,0,,,,,,,,,,,
184,3547045,0,0.0,179.11,,-0.07,-0.04,0.98,0.0,0.0,0.0,0.98,1.08,91.0,1269.0,0.0,3.41,,14.27,1.249,100.6,,14.0,5.0,0.0,0.0,0.0,0.0,0.0,0.0,0.0,0.0,2.26,,,0,0,0,0,0,0,0,0,0,0,0,0,0,0,0,0,0.0,,,,0.0,0.0,0.0,0.0,0.0,0.0,0.0
185,3547065,0,,,,,,,,,,,,,,,,,,,,,,,,,,,,,,,,,,0,0,0,0,0,0,0,0,0,0,0,0,0,0,0,0,,,,,,,,,,,
186,3547085,0,0.0,179.24,,-0.05,-0.04,0.97,0.0,0.0,0.0,0.97,1.08,90.0,1350.0,0.0,3.43,,14.27,1.249,100.6,,14.3,5.0,,,,,,,,,,,,0,0,0,0,0,0,0,0,0,0,0,0,0,0,0,0,,,,,0.0,,,,,,
187,3547105,0,,,,,,,,,,,,,,,,,,,,,,,,,,,,,,,,,,0,0,0,0,0,0,0,0,0,0,0,0,0,0,0,0,,,,,,,,,,,
188,3547125,0,0.0,179.11,,-0.05,-0.03,0.98,0.0,0.0,0.0,0.98,1.08,91.0,1350.0,0.0,3.43,,14.22,1.248,100.6,,14.3,5.0,,,,,,,,,,,,0,0,0,0,0,0,0,0,0,0,0,0,0,0,0,0,,,,,0.0,,,,,,
189,3547145,0,,,,,,,,,,,,,,,,,,,,,,,0.0,0.0,0.0,0.0,0.0,0.0,0.0,0.0,2.27,,,0,0,0,0,0,0,0,0,0,0,0,0,0,0,0,0,0.0,,,,,0.0,0.0,0.0,0.0,0.0,0.0
190,3547165,0,0.0,179.24,,-0.05,-0.04,0.97,0.0,0.0,0.0,0.98,1.08,91.0,1246.0,0.0,3.42,,14.2,1.248,100.6,,14.5,5.0,,,,,,,,,,,,0,0,0,0,0,0,0,0,0,0,0,0,0,0,0,0,,,,,0.0,,,,,,
191,3547185,0,,,,,,,,,,,,,,,,,,,,,,,,,,,,,,,,,,0,0,0,0,0,0,0,0,0,0,0,0,0,0,0,0,,,,,,,,,,,
192,3547205,0,0.0,179.11,,-0.05,-0.02,0.98,0.0,0.0,0.0,0.98,1.08,91.0,1387.0,0.0,3.42,,14.12,1.248,100.6,,14.5,5.0,,,,,,,,,,,,0,0,0,0,0,0,0,0,0,0,0,0,0,0,0,0,,,,,0.0,,,,,,
193,3547225,0,,,,,,,,,,,,,,,,,,,,,,,,,,,,,,,,,,0,0,0,0,0,0,0,0,0,0,0,0,0,0,0,0,,,,,,,,,,,
194,3547245,0,0.0,179.11,,-0.04,0.01,0.98,0.0,0.0,0.0,0.98,1.08,91.0,1266.0,0.0,3.4,,14.22,1.25,100.6,,14.5,5.0,0.0,0.0,0.0,0.0,0.0,0.0,0.0,0.0,2.27,,,0,0,0,0,0,0,0,0,0,0,0,0,0,0,0,0,0.0,,,,0.0,0.0,0.0,0.0,0.0,0.0,0.0
195,3547265,0,,,,,,,,,,,,,,,,,,,,,,,,,,,,,,,,,,0,0,0,0,0,0,0,0,0,0,0,0,0,0,0,0,,,,,,,,,,,
196,3547285,0,0.0,179.11,,-0.04,0.0,0.97,0.0,0.0,0.0,0.98,1.08,91.0,1380.0,0.0,3.42,,14.22,1.25,100.6,,14.9,5.0,,,,,,,,,,,,0,0,0,0,0,0,0,0,0,0,0,0,0,0,0,0,,,,,0.0,,,,,,
197,3547305,0,,,,,,,,,,,,,,,,,,,,,,,,,,,,,,,,,,0,0,0,0,0,0,0,0,0,0,0,0,0,0,0,0,,,,,,,,,,,
198,3547325,0,0.0,179.11,,-0.02,-0.03,0.98,0.0,0.0,0.0,0.98,1.08,91.0,1380.0,0.0,3.42,,14.24,1.252,100.6,,14.9,5.0,,,,,,,,,,,,0,0,0,0,0,0,0,0,0,0,0,0,0,0,0,0,,,,,0.0,,,,,,
199,3547345,0,,,,,,,,,,,,,,,,,,,,,,,0.0,0.0,0.0,0.0,0.0,0.0,0.0,0.0,2.27,,,0,0,0,0,0,0,0,0,0,0,0,0,0,0,0,0,0.0,,,,,0.0,0.0,0.0,0.0,0.0,0.0
200,3547365,0,0.0,179.24,,-0.02,-0.02,0.99,0.0,0.0,0.0,0.99,1.08,92.0,1281.0,0.0,3.41,,14.24,1.252,100.6,,14.6,5.0,,,,,,,,,,,,0,0,0,0,0,0,0,0,0,0,0,0,0,0,0,0,,,,,0.0,,,,,,
201,3547385,0,,,,,,,,,,,,,,,,,,,,,,,,,,,,,,,,,,0,0,0,0,0,0,0,0,0,0,0,0,0,0,0,0,,,,,,,,,,,
202,3547405,0,0.0,179.24,,-0.04,-0.02,0.98,0.0,0.0,0.0,0.98,1.08,91.0,1365.0,0.0,3.41,,14.19,1.252,102.4,,14.6,5.0,,,,,,,,,,,,0,0,0,0,0,0,0,0,0,0,0,0,0,0,0,0,,,,,0.0,,,,,,
203,3547425,0,,,,,,,,,,,,,,,,,,,,,,,,,,,,,,,,,,0,0,0,0,0,0,0,0,0,0,0,0,0,0,0,0,,,,,,,,,,,
204,3547445,0,0.0,179.11,,-0.07,-0.02,0.99,0.0,0.0,0.0,0.99,1.08,92.0,1333.0,0.0,3.43,,14.16,1.252,102.4,,14.6,5.0,0.0,0.0,0.0,0.0,0.0,0.0,0.0,0.0,2.26,,,0,0,0,0,0,0,0,0,0,0,0,0,0,0,0,0,0.0,,,,0.0,0.0,0.0,0.0,0.0,0.0,0.0
205,3547465,0,,,,,,,,,,,,,,,,,,,,,,,,,,,,,,,,,,0,0,0,0,0,0,0,0,0,0,0,0,0,0,0,0,,,,,,,,,,,
206,3547485,0,0.0,179.24,,-0.07,-0.03,0.98,0.0,0.0,0.0,0.98,1.08,91.0,1222.0,0.0,3.42,,14.16,1.252,102.4,,14.5,5.0,,,,,,,,,,,,0,0,0,0,0,0,0,0,0,0,0,0,0,0,0,0,,,,,0.0,,,,,,
207,3547505,0,,,,,,,,,,,,,,,,,,,,,,,,,,,,,,,,,,0,0,0,0,0,0,0,0,0,0,0,0,0,0,0,0,,,,,,,,,,,
208,3547525,0,0.0,179.11,,-0.06,-0.06,0.96,0.0,0.0,0.0,0.96,1.08,89.0,1222.0,0.0,3.42,,14.15,1.25,102.4,,14.5,5.0,,,,,,,,,,,,0,0,0,0,0,0,0,0,0,0,0,0,0,0,0,0,,,,,0.0,,,,,,
209,3547545,0,,,,,,,,,,,,,,,,,,,,,,,0.0,0.0,0.0,0.0,0.0,0.0,0.0,0.0,2.27,,,0,0,0,0,0,0,0,0,0,0,0,0,0,0,0,0,0.0,,,,,0.0,0.0,0.0,0.0,0.0,0.0
210,3547565,0,0.0,179.11,,-0.05,-0.05,0.96,0.0,0.0,0.0,0.96,1.08,90.0,1336.0,0.0,3.43,,14.2,1.249,102.4,,14.4,5.0,,,,,,,,,,,,0,0,0,0,0,0,0,0,0,0,0,0,0,0,0,0,,,,,0.0,,,,,,
211,3547585,0,,,,,,,,,,,,,,,,,,,,,,,,,,,,,,,,,,0,0,0,0,0,0,0,0,0,0,0,0,0,0,0,0,,,,,,,,,,,
212,3547605,0,0.0,179.24,,-0.03,-0.08,0.98,0.0,0.0,0.0,0.98,1.08,91.0,1215.0,0.0,3.42,,14.23,1.248,102.4,,14.4,5.0,,,,,,,,,,,,0,0,0,0,0,0,0,0,0,0,0,0,0,0,0,0,,,,,0.0,,,,,,
213,3547625,0,,,,,,,,,,,,,,,,,,,,,,,,,,,,,,,,,,0,0,0,0,0,0,0,0,0,0,0,0,0,0,0,0,,,,,,,,,,,
214,3547645,0,0.0,179.24,,-0.02,-0.08,0.98,0.0,0.0,0.0,0.99,1.08,92.0,1318.0,0.0,3.43,,14.27,1.248,102.4,,14.4,5.0,0.0,0.0,0.0,0.0,0.0,0.0,0.0,0.0,2.27,,,0,0,0,0,0,0,0,0,0,0,0,0,0,0,0,0,0.0,,,,0.0,0.0,0.0,0.0,0.0,0.0,0.0
215,3547665,0,,,,,,,,,,,,,,,,,,,,,,,,,,,,,,,,,,0,0,0,0,0,0,0,0,0,0,0,0,0,0,0,0,,,,,,,,,,,
216,3547685,0,0.0,179.24,,-0.03,-0.07,1.0,0.0,0.0,0.0,1.0,1.08,93.0,1187.0,0.0,3.42,,14.27,1.248,102.4,,14.0,5.0,,,,,,,,,,,,0,0,0,0,0,0,0,0,0,0,0,0,0,0,0,0,,,,,0.0,,,,,,
217,3547705,0,,,,,,,,,,,,,,,,,,,,,,,,,,,,,,,,,,0,0,0,0,0,0,0,0,0,0,0,0,0,0,0,0,,,,,,,,,,,
218,3547725,0,0.0,179.11,,-0.02,-0.02,1.0,0.0,0.0,0.0,1.0,1.08,93.0,1187.0,0.0,3.42,,14.3,1.249,102.4,,14.0,5.0,,,,,,,,,,,,0,0,0,0,0,0,0,0,0,0,0,0,0,0,0,0,,,,,0.0,,,,,,
219,3547745,0,,,,,,,,,,,,,,,,,,,,,,,0.0,0.0,0.0,0.0,0.0,0.0,0.0,0.0,2.27,,,0,0,0,0,0,0,0,0,0,0,0,0,0,0,0,0,0.0,,,,,0.0,0.0,0.0,0.0,0.0,0.0
220,3547765,0,0.0,179.11,,-0.02,-0.02,1.01,0.0,0.0,0.0,1.01,1.08,94.0,1264.0,0.0,3.41,,14.28,1.251,102.4,,13.7,5.0,,,,,,,,,,,,0,0,0,0,0,0,0,0,0,0,0,0,0,0,0,0,,,,,0.0,,,,,,
221,3547785,0,,,,,,,,,,,,,,,,,,,,,,,,,,,,,,,,,,0,0,0,0,0,0,0,0,0,0,0,0,0,0,0,0,,,,,,,,,,,
222,3547805,0,0.0,179.24,,-0.04,-0.02,1.02,0.0,0.0,0.0,1.02,1.08,95.0,1173.0,0.0,3.42,,14.31,1.251,102.4,,13.7,5.0,,,,,,,,,,,,0,0,0,0,0,0,0,0,0,0,0,0,0,0,0,0,,,,,0.0,,,,,,
223,3547825,0,,,,,,,,,,,,,,,,,,,,,,,,,,,,,,,,,,0,0,0,0,0,0,0,0,0,0,0,0,0,0,0,0,,,,,,,,,,,
224,3547845,0,0.0,179.11,13.53,-0.05,-0.01,1.01,0.0,0.0,0.0,1.01,1.08,94.0,1362.0,0.0,3.41,15.0,14.2,1.252,102.4,178.0,13.7,5.0,0.0,0.0,0.0,0.0,0.0,0.0,0.0,0.0,2.27,0.0,1.0,0,0,0,0,0,0,0,0,0,0,0,0,0,0,0,0,0.0,0.0,0.0,0.0,0.0,0.0,0.0,0.0,0.0,0.0,0.0
225,3547865,0,,,,,,,,,,,,,,,,,,,,,,,,,,,,,,,,,,0,0,0,0,0,0,0,0,0,0,0,0,0,0,0,0,,,,,,,,,,,
226,3547885,0,0.0,179.11,,-0.05,-0.03,1.0,0.0,0.0,0.0,1.0,1.08,93.0,1238.0,0.0,3.4,,14.2,1.252,102.4,,14.0,5.0,,,,,,,,,,,,0,0,0,0,0,0,0,0,0,0,0,0,0,0,0,0,,,,,0.0,,,,,,
227,3547905,0,,,,,,,,,,,,,,,,,,,,,,,,,,,,,,,,,,0,0,0,0,0,0,0,0,0,0,0,0,0,0,0,0,,,,,,,,,,,
228,3547925,0,0.0,179.11,,-0.04,0.0,0.99,0.0,0.0,0.0,0.99,1.08,92.0,1238.0,0.0,3.4,,14.2,1.251,102.4,,14.0,5.0,,,,,,,,,,,,0,0,0,0,0,0,0,0,0,0,0,0,0,0,0,0,,,,,0.0,,,,,,
229,3547945,0,,,,,,,,,,,,,,,,,,,,,,,0.0,0.0,0.0,0.0,0.0,0.0,0.0,0.0,2.26,,,0,0,0,0,0,0,0,0,0,0,0,0,0,0,0,0,0.0,,,,,0.0,0.0,0.0,0.0,0.0,0.0
230,3547965,0,0.0,179.11,,-0.02,-0.0,0.99,0.0,0.0,0.0,0.99,1.08,92.0,1358.0,0.0,3.42,,14.14,1.25,102.4,,14.0,5.0,,,,,,,,,,,,0,0,0,0,0,0,0,0,0,0,0,0,0,0,0,0,,,,,0.0,,,,,,
231,3547985,0,,,,,,,,,,,,,,,,,,,,,,,,,,,,,,,,,,0,0,0,0,0,0,0,0,0,0,0,0,0,0,0,0,,,,,,,,,,,
232,3548005,0,0.0,179.11,,-0.01,-0.02,1.01,0.0,0.0,0.0,1.01,1.08,94.0,1242.0,0.0,3.4,,14.2,1.249,102.4,,14.0,5.0,,,,,,,,,,,,0,0,0,0,0,0,0,0,0,0,0,0,0,0,0,0,,,,,0.0,,,,,,
233,3548025,0,,,,,,,,,,,,,,,,,,,,,,,,,,,,,,,,,,0,0,0,0,0,0,0,0,0,0,0,0,0,0,0,0,,,,,,,,,,,
234,3548045,0,0.0,179.11,,-0.02,-0.03,1.0,0.0,0.0,0.0,1.0,1.08,93.0,1324.0,0.0,3.42,,14.2,1.248,102.4,,14.0,5.0,0.0,0.0,0.0,0.0,0.0,0.0,0.0,0.0,2.26,,,0,0,0,0,0,0,0,0,0,0,0,0,0,0,0,0,0.0,,,,0.0,0.0,0.0,0.0,0.0,0.0,0.0
235,3548065,0,,,,,,,,,,,,,,,,,,,,,,,,,,,,,,,,,,0,0,0,0,0,0,0,0,0,0,0,0,0,0,0,0,,,,,,,,,,,
236,3548085,0,0.0,179.11,,-0.03,-0.01,1.01,0.0,0.0,0.0,1.02,1.08,94.0,1203.0,0.0,3.4,,14.2,1.248,102.4,,13.4,5.0,,,,,,,,,,,,0,0,0,0,0,0,0,0,0,0,0,0,0,0,0,0,,,,,0.0,,,,,,
237,3548105,0,,,,,,,,,,,,,,,,,,,,,,,,,,,,,,,,,,0,0,0,0,0,0,0,0,0,0,0,0,0,0,0,0,,,,,,,,,,,
238,3548125,0,0.0,179.11,,-0.04,-0.01,1.01,0.0,0.0,0.0,1.01,1.08,94.0,1203.0,0.0,3.4,,14.3,1.248,102.4,,13.4,5.0,,,,,,,,,,,,0,0,0,0,0,0,0,0,0,0,0,0,0,0,0,0,,,,,0.0,,,,,,
239,3548145,0,,,,,,,,,,,,,,,,,,,,,,,0.0,0.0,0.0,0.0,0.0,0.0,0.0,0.0,2.27,,,0,0,0,0,0,0,0,0,0,0,0,0,0,0,0,0,0.0,,,,,0.0,0.0,0.0,0.0,0.0,0.0
240,3548165,0,0.0,179.11,,-0.06,-0.0,1.0,0.0,0.0,0.0,1.01,1.08,94.0,1333.0,0.0,3.41,,14.27,1.248,102.4,,13.1,5.0,,,,,,,,,,,,0,0,0,0,0,0,0,0,0,0,0,0,0,0,0,0,,,,,0.0,,,,,,
241,3548185,0,,,,,,,,,,,,,,,,,,,,,,,,,,,,,,,,,,0,0,0,0,0,0,0,0,0,0,0,0,0,0,0,0,,,,,,,,,,,
242,3548205,0,0.0,179.11,,-0.08,-0.02,1.01,0.0,0.0,0.0,1.01,1.08,94.0,1187.0,0.0,3.41,,14.31,1.249,102.4,,13.1,5.0,,,,,,,,,,,,0,0,0,0,0,0,0,0,0,0,0,0,0,0,0,0,,,,,0.0,,,,,,
243,3548225,0,,,,,,,,,,,,,,,,,,,,,,,,,,,,,,,,,,0,0,0,0,0,0,0,0,0,0,0,0,0,0,0,0,,,,,,,,,,,
244,3548245,0,0.0,179.11,,-0.07,-0.01,1.0,0.0,0.0,0.0,1.0,1.08,93.0,1287.0,0.0,3.41,,14.28,1.251,102.4,,13.1,5.0,0.0,0.0,0.0,0.0,0.0,0.0,0.0,0.0,2.27,,,0,0,0,0,0,0,0,0,0,0,0,0,0,0,0,0,0.0,,,,0.0,0.0,0.0,0.0,0.0,0.0,0.0
245,3548265,0,,,,,,,,,,,,,,,,,,,,,,,,,,,,,,,,,,0,0,0,0,0,0,0,0,0,0,0,0,0,0,0,0,,,,,,,,,,,
246,3548285,0,0.0,179.11,,-0.06,-0.03,0.97,0.0,0.0,0.0,0.97,1.08,91.0,1379.0,0.0,3.41,,14.28,1.251,102.4,,13.4,5.0,,,,,,,,,,,,0,0,0,0,0,0,0,0,0,0,0,0,0,0,0,0,,,,,0.0,,,,,,
247,3548305,0,,,,,,,,,,,,,,,,,,,,,,,,,,,,,,,,,,0,0,0,0,0,0,0,0,0,0,0,0,0,0,0,0,,,,,,,,,,,
248,3548325,0,0.0,179.11,,-0.06,-0.03,0.97,0.0,0.0,0.0,0.98,1.08,91.0,1379.0,0.0,3.41,,14.2,1.251,102.4,,13.4,5.0,,,,,,,,,,,,0,0,0,0,0,0,0,0,0,0,0,0,0,0,0,0,,,,,0.0,,,,,,
249,3548345,0,,,,,,,,,,,,,,,,,,,,,,,0.0,0.0,0.0,0.0,0.0,0.0,0.0,0.0,2.27,,,0,0,0,0,0,0,0,0,0,0,0,0,0,0,0,0,0.0,,,,,0.0,0.0,0.0,0.0,0.0,0.0
250,3548365,0,0.0,179.11,,-0.05,-0.05,0.97,0.0,0.0,0.0,0.98,1.08,91.0,1250.0,0.0,3.42,,14.16,1.25,102.4,,13.6,5.0,,,,,,,,,,,,0,0,0,0,0,0,0,0,0,0,0,0,0,0,0,0,,,,,0.0,,,,,,
251,3548385,0,,,,,,,,,,,,,,,,,,,,,,,,,,,,,,,,,,0,0,0,0,0,0,0,0,0,0,0,0,0,0,0,0,,,,,,,,,,,
252,3548405,0,0.0,179.11,,-0.04,-0.05,0.98,0.0,0.0,0.0,0.99,1.08,92.0,1314.0,0.0,3.43,,14.16,1.25,102.4,,13.6,5.0,,,,,,,,,,,,0,0,0,0,0,0,0,0,0,0,0,0,0,0,0,0,,,,,0.0,,,,,,
253,3548425,0,,,,,,,,,,,,,,,,,,,,,,,,,,,,,,,,,,0,0,0,0,0,0,0,0,0,0,0,0,0,0,0,0,,,,,,,,,,,
254,3548445,0,0.0,178.98,,-0.05,-0.05,0.98,0.0,0.0,0.0,0.99,1.08,92.0,1214.0,0.0,3.41,,14.18,1.25,102.4,,13.6,5.0,0.0,0.0,0.0,0.0,0.0,0.0,0.0,0.0,2.26,,,0,0,0,0,0,0,0,0,0,0,0,0,0,0,0,0,0.0,,,,0.0,0.0,0.0,0.0,0.0,0.0,0.0
255,3548465,0,,,,,,,,,,,,,,,,,,,,,,,,,,,,,,,,,,0,0,0,0,0,0,0,0,0,0,0,0,0,0,0,0,,,,,,,,,,,
256,3548485,0,0.0,179.11,,-0.07,-0.05,0.98,0.0,0.0,0.0,0.98,1.08,91.0,1349.0,0.0,3.42,,14.18,1.25,102.4,,13.7,5.0,,,,,,,,,,,,0,0,0,0,0,0,0,0,0,0,0,0,0,0,0,0,,,,,0.0,,,,,,
257,3548505,0,,,,,,,,,,,,,,,,,,,,,,,,,,,,,,,,,,0,0,0,0,0,0,0,0,0,0,0,0,0,0,0,0,,,,,,,,,,,
258,3548525,0,0.0,178.98,,-0.1,-0.03,0.97,0.0,0.0,0.0,0.98,1.08,91.0,1349.0,0.0,3.42,,14.26,1.249,102.4,,13.7,5.0,,,,,,,,,,,,0,0,0,0,0,0,0,0,0,0,0,0,0,0,0,0,,,,,0.0,,,,,,
259,3548545,0,,,,,,,,,,,,,,,,,,,,,,,0.0,0.0,0.0,0.0,0.0,0.0,0.0,0.0,2.27,,,0,0,0,0,0,0,0,0,0,0,0,0,0,0,0,0,0.0,,,,,0.0,0.0,0.0,0.0,0.0,0.0
260,3548565,0,0.0,178.98,,-0.11,-0.04,0.96,0.0,0.0,0.0,0.97,1.08,90.0,1521.0,0.0,3.41,,14.1,1.248,102.4,,16.7,5.0,,,,,,,,,,,,0,0,0,0,0,0,0,0,0,0,0,0,0,0,0,0,,,,,0.0,,,,,,
261,3548585,0,,,,,,,,,,,,,,,,,,,,,,,,,,,,,,,,,,0,0,0,0,0,0,0,0,0,0,0,0,0,0,0,0,,,,,,,,,,,
262,3548605,0,0.0,178.98,,-0.09,-0.06,0.96,0.0,0.0,0.0,0.97,1.08,90.0,1794.0,0.0,3.37,,14.06,1.248,102.4,,16.7,5.0,,,,,,,,,,,,0,0,0,0,0,0,0,0,0,0,0,0,0,0,0,0,,,,,0.0,,,,,,
263,3548625,0,,,,,,,,,,,,,,,,,,,,,,,,,,,,,,,,,,0,0,0,0,0,0,0,0,0,0,0,0,0,0,0,0,,,,,,,,,,,
264,3548645,0,0.0,179.11,,-0.09,-0.06,0.95,0.0,0.0,0.0,0.96,1.08,89.0,1966.0,0.0,3.38,,14.0,1.247,102.4,,16.7,5.0,0.0,0.0,0.0,0.0,0.0,0.0,0.0,0.0,2.27,,,0,0,0,0,0,0,0,0,0,0,0,0,0,0,0,0,0.0,,,,0.0,0.0,0.0,0.0,0.0,0.0,0.0
265,3548665,0,,,,,,,,,,,,,,,,,,,,,,,,,,,,,,,,,,0,0,0,0,0,0,0,0,0,0,0,0,0,0,0,0,,,,,,,,,,,
266,3548685,0,0.0,179.11,,-0.08,-0.05,0.95,0.0,0.0,0.0,0.96,1.08,89.0,1945.0,0.0,3.36,,14.0,1.247,102.4,,18.8,5.0,,,,,,,,,,,,0,0,0,0,0,0,0,0,0,0,0,0,0,0,0,0,,,,,0.0,,,,,,
267,3548705,0,,,,,,,,,,,,,,,,,,,,,,,,,,,,,,,,,,0,0,0,0,0,0,0,0,0,0,0,0,0,0,0,0,,,,,,,,,,,
268,3548725,0,0.0,179.11,,-0.07,-0.06,0.95,0.0,0.0,0.0,0.96,1.08,89.0,1945.0,0.0,3.36,,13.94,1.249,102.4,,18.8,5.0,,,,,,,,,,,,0,0,0,0,0,0,0,0,0,0,0,0,0,0,0,0,,,,,0.0,,,,,,
269,3548745,0,,,,,,,,,,,,,,,,,,,,,,,0.0,0.0,0.0,0.0,0.0,0.0,0.0,0.0,2.27,,,0,0,0,0,0,0,0,0,0,0,0,0,0,0,0,0,0.0,,,,,0.0,0.0,0.0,0.0,0.0,0.0
270,3548765,0,0.0,179.11,,-0.08,-0.05,0.98,0.0,0.0,0.0,0.98,1.08,91.0,1858.0,0.0,3.36,,13.94,1.25,102.4,,18.7,5.0,,,,,,,,,,,,0,0,0,0,0,0,0,0,0,0,0,0,0,0,0,0,,,,,0.0,,,,,,
271,3548785,0,,,,,,,,,,,,,,,,,,,,,,,,,,,,,,,,,,0,0,0,0,0,0,0,0,0,0,0,0,0,0,0,0,,,,,,,,,,,
272,3548805,0,0.0,179.11,,-0.09,-0.02,0.96,0.0,0.0,0.0,0.96,1.08,89.0,1734.0,0.0,3.35,,13.99,1.213,102.4,,18.7,5.0,,,,,,,,,,,,0,0,0,0,0,0,0,0,0,0,0,0,0,0,0,0,,,,,0.0,,,,,,
273,3548825,0,,,,,,,,,,,,,,,,,,,,,,,,,,,,,,,,,,0,0,0,0,0,0,0,0,0,0,0,0,0,0,0,0,,,,,,,,,,,
274,3548845,0,0.0,179.11,13.68,-0.08,-0.03,0.95,0.0,0.0,0.0,0.96,1.08,89.0,1780.0,0.0,3.37,15.0,13.98,1.209,102.4,178.0,18.7,5.0,0.0,0.0,0.0,0.0,0.0,0.0,0.0,0.0,2.27,0.0,1.0,0,0,0,0,0,0,0,0,0,0,0,0,0,0,0,0,0.0,0.0,0.0,0.0,0.0,0.0,0.0,0.0,0.0,0.0,0.0
275,3548865,0,,,,,,,,,,,,,,,,,,,,,,,,,,,,,,,,,,0,0,0,0,0,0,0,0,0,0,0,0,0,0,0,0,,,,,,,,,,,
276,3548885,0,0.0,179.11,,-0.04,0.0,0.98,0.0,0.0,0.0,0.98,1.08,91.0,1685.0,0.0,3.38,,13.98,1.209,102.4,,17.4,5.0,,,,,,,,,,,,0,0,0,0,0,0,0,0,0,0,0,0,0,0,0,0,,,,,0.0,,,,,,
277,3548905,0,,,,,,,,,,,,,,,,,,,,,,,,,,,,,,,,,,0,0,0,0,0,0,0,0,0,0,0,0,0,0,0,0,,,,,,,,,,,
278,3548925,0,0.0,179.11,,-0.06,0.03,0.99,0.0,0.0,0.0,1.0,1.08,93.0,1685.0,0.0,3.38,,14.02,1.224,102.4,,17.4,5.0,,,,,,,,,,,,0,0,0,0,0,0,0,0,0,0,0,0,0,0,0,0,,,,,0.0,,,,,,
279,3548945,0,,,,,,,,,,,,,,,,,,,,,,,0.0,0.0,0.0,0.0,0.0,0.0,0.0,0.0,2.26,,,0,0,0,0,0,0,0,0,0,0,0,0,0,0,0,0,0.0,,,,,0.0,0.0,0.0,0.0,0.0,0.0
280,3548965,0,0.0,179.11,,-0.07,0.02,1.01,0.0,0.0,0.0,1.01,1.08,94.0,1809.0,0.0,3.38,,13.99,1.221,102.4,,19.2,5.0,,,,,,,,,,,,0,0,0,0,0,0,0,0,0,0,0,0,0,0,0,0,,,,,0.0,,,,,,
281,3548985,0,,,,,,,,,,,,,,,,,,,,,,,,,,,,,,,,,,0,0,0,0,0,0,0,0,0,0,0,0,0,0,0,0,,,,,,,,,,,
282,3549005,0,0.0,179.11,,-0.07,0.02,0.99,0.0,0.0,0.0,1.0,1.08,93.0,1894.0,0.0,3.36,,13.88,1.224,102.4,,19.2,5.0,,,,,,,,,,,,0,0,0,0,0,0,0,0,0,0,0,0,0,0,0,0,,,,,0.0,,,,,,
283,3549025,0,,,,,,,,,,,,,,,,,,,,,,,,,,,,,,,,,,0,0,0,0,0,0,0,0,0,0,0,0,0,0,0,0,,,,,,,,,,,
284,3549045,0,0.0,179.11,,-0.06,0.02,1.02,0.0,0.0,0.0,1.02,1.08,95.0,1839.0,0.0,3.36,,13.82,1.225,102.4,,19.2,5.0,0.0,0.0,0.0,0.0,0.0,0.0,0.0,0.0,2.27,,,0,0,0,0,0,0,0,0,0,0,0,0,0,0,0,0,0.0,,,,0.0,0.0,0.0,0.0,0.0,0.0,0.0
285,3549065,0,,,,,,,,,,,,,,,,,,,,,,,,,,,,,,,,,,0,0,0,0,0,0,0,0,0,0,0,0,0,0,0,0,,,,,,,,,,,
286,3549085,0,0.0,179.11,,-0.07,0.03,1.0,0.0,0.0,0.0,1.0,1.08,93.0,1811.0,0.0,3.36,,13.82,1.225,102.4,,18.8,5.0,,,,,,,,,,,,0,0,0,0,0,0,0,0,0,0,0,0,0,0,0,0,,,,,0.0,,,,,,
287,3549105,0,,,,,,,,,,,,,,,,,,,,,,,,,,,,,,,,,,0,0,0,0,0,0,0,0,0,0,0,0,0,0,0,0,,,,,,,,,,,
288,3549125,0,0.0,179.11,,-0.06,0.01,1.0,0.0,0.0,0.0,1.0,1.08,93.0,1811.0,0.0,3.36,,13.88,1.228,102.4,,18.8,5.0,,,,,,,,,,,,0,0,0,0,0,0,0,0,0,0,0,0,0,0,0,0,,,,,0.0,,,,,,
289,3549145,0,,,,,,,,,,,,,,,,,,,,,,,0.0,0.0,0.0,0.0,0.0,0.0,0.0,0.0,2.27,,,0,0,0,0,0,0,0,0,0,0,0,0,0,0,0,0,0.0,,,,,0.0,0.0,0.0,0.0,0.0,0.0
290,3549165,0,0.0,179.11,,-0.07,0.0,1.02,0.0,0.0,0.0,1.02,1.08,95.0,1719.0,0.0,3.36,,13.96,1.234,102.4,,18.2,5.0,,,,,,,,,,,,0,0,0,0,0,0,0,0,0,0,0,0,0,0,0,0,,,,,0.0,,,,,,
291,3549185,0,,,,,,,,,,,,,,,,,,,,,,,,,,,,,,,,,,0,0,0,0,0,0,0,0,0,0,0,0,0,0,0,0,,,,,,,,,,,
292,3549205,0,0.0,179.11,,-0.09,-0.0,1.0,0.0,0.0,0.0,1.0,1.08,93.0,1694.0,0.0,3.36,,14.02,1.227,102.4,,18.2,5.0,,,,,,,,,,,,0,0,0,0,0,0,0,0,0,0,0,0,0,0,0,0,,,,,0.0,,,,,,
293,3549225,0,,,,,,,,,,,,,,,,,,,,,,,,,,,,,,,,,,0,0,0,0,0,0,0,0,0,0,0,0,0,0,0,0,,,,,,,,,,,
294,3549245,0,0.0,179.11,,-0.08,-0.02,0.98,0.0,0.0,0.0,0.98,1.08,91.0,1688.0,0.0,3.39,,13.99,1.201,102.4,,18.2,5.0,0.0,0.0,0.0,0.0,0.0,0.0,0.0,0.0,2.27,,,0,0,0,0,0,0,0,0,0,0,0,0,0,0,0,0,0.0,,,,0.0,0.0,0.0,0.0,0.0,0.0,0.0
295,3549265,0,,,,,,,,,,,,,,,,,,,,,,,,,,,,,,,,,,0,0,0,0,0,0,0,0,0,0,0,0,0,0,0,0,,,,,,,,,,,
296,3549285,0,0.0,179.11,,-0.08,-0.03,0.98,0.0,0.0,0.0,0.99,1.08,92.0,1631.0,0.0,3.39,,13.99,1.201,102.4,,16.5,5.0,,,,,,,,,,,,0,0,0,0,0,0,0,0,0,0,0,0,0,0,0,0,,,,,0.0,,,,,,
297,3549305,0,,,,,,,,,,,,,,,,,,,,,,,,,,,,,,,,,,0,0,0,0,0,0,0,0,0,0,0,0,0,0,0,0,,,,,,,,,,,
298,3549325,0,0.0,179.11,,-0.06,-0.04,0.98,0.0,0.0,0.0,0.99,1.08,92.0,1631.0,0.0,3.39,,14.0,1.201,102.4,,16.5,5.0,,,,,,,,,,,,0,0,0,0,0,0,0,0,0,0,0,0,0,0,0,0,,,,,0.0,,,,,,
299,3549345,0,,,,,,,,,,,,,,,,,,,,,,,0.0,0.0,0.0,0.0,0.0,0.0,0.0,0.0,2.26,,,0,0,0,0,0,0,0,0,0,0,0,0,0,0,0,0,0.0,,,,,0.0,0.0,0.0,0.0,0.0,0.0
300,3549365,0,0.0,179.11,,-0.05,-0.05,0.99,0.0,0.0,0.0,0.99,1.08,92.0,1503.0,0.0,3.37,,14.14,1.195,102.4,,15.7,5.0,,,,,,,,,,,,0,0,0,0,0,0,0,0,0,0,0,0,0,0,0,0,,,,,0.0,,,,,,
301,3549385,0,,,,,,,,,,,,,,,,,,,,,,,,,,,,,,,,,,0,0,0,0,0,0,0,0,0,0,0,0,0,0,0,0,,,,,,,,,,,
302,3549405,0,0.0,179.11,,-0.04,-0.03,0.99,0.0,0.0,0.0,0.99,1.08,92.0,1513.0,0.0,3.39,,14.02,1.206,102.4,,15.7,5.0,,,,,,,,,,,,0,0,0,0,0,0,0,0,0,0,0,0,0,0,0,0,,,,,0.0,,,,,,
303,3549425,0,,,,,,,,,,,,,,,,,,,,,,,,,,,,,,,,,,0,0,0,0,0,0,0,0,0,0,0,0,0,0,0,0,,,,,,,,,,,
304,3549445,0,0.0,179.11,,-0.04,-0.04,0.98,0.0,0.0,1.0,0.98,1.08,91.0,1428.0,0.0,3.38,,14.2,1.224,102.4,,15.7,5.0,0.0,0.0,0.0,0.0,0.0,0.0,0.0,0.0,2.26,,,0,0,0,0,0,0,0,0,0,0,0,0,0,0,0,0,0.0,,,,0.0,0.0,0.0,0.0,0.0,0.0,0.0
305,3549465,0,,,,,,,,,,,,,,,,,,,,,,,,,,,,,,,,,,0,0,0,0,0,0,0,0,0,0,0,0,0,0,0,0,,,,,,,,,,,
306,3549485,0,0.0,178.98,,-0.03,-0.05,0.98,0.0,0.0,0.0,0.98,1.08,91.0,1505.0,0.0,3.4,,14.2,1.224,102.4,,16.1,5.0,,,,,,,,,,,,0,0,0,0,0,0,0,0,0,0,0,0,0,0,0,0,,,,,0.0,,,,,,
307,3549505,0,,,,,,,,,,,,,,,,,,,,,,,,,,,,,,,,,,0,0,0,0,0,0,0,0,0,0,0,0,0,0,0,0,,,,,,,,,,,
308,3549525,0,0.0,178.98,,-0.03,-0.01,0.97,0.0,0.0,0.0,0.98,1.08,91.0,1505.0,0.0,3.4,,14.11,1.248,102.4,,16.1,5.0,,,,,,,,,,,,0,0,0,0,0,0,0,0,0,0,0,0,0,0,0,0,,,,,0.0,,,,,,
309,3549545,0,,,,,,,,,,,,,,,,,,,,,,,0.0,0.0,0.0,0.0,0.0,0.0,0.0,0.0,2.27,,,0,0,0,0,0,0,0,0,0,0,0,0,0,0,0,0,0.0,,,,,0.0,0.0,0.0,0.0,0.0,0.0
310,3549565,0,0.0,179.11,,-0.04,-0.01,0.97,0.0,0.0,0.0,0.97,1.08,90.0,1425.0,0.0,3.4,,14.11,1.248,102.4,,15.3,5.0,,,,,,,,,,,,0,0,0,0,0,0,0,0,0,0,0,0,0,0,0,0,,,,,0.0,,,,,,
311,3549585,0,,,,,,,,,,,,,,,,,,,,,,,,,,,,,,,,,,0,0,0,0,0,0,0,0,0,0,0,0,0,0,0,0,,,,,,,,,,,
312,3549605,0,0.0,179.11,,-0.04,-0.02,0.98,0.0,0.0,0.0,0.98,1.08,91.0,1321.0,0.0,3.4,,14.19,1.247,102.4,,15.3,5.0,,,,,,,,,,,,0,0,0,0,0,0,0,0,0,0,0,0,0,0,0,0,,,,,0.0,,,,,,
313,3549625,0,,,,,,,,,,,,,,,,,,,,,,,,,,,,,,,,,,0,0,0,0,0,0,0,0,0,0,0,0,0,0,0,0,,,,,,,,,,,
314,3549645,0,0.0,179.11,,-0.04,-0.02,0.98,0.0,0.0,0.0,0.98,1.08,92.0,1403.0,0.0,3.41,,14.19,1.249,102.4,,15.3,5.0,0.0,0.0,0.0,0.0,0.0,0.0,0.0,0.0,2.27,,,0,0,0,0,0,0,0,0,0,0,0,0,0,0,0,0,0.0,,,,0.0,0.0,0.0,0.0,0.0,0.0,0.0
315,3549665,0,,,,,,,,,,,,,,,,,,,,,,,,,,,,,,,,,,0,0,0,0,0,0,0,0,0,0,0,0,0,0,0,0,,,,,,,,,,,
316,3549685,0,0.0,179.11,,-0.04,0.01,0.99,0.0,0.0,0.0,0.99,1.08,92.0,1272.0,0.0,3.4,,14.19,1.249,102.4,,14.5,5.0,,,,,,,,,,,,0,0,0,0,0,0,0,0,0,0,0,0,0,0,0,0,,,,,0.0,,,,,,
317,3549705,0,,,,,,,,,,,,,,,,,,,,,,,,,,,,,,,,,,0,0,0,0,0,0,0,0,0,0,0,0,0,0,0,0,,,,,,,,,,,
318,3549725,0,0.0,179.11,,-0.06,0.01,0.99,0.0,0.0,0.0,0.99,1.08,92.0,1272.0,0.0,3.4,,14.22,1.251,102.4,,14.5,5.0,,,,,,,,,,,,0,0,0,0,0,0,0,0,0,0,0,0,0,0,0,0,,,,,0.0,,,,,,
319,3549745,0,,,,,,,,,,,,,,,,,,,,,,,0.0,0.0,0.0,0.0,0.0,0.0,0.0,0.0,2.27,,,0,0,0,0,0,0,0,0,0,0,0,0,0,0,0,0,0.0,,,,,0.0,0.0,0.0,0.0,0.0,0.0
320,3549765,0,0.0,179.11,,-0.06,-0.0,0.99,0.0,0.0,0.0,0.99,1.08,92.0,1337.0,0.0,3.42,,14.15,1.252,102.4,,13.9,5.0,,,,,,,,,,,,0,0,0,0,0,0,0,0,0,0,0,0,0,0,0,0,,,,,0.0,,,,,,
321,3549785,0,,,,,,,,,,,,,,,,,,,,,,,,,,,,,,,,,,0,0,0,0,0,0,0,0,0,0,0,0,0,0,0,0,,,,,,,,,,,
322,3549805,0,0.0,179.11,,-0.05,-0.03,0.97,1.0,0.0,0.0,0.97,1.08,91.0,1199.0,0.0,3.41,,14.18,1.251,102.4,,13.9,5.0,,,,,,,,,,,,0,0,0,0,0,0,0,0,0,0,0,0,0,0,0,0,,,,,0.0,,,,,,
323,3549825,0,,,,,,,,,,,,,,,,,,,,,,,,,,,,,,,,,,0,0,0,0,0,0,0,0,0,0,0,0,0,0,0,0,,,,,,,,,,,
324,3549845,0,0.0,179.11,13.6,-0.05,-0.02,0.97,0.0,0.0,0.0,0.97,1.08,91.0,1321.0,0.0,3.42,15.0,14.16,1.251,102.4,180.0,13.9,5.0,0.0,0.0,0.0,0.0,0.0,0.0,0.0,0.0,2.27,0.0,1.0,0,0,0,0,0,0,0,0,0,0,0,0,0,0,0,0,0.0,0.0,0.0,0.0,0.0,0.0,0.0,0.0,0.0,0.0,0.0
325,3549865,0,,,,,,,,,,,,,,,,,,,,,,,,,,,,,,,,,,0,0,0,0,0,0,0,0,0,0,0,0,0,0,0,0,,,,,,,,,,,
326,3549885,0,0.0,179.11,,-0.04,-0.05,0.98,1.0,0.0,0.0,0.98,1.08,91.0,1210.0,0.0,3.42,,14.16,1.251,102.4,,13.6,5.0,,,,,,,,,,,,0,0,0,0,0,0,0,0,0,0,0,0,0,0,0,0,,,,,0.0,,,,,,
327,3549905,0,,,,,,,,,,,,,,,,,,,,,,,,,,,,,,,,,,0,0,0,0,0,0,0,0,0,0,0,0,0,0,0,0,,,,,,,,,,,
328,3549925,0,0.0,178.98,,-0.03,-0.03,0.98,0.0,0.0,0.0,0.98,1.08,91.0,1210.0,0.0,3.42,,14.22,1.25,102.4,,13.6,5.0,,,,,,,,,,,,0,0,0,0,0,0,0,0,0,0,0,0,0,0,0,0,,,,,0.0,,,,,,
329,3549945,0,,,,,,,,,,,,,,,,,,,,,,,0.0,0.0,0.0,0.0,0.0,0.0,0.0,0.0,2.26,,,0,0,0,0,0,0,0,0,0,0,0,0,0,0,0,0,0.0,,,,,0.0,0.0,0.0,0.0,0.0,0.0
330,3549965,0,0.0,179.11,,-0.03,-0.04,0.97,0.0,0.0,0.0,0.97,1.08,91.0,1260.0,0.0,3.41,,14.19,1.249,102.4,,13.3,5.0,,,,,,,,,,,,0,0,0,0,0,0,0,0,0,0,0,0,0,0,0,0,,,,,0.0,,,,,,
331,3549985,0,,,,,,,,,,,,,,,,,,,,,,,,,,,,,,,,,,0,0,0,0,0,0,0,0,0,0,0,0,0,0,0,0,,,,,,,,,,,
332,3550005,0,0.0,179.11,,-0.03,-0.05,0.99,0.0,0.0,0.0,0.99,1.08,92.0,1138.0,0.0,3.42,,14.22,1.248,102.4,,13.3,5.0,,,,,,,,,,,,0,0,0,0,0,0,0,0,0,0,0,0,0,0,0,0,,,,,0.0,,,,,,
333,3550025,0,,,,,,,,,,,,,,,,,,,,,,,,,,,,,,,,,,0,0,0,0,0,0,0,0,0,0,0,0,0,0,0,0,,,,,,,,,,,
334,3550045,0,0.0,179.11,,-0.03,-0.06,0.99,0.0,0.0,0.0,0.99,1.08,92.0,1237.0,0.0,3.42,,14.18,1.248,102.4,,13.3,5.0,0.0,0.0,0.0,0.0,0.0,0.0,0.0,0.0,2.27,,,0,0,0,0,0,0,0,0,0,0,0,0,0,0,0,0,0.0,,,,0.0,0.0,0.0,0.0,0.0,0.0,0.0
335,3550065,0,,,,,,,,,,,,,,,,,,,,,,,,,,,,,,,,,,0,0,0,0,0,0,0,0,0,0,0,0,0,0,0,0,,,,,,,,,,,
336,3550085,0,0.0,178.98,,-0.03,-0.02,0.99,0.0,0.0,0.0,0.99,1.08,92.0,1104.0,0.0,3.43,,14.18,1.248,102.4,,13.1,5.0,,,,,,,,,,,,0,0,0,0,0,0,0,0,0,0,0,0,0,0,0,0,,,,,0.0,,,,,,
337,3550105,0,,,,,,,,,,,,,,,,,,,,,,,,,,,,,,,,,,0,0,0,0,0,0,0,0,0,0,0,0,0,0,0,0,,,,,,,,,,,
338,3550125,0,0.0,178.98,,-0.02,-0.04,0.98,0.0,0.0,0.0,0.98,1.08,91.0,1104.0,0.0,3.43,,14.2,1.248,102.4,,13.1,5.0,,,,,,,,,,,,0,0,0,0,0,0,0,0,0,0,0,0,0,0,0,0,,,,,0.0,,,,,,
339,3550145,0,,,,,,,,,,,,,,,,,,,,,,,0.0,0.0,0.0,0.0,0.0,0.0,0.0,0.0,2.27,,,0,0,0,0,0,0,0,0,0,0,0,0,0,0,0,0,0.0,,,,,0.0,0.0,0.0,0.0,0.0,0.0
340,3550165,0,0.0,178.98,,-0.02,-0.03,0.98,0.0,0.0,0.0,0.98,1.08,91.0,1275.0,0.0,3.43,,14.18,1.249,102.4,,13.2,5.0,,,,,,,,,,,,0,0,0,0,0,0,0,0,0,0,0,0,0,0,0,0,,,,,0.0,,,,,,
341,3550185,0,,,,,,,,,,,,,,,,,,,,,,,,,,,,,,,,,,0,0,0,0,0,0,0,0,0,0,0,0,0,0,0,0,,,,,,,,,,,
342,3550205,0,0.0,179.11,,-0.01,-0.03,1.0,0.0,0.0,0.0,1.0,1.08,93.0,1160.0,0.0,3.42,,14.22,1.25,102.4,,13.2,5.0,,,,,,,,,,,,0,0,0,0,0,0,0,0,0,0,0,0,0,0,0,0,,,,,0.0,,,,,,
343,3550225,0,,,,,,,,,,,,,,,,,,,,,,,,,,,,,,,,,,0,0,0,0,0,0,0,0,0,0,0,0,0,0,0,0,,,,,,,,,,,
344,3550245,0,0.0,178.98,,-0.02,-0.02,0.99,0.0,0.0,0.0,0.99,1.08,92.0,1307.0,0.0,3.43,,14.2,1.25,102.4,,13.2,5.0,0.0,0.0,0.0,0.0,0.0,0.0,0.0,0.0,2.27,,,0,0,0,0,0,0,0,0,0,0,0,0,0,0,0,0,0.0,,,,0.0,0.0,0.0,0.0,0.0,0.0,0.0
345,3550265,0,,,,,,,,,,,,,,,,,,,,,,,,,,,,,,,,,,0,0,0,0,0,0,0,0,0,0,0,0,0,0,0,0,,,,,,,,,,,
346,3550285,0,0.0,179.11,,-0.02,-0.03,0.99,0.0,0.0,0.0,0.99,1.08,92.0,1173.0,0.0,3.42,,14.2,1.25,102.4,,13.3,5.0,,,,,,,,,,,,0,0,0,0,0,0,0,0,0,0,0,0,0,0,0,0,,,,,0.0,,,,,,
347,3550305,0,,,,,,,,,,,,,,,,,,,,,,,,,,,,,,,,,,0,0,0,0,0,0,0,0,0,0,0,0,0,0,0,0,,,,,,,,,,,
348,3550325,0,0.0,178.98,,-0.02,-0.03,1.0,0.0,0.0,0.0,1.0,1.08,93.0,1173.0,0.0,3.42,,14.24,1.248,102.4,,13.3,5.0,,,,,,,,,,,,0,0,0,0,0,0,0,0,0,0,0,0,0,0,0,0,,,,,0.0,,,,,,
349,3550345,0,,,,,,,,,,,,,,,,,,,,,,,0.0,0.0,0.0,0.0,0.0,0.0,0.0,0.0,2.26,,,0,0,0,0,0,0,0,0,0,0,0,0,0,0,0,0,0.0,,,,,0.0,0.0,0.0,0.0,0.0,0.0
350,3550365,0,0.0,179.11,,-0.03,-0.03,1.01,0.0,0.0,0.0,1.01,1.08,94.0,1285.0,0.0,3.42,,14.23,1.25,102.4,,13.2,5.0,,,,,,,,,,,,0,0,0,0,0,0,0,0,0,0,0,0,0,0,0,0,,,,,0.0,,,,,,
351,3550385,0,,,,,,,,,,,,,,,,,,,,,,,,,,,,,,,,,,0,0,0,0,0,0,0,0,0,0,0,0,0,0,0,0,,,,,,,,,,,
352,3550405,0,0.0,179.11,,-0.02,-0.01,1.01,0.0,0.0,0.0,1.01,1.08,94.0,1172.0,0.0,3.42,,14.31,1.249,102.4,,13.2,5.0,,,,,,,,,,,,0,0,0,0,0,0,0,0,0,0,0,0,0,0,0,0,,,,,0.0,,,,,,
353,3550425,0,,,,,,,,,,,,,,,,,,,,,,,,,,,,,,,,,,0,0,0,0,0,0,0,0,0,0,0,0,0,0,0,0,,,,,,,,,,,
354,3550445,0,0.0,178.98,,-0.03,0.0,1.01,0.0,0.0,0.0,1.01,1.08,94.0,1293.0,0.0,3.4,,14.27,1.249,102.4,,13.2,5.0,0.0,0.0,0.0,0.0,0.0,0.0,0.0,0.0,2.26,,,0,0,0,0,0,0,0,0,0,0,0,0,0,0,0,0,0.0,,,,0.0,0.0,0.0,0.0,0.0,0.0,0.0
355,3550465,0,,,,,,,,,,,,,,,,,,,,,,,,,,,,,,,,,,0,0,0,0,0,0,0,0,0,0,0,0,0,0,0,0,,,,,,,,,,,
356,3550485,0,0.0,179.11,,-0.06,-0.02,1.0,0.0,0.0,0.0,1.0,1.08,93.0,1174.0,0.0,3.4,,14.27,1.249,102.4,,13.3,5.0,,,,,,,,,,,,0,0,0,0,0,0,0,0,0,0,0,0,0,0,0,0,,,,,0.0,,,,,,
357,3550505,0,,,,,,,,,,,,,,,,,,,,,,,,,,,,,,,,,,0,0,0,0,0,0,0,0,0,0,0,0,0,0,0,0,,,,,,,,,,,
358,3550525,0,0.0,178.98,,-0.07,-0.0,1.0,0.0,0.0,0.0,1.0,1.08,93.0,1174.0,0.0,3.4,,14.32,1.248,102.4,,13.3,5.0,,,,,,,,,,,,0,0,0,0,0,0,0,0,0,0,0,0,0,0,0,0,,,,,0.0,,,,,,
359,3550545,0,,,,,,,,,,,,,,,,,,,,,,,0.0,0.0,0.0,0.0,0.0,0.0,0.0,0.0,2.27,,,0,0,0,0,0,0,0,0,0,0,0,0,0,0,0,0,0.0,,,,,0.0,0.0,0.0,0.0,0.0,0.0
360,3550565,0,0.0,179.11,,-0.06,-0.01,1.0,0.0,0.0,0.0,1.0,1.08,93.0,1327.0,0.0,3.41,,14.27,1.248,102.4,,13.6,5.0,,,,,,,,,,,,0,0,0,0,0,0,0,0,0,0,0,0,0,0,0,0,,,,,0.0,,,,,,
361,3550585,0,,,,,,,,,,,,,,,,,,,,,,,,,,,,,,,,,,0,0,0,0,0,0,0,0,0,0,0,0,0,0,0,0,,,,,,,,,,,
362,3550605,0,0.0,179.11,,-0.06,0.0,1.0,0.0,0.0,0.0,1.0,1.08,93.0,1211.0,0.0,3.4,,14.27,1.248,102.4,,13.6,5.0,,,,,,,,,,,,0,0,0,0,0,0,0,0,0,0,0,0,0,0,0,0,,,,,0.0,,,,,,
363,3550625,0,,,,,,,,,,,,,,,,,,,,,,,,,,,,,,,,,,0,0,0,0,0,0,0,0,0,0,0,0,0,0,0,0,,,,,,,,,,,
364,3550645,0,0.0,179.11,,-0.06,-0.01,1.01,0.0,0.0,0.0,1.01,1.08,94.0,1282.0,0.0,3.41,,14.27,1.249,102.4,,13.6,5.0,0.0,0.0,0.0,0.0,0.0,0.0,0.0,0.0,2.27,,,0,0,0,0,0,0,0,0,0,0,0,0,0,0,0,0,0.0,,,,0.0,0.0,0.0,0.0,0.0,0.0,0.0
365,3550665,0,,,,,,,,,,,,,,,,,,,,,,,,,,,,,,,,,,0,0,0,0,0,0,0,0,0,0,0,0,0,0,0,0,,,,,,,,,,,
366,3550685,0,0.0,179.11,,-0.06,-0.03,0.99,0.0,0.0,0.0,0.99,1.08,92.0,1360.0,0.0,3.41,,14.27,1.249,102.4,,13.4,5.0,,,,,,,,,,,,0,0,0,0,0,0,0,0,0,0,0,0,0,0,0,0,,,,,0.0,,,,,,
367,3550705,0,,,,,,,,,,,,,,,,,,,,,,,,,,,,,,,,,,0,0,0,0,0,0,0,0,0,0,0,0,0,0,0,0,,,,,,,,,,,
368,3550725,0,0.0,179.11,,-0.06,-0.04,0.98,0.0,0.0,0.0,0.98,1.08,92.0,1360.0,0.0,3.41,,14.19,1.25,102.4,,13.4,5.0,,,,,,,,,,,,0,0,0,0,0,0,0,0,0,0,0,0,0,0,0,0,,,,,0.0,,,,,,
369,3550745,0,,,,,,,,,,,,,,,,,,,,,,,0.0,0.0,0.0,0.0,0.0,0.0,0.0,0.0,2.27,,,0,0,0,0,0,0,0,0,0,0,0,0,0,0,0,0,0.0,,,,,0.0,0.0,0.0,0.0,0.0,0.0
370,3550765,0,0.0,178.98,,-0.05,-0.04,0.99,1.0,0.0,0.0,0.99,1.08,92.0,1227.0,0.0,3.42,,14.16,1.25,102.4,,13.5,5.0,,,,,,,,,,,,0,0,0,0,0,0,0,0,0,0,0,0,0,0,0,0,,,,,0.0,,,,,,
371,3550785,0,,,,,,,,,,,,,,,,,,,,,,,,,,,,,,,,,,0,0,0,0,0,0,0,0,0,0,0,0,0,0,0,0,,,,,,,,,,,
372,3550805,0,0.0,179.11,,-0.05,-0.04,0.99,1.0,0.0,0.0,1.0,1.08,93.0,1310.0,0.0,3.43,,14.16,1.25,102.4,,13.5,5.0,,,,,,,,,,,,0,0,0,0,0,0,0,0,0,0,0,0,0,0,0,0,,,,,0.0,,,,,,
373,3550825,0,,,,,,,,,,,,,,,,,,,,,,,,,,,,,,,,,,0,0,0,0,0,0,0,0,0,0,0,0,0,0,0,0,,,,,,,,,,,
374,3550845,0,0.0,179.11,13.66,-0.06,-0.04,0.99,1.0,0.0,0.0,0.99,1.08,92.0,1214.0,0.0,3.41,15.0,14.18,1.25,102.4,180.0,13.5,5.0,0.0,0.0,0.0,0.0,0.0,0.0,0.0,0.0,2.26,0.0,1.0,0,0,0,0,0,0,0,0,0,0,0,0,0,0,0,0,0.0,0.0,0.0,0.0,0.0,0.0,0.0,0.0,0.0,0.0,0.0
375,3550865,0,,,,,,,,,,,,,,,,,,,,,,,,,,,,,,,,,,0,0,0,0,0,0,0,0,0,0,0,0,0,0,0,0,,,,,,,,,,,
376,3550885,0,0.0,179.11,,-0.08,-0.05,0.99,1.0,0.0,0.0,1.0,1.08,93.0,1362.0,0.0,3.42,,14.18,1.25,102.4,,13.8,5.0,,,,,,,,,,,,0,0,0,0,0,0,0,0,0,0,0,0,0,0,0,0,,,,,0.0,,,,,,
377,3550905,0,,,,,,,,,,,,,,,,,,,,,,,,,,,,,,,,,,0,0,0,0,0,0,0,0,0,0,0,0,0,0,0,0,,,,,,,,,,,
378,3550925,0,0.0,178.98,,-0.08,-0.04,0.98,0.0,0.0,0.0,0.99,1.08,92.0,1362.0,0.0,3.42,,14.26,1.25,102.4,,13.8,5.0,,,,,,,,,,,,0,0,0,0,0,0,0,0,0,0,0,0,0,0,0,0,,,,,0.0,,,,,,
379,3550945,0,,,,,,,,,,,,,,,,,,,,,,,0.0,0.0,0.0,0.0,0.0,0.0,0.0,0.0,2.26,,,0,0,0,0,0,0,0,0,0,0,0,0,0,0,0,0,0.0,,,,,0.0,0.0,0.0,0.0,0.0,0.0
380,3550965,0,0.0,179.11,,-0.07,-0.07,0.96,0.0,0.0,0.0,0.96,1.08,89.0,1223.0,0.0,3.42,,14.28,1.249,102.4,,14.0,5.0,,,,,,,,,,,,0,0,0,0,0,0,0,0,0,0,0,0,0,0,0,0,,,,,0.0,,,,,,
381,3550985,0,,,,,,,,,,,,,,,,,,,,,,,,,,,,,,,,,,0,0,0,0,0,0,0,0,0,0,0,0,0,0,0,0,,,,,,,,,,,
382,3551005,0,0.0,179.11,,-0.06,-0.06,0.96,0.0,0.0,0.0,0.96,1.08,90.0,1329.0,0.0,3.42,,14.24,1.248,102.4,,14.0,5.0,,,,,,,,,,,,0,0,0,0,0,0,0,0,0,0,0,0,0,0,0,0,,,,,0.0,,,,,,
383,3551025,0,,,,,,,,,,,,,,,,,,,,,,,,,,,,,,,,,,0,0,0,0,0,0,0,0,0,0,0,0,0,0,0,0,,,,,,,,,,,
384,3551045,0,0.0,179.11,,-0.04,-0.08,0.96,0.0,0.0,0.0,0.96,1.08,90.0,1229.0,0.0,3.41,,14.23,1.248,102.4,,14.0,5.0,0.0,0.0,0.0,0.0,0.0,0.0,0.0,0.0,2.27,,,0,0,0,0,0,0,0,0,0,0,0,0,0,0,0,0,0.0,,,,0.0,0.0,0.0,0.0,0.0,0.0,0.0
385,3551065,0,,,,,,,,,,,,,,,,,,,,,,,,,,,,,,,,,,0,0,0,0,0,0,0,0,0,0,0,0,0,0,0,0,,,,,,,,,,,
386,3551085,0,0.0,179.11,,-0.03,-0.06,0.97,0.0,0.0,0.0,0.97,1.08,91.0,1395.0,0.0,3.42,,14.23,1.248,102.4,,14.1,5.0,,,,,,,,,,,,0,0,0,0,0,0,0,0,0,0,0,0,0,0,0,0,,,,,0.0,,,,,,
387,3551105,0,,,,,,,,,,,,,,,,,,,,,,,,,,,,,,,,,,0,0,0,0,0,0,0,0,0,0,0,0,0,0,0,0,,,,,,,,,,,
388,3551125,0,0.0,179.11,,-0.05,-0.05,0.97,0.0,0.0,0.0,0.98,1.08,91.0,1395.0,0.0,3.42,,14.12,1.248,102.4,,14.1,5.0,,,,,,,,,,,,0,0,0,0,0,0,0,0,0,0,0,0,0,0,0,0,,,,,0.0,,,,,,
389,3551145,0,,,,,,,,,,,,,,,,,,,,,,,0.0,0.0,0.0,0.0,0.0,0.0,0.0,0.0,2.27,,,0,0,0,0,0,0,0,0,0,0,0,0,0,0,0,0,0.0,,,,,0.0,0.0,0.0,0.0,0.0,0.0
390,3551165,0,0.0,179.11,,-0.06,-0.07,0.97,0.0,0.0,0.0,0.98,1.08,91.0,1269.0,0.0,3.4,,14.18,1.249,102.4,,14.1,5.0,,,,,,,,,,,,0,0,0,0,0,0,0,0,0,0,0,0,0,0,0,0,,,,,0.0,,,,,,
391,3551185,0,,,,,,,,,,,,,,,,,,,,,,,,,,,,,,,,,,0,0,0,0,0,0,0,0,0,0,0,0,0,0,0,0,,,,,,,,,,,
392,3551205,0,0.0,179.11,,-0.06,-0.07,0.98,0.0,0.0,0.0,0.98,1.08,91.0,1335.0,0.0,3.43,,14.2,1.25,102.4,,14.1,5.0,,,,,,,,,,,,0,0,0,0,0,0,0,0,0,0,0,0,0,0,0,0,,,,,0.0,,,,,,
393,3551225,0,,,,,,,,,,,,,,,,,,,,,,,,,,,,,,,,,,0,0,0,0,0,0,0,0,0,0,0,0,0,0,0,0,,,,,,,,,,,
394,3551245,0,0.0,179.24,,-0.06,-0.06,0.97,1.0,0.0,0.0,0.98,1.08,91.0,1221.0,0.0,3.41,,14.3,1.25,102.4,,14.1,5.0,0.0,0.0,0.0,0.0,0.0,0.0,0.0,0.0,2.27,,,0,0,0,0,0,0,0,0,0,0,0,0,0,0,0,0,0.0,,,,0.0,0.0,0.0,0.0,0.0,0.0,0.0
395,3551265,0,,,,,,,,,,,,,,,,,,,,,,,,,,,,,,,,,,0,0,0,0,0,0,0,0,0,0,0,0,0,0,0,0,,,,,,,,,,,
396,3551285,0,0.0,179.24,,-0.06,-0.05,0.97,1.0,0.0,0.0,0.97,1.08,91.0,1342.0,0.0,3.43,,14.3,1.25,102.4,,14.2,5.0,,,,,,,,,,,,0,0,0,0,0,0,0,0,0,0,0,0,0,0,0,0,,,,,0.0,,,,,,
397,3551305,0,,,,,,,,,,,,,,,,,,,,,,,,,,,,,,,,,,0,0,0,0,0,0,0,0,0,0,0,0,0,0,0,0,,,,,,,,,,,
398,3551325,0,0.0,179.24,,-0.06,-0.03,0.98,1.0,0.0,0.0,0.98,1.08,91.0,1342.0,0.0,3.43,,14.27,1.251,102.4,,14.2,5.0,,,,,,,,,,,,0,0,0,0,0,0,0,0,0,0,0,0,0,0,0,0,,,,,0.0,,,,,,
399,3551345,0,,,,,,,,,,,,,,,,,,,,,,,0.0,0.0,0.0,0.0,0.0,0.0,0.0,0.0,2.26,,,0,0,0,0,0,0,0,0,0,0,0,0,0,0,0,0,0.0,,,,,0.0,0.0,0.0,0.0,0.0,0.0
400,3551365,0,0.0,179.24,,-0.05,-0.02,0.99,1.0,0.0,0.0,0.99,1.08,92.0,1230.0,0.0,3.42,,14.24,1.251,102.4,,14.5,5.0,,,,,,,,,,,,0,0,0,0,0,0,0,0,0,0,0,0,0,0,0,0,,,,,0.0,,,,,,
401,3551385,0,,,,,,,,,,,,,,,,,,,,,,,,,,,,,,,,,,0,0,0,0,0,0,0,0,0,0,0,0,0,0,0,0,,,,,,,,,,,
402,3551405,0,0.0,179.24,,-0.07,-0.01,0.98,1.0,0.0,0.0,0.98,1.08,91.0,1352.0,0.0,3.42,,14.2,1.251,102.4,,14.5,5.0,,,,,,,,,,,,0,0,0,0,0,0,0,0,0,0,0,0,0,0,0,0,,,,,0.0,,,,,,
403,3551425,0,,,,,,,,,,,,,,,,,,,,,,,,,,,,,,,,,,0,0,0,0,0,0,0,0,0,0,0,0,0,0,0,0,,,,,,,,,,,
404,3551445,0,0.0,179.24,,-0.1,-0.02,0.98,1.0,0.0,0.0,0.99,1.08,92.0,1327.0,0.0,3.43,,14.15,1.249,102.4,,14.5,5.0,0.0,0.0,0.0,0.0,0.0,0.0,0.0,0.0,2.26,,,0,0,0,0,0,0,0,0,0,0,0,0,0,0,0,0,0.0,,,,0.0,0.0,0.0,0.0,0.0,0.0,0.0
405,3551465,0,,,,,,,,,,,,,,,,,,,,,,,,,,,,,,,,,,0,0,0,0,0,0,0,0,0,0,0,0,0,0,0,0,,,,,,,,,,,
406,3551485,0,0.0,179.11,,-0.09,-0.01,0.98,0.0,0.0,0.0,0.98,1.08,91.0,1233.0,0.0,3.41,,14.15,1.249,102.4,,14.5,5.0,,,,,,,,,,,,0,0,0,0,0,0,0,0,0,0,0,0,0,0,0,0,,,,,0.0,,,,,,
407,3551505,0,,,,,,,,,,,,,,,,,,,,,,,,,,,,,,,,,,0,0,0,0,0,0,0,0,0,0,0,0,0,0,0,0,,,,,,,,,,,
408,3551525,0,0.0,179.11,,-0.09,-0.05,0.96,1.0,0.0,0.0,0.96,1.08,90.0,1233.0,0.0,3.41,,14.14,1.248,102.4,,14.5,5.0,,,,,,,,,,,,0,0,0,0,0,0,0,0,0,0,0,0,0,0,0,0,,,,,0.0,,,,,,
409,3551545,0,,,,,,,,,,,,,,,,,,,,,,,0.0,0.0,0.0,0.0,0.0,0.0,0.0,0.0,2.27,,,0,0,0,0,0,0,0,0,0,0,0,0,0,0,0,0,0.0,,,,,0.0,0.0,0.0,0.0,0.0,0.0
410,3551565,0,0.0,179.11,,-0.08,-0.05,0.96,1.0,0.0,0.0,0.96,1.08,89.0,1387.0,0.0,3.43,,14.23,1.247,102.4,,14.6,5.0,,,,,,,,,,,,0,0,0,0,0,0,0,0,0,0,0,0,0,0,0,0,,,,,0.0,,,,,,
411,3551585,0,,,,,,,,,,,,,,,,,,,,,,,,,,,,,,,,,,0,0,0,0,0,0,0,0,0,0,0,0,0,0,0,0,,,,,,,,,,,
412,3551605,0,0.0,179.11,,-0.08,-0.03,0.99,0.0,0.0,0.0,0.99,1.08,92.0,1272.0,0.0,3.4,,14.27,1.248,102.4,,14.6,5.0,,,,,,,,,,,,0,0,0,0,0,0,0,0,0,0,0,0,0,0,0,0,,,,,0.0,,,,,,
413,3551625,0,,,,,,,,,,,,,,,,,,,,,,,,,,,,,,,,,,0,0,0,0,0,0,0,0,0,0,0,0,0,0,0,0,,,,,,,,,,,
414,3551645,0,0.0,179.24,,-0.09,-0.01,0.99,0.0,0.0,0.0,0.99,1.08,93.0,1386.0,0.0,3.43,,14.16,1.25,102.4,,14.6,5.0,0.0,0.0,0.0,0.0,0.0,0.0,0.0,0.0,2.26,,,0,0,0,0,0,0,0,0,0,0,0,0,0,0,0,0,0.0,,,,0.0,0.0,0.0,0.0,0.0,0.0,0.0
415,3551665,0,,,,,,,,,,,,,,,,,,,,,,,,,,,,,,,,,,0,0,0,0,0,0,0,0,0,0,0,0,0,0,0,0,,,,,,,,,,,
416,3551685,0,0.0,179.24,,-0.08,-0.03,0.97,0.0,0.0,0.0,0.97,1.08,90.0,1290.0,0.0,3.4,,14.16,1.25,102.4,,14.3,5.0,,,,,,,,,,,,0,0,0,0,0,0,0,0,0,0,0,0,0,0,0,0,,,,,0.0,,,,,,
417,3551705,0,,,,,,,,,,,,,,,,,,,,,,,,,,,,,,,,,,0,0,0,0,0,0,0,0,0,0,0,0,0,0,0,0,,,,,,,,,,,
418,3551725,0,0.0,179.24,,-0.07,-0.05,0.96,0.0,0.0,0.0,0.96,1.08,89.0,1290.0,0.0,3.4,,14.16,1.252,102.4,,14.3,5.0,,,,,,,,,,,,0,0,0,0,0,0,0,0,0,0,0,0,0,0,0,0,,,,,0.0,,,,,,
419,3551745,0,,,,,,,,,,,,,,,,,,,,,,,0.0,0.0,0.0,0.0,0.0,0.0,0.0,0.0,2.27,,,0,0,0,0,0,0,0,0,0,0,0,0,0,0,0,0,0.0,,,,,0.0,0.0,0.0,0.0,0.0,0.0
420,3551765,0,0.0,179.11,,-0.06,-0.04,0.96,0.0,0.0,0.0,0.96,1.08,90.0,1359.0,0.0,3.42,,14.15,1.251,102.4,,13.7,5.0,,,,,,,,,,,,0,0,0,0,0,0,0,0,0,0,0,0,0,0,0,0,,,,,0.0,,,,,,
421,3551785,0,,,,,,,,,,,,,,,,,,,,,,,,,,,,,,,,,,0,0,0,0,0,0,0,0,0,0,0,0,0,0,0,0,,,,,,,,,,,
422,3551805,0,0.0,179.24,,-0.05,-0.06,0.97,1.0,0.0,0.0,0.97,1.08,91.0,1224.0,0.0,3.42,,14.24,1.251,102.4,,13.7,5.0,,,,,,,,,,,,0,0,0,0,0,0,0,0,0,0,0,0,0,0,0,0,,,,,0.0,,,,,,
423,3551825,0,,,,,,,,,,,,,,,,,,,,,,,,,,,,,,,,,,0,0,0,0,0,0,0,0,0,0,0,0,0,0,0,0,,,,,,,,,,,
