,Interval,Utc,FrontBP,SteerAng,Battery,AccelX,AccelY,AccelZ,Yaw,Pitch,Roll,Gsum,GsumMax,GsumPct,RPM,TPS,InjectorPW,Baro,MAP,Lambda,IAT,EngineTemp,EOP,EOT,WSFR,WSFL,WSRR,WSRL,TCSet,TCSlip,TCComp,TCCut,Analog8,OilTemp,AA_On,ThermLF1,ThermLF2,ThermRR1,ThermRR2,ThermLF3,ThermLF4,ThermLF5,ThermLF6,ThermLF7,ThermLF8,ThermRR3,ThermRR4,ThermRR5,ThermRR6,ThermRR7,ThermRR8,AA_LowDrag,Gear,AA_On1,AA_LowDrag1,Fuel_Mix,AA_Packages,Latitude,Longitude,Speed,Altitude,GPSSats,GPSQual,GPSDOP
0,1941695,1745300437260,0.0,-61.0,,-0.09,0.03,1.01,0.0,0.0,0.0,1.02,1.02,100.0,3636.0,6.2,3.89,,12.83,1.193,104.2,,24.7,5.0,,,,,,,,,,,,0,0,0,0,0,0,0,0,0,0,0,0,0,0,0,0,,,,,,0.0,,,,,,,
1,1941715,1745300437280,,,,,,,,,,,,,,,,,,,,,,,,,,,,,,,,,,0,0,0,0,0,0,0,0,0,0,0,0,0,0,0,0,,,,,,,,,,,,,
2,1941735,1745300437302,0.0,-46.0,,-0.08,0.06,0.99,2.0,0.0,0.0,1.0,1.02,98.0,3490.0,6.3,3.88,,12.8,1.222,104.2,,25.1,5.0,,,,,,,,,,,,0,0,0,0,0,0,0,0,0,0,0,0,0,0,0,0,,,,,,0.0,,,,,,,
3,1941755,1745300437322,,,,,,,,,,,,,,,,,,,,,,,,,,,,,,,,,,0,0,0,0,0,0,0,0,0,0,0,0,0,0,0,0,,,,,,,,,,,,,
4,1941775,1745300437342,0.0,-57.0,,-0.1,0.04,0.95,3.0,0.0,0.0,0.95,1.02,94.0,3654.0,6.4,3.88,,12.75,1.25,104.2,,25.1,5.0,0.0,0.0,0.0,0.0,0.0,0.0,0.0,0.0,2.25,,,0,0,0,0,0,0,0,0,0,0,0,0,0,0,0,0,,0.0,,,,0.0,38.986019,-76.950005,0.08,49.9,32.0,3.0,0.8
5,1941795,1745300437362,,,,,,,,,,,,,,,,,,,,,,,,,,,,,,,,,,0,0,0,0,0,0,0,0,0,0,0,0,0,0,0,0,,,,,,,,,,,,,
6,1941815,1745300437382,0.0,-38.0,,-0.12,0.04,0.95,2.0,0.0,0.0,0.95,1.02,94.0,3640.0,6.4,3.86,,12.71,1.236,104.2,,25.1,5.0,,,,,,,,,,,,0,0,0,0,0,0,0,0,0,0,0,0,0,0,0,0,,,,,,0.0,,,,,,,
7,1941835,1745300437402,,,,,,,,,,,,,,,,,,,,,,,,,,,,,,,,,,0,0,0,0,0,0,0,0,0,0,0,0,0,0,0,0,,,,,,,,,,,,,
8,1941855,1745300437422,0.0,-53.0,,-0.11,-0.01,0.96,1.0,0.0,0.0,0.96,1.02,95.0,3663.0,6.4,3.85,,12.71,1.236,104.2,,25.6,5.0,,,,,,,,,,,,0,0,0,0,0,0,0,0,0,0,0,0,0,0,0,0,,,,,,0.0,,,,,,,
9,1941875,1745300437442,,,,,,,,,,,,,,,,,,,,,,,0.0,0.0,0.0,0.0,0.0,0.0,0.0,0.0,2.26,,,0,0,0,0,0,0,0,0,0,0,0,0,0,0,0,0,,0.0,,,,,38.986019,-76.950005,0.14,49.9,32.0,3.0,0.8
10,1941895,1745300437462,0.0,-76.0,,-0.11,-0.08,0.95,0.0,0.0,0.0,0.96,1.02,95.0,3663.0,6.4,3.85,,12.68,1.223,104.2,,25.6,5.0,,,,,,,,,,,,0,0,0,0,0,0,0,0,0,0,0,0,0,0,0,0,,,,,,0.0,,,,,,,
11,1941915,1745300437482,,,,,,,,,,,,,,,,,,,,,,,,,,,,,,,,,,0,0,0,0,0,0,0,0,0,0,0,0,0,0,0,0,,,,,,,,,,,,,
12,1941935,1745300437503,0.0,-57.0,,-0.1,-0.07,0.99,-1.0,0.0,0.0,0.99,1.02,98.0,3669.0,6.2,3.82,,12.65,1.201,104.2,,26.0,5.0,,,,,,,,,,,,0,0,0,0,0,0,0,0,0,0,0,0,0,0,0,0,,,,,,0.0,,,,,,,
13,1941955,1745300437523,,,,,,,,,,,,,,,,,,,,,,,,,,,,,,,,,,0,0,0,0,0,0,0,0,0,0,0,0,0,0,0,0,,,,,,,,,,,,,
14,1941975,1745300437543,0.0,-53.0,,-0.09,-0.04,0.99,-1.0,0.0,0.0,1.0,1.02,98.0,3717.0,6.2,3.83,,12.69,1.182,104.2,,26.0,5.0,0.0,0.0,0.0,0.0,0.0,0.0,0.0,0.0,2.26,,,0,0,0,0,0,0,0,0,0,0,0,0,0,0,0,0,,0.0,,,,0.0,38.986019,-76.950005,0.04,50.0,32.0,3.0,0.8
15,1941995,1745300437563,,,,,,,,,,,,,,,,,,,,,,,,,,,,,,,,,,0,0,0,0,0,0,0,0,0,0,0,0,0,0,0,0,,,,,,,,,,,,,
16,1942015,1745300437583,0.0,-42.0,,-0.09,-0.05,0.98,-1.0,0.0,0.0,0.99,1.02,97.0,3691.0,6.1,3.79,,12.69,1.159,104.2,,26.0,5.0,,,,,,,,,,,,0,0,0,0,0,0,0,0,0,0,0,0,0,0,0,0,,,,,,0.0,,,,,,,
17,1942035,1745300437603,,,,,,,,,,,,,,,,,,,,,,,,,,,,,,,,,,0,0,0,0,0,0,0,0,0,0,0,0,0,0,0,0,,,,,,,,,,,,,
18,1942055,1745300437623,0.0,-53.0,,-0.11,-0.03,0.99,-1.0,0.0,0.0,1.0,1.02,98.0,3747.0,6.1,3.78,,12.69,1.159,104.2,,25.9,5.0,,,,,,,,,,,,0,0,0,0,0,0,0,0,0,0,0,0,0,0,0,0,,,,,,0.0,,,,,,,
19,1942075,1745300437643,,,,,,,,,,,,,,,,,,,,,,,0.0,0.0,0.0,0.0,0.0,0.0,0.0,0.0,2.26,,,0,0,0,0,0,0,0,0,0,0,0,0,0,0,0,0,,0.0,,,,,38.986019,-76.950005,0.14,50.0,32.0,3.0,0.8
20,1942095,1745300437663,0.0,-53.0,,-0.1,-0.0,0.99,-1.0,0.0,0.0,1.0,1.02,98.0,3747.0,6.1,3.78,,12.69,1.17,104.2,,25.9,5.0,,,,,,,,,,,,0,0,0,0,0,0,0,0,0,0,0,0,0,0,0,0,,,,,,0.0,,,,,,,
21,1942115,1745300437683,,,,,,,,,,,,,,,,,,,,,,,,,,,,,,,,,,0,0,0,0,0,0,0,0,0,0,0,0,0,0,0,0,,,,,,,,,,,,,
22,1942135,1745300437703,0.0,-34.0,,-0.09,0.03,0.98,-1.0,0.0,0.0,0.99,1.02,97.0,3737.0,6.0,3.75,,12.61,1.177,104.2,,26.1,5.0,,,,,,,,,,,,0,0,0,0,0,0,0,0,0,0,0,0,0,0,0,0,,,,,,0.0,,,,,,,
23,1942155,1745300437723,,,,,,,,,,,,,,,,,,,,,,,,,,,,,,,,,,0,0,0,0,0,0,0,0,0,0,0,0,0,0,0,0,,,,,,,,,,,,,
24,1942175,1745300437743,0.0,-53.0,,-0.09,-0.0,0.97,0.0,0.0,0.0,0.98,1.02,96.0,3733.0,6.0,3.75,,12.57,1.18,104.2,,26.1,5.0,0.0,0.0,0.0,0.0,0.0,0.0,0.0,0.0,2.26,,,0,0,0,0,0,0,0,0,0,0,0,0,0,0,0,0,,0.0,,,,0.0,38.986019,-76.950005,0.12,50.0,32.0,3.0,0.8
25,1942195,1745300437763,,,,,,,,,,,,,,,,,,,,,,,,,,,,,,,,,,0,0,0,0,0,0,0,0,0,0,0,0,0,0,0,0,,,,,,,,,,,,,
26,1942215,1745300437783,0.0,-53.0,,-0.1,0.01,1.0,0.0,0.0,0.0,1.0,1.02,98.0,3713.0,6.0,3.74,,12.59,1.186,104.2,,26.1,5.0,,,,,,,,,,,,0,0,0,0,0,0,0,0,0,0,0,0,0,0,0,0,,,,,,0.0,,,,,,,
27,1942235,1745300437803,,,,,,,,,,,,,,,,,,,,,,,,,,,,,,,,,,0,0,0,0,0,0,0,0,0,0,0,0,0,0,0,0,,,,,,,,,,,,,
28,1942255,1745300437823,0.0,-68.0,,-0.08,0.04,1.01,0.0,0.0,0.0,1.01,1.02,99.0,3733.0,6.0,3.72,,12.59,1.186,104.2,,26.0,5.0,,,,,,,,,,,,0,0,0,0,0,0,0,0,0,0,0,0,0,0,0,0,,,,,,0.0,,,,,,,
29,1942275,1745300437843,,,,,,,,,,,,,,,,,,,,,,,0.0,0.0,0.0,0.0,0.0,0.0,0.0,0.0,2.26,,,0,0,0,0,0,0,0,0,0,0,0,0,0,0,0,0,,0.0,,,,,38.986019,-76.950005,0.0,50.0,32.0,3.0,0.8
30,1942295,1745300437863,0.0,-42.0,,-0.08,0.0,1.0,1.0,0.0,0.0,1.0,1.02,98.0,3733.0,6.0,3.72,,12.59,1.197,104.2,,26.0,5.0,,,,,,,,,,,,0,0,0,0,0,0,0,0,0,0,0,0,0,0,0,0,,,,,,0.0,,,,,,,
31,1942315,1745300437883,,,,,,,,,,,,,,,,,,,,,,,,,,,,,,,,,,0,0,0,0,0,0,0,0,0,0,0,0,0,0,0,0,,,,,,,,,,,,,
32,1942335,1745300437903,0.0,-38.0,,-0.07,0.03,1.01,1.0,0.0,0.0,1.01,1.02,99.0,3734.0,6.0,3.74,,12.6,1.192,104.2,,26.1,5.0,,,,,,,,,,,,0,0,0,0,0,0,0,0,0,0,0,0,0,0,0,0,,,,,,0.0,,,,,,,
33,1942355,1745300437923,,,,,,,,,,,,,,,,,,,,,,,,,,,,,,,,,,0,0,0,0,0,0,0,0,0,0,0,0,0,0,0,0,,,,,,,,,,,,,
34,1942375,1745300437943,0.0,-38.0,,-0.07,0.02,1.03,1.0,0.0,0.0,1.03,1.03,100.0,3704.0,6.0,3.74,,12.53,1.187,104.2,,26.1,5.0,0.0,0.0,0.0,0.0,0.0,0.0,0.0,0.0,2.26,,,0,0,0,0,0,0,0,0,0,0,0,0,0,0,0,0,,0.0,,,,0.0,38.986019,-76.950005,0.11,50.0,32.0,3.0,0.8
35,1942395,1745300437963,,,,,,,,,,,,,,,,,,,,,,,,,,,,,,,,,,0,0,0,0,0,0,0,0,0,0,0,0,0,0,0,0,,,,,,,,,,,,,
36,1942415,1745300437983,0.0,-27.0,,-0.06,0.01,1.02,2.0,0.0,0.0,1.02,1.03,99.0,3735.0,5.9,3.74,,12.56,1.196,104.2,,26.1,5.0,,,,,,,,,,,,0,0,0,0,0,0,0,0,0,0,0,0,0,0,0,0,,,,,,0.0,,,,,,,
37,1942435,1745300437993,,,,,,,,,,,,,,,,,,,,,,,,,,,,,,,,,,0,0,0,0,0,0,0,0,0,0,0,0,0,0,0,0,,,,,,,,,,,,,
38,1942455,1745300438013,0.0,-61.0,,-0.07,0.03,1.0,2.0,0.0,0.0,1.0,1.03,97.0,3710.0,5.8,3.74,,12.56,1.196,104.2,,26.2,5.0,,,,,,,,,,,,0,0,0,0,0,0,0,0,0,0,0,0,0,0,0,0,,,,,,0.0,,,,,,,
39,1942475,1745300438033,,,,,,,,,,,,,,,,,,,,,,,0.0,0.0,0.0,0.0,0.0,0.0,0.0,0.0,2.26,,,0,0,0,0,0,0,0,0,0,0,0,0,0,0,0,0,,0.0,,,,,38.986019,-76.950005,0.04,50.0,32.0,3.0,0.8
40,1942495,1745300438053,0.0,-61.0,,-0.07,-0.0,1.01,2.0,0.0,0.0,1.01,1.03,98.0,3710.0,5.8,3.74,,12.57,1.183,104.2,,26.2,5.0,,,,,,,,,,,,0,0,0,0,0,0,0,0,0,0,0,0,0,0,0,0,,,,,,0.0,,,,,,,
41,1942515,1745300438073,,,,,,,,,,,,,,,,,,,,,,,,,,,,,,,,,,0,0,0,0,0,0,0,0,0,0,0,0,0,0,0,0,,,,,,,,,,,,,
42,1942535,1745300438097,0.0,-42.0,,-0.07,-0.03,1.02,2.0,0.0,0.0,1.02,1.03,99.0,3761.0,5.7,3.73,,12.51,1.18,104.2,,26.5,5.0,,,,,,,,,,,,0,0,0,0,0,0,0,0,0,0,0,0,0,0,0,0,,,,,,0.0,,,,,,,
43,1942555,1745300438117,,,,,,,,,,,,,,,,,,,,,,,,,,,,,,,,,,0,0,0,0,0,0,0,0,0,0,0,0,0,0,0,0,,,,,,,,,,,,,
44,1942575,1745300438137,0.0,-46.0,12.91,-0.07,-0.0,1.02,2.0,0.0,0.0,1.02,1.03,99.0,3728.0,5.7,3.73,15.0,12.52,1.188,104.2,176.0,26.5,5.0,0.0,0.0,0.0,0.0,0.0,0.0,0.0,0.0,2.26,0.0,1.0,0,0,0,0,0,0,0,0,0,0,0,0,0,0,0,0,0.0,0.0,1.0,0.0,0.0,0.0,38.986019,-76.950005,0.0,50.0,32.0,3.0,0.8
45,1942595,1745300438157,,,,,,,,,,,,,,,,,,,,,,,,,,,,,,,,,,0,0,0,0,0,0,0,0,0,0,0,0,0,0,0,0,,,,,,,,,,,,,
46,1942615,1745300438177,0.0,-53.0,,-0.07,0.02,1.01,2.0,0.0,0.0,1.01,1.03,98.0,3789.0,5.8,3.73,,12.49,1.196,104.2,,26.5,5.0,,,,,,,,,,,,0,0,0,0,0,0,0,0,0,0,0,0,0,0,0,0,,,,,,0.0,,,,,,,
47,1942635,1745300438201,,,,,,,,,,,,,,,,,,,,,,,,,,,,,,,,,,0,0,0,0,0,0,0,0,0,0,0,0,0,0,0,0,,,,,,,,,,,,,
48,1942655,1745300438221,0.0,-46.0,,-0.07,-0.0,1.0,2.0,0.0,0.0,1.01,1.03,98.0,3707.0,5.7,3.72,,12.49,1.196,104.2,,26.6,5.0,,,,,,,,,,,,0,0,0,0,0,0,0,0,0,0,0,0,0,0,0,0,,,,,,0.0,,,,,,,
49,1942675,1745300438241,,,,,,,,,,,,,,,,,,,,,,,0.0,0.0,0.0,0.0,0.0,0.0,0.0,0.0,2.26,,,0,0,0,0,0,0,0,0,0,0,0,0,0,0,0,0,,0.0,,,,,38.986019,-76.950005,0.07,50.0,32.0,3.0,0.8
50,1942695,1745300438261,0.0,-46.0,,-0.08,-0.03,1.0,2.0,0.0,0.0,1.01,1.03,97.0,3707.0,5.7,3.72,,12.57,1.18,104.2,,26.6,5.0,,,,,,,,,,,,0,0,0,0,0,0,0,0,0,0,0,0,0,0,0,0,,,,,,0.0,,,,,,,
51,1942715,1745300438281,,,,,,,,,,,,,,,,,,,,,,,,,,,,,,,,,,0,0,0,0,0,0,0,0,0,0,0,0,0,0,0,0,,,,,,,,,,,,,
52,1942735,1745300438303,0.0,-8.0,,-0.08,-0.03,0.98,2.0,0.0,0.0,0.98,1.03,95.0,3717.0,5.7,3.73,,12.52,1.189,104.2,,26.1,5.0,,,,,,,,,,,,0,0,0,0,0,0,0,0,0,0,0,0,0,0,0,0,,,,,,0.0,,,,,,,
53,1942755,1745300438323,,,,,,,,,,,,,,,,,,,,,,,,,,,,,,,,,,0,0,0,0,0,0,0,0,0,0,0,0,0,0,0,0,,,,,,,,,,,,,
54,1942775,1745300438343,0.0,-38.0,,-0.1,-0.01,0.96,2.0,0.0,0.0,0.97,1.03,94.0,3736.0,5.8,3.74,,12.6,1.196,104.2,,26.1,5.0,0.0,0.0,0.0,0.0,0.0,0.0,0.0,0.0,2.26,,,0,0,0,0,0,0,0,0,0,0,0,0,0,0,0,0,,0.0,,,,0.0,38.986019,-76.950005,0.08,50.0,32.0,3.0,0.8
55,1942795,1745300438363,,,,,,,,,,,,,,,,,,,,,,,,,,,,,,,,,,0,0,0,0,0,0,0,0,0,0,0,0,0,0,0,0,,,,,,,,,,,,,
56,1942815,1745300438383,0.0,3.0,,-0.11,0.0,0.96,1.0,0.0,0.0,0.96,1.03,93.0,3694.0,5.7,3.73,,12.51,1.193,104.2,,26.1,5.0,,,,,,,,,,,,0,0,0,0,0,0,0,0,0,0,0,0,0,0,0,0,,,,,,0.0,,,,,,,
57,1942835,1745300438403,,,,,,,,,,,,,,,,,,,,,,,,,,,,,,,,,,0,0,0,0,0,0,0,0,0,0,0,0,0,0,0,0,,,,,,,,,,,,,
58,1942855,1745300438423,0.0,-53.0,,-0.1,0.0,0.95,1.0,0.0,0.0,0.96,1.03,93.0,3706.0,5.7,3.73,,12.51,1.193,104.2,,26.0,5.0,,,,,,,,,,,,0,0,0,0,0,0,0,0,0,0,0,0,0,0,0,0,,,,,,0.0,,,,,,,
59,1942875,1745300438443,,,,,,,,,,,,,,,,,,,,,,,0.0,0.0,0.0,0.0,0.0,0.0,0.0,0.0,2.26,,,0,0,0,0,0,0,0,0,0,0,0,0,0,0,0,0,,0.0,,,,,38.986019,-76.950005,0.07,50.0,32.0,3.0,0.8
60,1942895,1745300438463,0.0,-61.0,,-0.1,-0.05,0.94,0.0,0.0,0.0,0.95,1.03,92.0,3706.0,5.7,3.73,,12.55,1.199,104.2,,26.0,5.0,,,,,,,,,,,,0,0,0,0,0,0,0,0,0,0,0,0,0,0,0,0,,,,,,0.0,,,,,,,
61,1942915,1745300438483,,,,,,,,,,,,,,,,,,,,,,,,,,,,,,,,,,0,0,0,0,0,0,0,0,0,0,0,0,0,0,0,0,,,,,,,,,,,,,
62,1942935,1745300438502,0.0,-38.0,,-0.1,-0.07,0.97,-1.0,0.0,0.0,0.98,1.03,95.0,3663.0,5.6,3.73,,12.56,1.203,104.2,,25.8,5.0,,,,,,,,,,,,0,0,0,0,0,0,0,0,0,0,0,0,0,0,0,0,,,,,,0.0,,,,,,,
63,1942955,1745300438522,,,,,,,,,,,,,,,,,,,,,,,,,,,,,,,,,,0,0,0,0,0,0,0,0,0,0,0,0,0,0,0,0,,,,,,,,,,,,,
64,1942975,1745300438542,0.0,-53.0,,-0.09,-0.1,0.99,-2.0,0.0,0.0,1.0,1.03,97.0,3715.0,5.5,3.72,,12.53,1.194,104.2,,25.8,5.0,0.0,0.0,0.0,0.0,0.0,0.0,0.0,0.0,2.26,,,0,0,0,0,0,0,0,0,0,0,0,0,0,0,0,0,,0.0,,,,0.0,38.986019,-76.950005,0.04,50.0,32.0,3.0,0.8
65,1942995,1745300438562,,,,,,,,,,,,,,,,,,,,,,,,,,,,,,,,,,0,0,0,0,0,0,0,0,0,0,0,0,0,0,0,0,,,,,,,,,,,,,
66,1943015,1745300438582,0.0,-34.0,,-0.09,-0.05,0.98,-2.0,0.0,0.0,0.98,1.03,95.0,3718.0,5.5,3.72,,12.56,1.181,104.2,,25.8,5.0,,,,,,,,,,,,0,0,0,0,0,0,0,0,0,0,0,0,0,0,0,0,,,,,,0.0,,,,,,,
67,1943035,1745300438602,,,,,,,,,,,,,,,,,,,,,,,,,,,,,,,,,,0,0,0,0,0,0,0,0,0,0,0,0,0,0,0,0,,,,,,,,,,,,,
68,1943055,1745300438622,0.0,-61.0,,-0.1,-0.05,0.96,-2.0,0.0,0.0,0.96,1.03,93.0,3759.0,5.4,3.72,,12.56,1.181,104.2,,26.3,5.0,,,,,,,,,,,,0,0,0,0,0,0,0,0,0,0,0,0,0,0,0,0,,,,,,0.0,,,,,,,
69,1943075,1745300438642,,,,,,,,,,,,,,,,,,,,,,,0.0,0.0,0.0,0.0,0.0,0.0,0.0,0.0,2.26,,,0,0,0,0,0,0,0,0,0,0,0,0,0,0,0,0,,0.0,,,,,38.986019,-76.950005,0.05,50.0,32.0,3.0,0.8
70,1943095,1745300438662,0.0,-53.0,,-0.1,-0.09,0.98,-2.0,0.0,0.0,0.99,1.03,96.0,3759.0,5.4,3.72,,12.49,1.189,104.2,,26.3,5.0,,,,,,,,,,,,0,0,0,0,0,0,0,0,0,0,0,0,0,0,0,0,,,,,,0.0,,,,,,,
71,1943115,1745300438682,,,,,,,,,,,,,,,,,,,,,,,,,,,,,,,,,,0,0,0,0,0,0,0,0,0,0,0,0,0,0,0,0,,,,,,,,,,,,,
72,1943135,1745300438702,0.0,-61.0,,-0.09,-0.1,0.99,-2.0,0.0,0.0,1.0,1.03,96.0,3735.0,5.4,3.71,,12.49,1.19,104.2,,25.9,5.0,,,,,,,,,,,,0,0,0,0,0,0,0,0,0,0,0,0,0,0,0,0,,,,,,0.0,,,,,,,
73,1943155,1745300438722,,,,,,,,,,,,,,,,,,,,,,,,,,,,,,,,,,0,0,0,0,0,0,0,0,0,0,0,0,0,0,0,0,,,,,,,,,,,,,
74,1943175,1745300438742,0.0,-53.0,,-0.09,-0.09,0.98,-1.0,0.0,0.0,0.98,1.03,95.0,3793.0,5.4,3.71,,12.45,1.198,104.2,,25.9,5.0,0.0,0.0,0.0,0.0,0.0,0.0,0.0,0.0,2.26,,,0,0,0,0,0,0,0,0,0,0,0,0,0,0,0,0,,0.0,,,,0.0,38.986019,-76.950005,0.11,50.0,32.0,3.0,0.8
75,1943195,1745300438762,,,,,,,,,,,,,,,,,,,,,,,,,,,,,,,,,,0,0,0,0,0,0,0,0,0,0,0,0,0,0,0,0,,,,,,,,,,,,,
76,1943215,1745300438782,0.0,-42.0,,-0.1,-0.1,0.96,-1.0,0.0,0.0,0.98,1.03,94.0,3752.0,5.4,3.71,,12.43,1.195,104.2,,25.9,5.0,,,,,,,,,,,,0,0,0,0,0,0,0,0,0,0,0,0,0,0,0,0,,,,,,0.0,,,,,,,
77,1943235,1745300438802,,,,,,,,,,,,,,,,,,,,,,,,,,,,,,,,,,0,0,0,0,0,0,0,0,0,0,0,0,0,0,0,0,,,,,,,,,,,,,
78,1943255,1745300438822,0.0,-46.0,,-0.09,-0.12,1.02,-1.0,0.0,0.0,1.03,1.03,99.0,3740.0,5.5,3.71,,12.43,1.195,104.2,,25.8,5.0,,,,,,,,,,,,0,0,0,0,0,0,0,0,0,0,0,0,0,0,0,0,,,,,,0.0,,,,,,,
79,1943275,1745300438842,,,,,,,,,,,,,,,,,,,,,,,0.0,0.0,0.0,0.0,0.0,0.0,0.0,0.0,2.26,,,0,0,0,0,0,0,0,0,0,0,0,0,0,0,0,0,,0.0,,,,,38.986019,-76.950005,0.11,50.0,32.0,3.0,0.8
80,1943295,1745300438862,0.0,-38.0,,-0.09,-0.13,1.01,-1.0,0.0,0.0,1.02,1.03,99.0,3740.0,5.5,3.71,,12.41,1.178,104.2,,25.8,5.0,,,,,,,,,,,,0,0,0,0,0,0,0,0,0,0,0,0,0,0,0,0,,,,,,0.0,,,,,,,
81,1943315,1745300438882,,,,,,,,,,,,,,,,,,,,,,,,,,,,,,,,,,0,0,0,0,0,0,0,0,0,0,0,0,0,0,0,0,,,,,,,,,,,,,
82,1943335,1745300438902,0.0,-27.0,,-0.09,-0.08,1.01,-1.0,0.0,0.0,1.02,1.03,98.0,3772.0,5.6,3.7,,12.47,1.17,104.2,,26.0,5.0,,,,,,,,,,,,0,0,0,0,0,0,0,0,0,0,0,0,0,0,0,0,,,,,,0.0,,,,,,,
83,1943355,1745300438922,,,,,,,,,,,,,,,,,,,,,,,,,,,,,,,,,,0,0,0,0,0,0,0,0,0,0,0,0,0,0,0,0,,,,,,,,,,,,,
84,1943375,1745300438942,0.0,-49.0,,-0.1,-0.07,1.0,-1.0,0.0,0.0,1.01,1.03,97.0,3689.0,5.6,3.71,,12.49,1.166,104.2,,26.0,5.0,0.0,0.0,0.0,0.0,0.0,0.0,0.0,0.0,2.26,,,0,0,0,0,0,0,0,0,0,0,0,0,0,0,0,0,,0.0,,,,0.0,38.986019,-76.950005,0.12,50.0,32.0,3.0,0.8
85,1943395,1745300438962,,,,,,,,,,,,,,,,,,,,,,,,,,,,,,,,,,0,0,0,0,0,0,0,0,0,0,0,0,0,0,0,0,,,,,,,,,,,,,
86,1943415,1745300438982,0.0,-46.0,,-0.1,-0.1,1.01,-2.0,0.0,0.0,1.01,1.03,98.0,3734.0,5.5,3.72,,12.48,1.17,104.2,,26.0,5.0,,,,,,,,,,,,0,0,0,0,0,0,0,0,0,0,0,0,0,0,0,0,,,,,,0.0,,,,,,,
87,1943435,1745300438994,,,,,,,,,,,,,,,,,,,,,,,,,,,,,,,,,,0,0,0,0,0,0,0,0,0,0,0,0,0,0,0,0,,,,,,,,,,,,,
88,1943455,1745300439014,0.0,-38.0,,-0.09,-0.08,1.0,-2.0,0.0,0.0,1.01,1.03,98.0,3708.0,5.5,3.71,,12.48,1.17,104.2,,26.2,5.0,,,,,,,,,,,,0,0,0,0,0,0,0,0,0,0,0,0,0,0,0,0,,,,,,0.0,,,,,,,
89,1943475,1745300439034,,,,,,,,,,,,,,,,,,,,,,,0.0,0.0,0.0,0.0,0.0,0.0,0.0,0.0,2.26,,,0,0,0,0,0,0,0,0,0,0,0,0,0,0,0,0,,0.0,,,,,38.986019,-76.950005,0.13,50.0,33.0,3.0,0.8
90,1943495,1745300439054,0.0,-42.0,,-0.09,-0.07,1.0,-1.0,0.0,0.0,1.0,1.03,97.0,3708.0,5.5,3.71,,12.49,1.177,104.2,,26.2,5.0,,,,,,,,,,,,0,0,0,0,0,0,0,0,0,0,0,0,0,0,0,0,,,,,,0.0,,,,,,,
91,1943515,1745300439074,,,,,,,,,,,,,,,,,,,,,,,,,,,,,,,,,,0,0,0,0,0,0,0,0,0,0,0,0,0,0,0,0,,,,,,,,,,,,,
92,1943535,1745300439102,0.0,-49.0,,-0.09,-0.04,1.02,-1.0,0.0,0.0,1.03,1.03,99.0,3721.0,5.4,3.72,,12.44,1.177,104.2,,26.1,5.0,,,,,,,,,,,,0,0,0,0,0,0,0,0,0,0,0,0,0,0,0,0,,,,,,0.0,,,,,,,
93,1943555,1745300439122,,,,,,,,,,,,,,,,,,,,,,,,,,,,,,,,,,0,0,0,0,0,0,0,0,0,0,0,0,0,0,0,0,,,,,,,,,,,,,
94,1943575,1745300439142,0.0,-53.0,12.92,-0.08,-0.01,1.03,-1.0,0.0,0.0,1.03,1.03,100.0,3685.0,5.3,3.71,15.0,12.49,1.168,104.2,176.0,26.1,5.0,0.0,0.0,0.0,0.0,0.0,0.0,0.0,0.0,2.26,0.0,1.0,0,0,0,0,0,0,0,0,0,0,0,0,0,0,0,0,0.0,0.0,1.0,0.0,0.0,0.0,38.986019,-76.950005,0.1,50.0,33.0,3.0,0.8
95,1943595,1745300439162,,,,,,,,,,,,,,,,,,,,,,,,,,,,,,,,,,0,0,0,0,0,0,0,0,0,0,0,0,0,0,0,0,,,,,,,,,,,,,
96,1943615,1745300439182,0.0,-42.0,,-0.08,-0.03,1.01,0.0,0.0,0.0,1.02,1.03,98.0,3732.0,5.3,3.71,,12.49,1.187,104.2,,26.1,5.0,,,,,,,,,,,,0,0,0,0,0,0,0,0,0,0,0,0,0,0,0,0,,,,,,0.0,,,,,,,
97,1943635,1745300439198,,,,,,,,,,,,,,,,,,,,,,,,,,,,,,,,,,0,0,0,0,0,0,0,0,0,0,0,0,0,0,0,0,,,,,,,,,,,,,
98,1943655,1745300439218,0.0,-64.0,,-0.08,-0.02,1.02,1.0,0.0,0.0,1.02,1.03,99.0,3700.0,5.3,3.71,,12.49,1.187,104.2,,26.1,5.0,,,,,,,,,,,,0,0,0,0,0,0,0,0,0,0,0,0,0,0,0,0,,,,,,0.0,,,,,,,
99,1943675,1745300439238,,,,,,,,,,,,,,,,,,,,,,,0.0,0.0,0.0,0.0,0.0,0.0,0.0,0.0,2.26,,,0,0,0,0,0,0,0,0,0,0,0,0,0,0,0,0,,0.0,,,,,38.986019,-76.950005,0.04,50.0,33.0,3.0,0.8
100,1943695,1745300439258,0.0,-46.0,,-0.08,-0.04,1.02,1.0,0.0,0.0,1.02,1.03,99.0,3700.0,5.3,3.71,,12.48,1.175,104.2,,26.1,5.0,,,,,,,,,,,,0,0,0,0,0,0,0,0,0,0,0,0,0,0,0,0,,,,,,0.0,,,,,,,
101,1943715,1745300439278,,,,,,,,,,,,,,,,,,,,,,,,,,,,,,,,,,0,0,0,0,0,0,0,0,0,0,0,0,0,0,0,0,,,,,,,,,,,,,
102,1943735,1745300439304,0.0,-23.0,,-0.08,-0.03,1.0,1.0,0.0,0.0,1.0,1.03,97.0,3708.0,5.2,3.71,,12.55,1.194,104.2,,26.0,5.0,,,,,,,,,,,,0,0,0,0,0,0,0,0,0,0,0,0,0,0,0,0,,,,,,0.0,,,,,,,
103,1943755,1745300439324,,,,,,,,,,,,,,,,,,,,,,,,,,,,,,,,,,0,0,0,0,0,0,0,0,0,0,0,0,0,0,0,0,,,,,,,,,,,,,
104,1943775,1745300439344,0.0,-42.0,,-0.1,0.0,0.97,2.0,0.0,0.0,0.98,1.03,94.0,3742.0,5.3,3.71,,12.51,1.196,104.2,,26.0,5.0,0.0,0.0,0.0,0.0,0.0,0.0,0.0,0.0,2.26,,,0,0,0,0,0,0,0,0,0,0,0,0,0,0,0,0,,0.0,,,,0.0,38.986019,-76.950005,0.04,50.0,33.0,3.0,0.8
105,1943795,1745300439364,,,,,,,,,,,,,,,,,,,,,,,,,,,,,,,,,,0,0,0,0,0,0,0,0,0,0,0,0,0,0,0,0,,,,,,,,,,,,,
106,1943815,1745300439384,0.0,-12.0,,-0.11,0.01,0.97,2.0,0.0,0.0,0.98,1.03,95.0,3744.0,5.4,3.71,,12.47,1.185,104.2,,26.0,5.0,,,,,,,,,,,,0,0,0,0,0,0,0,0,0,0,0,0,0,0,0,0,,,,,,0.0,,,,,,,
107,1943835,1745300439404,,,,,,,,,,,,,,,,,,,,,,,,,,,,,,,,,,0,0,0,0,0,0,0,0,0,0,0,0,0,0,0,0,,,,,,,,,,,,,
108,1943855,1745300439424,0.0,-49.0,,-0.11,0.02,0.97,1.0,0.0,0.0,0.97,1.03,94.0,3728.0,5.4,3.71,,12.47,1.185,104.2,,26.1,5.0,,,,,,,,,,,,0,0,0,0,0,0,0,0,0,0,0,0,0,0,0,0,,,,,,0.0,,,,,,,
109,1943875,1745300439444,,,,,,,,,,,,,,,,,,,,,,,0.0,0.0,0.0,0.0,0.0,0.0,0.0,0.0,2.26,,,0,0,0,0,0,0,0,0,0,0,0,0,0,0,0,0,,0.0,,,,,38.986019,-76.950005,0.21,50.0,33.0,3.0,0.8
110,1943895,1745300439464,0.0,-8.0,,-0.1,0.02,0.95,2.0,0.0,0.0,0.95,1.03,92.0,3728.0,5.4,3.71,,12.45,1.179,104.2,,26.1,5.0,,,,,,,,,,,,0,0,0,0,0,0,0,0,0,0,0,0,0,0,0,0,,,,,,0.0,,,,,,,
111,1943915,1745300439484,,,,,,,,,,,,,,,,,,,,,,,,,,,,,,,,,,0,0,0,0,0,0,0,0,0,0,0,0,0,0,0,0,,,,,,,,,,,,,
112,1943935,1745300439503,0.0,-19.0,,-0.11,-0.0,0.94,1.0,0.0,0.0,0.95,1.03,92.0,3704.0,5.4,3.71,,12.53,1.163,104.2,,25.7,5.0,,,,,,,,,,,,0,0,0,0,0,0,0,0,0,0,0,0,0,0,0,0,,,,,,0.0,,,,,,,
113,1943955,1745300439523,,,,,,,,,,,,,,,,,,,,,,,,,,,,,,,,,,0,0,0,0,0,0,0,0,0,0,0,0,0,0,0,0,,,,,,,,,,,,,
114,1943975,1745300439543,0.0,-46.0,,-0.12,-0.01,0.97,1.0,0.0,0.0,0.97,1.03,94.0,3720.0,5.4,3.72,,12.45,1.175,102.4,,25.7,5.0,0.0,0.0,0.0,0.0,0.0,0.0,0.0,0.0,2.26,,,0,0,0,0,0,0,0,0,0,0,0,0,0,0,0,0,,0.0,,,,0.0,38.986019,-76.950005,0.18,50.0,33.0,3.0,0.8
115,1943995,1745300439563,,,,,,,,,,,,,,,,,,,,,,,,,,,,,,,,,,0,0,0,0,0,0,0,0,0,0,0,0,0,0,0,0,,,,,,,,,,,,,
116,1944015,1745300439583,0.0,-27.0,,-0.1,-0.03,0.96,1.0,0.0,0.0,0.97,1.03,94.0,3730.0,5.3,3.71,,12.48,1.179,102.4,,25.7,5.0,,,,,,,,,,,,0,0,0,0,0,0,0,0,0,0,0,0,0,0,0,0,,,,,,0.0,,,,,,,
117,1944035,1745300439603,,,,,,,,,,,,,,,,,,,,,,,,,,,,,,,,,,0,0,0,0,0,0,0,0,0,0,0,0,0,0,0,0,,,,,,,,,,,,,
118,1944055,1745300439623,0.0,-23.0,,-0.1,-0.05,0.95,1.0,0.0,0.0,0.96,1.03,93.0,3787.0,5.2,3.71,,12.48,1.179,102.4,,26.1,5.0,,,,,,,,,,,,0,0,0,0,0,0,0,0,0,0,0,0,0,0,0,0,,,,,,0.0,,,,,,,
119,1944075,1745300439643,,,,,,,,,,,,,,,,,,,,,,,0.0,0.0,0.0,0.0,0.0,0.0,0.0,0.0,2.26,,,0,0,0,0,0,0,0,0,0,0,0,0,0,0,0,0,,0.0,,,,,38.986019,-76.950005,0.04,50.0,33.0,3.0,0.8
120,1944095,1745300439663,0.0,-42.0,,-0.1,-0.05,0.97,1.0,0.0,0.0,0.97,1.03,94.0,3787.0,5.2,3.71,,12.45,1.189,102.4,,26.1,5.0,,,,,,,,,,,,0,0,0,0,0,0,0,0,0,0,0,0,0,0,0,0,,,,,,0.0,,,,,,,
121,1944115,1745300439683,,,,,,,,,,,,,,,,,,,,,,,,,,,,,,,,,,0,0,0,0,0,0,0,0,0,0,0,0,0,0,0,0,,,,,,,,,,,,,
122,1944135,1745300439703,0.0,-27.0,,-0.1,-0.06,0.98,0.0,0.0,0.0,0.99,1.03,96.0,3722.0,5.3,3.71,,12.49,1.187,102.4,,25.5,5.0,,,,,,,,,,,,0,0,0,0,0,0,0,0,0,0,0,0,0,0,0,0,,,,,,0.0,,,,,,,
123,1944155,1745300439723,,,,,,,,,,,,,,,,,,,,,,,,,,,,,,,,,,0,0,0,0,0,0,0,0,0,0,0,0,0,0,0,0,,,,,,,,,,,,,
124,1944175,1745300439743,0.0,-46.0,,-0.09,-0.1,0.98,0.0,0.0,0.0,0.99,1.03,96.0,3710.0,5.2,3.72,,12.51,1.189,102.4,,25.5,5.0,0.0,0.0,0.0,0.0,0.0,0.0,0.0,0.0,2.26,,,0,0,0,0,0,0,0,0,0,0,0,0,0,0,0,0,,0.0,,,,0.0,38.986019,-76.950005,0.05,50.0,33.0,3.0,0.8
125,1944195,1745300439763,,,,,,,,,,,,,,,,,,,,,,,,,,,,,,,,,,0,0,0,0,0,0,0,0,0,0,0,0,0,0,0,0,,,,,,,,,,,,,
126,1944215,1745300439783,0.0,-27.0,,-0.09,-0.13,0.98,0.0,0.0,0.0,0.99,1.03,96.0,3730.0,5.2,3.7,,12.49,1.192,102.4,,25.5,5.0,,,,,,,,,,,,0,0,0,0,0,0,0,0,0,0,0,0,0,0,0,0,,,,,,0.0,,,,,,,
127,1944235,1745300439803,,,,,,,,,,,,,,,,,,,,,,,,,,,,,,,,,,0,0,0,0,0,0,0,0,0,0,0,0,0,0,0,0,,,,,,,,,,,,,
128,1944255,1745300439823,0.0,-34.0,,-0.09,-0.13,1.01,-1.0,0.0,0.0,1.02,1.03,99.0,3717.0,5.3,3.71,,12.49,1.192,102.4,,25.7,5.0,,,,,,,,,,,,0,0,0,0,0,0,0,0,0,0,0,0,0,0,0,0,,,,,,0.0,,,,,,,
129,1944275,1745300439843,,,,,,,,,,,,,,,,,,,,,,,0.0,0.0,0.0,0.0,0.0,0.0,0.0,0.0,2.26,,,0,0,0,0,0,0,0,0,0,0,0,0,0,0,0,0,,0.0,,,,,38.986019,-76.950005,0.0,50.0,33.0,3.0,0.8
130,1944295,1745300439863,0.0,-27.0,,-0.08,-0.15,1.02,-1.0,0.0,0.0,1.03,1.03,100.0,3717.0,5.3,3.71,,12.43,1.183,102.4,,25.7,5.0,,,,,,,,,,,,0,0,0,0,0,0,0,0,0,0,0,0,0,0,0,0,,,,,,0.0,,,,,,,
131,1944315,1745300439883,,,,,,,,,,,,,,,,,,,,,,,,,,,,,,,,,,0,0,0,0,0,0,0,0,0,0,0,0,0,0,0,0,,,,,,,,,,,,,
132,1944335,1745300439903,0.0,-38.0,,-0.08,-0.11,1.02,-1.0,0.0,0.0,1.03,1.03,99.0,3737.0,5.3,3.71,,12.49,1.178,102.4,,25.7,5.0,,,,,,,,,,,,0,0,0,0,0,0,0,0,0,0,0,0,0,0,0,0,,,,,,0.0,,,,,,,
133,1944355,1745300439923,,,,,,,,,,,,,,,,,,,,,,,,,,,,,,,,,,0,0,0,0,0,0,0,0,0,0,0,0,0,0,0,0,,,,,,,,,,,,,
134,1944375,1745300439943,0.0,-34.0,,-0.09,-0.04,1.02,-1.0,0.0,0.0,1.03,1.03,99.0,3669.0,5.4,3.69,,12.45,1.18,102.4,,25.7,5.0,0.0,0.0,0.0,0.0,0.0,0.0,0.0,0.0,2.26,,,0,0,0,0,0,0,0,0,0,0,0,0,0,0,0,0,,0.0,,,,0.0,38.986019,-76.950005,0.09,50.0,33.0,3.0,0.8
135,1944395,1745300439963,,,,,,,,,,,,,,,,,,,,,,,,,,,,,,,,,,0,0,0,0,0,0,0,0,0,0,0,0,0,0,0,0,,,,,,,,,,,,,
136,1944415,1745300439983,0.0,-34.0,,-0.07,-0.05,1.03,0.0,0.0,0.0,1.04,1.04,100.0,3623.0,5.3,3.71,,12.56,1.164,102.4,,25.7,5.0,,,,,,,,,,,,0,0,0,0,0,0,0,0,0,0,0,0,0,0,0,0,,,,,,0.0,,,,,,,
137,1944435,1745300439995,,,,,,,,,,,,,,,,,,,,,,,,,,,,,,,,,,0,0,0,0,0,0,0,0,0,0,0,0,0,0,0,0,,,,,,,,,,,,,
138,1944455,1745300440015,0.0,-27.0,,-0.08,0.02,0.98,2.0,0.0,0.0,0.98,1.04,95.0,3577.0,5.3,3.71,,12.56,1.164,102.4,,25.2,5.0,,,,,,,,,,,,0,0,0,0,0,0,0,0,0,0,0,0,0,0,0,0,,,,,,0.0,,,,,,,
139,1944475,1745300440035,,,,,,,,,,,,,,,,,,,,,,,0.0,0.0,0.0,0.0,0.0,0.0,0.0,0.0,2.26,,,0,0,0,0,0,0,0,0,0,0,0,0,0,0,0,0,,0.0,,,,,38.986019,-76.950005,0.13,50.0,32.0,3.0,0.8
140,1944495,1745300440055,0.0,-8.0,,-0.1,-0.06,0.96,1.0,0.0,0.0,0.97,1.04,93.0,3577.0,5.3,3.71,,12.49,1.18,102.4,,25.2,5.0,,,,,,,,,,,,0,0,0,0,0,0,0,0,0,0,0,0,0,0,0,0,,,,,,0.0,,,,,,,
141,1944515,1745300440075,,,,,,,,,,,,,,,,,,,,,,,,,,,,,,,,,,0,0,0,0,0,0,0,0,0,0,0,0,0,0,0,0,,,,,,,,,,,,,
142,1944535,1745300440099,0.0,-23.0,,-0.09,-0.11,0.98,0.0,0.0,0.0,0.99,1.04,95.0,3630.0,5.2,3.71,,12.61,1.183,102.4,,25.1,5.0,,,,,,,,,,,,0,0,0,0,0,0,0,0,0,0,0,0,0,0,0,0,,,,,,0.0,,,,,,,
143,1944555,1745300440119,,,,,,,,,,,,,,,,,,,,,,,,,,,,,,,,,,0,0,0,0,0,0,0,0,0,0,0,0,0,0,0,0,,,,,,,,,,,,,
144,1944575,1745300440139,0.0,-38.0,13.02,-0.09,-0.12,0.97,-1.0,0.0,0.0,0.98,1.04,94.0,3741.0,1.2,3.46,15.0,12.49,1.192,102.4,176.0,25.1,5.0,0.0,0.0,0.0,0.0,0.0,0.0,0.0,0.0,2.26,0.0,1.0,0,0,0,0,0,0,0,0,0,0,0,0,0,0,0,0,0.0,0.0,1.0,0.0,0.0,0.0,38.986019,-76.950005,0.13,50.0,32.0,3.0,0.8
145,1944595,1745300440159,,,,,,,,,,,,,,,,,,,,,,,,,,,,,,,,,,0,0,0,0,0,0,0,0,0,0,0,0,0,0,0,0,,,,,,,,,,,,,
146,1944615,1745300440179,0.0,-31.0,,-0.09,-0.12,1.0,-1.0,0.0,0.0,1.01,1.04,97.0,3762.0,0.0,2.64,,12.09,1.25,102.4,,25.1,5.0,,,,,,,,,,,,0,0,0,0,0,0,0,0,0,0,0,0,0,0,0,0,,,,,,0.0,,,,,,,
147,1944635,1745300440201,,,,,,,,,,,,,,,,,,,,,,,,,,,,,,,,,,0,0,0,0,0,0,0,0,0,0,0,0,0,0,0,0,,,,,,,,,,,,,
148,1944655,1745300440221,0.0,-23.0,,-0.08,-0.1,1.04,-1.0,0.0,0.0,1.05,1.05,100.0,3579.0,0.0,2.64,,12.09,1.25,102.4,,25.9,5.0,,,,,,,,,,,,0,0,0,0,0,0,0,0,0,0,0,0,0,0,0,0,,,,,,0.0,,,,,,,
149,1944675,1745300440241,,,,,,,,,,,,,,,,,,,,,,,0.0,0.0,0.0,0.0,0.0,0.0,0.0,0.0,2.26,,,0,0,0,0,0,0,0,0,0,0,0,0,0,0,0,0,,0.0,,,,,38.986019,-76.950005,0.11,50.0,32.0,3.0,0.8
150,1944695,1745300440261,0.0,-31.0,,-0.07,-0.05,1.02,1.0,0.0,0.0,1.02,1.05,98.0,3579.0,0.0,2.64,,11.88,1.191,102.4,,25.9,5.0,,,,,,,,,,,,0,0,0,0,0,0,0,0,0,0,0,0,0,0,0,0,,,,,,0.0,,,,,,,
151,1944715,1745300440281,,,,,,,,,,,,,,,,,,,,,,,,,,,,,,,,,,0,0,0,0,0,0,0,0,0,0,0,0,0,0,0,0,,,,,,,,,,,,,
152,1944735,1745300440303,0.0,-19.0,,-0.09,-0.12,0.98,1.0,0.0,0.0,0.99,1.05,95.0,3503.0,0.0,2.7,,11.85,1.136,102.4,,24.1,5.0,,,,,,,,,,,,0,0,0,0,0,0,0,0,0,0,0,0,0,0,0,0,,,,,,0.0,,,,,,,
153,1944755,1745300440323,,,,,,,,,,,,,,,,,,,,,,,,,,,,,,,,,,0,0,0,0,0,0,0,0,0,0,0,0,0,0,0,0,,,,,,,,,,,,,
154,1944775,1745300440343,0.0,-49.0,,-0.06,-0.09,1.01,1.0,0.0,0.0,1.02,1.05,98.0,3327.0,0.0,2.75,,11.91,1.147,102.4,,24.1,5.0,0.0,0.0,0.0,0.0,0.0,0.0,0.0,0.0,2.26,,,0,0,0,0,0,0,0,0,0,0,0,0,0,0,0,0,,0.0,,,,0.0,38.986019,-76.950005,0.0,50.0,32.0,3.0,0.8
155,1944795,1745300440363,,,,,,,,,,,,,,,,,,,,,,,,,,,,,,,,,,0,0,0,0,0,0,0,0,0,0,0,0,0,0,0,0,,,,,,,,,,,,,
156,1944815,1745300440383,0.0,-23.0,,-0.1,-0.15,1.02,0.0,0.0,0.0,1.04,1.05,99.0,3282.0,0.0,2.78,,11.95,1.214,102.4,,24.1,5.0,,,,,,,,,,,,0,0,0,0,0,0,0,0,0,0,0,0,0,0,0,0,,,,,,0.0,,,,,,,
157,1944835,1745300440403,,,,,,,,,,,,,,,,,,,,,,,,,,,,,,,,,,0,0,0,0,0,0,0,0,0,0,0,0,0,0,0,0,,,,,,,,,,,,,
158,1944855,1745300440423,0.0,-34.0,,-0.09,-0.02,0.95,2.0,0.0,0.0,0.96,1.05,92.0,3330.0,3.2,3.34,,11.95,1.214,102.4,,22.5,5.0,,,,,,,,,,,,0,0,0,0,0,0,0,0,0,0,0,0,0,0,0,0,,,,,,0.0,,,,,,,
159,1944875,1745300440443,,,,,,,,,,,,,,,,,,,,,,,0.0,0.0,0.0,0.0,0.0,0.0,0.0,0.0,2.26,,,0,0,0,0,0,0,0,0,0,0,0,0,0,0,0,0,,0.0,,,,,38.986019,-76.950005,0.08,50.0,32.0,3.0,0.8
160,1944895,1745300440463,0.0,-31.0,,-0.05,-0.06,1.04,0.0,0.0,0.0,1.04,1.05,99.0,3330.0,3.2,3.34,,12.19,1.254,102.4,,22.5,5.0,,,,,,,,,,,,0,0,0,0,0,0,0,0,0,0,0,0,0,0,0,0,,,,,,0.0,,,,,,,
161,1944915,1745300440483,,,,,,,,,,,,,,,,,,,,,,,,,,,,,,,,,,0,0,0,0,0,0,0,0,0,0,0,0,0,0,0,0,,,,,,,,,,,,,
162,1944935,1745300440502,0.0,-27.0,,-0.1,-0.1,1.05,-1.0,0.0,0.0,1.06,1.06,100.0,3186.0,6.5,3.75,,12.57,1.252,102.4,,22.3,5.0,,,,,,,,,,,,0,0,0,0,0,0,0,0,0,0,0,0,0,0,0,0,,,,,,0.0,,,,,,,
163,1944955,1745300440522,,,,,,,,,,,,,,,,,,,,,,,,,,,,,,,,,,0,0,0,0,0,0,0,0,0,0,0,0,0,0,0,0,,,,,,,,,,,,,
164,1944975,1745300440542,0.0,-34.0,,-0.1,-0.03,0.95,2.0,0.0,0.0,0.96,1.06,90.0,3259.0,8.0,3.86,,12.89,1.251,102.4,,22.3,5.0,0.0,0.0,0.0,0.0,0.0,0.0,0.0,0.0,2.26,,,0,0,0,0,0,0,0,0,0,0,0,0,0,0,0,0,,0.0,,,,0.0,38.986019,-76.950005,0.04,50.0,32.0,3.0,0.8
165,1944995,1745300440562,,,,,,,,,,,,,,,,,,,,,,,,,,,,,,,,,,0,0,0,0,0,0,0,0,0,0,0,0,0,0,0,0,,,,,,,,,,,,,
166,1945015,1745300440582,0.0,-15.0,,-0.07,-0.05,1.03,0.0,0.0,0.0,1.03,1.06,97.0,3293.0,8.2,3.86,,13.01,1.249,102.4,,22.3,5.0,,,,,,,,,,,,0,0,0,0,0,0,0,0,0,0,0,0,0,0,0,0,,,,,,0.0,,,,,,,
167,1945035,1745300440604,,,,,,,,,,,,,,,,,,,,,,,,,,,,,,,,,,0,0,0,0,0,0,0,0,0,0,0,0,0,0,0,0,,,,,,,,,,,,,
168,1945055,1745300440624,0.0,-49.0,,-0.1,-0.1,0.98,0.0,0.0,0.0,0.99,1.06,94.0,3318.0,9.6,3.88,,13.01,1.249,102.4,,23.3,5.0,,,,,,,,,,,,0,0,0,0,0,0,0,0,0,0,0,0,0,0,0,0,,,,,,0.0,,,,,,,
169,1945075,1745300440644,,,,,,,,,,,,,,,,,,,,,,,0.0,0.0,0.0,0.0,0.0,0.0,0.0,0.0,2.27,,,0,0,0,0,0,0,0,0,0,0,0,0,0,0,0,0,,0.0,,,,,38.986019,-76.950005,0.07,50.0,32.0,3.0,0.8
170,1945095,1745300440664,0.0,-49.0,,-0.07,-0.06,1.03,1.0,0.0,0.0,1.04,1.06,98.0,3318.0,9.6,3.88,,13.17,1.245,102.4,,23.3,5.0,,,,,,,,,,,,0,0,0,0,0,0,0,0,0,0,0,0,0,0,0,0,,,,,,0.0,,,,,,,
171,1945115,1745300440684,,,,,,,,,,,,,,,,,,,,,,,,,,,,,,,,,,0,0,0,0,0,0,0,0,0,0,0,0,0,0,0,0,,,,,,,,,,,,,
172,1945135,1745300440704,0.0,-34.0,,-0.09,-0.08,0.97,1.0,0.0,0.0,0.98,1.06,93.0,3395.0,14.4,4.14,,13.52,1.217,102.4,,23.8,5.0,,,,,,,,,,,,0,0,0,0,0,0,0,0,0,0,0,0,0,0,0,0,,,,,,0.0,,,,,,,
173,1945155,1745300440724,,,,,,,,,,,,,,,,,,,,,,,,,,,,,,,,,,0,0,0,0,0,0,0,0,0,0,0,0,0,0,0,0,,,,,,,,,,,,,
174,1945175,1745300440744,0.0,-38.0,,-0.09,-0.12,1.03,-1.0,0.0,0.0,1.04,1.06,98.0,3401.0,15.5,4.12,,13.64,1.204,102.4,,23.8,5.0,0.0,0.0,0.0,0.0,0.0,0.0,0.0,0.0,2.26,,,0,0,0,0,0,0,0,0,0,0,0,0,0,0,0,0,,0.0,,,,0.0,38.986019,-76.950005,0.09,50.0,32.0,3.0,0.8
175,1945195,1745300440764,,,,,,,,,,,,,,,,,,,,,,,,,,,,,,,,,,0,0,0,0,0,0,0,0,0,0,0,0,0,0,0,0,,,,,,,,,,,,,
176,1945215,1745300440784,0.0,-27.0,,-0.09,-0.01,0.95,2.0,0.0,0.0,0.95,1.06,90.0,3575.0,15.5,4.12,,13.63,1.219,102.4,,23.8,5.0,,,,,,,,,,,,0,0,0,0,0,0,0,0,0,0,0,0,0,0,0,0,,,,,,0.0,,,,,,,
177,1945235,1745300440804,,,,,,,,,,,,,,,,,,,,,,,,,,,,,,,,,,0,0,0,0,0,0,0,0,0,0,0,0,0,0,0,0,,,,,,,,,,,,,
178,1945255,1745300440824,0.0,-23.0,,-0.11,-0.04,0.93,2.0,0.0,0.0,0.94,1.06,89.0,3643.0,15.3,4.08,,13.63,1.219,102.4,,24.7,5.0,,,,,,,,,,,,0,0,0,0,0,0,0,0,0,0,0,0,0,0,0,0,,,,,,0.0,,,,,,,
179,1945275,1745300440844,,,,,,,,,,,,,,,,,,,,,,,0.0,0.0,0.0,0.0,0.0,0.0,0.0,0.0,2.26,,,0,0,0,0,0,0,0,0,0,0,0,0,0,0,0,0,,0.0,,,,,38.986019,-76.950005,0.05,50.0,32.0,3.0,0.8
180,1945295,1745300440864,0.0,22.0,,-0.12,-0.0,0.95,2.0,0.0,0.0,0.96,1.06,91.0,3643.0,15.3,4.08,,13.61,1.226,102.4,,24.7,5.0,,,,,,,,,,,,0,0,0,0,0,0,0,0,0,0,0,0,0,0,0,0,,,,,,0.0,,,,,,,
181,1945315,1745300440884,,,,,,,,,,,,,,,,,,,,,,,,,,,,,,,,,,0,0,0,0,0,0,0,0,0,0,0,0,0,0,0,0,,,,,,,,,,,,,
182,1945335,1745300440904,0.0,-27.0,,-0.1,0.03,0.99,2.0,0.0,0.0,0.99,1.06,94.0,3810.0,7.7,3.89,,13.23,1.223,102.4,,26.7,5.0,,,,,,,,,,,,0,0,0,0,0,0,0,0,0,0,0,0,0,0,0,0,,,,,,0.0,,,,,,,
183,1945355,1745300440924,,,,,,,,,,,,,,,,,,,,,,,,,,,,,,,,,,0,0,0,0,0,0,0,0,0,0,0,0,0,0,0,0,,,,,,,,,,,,,
184,1945375,1745300440944,0.0,-53.0,,-0.08,0.05,1.02,0.0,0.0,0.0,1.02,1.06,96.0,3852.0,5.5,3.75,,12.79,1.221,102.4,,26.7,5.0,0.0,0.0,0.0,0.0,0.0,0.0,0.0,0.0,2.26,,,0,0,0,0,0,0,0,0,0,0,0,0,0,0,0,0,,0.0,,,,0.0,38.986019,-76.950005,0.04,50.0,32.0,3.0,0.8
185,1945395,1745300440964,,,,,,,,,,,,,,,,,,,,,,,,,,,,,,,,,,0,0,0,0,0,0,0,0,0,0,0,0,0,0,0,0,,,,,,,,,,,,,
186,1945415,1745300440984,0.0,-19.0,,-0.08,-0.03,0.99,-1.0,0.0,0.0,1.0,1.06,94.0,3918.0,5.5,3.72,,12.6,1.221,102.4,,26.7,5.0,,,,,,,,,,,,0,0,0,0,0,0,0,0,0,0,0,0,0,0,0,0,,,,,,0.0,,,,,,,
187,1945435,1745300440994,,,,,,,,,,,,,,,,,,,,,,,,,,,,,,,,,,0,0,0,0,0,0,0,0,0,0,0,0,0,0,0,0,,,,,,,,,,,,,
188,1945455,1745300441014,0.0,-31.0,,-0.09,-0.04,0.93,-1.0,0.0,0.0,0.93,1.06,88.0,3896.0,5.4,3.7,,12.6,1.221,102.4,,27.2,5.0,,,,,,,,,,,,0,0,0,0,0,0,0,0,0,0,0,0,0,0,0,0,,,,,,0.0,,,,,,,
189,1945475,1745300441034,,,,,,,,,,,,,,,,,,,,,,,0.0,0.0,0.0,0.0,0.0,0.0,0.0,0.0,2.26,,,0,0,0,0,0,0,0,0,0,0,0,0,0,0,0,0,,0.0,,,,,38.986019,-76.950005,0.05,50.0,32.0,3.0,0.8
190,1945495,1745300441054,0.0,-49.0,,-0.1,-0.01,0.92,1.0,0.0,0.0,0.92,1.06,87.0,3896.0,5.4,3.7,,12.53,1.224,102.4,,27.2,5.0,,,,,,,,,,,,0,0,0,0,0,0,0,0,0,0,0,0,0,0,0,0,,,,,,0.0,,,,,,,
191,1945515,1745300441074,,,,,,,,,,,,,,,,,,,,,,,,,,,,,,,,,,0,0,0,0,0,0,0,0,0,0,0,0,0,0,0,0,,,,,,,,,,,,,
192,1945535,1745300441098,0.0,-12.0,,-0.1,0.03,0.94,2.0,0.0,0.0,0.95,1.06,89.0,3836.0,5.4,3.7,,12.45,1.219,102.4,,25.9,5.0,,,,,,,,,,,,0,0,0,0,0,0,0,0,0,0,0,0,0,0,0,0,,,,,,0.0,,,,,,,
193,1945555,1745300441118,,,,,,,,,,,,,,,,,,,,,,,,,,,,,,,,,,0,0,0,0,0,0,0,0,0,0,0,0,0,0,0,0,,,,,,,,,,,,,
194,1945575,1745300441138,0.0,0.0,13.08,-0.11,0.05,0.96,2.0,0.0,0.0,0.97,1.06,91.0,3811.0,5.3,3.71,15.0,12.47,1.187,102.4,174.0,25.9,5.0,0.0,0.0,0.0,0.0,0.0,0.0,0.0,0.0,2.26,0.0,1.0,0,0,0,0,0,0,0,0,0,0,0,0,0,0,0,0,0.0,0.0,1.0,0.0,0.0,0.0,38.986019,-76.950005,0.05,50.0,32.0,3.0,0.8
195,1945595,1745300441158,,,,,,,,,,,,,,,,,,,,,,,,,,,,,,,,,,0,0,0,0,0,0,0,0,0,0,0,0,0,0,0,0,,,,,,,,,,,,,
196,1945615,1745300441178,0.0,-8.0,,-0.1,0.06,0.96,2.0,0.0,0.0,0.97,1.06,92.0,3745.0,5.2,3.7,,12.43,1.171,102.4,,25.9,5.0,,,,,,,,,,,,0,0,0,0,0,0,0,0,0,0,0,0,0,0,0,0,,,,,,0.0,,,,,,,
197,1945635,1745300441204,,,,,,,,,,,,,,,,,,,,,,,,,,,,,,,,,,0,0,0,0,0,0,0,0,0,0,0,0,0,0,0,0,,,,,,,,,,,,,
198,1945655,1745300441224,0.0,14.0,,-0.09,0.04,0.95,2.0,0.0,0.0,0.96,1.06,90.0,3775.0,5.2,3.7,,12.43,1.171,102.4,,25.5,5.0,,,,,,,,,,,,0,0,0,0,0,0,0,0,0,0,0,0,0,0,0,0,,,,,,0.0,,,,,,,
199,1945675,1745300441244,,,,,,,,,,,,,,,,,,,,,,,0.0,0.0,0.0,0.0,0.0,0.0,0.0,0.0,2.27,,,0,0,0,0,0,0,0,0,0,0,0,0,0,0,0,0,,0.0,,,,,38.986019,-76.950005,0.04,50.0,32.0,3.0,0.8
200,1945695,1745300441264,0.0,-15.0,,-0.1,0.04,0.95,2.0,0.0,0.0,0.96,1.06,90.0,3775.0,5.2,3.7,,12.4,1.165,102.4,,25.5,5.0,,,,,,,,,,,,0,0,0,0,0,0,0,0,0,0,0,0,0,0,0,0,,,,,,0.0,,,,,,,
201,1945715,1745300441284,,,,,,,,,,,,,,,,,,,,,,,,,,,,,,,,,,0,0,0,0,0,0,0,0,0,0,0,0,0,0,0,0,,,,,,,,,,,,,
202,1945735,1745300441304,0.0,22.0,,-0.11,0.04,0.96,2.0,0.0,0.0,0.97,1.06,91.0,3730.0,5.2,3.71,,12.4,1.167,102.4,,25.9,5.0,,,,,,,,,,,,0,0,0,0,0,0,0,0,0,0,0,0,0,0,0,0,,,,,,0.0,,,,,,,
203,1945755,1745300441324,,,,,,,,,,,,,,,,,,,,,,,,,,,,,,,,,,0,0,0,0,0,0,0,0,0,0,0,0,0,0,0,0,,,,,,,,,,,,,
204,1945775,1745300441344,0.0,-12.0,,-0.1,0.05,0.95,1.0,0.0,0.0,0.96,1.06,91.0,3749.0,5.1,3.69,,12.45,1.156,102.4,,25.9,5.0,0.0,0.0,0.0,0.0,0.0,0.0,0.0,0.0,2.26,,,0,0,0,0,0,0,0,0,0,0,0,0,0,0,0,0,,0.0,,,,0.0,38.986019,-76.950005,0.04,50.0,32.0,3.0,0.8
205,1945795,1745300441364,,,,,,,,,,,,,,,,,,,,,,,,,,,,,,,,,,0,0,0,0,0,0,0,0,0,0,0,0,0,0,0,0,,,,,,,,,,,,,
206,1945815,1745300441384,0.0,-15.0,,-0.1,0.01,0.94,0.0,0.0,0.0,0.95,1.06,89.0,3700.0,5.1,3.7,,12.41,1.15,102.4,,25.9,5.0,,,,,,,,,,,,0,0,0,0,0,0,0,0,0,0,0,0,0,0,0,0,,,,,,0.0,,,,,,,
207,1945835,1745300441404,,,,,,,,,,,,,,,,,,,,,,,,,,,,,,,,,,0,0,0,0,0,0,0,0,0,0,0,0,0,0,0,0,,,,,,,,,,,,,
208,1945855,1745300441424,0.0,-34.0,,-0.09,-0.05,0.97,-1.0,0.0,0.0,0.97,1.06,92.0,3653.0,5.2,3.71,,12.41,1.15,102.4,,25.0,5.0,,,,,,,,,,,,0,0,0,0,0,0,0,0,0,0,0,0,0,0,0,0,,,,,,0.0,,,,,,,
209,1945875,1745300441444,,,,,,,,,,,,,,,,,,,,,,,0.0,0.0,0.0,0.0,0.0,0.0,0.0,0.0,2.26,,,0,0,0,0,0,0,0,0,0,0,0,0,0,0,0,0,,0.0,,,,,38.986019,-76.950012,0.05,50.0,32.0,3.0,0.8
210,1945895,1745300441464,0.0,-42.0,,-0.08,-0.04,1.0,-2.0,0.0,0.0,1.0,1.06,95.0,3653.0,5.2,3.71,,12.44,1.147,102.4,,25.0,5.0,,,,,,,,,,,,0,0,0,0,0,0,0,0,0,0,0,0,0,0,0,0,,,,,,0.0,,,,,,,
211,1945915,1745300441484,,,,,,,,,,,,,,,,,,,,,,,,,,,,,,,,,,0,0,0,0,0,0,0,0,0,0,0,0,0,0,0,0,,,,,,,,,,,,,
212,1945935,1745300441503,0.0,-19.0,,-0.08,0.01,1.0,-1.0,0.0,0.0,1.01,1.06,95.0,3685.0,5.3,3.71,,12.48,1.15,102.4,,25.1,5.0,,,,,,,,,,,,0,0,0,0,0,0,0,0,0,0,0,0,0,0,0,0,,,,,,0.0,,,,,,,
213,1945955,1745300441523,,,,,,,,,,,,,,,,,,,,,,,,,,,,,,,,,,0,0,0,0,0,0,0,0,0,0,0,0,0,0,0,0,,,,,,,,,,,,,
214,1945975,1745300441543,0.0,-42.0,,-0.08,0.03,1.02,0.0,0.0,0.0,1.03,1.06,97.0,3612.0,5.2,3.71,,12.45,1.16,100.6,,25.1,5.0,0.0,0.0,0.0,0.0,0.0,0.0,0.0,0.0,2.26,,,0,0,0,0,0,0,0,0,0,0,0,0,0,0,0,0,,0.0,,,,0.0,38.986019,-76.950012,0.04,50.0,32.0,3.0,0.8
215,1945995,1745300441563,,,,,,,,,,,,,,,,,,,,,,,,,,,,,,,,,,0,0,0,0,0,0,0,0,0,0,0,0,0,0,0,0,,,,,,,,,,,,,
216,1946015,1745300441583,0.0,-23.0,,-0.08,0.1,1.0,1.0,0.0,0.0,1.01,1.06,95.0,3626.0,5.3,3.71,,12.52,1.157,100.6,,25.1,5.0,,,,,,,,,,,,0,0,0,0,0,0,0,0,0,0,0,0,0,0,0,0,,,,,,0.0,,,,,,,
217,1946035,1745300441603,,,,,,,,,,,,,,,,,,,,,,,,,,,,,,,,,,0,0,0,0,0,0,0,0,0,0,0,0,0,0,0,0,,,,,,,,,,,,,
218,1946055,1745300441623,0.0,-34.0,,-0.11,0.04,0.97,2.0,0.0,0.0,0.97,1.06,92.0,3568.0,5.1,3.71,,12.52,1.157,100.6,,24.8,5.0,,,,,,,,,,,,0,0,0,0,0,0,0,0,0,0,0,0,0,0,0,0,,,,,,0.0,,,,,,,
219,1946075,1745300441643,,,,,,,,,,,,,,,,,,,,,,,0.0,0.0,0.0,0.0,0.0,0.0,0.0,0.0,2.26,,,0,0,0,0,0,0,0,0,0,0,0,0,0,0,0,0,,0.0,,,,,38.986019,-76.950012,0.04,50.0,32.0,3.0,0.8
220,1946095,1745300441663,0.0,-38.0,,-0.11,-0.02,1.02,-1.0,0.0,0.0,1.02,1.06,97.0,3568.0,5.1,3.71,,12.53,1.167,100.6,,24.8,5.0,,,,,,,,,,,,0,0,0,0,0,0,0,0,0,0,0,0,0,0,0,0,,,,,,0.0,,,,,,,
221,1946115,1745300441683,,,,,,,,,,,,,,,,,,,,,,,,,,,,,,,,,,0,0,0,0,0,0,0,0,0,0,0,0,0,0,0,0,,,,,,,,,,,,,
222,1946135,1745300441703,0.0,-27.0,,-0.09,0.06,1.04,-1.0,0.0,1.0,1.04,1.06,98.0,3573.0,5.0,3.71,,12.63,1.164,100.6,,24.6,5.0,,,,,,,,,,,,0,0,0,0,0,0,0,0,0,0,0,0,0,0,0,0,,,,,,0.0,,,,,,,
223,1946155,1745300441723,,,,,,,,,,,,,,,,,,,,,,,,,,,,,,,,,,0,0,0,0,0,0,0,0,0,0,0,0,0,0,0,0,,,,,,,,,,,,,
224,1946175,1745300441743,0.0,-42.0,,-0.09,0.11,1.01,1.0,0.0,0.0,1.02,1.06,97.0,3523.0,5.0,3.71,,12.65,1.167,100.6,,24.6,5.0,0.0,0.0,0.0,0.0,0.0,0.0,0.0,0.0,2.26,,,0,0,0,0,0,0,0,0,0,0,0,0,0,0,0,0,,0.0,,,,0.0,38.986019,-76.950012,0.04,50.0,32.0,3.0,0.8
225,1946195,1745300441763,,,,,,,,,,,,,,,,,,,,,,,,,,,,,,,,,,0,0,0,0,0,0,0,0,0,0,0,0,0,0,0,0,,,,,,,,,,,,,
226,1946215,1745300441783,0.0,17.0,,-0.11,0.01,0.97,0.0,0.0,0.0,0.97,1.06,92.0,3523.0,5.0,3.72,,12.68,1.162,100.6,,24.6,5.0,,,,,,,,,,,,0,0,0,0,0,0,0,0,0,0,0,0,0,0,0,0,,,,,,0.0,,,,,,,
227,1946235,1745300441803,,,,,,,,,,,,,,,,,,,,,,,,,,,,,,,,,,0,0,0,0,0,0,0,0,0,0,0,0,0,0,0,0,,,,,,,,,,,,,
228,1946255,1745300441823,0.0,-34.0,,-0.08,-0.04,1.04,-1.0,0.0,0.0,1.04,1.06,98.0,3460.0,5.0,3.73,,12.68,1.162,100.6,,23.9,5.0,,,,,,,,,,,,0,0,0,0,0,0,0,0,0,0,0,0,0,0,0,0,,,,,,0.0,,,,,,,
229,1946275,1745300441843,,,,,,,,,,,,,,,,,,,,,,,0.0,0.0,0.0,0.0,0.0,0.0,0.0,0.0,2.26,,,0,0,0,0,0,0,0,0,0,0,0,0,0,0,0,0,,0.0,,,,,38.986019,-76.950012,0.04,50.0,32.0,3.0,0.8
230,1946295,1745300441863,0.0,-31.0,,-0.11,-0.05,0.95,2.0,0.0,0.0,0.96,1.06,90.0,3460.0,5.0,3.73,,12.71,1.164,100.6,,23.9,5.0,,,,,,,,,,,,0,0,0,0,0,0,0,0,0,0,0,0,0,0,0,0,,,,,,0.0,,,,,,,
231,1946315,1745300441883,,,,,,,,,,,,,,,,,,,,,,,,,,,,,,,,,,0,0,0,0,0,0,0,0,0,0,0,0,0,0,0,0,,,,,,,,,,,,,
232,1946335,1745300441903,0.0,-23.0,,-0.08,-0.04,1.05,-1.0,0.0,0.0,1.05,1.06,100.0,3374.0,5.0,3.73,,12.79,1.163,100.6,,22.9,5.0,,,,,,,,,,,,0,0,0,0,0,0,0,0,0,0,0,0,0,0,0,0,,,,,,0.0,,,,,,,
233,1946355,1745300441923,,,,,,,,,,,,,,,,,,,,,,,,,,,,,,,,,,0,0,0,0,0,0,0,0,0,0,0,0,0,0,0,0,,,,,,,,,,,,,
234,1946375,1745300441943,0.0,-42.0,,-0.11,-0.04,0.95,1.0,0.0,0.0,0.96,1.06,91.0,3384.0,5.1,3.73,,12.81,1.157,100.6,,22.9,5.0,0.0,0.0,0.0,0.0,0.0,0.0,0.0,0.0,2.26,,,0,0,0,0,0,0,0,0,0,0,0,0,0,0,0,0,,0.0,,,,0.0,38.986019,-76.950012,0.0,50.0,32.0,3.0,0.8
235,1946395,1745300441963,,,,,,,,,,,,,,,,,,,,,,,,,,,,,,,,,,0,0,0,0,0,0,0,0,0,0,0,0,0,0,0,0,,,,,,,,,,,,,
236,1946415,1745300441983,0.0,-27.0,,-0.06,-0.02,1.01,0.0,0.0,0.0,1.01,1.06,96.0,3241.0,5.2,3.75,,12.84,1.161,100.6,,22.9,5.0,,,,,,,,,,,,0,0,0,0,0,0,0,0,0,0,0,0,0,0,0,0,,,,,,0.0,,,,,,,
237,1946435,1745300441993,,,,,,,,,,,,,,,,,,,,,,,,,,,,,,,,,,0,0,0,0,0,0,0,0,0,0,0,0,0,0,0,0,,,,,,,,,,,,,
238,1946455,1745300442013,0.0,-27.0,,-0.09,-0.1,1.03,-1.0,0.0,0.0,1.04,1.06,98.0,3268.0,5.3,3.76,,12.84,1.161,100.6,,22.6,5.0,,,,,,,,,,,,0,0,0,0,0,0,0,0,0,0,0,0,0,0,0,0,,,,,,0.0,,,,,,,
239,1946475,1745300442033,,,,,,,,,,,,,,,,,,,,,,,0.0,0.0,0.0,0.0,0.0,0.0,0.0,0.0,2.26,,,0,0,0,0,0,0,0,0,0,0,0,0,0,0,0,0,,0.0,,,,,38.986019,-76.950012,0.1,50.0,32.0,3.0,0.8
240,1946495,1745300442053,0.0,-31.0,,-0.1,-0.0,0.96,1.0,0.0,0.0,0.97,1.06,91.0,3268.0,5.3,3.76,,12.91,1.153,100.6,,22.6,5.0,,,,,,,,,,,,0,0,0,0,0,0,0,0,0,0,0,0,0,0,0,0,,,,,,0.0,,,,,,,
241,1946515,1745300442073,,,,,,,,,,,,,,,,,,,,,,,,,,,,,,,,,,0,0,0,0,0,0,0,0,0,0,0,0,0,0,0,0,,,,,,,,,,,,,
242,1946535,1745300442103,0.0,-8.0,,-0.06,-0.02,1.03,0.0,0.0,0.0,1.03,1.06,97.0,3302.0,5.3,3.76,,12.88,1.154,100.6,,22.8,5.0,,,,,,,,,,,,0,0,0,0,0,0,0,0,0,0,0,0,0,0,0,0,,,,,,0.0,,,,,,,
243,1946555,1745300442123,,,,,,,,,,,,,,,,,,,,,,,,,,,,,,,,,,0,0,0,0,0,0,0,0,0,0,0,0,0,0,0,0,,,,,,,,,,,,,
244,1946575,1745300442143,0.0,-23.0,13.07,-0.11,-0.05,1.01,-1.0,0.0,0.0,1.02,1.06,96.0,3241.0,5.3,3.76,15.0,12.89,1.159,100.6,174.0,22.8,5.0,0.0,0.0,0.0,0.0,0.0,0.0,0.0,0.0,2.26,0.0,1.0,0,0,0,0,0,0,0,0,0,0,0,0,0,0,0,0,0.0,0.0,1.0,0.0,0.0,0.0,38.986019,-76.950012,0.06,50.0,32.0,3.0,0.8
245,1946595,1745300442163,,,,,,,,,,,,,,,,,,,,,,,,,,,,,,,,,,0,0,0,0,0,0,0,0,0,0,0,0,0,0,0,0,,,,,,,,,,,,,
246,1946615,1745300442183,0.0,-31.0,,-0.1,0.02,0.94,1.0,0.0,0.0,0.95,1.06,90.0,3264.0,5.2,3.76,,12.93,1.171,100.6,,22.8,5.0,,,,,,,,,,,,0,0,0,0,0,0,0,0,0,0,0,0,0,0,0,0,,,,,,0.0,,,,,,,
247,1946635,1745300442199,,,,,,,,,,,,,,,,,,,,,,,,,,,,,,,,,,0,0,0,0,0,0,0,0,0,0,0,0,0,0,0,0,,,,,,,,,,,,,
248,1946655,1745300442219,0.0,-31.0,,-0.05,0.02,1.01,0.0,0.0,0.0,1.02,1.06,96.0,3230.0,5.1,3.76,,12.93,1.171,100.6,,22.4,5.0,,,,,,,,,,,,0,0,0,0,0,0,0,0,0,0,0,0,0,0,0,0,,,,,,0.0,,,,,,,
249,1946675,1745300442239,,,,,,,,,,,,,,,,,,,,,,,0.0,0.0,0.0,0.0,0.0,0.0,0.0,0.0,2.26,,,0,0,0,0,0,0,0,0,0,0,0,0,0,0,0,0,,0.0,,,,,38.986019,-76.950012,0.04,50.0,32.0,3.0,0.8
250,1946695,1745300442259,0.0,-42.0,,-0.09,-0.07,1.05,-1.0,0.0,0.0,1.06,1.06,100.0,3230.0,5.1,3.76,,12.91,1.183,100.6,,22.4,5.0,,,,,,,,,,,,0,0,0,0,0,0,0,0,0,0,0,0,0,0,0,0,,,,,,0.0,,,,,,,
251,1946715,1745300442279,,,,,,,,,,,,,,,,,,,,,,,,,,,,,,,,,,0,0,0,0,0,0,0,0,0,0,0,0,0,0,0,0,,,,,,,,,,,,,
252,1946735,1745300442303,0.0,-8.0,,-0.1,-0.04,0.96,1.0,0.0,0.0,0.96,1.06,91.0,3214.0,5.1,3.76,,12.91,1.172,100.6,,22.1,5.0,,,,,,,,,,,,0,0,0,0,0,0,0,0,0,0,0,0,0,0,0,0,,,,,,0.0,,,,,,,
253,1946755,1745300442323,,,,,,,,,,,,,,,,,,,,,,,,,,,,,,,,,,0,0,0,0,0,0,0,0,0,0,0,0,0,0,0,0,,,,,,,,,,,,,
254,1946775,1745300442343,0.0,-38.0,,-0.06,0.01,1.0,1.0,0.0,0.0,1.0,1.06,95.0,3272.0,5.2,3.76,,12.92,1.172,100.6,,22.1,5.0,0.0,0.0,0.0,0.0,0.0,0.0,0.0,0.0,2.26,,,0,0,0,0,0,0,0,0,0,0,0,0,0,0,0,0,,0.0,,,,0.0,38.986019,-76.950012,0.13,50.0,32.0,3.0,0.8
255,1946795,1745300442363,,,,,,,,,,,,,,,,,,,,,,,,,,,,,,,,,,0,0,0,0,0,0,0,0,0,0,0,0,0,0,0,0,,,,,,,,,,,,,
256,1946815,1745300442383,0.0,-15.0,,-0.1,-0.07,1.05,-1.0,0.0,0.0,1.06,1.06,100.0,3283.0,5.3,3.76,,12.96,1.177,100.6,,22.1,5.0,,,,,,,,,,,,0,0,0,0,0,0,0,0,0,0,0,0,0,0,0,0,,,,,,0.0,,,,,,,
257,1946835,1745300442401,,,,,,,,,,,,,,,,,,,,,,,,,,,,,,,,,,0,0,0,0,0,0,0,0,0,0,0,0,0,0,0,0,,,,,,,,,,,,,
258,1946855,1745300442421,0.0,-31.0,,-0.1,-0.01,0.95,1.0,0.0,0.0,0.96,1.06,90.0,3277.0,5.3,3.76,,12.96,1.177,100.6,,22.8,5.0,,,,,,,,,,,,0,0,0,0,0,0,0,0,0,0,0,0,0,0,0,0,,,,,,0.0,,,,,,,
259,1946875,1745300442441,,,,,,,,,,,,,,,,,,,,,,,0.0,0.0,0.0,0.0,0.0,0.0,0.0,0.0,2.26,,,0,0,0,0,0,0,0,0,0,0,0,0,0,0,0,0,,0.0,,,,,38.986019,-76.950012,0.07,50.0,32.0,3.0,0.8
260,1946895,1745300442461,0.0,-27.0,,-0.07,-0.07,1.03,-1.0,0.0,0.0,1.03,1.06,98.0,3277.0,5.3,3.76,,12.96,1.19,100.6,,22.8,5.0,,,,,,,,,,,,0,0,0,0,0,0,0,0,0,0,0,0,0,0,0,0,,,,,,0.0,,,,,,,
261,1946915,1745300442481,,,,,,,,,,,,,,,,,,,,,,,,,,,,,,,,,,0,0,0,0,0,0,0,0,0,0,0,0,0,0,0,0,,,,,,,,,,,,,
262,1946935,1745300442502,0.0,-23.0,,-0.11,-0.06,0.96,0.0,0.0,0.0,0.96,1.06,91.0,3321.0,5.4,3.76,,12.97,1.204,100.6,,22.8,5.0,,,,,,,,,,,,0,0,0,0,0,0,0,0,0,0,0,0,0,0,0,0,,,,,,0.0,,,,,,,
263,1946955,1745300442522,,,,,,,,,,,,,,,,,,,,,,,,,,,,,,,,,,0,0,0,0,0,0,0,0,0,0,0,0,0,0,0,0,,,,,,,,,,,,,
264,1946975,1745300442542,0.0,-12.0,,-0.07,-0.01,0.99,1.0,0.0,0.0,0.99,1.06,94.0,3268.0,5.5,3.76,,12.95,1.191,100.6,,22.8,5.0,0.0,0.0,0.0,0.0,0.0,0.0,0.0,0.0,2.26,,,0,0,0,0,0,0,0,0,0,0,0,0,0,0,0,0,,0.0,,,,0.0,38.986019,-76.950012,0.04,50.0,32.0,3.0,0.8
265,1946995,1745300442562,,,,,,,,,,,,,,,,,,,,,,,,,,,,,,,,,,0,0,0,0,0,0,0,0,0,0,0,0,0,0,0,0,,,,,,,,,,,,,
266,1947015,1745300442582,0.0,-27.0,,-0.1,-0.1,1.01,-1.0,0.0,0.0,1.02,1.06,97.0,3273.0,5.5,3.75,,12.99,1.181,100.6,,22.8,5.0,,,,,,,,,,,,0,0,0,0,0,0,0,0,0,0,0,0,0,0,0,0,,,,,,0.0,,,,,,,
267,1947035,1745300442602,,,,,,,,,,,,,,,,,,,,,,,,,,,,,,,,,,0,0,0,0,0,0,0,0,0,0,0,0,0,0,0,0,,,,,,,,,,,,,
268,1947055,1745300442622,0.0,-27.0,,-0.1,-0.01,0.94,1.0,0.0,0.0,0.94,1.06,89.0,3296.0,5.5,3.77,,12.99,1.181,100.6,,22.3,5.0,,,,,,,,,,,,0,0,0,0,0,0,0,0,0,0,0,0,0,0,0,0,,,,,,0.0,,,,,,,
269,1947075,1745300442642,,,,,,,,,,,,,,,,,,,,,,,0.0,0.0,0.0,0.0,0.0,0.0,0.0,0.0,2.26,,,0,0,0,0,0,0,0,0,0,0,0,0,0,0,0,0,,0.0,,,,,38.986019,-76.950012,0.12,50.0,32.0,3.0,0.8
270,1947095,1745300442662,0.0,-38.0,,-0.06,-0.02,1.02,0.0,0.0,0.0,1.03,1.06,97.0,3296.0,5.5,3.77,,12.95,1.182,100.6,,22.3,5.0,,,,,,,,,,,,0,0,0,0,0,0,0,0,0,0,0,0,0,0,0,0,,,,,,0.0,,,,,,,
271,1947115,1745300442682,,,,,,,,,,,,,,,,,,,,,,,,,,,,,,,,,,0,0,0,0,0,0,0,0,0,0,0,0,0,0,0,0,,,,,,,,,,,,,
272,1947135,1745300442702,0.0,-27.0,,-0.11,-0.06,1.04,-1.0,0.0,0.0,1.04,1.06,99.0,3232.0,5.4,3.76,,13.01,1.178,100.6,,22.1,5.0,,,,,,,,,,,,0,0,0,0,0,0,0,0,0,0,0,0,0,0,0,0,,,,,,0.0,,,,,,,
273,1947155,1745300442722,,,,,,,,,,,,,,,,,,,,,,,,,,,,,,,,,,0,0,0,0,0,0,0,0,0,0,0,0,0,0,0,0,,,,,,,,,,,,,
274,1947175,1745300442742,0.0,-38.0,,-0.1,0.01,0.94,1.0,0.0,0.0,0.95,1.06,89.0,3290.0,5.2,3.76,,12.96,1.167,100.6,,22.1,5.0,0.0,0.0,0.0,0.0,0.0,0.0,0.0,0.0,2.26,,,0,0,0,0,0,0,0,0,0,0,0,0,0,0,0,0,,0.0,,,,0.0,38.986019,-76.950012,0.04,50.1,32.0,3.0,0.8
275,1947195,1745300442762,,,,,,,,,,,,,,,,,,,,,,,,,,,,,,,,,,0,0,0,0,0,0,0,0,0,0,0,0,0,0,0,0,,,,,,,,,,,,,
276,1947215,1745300442782,0.0,-8.0,,-0.06,-0.01,1.04,0.0,0.0,0.0,1.04,1.06,98.0,3299.0,3.4,3.76,,12.88,1.165,100.6,,22.1,5.0,,,,,,,,,,,,0,0,0,0,0,0,0,0,0,0,0,0,0,0,0,0,,,,,,0.0,,,,,,,
277,1947235,1745300442802,,,,,,,,,,,,,,,,,,,,,,,,,,,,,,,,,,0,0,0,0,0,0,0,0,0,0,0,0,0,0,0,0,,,,,,,,,,,,,
278,1947255,1745300442822,0.0,-27.0,,-0.11,-0.08,1.02,0.0,0.0,0.0,1.03,1.06,97.0,3256.0,2.9,3.49,,12.88,1.165,100.6,,22.9,5.0,,,,,,,,,,,,0,0,0,0,0,0,0,0,0,0,0,0,0,0,0,0,,,,,,0.0,,,,,,,
279,1947275,1745300442842,,,,,,,,,,,,,,,,,,,,,,,0.0,0.0,0.0,0.0,0.0,0.0,0.0,0.0,2.26,,,0,0,0,0,0,0,0,0,0,0,0,0,0,0,0,0,,0.0,,,,,38.986019,-76.950012,0.05,50.1,32.0,3.0,0.8
280,1947295,1745300442862,0.0,-27.0,,-0.1,0.01,0.93,1.0,0.0,0.0,0.93,1.06,88.0,3256.0,2.9,3.49,,12.83,1.178,100.6,,22.9,5.0,,,,,,,,,,,,0,0,0,0,0,0,0,0,0,0,0,0,0,0,0,0,,,,,,0.0,,,,,,,
281,1947315,1745300442882,,,,,,,,,,,,,,,,,,,,,,,,,,,,,,,,,,0,0,0,0,0,0,0,0,0,0,0,0,0,0,0,0,,,,,,,,,,,,,
282,1947335,1745300442902,0.0,-31.0,,-0.06,-0.05,1.0,0.0,0.0,0.0,1.01,1.06,95.0,3276.0,2.8,3.45,,12.75,1.176,100.6,,22.1,5.0,,,,,,,,,,,,0,0,0,0,0,0,0,0,0,0,0,0,0,0,0,0,,,,,,0.0,,,,,,,
283,1947355,1745300442922,,,,,,,,,,,,,,,,,,,,,,,,,,,,,,,,,,0,0,0,0,0,0,0,0,0,0,0,0,0,0,0,0,,,,,,,,,,,,,
284,1947375,1745300442942,0.0,-19.0,,-0.09,-0.1,1.03,-1.0,0.0,0.0,1.04,1.06,98.0,3242.0,2.8,3.48,,12.73,1.172,100.6,,22.1,5.0,0.0,0.0,0.0,0.0,0.0,0.0,0.0,0.0,2.26,,,0,0,0,0,0,0,0,0,0,0,0,0,0,0,0,0,,0.0,,,,0.0,38.986019,-76.950012,0.05,50.1,32.0,3.0,0.8
285,1947395,1745300442962,,,,,,,,,,,,,,,,,,,,,,,,,,,,,,,,,,0,0,0,0,0,0,0,0,0,0,0,0,0,0,0,0,,,,,,,,,,,,,
286,1947415,1745300442982,0.0,-15.0,,-0.12,-0.05,0.95,2.0,0.0,0.0,0.95,1.06,90.0,3161.0,2.8,3.43,,12.69,1.182,100.6,,22.1,5.0,,,,,,,,,,,,0,0,0,0,0,0,0,0,0,0,0,0,0,0,0,0,,,,,,0.0,,,,,,,
287,1947435,1745300442992,,,,,,,,,,,,,,,,,,,,,,,,,,,,,,,,,,0,0,0,0,0,0,0,0,0,0,0,0,0,0,0,0,,,,,,,,,,,,,
288,1947455,1745300443012,0.0,-23.0,,-0.08,0.05,0.92,1.0,0.0,0.0,0.93,1.06,88.0,3173.0,2.9,3.46,,12.69,1.182,100.6,,21.6,5.0,,,,,,,,,,,,0,0,0,0,0,0,0,0,0,0,0,0,0,0,0,0,,,,,,0.0,,,,,,,
289,1947475,1745300443032,,,,,,,,,,,,,,,,,,,,,,,0.0,0.0,0.0,0.0,0.0,0.0,0.0,0.0,2.26,,,0,0,0,0,0,0,0,0,0,0,0,0,0,0,0,0,,0.0,,,,,38.986019,-76.950012,0.05,50.1,32.0,3.0,0.8
290,1947495,1745300443052,0.0,-38.0,,-0.05,0.01,0.99,-1.0,0.0,0.0,0.99,1.06,94.0,3173.0,2.9,3.46,,12.69,1.192,100.6,,21.6,5.0,,,,,,,,,,,,0,0,0,0,0,0,0,0,0,0,0,0,0,0,0,0,,,,,,0.0,,,,,,,
291,1947515,1745300443072,,,,,,,,,,,,,,,,,,,,,,,,,,,,,,,,,,0,0,0,0,0,0,0,0,0,0,0,0,0,0,0,0,,,,,,,,,,,,,
292,1947535,1745300443096,0.0,-23.0,,-0.06,-0.07,1.06,-2.0,0.0,0.0,1.06,1.06,100.0,3157.0,3.0,3.47,,12.69,1.194,100.6,,21.9,5.0,,,,,,,,,,,,0,0,0,0,0,0,0,0,0,0,0,0,0,0,0,0,,,,,,0.0,,,,,,,
293,1947555,1745300443116,,,,,,,,,,,,,,,,,,,,,,,,,,,,,,,,,,0,0,0,0,0,0,0,0,0,0,0,0,0,0,0,0,,,,,,,,,,,,,
294,1947575,1745300443136,0.0,-31.0,13.1,-0.1,-0.1,1.09,-1.0,0.0,0.0,1.1,1.1,100.0,3062.0,3.0,3.49,15.0,12.75,1.188,100.6,174.0,21.9,5.0,0.0,0.0,0.0,0.0,0.0,0.0,0.0,0.0,2.26,0.0,1.0,0,0,0,0,0,0,0,0,0,0,0,0,0,0,0,0,0.0,0.0,1.0,0.0,0.0,0.0,38.986019,-76.950012,0.07,50.1,32.0,3.0,0.8
295,1947595,1745300443156,,,,,,,,,,,,,,,,,,,,,,,,,,,,,,,,,,0,0,0,0,0,0,0,0,0,0,0,0,0,0,0,0,,,,,,,,,,,,,
296,1947615,1745300443176,0.0,-8.0,,-0.13,-0.08,1.03,0.0,0.0,0.0,1.04,1.1,95.0,3157.0,3.0,3.51,,12.75,1.188,100.6,,21.9,5.0,,,,,,,,,,,,0,0,0,0,0,0,0,0,0,0,0,0,0,0,0,0,,,,,,0.0,,,,,,,
297,1947635,1745300443202,,,,,,,,,,,,,,,,,,,,,,,,,,,,,,,,,,0,0,0,0,0,0,0,0,0,0,0,0,0,0,0,0,,,,,,,,,,,,,
298,1947655,1745300443222,0.0,-12.0,,-0.12,-0.03,0.93,1.0,0.0,0.0,0.94,1.1,86.0,3144.0,2.9,3.51,,12.75,1.188,100.6,,21.1,5.0,,,,,,,,,,,,0,0,0,0,0,0,0,0,0,0,0,0,0,0,0,0,,,,,,0.0,,,,,,,
299,1947675,1745300443242,,,,,,,,,,,,,,,,,,,,,,,0.0,0.0,0.0,0.0,0.0,0.0,0.0,0.0,2.26,,,0,0,0,0,0,0,0,0,0,0,0,0,0,0,0,0,,0.0,,,,,38.986019,-76.950012,0.04,50.1,32.0,3.0,0.8
300,1947695,1745300443262,0.0,-23.0,,-0.09,0.03,0.89,2.0,0.0,0.0,0.9,1.1,82.0,3144.0,2.9,3.51,,12.75,1.205,100.6,,21.1,5.0,,,,,,,,,,,,0,0,0,0,0,0,0,0,0,0,0,0,0,0,0,0,,,,,,0.0,,,,,,,
301,1947715,1745300443282,,,,,,,,,,,,,,,,,,,,,,,,,,,,,,,,,,0,0,0,0,0,0,0,0,0,0,0,0,0,0,0,0,,,,,,,,,,,,,
302,1947735,1745300443302,0.0,-27.0,,-0.05,0.06,0.93,1.0,0.0,0.0,0.94,1.1,86.0,3063.0,2.8,3.51,,12.73,1.209,100.6,,21.4,5.0,,,,,,,,,,,,0,0,0,0,0,0,0,0,0,0,0,0,0,0,0,0,,,,,,0.0,,,,,,,
303,1947755,1745300443322,,,,,,,,,,,,,,,,,,,,,,,,,,,,,,,,,,0,0,0,0,0,0,0,0,0,0,0,0,0,0,0,0,,,,,,,,,,,,,
304,1947775,1745300443342,0.0,-31.0,,-0.02,0.01,1.01,-1.0,0.0,1.0,1.01,1.1,92.0,3064.0,2.8,3.53,,12.8,1.228,100.6,,21.4,5.0,0.0,0.0,0.0,0.0,0.0,0.0,0.0,0.0,2.27,,,0,0,0,0,0,0,0,0,0,0,0,0,0,0,0,0,,0.0,,,,0.0,38.986019,-76.950012,0.0,50.1,32.0,3.0,0.8
305,1947795,1745300443362,,,,,,,,,,,,,,,,,,,,,,,,,,,,,,,,,,0,0,0,0,0,0,0,0,0,0,0,0,0,0,0,0,,,,,,,,,,,,,
306,1947815,1745300443382,0.0,-12.0,,-0.02,-0.09,1.07,-2.0,0.0,1.0,1.08,1.1,98.0,3094.0,2.8,3.5,,12.79,1.223,100.6,,21.4,5.0,,,,,,,,,,,,0,0,0,0,0,0,0,0,0,0,0,0,0,0,0,0,,,,,,0.0,,,,,,,
307,1947835,1745300443404,,,,,,,,,,,,,,,,,,,,,,,,,,,,,,,,,,0,0,0,0,0,0,0,0,0,0,0,0,0,0,0,0,,,,,,,,,,,,,
308,1947855,1745300443424,0.0,-4.0,,-0.04,-0.13,1.12,-3.0,0.0,0.0,1.12,1.12,100.0,3079.0,2.9,3.52,,12.79,1.223,100.6,,21.0,5.0,,,,,,,,,,,,0,0,0,0,0,0,0,0,0,0,0,0,0,0,0,0,,,,,,0.0,,,,,,,
309,1947875,1745300443444,,,,,,,,,,,,,,,,,,,,,,,0.0,0.0,0.0,0.0,0.0,0.0,0.0,0.0,2.26,,,0,0,0,0,0,0,0,0,0,0,0,0,0,0,0,0,,0.0,,,,,38.986019,-76.950012,0.04,50.1,32.0,3.0,0.8
310,1947895,1745300443464,0.0,-27.0,,-0.07,-0.12,1.14,-3.0,0.0,0.0,1.15,1.15,100.0,3079.0,2.9,3.52,,12.79,1.198,100.6,,21.0,5.0,,,,,,,,,,,,0,0,0,0,0,0,0,0,0,0,0,0,0,0,0,0,,,,,,0.0,,,,,,,
311,1947915,1745300443484,,,,,,,,,,,,,,,,,,,,,,,,,,,,,,,,,,0,0,0,0,0,0,0,0,0,0,0,0,0,0,0,0,,,,,,,,,,,,,
312,1947935,1745300443502,0.0,-31.0,,-0.11,-0.13,1.14,-2.0,0.0,0.0,1.15,1.15,100.0,3050.0,2.9,3.5,,12.83,1.206,100.6,,20.9,5.0,,,,,,,,,,,,0,0,0,0,0,0,0,0,0,0,0,0,0,0,0,0,,,,,,0.0,,,,,,,
313,1947955,1745300443522,,,,,,,,,,,,,,,,,,,,,,,,,,,,,,,,,,0,0,0,0,0,0,0,0,0,0,0,0,0,0,0,0,,,,,,,,,,,,,
314,1947975,1745300443542,0.0,-19.0,,-0.15,-0.13,1.11,-1.0,0.0,0.0,1.13,1.15,98.0,3073.0,3.0,3.53,,12.88,1.228,100.6,,20.9,5.0,0.0,0.0,0.0,0.0,0.0,0.0,0.0,0.0,2.26,,,0,0,0,0,0,0,0,0,0,0,0,0,0,0,0,0,,0.0,,,,0.0,38.986019,-76.950012,0.0,50.1,32.0,3.0,0.8
315,1947995,1745300443562,,,,,,,,,,,,,,,,,,,,,,,,,,,,,,,,,,0,0,0,0,0,0,0,0,0,0,0,0,0,0,0,0,,,,,,,,,,,,,
316,1948015,1745300443582,0.0,-8.0,,-0.17,-0.11,1.05,0.0,0.0,0.0,1.08,1.15,93.0,3050.0,3.1,3.51,,12.81,1.22,100.6,,20.9,5.0,,,,,,,,,,,,0,0,0,0,0,0,0,0,0,0,0,0,0,0,0,0,,,,,,0.0,,,,,,,
317,1948035,1745300443603,,,,,,,,,,,,,,,,,,,,,,,,,,,,,,,,,,0,0,0,0,0,0,0,0,0,0,0,0,0,0,0,0,,,,,,,,,,,,,
318,1948055,1745300443623,0.0,-8.0,,-0.19,-0.08,0.99,1.0,0.0,-1.0,1.01,1.15,87.0,3007.0,3.1,3.55,,12.81,1.22,100.6,,21.0,5.0,,,,,,,,,,,,0,0,0,0,0,0,0,0,0,0,0,0,0,0,0,0,,,,,,0.0,,,,,,,
319,1948075,1745300443643,,,,,,,,,,,,,,,,,,,,,,,0.0,0.0,0.0,0.0,0.0,0.0,0.0,0.0,2.26,,,0,0,0,0,0,0,0,0,0,0,0,0,0,0,0,0,,0.0,,,,,38.986019,-76.950012,0.46,50.1,32.0,3.0,0.8
320,1948095,1745300443663,0.0,-15.0,,-0.2,-0.05,0.92,2.0,0.0,-1.0,0.94,1.15,81.0,3007.0,3.1,3.55,,12.85,1.202,100.6,,21.0,5.0,,,,,,,,,,,,0,0,0,0,0,0,0,0,0,0,0,0,0,0,0,0,,,,,,0.0,,,,,,,
321,1948115,1745300443683,,,,,,,,,,,,,,,,,,,,,,,,,,,,,,,,,,0,0,0,0,0,0,0,0,0,0,0,0,0,0,0,0,,,,,,,,,,,,,
322,1948135,1745300443703,0.0,-38.0,,-0.2,-0.02,0.84,3.0,0.0,-1.0,0.87,1.15,75.0,2996.0,3.1,3.55,,12.89,1.204,100.6,,20.7,5.0,,,,,,,,,,,,0,0,0,0,0,0,0,0,0,0,0,0,0,0,0,0,,,,,,0.0,,,,,,,
323,1948155,1745300443723,,,,,,,,,,,,,,,,,,,,,,,,,,,,,,,,,,0,0,0,0,0,0,0,0,0,0,0,0,0,0,0,0,,,,,,,,,,,,,
324,1948175,1745300443743,0.0,-12.0,,-0.19,0.0,0.77,4.0,0.0,-1.0,0.8,1.15,69.0,3054.0,3.0,3.54,,12.89,1.214,100.6,,20.7,5.0,0.0,0.0,0.0,0.0,0.0,0.0,0.0,0.0,2.26,,,0,0,0,0,0,0,0,0,0,0,0,0,0,0,0,0,,0.0,,,,0.0,38.986019,-76.950012,0.13,50.1,32.0,3.0,0.8
325,1948195,1745300443763,,,,,,,,,,,,,,,,,,,,,,,,,,,,,,,,,,0,0,0,0,0,0,0,0,0,0,0,0,0,0,0,0,,,,,,,,,,,,,
326,1948215,1745300443783,0.0,-8.0,,-0.16,0.03,0.73,4.0,0.0,-1.0,0.74,1.15,65.0,3067.0,2.9,3.55,,12.87,1.212,100.6,,20.7,5.0,,,,,,,,,,,,0,0,0,0,0,0,0,0,0,0,0,0,0,0,0,0,,,,,,0.0,,,,,,,
327,1948235,1745300443803,,,,,,,,,,,,,,,,,,,,,,,,,,,,,,,,,,0,0,0,0,0,0,0,0,0,0,0,0,0,0,0,0,,,,,,,,,,,,,
328,1948255,1745300443823,0.0,-8.0,,-0.14,0.08,0.71,4.0,0.0,-1.0,0.73,1.15,63.0,3026.0,2.9,3.51,,12.87,1.212,100.6,,21.1,5.0,,,,,,,,,,,,0,0,0,0,0,0,0,0,0,0,0,0,0,0,0,0,,,,,,0.0,,,,,,,
329,1948275,1745300443843,,,,,,,,,,,,,,,,,,,,,,,0.0,0.0,0.0,0.0,0.0,0.0,0.0,0.0,2.26,,,0,0,0,0,0,0,0,0,0,0,0,0,0,0,0,0,,0.0,,,,,38.986019,-76.950012,0.11,50.1,32.0,3.0,0.8
330,1948295,1745300443863,0.0,-8.0,,-0.11,0.12,0.72,4.0,0.0,0.0,0.74,1.15,64.0,3026.0,2.9,3.51,,12.83,1.207,100.6,,21.1,5.0,,,,,,,,,,,,0,0,0,0,0,0,0,0,0,0,0,0,0,0,0,0,,,,,,0.0,,,,,,,
331,1948315,1745300443883,,,,,,,,,,,,,,,,,,,,,,,,,,,,,,,,,,0,0,0,0,0,0,0,0,0,0,0,0,0,0,0,0,,,,,,,,,,,,,
332,1948335,1745300443903,0.0,-27.0,,-0.08,0.17,0.74,4.0,0.0,0.0,0.77,1.15,67.0,2993.0,2.9,3.55,,12.89,1.209,100.6,,20.8,5.0,,,,,,,,,,,,0,0,0,0,0,0,0,0,0,0,0,0,0,0,0,0,,,,,,0.0,,,,,,,
333,1948355,1745300443923,,,,,,,,,,,,,,,,,,,,,,,,,,,,,,,,,,0,0,0,0,0,0,0,0,0,0,0,0,0,0,0,0,,,,,,,,,,,,,
334,1948375,1745300443943,0.0,-27.0,,-0.06,0.19,0.78,4.0,0.0,0.0,0.8,1.15,70.0,3051.0,3.0,3.52,,12.84,1.216,100.6,,20.8,5.0,0.0,0.0,0.0,0.0,0.0,0.0,0.0,0.0,2.26,,,0,0,0,0,0,0,0,0,0,0,0,0,0,0,0,0,,0.0,,,,0.0,38.986019,-76.950012,0.11,50.1,32.0,3.0,0.8
335,1948395,1745300443963,,,,,,,,,,,,,,,,,,,,,,,,,,,,,,,,,,0,0,0,0,0,0,0,0,0,0,0,0,0,0,0,0,,,,,,,,,,,,,
336,1948415,1745300443983,0.0,-23.0,,-0.03,0.2,0.81,4.0,0.0,0.0,0.84,1.15,73.0,3026.0,5.9,3.74,,13.03,1.208,100.6,,20.8,5.0,,,,,,,,,,,,0,0,0,0,0,0,0,0,0,0,0,0,0,0,0,0,,,,,,0.0,,,,,,,
337,1948435,1745300443995,,,,,,,,,,,,,,,,,,,,,,,,,,,,,,,,,,0,0,0,0,0,0,0,0,0,0,0,0,0,0,0,0,,,,,,,,,,,,,
338,1948455,1745300444015,0.0,-8.0,,-0.01,0.2,0.86,3.0,0.0,1.0,0.88,1.15,76.0,3004.0,7.9,3.87,,13.03,1.208,100.6,,21.0,5.0,,,,,,,,,,,,0,0,0,0,0,0,0,0,0,0,0,0,0,0,0,0,,,,,,0.0,,,,,,,
339,1948475,1745300444035,,,,,,,,,,,,,,,,,,,,,,,0.0,0.0,0.0,0.0,0.0,0.0,0.0,0.0,2.26,,,0,0,0,0,0,0,0,0,0,0,0,0,0,0,0,0,,0.0,,,,,38.986019,-76.950012,0.11,50.1,32.0,3.0,0.8
340,1948495,1745300444055,0.0,-23.0,,0.02,0.17,0.91,3.0,0.0,1.0,0.93,1.15,81.0,3004.0,7.9,3.87,,13.19,1.207,100.6,,21.0,5.0,,,,,,,,,,,,0,0,0,0,0,0,0,0,0,0,0,0,0,0,0,0,,,,,,0.0,,,,,,,
341,1948515,1745300444075,,,,,,,,,,,,,,,,,,,,,,,,,,,,,,,,,,0,0,0,0,0,0,0,0,0,0,0,0,0,0,0,0,,,,,,,,,,,,,
342,1948535,1745300444103,0.0,-31.0,,0.03,0.09,1.0,1.0,0.0,1.0,1.01,1.15,87.0,3018.0,8.4,3.89,,13.33,1.223,100.6,,21.1,5.0,,,,,,,,,,,,0,0,0,0,0,0,0,0,0,0,0,0,0,0,0,0,,,,,,0.0,,,,,,,
343,1948555,1745300444123,,,,,,,,,,,,,,,,,,,,,,,,,,,,,,,,,,0,0,0,0,0,0,0,0,0,0,0,0,0,0,0,0,,,,,,,,,,,,,
344,1948575,1745300444143,0.0,-27.0,13.13,-0.01,0.01,1.05,0.0,0.0,1.0,1.05,1.15,91.0,3167.0,9.4,3.92,15.0,13.36,1.222,100.6,174.0,21.1,5.0,0.0,0.0,0.0,0.0,0.0,0.0,0.0,0.0,2.26,0.0,1.0,0,0,0,0,0,0,0,0,0,0,0,0,0,0,0,0,0.0,0.0,1.0,0.0,0.0,0.0,38.986019,-76.950012,0.62,50.1,32.0,3.0,0.8
345,1948595,1745300444163,,,,,,,,,,,,,,,,,,,,,,,,,,,,,,,,,,0,0,0,0,0,0,0,0,0,0,0,0,0,0,0,0,,,,,,,,,,,,,
346,1948615,1745300444183,0.0,-8.0,,-0.03,0.06,0.94,3.0,0.0,0.0,0.94,1.15,82.0,3265.0,9.5,3.92,,13.35,1.208,100.6,,21.1,5.0,,,,,,,,,,,,0,0,0,0,0,0,0,0,0,0,0,0,0,0,0,0,,,,,,0.0,,,,,,,
347,1948635,1745300444199,,,,,,,,,,,,,,,,,,,,,,,,,,,,,,,,,,0,0,0,0,0,0,0,0,0,0,0,0,0,0,0,0,,,,,,,,,,,,,
348,1948655,1745300444219,0.0,-8.0,,-0.02,0.0,1.02,0.0,0.0,1.0,1.02,1.15,89.0,3359.0,9.4,3.91,,13.35,1.208,100.6,,23.2,5.0,,,,,,,,,,,,0,0,0,0,0,0,0,0,0,0,0,0,0,0,0,0,,,,,,0.0,,,,,,,
349,1948675,1745300444239,,,,,,,,,,,,,,,,,,,,,,,0.0,0.0,0.0,0.0,0.0,0.0,0.0,0.0,2.26,,,0,0,0,0,0,0,0,0,0,0,0,0,0,0,0,0,,0.0,,,,,38.986019,-76.950012,0.33,50.1,32.0,3.0,0.8
350,1948695,1745300444259,0.0,-23.0,,-0.04,0.06,0.96,3.0,0.0,0.0,0.97,1.15,84.0,3359.0,9.4,3.91,,13.39,1.231,100.6,,23.2,5.0,,,,,,,,,,,,0,0,0,0,0,0,0,0,0,0,0,0,0,0,0,0,,,,,,0.0,,,,,,,
351,1948715,1745300444279,,,,,,,,,,,,,,,,,,,,,,,,,,,,,,,,,,0,0,0,0,0,0,0,0,0,0,0,0,0,0,0,0,,,,,,,,,,,,,
352,1948735,1745300444303,0.0,-19.0,,-0.05,-0.06,1.0,0.0,0.0,0.0,1.0,1.15,87.0,3461.0,9.4,3.92,,13.28,1.232,100.6,,23.9,5.0,,,,,,,,,,,,0,0,0,0,0,0,0,0,0,0,0,0,0,0,0,0,,,,,,0.0,,,,,,,
353,1948755,1745300444323,,,,,,,,,,,,,,,,,,,,,,,,,,,,,,,,,,0,0,0,0,0,0,0,0,0,0,0,0,0,0,0,0,,,,,,,,,,,,,
354,1948775,1745300444343,0.0,-23.0,,-0.02,0.06,1.02,0.0,0.0,1.0,1.02,1.15,89.0,3467.0,9.3,3.92,,13.32,1.215,100.6,,23.9,5.0,0.0,0.0,0.0,0.0,0.0,0.0,0.0,0.0,2.26,,,0,0,0,0,0,0,0,0,0,0,0,0,0,0,0,0,,0.0,,,,0.0,38.986019,-76.950012,0.08,50.1,32.0,3.0,0.8
355,1948795,1745300444363,,,,,,,,,,,,,,,,,,,,,,,,,,,,,,,,,,0,0,0,0,0,0,0,0,0,0,0,0,0,0,0,0,,,,,,,,,,,,,
356,1948815,1745300444383,0.0,5.0,,-0.03,0.13,0.97,2.0,0.0,0.0,0.97,1.15,84.0,3584.0,9.3,3.9,,13.23,1.218,100.6,,23.9,5.0,,,,,,,,,,,,0,0,0,0,0,0,0,0,0,0,0,0,0,0,0,0,,,,,,0.0,,,,,,,
357,1948835,1745300444405,,,,,,,,,,,,,,,,,,,,,,,,,,,,,,,,,,0,0,0,0,0,0,0,0,0,0,0,0,0,0,0,0,,,,,,,,,,,,,
358,1948855,1745300444425,0.0,25.0,,-0.05,0.15,0.88,7.0,0.0,0.0,0.89,1.15,77.0,3621.0,9.3,3.9,,13.23,1.218,100.6,,24.8,5.0,,,,,,,,,,,,0,0,0,0,0,0,0,0,0,0,0,0,0,0,0,0,,,,,,0.0,,,,,,,
359,1948875,1745300444445,,,,,,,,,,,,,,,,,,,,,,,0.0,0.0,0.0,0.0,0.0,0.0,0.0,0.0,2.26,,,0,0,0,0,0,0,0,0,0,0,0,0,0,0,0,0,,0.0,,,,,38.986019,-76.950012,0.11,50.1,32.0,3.0,0.8
360,1948895,1745300444465,0.0,0.0,,-0.05,0.16,0.89,6.0,0.0,0.0,0.91,1.15,79.0,3621.0,9.3,3.9,,13.15,1.199,100.6,,24.8,5.0,,,,,,,,,,,,0,0,0,0,0,0,0,0,0,0,0,0,0,0,0,0,,,,,,0.0,,,,,,,
361,1948915,1745300444485,,,,,,,,,,,,,,,,,,,,,,,,,,,,,,,,,,0,0,0,0,0,0,0,0,0,0,0,0,0,0,0,0,,,,,,,,,,,,,
362,1948935,1745300444503,0.0,17.0,,-0.05,0.14,0.9,6.0,0.0,0.0,0.91,1.15,79.0,3767.0,9.3,3.9,,13.03,1.197,100.6,,26.3,5.0,,,,,,,,,,,,0,0,0,0,0,0,0,0,0,0,0,0,0,0,0,0,,,,,,0.0,,,,,,,
363,1948955,1745300444523,,,,,,,,,,,,,,,,,,,,,,,,,,,,,,,,,,0,0,0,0,0,0,0,0,0,0,0,0,0,0,0,0,,,,,,,,,,,,,
364,1948975,1745300444543,0.0,-27.0,,-0.06,0.15,0.91,5.0,0.0,0.0,0.93,1.15,81.0,3861.0,9.4,3.88,,13.01,1.209,98.8,,26.3,5.0,0.0,0.0,0.0,0.0,0.0,0.0,0.0,0.0,2.26,,,0,0,0,0,0,0,0,0,0,0,0,0,0,0,0,0,,0.0,,,,0.0,38.986019,-76.950012,0.19,50.1,32.0,3.0,0.8
365,1948995,1745300444563,,,,,,,,,,,,,,,,,,,,,,,,,,,,,,,,,,0,0,0,0,0,0,0,0,0,0,0,0,0,0,0,0,,,,,,,,,,,,,
366,1949015,1745300444583,0.0,-8.0,,-0.05,0.08,0.93,3.0,0.0,0.0,0.94,1.15,81.0,3875.0,9.4,3.87,,12.97,1.182,98.8,,26.3,5.0,,,,,,,,,,,,0,0,0,0,0,0,0,0,0,0,0,0,0,0,0,0,,,,,,0.0,,,,,,,
367,1949035,1745300444604,,,,,,,,,,,,,,,,,,,,,,,,,,,,,,,,,,0,0,0,0,0,0,0,0,0,0,0,0,0,0,0,0,,,,,,,,,,,,,
368,1949055,1745300444624,0.0,0.0,,-0.08,0.02,0.9,1.0,0.0,0.0,0.9,1.15,78.0,3939.0,9.6,3.87,,12.97,1.182,98.8,,26.6,5.0,,,,,,,,,,,,0,0,0,0,0,0,0,0,0,0,0,0,0,0,0,0,,,,,,0.0,,,,,,,
369,1949075,1745300444644,,,,,,,,,,,,,,,,,,,,,,,0.0,0.0,0.0,0.0,0.0,0.0,0.0,0.0,2.26,,,0,0,0,0,0,0,0,0,0,0,0,0,0,0,0,0,,0.0,,,,,38.986019,-76.950012,0.37,50.1,32.0,3.0,0.8
370,1949095,1745300444664,0.0,-19.0,,-0.09,0.01,0.91,1.0,0.0,0.0,0.92,1.15,79.0,3939.0,9.6,3.87,,12.96,1.178,98.8,,26.6,5.0,,,,,,,,,,,,0,0,0,0,0,0,0,0,0,0,0,0,0,0,0,0,,,,,,0.0,,,,,,,
371,1949115,1745300444684,,,,,,,,,,,,,,,,,,,,,,,,,,,,,,,,,,0,0,0,0,0,0,0,0,0,0,0,0,0,0,0,0,,,,,,,,,,,,,
372,1949135,1745300444702,0.0,-4.0,,-0.1,0.09,0.99,3.0,0.0,0.0,1.0,1.15,86.0,3909.0,9.5,3.87,,12.91,1.158,98.8,,26.7,5.0,,,,,,,,,,,,0,0,0,0,0,0,0,0,0,0,0,0,0,0,0,0,,,,,,0.0,,,,,,,
373,1949155,1745300444722,,,,,,,,,,,,,,,,,,,,,,,,,,,,,,,,,,0,0,0,0,0,0,0,0,0,0,0,0,0,0,0,0,,,,,,,,,,,,,
374,1949175,1745300444742,0.0,-27.0,,-0.08,-0.03,1.03,1.0,0.0,0.0,1.03,1.15,89.0,3938.0,9.5,3.87,,12.83,1.145,98.8,,26.7,5.0,0.0,0.0,0.0,0.0,0.0,0.0,0.0,0.0,2.26,,,0,0,0,0,0,0,0,0,0,0,0,0,0,0,0,0,,0.0,,,,0.0,38.986019,-76.950012,0.2,50.1,32.0,3.0,0.8
375,1949195,1745300444762,,,,,,,,,,,,,,,,,,,,,,,,,,,,,,,,,,0,0,0,0,0,0,0,0,0,0,0,0,0,0,0,0,,,,,,,,,,,,,
