,Interval,Utc,FrontBP,SteerAng,Battery,AccelX,AccelY,AccelZ,Yaw,Pitch,Roll,Gsum,GsumMax,GsumPct,RPM,TPS,InjectorPW,Baro,MAP,Lambda,IAT,EngineTemp,EOP,EOT,WSFR,WSFL,WSRR,WSRL,TCSet,TCSlip,TCComp,TCCut,Analog8,OilTemp,AA_On,ThermLF1,ThermLF2,ThermRR1,ThermRR2,ThermLF3,ThermLF4,ThermLF5,ThermLF6,ThermLF7,ThermLF8,ThermRR3,ThermRR4,ThermRR5,ThermRR6,ThermRR7,ThermRR8,Gear,AA_On1,AA_LowDrag,Fuel_Mix,AA_Packages,Latitude,Longitude,Speed,GPSSats,GPSQual,GPSDOP
0,9754,0,,,,,,,,,,,,,,,,,,,,,,,,,,,,,,,,,,0,0,0,0,0,0,0,0,0,0,0,0,0,0,0,0,,,,,,,,,,,
1,9774,0,0.0,180.24,,-0.08,0.01,0.92,1.0,0.0,0.0,0.92,0.92,100.0,3311.0,2.6,3.55,,12.99,1.251,102.4,,34.0,5.0,,,,,,,,,,,,0,0,0,0,0,0,0,0,0,0,0,0,0,0,0,0,,,,,0.0,,,,,,
2,9794,0,,,,,,,,,,,,,,,,,,,,,,,,,,,,,,,,,,0,0,0,0,0,0,0,0,0,0,0,0,0,0,0,0,,,,,,,,,,,
3,9814,0,0.0,180.37,,-0.07,0.02,0.98,0.0,0.0,0.0,0.99,0.99,100.0,3307.0,2.9,3.58,,12.87,1.252,102.4,,34.5,5.0,,,,,,,,,,,,0,0,0,0,0,0,0,0,0,0,0,0,0,0,0,0,,,,,0.0,,,,,,
4,9834,0,,,,,,,,,,,,,,,,,,,,,,,0.0,0.0,0.0,0.0,0.0,0.0,0.0,0.0,2.26,,,0,0,0,0,0,0,0,0,0,0,0,0,0,0,0,0,0.0,,,,,0.0,0.0,0.0,0.0,0.0,0.0
5,9854,0,0.0,180.37,,-0.1,-0.07,1.01,1.0,0.0,0.0,1.02,1.02,100.0,3225.0,3.0,3.74,,12.87,1.252,102.4,,34.5,5.0,,,,,,,,,,,,0,0,0,0,0,0,0,0,0,0,0,0,0,0,0,0,,,,,0.0,,,,,,
6,9874,0,,,,,,,,,,,,,,,,,,,,,,,,,,,,,,,,,,0,0,0,0,0,0,0,0,0,0,0,0,0,0,0,0,,,,,,,,,,,
7,9894,0,0.0,180.37,,-0.08,0.01,0.92,1.0,0.0,0.0,0.92,1.02,91.0,3225.0,3.0,3.74,,12.85,1.251,102.4,,33.9,5.0,,,,,,,,,,,,0,0,0,0,0,0,0,0,0,0,0,0,0,0,0,0,,,,,0.0,,,,,,
8,9914,0,,,,,,,,,,,,,,,,,,,,,,,,,,,,,,,,,,0,0,0,0,0,0,0,0,0,0,0,0,0,0,0,0,,,,,,,,,,,
9,9934,0,0.0,180.24,,-0.05,0.05,0.97,0.0,0.0,0.0,0.97,1.02,95.0,3202.0,3.0,3.74,,12.85,1.251,102.4,,33.9,5.0,0.0,0.0,0.0,0.0,0.0,0.0,0.0,0.0,2.27,,,0,0,0,0,0,0,0,0,0,0,0,0,0,0,0,0,0.0,,,,0.0,0.0,0.0,0.0,0.0,0.0,0.0
10,9954,0,,,,,,,,,,,,,,,,,,,,,,,,,,,,,,,,,,0,0,0,0,0,0,0,0,0,0,0,0,0,0,0,0,,,,,,,,,,,
11,9974,0,0.0,180.24,,-0.07,-0.05,1.02,0.0,0.0,0.0,1.03,1.03,100.0,3257.0,3.0,3.75,,12.81,1.246,102.4,,33.9,5.0,,,,,,,,,,,,0,0,0,0,0,0,0,0,0,0,0,0,0,0,0,0,,,,,0.0,,,,,,
12,9994,0,,,,,,,,,,,,,,,,,,,,,,,,,,,,,,,,,,0,0,0,0,0,0,0,0,0,0,0,0,0,0,0,0,,,,,,,,,,,
13,10014,0,0.0,180.24,,-0.09,-0.04,0.95,1.0,0.0,0.0,0.96,1.03,93.0,3177.0,2.7,3.66,,12.75,1.226,102.4,,33.3,5.0,,,,,,,,,,,,0,0,0,0,0,0,0,0,0,0,0,0,0,0,0,0,,,,,0.0,,,,,,
14,10034,0,,,,,,,,,,,,,,,,,,,,,,,0.0,0.0,0.0,0.0,0.0,0.0,0.0,0.0,2.28,,,0,0,0,0,0,0,0,0,0,0,0,0,0,0,0,0,0.0,,,,,0.0,0.0,0.0,0.0,0.0,0.0
15,10054,0,0.0,180.24,,-0.05,0.06,0.93,0.0,0.0,0.0,0.93,1.03,91.0,3189.0,2.5,3.71,,12.75,1.226,100.6,,33.3,5.0,,,,,,,,,,,,0,0,0,0,0,0,0,0,0,0,0,0,0,0,0,0,,,,,0.0,,,,,,
16,10074,0,,,,,,,,,,,,,,,,,,,,,,,,,,,,,,,,,,0,0,0,0,0,0,0,0,0,0,0,0,0,0,0,0,,,,,,,,,,,
17,10094,0,0.0,180.24,,-0.05,0.03,1.01,0.0,0.0,0.0,1.01,1.03,98.0,3189.0,2.5,3.71,,12.77,1.244,100.6,,33.0,5.0,,,,,,,,,,,,0,0,0,0,0,0,0,0,0,0,0,0,0,0,0,0,,,,,0.0,,,,,,
18,10114,0,,,,,,,,,,,,,,,,,,,,,,,,,,,,,,,,,,0,0,0,0,0,0,0,0,0,0,0,0,0,0,0,0,,,,,,,,,,,
19,10134,0,0.0,180.24,13.41,-0.09,-0.09,1.04,1.0,0.0,0.0,1.05,1.05,100.0,3216.0,2.5,3.68,15.0,12.77,1.227,100.6,176.0,33.0,5.0,0.0,0.0,0.0,0.0,0.0,0.0,0.0,0.0,2.28,0.0,0.0,0,0,0,0,0,0,0,0,0,0,0,0,0,0,0,0,0.0,0.0,0.0,0.0,0.0,0.0,0.0,0.0,0.0,0.0,0.0
20,10154,0,,,,,,,,,,,,,,,,,,,,,,,,,,,,,,,,,,0,0,0,0,0,0,0,0,0,0,0,0,0,0,0,0,,,,,,,,,,,
21,10174,0,0.0,180.24,,-0.09,-0.05,0.97,1.0,0.0,-1.0,0.97,1.05,92.0,3144.0,2.5,3.62,,12.77,1.209,100.6,,33.0,5.0,,,,,,,,,,,,0,0,0,0,0,0,0,0,0,0,0,0,0,0,0,0,,,,,0.0,,,,,,
22,10194,0,,,,,,,,,,,,,,,,,,,,,,,,,,,,,,,,,,0,0,0,0,0,0,0,0,0,0,0,0,0,0,0,0,,,,,,,,,,,
23,10214,0,0.0,180.37,,-0.04,0.07,0.91,1.0,0.0,0.0,0.91,1.05,87.0,3155.0,2.6,3.64,,12.85,1.202,100.6,,32.8,5.0,,,,,,,,,,,,0,0,0,0,0,0,0,0,0,0,0,0,0,0,0,0,,,,,0.0,,,,,,
24,10234,0,,,,,,,,,,,,,,,,,,,,,,,0.0,0.0,0.0,0.0,0.0,0.0,0.0,0.0,2.27,,,0,0,0,0,0,0,0,0,0,0,0,0,0,0,0,0,0.0,,,,,0.0,0.0,0.0,0.0,0.0,0.0
25,10254,0,0.0,180.37,,-0.02,0.07,0.99,0.0,0.0,1.0,0.99,1.05,94.0,3174.0,2.8,3.64,,12.85,1.202,100.6,,32.8,5.0,,,,,,,,,,,,0,0,0,0,0,0,0,0,0,0,0,0,0,0,0,0,,,,,0.0,,,,,,
26,10274,0,,,,,,,,,,,,,,,,,,,,,,,,,,,,,,,,,,0,0,0,0,0,0,0,0,0,0,0,0,0,0,0,0,,,,,,,,,,,
27,10294,0,0.0,180.37,,-0.06,-0.05,1.08,0.0,0.0,0.0,1.08,1.08,100.0,3174.0,2.8,3.64,,12.79,1.217,100.6,,32.2,5.0,,,,,,,,,,,,0,0,0,0,0,0,0,0,0,0,0,0,0,0,0,0,,,,,0.0,,,,,,
28,10314,0,,,,,,,,,,,,,,,,,,,,,,,,,,,,,,,,,,0,0,0,0,0,0,0,0,0,0,0,0,0,0,0,0,,,,,,,,,,,
29,10334,0,0.0,180.37,,-0.09,-0.12,1.12,0.0,0.0,0.0,1.13,1.13,100.0,3073.0,3.0,3.77,,12.81,1.209,100.6,,32.2,5.0,0.0,0.0,0.0,0.0,0.0,0.0,0.0,0.0,2.27,,,0,0,0,0,0,0,0,0,0,0,0,0,0,0,0,0,0.0,,,,0.0,0.0,0.0,0.0,0.0,0.0,0.0
30,10354,0,,,,,,,,,,,,,,,,,,,,,,,,,,,,,,,,,,0,0,0,0,0,0,0,0,0,0,0,0,0,0,0,0,,,,,,,,,,,
31,10374,0,0.0,180.37,,-0.12,-0.13,1.11,1.0,0.0,-1.0,1.13,1.13,99.0,3030.0,3.1,3.74,,12.85,1.205,100.6,,32.2,5.0,,,,,,,,,,,,0,0,0,0,0,0,0,0,0,0,0,0,0,0,0,0,,,,,0.0,,,,,,
32,10394,0,,,,,,,,,,,,,,,,,,,,,,,,,,,,,,,,,,0,0,0,0,0,0,0,0,0,0,0,0,0,0,0,0,,,,,,,,,,,
33,10414,0,0.0,180.37,,-0.14,-0.13,1.08,1.0,0.0,-1.0,1.09,1.13,96.0,3062.0,3.1,3.83,,12.87,1.208,100.6,,31.8,5.0,,,,,,,,,,,,0,0,0,0,0,0,0,0,0,0,0,0,0,0,0,0,,,,,0.0,,,,,,
34,10434,0,,,,,,,,,,,,,,,,,,,,,,,0.0,0.0,0.0,0.0,0.0,0.0,0.0,0.0,2.27,,,0,0,0,0,0,0,0,0,0,0,0,0,0,0,0,0,0.0,,,,,0.0,0.0,0.0,0.0,0.0,0.0
35,10454,0,0.0,180.37,,-0.15,-0.09,1.02,2.0,0.0,-1.0,1.04,1.13,92.0,3053.0,2.8,3.82,,12.87,1.208,100.6,,31.8,5.0,,,,,,,,,,,,0,0,0,0,0,0,0,0,0,0,0,0,0,0,0,0,,,,,0.0,,,,,,
36,10474,0,,,,,,,,,,,,,,,,,,,,,,,,,,,,,,,,,,0,0,0,0,0,0,0,0,0,0,0,0,0,0,0,0,,,,,,,,,,,
37,10494,0,0.0,180.49,,-0.15,-0.02,0.96,2.0,0.0,-1.0,0.97,1.13,86.0,3053.0,2.8,3.82,,12.91,1.194,100.6,,31.4,5.0,,,,,,,,,,,,0,0,0,0,0,0,0,0,0,0,0,0,0,0,0,0,,,,,0.0,,,,,,
38,10514,0,,,,,,,,,,,,,,,,,,,,,,,,,,,,,,,,,,0,0,0,0,0,0,0,0,0,0,0,0,0,0,0,0,,,,,,,,,,,
39,10534,0,0.0,180.49,,-0.14,0.05,0.9,2.0,0.0,-1.0,0.91,1.13,80.0,2993.0,2.6,3.71,,12.91,1.189,100.6,,31.4,5.0,0.0,0.0,0.0,0.0,0.0,0.0,0.0,0.0,2.28,,,0,0,0,0,0,0,0,0,0,0,0,0,0,0,0,0,0.0,,,,0.0,0.0,0.0,0.0,0.0,0.0,0.0
40,10554,0,,,,,,,,,,,,,,,,,,,,,,,,,,,,,,,,,,0,0,0,0,0,0,0,0,0,0,0,0,0,0,0,0,,,,,,,,,,,
41,10574,0,0.0,180.49,,-0.12,0.1,0.83,1.0,0.0,-1.0,0.85,1.13,74.0,3013.0,2.5,3.78,,12.96,1.179,100.6,,31.4,5.0,,,,,,,,,,,,0,0,0,0,0,0,0,0,0,0,0,0,0,0,0,0,,,,,0.0,,,,,,
42,10594,0,,,,,,,,,,,,,,,,,,,,,,,,,,,,,,,,,,0,0,0,0,0,0,0,0,0,0,0,0,0,0,0,0,,,,,,,,,,,
43,10614,0,0.0,180.49,,-0.1,0.14,0.77,1.0,0.0,-1.0,0.79,1.13,69.0,3041.0,2.5,3.72,,12.97,1.19,100.6,,31.1,5.0,,,,,,,,,,,,0,0,0,0,0,0,0,0,0,0,0,0,0,0,0,0,,,,,0.0,,,,,,
44,10634,0,,,,,,,,,,,,,,,,,,,,,,,0.0,0.0,0.0,0.0,0.0,0.0,0.0,0.0,2.28,,,0,0,0,0,0,0,0,0,0,0,0,0,0,0,0,0,0.0,,,,,0.0,0.0,0.0,0.0,0.0,0.0
45,10654,0,0.0,180.49,,-0.07,0.16,0.71,1.0,0.0,-1.0,0.73,1.13,64.0,3051.0,2.6,3.71,,12.97,1.19,100.6,,31.1,5.0,,,,,,,,,,,,0,0,0,0,0,0,0,0,0,0,0,0,0,0,0,0,,,,,0.0,,,,,,
46,10674,0,,,,,,,,,,,,,,,,,,,,,,,,,,,,,,,,,,0,0,0,0,0,0,0,0,0,0,0,0,0,0,0,0,,,,,,,,,,,
47,10694,0,0.0,180.49,,-0.04,0.17,0.66,1.0,0.0,-1.0,0.68,1.13,60.0,3051.0,2.6,3.71,,12.95,1.189,100.6,,31.3,5.0,,,,,,,,,,,,0,0,0,0,0,0,0,0,0,0,0,0,0,0,0,0,,,,,0.0,,,,,,
48,10714,0,,,,,,,,,,,,,,,,,,,,,,,,,,,,,,,,,,0,0,0,0,0,0,0,0,0,0,0,0,0,0,0,0,,,,,,,,,,,
49,10734,0,0.0,180.49,,-0.02,0.17,0.62,1.0,0.0,-1.0,0.65,1.13,57.0,2983.0,2.7,3.75,,12.96,1.18,100.6,,31.3,5.0,0.0,0.0,0.0,0.0,0.0,0.0,0.0,0.0,2.27,,,0,0,0,0,0,0,0,0,0,0,0,0,0,0,0,0,0.0,,,,0.0,0.0,0.0,0.0,0.0,0.0,0.0
50,10754,0,,,,,,,,,,,,,,,,,,,,,,,,,,,,,,,,,,0,0,0,0,0,0,0,0,0,0,0,0,0,0,0,0,,,,,,,,,,,
51,10774,0,0.0,180.49,,0.01,0.16,0.6,1.0,0.0,-1.0,0.62,1.13,55.0,2992.0,3.0,3.69,,13.01,1.178,100.6,,31.3,5.0,,,,,,,,,,,,0,0,0,0,0,0,0,0,0,0,0,0,0,0,0,0,,,,,0.0,,,,,,
52,10794,0,,,,,,,,,,,,,,,,,,,,,,,,,,,,,,,,,,0,0,0,0,0,0,0,0,0,0,0,0,0,0,0,0,,,,,,,,,,,
53,10814,0,0.0,180.49,,0.03,0.17,0.57,1.0,0.0,0.0,0.6,1.13,53.0,3036.0,2.9,3.82,,12.97,1.183,100.6,,30.1,5.0,,,,,,,,,,,,0,0,0,0,0,0,0,0,0,0,0,0,0,0,0,0,,,,,0.0,,,,,,
54,10834,0,,,,,,,,,,,,,,,,,,,,,,,0.0,0.0,0.0,0.0,0.0,0.0,0.0,0.0,2.27,,,0,0,0,0,0,0,0,0,0,0,0,0,0,0,0,0,0.0,,,,,0.0,0.0,0.0,0.0,0.0,0.0
55,10854,0,0.0,180.49,,0.05,0.17,0.55,0.0,0.0,0.0,0.58,1.13,51.0,2965.0,2.7,3.75,,12.97,1.183,100.6,,30.1,5.0,,,,,,,,,,,,0,0,0,0,0,0,0,0,0,0,0,0,0,0,0,0,,,,,0.0,,,,,,
56,10874,0,,,,,,,,,,,,,,,,,,,,,,,,,,,,,,,,,,0,0,0,0,0,0,0,0,0,0,0,0,0,0,0,0,,,,,,,,,,,
57,10894,0,0.0,180.49,,0.06,0.17,0.53,0.0,0.0,0.0,0.56,1.13,50.0,2965.0,2.7,3.75,,12.97,1.188,100.6,,31.0,5.0,,,,,,,,,,,,0,0,0,0,0,0,0,0,0,0,0,0,0,0,0,0,,,,,0.0,,,,,,
58,10914,0,,,,,,,,,,,,,,,,,,,,,,,,,,,,,,,,,,0,0,0,0,0,0,0,0,0,0,0,0,0,0,0,0,,,,,,,,,,,
59,10934,0,0.0,180.49,,0.07,0.19,0.5,0.0,0.0,0.0,0.54,1.13,48.0,2933.0,2.5,3.83,,13.01,1.179,100.6,,31.0,5.0,0.0,0.0,0.0,0.0,0.0,0.0,0.0,0.0,2.27,,,0,0,0,0,0,0,0,0,0,0,0,0,0,0,0,0,0.0,,,,0.0,0.0,0.0,0.0,0.0,0.0,0.0
60,10954,0,,,,,,,,,,,,,,,,,,,,,,,,,,,,,,,,,,0,0,0,0,0,0,0,0,0,0,0,0,0,0,0,0,,,,,,,,,,,
61,10974,0,0.0,180.49,,0.09,0.23,0.5,0.0,-1.0,0.0,0.56,1.13,49.0,3180.0,2.5,3.71,,12.99,1.199,100.6,,31.0,5.0,,,,,,,,,,,,0,0,0,0,0,0,0,0,0,0,0,0,0,0,0,0,,,,,0.0,,,,,,
62,10994,0,,,,,,,,,,,,,,,,,,,,,,,,,,,,,,,,,,0,0,0,0,0,0,0,0,0,0,0,0,0,0,0,0,,,,,,,,,,,
63,11014,0,0.0,180.49,,0.07,0.18,0.63,-1.0,-1.0,0.0,0.66,1.13,58.0,3166.0,2.5,3.62,,12.99,1.199,100.6,,32.1,5.0,,,,,,,,,,,,0,0,0,0,0,0,0,0,0,0,0,0,0,0,0,0,,,,,0.0,,,,,,
64,11034,0,,,,,,,,,,,,,,,,,,,,,,,0.0,0.0,0.0,0.0,0.0,0.0,0.0,0.0,2.28,,,0,0,0,0,0,0,0,0,0,0,0,0,0,0,0,0,0.0,,,,,0.0,0.0,0.0,0.0,0.0,0.0
65,11054,0,0.0,180.49,,0.02,0.03,0.74,0.0,0.0,0.0,0.74,1.13,65.0,3166.0,2.5,3.62,,12.92,1.228,100.6,,32.1,5.0,,,,,,,,,,,,0,0,0,0,0,0,0,0,0,0,0,0,0,0,0,0,,,,,0.0,,,,,,
66,11074,0,,,,,,,,,,,,,,,,,,,,,,,,,,,,,,,,,,0,0,0,0,0,0,0,0,0,0,0,0,0,0,0,0,,,,,,,,,,,
67,11094,0,0.0,180.49,,-0.0,0.01,0.69,1.0,0.0,-1.0,0.69,1.13,61.0,3159.0,2.6,3.64,,12.87,1.167,100.6,,33.0,5.0,,,,,,,,,,,,0,0,0,0,0,0,0,0,0,0,0,0,0,0,0,0,,,,,0.0,,,,,,
68,11114,0,,,,,,,,,,,,,,,,,,,,,,,,,,,,,,,,,,0,0,0,0,0,0,0,0,0,0,0,0,0,0,0,0,,,,,,,,,,,
69,11134,0,0.0,180.49,13.48,0.03,0.11,0.64,1.0,0.0,0.0,0.65,1.13,57.0,3182.0,2.7,3.7,15.0,12.84,1.132,100.6,176.0,33.0,5.0,0.0,0.0,0.0,0.0,0.0,0.0,0.0,0.0,2.26,0.0,0.0,0,0,0,0,0,0,0,0,0,0,0,0,0,0,0,0,0.0,0.0,0.0,0.0,0.0,0.0,0.0,0.0,0.0,0.0,0.0
70,11154,0,,,,,,,,,,,,,,,,,,,,,,,,,,,,,,,,,,0,0,0,0,0,0,0,0,0,0,0,0,0,0,0,0,,,,,,,,,,,
71,11174,0,0.0,180.49,,0.04,0.14,0.73,0.0,0.0,0.0,0.74,1.13,66.0,3175.0,3.1,3.66,,12.83,1.121,100.6,,33.0,5.0,,,,,,,,,,,,0,0,0,0,0,0,0,0,0,0,0,0,0,0,0,0,,,,,0.0,,,,,,
72,11194,0,,,,,,,,,,,,,,,,,,,,,,,,,,,,,,,,,,0,0,0,0,0,0,0,0,0,0,0,0,0,0,0,0,,,,,,,,,,,
73,11214,0,0.0,180.62,,0.02,0.05,0.85,-1.0,0.0,1.0,0.85,1.13,75.0,3114.0,3.0,3.71,,12.83,1.121,100.6,,32.8,5.0,,,,,,,,,,,,0,0,0,0,0,0,0,0,0,0,0,0,0,0,0,0,,,,,0.0,,,,,,
74,11234,0,,,,,,,,,,,,,,,,,,,,,,,0.0,0.0,0.0,0.0,0.0,0.0,0.0,0.0,2.27,,,0,0,0,0,0,0,0,0,0,0,0,0,0,0,0,0,0.0,,,,,0.0,0.0,0.0,0.0,0.0,0.0
75,11254,0,0.0,180.62,,-0.02,-0.07,0.93,0.0,0.0,0.0,0.93,1.13,82.0,3114.0,3.0,3.71,,12.87,1.128,100.6,,32.8,5.0,,,,,,,,,,,,0,0,0,0,0,0,0,0,0,0,0,0,0,0,0,0,,,,,0.0,,,,,,
76,11274,0,,,,,,,,,,,,,,,,,,,,,,,,,,,,,,,,,,0,0,0,0,0,0,0,0,0,0,0,0,0,0,0,0,,,,,,,,,,,
77,11294,0,0.0,180.62,,-0.05,-0.08,0.93,0.0,0.0,0.0,0.94,1.13,82.0,3119.0,3.0,3.8,,12.88,1.142,100.6,,31.6,5.0,,,,,,,,,,,,0,0,0,0,0,0,0,0,0,0,0,0,0,0,0,0,,,,,0.0,,,,,,
78,11314,0,,,,,,,,,,,,,,,,,,,,,,,,,,,,,,,,,,0,0,0,0,0,0,0,0,0,0,0,0,0,0,0,0,,,,,,,,,,,
79,11334,0,0.0,180.62,,-0.06,-0.04,0.87,1.0,0.0,-1.0,0.87,1.13,77.0,3113.0,2.9,3.8,,12.87,1.147,100.6,,31.6,5.0,0.0,0.0,0.0,0.0,0.0,0.0,0.0,0.0,2.27,,,0,0,0,0,0,0,0,0,0,0,0,0,0,0,0,0,0.0,,,,0.0,0.0,0.0,0.0,0.0,0.0,0.0
80,11354,0,,,,,,,,,,,,,,,,,,,,,,,,,,,,,,,,,,0,0,0,0,0,0,0,0,0,0,0,0,0,0,0,0,,,,,,,,,,,
81,11374,0,0.0,180.62,,-0.04,0.03,0.8,1.0,0.0,-1.0,0.8,1.13,70.0,3051.0,2.7,3.71,,12.88,1.153,100.6,,31.6,5.0,,,,,,,,,,,,0,0,0,0,0,0,0,0,0,0,0,0,0,0,0,0,,,,,0.0,,,,,,
82,11394,0,,,,,,,,,,,,,,,,,,,,,,,,,,,,,,,,,,0,0,0,0,0,0,0,0,0,0,0,0,0,0,0,0,,,,,,,,,,,
83,11414,0,0.0,180.49,,-0.01,0.08,0.76,1.0,0.0,0.0,0.77,1.13,68.0,3071.0,2.5,3.79,,12.88,1.153,100.6,,32.1,5.0,,,,,,,,,,,,0,0,0,0,0,0,0,0,0,0,0,0,0,0,0,0,,,,,0.0,,,,,,
84,11434,0,,,,,,,,,,,,,,,,,,,,,,,0.0,0.0,0.0,0.0,0.0,0.0,0.0,0.0,2.28,,,0,0,0,0,0,0,0,0,0,0,0,0,0,0,0,0,0.0,,,,,0.0,0.0,0.0,0.0,0.0,0.0
85,11454,0,0.0,180.49,,0.0,0.11,0.77,0.0,0.0,0.0,0.78,1.13,69.0,3071.0,2.5,3.79,,12.92,1.165,100.6,,32.1,5.0,,,,,,,,,,,,0,0,0,0,0,0,0,0,0,0,0,0,0,0,0,0,,,,,0.0,,,,,,
86,11474,0,,,,,,,,,,,,,,,,,,,,,,,,,,,,,,,,,,0,0,0,0,0,0,0,0,0,0,0,0,0,0,0,0,,,,,,,,,,,
87,11494,0,0.0,180.49,,0.02,0.11,0.8,0.0,0.0,1.0,0.81,1.13,71.0,3080.0,2.5,3.68,,12.85,1.172,100.6,,31.3,5.0,,,,,,,,,,,,0,0,0,0,0,0,0,0,0,0,0,0,0,0,0,0,,,,,0.0,,,,,,
88,11514,0,,,,,,,,,,,,,,,,,,,,,,,,,,,,,,,,,,0,0,0,0,0,0,0,0,0,0,0,0,0,0,0,0,,,,,,,,,,,
89,11534,0,0.0,180.49,,0.02,0.11,0.86,0.0,0.0,1.0,0.87,1.13,77.0,3068.0,2.5,3.81,,12.91,1.172,100.6,,31.3,5.0,0.0,0.0,0.0,0.0,0.0,0.0,0.0,0.0,2.28,,,0,0,0,0,0,0,0,0,0,0,0,0,0,0,0,0,0.0,,,,0.0,0.0,0.0,0.0,0.0,0.0,0.0
90,11554,0,,,,,,,,,,,,,,,,,,,,,,,,,,,,,,,,,,0,0,0,0,0,0,0,0,0,0,0,0,0,0,0,0,,,,,,,,,,,
91,11574,0,0.0,180.49,,0.02,0.09,0.91,-1.0,0.0,1.0,0.91,1.13,80.0,3017.0,2.7,3.68,,12.96,1.176,100.6,,31.3,5.0,,,,,,,,,,,,0,0,0,0,0,0,0,0,0,0,0,0,0,0,0,0,,,,,0.0,,,,,,
92,11594,0,,,,,,,,,,,,,,,,,,,,,,,,,,,,,,,,,,0,0,0,0,0,0,0,0,0,0,0,0,0,0,0,0,,,,,,,,,,,
93,11614,0,0.0,180.49,,0.01,0.09,0.97,-1.0,0.0,1.0,0.97,1.13,86.0,3056.0,3.0,3.82,,12.96,1.176,100.6,,31.6,5.0,,,,,,,,,,,,0,0,0,0,0,0,0,0,0,0,0,0,0,0,0,0,,,,,0.0,,,,,,
94,11634,0,,,,,,,,,,,,,,,,,,,,,,,0.0,0.0,0.0,0.0,0.0,0.0,0.0,0.0,2.27,,,0,0,0,0,0,0,0,0,0,0,0,0,0,0,0,0,0.0,,,,,0.0,0.0,0.0,0.0,0.0,0.0
95,11654,0,0.0,180.49,,0.01,0.09,1.03,-1.0,0.0,1.0,1.04,1.13,91.0,3056.0,3.0,3.82,,12.99,1.169,100.6,,31.6,5.0,,,,,,,,,,,,0,0,0,0,0,0,0,0,0,0,0,0,0,0,0,0,,,,,0.0,,,,,,
96,11674,0,,,,,,,,,,,,,,,,,,,,,,,,,,,,,,,,,,0,0,0,0,0,0,0,0,0,0,0,0,0,0,0,0,,,,,,,,,,,
97,11694,0,0.0,180.49,,0.0,0.1,1.09,-1.0,0.0,1.0,1.09,1.13,96.0,3041.0,3.2,3.72,,12.97,1.162,100.6,,30.6,5.0,,,,,,,,,,,,0,0,0,0,0,0,0,0,0,0,0,0,0,0,0,0,,,,,0.0,,,,,,
98,11714,0,,,,,,,,,,,,,,,,,,,,,,,,,,,,,,,,,,0,0,0,0,0,0,0,0,0,0,0,0,0,0,0,0,,,,,,,,,,,
99,11734,0,0.0,180.49,,-0.0,0.1,1.13,-1.0,0.0,1.0,1.13,1.13,100.0,2969.0,3.1,3.83,,12.96,1.169,100.6,,30.6,5.0,0.0,0.0,0.0,0.0,0.0,0.0,0.0,0.0,2.27,,,0,0,0,0,0,0,0,0,0,0,0,0,0,0,0,0,0.0,,,,0.0,0.0,0.0,0.0,0.0,0.0,0.0
100,11754,0,,,,,,,,,,,,,,,,,,,,,,,,,,,,,,,,,,0,0,0,0,0,0,0,0,0,0,0,0,0,0,0,0,,,,,,,,,,,
101,11774,0,0.0,180.49,,-0.01,0.11,1.17,-1.0,0.0,2.0,1.17,1.17,100.0,2965.0,3.0,3.87,,12.97,1.175,100.6,,30.6,5.0,,,,,,,,,,,,0,0,0,0,0,0,0,0,0,0,0,0,0,0,0,0,,,,,0.0,,,,,,
102,11794,0,,,,,,,,,,,,,,,,,,,,,,,,,,,,,,,,,,0,0,0,0,0,0,0,0,0,0,0,0,0,0,0,0,,,,,,,,,,,
103,11814,0,0.0,180.49,,-0.01,0.11,1.19,-1.0,0.0,2.0,1.19,1.19,100.0,2955.0,2.7,3.78,,12.97,1.175,100.6,,30.8,5.0,,,,,,,,,,,,0,0,0,0,0,0,0,0,0,0,0,0,0,0,0,0,,,,,0.0,,,,,,
104,11834,0,,,,,,,,,,,,,,,,,,,,,,,0.0,0.0,0.0,0.0,0.0,0.0,0.0,0.0,2.27,,,0,0,0,0,0,0,0,0,0,0,0,0,0,0,0,0,0.0,,,,,0.0,0.0,0.0,0.0,0.0,0.0
105,11854,0,0.0,180.62,,-0.02,0.11,1.19,-1.0,0.0,2.0,1.2,1.2,100.0,2955.0,2.7,3.78,,13.03,1.166,100.6,,30.8,5.0,,,,,,,,,,,,0,0,0,0,0,0,0,0,0,0,0,0,0,0,0,0,,,,,0.0,,,,,,
106,11874,0,,,,,,,,,,,,,,,,,,,,,,,,,,,,,,,,,,0,0,0,0,0,0,0,0,0,0,0,0,0,0,0,0,,,,,,,,,,,
107,11894,0,0.0,180.62,,-0.01,0.11,1.17,-1.0,0.0,2.0,1.17,1.2,98.0,2985.0,2.6,3.85,,13.0,1.182,100.6,,30.3,5.0,,,,,,,,,,,,0,0,0,0,0,0,0,0,0,0,0,0,0,0,0,0,,,,,0.0,,,,,,
108,11914,0,,,,,,,,,,,,,,,,,,,,,,,,,,,,,,,,,,0,0,0,0,0,0,0,0,0,0,0,0,0,0,0,0,,,,,,,,,,,
109,11934,0,0.0,180.49,,0.01,0.1,1.12,-1.0,0.0,2.0,1.13,1.2,94.0,2975.0,2.5,3.82,,13.01,1.185,100.6,,30.3,5.0,0.0,0.0,0.0,0.0,0.0,0.0,0.0,0.0,2.27,,,0,0,0,0,0,0,0,0,0,0,0,0,0,0,0,0,0.0,,,,0.0,0.0,0.0,0.0,0.0,0.0,0.0
110,11954,0,,,,,,,,,,,,,,,,,,,,,,,,,,,,,,,,,,0,0,0,0,0,0,0,0,0,0,0,0,0,0,0,0,,,,,,,,,,,
111,11974,0,0.0,180.62,,0.04,0.09,1.06,-1.0,0.0,2.0,1.07,1.2,89.0,2940.0,2.5,3.72,,13.05,1.165,100.6,,30.3,5.0,,,,,,,,,,,,0,0,0,0,0,0,0,0,0,0,0,0,0,0,0,0,,,,,0.0,,,,,,
112,11994,0,,,,,,,,,,,,,,,,,,,,,,,,,,,,,,,,,,0,0,0,0,0,0,0,0,0,0,0,0,0,0,0,0,,,,,,,,,,,
113,12014,0,0.0,180.62,,0.06,0.07,1.0,-1.0,0.0,2.0,1.0,1.2,84.0,2949.0,2.6,3.72,,13.05,1.165,100.6,,30.9,5.0,,,,,,,,,,,,0,0,0,0,0,0,0,0,0,0,0,0,0,0,0,0,,,,,0.0,,,,,,
114,12034,0,,,,,,,,,,,,,,,,,,,,,,,0.0,0.0,0.0,0.0,0.0,0.0,0.0,0.0,2.27,,,0,0,0,0,0,0,0,0,0,0,0,0,0,0,0,0,0.0,,,,,0.0,0.0,0.0,0.0,0.0,0.0
115,12054,0,0.0,180.49,,0.08,0.07,0.93,-1.0,-1.0,2.0,0.93,1.2,78.0,2949.0,2.6,3.72,,13.08,1.156,100.6,,30.9,5.0,,,,,,,,,,,,0,0,0,0,0,0,0,0,0,0,0,0,0,0,0,0,,,,,0.0,,,,,,
116,12074,0,,,,,,,,,,,,,,,,,,,,,,,,,,,,,,,,,,0,0,0,0,0,0,0,0,0,0,0,0,0,0,0,0,,,,,,,,,,,
117,12094,0,0.0,180.49,,0.08,0.1,0.86,-1.0,0.0,1.0,0.87,1.2,73.0,2987.0,2.7,3.75,,13.05,1.154,100.6,,30.0,5.0,,,,,,,,,,,,0,0,0,0,0,0,0,0,0,0,0,0,0,0,0,0,,,,,0.0,,,,,,
118,12114,0,,,,,,,,,,,,,,,,,,,,,,,,,,,,,,,,,,0,0,0,0,0,0,0,0,0,0,0,0,0,0,0,0,,,,,,,,,,,
119,12134,0,0.0,180.49,13.48,0.06,0.1,0.82,-1.0,0.0,1.0,0.83,1.2,70.0,2951.0,3.0,3.74,15.0,13.03,1.163,100.6,176.0,30.0,5.0,0.0,0.0,0.0,0.0,0.0,0.0,0.0,0.0,2.27,0.0,0.0,0,0,0,0,0,0,0,0,0,0,0,0,0,0,0,0,0.0,0.0,0.0,0.0,0.0,0.0,0.0,0.0,0.0,0.0,0.0
120,12154,0,,,,,,,,,,,,,,,,,,,,,,,,,,,,,,,,,,0,0,0,0,0,0,0,0,0,0,0,0,0,0,0,0,,,,,,,,,,,
121,12174,0,0.0,180.49,,0.02,0.1,0.83,0.0,0.0,1.0,0.83,1.2,70.0,2924.0,3.0,3.82,,13.05,1.165,100.6,,30.0,5.0,,,,,,,,,,,,0,0,0,0,0,0,0,0,0,0,0,0,0,0,0,0,,,,,0.0,,,,,,
122,12194,0,,,,,,,,,,,,,,,,,,,,,,,,,,,,,,,,,,0,0,0,0,0,0,0,0,0,0,0,0,0,0,0,0,,,,,,,,,,,
123,12214,0,0.0,180.62,,-0.02,0.08,0.86,0.0,0.0,0.0,0.86,1.2,72.0,2906.0,3.0,3.82,,13.05,1.165,100.6,,30.3,5.0,,,,,,,,,,,,0,0,0,0,0,0,0,0,0,0,0,0,0,0,0,0,,,,,0.0,,,,,,
124,12234,0,,,,,,,,,,,,,,,,,,,,,,,0.0,0.0,0.0,0.0,0.0,0.0,0.0,0.0,2.27,,,0,0,0,0,0,0,0,0,0,0,0,0,0,0,0,0,0.0,,,,,0.0,0.0,0.0,0.0,0.0,0.0
125,12254,0,0.0,180.62,,-0.06,0.01,0.92,0.0,0.0,0.0,0.92,1.2,77.0,2906.0,3.0,3.82,,13.08,1.169,100.6,,30.3,5.0,,,,,,,,,,,,0,0,0,0,0,0,0,0,0,0,0,0,0,0,0,0,,,,,0.0,,,,,,
126,12274,0,,,,,,,,,,,,,,,,,,,,,,,,,,,,,,,,,,0,0,0,0,0,0,0,0,0,0,0,0,0,0,0,0,,,,,,,,,,,
127,12294,0,0.0,180.49,,-0.07,-0.05,0.99,0.0,0.0,0.0,1.0,1.2,83.0,2954.0,3.0,3.83,,13.09,1.165,100.6,,30.2,5.0,,,,,,,,,,,,0,0,0,0,0,0,0,0,0,0,0,0,0,0,0,0,,,,,0.0,,,,,,
128,12314,0,,,,,,,,,,,,,,,,,,,,,,,,,,,,,,,,,,0,0,0,0,0,0,0,0,0,0,0,0,0,0,0,0,,,,,,,,,,,
129,12334,0,0.0,180.49,,-0.06,-0.05,1.06,0.0,0.0,0.0,1.06,1.2,89.0,2952.0,2.7,3.83,,13.03,1.161,100.6,,30.2,5.0,0.0,0.0,0.0,0.0,0.0,0.0,0.0,0.0,2.27,,,0,0,0,0,0,0,0,0,0,0,0,0,0,0,0,0,0.0,,,,0.0,0.0,0.0,0.0,0.0,0.0,0.0
130,12354,0,,,,,,,,,,,,,,,,,,,,,,,,,,,,,,,,,,0,0,0,0,0,0,0,0,0,0,0,0,0,0,0,0,,,,,,,,,,,
131,12374,0,0.0,180.49,,-0.05,-0.01,1.11,-1.0,0.0,1.0,1.11,1.2,93.0,2954.0,2.5,3.85,,13.04,1.155,100.6,,30.2,5.0,,,,,,,,,,,,0,0,0,0,0,0,0,0,0,0,0,0,0,0,0,0,,,,,0.0,,,,,,
132,12394,0,,,,,,,,,,,,,,,,,,,,,,,,,,,,,,,,,,0,0,0,0,0,0,0,0,0,0,0,0,0,0,0,0,,,,,,,,,,,
133,12414,0,0.0,180.49,,-0.04,0.04,1.1,-1.0,0.0,1.0,1.11,1.2,92.0,2896.0,2.5,3.71,,13.04,1.155,100.6,,30.3,5.0,,,,,,,,,,,,0,0,0,0,0,0,0,0,0,0,0,0,0,0,0,0,,,,,0.0,,,,,,
134,12434,0,,,,,,,,,,,,,,,,,,,,,,,0.0,0.0,0.0,0.0,0.0,0.0,0.0,0.0,2.28,,,0,0,0,0,0,0,0,0,0,0,0,0,0,0,0,0,0.0,,,,,0.0,0.0,0.0,0.0,0.0,0.0
135,12454,0,0.0,180.49,,-0.02,0.04,1.06,0.0,0.0,1.0,1.06,1.2,89.0,2896.0,2.5,3.71,,13.08,1.145,100.6,,30.3,5.0,,,,,,,,,,,,0,0,0,0,0,0,0,0,0,0,0,0,0,0,0,0,,,,,0.0,,,,,,
136,12474,0,,,,,,,,,,,,,,,,,,,,,,,,,,,,,,,,,,0,0,0,0,0,0,0,0,0,0,0,0,0,0,0,0,,,,,,,,,,,
137,12494,0,0.0,180.37,,0.01,0.02,0.99,-1.0,0.0,1.0,0.99,1.2,83.0,2907.0,2.5,3.71,,13.07,1.146,100.6,,29.9,5.0,,,,,,,,,,,,0,0,0,0,0,0,0,0,0,0,0,0,0,0,0,0,,,,,0.0,,,,,,
138,12514,0,,,,,,,,,,,,,,,,,,,,,,,,,,,,,,,,,,0,0,0,0,0,0,0,0,0,0,0,0,0,0,0,0,,,,,,,,,,,
139,12534,0,0.0,180.49,,0.02,0.03,0.93,-1.0,0.0,1.0,0.93,1.2,78.0,2923.0,2.6,3.75,,13.09,1.157,100.6,,29.9,5.0,0.0,0.0,0.0,0.0,0.0,0.0,0.0,0.0,2.27,,,0,0,0,0,0,0,0,0,0,0,0,0,0,0,0,0,0.0,,,,0.0,0.0,0.0,0.0,0.0,0.0,0.0
140,12554,0,,,,,,,,,,,,,,,,,,,,,,,,,,,,,,,,,,0,0,0,0,0,0,0,0,0,0,0,0,0,0,0,0,,,,,,,,,,,
141,12574,0,0.0,180.49,,-0.01,0.03,0.92,0.0,0.0,0.0,0.92,1.2,77.0,2903.0,2.8,3.72,,13.07,1.152,100.6,,29.9,5.0,,,,,,,,,,,,0,0,0,0,0,0,0,0,0,0,0,0,0,0,0,0,,,,,0.0,,,,,,
142,12594,0,,,,,,,,,,,,,,,,,,,,,,,,,,,,,,,,,,0,0,0,0,0,0,0,0,0,0,0,0,0,0,0,0,,,,,,,,,,,
143,12614,0,0.0,180.49,,-0.04,-0.04,0.97,0.0,0.0,0.0,0.97,1.2,81.0,2864.0,3.0,3.83,,13.07,1.152,100.6,,29.4,5.0,,,,,,,,,,,,0,0,0,0,0,0,0,0,0,0,0,0,0,0,0,0,,,,,0.0,,,,,,
144,12634,0,,,,,,,,,,,,,,,,,,,,,,,0.0,0.0,0.0,0.0,0.0,0.0,0.0,0.0,2.27,,,0,0,0,0,0,0,0,0,0,0,0,0,0,0,0,0,0.0,,,,,0.0,0.0,0.0,0.0,0.0,0.0
145,12654,0,0.0,180.49,,-0.04,-0.06,1.03,0.0,0.0,0.0,1.03,1.2,86.0,2864.0,3.0,3.83,,13.09,1.167,100.6,,29.4,5.0,,,,,,,,,,,,0,0,0,0,0,0,0,0,0,0,0,0,0,0,0,0,,,,,0.0,,,,,,
146,12674,0,,,,,,,,,,,,,,,,,,,,,,,,,,,,,,,,,,0,0,0,0,0,0,0,0,0,0,0,0,0,0,0,0,,,,,,,,,,,
147,12694,0,0.0,180.49,,-0.05,-0.02,1.05,-1.0,0.0,1.0,1.05,1.2,88.0,2880.0,3.0,3.78,,13.12,1.151,100.6,,30.1,5.0,,,,,,,,,,,,0,0,0,0,0,0,0,0,0,0,0,0,0,0,0,0,,,,,0.0,,,,,,
148,12714,0,,,,,,,,,,,,,,,,,,,,,,,,,,,,,,,,,,0,0,0,0,0,0,0,0,0,0,0,0,0,0,0,0,,,,,,,,,,,
149,12734,0,0.0,180.49,,-0.05,0.01,1.07,-1.0,0.0,1.0,1.07,1.2,90.0,2878.0,3.0,3.75,,13.09,1.147,100.6,,30.1,5.0,0.0,0.0,0.0,0.0,0.0,0.0,0.0,0.0,2.27,,,0,0,0,0,0,0,0,0,0,0,0,0,0,0,0,0,0.0,,,,0.0,0.0,0.0,0.0,0.0,0.0,0.0
150,12754,0,,,,,,,,,,,,,,,,,,,,,,,,,,,,,,,,,,0,0,0,0,0,0,0,0,0,0,0,0,0,0,0,0,,,,,,,,,,,
151,12774,0,0.0,180.62,,-0.05,-0.03,1.18,-1.0,0.0,1.0,1.18,1.2,98.0,3170.0,2.9,3.82,,13.04,1.167,100.6,,30.1,5.0,,,,,,,,,,,,0,0,0,0,0,0,0,0,0,0,0,0,0,0,0,0,,,,,0.0,,,,,,
152,12794,0,,,,,,,,,,,,,,,,,,,,,,,,,,,,,,,,,,0,0,0,0,0,0,0,0,0,0,0,0,0,0,0,0,,,,,,,,,,,
153,12814,0,0.0,180.49,,-0.08,-0.07,1.1,0.0,0.0,0.0,1.11,1.2,93.0,3266.0,2.7,3.68,,13.04,1.167,100.6,,32.9,5.0,,,,,,,,,,,,0,0,0,0,0,0,0,0,0,0,0,0,0,0,0,0,,,,,0.0,,,,,,
154,12834,0,,,,,,,,,,,,,,,,,,,,,,,0.0,0.0,0.0,0.0,0.0,0.0,0.0,0.0,2.27,,,0,0,0,0,0,0,0,0,0,0,0,0,0,0,0,0,0.0,,,,,0.0,0.0,0.0,0.0,0.0,0.0
155,12854,0,0.0,180.49,,-0.05,-0.04,1.11,-1.0,0.0,1.0,1.12,1.2,93.0,3266.0,2.7,3.68,,12.95,1.171,100.6,,32.9,5.0,,,,,,,,,,,,0,0,0,0,0,0,0,0,0,0,0,0,0,0,0,0,,,,,0.0,,,,,,
156,12874,0,,,,,,,,,,,,,,,,,,,,,,,,,,,,,,,,,,0,0,0,0,0,0,0,0,0,0,0,0,0,0,0,0,,,,,,,,,,,
157,12894,0,0.0,180.49,,-0.04,0.05,1.08,0.0,0.0,1.0,1.09,1.2,91.0,3455.0,2.5,3.57,,12.83,1.099,100.6,,37.0,5.0,,,,,,,,,,,,0,0,0,0,0,0,0,0,0,0,0,0,0,0,0,0,,,,,0.0,,,,,,
158,12914,0,,,,,,,,,,,,,,,,,,,,,,,,,,,,,,,,,,0,0,0,0,0,0,0,0,0,0,0,0,0,0,0,0,,,,,,,,,,,
159,12934,0,0.0,180.49,,-0.05,0.01,1.05,0.0,0.0,0.0,1.05,1.2,88.0,3623.0,2.5,3.48,,12.69,1.077,100.6,,37.0,5.0,0.0,0.0,0.0,0.0,0.0,0.0,0.0,0.0,2.28,,,0,0,0,0,0,0,0,0,0,0,0,0,0,0,0,0,0.0,,,,0.0,0.0,0.0,0.0,0.0,0.0,0.0
160,12954,0,,,,,,,,,,,,,,,,,,,,,,,,,,,,,,,,,,0,0,0,0,0,0,0,0,0,0,0,0,0,0,0,0,,,,,,,,,,,
161,12974,0,0.0,180.49,,-0.05,-0.02,1.04,0.0,0.0,0.0,1.05,1.2,87.0,3649.0,2.5,3.47,,12.63,1.111,100.6,,37.0,5.0,,,,,,,,,,,,0,0,0,0,0,0,0,0,0,0,0,0,0,0,0,0,,,,,0.0,,,,,,
162,12994,0,,,,,,,,,,,,,,,,,,,,,,,,,,,,,,,,,,0,0,0,0,0,0,0,0,0,0,0,0,0,0,0,0,,,,,,,,,,,
163,13014,0,0.0,180.49,,-0.03,0.01,1.04,0.0,0.0,0.0,1.04,1.2,87.0,3817.0,2.7,3.5,,12.63,1.111,100.6,,38.8,5.0,,,,,,,,,,,,0,0,0,0,0,0,0,0,0,0,0,0,0,0,0,0,,,,,0.0,,,,,,
164,13034,0,,,,,,,,,,,,,,,,,,,,,,,0.0,0.0,0.0,0.0,0.0,0.0,0.0,0.0,2.27,,,0,0,0,0,0,0,0,0,0,0,0,0,0,0,0,0,0.0,,,,,0.0,0.0,0.0,0.0,0.0,0.0
165,13054,0,0.0,180.37,,-0.02,0.1,1.09,-1.0,0.0,1.0,1.09,1.2,91.0,3817.0,2.7,3.5,,12.56,1.025,100.6,,38.8,5.0,,,,,,,,,,,,0,0,0,0,0,0,0,0,0,0,0,0,0,0,0,0,,,,,0.0,,,,,,
166,13074,0,,,,,,,,,,,,,,,,,,,,,,,,,,,,,,,,,,0,0,0,0,0,0,0,0,0,0,0,0,0,0,0,0,,,,,,,,,,,
167,13094,0,0.0,180.24,,-0.05,0.02,1.06,-2.0,0.0,1.0,1.06,1.2,88.0,3965.0,3.0,3.38,,12.28,1.021,100.6,,42.5,5.0,,,,,,,,,,,,0,0,0,0,0,0,0,0,0,0,0,0,0,0,0,0,,,,,0.0,,,,,,
168,13114,0,,,,,,,,,,,,,,,,,,,,,,,,,,,,,,,,,,0,0,0,0,0,0,0,0,0,0,0,0,0,0,0,0,,,,,,,,,,,
169,13134,0,0.0,180.24,13.55,-0.03,0.02,1.01,0.0,0.0,0.0,1.01,1.2,84.0,3993.0,3.3,3.4,15.0,12.13,0.959,100.6,176.0,42.5,5.0,0.0,0.0,0.0,0.0,0.0,0.0,0.0,0.0,2.27,0.0,0.0,0,0,0,0,0,0,0,0,0,0,0,0,0,0,0,0,0.0,0.0,0.0,0.0,0.0,0.0,0.0,0.0,0.0,0.0,0.0
170,13154,0,,,,,,,,,,,,,,,,,,,,,,,,,,,,,,,,,,0,0,0,0,0,0,0,0,0,0,0,0,0,0,0,0,,,,,,,,,,,
171,13174,0,0.0,180.24,,-0.01,0.09,1.04,0.0,0.0,0.0,1.04,1.2,87.0,3897.0,3.3,3.63,,12.0,0.933,100.6,,42.5,5.0,,,,,,,,,,,,0,0,0,0,0,0,0,0,0,0,0,0,0,0,0,0,,,,,0.0,,,,,,
172,13194,0,,,,,,,,,,,,,,,,,,,,,,,,,,,,,,,,,,0,0,0,0,0,0,0,0,0,0,0,0,0,0,0,0,,,,,,,,,,,
173,13214,0,0.0,180.24,,-0.01,0.11,1.03,0.0,0.0,0.0,1.04,1.2,87.0,3837.0,3.3,3.65,,12.0,0.933,100.6,,41.3,5.0,,,,,,,,,,,,0,0,0,0,0,0,0,0,0,0,0,0,0,0,0,0,,,,,0.0,,,,,,
174,13234,0,,,,,,,,,,,,,,,,,,,,,,,0.0,0.0,0.0,0.0,0.0,0.0,0.0,0.0,2.27,,,0,0,0,0,0,0,0,0,0,0,0,0,0,0,0,0,0.0,,,,,0.0,0.0,0.0,0.0,0.0,0.0
175,13254,0,0.0,180.12,,-0.02,0.09,1.01,0.0,0.0,0.0,1.02,1.2,85.0,3837.0,3.3,3.65,,12.0,0.932,100.6,,41.3,5.0,,,,,,,,,,,,0,0,0,0,0,0,0,0,0,0,0,0,0,0,0,0,,,,,0.0,,,,,,
176,13274,0,,,,,,,,,,,,,,,,,,,,,,,,,,,,,,,,,,0,0,0,0,0,0,0,0,0,0,0,0,0,0,0,0,,,,,,,,,,,
177,13294,0,0.0,180.12,,-0.05,0.07,1.01,0.0,0.0,0.0,1.02,1.2,85.0,3711.0,3.0,3.56,,12.04,0.973,100.6,,39.0,5.0,,,,,,,,,,,,0,0,0,0,0,0,0,0,0,0,0,0,0,0,0,0,,,,,0.0,,,,,,
178,13314,0,,,,,,,,,,,,,,,,,,,,,,,,,,,,,,,,,,0,0,0,0,0,0,0,0,0,0,0,0,0,0,0,0,,,,,,,,,,,
179,13334,0,0.0,180.12,,-0.05,-0.01,1.02,0.0,0.0,0.0,1.02,1.2,86.0,3642.0,2.7,3.73,,12.11,1.057,100.6,,39.0,5.0,0.0,0.0,0.0,0.0,0.0,0.0,0.0,0.0,2.27,,,0,0,0,0,0,0,0,0,0,0,0,0,0,0,0,0,0.0,,,,0.0,0.0,0.0,0.0,0.0,0.0,0.0
180,13354,0,,,,,,,,,,,,,,,,,,,,,,,,,,,,,,,,,,0,0,0,0,0,0,0,0,0,0,0,0,0,0,0,0,,,,,,,,,,,
181,13374,0,0.0,180.12,,-0.05,0.08,1.04,-1.0,0.0,1.0,1.04,1.2,87.0,3559.0,2.8,3.54,,12.2,1.11,100.6,,39.0,5.0,,,,,,,,,,,,0,0,0,0,0,0,0,0,0,0,0,0,0,0,0,0,,,,,0.0,,,,,,
182,13394,0,,,,,,,,,,,,,,,,,,,,,,,,,,,,,,,,,,0,0,0,0,0,0,0,0,0,0,0,0,0,0,0,0,,,,,,,,,,,
183,13414,0,0.0,180.12,,-0.03,0.1,0.98,0.0,0.0,0.0,0.99,1.2,83.0,3444.0,2.7,3.56,,12.2,1.11,100.6,,37.1,5.0,,,,,,,,,,,,0,0,0,0,0,0,0,0,0,0,0,0,0,0,0,0,,,,,0.0,,,,,,
184,13434,0,,,,,,,,,,,,,,,,,,,,,,,0.0,0.0,0.0,0.0,0.0,0.0,0.0,0.0,2.27,,,0,0,0,0,0,0,0,0,0,0,0,0,0,0,0,0,0.0,,,,,0.0,0.0,0.0,0.0,0.0,0.0
185,13454,0,0.0,180.12,,-0.03,0.06,1.06,-1.0,0.0,1.0,1.06,1.2,89.0,3444.0,2.7,3.56,,12.37,1.171,100.6,,37.1,5.0,,,,,,,,,,,,0,0,0,0,0,0,0,0,0,0,0,0,0,0,0,0,,,,,0.0,,,,,,
186,13474,0,,,,,,,,,,,,,,,,,,,,,,,,,,,,,,,,,,0,0,0,0,0,0,0,0,0,0,0,0,0,0,0,0,,,,,,,,,,,
187,13494,0,0.0,180.12,,-0.06,0.02,1.05,0.0,0.0,0.0,1.05,1.2,88.0,3269.0,2.7,3.6,,12.48,1.164,100.6,,34.2,5.0,,,,,,,,,,,,0,0,0,0,0,0,0,0,0,0,0,0,0,0,0,0,,,,,0.0,,,,,,
188,13514,0,,,,,,,,,,,,,,,,,,,,,,,,,,,,,,,,,,0,0,0,0,0,0,0,0,0,0,0,0,0,0,0,0,,,,,,,,,,,
189,13534,0,0.0,180.12,,-0.04,0.06,0.94,0.0,0.0,0.0,0.95,1.2,79.0,3194.0,3.0,3.65,,12.61,1.136,100.6,,34.2,5.0,0.0,0.0,0.0,0.0,0.0,0.0,0.0,0.0,2.27,,,0,0,0,0,0,0,0,0,0,0,0,0,0,0,0,0,0.0,,,,0.0,0.0,0.0,0.0,0.0,0.0,0.0
190,13554,0,,,,,,,,,,,,,,,,,,,,,,,,,,,,,,,,,,0,0,0,0,0,0,0,0,0,0,0,0,0,0,0,0,,,,,,,,,,,
191,13574,0,0.0,180.12,,-0.01,0.14,0.95,-1.0,0.0,1.0,0.96,1.2,80.0,3157.0,3.2,3.81,,12.67,1.113,100.6,,34.2,5.0,,,,,,,,,,,,0,0,0,0,0,0,0,0,0,0,0,0,0,0,0,0,,,,,0.0,,,,,,
192,13594,0,,,,,,,,,,,,,,,,,,,,,,,,,,,,,,,,,,0,0,0,0,0,0,0,0,0,0,0,0,0,0,0,0,,,,,,,,,,,
193,13614,0,0.0,180.12,,-0.04,0.01,1.0,-1.0,0.0,0.0,1.0,1.2,84.0,3340.0,3.2,3.77,,12.67,1.113,100.6,,33.4,5.0,,,,,,,,,,,,0,0,0,0,0,0,0,0,0,0,0,0,0,0,0,0,,,,,0.0,,,,,,
194,13634,0,,,,,,,,,,,,,,,,,,,,,,,0.0,0.0,0.0,0.0,0.0,0.0,0.0,0.0,2.26,,,0,0,0,0,0,0,0,0,0,0,0,0,0,0,0,0,0.0,,,,,0.0,0.0,0.0,0.0,0.0,0.0
195,13654,0,0.0,180.12,,-0.01,0.13,0.97,-1.0,0.0,1.0,0.97,1.2,81.0,3340.0,3.2,3.77,,12.73,1.132,100.6,,33.4,5.0,,,,,,,,,,,,0,0,0,0,0,0,0,0,0,0,0,0,0,0,0,0,,,,,0.0,,,,,,
196,13674,0,,,,,,,,,,,,,,,,,,,,,,,,,,,,,,,,,,0,0,0,0,0,0,0,0,0,0,0,0,0,0,0,0,,,,,,,,,,,
197,13694,0,0.0,180.12,,-0.03,0.01,1.04,-1.0,0.0,0.0,1.04,1.2,87.0,3341.0,3.2,3.77,,12.72,1.135,100.6,,34.3,5.0,,,,,,,,,,,,0,0,0,0,0,0,0,0,0,0,0,0,0,0,0,0,,,,,0.0,,,,,,
198,13714,0,,,,,,,,,,,,,,,,,,,,,,,,,,,,,,,,,,0,0,0,0,0,0,0,0,0,0,0,0,0,0,0,0,,,,,,,,,,,
199,13734,0,0.0,180.24,,-0.03,0.06,0.96,-1.0,0.0,0.0,0.96,1.2,80.0,3293.0,3.2,3.79,,12.67,1.075,100.6,,34.3,5.0,0.0,0.0,0.0,0.0,0.0,0.0,0.0,0.0,2.27,,,0,0,0,0,0,0,0,0,0,0,0,0,0,0,0,0,0.0,,,,0.0,0.0,0.0,0.0,0.0,0.0,0.0
200,13754,0,,,,,,,,,,,,,,,,,,,,,,,,,,,,,,,,,,0,0,0,0,0,0,0,0,0,0,0,0,0,0,0,0,,,,,,,,,,,
201,13774,0,0.0,180.12,,-0.01,0.09,0.96,-1.0,0.0,1.0,0.97,1.2,81.0,3220.0,2.9,3.7,,12.65,1.052,100.6,,34.3,5.0,,,,,,,,,,,,0,0,0,0,0,0,0,0,0,0,0,0,0,0,0,0,,,,,0.0,,,,,,
202,13794,0,,,,,,,,,,,,,,,,,,,,,,,,,,,,,,,,,,0,0,0,0,0,0,0,0,0,0,0,0,0,0,0,0,,,,,,,,,,,
203,13814,0,0.0,180.12,,-0.04,0.01,1.04,-1.0,0.0,1.0,1.04,1.2,87.0,3188.0,2.7,3.81,,12.65,1.052,100.6,,33.8,5.0,,,,,,,,,,,,0,0,0,0,0,0,0,0,0,0,0,0,0,0,0,0,,,,,0.0,,,,,,
204,13834,0,,,,,,,,,,,,,,,,,,,,,,,0.0,0.0,0.0,0.0,0.0,0.0,0.0,0.0,2.27,,,0,0,0,0,0,0,0,0,0,0,0,0,0,0,0,0,0.0,,,,,0.0,0.0,0.0,0.0,0.0,0.0
205,13854,0,0.0,180.12,,-0.06,-0.03,0.99,0.0,0.0,0.0,0.99,1.2,83.0,3188.0,2.7,3.81,,12.71,1.04,100.6,,33.8,5.0,,,,,,,,,,,,0,0,0,0,0,0,0,0,0,0,0,0,0,0,0,0,,,,,0.0,,,,,,
206,13874,0,,,,,,,,,,,,,,,,,,,,,,,,,,,,,,,,,,0,0,0,0,0,0,0,0,0,0,0,0,0,0,0,0,,,,,,,,,,,
207,13894,0,0.0,180.24,,-0.03,0.06,0.9,0.0,0.0,0.0,0.9,1.2,76.0,3231.0,2.7,3.73,,12.71,1.043,100.6,,33.2,5.0,,,,,,,,,,,,0,0,0,0,0,0,0,0,0,0,0,0,0,0,0,0,,,,,0.0,,,,,,
208,13914,0,,,,,,,,,,,,,,,,,,,,,,,,,,,,,,,,,,0,0,0,0,0,0,0,0,0,0,0,0,0,0,0,0,,,,,,,,,,,
209,13934,0,0.0,180.24,,-0.04,0.0,0.99,-1.0,0.0,1.0,0.99,1.2,83.0,3270.0,2.7,3.68,,12.75,1.065,100.6,,33.2,5.0,0.0,0.0,0.0,0.0,0.0,0.0,0.0,0.0,2.28,,,0,0,0,0,0,0,0,0,0,0,0,0,0,0,0,0,0.0,,,,0.0,0.0,0.0,0.0,0.0,0.0,0.0
210,13954,0,,,,,,,,,,,,,,,,,,,,,,,,,,,,,,,,,,0,0,0,0,0,0,0,0,0,0,0,0,0,0,0,0,,,,,,,,,,,
211,13974,0,0.0,180.24,,-0.04,0.04,0.9,0.0,0.0,0.0,0.9,1.2,76.0,3363.0,2.7,3.64,,12.75,1.126,100.6,,33.2,5.0,,,,,,,,,,,,0,0,0,0,0,0,0,0,0,0,0,0,0,0,0,0,,,,,0.0,,,,,,
212,13994,0,,,,,,,,,,,,,,,,,,,,,,,,,,,,,,,,,,0,0,0,0,0,0,0,0,0,0,0,0,0,0,0,0,,,,,,,,,,,
213,14014,0,0.0,180.24,,-0.03,0.04,0.97,0.0,0.0,1.0,0.97,1.2,81.0,3218.0,2.9,3.71,,12.75,1.126,100.6,,34.0,5.0,,,,,,,,,,,,0,0,0,0,0,0,0,0,0,0,0,0,0,0,0,0,,,,,0.0,,,,,,
214,14034,0,,,,,,,,,,,,,,,,,,,,,,,0.0,0.0,0.0,0.0,0.0,0.0,0.0,0.0,2.27,,,0,0,0,0,0,0,0,0,0,0,0,0,0,0,0,0,0.0,,,,,0.0,0.0,0.0,0.0,0.0,0.0
215,14054,0,0.0,180.24,,-0.06,-0.04,1.02,0.0,0.0,0.0,1.02,1.2,85.0,3218.0,2.9,3.71,,12.71,1.119,100.6,,34.0,5.0,,,,,,,,,,,,0,0,0,0,0,0,0,0,0,0,0,0,0,0,0,0,,,,,0.0,,,,,,
216,14074,0,,,,,,,,,,,,,,,,,,,,,,,,,,,,,,,,,,0,0,0,0,0,0,0,0,0,0,0,0,0,0,0,0,,,,,,,,,,,
217,14094,0,0.0,180.24,,-0.07,-0.04,0.93,1.0,0.0,0.0,0.93,1.2,78.0,3196.0,3.2,3.66,,12.72,1.092,100.6,,33.3,5.0,,,,,,,,,,,,0,0,0,0,0,0,0,0,0,0,0,0,0,0,0,0,,,,,0.0,,,,,,
218,14114,0,,,,,,,,,,,,,,,,,,,,,,,,,,,,,,,,,,0,0,0,0,0,0,0,0,0,0,0,0,0,0,0,0,,,,,,,,,,,
219,14134,0,0.0,180.24,13.57,-0.02,0.05,0.87,0.0,0.0,0.0,0.87,1.2,73.0,3182.0,3.2,3.81,15.0,12.76,1.081,100.6,176.0,33.3,5.0,0.0,0.0,0.0,0.0,0.0,0.0,0.0,0.0,2.27,0.0,0.0,0,0,0,0,0,0,0,0,0,0,0,0,0,0,0,0,0.0,0.0,0.0,0.0,0.0,0.0,0.0,0.0,0.0,0.0,0.0
220,14154,0,,,,,,,,,,,,,,,,,,,,,,,,,,,,,,,,,,0,0,0,0,0,0,0,0,0,0,0,0,0,0,0,0,,,,,,,,,,,
221,14174,0,0.0,180.24,,-0.0,0.1,0.9,0.0,0.0,1.0,0.9,1.2,75.0,3118.0,3.3,3.82,,12.79,1.076,100.6,,33.3,5.0,,,,,,,,,,,,0,0,0,0,0,0,0,0,0,0,0,0,0,0,0,0,,,,,0.0,,,,,,
222,14194,0,,,,,,,,,,,,,,,,,,,,,,,,,,,,,,,,,,0,0,0,0,0,0,0,0,0,0,0,0,0,0,0,0,,,,,,,,,,,
223,14214,0,0.0,180.24,,0.0,0.07,0.97,-1.0,0.0,1.0,0.97,1.2,81.0,3047.0,3.1,3.83,,12.79,1.076,100.6,,31.8,5.0,,,,,,,,,,,,0,0,0,0,0,0,0,0,0,0,0,0,0,0,0,0,,,,,0.0,,,,,,
224,14234,0,,,,,,,,,,,,,,,,,,,,,,,0.0,0.0,0.0,0.0,0.0,0.0,0.0,0.0,2.27,,,0,0,0,0,0,0,0,0,0,0,0,0,0,0,0,0,0.0,,,,,0.0,0.0,0.0,0.0,0.0,0.0
225,14254,0,0.0,180.24,,0.01,0.06,1.04,-1.0,0.0,1.0,1.05,1.2,88.0,3047.0,3.1,3.83,,12.87,1.088,100.6,,31.8,5.0,,,,,,,,,,,,0,0,0,0,0,0,0,0,0,0,0,0,0,0,0,0,,,,,0.0,,,,,,
226,14274,0,,,,,,,,,,,,,,,,,,,,,,,,,,,,,,,,,,0,0,0,0,0,0,0,0,0,0,0,0,0,0,0,0,,,,,,,,,,,
227,14294,0,0.0,180.24,,0.01,0.07,1.1,-1.0,0.0,2.0,1.11,1.2,92.0,3023.0,2.8,3.77,,12.92,1.105,100.6,,31.1,5.0,,,,,,,,,,,,0,0,0,0,0,0,0,0,0,0,0,0,0,0,0,0,,,,,0.0,,,,,,
228,14314,0,,,,,,,,,,,,,,,,,,,,,,,,,,,,,,,,,,0,0,0,0,0,0,0,0,0,0,0,0,0,0,0,0,,,,,,,,,,,
229,14334,0,0.0,180.24,,0.02,0.07,1.16,-2.0,0.0,2.0,1.16,1.2,97.0,3017.0,2.7,3.84,,12.97,1.115,100.6,,31.1,5.0,0.0,0.0,0.0,0.0,0.0,0.0,0.0,0.0,2.27,,,0,0,0,0,0,0,0,0,0,0,0,0,0,0,0,0,0.0,,,,0.0,0.0,0.0,0.0,0.0,0.0,0.0
230,14354,0,,,,,,,,,,,,,,,,,,,,,,,,,,,,,,,,,,0,0,0,0,0,0,0,0,0,0,0,0,0,0,0,0,,,,,,,,,,,
231,14374,0,0.0,180.24,,0.02,0.07,1.2,-2.0,0.0,2.0,1.2,1.2,100.0,3010.0,2.7,3.85,,12.96,1.119,100.6,,31.1,5.0,,,,,,,,,,,,0,0,0,0,0,0,0,0,0,0,0,0,0,0,0,0,,,,,0.0,,,,,,
232,14394,0,,,,,,,,,,,,,,,,,,,,,,,,,,,,,,,,,,0,0,0,0,0,0,0,0,0,0,0,0,0,0,0,0,,,,,,,,,,,
233,14414,0,0.0,180.24,,0.03,0.08,1.23,-2.0,0.0,2.0,1.24,1.24,100.0,2969.0,2.7,3.75,,12.96,1.119,100.6,,30.7,5.0,,,,,,,,,,,,0,0,0,0,0,0,0,0,0,0,0,0,0,0,0,0,,,,,0.0,,,,,,
234,14434,0,,,,,,,,,,,,,,,,,,,,,,,0.0,0.0,0.0,0.0,0.0,0.0,0.0,0.0,2.28,,,0,0,0,0,0,0,0,0,0,0,0,0,0,0,0,0,0.0,,,,,0.0,0.0,0.0,0.0,0.0,0.0
235,14454,0,0.0,180.12,,0.04,0.11,1.24,-2.0,0.0,2.0,1.25,1.25,100.0,2969.0,2.7,3.75,,12.99,1.12,100.6,,30.7,5.0,,,,,,,,,,,,0,0,0,0,0,0,0,0,0,0,0,0,0,0,0,0,,,,,0.0,,,,,,
236,14474,0,,,,,,,,,,,,,,,,,,,,,,,,,,,,,,,,,,0,0,0,0,0,0,0,0,0,0,0,0,0,0,0,0,,,,,,,,,,,
237,14494,0,0.0,180.24,,0.04,0.12,1.26,-2.0,0.0,2.0,1.27,1.27,100.0,2941.0,2.8,3.79,,13.05,1.122,100.6,,30.1,5.0,,,,,,,,,,,,0,0,0,0,0,0,0,0,0,0,0,0,0,0,0,0,,,,,0.0,,,,,,
238,14514,0,,,,,,,,,,,,,,,,,,,,,,,,,,,,,,,,,,0,0,0,0,0,0,0,0,0,0,0,0,0,0,0,0,,,,,,,,,,,
239,14534,0,0.0,180.24,,0.0,-0.01,1.31,-2.0,0.0,2.0,1.31,1.31,100.0,3174.0,3.1,3.84,,13.01,1.155,100.6,,30.1,5.0,0.0,0.0,0.0,0.0,0.0,0.0,0.0,0.0,2.26,,,0,0,0,0,0,0,0,0,0,0,0,0,0,0,0,0,0.0,,,,0.0,0.0,0.0,0.0,0.0,0.0,0.0
240,14554,0,,,,,,,,,,,,,,,,,,,,,,,,,,,,,,,,,,0,0,0,0,0,0,0,0,0,0,0,0,0,0,0,0,,,,,,,,,,,
241,14574,0,0.0,180.24,,0.02,0.04,1.21,-1.0,0.0,1.0,1.21,1.31,93.0,3308.0,3.1,3.79,,12.88,1.155,100.6,,30.1,5.0,,,,,,,,,,,,0,0,0,0,0,0,0,0,0,0,0,0,0,0,0,0,,,,,0.0,,,,,,
242,14594,0,,,,,,,,,,,,,,,,,,,,,,,,,,,,,,,,,,0,0,0,0,0,0,0,0,0,0,0,0,0,0,0,0,,,,,,,,,,,
243,14614,0,0.0,180.24,,0.01,0.05,1.25,-1.0,0.0,2.0,1.25,1.31,96.0,3340.0,2.8,3.8,,12.88,1.155,100.6,,34.5,5.0,,,,,,,,,,,,0,0,0,0,0,0,0,0,0,0,0,0,0,0,0,0,,,,,0.0,,,,,,
244,14634,0,,,,,,,,,,,,,,,,,,,,,,,0.0,0.0,0.0,0.0,0.0,0.0,0.0,0.0,2.27,,,0,0,0,0,0,0,0,0,0,0,0,0,0,0,0,0,0.0,,,,,0.0,0.0,0.0,0.0,0.0,0.0
245,14654,0,0.0,180.24,,-0.02,0.02,1.17,0.0,0.0,1.0,1.17,1.31,89.0,3340.0,2.8,3.8,,12.8,1.071,100.6,,34.5,5.0,,,,,,,,,,,,0,0,0,0,0,0,0,0,0,0,0,0,0,0,0,0,,,,,0.0,,,,,,
246,14674,0,,,,,,,,,,,,,,,,,,,,,,,,,,,,,,,,,,0,0,0,0,0,0,0,0,0,0,0,0,0,0,0,0,,,,,,,,,,,
247,14694,0,0.0,180.37,,0.01,0.09,1.13,-1.0,0.0,1.0,1.13,1.31,86.0,3267.0,2.7,3.65,,12.76,1.047,100.6,,33.7,5.0,,,,,,,,,,,,0,0,0,0,0,0,0,0,0,0,0,0,0,0,0,0,,,,,0.0,,,,,,
248,14714,0,,,,,,,,,,,,,,,,,,,,,,,,,,,,,,,,,,0,0,0,0,0,0,0,0,0,0,0,0,0,0,0,0,,,,,,,,,,,
249,14734,0,0.0,180.37,,-0.03,-0.04,1.14,0.0,0.0,1.0,1.14,1.31,87.0,3301.0,2.7,3.83,,12.79,1.06,100.6,,33.7,5.0,0.0,0.0,0.0,0.0,0.0,0.0,0.0,0.0,2.28,,,0,0,0,0,0,0,0,0,0,0,0,0,0,0,0,0,0.0,,,,0.0,0.0,0.0,0.0,0.0,0.0,0.0
250,14754,0,,,,,,,,,,,,,,,,,,,,,,,,,,,,,,,,,,0,0,0,0,0,0,0,0,0,0,0,0,0,0,0,0,,,,,,,,,,,
251,14774,0,0.0,180.24,,-0.01,0.03,1.12,0.0,0.0,1.0,1.12,1.31,86.0,3448.0,2.6,3.61,,12.73,1.066,100.6,,33.7,5.0,,,,,,,,,,,,0,0,0,0,0,0,0,0,0,0,0,0,0,0,0,0,,,,,0.0,,,,,,
252,14794,0,,,,,,,,,,,,,,,,,,,,,,,,,,,,,,,,,,0,0,0,0,0,0,0,0,0,0,0,0,0,0,0,0,,,,,,,,,,,
253,14814,0,0.0,180.24,,-0.03,-0.05,1.07,0.0,0.0,0.0,1.07,1.31,81.0,3434.0,2.7,3.58,,12.73,1.066,100.6,,36.3,5.0,,,,,,,,,,,,0,0,0,0,0,0,0,0,0,0,0,0,0,0,0,0,,,,,0.0,,,,,,
254,14834,0,,,,,,,,,,,,,,,,,,,,,,,0.0,0.0,0.0,0.0,0.0,0.0,0.0,0.0,2.27,,,0,0,0,0,0,0,0,0,0,0,0,0,0,0,0,0,0.0,,,,,0.0,0.0,0.0,0.0,0.0,0.0
255,14854,0,0.0,180.24,,-0.03,-0.08,1.12,0.0,0.0,1.0,1.12,1.31,85.0,3434.0,2.7,3.58,,12.76,1.03,100.6,,36.3,5.0,,,,,,,,,,,,0,0,0,0,0,0,0,0,0,0,0,0,0,0,0,0,,,,,0.0,,,,,,
256,14874,0,,,,,,,,,,,,,,,,,,,,,,,,,,,,,,,,,,0,0,0,0,0,0,0,0,0,0,0,0,0,0,0,0,,,,,,,,,,,
257,14894,0,0.0,180.24,,-0.03,-0.04,1.05,0.0,0.0,0.0,1.05,1.31,80.0,3360.0,2.9,3.62,,12.73,1.004,100.6,,35.8,5.0,,,,,,,,,,,,0,0,0,0,0,0,0,0,0,0,0,0,0,0,0,0,,,,,0.0,,,,,,
258,14914,0,,,,,,,,,,,,,,,,,,,,,,,,,,,,,,,,,,0,0,0,0,0,0,0,0,0,0,0,0,0,0,0,0,,,,,,,,,,,
259,14934,0,0.0,180.37,,-0.07,-0.15,1.1,0.0,0.0,0.0,1.11,1.31,85.0,3400.0,3.1,3.59,,12.68,1.009,100.6,,35.8,5.0,0.0,0.0,0.0,0.0,0.0,0.0,0.0,0.0,2.27,,,0,0,0,0,0,0,0,0,0,0,0,0,0,0,0,0,0.0,,,,0.0,0.0,0.0,0.0,0.0,0.0,0.0
260,14954,0,,,,,,,,,,,,,,,,,,,,,,,,,,,,,,,,,,0,0,0,0,0,0,0,0,0,0,0,0,0,0,0,0,,,,,,,,,,,
261,14974,0,0.0,180.24,,-0.02,-0.01,1.04,0.0,0.0,0.0,1.04,1.31,79.0,3539.0,3.2,3.72,,12.65,1.038,100.6,,35.8,5.0,,,,,,,,,,,,0,0,0,0,0,0,0,0,0,0,0,0,0,0,0,0,,,,,0.0,,,,,,
262,14994,0,,,,,,,,,,,,,,,,,,,,,,,,,,,,,,,,,,0,0,0,0,0,0,0,0,0,0,0,0,0,0,0,0,,,,,,,,,,,
263,15014,0,0.0,180.24,,-0.04,-0.09,1.03,1.0,0.0,0.0,1.03,1.31,79.0,3588.0,3.2,3.72,,12.65,1.038,100.6,,36.4,5.0,,,,,,,,,,,,0,0,0,0,0,0,0,0,0,0,0,0,0,0,0,0,,,,,0.0,,,,,,
264,15034,0,,,,,,,,,,,,,,,,,,,,,,,0.0,0.0,0.0,0.0,0.0,0.0,0.0,0.0,2.27,,,0,0,0,0,0,0,0,0,0,0,0,0,0,0,0,0,0.0,,,,,0.0,0.0,0.0,0.0,0.0,0.0
265,15054,0,0.0,180.24,,-0.06,-0.13,1.07,1.0,0.0,0.0,1.08,1.31,82.0,3588.0,3.2,3.72,,12.59,1.126,100.6,,36.4,5.0,,,,,,,,,,,,0,0,0,0,0,0,0,0,0,0,0,0,0,0,0,0,,,,,0.0,,,,,,
266,15074,0,,,,,,,,,,,,,,,,,,,,,,,,,,,,,,,,,,0,0,0,0,0,0,0,0,0,0,0,0,0,0,0,0,,,,,,,,,,,
267,15094,0,0.0,180.24,,-0.04,-0.07,1.06,0.0,0.0,0.0,1.06,1.31,81.0,3552.0,3.1,3.67,,12.6,1.04,100.6,,37.4,5.0,,,,,,,,,,,,0,0,0,0,0,0,0,0,0,0,0,0,0,0,0,0,,,,,0.0,,,,,,
268,15114,0,,,,,,,,,,,,,,,,,,,,,,,,,,,,,,,,,,0,0,0,0,0,0,0,0,0,0,0,0,0,0,0,0,,,,,,,,,,,
269,15134,0,0.0,180.24,13.62,-0.03,-0.01,1.03,0.0,0.0,0.0,1.03,1.31,79.0,3566.0,2.8,3.67,15.0,12.57,0.985,100.6,176.0,37.4,5.0,0.0,0.0,0.0,0.0,0.0,0.0,0.0,0.0,2.27,0.0,0.0,0,0,0,0,0,0,0,0,0,0,0,0,0,0,0,0,0.0,0.0,0.0,0.0,0.0,0.0,0.0,0.0,0.0,0.0,0.0
270,15154,0,,,,,,,,,,,,,,,,,,,,,,,,,,,,,,,,,,0,0,0,0,0,0,0,0,0,0,0,0,0,0,0,0,,,,,,,,,,,
271,15174,0,0.0,180.24,,-0.07,-0.09,1.08,0.0,0.0,0.0,1.09,1.31,83.0,3439.0,2.7,3.69,,12.63,0.959,100.6,,37.4,5.0,,,,,,,,,,,,0,0,0,0,0,0,0,0,0,0,0,0,0,0,0,0,,,,,0.0,,,,,,
272,15194,0,,,,,,,,,,,,,,,,,,,,,,,,,,,,,,,,,,0,0,0,0,0,0,0,0,0,0,0,0,0,0,0,0,,,,,,,,,,,
273,15214,0,0.0,180.24,,-0.04,-0.02,0.99,0.0,0.0,0.0,0.99,1.31,76.0,3327.0,2.7,3.66,,12.63,0.959,100.6,,34.8,5.0,,,,,,,,,,,,0,0,0,0,0,0,0,0,0,0,0,0,0,0,0,0,,,,,0.0,,,,,,
274,15234,0,,,,,,,,,,,,,,,,,,,,,,,0.0,0.0,0.0,0.0,0.0,0.0,0.0,0.0,2.28,,,0,0,0,0,0,0,0,0,0,0,0,0,0,0,0,0,0.0,,,,,0.0,0.0,0.0,0.0,0.0,0.0
275,15254,0,0.0,180.37,,-0.03,-0.03,1.07,-1.0,0.0,1.0,1.07,1.31,82.0,3327.0,2.7,3.66,,12.63,0.947,100.6,,34.8,5.0,,,,,,,,,,,,0,0,0,0,0,0,0,0,0,0,0,0,0,0,0,0,,,,,0.0,,,,,,
276,15274,0,,,,,,,,,,,,,,,,,,,,,,,,,,,,,,,,,,0,0,0,0,0,0,0,0,0,0,0,0,0,0,0,0,,,,,,,,,,,
277,15294,0,0.0,180.37,,-0.07,-0.1,1.11,0.0,0.0,0.0,1.11,1.31,85.0,3220.0,2.7,3.65,,12.69,0.961,100.6,,34.8,5.0,,,,,,,,,,,,0,0,0,0,0,0,0,0,0,0,0,0,0,0,0,0,,,,,0.0,,,,,,
278,15314,0,,,,,,,,,,,,,,,,,,,,,,,,,,,,,,,,,,0,0,0,0,0,0,0,0,0,0,0,0,0,0,0,0,,,,,,,,,,,
279,15334,0,0.0,180.37,,-0.09,-0.09,1.05,1.0,0.0,0.0,1.05,1.31,81.0,3135.0,2.7,3.7,,12.76,0.997,100.6,,32.9,5.0,0.0,0.0,0.0,0.0,0.0,0.0,0.0,0.0,2.27,,,0,0,0,0,0,0,0,0,0,0,0,0,0,0,0,0,0.0,,,,0.0,0.0,0.0,0.0,0.0,0.0,0.0
280,15354,0,,,,,,,,,,,,,,,,,,,,,,,,,,,,,,,,,,0,0,0,0,0,0,0,0,0,0,0,0,0,0,0,0,,,,,,,,,,,
281,15374,0,0.0,180.37,,-0.07,0.0,0.95,1.0,0.0,0.0,0.95,1.31,73.0,3083.0,3.1,3.72,,12.76,0.997,100.6,,32.9,5.0,,,,,,,,,,,,0,0,0,0,0,0,0,0,0,0,0,0,0,0,0,0,,,,,0.0,,,,,,
282,15394,0,,,,,,,,,,,,,,,,,,,,,,,,,,,,,,,,,,0,0,0,0,0,0,0,0,0,0,0,0,0,0,0,0,,,,,,,,,,,
283,15414,0,0.0,180.24,,-0.04,0.07,0.86,0.0,0.0,0.0,0.87,1.31,66.0,3083.0,3.1,3.72,,12.79,1.031,100.6,,31.3,5.0,,,,,,,,,,,,0,0,0,0,0,0,0,0,0,0,0,0,0,0,0,0,,,,,0.0,,,,,,
284,15434,0,,,,,,,,,,,,,,,,,,,,,,,0.0,0.0,0.0,0.0,0.0,0.0,0.0,0.0,2.27,,,0,0,0,0,0,0,0,0,0,0,0,0,0,0,0,0,0.0,,,,,0.0,0.0,0.0,0.0,0.0,0.0
285,15454,0,0.0,180.24,,-0.01,0.1,0.81,0.0,0.0,0.0,0.82,1.31,62.0,3021.0,5.8,3.94,,13.0,1.068,100.6,,31.3,5.0,,,,,,,,,,,,0,0,0,0,0,0,0,0,0,0,0,0,0,0,0,0,,,,,0.0,,,,,,
286,15474,0,,,,,,,,,,,,,,,,,,,,,,,,,,,,,,,,,,0,0,0,0,0,0,0,0,0,0,0,0,0,0,0,0,,,,,,,,,,,
287,15494,0,0.0,180.24,,0.01,0.13,0.77,0.0,0.0,0.0,0.78,1.31,59.0,2997.0,17.4,4.53,,13.71,1.096,100.6,,31.3,5.0,,,,,,,,,,,,0,0,0,0,0,0,0,0,0,0,0,0,0,0,0,0,,,,,0.0,,,,,,
288,15514,0,,,,,,,,,,,,,,,,,,,,,,,,,,,,,,,,,,0,0,0,0,0,0,0,0,0,0,0,0,0,0,0,0,,,,,,,,,,,
289,15534,0,0.0,180.37,,0.03,0.14,0.83,-1.0,0.0,1.0,0.84,1.31,64.0,3175.0,28.0,4.21,,14.14,1.078,100.6,,31.2,5.0,0.0,0.0,0.0,0.0,0.0,0.0,0.0,0.0,2.27,,,0,0,0,0,0,0,0,0,0,0,0,0,0,0,0,0,0.0,,,,0.0,0.0,0.0,0.0,0.0,0.0,0.0
290,15554,0,,,,,,,,,,,,,,,,,,,,,,,,,,,,,,,,,,0,0,0,0,0,0,0,0,0,0,0,0,0,0,0,0,,,,,,,,,,,
291,15574,0,0.0,180.37,,-0.01,-0.02,0.85,0.0,0.0,0.0,0.85,1.31,65.0,3390.0,36.5,4.37,,14.14,1.078,100.6,,31.2,5.0,,,,,,,,,,,,0,0,0,0,0,0,0,0,0,0,0,0,0,0,0,0,,,,,0.0,,,,,,
292,15594,0,,,,,,,,,,,,,,,,,,,,,,,,,,,,,,,,,,0,0,0,0,0,0,0,0,0,0,0,0,0,0,0,0,,,,,,,,,,,
293,15614,0,0.0,180.37,,-0.03,-0.04,0.86,0.0,0.0,0.0,0.86,1.31,66.0,3390.0,36.5,4.37,,14.32,1.1,100.6,,36.3,5.0,,,,,,,,,,,,0,0,0,0,0,0,0,0,0,0,0,0,0,0,0,0,,,,,0.0,,,,,,
294,15634,0,,,,,,,,,,,,,,,,,,,,,,,0.0,0.0,0.0,0.0,0.0,0.0,0.0,0.0,2.27,,,0,0,0,0,0,0,0,0,0,0,0,0,0,0,0,0,0.0,,,,,0.0,0.0,0.0,0.0,0.0,0.0
295,15654,0,0.0,180.24,,-0.0,0.0,0.83,0.0,0.0,0.0,0.83,1.31,63.0,3699.0,37.7,4.12,,14.32,1.117,100.6,,36.3,5.0,,,,,,,,,,,,0,0,0,0,0,0,0,0,0,0,0,0,0,0,0,0,,,,,0.0,,,,,,
296,15674,0,,,,,,,,,,,,,,,,,,,,,,,,,,,,,,,,,,0,0,0,0,0,0,0,0,0,0,0,0,0,0,0,0,,,,,,,,,,,
297,15694,0,0.0,180.37,,0.01,-0.04,0.83,1.0,0.0,0.0,0.83,1.31,63.0,4491.0,36.1,4.27,,14.26,1.218,100.6,,36.3,5.0,,,,,,,,,,,,0,0,0,0,0,0,0,0,0,0,0,0,0,0,0,0,,,,,0.0,,,,,,
298,15714,0,,,,,,,,,,,,,,,,,,,,,,,,,,,,,,,,,,0,0,0,0,0,0,0,0,0,0,0,0,0,0,0,0,,,,,,,,,,,
299,15734,0,0.0,180.37,,-0.01,0.01,0.86,1.0,0.0,0.0,0.86,1.31,66.0,5012.0,27.8,4.71,,13.9,1.178,100.6,,50.7,5.0,0.0,0.0,0.0,0.0,0.0,0.0,0.0,0.0,2.27,,,0,0,0,0,0,0,0,0,0,0,0,0,0,0,0,0,0.0,,,,0.0,0.0,0.0,0.0,0.0,0.0,0.0
300,15754,0,,,,,,,,,,,,,,,,,,,,,,,,,,,,,,,,,,0,0,0,0,0,0,0,0,0,0,0,0,0,0,0,0,,,,,,,,,,,
301,15774,0,0.0,180.24,,-0.02,0.09,0.97,1.0,0.0,0.0,0.98,1.31,74.0,5616.0,10.4,3.63,,13.9,1.178,100.6,,50.7,5.0,,,,,,,,,,,,0,0,0,0,0,0,0,0,0,0,0,0,0,0,0,0,,,,,0.0,,,,,,
302,15794,0,,,,,,,,,,,,,,,,,,,,,,,,,,,,,,,,,,0,0,0,0,0,0,0,0,0,0,0,0,0,0,0,0,,,,,,,,,,,
303,15814,0,0.0,180.24,,0.05,-0.12,0.91,2.0,0.0,-1.0,0.92,1.31,70.0,5616.0,10.4,3.63,,12.85,1.053,100.6,,60.7,5.0,,,,,,,,,,,,0,0,0,0,0,0,0,0,0,0,0,0,0,0,0,0,,,,,0.0,,,,,,
304,15834,0,,,,,,,,,,,,,,,,,,,,,,,0.0,0.0,0.0,0.0,0.0,0.0,0.0,0.0,2.26,,,0,0,0,0,0,0,0,0,0,0,0,0,0,0,0,0,0.0,,,,,0.0,0.0,0.0,0.0,0.0,0.0
305,15854,0,0.0,180.24,,0.07,-0.28,0.81,1.0,0.0,-1.0,0.86,1.31,66.0,5912.0,0.0,1.81,,11.49,1.007,100.6,,60.7,5.0,,,,,,,,,,,,0,0,0,0,0,0,0,0,0,0,0,0,0,0,0,0,,,,,0.0,,,,,,
306,15874,0,,,,,,,,,,,,,,,,,,,,,,,,,,,,,,,,,,0,0,0,0,0,0,0,0,0,0,0,0,0,0,0,0,,,,,,,,,,,
307,15894,0,0.0,180.24,,0.07,-0.4,0.69,0.0,0.0,-1.0,0.8,1.31,61.0,5976.0,0.0,1.4,,10.3,1.047,100.6,,60.7,5.0,,,,,,,,,,,,0,0,0,0,0,0,0,0,0,0,0,0,0,0,0,0,,,,,0.0,,,,,,
308,15914,0,,,,,,,,,,,,,,,,,,,,,,,,,,,,,,,,,,0,0,0,0,0,0,0,0,0,0,0,0,0,0,0,0,,,,,,,,,,,
309,15934,0,0.0,180.24,,-0.01,-0.2,0.66,-2.0,0.0,0.0,0.69,1.31,53.0,5764.0,7.5,2.71,,10.4,1.054,100.6,,62.6,5.0,0.0,0.0,0.0,0.0,0.0,0.0,0.0,0.0,2.27,,,0,0,0,0,0,0,0,0,0,0,0,0,0,0,0,0,0.0,,,,0.0,0.0,0.0,0.0,0.0,0.0,0.0
310,15954,0,,,,,,,,,,,,,,,,,,,,,,,,,,,,,,,,,,0,0,0,0,0,0,0,0,0,0,0,0,0,0,0,0,,,,,,,,,,,
311,15974,0,0.0,180.24,,0.02,-0.22,0.76,0.0,0.0,0.0,0.79,1.31,60.0,5557.0,21.4,3.73,,10.4,1.054,100.6,,62.6,5.0,,,,,,,,,,,,0,0,0,0,0,0,0,0,0,0,0,0,0,0,0,0,,,,,0.0,,,,,,
312,15994,0,,,,,,,,,,,,,,,,,,,,,,,,,,,,,,,,,,0,0,0,0,0,0,0,0,0,0,0,0,0,0,0,0,,,,,,,,,,,
313,16014,0,0.0,180.12,,-0.02,-0.13,0.82,-1.0,0.0,0.0,0.83,1.31,63.0,5557.0,21.4,3.73,,11.84,1.068,100.6,,59.5,5.0,,,,,,,,,,,,0,0,0,0,0,0,0,0,0,0,0,0,0,0,0,0,,,,,0.0,,,,,,
314,16034,0,,,,,,,,,,,,,,,,,,,,,,,0.0,0.0,0.0,0.0,0.0,0.0,0.0,0.0,2.28,,,0,0,0,0,0,0,0,0,0,0,0,0,0,0,0,0,0.0,,,,,0.0,0.0,0.0,0.0,0.0,0.0
315,16054,0,0.0,180.12,,-0.0,-0.17,0.8,0.0,0.0,0.0,0.81,1.31,62.0,5545.0,31.9,4.59,,13.2,1.213,98.8,,59.5,5.0,,,,,,,,,,,,0,0,0,0,0,0,0,0,0,0,0,0,0,0,0,0,,,,,0.0,,,,,,
316,16074,0,,,,,,,,,,,,,,,,,,,,,,,,,,,,,,,,,,0,0,0,0,0,0,0,0,0,0,0,0,0,0,0,0,,,,,,,,,,,
317,16094,0,0.0,180.12,,-0.02,-0.2,0.75,0.0,0.0,0.0,0.78,1.31,60.0,5972.0,33.9,4.57,,13.33,1.248,98.8,,59.5,5.0,,,,,,,,,,,,0,0,0,0,0,0,0,0,0,0,0,0,0,0,0,0,,,,,0.0,,,,,,
318,16114,0,,,,,,,,,,,,,,,,,,,,,,,,,,,,,,,,,,0,0,0,0,0,0,0,0,0,0,0,0,0,0,0,0,,,,,,,,,,,
319,16134,0,0.0,180.12,13.59,-0.03,-0.13,0.82,-1.0,0.0,0.0,0.83,1.31,64.0,6501.0,16.2,4.49,15.0,13.33,1.248,98.8,176.0,62.6,5.0,0.0,0.0,0.0,0.0,0.0,0.0,0.0,0.0,2.28,0.0,0.0,0,0,0,0,0,0,0,0,0,0,0,0,0,0,0,0,0.0,0.0,0.0,0.0,0.0,0.0,0.0,0.0,0.0,0.0,0.0
320,16154,0,,,,,,,,,,,,,,,,,,,,,,,,,,,,,,,,,,0,0,0,0,0,0,0,0,0,0,0,0,0,0,0,0,,,,,,,,,,,
321,16174,0,0.0,180.12,,-0.07,-0.13,0.83,-1.0,0.0,0.0,0.84,1.31,64.0,6501.0,16.2,4.49,,12.59,1.217,98.8,,62.6,5.0,,,,,,,,,,,,0,0,0,0,0,0,0,0,0,0,0,0,0,0,0,0,,,,,0.0,,,,,,
322,16194,0,,,,,,,,,,,,,,,,,,,,,,,,,,,,,,,,,,0,0,0,0,0,0,0,0,0,0,0,0,0,0,0,0,,,,,,,,,,,
323,16214,0,0.0,180.12,,-0.05,-0.09,0.83,0.0,0.0,0.0,0.83,1.31,64.0,6997.0,0.0,1.4,,10.7,1.123,98.8,,65.9,5.0,,,,,,,,,,,,0,0,0,0,0,0,0,0,0,0,0,0,0,0,0,0,,,,,0.0,,,,,,
324,16234,0,,,,,,,,,,,,,,,,,,,,,,,0.0,0.0,0.0,0.0,0.0,0.0,0.0,0.0,2.27,,,0,0,0,0,0,0,0,0,0,0,0,0,0,0,0,0,0.0,,,,,0.0,0.0,0.0,0.0,0.0,0.0
325,16254,0,0.0,180.12,,-0.05,-0.09,0.82,0.0,0.0,0.0,0.83,1.31,63.0,6869.0,0.0,1.4,,9.48,1.05,98.8,,65.9,5.0,,,,,,,,,,,,0,0,0,0,0,0,0,0,0,0,0,0,0,0,0,0,,,,,0.0,,,,,,
326,16274,0,,,,,,,,,,,,,,,,,,,,,,,,,,,,,,,,,,0,0,0,0,0,0,0,0,0,0,0,0,0,0,0,0,,,,,,,,,,,
327,16294,0,0.0,180.12,,-0.02,-0.09,0.91,-1.0,0.0,0.0,0.92,1.31,70.0,6477.0,12.7,3.09,,9.72,0.957,98.8,,65.9,5.0,,,,,,,,,,,,0,0,0,0,0,0,0,0,0,0,0,0,0,0,0,0,,,,,0.0,,,,,,
328,16314,0,,,,,,,,,,,,,,,,,,,,,,,,,,,,,,,,,,0,0,0,0,0,0,0,0,0,0,0,0,0,0,0,0,,,,,,,,,,,
329,16334,0,0.0,180.12,,-0.03,-0.06,0.93,0.0,0.0,0.0,0.93,1.31,71.0,6514.0,26.1,4.42,,9.72,0.957,98.8,,60.3,5.0,0.0,0.0,0.0,0.0,0.0,0.0,0.0,0.0,2.27,,,0,0,0,0,0,0,0,0,0,0,0,0,0,0,0,0,0.0,,,,0.0,0.0,0.0,0.0,0.0,0.0,0.0
330,16354,0,,,,,,,,,,,,,,,,,,,,,,,,,,,,,,,,,,0,0,0,0,0,0,0,0,0,0,0,0,0,0,0,0,,,,,,,,,,,
331,16374,0,0.0,180.12,,-0.03,0.02,0.94,0.0,0.0,0.0,0.94,1.31,72.0,6514.0,26.1,4.42,,11.56,1.164,98.8,,60.3,5.0,,,,,,,,,,,,0,0,0,0,0,0,0,0,0,0,0,0,0,0,0,0,,,,,0.0,,,,,,
332,16394,0,,,,,,,,,,,,,,,,,,,,,,,,,,,,,,,,,,0,0,0,0,0,0,0,0,0,0,0,0,0,0,0,0,,,,,,,,,,,
333,16414,0,0.0,180.12,,-0.04,-0.01,0.94,2.0,0.0,0.0,0.94,1.31,72.0,7043.0,30.9,4.61,,12.44,1.25,98.8,,67.0,5.0,,,,,,,,,,,,0,0,0,0,0,0,0,0,0,0,0,0,0,0,0,0,,,,,0.0,,,,,,
334,16434,0,,,,,,,,,,,,,,,,,,,,,,,0.0,0.0,0.0,0.0,0.0,0.0,0.0,0.0,2.27,,,0,0,0,0,0,0,0,0,0,0,0,0,0,0,0,0,0.0,,,,,0.0,0.0,0.0,0.0,0.0,0.0
335,16454,0,0.0,180.24,,-0.06,0.09,0.88,2.0,0.0,0.0,0.89,1.31,68.0,7980.0,25.3,4.85,,12.13,1.096,98.8,,67.0,5.0,,,,,,,,,,,,0,0,0,0,0,0,0,0,0,0,0,0,0,0,0,0,,,,,0.0,,,,,,
336,16474,0,,,,,,,,,,,,,,,,,,,,,,,,,,,,,,,,,,0,0,0,0,0,0,0,0,0,0,0,0,0,0,0,0,,,,,,,,,,,
337,16494,0,0.0,180.12,,-0.07,0.25,0.84,3.0,0.0,0.0,0.88,1.31,67.0,9127.0,2.6,1.71,,9.81,0.979,98.8,,67.0,5.0,,,,,,,,,,,,0,0,0,0,0,0,0,0,0,0,0,0,0,0,0,0,,,,,0.0,,,,,,
338,16514,0,,,,,,,,,,,,,,,,,,,,,,,,,,,,,,,,,,0,0,0,0,0,0,0,0,0,0,0,0,0,0,0,0,,,,,,,,,,,
339,16534,0,0.0,180.12,,-0.06,0.15,0.89,3.0,0.0,-1.0,0.9,1.31,69.0,9603.0,0.3,1.4,,9.81,0.979,98.8,,69.1,5.0,0.0,0.0,0.0,0.0,0.0,0.0,0.0,0.0,2.28,,,0,0,0,0,0,0,0,0,0,0,0,0,0,0,0,0,0.0,,,,0.0,0.0,0.0,0.0,0.0,0.0,0.0
340,16554,0,,,,,,,,,,,,,,,,,,,,,,,,,,,,,,,,,,0,0,0,0,0,0,0,0,0,0,0,0,0,0,0,0,,,,,,,,,,,
341,16574,0,0.0,180.12,,-0.04,0.06,0.87,2.0,0.0,0.0,0.87,1.31,67.0,9603.0,0.3,1.4,,7.78,0.857,98.8,,69.1,5.0,,,,,,,,,,,,0,0,0,0,0,0,0,0,0,0,0,0,0,0,0,0,,,,,0.0,,,,,,
342,16594,0,,,,,,,,,,,,,,,,,,,,,,,,,,,,,,,,,,0,0,0,0,0,0,0,0,0,0,0,0,0,0,0,0,,,,,,,,,,,
343,16614,0,0.0,179.99,,-0.07,0.09,0.95,2.0,0.0,0.0,0.95,1.31,73.0,9255.0,11.6,2.23,,7.5,0.823,98.8,,65.9,5.0,,,,,,,,,,,,0,0,0,0,0,0,0,0,0,0,0,0,0,0,0,0,,,,,0.0,,,,,,
344,16634,0,,,,,,,,,,,,,,,,,,,,,,,0.0,0.0,0.0,0.0,0.0,0.0,0.0,0.0,2.28,,,0,0,0,0,0,0,0,0,0,0,0,0,0,0,0,0,0.0,,,,,0.0,0.0,0.0,0.0,0.0,0.0
345,16654,0,0.0,179.99,,-0.03,0.18,0.95,2.0,0.0,0.0,0.96,1.31,73.0,9568.0,23.4,2.93,,8.74,1.068,98.8,,65.9,5.0,,,,,,,,,,,,0,0,0,0,0,0,0,0,0,0,0,0,0,0,0,0,,,,,0.0,,,,,,
346,16674,0,,,,,,,,,,,,,,,,,,,,,,,,,,,,,,,,,,0,0,0,0,0,0,0,0,0,0,0,0,0,0,0,0,,,,,,,,,,,
347,16694,0,0.0,179.86,,-0.01,0.11,1.01,2.0,0.0,0.0,1.02,1.31,78.0,10055.0,25.4,3.27,,9.54,1.144,98.8,,65.9,5.0,,,,,,,,,,,,0,0,0,0,0,0,0,0,0,0,0,0,0,0,0,0,,,,,0.0,,,,,,
348,16714,0,,,,,,,,,,,,,,,,,,,,,,,,,,,,,,,,,,0,0,0,0,0,0,0,0,0,0,0,0,0,0,0,0,,,,,,,,,,,
349,16734,0,0.0,179.86,,-0.07,0.34,1.02,0.0,0.0,0.0,1.08,1.31,82.0,10575.0,5.7,2.42,,9.54,1.144,98.8,,69.3,5.0,0.0,0.0,0.0,0.0,0.0,0.0,0.0,0.0,2.26,,,0,0,0,0,0,0,0,0,0,0,0,0,0,0,0,0,0.0,,,,0.0,0.0,0.0,0.0,0.0,0.0,0.0
350,16754,0,,,,,,,,,,,,,,,,,,,,,,,,,,,,,,,,,,0,0,0,0,0,0,0,0,0,0,0,0,0,0,0,0,,,,,,,,,,,
351,16774,0,0.0,179.74,,-0.02,0.4,1.06,1.0,0.0,0.0,1.13,1.31,87.0,10575.0,5.7,2.42,,7.63,1.075,98.8,,69.3,5.0,,,,,,,,,,,,0,0,0,0,0,0,0,0,0,0,0,0,0,0,0,0,,,,,0.0,,,,,,
352,16794,0,,,,,,,,,,,,,,,,,,,,,,,,,,,,,,,,,,0,0,0,0,0,0,0,0,0,0,0,0,0,0,0,0,,,,,,,,,,,
353,16814,0,0.0,179.74,,-0.01,0.05,0.98,2.0,0.0,-1.0,0.98,1.31,75.0,10734.0,0.3,1.4,,6.3,0.967,98.8,,67.6,5.0,,,,,,,,,,,,0,0,0,0,0,0,0,0,0,0,0,0,0,0,0,0,,,,,0.0,,,,,,
354,16834,0,,,,,,,,,,,,,,,,,,,,,,,0.0,0.0,0.0,0.0,0.0,0.0,0.0,0.0,2.27,,,0,0,0,0,0,0,0,0,0,0,0,0,0,0,0,0,0.0,,,,,0.0,0.0,0.0,0.0,0.0,0.0
355,16854,0,0.0,179.61,,0.01,-0.3,1.07,2.0,0.0,0.0,1.11,1.31,85.0,10399.0,0.0,1.4,,5.5,0.945,98.8,,67.6,5.0,,,,,,,,,,,,0,0,0,0,0,0,0,0,0,0,0,0,0,0,0,0,,,,,0.0,,,,,,
356,16874,0,,,,,,,,,,,,,,,,,,,,,,,,,,,,,,,,,,0,0,0,0,0,0,0,0,0,0,0,0,0,0,0,0,,,,,,,,,,,
357,16894,0,0.0,179.49,,0.03,-0.35,0.98,2.0,0.0,0.0,1.04,1.31,80.0,10160.0,0.0,1.4,,5.5,0.945,98.8,,67.6,5.0,,,,,,,,,,,,0,0,0,0,0,0,0,0,0,0,0,0,0,0,0,0,,,,,0.0,,,,,,
358,16914,0,,,,,,,,,,,,,,,,,,,,,,,,,,,,,,,,,,0,0,0,0,0,0,0,0,0,0,0,0,0,0,0,0,,,,,,,,,,,
359,16934,0,0.0,179.49,,0.01,-0.26,0.98,1.0,0.0,0.0,1.02,1.31,78.0,10160.0,0.0,1.4,,5.26,1.092,98.8,,67.6,5.0,0.0,0.0,0.0,0.0,0.0,0.0,0.0,0.0,2.28,,,0,0,0,0,0,0,0,0,0,0,0,0,0,0,0,0,0.0,,,,0.0,0.0,0.0,0.0,0.0,0.0,0.0
360,16954,0,,,,,,,,,,,,,,,,,,,,,,,,,,,,,,,,,,0,0,0,0,0,0,0,0,0,0,0,0,0,0,0,0,,,,,,,,,,,
361,16974,0,0.0,179.49,,-0.03,-0.37,1.0,1.0,0.0,0.0,1.07,1.31,81.0,9942.0,0.0,1.4,,4.97,1.094,98.8,,67.6,5.0,,,,,,,,,,,,0,0,0,0,0,0,0,0,0,0,0,0,0,0,0,0,,,,,0.0,,,,,,
362,16994,0,,,,,,,,,,,,,,,,,,,,,,,,,,,,,,,,,,0,0,0,0,0,0,0,0,0,0,0,0,0,0,0,0,,,,,,,,,,,
363,17014,0,0.0,179.36,,-0.0,-0.26,1.04,0.0,0.0,1.0,1.07,1.31,81.0,9656.0,0.0,1.4,,4.93,1.056,98.8,,67.6,5.0,,,,,,,,,,,,0,0,0,0,0,0,0,0,0,0,0,0,0,0,0,0,,,,,0.0,,,,,,
364,17034,0,,,,,,,,,,,,,,,,,,,,,,,0.0,0.0,0.0,0.0,0.0,0.0,0.0,0.0,2.27,,,0,0,0,0,0,0,0,0,0,0,0,0,0,0,0,0,0.0,,,,,0.0,0.0,0.0,0.0,0.0,0.0
365,17054,0,0.0,179.36,,-0.02,-0.28,1.1,0.0,0.0,1.0,1.14,1.31,87.0,9363.0,0.0,1.4,,4.83,1.047,98.8,,66.3,5.0,,,,,,,,,,,,0,0,0,0,0,0,0,0,0,0,0,0,0,0,0,0,,,,,0.0,,,,,,
366,17074,0,,,,,,,,,,,,,,,,,,,,,,,,,,,,,,,,,,0,0,0,0,0,0,0,0,0,0,0,0,0,0,0,0,,,,,,,,,,,
367,17094,0,0.0,179.36,,-0.06,-0.07,1.03,0.0,-1.0,1.0,1.04,1.31,79.0,9114.0,0.0,1.4,,4.83,1.047,89.8,,66.3,5.0,,,,,,,,,,,,0,0,0,0,0,0,0,0,0,0,0,0,0,0,0,0,,,,,0.0,,,,,,
368,17114,0,,,,,,,,,,,,,,,,,,,,,,,,,,,,,,,,,,0,0,0,0,0,0,0,0,0,0,0,0,0,0,0,0,,,,,,,,,,,
369,17134,0,0.0,179.36,13.57,-0.08,0.05,1.01,-1.0,-1.0,1.0,1.01,1.31,77.0,9114.0,0.0,1.4,15.0,4.8,1.056,89.8,176.0,63.8,5.0,0.0,0.0,0.0,0.0,0.0,0.0,0.0,0.0,2.27,0.0,0.0,0,0,0,0,0,0,0,0,0,0,0,0,0,0,0,0,0.0,0.0,0.0,0.0,0.0,0.0,0.0,0.0,0.0,0.0,0.0
370,17154,0,,,,,,,,,,,,,,,,,,,,,,,,,,,,,,,,,,0,0,0,0,0,0,0,0,0,0,0,0,0,0,0,0,,,,,,,,,,,
371,17174,0,0.0,179.11,,-0.09,0.03,1.02,0.0,-1.0,0.0,1.02,1.31,78.0,8816.0,0.3,1.4,,4.83,1.082,89.8,,63.8,5.0,,,,,,,,,,,,0,0,0,0,0,0,0,0,0,0,0,0,0,0,0,0,,,,,0.0,,,,,,
372,17194,0,,,,,,,,,,,,,,,,,,,,,,,,,,,,,,,,,,0,0,0,0,0,0,0,0,0,0,0,0,0,0,0,0,,,,,,,,,,,
373,17214,0,0.0,179.11,,-0.08,0.02,1.0,1.0,-1.0,1.0,1.0,1.31,77.0,8498.0,0.3,1.4,,4.96,1.099,89.8,,63.8,5.0,,,,,,,,,,,,0,0,0,0,0,0,0,0,0,0,0,0,0,0,0,0,,,,,0.0,,,,,,
374,17234,0,,,,,,,,,,,,,,,,,,,,,,,0.0,0.0,0.0,0.0,0.0,0.0,0.0,0.0,2.27,,,0,0,0,0,0,0,0,0,0,0,0,0,0,0,0,0,0.0,,,,,0.0,0.0,0.0,0.0,0.0,0.0
375,17254,0,0.0,179.11,,-0.11,0.04,0.96,1.0,-1.0,1.0,0.97,1.31,74.0,8199.0,0.3,1.4,,4.99,1.112,89.8,,64.2,5.0,,,,,,,,,,,,0,0,0,0,0,0,0,0,0,0,0,0,0,0,0,0,,,,,0.0,,,,,,
376,17274,0,,,,,,,,,,,,,,,,,,,,,,,,,,,,,,,,,,0,0,0,0,0,0,0,0,0,0,0,0,0,0,0,0,,,,,,,,,,,
377,17294,0,0.0,179.11,,-0.1,0.13,0.93,-1.0,0.0,1.0,0.94,1.31,72.0,7880.0,0.3,1.4,,4.99,1.112,89.8,,64.2,5.0,,,,,,,,,,,,0,0,0,0,0,0,0,0,0,0,0,0,0,0,0,0,,,,,0.0,,,,,,
378,17314,0,,,,,,,,,,,,,,,,,,,,,,,,,,,,,,,,,,0,0,0,0,0,0,0,0,0,0,0,0,0,0,0,0,,,,,,,,,,,
379,17334,0,0.0,179.11,,-0.12,0.01,0.93,-1.0,0.0,1.0,0.94,1.31,72.0,7880.0,0.3,1.4,,5.18,1.16,89.8,,60.9,5.0,0.0,0.0,0.0,0.0,0.0,0.0,0.0,0.0,2.28,,,0,0,0,0,0,0,0,0,0,0,0,0,0,0,0,0,0.0,,,,0.0,0.0,0.0,0.0,0.0,0.0,0.0
380,17354,0,,,,,,,,,,,,,,,,,,,,,,,,,,,,,,,,,,0,0,0,0,0,0,0,0,0,0,0,0,0,0,0,0,,,,,,,,,,,
381,17374,0,0.0,179.11,,-0.14,0.02,0.95,-2.0,0.0,1.0,0.96,1.31,73.0,7525.0,7.9,1.71,,5.87,1.221,89.8,,60.9,5.0,,,,,,,,,,,,0,0,0,0,0,0,0,0,0,0,0,0,0,0,0,0,,,,,0.0,,,,,,
382,17394,0,,,,,,,,,,,,,,,,,,,,,,,,,,,,,,,,,,0,0,0,0,0,0,0,0,0,0,0,0,0,0,0,0,,,,,,,,,,,
383,17414,0,0.0,179.11,,-0.09,0.01,0.97,-1.0,0.0,1.0,0.97,1.31,74.0,7134.0,19.7,3.09,,7.87,1.25,89.8,,60.9,5.0,,,,,,,,,,,,0,0,0,0,0,0,0,0,0,0,0,0,0,0,0,0,,,,,0.0,,,,,,
384,17434,0,,,,,,,,,,,,,,,,,,,,,,,0.0,0.0,0.0,0.0,0.0,0.0,0.0,0.0,2.27,,,0,0,0,0,0,0,0,0,0,0,0,0,0,0,0,0,0.0,,,,,0.0,0.0,0.0,0.0,0.0,0.0
385,17454,0,0.0,178.98,,-0.08,0.0,0.95,-2.0,0.0,1.0,0.95,1.31,73.0,7202.0,31.0,3.74,,11.0,1.252,89.8,,60.8,5.0,,,,,,,,,,,,0,0,0,0,0,0,0,0,0,0,0,0,0,0,0,0,,,,,0.0,,,,,,
386,17474,0,,,,,,,,,,,,,,,,,,,,,,,,,,,,,,,,,,0,0,0,0,0,0,0,0,0,0,0,0,0,0,0,0,,,,,,,,,,,
387,17494,0,0.0,178.98,,-0.08,0.05,0.99,-4.0,0.0,1.0,0.99,1.31,76.0,7540.0,32.7,4.89,,11.0,1.252,89.8,,60.8,5.0,,,,,,,,,,,,0,0,0,0,0,0,0,0,0,0,0,0,0,0,0,0,,,,,0.0,,,,,,
388,17514,0,,,,,,,,,,,,,,,,,,,,,,,,,,,,,,,,,,0,0,0,0,0,0,0,0,0,0,0,0,0,0,0,0,,,,,,,,,,,
389,17534,0,0.0,179.11,,-0.08,-0.01,0.96,-4.0,0.0,1.0,0.97,1.31,74.0,7540.0,32.7,4.89,,11.99,1.194,89.8,,68.4,5.0,0.0,0.0,0.0,0.0,0.0,0.0,0.0,0.0,2.27,,,0,0,0,0,0,0,0,0,0,0,0,0,0,0,0,0,0.0,,,,0.0,0.0,0.0,0.0,0.0,0.0,0.0
390,17554,0,,,,,,,,,,,,,,,,,,,,,,,,,,,,,,,,,,0,0,0,0,0,0,0,0,0,0,0,0,0,0,0,0,,,,,,,,,,,
391,17574,0,0.0,179.11,,-0.08,0.1,0.89,-4.0,0.0,1.0,0.9,1.31,68.0,8617.0,16.0,5.07,,10.9,1.079,89.8,,68.4,5.0,,,,,,,,,,,,0,0,0,0,0,0,0,0,0,0,0,0,0,0,0,0,,,,,0.0,,,,,,
392,17594,0,,,,,,,,,,,,,,,,,,,,,,,,,,,,,,,,,,0,0,0,0,0,0,0,0,0,0,0,0,0,0,0,0,,,,,,,,,,,
393,17614,0,0.0,178.98,,-0.07,0.04,0.94,-4.0,0.0,1.0,0.95,1.31,72.0,9584.0,1.0,1.4,,8.5,0.934,89.8,,68.4,5.0,,,,,,,,,,,,0,0,0,0,0,0,0,0,0,0,0,0,0,0,0,0,,,,,0.0,,,,,,
394,17634,0,,,,,,,,,,,,,,,,,,,,,,,0.0,0.0,0.0,0.0,0.0,0.0,0.0,0.0,2.27,,,0,0,0,0,0,0,0,0,0,0,0,0,0,0,0,0,0.0,,,,,0.0,0.0,0.0,0.0,0.0,0.0
395,17654,0,0.0,179.11,,-0.07,-0.06,1.0,-3.0,0.0,1.0,1.01,1.31,77.0,9447.0,0.5,1.4,,6.84,0.855,89.8,,70.4,5.0,,,,,,,,,,,,0,0,0,0,0,0,0,0,0,0,0,0,0,0,0,0,,,,,0.0,,,,,,
396,17674,0,,,,,,,,,,,,,,,,,,,,,,,,,,,,,,,,,,0,0,0,0,0,0,0,0,0,0,0,0,0,0,0,0,,,,,,,,,,,
397,17694,0,0.0,178.98,,-0.08,-0.12,1.06,-2.0,0.0,1.0,1.07,1.31,81.0,8866.0,0.3,1.4,,6.84,0.855,89.8,,70.4,5.0,,,,,,,,,,,,0,0,0,0,0,0,0,0,0,0,0,0,0,0,0,0,,,,,0.0,,,,,,
398,17714,0,,,,,,,,,,,,,,,,,,,,,,,,,,,,,,,,,,0,0,0,0,0,0,0,0,0,0,0,0,0,0,0,0,,,,,,,,,,,
399,17734,0,0.0,178.98,,-0.08,-0.08,1.05,-3.0,0.0,1.0,1.05,1.31,80.0,8866.0,0.3,1.4,,6.07,0.929,89.8,,62.8,5.0,0.0,0.0,0.0,0.0,0.0,0.0,0.0,0.0,2.28,,,0,0,0,0,0,0,0,0,0,0,0,0,0,0,0,0,0.0,,,,0.0,0.0,0.0,0.0,0.0,0.0,0.0
400,17754,0,,,,,,,,,,,,,,,,,,,,,,,,,,,,,,,,,,0,0,0,0,0,0,0,0,0,0,0,0,0,0,0,0,,,,,,,,,,,
401,17774,0,0.0,178.98,,-0.09,-0.05,1.03,-2.0,0.0,1.0,1.04,1.31,79.0,8414.0,0.1,1.4,,5.74,1.246,89.8,,62.8,5.0,,,,,,,,,,,,0,0,0,0,0,0,0,0,0,0,0,0,0,0,0,0,,,,,0.0,,,,,,
402,17794,0,,,,,,,,,,,,,,,,,,,,,,,,,,,,,,,,,,0,0,0,0,0,0,0,0,0,0,0,0,0,0,0,0,,,,,,,,,,,
403,17814,0,0.0,178.98,,-0.11,-0.14,1.03,0.0,0.0,0.0,1.05,1.31,80.0,7932.0,4.6,1.67,,5.98,1.249,89.8,,62.8,5.0,,,,,,,,,,,,0,0,0,0,0,0,0,0,0,0,0,0,0,0,0,0,,,,,0.0,,,,,,
404,17834,0,,,,,,,,,,,,,,,,,,,,,,,0.0,0.0,0.0,0.0,0.0,0.0,0.0,0.0,2.28,,,0,0,0,0,0,0,0,0,0,0,0,0,0,0,0,0,0.0,,,,,0.0,0.0,0.0,0.0,0.0,0.0
405,17854,0,0.0,178.86,,-0.09,-0.2,1.06,2.0,0.0,0.0,1.08,1.31,83.0,7533.0,22.0,2.57,,7.85,1.25,89.8,,60.9,5.0,,,,,,,,,,,,0,0,0,0,0,0,0,0,0,0,0,0,0,0,0,0,,,,,0.0,,,,,,
406,17874,0,,,,,,,,,,,,,,,,,,,,,,,,,,,,,,,,,,0,0,0,0,0,0,0,0,0,0,0,0,0,0,0,0,,,,,,,,,,,
407,17894,0,0.0,178.98,,-0.07,-0.2,1.04,4.0,0.0,-1.0,1.06,1.31,81.0,7392.0,41.6,3.67,,7.85,1.25,89.8,,60.9,5.0,,,,,,,,,,,,0,0,0,0,0,0,0,0,0,0,0,0,0,0,0,0,,,,,0.0,,,,,,
408,17914,0,,,,,,,,,,,,,,,,,,,,,,,,,,,,,,,,,,0,0,0,0,0,0,0,0,0,0,0,0,0,0,0,0,,,,,,,,,,,
409,17934,0,0.0,178.98,,-0.1,-0.3,1.0,5.0,0.0,-1.0,1.05,1.31,80.0,7392.0,41.6,3.67,,11.46,1.251,89.8,,60.1,5.0,1.0,0.0,0.0,0.0,0.0,0.0,0.0,0.0,2.27,,,0,0,0,0,0,0,0,0,0,0,0,0,0,0,0,0,0.0,,,,0.0,0.0,0.0,0.0,0.0,0.0,0.0
410,17954,0,,,,,,,,,,,,,,,,,,,,,,,,,,,,,,,,,,0,0,0,0,0,0,0,0,0,0,0,0,0,0,0,0,,,,,,,,,,,
411,17974,0,0.0,178.86,,-0.09,-0.25,1.0,6.0,0.0,-1.0,1.04,1.31,79.0,7480.0,47.6,4.95,,13.31,1.251,89.8,,60.1,5.0,,,,,,,,,,,,0,0,0,0,0,0,0,0,0,0,0,0,0,0,0,0,,,,,0.0,,,,,,
412,17994,0,,,,,,,,,,,,,,,,,,,,,,,,,,,,,,,,,,0,0,0,0,0,0,0,0,0,0,0,0,0,0,0,0,,,,,,,,,,,
413,18014,0,0.0,178.98,,-0.06,-0.33,1.07,5.0,0.0,-1.0,1.12,1.31,86.0,8442.0,35.7,4.73,,12.77,1.25,89.8,,60.1,5.0,,,,,,,,,,,,0,0,0,0,0,0,0,0,0,0,0,0,0,0,0,0,,,,,0.0,,,,,,
414,18034,0,,,,,,,,,,,,,,,,,,,,,,,1.0,0.0,0.0,0.0,0.0,0.0,0.0,0.0,2.27,,,0,0,0,0,0,0,0,0,0,0,0,0,0,0,0,0,0.0,,,,,0.0,0.0,0.0,0.0,0.0,0.0
415,18054,0,0.0,178.98,,-0.02,-0.15,1.07,6.0,0.0,-2.0,1.09,1.31,83.0,9607.0,7.7,3.11,,10.2,1.119,89.8,,70.3,5.0,,,,,,,,,,,,0,0,0,0,0,0,0,0,0,0,0,0,0,0,0,0,,,,,0.0,,,,,,
416,18074,0,,,,,,,,,,,,,,,,,,,,,,,,,,,,,,,,,,0,0,0,0,0,0,0,0,0,0,0,0,0,0,0,0,,,,,,,,,,,
417,18094,0,0.0,178.98,,-0.04,-0.11,1.08,6.0,0.0,-1.0,1.09,1.31,83.0,10197.0,0.6,1.4,,10.2,1.119,98.8,,70.3,5.0,,,,,,,,,,,,0,0,0,0,0,0,0,0,0,0,0,0,0,0,0,0,,,,,0.0,,,,,,
418,18114,0,,,,,,,,,,,,,,,,,,,,,,,,,,,,,,,,,,0,0,0,0,0,0,0,0,0,0,0,0,0,0,0,0,,,,,,,,,,,
419,18134,0,0.0,178.98,13.58,-0.05,-0.04,1.1,6.0,0.0,-2.0,1.11,1.31,84.0,10197.0,0.6,1.4,15.0,7.79,0.989,98.8,178.0,65.8,5.0,1.0,0.0,0.0,0.0,0.0,0.0,0.0,0.0,2.27,0.0,0.0,0,0,0,0,0,0,0,0,0,0,0,0,0,0,0,0,0.0,0.0,0.0,0.0,0.0,0.0,0.0,0.0,0.0,0.0,0.0
420,18154,0,,,,,,,,,,,,,,,,,,,,,,,,,,,,,,,,,,0,0,0,0,0,0,0,0,0,0,0,0,0,0,0,0,,,,,,,,,,,
421,18174,0,0.0,178.98,,-0.05,-0.19,1.09,5.0,0.0,-2.0,1.1,1.31,84.0,9681.0,0.3,1.4,,6.56,0.923,98.8,,65.8,5.0,,,,,,,,,,,,0,0,0,0,0,0,0,0,0,0,0,0,0,0,0,0,,,,,0.0,,,,,,
422,18194,0,,,,,,,,,,,,,,,,,,,,,,,,,,,,,,,,,,0,0,0,0,0,0,0,0,0,0,0,0,0,0,0,0,,,,,,,,,,,
423,18214,0,0.0,178.98,,-0.0,-0.34,1.15,5.0,0.0,-1.0,1.2,1.31,91.0,9166.0,0.1,1.4,,5.92,1.214,98.8,,65.8,5.0,,,,,,,,,,,,0,0,0,0,0,0,0,0,0,0,0,0,0,0,0,0,,,,,0.0,,,,,,
424,18234,0,,,,,,,,,,,,,,,,,,,,,,,1.0,0.0,0.0,0.0,0.0,0.0,0.0,0.0,2.28,,,0,0,0,0,0,0,0,0,0,0,0,0,0,0,0,0,0.0,,,,,0.0,0.0,0.0,0.0,0.0,0.0
425,18254,0,0.0,178.86,,0.01,-0.3,1.12,4.0,0.0,-1.0,1.15,1.31,88.0,8667.0,2.6,1.4,,5.74,1.248,98.8,,63.1,5.0,,,,,,,,,,,,0,0,0,0,0,0,0,0,0,0,0,0,0,0,0,0,,,,,0.0,,,,,,
426,18274,0,,,,,,,,,,,,,,,,,,,,,,,,,,,,,,,,,,0,0,0,0,0,0,0,0,0,0,0,0,0,0,0,0,,,,,,,,,,,
427,18294,0,0.0,178.86,,-0.0,-0.32,1.11,3.0,0.0,-1.0,1.15,1.31,88.0,8226.0,21.8,2.58,,5.74,1.248,98.8,,63.1,5.0,,,,,,,,,,,,0,0,0,0,0,0,0,0,0,0,0,0,0,0,0,0,,,,,0.0,,,,,,
428,18314,0,,,,,,,,,,,,,,,,,,,,,,,,,,,,,,,,,,0,0,0,0,0,0,0,0,0,0,0,0,0,0,0,0,,,,,,,,,,,
429,18334,0,0.0,178.86,,-0.02,-0.2,1.09,3.0,0.0,-1.0,1.11,1.31,85.0,8226.0,21.8,2.58,,7.42,1.25,98.8,,61.0,5.0,1.0,0.0,0.0,0.0,0.0,0.0,0.0,0.0,2.28,,,0,0,0,0,0,0,0,0,0,0,0,0,0,0,0,0,0.0,,,,0.0,0.0,0.0,0.0,0.0,0.0,0.0
