,Interval,Utc,ElapsedTime,FrontBP,SteerAng,Battery,AccelX,AccelY,AccelZ,Yaw,Pitch,Roll,Gsum,GsumMax,GsumPct,RPM,TPS,InjectorPW,Baro,MAP,Lambda,IAT,EngineTemp,EOP,EOT,WSFR,WSFL,WSRR,WSRL,TCSet,TCSlip,TCComp,TCCut,Analog8,OilTemp,AA_On,ThermLF1,ThermLF2,ThermRR1,ThermRR2,ThermLF3,ThermLF4,ThermLF5,ThermLF6,ThermLF7,ThermLF8,ThermRR3,ThermRR4,ThermRR5,ThermRR6,ThermRR7,ThermRR8,Gear,AA_On1,AA_LowDrag,Fuel_Mix,AA_Packages,Latitude,Longitude,Speed,Altitude,GPSSats,GPSQual,GPSDOP,LapCount,LapTime,Sector,SectorTime,PredTime,CurrentLap,Distance,SessionTime
0,8665,0,0.0003,0.0,180.62,,-0.02,-0.03,1.03,0.0,0.0,0.0,1.03,1.03,100.0,7530.0,15.6,3.57,,10.13,1.209,100.6,,67.5,5.0,,,,,,,,,,,,0,0,0,0,0,0,0,0,0,0,0,0,0,0,0,0,,,,,0.0,,,,,,,,,,,,,,,
1,8685,0,0.0006,,,,,,,,,,,,,,,,,,,,,,,,,,,,,,,,,,0,0,0,0,0,0,0,0,0,0,0,0,0,0,0,0,,,,,,,,,,,,,,,,,,,,
2,8705,0,0.001,0.0,180.49,,-0.05,-0.05,1.03,0.0,0.0,0.0,1.03,1.03,100.0,8009.0,7.7,3.64,,9.41,1.009,100.6,,67.5,5.0,,,,,,,,,,,,0,0,0,0,0,0,0,0,0,0,0,0,0,0,0,0,,,,,0.0,,,,,,,,,,,,,,,
3,8725,0,0.0013,,,,,,,,,,,,,,,,,,,,,,,,,,,,,,,,,,0,0,0,0,0,0,0,0,0,0,0,0,0,0,0,0,,,,,,,,,,,,,,,,,,,,
4,8745,0,0.0016,0.0,180.37,,-0.02,-0.13,1.06,1.0,0.0,-1.0,1.07,1.07,100.0,8548.0,3.7,2.19,,8.25,0.919,100.6,,67.5,5.0,0.0,0.0,0.0,0.0,0.0,0.0,0.0,0.0,2.27,,,0,0,0,0,0,0,0,0,0,0,0,0,0,0,0,0,0.0,,,,0.0,0.0,0.0,0.0,0.0,0.0,0.0,0.0,0.0,0.0,-1.0,0.0,0.0,0.0,0.0,0.0016
5,8765,0,0.002,,,,,,,,,,,,,,,,,,,,,,,,,,,,,,,,,,0,0,0,0,0,0,0,0,0,0,0,0,0,0,0,0,,,,,,,,,,,,,,,,,,,,
6,8785,0,0.0023,0.0,180.37,,0.04,-0.22,1.12,1.0,0.0,0.0,1.14,1.14,100.0,8907.0,2.0,1.4,,7.23,0.845,100.6,,67.5,5.0,,,,,,,,,,,,0,0,0,0,0,0,0,0,0,0,0,0,0,0,0,0,,,,,0.0,,,,,,,,,,,,,,,
7,8805,0,0.0026,,,,,,,,,,,,,,,,,,,,,,,,,,,,,,,,,,0,0,0,0,0,0,0,0,0,0,0,0,0,0,0,0,,,,,,,,,,,,,,,,,,,,
8,8825,0,0.003,0.0,180.37,,0.0,-0.19,1.07,1.0,0.0,0.0,1.08,1.14,95.0,8514.0,0.0,1.4,,7.23,0.845,100.6,,67.5,5.0,,,,,,,,,,,,0,0,0,0,0,0,0,0,0,0,0,0,0,0,0,0,,,,,0.0,,,,,,,,,,,,,,,
9,8845,0,0.0033,,,,,,,,,,,,,,,,,,,,,,,0.0,0.0,0.0,0.0,0.0,0.0,0.0,0.0,2.26,,,0,0,0,0,0,0,0,0,0,0,0,0,0,0,0,0,0.0,,,,,0.0,0.0,0.0,0.0,0.0,0.0,0.0,0.0,0.0,-1.0,0.0,,0.0,0.0,0.0033
10,8865,0,0.0036,0.0,180.37,,-0.0,-0.15,1.08,1.0,0.0,0.0,1.09,1.14,95.0,8514.0,0.0,1.4,,6.31,0.857,100.6,,63.2,5.0,,,,,,,,,,,,0,0,0,0,0,0,0,0,0,0,0,0,0,0,0,0,,,,,0.0,,,,,,,,,,,,,,,
11,8885,0,0.004,,,,,,,,,,,,,,,,,,,,,,,,,,,,,,,,,,0,0,0,0,0,0,0,0,0,0,0,0,0,0,0,0,,,,,,,,,,,,,,,,,,,,
12,8905,0,0.0043,0.0,180.24,,-0.02,-0.19,1.04,2.0,0.0,-1.0,1.05,1.14,92.0,8021.0,0.0,1.4,,5.92,0.998,100.6,,63.2,5.0,,,,,,,,,,,,0,0,0,0,0,0,0,0,0,0,0,0,0,0,0,0,,,,,0.0,,,,,,,,,,,,,,,
13,8925,0,0.0046,,,,,,,,,,,,,,,,,,,,,,,,,,,,,,,,,,0,0,0,0,0,0,0,0,0,0,0,0,0,0,0,0,,,,,,,,,,,,,,,,,,,,
14,8945,0,0.005,0.0,180.24,,-0.03,-0.22,1.05,3.0,0.0,-1.0,1.07,1.14,94.0,7672.0,0.0,1.4,,5.95,1.248,100.6,,63.2,5.0,0.0,0.0,0.0,0.0,0.0,0.0,0.0,0.0,2.27,,,0,0,0,0,0,0,0,0,0,0,0,0,0,0,0,0,0.0,,,,0.0,0.0,0.0,0.0,0.0,0.0,0.0,0.0,0.0,0.0,-1.0,0.0,0.0,0.0,0.0,0.005
15,8965,0,0.0053,,,,,,,,,,,,,,,,,,,,,,,,,,,,,,,,,,0,0,0,0,0,0,0,0,0,0,0,0,0,0,0,0,,,,,,,,,,,,,,,,,,,,
16,8985,0,0.0056,0.0,180.24,,-0.04,-0.26,1.0,4.0,0.0,-1.0,1.03,1.14,90.0,7313.0,0.0,1.4,,5.98,1.248,100.6,,62.0,5.0,,,,,,,,,,,,0,0,0,0,0,0,0,0,0,0,0,0,0,0,0,0,,,,,0.0,,,,,,,,,,,,,,,
17,9005,0,0.006,,,,,,,,,,,,,,,,,,,,,,,,,,,,,,,,,,0,0,0,0,0,0,0,0,0,0,0,0,0,0,0,0,,,,,,,,,,,,,,,,,,,,
18,9025,0,0.0063,0.0,180.24,,-0.01,-0.21,1.0,4.0,0.0,-1.0,1.02,1.14,90.0,6913.0,0.0,1.4,,5.98,1.248,100.6,,62.0,5.0,,,,,,,,,,,,0,0,0,0,0,0,0,0,0,0,0,0,0,0,0,0,,,,,0.0,,,,,,,,,,,,,,,
19,9045,0,0.0066,,,,,,,,,,,,,,,,,,,,,,,0.0,0.0,0.0,0.0,0.0,0.0,0.0,0.0,2.27,,,0,0,0,0,0,0,0,0,0,0,0,0,0,0,0,0,0.0,,,,,0.0,0.0,0.0,0.0,0.0,0.0,0.0,0.0,0.0,-1.0,0.0,,0.0,0.0,0.0066
20,9065,0,0.007,0.0,180.24,,-0.05,-0.23,0.99,3.0,0.0,-1.0,1.02,1.14,89.0,6913.0,0.0,1.4,,6.12,1.249,100.6,,58.1,5.0,,,,,,,,,,,,0,0,0,0,0,0,0,0,0,0,0,0,0,0,0,0,,,,,0.0,,,,,,,,,,,,,,,
21,9085,0,0.0073,,,,,,,,,,,,,,,,,,,,,,,,,,,,,,,,,,0,0,0,0,0,0,0,0,0,0,0,0,0,0,0,0,,,,,,,,,,,,,,,,,,,,
22,9105,0,0.0076,0.0,180.24,,-0.06,-0.22,1.08,3.0,0.0,-1.0,1.1,1.14,96.0,6478.0,0.0,1.4,,6.44,1.25,100.6,,58.1,5.0,,,,,,,,,,,,0,0,0,0,0,0,0,0,0,0,0,0,0,0,0,0,,,,,0.0,,,,,,,,,,,,,,,
23,9125,0,0.008,,,,,,,,,,,,,,,,,,,,,,,,,,,,,,,,,,0,0,0,0,0,0,0,0,0,0,0,0,0,0,0,0,,,,,,,,,,,,,,,,,,,,
24,9145,0,0.0083,0.0,180.24,13.51,-0.13,0.03,1.1,2.0,0.0,0.0,1.11,1.14,97.0,6121.0,2.5,1.4,15.0,7.11,1.251,100.6,173.0,58.1,5.0,0.0,0.0,0.0,0.0,0.0,0.0,0.0,0.0,2.27,0.0,0.0,0,0,0,0,0,0,0,0,0,0,0,0,0,0,0,0,0.0,0.0,0.0,0.0,0.0,0.0,0.0,0.0,0.0,0.0,0.0,0.0,0.0,0.0,-1.0,0.0,0.0,0.0,0.0,0.0083
25,9165,0,0.0086,,,,,,,,,,,,,,,,,,,,,,,,,,,,,,,,,,0,0,0,0,0,0,0,0,0,0,0,0,0,0,0,0,,,,,,,,,,,,,,,,,,,,
26,9185,0,0.009,0.0,180.12,,-0.1,0.04,1.18,2.0,0.0,0.0,1.18,1.18,100.0,5718.0,6.7,2.11,,8.09,1.251,100.6,,56.8,5.0,,,,,,,,,,,,0,0,0,0,0,0,0,0,0,0,0,0,0,0,0,0,,,,,0.0,,,,,,,,,,,,,,,
27,9205,0,0.0093,,,,,,,,,,,,,,,,,,,,,,,,,,,,,,,,,,0,0,0,0,0,0,0,0,0,0,0,0,0,0,0,0,,,,,,,,,,,,,,,,,,,,
28,9225,0,0.0096,0.0,180.12,,-0.11,0.01,1.13,2.0,0.0,0.0,1.14,1.18,96.0,5453.0,6.9,2.18,,8.09,1.251,100.6,,56.8,5.0,,,,,,,,,,,,0,0,0,0,0,0,0,0,0,0,0,0,0,0,0,0,,,,,0.0,,,,,,,,,,,,,,,
29,9245,0,0.01,,,,,,,,,,,,,,,,,,,,,,,0.0,0.0,0.0,0.0,0.0,0.0,0.0,0.0,2.26,,,0,0,0,0,0,0,0,0,0,0,0,0,0,0,0,0,0.0,,,,,0.0,0.0,0.0,0.0,0.0,0.0,0.0,0.0,0.0,-1.0,0.0,,0.0,0.0,0.01
30,9265,0,0.0103,0.0,180.12,,-0.11,0.03,1.13,1.0,0.0,0.0,1.13,1.18,95.0,5453.0,6.9,2.18,,8.85,1.251,100.6,,54.4,5.0,,,,,,,,,,,,0,0,0,0,0,0,0,0,0,0,0,0,0,0,0,0,,,,,0.0,,,,,,,,,,,,,,,
31,9285,0,0.0106,,,,,,,,,,,,,,,,,,,,,,,,,,,,,,,,,,0,0,0,0,0,0,0,0,0,0,0,0,0,0,0,0,,,,,,,,,,,,,,,,,,,,
32,9305,0,0.011,0.0,180.12,,-0.08,-0.01,1.13,1.0,0.0,0.0,1.13,1.18,95.0,5209.0,4.2,2.15,,9.37,1.251,100.6,,54.4,5.0,,,,,,,,,,,,0,0,0,0,0,0,0,0,0,0,0,0,0,0,0,0,,,,,0.0,,,,,,,,,,,,,,,
33,9325,0,0.0113,,,,,,,,,,,,,,,,,,,,,,,,,,,,,,,,,,0,0,0,0,0,0,0,0,0,0,0,0,0,0,0,0,,,,,,,,,,,,,,,,,,,,
34,9345,0,0.0116,0.0,180.12,,-0.09,-0.01,1.07,0.0,0.0,0.0,1.08,1.18,91.0,4942.0,1.9,1.98,,9.5,1.25,100.6,,54.4,5.0,0.0,0.0,0.0,0.0,0.0,0.0,0.0,0.0,2.26,,,0,0,0,0,0,0,0,0,0,0,0,0,0,0,0,0,0.0,,,,0.0,0.0,0.0,0.0,0.0,0.0,0.0,0.0,0.0,0.0,-1.0,0.0,0.0,0.0,0.0,0.0116
35,9365,0,0.012,,,,,,,,,,,,,,,,,,,,,,,,,,,,,,,,,,0,0,0,0,0,0,0,0,0,0,0,0,0,0,0,0,,,,,,,,,,,,,,,,,,,,
36,9385,0,0.0123,0.0,180.12,,-0.06,-0.13,0.98,1.0,0.0,0.0,0.99,1.18,84.0,4664.0,1.1,1.92,,9.62,1.248,100.6,,49.4,5.0,,,,,,,,,,,,0,0,0,0,0,0,0,0,0,0,0,0,0,0,0,0,,,,,0.0,,,,,,,,,,,,,,,
37,9405,0,0.0126,,,,,,,,,,,,,,,,,,,,,,,,,,,,,,,,,,0,0,0,0,0,0,0,0,0,0,0,0,0,0,0,0,,,,,,,,,,,,,,,,,,,,
38,9425,0,0.013,0.0,180.12,,-0.07,-0.3,0.86,2.0,0.0,-1.0,0.91,1.18,77.0,4329.0,1.4,2.03,,9.62,1.248,98.8,,49.4,5.0,,,,,,,,,,,,0,0,0,0,0,0,0,0,0,0,0,0,0,0,0,0,,,,,0.0,,,,,,,,,,,,,,,
39,9445,0,0.0133,,,,,,,,,,,,,,,,,,,,,,,0.0,0.0,0.0,0.0,0.0,0.0,0.0,0.0,2.27,,,0,0,0,0,0,0,0,0,0,0,0,0,0,0,0,0,0.0,,,,,0.0,0.0,0.0,0.0,0.0,0.0,0.0,0.0,0.0,-1.0,0.0,,0.0,0.0,0.0133
40,9465,0,0.0136,0.0,180.12,,-0.09,-0.2,0.93,1.0,0.0,0.0,0.95,1.18,80.0,4329.0,1.4,2.03,,9.8,1.248,98.8,,42.8,5.0,,,,,,,,,,,,0,0,0,0,0,0,0,0,0,0,0,0,0,0,0,0,,,,,0.0,,,,,,,,,,,,,,,
41,9485,0,0.014,,,,,,,,,,,,,,,,,,,,,,,,,,,,,,,,,,0,0,0,0,0,0,0,0,0,0,0,0,0,0,0,0,,,,,,,,,,,,,,,,,,,,
42,9505,0,0.0143,0.0,180.12,,-0.1,-0.28,0.88,1.0,0.0,-1.0,0.93,1.18,79.0,4063.0,5.8,2.72,,10.37,1.248,98.8,,42.8,5.0,,,,,,,,,,,,0,0,0,0,0,0,0,0,0,0,0,0,0,0,0,0,,,,,0.0,,,,,,,,,,,,,,,
43,9525,0,0.0146,,,,,,,,,,,,,,,,,,,,,,,,,,,,,,,,,,0,0,0,0,0,0,0,0,0,0,0,0,0,0,0,0,,,,,,,,,,,,,,,,,,,,
44,9545,0,0.015,0.0,180.12,,-0.09,-0.28,0.88,1.0,0.0,-1.0,0.93,1.18,79.0,3871.0,14.8,3.75,,11.68,1.249,98.8,,42.8,5.0,0.0,0.0,0.0,0.0,0.0,0.0,0.0,0.0,2.27,,,0,0,0,0,0,0,0,0,0,0,0,0,0,0,0,0,0.0,,,,0.0,0.0,0.0,0.0,0.0,0.0,0.0,0.0,0.0,0.0,-1.0,0.0,0.0,0.0,0.0,0.015
45,9565,0,0.0153,,,,,,,,,,,,,,,,,,,,,,,,,,,,,,,,,,0,0,0,0,0,0,0,0,0,0,0,0,0,0,0,0,,,,,,,,,,,,,,,,,,,,
46,9585,0,0.0156,0.0,180.12,,-0.11,-0.24,0.89,1.0,0.0,-1.0,0.93,1.18,78.0,3674.0,16.8,4.17,,12.85,1.25,98.8,,36.5,5.0,,,,,,,,,,,,0,0,0,0,0,0,0,0,0,0,0,0,0,0,0,0,,,,,0.0,,,,,,,,,,,,,,,
47,9605,0,0.016,,,,,,,,,,,,,,,,,,,,,,,,,,,,,,,,,,0,0,0,0,0,0,0,0,0,0,0,0,0,0,0,0,,,,,,,,,,,,,,,,,,,,
48,9625,0,0.0163,0.0,180.12,,-0.11,-0.22,0.92,1.0,0.0,0.0,0.95,1.18,80.0,3761.0,4.6,3.86,,12.85,1.25,98.8,,36.5,5.0,,,,,,,,,,,,0,0,0,0,0,0,0,0,0,0,0,0,0,0,0,0,,,,,0.0,,,,,,,,,,,,,,,
49,9645,0,0.0166,,,,,,,,,,,,,,,,,,,,,,,0.0,0.0,0.0,0.0,0.0,0.0,0.0,0.0,2.27,,,0,0,0,0,0,0,0,0,0,0,0,0,0,0,0,0,0.0,,,,,0.0,0.0,0.0,0.0,0.0,0.0,0.0,0.0,0.0,-1.0,0.0,,0.0,0.0,0.0166
50,9665,0,0.017,0.0,180.12,,-0.1,-0.19,0.93,1.0,0.0,0.0,0.96,1.18,81.0,3761.0,4.6,3.86,,12.89,1.251,98.8,,35.6,5.0,,,,,,,,,,,,0,0,0,0,0,0,0,0,0,0,0,0,0,0,0,0,,,,,0.0,,,,,,,,,,,,,,,
51,9685,0,0.0173,,,,,,,,,,,,,,,,,,,,,,,,,,,,,,,,,,0,0,0,0,0,0,0,0,0,0,0,0,0,0,0,0,,,,,,,,,,,,,,,,,,,,
52,9705,0,0.0176,0.0,180.12,,-0.1,-0.15,0.94,1.0,0.0,0.0,0.96,1.18,81.0,3755.0,0.0,2.71,,12.2,1.25,98.8,,35.6,5.0,,,,,,,,,,,,0,0,0,0,0,0,0,0,0,0,0,0,0,0,0,0,,,,,0.0,,,,,,,,,,,,,,,
53,9725,0,0.018,,,,,,,,,,,,,,,,,,,,,,,,,,,,,,,,,,0,0,0,0,0,0,0,0,0,0,0,0,0,0,0,0,,,,,,,,,,,,,,,,,,,,
54,9745,0,0.0183,0.0,180.24,,-0.08,-0.07,0.96,1.0,0.0,0.0,0.96,1.18,81.0,3591.0,0.0,2.74,,11.88,1.25,98.8,,35.6,5.0,0.0,0.0,0.0,0.0,0.0,0.0,0.0,0.0,2.26,,,0,0,0,0,0,0,0,0,0,0,0,0,0,0,0,0,0.0,,,,0.0,0.0,0.0,0.0,0.0,0.0,0.0,0.0,0.0,0.0,-1.0,0.0,0.0,0.0,0.0,0.0183
55,9765,0,0.0187,,,,,,,,,,,,,,,,,,,,,,,,,,,,,,,,,,0,0,0,0,0,0,0,0,0,0,0,0,0,0,0,0,,,,,,,,,,,,,,,,,,,,
56,9785,0,0.019,0.0,180.24,,-0.08,-0.1,0.91,2.0,0.0,-1.0,0.92,1.18,78.0,3475.0,0.0,2.82,,11.76,1.25,98.8,,33.5,5.0,,,,,,,,,,,,0,0,0,0,0,0,0,0,0,0,0,0,0,0,0,0,,,,,0.0,,,,,,,,,,,,,,,
57,9805,0,0.0193,,,,,,,,,,,,,,,,,,,,,,,,,,,,,,,,,,0,0,0,0,0,0,0,0,0,0,0,0,0,0,0,0,,,,,,,,,,,,,,,,,,,,
58,9825,0,0.0196,0.0,180.24,,-0.05,-0.07,0.97,1.0,0.0,0.0,0.97,1.18,82.0,3323.0,0.0,2.94,,11.76,1.25,98.8,,33.5,5.0,,,,,,,,,,,,0,0,0,0,0,0,0,0,0,0,0,0,0,0,0,0,,,,,0.0,,,,,,,,,,,,,,,
59,9845,0,0.02,,,,,,,,,,,,,,,,,,,,,,,0.0,0.0,0.0,0.0,0.0,0.0,0.0,0.0,2.26,,,0,0,0,0,0,0,0,0,0,0,0,0,0,0,0,0,0.0,,,,,0.0,0.0,0.0,0.0,0.0,0.0,0.0,0.0,0.0,-1.0,0.0,,0.0,0.0,0.02
60,9865,0,0.0203,0.0,180.24,,-0.08,-0.16,1.03,1.0,0.0,0.0,1.04,1.18,88.0,3323.0,0.0,2.94,,11.73,1.249,98.8,,30.7,5.0,,,,,,,,,,,,0,0,0,0,0,0,0,0,0,0,0,0,0,0,0,0,,,,,0.0,,,,,,,,,,,,,,,
61,9885,0,0.0206,,,,,,,,,,,,,,,,,,,,,,,,,,,,,,,,,,0,0,0,0,0,0,0,0,0,0,0,0,0,0,0,0,,,,,,,,,,,,,,,,,,,,
62,9905,0,0.021,0.0,180.24,,-0.11,-0.19,1.04,1.0,0.0,-1.0,1.06,1.18,90.0,3121.0,5.4,3.69,,12.11,1.248,98.8,,30.7,5.0,,,,,,,,,,,,0,0,0,0,0,0,0,0,0,0,0,0,0,0,0,0,,,,,0.0,,,,,,,,,,,,,,,
63,9925,0,0.0213,,,,,,,,,,,,,,,,,,,,,,,,,,,,,,,,,,0,0,0,0,0,0,0,0,0,0,0,0,0,0,0,0,,,,,,,,,,,,,,,,,,,,
64,9945,0,0.0216,0.0,180.24,,-0.13,-0.14,1.02,2.0,0.0,-1.0,1.03,1.18,87.0,3007.0,19.9,4.75,,13.37,1.248,98.8,,30.7,5.0,0.0,0.0,0.0,0.0,0.0,0.0,0.0,0.0,2.27,,,0,0,0,0,0,0,0,0,0,0,0,0,0,0,0,0,0.0,,,,0.0,0.0,0.0,0.0,0.0,0.0,0.0,0.0,0.0,0.0,-1.0,0.0,0.0,0.0,0.0,0.0216
65,9965,0,0.022,,,,,,,,,,,,,,,,,,,,,,,,,,,,,,,,,,0,0,0,0,0,0,0,0,0,0,0,0,0,0,0,0,,,,,,,,,,,,,,,,,,,,
66,9985,0,0.0223,0.0,180.24,,-0.12,-0.06,0.94,2.0,0.0,-1.0,0.95,1.18,80.0,3072.0,24.0,4.55,,14.04,1.248,98.8,,28.5,5.0,,,,,,,,,,,,0,0,0,0,0,0,0,0,0,0,0,0,0,0,0,0,,,,,0.0,,,,,,,,,,,,,,,
67,10005,0,0.0226,,,,,,,,,,,,,,,,,,,,,,,,,,,,,,,,,,0,0,0,0,0,0,0,0,0,0,0,0,0,0,0,0,,,,,,,,,,,,,,,,,,,,
68,10025,0,0.023,0.0,180.24,,-0.1,0.05,0.87,2.0,0.0,-1.0,0.88,1.18,74.0,0.0,16.2,4.41,,14.04,1.248,98.8,,28.5,5.0,,,,,,,,,,,,0,0,0,0,0,0,0,0,0,0,0,0,0,0,0,0,,,,,0.0,,,,,,,,,,,,,,,
69,10045,0,0.0233,,,,,,,,,,,,,,,,,,,,,,,0.0,0.0,0.0,0.0,0.0,0.0,0.0,0.0,2.27,,,0,0,0,0,0,0,0,0,0,0,0,0,0,0,0,0,0.0,,,,,0.0,0.0,0.0,0.0,0.0,0.0,0.0,0.0,0.0,-1.0,0.0,,0.0,0.0,0.0233
70,10065,0,0.0236,0.0,180.24,,-0.09,0.03,0.97,1.0,0.0,0.0,0.97,1.18,82.0,0.0,16.2,4.41,,13.9,1.25,98.8,,29.9,5.0,,,,,,,,,,,,0,0,0,0,0,0,0,0,0,0,0,0,0,0,0,0,,,,,0.0,,,,,,,,,,,,,,,
71,10085,0,0.024,,,,,,,,,,,,,,,,,,,,,,,,,,,,,,,,,,0,0,0,0,0,0,0,0,0,0,0,0,0,0,0,0,,,,,,,,,,,,,,,,,,,,
72,10105,0,0.0243,0.0,180.24,,-0.11,-0.01,0.91,1.0,0.0,-1.0,0.92,1.18,77.0,3220.0,0.0,4.23,,13.29,1.252,98.8,,29.9,5.0,,,,,,,,,,,,0,0,0,0,0,0,0,0,0,0,0,0,0,0,0,0,,,,,0.0,,,,,,,,,,,,,,,
73,10125,0,0.0246,,,,,,,,,,,,,,,,,,,,,,,,,,,,,,,,,,0,0,0,0,0,0,0,0,0,0,0,0,0,0,0,0,,,,,,,,,,,,,,,,,,,,
74,10145,0,0.025,0.0,180.24,13.51,-0.07,0.03,0.96,0.0,0.0,0.0,0.96,1.18,81.0,3356.0,0.0,3.05,15.0,12.76,1.251,98.8,173.0,29.9,5.0,0.0,0.0,0.0,0.0,0.0,0.0,0.0,0.0,2.27,0.0,0.0,0,0,0,0,0,0,0,0,0,0,0,0,0,0,0,0,0.0,0.0,0.0,0.0,0.0,0.0,0.0,0.0,0.0,0.0,0.0,0.0,0.0,0.0,-1.0,0.0,0.0,0.0,0.0,0.025
75,10165,0,0.0253,,,,,,,,,,,,,,,,,,,,,,,,,,,,,,,,,,0,0,0,0,0,0,0,0,0,0,0,0,0,0,0,0,,,,,,,,,,,,,,,,,,,,
76,10185,0,0.0256,0.0,180.24,,-0.09,-0.06,1.0,0.0,0.0,0.0,1.0,1.18,85.0,3233.0,0.0,3.07,,12.6,1.251,98.8,,30.6,5.0,,,,,,,,,,,,0,0,0,0,0,0,0,0,0,0,0,0,0,0,0,0,,,,,0.0,,,,,,,,,,,,,,,
77,10205,0,0.026,,,,,,,,,,,,,,,,,,,,,,,,,,,,,,,,,,0,0,0,0,0,0,0,0,0,0,0,0,0,0,0,0,,,,,,,,,,,,,,,,,,,,
78,10225,0,0.0263,0.0,180.24,,-0.1,-0.02,0.93,1.0,0.0,-1.0,0.94,1.18,79.0,3143.0,2.6,3.86,,12.6,1.251,98.8,,30.6,5.0,,,,,,,,,,,,0,0,0,0,0,0,0,0,0,0,0,0,0,0,0,0,,,,,0.0,,,,,,,,,,,,,,,
79,10245,0,0.0266,,,,,,,,,,,,,,,,,,,,,,,0.0,0.0,0.0,0.0,0.0,0.0,0.0,0.0,2.26,,,0,0,0,0,0,0,0,0,0,0,0,0,0,0,0,0,0.0,,,,,0.0,0.0,0.0,0.0,0.0,0.0,0.0,0.0,0.0,-1.0,0.0,,0.0,0.0,0.0266
80,10265,0,0.027,0.0,180.24,,-0.06,0.03,0.87,1.0,0.0,-1.0,0.87,1.18,73.0,3143.0,2.6,3.86,,12.61,1.251,98.8,,29.0,5.0,,,,,,,,,,,,0,0,0,0,0,0,0,0,0,0,0,0,0,0,0,0,,,,,0.0,,,,,,,,,,,,,,,
81,10285,0,0.0273,,,,,,,,,,,,,,,,,,,,,,,,,,,,,,,,,,0,0,0,0,0,0,0,0,0,0,0,0,0,0,0,0,,,,,,,,,,,,,,,,,,,,
82,10305,0,0.0276,0.0,180.24,,-0.03,0.09,0.8,1.0,0.0,0.0,0.81,1.18,68.0,3058.0,9.5,3.9,,13.08,1.248,98.8,,29.0,5.0,,,,,,,,,,,,0,0,0,0,0,0,0,0,0,0,0,0,0,0,0,0,,,,,0.0,,,,,,,,,,,,,,,
83,10325,0,0.028,,,,,,,,,,,,,,,,,,,,,,,,,,,,,,,,,,0,0,0,0,0,0,0,0,0,0,0,0,0,0,0,0,,,,,,,,,,,,,,,,,,,,
84,10345,0,0.0283,0.0,180.24,,-0.04,0.09,0.88,0.0,0.0,0.0,0.89,1.18,75.0,3231.0,13.3,4.55,,13.49,1.246,98.8,,29.0,5.0,0.0,0.0,0.0,0.0,0.0,0.0,0.0,0.0,2.27,,,0,0,0,0,0,0,0,0,0,0,0,0,0,0,0,0,0.0,,,,0.0,0.0,0.0,0.0,0.0,0.0,0.0,0.0,0.0,0.0,-1.0,0.0,0.0,0.0,0.0,0.0283
85,10365,0,0.0286,,,,,,,,,,,,,,,,,,,,,,,,,,,,,,,,,,0,0,0,0,0,0,0,0,0,0,0,0,0,0,0,0,,,,,,,,,,,,,,,,,,,,
86,10385,0,0.029,0.0,180.24,,-0.02,0.15,0.89,0.0,0.0,0.0,0.9,1.18,76.0,3631.0,12.3,4.09,,13.47,1.245,98.8,,30.5,5.0,,,,,,,,,,,,0,0,0,0,0,0,0,0,0,0,0,0,0,0,0,0,,,,,0.0,,,,,,,,,,,,,,,
87,10405,0,0.0293,,,,,,,,,,,,,,,,,,,,,,,,,,,,,,,,,,0,0,0,0,0,0,0,0,0,0,0,0,0,0,0,0,,,,,,,,,,,,,,,,,,,,
88,10425,0,0.0296,0.0,180.24,,-0.02,0.08,0.91,0.0,0.0,0.0,0.91,1.18,77.0,3772.0,7.6,3.58,,13.47,1.245,98.8,,30.5,5.0,,,,,,,,,,,,0,0,0,0,0,0,0,0,0,0,0,0,0,0,0,0,,,,,0.0,,,,,,,,,,,,,,,
89,10445,0,0.03,,,,,,,,,,,,,,,,,,,,,,,0.0,0.0,0.0,0.0,0.0,0.0,0.0,0.0,2.27,,,0,0,0,0,0,0,0,0,0,0,0,0,0,0,0,0,0.0,,,,,0.0,0.0,0.0,0.0,0.0,0.0,0.0,0.0,0.0,-1.0,0.0,,0.0,0.0,0.03
90,10465,0,0.0303,0.0,180.24,,-0.04,0.01,0.89,-1.0,0.0,0.0,0.89,1.18,75.0,3772.0,7.6,3.58,,13.16,1.172,98.8,,35.8,5.0,,,,,,,,,,,,0,0,0,0,0,0,0,0,0,0,0,0,0,0,0,0,,,,,0.0,,,,,,,,,,,,,,,
91,10485,0,0.0306,,,,,,,,,,,,,,,,,,,,,,,,,,,,,,,,,,0,0,0,0,0,0,0,0,0,0,0,0,0,0,0,0,,,,,,,,,,,,,,,,,,,,
92,10505,0,0.031,0.0,180.37,,-0.07,-0.04,0.87,0.0,0.0,0.0,0.87,1.18,73.0,3916.0,5.5,3.79,,12.89,1.114,98.8,,35.8,5.0,,,,,,,,,,,,0,0,0,0,0,0,0,0,0,0,0,0,0,0,0,0,,,,,0.0,,,,,,,,,,,,,,,
93,10525,0,0.0313,,,,,,,,,,,,,,,,,,,,,,,,,,,,,,,,,,0,0,0,0,0,0,0,0,0,0,0,0,0,0,0,0,,,,,,,,,,,,,,,,,,,,
94,10545,0,0.0316,0.0,180.24,,-0.06,-0.08,0.88,0.0,0.0,0.0,0.89,1.18,75.0,3892.0,3.1,3.94,,12.53,1.089,98.8,,35.8,5.0,0.0,0.0,0.0,0.0,0.0,0.0,0.0,0.0,2.27,,,0,0,0,0,0,0,0,0,0,0,0,0,0,0,0,0,0.0,,,,0.0,0.0,0.0,0.0,0.0,0.0,0.0,0.0,0.0,0.0,-1.0,0.0,0.0,0.0,0.0,0.0316
95,10565,0,0.032,,,,,,,,,,,,,,,,,,,,,,,,,,,,,,,,,,0,0,0,0,0,0,0,0,0,0,0,0,0,0,0,0,,,,,,,,,,,,,,,,,,,,
96,10585,0,0.0323,0.0,180.37,,-0.04,-0.01,0.9,0.0,0.0,0.0,0.9,1.18,76.0,3855.0,0.9,2.92,,12.29,1.104,98.8,,36.9,5.0,,,,,,,,,,,,0,0,0,0,0,0,0,0,0,0,0,0,0,0,0,0,,,,,0.0,,,,,,,,,,,,,,,
97,10605,0,0.0326,,,,,,,,,,,,,,,,,,,,,,,,,,,,,,,,,,0,0,0,0,0,0,0,0,0,0,0,0,0,0,0,0,,,,,,,,,,,,,,,,,,,,
98,10625,0,0.033,0.0,180.37,,-0.02,0.0,0.92,0.0,0.0,0.0,0.92,1.18,78.0,3792.0,0.0,2.65,,12.29,1.104,98.8,,36.9,5.0,,,,,,,,,,,,0,0,0,0,0,0,0,0,0,0,0,0,0,0,0,0,,,,,0.0,,,,,,,,,,,,,,,
99,10645,0,0.0333,,,,,,,,,,,,,,,,,,,,,,,0.0,0.0,0.0,0.0,0.0,0.0,0.0,0.0,2.27,,,0,0,0,0,0,0,0,0,0,0,0,0,0,0,0,0,0.0,,,,,0.0,0.0,0.0,0.0,0.0,0.0,0.0,0.0,0.0,-1.0,0.0,,0.0,0.0,0.0333
100,10665,0,0.0336,0.0,180.37,,-0.03,-0.03,0.9,0.0,0.0,0.0,0.9,1.18,76.0,3792.0,0.0,2.65,,11.96,1.124,98.8,,35.8,5.0,,,,,,,,,,,,0,0,0,0,0,0,0,0,0,0,0,0,0,0,0,0,,,,,0.0,,,,,,,,,,,,,,,
101,10685,0,0.034,,,,,,,,,,,,,,,,,,,,,,,,,,,,,,,,,,0,0,0,0,0,0,0,0,0,0,0,0,0,0,0,0,,,,,,,,,,,,,,,,,,,,
102,10705,0,0.0343,0.0,180.37,,-0.05,-0.09,0.93,1.0,0.0,0.0,0.94,1.18,79.0,3665.0,0.0,2.71,,11.81,1.154,98.8,,35.8,5.0,,,,,,,,,,,,0,0,0,0,0,0,0,0,0,0,0,0,0,0,0,0,,,,,0.0,,,,,,,,,,,,,,,
103,10725,0,0.0347,,,,,,,,,,,,,,,,,,,,,,,,,,,,,,,,,,0,0,0,0,0,0,0,0,0,0,0,0,0,0,0,0,,,,,,,,,,,,,,,,,,,,
104,10745,0,0.035,0.0,180.37,,-0.04,0.02,0.98,0.0,0.0,0.0,0.98,1.18,82.0,3542.0,0.0,2.83,,11.79,1.175,98.8,,35.8,5.0,0.0,0.0,0.0,0.0,0.0,0.0,0.0,0.0,2.26,,,0,0,0,0,0,0,0,0,0,0,0,0,0,0,0,0,0.0,,,,0.0,0.0,0.0,0.0,0.0,0.0,0.0,0.0,0.0,0.0,-1.0,0.0,0.0,0.0,0.0,0.035
105,10765,0,0.0353,,,,,,,,,,,,,,,,,,,,,,,,,,,,,,,,,,0,0,0,0,0,0,0,0,0,0,0,0,0,0,0,0,,,,,,,,,,,,,,,,,,,,
106,10785,0,0.0356,0.0,180.37,,-0.05,0.02,0.91,1.0,0.0,0.0,0.91,1.18,77.0,3367.0,0.1,2.94,,11.89,1.215,98.8,,33.3,5.0,,,,,,,,,,,,0,0,0,0,0,0,0,0,0,0,0,0,0,0,0,0,,,,,0.0,,,,,,,,,,,,,,,
107,10805,0,0.036,,,,,,,,,,,,,,,,,,,,,,,,,,,,,,,,,,0,0,0,0,0,0,0,0,0,0,0,0,0,0,0,0,,,,,,,,,,,,,,,,,,,,
108,10825,0,0.0363,0.0,180.37,,-0.03,0.04,0.95,0.0,0.0,0.0,0.95,1.18,80.0,3264.0,8.5,4.13,,11.89,1.215,98.8,,33.3,5.0,,,,,,,,,,,,0,0,0,0,0,0,0,0,0,0,0,0,0,0,0,0,,,,,0.0,,,,,,,,,,,,,,,
109,10845,0,0.0366,,,,,,,,,,,,,,,,,,,,,,,0.0,0.0,0.0,0.0,0.0,0.0,0.0,0.0,2.27,,,0,0,0,0,0,0,0,0,0,0,0,0,0,0,0,0,0.0,,,,,0.0,0.0,0.0,0.0,0.0,0.0,0.0,0.0,0.0,-1.0,0.0,,0.0,0.0,0.0366
110,10865,0,0.037,0.0,180.49,,-0.05,-0.04,1.01,0.0,0.0,0.0,1.02,1.18,86.0,3264.0,8.5,4.13,,12.48,1.244,98.8,,30.5,5.0,,,,,,,,,,,,0,0,0,0,0,0,0,0,0,0,0,0,0,0,0,0,,,,,0.0,,,,,,,,,,,,,,,
111,10885,0,0.0373,,,,,,,,,,,,,,,,,,,,,,,,,,,,,,,,,,0,0,0,0,0,0,0,0,0,0,0,0,0,0,0,0,,,,,,,,,,,,,,,,,,,,
112,10905,0,0.0376,0.0,180.49,,-0.07,-0.03,0.95,1.0,0.0,0.0,0.95,1.18,80.0,3228.0,13.3,4.47,,13.13,1.248,98.8,,30.5,5.0,,,,,,,,,,,,0,0,0,0,0,0,0,0,0,0,0,0,0,0,0,0,,,,,0.0,,,,,,,,,,,,,,,
113,10925,0,0.038,,,,,,,,,,,,,,,,,,,,,,,,,,,,,,,,,,0,0,0,0,0,0,0,0,0,0,0,0,0,0,0,0,,,,,,,,,,,,,,,,,,,,
114,10945,0,0.0383,0.0,180.49,,-0.06,0.03,0.98,1.0,0.0,0.0,0.98,1.18,82.0,3273.0,10.7,4.06,,13.35,1.247,98.8,,30.5,5.0,0.0,0.0,0.0,0.0,0.0,0.0,0.0,0.0,2.27,,,0,0,0,0,0,0,0,0,0,0,0,0,0,0,0,0,0.0,,,,0.0,0.0,0.0,0.0,0.0,0.0,0.0,0.0,0.0,0.0,-1.0,0.0,0.0,0.0,0.0,0.0383
115,10965,0,0.0386,,,,,,,,,,,,,,,,,,,,,,,,,,,,,,,,,,0,0,0,0,0,0,0,0,0,0,0,0,0,0,0,0,,,,,,,,,,,,,,,,,,,,
116,10985,0,0.039,0.0,180.37,,-0.06,-0.01,0.93,1.0,0.0,0.0,0.93,1.18,79.0,3461.0,3.0,3.9,,13.16,1.223,98.8,,30.5,5.0,,,,,,,,,,,,0,0,0,0,0,0,0,0,0,0,0,0,0,0,0,0,,,,,0.0,,,,,,,,,,,,,,,
117,11005,0,0.0393,,,,,,,,,,,,,,,,,,,,,,,,,,,,,,,,,,0,0,0,0,0,0,0,0,0,0,0,0,0,0,0,0,,,,,,,,,,,,,,,,,,,,
118,11025,0,0.0396,0.0,180.49,,-0.05,-0.01,1.01,0.0,0.0,0.0,1.01,1.18,86.0,3449.0,0.4,3.57,,13.16,1.223,98.8,,30.5,5.0,,,,,,,,,,,,0,0,0,0,0,0,0,0,0,0,0,0,0,0,0,0,,,,,0.0,,,,,,,,,,,,,,,
119,11045,0,0.04,,,,,,,,,,,,,,,,,,,,,,,0.0,0.0,0.0,0.0,0.0,0.0,0.0,0.0,2.27,,,0,0,0,0,0,0,0,0,0,0,0,0,0,0,0,0,0.0,,,,,0.0,0.0,0.0,0.0,0.0,0.0,0.0,0.0,0.0,-1.0,0.0,,0.0,0.0,0.04
120,11065,0,0.0403,0.0,180.49,,-0.04,0.04,0.94,0.0,0.0,0.0,0.94,1.18,79.0,3449.0,0.4,3.57,,12.87,1.194,98.8,,31.7,5.0,,,,,,,,,,,,0,0,0,0,0,0,0,0,0,0,0,0,0,0,0,0,,,,,0.0,,,,,,,,,,,,,,,
121,11085,0,0.0406,,,,,,,,,,,,,,,,,,,,,,,,,,,,,,,,,,0,0,0,0,0,0,0,0,0,0,0,0,0,0,0,0,,,,,,,,,,,,,,,,,,,,
122,11105,0,0.041,0.0,180.49,,-0.06,0.02,1.02,0.0,0.0,0.0,1.02,1.18,86.0,3386.0,0.0,2.96,,12.6,1.183,98.8,,31.7,5.0,,,,,,,,,,,,0,0,0,0,0,0,0,0,0,0,0,0,0,0,0,0,,,,,0.0,,,,,,,,,,,,,,,
123,11125,0,0.0413,,,,,,,,,,,,,,,,,,,,,,,,,,,,,,,,,,0,0,0,0,0,0,0,0,0,0,0,0,0,0,0,0,,,,,,,,,,,,,,,,,,,,
124,11145,0,0.0416,0.0,180.49,13.54,-0.06,-0.0,0.93,1.0,0.0,0.0,0.93,1.18,79.0,3384.0,2.5,3.47,15.0,12.55,1.182,98.8,173.0,31.7,5.0,0.0,0.0,0.0,0.0,0.0,0.0,0.0,0.0,2.27,0.0,0.0,0,0,0,0,0,0,0,0,0,0,0,0,0,0,0,0,0.0,0.0,0.0,0.0,0.0,0.0,0.0,0.0,0.0,0.0,0.0,0.0,0.0,0.0,-1.0,0.0,0.0,0.0,0.0,0.0416
125,11165,0,0.042,,,,,,,,,,,,,,,,,,,,,,,,,,,,,,,,,,0,0,0,0,0,0,0,0,0,0,0,0,0,0,0,0,,,,,,,,,,,,,,,,,,,,
126,11185,0,0.0423,0.0,180.49,,-0.02,0.08,0.93,0.0,0.0,0.0,0.93,1.18,79.0,3188.0,14.1,4.47,,13.16,1.241,98.8,,30.7,5.0,,,,,,,,,,,,0,0,0,0,0,0,0,0,0,0,0,0,0,0,0,0,,,,,0.0,,,,,,,,,,,,,,,
127,11205,0,0.0426,,,,,,,,,,,,,,,,,,,,,,,,,,,,,,,,,,0,0,0,0,0,0,0,0,0,0,0,0,0,0,0,0,,,,,,,,,,,,,,,,,,,,
128,11225,0,0.043,0.0,180.49,,-0.03,-0.01,1.01,0.0,0.0,0.0,1.01,1.18,85.0,3231.0,20.2,4.94,,13.16,1.241,98.8,,30.7,5.0,,,,,,,,,,,,0,0,0,0,0,0,0,0,0,0,0,0,0,0,0,0,,,,,0.0,,,,,,,,,,,,,,,
129,11245,0,0.0433,,,,,,,,,,,,,,,,,,,,,,,0.0,0.0,0.0,0.0,0.0,0.0,0.0,0.0,2.27,,,0,0,0,0,0,0,0,0,0,0,0,0,0,0,0,0,0.0,,,,,0.0,0.0,0.0,0.0,0.0,0.0,0.0,0.0,0.0,-1.0,0.0,,0.0,0.0,0.0433
130,11265,0,0.0436,0.0,180.49,,-0.02,0.03,0.97,0.0,0.0,0.0,0.97,1.18,82.0,3231.0,20.2,4.94,,13.88,1.25,98.8,,31.0,5.0,,,,,,,,,,,,0,0,0,0,0,0,0,0,0,0,0,0,0,0,0,0,,,,,0.0,,,,,,,,,,,,,,,
131,11285,0,0.044,,,,,,,,,,,,,,,,,,,,,,,,,,,,,,,,,,0,0,0,0,0,0,0,0,0,0,0,0,0,0,0,0,,,,,,,,,,,,,,,,,,,,
132,11305,0,0.0443,0.0,180.62,,-0.05,-0.08,1.02,0.0,0.0,0.0,1.02,1.18,86.0,3433.0,15.9,4.64,,13.8,1.249,98.8,,31.0,5.0,,,,,,,,,,,,0,0,0,0,0,0,0,0,0,0,0,0,0,0,0,0,,,,,0.0,,,,,,,,,,,,,,,
133,11325,0,0.0446,,,,,,,,,,,,,,,,,,,,,,,,,,,,,,,,,,0,0,0,0,0,0,0,0,0,0,0,0,0,0,0,0,,,,,,,,,,,,,,,,,,,,
134,11345,0,0.045,0.0,180.49,,-0.02,0.04,0.99,0.0,0.0,0.0,0.99,1.18,83.0,3433.0,0.0,3.86,,13.25,1.223,98.8,,31.0,5.0,0.0,0.0,0.0,0.0,0.0,0.0,0.0,0.0,2.26,,,0,0,0,0,0,0,0,0,0,0,0,0,0,0,0,0,0.0,,,,0.0,0.0,0.0,0.0,0.0,0.0,0.0,0.0,0.0,0.0,-1.0,0.0,0.0,0.0,0.0,0.045
135,11365,0,0.0453,,,,,,,,,,,,,,,,,,,,,,,,,,,,,,,,,,0,0,0,0,0,0,0,0,0,0,0,0,0,0,0,0,,,,,,,,,,,,,,,,,,,,
136,11385,0,0.0457,0.0,180.62,,-0.05,-0.06,0.97,1.0,0.0,0.0,0.97,1.18,82.0,3466.0,0.0,2.98,,12.79,1.183,98.8,,32.5,5.0,,,,,,,,,,,,0,0,0,0,0,0,0,0,0,0,0,0,0,0,0,0,,,,,0.0,,,,,,,,,,,,,,,
137,11405,0,0.046,,,,,,,,,,,,,,,,,,,,,,,,,,,,,,,,,,0,0,0,0,0,0,0,0,0,0,0,0,0,0,0,0,,,,,,,,,,,,,,,,,,,,
138,11425,0,0.0463,0.0,180.62,,-0.04,-0.02,1.03,0.0,0.0,0.0,1.03,1.18,87.0,3359.0,0.0,2.96,,12.79,1.183,98.8,,32.5,5.0,,,,,,,,,,,,0,0,0,0,0,0,0,0,0,0,0,0,0,0,0,0,,,,,0.0,,,,,,,,,,,,,,,
139,11445,0,0.0466,,,,,,,,,,,,,,,,,,,,,,,0.0,0.0,0.0,0.0,0.0,0.0,0.0,0.0,2.27,,,0,0,0,0,0,0,0,0,0,0,0,0,0,0,0,0,0.0,,,,,0.0,0.0,0.0,0.0,0.0,0.0,0.0,0.0,0.0,-1.0,0.0,,0.0,0.0,0.0466
140,11465,0,0.047,0.0,180.74,,-0.07,-0.08,0.99,1.0,0.0,0.0,1.0,1.18,84.0,3359.0,0.0,2.96,,12.55,1.147,98.8,,31.2,5.0,,,,,,,,,,,,0,0,0,0,0,0,0,0,0,0,0,0,0,0,0,0,,,,,0.0,,,,,,,,,,,,,,,
141,11485,0,0.0473,,,,,,,,,,,,,,,,,,,,,,,,,,,,,,,,,,0,0,0,0,0,0,0,0,0,0,0,0,0,0,0,0,,,,,,,,,,,,,,,,,,,,
142,11505,0,0.0476,0.0,180.62,,-0.04,0.02,0.92,0.0,0.0,0.0,0.92,1.18,78.0,3271.0,7.5,4.24,,12.99,1.143,98.8,,31.2,5.0,,,,,,,,,,,,0,0,0,0,0,0,0,0,0,0,0,0,0,0,0,0,,,,,0.0,,,,,,,,,,,,,,,
143,11525,0,0.048,,,,,,,,,,,,,,,,,,,,,,,,,,,,,,,,,,0,0,0,0,0,0,0,0,0,0,0,0,0,0,0,0,,,,,,,,,,,,,,,,,,,,
144,11545,0,0.0483,0.0,180.62,,-0.03,0.01,0.99,0.0,0.0,0.0,0.99,1.18,83.0,3239.0,23.1,4.94,,13.8,1.15,98.8,,31.2,5.0,0.0,0.0,0.0,0.0,0.0,0.0,0.0,0.0,2.28,,,0,0,0,0,0,0,0,0,0,0,0,0,0,0,0,0,0.0,,,,0.0,0.0,0.0,0.0,0.0,0.0,0.0,0.0,0.0,0.0,-1.0,0.0,0.0,0.0,0.0,0.0483
145,11565,0,0.0486,,,,,,,,,,,,,,,,,,,,,,,,,,,,,,,,,,0,0,0,0,0,0,0,0,0,0,0,0,0,0,0,0,,,,,,,,,,,,,,,,,,,,
146,11585,0,0.049,0.0,180.62,,-0.04,-0.03,0.95,0.0,0.0,0.0,0.95,1.18,80.0,3315.0,25.0,4.51,,14.12,1.159,98.8,,30.3,5.0,,,,,,,,,,,,0,0,0,0,0,0,0,0,0,0,0,0,0,0,0,0,,,,,0.0,,,,,,,,,,,,,,,
147,11605,0,0.0493,,,,,,,,,,,,,,,,,,,,,,,,,,,,,,,,,,0,0,0,0,0,0,0,0,0,0,0,0,0,0,0,0,,,,,,,,,,,,,,,,,,,,
148,11625,0,0.0496,0.0,180.74,,-0.07,-0.13,0.97,0.0,0.0,0.0,0.98,1.18,83.0,3630.0,11.2,4.26,,14.12,1.159,98.8,,30.3,5.0,,,,,,,,,,,,0,0,0,0,0,0,0,0,0,0,0,0,0,0,0,0,,,,,0.0,,,,,,,,,,,,,,,
149,11645,0,0.05,,,,,,,,,,,,,,,,,,,,,,,0.0,0.0,0.0,0.0,0.0,0.0,0.0,0.0,2.27,,,0,0,0,0,0,0,0,0,0,0,0,0,0,0,0,0,0.0,,,,,0.0,0.0,0.0,0.0,0.0,0.0,0.0,0.0,0.0,-1.0,0.0,,0.0,0.0,0.05
150,11665,0,0.0503,0.0,180.62,,-0.07,-0.08,0.99,0.0,0.0,0.0,1.0,1.18,84.0,3630.0,11.2,4.26,,13.76,1.165,98.8,,33.8,5.0,,,,,,,,,,,,0,0,0,0,0,0,0,0,0,0,0,0,0,0,0,0,,,,,0.0,,,,,,,,,,,,,,,
151,11685,0,0.0506,,,,,,,,,,,,,,,,,,,,,,,,,,,,,,,,,,0,0,0,0,0,0,0,0,0,0,0,0,0,0,0,0,,,,,,,,,,,,,,,,,,,,
152,11705,0,0.051,0.0,180.62,,-0.06,-0.03,1.01,0.0,0.0,0.0,1.01,1.18,86.0,3707.0,0.0,2.78,,12.93,1.184,98.8,,33.8,5.0,,,,,,,,,,,,0,0,0,0,0,0,0,0,0,0,0,0,0,0,0,0,,,,,0.0,,,,,,,,,,,,,,,
153,11725,0,0.0513,,,,,,,,,,,,,,,,,,,,,,,,,,,,,,,,,,0,0,0,0,0,0,0,0,0,0,0,0,0,0,0,0,,,,,,,,,,,,,,,,,,,,
154,11745,0,0.0516,0.0,180.62,,-0.05,-0.01,1.0,0.0,0.0,0.0,1.01,1.18,85.0,3695.0,0.0,2.8,,12.39,1.185,98.8,,33.8,5.0,0.0,0.0,0.0,0.0,0.0,0.0,0.0,0.0,2.26,,,0,0,0,0,0,0,0,0,0,0,0,0,0,0,0,0,0.0,,,,0.0,0.0,0.0,0.0,0.0,0.0,0.0,0.0,0.0,0.0,-1.0,0.0,0.0,0.0,0.0,0.0516
155,11765,0,0.052,,,,,,,,,,,,,,,,,,,,,,,,,,,,,,,,,,0,0,0,0,0,0,0,0,0,0,0,0,0,0,0,0,,,,,,,,,,,,,,,,,,,,
156,11785,0,0.0523,0.0,180.62,,-0.03,0.03,1.0,0.0,0.0,0.0,1.0,1.18,84.0,3588.0,12.4,3.79,,12.77,1.153,98.8,,34.8,5.0,,,,,,,,,,,,0,0,0,0,0,0,0,0,0,0,0,0,0,0,0,0,,,,,0.0,,,,,,,,,,,,,,,
157,11805,0,0.0526,,,,,,,,,,,,,,,,,,,,,,,,,,,,,,,,,,0,0,0,0,0,0,0,0,0,0,0,0,0,0,0,0,,,,,,,,,,,,,,,,,,,,
158,11825,0,0.053,0.0,180.62,,-0.04,-0.04,0.98,1.0,0.0,0.0,0.98,1.18,83.0,3560.0,23.4,4.88,,12.77,1.153,98.8,,34.8,5.0,,,,,,,,,,,,0,0,0,0,0,0,0,0,0,0,0,0,0,0,0,0,,,,,0.0,,,,,,,,,,,,,,,
159,11845,0,0.0533,,,,,,,,,,,,,,,,,,,,,,,0.0,0.0,0.0,0.0,0.0,0.0,0.0,0.0,2.27,,,0,0,0,0,0,0,0,0,0,0,0,0,0,0,0,0,0.0,,,,,0.0,0.0,0.0,0.0,0.0,0.0,0.0,0.0,0.0,-1.0,0.0,,0.0,0.0,0.0533
160,11865,0,0.0536,0.0,180.62,,-0.05,-0.06,1.0,0.0,0.0,0.0,1.01,1.18,85.0,3560.0,23.4,4.88,,13.75,1.148,98.8,,33.7,5.0,,,,,,,,,,,,0,0,0,0,0,0,0,0,0,0,0,0,0,0,0,0,,,,,0.0,,,,,,,,,,,,,,,
161,11885,0,0.054,,,,,,,,,,,,,,,,,,,,,,,,,,,,,,,,,,0,0,0,0,0,0,0,0,0,0,0,0,0,0,0,0,,,,,,,,,,,,,,,,,,,,
162,11905,0,0.0543,0.0,180.62,,-0.04,-0.06,0.99,1.0,0.0,0.0,0.99,1.18,84.0,3626.0,24.7,4.91,,13.94,1.177,98.8,,33.7,5.0,,,,,,,,,,,,0,0,0,0,0,0,0,0,0,0,0,0,0,0,0,0,,,,,0.0,,,,,,,,,,,,,,,
163,11925,0,0.0546,,,,,,,,,,,,,,,,,,,,,,,,,,,,,,,,,,0,0,0,0,0,0,0,0,0,0,0,0,0,0,0,0,,,,,,,,,,,,,,,,,,,,
164,11945,0,0.055,0.0,180.62,,0.0,0.07,1.06,0.0,0.0,0.0,1.07,1.18,90.0,3951.0,13.2,4.27,,13.59,1.212,98.8,,33.7,5.0,0.0,0.0,0.0,0.0,0.0,0.0,0.0,0.0,2.28,,,0,0,0,0,0,0,0,0,0,0,0,0,0,0,0,0,0.0,,,,0.0,0.0,0.0,0.0,0.0,0.0,0.0,0.0,0.0,0.0,-1.0,0.0,0.0,0.0,0.0,0.055
165,11965,0,0.0553,,,,,,,,,,,,,,,,,,,,,,,,,,,,,,,,,,0,0,0,0,0,0,0,0,0,0,0,0,0,0,0,0,,,,,,,,,,,,,,,,,,,,
166,11985,0,0.0556,0.0,180.62,,-0.02,-0.0,1.0,0.0,0.0,0.0,1.0,1.18,85.0,4084.0,0.0,2.58,,12.75,1.192,98.8,,37.7,5.0,,,,,,,,,,,,0,0,0,0,0,0,0,0,0,0,0,0,0,0,0,0,,,,,0.0,,,,,,,,,,,,,,,
167,12005,0,0.056,,,,,,,,,,,,,,,,,,,,,,,,,,,,,,,,,,0,0,0,0,0,0,0,0,0,0,0,0,0,0,0,0,,,,,,,,,,,,,,,,,,,,
168,12025,0,0.0563,0.0,180.62,,0.0,0.01,1.0,1.0,0.0,0.0,1.0,1.18,84.0,3999.0,0.0,2.54,,12.75,1.192,98.8,,37.7,5.0,,,,,,,,,,,,0,0,0,0,0,0,0,0,0,0,0,0,0,0,0,0,,,,,0.0,,,,,,,,,,,,,,,
169,12045,0,0.0566,,,,,,,,,,,,,,,,,,,,,,,0.0,0.0,0.0,0.0,0.0,0.0,0.0,0.0,2.27,,,0,0,0,0,0,0,0,0,0,0,0,0,0,0,0,0,0.0,,,,,0.0,0.0,0.0,0.0,0.0,0.0,0.0,0.0,0.0,-1.0,0.0,,0.0,0.0,0.0566
170,12065,0,0.057,0.0,180.62,,0.01,0.08,1.05,0.0,0.0,0.0,1.05,1.18,88.0,3999.0,0.0,2.54,,12.16,1.147,98.8,,37.6,5.0,,,,,,,,,,,,0,0,0,0,0,0,0,0,0,0,0,0,0,0,0,0,,,,,0.0,,,,,,,,,,,,,,,
171,12085,0,0.0573,,,,,,,,,,,,,,,,,,,,,,,,,,,,,,,,,,0,0,0,0,0,0,0,0,0,0,0,0,0,0,0,0,,,,,,,,,,,,,,,,,,,,
172,12105,0,0.0576,0.0,180.74,,0.01,0.12,1.04,0.0,0.0,0.0,1.05,1.18,89.0,3906.0,4.5,2.78,,12.03,1.121,98.8,,37.6,5.0,,,,,,,,,,,,0,0,0,0,0,0,0,0,0,0,0,0,0,0,0,0,,,,,0.0,,,,,,,,,,,,,,,
173,12125,0,0.058,,,,,,,,,,,,,,,,,,,,,,,,,,,,,,,,,,0,0,0,0,0,0,0,0,0,0,0,0,0,0,0,0,,,,,,,,,,,,,,,,,,,,
174,12145,0,0.0583,0.0,180.74,13.59,-0.0,0.08,1.03,0.0,0.0,0.0,1.04,1.18,88.0,3831.0,24.1,4.95,15.0,13.29,1.133,98.8,174.0,37.6,5.0,0.0,0.0,0.0,0.0,0.0,0.0,0.0,0.0,2.27,0.0,0.0,0,0,0,0,0,0,0,0,0,0,0,0,0,0,0,0,0.0,0.0,0.0,0.0,0.0,0.0,0.0,0.0,0.0,0.0,0.0,0.0,0.0,0.0,-1.0,0.0,0.0,0.0,0.0,0.0583
175,12165,0,0.0586,,,,,,,,,,,,,,,,,,,,,,,,,,,,,,,,,,0,0,0,0,0,0,0,0,0,0,0,0,0,0,0,0,,,,,,,,,,,,,,,,,,,,
176,12185,0,0.059,0.0,180.62,,-0.03,-0.02,0.94,0.0,0.0,0.0,0.94,1.18,79.0,3929.0,28.3,5.05,,13.88,1.19,98.8,,36.6,5.0,,,,,,,,,,,,0,0,0,0,0,0,0,0,0,0,0,0,0,0,0,0,,,,,0.0,,,,,,,,,,,,,,,
177,12205,0,0.0593,,,,,,,,,,,,,,,,,,,,,,,,,,,,,,,,,,0,0,0,0,0,0,0,0,0,0,0,0,0,0,0,0,,,,,,,,,,,,,,,,,,,,
178,12225,0,0.0596,0.0,180.74,,-0.03,0.07,1.02,-1.0,0.0,1.0,1.02,1.18,86.0,4408.0,22.9,4.78,,13.88,1.19,98.8,,36.6,5.0,,,,,,,,,,,,0,0,0,0,0,0,0,0,0,0,0,0,0,0,0,0,,,,,0.0,,,,,,,,,,,,,,,
179,12245,0,0.06,,,,,,,,,,,,,,,,,,,,,,,0.0,0.0,0.0,0.0,0.0,0.0,0.0,0.0,2.26,,,0,0,0,0,0,0,0,0,0,0,0,0,0,0,0,0,0.0,,,,,0.0,0.0,0.0,0.0,0.0,0.0,0.0,0.0,0.0,-1.0,0.0,,0.0,0.0,0.06
180,12265,0,0.0603,0.0,180.74,,-0.03,0.25,1.14,-2.0,0.0,1.0,1.17,1.18,99.0,4408.0,22.9,4.78,,13.76,1.248,98.8,,42.1,5.0,,,,,,,,,,,,0,0,0,0,0,0,0,0,0,0,0,0,0,0,0,0,,,,,0.0,,,,,,,,,,,,,,,
181,12285,0,0.0606,,,,,,,,,,,,,,,,,,,,,,,,,,,,,,,,,,0,0,0,0,0,0,0,0,0,0,0,0,0,0,0,0,,,,,,,,,,,,,,,,,,,,
182,12305,0,0.061,0.0,180.74,,-0.06,0.34,1.19,-3.0,0.0,2.0,1.24,1.24,100.0,4593.0,4.8,3.27,,12.97,1.206,98.8,,42.1,5.0,,,,,,,,,,,,0,0,0,0,0,0,0,0,0,0,0,0,0,0,0,0,,,,,0.0,,,,,,,,,,,,,,,
183,12325,0,0.0613,,,,,,,,,,,,,,,,,,,,,,,,,,,,,,,,,,0,0,0,0,0,0,0,0,0,0,0,0,0,0,0,0,,,,,,,,,,,,,,,,,,,,
184,12345,0,0.0616,0.0,180.74,,-0.08,0.33,1.17,-4.0,0.0,2.0,1.22,1.24,99.0,4613.0,0.0,2.59,,12.12,1.113,98.8,,42.1,5.0,0.0,0.0,0.0,0.0,0.0,0.0,0.0,0.0,2.27,,,0,0,0,0,0,0,0,0,0,0,0,0,0,0,0,0,0.0,,,,0.0,0.0,0.0,0.0,0.0,0.0,0.0,0.0,0.0,0.0,-1.0,0.0,0.0,0.0,0.0,0.0616
185,12365,0,0.062,,,,,,,,,,,,,,,,,,,,,,,,,,,,,,,,,,0,0,0,0,0,0,0,0,0,0,0,0,0,0,0,0,,,,,,,,,,,,,,,,,,,,
186,12385,0,0.0623,0.0,180.74,,-0.1,0.28,1.15,-4.0,0.0,2.0,1.19,1.24,96.0,4527.0,0.0,2.56,,12.12,1.113,98.8,,44.4,5.0,,,,,,,,,,,,0,0,0,0,0,0,0,0,0,0,0,0,0,0,0,0,,,,,0.0,,,,,,,,,,,,,,,
187,12405,0,0.0626,,,,,,,,,,,,,,,,,,,,,,,,,,,,,,,,,,0,0,0,0,0,0,0,0,0,0,0,0,0,0,0,0,,,,,,,,,,,,,,,,,,,,
188,12425,0,0.063,0.0,180.74,,-0.13,0.26,1.17,-4.0,0.0,2.0,1.21,1.24,98.0,4527.0,0.0,2.56,,11.6,1.104,97.0,,44.4,5.0,,,,,,,,,,,,0,0,0,0,0,0,0,0,0,0,0,0,0,0,0,0,,,,,0.0,,,,,,,,,,,,,,,
189,12445,0,0.0633,,,,,,,,,,,,,,,,,,,,,,,0.0,0.0,0.0,0.0,0.0,0.0,0.0,0.0,2.27,,,0,0,0,0,0,0,0,0,0,0,0,0,0,0,0,0,0.0,,,,,0.0,0.0,0.0,0.0,0.0,0.0,0.0,0.0,0.0,-1.0,0.0,,0.0,0.0,0.0633
190,12465,0,0.0636,0.0,180.74,,-0.14,0.34,1.23,-5.0,0.0,3.0,1.28,1.28,100.0,4441.0,0.0,2.52,,11.33,1.171,97.0,,43.8,5.0,,,,,,,,,,,,0,0,0,0,0,0,0,0,0,0,0,0,0,0,0,0,,,,,0.0,,,,,,,,,,,,,,,
191,12485,0,0.064,,,,,,,,,,,,,,,,,,,,,,,,,,,,,,,,,,0,0,0,0,0,0,0,0,0,0,0,0,0,0,0,0,,,,,,,,,,,,,,,,,,,,
192,12505,0,0.0643,0.0,180.74,,-0.11,0.45,1.3,-5.0,0.0,3.0,1.38,1.38,100.0,4394.0,0.0,2.51,,11.09,1.176,97.0,,43.8,5.0,,,,,,,,,,,,0,0,0,0,0,0,0,0,0,0,0,0,0,0,0,0,,,,,0.0,,,,,,,,,,,,,,,
193,12525,0,0.0646,,,,,,,,,,,,,,,,,,,,,,,,,,,,,,,,,,0,0,0,0,0,0,0,0,0,0,0,0,0,0,0,0,,,,,,,,,,,,,,,,,,,,
194,12545,0,0.065,0.0,180.74,,-0.09,0.34,1.18,-4.0,0.0,2.0,1.23,1.38,89.0,4240.0,0.0,2.37,,10.94,1.139,97.0,,43.8,5.0,0.0,0.0,0.0,0.0,0.0,0.0,0.0,0.0,2.28,,,0,0,0,0,0,0,0,0,0,0,0,0,0,0,0,0,0.0,,,,0.0,0.0,0.0,0.0,0.0,0.0,0.0,0.0,0.0,0.0,-1.0,0.0,0.0,0.0,0.0,0.065
195,12565,0,0.0653,,,,,,,,,,,,,,,,,,,,,,,,,,,,,,,,,,0,0,0,0,0,0,0,0,0,0,0,0,0,0,0,0,,,,,,,,,,,,,,,,,,,,
196,12585,0,0.0656,0.0,180.74,,-0.09,0.38,1.23,-4.0,0.0,3.0,1.29,1.38,93.0,4041.0,0.0,2.28,,10.94,1.139,97.0,,41.1,5.0,,,,,,,,,,,,0,0,0,0,0,0,0,0,0,0,0,0,0,0,0,0,,,,,0.0,,,,,,,,,,,,,,,
197,12605,0,0.066,,,,,,,,,,,,,,,,,,,,,,,,,,,,,,,,,,0,0,0,0,0,0,0,0,0,0,0,0,0,0,0,0,,,,,,,,,,,,,,,,,,,,
198,12625,0,0.0663,0.0,180.74,,-0.11,0.24,1.13,-3.0,0.0,2.0,1.16,1.38,84.0,4041.0,0.0,2.28,,10.89,1.126,97.0,,41.1,5.0,,,,,,,,,,,,0,0,0,0,0,0,0,0,0,0,0,0,0,0,0,0,,,,,0.0,,,,,,,,,,,,,,,
199,12645,0,0.0667,,,,,,,,,,,,,,,,,,,,,,,0.0,0.0,0.0,0.0,0.0,0.0,0.0,0.0,2.27,,,0,0,0,0,0,0,0,0,0,0,0,0,0,0,0,0,0.0,,,,,0.0,0.0,0.0,0.0,0.0,0.0,0.0,0.0,0.0,-1.0,0.0,,0.0,0.0,0.0667
200,12665,0,0.067,0.0,180.62,,-0.1,0.18,1.11,-3.0,0.0,2.0,1.13,1.38,82.0,3935.0,0.0,2.3,,10.88,1.153,97.0,,37.8,5.0,,,,,,,,,,,,0,0,0,0,0,0,0,0,0,0,0,0,0,0,0,0,,,,,0.0,,,,,,,,,,,,,,,
201,12685,0,0.0673,,,,,,,,,,,,,,,,,,,,,,,,,,,,,,,,,,0,0,0,0,0,0,0,0,0,0,0,0,0,0,0,0,,,,,,,,,,,,,,,,,,,,
202,12705,0,0.0676,0.0,180.74,,-0.12,0.14,1.12,-2.0,0.0,1.0,1.13,1.38,82.0,3781.0,0.0,2.49,,11.01,1.226,97.0,,37.8,5.0,,,,,,,,,,,,0,0,0,0,0,0,0,0,0,0,0,0,0,0,0,0,,,,,0.0,,,,,,,,,,,,,,,
203,12725,0,0.068,,,,,,,,,,,,,,,,,,,,,,,,,,,,,,,,,,0,0,0,0,0,0,0,0,0,0,0,0,0,0,0,0,,,,,,,,,,,,,,,,,,,,
204,12745,0,0.0683,0.0,180.74,,-0.12,0.14,1.11,-2.0,0.0,1.0,1.12,1.38,81.0,3692.0,0.0,2.67,,11.18,1.239,97.0,,37.8,5.0,0.0,0.0,0.0,0.0,0.0,0.0,0.0,0.0,2.26,,,0,0,0,0,0,0,0,0,0,0,0,0,0,0,0,0,0.0,,,,0.0,0.0,0.0,0.0,0.0,0.0,0.0,0.0,0.0,0.0,-1.0,0.0,0.0,0.0,0.0,0.0683
205,12765,0,0.0686,,,,,,,,,,,,,,,,,,,,,,,,,,,,,,,,,,0,0,0,0,0,0,0,0,0,0,0,0,0,0,0,0,,,,,,,,,,,,,,,,,,,,
206,12785,0,0.069,0.0,180.74,,-0.11,0.15,1.09,-2.0,0.0,1.0,1.11,1.38,80.0,3705.0,0.0,2.66,,11.18,1.239,97.0,,36.0,5.0,,,,,,,,,,,,0,0,0,0,0,0,0,0,0,0,0,0,0,0,0,0,,,,,0.0,,,,,,,,,,,,,,,
207,12805,0,0.0693,,,,,,,,,,,,,,,,,,,,,,,,,,,,,,,,,,0,0,0,0,0,0,0,0,0,0,0,0,0,0,0,0,,,,,,,,,,,,,,,,,,,,
208,12825,0,0.0696,0.0,180.74,,-0.1,0.18,1.11,-2.0,0.0,1.0,1.13,1.38,82.0,3705.0,0.0,2.66,,11.2,1.189,97.0,,36.0,5.0,,,,,,,,,,,,0,0,0,0,0,0,0,0,0,0,0,0,0,0,0,0,,,,,0.0,,,,,,,,,,,,,,,
209,12845,0,0.07,,,,,,,,,,,,,,,,,,,,,,,0.0,0.0,0.0,0.0,0.0,0.0,0.0,0.0,2.27,,,0,0,0,0,0,0,0,0,0,0,0,0,0,0,0,0,0.0,,,,,0.0,0.0,0.0,0.0,0.0,0.0,0.0,0.0,0.0,-1.0,0.0,,0.0,0.0,0.07
210,12865,0,0.0703,0.0,180.74,,-0.07,0.2,1.04,-1.0,0.0,1.0,1.06,1.38,77.0,3605.0,0.2,2.86,,11.42,1.144,97.0,,33.9,5.0,,,,,,,,,,,,0,0,0,0,0,0,0,0,0,0,0,0,0,0,0,0,,,,,0.0,,,,,,,,,,,,,,,
211,12885,0,0.0706,,,,,,,,,,,,,,,,,,,,,,,,,,,,,,,,,,0,0,0,0,0,0,0,0,0,0,0,0,0,0,0,0,,,,,,,,,,,,,,,,,,,,
212,12905,0,0.071,0.0,180.74,,-0.1,0.12,1.11,-1.0,0.0,1.0,1.12,1.38,81.0,3383.0,0.6,3.1,,11.65,1.102,97.0,,33.9,5.0,,,,,,,,,,,,0,0,0,0,0,0,0,0,0,0,0,0,0,0,0,0,,,,,0.0,,,,,,,,,,,,,,,
213,12925,0,0.0713,,,,,,,,,,,,,,,,,,,,,,,,,,,,,,,,,,0,0,0,0,0,0,0,0,0,0,0,0,0,0,0,0,,,,,,,,,,,,,,,,,,,,
214,12945,0,0.0716,0.0,180.74,,-0.11,0.1,1.05,-1.0,0.0,1.0,1.06,1.38,77.0,3238.0,0.5,3.15,,11.87,1.066,97.0,,33.9,5.0,0.0,0.0,0.0,0.0,0.0,0.0,0.0,0.0,2.28,,,0,0,0,0,0,0,0,0,0,0,0,0,0,0,0,0,0.0,,,,0.0,0.0,0.0,0.0,0.0,0.0,0.0,0.0,0.0,0.0,-1.0,0.0,0.0,0.0,0.0,0.0716
215,12965,0,0.072,,,,,,,,,,,,,,,,,,,,,,,,,,,,,,,,,,0,0,0,0,0,0,0,0,0,0,0,0,0,0,0,0,,,,,,,,,,,,,,,,,,,,
216,12985,0,0.0723,0.0,180.74,,-0.09,0.13,0.97,0.0,0.0,0.0,0.98,1.38,71.0,3143.0,0.3,3.2,,11.87,1.066,97.0,,30.5,5.0,,,,,,,,,,,,0,0,0,0,0,0,0,0,0,0,0,0,0,0,0,0,,,,,0.0,,,,,,,,,,,,,,,
217,13005,0,0.0726,,,,,,,,,,,,,,,,,,,,,,,,,,,,,,,,,,0,0,0,0,0,0,0,0,0,0,0,0,0,0,0,0,,,,,,,,,,,,,,,,,,,,
218,13025,0,0.073,0.0,180.74,,-0.05,0.16,0.9,-1.0,0.0,1.0,0.91,1.38,66.0,3143.0,0.3,3.2,,12.03,1.063,97.0,,30.5,5.0,,,,,,,,,,,,0,0,0,0,0,0,0,0,0,0,0,0,0,0,0,0,,,,,0.0,,,,,,,,,,,,,,,
219,13045,0,0.0733,,,,,,,,,,,,,,,,,,,,,,,0.0,0.0,0.0,0.0,0.0,0.0,0.0,0.0,2.27,,,0,0,0,0,0,0,0,0,0,0,0,0,0,0,0,0,0.0,,,,,0.0,0.0,0.0,0.0,0.0,0.0,0.0,0.0,0.0,-1.0,0.0,,0.0,0.0,0.0733
220,13065,0,0.0736,0.0,180.74,,-0.06,0.18,0.87,-1.0,0.0,1.0,0.89,1.38,65.0,2931.0,0.5,3.35,,12.23,1.085,97.0,,27.6,5.0,,,,,,,,,,,,0,0,0,0,0,0,0,0,0,0,0,0,0,0,0,0,,,,,0.0,,,,,,,,,,,,,,,
221,13085,0,0.074,,,,,,,,,,,,,,,,,,,,,,,,,,,,,,,,,,0,0,0,0,0,0,0,0,0,0,0,0,0,0,0,0,,,,,,,,,,,,,,,,,,,,
222,13105,0,0.0743,0.0,180.74,,-0.08,0.11,0.92,0.0,0.0,0.0,0.93,1.38,68.0,2827.0,0.7,3.35,,12.43,1.108,97.0,,27.6,5.0,,,,,,,,,,,,0,0,0,0,0,0,0,0,0,0,0,0,0,0,0,0,,,,,0.0,,,,,,,,,,,,,,,
223,13125,0,0.0746,,,,,,,,,,,,,,,,,,,,,,,,,,,,,,,,,,0,0,0,0,0,0,0,0,0,0,0,0,0,0,0,0,,,,,,,,,,,,,,,,,,,,
224,13145,0,0.075,0.0,180.74,13.66,-0.07,0.11,0.92,0.0,0.0,0.0,0.93,1.38,67.0,2688.0,0.8,3.36,15.0,12.67,1.129,97.0,174.0,27.6,5.0,0.0,0.0,0.0,0.0,0.0,0.0,0.0,0.0,2.26,0.0,0.0,0,0,0,0,0,0,0,0,0,0,0,0,0,0,0,0,0.0,0.0,0.0,0.0,0.0,0.0,0.0,0.0,0.0,0.0,0.0,0.0,0.0,0.0,-1.0,0.0,0.0,0.0,0.0,0.075
225,13165,0,0.0753,,,,,,,,,,,,,,,,,,,,,,,,,,,,,,,,,,0,0,0,0,0,0,0,0,0,0,0,0,0,0,0,0,,,,,,,,,,,,,,,,,,,,
226,13185,0,0.0756,0.0,180.74,,-0.06,0.07,0.93,0.0,0.0,0.0,0.94,1.38,68.0,2567.0,0.7,3.49,,12.67,1.129,97.0,,24.9,5.0,,,,,,,,,,,,0,0,0,0,0,0,0,0,0,0,0,0,0,0,0,0,,,,,0.0,,,,,,,,,,,,,,,
227,13205,0,0.076,,,,,,,,,,,,,,,,,,,,,,,,,,,,,,,,,,0,0,0,0,0,0,0,0,0,0,0,0,0,0,0,0,,,,,,,,,,,,,,,,,,,,
228,13225,0,0.0763,0.0,180.87,,-0.07,0.09,0.93,0.0,0.0,0.0,0.94,1.38,68.0,2567.0,0.7,3.49,,12.81,1.131,97.0,,24.9,5.0,,,,,,,,,,,,0,0,0,0,0,0,0,0,0,0,0,0,0,0,0,0,,,,,0.0,,,,,,,,,,,,,,,
229,13245,0,0.0766,,,,,,,,,,,,,,,,,,,,,,,0.0,0.0,0.0,0.0,0.0,0.0,0.0,0.0,2.27,,,0,0,0,0,0,0,0,0,0,0,0,0,0,0,0,0,0.0,,,,,0.0,0.0,0.0,0.0,0.0,0.0,0.0,0.0,0.0,-1.0,0.0,,0.0,0.0,0.0766
230,13265,0,0.077,0.0,180.87,,-0.06,0.08,0.94,-1.0,0.0,0.0,0.94,1.38,68.0,2469.0,0.7,3.52,,13.0,1.156,97.0,,23.5,5.0,,,,,,,,,,,,0,0,0,0,0,0,0,0,0,0,0,0,0,0,0,0,,,,,0.0,,,,,,,,,,,,,,,
231,13285,0,0.0773,,,,,,,,,,,,,,,,,,,,,,,,,,,,,,,,,,0,0,0,0,0,0,0,0,0,0,0,0,0,0,0,0,,,,,,,,,,,,,,,,,,,,
232,13305,0,0.0777,0.0,180.87,,-0.06,0.07,0.94,0.0,0.0,0.0,0.95,1.38,68.0,2376.0,0.5,3.52,,13.19,1.155,97.0,,23.5,5.0,,,,,,,,,,,,0,0,0,0,0,0,0,0,0,0,0,0,0,0,0,0,,,,,0.0,,,,,,,,,,,,,,,
233,13325,0,0.078,,,,,,,,,,,,,,,,,,,,,,,,,,,,,,,,,,0,0,0,0,0,0,0,0,0,0,0,0,0,0,0,0,,,,,,,,,,,,,,,,,,,,
234,13345,0,0.0783,0.0,180.87,,-0.06,0.06,0.96,-1.0,0.0,0.0,0.97,1.38,70.0,2202.0,3.0,3.7,,13.53,1.175,97.0,,23.5,5.0,0.0,0.0,0.0,0.0,0.0,0.0,0.0,0.0,2.28,,,0,0,0,0,0,0,0,0,0,0,0,0,0,0,0,0,0.0,,,,0.0,0.0,0.0,0.0,0.0,0.0,0.0,0.0,0.0,0.0,-1.0,0.0,0.0,0.0,0.0,0.0783
235,13365,0,0.0786,,,,,,,,,,,,,,,,,,,,,,,,,,,,,,,,,,0,0,0,0,0,0,0,0,0,0,0,0,0,0,0,0,,,,,,,,,,,,,,,,,,,,
236,13385,0,0.079,0.0,180.87,,-0.06,0.09,0.97,-1.0,0.0,0.0,0.97,1.38,70.0,2130.0,4.4,4.06,,13.53,1.175,97.0,,21.0,5.0,,,,,,,,,,,,0,0,0,0,0,0,0,0,0,0,0,0,0,0,0,0,,,,,0.0,,,,,,,,,,,,,,,
237,13405,0,0.0793,,,,,,,,,,,,,,,,,,,,,,,,,,,,,,,,,,0,0,0,0,0,0,0,0,0,0,0,0,0,0,0,0,,,,,,,,,,,,,,,,,,,,
238,13425,0,0.0796,0.0,180.87,,-0.06,0.05,0.95,-1.0,0.0,0.0,0.96,1.38,69.0,2130.0,4.4,4.06,,13.75,1.161,97.0,,21.0,5.0,,,,,,,,,,,,0,0,0,0,0,0,0,0,0,0,0,0,0,0,0,0,,,,,0.0,,,,,,,,,,,,,,,
239,13445,0,0.08,,,,,,,,,,,,,,,,,,,,,,,0.0,0.0,0.0,0.0,0.0,0.0,0.0,0.0,2.27,,,0,0,0,0,0,0,0,0,0,0,0,0,0,0,0,0,0.0,,,,,0.0,0.0,0.0,0.0,0.0,0.0,0.0,0.0,0.0,-1.0,0.0,,0.0,0.0,0.08
240,13465,0,0.0803,0.0,180.87,,-0.05,0.06,0.95,0.0,0.0,0.0,0.95,1.38,69.0,2034.0,4.3,4.08,,13.94,1.147,97.0,,19.3,5.0,,,,,,,,,,,,0,0,0,0,0,0,0,0,0,0,0,0,0,0,0,0,,,,,0.0,,,,,,,,,,,,,,,
241,13485,0,0.0806,,,,,,,,,,,,,,,,,,,,,,,,,,,,,,,,,,0,0,0,0,0,0,0,0,0,0,0,0,0,0,0,0,,,,,,,,,,,,,,,,,,,,
242,13505,0,0.081,0.0,181.0,,-0.04,0.04,0.95,-1.0,0.0,0.0,0.95,1.38,69.0,2010.0,2.7,3.94,,13.88,1.148,97.0,,19.3,5.0,,,,,,,,,,,,0,0,0,0,0,0,0,0,0,0,0,0,0,0,0,0,,,,,0.0,,,,,,,,,,,,,,,
243,13525,0,0.0813,,,,,,,,,,,,,,,,,,,,,,,,,,,,,,,,,,0,0,0,0,0,0,0,0,0,0,0,0,0,0,0,0,,,,,,,,,,,,,,,,,,,,
244,13545,0,0.0816,0.0,181.0,,-0.03,0.03,0.95,0.0,0.0,0.0,0.96,1.38,69.0,2063.0,1.7,3.87,,13.88,1.149,97.0,,19.3,5.0,0.0,0.0,0.0,0.0,0.0,0.0,0.0,0.0,2.27,,,0,0,0,0,0,0,0,0,0,0,0,0,0,0,0,0,0.0,,,,0.0,0.0,0.0,0.0,0.0,0.0,0.0,0.0,0.0,0.0,-1.0,0.0,0.0,0.0,0.0,0.0816
245,13565,0,0.082,,,,,,,,,,,,,,,,,,,,,,,,,,,,,,,,,,0,0,0,0,0,0,0,0,0,0,0,0,0,0,0,0,,,,,,,,,,,,,,,,,,,,
246,13585,0,0.0823,0.0,180.87,,-0.03,0.04,0.96,0.0,0.0,0.0,0.96,1.38,69.0,1987.0,0.0,3.5,,13.88,1.149,97.0,,19.4,5.0,,,,,,,,,,,,0,0,0,0,0,0,0,0,0,0,0,0,0,0,0,0,,,,,0.0,,,,,,,,,,,,,,,
247,13605,0,0.0826,,,,,,,,,,,,,,,,,,,,,,,,,,,,,,,,,,0,0,0,0,0,0,0,0,0,0,0,0,0,0,0,0,,,,,,,,,,,,,,,,,,,,
248,13625,0,0.083,0.0,181.0,,-0.02,0.05,0.97,0.0,0.0,0.0,0.97,1.38,70.0,1987.0,0.0,3.5,,13.87,1.15,97.0,,19.4,5.0,,,,,,,,,,,,0,0,0,0,0,0,0,0,0,0,0,0,0,0,0,0,,,,,0.0,,,,,,,,,,,,,,,
249,13645,0,0.0833,,,,,,,,,,,,,,,,,,,,,,,0.0,0.0,0.0,0.0,0.0,0.0,0.0,0.0,2.27,,,0,0,0,0,0,0,0,0,0,0,0,0,0,0,0,0,0.0,,,,,0.0,0.0,0.0,0.0,0.0,0.0,0.0,0.0,0.0,-1.0,0.0,,0.0,0.0,0.0833
250,13665,0,0.0836,0.0,181.0,,-0.04,0.03,0.95,0.0,0.0,0.0,0.95,1.38,69.0,1920.0,0.0,3.5,,13.83,1.162,97.0,,18.6,5.0,,,,,,,,,,,,0,0,0,0,0,0,0,0,0,0,0,0,0,0,0,0,,,,,0.0,,,,,,,,,,,,,,,
251,13685,0,0.084,,,,,,,,,,,,,,,,,,,,,,,,,,,,,,,,,,0,0,0,0,0,0,0,0,0,0,0,0,0,0,0,0,,,,,,,,,,,,,,,,,,,,
252,13705,0,0.0843,0.0,181.0,,-0.03,0.01,0.97,0.0,0.0,0.0,0.97,1.38,70.0,1867.0,0.0,3.5,,13.77,1.167,97.0,,18.6,5.0,,,,,,,,,,,,0,0,0,0,0,0,0,0,0,0,0,0,0,0,0,0,,,,,0.0,,,,,,,,,,,,,,,
253,13725,0,0.0846,,,,,,,,,,,,,,,,,,,,,,,,,,,,,,,,,,0,0,0,0,0,0,0,0,0,0,0,0,0,0,0,0,,,,,,,,,,,,,,,,,,,,
254,13745,0,0.085,0.0,181.0,,-0.05,-0.02,0.98,0.0,0.0,0.0,0.98,1.38,71.0,1864.0,0.0,3.51,,13.79,1.174,97.0,,18.6,5.0,0.0,0.0,0.0,0.0,0.0,0.0,0.0,0.0,2.27,,,0,0,0,0,0,0,0,0,0,0,0,0,0,0,0,0,0.0,,,,0.0,0.0,0.0,0.0,0.0,0.0,0.0,0.0,0.0,0.0,-1.0,0.0,0.0,0.0,0.0,0.085
255,13765,0,0.0853,,,,,,,,,,,,,,,,,,,,,,,,,,,,,,,,,,0,0,0,0,0,0,0,0,0,0,0,0,0,0,0,0,,,,,,,,,,,,,,,,,,,,
256,13785,0,0.0856,0.0,180.87,,-0.05,-0.02,0.95,0.0,0.0,0.0,0.95,1.38,69.0,1705.0,0.0,3.52,,13.79,1.174,97.0,,17.7,5.0,,,,,,,,,,,,0,0,0,0,0,0,0,0,0,0,0,0,0,0,0,0,,,,,0.0,,,,,,,,,,,,,,,
257,13805,0,0.086,,,,,,,,,,,,,,,,,,,,,,,,,,,,,,,,,,0,0,0,0,0,0,0,0,0,0,0,0,0,0,0,0,,,,,,,,,,,,,,,,,,,,
258,13825,0,0.0863,0.0,180.87,,-0.05,-0.02,0.95,0.0,0.0,0.0,0.95,1.38,69.0,1705.0,0.0,3.52,,13.94,1.182,97.0,,17.7,5.0,,,,,,,,,,,,0,0,0,0,0,0,0,0,0,0,0,0,0,0,0,0,,,,,0.0,,,,,,,,,,,,,,,
259,13845,0,0.0866,,,,,,,,,,,,,,,,,,,,,,,0.0,0.0,0.0,0.0,0.0,0.0,0.0,0.0,2.28,,,0,0,0,0,0,0,0,0,0,0,0,0,0,0,0,0,0.0,,,,,0.0,0.0,0.0,0.0,0.0,0.0,0.0,0.0,0.0,-1.0,0.0,,0.0,0.0,0.0866
260,13865,0,0.087,0.0,181.0,,-0.03,-0.04,0.98,0.0,0.0,0.0,0.98,1.38,71.0,1573.0,0.0,3.52,,13.99,1.187,97.0,,16.1,5.0,,,,,,,,,,,,0,0,0,0,0,0,0,0,0,0,0,0,0,0,0,0,,,,,0.0,,,,,,,,,,,,,,,
261,13885,0,0.0873,,,,,,,,,,,,,,,,,,,,,,,,,,,,,,,,,,0,0,0,0,0,0,0,0,0,0,0,0,0,0,0,0,,,,,,,,,,,,,,,,,,,,
262,13905,0,0.0876,0.0,181.0,,-0.04,-0.03,0.98,0.0,0.0,0.0,0.98,1.38,71.0,1926.0,0.0,3.53,,13.92,1.184,97.0,,16.1,5.0,,,,,,,,,,,,0,0,0,0,0,0,0,0,0,0,0,0,0,0,0,0,,,,,0.0,,,,,,,,,,,,,,,
263,13925,0,0.088,,,,,,,,,,,,,,,,,,,,,,,,,,,,,,,,,,0,0,0,0,0,0,0,0,0,0,0,0,0,0,0,0,,,,,,,,,,,,,,,,,,,,
264,13945,0,0.0883,0.0,181.0,,-0.03,-0.04,0.95,0.0,0.0,0.0,0.95,1.38,69.0,1812.0,0.0,3.51,,13.94,1.242,97.0,,16.1,5.0,0.0,0.0,0.0,0.0,0.0,0.0,0.0,0.0,2.27,,,0,0,0,0,0,0,0,0,0,0,0,0,0,0,0,0,0.0,,,,0.0,0.0,0.0,0.0,0.0,0.0,0.0,0.0,0.0,0.0,-1.0,0.0,0.0,0.0,0.0,0.0883
265,13965,0,0.0887,,,,,,,,,,,,,,,,,,,,,,,,,,,,,,,,,,0,0,0,0,0,0,0,0,0,0,0,0,0,0,0,0,,,,,,,,,,,,,,,,,,,,
266,13985,0,0.089,0.0,181.0,,-0.01,-0.05,0.96,-1.0,0.0,0.0,0.96,1.38,69.0,1698.0,0.0,3.52,,13.94,1.242,97.0,,16.3,5.0,,,,,,,,,,,,0,0,0,0,0,0,0,0,0,0,0,0,0,0,0,0,,,,,0.0,,,,,,,,,,,,,,,
267,14005,0,0.0893,,,,,,,,,,,,,,,,,,,,,,,,,,,,,,,,,,0,0,0,0,0,0,0,0,0,0,0,0,0,0,0,0,,,,,,,,,,,,,,,,,,,,
268,14025,0,0.0896,0.0,180.87,,-0.01,-0.05,0.96,-1.0,0.0,0.0,0.96,1.38,69.0,1698.0,0.0,3.52,,13.94,1.244,97.0,,16.3,5.0,,,,,,,,,,,,0,0,0,0,0,0,0,0,0,0,0,0,0,0,0,0,,,,,0.0,,,,,,,,,,,,,,,
269,14045,0,0.09,,,,,,,,,,,,,,,,,,,,,,,0.0,0.0,0.0,0.0,0.0,0.0,0.0,0.0,2.27,,,0,0,0,0,0,0,0,0,0,0,0,0,0,0,0,0,0.0,,,,,0.0,0.0,0.0,0.0,0.0,0.0,0.0,0.0,0.0,-1.0,0.0,,0.0,0.0,0.09
270,14065,0,0.0903,0.0,181.0,,0.01,-0.05,0.97,0.0,0.0,0.0,0.97,1.38,70.0,1495.0,0.0,3.53,,14.04,1.087,97.0,,15.7,5.0,,,,,,,,,,,,0,0,0,0,0,0,0,0,0,0,0,0,0,0,0,0,,,,,0.0,,,,,,,,,,,,,,,
271,14085,0,0.0906,,,,,,,,,,,,,,,,,,,,,,,,,,,,,,,,,,0,0,0,0,0,0,0,0,0,0,0,0,0,0,0,0,,,,,,,,,,,,,,,,,,,,
272,14105,0,0.091,0.0,181.0,,0.02,-0.04,0.97,0.0,0.0,0.0,0.97,1.38,70.0,1608.0,0.0,3.53,,13.95,1.008,97.0,,15.7,5.0,,,,,,,,,,,,0,0,0,0,0,0,0,0,0,0,0,0,0,0,0,0,,,,,0.0,,,,,,,,,,,,,,,
273,14125,0,0.0913,,,,,,,,,,,,,,,,,,,,,,,,,,,,,,,,,,0,0,0,0,0,0,0,0,0,0,0,0,0,0,0,0,,,,,,,,,,,,,,,,,,,,
274,14145,0,0.0916,0.0,181.0,13.55,0.02,-0.03,0.98,0.0,0.0,0.0,0.98,1.38,71.0,1520.0,0.0,3.52,15.0,14.12,0.958,97.0,174.0,15.7,5.0,0.0,0.0,0.0,0.0,0.0,0.0,0.0,0.0,2.26,0.0,0.0,0,0,0,0,0,0,0,0,0,0,0,0,0,0,0,0,0.0,0.0,0.0,0.0,0.0,0.0,0.0,0.0,0.0,0.0,0.0,0.0,0.0,0.0,-1.0,0.0,0.0,0.0,0.0,0.0916
275,14165,0,0.092,,,,,,,,,,,,,,,,,,,,,,,,,,,,,,,,,,0,0,0,0,0,0,0,0,0,0,0,0,0,0,0,0,,,,,,,,,,,,,,,,,,,,
276,14185,0,0.0923,0.0,181.0,,0.01,-0.05,0.97,0.0,0.0,0.0,0.97,1.38,71.0,1461.0,0.0,3.54,,14.12,0.958,97.0,,15.1,5.0,,,,,,,,,,,,0,0,0,0,0,0,0,0,0,0,0,0,0,0,0,0,,,,,0.0,,,,,,,,,,,,,,,
277,14205,0,0.0926,,,,,,,,,,,,,,,,,,,,,,,,,,,,,,,,,,0,0,0,0,0,0,0,0,0,0,0,0,0,0,0,0,,,,,,,,,,,,,,,,,,,,
278,14225,0,0.093,0.0,181.0,,0.01,-0.02,0.97,0.0,0.0,0.0,0.97,1.38,70.0,1461.0,0.0,3.54,,14.14,0.918,97.0,,15.1,5.0,,,,,,,,,,,,0,0,0,0,0,0,0,0,0,0,0,0,0,0,0,0,,,,,0.0,,,,,,,,,,,,,,,
279,14245,0,0.0933,,,,,,,,,,,,,,,,,,,,,,,0.0,0.0,0.0,0.0,0.0,0.0,0.0,0.0,2.27,,,0,0,0,0,0,0,0,0,0,0,0,0,0,0,0,0,0.0,,,,,0.0,0.0,0.0,0.0,0.0,0.0,0.0,0.0,0.0,-1.0,0.0,,0.0,0.0,0.0933
280,14265,0,0.0936,0.0,181.12,,0.0,-0.0,0.98,0.0,0.0,0.0,0.98,1.38,71.0,1407.0,0.0,3.55,,14.07,0.895,97.0,,14.5,5.0,,,,,,,,,,,,0,0,0,0,0,0,0,0,0,0,0,0,0,0,0,0,,,,,0.0,,,,,,,,,,,,,,,
281,14285,0,0.094,,,,,,,,,,,,,,,,,,,,,,,,,,,,,,,,,,0,0,0,0,0,0,0,0,0,0,0,0,0,0,0,0,,,,,,,,,,,,,,,,,,,,
282,14305,0,0.0943,0.0,181.12,,-0.01,-0.0,0.97,0.0,0.0,0.0,0.97,1.38,71.0,1190.0,0.0,3.55,,14.15,0.885,97.0,,14.5,5.0,,,,,,,,,,,,0,0,0,0,0,0,0,0,0,0,0,0,0,0,0,0,,,,,0.0,,,,,,,,,,,,,,,
283,14325,0,0.0946,,,,,,,,,,,,,,,,,,,,,,,,,,,,,,,,,,0,0,0,0,0,0,0,0,0,0,0,0,0,0,0,0,,,,,,,,,,,,,,,,,,,,
284,14345,0,0.095,0.0,181.12,,-0.01,-0.01,0.97,0.0,0.0,0.0,0.97,1.38,70.0,1234.0,0.0,3.56,,14.16,0.881,97.0,,14.5,5.0,0.0,0.0,0.0,0.0,0.0,0.0,0.0,0.0,2.28,,,0,0,0,0,0,0,0,0,0,0,0,0,0,0,0,0,0.0,,,,0.0,0.0,0.0,0.0,0.0,0.0,0.0,0.0,0.0,0.0,-1.0,0.0,0.0,0.0,0.0,0.095
285,14365,0,0.0953,,,,,,,,,,,,,,,,,,,,,,,,,,,,,,,,,,0,0,0,0,0,0,0,0,0,0,0,0,0,0,0,0,,,,,,,,,,,,,,,,,,,,
286,14385,0,0.0956,0.0,181.12,,-0.01,-0.0,0.97,0.0,0.0,0.0,0.97,1.38,70.0,1234.0,0.0,3.56,,14.16,0.881,97.0,,13.5,5.0,,,,,,,,,,,,0,0,0,0,0,0,0,0,0,0,0,0,0,0,0,0,,,,,0.0,,,,,,,,,,,,,,,
287,14405,0,0.096,,,,,,,,,,,,,,,,,,,,,,,,,,,,,,,,,,0,0,0,0,0,0,0,0,0,0,0,0,0,0,0,0,,,,,,,,,,,,,,,,,,,,
288,14425,0,0.0963,0.0,181.12,,-0.02,-0.0,0.98,0.0,0.0,0.0,0.98,1.38,71.0,1234.0,0.0,3.56,,14.28,0.879,97.0,,13.5,5.0,,,,,,,,,,,,0,0,0,0,0,0,0,0,0,0,0,0,0,0,0,0,,,,,0.0,,,,,,,,,,,,,,,
289,14445,0,0.0966,,,,,,,,,,,,,,,,,,,,,,,0.0,0.0,0.0,0.0,0.0,0.0,0.0,0.0,2.27,,,0,0,0,0,0,0,0,0,0,0,0,0,0,0,0,0,0.0,,,,,0.0,0.0,0.0,0.0,0.0,0.0,0.0,0.0,0.0,-1.0,0.0,,0.0,0.0,0.0966
290,14465,0,0.097,0.0,181.12,,-0.03,0.0,0.98,0.0,0.0,0.0,0.98,1.38,71.0,1056.0,0.0,3.57,,14.27,0.88,97.0,,12.9,5.0,,,,,,,,,,,,0,0,0,0,0,0,0,0,0,0,0,0,0,0,0,0,,,,,0.0,,,,,,,,,,,,,,,
291,14485,0,0.0973,,,,,,,,,,,,,,,,,,,,,,,,,,,,,,,,,,0,0,0,0,0,0,0,0,0,0,0,0,0,0,0,0,,,,,,,,,,,,,,,,,,,,
292,14505,0,0.0976,0.0,181.12,,-0.04,0.0,0.98,0.0,0.0,0.0,0.98,1.38,71.0,1212.0,0.0,3.58,,14.4,0.878,97.0,,12.9,5.0,,,,,,,,,,,,0,0,0,0,0,0,0,0,0,0,0,0,0,0,0,0,,,,,0.0,,,,,,,,,,,,,,,
293,14525,0,0.098,,,,,,,,,,,,,,,,,,,,,,,,,,,,,,,,,,0,0,0,0,0,0,0,0,0,0,0,0,0,0,0,0,,,,,,,,,,,,,,,,,,,,
294,14545,0,0.0983,0.0,181.12,,-0.03,-0.02,0.97,0.0,0.0,0.0,0.97,1.38,70.0,978.0,0.0,3.57,,14.32,0.878,97.0,,12.9,5.0,0.0,0.0,0.0,0.0,0.0,0.0,0.0,0.0,2.26,,,0,0,0,0,0,0,0,0,0,0,0,0,0,0,0,0,0.0,,,,0.0,0.0,0.0,0.0,0.0,0.0,0.0,0.0,0.0,0.0,-1.0,0.0,0.0,0.0,0.0,0.0983
295,14565,0,0.0986,,,,,,,,,,,,,,,,,,,,,,,,,,,,,,,,,,0,0,0,0,0,0,0,0,0,0,0,0,0,0,0,0,,,,,,,,,,,,,,,,,,,,
296,14585,0,0.099,0.0,181.12,,-0.04,-0.01,0.97,0.0,0.0,0.0,0.97,1.38,70.0,1185.0,0.0,3.58,,14.32,0.878,97.0,,12.4,5.0,,,,,,,,,,,,0,0,0,0,0,0,0,0,0,0,0,0,0,0,0,0,,,,,0.0,,,,,,,,,,,,,,,
297,14605,0,0.0993,,,,,,,,,,,,,,,,,,,,,,,,,,,,,,,,,,0,0,0,0,0,0,0,0,0,0,0,0,0,0,0,0,,,,,,,,,,,,,,,,,,,,
298,14625,0,0.0996,0.0,181.12,,-0.04,-0.0,0.98,0.0,0.0,0.0,0.98,1.38,71.0,1185.0,0.0,3.58,,14.24,0.892,97.0,,12.4,5.0,,,,,,,,,,,,0,0,0,0,0,0,0,0,0,0,0,0,0,0,0,0,,,,,0.0,,,,,,,,,,,,,,,
299,14645,0,0.1,,,,,,,,,,,,,,,,,,,,,,,0.0,0.0,0.0,0.0,0.0,0.0,0.0,0.0,2.27,,,0,0,0,0,0,0,0,0,0,0,0,0,0,0,0,0,0.0,,,,,0.0,0.0,0.0,0.0,0.0,0.0,0.0,0.0,0.0,-1.0,0.0,,0.0,0.0,0.1
300,14665,0,0.1003,0.0,181.12,,-0.04,-0.01,0.98,0.0,0.0,0.0,0.98,1.38,71.0,923.0,0.0,3.56,,14.44,0.907,97.0,,11.4,5.0,,,,,,,,,,,,0,0,0,0,0,0,0,0,0,0,0,0,0,0,0,0,,,,,0.0,,,,,,,,,,,,,,,
301,14685,0,0.1006,,,,,,,,,,,,,,,,,,,,,,,,,,,,,,,,,,0,0,0,0,0,0,0,0,0,0,0,0,0,0,0,0,,,,,,,,,,,,,,,,,,,,
302,14705,0,0.101,0.0,181.0,,-0.04,-0.0,0.98,0.0,0.0,0.0,0.99,1.38,71.0,923.0,1.8,3.56,,14.55,0.914,97.0,,11.4,5.0,,,,,,,,,,,,0,0,0,0,0,0,0,0,0,0,0,0,0,0,0,0,,,,,0.0,,,,,,,,,,,,,,,
303,14725,0,0.1013,,,,,,,,,,,,,,,,,,,,,,,,,,,,,,,,,,0,0,0,0,0,0,0,0,0,0,0,0,0,0,0,0,,,,,,,,,,,,,,,,,,,,
304,14745,0,0.1016,0.0,181.0,,-0.04,-0.01,0.98,0.0,0.0,0.0,0.99,1.38,71.0,923.0,2.0,3.56,,14.6,0.921,97.0,,11.4,5.0,0.0,0.0,0.0,0.0,0.0,0.0,0.0,0.0,2.27,,,0,0,0,0,0,0,0,0,0,0,0,0,0,0,0,0,0.0,,,,0.0,0.0,0.0,0.0,0.0,0.0,0.0,0.0,0.0,0.0,-1.0,0.0,0.0,0.0,0.0,0.1016
305,14765,0,0.102,,,,,,,,,,,,,,,,,,,,,,,,,,,,,,,,,,0,0,0,0,0,0,0,0,0,0,0,0,0,0,0,0,,,,,,,,,,,,,,,,,,,,
306,14785,0,0.1023,0.0,181.12,,-0.04,-0.01,0.99,0.0,0.0,0.0,0.99,1.38,71.0,923.0,2.3,3.56,,14.6,0.921,97.0,,8.9,5.0,,,,,,,,,,,,0,0,0,0,0,0,0,0,0,0,0,0,0,0,0,0,,,,,0.0,,,,,,,,,,,,,,,
307,14805,0,0.1026,,,,,,,,,,,,,,,,,,,,,,,,,,,,,,,,,,0,0,0,0,0,0,0,0,0,0,0,0,0,0,0,0,,,,,,,,,,,,,,,,,,,,
308,14825,0,0.103,0.0,181.12,,-0.05,-0.01,0.99,0.0,0.0,0.0,0.99,1.38,71.0,923.0,2.3,3.56,,14.6,0.924,97.0,,8.9,5.0,,,,,,,,,,,,0,0,0,0,0,0,0,0,0,0,0,0,0,0,0,0,,,,,0.0,,,,,,,,,,,,,,,
309,14845,0,0.1033,,,,,,,,,,,,,,,,,,,,,,,0.0,0.0,0.0,0.0,0.0,0.0,0.0,0.0,2.27,,,0,0,0,0,0,0,0,0,0,0,0,0,0,0,0,0,0.0,,,,,0.0,0.0,0.0,0.0,0.0,0.0,0.0,0.0,0.0,-1.0,0.0,,0.0,0.0,0.1033
310,14865,0,0.1036,0.0,181.12,,-0.05,-0.01,0.99,0.0,0.0,0.0,0.99,1.38,72.0,923.0,5.1,3.56,,14.6,0.926,97.0,,7.8,5.0,,,,,,,,,,,,0,0,0,0,0,0,0,0,0,0,0,0,0,0,0,0,,,,,0.0,,,,,,,,,,,,,,,
311,14885,0,0.104,,,,,,,,,,,,,,,,,,,,,,,,,,,,,,,,,,0,0,0,0,0,0,0,0,0,0,0,0,0,0,0,0,,,,,,,,,,,,,,,,,,,,
312,14905,0,0.1043,0.0,181.12,,-0.05,-0.01,0.99,0.0,0.0,0.0,0.99,1.38,72.0,923.0,5.1,3.56,,14.6,0.928,97.0,,7.8,5.0,,,,,,,,,,,,0,0,0,0,0,0,0,0,0,0,0,0,0,0,0,0,,,,,0.0,,,,,,,,,,,,,,,
313,14925,0,0.1046,,,,,,,,,,,,,,,,,,,,,,,,,,,,,,,,,,0,0,0,0,0,0,0,0,0,0,0,0,0,0,0,0,,,,,,,,,,,,,,,,,,,,
314,14945,0,0.105,0.0,181.12,,-0.05,-0.01,0.99,0.0,0.0,0.0,0.99,1.38,72.0,923.0,3.4,3.56,,14.6,0.93,97.0,,7.8,5.0,0.0,0.0,0.0,0.0,0.0,0.0,0.0,0.0,2.28,,,0,0,0,0,0,0,0,0,0,0,0,0,0,0,0,0,0.0,,,,0.0,0.0,0.0,0.0,0.0,0.0,0.0,0.0,0.0,0.0,-1.0,0.0,0.0,0.0,0.0,0.105
315,14965,0,0.1053,,,,,,,,,,,,,,,,,,,,,,,,,,,,,,,,,,0,0,0,0,0,0,0,0,0,0,0,0,0,0,0,0,,,,,,,,,,,,,,,,,,,,
316,14985,0,0.1056,0.0,181.12,,-0.05,-0.01,0.99,0.0,0.0,0.0,0.99,1.38,72.0,923.0,1.1,3.56,,14.6,0.93,97.0,,7.6,5.0,,,,,,,,,,,,0,0,0,0,0,0,0,0,0,0,0,0,0,0,0,0,,,,,0.0,,,,,,,,,,,,,,,
317,15005,0,0.106,,,,,,,,,,,,,,,,,,,,,,,,,,,,,,,,,,0,0,0,0,0,0,0,0,0,0,0,0,0,0,0,0,,,,,,,,,,,,,,,,,,,,
318,15025,0,0.1063,0.0,181.12,,-0.05,-0.01,0.99,0.0,0.0,0.0,0.99,1.38,72.0,923.0,1.1,3.56,,14.6,0.93,97.0,,7.6,5.0,,,,,,,,,,,,0,0,0,0,0,0,0,0,0,0,0,0,0,0,0,0,,,,,0.0,,,,,,,,,,,,,,,
319,15045,0,0.1066,,,,,,,,,,,,,,,,,,,,,,,0.0,0.0,0.0,0.0,0.0,0.0,0.0,0.0,2.26,,,0,0,0,0,0,0,0,0,0,0,0,0,0,0,0,0,0.0,,,,,0.0,0.0,0.0,0.0,0.0,0.0,0.0,0.0,0.0,-1.0,0.0,,0.0,0.0,0.1066
320,15065,0,0.107,0.0,181.12,,-0.05,-0.01,0.99,0.0,0.0,0.0,0.99,1.38,72.0,923.0,0.0,3.56,,14.6,0.933,97.0,,7.3,5.0,,,,,,,,,,,,0,0,0,0,0,0,0,0,0,0,0,0,0,0,0,0,,,,,0.0,,,,,,,,,,,,,,,
321,15085,0,0.1073,,,,,,,,,,,,,,,,,,,,,,,,,,,,,,,,,,0,0,0,0,0,0,0,0,0,0,0,0,0,0,0,0,,,,,,,,,,,,,,,,,,,,
322,15105,0,0.1076,0.0,181.12,,-0.05,-0.01,0.99,0.0,0.0,0.0,0.99,1.38,72.0,923.0,0.0,3.56,,14.6,0.931,97.0,,7.3,5.0,,,,,,,,,,,,0,0,0,0,0,0,0,0,0,0,0,0,0,0,0,0,,,,,0.0,,,,,,,,,,,,,,,
323,15125,0,0.108,,,,,,,,,,,,,,,,,,,,,,,,,,,,,,,,,,0,0,0,0,0,0,0,0,0,0,0,0,0,0,0,0,,,,,,,,,,,,,,,,,,,,
324,15145,0,0.1083,0.0,181.12,13.11,-0.05,-0.01,0.99,0.0,0.0,0.0,0.99,1.38,72.0,923.0,0.0,3.56,15.0,14.6,0.935,97.0,174.0,7.3,5.0,0.0,0.0,0.0,0.0,0.0,0.0,0.0,0.0,2.27,0.0,0.0,0,0,0,0,0,0,0,0,0,0,0,0,0,0,0,0,0.0,0.0,0.0,0.0,0.0,0.0,0.0,0.0,0.0,0.0,0.0,0.0,0.0,0.0,-1.0,0.0,0.0,0.0,0.0,0.1083
325,15165,0,0.1086,,,,,,,,,,,,,,,,,,,,,,,,,,,,,,,,,,0,0,0,0,0,0,0,0,0,0,0,0,0,0,0,0,,,,,,,,,,,,,,,,,,,,
326,15185,0,0.109,0.0,181.12,,-0.05,-0.01,0.99,0.0,0.0,0.0,0.99,1.38,72.0,923.0,0.0,3.56,,14.6,0.935,97.0,,7.6,5.0,,,,,,,,,,,,0,0,0,0,0,0,0,0,0,0,0,0,0,0,0,0,,,,,0.0,,,,,,,,,,,,,,,
327,15205,0,0.1093,,,,,,,,,,,,,,,,,,,,,,,,,,,,,,,,,,0,0,0,0,0,0,0,0,0,0,0,0,0,0,0,0,,,,,,,,,,,,,,,,,,,,
328,15225,0,0.1096,0.0,181.12,,-0.05,-0.01,0.99,0.0,0.0,0.0,0.99,1.38,72.0,923.0,0.0,3.56,,14.6,0.936,97.0,,7.6,5.0,,,,,,,,,,,,0,0,0,0,0,0,0,0,0,0,0,0,0,0,0,0,,,,,0.0,,,,,,,,,,,,,,,
329,15245,0,0.11,,,,,,,,,,,,,,,,,,,,,,,0.0,0.0,0.0,0.0,0.0,0.0,0.0,0.0,2.27,,,0,0,0,0,0,0,0,0,0,0,0,0,0,0,0,0,0.0,,,,,0.0,0.0,0.0,0.0,0.0,0.0,0.0,0.0,0.0,-1.0,0.0,,0.0,0.0,0.11
330,15265,0,0.1103,0.0,181.12,,-0.05,-0.01,0.99,0.0,0.0,0.0,0.99,1.38,72.0,923.0,0.0,3.56,,14.6,0.938,97.0,,7.5,5.0,,,,,,,,,,,,0,0,0,0,0,0,0,0,0,0,0,0,0,0,0,0,,,,,0.0,,,,,,,,,,,,,,,
331,15285,0,0.1106,,,,,,,,,,,,,,,,,,,,,,,,,,,,,,,,,,0,0,0,0,0,0,0,0,0,0,0,0,0,0,0,0,,,,,,,,,,,,,,,,,,,,
332,15305,0,0.111,0.0,181.12,,-0.05,-0.01,0.99,0.0,0.0,0.0,0.99,1.38,72.0,923.0,0.0,3.56,,14.6,0.937,97.0,,7.5,5.0,,,,,,,,,,,,0,0,0,0,0,0,0,0,0,0,0,0,0,0,0,0,,,,,0.0,,,,,,,,,,,,,,,
333,15325,0,0.1113,,,,,,,,,,,,,,,,,,,,,,,,,,,,,,,,,,0,0,0,0,0,0,0,0,0,0,0,0,0,0,0,0,,,,,,,,,,,,,,,,,,,,
334,15345,0,0.1116,0.0,181.12,,-0.05,-0.01,0.99,0.0,0.0,0.0,0.99,1.38,72.0,923.0,0.0,3.56,,14.6,0.937,97.0,,7.5,5.0,0.0,0.0,0.0,0.0,0.0,0.0,0.0,0.0,2.27,,,0,0,0,0,0,0,0,0,0,0,0,0,0,0,0,0,0.0,,,,0.0,0.0,0.0,0.0,0.0,0.0,0.0,0.0,0.0,0.0,-1.0,0.0,0.0,0.0,0.0,0.1116
335,15365,0,0.112,,,,,,,,,,,,,,,,,,,,,,,,,,,,,,,,,,0,0,0,0,0,0,0,0,0,0,0,0,0,0,0,0,,,,,,,,,,,,,,,,,,,,
336,15385,0,0.1123,0.0,181.12,,-0.05,-0.01,0.99,0.0,0.0,0.0,0.99,1.38,72.0,923.0,0.0,3.56,,14.6,0.937,97.0,,7.3,5.0,,,,,,,,,,,,0,0,0,0,0,0,0,0,0,0,0,0,0,0,0,0,,,,,0.0,,,,,,,,,,,,,,,
337,15405,0,0.1126,,,,,,,,,,,,,,,,,,,,,,,,,,,,,,,,,,0,0,0,0,0,0,0,0,0,0,0,0,0,0,0,0,,,,,,,,,,,,,,,,,,,,
338,15425,0,0.113,0.0,181.12,,-0.05,-0.01,0.99,0.0,0.0,0.0,0.99,1.38,72.0,923.0,0.0,3.56,,14.6,0.936,97.0,,7.3,5.0,,,,,,,,,,,,0,0,0,0,0,0,0,0,0,0,0,0,0,0,0,0,,,,,0.0,,,,,,,,,,,,,,,
339,15445,0,0.1133,,,,,,,,,,,,,,,,,,,,,,,0.0,0.0,0.0,0.0,0.0,0.0,0.0,0.0,2.27,,,0,0,0,0,0,0,0,0,0,0,0,0,0,0,0,0,0.0,,,,,0.0,0.0,0.0,0.0,0.0,0.0,0.0,0.0,0.0,-1.0,0.0,,0.0,0.0,0.1133
340,15465,0,0.1136,0.0,181.12,,-0.05,-0.01,0.99,0.0,0.0,0.0,0.99,1.38,72.0,923.0,0.0,3.56,,14.6,0.936,97.0,,7.2,5.0,,,,,,,,,,,,0,0,0,0,0,0,0,0,0,0,0,0,0,0,0,0,,,,,0.0,,,,,,,,,,,,,,,
341,15485,0,0.114,,,,,,,,,,,,,,,,,,,,,,,,,,,,,,,,,,0,0,0,0,0,0,0,0,0,0,0,0,0,0,0,0,,,,,,,,,,,,,,,,,,,,
342,15505,0,0.1143,0.0,181.12,,-0.05,-0.01,0.99,0.0,0.0,0.0,0.99,1.38,72.0,923.0,0.0,3.56,,14.6,0.938,97.0,,7.2,5.0,,,,,,,,,,,,0,0,0,0,0,0,0,0,0,0,0,0,0,0,0,0,,,,,0.0,,,,,,,,,,,,,,,
343,15525,0,0.1146,,,,,,,,,,,,,,,,,,,,,,,,,,,,,,,,,,0,0,0,0,0,0,0,0,0,0,0,0,0,0,0,0,,,,,,,,,,,,,,,,,,,,
344,15545,0,0.115,0.0,181.0,,-0.05,-0.01,0.99,0.0,0.0,0.0,0.99,1.38,72.0,923.0,0.0,3.56,,14.6,0.937,97.0,,7.2,5.0,0.0,0.0,0.0,0.0,0.0,0.0,0.0,0.0,2.26,,,0,0,0,0,0,0,0,0,0,0,0,0,0,0,0,0,0.0,,,,0.0,0.0,0.0,0.0,0.0,0.0,0.0,0.0,0.0,0.0,-1.0,0.0,0.0,0.0,0.0,0.115
345,15565,0,0.1153,,,,,,,,,,,,,,,,,,,,,,,,,,,,,,,,,,0,0,0,0,0,0,0,0,0,0,0,0,0,0,0,0,,,,,,,,,,,,,,,,,,,,
346,15585,0,0.1156,0.0,181.12,,-0.05,-0.01,0.99,0.0,0.0,0.0,0.99,1.38,72.0,923.0,0.0,3.56,,14.6,0.937,97.0,,7.3,5.0,,,,,,,,,,,,0,0,0,0,0,0,0,0,0,0,0,0,0,0,0,0,,,,,0.0,,,,,,,,,,,,,,,
347,15605,0,0.116,,,,,,,,,,,,,,,,,,,,,,,,,,,,,,,,,,0,0,0,0,0,0,0,0,0,0,0,0,0,0,0,0,,,,,,,,,,,,,,,,,,,,
348,15625,0,0.1163,0.0,181.12,,-0.05,-0.01,0.99,0.0,0.0,0.0,0.99,1.38,72.0,923.0,0.0,3.56,,14.6,0.937,97.0,,7.3,5.0,,,,,,,,,,,,0,0,0,0,0,0,0,0,0,0,0,0,0,0,0,0,,,,,0.0,,,,,,,,,,,,,,,
349,15645,0,0.1166,,,,,,,,,,,,,,,,,,,,,,,0.0,0.0,0.0,0.0,0.0,0.0,0.0,0.0,2.26,,,0,0,0,0,0,0,0,0,0,0,0,0,0,0,0,0,0.0,,,,,0.0,0.0,0.0,0.0,0.0,0.0,0.0,0.0,0.0,-1.0,0.0,,0.0,0.0,0.1166
350,15665,0,0.117,0.0,181.12,,-0.05,-0.01,0.99,0.0,0.0,0.0,0.99,1.38,72.0,923.0,0.0,3.56,,14.6,0.937,97.0,,7.5,5.0,,,,,,,,,,,,0,0,0,0,0,0,0,0,0,0,0,0,0,0,0,0,,,,,0.0,,,,,,,,,,,,,,,
351,15685,0,0.1173,,,,,,,,,,,,,,,,,,,,,,,,,,,,,,,,,,0,0,0,0,0,0,0,0,0,0,0,0,0,0,0,0,,,,,,,,,,,,,,,,,,,,
352,15705,0,0.1176,0.0,181.12,,-0.05,-0.01,0.99,0.0,0.0,0.0,0.99,1.38,72.0,923.0,0.0,3.56,,14.6,0.937,97.0,,7.5,5.0,,,,,,,,,,,,0,0,0,0,0,0,0,0,0,0,0,0,0,0,0,0,,,,,0.0,,,,,,,,,,,,,,,
353,15725,0,0.118,,,,,,,,,,,,,,,,,,,,,,,,,,,,,,,,,,0,0,0,0,0,0,0,0,0,0,0,0,0,0,0,0,,,,,,,,,,,,,,,,,,,,
354,15745,0,0.1183,0.0,181.12,,-0.05,-0.01,0.99,0.0,0.0,0.0,0.99,1.38,72.0,923.0,0.0,3.56,,14.6,0.937,97.0,,7.5,5.0,0.0,0.0,0.0,0.0,0.0,0.0,0.0,0.0,2.27,,,0,0,0,0,0,0,0,0,0,0,0,0,0,0,0,0,0.0,,,,0.0,0.0,0.0,0.0,0.0,0.0,0.0,0.0,0.0,0.0,-1.0,0.0,0.0,0.0,0.0,0.1183
355,15765,0,0.1186,,,,,,,,,,,,,,,,,,,,,,,,,,,,,,,,,,0,0,0,0,0,0,0,0,0,0,0,0,0,0,0,0,,,,,,,,,,,,,,,,,,,,
356,15785,0,0.119,0.0,181.12,,-0.05,-0.01,0.99,0.0,0.0,0.0,0.99,1.38,72.0,923.0,0.0,3.56,,14.6,0.937,97.0,,7.4,5.0,,,,,,,,,,,,0,0,0,0,0,0,0,0,0,0,0,0,0,0,0,0,,,,,0.0,,,,,,,,,,,,,,,
357,15805,0,0.1193,,,,,,,,,,,,,,,,,,,,,,,,,,,,,,,,,,0,0,0,0,0,0,0,0,0,0,0,0,0,0,0,0,,,,,,,,,,,,,,,,,,,,
358,15825,0,0.1196,0.0,181.12,,-0.05,-0.01,0.99,0.0,0.0,0.0,0.99,1.38,72.0,923.0,0.0,3.56,,14.6,0.937,97.0,,7.4,5.0,,,,,,,,,,,,0,0,0,0,0,0,0,0,0,0,0,0,0,0,0,0,,,,,0.0,,,,,,,,,,,,,,,
359,15845,0,0.12,,,,,,,,,,,,,,,,,,,,,,,0.0,0.0,0.0,0.0,0.0,0.0,0.0,0.0,2.28,,,0,0,0,0,0,0,0,0,0,0,0,0,0,0,0,0,0.0,,,,,0.0,0.0,0.0,0.0,0.0,0.0,0.0,0.0,0.0,-1.0,0.0,,0.0,0.0,0.12
360,15865,0,0.1203,0.0,181.12,,-0.05,-0.01,0.99,0.0,0.0,0.0,0.99,1.38,72.0,923.0,0.0,3.56,,14.6,0.937,97.0,,7.4,5.0,,,,,,,,,,,,0,0,0,0,0,0,0,0,0,0,0,0,0,0,0,0,,,,,0.0,,,,,,,,,,,,,,,
361,15885,0,0.1206,,,,,,,,,,,,,,,,,,,,,,,,,,,,,,,,,,0,0,0,0,0,0,0,0,0,0,0,0,0,0,0,0,,,,,,,,,,,,,,,,,,,,
362,15905,0,0.121,0.0,181.25,,-0.05,-0.01,0.99,0.0,0.0,0.0,0.99,1.38,72.0,923.0,0.0,3.56,,14.6,0.939,97.0,,7.4,5.0,,,,,,,,,,,,0,0,0,0,0,0,0,0,0,0,0,0,0,0,0,0,,,,,0.0,,,,,,,,,,,,,,,
363,15925,0,0.1213,,,,,,,,,,,,,,,,,,,,,,,,,,,,,,,,,,0,0,0,0,0,0,0,0,0,0,0,0,0,0,0,0,,,,,,,,,,,,,,,,,,,,
364,15945,0,0.1216,0.0,181.12,,-0.05,-0.01,0.99,0.0,0.0,0.0,0.99,1.38,72.0,923.0,0.0,3.56,,14.6,0.936,97.0,,7.4,5.0,0.0,0.0,0.0,0.0,0.0,0.0,0.0,0.0,2.27,,,0,0,0,0,0,0,0,0,0,0,0,0,0,0,0,0,0.0,,,,0.0,0.0,0.0,0.0,0.0,0.0,0.0,0.0,0.0,0.0,-1.0,0.0,0.0,0.0,0.0,0.1216
365,15965,0,0.122,,,,,,,,,,,,,,,,,,,,,,,,,,,,,,,,,,0,0,0,0,0,0,0,0,0,0,0,0,0,0,0,0,,,,,,,,,,,,,,,,,,,,
366,15985,0,0.1223,0.0,181.12,,-0.05,-0.01,0.99,0.0,0.0,0.0,0.99,1.38,72.0,923.0,0.0,3.56,,14.6,0.936,97.0,,7.3,5.0,,,,,,,,,,,,0,0,0,0,0,0,0,0,0,0,0,0,0,0,0,0,,,,,0.0,,,,,,,,,,,,,,,
367,16005,0,0.1226,,,,,,,,,,,,,,,,,,,,,,,,,,,,,,,,,,0,0,0,0,0,0,0,0,0,0,0,0,0,0,0,0,,,,,,,,,,,,,,,,,,,,
368,16025,0,0.123,0.0,181.12,,-0.05,-0.01,0.99,0.0,0.0,0.0,0.99,1.38,72.0,923.0,0.0,3.56,,14.6,0.936,97.0,,7.3,5.0,,,,,,,,,,,,0,0,0,0,0,0,0,0,0,0,0,0,0,0,0,0,,,,,0.0,,,,,,,,,,,,,,,
369,16045,0,0.1233,,,,,,,,,,,,,,,,,,,,,,,0.0,0.0,0.0,0.0,0.0,0.0,0.0,0.0,2.26,,,0,0,0,0,0,0,0,0,0,0,0,0,0,0,0,0,0.0,,,,,0.0,0.0,0.0,0.0,0.0,0.0,0.0,0.0,0.0,-1.0,0.0,,0.0,0.0,0.1233
370,16065,0,0.1236,0.0,181.12,,-0.05,-0.01,0.99,0.0,0.0,0.0,0.99,1.38,72.0,923.0,0.0,3.56,,14.6,0.935,97.0,,7.4,5.0,,,,,,,,,,,,0,0,0,0,0,0,0,0,0,0,0,0,0,0,0,0,,,,,0.0,,,,,,,,,,,,,,,
371,16085,0,0.124,,,,,,,,,,,,,,,,,,,,,,,,,,,,,,,,,,0,0,0,0,0,0,0,0,0,0,0,0,0,0,0,0,,,,,,,,,,,,,,,,,,,,
372,16105,0,0.1243,0.0,181.12,,-0.05,-0.01,0.99,0.0,0.0,0.0,0.99,1.38,72.0,923.0,0.0,3.56,,14.6,0.936,97.0,,7.4,5.0,,,,,,,,,,,,0,0,0,0,0,0,0,0,0,0,0,0,0,0,0,0,,,,,0.0,,,,,,,,,,,,,,,
