,Interval,Utc,ElapsedTime,FrontBP,SteerAng,Battery,AccelX,AccelY,AccelZ,Yaw,Pitch,Roll,Gsum,GsumMax,GsumPct,RPM,TPS,InjectorPW,Baro,MAP,Lambda,IAT,EngineTemp,EOP,EOT,WSFR,WSFL,WSRR,WSRL,TCSet,TCSlip,TCComp,TCCut,Analog8,OilTemp,AA_On,ThermLF1,ThermLF2,ThermRR1,ThermRR2,ThermLF3,ThermLF4,ThermLF5,ThermLF6,ThermLF7,ThermLF8,ThermRR3,ThermRR4,ThermRR5,ThermRR6,ThermRR7,ThermRR8,AA_LowDrag,Gear,AA_On1,AA_LowDrag1,Fuel_Mix,AA_Packages,Latitude,Longitude,Speed,Altitude,GPSSats,GPSQual,GPSDOP,LapCount,LapTime,Sector,SectorTime,PredTime,CurrentLap,Distance,SessionTime
0,744822,1745294978343,0.0003,,,,,,,,,,,,,,,,,,,,,,,,,,,,,,,,,,0,0,0,0,0,0,0,0,0,0,0,0,0,0,0,0,,,,,,,,,,,,,,,,,,,,,
1,744842,1745294978363,0.0006,0.0,14.0,,-0.1,-0.11,0.97,-1.0,0.0,0.0,0.98,0.98,100.0,3891.0,0.0,2.59,,11.44,1.248,111.4,,41.4,5.0,,,,,,,,,,,,0,0,0,0,0,0,0,0,0,0,0,0,0,0,0,0,,,,,,0.0,,,,,,,,,,,,,,,
2,744862,1745294978383,0.001,,,,,,,,,,,,,,,,,,,,,,,,,,,,,,,,,,0,0,0,0,0,0,0,0,0,0,0,0,0,0,0,0,,,,,,,,,,,,,,,,,,,,,
3,744882,1745294978403,0.0013,0.0,-23.0,,-0.09,-0.05,1.0,-1.0,0.0,0.0,1.0,1.0,100.0,3874.0,6.5,4.0,,11.79,1.248,111.4,,41.4,5.0,,,,,,,,,,,,0,0,0,0,0,0,0,0,0,0,0,0,0,0,0,0,,,,,,0.0,,,,,,,,,,,,,,,
4,744902,1745294978423,0.0016,,,,,,,,,,,,,,,,,,,,,,,0.0,0.0,0.0,0.0,0.0,0.0,0.0,0.0,2.26,,,0,0,0,0,0,0,0,0,0,0,0,0,0,0,0,0,,0.0,,,,,38.985771,-76.950218,0.0,47.7,33.0,3.0,0.8,0.0,0.0,-1.0,0.0,,0.0,0.0,0.0016
5,744922,1745294978443,0.002,0.0,-8.0,,-0.08,-0.03,1.0,0.0,0.0,0.0,1.0,1.0,100.0,3766.0,11.6,3.74,,11.79,1.248,111.4,,40.0,5.0,,,,,,,,,,,,0,0,0,0,0,0,0,0,0,0,0,0,0,0,0,0,,,,,,0.0,,,,,,,,,,,,,,,
6,744942,1745294978463,0.0023,,,,,,,,,,,,,,,,,,,,,,,,,,,,,,,,,,0,0,0,0,0,0,0,0,0,0,0,0,0,0,0,0,,,,,,,,,,,,,,,,,,,,,
7,744962,1745294978483,0.0026,0.0,-23.0,,-0.08,-0.04,0.97,0.0,0.0,0.0,0.98,1.0,97.0,3766.0,11.6,3.74,,12.47,1.248,111.4,,40.0,5.0,,,,,,,,,,,,0,0,0,0,0,0,0,0,0,0,0,0,0,0,0,0,,,,,,0.0,,,,,,,,,,,,,,,
8,744982,1745294978503,0.003,,,,,,,,,,,,,,,,,,,,,,,,,,,,,,,,,,0,0,0,0,0,0,0,0,0,0,0,0,0,0,0,0,,,,,,,,,,,,,,,,,,,,,
9,745002,1745294978523,0.0033,0.0,-15.0,,-0.09,0.0,0.98,0.0,0.0,0.0,0.98,1.0,98.0,3719.0,16.0,4.16,,13.17,1.167,111.4,,39.5,5.0,0.0,0.0,0.0,0.0,0.0,0.0,0.0,0.0,2.25,,,0,0,0,0,0,0,0,0,0,0,0,0,0,0,0,0,,0.0,,,,0.0,38.985771,-76.950218,0.04,47.7,33.0,3.0,0.8,0.0,0.0,-1.0,0.0,0.0,0.0,0.0,0.0033
10,745022,1745294978543,0.0036,,,,,,,,,,,,,,,,,,,,,,,,,,,,,,,,,,0,0,0,0,0,0,0,0,0,0,0,0,0,0,0,0,,,,,,,,,,,,,,,,,,,,,
11,745042,1745294978563,0.004,0.0,-23.0,,-0.1,0.03,1.04,0.0,0.0,0.0,1.04,1.04,100.0,3895.0,16.4,4.17,,13.36,1.133,111.4,,39.5,5.0,,,,,,,,,,,,0,0,0,0,0,0,0,0,0,0,0,0,0,0,0,0,,,,,,0.0,,,,,,,,,,,,,,,
12,745062,1745294978583,0.0043,,,,,,,,,,,,,,,,,,,,,,,,,,,,,,,,,,0,0,0,0,0,0,0,0,0,0,0,0,0,0,0,0,,,,,,,,,,,,,,,,,,,,,
13,745082,1745294978602,0.0046,0.0,-8.0,,-0.11,-0.04,1.0,-1.0,0.0,0.0,1.01,1.04,97.0,3949.0,16.7,4.08,,13.49,1.15,111.4,,39.5,5.0,,,,,,,,,,,,0,0,0,0,0,0,0,0,0,0,0,0,0,0,0,0,,,,,,0.0,,,,,,,,,,,,,,,
14,745102,1745294978622,0.005,,,,,,,,,,,,,,,,,,,,,,,0.0,0.0,0.0,0.0,0.0,0.0,0.0,0.0,2.26,,,0,0,0,0,0,0,0,0,0,0,0,0,0,0,0,0,,0.0,,,,,38.985771,-76.950218,0.08,47.7,33.0,3.0,0.8,0.0,0.0,-1.0,0.0,,0.0,0.0,0.005
15,745122,1745294978642,0.0053,0.0,-4.0,,-0.09,0.02,1.01,-1.0,0.0,0.0,1.02,1.04,98.0,4041.0,8.3,3.42,,13.49,1.15,111.4,,42.3,5.0,,,,,,,,,,,,0,0,0,0,0,0,0,0,0,0,0,0,0,0,0,0,,,,,,0.0,,,,,,,,,,,,,,,
16,745142,1745294978662,0.0056,,,,,,,,,,,,,,,,,,,,,,,,,,,,,,,,,,0,0,0,0,0,0,0,0,0,0,0,0,0,0,0,0,,,,,,,,,,,,,,,,,,,,,
17,745162,1745294978682,0.006,0.0,-23.0,,-0.11,-0.01,1.04,0.0,0.0,0.0,1.05,1.05,100.0,4041.0,8.3,3.42,,13.08,1.197,111.4,,42.3,5.0,,,,,,,,,,,,0,0,0,0,0,0,0,0,0,0,0,0,0,0,0,0,,,,,,0.0,,,,,,,,,,,,,,,
18,745182,1745294978702,0.0063,,,,,,,,,,,,,,,,,,,,,,,,,,,,,,,,,,0,0,0,0,0,0,0,0,0,0,0,0,0,0,0,0,,,,,,,,,,,,,,,,,,,,,
19,745202,1745294978722,0.0066,0.0,-23.0,,-0.09,-0.04,0.98,-1.0,0.0,0.0,0.98,1.05,94.0,4103.0,1.8,3.2,,12.49,1.196,111.4,,43.5,5.0,0.0,0.0,0.0,0.0,0.0,0.0,0.0,0.0,2.26,,,0,0,0,0,0,0,0,0,0,0,0,0,0,0,0,0,,0.0,,,,0.0,38.985771,-76.950218,0.0,47.7,33.0,3.0,0.8,0.0,0.0,-1.0,0.0,0.0,0.0,0.0,0.0066
20,745222,1745294978742,0.007,,,,,,,,,,,,,,,,,,,,,,,,,,,,,,,,,,0,0,0,0,0,0,0,0,0,0,0,0,0,0,0,0,,,,,,,,,,,,,,,,,,,,,
21,745242,1745294978762,0.0073,0.0,-8.0,,-0.11,0.04,1.05,0.0,0.0,0.0,1.05,1.05,100.0,4035.0,1.3,2.96,,12.08,1.223,111.4,,43.5,5.0,,,,,,,,,,,,0,0,0,0,0,0,0,0,0,0,0,0,0,0,0,0,,,,,,0.0,,,,,,,,,,,,,,,
22,745262,1745294978782,0.0076,,,,,,,,,,,,,,,,,,,,,,,,,,,,,,,,,,0,0,0,0,0,0,0,0,0,0,0,0,0,0,0,0,,,,,,,,,,,,,,,,,,,,,
23,745282,1745294978802,0.008,0.0,-23.0,,-0.11,-0.06,1.0,-1.0,0.0,0.0,1.01,1.05,96.0,3943.0,1.4,3.03,,11.89,1.231,111.4,,43.5,5.0,,,,,,,,,,,,0,0,0,0,0,0,0,0,0,0,0,0,0,0,0,0,,,,,,0.0,,,,,,,,,,,,,,,
24,745302,1745294978822,0.0083,,,,,,,,,,,,,,,,,,,,,,,0.0,0.0,0.0,0.0,0.0,0.0,0.0,0.0,2.26,,,0,0,0,0,0,0,0,0,0,0,0,0,0,0,0,0,,0.0,,,,,38.985771,-76.950218,0.11,47.7,33.0,3.0,0.8,0.0,0.0,-1.0,0.0,,0.0,0.0,0.0083
25,745322,1745294978842,0.0086,0.0,-4.0,,-0.13,-0.08,0.98,-2.0,0.0,0.0,0.99,1.05,94.0,3869.0,9.6,3.58,,11.89,1.231,111.4,,41.1,5.0,,,,,,,,,,,,0,0,0,0,0,0,0,0,0,0,0,0,0,0,0,0,,,,,,0.0,,,,,,,,,,,,,,,
26,745342,1745294978862,0.009,,,,,,,,,,,,,,,,,,,,,,,,,,,,,,,,,,0,0,0,0,0,0,0,0,0,0,0,0,0,0,0,0,,,,,,,,,,,,,,,,,,,,,
27,745362,1745294978882,0.0093,0.0,-8.0,,-0.11,-0.09,1.02,-2.0,0.0,0.0,1.03,1.05,98.0,3869.0,9.6,3.58,,12.27,1.228,111.4,,41.1,5.0,,,,,,,,,,,,0,0,0,0,0,0,0,0,0,0,0,0,0,0,0,0,,,,,,0.0,,,,,,,,,,,,,,,
28,745382,1745294978902,0.0096,,,,,,,,,,,,,,,,,,,,,,,,,,,,,,,,,,0,0,0,0,0,0,0,0,0,0,0,0,0,0,0,0,,,,,,,,,,,,,,,,,,,,,
29,745402,1745294978920,0.01,0.0,-23.0,13.68,-0.1,-0.07,1.01,-1.0,0.0,0.0,1.02,1.05,96.0,3812.0,13.8,3.8,15.0,12.84,1.239,111.4,176.0,40.3,5.0,0.0,0.0,0.0,0.0,0.0,0.0,0.0,0.0,2.26,0.0,1.0,0,0,0,0,0,0,0,0,0,0,0,0,0,0,0,0,0.0,0.0,1.0,0.0,0.0,0.0,38.985771,-76.950218,0.07,47.7,33.0,3.0,0.8,0.0,0.0,-1.0,0.0,0.0,0.0,0.0,0.01
30,745422,1745294978940,0.0103,,,,,,,,,,,,,,,,,,,,,,,,,,,,,,,,,,0,0,0,0,0,0,0,0,0,0,0,0,0,0,0,0,,,,,,,,,,,,,,,,,,,,,
31,745442,1745294978960,0.0106,0.0,-12.0,,-0.08,0.01,1.03,0.0,0.0,0.0,1.03,1.05,98.0,3908.0,17.2,4.22,,13.37,1.242,111.4,,40.3,5.0,,,,,,,,,,,,0,0,0,0,0,0,0,0,0,0,0,0,0,0,0,0,,,,,,0.0,,,,,,,,,,,,,,,
32,745462,1745294978980,0.011,,,,,,,,,,,,,,,,,,,,,,,,,,,,,,,,,,0,0,0,0,0,0,0,0,0,0,0,0,0,0,0,0,,,,,,,,,,,,,,,,,,,,,
33,745482,1745294979000,0.0113,0.0,-8.0,,-0.08,0.03,1.06,0.0,0.0,1.0,1.06,1.06,100.0,4012.0,18.1,4.21,,13.53,1.217,111.4,,40.3,5.0,,,,,,,,,,,,0,0,0,0,0,0,0,0,0,0,0,0,0,0,0,0,,,,,,0.0,,,,,,,,,,,,,,,
34,745502,1745294979014,0.0116,,,,,,,,,,,,,,,,,,,,,,,0.0,0.0,0.0,0.0,0.0,0.0,0.0,0.0,2.25,,,0,0,0,0,0,0,0,0,0,0,0,0,0,0,0,0,,0.0,,,,,38.985771,-76.950218,0.04,47.7,33.0,3.0,0.8,0.0,0.0,-1.0,0.0,,0.0,0.0,0.0116
35,745522,1745294979034,0.012,0.0,-12.0,,-0.06,-0.07,0.97,0.0,0.0,0.0,0.97,1.06,91.0,4042.0,18.3,4.13,,13.53,1.217,111.4,,41.8,5.0,,,,,,,,,,,,0,0,0,0,0,0,0,0,0,0,0,0,0,0,0,0,,,,,,0.0,,,,,,,,,,,,,,,
36,745542,1745294979054,0.0123,,,,,,,,,,,,,,,,,,,,,,,,,,,,,,,,,,0,0,0,0,0,0,0,0,0,0,0,0,0,0,0,0,,,,,,,,,,,,,,,,,,,,,
37,745562,1745294979074,0.0126,0.0,-15.0,,-0.08,0.07,1.07,0.0,0.0,1.0,1.07,1.07,100.0,4042.0,18.3,4.13,,13.51,1.215,111.4,,41.8,5.0,,,,,,,,,,,,0,0,0,0,0,0,0,0,0,0,0,0,0,0,0,0,,,,,,0.0,,,,,,,,,,,,,,,
38,745582,1745294979094,0.013,,,,,,,,,,,,,,,,,,,,,,,,,,,,,,,,,,0,0,0,0,0,0,0,0,0,0,0,0,0,0,0,0,,,,,,,,,,,,,,,,,,,,,
39,745602,1745294979120,0.0133,0.0,-23.0,,-0.04,0.01,1.0,0.0,0.0,0.0,1.0,1.07,93.0,4198.0,18.6,4.06,,13.45,1.212,111.4,,45.0,5.0,0.0,0.0,0.0,0.0,0.0,0.0,0.0,0.0,2.25,,,0,0,0,0,0,0,0,0,0,0,0,0,0,0,0,0,,0.0,,,,0.0,38.985771,-76.950218,0.0,47.7,33.0,3.0,0.8,0.0,0.0,-1.0,0.0,0.0,0.0,0.0,0.0133
40,745622,1745294979140,0.0136,,,,,,,,,,,,,,,,,,,,,,,,,,,,,,,,,,0,0,0,0,0,0,0,0,0,0,0,0,0,0,0,0,,,,,,,,,,,,,,,,,,,,,
41,745642,1745294979160,0.014,0.0,0.0,,-0.05,-0.06,0.92,1.0,0.0,0.0,0.92,1.07,86.0,4329.0,10.5,3.43,,13.05,1.216,111.4,,45.0,5.0,,,,,,,,,,,,0,0,0,0,0,0,0,0,0,0,0,0,0,0,0,0,,,,,,0.0,,,,,,,,,,,,,,,
42,745662,1745294979180,0.0143,,,,,,,,,,,,,,,,,,,,,,,,,,,,,,,,,,0,0,0,0,0,0,0,0,0,0,0,0,0,0,0,0,,,,,,,,,,,,,,,,,,,,,
43,745682,1745294979200,0.0146,0.0,-19.0,,-0.09,-0.01,0.98,0.0,0.0,0.0,0.99,1.07,92.0,4320.0,10.2,3.39,,12.85,1.219,111.4,,45.0,5.0,,,,,,,,,,,,0,0,0,0,0,0,0,0,0,0,0,0,0,0,0,0,,,,,,0.0,,,,,,,,,,,,,,,
44,745702,1745294979220,0.015,,,,,,,,,,,,,,,,,,,,,,,0.0,0.0,0.0,0.0,0.0,0.0,0.0,0.0,2.26,,,0,0,0,0,0,0,0,0,0,0,0,0,0,0,0,0,,0.0,,,,,38.985771,-76.950218,0.05,47.7,33.0,3.0,0.8,0.0,0.0,-1.0,0.0,,0.0,0.0,0.015
45,745722,1745294979240,0.0153,0.0,-12.0,,-0.06,0.04,1.02,0.0,0.0,0.0,1.02,1.07,95.0,4216.0,10.0,3.39,,12.85,1.219,111.4,,45.9,5.0,,,,,,,,,,,,0,0,0,0,0,0,0,0,0,0,0,0,0,0,0,0,,,,,,0.0,,,,,,,,,,,,,,,
46,745742,1745294979260,0.0156,,,,,,,,,,,,,,,,,,,,,,,,,,,,,,,,,,0,0,0,0,0,0,0,0,0,0,0,0,0,0,0,0,,,,,,,,,,,,,,,,,,,,,
47,745762,1745294979280,0.016,0.0,-12.0,,-0.05,-0.07,0.93,-1.0,0.0,0.0,0.93,1.07,87.0,4216.0,10.0,3.39,,12.72,1.219,111.4,,45.9,5.0,,,,,,,,,,,,0,0,0,0,0,0,0,0,0,0,0,0,0,0,0,0,,,,,,0.0,,,,,,,,,,,,,,,
48,745782,1745294979302,0.0163,,,,,,,,,,,,,,,,,,,,,,,,,,,,,,,,,,0,0,0,0,0,0,0,0,0,0,0,0,0,0,0,0,,,,,,,,,,,,,,,,,,,,,
49,745802,1745294979322,0.0166,0.0,-12.0,,-0.09,0.01,1.01,-2.0,0.0,0.0,1.02,1.07,95.0,4196.0,10.1,3.38,,12.72,1.25,111.4,,44.7,5.0,0.0,0.0,0.0,0.0,0.0,0.0,0.0,0.0,2.26,,,0,0,0,0,0,0,0,0,0,0,0,0,0,0,0,0,,0.0,,,,0.0,38.985771,-76.950218,0.07,47.7,33.0,3.0,0.8,0.0,0.0,-1.0,0.0,0.0,0.0,0.0,0.0166
50,745822,1745294979342,0.017,,,,,,,,,,,,,,,,,,,,,,,,,,,,,,,,,,0,0,0,0,0,0,0,0,0,0,0,0,0,0,0,0,,,,,,,,,,,,,,,,,,,,,
51,745842,1745294979362,0.0173,0.0,-4.0,,-0.06,-0.07,0.96,-1.0,0.0,0.0,0.96,1.07,90.0,4211.0,10.1,3.4,,12.71,1.248,111.4,,44.7,5.0,,,,,,,,,,,,0,0,0,0,0,0,0,0,0,0,0,0,0,0,0,0,,,,,,0.0,,,,,,,,,,,,,,,
52,745862,1745294979382,0.0176,,,,,,,,,,,,,,,,,,,,,,,,,,,,,,,,,,0,0,0,0,0,0,0,0,0,0,0,0,0,0,0,0,,,,,,,,,,,,,,,,,,,,,
53,745882,1745294979402,0.018,0.0,-15.0,,-0.09,-0.05,0.99,-1.0,0.0,0.0,1.0,1.07,93.0,4209.0,10.1,3.41,,12.72,1.249,111.4,,44.7,5.0,,,,,,,,,,,,0,0,0,0,0,0,0,0,0,0,0,0,0,0,0,0,,,,,,0.0,,,,,,,,,,,,,,,
54,745902,1745294979422,0.0183,,,,,,,,,,,,,,,,,,,,,,,0.0,0.0,0.0,0.0,0.0,0.0,0.0,0.0,2.26,,,0,0,0,0,0,0,0,0,0,0,0,0,0,0,0,0,,0.0,,,,,38.985771,-76.950218,0.11,47.7,33.0,3.0,0.8,0.0,0.0,-1.0,0.0,,0.0,0.0,0.0183
55,745922,1745294979442,0.0187,0.0,-8.0,,-0.06,-0.03,0.99,-1.0,0.0,0.0,0.99,1.07,92.0,4115.0,9.8,3.4,,12.72,1.249,111.4,,44.4,5.0,,,,,,,,,,,,0,0,0,0,0,0,0,0,0,0,0,0,0,0,0,0,,,,,,0.0,,,,,,,,,,,,,,,
56,745942,1745294979462,0.019,,,,,,,,,,,,,,,,,,,,,,,,,,,,,,,,,,0,0,0,0,0,0,0,0,0,0,0,0,0,0,0,0,,,,,,,,,,,,,,,,,,,,,
57,745962,1745294979482,0.0193,0.0,-12.0,,-0.08,-0.05,0.99,-1.0,0.0,0.0,1.0,1.07,93.0,4115.0,9.8,3.4,,12.63,1.248,111.4,,44.4,5.0,,,,,,,,,,,,0,0,0,0,0,0,0,0,0,0,0,0,0,0,0,0,,,,,,0.0,,,,,,,,,,,,,,,
58,745982,1745294979502,0.0196,,,,,,,,,,,,,,,,,,,,,,,,,,,,,,,,,,0,0,0,0,0,0,0,0,0,0,0,0,0,0,0,0,,,,,,,,,,,,,,,,,,,,,
59,746002,1745294979522,0.02,0.0,-15.0,,-0.06,-0.0,1.0,-1.0,0.0,0.0,1.0,1.07,93.0,4102.0,5.8,3.68,,12.39,1.249,111.4,,43.7,5.0,0.0,0.0,0.0,0.0,0.0,0.0,0.0,0.0,2.26,,,0,0,0,0,0,0,0,0,0,0,0,0,0,0,0,0,,0.0,,,,0.0,38.985771,-76.950218,0.12,47.7,33.0,3.0,0.8,0.0,0.0,-1.0,0.0,0.0,0.0,0.0,0.02
60,746022,1745294979542,0.0203,,,,,,,,,,,,,,,,,,,,,,,,,,,,,,,,,,0,0,0,0,0,0,0,0,0,0,0,0,0,0,0,0,,,,,,,,,,,,,,,,,,,,,
61,746042,1745294979562,0.0206,0.0,-8.0,,-0.09,-0.05,1.01,-1.0,0.0,0.0,1.01,1.07,95.0,4133.0,4.2,3.97,,12.2,1.25,111.4,,43.7,5.0,,,,,,,,,,,,0,0,0,0,0,0,0,0,0,0,0,0,0,0,0,0,,,,,,0.0,,,,,,,,,,,,,,,
62,746062,1745294979582,0.021,,,,,,,,,,,,,,,,,,,,,,,,,,,,,,,,,,0,0,0,0,0,0,0,0,0,0,0,0,0,0,0,0,,,,,,,,,,,,,,,,,,,,,
63,746082,1745294979601,0.0213,0.0,0.0,,-0.06,-0.0,0.99,-1.0,0.0,0.0,0.99,1.07,92.0,4089.0,3.9,3.87,,12.01,1.251,111.4,,43.7,5.0,,,,,,,,,,,,0,0,0,0,0,0,0,0,0,0,0,0,0,0,0,0,,,,,,0.0,,,,,,,,,,,,,,,
64,746102,1745294979621,0.0216,,,,,,,,,,,,,,,,,,,,,,,0.0,0.0,0.0,0.0,0.0,0.0,0.0,0.0,2.26,,,0,0,0,0,0,0,0,0,0,0,0,0,0,0,0,0,,0.0,,,,,38.985771,-76.950218,0.35,47.7,33.0,3.0,0.8,0.0,0.0,-1.0,0.0,,0.0,0.0,0.0216
65,746122,1745294979641,0.022,0.0,3.0,,-0.08,-0.09,0.95,0.0,0.0,0.0,0.95,1.07,89.0,4223.0,3.8,3.79,,12.01,1.251,111.4,,44.2,5.0,,,,,,,,,,,,0,0,0,0,0,0,0,0,0,0,0,0,0,0,0,0,,,,,,0.0,,,,,,,,,,,,,,,
66,746142,1745294979661,0.0223,,,,,,,,,,,,,,,,,,,,,,,,,,,,,,,,,,0,0,0,0,0,0,0,0,0,0,0,0,0,0,0,0,,,,,,,,,,,,,,,,,,,,,
67,746162,1745294979681,0.0226,0.0,-12.0,,-0.09,-0.01,1.02,0.0,0.0,0.0,1.02,1.07,95.0,4223.0,3.8,3.79,,11.85,1.25,111.4,,44.2,5.0,,,,,,,,,,,,0,0,0,0,0,0,0,0,0,0,0,0,0,0,0,0,,,,,,0.0,,,,,,,,,,,,,,,
68,746182,1745294979701,0.023,,,,,,,,,,,,,,,,,,,,,,,,,,,,,,,,,,0,0,0,0,0,0,0,0,0,0,0,0,0,0,0,0,,,,,,,,,,,,,,,,,,,,,
69,746202,1745294979721,0.0233,0.0,-19.0,,-0.08,0.06,1.11,-1.0,0.0,0.0,1.11,1.11,100.0,4349.0,3.8,3.63,,11.77,1.215,111.4,,46.8,5.0,0.0,0.0,0.0,0.0,0.0,0.0,0.0,0.0,2.25,,,0,0,0,0,0,0,0,0,0,0,0,0,0,0,0,0,,0.0,,,,0.0,38.985771,-76.950218,0.2,47.7,33.0,3.0,0.8,0.0,0.0,-1.0,0.0,0.0,0.0,0.0,0.0233
70,746222,1745294979741,0.0236,,,,,,,,,,,,,,,,,,,,,,,,,,,,,,,,,,0,0,0,0,0,0,0,0,0,0,0,0,0,0,0,0,,,,,,,,,,,,,,,,,,,,,
71,746242,1745294979761,0.024,0.0,0.0,,-0.03,0.03,1.07,-1.0,0.0,0.0,1.07,1.11,97.0,4366.0,4.9,3.67,,11.93,0.995,111.4,,46.8,5.0,,,,,,,,,,,,0,0,0,0,0,0,0,0,0,0,0,0,0,0,0,0,,,,,,0.0,,,,,,,,,,,,,,,
72,746262,1745294979781,0.0243,,,,,,,,,,,,,,,,,,,,,,,,,,,,,,,,,,0,0,0,0,0,0,0,0,0,0,0,0,0,0,0,0,,,,,,,,,,,,,,,,,,,,,
73,746282,1745294979801,0.0246,0.0,5.0,,-0.01,-0.03,0.99,0.0,0.0,0.0,0.99,1.11,89.0,4374.0,5.3,3.59,,11.95,0.915,111.4,,46.8,5.0,,,,,,,,,,,,0,0,0,0,0,0,0,0,0,0,0,0,0,0,0,0,,,,,,0.0,,,,,,,,,,,,,,,
74,746302,1745294979821,0.025,,,,,,,,,,,,,,,,,,,,,,,0.0,0.0,0.0,0.0,0.0,0.0,0.0,0.0,2.26,,,0,0,0,0,0,0,0,0,0,0,0,0,0,0,0,0,,0.0,,,,,38.985771,-76.950218,0.04,47.7,33.0,3.0,0.8,0.0,0.0,-1.0,0.0,,0.0,0.0,0.025
75,746322,1745294979841,0.0253,0.0,3.0,,-0.04,-0.07,0.92,0.0,0.0,0.0,0.92,1.11,83.0,4350.0,5.6,3.52,,11.95,0.915,111.4,,47.0,5.0,,,,,,,,,,,,0,0,0,0,0,0,0,0,0,0,0,0,0,0,0,0,,,,,,0.0,,,,,,,,,,,,,,,
76,746342,1745294979861,0.0256,,,,,,,,,,,,,,,,,,,,,,,,,,,,,,,,,,0,0,0,0,0,0,0,0,0,0,0,0,0,0,0,0,,,,,,,,,,,,,,,,,,,,,
77,746362,1745294979881,0.026,0.0,3.0,,-0.09,-0.08,0.95,0.0,0.0,0.0,0.95,1.11,86.0,4350.0,5.6,3.52,,11.97,0.895,111.4,,47.0,5.0,,,,,,,,,,,,0,0,0,0,0,0,0,0,0,0,0,0,0,0,0,0,,,,,,0.0,,,,,,,,,,,,,,,
78,746382,1745294979901,0.0263,,,,,,,,,,,,,,,,,,,,,,,,,,,,,,,,,,0,0,0,0,0,0,0,0,0,0,0,0,0,0,0,0,,,,,,,,,,,,,,,,,,,,,
79,746402,1745294979921,0.0266,0.0,-15.0,13.76,-0.12,-0.0,1.03,-1.0,0.0,0.0,1.04,1.11,93.0,4387.0,5.9,3.46,15.0,11.97,0.905,111.4,176.0,47.1,5.0,0.0,0.0,0.0,0.0,0.0,0.0,0.0,0.0,2.26,0.0,1.0,0,0,0,0,0,0,0,0,0,0,0,0,0,0,0,0,0.0,0.0,1.0,0.0,0.0,0.0,38.985771,-76.950218,0.11,47.7,33.0,3.0,0.8,0.0,0.0,-1.0,0.0,0.0,0.0,0.0,0.0266
80,746422,1745294979941,0.027,,,,,,,,,,,,,,,,,,,,,,,,,,,,,,,,,,0,0,0,0,0,0,0,0,0,0,0,0,0,0,0,0,,,,,,,,,,,,,,,,,,,,,
81,746442,1745294979961,0.0273,0.0,0.0,,-0.15,-0.03,1.06,-2.0,0.0,1.0,1.07,1.11,97.0,4539.0,5.7,3.5,,12.13,0.925,111.4,,47.1,5.0,,,,,,,,,,,,0,0,0,0,0,0,0,0,0,0,0,0,0,0,0,0,,,,,,0.0,,,,,,,,,,,,,,,
82,746462,1745294979981,0.0276,,,,,,,,,,,,,,,,,,,,,,,,,,,,,,,,,,0,0,0,0,0,0,0,0,0,0,0,0,0,0,0,0,,,,,,,,,,,,,,,,,,,,,
83,746482,1745294980001,0.028,0.0,0.0,,-0.16,-0.07,1.0,-3.0,0.0,0.0,1.01,1.11,91.0,4704.0,5.2,3.37,,11.96,0.986,111.4,,47.1,5.0,,,,,,,,,,,,0,0,0,0,0,0,0,0,0,0,0,0,0,0,0,0,,,,,,0.0,,,,,,,,,,,,,,,
84,746502,1745294980013,0.0283,,,,,,,,,,,,,,,,,,,,,,,0.0,0.0,0.0,0.0,0.0,0.0,0.0,0.0,2.26,,,0,0,0,0,0,0,0,0,0,0,0,0,0,0,0,0,,0.0,,,,,38.985771,-76.950218,0.07,47.7,33.0,3.0,0.8,0.0,0.0,-1.0,0.0,,0.0,0.0,0.0283
85,746522,1745294980033,0.0286,0.0,3.0,,-0.14,-0.02,1.01,-2.0,0.0,1.0,1.02,1.11,92.0,4875.0,3.9,3.33,,11.96,0.986,111.4,,51.7,5.0,,,,,,,,,,,,0,0,0,0,0,0,0,0,0,0,0,0,0,0,0,0,,,,,,0.0,,,,,,,,,,,,,,,
86,746542,1745294980053,0.029,,,,,,,,,,,,,,,,,,,,,,,,,,,,,,,,,,0,0,0,0,0,0,0,0,0,0,0,0,0,0,0,0,,,,,,,,,,,,,,,,,,,,,
87,746562,1745294980073,0.0293,0.0,-8.0,,-0.13,-0.07,0.96,-2.0,0.0,0.0,0.97,1.11,87.0,4875.0,3.9,3.33,,11.77,0.931,111.4,,51.7,5.0,,,,,,,,,,,,0,0,0,0,0,0,0,0,0,0,0,0,0,0,0,0,,,,,,0.0,,,,,,,,,,,,,,,
88,746582,1745294980101,0.0296,,,,,,,,,,,,,,,,,,,,,,,,,,,,,,,,,,0,0,0,0,0,0,0,0,0,0,0,0,0,0,0,0,,,,,,,,,,,,,,,,,,,,,
89,746602,1745294980121,0.03,0.0,3.0,,-0.13,-0.05,0.97,-2.0,0.0,0.0,0.98,1.11,89.0,5048.0,3.6,3.14,,11.5,0.886,111.4,,56.1,5.0,0.0,0.0,0.0,0.0,0.0,0.0,0.0,0.0,2.26,,,0,0,0,0,0,0,0,0,0,0,0,0,0,0,0,0,,0.0,,,,0.0,38.985771,-76.950218,0.05,47.7,33.0,3.0,0.8,0.0,0.0,-1.0,0.0,0.0,0.0,0.0,0.03
90,746622,1745294980141,0.0303,,,,,,,,,,,,,,,,,,,,,,,,,,,,,,,,,,0,0,0,0,0,0,0,0,0,0,0,0,0,0,0,0,,,,,,,,,,,,,,,,,,,,,
91,746642,1745294980161,0.0306,0.0,5.0,,-0.13,-0.05,0.99,-1.0,0.0,0.0,1.0,1.11,90.0,5198.0,3.5,3.17,,11.26,0.87,109.6,,56.1,5.0,,,,,,,,,,,,0,0,0,0,0,0,0,0,0,0,0,0,0,0,0,0,,,,,,0.0,,,,,,,,,,,,,,,
92,746662,1745294980181,0.031,,,,,,,,,,,,,,,,,,,,,,,,,,,,,,,,,,0,0,0,0,0,0,0,0,0,0,0,0,0,0,0,0,,,,,,,,,,,,,,,,,,,,,
93,746682,1745294980201,0.0313,0.0,3.0,,-0.11,-0.03,1.0,0.0,0.0,0.0,1.01,1.11,91.0,5384.0,1.6,2.79,,11.12,0.866,109.6,,56.1,5.0,,,,,,,,,,,,0,0,0,0,0,0,0,0,0,0,0,0,0,0,0,0,,,,,,0.0,,,,,,,,,,,,,,,
94,746702,1745294980219,0.0316,,,,,,,,,,,,,,,,,,,,,,,0.0,0.0,0.0,0.0,0.0,0.0,0.0,0.0,2.25,,,0,0,0,0,0,0,0,0,0,0,0,0,0,0,0,0,,0.0,,,,,38.985771,-76.950218,0.05,47.7,33.0,3.0,0.8,0.0,0.0,-1.0,0.0,,0.0,0.0,0.0316
95,746722,1745294980239,0.032,0.0,0.0,,-0.12,0.0,1.03,0.0,0.0,0.0,1.04,1.11,94.0,5461.0,0.0,1.66,,11.12,0.866,109.6,,59.3,5.0,,,,,,,,,,,,0,0,0,0,0,0,0,0,0,0,0,0,0,0,0,0,,,,,,0.0,,,,,,,,,,,,,,,
96,746742,1745294980259,0.0323,,,,,,,,,,,,,,,,,,,,,,,,,,,,,,,,,,0,0,0,0,0,0,0,0,0,0,0,0,0,0,0,0,,,,,,,,,,,,,,,,,,,,,
97,746762,1745294980279,0.0326,0.0,-8.0,,-0.1,-0.05,0.98,0.0,0.0,0.0,0.99,1.11,89.0,5461.0,0.0,1.66,,10.5,0.87,109.6,,59.3,5.0,,,,,,,,,,,,0,0,0,0,0,0,0,0,0,0,0,0,0,0,0,0,,,,,,0.0,,,,,,,,,,,,,,,
98,746782,1745294980301,0.033,,,,,,,,,,,,,,,,,,,,,,,,,,,,,,,,,,0,0,0,0,0,0,0,0,0,0,0,0,0,0,0,0,,,,,,,,,,,,,,,,,,,,,
99,746802,1745294980321,0.0333,0.0,-8.0,,-0.11,-0.03,1.01,0.0,0.0,0.0,1.02,1.11,92.0,5363.0,0.0,1.61,,10.24,0.877,109.6,,56.7,5.0,0.0,0.0,0.0,0.0,0.0,0.0,0.0,0.0,2.26,,,0,0,0,0,0,0,0,0,0,0,0,0,0,0,0,0,,0.0,,,,0.0,38.985771,-76.950218,0.04,47.7,33.0,3.0,0.8,0.0,0.0,-1.0,0.0,0.0,0.0,0.0,0.0333
100,746822,1745294980341,0.0336,,,,,,,,,,,,,,,,,,,,,,,,,,,,,,,,,,0,0,0,0,0,0,0,0,0,0,0,0,0,0,0,0,,,,,,,,,,,,,,,,,,,,,
101,746842,1745294980361,0.034,0.0,-4.0,,-0.09,-0.02,1.02,0.0,0.0,0.0,1.02,1.11,92.0,5097.0,0.0,1.73,,9.96,0.904,109.6,,56.7,5.0,,,,,,,,,,,,0,0,0,0,0,0,0,0,0,0,0,0,0,0,0,0,,,,,,0.0,,,,,,,,,,,,,,,
102,746862,1745294980381,0.0343,,,,,,,,,,,,,,,,,,,,,,,,,,,,,,,,,,0,0,0,0,0,0,0,0,0,0,0,0,0,0,0,0,,,,,,,,,,,,,,,,,,,,,
103,746882,1745294980401,0.0347,0.0,5.0,,-0.11,0.01,1.04,0.0,0.0,0.0,1.04,1.11,94.0,4831.0,0.0,1.82,,9.98,0.954,109.6,,56.7,5.0,,,,,,,,,,,,0,0,0,0,0,0,0,0,0,0,0,0,0,0,0,0,,,,,,0.0,,,,,,,,,,,,,,,
104,746902,1745294980421,0.035,,,,,,,,,,,,,,,,,,,,,,,0.0,0.0,0.0,0.0,0.0,0.0,0.0,0.0,2.26,,,0,0,0,0,0,0,0,0,0,0,0,0,0,0,0,0,,0.0,,,,,38.985771,-76.950218,0.04,47.7,33.0,3.0,0.8,0.0,0.0,-1.0,0.0,,0.0,0.0,0.035
105,746922,1745294980441,0.0353,0.0,5.0,,-0.13,-0.07,0.96,-1.0,0.0,0.0,0.97,1.11,87.0,4554.0,0.0,1.81,,9.98,0.954,109.6,,51.9,5.0,,,,,,,,,,,,0,0,0,0,0,0,0,0,0,0,0,0,0,0,0,0,,,,,,0.0,,,,,,,,,,,,,,,
106,746942,1745294980461,0.0356,,,,,,,,,,,,,,,,,,,,,,,,,,,,,,,,,,0,0,0,0,0,0,0,0,0,0,0,0,0,0,0,0,,,,,,,,,,,,,,,,,,,,,
107,746962,1745294980481,0.036,0.0,0.0,,-0.15,-0.09,0.96,-1.0,0.0,0.0,0.98,1.11,88.0,4554.0,0.0,1.81,,9.98,1.074,109.6,,51.9,5.0,,,,,,,,,,,,0,0,0,0,0,0,0,0,0,0,0,0,0,0,0,0,,,,,,0.0,,,,,,,,,,,,,,,
108,746982,1745294980503,0.0363,,,,,,,,,,,,,,,,,,,,,,,,,,,,,,,,,,0,0,0,0,0,0,0,0,0,0,0,0,0,0,0,0,,,,,,,,,,,,,,,,,,,,,
109,747002,1745294980523,0.0366,0.0,-8.0,,-0.16,-0.05,1.03,0.0,0.0,0.0,1.05,1.11,94.0,4286.0,0.0,1.81,,10.08,1.197,109.6,,45.7,5.0,0.0,0.0,0.0,0.0,0.0,0.0,0.0,0.0,2.26,,,0,0,0,0,0,0,0,0,0,0,0,0,0,0,0,0,,0.0,,,,0.0,38.985771,-76.950218,0.08,47.7,33.0,3.0,0.8,0.0,0.0,-1.0,0.0,0.0,0.0,0.0,0.0366
110,747022,1745294980543,0.037,,,,,,,,,,,,,,,,,,,,,,,,,,,,,,,,,,0,0,0,0,0,0,0,0,0,0,0,0,0,0,0,0,,,,,,,,,,,,,,,,,,,,,
111,747042,1745294980563,0.0373,0.0,5.0,,-0.14,-0.12,0.99,-1.0,0.0,0.0,1.01,1.11,91.0,4087.0,0.0,1.83,,10.18,1.249,109.6,,45.7,5.0,,,,,,,,,,,,0,0,0,0,0,0,0,0,0,0,0,0,0,0,0,0,,,,,,0.0,,,,,,,,,,,,,,,
112,747062,1745294980583,0.0376,,,,,,,,,,,,,,,,,,,,,,,,,,,,,,,,,,0,0,0,0,0,0,0,0,0,0,0,0,0,0,0,0,,,,,,,,,,,,,,,,,,,,,
113,747082,1745294980602,0.038,0.0,0.0,,-0.15,-0.13,1.0,-1.0,0.0,0.0,1.01,1.11,91.0,3847.0,0.0,1.85,,10.45,1.199,109.6,,45.7,5.0,,,,,,,,,,,,0,0,0,0,0,0,0,0,0,0,0,0,0,0,0,0,,,,,,0.0,,,,,,,,,,,,,,,
114,747102,1745294980622,0.0383,,,,,,,,,,,,,,,,,,,,,,,0.0,0.0,0.0,0.0,0.0,0.0,0.0,0.0,2.26,,,0,0,0,0,0,0,0,0,0,0,0,0,0,0,0,0,,0.0,,,,,38.985771,-76.950218,0.04,47.7,33.0,3.0,0.8,0.0,0.0,-1.0,0.0,,0.0,0.0,0.0383
115,747122,1745294980642,0.0386,0.0,5.0,,-0.13,-0.03,1.01,1.0,0.0,0.0,1.02,1.11,92.0,3549.0,0.0,2.07,,10.45,1.199,109.6,,39.0,5.0,,,,,,,,,,,,0,0,0,0,0,0,0,0,0,0,0,0,0,0,0,0,,,,,,0.0,,,,,,,,,,,,,,,
116,747142,1745294980662,0.039,,,,,,,,,,,,,,,,,,,,,,,,,,,,,,,,,,0,0,0,0,0,0,0,0,0,0,0,0,0,0,0,0,,,,,,,,,,,,,,,,,,,,,
117,747162,1745294980682,0.0393,0.0,3.0,,-0.13,-0.12,1.02,-1.0,0.0,0.0,1.03,1.11,93.0,3549.0,0.0,2.07,,10.77,1.182,109.6,,39.0,5.0,,,,,,,,,,,,0,0,0,0,0,0,0,0,0,0,0,0,0,0,0,0,,,,,,0.0,,,,,,,,,,,,,,,
118,747182,1745294980702,0.0396,,,,,,,,,,,,,,,,,,,,,,,,,,,,,,,,,,0,0,0,0,0,0,0,0,0,0,0,0,0,0,0,0,,,,,,,,,,,,,,,,,,,,,
119,747202,1745294980722,0.04,0.0,-15.0,,-0.13,-0.02,0.95,2.0,0.0,0.0,0.96,1.11,86.0,3302.0,0.0,2.64,,11.04,1.223,109.6,,33.3,5.0,0.0,0.0,0.0,0.0,0.0,0.0,0.0,0.0,2.26,,,0,0,0,0,0,0,0,0,0,0,0,0,0,0,0,0,,0.0,,,,0.0,38.985771,-76.950218,0.13,47.7,33.0,3.0,0.8,0.0,0.0,-1.0,0.0,0.0,0.0,0.0,0.04
120,747222,1745294980742,0.0403,,,,,,,,,,,,,,,,,,,,,,,,,,,,,,,,,,0,0,0,0,0,0,0,0,0,0,0,0,0,0,0,0,,,,,,,,,,,,,,,,,,,,,
121,747242,1745294980762,0.0406,0.0,5.0,,-0.1,-0.02,1.0,3.0,0.0,0.0,1.01,1.11,91.0,3151.0,0.0,3.08,,11.41,1.251,109.6,,33.3,5.0,,,,,,,,,,,,0,0,0,0,0,0,0,0,0,0,0,0,0,0,0,0,,,,,,0.0,,,,,,,,,,,,,,,
122,747262,1745294980782,0.041,,,,,,,,,,,,,,,,,,,,,,,,,,,,,,,,,,0,0,0,0,0,0,0,0,0,0,0,0,0,0,0,0,,,,,,,,,,,,,,,,,,,,,
123,747282,1745294980802,0.0413,0.0,-8.0,,-0.09,-0.11,1.09,1.0,0.0,0.0,1.1,1.11,99.0,3194.0,3.3,3.69,,11.81,1.25,109.6,,33.3,5.0,,,,,,,,,,,,0,0,0,0,0,0,0,0,0,0,0,0,0,0,0,0,,,,,,0.0,,,,,,,,,,,,,,,
124,747302,1745294980822,0.0416,,,,,,,,,,,,,,,,,,,,,,,0.0,0.0,0.0,0.0,0.0,0.0,0.0,0.0,2.26,,,0,0,0,0,0,0,0,0,0,0,0,0,0,0,0,0,,0.0,,,,,38.985771,-76.950218,0.11,47.7,33.0,3.0,0.8,0.0,0.0,-1.0,0.0,,0.0,0.0,0.0416
125,747322,1745294980842,0.042,0.0,11.0,,-0.11,-0.12,1.04,-1.0,0.0,0.0,1.05,1.11,95.0,3147.0,5.4,4.02,,11.81,1.25,109.6,,31.8,5.0,,,,,,,,,,,,0,0,0,0,0,0,0,0,0,0,0,0,0,0,0,0,,,,,,0.0,,,,,,,,,,,,,,,
126,747342,1745294980862,0.0423,,,,,,,,,,,,,,,,,,,,,,,,,,,,,,,,,,0,0,0,0,0,0,0,0,0,0,0,0,0,0,0,0,,,,,,,,,,,,,,,,,,,,,
127,747362,1745294980882,0.0426,0.0,8.0,,-0.12,-0.04,0.94,-1.0,0.0,0.0,0.95,1.11,85.0,3147.0,5.4,4.02,,12.32,1.248,109.6,,31.8,5.0,,,,,,,,,,,,0,0,0,0,0,0,0,0,0,0,0,0,0,0,0,0,,,,,,0.0,,,,,,,,,,,,,,,
128,747382,1745294980902,0.043,,,,,,,,,,,,,,,,,,,,,,,,,,,,,,,,,,0,0,0,0,0,0,0,0,0,0,0,0,0,0,0,0,,,,,,,,,,,,,,,,,,,,,
129,747402,1745294980922,0.0433,0.0,0.0,13.77,-0.1,0.03,0.93,1.0,0.0,0.0,0.93,1.11,84.0,3155.0,6.4,3.96,15.0,12.69,1.248,109.6,176.0,31.6,5.0,0.0,0.0,0.0,0.0,0.0,0.0,0.0,0.0,2.26,0.0,1.0,0,0,0,0,0,0,0,0,0,0,0,0,0,0,0,0,0.0,0.0,1.0,0.0,0.0,0.0,38.985771,-76.950218,0.04,47.7,33.0,3.0,0.8,0.0,0.0,-1.0,0.0,0.0,0.0,0.0,0.0433
130,747422,1745294980942,0.0436,,,,,,,,,,,,,,,,,,,,,,,,,,,,,,,,,,0,0,0,0,0,0,0,0,0,0,0,0,0,0,0,0,,,,,,,,,,,,,,,,,,,,,
131,747442,1745294980962,0.044,0.0,8.0,,-0.07,-0.01,1.0,3.0,0.0,1.0,1.01,1.11,91.0,3162.0,6.6,3.96,,12.89,1.233,109.6,,31.6,5.0,,,,,,,,,,,,0,0,0,0,0,0,0,0,0,0,0,0,0,0,0,0,,,,,,0.0,,,,,,,,,,,,,,,
132,747462,1745294980982,0.0443,,,,,,,,,,,,,,,,,,,,,,,,,,,,,,,,,,0,0,0,0,0,0,0,0,0,0,0,0,0,0,0,0,,,,,,,,,,,,,,,,,,,,,
133,747482,1745294981002,0.0446,0.0,-8.0,,-0.06,-0.11,1.06,1.0,0.0,0.0,1.07,1.11,96.0,3142.0,6.7,3.93,,13.03,1.159,109.6,,31.6,5.0,,,,,,,,,,,,0,0,0,0,0,0,0,0,0,0,0,0,0,0,0,0,,,,,,0.0,,,,,,,,,,,,,,,
134,747502,1745294981014,0.045,,,,,,,,,,,,,,,,,,,,,,,0.0,0.0,0.0,0.0,0.0,0.0,0.0,0.0,2.26,,,0,0,0,0,0,0,0,0,0,0,0,0,0,0,0,0,,0.0,,,,,38.985771,-76.950218,0.2,47.7,33.0,3.0,0.8,0.0,0.0,-1.0,0.0,,0.0,0.0,0.045
135,747522,1745294981034,0.0453,0.0,14.0,,-0.08,-0.07,0.97,-1.0,0.0,0.0,0.97,1.11,88.0,3282.0,6.8,3.9,,13.03,1.159,109.6,,32.1,5.0,,,,,,,,,,,,0,0,0,0,0,0,0,0,0,0,0,0,0,0,0,0,,,,,,0.0,,,,,,,,,,,,,,,
136,747542,1745294981054,0.0457,,,,,,,,,,,,,,,,,,,,,,,,,,,,,,,,,,0,0,0,0,0,0,0,0,0,0,0,0,0,0,0,0,,,,,,,,,,,,,,,,,,,,,
137,747562,1745294981074,0.046,0.0,5.0,,-0.08,0.0,0.99,2.0,0.0,0.0,1.0,1.11,90.0,3282.0,6.8,3.9,,13.05,1.087,109.6,,32.1,5.0,,,,,,,,,,,,0,0,0,0,0,0,0,0,0,0,0,0,0,0,0,0,,,,,,0.0,,,,,,,,,,,,,,,
138,747582,1745294981094,0.0463,,,,,,,,,,,,,,,,,,,,,,,,,,,,,,,,,,0,0,0,0,0,0,0,0,0,0,0,0,0,0,0,0,,,,,,,,,,,,,,,,,,,,,
139,747602,1745294981120,0.0466,0.0,3.0,,-0.07,-0.12,1.02,0.0,0.0,0.0,1.03,1.11,93.0,3302.0,6.8,3.89,,13.0,1.071,109.6,,32.9,5.0,0.0,0.0,0.0,0.0,0.0,0.0,0.0,0.0,2.26,,,0,0,0,0,0,0,0,0,0,0,0,0,0,0,0,0,,0.0,,,,0.0,38.985771,-76.950218,0.04,47.7,33.0,3.0,0.8,0.0,0.0,-1.0,0.0,0.0,0.0,0.0,0.0466
140,747622,1745294981140,0.047,,,,,,,,,,,,,,,,,,,,,,,,,,,,,,,,,,0,0,0,0,0,0,0,0,0,0,0,0,0,0,0,0,,,,,,,,,,,,,,,,,,,,,
141,747642,1745294981160,0.0473,0.0,8.0,,-0.09,0.01,0.94,0.0,0.0,0.0,0.95,1.11,85.0,3264.0,6.9,3.86,,13.0,1.078,109.6,,32.9,5.0,,,,,,,,,,,,0,0,0,0,0,0,0,0,0,0,0,0,0,0,0,0,,,,,,0.0,,,,,,,,,,,,,,,
142,747662,1745294981180,0.0476,,,,,,,,,,,,,,,,,,,,,,,,,,,,,,,,,,0,0,0,0,0,0,0,0,0,0,0,0,0,0,0,0,,,,,,,,,,,,,,,,,,,,,
143,747682,1745294981200,0.048,0.0,-19.0,,-0.06,-0.07,1.03,2.0,0.0,0.0,1.04,1.11,93.0,3306.0,7.1,3.86,,13.05,1.106,109.6,,32.9,5.0,,,,,,,,,,,,0,0,0,0,0,0,0,0,0,0,0,0,0,0,0,0,,,,,,0.0,,,,,,,,,,,,,,,
144,747702,1745294981214,0.0483,,,,,,,,,,,,,,,,,,,,,,,0.0,0.0,0.0,0.0,0.0,0.0,0.0,0.0,2.26,,,0,0,0,0,0,0,0,0,0,0,0,0,0,0,0,0,,0.0,,,,,38.985771,-76.950218,0.05,47.7,33.0,3.0,0.8,0.0,0.0,-1.0,0.0,,0.0,0.0,0.0483
145,747722,1745294981234,0.0486,0.0,17.0,,-0.08,-0.06,0.99,-1.0,0.0,0.0,0.99,1.11,89.0,3345.0,7.1,3.88,,13.05,1.106,109.6,,33.0,5.0,,,,,,,,,,,,0,0,0,0,0,0,0,0,0,0,0,0,0,0,0,0,,,,,,0.0,,,,,,,,,,,,,,,
146,747742,1745294981254,0.049,,,,,,,,,,,,,,,,,,,,,,,,,,,,,,,,,,0,0,0,0,0,0,0,0,0,0,0,0,0,0,0,0,,,,,,,,,,,,,,,,,,,,,
147,747762,1745294981274,0.0493,0.0,-4.0,,-0.08,-0.05,0.98,2.0,0.0,0.0,0.98,1.11,89.0,3345.0,7.1,3.88,,13.04,1.134,109.6,,33.0,5.0,,,,,,,,,,,,0,0,0,0,0,0,0,0,0,0,0,0,0,0,0,0,,,,,,0.0,,,,,,,,,,,,,,,
148,747782,1745294981302,0.0496,,,,,,,,,,,,,,,,,,,,,,,,,,,,,,,,,,0,0,0,0,0,0,0,0,0,0,0,0,0,0,0,0,,,,,,,,,,,,,,,,,,,,,
149,747802,1745294981322,0.05,0.0,3.0,,-0.05,-0.16,1.0,0.0,0.0,0.0,1.02,1.11,92.0,3305.0,4.1,4.14,,12.96,1.134,109.6,,33.6,5.0,0.0,0.0,0.0,0.0,0.0,0.0,0.0,0.0,2.26,,,0,0,0,0,0,0,0,0,0,0,0,0,0,0,0,0,,0.0,,,,0.0,38.985771,-76.950218,0.05,47.7,33.0,3.0,0.8,0.0,0.0,-1.0,0.0,0.0,0.0,0.0,0.05
150,747822,1745294981342,0.0503,,,,,,,,,,,,,,,,,,,,,,,,,,,,,,,,,,0,0,0,0,0,0,0,0,0,0,0,0,0,0,0,0,,,,,,,,,,,,,,,,,,,,,
151,747842,1745294981362,0.0506,0.0,8.0,,-0.07,-0.16,1.01,0.0,0.0,0.0,1.03,1.11,93.0,3578.0,3.4,3.97,,12.77,1.159,109.6,,33.6,5.0,,,,,,,,,,,,0,0,0,0,0,0,0,0,0,0,0,0,0,0,0,0,,,,,,0.0,,,,,,,,,,,,,,,
152,747862,1745294981382,0.051,,,,,,,,,,,,,,,,,,,,,,,,,,,,,,,,,,0,0,0,0,0,0,0,0,0,0,0,0,0,0,0,0,,,,,,,,,,,,,,,,,,,,,
153,747882,1745294981402,0.0513,0.0,-8.0,,-0.09,-0.05,1.03,1.0,0.0,0.0,1.04,1.11,93.0,3620.0,3.2,3.88,,12.63,1.166,109.6,,33.6,5.0,,,,,,,,,,,,0,0,0,0,0,0,0,0,0,0,0,0,0,0,0,0,,,,,,0.0,,,,,,,,,,,,,,,
154,747902,1745294981422,0.0516,,,,,,,,,,,,,,,,,,,,,,,0.0,0.0,0.0,0.0,0.0,0.0,0.0,0.0,2.26,,,0,0,0,0,0,0,0,0,0,0,0,0,0,0,0,0,,0.0,,,,,38.985771,-76.950218,0.04,47.7,33.0,3.0,0.8,0.0,0.0,-1.0,0.0,,0.0,0.0,0.0516
155,747922,1745294981442,0.052,0.0,20.0,,-0.08,-0.01,1.02,1.0,0.0,0.0,1.03,1.11,92.0,3612.0,3.2,3.9,,12.63,1.166,109.6,,37.0,5.0,,,,,,,,,,,,0,0,0,0,0,0,0,0,0,0,0,0,0,0,0,0,,,,,,0.0,,,,,,,,,,,,,,,
156,747942,1745294981462,0.0523,,,,,,,,,,,,,,,,,,,,,,,,,,,,,,,,,,0,0,0,0,0,0,0,0,0,0,0,0,0,0,0,0,,,,,,,,,,,,,,,,,,,,,
157,747962,1745294981482,0.0526,0.0,5.0,,-0.07,-0.05,1.01,1.0,0.0,0.0,1.01,1.11,91.0,3612.0,3.2,3.9,,12.52,1.084,109.6,,37.0,5.0,,,,,,,,,,,,0,0,0,0,0,0,0,0,0,0,0,0,0,0,0,0,,,,,,0.0,,,,,,,,,,,,,,,
158,747982,1745294981502,0.053,,,,,,,,,,,,,,,,,,,,,,,,,,,,,,,,,,0,0,0,0,0,0,0,0,0,0,0,0,0,0,0,0,,,,,,,,,,,,,,,,,,,,,
159,748002,1745294981522,0.0533,0.0,0.0,,-0.07,-0.08,1.01,1.0,0.0,0.0,1.02,1.11,92.0,3718.0,3.0,3.84,,12.35,1.072,109.6,,38.7,5.0,0.0,0.0,0.0,0.0,0.0,0.0,0.0,0.0,2.27,,,0,0,0,0,0,0,0,0,0,0,0,0,0,0,0,0,,0.0,,,,0.0,38.985771,-76.950218,0.0,47.7,33.0,3.0,0.8,0.0,0.0,-1.0,0.0,0.0,0.0,0.0,0.0533
160,748022,1745294981542,0.0536,,,,,,,,,,,,,,,,,,,,,,,,,,,,,,,,,,0,0,0,0,0,0,0,0,0,0,0,0,0,0,0,0,,,,,,,,,,,,,,,,,,,,,
161,748042,1745294981562,0.054,0.0,14.0,,-0.08,-0.12,0.98,0.0,0.0,0.0,0.99,1.11,90.0,3889.0,3.1,3.73,,12.25,1.041,109.6,,38.7,5.0,,,,,,,,,,,,0,0,0,0,0,0,0,0,0,0,0,0,0,0,0,0,,,,,,0.0,,,,,,,,,,,,,,,
162,748062,1745294981582,0.0543,,,,,,,,,,,,,,,,,,,,,,,,,,,,,,,,,,0,0,0,0,0,0,0,0,0,0,0,0,0,0,0,0,,,,,,,,,,,,,,,,,,,,,
163,748082,1745294981601,0.0546,0.0,-8.0,,-0.07,-0.15,0.99,0.0,0.0,0.0,1.0,1.11,90.0,3933.0,3.2,3.75,,12.17,0.977,109.6,,38.7,5.0,,,,,,,,,,,,0,0,0,0,0,0,0,0,0,0,0,0,0,0,0,0,,,,,,0.0,,,,,,,,,,,,,,,
164,748102,1745294981621,0.055,,,,,,,,,,,,,,,,,,,,,,,0.0,0.0,0.0,0.0,0.0,0.0,0.0,0.0,2.26,,,0,0,0,0,0,0,0,0,0,0,0,0,0,0,0,0,,0.0,,,,,38.985771,-76.950218,0.04,47.7,33.0,3.0,0.8,0.0,0.0,-1.0,0.0,,0.0,0.0,0.055
165,748122,1745294981641,0.0553,0.0,17.0,,-0.07,-0.09,1.01,0.0,0.0,0.0,1.01,1.11,91.0,3841.0,3.2,3.76,,12.17,0.977,109.6,,40.5,5.0,,,,,,,,,,,,0,0,0,0,0,0,0,0,0,0,0,0,0,0,0,0,,,,,,0.0,,,,,,,,,,,,,,,
166,748142,1745294981661,0.0556,,,,,,,,,,,,,,,,,,,,,,,,,,,,,,,,,,0,0,0,0,0,0,0,0,0,0,0,0,0,0,0,0,,,,,,,,,,,,,,,,,,,,,
167,748162,1745294981681,0.056,0.0,11.0,,-0.07,-0.05,1.01,1.0,0.0,0.0,1.01,1.11,91.0,3841.0,3.2,3.76,,12.11,0.948,109.6,,40.5,5.0,,,,,,,,,,,,0,0,0,0,0,0,0,0,0,0,0,0,0,0,0,0,,,,,,0.0,,,,,,,,,,,,,,,
168,748182,1745294981701,0.0563,,,,,,,,,,,,,,,,,,,,,,,,,,,,,,,,,,0,0,0,0,0,0,0,0,0,0,0,0,0,0,0,0,,,,,,,,,,,,,,,,,,,,,
169,748202,1745294981721,0.0566,0.0,11.0,,-0.06,-0.1,0.98,0.0,0.0,0.0,0.99,1.11,89.0,3752.0,3.3,3.78,,12.09,0.925,109.6,,38.5,5.0,0.0,0.0,0.0,0.0,0.0,0.0,0.0,0.0,2.26,,,0,0,0,0,0,0,0,0,0,0,0,0,0,0,0,0,,0.0,,,,0.0,38.985771,-76.950218,0.0,47.7,33.0,3.0,0.8,0.0,0.0,-1.0,0.0,0.0,0.0,0.0,0.0566
170,748222,1745294981741,0.057,,,,,,,,,,,,,,,,,,,,,,,,,,,,,,,,,,0,0,0,0,0,0,0,0,0,0,0,0,0,0,0,0,,,,,,,,,,,,,,,,,,,,,
171,748242,1745294981761,0.0573,0.0,11.0,,-0.06,-0.17,1.02,0.0,0.0,0.0,1.04,1.11,93.0,3630.0,1.2,3.09,,12.04,0.933,109.6,,38.5,5.0,,,,,,,,,,,,0,0,0,0,0,0,0,0,0,0,0,0,0,0,0,0,,,,,,0.0,,,,,,,,,,,,,,,
172,748262,1745294981781,0.0576,,,,,,,,,,,,,,,,,,,,,,,,,,,,,,,,,,0,0,0,0,0,0,0,0,0,0,0,0,0,0,0,0,,,,,,,,,,,,,,,,,,,,,
173,748282,1745294981801,0.058,0.0,28.0,,-0.06,-0.04,1.02,1.0,0.0,0.0,1.02,1.11,92.0,3518.0,0.8,3.01,,12.04,0.974,109.6,,38.5,5.0,,,,,,,,,,,,0,0,0,0,0,0,0,0,0,0,0,0,0,0,0,0,,,,,,0.0,,,,,,,,,,,,,,,
174,748302,1745294981821,0.0583,,,,,,,,,,,,,,,,,,,,,,,0.0,0.0,0.0,0.0,0.0,0.0,0.0,0.0,2.26,,,0,0,0,0,0,0,0,0,0,0,0,0,0,0,0,0,,0.0,,,,,38.985771,-76.950218,0.04,47.7,33.0,3.0,0.8,0.0,0.0,-1.0,0.0,,0.0,0.0,0.0583
175,748322,1745294981841,0.0586,0.0,17.0,,-0.05,-0.07,0.98,0.0,0.0,0.0,0.98,1.11,89.0,3474.0,0.6,3.1,,12.04,0.974,109.6,,35.2,5.0,,,,,,,,,,,,0,0,0,0,0,0,0,0,0,0,0,0,0,0,0,0,,,,,,0.0,,,,,,,,,,,,,,,
176,748342,1745294981861,0.059,,,,,,,,,,,,,,,,,,,,,,,,,,,,,,,,,,0,0,0,0,0,0,0,0,0,0,0,0,0,0,0,0,,,,,,,,,,,,,,,,,,,,,
177,748362,1745294981881,0.0593,0.0,14.0,,-0.06,-0.15,1.03,0.0,0.0,0.0,1.04,1.11,94.0,3474.0,0.6,3.1,,12.09,1.021,109.6,,35.2,5.0,,,,,,,,,,,,0,0,0,0,0,0,0,0,0,0,0,0,0,0,0,0,,,,,,0.0,,,,,,,,,,,,,,,
178,748382,1745294981901,0.0596,,,,,,,,,,,,,,,,,,,,,,,,,,,,,,,,,,0,0,0,0,0,0,0,0,0,0,0,0,0,0,0,0,,,,,,,,,,,,,,,,,,,,,
179,748402,1745294981921,0.06,0.0,14.0,13.7,-0.06,0.01,1.04,1.0,0.0,0.0,1.04,1.11,93.0,3576.0,0.6,3.04,15.0,12.11,1.109,109.6,176.0,36.1,5.0,0.0,0.0,0.0,0.0,0.0,0.0,0.0,0.0,2.26,0.0,1.0,0,0,0,0,0,0,0,0,0,0,0,0,0,0,0,0,0.0,0.0,1.0,0.0,0.0,0.0,38.985771,-76.950218,0.11,47.7,33.0,3.0,0.8,0.0,0.0,-1.0,0.0,0.0,0.0,0.0,0.06
180,748422,1745294981941,0.0603,,,,,,,,,,,,,,,,,,,,,,,,,,,,,,,,,,0,0,0,0,0,0,0,0,0,0,0,0,0,0,0,0,,,,,,,,,,,,,,,,,,,,,
181,748442,1745294981961,0.0606,0.0,22.0,,-0.06,-0.05,0.99,-1.0,0.0,0.0,0.99,1.11,90.0,3413.0,0.7,3.09,,12.15,1.08,109.6,,36.1,5.0,,,,,,,,,,,,0,0,0,0,0,0,0,0,0,0,0,0,0,0,0,0,,,,,,0.0,,,,,,,,,,,,,,,
182,748462,1745294981981,0.061,,,,,,,,,,,,,,,,,,,,,,,,,,,,,,,,,,0,0,0,0,0,0,0,0,0,0,0,0,0,0,0,0,,,,,,,,,,,,,,,,,,,,,
183,748482,1745294982001,0.0613,0.0,11.0,,-0.06,0.01,0.98,2.0,0.0,0.0,0.98,1.11,89.0,3299.0,0.6,3.18,,12.23,1.02,109.6,,36.1,5.0,,,,,,,,,,,,0,0,0,0,0,0,0,0,0,0,0,0,0,0,0,0,,,,,,0.0,,,,,,,,,,,,,,,
184,748502,1745294982013,0.0616,,,,,,,,,,,,,,,,,,,,,,,0.0,0.0,0.0,0.0,0.0,0.0,0.0,0.0,2.27,,,0,0,0,0,0,0,0,0,0,0,0,0,0,0,0,0,,0.0,,,,,38.985771,-76.950218,0.04,47.7,33.0,3.0,0.8,0.0,0.0,-1.0,0.0,,0.0,0.0,0.0616
185,748522,1745294982033,0.062,0.0,14.0,,-0.03,-0.09,1.07,0.0,0.0,0.0,1.07,1.11,96.0,3224.0,0.6,3.26,,12.23,1.02,109.6,,32.8,5.0,,,,,,,,,,,,0,0,0,0,0,0,0,0,0,0,0,0,0,0,0,0,,,,,,0.0,,,,,,,,,,,,,,,
186,748542,1745294982053,0.0623,,,,,,,,,,,,,,,,,,,,,,,,,,,,,,,,,,0,0,0,0,0,0,0,0,0,0,0,0,0,0,0,0,,,,,,,,,,,,,,,,,,,,,
187,748562,1745294982073,0.0626,0.0,17.0,,-0.06,-0.15,1.09,-2.0,0.0,0.0,1.1,1.11,99.0,3224.0,0.6,3.26,,12.27,1.019,109.6,,32.8,5.0,,,,,,,,,,,,0,0,0,0,0,0,0,0,0,0,0,0,0,0,0,0,,,,,,0.0,,,,,,,,,,,,,,,
188,748582,1745294982093,0.063,,,,,,,,,,,,,,,,,,,,,,,,,,,,,,,,,,0,0,0,0,0,0,0,0,0,0,0,0,0,0,0,0,,,,,,,,,,,,,,,,,,,,,
189,748602,1745294982115,0.0633,0.0,5.0,,-0.09,-0.07,1.02,-2.0,0.0,0.0,1.03,1.11,93.0,3095.0,1.0,3.39,,12.4,1.048,109.6,,30.9,5.0,0.0,0.0,0.0,0.0,0.0,0.0,0.0,0.0,2.26,,,0,0,0,0,0,0,0,0,0,0,0,0,0,0,0,0,,0.0,,,,0.0,38.985771,-76.950218,0.0,47.7,33.0,3.0,0.8,0.0,0.0,-1.0,0.0,0.0,0.0,0.0,0.0633
190,748622,1745294982135,0.0636,,,,,,,,,,,,,,,,,,,,,,,,,,,,,,,,,,0,0,0,0,0,0,0,0,0,0,0,0,0,0,0,0,,,,,,,,,,,,,,,,,,,,,
191,748642,1745294982155,0.064,0.0,22.0,,-0.08,0.04,0.97,1.0,0.0,0.0,0.98,1.11,88.0,3262.0,1.6,3.55,,12.51,1.081,107.8,,30.9,5.0,,,,,,,,,,,,0,0,0,0,0,0,0,0,0,0,0,0,0,0,0,0,,,,,,0.0,,,,,,,,,,,,,,,
192,748662,1745294982175,0.0643,,,,,,,,,,,,,,,,,,,,,,,,,,,,,,,,,,0,0,0,0,0,0,0,0,0,0,0,0,0,0,0,0,,,,,,,,,,,,,,,,,,,,,
193,748682,1745294982201,0.0646,0.0,11.0,,-0.07,-0.07,1.06,-1.0,0.0,0.0,1.06,1.11,96.0,3344.0,3.9,4.08,,12.65,1.151,107.8,,30.9,5.0,,,,,,,,,,,,0,0,0,0,0,0,0,0,0,0,0,0,0,0,0,0,,,,,,0.0,,,,,,,,,,,,,,,
194,748702,1745294982221,0.065,,,,,,,,,,,,,,,,,,,,,,,0.0,0.0,0.0,0.0,0.0,0.0,0.0,0.0,2.26,,,0,0,0,0,0,0,0,0,0,0,0,0,0,0,0,0,,0.0,,,,,38.985771,-76.950218,0.11,47.7,33.0,3.0,0.8,0.0,0.0,-1.0,0.0,,0.0,0.0,0.065
195,748722,1745294982241,0.0653,0.0,25.0,,-0.09,-0.03,0.96,0.0,0.0,0.0,0.96,1.11,87.0,3258.0,4.3,4.14,,12.65,1.151,107.8,,33.1,5.0,,,,,,,,,,,,0,0,0,0,0,0,0,0,0,0,0,0,0,0,0,0,,,,,,0.0,,,,,,,,,,,,,,,
196,748742,1745294982261,0.0656,,,,,,,,,,,,,,,,,,,,,,,,,,,,,,,,,,0,0,0,0,0,0,0,0,0,0,0,0,0,0,0,0,,,,,,,,,,,,,,,,,,,,,
197,748762,1745294982281,0.066,0.0,17.0,,-0.07,0.02,0.98,1.0,0.0,0.0,0.98,1.11,89.0,3258.0,4.3,4.14,,12.76,1.117,107.8,,33.1,5.0,,,,,,,,,,,,0,0,0,0,0,0,0,0,0,0,0,0,0,0,0,0,,,,,,0.0,,,,,,,,,,,,,,,
198,748782,1745294982301,0.0663,,,,,,,,,,,,,,,,,,,,,,,,,,,,,,,,,,0,0,0,0,0,0,0,0,0,0,0,0,0,0,0,0,,,,,,,,,,,,,,,,,,,,,
199,748802,1745294982321,0.0667,0.0,11.0,,-0.06,-0.06,1.06,0.0,0.0,0.0,1.06,1.11,95.0,3233.0,6.1,3.99,,12.95,1.084,107.8,,31.9,5.0,0.0,0.0,0.0,0.0,0.0,0.0,0.0,0.0,2.26,,,0,0,0,0,0,0,0,0,0,0,0,0,0,0,0,0,,0.0,,,,0.0,38.985771,-76.950218,0.07,47.7,33.0,3.0,0.8,0.0,0.0,-1.0,0.0,0.0,0.0,0.0,0.0667
200,748822,1745294982341,0.067,,,,,,,,,,,,,,,,,,,,,,,,,,,,,,,,,,0,0,0,0,0,0,0,0,0,0,0,0,0,0,0,0,,,,,,,,,,,,,,,,,,,,,
201,748842,1745294982361,0.0673,0.0,20.0,,-0.08,-0.05,0.99,-2.0,0.0,0.0,0.99,1.11,89.0,3247.0,6.6,3.94,,12.93,1.059,107.8,,31.9,5.0,,,,,,,,,,,,0,0,0,0,0,0,0,0,0,0,0,0,0,0,0,0,,,,,,0.0,,,,,,,,,,,,,,,
202,748862,1745294982381,0.0676,,,,,,,,,,,,,,,,,,,,,,,,,,,,,,,,,,0,0,0,0,0,0,0,0,0,0,0,0,0,0,0,0,,,,,,,,,,,,,,,,,,,,,
203,748882,1745294982403,0.068,0.0,20.0,,-0.08,0.04,0.97,1.0,0.0,0.0,0.97,1.11,88.0,3204.0,6.5,3.93,,13.01,1.016,107.8,,31.9,5.0,,,,,,,,,,,,0,0,0,0,0,0,0,0,0,0,0,0,0,0,0,0,,,,,,0.0,,,,,,,,,,,,,,,
204,748902,1745294982423,0.0683,,,,,,,,,,,,,,,,,,,,,,,0.0,0.0,0.0,0.0,0.0,0.0,0.0,0.0,2.27,,,0,0,0,0,0,0,0,0,0,0,0,0,0,0,0,0,,0.0,,,,,38.985771,-76.950218,0.04,47.7,33.0,3.0,0.8,0.0,0.0,-1.0,0.0,,0.0,0.0,0.0683
205,748922,1745294982443,0.0686,0.0,20.0,,-0.05,-0.07,1.05,0.0,0.0,0.0,1.05,1.11,95.0,3290.0,6.5,3.93,,13.01,1.016,107.8,,32.9,5.0,,,,,,,,,,,,0,0,0,0,0,0,0,0,0,0,0,0,0,0,0,0,,,,,,0.0,,,,,,,,,,,,,,,
206,748942,1745294982463,0.069,,,,,,,,,,,,,,,,,,,,,,,,,,,,,,,,,,0,0,0,0,0,0,0,0,0,0,0,0,0,0,0,0,,,,,,,,,,,,,,,,,,,,,
207,748962,1745294982483,0.0693,0.0,17.0,,-0.06,0.01,1.0,1.0,0.0,0.0,1.0,1.11,90.0,3290.0,6.5,3.93,,13.09,1.01,107.8,,32.9,5.0,,,,,,,,,,,,0,0,0,0,0,0,0,0,0,0,0,0,0,0,0,0,,,,,,0.0,,,,,,,,,,,,,,,
208,748982,1745294982501,0.0696,,,,,,,,,,,,,,,,,,,,,,,,,,,,,,,,,,0,0,0,0,0,0,0,0,0,0,0,0,0,0,0,0,,,,,,,,,,,,,,,,,,,,,
209,749002,1745294982521,0.07,0.0,11.0,,-0.05,-0.04,0.97,-1.0,0.0,0.0,0.97,1.11,88.0,3512.0,8.8,3.7,,13.08,1.078,107.8,,36.3,5.0,0.0,0.0,0.0,0.0,0.0,0.0,0.0,0.0,2.26,,,0,0,0,0,0,0,0,0,0,0,0,0,0,0,0,0,,0.0,,,,0.0,38.985771,-76.950218,0.04,47.7,33.0,3.0,0.8,0.0,0.0,-1.0,0.0,0.0,0.0,0.0,0.07
210,749022,1745294982541,0.0703,,,,,,,,,,,,,,,,,,,,,,,,,,,,,,,,,,0,0,0,0,0,0,0,0,0,0,0,0,0,0,0,0,,,,,,,,,,,,,,,,,,,,,
211,749042,1745294982561,0.0706,0.0,28.0,,-0.07,-0.06,1.01,-1.0,0.0,0.0,1.01,1.11,91.0,3604.0,10.8,3.84,,13.27,1.126,107.8,,36.3,5.0,,,,,,,,,,,,0,0,0,0,0,0,0,0,0,0,0,0,0,0,0,0,,,,,,0.0,,,,,,,,,,,,,,,
212,749062,1745294982581,0.071,,,,,,,,,,,,,,,,,,,,,,,,,,,,,,,,,,0,0,0,0,0,0,0,0,0,0,0,0,0,0,0,0,,,,,,,,,,,,,,,,,,,,,
213,749082,1745294982602,0.0713,0.0,8.0,,-0.07,-0.06,1.02,-1.0,0.0,0.0,1.02,1.11,92.0,3604.0,11.0,3.81,,13.29,1.082,107.8,,36.3,5.0,,,,,,,,,,,,0,0,0,0,0,0,0,0,0,0,0,0,0,0,0,0,,,,,,0.0,,,,,,,,,,,,,,,
214,749102,1745294982622,0.0716,,,,,,,,,,,,,,,,,,,,,,,0.0,0.0,0.0,0.0,0.0,0.0,0.0,0.0,2.25,,,0,0,0,0,0,0,0,0,0,0,0,0,0,0,0,0,,0.0,,,,,38.985771,-76.950218,0.0,47.7,33.0,3.0,0.8,0.0,0.0,-1.0,0.0,,0.0,0.0,0.0716
215,749122,1745294982642,0.072,0.0,20.0,,-0.09,0.01,1.02,0.0,0.0,0.0,1.02,1.11,92.0,3697.0,11.0,3.84,,13.29,1.082,107.8,,37.1,5.0,,,,,,,,,,,,0,0,0,0,0,0,0,0,0,0,0,0,0,0,0,0,,,,,,0.0,,,,,,,,,,,,,,,
216,749142,1745294982662,0.0723,,,,,,,,,,,,,,,,,,,,,,,,,,,,,,,,,,0,0,0,0,0,0,0,0,0,0,0,0,0,0,0,0,,,,,,,,,,,,,,,,,,,,,
217,749162,1745294982682,0.0726,0.0,17.0,,-0.08,-0.0,1.02,0.0,0.0,0.0,1.03,1.11,92.0,3697.0,11.0,3.84,,13.29,1.058,107.8,,37.1,5.0,,,,,,,,,,,,0,0,0,0,0,0,0,0,0,0,0,0,0,0,0,0,,,,,,0.0,,,,,,,,,,,,,,,
218,749182,1745294982702,0.073,,,,,,,,,,,,,,,,,,,,,,,,,,,,,,,,,,0,0,0,0,0,0,0,0,0,0,0,0,0,0,0,0,,,,,,,,,,,,,,,,,,,,,
219,749202,1745294982720,0.0733,0.0,22.0,,-0.08,-0.0,0.99,0.0,0.0,0.0,0.99,1.11,89.0,3727.0,10.9,3.7,,13.23,1.082,107.8,,38.8,5.0,0.0,0.0,0.0,0.0,0.0,0.0,0.0,0.0,2.26,,,0,0,0,0,0,0,0,0,0,0,0,0,0,0,0,0,,0.0,,,,0.0,38.985771,-76.950218,0.1,47.7,33.0,3.0,0.8,0.0,0.0,-1.0,0.0,0.0,0.0,0.0,0.0733
220,749222,1745294982740,0.0736,,,,,,,,,,,,,,,,,,,,,,,,,,,,,,,,,,0,0,0,0,0,0,0,0,0,0,0,0,0,0,0,0,,,,,,,,,,,,,,,,,,,,,
221,749242,1745294982760,0.074,0.0,17.0,,-0.07,-0.03,0.95,-1.0,0.0,0.0,0.95,1.11,85.0,3900.0,11.1,3.65,,13.17,1.128,107.8,,38.8,5.0,,,,,,,,,,,,0,0,0,0,0,0,0,0,0,0,0,0,0,0,0,0,,,,,,0.0,,,,,,,,,,,,,,,
222,749262,1745294982780,0.0743,,,,,,,,,,,,,,,,,,,,,,,,,,,,,,,,,,0,0,0,0,0,0,0,0,0,0,0,0,0,0,0,0,,,,,,,,,,,,,,,,,,,,,
223,749282,1745294982802,0.0746,0.0,14.0,,-0.07,0.01,0.96,0.0,0.0,0.0,0.96,1.11,87.0,3897.0,11.1,3.56,,13.16,1.162,107.8,,38.8,5.0,,,,,,,,,,,,0,0,0,0,0,0,0,0,0,0,0,0,0,0,0,0,,,,,,0.0,,,,,,,,,,,,,,,
224,749302,1745294982822,0.075,,,,,,,,,,,,,,,,,,,,,,,0.0,0.0,0.0,0.0,0.0,0.0,0.0,0.0,2.26,,,0,0,0,0,0,0,0,0,0,0,0,0,0,0,0,0,,0.0,,,,,38.985771,-76.950218,0.0,47.7,33.0,3.0,0.8,0.0,0.0,-1.0,0.0,,0.0,0.0,0.075
225,749322,1745294982842,0.0753,0.0,25.0,,-0.08,0.0,1.0,0.0,0.0,0.0,1.0,1.11,90.0,3968.0,11.0,3.49,,13.16,1.162,107.8,,40.9,5.0,,,,,,,,,,,,0,0,0,0,0,0,0,0,0,0,0,0,0,0,0,0,,,,,,0.0,,,,,,,,,,,,,,,
226,749342,1745294982862,0.0756,,,,,,,,,,,,,,,,,,,,,,,,,,,,,,,,,,0,0,0,0,0,0,0,0,0,0,0,0,0,0,0,0,,,,,,,,,,,,,,,,,,,,,
227,749362,1745294982882,0.076,0.0,25.0,,-0.09,-0.11,0.92,-1.0,0.0,0.0,0.93,1.11,84.0,3968.0,11.0,3.49,,13.16,1.193,107.8,,40.9,5.0,,,,,,,,,,,,0,0,0,0,0,0,0,0,0,0,0,0,0,0,0,0,,,,,,0.0,,,,,,,,,,,,,,,
228,749382,1745294982902,0.0763,,,,,,,,,,,,,,,,,,,,,,,,,,,,,,,,,,0,0,0,0,0,0,0,0,0,0,0,0,0,0,0,0,,,,,,,,,,,,,,,,,,,,,
229,749402,1745294982922,0.0766,0.0,17.0,13.8,-0.09,-0.04,0.94,-1.0,0.0,0.0,0.95,1.11,86.0,4027.0,11.0,3.52,15.0,13.08,1.208,107.8,176.0,41.8,5.0,0.0,0.0,0.0,0.0,0.0,0.0,0.0,0.0,2.27,0.0,1.0,0,0,0,0,0,0,0,0,0,0,0,0,0,0,0,0,0.0,0.0,1.0,0.0,0.0,0.0,38.985771,-76.950218,0.04,47.7,33.0,3.0,0.8,0.0,0.0,-1.0,0.0,0.0,0.0,0.0,0.0766
230,749422,1745294982942,0.077,,,,,,,,,,,,,,,,,,,,,,,,,,,,,,,,,,0,0,0,0,0,0,0,0,0,0,0,0,0,0,0,0,,,,,,,,,,,,,,,,,,,,,
231,749442,1745294982962,0.0773,0.0,22.0,,-0.11,-0.04,0.99,-1.0,0.0,0.0,0.99,1.11,89.0,3992.0,10.8,3.47,,13.11,1.216,107.8,,41.8,5.0,,,,,,,,,,,,0,0,0,0,0,0,0,0,0,0,0,0,0,0,0,0,,,,,,0.0,,,,,,,,,,,,,,,
232,749462,1745294982982,0.0777,,,,,,,,,,,,,,,,,,,,,,,,,,,,,,,,,,0,0,0,0,0,0,0,0,0,0,0,0,0,0,0,0,,,,,,,,,,,,,,,,,,,,,
233,749482,1745294983002,0.078,0.0,17.0,,-0.1,-0.13,0.91,-2.0,0.0,-1.0,0.92,1.11,83.0,3983.0,10.7,3.47,,13.08,1.231,107.8,,41.8,5.0,,,,,,,,,,,,0,0,0,0,0,0,0,0,0,0,0,0,0,0,0,0,,,,,,0.0,,,,,,,,,,,,,,,
234,749502,1745294983014,0.0783,,,,,,,,,,,,,,,,,,,,,,,0.0,0.0,0.0,0.0,0.0,0.0,0.0,0.0,2.26,,,0,0,0,0,0,0,0,0,0,0,0,0,0,0,0,0,,0.0,,,,,38.985771,-76.950218,0.04,47.7,33.0,3.0,0.8,0.0,0.0,-1.0,0.0,,0.0,0.0,0.0783
235,749522,1745294983034,0.0786,0.0,34.0,,-0.1,-0.04,0.94,-1.0,0.0,-1.0,0.95,1.11,85.0,4008.0,10.7,3.51,,13.08,1.231,107.8,,41.9,5.0,,,,,,,,,,,,0,0,0,0,0,0,0,0,0,0,0,0,0,0,0,0,,,,,,0.0,,,,,,,,,,,,,,,
236,749542,1745294983054,0.079,,,,,,,,,,,,,,,,,,,,,,,,,,,,,,,,,,0,0,0,0,0,0,0,0,0,0,0,0,0,0,0,0,,,,,,,,,,,,,,,,,,,,,
237,749562,1745294983074,0.0793,0.0,17.0,,-0.11,-0.07,0.97,-1.0,0.0,0.0,0.97,1.11,88.0,4008.0,10.7,3.51,,13.04,1.244,107.8,,41.9,5.0,,,,,,,,,,,,0,0,0,0,0,0,0,0,0,0,0,0,0,0,0,0,,,,,,0.0,,,,,,,,,,,,,,,
238,749582,1745294983094,0.0796,,,,,,,,,,,,,,,,,,,,,,,,,,,,,,,,,,0,0,0,0,0,0,0,0,0,0,0,0,0,0,0,0,,,,,,,,,,,,,,,,,,,,,
239,749602,1745294983120,0.08,0.0,17.0,,-0.09,-0.13,0.9,-2.0,0.0,-1.0,0.91,1.11,82.0,4005.0,10.7,3.47,,13.11,1.25,107.8,,42.1,5.0,0.0,0.0,0.0,0.0,0.0,0.0,0.0,0.0,2.26,,,0,0,0,0,0,0,0,0,0,0,0,0,0,0,0,0,,0.0,,,,0.0,38.985771,-76.950218,0.0,47.7,33.0,3.0,0.8,0.0,0.0,-1.0,0.0,0.0,0.0,0.0,0.08
240,749622,1745294983140,0.0803,,,,,,,,,,,,,,,,,,,,,,,,,,,,,,,,,,0,0,0,0,0,0,0,0,0,0,0,0,0,0,0,0,,,,,,,,,,,,,,,,,,,,,
241,749642,1745294983160,0.0806,0.0,31.0,,-0.1,-0.01,0.97,0.0,0.0,0.0,0.97,1.11,88.0,4014.0,10.8,3.48,,13.11,1.25,107.8,,42.1,5.0,,,,,,,,,,,,0,0,0,0,0,0,0,0,0,0,0,0,0,0,0,0,,,,,,0.0,,,,,,,,,,,,,,,
242,749662,1745294983180,0.081,,,,,,,,,,,,,,,,,,,,,,,,,,,,,,,,,,0,0,0,0,0,0,0,0,0,0,0,0,0,0,0,0,,,,,,,,,,,,,,,,,,,,,
243,749682,1745294983200,0.0813,0.0,20.0,,-0.1,-0.1,0.94,-1.0,0.0,0.0,0.95,1.11,86.0,4023.0,13.8,3.51,,13.2,1.252,107.8,,42.1,5.0,,,,,,,,,,,,0,0,0,0,0,0,0,0,0,0,0,0,0,0,0,0,,,,,,0.0,,,,,,,,,,,,,,,
244,749702,1745294983220,0.0816,,,,,,,,,,,,,,,,,,,,,,,0.0,0.0,0.0,0.0,0.0,0.0,0.0,0.0,2.26,,,0,0,0,0,0,0,0,0,0,0,0,0,0,0,0,0,,0.0,,,,,38.985771,-76.950218,0.0,47.7,33.0,3.0,0.8,0.0,0.0,-1.0,0.0,,0.0,0.0,0.0816
245,749722,1745294983240,0.082,0.0,28.0,,-0.09,-0.09,0.89,-1.0,0.0,-1.0,0.9,1.11,81.0,4002.0,15.2,4.0,,13.2,1.252,107.8,,41.5,5.0,,,,,,,,,,,,0,0,0,0,0,0,0,0,0,0,0,0,0,0,0,0,,,,,,0.0,,,,,,,,,,,,,,,
246,749742,1745294983260,0.0823,,,,,,,,,,,,,,,,,,,,,,,,,,,,,,,,,,0,0,0,0,0,0,0,0,0,0,0,0,0,0,0,0,,,,,,,,,,,,,,,,,,,,,
247,749762,1745294983280,0.0826,0.0,22.0,,-0.09,0.01,0.97,0.0,0.0,0.0,0.97,1.11,88.0,4002.0,15.2,4.0,,13.35,1.245,107.8,,41.5,5.0,,,,,,,,,,,,0,0,0,0,0,0,0,0,0,0,0,0,0,0,0,0,,,,,,0.0,,,,,,,,,,,,,,,
248,749782,1745294983302,0.083,,,,,,,,,,,,,,,,,,,,,,,,,,,,,,,,,,0,0,0,0,0,0,0,0,0,0,0,0,0,0,0,0,,,,,,,,,,,,,,,,,,,,,
249,749802,1745294983322,0.0833,0.0,17.0,,-0.08,-0.11,0.9,-1.0,0.0,-1.0,0.91,1.11,82.0,4046.0,15.5,3.93,,13.51,1.251,107.8,,42.8,5.0,0.0,0.0,0.0,0.0,0.0,0.0,0.0,0.0,2.26,,,0,0,0,0,0,0,0,0,0,0,0,0,0,0,0,0,,0.0,,,,0.0,38.985771,-76.950218,0.0,47.7,33.0,3.0,0.8,0.0,0.0,-1.0,0.0,0.0,0.0,0.0,0.0833
250,749822,1745294983342,0.0836,,,,,,,,,,,,,,,,,,,,,,,,,,,,,,,,,,0,0,0,0,0,0,0,0,0,0,0,0,0,0,0,0,,,,,,,,,,,,,,,,,,,,,
251,749842,1745294983362,0.084,0.0,20.0,,-0.09,0.05,1.01,0.0,0.0,0.0,1.02,1.11,91.0,4193.0,20.0,4.18,,13.61,1.25,107.8,,42.8,5.0,,,,,,,,,,,,0,0,0,0,0,0,0,0,0,0,0,0,0,0,0,0,,,,,,0.0,,,,,,,,,,,,,,,
252,749862,1745294983382,0.0843,,,,,,,,,,,,,,,,,,,,,,,,,,,,,,,,,,0,0,0,0,0,0,0,0,0,0,0,0,0,0,0,0,,,,,,,,,,,,,,,,,,,,,
253,749882,1745294983402,0.0846,0.0,14.0,,-0.05,-0.0,0.97,0.0,0.0,0.0,0.97,1.11,87.0,4301.0,20.4,4.19,,13.64,1.249,107.8,,42.8,5.0,,,,,,,,,,,,0,0,0,0,0,0,0,0,0,0,0,0,0,0,0,0,,,,,,0.0,,,,,,,,,,,,,,,
254,749902,1745294983422,0.085,,,,,,,,,,,,,,,,,,,,,,,0.0,0.0,0.0,0.0,0.0,0.0,0.0,0.0,2.27,,,0,0,0,0,0,0,0,0,0,0,0,0,0,0,0,0,,0.0,,,,,38.985771,-76.950218,0.0,47.7,33.0,3.0,0.8,0.0,0.0,-1.0,0.0,,0.0,0.0,0.085
255,749922,1745294983442,0.0853,0.0,22.0,,-0.05,-0.08,0.88,0.0,0.0,-1.0,0.89,1.11,80.0,4409.0,20.5,4.11,,13.64,1.249,107.8,,45.3,5.0,,,,,,,,,,,,0,0,0,0,0,0,0,0,0,0,0,0,0,0,0,0,,,,,,0.0,,,,,,,,,,,,,,,
256,749942,1745294983462,0.0856,,,,,,,,,,,,,,,,,,,,,,,,,,,,,,,,,,0,0,0,0,0,0,0,0,0,0,0,0,0,0,0,0,,,,,,,,,,,,,,,,,,,,,
257,749962,1745294983482,0.086,0.0,25.0,,-0.08,-0.09,0.83,-1.0,0.0,-1.0,0.84,1.11,76.0,4409.0,20.5,4.11,,13.63,1.248,107.8,,45.3,5.0,,,,,,,,,,,,0,0,0,0,0,0,0,0,0,0,0,0,0,0,0,0,,,,,,0.0,,,,,,,,,,,,,,,
258,749982,1745294983502,0.0863,,,,,,,,,,,,,,,,,,,,,,,,,,,,,,,,,,0,0,0,0,0,0,0,0,0,0,0,0,0,0,0,0,,,,,,,,,,,,,,,,,,,,,
259,750002,1745294983522,0.0866,0.0,20.0,,-0.08,-0.1,0.77,-2.0,0.0,-1.0,0.78,1.11,71.0,4509.0,20.5,4.04,,13.64,1.248,107.8,,48.9,5.0,0.0,0.0,0.0,0.0,0.0,0.0,0.0,0.0,2.27,,,0,0,0,0,0,0,0,0,0,0,0,0,0,0,0,0,,0.0,,,,0.0,38.985771,-76.950218,0.04,47.7,33.0,3.0,0.8,0.0,0.0,-1.0,0.0,0.0,0.0,0.0,0.0866
260,750022,1745294983542,0.087,,,,,,,,,,,,,,,,,,,,,,,,,,,,,,,,,,0,0,0,0,0,0,0,0,0,0,0,0,0,0,0,0,,,,,,,,,,,,,,,,,,,,,
261,750042,1745294983562,0.0873,0.0,31.0,,-0.06,-0.05,0.87,-1.0,0.0,-1.0,0.87,1.11,78.0,4715.0,20.6,3.86,,13.67,1.249,107.8,,48.9,5.0,,,,,,,,,,,,0,0,0,0,0,0,0,0,0,0,0,0,0,0,0,0,,,,,,0.0,,,,,,,,,,,,,,,
262,750062,1745294983582,0.0876,,,,,,,,,,,,,,,,,,,,,,,,,,,,,,,,,,0,0,0,0,0,0,0,0,0,0,0,0,0,0,0,0,,,,,,,,,,,,,,,,,,,,,
263,750082,1745294983601,0.088,0.0,8.0,,-0.06,-0.06,0.89,-1.0,0.0,-1.0,0.89,1.11,80.0,4955.0,20.7,3.7,,13.45,1.185,107.8,,48.9,5.0,,,,,,,,,,,,0,0,0,0,0,0,0,0,0,0,0,0,0,0,0,0,,,,,,0.0,,,,,,,,,,,,,,,
264,750102,1745294983621,0.0883,,,,,,,,,,,,,,,,,,,,,,,0.0,0.0,0.0,0.0,0.0,0.0,0.0,0.0,2.26,,,0,0,0,0,0,0,0,0,0,0,0,0,0,0,0,0,,0.0,,,,,38.985771,-76.950218,0.0,47.7,33.0,3.0,0.8,0.0,0.0,-1.0,0.0,,0.0,0.0,0.0883
265,750122,1745294983641,0.0887,0.0,22.0,,-0.07,-0.03,0.9,0.0,0.0,-1.0,0.9,1.11,81.0,5388.0,20.8,3.76,,13.45,1.185,107.8,,54.7,5.0,,,,,,,,,,,,0,0,0,0,0,0,0,0,0,0,0,0,0,0,0,0,,,,,,0.0,,,,,,,,,,,,,,,
266,750142,1745294983661,0.089,,,,,,,,,,,,,,,,,,,,,,,,,,,,,,,,,,0,0,0,0,0,0,0,0,0,0,0,0,0,0,0,0,,,,,,,,,,,,,,,,,,,,,
267,750162,1745294983681,0.0893,0.0,28.0,,-0.08,-0.14,0.89,-1.0,0.0,-1.0,0.9,1.11,81.0,5388.0,20.8,3.76,,13.37,1.091,107.8,,54.7,5.0,,,,,,,,,,,,0,0,0,0,0,0,0,0,0,0,0,0,0,0,0,0,,,,,,0.0,,,,,,,,,,,,,,,
268,750182,1745294983701,0.0896,,,,,,,,,,,,,,,,,,,,,,,,,,,,,,,,,,0,0,0,0,0,0,0,0,0,0,0,0,0,0,0,0,,,,,,,,,,,,,,,,,,,,,
269,750202,1745294983721,0.09,0.0,14.0,,-0.05,-0.1,0.91,0.0,0.0,0.0,0.91,1.11,82.0,5594.0,21.1,3.9,,13.25,1.092,107.8,,59.5,5.0,0.0,0.0,0.0,0.0,0.0,0.0,0.0,0.0,2.26,,,0,0,0,0,0,0,0,0,0,0,0,0,0,0,0,0,,0.0,,,,0.0,38.985771,-76.950218,0.11,47.7,33.0,3.0,0.8,0.0,0.0,-1.0,0.0,0.0,0.0,0.0,0.09
270,750222,1745294983741,0.0903,,,,,,,,,,,,,,,,,,,,,,,,,,,,,,,,,,0,0,0,0,0,0,0,0,0,0,0,0,0,0,0,0,,,,,,,,,,,,,,,,,,,,,
271,750242,1745294983761,0.0906,0.0,25.0,,-0.04,-0.09,0.86,0.0,0.0,-1.0,0.87,1.11,78.0,5910.0,21.4,4.02,,13.04,1.068,107.8,,59.5,5.0,,,,,,,,,,,,0,0,0,0,0,0,0,0,0,0,0,0,0,0,0,0,,,,,,0.0,,,,,,,,,,,,,,,
272,750262,1745294983781,0.091,,,,,,,,,,,,,,,,,,,,,,,,,,,,,,,,,,0,0,0,0,0,0,0,0,0,0,0,0,0,0,0,0,,,,,,,,,,,,,,,,,,,,,
273,750282,1745294983801,0.0913,0.0,17.0,,-0.04,-0.05,0.91,0.0,0.0,0.0,0.91,1.11,82.0,6412.0,21.7,4.34,,12.69,1.085,107.8,,59.5,5.0,,,,,,,,,,,,0,0,0,0,0,0,0,0,0,0,0,0,0,0,0,0,,,,,,0.0,,,,,,,,,,,,,,,
274,750302,1745294983821,0.0916,,,,,,,,,,,,,,,,,,,,,,,0.0,0.0,0.0,0.0,0.0,0.0,0.0,0.0,2.26,,,0,0,0,0,0,0,0,0,0,0,0,0,0,0,0,0,,0.0,,,,,38.985771,-76.950218,0.07,47.7,33.0,3.0,0.8,0.0,0.0,-1.0,0.0,,0.0,0.0,0.0916
275,750322,1745294983841,0.092,0.0,22.0,,-0.04,-0.06,0.91,0.0,0.0,0.0,0.92,1.11,83.0,7087.0,21.7,5.05,,12.69,1.085,107.8,,63.1,5.0,,,,,,,,,,,,0,0,0,0,0,0,0,0,0,0,0,0,0,0,0,0,,,,,,0.0,,,,,,,,,,,,,,,
276,750342,1745294983861,0.0923,,,,,,,,,,,,,,,,,,,,,,,,,,,,,,,,,,0,0,0,0,0,0,0,0,0,0,0,0,0,0,0,0,,,,,,,,,,,,,,,,,,,,,
277,750362,1745294983881,0.0926,0.0,20.0,,-0.03,-0.06,0.92,0.0,0.0,0.0,0.92,1.11,83.0,7087.0,21.7,5.05,,12.23,1.043,107.8,,63.1,5.0,,,,,,,,,,,,0,0,0,0,0,0,0,0,0,0,0,0,0,0,0,0,,,,,,0.0,,,,,,,,,,,,,,,
278,750382,1745294983901,0.093,,,,,,,,,,,,,,,,,,,,,,,,,,,,,,,,,,0,0,0,0,0,0,0,0,0,0,0,0,0,0,0,0,,,,,,,,,,,,,,,,,,,,,
279,750402,1745294983921,0.0933,0.0,17.0,13.74,-0.05,-0.28,0.9,0.0,0.0,0.0,0.95,1.11,85.0,8238.0,22.4,5.31,15.0,11.83,1.01,107.8,176.0,69.7,5.0,0.0,0.0,0.0,0.0,0.0,0.0,0.0,0.0,2.26,0.0,1.0,0,0,0,0,0,0,0,0,0,0,0,0,0,0,0,0,0.0,0.0,1.0,0.0,0.0,0.0,38.985771,-76.950218,0.04,47.7,33.0,3.0,0.8,0.0,0.0,-1.0,0.0,0.0,0.0,0.0,0.0933
280,750422,1745294983941,0.0936,,,,,,,,,,,,,,,,,,,,,,,,,,,,,,,,,,0,0,0,0,0,0,0,0,0,0,0,0,0,0,0,0,,,,,,,,,,,,,,,,,,,,,
281,750442,1745294983961,0.094,0.0,28.0,,-0.04,-0.38,0.95,1.0,0.0,0.0,1.02,1.11,92.0,9463.0,23.3,4.79,,11.09,0.866,107.8,,69.7,5.0,,,,,,,,,,,,0,0,0,0,0,0,0,0,0,0,0,0,0,0,0,0,,,,,,0.0,,,,,,,,,,,,,,,
282,750462,1745294983981,0.0943,,,,,,,,,,,,,,,,,,,,,,,,,,,,,,,,,,0,0,0,0,0,0,0,0,0,0,0,0,0,0,0,0,,,,,,,,,,,,,,,,,,,,,
283,750482,1745294984001,0.0946,0.0,20.0,,-0.04,-0.31,0.96,1.0,0.0,0.0,1.01,1.11,91.0,10778.0,23.7,3.8,,10.6,0.782,107.8,,69.7,5.0,,,,,,,,,,,,0,0,0,0,0,0,0,0,0,0,0,0,0,0,0,0,,,,,,0.0,,,,,,,,,,,,,,,
284,750502,1745294984015,0.095,,,,,,,,,,,,,,,,,,,,,,,0.0,0.0,0.0,0.0,0.0,0.0,0.0,0.0,2.26,,,0,0,0,0,0,0,0,0,0,0,0,0,0,0,0,0,,0.0,,,,,38.985771,-76.950218,0.1,47.7,33.0,3.0,0.8,0.0,0.0,-1.0,0.0,,0.0,0.0,0.095
285,750522,1745294984035,0.0953,0.0,34.0,,-0.05,-0.16,0.95,1.0,0.0,0.0,0.97,1.11,87.0,11727.0,24.4,3.72,,10.6,0.782,107.8,,68.4,5.0,,,,,,,,,,,,0,0,0,0,0,0,0,0,0,0,0,0,0,0,0,0,,,,,,0.0,,,,,,,,,,,,,,,
286,750542,1745294984055,0.0956,,,,,,,,,,,,,,,,,,,,,,,,,,,,,,,,,,0,0,0,0,0,0,0,0,0,0,0,0,0,0,0,0,,,,,,,,,,,,,,,,,,,,,
287,750562,1745294984075,0.096,0.0,22.0,,-0.04,0.12,0.96,1.0,0.0,0.0,0.96,1.11,87.0,11727.0,24.4,3.72,,10.25,0.764,107.8,,68.4,5.0,,,,,,,,,,,,0,0,0,0,0,0,0,0,0,0,0,0,0,0,0,0,,,,,,0.0,,,,,,,,,,,,,,,
288,750582,1745294984095,0.0963,,,,,,,,,,,,,,,,,,,,,,,,,,,,,,,,,,0,0,0,0,0,0,0,0,0,0,0,0,0,0,0,0,,,,,,,,,,,,,,,,,,,,,
289,750602,1745294984117,0.0966,0.0,22.0,,-0.05,0.04,0.95,1.0,0.0,-2.0,0.95,1.11,85.0,12527.0,25.8,3.1,,9.82,0.762,107.8,,65.4,5.0,0.0,0.0,0.0,0.0,0.0,0.0,0.0,0.0,2.26,,,0,0,0,0,0,0,0,0,0,0,0,0,0,0,0,0,,0.0,,,,0.0,38.985771,-76.950218,0.04,47.7,33.0,3.0,0.8,0.0,0.0,-1.0,0.0,0.0,0.0,0.0,0.0966
290,750622,1745294984137,0.097,,,,,,,,,,,,,,,,,,,,,,,,,,,,,,,,,,0,0,0,0,0,0,0,0,0,0,0,0,0,0,0,0,,,,,,,,,,,,,,,,,,,,,
291,750642,1745294984157,0.0973,0.0,36.0,,-0.08,0.32,0.93,0.0,0.0,0.0,0.99,1.11,89.0,13223.0,29.1,2.54,,9.92,0.788,107.8,,65.4,5.0,,,,,,,,,,,,0,0,0,0,0,0,0,0,0,0,0,0,0,0,0,0,,,,,,0.0,,,,,,,,,,,,,,,
292,750662,1745294984177,0.0976,,,,,,,,,,,,,,,,,,,,,,,,,,,,,,,,,,0,0,0,0,0,0,0,0,0,0,0,0,0,0,0,0,,,,,,,,,,,,,,,,,,,,,
293,750682,1745294984201,0.098,0.0,28.0,,-0.11,0.36,0.88,0.0,-1.0,1.0,0.96,1.11,86.0,13513.0,37.1,2.73,,10.4,0.863,107.8,,65.4,5.0,,,,,,,,,,,,0,0,0,0,0,0,0,0,0,0,0,0,0,0,0,0,,,,,,0.0,,,,,,,,,,,,,,,
294,750702,1745294984221,0.0983,,,,,,,,,,,,,,,,,,,,,,,0.0,0.0,0.0,0.0,0.0,0.0,0.0,0.0,2.25,,,0,0,0,0,0,0,0,0,0,0,0,0,0,0,0,0,,0.0,,,,,38.985771,-76.950218,0.07,47.7,33.0,3.0,0.8,0.0,0.0,-1.0,0.0,,0.0,0.0,0.0983
295,750722,1745294984241,0.0986,0.0,31.0,,-0.11,0.49,0.89,-3.0,-1.0,-1.0,1.02,1.11,92.0,13673.0,53.8,3.94,,10.4,0.863,107.8,,67.4,5.0,,,,,,,,,,,,0,0,0,0,0,0,0,0,0,0,0,0,0,0,0,0,,,,,,0.0,,,,,,,,,,,,,,,
296,750742,1745294984261,0.099,,,,,,,,,,,,,,,,,,,,,,,,,,,,,,,,,,0,0,0,0,0,0,0,0,0,0,0,0,0,0,0,0,,,,,,,,,,,,,,,,,,,,,
297,750762,1745294984281,0.0993,0.0,36.0,,-0.12,0.53,0.91,1.0,0.0,1.0,1.06,1.11,96.0,13673.0,53.8,3.94,,11.41,1.008,107.8,,67.4,5.0,,,,,,,,,,,,0,0,0,0,0,0,0,0,0,0,0,0,0,0,0,0,,,,,,0.0,,,,,,,,,,,,,,,
298,750782,1745294984301,0.0996,,,,,,,,,,,,,,,,,,,,,,,,,,,,,,,,,,0,0,0,0,0,0,0,0,0,0,0,0,0,0,0,0,,,,,,,,,,,,,,,,,,,,,
299,750802,1745294984321,0.1,0.0,34.0,,-0.1,0.52,1.0,-1.0,-1.0,-1.0,1.13,1.13,100.0,13582.0,87.9,4.76,,12.44,1.091,107.8,,75.5,5.0,0.0,0.0,0.0,0.0,0.0,0.0,0.0,0.0,2.25,,,0,0,0,0,0,0,0,0,0,0,0,0,0,0,0,0,,0.0,,,,0.0,38.985771,-76.950218,0.04,47.7,33.0,3.0,0.8,0.0,0.0,-1.0,0.0,0.0,0.0,0.0,0.1
300,750822,1745294984341,0.1003,,,,,,,,,,,,,,,,,,,,,,,,,,,,,,,,,,0,0,0,0,0,0,0,0,0,0,0,0,0,0,0,0,,,,,,,,,,,,,,,,,,,,,
301,750842,1745294984361,0.1006,0.0,39.0,,-0.14,0.69,0.92,-2.0,-1.0,0.0,1.16,1.16,100.0,13270.0,99.7,4.68,,12.97,1.196,107.8,,75.5,5.0,,,,,,,,,,,,0,0,0,0,0,0,0,0,0,0,0,0,0,0,0,0,,,,,,0.0,,,,,,,,,,,,,,,
302,750862,1745294984381,0.101,,,,,,,,,,,,,,,,,,,,,,,,,,,,,,,,,,0,0,0,0,0,0,0,0,0,0,0,0,0,0,0,0,,,,,,,,,,,,,,,,,,,,,
303,750882,1745294984401,0.1013,0.0,39.0,,-0.14,0.45,0.94,0.0,0.0,1.0,1.05,1.16,90.0,13949.0,99.7,3.98,,13.13,1.249,107.8,,75.5,5.0,,,,,,,,,,,,0,0,0,0,0,0,0,0,0,0,0,0,0,0,0,0,,,,,,0.0,,,,,,,,,,,,,,,
304,750902,1745294984421,0.1016,,,,,,,,,,,,,,,,,,,,,,,0.0,0.0,0.0,0.0,0.0,0.0,0.0,0.0,2.26,,,0,0,0,0,0,0,0,0,0,0,0,0,0,0,0,0,,0.0,,,,,38.985771,-76.950218,0.13,47.7,33.0,3.0,0.8,0.0,0.0,-1.0,0.0,,0.0,0.0,0.1016
305,750922,1745294984441,0.102,0.0,42.0,,-0.13,0.15,0.96,1.0,-1.0,0.0,0.98,1.16,84.0,13062.0,99.4,4.71,,13.13,1.249,107.8,,75.4,5.0,,,,,,,,,,,,0,0,0,0,0,0,0,0,0,0,0,0,0,0,0,0,,,,,,0.0,,,,,,,,,,,,,,,
306,750942,1745294984461,0.1023,,,,,,,,,,,,,,,,,,,,,,,,,,,,,,,,,,0,0,0,0,0,0,0,0,0,0,0,0,0,0,0,0,,,,,,,,,,,,,,,,,,,,,
307,750962,1745294984481,0.1026,0.0,59.0,,-0.12,0.46,0.89,-1.0,0.0,0.0,1.01,1.16,87.0,13062.0,99.4,4.71,,13.47,1.206,107.8,,75.4,5.0,,,,,,,,,,,,0,0,0,0,0,0,0,0,0,0,0,0,0,0,0,0,,,,,,0.0,,,,,,,,,,,,,,,
308,750982,1745294984503,0.103,,,,,,,,,,,,,,,,,,,,,,,,,,,,,,,,,,0,0,0,0,0,0,0,0,0,0,0,0,0,0,0,0,,,,,,,,,,,,,,,,,,,,,
309,751002,1745294984523,0.1033,0.0,113.0,,-0.07,0.17,0.95,-3.0,0.0,-1.0,0.96,1.16,83.0,13790.0,99.4,4.6,,13.51,1.249,107.8,,78.5,5.0,0.0,0.0,0.0,0.0,0.0,0.0,0.0,0.0,2.29,,,0,0,0,0,0,0,0,0,0,0,0,0,0,0,0,0,,0.0,,,,0.0,38.985771,-76.950218,0.04,47.7,33.0,3.0,0.8,0.0,0.0,-1.0,0.0,0.0,0.0,0.0,0.1033
310,751022,1745294984543,0.1036,,,,,,,,,,,,,,,,,,,,,,,,,,,,,,,,,,0,0,0,0,0,0,0,0,0,0,0,0,0,0,0,0,,,,,,,,,,,,,,,,,,,,,
311,751042,1745294984563,0.104,0.0,59.0,,-0.07,0.01,0.99,-2.0,0.0,1.0,1.0,1.16,86.0,13290.0,99.4,4.66,,13.36,1.212,107.8,,78.5,5.0,,,,,,,,,,,,0,0,0,0,0,0,0,0,0,0,0,0,0,0,0,0,,,,,,0.0,,,,,,,,,,,,,,,
312,751062,1745294984583,0.1043,,,,,,,,,,,,,,,,,,,,,,,,,,,,,,,,,,0,0,0,0,0,0,0,0,0,0,0,0,0,0,0,0,,,,,,,,,,,,,,,,,,,,,
313,751082,1745294984602,0.1046,0.0,68.0,,-0.1,-0.06,0.93,-5.0,-1.0,-1.0,0.93,1.16,80.0,13127.0,99.4,4.74,,13.56,1.25,107.8,,78.5,5.0,,,,,,,,,,,,0,0,0,0,0,0,0,0,0,0,0,0,0,0,0,0,,,,,,0.0,,,,,,,,,,,,,,,
314,751102,1745294984622,0.105,,,,,,,,,,,,,,,,,,,,,,,0.0,0.0,0.0,0.0,0.0,0.0,0.0,0.0,2.26,,,0,0,0,0,0,0,0,0,0,0,0,0,0,0,0,0,,0.0,,,,,38.985771,-76.950218,0.08,47.7,33.0,3.0,0.8,0.0,0.0,-1.0,0.0,,0.0,0.0,0.105
315,751122,1745294984642,0.1053,0.0,116.0,,-0.09,0.08,0.88,-3.0,0.0,0.0,0.89,1.16,76.0,13858.0,99.5,4.59,,13.56,1.25,107.8,,80.4,5.0,,,,,,,,,,,,0,0,0,0,0,0,0,0,0,0,0,0,0,0,0,0,,,,,,0.0,,,,,,,,,,,,,,,
316,751142,1745294984662,0.1056,,,,,,,,,,,,,,,,,,,,,,,,,,,,,,,,,,0,0,0,0,0,0,0,0,0,0,0,0,0,0,0,0,,,,,,,,,,,,,,,,,,,,,
317,751162,1745294984682,0.106,0.0,70.0,,-0.07,0.36,0.93,-4.0,0.0,0.0,1.0,1.16,86.0,13858.0,99.5,4.59,,13.39,1.251,107.8,,80.4,5.0,,,,,,,,,,,,0,0,0,0,0,0,0,0,0,0,0,0,0,0,0,0,,,,,,0.0,,,,,,,,,,,,,,,
318,751182,1745294984702,0.1063,,,,,,,,,,,,,,,,,,,,,,,,,,,,,,,,,,0,0,0,0,0,0,0,0,0,0,0,0,0,0,0,0,,,,,,,,,,,,,,,,,,,,,
319,751202,1745294984722,0.1066,0.0,62.0,,-0.02,0.38,0.89,-6.0,1.0,0.0,0.97,1.16,83.0,12451.0,99.5,4.93,,13.48,1.155,107.8,,71.4,5.0,0.0,0.0,0.0,0.0,0.0,0.0,0.0,0.0,2.26,,,0,0,0,0,0,0,0,0,0,0,0,0,0,0,0,0,,0.0,,,,0.0,38.985771,-76.950218,0.26,47.7,33.0,3.0,0.8,0.0,0.0,-1.0,0.0,0.0,0.0,0.0,0.1066
320,751222,1745294984742,0.107,,,,,,,,,,,,,,,,,,,,,,,,,,,,,,,,,,0,0,0,0,0,0,0,0,0,0,0,0,0,0,0,0,,,,,,,,,,,,,,,,,,,,,
321,751242,1745294984762,0.1073,0.0,68.0,,0.0,0.28,0.82,-5.0,1.0,1.0,0.87,1.16,74.0,11773.0,99.6,5.41,,13.68,1.252,107.8,,71.4,5.0,,,,,,,,,,,,0,0,0,0,0,0,0,0,0,0,0,0,0,0,0,0,,,,,,0.0,,,,,,,,,,,,,,,
322,751262,1745294984782,0.1076,,,,,,,,,,,,,,,,,,,,,,,,,,,,,,,,,,0,0,0,0,0,0,0,0,0,0,0,0,0,0,0,0,,,,,,,,,,,,,,,,,,,,,
323,751282,1745294984802,0.108,0.0,68.0,,0.04,-0.02,0.85,-4.0,1.0,-1.0,0.85,1.16,73.0,11783.0,99.7,5.43,,13.76,1.232,107.8,,71.4,5.0,,,,,,,,,,,,0,0,0,0,0,0,0,0,0,0,0,0,0,0,0,0,,,,,,0.0,,,,,,,,,,,,,,,
324,751302,1745294984820,0.1083,,,,,,,,,,,,,,,,,,,,,,,0.0,0.0,0.0,0.0,0.0,0.0,0.0,0.0,2.25,,,0,0,0,0,0,0,0,0,0,0,0,0,0,0,0,0,,0.0,,,,,38.985771,-76.950218,1.63,47.7,33.0,3.0,0.8,0.0,0.0,-1.0,0.0,,0.0,0.0,0.1083
325,751322,1745294984840,0.1086,0.0,113.0,,0.11,0.18,0.92,-4.0,1.0,-1.0,0.94,1.16,81.0,11755.0,99.7,5.43,,13.76,1.232,107.8,,70.8,5.0,,,,,,,,,,,,0,0,0,0,0,0,0,0,0,0,0,0,0,0,0,0,,,,,,0.0,,,,,,,,,,,,,,,
326,751342,1745294984860,0.109,,,,,,,,,,,,,,,,,,,,,,,,,,,,,,,,,,0,0,0,0,0,0,0,0,0,0,0,0,0,0,0,0,,,,,,,,,,,,,,,,,,,,,
327,751362,1745294984880,0.1093,0.0,76.0,,0.15,0.19,0.94,-3.0,1.0,0.0,0.97,1.16,84.0,11755.0,99.7,5.43,,13.77,1.035,107.8,,70.8,5.0,,,,,,,,,,,,0,0,0,0,0,0,0,0,0,0,0,0,0,0,0,0,,,,,,0.0,,,,,,,,,,,,,,,
328,751382,1745294984902,0.1096,,,,,,,,,,,,,,,,,,,,,,,,,,,,,,,,,,0,0,0,0,0,0,0,0,0,0,0,0,0,0,0,0,,,,,,,,,,,,,,,,,,,,,
329,751402,1745294984922,0.11,0.0,59.0,13.61,0.19,0.07,0.93,-2.0,1.0,-1.0,0.96,1.16,82.0,11658.0,99.8,5.45,15.0,13.76,0.974,107.8,176.0,72.3,5.0,1.0,0.0,2.0,2.0,0.0,0.0,0.0,0.0,2.26,0.0,1.0,0,0,0,0,0,0,0,0,0,0,0,0,0,0,0,0,0.0,0.0,1.0,0.0,0.0,0.0,38.985771,-76.950218,4.04,47.7,33.0,3.0,0.8,0.0,0.0,-1.0,0.0,0.0,0.0,0.0,0.11
330,751422,1745294984942,0.1103,,,,,,,,,,,,,,,,,,,,,,,,,,,,,,,,,,0,0,0,0,0,0,0,0,0,0,0,0,0,0,0,0,,,,,,,,,,,,,,,,,,,,,
331,751442,1745294984962,0.1106,0.0,68.0,,0.23,-0.01,0.98,-1.0,1.0,-1.0,1.01,1.16,87.0,11357.0,99.8,5.56,,13.91,0.947,107.8,,72.3,5.0,,,,,,,,,,,,0,0,0,0,0,0,0,0,0,0,0,0,0,0,0,0,,,,,,0.0,,,,,,,,,,,,,,,
332,751462,1745294984982,0.111,,,,,,,,,,,,,,,,,,,,,,,,,,,,,,,,,,0,0,0,0,0,0,0,0,0,0,0,0,0,0,0,0,,,,,,,,,,,,,,,,,,,,,
333,751482,1745294985002,0.1113,0.0,73.0,,0.26,0.07,0.95,-1.0,1.0,-1.0,0.99,1.16,85.0,11105.0,99.7,5.65,,13.73,0.931,107.8,,72.3,5.0,,,,,,,,,,,,0,0,0,0,0,0,0,0,0,0,0,0,0,0,0,0,,,,,,0.0,,,,,,,,,,,,,,,
334,751502,1745294985014,0.1116,,,,,,,,,,,,,,,,,,,,,,,3.0,0.0,5.0,6.0,0.0,0.0,0.0,0.0,2.26,,,0,0,0,0,0,0,0,0,0,0,0,0,0,0,0,0,,0.0,,,,,38.985771,-76.950218,7.69,47.7,33.0,3.0,0.8,0.0,0.0,-1.0,0.0,,0.0,0.0001,0.1116
335,751522,1745294985034,0.112,0.0,73.0,,0.3,-0.0,0.92,0.0,0.0,-1.0,0.97,1.16,83.0,10531.0,99.6,5.76,,13.73,0.931,107.8,,68.0,5.0,,,,,,,,,,,,0,0,0,0,0,0,0,0,0,0,0,0,0,0,0,0,,,,,,0.0,,,,,,,,,,,,,,,
