,Interval,Utc,ElapsedTime,FrontBP,SteerAng,Battery,AccelX,AccelY,AccelZ,Yaw,Pitch,Roll,Gsum,GsumMax,GsumPct,RPM,TPS,InjectorPW,Baro,MAP,Lambda,IAT,EngineTemp,EOP,EOT,WSFR,WSFL,WSRR,WSRL,TCSet,TCSlip,TCComp,TCCut,Analog8,OilTemp,AA_On,ThermLF1,ThermLF2,ThermRR1,ThermRR2,ThermLF3,ThermLF4,ThermLF5,ThermLF6,ThermLF7,ThermLF8,ThermRR3,ThermRR4,ThermRR5,ThermRR6,ThermRR7,ThermRR8,AA_LowDrag,Gear,AA_On1,AA_LowDrag1,Fuel_Mix,AA_Packages,Latitude,Longitude,Speed,Altitude,GPSSats,GPSQual,GPSDOP,LapCount,LapTime,Sector,SectorTime,PredTime,CurrentLap,Distance,SessionTime
0,845922,1745295080036,0.0003,0.0,-19.0,,-0.11,0.04,0.76,3.0,0.0,-1.0,0.77,0.77,100.0,2948.0,0.0,3.32,,12.35,1.054,109.6,,28.5,5.0,,,,,,,,,,,,0,0,0,0,0,0,0,0,0,0,0,0,0,0,0,0,,,,,,0.0,,,,,,,,,,,,,,,
1,845942,1745295080056,0.0006,,,,,,,,,,,,,,,,,,,,,,,,,,,,,,,,,,0,0,0,0,0,0,0,0,0,0,0,0,0,0,0,0,,,,,,,,,,,,,,,,,,,,,
2,845962,1745295080076,0.001,0.0,-27.0,,-0.12,0.04,0.76,3.0,0.0,-1.0,0.77,0.77,100.0,2899.0,0.0,3.33,,12.35,1.054,109.6,,28.5,5.0,,,,,,,,,,,,0,0,0,0,0,0,0,0,0,0,0,0,0,0,0,0,,,,,,0.0,,,,,,,,,,,,,,,
3,845982,1745295080096,0.0013,,,,,,,,,,,,,,,,,,,,,,,,,,,,,,,,,,0,0,0,0,0,0,0,0,0,0,0,0,0,0,0,0,,,,,,,,,,,,,,,,,,,,,
4,846002,1745295080118,0.0016,0.0,-23.0,,-0.12,0.01,0.84,2.0,0.0,-1.0,0.85,0.85,100.0,2899.0,0.0,3.33,,12.39,1.056,109.6,,26.5,5.0,0.0,4.0,0.0,0.0,0.0,0.0,0.0,0.0,2.25,,,0,0,0,0,0,0,0,0,0,0,0,0,0,0,0,0,,0.0,,,,0.0,38.985779,-76.950714,0.04,46.3,34.0,3.0,0.8,0.0,0.0,-1.0,0.0,0.0,0.0,0.0,0.0016
5,846022,1745295080138,0.002,,,,,,,,,,,,,,,,,,,,,,,,,,,,,,,,,,0,0,0,0,0,0,0,0,0,0,0,0,0,0,0,0,,,,,,,,,,,,,,,,,,,,,
6,846042,1745295080158,0.0023,0.0,-12.0,,-0.13,-0.03,0.95,0.0,0.0,-1.0,0.96,0.96,100.0,2931.0,0.0,3.35,,12.49,1.094,109.6,,26.5,5.0,,,,,,,,,,,,0,0,0,0,0,0,0,0,0,0,0,0,0,0,0,0,,,,,,0.0,,,,,,,,,,,,,,,
7,846062,1745295080178,0.0026,,,,,,,,,,,,,,,,,,,,,,,,,,,,,,,,,,0,0,0,0,0,0,0,0,0,0,0,0,0,0,0,0,,,,,,,,,,,,,,,,,,,,,
8,846082,1745295080202,0.003,0.0,-8.0,,-0.14,-0.04,1.02,0.0,0.0,-1.0,1.03,1.03,100.0,3007.0,0.4,3.29,,12.6,1.161,109.6,,26.5,5.0,,,,,,,,,,,,0,0,0,0,0,0,0,0,0,0,0,0,0,0,0,0,,,,,,0.0,,,,,,,,,,,,,,,
9,846102,1745295080222,0.0033,,,,,,,,,,,,,,,,,,,,,,,0.0,4.0,0.0,0.0,0.0,0.0,0.0,0.0,2.26,,,0,0,0,0,0,0,0,0,0,0,0,0,0,0,0,0,,0.0,,,,,38.985779,-76.950714,0.08,46.3,34.0,3.0,0.8,0.0,0.0,-1.0,0.0,,0.0,0.0,0.0033
10,846122,1745295080242,0.0036,0.0,-23.0,,-0.13,-0.07,1.08,-1.0,0.0,0.0,1.08,1.08,100.0,2893.0,2.1,3.71,,12.81,1.167,109.6,,27.9,5.0,,,,,,,,,,,,0,0,0,0,0,0,0,0,0,0,0,0,0,0,0,0,,,,,,0.0,,,,,,,,,,,,,,,
11,846142,1745295080262,0.004,,,,,,,,,,,,,,,,,,,,,,,,,,,,,,,,,,0,0,0,0,0,0,0,0,0,0,0,0,0,0,0,0,,,,,,,,,,,,,,,,,,,,,
12,846162,1745295080282,0.0043,0.0,-15.0,,-0.11,-0.09,1.1,0.0,0.0,0.0,1.11,1.11,100.0,2939.0,3.0,3.97,,12.81,1.167,109.6,,27.9,5.0,,,,,,,,,,,,0,0,0,0,0,0,0,0,0,0,0,0,0,0,0,0,,,,,,0.0,,,,,,,,,,,,,,,
13,846182,1745295080302,0.0046,,,,,,,,,,,,,,,,,,,,,,,,,,,,,,,,,,0,0,0,0,0,0,0,0,0,0,0,0,0,0,0,0,,,,,,,,,,,,,,,,,,,,,
14,846202,1745295080322,0.005,0.0,-27.0,,-0.1,-0.05,1.1,1.0,0.0,0.0,1.11,1.11,99.0,2939.0,3.0,3.97,,12.91,1.121,109.6,,27.2,5.0,0.0,5.0,0.0,0.0,0.0,0.0,0.0,0.0,2.26,,,0,0,0,0,0,0,0,0,0,0,0,0,0,0,0,0,,0.0,,,,0.0,38.985779,-76.950714,0.05,46.3,34.0,3.0,0.8,0.0,0.0,-1.0,0.0,0.0,0.0,0.0,0.005
15,846222,1745295080342,0.0053,,,,,,,,,,,,,,,,,,,,,,,,,,,,,,,,,,0,0,0,0,0,0,0,0,0,0,0,0,0,0,0,0,,,,,,,,,,,,,,,,,,,,,
16,846242,1745295080362,0.0056,0.0,-8.0,,-0.08,-0.02,1.07,2.0,0.0,0.0,1.07,1.11,96.0,2958.0,4.1,4.18,,13.03,1.114,109.6,,27.2,5.0,,,,,,,,,,,,0,0,0,0,0,0,0,0,0,0,0,0,0,0,0,0,,,,,,0.0,,,,,,,,,,,,,,,
17,846262,1745295080382,0.006,,,,,,,,,,,,,,,,,,,,,,,,,,,,,,,,,,0,0,0,0,0,0,0,0,0,0,0,0,0,0,0,0,,,,,,,,,,,,,,,,,,,,,
18,846282,1745295080404,0.0063,0.0,-8.0,,-0.06,0.0,1.03,2.0,0.0,1.0,1.03,1.11,93.0,2944.0,5.6,4.09,,13.17,1.111,109.6,,27.2,5.0,,,,,,,,,,,,0,0,0,0,0,0,0,0,0,0,0,0,0,0,0,0,,,,,,0.0,,,,,,,,,,,,,,,
19,846302,1745295080424,0.0066,,,,,,,,,,,,,,,,,,,,,,,0.0,3.0,0.0,0.0,0.0,0.0,0.0,0.0,2.25,,,0,0,0,0,0,0,0,0,0,0,0,0,0,0,0,0,,0.0,,,,,38.985779,-76.950714,0.08,46.3,34.0,3.0,0.8,0.0,0.0,-1.0,0.0,,0.0,0.0,0.0066
20,846322,1745295080444,0.007,0.0,-15.0,,-0.04,0.01,1.03,3.0,0.0,1.0,1.03,1.11,93.0,3021.0,7.0,4.0,,13.32,1.114,109.6,,27.5,5.0,,,,,,,,,,,,0,0,0,0,0,0,0,0,0,0,0,0,0,0,0,0,,,,,,0.0,,,,,,,,,,,,,,,
21,846342,1745295080464,0.0073,,,,,,,,,,,,,,,,,,,,,,,,,,,,,,,,,,0,0,0,0,0,0,0,0,0,0,0,0,0,0,0,0,,,,,,,,,,,,,,,,,,,,,
22,846362,1745295080484,0.0076,0.0,-12.0,,-0.03,-0.02,1.09,3.0,0.0,1.0,1.09,1.11,98.0,3154.0,7.4,3.93,,13.32,1.114,109.6,,27.5,5.0,,,,,,,,,,,,0,0,0,0,0,0,0,0,0,0,0,0,0,0,0,0,,,,,,0.0,,,,,,,,,,,,,,,
23,846382,1745295080504,0.008,,,,,,,,,,,,,,,,,,,,,,,,,,,,,,,,,,0,0,0,0,0,0,0,0,0,0,0,0,0,0,0,0,,,,,,,,,,,,,,,,,,,,,
24,846402,1745295080520,0.0083,0.0,-4.0,13.62,-0.06,-0.09,1.1,1.0,0.0,0.0,1.1,1.11,99.0,3154.0,7.4,3.93,15.0,13.28,1.105,109.6,180.0,29.5,5.0,0.0,5.0,0.0,0.0,0.0,24.0,0.0,0.0,2.25,0.0,1.0,0,0,0,0,0,0,0,0,0,0,0,0,0,0,0,0,0.0,0.0,1.0,0.0,0.0,0.0,38.985779,-76.950714,0.0,46.3,34.0,3.0,0.8,0.0,0.0,-1.0,0.0,0.0,0.0,0.0,0.0083
25,846422,1745295080540,0.0086,,,,,,,,,,,,,,,,,,,,,,,,,,,,,,,,,,0,0,0,0,0,0,0,0,0,0,0,0,0,0,0,0,,,,,,,,,,,,,,,,,,,,,
26,846442,1745295080560,0.009,0.0,5.0,,-0.05,0.01,1.1,2.0,0.0,1.0,1.1,1.11,99.0,3458.0,7.4,3.84,,13.27,1.108,109.6,,29.5,5.0,,,,,,,,,,,,0,0,0,0,0,0,0,0,0,0,0,0,0,0,0,0,,,,,,0.0,,,,,,,,,,,,,,,
27,846462,1745295080580,0.0093,,,,,,,,,,,,,,,,,,,,,,,,,,,,,,,,,,0,0,0,0,0,0,0,0,0,0,0,0,0,0,0,0,,,,,,,,,,,,,,,,,,,,,
28,846482,1745295080600,0.0096,0.0,-15.0,,-0.06,0.1,1.03,1.0,0.0,0.0,1.04,1.11,93.0,3536.0,7.5,3.75,,13.2,1.18,109.6,,29.5,5.0,,,,,,,,,,,,0,0,0,0,0,0,0,0,0,0,0,0,0,0,0,0,,,,,,0.0,,,,,,,,,,,,,,,
29,846502,1745295080619,0.01,,,,,,,,,,,,,,,,,,,,,,,0.0,18.0,0.0,0.0,0.0,24.0,0.0,0.0,2.26,,,0,0,0,0,0,0,0,0,0,0,0,0,0,0,0,0,,0.0,,,,,38.985779,-76.950714,0.09,46.3,34.0,3.0,0.8,0.0,0.0,-1.0,0.0,,0.0,0.0,0.01
30,846522,1745295080639,0.0103,0.0,-8.0,,-0.08,0.08,1.08,1.0,0.0,0.0,1.08,1.11,97.0,3516.0,7.8,3.67,,13.08,1.159,109.6,,33.3,5.0,,,,,,,,,,,,0,0,0,0,0,0,0,0,0,0,0,0,0,0,0,0,,,,,,0.0,,,,,,,,,,,,,,,
31,846542,1745295080659,0.0106,,,,,,,,,,,,,,,,,,,,,,,,,,,,,,,,,,0,0,0,0,0,0,0,0,0,0,0,0,0,0,0,0,,,,,,,,,,,,,,,,,,,,,
32,846562,1745295080679,0.011,0.0,-27.0,,-0.07,0.12,1.08,1.0,0.0,1.0,1.09,1.11,98.0,3552.0,9.4,3.77,,13.08,1.159,109.6,,33.3,5.0,,,,,,,,,,,,0,0,0,0,0,0,0,0,0,0,0,0,0,0,0,0,,,,,,0.0,,,,,,,,,,,,,,,
33,846582,1745295080699,0.0113,,,,,,,,,,,,,,,,,,,,,,,,,,,,,,,,,,0,0,0,0,0,0,0,0,0,0,0,0,0,0,0,0,,,,,,,,,,,,,,,,,,,,,
34,846602,1745295080719,0.0116,0.0,-8.0,,-0.07,0.17,1.06,2.0,0.0,1.0,1.07,1.11,96.0,3552.0,9.4,3.77,,13.19,1.106,109.6,,33.5,5.0,0.0,16.0,0.0,0.0,0.0,24.0,0.0,0.0,2.26,,,0,0,0,0,0,0,0,0,0,0,0,0,0,0,0,0,,0.0,,,,0.0,38.985779,-76.950714,0.05,46.3,34.0,3.0,0.8,0.0,0.0,-1.0,0.0,0.0,0.0,0.0,0.0116
35,846622,1745295080739,0.012,,,,,,,,,,,,,,,,,,,,,,,,,,,,,,,,,,0,0,0,0,0,0,0,0,0,0,0,0,0,0,0,0,,,,,,,,,,,,,,,,,,,,,
36,846642,1745295080759,0.0123,0.0,3.0,,-0.08,0.08,1.01,1.0,0.0,0.0,1.02,1.11,92.0,3560.0,9.9,3.77,,13.2,1.105,109.6,,33.5,5.0,,,,,,,,,,,,0,0,0,0,0,0,0,0,0,0,0,0,0,0,0,0,,,,,,0.0,,,,,,,,,,,,,,,
37,846662,1745295080779,0.0126,,,,,,,,,,,,,,,,,,,,,,,,,,,,,,,,,,0,0,0,0,0,0,0,0,0,0,0,0,0,0,0,0,,,,,,,,,,,,,,,,,,,,,
38,846682,1745295080799,0.013,0.0,-12.0,,-0.07,-0.01,1.04,0.0,0.0,0.0,1.04,1.11,94.0,3625.0,10.0,3.8,,13.25,1.135,109.6,,33.5,5.0,,,,,,,,,,,,0,0,0,0,0,0,0,0,0,0,0,0,0,0,0,0,,,,,,0.0,,,,,,,,,,,,,,,
39,846702,1745295080819,0.0133,,,,,,,,,,,,,,,,,,,,,,,0.0,17.0,0.0,0.0,0.0,24.0,0.0,0.0,2.25,,,0,0,0,0,0,0,0,0,0,0,0,0,0,0,0,0,,0.0,,,,,38.985779,-76.950714,0.07,46.3,34.0,3.0,0.8,0.0,0.0,-1.0,0.0,,0.0,0.0,0.0133
40,846722,1745295080839,0.0136,0.0,5.0,,-0.07,-0.03,1.05,0.0,0.0,0.0,1.06,1.11,95.0,3601.0,10.2,3.74,,13.19,1.165,109.6,,34.1,5.0,,,,,,,,,,,,0,0,0,0,0,0,0,0,0,0,0,0,0,0,0,0,,,,,,0.0,,,,,,,,,,,,,,,
41,846742,1745295080859,0.014,,,,,,,,,,,,,,,,,,,,,,,,,,,,,,,,,,0,0,0,0,0,0,0,0,0,0,0,0,0,0,0,0,,,,,,,,,,,,,,,,,,,,,
42,846762,1745295080879,0.0143,0.0,-12.0,,-0.08,0.02,1.03,0.0,0.0,0.0,1.04,1.11,93.0,3735.0,10.3,3.74,,13.19,1.165,109.6,,34.1,5.0,,,,,,,,,,,,0,0,0,0,0,0,0,0,0,0,0,0,0,0,0,0,,,,,,0.0,,,,,,,,,,,,,,,
43,846782,1745295080903,0.0146,,,,,,,,,,,,,,,,,,,,,,,,,,,,,,,,,,0,0,0,0,0,0,0,0,0,0,0,0,0,0,0,0,,,,,,,,,,,,,,,,,,,,,
44,846802,1745295080923,0.015,0.0,0.0,,-0.09,0.03,1.03,0.0,0.0,0.0,1.03,1.11,92.0,3735.0,10.3,3.74,,13.2,1.173,109.6,,35.6,5.0,0.0,9.0,0.0,0.0,0.0,0.0,0.0,0.0,2.25,,,0,0,0,0,0,0,0,0,0,0,0,0,0,0,0,0,,0.0,,,,0.0,38.985779,-76.950714,0.04,46.3,34.0,3.0,0.8,0.0,0.0,-1.0,0.0,0.0,0.0,0.0,0.015
45,846822,1745295080943,0.0153,,,,,,,,,,,,,,,,,,,,,,,,,,,,,,,,,,0,0,0,0,0,0,0,0,0,0,0,0,0,0,0,0,,,,,,,,,,,,,,,,,,,,,
46,846842,1745295080963,0.0156,0.0,8.0,,-0.09,-0.01,1.02,0.0,0.0,0.0,1.02,1.11,92.0,3755.0,10.4,3.66,,13.07,1.203,109.6,,35.6,5.0,,,,,,,,,,,,0,0,0,0,0,0,0,0,0,0,0,0,0,0,0,0,,,,,,0.0,,,,,,,,,,,,,,,
47,846862,1745295080983,0.016,,,,,,,,,,,,,,,,,,,,,,,,,,,,,,,,,,0,0,0,0,0,0,0,0,0,0,0,0,0,0,0,0,,,,,,,,,,,,,,,,,,,,,
48,846882,1745295081003,0.0163,0.0,0.0,,-0.08,-0.02,1.0,0.0,0.0,0.0,1.0,1.11,90.0,3816.0,10.4,3.67,,13.03,1.198,109.6,,35.6,5.0,,,,,,,,,,,,0,0,0,0,0,0,0,0,0,0,0,0,0,0,0,0,,,,,,0.0,,,,,,,,,,,,,,,
49,846902,1745295081015,0.0166,,,,,,,,,,,,,,,,,,,,,,,0.0,4.0,0.0,0.0,0.0,24.0,0.0,0.0,2.25,,,0,0,0,0,0,0,0,0,0,0,0,0,0,0,0,0,,0.0,,,,,38.985779,-76.950714,0.04,46.3,34.0,3.0,0.8,0.0,0.0,-1.0,0.0,,0.0,0.0,0.0166
50,846922,1745295081035,0.017,0.0,3.0,,-0.08,-0.03,0.97,0.0,0.0,0.0,0.97,1.11,87.0,3821.0,10.4,3.59,,13.03,1.198,109.6,,36.6,5.0,,,,,,,,,,,,0,0,0,0,0,0,0,0,0,0,0,0,0,0,0,0,,,,,,0.0,,,,,,,,,,,,,,,
51,846942,1745295081055,0.0173,,,,,,,,,,,,,,,,,,,,,,,,,,,,,,,,,,0,0,0,0,0,0,0,0,0,0,0,0,0,0,0,0,,,,,,,,,,,,,,,,,,,,,
52,846962,1745295081075,0.0176,0.0,-8.0,,-0.07,-0.02,0.96,0.0,0.0,0.0,0.96,1.11,87.0,3859.0,10.4,3.6,,13.03,1.198,109.6,,36.6,5.0,,,,,,,,,,,,0,0,0,0,0,0,0,0,0,0,0,0,0,0,0,0,,,,,,0.0,,,,,,,,,,,,,,,
53,846982,1745295081101,0.018,,,,,,,,,,,,,,,,,,,,,,,,,,,,,,,,,,0,0,0,0,0,0,0,0,0,0,0,0,0,0,0,0,,,,,,,,,,,,,,,,,,,,,
54,847002,1745295081121,0.0183,0.0,3.0,,-0.08,0.02,0.97,0.0,0.0,0.0,0.98,1.11,88.0,3859.0,10.4,3.6,,13.03,1.216,109.6,,37.0,5.0,0.0,213.0,0.0,0.0,0.0,24.0,0.0,0.0,2.26,,,0,0,0,0,0,0,0,0,0,0,0,0,0,0,0,0,,0.0,,,,0.0,38.985779,-76.950714,0.06,46.3,34.0,3.0,0.8,0.0,0.0,-1.0,0.0,0.0,0.0,0.0,0.0183
55,847022,1745295081141,0.0187,,,,,,,,,,,,,,,,,,,,,,,,,,,,,,,,,,0,0,0,0,0,0,0,0,0,0,0,0,0,0,0,0,,,,,,,,,,,,,,,,,,,,,
56,847042,1745295081161,0.019,0.0,5.0,,-0.09,0.06,1.02,0.0,0.0,0.0,1.03,1.11,92.0,3861.0,10.4,3.6,,12.99,1.227,107.8,,37.0,5.0,,,,,,,,,,,,0,0,0,0,0,0,0,0,0,0,0,0,0,0,0,0,,,,,,0.0,,,,,,,,,,,,,,,
57,847062,1745295081181,0.0193,,,,,,,,,,,,,,,,,,,,,,,,,,,,,,,,,,0,0,0,0,0,0,0,0,0,0,0,0,0,0,0,0,,,,,,,,,,,,,,,,,,,,,
58,847082,1745295081201,0.0196,0.0,3.0,,-0.08,-0.01,1.06,0.0,0.0,0.0,1.06,1.11,95.0,3860.0,10.3,3.54,,13.0,1.243,107.8,,37.0,5.0,,,,,,,,,,,,0,0,0,0,0,0,0,0,0,0,0,0,0,0,0,0,,,,,,0.0,,,,,,,,,,,,,,,
59,847102,1745295081221,0.02,,,,,,,,,,,,,,,,,,,,,,,0.0,18.0,0.0,0.0,0.0,24.0,0.0,0.0,2.26,,,0,0,0,0,0,0,0,0,0,0,0,0,0,0,0,0,,0.0,,,,,38.985779,-76.950714,0.06,46.3,34.0,3.0,0.8,0.0,0.0,-1.0,0.0,,0.0,0.0,0.02
60,847122,1745295081241,0.0203,0.0,8.0,,-0.08,-0.05,1.02,0.0,0.0,0.0,1.03,1.11,92.0,3906.0,10.2,3.58,,12.99,1.247,107.8,,37.2,5.0,,,,,,,,,,,,0,0,0,0,0,0,0,0,0,0,0,0,0,0,0,0,,,,,,0.0,,,,,,,,,,,,,,,
61,847142,1745295081261,0.0206,,,,,,,,,,,,,,,,,,,,,,,,,,,,,,,,,,0,0,0,0,0,0,0,0,0,0,0,0,0,0,0,0,,,,,,,,,,,,,,,,,,,,,
62,847162,1745295081281,0.021,0.0,0.0,,-0.07,-0.06,0.99,-1.0,0.0,0.0,0.99,1.11,89.0,3870.0,10.2,3.52,,12.99,1.247,107.8,,37.2,5.0,,,,,,,,,,,,0,0,0,0,0,0,0,0,0,0,0,0,0,0,0,0,,,,,,0.0,,,,,,,,,,,,,,,
63,847182,1745295081303,0.0213,,,,,,,,,,,,,,,,,,,,,,,,,,,,,,,,,,0,0,0,0,0,0,0,0,0,0,0,0,0,0,0,0,,,,,,,,,,,,,,,,,,,,,
64,847202,1745295081323,0.0216,0.0,3.0,,-0.07,-0.07,0.96,0.0,0.0,0.0,0.96,1.11,87.0,3870.0,10.2,3.52,,13.0,1.249,107.8,,37.2,5.0,0.0,18.0,0.0,0.0,0.0,24.0,0.0,0.0,2.26,,,0,0,0,0,0,0,0,0,0,0,0,0,0,0,0,0,,0.0,,,,0.0,38.985779,-76.950714,0.04,46.3,34.0,3.0,0.8,0.0,0.0,-1.0,0.0,0.0,0.0,0.0,0.0216
65,847222,1745295081343,0.022,,,,,,,,,,,,,,,,,,,,,,,,,,,,,,,,,,0,0,0,0,0,0,0,0,0,0,0,0,0,0,0,0,,,,,,,,,,,,,,,,,,,,,
66,847242,1745295081363,0.0223,0.0,3.0,,-0.07,-0.05,0.96,0.0,0.0,0.0,0.96,1.11,87.0,3860.0,10.2,3.59,,13.03,1.248,107.8,,37.2,5.0,,,,,,,,,,,,0,0,0,0,0,0,0,0,0,0,0,0,0,0,0,0,,,,,,0.0,,,,,,,,,,,,,,,
67,847262,1745295081383,0.0226,,,,,,,,,,,,,,,,,,,,,,,,,,,,,,,,,,0,0,0,0,0,0,0,0,0,0,0,0,0,0,0,0,,,,,,,,,,,,,,,,,,,,,
68,847282,1745295081405,0.023,0.0,8.0,,-0.06,-0.07,0.99,0.0,0.0,0.0,1.0,1.11,89.0,3787.0,10.2,3.64,,13.03,1.241,107.8,,37.2,5.0,,,,,,,,,,,,0,0,0,0,0,0,0,0,0,0,0,0,0,0,0,0,,,,,,0.0,,,,,,,,,,,,,,,
69,847302,1745295081425,0.0233,,,,,,,,,,,,,,,,,,,,,,,0.0,18.0,0.0,0.0,0.0,24.0,0.0,0.0,2.26,,,0,0,0,0,0,0,0,0,0,0,0,0,0,0,0,0,,0.0,,,,,38.985779,-76.950714,0.04,46.3,34.0,3.0,0.8,0.0,0.0,-1.0,0.0,,0.0,0.0,0.0233
70,847322,1745295081445,0.0236,0.0,17.0,,-0.06,-0.09,1.03,-1.0,0.0,0.0,1.03,1.11,93.0,3642.0,10.4,3.68,,13.05,1.248,107.8,,35.9,5.0,,,,,,,,,,,,0,0,0,0,0,0,0,0,0,0,0,0,0,0,0,0,,,,,,0.0,,,,,,,,,,,,,,,
71,847342,1745295081465,0.024,,,,,,,,,,,,,,,,,,,,,,,,,,,,,,,,,,0,0,0,0,0,0,0,0,0,0,0,0,0,0,0,0,,,,,,,,,,,,,,,,,,,,,
72,847362,1745295081485,0.0243,0.0,8.0,,-0.05,-0.01,1.04,0.0,0.0,0.0,1.04,1.11,93.0,3518.0,10.3,3.86,,13.05,1.248,107.8,,35.9,5.0,,,,,,,,,,,,0,0,0,0,0,0,0,0,0,0,0,0,0,0,0,0,,,,,,0.0,,,,,,,,,,,,,,,
73,847382,1745295081501,0.0246,,,,,,,,,,,,,,,,,,,,,,,,,,,,,,,,,,0,0,0,0,0,0,0,0,0,0,0,0,0,0,0,0,,,,,,,,,,,,,,,,,,,,,
74,847402,1745295081521,0.025,0.0,14.0,13.66,-0.05,0.07,0.99,0.0,0.0,0.0,0.99,1.11,89.0,3518.0,10.3,3.86,15.0,13.25,1.237,107.8,180.0,33.0,5.0,0.0,22.0,0.0,0.0,0.0,24.0,0.0,0.0,2.25,0.0,1.0,0,0,0,0,0,0,0,0,0,0,0,0,0,0,0,0,0.0,0.0,1.0,0.0,0.0,0.0,38.985779,-76.950714,0.14,46.3,34.0,3.0,0.8,0.0,0.0,-1.0,0.0,0.0,0.0,0.0,0.025
75,847422,1745295081541,0.0253,,,,,,,,,,,,,,,,,,,,,,,,,,,,,,,,,,0,0,0,0,0,0,0,0,0,0,0,0,0,0,0,0,,,,,,,,,,,,,,,,,,,,,
76,847442,1745295081561,0.0256,0.0,17.0,,-0.04,0.01,1.05,0.0,0.0,0.0,1.05,1.11,95.0,3430.0,10.8,3.92,,13.36,1.251,107.8,,33.0,5.0,,,,,,,,,,,,0,0,0,0,0,0,0,0,0,0,0,0,0,0,0,0,,,,,,0.0,,,,,,,,,,,,,,,
77,847462,1745295081581,0.026,,,,,,,,,,,,,,,,,,,,,,,,,,,,,,,,,,0,0,0,0,0,0,0,0,0,0,0,0,0,0,0,0,,,,,,,,,,,,,,,,,,,,,
78,847482,1745295081601,0.0263,0.0,20.0,,-0.05,-0.01,1.02,-1.0,0.0,0.0,1.02,1.11,92.0,3238.0,14.6,4.37,,13.61,1.249,107.8,,33.0,5.0,,,,,,,,,,,,0,0,0,0,0,0,0,0,0,0,0,0,0,0,0,0,,,,,,0.0,,,,,,,,,,,,,,,
79,847502,1745295081621,0.0266,,,,,,,,,,,,,,,,,,,,,,,0.0,18.0,0.0,0.0,0.0,24.0,0.0,0.0,2.25,,,0,0,0,0,0,0,0,0,0,0,0,0,0,0,0,0,,0.0,,,,,38.985779,-76.950714,0.34,46.3,34.0,3.0,0.8,0.0,0.0,-1.0,0.0,,0.0,0.0,0.0266
80,847522,1745295081641,0.027,0.0,14.0,,-0.05,0.07,0.94,0.0,0.0,0.0,0.95,1.11,85.0,3232.0,16.9,4.67,,13.82,1.244,107.8,,30.3,5.0,,,,,,,,,,,,0,0,0,0,0,0,0,0,0,0,0,0,0,0,0,0,,,,,,0.0,,,,,,,,,,,,,,,
81,847542,1745295081661,0.0273,,,,,,,,,,,,,,,,,,,,,,,,,,,,,,,,,,0,0,0,0,0,0,0,0,0,0,0,0,0,0,0,0,,,,,,,,,,,,,,,,,,,,,
82,847562,1745295081681,0.0276,0.0,45.0,,-0.02,0.09,0.97,1.0,0.0,0.0,0.98,1.11,88.0,3188.0,19.4,4.9,,13.82,1.244,107.8,,30.3,5.0,,,,,,,,,,,,0,0,0,0,0,0,0,0,0,0,0,0,0,0,0,0,,,,,,0.0,,,,,,,,,,,,,,,
83,847582,1745295081701,0.028,,,,,,,,,,,,,,,,,,,,,,,,,,,,,,,,,,0,0,0,0,0,0,0,0,0,0,0,0,0,0,0,0,,,,,,,,,,,,,,,,,,,,,
84,847602,1745295081720,0.0283,0.0,107.0,,-0.01,-0.02,1.06,0.0,0.0,0.0,1.06,1.11,95.0,3188.0,19.4,4.9,,13.88,1.21,107.8,,29.7,5.0,0.0,16.0,0.0,0.0,0.0,24.0,0.0,0.0,2.27,,,0,0,0,0,0,0,0,0,0,0,0,0,0,0,0,0,,0.0,,,,0.0,38.985779,-76.950714,0.51,46.3,34.0,3.0,0.8,0.0,0.0,-1.0,0.0,0.0,0.0,0.0,0.0283
85,847622,1745295081740,0.0286,,,,,,,,,,,,,,,,,,,,,,,,,,,,,,,,,,0,0,0,0,0,0,0,0,0,0,0,0,0,0,0,0,,,,,,,,,,,,,,,,,,,,,
86,847642,1745295081760,0.029,0.0,51.0,,-0.04,-0.06,1.06,-2.0,0.0,0.0,1.06,1.11,95.0,3127.0,21.4,4.78,,14.02,1.17,107.8,,29.7,5.0,,,,,,,,,,,,0,0,0,0,0,0,0,0,0,0,0,0,0,0,0,0,,,,,,0.0,,,,,,,,,,,,,,,
87,847662,1745295081780,0.0293,,,,,,,,,,,,,,,,,,,,,,,,,,,,,,,,,,0,0,0,0,0,0,0,0,0,0,0,0,0,0,0,0,,,,,,,,,,,,,,,,,,,,,
88,847682,1745295081800,0.0296,0.0,119.0,,-0.03,0.03,0.96,0.0,0.0,0.0,0.96,1.11,86.0,3306.0,21.9,4.72,,14.03,1.154,107.8,,29.7,5.0,,,,,,,,,,,,0,0,0,0,0,0,0,0,0,0,0,0,0,0,0,0,,,,,,0.0,,,,,,,,,,,,,,,
89,847702,1745295081820,0.03,,,,,,,,,,,,,,,,,,,,,,,0.0,16.0,0.0,0.0,0.0,24.0,0.0,0.0,2.27,,,0,0,0,0,0,0,0,0,0,0,0,0,0,0,0,0,,0.0,,,,,38.985779,-76.950714,0.67,46.3,34.0,3.0,0.8,0.0,0.0,-1.0,0.0,,0.0,0.0,0.03
90,847722,1745295081840,0.0303,0.0,36.0,,-0.02,-0.0,1.04,-1.0,0.0,0.0,1.04,1.11,93.0,3275.0,24.1,4.55,,14.06,1.172,107.8,,30.9,5.0,,,,,,,,,,,,0,0,0,0,0,0,0,0,0,0,0,0,0,0,0,0,,,,,,0.0,,,,,,,,,,,,,,,
91,847742,1745295081860,0.0306,,,,,,,,,,,,,,,,,,,,,,,,,,,,,,,,,,0,0,0,0,0,0,0,0,0,0,0,0,0,0,0,0,,,,,,,,,,,,,,,,,,,,,
92,847762,1745295081880,0.031,0.0,62.0,,-0.03,0.0,0.96,-1.0,0.0,0.0,0.96,1.11,86.0,3291.0,28.5,4.47,,14.06,1.172,107.8,,30.9,5.0,,,,,,,,,,,,0,0,0,0,0,0,0,0,0,0,0,0,0,0,0,0,,,,,,0.0,,,,,,,,,,,,,,,
93,847782,1745295081904,0.0313,,,,,,,,,,,,,,,,,,,,,,,,,,,,,,,,,,0,0,0,0,0,0,0,0,0,0,0,0,0,0,0,0,,,,,,,,,,,,,,,,,,,,,
94,847802,1745295081924,0.0316,0.0,25.0,,-0.03,-0.06,1.01,-1.0,0.0,0.0,1.01,1.11,91.0,3291.0,28.5,4.47,,14.18,1.133,107.8,,31.4,5.0,0.0,16.0,0.0,0.0,0.0,46.0,0.0,0.0,2.26,,,0,0,0,0,0,0,0,0,0,0,0,0,0,0,0,0,,0.0,,,,0.0,38.985779,-76.950714,0.91,46.3,34.0,3.0,0.8,0.0,0.0,-1.0,0.0,0.0,0.0,0.0,0.0316
95,847822,1745295081944,0.032,,,,,,,,,,,,,,,,,,,,,,,,,,,,,,,,,,0,0,0,0,0,0,0,0,0,0,0,0,0,0,0,0,,,,,,,,,,,,,,,,,,,,,
96,847842,1745295081964,0.0323,0.0,36.0,,-0.02,0.02,0.98,0.0,0.0,0.0,0.98,1.11,88.0,3482.0,30.5,4.82,,14.2,1.134,107.8,,31.4,5.0,,,,,,,,,,,,0,0,0,0,0,0,0,0,0,0,0,0,0,0,0,0,,,,,,0.0,,,,,,,,,,,,,,,
97,847862,1745295081984,0.0326,,,,,,,,,,,,,,,,,,,,,,,,,,,,,,,,,,0,0,0,0,0,0,0,0,0,0,0,0,0,0,0,0,,,,,,,,,,,,,,,,,,,,,
98,847882,1745295082004,0.033,0.0,28.0,,-0.02,-0.1,0.97,-1.0,0.0,0.0,0.98,1.11,88.0,3457.0,30.7,4.89,,14.14,1.118,107.8,,31.4,5.0,,,,,,,,,,,,0,0,0,0,0,0,0,0,0,0,0,0,0,0,0,0,,,,,,0.0,,,,,,,,,,,,,,,
99,847902,1745295082014,0.0333,,,,,,,,,,,,,,,,,,,,,,,0.0,16.0,0.0,0.0,0.0,64.0,0.0,0.0,2.26,,,0,0,0,0,0,0,0,0,0,0,0,0,0,0,0,0,,0.0,,,,,38.985779,-76.950714,1.1,46.3,34.0,3.0,0.8,0.0,0.0,-1.0,0.0,,0.0,0.0,0.0333
100,847922,1745295082034,0.0336,0.0,70.0,,-0.01,-0.17,1.02,-2.0,0.0,0.0,1.03,1.11,92.0,3662.0,30.7,4.9,,14.19,1.112,107.8,,33.6,5.0,,,,,,,,,,,,0,0,0,0,0,0,0,0,0,0,0,0,0,0,0,0,,,,,,0.0,,,,,,,,,,,,,,,
101,847942,1745295082054,0.034,,,,,,,,,,,,,,,,,,,,,,,,,,,,,,,,,,0,0,0,0,0,0,0,0,0,0,0,0,0,0,0,0,,,,,,,,,,,,,,,,,,,,,
102,847962,1745295082074,0.0343,0.0,22.0,,-0.0,-0.16,1.01,-2.0,0.0,0.0,1.02,1.11,92.0,3707.0,30.6,4.94,,14.19,1.112,107.8,,33.6,5.0,,,,,,,,,,,,0,0,0,0,0,0,0,0,0,0,0,0,0,0,0,0,,,,,,0.0,,,,,,,,,,,,,,,
103,847982,1745295082094,0.0347,,,,,,,,,,,,,,,,,,,,,,,,,,,,,,,,,,0,0,0,0,0,0,0,0,0,0,0,0,0,0,0,0,,,,,,,,,,,,,,,,,,,,,
104,848002,1745295082120,0.035,0.0,31.0,,0.02,-0.03,1.05,0.0,0.0,0.0,1.05,1.11,94.0,3707.0,30.6,4.94,,14.12,1.11,107.8,,37.2,5.0,0.0,16.0,1.0,1.0,0.0,73.0,0.0,0.0,2.26,,,0,0,0,0,0,0,0,0,0,0,0,0,0,0,0,0,,0.0,,,,0.0,38.985779,-76.950722,1.43,46.3,34.0,3.0,0.8,0.0,0.0,-1.0,0.0,0.0,0.0,0.0,0.035
105,848022,1745295082140,0.0353,,,,,,,,,,,,,,,,,,,,,,,,,,,,,,,,,,0,0,0,0,0,0,0,0,0,0,0,0,0,0,0,0,,,,,,,,,,,,,,,,,,,,,
106,848042,1745295082160,0.0356,0.0,28.0,,0.06,-0.11,0.95,0.0,0.0,0.0,0.96,1.11,86.0,4265.0,30.6,4.94,,14.07,1.13,107.8,,37.2,5.0,,,,,,,,,,,,0,0,0,0,0,0,0,0,0,0,0,0,0,0,0,0,,,,,,0.0,,,,,,,,,,,,,,,
107,848062,1745295082180,0.036,,,,,,,,,,,,,,,,,,,,,,,,,,,,,,,,,,0,0,0,0,0,0,0,0,0,0,0,0,0,0,0,0,,,,,,,,,,,,,,,,,,,,,
108,848082,1745295082200,0.0363,0.0,39.0,,0.08,0.01,1.02,2.0,0.0,0.0,1.02,1.11,92.0,4690.0,30.5,4.81,,13.88,1.092,107.8,,37.2,5.0,,,,,,,,,,,,0,0,0,0,0,0,0,0,0,0,0,0,0,0,0,0,,,,,,0.0,,,,,,,,,,,,,,,
109,848102,1745295082220,0.0366,,,,,,,,,,,,,,,,,,,,,,,1.0,16.0,1.0,1.0,0.0,90.0,0.0,0.0,2.26,,,0,0,0,0,0,0,0,0,0,0,0,0,0,0,0,0,,0.0,,,,,38.985779,-76.950722,1.69,46.3,34.0,3.0,0.8,0.0,0.0,-1.0,0.0,,0.0,0.0,0.0366
110,848122,1745295082240,0.037,0.0,34.0,,0.07,-0.0,0.99,1.0,0.0,0.0,1.0,1.11,90.0,5083.0,30.5,4.75,,13.88,1.092,107.8,,45.6,5.0,,,,,,,,,,,,0,0,0,0,0,0,0,0,0,0,0,0,0,0,0,0,,,,,,0.0,,,,,,,,,,,,,,,
111,848142,1745295082260,0.0373,,,,,,,,,,,,,,,,,,,,,,,,,,,,,,,,,,0,0,0,0,0,0,0,0,0,0,0,0,0,0,0,0,,,,,,,,,,,,,,,,,,,,,
112,848162,1745295082280,0.0376,0.0,22.0,,0.06,-0.03,1.0,0.0,0.0,0.0,1.01,1.11,90.0,5726.0,30.5,4.71,,13.82,1.001,107.8,,45.6,5.0,,,,,,,,,,,,0,0,0,0,0,0,0,0,0,0,0,0,0,0,0,0,,,,,,0.0,,,,,,,,,,,,,,,
113,848182,1745295082304,0.038,,,,,,,,,,,,,,,,,,,,,,,,,,,,,,,,,,0,0,0,0,0,0,0,0,0,0,0,0,0,0,0,0,,,,,,,,,,,,,,,,,,,,,
114,848202,1745295082324,0.0383,0.0,25.0,,0.06,-0.01,1.06,-1.0,0.0,1.0,1.07,1.11,96.0,5726.0,30.5,4.71,,13.43,0.946,107.8,,56.1,5.0,1.0,16.0,1.0,1.0,0.0,108.0,0.0,0.0,2.26,,,0,0,0,0,0,0,0,0,0,0,0,0,0,0,0,0,,0.0,,,,0.0,38.985779,-76.950722,2.14,46.3,34.0,3.0,0.8,0.0,0.0,-1.0,0.0,0.0,0.0,0.0,0.0383
115,848222,1745295082344,0.0386,,,,,,,,,,,,,,,,,,,,,,,,,,,,,,,,,,0,0,0,0,0,0,0,0,0,0,0,0,0,0,0,0,,,,,,,,,,,,,,,,,,,,,
116,848242,1745295082364,0.039,0.0,28.0,,0.07,-0.13,1.0,-1.0,0.0,0.0,1.01,1.11,91.0,6193.0,30.5,4.75,,13.27,0.904,107.8,,56.1,5.0,,,,,,,,,,,,0,0,0,0,0,0,0,0,0,0,0,0,0,0,0,0,,,,,,0.0,,,,,,,,,,,,,,,
117,848262,1745295082384,0.0393,,,,,,,,,,,,,,,,,,,,,,,,,,,,,,,,,,0,0,0,0,0,0,0,0,0,0,0,0,0,0,0,0,,,,,,,,,,,,,,,,,,,,,
118,848282,1745295082404,0.0396,0.0,39.0,,0.08,-0.08,1.04,-2.0,0.0,1.0,1.05,1.11,94.0,6466.0,30.2,4.93,,13.05,0.968,107.8,,56.1,5.0,,,,,,,,,,,,0,0,0,0,0,0,0,0,0,0,0,0,0,0,0,0,,,,,,0.0,,,,,,,,,,,,,,,
119,848302,1745295082424,0.04,,,,,,,,,,,,,,,,,,,,,,,1.0,16.0,1.0,1.0,0.0,134.0,0.0,0.0,2.26,,,0,0,0,0,0,0,0,0,0,0,0,0,0,0,0,0,,0.0,,,,,38.985779,-76.950722,2.74,46.3,34.0,3.0,0.8,0.0,0.0,-1.0,0.0,,0.0,0.0,0.04
120,848322,1745295082444,0.0403,0.0,34.0,,0.07,-0.06,1.05,-2.0,0.0,0.0,1.05,1.11,94.0,6685.0,30.2,5.06,,13.01,1.015,107.8,,63.7,5.0,,,,,,,,,,,,0,0,0,0,0,0,0,0,0,0,0,0,0,0,0,0,,,,,,0.0,,,,,,,,,,,,,,,
121,848342,1745295082464,0.0406,,,,,,,,,,,,,,,,,,,,,,,,,,,,,,,,,,0,0,0,0,0,0,0,0,0,0,0,0,0,0,0,0,,,,,,,,,,,,,,,,,,,,,
122,848362,1745295082484,0.041,0.0,11.0,,0.07,-0.12,1.02,-2.0,0.0,0.0,1.03,1.11,93.0,6912.0,25.5,4.99,,13.01,1.015,107.8,,63.7,5.0,,,,,,,,,,,,0,0,0,0,0,0,0,0,0,0,0,0,0,0,0,0,,,,,,0.0,,,,,,,,,,,,,,,
123,848382,1745295082504,0.0413,,,,,,,,,,,,,,,,,,,,,,,,,,,,,,,,,,0,0,0,0,0,0,0,0,0,0,0,0,0,0,0,0,,,,,,,,,,,,,,,,,,,,,
124,848402,1745295082524,0.0416,0.0,31.0,13.6,0.1,-0.12,1.01,-1.0,0.0,0.0,1.02,1.11,92.0,6912.0,25.5,4.99,15.0,12.71,1.008,107.8,178.0,65.9,5.0,2.0,16.0,2.0,2.0,0.0,174.0,0.0,0.0,2.26,0.0,1.0,0,0,0,0,0,0,0,0,0,0,0,0,0,0,0,0,0.0,0.0,1.0,0.0,0.0,0.0,38.985779,-76.950722,3.61,46.3,34.0,3.0,0.8,0.0,0.0,-1.0,0.0,0.0,0.0,0.0001,0.0416
125,848422,1745295082544,0.042,,,,,,,,,,,,,,,,,,,,,,,,,,,,,,,,,,0,0,0,0,0,0,0,0,0,0,0,0,0,0,0,0,,,,,,,,,,,,,,,,,,,,,
126,848442,1745295082564,0.0423,0.0,48.0,,0.09,-0.12,1.04,-2.0,0.0,0.0,1.05,1.11,94.0,7056.0,21.5,5.15,,12.15,0.974,107.8,,65.9,5.0,,,,,,,,,,,,0,0,0,0,0,0,0,0,0,0,0,0,0,0,0,0,,,,,,0.0,,,,,,,,,,,,,,,
127,848462,1745295082584,0.0426,,,,,,,,,,,,,,,,,,,,,,,,,,,,,,,,,,0,0,0,0,0,0,0,0,0,0,0,0,0,0,0,0,,,,,,,,,,,,,,,,,,,,,
128,848482,1745295082604,0.043,0.0,31.0,,0.09,-0.11,1.02,-1.0,0.0,0.0,1.03,1.11,93.0,7103.0,21.2,5.14,,11.89,0.911,107.8,,65.9,5.0,,,,,,,,,,,,0,0,0,0,0,0,0,0,0,0,0,0,0,0,0,0,,,,,,0.0,,,,,,,,,,,,,,,
129,848502,1745295082624,0.0433,,,,,,,,,,,,,,,,,,,,,,,2.0,16.0,2.0,2.0,0.0,213.0,0.0,0.0,2.26,,,0,0,0,0,0,0,0,0,0,0,0,0,0,0,0,0,,0.0,,,,,38.985779,-76.950722,4.39,46.3,34.0,3.0,0.8,0.0,0.0,-1.0,0.0,,0.0,0.0002,0.0433
130,848522,1745295082644,0.0436,0.0,17.0,,0.1,-0.11,1.0,-3.0,0.0,1.0,1.01,1.11,91.0,7364.0,20.9,5.35,,11.75,0.861,107.8,,63.5,5.0,,,,,,,,,,,,0,0,0,0,0,0,0,0,0,0,0,0,0,0,0,0,,,,,,0.0,,,,,,,,,,,,,,,
131,848542,1745295082664,0.044,,,,,,,,,,,,,,,,,,,,,,,,,,,,,,,,,,0,0,0,0,0,0,0,0,0,0,0,0,0,0,0,0,,,,,,,,,,,,,,,,,,,,,
132,848562,1745295082684,0.0443,0.0,11.0,,0.11,-0.11,0.97,-5.0,0.0,1.0,0.98,1.11,88.0,7465.0,20.4,5.46,,11.75,0.861,107.8,,63.5,5.0,,,,,,,,,,,,0,0,0,0,0,0,0,0,0,0,0,0,0,0,0,0,,,,,,0.0,,,,,,,,,,,,,,,
133,848582,1745295082703,0.0446,,,,,,,,,,,,,,,,,,,,,,,,,,,,,,,,,,0,0,0,0,0,0,0,0,0,0,0,0,0,0,0,0,,,,,,,,,,,,,,,,,,,,,
134,848602,1745295082723,0.045,0.0,11.0,,0.14,0.04,0.93,-7.0,0.0,2.0,0.94,1.11,84.0,7465.0,20.4,5.46,,11.46,0.774,107.8,,64.5,5.0,3.0,16.0,3.0,3.0,0.0,10.0,0.0,0.0,2.26,,,0,0,0,0,0,0,0,0,0,0,0,0,0,0,0,0,,0.0,,,,0.0,38.985779,-76.950722,5.32,46.2,34.0,3.0,0.8,0.0,0.0,-1.0,0.0,0.0,0.0,0.0002,0.045
135,848622,1745295082743,0.0453,,,,,,,,,,,,,,,,,,,,,,,,,,,,,,,,,,0,0,0,0,0,0,0,0,0,0,0,0,0,0,0,0,,,,,,,,,,,,,,,,,,,,,
136,848642,1745295082763,0.0457,0.0,17.0,,0.14,0.01,0.91,-7.0,0.0,2.0,0.92,1.11,82.0,7486.0,20.0,5.53,,11.28,0.737,107.8,,64.5,5.0,,,,,,,,,,,,0,0,0,0,0,0,0,0,0,0,0,0,0,0,0,0,,,,,,0.0,,,,,,,,,,,,,,,
137,848662,1745295082783,0.046,,,,,,,,,,,,,,,,,,,,,,,,,,,,,,,,,,0,0,0,0,0,0,0,0,0,0,0,0,0,0,0,0,,,,,,,,,,,,,,,,,,,,,
138,848682,1745295082803,0.0463,0.0,65.0,,0.16,0.11,0.91,-8.0,0.0,2.0,0.93,1.11,84.0,7450.0,19.9,5.5,,11.29,0.723,107.8,,64.5,5.0,,,,,,,,,,,,0,0,0,0,0,0,0,0,0,0,0,0,0,0,0,0,,,,,,0.0,,,,,,,,,,,,,,,
139,848702,1745295082823,0.0466,,,,,,,,,,,,,,,,,,,,,,,4.0,16.0,4.0,4.0,0.0,58.0,0.0,0.0,2.26,,,0,0,0,0,0,0,0,0,0,0,0,0,0,0,0,0,,0.0,,,,,38.985779,-76.950729,6.33,46.2,34.0,3.0,0.8,0.0,0.0,-1.0,0.0,,0.0,0.0003,0.0466
140,848722,1745295082843,0.047,0.0,22.0,,0.17,0.14,0.93,-6.0,0.0,2.0,0.96,1.11,86.0,7292.0,19.8,5.42,,11.34,0.711,107.8,,62.5,5.0,,,,,,,,,,,,0,0,0,0,0,0,0,0,0,0,0,0,0,0,0,0,,,,,,0.0,,,,,,,,,,,,,,,
141,848742,1745295082863,0.0473,,,,,,,,,,,,,,,,,,,,,,,,,,,,,,,,,,0,0,0,0,0,0,0,0,0,0,0,0,0,0,0,0,,,,,,,,,,,,,,,,,,,,,
142,848762,1745295082883,0.0476,0.0,14.0,,0.17,0.08,0.93,-5.0,0.0,1.0,0.95,1.11,85.0,7157.0,19.8,5.33,,11.34,0.711,107.8,,62.5,5.0,,,,,,,,,,,,0,0,0,0,0,0,0,0,0,0,0,0,0,0,0,0,,,,,,0.0,,,,,,,,,,,,,,,
143,848782,1745295082903,0.048,,,,,,,,,,,,,,,,,,,,,,,,,,,,,,,,,,0,0,0,0,0,0,0,0,0,0,0,0,0,0,0,0,,,,,,,,,,,,,,,,,,,,,
144,848802,1745295082923,0.0483,0.0,17.0,,0.19,0.13,0.96,-4.0,0.0,1.0,0.99,1.11,89.0,7157.0,19.8,5.33,,11.38,0.708,107.8,,60.5,5.0,5.0,16.0,4.0,4.0,0.0,97.0,0.0,0.0,2.25,,,0,0,0,0,0,0,0,0,0,0,0,0,0,0,0,0,,0.0,,,,0.0,38.985779,-76.950729,7.41,46.2,34.0,3.0,0.8,0.0,0.0,-1.0,0.0,0.0,0.0,0.0005,0.0483
145,848822,1745295082943,0.0486,,,,,,,,,,,,,,,,,,,,,,,,,,,,,,,,,,0,0,0,0,0,0,0,0,0,0,0,0,0,0,0,0,,,,,,,,,,,,,,,,,,,,,
146,848842,1745295082963,0.049,0.0,28.0,,0.2,0.13,0.96,-4.0,0.0,1.0,0.99,1.11,89.0,6941.0,19.9,5.17,,11.52,0.703,107.8,,60.5,5.0,,,,,,,,,,,,0,0,0,0,0,0,0,0,0,0,0,0,0,0,0,0,,,,,,0.0,,,,,,,,,,,,,,,
147,848862,1745295082983,0.0493,,,,,,,,,,,,,,,,,,,,,,,,,,,,,,,,,,0,0,0,0,0,0,0,0,0,0,0,0,0,0,0,0,,,,,,,,,,,,,,,,,,,,,
148,848882,1745295083003,0.0496,0.0,22.0,,0.21,0.08,0.94,-3.0,0.0,1.0,0.96,1.11,87.0,6722.0,19.7,4.97,,11.5,0.705,107.8,,60.5,5.0,,,,,,,,,,,,0,0,0,0,0,0,0,0,0,0,0,0,0,0,0,0,,,,,,0.0,,,,,,,,,,,,,,,
149,848902,1745295083015,0.05,,,,,,,,,,,,,,,,,,,,,,,5.0,16.0,5.0,5.0,0.0,159.0,0.0,0.0,2.25,,,0,0,0,0,0,0,0,0,0,0,0,0,0,0,0,0,,0.0,,,,,38.985779,-76.950737,9.2,46.2,34.0,3.0,0.8,0.0,0.0,-1.0,0.0,,0.0,0.0006,0.05
150,848922,1745295083035,0.0503,0.0,17.0,,0.21,0.05,0.95,-4.0,0.0,1.0,0.98,1.11,88.0,6375.0,19.1,4.62,,11.64,0.716,107.8,,56.3,5.0,,,,,,,,,,,,0,0,0,0,0,0,0,0,0,0,0,0,0,0,0,0,,,,,,0.0,,,,,,,,,,,,,,,
151,848942,1745295083055,0.0506,,,,,,,,,,,,,,,,,,,,,,,,,,,,,,,,,,0,0,0,0,0,0,0,0,0,0,0,0,0,0,0,0,,,,,,,,,,,,,,,,,,,,,
152,848962,1745295083075,0.051,0.0,22.0,,0.21,-0.1,0.91,-3.0,0.0,1.0,0.94,1.11,85.0,6078.0,18.8,4.27,,11.64,0.716,107.8,,56.3,5.0,,,,,,,,,,,,0,0,0,0,0,0,0,0,0,0,0,0,0,0,0,0,,,,,,0.0,,,,,,,,,,,,,,,
153,848982,1745295083103,0.0513,,,,,,,,,,,,,,,,,,,,,,,,,,,,,,,,,,0,0,0,0,0,0,0,0,0,0,0,0,0,0,0,0,,,,,,,,,,,,,,,,,,,,,
154,849002,1745295083123,0.0516,0.0,20.0,,0.2,-0.17,0.92,-3.0,0.0,1.0,0.96,1.11,86.0,6078.0,18.8,4.27,,11.8,0.735,107.8,,54.3,5.0,6.0,16.0,6.0,7.0,0.0,233.0,0.0,0.0,2.25,,,0,0,0,0,0,0,0,0,0,0,0,0,0,0,0,0,,0.0,,,,0.0,38.985779,-76.950737,10.63,46.2,34.0,3.0,0.8,0.0,0.0,-1.0,0.0,0.0,0.0,0.0008,0.0516
155,849022,1745295083143,0.052,,,,,,,,,,,,,,,,,,,,,,,,,,,,,,,,,,0,0,0,0,0,0,0,0,0,0,0,0,0,0,0,0,,,,,,,,,,,,,,,,,,,,,
156,849042,1745295083163,0.0523,0.0,20.0,,0.25,-0.09,0.97,-3.0,0.0,1.0,1.01,1.11,91.0,5501.0,18.4,3.89,,12.23,0.759,107.8,,54.3,5.0,,,,,,,,,,,,0,0,0,0,0,0,0,0,0,0,0,0,0,0,0,0,,,,,,0.0,,,,,,,,,,,,,,,
157,849062,1745295083183,0.0526,,,,,,,,,,,,,,,,,,,,,,,,,,,,,,,,,,0,0,0,0,0,0,0,0,0,0,0,0,0,0,0,0,,,,,,,,,,,,,,,,,,,,,
158,849082,1745295083203,0.053,0.0,31.0,,0.22,-0.17,0.93,-2.0,0.0,0.0,0.97,1.11,87.0,4884.0,18.4,3.51,,12.76,0.785,107.8,,54.3,5.0,,,,,,,,,,,,0,0,0,0,0,0,0,0,0,0,0,0,0,0,0,0,,,,,,0.0,,,,,,,,,,,,,,,
159,849102,1745295083223,0.0533,,,,,,,,,,,,,,,,,,,,,,,7.0,16.0,7.0,7.0,0.0,34.0,0.0,0.0,2.26,,,0,0,0,0,0,0,0,0,0,0,0,0,0,0,0,0,,0.0,,,,,38.985779,-76.950737,12.67,46.2,34.0,3.0,0.8,0.0,0.0,-1.0,0.0,,0.0,0.0009,0.0533
160,849122,1745295083243,0.0536,0.0,22.0,,0.23,-0.11,0.95,-2.0,0.0,1.0,0.98,1.11,88.0,4216.0,18.4,3.88,,12.76,0.785,107.8,,48.5,5.0,,,,,,,,,,,,0,0,0,0,0,0,0,0,0,0,0,0,0,0,0,0,,,,,,0.0,,,,,,,,,,,,,,,
161,849142,1745295083263,0.054,,,,,,,,,,,,,,,,,,,,,,,,,,,,,,,,,,0,0,0,0,0,0,0,0,0,0,0,0,0,0,0,0,,,,,,,,,,,,,,,,,,,,,
162,849162,1745295083283,0.0543,0.0,25.0,,0.24,-0.11,0.94,-2.0,0.0,0.0,0.98,1.11,88.0,3610.0,18.4,4.29,,13.24,0.838,107.8,,48.5,5.0,,,,,,,,,,,,0,0,0,0,0,0,0,0,0,0,0,0,0,0,0,0,,,,,,0.0,,,,,,,,,,,,,,,
163,849182,1745295083303,0.0546,,,,,,,,,,,,,,,,,,,,,,,,,,,,,,,,,,0,0,0,0,0,0,0,0,0,0,0,0,0,0,0,0,,,,,,,,,,,,,,,,,,,,,
164,849202,1745295083323,0.055,0.0,11.0,,0.23,-0.18,1.0,-1.0,0.0,0.0,1.05,1.11,94.0,3610.0,18.4,4.29,,13.59,0.821,107.8,,33.0,5.0,8.0,16.0,8.0,8.0,0.0,131.0,0.0,0.0,2.25,,,0,0,0,0,0,0,0,0,0,0,0,0,0,0,0,0,,0.0,,,,0.0,38.985779,-76.950737,13.77,46.2,34.0,3.0,0.8,0.0,0.0,-1.0,0.0,0.0,0.0,0.0012,0.055
165,849222,1745295083343,0.0553,,,,,,,,,,,,,,,,,,,,,,,,,,,,,,,,,,0,0,0,0,0,0,0,0,0,0,0,0,0,0,0,0,,,,,,,,,,,,,,,,,,,,,
166,849242,1745295083363,0.0556,0.0,14.0,,0.22,-0.17,1.02,-1.0,0.0,0.0,1.05,1.11,95.0,3124.0,18.3,4.67,,13.94,0.821,107.8,,33.0,5.0,,,,,,,,,,,,0,0,0,0,0,0,0,0,0,0,0,0,0,0,0,0,,,,,,0.0,,,,,,,,,,,,,,,
167,849262,1745295083383,0.056,,,,,,,,,,,,,,,,,,,,,,,,,,,,,,,,,,0,0,0,0,0,0,0,0,0,0,0,0,0,0,0,0,,,,,,,,,,,,,,,,,,,,,
168,849282,1745295083403,0.0563,0.0,11.0,,0.18,-0.16,1.01,0.0,0.0,0.0,1.04,1.11,93.0,2319.0,18.4,4.85,,14.22,0.859,107.8,,33.0,5.0,,,,,,,,,,,,0,0,0,0,0,0,0,0,0,0,0,0,0,0,0,0,,,,,,0.0,,,,,,,,,,,,,,,
169,849302,1745295083423,0.0566,,,,,,,,,,,,,,,,,,,,,,,9.0,16.0,9.0,9.0,0.0,140.0,0.0,0.0,2.26,,,0,0,0,0,0,0,0,0,0,0,0,0,0,0,0,0,,0.0,,,,,38.985779,-76.950745,15.64,46.2,34.0,3.0,0.8,0.0,0.0,-1.0,0.0,,0.0,0.0014,0.0566
170,849322,1745295083443,0.057,0.0,5.0,,0.15,-0.16,1.01,0.0,0.0,0.0,1.03,1.11,93.0,1922.0,18.6,4.74,,14.31,0.894,107.8,,22.4,5.0,,,,,,,,,,,,0,0,0,0,0,0,0,0,0,0,0,0,0,0,0,0,,,,,,0.0,,,,,,,,,,,,,,,
171,849342,1745295083463,0.0573,,,,,,,,,,,,,,,,,,,,,,,,,,,,,,,,,,0,0,0,0,0,0,0,0,0,0,0,0,0,0,0,0,,,,,,,,,,,,,,,,,,,,,
172,849362,1745295083483,0.0576,0.0,14.0,,0.12,-0.15,0.99,0.0,0.0,0.0,1.01,1.11,90.0,2030.0,18.8,4.64,,14.31,0.894,107.8,,22.4,5.0,,,,,,,,,,,,0,0,0,0,0,0,0,0,0,0,0,0,0,0,0,0,,,,,,0.0,,,,,,,,,,,,,,,
173,849382,1745295083503,0.058,,,,,,,,,,,,,,,,,,,,,,,,,,,,,,,,,,0,0,0,0,0,0,0,0,0,0,0,0,0,0,0,0,,,,,,,,,,,,,,,,,,,,,
174,849402,1745295083523,0.0583,0.0,8.0,13.7,0.09,-0.13,0.97,0.0,0.0,0.0,0.98,1.11,88.0,2030.0,18.8,4.64,15.0,14.3,0.902,107.8,178.0,19.3,5.0,10.0,16.0,10.0,10.0,0.0,135.0,0.0,0.0,2.25,0.0,1.0,0,0,0,0,0,0,0,0,0,0,0,0,0,0,0,0,0.0,3.0,1.0,0.0,0.0,0.0,38.985779,-76.950752,15.94,46.2,34.0,3.0,0.8,0.0,0.0,-1.0,0.0,0.0,0.0,0.0017,0.0583
175,849422,1745295083543,0.0586,,,,,,,,,,,,,,,,,,,,,,,,,,,,,,,,,,0,0,0,0,0,0,0,0,0,0,0,0,0,0,0,0,,,,,,,,,,,,,,,,,,,,,
176,849442,1745295083563,0.059,0.0,11.0,,0.06,-0.12,0.98,0.0,0.0,0.0,0.99,1.11,89.0,2073.0,18.8,4.65,,14.24,0.911,107.8,,19.3,5.0,,,,,,,,,,,,0,0,0,0,0,0,0,0,0,0,0,0,0,0,0,0,,,,,,0.0,,,,,,,,,,,,,,,
177,849462,1745295083583,0.0593,,,,,,,,,,,,,,,,,,,,,,,,,,,,,,,,,,0,0,0,0,0,0,0,0,0,0,0,0,0,0,0,0,,,,,,,,,,,,,,,,,,,,,
178,849482,1745295083605,0.0596,0.0,8.0,,0.04,-0.13,1.02,0.0,0.0,0.0,1.03,1.11,92.0,2387.0,18.9,4.74,,14.19,0.924,107.8,,19.3,5.0,,,,,,,,,,,,0,0,0,0,0,0,0,0,0,0,0,0,0,0,0,0,,,,,,0.0,,,,,,,,,,,,,,,
179,849502,1745295083625,0.06,,,,,,,,,,,,,,,,,,,,,,,10.0,16.0,10.0,10.0,0.0,249.0,0.0,0.0,2.26,,,0,0,0,0,0,0,0,0,0,0,0,0,0,0,0,0,,2.0,,,,,38.985779,-76.95076,14.87,46.2,34.0,3.0,0.8,0.0,0.0,-1.0,0.0,,0.0,0.002,0.06
180,849522,1745295083645,0.0603,0.0,0.0,,0.02,-0.13,0.99,1.0,0.0,0.0,1.0,1.11,89.0,2551.0,18.8,4.83,,14.15,0.951,107.8,,21.5,5.0,,,,,,,,,,,,0,0,0,0,0,0,0,0,0,0,0,0,0,0,0,0,,,,,,0.0,,,,,,,,,,,,,,,
181,849542,1745295083665,0.0606,,,,,,,,,,,,,,,,,,,,,,,,,,,,,,,,,,0,0,0,0,0,0,0,0,0,0,0,0,0,0,0,0,,,,,,,,,,,,,,,,,,,,,
182,849562,1745295083685,0.061,0.0,5.0,,0.0,-0.13,1.01,1.0,0.0,0.0,1.02,1.11,92.0,2677.0,18.7,4.87,,14.15,0.951,107.8,,21.5,5.0,,,,,,,,,,,,0,0,0,0,0,0,0,0,0,0,0,0,0,0,0,0,,,,,,0.0,,,,,,,,,,,,,,,
183,849582,1745295083704,0.0613,,,,,,,,,,,,,,,,,,,,,,,,,,,,,,,,,,0,0,0,0,0,0,0,0,0,0,0,0,0,0,0,0,,,,,,,,,,,,,,,,,,,,,
184,849602,1745295083724,0.0616,0.0,-4.0,,0.04,-0.12,1.01,1.0,0.0,0.0,1.02,1.11,91.0,2677.0,18.7,4.87,,14.15,0.965,107.8,,24.5,5.0,9.0,0.0,9.0,9.0,0.0,0.0,0.0,0.0,2.25,,,0,0,0,0,0,0,0,0,0,0,0,0,0,0,0,0,,0.0,,,,0.0,38.985779,-76.95076,14.88,46.2,34.0,3.0,0.8,0.0,0.0,-1.0,0.0,0.0,0.0,0.0022,0.0616
185,849622,1745295083744,0.062,,,,,,,,,,,,,,,,,,,,,,,,,,,,,,,,,,0,0,0,0,0,0,0,0,0,0,0,0,0,0,0,0,,,,,,,,,,,,,,,,,,,,,
186,849642,1745295083764,0.0623,0.0,14.0,,0.05,-0.09,1.02,1.0,0.0,0.0,1.02,1.11,92.0,2668.0,18.7,4.94,,14.19,0.973,107.8,,24.5,5.0,,,,,,,,,,,,0,0,0,0,0,0,0,0,0,0,0,0,0,0,0,0,,,,,,0.0,,,,,,,,,,,,,,,
187,849662,1745295083784,0.0626,,,,,,,,,,,,,,,,,,,,,,,,,,,,,,,,,,0,0,0,0,0,0,0,0,0,0,0,0,0,0,0,0,,,,,,,,,,,,,,,,,,,,,
188,849682,1745295083804,0.063,0.0,8.0,,0.03,-0.08,1.01,1.0,0.0,0.0,1.01,1.11,91.0,2003.0,18.6,4.79,,14.35,0.984,107.8,,24.5,5.0,,,,,,,,,,,,0,0,0,0,0,0,0,0,0,0,0,0,0,0,0,0,,,,,,0.0,,,,,,,,,,,,,,,
189,849702,1745295083824,0.0633,,,,,,,,,,,,,,,,,,,,,,,9.0,0.0,10.0,10.0,0.0,250.0,0.0,0.0,2.26,,,0,0,0,0,0,0,0,0,0,0,0,0,0,0,0,0,,3.0,,,,,38.985779,-76.950768,15.26,46.2,34.0,3.0,0.8,0.0,0.0,-1.0,0.0,,0.0,0.0025,0.0633
190,849722,1745295083844,0.0636,0.0,5.0,,0.04,-0.09,1.01,2.0,-1.0,0.0,1.02,1.11,91.0,2143.0,18.6,4.68,,14.24,0.992,107.8,,20.2,5.0,,,,,,,,,,,,0,0,0,0,0,0,0,0,0,0,0,0,0,0,0,0,,,,,,0.0,,,,,,,,,,,,,,,
191,849742,1745295083864,0.064,,,,,,,,,,,,,,,,,,,,,,,,,,,,,,,,,,0,0,0,0,0,0,0,0,0,0,0,0,0,0,0,0,,,,,,,,,,,,,,,,,,,,,
192,849762,1745295083884,0.0643,0.0,5.0,,0.01,-0.07,1.02,2.0,-1.0,0.0,1.02,1.11,91.0,2280.0,18.7,4.71,,14.24,0.992,107.8,,20.2,5.0,,,,,,,,,,,,0,0,0,0,0,0,0,0,0,0,0,0,0,0,0,0,,,,,,0.0,,,,,,,,,,,,,,,
193,849782,1745295083904,0.0646,,,,,,,,,,,,,,,,,,,,,,,,,,,,,,,,,,0,0,0,0,0,0,0,0,0,0,0,0,0,0,0,0,,,,,,,,,,,,,,,,,,,,,
194,849802,1745295083924,0.065,0.0,5.0,,-0.0,-0.08,1.01,2.0,-1.0,0.0,1.02,1.11,91.0,2280.0,18.7,4.71,,14.23,1.009,107.8,,20.8,5.0,10.0,0.0,10.0,10.0,0.0,236.0,0.0,0.0,2.26,,,0,0,0,0,0,0,0,0,0,0,0,0,0,0,0,0,,2.0,,,,0.0,38.985779,-76.950775,15.72,46.2,34.0,3.0,0.8,0.0,0.0,-1.0,0.0,0.0,0.0,0.0027,0.065
195,849822,1745295083944,0.0653,,,,,,,,,,,,,,,,,,,,,,,,,,,,,,,,,,0,0,0,0,0,0,0,0,0,0,0,0,0,0,0,0,,,,,,,,,,,,,,,,,,,,,
196,849842,1745295083964,0.0656,0.0,8.0,,0.0,-0.04,1.04,2.0,-1.0,0.0,1.04,1.11,94.0,2410.0,18.8,4.78,,14.19,1.029,107.8,,20.8,5.0,,,,,,,,,,,,0,0,0,0,0,0,0,0,0,0,0,0,0,0,0,0,,,,,,0.0,,,,,,,,,,,,,,,
197,849862,1745295083984,0.066,,,,,,,,,,,,,,,,,,,,,,,,,,,,,,,,,,0,0,0,0,0,0,0,0,0,0,0,0,0,0,0,0,,,,,,,,,,,,,,,,,,,,,
198,849882,1745295084004,0.0663,0.0,8.0,,0.0,-0.04,1.02,3.0,-1.0,0.0,1.02,1.11,92.0,2553.0,18.8,4.83,,14.16,1.004,107.8,,20.8,5.0,,,,,,,,,,,,0,0,0,0,0,0,0,0,0,0,0,0,0,0,0,0,,,,,,0.0,,,,,,,,,,,,,,,
199,849902,1745295084014,0.0667,,,,,,,,,,,,,,,,,,,,,,,10.0,0.0,10.0,10.0,0.0,250.0,0.0,0.0,2.25,,,0,0,0,0,0,0,0,0,0,0,0,0,0,0,0,0,,0.0,,,,,38.985775,-76.950775,15.56,46.2,34.0,3.0,0.8,0.0,0.0,-1.0,0.0,,0.0,0.003,0.0667
200,849922,1745295084034,0.067,0.0,0.0,,0.04,-0.06,1.03,3.0,-1.0,0.0,1.03,1.11,92.0,2605.0,18.9,4.87,,14.2,0.992,107.8,,23.1,5.0,,,,,,,,,,,,0,0,0,0,0,0,0,0,0,0,0,0,0,0,0,0,,,,,,0.0,,,,,,,,,,,,,,,
201,849942,1745295084054,0.0673,,,,,,,,,,,,,,,,,,,,,,,,,,,,,,,,,,0,0,0,0,0,0,0,0,0,0,0,0,0,0,0,0,,,,,,,,,,,,,,,,,,,,,
202,849962,1745295084074,0.0676,0.0,8.0,,0.03,-0.03,1.02,3.0,-1.0,0.0,1.02,1.11,92.0,2269.0,18.9,4.84,,14.2,0.992,107.8,,23.1,5.0,,,,,,,,,,,,0,0,0,0,0,0,0,0,0,0,0,0,0,0,0,0,,,,,,0.0,,,,,,,,,,,,,,,
203,849982,1745295084094,0.068,,,,,,,,,,,,,,,,,,,,,,,,,,,,,,,,,,0,0,0,0,0,0,0,0,0,0,0,0,0,0,0,0,,,,,,,,,,,,,,,,,,,,,
204,850002,1745295084114,0.0683,0.0,3.0,,0.03,-0.06,1.0,4.0,-1.0,0.0,1.01,1.11,90.0,2269.0,18.9,4.84,,14.28,0.978,107.8,,21.6,5.0,9.0,0.0,10.0,10.0,0.0,250.0,0.0,0.0,2.25,,,0,0,0,0,0,0,0,0,0,0,0,0,0,0,0,0,,0.0,,,,0.0,38.985775,-76.950775,15.46,46.2,34.0,3.0,0.8,0.0,0.0,-1.0,0.0,0.0,0.0,0.0033,0.0683
205,850022,1745295084134,0.0686,,,,,,,,,,,,,,,,,,,,,,,,,,,,,,,,,,0,0,0,0,0,0,0,0,0,0,0,0,0,0,0,0,,,,,,,,,,,,,,,,,,,,,
206,850042,1745295084154,0.069,0.0,14.0,,0.03,-0.05,1.0,4.0,-1.0,0.0,1.0,1.11,90.0,2270.0,18.9,4.75,,14.26,0.983,106.0,,21.6,5.0,,,,,,,,,,,,0,0,0,0,0,0,0,0,0,0,0,0,0,0,0,0,,,,,,0.0,,,,,,,,,,,,,,,
207,850062,1745295084174,0.0693,,,,,,,,,,,,,,,,,,,,,,,,,,,,,,,,,,0,0,0,0,0,0,0,0,0,0,0,0,0,0,0,0,,,,,,,,,,,,,,,,,,,,,
208,850082,1745295084194,0.0696,0.0,11.0,,0.01,-0.01,1.0,4.0,-1.0,0.0,1.0,1.11,89.0,2343.0,18.8,4.76,,14.23,0.998,106.0,,21.6,5.0,,,,,,,,,,,,0,0,0,0,0,0,0,0,0,0,0,0,0,0,0,0,,,,,,0.0,,,,,,,,,,,,,,,
209,850102,1745295084220,0.07,,,,,,,,,,,,,,,,,,,,,,,10.0,0.0,10.0,10.0,0.0,13.0,0.0,0.0,2.26,,,0,0,0,0,0,0,0,0,0,0,0,0,0,0,0,0,,0.0,,,,,38.985775,-76.950783,16.04,46.2,34.0,3.0,0.8,0.0,0.0,-1.0,0.0,,0.0,0.0036,0.07
210,850122,1745295084240,0.0703,0.0,11.0,,0.01,0.0,0.98,5.0,-1.0,0.0,0.98,1.11,88.0,2423.0,18.8,4.8,,14.2,1.016,106.0,,21.8,5.0,,,,,,,,,,,,0,0,0,0,0,0,0,0,0,0,0,0,0,0,0,0,,,,,,0.0,,,,,,,,,,,,,,,
211,850142,1745295084260,0.0706,,,,,,,,,,,,,,,,,,,,,,,,,,,,,,,,,,0,0,0,0,0,0,0,0,0,0,0,0,0,0,0,0,,,,,,,,,,,,,,,,,,,,,
212,850162,1745295084280,0.071,0.0,11.0,,-0.01,0.04,0.98,5.0,-1.0,0.0,0.98,1.11,88.0,2483.0,18.7,4.83,,14.2,1.016,106.0,,21.8,5.0,,,,,,,,,,,,0,0,0,0,0,0,0,0,0,0,0,0,0,0,0,0,,,,,,0.0,,,,,,,,,,,,,,,
213,850182,1745295084302,0.0713,,,,,,,,,,,,,,,,,,,,,,,,,,,,,,,,,,0,0,0,0,0,0,0,0,0,0,0,0,0,0,0,0,,,,,,,,,,,,,,,,,,,,,
214,850202,1745295084322,0.0716,0.0,5.0,,-0.0,0.07,0.98,6.0,-1.0,0.0,0.98,1.11,88.0,2483.0,18.7,4.83,,14.23,1.004,106.0,,22.7,5.0,10.0,0.0,10.0,10.0,0.0,26.0,0.0,0.0,2.26,,,0,0,0,0,0,0,0,0,0,0,0,0,0,0,0,0,,2.0,,,,0.0,38.985775,-76.95079,15.79,46.2,34.0,3.0,0.8,0.0,0.0,-1.0,0.0,0.0,0.0,0.0038,0.0716
215,850222,1745295084342,0.072,,,,,,,,,,,,,,,,,,,,,,,,,,,,,,,,,,0,0,0,0,0,0,0,0,0,0,0,0,0,0,0,0,,,,,,,,,,,,,,,,,,,,,
216,850242,1745295084362,0.0723,0.0,14.0,,0.02,0.06,0.98,7.0,0.0,0.0,0.98,1.11,88.0,2469.0,18.8,4.84,,14.28,0.988,106.0,,22.7,5.0,,,,,,,,,,,,0,0,0,0,0,0,0,0,0,0,0,0,0,0,0,0,,,,,,0.0,,,,,,,,,,,,,,,
217,850262,1745295084382,0.0726,,,,,,,,,,,,,,,,,,,,,,,,,,,,,,,,,,0,0,0,0,0,0,0,0,0,0,0,0,0,0,0,0,,,,,,,,,,,,,,,,,,,,,
218,850282,1745295084404,0.073,0.0,20.0,,0.02,0.1,1.01,7.0,0.0,0.0,1.01,1.11,91.0,2398.0,18.7,4.82,,14.27,0.983,106.0,,22.7,5.0,,,,,,,,,,,,0,0,0,0,0,0,0,0,0,0,0,0,0,0,0,0,,,,,,0.0,,,,,,,,,,,,,,,
219,850302,1745295084424,0.0733,,,,,,,,,,,,,,,,,,,,,,,10.0,0.0,10.0,10.0,0.0,26.0,0.0,0.0,2.25,,,0,0,0,0,0,0,0,0,0,0,0,0,0,0,0,0,,2.0,,,,,38.985775,-76.950798,15.98,46.2,34.0,3.0,0.8,0.0,0.0,-1.0,0.0,,0.0,0.0041,0.0733
220,850322,1745295084444,0.0736,0.0,17.0,,0.02,0.07,1.03,8.0,-1.0,0.0,1.03,1.11,92.0,2402.0,18.8,4.81,,14.28,0.991,106.0,,22.6,5.0,,,,,,,,,,,,0,0,0,0,0,0,0,0,0,0,0,0,0,0,0,0,,,,,,0.0,,,,,,,,,,,,,,,
221,850342,1745295084464,0.074,,,,,,,,,,,,,,,,,,,,,,,,,,,,,,,,,,0,0,0,0,0,0,0,0,0,0,0,0,0,0,0,0,,,,,,,,,,,,,,,,,,,,,
222,850362,1745295084484,0.0743,0.0,14.0,,0.0,0.06,1.01,9.0,-1.0,-1.0,1.01,1.11,91.0,2380.0,18.9,4.79,,14.28,0.991,106.0,,22.6,5.0,,,,,,,,,,,,0,0,0,0,0,0,0,0,0,0,0,0,0,0,0,0,,,,,,0.0,,,,,,,,,,,,,,,
223,850382,1745295084502,0.0746,,,,,,,,,,,,,,,,,,,,,,,,,,,,,,,,,,0,0,0,0,0,0,0,0,0,0,0,0,0,0,0,0,,,,,,,,,,,,,,,,,,,,,
224,850402,1745295084522,0.075,0.0,8.0,13.74,0.01,0.03,0.99,10.0,-1.0,0.0,0.99,1.11,89.0,2380.0,18.9,4.79,15.0,14.26,1.008,106.0,178.0,22.5,5.0,10.0,0.0,11.0,10.0,0.0,250.0,0.0,0.0,2.26,0.0,1.0,0,0,0,0,0,0,0,0,0,0,0,0,0,0,0,0,0.0,2.0,1.0,0.0,0.0,0.0,38.985775,-76.950806,16.27,46.2,34.0,3.0,0.8,0.0,0.0,-1.0,0.0,0.0,0.0,0.0044,0.075
225,850422,1745295084542,0.0753,,,,,,,,,,,,,,,,,,,,,,,,,,,,,,,,,,0,0,0,0,0,0,0,0,0,0,0,0,0,0,0,0,,,,,,,,,,,,,,,,,,,,,
226,850442,1745295084562,0.0756,0.0,14.0,,0.0,0.06,1.01,10.0,-1.0,0.0,1.01,1.11,91.0,2460.0,19.0,4.82,,14.22,1.014,106.0,,22.5,5.0,,,,,,,,,,,,0,0,0,0,0,0,0,0,0,0,0,0,0,0,0,0,,,,,,0.0,,,,,,,,,,,,,,,
227,850462,1745295084582,0.076,,,,,,,,,,,,,,,,,,,,,,,,,,,,,,,,,,0,0,0,0,0,0,0,0,0,0,0,0,0,0,0,0,,,,,,,,,,,,,,,,,,,,,
228,850482,1745295084604,0.0763,0.0,8.0,,-0.01,0.1,1.01,10.0,0.0,0.0,1.01,1.11,91.0,2464.0,18.9,4.82,,14.24,1.006,106.0,,22.5,5.0,,,,,,,,,,,,0,0,0,0,0,0,0,0,0,0,0,0,0,0,0,0,,,,,,0.0,,,,,,,,,,,,,,,
229,850502,1745295084624,0.0766,,,,,,,,,,,,,,,,,,,,,,,11.0,0.0,10.0,10.0,0.0,19.0,0.0,0.0,2.26,,,0,0,0,0,0,0,0,0,0,0,0,0,0,0,0,0,,2.0,,,,,38.985775,-76.950806,16.34,46.2,34.0,3.0,0.8,0.0,0.0,-1.0,0.0,,0.0,0.0047,0.0766
230,850522,1745295084644,0.077,0.0,11.0,,-0.01,0.09,1.01,11.0,-1.0,0.0,1.02,1.11,91.0,2519.0,19.0,4.83,,14.23,0.99,106.0,,23.2,5.0,,,,,,,,,,,,0,0,0,0,0,0,0,0,0,0,0,0,0,0,0,0,,,,,,0.0,,,,,,,,,,,,,,,
231,850542,1745295084664,0.0773,,,,,,,,,,,,,,,,,,,,,,,,,,,,,,,,,,0,0,0,0,0,0,0,0,0,0,0,0,0,0,0,0,,,,,,,,,,,,,,,,,,,,,
232,850562,1745295084684,0.0777,0.0,11.0,,-0.0,0.09,1.04,11.0,0.0,0.0,1.04,1.11,94.0,2526.0,18.9,4.84,,14.23,0.99,106.0,,23.2,5.0,,,,,,,,,,,,0,0,0,0,0,0,0,0,0,0,0,0,0,0,0,0,,,,,,0.0,,,,,,,,,,,,,,,
233,850582,1745295084701,0.078,,,,,,,,,,,,,,,,,,,,,,,,,,,,,,,,,,0,0,0,0,0,0,0,0,0,0,0,0,0,0,0,0,,,,,,,,,,,,,,,,,,,,,
234,850602,1745295084721,0.0783,0.0,-12.0,,-0.01,0.11,1.02,11.0,-1.0,0.0,1.03,1.11,92.0,2526.0,18.9,4.84,,14.22,0.986,106.0,,24.0,5.0,11.0,0.0,10.0,10.0,0.0,214.0,0.0,0.0,2.25,,,0,0,0,0,0,0,0,0,0,0,0,0,0,0,0,0,,2.0,,,,0.0,38.985775,-76.950813,16.43,46.2,34.0,3.0,0.8,0.0,0.0,-1.0,0.0,0.0,0.0,0.0049,0.0783
235,850622,1745295084741,0.0786,,,,,,,,,,,,,,,,,,,,,,,,,,,,,,,,,,0,0,0,0,0,0,0,0,0,0,0,0,0,0,0,0,,,,,,,,,,,,,,,,,,,,,
236,850642,1745295084761,0.079,0.0,11.0,,-0.02,0.15,1.03,12.0,-1.0,0.0,1.04,1.11,93.0,2531.0,18.8,4.81,,14.2,0.979,106.0,,24.0,5.0,,,,,,,,,,,,0,0,0,0,0,0,0,0,0,0,0,0,0,0,0,0,,,,,,0.0,,,,,,,,,,,,,,,
237,850662,1745295084781,0.0793,,,,,,,,,,,,,,,,,,,,,,,,,,,,,,,,,,0,0,0,0,0,0,0,0,0,0,0,0,0,0,0,0,,,,,,,,,,,,,,,,,,,,,
238,850682,1745295084803,0.0796,0.0,8.0,,-0.01,0.13,1.01,12.0,0.0,0.0,1.02,1.11,92.0,2546.0,18.8,4.8,,14.2,1.002,106.0,,24.0,5.0,,,,,,,,,,,,0,0,0,0,0,0,0,0,0,0,0,0,0,0,0,0,,,,,,0.0,,,,,,,,,,,,,,,
239,850702,1745295084823,0.08,,,,,,,,,,,,,,,,,,,,,,,11.0,0.0,11.0,10.0,0.0,25.0,0.0,0.0,2.26,,,0,0,0,0,0,0,0,0,0,0,0,0,0,0,0,0,,2.0,,,,,38.985775,-76.950813,16.69,46.2,34.0,3.0,0.8,0.0,0.0,-1.0,0.0,,0.0,0.0052,0.08
240,850722,1745295084843,0.0803,0.0,5.0,,-0.01,0.1,1.01,12.0,0.0,0.0,1.01,1.11,91.0,2558.0,18.8,4.82,,14.18,0.995,106.0,,23.6,5.0,,,,,,,,,,,,0,0,0,0,0,0,0,0,0,0,0,0,0,0,0,0,,,,,,0.0,,,,,,,,,,,,,,,
241,850742,1745295084863,0.0806,,,,,,,,,,,,,,,,,,,,,,,,,,,,,,,,,,0,0,0,0,0,0,0,0,0,0,0,0,0,0,0,0,,,,,,,,,,,,,,,,,,,,,
242,850762,1745295084883,0.081,0.0,5.0,,0.0,0.07,1.04,13.0,0.0,-1.0,1.04,1.11,94.0,2624.0,18.8,4.82,,14.18,0.995,106.0,,23.6,5.0,,,,,,,,,,,,0,0,0,0,0,0,0,0,0,0,0,0,0,0,0,0,,,,,,0.0,,,,,,,,,,,,,,,
243,850782,1745295084903,0.0813,,,,,,,,,,,,,,,,,,,,,,,,,,,,,,,,,,0,0,0,0,0,0,0,0,0,0,0,0,0,0,0,0,,,,,,,,,,,,,,,,,,,,,
244,850802,1745295084923,0.0816,0.0,-23.0,,0.0,0.06,0.99,13.0,-1.0,-1.0,1.0,1.11,89.0,2624.0,18.8,4.82,,14.15,1.003,106.0,,24.3,5.0,11.0,0.0,11.0,10.0,0.0,250.0,0.0,0.0,2.26,,,0,0,0,0,0,0,0,0,0,0,0,0,0,0,0,0,,2.0,,,,0.0,38.985775,-76.950821,16.67,46.2,34.0,3.0,0.8,0.0,0.0,-1.0,0.0,0.0,0.0,0.0055,0.0816
245,850822,1745295084943,0.082,,,,,,,,,,,,,,,,,,,,,,,,,,,,,,,,,,0,0,0,0,0,0,0,0,0,0,0,0,0,0,0,0,,,,,,,,,,,,,,,,,,,,,
246,850842,1745295084963,0.0823,0.0,0.0,,0.01,0.04,1.03,13.0,-1.0,0.0,1.03,1.11,92.0,2654.0,18.8,4.85,,14.12,0.985,106.0,,24.3,5.0,,,,,,,,,,,,0,0,0,0,0,0,0,0,0,0,0,0,0,0,0,0,,,,,,0.0,,,,,,,,,,,,,,,
247,850862,1745295084983,0.0826,,,,,,,,,,,,,,,,,,,,,,,,,,,,,,,,,,0,0,0,0,0,0,0,0,0,0,0,0,0,0,0,0,,,,,,,,,,,,,,,,,,,,,
248,850882,1745295085003,0.083,0.0,-4.0,,-0.0,0.07,1.0,13.0,-1.0,0.0,1.0,1.11,90.0,2655.0,18.9,4.85,,14.12,0.983,106.0,,24.3,5.0,,,,,,,,,,,,0,0,0,0,0,0,0,0,0,0,0,0,0,0,0,0,,,,,,0.0,,,,,,,,,,,,,,,
249,850902,1745295085015,0.0833,,,,,,,,,,,,,,,,,,,,,,,11.0,0.0,11.0,11.0,0.0,250.0,0.0,0.0,2.26,,,0,0,0,0,0,0,0,0,0,0,0,0,0,0,0,0,,2.0,,,,,38.985775,-76.950829,16.99,46.2,34.0,3.0,0.8,0.0,0.0,-1.0,0.0,,0.0,0.0058,0.0833
250,850922,1745295085035,0.0836,0.0,-12.0,,-0.01,0.07,1.0,13.0,-1.0,0.0,1.0,1.11,90.0,2674.0,19.0,4.84,,14.18,0.994,106.0,,24.2,5.0,,,,,,,,,,,,0,0,0,0,0,0,0,0,0,0,0,0,0,0,0,0,,,,,,0.0,,,,,,,,,,,,,,,
251,850942,1745295085055,0.084,,,,,,,,,,,,,,,,,,,,,,,,,,,,,,,,,,0,0,0,0,0,0,0,0,0,0,0,0,0,0,0,0,,,,,,,,,,,,,,,,,,,,,
252,850962,1745295085075,0.0843,0.0,3.0,,0.01,0.07,0.98,13.0,-1.0,0.0,0.99,1.11,89.0,2739.0,18.9,4.87,,14.18,0.994,106.0,,24.2,5.0,,,,,,,,,,,,0,0,0,0,0,0,0,0,0,0,0,0,0,0,0,0,,,,,,0.0,,,,,,,,,,,,,,,
253,850982,1745295085101,0.0846,,,,,,,,,,,,,,,,,,,,,,,,,,,,,,,,,,0,0,0,0,0,0,0,0,0,0,0,0,0,0,0,0,,,,,,,,,,,,,,,,,,,,,
254,851002,1745295085121,0.085,0.0,0.0,,0.03,0.12,0.99,13.0,-1.0,0.0,0.99,1.11,89.0,2739.0,18.9,4.87,,14.14,0.999,106.0,,25.1,5.0,11.0,0.0,11.0,10.0,0.0,36.0,0.0,0.0,2.25,,,0,0,0,0,0,0,0,0,0,0,0,0,0,0,0,0,,0.0,,,,0.0,38.985775,-76.950836,17.2,46.2,34.0,3.0,0.8,0.0,0.0,-1.0,0.0,0.0,0.0,0.0061,0.085
255,851022,1745295085141,0.0853,,,,,,,,,,,,,,,,,,,,,,,,,,,,,,,,,,0,0,0,0,0,0,0,0,0,0,0,0,0,0,0,0,,,,,,,,,,,,,,,,,,,,,
256,851042,1745295085161,0.0856,0.0,-8.0,,0.03,0.11,1.02,13.0,-2.0,0.0,1.02,1.02,100.0,2713.0,19.0,4.95,,14.19,1.04,106.0,,25.1,5.0,,,,,,,,,,,,0,0,0,0,0,0,0,0,0,0,0,0,0,0,0,0,,,,,,0.0,,,,,,,,,,,,,,,
257,851062,1745295085181,0.086,,,,,,,,,,,,,,,,,,,,,,,,,,,,,,,,,,0,0,0,0,0,0,0,0,0,0,0,0,0,0,0,0,,,,,,,,,,,,,,,,,,,,,
258,851082,1745295085201,0.0863,0.0,0.0,,0.01,0.14,0.99,13.0,-2.0,0.0,1.0,1.02,97.0,2563.0,19.0,4.92,,14.22,0.979,106.0,,25.1,5.0,,,,,,,,,,,,0,0,0,0,0,0,0,0,0,0,0,0,0,0,0,0,,,,,,0.0,,,,,,,,,,,,,,,
259,851102,1745295085221,0.0866,,,,,,,,,,,,,,,,,,,,,,,12.0,0.0,12.0,11.0,0.0,23.0,0.0,0.0,2.25,,,0,0,0,0,0,0,0,0,0,0,0,0,0,0,0,0,,0.0,,,,,38.985771,-76.950836,17.91,46.2,34.0,3.0,0.8,0.0,0.0,-1.0,0.0,,0.0,0.0064,0.0866
260,851122,1745295085241,0.087,0.0,0.0,,0.02,0.11,1.03,13.0,-2.0,0.0,1.04,1.04,100.0,2626.0,18.5,4.87,,14.18,0.92,106.0,,24.4,5.0,,,,,,,,,,,,0,0,0,0,0,0,0,0,0,0,0,0,0,0,0,0,,,,,,0.0,,,,,,,,,,,,,,,
261,851142,1745295085261,0.0873,,,,,,,,,,,,,,,,,,,,,,,,,,,,,,,,,,0,0,0,0,0,0,0,0,0,0,0,0,0,0,0,0,,,,,,,,,,,,,,,,,,,,,
262,851162,1745295085281,0.0876,0.0,0.0,,0.01,0.14,0.99,13.0,-2.0,0.0,1.0,1.04,97.0,2817.0,18.8,4.91,,14.18,0.92,106.0,,24.4,5.0,,,,,,,,,,,,0,0,0,0,0,0,0,0,0,0,0,0,0,0,0,0,,,,,,0.0,,,,,,,,,,,,,,,
263,851182,1745295085303,0.088,,,,,,,,,,,,,,,,,,,,,,,,,,,,,,,,,,0,0,0,0,0,0,0,0,0,0,0,0,0,0,0,0,,,,,,,,,,,,,,,,,,,,,
264,851202,1745295085323,0.0883,0.0,-8.0,,0.03,0.18,0.96,14.0,-2.0,0.0,0.97,1.04,94.0,2817.0,18.8,4.91,,14.11,0.91,106.0,,25.9,5.0,12.0,0.0,12.0,11.0,0.0,245.0,0.0,0.0,2.26,,,0,0,0,0,0,0,0,0,0,0,0,0,0,0,0,0,,2.0,,,,0.0,38.985771,-76.950844,18.21,46.2,34.0,3.0,0.8,0.0,0.0,-1.0,0.0,0.0,0.0,0.0067,0.0883
265,851222,1745295085343,0.0887,,,,,,,,,,,,,,,,,,,,,,,,,,,,,,,,,,0,0,0,0,0,0,0,0,0,0,0,0,0,0,0,0,,,,,,,,,,,,,,,,,,,,,
266,851242,1745295085363,0.089,0.0,-8.0,,0.01,0.19,0.96,15.0,-2.0,0.0,0.98,1.04,94.0,2902.0,18.9,4.95,,14.06,0.919,106.0,,25.9,5.0,,,,,,,,,,,,0,0,0,0,0,0,0,0,0,0,0,0,0,0,0,0,,,,,,0.0,,,,,,,,,,,,,,,
267,851262,1745295085383,0.0893,,,,,,,,,,,,,,,,,,,,,,,,,,,,,,,,,,0,0,0,0,0,0,0,0,0,0,0,0,0,0,0,0,,,,,,,,,,,,,,,,,,,,,
268,851282,1745295085403,0.0896,0.0,-4.0,,0.03,0.17,1.01,16.0,-2.0,0.0,1.03,1.04,99.0,2887.0,18.9,4.95,,14.08,0.91,106.0,,25.9,5.0,,,,,,,,,,,,0,0,0,0,0,0,0,0,0,0,0,0,0,0,0,0,,,,,,0.0,,,,,,,,,,,,,,,
269,851302,1745295085423,0.09,,,,,,,,,,,,,,,,,,,,,,,12.0,0.0,12.0,11.0,0.0,251.0,0.0,0.0,2.25,,,0,0,0,0,0,0,0,0,0,0,0,0,0,0,0,0,,0.0,,,,,38.985767,-76.950851,18.26,46.2,34.0,3.0,0.8,0.0,0.0,-1.0,0.0,,0.0,0.007,0.09
270,851322,1745295085443,0.0903,0.0,22.0,,0.06,0.15,1.07,17.0,-1.0,0.0,1.08,1.08,100.0,2835.0,18.9,4.98,,14.15,0.956,106.0,,27.0,5.0,,,,,,,,,,,,0,0,0,0,0,0,0,0,0,0,0,0,0,0,0,0,,,,,,0.0,,,,,,,,,,,,,,,
271,851342,1745295085463,0.0906,,,,,,,,,,,,,,,,,,,,,,,,,,,,,,,,,,0,0,0,0,0,0,0,0,0,0,0,0,0,0,0,0,,,,,,,,,,,,,,,,,,,,,
272,851362,1745295085483,0.091,0.0,17.0,,0.05,0.19,1.06,17.0,-1.0,0.0,1.08,1.08,100.0,2770.0,19.0,4.96,,14.15,0.956,106.0,,27.0,5.0,,,,,,,,,,,,0,0,0,0,0,0,0,0,0,0,0,0,0,0,0,0,,,,,,0.0,,,,,,,,,,,,,,,
273,851382,1745295085503,0.0913,,,,,,,,,,,,,,,,,,,,,,,,,,,,,,,,,,0,0,0,0,0,0,0,0,0,0,0,0,0,0,0,0,,,,,,,,,,,,,,,,,,,,,
274,851402,1745295085523,0.0916,0.0,8.0,13.78,0.08,0.19,1.0,19.0,-1.0,0.0,1.02,1.08,94.0,2770.0,19.0,4.96,15.0,14.15,0.95,106.0,178.0,26.4,5.0,13.0,0.0,13.0,12.0,0.0,225.0,0.0,0.0,2.23,0.0,1.0,0,0,0,0,0,0,0,0,0,0,0,0,0,0,0,0,0.0,2.0,1.0,0.0,0.0,0.0,38.985767,-76.950859,18.82,46.2,34.0,3.0,0.8,0.0,0.0,-1.0,0.0,0.0,0.0,0.0073,0.0916
275,851422,1745295085543,0.092,,,,,,,,,,,,,,,,,,,,,,,,,,,,,,,,,,0,0,0,0,0,0,0,0,0,0,0,0,0,0,0,0,,,,,,,,,,,,,,,,,,,,,
276,851442,1745295085563,0.0923,0.0,0.0,,0.1,0.26,0.91,21.0,-1.0,0.0,0.95,1.08,88.0,2932.0,19.1,4.97,,14.1,0.894,106.0,,26.4,5.0,,,,,,,,,,,,0,0,0,0,0,0,0,0,0,0,0,0,0,0,0,0,,,,,,0.0,,,,,,,,,,,,,,,
277,851462,1745295085583,0.0926,,,,,,,,,,,,,,,,,,,,,,,,,,,,,,,,,,0,0,0,0,0,0,0,0,0,0,0,0,0,0,0,0,,,,,,,,,,,,,,,,,,,,,
278,851482,1745295085603,0.093,0.0,5.0,,0.13,0.42,0.86,23.0,-1.0,0.0,0.97,1.08,90.0,3110.0,19.0,5.01,,14.04,0.867,106.0,,26.4,5.0,,,,,,,,,,,,0,0,0,0,0,0,0,0,0,0,0,0,0,0,0,0,,,,,,0.0,,,,,,,,,,,,,,,
279,851502,1745295085623,0.0933,,,,,,,,,,,,,,,,,,,,,,,13.0,0.0,13.0,11.0,0.0,153.0,0.0,0.0,2.23,,,0,0,0,0,0,0,0,0,0,0,0,0,0,0,0,0,,0.0,,,,,38.985764,-76.950859,19.2,46.2,34.0,3.0,0.8,0.0,0.0,-1.0,0.0,,0.0,0.0077,0.0933
280,851522,1745295085643,0.0936,0.0,0.0,,0.15,0.48,0.83,25.0,-1.0,0.0,0.97,1.08,89.0,2950.0,19.0,4.93,,14.1,0.858,106.0,,28.3,5.0,,,,,,,,,,,,0,0,0,0,0,0,0,0,0,0,0,0,0,0,0,0,,,,,,0.0,,,,,,,,,,,,,,,
281,851542,1745295085663,0.094,,,,,,,,,,,,,,,,,,,,,,,,,,,,,,,,,,0,0,0,0,0,0,0,0,0,0,0,0,0,0,0,0,,,,,,,,,,,,,,,,,,,,,
282,851562,1745295085683,0.0943,0.0,11.0,,0.15,0.49,0.8,27.0,-1.0,0.0,0.95,1.08,88.0,2876.0,19.4,5.04,,14.1,0.858,106.0,,28.3,5.0,,,,,,,,,,,,0,0,0,0,0,0,0,0,0,0,0,0,0,0,0,0,,,,,,0.0,,,,,,,,,,,,,,,
283,851582,1745295085702,0.0946,,,,,,,,,,,,,,,,,,,,,,,,,,,,,,,,,,0,0,0,0,0,0,0,0,0,0,0,0,0,0,0,0,,,,,,,,,,,,,,,,,,,,,
284,851602,1745295085722,0.095,0.0,34.0,,0.16,0.54,0.75,29.0,-2.0,0.0,0.94,1.08,87.0,2876.0,19.4,5.04,,14.08,0.849,106.0,,28.2,5.0,14.0,34.0,13.0,12.0,0.0,237.0,0.0,0.0,2.27,,,0,0,0,0,0,0,0,0,0,0,0,0,0,0,0,0,,2.0,,,,0.0,38.98576,-76.950867,20.25,46.1,34.0,3.0,0.8,0.0,0.0,-1.0,0.0,0.0,0.0,0.008,0.095
285,851622,1745295085742,0.0953,,,,,,,,,,,,,,,,,,,,,,,,,,,,,,,,,,0,0,0,0,0,0,0,0,0,0,0,0,0,0,0,0,,,,,,,,,,,,,,,,,,,,,
286,851642,1745295085762,0.0956,0.0,22.0,,0.18,0.59,0.82,30.0,-1.0,1.0,1.02,1.08,95.0,3155.0,19.4,5.0,,14.0,0.864,106.0,,28.2,5.0,,,,,,,,,,,,0,0,0,0,0,0,0,0,0,0,0,0,0,0,0,0,,,,,,0.0,,,,,,,,,,,,,,,
287,851662,1745295085782,0.096,,,,,,,,,,,,,,,,,,,,,,,,,,,,,,,,,,0,0,0,0,0,0,0,0,0,0,0,0,0,0,0,0,,,,,,,,,,,,,,,,,,,,,
288,851682,1745295085802,0.0963,0.0,20.0,,0.18,0.48,0.95,31.0,-1.0,0.0,1.08,1.08,100.0,3261.0,19.5,4.93,,13.98,0.866,106.0,,28.2,5.0,,,,,,,,,,,,0,0,0,0,0,0,0,0,0,0,0,0,0,0,0,0,,,,,,0.0,,,,,,,,,,,,,,,
289,851702,1745295085822,0.0966,,,,,,,,,,,,,,,,,,,,,,,14.0,1.0,14.0,12.0,0.0,9.0,0.0,0.0,2.25,,,0,0,0,0,0,0,0,0,0,0,0,0,0,0,0,0,,0.0,,,,,38.985756,-76.950874,20.48,46.1,34.0,3.0,0.8,0.0,0.0,-1.0,0.0,,0.0,0.0084,0.0966
290,851722,1745295085842,0.097,0.0,17.0,,0.14,0.48,0.96,33.0,-1.0,-1.0,1.08,1.08,100.0,3051.0,18.9,4.88,,14.04,0.85,106.0,,30.0,5.0,,,,,,,,,,,,0,0,0,0,0,0,0,0,0,0,0,0,0,0,0,0,,,,,,0.0,,,,,,,,,,,,,,,
291,851742,1745295085862,0.0973,,,,,,,,,,,,,,,,,,,,,,,,,,,,,,,,,,0,0,0,0,0,0,0,0,0,0,0,0,0,0,0,0,,,,,,,,,,,,,,,,,,,,,
292,851762,1745295085882,0.0976,0.0,14.0,,0.13,0.5,0.91,35.0,-2.0,-1.0,1.05,1.08,96.0,3280.0,18.9,4.91,,14.04,0.85,106.0,,30.0,5.0,,,,,,,,,,,,0,0,0,0,0,0,0,0,0,0,0,0,0,0,0,0,,,,,,0.0,,,,,,,,,,,,,,,
293,851782,1745295085904,0.098,,,,,,,,,,,,,,,,,,,,,,,,,,,,,,,,,,0,0,0,0,0,0,0,0,0,0,0,0,0,0,0,0,,,,,,,,,,,,,,,,,,,,,
294,851802,1745295085924,0.0983,0.0,8.0,,0.13,0.52,0.85,36.0,-2.0,-1.0,1.01,1.08,93.0,3280.0,18.9,4.91,,13.95,0.847,106.0,,29.9,5.0,14.0,1.0,14.0,12.0,0.0,14.0,0.0,0.0,2.24,,,0,0,0,0,0,0,0,0,0,0,0,0,0,0,0,0,,0.0,,,,0.0,38.985756,-76.950874,21.49,46.1,34.0,3.0,0.8,0.0,0.0,-1.0,0.0,0.0,0.0,0.0087,0.0983
295,851822,1745295085944,0.0986,,,,,,,,,,,,,,,,,,,,,,,,,,,,,,,,,,0,0,0,0,0,0,0,0,0,0,0,0,0,0,0,0,,,,,,,,,,,,,,,,,,,,,
296,851842,1745295085964,0.099,0.0,45.0,,0.1,0.51,0.9,36.0,-2.0,0.0,1.04,1.08,96.0,3202.0,18.9,4.88,,13.95,0.856,106.0,,29.9,5.0,,,,,,,,,,,,0,0,0,0,0,0,0,0,0,0,0,0,0,0,0,0,,,,,,0.0,,,,,,,,,,,,,,,
297,851862,1745295085984,0.0993,,,,,,,,,,,,,,,,,,,,,,,,,,,,,,,,,,0,0,0,0,0,0,0,0,0,0,0,0,0,0,0,0,,,,,,,,,,,,,,,,,,,,,
298,851882,1745295086004,0.0996,0.0,17.0,,0.05,0.37,0.99,37.0,-1.0,-1.0,1.06,1.08,97.0,3182.0,19.0,4.83,,13.94,0.891,106.0,,29.9,5.0,,,,,,,,,,,,0,0,0,0,0,0,0,0,0,0,0,0,0,0,0,0,,,,,,0.0,,,,,,,,,,,,,,,
299,851902,1745295086016,0.1,,,,,,,,,,,,,,,,,,,,,,,15.0,4.0,14.0,12.0,0.0,65.0,0.0,0.0,2.24,,,0,0,0,0,0,0,0,0,0,0,0,0,0,0,0,0,,0.0,,,,,38.985752,-76.950882,21.42,46.1,34.0,3.0,0.8,0.0,0.0,-1.0,0.0,,0.0,0.0091,0.1
300,851922,1745295086036,0.1003,0.0,5.0,,0.05,0.44,0.92,37.0,-1.0,-1.0,1.03,1.08,95.0,3302.0,19.0,4.82,,13.96,0.902,106.0,,30.0,5.0,,,,,,,,,,,,0,0,0,0,0,0,0,0,0,0,0,0,0,0,0,0,,,,,,0.0,,,,,,,,,,,,,,,
301,851942,1745295086056,0.1006,,,,,,,,,,,,,,,,,,,,,,,,,,,,,,,,,,0,0,0,0,0,0,0,0,0,0,0,0,0,0,0,0,,,,,,,,,,,,,,,,,,,,,
302,851962,1745295086076,0.101,0.0,17.0,,0.07,0.49,0.95,36.0,-2.0,-1.0,1.08,1.08,99.0,3279.0,19.0,4.82,,13.96,0.902,106.0,,30.0,5.0,,,,,,,,,,,,0,0,0,0,0,0,0,0,0,0,0,0,0,0,0,0,,,,,,0.0,,,,,,,,,,,,,,,
303,851982,1745295086102,0.1013,,,,,,,,,,,,,,,,,,,,,,,,,,,,,,,,,,0,0,0,0,0,0,0,0,0,0,0,0,0,0,0,0,,,,,,,,,,,,,,,,,,,,,
304,852002,1745295086122,0.1016,0.0,48.0,,0.03,0.37,1.01,36.0,-2.0,-1.0,1.08,1.08,100.0,3279.0,19.0,4.82,,13.94,0.917,106.0,,30.1,5.0,14.0,26.0,14.0,12.0,0.0,68.0,0.0,0.0,2.23,,,0,0,0,0,0,0,0,0,0,0,0,0,0,0,0,0,,0.0,,,,0.0,38.985748,-76.95089,21.61,46.1,34.0,3.0,0.8,0.0,0.0,-1.0,0.0,0.0,0.0,0.0095,0.1016
305,852022,1745295086142,0.102,,,,,,,,,,,,,,,,,,,,,,,,,,,,,,,,,,0,0,0,0,0,0,0,0,0,0,0,0,0,0,0,0,,,,,,,,,,,,,,,,,,,,,
306,852042,1745295086162,0.1023,0.0,11.0,,0.05,0.45,0.91,36.0,-2.0,-1.0,1.02,1.08,94.0,3326.0,19.0,4.82,,13.98,0.944,104.2,,30.1,5.0,,,,,,,,,,,,0,0,0,0,0,0,0,0,0,0,0,0,0,0,0,0,,,,,,0.0,,,,,,,,,,,,,,,
307,852062,1745295086182,0.1026,,,,,,,,,,,,,,,,,,,,,,,,,,,,,,,,,,0,0,0,0,0,0,0,0,0,0,0,0,0,0,0,0,,,,,,,,,,,,,,,,,,,,,
308,852082,1745295086202,0.103,0.0,14.0,,0.03,0.37,1.0,35.0,-2.0,-1.0,1.07,1.08,99.0,3347.0,19.0,4.73,,13.91,0.996,104.2,,30.1,5.0,,,,,,,,,,,,0,0,0,0,0,0,0,0,0,0,0,0,0,0,0,0,,,,,,0.0,,,,,,,,,,,,,,,
309,852102,1745295086222,0.1033,,,,,,,,,,,,,,,,,,,,,,,14.0,26.0,14.0,13.0,0.0,76.0,0.0,0.0,2.24,,,0,0,0,0,0,0,0,0,0,0,0,0,0,0,0,0,,0.0,,,,,38.985744,-76.950897,21.93,46.1,34.0,3.0,0.8,0.0,0.0,-1.0,0.0,,0.0,0.0098,0.1033
310,852122,1745295086242,0.1036,0.0,8.0,,0.04,0.41,0.95,35.0,-2.0,-1.0,1.03,1.08,95.0,3315.0,18.9,4.73,,13.96,0.923,104.2,,31.0,5.0,,,,,,,,,,,,0,0,0,0,0,0,0,0,0,0,0,0,0,0,0,0,,,,,,0.0,,,,,,,,,,,,,,,
311,852142,1745295086262,0.104,,,,,,,,,,,,,,,,,,,,,,,,,,,,,,,,,,0,0,0,0,0,0,0,0,0,0,0,0,0,0,0,0,,,,,,,,,,,,,,,,,,,,,
312,852162,1745295086282,0.1043,0.0,20.0,,0.03,0.34,1.03,34.0,-2.0,-1.0,1.08,1.08,100.0,3424.0,18.9,4.69,,13.96,0.923,104.2,,31.0,5.0,,,,,,,,,,,,0,0,0,0,0,0,0,0,0,0,0,0,0,0,0,0,,,,,,0.0,,,,,,,,,,,,,,,
313,852182,1745295086304,0.1046,,,,,,,,,,,,,,,,,,,,,,,,,,,,,,,,,,0,0,0,0,0,0,0,0,0,0,0,0,0,0,0,0,,,,,,,,,,,,,,,,,,,,,
314,852202,1745295086324,0.105,0.0,11.0,,0.04,0.38,0.97,34.0,-2.0,-1.0,1.04,1.08,96.0,3424.0,18.9,4.69,,13.94,0.875,104.2,,31.6,5.0,15.0,26.0,14.0,13.0,0.0,76.0,0.0,0.0,2.24,,,0,0,0,0,0,0,0,0,0,0,0,0,0,0,0,0,,2.0,,,,0.0,38.985737,-76.950897,22.33,46.1,34.0,3.0,0.8,0.0,0.0,-1.0,0.0,0.0,0.0,0.0102,0.105
315,852222,1745295086344,0.1053,,,,,,,,,,,,,,,,,,,,,,,,,,,,,,,,,,0,0,0,0,0,0,0,0,0,0,0,0,0,0,0,0,,,,,,,,,,,,,,,,,,,,,
316,852242,1745295086364,0.1056,0.0,34.0,,0.03,0.34,1.04,34.0,-2.0,-1.0,1.1,1.1,100.0,3356.0,18.9,4.77,,13.91,0.858,104.2,,31.6,5.0,,,,,,,,,,,,0,0,0,0,0,0,0,0,0,0,0,0,0,0,0,0,,,,,,0.0,,,,,,,,,,,,,,,
317,852262,1745295086384,0.106,,,,,,,,,,,,,,,,,,,,,,,,,,,,,,,,,,0,0,0,0,0,0,0,0,0,0,0,0,0,0,0,0,,,,,,,,,,,,,,,,,,,,,
318,852282,1745295086404,0.1063,0.0,79.0,,0.01,0.36,0.97,34.0,-2.0,-1.0,1.04,1.1,95.0,3311.0,19.2,4.75,,13.92,0.877,104.2,,31.6,5.0,,,,,,,,,,,,0,0,0,0,0,0,0,0,0,0,0,0,0,0,0,0,,,,,,0.0,,,,,,,,,,,,,,,
319,852302,1745295086424,0.1066,,,,,,,,,,,,,,,,,,,,,,,15.0,26.0,15.0,13.0,0.0,97.0,0.0,0.0,2.26,,,0,0,0,0,0,0,0,0,0,0,0,0,0,0,0,0,,2.0,,,,,38.985733,-76.950897,22.46,46.1,34.0,3.0,0.8,0.0,0.0,-1.0,0.0,,0.0,0.0106,0.1066
320,852322,1745295086444,0.107,0.0,110.0,,0.03,0.37,1.02,34.0,-2.0,0.0,1.09,1.1,100.0,3412.0,20.2,4.83,,13.92,0.877,104.2,,31.7,5.0,,,,,,,,,,,,0,0,0,0,0,0,0,0,0,0,0,0,0,0,0,0,,,,,,0.0,,,,,,,,,,,,,,,
321,852342,1745295086464,0.1073,,,,,,,,,,,,,,,,,,,,,,,,,,,,,,,,,,0,0,0,0,0,0,0,0,0,0,0,0,0,0,0,0,,,,,,,,,,,,,,,,,,,,,
322,852362,1745295086484,0.1076,0.0,135.0,,0.0,0.4,0.97,34.0,-2.0,-1.0,1.05,1.1,96.0,3371.0,19.6,4.75,,13.92,0.89,104.2,,31.7,5.0,,,,,,,,,,,,0,0,0,0,0,0,0,0,0,0,0,0,0,0,0,0,,,,,,0.0,,,,,,,,,,,,,,,
323,852382,1745295086504,0.108,,,,,,,,,,,,,,,,,,,,,,,,,,,,,,,,,,0,0,0,0,0,0,0,0,0,0,0,0,0,0,0,0,,,,,,,,,,,,,,,,,,,,,
324,852402,1745295086524,0.1083,0.0,68.0,13.58,0.01,0.37,1.05,34.0,-2.0,0.0,1.11,1.11,100.0,3371.0,19.6,4.75,15.0,13.9,0.91,104.2,178.0,33.4,5.0,15.0,26.0,15.0,13.0,0.0,92.0,0.0,0.0,2.29,0.0,1.0,0,0,0,0,0,0,0,0,0,0,0,0,0,0,0,0,0.0,2.0,1.0,0.0,0.0,0.0,38.985729,-76.950905,22.81,46.1,34.0,3.0,0.8,0.0,0.0,-1.0,0.0,0.0,0.0,0.011,0.1083
325,852422,1745295086544,0.1086,,,,,,,,,,,,,,,,,,,,,,,,,,,,,,,,,,0,0,0,0,0,0,0,0,0,0,0,0,0,0,0,0,,,,,,,,,,,,,,,,,,,,,
326,852442,1745295086564,0.109,0.0,102.0,,0.02,0.39,0.99,35.0,-2.0,-1.0,1.06,1.11,96.0,3466.0,19.4,4.71,,13.94,0.943,104.2,,33.4,5.0,,,,,,,,,,,,0,0,0,0,0,0,0,0,0,0,0,0,0,0,0,0,,,,,,0.0,,,,,,,,,,,,,,,
327,852462,1745295086584,0.1093,,,,,,,,,,,,,,,,,,,,,,,,,,,,,,,,,,0,0,0,0,0,0,0,0,0,0,0,0,0,0,0,0,,,,,,,,,,,,,,,,,,,,,
328,852482,1745295086604,0.1096,0.0,99.0,,-0.01,0.36,1.05,35.0,-2.0,-1.0,1.11,1.11,100.0,3407.0,19.4,4.66,,13.92,0.96,104.2,,33.4,5.0,,,,,,,,,,,,0,0,0,0,0,0,0,0,0,0,0,0,0,0,0,0,,,,,,0.0,,,,,,,,,,,,,,,
329,852502,1745295086624,0.11,,,,,,,,,,,,,,,,,,,,,,,15.0,26.0,15.0,13.0,0.0,243.0,0.0,0.0,2.26,,,0,0,0,0,0,0,0,0,0,0,0,0,0,0,0,0,,0.0,,,,,38.985725,-76.950905,22.58,46.1,34.0,3.0,0.8,0.0,0.0,-1.0,0.0,,0.0,0.0114,0.11
330,852522,1745295086644,0.1103,0.0,133.0,,0.01,0.49,1.04,35.0,-3.0,-1.0,1.15,1.15,100.0,3374.0,20.5,4.69,,13.98,0.965,104.2,,33.5,5.0,,,,,,,,,,,,0,0,0,0,0,0,0,0,0,0,0,0,0,0,0,0,,,,,,0.0,,,,,,,,,,,,,,,
331,852542,1745295086664,0.1106,,,,,,,,,,,,,,,,,,,,,,,,,,,,,,,,,,0,0,0,0,0,0,0,0,0,0,0,0,0,0,0,0,,,,,,,,,,,,,,,,,,,,,
332,852562,1745295086684,0.111,0.0,132.0,,-0.02,0.37,1.07,36.0,-3.0,-1.0,1.13,1.15,98.0,3368.0,19.4,4.77,,13.98,0.965,104.2,,33.5,5.0,,,,,,,,,,,,0,0,0,0,0,0,0,0,0,0,0,0,0,0,0,0,,,,,,0.0,,,,,,,,,,,,,,,
333,852582,1745295086703,0.1113,,,,,,,,,,,,,,,,,,,,,,,,,,,,,,,,,,0,0,0,0,0,0,0,0,0,0,0,0,0,0,0,0,,,,,,,,,,,,,,,,,,,,,
