"Interval"|"ms"|0|0|1,"Utc"|"ms"|0|0|1,"FrontBP"|"psi"|-5.0|5.0|25,"SteerAng"|"Degrees"|-145|145|25,"Battery"|"Volts"|-5.0|20.0|1,"AccelX"|"G"|-3.0|3.0|25,"AccelY"|"G"|-3.0|3.0|25,"AccelZ"|"G"|-3.0|3.0|25,"Yaw"|"Deg/Sec"|-120|120|25,"Pitch"|"Deg/Sec"|-120|120|25,"Roll"|"Deg/Sec"|-120|120|25,"Gsum"|"G"|0.0|3.0|25,"GsumMax"|"G"|0.0|3.0|25,"GsumPct"|"%"|0|100|25,"RPM"|""|0|10000|25,"TPS"|"%"|0.0|100.0|25,"InjectorPW"|"ms"|0.0|100.0|25,"Baro"|"kPa"|0|105|1,"MAP"|"Psi"|0.0|255.0|25,"Lambda"|""|-2.0|2.0|25,"IAT"|"C"|0.0|200.0|25,"EngineTemp"|"C"|0|200|1,"EOP"|"PSI"|0.0|152.0|25,"EOT"|"F"|0|250|25,"WSFR"|"MPH"|0|150|10,"WSFL"|"MPH"|0|100|10,"WSRR"|"MPH"|0|100|10,"WSRL"|""|0|100|10,"TCSet"|"%"|0.0|100.0|10,"TCSlip"|"%"|0.0|100.0|10,"TCComp"|"deg"|0.0|50.0|10,"TCCut"|"%"|0.0|100.0|10,"Analog8"|""|0.0|5.0|10,"OilTemp"|"F"|0|300|1,"AA_On"|""|0.0|1.0|1,"ThermLF1"|"C"|0|400|50,"ThermLF2"|"C"|0|400|50,"ThermRR1"|"C"|0|400|50,"ThermRR2"|"C"|0|400|50,"ThermLF3"|"C"|0|400|50,"ThermLF4"|"C"|0|400|50,"ThermLF5"|"C"|0|400|50,"ThermLF6"|"C"|0|400|50,"ThermLF7"|"C"|0|400|50,"ThermLF8"|"C"|0|400|50,"ThermRR3"|"C"|0|400|50,"ThermRR4"|"C"|0|400|50,"ThermRR5"|"C"|0|400|50,"ThermRR6"|"C"|0|400|50,"ThermRR7"|"C"|0|400|50,"ThermRR8"|"C"|0|400|50,"AA_LowDrag"|""|0|1|1,"Gear"|""|1|6|10,"AA_On"|""|0.0|1.0|1,"AA_LowDrag"|""|0|1|1,"Fuel_Mix"|""|-10|10|1,"AA_Packages"|""|0.0|1000.0|25,"Latitude"|"Degrees"|-180.0|180.0|10,"Longitude"|"Degrees"|-180.0|180.0|10,"Speed"|"kph"|0.0|150.0|10,"Altitude"|"m"|0.0|4000.0|10,"GPSSats"|""|0|20|10,"GPSQual"|""|0|5|10,"GPSDOP"|""|0.0|20.0|10
810005,1745640432989,,,,,,,,,,,,,,,,,,,,,,,,,,,,,,,,,,0,0,0,0,0,0,0,0,0,0,0,0,0,0,0,0,,,,,,,,,,,,,
810025,1745640433009,0.0,128,,-0.05,-0.11,0.94,1,-0,0,0.95,0.95,100,10448,52.2,4.66,,11.95,0.901,75.4,,37.0,5,,,,,,,,,,,,0,0,0,0,0,0,0,0,0,0,0,0,0,0,0,0,,,,,,0.0,,,,,,,
810045,1745640433029,,,,,,,,,,,,,,,,,,,,,,,,,,,,,,,,,,0,0,0,0,0,0,0,0,0,0,0,0,0,0,0,0,,,,,,,,,,,,,
810065,1745640433049,0.0,128,,-0.07,-0.06,0.92,1,0,-0,0.92,0.95,97,11355,43.5,4.33,,11.92,1.058,75.4,,37.0,5,,,,,,,,,,,,0,0,0,0,0,0,0,0,0,0,0,0,0,0,0,0,,,,,,0.0,,,,,,,
810085,1745640433069,,,,,,,,,,,,,,,,,,,,,,,0,0,0,0,0.0,0.0,0.0,0.0,2.26,,,0,0,0,0,0,0,0,0,0,0,0,0,0,0,0,0,,0,,,,,38.990532,-76.939499,0.0,42.5,5,2,4.8
810105,1745640433089,0.0,128,,-0.06,0.03,0.99,-1,0,0,0.99,0.99,100,12064,17.7,3.22,,11.92,1.058,75.4,,42.7,5,,,,,,,,,,,,0,0,0,0,0,0,0,0,0,0,0,0,0,0,0,0,,,,,,0.0,,,,,,,
810125,1745640433109,,,,,,,,,,,,,,,,,,,,,,,,,,,,,,,,,,0,0,0,0,0,0,0,0,0,0,0,0,0,0,0,0,,,,,,,,,,,,,
810145,1745640433129,0.0,128,,-0.07,0.2,0.96,-2,0,0,0.98,0.99,99,12376,9.4,2.46,,9.86,0.999,75.4,,42.7,5,,,,,,,,,,,,0,0,0,0,0,0,0,0,0,0,0,0,0,0,0,0,,,,,,0.0,,,,,,,
810165,1745640433149,,,,,,,,,,,,,,,,,,,,,,,,,,,,,,,,,,0,0,0,0,0,0,0,0,0,0,0,0,0,0,0,0,,,,,,,,,,,,,
810185,1745640433169,0.0,128,,-0.06,0.12,0.93,-1,0,0,0.94,0.99,95,12376,9.4,2.46,,8.06,0.901,75.4,,44.3,5,0,0,0,0,0.0,0.0,0.0,0.0,2.27,,,0,0,0,0,0,0,0,0,0,0,0,0,0,0,0,0,,0,,,,0.0,38.990532,-76.939499,0.0,42.5,5,2,4.8
810205,1745640433189,,,,,,,,,,,,,,,,,,,,,,,,,,,,,,,,,,0,0,0,0,0,0,0,0,0,0,0,0,0,0,0,0,,,,,,,,,,,,,
810225,1745640433209,0.0,128,,-0.04,-0.08,0.87,-1,0,-0,0.88,0.99,89,12241,4.3,1.88,,6.63,0.826,75.4,,44.3,5,,,,,,,,,,,,0,0,0,0,0,0,0,0,0,0,0,0,0,0,0,0,,,,,,0.0,,,,,,,
810245,1745640433229,,,,,,,,,,,,,,,,,,,,,,,,,,,,,,,,,,0,0,0,0,0,0,0,0,0,0,0,0,0,0,0,0,,,,,,,,,,,,,
810265,1745640433249,0.0,129,,-0.02,-0.24,0.87,-0,0,-1,0.9,0.99,91,11898,3.5,1.43,,5.86,0.805,75.4,,44.3,5,,,,,,,,,,,,0,0,0,0,0,0,0,0,0,0,0,0,0,0,0,0,,,,,,0.0,,,,,,,
810285,1745640433269,,,,,,,,,,,,,,,,,,,,,,,0,0,0,0,0.0,0.0,0.0,0.0,2.27,,,0,0,0,0,0,0,0,0,0,0,0,0,0,0,0,0,,0,,,,,38.990532,-76.939499,0.0,42.5,5,2,4.8
810305,1745640433289,0.0,128,,-0.04,-0.29,0.87,-1,0,-1,0.91,0.99,92,11538,11.5,1.71,,5.86,0.805,75.4,,41.0,5,,,,,,,,,,,,0,0,0,0,0,0,0,0,0,0,0,0,0,0,0,0,,,,,,0.0,,,,,,,
810325,1745640433309,,,,,,,,,,,,,,,,,,,,,,,,,,,,,,,,,,0,0,0,0,0,0,0,0,0,0,0,0,0,0,0,0,,,,,,,,,,,,,
810345,1745640433329,0.0,128,,-0.04,0.08,0.94,-2,0,-0,0.94,0.99,95,11389,26.6,2.51,,6.07,0.81,75.4,,41.0,5,,,,,,,,,,,,0,0,0,0,0,0,0,0,0,0,0,0,0,0,0,0,,,,,,0.0,,,,,,,
810365,1745640433349,,,,,,,,,,,,,,,,,,,,,,,,,,,,,,,,,,0,0,0,0,0,0,0,0,0,0,0,0,0,0,0,0,,,,,,,,,,,,,
810385,1745640433369,0.0,128,13.87,-0.0,-0.17,0.93,-0,0,-1,0.94,0.99,95,11389,26.6,2.51,15,7.74,0.824,75.4,97,39.6,5,0,0,0,0,0.0,0.0,0.0,0.0,2.27,0,1.0,0,0,0,0,0,0,0,0,0,0,0,0,0,0,0,0,0,0,0.0,0,-0,0.0,38.990532,-76.939499,0.0,42.5,5,2,4.8
810405,1745640433389,,,,,,,,,,,,,,,,,,,,,,,,,,,,,,,,,,0,0,0,0,0,0,0,0,0,0,0,0,0,0,0,0,,,,,,,,,,,,,
810425,1745640433409,0.0,128,,-0.01,-0.07,0.88,-1,-0,-1,0.88,0.99,89,11406,38.3,2.75,,9.56,0.854,73.6,,39.6,5,,,,,,,,,,,,0,0,0,0,0,0,0,0,0,0,0,0,0,0,0,0,,,,,,0.0,,,,,,,
810445,1745640433429,,,,,,,,,,,,,,,,,,,,,,,,,,,,,,,,,,0,0,0,0,0,0,0,0,0,0,0,0,0,0,0,0,,,,,,,,,,,,,
810465,1745640433449,0.0,128,,-0.05,-0.12,0.94,-0,-0,-1,0.95,0.99,96,11072,36.0,3.02,,10.61,0.945,73.6,,39.6,5,,,,,,,,,,,,0,0,0,0,0,0,0,0,0,0,0,0,0,0,0,0,,,,,,0.0,,,,,,,
810485,1745640433469,,,,,,,,,,,,,,,,,,,,,,,0,0,0,0,0.0,0.0,0.0,0.0,2.27,,,0,0,0,0,0,0,0,0,0,0,0,0,0,0,0,0,,0,,,,,38.990532,-76.939499,0.0,42.5,5,2,4.8
810505,1745640433489,0.0,128,,-0.05,0.08,0.95,-1,0,-0,0.95,0.99,96,10994,14.2,3.34,,9.25,1.24,73.6,,39.1,5,,,,,,,,,,,,0,0,0,0,0,0,0,0,0,0,0,0,0,0,0,0,,,,,,0.0,,,,,,,
810525,1745640433509,,,,,,,,,,,,,,,,,,,,,,,,,,,,,,,,,,0,0,0,0,0,0,0,0,0,0,0,0,0,0,0,0,,,,,,,,,,,,,
810545,1745640433529,0.0,128,,-0.01,0.05,0.89,-1,-0,-1,0.89,0.99,90,10994,14.2,3.34,,9.25,1.24,73.6,,39.1,5,,,,,,,,,,,,0,0,0,0,0,0,0,0,0,0,0,0,0,0,0,0,,,,,,0.0,,,,,,,
810565,1745640433549,,,,,,,,,,,,,,,,,,,,,,,,,,,,,,,,,,0,0,0,0,0,0,0,0,0,0,0,0,0,0,0,0,,,,,,,,,,,,,
810585,1745640433569,0.0,128,,-0.04,0.17,0.91,-1,-0,-0,0.92,0.99,93,11389,2.7,1.4,,7.31,1.247,73.6,,41.7,5,0,0,0,0,0.0,0.0,0.0,0.0,2.26,,,0,0,0,0,0,0,0,0,0,0,0,0,0,0,0,0,,0,,,,0.0,38.990532,-76.939499,0.0,42.5,5,2,4.8
810605,1745640433589,,,,,,,,,,,,,,,,,,,,,,,,,,,,,,,,,,0,0,0,0,0,0,0,0,0,0,0,0,0,0,0,0,,,,,,,,,,,,,
810625,1745640433609,0.0,128,,-0.07,-0.01,0.91,-0,-0,-1,0.91,0.99,92,11264,0.7,1.4,,6.22,0.975,73.6,,41.7,5,,,,,,,,,,,,0,0,0,0,0,0,0,0,0,0,0,0,0,0,0,0,,,,,,0.0,,,,,,,
810645,1745640433629,,,,,,,,,,,,,,,,,,,,,,,,,,,,,,,,,,0,0,0,0,0,0,0,0,0,0,0,0,0,0,0,0,,,,,,,,,,,,,
810665,1745640433649,0.0,128,,-0.04,-0.02,0.92,0,-0,-1,0.92,0.99,93,10980,0.8,1.4,,5.39,0.934,73.6,,41.7,5,,,,,,,,,,,,0,0,0,0,0,0,0,0,0,0,0,0,0,0,0,0,,,,,,0.0,,,,,,,
810685,1745640433669,,,,,,,,,,,,,,,,,,,,,,,0,0,0,0,0.0,0.0,0.0,0.0,2.27,,,0,0,0,0,0,0,0,0,0,0,0,0,0,0,0,0,,0,,,,,38.990532,-76.939499,0.0,42.5,5,2,4.8
810705,1745640433689,0.0,128,,-0.06,0.24,0.9,-1,-0,-0,0.94,0.99,95,10645,5.4,1.4,,5.7,0.969,73.6,,40.1,5,,,,,,,,,,,,0,0,0,0,0,0,0,0,0,0,0,0,0,0,0,0,,,,,,0.0,,,,,,,
810725,1745640433709,,,,,,,,,,,,,,,,,,,,,,,,,,,,,,,,,,0,0,0,0,0,0,0,0,0,0,0,0,0,0,0,0,,,,,,,,,,,,,
810745,1745640433729,0.0,128,,-0.1,0.49,0.88,-2,-0,-1,1.01,1.01,100,10448,22.4,2.19,,5.7,0.969,73.6,,40.1,5,,,,,,,,,,,,0,0,0,0,0,0,0,0,0,0,0,0,0,0,0,0,,,,,,0.0,,,,,,,
810765,1745640433749,,,,,,,,,,,,,,,,,,,,,,,,,,,,,,,,,,0,0,0,0,0,0,0,0,0,0,0,0,0,0,0,0,,,,,,,,,,,,,
810785,1745640433769,0.0,128,,-0.14,0.72,0.91,-3,-1,-1,1.17,1.17,100,10448,22.4,2.19,,6.91,0.928,73.6,,39.7,5,0,0,0,0,0.0,0.0,0.0,0.0,2.27,,,0,0,0,0,0,0,0,0,0,0,0,0,0,0,0,0,,0,,,,0.0,38.990532,-76.939499,0.0,42.5,5,2,4.8
810805,1745640433789,,,,,,,,,,,,,,,,,,,,,,,,,,,,,,,,,,0,0,0,0,0,0,0,0,0,0,0,0,0,0,0,0,,,,,,,,,,,,,
810825,1745640433809,0.0,128,,-0.15,0.67,0.96,-3,-1,-1,1.18,1.18,100,10380,35.2,2.85,,8.93,0.934,73.6,,39.7,5,,,,,,,,,,,,0,0,0,0,0,0,0,0,0,0,0,0,0,0,0,0,,,,,,0.0,,,,,,,
810845,1745640433829,,,,,,,,,,,,,,,,,,,,,,,,,,,,,,,,,,0,0,0,0,0,0,0,0,0,0,0,0,0,0,0,0,,,,,,,,,,,,,
810865,1745640433849,0.0,128,,-0.11,0.59,0.95,-3,-0,-1,1.13,1.18,95,9966,35.6,3.6,,10.28,0.99,73.6,,39.7,5,,,,,,,,,,,,0,0,0,0,0,0,0,0,0,0,0,0,0,0,0,0,,,,,,0.0,,,,,,,
810885,1745640433869,,,,,,,,,,,,,,,,,,,,,,,0,0,0,0,0.0,0.0,0.0,0.0,2.27,,,0,0,0,0,0,0,0,0,0,0,0,0,0,0,0,0,,0,,,,,38.990532,-76.939499,0.0,42.5,5,2,4.8
810905,1745640433889,0.0,128,,-0.1,0.52,0.93,-3,-0,-0,1.07,1.18,91,9993,15.8,3.41,,9.52,1.236,73.6,,37.4,5,,,,,,,,,,,,0,0,0,0,0,0,0,0,0,0,0,0,0,0,0,0,,,,,,0.0,,,,,,,
810925,1745640433909,,,,,,,,,,,,,,,,,,,,,,,,,,,,,,,,,,0,0,0,0,0,0,0,0,0,0,0,0,0,0,0,0,,,,,,,,,,,,,
810945,1745640433929,0.0,128,,-0.11,0.57,0.92,-3,-0,-0,1.09,1.18,92,10371,5.3,2.14,,9.52,1.236,73.6,,37.4,5,,,,,,,,,,,,0,0,0,0,0,0,0,0,0,0,0,0,0,0,0,0,,,,,,0.0,,,,,,,
810965,1745640433949,,,,,,,,,,,,,,,,,,,,,,,,,,,,,,,,,,0,0,0,0,0,0,0,0,0,0,0,0,0,0,0,0,,,,,,,,,,,,,
810985,1745640433969,0.0,127,,-0.14,0.61,0.93,-3,-0,-1,1.12,1.18,95,10371,5.3,2.14,,7.95,1.249,73.6,,40.8,5,0,0,0,0,0.0,0.0,0.0,0.0,2.27,,,0,0,0,0,0,0,0,0,0,0,0,0,0,0,0,0,,0,,,,0.0,38.990532,-76.939499,0.0,42.5,5,2,4.8
811005,1745640433989,,,,,,,,,,,,,,,,,,,,,,,,,,,,,,,,,,0,0,0,0,0,0,0,0,0,0,0,0,0,0,0,0,,,,,,,,,,,,,
811025,1745640434009,0.0,128,,-0.11,0.46,0.97,-2,-0,-0,1.08,1.18,91,10414,0.7,1.4,,6.63,1.065,73.6,,40.8,5,,,,,,,,,,,,0,0,0,0,0,0,0,0,0,0,0,0,0,0,0,0,,,,,,0.0,,,,,,,
811045,1745640434029,,,,,,,,,,,,,,,,,,,,,,,,,,,,,,,,,,0,0,0,0,0,0,0,0,0,0,0,0,0,0,0,0,,,,,,,,,,,,,
811065,1745640434049,0.0,128,,-0.08,0.4,0.94,-2,-0,-0,1.03,1.18,87,10049,0.9,1.4,,5.78,0.984,73.6,,40.8,5,,,,,,,,,,,,0,0,0,0,0,0,0,0,0,0,0,0,0,0,0,0,,,,,,0.0,,,,,,,
811085,1745640434069,,,,,,,,,,,,,,,,,,,,,,,0,0,0,0,0.0,0.0,0.0,0.0,2.26,,,0,0,0,0,0,0,0,0,0,0,0,0,0,0,0,0,,0,,,,,38.990532,-76.939499,0.0,42.5,5,2,4.8
811105,1745640434089,0.0,128,,-0.07,0.36,0.93,-2,-0,-0,1.0,1.18,84,9757,1.1,1.4,,5.55,1.081,73.6,,38.5,5,,,,,,,,,,,,0,0,0,0,0,0,0,0,0,0,0,0,0,0,0,0,,,,,,0.0,,,,,,,
811125,1745640434109,,,,,,,,,,,,,,,,,,,,,,,,,,,,,,,,,,0,0,0,0,0,0,0,0,0,0,0,0,0,0,0,0,,,,,,,,,,,,,
811145,1745640434129,0.0,128,,-0.04,0.28,1.0,-2,-0,0,1.04,1.18,88,9485,1.1,1.4,,5.55,1.081,73.6,,38.5,5,,,,,,,,,,,,0,0,0,0,0,0,0,0,0,0,0,0,0,0,0,0,,,,,,0.0,,,,,,,
811165,1745640434149,,,,,,,,,,,,,,,,,,,,,,,,,,,,,,,,,,0,0,0,0,0,0,0,0,0,0,0,0,0,0,0,0,,,,,,,,,,,,,
811185,1745640434169,0.0,128,,-0.07,0.24,0.93,-2,-0,-0,0.97,1.18,82,9485,1.1,1.4,,5.35,1.143,73.6,,36.6,5,0,0,0,0,0.0,0.0,0.0,0.0,2.27,,,0,0,0,0,0,0,0,0,0,0,0,0,0,0,0,0,,0,,,,0.0,38.990532,-76.939499,0.0,42.5,5,2,4.8
811205,1745640434189,,,,,,,,,,,,,,,,,,,,,,,,,,,,,,,,,,0,0,0,0,0,0,0,0,0,0,0,0,0,0,0,0,,,,,,,,,,,,,
811225,1745640434209,0.0,128,,-0.1,0.08,0.98,-1,-0,-1,0.99,1.18,83,9221,1.3,1.4,,5.23,0.995,73.6,,36.6,5,,,,,,,,,,,,0,0,0,0,0,0,0,0,0,0,0,0,0,0,0,0,,,,,,0.0,,,,,,,
811245,1745640434229,,,,,,,,,,,,,,,,,,,,,,,,,,,,,,,,,,0,0,0,0,0,0,0,0,0,0,0,0,0,0,0,0,,,,,,,,,,,,,
811265,1745640434249,0.0,127,,-0.11,0.02,1.0,-1,-0,-0,1.0,1.18,85,8928,10.5,1.83,,5.87,0.939,73.6,,36.6,5,,,,,,,,,,,,0,0,0,0,0,0,0,0,0,0,0,0,0,0,0,0,,,,,,0.0,,,,,,,
811285,1745640434269,,,,,,,,,,,,,,,,,,,,,,,0,0,0,0,0.0,0.0,0.0,0.0,2.28,,,0,0,0,0,0,0,0,0,0,0,0,0,0,0,0,0,,0,,,,,38.990532,-76.939499,0.0,42.5,5,2,4.8
811305,1745640434289,0.0,127,,-0.14,0.07,0.97,-1,-0,-0,0.98,1.18,83,8744,19.4,2.39,,7.19,0.937,73.6,,36.2,5,,,,,,,,,,,,0,0,0,0,0,0,0,0,0,0,0,0,0,0,0,0,,,,,,0.0,,,,,,,
811325,1745640434309,,,,,,,,,,,,,,,,,,,,,,,,,,,,,,,,,,0,0,0,0,0,0,0,0,0,0,0,0,0,0,0,0,,,,,,,,,,,,,
811345,1745640434329,0.0,128,,-0.13,0.11,0.97,-0,-0,-0,0.99,1.18,83,8746,20.2,2.9,,7.19,0.937,73.6,,36.2,5,,,,,,,,,,,,0,0,0,0,0,0,0,0,0,0,0,0,0,0,0,0,,,,,,0.0,,,,,,,
811365,1745640434349,,,,,,,,,,,,,,,,,,,,,,,,,,,,,,,,,,0,0,0,0,0,0,0,0,0,0,0,0,0,0,0,0,,,,,,,,,,,,,
811385,1745640434369,0.0,127,13.94,-0.13,-0.0,1.02,-0,-0,-1,1.03,1.18,87,8746,20.2,2.9,15,8.43,0.966,73.6,97,36.7,5,0,0,0,0,0.0,0.0,0.0,0.0,2.27,0,1.0,0,0,0,0,0,0,0,0,0,0,0,0,0,0,0,0,0,0,0.0,0,-0,0.0,38.990532,-76.939499,0.0,42.5,5,2,4.8
811405,1745640434389,,,,,,,,,,,,,,,,,,,,,,,,,,,,,,,,,,0,0,0,0,0,0,0,0,0,0,0,0,0,0,0,0,,,,,,,,,,,,,
811425,1745640434409,0.0,127,,-0.15,-0.09,1.09,-0,-0,-1,1.1,1.18,93,8971,8.8,2.47,,7.83,0.997,75.4,,36.7,5,,,,,,,,,,,,0,0,0,0,0,0,0,0,0,0,0,0,0,0,0,0,,,,,,0.0,,,,,,,
811445,1745640434429,,,,,,,,,,,,,,,,,,,,,,,,,,,,,,,,,,0,0,0,0,0,0,0,0,0,0,0,0,0,0,0,0,,,,,,,,,,,,,
811465,1745640434449,0.0,128,,-0.15,-0.09,1.08,0,0,-0,1.09,1.18,92,9114,1.7,1.52,,6.86,0.996,75.4,,36.7,5,,,,,,,,,,,,0,0,0,0,0,0,0,0,0,0,0,0,0,0,0,0,,,,,,0.0,,,,,,,
811485,1745640434469,,,,,,,,,,,,,,,,,,,,,,,0,0,6,0,0.0,0.0,0.0,0.0,2.27,,,0,0,0,0,0,0,0,0,0,0,0,0,0,0,0,0,,0,,,,,38.990532,-76.939499,0.0,42.5,5,2,4.8
811505,1745640434489,0.0,128,,-0.16,-0.15,1.06,0,0,-1,1.08,1.18,92,8835,0.2,1.4,,6.14,0.972,75.4,,38.8,5,,,,,,,,,,,,0,0,0,0,0,0,0,0,0,0,0,0,0,0,0,0,,,,,,0.0,,,,,,,
811525,1745640434509,,,,,,,,,,,,,,,,,,,,,,,,,,,,,,,,,,0,0,0,0,0,0,0,0,0,0,0,0,0,0,0,0,,,,,,,,,,,,,
811545,1745640434529,0.0,128,,-0.14,-0.08,1.06,0,0,-1,1.07,1.18,90,8390,0.5,1.4,,6.14,0.972,75.4,,38.8,5,,,,,,,,,,,,0,0,0,0,0,0,0,0,0,0,0,0,0,0,0,0,,,,,,0.0,,,,,,,
811565,1745640434549,,,,,,,,,,,,,,,,,,,,,,,,,,,,,,,,,,0,0,0,0,0,0,0,0,0,0,0,0,0,0,0,0,,,,,,,,,,,,,
811585,1745640434569,0.0,127,,-0.13,-0.14,1.06,0,0,-1,1.08,1.18,91,8390,0.5,1.4,,5.76,0.983,75.4,,35.1,5,0,0,6,0,0.0,0.0,0.0,0.0,2.27,,,0,0,0,0,0,0,0,0,0,0,0,0,0,0,0,0,,0,,,,0.0,38.990532,-76.939499,0.0,42.5,5,2,4.8
811605,1745640434589,,,,,,,,,,,,,,,,,,,,,,,,,,,,,,,,,,0,0,0,0,0,0,0,0,0,0,0,0,0,0,0,0,,,,,,,,,,,,,
811625,1745640434609,0.0,127,,-0.14,-0.26,1.04,-1,0,-0,1.08,1.18,92,8004,0.7,1.4,,5.75,1.174,75.4,,35.1,5,,,,,,,,,,,,0,0,0,0,0,0,0,0,0,0,0,0,0,0,0,0,,,,,,0.0,,,,,,,
811645,1745640434629,,,,,,,,,,,,,,,,,,,,,,,,,,,,,,,,,,0,0,0,0,0,0,0,0,0,0,0,0,0,0,0,0,,,,,,,,,,,,,
811665,1745640434649,0.0,128,,-0.14,-0.34,1.03,-0,-0,-0,1.09,1.18,92,7687,0.8,1.4,,5.8,1.25,75.4,,35.1,5,,,,,,,,,,,,0,0,0,0,0,0,0,0,0,0,0,0,0,0,0,0,,,,,,0.0,,,,,,,
811685,1745640434669,,,,,,,,,,,,,,,,,,,,,,,0,0,1,0,0.0,0.0,0.0,0.0,2.27,,,0,0,0,0,0,0,0,0,0,0,0,0,0,0,0,0,,0,,,,,38.990532,-76.939499,0.0,42.5,5,2,4.8
811705,1745640434689,0.0,128,,-0.18,-0.37,1.01,1,-0,-1,1.09,1.18,93,7313,1.8,1.4,,5.8,1.25,75.4,,35.7,5,,,,,,,,,,,,0,0,0,0,0,0,0,0,0,0,0,0,0,0,0,0,,,,,,0.0,,,,,,,
811725,1745640434709,,,,,,,,,,,,,,,,,,,,,,,,,,,,,,,,,,0,0,0,0,0,0,0,0,0,0,0,0,0,0,0,0,,,,,,,,,,,,,
811745,1745640434729,0.0,127,,-0.14,-0.31,0.99,0,-0,-0,1.05,1.18,89,6910,14.4,2.51,,6.02,1.25,75.4,,35.7,5,,,,,,,,,,,,0,0,0,0,0,0,0,0,0,0,0,0,0,0,0,0,,,,,,0.0,,,,,,,
811765,1745640434749,,,,,,,,,,,,,,,,,,,,,,,,,,,,,,,,,,0,0,0,0,0,0,0,0,0,0,0,0,0,0,0,0,,,,,,,,,,,,,
811785,1745640434769,0.0,128,,-0.14,-0.21,0.96,0,-0,-0,1.0,1.18,84,6910,14.4,2.51,,7.5,1.249,75.4,,34.6,5,0,0,1,0,0.0,0.0,0.0,0.0,2.27,,,0,0,0,0,0,0,0,0,0,0,0,0,0,0,0,0,,0,,,,0.0,38.990532,-76.939499,0.0,42.5,5,2,4.8
811805,1745640434789,,,,,,,,,,,,,,,,,,,,,,,,,,,,,,,,,,0,0,0,0,0,0,0,0,0,0,0,0,0,0,0,0,,,,,,,,,,,,,
811825,1745640434809,0.0,128,,-0.13,-0.23,0.97,0,-0,-0,1.01,1.18,85,6677,20.8,3.48,,9.44,1.248,75.4,,34.6,5,,,,,,,,,,,,0,0,0,0,0,0,0,0,0,0,0,0,0,0,0,0,,,,,,0.0,,,,,,,
811845,1745640434829,,,,,,,,,,,,,,,,,,,,,,,,,,,,,,,,,,0,0,0,0,0,0,0,0,0,0,0,0,0,0,0,0,,,,,,,,,,,,,
811865,1745640434849,0.0,128,,-0.12,-0.2,0.98,-0,-0,-0,1.01,1.18,86,6585,18.3,3.71,,10.42,1.246,75.4,,34.6,5,,,,,,,,,,,,0,0,0,0,0,0,0,0,0,0,0,0,0,0,0,0,,,,,,0.0,,,,,,,
811885,1745640434869,,,,,,,,,,,,,,,,,,,,,,,0,0,1,0,0.0,0.0,0.0,0.0,2.28,,,0,0,0,0,0,0,0,0,0,0,0,0,0,0,0,0,,0,,,,,38.990532,-76.939499,0.0,42.5,5,2,4.8
811905,1745640434889,0.0,127,,-0.08,-0.2,0.98,-0,-0,-0,1.01,1.18,85,6439,6.5,3.11,,10.17,1.118,75.4,,34.9,5,,,,,,,,,,,,0,0,0,0,0,0,0,0,0,0,0,0,0,0,0,0,,,,,,0.0,,,,,,,
811925,1745640434909,,,,,,,,,,,,,,,,,,,,,,,,,,,,,,,,,,0,0,0,0,0,0,0,0,0,0,0,0,0,0,0,0,,,,,,,,,,,,,
811945,1745640434929,0.0,128,,-0.11,-0.16,1.0,-0,-0,0,1.02,1.18,87,6416,0.4,1.4,,10.17,1.118,75.4,,34.9,5,,,,,,,,,,,,0,0,0,0,0,0,0,0,0,0,0,0,0,0,0,0,,,,,,0.0,,,,,,,
811965,1745640434949,,,,,,,,,,,,,,,,,,,,,,,,,,,,,,,,,,0,0,0,0,0,0,0,0,0,0,0,0,0,0,0,0,,,,,,,,,,,,,
811985,1745640434969,0.0,128,,-0.1,-0.22,0.97,0,-0,-0,1.0,1.18,85,6416,0.4,1.4,,9.3,1.072,75.4,,34.8,5,0,0,1,0,0.0,0.0,0.0,0.0,2.28,,,0,0,0,0,0,0,0,0,0,0,0,0,0,0,0,0,,0,,,,0.0,38.990532,-76.939499,0.0,42.5,5,2,4.8
812005,1745640434989,,,,,,,,,,,,,,,,,,,,,,,,,,,,,,,,,,0,0,0,0,0,0,0,0,0,0,0,0,0,0,0,0,,,,,,,,,,,,,
812025,1745640435009,0.0,127,,-0.1,-0.31,0.91,1,-1,-1,0.97,1.18,82,6021,0.3,1.4,,8.99,1.055,75.4,,34.8,5,,,,,,,,,,,,0,0,0,0,0,0,0,0,0,0,0,0,0,0,0,0,,,,,,0.0,,,,,,,
812045,1745640435029,,,,,,,,,,,,,,,,,,,,,,,,,,,,,,,,,,0,0,0,0,0,0,0,0,0,0,0,0,0,0,0,0,,,,,,,,,,,,,
812065,1745640435049,0.0,127,,-0.11,-0.25,0.95,1,-1,-0,0.99,1.18,84,5560,0.3,1.4,,9.02,1.057,75.4,,34.8,5,,,,,,,,,,,,0,0,0,0,0,0,0,0,0,0,0,0,0,0,0,0,,,,,,0.0,,,,,,,
812085,1745640435069,,,,,,,,,,,,,,,,,,,,,,,0,0,1,0,0.0,0.0,0.0,0.0,2.27,,,0,0,0,0,0,0,0,0,0,0,0,0,0,0,0,0,,0,,,,,38.990532,-76.939499,0.0,42.5,5,2,4.8
812105,1745640435089,0.0,128,,-0.09,-0.24,0.92,0,-1,-0,0.96,1.18,81,5173,3.1,1.5,,9.29,1.148,75.4,,33.6,5,,,,,,,,,,,,0,0,0,0,0,0,0,0,0,0,0,0,0,0,0,0,,,,,,0.0,,,,,,,
812125,1745640435109,,,,,,,,,,,,,,,,,,,,,,,,,,,,,,,,,,0,0,0,0,0,0,0,0,0,0,0,0,0,0,0,0,,,,,,,,,,,,,
812145,1745640435129,0.0,128,,-0.1,-0.06,1.0,-0,-1,-0,1.0,1.18,85,4780,15.5,2.72,,9.29,1.148,75.4,,33.6,5,,,,,,,,,,,,0,0,0,0,0,0,0,0,0,0,0,0,0,0,0,0,,,,,,0.0,,,,,,,
812165,1745640435149,,,,,,,,,,,,,,,,,,,,,,,,,,,,,,,,,,0,0,0,0,0,0,0,0,0,0,0,0,0,0,0,0,,,,,,,,,,,,,
812185,1745640435169,0.0,128,,-0.13,-0.03,1.01,-1,-0,0,1.02,1.18,86,4780,15.5,2.72,,10.69,1.25,75.4,,32.0,5,0,0,1,0,0.0,0.0,0.0,0.0,2.26,,,0,0,0,0,0,0,0,0,0,0,0,0,0,0,0,0,,0,,,,0.0,38.990532,-76.939499,0.0,42.5,5,2,4.8
812205,1745640435189,,,,,,,,,,,,,,,,,,,,,,,,,,,,,,,,,,0,0,0,0,0,0,0,0,0,0,0,0,0,0,0,0,,,,,,,,,,,,,
812225,1745640435209,0.0,128,,-0.13,0.08,1.09,-2,-0,1,1.1,1.18,93,4461,21.7,4.21,,12.23,1.251,75.4,,32.0,5,,,,,,,,,,,,0,0,0,0,0,0,0,0,0,0,0,0,0,0,0,0,,,,,,0.0,,,,,,,
812245,1745640435229,,,,,,,,,,,,,,,,,,,,,,,,,,,,,,,,,,0,0,0,0,0,0,0,0,0,0,0,0,0,0,0,0,,,,,,,,,,,,,
812265,1745640435249,0.0,128,,-0.09,0.06,1.06,-1,-0,1,1.07,1.18,90,4214,18.2,4.08,,12.95,1.251,75.4,,32.0,5,,,,,,,,,,,,0,0,0,0,0,0,0,0,0,0,0,0,0,0,0,0,,,,,,0.0,,,,,,,
812285,1745640435269,,,,,,,,,,,,,,,,,,,,,,,0,0,1,0,0.0,0.0,0.0,0.0,2.27,,,0,0,0,0,0,0,0,0,0,0,0,0,0,0,0,0,,0,,,,,38.990532,-76.939499,0.0,42.5,5,2,4.8
812305,1745640435289,0.0,127,,-0.11,0.06,1.09,-2,-0,1,1.09,1.18,92,4076,7.1,3.81,,12.71,1.25,75.4,,31.2,5,,,,,,,,,,,,0,0,0,0,0,0,0,0,0,0,0,0,0,0,0,0,,,,,,0.0,,,,,,,
812325,1745640435309,,,,,,,,,,,,,,,,,,,,,,,,,,,,,,,,,,0,0,0,0,0,0,0,0,0,0,0,0,0,0,0,0,,,,,,,,,,,,,
812345,1745640435329,0.0,128,,-0.11,-0.03,1.02,-1,-0,0,1.03,1.18,87,3983,0.3,2.93,,12.71,1.25,75.4,,31.2,5,,,,,,,,,,,,0,0,0,0,0,0,0,0,0,0,0,0,0,0,0,0,,,,,,0.0,,,,,,,
812365,1745640435349,,,,,,,,,,,,,,,,,,,,,,,,,,,,,,,,,,0,0,0,0,0,0,0,0,0,0,0,0,0,0,0,0,,,,,,,,,,,,,
812385,1745640435369,0.0,128,13.96,-0.07,0.08,1.05,-1,-0,1,1.06,1.18,89,3983,0.3,2.93,15,12.23,1.248,75.4,97,31.6,5,0,0,1,0,0.0,0.0,0.0,0.0,2.28,0,1.0,0,0,0,0,0,0,0,0,0,0,0,0,0,0,0,0,0,0,0.0,0,-0,0.0,38.990532,-76.939499,0.0,42.5,5,2,4.8
812405,1745640435389,,,,,,,,,,,,,,,,,,,,,,,,,,,,,,,,,,0,0,0,0,0,0,0,0,0,0,0,0,0,0,0,0,,,,,,,,,,,,,
812425,1745640435409,0.0,128,,-0.07,0.07,1.06,-1,-0,1,1.06,1.18,90,3905,0.0,2.52,,11.8,1.242,77.2,,31.6,5,,,,,,,,,,,,0,0,0,0,0,0,0,0,0,0,0,0,0,0,0,0,,,,,,0.0,,,,,,,
812445,1745640435429,,,,,,,,,,,,,,,,,,,,,,,,,,,,,,,,,,0,0,0,0,0,0,0,0,0,0,0,0,0,0,0,0,,,,,,,,,,,,,
812465,1745640435449,0.0,128,,-0.07,0.06,1.03,-1,-0,1,1.04,1.18,88,3686,0.0,2.54,,11.8,1.18,77.2,,31.6,5,,,,,,,,,,,,0,0,0,0,0,0,0,0,0,0,0,0,0,0,0,0,,,,,,0.0,,,,,,,
812485,1745640435469,,,,,,,,,,,,,,,,,,,,,,,0,0,1,0,0.0,0.0,0.0,0.0,2.28,,,0,0,0,0,0,0,0,0,0,0,0,0,0,0,0,0,,0,,,,,38.990532,-76.939499,0.0,42.5,5,2,4.8
812505,1745640435489,0.0,128,,-0.08,-0.01,1.0,-1,-0,0,1.01,1.18,85,3549,7.8,3.83,,12.2,1.129,77.2,,30.9,5,,,,,,,,,,,,0,0,0,0,0,0,0,0,0,0,0,0,0,0,0,0,,,,,,0.0,,,,,,,
812525,1745640435509,,,,,,,,,,,,,,,,,,,,,,,,,,,,,,,,,,0,0,0,0,0,0,0,0,0,0,0,0,0,0,0,0,,,,,,,,,,,,,
812545,1745640435529,0.0,127,,-0.08,0.0,1.06,-1,-0,1,1.06,1.18,90,3495,16.3,4.19,,12.2,1.129,77.2,,30.9,5,,,,,,,,,,,,0,0,0,0,0,0,0,0,0,0,0,0,0,0,0,0,,,,,,0.0,,,,,,,
812565,1745640435549,,,,,,,,,,,,,,,,,,,,,,,,,,,,,,,,,,0,0,0,0,0,0,0,0,0,0,0,0,0,0,0,0,,,,,,,,,,,,,
812585,1745640435569,0.0,128,,-0.05,-0.02,1.0,-1,-0,0,1.0,1.18,84,3495,16.3,4.19,,13.2,1.125,77.2,,31.7,5,0,0,1,0,0.0,0.0,0.0,0.0,2.27,,,0,0,0,0,0,0,0,0,0,0,0,0,0,0,0,0,,0,,,,0.0,38.990532,-76.939499,0.0,42.5,5,2,4.8
812605,1745640435589,,,,,,,,,,,,,,,,,,,,,,,,,,,,,,,,,,0,0,0,0,0,0,0,0,0,0,0,0,0,0,0,0,,,,,,,,,,,,,
812625,1745640435609,0.0,128,,-0.06,-0.12,0.97,-1,-0,0,0.97,1.18,82,3548,18.2,4.23,,13.69,1.137,77.2,,31.7,5,,,,,,,,,,,,0,0,0,0,0,0,0,0,0,0,0,0,0,0,0,0,,,,,,0.0,,,,,,,
812645,1745640435629,,,,,,,,,,,,,,,,,,,,,,,,,,,,,,,,,,0,0,0,0,0,0,0,0,0,0,0,0,0,0,0,0,,,,,,,,,,,,,
812665,1745640435649,0.0,128,,-0.07,-0.15,0.98,-1,-0,0,0.99,1.18,84,3587,11.9,4.01,,13.56,1.12,77.2,,31.7,5,,,,,,,,,,,,0,0,0,0,0,0,0,0,0,0,0,0,0,0,0,0,,,,,,0.0,,,,,,,
812685,1745640435669,,,,,,,,,,,,,,,,,,,,,,,0,0,1,0,0.0,0.0,0.0,0.0,2.27,,,0,0,0,0,0,0,0,0,0,0,0,0,0,0,0,0,,0,,,,,38.990532,-76.939499,0.0,42.5,5,2,4.8
812705,1745640435689,0.0,127,,-0.08,-0.1,0.98,-1,-0,0,0.99,1.18,84,3630,4.6,3.62,,13.27,1.095,77.2,,32.5,5,,,,,,,,,,,,0,0,0,0,0,0,0,0,0,0,0,0,0,0,0,0,,,,,,0.0,,,,,,,
812725,1745640435709,,,,,,,,,,,,,,,,,,,,,,,,,,,,,,,,,,0,0,0,0,0,0,0,0,0,0,0,0,0,0,0,0,,,,,,,,,,,,,
812745,1745640435729,0.0,128,,-0.08,-0.07,1.0,-1,-0,0,1.0,1.18,85,3759,2.5,3.22,,13.27,1.095,77.2,,32.5,5,,,,,,,,,,,,0,0,0,0,0,0,0,0,0,0,0,0,0,0,0,0,,,,,,0.0,,,,,,,
812765,1745640435749,,,,,,,,,,,,,,,,,,,,,,,,,,,,,,,,,,0,0,0,0,0,0,0,0,0,0,0,0,0,0,0,0,,,,,,,,,,,,,
812785,1745640435769,0.0,128,,-0.08,-0.03,1.0,-1,-0,0,1.0,1.18,85,3759,2.5,3.22,,12.77,1.118,77.2,,34.2,5,0,0,1,0,0.0,0.0,0.0,0.0,2.26,,,0,0,0,0,0,0,0,0,0,0,0,0,0,0,0,0,,0,,,,0.0,38.990532,-76.939499,0.0,42.5,5,2,4.8
812805,1745640435789,,,,,,,,,,,,,,,,,,,,,,,,,,,,,,,,,,0,0,0,0,0,0,0,0,0,0,0,0,0,0,0,0,,,,,,,,,,,,,
812825,1745640435809,0.0,128,,-0.06,0.01,1.01,-1,-0,0,1.01,1.18,86,3681,11.7,4.02,,12.87,1.098,77.2,,34.2,5,,,,,,,,,,,,0,0,0,0,0,0,0,0,0,0,0,0,0,0,0,0,,,,,,0.0,,,,,,,
812845,1745640435829,,,,,,,,,,,,,,,,,,,,,,,,,,,,,,,,,,0,0,0,0,0,0,0,0,0,0,0,0,0,0,0,0,,,,,,,,,,,,,
812865,1745640435849,0.0,127,,-0.06,-0.03,1.03,-1,-0,0,1.03,1.18,87,3724,22.4,4.46,,13.65,1.082,77.2,,34.2,5,,,,,,,,,,,,0,0,0,0,0,0,0,0,0,0,0,0,0,0,0,0,,,,,,0.0,,,,,,,
812885,1745640435869,,,,,,,,,,,,,,,,,,,,,,,0,0,1,0,0.0,0.0,0.0,0.0,2.28,,,0,0,0,0,0,0,0,0,0,0,0,0,0,0,0,0,,0,,,,,38.990532,-76.939499,0.0,42.5,5,2,4.8
812905,1745640435889,0.0,128,,-0.08,-0.05,0.98,-0,-0,0,0.99,1.18,83,3883,30.3,4.66,,14.04,1.099,77.2,,34.4,5,,,,,,,,,,,,0,0,0,0,0,0,0,0,0,0,0,0,0,0,0,0,,,,,,0.0,,,,,,,
812925,1745640435909,,,,,,,,,,,,,,,,,,,,,,,,,,,,,,,,,,0,0,0,0,0,0,0,0,0,0,0,0,0,0,0,0,,,,,,,,,,,,,
812945,1745640435929,0.0,128,,-0.02,0.08,1.05,-0,-1,0,1.05,1.18,89,3883,30.3,4.66,,14.04,1.099,77.2,,34.4,5,,,,,,,,,,,,0,0,0,0,0,0,0,0,0,0,0,0,0,0,0,0,,,,,,0.0,,,,,,,
812965,1745640435949,,,,,,,,,,,,,,,,,,,,,,,,,,,,,,,,,,0,0,0,0,0,0,0,0,0,0,0,0,0,0,0,0,,,,,,,,,,,,,
812985,1745640435969,0.0,128,,-0.04,0.01,0.97,1,-1,-0,0.97,1.18,82,4233,34.7,4.59,,14.19,1.102,77.2,,39.4,5,0,0,1,0,0.0,0.0,0.0,0.0,2.28,,,0,0,0,0,0,0,0,0,0,0,0,0,0,0,0,0,,0,,,,0.0,38.990532,-76.939499,0.0,42.5,5,2,4.8
813005,1745640435989,,,,,,,,,,,,,,,,,,,,,,,,,,,,,,,,,,0,0,0,0,0,0,0,0,0,0,0,0,0,0,0,0,,,,,,,,,,,,,
813025,1745640436009,0.0,128,,-0.04,0.06,0.99,2,-1,-1,0.99,1.18,84,4488,34.8,4.56,,14.1,1.103,77.2,,39.4,5,,,,,,,,,,,,0,0,0,0,0,0,0,0,0,0,0,0,0,0,0,0,,,,,,0.0,,,,,,,
813045,1745640436029,,,,,,,,,,,,,,,,,,,,,,,,,,,,,,,,,,0,0,0,0,0,0,0,0,0,0,0,0,0,0,0,0,,,,,,,,,,,,,
813065,1745640436049,0.0,128,,-0.03,0.12,0.99,2,-1,-0,1.0,1.18,85,4879,28.7,5.03,,13.95,1.107,77.2,,39.4,5,,,,,,,,,,,,0,0,0,0,0,0,0,0,0,0,0,0,0,0,0,0,,,,,,0.0,,,,,,,
813085,1745640436069,,,,,,,,,,,,,,,,,,,,,,,0,0,1,0,0.0,0.0,0.0,0.0,2.28,,,0,0,0,0,0,0,0,0,0,0,0,0,0,0,0,0,,0,,,,,38.990532,-76.939499,0.0,42.5,5,2,4.8
813105,1745640436089,0.0,129,,-0.02,0.09,1.0,2,-1,-1,1.0,1.18,85,5345,4.7,3.86,,13.2,1.103,77.2,,40.0,5,,,,,,,,,,,,0,0,0,0,0,0,0,0,0,0,0,0,0,0,0,0,,,,,,0.0,,,,,,,
813125,1745640436109,,,,,,,,,,,,,,,,,,,,,,,,,,,,,,,,,,0,0,0,0,0,0,0,0,0,0,0,0,0,0,0,0,,,,,,,,,,,,,
813145,1745640436129,0.0,128,,-0.04,0.19,1.05,2,-1,-1,1.07,1.18,90,5528,0.0,1.96,,13.2,1.103,77.2,,40.0,5,,,,,,,,,,,,0,0,0,0,0,0,0,0,0,0,0,0,0,0,0,0,,,,,,0.0,,,,,,,
813165,1745640436149,,,,,,,,,,,,,,,,,,,,,,,,,,,,,,,,,,0,0,0,0,0,0,0,0,0,0,0,0,0,0,0,0,,,,,,,,,,,,,
813185,1745640436169,0.0,128,,-0.05,0.12,0.99,1,-1,-0,1.0,1.18,85,5528,0.0,1.96,,11.97,1.04,77.2,,39.1,5,0,0,1,0,0.0,0.0,0.0,0.0,2.27,,,0,0,0,0,0,0,0,0,0,0,0,0,0,0,0,0,,0,,,,0.0,38.990532,-76.939499,0.0,42.5,5,2,4.8
813205,1745640436189,,,,,,,,,,,,,,,,,,,,,,,,,,,,,,,,,,0,0,0,0,0,0,0,0,0,0,0,0,0,0,0,0,,,,,,,,,,,,,
813225,1745640436209,0.0,128,,-0.03,0.13,1.04,2,-1,-1,1.05,1.18,89,5539,0.0,1.89,,11.22,0.945,77.2,,39.1,5,,,,,,,,,,,,0,0,0,0,0,0,0,0,0,0,0,0,0,0,0,0,,,,,,0.0,,,,,,,
813245,1745640436229,,,,,,,,,,,,,,,,,,,,,,,,,,,,,,,,,,0,0,0,0,0,0,0,0,0,0,0,0,0,0,0,0,,,,,,,,,,,,,
813265,1745640436249,0.0,128,,-0.06,0.15,1.04,1,-1,-0,1.06,1.18,89,5524,4.0,2.55,,10.98,0.93,77.2,,39.1,5,,,,,,,,,,,,0,0,0,0,0,0,0,0,0,0,0,0,0,0,0,0,,,,,,0.0,,,,,,,
813285,1745640436269,,,,,,,,,,,,,,,,,,,,,,,0,0,1,0,0.0,0.0,0.0,0.0,2.27,,,0,0,0,0,0,0,0,0,0,0,0,0,0,0,0,0,,0,,,,,38.990532,-76.939499,0.0,42.5,5,2,4.8
813305,1745640436289,0.0,128,,-0.05,0.08,1.0,1,-1,-0,1.01,1.18,85,5499,19.2,4.29,,12.03,0.962,77.2,,38.8,5,,,,,,,,,,,,0,0,0,0,0,0,0,0,0,0,0,0,0,0,0,0,,,,,,0.0,,,,,,,
813325,1745640436309,,,,,,,,,,,,,,,,,,,,,,,,,,,,,,,,,,0,0,0,0,0,0,0,0,0,0,0,0,0,0,0,0,,,,,,,,,,,,,
813345,1745640436329,0.0,128,,-0.01,-0.08,1.0,1,-1,-0,1.0,1.18,85,5499,19.2,4.29,,12.03,0.962,77.2,,38.8,5,,,,,,,,,,,,0,0,0,0,0,0,0,0,0,0,0,0,0,0,0,0,,,,,,0.0,,,,,,,
813365,1745640436349,,,,,,,,,,,,,,,,,,,,,,,,,,,,,,,,,,0,0,0,0,0,0,0,0,0,0,0,0,0,0,0,0,,,,,,,,,,,,,
813385,1745640436369,0.0,128,13.91,0.01,-0.16,0.87,1,-1,-1,0.89,1.18,75,5712,34.1,5.23,15,13.44,0.936,77.2,99,40.4,5,0,0,1,0,0.0,0.0,0.0,0.0,2.27,0,1.0,0,0,0,0,0,0,0,0,0,0,0,0,0,0,0,0,0,0,0.0,0,-0,0.0,38.990532,-76.939499,0.0,42.5,5,2,4.8
813405,1745640436389,,,,,,,,,,,,,,,,,,,,,,,,,,,,,,,,,,0,0,0,0,0,0,0,0,0,0,0,0,0,0,0,0,,,,,,,,,,,,,
813425,1745640436409,0.0,128,,0.02,-0.26,0.92,2,-1,-1,0.95,1.18,81,6316,44.8,5.28,,13.63,0.892,77.2,,40.4,5,,,,,,,,,,,,0,0,0,0,0,0,0,0,0,0,0,0,0,0,0,0,,,,,,0.0,,,,,,,
813445,1745640436429,,,,,,,,,,,,,,,,,,,,,,,,,,,,,,,,,,0,0,0,0,0,0,0,0,0,0,0,0,0,0,0,0,,,,,,,,,,,,,
813465,1745640436449,0.0,129,,0.03,-0.23,0.9,2,-1,-1,0.93,1.18,79,6703,47.7,5.44,,13.72,0.956,77.2,,40.4,5,,,,,,,,,,,,0,0,0,0,0,0,0,0,0,0,0,0,0,0,0,0,,,,,,0.0,,,,,,,
813485,1745640436469,,,,,,,,,,,,,,,,,,,,,,,0,0,1,0,0.0,0.0,0.0,0.0,2.28,,,0,0,0,0,0,0,0,0,0,0,0,0,0,0,0,0,,0,,,,,38.990532,-76.939499,0.0,42.5,5,2,4.8
813505,1745640436489,0.0,128,,0.03,-0.07,0.93,0,-1,-1,0.93,1.18,79,7326,30.9,5.25,,12.95,1.036,77.2,,41.2,5,,,,,,,,,,,,0,0,0,0,0,0,0,0,0,0,0,0,0,0,0,0,,,,,,0.0,,,,,,,
813525,1745640436509,,,,,,,,,,,,,,,,,,,,,,,,,,,,,,,,,,0,0,0,0,0,0,0,0,0,0,0,0,0,0,0,0,,,,,,,,,,,,,
813545,1745640436529,0.0,128,,0.04,-0.08,0.93,1,-1,-0,0.93,1.18,79,8408,0.8,1.4,,12.95,1.036,77.2,,41.2,5,,,,,,,,,,,,0,0,0,0,0,0,0,0,0,0,0,0,0,0,0,0,,,,,,0.0,,,,,,,
813565,1745640436549,,,,,,,,,,,,,,,,,,,,,,,,,,,,,,,,,,0,0,0,0,0,0,0,0,0,0,0,0,0,0,0,0,,,,,,,,,,,,,
813585,1745640436569,0.0,127,,0.03,-0.17,0.98,1,-1,-0,1.0,1.18,84,8408,0.8,1.4,,10.54,1.042,77.2,,42.9,5,0,0,1,0,0.0,0.0,0.0,0.0,2.28,,,0,0,0,0,0,0,0,0,0,0,0,0,0,0,0,0,,0,,,,0.0,38.990532,-76.939499,0.0,42.5,5,2,4.8
813605,1745640436589,,,,,,,,,,,,,,,,,,,,,,,,,,,,,,,,,,0,0,0,0,0,0,0,0,0,0,0,0,0,0,0,0,,,,,,,,,,,,,
813625,1745640436609,0.0,128,,0.04,-0.27,1.04,1,-1,-0,1.08,1.18,91,9090,0.0,1.4,,8.55,0.862,77.2,,42.9,5,,,,,,,,,,,,0,0,0,0,0,0,0,0,0,0,0,0,0,0,0,0,,,,,,0.0,,,,,,,
813645,1745640436629,,,,,,,,,,,,,,,,,,,,,,,,,,,,,,,,,,0,0,0,0,0,0,0,0,0,0,0,0,0,0,0,0,,,,,,,,,,,,,
813665,1745640436649,0.0,128,,0.08,-0.21,1.04,1,-1,-0,1.06,1.18,90,9369,0.0,1.4,,7.25,0.812,77.2,,42.9,5,,,,,,,,,,,,0,0,0,0,0,0,0,0,0,0,0,0,0,0,0,0,,,,,,0.0,,,,,,,
813685,1745640436669,,,,,,,,,,,,,,,,,,,,,,,0,0,0,0,0.0,0.0,0.0,0.0,2.27,,,0,0,0,0,0,0,0,0,0,0,0,0,0,0,0,0,,0,,,,,38.990532,-76.939499,0.0,42.5,5,2,4.8
813705,1745640436689,0.0,128,,0.04,-0.25,1.04,2,-0,-1,1.08,1.18,91,9463,0.3,1.4,,7.25,0.812,77.2,,41.9,5,,,,,,,,,,,,0,0,0,0,0,0,0,0,0,0,0,0,0,0,0,0,,,,,,0.0,,,,,,,
813725,1745640436709,,,,,,,,,,,,,,,,,,,,,,,,,,,,,,,,,,0,0,0,0,0,0,0,0,0,0,0,0,0,0,0,0,,,,,,,,,,,,,
813745,1745640436729,0.0,128,,-0.02,-0.1,1.0,1,-1,-0,1.0,1.18,85,9398,0.5,1.4,,6.63,0.894,77.2,,41.9,5,,,,,,,,,,,,0,0,0,0,0,0,0,0,0,0,0,0,0,0,0,0,,,,,,0.0,,,,,,,
813765,1745640436749,,,,,,,,,,,,,,,,,,,,,,,,,,,,,,,,,,0,0,0,0,0,0,0,0,0,0,0,0,0,0,0,0,,,,,,,,,,,,,
813785,1745640436769,0.0,128,,0.02,-0.14,1.05,1,-1,-0,1.06,1.18,90,9398,0.5,1.4,,6.06,0.913,77.2,,40.8,5,0,0,0,0,0.0,0.0,0.0,0.0,2.27,,,0,0,0,0,0,0,0,0,0,0,0,0,0,0,0,0,,0,,,,0.0,38.990532,-76.939499,0.0,42.5,5,2,4.8
813805,1745640436789,,,,,,,,,,,,,,,,,,,,,,,,,,,,,,,,,,0,0,0,0,0,0,0,0,0,0,0,0,0,0,0,0,,,,,,,,,,,,,
813825,1745640436809,0.0,128,,0.06,-0.1,1.0,0,-1,-0,1.0,1.18,85,9251,0.7,1.4,,5.75,0.89,77.2,,40.8,5,,,,,,,,,,,,0,0,0,0,0,0,0,0,0,0,0,0,0,0,0,0,,,,,,0.0,,,,,,,
813845,1745640436829,,,,,,,,,,,,,,,,,,,,,,,,,,,,,,,,,,0,0,0,0,0,0,0,0,0,0,0,0,0,0,0,0,,,,,,,,,,,,,
813865,1745640436849,0.0,128,,0.08,-0.12,0.96,-0,-1,-0,0.97,1.18,82,9067,0.7,1.4,,5.62,0.876,77.2,,40.8,5,,,,,,,,,,,,0,0,0,0,0,0,0,0,0,0,0,0,0,0,0,0,,,,,,0.0,,,,,,,
813885,1745640436869,,,,,,,,,,,,,,,,,,,,,,,0,0,0,0,0.0,0.0,0.0,0.0,2.27,,,0,0,0,0,0,0,0,0,0,0,0,0,0,0,0,0,,0,,,,,38.990532,-76.939499,0.0,42.5,5,2,4.8
813905,1745640436889,0.0,127,,0.08,-0.05,0.92,-1,-1,-0,0.93,1.18,79,8813,0.7,1.4,,5.39,0.867,77.2,,38.9,5,,,,,,,,,,,,0,0,0,0,0,0,0,0,0,0,0,0,0,0,0,0,,,,,,0.0,,,,,,,
813925,1745640436909,,,,,,,,,,,,,,,,,,,,,,,,,,,,,,,,,,0,0,0,0,0,0,0,0,0,0,0,0,0,0,0,0,,,,,,,,,,,,,
813945,1745640436929,0.0,128,,0.11,-0.09,0.94,0,-1,-0,0.96,1.18,81,8577,0.7,1.4,,5.39,0.867,77.2,,38.9,5,,,,,,,,,,,,0,0,0,0,0,0,0,0,0,0,0,0,0,0,0,0,,,,,,0.0,,,,,,,
813965,1745640436949,,,,,,,,,,,,,,,,,,,,,,,,,,,,,,,,,,0,0,0,0,0,0,0,0,0,0,0,0,0,0,0,0,,,,,,,,,,,,,
813985,1745640436969,0.0,128,,0.07,-0.09,0.93,-0,-0,-0,0.94,1.18,79,8577,0.7,1.4,,5.39,0.865,77.2,,35.9,5,0,0,0,0,0.0,0.0,0.0,0.0,2.28,,,0,0,0,0,0,0,0,0,0,0,0,0,0,0,0,0,,0,,,,0.0,38.990532,-76.939499,0.0,42.5,5,2,4.8
814005,1745640436989,,,,,,,,,,,,,,,,,,,,,,,,,,,,,,,,,,0,0,0,0,0,0,0,0,0,0,0,0,0,0,0,0,,,,,,,,,,,,,
814025,1745640437009,0.0,128,,0.06,-0.09,0.94,0,-0,-0,0.94,1.18,80,8328,8.9,1.93,,5.96,0.862,77.2,,35.9,5,,,,,,,,,,,,0,0,0,0,0,0,0,0,0,0,0,0,0,0,0,0,,,,,,0.0,,,,,,,
814045,1745640437029,,,,,,,,,,,,,,,,,,,,,,,,,,,,,,,,,,0,0,0,0,0,0,0,0,0,0,0,0,0,0,0,0,,,,,,,,,,,,,
814065,1745640437049,0.0,128,,0.03,-0.14,0.93,1,-1,-0,0.94,1.18,80,8113,21.4,2.87,,7.75,0.872,77.2,,35.9,5,,,,,,,,,,,,0,0,0,0,0,0,0,0,0,0,0,0,0,0,0,0,,,,,,0.0,,,,,,,
814085,1745640437069,,,,,,,,,,,,,,,,,,,,,,,0,0,0,0,0.0,0.0,0.0,0.0,2.28,,,0,0,0,0,0,0,0,0,0,0,0,0,0,0,0,0,,0,,,,,38.990532,-76.939499,0.0,42.5,5,2,4.8
814105,1745640437089,0.0,128,,0.05,-0.14,0.9,0,-1,-0,0.92,1.18,78,8168,26.1,3.32,,9.66,0.931,77.2,,34.3,5,,,,,,,,,,,,0,0,0,0,0,0,0,0,0,0,0,0,0,0,0,0,,,,,,0.0,,,,,,,
814125,1745640437109,,,,,,,,,,,,,,,,,,,,,,,,,,,,,,,,,,0,0,0,0,0,0,0,0,0,0,0,0,0,0,0,0,,,,,,,,,,,,,
814145,1745640437129,0.0,128,,0.02,-0.1,0.92,-0,-0,0,0.93,1.18,78,8325,17.3,3.68,,9.66,0.931,77.2,,34.3,5,,,,,,,,,,,,0,0,0,0,0,0,0,0,0,0,0,0,0,0,0,0,,,,,,0.0,,,,,,,
814165,1745640437149,,,,,,,,,,,,,,,,,,,,,,,,,,,,,,,,,,0,0,0,0,0,0,0,0,0,0,0,0,0,0,0,0,,,,,,,,,,,,,
814185,1745640437169,0.0,128,,0.0,-0.03,0.92,-1,-0,0,0.92,1.18,78,8325,17.3,3.68,,9.73,0.987,77.2,,36.1,5,0,0,4,0,0.0,0.0,0.0,0.0,2.28,,,0,0,0,0,0,0,0,0,0,0,0,0,0,0,0,0,,0,,,,0.0,38.990532,-76.939499,0.0,42.5,5,2,4.8
814205,1745640437189,,,,,,,,,,,,,,,,,,,,,,,,,,,,,,,,,,0,0,0,0,0,0,0,0,0,0,0,0,0,0,0,0,,,,,,,,,,,,,
814225,1745640437209,0.0,128,,0.05,-0.12,0.97,0,-1,0,0.97,1.18,82,8622,1.3,1.63,,8.22,1.036,77.2,,36.1,5,,,,,,,,,,,,0,0,0,0,0,0,0,0,0,0,0,0,0,0,0,0,,,,,,0.0,,,,,,,
814245,1745640437229,,,,,,,,,,,,,,,,,,,,,,,,,,,,,,,,,,0,0,0,0,0,0,0,0,0,0,0,0,0,0,0,0,,,,,,,,,,,,,
814265,1745640437249,0.0,128,,0.02,-0.08,0.94,0,-1,0,0.94,1.18,80,8442,0.8,1.4,,7.02,1.01,77.2,,36.1,5,,,,,,,,,,,,0,0,0,0,0,0,0,0,0,0,0,0,0,0,0,0,,,,,,0.0,,,,,,,
814285,1745640437269,,,,,,,,,,,,,,,,,,,,,,,0,0,1,0,0.0,0.0,0.0,0.0,2.27,,,0,0,0,0,0,0,0,0,0,0,0,0,0,0,0,0,,0,,,,,38.990532,-76.939499,0.0,42.5,5,2,4.8
814305,1745640437289,0.0,128,,0.02,-0.1,0.92,-1,-1,0,0.92,1.18,78,7947,0.9,1.4,,7.02,1.01,77.2,,36.4,5,,,,,,,,,,,,0,0,0,0,0,0,0,0,0,0,0,0,0,0,0,0,,,,,,0.0,,,,,,,
814325,1745640437309,,,,,,,,,,,,,,,,,,,,,,,,,,,,,,,,,,0,0,0,0,0,0,0,0,0,0,0,0,0,0,0,0,,,,,,,,,,,,,
814345,1745640437329,0.0,128,,0.02,-0.16,0.95,1,-1,-0,0.96,1.18,82,7430,1.1,1.4,,6.55,0.985,77.2,,36.4,5,,,,,,,,,,,,0,0,0,0,0,0,0,0,0,0,0,0,0,0,0,0,,,,,,0.0,,,,,,,
814365,1745640437349,,,,,,,,,,,,,,,,,,,,,,,,,,,,,,,,,,0,0,0,0,0,0,0,0,0,0,0,0,0,0,0,0,,,,,,,,,,,,,
814385,1745640437369,0.0,128,13.89,-0.02,-0.22,0.95,1,-1,-0,0.98,1.18,83,7430,1.1,1.4,15,6.36,1.183,77.2,99,34.2,5,0,0,2,0,0.0,0.0,0.0,0.0,2.27,0,1.0,0,0,0,0,0,0,0,0,0,0,0,0,0,0,0,0,0,0,0.0,0,-0,0.0,38.990532,-76.939499,0.0,42.5,5,2,4.8
814405,1745640437389,,,,,,,,,,,,,,,,,,,,,,,,,,,,,,,,,,0,0,0,0,0,0,0,0,0,0,0,0,0,0,0,0,,,,,,,,,,,,,
814425,1745640437409,0.0,128,,-0.01,-0.2,0.94,1,-1,-0,0.97,1.18,82,6995,1.4,1.4,,6.52,1.25,77.2,,34.2,5,,,,,,,,,,,,0,0,0,0,0,0,0,0,0,0,0,0,0,0,0,0,,,,,,0.0,,,,,,,
814445,1745640437429,,,,,,,,,,,,,,,,,,,,,,,,,,,,,,,,,,0,0,0,0,0,0,0,0,0,0,0,0,0,0,0,0,,,,,,,,,,,,,
814465,1745640437449,0.0,128,,-0.03,-0.19,0.96,0,-1,0,0.98,1.18,83,6631,11.2,2.37,,7.59,1.249,77.2,,34.2,5,,,,,,,,,,,,0,0,0,0,0,0,0,0,0,0,0,0,0,0,0,0,,,,,,0.0,,,,,,,
814485,1745640437469,,,,,,,,,,,,,,,,,,,,,,,0,0,2,0,0.0,0.0,0.0,0.0,2.27,,,0,0,0,0,0,0,0,0,0,0,0,0,0,0,0,0,,0,,,,,38.990532,-76.939499,0.0,42.5,5,2,4.8
814505,1745640437489,0.0,128,,-0.0,-0.17,0.92,0,-1,-0,0.94,1.18,79,6275,18.0,3.03,,7.59,1.249,77.2,,34.0,5,,,,,,,,,,,,0,0,0,0,0,0,0,0,0,0,0,0,0,0,0,0,,,,,,0.0,,,,,,,
814525,1745640437509,,,,,,,,,,,,,,,,,,,,,,,,,,,,,,,,,,0,0,0,0,0,0,0,0,0,0,0,0,0,0,0,0,,,,,,,,,,,,,
814545,1745640437529,0.0,128,,0.06,-0.16,1.0,0,-1,-0,1.01,1.18,86,6114,18.3,3.23,,9.39,1.249,77.2,,34.0,5,,,,,,,,,,,,0,0,0,0,0,0,0,0,0,0,0,0,0,0,0,0,,,,,,0.0,,,,,,,
814565,1745640437549,,,,,,,,,,,,,,,,,,,,,,,,,,,,,,,,,,0,0,0,0,0,0,0,0,0,0,0,0,0,0,0,0,,,,,,,,,,,,,
814585,1745640437569,0.0,127,,0.09,-0.1,1.12,1,-1,0,1.12,1.18,95,6114,18.3,3.23,,10.8,1.25,77.2,,33.5,5,0,0,2,0,0.0,0.0,0.0,0.0,2.28,,,0,0,0,0,0,0,0,0,0,0,0,0,0,0,0,0,,0,,,,0.0,38.990532,-76.939499,0.0,42.5,5,2,4.8
814605,1745640437589,,,,,,,,,,,,,,,,,,,,,,,,,,,,,,,,,,0,0,0,0,0,0,0,0,0,0,0,0,0,0,0,0,,,,,,,,,,,,,
814625,1745640437609,0.0,128,,0.15,-0.09,1.2,2,-1,-0,1.21,1.21,100,5914,3.9,3.06,,10.49,1.193,77.2,,33.5,5,,,,,,,,,,,,0,0,0,0,0,0,0,0,0,0,0,0,0,0,0,0,,,,,,0.0,,,,,,,
814645,1745640437629,,,,,,,,,,,,,,,,,,,,,,,,,,,,,,,,,,0,0,0,0,0,0,0,0,0,0,0,0,0,0,0,0,,,,,,,,,,,,,
814665,1745640437649,0.0,128,,0.2,-0.12,1.16,2,-1,-0,1.18,1.21,98,5822,0.4,1.4,,9.9,1.121,77.2,,33.5,5,,,,,,,,,,,,0,0,0,0,0,0,0,0,0,0,0,0,0,0,0,0,,,,,,0.0,,,,,,,
814685,1745640437669,,,,,,,,,,,,,,,,,,,,,,,0,0,2,0,0.0,0.0,0.0,0.0,2.28,,,0,0,0,0,0,0,0,0,0,0,0,0,0,0,0,0,,0,,,,,38.990532,-76.939499,0.0,42.5,5,2,4.8
814705,1745640437689,0.0,128,,0.15,-0.08,1.17,2,-1,-0,1.18,1.21,97,5487,0.4,1.42,,9.69,1.07,77.2,,33.1,5,,,,,,,,,,,,0,0,0,0,0,0,0,0,0,0,0,0,0,0,0,0,,,,,,0.0,,,,,,,
814725,1745640437709,,,,,,,,,,,,,,,,,,,,,,,,,,,,,,,,,,0,0,0,0,0,0,0,0,0,0,0,0,0,0,0,0,,,,,,,,,,,,,
814745,1745640437729,0.0,128,,0.13,-0.12,1.1,1,-1,-0,1.12,1.21,92,5487,0.4,1.42,,9.69,1.07,77.2,,33.1,5,,,,,,,,,,,,0,0,0,0,0,0,0,0,0,0,0,0,0,0,0,0,,,,,,0.0,,,,,,,
814765,1745640437749,,,,,,,,,,,,,,,,,,,,,,,,,,,,,,,,,,0,0,0,0,0,0,0,0,0,0,0,0,0,0,0,0,,,,,,,,,,,,,
814785,1745640437769,0.0,127,,0.09,0.01,1.16,1,-1,-0,1.16,1.21,96,5002,0.4,1.69,,9.73,1.045,77.2,,32.1,5,0,0,2,0,0.0,0.0,0.0,0.0,2.27,,,0,0,0,0,0,0,0,0,0,0,0,0,0,0,0,0,,0,,,,0.0,38.990532,-76.939499,0.0,42.5,5,2,4.8
814805,1745640437789,,,,,,,,,,,,,,,,,,,,,,,,,,,,,,,,,,0,0,0,0,0,0,0,0,0,0,0,0,0,0,0,0,,,,,,,,,,,,,
814825,1745640437809,0.0,127,,0.05,0.08,1.2,-0,-1,1,1.2,1.21,99,4699,0.7,1.79,,9.88,1.097,77.2,,32.1,5,,,,,,,,,,,,0,0,0,0,0,0,0,0,0,0,0,0,0,0,0,0,,,,,,0.0,,,,,,,
814845,1745640437829,,,,,,,,,,,,,,,,,,,,,,,,,,,,,,,,,,0,0,0,0,0,0,0,0,0,0,0,0,0,0,0,0,,,,,,,,,,,,,
814865,1745640437849,0.0,128,,0.06,0.14,1.21,0,-1,0,1.22,1.22,100,4295,1.0,1.82,,10.08,1.247,77.2,,32.1,5,,,,,,,,,,,,0,0,0,0,0,0,0,0,0,0,0,0,0,0,0,0,,,,,,0.0,,,,,,,
814885,1745640437869,,,,,,,,,,,,,,,,,,,,,,,0,0,2,0,0.0,0.0,0.0,0.0,2.27,,,0,0,0,0,0,0,0,0,0,0,0,0,0,0,0,0,,0,,,,,38.990532,-76.939499,0.0,42.5,5,2,4.8
814905,1745640437889,0.0,127,,0.05,0.14,1.21,-0,-1,1,1.22,1.22,100,3997,1.0,1.87,,10.32,1.251,77.2,,31.7,5,,,,,,,,,,,,0,0,0,0,0,0,0,0,0,0,0,0,0,0,0,0,,,,,,0.0,,,,,,,
814925,1745640437909,,,,,,,,,,,,,,,,,,,,,,,,,,,,,,,,,,0,0,0,0,0,0,0,0,0,0,0,0,0,0,0,0,,,,,,,,,,,,,
814945,1745640437929,0.0,128,,0.05,0.13,1.12,0,-1,0,1.13,1.22,93,3654,4.4,1.98,,10.32,1.251,77.2,,31.7,5,,,,,,,,,,,,0,0,0,0,0,0,0,0,0,0,0,0,0,0,0,0,,,,,,0.0,,,,,,,
814965,1745640437949,,,,,,,,,,,,,,,,,,,,,,,,,,,,,,,,,,0,0,0,0,0,0,0,0,0,0,0,0,0,0,0,0,,,,,,,,,,,,,
814985,1745640437969,0.0,128,,0.01,0.04,1.17,0,-0,0,1.17,1.22,96,3654,4.4,1.98,,10.89,1.251,77.2,,30.8,5,0,0,2,0,0.0,0.0,0.0,0.0,2.27,,,0,0,0,0,0,0,0,0,0,0,0,0,0,0,0,0,,0,,,,0.0,38.990532,-76.939499,0.0,42.5,5,2,4.8
815005,1745640437989,,,,,,,,,,,,,,,,,,,,,,,,,,,,,,,,,,0,0,0,0,0,0,0,0,0,0,0,0,0,0,0,0,,,,,,,,,,,,,
815025,1745640438009,0.0,128,,-0.0,0.05,1.09,0,-0,0,1.09,1.22,90,3288,15.9,4.08,,12.28,1.249,77.2,,30.8,5,,,,,,,,,,,,0,0,0,0,0,0,0,0,0,0,0,0,0,0,0,0,,,,,,0.0,,,,,,,
815045,1745640438029,,,,,,,,,,,,,,,,,,,,,,,,,,,,,,,,,,0,0,0,0,0,0,0,0,0,0,0,0,0,0,0,0,,,,,,,,,,,,,
815065,1745640438049,0.0,128,,0.0,0.13,1.04,0,-1,0,1.05,1.22,86,3205,18.0,4.4,,13.39,1.249,77.2,,30.8,5,,,,,,,,,,,,0,0,0,0,0,0,0,0,0,0,0,0,0,0,0,0,,,,,,0.0,,,,,,,
815085,1745640438069,,,,,,,,,,,,,,,,,,,,,,,0,0,2,0,0.0,0.0,0.0,0.0,2.28,,,0,0,0,0,0,0,0,0,0,0,0,0,0,0,0,0,,0,,,,,38.990532,-76.939499,0.0,42.5,5,2,4.8
815105,1745640438089,0.0,128,,-0.01,0.1,1.12,-0,-0,0,1.12,1.22,92,3229,8.9,3.93,,13.52,1.25,77.2,,32.2,5,,,,,,,,,,,,0,0,0,0,0,0,0,0,0,0,0,0,0,0,0,0,,,,,,0.0,,,,,,,
815125,1745640438109,,,,,,,,,,,,,,,,,,,,,,,,,,,,,,,,,,0,0,0,0,0,0,0,0,0,0,0,0,0,0,0,0,,,,,,,,,,,,,
815145,1745640438129,0.0,128,,-0.02,0.01,1.04,1,-0,-0,1.04,1.22,85,3303,3.0,3.58,,13.52,1.25,77.2,,32.2,5,,,,,,,,,,,,0,0,0,0,0,0,0,0,0,0,0,0,0,0,0,0,,,,,,0.0,,,,,,,
815165,1745640438149,,,,,,,,,,,,,,,,,,,,,,,,,,,,,,,,,,0,0,0,0,0,0,0,0,0,0,0,0,0,0,0,0,,,,,,,,,,,,,
815185,1745640438169,0.0,127,,0.0,0.12,1.07,-0,-0,1,1.07,1.22,88,3303,3.0,3.58,,13.13,1.25,77.2,,33.7,5,0,0,2,0,0.0,0.0,0.0,0.0,2.28,,,0,0,0,0,0,0,0,0,0,0,0,0,0,0,0,0,,0,,,,0.0,38.990532,-76.939499,0.0,42.5,5,2,4.8
815205,1745640438189,,,,,,,,,,,,,,,,,,,,,,,,,,,,,,,,,,0,0,0,0,0,0,0,0,0,0,0,0,0,0,0,0,,,,,,,,,,,,,
815225,1745640438209,0.0,128,,-0.02,-0.0,1.09,0,-0,0,1.09,1.22,89,3307,2.1,3.12,,12.97,1.248,77.2,,33.7,5,,,,,,,,,,,,0,0,0,0,0,0,0,0,0,0,0,0,0,0,0,0,,,,,,0.0,,,,,,,
815245,1745640438229,,,,,,,,,,,,,,,,,,,,,,,,,,,,,,,,,,0,0,0,0,0,0,0,0,0,0,0,0,0,0,0,0,,,,,,,,,,,,,
815265,1745640438249,0.0,128,,-0.03,0.04,1.0,0,-0,0,1.0,1.22,82,3222,3.9,3.24,,12.96,1.225,77.2,,33.7,5,,,,,,,,,,,,0,0,0,0,0,0,0,0,0,0,0,0,0,0,0,0,,,,,,0.0,,,,,,,
815285,1745640438269,,,,,,,,,,,,,,,,,,,,,,,0,0,2,0,0.0,0.0,0.0,0.0,2.27,,,0,0,0,0,0,0,0,0,0,0,0,0,0,0,0,0,,0,,,,,38.990532,-76.939499,0.0,42.5,5,2,4.8
815305,1745640438289,0.0,128,,-0.02,0.09,0.97,0,-1,0,0.98,1.22,80,3142,6.8,3.71,,13.17,1.167,77.2,,32.5,5,,,,,,,,,,,,0,0,0,0,0,0,0,0,0,0,0,0,0,0,0,0,,,,,,0.0,,,,,,,
815325,1745640438309,,,,,,,,,,,,,,,,,,,,,,,,,,,,,,,,,,0,0,0,0,0,0,0,0,0,0,0,0,0,0,0,0,,,,,,,,,,,,,
815345,1745640438329,0.0,128,,-0.01,0.1,0.95,0,-1,0,0.96,1.22,78,2966,6.1,3.68,,13.17,1.167,77.2,,32.5,5,,,,,,,,,,,,0,0,0,0,0,0,0,0,0,0,0,0,0,0,0,0,,,,,,0.0,,,,,,,
815365,1745640438349,,,,,,,,,,,,,,,,,,,,,,,,,,,,,,,,,,0,0,0,0,0,0,0,0,0,0,0,0,0,0,0,0,,,,,,,,,,,,,
815385,1745640438369,0.0,128,13.92,-0.03,0.08,0.92,0,-1,0,0.93,1.22,76,2966,6.1,3.68,15,13.31,1.143,77.2,99,30.4,5,0,0,2,0,0.0,0.0,0.0,0.0,2.27,0,1.0,0,0,0,0,0,0,0,0,0,0,0,0,0,0,0,0,0,0,0.0,0,-0,0.0,38.990532,-76.939499,0.0,42.5,5,2,4.8
815405,1745640438389,,,,,,,,,,,,,,,,,,,,,,,,,,,,,,,,,,0,0,0,0,0,0,0,0,0,0,0,0,0,0,0,0,,,,,,,,,,,,,
815425,1745640438409,0.0,127,,-0.02,0.08,0.88,0,-1,0,0.89,1.22,73,2948,5.3,3.49,,13.35,1.145,79.0,,30.4,5,,,,,,,,,,,,0,0,0,0,0,0,0,0,0,0,0,0,0,0,0,0,,,,,,0.0,,,,,,,
815445,1745640438429,,,,,,,,,,,,,,,,,,,,,,,,,,,,,,,,,,0,0,0,0,0,0,0,0,0,0,0,0,0,0,0,0,,,,,,,,,,,,,
815465,1745640438449,0.0,128,,-0.02,0.09,0.82,0,-1,-0,0.82,1.22,67,2972,5.3,3.5,,13.35,1.17,79.0,,30.4,5,,,,,,,,,,,,0,0,0,0,0,0,0,0,0,0,0,0,0,0,0,0,,,,,,0.0,,,,,,,
815485,1745640438469,,,,,,,,,,,,,,,,,,,,,,,0,0,2,0,0.0,0.0,0.0,0.0,2.27,,,0,0,0,0,0,0,0,0,0,0,0,0,0,0,0,0,,0,,,,,38.990532,-76.939499,0.0,42.5,5,2,4.8
815505,1745640438489,0.0,128,,-0.03,0.08,0.76,1,-1,-0,0.77,1.22,63,2971,5.5,3.5,,13.37,1.211,79.0,,32.2,5,,,,,,,,,,,,0,0,0,0,0,0,0,0,0,0,0,0,0,0,0,0,,,,,,0.0,,,,,,,
815525,1745640438509,,,,,,,,,,,,,,,,,,,,,,,,,,,,,,,,,,0,0,0,0,0,0,0,0,0,0,0,0,0,0,0,0,,,,,,,,,,,,,
815545,1745640438529,0.0,128,,-0.03,0.1,0.72,0,-1,-0,0.73,1.22,60,3097,5.8,3.64,,13.37,1.211,79.0,,32.2,5,,,,,,,,,,,,0,0,0,0,0,0,0,0,0,0,0,0,0,0,0,0,,,,,,0.0,,,,,,,
815565,1745640438549,,,,,,,,,,,,,,,,,,,,,,,,,,,,,,,,,,0,0,0,0,0,0,0,0,0,0,0,0,0,0,0,0,,,,,,,,,,,,,
815585,1745640438569,0.0,128,,-0.03,0.14,0.72,0,-1,0,0.74,1.22,60,3097,5.8,3.64,,13.36,1.205,79.0,,32.7,5,0,0,2,0,0.0,0.0,0.0,0.0,2.28,,,0,0,0,0,0,0,0,0,0,0,0,0,0,0,0,0,,0,,,,0.0,38.990532,-76.939499,0.0,42.5,5,2,4.8
815605,1745640438589,,,,,,,,,,,,,,,,,,,,,,,,,,,,,,,,,,0,0,0,0,0,0,0,0,0,0,0,0,0,0,0,0,,,,,,,,,,,,,
815625,1745640438609,0.0,128,,-0.03,0.14,0.83,-0,-1,0,0.84,1.22,69,3089,5.5,3.61,,13.39,1.186,79.0,,32.7,5,,,,,,,,,,,,0,0,0,0,0,0,0,0,0,0,0,0,0,0,0,0,,,,,,0.0,,,,,,,
815645,1745640438629,,,,,,,,,,,,,,,,,,,,,,,,,,,,,,,,,,0,0,0,0,0,0,0,0,0,0,0,0,0,0,0,0,,,,,,,,,,,,,
815665,1745640438649,0.0,128,,-0.04,0.03,0.91,-0,-1,0,0.91,1.22,75,3145,5.3,3.65,,13.31,1.143,79.0,,32.7,5,,,,,,,,,,,,0,0,0,0,0,0,0,0,0,0,0,0,0,0,0,0,,,,,,0.0,,,,,,,
815685,1745640438669,,,,,,,,,,,,,,,,,,,,,,,0,0,2,0,0.0,0.0,0.0,0.0,2.28,,,0,0,0,0,0,0,0,0,0,0,0,0,0,0,0,0,,0,,,,,38.990532,-76.939499,0.0,42.5,5,2,4.8
815705,1745640438689,0.0,128,,-0.07,-0.03,0.91,1,-0,-0,0.92,1.22,75,3128,5.2,3.56,,13.35,1.107,79.0,,33.8,5,,,,,,,,,,,,0,0,0,0,0,0,0,0,0,0,0,0,0,0,0,0,,,,,,0.0,,,,,,,
815725,1745640438709,,,,,,,,,,,,,,,,,,,,,,,,,,,,,,,,,,0,0,0,0,0,0,0,0,0,0,0,0,0,0,0,0,,,,,,,,,,,,,
815745,1745640438729,0.0,128,,-0.08,0.01,0.87,1,-0,-1,0.87,1.22,72,3088,5.1,3.58,,13.35,1.107,79.0,,33.8,5,,,,,,,,,,,,0,0,0,0,0,0,0,0,0,0,0,0,0,0,0,0,,,,,,0.0,,,,,,,
815765,1745640438749,,,,,,,,,,,,,,,,,,,,,,,,,,,,,,,,,,0,0,0,0,0,0,0,0,0,0,0,0,0,0,0,0,,,,,,,,,,,,,
815785,1745640438769,0.0,127,,-0.06,0.07,0.8,0,-1,-0,0.81,1.22,66,3088,5.1,3.58,,13.32,1.105,79.0,,33.7,5,0,0,2,0,0.0,0.0,0.0,0.0,2.28,,,0,0,0,0,0,0,0,0,0,0,0,0,0,0,0,0,,0,,,,0.0,38.990532,-76.939499,0.0,42.5,5,2,4.8
815805,1745640438789,,,,,,,,,,,,,,,,,,,,,,,,,,,,,,,,,,0,0,0,0,0,0,0,0,0,0,0,0,0,0,0,0,,,,,,,,,,,,,
815825,1745640438809,0.0,127,,-0.05,0.12,0.81,0,-1,0,0.82,1.22,67,3130,5.1,3.55,,13.33,1.106,79.0,,33.7,5,,,,,,,,,,,,0,0,0,0,0,0,0,0,0,0,0,0,0,0,0,0,,,,,,0.0,,,,,,,
815845,1745640438829,,,,,,,,,,,,,,,,,,,,,,,,,,,,,,,,,,0,0,0,0,0,0,0,0,0,0,0,0,0,0,0,0,,,,,,,,,,,,,
815865,1745640438849,0.0,128,,-0.03,0.09,0.91,-0,-1,0,0.92,1.22,75,3140,5.2,3.57,,13.35,1.131,79.0,,33.7,5,,,,,,,,,,,,0,0,0,0,0,0,0,0,0,0,0,0,0,0,0,0,,,,,,0.0,,,,,,,
815885,1745640438869,,,,,,,,,,,,,,,,,,,,,,,0,0,2,0,0.0,0.0,0.0,0.0,2.27,,,0,0,0,0,0,0,0,0,0,0,0,0,0,0,0,0,,0,,,,,38.990532,-76.939499,0.0,42.5,5,2,4.8
815905,1745640438889,0.0,128,,-0.04,-0.01,0.98,-0,-1,0,0.98,1.22,80,3115,5.4,3.53,,13.33,1.104,79.0,,33.7,5,,,,,,,,,,,,0,0,0,0,0,0,0,0,0,0,0,0,0,0,0,0,,,,,,0.0,,,,,,,
815925,1745640438909,,,,,,,,,,,,,,,,,,,,,,,,,,,,,,,,,,0,0,0,0,0,0,0,0,0,0,0,0,0,0,0,0,,,,,,,,,,,,,
815945,1745640438929,0.0,128,,-0.06,-0.04,0.94,1,-0,-0,0.94,1.22,77,3169,5.5,3.56,,13.33,1.104,79.0,,33.7,5,,,,,,,,,,,,0,0,0,0,0,0,0,0,0,0,0,0,0,0,0,0,,,,,,0.0,,,,,,,
815965,1745640438949,,,,,,,,,,,,,,,,,,,,,,,,,,,,,,,,,,0,0,0,0,0,0,0,0,0,0,0,0,0,0,0,0,,,,,,,,,,,,,
815985,1745640438969,0.0,128,,-0.05,0.04,0.88,1,-1,-0,0.88,1.22,72,3169,5.5,3.56,,13.29,1.095,79.0,,34.1,5,0,0,2,0,0.0,0.0,0.0,0.0,2.27,,,0,0,0,0,0,0,0,0,0,0,0,0,0,0,0,0,,0,,,,0.0,38.990532,-76.939499,0.0,42.5,5,2,4.8
816005,1745640438989,,,,,,,,,,,,,,,,,,,,,,,,,,,,,,,,,,0,0,0,0,0,0,0,0,0,0,0,0,0,0,0,0,,,,,,,,,,,,,
816025,1745640439009,0.0,128,,-0.05,0.05,0.98,-0,-1,0,0.98,1.22,80,3208,5.5,3.55,,13.32,1.085,79.0,,34.1,5,,,,,,,,,,,,0,0,0,0,0,0,0,0,0,0,0,0,0,0,0,0,,,,,,0.0,,,,,,,
816045,1745640439029,,,,,,,,,,,,,,,,,,,,,,,,,,,,,,,,,,0,0,0,0,0,0,0,0,0,0,0,0,0,0,0,0,,,,,,,,,,,,,
816065,1745640439049,0.0,128,,-0.08,-0.05,0.97,0,-0,-0,0.97,1.22,79,3269,5.5,3.62,,13.27,1.066,79.0,,34.1,5,,,,,,,,,,,,0,0,0,0,0,0,0,0,0,0,0,0,0,0,0,0,,,,,,0.0,,,,,,,
816085,1745640439069,,,,,,,,,,,,,,,,,,,,,,,0,0,2,0,0.0,0.0,0.0,0.0,2.27,,,0,0,0,0,0,0,0,0,0,0,0,0,0,0,0,0,,0,,,,,38.990532,-76.939499,0.0,42.5,5,2,4.8
816105,1745640439089,0.0,128,,-0.07,0.03,0.9,1,-0,-0,0.9,1.22,74,3201,5.5,3.61,,13.24,1.047,79.0,,35.3,5,,,,,,,,,,,,0,0,0,0,0,0,0,0,0,0,0,0,0,0,0,0,,,,,,0.0,,,,,,,
816125,1745640439109,,,,,,,,,,,,,,,,,,,,,,,,,,,,,,,,,,0,0,0,0,0,0,0,0,0,0,0,0,0,0,0,0,,,,,,,,,,,,,
816145,1745640439129,0.0,128,,-0.05,0.09,0.95,-0,-1,0,0.96,1.22,79,3166,5.2,3.6,,13.24,1.047,79.0,,35.3,5,,,,,,,,,,,,0,0,0,0,0,0,0,0,0,0,0,0,0,0,0,0,,,,,,0.0,,,,,,,
816165,1745640439149,,,,,,,,,,,,,,,,,,,,,,,,,,,,,,,,,,0,0,0,0,0,0,0,0,0,0,0,0,0,0,0,0,,,,,,,,,,,,,
816185,1745640439169,0.0,128,,-0.03,0.01,1.02,-0,-0,0,1.02,1.22,84,3166,5.2,3.6,,13.25,1.035,79.0,,34.0,5,0,0,2,0,0.0,0.0,0.0,0.0,2.28,,,0,0,0,0,0,0,0,0,0,0,0,0,0,0,0,0,,0,,,,0.0,38.990532,-76.939499,0.0,42.5,5,2,4.8
816205,1745640439189,,,,,,,,,,,,,,,,,,,,,,,,,,,,,,,,,,0,0,0,0,0,0,0,0,0,0,0,0,0,0,0,0,,,,,,,,,,,,,
816225,1745640439209,0.0,128,,-0.03,-0.08,1.07,-0,-0,0,1.07,1.22,88,3079,4.4,3.55,,13.29,1.03,79.0,,34.0,5,,,,,,,,,,,,0,0,0,0,0,0,0,0,0,0,0,0,0,0,0,0,,,,,,0.0,,,,,,,
816245,1745640439229,,,,,,,,,,,,,,,,,,,,,,,,,,,,,,,,,,0,0,0,0,0,0,0,0,0,0,0,0,0,0,0,0,,,,,,,,,,,,,
816265,1745640439249,0.0,128,,-0.05,-0.08,1.02,0,-0,-0,1.03,1.22,84,3152,0.0,2.7,,13.12,1.07,79.0,,34.0,5,,,,,,,,,,,,0,0,0,0,0,0,0,0,0,0,0,0,0,0,0,0,,,,,,0.0,,,,,,,
816285,1745640439269,,,,,,,,,,,,,,,,,,,,,,,0,0,2,0,0.0,0.0,0.0,0.0,2.28,,,0,0,0,0,0,0,0,0,0,0,0,0,0,0,0,0,,0,,,,,38.990532,-76.939499,0.0,42.5,5,2,4.8
816305,1745640439289,0.0,128,,-0.04,-0.01,0.95,0,-0,-0,0.95,1.22,78,3173,0.0,2.68,,12.89,1.096,79.0,,33.8,5,,,,,,,,,,,,0,0,0,0,0,0,0,0,0,0,0,0,0,0,0,0,,,,,,0.0,,,,,,,
816325,1745640439309,,,,,,,,,,,,,,,,,,,,,,,,,,,,,,,,,,0,0,0,0,0,0,0,0,0,0,0,0,0,0,0,0,,,,,,,,,,,,,
816345,1745640439329,0.0,128,,-0.03,0.04,0.94,0,-0,-0,0.94,1.22,77,3112,0.0,2.68,,12.89,1.096,79.0,,33.8,5,,,,,,,,,,,,0,0,0,0,0,0,0,0,0,0,0,0,0,0,0,0,,,,,,0.0,,,,,,,
816365,1745640439349,,,,,,,,,,,,,,,,,,,,,,,,,,,,,,,,,,0,0,0,0,0,0,0,0,0,0,0,0,0,0,0,0,,,,,,,,,,,,,
816385,1745640439369,0.0,127,13.97,-0.03,0.06,0.99,-0,-1,0,0.99,1.22,81,3112,0.0,2.68,15,12.79,1.079,79.0,101,33.0,5,0,0,0,0,0.0,0.0,0.0,0.0,2.27,0,1.0,0,0,0,0,0,0,0,0,0,0,0,0,0,0,0,0,0,0,0.0,0,-0,0.0,38.990532,-76.939499,0.0,42.5,5,2,4.8
816405,1745640439389,,,,,,,,,,,,,,,,,,,,,,,,,,,,,,,,,,0,0,0,0,0,0,0,0,0,0,0,0,0,0,0,0,,,,,,,,,,,,,
816425,1745640439409,0.0,127,,-0.02,0.09,1.04,-0,-1,0,1.04,1.22,85,3054,0.0,2.69,,12.76,1.064,79.0,,33.0,5,,,,,,,,,,,,0,0,0,0,0,0,0,0,0,0,0,0,0,0,0,0,,,,,,0.0,,,,,,,
816445,1745640439429,,,,,,,,,,,,,,,,,,,,,,,,,,,,,,,,,,0,0,0,0,0,0,0,0,0,0,0,0,0,0,0,0,,,,,,,,,,,,,
816465,1745640439449,0.0,128,,-0.02,0.12,1.03,-0,-1,0,1.04,1.22,85,2916,0.0,2.69,,12.8,1.07,79.0,,33.0,5,,,,,,,,,,,,0,0,0,0,0,0,0,0,0,0,0,0,0,0,0,0,,,,,,0.0,,,,,,,
816485,1745640439469,,,,,,,,,,,,,,,,,,,,,,,0,0,0,0,0.0,0.0,0.0,0.0,2.27,,,0,0,0,0,0,0,0,0,0,0,0,0,0,0,0,0,,0,,,,,38.990532,-76.939499,0.0,42.5,5,2,4.8
816505,1745640439489,0.0,128,,-0.01,0.1,1.0,0,-1,0,1.0,1.22,82,2805,0.0,2.76,,12.87,1.072,79.0,,31.0,5,,,,,,,,,,,,0,0,0,0,0,0,0,0,0,0,0,0,0,0,0,0,,,,,,0.0,,,,,,,
816525,1745640439509,,,,,,,,,,,,,,,,,,,,,,,,,,,,,,,,,,0,0,0,0,0,0,0,0,0,0,0,0,0,0,0,0,,,,,,,,,,,,,
816545,1745640439529,0.0,128,,-0.02,0.06,1.01,0,-1,0,1.01,1.22,83,2788,0.0,2.82,,12.87,1.072,79.0,,31.0,5,,,,,,,,,,,,0,0,0,0,0,0,0,0,0,0,0,0,0,0,0,0,,,,,,0.0,,,,,,,
816565,1745640439549,,,,,,,,,,,,,,,,,,,,,,,,,,,,,,,,,,0,0,0,0,0,0,0,0,0,0,0,0,0,0,0,0,,,,,,,,,,,,,
816585,1745640439569,0.0,128,,-0.03,0.07,1.04,-0,-1,0,1.04,1.22,85,2788,0.0,2.82,,12.89,1.08,79.0,,30.4,5,0,0,0,0,0.0,0.0,0.0,0.0,2.27,,,0,0,0,0,0,0,0,0,0,0,0,0,0,0,0,0,,0,,,,0.0,38.990532,-76.939499,0.0,42.5,5,2,4.8
816605,1745640439589,,,,,,,,,,,,,,,,,,,,,,,,,,,,,,,,,,0,0,0,0,0,0,0,0,0,0,0,0,0,0,0,0,,,,,,,,,,,,,
816625,1745640439609,0.0,128,,-0.02,0.1,1.03,-0,-1,0,1.03,1.22,84,2862,0.0,2.82,,12.92,1.11,79.0,,30.4,5,,,,,,,,,,,,0,0,0,0,0,0,0,0,0,0,0,0,0,0,0,0,,,,,,0.0,,,,,,,
816645,1745640439629,,,,,,,,,,,,,,,,,,,,,,,,,,,,,,,,,,0,0,0,0,0,0,0,0,0,0,0,0,0,0,0,0,,,,,,,,,,,,,
816665,1745640439649,0.0,128,,-0.01,0.08,0.99,-0,-1,0,0.99,1.22,81,2889,0.0,2.75,,12.89,1.142,79.0,,30.4,5,,,,,,,,,,,,0,0,0,0,0,0,0,0,0,0,0,0,0,0,0,0,,,,,,0.0,,,,,,,
816685,1745640439669,,,,,,,,,,,,,,,,,,,,,,,0,0,0,0,0.0,0.0,0.0,0.0,2.28,,,0,0,0,0,0,0,0,0,0,0,0,0,0,0,0,0,,0,,,,,38.990532,-76.939499,0.0,42.5,5,2,4.8
816705,1745640439689,0.0,128,,-0.04,0.06,0.98,0,-1,0,0.98,1.22,80,2861,0.0,2.8,,12.91,1.134,79.0,,32.3,5,,,,,,,,,,,,0,0,0,0,0,0,0,0,0,0,0,0,0,0,0,0,,,,,,0.0,,,,,,,
816725,1745640439709,,,,,,,,,,,,,,,,,,,,,,,,,,,,,,,,,,0,0,0,0,0,0,0,0,0,0,0,0,0,0,0,0,,,,,,,,,,,,,
816745,1745640439729,0.0,128,,-0.05,0.03,1.02,0,-1,0,1.02,1.22,84,2796,0.0,2.77,,12.91,1.134,79.0,,32.3,5,,,,,,,,,,,,0,0,0,0,0,0,0,0,0,0,0,0,0,0,0,0,,,,,,0.0,,,,,,,
816765,1745640439749,,,,,,,,,,,,,,,,,,,,,,,,,,,,,,,,,,0,0,0,0,0,0,0,0,0,0,0,0,0,0,0,0,,,,,,,,,,,,,
816785,1745640439769,0.0,127,,-0.06,0.09,1.02,-0,-1,0,1.02,1.22,84,2796,0.0,2.77,,12.91,1.113,79.0,,31.9,5,0,0,0,0,0.0,0.0,0.0,0.0,2.28,,,0,0,0,0,0,0,0,0,0,0,0,0,0,0,0,0,,0,,,,0.0,38.990532,-76.939499,0.0,42.5,5,2,4.8
816805,1745640439789,,,,,,,,,,,,,,,,,,,,,,,,,,,,,,,,,,0,0,0,0,0,0,0,0,0,0,0,0,0,0,0,0,,,,,,,,,,,,,
816825,1745640439809,0.0,127,,-0.06,0.08,1.0,-0,-1,0,1.0,1.22,82,2803,0.0,2.83,,12.93,1.091,79.0,,31.9,5,,,,,,,,,,,,0,0,0,0,0,0,0,0,0,0,0,0,0,0,0,0,,,,,,0.0,,,,,,,
816845,1745640439829,,,,,,,,,,,,,,,,,,,,,,,,,,,,,,,,,,0,0,0,0,0,0,0,0,0,0,0,0,0,0,0,0,,,,,,,,,,,,,
816865,1745640439849,0.0,128,,-0.06,0.03,1.03,0,-0,0,1.03,1.22,84,2696,0.0,2.86,,12.92,1.084,79.0,,31.9,5,,,,,,,,,,,,0,0,0,0,0,0,0,0,0,0,0,0,0,0,0,0,,,,,,0.0,,,,,,,
816885,1745640439869,,,,,,,,,,,,,,,,,,,,,,,0,0,0,0,0.0,0.0,0.0,0.0,2.28,,,0,0,0,0,0,0,0,0,0,0,0,0,0,0,0,0,,0,,,,,38.990532,-76.939499,0.0,42.5,5,2,4.8
816905,1745640439889,0.0,128,,-0.05,0.05,0.99,-0,-0,0,0.99,1.22,81,2651,0.0,2.91,,13.04,1.079,79.0,,30.1,5,,,,,,,,,,,,0,0,0,0,0,0,0,0,0,0,0,0,0,0,0,0,,,,,,0.0,,,,,,,
816925,1745640439909,,,,,,,,,,,,,,,,,,,,,,,,,,,,,,,,,,0,0,0,0,0,0,0,0,0,0,0,0,0,0,0,0,,,,,,,,,,,,,
816945,1745640439929,0.0,128,,-0.05,0.01,1.0,-0,-0,0,1.01,1.22,82,2690,0.0,2.89,,13.04,1.079,79.0,,30.1,5,,,,,,,,,,,,0,0,0,0,0,0,0,0,0,0,0,0,0,0,0,0,,,,,,0.0,,,,,,,
816965,1745640439949,,,,,,,,,,,,,,,,,,,,,,,,,,,,,,,,,,0,0,0,0,0,0,0,0,0,0,0,0,0,0,0,0,,,,,,,,,,,,,
816985,1745640439969,0.0,128,,-0.05,0.03,0.99,-0,-0,0,0.99,1.22,81,2690,0.0,2.89,,13.0,1.085,79.0,,30.4,5,0,0,0,0,0.0,0.0,0.0,0.0,2.27,,,0,0,0,0,0,0,0,0,0,0,0,0,0,0,0,0,,0,,,,0.0,38.990532,-76.939499,0.0,42.5,5,2,4.8
817005,1745640439989,,,,,,,,,,,,,,,,,,,,,,,,,,,,,,,,,,0,0,0,0,0,0,0,0,0,0,0,0,0,0,0,0,,,,,,,,,,,,,
817025,1745640440009,0.0,127,,-0.05,0.01,1.01,-0,-0,0,1.01,1.22,83,2600,0.0,2.91,,13.08,1.116,79.0,,30.4,5,,,,,,,,,,,,0,0,0,0,0,0,0,0,0,0,0,0,0,0,0,0,,,,,,0.0,,,,,,,
817045,1745640440029,,,,,,,,,,,,,,,,,,,,,,,,,,,,,,,,,,0,0,0,0,0,0,0,0,0,0,0,0,0,0,0,0,,,,,,,,,,,,,
817065,1745640440049,0.0,128,,-0.06,0.01,0.99,0,-0,0,1.0,1.22,82,2543,0.0,2.96,,13.19,1.123,79.0,,30.4,5,,,,,,,,,,,,0,0,0,0,0,0,0,0,0,0,0,0,0,0,0,0,,,,,,0.0,,,,,,,
817085,1745640440069,,,,,,,,,,,,,,,,,,,,,,,0,0,0,0,0.0,0.0,0.0,0.0,2.27,,,0,0,0,0,0,0,0,0,0,0,0,0,0,0,0,0,,0,,,,,38.990532,-76.939499,0.0,42.5,5,2,4.8
817105,1745640440089,0.0,128,,-0.06,-0.02,0.97,0,-0,0,0.98,1.22,80,2401,0.0,3.01,,13.28,1.136,79.0,,30.4,5,,,,,,,,,,,,0,0,0,0,0,0,0,0,0,0,0,0,0,0,0,0,,,,,,0.0,,,,,,,
817125,1745640440109,,,,,,,,,,,,,,,,,,,,,,,,,,,,,,,,,,0,0,0,0,0,0,0,0,0,0,0,0,0,0,0,0,,,,,,,,,,,,,
817145,1745640440129,0.0,128,,-0.06,-0.03,0.98,0,-0,-0,0.98,1.22,80,2626,0.0,2.99,,13.28,1.136,79.0,,30.4,5,,,,,,,,,,,,0,0,0,0,0,0,0,0,0,0,0,0,0,0,0,0,,,,,,0.0,,,,,,,
817165,1745640440149,,,,,,,,,,,,,,,,,,,,,,,,,,,,,,,,,,0,0,0,0,0,0,0,0,0,0,0,0,0,0,0,0,,,,,,,,,,,,,
817185,1745640440169,0.0,128,,-0.05,-0.02,0.96,0,-0,0,0.96,1.22,79,2626,0.0,2.99,,13.21,1.171,79.0,,33.9,5,0,0,0,0,0.0,0.0,0.0,0.0,2.27,,,0,0,0,0,0,0,0,0,0,0,0,0,0,0,0,0,,0,,,,0.0,38.990532,-76.939499,0.0,42.5,5,2,4.8
817205,1745640440189,,,,,,,,,,,,,,,,,,,,,,,,,,,,,,,,,,0,0,0,0,0,0,0,0,0,0,0,0,0,0,0,0,,,,,,,,,,,,,
817225,1745640440209,0.0,128,,-0.05,-0.02,0.98,0,-0,0,0.98,1.22,80,2645,0.0,2.94,,13.17,1.203,79.0,,33.9,5,,,,,,,,,,,,0,0,0,0,0,0,0,0,0,0,0,0,0,0,0,0,,,,,,0.0,,,,,,,
817245,1745640440229,,,,,,,,,,,,,,,,,,,,,,,,,,,,,,,,,,0,0,0,0,0,0,0,0,0,0,0,0,0,0,0,0,,,,,,,,,,,,,
817265,1745640440249,0.0,128,,-0.05,-0.01,0.97,0,-0,0,0.97,1.22,80,2607,0.0,2.9,,13.13,1.149,79.0,,33.9,5,,,,,,,,,,,,0,0,0,0,0,0,0,0,0,0,0,0,0,0,0,0,,,,,,0.0,,,,,,,
817285,1745640440269,,,,,,,,,,,,,,,,,,,,,,,0,0,0,0,0.0,0.0,0.0,0.0,2.28,,,0,0,0,0,0,0,0,0,0,0,0,0,0,0,0,0,,0,,,,,38.990532,-76.939499,0.0,42.5,5,2,4.8
817305,1745640440289,0.0,128,,-0.07,-0.01,0.99,0,-0,0,0.99,1.22,81,2642,0.0,2.95,,13.16,1.083,79.0,,34.1,5,,,,,,,,,,,,0,0,0,0,0,0,0,0,0,0,0,0,0,0,0,0,,,,,,0.0,,,,,,,
817325,1745640440309,,,,,,,,,,,,,,,,,,,,,,,,,,,,,,,,,,0,0,0,0,0,0,0,0,0,0,0,0,0,0,0,0,,,,,,,,,,,,,
817345,1745640440329,0.0,128,,-0.06,0.01,0.97,0,-0,0,0.97,1.22,80,2545,0.0,2.91,,13.16,1.083,79.0,,34.1,5,,,,,,,,,,,,0,0,0,0,0,0,0,0,0,0,0,0,0,0,0,0,,,,,,0.0,,,,,,,
817365,1745640440349,,,,,,,,,,,,,,,,,,,,,,,,,,,,,,,,,,0,0,0,0,0,0,0,0,0,0,0,0,0,0,0,0,,,,,,,,,,,,,
817385,1745640440369,0.0,128,13.98,-0.06,0.02,0.99,-0,-0,0,0.99,1.22,81,2545,0.0,2.91,15,13.19,1.053,79.0,101,32.9,5,0,0,0,0,0.0,0.0,0.0,0.0,2.28,0,1.0,0,0,0,0,0,0,0,0,0,0,0,0,0,0,0,0,0,0,0.0,0,-0,0.0,38.990532,-76.939499,0.0,42.5,5,2,4.8
817405,1745640440389,,,,,,,,,,,,,,,,,,,,,,,,,,,,,,,,,,0,0,0,0,0,0,0,0,0,0,0,0,0,0,0,0,,,,,,,,,,,,,
817425,1745640440409,0.0,128,,-0.06,0.05,0.97,-0,-0,0,0.97,1.22,80,2595,0.0,2.98,,13.2,1.053,79.0,,32.9,5,,,,,,,,,,,,0,0,0,0,0,0,0,0,0,0,0,0,0,0,0,0,,,,,,0.0,,,,,,,
817445,1745640440429,,,,,,,,,,,,,,,,,,,,,,,,,,,,,,,,,,0,0,0,0,0,0,0,0,0,0,0,0,0,0,0,0,,,,,,,,,,,,,
817465,1745640440449,0.0,128,,-0.07,0.03,0.98,0,-0,0,0.98,1.22,80,2543,0.0,2.94,,13.24,1.073,79.0,,32.9,5,,,,,,,,,,,,0,0,0,0,0,0,0,0,0,0,0,0,0,0,0,0,,,,,,0.0,,,,,,,
817485,1745640440469,,,,,,,,,,,,,,,,,,,,,,,0,0,0,0,0.0,0.0,0.0,0.0,2.27,,,0,0,0,0,0,0,0,0,0,0,0,0,0,0,0,0,,0,,,,,38.990532,-76.939499,0.0,42.5,5,2,4.8
817505,1745640440489,0.0,128,,-0.05,0.02,1.0,0,-0,0,1.0,1.22,82,2438,0.0,2.99,,13.31,1.086,79.0,,32.2,5,,,,,,,,,,,,0,0,0,0,0,0,0,0,0,0,0,0,0,0,0,0,,,,,,0.0,,,,,,,
817525,1745640440509,,,,,,,,,,,,,,,,,,,,,,,,,,,,,,,,,,0,0,0,0,0,0,0,0,0,0,0,0,0,0,0,0,,,,,,,,,,,,,
817545,1745640440529,0.0,128,,-0.05,-0.01,1.0,0,-0,0,1.0,1.22,82,2376,0.0,3.05,,13.31,1.086,79.0,,32.2,5,,,,,,,,,,,,0,0,0,0,0,0,0,0,0,0,0,0,0,0,0,0,,,,,,0.0,,,,,,,
817565,1745640440549,,,,,,,,,,,,,,,,,,,,,,,,,,,,,,,,,,0,0,0,0,0,0,0,0,0,0,0,0,0,0,0,0,,,,,,,,,,,,,
817585,1745640440569,0.0,128,,-0.05,-0.01,0.99,0,-0,-0,0.99,1.22,81,2376,0.0,3.05,,13.39,1.095,79.0,,30.3,5,0,0,0,0,0.0,0.0,0.0,0.0,2.27,,,0,0,0,0,0,0,0,0,0,0,0,0,0,0,0,0,,0,,,,0.0,38.990532,-76.939499,0.0,42.5,5,2,4.8
817605,1745640440589,,,,,,,,,,,,,,,,,,,,,,,,,,,,,,,,,,0,0,0,0,0,0,0,0,0,0,0,0,0,0,0,0,,,,,,,,,,,,,
817625,1745640440609,0.0,128,,-0.05,0.01,0.99,0,-0,-0,0.99,1.22,81,2293,0.0,3.1,,13.49,1.091,79.0,,30.3,5,,,,,,,,,,,,0,0,0,0,0,0,0,0,0,0,0,0,0,0,0,0,,,,,,0.0,,,,,,,
817645,1745640440629,,,,,,,,,,,,,,,,,,,,,,,,,,,,,,,,,,0,0,0,0,0,0,0,0,0,0,0,0,0,0,0,0,,,,,,,,,,,,,
817665,1745640440649,0.0,128,,-0.04,0.04,0.99,0,-0,0,1.0,1.22,82,2351,0.0,3.14,,13.48,1.096,79.0,,30.3,5,,,,,,,,,,,,0,0,0,0,0,0,0,0,0,0,0,0,0,0,0,0,,,,,,0.0,,,,,,,
817685,1745640440669,,,,,,,,,,,,,,,,,,,,,,,0,0,0,0,0.0,0.0,0.0,0.0,2.27,,,0,0,0,0,0,0,0,0,0,0,0,0,0,0,0,0,,0,,,,,38.990532,-76.939499,0.0,42.5,5,2,4.8
817705,1745640440689,0.0,128,,-0.05,0.04,1.0,0,-0,0,1.0,1.22,82,2450,0.0,3.05,,13.41,1.164,79.0,,33.5,5,,,,,,,,,,,,0,0,0,0,0,0,0,0,0,0,0,0,0,0,0,0,,,,,,0.0,,,,,,,
817725,1745640440709,,,,,,,,,,,,,,,,,,,,,,,,,,,,,,,,,,0,0,0,0,0,0,0,0,0,0,0,0,0,0,0,0,,,,,,,,,,,,,
817745,1745640440729,0.0,128,,-0.05,0.01,1.01,0,-0,-0,1.01,1.22,83,2469,0.0,2.99,,13.41,1.164,79.0,,33.5,5,,,,,,,,,,,,0,0,0,0,0,0,0,0,0,0,0,0,0,0,0,0,,,,,,0.0,,,,,,,
817765,1745640440749,,,,,,,,,,,,,,,,,,,,,,,,,,,,,,,,,,0,0,0,0,0,0,0,0,0,0,0,0,0,0,0,0,,,,,,,,,,,,,
817785,1745640440769,0.0,128,,-0.05,0.04,0.99,0,-0,0,0.99,1.22,81,2469,0.0,2.99,,13.41,1.175,79.0,,33.5,5,0,0,0,0,0.0,0.0,0.0,0.0,2.28,,,0,0,0,0,0,0,0,0,0,0,0,0,0,0,0,0,,0,,,,0.0,38.990532,-76.939499,0.0,42.5,5,2,4.8
817805,1745640440789,,,,,,,,,,,,,,,,,,,,,,,,,,,,,,,,,,0,0,0,0,0,0,0,0,0,0,0,0,0,0,0,0,,,,,,,,,,,,,
817825,1745640440809,0.0,128,,-0.05,0.03,1.0,0,-0,0,1.0,1.22,82,2545,0.0,3.0,,13.35,1.122,79.0,,33.5,5,,,,,,,,,,,,0,0,0,0,0,0,0,0,0,0,0,0,0,0,0,0,,,,,,0.0,,,,,,,
817845,1745640440829,,,,,,,,,,,,,,,,,,,,,,,,,,,,,,,,,,0,0,0,0,0,0,0,0,0,0,0,0,0,0,0,0,,,,,,,,,,,,,
817865,1745640440849,0.0,128,,-0.05,0.01,1.0,0,-0,-0,1.0,1.22,82,2492,0.0,3.0,,13.39,1.078,79.0,,33.5,5,,,,,,,,,,,,0,0,0,0,0,0,0,0,0,0,0,0,0,0,0,0,,,,,,0.0,,,,,,,
817885,1745640440869,,,,,,,,,,,,,,,,,,,,,,,0,0,0,0,0.0,0.0,0.0,0.0,2.28,,,0,0,0,0,0,0,0,0,0,0,0,0,0,0,0,0,,0,,,,,38.990532,-76.939499,0.0,42.5,5,2,4.8
817905,1745640440889,0.0,128,,-0.05,0.02,0.99,0,-0,0,0.99,1.22,81,2541,0.0,3.0,,13.36,1.055,79.0,,33.8,5,,,,,,,,,,,,0,0,0,0,0,0,0,0,0,0,0,0,0,0,0,0,,,,,,0.0,,,,,,,
817925,1745640440909,,,,,,,,,,,,,,,,,,,,,,,,,,,,,,,,,,0,0,0,0,0,0,0,0,0,0,0,0,0,0,0,0,,,,,,,,,,,,,
817945,1745640440929,0.0,128,,-0.04,0.02,1.02,0,-0,0,1.02,1.22,83,2556,0.0,3.0,,13.36,1.055,79.0,,33.8,5,,,,,,,,,,,,0,0,0,0,0,0,0,0,0,0,0,0,0,0,0,0,,,,,,0.0,,,,,,,
817965,1745640440949,,,,,,,,,,,,,,,,,,,,,,,,,,,,,,,,,,0,0,0,0,0,0,0,0,0,0,0,0,0,0,0,0,,,,,,,,,,,,,
817985,1745640440969,0.0,128,,-0.05,0.02,1.01,0,-0,-0,1.01,1.22,83,2556,0.0,3.0,,13.33,1.053,79.0,,33.9,5,0,0,0,0,0.0,0.0,0.0,0.0,2.27,,,0,0,0,0,0,0,0,0,0,0,0,0,0,0,0,0,,0,,,,0.0,38.990532,-76.939499,0.0,42.5,5,2,4.8
818005,1745640440989,,,,,,,,,,,,,,,,,,,,,,,,,,,,,,,,,,0,0,0,0,0,0,0,0,0,0,0,0,0,0,0,0,,,,,,,,,,,,,
818025,1745640441009,0.0,128,,-0.04,0.02,1.0,0,-0,0,1.0,1.22,82,2502,0.0,2.97,,13.32,1.062,79.0,,33.9,5,,,,,,,,,,,,0,0,0,0,0,0,0,0,0,0,0,0,0,0,0,0,,,,,,0.0,,,,,,,
818045,1745640441029,,,,,,,,,,,,,,,,,,,,,,,,,,,,,,,,,,0,0,0,0,0,0,0,0,0,0,0,0,0,0,0,0,,,,,,,,,,,,,
818065,1745640441049,0.0,128,,-0.03,0.01,0.99,0,-0,0,0.99,1.22,81,2403,0.0,3.05,,13.36,1.064,79.0,,33.9,5,,,,,,,,,,,,0,0,0,0,0,0,0,0,0,0,0,0,0,0,0,0,,,,,,0.0,,,,,,,
818085,1745640441069,,,,,,,,,,,,,,,,,,,,,,,0,0,0,0,0.0,0.0,0.0,0.0,2.27,,,0,0,0,0,0,0,0,0,0,0,0,0,0,0,0,0,,0,,,,,38.990532,-76.939499,0.0,42.5,5,2,4.8
818105,1745640441089,0.0,128,,-0.04,-0.01,0.99,0,-0,-0,0.99,1.22,81,2253,0.0,3.13,,13.52,1.072,79.0,,30.9,5,,,,,,,,,,,,0,0,0,0,0,0,0,0,0,0,0,0,0,0,0,0,,,,,,0.0,,,,,,,
818125,1745640441109,,,,,,,,,,,,,,,,,,,,,,,,,,,,,,,,,,0,0,0,0,0,0,0,0,0,0,0,0,0,0,0,0,,,,,,,,,,,,,
818145,1745640441129,0.0,128,,-0.04,-0.02,0.99,0,-0,-0,0.99,1.22,81,2198,0.0,3.17,,13.52,1.072,79.0,,30.9,5,,,,,,,,,,,,0,0,0,0,0,0,0,0,0,0,0,0,0,0,0,0,,,,,,0.0,,,,,,,
818165,1745640441149,,,,,,,,,,,,,,,,,,,,,,,,,,,,,,,,,,0,0,0,0,0,0,0,0,0,0,0,0,0,0,0,0,,,,,,,,,,,,,
