"Interval"|"ms"|0|0|1,"Utc"|"ms"|0|0|1,"FrontBP"|"psi"|-5.0|5.0|25,"SteerAng"|"Degrees"|-145|145|25,"Battery"|"Volts"|-5.0|20.0|1,"AccelX"|"G"|-3.0|3.0|25,"AccelY"|"G"|-3.0|3.0|25,"AccelZ"|"G"|-3.0|3.0|25,"Yaw"|"Deg/Sec"|-120|120|25,"Pitch"|"Deg/Sec"|-120|120|25,"Roll"|"Deg/Sec"|-120|120|25,"Gsum"|"G"|0.0|3.0|25,"GsumMax"|"G"|0.0|3.0|25,"GsumPct"|"%"|0|100|25,"RPM"|""|0|10000|25,"TPS"|"%"|0.0|100.0|25,"InjectorPW"|"ms"|0.0|100.0|25,"Baro"|"kPa"|0|105|1,"MAP"|"Psi"|0.0|255.0|25,"Lambda"|""|-2.0|2.0|25,"IAT"|"C"|0.0|200.0|25,"EngineTemp"|"C"|0|200|1,"EOP"|"PSI"|0.0|152.0|25,"EOT"|"F"|0|250|25,"WSFR"|"MPH"|0|150|10,"WSFL"|"MPH"|0|100|10,"WSRR"|"MPH"|0|100|10,"WSRL"|""|0|100|10,"TCSet"|"%"|0.0|100.0|10,"TCSlip"|"%"|0.0|100.0|10,"TCComp"|"deg"|0.0|50.0|10,"TCCut"|"%"|0.0|100.0|10,"Analog8"|""|0.0|5.0|10,"OilTemp"|"F"|0|300|1,"AA_On"|""|0.0|1.0|1,"ThermLF1"|"C"|0|400|50,"ThermLF2"|"C"|0|400|50,"ThermRR1"|"C"|0|400|50,"ThermRR2"|"C"|0|400|50,"ThermLF3"|"C"|0|400|50,"ThermLF4"|"C"|0|400|50,"ThermLF5"|"C"|0|400|50,"ThermLF6"|"C"|0|400|50,"ThermLF7"|"C"|0|400|50,"ThermLF8"|"C"|0|400|50,"ThermRR3"|"C"|0|400|50,"ThermRR4"|"C"|0|400|50,"ThermRR5"|"C"|0|400|50,"ThermRR6"|"C"|0|400|50,"ThermRR7"|"C"|0|400|50,"ThermRR8"|"C"|0|400|50,"AA_LowDrag"|""|0|1|1,"Gear"|""|1|6|10,"AA_On"|""|0.0|1.0|1,"AA_LowDrag"|""|0|1|1,"Fuel_Mix"|""|-10|10|1,"AA_Packages"|""|0.0|1000.0|25,"Latitude"|"Degrees"|-180.0|180.0|10,"Longitude"|"Degrees"|-180.0|180.0|10,"Speed"|"kph"|0.0|150.0|10,"Altitude"|"m"|0.0|4000.0|10,"GPSSats"|""|0|20|10,"GPSQual"|""|0|5|10,"GPSDOP"|""|0.0|20.0|10
339204,1745647493937,,,,,,,,,,,,,,,,,,,,,,,,,,,,,,,,,,0,0,0,0,0,0,0,0,0,0,0,0,0,0,0,0,,,,,,,,,,,,,
339224,1745647493957,0.0,85,,-0.11,0.14,1.16,-1,-0,1,1.17,1.17,100,4882,4.8,2.52,,10.28,0.986,77.2,,37.1,5,,,,,,,,,,,,0,0,0,0,0,0,0,0,0,0,0,0,0,0,0,0,,,,,,0.0,,,,,,,
339244,1745647493977,,,,,,,,,,,,,,,,,,,,,,,,,,,,,,,,,,0,0,0,0,0,0,0,0,0,0,0,0,0,0,0,0,,,,,,,,,,,,,
339264,1745647493997,0.0,86,,-0.08,0.11,1.11,-0,-0,1,1.12,1.17,96,4781,9.2,2.83,,11.1,1.0,77.2,,36.5,5,,,,,,,,,,,,0,0,0,0,0,0,0,0,0,0,0,0,0,0,0,0,,,,,,0.0,,,,,,,
339284,1745647494010,,,,,,,,,,,,,,,,,,,,,,,0,0,0,0,0.0,0.0,0.0,0.0,2.26,,,0,0,0,0,0,0,0,0,0,0,0,0,0,0,0,0,,0,,,,,38.985802,-76.949882,0.0,53.1,30,3,0.8
339304,1745647494030,0.0,85,,-0.1,0.17,1.16,-1,-0,1,1.18,1.18,100,4760,11.6,3.7,,11.1,1.0,77.2,,36.5,5,,,,,,,,,,,,0,0,0,0,0,0,0,0,0,0,0,0,0,0,0,0,,,,,,0.0,,,,,,,
339324,1745647494050,,,,,,,,,,,,,,,,,,,,,,,,,,,,,,,,,,0,0,0,0,0,0,0,0,0,0,0,0,0,0,0,0,,,,,,,,,,,,,
339344,1745647494070,0.0,86,,-0.11,0.06,1.06,-0,-0,0,1.07,1.18,90,4760,11.6,3.7,,11.81,1.016,77.2,,37.4,5,,,,,,,,,,,,0,0,0,0,0,0,0,0,0,0,0,0,0,0,0,0,,,,,,0.0,,,,,,,
339364,1745647494090,,,,,,,,,,,,,,,,,,,,,,,,,,,,,,,,,,0,0,0,0,0,0,0,0,0,0,0,0,0,0,0,0,,,,,,,,,,,,,
339384,1745647494118,0.0,85,14.17,-0.08,0.13,1.12,-1,-0,1,1.13,1.18,96,4814,12.1,3.78,15,12.24,0.99,77.2,149,37.4,5,0,0,0,0,0.0,0.0,0.0,0.0,2.26,0,1.0,0,0,0,0,0,0,0,0,0,0,0,0,0,0,0,0,0,0,0.0,0,0,0.0,38.985802,-76.949882,0.04,53.1,30,3,0.8
339404,1745647494138,,,,,,,,,,,,,,,,,,,,,,,,,,,,,,,,,,0,0,0,0,0,0,0,0,0,0,0,0,0,0,0,0,,,,,,,,,,,,,
339424,1745647494158,0.0,86,,-0.12,0.05,1.05,-0,-0,0,1.06,1.18,90,4811,12.2,3.79,,12.44,0.931,77.2,,37.4,5,,,,,,,,,,,,0,0,0,0,0,0,0,0,0,0,0,0,0,0,0,0,,,,,,0.0,,,,,,,
339444,1745647494178,,,,,,,,,,,,,,,,,,,,,,,,,,,,,,,,,,0,0,0,0,0,0,0,0,0,0,0,0,0,0,0,0,,,,,,,,,,,,,
339464,1745647494198,0.0,86,,-0.09,0.07,1.06,0,-0,0,1.07,1.18,91,4805,12.3,3.8,,12.56,0.892,77.2,,37.7,5,,,,,,,,,,,,0,0,0,0,0,0,0,0,0,0,0,0,0,0,0,0,,,,,,0.0,,,,,,,
339484,1745647494216,,,,,,,,,,,,,,,,,,,,,,,0,0,0,0,0.0,0.0,0.0,0.0,2.26,,,0,0,0,0,0,0,0,0,0,0,0,0,0,0,0,0,,0,,,,,38.985802,-76.949882,0.04,53.1,30,3,0.8
339504,1745647494236,0.0,86,,-0.13,0.01,1.04,-0,-0,0,1.05,1.18,89,4825,8.1,3.61,,12.56,0.892,77.2,,37.7,5,,,,,,,,,,,,0,0,0,0,0,0,0,0,0,0,0,0,0,0,0,0,,,,,,0.0,,,,,,,
339524,1745647494256,,,,,,,,,,,,,,,,,,,,,,,,,,,,,,,,,,0,0,0,0,0,0,0,0,0,0,0,0,0,0,0,0,,,,,,,,,,,,,
339544,1745647494276,0.0,86,,-0.08,0.04,1.04,0,-0,0,1.04,1.18,88,4825,8.1,3.61,,12.4,0.917,77.2,,38.2,5,,,,,,,,,,,,0,0,0,0,0,0,0,0,0,0,0,0,0,0,0,0,,,,,,0.0,,,,,,,
339564,1745647494296,,,,,,,,,,,,,,,,,,,,,,,,,,,,,,,,,,0,0,0,0,0,0,0,0,0,0,0,0,0,0,0,0,,,,,,,,,,,,,
339584,1745647494318,0.0,85,,-0.11,0.01,1.0,0,-0,0,1.01,1.18,86,4904,4.2,3.74,,12.09,0.957,77.2,,38.2,5,0,0,0,0,0.0,0.0,0.0,0.0,2.26,,,0,0,0,0,0,0,0,0,0,0,0,0,0,0,0,0,,0,,,,0.0,38.985802,-76.949882,0.05,53.1,30,3,0.8
339604,1745647494338,,,,,,,,,,,,,,,,,,,,,,,,,,,,,,,,,,0,0,0,0,0,0,0,0,0,0,0,0,0,0,0,0,,,,,,,,,,,,,
339624,1745647494358,0.0,86,,-0.12,0.02,1.03,-0,-0,0,1.04,1.18,88,5048,3.6,3.6,,11.92,0.934,77.2,,38.2,5,,,,,,,,,,,,0,0,0,0,0,0,0,0,0,0,0,0,0,0,0,0,,,,,,0.0,,,,,,,
339644,1745647494378,,,,,,,,,,,,,,,,,,,,,,,,,,,,,,,,,,0,0,0,0,0,0,0,0,0,0,0,0,0,0,0,0,,,,,,,,,,,,,
339664,1745647494398,0.0,85,,-0.1,0.05,1.03,-0,-0,0,1.04,1.18,88,5117,3.4,3.53,,11.57,0.854,77.2,,40.5,5,,,,,,,,,,,,0,0,0,0,0,0,0,0,0,0,0,0,0,0,0,0,,,,,,0.0,,,,,,,
339684,1745647494418,,,,,,,,,,,,,,,,,,,,,,,0,0,0,0,0.0,0.0,0.0,0.0,2.25,,,0,0,0,0,0,0,0,0,0,0,0,0,0,0,0,0,,0,,,,,38.985802,-76.949882,0.0,53.1,30,3,0.8
339704,1745647494438,0.0,85,,-0.09,0.02,1.02,-0,-0,0,1.03,1.18,87,5154,3.4,3.48,,11.57,0.854,77.2,,40.5,5,,,,,,,,,,,,0,0,0,0,0,0,0,0,0,0,0,0,0,0,0,0,,,,,,0.0,,,,,,,
339724,1745647494458,,,,,,,,,,,,,,,,,,,,,,,,,,,,,,,,,,0,0,0,0,0,0,0,0,0,0,0,0,0,0,0,0,,,,,,,,,,,,,
339744,1745647494478,0.0,85,,-0.09,-0.01,1.01,-0,-0,0,1.01,1.18,86,5154,3.4,3.48,,11.38,0.818,77.2,,41.4,5,,,,,,,,,,,,0,0,0,0,0,0,0,0,0,0,0,0,0,0,0,0,,,,,,0.0,,,,,,,
339764,1745647494498,,,,,,,,,,,,,,,,,,,,,,,,,,,,,,,,,,0,0,0,0,0,0,0,0,0,0,0,0,0,0,0,0,,,,,,,,,,,,,
339784,1745647494518,0.0,85,,-0.1,-0.02,0.99,0,-0,-0,0.99,1.18,84,5172,3.4,3.47,,11.29,0.797,77.2,,41.4,5,0,0,0,0,0.0,0.0,0.0,0.0,2.26,,,0,0,0,0,0,0,0,0,0,0,0,0,0,0,0,0,,0,,,,0.0,38.985802,-76.949882,0.15,53.1,30,3,0.8
339804,1745647494538,,,,,,,,,,,,,,,,,,,,,,,,,,,,,,,,,,0,0,0,0,0,0,0,0,0,0,0,0,0,0,0,0,,,,,,,,,,,,,
339824,1745647494558,0.0,86,,-0.1,-0.02,0.97,-0,-0,-0,0.97,1.18,83,5161,3.2,3.43,,11.21,0.785,77.2,,41.4,5,,,,,,,,,,,,0,0,0,0,0,0,0,0,0,0,0,0,0,0,0,0,,,,,,0.0,,,,,,,
339844,1745647494578,,,,,,,,,,,,,,,,,,,,,,,,,,,,,,,,,,0,0,0,0,0,0,0,0,0,0,0,0,0,0,0,0,,,,,,,,,,,,,
339864,1745647494598,0.0,85,,-0.11,-0.03,0.97,-0,-0,0,0.98,1.18,83,5169,3.1,3.46,,11.21,0.779,77.2,,41.5,5,,,,,,,,,,,,0,0,0,0,0,0,0,0,0,0,0,0,0,0,0,0,,,,,,0.0,,,,,,,
339884,1745647494618,,,,,,,,,,,,,,,,,,,,,,,0,0,0,0,0.0,0.0,0.0,0.0,2.26,,,0,0,0,0,0,0,0,0,0,0,0,0,0,0,0,0,,0,,,,,38.985802,-76.949882,0.0,53.1,30,3,0.8
339904,1745647494638,0.0,85,,-0.12,-0.02,0.99,-0,-0,0,1.0,1.18,85,5161,3.0,3.46,,11.21,0.779,77.2,,41.5,5,,,,,,,,,,,,0,0,0,0,0,0,0,0,0,0,0,0,0,0,0,0,,,,,,0.0,,,,,,,
339924,1745647494658,,,,,,,,,,,,,,,,,,,,,,,,,,,,,,,,,,0,0,0,0,0,0,0,0,0,0,0,0,0,0,0,0,,,,,,,,,,,,,
339944,1745647494678,0.0,85,,-0.11,-0.01,1.01,-1,-0,0,1.02,1.18,86,5161,3.0,3.46,,11.14,0.774,77.2,,41.5,5,,,,,,,,,,,,0,0,0,0,0,0,0,0,0,0,0,0,0,0,0,0,,,,,,0.0,,,,,,,
339964,1745647494698,,,,,,,,,,,,,,,,,,,,,,,,,,,,,,,,,,0,0,0,0,0,0,0,0,0,0,0,0,0,0,0,0,,,,,,,,,,,,,
339984,1745647494716,0.0,85,,-0.1,0.03,1.02,-0,-0,0,1.03,1.18,87,5144,3.0,3.35,,11.21,0.771,77.2,,41.5,5,0,0,0,0,0.0,0.0,0.0,0.0,2.26,,,0,0,0,0,0,0,0,0,0,0,0,0,0,0,0,0,,0,,,,0.0,38.985802,-76.949882,0.06,53.1,30,3,0.8
340004,1745647494736,,,,,,,,,,,,,,,,,,,,,,,,,,,,,,,,,,0,0,0,0,0,0,0,0,0,0,0,0,0,0,0,0,,,,,,,,,,,,,
340024,1745647494756,0.0,86,,-0.09,-0.02,1.01,0,-0,-0,1.01,1.18,86,5087,3.2,3.36,,11.28,0.77,77.2,,41.5,5,,,,,,,,,,,,0,0,0,0,0,0,0,0,0,0,0,0,0,0,0,0,,,,,,0.0,,,,,,,
340044,1745647494776,,,,,,,,,,,,,,,,,,,,,,,,,,,,,,,,,,0,0,0,0,0,0,0,0,0,0,0,0,0,0,0,0,,,,,,,,,,,,,
340064,1745647494796,0.0,86,,-0.11,-0.04,0.98,0,-0,-0,0.98,1.18,83,5057,3.3,3.36,,11.18,0.771,77.2,,40.2,5,,,,,,,,,,,,0,0,0,0,0,0,0,0,0,0,0,0,0,0,0,0,,,,,,0.0,,,,,,,
340084,1745647494818,,,,,,,,,,,,,,,,,,,,,,,0,0,0,0,0.0,0.0,0.0,0.0,2.25,,,0,0,0,0,0,0,0,0,0,0,0,0,0,0,0,0,,0,,,,,38.985802,-76.949882,0.05,53.1,30,3,0.8
340104,1745647494838,0.0,86,,-0.11,0.0,1.01,-0,-0,0,1.01,1.18,86,5039,3.3,3.4,,11.18,0.771,77.2,,40.2,5,,,,,,,,,,,,0,0,0,0,0,0,0,0,0,0,0,0,0,0,0,0,,,,,,0.0,,,,,,,
340124,1745647494858,,,,,,,,,,,,,,,,,,,,,,,,,,,,,,,,,,0,0,0,0,0,0,0,0,0,0,0,0,0,0,0,0,,,,,,,,,,,,,
340144,1745647494878,0.0,86,,-0.08,0.02,1.03,-0,-0,0,1.04,1.18,88,5039,3.3,3.4,,11.17,0.771,77.2,,39.7,5,,,,,,,,,,,,0,0,0,0,0,0,0,0,0,0,0,0,0,0,0,0,,,,,,0.0,,,,,,,
340164,1745647494898,,,,,,,,,,,,,,,,,,,,,,,,,,,,,,,,,,0,0,0,0,0,0,0,0,0,0,0,0,0,0,0,0,,,,,,,,,,,,,
340184,1745647494916,0.0,85,,-0.1,-0.04,0.99,0,-0,-0,0.99,1.18,84,5030,3.3,3.44,,11.22,0.774,77.2,,39.7,5,0,0,0,0,0.0,0.0,0.0,0.0,2.25,,,0,0,0,0,0,0,0,0,0,0,0,0,0,0,0,0,,0,,,,0.0,38.985802,-76.949882,0.05,53.1,30,3,0.8
340204,1745647494936,,,,,,,,,,,,,,,,,,,,,,,,,,,,,,,,,,0,0,0,0,0,0,0,0,0,0,0,0,0,0,0,0,,,,,,,,,,,,,
340224,1745647494956,0.0,85,,-0.11,0.0,1.03,-1,-0,0,1.04,1.18,88,4962,4.0,3.7,,11.37,0.776,77.2,,39.7,5,,,,,,,,,,,,0,0,0,0,0,0,0,0,0,0,0,0,0,0,0,0,,,,,,0.0,,,,,,,
340244,1745647494976,,,,,,,,,,,,,,,,,,,,,,,,,,,,,,,,,,0,0,0,0,0,0,0,0,0,0,0,0,0,0,0,0,,,,,,,,,,,,,
340264,1745647494996,0.0,85,,-0.09,0.01,1.05,0,-0,0,1.06,1.18,90,5015,37.0,5.18,,13.21,0.775,77.2,,38.9,5,,,,,,,,,,,,0,0,0,0,0,0,0,0,0,0,0,0,0,0,0,0,,,,,,0.0,,,,,,,
340284,1745647495009,,,,,,,,,,,,,,,,,,,,,,,0,0,0,0,0.0,0.0,0.0,0.0,2.25,,,0,0,0,0,0,0,0,0,0,0,0,0,0,0,0,0,,0,,,,,38.985802,-76.949882,0.04,53.1,30,3,0.8
340304,1745647495029,0.0,85,,-0.11,-0.04,1.0,-0,-0,0,1.0,1.18,85,5601,57.8,5.77,,13.21,0.775,77.2,,38.9,5,,,,,,,,,,,,0,0,0,0,0,0,0,0,0,0,0,0,0,0,0,0,,,,,,0.0,,,,,,,
340324,1745647495049,,,,,,,,,,,,,,,,,,,,,,,,,,,,,,,,,,0,0,0,0,0,0,0,0,0,0,0,0,0,0,0,0,,,,,,,,,,,,,
340344,1745647495069,0.0,85,,-0.12,-0.14,0.98,-1,-0,1,0.99,1.18,84,5601,57.8,5.77,,14.07,0.774,77.2,,44.0,5,,,,,,,,,,,,0,0,0,0,0,0,0,0,0,0,0,0,0,0,0,0,,,,,,0.0,,,,,,,
340364,1745647495089,,,,,,,,,,,,,,,,,,,,,,,,,,,,,,,,,,0,0,0,0,0,0,0,0,0,0,0,0,0,0,0,0,,,,,,,,,,,,,
340384,1745647495115,0.0,86,14.08,-0.11,-0.03,1.03,-1,-0,1,1.04,1.18,88,6804,59.5,5.19,15,13.91,0.798,77.2,151,44.0,5,0,0,0,0,0.0,0.0,0.0,0.0,2.26,0,1.0,0,0,0,0,0,0,0,0,0,0,0,0,0,0,0,0,0,0,0.0,0,0,0.0,38.985802,-76.949882,0.07,53.1,30,3,0.8
340404,1745647495135,,,,,,,,,,,,,,,,,,,,,,,,,,,,,,,,,,0,0,0,0,0,0,0,0,0,0,0,0,0,0,0,0,,,,,,,,,,,,,
340424,1745647495155,0.0,86,,-0.09,0.03,1.03,-1,-0,1,1.03,1.18,88,7998,48.8,4.71,,13.48,0.875,77.2,,44.0,5,,,,,,,,,,,,0,0,0,0,0,0,0,0,0,0,0,0,0,0,0,0,,,,,,0.0,,,,,,,
340444,1745647495175,,,,,,,,,,,,,,,,,,,,,,,,,,,,,,,,,,0,0,0,0,0,0,0,0,0,0,0,0,0,0,0,0,,,,,,,,,,,,,
340464,1745647495195,0.0,86,,-0.06,0.13,1.02,-1,-0,1,1.03,1.18,87,9430,13.0,4.96,,11.2,0.894,77.2,,47.9,5,,,,,,,,,,,,0,0,0,0,0,0,0,0,0,0,0,0,0,0,0,0,,,,,,0.0,,,,,,,
340484,1745647495215,,,,,,,,,,,,,,,,,,,,,,,0,0,0,0,0.0,0.0,0.0,0.0,2.26,,,0,0,0,0,0,0,0,0,0,0,0,0,0,0,0,0,,0,,,,,38.985802,-76.949882,0.08,53.1,30,3,0.8
340504,1745647495235,0.0,85,,-0.08,0.11,1.01,-0,-0,1,1.02,1.18,86,10351,1.7,1.4,,11.2,0.894,77.2,,47.9,5,,,,,,,,,,,,0,0,0,0,0,0,0,0,0,0,0,0,0,0,0,0,,,,,,0.0,,,,,,,
340524,1745647495255,,,,,,,,,,,,,,,,,,,,,,,,,,,,,,,,,,0,0,0,0,0,0,0,0,0,0,0,0,0,0,0,0,,,,,,,,,,,,,
340544,1745647495275,0.0,85,,-0.07,0.13,1.06,1,-0,0,1.07,1.18,91,10351,1.7,1.4,,8.82,0.827,77.2,,47.1,5,,,,,,,,,,,,0,0,0,0,0,0,0,0,0,0,0,0,0,0,0,0,,,,,,0.0,,,,,,,
340564,1745647495295,,,,,,,,,,,,,,,,,,,,,,,,,,,,,,,,,,0,0,0,0,0,0,0,0,0,0,0,0,0,0,0,0,,,,,,,,,,,,,
340584,1745647495317,0.0,85,,-0.1,0.18,1.02,1,-0,0,1.04,1.18,89,10742,0.1,1.4,,7.12,0.771,77.2,,47.1,5,0,0,0,0,0.0,0.0,0.0,0.0,2.26,,,0,0,0,0,0,0,0,0,0,0,0,0,0,0,0,0,,0,,,,0.0,38.985802,-76.949882,0.05,53.1,30,3,0.8
340604,1745647495337,,,,,,,,,,,,,,,,,,,,,,,,,,,,,,,,,,0,0,0,0,0,0,0,0,0,0,0,0,0,0,0,0,,,,,,,,,,,,,
340624,1745647495357,0.0,86,,-0.11,0.13,1.04,-0,-0,0,1.06,1.18,90,10801,0.1,1.4,,6.24,0.803,77.2,,47.1,5,,,,,,,,,,,,0,0,0,0,0,0,0,0,0,0,0,0,0,0,0,0,,,,,,0.0,,,,,,,
340644,1745647495377,,,,,,,,,,,,,,,,,,,,,,,,,,,,,,,,,,0,0,0,0,0,0,0,0,0,0,0,0,0,0,0,0,,,,,,,,,,,,,
340664,1745647495397,0.0,85,,-0.08,-0.01,1.05,0,-0,-0,1.05,1.18,89,10696,0.1,1.4,,5.58,0.84,77.2,,45.3,5,,,,,,,,,,,,0,0,0,0,0,0,0,0,0,0,0,0,0,0,0,0,,,,,,0.0,,,,,,,
340684,1745647495417,,,,,,,,,,,,,,,,,,,,,,,0,0,0,0,0.0,0.0,0.0,0.0,2.25,,,0,0,0,0,0,0,0,0,0,0,0,0,0,0,0,0,,0,,,,,38.985802,-76.949882,0.0,53.1,30,3,0.8
340704,1745647495437,0.0,85,,-0.08,-0.12,1.09,1,0,0,1.1,1.18,94,10477,0.1,1.4,,5.58,0.84,77.2,,45.3,5,,,,,,,,,,,,0,0,0,0,0,0,0,0,0,0,0,0,0,0,0,0,,,,,,0.0,,,,,,,
340724,1745647495457,,,,,,,,,,,,,,,,,,,,,,,,,,,,,,,,,,0,0,0,0,0,0,0,0,0,0,0,0,0,0,0,0,,,,,,,,,,,,,
340744,1745647495477,0.0,85,,-0.08,-0.19,1.1,2,0,0,1.12,1.18,95,10477,0.1,1.4,,5.4,0.819,77.2,,43.7,5,,,,,,,,,,,,0,0,0,0,0,0,0,0,0,0,0,0,0,0,0,0,,,,,,0.0,,,,,,,
340764,1745647495497,,,,,,,,,,,,,,,,,,,,,,,,,,,,,,,,,,0,0,0,0,0,0,0,0,0,0,0,0,0,0,0,0,,,,,,,,,,,,,
340784,1745647495517,0.0,85,,-0.09,-0.12,1.03,1,-0,0,1.04,1.18,88,10199,0.1,1.4,,5.18,0.796,77.2,,43.7,5,0,0,0,0,0.0,0.0,0.0,0.0,2.25,,,0,0,0,0,0,0,0,0,0,0,0,0,0,0,0,0,,0,,,,0.0,38.985802,-76.949882,0.0,53.1,30,3,0.8
340804,1745647495537,,,,,,,,,,,,,,,,,,,,,,,,,,,,,,,,,,0,0,0,0,0,0,0,0,0,0,0,0,0,0,0,0,,,,,,,,,,,,,
340824,1745647495557,0.0,86,,-0.08,-0.18,0.98,2,-0,0,0.99,1.18,84,9927,0.1,1.4,,4.8,0.797,77.2,,43.7,5,,,,,,,,,,,,0,0,0,0,0,0,0,0,0,0,0,0,0,0,0,0,,,,,,0.0,,,,,,,
340844,1745647495577,,,,,,,,,,,,,,,,,,,,,,,,,,,,,,,,,,0,0,0,0,0,0,0,0,0,0,0,0,0,0,0,0,,,,,,,,,,,,,
340864,1745647495597,0.0,85,,-0.06,-0.08,0.97,1,-0,0,0.97,1.18,83,9654,0.1,1.4,,4.89,0.83,77.2,,43.9,5,,,,,,,,,,,,0,0,0,0,0,0,0,0,0,0,0,0,0,0,0,0,,,,,,0.0,,,,,,,
340884,1745647495617,,,,,,,,,,,,,,,,,,,,,,,0,0,0,0,0.0,0.0,0.0,0.0,2.26,,,0,0,0,0,0,0,0,0,0,0,0,0,0,0,0,0,,0,,,,,38.985802,-76.949882,0.0,53.1,30,3,0.8
340904,1745647495637,0.0,85,,-0.06,-0.17,0.99,1,-0,0,1.01,1.18,86,9414,0.0,1.4,,4.89,0.83,77.2,,43.9,5,,,,,,,,,,,,0,0,0,0,0,0,0,0,0,0,0,0,0,0,0,0,,,,,,0.0,,,,,,,
340924,1745647495657,,,,,,,,,,,,,,,,,,,,,,,,,,,,,,,,,,0,0,0,0,0,0,0,0,0,0,0,0,0,0,0,0,,,,,,,,,,,,,
340944,1745647495677,0.0,85,,-0.1,-0.04,0.95,1,-0,0,0.95,1.18,81,9414,0.0,1.4,,4.77,0.857,77.2,,42.5,5,,,,,,,,,,,,0,0,0,0,0,0,0,0,0,0,0,0,0,0,0,0,,,,,,0.0,,,,,,,
340964,1745647495697,,,,,,,,,,,,,,,,,,,,,,,,,,,,,,,,,,0,0,0,0,0,0,0,0,0,0,0,0,0,0,0,0,,,,,,,,,,,,,
340984,1745647495717,0.0,85,,-0.11,-0.1,0.91,1,-0,-0,0.92,1.18,78,9196,0.0,1.4,,4.85,0.857,77.2,,42.5,5,0,0,0,0,0.0,0.0,0.0,0.0,2.26,,,0,0,0,0,0,0,0,0,0,0,0,0,0,0,0,0,,0,,,,0.0,38.985802,-76.949882,0.04,53.1,30,3,0.8
341004,1745647495737,,,,,,,,,,,,,,,,,,,,,,,,,,,,,,,,,,0,0,0,0,0,0,0,0,0,0,0,0,0,0,0,0,,,,,,,,,,,,,
341024,1745647495757,0.0,85,,-0.12,-0.14,0.89,0,-1,-0,0.91,1.18,77,8948,0.0,1.4,,4.91,0.858,77.2,,42.5,5,,,,,,,,,,,,0,0,0,0,0,0,0,0,0,0,0,0,0,0,0,0,,,,,,0.0,,,,,,,
341044,1745647495777,,,,,,,,,,,,,,,,,,,,,,,,,,,,,,,,,,0,0,0,0,0,0,0,0,0,0,0,0,0,0,0,0,,,,,,,,,,,,,
341064,1745647495797,0.0,86,,-0.16,-0.03,0.84,-0,-1,-0,0.86,1.18,73,8748,0.0,1.4,,5.07,0.849,77.2,,40.9,5,,,,,,,,,,,,0,0,0,0,0,0,0,0,0,0,0,0,0,0,0,0,,,,,,0.0,,,,,,,
341084,1745647495817,,,,,,,,,,,,,,,,,,,,,,,0,0,0,0,0.0,0.0,0.0,0.0,2.26,,,0,0,0,0,0,0,0,0,0,0,0,0,0,0,0,0,,0,,,,,38.985802,-76.949882,0.04,53.1,30,3,0.8
341104,1745647495837,0.0,85,,-0.13,-0.12,0.87,1,-1,-0,0.89,1.18,75,8508,0.0,1.4,,5.07,0.849,77.2,,40.9,5,,,,,,,,,,,,0,0,0,0,0,0,0,0,0,0,0,0,0,0,0,0,,,,,,0.0,,,,,,,
341124,1745647495857,,,,,,,,,,,,,,,,,,,,,,,,,,,,,,,,,,0,0,0,0,0,0,0,0,0,0,0,0,0,0,0,0,,,,,,,,,,,,,
341144,1745647495877,0.0,85,,-0.11,-0.07,0.89,1,-1,0,0.9,1.18,76,8508,0.0,1.4,,5.06,0.845,77.2,,40.2,5,,,,,,,,,,,,0,0,0,0,0,0,0,0,0,0,0,0,0,0,0,0,,,,,,0.0,,,,,,,
341164,1745647495897,,,,,,,,,,,,,,,,,,,,,,,,,,,,,,,,,,0,0,0,0,0,0,0,0,0,0,0,0,0,0,0,0,,,,,,,,,,,,,
341184,1745647495919,0.0,85,,-0.1,-0.04,0.92,-0,-0,0,0.93,1.18,79,8279,0.0,1.4,,5.19,0.858,75.4,,40.2,5,0,0,41,0,0.0,0.0,0.0,0.0,2.25,,,0,0,0,0,0,0,0,0,0,0,0,0,0,0,0,0,,0,,,,0.0,38.985802,-76.949882,0.0,53.1,30,3,0.8
341204,1745647495939,,,,,,,,,,,,,,,,,,,,,,,,,,,,,,,,,,0,0,0,0,0,0,0,0,0,0,0,0,0,0,0,0,,,,,,,,,,,,,
341224,1745647495959,0.0,85,,-0.08,-0.04,0.92,-1,-0,0,0.92,1.18,78,8045,0.0,1.4,,5.39,0.88,75.4,,40.2,5,,,,,,,,,,,,0,0,0,0,0,0,0,0,0,0,0,0,0,0,0,0,,,,,,0.0,,,,,,,
341244,1745647495979,,,,,,,,,,,,,,,,,,,,,,,,,,,,,,,,,,0,0,0,0,0,0,0,0,0,0,0,0,0,0,0,0,,,,,,,,,,,,,
341264,1745647495999,0.0,85,,-0.07,-0.08,0.96,-0,-0,0,0.96,1.18,82,7843,0.0,1.4,,5.5,0.91,75.4,,40.6,5,,,,,,,,,,,,0,0,0,0,0,0,0,0,0,0,0,0,0,0,0,0,,,,,,0.0,,,,,,,
341284,1745647496010,,,,,,,,,,,,,,,,,,,,,,,0,0,10,0,0.0,0.0,0.0,0.0,2.25,,,0,0,0,0,0,0,0,0,0,0,0,0,0,0,0,0,,0,,,,,38.985802,-76.949882,0.08,53.1,31,3,0.8
341304,1745647496030,0.0,85,,-0.04,0.08,0.98,-1,-0,1,0.99,1.18,84,7559,0.0,1.4,,5.5,0.91,75.4,,40.6,5,,,,,,,,,,,,0,0,0,0,0,0,0,0,0,0,0,0,0,0,0,0,,,,,,0.0,,,,,,,
341324,1745647496050,,,,,,,,,,,,,,,,,,,,,,,,,,,,,,,,,,0,0,0,0,0,0,0,0,0,0,0,0,0,0,0,0,,,,,,,,,,,,,
341344,1745647496070,0.0,86,,-0.04,0.09,1.05,-1,-0,1,1.05,1.18,89,7559,0.0,1.4,,5.64,0.936,75.4,,40.7,5,,,,,,,,,,,,0,0,0,0,0,0,0,0,0,0,0,0,0,0,0,0,,,,,,0.0,,,,,,,
341364,1745647496090,,,,,,,,,,,,,,,,,,,,,,,,,,,,,,,,,,0,0,0,0,0,0,0,0,0,0,0,0,0,0,0,0,,,,,,,,,,,,,
341384,1745647496118,0.0,85,14.09,-0.04,0.01,0.99,1,-0,0,0.99,1.18,84,7252,0.0,1.4,15,5.87,0.968,75.4,151,40.7,5,0,0,10,0,0.0,0.0,0.0,0.0,2.26,0,1.0,0,0,0,0,0,0,0,0,0,0,0,0,0,0,0,0,0,0,0.0,0,0,0.0,38.985802,-76.949882,0.04,53.1,31,3,0.8
341404,1745647496138,,,,,,,,,,,,,,,,,,,,,,,,,,,,,,,,,,0,0,0,0,0,0,0,0,0,0,0,0,0,0,0,0,,,,,,,,,,,,,
341424,1745647496158,0.0,86,,-0.04,0.03,1.0,0,-0,1,1.0,1.18,85,6898,0.0,1.4,,6.15,1.0,75.4,,40.7,5,,,,,,,,,,,,0,0,0,0,0,0,0,0,0,0,0,0,0,0,0,0,,,,,,0.0,,,,,,,
341444,1745647496178,,,,,,,,,,,,,,,,,,,,,,,,,,,,,,,,,,0,0,0,0,0,0,0,0,0,0,0,0,0,0,0,0,,,,,,,,,,,,,
341464,1745647496198,0.0,85,,-0.08,0.08,1.0,-0,-0,1,1.0,1.18,85,6536,0.0,1.4,,6.59,1.076,75.4,,39.6,5,,,,,,,,,,,,0,0,0,0,0,0,0,0,0,0,0,0,0,0,0,0,,,,,,0.0,,,,,,,
341484,1745647496212,,,,,,,,,,,,,,,,,,,,,,,0,0,10,0,0.0,0.0,0.0,0.0,2.26,,,0,0,0,0,0,0,0,0,0,0,0,0,0,0,0,0,,0,,,,,38.985802,-76.949882,0.0,53.1,31,3,0.8
341504,1745647496232,0.0,85,,-0.08,0.0,0.89,0,-0,0,0.9,1.18,76,6536,0.0,1.4,,6.59,1.076,75.4,,39.6,5,,,,,,,,,,,,0,0,0,0,0,0,0,0,0,0,0,0,0,0,0,0,,,,,,0.0,,,,,,,
341524,1745647496252,,,,,,,,,,,,,,,,,,,,,,,,,,,,,,,,,,0,0,0,0,0,0,0,0,0,0,0,0,0,0,0,0,,,,,,,,,,,,,
341544,1745647496272,0.0,85,,-0.07,-0.1,0.79,1,-1,-0,0.8,1.18,68,6089,0.0,1.4,,6.92,1.164,75.4,,38.9,5,,,,,,,,,,,,0,0,0,0,0,0,0,0,0,0,0,0,0,0,0,0,,,,,,0.0,,,,,,,
341564,1745647496292,,,,,,,,,,,,,,,,,,,,,,,,,,,,,,,,,,0,0,0,0,0,0,0,0,0,0,0,0,0,0,0,0,,,,,,,,,,,,,
341584,1745647496318,0.0,85,,-0.09,-0.09,0.82,1,-1,-0,0.83,1.18,71,5768,0.0,1.4,,7.5,1.248,75.4,,38.9,5,0,0,10,0,0.0,0.0,0.0,0.0,2.26,,,0,0,0,0,0,0,0,0,0,0,0,0,0,0,0,0,,0,,,,0.0,38.985802,-76.949882,0.04,53.1,31,3,0.8
341604,1745647496338,,,,,,,,,,,,,,,,,,,,,,,,,,,,,,,,,,0,0,0,0,0,0,0,0,0,0,0,0,0,0,0,0,,,,,,,,,,,,,
341624,1745647496358,0.0,86,,-0.08,-0.06,0.85,1,-0,-0,0.86,1.18,73,5364,0.0,1.4,,8.06,1.251,75.4,,38.9,5,,,,,,,,,,,,0,0,0,0,0,0,0,0,0,0,0,0,0,0,0,0,,,,,,0.0,,,,,,,
341644,1745647496378,,,,,,,,,,,,,,,,,,,,,,,,,,,,,,,,,,0,0,0,0,0,0,0,0,0,0,0,0,0,0,0,0,,,,,,,,,,,,,
341664,1745647496398,0.0,86,,-0.08,-0.12,0.84,1,-1,-0,0.85,1.18,72,5024,17.4,2.62,,10.01,1.251,75.4,,39.2,5,,,,,,,,,,,,0,0,0,0,0,0,0,0,0,0,0,0,0,0,0,0,,,,,,0.0,,,,,,,
341684,1745647496418,,,,,,,,,,,,,,,,,,,,,,,0,0,10,0,0.0,0.0,0.0,0.0,2.26,,,0,0,0,0,0,0,0,0,0,0,0,0,0,0,0,0,,0,,,,,38.985802,-76.949882,0.04,53.1,31,3,0.8
341704,1745647496438,0.0,85,,-0.08,-0.01,0.93,0,-0,0,0.93,1.18,79,4790,25.8,4.49,,10.01,1.251,75.4,,39.2,5,,,,,,,,,,,,0,0,0,0,0,0,0,0,0,0,0,0,0,0,0,0,,,,,,0.0,,,,,,,
341724,1745647496458,,,,,,,,,,,,,,,,,,,,,,,,,,,,,,,,,,0,0,0,0,0,0,0,0,0,0,0,0,0,0,0,0,,,,,,,,,,,,,
341744,1745647496478,0.0,86,,-0.1,-0.07,0.88,1,-0,-0,0.89,1.18,75,4790,25.8,4.49,,12.24,1.25,75.4,,37.3,5,,,,,,,,,,,,0,0,0,0,0,0,0,0,0,0,0,0,0,0,0,0,,,,,,0.0,,,,,,,
341764,1745647496498,,,,,,,,,,,,,,,,,,,,,,,,,,,,,,,,,,0,0,0,0,0,0,0,0,0,0,0,0,0,0,0,0,,,,,,,,,,,,,
341784,1745647496518,0.0,86,,-0.11,-0.09,0.89,1,-0,-0,0.91,1.18,77,4954,26.4,4.57,,13.21,1.25,75.4,,37.3,5,0,0,10,0,0.0,0.0,0.0,0.0,2.25,,,0,0,0,0,0,0,0,0,0,0,0,0,0,0,0,0,,0,,,,0.0,38.985802,-76.949882,0.19,53.1,31,3,0.8
341804,1745647496538,,,,,,,,,,,,,,,,,,,,,,,,,,,,,,,,,,0,0,0,0,0,0,0,0,0,0,0,0,0,0,0,0,,,,,,,,,,,,,
341824,1745647496558,0.0,85,,-0.07,-0.03,0.96,0,-0,0,0.96,1.18,81,5372,26.4,4.67,,13.31,1.196,75.4,,37.3,5,,,,,,,,,,,,0,0,0,0,0,0,0,0,0,0,0,0,0,0,0,0,,,,,,0.0,,,,,,,
341844,1745647496578,,,,,,,,,,,,,,,,,,,,,,,,,,,,,,,,,,0,0,0,0,0,0,0,0,0,0,0,0,0,0,0,0,,,,,,,,,,,,,
341864,1745647496598,0.0,86,,-0.09,-0.14,0.82,1,-1,-0,0.84,1.18,71,5755,11.3,4.2,,12.65,1.029,75.4,,43.7,5,,,,,,,,,,,,0,0,0,0,0,0,0,0,0,0,0,0,0,0,0,0,,,,,,0.0,,,,,,,
341884,1745647496616,,,,,,,,,,,,,,,,,,,,,,,0,0,10,0,0.0,0.0,0.0,0.0,2.26,,,0,0,0,0,0,0,0,0,0,0,0,0,0,0,0,0,,0,,,,,38.985802,-76.949882,0.15,53.1,31,3,0.8
341904,1745647496636,0.0,85,,-0.13,-0.26,0.72,2,-1,-1,0.78,1.18,66,6068,2.7,3.64,,12.65,1.029,75.4,,43.7,5,,,,,,,,,,,,0,0,0,0,0,0,0,0,0,0,0,0,0,0,0,0,,,,,,0.0,,,,,,,
341924,1745647496656,,,,,,,,,,,,,,,,,,,,,,,,,,,,,,,,,,0,0,0,0,0,0,0,0,0,0,0,0,0,0,0,0,,,,,,,,,,,,,
341944,1745647496676,0.0,86,,-0.1,-0.19,0.79,1,-1,-1,0.82,1.18,70,6068,2.7,3.64,,11.29,0.976,75.4,,44.6,5,,,,,,,,,,,,0,0,0,0,0,0,0,0,0,0,0,0,0,0,0,0,,,,,,0.0,,,,,,,
341964,1745647496696,,,,,,,,,,,,,,,,,,,,,,,,,,,,,,,,,,0,0,0,0,0,0,0,0,0,0,0,0,0,0,0,0,,,,,,,,,,,,,
341984,1745647496718,0.0,86,,-0.11,-0.12,0.89,0,-0,-0,0.91,1.18,77,6333,0.0,1.4,,10.16,0.986,75.4,,44.6,5,0,0,10,0,0.0,0.0,0.0,0.0,2.26,,,0,0,0,0,0,0,0,0,0,0,0,0,0,0,0,0,,0,,,,0.0,38.985802,-76.949882,0.07,53.1,31,3,0.8
342004,1745647496738,,,,,,,,,,,,,,,,,,,,,,,,,,,,,,,,,,0,0,0,0,0,0,0,0,0,0,0,0,0,0,0,0,,,,,,,,,,,,,
342024,1745647496758,0.0,85,,-0.12,-0.02,0.96,-1,-0,0,0.97,1.18,82,6027,0.0,1.4,,9.72,0.968,75.4,,44.6,5,,,,,,,,,,,,0,0,0,0,0,0,0,0,0,0,0,0,0,0,0,0,,,,,,0.0,,,,,,,
342044,1745647496778,,,,,,,,,,,,,,,,,,,,,,,,,,,,,,,,,,0,0,0,0,0,0,0,0,0,0,0,0,0,0,0,0,,,,,,,,,,,,,
342064,1745647496798,0.0,86,,-0.05,0.01,1.02,-1,-0,0,1.02,1.18,87,5633,0.0,1.4,,9.72,0.968,75.4,,41.5,5,,,,,,,,,,,,0,0,0,0,0,0,0,0,0,0,0,0,0,0,0,0,,,,,,0.0,,,,,,,
342084,1745647496818,,,,,,,,,,,,,,,,,,,,,,,0,0,10,0,0.0,0.0,0.0,0.0,2.26,,,0,0,0,0,0,0,0,0,0,0,0,0,0,0,0,0,,0,,,,,38.985802,-76.949882,0.05,53.1,31,3,0.8
342104,1745647496838,0.0,85,,-0.06,0.01,1.01,-1,-0,0,1.01,1.18,86,5311,0.0,1.4,,9.52,0.955,75.4,,41.5,5,,,,,,,,,,,,0,0,0,0,0,0,0,0,0,0,0,0,0,0,0,0,,,,,,0.0,,,,,,,
342124,1745647496858,,,,,,,,,,,,,,,,,,,,,,,,,,,,,,,,,,0,0,0,0,0,0,0,0,0,0,0,0,0,0,0,0,,,,,,,,,,,,,
342144,1745647496878,0.0,85,,-0.07,-0.05,0.97,-0,-0,0,0.97,1.18,83,5311,0.0,1.4,,9.5,1.047,75.4,,38.2,5,,,,,,,,,,,,0,0,0,0,0,0,0,0,0,0,0,0,0,0,0,0,,,,,,0.0,,,,,,,
342164,1745647496898,,,,,,,,,,,,,,,,,,,,,,,,,,,,,,,,,,0,0,0,0,0,0,0,0,0,0,0,0,0,0,0,0,,,,,,,,,,,,,
342184,1745647496918,0.0,85,,-0.08,0.05,1.04,-1,-0,0,1.04,1.18,89,4972,0.0,1.6,,9.7,1.169,77.2,,38.2,5,0,0,10,0,0.0,0.0,0.0,0.0,2.26,,,0,0,0,0,0,0,0,0,0,0,0,0,0,0,0,0,,0,,,,0.0,38.985802,-76.949882,0.08,53.1,31,3,0.8
342204,1745647496938,,,,,,,,,,,,,,,,,,,,,,,,,,,,,,,,,,0,0,0,0,0,0,0,0,0,0,0,0,0,0,0,0,,,,,,,,,,,,,
342224,1745647496958,0.0,85,,-0.11,0.13,1.11,-2,-0,1,1.13,1.18,96,4631,0.0,1.69,,9.85,1.249,77.2,,38.2,5,,,,,,,,,,,,0,0,0,0,0,0,0,0,0,0,0,0,0,0,0,0,,,,,,0.0,,,,,,,
342244,1745647496978,,,,,,,,,,,,,,,,,,,,,,,,,,,,,,,,,,0,0,0,0,0,0,0,0,0,0,0,0,0,0,0,0,,,,,,,,,,,,,
342264,1745647496998,0.0,86,,-0.1,0.21,1.19,-2,-0,1,1.21,1.21,100,4282,0.0,1.74,,10.02,1.25,77.2,,36.3,5,,,,,,,,,,,,0,0,0,0,0,0,0,0,0,0,0,0,0,0,0,0,,,,,,0.0,,,,,,,
342284,1745647497009,,,,,,,,,,,,,,,,,,,,,,,0,0,10,0,0.0,0.0,0.0,0.0,2.26,,,0,0,0,0,0,0,0,0,0,0,0,0,0,0,0,0,,0,,,,,38.985802,-76.949882,0.05,53.1,31,3,0.8
342304,1745647497029,0.0,86,,-0.1,0.13,1.11,-2,-0,1,1.13,1.21,93,3997,0.0,1.79,,10.02,1.25,77.2,,36.3,5,,,,,,,,,,,,0,0,0,0,0,0,0,0,0,0,0,0,0,0,0,0,,,,,,0.0,,,,,,,
342324,1745647497049,,,,,,,,,,,,,,,,,,,,,,,,,,,,,,,,,,0,0,0,0,0,0,0,0,0,0,0,0,0,0,0,0,,,,,,,,,,,,,
342344,1745647497069,0.0,86,,-0.1,0.1,1.11,-1,-0,1,1.12,1.21,92,3997,0.0,1.79,,10.24,1.251,77.2,,37.1,5,,,,,,,,,,,,0,0,0,0,0,0,0,0,0,0,0,0,0,0,0,0,,,,,,0.0,,,,,,,
342364,1745647497089,,,,,,,,,,,,,,,,,,,,,,,,,,,,,,,,,,0,0,0,0,0,0,0,0,0,0,0,0,0,0,0,0,,,,,,,,,,,,,
342384,1745647497115,0.0,86,14.06,-0.09,0.15,1.12,-2,-0,1,1.13,1.21,93,3702,27.0,4.52,15,12.37,1.25,77.2,151,37.1,5,0,0,10,0,0.0,0.0,0.0,0.0,2.25,0,1.0,0,0,0,0,0,0,0,0,0,0,0,0,0,0,0,0,0,0,0.0,0,0,0.0,38.985802,-76.949882,0.04,53.1,31,3,0.8
342404,1745647497135,,,,,,,,,,,,,,,,,,,,,,,,,,,,,,,,,,0,0,0,0,0,0,0,0,0,0,0,0,0,0,0,0,,,,,,,,,,,,,
342424,1745647497155,0.0,86,,-0.09,0.11,1.11,-1,-0,1,1.12,1.21,92,3515,44.9,4.92,,14.27,1.248,77.2,,37.1,5,,,,,,,,,,,,0,0,0,0,0,0,0,0,0,0,0,0,0,0,0,0,,,,,,0.0,,,,,,,
342444,1745647497175,,,,,,,,,,,,,,,,,,,,,,,,,,,,,,,,,,0,0,0,0,0,0,0,0,0,0,0,0,0,0,0,0,,,,,,,,,,,,,
342464,1745647497195,0.0,86,,-0.1,0.03,1.05,-1,-0,1,1.05,1.21,87,3907,48.5,5.78,,14.23,1.248,77.2,,38.7,5,,,,,,,,,,,,0,0,0,0,0,0,0,0,0,0,0,0,0,0,0,0,,,,,,0.0,,,,,,,
342484,1745647497217,,,,,,,,,,,,,,,,,,,,,,,0,0,10,0,0.0,0.0,0.0,0.0,2.26,,,0,0,0,0,0,0,0,0,0,0,0,0,0,0,0,0,,0,,,,,38.985802,-76.949882,0.2,53.1,31,3,0.8
342504,1745647497237,0.0,85,,-0.06,0.11,1.19,-1,-0,1,1.2,1.21,99,4486,48.6,5.37,,14.23,1.248,77.2,,38.7,5,,,,,,,,,,,,0,0,0,0,0,0,0,0,0,0,0,0,0,0,0,0,,,,,,0.0,,,,,,,
342524,1745647497257,,,,,,,,,,,,,,,,,,,,,,,,,,,,,,,,,,0,0,0,0,0,0,0,0,0,0,0,0,0,0,0,0,,,,,,,,,,,,,
342544,1745647497277,0.0,86,,-0.08,0.05,1.12,-1,-0,1,1.13,1.21,93,4486,48.6,5.37,,14.24,1.248,77.2,,43.6,5,,,,,,,,,,,,0,0,0,0,0,0,0,0,0,0,0,0,0,0,0,0,,,,,,0.0,,,,,,,
342564,1745647497297,,,,,,,,,,,,,,,,,,,,,,,,,,,,,,,,,,0,0,0,0,0,0,0,0,0,0,0,0,0,0,0,0,,,,,,,,,,,,,
342584,1745647497317,0.0,86,,-0.08,0.08,1.18,-2,0,1,1.19,1.21,98,5178,21.7,4.96,,13.72,1.198,77.2,,43.6,5,0,0,10,0,0.0,0.0,0.0,0.0,2.26,,,0,0,0,0,0,0,0,0,0,0,0,0,0,0,0,0,,0,,,,0.0,38.985802,-76.949882,0.16,53.1,31,3,0.8
342604,1745647497337,,,,,,,,,,,,,,,,,,,,,,,,,,,,,,,,,,0,0,0,0,0,0,0,0,0,0,0,0,0,0,0,0,,,,,,,,,,,,,
342624,1745647497357,0.0,86,,-0.06,0.04,1.08,-1,-0,1,1.08,1.21,89,5657,2.1,3.91,,12.25,1.001,77.2,,43.6,5,,,,,,,,,,,,0,0,0,0,0,0,0,0,0,0,0,0,0,0,0,0,,,,,,0.0,,,,,,,
342644,1745647497377,,,,,,,,,,,,,,,,,,,,,,,,,,,,,,,,,,0,0,0,0,0,0,0,0,0,0,0,0,0,0,0,0,,,,,,,,,,,,,
342664,1745647497397,0.0,86,,-0.08,-0.01,1.03,-1,-0,1,1.03,1.21,85,5806,0.0,1.68,,11.18,0.929,77.2,,44.1,5,,,,,,,,,,,,0,0,0,0,0,0,0,0,0,0,0,0,0,0,0,0,,,,,,0.0,,,,,,,
342684,1745647497417,,,,,,,,,,,,,,,,,,,,,,,0,0,10,0,0.0,0.0,0.0,0.0,2.26,,,0,0,0,0,0,0,0,0,0,0,0,0,0,0,0,0,,0,,,,,38.985802,-76.949882,0.05,53.0,31,3,0.8
342704,1745647497437,0.0,86,,-0.08,0.05,1.12,-2,-0,1,1.12,1.21,93,5776,0.0,1.4,,11.18,0.929,77.2,,44.1,5,,,,,,,,,,,,0,0,0,0,0,0,0,0,0,0,0,0,0,0,0,0,,,,,,0.0,,,,,,,
342724,1745647497457,,,,,,,,,,,,,,,,,,,,,,,,,,,,,,,,,,0,0,0,0,0,0,0,0,0,0,0,0,0,0,0,0,,,,,,,,,,,,,
342744,1745647497477,0.0,86,,-0.04,0.05,1.1,-2,-0,1,1.1,1.21,90,5776,0.0,1.4,,10.57,0.976,77.2,,42.5,5,,,,,,,,,,,,0,0,0,0,0,0,0,0,0,0,0,0,0,0,0,0,,,,,,0.0,,,,,,,
342764,1745647497497,,,,,,,,,,,,,,,,,,,,,,,,,,,,,,,,,,0,0,0,0,0,0,0,0,0,0,0,0,0,0,0,0,,,,,,,,,,,,,
342784,1745647497517,0.0,85,,-0.05,0.07,1.11,-2,-0,1,1.11,1.21,91,5555,8.1,2.93,,10.8,0.969,77.2,,42.5,5,0,0,10,0,0.0,0.0,0.0,0.0,2.25,,,0,0,0,0,0,0,0,0,0,0,0,0,0,0,0,0,,0,,,,0.0,38.985802,-76.949882,0.16,53.0,31,3,0.8
342804,1745647497537,,,,,,,,,,,,,,,,,,,,,,,,,,,,,,,,,,0,0,0,0,0,0,0,0,0,0,0,0,0,0,0,0,,,,,,,,,,,,,
342824,1745647497557,0.0,85,,-0.07,0.03,1.08,-2,-0,1,1.08,1.21,89,5440,20.0,4.18,,12.09,1.026,77.2,,42.5,5,,,,,,,,,,,,0,0,0,0,0,0,0,0,0,0,0,0,0,0,0,0,,,,,,0.0,,,,,,,
342844,1745647497577,,,,,,,,,,,,,,,,,,,,,,,,,,,,,,,,,,0,0,0,0,0,0,0,0,0,0,0,0,0,0,0,0,,,,,,,,,,,,,
342864,1745647497597,0.0,86,,-0.07,0.01,1.03,-1,-0,1,1.04,1.21,85,5473,46.6,5.14,,13.79,1.134,77.2,,39.9,5,,,,,,,,,,,,0,0,0,0,0,0,0,0,0,0,0,0,0,0,0,0,,,,,,0.0,,,,,,,
342884,1745647497617,,,,,,,,,,,,,,,,,,,,,,,0,0,10,0,0.0,0.0,0.0,0.0,2.25,,,0,0,0,0,0,0,0,0,0,0,0,0,0,0,0,0,,0,,,,,38.985802,-76.949882,0.23,53.0,31,3,0.8
342904,1745647497637,0.0,86,,-0.11,-0.05,0.99,-1,-0,1,1.0,1.21,82,5930,54.8,5.79,,13.79,1.134,77.2,,39.9,5,,,,,,,,,,,,0,0,0,0,0,0,0,0,0,0,0,0,0,0,0,0,,,,,,0.0,,,,,,,
342924,1745647497657,,,,,,,,,,,,,,,,,,,,,,,,,,,,,,,,,,0,0,0,0,0,0,0,0,0,0,0,0,0,0,0,0,,,,,,,,,,,,,
342944,1745647497677,0.0,86,,-0.1,-0.06,1.0,-1,-0,1,1.01,1.21,83,5930,54.8,5.79,,14.0,1.109,77.2,,45.1,5,,,,,,,,,,,,0,0,0,0,0,0,0,0,0,0,0,0,0,0,0,0,,,,,,0.0,,,,,,,
342964,1745647497697,,,,,,,,,,,,,,,,,,,,,,,,,,,,,,,,,,0,0,0,0,0,0,0,0,0,0,0,0,0,0,0,0,,,,,,,,,,,,,
342984,1745647497717,0.0,86,,-0.13,-0.16,1.0,1,-0,0,1.02,1.21,84,7019,54.2,5.3,,13.72,1.118,77.2,,45.1,5,0,0,10,0,0.0,0.0,0.0,0.0,2.26,,,0,0,0,0,0,0,0,0,0,0,0,0,0,0,0,0,,0,,,,0.0,38.985802,-76.949882,0.08,53.0,31,3,0.8
343004,1745647497737,,,,,,,,,,,,,,,,,,,,,,,,,,,,,,,,,,0,0,0,0,0,0,0,0,0,0,0,0,0,0,0,0,,,,,,,,,,,,,
343024,1745647497757,0.0,86,,-0.13,-0.06,1.0,1,-0,0,1.01,1.21,83,8143,16.2,5.36,,12.03,1.025,77.2,,45.1,5,,,,,,,,,,,,0,0,0,0,0,0,0,0,0,0,0,0,0,0,0,0,,,,,,0.0,,,,,,,
343044,1745647497777,,,,,,,,,,,,,,,,,,,,,,,,,,,,,,,,,,0,0,0,0,0,0,0,0,0,0,0,0,0,0,0,0,,,,,,,,,,,,,
343064,1745647497797,0.0,86,,-0.14,-0.05,0.96,2,-0,-0,0.97,1.21,80,9305,0.0,1.4,,9.34,0.912,77.2,,47.3,5,,,,,,,,,,,,0,0,0,0,0,0,0,0,0,0,0,0,0,0,0,0,,,,,,0.0,,,,,,,
343084,1745647497817,,,,,,,,,,,,,,,,,,,,,,,0,0,10,0,0.0,0.0,0.0,0.0,2.26,,,0,0,0,0,0,0,0,0,0,0,0,0,0,0,0,0,,0,,,,,38.985802,-76.949882,0.04,53.0,31,3,0.8
343104,1745647497837,0.0,86,,-0.12,-0.13,0.97,2,-0,-0,0.99,1.21,81,9541,0.0,1.4,,9.34,0.912,77.2,,47.3,5,,,,,,,,,,,,0,0,0,0,0,0,0,0,0,0,0,0,0,0,0,0,,,,,,0.0,,,,,,,
343124,1745647497857,,,,,,,,,,,,,,,,,,,,,,,,,,,,,,,,,,0,0,0,0,0,0,0,0,0,0,0,0,0,0,0,0,,,,,,,,,,,,,
343144,1745647497877,0.0,86,,-0.12,-0.05,0.94,2,-0,-0,0.95,1.21,78,9541,0.0,1.4,,7.7,0.803,77.2,,45.4,5,,,,,,,,,,,,0,0,0,0,0,0,0,0,0,0,0,0,0,0,0,0,,,,,,0.0,,,,,,,
343164,1745647497897,,,,,,,,,,,,,,,,,,,,,,,,,,,,,,,,,,0,0,0,0,0,0,0,0,0,0,0,0,0,0,0,0,,,,,,,,,,,,,
343184,1745647497917,0.0,85,,-0.12,-0.08,0.97,2,-0,-0,0.99,1.21,81,9373,0.0,1.4,,6.74,0.873,77.2,,45.4,5,0,0,10,0,0.0,0.0,0.0,0.0,2.26,,,0,0,0,0,0,0,0,0,0,0,0,0,0,0,0,0,,0,,,,0.0,38.985802,-76.949882,0.11,53.0,31,3,0.8
343204,1745647497937,,,,,,,,,,,,,,,,,,,,,,,,,,,,,,,,,,0,0,0,0,0,0,0,0,0,0,0,0,0,0,0,0,,,,,,,,,,,,,
343224,1745647497957,0.0,86,,-0.14,-0.02,0.96,1,-0,-0,0.97,1.21,80,9367,0.0,1.4,,6.14,1.114,77.2,,45.4,5,,,,,,,,,,,,0,0,0,0,0,0,0,0,0,0,0,0,0,0,0,0,,,,,,0.0,,,,,,,
343244,1745647497977,,,,,,,,,,,,,,,,,,,,,,,,,,,,,,,,,,0,0,0,0,0,0,0,0,0,0,0,0,0,0,0,0,,,,,,,,,,,,,
343264,1745647497997,0.0,86,,-0.11,-0.12,1.0,1,-0,-0,1.01,1.21,83,9324,0.0,1.4,,5.75,1.101,77.2,,44.3,5,,,,,,,,,,,,0,0,0,0,0,0,0,0,0,0,0,0,0,0,0,0,,,,,,0.0,,,,,,,
343284,1745647498010,,,,,,,,,,,,,,,,,,,,,,,0,0,10,0,0.0,0.0,0.0,0.0,2.26,,,0,0,0,0,0,0,0,0,0,0,0,0,0,0,0,0,,0,,,,,38.985802,-76.949882,0.05,53.0,31,3,0.8
343304,1745647498030,0.0,86,,-0.1,0.06,1.0,1,-0,0,1.0,1.21,83,9219,0.0,1.4,,5.75,1.101,77.2,,44.3,5,,,,,,,,,,,,0,0,0,0,0,0,0,0,0,0,0,0,0,0,0,0,,,,,,0.0,,,,,,,
343324,1745647498050,,,,,,,,,,,,,,,,,,,,,,,,,,,,,,,,,,0,0,0,0,0,0,0,0,0,0,0,0,0,0,0,0,,,,,,,,,,,,,
343344,1745647498070,0.0,86,,-0.1,0.07,0.96,0,-0,0,0.97,1.21,80,9219,0.0,1.4,,5.5,1.008,77.2,,43.3,5,,,,,,,,,,,,0,0,0,0,0,0,0,0,0,0,0,0,0,0,0,0,,,,,,0.0,,,,,,,
343364,1745647498090,,,,,,,,,,,,,,,,,,,,,,,,,,,,,,,,,,0,0,0,0,0,0,0,0,0,0,0,0,0,0,0,0,,,,,,,,,,,,,
343384,1745647498114,0.0,85,14.11,-0.09,0.02,0.96,-1,-0,0,0.97,1.21,80,9078,0.0,1.4,15,5.42,0.972,77.2,151,43.3,5,0,0,10,0,0.0,0.0,0.0,0.0,2.26,0,1.0,0,0,0,0,0,0,0,0,0,0,0,0,0,0,0,0,0,0,0.0,0,0,0.0,38.985802,-76.949882,0.05,53.0,31,3,0.8
343404,1745647498134,,,,,,,,,,,,,,,,,,,,,,,,,,,,,,,,,,0,0,0,0,0,0,0,0,0,0,0,0,0,0,0,0,,,,,,,,,,,,,
343424,1745647498154,0.0,85,,-0.1,0.0,0.95,-2,-0,1,0.95,1.21,79,8923,0.0,1.4,,5.23,0.961,77.2,,43.3,5,,,,,,,,,,,,0,0,0,0,0,0,0,0,0,0,0,0,0,0,0,0,,,,,,0.0,,,,,,,
343444,1745647498174,,,,,,,,,,,,,,,,,,,,,,,,,,,,,,,,,,0,0,0,0,0,0,0,0,0,0,0,0,0,0,0,0,,,,,,,,,,,,,
343464,1745647498194,0.0,86,,-0.11,0.09,0.95,-1,-0,1,0.96,1.21,79,8744,0.0,1.4,,5.26,0.957,77.2,,41.3,5,,,,,,,,,,,,0,0,0,0,0,0,0,0,0,0,0,0,0,0,0,0,,,,,,0.0,,,,,,,
343484,1745647498218,,,,,,,,,,,,,,,,,,,,,,,0,0,10,0,0.0,0.0,0.0,0.0,2.26,,,0,0,0,0,0,0,0,0,0,0,0,0,0,0,0,0,,0,,,,,38.985802,-76.949882,0.05,53.0,31,3,0.8
343504,1745647498238,0.0,86,,-0.07,0.04,0.97,-2,-0,1,0.97,1.21,80,8744,0.0,1.4,,5.26,0.957,77.2,,41.3,5,,,,,,,,,,,,0,0,0,0,0,0,0,0,0,0,0,0,0,0,0,0,,,,,,0.0,,,,,,,
343524,1745647498258,,,,,,,,,,,,,,,,,,,,,,,,,,,,,,,,,,0,0,0,0,0,0,0,0,0,0,0,0,0,0,0,0,,,,,,,,,,,,,
343544,1745647498278,0.0,85,,-0.11,0.0,0.94,-1,-0,0,0.95,1.21,78,8505,0.0,1.4,,5.23,0.964,77.2,,40.3,5,,,,,,,,,,,,0,0,0,0,0,0,0,0,0,0,0,0,0,0,0,0,,,,,,0.0,,,,,,,
343564,1745647498298,,,,,,,,,,,,,,,,,,,,,,,,,,,,,,,,,,0,0,0,0,0,0,0,0,0,0,0,0,0,0,0,0,,,,,,,,,,,,,
343584,1745647498316,0.0,85,,-0.1,0.03,0.95,-0,-0,0,0.95,1.21,78,8301,0.0,1.4,,5.26,0.99,77.2,,40.3,5,0,0,40,0,0.0,0.0,0.0,0.0,2.26,,,0,0,0,0,0,0,0,0,0,0,0,0,0,0,0,0,,0,,,,0.0,38.985802,-76.949882,0.04,53.0,31,3,0.8
343604,1745647498336,,,,,,,,,,,,,,,,,,,,,,,,,,,,,,,,,,0,0,0,0,0,0,0,0,0,0,0,0,0,0,0,0,,,,,,,,,,,,,
343624,1745647498356,0.0,85,,-0.09,0.14,0.95,-0,-0,0,0.96,1.21,79,8050,0.0,1.4,,5.42,1.004,77.2,,40.3,5,,,,,,,,,,,,0,0,0,0,0,0,0,0,0,0,0,0,0,0,0,0,,,,,,0.0,,,,,,,
343644,1745647498376,,,,,,,,,,,,,,,,,,,,,,,,,,,,,,,,,,0,0,0,0,0,0,0,0,0,0,0,0,0,0,0,0,,,,,,,,,,,,,
343664,1745647498396,0.0,85,,-0.12,0.05,0.95,0,-0,-0,0.96,1.21,79,7780,0.0,1.4,,5.58,1.016,77.2,,40.1,5,,,,,,,,,,,,0,0,0,0,0,0,0,0,0,0,0,0,0,0,0,0,,,,,,0.0,,,,,,,
343684,1745647498418,,,,,,,,,,,,,,,,,,,,,,,0,0,42,0,0.0,0.0,0.0,0.0,2.26,,,0,0,0,0,0,0,0,0,0,0,0,0,0,0,0,0,,0,,,,,38.985802,-76.949882,0.0,53.0,31,3,0.8
343704,1745647498438,0.0,85,,-0.12,-0.04,1.0,2,-0,-0,1.01,1.21,83,7510,0.0,1.4,,5.58,1.016,77.2,,40.1,5,,,,,,,,,,,,0,0,0,0,0,0,0,0,0,0,0,0,0,0,0,0,,,,,,0.0,,,,,,,
343724,1745647498458,,,,,,,,,,,,,,,,,,,,,,,,,,,,,,,,,,0,0,0,0,0,0,0,0,0,0,0,0,0,0,0,0,,,,,,,,,,,,,
343744,1745647498478,0.0,85,,-0.11,-0.15,0.96,2,-1,-1,0.98,1.21,81,7510,0.0,1.4,,5.67,1.026,77.2,,40.2,5,,,,,,,,,,,,0,0,0,0,0,0,0,0,0,0,0,0,0,0,0,0,,,,,,0.0,,,,,,,
343764,1745647498498,,,,,,,,,,,,,,,,,,,,,,,,,,,,,,,,,,0,0,0,0,0,0,0,0,0,0,0,0,0,0,0,0,,,,,,,,,,,,,
343784,1745647498516,0.0,85,,-0.09,-0.07,1.0,1,-0,-0,1.0,1.21,83,7148,0.0,1.4,,5.87,1.033,77.2,,40.2,5,0,0,42,0,0.0,0.0,0.0,0.0,2.26,,,0,0,0,0,0,0,0,0,0,0,0,0,0,0,0,0,,0,,,,0.0,38.985802,-76.949882,0.08,53.0,31,3,0.8
343804,1745647498536,,,,,,,,,,,,,,,,,,,,,,,,,,,,,,,,,,0,0,0,0,0,0,0,0,0,0,0,0,0,0,0,0,,,,,,,,,,,,,
343824,1745647498556,0.0,85,,-0.11,-0.13,1.02,2,-0,-1,1.04,1.21,86,6761,0.0,1.4,,6.24,1.064,77.2,,40.2,5,,,,,,,,,,,,0,0,0,0,0,0,0,0,0,0,0,0,0,0,0,0,,,,,,0.0,,,,,,,
343844,1745647498576,,,,,,,,,,,,,,,,,,,,,,,,,,,,,,,,,,0,0,0,0,0,0,0,0,0,0,0,0,0,0,0,0,,,,,,,,,,,,,
343864,1745647498596,0.0,86,,-0.16,-0.04,0.97,1,-0,-0,0.98,1.21,81,6395,0.0,1.4,,6.56,1.149,77.2,,39.8,5,,,,,,,,,,,,0,0,0,0,0,0,0,0,0,0,0,0,0,0,0,0,,,,,,0.0,,,,,,,
343884,1745647498618,,,,,,,,,,,,,,,,,,,,,,,0,0,42,0,0.0,0.0,0.0,0.0,2.25,,,0,0,0,0,0,0,0,0,0,0,0,0,0,0,0,0,,0,,,,,38.985802,-76.949882,0.08,53.0,31,3,0.8
343904,1745647498638,0.0,86,,-0.18,-0.11,0.85,1,-0,-0,0.88,1.21,72,6020,0.0,1.4,,6.56,1.149,77.2,,39.8,5,,,,,,,,,,,,0,0,0,0,0,0,0,0,0,0,0,0,0,0,0,0,,,,,,0.0,,,,,,,
343924,1745647498658,,,,,,,,,,,,,,,,,,,,,,,,,,,,,,,,,,0,0,0,0,0,0,0,0,0,0,0,0,0,0,0,0,,,,,,,,,,,,,
343944,1745647498678,0.0,86,,-0.22,-0.11,0.8,0,-0,-0,0.83,1.21,69,6020,0.0,1.4,,6.99,1.25,77.2,,38.9,5,,,,,,,,,,,,0,0,0,0,0,0,0,0,0,0,0,0,0,0,0,0,,,,,,0.0,,,,,,,
343964,1745647498698,,,,,,,,,,,,,,,,,,,,,,,,,,,,,,,,,,0,0,0,0,0,0,0,0,0,0,0,0,0,0,0,0,,,,,,,,,,,,,
343984,1745647498718,0.0,85,,-0.19,-0.12,0.85,0,-0,-0,0.88,1.21,72,5631,0.0,1.4,,7.53,1.25,77.2,,38.9,5,0,0,42,0,0.0,0.0,0.0,0.0,2.26,,,0,0,0,0,0,0,0,0,0,0,0,0,0,0,0,0,,0,,,,0.0,38.985802,-76.949882,0.04,53.0,31,3,0.8
344004,1745647498738,,,,,,,,,,,,,,,,,,,,,,,,,,,,,,,,,,0,0,0,0,0,0,0,0,0,0,0,0,0,0,0,0,,,,,,,,,,,,,
344024,1745647498758,0.0,85,,-0.2,-0.12,0.88,0,-0,-0,0.91,1.21,75,5221,0.0,1.4,,7.91,1.249,77.2,,38.9,5,,,,,,,,,,,,0,0,0,0,0,0,0,0,0,0,0,0,0,0,0,0,,,,,,0.0,,,,,,,
344044,1745647498778,,,,,,,,,,,,,,,,,,,,,,,,,,,,,,,,,,0,0,0,0,0,0,0,0,0,0,0,0,0,0,0,0,,,,,,,,,,,,,
344064,1745647498798,0.0,86,,-0.14,-0.1,0.93,1,-0,-0,0.94,1.21,78,4870,0.0,1.42,,7.91,1.249,77.2,,38.0,5,,,,,,,,,,,,0,0,0,0,0,0,0,0,0,0,0,0,0,0,0,0,,,,,,0.0,,,,,,,
344084,1745647498818,,,,,,,,,,,,,,,,,,,,,,,0,0,42,0,0.0,0.0,0.0,0.0,2.26,,,0,0,0,0,0,0,0,0,0,0,0,0,0,0,0,0,,0,,,,,38.985802,-76.949882,0.08,53.0,31,3,0.8
344104,1745647498838,0.0,86,,-0.15,0.06,1.03,0,-0,0,1.04,1.21,86,4491,0.0,1.5,,8.33,1.248,77.2,,38.0,5,,,,,,,,,,,,0,0,0,0,0,0,0,0,0,0,0,0,0,0,0,0,,,,,,0.0,,,,,,,
344124,1745647498858,,,,,,,,,,,,,,,,,,,,,,,,,,,,,,,,,,0,0,0,0,0,0,0,0,0,0,0,0,0,0,0,0,,,,,,,,,,,,,
344144,1745647498878,0.0,86,,-0.12,0.13,1.08,0,-0,0,1.09,1.21,90,4491,0.0,1.5,,8.69,1.248,77.2,,36.2,5,,,,,,,,,,,,0,0,0,0,0,0,0,0,0,0,0,0,0,0,0,0,,,,,,0.0,,,,,,,
344164,1745647498898,,,,,,,,,,,,,,,,,,,,,,,,,,,,,,,,,,0,0,0,0,0,0,0,0,0,0,0,0,0,0,0,0,,,,,,,,,,,,,
344184,1745647498918,0.0,86,,-0.13,0.09,1.04,0,-0,0,1.05,1.21,87,4180,0.0,1.56,,9.05,1.248,77.2,,36.2,5,0,0,42,0,0.0,0.0,0.0,0.0,2.26,,,0,0,0,0,0,0,0,0,0,0,0,0,0,0,0,0,,0,,,,0.0,38.985802,-76.949882,0.0,53.0,31,3,0.8
344204,1745647498938,,,,,,,,,,,,,,,,,,,,,,,,,,,,,,,,,,0,0,0,0,0,0,0,0,0,0,0,0,0,0,0,0,,,,,,,,,,,,,
344224,1745647498958,0.0,86,,-0.11,0.12,1.04,0,-0,0,1.05,1.21,87,3848,0.0,1.65,,9.49,1.249,77.2,,36.2,5,,,,,,,,,,,,0,0,0,0,0,0,0,0,0,0,0,0,0,0,0,0,,,,,,0.0,,,,,,,
344244,1745647498978,,,,,,,,,,,,,,,,,,,,,,,,,,,,,,,,,,0,0,0,0,0,0,0,0,0,0,0,0,0,0,0,0,,,,,,,,,,,,,
344264,1745647498998,0.0,86,,-0.1,0.12,0.98,1,-0,-0,1.0,1.21,82,3488,0.0,1.78,,10.02,1.25,77.2,,36.9,5,,,,,,,,,,,,0,0,0,0,0,0,0,0,0,0,0,0,0,0,0,0,,,,,,0.0,,,,,,,
344284,1745647499009,,,,,,,,,,,,,,,,,,,,,,,0,0,42,0,0.0,0.0,0.0,0.0,2.26,,,0,0,0,0,0,0,0,0,0,0,0,0,0,0,0,0,,0,,,,,38.985802,-76.949882,0.0,53.0,31,3,0.8
344304,1745647499029,0.0,86,,-0.09,0.11,1.03,0,-0,0,1.04,1.21,86,3165,0.0,1.9,,10.02,1.25,77.2,,36.9,5,,,,,,,,,,,,0,0,0,0,0,0,0,0,0,0,0,0,0,0,0,0,,,,,,0.0,,,,,,,
344324,1745647499049,,,,,,,,,,,,,,,,,,,,,,,,,,,,,,,,,,0,0,0,0,0,0,0,0,0,0,0,0,0,0,0,0,,,,,,,,,,,,,
344344,1745647499069,0.0,86,,-0.08,0.07,1.07,-0,-0,0,1.07,1.21,89,3165,0.0,1.9,,10.56,1.251,77.2,,35.7,5,,,,,,,,,,,,0,0,0,0,0,0,0,0,0,0,0,0,0,0,0,0,,,,,,0.0,,,,,,,
344364,1745647499089,,,,,,,,,,,,,,,,,,,,,,,,,,,,,,,,,,0,0,0,0,0,0,0,0,0,0,0,0,0,0,0,0,,,,,,,,,,,,,
344384,1745647499115,0.0,85,14.13,-0.08,0.08,1.04,-0,-0,1,1.04,1.21,86,2950,0.0,2.06,15,11.06,1.251,77.2,151,35.7,5,0,0,42,0,0.0,0.0,0.0,0.0,2.26,0,1.0,0,0,0,0,0,0,0,0,0,0,0,0,0,0,0,0,0,0,0.0,0,-0,0.0,38.985802,-76.949882,0.04,53.0,31,3,0.8
344404,1745647499135,,,,,,,,,,,,,,,,,,,,,,,,,,,,,,,,,,0,0,0,0,0,0,0,0,0,0,0,0,0,0,0,0,,,,,,,,,,,,,
344424,1745647499155,0.0,86,,-0.08,0.05,1.04,0,-0,0,1.04,1.21,86,2697,0.0,2.73,,11.48,1.251,77.2,,35.7,5,,,,,,,,,,,,0,0,0,0,0,0,0,0,0,0,0,0,0,0,0,0,,,,,,0.0,,,,,,,
344444,1745647499175,,,,,,,,,,,,,,,,,,,,,,,,,,,,,,,,,,0,0,0,0,0,0,0,0,0,0,0,0,0,0,0,0,,,,,,,,,,,,,
344464,1745647499195,0.0,86,,-0.08,0.07,1.05,-0,-0,1,1.06,1.21,87,2647,0.0,2.84,,11.87,1.25,77.2,,31.0,5,,,,,,,,,,,,0,0,0,0,0,0,0,0,0,0,0,0,0,0,0,0,,,,,,0.0,,,,,,,
344484,1745647499215,,,,,,,,,,,,,,,,,,,,,,,0,0,42,0,0.0,0.0,0.0,0.0,2.25,,,0,0,0,0,0,0,0,0,0,0,0,0,0,0,0,0,,0,,,,,38.985802,-76.949882,0.04,53.0,31,3,0.8
344504,1745647499235,0.0,86,,-0.08,0.04,1.05,-0,-0,0,1.05,1.21,87,2581,0.0,2.84,,11.87,1.25,77.2,,31.0,5,,,,,,,,,,,,0,0,0,0,0,0,0,0,0,0,0,0,0,0,0,0,,,,,,0.0,,,,,,,
344524,1745647499255,,,,,,,,,,,,,,,,,,,,,,,,,,,,,,,,,,0,0,0,0,0,0,0,0,0,0,0,0,0,0,0,0,,,,,,,,,,,,,
344544,1745647499275,0.0,86,,-0.08,0.05,1.03,-0,-0,0,1.03,1.21,85,2581,0.0,2.84,,12.13,1.249,77.2,,28.9,5,,,,,,,,,,,,0,0,0,0,0,0,0,0,0,0,0,0,0,0,0,0,,,,,,0.0,,,,,,,
344564,1745647499295,,,,,,,,,,,,,,,,,,,,,,,,,,,,,,,,,,0,0,0,0,0,0,0,0,0,0,0,0,0,0,0,0,,,,,,,,,,,,,
344584,1745647499317,0.0,86,,-0.08,0.05,1.04,-0,-0,0,1.04,1.21,86,2496,7.0,3.43,,12.76,1.249,77.2,,28.9,5,0,0,42,0,0.0,0.0,0.0,0.0,2.26,,,0,0,0,0,0,0,0,0,0,0,0,0,0,0,0,0,,0,,,,0.0,38.985802,-76.949882,0.04,53.0,31,3,0.8
344604,1745647499337,,,,,,,,,,,,,,,,,,,,,,,,,,,,,,,,,,0,0,0,0,0,0,0,0,0,0,0,0,0,0,0,0,,,,,,,,,,,,,
344624,1745647499357,0.0,86,,-0.07,0.04,1.04,-0,-0,0,1.05,1.21,86,2524,21.3,4.53,,13.86,1.249,77.2,,28.9,5,,,,,,,,,,,,0,0,0,0,0,0,0,0,0,0,0,0,0,0,0,0,,,,,,0.0,,,,,,,
344644,1745647499377,,,,,,,,,,,,,,,,,,,,,,,,,,,,,,,,,,0,0,0,0,0,0,0,0,0,0,0,0,0,0,0,0,,,,,,,,,,,,,
344664,1745647499397,0.0,86,,-0.08,0.05,1.06,-0,-0,0,1.06,1.21,88,2582,25.4,4.68,,14.19,1.218,77.2,,28.5,5,,,,,,,,,,,,0,0,0,0,0,0,0,0,0,0,0,0,0,0,0,0,,,,,,0.0,,,,,,,
344684,1745647499417,,,,,,,,,,,,,,,,,,,,,,,0,0,42,0,0.0,0.0,0.0,0.0,2.26,,,0,0,0,0,0,0,0,0,0,0,0,0,0,0,0,0,,0,,,,,38.985802,-76.949882,0.04,53.0,31,3,0.8
344704,1745647499437,0.0,85,,-0.07,0.05,1.01,-0,-0,0,1.02,1.21,84,2836,25.5,4.46,,14.19,1.218,77.2,,28.5,5,,,,,,,,,,,,0,0,0,0,0,0,0,0,0,0,0,0,0,0,0,0,,,,,,0.0,,,,,,,
344724,1745647499457,,,,,,,,,,,,,,,,,,,,,,,,,,,,,,,,,,0,0,0,0,0,0,0,0,0,0,0,0,0,0,0,0,,,,,,,,,,,,,
344744,1745647499477,0.0,86,,-0.09,0.06,0.98,-0,-0,0,0.99,1.21,81,2836,25.5,4.46,,14.18,1.131,77.2,,31.7,5,,,,,,,,,,,,0,0,0,0,0,0,0,0,0,0,0,0,0,0,0,0,,,,,,0.0,,,,,,,
344764,1745647499497,,,,,,,,,,,,,,,,,,,,,,,,,,,,,,,,,,0,0,0,0,0,0,0,0,0,0,0,0,0,0,0,0,,,,,,,,,,,,,
344784,1745647499517,0.0,85,,-0.12,0.03,1.0,0,-0,-0,1.0,1.21,83,2944,14.0,4.42,,14.0,1.054,77.2,,31.7,5,0,0,42,0,0.0,0.0,0.0,0.0,2.26,,,0,0,0,0,0,0,0,0,0,0,0,0,0,0,0,0,,0,,,,0.0,38.985802,-76.949882,0.04,53.0,31,3,0.8
344804,1745647499537,,,,,,,,,,,,,,,,,,,,,,,,,,,,,,,,,,0,0,0,0,0,0,0,0,0,0,0,0,0,0,0,0,,,,,,,,,,,,,
344824,1745647499557,0.0,86,,-0.11,0.08,0.93,0,-0,-0,0.94,1.21,78,3133,0.2,2.76,,13.48,1.026,77.2,,31.7,5,,,,,,,,,,,,0,0,0,0,0,0,0,0,0,0,0,0,0,0,0,0,,,,,,0.0,,,,,,,
344844,1745647499577,,,,,,,,,,,,,,,,,,,,,,,,,,,,,,,,,,0,0,0,0,0,0,0,0,0,0,0,0,0,0,0,0,,,,,,,,,,,,,
344864,1745647499597,0.0,86,,-0.1,0.12,0.94,-0,-0,0,0.95,1.21,79,3236,0.0,2.68,,12.96,1.099,77.2,,36.6,5,,,,,,,,,,,,0,0,0,0,0,0,0,0,0,0,0,0,0,0,0,0,,,,,,0.0,,,,,,,
344884,1745647499617,,,,,,,,,,,,,,,,,,,,,,,0,0,42,0,0.0,0.0,0.0,0.0,2.26,,,0,0,0,0,0,0,0,0,0,0,0,0,0,0,0,0,,0,,,,,38.985802,-76.949882,0.0,52.9,31,3,0.8
344904,1745647499637,0.0,86,,-0.09,0.06,1.01,-0,-0,0,1.02,1.21,84,3129,0.0,2.67,,12.96,1.099,77.2,,36.6,5,,,,,,,,,,,,0,0,0,0,0,0,0,0,0,0,0,0,0,0,0,0,,,,,,0.0,,,,,,,
344924,1745647499657,,,,,,,,,,,,,,,,,,,,,,,,,,,,,,,,,,0,0,0,0,0,0,0,0,0,0,0,0,0,0,0,0,,,,,,,,,,,,,
344944,1745647499677,0.0,86,,-0.09,-0.01,1.06,-0,-0,0,1.07,1.21,88,3129,0.0,2.67,,12.72,1.122,77.2,,36.1,5,,,,,,,,,,,,0,0,0,0,0,0,0,0,0,0,0,0,0,0,0,0,,,,,,0.0,,,,,,,
344964,1745647499697,,,,,,,,,,,,,,,,,,,,,,,,,,,,,,,,,,0,0,0,0,0,0,0,0,0,0,0,0,0,0,0,0,,,,,,,,,,,,,
344984,1745647499717,0.0,85,,-0.09,-0.04,1.1,-0,-0,0,1.1,1.21,91,3048,0.0,2.68,,12.64,1.139,77.2,,36.1,5,0,0,42,0,0.0,0.0,0.0,0.0,2.26,,,0,0,0,0,0,0,0,0,0,0,0,0,0,0,0,0,,0,,,,0.0,38.985802,-76.949882,0.05,52.9,31,3,0.8
345004,1745647499737,,,,,,,,,,,,,,,,,,,,,,,,,,,,,,,,,,0,0,0,0,0,0,0,0,0,0,0,0,0,0,0,0,,,,,,,,,,,,,
345024,1745647499757,0.0,86,,-0.09,-0.02,1.07,-0,-0,0,1.08,1.21,89,2778,0.0,2.75,,12.64,1.172,77.2,,36.1,5,,,,,,,,,,,,0,0,0,0,0,0,0,0,0,0,0,0,0,0,0,0,,,,,,0.0,,,,,,,
345044,1745647499777,,,,,,,,,,,,,,,,,,,,,,,,,,,,,,,,,,0,0,0,0,0,0,0,0,0,0,0,0,0,0,0,0,,,,,,,,,,,,,
345064,1745647499797,0.0,86,,-0.09,0.01,1.05,-0,-0,0,1.05,1.21,87,2730,0.0,2.79,,12.72,1.199,77.2,,32.7,5,,,,,,,,,,,,0,0,0,0,0,0,0,0,0,0,0,0,0,0,0,0,,,,,,0.0,,,,,,,
345084,1745647499817,,,,,,,,,,,,,,,,,,,,,,,0,0,42,0,0.0,0.0,0.0,0.0,2.26,,,0,0,0,0,0,0,0,0,0,0,0,0,0,0,0,0,,0,,,,,38.985802,-76.949882,0.04,52.9,31,3,0.8
345104,1745647499837,0.0,85,,-0.09,0.0,1.04,-0,-0,0,1.04,1.21,86,2543,0.0,2.88,,12.72,1.199,77.2,,32.7,5,,,,,,,,,,,,0,0,0,0,0,0,0,0,0,0,0,0,0,0,0,0,,,,,,0.0,,,,,,,
345124,1745647499857,,,,,,,,,,,,,,,,,,,,,,,,,,,,,,,,,,0,0,0,0,0,0,0,0,0,0,0,0,0,0,0,0,,,,,,,,,,,,,
345144,1745647499877,0.0,86,,-0.09,0.0,1.04,-0,-0,0,1.04,1.21,86,2543,0.0,2.88,,12.84,1.236,77.2,,30.0,5,,,,,,,,,,,,0,0,0,0,0,0,0,0,0,0,0,0,0,0,0,0,,,,,,0.0,,,,,,,
345164,1745647499897,,,,,,,,,,,,,,,,,,,,,,,,,,,,,,,,,,0,0,0,0,0,0,0,0,0,0,0,0,0,0,0,0,,,,,,,,,,,,,
345184,1745647499917,0.0,86,,-0.09,0.0,1.03,-0,-0,0,1.04,1.21,86,2683,0.0,2.94,,12.85,1.248,79.0,,30.0,5,0,0,42,0,0.0,0.0,0.0,0.0,2.26,,,0,0,0,0,0,0,0,0,0,0,0,0,0,0,0,0,,0,,,,0.0,38.985802,-76.949882,0.0,52.9,31,3,0.8
345204,1745647499937,,,,,,,,,,,,,,,,,,,,,,,,,,,,,,,,,,0,0,0,0,0,0,0,0,0,0,0,0,0,0,0,0,,,,,,,,,,,,,
345224,1745647499957,0.0,86,,-0.08,-0.02,1.04,-0,-0,0,1.04,1.21,86,2584,0.0,2.94,,12.96,1.248,79.0,,30.0,5,,,,,,,,,,,,0,0,0,0,0,0,0,0,0,0,0,0,0,0,0,0,,,,,,0.0,,,,,,,
345244,1745647499977,,,,,,,,,,,,,,,,,,,,,,,,,,,,,,,,,,0,0,0,0,0,0,0,0,0,0,0,0,0,0,0,0,,,,,,,,,,,,,
345264,1745647499997,0.0,86,,-0.09,-0.01,1.02,-0,-0,0,1.03,1.21,85,2536,10.8,3.91,,13.59,1.249,79.0,,29.3,5,,,,,,,,,,,,0,0,0,0,0,0,0,0,0,0,0,0,0,0,0,0,,,,,,0.0,,,,,,,
345284,1745647500010,,,,,,,,,,,,,,,,,,,,,,,0,0,42,0,0.0,0.0,0.0,0.0,2.26,,,0,0,0,0,0,0,0,0,0,0,0,0,0,0,0,0,,0,,,,,38.985802,-76.949882,0.0,52.9,31,3,0.8
345304,1745647500030,0.0,86,,-0.08,-0.02,1.04,-0,-0,0,1.04,1.21,86,2560,13.0,4.01,,13.59,1.249,79.0,,29.3,5,,,,,,,,,,,,0,0,0,0,0,0,0,0,0,0,0,0,0,0,0,0,,,,,,0.0,,,,,,,
345324,1745647500050,,,,,,,,,,,,,,,,,,,,,,,,,,,,,,,,,,0,0,0,0,0,0,0,0,0,0,0,0,0,0,0,0,,,,,,,,,,,,,
345344,1745647500070,0.0,86,,-0.09,0.01,1.03,-0,-0,0,1.04,1.21,85,2560,13.0,4.01,,13.92,1.236,79.0,,28.6,5,,,,,,,,,,,,0,0,0,0,0,0,0,0,0,0,0,0,0,0,0,0,,,,,,0.0,,,,,,,
345364,1745647500090,,,,,,,,,,,,,,,,,,,,,,,,,,,,,,,,,,0,0,0,0,0,0,0,0,0,0,0,0,0,0,0,0,,,,,,,,,,,,,
345384,1745647500114,0.0,86,14.08,-0.1,-0.06,1.08,-0,-0,0,1.09,1.21,90,2616,13.2,4.03,15,13.99,1.178,79.0,151,28.6,5,0,0,42,0,0.0,0.0,0.0,0.0,2.26,0,1.0,0,0,0,0,0,0,0,0,0,0,0,0,0,0,0,0,0,0,0.0,0,0,0.0,38.985802,-76.949882,0.05,52.9,31,3,0.8
345404,1745647500134,,,,,,,,,,,,,,,,,,,,,,,,,,,,,,,,,,0,0,0,0,0,0,0,0,0,0,0,0,0,0,0,0,,,,,,,,,,,,,
345424,1745647500154,0.0,85,,-0.11,-0.12,1.14,0,-0,-0,1.15,1.21,95,2967,13.6,4.1,,13.9,1.16,79.0,,28.6,5,,,,,,,,,,,,0,0,0,0,0,0,0,0,0,0,0,0,0,0,0,0,,,,,,0.0,,,,,,,
345444,1745647500174,,,,,,,,,,,,,,,,,,,,,,,,,,,,,,,,,,0,0,0,0,0,0,0,0,0,0,0,0,0,0,0,0,,,,,,,,,,,,,
345464,1745647500194,0.0,86,,-0.12,-0.12,1.1,1,-0,-0,1.11,1.21,92,3161,5.3,3.69,,13.56,1.132,79.0,,34.7,5,,,,,,,,,,,,0,0,0,0,0,0,0,0,0,0,0,0,0,0,0,0,,,,,,0.0,,,,,,,
345484,1745647500218,,,,,,,,,,,,,,,,,,,,,,,0,0,42,0,0.0,0.0,0.0,0.0,2.26,,,0,0,0,0,0,0,0,0,0,0,0,0,0,0,0,0,,0,,,,,38.985802,-76.949882,0.04,52.9,31,3,0.8
345504,1745647500238,0.0,86,,-0.1,-0.03,1.05,0,-0,0,1.05,1.21,87,3278,3.3,3.33,,13.56,1.132,79.0,,34.7,5,,,,,,,,,,,,0,0,0,0,0,0,0,0,0,0,0,0,0,0,0,0,,,,,,0.0,,,,,,,
345524,1745647500258,,,,,,,,,,,,,,,,,,,,,,,,,,,,,,,,,,0,0,0,0,0,0,0,0,0,0,0,0,0,0,0,0,,,,,,,,,,,,,
345544,1745647500278,0.0,86,,-0.1,-0.07,1.12,0,-0,0,1.13,1.21,93,3278,3.3,3.33,,13.25,1.081,79.0,,37.0,5,,,,,,,,,,,,0,0,0,0,0,0,0,0,0,0,0,0,0,0,0,0,,,,,,0.0,,,,,,,
345564,1745647500298,,,,,,,,,,,,,,,,,,,,,,,,,,,,,,,,,,0,0,0,0,0,0,0,0,0,0,0,0,0,0,0,0,,,,,,,,,,,,,
345584,1745647500318,0.0,86,,-0.12,-0.13,1.12,1,-0,-0,1.14,1.21,94,3183,2.7,3.19,,13.09,1.105,79.0,,37.0,5,0,0,42,0,0.0,0.0,0.0,0.0,2.26,,,0,0,0,0,0,0,0,0,0,0,0,0,0,0,0,0,,0,,,,0.0,38.985802,-76.949882,0.04,52.9,31,3,0.8
345604,1745647500338,,,,,,,,,,,,,,,,,,,,,,,,,,,,,,,,,,0,0,0,0,0,0,0,0,0,0,0,0,0,0,0,0,,,,,,,,,,,,,
345624,1745647500358,0.0,85,,-0.13,-0.08,1.05,1,-0,-0,1.06,1.21,87,3115,2.5,3.14,,13.0,1.138,79.0,,37.0,5,,,,,,,,,,,,0,0,0,0,0,0,0,0,0,0,0,0,0,0,0,0,,,,,,0.0,,,,,,,
345644,1745647500378,,,,,,,,,,,,,,,,,,,,,,,,,,,,,,,,,,0,0,0,0,0,0,0,0,0,0,0,0,0,0,0,0,,,,,,,,,,,,,
345664,1745647500398,0.0,86,,-0.12,0.0,1.0,0,-0,-0,1.01,1.21,83,3262,2.2,3.09,,12.89,1.145,79.0,,36.6,5,,,,,,,,,,,,0,0,0,0,0,0,0,0,0,0,0,0,0,0,0,0,,,,,,0.0,,,,,,,
345684,1745647500418,,,,,,,,,,,,,,,,,,,,,,,0,0,0,0,0.0,0.0,0.0,0.0,2.26,,,0,0,0,0,0,0,0,0,0,0,0,0,0,0,0,0,,0,,,,,38.985802,-76.949882,0.04,52.9,31,3,0.8
345704,1745647500438,0.0,86,,-0.09,-0.01,1.07,-0,-0,0,1.07,1.21,89,3196,1.8,3.08,,12.89,1.145,79.0,,36.6,5,,,,,,,,,,,,0,0,0,0,0,0,0,0,0,0,0,0,0,0,0,0,,,,,,0.0,,,,,,,
345724,1745647500458,,,,,,,,,,,,,,,,,,,,,,,,,,,,,,,,,,0,0,0,0,0,0,0,0,0,0,0,0,0,0,0,0,,,,,,,,,,,,,
345744,1745647500478,0.0,86,,-0.09,-0.08,1.13,-0,-0,0,1.13,1.21,93,3196,1.8,3.08,,12.87,1.186,79.0,,36.9,5,,,,,,,,,,,,0,0,0,0,0,0,0,0,0,0,0,0,0,0,0,0,,,,,,0.0,,,,,,,
345764,1745647500498,,,,,,,,,,,,,,,,,,,,,,,,,,,,,,,,,,0,0,0,0,0,0,0,0,0,0,0,0,0,0,0,0,,,,,,,,,,,,,
345784,1745647500518,0.0,86,,-0.12,-0.13,1.16,0,-0,-0,1.17,1.21,97,3066,1.5,3.03,,12.89,1.18,79.0,,36.9,5,0,0,0,0,0.0,0.0,0.0,0.0,2.26,,,0,0,0,0,0,0,0,0,0,0,0,0,0,0,0,0,,0,,,,0.0,38.985802,-76.949882,0.07,52.9,31,3,0.8
345804,1745647500538,,,,,,,,,,,,,,,,,,,,,,,,,,,,,,,,,,0,0,0,0,0,0,0,0,0,0,0,0,0,0,0,0,,,,,,,,,,,,,
345824,1745647500558,0.0,86,,-0.12,-0.08,1.09,1,-0,-0,1.1,1.21,91,3187,1.4,2.93,,12.89,1.189,79.0,,36.9,5,,,,,,,,,,,,0,0,0,0,0,0,0,0,0,0,0,0,0,0,0,0,,,,,,0.0,,,,,,,
345844,1745647500578,,,,,,,,,,,,,,,,,,,,,,,,,,,,,,,,,,0,0,0,0,0,0,0,0,0,0,0,0,0,0,0,0,,,,,,,,,,,,,
345864,1745647500598,0.0,86,,-0.1,-0.0,1.05,0,-0,0,1.06,1.21,87,3255,1.4,3.01,,12.85,1.216,79.0,,37.0,5,,,,,,,,,,,,0,0,0,0,0,0,0,0,0,0,0,0,0,0,0,0,,,,,,0.0,,,,,,,
345884,1745647500618,,,,,,,,,,,,,,,,,,,,,,,0,0,0,0,0.0,0.0,0.0,0.0,2.26,,,0,0,0,0,0,0,0,0,0,0,0,0,0,0,0,0,,0,,,,,38.985802,-76.949882,0.06,52.9,31,3,0.8
345904,1745647500638,0.0,86,,-0.09,-0.04,1.13,-0,-0,0,1.13,1.21,93,3136,1.5,2.93,,12.85,1.216,79.0,,37.0,5,,,,,,,,,,,,0,0,0,0,0,0,0,0,0,0,0,0,0,0,0,0,,,,,,0.0,,,,,,,
345924,1745647500658,,,,,,,,,,,,,,,,,,,,,,,,,,,,,,,,,,0,0,0,0,0,0,0,0,0,0,0,0,0,0,0,0,,,,,,,,,,,,,
345944,1745647500678,0.0,86,,-0.1,-0.11,1.17,-0,-0,0,1.18,1.21,97,3136,1.5,2.93,,12.83,1.191,79.0,,36.4,5,,,,,,,,,,,,0,0,0,0,0,0,0,0,0,0,0,0,0,0,0,0,,,,,,0.0,,,,,,,
345964,1745647500698,,,,,,,,,,,,,,,,,,,,,,,,,,,,,,,,,,0,0,0,0,0,0,0,0,0,0,0,0,0,0,0,0,,,,,,,,,,,,,
345984,1745647500718,0.0,86,,-0.11,-0.16,1.2,0,-0,0,1.22,1.22,100,3050,1.6,2.93,,12.84,1.103,79.0,,36.4,5,0,0,0,0,0.0,0.0,0.0,0.0,2.26,,,0,0,0,0,0,0,0,0,0,0,0,0,0,0,0,0,,0,,,,0.0,38.985802,-76.949882,0.08,52.9,31,3,0.8
346004,1745647500738,,,,,,,,,,,,,,,,,,,,,,,,,,,,,,,,,,0,0,0,0,0,0,0,0,0,0,0,0,0,0,0,0,,,,,,,,,,,,,
346024,1745647500758,0.0,85,,-0.1,-0.14,1.21,-0,-0,0,1.22,1.22,100,2910,19.7,4.17,,13.48,1.056,79.0,,36.4,5,,,,,,,,,,,,0,0,0,0,0,0,0,0,0,0,0,0,0,0,0,0,,,,,,0.0,,,,,,,
346044,1745647500778,,,,,,,,,,,,,,,,,,,,,,,,,,,,,,,,,,0,0,0,0,0,0,0,0,0,0,0,0,0,0,0,0,,,,,,,,,,,,,
346064,1745647500798,0.0,86,,-0.1,-0.1,1.17,-0,-0,0,1.18,1.22,96,2870,72.3,5.17,,14.47,1.056,79.0,,33.6,5,,,,,,,,,,,,0,0,0,0,0,0,0,0,0,0,0,0,0,0,0,0,,,,,,0.0,,,,,,,
346084,1745647500816,,,,,,,,,,,,,,,,,,,,,,,0,0,0,0,0.0,0.0,0.0,0.0,2.25,,,0,0,0,0,0,0,0,0,0,0,0,0,0,0,0,0,,0,,,,,38.985802,-76.949882,0.04,52.9,31,3,0.8
346104,1745647500836,0.0,86,,-0.09,-0.04,1.11,-1,-0,1,1.11,1.22,91,3030,86.1,4.95,,14.47,1.056,79.0,,33.6,5,,,,,,,,,,,,0,0,0,0,0,0,0,0,0,0,0,0,0,0,0,0,,,,,,0.0,,,,,,,
346124,1745647500856,,,,,,,,,,,,,,,,,,,,,,,,,,,,,,,,,,0,0,0,0,0,0,0,0,0,0,0,0,0,0,0,0,,,,,,,,,,,,,
346144,1745647500876,0.0,86,,-0.08,-0.07,1.17,-1,-0,1,1.17,1.22,96,3030,86.1,4.95,,14.5,1.11,79.0,,36.7,5,,,,,,,,,,,,0,0,0,0,0,0,0,0,0,0,0,0,0,0,0,0,,,,,,0.0,,,,,,,
346164,1745647500896,,,,,,,,,,,,,,,,,,,,,,,,,,,,,,,,,,0,0,0,0,0,0,0,0,0,0,0,0,0,0,0,0,,,,,,,,,,,,,
346184,1745647500918,0.0,86,,-0.07,-0.02,1.12,-0,-0,1,1.12,1.22,92,3453,72.5,4.28,,14.4,1.186,79.0,,36.7,5,0,0,0,0,0.0,0.0,0.0,0.0,2.25,,,0,0,0,0,0,0,0,0,0,0,0,0,0,0,0,0,,0,,,,0.0,38.985802,-76.949882,0.04,52.9,31,3,0.8
346204,1745647500938,,,,,,,,,,,,,,,,,,,,,,,,,,,,,,,,,,0,0,0,0,0,0,0,0,0,0,0,0,0,0,0,0,,,,,,,,,,,,,
346224,1745647500958,0.0,86,,-0.06,-0.03,1.12,-0,-0,0,1.12,1.22,92,3601,15.0,4.12,,13.92,1.213,79.0,,36.7,5,,,,,,,,,,,,0,0,0,0,0,0,0,0,0,0,0,0,0,0,0,0,,,,,,0.0,,,,,,,
346244,1745647500978,,,,,,,,,,,,,,,,,,,,,,,,,,,,,,,,,,0,0,0,0,0,0,0,0,0,0,0,0,0,0,0,0,,,,,,,,,,,,,
346264,1745647500998,0.0,86,,-0.06,-0.03,1.09,-0,-0,0,1.09,1.22,89,3749,0.0,2.61,,12.99,1.206,79.0,,38.3,5,,,,,,,,,,,,0,0,0,0,0,0,0,0,0,0,0,0,0,0,0,0,,,,,,0.0,,,,,,,
346284,1745647501009,,,,,,,,,,,,,,,,,,,,,,,0,0,0,0,0.0,0.0,0.0,0.0,2.26,,,0,0,0,0,0,0,0,0,0,0,0,0,0,0,0,0,,0,,,,,38.985802,-76.949882,0.07,52.9,31,3,0.8
346304,1745647501029,0.0,86,,-0.07,-0.04,1.08,0,-0,0,1.08,1.22,88,3634,0.0,2.59,,12.99,1.206,79.0,,38.3,5,,,,,,,,,,,,0,0,0,0,0,0,0,0,0,0,0,0,0,0,0,0,,,,,,0.0,,,,,,,
346324,1745647501049,,,,,,,,,,,,,,,,,,,,,,,,,,,,,,,,,,0,0,0,0,0,0,0,0,0,0,0,0,0,0,0,0,,,,,,,,,,,,,
346344,1745647501069,0.0,85,,-0.09,-0.05,1.1,-0,-0,0,1.11,1.22,90,3634,0.0,2.59,,12.51,1.183,79.0,,37.2,5,,,,,,,,,,,,0,0,0,0,0,0,0,0,0,0,0,0,0,0,0,0,,,,,,0.0,,,,,,,
346364,1745647501089,,,,,,,,,,,,,,,,,,,,,,,,,,,,,,,,,,0,0,0,0,0,0,0,0,0,0,0,0,0,0,0,0,,,,,,,,,,,,,
346384,1745647501115,0.0,86,14.12,-0.08,0.01,1.11,-1,-0,1,1.12,1.22,91,3629,0.0,2.58,15,12.24,1.173,79.0,153,37.2,5,0,0,0,0,0.0,0.0,0.0,0.0,2.26,0,1.0,0,0,0,0,0,0,0,0,0,0,0,0,0,0,0,0,0,0,0.0,0,0,0.0,38.985802,-76.949882,0.0,52.9,31,3,0.8
346404,1745647501135,,,,,,,,,,,,,,,,,,,,,,,,,,,,,,,,,,0,0,0,0,0,0,0,0,0,0,0,0,0,0,0,0,,,,,,,,,,,,,
346424,1745647501155,0.0,86,,-0.07,0.04,1.05,0,-0,0,1.06,1.22,86,3469,0.0,2.58,,12.09,1.117,79.0,,37.2,5,,,,,,,,,,,,0,0,0,0,0,0,0,0,0,0,0,0,0,0,0,0,,,,,,0.0,,,,,,,
346444,1745647501175,,,,,,,,,,,,,,,,,,,,,,,,,,,,,,,,,,0,0,0,0,0,0,0,0,0,0,0,0,0,0,0,0,,,,,,,,,,,,,
346464,1745647501195,0.0,86,,-0.09,-0.04,1.12,-0,-0,1,1.12,1.22,92,3337,0.0,2.6,,12.16,1.103,79.0,,37.2,5,,,,,,,,,,,,0,0,0,0,0,0,0,0,0,0,0,0,0,0,0,0,,,,,,0.0,,,,,,,
346484,1745647501215,,,,,,,,,,,,,,,,,,,,,,,0,0,0,0,0.0,0.0,0.0,0.0,2.26,,,0,0,0,0,0,0,0,0,0,0,0,0,0,0,0,0,,0,,,,,38.985802,-76.949882,0.06,52.9,31,3,0.8
346504,1745647501235,0.0,86,,-0.11,-0.04,1.07,0,-0,0,1.08,1.22,88,3210,0.0,2.63,,12.16,1.103,79.0,,37.2,5,,,,,,,,,,,,0,0,0,0,0,0,0,0,0,0,0,0,0,0,0,0,,,,,,0.0,,,,,,,
346524,1745647501255,,,,,,,,,,,,,,,,,,,,,,,,,,,,,,,,,,0,0,0,0,0,0,0,0,0,0,0,0,0,0,0,0,,,,,,,,,,,,,
346544,1745647501275,0.0,85,,-0.1,0.02,1.0,0,-0,0,1.0,1.22,82,3210,0.0,2.63,,12.17,1.145,79.0,,36.7,5,,,,,,,,,,,,0,0,0,0,0,0,0,0,0,0,0,0,0,0,0,0,,,,,,0.0,,,,,,,
346564,1745647501295,,,,,,,,,,,,,,,,,,,,,,,,,,,,,,,,,,0,0,0,0,0,0,0,0,0,0,0,0,0,0,0,0,,,,,,,,,,,,,
346584,1745647501317,0.0,85,,-0.1,0.03,0.94,0,-0,-0,0.94,1.22,77,2968,0.0,2.65,,12.32,1.173,79.0,,36.7,5,0,0,0,0,0.0,0.0,0.0,0.0,2.26,,,0,0,0,0,0,0,0,0,0,0,0,0,0,0,0,0,,0,,,,0.0,38.985802,-76.949882,0.05,52.9,31,3,0.8
346604,1745647501337,,,,,,,,,,,,,,,,,,,,,,,,,,,,,,,,,,0,0,0,0,0,0,0,0,0,0,0,0,0,0,0,0,,,,,,,,,,,,,
346624,1745647501357,0.0,85,,-0.1,0.05,0.87,0,-0,-0,0.88,1.22,72,3009,0.0,2.7,,12.4,1.168,79.0,,36.7,5,,,,,,,,,,,,0,0,0,0,0,0,0,0,0,0,0,0,0,0,0,0,,,,,,0.0,,,,,,,
346644,1745647501377,,,,,,,,,,,,,,,,,,,,,,,,,,,,,,,,,,0,0,0,0,0,0,0,0,0,0,0,0,0,0,0,0,,,,,,,,,,,,,
346664,1745647501397,0.0,85,,-0.09,0.08,0.82,0,-0,-0,0.83,1.22,68,3055,0.0,2.67,,12.45,1.226,79.0,,35.0,5,,,,,,,,,,,,0,0,0,0,0,0,0,0,0,0,0,0,0,0,0,0,,,,,,0.0,,,,,,,
346684,1745647501417,,,,,,,,,,,,,,,,,,,,,,,0,0,0,0,0.0,0.0,0.0,0.0,2.26,,,0,0,0,0,0,0,0,0,0,0,0,0,0,0,0,0,,0,,,,,38.985802,-76.949882,0.04,52.9,31,3,0.8
346704,1745647501437,0.0,85,,-0.09,0.08,0.79,0,-0,-0,0.8,1.22,65,2920,0.0,2.69,,12.45,1.226,79.0,,35.0,5,,,,,,,,,,,,0,0,0,0,0,0,0,0,0,0,0,0,0,0,0,0,,,,,,0.0,,,,,,,
346724,1745647501457,,,,,,,,,,,,,,,,,,,,,,,,,,,,,,,,,,0,0,0,0,0,0,0,0,0,0,0,0,0,0,0,0,,,,,,,,,,,,,
346744,1745647501477,0.0,86,,-0.11,0.05,0.83,0,-0,-0,0.84,1.22,69,2920,0.0,2.69,,12.49,1.196,79.0,,33.6,5,,,,,,,,,,,,0,0,0,0,0,0,0,0,0,0,0,0,0,0,0,0,,,,,,0.0,,,,,,,
346764,1745647501497,,,,,,,,,,,,,,,,,,,,,,,,,,,,,,,,,,0,0,0,0,0,0,0,0,0,0,0,0,0,0,0,0,,,,,,,,,,,,,
346784,1745647501517,0.0,86,,-0.11,0.06,0.87,0,-0,-0,0.88,1.22,72,2808,9.3,2.77,,12.92,1.135,79.0,,33.6,5,0,0,0,0,0.0,0.0,0.0,0.0,2.26,,,0,0,0,0,0,0,0,0,0,0,0,0,0,0,0,0,,0,,,,0.0,38.985802,-76.949882,0.0,52.8,31,3,0.8
346804,1745647501537,,,,,,,,,,,,,,,,,,,,,,,,,,,,,,,,,,0,0,0,0,0,0,0,0,0,0,0,0,0,0,0,0,,,,,,,,,,,,,
346824,1745647501557,0.0,86,,-0.11,0.07,0.87,0,-0,-0,0.88,1.22,72,2618,41.5,5.21,,14.36,1.123,79.0,,33.6,5,,,,,,,,,,,,0,0,0,0,0,0,0,0,0,0,0,0,0,0,0,0,,,,,,0.0,,,,,,,
346844,1745647501577,,,,,,,,,,,,,,,,,,,,,,,,,,,,,,,,,,0,0,0,0,0,0,0,0,0,0,0,0,0,0,0,0,,,,,,,,,,,,,
346864,1745647501597,0.0,86,,-0.11,0.01,0.94,0,-0,-0,0.94,1.22,77,2736,48.4,5.41,,14.44,1.127,79.0,,31.4,5,,,,,,,,,,,,0,0,0,0,0,0,0,0,0,0,0,0,0,0,0,0,,,,,,0.0,,,,,,,
346884,1745647501617,,,,,,,,,,,,,,,,,,,,,,,0,0,0,0,0.0,0.0,0.0,0.0,2.26,,,0,0,0,0,0,0,0,0,0,0,0,0,0,0,0,0,,0,,,,,38.985802,-76.949882,0.47,52.8,31,3,0.8
346904,1745647501637,0.0,86,,-0.12,-0.05,1.01,0,-0,-0,1.02,1.22,83,2736,48.4,5.41,,14.44,1.127,79.0,,31.4,5,,,,,,,,,,,,0,0,0,0,0,0,0,0,0,0,0,0,0,0,0,0,,,,,,0.0,,,,,,,
346924,1745647501657,,,,,,,,,,,,,,,,,,,,,,,,,,,,,,,,,,0,0,0,0,0,0,0,0,0,0,0,0,0,0,0,0,,,,,,,,,,,,,
346944,1745647501677,0.0,85,,-0.11,-0.03,0.98,1,-0,-0,0.98,1.22,80,3184,48.5,4.97,,14.39,1.138,79.0,,36.4,5,,,,,,,,,,,,0,0,0,0,0,0,0,0,0,0,0,0,0,0,0,0,,,,,,0.0,,,,,,,
346964,1745647501697,,,,,,,,,,,,,,,,,,,,,,,,,,,,,,,,,,0,0,0,0,0,0,0,0,0,0,0,0,0,0,0,0,,,,,,,,,,,,,
346984,1745647501717,0.0,85,,-0.13,-0.04,1.0,0,-0,-0,1.01,1.22,82,3425,15.5,4.82,,13.98,1.166,79.0,,36.4,5,0,0,0,0,0.0,0.0,0.0,0.0,2.26,,,0,0,0,0,0,0,0,0,0,0,0,0,0,0,0,0,,0,,,,0.0,38.985802,-76.949882,0.49,52.8,31,3,0.8
347004,1745647501737,,,,,,,,,,,,,,,,,,,,,,,,,,,,,,,,,,0,0,0,0,0,0,0,0,0,0,0,0,0,0,0,0,,,,,,,,,,,,,
347024,1745647501757,0.0,85,,-0.11,0.01,1.01,-0,-0,0,1.02,1.22,83,3616,0.0,2.64,,13.16,1.162,79.0,,36.4,5,,,,,,,,,,,,0,0,0,0,0,0,0,0,0,0,0,0,0,0,0,0,,,,,,0.0,,,,,,,
347044,1745647501777,,,,,,,,,,,,,,,,,,,,,,,,,,,,,,,,,,0,0,0,0,0,0,0,0,0,0,0,0,0,0,0,0,,,,,,,,,,,,,
347064,1745647501797,0.0,86,,-0.1,0.06,0.99,-0,-0,0,1.0,1.22,82,3622,0.0,2.61,,12.57,1.157,79.0,,37.0,5,,,,,,,,,,,,0,0,0,0,0,0,0,0,0,0,0,0,0,0,0,0,,,,,,0.0,,,,,,,
347084,1745647501817,,,,,,,,,,,,,,,,,,,,,,,0,0,0,0,0.0,0.0,0.0,0.0,2.26,,,0,0,0,0,0,0,0,0,0,0,0,0,0,0,0,0,,0,,,,,38.985802,-76.949882,0.11,52.8,31,3,0.8
347104,1745647501837,0.0,86,,-0.11,-0.01,0.96,0,-0,-0,0.96,1.22,79,3465,0.0,2.6,,12.57,1.157,79.0,,37.0,5,,,,,,,,,,,,0,0,0,0,0,0,0,0,0,0,0,0,0,0,0,0,,,,,,0.0,,,,,,,
347124,1745647501857,,,,,,,,,,,,,,,,,,,,,,,,,,,,,,,,,,0,0,0,0,0,0,0,0,0,0,0,0,0,0,0,0,,,,,,,,,,,,,
347144,1745647501877,0.0,86,,-0.11,0.0,1.02,-0,-0,0,1.02,1.22,84,3465,0.0,2.6,,12.39,1.136,79.0,,36.2,5,,,,,,,,,,,,0,0,0,0,0,0,0,0,0,0,0,0,0,0,0,0,,,,,,0.0,,,,,,,
347164,1745647501897,,,,,,,,,,,,,,,,,,,,,,,,,,,,,,,,,,0,0,0,0,0,0,0,0,0,0,0,0,0,0,0,0,,,,,,,,,,,,,
347184,1745647501919,0.0,85,,-0.1,-0.0,0.94,0,-0,-0,0.95,1.22,78,3338,0.0,2.62,,12.35,1.155,79.0,,36.2,5,0,0,0,0,0.0,0.0,0.0,0.0,2.26,,,0,0,0,0,0,0,0,0,0,0,0,0,0,0,0,0,,0,,,,0.0,38.985802,-76.949882,0.05,52.8,31,3,0.8
347204,1745647501939,,,,,,,,,,,,,,,,,,,,,,,,,,,,,,,,,,0,0,0,0,0,0,0,0,0,0,0,0,0,0,0,0,,,,,,,,,,,,,
347224,1745647501959,0.0,85,,-0.1,0.0,1.01,-1,-0,0,1.02,1.22,83,3309,32.5,4.8,,13.75,1.23,79.0,,36.2,5,,,,,,,,,,,,0,0,0,0,0,0,0,0,0,0,0,0,0,0,0,0,,,,,,0.0,,,,,,,
347244,1745647501979,,,,,,,,,,,,,,,,,,,,,,,,,,,,,,,,,,0,0,0,0,0,0,0,0,0,0,0,0,0,0,0,0,,,,,,,,,,,,,
347264,1745647501999,0.0,85,,-0.09,0.0,0.96,0,-0,-0,0.96,1.22,79,3521,59.3,4.75,,14.38,1.248,79.0,,37.1,5,,,,,,,,,,,,0,0,0,0,0,0,0,0,0,0,0,0,0,0,0,0,,,,,,0.0,,,,,,,
347284,1745647502010,,,,,,,,,,,,,,,,,,,,,,,0,0,0,0,0.0,0.0,0.0,0.0,2.26,,,0,0,0,0,0,0,0,0,0,0,0,0,0,0,0,0,,0,,,,,38.985802,-76.949882,0.15,52.8,31,3,0.8
347304,1745647502030,0.0,85,,-0.11,-0.06,0.97,0,-0,-0,0.98,1.22,80,3632,63.0,4.43,,14.38,1.248,79.0,,37.1,5,,,,,,,,,,,,0,0,0,0,0,0,0,0,0,0,0,0,0,0,0,0,,,,,,0.0,,,,,,,
347324,1745647502050,,,,,,,,,,,,,,,,,,,,,,,,,,,,,,,,,,0,0,0,0,0,0,0,0,0,0,0,0,0,0,0,0,,,,,,,,,,,,,
347344,1745647502070,0.0,85,,-0.11,-0.05,0.98,0,-0,-0,0.99,1.22,81,3632,63.0,4.43,,14.35,1.189,79.0,,39.0,5,,,,,,,,,,,,0,0,0,0,0,0,0,0,0,0,0,0,0,0,0,0,,,,,,0.0,,,,,,,
347364,1745647502090,,,,,,,,,,,,,,,,,,,,,,,,,,,,,,,,,,0,0,0,0,0,0,0,0,0,0,0,0,0,0,0,0,,,,,,,,,,,,,
