"Interval"|"ms"|0|0|1,"Utc"|"ms"|0|0|1,"FrontBP"|"psi"|-5.0|5.0|25,"SteerAng"|"Degrees"|-145|145|25,"Battery"|"Volts"|-5.0|20.0|1,"AccelX"|"G"|-3.0|3.0|25,"AccelY"|"G"|-3.0|3.0|25,"AccelZ"|"G"|-3.0|3.0|25,"Yaw"|"Deg/Sec"|-120|120|25,"Pitch"|"Deg/Sec"|-120|120|25,"Roll"|"Deg/Sec"|-120|120|25,"Gsum"|"G"|0.0|3.0|25,"GsumMax"|"G"|0.0|3.0|25,"GsumPct"|"%"|0|100|25,"RPM"|""|0|10000|25,"TPS"|"%"|0.0|100.0|25,"InjectorPW"|"ms"|0.0|100.0|25,"Baro"|"kPa"|0|105|1,"MAP"|"Psi"|0.0|255.0|25,"Lambda"|""|-2.0|2.0|25,"IAT"|"C"|0.0|200.0|25,"EngineTemp"|"C"|0|200|1,"EOP"|"PSI"|0.0|152.0|25,"EOT"|"F"|0|250|25,"WSFR"|"MPH"|0|150|10,"WSFL"|"MPH"|0|100|10,"WSRR"|"MPH"|0|100|10,"WSRL"|""|0|100|10,"TCSet"|"%"|0.0|100.0|10,"TCSlip"|"%"|0.0|100.0|10,"TCComp"|"deg"|0.0|50.0|10,"TCCut"|"%"|0.0|100.0|10,"Analog8"|""|0.0|5.0|10,"OilTemp"|"F"|0|300|1,"AA_On"|""|0.0|1.0|1,"ThermLF1"|"C"|0|400|50,"ThermLF2"|"C"|0|400|50,"ThermRR1"|"C"|0|400|50,"ThermRR2"|"C"|0|400|50,"ThermLF3"|"C"|0|400|50,"ThermLF4"|"C"|0|400|50,"ThermLF5"|"C"|0|400|50,"ThermLF6"|"C"|0|400|50,"ThermLF7"|"C"|0|400|50,"ThermLF8"|"C"|0|400|50,"ThermRR3"|"C"|0|400|50,"ThermRR4"|"C"|0|400|50,"ThermRR5"|"C"|0|400|50,"ThermRR6"|"C"|0|400|50,"ThermRR7"|"C"|0|400|50,"ThermRR8"|"C"|0|400|50,"AA_LowDrag"|""|0|1|1,"Gear"|""|1|6|10,"AA_On"|""|0.0|1.0|1,"AA_LowDrag"|""|0|1|1,"Fuel_Mix"|""|-10|10|1,"AA_Packages"|""|0.0|1000.0|25,"Latitude"|"Degrees"|-180.0|180.0|10,"Longitude"|"Degrees"|-180.0|180.0|10,"Speed"|"kph"|0.0|150.0|10,"Altitude"|"m"|0.0|4000.0|10,"GPSSats"|""|0|20|10,"GPSQual"|""|0|5|10,"GPSDOP"|""|0.0|20.0|10
1103511,1745649340142,0.0,84,,-0.2,0.18,1.02,4,-0,-1,1.06,1.06,100,8919,29.2,1.84,,5.54,0.87,73.6,,40.2,5,,,,,,,,,,,,0,0,0,0,0,0,0,0,0,0,0,0,0,0,0,0,,,,,,0.0,,,,,,,
1103531,1745649340162,,,,,,,,,,,,,,,,,,,,,,,,,,,,,,,,,,0,0,0,0,0,0,0,0,0,0,0,0,0,0,0,0,,,,,,,,,,,,,
1103551,1745649340182,0.0,84,,-0.18,0.02,1.07,4,-0,-1,1.09,1.09,100,8879,25.1,1.82,,5.54,0.87,73.6,,40.2,5,,,,,,,,,,,,0,0,0,0,0,0,0,0,0,0,0,0,0,0,0,0,,,,,,0.0,,,,,,,
1103571,1745649340200,,,,,,,,,,,,,,,,,,,,,,,,,,,,,,,,,,0,0,0,0,0,0,0,0,0,0,0,0,0,0,0,0,,,,,,,,,,,,,
1103591,1745649340220,0.0,84,,-0.17,-0.08,1.05,2,-0,-1,1.07,1.09,98,8879,25.1,1.82,,5.59,0.884,73.6,,40.0,5,0,438,0,0,0.0,24.0,0.0,0.0,2.26,,,0,0,0,0,0,0,0,0,0,0,0,0,0,0,0,0,,0,,,,0.0,38.985794,-76.949982,0.04,49.1,30,3,0.8
1103611,1745649340240,,,,,,,,,,,,,,,,,,,,,,,,,,,,,,,,,,0,0,0,0,0,0,0,0,0,0,0,0,0,0,0,0,,,,,,,,,,,,,
1103631,1745649340260,0.0,84,,-0.14,-0.03,0.99,1,-0,-0,1.0,1.09,92,8879,21.3,1.94,,5.68,0.903,73.6,,40.0,5,,,,,,,,,,,,0,0,0,0,0,0,0,0,0,0,0,0,0,0,0,0,,,,,,0.0,,,,,,,
1103651,1745649340280,,,,,,,,,,,,,,,,,,,,,,,,,,,,,,,,,,0,0,0,0,0,0,0,0,0,0,0,0,0,0,0,0,,,,,,,,,,,,,
1103671,1745649340304,0.0,84,,-0.11,0.15,0.99,1,-0,-0,1.0,1.09,92,8854,17.8,2.01,,5.78,0.946,73.6,,40.0,5,,,,,,,,,,,,0,0,0,0,0,0,0,0,0,0,0,0,0,0,0,0,,,,,,0.0,,,,,,,
1103691,1745649340324,,,,,,,,,,,,,,,,,,,,,,,0,46,0,0,0.0,24.0,0.0,0.0,2.27,,,0,0,0,0,0,0,0,0,0,0,0,0,0,0,0,0,,0,,,,,38.985794,-76.949982,0.04,49.1,30,3,0.8
1103711,1745649340344,0.0,84,,-0.09,0.1,1.01,2,-0,0,1.02,1.09,94,8782,14.3,1.87,,5.72,0.965,73.6,,39.9,5,,,,,,,,,,,,0,0,0,0,0,0,0,0,0,0,0,0,0,0,0,0,,,,,,0.0,,,,,,,
1103731,1745649340364,,,,,,,,,,,,,,,,,,,,,,,,,,,,,,,,,,0,0,0,0,0,0,0,0,0,0,0,0,0,0,0,0,,,,,,,,,,,,,
1103751,1745649340384,0.0,84,,-0.05,-0.05,1.01,2,-0,0,1.01,1.09,93,8732,11.1,1.83,,5.72,0.965,73.6,,39.9,5,,,,,,,,,,,,0,0,0,0,0,0,0,0,0,0,0,0,0,0,0,0,,,,,,0.0,,,,,,,
1103771,1745649340405,,,,,,,,,,,,,,,,,,,,,,,,,,,,,,,,,,0,0,0,0,0,0,0,0,0,0,0,0,0,0,0,0,,,,,,,,,,,,,
1103791,1745649340425,0.0,84,,-0.06,0.13,0.97,2,-0,0,0.98,1.09,90,8732,11.1,1.83,,5.88,0.976,73.6,,40.0,5,0,91,0,0,0.0,24.0,0.0,0.0,2.26,,,0,0,0,0,0,0,0,0,0,0,0,0,0,0,0,0,,0,,,,0.0,38.985794,-76.949982,0.1,49.1,30,3,0.8
1103811,1745649340445,,,,,,,,,,,,,,,,,,,,,,,,,,,,,,,,,,0,0,0,0,0,0,0,0,0,0,0,0,0,0,0,0,,,,,,,,,,,,,
1103831,1745649340465,0.0,84,,-0.06,0.08,0.97,2,-0,0,0.97,1.09,89,8569,8.0,1.89,,5.91,1.001,73.6,,40.0,5,,,,,,,,,,,,0,0,0,0,0,0,0,0,0,0,0,0,0,0,0,0,,,,,,0.0,,,,,,,
1103851,1745649340485,,,,,,,,,,,,,,,,,,,,,,,,,,,,,,,,,,0,0,0,0,0,0,0,0,0,0,0,0,0,0,0,0,,,,,,,,,,,,,
1103871,1745649340502,0.0,83,,-0.05,0.05,1.01,1,-0,0,1.01,1.09,93,8420,5.0,1.76,,6.14,1.033,73.6,,40.0,5,,,,,,,,,,,,0,0,0,0,0,0,0,0,0,0,0,0,0,0,0,0,,,,,,0.0,,,,,,,
1103891,1745649340522,,,,,,,,,,,,,,,,,,,,,,,0,91,0,0,0.0,24.0,0.0,0.0,2.26,,,0,0,0,0,0,0,0,0,0,0,0,0,0,0,0,0,,0,,,,,38.985794,-76.949982,0.08,49.1,30,3,0.8
1103911,1745649340542,0.0,84,,-0.05,0.04,0.98,1,-0,0,0.98,1.09,90,8138,2.2,1.4,,6.38,1.076,73.6,,39.9,5,,,,,,,,,,,,0,0,0,0,0,0,0,0,0,0,0,0,0,0,0,0,,,,,,0.0,,,,,,,
1103931,1745649340562,,,,,,,,,,,,,,,,,,,,,,,,,,,,,,,,,,0,0,0,0,0,0,0,0,0,0,0,0,0,0,0,0,,,,,,,,,,,,,
1103951,1745649340582,0.0,84,,-0.07,-0.11,1.01,1,-0,0,1.02,1.09,94,7693,0.0,1.4,,6.38,1.076,73.6,,39.9,5,,,,,,,,,,,,0,0,0,0,0,0,0,0,0,0,0,0,0,0,0,0,,,,,,0.0,,,,,,,
1103971,1745649340602,,,,,,,,,,,,,,,,,,,,,,,,,,,,,,,,,,0,0,0,0,0,0,0,0,0,0,0,0,0,0,0,0,,,,,,,,,,,,,
1103991,1745649340622,0.0,84,,-0.09,-0.16,0.97,0,-0,0,0.98,1.09,90,7693,0.0,1.4,,6.79,1.106,73.6,,39.7,5,0,49,0,0,0.0,0.0,0.0,0.0,2.26,,,0,0,0,0,0,0,0,0,0,0,0,0,0,0,0,0,,0,,,,0.0,38.985794,-76.949982,0.05,49.1,30,3,0.8
1104011,1745649340642,,,,,,,,,,,,,,,,,,,,,,,,,,,,,,,,,,0,0,0,0,0,0,0,0,0,0,0,0,0,0,0,0,,,,,,,,,,,,,
1104031,1745649340662,0.0,84,,-0.06,-0.12,0.97,0,-0,0,0.98,1.09,90,7131,0.0,1.4,,7.45,1.208,73.6,,39.7,5,,,,,,,,,,,,0,0,0,0,0,0,0,0,0,0,0,0,0,0,0,0,,,,,,0.0,,,,,,,
1104051,1745649340682,,,,,,,,,,,,,,,,,,,,,,,,,,,,,,,,,,0,0,0,0,0,0,0,0,0,0,0,0,0,0,0,0,,,,,,,,,,,,,
1104071,1745649340701,0.0,84,,-0.08,-0.1,0.95,-1,-0,0,0.95,1.09,88,6721,0.0,1.4,,8.21,1.254,73.6,,39.7,5,,,,,,,,,,,,0,0,0,0,0,0,0,0,0,0,0,0,0,0,0,0,,,,,,0.0,,,,,,,
1104091,1745649340721,,,,,,,,,,,,,,,,,,,,,,,0,6,0,0,0.0,24.0,0.0,0.0,2.26,,,0,0,0,0,0,0,0,0,0,0,0,0,0,0,0,0,,0,,,,,38.985794,-76.949982,0.08,49.1,30,3,0.8
1104111,1745649340741,0.0,84,,-0.05,-0.1,0.99,1,-0,-0,1.0,1.09,92,6230,0.0,1.4,,8.77,1.254,73.6,,39.6,5,,,,,,,,,,,,0,0,0,0,0,0,0,0,0,0,0,0,0,0,0,0,,,,,,0.0,,,,,,,
1104131,1745649340761,,,,,,,,,,,,,,,,,,,,,,,,,,,,,,,,,,0,0,0,0,0,0,0,0,0,0,0,0,0,0,0,0,,,,,,,,,,,,,
1104151,1745649340781,0.0,84,,-0.02,-0.05,1.04,2,-0,-0,1.04,1.09,95,5896,0.0,1.4,,8.77,1.254,75.4,,39.6,5,,,,,,,,,,,,0,0,0,0,0,0,0,0,0,0,0,0,0,0,0,0,,,,,,0.0,,,,,,,
1104171,1745649340805,,,,,,,,,,,,,,,,,,,,,,,,,,,,,,,,,,0,0,0,0,0,0,0,0,0,0,0,0,0,0,0,0,,,,,,,,,,,,,
1104191,1745649340825,0.0,84,,-0.05,-0.03,0.99,2,-0,-0,0.99,1.09,91,5896,0.0,1.4,,9.42,1.255,75.4,,38.0,5,0,24,0,0,0.0,0.0,0.0,0.0,2.26,,,0,0,0,0,0,0,0,0,0,0,0,0,0,0,0,0,,0,,,,0.0,38.985794,-76.949982,0.0,49.1,30,3,0.8
1104211,1745649340845,,,,,,,,,,,,,,,,,,,,,,,,,,,,,,,,,,0,0,0,0,0,0,0,0,0,0,0,0,0,0,0,0,,,,,,,,,,,,,
1104231,1745649340865,0.0,84,,-0.06,0.04,1.01,2,-0,-0,1.02,1.09,93,5461,0.0,1.4,,10.04,1.256,75.4,,38.0,5,,,,,,,,,,,,0,0,0,0,0,0,0,0,0,0,0,0,0,0,0,0,,,,,,0.0,,,,,,,
1104251,1745649340885,,,,,,,,,,,,,,,,,,,,,,,,,,,,,,,,,,0,0,0,0,0,0,0,0,0,0,0,0,0,0,0,0,,,,,,,,,,,,,
1104271,1745649340903,0.0,84,,-0.04,-0.05,0.96,2,-0,-1,0.97,1.09,89,5104,0.0,1.64,,10.66,1.256,75.4,,38.0,5,,,,,,,,,,,,0,0,0,0,0,0,0,0,0,0,0,0,0,0,0,0,,,,,,0.0,,,,,,,
1104291,1745649340923,,,,,,,,,,,,,,,,,,,,,,,0,3,0,0,0.0,0.0,0.0,0.0,2.26,,,0,0,0,0,0,0,0,0,0,0,0,0,0,0,0,0,,0,,,,,38.985794,-76.949982,0.08,49.1,30,3,0.8
1104311,1745649340943,0.0,84,,-0.0,0.08,1.07,2,-0,-0,1.07,1.09,98,4732,0.0,2.32,,11.21,1.255,75.4,,33.9,5,,,,,,,,,,,,0,0,0,0,0,0,0,0,0,0,0,0,0,0,0,0,,,,,,0.0,,,,,,,
1104331,1745649340963,,,,,,,,,,,,,,,,,,,,,,,,,,,,,,,,,,0,0,0,0,0,0,0,0,0,0,0,0,0,0,0,0,,,,,,,,,,,,,
1104351,1745649340983,0.0,84,,0.03,0.13,1.08,2,-0,-1,1.09,1.09,100,4342,0.0,2.44,,11.21,1.255,75.4,,33.9,5,,,,,,,,,,,,0,0,0,0,0,0,0,0,0,0,0,0,0,0,0,0,,,,,,0.0,,,,,,,
1104371,1745649340997,,,,,,,,,,,,,,,,,,,,,,,,,,,,,,,,,,0,0,0,0,0,0,0,0,0,0,0,0,0,0,0,0,,,,,,,,,,,,,
1104391,1745649341017,0.0,84,13.52,-0.0,0.02,1.04,2,-0,-1,1.04,1.09,95,4342,0.0,2.44,15,11.54,1.253,75.4,191,28.4,5,0,3,0,0,0.0,0.0,0.0,0.0,2.26,0,1.0,0,0,0,0,0,0,0,0,0,0,0,0,0,0,0,0,0,0,0.0,0,0,0.0,38.985794,-76.949982,0.07,49.1,30,3,0.8
1104411,1745649341037,,,,,,,,,,,,,,,,,,,,,,,,,,,,,,,,,,0,0,0,0,0,0,0,0,0,0,0,0,0,0,0,0,,,,,,,,,,,,,
1104431,1745649341057,0.0,84,,0.0,0.02,1.03,2,-0,-1,1.03,1.09,94,4041,0.0,2.48,,11.84,1.253,75.4,,28.4,5,,,,,,,,,,,,0,0,0,0,0,0,0,0,0,0,0,0,0,0,0,0,,,,,,0.0,,,,,,,
1104451,1745649341077,,,,,,,,,,,,,,,,,,,,,,,,,,,,,,,,,,0,0,0,0,0,0,0,0,0,0,0,0,0,0,0,0,,,,,,,,,,,,,
1104471,1745649341103,0.0,84,,0.01,0.09,1.05,1,-0,-0,1.05,1.09,97,3610,0.0,2.55,,12.09,1.254,75.4,,28.4,5,,,,,,,,,,,,0,0,0,0,0,0,0,0,0,0,0,0,0,0,0,0,,,,,,0.0,,,,,,,
1104491,1745649341123,,,,,,,,,,,,,,,,,,,,,,,0,3,0,0,0.0,24.0,0.0,0.0,2.26,,,0,0,0,0,0,0,0,0,0,0,0,0,0,0,0,0,,0,,,,,38.985794,-76.949982,0.11,49.1,30,3,0.8
1104511,1745649341143,0.0,84,,-0.01,0.05,1.0,2,-0,-1,1.0,1.09,92,3405,0.0,2.6,,12.55,1.253,75.4,,23.8,5,,,,,,,,,,,,0,0,0,0,0,0,0,0,0,0,0,0,0,0,0,0,,,,,,0.0,,,,,,,
1104531,1745649341163,,,,,,,,,,,,,,,,,,,,,,,,,,,,,,,,,,0,0,0,0,0,0,0,0,0,0,0,0,0,0,0,0,,,,,,,,,,,,,
1104551,1745649341183,0.0,84,,-0.01,0.09,0.94,2,-0,-1,0.95,1.09,87,3170,0.0,2.66,,12.55,1.253,75.4,,23.8,5,,,,,,,,,,,,0,0,0,0,0,0,0,0,0,0,0,0,0,0,0,0,,,,,,0.0,,,,,,,
1104571,1745649341205,,,,,,,,,,,,,,,,,,,,,,,,,,,,,,,,,,0,0,0,0,0,0,0,0,0,0,0,0,0,0,0,0,,,,,,,,,,,,,
1104591,1745649341225,0.0,84,,0.01,0.1,0.91,2,-0,-1,0.91,1.09,84,3170,0.0,2.66,,12.84,1.254,75.4,,20.6,5,0,9,0,0,0.0,24.0,0.0,0.0,2.26,,,0,0,0,0,0,0,0,0,0,0,0,0,0,0,0,0,,0,,,,0.0,38.985794,-76.949982,0.08,49.1,30,3,0.8
1104611,1745649341245,,,,,,,,,,,,,,,,,,,,,,,,,,,,,,,,,,0,0,0,0,0,0,0,0,0,0,0,0,0,0,0,0,,,,,,,,,,,,,
1104631,1745649341265,0.0,83,,0.0,0.1,0.9,2,-0,-1,0.91,1.09,83,2966,0.0,2.7,,13.24,1.255,75.4,,20.6,5,,,,,,,,,,,,0,0,0,0,0,0,0,0,0,0,0,0,0,0,0,0,,,,,,0.0,,,,,,,
1104651,1745649341285,,,,,,,,,,,,,,,,,,,,,,,,,,,,,,,,,,0,0,0,0,0,0,0,0,0,0,0,0,0,0,0,0,,,,,,,,,,,,,
1104671,1745649341303,0.0,83,,-0.01,0.09,0.92,2,-0,-1,0.92,1.09,85,2655,0.0,2.86,,13.68,1.254,75.4,,20.6,5,,,,,,,,,,,,0,0,0,0,0,0,0,0,0,0,0,0,0,0,0,0,,,,,,0.0,,,,,,,
1104691,1745649341323,,,,,,,,,,,,,,,,,,,,,,,0,9,0,0,0.0,24.0,0.0,0.0,2.26,,,0,0,0,0,0,0,0,0,0,0,0,0,0,0,0,0,,0,,,,,38.985794,-76.949982,0.07,49.1,30,3,0.8
1104711,1745649341343,0.0,83,,-0.02,0.07,0.94,2,-0,-0,0.94,1.09,86,2419,0.0,2.98,,13.92,1.254,75.4,,17.6,5,,,,,,,,,,,,0,0,0,0,0,0,0,0,0,0,0,0,0,0,0,0,,,,,,0.0,,,,,,,
1104731,1745649341363,,,,,,,,,,,,,,,,,,,,,,,,,,,,,,,,,,0,0,0,0,0,0,0,0,0,0,0,0,0,0,0,0,,,,,,,,,,,,,
1104751,1745649341383,0.0,83,,-0.03,0.06,0.94,1,-0,-0,0.94,1.09,87,2186,0.0,3.14,,13.92,1.254,75.4,,17.6,5,,,,,,,,,,,,0,0,0,0,0,0,0,0,0,0,0,0,0,0,0,0,,,,,,0.0,,,,,,,
1104771,1745649341403,,,,,,,,,,,,,,,,,,,,,,,,,,,,,,,,,,0,0,0,0,0,0,0,0,0,0,0,0,0,0,0,0,,,,,,,,,,,,,
1104791,1745649341423,0.0,83,,-0.04,0.04,0.94,1,-0,-0,0.94,1.09,86,2186,0.0,3.14,,14.06,1.255,75.4,,15.6,5,0,9,0,0,0.0,24.0,0.0,0.0,2.26,,,0,0,0,0,0,0,0,0,0,0,0,0,0,0,0,0,,0,,,,0.0,38.985794,-76.949982,0.04,49.1,30,3,0.8
1104811,1745649341443,,,,,,,,,,,,,,,,,,,,,,,,,,,,,,,,,,0,0,0,0,0,0,0,0,0,0,0,0,0,0,0,0,,,,,,,,,,,,,
1104831,1745649341463,0.0,83,,-0.03,0.03,0.95,1,-0,-0,0.95,1.09,87,2188,0.0,3.22,,14.12,1.256,75.4,,15.6,5,,,,,,,,,,,,0,0,0,0,0,0,0,0,0,0,0,0,0,0,0,0,,,,,,0.0,,,,,,,
1104851,1745649341483,,,,,,,,,,,,,,,,,,,,,,,,,,,,,,,,,,0,0,0,0,0,0,0,0,0,0,0,0,0,0,0,0,,,,,,,,,,,,,
1104871,1745649341505,0.0,83,,-0.03,0.02,0.95,1,-0,-0,0.95,1.09,87,2073,0.0,3.32,,14.14,1.255,75.4,,15.6,5,,,,,,,,,,,,0,0,0,0,0,0,0,0,0,0,0,0,0,0,0,0,,,,,,0.0,,,,,,,
1104891,1745649341525,,,,,,,,,,,,,,,,,,,,,,,0,9,0,0,0.0,24.0,0.0,0.0,2.27,,,0,0,0,0,0,0,0,0,0,0,0,0,0,0,0,0,,0,,,,,38.985794,-76.949982,0.04,49.1,30,3,0.8
1104911,1745649341545,0.0,83,,-0.04,0.01,0.95,1,-0,-0,0.95,1.09,87,1966,0.0,3.34,,14.24,1.255,75.4,,14.3,5,,,,,,,,,,,,0,0,0,0,0,0,0,0,0,0,0,0,0,0,0,0,,,,,,0.0,,,,,,,
1104931,1745649341565,,,,,,,,,,,,,,,,,,,,,,,,,,,,,,,,,,0,0,0,0,0,0,0,0,0,0,0,0,0,0,0,0,,,,,,,,,,,,,
1104951,1745649341585,0.0,83,,-0.04,-0.01,0.95,1,-0,-0,0.95,1.09,87,1815,0.0,3.34,,14.24,1.255,75.4,,14.3,5,,,,,,,,,,,,0,0,0,0,0,0,0,0,0,0,0,0,0,0,0,0,,,,,,0.0,,,,,,,
1104971,1745649341605,,,,,,,,,,,,,,,,,,,,,,,,,,,,,,,,,,0,0,0,0,0,0,0,0,0,0,0,0,0,0,0,0,,,,,,,,,,,,,
1104991,1745649341625,0.0,83,,-0.05,-0.0,0.97,1,-0,-0,0.97,1.09,89,1815,0.0,3.34,,14.31,1.255,75.4,,14.1,5,0,9,0,0,0.0,24.0,0.0,0.0,2.26,,,0,0,0,0,0,0,0,0,0,0,0,0,0,0,0,0,,0,,,,0.0,38.985794,-76.949982,0.04,49.1,30,3,0.8
1105011,1745649341645,,,,,,,,,,,,,,,,,,,,,,,,,,,,,,,,,,0,0,0,0,0,0,0,0,0,0,0,0,0,0,0,0,,,,,,,,,,,,,
1105031,1745649341665,0.0,83,,-0.05,-0.01,0.96,1,-0,-0,0.96,1.09,89,1833,0.0,3.34,,14.3,1.255,75.4,,14.1,5,,,,,,,,,,,,0,0,0,0,0,0,0,0,0,0,0,0,0,0,0,0,,,,,,0.0,,,,,,,
1105051,1745649341685,,,,,,,,,,,,,,,,,,,,,,,,,,,,,,,,,,0,0,0,0,0,0,0,0,0,0,0,0,0,0,0,0,,,,,,,,,,,,,
1105071,1745649341704,0.0,83,,-0.06,-0.01,0.98,1,-0,-0,0.98,1.09,90,1949,0.0,3.35,,14.4,1.255,75.4,,14.1,5,,,,,,,,,,,,0,0,0,0,0,0,0,0,0,0,0,0,0,0,0,0,,,,,,0.0,,,,,,,
1105091,1745649341724,,,,,,,,,,,,,,,,,,,,,,,0,9,0,0,0.0,24.0,0.0,0.0,2.27,,,0,0,0,0,0,0,0,0,0,0,0,0,0,0,0,0,,0,,,,,38.985794,-76.949982,0.1,49.1,30,3,0.8
1105111,1745649341744,0.0,83,,-0.04,-0.01,0.97,1,-0,-0,0.97,1.09,90,1929,0.0,3.36,,14.44,1.255,75.4,,13.6,5,,,,,,,,,,,,0,0,0,0,0,0,0,0,0,0,0,0,0,0,0,0,,,,,,0.0,,,,,,,
1105131,1745649341764,,,,,,,,,,,,,,,,,,,,,,,,,,,,,,,,,,0,0,0,0,0,0,0,0,0,0,0,0,0,0,0,0,,,,,,,,,,,,,
1105151,1745649341784,0.0,83,,-0.05,-0.02,0.98,1,-0,-0,0.98,1.09,90,1794,0.0,3.36,,14.44,1.255,77.2,,13.6,5,,,,,,,,,,,,0,0,0,0,0,0,0,0,0,0,0,0,0,0,0,0,,,,,,0.0,,,,,,,
1105171,1745649341804,,,,,,,,,,,,,,,,,,,,,,,,,,,,,,,,,,0,0,0,0,0,0,0,0,0,0,0,0,0,0,0,0,,,,,,,,,,,,,
1105191,1745649341824,0.0,84,,-0.04,-0.02,0.98,1,-0,-0,0.98,1.09,90,1794,0.0,3.36,,14.4,1.255,77.2,,14.0,5,0,9,0,0,0.0,24.0,0.0,0.0,2.26,,,0,0,0,0,0,0,0,0,0,0,0,0,0,0,0,0,,0,,,,0.0,38.985794,-76.949982,0.04,49.1,30,3,0.8
1105211,1745649341844,,,,,,,,,,,,,,,,,,,,,,,,,,,,,,,,,,0,0,0,0,0,0,0,0,0,0,0,0,0,0,0,0,,,,,,,,,,,,,
1105231,1745649341864,0.0,83,,-0.04,-0.01,0.98,1,-0,-0,0.98,1.09,90,1847,0.0,3.36,,14.44,1.255,77.2,,14.0,5,,,,,,,,,,,,0,0,0,0,0,0,0,0,0,0,0,0,0,0,0,0,,,,,,0.0,,,,,,,
1105251,1745649341884,,,,,,,,,,,,,,,,,,,,,,,,,,,,,,,,,,0,0,0,0,0,0,0,0,0,0,0,0,0,0,0,0,,,,,,,,,,,,,
1105271,1745649341904,0.0,83,,-0.04,-0.02,0.99,0,-0,-0,0.99,1.09,91,1796,0.0,3.36,,14.44,1.255,77.2,,14.0,5,,,,,,,,,,,,0,0,0,0,0,0,0,0,0,0,0,0,0,0,0,0,,,,,,0.0,,,,,,,
1105291,1745649341924,,,,,,,,,,,,,,,,,,,,,,,0,9,0,0,0.0,0.0,0.0,0.0,2.26,,,0,0,0,0,0,0,0,0,0,0,0,0,0,0,0,0,,0,,,,,38.985794,-76.949982,0.04,49.1,30,3,0.8
1105311,1745649341944,0.0,83,,-0.05,-0.02,0.99,0,-0,-0,0.99,1.09,91,1937,0.0,3.36,,14.43,1.255,77.2,,13.5,5,,,,,,,,,,,,0,0,0,0,0,0,0,0,0,0,0,0,0,0,0,0,,,,,,0.0,,,,,,,
1105331,1745649341964,,,,,,,,,,,,,,,,,,,,,,,,,,,,,,,,,,0,0,0,0,0,0,0,0,0,0,0,0,0,0,0,0,,,,,,,,,,,,,
1105351,1745649341984,0.0,83,,-0.05,-0.01,1.0,0,-0,0,1.0,1.09,92,1994,0.0,3.36,,14.43,1.255,77.2,,13.5,5,,,,,,,,,,,,0,0,0,0,0,0,0,0,0,0,0,0,0,0,0,0,,,,,,0.0,,,,,,,
1105371,1745649341998,,,,,,,,,,,,,,,,,,,,,,,,,,,,,,,,,,0,0,0,0,0,0,0,0,0,0,0,0,0,0,0,0,,,,,,,,,,,,,
1105391,1745649342018,0.0,83,13.55,-0.06,-0.01,0.98,0,-0,0,0.99,1.09,91,1994,0.0,3.36,15,14.44,1.256,77.2,191,13.7,5,0,0,0,0,0.0,0.0,0.0,0.0,2.26,0,1.0,0,0,0,0,0,0,0,0,0,0,0,0,0,0,0,0,0,0,0.0,0,0,0.0,38.985794,-76.949982,0.04,49.1,30,3,0.8
1105411,1745649342038,,,,,,,,,,,,,,,,,,,,,,,,,,,,,,,,,,0,0,0,0,0,0,0,0,0,0,0,0,0,0,0,0,,,,,,,,,,,,,
1105431,1745649342058,0.0,83,,-0.06,-0.03,1.0,0,-0,0,1.0,1.09,92,1890,0.0,3.35,,14.42,1.255,77.2,,13.7,5,,,,,,,,,,,,0,0,0,0,0,0,0,0,0,0,0,0,0,0,0,0,,,,,,0.0,,,,,,,
1105451,1745649342078,,,,,,,,,,,,,,,,,,,,,,,,,,,,,,,,,,0,0,0,0,0,0,0,0,0,0,0,0,0,0,0,0,,,,,,,,,,,,,
1105471,1745649342104,0.0,83,,-0.06,-0.02,1.0,0,-0,0,1.0,1.09,92,1876,0.0,3.35,,14.42,1.254,77.2,,13.7,5,,,,,,,,,,,,0,0,0,0,0,0,0,0,0,0,0,0,0,0,0,0,,,,,,0.0,,,,,,,
1105491,1745649342124,,,,,,,,,,,,,,,,,,,,,,,0,0,0,0,0.0,0.0,0.0,0.0,2.26,,,0,0,0,0,0,0,0,0,0,0,0,0,0,0,0,0,,0,,,,,38.985794,-76.949982,0.07,49.1,30,3,0.8
1105511,1745649342144,0.0,83,,-0.04,-0.02,1.01,0,-0,0,1.01,1.09,93,1940,0.0,3.36,,14.47,1.255,77.2,,14.0,5,,,,,,,,,,,,0,0,0,0,0,0,0,0,0,0,0,0,0,0,0,0,,,,,,0.0,,,,,,,
1105531,1745649342164,,,,,,,,,,,,,,,,,,,,,,,,,,,,,,,,,,0,0,0,0,0,0,0,0,0,0,0,0,0,0,0,0,,,,,,,,,,,,,
1105551,1745649342184,0.0,83,,-0.05,-0.03,1.0,0,-0,0,1.0,1.09,92,1974,0.0,3.36,,14.47,1.255,77.2,,14.0,5,,,,,,,,,,,,0,0,0,0,0,0,0,0,0,0,0,0,0,0,0,0,,,,,,0.0,,,,,,,
1105571,1745649342202,,,,,,,,,,,,,,,,,,,,,,,,,,,,,,,,,,0,0,0,0,0,0,0,0,0,0,0,0,0,0,0,0,,,,,,,,,,,,,
1105591,1745649342222,0.0,83,,-0.04,-0.03,1.0,0,-0,0,1.0,1.09,92,1974,0.0,3.36,,14.48,1.254,77.2,,14.0,5,0,0,0,0,0.0,0.0,0.0,0.0,2.27,,,0,0,0,0,0,0,0,0,0,0,0,0,0,0,0,0,,0,,,,0.0,38.985794,-76.949982,0.04,49.1,30,3,0.8
1105611,1745649342242,,,,,,,,,,,,,,,,,,,,,,,,,,,,,,,,,,0,0,0,0,0,0,0,0,0,0,0,0,0,0,0,0,,,,,,,,,,,,,
1105631,1745649342262,0.0,83,,-0.05,-0.03,0.99,0,-0,0,0.99,1.09,91,1964,0.0,3.36,,14.51,1.255,77.2,,14.0,5,,,,,,,,,,,,0,0,0,0,0,0,0,0,0,0,0,0,0,0,0,0,,,,,,0.0,,,,,,,
1105651,1745649342282,,,,,,,,,,,,,,,,,,,,,,,,,,,,,,,,,,0,0,0,0,0,0,0,0,0,0,0,0,0,0,0,0,,,,,,,,,,,,,
1105671,1745649342304,0.0,84,,-0.05,-0.04,1.0,0,-0,0,1.0,1.09,92,1806,0.0,3.36,,14.55,1.255,77.2,,14.0,5,,,,,,,,,,,,0,0,0,0,0,0,0,0,0,0,0,0,0,0,0,0,,,,,,0.0,,,,,,,
1105691,1745649342324,,,,,,,,,,,,,,,,,,,,,,,0,0,0,0,0.0,0.0,0.0,0.0,2.26,,,0,0,0,0,0,0,0,0,0,0,0,0,0,0,0,0,,0,,,,,38.985794,-76.949982,0.08,49.1,30,3,0.8
1105711,1745649342344,0.0,83,,-0.05,-0.03,0.98,0,-0,0,0.99,1.09,91,1782,0.0,3.36,,14.55,1.255,77.2,,13.7,5,,,,,,,,,,,,0,0,0,0,0,0,0,0,0,0,0,0,0,0,0,0,,,,,,0.0,,,,,,,
1105731,1745649342364,,,,,,,,,,,,,,,,,,,,,,,,,,,,,,,,,,0,0,0,0,0,0,0,0,0,0,0,0,0,0,0,0,,,,,,,,,,,,,
1105751,1745649342384,0.0,83,,-0.05,-0.04,1.0,0,-0,0,1.0,1.09,92,1956,0.0,3.36,,14.55,1.255,77.2,,13.7,5,,,,,,,,,,,,0,0,0,0,0,0,0,0,0,0,0,0,0,0,0,0,,,,,,0.0,,,,,,,
1105771,1745649342404,,,,,,,,,,,,,,,,,,,,,,,,,,,,,,,,,,0,0,0,0,0,0,0,0,0,0,0,0,0,0,0,0,,,,,,,,,,,,,
1105791,1745649342424,0.0,83,,-0.05,-0.05,0.99,0,-0,0,0.99,1.09,91,1956,0.0,3.36,,14.4,1.255,77.2,,13.9,5,0,0,0,0,0.0,0.0,0.0,0.0,2.26,,,0,0,0,0,0,0,0,0,0,0,0,0,0,0,0,0,,0,,,,0.0,38.985794,-76.949982,0.04,49.1,30,3,0.8
1105811,1745649342444,,,,,,,,,,,,,,,,,,,,,,,,,,,,,,,,,,0,0,0,0,0,0,0,0,0,0,0,0,0,0,0,0,,,,,,,,,,,,,
1105831,1745649342464,0.0,83,,-0.05,-0.04,1.01,0,-0,0,1.01,1.09,93,1941,0.0,3.35,,14.3,1.256,77.2,,13.9,5,,,,,,,,,,,,0,0,0,0,0,0,0,0,0,0,0,0,0,0,0,0,,,,,,0.0,,,,,,,
1105851,1745649342484,,,,,,,,,,,,,,,,,,,,,,,,,,,,,,,,,,0,0,0,0,0,0,0,0,0,0,0,0,0,0,0,0,,,,,,,,,,,,,
1105871,1745649342504,0.0,83,,-0.05,-0.04,1.0,0,-0,0,1.0,1.09,92,1789,0.0,3.35,,14.23,1.256,77.2,,13.9,5,,,,,,,,,,,,0,0,0,0,0,0,0,0,0,0,0,0,0,0,0,0,,,,,,0.0,,,,,,,
1105891,1745649342524,,,,,,,,,,,,,,,,,,,,,,,0,0,0,0,0.0,0.0,0.0,0.0,2.26,,,0,0,0,0,0,0,0,0,0,0,0,0,0,0,0,0,,0,,,,,38.985794,-76.949982,0.04,49.1,30,3,0.8
1105911,1745649342544,0.0,83,,-0.03,-0.03,1.0,0,-0,0,1.01,1.09,92,1781,0.0,3.34,,14.26,1.256,77.2,,13.7,5,,,,,,,,,,,,0,0,0,0,0,0,0,0,0,0,0,0,0,0,0,0,,,,,,0.0,,,,,,,
1105931,1745649342564,,,,,,,,,,,,,,,,,,,,,,,,,,,,,,,,,,0,0,0,0,0,0,0,0,0,0,0,0,0,0,0,0,,,,,,,,,,,,,
1105951,1745649342584,0.0,84,,-0.04,-0.04,0.99,0,-0,0,0.99,1.09,91,1877,0.0,3.34,,14.26,1.256,77.2,,13.7,5,,,,,,,,,,,,0,0,0,0,0,0,0,0,0,0,0,0,0,0,0,0,,,,,,0.0,,,,,,,
1105971,1745649342606,,,,,,,,,,,,,,,,,,,,,,,,,,,,,,,,,,0,0,0,0,0,0,0,0,0,0,0,0,0,0,0,0,,,,,,,,,,,,,
1105991,1745649342626,0.0,83,,-0.04,-0.05,0.99,0,-0,0,1.0,1.09,91,1877,0.0,3.34,,14.2,1.255,77.2,,13.9,5,0,2,0,0,0.0,0.0,0.0,0.0,2.26,,,0,0,0,0,0,0,0,0,0,0,0,0,0,0,0,0,,0,,,,0.0,38.985794,-76.949982,0.08,49.1,30,3,0.8
1106011,1745649342646,,,,,,,,,,,,,,,,,,,,,,,,,,,,,,,,,,0,0,0,0,0,0,0,0,0,0,0,0,0,0,0,0,,,,,,,,,,,,,
1106031,1745649342666,0.0,83,,-0.05,-0.02,0.98,0,-0,0,0.98,1.09,90,1924,0.0,3.35,,14.36,1.255,77.2,,13.9,5,,,,,,,,,,,,0,0,0,0,0,0,0,0,0,0,0,0,0,0,0,0,,,,,,0.0,,,,,,,
1106051,1745649342686,,,,,,,,,,,,,,,,,,,,,,,,,,,,,,,,,,0,0,0,0,0,0,0,0,0,0,0,0,0,0,0,0,,,,,,,,,,,,,
1106071,1745649342703,0.0,83,,-0.03,-0.03,0.98,0,-0,0,0.98,1.09,90,1824,0.0,3.35,,14.48,1.254,77.2,,13.9,5,,,,,,,,,,,,0,0,0,0,0,0,0,0,0,0,0,0,0,0,0,0,,,,,,0.0,,,,,,,
1106091,1745649342723,,,,,,,,,,,,,,,,,,,,,,,0,1,0,0,0.0,0.0,0.0,0.0,2.26,,,0,0,0,0,0,0,0,0,0,0,0,0,0,0,0,0,,0,,,,,38.985794,-76.949982,0.04,49.1,30,3,0.8
1106111,1745649342743,0.0,83,,-0.02,-0.03,0.99,0,-0,0,0.99,1.09,91,1570,0.0,3.36,,14.44,1.255,77.2,,12.7,5,,,,,,,,,,,,0,0,0,0,0,0,0,0,0,0,0,0,0,0,0,0,,,,,,0.0,,,,,,,
1106131,1745649342763,,,,,,,,,,,,,,,,,,,,,,,,,,,,,,,,,,0,0,0,0,0,0,0,0,0,0,0,0,0,0,0,0,,,,,,,,,,,,,
1106151,1745649342783,0.0,83,,-0.03,-0.02,0.98,0,-0,0,0.98,1.09,90,1825,0.0,3.35,,14.44,1.255,77.2,,12.7,5,,,,,,,,,,,,0,0,0,0,0,0,0,0,0,0,0,0,0,0,0,0,,,,,,0.0,,,,,,,
1106171,1745649342806,,,,,,,,,,,,,,,,,,,,,,,,,,,,,,,,,,0,0,0,0,0,0,0,0,0,0,0,0,0,0,0,0,,,,,,,,,,,,,
1106191,1745649342826,0.0,83,,-0.03,-0.03,0.99,0,-0,0,0.99,1.09,91,1825,0.0,3.35,,14.47,1.255,77.2,,13.8,5,0,3,0,0,0.0,0.0,0.0,0.0,2.26,,,0,0,0,0,0,0,0,0,0,0,0,0,0,0,0,0,,0,,,,0.0,38.985794,-76.949982,0.08,49.1,30,3,0.8
1106211,1745649342846,,,,,,,,,,,,,,,,,,,,,,,,,,,,,,,,,,0,0,0,0,0,0,0,0,0,0,0,0,0,0,0,0,,,,,,,,,,,,,
1106231,1745649342866,0.0,83,,-0.04,-0.05,0.99,0,-0,0,0.99,1.09,91,1900,0.0,3.36,,14.46,1.254,77.2,,13.8,5,,,,,,,,,,,,0,0,0,0,0,0,0,0,0,0,0,0,0,0,0,0,,,,,,0.0,,,,,,,
1106251,1745649342886,,,,,,,,,,,,,,,,,,,,,,,,,,,,,,,,,,0,0,0,0,0,0,0,0,0,0,0,0,0,0,0,0,,,,,,,,,,,,,
1106271,1745649342903,0.0,83,,-0.03,-0.05,0.99,0,-0,0,1.0,1.09,91,1943,0.0,3.36,,14.43,1.255,77.2,,13.8,5,,,,,,,,,,,,0,0,0,0,0,0,0,0,0,0,0,0,0,0,0,0,,,,,,0.0,,,,,,,
1106291,1745649342923,,,,,,,,,,,,,,,,,,,,,,,0,5,0,0,0.0,0.0,0.0,0.0,2.26,,,0,0,0,0,0,0,0,0,0,0,0,0,0,0,0,0,,0,,,,,38.985794,-76.949982,0.05,49.1,30,3,0.8
1106311,1745649342943,0.0,83,,-0.04,-0.04,1.0,0,-0,0,1.0,1.09,92,1839,0.0,3.35,,14.42,1.254,77.2,,13.6,5,,,,,,,,,,,,0,0,0,0,0,0,0,0,0,0,0,0,0,0,0,0,,,,,,0.0,,,,,,,
1106331,1745649342963,,,,,,,,,,,,,,,,,,,,,,,,,,,,,,,,,,0,0,0,0,0,0,0,0,0,0,0,0,0,0,0,0,,,,,,,,,,,,,
1106351,1745649342983,0.0,83,,-0.03,-0.05,1.0,0,-0,0,1.01,1.09,92,1878,0.0,3.35,,14.42,1.254,77.2,,13.6,5,,,,,,,,,,,,0,0,0,0,0,0,0,0,0,0,0,0,0,0,0,0,,,,,,0.0,,,,,,,
1106371,1745649342997,,,,,,,,,,,,,,,,,,,,,,,,,,,,,,,,,,0,0,0,0,0,0,0,0,0,0,0,0,0,0,0,0,,,,,,,,,,,,,
1106391,1745649343017,0.0,83,13.53,-0.04,-0.05,0.99,0,-0,0,0.99,1.09,91,1878,0.0,3.35,15,14.4,1.256,77.2,187,14.4,5,0,5,0,0,0.0,0.0,0.0,0.0,2.26,0,1.0,0,0,0,0,0,0,0,0,0,0,0,0,0,0,0,0,0,0,0.0,0,0,0.0,38.985794,-76.949982,0.0,49.1,30,3,0.8
1106411,1745649343037,,,,,,,,,,,,,,,,,,,,,,,,,,,,,,,,,,0,0,0,0,0,0,0,0,0,0,0,0,0,0,0,0,,,,,,,,,,,,,
1106431,1745649343057,0.0,83,,-0.02,-0.04,1.0,0,-0,0,1.0,1.09,92,1982,0.0,3.35,,14.42,1.257,77.2,,14.4,5,,,,,,,,,,,,0,0,0,0,0,0,0,0,0,0,0,0,0,0,0,0,,,,,,0.0,,,,,,,
1106451,1745649343077,,,,,,,,,,,,,,,,,,,,,,,,,,,,,,,,,,0,0,0,0,0,0,0,0,0,0,0,0,0,0,0,0,,,,,,,,,,,,,
1106471,1745649343101,0.0,83,,-0.03,-0.05,0.98,0,-0,0,0.98,1.09,90,1952,0.0,3.36,,14.46,1.255,77.2,,14.4,5,,,,,,,,,,,,0,0,0,0,0,0,0,0,0,0,0,0,0,0,0,0,,,,,,0.0,,,,,,,
1106491,1745649343121,,,,,,,,,,,,,,,,,,,,,,,0,1,0,0,0.0,0.0,0.0,0.0,2.26,,,0,0,0,0,0,0,0,0,0,0,0,0,0,0,0,0,,0,,,,,38.985794,-76.949982,0.0,49.2,30,3,0.8
1106511,1745649343141,0.0,83,,-0.03,-0.06,0.98,0,-0,-0,0.98,1.09,90,1996,0.0,3.36,,14.47,1.254,77.2,,13.8,5,,,,,,,,,,,,0,0,0,0,0,0,0,0,0,0,0,0,0,0,0,0,,,,,,0.0,,,,,,,
1106531,1745649343161,,,,,,,,,,,,,,,,,,,,,,,,,,,,,,,,,,0,0,0,0,0,0,0,0,0,0,0,0,0,0,0,0,,,,,,,,,,,,,
1106551,1745649343181,0.0,83,,-0.04,-0.05,0.98,0,-0,0,0.98,1.09,90,1861,0.0,3.36,,14.47,1.254,77.2,,13.8,5,,,,,,,,,,,,0,0,0,0,0,0,0,0,0,0,0,0,0,0,0,0,,,,,,0.0,,,,,,,
1106571,1745649343203,,,,,,,,,,,,,,,,,,,,,,,,,,,,,,,,,,0,0,0,0,0,0,0,0,0,0,0,0,0,0,0,0,,,,,,,,,,,,,
1106591,1745649343223,0.0,83,,-0.05,-0.04,0.98,0,-0,0,0.99,1.09,90,1861,0.0,3.36,,14.52,1.254,77.2,,14.2,5,0,16,0,0,0.0,0.0,0.0,0.0,2.26,,,0,0,0,0,0,0,0,0,0,0,0,0,0,0,0,0,,0,,,,0.0,38.985794,-76.949982,0.05,49.2,30,3,0.8
1106611,1745649343243,,,,,,,,,,,,,,,,,,,,,,,,,,,,,,,,,,0,0,0,0,0,0,0,0,0,0,0,0,0,0,0,0,,,,,,,,,,,,,
1106631,1745649343263,0.0,83,,-0.04,-0.03,0.99,0,-0,0,0.99,1.09,91,1876,0.0,3.36,,14.56,1.255,77.2,,14.2,5,,,,,,,,,,,,0,0,0,0,0,0,0,0,0,0,0,0,0,0,0,0,,,,,,0.0,,,,,,,
1106651,1745649343283,,,,,,,,,,,,,,,,,,,,,,,,,,,,,,,,,,0,0,0,0,0,0,0,0,0,0,0,0,0,0,0,0,,,,,,,,,,,,,
1106671,1745649343303,0.0,83,,-0.05,-0.03,1.0,0,-0,0,1.0,1.09,92,1919,0.0,3.36,,14.32,1.255,77.2,,14.2,5,,,,,,,,,,,,0,0,0,0,0,0,0,0,0,0,0,0,0,0,0,0,,,,,,0.0,,,,,,,
1106691,1745649343323,,,,,,,,,,,,,,,,,,,,,,,0,2,0,0,0.0,0.0,0.0,0.0,2.26,,,0,0,0,0,0,0,0,0,0,0,0,0,0,0,0,0,,0,,,,,38.985794,-76.949982,0.04,49.2,30,3,0.8
1106711,1745649343343,0.0,83,,-0.04,-0.02,1.0,0,-0,0,1.0,1.09,92,1957,0.0,3.35,,14.16,1.255,77.2,,13.5,5,,,,,,,,,,,,0,0,0,0,0,0,0,0,0,0,0,0,0,0,0,0,,,,,,0.0,,,,,,,
1106731,1745649343363,,,,,,,,,,,,,,,,,,,,,,,,,,,,,,,,,,0,0,0,0,0,0,0,0,0,0,0,0,0,0,0,0,,,,,,,,,,,,,
1106751,1745649343383,0.0,83,,-0.04,-0.01,1.01,0,-0,0,1.01,1.09,92,2013,0.0,3.34,,14.16,1.255,77.2,,13.5,5,,,,,,,,,,,,0,0,0,0,0,0,0,0,0,0,0,0,0,0,0,0,,,,,,0.0,,,,,,,
1106771,1745649343405,,,,,,,,,,,,,,,,,,,,,,,,,,,,,,,,,,0,0,0,0,0,0,0,0,0,0,0,0,0,0,0,0,,,,,,,,,,,,,
1106791,1745649343425,0.0,83,,-0.03,-0.02,1.02,0,-0,0,1.02,1.09,94,2013,0.0,3.34,,14.12,1.255,77.2,,14.0,5,0,8,0,0,0.0,24.0,0.0,0.0,2.26,,,0,0,0,0,0,0,0,0,0,0,0,0,0,0,0,0,,0,,,,0.0,38.985794,-76.949982,0.05,49.2,30,3,0.8
1106811,1745649343445,,,,,,,,,,,,,,,,,,,,,,,,,,,,,,,,,,0,0,0,0,0,0,0,0,0,0,0,0,0,0,0,0,,,,,,,,,,,,,
1106831,1745649343465,0.0,83,,-0.04,-0.03,1.0,0,-0,0,1.0,1.09,92,1935,0.0,3.33,,14.3,1.255,77.2,,14.0,5,,,,,,,,,,,,0,0,0,0,0,0,0,0,0,0,0,0,0,0,0,0,,,,,,0.0,,,,,,,
1106851,1745649343485,,,,,,,,,,,,,,,,,,,,,,,,,,,,,,,,,,0,0,0,0,0,0,0,0,0,0,0,0,0,0,0,0,,,,,,,,,,,,,
1106871,1745649343505,0.0,83,,-0.03,-0.02,1.0,0,-0,0,1.0,1.09,92,1859,0.0,3.35,,14.52,1.255,77.2,,14.0,5,,,,,,,,,,,,0,0,0,0,0,0,0,0,0,0,0,0,0,0,0,0,,,,,,0.0,,,,,,,
1106891,1745649343525,,,,,,,,,,,,,,,,,,,,,,,0,8,0,0,0.0,24.0,0.0,0.0,2.26,,,0,0,0,0,0,0,0,0,0,0,0,0,0,0,0,0,,0,,,,,38.985794,-76.949982,0.04,49.2,30,3,0.8
1106911,1745649343545,0.0,83,,-0.02,-0.01,1.0,0,-0,0,1.0,1.09,92,1992,0.0,3.36,,14.48,1.256,77.2,,14.3,5,,,,,,,,,,,,0,0,0,0,0,0,0,0,0,0,0,0,0,0,0,0,,,,,,0.0,,,,,,,
1106931,1745649343565,,,,,,,,,,,,,,,,,,,,,,,,,,,,,,,,,,0,0,0,0,0,0,0,0,0,0,0,0,0,0,0,0,,,,,,,,,,,,,
1106951,1745649343585,0.0,83,,-0.03,-0.01,0.99,0,-0,-0,1.0,1.09,91,1965,0.0,3.35,,14.48,1.256,77.2,,14.3,5,,,,,,,,,,,,0,0,0,0,0,0,0,0,0,0,0,0,0,0,0,0,,,,,,0.0,,,,,,,
1106971,1745649343606,,,,,,,,,,,,,,,,,,,,,,,,,,,,,,,,,,0,0,0,0,0,0,0,0,0,0,0,0,0,0,0,0,,,,,,,,,,,,,
1106991,1745649343626,0.0,83,,-0.04,-0.01,0.99,0,-0,0,0.99,1.09,91,1965,0.0,3.35,,14.47,1.255,77.2,,13.5,5,0,8,0,0,0.0,0.0,0.0,0.0,2.26,,,0,0,0,0,0,0,0,0,0,0,0,0,0,0,0,0,,0,,,,0.0,38.985794,-76.949982,0.05,49.2,30,3,0.8
1107011,1745649343646,,,,,,,,,,,,,,,,,,,,,,,,,,,,,,,,,,0,0,0,0,0,0,0,0,0,0,0,0,0,0,0,0,,,,,,,,,,,,,
1107031,1745649343666,0.0,83,,-0.05,-0.0,0.99,0,-0,-0,1.0,1.09,91,1978,0.0,3.36,,14.44,1.254,77.2,,13.5,5,,,,,,,,,,,,0,0,0,0,0,0,0,0,0,0,0,0,0,0,0,0,,,,,,0.0,,,,,,,
1107051,1745649343686,,,,,,,,,,,,,,,,,,,,,,,,,,,,,,,,,,0,0,0,0,0,0,0,0,0,0,0,0,0,0,0,0,,,,,,,,,,,,,
1107071,1745649343704,0.0,83,,-0.04,-0.01,1.0,0,-0,0,1.0,1.09,92,1856,0.0,3.36,,14.4,1.253,77.2,,13.5,5,,,,,,,,,,,,0,0,0,0,0,0,0,0,0,0,0,0,0,0,0,0,,,,,,0.0,,,,,,,
1107091,1745649343724,,,,,,,,,,,,,,,,,,,,,,,0,3,0,0,0.0,0.0,0.0,0.0,2.27,,,0,0,0,0,0,0,0,0,0,0,0,0,0,0,0,0,,0,,,,,38.985794,-76.949982,0.04,49.2,30,3,0.8
1107111,1745649343744,0.0,83,,-0.05,-0.02,0.99,0,-0,0,0.99,1.09,91,1923,0.0,3.32,,14.22,1.254,77.2,,14.3,5,,,,,,,,,,,,0,0,0,0,0,0,0,0,0,0,0,0,0,0,0,0,,,,,,0.0,,,,,,,
1107131,1745649343764,,,,,,,,,,,,,,,,,,,,,,,,,,,,,,,,,,0,0,0,0,0,0,0,0,0,0,0,0,0,0,0,0,,,,,,,,,,,,,
1107151,1745649343784,0.0,83,,-0.05,-0.03,1.0,0,-0,0,1.0,1.09,92,1982,0.0,3.34,,14.22,1.254,77.2,,14.3,5,,,,,,,,,,,,0,0,0,0,0,0,0,0,0,0,0,0,0,0,0,0,,,,,,0.0,,,,,,,
1107171,1745649343804,,,,,,,,,,,,,,,,,,,,,,,,,,,,,,,,,,0,0,0,0,0,0,0,0,0,0,0,0,0,0,0,0,,,,,,,,,,,,,
1107191,1745649343824,0.0,83,,-0.06,-0.04,1.0,0,-0,0,1.0,1.09,92,1982,0.0,3.34,,14.03,1.254,77.2,,14.4,5,0,3,0,0,0.0,0.0,0.0,0.0,2.26,,,0,0,0,0,0,0,0,0,0,0,0,0,0,0,0,0,,0,,,,0.0,38.985794,-76.949982,0.05,49.2,30,3,0.8
1107211,1745649343844,,,,,,,,,,,,,,,,,,,,,,,,,,,,,,,,,,0,0,0,0,0,0,0,0,0,0,0,0,0,0,0,0,,,,,,,,,,,,,
1107231,1745649343864,0.0,83,,-0.07,-0.02,1.0,0,-0,0,1.0,1.09,92,2038,0.0,3.33,,14.14,1.255,77.2,,14.4,5,,,,,,,,,,,,0,0,0,0,0,0,0,0,0,0,0,0,0,0,0,0,,,,,,0.0,,,,,,,
1107251,1745649343884,,,,,,,,,,,,,,,,,,,,,,,,,,,,,,,,,,0,0,0,0,0,0,0,0,0,0,0,0,0,0,0,0,,,,,,,,,,,,,
1107271,1745649343904,0.0,83,,-0.07,-0.03,1.02,0,-0,0,1.02,1.09,94,2033,0.0,3.35,,14.48,1.254,77.2,,14.4,5,,,,,,,,,,,,0,0,0,0,0,0,0,0,0,0,0,0,0,0,0,0,,,,,,0.0,,,,,,,
1107291,1745649343924,,,,,,,,,,,,,,,,,,,,,,,0,2,0,0,0.0,0.0,0.0,0.0,2.26,,,0,0,0,0,0,0,0,0,0,0,0,0,0,0,0,0,,0,,,,,38.985794,-76.949982,0.05,49.2,30,3,0.8
1107311,1745649343944,0.0,83,,-0.06,-0.05,1.02,0,-0,0,1.02,1.09,94,1936,0.0,3.34,,14.48,1.255,77.2,,13.9,5,,,,,,,,,,,,0,0,0,0,0,0,0,0,0,0,0,0,0,0,0,0,,,,,,0.0,,,,,,,
1107331,1745649343964,,,,,,,,,,,,,,,,,,,,,,,,,,,,,,,,,,0,0,0,0,0,0,0,0,0,0,0,0,0,0,0,0,,,,,,,,,,,,,
1107351,1745649343984,0.0,83,,-0.07,-0.03,1.03,0,-0,0,1.03,1.09,95,1874,0.0,3.34,,14.48,1.255,77.2,,13.9,5,,,,,,,,,,,,0,0,0,0,0,0,0,0,0,0,0,0,0,0,0,0,,,,,,0.0,,,,,,,
1107371,1745649343998,,,,,,,,,,,,,,,,,,,,,,,,,,,,,,,,,,0,0,0,0,0,0,0,0,0,0,0,0,0,0,0,0,,,,,,,,,,,,,
1107391,1745649344018,0.0,83,13.56,-0.07,-0.03,1.01,0,-0,0,1.02,1.09,93,1874,0.0,3.34,15,14.44,1.255,77.2,183,14.1,5,0,4,0,0,0.0,0.0,0.0,0.0,2.26,0,1.0,0,0,0,0,0,0,0,0,0,0,0,0,0,0,0,0,0,0,0.0,0,0,0.0,38.985794,-76.949982,0.0,49.2,30,3,0.8
1107411,1745649344038,,,,,,,,,,,,,,,,,,,,,,,,,,,,,,,,,,0,0,0,0,0,0,0,0,0,0,0,0,0,0,0,0,,,,,,,,,,,,,
1107431,1745649344058,0.0,83,,-0.06,-0.03,1.02,0,-0,0,1.02,1.09,94,1924,0.0,3.36,,14.36,1.255,77.2,,14.1,5,,,,,,,,,,,,0,0,0,0,0,0,0,0,0,0,0,0,0,0,0,0,,,,,,0.0,,,,,,,
1107451,1745649344078,,,,,,,,,,,,,,,,,,,,,,,,,,,,,,,,,,0,0,0,0,0,0,0,0,0,0,0,0,0,0,0,0,,,,,,,,,,,,,
1107471,1745649344100,0.0,83,,-0.05,-0.03,1.01,0,-0,0,1.01,1.09,93,1937,0.0,3.35,,14.2,1.255,77.2,,14.1,5,,,,,,,,,,,,0,0,0,0,0,0,0,0,0,0,0,0,0,0,0,0,,,,,,0.0,,,,,,,
1107491,1745649344120,,,,,,,,,,,,,,,,,,,,,,,0,4,0,0,0.0,0.0,0.0,0.0,2.26,,,0,0,0,0,0,0,0,0,0,0,0,0,0,0,0,0,,0,,,,,38.985794,-76.949982,0.05,49.2,30,3,0.8
1107511,1745649344140,0.0,82,,-0.05,-0.03,0.99,0,-0,0,1.0,1.09,92,1983,0.0,3.34,,14.16,1.256,77.2,,13.5,5,,,,,,,,,,,,0,0,0,0,0,0,0,0,0,0,0,0,0,0,0,0,,,,,,0.0,,,,,,,
1107531,1745649344160,,,,,,,,,,,,,,,,,,,,,,,,,,,,,,,,,,0,0,0,0,0,0,0,0,0,0,0,0,0,0,0,0,,,,,,,,,,,,,
1107551,1745649344180,0.0,83,,-0.05,-0.04,1.0,0,-0,0,1.0,1.09,92,1892,0.0,3.33,,14.16,1.256,77.2,,13.5,5,,,,,,,,,,,,0,0,0,0,0,0,0,0,0,0,0,0,0,0,0,0,,,,,,0.0,,,,,,,
1107571,1745649344202,,,,,,,,,,,,,,,,,,,,,,,,,,,,,,,,,,0,0,0,0,0,0,0,0,0,0,0,0,0,0,0,0,,,,,,,,,,,,,
1107591,1745649344222,0.0,83,,-0.07,-0.04,0.98,0,-0,0,0.98,1.09,90,1892,0.0,3.33,,14.19,1.255,77.2,,14.5,5,0,0,0,0,0.0,0.0,0.0,0.0,2.26,,,0,0,0,0,0,0,0,0,0,0,0,0,0,0,0,0,,0,,,,0.0,38.985794,-76.949982,0.05,49.2,30,3,0.8
1107611,1745649344242,,,,,,,,,,,,,,,,,,,,,,,,,,,,,,,,,,0,0,0,0,0,0,0,0,0,0,0,0,0,0,0,0,,,,,,,,,,,,,
1107631,1745649344262,0.0,83,,-0.07,-0.04,0.99,0,-0,0,1.0,1.09,91,1956,0.0,3.31,,14.08,1.255,77.2,,14.5,5,,,,,,,,,,,,0,0,0,0,0,0,0,0,0,0,0,0,0,0,0,0,,,,,,0.0,,,,,,,
1107651,1745649344282,,,,,,,,,,,,,,,,,,,,,,,,,,,,,,,,,,0,0,0,0,0,0,0,0,0,0,0,0,0,0,0,0,,,,,,,,,,,,,
1107671,1745649344302,0.0,83,,-0.06,-0.03,0.99,-0,-0,0,0.99,1.09,91,1973,0.0,3.34,,13.94,1.255,77.2,,14.5,5,,,,,,,,,,,,0,0,0,0,0,0,0,0,0,0,0,0,0,0,0,0,,,,,,0.0,,,,,,,
1107691,1745649344322,,,,,,,,,,,,,,,,,,,,,,,0,0,0,0,0.0,0.0,0.0,0.0,2.25,,,0,0,0,0,0,0,0,0,0,0,0,0,0,0,0,0,,0,,,,,38.985794,-76.949982,0.04,49.2,30,3,0.8
1107711,1745649344342,0.0,83,,-0.07,-0.04,1.0,-0,-0,0,1.01,1.09,92,1951,0.0,3.33,,13.8,1.253,77.2,,14.1,5,,,,,,,,,,,,0,0,0,0,0,0,0,0,0,0,0,0,0,0,0,0,,,,,,0.0,,,,,,,
1107731,1745649344362,,,,,,,,,,,,,,,,,,,,,,,,,,,,,,,,,,0,0,0,0,0,0,0,0,0,0,0,0,0,0,0,0,,,,,,,,,,,,,
1107751,1745649344382,0.0,83,,-0.07,-0.05,1.0,0,-0,0,1.0,1.09,92,1972,0.0,3.31,,13.8,1.253,77.2,,14.1,5,,,,,,,,,,,,0,0,0,0,0,0,0,0,0,0,0,0,0,0,0,0,,,,,,0.0,,,,,,,
1107771,1745649344405,,,,,,,,,,,,,,,,,,,,,,,,,,,,,,,,,,0,0,0,0,0,0,0,0,0,0,0,0,0,0,0,0,,,,,,,,,,,,,
1107791,1745649344425,0.0,83,,-0.08,-0.04,1.01,0,-0,0,1.01,1.09,93,1972,0.0,3.31,,13.77,1.253,77.2,,13.9,5,0,0,0,0,0.0,0.0,0.0,0.0,2.26,,,0,0,0,0,0,0,0,0,0,0,0,0,0,0,0,0,,0,,,,0.0,38.985798,-76.949982,0.04,49.2,30,3,0.8
1107811,1745649344445,,,,,,,,,,,,,,,,,,,,,,,,,,,,,,,,,,0,0,0,0,0,0,0,0,0,0,0,0,0,0,0,0,,,,,,,,,,,,,
1107831,1745649344465,0.0,83,,-0.06,-0.03,1.0,0,-0,0,1.0,1.09,92,1904,0.0,3.31,,14.14,1.253,77.2,,13.9,5,,,,,,,,,,,,0,0,0,0,0,0,0,0,0,0,0,0,0,0,0,0,,,,,,0.0,,,,,,,
1107851,1745649344485,,,,,,,,,,,,,,,,,,,,,,,,,,,,,,,,,,0,0,0,0,0,0,0,0,0,0,0,0,0,0,0,0,,,,,,,,,,,,,
1107871,1745649344504,0.0,83,,-0.07,-0.03,1.01,-0,-0,0,1.01,1.09,93,1858,0.0,3.36,,14.5,1.255,77.2,,13.9,5,,,,,,,,,,,,0,0,0,0,0,0,0,0,0,0,0,0,0,0,0,0,,,,,,0.0,,,,,,,
1107891,1745649344524,,,,,,,,,,,,,,,,,,,,,,,0,1,0,0,0.0,0.0,0.0,0.0,2.26,,,0,0,0,0,0,0,0,0,0,0,0,0,0,0,0,0,,0,,,,,38.985798,-76.949982,0.07,49.2,30,3,0.8
1107911,1745649344544,0.0,82,,-0.05,-0.04,1.01,0,-0,0,1.02,1.09,93,2002,0.0,3.36,,14.48,1.254,77.2,,14.5,5,,,,,,,,,,,,0,0,0,0,0,0,0,0,0,0,0,0,0,0,0,0,,,,,,0.0,,,,,,,
1107931,1745649344564,,,,,,,,,,,,,,,,,,,,,,,,,,,,,,,,,,0,0,0,0,0,0,0,0,0,0,0,0,0,0,0,0,,,,,,,,,,,,,
1107951,1745649344584,0.0,82,,-0.06,-0.05,1.0,0,-0,0,1.0,1.09,92,1972,0.0,3.36,,14.48,1.254,77.2,,14.5,5,,,,,,,,,,,,0,0,0,0,0,0,0,0,0,0,0,0,0,0,0,0,,,,,,0.0,,,,,,,
1107971,1745649344604,,,,,,,,,,,,,,,,,,,,,,,,,,,,,,,,,,0,0,0,0,0,0,0,0,0,0,0,0,0,0,0,0,,,,,,,,,,,,,
1107991,1745649344624,0.0,82,,-0.04,-0.03,1.01,-0,-0,0,1.01,1.09,93,1972,0.0,3.36,,14.5,1.255,77.2,,13.5,5,0,1,0,0,0.0,0.0,0.0,0.0,2.26,,,0,0,0,0,0,0,0,0,0,0,0,0,0,0,0,0,,0,,,,0.0,38.985798,-76.949982,0.06,49.2,30,3,0.8
1108011,1745649344644,,,,,,,,,,,,,,,,,,,,,,,,,,,,,,,,,,0,0,0,0,0,0,0,0,0,0,0,0,0,0,0,0,,,,,,,,,,,,,
1108031,1745649344664,0.0,83,,-0.06,-0.04,1.01,0,-0,0,1.02,1.09,93,1833,0.0,3.36,,14.51,1.256,77.2,,13.5,5,,,,,,,,,,,,0,0,0,0,0,0,0,0,0,0,0,0,0,0,0,0,,,,,,0.0,,,,,,,
1108051,1745649344684,,,,,,,,,,,,,,,,,,,,,,,,,,,,,,,,,,0,0,0,0,0,0,0,0,0,0,0,0,0,0,0,0,,,,,,,,,,,,,
1108071,1745649344705,0.0,83,,-0.07,-0.03,0.99,0,-0,0,0.99,1.09,91,1586,0.0,3.36,,14.44,1.256,77.2,,13.5,5,,,,,,,,,,,,0,0,0,0,0,0,0,0,0,0,0,0,0,0,0,0,,,,,,0.0,,,,,,,
1108091,1745649344725,,,,,,,,,,,,,,,,,,,,,,,0,1,0,0,0.0,0.0,0.0,0.0,2.26,,,0,0,0,0,0,0,0,0,0,0,0,0,0,0,0,0,,0,,,,,38.985798,-76.949982,0.0,49.2,30,3,0.8
1108111,1745649344745,0.0,82,,-0.06,-0.03,0.99,0,-0,0,0.99,1.09,91,1806,0.0,3.36,,14.47,1.255,77.2,,13.4,5,,,,,,,,,,,,0,0,0,0,0,0,0,0,0,0,0,0,0,0,0,0,,,,,,0.0,,,,,,,
1108131,1745649344765,,,,,,,,,,,,,,,,,,,,,,,,,,,,,,,,,,0,0,0,0,0,0,0,0,0,0,0,0,0,0,0,0,,,,,,,,,,,,,
1108151,1745649344785,0.0,82,,-0.05,-0.01,0.98,0,-0,0,0.98,1.09,90,1921,0.0,3.36,,14.47,1.255,77.2,,13.4,5,,,,,,,,,,,,0,0,0,0,0,0,0,0,0,0,0,0,0,0,0,0,,,,,,0.0,,,,,,,
1108171,1745649344803,,,,,,,,,,,,,,,,,,,,,,,,,,,,,,,,,,0,0,0,0,0,0,0,0,0,0,0,0,0,0,0,0,,,,,,,,,,,,,
1108191,1745649344823,0.0,83,,-0.05,-0.03,0.99,0,-0,0,0.99,1.09,91,1921,0.0,3.36,,14.47,1.255,77.2,,13.5,5,0,5,0,0,0.0,0.0,0.0,0.0,2.26,,,0,0,0,0,0,0,0,0,0,0,0,0,0,0,0,0,,0,,,,0.0,38.985798,-76.949982,0.05,49.2,30,3,0.8
1108211,1745649344843,,,,,,,,,,,,,,,,,,,,,,,,,,,,,,,,,,0,0,0,0,0,0,0,0,0,0,0,0,0,0,0,0,,,,,,,,,,,,,
1108231,1745649344863,0.0,82,,-0.06,-0.03,0.98,0,-0,0,0.98,1.09,90,1935,0.0,3.36,,14.47,1.255,77.2,,13.5,5,,,,,,,,,,,,0,0,0,0,0,0,0,0,0,0,0,0,0,0,0,0,,,,,,0.0,,,,,,,
1108251,1745649344883,,,,,,,,,,,,,,,,,,,,,,,,,,,,,,,,,,0,0,0,0,0,0,0,0,0,0,0,0,0,0,0,0,,,,,,,,,,,,,
1108271,1745649344905,0.0,83,,-0.05,-0.03,0.98,0,-0,0,0.98,1.09,90,1796,0.0,3.36,,14.47,1.254,77.2,,13.5,5,,,,,,,,,,,,0,0,0,0,0,0,0,0,0,0,0,0,0,0,0,0,,,,,,0.0,,,,,,,
1108291,1745649344925,,,,,,,,,,,,,,,,,,,,,,,0,5,0,0,0.0,0.0,0.0,0.0,2.26,,,0,0,0,0,0,0,0,0,0,0,0,0,0,0,0,0,,0,,,,,38.985798,-76.949982,0.0,49.2,30,3,0.8
1108311,1745649344945,0.0,83,,-0.06,-0.03,0.99,0,-0,0,0.99,1.09,91,1799,0.0,3.36,,14.52,1.254,77.2,,14.0,5,,,,,,,,,,,,0,0,0,0,0,0,0,0,0,0,0,0,0,0,0,0,,,,,,0.0,,,,,,,
1108331,1745649344965,,,,,,,,,,,,,,,,,,,,,,,,,,,,,,,,,,0,0,0,0,0,0,0,0,0,0,0,0,0,0,0,0,,,,,,,,,,,,,
1108351,1745649344985,0.0,82,,-0.05,-0.03,0.99,0,-0,0,0.99,1.09,91,1980,0.0,3.36,,14.52,1.254,77.2,,14.0,5,,,,,,,,,,,,0,0,0,0,0,0,0,0,0,0,0,0,0,0,0,0,,,,,,0.0,,,,,,,
1108371,1745649344995,,,,,,,,,,,,,,,,,,,,,,,,,,,,,,,,,,0,0,0,0,0,0,0,0,0,0,0,0,0,0,0,0,,,,,,,,,,,,,
1108391,1745649345015,0.0,83,13.67,-0.06,-0.03,1.0,0,-0,0,1.0,1.09,92,1980,0.0,3.36,15,14.47,1.253,77.2,180,13.6,5,0,5,0,0,0.0,0.0,0.0,0.0,2.26,0,1.0,0,0,0,0,0,0,0,0,0,0,0,0,0,0,0,0,0,0,0.0,0,-0,0.0,38.985798,-76.949982,0.05,49.2,30,3,0.8
1108411,1745649345035,,,,,,,,,,,,,,,,,,,,,,,,,,,,,,,,,,0,0,0,0,0,0,0,0,0,0,0,0,0,0,0,0,,,,,,,,,,,,,
1108431,1745649345055,0.0,83,,-0.05,-0.04,1.0,0,-0,0,1.0,1.09,92,1925,0.0,3.36,,14.46,1.254,77.2,,13.6,5,,,,,,,,,,,,0,0,0,0,0,0,0,0,0,0,0,0,0,0,0,0,,,,,,0.0,,,,,,,
1108451,1745649345075,,,,,,,,,,,,,,,,,,,,,,,,,,,,,,,,,,0,0,0,0,0,0,0,0,0,0,0,0,0,0,0,0,,,,,,,,,,,,,
1108471,1745649345101,0.0,83,,-0.06,-0.03,1.0,0,-0,0,1.01,1.09,92,1816,0.0,3.35,,14.46,1.254,77.2,,13.6,5,,,,,,,,,,,,0,0,0,0,0,0,0,0,0,0,0,0,0,0,0,0,,,,,,0.0,,,,,,,
1108491,1745649345121,,,,,,,,,,,,,,,,,,,,,,,0,5,0,0,0.0,0.0,0.0,0.0,2.26,,,0,0,0,0,0,0,0,0,0,0,0,0,0,0,0,0,,0,,,,,38.985798,-76.949982,0.0,49.2,30,3,0.8
1108511,1745649345141,0.0,82,,-0.07,-0.01,0.98,0,-0,0,0.98,1.09,90,1607,0.0,3.36,,14.54,1.255,77.2,,13.2,5,,,,,,,,,,,,0,0,0,0,0,0,0,0,0,0,0,0,0,0,0,0,,,,,,0.0,,,,,,,
1108531,1745649345161,,,,,,,,,,,,,,,,,,,,,,,,,,,,,,,,,,0,0,0,0,0,0,0,0,0,0,0,0,0,0,0,0,,,,,,,,,,,,,
1108551,1745649345181,0.0,82,,-0.06,-0.02,1.0,-0,-0,0,1.0,1.09,92,1878,0.0,3.36,,14.54,1.255,77.2,,13.2,5,,,,,,,,,,,,0,0,0,0,0,0,0,0,0,0,0,0,0,0,0,0,,,,,,0.0,,,,,,,
1108571,1745649345203,,,,,,,,,,,,,,,,,,,,,,,,,,,,,,,,,,0,0,0,0,0,0,0,0,0,0,0,0,0,0,0,0,,,,,,,,,,,,,
1108591,1745649345223,0.0,83,,-0.07,-0.01,1.0,-0,-0,0,1.0,1.09,92,1878,0.0,3.36,,14.47,1.256,77.2,,13.4,5,0,5,0,0,0.0,24.0,0.0,0.0,2.26,,,0,0,0,0,0,0,0,0,0,0,0,0,0,0,0,0,,0,,,,0.0,38.985798,-76.949982,0.04,49.2,30,3,0.8
1108611,1745649345243,,,,,,,,,,,,,,,,,,,,,,,,,,,,,,,,,,0,0,0,0,0,0,0,0,0,0,0,0,0,0,0,0,,,,,,,,,,,,,
1108631,1745649345263,0.0,83,,-0.05,-0.02,1.01,-0,-0,0,1.01,1.09,93,1982,0.0,3.36,,14.43,1.256,77.2,,13.4,5,,,,,,,,,,,,0,0,0,0,0,0,0,0,0,0,0,0,0,0,0,0,,,,,,0.0,,,,,,,
1108651,1745649345283,,,,,,,,,,,,,,,,,,,,,,,,,,,,,,,,,,0,0,0,0,0,0,0,0,0,0,0,0,0,0,0,0,,,,,,,,,,,,,
1108671,1745649345305,0.0,83,,-0.07,-0.01,1.0,-0,-0,0,1.0,1.09,92,1869,0.0,3.36,,14.43,1.255,77.2,,13.4,5,,,,,,,,,,,,0,0,0,0,0,0,0,0,0,0,0,0,0,0,0,0,,,,,,0.0,,,,,,,
1108691,1745649345325,,,,,,,,,,,,,,,,,,,,,,,0,69,0,0,0.0,24.0,0.0,0.0,2.26,,,0,0,0,0,0,0,0,0,0,0,0,0,0,0,0,0,,0,,,,,38.985798,-76.949982,0.04,49.2,30,3,0.8
1108711,1745649345345,0.0,82,,-0.07,-0.02,0.99,-0,-0,0,0.99,1.09,91,1603,0.0,3.36,,14.54,1.255,77.2,,12.9,5,,,,,,,,,,,,0,0,0,0,0,0,0,0,0,0,0,0,0,0,0,0,,,,,,0.0,,,,,,,
1108731,1745649345365,,,,,,,,,,,,,,,,,,,,,,,,,,,,,,,,,,0,0,0,0,0,0,0,0,0,0,0,0,0,0,0,0,,,,,,,,,,,,,
1108751,1745649345385,0.0,82,,-0.06,-0.02,0.98,-0,-0,0,0.99,1.09,90,1736,0.0,3.35,,14.54,1.255,77.2,,12.9,5,,,,,,,,,,,,0,0,0,0,0,0,0,0,0,0,0,0,0,0,0,0,,,,,,0.0,,,,,,,
1108771,1745649345403,,,,,,,,,,,,,,,,,,,,,,,,,,,,,,,,,,0,0,0,0,0,0,0,0,0,0,0,0,0,0,0,0,,,,,,,,,,,,,
1108791,1745649345423,0.0,82,,-0.04,-0.03,0.99,0,-0,0,0.99,1.09,91,1736,0.0,3.35,,14.5,1.255,77.2,,11.9,5,0,69,0,0,0.0,24.0,0.0,0.0,2.26,,,0,0,0,0,0,0,0,0,0,0,0,0,0,0,0,0,,0,,,,0.0,38.985798,-76.949982,0.07,49.2,30,3,0.8
1108811,1745649345443,,,,,,,,,,,,,,,,,,,,,,,,,,,,,,,,,,0,0,0,0,0,0,0,0,0,0,0,0,0,0,0,0,,,,,,,,,,,,,
1108831,1745649345463,0.0,82,,-0.03,-0.02,1.0,0,-0,0,1.0,1.09,92,1472,0.0,3.36,,14.42,1.255,77.2,,11.9,5,,,,,,,,,,,,0,0,0,0,0,0,0,0,0,0,0,0,0,0,0,0,,,,,,0.0,,,,,,,
1108851,1745649345483,,,,,,,,,,,,,,,,,,,,,,,,,,,,,,,,,,0,0,0,0,0,0,0,0,0,0,0,0,0,0,0,0,,,,,,,,,,,,,
1108871,1745649345505,0.0,82,,-0.03,-0.02,1.01,0,-0,0,1.01,1.09,92,1474,0.0,3.36,,14.54,1.254,77.2,,11.9,5,,,,,,,,,,,,0,0,0,0,0,0,0,0,0,0,0,0,0,0,0,0,,,,,,0.0,,,,,,,
1108891,1745649345525,,,,,,,,,,,,,,,,,,,,,,,0,99,0,0,0.0,24.0,0.0,0.0,2.26,,,0,0,0,0,0,0,0,0,0,0,0,0,0,0,0,0,,0,,,,,38.985798,-76.949982,0.05,49.2,30,3,0.8
1108911,1745649345545,0.0,82,,-0.03,-0.02,1.01,0,-0,0,1.01,1.09,93,1474,0.0,3.36,,14.44,1.254,77.2,,10.9,5,,,,,,,,,,,,0,0,0,0,0,0,0,0,0,0,0,0,0,0,0,0,,,,,,0.0,,,,,,,
1108931,1745649345565,,,,,,,,,,,,,,,,,,,,,,,,,,,,,,,,,,0,0,0,0,0,0,0,0,0,0,0,0,0,0,0,0,,,,,,,,,,,,,
1108951,1745649345585,0.0,82,,-0.03,-0.02,1.01,0,-0,0,1.01,1.09,93,1040,0.0,3.35,,14.44,1.254,77.2,,10.9,5,,,,,,,,,,,,0,0,0,0,0,0,0,0,0,0,0,0,0,0,0,0,,,,,,0.0,,,,,,,
1108971,1745649345605,,,,,,,,,,,,,,,,,,,,,,,,,,,,,,,,,,0,0,0,0,0,0,0,0,0,0,0,0,0,0,0,0,,,,,,,,,,,,,
1108991,1745649345625,0.0,82,,-0.04,-0.03,1.0,0,-0,0,1.01,1.09,92,1040,0.0,3.35,,14.54,1.254,77.2,,7.6,5,0,7,0,0,0.0,24.0,0.0,0.0,2.26,,,0,0,0,0,0,0,0,0,0,0,0,0,0,0,0,0,,0,,,,0.0,38.985798,-76.949982,0.0,49.2,30,3,0.8
1109011,1745649345645,,,,,,,,,,,,,,,,,,,,,,,,,,,,,,,,,,0,0,0,0,0,0,0,0,0,0,0,0,0,0,0,0,,,,,,,,,,,,,
1109031,1745649345665,0.0,82,,-0.04,-0.03,1.0,0,-0,0,1.0,1.09,92,1040,0.0,3.35,,14.54,1.254,77.2,,7.6,5,,,,,,,,,,,,0,0,0,0,0,0,0,0,0,0,0,0,0,0,0,0,,,,,,0.0,,,,,,,
1109051,1745649345685,,,,,,,,,,,,,,,,,,,,,,,,,,,,,,,,,,0,0,0,0,0,0,0,0,0,0,0,0,0,0,0,0,,,,,,,,,,,,,
1109071,1745649345704,0.0,82,,-0.04,-0.03,1.0,0,-0,0,1.0,1.09,92,1040,0.0,3.35,,14.54,1.255,77.2,,7.6,5,,,,,,,,,,,,0,0,0,0,0,0,0,0,0,0,0,0,0,0,0,0,,,,,,0.0,,,,,,,
1109091,1745649345724,,,,,,,,,,,,,,,,,,,,,,,0,7,0,0,0.0,24.0,0.0,0.0,2.26,,,0,0,0,0,0,0,0,0,0,0,0,0,0,0,0,0,,0,,,,,38.985798,-76.949982,0.0,49.2,30,3,0.8
1109111,1745649345744,0.0,82,,-0.04,-0.03,1.0,0,-0,0,1.0,1.09,92,1040,0.0,3.35,,14.54,1.257,77.2,,6.9,5,,,,,,,,,,,,0,0,0,0,0,0,0,0,0,0,0,0,0,0,0,0,,,,,,0.0,,,,,,,
1109131,1745649345764,,,,,,,,,,,,,,,,,,,,,,,,,,,,,,,,,,0,0,0,0,0,0,0,0,0,0,0,0,0,0,0,0,,,,,,,,,,,,,
1109151,1745649345784,0.0,82,,-0.04,-0.03,1.0,0,-0,0,1.0,1.09,92,1040,0.0,3.35,,14.54,1.257,77.2,,6.9,5,,,,,,,,,,,,0,0,0,0,0,0,0,0,0,0,0,0,0,0,0,0,,,,,,0.0,,,,,,,
1109171,1745649345804,,,,,,,,,,,,,,,,,,,,,,,,,,,,,,,,,,0,0,0,0,0,0,0,0,0,0,0,0,0,0,0,0,,,,,,,,,,,,,
1109191,1745649345824,0.0,82,,-0.04,-0.03,1.0,0,-0,0,1.0,1.09,92,1040,0.0,3.35,,14.54,1.256,77.2,,7.0,5,0,7,0,0,0.0,24.0,0.0,0.0,2.26,,,0,0,0,0,0,0,0,0,0,0,0,0,0,0,0,0,,0,,,,0.0,38.985798,-76.949982,0.04,49.2,30,3,0.8
1109211,1745649345844,,,,,,,,,,,,,,,,,,,,,,,,,,,,,,,,,,0,0,0,0,0,0,0,0,0,0,0,0,0,0,0,0,,,,,,,,,,,,,
1109231,1745649345864,0.0,82,,-0.04,-0.03,1.0,0,-0,0,1.0,1.09,92,1040,0.0,3.35,,14.54,1.255,77.2,,7.0,5,,,,,,,,,,,,0,0,0,0,0,0,0,0,0,0,0,0,0,0,0,0,,,,,,0.0,,,,,,,
1109251,1745649345884,,,,,,,,,,,,,,,,,,,,,,,,,,,,,,,,,,0,0,0,0,0,0,0,0,0,0,0,0,0,0,0,0,,,,,,,,,,,,,
1109271,1745649345904,0.0,82,,-0.04,-0.03,1.0,0,-0,0,1.0,1.09,92,1040,0.0,3.35,,14.54,1.255,77.2,,7.0,5,,,,,,,,,,,,0,0,0,0,0,0,0,0,0,0,0,0,0,0,0,0,,,,,,0.0,,,,,,,
1109291,1745649345924,,,,,,,,,,,,,,,,,,,,,,,0,7,0,0,0.0,24.0,0.0,0.0,2.26,,,0,0,0,0,0,0,0,0,0,0,0,0,0,0,0,0,,0,,,,,38.985798,-76.949982,0.04,49.2,30,3,0.8
1109311,1745649345944,0.0,82,,-0.05,-0.03,1.0,0,-0,0,1.0,1.09,92,1040,0.0,3.35,,14.54,1.255,77.2,,7.0,5,,,,,,,,,,,,0,0,0,0,0,0,0,0,0,0,0,0,0,0,0,0,,,,,,0.0,,,,,,,
1109331,1745649345964,,,,,,,,,,,,,,,,,,,,,,,,,,,,,,,,,,0,0,0,0,0,0,0,0,0,0,0,0,0,0,0,0,,,,,,,,,,,,,
1109351,1745649345984,0.0,82,,-0.05,-0.03,1.0,0,-0,0,1.0,1.09,92,1040,0.0,3.35,,14.54,1.255,77.2,,7.0,5,,,,,,,,,,,,0,0,0,0,0,0,0,0,0,0,0,0,0,0,0,0,,,,,,0.0,,,,,,,
1109371,1745649345997,,,,,,,,,,,,,,,,,,,,,,,,,,,,,,,,,,0,0,0,0,0,0,0,0,0,0,0,0,0,0,0,0,,,,,,,,,,,,,
1109391,1745649346017,0.0,82,13.34,-0.05,-0.03,1.0,0,-0,0,1.0,1.09,92,1040,0.0,3.35,15,14.54,1.254,77.2,176,7.1,5,0,7,0,0,0.0,24.0,0.0,0.0,2.26,0,1.0,0,0,0,0,0,0,0,0,0,0,0,0,0,0,0,0,0,0,0.0,0,0,0.0,38.985798,-76.949982,0.08,49.2,30,3,0.8
1109411,1745649346037,,,,,,,,,,,,,,,,,,,,,,,,,,,,,,,,,,0,0,0,0,0,0,0,0,0,0,0,0,0,0,0,0,,,,,,,,,,,,,
1109431,1745649346057,0.0,82,,-0.05,-0.04,1.0,0,-0,0,1.0,1.09,92,1040,0.0,3.35,,14.54,1.254,77.2,,7.1,5,,,,,,,,,,,,0,0,0,0,0,0,0,0,0,0,0,0,0,0,0,0,,,,,,0.0,,,,,,,
1109451,1745649346077,,,,,,,,,,,,,,,,,,,,,,,,,,,,,,,,,,0,0,0,0,0,0,0,0,0,0,0,0,0,0,0,0,,,,,,,,,,,,,
1109471,1745649346100,0.0,82,,-0.05,-0.04,1.0,0,-0,0,1.0,1.09,92,1040,0.0,3.35,,14.54,1.254,77.2,,7.1,5,,,,,,,,,,,,0,0,0,0,0,0,0,0,0,0,0,0,0,0,0,0,,,,,,0.0,,,,,,,
1109491,1745649346120,,,,,,,,,,,,,,,,,,,,,,,0,7,0,0,0.0,24.0,0.0,0.0,2.26,,,0,0,0,0,0,0,0,0,0,0,0,0,0,0,0,0,,0,,,,,38.985798,-76.949982,0.0,49.2,30,3,0.8
1109511,1745649346140,0.0,82,,-0.05,-0.04,1.0,-0,-0,0,1.0,1.09,92,1040,0.0,3.35,,14.54,1.254,77.2,,6.8,5,,,,,,,,,,,,0,0,0,0,0,0,0,0,0,0,0,0,0,0,0,0,,,,,,0.0,,,,,,,
1109531,1745649346160,,,,,,,,,,,,,,,,,,,,,,,,,,,,,,,,,,0,0,0,0,0,0,0,0,0,0,0,0,0,0,0,0,,,,,,,,,,,,,
1109551,1745649346180,0.0,82,,-0.05,-0.03,1.0,-0,-0,0,1.0,1.09,92,1040,0.0,3.35,,14.54,1.254,77.2,,6.8,5,,,,,,,,,,,,0,0,0,0,0,0,0,0,0,0,0,0,0,0,0,0,,,,,,0.0,,,,,,,
1109571,1745649346202,,,,,,,,,,,,,,,,,,,,,,,,,,,,,,,,,,0,0,0,0,0,0,0,0,0,0,0,0,0,0,0,0,,,,,,,,,,,,,
1109591,1745649346222,0.0,82,,-0.05,-0.03,1.0,0,-0,0,1.0,1.09,92,1040,0.0,3.35,,14.54,1.254,77.2,,7.0,5,0,7,0,0,0.0,24.0,0.0,0.0,2.26,,,0,0,0,0,0,0,0,0,0,0,0,0,0,0,0,0,,0,,,,0.0,38.985798,-76.949982,0.0,49.2,30,3,0.8
1109611,1745649346242,,,,,,,,,,,,,,,,,,,,,,,,,,,,,,,,,,0,0,0,0,0,0,0,0,0,0,0,0,0,0,0,0,,,,,,,,,,,,,
1109631,1745649346262,0.0,82,,-0.05,-0.03,1.0,0,-0,0,1.0,1.09,92,1040,0.0,3.35,,14.54,1.255,77.2,,7.0,5,,,,,,,,,,,,0,0,0,0,0,0,0,0,0,0,0,0,0,0,0,0,,,,,,0.0,,,,,,,
1109651,1745649346282,,,,,,,,,,,,,,,,,,,,,,,,,,,,,,,,,,0,0,0,0,0,0,0,0,0,0,0,0,0,0,0,0,,,,,,,,,,,,,
1109671,1745649346304,0.0,82,,-0.05,-0.03,1.0,0,-0,0,1.0,1.09,92,1040,0.0,3.35,,14.54,1.256,77.2,,7.0,5,,,,,,,,,,,,0,0,0,0,0,0,0,0,0,0,0,0,0,0,0,0,,,,,,0.0,,,,,,,
1109691,1745649346324,,,,,,,,,,,,,,,,,,,,,,,0,7,0,0,0.0,24.0,0.0,0.0,2.25,,,0,0,0,0,0,0,0,0,0,0,0,0,0,0,0,0,,0,,,,,38.985798,-76.949982,0.0,49.2,30,3,0.8
1109711,1745649346344,0.0,82,,-0.05,-0.04,1.0,0,-0,0,1.0,1.09,92,1040,0.0,3.35,,14.54,1.255,77.2,,7.0,5,,,,,,,,,,,,0,0,0,0,0,0,0,0,0,0,0,0,0,0,0,0,,,,,,0.0,,,,,,,
1109731,1745649346364,,,,,,,,,,,,,,,,,,,,,,,,,,,,,,,,,,0,0,0,0,0,0,0,0,0,0,0,0,0,0,0,0,,,,,,,,,,,,,
1109751,1745649346384,0.0,82,,-0.05,-0.04,1.0,0,-0,0,1.0,1.09,92,1040,0.0,3.35,,14.54,1.255,77.2,,7.0,5,,,,,,,,,,,,0,0,0,0,0,0,0,0,0,0,0,0,0,0,0,0,,,,,,0.0,,,,,,,
1109771,1745649346404,,,,,,,,,,,,,,,,,,,,,,,,,,,,,,,,,,0,0,0,0,0,0,0,0,0,0,0,0,0,0,0,0,,,,,,,,,,,,,
1109791,1745649346424,0.0,82,,-0.05,-0.04,1.0,-0,-0,0,1.0,1.09,92,1040,0.0,3.35,,14.54,1.254,77.2,,7.0,5,0,7,0,0,0.0,24.0,0.0,0.0,2.26,,,0,0,0,0,0,0,0,0,0,0,0,0,0,0,0,0,,0,,,,0.0,38.985798,-76.949982,0.08,49.2,30,3,0.8
1109811,1745649346444,,,,,,,,,,,,,,,,,,,,,,,,,,,,,,,,,,0,0,0,0,0,0,0,0,0,0,0,0,0,0,0,0,,,,,,,,,,,,,
1109831,1745649346464,0.0,82,,-0.05,-0.03,1.0,0,-0,0,1.0,1.09,92,1040,0.0,3.35,,14.54,1.253,77.2,,7.0,5,,,,,,,,,,,,0,0,0,0,0,0,0,0,0,0,0,0,0,0,0,0,,,,,,0.0,,,,,,,
1109851,1745649346484,,,,,,,,,,,,,,,,,,,,,,,,,,,,,,,,,,0,0,0,0,0,0,0,0,0,0,0,0,0,0,0,0,,,,,,,,,,,,,
1109871,1745649346504,0.0,82,,-0.05,-0.03,1.0,0,-0,0,1.0,1.09,92,1040,0.0,3.35,,14.54,1.253,77.2,,7.0,5,,,,,,,,,,,,0,0,0,0,0,0,0,0,0,0,0,0,0,0,0,0,,,,,,0.0,,,,,,,
1109891,1745649346524,,,,,,,,,,,,,,,,,,,,,,,0,7,0,0,0.0,24.0,0.0,0.0,2.26,,,0,0,0,0,0,0,0,0,0,0,0,0,0,0,0,0,,0,,,,,38.985798,-76.949982,0.05,49.2,30,3,0.8
1109911,1745649346544,0.0,82,,-0.05,-0.03,1.0,-0,-0,0,1.0,1.09,92,1040,0.0,3.35,,14.54,1.253,77.2,,7.0,5,,,,,,,,,,,,0,0,0,0,0,0,0,0,0,0,0,0,0,0,0,0,,,,,,0.0,,,,,,,
1109931,1745649346564,,,,,,,,,,,,,,,,,,,,,,,,,,,,,,,,,,0,0,0,0,0,0,0,0,0,0,0,0,0,0,0,0,,,,,,,,,,,,,
1109951,1745649346584,0.0,82,,-0.05,-0.03,1.0,0,-0,0,1.0,1.09,92,1040,0.0,3.35,,14.54,1.253,77.2,,7.0,5,,,,,,,,,,,,0,0,0,0,0,0,0,0,0,0,0,0,0,0,0,0,,,,,,0.0,,,,,,,
1109971,1745649346604,,,,,,,,,,,,,,,,,,,,,,,,,,,,,,,,,,0,0,0,0,0,0,0,0,0,0,0,0,0,0,0,0,,,,,,,,,,,,,
1109991,1745649346624,0.0,82,,-0.05,-0.04,1.0,0,-0,0,1.0,1.09,92,1040,0.0,3.35,,14.54,1.254,77.2,,7.1,5,0,7,0,0,0.0,24.0,0.0,0.0,2.26,,,0,0,0,0,0,0,0,0,0,0,0,0,0,0,0,0,,0,,,,0.0,38.985798,-76.949982,0.04,49.2,30,3,0.8
1110011,1745649346644,,,,,,,,,,,,,,,,,,,,,,,,,,,,,,,,,,0,0,0,0,0,0,0,0,0,0,0,0,0,0,0,0,,,,,,,,,,,,,
1110031,1745649346664,0.0,81,,-0.05,-0.04,1.0,0,-0,0,1.0,1.09,92,1040,0.0,3.35,,14.54,1.254,77.2,,7.1,5,,,,,,,,,,,,0,0,0,0,0,0,0,0,0,0,0,0,0,0,0,0,,,,,,0.0,,,,,,,
1110051,1745649346684,,,,,,,,,,,,,,,,,,,,,,,,,,,,,,,,,,0,0,0,0,0,0,0,0,0,0,0,0,0,0,0,0,,,,,,,,,,,,,
1110071,1745649346705,0.0,81,,-0.05,-0.04,1.0,0,-0,0,1.0,1.09,92,1040,0.0,3.35,,14.54,1.254,77.2,,7.1,5,,,,,,,,,,,,0,0,0,0,0,0,0,0,0,0,0,0,0,0,0,0,,,,,,0.0,,,,,,,
1110091,1745649346725,,,,,,,,,,,,,,,,,,,,,,,0,7,0,0,0.0,24.0,0.0,0.0,2.26,,,0,0,0,0,0,0,0,0,0,0,0,0,0,0,0,0,,0,,,,,38.985798,-76.949982,0.07,49.2,30,3,0.8
1110111,1745649346745,0.0,81,,-0.05,-0.03,1.0,-0,-0,0,1.0,1.09,92,1040,0.0,3.35,,14.54,1.254,77.2,,6.9,5,,,,,,,,,,,,0,0,0,0,0,0,0,0,0,0,0,0,0,0,0,0,,,,,,0.0,,,,,,,
1110131,1745649346765,,,,,,,,,,,,,,,,,,,,,,,,,,,,,,,,,,0,0,0,0,0,0,0,0,0,0,0,0,0,0,0,0,,,,,,,,,,,,,
1110151,1745649346785,0.0,81,,-0.05,-0.03,1.0,-0,-0,0,1.0,1.09,92,1040,0.0,3.35,,14.54,1.254,77.2,,6.9,5,,,,,,,,,,,,0,0,0,0,0,0,0,0,0,0,0,0,0,0,0,0,,,,,,0.0,,,,,,,
1110171,1745649346805,,,,,,,,,,,,,,,,,,,,,,,,,,,,,,,,,,0,0,0,0,0,0,0,0,0,0,0,0,0,0,0,0,,,,,,,,,,,,,
1110191,1745649346825,0.0,81,,-0.05,-0.03,1.0,0,-0,0,1.0,1.09,92,1040,0.0,3.35,,14.54,1.255,77.2,,6.9,5,0,7,0,0,0.0,24.0,0.0,0.0,2.26,,,0,0,0,0,0,0,0,0,0,0,0,0,0,0,0,0,,0,,,,0.0,38.985798,-76.949982,0.11,49.2,30,3,0.8
1110211,1745649346845,,,,,,,,,,,,,,,,,,,,,,,,,,,,,,,,,,0,0,0,0,0,0,0,0,0,0,0,0,0,0,0,0,,,,,,,,,,,,,
1110231,1745649346865,0.0,81,,-0.05,-0.04,1.0,0,-0,0,1.0,1.09,92,1040,0.0,3.35,,14.54,1.256,77.2,,6.9,5,,,,,,,,,,,,0,0,0,0,0,0,0,0,0,0,0,0,0,0,0,0,,,,,,0.0,,,,,,,
1110251,1745649346885,,,,,,,,,,,,,,,,,,,,,,,,,,,,,,,,,,0,0,0,0,0,0,0,0,0,0,0,0,0,0,0,0,,,,,,,,,,,,,
1110271,1745649346905,0.0,81,,-0.05,-0.04,1.0,0,-0,0,1.0,1.09,92,1040,0.0,3.35,,14.54,1.255,77.2,,6.9,5,,,,,,,,,,,,0,0,0,0,0,0,0,0,0,0,0,0,0,0,0,0,,,,,,0.0,,,,,,,
1110291,1745649346925,,,,,,,,,,,,,,,,,,,,,,,0,7,0,0,0.0,24.0,0.0,0.0,2.26,,,0,0,0,0,0,0,0,0,0,0,0,0,0,0,0,0,,0,,,,,38.985798,-76.949982,0.05,49.2,30,3,0.8
1110311,1745649346945,0.0,81,,-0.05,-0.04,1.0,0,-0,0,1.0,1.09,92,1040,0.0,3.35,,14.54,1.253,77.2,,6.9,5,,,,,,,,,,,,0,0,0,0,0,0,0,0,0,0,0,0,0,0,0,0,,,,,,0.0,,,,,,,
1110331,1745649346965,,,,,,,,,,,,,,,,,,,,,,,,,,,,,,,,,,0,0,0,0,0,0,0,0,0,0,0,0,0,0,0,0,,,,,,,,,,,,,
1110351,1745649346985,0.0,80,,-0.05,-0.04,1.0,0,-0,0,1.0,1.09,92,1040,0.0,3.35,,14.54,1.253,77.2,,6.9,5,,,,,,,,,,,,0,0,0,0,0,0,0,0,0,0,0,0,0,0,0,0,,,,,,0.0,,,,,,,
1110371,1745649346995,,,,,,,,,,,,,,,,,,,,,,,,,,,,,,,,,,0,0,0,0,0,0,0,0,0,0,0,0,0,0,0,0,,,,,,,,,,,,,
1110391,1745649347015,0.0,81,13.29,-0.05,-0.04,1.0,-0,-0,0,1.0,1.09,92,1040,0.0,3.35,15,14.54,1.252,77.2,174,7.0,5,0,7,0,0,0.0,24.0,0.0,0.0,2.26,0,1.0,0,0,0,0,0,0,0,0,0,0,0,0,0,0,0,0,0,0,0.0,0,0,0.0,38.985798,-76.949982,0.07,49.2,30,3,0.8
1110411,1745649347035,,,,,,,,,,,,,,,,,,,,,,,,,,,,,,,,,,0,0,0,0,0,0,0,0,0,0,0,0,0,0,0,0,,,,,,,,,,,,,
1110431,1745649347055,0.0,80,,-0.05,-0.03,1.0,-0,-0,0,1.0,1.09,92,1040,0.0,3.35,,14.54,1.252,77.2,,7.0,5,,,,,,,,,,,,0,0,0,0,0,0,0,0,0,0,0,0,0,0,0,0,,,,,,0.0,,,,,,,
1110451,1745649347075,,,,,,,,,,,,,,,,,,,,,,,,,,,,,,,,,,0,0,0,0,0,0,0,0,0,0,0,0,0,0,0,0,,,,,,,,,,,,,
1110471,1745649347099,0.0,80,,-0.05,-0.04,1.0,0,-0,0,1.0,1.09,92,1040,0.0,3.35,,14.54,1.253,77.2,,7.0,5,,,,,,,,,,,,0,0,0,0,0,0,0,0,0,0,0,0,0,0,0,0,,,,,,0.0,,,,,,,
1110491,1745649347119,,,,,,,,,,,,,,,,,,,,,,,0,7,0,0,0.0,24.0,0.0,0.0,2.26,,,0,0,0,0,0,0,0,0,0,0,0,0,0,0,0,0,,0,,,,,38.985798,-76.949982,0.04,49.2,30,3,0.8
1110511,1745649347139,0.0,81,,-0.05,-0.03,1.0,0,-0,0,1.0,1.09,92,1040,0.0,3.35,,14.54,1.253,77.2,,6.9,5,,,,,,,,,,,,0,0,0,0,0,0,0,0,0,0,0,0,0,0,0,0,,,,,,0.0,,,,,,,
1110531,1745649347159,,,,,,,,,,,,,,,,,,,,,,,,,,,,,,,,,,0,0,0,0,0,0,0,0,0,0,0,0,0,0,0,0,,,,,,,,,,,,,
1110551,1745649347179,0.0,80,,-0.05,-0.04,1.0,0,-0,0,1.0,1.09,92,1040,0.0,3.35,,14.54,1.253,77.2,,6.9,5,,,,,,,,,,,,0,0,0,0,0,0,0,0,0,0,0,0,0,0,0,0,,,,,,0.0,,,,,,,
1110571,1745649347203,,,,,,,,,,,,,,,,,,,,,,,,,,,,,,,,,,0,0,0,0,0,0,0,0,0,0,0,0,0,0,0,0,,,,,,,,,,,,,
1110591,1745649347223,0.0,81,,-0.05,-0.04,1.0,0,-0,0,1.0,1.09,92,1040,0.0,3.35,,14.54,1.253,77.2,,6.8,5,0,7,0,0,0.0,24.0,0.0,0.0,2.26,,,0,0,0,0,0,0,0,0,0,0,0,0,0,0,0,0,,0,,,,0.0,38.985798,-76.949982,0.05,49.2,30,3,0.8
1110611,1745649347243,,,,,,,,,,,,,,,,,,,,,,,,,,,,,,,,,,0,0,0,0,0,0,0,0,0,0,0,0,0,0,0,0,,,,,,,,,,,,,
1110631,1745649347263,0.0,80,,-0.05,-0.04,1.0,0,-0,0,1.0,1.09,92,1040,0.0,3.35,,14.54,1.253,77.2,,6.8,5,,,,,,,,,,,,0,0,0,0,0,0,0,0,0,0,0,0,0,0,0,0,,,,,,0.0,,,,,,,
1110651,1745649347283,,,,,,,,,,,,,,,,,,,,,,,,,,,,,,,,,,0,0,0,0,0,0,0,0,0,0,0,0,0,0,0,0,,,,,,,,,,,,,
1110671,1745649347303,0.0,80,,-0.05,-0.03,1.0,-0,-0,0,1.0,1.09,92,1040,0.0,3.35,,14.54,1.253,77.2,,6.8,5,,,,,,,,,,,,0,0,0,0,0,0,0,0,0,0,0,0,0,0,0,0,,,,,,0.0,,,,,,,
1110691,1745649347323,,,,,,,,,,,,,,,,,,,,,,,0,7,0,0,0.0,24.0,0.0,0.0,2.26,,,0,0,0,0,0,0,0,0,0,0,0,0,0,0,0,0,,0,,,,,38.985798,-76.949982,0.04,49.2,30,3,0.8
1110711,1745649347343,0.0,80,,-0.05,-0.04,1.0,0,-0,0,1.0,1.09,92,1040,0.0,3.35,,14.54,1.255,77.2,,6.8,5,,,,,,,,,,,,0,0,0,0,0,0,0,0,0,0,0,0,0,0,0,0,,,,,,0.0,,,,,,,
1110731,1745649347363,,,,,,,,,,,,,,,,,,,,,,,,,,,,,,,,,,0,0,0,0,0,0,0,0,0,0,0,0,0,0,0,0,,,,,,,,,,,,,
1110751,1745649347383,0.0,80,,-0.05,-0.04,1.0,0,-0,0,1.0,1.09,92,0,0.0,3.6,,14.54,1.255,77.2,,6.8,5,,,,,,,,,,,,0,0,0,0,0,0,0,0,0,0,0,0,0,0,0,0,,,,,,0.0,,,,,,,
1110771,1745649347403,,,,,,,,,,,,,,,,,,,,,,,,,,,,,,,,,,0,0,0,0,0,0,0,0,0,0,0,0,0,0,0,0,,,,,,,,,,,,,
1110791,1745649347423,0.0,80,,-0.05,-0.04,1.0,0,-0,0,1.0,1.09,92,0,0.0,3.6,,14.54,1.257,77.2,,6.8,5,0,7,0,0,0.0,24.0,0.0,0.0,2.26,,,0,0,0,0,0,0,0,0,0,0,0,0,0,0,0,0,,0,,,,0.0,38.985798,-76.949982,0.07,49.2,30,3,0.8
1110811,1745649347443,,,,,,,,,,,,,,,,,,,,,,,,,,,,,,,,,,0,0,0,0,0,0,0,0,0,0,0,0,0,0,0,0,,,,,,,,,,,,,
1110831,1745649347463,0.0,80,,-0.05,-0.04,1.0,0,-0,0,1.0,1.09,92,0,0.0,3.6,,14.54,1.255,77.2,,6.8,5,,,,,,,,,,,,0,0,0,0,0,0,0,0,0,0,0,0,0,0,0,0,,,,,,0.0,,,,,,,
1110851,1745649347483,,,,,,,,,,,,,,,,,,,,,,,,,,,,,,,,,,0,0,0,0,0,0,0,0,0,0,0,0,0,0,0,0,,,,,,,,,,,,,
1110871,1745649347503,0.0,80,,-0.05,-0.04,1.0,0,-0,0,1.0,1.09,92,0,0.0,3.6,,14.54,1.254,77.2,,6.8,5,,,,,,,,,,,,0,0,0,0,0,0,0,0,0,0,0,0,0,0,0,0,,,,,,0.0,,,,,,,
1110891,1745649347523,,,,,,,,,,,,,,,,,,,,,,,0,7,0,0,0.0,0.0,0.0,0.0,2.26,,,0,0,0,0,0,0,0,0,0,0,0,0,0,0,0,0,,0,,,,,38.985798,-76.949982,0.04,49.2,30,3,0.8
1110911,1745649347543,0.0,80,,-0.05,-0.04,1.0,0,-0,0,1.0,1.09,92,0,0.0,3.6,,14.54,1.252,77.2,,6.9,5,,,,,,,,,,,,0,0,0,0,0,0,0,0,0,0,0,0,0,0,0,0,,,,,,0.0,,,,,,,
1110931,1745649347563,,,,,,,,,,,,,,,,,,,,,,,,,,,,,,,,,,0,0,0,0,0,0,0,0,0,0,0,0,0,0,0,0,,,,,,,,,,,,,
1110951,1745649347583,0.0,80,,-0.05,-0.04,1.0,0,-0,0,1.0,1.09,92,0,0.0,3.6,,14.54,1.252,77.2,,6.9,5,,,,,,,,,,,,0,0,0,0,0,0,0,0,0,0,0,0,0,0,0,0,,,,,,0.0,,,,,,,
1110971,1745649347605,,,,,,,,,,,,,,,,,,,,,,,,,,,,,,,,,,0,0,0,0,0,0,0,0,0,0,0,0,0,0,0,0,,,,,,,,,,,,,
1110991,1745649347625,0.0,80,,-0.05,-0.04,1.0,0,-0,0,1.0,1.09,92,0,0.0,3.6,,14.54,1.252,77.2,,6.9,5,0,0,0,0,0.0,0.0,0.0,0.0,2.26,,,0,0,0,0,0,0,0,0,0,0,0,0,0,0,0,0,,0,,,,0.0,38.985798,-76.949982,0.04,49.2,30,3,0.8
1111011,1745649347645,,,,,,,,,,,,,,,,,,,,,,,,,,,,,,,,,,0,0,0,0,0,0,0,0,0,0,0,0,0,0,0,0,,,,,,,,,,,,,
1111031,1745649347665,0.0,80,,-0.05,-0.04,1.0,0,-0,0,1.0,1.09,92,0,0.0,3.6,,14.54,1.252,77.2,,6.9,5,,,,,,,,,,,,0,0,0,0,0,0,0,0,0,0,0,0,0,0,0,0,,,,,,0.0,,,,,,,
1111051,1745649347685,,,,,,,,,,,,,,,,,,,,,,,,,,,,,,,,,,0,0,0,0,0,0,0,0,0,0,0,0,0,0,0,0,,,,,,,,,,,,,
1111071,1745649347702,0.0,80,,-0.05,-0.03,1.0,0,-0,0,1.0,1.09,92,0,0.0,3.6,,14.54,1.252,77.2,,6.9,5,,,,,,,,,,,,0,0,0,0,0,0,0,0,0,0,0,0,0,0,0,0,,,,,,0.0,,,,,,,
1111091,1745649347722,,,,,,,,,,,,,,,,,,,,,,,0,0,0,0,0.0,0.0,0.0,0.0,2.26,,,0,0,0,0,0,0,0,0,0,0,0,0,0,0,0,0,,0,,,,,38.985798,-76.949982,0.0,49.2,30,3,0.8
1111111,1745649347742,0.0,80,,-0.05,-0.04,1.0,0,-0,0,1.0,1.09,92,0,0.0,3.6,,14.54,1.252,77.2,,7.1,5,,,,,,,,,,,,0,0,0,0,0,0,0,0,0,0,0,0,0,0,0,0,,,,,,0.0,,,,,,,
1111131,1745649347762,,,,,,,,,,,,,,,,,,,,,,,,,,,,,,,,,,0,0,0,0,0,0,0,0,0,0,0,0,0,0,0,0,,,,,,,,,,,,,
1111151,1745649347782,0.0,80,,-0.05,-0.03,1.0,0,-0,0,1.0,1.09,92,0,0.0,3.6,,14.54,1.252,77.2,,7.1,5,,,,,,,,,,,,0,0,0,0,0,0,0,0,0,0,0,0,0,0,0,0,,,,,,0.0,,,,,,,
1111171,1745649347804,,,,,,,,,,,,,,,,,,,,,,,,,,,,,,,,,,0,0,0,0,0,0,0,0,0,0,0,0,0,0,0,0,,,,,,,,,,,,,
1111191,1745649347824,0.0,80,,-0.05,-0.04,1.0,0,-0,0,1.0,1.09,92,0,0.0,3.6,,14.54,1.252,77.2,,6.8,5,0,0,0,0,0.0,0.0,0.0,0.0,2.26,,,0,0,0,0,0,0,0,0,0,0,0,0,0,0,0,0,,0,,,,0.0,38.985798,-76.949982,0.05,49.2,30,3,0.8
1111211,1745649347844,,,,,,,,,,,,,,,,,,,,,,,,,,,,,,,,,,0,0,0,0,0,0,0,0,0,0,0,0,0,0,0,0,,,,,,,,,,,,,
1111231,1745649347864,0.0,80,,-0.05,-0.04,1.0,0,-0,0,1.0,1.09,92,0,0.0,3.6,,14.54,1.254,77.2,,6.8,5,,,,,,,,,,,,0,0,0,0,0,0,0,0,0,0,0,0,0,0,0,0,,,,,,0.0,,,,,,,
1111251,1745649347884,,,,,,,,,,,,,,,,,,,,,,,,,,,,,,,,,,0,0,0,0,0,0,0,0,0,0,0,0,0,0,0,0,,,,,,,,,,,,,
1111271,1745649347904,0.0,80,,-0.06,0.07,1.0,-0,-0,0,1.0,1.09,92,0,0.0,3.6,,14.54,1.255,77.2,,6.8,5,,,,,,,,,,,,0,0,0,0,0,0,0,0,0,0,0,0,0,0,0,0,,,,,,0.0,,,,,,,
1111291,1745649347924,,,,,,,,,,,,,,,,,,,,,,,0,0,0,0,0.0,0.0,0.0,0.0,2.26,,,0,0,0,0,0,0,0,0,0,0,0,0,0,0,0,0,,0,,,,,38.985798,-76.949982,0.04,49.2,30,3,0.8
1111311,1745649347944,0.0,80,,-0.06,0.04,0.99,0,-0,0,1.0,1.09,92,0,0.0,3.6,,14.54,1.257,77.2,,6.9,5,,,,,,,,,,,,0,0,0,0,0,0,0,0,0,0,0,0,0,0,0,0,,,,,,0.0,,,,,,,
1111331,1745649347964,,,,,,,,,,,,,,,,,,,,,,,,,,,,,,,,,,0,0,0,0,0,0,0,0,0,0,0,0,0,0,0,0,,,,,,,,,,,,,
1111351,1745649347984,0.0,79,,-0.06,0.03,0.99,0,-0,0,1.0,1.09,91,0,0.0,3.6,,14.54,1.257,77.2,,6.9,5,,,,,,,,,,,,0,0,0,0,0,0,0,0,0,0,0,0,0,0,0,0,,,,,,0.0,,,,,,,
1111371,1745649347996,,,,,,,,,,,,,,,,,,,,,,,,,,,,,,,,,,0,0,0,0,0,0,0,0,0,0,0,0,0,0,0,0,,,,,,,,,,,,,
1111391,1745649348016,0.0,79,13.45,-0.06,0.02,0.99,0,-0,0,1.0,1.09,92,0,0.0,3.6,15,14.54,1.255,77.2,173,6.7,5,0,0,0,0,0.0,0.0,0.0,0.0,2.26,0,1.0,0,0,0,0,0,0,0,0,0,0,0,0,0,0,0,0,0,0,0.0,0,0,0.0,38.985798,-76.949982,0.11,49.2,30,3,0.8
1111411,1745649348036,,,,,,,,,,,,,,,,,,,,,,,,,,,,,,,,,,0,0,0,0,0,0,0,0,0,0,0,0,0,0,0,0,,,,,,,,,,,,,
1111431,1745649348056,0.0,80,,-0.06,0.02,1.0,0,-0,0,1.0,1.09,92,0,0.0,3.6,,14.54,1.254,77.2,,6.7,5,,,,,,,,,,,,0,0,0,0,0,0,0,0,0,0,0,0,0,0,0,0,,,,,,0.0,,,,,,,
1111451,1745649348076,,,,,,,,,,,,,,,,,,,,,,,,,,,,,,,,,,0,0,0,0,0,0,0,0,0,0,0,0,0,0,0,0,,,,,,,,,,,,,
1111471,1745649348100,0.0,79,,-0.06,0.01,0.99,0,-0,0,1.0,1.09,92,0,0.0,3.6,,14.54,1.253,77.2,,6.7,5,,,,,,,,,,,,0,0,0,0,0,0,0,0,0,0,0,0,0,0,0,0,,,,,,0.0,,,,,,,
1111491,1745649348120,,,,,,,,,,,,,,,,,,,,,,,0,0,0,0,0.0,0.0,0.0,0.0,2.26,,,0,0,0,0,0,0,0,0,0,0,0,0,0,0,0,0,,0,,,,,38.985798,-76.949982,0.09,49.2,30,3,0.8
1111511,1745649348140,0.0,79,,-0.06,0.01,1.0,0,-0,0,1.0,1.09,92,0,0.0,3.6,,14.54,1.252,77.2,,6.9,5,,,,,,,,,,,,0,0,0,0,0,0,0,0,0,0,0,0,0,0,0,0,,,,,,0.0,,,,,,,
1111531,1745649348160,,,,,,,,,,,,,,,,,,,,,,,,,,,,,,,,,,0,0,0,0,0,0,0,0,0,0,0,0,0,0,0,0,,,,,,,,,,,,,
1111551,1745649348180,0.0,79,,-0.06,0.0,1.0,0,-0,0,1.0,1.09,92,0,0.0,3.6,,14.54,1.252,77.2,,6.9,5,,,,,,,,,,,,0,0,0,0,0,0,0,0,0,0,0,0,0,0,0,0,,,,,,0.0,,,,,,,
1111571,1745649348202,,,,,,,,,,,,,,,,,,,,,,,,,,,,,,,,,,0,0,0,0,0,0,0,0,0,0,0,0,0,0,0,0,,,,,,,,,,,,,
1111591,1745649348222,0.0,79,,-0.06,-0.0,1.0,0,-0,0,1.0,1.09,92,0,0.0,3.6,,14.54,1.252,77.2,,6.7,5,0,0,0,0,0.0,0.0,0.0,0.0,2.26,,,0,0,0,0,0,0,0,0,0,0,0,0,0,0,0,0,,0,,,,0.0,38.985798,-76.949982,0.11,49.2,30,3,0.8
1111611,1745649348242,,,,,,,,,,,,,,,,,,,,,,,,,,,,,,,,,,0,0,0,0,0,0,0,0,0,0,0,0,0,0,0,0,,,,,,,,,,,,,
1111631,1745649348262,0.0,79,,-0.05,-0.01,1.0,0,-0,0,1.0,1.09,92,0,0.0,3.6,,14.54,1.252,77.2,,6.7,5,,,,,,,,,,,,0,0,0,0,0,0,0,0,0,0,0,0,0,0,0,0,,,,,,0.0,,,,,,,
