"Interval"|"ms"|0|0|1,"Utc"|"ms"|0|0|1,"FrontBP"|"psi"|-5.0|5.0|25,"SteerAng"|"Degrees"|-145|145|25,"Battery"|"Volts"|-5.0|20.0|1,"AccelX"|"G"|-3.0|3.0|25,"AccelY"|"G"|-3.0|3.0|25,"AccelZ"|"G"|-3.0|3.0|25,"Yaw"|"Deg/Sec"|-120|120|25,"Pitch"|"Deg/Sec"|-120|120|25,"Roll"|"Deg/Sec"|-120|120|25,"Gsum"|"G"|0.0|3.0|25,"GsumMax"|"G"|0.0|3.0|25,"GsumPct"|"%"|0|100|25,"RPM"|""|0|10000|25,"TPS"|"%"|0.0|100.0|25,"InjectorPW"|"ms"|0.0|100.0|25,"Baro"|"kPa"|0|105|1,"MAP"|"Psi"|0.0|255.0|25,"Lambda"|""|-2.0|2.0|25,"IAT"|"C"|0.0|200.0|25,"EngineTemp"|"C"|0|200|1,"EOP"|"PSI"|0.0|152.0|25,"EOT"|"F"|0|250|25,"WSFR"|"MPH"|0|150|10,"WSFL"|"MPH"|0|100|10,"WSRR"|"MPH"|0|100|10,"WSRL"|""|0|100|10,"TCSet"|"%"|0.0|100.0|10,"TCSlip"|"%"|0.0|100.0|10,"TCComp"|"deg"|0.0|50.0|10,"TCCut"|"%"|0.0|100.0|10,"Analog8"|""|0.0|5.0|10,"OilTemp"|"F"|0|300|1,"AA_On"|""|0.0|1.0|1,"ThermLF1"|"C"|0|400|50,"ThermLF2"|"C"|0|400|50,"ThermRR1"|"C"|0|400|50,"ThermRR2"|"C"|0|400|50,"ThermLF3"|"C"|0|400|50,"ThermLF4"|"C"|0|400|50,"ThermLF5"|"C"|0|400|50,"ThermLF6"|"C"|0|400|50,"ThermLF7"|"C"|0|400|50,"ThermLF8"|"C"|0|400|50,"ThermRR3"|"C"|0|400|50,"ThermRR4"|"C"|0|400|50,"ThermRR5"|"C"|0|400|50,"ThermRR6"|"C"|0|400|50,"ThermRR7"|"C"|0|400|50,"ThermRR8"|"C"|0|400|50,"AA_LowDrag"|""|0|1|1,"Gear"|""|1|6|10,"AA_On"|""|0.0|1.0|1,"AA_LowDrag"|""|0|1|1,"Fuel_Mix"|""|-10|10|1,"AA_Packages"|""|0.0|1000.0|25,"Latitude"|"Degrees"|-180.0|180.0|10,"Longitude"|"Degrees"|-180.0|180.0|10,"Speed"|"kph"|0.0|150.0|10,"Altitude"|"m"|0.0|4000.0|10,"GPSSats"|""|0|20|10,"GPSQual"|""|0|5|10,"GPSDOP"|""|0.0|20.0|10
80850,1745675868855,,,,,,,,,,,,,,,,,,,,,,,,,,,,,,,,,,0,0,0,0,0,0,0,0,0,0,0,0,0,0,0,0,,,,,,,,,,,,,
80870,1745675868875,0.0,103,,-0.03,-0.05,1.04,1,-0,-0,1.04,1.04,100,3413,13.6,4.09,,13.59,0.891,71.8,,27.2,5,,,,,,,,,,,,0,0,0,0,0,0,0,0,0,0,0,0,0,0,0,0,,,,,,0.0,,,,,,,
80890,1745675868895,,,,,,,,,,,,,,,,,,,,,,,,,,,,,,,,,,0,0,0,0,0,0,0,0,0,0,0,0,0,0,0,0,,,,,,,,,,,,,
80910,1745675868915,0.0,103,,0.01,0.1,0.99,-0,-0,0,1.0,1.04,96,3425,15.6,4.14,,13.75,0.896,71.8,,27.2,5,,,,,,,,,,,,0,0,0,0,0,0,0,0,0,0,0,0,0,0,0,0,,,,,,0.0,,,,,,,
80930,1745675868935,,,,,,,,,,,,,,,,,,,,,,,1,2,1,1,0.0,165.0,0.0,0.0,2.27,,,0,0,0,0,0,0,0,0,0,0,0,0,0,0,0,0,,0,,,,,38.990784,-76.93988,1.99,35.3,24,2,1.1
80950,1745675868955,0.0,102,,-0.03,-0.04,1.04,1,-0,-0,1.04,1.04,100,3374,15.6,4.14,,13.82,0.907,71.8,,27.2,5,,,,,,,,,,,,0,0,0,0,0,0,0,0,0,0,0,0,0,0,0,0,,,,,,0.0,,,,,,,
80970,1745675868975,,,,,,,,,,,,,,,,,,,,,,,,,,,,,,,,,,0,0,0,0,0,0,0,0,0,0,0,0,0,0,0,0,,,,,,,,,,,,,
80990,1745675868995,0.0,102,,0.01,0.06,0.93,0,-0,-0,0.93,1.04,89,3288,15.6,4.18,,13.82,0.907,71.8,,27.2,5,,,,,,,,,,,,0,0,0,0,0,0,0,0,0,0,0,0,0,0,0,0,,,,,,0.0,,,,,,,
81010,1745675869009,,,,,,,,,,,,,,,,,,,,,,,,,,,,,,,,,,0,0,0,0,0,0,0,0,0,0,0,0,0,0,0,0,,,,,,,,,,,,,
81030,1745675869029,0.0,101,,-0.03,-0.05,1.0,0,-0,-0,1.0,1.04,96,3288,15.6,4.18,,13.87,0.943,71.8,,28.4,5,1,9,1,1,0.0,99.0,0.0,0.0,2.26,,,0,0,0,0,0,0,0,0,0,0,0,0,0,0,0,0,,0,,,,0.0,38.990788,-76.93988,2.22,35.3,24,2,1.1
81050,1745675869049,,,,,,,,,,,,,,,,,,,,,,,,,,,,,,,,,,0,0,0,0,0,0,0,0,0,0,0,0,0,0,0,0,,,,,,,,,,,,,
81070,1745675869069,0.0,102,,0.01,0.11,0.99,-1,-0,1,0.99,1.04,95,3492,15.7,4.14,,13.77,1.025,71.8,,28.4,5,,,,,,,,,,,,0,0,0,0,0,0,0,0,0,0,0,0,0,0,0,0,,,,,,0.0,,,,,,,
81090,1745675869089,,,,,,,,,,,,,,,,,,,,,,,,,,,,,,,,,,0,0,0,0,0,0,0,0,0,0,0,0,0,0,0,0,,,,,,,,,,,,,
81110,1745675869115,0.0,102,,0.03,0.06,0.97,0,-0,0,0.98,1.04,93,3561,16.0,4.14,,13.79,1.044,71.8,,28.4,5,,,,,,,,,,,,0,0,0,0,0,0,0,0,0,0,0,0,0,0,0,0,,,,,,0.0,,,,,,,
81130,1745675869135,,,,,,,,,,,,,,,,,,,,,,,1,18,2,1,0.0,121.0,0.0,0.0,2.26,,,0,0,0,0,0,0,0,0,0,0,0,0,0,0,0,0,,0,,,,,38.990788,-76.93988,2.54,35.3,24,2,1.1
81150,1745675869155,0.0,102,,0.01,0.01,0.95,1,-0,-0,0.95,1.04,91,3670,16.0,4.1,,13.69,1.016,71.8,,28.7,5,,,,,,,,,,,,0,0,0,0,0,0,0,0,0,0,0,0,0,0,0,0,,,,,,0.0,,,,,,,
81170,1745675869175,,,,,,,,,,,,,,,,,,,,,,,,,,,,,,,,,,0,0,0,0,0,0,0,0,0,0,0,0,0,0,0,0,,,,,,,,,,,,,
81190,1745675869195,0.0,102,,-0.0,0.02,0.96,1,-0,-0,0.96,1.04,92,3766,16.1,4.07,,13.69,1.016,71.8,,28.7,5,,,,,,,,,,,,0,0,0,0,0,0,0,0,0,0,0,0,0,0,0,0,,,,,,0.0,,,,,,,
81210,1745675869215,,,,,,,,,,,,,,,,,,,,,,,,,,,,,,,,,,0,0,0,0,0,0,0,0,0,0,0,0,0,0,0,0,,,,,,,,,,,,,
81230,1745675869235,0.0,102,,-0.01,0.13,1.01,1,-0,0,1.02,1.04,98,3766,16.1,4.07,,13.53,0.999,71.8,,29.0,5,2,18,2,2,0.0,140.0,0.0,0.0,2.26,,,0,0,0,0,0,0,0,0,0,0,0,0,0,0,0,0,,0,,,,0.0,38.990788,-76.93988,3.07,35.3,24,2,1.1
81250,1745675869255,,,,,,,,,,,,,,,,,,,,,,,,,,,,,,,,,,0,0,0,0,0,0,0,0,0,0,0,0,0,0,0,0,,,,,,,,,,,,,
81270,1745675869275,0.0,102,,-0.0,0.1,1.05,-0,-0,1,1.05,1.05,100,3927,16.2,4.04,,13.63,0.994,71.8,,29.0,5,,,,,,,,,,,,0,0,0,0,0,0,0,0,0,0,0,0,0,0,0,0,,,,,,0.0,,,,,,,
81290,1745675869295,,,,,,,,,,,,,,,,,,,,,,,,,,,,,,,,,,0,0,0,0,0,0,0,0,0,0,0,0,0,0,0,0,,,,,,,,,,,,,
81310,1745675869315,0.0,101,,0.0,0.08,1.04,-1,-0,1,1.04,1.05,99,3798,16.1,4.04,,13.48,0.993,71.8,,29.0,5,,,,,,,,,,,,0,0,0,0,0,0,0,0,0,0,0,0,0,0,0,0,,,,,,0.0,,,,,,,
81330,1745675869335,,,,,,,,,,,,,,,,,,,,,,,2,18,2,2,0.0,90.0,0.0,0.0,2.27,,,0,0,0,0,0,0,0,0,0,0,0,0,0,0,0,0,,0,,,,,38.990788,-76.93988,3.23,35.3,24,2,1.1
81350,1745675869355,0.0,102,,0.01,0.04,1.01,-0,-0,1,1.01,1.05,96,3689,15.8,4.08,,13.57,0.992,71.8,,27.3,5,,,,,,,,,,,,0,0,0,0,0,0,0,0,0,0,0,0,0,0,0,0,,,,,,0.0,,,,,,,
81370,1745675869375,,,,,,,,,,,,,,,,,,,,,,,,,,,,,,,,,,0,0,0,0,0,0,0,0,0,0,0,0,0,0,0,0,,,,,,,,,,,,,
81390,1745675869395,0.0,101,,0.0,0.04,1.0,-0,-0,0,1.01,1.05,95,3631,15.9,4.11,,13.57,0.992,71.8,,27.3,5,,,,,,,,,,,,0,0,0,0,0,0,0,0,0,0,0,0,0,0,0,0,,,,,,0.0,,,,,,,
81410,1745675869414,,,,,,,,,,,,,,,,,,,,,,,,,,,,,,,,,,0,0,0,0,0,0,0,0,0,0,0,0,0,0,0,0,,,,,,,,,,,,,
81430,1745675869434,0.0,102,14.06,0.01,0.04,0.98,0,-0,0,0.98,1.05,93,3631,15.9,4.11,15,13.65,1.012,71.8,72,27.9,5,2,70,2,2,0.0,87.0,0.0,0.0,2.27,0,0.0,0,0,0,0,0,0,0,0,0,0,0,0,0,0,0,0,0,0,0.0,0,-0,0.0,38.990791,-76.93988,3.57,35.3,24,2,1.1
81450,1745675869454,,,,,,,,,,,,,,,,,,,,,,,,,,,,,,,,,,0,0,0,0,0,0,0,0,0,0,0,0,0,0,0,0,,,,,,,,,,,,,
81470,1745675869474,0.0,101,,0.01,-0.0,0.97,1,-0,-0,0.97,1.05,92,3748,16.0,4.1,,13.61,1.099,71.8,,27.9,5,,,,,,,,,,,,0,0,0,0,0,0,0,0,0,0,0,0,0,0,0,0,,,,,,0.0,,,,,,,
81490,1745675869494,,,,,,,,,,,,,,,,,,,,,,,,,,,,,,,,,,0,0,0,0,0,0,0,0,0,0,0,0,0,0,0,0,,,,,,,,,,,,,
81510,1745675869514,0.0,102,,0.0,-0.05,1.0,1,-0,-0,1.0,1.05,95,3665,15.8,4.09,,13.64,1.062,71.8,,27.9,5,,,,,,,,,,,,0,0,0,0,0,0,0,0,0,0,0,0,0,0,0,0,,,,,,0.0,,,,,,,
81530,1745675869534,,,,,,,,,,,,,,,,,,,,,,,2,16,2,2,0.0,0.0,0.0,0.0,2.26,,,0,0,0,0,0,0,0,0,0,0,0,0,0,0,0,0,,0,,,,,38.990791,-76.93988,3.92,35.3,24,2,1.1
81550,1745675869554,0.0,102,,0.04,0.02,1.01,-1,-0,1,1.01,1.05,96,3486,15.9,4.11,,13.73,1.016,71.8,,26.9,5,,,,,,,,,,,,0,0,0,0,0,0,0,0,0,0,0,0,0,0,0,0,,,,,,0.0,,,,,,,
81570,1745675869574,,,,,,,,,,,,,,,,,,,,,,,,,,,,,,,,,,0,0,0,0,0,0,0,0,0,0,0,0,0,0,0,0,,,,,,,,,,,,,
81590,1745675869594,0.0,102,,0.04,-0.06,1.01,1,-0,-0,1.01,1.05,96,3354,16.1,4.18,,13.73,1.016,71.8,,26.9,5,,,,,,,,,,,,0,0,0,0,0,0,0,0,0,0,0,0,0,0,0,0,,,,,,0.0,,,,,,,
81610,1745675869614,,,,,,,,,,,,,,,,,,,,,,,,,,,,,,,,,,0,0,0,0,0,0,0,0,0,0,0,0,0,0,0,0,,,,,,,,,,,,,
81630,1745675869634,0.0,102,,0.07,0.02,1.02,-1,0,1,1.02,1.05,97,3354,16.1,4.18,,13.8,0.999,71.8,,27.3,5,3,20,3,3,0.0,254.0,0.0,0.0,2.26,,,0,0,0,0,0,0,0,0,0,0,0,0,0,0,0,0,,0,,,,0.0,38.990791,-76.93988,4.57,35.3,24,2,1.1
81650,1745675869654,,,,,,,,,,,,,,,,,,,,,,,,,,,,,,,,,,0,0,0,0,0,0,0,0,0,0,0,0,0,0,0,0,,,,,,,,,,,,,
81670,1745675869674,0.0,102,,0.04,-0.09,1.06,-0,0,-0,1.06,1.06,100,3268,16.1,4.17,,13.87,1.044,71.8,,27.3,5,,,,,,,,,,,,0,0,0,0,0,0,0,0,0,0,0,0,0,0,0,0,,,,,,0.0,,,,,,,
81690,1745675869694,,,,,,,,,,,,,,,,,,,,,,,,,,,,,,,,,,0,0,0,0,0,0,0,0,0,0,0,0,0,0,0,0,,,,,,,,,,,,,
81710,1745675869714,0.0,102,,0.09,0.04,0.98,-1,0,0,0.98,1.06,93,3311,16.1,4.19,,13.88,1.023,71.8,,27.3,5,,,,,,,,,,,,0,0,0,0,0,0,0,0,0,0,0,0,0,0,0,0,,,,,,0.0,,,,,,,
81730,1745675869734,,,,,,,,,,,,,,,,,,,,,,,3,18,3,3,0.0,2.0,0.0,0.0,2.26,,,0,0,0,0,0,0,0,0,0,0,0,0,0,0,0,0,,0,,,,,38.990791,-76.939873,5.25,35.3,24,2,1.1
81750,1745675869754,0.0,101,,0.08,-0.02,1.06,-2,0,1,1.07,1.07,100,3230,16.2,4.2,,13.94,0.981,71.8,,26.7,5,,,,,,,,,,,,0,0,0,0,0,0,0,0,0,0,0,0,0,0,0,0,,,,,,0.0,,,,,,,
81770,1745675869774,,,,,,,,,,,,,,,,,,,,,,,,,,,,,,,,,,0,0,0,0,0,0,0,0,0,0,0,0,0,0,0,0,,,,,,,,,,,,,
81790,1745675869794,0.0,103,,0.04,-0.1,1.12,-1,0,0,1.12,1.12,100,3150,15.9,4.24,,13.94,0.981,71.8,,26.7,5,,,,,,,,,,,,0,0,0,0,0,0,0,0,0,0,0,0,0,0,0,0,,,,,,0.0,,,,,,,
81810,1745675869814,,,,,,,,,,,,,,,,,,,,,,,,,,,,,,,,,,0,0,0,0,0,0,0,0,0,0,0,0,0,0,0,0,,,,,,,,,,,,,
81830,1745675869834,0.0,103,,0.04,-0.07,1.05,-0,0,-0,1.05,1.12,94,3150,15.9,4.24,,13.94,0.959,71.8,,27.7,5,4,8,4,4,0.0,54.0,0.0,0.0,2.26,,,0,0,0,0,0,0,0,0,0,0,0,0,0,0,0,0,,0,,,,0.0,38.990795,-76.939873,6.12,35.3,24,2,1.1
81850,1745675869854,,,,,,,,,,,,,,,,,,,,,,,,,,,,,,,,,,0,0,0,0,0,0,0,0,0,0,0,0,0,0,0,0,,,,,,,,,,,,,
81870,1745675869874,0.0,102,,0.07,-0.03,0.96,-1,0,-0,0.96,1.12,86,3102,15.7,4.22,,13.95,0.941,71.8,,27.7,5,,,,,,,,,,,,0,0,0,0,0,0,0,0,0,0,0,0,0,0,0,0,,,,,,0.0,,,,,,,
81890,1745675869894,,,,,,,,,,,,,,,,,,,,,,,,,,,,,,,,,,0,0,0,0,0,0,0,0,0,0,0,0,0,0,0,0,,,,,,,,,,,,,
81910,1745675869916,0.0,102,,0.1,0.04,0.89,-1,0,0,0.9,1.12,80,3093,15.7,4.24,,13.9,0.94,71.8,,27.7,5,,,,,,,,,,,,0,0,0,0,0,0,0,0,0,0,0,0,0,0,0,0,,,,,,0.0,,,,,,,
81930,1745675869936,,,,,,,,,,,,,,,,,,,,,,,4,382,4,4,0.0,0.0,0.0,0.0,2.27,,,0,0,0,0,0,0,0,0,0,0,0,0,0,0,0,0,,0,,,,,38.990795,-76.939873,6.69,35.3,24,2,1.1
81950,1745675869956,0.0,103,,0.12,0.09,0.9,-2,0,1,0.91,1.12,81,3086,15.5,4.24,,13.96,0.945,71.8,,26.9,5,,,,,,,,,,,,0,0,0,0,0,0,0,0,0,0,0,0,0,0,0,0,,,,,,0.0,,,,,,,
81970,1745675869976,,,,,,,,,,,,,,,,,,,,,,,,,,,,,,,,,,0,0,0,0,0,0,0,0,0,0,0,0,0,0,0,0,,,,,,,,,,,,,
81990,1745675869996,0.0,102,,0.13,0.07,0.96,-3,0,1,0.97,1.12,86,3072,15.6,4.25,,13.96,0.945,71.8,,26.9,5,,,,,,,,,,,,0,0,0,0,0,0,0,0,0,0,0,0,0,0,0,0,,,,,,0.0,,,,,,,
82010,1745675870008,,,,,,,,,,,,,,,,,,,,,,,,,,,,,,,,,,0,0,0,0,0,0,0,0,0,0,0,0,0,0,0,0,,,,,,,,,,,,,
82030,1745675870028,0.0,102,,0.13,0.01,1.03,-3,0,2,1.04,1.12,93,3072,15.6,4.25,,13.99,0.944,71.8,,26.7,5,5,7,5,4,0.0,49.0,0.0,0.0,2.27,,,0,0,0,0,0,0,0,0,0,0,0,0,0,0,0,0,,0,,,,0.0,38.990799,-76.939873,7.43,35.3,24,2,1.1
82050,1745675870048,,,,,,,,,,,,,,,,,,,,,,,,,,,,,,,,,,0,0,0,0,0,0,0,0,0,0,0,0,0,0,0,0,,,,,,,,,,,,,
82070,1745675870068,0.0,102,,0.11,-0.07,1.12,-3,0,1,1.13,1.13,100,3064,15.5,4.24,,13.99,0.949,71.8,,26.7,5,,,,,,,,,,,,0,0,0,0,0,0,0,0,0,0,0,0,0,0,0,0,,,,,,0.0,,,,,,,
82090,1745675870088,,,,,,,,,,,,,,,,,,,,,,,,,,,,,,,,,,0,0,0,0,0,0,0,0,0,0,0,0,0,0,0,0,,,,,,,,,,,,,
82110,1745675870114,0.0,103,,0.07,-0.13,1.18,-3,0,1,1.19,1.19,100,3055,15.6,4.24,,13.99,0.948,71.8,,26.7,5,,,,,,,,,,,,0,0,0,0,0,0,0,0,0,0,0,0,0,0,0,0,,,,,,0.0,,,,,,,
82130,1745675870134,,,,,,,,,,,,,,,,,,,,,,,5,869,5,5,0.0,51.0,0.0,0.0,2.26,,,0,0,0,0,0,0,0,0,0,0,0,0,0,0,0,0,,0,,,,,38.990799,-76.939873,8.1,35.3,24,2,1.1
82150,1745675870154,0.0,102,,0.06,-0.14,1.16,-2,0,0,1.17,1.19,98,3097,15.7,4.21,,13.91,0.942,71.8,,27.4,5,,,,,,,,,,,,0,0,0,0,0,0,0,0,0,0,0,0,0,0,0,0,,,,,,0.0,,,,,,,
82170,1745675870174,,,,,,,,,,,,,,,,,,,,,,,,,,,,,,,,,,0,0,0,0,0,0,0,0,0,0,0,0,0,0,0,0,,,,,,,,,,,,,
82190,1745675870194,0.0,102,,0.08,-0.08,1.06,-2,0,0,1.07,1.19,90,3148,11.1,4.01,,13.91,0.942,71.8,,27.4,5,,,,,,,,,,,,0,0,0,0,0,0,0,0,0,0,0,0,0,0,0,0,,,,,,0.0,,,,,,,
82210,1745675870214,,,,,,,,,,,,,,,,,,,,,,,,,,,,,,,,,,0,0,0,0,0,0,0,0,0,0,0,0,0,0,0,0,,,,,,,,,,,,,
82230,1745675870234,0.0,102,,0.1,0.01,0.98,-2,-0,0,0.98,1.19,82,3148,11.1,4.01,,13.82,0.942,71.8,,27.7,5,6,869,6,6,0.0,54.0,0.0,0.0,2.26,,,0,0,0,0,0,0,0,0,0,0,0,0,0,0,0,0,,0,,,,0.0,38.990799,-76.939873,8.67,35.3,24,2,1.1
82250,1745675870254,,,,,,,,,,,,,,,,,,,,,,,,,,,,,,,,,,0,0,0,0,0,0,0,0,0,0,0,0,0,0,0,0,,,,,,,,,,,,,
82270,1745675870274,0.0,103,,0.09,-0.01,1.03,-3,0,1,1.04,1.19,87,3143,10.5,3.97,,13.73,0.94,71.8,,27.7,5,,,,,,,,,,,,0,0,0,0,0,0,0,0,0,0,0,0,0,0,0,0,,,,,,0.0,,,,,,,
82290,1745675870294,,,,,,,,,,,,,,,,,,,,,,,,,,,,,,,,,,0,0,0,0,0,0,0,0,0,0,0,0,0,0,0,0,,,,,,,,,,,,,
82310,1745675870314,0.0,102,,0.08,-0.09,1.14,-4,0,1,1.15,1.19,96,3134,10.3,3.98,,13.69,0.944,71.8,,27.7,5,,,,,,,,,,,,0,0,0,0,0,0,0,0,0,0,0,0,0,0,0,0,,,,,,0.0,,,,,,,
82330,1745675870334,,,,,,,,,,,,,,,,,,,,,,,6,869,6,6,0.0,0.0,0.0,0.0,2.27,,,0,0,0,0,0,0,0,0,0,0,0,0,0,0,0,0,,0,,,,,38.990803,-76.939873,9.34,35.3,24,2,1.1
82350,1745675870354,0.0,101,,0.04,-0.15,1.17,-3,0,0,1.18,1.19,99,3096,10.2,3.96,,13.72,0.939,71.8,,27.8,5,,,,,,,,,,,,0,0,0,0,0,0,0,0,0,0,0,0,0,0,0,0,,,,,,0.0,,,,,,,
82370,1745675870374,,,,,,,,,,,,,,,,,,,,,,,,,,,,,,,,,,0,0,0,0,0,0,0,0,0,0,0,0,0,0,0,0,,,,,,,,,,,,,
82390,1745675870394,0.0,99,,0.01,-0.16,1.14,-3,0,-0,1.15,1.19,96,3044,9.9,3.98,,13.72,0.939,71.8,,27.8,5,,,,,,,,,,,,0,0,0,0,0,0,0,0,0,0,0,0,0,0,0,0,,,,,,0.0,,,,,,,
82410,1745675870415,,,,,,,,,,,,,,,,,,,,,,,,,,,,,,,,,,0,0,0,0,0,0,0,0,0,0,0,0,0,0,0,0,,,,,,,,,,,,,
82430,1745675870435,0.0,102,14.06,0.01,-0.13,1.11,-2,0,-0,1.12,1.19,94,3044,9.9,3.98,15,13.73,0.931,71.8,74,26.8,5,6,5,6,7,0.0,0.0,0.0,0.0,2.27,0,0.0,0,0,0,0,0,0,0,0,0,0,0,0,0,0,0,0,0,0,0.0,0,-0,0.0,38.990803,-76.939873,10.15,35.3,24,2,1.1
82450,1745675870455,,,,,,,,,,,,,,,,,,,,,,,,,,,,,,,,,,0,0,0,0,0,0,0,0,0,0,0,0,0,0,0,0,,,,,,,,,,,,,
82470,1745675870475,0.0,102,,0.01,-0.1,1.1,-3,0,-1,1.1,1.19,93,3020,5.5,3.83,,13.6,0.919,71.8,,26.8,5,,,,,,,,,,,,0,0,0,0,0,0,0,0,0,0,0,0,0,0,0,0,,,,,,0.0,,,,,,,
82490,1745675870495,,,,,,,,,,,,,,,,,,,,,,,,,,,,,,,,,,0,0,0,0,0,0,0,0,0,0,0,0,0,0,0,0,,,,,,,,,,,,,
82510,1745675870515,0.0,102,,0.0,-0.11,1.11,-3,0,-1,1.11,1.19,93,2862,4.3,3.78,,13.49,0.903,71.8,,26.8,5,,,,,,,,,,,,0,0,0,0,0,0,0,0,0,0,0,0,0,0,0,0,,,,,,0.0,,,,,,,
82530,1745675870535,,,,,,,,,,,,,,,,,,,,,,,7,5,7,7,0.0,0.0,0.0,0.0,2.27,,,0,0,0,0,0,0,0,0,0,0,0,0,0,0,0,0,,0,,,,,38.990807,-76.939865,10.51,35.2,24,2,1.1
82550,1745675870555,0.0,102,,0.01,-0.07,1.08,-4,0,-0,1.08,1.19,91,2662,4.2,3.74,,13.61,0.892,71.8,,26.2,5,,,,,,,,,,,,0,0,0,0,0,0,0,0,0,0,0,0,0,0,0,0,,,,,,0.0,,,,,,,
82570,1745675870575,,,,,,,,,,,,,,,,,,,,,,,,,,,,,,,,,,0,0,0,0,0,0,0,0,0,0,0,0,0,0,0,0,,,,,,,,,,,,,
82590,1745675870595,0.0,102,,-0.0,-0.06,1.06,-4,0,-1,1.06,1.19,89,2486,4.3,3.72,,13.61,0.892,71.8,,26.2,5,,,,,,,,,,,,0,0,0,0,0,0,0,0,0,0,0,0,0,0,0,0,,,,,,0.0,,,,,,,
82610,1745675870615,,,,,,,,,,,,,,,,,,,,,,,,,,,,,,,,,,0,0,0,0,0,0,0,0,0,0,0,0,0,0,0,0,,,,,,,,,,,,,
82630,1745675870635,0.0,102,,-0.01,-0.07,1.06,-4,0,-0,1.06,1.19,89,2486,4.3,3.72,,13.72,0.885,71.8,,25.6,5,7,3,7,7,0.0,185.0,0.0,0.0,2.26,,,0,0,0,0,0,0,0,0,0,0,0,0,0,0,0,0,,0,,,,0.0,38.99081,-76.939865,11.02,35.2,24,2,1.1
82650,1745675870655,,,,,,,,,,,,,,,,,,,,,,,,,,,,,,,,,,0,0,0,0,0,0,0,0,0,0,0,0,0,0,0,0,,,,,,,,,,,,,
82670,1745675870675,0.0,102,,-0.02,-0.07,1.06,-5,0,-0,1.06,1.19,89,2402,4.3,3.71,,13.82,0.875,71.8,,25.6,5,,,,,,,,,,,,0,0,0,0,0,0,0,0,0,0,0,0,0,0,0,0,,,,,,0.0,,,,,,,
82690,1745675870695,,,,,,,,,,,,,,,,,,,,,,,,,,,,,,,,,,0,0,0,0,0,0,0,0,0,0,0,0,0,0,0,0,,,,,,,,,,,,,
82710,1745675870715,0.0,102,,-0.03,-0.06,1.04,-5,0,-0,1.05,1.19,88,2329,4.5,3.69,,13.83,0.865,71.8,,25.6,5,,,,,,,,,,,,0,0,0,0,0,0,0,0,0,0,0,0,0,0,0,0,,,,,,0.0,,,,,,,
82730,1745675870735,,,,,,,,,,,,,,,,,,,,,,,7,8,7,7,0.0,29.0,0.0,0.0,2.26,,,0,0,0,0,0,0,0,0,0,0,0,0,0,0,0,0,,0,,,,,38.990814,-76.939865,11.5,35.2,24,2,1.1
82750,1745675870755,0.0,102,,-0.04,-0.05,1.03,-5,0,-0,1.03,1.19,86,2418,4.4,3.7,,13.8,0.864,71.8,,26.7,5,,,,,,,,,,,,0,0,0,0,0,0,0,0,0,0,0,0,0,0,0,0,,,,,,0.0,,,,,,,
82770,1745675870775,,,,,,,,,,,,,,,,,,,,,,,,,,,,,,,,,,0,0,0,0,0,0,0,0,0,0,0,0,0,0,0,0,,,,,,,,,,,,,
82790,1745675870795,0.0,101,,-0.03,-0.02,1.03,-5,0,-0,1.03,1.19,86,2483,4.4,3.71,,13.8,0.864,71.8,,26.7,5,,,,,,,,,,,,0,0,0,0,0,0,0,0,0,0,0,0,0,0,0,0,,,,,,0.0,,,,,,,
82810,1745675870815,,,,,,,,,,,,,,,,,,,,,,,,,,,,,,,,,,0,0,0,0,0,0,0,0,0,0,0,0,0,0,0,0,,,,,,,,,,,,,
82830,1745675870835,0.0,101,,-0.04,-0.03,1.04,-5,0,-0,1.04,1.19,87,2483,4.4,3.71,,13.8,0.866,71.8,,27.5,5,7,15,7,7,0.0,135.0,0.0,0.0,2.26,,,0,0,0,0,0,0,0,0,0,0,0,0,0,0,0,0,,0,,,,0.0,38.990818,-76.939865,11.58,35.2,24,2,1.1
82850,1745675870855,,,,,,,,,,,,,,,,,,,,,,,,,,,,,,,,,,0,0,0,0,0,0,0,0,0,0,0,0,0,0,0,0,,,,,,,,,,,,,
82870,1745675870875,0.0,102,,-0.05,-0.03,1.03,-6,0,-0,1.04,1.19,87,2441,4.3,3.72,,13.82,0.869,71.8,,27.5,5,,,,,,,,,,,,0,0,0,0,0,0,0,0,0,0,0,0,0,0,0,0,,,,,,0.0,,,,,,,
82890,1745675870895,,,,,,,,,,,,,,,,,,,,,,,,,,,,,,,,,,0,0,0,0,0,0,0,0,0,0,0,0,0,0,0,0,,,,,,,,,,,,,
82910,1745675870915,0.0,102,,-0.04,-0.01,1.01,-6,0,-0,1.01,1.19,85,2485,4.1,3.71,,13.73,0.868,71.8,,27.5,5,,,,,,,,,,,,0,0,0,0,0,0,0,0,0,0,0,0,0,0,0,0,,,,,,0.0,,,,,,,
82930,1745675870935,,,,,,,,,,,,,,,,,,,,,,,8,13,7,7,0.0,19.0,0.0,0.0,2.27,,,0,0,0,0,0,0,0,0,0,0,0,0,0,0,0,0,,1,,,,,38.990818,-76.939865,11.59,35.2,24,2,1.1
82950,1745675870955,0.0,102,,-0.05,-0.04,1.03,-6,0,-0,1.03,1.19,86,2521,4.0,3.73,,13.69,0.869,71.8,,28.0,5,,,,,,,,,,,,0,0,0,0,0,0,0,0,0,0,0,0,0,0,0,0,,,,,,0.0,,,,,,,
82970,1745675870975,,,,,,,,,,,,,,,,,,,,,,,,,,,,,,,,,,0,0,0,0,0,0,0,0,0,0,0,0,0,0,0,0,,,,,,,,,,,,,
82990,1745675870995,0.0,102,,-0.05,-0.02,1.0,-6,0,-0,1.0,1.19,84,2550,3.9,3.72,,13.69,0.869,71.8,,28.0,5,,,,,,,,,,,,0,0,0,0,0,0,0,0,0,0,0,0,0,0,0,0,,,,,,0.0,,,,,,,
83010,1745675871009,,,,,,,,,,,,,,,,,,,,,,,,,,,,,,,,,,0,0,0,0,0,0,0,0,0,0,0,0,0,0,0,0,,,,,,,,,,,,,
83030,1745675871029,0.0,102,,-0.05,0.02,1.04,-6,0,-0,1.04,1.19,87,2550,3.9,3.72,,13.69,0.876,71.8,,28.1,5,7,15,7,8,0.0,45.0,0.0,0.0,2.27,,,0,0,0,0,0,0,0,0,0,0,0,0,0,0,0,0,,1,,,,0.0,38.990818,-76.939858,11.87,35.2,24,2,1.1
83050,1745675871049,,,,,,,,,,,,,,,,,,,,,,,,,,,,,,,,,,0,0,0,0,0,0,0,0,0,0,0,0,0,0,0,0,,,,,,,,,,,,,
83070,1745675871069,0.0,102,,-0.06,0.0,1.04,-6,1,-1,1.05,1.19,88,2550,4.0,3.72,,13.75,0.885,71.8,,28.1,5,,,,,,,,,,,,0,0,0,0,0,0,0,0,0,0,0,0,0,0,0,0,,,,,,0.0,,,,,,,
83090,1745675871089,,,,,,,,,,,,,,,,,,,,,,,,,,,,,,,,,,0,0,0,0,0,0,0,0,0,0,0,0,0,0,0,0,,,,,,,,,,,,,
83110,1745675871115,0.0,102,,-0.06,0.0,1.04,-6,1,-1,1.04,1.19,87,2497,3.9,3.71,,13.75,0.891,71.8,,28.1,5,,,,,,,,,,,,0,0,0,0,0,0,0,0,0,0,0,0,0,0,0,0,,,,,,0.0,,,,,,,
83130,1745675871135,,,,,,,,,,,,,,,,,,,,,,,7,7,7,8,0.0,177.0,0.0,0.0,2.26,,,0,0,0,0,0,0,0,0,0,0,0,0,0,0,0,0,,0,,,,,38.990822,-76.939858,11.8,35.2,24,2,1.1
83150,1745675871155,0.0,102,,-0.06,-0.01,1.05,-7,1,-1,1.05,1.19,88,2547,4.2,3.72,,13.69,0.9,71.8,,27.9,5,,,,,,,,,,,,0,0,0,0,0,0,0,0,0,0,0,0,0,0,0,0,,,,,,0.0,,,,,,,
83170,1745675871175,,,,,,,,,,,,,,,,,,,,,,,,,,,,,,,,,,0,0,0,0,0,0,0,0,0,0,0,0,0,0,0,0,,,,,,,,,,,,,
83190,1745675871195,0.0,102,,-0.06,-0.01,1.01,-7,1,-0,1.01,1.19,85,2556,4.3,3.72,,13.69,0.9,71.8,,27.9,5,,,,,,,,,,,,0,0,0,0,0,0,0,0,0,0,0,0,0,0,0,0,,,,,,0.0,,,,,,,
83210,1745675871213,,,,,,,,,,,,,,,,,,,,,,,,,,,,,,,,,,0,0,0,0,0,0,0,0,0,0,0,0,0,0,0,0,,,,,,,,,,,,,
83230,1745675871233,0.0,102,,-0.06,-0.02,1.03,-7,1,-0,1.04,1.19,87,2556,4.3,3.72,,13.72,0.901,71.8,,28.9,5,7,10,7,8,0.0,26.0,0.0,0.0,2.26,,,0,0,0,0,0,0,0,0,0,0,0,0,0,0,0,0,,0,,,,0.0,38.990826,-76.939858,12.04,35.2,24,2,1.1
83250,1745675871253,,,,,,,,,,,,,,,,,,,,,,,,,,,,,,,,,,0,0,0,0,0,0,0,0,0,0,0,0,0,0,0,0,,,,,,,,,,,,,
83270,1745675871273,0.0,102,,-0.07,-0.02,1.01,-7,2,-0,1.01,1.19,85,2631,4.5,3.72,,13.68,0.904,71.8,,28.9,5,,,,,,,,,,,,0,0,0,0,0,0,0,0,0,0,0,0,0,0,0,0,,,,,,0.0,,,,,,,
83290,1745675871293,,,,,,,,,,,,,,,,,,,,,,,,,,,,,,,,,,0,0,0,0,0,0,0,0,0,0,0,0,0,0,0,0,,,,,,,,,,,,,
83310,1745675871315,0.0,102,,-0.07,-0.04,1.04,-7,2,-0,1.04,1.19,87,2629,4.4,3.73,,13.57,0.911,71.8,,28.9,5,,,,,,,,,,,,0,0,0,0,0,0,0,0,0,0,0,0,0,0,0,0,,,,,,0.0,,,,,,,
83330,1745675871335,,,,,,,,,,,,,,,,,,,,,,,7,8,8,7,0.0,89.0,0.0,0.0,2.26,,,0,0,0,0,0,0,0,0,0,0,0,0,0,0,0,0,,0,,,,,38.990829,-76.939858,11.93,35.2,24,2,1.1
83350,1745675871355,0.0,102,,-0.06,-0.05,1.01,-7,2,0,1.01,1.19,85,2661,4.4,3.73,,13.56,0.912,71.8,,28.8,5,,,,,,,,,,,,0,0,0,0,0,0,0,0,0,0,0,0,0,0,0,0,,,,,,0.0,,,,,,,
83370,1745675871375,,,,,,,,,,,,,,,,,,,,,,,,,,,,,,,,,,0,0,0,0,0,0,0,0,0,0,0,0,0,0,0,0,,,,,,,,,,,,,
83390,1745675871395,0.0,102,,-0.06,-0.05,1.03,-7,2,0,1.03,1.19,87,2659,4.2,3.72,,13.56,0.912,71.8,,28.8,5,,,,,,,,,,,,0,0,0,0,0,0,0,0,0,0,0,0,0,0,0,0,,,,,,0.0,,,,,,,
83410,1745675871415,,,,,,,,,,,,,,,,,,,,,,,,,,,,,,,,,,0,0,0,0,0,0,0,0,0,0,0,0,0,0,0,0,,,,,,,,,,,,,
83430,1745675871435,0.0,102,14.08,-0.06,-0.04,1.01,-7,2,0,1.01,1.19,85,2659,4.2,3.72,15,13.55,0.919,71.8,74,29.0,5,8,7,8,8,0.0,240.0,0.0,0.0,2.27,0,0.0,0,0,0,0,0,0,0,0,0,0,0,0,0,0,0,0,0,0,0.0,0,-0,0.0,38.990833,-76.939858,11.98,35.2,24,2,1.1
83450,1745675871455,,,,,,,,,,,,,,,,,,,,,,,,,,,,,,,,,,0,0,0,0,0,0,0,0,0,0,0,0,0,0,0,0,,,,,,,,,,,,,
83470,1745675871475,0.0,102,,-0.06,-0.04,1.03,-7,2,0,1.03,1.19,87,2663,4.1,3.74,,13.61,0.93,71.8,,29.0,5,,,,,,,,,,,,0,0,0,0,0,0,0,0,0,0,0,0,0,0,0,0,,,,,,0.0,,,,,,,
83490,1745675871495,,,,,,,,,,,,,,,,,,,,,,,,,,,,,,,,,,0,0,0,0,0,0,0,0,0,0,0,0,0,0,0,0,,,,,,,,,,,,,
83510,1745675871514,0.0,102,,-0.04,-0.05,1.05,-7,2,0,1.05,1.19,88,2705,4.0,3.72,,13.57,0.935,71.8,,29.0,5,,,,,,,,,,,,0,0,0,0,0,0,0,0,0,0,0,0,0,0,0,0,,,,,,0.0,,,,,,,
83530,1745675871534,,,,,,,,,,,,,,,,,,,,,,,8,8,8,8,0.0,248.0,0.0,0.0,2.27,,,0,0,0,0,0,0,0,0,0,0,0,0,0,0,0,0,,1,,,,,38.990837,-76.939858,12.3,35.2,24,2,1.1
83550,1745675871554,0.0,102,,-0.04,-0.05,1.01,-7,2,-0,1.02,1.19,85,2680,4.1,3.73,,13.59,0.938,71.8,,29.0,5,,,,,,,,,,,,0,0,0,0,0,0,0,0,0,0,0,0,0,0,0,0,,,,,,0.0,,,,,,,
83570,1745675871574,,,,,,,,,,,,,,,,,,,,,,,,,,,,,,,,,,0,0,0,0,0,0,0,0,0,0,0,0,0,0,0,0,,,,,,,,,,,,,
83590,1745675871594,0.0,102,,-0.04,-0.05,1.03,-7,2,0,1.04,1.19,87,2653,4.1,3.72,,13.59,0.938,71.8,,29.0,5,,,,,,,,,,,,0,0,0,0,0,0,0,0,0,0,0,0,0,0,0,0,,,,,,0.0,,,,,,,
83610,1745675871614,,,,,,,,,,,,,,,,,,,,,,,,,,,,,,,,,,0,0,0,0,0,0,0,0,0,0,0,0,0,0,0,0,,,,,,,,,,,,,
83630,1745675871634,0.0,102,,-0.04,-0.01,0.99,-7,1,0,0.99,1.19,83,2653,4.1,3.72,,13.59,0.94,71.8,,27.9,5,8,8,8,8,0.0,23.0,0.0,0.0,2.26,,,0,0,0,0,0,0,0,0,0,0,0,0,0,0,0,0,,1,,,,0.0,38.990837,-76.939858,12.43,35.2,24,2,1.1
83650,1745675871654,,,,,,,,,,,,,,,,,,,,,,,,,,,,,,,,,,0,0,0,0,0,0,0,0,0,0,0,0,0,0,0,0,,,,,,,,,,,,,
83670,1745675871674,0.0,101,,-0.04,-0.01,1.03,-7,1,0,1.03,1.19,87,2670,4.1,3.72,,13.63,0.942,71.8,,27.9,5,,,,,,,,,,,,0,0,0,0,0,0,0,0,0,0,0,0,0,0,0,0,,,,,,0.0,,,,,,,
83690,1745675871694,,,,,,,,,,,,,,,,,,,,,,,,,,,,,,,,,,0,0,0,0,0,0,0,0,0,0,0,0,0,0,0,0,,,,,,,,,,,,,
83710,1745675871714,0.0,102,,-0.03,0.02,1.0,-7,1,0,1.01,1.19,84,2652,4.2,3.72,,13.59,0.941,71.8,,27.9,5,,,,,,,,,,,,0,0,0,0,0,0,0,0,0,0,0,0,0,0,0,0,,,,,,0.0,,,,,,,
83730,1745675871734,,,,,,,,,,,,,,,,,,,,,,,8,8,8,8,0.0,16.0,0.0,0.0,2.26,,,0,0,0,0,0,0,0,0,0,0,0,0,0,0,0,0,,1,,,,,38.990837,-76.93985,12.8,35.2,24,2,1.1
83750,1745675871754,0.0,103,,-0.05,0.0,1.0,-6,1,-0,1.0,1.19,84,2684,4.5,3.72,,13.52,0.934,71.8,,28.0,5,,,,,,,,,,,,0,0,0,0,0,0,0,0,0,0,0,0,0,0,0,0,,,,,,0.0,,,,,,,
83770,1745675871774,,,,,,,,,,,,,,,,,,,,,,,,,,,,,,,,,,0,0,0,0,0,0,0,0,0,0,0,0,0,0,0,0,,,,,,,,,,,,,
83790,1745675871794,0.0,102,,-0.05,0.02,1.01,-6,1,0,1.01,1.19,85,2730,4.5,3.73,,13.52,0.934,71.8,,28.0,5,,,,,,,,,,,,0,0,0,0,0,0,0,0,0,0,0,0,0,0,0,0,,,,,,0.0,,,,,,,
83810,1745675871814,,,,,,,,,,,,,,,,,,,,,,,,,,,,,,,,,,0,0,0,0,0,0,0,0,0,0,0,0,0,0,0,0,,,,,,,,,,,,,
83830,1745675871834,0.0,102,,-0.04,0.05,0.98,-6,1,0,0.98,1.19,82,2730,4.5,3.73,,13.59,0.93,71.8,,28.9,5,8,8,8,8,0.0,1.0,0.0,0.0,2.26,,,0,0,0,0,0,0,0,0,0,0,0,0,0,0,0,0,,1,,,,0.0,38.990841,-76.93985,12.81,35.2,24,2,1.1
83850,1745675871854,,,,,,,,,,,,,,,,,,,,,,,,,,,,,,,,,,0,0,0,0,0,0,0,0,0,0,0,0,0,0,0,0,,,,,,,,,,,,,
83870,1745675871874,0.0,103,,-0.04,0.01,1.03,-6,1,-0,1.03,1.19,86,2752,4.5,3.74,,13.56,0.93,71.8,,28.9,5,,,,,,,,,,,,0,0,0,0,0,0,0,0,0,0,0,0,0,0,0,0,,,,,,0.0,,,,,,,
83890,1745675871894,,,,,,,,,,,,,,,,,,,,,,,,,,,,,,,,,,0,0,0,0,0,0,0,0,0,0,0,0,0,0,0,0,,,,,,,,,,,,,
83910,1745675871914,0.0,101,,-0.03,0.03,1.01,-5,0,-0,1.01,1.19,85,2712,4.2,3.73,,13.55,0.929,71.8,,28.9,5,,,,,,,,,,,,0,0,0,0,0,0,0,0,0,0,0,0,0,0,0,0,,,,,,0.0,,,,,,,
83930,1745675871934,,,,,,,,,,,,,,,,,,,,,,,8,14,8,8,0.0,24.0,0.0,0.0,2.27,,,0,0,0,0,0,0,0,0,0,0,0,0,0,0,0,0,,1,,,,,38.990845,-76.93985,13.05,35.2,24,2,1.1
83950,1745675871954,0.0,102,,-0.02,0.05,0.96,-5,0,0,0.97,1.19,81,2735,4.2,3.74,,13.56,0.932,71.8,,29.3,5,,,,,,,,,,,,0,0,0,0,0,0,0,0,0,0,0,0,0,0,0,0,,,,,,0.0,,,,,,,
83970,1745675871974,,,,,,,,,,,,,,,,,,,,,,,,,,,,,,,,,,0,0,0,0,0,0,0,0,0,0,0,0,0,0,0,0,,,,,,,,,,,,,
83990,1745675871994,0.0,103,,-0.04,0.01,0.99,-4,1,-0,0.99,1.19,83,2764,3.9,3.74,,13.56,0.932,71.8,,29.3,5,,,,,,,,,,,,0,0,0,0,0,0,0,0,0,0,0,0,0,0,0,0,,,,,,0.0,,,,,,,
84010,1745675872008,,,,,,,,,,,,,,,,,,,,,,,,,,,,,,,,,,0,0,0,0,0,0,0,0,0,0,0,0,0,0,0,0,,,,,,,,,,,,,
84030,1745675872028,0.0,103,,-0.04,0.01,1.0,-4,0,0,1.0,1.19,84,2764,3.9,3.74,,13.51,0.934,71.8,,28.6,5,8,8,8,8,0.0,248.0,0.0,0.0,2.27,,,0,0,0,0,0,0,0,0,0,0,0,0,0,0,0,0,,1,,,,0.0,38.990849,-76.939842,12.83,35.2,24,2,1.1
84050,1745675872048,,,,,,,,,,,,,,,,,,,,,,,,,,,,,,,,,,0,0,0,0,0,0,0,0,0,0,0,0,0,0,0,0,,,,,,,,,,,,,
84070,1745675872068,0.0,102,,-0.02,0.07,0.97,-4,0,0,0.98,1.19,82,2765,4.0,3.74,,13.53,0.931,71.8,,28.6,5,,,,,,,,,,,,0,0,0,0,0,0,0,0,0,0,0,0,0,0,0,0,,,,,,0.0,,,,,,,
84090,1745675872088,,,,,,,,,,,,,,,,,,,,,,,,,,,,,,,,,,0,0,0,0,0,0,0,0,0,0,0,0,0,0,0,0,,,,,,,,,,,,,
84110,1745675872114,0.0,102,,-0.04,0.01,1.0,-4,0,0,1.0,1.19,84,2739,4.0,3.75,,13.49,0.932,71.8,,28.6,5,,,,,,,,,,,,0,0,0,0,0,0,0,0,0,0,0,0,0,0,0,0,,,,,,0.0,,,,,,,
84130,1745675872134,,,,,,,,,,,,,,,,,,,,,,,8,7,8,8,0.0,66.0,0.0,0.0,2.26,,,0,0,0,0,0,0,0,0,0,0,0,0,0,0,0,0,,1,,,,,38.990852,-76.939842,13.19,35.2,24,2,1.1
84150,1745675872154,0.0,102,,-0.02,0.01,1.03,-4,0,0,1.03,1.19,86,2803,4.1,3.73,,13.53,0.925,71.8,,28.2,5,,,,,,,,,,,,0,0,0,0,0,0,0,0,0,0,0,0,0,0,0,0,,,,,,0.0,,,,,,,
84170,1745675872174,,,,,,,,,,,,,,,,,,,,,,,,,,,,,,,,,,0,0,0,0,0,0,0,0,0,0,0,0,0,0,0,0,,,,,,,,,,,,,
84190,1745675872194,0.0,102,,-0.01,0.01,0.99,-4,0,1,0.99,1.19,83,2776,4.2,3.74,,13.53,0.925,71.8,,28.2,5,,,,,,,,,,,,0,0,0,0,0,0,0,0,0,0,0,0,0,0,0,0,,,,,,0.0,,,,,,,
84210,1745675872214,,,,,,,,,,,,,,,,,,,,,,,,,,,,,,,,,,0,0,0,0,0,0,0,0,0,0,0,0,0,0,0,0,,,,,,,,,,,,,
84230,1745675872234,0.0,102,,-0.03,0.04,0.99,-3,0,0,0.99,1.19,83,2776,4.2,3.74,,13.52,0.92,71.8,,28.8,5,8,27,8,8,0.0,94.0,0.0,0.0,2.26,,,0,0,0,0,0,0,0,0,0,0,0,0,0,0,0,0,,1,,,,0.0,38.990856,-76.939842,12.93,35.2,24,2,1.1
84250,1745675872254,,,,,,,,,,,,,,,,,,,,,,,,,,,,,,,,,,0,0,0,0,0,0,0,0,0,0,0,0,0,0,0,0,,,,,,,,,,,,,
84270,1745675872274,0.0,102,,-0.03,-0.01,1.03,-3,0,1,1.03,1.19,87,2804,4.3,3.74,,13.45,0.917,71.8,,28.8,5,,,,,,,,,,,,0,0,0,0,0,0,0,0,0,0,0,0,0,0,0,0,,,,,,0.0,,,,,,,
84290,1745675872294,,,,,,,,,,,,,,,,,,,,,,,,,,,,,,,,,,0,0,0,0,0,0,0,0,0,0,0,0,0,0,0,0,,,,,,,,,,,,,
84310,1745675872314,0.0,102,,-0.04,0.01,1.03,-3,0,1,1.03,1.19,86,2782,4.6,3.74,,13.53,0.919,71.8,,28.8,5,,,,,,,,,,,,0,0,0,0,0,0,0,0,0,0,0,0,0,0,0,0,,,,,,0.0,,,,,,,
84330,1745675872334,,,,,,,,,,,,,,,,,,,,,,,9,119,9,8,0.0,81.0,0.0,0.0,2.26,,,0,0,0,0,0,0,0,0,0,0,0,0,0,0,0,0,,1,,,,,38.990856,-76.939835,13.19,35.2,24,2,1.1
84350,1745675872354,0.0,102,,-0.04,0.04,0.99,-3,0,1,0.99,1.19,83,2775,4.3,3.74,,13.49,0.919,71.8,,28.1,5,,,,,,,,,,,,0,0,0,0,0,0,0,0,0,0,0,0,0,0,0,0,,,,,,0.0,,,,,,,
84370,1745675872374,,,,,,,,,,,,,,,,,,,,,,,,,,,,,,,,,,0,0,0,0,0,0,0,0,0,0,0,0,0,0,0,0,,,,,,,,,,,,,
84390,1745675872394,0.0,103,,-0.07,0.01,0.99,-3,0,0,0.99,1.19,83,2776,4.4,3.73,,13.49,0.919,71.8,,28.1,5,,,,,,,,,,,,0,0,0,0,0,0,0,0,0,0,0,0,0,0,0,0,,,,,,0.0,,,,,,,
84410,1745675872414,,,,,,,,,,,,,,,,,,,,,,,,,,,,,,,,,,0,0,0,0,0,0,0,0,0,0,0,0,0,0,0,0,,,,,,,,,,,,,
84430,1745675872434,0.0,102,14.08,-0.05,0.01,1.05,-3,0,1,1.05,1.19,88,2776,4.4,3.73,15,13.49,0.92,71.8,74,28.4,5,9,4,8,9,0.0,24.0,0.0,0.0,2.27,0,0.0,0,0,0,0,0,0,0,0,0,0,0,0,0,0,0,0,0,0,0.0,0,-0,0.0,38.990856,-76.939835,13.29,35.1,24,2,1.1
84450,1745675872454,,,,,,,,,,,,,,,,,,,,,,,,,,,,,,,,,,0,0,0,0,0,0,0,0,0,0,0,0,0,0,0,0,,,,,,,,,,,,,
84470,1745675872474,0.0,103,,-0.06,0.02,1.05,-3,0,1,1.05,1.19,88,2851,4.2,3.75,,13.51,0.919,71.8,,28.4,5,,,,,,,,,,,,0,0,0,0,0,0,0,0,0,0,0,0,0,0,0,0,,,,,,0.0,,,,,,,
84490,1745675872494,,,,,,,,,,,,,,,,,,,,,,,,,,,,,,,,,,0,0,0,0,0,0,0,0,0,0,0,0,0,0,0,0,,,,,,,,,,,,,
84510,1745675872513,0.0,103,,-0.05,0.03,1.01,-4,-0,2,1.02,1.19,85,2845,4.0,3.75,,13.4,0.914,71.8,,28.4,5,,,,,,,,,,,,0,0,0,0,0,0,0,0,0,0,0,0,0,0,0,0,,,,,,0.0,,,,,,,
84530,1745675872533,,,,,,,,,,,,,,,,,,,,,,,8,4,8,9,0.0,58.0,0.0,0.0,2.27,,,0,0,0,0,0,0,0,0,0,0,0,0,0,0,0,0,,0,,,,,38.99086,-76.939835,13.19,35.2,24,2,1.1
84550,1745675872553,0.0,101,,-0.07,0.0,1.02,-4,-0,1,1.02,1.19,86,2772,4.0,3.75,,13.45,0.913,71.8,,28.2,5,,,,,,,,,,,,0,0,0,0,0,0,0,0,0,0,0,0,0,0,0,0,,,,,,0.0,,,,,,,
84570,1745675872573,,,,,,,,,,,,,,,,,,,,,,,,,,,,,,,,,,0,0,0,0,0,0,0,0,0,0,0,0,0,0,0,0,,,,,,,,,,,,,
84590,1745675872593,0.0,102,,-0.08,-0.04,1.05,-5,-1,1,1.06,1.19,89,2904,4.0,3.75,,13.45,0.913,71.8,,28.2,5,,,,,,,,,,,,0,0,0,0,0,0,0,0,0,0,0,0,0,0,0,0,,,,,,0.0,,,,,,,
84610,1745675872615,,,,,,,,,,,,,,,,,,,,,,,,,,,,,,,,,,0,0,0,0,0,0,0,0,0,0,0,0,0,0,0,0,,,,,,,,,,,,,
84630,1745675872635,0.0,102,,-0.08,-0.07,1.1,-5,-1,1,1.11,1.19,93,2904,4.0,3.75,,13.37,0.931,71.8,,28.4,5,8,4,8,8,0.0,147.0,0.0,0.0,2.27,,,0,0,0,0,0,0,0,0,0,0,0,0,0,0,0,0,,1,,,,0.0,38.990864,-76.939827,13.23,35.2,24,2,1.1
84650,1745675872655,,,,,,,,,,,,,,,,,,,,,,,,,,,,,,,,,,0,0,0,0,0,0,0,0,0,0,0,0,0,0,0,0,,,,,,,,,,,,,
84670,1745675872675,0.0,102,,-0.1,-0.09,1.13,-5,-1,1,1.14,1.19,95,2880,4.1,3.76,,13.43,0.945,71.8,,28.4,5,,,,,,,,,,,,0,0,0,0,0,0,0,0,0,0,0,0,0,0,0,0,,,,,,0.0,,,,,,,
84690,1745675872695,,,,,,,,,,,,,,,,,,,,,,,,,,,,,,,,,,0,0,0,0,0,0,0,0,0,0,0,0,0,0,0,0,,,,,,,,,,,,,
84710,1745675872715,0.0,102,,-0.09,-0.07,1.09,-6,-1,1,1.09,1.19,92,2876,4.0,3.75,,13.44,0.94,71.8,,28.4,5,,,,,,,,,,,,0,0,0,0,0,0,0,0,0,0,0,0,0,0,0,0,,,,,,0.0,,,,,,,
84730,1745675872735,,,,,,,,,,,,,,,,,,,,,,,9,26,8,9,0.0,174.0,0.0,0.0,2.26,,,0,0,0,0,0,0,0,0,0,0,0,0,0,0,0,0,,1,,,,,38.990868,-76.939827,13.46,35.2,24,2,1.1
84750,1745675872755,0.0,102,,-0.08,-0.04,1.04,-6,-1,1,1.05,1.05,100,2837,4.2,3.75,,13.47,0.929,71.8,,27.5,5,,,,,,,,,,,,0,0,0,0,0,0,0,0,0,0,0,0,0,0,0,0,,,,,,0.0,,,,,,,
84770,1745675872775,,,,,,,,,,,,,,,,,,,,,,,,,,,,,,,,,,0,0,0,0,0,0,0,0,0,0,0,0,0,0,0,0,,,,,,,,,,,,,
84790,1745675872795,0.0,102,,-0.08,-0.09,1.05,-7,-1,1,1.05,1.05,100,2799,4.5,3.74,,13.47,0.929,71.8,,27.5,5,,,,,,,,,,,,0,0,0,0,0,0,0,0,0,0,0,0,0,0,0,0,,,,,,0.0,,,,,,,
84810,1745675872815,,,,,,,,,,,,,,,,,,,,,,,,,,,,,,,,,,0,0,0,0,0,0,0,0,0,0,0,0,0,0,0,0,,,,,,,,,,,,,
84830,1745675872835,0.0,103,,-0.08,-0.1,1.08,-7,-2,1,1.08,1.08,100,2799,4.5,3.74,,13.45,0.918,71.8,,26.8,5,8,7,9,9,0.0,226.0,0.0,0.0,2.26,,,0,0,0,0,0,0,0,0,0,0,0,0,0,0,0,0,,0,,,,0.0,38.990871,-76.939827,13.59,35.1,24,2,1.1
84850,1745675872855,,,,,,,,,,,,,,,,,,,,,,,,,,,,,,,,,,0,0,0,0,0,0,0,0,0,0,0,0,0,0,0,0,,,,,,,,,,,,,
84870,1745675872875,0.0,102,,-0.08,-0.06,1.04,-8,-2,1,1.04,1.08,96,2798,4.4,3.73,,13.51,0.91,71.8,,26.8,5,,,,,,,,,,,,0,0,0,0,0,0,0,0,0,0,0,0,0,0,0,0,,,,,,0.0,,,,,,,
84890,1745675872895,,,,,,,,,,,,,,,,,,,,,,,,,,,,,,,,,,0,0,0,0,0,0,0,0,0,0,0,0,0,0,0,0,,,,,,,,,,,,,
84910,1745675872915,0.0,102,,-0.07,-0.04,1.0,-9,-2,2,1.0,1.08,92,2879,4.5,3.76,,13.43,0.901,71.8,,26.8,5,,,,,,,,,,,,0,0,0,0,0,0,0,0,0,0,0,0,0,0,0,0,,,,,,0.0,,,,,,,
84930,1745675872935,,,,,,,,,,,,,,,,,,,,,,,8,9,8,9,0.0,14.0,0.0,0.0,2.26,,,0,0,0,0,0,0,0,0,0,0,0,0,0,0,0,0,,0,,,,,38.990875,-76.939819,13.72,35.1,24,2,1.1
84950,1745675872955,0.0,102,,-0.06,-0.01,0.95,-10,-1,2,0.95,1.08,88,2937,4.3,3.76,,13.44,0.894,71.8,,28.2,5,,,,,,,,,,,,0,0,0,0,0,0,0,0,0,0,0,0,0,0,0,0,,,,,,0.0,,,,,,,
84970,1745675872975,,,,,,,,,,,,,,,,,,,,,,,,,,,,,,,,,,0,0,0,0,0,0,0,0,0,0,0,0,0,0,0,0,,,,,,,,,,,,,
84990,1745675872995,0.0,101,,-0.08,-0.02,0.93,-10,-1,1,0.93,1.08,86,2935,4.0,3.77,,13.44,0.894,71.8,,28.2,5,,,,,,,,,,,,0,0,0,0,0,0,0,0,0,0,0,0,0,0,0,0,,,,,,0.0,,,,,,,
85010,1745675873007,,,,,,,,,,,,,,,,,,,,,,,,,,,,,,,,,,0,0,0,0,0,0,0,0,0,0,0,0,0,0,0,0,,,,,,,,,,,,,
85030,1745675873027,0.0,102,,-0.1,-0.07,0.95,-10,-1,1,0.96,1.08,89,2935,4.0,3.77,,13.43,0.891,71.8,,28.1,5,8,10,8,9,0.0,234.0,0.0,0.0,2.27,,,0,0,0,0,0,0,0,0,0,0,0,0,0,0,0,0,,1,,,,0.0,38.990879,-76.939819,13.49,35.1,24,2,1.1
85050,1745675873047,,,,,,,,,,,,,,,,,,,,,,,,,,,,,,,,,,0,0,0,0,0,0,0,0,0,0,0,0,0,0,0,0,,,,,,,,,,,,,
85070,1745675873067,0.0,102,,-0.08,-0.08,1.02,-11,-1,1,1.02,1.08,95,2896,4.0,3.76,,13.4,0.898,71.8,,28.1,5,,,,,,,,,,,,0,0,0,0,0,0,0,0,0,0,0,0,0,0,0,0,,,,,,0.0,,,,,,,
85090,1745675873087,,,,,,,,,,,,,,,,,,,,,,,,,,,,,,,,,,0,0,0,0,0,0,0,0,0,0,0,0,0,0,0,0,,,,,,,,,,,,,
85110,1745675873115,0.0,102,,-0.08,-0.11,1.08,-12,-0,1,1.08,1.08,100,2892,4.0,3.74,,13.44,0.897,71.8,,28.1,5,,,,,,,,,,,,0,0,0,0,0,0,0,0,0,0,0,0,0,0,0,0,,,,,,0.0,,,,,,,
85130,1745675873135,,,,,,,,,,,,,,,,,,,,,,,9,9,9,9,0.0,157.0,0.0,0.0,2.26,,,0,0,0,0,0,0,0,0,0,0,0,0,0,0,0,0,,1,,,,,38.990879,-76.939812,13.67,35.1,24,2,1.1
85150,1745675873155,0.0,102,,-0.09,-0.12,1.1,-12,-0,1,1.11,1.11,100,2893,4.0,3.77,,13.44,0.891,71.8,,27.8,5,,,,,,,,,,,,0,0,0,0,0,0,0,0,0,0,0,0,0,0,0,0,,,,,,0.0,,,,,,,
85170,1745675873175,,,,,,,,,,,,,,,,,,,,,,,,,,,,,,,,,,0,0,0,0,0,0,0,0,0,0,0,0,0,0,0,0,,,,,,,,,,,,,
85190,1745675873195,0.0,100,,-0.09,-0.12,1.09,-13,-0,1,1.1,1.11,99,2966,3.9,3.76,,13.44,0.891,71.8,,27.8,5,,,,,,,,,,,,0,0,0,0,0,0,0,0,0,0,0,0,0,0,0,0,,,,,,0.0,,,,,,,
85210,1745675873211,,,,,,,,,,,,,,,,,,,,,,,,,,,,,,,,,,0,0,0,0,0,0,0,0,0,0,0,0,0,0,0,0,,,,,,,,,,,,,
85230,1745675873231,0.0,101,,-0.09,-0.08,1.06,-14,-0,2,1.07,1.11,96,2966,3.9,3.76,,13.44,0.883,71.8,,27.6,5,9,37,8,9,0.0,7.0,0.0,0.0,2.26,,,0,0,0,0,0,0,0,0,0,0,0,0,0,0,0,0,,0,,,,0.0,38.990879,-76.939812,13.53,35.1,24,2,1.1
85250,1745675873251,,,,,,,,,,,,,,,,,,,,,,,,,,,,,,,,,,0,0,0,0,0,0,0,0,0,0,0,0,0,0,0,0,,,,,,,,,,,,,
85270,1745675873271,0.0,101,,-0.07,-0.03,1.02,-14,-0,2,1.02,1.11,92,2911,4.1,3.75,,13.43,0.878,71.8,,27.6,5,,,,,,,,,,,,0,0,0,0,0,0,0,0,0,0,0,0,0,0,0,0,,,,,,0.0,,,,,,,
85290,1745675873291,,,,,,,,,,,,,,,,,,,,,,,,,,,,,,,,,,0,0,0,0,0,0,0,0,0,0,0,0,0,0,0,0,,,,,,,,,,,,,
85310,1745675873315,0.0,101,,-0.06,-0.01,0.96,-14,-0,1,0.96,1.11,87,2931,4.3,3.76,,13.44,0.881,71.8,,27.6,5,,,,,,,,,,,,0,0,0,0,0,0,0,0,0,0,0,0,0,0,0,0,,,,,,0.0,,,,,,,
85330,1745675873335,,,,,,,,,,,,,,,,,,,,,,,9,9,8,9,0.0,185.0,0.0,0.0,2.26,,,0,0,0,0,0,0,0,0,0,0,0,0,0,0,0,0,,0,,,,,38.990883,-76.939812,13.77,35.1,24,2,1.1
85350,1745675873355,0.0,101,,-0.04,0.04,0.93,-14,-0,2,0.93,1.11,84,2991,4.4,3.77,,13.41,0.881,71.8,,28.2,5,,,,,,,,,,,,0,0,0,0,0,0,0,0,0,0,0,0,0,0,0,0,,,,,,0.0,,,,,,,
85370,1745675873375,,,,,,,,,,,,,,,,,,,,,,,,,,,,,,,,,,0,0,0,0,0,0,0,0,0,0,0,0,0,0,0,0,,,,,,,,,,,,,
85390,1745675873395,0.0,102,,-0.03,0.07,0.89,-14,-1,2,0.89,1.11,80,2961,4.3,3.76,,13.41,0.881,71.8,,28.2,5,,,,,,,,,,,,0,0,0,0,0,0,0,0,0,0,0,0,0,0,0,0,,,,,,0.0,,,,,,,
85410,1745675873415,,,,,,,,,,,,,,,,,,,,,,,,,,,,,,,,,,0,0,0,0,0,0,0,0,0,0,0,0,0,0,0,0,,,,,,,,,,,,,
85430,1745675873435,0.0,101,13.99,-0.03,0.07,0.85,-14,-1,1,0.85,1.11,77,2961,4.3,3.76,15,13.37,0.876,71.8,74,27.6,5,9,54,9,10,0.0,56.0,0.0,0.0,2.26,0,0.0,0,0,0,0,0,0,0,0,0,0,0,0,0,0,0,0,0,0,0.0,0,0,0.0,38.990887,-76.939812,13.74,35.1,24,2,1.1
85450,1745675873455,,,,,,,,,,,,,,,,,,,,,,,,,,,,,,,,,,0,0,0,0,0,0,0,0,0,0,0,0,0,0,0,0,,,,,,,,,,,,,
85470,1745675873475,0.0,101,,-0.04,0.06,0.86,-13,-1,1,0.87,1.11,78,2895,4.3,3.77,,13.41,0.874,71.8,,27.6,5,,,,,,,,,,,,0,0,0,0,0,0,0,0,0,0,0,0,0,0,0,0,,,,,,0.0,,,,,,,
85490,1745675873495,,,,,,,,,,,,,,,,,,,,,,,,,,,,,,,,,,0,0,0,0,0,0,0,0,0,0,0,0,0,0,0,0,,,,,,,,,,,,,
85510,1745675873514,0.0,101,,-0.06,0.04,0.88,-13,-0,0,0.88,1.11,80,2937,4.1,3.76,,13.39,0.877,71.8,,27.6,5,,,,,,,,,,,,0,0,0,0,0,0,0,0,0,0,0,0,0,0,0,0,,,,,,0.0,,,,,,,
85530,1745675873534,,,,,,,,,,,,,,,,,,,,,,,9,869,8,9,0.0,147.0,0.0,0.0,2.27,,,0,0,0,0,0,0,0,0,0,0,0,0,0,0,0,0,,0,,,,,38.99089,-76.939812,13.97,35.1,24,2,1.1
85550,1745675873554,0.0,101,,-0.07,0.03,0.87,-13,-0,0,0.88,1.11,79,3062,4.1,3.77,,13.36,0.877,71.8,,28.4,5,,,,,,,,,,,,0,0,0,0,0,0,0,0,0,0,0,0,0,0,0,0,,,,,,0.0,,,,,,,
85570,1745675873574,,,,,,,,,,,,,,,,,,,,,,,,,,,,,,,,,,0,0,0,0,0,0,0,0,0,0,0,0,0,0,0,0,,,,,,,,,,,,,
85590,1745675873594,0.0,101,,-0.06,0.05,0.83,-12,0,0,0.84,1.11,75,3020,4.1,3.76,,13.36,0.877,71.8,,28.4,5,,,,,,,,,,,,0,0,0,0,0,0,0,0,0,0,0,0,0,0,0,0,,,,,,0.0,,,,,,,
85610,1745675873614,,,,,,,,,,,,,,,,,,,,,,,,,,,,,,,,,,0,0,0,0,0,0,0,0,0,0,0,0,0,0,0,0,,,,,,,,,,,,,
85630,1745675873634,0.0,102,,-0.08,0.05,0.81,-11,0,-0,0.81,1.11,73,3020,4.1,3.76,,13.36,0.866,71.8,,27.7,5,9,9,9,9,0.0,55.0,0.0,0.0,2.27,,,0,0,0,0,0,0,0,0,0,0,0,0,0,0,0,0,,0,,,,0.0,38.990894,-76.939804,13.86,35.1,24,2,1.1
85650,1745675873654,,,,,,,,,,,,,,,,,,,,,,,,,,,,,,,,,,0,0,0,0,0,0,0,0,0,0,0,0,0,0,0,0,,,,,,,,,,,,,
85670,1745675873674,0.0,101,,-0.09,0.05,0.81,-11,0,-1,0.82,1.11,74,2935,4.0,3.76,,13.39,0.866,71.8,,27.7,5,,,,,,,,,,,,0,0,0,0,0,0,0,0,0,0,0,0,0,0,0,0,,,,,,0.0,,,,,,,
85690,1745675873694,,,,,,,,,,,,,,,,,,,,,,,,,,,,,,,,,,0,0,0,0,0,0,0,0,0,0,0,0,0,0,0,0,,,,,,,,,,,,,
85710,1745675873714,0.0,101,,-0.1,0.03,0.83,-10,1,-1,0.84,1.11,76,2973,4.0,3.75,,13.39,0.87,71.8,,27.7,5,,,,,,,,,,,,0,0,0,0,0,0,0,0,0,0,0,0,0,0,0,0,,,,,,0.0,,,,,,,
85730,1745675873734,,,,,,,,,,,,,,,,,,,,,,,9,13,9,9,0.0,55.0,0.0,0.0,2.26,,,0,0,0,0,0,0,0,0,0,0,0,0,0,0,0,0,,0,,,,,38.990894,-76.939804,14.24,35.1,24,2,1.1
85750,1745675873754,0.0,101,,-0.11,-0.0,0.81,-10,1,-1,0.81,1.11,73,3058,4.1,3.76,,13.36,0.864,71.8,,27.5,5,,,,,,,,,,,,0,0,0,0,0,0,0,0,0,0,0,0,0,0,0,0,,,,,,0.0,,,,,,,
85770,1745675873774,,,,,,,,,,,,,,,,,,,,,,,,,,,,,,,,,,0,0,0,0,0,0,0,0,0,0,0,0,0,0,0,0,,,,,,,,,,,,,
85790,1745675873794,0.0,101,,-0.1,0.02,0.77,-9,1,-1,0.77,1.11,70,3064,4.3,3.76,,13.36,0.864,71.8,,27.5,5,,,,,,,,,,,,0,0,0,0,0,0,0,0,0,0,0,0,0,0,0,0,,,,,,0.0,,,,,,,
85810,1745675873814,,,,,,,,,,,,,,,,,,,,,,,,,,,,,,,,,,0,0,0,0,0,0,0,0,0,0,0,0,0,0,0,0,,,,,,,,,,,,,
85830,1745675873834,0.0,102,,-0.07,0.05,0.71,-10,0,-1,0.72,1.11,65,3064,4.3,3.76,,13.31,0.855,71.8,,28.3,5,9,37,9,10,0.0,158.0,0.0,0.0,2.26,,,0,0,0,0,0,0,0,0,0,0,0,0,0,0,0,0,,0,,,,0.0,38.990898,-76.939796,13.79,35.1,24,2,1.1
85850,1745675873854,,,,,,,,,,,,,,,,,,,,,,,,,,,,,,,,,,0,0,0,0,0,0,0,0,0,0,0,0,0,0,0,0,,,,,,,,,,,,,
85870,1745675873874,0.0,100,,-0.03,0.07,0.68,-11,0,-1,0.68,1.11,61,3094,4.4,3.75,,13.35,0.853,71.8,,28.3,5,,,,,,,,,,,,0,0,0,0,0,0,0,0,0,0,0,0,0,0,0,0,,,,,,0.0,,,,,,,
85890,1745675873894,,,,,,,,,,,,,,,,,,,,,,,,,,,,,,,,,,0,0,0,0,0,0,0,0,0,0,0,0,0,0,0,0,,,,,,,,,,,,,
85910,1745675873914,0.0,101,,-0.02,0.08,0.69,-12,0,-0,0.69,1.11,63,3056,4.5,3.77,,13.31,0.86,71.8,,28.3,5,,,,,,,,,,,,0,0,0,0,0,0,0,0,0,0,0,0,0,0,0,0,,,,,,0.0,,,,,,,
85930,1745675873934,,,,,,,,,,,,,,,,,,,,,,,9,15,9,9,0.0,40.0,0.0,0.0,2.26,,,0,0,0,0,0,0,0,0,0,0,0,0,0,0,0,0,,0,,,,,38.990898,-76.939789,14.31,35.1,24,2,1.1
85950,1745675873954,0.0,101,,-0.02,0.1,0.7,-13,-0,-0,0.71,1.11,64,2996,4.4,3.76,,13.36,0.865,71.8,,27.3,5,,,,,,,,,,,,0,0,0,0,0,0,0,0,0,0,0,0,0,0,0,0,,,,,,0.0,,,,,,,
85970,1745675873974,,,,,,,,,,,,,,,,,,,,,,,,,,,,,,,,,,0,0,0,0,0,0,0,0,0,0,0,0,0,0,0,0,,,,,,,,,,,,,
85990,1745675873994,0.0,101,,-0.04,0.11,0.74,-13,-1,1,0.75,1.11,67,3013,4.2,3.76,,13.36,0.865,71.8,,27.3,5,,,,,,,,,,,,0,0,0,0,0,0,0,0,0,0,0,0,0,0,0,0,,,,,,0.0,,,,,,,
86010,1745675874008,,,,,,,,,,,,,,,,,,,,,,,,,,,,,,,,,,0,0,0,0,0,0,0,0,0,0,0,0,0,0,0,0,,,,,,,,,,,,,
86030,1745675874028,0.0,101,,-0.05,0.13,0.78,-14,-1,1,0.8,1.11,72,3013,4.2,3.76,,13.39,0.868,71.8,,27.3,5,9,33,9,9,0.0,13.0,0.0,0.0,2.27,,,0,0,0,0,0,0,0,0,0,0,0,0,0,0,0,0,,0,,,,0.0,38.990898,-76.939789,14.43,35.1,24,2,1.1
86050,1745675874048,,,,,,,,,,,,,,,,,,,,,,,,,,,,,,,,,,0,0,0,0,0,0,0,0,0,0,0,0,0,0,0,0,,,,,,,,,,,,,
86070,1745675874068,0.0,102,,-0.07,0.1,0.89,-14,-1,2,0.9,1.11,81,3055,4.0,3.76,,13.32,0.869,71.8,,27.3,5,,,,,,,,,,,,0,0,0,0,0,0,0,0,0,0,0,0,0,0,0,0,,,,,,0.0,,,,,,,
86090,1745675874088,,,,,,,,,,,,,,,,,,,,,,,,,,,,,,,,,,0,0,0,0,0,0,0,0,0,0,0,0,0,0,0,0,,,,,,,,,,,,,
86110,1745675874110,0.0,101,,-0.09,0.01,1.0,-14,-1,2,1.0,1.11,91,3138,4.0,3.76,,13.31,0.866,71.8,,27.3,5,,,,,,,,,,,,0,0,0,0,0,0,0,0,0,0,0,0,0,0,0,0,,,,,,0.0,,,,,,,
86130,1745675874130,,,,,,,,,,,,,,,,,,,,,,,9,31,9,10,0.0,70.0,0.0,0.0,2.27,,,0,0,0,0,0,0,0,0,0,0,0,0,0,0,0,0,,0,,,,,38.990902,-76.939781,14.55,35.0,24,2,1.1
86150,1745675874150,0.0,101,,-0.13,-0.06,1.01,-14,-1,1,1.02,1.11,92,3102,4.0,3.76,,13.31,0.861,71.8,,28.3,5,,,,,,,,,,,,0,0,0,0,0,0,0,0,0,0,0,0,0,0,0,0,,,,,,0.0,,,,,,,
86170,1745675874170,,,,,,,,,,,,,,,,,,,,,,,,,,,,,,,,,,0,0,0,0,0,0,0,0,0,0,0,0,0,0,0,0,,,,,,,,,,,,,
86190,1745675874190,0.0,101,,-0.14,-0.06,0.98,-13,-1,1,0.99,1.11,90,3060,4.0,3.74,,13.31,0.861,71.8,,28.3,5,,,,,,,,,,,,0,0,0,0,0,0,0,0,0,0,0,0,0,0,0,0,,,,,,0.0,,,,,,,
86210,1745675874214,,,,,,,,,,,,,,,,,,,,,,,,,,,,,,,,,,0,0,0,0,0,0,0,0,0,0,0,0,0,0,0,0,,,,,,,,,,,,,
86230,1745675874234,0.0,101,,-0.14,-0.06,0.92,-12,-1,0,0.93,1.11,84,3060,4.0,3.74,,13.23,0.863,71.8,,27.5,5,9,132,9,10,0.0,84.0,0.0,0.0,2.26,,,0,0,0,0,0,0,0,0,0,0,0,0,0,0,0,0,,0,,,,0.0,38.990906,-76.939781,14.77,35.0,24,2,1.1
86250,1745675874254,,,,,,,,,,,,,,,,,,,,,,,,,,,,,,,,,,0,0,0,0,0,0,0,0,0,0,0,0,0,0,0,0,,,,,,,,,,,,,
86270,1745675874274,0.0,101,,-0.1,0.03,0.82,-12,-1,0,0.83,1.11,75,3085,4.0,3.74,,13.27,0.865,71.8,,27.5,5,,,,,,,,,,,,0,0,0,0,0,0,0,0,0,0,0,0,0,0,0,0,,,,,,0.0,,,,,,,
86290,1745675874294,,,,,,,,,,,,,,,,,,,,,,,,,,,,,,,,,,0,0,0,0,0,0,0,0,0,0,0,0,0,0,0,0,,,,,,,,,,,,,
86310,1745675874314,0.0,100,,-0.08,0.1,0.75,-12,-1,0,0.77,1.11,69,3009,4.1,3.74,,13.28,0.87,71.8,,27.5,5,,,,,,,,,,,,0,0,0,0,0,0,0,0,0,0,0,0,0,0,0,0,,,,,,0.0,,,,,,,
86330,1745675874334,,,,,,,,,,,,,,,,,,,,,,,9,19,9,10,0.0,84.0,0.0,0.0,2.26,,,0,0,0,0,0,0,0,0,0,0,0,0,0,0,0,0,,0,,,,,38.99091,-76.939774,14.78,35.0,24,2,1.1
86350,1745675874354,0.0,101,,-0.06,0.11,0.73,-13,-1,1,0.74,1.11,67,3038,4.3,3.76,,13.27,0.889,71.8,,27.5,5,,,,,,,,,,,,0,0,0,0,0,0,0,0,0,0,0,0,0,0,0,0,,,,,,0.0,,,,,,,
86370,1745675874374,,,,,,,,,,,,,,,,,,,,,,,,,,,,,,,,,,0,0,0,0,0,0,0,0,0,0,0,0,0,0,0,0,,,,,,,,,,,,,
86390,1745675874394,0.0,102,,-0.04,0.11,0.71,-13,-1,1,0.72,1.11,65,2979,4.2,3.75,,13.27,0.889,71.8,,27.5,5,,,,,,,,,,,,0,0,0,0,0,0,0,0,0,0,0,0,0,0,0,0,,,,,,0.0,,,,,,,
86410,1745675874413,,,,,,,,,,,,,,,,,,,,,,,,,,,,,,,,,,0,0,0,0,0,0,0,0,0,0,0,0,0,0,0,0,,,,,,,,,,,,,
86430,1745675874433,0.0,101,14.1,-0.04,0.12,0.7,-13,-1,1,0.71,1.11,64,2979,4.2,3.75,15,13.31,0.933,71.8,74,26.4,5,9,7,9,10,0.0,188.0,0.0,0.0,2.26,0,0.0,0,0,0,0,0,0,0,0,0,0,0,0,0,0,0,0,0,0,0.0,0,-0,0.0,38.99091,-76.939774,14.56,35.0,24,2,1.1
86450,1745675874453,,,,,,,,,,,,,,,,,,,,,,,,,,,,,,,,,,0,0,0,0,0,0,0,0,0,0,0,0,0,0,0,0,,,,,,,,,,,,,
86470,1745675874473,0.0,101,,-0.05,0.11,0.73,-13,-1,1,0.74,1.11,66,2907,4.2,3.75,,13.37,0.98,71.8,,26.4,5,,,,,,,,,,,,0,0,0,0,0,0,0,0,0,0,0,0,0,0,0,0,,,,,,0.0,,,,,,,
86490,1745675874493,,,,,,,,,,,,,,,,,,,,,,,,,,,,,,,,,,0,0,0,0,0,0,0,0,0,0,0,0,0,0,0,0,,,,,,,,,,,,,
86510,1745675874513,0.0,101,,-0.08,0.05,0.8,-12,-1,1,0.8,1.11,72,2847,4.3,3.75,,13.31,0.997,71.8,,26.4,5,,,,,,,,,,,,0,0,0,0,0,0,0,0,0,0,0,0,0,0,0,0,,,,,,0.0,,,,,,,
86530,1745675874533,,,,,,,,,,,,,,,,,,,,,,,9,13,9,9,0.0,233.0,0.0,0.0,2.27,,,0,0,0,0,0,0,0,0,0,0,0,0,0,0,0,0,,0,,,,,38.990913,-76.939774,14.85,35.0,24,2,1.1
86550,1745675874553,0.0,101,,-0.1,-0.03,0.88,-12,-0,1,0.89,1.11,80,2916,4.2,3.75,,13.36,0.999,71.8,,26.5,5,,,,,,,,,,,,0,0,0,0,0,0,0,0,0,0,0,0,0,0,0,0,,,,,,0.0,,,,,,,
86570,1745675874573,,,,,,,,,,,,,,,,,,,,,,,,,,,,,,,,,,0,0,0,0,0,0,0,0,0,0,0,0,0,0,0,0,,,,,,,,,,,,,
86590,1745675874593,0.0,101,,-0.12,-0.12,0.96,-12,-0,1,0.98,1.11,88,3031,4.0,3.77,,13.36,0.999,71.8,,26.5,5,,,,,,,,,,,,0,0,0,0,0,0,0,0,0,0,0,0,0,0,0,0,,,,,,0.0,,,,,,,
86610,1745675874613,,,,,,,,,,,,,,,,,,,,,,,,,,,,,,,,,,0,0,0,0,0,0,0,0,0,0,0,0,0,0,0,0,,,,,,,,,,,,,
86630,1745675874633,0.0,101,,-0.15,-0.24,1.02,-12,0,0,1.05,1.11,95,3031,4.0,3.77,,13.27,0.997,71.8,,27.7,5,9,13,9,9,0.0,21.0,0.0,0.0,2.27,,,0,0,0,0,0,0,0,0,0,0,0,0,0,0,0,0,,0,,,,0.0,38.990913,-76.939766,14.45,35.0,24,2,1.1
86650,1745675874653,,,,,,,,,,,,,,,,,,,,,,,,,,,,,,,,,,0,0,0,0,0,0,0,0,0,0,0,0,0,0,0,0,,,,,,,,,,,,,
86670,1745675874673,0.0,101,,-0.19,-0.28,1.02,-11,1,0,1.07,1.11,97,3068,4.0,3.77,,13.28,1.011,71.8,,27.7,5,,,,,,,,,,,,0,0,0,0,0,0,0,0,0,0,0,0,0,0,0,0,,,,,,0.0,,,,,,,
86690,1745675874693,,,,,,,,,,,,,,,,,,,,,,,,,,,,,,,,,,0,0,0,0,0,0,0,0,0,0,0,0,0,0,0,0,,,,,,,,,,,,,
86710,1745675874713,0.0,101,,-0.2,-0.21,0.94,-10,1,-1,0.99,1.11,89,3092,4.1,3.74,,13.24,1.031,71.8,,27.7,5,,,,,,,,,,,,0,0,0,0,0,0,0,0,0,0,0,0,0,0,0,0,,,,,,0.0,,,,,,,
86730,1745675874733,,,,,,,,,,,,,,,,,,,,,,,9,24,9,9,0.0,79.0,0.0,0.0,2.27,,,0,0,0,0,0,0,0,0,0,0,0,0,0,0,0,0,,0,,,,,38.990917,-76.939766,14.0,35.0,24,2,1.1
86750,1745675874753,0.0,100,,-0.17,-0.13,0.85,-11,1,-0,0.88,1.11,79,3124,4.1,3.74,,13.19,1.039,71.8,,28.2,5,,,,,,,,,,,,0,0,0,0,0,0,0,0,0,0,0,0,0,0,0,0,,,,,,0.0,,,,,,,
86770,1745675874773,,,,,,,,,,,,,,,,,,,,,,,,,,,,,,,,,,0,0,0,0,0,0,0,0,0,0,0,0,0,0,0,0,,,,,,,,,,,,,
86790,1745675874793,0.0,101,,-0.14,-0.09,0.81,-11,1,0,0.83,1.11,75,3072,4.2,3.75,,13.19,1.039,71.8,,28.2,5,,,,,,,,,,,,0,0,0,0,0,0,0,0,0,0,0,0,0,0,0,0,,,,,,0.0,,,,,,,
86810,1745675874815,,,,,,,,,,,,,,,,,,,,,,,,,,,,,,,,,,0,0,0,0,0,0,0,0,0,0,0,0,0,0,0,0,,,,,,,,,,,,,
86830,1745675874835,0.0,101,,-0.12,-0.07,0.8,-12,1,0,0.81,1.11,73,3072,4.2,3.75,,13.25,1.03,71.8,,27.8,5,9,13,9,9,0.0,214.0,0.0,0.0,2.26,,,0,0,0,0,0,0,0,0,0,0,0,0,0,0,0,0,,0,,,,0.0,38.990917,-76.939758,13.97,35.0,24,2,1.1
86850,1745675874855,,,,,,,,,,,,,,,,,,,,,,,,,,,,,,,,,,0,0,0,0,0,0,0,0,0,0,0,0,0,0,0,0,,,,,,,,,,,,,
86870,1745675874875,0.0,101,,-0.12,-0.08,0.84,-12,1,1,0.85,1.11,77,3057,4.3,3.75,,13.24,1.026,71.8,,27.8,5,,,,,,,,,,,,0,0,0,0,0,0,0,0,0,0,0,0,0,0,0,0,,,,,,0.0,,,,,,,
86890,1745675874895,,,,,,,,,,,,,,,,,,,,,,,,,,,,,,,,,,0,0,0,0,0,0,0,0,0,0,0,0,0,0,0,0,,,,,,,,,,,,,
86910,1745675874915,0.0,101,,-0.12,-0.06,0.92,-13,1,1,0.93,1.11,84,3020,4.5,3.75,,13.28,1.032,71.8,,27.8,5,,,,,,,,,,,,0,0,0,0,0,0,0,0,0,0,0,0,0,0,0,0,,,,,,0.0,,,,,,,
86930,1745675874935,,,,,,,,,,,,,,,,,,,,,,,9,43,9,9,0.0,122.0,0.0,0.0,2.26,,,0,0,0,0,0,0,0,0,0,0,0,0,0,0,0,0,,0,,,,,38.990917,-76.939751,14.07,35.0,24,2,1.1
86950,1745675874955,0.0,101,,-0.11,-0.11,1.0,-13,1,1,1.01,1.11,91,3064,4.5,3.77,,13.21,1.022,71.8,,27.6,5,,,,,,,,,,,,0,0,0,0,0,0,0,0,0,0,0,0,0,0,0,0,,,,,,0.0,,,,,,,
86970,1745675874975,,,,,,,,,,,,,,,,,,,,,,,,,,,,,,,,,,0,0,0,0,0,0,0,0,0,0,0,0,0,0,0,0,,,,,,,,,,,,,
86990,1745675874995,0.0,101,,-0.1,-0.14,1.08,-14,1,2,1.09,1.11,98,3024,4.6,3.76,,13.21,1.022,71.8,,27.6,5,,,,,,,,,,,,0,0,0,0,0,0,0,0,0,0,0,0,0,0,0,0,,,,,,0.0,,,,,,,
87010,1745675875007,,,,,,,,,,,,,,,,,,,,,,,,,,,,,,,,,,0,0,0,0,0,0,0,0,0,0,0,0,0,0,0,0,,,,,,,,,,,,,
87030,1745675875027,0.0,101,,-0.09,-0.16,1.12,-14,1,2,1.14,1.14,100,3024,4.6,3.76,,13.29,1.014,71.8,,27.2,5,9,25,9,9,0.0,32.0,0.0,0.0,2.27,,,0,0,0,0,0,0,0,0,0,0,0,0,0,0,0,0,,1,,,,0.0,38.990917,-76.939751,13.87,35.0,23,2,1.3
87050,1745675875047,,,,,,,,,,,,,,,,,,,,,,,,,,,,,,,,,,0,0,0,0,0,0,0,0,0,0,0,0,0,0,0,0,,,,,,,,,,,,,
87070,1745675875067,0.0,101,,-0.09,-0.18,1.15,-14,1,2,1.16,1.16,100,2954,4.3,3.76,,13.37,1.014,71.8,,27.2,5,,,,,,,,,,,,0,0,0,0,0,0,0,0,0,0,0,0,0,0,0,0,,,,,,0.0,,,,,,,
87090,1745675875087,,,,,,,,,,,,,,,,,,,,,,,,,,,,,,,,,,0,0,0,0,0,0,0,0,0,0,0,0,0,0,0,0,,,,,,,,,,,,,
87110,1745675875115,0.0,100,,-0.1,-0.13,1.13,-14,0,2,1.15,1.16,99,2904,4.2,3.76,,13.4,1.02,71.8,,27.2,5,,,,,,,,,,,,0,0,0,0,0,0,0,0,0,0,0,0,0,0,0,0,,,,,,0.0,,,,,,,
87130,1745675875135,,,,,,,,,,,,,,,,,,,,,,,9,42,8,9,0.0,238.0,0.0,0.0,2.27,,,0,0,0,0,0,0,0,0,0,0,0,0,0,0,0,0,,1,,,,,38.990921,-76.939743,13.92,34.9,23,2,1.3
87150,1745675875155,0.0,101,,-0.11,-0.12,1.08,-14,1,1,1.09,1.16,94,2875,4.1,3.74,,13.4,1.018,71.8,,26.1,5,,,,,,,,,,,,0,0,0,0,0,0,0,0,0,0,0,0,0,0,0,0,,,,,,0.0,,,,,,,
87170,1745675875175,,,,,,,,,,,,,,,,,,,,,,,,,,,,,,,,,,0,0,0,0,0,0,0,0,0,0,0,0,0,0,0,0,,,,,,,,,,,,,
87190,1745675875195,0.0,100,,-0.11,-0.11,1.03,-13,1,1,1.04,1.16,90,2864,4.2,3.74,,13.4,1.018,71.8,,26.1,5,,,,,,,,,,,,0,0,0,0,0,0,0,0,0,0,0,0,0,0,0,0,,,,,,0.0,,,,,,,
87210,1745675875215,,,,,,,,,,,,,,,,,,,,,,,,,,,,,,,,,,0,0,0,0,0,0,0,0,0,0,0,0,0,0,0,0,,,,,,,,,,,,,
87230,1745675875235,0.0,100,,-0.13,-0.11,1.06,-13,1,1,1.07,1.16,92,2864,4.2,3.74,,13.39,1.016,71.8,,25.6,5,8,25,8,9,0.0,22.0,0.0,0.0,2.27,,,0,0,0,0,0,0,0,0,0,0,0,0,0,0,0,0,,0,,,,0.0,38.990921,-76.939743,13.7,34.9,23,2,1.3
87250,1745675875255,,,,,,,,,,,,,,,,,,,,,,,,,,,,,,,,,,0,0,0,0,0,0,0,0,0,0,0,0,0,0,0,0,,,,,,,,,,,,,
87270,1745675875275,0.0,101,,-0.12,-0.09,1.07,-13,1,1,1.08,1.16,93,2826,4.2,3.74,,13.41,1.02,71.8,,25.6,5,,,,,,,,,,,,0,0,0,0,0,0,0,0,0,0,0,0,0,0,0,0,,,,,,0.0,,,,,,,
87290,1745675875295,,,,,,,,,,,,,,,,,,,,,,,,,,,,,,,,,,0,0,0,0,0,0,0,0,0,0,0,0,0,0,0,0,,,,,,,,,,,,,
87310,1745675875315,0.0,101,,-0.12,-0.07,1.02,-13,1,1,1.03,1.03,100,2788,4.2,3.74,,13.43,1.015,71.8,,25.6,5,,,,,,,,,,,,0,0,0,0,0,0,0,0,0,0,0,0,0,0,0,0,,,,,,0.0,,,,,,,
87330,1745675875335,,,,,,,,,,,,,,,,,,,,,,,8,37,8,9,0.0,69.0,0.0,0.0,2.26,,,0,0,0,0,0,0,0,0,0,0,0,0,0,0,0,0,,0,,,,,38.990925,-76.939735,13.7,34.9,23,2,1.3
87350,1745675875355,0.0,101,,-0.14,-0.06,1.0,-13,1,0,1.01,1.03,99,2777,4.4,3.73,,13.48,1.021,71.8,,26.7,5,,,,,,,,,,,,0,0,0,0,0,0,0,0,0,0,0,0,0,0,0,0,,,,,,0.0,,,,,,,
87370,1745675875375,,,,,,,,,,,,,,,,,,,,,,,,,,,,,,,,,,0,0,0,0,0,0,0,0,0,0,0,0,0,0,0,0,,,,,,,,,,,,,
87390,1745675875395,0.0,101,,-0.13,-0.06,1.04,-13,1,1,1.05,1.05,100,2717,4.6,3.73,,13.48,1.021,71.8,,26.7,5,,,,,,,,,,,,0,0,0,0,0,0,0,0,0,0,0,0,0,0,0,0,,,,,,0.0,,,,,,,
87410,1745675875415,,,,,,,,,,,,,,,,,,,,,,,,,,,,,,,,,,0,0,0,0,0,0,0,0,0,0,0,0,0,0,0,0,,,,,,,,,,,,,
87430,1745675875435,0.0,101,14.11,-0.14,-0.03,1.03,-13,1,1,1.04,1.05,98,2717,4.6,3.73,15,13.48,1.028,71.8,75,26.6,5,8,19,8,9,0.0,66.0,0.0,0.0,2.26,0,0.0,0,0,0,0,0,0,0,0,0,0,0,0,0,0,0,0,0,0,0.0,0,-0,0.0,38.990925,-76.939735,13.57,34.9,23,2,1.2
87450,1745675875455,,,,,,,,,,,,,,,,,,,,,,,,,,,,,,,,,,0,0,0,0,0,0,0,0,0,0,0,0,0,0,0,0,,,,,,,,,,,,,
87470,1745675875475,0.0,101,,-0.13,0.01,0.98,-12,1,1,0.99,1.05,94,2867,4.7,3.76,,13.44,1.03,71.8,,26.6,5,,,,,,,,,,,,0,0,0,0,0,0,0,0,0,0,0,0,0,0,0,0,,,,,,0.0,,,,,,,
87490,1745675875495,,,,,,,,,,,,,,,,,,,,,,,,,,,,,,,,,,0,0,0,0,0,0,0,0,0,0,0,0,0,0,0,0,,,,,,,,,,,,,
87510,1745675875514,0.0,100,,-0.12,0.04,0.93,-12,1,0,0.94,1.05,89,2905,4.9,3.76,,13.43,1.034,71.8,,26.6,5,,,,,,,,,,,,0,0,0,0,0,0,0,0,0,0,0,0,0,0,0,0,,,,,,0.0,,,,,,,
87530,1745675875534,,,,,,,,,,,,,,,,,,,,,,,8,9,8,9,0.0,31.0,0.0,0.0,2.26,,,0,0,0,0,0,0,0,0,0,0,0,0,0,0,0,0,,0,,,,,38.990929,-76.939735,13.57,34.9,23,2,1.3
87550,1745675875554,0.0,101,,-0.12,0.06,0.9,-11,1,-0,0.92,1.05,87,2925,4.9,3.78,,13.4,1.031,71.8,,27.8,5,,,,,,,,,,,,0,0,0,0,0,0,0,0,0,0,0,0,0,0,0,0,,,,,,0.0,,,,,,,
87570,1745675875574,,,,,,,,,,,,,,,,,,,,,,,,,,,,,,,,,,0,0,0,0,0,0,0,0,0,0,0,0,0,0,0,0,,,,,,,,,,,,,
87590,1745675875594,0.0,101,,-0.13,0.07,0.93,-11,1,-1,0.94,1.05,89,2875,4.8,3.78,,13.4,1.031,71.8,,27.8,5,,,,,,,,,,,,0,0,0,0,0,0,0,0,0,0,0,0,0,0,0,0,,,,,,0.0,,,,,,,
87610,1745675875614,,,,,,,,,,,,,,,,,,,,,,,,,,,,,,,,,,0,0,0,0,0,0,0,0,0,0,0,0,0,0,0,0,,,,,,,,,,,,,
87630,1745675875634,0.0,100,,-0.14,0.02,0.98,-10,1,-1,0.99,1.05,94,2875,4.8,3.78,,13.37,1.034,71.8,,28.1,5,8,5,8,9,0.0,24.0,0.0,0.0,2.27,,,0,0,0,0,0,0,0,0,0,0,0,0,0,0,0,0,,1,,,,0.0,38.990929,-76.939728,13.04,34.9,23,2,1.3
87650,1745675875654,,,,,,,,,,,,,,,,,,,,,,,,,,,,,,,,,,0,0,0,0,0,0,0,0,0,0,0,0,0,0,0,0,,,,,,,,,,,,,
87670,1745675875674,0.0,101,,-0.13,-0.03,1.01,-11,1,-1,1.02,1.05,97,2895,4.6,3.78,,13.44,1.042,71.8,,28.1,5,,,,,,,,,,,,0,0,0,0,0,0,0,0,0,0,0,0,0,0,0,0,,,,,,0.0,,,,,,,
87690,1745675875694,,,,,,,,,,,,,,,,,,,,,,,,,,,,,,,,,,0,0,0,0,0,0,0,0,0,0,0,0,0,0,0,0,,,,,,,,,,,,,
87710,1745675875716,0.0,101,,-0.15,-0.01,1.0,-11,1,-1,1.01,1.05,96,2876,4.7,3.77,,13.37,1.062,71.8,,28.1,5,,,,,,,,,,,,0,0,0,0,0,0,0,0,0,0,0,0,0,0,0,0,,,,,,0.0,,,,,,,
87730,1745675875736,,,,,,,,,,,,,,,,,,,,,,,8,4,8,8,0.0,240.0,0.0,0.0,2.27,,,0,0,0,0,0,0,0,0,0,0,0,0,0,0,0,0,,1,,,,,38.990929,-76.93972,13.31,34.9,23,2,1.3
87750,1745675875756,0.0,101,,-0.14,0.0,0.97,-11,1,-1,0.98,1.05,93,2861,4.7,3.77,,13.4,1.072,71.8,,27.3,5,,,,,,,,,,,,0,0,0,0,0,0,0,0,0,0,0,0,0,0,0,0,,,,,,0.0,,,,,,,
87770,1745675875776,,,,,,,,,,,,,,,,,,,,,,,,,,,,,,,,,,0,0,0,0,0,0,0,0,0,0,0,0,0,0,0,0,,,,,,,,,,,,,
87790,1745675875796,0.0,100,,-0.14,0.01,0.96,-11,1,-1,0.97,1.05,92,2828,4.8,3.77,,13.4,1.072,71.8,,27.3,5,,,,,,,,,,,,0,0,0,0,0,0,0,0,0,0,0,0,0,0,0,0,,,,,,0.0,,,,,,,
87810,1745675875814,,,,,,,,,,,,,,,,,,,,,,,,,,,,,,,,,,0,0,0,0,0,0,0,0,0,0,0,0,0,0,0,0,,,,,,,,,,,,,
87830,1745675875834,0.0,100,,-0.15,-0.03,1.0,-10,1,-1,1.01,1.05,96,2828,4.8,3.77,,13.44,1.06,71.8,,27.4,5,8,9,8,8,0.0,27.0,0.0,0.0,2.26,,,0,0,0,0,0,0,0,0,0,0,0,0,0,0,0,0,,1,,,,0.0,38.990932,-76.93972,13.02,34.8,23,2,1.3
87850,1745675875854,,,,,,,,,,,,,,,,,,,,,,,,,,,,,,,,,,0,0,0,0,0,0,0,0,0,0,0,0,0,0,0,0,,,,,,,,,,,,,
87870,1745675875874,0.0,101,,-0.13,-0.07,1.05,-10,1,-1,1.06,1.06,100,2830,5.0,3.77,,13.44,1.052,71.8,,27.4,5,,,,,,,,,,,,0,0,0,0,0,0,0,0,0,0,0,0,0,0,0,0,,,,,,0.0,,,,,,,
87890,1745675875894,,,,,,,,,,,,,,,,,,,,,,,,,,,,,,,,,,0,0,0,0,0,0,0,0,0,0,0,0,0,0,0,0,,,,,,,,,,,,,
87910,1745675875914,0.0,100,,-0.13,-0.06,1.05,-11,1,-1,1.06,1.06,99,2840,5.1,3.76,,13.49,1.043,71.8,,27.4,5,,,,,,,,,,,,0,0,0,0,0,0,0,0,0,0,0,0,0,0,0,0,,,,,,0.0,,,,,,,
87930,1745675875934,,,,,,,,,,,,,,,,,,,,,,,8,8,8,9,0.0,244.0,0.0,0.0,2.26,,,0,0,0,0,0,0,0,0,0,0,0,0,0,0,0,0,,1,,,,,38.990932,-76.939712,12.96,34.8,23,2,1.3
87950,1745675875954,0.0,101,,-0.12,-0.07,1.03,-11,1,-0,1.04,1.06,98,2801,5.3,3.77,,13.48,1.036,71.8,,26.8,5,,,,,,,,,,,,0,0,0,0,0,0,0,0,0,0,0,0,0,0,0,0,,,,,,0.0,,,,,,,
87970,1745675875974,,,,,,,,,,,,,,,,,,,,,,,,,,,,,,,,,,0,0,0,0,0,0,0,0,0,0,0,0,0,0,0,0,,,,,,,,,,,,,
87990,1745675875994,0.0,101,,-0.12,-0.09,1.06,-10,1,-0,1.06,1.06,100,2754,5.3,3.75,,13.48,1.036,71.8,,26.8,5,,,,,,,,,,,,0,0,0,0,0,0,0,0,0,0,0,0,0,0,0,0,,,,,,0.0,,,,,,,
88010,1745675876008,,,,,,,,,,,,,,,,,,,,,,,,,,,,,,,,,,0,0,0,0,0,0,0,0,0,0,0,0,0,0,0,0,,,,,,,,,,,,,
88030,1745675876028,0.0,100,,-0.11,-0.09,1.04,-10,1,-0,1.05,1.06,98,2754,5.3,3.75,,13.44,1.051,71.8,,26.0,5,8,9,8,8,0.0,241.0,0.0,0.0,2.26,,,0,0,0,0,0,0,0,0,0,0,0,0,0,0,0,0,,1,,,,0.0,38.990932,-76.939712,13.11,34.8,23,2,1.3
88050,1745675876048,,,,,,,,,,,,,,,,,,,,,,,,,,,,,,,,,,0,0,0,0,0,0,0,0,0,0,0,0,0,0,0,0,,,,,,,,,,,,,
88070,1745675876068,0.0,100,,-0.11,-0.06,1.02,-10,1,-0,1.03,1.06,96,2760,5.3,3.77,,13.49,1.051,71.8,,26.0,5,,,,,,,,,,,,0,0,0,0,0,0,0,0,0,0,0,0,0,0,0,0,,,,,,0.0,,,,,,,
88090,1745675876088,,,,,,,,,,,,,,,,,,,,,,,,,,,,,,,,,,0,0,0,0,0,0,0,0,0,0,0,0,0,0,0,0,,,,,,,,,,,,,
88110,1745675876112,0.0,100,,-0.1,-0.11,1.06,-9,1,-0,1.07,1.07,100,2790,5.1,3.75,,13.49,1.042,71.8,,26.0,5,,,,,,,,,,,,0,0,0,0,0,0,0,0,0,0,0,0,0,0,0,0,,,,,,0.0,,,,,,,
88130,1745675876132,,,,,,,,,,,,,,,,,,,,,,,8,9,8,8,0.0,73.0,0.0,0.0,2.27,,,0,0,0,0,0,0,0,0,0,0,0,0,0,0,0,0,,1,,,,,38.990932,-76.939705,12.82,34.8,23,2,1.3
88150,1745675876152,0.0,100,,-0.11,-0.06,1.03,-10,1,-0,1.04,1.07,96,2744,5.0,3.77,,13.56,1.035,71.8,,26.5,5,,,,,,,,,,,,0,0,0,0,0,0,0,0,0,0,0,0,0,0,0,0,,,,,,0.0,,,,,,,
88170,1745675876172,,,,,,,,,,,,,,,,,,,,,,,,,,,,,,,,,,0,0,0,0,0,0,0,0,0,0,0,0,0,0,0,0,,,,,,,,,,,,,
88190,1745675876192,0.0,100,,-0.13,-0.06,0.99,-9,1,-1,1.0,1.07,93,2727,5.0,3.77,,13.56,1.035,71.8,,26.5,5,,,,,,,,,,,,0,0,0,0,0,0,0,0,0,0,0,0,0,0,0,0,,,,,,0.0,,,,,,,
88210,1745675876212,,,,,,,,,,,,,,,,,,,,,,,,,,,,,,,,,,0,0,0,0,0,0,0,0,0,0,0,0,0,0,0,0,,,,,,,,,,,,,
88230,1745675876232,0.0,101,,-0.12,-0.09,1.02,-9,1,-1,1.03,1.07,96,2727,5.0,3.77,,13.59,1.032,71.8,,26.2,5,8,23,8,8,0.0,8.0,0.0,0.0,2.27,,,0,0,0,0,0,0,0,0,0,0,0,0,0,0,0,0,,0,,,,0.0,38.990936,-76.939697,13.01,34.8,23,2,1.3
88250,1745675876252,,,,,,,,,,,,,,,,,,,,,,,,,,,,,,,,,,0,0,0,0,0,0,0,0,0,0,0,0,0,0,0,0,,,,,,,,,,,,,
88270,1745675876272,0.0,101,,-0.13,-0.08,1.02,-9,1,-1,1.03,1.07,96,2733,5.0,3.77,,13.55,1.042,71.8,,26.2,5,,,,,,,,,,,,0,0,0,0,0,0,0,0,0,0,0,0,0,0,0,0,,,,,,0.0,,,,,,,
88290,1745675876292,,,,,,,,,,,,,,,,,,,,,,,,,,,,,,,,,,0,0,0,0,0,0,0,0,0,0,0,0,0,0,0,0,,,,,,,,,,,,,
88310,1745675876314,0.0,100,,-0.12,-0.05,1.0,-9,0,-1,1.0,1.07,94,2838,5.0,3.76,,13.51,1.048,71.8,,26.2,5,,,,,,,,,,,,0,0,0,0,0,0,0,0,0,0,0,0,0,0,0,0,,,,,,0.0,,,,,,,
88330,1745675876334,,,,,,,,,,,,,,,,,,,,,,,8,8,8,9,0.0,212.0,0.0,0.0,2.26,,,0,0,0,0,0,0,0,0,0,0,0,0,0,0,0,0,,0,,,,,38.990936,-76.939697,12.8,34.8,23,2,1.3
88350,1745675876354,0.0,101,,-0.12,-0.06,1.01,-9,0,-1,1.02,1.07,95,2770,5.1,3.76,,13.49,1.05,71.8,,26.1,5,,,,,,,,,,,,0,0,0,0,0,0,0,0,0,0,0,0,0,0,0,0,,,,,,0.0,,,,,,,
88370,1745675876374,,,,,,,,,,,,,,,,,,,,,,,,,,,,,,,,,,0,0,0,0,0,0,0,0,0,0,0,0,0,0,0,0,,,,,,,,,,,,,
88390,1745675876394,0.0,101,,-0.11,-0.04,1.01,-9,0,-1,1.02,1.07,95,2722,5.2,3.75,,13.49,1.05,71.8,,26.1,5,,,,,,,,,,,,0,0,0,0,0,0,0,0,0,0,0,0,0,0,0,0,,,,,,0.0,,,,,,,
88410,1745675876414,,,,,,,,,,,,,,,,,,,,,,,,,,,,,,,,,,0,0,0,0,0,0,0,0,0,0,0,0,0,0,0,0,,,,,,,,,,,,,
88430,1745675876434,0.0,100,14.13,-0.11,-0.03,0.99,-9,0,-0,1.0,1.07,93,2722,5.2,3.75,15,13.57,1.045,71.8,75,25.7,5,8,10,8,9,0.0,86.0,0.0,0.0,2.26,0,0.0,0,0,0,0,0,0,0,0,0,0,0,0,0,0,0,0,0,0,0.0,0,-0,0.0,38.990936,-76.939697,12.95,34.8,23,2,1.2
88450,1745675876454,,,,,,,,,,,,,,,,,,,,,,,,,,,,,,,,,,0,0,0,0,0,0,0,0,0,0,0,0,0,0,0,0,,,,,,,,,,,,,
88470,1745675876474,0.0,100,,-0.1,-0.08,1.05,-9,0,-1,1.06,1.07,99,2719,5.6,3.75,,13.56,1.048,71.8,,25.7,5,,,,,,,,,,,,0,0,0,0,0,0,0,0,0,0,0,0,0,0,0,0,,,,,,0.0,,,,,,,
88490,1745675876494,,,,,,,,,,,,,,,,,,,,,,,,,,,,,,,,,,0,0,0,0,0,0,0,0,0,0,0,0,0,0,0,0,,,,,,,,,,,,,
88510,1745675876513,0.0,99,,-0.11,-0.07,1.01,-9,0,-0,1.02,1.07,95,2739,5.9,3.77,,13.64,1.039,71.8,,25.7,5,,,,,,,,,,,,0,0,0,0,0,0,0,0,0,0,0,0,0,0,0,0,,,,,,0.0,,,,,,,
88530,1745675876533,,,,,,,,,,,,,,,,,,,,,,,8,8,8,9,0.0,40.0,0.0,0.0,2.26,,,0,0,0,0,0,0,0,0,0,0,0,0,0,0,0,0,,0,,,,,38.990936,-76.93969,12.84,34.8,23,2,1.2
88550,1745675876553,0.0,100,,-0.11,-0.04,1.0,-9,0,-0,1.01,1.07,94,2744,6.6,3.81,,13.63,1.04,71.8,,26.4,5,,,,,,,,,,,,0,0,0,0,0,0,0,0,0,0,0,0,0,0,0,0,,,,,,0.0,,,,,,,
88570,1745675876573,,,,,,,,,,,,,,,,,,,,,,,,,,,,,,,,,,0,0,0,0,0,0,0,0,0,0,0,0,0,0,0,0,,,,,,,,,,,,,
88590,1745675876593,0.0,101,,-0.1,-0.09,1.05,-9,1,-1,1.06,1.07,99,2717,6.6,3.81,,13.63,1.04,71.8,,26.4,5,,,,,,,,,,,,0,0,0,0,0,0,0,0,0,0,0,0,0,0,0,0,,,,,,0.0,,,,,,,
88610,1745675876613,,,,,,,,,,,,,,,,,,,,,,,,,,,,,,,,,,0,0,0,0,0,0,0,0,0,0,0,0,0,0,0,0,,,,,,,,,,,,,
88630,1745675876633,0.0,100,,-0.1,-0.07,1.03,-9,1,-0,1.03,1.07,96,2717,6.6,3.81,,13.64,1.042,71.8,,25.7,5,8,8,8,8,0.0,209.0,0.0,0.0,2.26,,,0,0,0,0,0,0,0,0,0,0,0,0,0,0,0,0,,0,,,,0.0,38.990936,-76.93969,12.9,34.8,23,2,1.2
88650,1745675876653,,,,,,,,,,,,,,,,,,,,,,,,,,,,,,,,,,0,0,0,0,0,0,0,0,0,0,0,0,0,0,0,0,,,,,,,,,,,,,
88670,1745675876673,0.0,101,,-0.12,-0.05,1.03,-9,1,-1,1.03,1.07,96,2742,6.6,3.79,,13.64,1.046,71.8,,25.7,5,,,,,,,,,,,,0,0,0,0,0,0,0,0,0,0,0,0,0,0,0,0,,,,,,0.0,,,,,,,
88690,1745675876693,,,,,,,,,,,,,,,,,,,,,,,,,,,,,,,,,,0,0,0,0,0,0,0,0,0,0,0,0,0,0,0,0,,,,,,,,,,,,,
88710,1745675876713,0.0,100,,-0.1,-0.05,1.05,-9,1,-0,1.06,1.07,99,2777,6.7,3.81,,13.57,1.054,71.8,,25.7,5,,,,,,,,,,,,0,0,0,0,0,0,0,0,0,0,0,0,0,0,0,0,,,,,,0.0,,,,,,,
88730,1745675876733,,,,,,,,,,,,,,,,,,,,,,,8,8,8,9,0.0,0.0,0.0,0.0,2.27,,,0,0,0,0,0,0,0,0,0,0,0,0,0,0,0,0,,0,,,,,38.990936,-76.939682,12.71,34.8,23,2,1.2
88750,1745675876753,0.0,100,,-0.11,-0.06,1.03,-9,1,-0,1.04,1.07,97,2789,7.0,3.82,,13.68,1.056,71.8,,26.5,5,,,,,,,,,,,,0,0,0,0,0,0,0,0,0,0,0,0,0,0,0,0,,,,,,0.0,,,,,,,
88770,1745675876773,,,,,,,,,,,,,,,,,,,,,,,,,,,,,,,,,,0,0,0,0,0,0,0,0,0,0,0,0,0,0,0,0,,,,,,,,,,,,,
88790,1745675876793,0.0,100,,-0.11,-0.05,1.01,-9,1,-1,1.02,1.07,95,2759,7.2,3.83,,13.68,1.056,71.8,,26.5,5,,,,,,,,,,,,0,0,0,0,0,0,0,0,0,0,0,0,0,0,0,0,,,,,,0.0,,,,,,,
88810,1745675876813,,,,,,,,,,,,,,,,,,,,,,,,,,,,,,,,,,0,0,0,0,0,0,0,0,0,0,0,0,0,0,0,0,,,,,,,,,,,,,
88830,1745675876833,0.0,100,,-0.1,-0.06,1.05,-9,1,-0,1.06,1.07,98,2759,7.2,3.83,,13.68,1.06,71.8,,26.1,5,8,15,8,8,0.0,139.0,0.0,0.0,2.27,,,0,0,0,0,0,0,0,0,0,0,0,0,0,0,0,0,,1,,,,0.0,38.990936,-76.939674,12.64,34.8,23,2,1.2
88850,1745675876853,,,,,,,,,,,,,,,,,,,,,,,,,,,,,,,,,,0,0,0,0,0,0,0,0,0,0,0,0,0,0,0,0,,,,,,,,,,,,,
88870,1745675876873,0.0,100,,-0.1,-0.04,1.01,-9,1,-0,1.01,1.07,94,2699,7.5,3.84,,13.76,1.062,71.8,,26.1,5,,,,,,,,,,,,0,0,0,0,0,0,0,0,0,0,0,0,0,0,0,0,,,,,,0.0,,,,,,,
88890,1745675876893,,,,,,,,,,,,,,,,,,,,,,,,,,,,,,,,,,0,0,0,0,0,0,0,0,0,0,0,0,0,0,0,0,,,,,,,,,,,,,
88910,1745675876915,0.0,101,,-0.11,-0.06,1.01,-8,1,-1,1.01,1.07,94,2714,8.6,3.86,,13.82,1.066,71.8,,26.1,5,,,,,,,,,,,,0,0,0,0,0,0,0,0,0,0,0,0,0,0,0,0,,,,,,0.0,,,,,,,
88930,1745675876935,,,,,,,,,,,,,,,,,,,,,,,8,6,8,9,0.0,86.0,0.0,0.0,2.26,,,0,0,0,0,0,0,0,0,0,0,0,0,0,0,0,0,,1,,,,,38.990936,-76.939674,12.69,34.8,23,2,1.2
88950,1745675876955,0.0,99,,-0.1,-0.04,1.03,-9,1,-0,1.03,1.07,96,2694,9.8,3.88,,13.8,1.074,71.8,,25.6,5,,,,,,,,,,,,0,0,0,0,0,0,0,0,0,0,0,0,0,0,0,0,,,,,,0.0,,,,,,,
88970,1745675876975,,,,,,,,,,,,,,,,,,,,,,,,,,,,,,,,,,0,0,0,0,0,0,0,0,0,0,0,0,0,0,0,0,,,,,,,,,,,,,
88990,1745675876995,0.0,100,,-0.1,-0.05,1.0,-8,1,-0,1.0,1.07,94,2743,10.4,3.9,,13.8,1.074,71.8,,25.6,5,,,,,,,,,,,,0,0,0,0,0,0,0,0,0,0,0,0,0,0,0,0,,,,,,0.0,,,,,,,
