"Interval"|"ms"|0|0|1,"Utc"|"ms"|0|0|1,"FrontBP"|"psi"|-5.0|5.0|25,"SteerAng"|"Degrees"|-145|145|25,"Battery"|"Volts"|-5.0|20.0|1,"AccelX"|"G"|-3.0|3.0|25,"AccelY"|"G"|-3.0|3.0|25,"AccelZ"|"G"|-3.0|3.0|25,"Yaw"|"Deg/Sec"|-120|120|25,"Pitch"|"Deg/Sec"|-120|120|25,"Roll"|"Deg/Sec"|-120|120|25,"Gsum"|"G"|0.0|3.0|25,"GsumMax"|"G"|0.0|3.0|25,"GsumPct"|"%"|0|100|25,"RPM"|""|0|10000|25,"TPS"|"%"|0.0|100.0|25,"InjectorPW"|"ms"|0.0|100.0|25,"Baro"|"kPa"|0|105|1,"MAP"|"Psi"|0.0|255.0|25,"Lambda"|""|-2.0|2.0|25,"IAT"|"C"|0.0|200.0|25,"EngineTemp"|"C"|0|200|1,"EOP"|"PSI"|0.0|152.0|25,"EOT"|"F"|0|250|25,"WSFR"|"MPH"|0|150|10,"WSFL"|"MPH"|0|100|10,"WSRR"|"MPH"|0|100|10,"WSRL"|""|0|100|10,"TCSet"|"%"|0.0|100.0|10,"TCSlip"|"%"|0.0|100.0|10,"TCComp"|"deg"|0.0|50.0|10,"TCCut"|"%"|0.0|100.0|10,"Analog8"|""|0.0|5.0|10,"OilTemp"|"F"|0|300|1,"AA_On"|""|0.0|1.0|1,"ThermLF1"|"C"|0|400|50,"ThermLF2"|"C"|0|400|50,"ThermRR1"|"C"|0|400|50,"ThermRR2"|"C"|0|400|50,"ThermLF3"|"C"|0|400|50,"ThermLF4"|"C"|0|400|50,"ThermLF5"|"C"|0|400|50,"ThermLF6"|"C"|0|400|50,"ThermLF7"|"C"|0|400|50,"ThermLF8"|"C"|0|400|50,"ThermRR3"|"C"|0|400|50,"ThermRR4"|"C"|0|400|50,"ThermRR5"|"C"|0|400|50,"ThermRR6"|"C"|0|400|50,"ThermRR7"|"C"|0|400|50,"ThermRR8"|"C"|0|400|50,"AA_LowDrag"|""|0|1|1,"Gear"|""|1|6|10,"AA_On"|""|0.0|1.0|1,"AA_LowDrag"|""|0|1|1,"Fuel_Mix"|""|-10|10|1,"AA_Packages"|""|0.0|1000.0|25,"Latitude"|"Degrees"|-180.0|180.0|10,"Longitude"|"Degrees"|-180.0|180.0|10,"Speed"|"kph"|0.0|150.0|10,"Altitude"|"m"|0.0|4000.0|10,"GPSSats"|""|0|20|10,"GPSQual"|""|0|5|10,"GPSDOP"|""|0.0|20.0|10
10504,1745676870495,,,,,,,,,,,,,,,,,,,,,,,,,,,,,,,,,,0,0,0,0,0,0,0,0,0,0,0,0,0,0,0,0,,,,,,,,,,,,,
10524,1745676870515,42.23,110,,-0.09,-0.1,1.04,-1,-0,0,1.05,1.05,100,3660,8.5,4.23,,12.85,1.025,80.8,,33.0,5,,,,,,,,,,,,0,0,0,0,0,0,0,0,0,0,0,0,0,0,0,0,,,,,,0.0,,,,,,,
10544,1745676870535,,,,,,,,,,,,,,,,,,,,,,,,,,,,,,,,,,0,0,0,0,0,0,0,0,0,0,0,0,0,0,0,0,,,,,,,,,,,,,
10564,1745676870555,38.46,110,,-0.08,-0.1,1.01,-0,-0,-0,1.01,1.05,96,3606,8.5,4.23,,12.89,1.029,80.8,,33.0,5,,,,,,,,,,,,0,0,0,0,0,0,0,0,0,0,0,0,0,0,0,0,,,,,,0.0,,,,,,,
10584,1745676870575,,,,,,,,,,,,,,,,,,,,,,,0,0,0,0,0.0,0.0,0.0,0.0,2.27,,,0,0,0,0,0,0,0,0,0,0,0,0,0,0,0,0,,0,,,,,38.991528,-76.937012,0.16,48.8,10,2,3.5
10604,1745676870595,33.43,109,,-0.11,-0.19,1.03,-1,-0,0,1.05,1.05,100,3549,8.5,4.22,,12.99,1.032,80.8,,33.0,5,,,,,,,,,,,,0,0,0,0,0,0,0,0,0,0,0,0,0,0,0,0,,,,,,0.0,,,,,,,
10624,1745676870615,,,,,,,,,,,,,,,,,,,,,,,,,,,,,,,,,,0,0,0,0,0,0,0,0,0,0,0,0,0,0,0,0,,,,,,,,,,,,,
10644,1745676870635,28.41,110,,-0.08,-0.07,1.03,-1,-0,1,1.03,1.05,98,3490,8.8,4.23,,12.99,1.032,80.8,,32.9,5,,,,,,,,,,,,0,0,0,0,0,0,0,0,0,0,0,0,0,0,0,0,,,,,,0.0,,,,,,,
10664,1745676870655,,,,,,,,,,,,,,,,,,,,,,,,,,,,,,,,,,0,0,0,0,0,0,0,0,0,0,0,0,0,0,0,0,,,,,,,,,,,,,
10684,1745676870675,22.75,109,13.75,-0.07,-0.11,1.02,-1,-0,0,1.03,1.05,97,3490,8.8,4.23,15,13.09,1.034,80.8,106,32.9,5,0,0,0,0,0.0,0.0,0.0,0.0,2.27,0,0.0,0,0,0,0,0,0,0,0,0,0,0,0,0,0,0,0,0,0,0.0,0,-0,0.0,38.991528,-76.937012,0.08,48.7,10,2,3.5
10704,1745676870695,,,,,,,,,,,,,,,,,,,,,,,,,,,,,,,,,,0,0,0,0,0,0,0,0,0,0,0,0,0,0,0,0,,,,,,,,,,,,,
10724,1745676870715,17.09,110,,-0.07,-0.09,1.01,-1,-0,0,1.02,1.05,97,3643,8.9,4.23,,13.0,1.037,80.8,,33.8,5,,,,,,,,,,,,0,0,0,0,0,0,0,0,0,0,0,0,0,0,0,0,,,,,,0.0,,,,,,,
10744,1745676870735,,,,,,,,,,,,,,,,,,,,,,,,,,,,,,,,,,0,0,0,0,0,0,0,0,0,0,0,0,0,0,0,0,,,,,,,,,,,,,
10764,1745676870755,12.07,110,,-0.08,-0.1,0.98,0,-0,-0,0.99,1.05,94,3690,8.8,4.22,,12.92,1.039,80.8,,33.8,5,,,,,,,,,,,,0,0,0,0,0,0,0,0,0,0,0,0,0,0,0,0,,,,,,0.0,,,,,,,
10784,1745676870775,,,,,,,,,,,,,,,,,,,,,,,0,0,0,0,0.0,0.0,0.0,0.0,2.27,,,0,0,0,0,0,0,0,0,0,0,0,0,0,0,0,0,,0,,,,,38.991528,-76.937012,0.08,48.7,10,2,3.5
10804,1745676870795,8.3,110,,-0.11,-0.17,1.0,-1,-0,0,1.02,1.05,97,3555,8.6,4.21,,12.96,1.043,80.8,,33.8,5,,,,,,,,,,,,0,0,0,0,0,0,0,0,0,0,0,0,0,0,0,0,,,,,,0.0,,,,,,,
10824,1745676870815,,,,,,,,,,,,,,,,,,,,,,,,,,,,,,,,,,0,0,0,0,0,0,0,0,0,0,0,0,0,0,0,0,,,,,,,,,,,,,
10844,1745676870835,5.78,110,,-0.08,-0.06,1.01,-1,-0,1,1.01,1.05,96,3525,8.6,4.2,,12.96,1.043,80.8,,33.1,5,,,,,,,,,,,,0,0,0,0,0,0,0,0,0,0,0,0,0,0,0,0,,,,,,0.0,,,,,,,
10864,1745676870855,,,,,,,,,,,,,,,,,,,,,,,,,,,,,,,,,,0,0,0,0,0,0,0,0,0,0,0,0,0,0,0,0,,,,,,,,,,,,,
10884,1745676870875,2.64,110,,-0.08,-0.1,0.97,-0,-0,-0,0.98,1.05,93,3525,8.6,4.2,,13.03,1.047,80.8,,33.1,5,0,0,0,0,0.0,0.0,0.0,0.0,2.27,,,0,0,0,0,0,0,0,0,0,0,0,0,0,0,0,0,,0,,,,0.0,38.991528,-76.937012,0.52,48.7,10,2,3.5
10904,1745676870895,,,,,,,,,,,,,,,,,,,,,,,,,,,,,,,,,,0,0,0,0,0,0,0,0,0,0,0,0,0,0,0,0,,,,,,,,,,,,,
10924,1745676870915,0.75,110,,-0.09,-0.15,0.97,0,-0,-0,0.98,1.05,93,3535,8.7,4.2,,13.12,1.051,80.8,,33.6,5,,,,,,,,,,,,0,0,0,0,0,0,0,0,0,0,0,0,0,0,0,0,,,,,,0.0,,,,,,,
10944,1745676870935,,,,,,,,,,,,,,,,,,,,,,,,,,,,,,,,,,0,0,0,0,0,0,0,0,0,0,0,0,0,0,0,0,,,,,,,,,,,,,
10964,1745676870955,0.0,110,,-0.09,-0.16,0.97,0,-0,-0,0.99,1.05,94,3719,8.7,4.18,,13.05,1.05,80.8,,33.6,5,,,,,,,,,,,,0,0,0,0,0,0,0,0,0,0,0,0,0,0,0,0,,,,,,0.0,,,,,,,
10984,1745676870975,,,,,,,,,,,,,,,,,,,,,,,0,0,0,0,0.0,0.0,0.0,0.0,2.27,,,0,0,0,0,0,0,0,0,0,0,0,0,0,0,0,0,,0,,,,,38.991528,-76.937012,0.37,48.6,10,2,3.5
11004,1745676870995,0.0,110,,-0.08,-0.07,1.01,0,-0,-0,1.01,1.05,96,3829,8.8,4.15,,12.91,1.051,80.8,,33.6,5,,,,,,,,,,,,0,0,0,0,0,0,0,0,0,0,0,0,0,0,0,0,,,,,,0.0,,,,,,,
11024,1745676871009,,,,,,,,,,,,,,,,,,,,,,,,,,,,,,,,,,0,0,0,0,0,0,0,0,0,0,0,0,0,0,0,0,,,,,,,,,,,,,
11044,1745676871029,0.0,110,,-0.08,-0.06,1.03,-0,-0,0,1.04,1.05,98,3903,8.8,4.14,,12.91,1.051,80.8,,34.2,5,,,,,,,,,,,,0,0,0,0,0,0,0,0,0,0,0,0,0,0,0,0,,,,,,0.0,,,,,,,
11064,1745676871049,,,,,,,,,,,,,,,,,,,,,,,,,,,,,,,,,,0,0,0,0,0,0,0,0,0,0,0,0,0,0,0,0,,,,,,,,,,,,,
11084,1745676871069,0.0,110,,-0.08,-0.09,1.03,-1,-0,0,1.04,1.05,99,3903,8.8,4.14,,12.85,1.054,80.8,,34.2,5,0,0,0,0,0.0,0.0,0.0,0.0,2.27,,,0,0,0,0,0,0,0,0,0,0,0,0,0,0,0,0,,0,,,,0.0,38.991528,-76.937012,0.23,48.6,10,2,3.5
11104,1745676871096,,,,,,,,,,,,,,,,,,,,,,,,,,,,,,,,,,0,0,0,0,0,0,0,0,0,0,0,0,0,0,0,0,,,,,,,,,,,,,
11124,1745676871116,0.0,110,,-0.08,-0.1,1.04,-1,-0,0,1.04,1.05,99,3778,8.8,4.15,,12.85,1.057,80.8,,32.6,5,,,,,,,,,,,,0,0,0,0,0,0,0,0,0,0,0,0,0,0,0,0,,,,,,0.0,,,,,,,
11144,1745676871136,,,,,,,,,,,,,,,,,,,,,,,,,,,,,,,,,,0,0,0,0,0,0,0,0,0,0,0,0,0,0,0,0,,,,,,,,,,,,,
11164,1745676871156,0.0,110,,-0.07,-0.08,0.99,-0,-0,-0,1.0,1.05,95,3603,8.9,4.14,,12.87,1.061,80.8,,32.6,5,,,,,,,,,,,,0,0,0,0,0,0,0,0,0,0,0,0,0,0,0,0,,,,,,0.0,,,,,,,
11184,1745676871176,,,,,,,,,,,,,,,,,,,,,,,0,0,0,0,0.0,0.0,0.0,0.0,2.27,,,0,0,0,0,0,0,0,0,0,0,0,0,0,0,0,0,,0,,,,,38.991528,-76.937012,0.4,48.5,10,2,3.5
11204,1745676871195,0.0,110,,-0.09,-0.15,1.0,0,-0,-0,1.01,1.05,96,3583,9.1,4.15,,12.97,1.066,80.8,,32.6,5,,,,,,,,,,,,0,0,0,0,0,0,0,0,0,0,0,0,0,0,0,0,,,,,,0.0,,,,,,,
11224,1745676871215,,,,,,,,,,,,,,,,,,,,,,,,,,,,,,,,,,0,0,0,0,0,0,0,0,0,0,0,0,0,0,0,0,,,,,,,,,,,,,
11244,1745676871235,0.0,110,,-0.08,-0.15,0.99,-0,-0,0,1.01,1.05,96,3775,9.0,4.12,,12.97,1.066,80.8,,33.9,5,,,,,,,,,,,,0,0,0,0,0,0,0,0,0,0,0,0,0,0,0,0,,,,,,0.0,,,,,,,
11264,1745676871255,,,,,,,,,,,,,,,,,,,,,,,,,,,,,,,,,,0,0,0,0,0,0,0,0,0,0,0,0,0,0,0,0,,,,,,,,,,,,,
11284,1745676871275,0.0,110,,-0.06,-0.06,1.02,-0,-0,0,1.03,1.05,98,3775,9.0,4.12,,12.88,1.068,80.8,,33.9,5,0,0,0,0,0.0,0.0,0.0,0.0,2.27,,,0,0,0,0,0,0,0,0,0,0,0,0,0,0,0,0,,0,,,,0.0,38.991528,-76.937012,0.24,48.5,10,2,3.5
11304,1745676871297,,,,,,,,,,,,,,,,,,,,,,,,,,,,,,,,,,0,0,0,0,0,0,0,0,0,0,0,0,0,0,0,0,,,,,,,,,,,,,
11324,1745676871317,0.0,110,,-0.06,-0.0,1.08,-1,-0,1,1.08,1.08,100,3910,8.7,4.1,,12.92,1.072,80.8,,34.6,5,,,,,,,,,,,,0,0,0,0,0,0,0,0,0,0,0,0,0,0,0,0,,,,,,0.0,,,,,,,
11344,1745676871337,,,,,,,,,,,,,,,,,,,,,,,,,,,,,,,,,,0,0,0,0,0,0,0,0,0,0,0,0,0,0,0,0,,,,,,,,,,,,,
11364,1745676871357,0.0,110,,-0.09,-0.12,1.01,-1,-0,0,1.02,1.08,94,3919,8.7,4.09,,12.8,1.077,80.8,,34.6,5,,,,,,,,,,,,0,0,0,0,0,0,0,0,0,0,0,0,0,0,0,0,,,,,,0.0,,,,,,,
11384,1745676871377,,,,,,,,,,,,,,,,,,,,,,,0,0,0,0,0.0,0.0,0.0,0.0,2.28,,,0,0,0,0,0,0,0,0,0,0,0,0,0,0,0,0,,0,,,,,38.991528,-76.937012,0.08,48.5,10,2,3.5
11404,1745676871396,0.0,110,,-0.05,-0.1,0.99,0,-0,-0,0.99,1.08,92,3991,8.6,4.06,,12.77,1.087,80.8,,34.6,5,,,,,,,,,,,,0,0,0,0,0,0,0,0,0,0,0,0,0,0,0,0,,,,,,0.0,,,,,,,
11424,1745676871416,,,,,,,,,,,,,,,,,,,,,,,,,,,,,,,,,,0,0,0,0,0,0,0,0,0,0,0,0,0,0,0,0,,,,,,,,,,,,,
11444,1745676871436,0.0,111,,-0.05,0.02,1.09,-0,-0,1,1.09,1.09,100,4067,8.6,4.06,,12.77,1.087,80.8,,34.6,5,,,,,,,,,,,,0,0,0,0,0,0,0,0,0,0,0,0,0,0,0,0,,,,,,0.0,,,,,,,
11464,1745676871456,,,,,,,,,,,,,,,,,,,,,,,,,,,,,,,,,,0,0,0,0,0,0,0,0,0,0,0,0,0,0,0,0,,,,,,,,,,,,,
11484,1745676871476,0.0,110,,-0.07,-0.13,1.0,-0,-0,0,1.02,1.09,93,4067,8.6,4.06,,12.71,1.081,80.8,,34.6,5,0,0,0,0,0.0,0.0,0.0,0.0,2.28,,,0,0,0,0,0,0,0,0,0,0,0,0,0,0,0,0,,0,,,,0.0,38.991528,-76.937012,0.17,48.4,10,2,2.9
11504,1745676871494,,,,,,,,,,,,,,,,,,,,,,,,,,,,,,,,,,0,0,0,0,0,0,0,0,0,0,0,0,0,0,0,0,,,,,,,,,,,,,
11524,1745676871514,0.0,110,,-0.05,-0.12,1.0,1,-0,-0,1.01,1.09,93,3983,8.7,4.02,,12.65,1.07,80.8,,34.0,5,,,,,,,,,,,,0,0,0,0,0,0,0,0,0,0,0,0,0,0,0,0,,,,,,0.0,,,,,,,
11544,1745676871534,,,,,,,,,,,,,,,,,,,,,,,,,,,,,,,,,,0,0,0,0,0,0,0,0,0,0,0,0,0,0,0,0,,,,,,,,,,,,,
11564,1745676871554,0.0,110,,-0.06,-0.13,1.01,1,-0,-0,1.02,1.09,93,3818,8.4,4.03,,12.72,1.068,80.8,,34.0,5,,,,,,,,,,,,0,0,0,0,0,0,0,0,0,0,0,0,0,0,0,0,,,,,,0.0,,,,,,,
11584,1745676871574,,,,,,,,,,,,,,,,,,,,,,,0,0,0,0,0.0,0.0,0.0,0.0,2.27,,,0,0,0,0,0,0,0,0,0,0,0,0,0,0,0,0,,0,,,,,38.991528,-76.937012,0.05,48.3,10,2,2.9
11604,1745676871594,0.0,110,,-0.08,-0.17,1.02,1,-0,-0,1.04,1.09,95,3691,4.7,3.91,,12.57,1.071,80.8,,34.0,5,,,,,,,,,,,,0,0,0,0,0,0,0,0,0,0,0,0,0,0,0,0,,,,,,0.0,,,,,,,
11624,1745676871614,,,,,,,,,,,,,,,,,,,,,,,,,,,,,,,,,,0,0,0,0,0,0,0,0,0,0,0,0,0,0,0,0,,,,,,,,,,,,,
11644,1745676871634,0.0,111,,-0.08,-0.17,1.02,-0,-0,0,1.04,1.09,95,3684,4.0,3.87,,12.57,1.071,80.8,,32.7,5,,,,,,,,,,,,0,0,0,0,0,0,0,0,0,0,0,0,0,0,0,0,,,,,,0.0,,,,,,,
11664,1745676871654,,,,,,,,,,,,,,,,,,,,,,,,,,,,,,,,,,0,0,0,0,0,0,0,0,0,0,0,0,0,0,0,0,,,,,,,,,,,,,
11684,1745676871674,0.0,111,13.81,-0.07,-0.15,1.01,-1,-0,0,1.03,1.09,94,3684,4.0,3.87,15,12.47,1.075,80.8,106,32.7,5,0,0,0,0,0.0,0.0,0.0,0.0,2.27,0,0.0,0,0,0,0,0,0,0,0,0,0,0,0,0,0,0,0,0,0,0.0,0,-0,0.0,38.991528,-76.937012,0.06,48.3,10,2,2.9
11704,1745676871696,,,,,,,,,,,,,,,,,,,,,,,,,,,,,,,,,,0,0,0,0,0,0,0,0,0,0,0,0,0,0,0,0,,,,,,,,,,,,,
11724,1745676871716,0.0,110,,-0.07,-0.2,0.99,-1,-0,0,1.01,1.09,93,3796,3.5,3.77,,12.36,1.085,80.8,,33.9,5,,,,,,,,,,,,0,0,0,0,0,0,0,0,0,0,0,0,0,0,0,0,,,,,,0.0,,,,,,,
11744,1745676871736,,,,,,,,,,,,,,,,,,,,,,,,,,,,,,,,,,0,0,0,0,0,0,0,0,0,0,0,0,0,0,0,0,,,,,,,,,,,,,
11764,1745676871756,0.0,111,,-0.06,-0.19,1.01,-1,-0,0,1.02,1.09,94,3882,1.4,3.22,,12.25,1.098,80.8,,33.9,5,,,,,,,,,,,,0,0,0,0,0,0,0,0,0,0,0,0,0,0,0,0,,,,,,0.0,,,,,,,
11784,1745676871776,,,,,,,,,,,,,,,,,,,,,,,0,0,0,0,0.0,0.0,0.0,0.0,2.27,,,0,0,0,0,0,0,0,0,0,0,0,0,0,0,0,0,,0,,,,,38.991528,-76.937012,0.23,48.2,10,2,2.9
11804,1745676871792,0.0,111,,-0.07,-0.14,1.03,-1,-0,0,1.04,1.09,95,3823,1.0,3.09,,11.95,1.108,80.8,,33.9,5,,,,,,,,,,,,0,0,0,0,0,0,0,0,0,0,0,0,0,0,0,0,,,,,,0.0,,,,,,,
11824,1745676871812,,,,,,,,,,,,,,,,,,,,,,,,,,,,,,,,,,0,0,0,0,0,0,0,0,0,0,0,0,0,0,0,0,,,,,,,,,,,,,
11844,1745676871832,0.0,111,,-0.07,-0.09,1.01,-0,-0,0,1.01,1.09,93,3789,0.9,3.14,,11.95,1.108,80.8,,33.3,5,,,,,,,,,,,,0,0,0,0,0,0,0,0,0,0,0,0,0,0,0,0,,,,,,0.0,,,,,,,
11864,1745676871852,,,,,,,,,,,,,,,,,,,,,,,,,,,,,,,,,,0,0,0,0,0,0,0,0,0,0,0,0,0,0,0,0,,,,,,,,,,,,,
11884,1745676871872,2.01,111,,-0.06,-0.01,1.02,0,-0,0,1.02,1.09,93,3789,0.9,3.14,,11.89,1.104,80.8,,33.3,5,0,0,0,0,0.0,0.0,0.0,0.0,2.27,,,0,0,0,0,0,0,0,0,0,0,0,0,0,0,0,0,,0,,,,0.0,38.991528,-76.937012,0.16,48.2,10,2,2.8
11904,1745676871896,,,,,,,,,,,,,,,,,,,,,,,,,,,,,,,,,,0,0,0,0,0,0,0,0,0,0,0,0,0,0,0,0,,,,,,,,,,,,,
11924,1745676871916,3.9,110,,-0.06,0.01,1.03,-0,-0,0,1.03,1.09,94,3817,0.9,3.11,,11.87,1.087,80.8,,34.0,5,,,,,,,,,,,,0,0,0,0,0,0,0,0,0,0,0,0,0,0,0,0,,,,,,0.0,,,,,,,
11944,1745676871936,,,,,,,,,,,,,,,,,,,,,,,,,,,,,,,,,,0,0,0,0,0,0,0,0,0,0,0,0,0,0,0,0,,,,,,,,,,,,,
11964,1745676871956,5.78,111,,-0.06,-0.03,1.02,-1,-0,0,1.03,1.09,94,3776,1.0,3.08,,11.76,1.085,80.8,,34.0,5,,,,,,,,,,,,0,0,0,0,0,0,0,0,0,0,0,0,0,0,0,0,,,,,,0.0,,,,,,,
11984,1745676871976,,,,,,,,,,,,,,,,,,,,,,,0,0,0,0,0.0,0.0,0.0,0.0,2.28,,,0,0,0,0,0,0,0,0,0,0,0,0,0,0,0,0,,0,,,,,38.991528,-76.937012,0.0,48.1,10,2,2.8
12004,1745676871996,7.67,111,,-0.05,-0.03,1.0,0,-0,-0,1.0,1.09,92,3652,1.2,3.21,,11.75,1.069,80.8,,34.0,5,,,,,,,,,,,,0,0,0,0,0,0,0,0,0,0,0,0,0,0,0,0,,,,,,0.0,,,,,,,
12024,1745676872008,,,,,,,,,,,,,,,,,,,,,,,,,,,,,,,,,,0,0,0,0,0,0,0,0,0,0,0,0,0,0,0,0,,,,,,,,,,,,,
12044,1745676872028,8.92,111,,-0.08,-0.08,0.95,1,-0,-0,0.96,1.09,88,3581,1.3,3.24,,11.75,1.069,80.8,,32.5,5,,,,,,,,,,,,0,0,0,0,0,0,0,0,0,0,0,0,0,0,0,0,,,,,,0.0,,,,,,,
12064,1745676872048,,,,,,,,,,,,,,,,,,,,,,,,,,,,,,,,,,0,0,0,0,0,0,0,0,0,0,0,0,0,0,0,0,,,,,,,,,,,,,
12084,1745676872068,10.18,111,,-0.07,-0.08,1.02,-0,-0,0,1.02,1.09,94,3581,1.3,3.24,,11.88,1.057,80.8,,32.5,5,0,0,0,0,0.0,0.0,0.0,0.0,2.27,,,0,0,0,0,0,0,0,0,0,0,0,0,0,0,0,0,,0,,,,0.0,38.991528,-76.937012,0.08,48.1,11,2,2.0
12104,1745676872094,,,,,,,,,,,,,,,,,,,,,,,,,,,,,,,,,,0,0,0,0,0,0,0,0,0,0,0,0,0,0,0,0,,,,,,,,,,,,,
12124,1745676872114,11.44,111,,-0.06,-0.01,0.93,1,-0,-0,0.94,1.09,86,3463,1.2,3.4,,12.01,1.043,80.8,,33.3,5,,,,,,,,,,,,0,0,0,0,0,0,0,0,0,0,0,0,0,0,0,0,,,,,,0.0,,,,,,,
12144,1745676872134,,,,,,,,,,,,,,,,,,,,,,,,,,,,,,,,,,0,0,0,0,0,0,0,0,0,0,0,0,0,0,0,0,,,,,,,,,,,,,
12164,1745676872154,12.69,111,,-0.06,-0.03,1.02,-1,-0,1,1.02,1.09,94,3339,1.2,3.5,,12.2,1.033,80.8,,33.3,5,,,,,,,,,,,,0,0,0,0,0,0,0,0,0,0,0,0,0,0,0,0,,,,,,0.0,,,,,,,
12184,1745676872174,,,,,,,,,,,,,,,,,,,,,,,0,0,0,0,0.0,0.0,0.0,0.0,2.27,,,0,0,0,0,0,0,0,0,0,0,0,0,0,0,0,0,,0,,,,,38.991528,-76.937012,0.11,48.0,11,2,2.0
12204,1745676872194,13.95,111,,-0.1,-0.09,1.06,0,-0,0,1.07,1.09,98,3199,1.4,3.6,,12.31,1.032,80.8,,33.3,5,,,,,,,,,,,,0,0,0,0,0,0,0,0,0,0,0,0,0,0,0,0,,,,,,0.0,,,,,,,
12224,1745676872214,,,,,,,,,,,,,,,,,,,,,,,,,,,,,,,,,,0,0,0,0,0,0,0,0,0,0,0,0,0,0,0,0,,,,,,,,,,,,,
12244,1745676872234,14.58,111,,-0.12,-0.06,1.0,1,-0,-0,1.0,1.09,92,3115,1.6,3.68,,12.31,1.032,80.8,,33.1,5,,,,,,,,,,,,0,0,0,0,0,0,0,0,0,0,0,0,0,0,0,0,,,,,,0.0,,,,,,,
12264,1745676872254,,,,,,,,,,,,,,,,,,,,,,,,,,,,,,,,,,0,0,0,0,0,0,0,0,0,0,0,0,0,0,0,0,,,,,,,,,,,,,
12284,1745676872274,15.21,111,,-0.11,-0.04,0.91,1,-0,-1,0.91,1.09,84,3115,1.6,3.68,,12.37,1.03,80.8,,33.1,5,0,0,0,0,0.0,0.0,0.0,0.0,2.27,,,0,0,0,0,0,0,0,0,0,0,0,0,0,0,0,0,,0,,,,0.0,38.991528,-76.937012,0.04,48.0,11,2,2.0
12304,1745676872296,,,,,,,,,,,,,,,,,,,,,,,,,,,,,,,,,,0,0,0,0,0,0,0,0,0,0,0,0,0,0,0,0,,,,,,,,,,,,,
12324,1745676872316,15.21,111,,-0.09,-0.02,0.82,1,-0,-1,0.82,1.09,75,3033,11.3,4.2,,12.97,1.034,80.8,,32.8,5,,,,,,,,,,,,0,0,0,0,0,0,0,0,0,0,0,0,0,0,0,0,,,,,,0.0,,,,,,,
12344,1745676872336,,,,,,,,,,,,,,,,,,,,,,,,,,,,,,,,,,0,0,0,0,0,0,0,0,0,0,0,0,0,0,0,0,,,,,,,,,,,,,
12364,1745676872356,15.84,111,,-0.05,0.07,0.81,1,-0,-0,0.81,1.09,75,3112,12.3,4.34,,13.44,1.038,80.8,,32.8,5,,,,,,,,,,,,0,0,0,0,0,0,0,0,0,0,0,0,0,0,0,0,,,,,,0.0,,,,,,,
12384,1745676872376,,,,,,,,,,,,,,,,,,,,,,,0,0,0,0,0.0,0.0,0.0,0.0,2.27,,,0,0,0,0,0,0,0,0,0,0,0,0,0,0,0,0,,0,,,,,38.991528,-76.937012,0.0,47.9,11,2,2.0
12404,1745676872393,15.84,111,,-0.05,0.03,0.83,1,-0,-1,0.84,1.09,77,3521,12.3,4.1,,13.44,1.045,80.8,,32.8,5,,,,,,,,,,,,0,0,0,0,0,0,0,0,0,0,0,0,0,0,0,0,,,,,,0.0,,,,,,,
12424,1745676872413,,,,,,,,,,,,,,,,,,,,,,,,,,,,,,,,,,0,0,0,0,0,0,0,0,0,0,0,0,0,0,0,0,,,,,,,,,,,,,
12444,1745676872433,17.09,111,,-0.08,-0.03,0.82,2,-0,-1,0.83,1.09,76,3832,12.2,4.08,,13.44,1.045,80.8,,34.2,5,,,,,,,,,,,,0,0,0,0,0,0,0,0,0,0,0,0,0,0,0,0,,,,,,0.0,,,,,,,
12464,1745676872453,,,,,,,,,,,,,,,,,,,,,,,,,,,,,,,,,,0,0,0,0,0,0,0,0,0,0,0,0,0,0,0,0,,,,,,,,,,,,,
12484,1745676872473,17.72,111,,-0.09,-0.0,0.83,1,-0,-0,0.83,1.09,76,3832,12.2,4.08,,13.33,1.056,80.8,,34.2,5,0,0,0,0,0.0,0.0,0.0,0.0,2.27,,,0,0,0,0,0,0,0,0,0,0,0,0,0,0,0,0,,0,,,,0.0,38.991528,-76.937012,0.05,47.8,12,2,1.8
12504,1745676872493,,,,,,,,,,,,,,,,,,,,,,,,,,,,,,,,,,0,0,0,0,0,0,0,0,0,0,0,0,0,0,0,0,,,,,,,,,,,,,
12524,1745676872513,18.35,111,,-0.13,-0.08,0.88,0,-0,0,0.89,1.09,82,3866,6.2,3.89,,12.93,1.052,80.8,,34.8,5,,,,,,,,,,,,0,0,0,0,0,0,0,0,0,0,0,0,0,0,0,0,,,,,,0.0,,,,,,,
12544,1745676872533,,,,,,,,,,,,,,,,,,,,,,,,,,,,,,,,,,0,0,0,0,0,0,0,0,0,0,0,0,0,0,0,0,,,,,,,,,,,,,
12564,1745676872553,18.35,111,,-0.15,-0.13,0.9,0,-0,-0,0.92,1.09,84,3912,3.9,3.74,,12.55,1.045,80.8,,34.8,5,,,,,,,,,,,,0,0,0,0,0,0,0,0,0,0,0,0,0,0,0,0,,,,,,0.0,,,,,,,
12584,1745676872573,,,,,,,,,,,,,,,,,,,,,,,0,0,0,0,0.0,0.0,0.0,0.0,2.27,,,0,0,0,0,0,0,0,0,0,0,0,0,0,0,0,0,,0,,,,,38.991528,-76.937012,0.05,47.8,12,2,1.8
12604,1745676872595,17.72,112,,-0.14,-0.04,0.95,1,-0,-0,0.96,1.09,88,3789,1.7,3.53,,12.36,1.045,80.8,,34.8,5,,,,,,,,,,,,0,0,0,0,0,0,0,0,0,0,0,0,0,0,0,0,,,,,,0.0,,,,,,,
12624,1745676872615,,,,,,,,,,,,,,,,,,,,,,,,,,,,,,,,,,0,0,0,0,0,0,0,0,0,0,0,0,0,0,0,0,,,,,,,,,,,,,
12644,1745676872635,17.72,111,,-0.11,-0.05,0.9,1,-0,-0,0.91,1.09,83,3808,0.1,2.77,,12.36,1.045,80.8,,33.7,5,,,,,,,,,,,,0,0,0,0,0,0,0,0,0,0,0,0,0,0,0,0,,,,,,0.0,,,,,,,
12664,1745676872655,,,,,,,,,,,,,,,,,,,,,,,,,,,,,,,,,,0,0,0,0,0,0,0,0,0,0,0,0,0,0,0,0,,,,,,,,,,,,,
12684,1745676872675,17.72,111,13.86,-0.1,-0.04,0.91,0,-0,-0,0.91,1.09,84,3808,0.1,2.77,15,11.97,1.05,80.8,104,33.7,5,0,0,0,0,0.0,0.0,0.0,0.0,2.27,0,0.0,0,0,0,0,0,0,0,0,0,0,0,0,0,0,0,0,0,0,0.0,0,-0,0.0,38.991528,-76.937012,0.05,47.7,12,2,1.8
12704,1745676872695,,,,,,,,,,,,,,,,,,,,,,,,,,,,,,,,,,0,0,0,0,0,0,0,0,0,0,0,0,0,0,0,0,,,,,,,,,,,,,
12724,1745676872715,18.35,111,,-0.1,0.04,0.95,-1,-0,0,0.96,1.09,88,3740,0.0,2.79,,11.75,1.068,80.8,,33.0,5,,,,,,,,,,,,0,0,0,0,0,0,0,0,0,0,0,0,0,0,0,0,,,,,,0.0,,,,,,,
12744,1745676872735,,,,,,,,,,,,,,,,,,,,,,,,,,,,,,,,,,0,0,0,0,0,0,0,0,0,0,0,0,0,0,0,0,,,,,,,,,,,,,
12764,1745676872755,18.35,111,,-0.08,0.08,0.92,-1,-0,0,0.93,1.09,85,3537,0.0,2.97,,11.64,1.082,80.8,,33.0,5,,,,,,,,,,,,0,0,0,0,0,0,0,0,0,0,0,0,0,0,0,0,,,,,,0.0,,,,,,,
12784,1745676872775,,,,,,,,,,,,,,,,,,,,,,,0,0,0,0,0.0,0.0,0.0,0.0,2.27,,,0,0,0,0,0,0,0,0,0,0,0,0,0,0,0,0,,0,,,,,38.991531,-76.937012,0.04,47.6,12,2,1.8
12804,1745676872795,18.35,111,,-0.1,-0.05,0.98,-0,-0,0,0.98,1.09,90,3418,0.0,3.15,,11.71,1.091,80.8,,33.0,5,,,,,,,,,,,,0,0,0,0,0,0,0,0,0,0,0,0,0,0,0,0,,,,,,0.0,,,,,,,
12824,1745676872815,,,,,,,,,,,,,,,,,,,,,,,,,,,,,,,,,,0,0,0,0,0,0,0,0,0,0,0,0,0,0,0,0,,,,,,,,,,,,,
12844,1745676872835,18.98,111,,-0.09,0.06,0.89,-0,-0,0,0.9,1.09,82,3283,0.0,3.28,,11.71,1.091,80.8,,33.3,5,,,,,,,,,,,,0,0,0,0,0,0,0,0,0,0,0,0,0,0,0,0,,,,,,0.0,,,,,,,
12864,1745676872855,,,,,,,,,,,,,,,,,,,,,,,,,,,,,,,,,,0,0,0,0,0,0,0,0,0,0,0,0,0,0,0,0,,,,,,,,,,,,,
12884,1745676872875,18.35,110,,-0.08,0.06,0.97,-1,-0,1,0.97,1.09,89,3283,0.0,3.28,,11.84,1.102,80.8,,33.3,5,0,0,0,0,0.0,0.0,0.0,0.0,2.27,,,0,0,0,0,0,0,0,0,0,0,0,0,0,0,0,0,,0,,,,0.0,38.991531,-76.937012,0.09,47.6,12,2,1.8
12904,1745676872895,,,,,,,,,,,,,,,,,,,,,,,,,,,,,,,,,,0,0,0,0,0,0,0,0,0,0,0,0,0,0,0,0,,,,,,,,,,,,,
12924,1745676872915,18.98,111,,-0.11,-0.03,0.99,-0,-0,0,1.0,1.09,92,3263,2.7,3.6,,12.16,1.117,80.8,,32.9,5,,,,,,,,,,,,0,0,0,0,0,0,0,0,0,0,0,0,0,0,0,0,,,,,,0.0,,,,,,,
12944,1745676872935,,,,,,,,,,,,,,,,,,,,,,,,,,,,,,,,,,0,0,0,0,0,0,0,0,0,0,0,0,0,0,0,0,,,,,,,,,,,,,
12964,1745676872955,17.72,111,,-0.08,0.1,0.95,-1,-0,1,0.96,1.09,88,3302,4.4,3.68,,12.55,1.133,80.8,,32.9,5,,,,,,,,,,,,0,0,0,0,0,0,0,0,0,0,0,0,0,0,0,0,,,,,,0.0,,,,,,,
12984,1745676872975,,,,,,,,,,,,,,,,,,,,,,,0,0,0,0,0.0,0.0,0.0,0.0,2.28,,,0,0,0,0,0,0,0,0,0,0,0,0,0,0,0,0,,0,,,,,38.991531,-76.937012,0.0,47.5,12,2,1.8
13004,1745676872995,18.98,111,,-0.1,-0.05,1.02,-0,-0,0,1.02,1.09,94,3333,6.0,3.77,,12.76,1.138,80.8,,32.9,5,,,,,,,,,,,,0,0,0,0,0,0,0,0,0,0,0,0,0,0,0,0,,,,,,0.0,,,,,,,
13024,1745676873007,,,,,,,,,,,,,,,,,,,,,,,,,,,,,,,,,,0,0,0,0,0,0,0,0,0,0,0,0,0,0,0,0,,,,,,,,,,,,,
13044,1745676873027,18.35,111,,-0.08,0.07,0.95,-0,-0,0,0.96,1.09,88,3334,6.1,3.77,,12.76,1.138,80.8,,33.0,5,,,,,,,,,,,,0,0,0,0,0,0,0,0,0,0,0,0,0,0,0,0,,,,,,0.0,,,,,,,
13064,1745676873047,,,,,,,,,,,,,,,,,,,,,,,,,,,,,,,,,,0,0,0,0,0,0,0,0,0,0,0,0,0,0,0,0,,,,,,,,,,,,,
13084,1745676873067,18.35,111,,-0.11,-0.05,1.03,-0,-0,0,1.04,1.09,95,3334,6.1,3.77,,12.91,1.091,80.8,,33.0,5,0,0,0,0,0.0,0.0,0.0,0.0,2.27,,,0,0,0,0,0,0,0,0,0,0,0,0,0,0,0,0,,0,,,,0.0,38.991531,-76.937012,0.09,47.5,12,2,1.8
13104,1745676873095,,,,,,,,,,,,,,,,,,,,,,,,,,,,,,,,,,0,0,0,0,0,0,0,0,0,0,0,0,0,0,0,0,,,,,,,,,,,,,
13124,1745676873115,18.98,111,,-0.1,-0.01,0.95,0,-0,0,0.95,1.09,87,3387,5.5,3.78,,12.92,1.048,80.8,,32.8,5,,,,,,,,,,,,0,0,0,0,0,0,0,0,0,0,0,0,0,0,0,0,,,,,,0.0,,,,,,,
13144,1745676873135,,,,,,,,,,,,,,,,,,,,,,,,,,,,,,,,,,0,0,0,0,0,0,0,0,0,0,0,0,0,0,0,0,,,,,,,,,,,,,
13164,1745676873155,19.61,111,,-0.07,0.04,0.93,-1,-0,1,0.93,1.09,85,3191,2.6,3.63,,12.84,1.02,80.8,,32.8,5,,,,,,,,,,,,0,0,0,0,0,0,0,0,0,0,0,0,0,0,0,0,,,,,,0.0,,,,,,,
13184,1745676873175,,,,,,,,,,,,,,,,,,,,,,,0,0,0,0,0.0,0.0,0.0,0.0,2.27,,,0,0,0,0,0,0,0,0,0,0,0,0,0,0,0,0,,0,,,,,38.991531,-76.937012,0.07,47.4,12,2,1.8
13204,1745676873195,20.24,111,,-0.05,0.04,0.95,-1,-0,1,0.96,1.09,88,3085,2.7,3.64,,12.85,0.998,80.8,,32.8,5,,,,,,,,,,,,0,0,0,0,0,0,0,0,0,0,0,0,0,0,0,0,,,,,,0.0,,,,,,,
13224,1745676873215,,,,,,,,,,,,,,,,,,,,,,,,,,,,,,,,,,0,0,0,0,0,0,0,0,0,0,0,0,0,0,0,0,,,,,,,,,,,,,
13244,1745676873235,20.24,111,,-0.04,0.08,0.96,-2,-0,1,0.96,1.09,88,2987,2.8,3.73,,12.85,0.998,80.8,,32.0,5,,,,,,,,,,,,0,0,0,0,0,0,0,0,0,0,0,0,0,0,0,0,,,,,,0.0,,,,,,,
13264,1745676873255,,,,,,,,,,,,,,,,,,,,,,,,,,,,,,,,,,0,0,0,0,0,0,0,0,0,0,0,0,0,0,0,0,,,,,,,,,,,,,
13284,1745676873275,8.92,110,,-0.04,0.09,0.92,-2,-0,1,0.93,1.09,85,2987,2.8,3.73,,12.84,0.99,80.8,,32.0,5,0,0,0,0,0.0,0.0,0.0,0.0,2.26,,,0,0,0,0,0,0,0,0,0,0,0,0,0,0,0,0,,0,,,,0.0,38.991531,-76.937012,0.05,47.3,12,2,1.8
13304,1745676873295,,,,,,,,,,,,,,,,,,,,,,,,,,,,,,,,,,0,0,0,0,0,0,0,0,0,0,0,0,0,0,0,0,,,,,,,,,,,,,
13324,1745676873315,10.81,111,,-0.02,0.15,0.87,-2,-0,1,0.88,1.09,81,2872,3.0,3.73,,12.92,1.004,80.8,,32.7,5,,,,,,,,,,,,0,0,0,0,0,0,0,0,0,0,0,0,0,0,0,0,,,,,,0.0,,,,,,,
13344,1745676873335,,,,,,,,,,,,,,,,,,,,,,,,,,,,,,,,,,0,0,0,0,0,0,0,0,0,0,0,0,0,0,0,0,,,,,,,,,,,,,
13364,1745676873355,12.69,111,,-0.01,0.17,0.86,-2,-0,2,0.87,1.09,80,3053,11.0,3.76,,13.13,1.041,80.8,,32.7,5,,,,,,,,,,,,0,0,0,0,0,0,0,0,0,0,0,0,0,0,0,0,,,,,,0.0,,,,,,,
13384,1745676873375,,,,,,,,,,,,,,,,,,,,,,,0,0,0,0,0.0,0.0,0.0,0.0,2.26,,,0,0,0,0,0,0,0,0,0,0,0,0,0,0,0,0,,0,,,,,38.991531,-76.937012,0.08,47.3,12,2,1.8
13404,1745676873394,14.58,111,,-0.0,0.19,0.91,-3,-0,2,0.93,1.09,85,3002,31.9,4.75,,14.15,1.087,80.8,,32.7,5,,,,,,,,,,,,0,0,0,0,0,0,0,0,0,0,0,0,0,0,0,0,,,,,,0.0,,,,,,,
13424,1745676873414,,,,,,,,,,,,,,,,,,,,,,,,,,,,,,,,,,0,0,0,0,0,0,0,0,0,0,0,0,0,0,0,0,,,,,,,,,,,,,
13444,1745676873434,14.58,111,,-0.04,0.1,0.94,-2,-0,1,0.95,1.09,87,3408,35.5,4.88,,14.15,1.087,80.8,,32.7,5,,,,,,,,,,,,0,0,0,0,0,0,0,0,0,0,0,0,0,0,0,0,,,,,,0.0,,,,,,,
13464,1745676873454,,,,,,,,,,,,,,,,,,,,,,,,,,,,,,,,,,0,0,0,0,0,0,0,0,0,0,0,0,0,0,0,0,,,,,,,,,,,,,
13484,1745676873474,15.21,110,,-0.06,0.08,0.93,-2,-0,1,0.94,1.09,86,3408,35.5,4.88,,14.23,1.105,80.8,,32.7,5,0,0,0,0,0.0,0.0,0.0,0.0,2.27,,,0,0,0,0,0,0,0,0,0,0,0,0,0,0,0,0,,0,,,,0.0,38.991531,-76.937012,0.05,47.2,12,2,1.8
13504,1745676873495,,,,,,,,,,,,,,,,,,,,,,,,,,,,,,,,,,0,0,0,0,0,0,0,0,0,0,0,0,0,0,0,0,,,,,,,,,,,,,
13524,1745676873515,16.47,111,,-0.02,0.25,1.07,-3,-0,2,1.1,1.1,100,3676,35.8,4.59,,14.2,1.108,80.8,,35.7,5,,,,,,,,,,,,0,0,0,0,0,0,0,0,0,0,0,0,0,0,0,0,,,,,,0.0,,,,,,,
13544,1745676873535,,,,,,,,,,,,,,,,,,,,,,,,,,,,,,,,,,0,0,0,0,0,0,0,0,0,0,0,0,0,0,0,0,,,,,,,,,,,,,
13564,1745676873555,17.09,111,,-0.03,0.31,1.13,-4,-0,2,1.17,1.17,100,4489,22.5,4.51,,13.84,1.123,80.8,,35.7,5,,,,,,,,,,,,0,0,0,0,0,0,0,0,0,0,0,0,0,0,0,0,,,,,,0.0,,,,,,,
13584,1745676873575,,,,,,,,,,,,,,,,,,,,,,,0,0,0,0,0.0,0.0,0.0,0.0,2.27,,,0,0,0,0,0,0,0,0,0,0,0,0,0,0,0,0,,0,,,,,38.991531,-76.937012,0.05,47.2,12,2,1.8
13604,1745676873594,17.72,111,,-0.08,0.23,1.08,-3,-0,2,1.11,1.17,95,4787,9.8,3.84,,13.17,1.139,80.8,,35.7,5,,,,,,,,,,,,0,0,0,0,0,0,0,0,0,0,0,0,0,0,0,0,,,,,,0.0,,,,,,,
13624,1745676873614,,,,,,,,,,,,,,,,,,,,,,,,,,,,,,,,,,0,0,0,0,0,0,0,0,0,0,0,0,0,0,0,0,,,,,,,,,,,,,
13644,1745676873634,5.78,108,,-0.05,0.21,1.1,-3,-0,2,1.12,1.17,96,4932,1.6,3.42,,13.17,1.139,80.8,,36.1,5,,,,,,,,,,,,0,0,0,0,0,0,0,0,0,0,0,0,0,0,0,0,,,,,,0.0,,,,,,,
13664,1745676873654,,,,,,,,,,,,,,,,,,,,,,,,,,,,,,,,,,0,0,0,0,0,0,0,0,0,0,0,0,0,0,0,0,,,,,,,,,,,,,
13684,1745676873674,9.55,111,13.87,-0.05,0.13,1.06,-2,-0,1,1.06,1.17,91,4932,1.6,3.42,15,12.47,1.124,80.8,104,36.1,5,0,0,0,0,0.0,0.0,0.0,0.0,2.27,0,0.0,0,0,0,0,0,0,0,0,0,0,0,0,0,0,0,0,0,0,0.0,0,-0,0.0,38.991531,-76.937012,0.04,47.1,12,2,1.8
13704,1745676873694,,,,,,,,,,,,,,,,,,,,,,,,,,,,,,,,,,0,0,0,0,0,0,0,0,0,0,0,0,0,0,0,0,,,,,,,,,,,,,
13724,1745676873714,10.81,111,,-0.07,0.12,1.04,-2,-0,1,1.05,1.17,90,5030,0.0,2.39,,11.6,1.089,80.8,,36.5,5,,,,,,,,,,,,0,0,0,0,0,0,0,0,0,0,0,0,0,0,0,0,,,,,,0.0,,,,,,,
13744,1745676873734,,,,,,,,,,,,,,,,,,,,,,,,,,,,,,,,,,0,0,0,0,0,0,0,0,0,0,0,0,0,0,0,0,,,,,,,,,,,,,
13764,1745676873754,5.15,111,,-0.07,0.13,1.05,-2,-0,1,1.06,1.17,91,5074,0.0,2.32,,11.09,1.033,80.8,,36.5,5,,,,,,,,,,,,0,0,0,0,0,0,0,0,0,0,0,0,0,0,0,0,,,,,,0.0,,,,,,,
13784,1745676873774,,,,,,,,,,,,,,,,,,,,,,,0,0,0,0,0.0,0.0,0.0,0.0,2.26,,,0,0,0,0,0,0,0,0,0,0,0,0,0,0,0,0,,0,,,,,38.991531,-76.937012,0.13,47.0,12,2,1.8
13804,1745676873794,7.67,110,,-0.05,0.1,1.06,-2,-0,1,1.07,1.17,91,5011,0.0,1.81,,10.88,0.998,80.8,,36.5,5,,,,,,,,,,,,0,0,0,0,0,0,0,0,0,0,0,0,0,0,0,0,,,,,,0.0,,,,,,,
13824,1745676873814,,,,,,,,,,,,,,,,,,,,,,,,,,,,,,,,,,0,0,0,0,0,0,0,0,0,0,0,0,0,0,0,0,,,,,,,,,,,,,
13844,1745676873834,6.41,110,,-0.07,0.06,1.02,-2,-0,1,1.02,1.17,87,4929,0.0,1.8,,10.88,0.998,80.8,,35.7,5,,,,,,,,,,,,0,0,0,0,0,0,0,0,0,0,0,0,0,0,0,0,,,,,,0.0,,,,,,,
13864,1745676873854,,,,,,,,,,,,,,,,,,,,,,,,,,,,,,,,,,0,0,0,0,0,0,0,0,0,0,0,0,0,0,0,0,,,,,,,,,,,,,
13884,1745676873874,0.0,109,,-0.05,0.11,1.08,-2,-0,1,1.09,1.17,93,4929,0.0,1.8,,10.44,0.974,80.8,,35.7,5,0,0,0,0,0.0,0.0,0.0,0.0,2.27,,,0,0,0,0,0,0,0,0,0,0,0,0,0,0,0,0,,0,,,,0.0,38.991531,-76.937012,0.0,47.0,12,2,1.8
13904,1745676873894,,,,,,,,,,,,,,,,,,,,,,,,,,,,,,,,,,0,0,0,0,0,0,0,0,0,0,0,0,0,0,0,0,,,,,,,,,,,,,
13924,1745676873914,3.27,110,,-0.1,0.09,1.07,-2,-0,1,1.08,1.17,92,4810,0.0,1.8,,10.22,0.952,80.8,,33.6,5,,,,,,,,,,,,0,0,0,0,0,0,0,0,0,0,0,0,0,0,0,0,,,,,,0.0,,,,,,,
13944,1745676873934,,,,,,,,,,,,,,,,,,,,,,,,,,,,,,,,,,0,0,0,0,0,0,0,0,0,0,0,0,0,0,0,0,,,,,,,,,,,,,
13964,1745676873954,5.78,110,,-0.1,-0.06,0.97,-1,-0,0,0.98,1.17,84,4676,0.0,1.8,,10.2,0.936,80.8,,33.6,5,,,,,,,,,,,,0,0,0,0,0,0,0,0,0,0,0,0,0,0,0,0,,,,,,0.0,,,,,,,
13984,1745676873974,,,,,,,,,,,,,,,,,,,,,,,0,0,0,0,0.0,0.0,0.0,0.0,2.27,,,0,0,0,0,0,0,0,0,0,0,0,0,0,0,0,0,,0,,,,,38.991531,-76.937012,0.12,46.9,12,2,1.8
14004,1745676873994,6.41,110,,-0.09,-0.2,0.88,0,-0,-0,0.91,1.17,78,4528,0.0,1.76,,10.45,0.927,80.8,,33.6,5,,,,,,,,,,,,0,0,0,0,0,0,0,0,0,0,0,0,0,0,0,0,,,,,,0.0,,,,,,,
14024,1745676874008,,,,,,,,,,,,,,,,,,,,,,,,,,,,,,,,,,0,0,0,0,0,0,0,0,0,0,0,0,0,0,0,0,,,,,,,,,,,,,
14044,1745676874028,7.67,110,,-0.1,-0.35,0.81,1,-0,-1,0.89,1.17,76,4392,6.7,2.78,,10.45,0.927,80.8,,31.2,5,,,,,,,,,,,,0,0,0,0,0,0,0,0,0,0,0,0,0,0,0,0,,,,,,0.0,,,,,,,
14064,1745676874048,,,,,,,,,,,,,,,,,,,,,,,,,,,,,,,,,,0,0,0,0,0,0,0,0,0,0,0,0,0,0,0,0,,,,,,,,,,,,,
14084,1745676874068,9.55,110,,-0.15,-0.27,0.87,-0,-0,-0,0.92,1.17,79,4392,6.7,2.78,,10.81,0.928,80.8,,31.2,5,0,0,0,0,0.0,0.0,0.0,0.0,2.27,,,0,0,0,0,0,0,0,0,0,0,0,0,0,0,0,0,,0,,,,0.0,38.991531,-76.937012,0.0,46.9,12,2,1.8
14104,1745676874092,,,,,,,,,,,,,,,,,,,,,,,,,,,,,,,,,,0,0,0,0,0,0,0,0,0,0,0,0,0,0,0,0,,,,,,,,,,,,,
14124,1745676874112,11.44,110,,-0.13,-0.03,1.0,-2,-0,1,1.01,1.17,86,4330,7.7,3.62,,11.48,0.935,80.8,,31.4,5,,,,,,,,,,,,0,0,0,0,0,0,0,0,0,0,0,0,0,0,0,0,,,,,,0.0,,,,,,,
14144,1745676874132,,,,,,,,,,,,,,,,,,,,,,,,,,,,,,,,,,0,0,0,0,0,0,0,0,0,0,0,0,0,0,0,0,,,,,,,,,,,,,
14164,1745676874152,12.69,110,,-0.09,-0.07,0.95,-0,-0,0,0.95,1.17,81,4317,7.8,3.66,,11.88,0.948,80.8,,31.4,5,,,,,,,,,,,,0,0,0,0,0,0,0,0,0,0,0,0,0,0,0,0,,,,,,0.0,,,,,,,
14184,1745676874172,,,,,,,,,,,,,,,,,,,,,,,0,0,0,0,0.0,0.0,0.0,0.0,2.27,,,0,0,0,0,0,0,0,0,0,0,0,0,0,0,0,0,,0,,,,,38.991531,-76.937012,0.08,46.8,12,2,2.8
14204,1745676874194,0.0,106,,-0.09,-0.25,0.84,1,-0,-1,0.88,1.17,75,4343,7.6,3.67,,12.08,0.956,80.8,,31.4,5,,,,,,,,,,,,0,0,0,0,0,0,0,0,0,0,0,0,0,0,0,0,,,,,,0.0,,,,,,,
14224,1745676874214,,,,,,,,,,,,,,,,,,,,,,,,,,,,,,,,,,0,0,0,0,0,0,0,0,0,0,0,0,0,0,0,0,,,,,,,,,,,,,
14244,1745676874234,0.0,106,,-0.12,-0.3,0.82,1,-0,-1,0.88,1.17,75,4427,3.3,3.46,,12.08,0.956,80.8,,32.5,5,,,,,,,,,,,,0,0,0,0,0,0,0,0,0,0,0,0,0,0,0,0,,,,,,0.0,,,,,,,
14264,1745676874254,,,,,,,,,,,,,,,,,,,,,,,,,,,,,,,,,,0,0,0,0,0,0,0,0,0,0,0,0,0,0,0,0,,,,,,,,,,,,,
14284,1745676874274,0.0,105,,-0.16,-0.29,0.82,1,-0,-1,0.89,1.17,76,4427,3.3,3.46,,11.83,0.95,80.8,,32.5,5,0,0,0,0,0.0,0.0,0.0,0.0,2.26,,,0,0,0,0,0,0,0,0,0,0,0,0,0,0,0,0,,0,,,,0.0,38.991531,-76.937012,0.08,46.7,12,2,2.8
14304,1745676874294,,,,,,,,,,,,,,,,,,,,,,,,,,,,,,,,,,0,0,0,0,0,0,0,0,0,0,0,0,0,0,0,0,,,,,,,,,,,,,
14324,1745676874314,0.0,104,,-0.18,-0.27,0.84,-0,-0,-0,0.9,1.17,77,4474,0.5,2.65,,11.65,0.95,80.8,,33.8,5,,,,,,,,,,,,0,0,0,0,0,0,0,0,0,0,0,0,0,0,0,0,,,,,,0.0,,,,,,,
14344,1745676874334,,,,,,,,,,,,,,,,,,,,,,,,,,,,,,,,,,0,0,0,0,0,0,0,0,0,0,0,0,0,0,0,0,,,,,,,,,,,,,
14364,1745676874354,0.0,107,,-0.21,-0.22,0.87,-2,-0,1,0.92,1.17,79,4461,0.0,2.44,,11.21,0.946,80.8,,33.8,5,,,,,,,,,,,,0,0,0,0,0,0,0,0,0,0,0,0,0,0,0,0,,,,,,0.0,,,,,,,
14384,1745676874374,,,,,,,,,,,,,,,,,,,,,,,0,0,0,0,0.0,0.0,0.0,0.0,2.26,,,0,0,0,0,0,0,0,0,0,0,0,0,0,0,0,0,,0,,,,,38.991531,-76.937012,0.05,46.7,12,2,2.8
14404,1745676874393,0.0,108,,-0.22,-0.03,0.98,-3,-0,1,1.01,1.17,86,4371,0.0,2.43,,10.96,0.94,80.8,,33.8,5,,,,,,,,,,,,0,0,0,0,0,0,0,0,0,0,0,0,0,0,0,0,,,,,,0.0,,,,,,,
14424,1745676874413,,,,,,,,,,,,,,,,,,,,,,,,,,,,,,,,,,0,0,0,0,0,0,0,0,0,0,0,0,0,0,0,0,,,,,,,,,,,,,
14444,1745676874433,0.0,108,,-0.18,0.14,1.05,-3,-0,2,1.07,1.17,91,4331,4.9,2.96,,10.96,0.94,80.8,,32.9,5,,,,,,,,,,,,0,0,0,0,0,0,0,0,0,0,0,0,0,0,0,0,,,,,,0.0,,,,,,,
14464,1745676874453,,,,,,,,,,,,,,,,,,,,,,,,,,,,,,,,,,0,0,0,0,0,0,0,0,0,0,0,0,0,0,0,0,,,,,,,,,,,,,
14484,1745676874473,0.0,108,,-0.15,-0.09,0.92,-1,-0,0,0.93,1.17,80,4331,4.9,2.96,,11.18,0.94,80.8,,32.9,5,0,0,0,0,0.0,0.0,0.0,0.0,2.27,,,0,0,0,0,0,0,0,0,0,0,0,0,0,0,0,0,,0,,,,0.0,38.991531,-76.937012,0.04,46.6,12,2,2.8
14504,1745676874493,,,,,,,,,,,,,,,,,,,,,,,,,,,,,,,,,,0,0,0,0,0,0,0,0,0,0,0,0,0,0,0,0,,,,,,,,,,,,,
14524,1745676874513,0.0,108,,-0.18,-0.14,0.9,-1,-0,0,0.93,1.17,80,4303,8.7,3.81,,11.76,0.953,80.8,,32.5,5,,,,,,,,,,,,0,0,0,0,0,0,0,0,0,0,0,0,0,0,0,0,,,,,,0.0,,,,,,,
14544,1745676874533,,,,,,,,,,,,,,,,,,,,,,,,,,,,,,,,,,0,0,0,0,0,0,0,0,0,0,0,0,0,0,0,0,,,,,,,,,,,,,
14564,1745676874553,0.0,109,,-0.2,-0.02,0.98,-2,-0,1,1.0,1.17,86,4352,9.1,3.72,,12.04,0.97,80.8,,32.5,5,,,,,,,,,,,,0,0,0,0,0,0,0,0,0,0,0,0,0,0,0,0,,,,,,0.0,,,,,,,
14584,1745676874573,,,,,,,,,,,,,,,,,,,,,,,0,0,0,0,0.0,0.0,0.0,0.0,2.27,,,0,0,0,0,0,0,0,0,0,0,0,0,0,0,0,0,,0,,,,,38.991531,-76.937012,0.05,46.6,12,2,2.8
14604,1745676874593,0.0,109,,-0.19,0.15,1.07,-3,-0,2,1.1,1.17,94,4397,9.2,3.71,,12.2,0.984,80.8,,32.5,5,,,,,,,,,,,,0,0,0,0,0,0,0,0,0,0,0,0,0,0,0,0,,,,,,0.0,,,,,,,
14624,1745676874613,,,,,,,,,,,,,,,,,,,,,,,,,,,,,,,,,,0,0,0,0,0,0,0,0,0,0,0,0,0,0,0,0,,,,,,,,,,,,,
14644,1745676874633,0.0,108,,-0.17,0.29,1.16,-4,-0,2,1.21,1.21,100,4483,8.8,3.7,,12.2,0.984,80.8,,33.3,5,,,,,,,,,,,,0,0,0,0,0,0,0,0,0,0,0,0,0,0,0,0,,,,,,0.0,,,,,,,
14664,1745676874653,,,,,,,,,,,,,,,,,,,,,,,,,,,,,,,,,,0,0,0,0,0,0,0,0,0,0,0,0,0,0,0,0,,,,,,,,,,,,,
14684,1745676874673,0.0,108,13.94,-0.18,0.39,1.2,-5,-0,3,1.27,1.27,100,4483,8.8,3.7,15,12.39,0.98,80.8,104,33.3,5,0,0,0,0,0.0,0.0,0.0,0.0,2.27,0,0.0,0,0,0,0,0,0,0,0,0,0,0,0,0,0,0,0,0,0,0.0,0,-0,0.0,38.991531,-76.937012,0.1,46.5,12,2,2.8
14704,1745676874693,,,,,,,,,,,,,,,,,,,,,,,,,,,,,,,,,,0,0,0,0,0,0,0,0,0,0,0,0,0,0,0,0,,,,,,,,,,,,,
14724,1745676874713,0.13,109,,-0.2,0.41,1.2,-5,-0,3,1.28,1.28,100,4557,0.4,3.11,,11.81,0.977,80.8,,35.0,5,,,,,,,,,,,,0,0,0,0,0,0,0,0,0,0,0,0,0,0,0,0,,,,,,0.0,,,,,,,
14744,1745676874733,,,,,,,,,,,,,,,,,,,,,,,,,,,,,,,,,,0,0,0,0,0,0,0,0,0,0,0,0,0,0,0,0,,,,,,,,,,,,,
14764,1745676874753,0.0,109,,-0.23,0.36,1.17,-5,-0,3,1.25,1.28,97,4552,0.0,2.44,,11.4,0.978,80.8,,35.0,5,,,,,,,,,,,,0,0,0,0,0,0,0,0,0,0,0,0,0,0,0,0,,,,,,0.0,,,,,,,
14784,1745676874773,,,,,,,,,,,,,,,,,,,,,,,0,0,0,0,0.0,0.0,0.0,0.0,2.27,,,0,0,0,0,0,0,0,0,0,0,0,0,0,0,0,0,,0,,,,,38.991531,-76.937012,0.13,46.5,12,2,2.8
14804,1745676874793,0.0,109,,-0.25,0.26,1.12,-5,-0,3,1.18,1.28,91,4528,0.0,2.43,,11.13,0.969,80.8,,35.0,5,,,,,,,,,,,,0,0,0,0,0,0,0,0,0,0,0,0,0,0,0,0,,,,,,0.0,,,,,,,
14824,1745676874813,,,,,,,,,,,,,,,,,,,,,,,,,,,,,,,,,,0,0,0,0,0,0,0,0,0,0,0,0,0,0,0,0,,,,,,,,,,,,,
14844,1745676874833,3.27,109,,-0.26,0.25,1.12,-6,-0,3,1.18,1.28,92,4448,0.0,2.21,,11.13,0.969,80.8,,34.0,5,,,,,,,,,,,,0,0,0,0,0,0,0,0,0,0,0,0,0,0,0,0,,,,,,0.0,,,,,,,
14864,1745676874853,,,,,,,,,,,,,,,,,,,,,,,,,,,,,,,,,,0,0,0,0,0,0,0,0,0,0,0,0,0,0,0,0,,,,,,,,,,,,,
14884,1745676874873,5.78,109,,-0.25,0.36,1.21,-7,-0,4,1.29,1.29,100,4448,0.0,2.21,,10.84,0.962,80.8,,34.0,5,0,0,0,0,0.0,0.0,0.0,0.0,2.26,,,0,0,0,0,0,0,0,0,0,0,0,0,0,0,0,0,,0,,,,0.0,38.991531,-76.937012,0.04,46.4,12,2,2.8
14904,1745676874893,,,,,,,,,,,,,,,,,,,,,,,,,,,,,,,,,,0,0,0,0,0,0,0,0,0,0,0,0,0,0,0,0,,,,,,,,,,,,,
14924,1745676874913,7.04,110,,-0.2,0.37,1.19,-5,-0,3,1.26,1.29,98,4312,0.0,2.16,,10.65,0.97,80.8,,32.4,5,,,,,,,,,,,,0,0,0,0,0,0,0,0,0,0,0,0,0,0,0,0,,,,,,0.0,,,,,,,
14944,1745676874933,,,,,,,,,,,,,,,,,,,,,,,,,,,,,,,,,,0,0,0,0,0,0,0,0,0,0,0,0,0,0,0,0,,,,,,,,,,,,,
14964,1745676874953,10.18,109,,-0.22,0.16,1.1,-4,-0,2,1.14,1.29,88,4212,3.5,2.72,,10.89,0.978,80.8,,32.4,5,,,,,,,,,,,,0,0,0,0,0,0,0,0,0,0,0,0,0,0,0,0,,,,,,0.0,,,,,,,
14984,1745676874973,,,,,,,,,,,,,,,,,,,,,,,0,0,0,0,0.0,0.0,0.0,0.0,2.27,,,0,0,0,0,0,0,0,0,0,0,0,0,0,0,0,0,,0,,,,,38.991531,-76.937012,0.05,46.3,12,2,2.8
15004,1745676874993,12.07,109,,-0.16,0.29,1.16,-4,-0,2,1.2,1.29,93,4118,6.6,3.64,,11.37,0.989,80.8,,32.4,5,,,,,,,,,,,,0,0,0,0,0,0,0,0,0,0,0,0,0,0,0,0,,,,,,0.0,,,,,,,
15024,1745676875005,,,,,,,,,,,,,,,,,,,,,,,,,,,,,,,,,,0,0,0,0,0,0,0,0,0,0,0,0,0,0,0,0,,,,,,,,,,,,,
15044,1745676875025,14.58,110,,-0.18,0.15,1.11,-4,-0,2,1.13,1.29,88,4089,6.7,3.67,,11.37,0.989,80.8,,32.6,5,,,,,,,,,,,,0,0,0,0,0,0,0,0,0,0,0,0,0,0,0,0,,,,,,0.0,,,,,,,
15064,1745676875045,,,,,,,,,,,,,,,,,,,,,,,,,,,,,,,,,,0,0,0,0,0,0,0,0,0,0,0,0,0,0,0,0,,,,,,,,,,,,,
15084,1745676875065,15.84,110,,-0.13,0.2,1.09,-3,-0,1,1.11,1.29,86,4089,6.7,3.67,,11.75,1.002,80.8,,32.6,5,0,0,0,0,0.0,0.0,0.0,0.0,2.27,,,0,0,0,0,0,0,0,0,0,0,0,0,0,0,0,0,,0,,,,0.0,38.991531,-76.937012,0.05,46.2,14,2,1.6
15104,1745676875094,,,,,,,,,,,,,,,,,,,,,,,,,,,,,,,,,,0,0,0,0,0,0,0,0,0,0,0,0,0,0,0,0,,,,,,,,,,,,,
15124,1745676875114,17.09,109,,-0.14,0.22,1.17,-3,-0,2,1.2,1.29,93,4036,6.6,3.7,,12.0,1.022,80.8,,32.2,5,,,,,,,,,,,,0,0,0,0,0,0,0,0,0,0,0,0,0,0,0,0,,,,,,0.0,,,,,,,
15144,1745676875134,,,,,,,,,,,,,,,,,,,,,,,,,,,,,,,,,,0,0,0,0,0,0,0,0,0,0,0,0,0,0,0,0,,,,,,,,,,,,,
15164,1745676875154,17.72,110,,-0.13,0.07,1.06,-1,-0,1,1.07,1.29,83,4092,6.5,3.7,,12.11,1.03,80.8,,32.2,5,,,,,,,,,,,,0,0,0,0,0,0,0,0,0,0,0,0,0,0,0,0,,,,,,0.0,,,,,,,
15184,1745676875174,,,,,,,,,,,,,,,,,,,,,,,0,0,0,0,0.0,0.0,0.0,0.0,2.27,,,0,0,0,0,0,0,0,0,0,0,0,0,0,0,0,0,,0,,,,,38.991531,-76.937012,0.04,46.1,14,2,1.6
15204,1745676875193,17.72,109,,-0.13,0.23,1.18,-3,-0,2,1.21,1.29,94,4120,4.4,3.68,,12.0,1.053,80.8,,32.2,5,,,,,,,,,,,,0,0,0,0,0,0,0,0,0,0,0,0,0,0,0,0,,,,,,0.0,,,,,,,
15224,1745676875213,,,,,,,,,,,,,,,,,,,,,,,,,,,,,,,,,,0,0,0,0,0,0,0,0,0,0,0,0,0,0,0,0,,,,,,,,,,,,,
15244,1745676875233,17.72,110,,-0.12,0.07,1.04,-1,-0,1,1.05,1.29,82,4160,1.8,3.0,,12.0,1.053,80.8,,34.2,5,,,,,,,,,,,,0,0,0,0,0,0,0,0,0,0,0,0,0,0,0,0,,,,,,0.0,,,,,,,
15264,1745676875253,,,,,,,,,,,,,,,,,,,,,,,,,,,,,,,,,,0,0,0,0,0,0,0,0,0,0,0,0,0,0,0,0,,,,,,,,,,,,,
15284,1745676875273,17.72,110,,-0.13,0.14,1.14,-3,-0,2,1.15,1.29,89,4160,1.8,3.0,,11.76,1.046,80.8,,34.2,5,0,0,0,0,0.0,0.0,0.0,0.0,2.27,,,0,0,0,0,0,0,0,0,0,0,0,0,0,0,0,0,,0,,,,0.0,38.991531,-76.937012,0.12,46.1,14,2,1.6
15304,1745676875293,,,,,,,,,,,,,,,,,,,,,,,,,,,,,,,,,,0,0,0,0,0,0,0,0,0,0,0,0,0,0,0,0,,,,,,,,,,,,,
15324,1745676875313,18.35,110,,-0.14,-0.01,1.02,-1,-0,1,1.03,1.29,80,4112,1.4,2.82,,11.5,1.023,80.8,,32.9,5,,,,,,,,,,,,0,0,0,0,0,0,0,0,0,0,0,0,0,0,0,0,,,,,,0.0,,,,,,,
15344,1745676875333,,,,,,,,,,,,,,,,,,,,,,,,,,,,,,,,,,0,0,0,0,0,0,0,0,0,0,0,0,0,0,0,0,,,,,,,,,,,,,
15364,1745676875353,18.98,110,,-0.12,-0.02,1.03,-0,-0,0,1.04,1.29,80,4009,1.6,2.79,,11.54,1.025,80.8,,32.9,5,,,,,,,,,,,,0,0,0,0,0,0,0,0,0,0,0,0,0,0,0,0,,,,,,0.0,,,,,,,
15384,1745676875373,,,,,,,,,,,,,,,,,,,,,,,0,0,0,0,0.0,0.0,0.0,0.0,2.27,,,0,0,0,0,0,0,0,0,0,0,0,0,0,0,0,0,,0,,,,,38.991531,-76.937019,0.08,46.0,14,2,1.6
15404,1745676875392,18.35,110,,-0.12,-0.04,1.04,0,-0,0,1.05,1.29,81,3755,1.6,3.08,,11.54,1.034,80.8,,32.9,5,,,,,,,,,,,,0,0,0,0,0,0,0,0,0,0,0,0,0,0,0,0,,,,,,0.0,,,,,,,
15424,1745676875412,,,,,,,,,,,,,,,,,,,,,,,,,,,,,,,,,,0,0,0,0,0,0,0,0,0,0,0,0,0,0,0,0,,,,,,,,,,,,,
15444,1745676875432,20.24,110,,-0.13,-0.05,1.07,-0,-0,0,1.08,1.29,84,3592,1.4,3.13,,11.54,1.034,80.8,,33.1,5,,,,,,,,,,,,0,0,0,0,0,0,0,0,0,0,0,0,0,0,0,0,,,,,,0.0,,,,,,,
15464,1745676875452,,,,,,,,,,,,,,,,,,,,,,,,,,,,,,,,,,0,0,0,0,0,0,0,0,0,0,0,0,0,0,0,0,,,,,,,,,,,,,
15484,1745676875472,20.24,110,,-0.11,0.05,1.07,-1,-0,1,1.07,1.29,83,3592,1.4,3.13,,11.63,1.045,80.8,,33.1,5,0,0,0,0,0.0,0.0,0.0,0.0,2.27,,,0,0,0,0,0,0,0,0,0,0,0,0,0,0,0,0,,0,,,,0.0,38.991531,-76.937019,0.04,45.9,14,2,1.6
15504,1745676875492,,,,,,,,,,,,,,,,,,,,,,,,,,,,,,,,,,0,0,0,0,0,0,0,0,0,0,0,0,0,0,0,0,,,,,,,,,,,,,
15524,1745676875512,20.24,109,,-0.1,0.0,1.01,0,-0,0,1.01,1.29,79,3526,1.2,3.26,,11.88,1.087,80.8,,33.4,5,,,,,,,,,,,,0,0,0,0,0,0,0,0,0,0,0,0,0,0,0,0,,,,,,0.0,,,,,,,
15544,1745676875532,,,,,,,,,,,,,,,,,,,,,,,,,,,,,,,,,,0,0,0,0,0,0,0,0,0,0,0,0,0,0,0,0,,,,,,,,,,,,,
15564,1745676875552,20.86,110,,-0.11,-0.04,1.08,-0,-0,1,1.08,1.29,84,3441,1.1,3.35,,12.09,1.145,80.8,,33.4,5,,,,,,,,,,,,0,0,0,0,0,0,0,0,0,0,0,0,0,0,0,0,,,,,,0.0,,,,,,,
15584,1745676875572,,,,,,,,,,,,,,,,,,,,,,,0,0,0,0,0.0,0.0,0.0,0.0,2.27,,,0,0,0,0,0,0,0,0,0,0,0,0,0,0,0,0,,0,,,,,38.991531,-76.937019,0.05,45.8,14,2,1.6
15604,1745676875592,20.86,110,,-0.11,-0.01,1.0,0,-0,0,1.01,1.29,78,3290,1.2,3.38,,12.19,1.166,80.8,,33.4,5,,,,,,,,,,,,0,0,0,0,0,0,0,0,0,0,0,0,0,0,0,0,,,,,,0.0,,,,,,,
15624,1745676875612,,,,,,,,,,,,,,,,,,,,,,,,,,,,,,,,,,0,0,0,0,0,0,0,0,0,0,0,0,0,0,0,0,,,,,,,,,,,,,
15644,1745676875632,21.49,110,,-0.08,0.06,0.95,-0,-0,1,0.96,1.29,75,3193,1.1,3.52,,12.19,1.166,80.8,,32.6,5,,,,,,,,,,,,0,0,0,0,0,0,0,0,0,0,0,0,0,0,0,0,,,,,,0.0,,,,,,,
15664,1745676875652,,,,,,,,,,,,,,,,,,,,,,,,,,,,,,,,,,0,0,0,0,0,0,0,0,0,0,0,0,0,0,0,0,,,,,,,,,,,,,
15684,1745676875672,22.75,111,13.99,-0.07,0.02,1.03,-1,-0,1,1.04,1.29,81,3193,1.1,3.52,15,12.27,1.143,80.8,102,32.6,5,0,0,0,0,0.0,0.0,0.0,0.0,2.27,0,0.0,0,0,0,0,0,0,0,0,0,0,0,0,0,0,0,0,0,0,0.0,0,-0,0.0,38.991531,-76.937019,0.1,45.7,14,2,1.6
15704,1745676875692,,,,,,,,,,,,,,,,,,,,,,,,,,,,,,,,,,0,0,0,0,0,0,0,0,0,0,0,0,0,0,0,0,,,,,,,,,,,,,
15724,1745676875712,22.75,110,,-0.08,-0.05,1.12,-1,-0,1,1.12,1.29,87,3098,4.6,3.79,,12.55,1.108,80.8,,32.9,5,,,,,,,,,,,,0,0,0,0,0,0,0,0,0,0,0,0,0,0,0,0,,,,,,0.0,,,,,,,
15744,1745676875732,,,,,,,,,,,,,,,,,,,,,,,,,,,,,,,,,,0,0,0,0,0,0,0,0,0,0,0,0,0,0,0,0,,,,,,,,,,,,,
15764,1745676875752,22.75,110,,-0.11,-0.11,1.15,0,-0,0,1.16,1.29,90,3055,6.5,3.78,,12.88,1.088,80.8,,32.9,5,,,,,,,,,,,,0,0,0,0,0,0,0,0,0,0,0,0,0,0,0,0,,,,,,0.0,,,,,,,
15784,1745676875772,,,,,,,,,,,,,,,,,,,,,,,0,0,0,0,0.0,0.0,0.0,0.0,2.27,,,0,0,0,0,0,0,0,0,0,0,0,0,0,0,0,0,,0,,,,,38.991531,-76.937019,0.04,45.6,14,2,1.6
15804,1745676875792,23.38,110,,-0.09,-0.0,1.04,0,-0,0,1.05,1.29,81,3304,6.8,3.8,,13.01,1.081,80.8,,32.9,5,,,,,,,,,,,,0,0,0,0,0,0,0,0,0,0,0,0,0,0,0,0,,,,,,0.0,,,,,,,
15824,1745676875812,,,,,,,,,,,,,,,,,,,,,,,,,,,,,,,,,,0,0,0,0,0,0,0,0,0,0,0,0,0,0,0,0,,,,,,,,,,,,,
15844,1745676875832,24.01,110,,-0.12,-0.12,1.09,0,-0,0,1.1,1.29,86,3500,7.0,3.82,,13.01,1.081,80.8,,33.4,5,,,,,,,,,,,,0,0,0,0,0,0,0,0,0,0,0,0,0,0,0,0,,,,,,0.0,,,,,,,
15864,1745676875852,,,,,,,,,,,,,,,,,,,,,,,,,,,,,,,,,,0,0,0,0,0,0,0,0,0,0,0,0,0,0,0,0,,,,,,,,,,,,,
15884,1745676875872,23.38,110,,-0.08,-0.0,1.09,-1,-0,1,1.1,1.29,85,3500,7.0,3.82,,12.99,1.112,80.8,,33.4,5,0,0,0,0,0.0,0.0,0.0,0.0,2.27,,,0,0,0,0,0,0,0,0,0,0,0,0,0,0,0,0,,0,,,,0.0,38.991531,-76.937019,0.0,45.5,14,2,1.6
15904,1745676875894,,,,,,,,,,,,,,,,,,,,,,,,,,,,,,,,,,0,0,0,0,0,0,0,0,0,0,0,0,0,0,0,0,,,,,,,,,,,,,
15924,1745676875914,22.75,110,,-0.09,-0.08,1.06,0,-0,-0,1.06,1.29,82,3437,6.6,3.81,,12.99,1.099,80.8,,32.5,5,,,,,,,,,,,,0,0,0,0,0,0,0,0,0,0,0,0,0,0,0,0,,,,,,0.0,,,,,,,
15944,1745676875934,,,,,,,,,,,,,,,,,,,,,,,,,,,,,,,,,,0,0,0,0,0,0,0,0,0,0,0,0,0,0,0,0,,,,,,,,,,,,,
15964,1745676875954,23.38,110,,-0.07,0.02,1.04,-1,-0,1,1.04,1.29,81,3364,2.7,3.77,,12.87,1.07,80.8,,32.5,5,,,,,,,,,,,,0,0,0,0,0,0,0,0,0,0,0,0,0,0,0,0,,,,,,0.0,,,,,,,
15984,1745676875974,,,,,,,,,,,,,,,,,,,,,,,0,0,0,0,0.0,0.0,0.0,0.0,2.27,,,0,0,0,0,0,0,0,0,0,0,0,0,0,0,0,0,,0,,,,,38.991531,-76.937019,0.08,45.4,14,2,1.6
16004,1745676875994,22.75,111,,-0.08,-0.05,1.11,-1,-0,1,1.12,1.29,87,3200,0.4,3.49,,12.68,1.043,80.8,,32.5,5,,,,,,,,,,,,0,0,0,0,0,0,0,0,0,0,0,0,0,0,0,0,,,,,,0.0,,,,,,,
16024,1745676876004,,,,,,,,,,,,,,,,,,,,,,,,,,,,,,,,,,0,0,0,0,0,0,0,0,0,0,0,0,0,0,0,0,,,,,,,,,,,,,
16044,1745676876024,23.38,111,,-0.09,-0.08,1.16,-0,-0,0,1.17,1.29,91,3056,0.0,3.67,,12.68,1.043,80.8,,32.7,5,,,,,,,,,,,,0,0,0,0,0,0,0,0,0,0,0,0,0,0,0,0,,,,,,0.0,,,,,,,
16064,1745676876044,,,,,,,,,,,,,,,,,,,,,,,,,,,,,,,,,,0,0,0,0,0,0,0,0,0,0,0,0,0,0,0,0,,,,,,,,,,,,,
16084,1745676876064,23.38,110,,-0.1,-0.1,1.2,-0,-0,0,1.21,1.29,94,3056,0.0,3.67,,12.57,1.044,80.8,,32.7,5,0,0,0,0,0.0,0.0,0.0,0.0,2.27,,,0,0,0,0,0,0,0,0,0,0,0,0,0,0,0,0,,0,,,,0.0,38.991531,-76.937019,0.13,45.3,14,2,1.6
16104,1745676876092,,,,,,,,,,,,,,,,,,,,,,,,,,,,,,,,,,0,0,0,0,0,0,0,0,0,0,0,0,0,0,0,0,,,,,,,,,,,,,
16124,1745676876112,23.38,110,,-0.1,-0.09,1.17,-0,-0,0,1.18,1.29,91,2915,0.0,3.74,,12.57,1.068,80.8,,32.4,5,,,,,,,,,,,,0,0,0,0,0,0,0,0,0,0,0,0,0,0,0,0,,,,,,0.0,,,,,,,
16144,1745676876132,,,,,,,,,,,,,,,,,,,,,,,,,,,,,,,,,,0,0,0,0,0,0,0,0,0,0,0,0,0,0,0,0,,,,,,,,,,,,,
16164,1745676876152,22.75,110,,-0.1,-0.05,1.16,-0,-0,0,1.16,1.29,90,2784,0.0,3.72,,12.69,1.104,80.8,,32.4,5,,,,,,,,,,,,0,0,0,0,0,0,0,0,0,0,0,0,0,0,0,0,,,,,,0.0,,,,,,,
16184,1745676876172,,,,,,,,,,,,,,,,,,,,,,,0,0,0,0,0.0,0.0,0.0,0.0,2.27,,,0,0,0,0,0,0,0,0,0,0,0,0,0,0,0,0,,0,,,,,38.991531,-76.937019,0.15,45.2,14,2,1.6
16204,1745676876194,22.75,110,,-0.1,-0.05,1.12,-0,-0,0,1.13,1.29,88,2622,7.3,3.9,,13.13,1.142,80.8,,32.4,5,,,,,,,,,,,,0,0,0,0,0,0,0,0,0,0,0,0,0,0,0,0,,,,,,0.0,,,,,,,
16224,1745676876214,,,,,,,,,,,,,,,,,,,,,,,,,,,,,,,,,,0,0,0,0,0,0,0,0,0,0,0,0,0,0,0,0,,,,,,,,,,,,,
16244,1745676876234,22.75,111,,-0.1,-0.02,1.11,-1,-0,1,1.11,1.29,86,2505,9.7,3.97,,13.13,1.142,80.8,,32.3,5,,,,,,,,,,,,0,0,0,0,0,0,0,0,0,0,0,0,0,0,0,0,,,,,,0.0,,,,,,,
16264,1745676876254,,,,,,,,,,,,,,,,,,,,,,,,,,,,,,,,,,0,0,0,0,0,0,0,0,0,0,0,0,0,0,0,0,,,,,,,,,,,,,
16284,1745676876274,22.12,111,,-0.09,-0.03,1.1,-0,-0,0,1.11,1.29,86,2505,9.7,3.97,,13.63,1.168,80.8,,32.3,5,0,0,0,0,0.0,0.0,0.0,0.0,2.27,,,0,0,0,0,0,0,0,0,0,0,0,0,0,0,0,0,,0,,,,0.0,38.991531,-76.937019,0.05,45.2,14,2,1.6
16304,1745676876292,,,,,,,,,,,,,,,,,,,,,,,,,,,,,,,,,,0,0,0,0,0,0,0,0,0,0,0,0,0,0,0,0,,,,,,,,,,,,,
16324,1745676876312,22.12,110,,-0.1,-0.02,1.08,-0,-0,0,1.09,1.29,84,2420,9.9,3.83,,13.8,1.19,80.8,,32.3,5,,,,,,,,,,,,0,0,0,0,0,0,0,0,0,0,0,0,0,0,0,0,,,,,,0.0,,,,,,,
16344,1745676876332,,,,,,,,,,,,,,,,,,,,,,,,,,,,,,,,,,0,0,0,0,0,0,0,0,0,0,0,0,0,0,0,0,,,,,,,,,,,,,
16364,1745676876352,21.49,110,,-0.1,-0.01,1.06,-1,-0,1,1.07,1.29,83,2358,10.1,3.83,,13.87,1.199,80.8,,32.3,5,,,,,,,,,,,,0,0,0,0,0,0,0,0,0,0,0,0,0,0,0,0,,,,,,0.0,,,,,,,
16384,1745676876372,,,,,,,,,,,,,,,,,,,,,,,0,0,0,0,0.0,0.0,0.0,0.0,2.27,,,0,0,0,0,0,0,0,0,0,0,0,0,0,0,0,0,,0,,,,,38.991531,-76.937019,0.08,45.1,14,2,1.6
16404,1745676876391,21.49,110,,-0.09,-0.0,1.06,-1,-0,1,1.07,1.29,83,2349,10.0,3.82,,13.91,1.189,80.8,,32.3,5,,,,,,,,,,,,0,0,0,0,0,0,0,0,0,0,0,0,0,0,0,0,,,,,,0.0,,,,,,,
16424,1745676876411,,,,,,,,,,,,,,,,,,,,,,,,,,,,,,,,,,0,0,0,0,0,0,0,0,0,0,0,0,0,0,0,0,,,,,,,,,,,,,
16444,1745676876431,21.49,111,,-0.11,-0.0,1.06,-1,-0,1,1.07,1.29,83,2408,9.9,3.79,,13.91,1.189,80.8,,32.5,5,,,,,,,,,,,,0,0,0,0,0,0,0,0,0,0,0,0,0,0,0,0,,,,,,0.0,,,,,,,
16464,1745676876451,,,,,,,,,,,,,,,,,,,,,,,,,,,,,,,,,,0,0,0,0,0,0,0,0,0,0,0,0,0,0,0,0,,,,,,,,,,,,,
16484,1745676876471,20.86,110,,-0.1,0.0,1.05,-0,-0,1,1.05,1.29,82,2408,9.9,3.79,,13.9,1.183,80.8,,32.5,5,0,0,0,0,0.0,0.0,0.0,0.0,2.27,,,0,0,0,0,0,0,0,0,0,0,0,0,0,0,0,0,,0,,,,0.0,38.991531,-76.937019,0.11,45.1,14,2,1.6
16504,1745676876491,,,,,,,,,,,,,,,,,,,,,,,,,,,,,,,,,,0,0,0,0,0,0,0,0,0,0,0,0,0,0,0,0,,,,,,,,,,,,,
16524,1745676876511,19.61,110,,-0.08,0.0,1.04,-0,-0,1,1.04,1.29,81,2348,9.9,3.79,,13.94,1.196,80.8,,31.8,5,,,,,,,,,,,,0,0,0,0,0,0,0,0,0,0,0,0,0,0,0,0,,,,,,0.0,,,,,,,
16544,1745676876531,,,,,,,,,,,,,,,,,,,,,,,,,,,,,,,,,,0,0,0,0,0,0,0,0,0,0,0,0,0,0,0,0,,,,,,,,,,,,,
16564,1745676876551,19.61,110,,-0.09,-0.0,1.04,-0,-0,1,1.05,1.29,81,2339,9.9,3.79,,14.0,1.217,80.8,,31.8,5,,,,,,,,,,,,0,0,0,0,0,0,0,0,0,0,0,0,0,0,0,0,,,,,,0.0,,,,,,,
16584,1745676876571,,,,,,,,,,,,,,,,,,,,,,,0,0,0,0,0.0,0.0,0.0,0.0,2.27,,,0,0,0,0,0,0,0,0,0,0,0,0,0,0,0,0,,0,,,,,38.991531,-76.937019,0.04,45.0,14,2,1.6
16604,1745676876591,20.86,110,,-0.1,-0.01,1.05,-0,-0,1,1.05,1.29,82,2295,9.9,3.78,,14.02,1.237,80.8,,31.8,5,,,,,,,,,,,,0,0,0,0,0,0,0,0,0,0,0,0,0,0,0,0,,,,,,0.0,,,,,,,
16624,1745676876611,,,,,,,,,,,,,,,,,,,,,,,,,,,,,,,,,,0,0,0,0,0,0,0,0,0,0,0,0,0,0,0,0,,,,,,,,,,,,,
16644,1745676876631,20.86,111,,-0.09,-0.01,1.05,-0,-0,0,1.06,1.29,82,2300,9.9,3.76,,14.02,1.237,80.8,,30.9,5,,,,,,,,,,,,0,0,0,0,0,0,0,0,0,0,0,0,0,0,0,0,,,,,,0.0,,,,,,,
16664,1745676876651,,,,,,,,,,,,,,,,,,,,,,,,,,,,,,,,,,0,0,0,0,0,0,0,0,0,0,0,0,0,0,0,0,,,,,,,,,,,,,
16684,1745676876671,20.86,111,14.02,-0.09,-0.02,1.04,-0,-0,0,1.04,1.29,81,2300,9.9,3.76,15,13.99,1.252,80.8,102,30.9,5,0,0,0,0,0.0,0.0,0.0,0.0,2.27,0,0.0,0,0,0,0,0,0,0,0,0,0,0,0,0,0,0,0,0,0,0.0,0,-0,0.0,38.991531,-76.937019,0.04,45.0,14,2,1.6
16704,1745676876694,,,,,,,,,,,,,,,,,,,,,,,,,,,,,,,,,,0,0,0,0,0,0,0,0,0,0,0,0,0,0,0,0,,,,,,,,,,,,,
16724,1745676876714,21.49,111,,-0.1,-0.03,1.04,-0,-0,0,1.05,1.29,81,2561,25.5,4.96,,14.23,1.253,80.8,,32.8,5,,,,,,,,,,,,0,0,0,0,0,0,0,0,0,0,0,0,0,0,0,0,,,,,,0.0,,,,,,,
16744,1745676876734,,,,,,,,,,,,,,,,,,,,,,,,,,,,,,,,,,0,0,0,0,0,0,0,0,0,0,0,0,0,0,0,0,,,,,,,,,,,,,
16764,1745676876754,19.61,110,,-0.1,-0.07,1.12,-0,-0,0,1.13,1.29,88,2769,33.3,5.13,,14.36,1.256,80.8,,32.8,5,,,,,,,,,,,,0,0,0,0,0,0,0,0,0,0,0,0,0,0,0,0,,,,,,0.0,,,,,,,
16784,1745676876774,,,,,,,,,,,,,,,,,,,,,,,0,0,0,0,0.0,0.0,0.0,0.0,2.27,,,0,0,0,0,0,0,0,0,0,0,0,0,0,0,0,0,,0,,,,,38.991531,-76.937019,0.05,44.9,14,2,1.6
16804,1745676876793,20.24,110,,-0.13,-0.14,1.17,0,0,-0,1.19,1.29,92,3018,33.8,4.71,,14.27,1.249,80.8,,32.8,5,,,,,,,,,,,,0,0,0,0,0,0,0,0,0,0,0,0,0,0,0,0,,,,,,0.0,,,,,,,
16824,1745676876813,,,,,,,,,,,,,,,,,,,,,,,,,,,,,,,,,,0,0,0,0,0,0,0,0,0,0,0,0,0,0,0,0,,,,,,,,,,,,,
16844,1745676876833,19.61,111,,-0.12,-0.05,1.06,1,-0,-0,1.07,1.29,83,3399,28.0,4.74,,14.27,1.249,80.8,,32.9,5,,,,,,,,,,,,0,0,0,0,0,0,0,0,0,0,0,0,0,0,0,0,,,,,,0.0,,,,,,,
16864,1745676876853,,,,,,,,,,,,,,,,,,,,,,,,,,,,,,,,,,0,0,0,0,0,0,0,0,0,0,0,0,0,0,0,0,,,,,,,,,,,,,
16884,1745676876873,16.47,111,,-0.14,-0.16,1.09,1,-0,-1,1.11,1.29,86,3399,28.0,4.74,,14.15,1.214,80.8,,32.9,5,0,0,0,0,0.0,0.0,0.0,0.0,2.27,,,0,0,0,0,0,0,0,0,0,0,0,0,0,0,0,0,,0,,,,0.0,38.991531,-76.937019,0.04,44.9,14,2,1.6
16904,1745676876893,,,,,,,,,,,,,,,,,,,,,,,,,,,,,,,,,,0,0,0,0,0,0,0,0,0,0,0,0,0,0,0,0,,,,,,,,,,,,,
16924,1745676876913,17.72,110,,-0.12,-0.15,1.08,0,-0,-0,1.1,1.29,85,3585,10.3,4.07,,13.72,1.196,80.8,,34.1,5,,,,,,,,,,,,0,0,0,0,0,0,0,0,0,0,0,0,0,0,0,0,,,,,,0.0,,,,,,,
16944,1745676876933,,,,,,,,,,,,,,,,,,,,,,,,,,,,,,,,,,0,0,0,0,0,0,0,0,0,0,0,0,0,0,0,0,,,,,,,,,,,,,
16964,1745676876953,13.32,110,,-0.1,-0.14,1.06,0,-0,-0,1.07,1.29,83,3819,1.4,3.38,,13.01,1.196,80.8,,34.1,5,,,,,,,,,,,,0,0,0,0,0,0,0,0,0,0,0,0,0,0,0,0,,,,,,0.0,,,,,,,
16984,1745676876973,,,,,,,,,,,,,,,,,,,,,,,0,0,0,0,0.0,0.0,0.0,0.0,2.27,,,0,0,0,0,0,0,0,0,0,0,0,0,0,0,0,0,,0,,,,,38.991531,-76.937019,0.04,44.1,14,2,1.6
17004,1745676876993,14.58,111,,-0.09,-0.16,1.04,1,-0,-0,1.06,1.29,82,3826,0.0,2.77,,12.41,1.182,80.8,,34.1,5,,,,,,,,,,,,0,0,0,0,0,0,0,0,0,0,0,0,0,0,0,0,,,,,,0.0,,,,,,,
17024,1745676877005,,,,,,,,,,,,,,,,,,,,,,,,,,,,,,,,,,0,0,0,0,0,0,0,0,0,0,0,0,0,0,0,0,,,,,,,,,,,,,
17044,1745676877025,16.47,111,,-0.09,-0.12,1.04,1,-0,-0,1.06,1.29,82,3802,0.0,2.79,,12.41,1.182,80.8,,34.0,5,,,,,,,,,,,,0,0,0,0,0,0,0,0,0,0,0,0,0,0,0,0,,,,,,0.0,,,,,,,
17064,1745676877045,,,,,,,,,,,,,,,,,,,,,,,,,,,,,,,,,,0,0,0,0,0,0,0,0,0,0,0,0,0,0,0,0,,,,,,,,,,,,,
17084,1745676877065,15.84,110,,-0.11,-0.13,1.04,1,-0,-0,1.05,1.29,82,3802,0.0,2.79,,12.09,1.152,80.8,,34.0,5,0,0,0,0,0.0,0.0,0.0,0.0,2.28,,,0,0,0,0,0,0,0,0,0,0,0,0,0,0,0,0,,0,,,,0.0,38.991531,-76.937019,0.15,43.8,14,2,1.6
17104,1745676877091,,,,,,,,,,,,,,,,,,,,,,,,,,,,,,,,,,0,0,0,0,0,0,0,0,0,0,0,0,0,0,0,0,,,,,,,,,,,,,
17124,1745676877111,16.47,110,,-0.12,-0.18,1.05,1,-0,-0,1.07,1.29,83,3673,0.0,2.81,,11.93,1.118,80.8,,32.6,5,,,,,,,,,,,,0,0,0,0,0,0,0,0,0,0,0,0,0,0,0,0,,,,,,0.0,,,,,,,
17144,1745676877131,,,,,,,,,,,,,,,,,,,,,,,,,,,,,,,,,,0,0,0,0,0,0,0,0,0,0,0,0,0,0,0,0,,,,,,,,,,,,,
17164,1745676877151,17.09,110,,-0.11,-0.13,1.08,-0,-0,0,1.09,1.29,85,3625,0.0,2.94,,11.81,1.102,80.8,,32.6,5,,,,,,,,,,,,0,0,0,0,0,0,0,0,0,0,0,0,0,0,0,0,,,,,,0.0,,,,,,,
17184,1745676877171,,,,,,,,,,,,,,,,,,,,,,,0,0,0,0,0.0,0.0,0.0,0.0,2.27,,,0,0,0,0,0,0,0,0,0,0,0,0,0,0,0,0,,0,,,,,38.991531,-76.937019,0.0,43.4,14,2,1.6
17204,1745676877191,14.58,109,,-0.08,-0.11,1.02,0,-0,0,1.02,1.29,80,3492,0.0,3.06,,11.84,1.088,80.8,,32.6,5,,,,,,,,,,,,0,0,0,0,0,0,0,0,0,0,0,0,0,0,0,0,,,,,,0.0,,,,,,,
17224,1745676877211,,,,,,,,,,,,,,,,,,,,,,,,,,,,,,,,,,0,0,0,0,0,0,0,0,0,0,0,0,0,0,0,0,,,,,,,,,,,,,
17244,1745676877231,15.84,111,,-0.11,-0.2,1.08,0,-0,-0,1.1,1.29,85,3392,4.0,3.63,,11.84,1.088,80.8,,32.5,5,,,,,,,,,,,,0,0,0,0,0,0,0,0,0,0,0,0,0,0,0,0,,,,,,0.0,,,,,,,
17264,1745676877251,,,,,,,,,,,,,,,,,,,,,,,,,,,,,,,,,,0,0,0,0,0,0,0,0,0,0,0,0,0,0,0,0,,,,,,,,,,,,,
17284,1745676877271,17.72,110,,-0.08,-0.07,0.97,0,-0,-0,0.98,1.29,76,3392,4.0,3.63,,12.17,1.079,80.8,,32.5,5,0,0,0,0,0.0,0.0,0.0,0.0,2.27,,,0,0,0,0,0,0,0,0,0,0,0,0,0,0,0,0,,0,,,,0.0,38.991531,-76.937027,0.05,43.1,14,2,1.6
17304,1745676877293,,,,,,,,,,,,,,,,,,,,,,,,,,,,,,,,,,0,0,0,0,0,0,0,0,0,0,0,0,0,0,0,0,,,,,,,,,,,,,
17324,1745676877313,15.21,111,,-0.08,-0.09,1.05,-1,-0,1,1.06,1.29,82,3275,5.1,3.74,,12.57,1.07,80.8,,32.6,5,,,,,,,,,,,,0,0,0,0,0,0,0,0,0,0,0,0,0,0,0,0,,,,,,0.0,,,,,,,
17344,1745676877333,,,,,,,,,,,,,,,,,,,,,,,,,,,,,,,,,,0,0,0,0,0,0,0,0,0,0,0,0,0,0,0,0,,,,,,,,,,,,,
17364,1745676877353,16.47,111,,-0.1,-0.15,1.05,0,-0,-0,1.07,1.29,83,3311,5.5,3.76,,12.76,1.054,80.8,,32.6,5,,,,,,,,,,,,0,0,0,0,0,0,0,0,0,0,0,0,0,0,0,0,,,,,,0.0,,,,,,,
17384,1745676877373,,,,,,,,,,,,,,,,,,,,,,,0,0,0,0,0.0,0.0,0.0,0.0,2.27,,,0,0,0,0,0,0,0,0,0,0,0,0,0,0,0,0,,0,,,,,38.991531,-76.937027,0.0,42.9,14,2,1.6
17404,1745676877392,13.95,110,,-0.07,-0.03,0.98,-0,-0,0,0.98,1.29,76,3266,5.5,3.75,,12.91,1.017,80.8,,32.6,5,,,,,,,,,,,,0,0,0,0,0,0,0,0,0,0,0,0,0,0,0,0,,,,,,0.0,,,,,,,
17424,1745676877412,,,,,,,,,,,,,,,,,,,,,,,,,,,,,,,,,,0,0,0,0,0,0,0,0,0,0,0,0,0,0,0,0,,,,,,,,,,,,,
17444,1745676877432,13.32,111,,-0.08,-0.09,1.06,-1,-0,1,1.07,1.29,83,3222,5.2,3.76,,12.91,1.017,80.8,,32.9,5,,,,,,,,,,,,0,0,0,0,0,0,0,0,0,0,0,0,0,0,0,0,,,,,,0.0,,,,,,,
17464,1745676877452,,,,,,,,,,,,,,,,,,,,,,,,,,,,,,,,,,0,0,0,0,0,0,0,0,0,0,0,0,0,0,0,0,,,,,,,,,,,,,
17484,1745676877472,14.58,110,,-0.09,-0.1,1.01,0,-0,-0,1.02,1.29,79,3222,5.2,3.76,,12.96,0.989,80.8,,32.9,5,0,0,0,0,0.0,0.0,0.0,0.0,2.27,,,0,0,0,0,0,0,0,0,0,0,0,0,0,0,0,0,,0,,,,0.0,38.991531,-76.937027,0.04,42.8,14,2,1.6
17504,1745676877494,,,,,,,,,,,,,,,,,,,,,,,,,,,,,,,,,,0,0,0,0,0,0,0,0,0,0,0,0,0,0,0,0,,,,,,,,,,,,,
17524,1745676877514,15.84,110,,-0.08,-0.01,0.99,-1,-0,1,1.0,1.29,77,3321,4.9,3.75,,12.97,0.981,80.8,,33.2,5,,,,,,,,,,,,0,0,0,0,0,0,0,0,0,0,0,0,0,0,0,0,,,,,,0.0,,,,,,,
17544,1745676877534,,,,,,,,,,,,,,,,,,,,,,,,,,,,,,,,,,0,0,0,0,0,0,0,0,0,0,0,0,0,0,0,0,,,,,,,,,,,,,
17564,1745676877554,16.47,111,,-0.1,-0.12,1.06,-0,-0,0,1.07,1.29,83,3266,4.6,3.73,,13.0,0.991,80.8,,33.2,5,,,,,,,,,,,,0,0,0,0,0,0,0,0,0,0,0,0,0,0,0,0,,,,,,0.0,,,,,,,
17584,1745676877574,,,,,,,,,,,,,,,,,,,,,,,0,0,0,0,0.0,0.0,0.0,0.0,2.27,,,0,0,0,0,0,0,0,0,0,0,0,0,0,0,0,0,,0,,,,,38.991531,-76.937027,0.05,42.6,14,2,1.6
17604,1745676877592,17.09,110,,-0.08,-0.02,0.96,0,-0,0,0.96,1.29,75,3300,4.7,3.74,,12.97,1.005,80.8,,33.2,5,,,,,,,,,,,,0,0,0,0,0,0,0,0,0,0,0,0,0,0,0,0,,,,,,0.0,,,,,,,
17624,1745676877612,,,,,,,,,,,,,,,,,,,,,,,,,,,,,,,,,,0,0,0,0,0,0,0,0,0,0,0,0,0,0,0,0,,,,,,,,,,,,,
17644,1745676877632,14.58,109,,-0.07,-0.04,1.04,-1,-0,1,1.05,1.29,81,3310,10.9,4.06,,12.97,1.005,80.8,,32.7,5,,,,,,,,,,,,0,0,0,0,0,0,0,0,0,0,0,0,0,0,0,0,,,,,,0.0,,,,,,,
17664,1745676877652,,,,,,,,,,,,,,,,,,,,,,,,,,,,,,,,,,0,0,0,0,0,0,0,0,0,0,0,0,0,0,0,0,,,,,,,,,,,,,
17684,1745676877672,15.84,110,14.02,-0.08,-0.06,0.99,-0,-0,0,1.0,1.29,77,3310,10.9,4.06,15,13.19,1.021,80.8,104,32.7,5,0,0,0,0,0.0,0.0,0.0,0.0,2.27,0,0.0,0,0,0,0,0,0,0,0,0,0,0,0,0,0,0,0,0,0,0.0,0,-0,0.0,38.991531,-76.937027,0.0,42.5,14,2,1.6
17704,1745676877692,,,,,,,,,,,,,,,,,,,,,,,,,,,,,,,,,,0,0,0,0,0,0,0,0,0,0,0,0,0,0,0,0,,,,,,,,,,,,,
17724,1745676877712,16.47,110,,-0.1,-0.09,1.04,-1,-0,0,1.04,1.29,81,3412,12.2,4.12,,13.41,1.021,80.8,,33.1,5,,,,,,,,,,,,0,0,0,0,0,0,0,0,0,0,0,0,0,0,0,0,,,,,,0.0,,,,,,,
17744,1745676877732,,,,,,,,,,,,,,,,,,,,,,,,,,,,,,,,,,0,0,0,0,0,0,0,0,0,0,0,0,0,0,0,0,,,,,,,,,,,,,
17764,1745676877752,17.09,111,,-0.09,0.05,1.03,-1,-0,1,1.04,1.29,81,3565,12.1,4.0,,13.4,1.019,80.8,,33.1,5,,,,,,,,,,,,0,0,0,0,0,0,0,0,0,0,0,0,0,0,0,0,,,,,,0.0,,,,,,,
17784,1745676877772,,,,,,,,,,,,,,,,,,,,,,,0,0,0,0,0.0,0.0,0.0,0.0,2.27,,,0,0,0,0,0,0,0,0,0,0,0,0,0,0,0,0,,0,,,,,38.991531,-76.937027,0.08,42.2,14,2,1.6
17804,1745676877792,17.09,110,,-0.09,0.03,1.06,-1,-0,1,1.06,1.29,83,3665,7.4,3.89,,13.27,1.023,80.8,,33.1,5,,,,,,,,,,,,0,0,0,0,0,0,0,0,0,0,0,0,0,0,0,0,,,,,,0.0,,,,,,,
17824,1745676877812,,,,,,,,,,,,,,,,,,,,,,,,,,,,,,,,,,0,0,0,0,0,0,0,0,0,0,0,0,0,0,0,0,,,,,,,,,,,,,
17844,1745676877832,18.35,111,,-0.08,-0.01,1.05,-1,-0,1,1.06,1.29,82,3848,4.6,3.71,,13.27,1.023,80.8,,34.1,5,,,,,,,,,,,,0,0,0,0,0,0,0,0,0,0,0,0,0,0,0,0,,,,,,0.0,,,,,,,
17864,1745676877852,,,,,,,,,,,,,,,,,,,,,,,,,,,,,,,,,,0,0,0,0,0,0,0,0,0,0,0,0,0,0,0,0,,,,,,,,,,,,,
17884,1745676877872,18.35,110,,-0.09,-0.02,1.04,-1,-0,1,1.04,1.29,81,3848,4.6,3.71,,12.85,1.036,80.8,,34.1,5,0,0,0,0,0.0,0.0,0.0,0.0,2.27,,,0,0,0,0,0,0,0,0,0,0,0,0,0,0,0,0,,0,,,,0.0,38.991531,-76.937027,0.08,41.9,14,2,1.6
17904,1745676877892,,,,,,,,,,,,,,,,,,,,,,,,,,,,,,,,,,0,0,0,0,0,0,0,0,0,0,0,0,0,0,0,0,,,,,,,,,,,,,
17924,1745676877912,18.98,111,,-0.09,0.01,1.04,-0,-0,0,1.04,1.29,81,3750,4.0,3.67,,12.55,1.058,80.8,,33.6,5,,,,,,,,,,,,0,0,0,0,0,0,0,0,0,0,0,0,0,0,0,0,,,,,,0.0,,,,,,,
17944,1745676877932,,,,,,,,,,,,,,,,,,,,,,,,,,,,,,,,,,0,0,0,0,0,0,0,0,0,0,0,0,0,0,0,0,,,,,,,,,,,,,
17964,1745676877952,18.98,111,,-0.08,0.02,1.04,0,-0,0,1.04,1.29,81,3679,3.5,3.6,,12.4,1.078,80.8,,33.6,5,,,,,,,,,,,,0,0,0,0,0,0,0,0,0,0,0,0,0,0,0,0,,,,,,0.0,,,,,,,
17984,1745676877972,,,,,,,,,,,,,,,,,,,,,,,0,0,0,0,0.0,0.0,0.0,0.0,2.28,,,0,0,0,0,0,0,0,0,0,0,0,0,0,0,0,0,,0,,,,,38.991531,-76.937027,0.07,41.6,14,2,1.6
18004,1745676877992,18.98,111,,-0.09,-0.05,1.0,1,-0,-0,1.0,1.29,78,3491,3.4,3.59,,12.44,1.095,80.8,,33.6,5,,,,,,,,,,,,0,0,0,0,0,0,0,0,0,0,0,0,0,0,0,0,,,,,,0.0,,,,,,,
18024,1745676878006,,,,,,,,,,,,,,,,,,,,,,,,,,,,,,,,,,0,0,0,0,0,0,0,0,0,0,0,0,0,0,0,0,,,,,,,,,,,,,
18044,1745676878026,20.24,112,,-0.07,0.01,1.01,-0,-0,1,1.01,1.29,79,3381,3.4,3.62,,12.44,1.095,80.8,,32.7,5,,,,,,,,,,,,0,0,0,0,0,0,0,0,0,0,0,0,0,0,0,0,,,,,,0.0,,,,,,,
18064,1745676878046,,,,,,,,,,,,,,,,,,,,,,,,,,,,,,,,,,0,0,0,0,0,0,0,0,0,0,0,0,0,0,0,0,,,,,,,,,,,,,
18084,1745676878066,19.61,110,,-0.1,-0.08,1.08,0,-0,0,1.09,1.29,85,3381,3.4,3.62,,12.57,1.101,80.8,,32.7,5,0,0,0,0,0.0,0.0,0.0,0.0,2.27,,,0,0,0,0,0,0,0,0,0,0,0,0,0,0,0,0,,0,,,,0.0,38.991531,-76.937027,0.0,41.4,14,2,1.6
18104,1745676878092,,,,,,,,,,,,,,,,,,,,,,,,,,,,,,,,,,0,0,0,0,0,0,0,0,0,0,0,0,0,0,0,0,,,,,,,,,,,,,
18124,1745676878112,18.98,110,,-0.12,-0.08,1.08,1,-0,-0,1.09,1.29,85,3117,3.6,3.67,,12.67,1.105,80.8,,32.6,5,,,,,,,,,,,,0,0,0,0,0,0,0,0,0,0,0,0,0,0,0,0,,,,,,0.0,,,,,,,
18144,1745676878132,,,,,,,,,,,,,,,,,,,,,,,,,,,,,,,,,,0,0,0,0,0,0,0,0,0,0,0,0,0,0,0,0,,,,,,,,,,,,,
18164,1745676878152,18.98,111,,-0.14,-0.09,1.09,1,-0,-0,1.1,1.29,86,2993,11.5,4.02,,13.21,1.121,80.8,,32.6,5,,,,,,,,,,,,0,0,0,0,0,0,0,0,0,0,0,0,0,0,0,0,,,,,,0.0,,,,,,,
18184,1745676878172,,,,,,,,,,,,,,,,,,,,,,,0,0,0,0,0.0,0.0,0.0,0.0,2.28,,,0,0,0,0,0,0,0,0,0,0,0,0,0,0,0,0,,0,,,,,38.991531,-76.937027,0.13,41.3,14,2,1.6
18204,1745676878192,18.98,110,,-0.15,-0.12,1.11,1,0,-1,1.13,1.29,88,2996,12.0,3.99,,13.51,1.113,80.8,,32.6,5,,,,,,,,,,,,0,0,0,0,0,0,0,0,0,0,0,0,0,0,0,0,,,,,,0.0,,,,,,,
18224,1745676878212,,,,,,,,,,,,,,,,,,,,,,,,,,,,,,,,,,0,0,0,0,0,0,0,0,0,0,0,0,0,0,0,0,,,,,,,,,,,,,
18244,1745676878232,18.98,111,,-0.16,-0.15,1.15,1,0,-1,1.17,1.29,91,3002,11.9,4.0,,13.51,1.113,80.8,,32.5,5,,,,,,,,,,,,0,0,0,0,0,0,0,0,0,0,0,0,0,0,0,0,,,,,,0.0,,,,,,,
18264,1745676878252,,,,,,,,,,,,,,,,,,,,,,,,,,,,,,,,,,0,0,0,0,0,0,0,0,0,0,0,0,0,0,0,0,,,,,,,,,,,,,
18284,1745676878272,19.61,111,,-0.17,-0.17,1.19,1,0,-1,1.21,1.29,94,3002,11.9,4.0,,13.6,1.113,80.8,,32.5,5,0,0,0,0,0.0,0.0,0.0,0.0,2.27,,,0,0,0,0,0,0,0,0,0,0,0,0,0,0,0,0,,0,,,,0.0,38.991531,-76.937027,0.13,41.3,14,2,1.6
18304,1745676878294,,,,,,,,,,,,,,,,,,,,,,,,,,,,,,,,,,0,0,0,0,0,0,0,0,0,0,0,0,0,0,0,0,,,,,,,,,,,,,
18324,1745676878314,18.35,111,,-0.17,-0.19,1.24,1,0,-1,1.26,1.29,98,2920,6.7,3.86,,13.52,1.109,80.8,,32.9,5,,,,,,,,,,,,0,0,0,0,0,0,0,0,0,0,0,0,0,0,0,0,,,,,,0.0,,,,,,,
18344,1745676878334,,,,,,,,,,,,,,,,,,,,,,,,,,,,,,,,,,0,0,0,0,0,0,0,0,0,0,0,0,0,0,0,0,,,,,,,,,,,,,
18364,1745676878354,18.35,111,,-0.16,-0.19,1.25,1,0,-0,1.28,1.29,99,2923,4.3,3.77,,13.35,1.132,80.8,,32.9,5,,,,,,,,,,,,0,0,0,0,0,0,0,0,0,0,0,0,0,0,0,0,,,,,,0.0,,,,,,,
18384,1745676878374,,,,,,,,,,,,,,,,,,,,,,,0,0,0,0,0.0,0.0,0.0,0.0,2.27,,,0,0,0,0,0,0,0,0,0,0,0,0,0,0,0,0,,0,,,,,38.991531,-76.937035,0.11,41.2,14,2,1.6
18404,1745676878393,18.98,111,,-0.14,-0.13,1.23,1,0,-0,1.24,1.29,96,2866,4.2,3.74,,13.31,1.179,80.8,,32.9,5,,,,,,,,,,,,0,0,0,0,0,0,0,0,0,0,0,0,0,0,0,0,,,,,,0.0,,,,,,,
18424,1745676878413,,,,,,,,,,,,,,,,,,,,,,,,,,,,,,,,,,0,0,0,0,0,0,0,0,0,0,0,0,0,0,0,0,,,,,,,,,,,,,
18444,1745676878433,19.61,111,,-0.13,-0.13,1.27,-0,0,0,1.29,1.29,100,3140,5.3,3.75,,13.31,1.179,80.8,,32.6,5,,,,,,,,,,,,0,0,0,0,0,0,0,0,0,0,0,0,0,0,0,0,,,,,,0.0,,,,,,,
18464,1745676878453,,,,,,,,,,,,,,,,,,,,,,,,,,,,,,,,,,0,0,0,0,0,0,0,0,0,0,0,0,0,0,0,0,,,,,,,,,,,,,
18484,1745676878473,17.09,110,,-0.16,-0.19,1.31,0,0,-0,1.33,1.33,100,3140,5.3,3.75,,13.19,1.216,80.8,,32.6,5,0,0,0,0,0.0,0.0,0.0,0.0,2.27,,,0,0,0,0,0,0,0,0,0,0,0,0,0,0,0,0,,0,,,,0.0,38.991531,-76.937035,0.05,41.2,14,2,1.6
18504,1745676878493,,,,,,,,,,,,,,,,,,,,,,,,,,,,,,,,,,0,0,0,0,0,0,0,0,0,0,0,0,0,0,0,0,,,,,,,,,,,,,
18524,1745676878513,15.84,109,,-0.14,-0.08,1.18,1,-0,-0,1.19,1.33,89,3188,12.3,4.09,,13.41,1.231,80.8,,33.1,5,,,,,,,,,,,,0,0,0,0,0,0,0,0,0,0,0,0,0,0,0,0,,,,,,0.0,,,,,,,
18544,1745676878533,,,,,,,,,,,,,,,,,,,,,,,,,,,,,,,,,,0,0,0,0,0,0,0,0,0,0,0,0,0,0,0,0,,,,,,,,,,,,,
18564,1745676878553,16.47,111,,-0.15,-0.16,1.23,0,0,0,1.25,1.33,94,3332,13.4,4.12,,13.61,1.16,80.8,,33.1,5,,,,,,,,,,,,0,0,0,0,0,0,0,0,0,0,0,0,0,0,0,0,,,,,,0.0,,,,,,,
18584,1745676878573,,,,,,,,,,,,,,,,,,,,,,,0,0,0,0,0.0,0.0,0.0,0.0,2.27,,,0,0,0,0,0,0,0,0,0,0,0,0,0,0,0,0,,0,,,,,38.991531,-76.937035,0.11,41.1,14,2,1.6
18604,1745676878593,16.47,111,,-0.12,0.0,1.18,-0,-0,0,1.18,1.33,89,3509,13.4,4.06,,13.51,1.089,80.8,,33.1,5,,,,,,,,,,,,0,0,0,0,0,0,0,0,0,0,0,0,0,0,0,0,,,,,,0.0,,,,,,,
18624,1745676878613,,,,,,,,,,,,,,,,,,,,,,,,,,,,,,,,,,0,0,0,0,0,0,0,0,0,0,0,0,0,0,0,0,,,,,,,,,,,,,
