"Interval"|"ms"|0|0|1,"Utc"|"ms"|0|0|1,"FrontBP"|"psi"|-5.0|5.0|25,"SteerAng"|"Degrees"|-145|145|25,"Battery"|"Volts"|-5.0|20.0|1,"AccelX"|"G"|-3.0|3.0|25,"AccelY"|"G"|-3.0|3.0|25,"AccelZ"|"G"|-3.0|3.0|25,"Yaw"|"Deg/Sec"|-120|120|25,"Pitch"|"Deg/Sec"|-120|120|25,"Roll"|"Deg/Sec"|-120|120|25,"Gsum"|"G"|0.0|3.0|25,"GsumMax"|"G"|0.0|3.0|25,"GsumPct"|"%"|0|100|25,"RPM"|""|0|10000|25,"TPS"|"%"|0.0|100.0|25,"InjectorPW"|"ms"|0.0|100.0|25,"Baro"|"kPa"|0|105|1,"MAP"|"Psi"|0.0|255.0|25,"Lambda"|""|-2.0|2.0|25,"IAT"|"C"|0.0|200.0|25,"EngineTemp"|"C"|0|200|1,"EOP"|"PSI"|0.0|152.0|25,"EOT"|"F"|0|250|25,"WSFR"|"MPH"|0|150|10,"WSFL"|"MPH"|0|100|10,"WSRR"|"MPH"|0|100|10,"WSRL"|""|0|100|10,"TCSet"|"%"|0.0|100.0|10,"TCSlip"|"%"|0.0|100.0|10,"TCComp"|"deg"|0.0|50.0|10,"TCCut"|"%"|0.0|100.0|10,"Analog8"|""|0.0|5.0|10,"OilTemp"|"F"|0|300|1,"AA_On"|""|0.0|1.0|1,"ThermLF1"|"C"|0|400|50,"ThermLF2"|"C"|0|400|50,"ThermRR1"|"C"|0|400|50,"ThermRR2"|"C"|0|400|50,"ThermLF3"|"C"|0|400|50,"ThermLF4"|"C"|0|400|50,"ThermLF5"|"C"|0|400|50,"ThermLF6"|"C"|0|400|50,"ThermLF7"|"C"|0|400|50,"ThermLF8"|"C"|0|400|50,"ThermRR3"|"C"|0|400|50,"ThermRR4"|"C"|0|400|50,"ThermRR5"|"C"|0|400|50,"ThermRR6"|"C"|0|400|50,"ThermRR7"|"C"|0|400|50,"ThermRR8"|"C"|0|400|50,"AA_LowDrag"|""|0|1|1,"Gear"|""|1|6|10,"AA_On"|""|0.0|1.0|1,"AA_LowDrag"|""|0|1|1,"Fuel_Mix"|""|-10|10|1,"AA_Packages"|""|0.0|1000.0|25,"Latitude"|"Degrees"|-180.0|180.0|10,"Longitude"|"Degrees"|-180.0|180.0|10,"Speed"|"kph"|0.0|150.0|10,"Altitude"|"m"|0.0|4000.0|10,"GPSSats"|""|0|20|10,"GPSQual"|""|0|5|10,"GPSDOP"|""|0.0|20.0|10
36907,1745695688800,0.0,-135,,-0.04,-0.13,0.96,-0,-0,0,0.97,0.97,100,3936,10.6,3.87,,12.88,0.857,75.4,,33.1,5,,,,,,,,,,,,0,0,0,0,0,0,0,0,0,0,0,0,0,0,0,0,,,,,,0.0,,,,,,,
36927,1745695688820,,,,,,,,,,,,,,,,,,,,,,,,,,,,,,,,,,0,0,0,0,0,0,0,0,0,0,0,0,0,0,0,0,,,,,,,,,,,,,
36947,1745695688840,0.0,-135,,-0.05,-0.1,0.94,1,-0,-0,0.94,0.97,97,3828,10.7,3.87,,12.88,0.857,75.4,,33.1,5,,,,,,,,,,,,0,0,0,0,0,0,0,0,0,0,0,0,0,0,0,0,,,,,,0.0,,,,,,,
36967,1745695688860,,,,,,,,,,,,,,,,,,,,,,,,,,,,,,,,,,0,0,0,0,0,0,0,0,0,0,0,0,0,0,0,0,,,,,,,,,,,,,
36987,1745695688880,0.0,-135,,-0.03,-0.11,0.92,2,-0,-0,0.92,0.97,95,3828,10.7,3.87,,13.03,0.883,75.4,,33.4,5,0,0,0,0,0.0,72.0,0.0,0.0,2.55,,,0,0,0,0,0,0,0,0,0,0,0,0,0,0,0,0,,0,,,,0.0,38.991592,-76.937012,0.93,31.5,11,2,2.2
37007,1745695688898,,,,,,,,,,,,,,,,,,,,,,,,,,,,,,,,,,0,0,0,0,0,0,0,0,0,0,0,0,0,0,0,0,,,,,,,,,,,,,
37027,1745695688918,0.0,-135,,-0.03,-0.12,0.91,2,-0,-1,0.92,0.97,94,3855,10.6,3.88,,13.07,0.892,75.4,,33.4,5,,,,,,,,,,,,0,0,0,0,0,0,0,0,0,0,0,0,0,0,0,0,,,,,,0.0,,,,,,,
37047,1745695688938,,,,,,,,,,,,,,,,,,,,,,,,,,,,,,,,,,0,0,0,0,0,0,0,0,0,0,0,0,0,0,0,0,,,,,,,,,,,,,
37067,1745695688958,0.0,-135,,0.0,-0.11,0.93,2,-0,-1,0.93,0.97,96,3820,10.6,3.88,,13.12,0.887,75.4,,33.4,5,,,,,,,,,,,,0,0,0,0,0,0,0,0,0,0,0,0,0,0,0,0,,,,,,0.0,,,,,,,
37087,1745695688978,,,,,,,,,,,,,,,,,,,,,,,1,19,1,0,0.0,87.0,0.0,0.0,2.55,,,0,0,0,0,0,0,0,0,0,0,0,0,0,0,0,0,,0,,,,,38.991592,-76.937012,1.78,31.5,11,2,2.2
37107,1745695688994,0.0,-135,,0.01,-0.08,0.94,2,-0,-0,0.95,0.97,97,3813,10.6,3.89,,13.05,0.878,75.4,,33.6,5,,,,,,,,,,,,0,0,0,0,0,0,0,0,0,0,0,0,0,0,0,0,,,,,,0.0,,,,,,,
37127,1745695689014,,,,,,,,,,,,,,,,,,,,,,,,,,,,,,,,,,0,0,0,0,0,0,0,0,0,0,0,0,0,0,0,0,,,,,,,,,,,,,
37147,1745695689034,0.0,-135,,0.02,-0.03,0.96,2,-1,-0,0.96,0.97,98,3795,10.5,3.89,,13.05,0.878,75.4,,33.6,5,,,,,,,,,,,,0,0,0,0,0,0,0,0,0,0,0,0,0,0,0,0,,,,,,0.0,,,,,,,
37167,1745695689054,,,,,,,,,,,,,,,,,,,,,,,,,,,,,,,,,,0,0,0,0,0,0,0,0,0,0,0,0,0,0,0,0,,,,,,,,,,,,,
37187,1745695689074,0.0,-135,,0.0,-0.02,0.94,2,-1,-1,0.94,0.97,96,3795,10.5,3.89,,13.05,0.879,75.4,,32.9,5,1,19,1,1,0.0,101.0,0.0,0.0,2.55,,,0,0,0,0,0,0,0,0,0,0,0,0,0,0,0,0,,0,,,,0.0,38.991592,-76.937012,2.19,31.6,11,2,2.2
37207,1745695689096,,,,,,,,,,,,,,,,,,,,,,,,,,,,,,,,,,0,0,0,0,0,0,0,0,0,0,0,0,0,0,0,0,,,,,,,,,,,,,
37227,1745695689116,0.0,-135,,0.0,0.01,0.94,2,-1,-1,0.94,0.97,97,3712,10.7,3.9,,13.23,0.888,75.4,,32.9,5,,,,,,,,,,,,0,0,0,0,0,0,0,0,0,0,0,0,0,0,0,0,,,,,,0.0,,,,,,,
37247,1745695689136,,,,,,,,,,,,,,,,,,,,,,,,,,,,,,,,,,0,0,0,0,0,0,0,0,0,0,0,0,0,0,0,0,,,,,,,,,,,,,
37267,1745695689156,0.0,-135,,-0.0,0.01,0.94,2,-1,-0,0.94,0.97,97,3685,10.7,3.89,,13.24,0.899,75.4,,32.9,5,,,,,,,,,,,,0,0,0,0,0,0,0,0,0,0,0,0,0,0,0,0,,,,,,0.0,,,,,,,
37287,1745695689176,,,,,,,,,,,,,,,,,,,,,,,1,19,1,1,0.0,108.0,0.0,0.0,2.55,,,0,0,0,0,0,0,0,0,0,0,0,0,0,0,0,0,,0,,,,,38.991592,-76.937012,1.89,31.6,13,2,2.2
37307,1745695689198,0.0,-135,,0.01,-0.04,0.95,2,-0,-0,0.95,0.97,98,3721,10.6,3.9,,13.24,0.909,75.4,,33.8,5,,,,,,,,,,,,0,0,0,0,0,0,0,0,0,0,0,0,0,0,0,0,,,,,,0.0,,,,,,,
37327,1745695689218,,,,,,,,,,,,,,,,,,,,,,,,,,,,,,,,,,0,0,0,0,0,0,0,0,0,0,0,0,0,0,0,0,,,,,,,,,,,,,
37347,1745695689238,0.0,-134,,0.0,-0.1,0.96,2,-0,-0,0.96,0.97,99,3705,10.6,3.89,,13.24,0.909,75.4,,33.8,5,,,,,,,,,,,,0,0,0,0,0,0,0,0,0,0,0,0,0,0,0,0,,,,,,0.0,,,,,,,
37367,1745695689258,,,,,,,,,,,,,,,,,,,,,,,,,,,,,,,,,,0,0,0,0,0,0,0,0,0,0,0,0,0,0,0,0,,,,,,,,,,,,,
37387,1745695689278,0.0,-134,13.98,-0.01,-0.14,0.98,2,-0,-0,0.99,0.99,100,3705,10.6,3.89,15,13.15,0.915,75.4,77,33.8,5,2,19,2,1,0.0,116.0,0.0,0.0,2.55,0,0.0,0,0,0,0,0,0,0,0,0,0,0,0,0,0,0,0,0,0,0.0,0,-1,0.0,38.991592,-76.937012,2.3,31.6,14,2,2.1
37407,1745695689299,,,,,,,,,,,,,,,,,,,,,,,,,,,,,,,,,,0,0,0,0,0,0,0,0,0,0,0,0,0,0,0,0,,,,,,,,,,,,,
37427,1745695689319,0.0,-134,,-0.01,-0.09,1.0,2,-1,-0,1.0,1.0,100,3643,10.6,3.9,,13.15,0.917,75.4,,33.8,5,,,,,,,,,,,,0,0,0,0,0,0,0,0,0,0,0,0,0,0,0,0,,,,,,0.0,,,,,,,
37447,1745695689339,,,,,,,,,,,,,,,,,,,,,,,,,,,,,,,,,,0,0,0,0,0,0,0,0,0,0,0,0,0,0,0,0,,,,,,,,,,,,,
37467,1745695689359,0.0,-134,,-0.01,-0.01,1.0,2,-1,-0,1.0,1.0,100,3667,10.6,3.9,,13.23,0.921,75.4,,33.8,5,,,,,,,,,,,,0,0,0,0,0,0,0,0,0,0,0,0,0,0,0,0,,,,,,0.0,,,,,,,
37487,1745695689379,,,,,,,,,,,,,,,,,,,,,,,2,19,2,2,0.0,127.0,0.0,0.0,2.55,,,0,0,0,0,0,0,0,0,0,0,0,0,0,0,0,0,,0,,,,,38.991589,-76.937012,2.41,31.6,14,2,2.1
37507,1745695689399,0.0,-135,,0.01,0.03,1.02,3,-1,-0,1.02,1.02,100,3686,10.6,3.9,,13.25,0.926,75.4,,33.3,5,,,,,,,,,,,,0,0,0,0,0,0,0,0,0,0,0,0,0,0,0,0,,,,,,0.0,,,,,,,
37527,1745695689419,,,,,,,,,,,,,,,,,,,,,,,,,,,,,,,,,,0,0,0,0,0,0,0,0,0,0,0,0,0,0,0,0,,,,,,,,,,,,,
37547,1745695689439,0.0,-134,,0.04,0.0,1.02,3,-1,-0,1.02,1.02,100,3692,10.6,3.91,,13.25,0.926,75.4,,33.3,5,,,,,,,,,,,,0,0,0,0,0,0,0,0,0,0,0,0,0,0,0,0,,,,,,0.0,,,,,,,
37567,1745695689459,,,,,,,,,,,,,,,,,,,,,,,,,,,,,,,,,,0,0,0,0,0,0,0,0,0,0,0,0,0,0,0,0,,,,,,,,,,,,,
37587,1745695689479,0.0,-134,,0.03,-0.01,0.99,4,-1,-0,0.99,1.02,96,3692,10.6,3.91,,13.2,0.933,75.4,,33.7,5,2,19,2,2,0.0,141.0,0.0,0.0,2.55,,,0,0,0,0,0,0,0,0,0,0,0,0,0,0,0,0,,0,,,,0.0,38.991589,-76.937012,3.02,31.6,14,2,2.1
37607,1745695689497,,,,,,,,,,,,,,,,,,,,,,,,,,,,,,,,,,0,0,0,0,0,0,0,0,0,0,0,0,0,0,0,0,,,,,,,,,,,,,
37627,1745695689517,0.0,-134,,0.02,-0.03,0.97,5,-1,-0,0.97,1.02,95,3654,10.6,3.9,,13.24,0.932,75.4,,33.7,5,,,,,,,,,,,,0,0,0,0,0,0,0,0,0,0,0,0,0,0,0,0,,,,,,0.0,,,,,,,
37647,1745695689537,,,,,,,,,,,,,,,,,,,,,,,,,,,,,,,,,,0,0,0,0,0,0,0,0,0,0,0,0,0,0,0,0,,,,,,,,,,,,,
37667,1745695689557,0.0,-134,,0.0,-0.07,0.96,5,-1,-0,0.96,1.02,94,3656,10.6,3.9,,13.28,0.927,75.4,,33.7,5,,,,,,,,,,,,0,0,0,0,0,0,0,0,0,0,0,0,0,0,0,0,,,,,,0.0,,,,,,,
37687,1745695689577,,,,,,,,,,,,,,,,,,,,,,,2,19,2,2,0.0,152.0,0.0,0.0,2.54,,,0,0,0,0,0,0,0,0,0,0,0,0,0,0,0,0,,0,,,,,38.991589,-76.937012,3.16,31.6,14,2,2.1
37707,1745695689595,0.0,-134,,-0.0,-0.13,0.96,4,-1,-0,0.97,1.02,94,3725,10.7,3.9,,13.24,0.927,75.4,,33.2,5,,,,,,,,,,,,0,0,0,0,0,0,0,0,0,0,0,0,0,0,0,0,,,,,,0.0,,,,,,,
37727,1745695689615,,,,,,,,,,,,,,,,,,,,,,,,,,,,,,,,,,0,0,0,0,0,0,0,0,0,0,0,0,0,0,0,0,,,,,,,,,,,,,
37747,1745695689635,0.0,-135,,0.01,-0.18,0.97,5,-1,-0,0.99,1.02,96,3750,10.7,3.9,,13.24,0.927,75.4,,33.2,5,,,,,,,,,,,,0,0,0,0,0,0,0,0,0,0,0,0,0,0,0,0,,,,,,0.0,,,,,,,
37767,1745695689655,,,,,,,,,,,,,,,,,,,,,,,,,,,,,,,,,,0,0,0,0,0,0,0,0,0,0,0,0,0,0,0,0,,,,,,,,,,,,,
37787,1745695689675,0.0,-134,,0.02,-0.21,0.97,5,-1,-0,0.99,1.02,97,3750,10.7,3.9,,13.12,0.934,75.4,,34.1,5,2,19,2,2,0.0,160.0,0.0,0.0,2.54,,,0,0,0,0,0,0,0,0,0,0,0,0,0,0,0,0,,0,,,,0.0,38.991589,-76.937012,3.48,31.6,14,2,2.1
37807,1745695689698,,,,,,,,,,,,,,,,,,,,,,,,,,,,,,,,,,0,0,0,0,0,0,0,0,0,0,0,0,0,0,0,0,,,,,,,,,,,,,
37827,1745695689718,0.0,-134,,0.04,-0.2,0.98,6,-1,-0,1.0,1.02,97,3777,10.6,3.9,,13.12,0.931,75.4,,34.1,5,,,,,,,,,,,,0,0,0,0,0,0,0,0,0,0,0,0,0,0,0,0,,,,,,0.0,,,,,,,
37847,1745695689738,,,,,,,,,,,,,,,,,,,,,,,,,,,,,,,,,,0,0,0,0,0,0,0,0,0,0,0,0,0,0,0,0,,,,,,,,,,,,,
37867,1745695689758,0.0,-134,,0.04,-0.14,0.99,5,-1,-0,1.0,1.02,97,3861,10.6,3.89,,13.12,0.923,75.4,,34.1,5,,,,,,,,,,,,0,0,0,0,0,0,0,0,0,0,0,0,0,0,0,0,,,,,,0.0,,,,,,,
37887,1745695689778,,,,,,,,,,,,,,,,,,,,,,,3,19,3,2,0.0,167.0,0.0,0.0,2.55,,,0,0,0,0,0,0,0,0,0,0,0,0,0,0,0,0,,0,,,,,38.991585,-76.937012,4.07,31.6,14,2,2.1
37907,1745695689797,0.0,-135,,0.03,-0.07,1.02,4,-1,0,1.02,1.02,100,3879,10.6,3.89,,13.11,0.918,75.4,,35.3,5,,,,,,,,,,,,0,0,0,0,0,0,0,0,0,0,0,0,0,0,0,0,,,,,,0.0,,,,,,,
37927,1745695689817,,,,,,,,,,,,,,,,,,,,,,,,,,,,,,,,,,0,0,0,0,0,0,0,0,0,0,0,0,0,0,0,0,,,,,,,,,,,,,
37947,1745695689837,0.0,-135,,0.02,-0.16,1.03,4,-1,0,1.04,1.04,100,3857,10.6,3.89,,13.11,0.918,75.4,,35.3,5,,,,,,,,,,,,0,0,0,0,0,0,0,0,0,0,0,0,0,0,0,0,,,,,,0.0,,,,,,,
37967,1745695689857,,,,,,,,,,,,,,,,,,,,,,,,,,,,,,,,,,0,0,0,0,0,0,0,0,0,0,0,0,0,0,0,0,,,,,,,,,,,,,
37987,1745695689877,0.0,-135,,0.0,-0.17,1.03,4,-1,0,1.04,1.04,100,3857,10.6,3.89,,13.2,0.911,75.4,,35.2,5,3,19,3,2,0.0,178.0,0.0,0.0,2.55,,,0,0,0,0,0,0,0,0,0,0,0,0,0,0,0,0,,0,,,,0.0,38.991585,-76.937012,4.0,31.6,14,2,2.1
38007,1745695689899,,,,,,,,,,,,,,,,,,,,,,,,,,,,,,,,,,0,0,0,0,0,0,0,0,0,0,0,0,0,0,0,0,,,,,,,,,,,,,
38027,1745695689919,0.0,-135,,-0.0,-0.17,1.01,4,-1,0,1.03,1.04,99,3866,10.6,3.89,,13.08,0.898,75.4,,35.2,5,,,,,,,,,,,,0,0,0,0,0,0,0,0,0,0,0,0,0,0,0,0,,,,,,0.0,,,,,,,
38047,1745695689939,,,,,,,,,,,,,,,,,,,,,,,,,,,,,,,,,,0,0,0,0,0,0,0,0,0,0,0,0,0,0,0,0,,,,,,,,,,,,,
38067,1745695689959,0.0,-135,,-0.0,-0.17,0.98,5,-1,-0,1.0,1.04,95,3863,10.6,3.89,,13.08,0.893,75.4,,35.2,5,,,,,,,,,,,,0,0,0,0,0,0,0,0,0,0,0,0,0,0,0,0,,,,,,0.0,,,,,,,
38087,1745695689979,,,,,,,,,,,,,,,,,,,,,,,3,19,3,3,0.0,0.0,0.0,0.0,2.55,,,0,0,0,0,0,0,0,0,0,0,0,0,0,0,0,0,,0,,,,,38.991585,-76.937012,4.31,31.6,14,2,2.1
38107,1745695689993,0.0,-135,,0.02,-0.13,0.98,5,-1,-0,0.99,1.04,95,3865,10.6,3.88,,13.13,0.892,75.4,,35.9,5,,,,,,,,,,,,0,0,0,0,0,0,0,0,0,0,0,0,0,0,0,0,,,,,,0.0,,,,,,,
38127,1745695690013,,,,,,,,,,,,,,,,,,,,,,,,,,,,,,,,,,0,0,0,0,0,0,0,0,0,0,0,0,0,0,0,0,,,,,,,,,,,,,
38147,1745695690033,0.0,-135,,0.02,-0.1,0.98,5,-1,0,0.99,1.04,95,3821,10.6,3.89,,13.13,0.892,75.4,,35.9,5,,,,,,,,,,,,0,0,0,0,0,0,0,0,0,0,0,0,0,0,0,0,,,,,,0.0,,,,,,,
38167,1745695690053,,,,,,,,,,,,,,,,,,,,,,,,,,,,,,,,,,0,0,0,0,0,0,0,0,0,0,0,0,0,0,0,0,,,,,,,,,,,,,
38187,1745695690073,0.0,-135,,0.03,-0.08,0.98,4,-1,0,0.99,1.04,95,3821,10.6,3.89,,13.15,0.891,75.4,,35.1,5,3,6,3,3,0.0,0.0,0.0,0.0,2.55,,,0,0,0,0,0,0,0,0,0,0,0,0,0,0,0,0,,0,,,,0.0,38.991581,-76.937012,4.14,31.6,14,2,2.1
38207,1745695690095,,,,,,,,,,,,,,,,,,,,,,,,,,,,,,,,,,0,0,0,0,0,0,0,0,0,0,0,0,0,0,0,0,,,,,,,,,,,,,
38227,1745695690115,0.0,-135,,0.01,-0.11,0.95,4,-1,0,0.96,1.04,92,3772,10.6,3.89,,13.21,0.889,75.4,,35.1,5,,,,,,,,,,,,0,0,0,0,0,0,0,0,0,0,0,0,0,0,0,0,,,,,,0.0,,,,,,,
38247,1745695690135,,,,,,,,,,,,,,,,,,,,,,,,,,,,,,,,,,0,0,0,0,0,0,0,0,0,0,0,0,0,0,0,0,,,,,,,,,,,,,
38267,1745695690155,0.0,-135,,0.01,-0.08,0.95,3,-1,0,0.95,1.04,91,3762,10.6,3.89,,13.24,0.883,75.4,,35.1,5,,,,,,,,,,,,0,0,0,0,0,0,0,0,0,0,0,0,0,0,0,0,,,,,,0.0,,,,,,,
38287,1745695690175,,,,,,,,,,,,,,,,,,,,,,,3,3,3,3,0.0,41.0,0.0,0.0,2.54,,,0,0,0,0,0,0,0,0,0,0,0,0,0,0,0,0,,0,,,,,38.991581,-76.937012,5.25,31.6,17,2,2.0
38307,1745695690199,0.0,-135,,0.01,-0.02,0.95,3,-1,0,0.95,1.04,91,3783,10.6,3.89,,13.15,0.88,75.4,,34.6,5,,,,,,,,,,,,0,0,0,0,0,0,0,0,0,0,0,0,0,0,0,0,,,,,,0.0,,,,,,,
38327,1745695690219,,,,,,,,,,,,,,,,,,,,,,,,,,,,,,,,,,0,0,0,0,0,0,0,0,0,0,0,0,0,0,0,0,,,,,,,,,,,,,
38347,1745695690239,0.0,-135,,0.0,0.04,0.97,2,-1,0,0.97,1.04,93,3787,10.5,3.89,,13.15,0.88,75.4,,34.6,5,,,,,,,,,,,,0,0,0,0,0,0,0,0,0,0,0,0,0,0,0,0,,,,,,0.0,,,,,,,
38367,1745695690259,,,,,,,,,,,,,,,,,,,,,,,,,,,,,,,,,,0,0,0,0,0,0,0,0,0,0,0,0,0,0,0,0,,,,,,,,,,,,,
38387,1745695690279,0.0,-135,13.99,-0.0,0.08,0.98,2,-1,1,0.99,1.04,95,3787,10.5,3.89,15,13.25,0.889,75.4,79,34.5,5,3,24,3,4,0.0,187.0,0.0,0.0,2.54,0,0.0,0,0,0,0,0,0,0,0,0,0,0,0,0,0,0,0,0,0,0.0,0,-1,0.0,38.991577,-76.937012,5.32,31.6,17,2,2.0
38407,1745695690298,,,,,,,,,,,,,,,,,,,,,,,,,,,,,,,,,,0,0,0,0,0,0,0,0,0,0,0,0,0,0,0,0,,,,,,,,,,,,,
38427,1745695690318,0.0,-135,,-0.01,0.09,0.99,2,-1,1,1.0,1.04,96,3780,10.5,3.89,,13.21,0.898,75.4,,34.5,5,,,,,,,,,,,,0,0,0,0,0,0,0,0,0,0,0,0,0,0,0,0,,,,,,0.0,,,,,,,
38447,1745695690338,,,,,,,,,,,,,,,,,,,,,,,,,,,,,,,,,,0,0,0,0,0,0,0,0,0,0,0,0,0,0,0,0,,,,,,,,,,,,,
38467,1745695690358,0.0,-135,,0.01,0.08,0.99,1,-1,1,1.0,1.04,96,3769,10.5,3.89,,13.16,0.903,75.4,,34.5,5,,,,,,,,,,,,0,0,0,0,0,0,0,0,0,0,0,0,0,0,0,0,,,,,,0.0,,,,,,,
38487,1745695690378,,,,,,,,,,,,,,,,,,,,,,,4,18,4,4,0.0,45.0,0.0,0.0,2.55,,,0,0,0,0,0,0,0,0,0,0,0,0,0,0,0,0,,0,,,,,38.991577,-76.937012,5.6,31.6,18,2,1.7
38507,1745695690398,0.0,-133,,0.01,0.05,0.99,1,-1,0,0.99,1.04,95,3729,10.5,3.89,,13.19,0.901,75.4,,34.0,5,,,,,,,,,,,,0,0,0,0,0,0,0,0,0,0,0,0,0,0,0,0,,,,,,0.0,,,,,,,
38527,1745695690418,,,,,,,,,,,,,,,,,,,,,,,,,,,,,,,,,,0,0,0,0,0,0,0,0,0,0,0,0,0,0,0,0,,,,,,,,,,,,,
38547,1745695690438,0.0,-135,,0.01,0.04,1.0,1,-1,0,1.0,1.04,96,3730,10.5,3.89,,13.19,0.901,75.4,,34.0,5,,,,,,,,,,,,0,0,0,0,0,0,0,0,0,0,0,0,0,0,0,0,,,,,,0.0,,,,,,,
38567,1745695690458,,,,,,,,,,,,,,,,,,,,,,,,,,,,,,,,,,0,0,0,0,0,0,0,0,0,0,0,0,0,0,0,0,,,,,,,,,,,,,
38587,1745695690478,0.0,-135,,0.0,0.05,0.98,1,-1,0,0.99,1.04,94,3730,10.5,3.89,,13.25,0.899,75.4,,33.8,5,4,4,4,4,0.0,0.0,0.0,0.0,2.55,,,0,0,0,0,0,0,0,0,0,0,0,0,0,0,0,0,,0,,,,0.0,38.991577,-76.937019,6.26,31.6,18,2,1.7
38607,1745695690497,,,,,,,,,,,,,,,,,,,,,,,,,,,,,,,,,,0,0,0,0,0,0,0,0,0,0,0,0,0,0,0,0,,,,,,,,,,,,,
38627,1745695690517,0.0,-102,,0.0,0.07,0.96,1,-1,-0,0.96,1.04,92,3701,10.5,3.89,,13.25,0.898,75.4,,33.8,5,,,,,,,,,,,,0,0,0,0,0,0,0,0,0,0,0,0,0,0,0,0,,,,,,0.0,,,,,,,
38647,1745695690537,,,,,,,,,,,,,,,,,,,,,,,,,,,,,,,,,,0,0,0,0,0,0,0,0,0,0,0,0,0,0,0,0,,,,,,,,,,,,,
38667,1745695690557,0.0,-135,,-0.0,0.07,0.96,1,-1,-1,0.96,1.04,92,3672,10.5,3.89,,13.24,0.904,75.4,,33.8,5,,,,,,,,,,,,0,0,0,0,0,0,0,0,0,0,0,0,0,0,0,0,,,,,,0.0,,,,,,,
38687,1745695690577,,,,,,,,,,,,,,,,,,,,,,,4,4,4,4,0.0,124.0,0.0,0.0,2.55,,,0,0,0,0,0,0,0,0,0,0,0,0,0,0,0,0,,0,,,,,38.991573,-76.937019,5.97,31.6,18,2,1.7
38707,1745695690596,0.0,-129,,-0.01,0.07,0.97,1,-1,-1,0.97,1.04,93,3702,10.5,3.89,,13.16,0.909,75.4,,33.3,5,,,,,,,,,,,,0,0,0,0,0,0,0,0,0,0,0,0,0,0,0,0,,,,,,0.0,,,,,,,
38727,1745695690616,,,,,,,,,,,,,,,,,,,,,,,,,,,,,,,,,,0,0,0,0,0,0,0,0,0,0,0,0,0,0,0,0,,,,,,,,,,,,,
38747,1745695690636,0.0,-135,,0.01,-0.0,0.96,0,-1,-0,0.96,1.04,92,3714,10.6,3.91,,13.16,0.909,75.4,,33.3,5,,,,,,,,,,,,0,0,0,0,0,0,0,0,0,0,0,0,0,0,0,0,,,,,,0.0,,,,,,,
38767,1745695690656,,,,,,,,,,,,,,,,,,,,,,,,,,,,,,,,,,0,0,0,0,0,0,0,0,0,0,0,0,0,0,0,0,,,,,,,,,,,,,
38787,1745695690676,0.0,-135,,-0.0,-0.09,0.97,-0,-0,-0,0.97,1.04,93,3714,10.6,3.91,,13.19,0.913,75.4,,33.3,5,4,43,4,4,0.0,148.0,0.0,0.0,2.54,,,0,0,0,0,0,0,0,0,0,0,0,0,0,0,0,0,,0,,,,0.0,38.991573,-76.937019,6.69,31.6,18,2,1.7
38807,1745695690696,,,,,,,,,,,,,,,,,,,,,,,,,,,,,,,,,,0,0,0,0,0,0,0,0,0,0,0,0,0,0,0,0,,,,,,,,,,,,,
38827,1745695690716,0.0,-129,,-0.01,-0.09,1.0,-0,-0,-0,1.01,1.04,96,3676,10.6,3.91,,13.28,0.915,75.4,,33.3,5,,,,,,,,,,,,0,0,0,0,0,0,0,0,0,0,0,0,0,0,0,0,,,,,,0.0,,,,,,,
38847,1745695690736,,,,,,,,,,,,,,,,,,,,,,,,,,,,,,,,,,0,0,0,0,0,0,0,0,0,0,0,0,0,0,0,0,,,,,,,,,,,,,
38867,1745695690756,0.0,-135,,-0.0,-0.01,1.02,-0,-0,1,1.02,1.04,98,3656,10.5,3.9,,13.31,0.911,75.4,,33.3,5,,,,,,,,,,,,0,0,0,0,0,0,0,0,0,0,0,0,0,0,0,0,,,,,,0.0,,,,,,,
38887,1745695690776,,,,,,,,,,,,,,,,,,,,,,,4,671,5,4,0.0,68.0,0.0,0.0,2.54,,,0,0,0,0,0,0,0,0,0,0,0,0,0,0,0,0,,0,,,,,38.991573,-76.937019,7.12,31.7,18,2,1.7
38907,1745695690794,0.0,-112,,0.02,0.02,1.03,-1,0,1,1.03,1.04,98,3617,10.6,3.9,,13.32,0.906,75.4,,32.8,5,,,,,,,,,,,,0,0,0,0,0,0,0,0,0,0,0,0,0,0,0,0,,,,,,0.0,,,,,,,
38927,1745695690814,,,,,,,,,,,,,,,,,,,,,,,,,,,,,,,,,,0,0,0,0,0,0,0,0,0,0,0,0,0,0,0,0,,,,,,,,,,,,,
38947,1745695690834,0.0,-133,,0.03,0.01,1.01,-0,0,1,1.02,1.04,97,3609,10.5,3.9,,13.32,0.906,75.4,,32.8,5,,,,,,,,,,,,0,0,0,0,0,0,0,0,0,0,0,0,0,0,0,0,,,,,,0.0,,,,,,,
38967,1745695690854,,,,,,,,,,,,,,,,,,,,,,,,,,,,,,,,,,0,0,0,0,0,0,0,0,0,0,0,0,0,0,0,0,,,,,,,,,,,,,
38987,1745695690874,0.0,-129,,0.02,-0.05,0.97,1,-0,-0,0.97,1.04,93,3609,10.5,3.9,,13.31,0.904,75.4,,32.5,5,5,6,5,5,0.0,0.0,0.0,0.0,2.55,,,0,0,0,0,0,0,0,0,0,0,0,0,0,0,0,0,,0,,,,0.0,38.99157,-76.937019,7.23,31.7,18,2,1.7
39007,1745695690898,,,,,,,,,,,,,,,,,,,,,,,,,,,,,,,,,,0,0,0,0,0,0,0,0,0,0,0,0,0,0,0,0,,,,,,,,,,,,,
39027,1745695690918,0.0,-133,,0.0,-0.09,1.01,0,0,0,1.02,1.04,98,3562,10.5,3.89,,13.35,0.908,75.4,,32.5,5,,,,,,,,,,,,0,0,0,0,0,0,0,0,0,0,0,0,0,0,0,0,,,,,,0.0,,,,,,,
39047,1745695690938,,,,,,,,,,,,,,,,,,,,,,,,,,,,,,,,,,0,0,0,0,0,0,0,0,0,0,0,0,0,0,0,0,,,,,,,,,,,,,
39067,1745695690958,0.0,-112,,0.01,0.02,1.04,-1,0,0,1.04,1.04,100,3546,10.5,3.91,,13.37,0.911,75.4,,32.5,5,,,,,,,,,,,,0,0,0,0,0,0,0,0,0,0,0,0,0,0,0,0,,,,,,0.0,,,,,,,
39087,1745695690978,,,,,,,,,,,,,,,,,,,,,,,5,4,5,5,0.0,0.0,0.0,0.0,2.55,,,0,0,0,0,0,0,0,0,0,0,0,0,0,0,0,0,,0,,,,,38.99157,-76.937019,7.4,31.7,18,2,1.7
39107,1745695690998,0.0,-119,,0.02,-0.01,0.99,0,0,-0,0.99,1.04,95,3497,10.5,3.9,,13.37,0.911,75.4,,31.9,5,,,,,,,,,,,,0,0,0,0,0,0,0,0,0,0,0,0,0,0,0,0,,,,,,0.0,,,,,,,
39127,1745695691010,,,,,,,,,,,,,,,,,,,,,,,,,,,,,,,,,,0,0,0,0,0,0,0,0,0,0,0,0,0,0,0,0,,,,,,,,,,,,,
39147,1745695691030,0.0,-133,,-0.0,-0.14,1.0,1,0,-0,1.01,1.04,97,3475,10.5,3.92,,13.37,0.911,75.4,,31.9,5,,,,,,,,,,,,0,0,0,0,0,0,0,0,0,0,0,0,0,0,0,0,,,,,,0.0,,,,,,,
39167,1745695691050,,,,,,,,,,,,,,,,,,,,,,,,,,,,,,,,,,0,0,0,0,0,0,0,0,0,0,0,0,0,0,0,0,,,,,,,,,,,,,
39187,1745695691070,0.0,-129,,0.03,-0.04,1.02,-1,0,0,1.02,1.04,98,3475,10.5,3.92,,13.39,0.91,75.4,,30.7,5,5,6,5,5,0.0,0.0,0.0,0.0,2.54,,,0,0,0,0,0,0,0,0,0,0,0,0,0,0,0,0,,0,,,,0.0,38.991566,-76.937019,7.89,31.7,18,2,1.7
39207,1745695691098,,,,,,,,,,,,,,,,,,,,,,,,,,,,,,,,,,0,0,0,0,0,0,0,0,0,0,0,0,0,0,0,0,,,,,,,,,,,,,
39227,1745695691118,0.0,-95,,0.02,-0.05,0.98,0,0,-0,0.98,1.04,94,3442,10.5,3.92,,13.53,0.903,75.4,,30.7,5,,,,,,,,,,,,0,0,0,0,0,0,0,0,0,0,0,0,0,0,0,0,,,,,,0.0,,,,,,,
39247,1745695691138,,,,,,,,,,,,,,,,,,,,,,,,,,,,,,,,,,0,0,0,0,0,0,0,0,0,0,0,0,0,0,0,0,,,,,,,,,,,,,
39267,1745695691158,0.0,-109,,0.02,-0.08,1.05,-1,1,0,1.06,1.06,100,3485,10.5,3.91,,13.45,0.9,75.4,,30.7,5,,,,,,,,,,,,0,0,0,0,0,0,0,0,0,0,0,0,0,0,0,0,,,,,,0.0,,,,,,,
39287,1745695691178,,,,,,,,,,,,,,,,,,,,,,,5,6,6,6,0.0,0.0,0.0,0.0,2.55,,,0,0,0,0,0,0,0,0,0,0,0,0,0,0,0,0,,0,,,,,38.991562,-76.937019,8.34,31.7,18,2,1.7
39307,1745695691194,0.0,-102,,0.03,-0.06,0.99,-0,1,-0,0.99,1.06,94,3359,10.5,3.91,,13.53,0.899,75.4,,32.8,5,,,,,,,,,,,,0,0,0,0,0,0,0,0,0,0,0,0,0,0,0,0,,,,,,0.0,,,,,,,
39327,1745695691214,,,,,,,,,,,,,,,,,,,,,,,,,,,,,,,,,,0,0,0,0,0,0,0,0,0,0,0,0,0,0,0,0,,,,,,,,,,,,,
39347,1745695691234,0.0,-119,,0.05,-0.03,1.05,-2,1,0,1.05,1.06,100,3272,10.5,3.93,,13.53,0.899,75.4,,32.8,5,,,,,,,,,,,,0,0,0,0,0,0,0,0,0,0,0,0,0,0,0,0,,,,,,0.0,,,,,,,
39367,1745695691254,,,,,,,,,,,,,,,,,,,,,,,,,,,,,,,,,,0,0,0,0,0,0,0,0,0,0,0,0,0,0,0,0,,,,,,,,,,,,,
39387,1745695691274,0.0,-109,14.06,0.01,-0.11,1.1,-1,1,-1,1.1,1.1,100,3272,10.5,3.93,15,13.6,0.898,75.4,79,32.9,5,6,6,6,6,0.0,0.0,0.0,0.0,2.54,0,0.0,0,0,0,0,0,0,0,0,0,0,0,0,0,0,0,0,0,0,0.0,0,-1,0.0,38.991562,-76.937027,8.53,31.7,18,2,1.7
39407,1745695691299,,,,,,,,,,,,,,,,,,,,,,,,,,,,,,,,,,0,0,0,0,0,0,0,0,0,0,0,0,0,0,0,0,,,,,,,,,,,,,
39427,1745695691319,0.0,-99,,0.02,-0.06,1.01,0,0,-1,1.01,1.1,92,3173,10.5,3.93,,13.6,0.9,75.4,,32.9,5,,,,,,,,,,,,0,0,0,0,0,0,0,0,0,0,0,0,0,0,0,0,,,,,,0.0,,,,,,,
39447,1745695691339,,,,,,,,,,,,,,,,,,,,,,,,,,,,,,,,,,0,0,0,0,0,0,0,0,0,0,0,0,0,0,0,0,,,,,,,,,,,,,
39467,1745695691359,0.0,-88,,0.05,0.05,0.91,-1,0,-0,0.92,1.1,83,3147,10.5,3.93,,13.64,0.896,75.4,,32.9,5,,,,,,,,,,,,0,0,0,0,0,0,0,0,0,0,0,0,0,0,0,0,,,,,,0.0,,,,,,,
39487,1745695691379,,,,,,,,,,,,,,,,,,,,,,,6,6,6,6,0.0,0.0,0.0,0.0,2.55,,,0,0,0,0,0,0,0,0,0,0,0,0,0,0,0,0,,0,,,,,38.991558,-76.937027,9.36,31.7,18,2,1.7
39507,1745695691397,0.0,-85,,0.06,0.03,0.94,-2,-0,1,0.95,1.1,86,3147,10.4,3.93,,13.67,0.893,75.4,,33.2,5,,,,,,,,,,,,0,0,0,0,0,0,0,0,0,0,0,0,0,0,0,0,,,,,,0.0,,,,,,,
39527,1745695691417,,,,,,,,,,,,,,,,,,,,,,,,,,,,,,,,,,0,0,0,0,0,0,0,0,0,0,0,0,0,0,0,0,,,,,,,,,,,,,
39547,1745695691437,0.0,-102,,0.02,-0.09,1.04,-1,-0,1,1.05,1.1,95,3199,10.4,3.93,,13.67,0.893,75.4,,33.2,5,,,,,,,,,,,,0,0,0,0,0,0,0,0,0,0,0,0,0,0,0,0,,,,,,0.0,,,,,,,
39567,1745695691457,,,,,,,,,,,,,,,,,,,,,,,,,,,,,,,,,,0,0,0,0,0,0,0,0,0,0,0,0,0,0,0,0,,,,,,,,,,,,,
39587,1745695691477,0.0,-109,,0.02,-0.09,1.01,0,-0,0,1.01,1.1,92,3199,10.4,3.93,,13.67,0.898,75.4,,32.9,5,6,6,6,6,0.0,125.0,0.0,0.0,2.54,,,0,0,0,0,0,0,0,0,0,0,0,0,0,0,0,0,,0,,,,0.0,38.991554,-76.937027,9.73,31.7,18,2,1.7
39607,1745695691495,,,,,,,,,,,,,,,,,,,,,,,,,,,,,,,,,,0,0,0,0,0,0,0,0,0,0,0,0,0,0,0,0,,,,,,,,,,,,,
39627,1745695691515,0.0,-102,,0.05,-0.0,0.94,0,-0,0,0.95,1.1,86,3181,10.3,3.93,,13.64,0.901,75.4,,32.9,5,,,,,,,,,,,,0,0,0,0,0,0,0,0,0,0,0,0,0,0,0,0,,,,,,0.0,,,,,,,
39647,1745695691535,,,,,,,,,,,,,,,,,,,,,,,,,,,,,,,,,,0,0,0,0,0,0,0,0,0,0,0,0,0,0,0,0,,,,,,,,,,,,,
39667,1745695691555,0.0,-109,,0.05,0.06,0.94,-0,-0,1,0.94,1.1,86,3166,10.4,3.93,,13.63,0.903,75.4,,32.9,5,,,,,,,,,,,,0,0,0,0,0,0,0,0,0,0,0,0,0,0,0,0,,,,,,0.0,,,,,,,
39687,1745695691575,,,,,,,,,,,,,,,,,,,,,,,6,29,7,6,0.0,237.0,0.0,0.0,2.54,,,0,0,0,0,0,0,0,0,0,0,0,0,0,0,0,0,,0,,,,,38.991554,-76.937027,10.15,31.7,18,2,1.7
39707,1745695691595,0.0,-95,,0.05,-0.02,1.04,-0,-0,1,1.04,1.1,94,3152,10.4,3.93,,13.6,0.904,75.4,,32.9,5,,,,,,,,,,,,0,0,0,0,0,0,0,0,0,0,0,0,0,0,0,0,,,,,,0.0,,,,,,,
39727,1745695691615,,,,,,,,,,,,,,,,,,,,,,,,,,,,,,,,,,0,0,0,0,0,0,0,0,0,0,0,0,0,0,0,0,,,,,,,,,,,,,
39747,1745695691635,0.0,-116,,0.03,-0.07,1.11,1,-0,0,1.11,1.11,100,3068,10.3,3.93,,13.6,0.904,75.4,,32.9,5,,,,,,,,,,,,0,0,0,0,0,0,0,0,0,0,0,0,0,0,0,0,,,,,,0.0,,,,,,,
39767,1745695691655,,,,,,,,,,,,,,,,,,,,,,,,,,,,,,,,,,0,0,0,0,0,0,0,0,0,0,0,0,0,0,0,0,,,,,,,,,,,,,
39787,1745695691675,0.0,-109,,0.02,-0.07,1.15,1,-0,0,1.15,1.15,100,3068,10.3,3.93,,13.59,0.906,75.4,,30.8,5,7,7,7,7,0.0,28.0,0.0,0.0,2.54,,,0,0,0,0,0,0,0,0,0,0,0,0,0,0,0,0,,0,,,,0.0,38.991554,-76.937027,10.62,31.7,18,2,1.7
39807,1745695691695,,,,,,,,,,,,,,,,,,,,,,,,,,,,,,,,,,0,0,0,0,0,0,0,0,0,0,0,0,0,0,0,0,,,,,,,,,,,,,
39827,1745695691715,0.0,-102,,0.03,-0.04,1.11,2,-0,0,1.11,1.15,97,2912,10.5,3.92,,13.71,0.904,75.4,,30.8,5,,,,,,,,,,,,0,0,0,0,0,0,0,0,0,0,0,0,0,0,0,0,,,,,,0.0,,,,,,,
39847,1745695691735,,,,,,,,,,,,,,,,,,,,,,,,,,,,,,,,,,0,0,0,0,0,0,0,0,0,0,0,0,0,0,0,0,,,,,,,,,,,,,
39867,1745695691755,0.0,-105,,0.03,-0.02,1.1,2,-0,-0,1.11,1.15,96,2685,10.5,3.88,,13.79,0.914,75.4,,30.8,5,,,,,,,,,,,,0,0,0,0,0,0,0,0,0,0,0,0,0,0,0,0,,,,,,0.0,,,,,,,
39887,1745695691775,,,,,,,,,,,,,,,,,,,,,,,7,7,7,7,0.0,41.0,0.0,0.0,2.55,,,0,0,0,0,0,0,0,0,0,0,0,0,0,0,0,0,,0,,,,,38.99155,-76.937027,10.96,31.7,18,2,1.7
39907,1745695691795,0.0,-109,,0.04,-0.04,1.16,3,0,0,1.16,1.16,100,2796,10.5,3.86,,13.79,0.965,75.4,,31.1,5,,,,,,,,,,,,0,0,0,0,0,0,0,0,0,0,0,0,0,0,0,0,,,,,,0.0,,,,,,,
39927,1745695691815,,,,,,,,,,,,,,,,,,,,,,,,,,,,,,,,,,0,0,0,0,0,0,0,0,0,0,0,0,0,0,0,0,,,,,,,,,,,,,
39947,1745695691835,0.0,-99,,0.04,-0.11,1.2,4,0,0,1.21,1.21,100,3012,10.3,3.91,,13.79,0.965,75.4,,31.1,5,,,,,,,,,,,,0,0,0,0,0,0,0,0,0,0,0,0,0,0,0,0,,,,,,0.0,,,,,,,
39967,1745695691855,,,,,,,,,,,,,,,,,,,,,,,,,,,,,,,,,,0,0,0,0,0,0,0,0,0,0,0,0,0,0,0,0,,,,,,,,,,,,,
39987,1745695691875,0.0,-119,,0.01,-0.14,1.26,5,0,0,1.27,1.27,100,3012,10.3,3.91,,13.77,1.071,75.4,,33.7,5,8,7,7,8,0.0,239.0,0.0,0.0,2.55,,,0,0,0,0,0,0,0,0,0,0,0,0,0,0,0,0,,0,,,,0.0,38.991547,-76.937035,11.33,31.7,18,2,1.7
40007,1745695691899,,,,,,,,,,,,,,,,,,,,,,,,,,,,,,,,,,0,0,0,0,0,0,0,0,0,0,0,0,0,0,0,0,,,,,,,,,,,,,
40027,1745695691919,0.0,-112,,-0.01,-0.16,1.28,6,-0,0,1.29,1.29,100,3112,10.3,3.93,,13.73,1.034,75.4,,33.7,5,,,,,,,,,,,,0,0,0,0,0,0,0,0,0,0,0,0,0,0,0,0,,,,,,0.0,,,,,,,
40047,1745695691939,,,,,,,,,,,,,,,,,,,,,,,,,,,,,,,,,,0,0,0,0,0,0,0,0,0,0,0,0,0,0,0,0,,,,,,,,,,,,,
40067,1745695691959,0.0,-119,,-0.0,-0.13,1.24,8,-0,-0,1.24,1.29,96,3114,10.3,3.93,,13.69,0.985,75.4,,33.7,5,,,,,,,,,,,,0,0,0,0,0,0,0,0,0,0,0,0,0,0,0,0,,,,,,0.0,,,,,,,
40087,1745695691979,,,,,,,,,,,,,,,,,,,,,,,7,7,8,7,0.0,248.0,0.0,0.0,2.54,,,0,0,0,0,0,0,0,0,0,0,0,0,0,0,0,0,,0,,,,,38.991543,-76.937035,11.51,31.7,18,2,1.7
40107,1745695691993,0.0,-119,,0.02,-0.06,1.14,8,-0,-1,1.14,1.29,88,3155,10.3,3.93,,13.63,0.951,75.4,,33.7,5,,,,,,,,,,,,0,0,0,0,0,0,0,0,0,0,0,0,0,0,0,0,,,,,,0.0,,,,,,,
40127,1745695692013,,,,,,,,,,,,,,,,,,,,,,,,,,,,,,,,,,0,0,0,0,0,0,0,0,0,0,0,0,0,0,0,0,,,,,,,,,,,,,
40147,1745695692033,0.0,-122,,0.03,0.03,1.09,8,0,-0,1.09,1.29,85,3194,10.2,3.93,,13.63,0.951,75.4,,33.7,5,,,,,,,,,,,,0,0,0,0,0,0,0,0,0,0,0,0,0,0,0,0,,,,,,0.0,,,,,,,
40167,1745695692053,,,,,,,,,,,,,,,,,,,,,,,,,,,,,,,,,,0,0,0,0,0,0,0,0,0,0,0,0,0,0,0,0,,,,,,,,,,,,,
40187,1745695692073,0.0,-129,,0.02,-0.03,1.18,8,1,0,1.18,1.29,92,3194,10.2,3.93,,13.64,0.931,75.4,,33.5,5,8,7,8,7,0.0,33.0,0.0,0.0,2.54,,,0,0,0,0,0,0,0,0,0,0,0,0,0,0,0,0,,0,,,,0.0,38.991539,-76.937035,12.16,31.7,18,2,1.7
40207,1745695692097,,,,,,,,,,,,,,,,,,,,,,,,,,,,,,,,,,0,0,0,0,0,0,0,0,0,0,0,0,0,0,0,0,,,,,,,,,,,,,
40227,1745695692117,0.0,-126,,-0.02,-0.07,1.15,10,1,-0,1.15,1.29,89,3205,10.1,3.92,,13.65,0.925,75.4,,33.5,5,,,,,,,,,,,,0,0,0,0,0,0,0,0,0,0,0,0,0,0,0,0,,,,,,0.0,,,,,,,
40247,1745695692137,,,,,,,,,,,,,,,,,,,,,,,,,,,,,,,,,,0,0,0,0,0,0,0,0,0,0,0,0,0,0,0,0,,,,,,,,,,,,,
40267,1745695692157,0.0,-129,,0.02,0.01,1.05,11,1,-0,1.05,1.29,81,3207,10.1,3.92,,13.61,0.916,75.4,,33.5,5,,,,,,,,,,,,0,0,0,0,0,0,0,0,0,0,0,0,0,0,0,0,,,,,,0.0,,,,,,,
40287,1745695692177,,,,,,,,,,,,,,,,,,,,,,,8,7,8,7,0.0,8.0,0.0,0.0,2.54,,,0,0,0,0,0,0,0,0,0,0,0,0,0,0,0,0,,0,,,,,38.991535,-76.937035,12.09,31.7,18,2,1.7
40307,1745695692199,0.0,-135,,0.02,-0.02,1.13,11,1,-0,1.13,1.29,87,3254,10.0,3.92,,13.56,0.911,75.4,,33.8,5,,,,,,,,,,,,0,0,0,0,0,0,0,0,0,0,0,0,0,0,0,0,,,,,,0.0,,,,,,,
40327,1745695692219,,,,,,,,,,,,,,,,,,,,,,,,,,,,,,,,,,0,0,0,0,0,0,0,0,0,0,0,0,0,0,0,0,,,,,,,,,,,,,
40347,1745695692239,0.0,-135,,-0.01,-0.07,1.15,13,1,-1,1.15,1.29,89,3218,6.5,3.8,,13.56,0.911,75.4,,33.8,5,,,,,,,,,,,,0,0,0,0,0,0,0,0,0,0,0,0,0,0,0,0,,,,,,0.0,,,,,,,
40367,1745695692259,,,,,,,,,,,,,,,,,,,,,,,,,,,,,,,,,,0,0,0,0,0,0,0,0,0,0,0,0,0,0,0,0,,,,,,,,,,,,,
40387,1745695692279,0.0,-122,14.02,0.02,0.02,1.05,14,1,-1,1.05,1.29,81,3218,6.5,3.8,15,13.52,0.905,75.4,81,33.4,5,9,7,9,8,0.0,233.0,0.0,0.0,2.54,0,0.0,0,0,0,0,0,0,0,0,0,0,0,0,0,0,0,0,0,0,0.0,0,-1,0.0,38.991531,-76.937035,12.73,31.7,18,2,1.7
40407,1745695692298,,,,,,,,,,,,,,,,,,,,,,,,,,,,,,,,,,0,0,0,0,0,0,0,0,0,0,0,0,0,0,0,0,,,,,,,,,,,,,
40427,1745695692318,0.0,-135,,0.04,0.09,1.01,13,1,-0,1.02,1.29,79,3182,6.2,3.79,,13.39,0.897,75.4,,33.4,5,,,,,,,,,,,,0,0,0,0,0,0,0,0,0,0,0,0,0,0,0,0,,,,,,0.0,,,,,,,
40447,1745695692338,,,,,,,,,,,,,,,,,,,,,,,,,,,,,,,,,,0,0,0,0,0,0,0,0,0,0,0,0,0,0,0,0,,,,,,,,,,,,,
40467,1745695692358,0.0,-135,,0.04,0.06,1.1,14,1,0,1.1,1.29,85,3134,6.1,3.79,,13.33,0.888,75.4,,33.4,5,,,,,,,,,,,,0,0,0,0,0,0,0,0,0,0,0,0,0,0,0,0,,,,,,0.0,,,,,,,
40487,1745695692378,,,,,,,,,,,,,,,,,,,,,,,9,7,9,8,0.0,15.0,0.0,0.0,2.54,,,0,0,0,0,0,0,0,0,0,0,0,0,0,0,0,0,,0,,,,,38.991531,-76.937035,12.99,31.8,18,2,1.7
40507,1745695692398,0.0,-135,,0.02,-0.01,1.18,14,1,0,1.18,1.29,91,3106,6.1,3.78,,13.43,0.88,75.4,,32.2,5,,,,,,,,,,,,0,0,0,0,0,0,0,0,0,0,0,0,0,0,0,0,,,,,,0.0,,,,,,,
40527,1745695692418,,,,,,,,,,,,,,,,,,,,,,,,,,,,,,,,,,0,0,0,0,0,0,0,0,0,0,0,0,0,0,0,0,,,,,,,,,,,,,
40547,1745695692438,0.0,-135,,-0.01,-0.03,1.25,15,1,0,1.25,1.29,97,2992,5.9,3.79,,13.43,0.88,75.4,,32.2,5,,,,,,,,,,,,0,0,0,0,0,0,0,0,0,0,0,0,0,0,0,0,,,,,,0.0,,,,,,,
40567,1745695692458,,,,,,,,,,,,,,,,,,,,,,,,,,,,,,,,,,0,0,0,0,0,0,0,0,0,0,0,0,0,0,0,0,,,,,,,,,,,,,
40587,1745695692478,0.0,-133,,-0.03,-0.04,1.27,15,0,0,1.27,1.29,99,2992,5.9,3.79,,13.37,0.865,75.4,,31.1,5,9,7,9,8,0.0,234.0,0.0,0.0,2.54,,,0,0,0,0,0,0,0,0,0,0,0,0,0,0,0,0,,0,,,,0.0,38.991528,-76.937035,13.02,31.8,18,2,1.7
40607,1745695692496,,,,,,,,,,,,,,,,,,,,,,,,,,,,,,,,,,0,0,0,0,0,0,0,0,0,0,0,0,0,0,0,0,,,,,,,,,,,,,
40627,1745695692516,0.0,-135,,-0.03,-0.03,1.29,15,-0,0,1.29,1.29,100,2941,5.5,3.77,,13.45,0.858,75.4,,31.1,5,,,,,,,,,,,,0,0,0,0,0,0,0,0,0,0,0,0,0,0,0,0,,,,,,0.0,,,,,,,
40647,1745695692536,,,,,,,,,,,,,,,,,,,,,,,,,,,,,,,,,,0,0,0,0,0,0,0,0,0,0,0,0,0,0,0,0,,,,,,,,,,,,,
40667,1745695692556,0.0,-135,,-0.03,-0.01,1.28,15,-0,0,1.28,1.29,99,2936,5.4,3.76,,13.48,0.847,75.4,,31.1,5,,,,,,,,,,,,0,0,0,0,0,0,0,0,0,0,0,0,0,0,0,0,,,,,,0.0,,,,,,,
40687,1745695692576,,,,,,,,,,,,,,,,,,,,,,,9,7,9,9,0.0,220.0,0.0,0.0,2.54,,,0,0,0,0,0,0,0,0,0,0,0,0,0,0,0,0,,1,,,,,38.991524,-76.937035,13.74,31.8,18,2,1.7
40707,1745695692594,0.0,-134,,-0.05,0.05,1.22,15,-0,0,1.22,1.29,94,2892,5.4,3.76,,13.47,0.845,75.4,,32.4,5,,,,,,,,,,,,0,0,0,0,0,0,0,0,0,0,0,0,0,0,0,0,,,,,,0.0,,,,,,,
40727,1745695692614,,,,,,,,,,,,,,,,,,,,,,,,,,,,,,,,,,0,0,0,0,0,0,0,0,0,0,0,0,0,0,0,0,,,,,,,,,,,,,
40747,1745695692634,0.0,-134,,-0.05,0.07,1.14,15,-1,0,1.14,1.29,88,2912,5.3,3.75,,13.47,0.845,75.4,,32.4,5,,,,,,,,,,,,0,0,0,0,0,0,0,0,0,0,0,0,0,0,0,0,,,,,,0.0,,,,,,,
40767,1745695692654,,,,,,,,,,,,,,,,,,,,,,,,,,,,,,,,,,0,0,0,0,0,0,0,0,0,0,0,0,0,0,0,0,,,,,,,,,,,,,
40787,1745695692674,0.0,-135,,-0.03,0.06,1.07,16,-1,-0,1.08,1.29,83,2912,5.3,3.75,,13.44,0.845,75.4,,32.8,5,9,7,9,8,0.0,227.0,0.0,0.0,2.55,,,0,0,0,0,0,0,0,0,0,0,0,0,0,0,0,0,,1,,,,0.0,38.99152,-76.937035,13.82,31.8,18,2,1.7
40807,1745695692696,,,,,,,,,,,,,,,,,,,,,,,,,,,,,,,,,,0,0,0,0,0,0,0,0,0,0,0,0,0,0,0,0,,,,,,,,,,,,,
40827,1745695692716,0.0,-135,,-0.04,0.06,1.05,16,-1,-0,1.05,1.29,81,2905,5.3,3.76,,13.43,0.844,75.4,,32.8,5,,,,,,,,,,,,0,0,0,0,0,0,0,0,0,0,0,0,0,0,0,0,,,,,,0.0,,,,,,,
40847,1745695692736,,,,,,,,,,,,,,,,,,,,,,,,,,,,,,,,,,0,0,0,0,0,0,0,0,0,0,0,0,0,0,0,0,,,,,,,,,,,,,
40867,1745695692756,0.0,-134,,-0.05,0.09,1.06,17,-1,-1,1.06,1.29,82,2922,5.4,3.76,,13.43,0.848,75.4,,32.8,5,,,,,,,,,,,,0,0,0,0,0,0,0,0,0,0,0,0,0,0,0,0,,,,,,0.0,,,,,,,
40887,1745695692776,,,,,,,,,,,,,,,,,,,,,,,9,7,9,8,0.0,45.0,0.0,0.0,2.54,,,0,0,0,0,0,0,0,0,0,0,0,0,0,0,0,0,,0,,,,,38.991516,-76.937035,13.74,31.8,18,2,1.7
40907,1745695692796,0.0,-135,,-0.04,0.08,1.09,18,-1,-1,1.1,1.29,85,2894,5.4,3.75,,13.43,0.855,75.4,,32.6,5,,,,,,,,,,,,0,0,0,0,0,0,0,0,0,0,0,0,0,0,0,0,,,,,,0.0,,,,,,,
40927,1745695692816,,,,,,,,,,,,,,,,,,,,,,,,,,,,,,,,,,0,0,0,0,0,0,0,0,0,0,0,0,0,0,0,0,,,,,,,,,,,,,
40947,1745695692836,0.0,-134,,-0.04,0.12,1.08,18,-1,-0,1.09,1.29,84,2791,5.2,3.73,,13.43,0.855,75.4,,32.6,5,,,,,,,,,,,,0,0,0,0,0,0,0,0,0,0,0,0,0,0,0,0,,,,,,0.0,,,,,,,
40967,1745695692856,,,,,,,,,,,,,,,,,,,,,,,,,,,,,,,,,,0,0,0,0,0,0,0,0,0,0,0,0,0,0,0,0,,,,,,,,,,,,,
40987,1745695692876,0.0,-134,,-0.05,0.13,1.06,18,-2,-0,1.06,1.29,82,2791,5.2,3.73,,13.44,0.864,75.4,,31.2,5,10,7,9,8,0.0,0.0,0.0,0.0,2.54,,,0,0,0,0,0,0,0,0,0,0,0,0,0,0,0,0,,0,,,,0.0,38.991512,-76.937035,13.96,31.8,18,2,1.7
41007,1745695692899,,,,,,,,,,,,,,,,,,,,,,,,,,,,,,,,,,0,0,0,0,0,0,0,0,0,0,0,0,0,0,0,0,,,,,,,,,,,,,
41027,1745695692919,0.0,-135,,-0.06,0.08,1.1,18,-2,0,1.1,1.29,85,2779,5.1,3.73,,13.45,0.874,75.4,,31.2,5,,,,,,,,,,,,0,0,0,0,0,0,0,0,0,0,0,0,0,0,0,0,,,,,,0.0,,,,,,,
41047,1745695692939,,,,,,,,,,,,,,,,,,,,,,,,,,,,,,,,,,0,0,0,0,0,0,0,0,0,0,0,0,0,0,0,0,,,,,,,,,,,,,
41067,1745695692959,0.0,-135,,-0.09,0.09,1.01,18,-1,-0,1.02,1.29,79,2641,5.0,3.71,,13.52,0.881,75.4,,31.2,5,,,,,,,,,,,,0,0,0,0,0,0,0,0,0,0,0,0,0,0,0,0,,,,,,0.0,,,,,,,
41087,1745695692979,,,,,,,,,,,,,,,,,,,,,,,9,7,9,9,0.0,241.0,0.0,0.0,2.54,,,0,0,0,0,0,0,0,0,0,0,0,0,0,0,0,0,,0,,,,,38.991508,-76.937035,13.93,31.8,18,2,1.7
41107,1745695692992,0.0,-135,,-0.1,0.04,1.04,18,-1,-1,1.04,1.29,81,2650,1.8,3.69,,13.41,0.892,75.4,,30.9,5,,,,,,,,,,,,0,0,0,0,0,0,0,0,0,0,0,0,0,0,0,0,,,,,,0.0,,,,,,,
41127,1745695693012,,,,,,,,,,,,,,,,,,,,,,,,,,,,,,,,,,0,0,0,0,0,0,0,0,0,0,0,0,0,0,0,0,,,,,,,,,,,,,
41147,1745695693032,0.0,-134,,-0.09,0.04,1.05,17,-1,0,1.06,1.29,82,2839,1.0,3.73,,13.41,0.892,75.4,,30.9,5,,,,,,,,,,,,0,0,0,0,0,0,0,0,0,0,0,0,0,0,0,0,,,,,,0.0,,,,,,,
41167,1745695693052,,,,,,,,,,,,,,,,,,,,,,,,,,,,,,,,,,0,0,0,0,0,0,0,0,0,0,0,0,0,0,0,0,,,,,,,,,,,,,
41187,1745695693072,0.0,-135,,-0.09,0.06,1.02,16,-0,0,1.03,1.29,80,2839,1.0,3.73,,13.24,0.983,75.4,,33.2,5,9,7,9,8,0.0,241.0,0.0,0.0,2.54,,,0,0,0,0,0,0,0,0,0,0,0,0,0,0,0,0,,0,,,,0.0,38.991505,-76.937035,13.85,31.8,18,2,1.7
41207,1745695693098,,,,,,,,,,,,,,,,,,,,,,,,,,,,,,,,,,0,0,0,0,0,0,0,0,0,0,0,0,0,0,0,0,,,,,,,,,,,,,
41227,1745695693118,0.0,-135,,-0.09,0.06,0.99,15,-0,0,1.0,1.29,77,2915,1.0,3.72,,13.09,1.037,75.4,,33.2,5,,,,,,,,,,,,0,0,0,0,0,0,0,0,0,0,0,0,0,0,0,0,,,,,,0.0,,,,,,,
41247,1745695693138,,,,,,,,,,,,,,,,,,,,,,,,,,,,,,,,,,0,0,0,0,0,0,0,0,0,0,0,0,0,0,0,0,,,,,,,,,,,,,
41267,1745695693158,0.0,-135,,-0.06,0.1,0.93,15,-0,0,0.94,1.29,73,2877,0.9,3.72,,13.11,1.036,75.4,,33.2,5,,,,,,,,,,,,0,0,0,0,0,0,0,0,0,0,0,0,0,0,0,0,,,,,,0.0,,,,,,,
41287,1745695693178,,,,,,,,,,,,,,,,,,,,,,,9,7,9,8,0.0,150.0,0.0,0.0,2.54,,,0,0,0,0,0,0,0,0,0,0,0,0,0,0,0,0,,1,,,,,38.991501,-76.937035,13.4,31.8,18,2,1.7
41307,1745695693198,0.0,-135,,-0.05,0.13,0.92,13,-0,1,0.93,1.29,72,3135,0.9,3.63,,13.0,1.095,75.4,,33.9,5,,,,,,,,,,,,0,0,0,0,0,0,0,0,0,0,0,0,0,0,0,0,,,,,,0.0,,,,,,,
41327,1745695693218,,,,,,,,,,,,,,,,,,,,,,,,,,,,,,,,,,0,0,0,0,0,0,0,0,0,0,0,0,0,0,0,0,,,,,,,,,,,,,
41347,1745695693238,0.0,-135,,-0.02,0.09,0.96,11,0,2,0.96,1.29,74,3091,1.0,3.62,,13.0,1.095,75.4,,33.9,5,,,,,,,,,,,,0,0,0,0,0,0,0,0,0,0,0,0,0,0,0,0,,,,,,0.0,,,,,,,
41367,1745695693258,,,,,,,,,,,,,,,,,,,,,,,,,,,,,,,,,,0,0,0,0,0,0,0,0,0,0,0,0,0,0,0,0,,,,,,,,,,,,,
41387,1745695693278,0.0,-135,14.11,-0.01,0.08,0.95,10,0,2,0.96,0.96,100,3091,1.0,3.62,15,12.93,1.01,75.4,81,31.8,5,8,8,8,8,0.0,241.0,0.0,0.0,2.54,0,0.0,0,0,0,0,0,0,0,0,0,0,0,0,0,0,0,0,0,1,0.0,0,-1,0.0,38.991497,-76.937035,13.17,31.8,18,2,1.7
41407,1745695693297,,,,,,,,,,,,,,,,,,,,,,,,,,,,,,,,,,0,0,0,0,0,0,0,0,0,0,0,0,0,0,0,0,,,,,,,,,,,,,
41427,1745695693317,0.0,-135,,-0.02,0.08,0.96,9,1,2,0.96,0.96,100,2815,1.0,3.7,,13.0,0.929,75.4,,31.8,5,,,,,,,,,,,,0,0,0,0,0,0,0,0,0,0,0,0,0,0,0,0,,,,,,0.0,,,,,,,
41447,1745695693337,,,,,,,,,,,,,,,,,,,,,,,,,,,,,,,,,,0,0,0,0,0,0,0,0,0,0,0,0,0,0,0,0,,,,,,,,,,,,,
41467,1745695693357,0.0,-126,,-0.03,0.05,1.0,8,1,1,1.0,1.0,100,2686,1.0,3.69,,13.11,0.896,75.4,,31.8,5,,,,,,,,,,,,0,0,0,0,0,0,0,0,0,0,0,0,0,0,0,0,,,,,,0.0,,,,,,,
41487,1745695693377,,,,,,,,,,,,,,,,,,,,,,,8,12,8,9,0.0,233.0,0.0,0.0,2.54,,,0,0,0,0,0,0,0,0,0,0,0,0,0,0,0,0,,0,,,,,38.991493,-76.937035,13.02,31.8,18,2,1.7
41507,1745695693397,0.0,-122,,-0.04,0.05,0.96,7,1,1,0.97,1.0,96,2634,0.8,3.69,,13.19,0.892,75.4,,31.5,5,,,,,,,,,,,,0,0,0,0,0,0,0,0,0,0,0,0,0,0,0,0,,,,,,0.0,,,,,,,
41527,1745695693417,,,,,,,,,,,,,,,,,,,,,,,,,,,,,,,,,,0,0,0,0,0,0,0,0,0,0,0,0,0,0,0,0,,,,,,,,,,,,,
41547,1745695693437,0.0,-133,,-0.05,0.02,0.97,6,1,1,0.97,1.0,97,2634,0.8,3.68,,13.19,0.892,75.4,,31.5,5,,,,,,,,,,,,0,0,0,0,0,0,0,0,0,0,0,0,0,0,0,0,,,,,,0.0,,,,,,,
41567,1745695693457,,,,,,,,,,,,,,,,,,,,,,,,,,,,,,,,,,0,0,0,0,0,0,0,0,0,0,0,0,0,0,0,0,,,,,,,,,,,,,
41587,1745695693477,0.0,-133,,-0.06,0.02,0.95,5,1,1,0.96,1.0,95,2634,0.8,3.68,,13.21,0.878,75.4,,31.4,5,8,32,8,8,0.0,186.0,0.0,0.0,2.55,,,0,0,0,0,0,0,0,0,0,0,0,0,0,0,0,0,,0,,,,0.0,38.991489,-76.937035,13.02,31.8,18,2,1.7
41607,1745695693493,,,,,,,,,,,,,,,,,,,,,,,,,,,,,,,,,,0,0,0,0,0,0,0,0,0,0,0,0,0,0,0,0,,,,,,,,,,,,,
41627,1745695693513,0.0,-112,,-0.07,-0.0,1.0,4,0,1,1.0,1.0,100,2618,0.8,3.68,,13.23,0.857,75.4,,31.4,5,,,,,,,,,,,,0,0,0,0,0,0,0,0,0,0,0,0,0,0,0,0,,,,,,0.0,,,,,,,
41647,1745695693533,,,,,,,,,,,,,,,,,,,,,,,,,,,,,,,,,,0,0,0,0,0,0,0,0,0,0,0,0,0,0,0,0,,,,,,,,,,,,,
41667,1745695693553,0.0,-122,,-0.07,-0.01,0.98,3,0,1,0.99,1.0,98,2650,0.8,3.69,,13.27,0.839,75.4,,31.4,5,,,,,,,,,,,,0,0,0,0,0,0,0,0,0,0,0,0,0,0,0,0,,,,,,0.0,,,,,,,
41687,1745695693573,,,,,,,,,,,,,,,,,,,,,,,8,8,8,9,0.0,35.0,0.0,0.0,2.54,,,0,0,0,0,0,0,0,0,0,0,0,0,0,0,0,0,,0,,,,,38.991486,-76.937035,12.87,31.8,18,2,1.7
41707,1745695693597,0.0,-88,,-0.1,-0.05,1.02,2,0,1,1.02,1.02,100,2681,0.8,3.7,,13.19,0.83,75.4,,32.0,5,,,,,,,,,,,,0,0,0,0,0,0,0,0,0,0,0,0,0,0,0,0,,,,,,0.0,,,,,,,
41727,1745695693617,,,,,,,,,,,,,,,,,,,,,,,,,,,,,,,,,,0,0,0,0,0,0,0,0,0,0,0,0,0,0,0,0,,,,,,,,,,,,,
41747,1745695693637,0.0,-116,,-0.09,-0.05,1.02,0,-0,1,1.02,1.02,100,2718,0.8,3.7,,13.19,0.83,75.4,,32.0,5,,,,,,,,,,,,0,0,0,0,0,0,0,0,0,0,0,0,0,0,0,0,,,,,,0.0,,,,,,,
41767,1745695693657,,,,,,,,,,,,,,,,,,,,,,,,,,,,,,,,,,0,0,0,0,0,0,0,0,0,0,0,0,0,0,0,0,,,,,,,,,,,,,
41787,1745695693677,0.0,-116,,-0.1,-0.07,0.98,-1,-0,1,0.98,1.02,96,2718,0.8,3.7,,13.2,0.827,75.4,,32.9,5,8,3,8,9,0.0,101.0,0.0,0.0,2.53,,,0,0,0,0,0,0,0,0,0,0,0,0,0,0,0,0,,0,,,,0.0,38.991482,-76.937035,12.77,31.8,18,2,1.7
41807,1745695693695,,,,,,,,,,,,,,,,,,,,,,,,,,,,,,,,,,0,0,0,0,0,0,0,0,0,0,0,0,0,0,0,0,,,,,,,,,,,,,
41827,1745695693715,0.0,-99,,-0.09,-0.1,1.01,-2,-0,0,1.01,1.02,99,2720,0.8,3.71,,13.13,0.828,75.4,,32.9,5,,,,,,,,,,,,0,0,0,0,0,0,0,0,0,0,0,0,0,0,0,0,,,,,,0.0,,,,,,,
41847,1745695693735,,,,,,,,,,,,,,,,,,,,,,,,,,,,,,,,,,0,0,0,0,0,0,0,0,0,0,0,0,0,0,0,0,,,,,,,,,,,,,
41867,1745695693755,0.0,-112,,-0.1,-0.07,0.97,-3,0,0,0.98,1.02,95,2669,0.9,3.7,,13.25,0.833,75.4,,32.9,5,,,,,,,,,,,,0,0,0,0,0,0,0,0,0,0,0,0,0,0,0,0,,,,,,0.0,,,,,,,
41887,1745695693775,,,,,,,,,,,,,,,,,,,,,,,7,43,8,9,0.0,71.0,0.0,0.0,2.53,,,0,0,0,0,0,0,0,0,0,0,0,0,0,0,0,0,,0,,,,,38.991478,-76.937035,12.43,31.8,18,2,1.7
41907,1745695693799,0.0,-109,,-0.09,-0.08,1.01,-4,-0,0,1.02,1.02,99,2580,1.0,3.69,,13.27,0.841,75.4,,31.8,5,,,,,,,,,,,,0,0,0,0,0,0,0,0,0,0,0,0,0,0,0,0,,,,,,0.0,,,,,,,
41927,1745695693819,,,,,,,,,,,,,,,,,,,,,,,,,,,,,,,,,,0,0,0,0,0,0,0,0,0,0,0,0,0,0,0,0,,,,,,,,,,,,,
41947,1745695693839,0.0,-105,,-0.09,-0.08,1.01,-4,-0,0,1.02,1.02,99,2466,1.0,3.68,,13.27,0.841,75.4,,31.8,5,,,,,,,,,,,,0,0,0,0,0,0,0,0,0,0,0,0,0,0,0,0,,,,,,0.0,,,,,,,
41967,1745695693859,,,,,,,,,,,,,,,,,,,,,,,,,,,,,,,,,,0,0,0,0,0,0,0,0,0,0,0,0,0,0,0,0,,,,,,,,,,,,,
41987,1745695693879,0.0,-102,,-0.11,-0.07,1.01,-5,-0,1,1.02,1.02,99,2466,1.0,3.68,,13.31,0.85,75.4,,29.8,5,8,224,8,7,0.0,34.0,0.0,0.0,2.54,,,0,0,0,0,0,0,0,0,0,0,0,0,0,0,0,0,,0,,,,0.0,38.991474,-76.937035,12.21,31.8,18,2,1.7
42007,1745695693899,,,,,,,,,,,,,,,,,,,,,,,,,,,,,,,,,,0,0,0,0,0,0,0,0,0,0,0,0,0,0,0,0,,,,,,,,,,,,,
42027,1745695693919,0.0,-95,,-0.12,-0.08,1.0,-6,-0,1,1.01,1.02,99,2449,0.8,3.66,,13.36,0.855,75.4,,29.8,5,,,,,,,,,,,,0,0,0,0,0,0,0,0,0,0,0,0,0,0,0,0,,,,,,0.0,,,,,,,
42047,1745695693939,,,,,,,,,,,,,,,,,,,,,,,,,,,,,,,,,,0,0,0,0,0,0,0,0,0,0,0,0,0,0,0,0,,,,,,,,,,,,,
42067,1745695693959,0.0,-95,,-0.14,-0.09,0.99,-8,-0,0,1.0,1.02,98,2378,0.8,3.66,,13.41,0.859,75.4,,29.8,5,,,,,,,,,,,,0,0,0,0,0,0,0,0,0,0,0,0,0,0,0,0,,,,,,0.0,,,,,,,
42087,1745695693979,,,,,,,,,,,,,,,,,,,,,,,7,869,7,8,0.0,251.0,0.0,0.0,2.55,,,0,0,0,0,0,0,0,0,0,0,0,0,0,0,0,0,,0,,,,,38.991474,-76.937035,12.19,31.8,18,2,1.7
42107,1745695693993,0.0,-88,,-0.13,-0.1,0.98,-8,-0,0,1.0,1.02,97,2386,0.7,3.67,,13.44,0.862,75.4,,30.3,5,,,,,,,,,,,,0,0,0,0,0,0,0,0,0,0,0,0,0,0,0,0,,,,,,0.0,,,,,,,
42127,1745695694013,,,,,,,,,,,,,,,,,,,,,,,,,,,,,,,,,,0,0,0,0,0,0,0,0,0,0,0,0,0,0,0,0,,,,,,,,,,,,,
42147,1745695694033,0.0,-55,,-0.12,-0.12,1.0,-9,-0,0,1.02,1.02,99,2318,0.7,3.65,,13.44,0.862,75.4,,30.3,5,,,,,,,,,,,,0,0,0,0,0,0,0,0,0,0,0,0,0,0,0,0,,,,,,0.0,,,,,,,
42167,1745695694053,,,,,,,,,,,,,,,,,,,,,,,,,,,,,,,,,,0,0,0,0,0,0,0,0,0,0,0,0,0,0,0,0,,,,,,,,,,,,,
42187,1745695694073,0.0,-88,,-0.13,-0.12,0.99,-10,0,1,1.01,1.02,98,2318,0.7,3.65,,13.52,0.868,75.4,,32.3,5,7,16,7,8,0.0,62.0,0.0,0.0,2.54,,,0,0,0,0,0,0,0,0,0,0,0,0,0,0,0,0,,0,,,,0.0,38.99147,-76.937035,11.84,31.8,18,2,1.7
42207,1745695694099,,,,,,,,,,,,,,,,,,,,,,,,,,,,,,,,,,0,0,0,0,0,0,0,0,0,0,0,0,0,0,0,0,,,,,,,,,,,,,
42227,1745695694119,0.0,-82,,-0.12,-0.13,1.02,-11,0,1,1.04,1.04,100,2567,0.7,3.68,,13.44,0.9,75.4,,32.3,5,,,,,,,,,,,,0,0,0,0,0,0,0,0,0,0,0,0,0,0,0,0,,,,,,0.0,,,,,,,
42247,1745695694139,,,,,,,,,,,,,,,,,,,,,,,,,,,,,,,,,,0,0,0,0,0,0,0,0,0,0,0,0,0,0,0,0,,,,,,,,,,,,,
42267,1745695694159,0.0,-82,,-0.13,-0.1,0.97,-12,-0,0,0.99,1.04,95,2564,0.7,3.69,,13.4,0.966,75.4,,32.3,5,,,,,,,,,,,,0,0,0,0,0,0,0,0,0,0,0,0,0,0,0,0,,,,,,0.0,,,,,,,
42287,1745695694179,,,,,,,,,,,,,,,,,,,,,,,7,869,7,8,0.0,70.0,0.0,0.0,2.54,,,0,0,0,0,0,0,0,0,0,0,0,0,0,0,0,0,,0,,,,,38.991466,-76.937035,11.52,31.8,18,2,1.7
42307,1745695694197,0.0,-78,,-0.12,-0.11,1.0,-13,-0,-0,1.01,1.04,97,2652,0.7,3.7,,13.29,0.945,75.4,,33.7,5,,,,,,,,,,,,0,0,0,0,0,0,0,0,0,0,0,0,0,0,0,0,,,,,,0.0,,,,,,,
42327,1745695694217,,,,,,,,,,,,,,,,,,,,,,,,,,,,,,,,,,0,0,0,0,0,0,0,0,0,0,0,0,0,0,0,0,,,,,,,,,,,,,
42347,1745695694237,0.0,-82,,-0.11,-0.08,0.98,-13,-0,0,0.99,1.04,95,2598,0.7,3.7,,13.29,0.945,75.4,,33.7,5,,,,,,,,,,,,0,0,0,0,0,0,0,0,0,0,0,0,0,0,0,0,,,,,,0.0,,,,,,,
42367,1745695694257,,,,,,,,,,,,,,,,,,,,,,,,,,,,,,,,,,0,0,0,0,0,0,0,0,0,0,0,0,0,0,0,0,,,,,,,,,,,,,
42387,1745695694277,0.0,-78,14.13,-0.11,-0.07,1.0,-14,-0,0,1.01,1.04,97,2598,0.7,3.7,15,13.29,0.904,75.4,81,32.3,5,7,2,7,7,0.0,160.0,0.0,0.0,2.54,0,0.0,0,0,0,0,0,0,0,0,0,0,0,0,0,0,0,0,0,0,0.0,0,-1,0.0,38.991463,-76.937035,11.48,31.8,18,2,1.7
42407,1745695694298,,,,,,,,,,,,,,,,,,,,,,,,,,,,,,,,,,0,0,0,0,0,0,0,0,0,0,0,0,0,0,0,0,,,,,,,,,,,,,
42427,1745695694318,0.0,-65,,-0.13,-0.12,0.98,-15,0,-0,1.0,1.04,96,2496,0.8,3.68,,13.39,0.882,75.4,,32.3,5,,,,,,,,,,,,0,0,0,0,0,0,0,0,0,0,0,0,0,0,0,0,,,,,,0.0,,,,,,,
42447,1745695694338,,,,,,,,,,,,,,,,,,,,,,,,,,,,,,,,,,0,0,0,0,0,0,0,0,0,0,0,0,0,0,0,0,,,,,,,,,,,,,
42467,1745695694358,0.0,-61,,-0.13,-0.11,0.97,-16,1,0,0.99,1.04,95,2335,1.0,3.67,,13.47,0.877,75.4,,32.3,5,,,,,,,,,,,,0,0,0,0,0,0,0,0,0,0,0,0,0,0,0,0,,,,,,0.0,,,,,,,
42487,1745695694378,,,,,,,,,,,,,,,,,,,,,,,7,15,7,7,0.0,62.0,0.0,0.0,2.54,,,0,0,0,0,0,0,0,0,0,0,0,0,0,0,0,0,,0,,,,,38.991459,-76.937035,11.06,31.8,18,2,1.7
42507,1745695694398,0.0,-65,,-0.12,-0.13,0.98,-16,2,0,1.0,1.04,96,2263,0.9,3.65,,13.53,0.878,75.4,,29.9,5,,,,,,,,,,,,0,0,0,0,0,0,0,0,0,0,0,0,0,0,0,0,,,,,,0.0,,,,,,,
42527,1745695694418,,,,,,,,,,,,,,,,,,,,,,,,,,,,,,,,,,0,0,0,0,0,0,0,0,0,0,0,0,0,0,0,0,,,,,,,,,,,,,
42547,1745695694438,0.0,-68,,-0.12,-0.14,0.99,-17,2,0,1.01,1.04,97,2206,0.7,3.65,,13.53,0.878,75.4,,29.9,5,,,,,,,,,,,,0,0,0,0,0,0,0,0,0,0,0,0,0,0,0,0,,,,,,0.0,,,,,,,
42567,1745695694458,,,,,,,,,,,,,,,,,,,,,,,,,,,,,,,,,,0,0,0,0,0,0,0,0,0,0,0,0,0,0,0,0,,,,,,,,,,,,,
42587,1745695694478,0.0,-48,,-0.13,-0.12,1.02,-18,2,1,1.03,1.04,100,2206,0.7,3.65,,13.65,0.883,75.4,,29.3,5,7,498,7,8,0.0,123.0,0.0,0.0,2.54,,,0,0,0,0,0,0,0,0,0,0,0,0,0,0,0,0,,0,,,,0.0,38.991455,-76.937035,10.95,31.8,18,2,1.7
42607,1745695694498,,,,,,,,,,,,,,,,,,,,,,,,,,,,,,,,,,0,0,0,0,0,0,0,0,0,0,0,0,0,0,0,0,,,,,,,,,,,,,
42627,1745695694518,0.0,-61,,-0.13,-0.13,1.02,-19,2,1,1.03,1.04,99,2170,0.7,3.63,,13.76,0.887,75.4,,29.3,5,,,,,,,,,,,,0,0,0,0,0,0,0,0,0,0,0,0,0,0,0,0,,,,,,0.0,,,,,,,
42647,1745695694538,,,,,,,,,,,,,,,,,,,,,,,,,,,,,,,,,,0,0,0,0,0,0,0,0,0,0,0,0,0,0,0,0,,,,,,,,,,,,,
42667,1745695694558,0.0,-61,,-0.14,-0.11,1.01,-19,2,0,1.03,1.04,99,2202,0.8,3.65,,13.69,0.894,75.4,,29.3,5,,,,,,,,,,,,0,0,0,0,0,0,0,0,0,0,0,0,0,0,0,0,,,,,,0.0,,,,,,,
42687,1745695694578,,,,,,,,,,,,,,,,,,,,,,,7,42,6,8,0.0,184.0,0.0,0.0,2.54,,,0,0,0,0,0,0,0,0,0,0,0,0,0,0,0,0,,0,,,,,38.991455,-76.937035,10.95,31.8,18,2,1.7
42707,1745695694596,0.0,-61,,-0.14,-0.11,1.0,-20,3,1,1.02,1.04,98,2126,0.9,3.63,,13.8,0.895,75.4,,29.4,5,,,,,,,,,,,,0,0,0,0,0,0,0,0,0,0,0,0,0,0,0,0,,,,,,0.0,,,,,,,
42727,1745695694616,,,,,,,,,,,,,,,,,,,,,,,,,,,,,,,,,,0,0,0,0,0,0,0,0,0,0,0,0,0,0,0,0,,,,,,,,,,,,,
42747,1745695694636,0.0,-61,,-0.13,-0.11,1.02,-20,3,1,1.03,1.04,99,2163,0.9,3.63,,13.8,0.895,75.4,,29.4,5,,,,,,,,,,,,0,0,0,0,0,0,0,0,0,0,0,0,0,0,0,0,,,,,,0.0,,,,,,,
42767,1745695694656,,,,,,,,,,,,,,,,,,,,,,,,,,,,,,,,,,0,0,0,0,0,0,0,0,0,0,0,0,0,0,0,0,,,,,,,,,,,,,
42787,1745695694676,0.0,-51,,-0.12,-0.11,1.01,-21,3,1,1.02,1.04,98,2163,0.9,3.63,,13.77,0.899,75.4,,30.5,5,6,8,6,7,0.0,247.0,0.0,0.0,2.54,,,0,0,0,0,0,0,0,0,0,0,0,0,0,0,0,0,,0,,,,0.0,38.991455,-76.937035,10.43,31.8,18,2,1.7
42807,1745695694696,,,,,,,,,,,,,,,,,,,,,,,,,,,,,,,,,,0,0,0,0,0,0,0,0,0,0,0,0,0,0,0,0,,,,,,,,,,,,,
42827,1745695694716,0.0,-55,,-0.13,-0.12,1.01,-21,3,1,1.03,1.04,99,2293,1.0,3.63,,13.69,0.906,75.4,,30.5,5,,,,,,,,,,,,0,0,0,0,0,0,0,0,0,0,0,0,0,0,0,0,,,,,,0.0,,,,,,,
42847,1745695694736,,,,,,,,,,,,,,,,,,,,,,,,,,,,,,,,,,0,0,0,0,0,0,0,0,0,0,0,0,0,0,0,0,,,,,,,,,,,,,
42867,1745695694756,0.0,-61,,-0.14,-0.13,1.02,-21,3,1,1.04,1.04,100,2480,1.1,3.68,,13.61,0.93,75.4,,30.5,5,,,,,,,,,,,,0,0,0,0,0,0,0,0,0,0,0,0,0,0,0,0,,,,,,0.0,,,,,,,
42887,1745695694776,,,,,,,,,,,,,,,,,,,,,,,6,7,6,7,0.0,238.0,0.0,0.0,2.54,,,0,0,0,0,0,0,0,0,0,0,0,0,0,0,0,0,,0,,,,,38.991451,-76.937035,10.11,31.9,18,2,1.7
42907,1745695694798,0.0,-58,,-0.14,-0.12,1.01,-21,2,1,1.03,1.04,99,2495,1.2,3.69,,13.55,0.935,75.4,,33.0,5,,,,,,,,,,,,0,0,0,0,0,0,0,0,0,0,0,0,0,0,0,0,,,,,,0.0,,,,,,,
42927,1745695694818,,,,,,,,,,,,,,,,,,,,,,,,,,,,,,,,,,0,0,0,0,0,0,0,0,0,0,0,0,0,0,0,0,,,,,,,,,,,,,
42947,1745695694838,0.0,-61,,-0.12,-0.12,0.99,-21,2,0,1.0,1.04,96,2444,1.3,3.67,,13.55,0.935,75.4,,33.0,5,,,,,,,,,,,,0,0,0,0,0,0,0,0,0,0,0,0,0,0,0,0,,,,,,0.0,,,,,,,
42967,1745695694858,,,,,,,,,,,,,,,,,,,,,,,,,,,,,,,,,,0,0,0,0,0,0,0,0,0,0,0,0,0,0,0,0,,,,,,,,,,,,,
42987,1745695694878,0.0,-65,,-0.1,-0.13,1.0,-22,2,0,1.01,1.04,97,2444,1.3,3.67,,13.59,0.925,75.4,,31.2,5,6,7,6,7,0.0,247.0,0.0,0.0,2.54,,,0,0,0,0,0,0,0,0,0,0,0,0,0,0,0,0,,0,,,,0.0,38.991447,-76.937035,10.08,31.9,18,2,1.7
43007,1745695694898,,,,,,,,,,,,,,,,,,,,,,,,,,,,,,,,,,0,0,0,0,0,0,0,0,0,0,0,0,0,0,0,0,,,,,,,,,,,,,
43027,1745695694918,0.0,-24,,-0.1,-0.12,1.0,-22,2,-0,1.01,1.04,97,2257,1.4,3.67,,13.61,0.916,75.4,,31.2,5,,,,,,,,,,,,0,0,0,0,0,0,0,0,0,0,0,0,0,0,0,0,,,,,,0.0,,,,,,,
43047,1745695694938,,,,,,,,,,,,,,,,,,,,,,,,,,,,,,,,,,0,0,0,0,0,0,0,0,0,0,0,0,0,0,0,0,,,,,,,,,,,,,
43067,1745695694958,0.0,-55,,-0.11,-0.13,1.0,-22,1,-0,1.01,1.04,97,2161,1.2,3.65,,13.76,0.915,75.4,,31.2,5,,,,,,,,,,,,0,0,0,0,0,0,0,0,0,0,0,0,0,0,0,0,,,,,,0.0,,,,,,,
43087,1745695694978,,,,,,,,,,,,,,,,,,,,,,,6,7,6,7,0.0,165.0,0.0,0.0,2.54,,,0,0,0,0,0,0,0,0,0,0,0,0,0,0,0,0,,0,,,,,38.991444,-76.937035,10.01,31.9,18,2,1.7
43107,1745695694992,0.0,-41,,-0.1,-0.12,1.01,-23,1,0,1.02,1.04,98,2077,1.0,3.63,,13.77,0.916,75.4,,29.1,5,,,,,,,,,,,,0,0,0,0,0,0,0,0,0,0,0,0,0,0,0,0,,,,,,0.0,,,,,,,
43127,1745695695012,,,,,,,,,,,,,,,,,,,,,,,,,,,,,,,,,,0,0,0,0,0,0,0,0,0,0,0,0,0,0,0,0,,,,,,,,,,,,,
43147,1745695695032,0.0,-55,,-0.1,-0.15,1.02,-23,1,0,1.03,1.04,99,2048,1.1,3.62,,13.77,0.916,75.4,,29.1,5,,,,,,,,,,,,0,0,0,0,0,0,0,0,0,0,0,0,0,0,0,0,,,,,,0.0,,,,,,,
43167,1745695695052,,,,,,,,,,,,,,,,,,,,,,,,,,,,,,,,,,0,0,0,0,0,0,0,0,0,0,0,0,0,0,0,0,,,,,,,,,,,,,
43187,1745695695072,0.0,-61,,-0.11,-0.13,1.01,-23,1,0,1.02,1.04,98,2048,1.1,3.62,,13.9,0.928,75.4,,29.4,5,6,4,6,7,0.0,219.0,0.0,0.0,2.53,,,0,0,0,0,0,0,0,0,0,0,0,0,0,0,0,0,,0,,,,0.0,38.991444,-76.937042,10.12,31.9,18,2,1.7
43207,1745695695096,,,,,,,,,,,,,,,,,,,,,,,,,,,,,,,,,,0,0,0,0,0,0,0,0,0,0,0,0,0,0,0,0,,,,,,,,,,,,,
43227,1745695695116,0.0,-48,,-0.1,-0.13,0.99,-24,0,0,1.01,1.04,97,2011,1.1,3.62,,13.84,0.935,75.4,,29.4,5,,,,,,,,,,,,0,0,0,0,0,0,0,0,0,0,0,0,0,0,0,0,,,,,,0.0,,,,,,,
43247,1745695695136,,,,,,,,,,,,,,,,,,,,,,,,,,,,,,,,,,0,0,0,0,0,0,0,0,0,0,0,0,0,0,0,0,,,,,,,,,,,,,
43267,1745695695156,0.0,-48,,-0.1,-0.14,0.99,-24,0,0,1.0,1.04,96,2015,1.1,3.61,,13.91,0.932,75.4,,29.4,5,,,,,,,,,,,,0,0,0,0,0,0,0,0,0,0,0,0,0,0,0,0,,,,,,0.0,,,,,,,
43287,1745695695176,,,,,,,,,,,,,,,,,,,,,,,6,7,6,8,0.0,247.0,0.0,0.0,2.54,,,0,0,0,0,0,0,0,0,0,0,0,0,0,0,0,0,,0,,,,,38.99144,-76.937042,10.06,31.9,18,2,1.7
43307,1745695695198,0.0,-44,,-0.1,-0.1,0.99,-24,0,0,1.0,1.04,96,2115,1.1,3.65,,13.82,0.93,75.4,,31.4,5,,,,,,,,,,,,0,0,0,0,0,0,0,0,0,0,0,0,0,0,0,0,,,,,,0.0,,,,,,,
43327,1745695695218,,,,,,,,,,,,,,,,,,,,,,,,,,,,,,,,,,0,0,0,0,0,0,0,0,0,0,0,0,0,0,0,0,,,,,,,,,,,,,
43347,1745695695238,0.0,-48,,-0.08,-0.08,1.0,-24,0,1,1.01,1.04,97,2266,1.1,3.64,,13.82,0.93,75.4,,31.4,5,,,,,,,,,,,,0,0,0,0,0,0,0,0,0,0,0,0,0,0,0,0,,,,,,0.0,,,,,,,
43367,1745695695258,,,,,,,,,,,,,,,,,,,,,,,,,,,,,,,,,,0,0,0,0,0,0,0,0,0,0,0,0,0,0,0,0,,,,,,,,,,,,,
43387,1745695695278,0.0,-58,14.14,-0.08,-0.08,1.0,-24,0,1,1.01,1.04,97,2266,1.1,3.64,15,13.8,0.933,75.4,81,32.1,5,6,7,6,7,0.0,0.0,0.0,0.0,2.54,0,0.0,0,0,0,0,0,0,0,0,0,0,0,0,0,0,0,0,0,0,0.0,0,-1,0.0,38.991436,-76.937042,9.76,31.9,18,2,1.7
43407,1745695695299,,,,,,,,,,,,,,,,,,,,,,,,,,,,,,,,,,0,0,0,0,0,0,0,0,0,0,0,0,0,0,0,0,,,,,,,,,,,,,
43427,1745695695319,0.0,-38,,-0.08,-0.08,1.0,-24,0,1,1.01,1.04,97,2229,1.0,3.66,,13.75,0.927,75.4,,32.1,5,,,,,,,,,,,,0,0,0,0,0,0,0,0,0,0,0,0,0,0,0,0,,,,,,0.0,,,,,,,
43447,1745695695339,,,,,,,,,,,,,,,,,,,,,,,,,,,,,,,,,,0,0,0,0,0,0,0,0,0,0,0,0,0,0,0,0,,,,,,,,,,,,,
43467,1745695695359,0.0,-17,,-0.09,-0.07,1.0,-24,0,1,1.01,1.04,97,2170,1.2,3.64,,13.75,0.927,75.4,,32.1,5,,,,,,,,,,,,0,0,0,0,0,0,0,0,0,0,0,0,0,0,0,0,,,,,,0.0,,,,,,,
43487,1745695695379,,,,,,,,,,,,,,,,,,,,,,,6,7,6,7,0.0,208.0,0.0,0.0,2.53,,,0,0,0,0,0,0,0,0,0,0,0,0,0,0,0,0,,0,,,,,38.991436,-76.937042,9.46,31.9,18,2,1.7
43507,1745695695397,0.0,-38,,-0.09,-0.07,1.01,-24,0,1,1.02,1.04,98,1964,1.4,3.63,,13.84,0.933,75.4,,29.3,5,,,,,,,,,,,,0,0,0,0,0,0,0,0,0,0,0,0,0,0,0,0,,,,,,0.0,,,,,,,
43527,1745695695417,,,,,,,,,,,,,,,,,,,,,,,,,,,,,,,,,,0,0,0,0,0,0,0,0,0,0,0,0,0,0,0,0,,,,,,,,,,,,,
43547,1745695695437,0.0,-41,,-0.1,-0.07,1.02,-24,0,1,1.03,1.04,99,1863,1.2,3.62,,13.84,0.933,75.4,,29.3,5,,,,,,,,,,,,0,0,0,0,0,0,0,0,0,0,0,0,0,0,0,0,,,,,,0.0,,,,,,,
43567,1745695695457,,,,,,,,,,,,,,,,,,,,,,,,,,,,,,,,,,0,0,0,0,0,0,0,0,0,0,0,0,0,0,0,0,,,,,,,,,,,,,
43587,1745695695477,0.0,-24,,-0.11,-0.08,1.01,-24,0,1,1.02,1.04,98,1863,1.2,3.62,,13.94,0.941,75.4,,28.8,5,6,7,5,7,0.0,157.0,0.0,0.0,2.54,,,0,0,0,0,0,0,0,0,0,0,0,0,0,0,0,0,,0,,,,0.0,38.991432,-76.93705,9.65,31.9,18,2,1.7
43607,1745695695495,,,,,,,,,,,,,,,,,,,,,,,,,,,,,,,,,,0,0,0,0,0,0,0,0,0,0,0,0,0,0,0,0,,,,,,,,,,,,,
43627,1745695695515,0.0,-48,,-0.11,-0.07,1.02,-24,0,1,1.03,1.04,99,1834,1.0,3.62,,14.0,0.965,75.4,,28.8,5,,,,,,,,,,,,0,0,0,0,0,0,0,0,0,0,0,0,0,0,0,0,,,,,,0.0,,,,,,,
43647,1745695695535,,,,,,,,,,,,,,,,,,,,,,,,,,,,,,,,,,0,0,0,0,0,0,0,0,0,0,0,0,0,0,0,0,,,,,,,,,,,,,
43667,1745695695555,0.0,-44,,-0.12,-0.07,1.01,-24,0,1,1.02,1.04,98,1843,1.1,3.62,,14.04,0.993,75.4,,28.8,5,,,,,,,,,,,,0,0,0,0,0,0,0,0,0,0,0,0,0,0,0,0,,,,,,0.0,,,,,,,
43687,1745695695575,,,,,,,,,,,,,,,,,,,,,,,6,7,5,7,0.0,0.0,0.0,0.0,2.54,,,0,0,0,0,0,0,0,0,0,0,0,0,0,0,0,0,,0,,,,,38.991432,-76.93705,9.46,32.0,18,2,1.7
43707,1745695695595,0.0,-34,,-0.12,-0.07,1.02,-25,0,1,1.03,1.04,99,1853,1.0,3.63,,14.04,1.007,75.4,,30.0,5,,,,,,,,,,,,0,0,0,0,0,0,0,0,0,0,0,0,0,0,0,0,,,,,,0.0,,,,,,,
43727,1745695695615,,,,,,,,,,,,,,,,,,,,,,,,,,,,,,,,,,0,0,0,0,0,0,0,0,0,0,0,0,0,0,0,0,,,,,,,,,,,,,
43747,1745695695635,0.0,-27,,-0.13,-0.07,1.0,-25,0,1,1.01,1.04,97,1841,1.0,3.62,,14.04,1.007,75.4,,30.0,5,,,,,,,,,,,,0,0,0,0,0,0,0,0,0,0,0,0,0,0,0,0,,,,,,0.0,,,,,,,
43767,1745695695655,,,,,,,,,,,,,,,,,,,,,,,,,,,,,,,,,,0,0,0,0,0,0,0,0,0,0,0,0,0,0,0,0,,,,,,,,,,,,,
43787,1745695695675,0.0,-44,,-0.13,-0.08,1.01,-24,0,1,1.02,1.04,98,1841,1.0,3.62,,14.07,1.013,75.4,,31.4,5,5,7,5,7,0.0,0.0,0.0,0.0,2.54,,,0,0,0,0,0,0,0,0,0,0,0,0,0,0,0,0,,0,,,,0.0,38.991432,-76.93705,9.27,32.0,18,2,1.7
43807,1745695695695,,,,,,,,,,,,,,,,,,,,,,,,,,,,,,,,,,0,0,0,0,0,0,0,0,0,0,0,0,0,0,0,0,,,,,,,,,,,,,
43827,1745695695715,0.0,-44,,-0.14,-0.08,1.01,-24,0,1,1.02,1.04,98,1943,1.0,3.62,,13.96,1.012,75.4,,31.4,5,,,,,,,,,,,,0,0,0,0,0,0,0,0,0,0,0,0,0,0,0,0,,,,,,0.0,,,,,,,
43847,1745695695735,,,,,,,,,,,,,,,,,,,,,,,,,,,,,,,,,,0,0,0,0,0,0,0,0,0,0,0,0,0,0,0,0,,,,,,,,,,,,,
43867,1745695695755,0.0,-38,,-0.15,-0.06,1.0,-24,0,0,1.01,1.04,97,1956,1.0,3.62,,13.91,1.014,75.4,,31.4,5,,,,,,,,,,,,0,0,0,0,0,0,0,0,0,0,0,0,0,0,0,0,,,,,,0.0,,,,,,,
43887,1745695695775,,,,,,,,,,,,,,,,,,,,,,,5,7,5,6,0.0,0.0,0.0,0.0,2.53,,,0,0,0,0,0,0,0,0,0,0,0,0,0,0,0,0,,0,,,,,38.991428,-76.93705,8.97,32.0,18,2,1.7
43907,1745695695797,0.0,-14,,-0.15,-0.08,0.99,-24,0,0,1.01,1.04,97,2100,0.9,3.64,,13.92,1.011,75.4,,32.2,5,,,,,,,,,,,,0,0,0,0,0,0,0,0,0,0,0,0,0,0,0,0,,,,,,0.0,,,,,,,
43927,1745695695817,,,,,,,,,,,,,,,,,,,,,,,,,,,,,,,,,,0,0,0,0,0,0,0,0,0,0,0,0,0,0,0,0,,,,,,,,,,,,,
43947,1745695695837,0.0,-34,,-0.13,-0.07,1.0,-24,0,1,1.01,1.04,97,2183,1.1,3.64,,13.92,1.011,75.4,,32.2,5,,,,,,,,,,,,0,0,0,0,0,0,0,0,0,0,0,0,0,0,0,0,,,,,,0.0,,,,,,,
43967,1745695695857,,,,,,,,,,,,,,,,,,,,,,,,,,,,,,,,,,0,0,0,0,0,0,0,0,0,0,0,0,0,0,0,0,,,,,,,,,,,,,
43987,1745695695877,0.0,-51,,-0.09,-0.08,1.01,-24,0,1,1.02,1.04,98,2183,1.1,3.64,,13.84,1.006,75.4,,32.4,5,5,7,5,7,0.0,0.0,0.0,0.0,2.53,,,0,0,0,0,0,0,0,0,0,0,0,0,0,0,0,0,,0,,,,0.0,38.991428,-76.937058,8.56,32.0,18,2,1.7
44007,1745695695899,,,,,,,,,,,,,,,,,,,,,,,,,,,,,,,,,,0,0,0,0,0,0,0,0,0,0,0,0,0,0,0,0,,,,,,,,,,,,,
44027,1745695695919,0.0,-14,,-0.09,-0.1,0.99,-23,0,0,1.0,1.04,96,2165,1.2,3.66,,13.91,0.996,75.4,,32.4,5,,,,,,,,,,,,0,0,0,0,0,0,0,0,0,0,0,0,0,0,0,0,,,,,,0.0,,,,,,,
44047,1745695695939,,,,,,,,,,,,,,,,,,,,,,,,,,,,,,,,,,0,0,0,0,0,0,0,0,0,0,0,0,0,0,0,0,,,,,,,,,,,,,
44067,1745695695959,0.0,-27,,-0.09,-0.1,0.99,-23,1,0,1.0,1.04,96,1985,1.3,3.63,,13.88,0.992,75.4,,32.4,5,,,,,,,,,,,,0,0,0,0,0,0,0,0,0,0,0,0,0,0,0,0,,,,,,0.0,,,,,,,
44087,1745695695979,,,,,,,,,,,,,,,,,,,,,,,5,6,5,6,0.0,0.0,0.0,0.0,2.53,,,0,0,0,0,0,0,0,0,0,0,0,0,0,0,0,0,,0,,,,,38.991425,-76.937058,8.5,32.0,18,2,1.7
44107,1745695695991,0.0,-24,,-0.08,-0.11,0.99,-23,1,-0,1.0,1.04,96,1933,1.1,3.62,,13.95,0.993,75.4,,29.4,5,,,,,,,,,,,,0,0,0,0,0,0,0,0,0,0,0,0,0,0,0,0,,,,,,0.0,,,,,,,
44127,1745695696011,,,,,,,,,,,,,,,,,,,,,,,,,,,,,,,,,,0,0,0,0,0,0,0,0,0,0,0,0,0,0,0,0,,,,,,,,,,,,,
44147,1745695696031,0.0,-38,,-0.08,-0.11,1.0,-23,1,-0,1.01,1.04,97,1753,1.0,3.62,,13.95,0.993,75.4,,29.4,5,,,,,,,,,,,,0,0,0,0,0,0,0,0,0,0,0,0,0,0,0,0,,,,,,0.0,,,,,,,
44167,1745695696051,,,,,,,,,,,,,,,,,,,,,,,,,,,,,,,,,,0,0,0,0,0,0,0,0,0,0,0,0,0,0,0,0,,,,,,,,,,,,,
44187,1745695696071,0.0,-41,,-0.08,-0.09,0.99,-23,1,-0,1.0,1.04,96,1753,1.0,3.62,,13.96,1.009,75.4,,29.2,5,5,7,5,7,0.0,0.0,0.0,0.0,2.54,,,0,0,0,0,0,0,0,0,0,0,0,0,0,0,0,0,,0,,,,0.0,38.991425,-76.937058,8.71,32.0,18,2,1.7
44207,1745695696098,,,,,,,,,,,,,,,,,,,,,,,,,,,,,,,,,,0,0,0,0,0,0,0,0,0,0,0,0,0,0,0,0,,,,,,,,,,,,,
44227,1745695696118,0.0,-44,,-0.07,-0.1,1.01,-23,1,-0,1.02,1.04,98,1779,1.0,3.63,,13.99,1.017,75.4,,29.2,5,,,,,,,,,,,,0,0,0,0,0,0,0,0,0,0,0,0,0,0,0,0,,,,,,0.0,,,,,,,
44247,1745695696138,,,,,,,,,,,,,,,,,,,,,,,,,,,,,,,,,,0,0,0,0,0,0,0,0,0,0,0,0,0,0,0,0,,,,,,,,,,,,,
44267,1745695696158,0.0,-41,,-0.08,-0.1,1.02,-23,1,-1,1.03,1.04,99,1715,1.0,3.63,,14.04,1.025,75.4,,29.2,5,,,,,,,,,,,,0,0,0,0,0,0,0,0,0,0,0,0,0,0,0,0,,,,,,0.0,,,,,,,
44287,1745695696178,,,,,,,,,,,,,,,,,,,,,,,5,6,5,6,0.0,54.0,0.0,0.0,2.54,,,0,0,0,0,0,0,0,0,0,0,0,0,0,0,0,0,,0,,,,,38.991421,-76.937065,8.62,32.0,18,2,1.7
44307,1745695696197,0.0,-34,,-0.09,-0.08,1.01,-23,1,-1,1.02,1.04,98,1714,1.1,3.63,,14.04,1.039,75.4,,28.8,5,,,,,,,,,,,,0,0,0,0,0,0,0,0,0,0,0,0,0,0,0,0,,,,,,0.0,,,,,,,
44327,1745695696217,,,,,,,,,,,,,,,,,,,,,,,,,,,,,,,,,,0,0,0,0,0,0,0,0,0,0,0,0,0,0,0,0,,,,,,,,,,,,,
44347,1745695696237,0.0,-14,,-0.08,-0.1,1.02,-22,2,-0,1.03,1.04,99,1810,1.1,3.63,,14.04,1.039,75.4,,28.8,5,,,,,,,,,,,,0,0,0,0,0,0,0,0,0,0,0,0,0,0,0,0,,,,,,0.0,,,,,,,
44367,1745695696257,,,,,,,,,,,,,,,,,,,,,,,,,,,,,,,,,,0,0,0,0,0,0,0,0,0,0,0,0,0,0,0,0,,,,,,,,,,,,,
44387,1745695696277,0.0,-38,14.12,-0.1,-0.09,1.03,-22,1,-1,1.04,1.04,100,1810,1.1,3.63,15,14.04,1.05,75.4,83,29.5,5,5,6,5,6,0.0,0.0,0.0,0.0,2.53,0,0.0,0,0,0,0,0,0,0,0,0,0,0,0,0,0,0,0,0,0,0.0,0,-1,0.0,38.991421,-76.937065,8.5,32.1,18,2,1.7
44407,1745695696298,,,,,,,,,,,,,,,,,,,,,,,,,,,,,,,,,,0,0,0,0,0,0,0,0,0,0,0,0,0,0,0,0,,,,,,,,,,,,,
44427,1745695696318,0.0,-31,,-0.09,-0.08,1.03,-22,1,-1,1.03,1.04,99,1766,1.1,3.63,,14.02,1.048,75.4,,29.5,5,,,,,,,,,,,,0,0,0,0,0,0,0,0,0,0,0,0,0,0,0,0,,,,,,0.0,,,,,,,
44447,1745695696338,,,,,,,,,,,,,,,,,,,,,,,,,,,,,,,,,,0,0,0,0,0,0,0,0,0,0,0,0,0,0,0,0,,,,,,,,,,,,,
44467,1745695696358,0.0,-38,,-0.09,-0.04,1.02,-22,1,-0,1.03,1.04,98,1928,1.1,3.62,,13.96,1.043,75.4,,29.5,5,,,,,,,,,,,,0,0,0,0,0,0,0,0,0,0,0,0,0,0,0,0,,,,,,0.0,,,,,,,
44487,1745695696378,,,,,,,,,,,,,,,,,,,,,,,5,6,5,6,0.0,0.0,0.0,0.0,2.53,,,0,0,0,0,0,0,0,0,0,0,0,0,0,0,0,0,,0,,,,,38.991421,-76.937065,8.15,32.1,18,2,1.7
44507,1745695696398,0.0,-34,,-0.08,-0.04,1.02,-22,1,-0,1.02,1.04,98,1872,1.3,3.62,,13.99,1.042,75.4,,31.1,5,,,,,,,,,,,,0,0,0,0,0,0,0,0,0,0,0,0,0,0,0,0,,,,,,0.0,,,,,,,
44527,1745695696418,,,,,,,,,,,,,,,,,,,,,,,,,,,,,,,,,,0,0,0,0,0,0,0,0,0,0,0,0,0,0,0,0,,,,,,,,,,,,,
44547,1745695696438,0.0,-41,,-0.08,-0.04,1.03,-22,1,-0,1.03,1.04,99,1812,1.3,3.63,,13.99,1.042,75.4,,31.1,5,,,,,,,,,,,,0,0,0,0,0,0,0,0,0,0,0,0,0,0,0,0,,,,,,0.0,,,,,,,
44567,1745695696458,,,,,,,,,,,,,,,,,,,,,,,,,,,,,,,,,,0,0,0,0,0,0,0,0,0,0,0,0,0,0,0,0,,,,,,,,,,,,,
44587,1745695696478,0.0,-27,,-0.09,-0.03,1.01,-22,1,-0,1.01,1.04,97,1812,1.3,3.63,,14.03,1.04,75.4,,29.0,5,5,6,5,6,0.0,0.0,0.0,0.0,2.53,,,0,0,0,0,0,0,0,0,0,0,0,0,0,0,0,0,,0,,,,0.0,38.991417,-76.937073,8.15,32.1,18,2,1.7
44607,1745695696496,,,,,,,,,,,,,,,,,,,,,,,,,,,,,,,,,,0,0,0,0,0,0,0,0,0,0,0,0,0,0,0,0,,,,,,,,,,,,,
44627,1745695696516,0.0,-38,,-0.08,-0.04,1.0,-22,1,0,1.0,1.04,96,1755,1.2,3.63,,14.06,1.036,75.4,,29.0,5,,,,,,,,,,,,0,0,0,0,0,0,0,0,0,0,0,0,0,0,0,0,,,,,,0.0,,,,,,,
44647,1745695696536,,,,,,,,,,,,,,,,,,,,,,,,,,,,,,,,,,0,0,0,0,0,0,0,0,0,0,0,0,0,0,0,0,,,,,,,,,,,,,
44667,1745695696556,0.0,-38,,-0.07,-0.06,1.01,-21,1,0,1.01,1.04,97,1620,1.1,3.63,,14.18,1.034,75.4,,29.0,5,,,,,,,,,,,,0,0,0,0,0,0,0,0,0,0,0,0,0,0,0,0,,,,,,0.0,,,,,,,
44687,1745695696576,,,,,,,,,,,,,,,,,,,,,,,5,6,5,6,0.0,0.0,0.0,0.0,2.54,,,0,0,0,0,0,0,0,0,0,0,0,0,0,0,0,0,,0,,,,,38.991417,-76.937073,8.04,32.1,18,2,1.7
44707,1745695696596,0.0,-24,,-0.07,-0.03,1.02,-21,1,0,1.02,1.04,98,1680,0.9,3.63,,14.14,1.049,75.4,,29.5,5,,,,,,,,,,,,0,0,0,0,0,0,0,0,0,0,0,0,0,0,0,0,,,,,,0.0,,,,,,,
44727,1745695696616,,,,,,,,,,,,,,,,,,,,,,,,,,,,,,,,,,0,0,0,0,0,0,0,0,0,0,0,0,0,0,0,0,,,,,,,,,,,,,
44747,1745695696636,0.0,-31,,-0.09,-0.03,1.03,-21,1,-0,1.03,1.04,99,1719,1.0,3.63,,14.14,1.049,75.4,,29.5,5,,,,,,,,,,,,0,0,0,0,0,0,0,0,0,0,0,0,0,0,0,0,,,,,,0.0,,,,,,,
44767,1745695696656,,,,,,,,,,,,,,,,,,,,,,,,,,,,,,,,,,0,0,0,0,0,0,0,0,0,0,0,0,0,0,0,0,,,,,,,,,,,,,
44787,1745695696676,0.0,-48,,-0.09,-0.04,1.01,-21,1,-0,1.01,1.04,97,1719,1.0,3.63,,14.08,1.061,75.4,,31.0,5,5,6,5,6,0.0,0.0,0.0,0.0,2.54,,,0,0,0,0,0,0,0,0,0,0,0,0,0,0,0,0,,0,,,,0.0,38.991417,-76.937073,8.01,32.1,18,2,1.7
44807,1745695696696,,,,,,,,,,,,,,,,,,,,,,,,,,,,,,,,,,0,0,0,0,0,0,0,0,0,0,0,0,0,0,0,0,,,,,,,,,,,,,
44827,1745695696716,0.0,-38,,-0.07,-0.04,1.02,-21,0,-1,1.03,1.04,99,1792,1.0,3.63,,14.07,1.065,75.4,,31.0,5,,,,,,,,,,,,0,0,0,0,0,0,0,0,0,0,0,0,0,0,0,0,,,,,,0.0,,,,,,,
44847,1745695696736,,,,,,,,,,,,,,,,,,,,,,,,,,,,,,,,,,0,0,0,0,0,0,0,0,0,0,0,0,0,0,0,0,,,,,,,,,,,,,
44867,1745695696756,0.0,-44,,-0.09,-0.04,1.04,-20,0,-1,1.05,1.05,100,1758,0.9,3.63,,14.03,1.075,75.4,,31.0,5,,,,,,,,,,,,0,0,0,0,0,0,0,0,0,0,0,0,0,0,0,0,,,,,,0.0,,,,,,,
44887,1745695696776,,,,,,,,,,,,,,,,,,,,,,,5,6,5,6,0.0,0.0,0.0,0.0,2.53,,,0,0,0,0,0,0,0,0,0,0,0,0,0,0,0,0,,0,,,,,38.991413,-76.937073,8.1,32.1,18,2,1.7
44907,1745695696796,0.0,-31,,-0.1,-0.02,1.02,-20,-0,-1,1.02,1.02,100,1661,1.0,3.63,,14.12,1.062,75.4,,29.3,5,,,,,,,,,,,,0,0,0,0,0,0,0,0,0,0,0,0,0,0,0,0,,,,,,0.0,,,,,,,
44927,1745695696816,,,,,,,,,,,,,,,,,,,,,,,,,,,,,,,,,,0,0,0,0,0,0,0,0,0,0,0,0,0,0,0,0,,,,,,,,,,,,,
44947,1745695696836,0.0,-41,,-0.1,-0.03,1.01,-20,-0,-1,1.01,1.02,99,1660,0.9,3.63,,14.12,1.062,75.4,,29.3,5,,,,,,,,,,,,0,0,0,0,0,0,0,0,0,0,0,0,0,0,0,0,,,,,,0.0,,,,,,,
44967,1745695696856,,,,,,,,,,,,,,,,,,,,,,,,,,,,,,,,,,0,0,0,0,0,0,0,0,0,0,0,0,0,0,0,0,,,,,,,,,,,,,
44987,1745695696876,0.0,-48,,-0.09,-0.04,1.02,-19,-0,-1,1.02,1.02,100,1660,0.9,3.63,,14.18,1.057,75.4,,28.6,5,5,6,4,6,0.0,0.0,0.0,0.0,2.53,,,0,0,0,0,0,0,0,0,0,0,0,0,0,0,0,0,,0,,,,0.0,38.991413,-76.937073,7.93,32.1,18,2,1.7
45007,1745695696899,,,,,,,,,,,,,,,,,,,,,,,,,,,,,,,,,,0,0,0,0,0,0,0,0,0,0,0,0,0,0,0,0,,,,,,,,,,,,,
45027,1745695696919,0.0,-14,,-0.08,-0.03,1.04,-19,0,-0,1.04,1.04,100,1639,1.1,3.63,,14.11,1.066,75.4,,28.6,5,,,,,,,,,,,,0,0,0,0,0,0,0,0,0,0,0,0,0,0,0,0,,,,,,0.0,,,,,,,
