,Interval,Utc,FrontBP,SteerAng,Battery,AccelX,AccelY,AccelZ,Yaw,Pitch,Roll,Gsum,GsumMax,GsumPct,RPM,TPS,InjectorPW,Baro,MAP,Lambda,IAT,EngineTemp,EOP,EOT,WSFR,WSFL,WSRR,WSRL,TCSet,TCSlip,TCComp,TCCut,Analog8,OilTemp,AA_On,ThermLF1,ThermLF2,ThermRR1,ThermRR2,ThermLF3,ThermLF4,ThermLF5,ThermLF6,ThermLF7,ThermLF8,ThermRR3,ThermRR4,ThermRR5,ThermRR6,ThermRR7,ThermRR8,AA_LowDrag,Gear,AA_On1,AA_LowDrag1,Fuel_Mix,AA_Packages,Latitude,Longitude,Speed,Altitude,GPSSats,GPSQual,GPSDOP
0,334204,0,,,,,,,,,,,,,,,,,,,,,,,,,,,,,,,,,,0,0,0,0,0,0,0,0,0,0,0,0,0,0,0,0,,,,,,,,,,,,,
1,334224,0,0.0,3.0,,-0.05,-0.17,0.9,0.0,0.0,0.0,0.91,0.91,100.0,4207.0,0.0,2.78,,12.61,0.955,77.2,,63.2,5.0,,,,,,,,,,,,0,0,0,0,0,0,0,0,0,0,0,0,0,0,0,0,,,,,,0.0,,,,,,,
2,334244,0,,,,,,,,,,,,,,,,,,,,,,,,,,,,,,,,,,0,0,0,0,0,0,0,0,0,0,0,0,0,0,0,0,,,,,,,,,,,,,
3,334264,0,0.0,-7.0,,-0.05,0.03,0.95,-1.0,0.0,0.0,0.95,0.95,100.0,3975.0,0.0,2.63,,12.03,0.955,77.2,,63.2,5.0,,,,,,,,,,,,0,0,0,0,0,0,0,0,0,0,0,0,0,0,0,0,,,,,,0.0,,,,,,,
4,334284,0,,,,,,,,,,,,,,,,,,,,,,,0.0,146.0,0.0,0.0,0.0,24.0,0.0,0.0,2.25,,,0,0,0,0,0,0,0,0,0,0,0,0,0,0,0,0,,0.0,,,,,0.0,0.0,0.0,0.0,0.0,0.0,0.0
5,334304,0,0.0,7.0,,-0.06,0.09,0.94,0.0,0.0,0.0,0.95,0.95,100.0,3816.0,1.6,3.27,,12.11,0.954,77.2,,63.2,5.0,,,,,,,,,,,,0,0,0,0,0,0,0,0,0,0,0,0,0,0,0,0,,,,,,0.0,,,,,,,
6,334324,0,,,,,,,,,,,,,,,,,,,,,,,,,,,,,,,,,,0,0,0,0,0,0,0,0,0,0,0,0,0,0,0,0,,,,,,,,,,,,,
7,334344,0,0.0,-10.0,,-0.07,0.07,0.92,-1.0,0.0,1.0,0.92,0.95,97.0,3544.0,13.8,4.55,,12.11,0.954,77.2,,59.7,5.0,,,,,,,,,,,,0,0,0,0,0,0,0,0,0,0,0,0,0,0,0,0,,,,,,0.0,,,,,,,
8,334364,0,,,,,,,,,,,,,,,,,,,,,,,,,,,,,,,,,,0,0,0,0,0,0,0,0,0,0,0,0,0,0,0,0,,,,,,,,,,,,,
9,334384,0,0.0,-17.0,14.12,-0.09,0.27,0.94,-1.0,-1.0,2.0,0.98,0.98,100.0,3544.0,13.8,4.55,15.0,12.87,0.956,77.2,104.0,59.7,5.0,0.0,50.0,0.0,0.0,0.0,24.0,0.0,0.0,2.25,0.0,0.0,0,0,0,0,0,0,0,0,0,0,0,0,0,0,0,0,0.0,0.0,0.0,0.0,0.0,0.0,0.0,0.0,0.0,0.0,0.0,0.0,0.0
10,334404,0,,,,,,,,,,,,,,,,,,,,,,,,,,,,,,,,,,0,0,0,0,0,0,0,0,0,0,0,0,0,0,0,0,,,,,,,,,,,,,
11,334424,0,0.0,-17.0,,-0.1,0.2,0.98,-1.0,-1.0,0.0,1.01,1.01,100.0,3454.0,27.7,4.58,,13.95,0.952,77.2,,56.3,5.0,,,,,,,,,,,,0,0,0,0,0,0,0,0,0,0,0,0,0,0,0,0,,,,,,0.0,,,,,,,
12,334444,0,,,,,,,,,,,,,,,,,,,,,,,,,,,,,,,,,,0,0,0,0,0,0,0,0,0,0,0,0,0,0,0,0,,,,,,,,,,,,,
13,334464,0,0.0,-7.0,,-0.06,0.33,0.98,-3.0,-1.0,-2.0,1.03,1.03,100.0,3579.0,40.4,4.29,,14.3,0.954,77.2,,56.3,5.0,,,,,,,,,,,,0,0,0,0,0,0,0,0,0,0,0,0,0,0,0,0,,,,,,0.0,,,,,,,
14,334484,0,,,,,,,,,,,,,,,,,,,,,,,0.0,5.0,0.0,0.0,0.0,24.0,0.0,0.0,2.24,,,0,0,0,0,0,0,0,0,0,0,0,0,0,0,0,0,,0.0,,,,,0.0,0.0,0.0,0.0,0.0,0.0,0.0
15,334504,0,0.0,-4.0,,-0.01,0.46,0.97,-2.0,-2.0,0.0,1.08,1.08,100.0,3917.0,43.2,4.52,,14.38,0.956,77.2,,56.3,5.0,,,,,,,,,,,,0,0,0,0,0,0,0,0,0,0,0,0,0,0,0,0,,,,,,0.0,,,,,,,
16,334524,0,,,,,,,,,,,,,,,,,,,,,,,,,,,,,,,,,,0,0,0,0,0,0,0,0,0,0,0,0,0,0,0,0,,,,,,,,,,,,,
17,334544,0,0.0,0.0,,-0.02,0.49,1.03,-3.0,-2.0,-1.0,1.13,1.13,100.0,4588.0,34.6,4.62,,14.38,0.956,77.2,,67.2,5.0,,,,,,,,,,,,0,0,0,0,0,0,0,0,0,0,0,0,0,0,0,0,,,,,,0.0,,,,,,,
18,334564,0,,,,,,,,,,,,,,,,,,,,,,,,,,,,,,,,,,0,0,0,0,0,0,0,0,0,0,0,0,0,0,0,0,,,,,,,,,,,,,
19,334584,0,0.0,-10.0,,-0.04,0.42,0.97,-2.0,-1.0,0.0,1.06,1.13,93.0,4588.0,34.6,4.62,,14.1,0.952,77.2,,67.2,5.0,0.0,73.0,0.0,0.0,0.0,24.0,0.0,0.0,2.25,,,0,0,0,0,0,0,0,0,0,0,0,0,0,0,0,0,,0.0,,,,0.0,0.0,0.0,0.0,0.0,0.0,0.0,0.0
20,334604,0,,,,,,,,,,,,,,,,,,,,,,,,,,,,,,,,,,0,0,0,0,0,0,0,0,0,0,0,0,0,0,0,0,,,,,,,,,,,,,
21,334624,0,0.0,-10.0,,-0.05,0.38,0.98,-3.0,-2.0,-1.0,1.05,1.13,92.0,5036.0,9.9,3.56,,13.23,0.955,77.2,,74.1,5.0,,,,,,,,,,,,0,0,0,0,0,0,0,0,0,0,0,0,0,0,0,0,,,,,,0.0,,,,,,,
22,334644,0,,,,,,,,,,,,,,,,,,,,,,,,,,,,,,,,,,0,0,0,0,0,0,0,0,0,0,0,0,0,0,0,0,,,,,,,,,,,,,
23,334664,0,0.0,0.0,,-0.04,0.28,0.98,-2.0,-2.0,-1.0,1.02,1.13,90.0,5157.0,0.3,2.64,,12.23,0.955,77.2,,74.1,5.0,,,,,,,,,,,,0,0,0,0,0,0,0,0,0,0,0,0,0,0,0,0,,,,,,0.0,,,,,,,
24,334684,0,,,,,,,,,,,,,,,,,,,,,,,0.0,24.0,0.0,0.0,0.0,0.0,0.0,0.0,2.25,,,0,0,0,0,0,0,0,0,0,0,0,0,0,0,0,0,,0.0,,,,,0.0,0.0,0.0,0.0,0.0,0.0,0.0
25,334704,0,0.0,-14.0,,-0.03,0.26,0.98,-3.0,-2.0,-2.0,1.02,1.13,90.0,5094.0,0.0,2.56,,11.48,0.954,77.2,,74.1,5.0,,,,,,,,,,,,0,0,0,0,0,0,0,0,0,0,0,0,0,0,0,0,,,,,,0.0,,,,,,,
26,334724,0,,,,,,,,,,,,,,,,,,,,,,,,,,,,,,,,,,0,0,0,0,0,0,0,0,0,0,0,0,0,0,0,0,,,,,,,,,,,,,
27,334744,0,0.0,0.0,,-0.05,0.17,0.95,-2.0,-2.0,-2.0,0.96,1.13,85.0,5094.0,0.0,2.56,,11.48,0.954,77.2,,72.2,5.0,,,,,,,,,,,,0,0,0,0,0,0,0,0,0,0,0,0,0,0,0,0,,,,,,0.0,,,,,,,
28,334764,0,,,,,,,,,,,,,,,,,,,,,,,,,,,,,,,,,,0,0,0,0,0,0,0,0,0,0,0,0,0,0,0,0,,,,,,,,,,,,,
29,334784,0,0.0,-17.0,,-0.01,0.03,0.89,-2.0,-2.0,-2.0,0.89,1.13,79.0,4802.0,0.0,2.61,,11.05,0.956,77.2,,72.2,5.0,0.0,2.0,0.0,0.0,0.0,24.0,0.0,0.0,2.25,,,0,0,0,0,0,0,0,0,0,0,0,0,0,0,0,0,,0.0,,,,0.0,0.0,0.0,0.0,0.0,0.0,0.0,0.0
30,334804,0,,,,,,,,,,,,,,,,,,,,,,,,,,,,,,,,,,0,0,0,0,0,0,0,0,0,0,0,0,0,0,0,0,,,,,,,,,,,,,
31,334824,0,0.0,-21.0,,0.02,0.01,0.97,-2.0,-2.0,-2.0,0.97,1.13,86.0,4655.0,0.0,2.51,,10.88,0.952,77.2,,72.2,5.0,,,,,,,,,,,,0,0,0,0,0,0,0,0,0,0,0,0,0,0,0,0,,,,,,0.0,,,,,,,
32,334844,0,,,,,,,,,,,,,,,,,,,,,,,,,,,,,,,,,,0,0,0,0,0,0,0,0,0,0,0,0,0,0,0,0,,,,,,,,,,,,,
33,334864,0,0.0,-17.0,,0.03,-0.02,1.06,-1.0,-2.0,-2.0,1.06,1.13,93.0,4521.0,0.0,2.05,,10.69,0.953,77.2,,64.6,5.0,,,,,,,,,,,,0,0,0,0,0,0,0,0,0,0,0,0,0,0,0,0,,,,,,0.0,,,,,,,
34,334884,0,,,,,,,,,,,,,,,,,,,,,,,0.0,5.0,0.0,0.0,0.0,24.0,0.0,0.0,2.25,,,0,0,0,0,0,0,0,0,0,0,0,0,0,0,0,0,,0.0,,,,,0.0,0.0,0.0,0.0,0.0,0.0,0.0
35,334904,0,0.0,-21.0,,0.03,-0.02,1.03,-1.0,-1.0,-1.0,1.03,1.13,91.0,4201.0,5.9,3.0,,10.69,0.953,77.2,,64.6,5.0,,,,,,,,,,,,0,0,0,0,0,0,0,0,0,0,0,0,0,0,0,0,,,,,,0.0,,,,,,,
36,334924,0,,,,,,,,,,,,,,,,,,,,,,,,,,,,,,,,,,0,0,0,0,0,0,0,0,0,0,0,0,0,0,0,0,,,,,,,,,,,,,
37,334944,0,0.0,-17.0,,0.01,0.03,1.06,-1.0,-1.0,-2.0,1.06,1.13,93.0,4201.0,5.9,3.0,,11.16,0.954,77.2,,57.8,5.0,,,,,,,,,,,,0,0,0,0,0,0,0,0,0,0,0,0,0,0,0,0,,,,,,0.0,,,,,,,
38,334964,0,,,,,,,,,,,,,,,,,,,,,,,,,,,,,,,,,,0,0,0,0,0,0,0,0,0,0,0,0,0,0,0,0,,,,,,,,,,,,,
39,334984,0,0.0,-27.0,,0.02,0.05,1.08,0.0,-1.0,-1.0,1.09,1.13,96.0,4109.0,28.2,4.99,,13.0,0.953,77.2,,57.8,5.0,0.0,18.0,0.0,0.0,0.0,24.0,0.0,0.0,2.25,,,0,0,0,0,0,0,0,0,0,0,0,0,0,0,0,0,,0.0,,,,0.0,0.0,0.0,0.0,0.0,0.0,0.0,0.0
40,335004,0,,,,,,,,,,,,,,,,,,,,,,,,,,,,,,,,,,0,0,0,0,0,0,0,0,0,0,0,0,0,0,0,0,,,,,,,,,,,,,
41,335024,0,0.0,-34.0,,0.0,0.03,1.07,0.0,-1.0,-1.0,1.07,1.13,95.0,4709.0,42.0,4.37,,14.07,0.955,77.2,,57.8,5.0,,,,,,,,,,,,0,0,0,0,0,0,0,0,0,0,0,0,0,0,0,0,,,,,,0.0,,,,,,,
42,335044,0,,,,,,,,,,,,,,,,,,,,,,,,,,,,,,,,,,0,0,0,0,0,0,0,0,0,0,0,0,0,0,0,0,,,,,,,,,,,,,
43,335064,0,0.0,-24.0,,-0.0,0.03,1.11,0.0,-1.0,-1.0,1.11,1.13,98.0,5266.0,45.1,5.42,,14.04,0.955,77.2,,72.3,5.0,,,,,,,,,,,,0,0,0,0,0,0,0,0,0,0,0,0,0,0,0,0,,,,,,0.0,,,,,,,
44,335084,0,,,,,,,,,,,,,,,,,,,,,,,0.0,136.0,0.0,0.0,0.0,0.0,0.0,0.0,2.25,,,0,0,0,0,0,0,0,0,0,0,0,0,0,0,0,0,,0.0,,,,,0.0,0.0,0.0,0.0,0.0,0.0,0.0
45,335104,0,0.0,-24.0,,-0.01,0.05,1.09,0.0,-1.0,0.0,1.09,1.13,96.0,6086.0,39.5,4.91,,14.04,0.955,77.2,,72.3,5.0,,,,,,,,,,,,0,0,0,0,0,0,0,0,0,0,0,0,0,0,0,0,,,,,,0.0,,,,,,,
46,335124,0,,,,,,,,,,,,,,,,,,,,,,,,,,,,,,,,,,0,0,0,0,0,0,0,0,0,0,0,0,0,0,0,0,,,,,,,,,,,,,
47,335144,0,0.0,-10.0,,-0.02,0.04,1.05,-1.0,-1.0,-1.0,1.05,1.13,93.0,6086.0,39.5,4.91,,13.57,0.953,77.2,,78.0,5.0,,,,,,,,,,,,0,0,0,0,0,0,0,0,0,0,0,0,0,0,0,0,,,,,,0.0,,,,,,,
48,335164,0,,,,,,,,,,,,,,,,,,,,,,,,,,,,,,,,,,0,0,0,0,0,0,0,0,0,0,0,0,0,0,0,0,,,,,,,,,,,,,
49,335184,0,0.0,-17.0,,-0.03,-0.02,1.05,0.0,-1.0,0.0,1.05,1.13,92.0,6844.0,15.8,4.89,,12.45,0.955,77.2,,78.0,5.0,0.0,44.0,0.0,0.0,0.0,24.0,0.0,0.0,2.25,,,0,0,0,0,0,0,0,0,0,0,0,0,0,0,0,0,,0.0,,,,0.0,0.0,0.0,0.0,0.0,0.0,0.0,0.0
50,335204,0,,,,,,,,,,,,,,,,,,,,,,,,,,,,,,,,,,0,0,0,0,0,0,0,0,0,0,0,0,0,0,0,0,,,,,,,,,,,,,
51,335224,0,0.0,-24.0,,-0.02,0.06,1.05,0.0,-1.0,0.0,1.06,1.13,93.0,7295.0,0.0,1.4,,10.42,0.951,77.2,,78.0,5.0,,,,,,,,,,,,0,0,0,0,0,0,0,0,0,0,0,0,0,0,0,0,,,,,,0.0,,,,,,,
52,335244,0,,,,,,,,,,,,,,,,,,,,,,,,,,,,,,,,,,0,0,0,0,0,0,0,0,0,0,0,0,0,0,0,0,,,,,,,,,,,,,
53,335264,0,0.0,-24.0,,-0.04,0.02,1.05,1.0,-1.0,0.0,1.05,1.13,92.0,7498.0,0.0,1.4,,8.98,0.955,77.2,,77.7,5.0,,,,,,,,,,,,0,0,0,0,0,0,0,0,0,0,0,0,0,0,0,0,,,,,,0.0,,,,,,,
54,335284,0,,,,,,,,,,,,,,,,,,,,,,,0.0,19.0,0.0,0.0,0.0,24.0,0.0,0.0,2.25,,,0,0,0,0,0,0,0,0,0,0,0,0,0,0,0,0,,0.0,,,,,0.0,0.0,0.0,0.0,0.0,0.0,0.0
55,335304,0,0.0,-31.0,,-0.06,0.09,1.05,1.0,-1.0,0.0,1.06,1.13,93.0,7518.0,0.0,1.4,,8.98,0.955,77.2,,77.7,5.0,,,,,,,,,,,,0,0,0,0,0,0,0,0,0,0,0,0,0,0,0,0,,,,,,0.0,,,,,,,
56,335324,0,,,,,,,,,,,,,,,,,,,,,,,,,,,,,,,,,,0,0,0,0,0,0,0,0,0,0,0,0,0,0,0,0,,,,,,,,,,,,,
57,335344,0,0.0,-24.0,,-0.07,0.14,1.01,0.0,-1.0,-1.0,1.03,1.13,90.0,7518.0,0.0,1.4,,8.01,0.955,77.2,,76.4,5.0,,,,,,,,,,,,0,0,0,0,0,0,0,0,0,0,0,0,0,0,0,0,,,,,,0.0,,,,,,,
58,335364,0,,,,,,,,,,,,,,,,,,,,,,,,,,,,,,,,,,0,0,0,0,0,0,0,0,0,0,0,0,0,0,0,0,,,,,,,,,,,,,
59,335384,0,0.0,-21.0,14.12,-0.07,0.11,1.04,0.0,-1.0,-1.0,1.05,1.13,92.0,7445.0,0.0,1.4,15.0,7.39,0.954,77.2,104.0,76.4,5.0,0.0,12.0,0.0,0.0,0.0,24.0,0.0,0.0,2.25,0.0,0.0,0,0,0,0,0,0,0,0,0,0,0,0,0,0,0,0,0.0,0.0,0.0,0.0,0.0,0.0,0.0,0.0,0.0,0.0,0.0,0.0,0.0
60,335404,0,,,,,,,,,,,,,,,,,,,,,,,,,,,,,,,,,,0,0,0,0,0,0,0,0,0,0,0,0,0,0,0,0,,,,,,,,,,,,,
61,335424,0,0.0,-21.0,,-0.06,0.09,1.03,0.0,-1.0,0.0,1.04,1.13,92.0,7266.0,0.0,1.4,,6.96,0.955,77.2,,76.4,5.0,,,,,,,,,,,,0,0,0,0,0,0,0,0,0,0,0,0,0,0,0,0,,,,,,0.0,,,,,,,
62,335444,0,,,,,,,,,,,,,,,,,,,,,,,,,,,,,,,,,,0,0,0,0,0,0,0,0,0,0,0,0,0,0,0,0,,,,,,,,,,,,,
63,335464,0,0.0,-27.0,,-0.04,0.09,1.05,0.0,-1.0,-1.0,1.06,1.13,93.0,7045.0,0.0,1.4,,6.82,0.952,77.2,,72.0,5.0,,,,,,,,,,,,0,0,0,0,0,0,0,0,0,0,0,0,0,0,0,0,,,,,,0.0,,,,,,,
64,335484,0,,,,,,,,,,,,,,,,,,,,,,,0.0,283.0,0.0,0.0,0.0,24.0,0.0,0.0,2.25,,,0,0,0,0,0,0,0,0,0,0,0,0,0,0,0,0,,0.0,,,,,0.0,0.0,0.0,0.0,0.0,0.0,0.0
65,335504,0,0.0,-17.0,,-0.05,0.11,1.07,0.0,-1.0,0.0,1.08,1.13,95.0,6774.0,0.0,1.4,,6.82,0.952,77.2,,72.0,5.0,,,,,,,,,,,,0,0,0,0,0,0,0,0,0,0,0,0,0,0,0,0,,,,,,0.0,,,,,,,
66,335524,0,,,,,,,,,,,,,,,,,,,,,,,,,,,,,,,,,,0,0,0,0,0,0,0,0,0,0,0,0,0,0,0,0,,,,,,,,,,,,,
67,335544,0,0.0,-17.0,,-0.07,0.06,1.03,0.0,-1.0,-1.0,1.03,1.13,91.0,6774.0,0.0,1.4,,6.87,0.954,77.2,,64.8,5.0,,,,,,,,,,,,0,0,0,0,0,0,0,0,0,0,0,0,0,0,0,0,,,,,,0.0,,,,,,,
68,335564,0,,,,,,,,,,,,,,,,,,,,,,,,,,,,,,,,,,0,0,0,0,0,0,0,0,0,0,0,0,0,0,0,0,,,,,,,,,,,,,
69,335584,0,0.0,-41.0,,-0.05,0.05,1.03,0.0,-1.0,0.0,1.03,1.13,91.0,6393.0,0.0,1.4,,7.03,0.956,77.2,,64.8,5.0,0.0,20.0,0.0,0.0,0.0,24.0,0.0,0.0,2.25,,,0,0,0,0,0,0,0,0,0,0,0,0,0,0,0,0,,0.0,,,,0.0,0.0,0.0,0.0,0.0,0.0,0.0,0.0
70,335604,0,,,,,,,,,,,,,,,,,,,,,,,,,,,,,,,,,,0,0,0,0,0,0,0,0,0,0,0,0,0,0,0,0,,,,,,,,,,,,,
71,335624,0,0.0,-24.0,,-0.04,0.05,1.04,1.0,-1.0,1.0,1.04,1.13,91.0,6056.0,0.0,1.4,,7.27,0.952,77.2,,64.8,5.0,,,,,,,,,,,,0,0,0,0,0,0,0,0,0,0,0,0,0,0,0,0,,,,,,0.0,,,,,,,
72,335644,0,,,,,,,,,,,,,,,,,,,,,,,,,,,,,,,,,,0,0,0,0,0,0,0,0,0,0,0,0,0,0,0,0,,,,,,,,,,,,,
73,335664,0,0.0,-38.0,,-0.02,0.0,0.94,1.0,-1.0,1.0,0.94,1.13,83.0,5733.0,5.5,2.22,,8.09,0.956,77.2,,59.2,5.0,,,,,,,,,,,,0,0,0,0,0,0,0,0,0,0,0,0,0,0,0,0,,,,,,0.0,,,,,,,
74,335684,0,,,,,,,,,,,,,,,,,,,,,,,0.0,62.0,0.0,0.0,0.0,24.0,0.0,0.0,2.25,,,0,0,0,0,0,0,0,0,0,0,0,0,0,0,0,0,,0.0,,,,,0.0,0.0,0.0,0.0,0.0,0.0,0.0
75,335704,0,0.0,-14.0,,-0.04,0.07,1.0,0.0,-1.0,1.0,1.0,1.13,88.0,5493.0,25.2,2.73,,8.09,0.956,77.2,,59.2,5.0,,,,,,,,,,,,0,0,0,0,0,0,0,0,0,0,0,0,0,0,0,0,,,,,,0.0,,,,,,,
76,335724,0,,,,,,,,,,,,,,,,,,,,,,,,,,,,,,,,,,0,0,0,0,0,0,0,0,0,0,0,0,0,0,0,0,,,,,,,,,,,,,
77,335744,0,0.0,-24.0,,-0.05,0.14,1.01,0.0,-1.0,1.0,1.03,1.13,90.0,5493.0,25.2,2.73,,10.72,0.955,77.2,,58.3,5.0,,,,,,,,,,,,0,0,0,0,0,0,0,0,0,0,0,0,0,0,0,0,,,,,,0.0,,,,,,,
78,335764,0,,,,,,,,,,,,,,,,,,,,,,,,,,,,,,,,,,0,0,0,0,0,0,0,0,0,0,0,0,0,0,0,0,,,,,,,,,,,,,
79,335784,0,0.0,-17.0,,-0.07,0.12,1.0,0.0,-1.0,1.0,1.01,1.13,89.0,5396.0,40.3,4.83,,13.31,0.953,77.2,,58.3,5.0,0.0,367.0,0.0,0.0,0.0,24.0,0.0,0.0,2.25,,,0,0,0,0,0,0,0,0,0,0,0,0,0,0,0,0,,0.0,,,,0.0,0.0,0.0,0.0,0.0,0.0,0.0,0.0
80,335804,0,,,,,,,,,,,,,,,,,,,,,,,,,,,,,,,,,,0,0,0,0,0,0,0,0,0,0,0,0,0,0,0,0,,,,,,,,,,,,,
81,335824,0,0.0,-31.0,,-0.04,-0.0,1.01,0.0,-1.0,1.0,1.01,1.13,89.0,5271.0,42.1,4.98,,13.95,0.955,77.2,,58.3,5.0,,,,,,,,,,,,0,0,0,0,0,0,0,0,0,0,0,0,0,0,0,0,,,,,,0.0,,,,,,,
82,335844,0,,,,,,,,,,,,,,,,,,,,,,,,,,,,,,,,,,0,0,0,0,0,0,0,0,0,0,0,0,0,0,0,0,,,,,,,,,,,,,
83,335864,0,0.0,-24.0,,-0.01,-0.05,1.02,1.0,-1.0,1.0,1.02,1.13,90.0,5223.0,27.2,4.73,,13.68,0.953,77.2,,57.8,5.0,,,,,,,,,,,,0,0,0,0,0,0,0,0,0,0,0,0,0,0,0,0,,,,,,0.0,,,,,,,
84,335884,0,,,,,,,,,,,,,,,,,,,,,,,0.0,41.0,0.0,0.0,0.0,24.0,0.0,0.0,2.25,,,0,0,0,0,0,0,0,0,0,0,0,0,0,0,0,0,,0.0,,,,,0.0,0.0,0.0,0.0,0.0,0.0,0.0
85,335904,0,0.0,-14.0,,-0.02,-0.03,1.04,1.0,-1.0,0.0,1.04,1.13,92.0,5265.0,0.6,3.38,,13.68,0.953,77.2,,57.8,5.0,,,,,,,,,,,,0,0,0,0,0,0,0,0,0,0,0,0,0,0,0,0,,,,,,0.0,,,,,,,
86,335924,0,,,,,,,,,,,,,,,,,,,,,,,,,,,,,,,,,,0,0,0,0,0,0,0,0,0,0,0,0,0,0,0,0,,,,,,,,,,,,,
87,335944,0,0.0,-21.0,,-0.03,-0.0,1.05,0.0,0.0,0.0,1.05,1.13,92.0,5265.0,0.6,3.38,,12.59,0.954,77.2,,61.2,5.0,,,,,,,,,,,,0,0,0,0,0,0,0,0,0,0,0,0,0,0,0,0,,,,,,0.0,,,,,,,
88,335964,0,,,,,,,,,,,,,,,,,,,,,,,,,,,,,,,,,,0,0,0,0,0,0,0,0,0,0,0,0,0,0,0,0,,,,,,,,,,,,,
89,335984,0,0.0,-21.0,,-0.04,-0.02,1.06,1.0,-1.0,0.0,1.06,1.13,93.0,5329.0,0.0,2.38,,11.46,0.956,77.2,,61.2,5.0,0.0,8.0,0.0,0.0,0.0,24.0,0.0,0.0,2.22,,,0,0,0,0,0,0,0,0,0,0,0,0,0,0,0,0,,0.0,,,,0.0,0.0,0.0,0.0,0.0,0.0,0.0,0.0
90,336004,0,,,,,,,,,,,,,,,,,,,,,,,,,,,,,,,,,,0,0,0,0,0,0,0,0,0,0,0,0,0,0,0,0,,,,,,,,,,,,,
91,336024,0,0.0,-24.0,,-0.05,0.0,1.01,0.0,-1.0,0.0,1.01,1.13,89.0,5157.0,0.0,2.45,,10.82,0.951,77.2,,61.2,5.0,,,,,,,,,,,,0,0,0,0,0,0,0,0,0,0,0,0,0,0,0,0,,,,,,0.0,,,,,,,
92,336044,0,,,,,,,,,,,,,,,,,,,,,,,,,,,,,,,,,,0,0,0,0,0,0,0,0,0,0,0,0,0,0,0,0,,,,,,,,,,,,,
93,336064,0,0.0,-34.0,,-0.06,0.06,1.03,0.0,-1.0,0.0,1.03,1.13,91.0,4993.0,0.0,1.97,,10.76,0.952,77.2,,58.7,5.0,,,,,,,,,,,,0,0,0,0,0,0,0,0,0,0,0,0,0,0,0,0,,,,,,0.0,,,,,,,
94,336084,0,,,,,,,,,,,,,,,,,,,,,,,0.0,6.0,0.0,0.0,0.0,0.0,0.0,0.0,2.25,,,0,0,0,0,0,0,0,0,0,0,0,0,0,0,0,0,,0.0,,,,,0.0,0.0,0.0,0.0,0.0,0.0,0.0
95,336104,0,0.0,-21.0,,-0.03,-0.06,0.99,0.0,-1.0,0.0,0.99,1.13,87.0,4801.0,23.2,3.9,,10.76,0.952,77.2,,58.7,5.0,,,,,,,,,,,,0,0,0,0,0,0,0,0,0,0,0,0,0,0,0,0,,,,,,0.0,,,,,,,
96,336124,0,,,,,,,,,,,,,,,,,,,,,,,,,,,,,,,,,,0,0,0,0,0,0,0,0,0,0,0,0,0,0,0,0,,,,,,,,,,,,,
97,336144,0,0.0,-34.0,,-0.02,-0.27,1.03,0.0,-1.0,-2.0,1.06,1.13,94.0,4801.0,23.2,3.9,,12.25,0.955,77.2,,57.3,5.0,,,,,,,,,,,,0,0,0,0,0,0,0,0,0,0,0,0,0,0,0,0,,,,,,0.0,,,,,,,
98,336164,0,,,,,,,,,,,,,,,,,,,,,,,,,,,,,,,,,,0,0,0,0,0,0,0,0,0,0,0,0,0,0,0,0,,,,,,,,,,,,,
99,336184,0,0.0,-48.0,,-0.04,-0.23,0.99,-1.0,-1.0,-2.0,1.02,1.13,90.0,4811.0,42.2,4.61,,13.96,0.953,77.2,,57.3,5.0,0.0,5.0,0.0,0.0,0.0,0.0,0.0,0.0,2.25,,,0,0,0,0,0,0,0,0,0,0,0,0,0,0,0,0,,0.0,,,,0.0,0.0,0.0,0.0,0.0,0.0,0.0,0.0
100,336204,0,,,,,,,,,,,,,,,,,,,,,,,,,,,,,,,,,,0,0,0,0,0,0,0,0,0,0,0,0,0,0,0,0,,,,,,,,,,,,,
101,336224,0,0.0,-27.0,,-0.05,-0.14,1.03,-1.0,0.0,-2.0,1.04,1.13,92.0,4869.0,52.3,5.6,,14.32,0.955,77.2,,57.3,5.0,,,,,,,,,,,,0,0,0,0,0,0,0,0,0,0,0,0,0,0,0,0,,,,,,0.0,,,,,,,
102,336244,0,,,,,,,,,,,,,,,,,,,,,,,,,,,,,,,,,,0,0,0,0,0,0,0,0,0,0,0,0,0,0,0,0,,,,,,,,,,,,,
103,336264,0,0.0,-34.0,,-0.03,-0.1,1.01,0.0,-1.0,-1.0,1.02,1.13,90.0,5097.0,55.8,5.45,,14.26,0.952,77.2,,60.7,5.0,,,,,,,,,,,,0,0,0,0,0,0,0,0,0,0,0,0,0,0,0,0,,,,,,0.0,,,,,,,
104,336284,0,,,,,,,,,,,,,,,,,,,,,,,0.0,28.0,0.0,0.0,0.0,24.0,0.0,0.0,2.25,,,0,0,0,0,0,0,0,0,0,0,0,0,0,0,0,0,,0.0,,,,,0.0,0.0,0.0,0.0,0.0,0.0,0.0
105,336304,0,0.0,-48.0,,-0.03,-0.09,1.0,0.0,0.0,-1.0,1.01,1.13,89.0,5509.0,55.2,5.28,,14.26,0.952,77.2,,60.7,5.0,,,,,,,,,,,,0,0,0,0,0,0,0,0,0,0,0,0,0,0,0,0,,,,,,0.0,,,,,,,
106,336324,0,,,,,,,,,,,,,,,,,,,,,,,,,,,,,,,,,,0,0,0,0,0,0,0,0,0,0,0,0,0,0,0,0,,,,,,,,,,,,,
107,336344,0,0.0,-38.0,,-0.05,-0.1,1.04,0.0,0.0,-1.0,1.05,1.13,92.0,5509.0,55.2,5.28,,14.18,0.953,77.2,,71.2,5.0,,,,,,,,,,,,0,0,0,0,0,0,0,0,0,0,0,0,0,0,0,0,,,,,,0.0,,,,,,,
108,336364,0,,,,,,,,,,,,,,,,,,,,,,,,,,,,,,,,,,0,0,0,0,0,0,0,0,0,0,0,0,0,0,0,0,,,,,,,,,,,,,
109,336384,0,0.0,-41.0,14.1,-0.04,-0.03,1.06,0.0,0.0,0.0,1.06,1.13,94.0,5652.0,33.9,4.64,15.0,13.71,0.955,77.2,104.0,71.2,5.0,0.0,7.0,0.0,0.0,0.0,24.0,0.0,0.0,2.25,0.0,0.0,0,0,0,0,0,0,0,0,0,0,0,0,0,0,0,0,0.0,0.0,0.0,0.0,0.0,0.0,0.0,0.0,0.0,0.0,0.0,0.0,0.0
110,336404,0,,,,,,,,,,,,,,,,,,,,,,,,,,,,,,,,,,0,0,0,0,0,0,0,0,0,0,0,0,0,0,0,0,,,,,,,,,,,,,
111,336424,0,0.0,-24.0,,-0.05,0.02,1.05,-1.0,-1.0,-1.0,1.06,1.13,93.0,6136.0,5.0,4.23,,12.12,0.951,77.2,,71.2,5.0,,,,,,,,,,,,0,0,0,0,0,0,0,0,0,0,0,0,0,0,0,0,,,,,,0.0,,,,,,,
112,336444,0,,,,,,,,,,,,,,,,,,,,,,,,,,,,,,,,,,0,0,0,0,0,0,0,0,0,0,0,0,0,0,0,0,,,,,,,,,,,,,
113,336464,0,0.0,-41.0,,-0.05,0.04,1.05,-1.0,0.0,-1.0,1.05,1.13,93.0,6632.0,0.0,1.4,,10.5,0.955,77.2,,76.2,5.0,,,,,,,,,,,,0,0,0,0,0,0,0,0,0,0,0,0,0,0,0,0,,,,,,0.0,,,,,,,
114,336484,0,,,,,,,,,,,,,,,,,,,,,,,0.0,508.0,0.0,0.0,0.0,24.0,0.0,0.0,2.25,,,0,0,0,0,0,0,0,0,0,0,0,0,0,0,0,0,,0.0,,,,,0.0,0.0,0.0,0.0,0.0,0.0,0.0
115,336504,0,0.0,-48.0,,-0.06,0.01,1.05,0.0,-1.0,-1.0,1.06,1.13,93.0,6760.0,0.0,1.4,,10.5,0.955,77.2,,76.2,5.0,,,,,,,,,,,,0,0,0,0,0,0,0,0,0,0,0,0,0,0,0,0,,,,,,0.0,,,,,,,
116,336524,0,,,,,,,,,,,,,,,,,,,,,,,,,,,,,,,,,,0,0,0,0,0,0,0,0,0,0,0,0,0,0,0,0,,,,,,,,,,,,,
117,336544,0,0.0,-38.0,,-0.06,-0.0,1.04,0.0,-1.0,-1.0,1.04,1.13,91.0,6760.0,0.0,1.4,,9.35,0.956,77.2,,76.5,5.0,,,,,,,,,,,,0,0,0,0,0,0,0,0,0,0,0,0,0,0,0,0,,,,,,0.0,,,,,,,
118,336564,0,,,,,,,,,,,,,,,,,,,,,,,,,,,,,,,,,,0,0,0,0,0,0,0,0,0,0,0,0,0,0,0,0,,,,,,,,,,,,,
119,336584,0,0.0,-34.0,,-0.06,-0.02,1.02,0.0,-1.0,-1.0,1.02,1.13,90.0,6776.0,0.0,1.4,,8.65,0.953,77.2,,76.5,5.0,0.0,74.0,0.0,0.0,0.0,24.0,0.0,0.0,2.25,,,0,0,0,0,0,0,0,0,0,0,0,0,0,0,0,0,,0.0,,,,0.0,0.0,0.0,0.0,0.0,0.0,0.0,0.0
120,336604,0,,,,,,,,,,,,,,,,,,,,,,,,,,,,,,,,,,0,0,0,0,0,0,0,0,0,0,0,0,0,0,0,0,,,,,,,,,,,,,
121,336624,0,0.0,-41.0,,-0.06,-0.0,1.01,0.0,-1.0,-1.0,1.02,1.13,90.0,6764.0,14.1,3.24,,9.18,0.955,77.2,,76.5,5.0,,,,,,,,,,,,0,0,0,0,0,0,0,0,0,0,0,0,0,0,0,0,,,,,,0.0,,,,,,,
122,336644,0,,,,,,,,,,,,,,,,,,,,,,,,,,,,,,,,,,0,0,0,0,0,0,0,0,0,0,0,0,0,0,0,0,,,,,,,,,,,,,
123,336664,0,0.0,-27.0,,-0.07,-0.0,1.0,0.0,-1.0,0.0,1.01,1.13,89.0,6916.0,38.0,4.05,,11.87,0.953,77.2,,75.9,5.0,,,,,,,,,,,,0,0,0,0,0,0,0,0,0,0,0,0,0,0,0,0,,,,,,0.0,,,,,,,
124,336684,0,,,,,,,,,,,,,,,,,,,,,,,0.0,14.0,0.0,0.0,0.0,24.0,0.0,0.0,2.25,,,0,0,0,0,0,0,0,0,0,0,0,0,0,0,0,0,,0.0,,,,,0.0,0.0,0.0,0.0,0.0,0.0,0.0
125,336704,0,0.0,-51.0,,-0.07,-0.1,1.03,0.0,0.0,0.0,1.04,1.13,91.0,7279.0,52.1,5.38,,11.87,0.953,77.2,,75.9,5.0,,,,,,,,,,,,0,0,0,0,0,0,0,0,0,0,0,0,0,0,0,0,,,,,,0.0,,,,,,,
126,336724,0,,,,,,,,,,,,,,,,,,,,,,,,,,,,,,,,,,0,0,0,0,0,0,0,0,0,0,0,0,0,0,0,0,,,,,,,,,,,,,
127,336744,0,0.0,-38.0,,-0.09,-0.09,1.03,0.0,0.0,1.0,1.03,1.13,91.0,7279.0,52.1,5.38,,13.4,0.953,77.2,,78.3,5.0,,,,,,,,,,,,0,0,0,0,0,0,0,0,0,0,0,0,0,0,0,0,,,,,,0.0,,,,,,,
128,336764,0,,,,,,,,,,,,,,,,,,,,,,,,,,,,,,,,,,0,0,0,0,0,0,0,0,0,0,0,0,0,0,0,0,,,,,,,,,,,,,
129,336784,0,0.0,-27.0,,-0.09,-0.05,1.06,0.0,0.0,1.0,1.06,1.13,94.0,8153.0,54.5,4.66,,13.51,0.955,77.2,,78.3,5.0,0.0,162.0,0.0,0.0,0.0,24.0,0.0,0.0,2.25,,,0,0,0,0,0,0,0,0,0,0,0,0,0,0,0,0,,0.0,,,,0.0,0.0,0.0,0.0,0.0,0.0,0.0,0.0
130,336804,0,,,,,,,,,,,,,,,,,,,,,,,,,,,,,,,,,,0,0,0,0,0,0,0,0,0,0,0,0,0,0,0,0,,,,,,,,,,,,,
131,336824,0,0.0,-38.0,,-0.08,-0.05,1.0,0.0,-1.0,0.0,1.01,1.13,89.0,9416.0,38.8,5.04,,12.39,0.95,77.2,,78.3,5.0,,,,,,,,,,,,0,0,0,0,0,0,0,0,0,0,0,0,0,0,0,0,,,,,,0.0,,,,,,,
132,336844,0,,,,,,,,,,,,,,,,,,,,,,,,,,,,,,,,,,0,0,0,0,0,0,0,0,0,0,0,0,0,0,0,0,,,,,,,,,,,,,
133,336864,0,0.0,-51.0,,-0.09,-0.01,1.03,-1.0,-1.0,-1.0,1.03,1.13,91.0,10721.0,9.5,2.87,,9.93,0.953,77.2,,76.8,5.0,,,,,,,,,,,,0,0,0,0,0,0,0,0,0,0,0,0,0,0,0,0,,,,,,0.0,,,,,,,
134,336884,0,,,,,,,,,,,,,,,,,,,,,,,0.0,45.0,0.0,0.0,0.0,24.0,0.0,0.0,2.25,,,0,0,0,0,0,0,0,0,0,0,0,0,0,0,0,0,,0.0,,,,,0.0,0.0,0.0,0.0,0.0,0.0,0.0
135,336904,0,0.0,-55.0,,-0.1,-0.08,1.0,-1.0,-1.0,0.0,1.0,1.13,88.0,11042.0,0.0,1.4,,9.93,0.953,77.2,,76.8,5.0,,,,,,,,,,,,0,0,0,0,0,0,0,0,0,0,0,0,0,0,0,0,,,,,,0.0,,,,,,,
136,336924,0,,,,,,,,,,,,,,,,,,,,,,,,,,,,,,,,,,0,0,0,0,0,0,0,0,0,0,0,0,0,0,0,0,,,,,,,,,,,,,
137,336944,0,0.0,-38.0,,-0.08,0.07,1.02,-1.0,-1.0,0.0,1.03,1.13,91.0,11042.0,0.0,1.4,,7.57,0.955,77.2,,75.0,5.0,,,,,,,,,,,,0,0,0,0,0,0,0,0,0,0,0,0,0,0,0,0,,,,,,0.0,,,,,,,
138,336964,0,,,,,,,,,,,,,,,,,,,,,,,,,,,,,,,,,,0,0,0,0,0,0,0,0,0,0,0,0,0,0,0,0,,,,,,,,,,,,,
139,336984,0,0.0,-21.0,,-0.1,0.02,1.01,0.0,0.0,0.0,1.01,1.13,89.0,10940.0,0.0,1.4,,6.32,0.953,77.2,,75.0,5.0,0.0,40.0,0.0,0.0,0.0,24.0,0.0,0.0,2.25,,,0,0,0,0,0,0,0,0,0,0,0,0,0,0,0,0,,0.0,,,,0.0,0.0,0.0,0.0,0.0,0.0,0.0,0.0
140,337004,0,,,,,,,,,,,,,,,,,,,,,,,,,,,,,,,,,,0,0,0,0,0,0,0,0,0,0,0,0,0,0,0,0,,,,,,,,,,,,,
141,337024,0,0.0,-41.0,,-0.11,0.34,1.06,0.0,0.0,2.0,1.12,1.13,99.0,10688.0,0.0,1.4,,5.59,0.955,77.2,,75.0,5.0,,,,,,,,,,,,0,0,0,0,0,0,0,0,0,0,0,0,0,0,0,0,,,,,,0.0,,,,,,,
142,337044,0,,,,,,,,,,,,,,,,,,,,,,,,,,,,,,,,,,0,0,0,0,0,0,0,0,0,0,0,0,0,0,0,0,,,,,,,,,,,,,
143,337064,0,0.0,-38.0,,-0.12,0.29,1.06,0.0,0.0,2.0,1.1,1.13,97.0,10271.0,0.0,1.4,,5.2,0.952,77.2,,75.7,5.0,,,,,,,,,,,,0,0,0,0,0,0,0,0,0,0,0,0,0,0,0,0,,,,,,0.0,,,,,,,
144,337084,0,,,,,,,,,,,,,,,,,,,,,,,0.0,280.0,0.0,0.0,0.0,24.0,0.0,0.0,2.25,,,0,0,0,0,0,0,0,0,0,0,0,0,0,0,0,0,,0.0,,,,,0.0,0.0,0.0,0.0,0.0,0.0,0.0
145,337104,0,0.0,-41.0,,-0.12,0.24,1.02,0.0,-1.0,2.0,1.06,1.13,93.0,9857.0,0.0,1.4,,5.2,0.952,77.2,,75.7,5.0,,,,,,,,,,,,0,0,0,0,0,0,0,0,0,0,0,0,0,0,0,0,,,,,,0.0,,,,,,,
146,337124,0,,,,,,,,,,,,,,,,,,,,,,,,,,,,,,,,,,0,0,0,0,0,0,0,0,0,0,0,0,0,0,0,0,,,,,,,,,,,,,
147,337144,0,0.0,-38.0,,-0.1,0.13,1.09,0.0,0.0,1.0,1.11,1.13,97.0,9857.0,0.0,1.4,,4.97,0.954,77.2,,71.7,5.0,,,,,,,,,,,,0,0,0,0,0,0,0,0,0,0,0,0,0,0,0,0,,,,,,0.0,,,,,,,
148,337164,0,,,,,,,,,,,,,,,,,,,,,,,,,,,,,,,,,,0,0,0,0,0,0,0,0,0,0,0,0,0,0,0,0,,,,,,,,,,,,,
149,337184,0,0.0,-21.0,,-0.11,0.16,1.05,0.0,-1.0,1.0,1.06,1.13,94.0,9322.0,0.0,1.4,,4.84,0.956,77.2,,71.7,5.0,0.0,21.0,0.0,0.0,0.0,24.0,0.0,0.0,2.25,,,0,0,0,0,0,0,0,0,0,0,0,0,0,0,0,0,,0.0,,,,0.0,0.0,0.0,0.0,0.0,0.0,0.0,0.0
150,337204,0,,,,,,,,,,,,,,,,,,,,,,,,,,,,,,,,,,0,0,0,0,0,0,0,0,0,0,0,0,0,0,0,0,,,,,,,,,,,,,
151,337224,0,0.0,-38.0,,-0.1,0.21,1.01,0.0,-1.0,1.0,1.03,1.13,91.0,8939.0,0.0,1.4,,4.93,0.952,77.2,,71.7,5.0,,,,,,,,,,,,0,0,0,0,0,0,0,0,0,0,0,0,0,0,0,0,,,,,,0.0,,,,,,,
152,337244,0,,,,,,,,,,,,,,,,,,,,,,,,,,,,,,,,,,0,0,0,0,0,0,0,0,0,0,0,0,0,0,0,0,,,,,,,,,,,,,
153,337264,0,0.0,-48.0,,-0.07,0.21,1.07,0.0,-1.0,0.0,1.1,1.13,97.0,8770.0,26.8,2.3,,7.14,0.955,77.2,,68.2,5.0,,,,,,,,,,,,0,0,0,0,0,0,0,0,0,0,0,0,0,0,0,0,,,,,,0.0,,,,,,,
154,337284,0,,,,,,,,,,,,,,,,,,,,,,,0.0,209.0,0.0,0.0,0.0,24.0,0.0,0.0,2.25,,,0,0,0,0,0,0,0,0,0,0,0,0,0,0,0,0,,0.0,,,,,0.0,0.0,0.0,0.0,0.0,0.0,0.0
155,337304,0,0.0,-38.0,,-0.05,0.2,1.16,1.0,-1.0,0.0,1.18,1.18,100.0,8863.0,50.5,3.58,,7.14,0.955,77.2,,68.2,5.0,,,,,,,,,,,,0,0,0,0,0,0,0,0,0,0,0,0,0,0,0,0,,,,,,0.0,,,,,,,
156,337324,0,,,,,,,,,,,,,,,,,,,,,,,,,,,,,,,,,,0,0,0,0,0,0,0,0,0,0,0,0,0,0,0,0,,,,,,,,,,,,,
157,337344,0,0.0,-24.0,,-0.04,0.08,1.14,1.0,-1.0,0.0,1.14,1.18,97.0,8863.0,50.5,3.58,,10.42,0.955,77.2,,70.2,5.0,,,,,,,,,,,,0,0,0,0,0,0,0,0,0,0,0,0,0,0,0,0,,,,,,0.0,,,,,,,
158,337364,0,,,,,,,,,,,,,,,,,,,,,,,,,,,,,,,,,,0,0,0,0,0,0,0,0,0,0,0,0,0,0,0,0,,,,,,,,,,,,,
159,337384,0,0.0,-41.0,14.01,-0.06,0.08,1.1,1.0,-1.0,0.0,1.11,1.18,94.0,8617.0,60.0,5.14,15.0,12.64,0.952,77.2,104.0,70.2,5.0,0.0,26.0,0.0,0.0,0.0,24.0,0.0,0.0,2.25,0.0,0.0,0,0,0,0,0,0,0,0,0,0,0,0,0,0,0,0,0.0,0.0,0.0,0.0,0.0,0.0,0.0,0.0,0.0,0.0,0.0,0.0,0.0
160,337404,0,,,,,,,,,,,,,,,,,,,,,,,,,,,,,,,,,,0,0,0,0,0,0,0,0,0,0,0,0,0,0,0,0,,,,,,,,,,,,,
161,337424,0,0.0,-31.0,,-0.07,0.11,1.06,0.0,-1.0,0.0,1.07,1.18,91.0,8545.0,56.7,5.0,,13.11,0.955,77.2,,70.2,5.0,,,,,,,,,,,,0,0,0,0,0,0,0,0,0,0,0,0,0,0,0,0,,,,,,0.0,,,,,,,
162,337444,0,,,,,,,,,,,,,,,,,,,,,,,,,,,,,,,,,,0,0,0,0,0,0,0,0,0,0,0,0,0,0,0,0,,,,,,,,,,,,,
163,337464,0,0.0,-41.0,,-0.09,0.27,0.97,0.0,-1.0,0.0,1.01,1.18,86.0,8858.0,33.3,4.64,,12.28,0.95,77.2,,70.1,5.0,,,,,,,,,,,,0,0,0,0,0,0,0,0,0,0,0,0,0,0,0,0,,,,,,0.0,,,,,,,
164,337484,0,,,,,,,,,,,,,,,,,,,,,,,0.0,99.0,0.0,0.0,0.0,24.0,0.0,0.0,2.25,,,0,0,0,0,0,0,0,0,0,0,0,0,0,0,0,0,,0.0,,,,,0.0,0.0,0.0,0.0,0.0,0.0,0.0
165,337504,0,0.0,-44.0,,-0.1,0.28,0.99,-1.0,-1.0,0.0,1.03,1.18,87.0,8858.0,33.3,4.64,,12.28,0.95,77.2,,70.1,5.0,,,,,,,,,,,,0,0,0,0,0,0,0,0,0,0,0,0,0,0,0,0,,,,,,0.0,,,,,,,
166,337524,0,,,,,,,,,,,,,,,,,,,,,,,,,,,,,,,,,,0,0,0,0,0,0,0,0,0,0,0,0,0,0,0,0,,,,,,,,,,,,,
167,337544,0,0.0,-24.0,,-0.09,0.39,0.98,-1.0,-1.0,0.0,1.06,1.18,90.0,9940.0,2.4,1.46,,9.13,0.955,77.2,,73.0,5.0,,,,,,,,,,,,0,0,0,0,0,0,0,0,0,0,0,0,0,0,0,0,,,,,,0.0,,,,,,,
168,337564,0,,,,,,,,,,,,,,,,,,,,,,,,,,,,,,,,,,0,0,0,0,0,0,0,0,0,0,0,0,0,0,0,0,,,,,,,,,,,,,
169,337584,0,0.0,-44.0,,-0.1,0.37,0.96,-1.0,-1.0,-1.0,1.03,1.18,87.0,10201.0,0.0,1.4,,7.25,0.955,77.2,,73.0,5.0,0.0,137.0,0.0,0.0,0.0,24.0,0.0,0.0,2.25,,,0,0,0,0,0,0,0,0,0,0,0,0,0,0,0,0,,0.0,,,,0.0,0.0,0.0,0.0,0.0,0.0,0.0,0.0
170,337604,0,,,,,,,,,,,,,,,,,,,,,,,,,,,,,,,,,,0,0,0,0,0,0,0,0,0,0,0,0,0,0,0,0,,,,,,,,,,,,,
171,337624,0,0.0,-51.0,,-0.09,0.32,0.95,-1.0,-1.0,0.0,1.01,1.18,86.0,10139.0,0.0,1.4,,6.24,0.953,77.2,,73.0,5.0,,,,,,,,,,,,0,0,0,0,0,0,0,0,0,0,0,0,0,0,0,0,,,,,,0.0,,,,,,,
172,337644,0,,,,,,,,,,,,,,,,,,,,,,,,,,,,,,,,,,0,0,0,0,0,0,0,0,0,0,0,0,0,0,0,0,,,,,,,,,,,,,
173,337664,0,0.0,-21.0,,-0.1,0.25,0.94,-1.0,-1.0,0.0,0.98,1.18,83.0,9968.0,0.0,1.4,,6.24,0.953,77.2,,74.1,5.0,,,,,,,,,,,,0,0,0,0,0,0,0,0,0,0,0,0,0,0,0,0,,,,,,0.0,,,,,,,
174,337684,0,,,,,,,,,,,,,,,,,,,,,,,0.0,66.0,0.0,0.0,0.0,24.0,0.0,0.0,2.25,,,0,0,0,0,0,0,0,0,0,0,0,0,0,0,0,0,,0.0,,,,,0.0,0.0,0.0,0.0,0.0,0.0,0.0
175,337704,0,0.0,-41.0,,-0.11,0.3,0.91,-1.0,-1.0,0.0,0.97,1.18,82.0,9968.0,0.0,1.4,,5.71,0.955,77.2,,74.1,5.0,,,,,,,,,,,,0,0,0,0,0,0,0,0,0,0,0,0,0,0,0,0,,,,,,0.0,,,,,,,
176,337724,0,,,,,,,,,,,,,,,,,,,,,,,,,,,,,,,,,,0,0,0,0,0,0,0,0,0,0,0,0,0,0,0,0,,,,,,,,,,,,,
177,337744,0,0.0,-38.0,,-0.12,0.23,0.95,-1.0,-1.0,0.0,0.98,1.18,83.0,9723.0,0.0,1.4,,5.36,0.952,77.2,,71.9,5.0,,,,,,,,,,,,0,0,0,0,0,0,0,0,0,0,0,0,0,0,0,0,,,,,,0.0,,,,,,,
178,337764,0,,,,,,,,,,,,,,,,,,,,,,,,,,,,,,,,,,0,0,0,0,0,0,0,0,0,0,0,0,0,0,0,0,,,,,,,,,,,,,
179,337784,0,0.0,-41.0,,-0.12,0.31,0.89,-1.0,-1.0,0.0,0.95,1.18,81.0,9433.0,0.0,1.4,,5.15,0.955,77.2,,71.9,5.0,0.0,63.0,0.0,0.0,0.0,24.0,0.0,0.0,2.25,,,0,0,0,0,0,0,0,0,0,0,0,0,0,0,0,0,,0.0,,,,0.0,0.0,0.0,0.0,0.0,0.0,0.0,0.0
180,337804,0,,,,,,,,,,,,,,,,,,,,,,,,,,,,,,,,,,0,0,0,0,0,0,0,0,0,0,0,0,0,0,0,0,,,,,,,,,,,,,
181,337824,0,0.0,-31.0,,-0.12,0.29,0.81,-1.0,-1.0,1.0,0.87,1.18,73.0,9124.0,0.0,1.4,,5.04,0.956,77.2,,71.9,5.0,,,,,,,,,,,,0,0,0,0,0,0,0,0,0,0,0,0,0,0,0,0,,,,,,0.0,,,,,,,
182,337844,0,,,,,,,,,,,,,,,,,,,,,,,,,,,,,,,,,,0,0,0,0,0,0,0,0,0,0,0,0,0,0,0,0,,,,,,,,,,,,,
183,337864,0,0.0,-48.0,,-0.12,0.33,0.72,-1.0,-2.0,1.0,0.8,1.18,68.0,8847.0,0.0,1.4,,5.04,0.956,77.2,,71.1,5.0,,,,,,,,,,,,0,0,0,0,0,0,0,0,0,0,0,0,0,0,0,0,,,,,,0.0,,,,,,,
184,337884,0,,,,,,,,,,,,,,,,,,,,,,,0.0,24.0,0.0,0.0,0.0,24.0,0.0,0.0,2.25,,,0,0,0,0,0,0,0,0,0,0,0,0,0,0,0,0,,0.0,,,,,0.0,0.0,0.0,0.0,0.0,0.0,0.0
185,337904,0,0.0,-48.0,,-0.1,0.25,0.79,-1.0,-2.0,0.0,0.83,1.18,70.0,8847.0,0.0,1.4,,5.01,0.952,75.4,,71.1,5.0,,,,,,,,,,,,0,0,0,0,0,0,0,0,0,0,0,0,0,0,0,0,,,,,,0.0,,,,,,,
186,337924,0,,,,,,,,,,,,,,,,,,,,,,,,,,,,,,,,,,0,0,0,0,0,0,0,0,0,0,0,0,0,0,0,0,,,,,,,,,,,,,
187,337944,0,0.0,-21.0,,-0.09,0.2,0.76,-1.0,-2.0,0.0,0.79,1.18,67.0,8514.0,0.0,1.4,,5.04,0.955,75.4,,68.0,5.0,,,,,,,,,,,,0,0,0,0,0,0,0,0,0,0,0,0,0,0,0,0,,,,,,0.0,,,,,,,
188,337964,0,,,,,,,,,,,,,,,,,,,,,,,,,,,,,,,,,,0,0,0,0,0,0,0,0,0,0,0,0,0,0,0,0,,,,,,,,,,,,,
189,337984,0,0.0,-41.0,,-0.08,0.14,0.77,0.0,-2.0,0.0,0.78,1.18,66.0,8217.0,0.0,1.4,,5.12,0.952,75.4,,68.0,5.0,0.0,92.0,0.0,0.0,0.0,24.0,0.0,0.0,2.25,,,0,0,0,0,0,0,0,0,0,0,0,0,0,0,0,0,,0.0,,,,0.0,0.0,0.0,0.0,0.0,0.0,0.0,0.0
190,338004,0,,,,,,,,,,,,,,,,,,,,,,,,,,,,,,,,,,0,0,0,0,0,0,0,0,0,0,0,0,0,0,0,0,,,,,,,,,,,,,
191,338024,0,0.0,-41.0,,-0.1,0.2,0.74,-1.0,-2.0,0.0,0.77,1.18,65.0,7894.0,0.0,1.4,,5.23,0.953,75.4,,68.0,5.0,,,,,,,,,,,,0,0,0,0,0,0,0,0,0,0,0,0,0,0,0,0,,,,,,0.0,,,,,,,
192,338044,0,,,,,,,,,,,,,,,,,,,,,,,,,,,,,,,,,,0,0,0,0,0,0,0,0,0,0,0,0,0,0,0,0,,,,,,,,,,,,,
193,338064,0,0.0,-21.0,,-0.09,0.12,0.77,0.0,-2.0,0.0,0.78,1.18,66.0,7528.0,0.0,1.4,,5.23,0.953,75.4,,63.5,5.0,,,,,,,,,,,,0,0,0,0,0,0,0,0,0,0,0,0,0,0,0,0,,,,,,0.0,,,,,,,
194,338084,0,,,,,,,,,,,,,,,,,,,,,,,0.0,93.0,0.0,0.0,0.0,24.0,0.0,0.0,2.25,,,0,0,0,0,0,0,0,0,0,0,0,0,0,0,0,0,,0.0,,,,,0.0,0.0,0.0,0.0,0.0,0.0,0.0
195,338104,0,0.0,-51.0,,-0.13,0.18,0.8,0.0,-2.0,1.0,0.83,1.18,71.0,7528.0,0.0,1.4,,5.4,0.955,75.4,,63.5,5.0,,,,,,,,,,,,0,0,0,0,0,0,0,0,0,0,0,0,0,0,0,0,,,,,,0.0,,,,,,,
196,338124,0,,,,,,,,,,,,,,,,,,,,,,,,,,,,,,,,,,0,0,0,0,0,0,0,0,0,0,0,0,0,0,0,0,,,,,,,,,,,,,
197,338144,0,0.0,-34.0,,-0.1,0.22,0.8,0.0,-2.0,1.0,0.84,1.18,71.0,7197.0,0.0,1.4,,5.62,0.952,75.4,,60.0,5.0,,,,,,,,,,,,0,0,0,0,0,0,0,0,0,0,0,0,0,0,0,0,,,,,,0.0,,,,,,,
198,338164,0,,,,,,,,,,,,,,,,,,,,,,,,,,,,,,,,,,0,0,0,0,0,0,0,0,0,0,0,0,0,0,0,0,,,,,,,,,,,,,
199,338184,0,0.0,-38.0,,-0.1,0.17,0.8,0.0,-2.0,0.0,0.83,1.18,70.0,6861.0,0.0,1.4,,5.94,0.955,75.4,,60.0,5.0,0.0,20.0,0.0,0.0,0.0,24.0,0.0,0.0,2.25,,,0,0,0,0,0,0,0,0,0,0,0,0,0,0,0,0,,0.0,,,,0.0,0.0,0.0,0.0,0.0,0.0,0.0,0.0
200,338204,0,,,,,,,,,,,,,,,,,,,,,,,,,,,,,,,,,,0,0,0,0,0,0,0,0,0,0,0,0,0,0,0,0,,,,,,,,,,,,,
201,338224,0,0.0,-24.0,,-0.07,0.15,0.86,0.0,-2.0,1.0,0.88,1.18,74.0,6370.0,0.0,1.4,,6.31,0.956,75.4,,60.0,5.0,,,,,,,,,,,,0,0,0,0,0,0,0,0,0,0,0,0,0,0,0,0,,,,,,0.0,,,,,,,
202,338244,0,,,,,,,,,,,,,,,,,,,,,,,,,,,,,,,,,,0,0,0,0,0,0,0,0,0,0,0,0,0,0,0,0,,,,,,,,,,,,,
203,338264,0,0.0,-34.0,,-0.03,0.12,0.97,0.0,-1.0,1.0,0.98,1.18,83.0,5942.0,0.0,1.4,,6.31,0.956,75.4,,58.9,5.0,,,,,,,,,,,,0,0,0,0,0,0,0,0,0,0,0,0,0,0,0,0,,,,,,0.0,,,,,,,
204,338284,0,,,,,,,,,,,,,,,,,,,,,,,0.0,31.0,0.0,0.0,0.0,24.0,0.0,0.0,2.25,,,0,0,0,0,0,0,0,0,0,0,0,0,0,0,0,0,,0.0,,,,,0.0,0.0,0.0,0.0,0.0,0.0,0.0
205,338304,0,0.0,-48.0,,0.01,0.13,0.93,0.0,-1.0,1.0,0.94,1.18,80.0,5942.0,0.0,1.4,,6.75,0.951,75.4,,58.9,5.0,,,,,,,,,,,,0,0,0,0,0,0,0,0,0,0,0,0,0,0,0,0,,,,,,0.0,,,,,,,
206,338324,0,,,,,,,,,,,,,,,,,,,,,,,,,,,,,,,,,,0,0,0,0,0,0,0,0,0,0,0,0,0,0,0,0,,,,,,,,,,,,,
207,338344,0,0.0,-27.0,,-0.01,0.07,0.96,0.0,-1.0,1.0,0.96,1.18,82.0,5480.0,0.0,1.4,,7.26,0.955,75.4,,57.5,5.0,,,,,,,,,,,,0,0,0,0,0,0,0,0,0,0,0,0,0,0,0,0,,,,,,0.0,,,,,,,
208,338364,0,,,,,,,,,,,,,,,,,,,,,,,,,,,,,,,,,,0,0,0,0,0,0,0,0,0,0,0,0,0,0,0,0,,,,,,,,,,,,,
209,338384,0,0.0,-41.0,14.1,0.0,0.1,1.01,-1.0,-1.0,0.0,1.02,1.18,86.0,5091.0,0.0,1.4,15.0,7.78,0.953,75.4,106.0,57.5,5.0,0.0,862.0,0.0,0.0,0.0,24.0,0.0,0.0,2.25,0.0,0.0,0,0,0,0,0,0,0,0,0,0,0,0,0,0,0,0,0.0,0.0,0.0,0.0,0.0,0.0,0.0,0.0,0.0,0.0,0.0,0.0,0.0
210,338404,0,,,,,,,,,,,,,,,,,,,,,,,,,,,,,,,,,,0,0,0,0,0,0,0,0,0,0,0,0,0,0,0,0,,,,,,,,,,,,,
211,338424,0,0.0,-31.0,,-0.01,-0.0,1.05,-1.0,-1.0,-1.0,1.05,1.18,89.0,4667.0,19.6,2.49,,10.08,0.955,75.4,,57.5,5.0,,,,,,,,,,,,0,0,0,0,0,0,0,0,0,0,0,0,0,0,0,0,,,,,,0.0,,,,,,,
212,338444,0,,,,,,,,,,,,,,,,,,,,,,,,,,,,,,,,,,0,0,0,0,0,0,0,0,0,0,0,0,0,0,0,0,,,,,,,,,,,,,
213,338464,0,0.0,-38.0,,-0.02,-0.02,1.11,0.0,-1.0,-1.0,1.11,1.18,94.0,4225.0,35.0,4.69,,10.08,0.955,75.4,,55.0,5.0,,,,,,,,,,,,0,0,0,0,0,0,0,0,0,0,0,0,0,0,0,0,,,,,,0.0,,,,,,,
214,338484,0,,,,,,,,,,,,,,,,,,,,,,,0.0,6.0,0.0,0.0,0.0,24.0,0.0,0.0,2.25,,,0,0,0,0,0,0,0,0,0,0,0,0,0,0,0,0,,0.0,,,,,0.0,0.0,0.0,0.0,0.0,0.0,0.0
215,338504,0,0.0,-38.0,,-0.02,0.17,1.08,0.0,-2.0,1.0,1.09,1.18,93.0,4225.0,35.0,4.69,,12.99,0.956,75.4,,55.0,5.0,,,,,,,,,,,,0,0,0,0,0,0,0,0,0,0,0,0,0,0,0,0,,,,,,0.0,,,,,,,
216,338524,0,,,,,,,,,,,,,,,,,,,,,,,,,,,,,,,,,,0,0,0,0,0,0,0,0,0,0,0,0,0,0,0,0,,,,,,,,,,,,,
217,338544,0,0.0,-31.0,,-0.02,0.12,1.06,0.0,-1.0,1.0,1.07,1.18,91.0,4037.0,38.2,4.25,,14.06,0.953,75.4,,55.4,5.0,,,,,,,,,,,,0,0,0,0,0,0,0,0,0,0,0,0,0,0,0,0,,,,,,0.0,,,,,,,
218,338564,0,,,,,,,,,,,,,,,,,,,,,,,,,,,,,,,,,,0,0,0,0,0,0,0,0,0,0,0,0,0,0,0,0,,,,,,,,,,,,,
219,338584,0,0.0,-31.0,,-0.03,0.01,1.06,0.0,-1.0,0.0,1.06,1.18,90.0,3879.0,30.2,4.65,,13.98,0.955,75.4,,55.4,5.0,0.0,38.0,0.0,0.0,0.0,24.0,0.0,0.0,2.25,,,0,0,0,0,0,0,0,0,0,0,0,0,0,0,0,0,,0.0,,,,0.0,0.0,0.0,0.0,0.0,0.0,0.0,0.0
220,338604,0,,,,,,,,,,,,,,,,,,,,,,,,,,,,,,,,,,0,0,0,0,0,0,0,0,0,0,0,0,0,0,0,0,,,,,,,,,,,,,
221,338624,0,0.0,-34.0,,-0.04,-0.21,1.0,1.0,-1.0,-2.0,1.03,1.18,87.0,3675.0,10.0,4.31,,13.48,0.954,75.4,,55.4,5.0,,,,,,,,,,,,0,0,0,0,0,0,0,0,0,0,0,0,0,0,0,0,,,,,,0.0,,,,,,,
222,338644,0,,,,,,,,,,,,,,,,,,,,,,,,,,,,,,,,,,0,0,0,0,0,0,0,0,0,0,0,0,0,0,0,0,,,,,,,,,,,,,
223,338664,0,0.0,-31.0,,-0.06,0.14,1.03,3.0,-1.0,0.0,1.04,1.18,88.0,3613.0,0.0,3.0,,13.48,0.954,75.4,,54.1,5.0,,,,,,,,,,,,0,0,0,0,0,0,0,0,0,0,0,0,0,0,0,0,,,,,,0.0,,,,,,,
224,338684,0,,,,,,,,,,,,,,,,,,,,,,,0.0,26.0,0.0,0.0,0.0,24.0,0.0,0.0,2.25,,,0,0,0,0,0,0,0,0,0,0,0,0,0,0,0,0,,0.0,,,,,0.0,0.0,0.0,0.0,0.0,0.0,0.0
225,338704,0,0.0,-44.0,,-0.04,0.02,1.07,3.0,-1.0,0.0,1.07,1.18,91.0,3613.0,0.0,3.0,,12.83,0.953,75.4,,54.1,5.0,,,,,,,,,,,,0,0,0,0,0,0,0,0,0,0,0,0,0,0,0,0,,,,,,0.0,,,,,,,
226,338724,0,,,,,,,,,,,,,,,,,,,,,,,,,,,,,,,,,,0,0,0,0,0,0,0,0,0,0,0,0,0,0,0,0,,,,,,,,,,,,,
227,338744,0,0.0,-38.0,,-0.05,0.17,1.03,1.0,-1.0,-1.0,1.05,1.18,89.0,3534.0,0.0,3.03,,12.43,0.956,75.4,,54.7,5.0,,,,,,,,,,,,0,0,0,0,0,0,0,0,0,0,0,0,0,0,0,0,,,,,,0.0,,,,,,,
228,338764,0,,,,,,,,,,,,,,,,,,,,,,,,,,,,,,,,,,0,0,0,0,0,0,0,0,0,0,0,0,0,0,0,0,,,,,,,,,,,,,
229,338784,0,0.0,-38.0,,-0.06,0.32,1.02,0.0,-1.0,0.0,1.07,1.18,91.0,3486.0,0.0,3.06,,12.29,0.953,75.4,,54.7,5.0,0.0,127.0,0.0,0.0,0.0,24.0,0.0,0.0,2.25,,,0,0,0,0,0,0,0,0,0,0,0,0,0,0,0,0,,0.0,,,,0.0,0.0,0.0,0.0,0.0,0.0,0.0,0.0
230,338804,0,,,,,,,,,,,,,,,,,,,,,,,,,,,,,,,,,,0,0,0,0,0,0,0,0,0,0,0,0,0,0,0,0,,,,,,,,,,,,,
231,338824,0,0.0,-51.0,,-0.07,0.29,1.06,-1.0,-1.0,-1.0,1.1,1.18,94.0,3428.0,8.7,4.03,,12.68,0.955,75.4,,54.7,5.0,,,,,,,,,,,,0,0,0,0,0,0,0,0,0,0,0,0,0,0,0,0,,,,,,0.0,,,,,,,
232,338844,0,,,,,,,,,,,,,,,,,,,,,,,,,,,,,,,,,,0,0,0,0,0,0,0,0,0,0,0,0,0,0,0,0,,,,,,,,,,,,,
233,338864,0,0.0,-55.0,,-0.07,0.26,1.01,-1.0,-1.0,-1.0,1.05,1.18,89.0,3277.0,17.3,4.5,,12.68,0.955,75.4,,56.1,5.0,,,,,,,,,,,,0,0,0,0,0,0,0,0,0,0,0,0,0,0,0,0,,,,,,0.0,,,,,,,
234,338884,0,,,,,,,,,,,,,,,,,,,,,,,0.0,22.0,0.0,0.0,0.0,24.0,0.0,0.0,2.25,,,0,0,0,0,0,0,0,0,0,0,0,0,0,0,0,0,,0.0,,,,,0.0,0.0,0.0,0.0,0.0,0.0,0.0
235,338904,0,0.0,-41.0,,-0.07,0.27,1.0,-1.0,0.0,-1.0,1.03,1.18,88.0,3277.0,17.3,4.5,,13.52,0.956,77.2,,56.1,5.0,,,,,,,,,,,,0,0,0,0,0,0,0,0,0,0,0,0,0,0,0,0,,,,,,0.0,,,,,,,
236,338924,0,,,,,,,,,,,,,,,,,,,,,,,,,,,,,,,,,,0,0,0,0,0,0,0,0,0,0,0,0,0,0,0,0,,,,,,,,,,,,,
237,338944,0,0.0,-48.0,,-0.07,0.15,1.06,-1.0,0.0,-1.0,1.08,1.18,91.0,3318.0,16.4,4.3,,13.77,0.951,77.2,,55.7,5.0,,,,,,,,,,,,0,0,0,0,0,0,0,0,0,0,0,0,0,0,0,0,,,,,,0.0,,,,,,,
238,338964,0,,,,,,,,,,,,,,,,,,,,,,,,,,,,,,,,,,0,0,0,0,0,0,0,0,0,0,0,0,0,0,0,0,,,,,,,,,,,,,
239,338984,0,0.0,-41.0,,-0.08,0.19,0.97,-1.0,-1.0,-1.0,1.0,1.18,85.0,3253.0,2.6,3.66,,13.4,0.953,77.2,,55.7,5.0,0.0,9.0,0.0,0.0,0.0,24.0,0.0,0.0,2.25,,,0,0,0,0,0,0,0,0,0,0,0,0,0,0,0,0,,0.0,,,,0.0,0.0,0.0,0.0,0.0,0.0,0.0,0.0
240,339004,0,,,,,,,,,,,,,,,,,,,,,,,,,,,,,,,,,,0,0,0,0,0,0,0,0,0,0,0,0,0,0,0,0,,,,,,,,,,,,,
241,339024,0,0.0,-41.0,,-0.09,0.19,0.96,-1.0,0.0,-1.0,0.98,1.18,83.0,3157.0,0.0,3.32,,12.96,0.954,77.2,,55.7,5.0,,,,,,,,,,,,0,0,0,0,0,0,0,0,0,0,0,0,0,0,0,0,,,,,,0.0,,,,,,,
242,339044,0,,,,,,,,,,,,,,,,,,,,,,,,,,,,,,,,,,0,0,0,0,0,0,0,0,0,0,0,0,0,0,0,0,,,,,,,,,,,,,
243,339064,0,0.0,-48.0,,-0.07,0.11,1.06,-1.0,0.0,-1.0,1.07,1.18,90.0,3219.0,0.0,3.36,,12.96,0.954,77.2,,54.8,5.0,,,,,,,,,,,,0,0,0,0,0,0,0,0,0,0,0,0,0,0,0,0,,,,,,0.0,,,,,,,
244,339084,0,,,,,,,,,,,,,,,,,,,,,,,0.0,139.0,0.0,0.0,0.0,24.0,0.0,0.0,2.25,,,0,0,0,0,0,0,0,0,0,0,0,0,0,0,0,0,,0.0,,,,,0.0,0.0,0.0,0.0,0.0,0.0,0.0
245,339104,0,0.0,-55.0,,-0.07,0.09,1.09,-1.0,0.0,0.0,1.09,1.18,93.0,3219.0,0.0,3.36,,12.72,0.955,77.2,,54.8,5.0,,,,,,,,,,,,0,0,0,0,0,0,0,0,0,0,0,0,0,0,0,0,,,,,,0.0,,,,,,,
246,339124,0,,,,,,,,,,,,,,,,,,,,,,,,,,,,,,,,,,0,0,0,0,0,0,0,0,0,0,0,0,0,0,0,0,,,,,,,,,,,,,
247,339144,0,0.0,-41.0,,-0.08,0.13,1.06,-1.0,-1.0,0.0,1.07,1.18,91.0,3163.0,0.0,3.37,,12.51,0.956,77.2,,55.3,5.0,,,,,,,,,,,,0,0,0,0,0,0,0,0,0,0,0,0,0,0,0,0,,,,,,0.0,,,,,,,
248,339164,0,,,,,,,,,,,,,,,,,,,,,,,,,,,,,,,,,,0,0,0,0,0,0,0,0,0,0,0,0,0,0,0,0,,,,,,,,,,,,,
249,339184,0,0.0,-51.0,,-0.1,0.12,1.01,-1.0,-1.0,-1.0,1.03,1.18,87.0,3025.0,0.0,3.42,,12.47,0.954,77.2,,55.3,5.0,0.0,13.0,0.0,0.0,0.0,24.0,0.0,0.0,2.25,,,0,0,0,0,0,0,0,0,0,0,0,0,0,0,0,0,,0.0,,,,0.0,0.0,0.0,0.0,0.0,0.0,0.0,0.0
250,339204,0,,,,,,,,,,,,,,,,,,,,,,,,,,,,,,,,,,0,0,0,0,0,0,0,0,0,0,0,0,0,0,0,0,,,,,,,,,,,,,
251,339224,0,0.0,-51.0,,-0.11,0.13,1.02,-1.0,-1.0,-1.0,1.03,1.18,88.0,2937.0,0.0,3.5,,12.51,0.952,77.2,,55.3,5.0,,,,,,,,,,,,0,0,0,0,0,0,0,0,0,0,0,0,0,0,0,0,,,,,,0.0,,,,,,,
252,339244,0,,,,,,,,,,,,,,,,,,,,,,,,,,,,,,,,,,0,0,0,0,0,0,0,0,0,0,0,0,0,0,0,0,,,,,,,,,,,,,
253,339264,0,0.0,-48.0,,-0.11,0.1,1.05,-1.0,-1.0,-1.0,1.06,1.18,90.0,2807.0,0.0,3.48,,12.51,0.952,77.2,,54.4,5.0,,,,,,,,,,,,0,0,0,0,0,0,0,0,0,0,0,0,0,0,0,0,,,,,,0.0,,,,,,,
254,339284,0,,,,,,,,,,,,,,,,,,,,,,,0.0,3.0,0.0,0.0,0.0,0.0,0.0,0.0,2.25,,,0,0,0,0,0,0,0,0,0,0,0,0,0,0,0,0,,0.0,,,,,0.0,0.0,0.0,0.0,0.0,0.0,0.0
255,339304,0,0.0,-55.0,,-0.11,0.1,1.01,-1.0,-1.0,-1.0,1.03,1.18,87.0,2807.0,0.0,3.48,,12.55,0.955,77.2,,54.4,5.0,,,,,,,,,,,,0,0,0,0,0,0,0,0,0,0,0,0,0,0,0,0,,,,,,0.0,,,,,,,
256,339324,0,,,,,,,,,,,,,,,,,,,,,,,,,,,,,,,,,,0,0,0,0,0,0,0,0,0,0,0,0,0,0,0,0,,,,,,,,,,,,,
257,339344,0,0.0,-41.0,,-0.11,0.08,1.03,-1.0,-1.0,-1.0,1.04,1.18,88.0,2665.0,0.0,3.46,,12.67,0.953,77.2,,52.3,5.0,,,,,,,,,,,,0,0,0,0,0,0,0,0,0,0,0,0,0,0,0,0,,,,,,0.0,,,,,,,
258,339364,0,,,,,,,,,,,,,,,,,,,,,,,,,,,,,,,,,,0,0,0,0,0,0,0,0,0,0,0,0,0,0,0,0,,,,,,,,,,,,,
259,339384,0,0.0,-38.0,14.08,-0.1,0.06,1.0,-1.0,-1.0,-1.0,1.01,1.18,85.0,2655.0,0.0,3.48,15.0,12.75,0.956,77.2,106.0,52.3,5.0,0.0,9.0,0.0,0.0,0.0,24.0,0.0,0.0,2.25,0.0,0.0,0,0,0,0,0,0,0,0,0,0,0,0,0,0,0,0,0.0,0.0,0.0,0.0,0.0,0.0,0.0,0.0,0.0,0.0,0.0,0.0,0.0
260,339404,0,,,,,,,,,,,,,,,,,,,,,,,,,,,,,,,,,,0,0,0,0,0,0,0,0,0,0,0,0,0,0,0,0,,,,,,,,,,,,,
261,339424,0,0.0,-51.0,,-0.11,0.08,0.99,-1.0,-1.0,-1.0,1.0,1.18,85.0,2544.0,0.0,3.45,,12.88,0.954,77.2,,52.3,5.0,,,,,,,,,,,,0,0,0,0,0,0,0,0,0,0,0,0,0,0,0,0,,,,,,0.0,,,,,,,
262,339444,0,,,,,,,,,,,,,,,,,,,,,,,,,,,,,,,,,,0,0,0,0,0,0,0,0,0,0,0,0,0,0,0,0,,,,,,,,,,,,,
263,339464,0,0.0,-51.0,,-0.1,0.06,1.0,-1.0,-1.0,-1.0,1.01,1.18,85.0,2364.0,0.0,3.45,,12.88,0.954,77.2,,45.8,5.0,,,,,,,,,,,,0,0,0,0,0,0,0,0,0,0,0,0,0,0,0,0,,,,,,0.0,,,,,,,
264,339484,0,,,,,,,,,,,,,,,,,,,,,,,0.0,9.0,0.0,0.0,0.0,24.0,0.0,0.0,2.25,,,0,0,0,0,0,0,0,0,0,0,0,0,0,0,0,0,,0.0,,,,,0.0,0.0,0.0,0.0,0.0,0.0,0.0
265,339504,0,0.0,-51.0,,-0.1,0.06,1.0,-1.0,-1.0,-1.0,1.01,1.18,86.0,2364.0,0.0,3.45,,13.05,0.954,77.2,,45.8,5.0,,,,,,,,,,,,0,0,0,0,0,0,0,0,0,0,0,0,0,0,0,0,,,,,,0.0,,,,,,,
266,339524,0,,,,,,,,,,,,,,,,,,,,,,,,,,,,,,,,,,0,0,0,0,0,0,0,0,0,0,0,0,0,0,0,0,,,,,,,,,,,,,
267,339544,0,0.0,-38.0,,-0.09,0.03,1.01,0.0,-1.0,-1.0,1.02,1.18,86.0,2146.0,6.5,3.66,,13.64,0.957,77.2,,38.4,5.0,,,,,,,,,,,,0,0,0,0,0,0,0,0,0,0,0,0,0,0,0,0,,,,,,0.0,,,,,,,
268,339564,0,,,,,,,,,,,,,,,,,,,,,,,,,,,,,,,,,,0,0,0,0,0,0,0,0,0,0,0,0,0,0,0,0,,,,,,,,,,,,,
269,339584,0,0.0,-38.0,,-0.09,0.03,1.0,-1.0,-1.0,-1.0,1.0,1.18,85.0,1984.0,13.0,4.09,,14.15,0.952,77.2,,38.4,5.0,0.0,256.0,0.0,0.0,0.0,24.0,0.0,0.0,2.25,,,0,0,0,0,0,0,0,0,0,0,0,0,0,0,0,0,,0.0,,,,0.0,0.0,0.0,0.0,0.0,0.0,0.0,0.0
270,339604,0,,,,,,,,,,,,,,,,,,,,,,,,,,,,,,,,,,0,0,0,0,0,0,0,0,0,0,0,0,0,0,0,0,,,,,,,,,,,,,
271,339624,0,0.0,-51.0,,-0.08,0.03,1.01,0.0,-1.0,-1.0,1.01,1.18,86.0,1823.0,13.6,4.18,,14.32,0.956,77.2,,38.4,5.0,,,,,,,,,,,,0,0,0,0,0,0,0,0,0,0,0,0,0,0,0,0,,,,,,0.0,,,,,,,
272,339644,0,,,,,,,,,,,,,,,,,,,,,,,,,,,,,,,,,,0,0,0,0,0,0,0,0,0,0,0,0,0,0,0,0,,,,,,,,,,,,,
273,339664,0,0.0,-44.0,,-0.09,0.01,1.0,-1.0,-1.0,0.0,1.0,1.18,85.0,1819.0,7.0,3.43,,14.32,0.956,77.2,,35.2,5.0,,,,,,,,,,,,0,0,0,0,0,0,0,0,0,0,0,0,0,0,0,0,,,,,,0.0,,,,,,,
274,339684,0,,,,,,,,,,,,,,,,,,,,,,,0.0,191.0,0.0,0.0,0.0,24.0,0.0,0.0,2.25,,,0,0,0,0,0,0,0,0,0,0,0,0,0,0,0,0,,0.0,,,,,0.0,0.0,0.0,0.0,0.0,0.0,0.0
275,339704,0,0.0,-55.0,,-0.08,0.04,1.01,-1.0,-1.0,0.0,1.01,1.18,86.0,1819.0,7.0,3.43,,14.22,0.955,77.2,,35.2,5.0,,,,,,,,,,,,0,0,0,0,0,0,0,0,0,0,0,0,0,0,0,0,,,,,,0.0,,,,,,,
276,339724,0,,,,,,,,,,,,,,,,,,,,,,,,,,,,,,,,,,0,0,0,0,0,0,0,0,0,0,0,0,0,0,0,0,,,,,,,,,,,,,
277,339744,0,0.0,-38.0,,-0.09,0.05,0.98,-1.0,-1.0,0.0,0.99,1.18,84.0,1910.0,0.0,3.47,,14.07,0.953,77.2,,32.9,5.0,,,,,,,,,,,,0,0,0,0,0,0,0,0,0,0,0,0,0,0,0,0,,,,,,0.0,,,,,,,
278,339764,0,,,,,,,,,,,,,,,,,,,,,,,,,,,,,,,,,,0,0,0,0,0,0,0,0,0,0,0,0,0,0,0,0,,,,,,,,,,,,,
279,339784,0,0.0,-44.0,,-0.06,0.01,0.98,0.0,-1.0,0.0,0.99,1.18,84.0,1800.0,0.0,3.4,,14.03,0.956,77.2,,32.9,5.0,0.0,8.0,0.0,0.0,0.0,24.0,0.0,0.0,2.25,,,0,0,0,0,0,0,0,0,0,0,0,0,0,0,0,0,,0.0,,,,0.0,0.0,0.0,0.0,0.0,0.0,0.0,0.0
280,339804,0,,,,,,,,,,,,,,,,,,,,,,,,,,,,,,,,,,0,0,0,0,0,0,0,0,0,0,0,0,0,0,0,0,,,,,,,,,,,,,
281,339824,0,0.0,-41.0,,-0.05,0.03,0.99,0.0,-1.0,0.0,1.0,1.18,84.0,1651.0,0.0,3.4,,13.96,0.952,77.2,,32.9,5.0,,,,,,,,,,,,0,0,0,0,0,0,0,0,0,0,0,0,0,0,0,0,,,,,,0.0,,,,,,,
282,339844,0,,,,,,,,,,,,,,,,,,,,,,,,,,,,,,,,,,0,0,0,0,0,0,0,0,0,0,0,0,0,0,0,0,,,,,,,,,,,,,
283,339864,0,0.0,-48.0,,-0.07,0.02,1.02,0.0,-1.0,0.0,1.02,1.18,86.0,1677.0,0.0,3.35,,13.96,0.952,77.2,,30.7,5.0,,,,,,,,,,,,0,0,0,0,0,0,0,0,0,0,0,0,0,0,0,0,,,,,,0.0,,,,,,,
284,339884,0,,,,,,,,,,,,,,,,,,,,,,,0.0,9.0,0.0,0.0,0.0,24.0,0.0,0.0,2.25,,,0,0,0,0,0,0,0,0,0,0,0,0,0,0,0,0,,0.0,,,,,0.0,0.0,0.0,0.0,0.0,0.0,0.0
285,339904,0,0.0,-51.0,,-0.09,0.02,1.03,-1.0,-1.0,0.0,1.03,1.18,88.0,1677.0,0.0,3.35,,14.03,0.956,77.2,,30.7,5.0,,,,,,,,,,,,0,0,0,0,0,0,0,0,0,0,0,0,0,0,0,0,,,,,,0.0,,,,,,,
286,339924,0,,,,,,,,,,,,,,,,,,,,,,,,,,,,,,,,,,0,0,0,0,0,0,0,0,0,0,0,0,0,0,0,0,,,,,,,,,,,,,
287,339944,0,0.0,-38.0,,-0.1,0.03,1.03,0.0,-1.0,0.0,1.03,1.18,88.0,1561.0,0.0,3.31,,14.02,0.956,77.2,,27.9,5.0,,,,,,,,,,,,0,0,0,0,0,0,0,0,0,0,0,0,0,0,0,0,,,,,,0.0,,,,,,,
288,339964,0,,,,,,,,,,,,,,,,,,,,,,,,,,,,,,,,,,0,0,0,0,0,0,0,0,0,0,0,0,0,0,0,0,,,,,,,,,,,,,
289,339984,0,0.0,-38.0,,-0.1,0.03,1.05,0.0,-1.0,0.0,1.06,1.18,90.0,1423.0,0.0,3.32,,14.14,0.952,77.2,,27.9,5.0,0.0,7.0,0.0,0.0,0.0,24.0,0.0,0.0,2.25,,,0,0,0,0,0,0,0,0,0,0,0,0,0,0,0,0,,0.0,,,,0.0,0.0,0.0,0.0,0.0,0.0,0.0,0.0
290,340004,0,,,,,,,,,,,,,,,,,,,,,,,,,,,,,,,,,,0,0,0,0,0,0,0,0,0,0,0,0,0,0,0,0,,,,,,,,,,,,,
291,340024,0,0.0,-48.0,,-0.1,0.03,1.06,0.0,-1.0,0.0,1.07,1.18,91.0,1509.0,0.0,3.27,,14.04,0.955,77.2,,27.9,5.0,,,,,,,,,,,,0,0,0,0,0,0,0,0,0,0,0,0,0,0,0,0,,,,,,0.0,,,,,,,
292,340044,0,,,,,,,,,,,,,,,,,,,,,,,,,,,,,,,,,,0,0,0,0,0,0,0,0,0,0,0,0,0,0,0,0,,,,,,,,,,,,,
293,340064,0,0.0,-51.0,,-0.07,0.02,1.07,1.0,-1.0,0.0,1.07,1.18,91.0,1350.0,0.0,3.31,,14.04,0.955,77.2,,25.6,5.0,,,,,,,,,,,,0,0,0,0,0,0,0,0,0,0,0,0,0,0,0,0,,,,,,0.0,,,,,,,
294,340084,0,,,,,,,,,,,,,,,,,,,,,,,0.0,6.0,0.0,0.0,0.0,24.0,0.0,0.0,2.25,,,0,0,0,0,0,0,0,0,0,0,0,0,0,0,0,0,,0.0,,,,,0.0,0.0,0.0,0.0,0.0,0.0,0.0
295,340104,0,0.0,-48.0,,-0.06,0.03,1.06,1.0,-1.0,0.0,1.07,1.18,90.0,1350.0,0.0,3.31,,14.18,0.953,77.2,,25.6,5.0,,,,,,,,,,,,0,0,0,0,0,0,0,0,0,0,0,0,0,0,0,0,,,,,,0.0,,,,,,,
296,340124,0,,,,,,,,,,,,,,,,,,,,,,,,,,,,,,,,,,0,0,0,0,0,0,0,0,0,0,0,0,0,0,0,0,,,,,,,,,,,,,
297,340144,0,0.0,-44.0,,-0.06,0.03,1.05,1.0,-1.0,0.0,1.05,1.18,89.0,1447.0,0.0,3.25,,14.26,0.952,77.2,,24.3,5.0,,,,,,,,,,,,0,0,0,0,0,0,0,0,0,0,0,0,0,0,0,0,,,,,,0.0,,,,,,,
298,340164,0,,,,,,,,,,,,,,,,,,,,,,,,,,,,,,,,,,0,0,0,0,0,0,0,0,0,0,0,0,0,0,0,0,,,,,,,,,,,,,
299,340184,0,0.0,-41.0,,-0.07,0.05,1.03,0.0,-1.0,0.0,1.03,1.18,87.0,1440.0,11.7,4.12,,14.34,0.955,77.2,,24.3,5.0,0.0,6.0,0.0,0.0,0.0,24.0,0.0,0.0,2.25,,,0,0,0,0,0,0,0,0,0,0,0,0,0,0,0,0,,0.0,,,,0.0,0.0,0.0,0.0,0.0,0.0,0.0,0.0
300,340204,0,,,,,,,,,,,,,,,,,,,,,,,,,,,,,,,,,,0,0,0,0,0,0,0,0,0,0,0,0,0,0,0,0,,,,,,,,,,,,,
301,340224,0,0.0,-55.0,,-0.07,0.04,1.03,0.0,-1.0,0.0,1.04,1.18,88.0,1276.0,18.0,4.42,,14.43,0.952,77.2,,24.3,5.0,,,,,,,,,,,,0,0,0,0,0,0,0,0,0,0,0,0,0,0,0,0,,,,,,0.0,,,,,,,
302,340244,0,,,,,,,,,,,,,,,,,,,,,,,,,,,,,,,,,,0,0,0,0,0,0,0,0,0,0,0,0,0,0,0,0,,,,,,,,,,,,,
303,340264,0,0.0,-44.0,,-0.07,0.04,1.05,0.0,-1.0,0.0,1.05,1.18,89.0,1465.0,18.3,4.3,,14.43,0.952,77.2,,24.5,5.0,,,,,,,,,,,,0,0,0,0,0,0,0,0,0,0,0,0,0,0,0,0,,,,,,0.0,,,,,,,
304,340284,0,,,,,,,,,,,,,,,,,,,,,,,0.0,22.0,0.0,0.0,0.0,0.0,0.0,0.0,2.25,,,0,0,0,0,0,0,0,0,0,0,0,0,0,0,0,0,,0.0,,,,,0.0,0.0,0.0,0.0,0.0,0.0,0.0
305,340304,0,0.0,-48.0,,-0.07,0.03,1.05,0.0,-1.0,0.0,1.05,1.18,89.0,1465.0,18.3,4.3,,14.54,0.956,77.2,,24.5,5.0,,,,,,,,,,,,0,0,0,0,0,0,0,0,0,0,0,0,0,0,0,0,,,,,,0.0,,,,,,,
306,340324,0,,,,,,,,,,,,,,,,,,,,,,,,,,,,,,,,,,0,0,0,0,0,0,0,0,0,0,0,0,0,0,0,0,,,,,,,,,,,,,
307,340344,0,0.0,-44.0,,-0.05,0.03,1.04,1.0,-1.0,0.0,1.05,1.18,89.0,1341.0,9.7,4.14,,14.42,0.957,77.2,,27.2,5.0,,,,,,,,,,,,0,0,0,0,0,0,0,0,0,0,0,0,0,0,0,0,,,,,,0.0,,,,,,,
308,340364,0,,,,,,,,,,,,,,,,,,,,,,,,,,,,,,,,,,0,0,0,0,0,0,0,0,0,0,0,0,0,0,0,0,,,,,,,,,,,,,
309,340384,0,0.0,-48.0,14.06,-0.05,0.03,1.06,1.0,-1.0,0.0,1.06,1.18,90.0,1605.0,0.5,3.49,15.0,14.28,0.952,77.2,106.0,27.2,5.0,0.0,12.0,0.0,0.0,0.0,24.0,0.0,0.0,2.25,0.0,0.0,0,0,0,0,0,0,0,0,0,0,0,0,0,0,0,0,0.0,0.0,0.0,0.0,0.0,0.0,0.0,0.0,0.0,0.0,0.0,0.0,0.0
310,340404,0,,,,,,,,,,,,,,,,,,,,,,,,,,,,,,,,,,0,0,0,0,0,0,0,0,0,0,0,0,0,0,0,0,,,,,,,,,,,,,
311,340424,0,0.0,-48.0,,-0.06,0.05,1.07,0.0,-1.0,0.0,1.08,1.18,91.0,1605.0,0.0,3.31,,14.15,0.955,77.2,,27.2,5.0,,,,,,,,,,,,0,0,0,0,0,0,0,0,0,0,0,0,0,0,0,0,,,,,,0.0,,,,,,,
312,340444,0,,,,,,,,,,,,,,,,,,,,,,,,,,,,,,,,,,0,0,0,0,0,0,0,0,0,0,0,0,0,0,0,0,,,,,,,,,,,,,
313,340464,0,0.0,-48.0,,-0.07,0.05,1.09,0.0,-1.0,0.0,1.1,1.18,93.0,1494.0,0.0,3.34,,14.15,0.955,77.2,,28.5,5.0,,,,,,,,,,,,0,0,0,0,0,0,0,0,0,0,0,0,0,0,0,0,,,,,,0.0,,,,,,,
314,340484,0,,,,,,,,,,,,,,,,,,,,,,,0.0,8.0,0.0,0.0,0.0,24.0,0.0,0.0,2.25,,,0,0,0,0,0,0,0,0,0,0,0,0,0,0,0,0,,0.0,,,,,0.0,0.0,0.0,0.0,0.0,0.0,0.0
315,340504,0,0.0,-48.0,,-0.09,0.05,1.11,0.0,-1.0,-1.0,1.11,1.18,94.0,1494.0,0.0,3.34,,14.24,0.954,77.2,,28.5,5.0,,,,,,,,,,,,0,0,0,0,0,0,0,0,0,0,0,0,0,0,0,0,,,,,,0.0,,,,,,,
316,340524,0,,,,,,,,,,,,,,,,,,,,,,,,,,,,,,,,,,0,0,0,0,0,0,0,0,0,0,0,0,0,0,0,0,,,,,,,,,,,,,
317,340544,0,0.0,-44.0,,-0.09,0.05,1.12,0.0,-1.0,-1.0,1.12,1.18,95.0,1559.0,0.0,3.31,,14.1,0.952,77.2,,26.6,5.0,,,,,,,,,,,,0,0,0,0,0,0,0,0,0,0,0,0,0,0,0,0,,,,,,0.0,,,,,,,
318,340564,0,,,,,,,,,,,,,,,,,,,,,,,,,,,,,,,,,,0,0,0,0,0,0,0,0,0,0,0,0,0,0,0,0,,,,,,,,,,,,,
319,340584,0,0.0,-38.0,,-0.1,0.05,1.13,0.0,-1.0,-1.0,1.14,1.18,97.0,1440.0,0.0,3.33,,14.22,0.955,77.2,,26.6,5.0,0.0,6.0,0.0,0.0,0.0,24.0,0.0,0.0,2.25,,,0,0,0,0,0,0,0,0,0,0,0,0,0,0,0,0,,0.0,,,,0.0,0.0,0.0,0.0,0.0,0.0,0.0,0.0
320,340604,0,,,,,,,,,,,,,,,,,,,,,,,,,,,,,,,,,,0,0,0,0,0,0,0,0,0,0,0,0,0,0,0,0,,,,,,,,,,,,,
321,340624,0,0.0,-51.0,,-0.1,0.05,1.14,1.0,-1.0,-1.0,1.14,1.18,97.0,1426.0,0.0,3.33,,14.08,0.953,77.2,,26.6,5.0,,,,,,,,,,,,0,0,0,0,0,0,0,0,0,0,0,0,0,0,0,0,,,,,,0.0,,,,,,,
322,340644,0,,,,,,,,,,,,,,,,,,,,,,,,,,,,,,,,,,0,0,0,0,0,0,0,0,0,0,0,0,0,0,0,0,,,,,,,,,,,,,
323,340664,0,0.0,-51.0,,-0.11,0.06,1.15,1.0,-1.0,-1.0,1.16,1.18,98.0,1529.0,0.0,3.28,,14.08,0.953,77.2,,26.3,5.0,,,,,,,,,,,,0,0,0,0,0,0,0,0,0,0,0,0,0,0,0,0,,,,,,0.0,,,,,,,
324,340684,0,,,,,,,,,,,,,,,,,,,,,,,0.0,26.0,0.0,0.0,0.0,0.0,0.0,0.0,2.25,,,0,0,0,0,0,0,0,0,0,0,0,0,0,0,0,0,,0.0,,,,,0.0,0.0,0.0,0.0,0.0,0.0,0.0
325,340704,0,0.0,-51.0,,-0.1,0.06,1.15,1.0,-1.0,-1.0,1.15,1.18,98.0,1529.0,0.0,3.28,,14.2,0.955,77.2,,26.3,5.0,,,,,,,,,,,,0,0,0,0,0,0,0,0,0,0,0,0,0,0,0,0,,,,,,0.0,,,,,,,
326,340724,0,,,,,,,,,,,,,,,,,,,,,,,,,,,,,,,,,,0,0,0,0,0,0,0,0,0,0,0,0,0,0,0,0,,,,,,,,,,,,,
327,340744,0,0.0,-41.0,,-0.1,0.05,1.14,1.0,-1.0,-1.0,1.15,1.18,97.0,1413.0,0.0,3.32,,14.11,0.956,77.2,,27.3,5.0,,,,,,,,,,,,0,0,0,0,0,0,0,0,0,0,0,0,0,0,0,0,,,,,,0.0,,,,,,,
328,340764,0,,,,,,,,,,,,,,,,,,,,,,,,,,,,,,,,,,0,0,0,0,0,0,0,0,0,0,0,0,0,0,0,0,,,,,,,,,,,,,
329,340784,0,0.0,-41.0,,-0.1,0.05,1.14,1.0,-1.0,-1.0,1.14,1.18,97.0,1528.0,0.0,3.28,,14.15,0.952,77.2,,27.3,5.0,0.0,8.0,0.0,0.0,0.0,24.0,0.0,0.0,2.25,,,0,0,0,0,0,0,0,0,0,0,0,0,0,0,0,0,,0.0,,,,0.0,0.0,0.0,0.0,0.0,0.0,0.0,0.0
330,340804,0,,,,,,,,,,,,,,,,,,,,,,,,,,,,,,,,,,0,0,0,0,0,0,0,0,0,0,0,0,0,0,0,0,,,,,,,,,,,,,
331,340824,0,0.0,-55.0,,-0.08,0.05,1.13,1.0,-1.0,0.0,1.14,1.18,96.0,1367.0,0.0,3.3,,14.2,0.956,77.2,,27.3,5.0,,,,,,,,,,,,0,0,0,0,0,0,0,0,0,0,0,0,0,0,0,0,,,,,,0.0,,,,,,,
332,340844,0,,,,,,,,,,,,,,,,,,,,,,,,,,,,,,,,,,0,0,0,0,0,0,0,0,0,0,0,0,0,0,0,0,,,,,,,,,,,,,
333,340864,0,0.0,-51.0,,-0.07,0.04,1.1,0.0,-1.0,0.0,1.11,1.18,94.0,1341.0,0.0,3.29,,14.2,0.956,77.2,,26.7,5.0,,,,,,,,,,,,0,0,0,0,0,0,0,0,0,0,0,0,0,0,0,0,,,,,,0.0,,,,,,,
334,340884,0,,,,,,,,,,,,,,,,,,,,,,,0.0,10.0,0.0,0.0,0.0,24.0,0.0,0.0,2.25,,,0,0,0,0,0,0,0,0,0,0,0,0,0,0,0,0,,0.0,,,,,0.0,0.0,0.0,0.0,0.0,0.0,0.0
335,340904,0,0.0,-58.0,,-0.06,0.04,1.07,0.0,-1.0,0.0,1.08,1.18,91.0,1341.0,0.0,3.29,,14.12,0.954,77.2,,26.7,5.0,,,,,,,,,,,,0,0,0,0,0,0,0,0,0,0,0,0,0,0,0,0,,,,,,0.0,,,,,,,
336,340924,0,,,,,,,,,,,,,,,,,,,,,,,,,,,,,,,,,,0,0,0,0,0,0,0,0,0,0,0,0,0,0,0,0,,,,,,,,,,,,,
337,340944,0,0.0,-48.0,,-0.06,0.04,1.05,0.0,-1.0,0.0,1.06,1.18,90.0,1476.0,0.0,3.26,,14.23,0.955,77.2,,25.5,5.0,,,,,,,,,,,,0,0,0,0,0,0,0,0,0,0,0,0,0,0,0,0,,,,,,0.0,,,,,,,
338,340964,0,,,,,,,,,,,,,,,,,,,,,,,,,,,,,,,,,,0,0,0,0,0,0,0,0,0,0,0,0,0,0,0,0,,,,,,,,,,,,,
339,340984,0,0.0,-44.0,,-0.06,0.03,1.05,0.0,-1.0,0.0,1.05,1.18,89.0,1276.0,0.0,3.3,,14.31,0.957,77.2,,25.5,5.0,0.0,7.0,0.0,0.0,0.0,24.0,0.0,0.0,2.25,,,0,0,0,0,0,0,0,0,0,0,0,0,0,0,0,0,,0.0,,,,0.0,0.0,0.0,0.0,0.0,0.0,0.0,0.0
340,341004,0,,,,,,,,,,,,,,,,,,,,,,,,,,,,,,,,,,0,0,0,0,0,0,0,0,0,0,0,0,0,0,0,0,,,,,,,,,,,,,
341,341024,0,0.0,-58.0,,-0.06,0.03,1.05,0.0,-1.0,0.0,1.05,1.18,89.0,1348.0,0.0,3.22,,14.26,0.954,77.2,,25.5,5.0,,,,,,,,,,,,0,0,0,0,0,0,0,0,0,0,0,0,0,0,0,0,,,,,,0.0,,,,,,,
342,341044,0,,,,,,,,,,,,,,,,,,,,,,,,,,,,,,,,,,0,0,0,0,0,0,0,0,0,0,0,0,0,0,0,0,,,,,,,,,,,,,
343,341064,0,0.0,-51.0,,-0.07,0.03,1.04,0.0,-1.0,0.0,1.04,1.18,88.0,1213.0,0.0,3.26,,14.26,0.954,77.2,,23.6,5.0,,,,,,,,,,,,0,0,0,0,0,0,0,0,0,0,0,0,0,0,0,0,,,,,,0.0,,,,,,,
344,341084,0,,,,,,,,,,,,,,,,,,,,,,,0.0,37.0,0.0,0.0,0.0,24.0,0.0,0.0,2.25,,,0,0,0,0,0,0,0,0,0,0,0,0,0,0,0,0,,0.0,,,,,0.0,0.0,0.0,0.0,0.0,0.0,0.0
345,341104,0,0.0,-61.0,,-0.08,0.04,1.02,0.0,-1.0,0.0,1.03,1.18,87.0,1213.0,0.0,3.26,,14.23,0.956,77.2,,23.6,5.0,,,,,,,,,,,,0,0,0,0,0,0,0,0,0,0,0,0,0,0,0,0,,,,,,0.0,,,,,,,
346,341124,0,,,,,,,,,,,,,,,,,,,,,,,,,,,,,,,,,,0,0,0,0,0,0,0,0,0,0,0,0,0,0,0,0,,,,,,,,,,,,,
347,341144,0,0.0,-51.0,,-0.07,0.03,1.03,0.0,-1.0,0.0,1.03,1.18,87.0,1402.0,0.0,3.21,,14.16,0.956,77.2,,23.2,5.0,,,,,,,,,,,,0,0,0,0,0,0,0,0,0,0,0,0,0,0,0,0,,,,,,0.0,,,,,,,
348,341164,0,,,,,,,,,,,,,,,,,,,,,,,,,,,,,,,,,,0,0,0,0,0,0,0,0,0,0,0,0,0,0,0,0,,,,,,,,,,,,,
349,341184,0,0.0,-55.0,,-0.06,0.02,1.02,1.0,-1.0,0.0,1.02,1.18,87.0,1224.0,0.0,3.27,,14.2,0.951,77.2,,23.2,5.0,0.0,29.0,0.0,0.0,0.0,24.0,0.0,0.0,2.25,,,0,0,0,0,0,0,0,0,0,0,0,0,0,0,0,0,,0.0,,,,0.0,0.0,0.0,0.0,0.0,0.0,0.0,0.0
350,341204,0,,,,,,,,,,,,,,,,,,,,,,,,,,,,,,,,,,0,0,0,0,0,0,0,0,0,0,0,0,0,0,0,0,,,,,,,,,,,,,
351,341224,0,0.0,-58.0,,-0.06,0.02,1.02,0.0,-1.0,0.0,1.02,1.18,87.0,1381.0,0.0,3.22,,14.23,0.954,77.2,,23.2,5.0,,,,,,,,,,,,0,0,0,0,0,0,0,0,0,0,0,0,0,0,0,0,,,,,,0.0,,,,,,,
352,341244,0,,,,,,,,,,,,,,,,,,,,,,,,,,,,,,,,,,0,0,0,0,0,0,0,0,0,0,0,0,0,0,0,0,,,,,,,,,,,,,
353,341264,0,0.0,-51.0,,-0.07,0.03,1.03,0.0,-1.0,0.0,1.04,1.18,88.0,1210.0,0.0,3.27,,14.23,0.954,77.2,,22.8,5.0,,,,,,,,,,,,0,0,0,0,0,0,0,0,0,0,0,0,0,0,0,0,,,,,,0.0,,,,,,,
354,341284,0,,,,,,,,,,,,,,,,,,,,,,,0.0,38.0,0.0,0.0,0.0,24.0,0.0,0.0,2.25,,,0,0,0,0,0,0,0,0,0,0,0,0,0,0,0,0,,0.0,,,,,0.0,0.0,0.0,0.0,0.0,0.0,0.0
355,341304,0,0.0,-58.0,,-0.07,0.03,1.03,0.0,-1.0,0.0,1.04,1.18,88.0,1210.0,0.0,3.27,,14.3,0.954,77.2,,22.8,5.0,,,,,,,,,,,,0,0,0,0,0,0,0,0,0,0,0,0,0,0,0,0,,,,,,0.0,,,,,,,
356,341324,0,,,,,,,,,,,,,,,,,,,,,,,,,,,,,,,,,,0,0,0,0,0,0,0,0,0,0,0,0,0,0,0,0,,,,,,,,,,,,,
357,341344,0,0.0,-51.0,,-0.07,0.03,1.02,0.0,-1.0,0.0,1.02,1.18,87.0,1392.0,0.0,3.21,,14.28,0.955,77.2,,23.0,5.0,,,,,,,,,,,,0,0,0,0,0,0,0,0,0,0,0,0,0,0,0,0,,,,,,0.0,,,,,,,
358,341364,0,,,,,,,,,,,,,,,,,,,,,,,,,,,,,,,,,,0,0,0,0,0,0,0,0,0,0,0,0,0,0,0,0,,,,,,,,,,,,,
359,341384,0,0.0,-44.0,13.95,-0.08,0.04,1.01,1.0,-1.0,0.0,1.01,1.18,86.0,1369.0,0.0,3.22,15.0,14.19,0.957,77.2,106.0,23.0,5.0,0.0,32.0,0.0,0.0,0.0,24.0,0.0,0.0,2.25,0.0,0.0,0,0,0,0,0,0,0,0,0,0,0,0,0,0,0,0,0.0,0.0,0.0,0.0,0.0,0.0,0.0,0.0,0.0,0.0,0.0,0.0,0.0
360,341404,0,,,,,,,,,,,,,,,,,,,,,,,,,,,,,,,,,,0,0,0,0,0,0,0,0,0,0,0,0,0,0,0,0,,,,,,,,,,,,,
361,341424,0,0.0,-48.0,,-0.06,0.03,1.01,1.0,-1.0,0.0,1.01,1.18,85.0,1210.0,0.0,3.26,,14.2,0.954,77.2,,23.0,5.0,,,,,,,,,,,,0,0,0,0,0,0,0,0,0,0,0,0,0,0,0,0,,,,,,0.0,,,,,,,
362,341444,0,,,,,,,,,,,,,,,,,,,,,,,,,,,,,,,,,,0,0,0,0,0,0,0,0,0,0,0,0,0,0,0,0,,,,,,,,,,,,,
363,341464,0,0.0,-61.0,,-0.05,0.02,1.02,1.0,-1.0,0.0,1.02,1.18,87.0,1399.0,0.0,3.21,,14.2,0.954,77.2,,23.1,5.0,,,,,,,,,,,,0,0,0,0,0,0,0,0,0,0,0,0,0,0,0,0,,,,,,0.0,,,,,,,
364,341484,0,,,,,,,,,,,,,,,,,,,,,,,0.0,41.0,0.0,0.0,0.0,0.0,0.0,0.0,2.25,,,0,0,0,0,0,0,0,0,0,0,0,0,0,0,0,0,,0.0,,,,,0.0,0.0,0.0,0.0,0.0,0.0,0.0
365,341504,0,0.0,-65.0,,-0.05,0.01,1.02,0.0,-1.0,0.0,1.02,1.18,86.0,1399.0,0.0,3.21,,14.18,0.955,77.2,,23.1,5.0,,,,,,,,,,,,0,0,0,0,0,0,0,0,0,0,0,0,0,0,0,0,,,,,,0.0,,,,,,,
366,341524,0,,,,,,,,,,,,,,,,,,,,,,,,,,,,,,,,,,0,0,0,0,0,0,0,0,0,0,0,0,0,0,0,0,,,,,,,,,,,,,
367,341544,0,0.0,-51.0,,-0.07,0.02,1.01,0.0,-1.0,0.0,1.02,1.18,86.0,1235.0,0.0,3.27,,14.22,0.955,77.2,,23.9,5.0,,,,,,,,,,,,0,0,0,0,0,0,0,0,0,0,0,0,0,0,0,0,,,,,,0.0,,,,,,,
368,341564,0,,,,,,,,,,,,,,,,,,,,,,,,,,,,,,,,,,0,0,0,0,0,0,0,0,0,0,0,0,0,0,0,0,,,,,,,,,,,,,
369,341584,0,0.0,-48.0,,-0.07,0.02,1.01,0.0,-1.0,0.0,1.01,1.18,86.0,1398.0,0.0,3.22,,14.27,0.951,77.2,,23.9,5.0,0.0,50.0,0.0,0.0,0.0,0.0,0.0,0.0,2.25,,,0,0,0,0,0,0,0,0,0,0,0,0,0,0,0,0,,0.0,,,,0.0,0.0,0.0,0.0,0.0,0.0,0.0,0.0
370,341604,0,,,,,,,,,,,,,,,,,,,,,,,,,,,,,,,,,,0,0,0,0,0,0,0,0,0,0,0,0,0,0,0,0,,,,,,,,,,,,,
371,341624,0,0.0,-61.0,,-0.06,-0.0,1.01,1.0,-1.0,0.0,1.01,1.18,85.0,1238.0,0.0,3.27,,14.27,0.955,77.2,,23.9,5.0,,,,,,,,,,,,0,0,0,0,0,0,0,0,0,0,0,0,0,0,0,0,,,,,,0.0,,,,,,,
372,341644,0,,,,,,,,,,,,,,,,,,,,,,,,,,,,,,,,,,0,0,0,0,0,0,0,0,0,0,0,0,0,0,0,0,,,,,,,,,,,,,
373,341664,0,0.0,-55.0,,-0.06,0.01,1.0,0.0,-1.0,0.0,1.0,1.18,85.0,1425.0,0.0,3.22,,14.27,0.955,77.2,,24.6,5.0,,,,,,,,,,,,0,0,0,0,0,0,0,0,0,0,0,0,0,0,0,0,,,,,,0.0,,,,,,,
374,341684,0,,,,,,,,,,,,,,,,,,,,,,,0.0,6.0,0.0,0.0,0.0,24.0,0.0,0.0,2.25,,,0,0,0,0,0,0,0,0,0,0,0,0,0,0,0,0,,0.0,,,,,0.0,0.0,0.0,0.0,0.0,0.0,0.0
375,341704,0,0.0,-65.0,,-0.08,0.02,1.0,0.0,-1.0,0.0,1.01,1.18,85.0,1425.0,0.0,3.22,,14.15,0.954,77.2,,24.6,5.0,,,,,,,,,,,,0,0,0,0,0,0,0,0,0,0,0,0,0,0,0,0,,,,,,0.0,,,,,,,
376,341724,0,,,,,,,,,,,,,,,,,,,,,,,,,,,,,,,,,,0,0,0,0,0,0,0,0,0,0,0,0,0,0,0,0,,,,,,,,,,,,,
377,341744,0,0.0,-44.0,,-0.09,0.02,1.02,0.0,-1.0,0.0,1.02,1.18,87.0,1258.0,0.0,3.28,,14.19,0.955,77.2,,25.0,5.0,,,,,,,,,,,,0,0,0,0,0,0,0,0,0,0,0,0,0,0,0,0,,,,,,0.0,,,,,,,
378,341764,0,,,,,,,,,,,,,,,,,,,,,,,,,,,,,,,,,,0,0,0,0,0,0,0,0,0,0,0,0,0,0,0,0,,,,,,,,,,,,,
379,341784,0,0.0,-51.0,,-0.09,0.01,1.02,0.0,-1.0,0.0,1.02,1.18,86.0,1398.0,0.0,3.23,,14.23,0.956,77.2,,25.0,5.0,0.0,26.0,0.0,0.0,0.0,24.0,0.0,0.0,2.25,,,0,0,0,0,0,0,0,0,0,0,0,0,0,0,0,0,,0.0,,,,0.0,0.0,0.0,0.0,0.0,0.0,0.0,0.0
380,341804,0,,,,,,,,,,,,,,,,,,,,,,,,,,,,,,,,,,0,0,0,0,0,0,0,0,0,0,0,0,0,0,0,0,,,,,,,,,,,,,
381,341824,0,0.0,-61.0,,-0.06,-0.03,1.0,1.0,-1.0,0.0,1.01,1.18,85.0,1237.0,0.0,3.27,,14.28,0.953,77.2,,25.0,5.0,,,,,,,,,,,,0,0,0,0,0,0,0,0,0,0,0,0,0,0,0,0,,,,,,0.0,,,,,,,
382,341844,0,,,,,,,,,,,,,,,,,,,,,,,,,,,,,,,,,,0,0,0,0,0,0,0,0,0,0,0,0,0,0,0,0,,,,,,,,,,,,,
383,341864,0,0.0,-51.0,,-0.06,-0.03,1.0,0.0,-1.0,0.0,1.0,1.18,85.0,1398.0,0.0,3.22,,14.28,0.953,77.2,,25.0,5.0,,,,,,,,,,,,0,0,0,0,0,0,0,0,0,0,0,0,0,0,0,0,,,,,,0.0,,,,,,,
384,341884,0,,,,,,,,,,,,,,,,,,,,,,,0.0,7.0,0.0,0.0,0.0,24.0,0.0,0.0,2.25,,,0,0,0,0,0,0,0,0,0,0,0,0,0,0,0,0,,0.0,,,,,0.0,0.0,0.0,0.0,0.0,0.0,0.0
385,341904,0,0.0,-65.0,,-0.07,-0.02,1.02,0.0,-1.0,0.0,1.02,1.18,87.0,1398.0,0.0,3.22,,14.27,0.956,77.2,,25.0,5.0,,,,,,,,,,,,0,0,0,0,0,0,0,0,0,0,0,0,0,0,0,0,,,,,,0.0,,,,,,,
386,341924,0,,,,,,,,,,,,,,,,,,,,,,,,,,,,,,,,,,0,0,0,0,0,0,0,0,0,0,0,0,0,0,0,0,,,,,,,,,,,,,
387,341944,0,0.0,-55.0,,-0.08,-0.01,1.03,0.0,-1.0,0.0,1.03,1.18,87.0,1381.0,0.0,3.22,,14.18,0.956,77.2,,24.5,5.0,,,,,,,,,,,,0,0,0,0,0,0,0,0,0,0,0,0,0,0,0,0,,,,,,0.0,,,,,,,
388,341964,0,,,,,,,,,,,,,,,,,,,,,,,,,,,,,,,,,,0,0,0,0,0,0,0,0,0,0,0,0,0,0,0,0,,,,,,,,,,,,,
389,341984,0,0.0,-58.0,,-0.07,-0.03,1.01,0.0,-1.0,0.0,1.02,1.18,86.0,1212.0,0.0,3.27,,14.18,0.954,77.2,,24.5,5.0,0.0,8.0,0.0,0.0,0.0,24.0,0.0,0.0,2.25,,,0,0,0,0,0,0,0,0,0,0,0,0,0,0,0,0,,0.0,,,,0.0,0.0,0.0,0.0,0.0,0.0,0.0,0.0
390,342004,0,,,,,,,,,,,,,,,,,,,,,,,,,,,,,,,,,,0,0,0,0,0,0,0,0,0,0,0,0,0,0,0,0,,,,,,,,,,,,,
391,342024,0,0.0,-58.0,,-0.07,-0.02,1.0,0.0,-1.0,0.0,1.0,1.18,85.0,1399.0,0.0,3.21,,14.19,0.956,77.2,,24.5,5.0,,,,,,,,,,,,0,0,0,0,0,0,0,0,0,0,0,0,0,0,0,0,,,,,,0.0,,,,,,,
392,342044,0,,,,,,,,,,,,,,,,,,,,,,,,,,,,,,,,,,0,0,0,0,0,0,0,0,0,0,0,0,0,0,0,0,,,,,,,,,,,,,
393,342064,0,0.0,-51.0,,-0.06,-0.02,1.0,1.0,-1.0,0.0,1.0,1.18,85.0,1231.0,0.0,3.27,,14.19,0.956,77.2,,24.5,5.0,,,,,,,,,,,,0,0,0,0,0,0,0,0,0,0,0,0,0,0,0,0,,,,,,0.0,,,,,,,
394,342084,0,,,,,,,,,,,,,,,,,,,,,,,0.0,6.0,0.0,0.0,0.0,24.0,0.0,0.0,2.25,,,0,0,0,0,0,0,0,0,0,0,0,0,0,0,0,0,,0.0,,,,,0.0,0.0,0.0,0.0,0.0,0.0,0.0
395,342104,0,0.0,-65.0,,-0.04,-0.03,1.01,1.0,-1.0,0.0,1.01,1.18,86.0,1231.0,0.0,3.27,,14.27,0.954,77.2,,24.5,5.0,,,,,,,,,,,,0,0,0,0,0,0,0,0,0,0,0,0,0,0,0,0,,,,,,0.0,,,,,,,
396,342124,0,,,,,,,,,,,,,,,,,,,,,,,,,,,,,,,,,,0,0,0,0,0,0,0,0,0,0,0,0,0,0,0,0,,,,,,,,,,,,,
397,342144,0,0.0,-55.0,,-0.05,-0.03,1.02,0.0,-1.0,0.0,1.02,1.18,86.0,1373.0,0.0,3.22,,14.3,0.955,77.2,,23.7,5.0,,,,,,,,,,,,0,0,0,0,0,0,0,0,0,0,0,0,0,0,0,0,,,,,,0.0,,,,,,,
398,342164,0,,,,,,,,,,,,,,,,,,,,,,,,,,,,,,,,,,0,0,0,0,0,0,0,0,0,0,0,0,0,0,0,0,,,,,,,,,,,,,
399,342184,0,0.0,-55.0,,-0.06,-0.03,1.02,0.0,-1.0,0.0,1.03,1.18,87.0,1207.0,0.0,3.26,,14.28,0.957,77.2,,23.7,5.0,0.0,169.0,0.0,0.0,0.0,24.0,0.0,0.0,2.25,,,0,0,0,0,0,0,0,0,0,0,0,0,0,0,0,0,,0.0,,,,0.0,0.0,0.0,0.0,0.0,0.0,0.0,0.0
400,342204,0,,,,,,,,,,,,,,,,,,,,,,,,,,,,,,,,,,0,0,0,0,0,0,0,0,0,0,0,0,0,0,0,0,,,,,,,,,,,,,
401,342224,0,0.0,-65.0,,-0.07,-0.02,1.02,0.0,-1.0,0.0,1.02,1.18,87.0,1385.0,0.0,3.21,,14.18,0.954,77.2,,23.7,5.0,,,,,,,,,,,,0,0,0,0,0,0,0,0,0,0,0,0,0,0,0,0,,,,,,0.0,,,,,,,
402,342244,0,,,,,,,,,,,,,,,,,,,,,,,,,,,,,,,,,,0,0,0,0,0,0,0,0,0,0,0,0,0,0,0,0,,,,,,,,,,,,,
403,342264,0,0.0,-61.0,,-0.06,-0.03,1.0,1.0,-1.0,0.0,1.01,1.18,85.0,1225.0,0.0,3.27,,14.18,0.954,77.2,,23.5,5.0,,,,,,,,,,,,0,0,0,0,0,0,0,0,0,0,0,0,0,0,0,0,,,,,,0.0,,,,,,,
404,342284,0,,,,,,,,,,,,,,,,,,,,,,,0.0,6.0,0.0,0.0,0.0,0.0,0.0,0.0,2.25,,,0,0,0,0,0,0,0,0,0,0,0,0,0,0,0,0,,0.0,,,,,0.0,0.0,0.0,0.0,0.0,0.0,0.0
405,342304,0,0.0,-68.0,,-0.05,-0.04,0.99,1.0,-1.0,0.0,0.99,1.18,84.0,1225.0,0.0,3.27,,14.19,0.956,77.2,,23.5,5.0,,,,,,,,,,,,0,0,0,0,0,0,0,0,0,0,0,0,0,0,0,0,,,,,,0.0,,,,,,,
406,342324,0,,,,,,,,,,,,,,,,,,,,,,,,,,,,,,,,,,0,0,0,0,0,0,0,0,0,0,0,0,0,0,0,0,,,,,,,,,,,,,
407,342344,0,0.0,-61.0,,-0.05,-0.03,1.0,0.0,-1.0,0.0,1.0,1.18,85.0,1402.0,0.0,3.22,,14.2,0.956,77.2,,23.3,5.0,,,,,,,,,,,,0,0,0,0,0,0,0,0,0,0,0,0,0,0,0,0,,,,,,0.0,,,,,,,
408,342364,0,,,,,,,,,,,,,,,,,,,,,,,,,,,,,,,,,,0,0,0,0,0,0,0,0,0,0,0,0,0,0,0,0,,,,,,,,,,,,,
409,342384,0,0.0,-65.0,13.98,-0.06,-0.02,1.01,0.0,-1.0,0.0,1.01,1.18,86.0,1244.0,0.0,3.27,15.0,14.3,0.955,77.2,108.0,23.3,5.0,0.0,5.0,0.0,0.0,0.0,24.0,0.0,0.0,2.25,0.0,0.0,0,0,0,0,0,0,0,0,0,0,0,0,0,0,0,0,0.0,0.0,0.0,0.0,0.0,0.0,0.0,0.0,0.0,0.0,0.0,0.0,0.0
410,342404,0,,,,,,,,,,,,,,,,,,,,,,,,,,,,,,,,,,0,0,0,0,0,0,0,0,0,0,0,0,0,0,0,0,,,,,,,,,,,,,
411,342424,0,0.0,-71.0,,-0.07,0.01,1.01,0.0,-1.0,0.0,1.01,1.18,86.0,1414.0,0.0,3.22,,14.26,0.957,77.2,,23.3,5.0,,,,,,,,,,,,0,0,0,0,0,0,0,0,0,0,0,0,0,0,0,0,,,,,,0.0,,,,,,,
412,342444,0,,,,,,,,,,,,,,,,,,,,,,,,,,,,,,,,,,0,0,0,0,0,0,0,0,0,0,0,0,0,0,0,0,,,,,,,,,,,,,
413,342464,0,0.0,-58.0,,-0.06,-0.01,0.99,1.0,-1.0,0.0,0.99,1.18,84.0,1409.0,0.0,3.23,,14.26,0.957,77.2,,23.5,5.0,,,,,,,,,,,,0,0,0,0,0,0,0,0,0,0,0,0,0,0,0,0,,,,,,0.0,,,,,,,
414,342484,0,,,,,,,,,,,,,,,,,,,,,,,0.0,6.0,0.0,0.0,0.0,24.0,0.0,0.0,2.25,,,0,0,0,0,0,0,0,0,0,0,0,0,0,0,0,0,,0.0,,,,,0.0,0.0,0.0,0.0,0.0,0.0,0.0
415,342504,0,0.0,-71.0,,-0.06,-0.01,0.97,0.0,-1.0,0.0,0.98,1.18,83.0,1409.0,0.0,3.23,,14.15,0.954,77.2,,23.5,5.0,,,,,,,,,,,,0,0,0,0,0,0,0,0,0,0,0,0,0,0,0,0,,,,,,0.0,,,,,,,
416,342524,0,,,,,,,,,,,,,,,,,,,,,,,,,,,,,,,,,,0,0,0,0,0,0,0,0,0,0,0,0,0,0,0,0,,,,,,,,,,,,,
417,342544,0,0.0,-61.0,,-0.06,-0.02,0.98,0.0,-1.0,0.0,0.98,1.18,84.0,1245.0,0.0,3.28,,14.15,0.954,77.2,,24.1,5.0,,,,,,,,,,,,0,0,0,0,0,0,0,0,0,0,0,0,0,0,0,0,,,,,,0.0,,,,,,,
418,342564,0,,,,,,,,,,,,,,,,,,,,,,,,,,,,,,,,,,0,0,0,0,0,0,0,0,0,0,0,0,0,0,0,0,,,,,,,,,,,,,
