,Interval,Utc,FrontBP,SteerAng,Battery,AccelX,AccelY,AccelZ,Yaw,Pitch,Roll,Gsum,GsumMax,GsumPct,RPM,TPS,InjectorPW,Baro,MAP,Lambda,IAT,EngineTemp,EOP,EOT,WSFR,WSFL,WSRR,WSRL,TCSet,TCSlip,TCComp,TCCut,Analog8,OilTemp,AA_On,ThermLF1,ThermLF2,ThermRR1,ThermRR2,ThermLF3,ThermLF4,ThermLF5,ThermLF6,ThermLF7,ThermLF8,ThermRR3,ThermRR4,ThermRR5,ThermRR6,ThermRR7,ThermRR8,AA_LowDrag,Gear,AA_On1,AA_LowDrag1,Fuel_Mix,AA_Packages,Latitude,Longitude,Speed,Altitude,GPSSats,GPSQual,GPSDOP
0,2323901,1746077101541,0.0,104.0,,-0.07,0.3,1.01,-1.0,-1.0,1.0,1.06,1.06,100.0,10975.0,0.6,1.4,,5.68,0.955,75.4,,54.5,5.0,,,,,,,,,,,,0,0,0,0,0,0,0,0,0,0,0,0,0,0,0,0,,,,,,0.0,,,,,,,
1,2323921,1746077101561,,,,,,,,,,,,,,,,,,,,,,,,,,,,,,,,,,0,0,0,0,0,0,0,0,0,0,0,0,0,0,0,0,,,,,,,,,,,,,
2,2323941,1746077101581,0.0,104.0,,-0.06,0.24,1.07,-1.0,-1.0,1.0,1.1,1.1,100.0,10975.0,0.6,1.4,,5.19,0.955,75.4,,55.2,5.0,,,,,,,,,,,,0,0,0,0,0,0,0,0,0,0,0,0,0,0,0,0,,,,,,0.0,,,,,,,
3,2323961,1746077101601,,,,,,,,,,,,,,,,,,,,,,,,,,,,,,,,,,0,0,0,0,0,0,0,0,0,0,0,0,0,0,0,0,,,,,,,,,,,,,
4,2323981,1746077101621,0.0,105.0,,-0.06,0.38,1.05,-2.0,-1.0,0.0,1.12,1.12,100.0,10455.0,0.4,1.4,,4.97,0.956,73.6,,55.2,5.0,0.0,0.0,0.0,0.0,0.0,0.0,0.0,0.0,2.25,,,0,0,0,0,0,0,0,0,0,0,0,0,0,0,0,0,,0.0,,,,0.0,38.994724,-76.939072,0.0,25.8,30.0,3.0,0.8
5,2324001,1746077101641,,,,,,,,,,,,,,,,,,,,,,,,,,,,,,,,,,0,0,0,0,0,0,0,0,0,0,0,0,0,0,0,0,,,,,,,,,,,,,
6,2324021,1746077101661,0.0,105.0,,-0.08,0.38,1.05,-1.0,-1.0,0.0,1.11,1.12,100.0,9840.0,4.6,1.4,,5.26,0.952,73.6,,55.2,5.0,,,,,,,,,,,,0,0,0,0,0,0,0,0,0,0,0,0,0,0,0,0,,,,,,0.0,,,,,,,
7,2324041,1746077101681,,,,,,,,,,,,,,,,,,,,,,,,,,,,,,,,,,0,0,0,0,0,0,0,0,0,0,0,0,0,0,0,0,,,,,,,,,,,,,
8,2324061,1746077101701,0.0,105.0,,-0.07,0.2,0.89,-1.0,-1.0,0.0,0.91,1.12,82.0,9223.0,7.7,1.65,,5.84,0.95,73.6,,51.5,5.0,,,,,,,,,,,,0,0,0,0,0,0,0,0,0,0,0,0,0,0,0,0,,,,,,0.0,,,,,,,
9,2324081,1746077101721,,,,,,,,,,,,,,,,,,,,,,,0.0,0.0,0.0,0.0,0.0,0.0,0.0,0.0,2.25,,,0,0,0,0,0,0,0,0,0,0,0,0,0,0,0,0,,0.0,,,,,38.994724,-76.939072,0.04,25.9,30.0,3.0,0.8
10,2324101,1746077101741,0.0,104.0,,-0.08,0.17,0.78,-1.0,-1.0,0.0,0.81,1.12,72.0,8668.0,8.6,1.83,,5.84,0.95,73.6,,51.5,5.0,,,,,,,,,,,,0,0,0,0,0,0,0,0,0,0,0,0,0,0,0,0,,,,,,0.0,,,,,,,
11,2324121,1746077101761,,,,,,,,,,,,,,,,,,,,,,,,,,,,,,,,,,0,0,0,0,0,0,0,0,0,0,0,0,0,0,0,0,,,,,,,,,,,,,
12,2324141,1746077101781,0.0,104.0,,-0.05,0.2,0.81,0.0,0.0,0.0,0.83,1.12,75.0,8668.0,8.6,1.83,,6.35,0.95,73.6,,44.5,5.0,,,,,,,,,,,,0,0,0,0,0,0,0,0,0,0,0,0,0,0,0,0,,,,,,0.0,,,,,,,
13,2324161,1746077101801,,,,,,,,,,,,,,,,,,,,,,,,,,,,,,,,,,0,0,0,0,0,0,0,0,0,0,0,0,0,0,0,0,,,,,,,,,,,,,
14,2324181,1746077101821,0.0,103.0,,-0.08,0.22,0.84,0.0,-1.0,1.0,0.87,1.12,78.0,8301.0,8.9,2.04,,6.96,0.953,73.6,,44.5,5.0,0.0,0.0,0.0,0.0,0.0,0.0,0.0,0.0,2.25,,,0,0,0,0,0,0,0,0,0,0,0,0,0,0,0,0,,0.0,,,,0.0,38.994724,-76.939072,0.05,25.9,30.0,3.0,0.8
15,2324201,1746077101841,,,,,,,,,,,,,,,,,,,,,,,,,,,,,,,,,,0,0,0,0,0,0,0,0,0,0,0,0,0,0,0,0,,,,,,,,,,,,,
16,2324221,1746077101861,0.0,104.0,,-0.09,0.11,0.89,1.0,0.0,0.0,0.9,1.12,81.0,8103.0,9.9,2.29,,7.55,0.955,73.6,,44.5,5.0,,,,,,,,,,,,0,0,0,0,0,0,0,0,0,0,0,0,0,0,0,0,,,,,,0.0,,,,,,,
17,2324241,1746077101881,,,,,,,,,,,,,,,,,,,,,,,,,,,,,,,,,,0,0,0,0,0,0,0,0,0,0,0,0,0,0,0,0,,,,,,,,,,,,,
18,2324261,1746077101900,0.0,105.0,,-0.08,0.05,1.01,1.0,-1.0,0.0,1.01,1.12,91.0,7894.0,29.4,3.48,,9.72,0.953,73.6,,38.8,5.0,,,,,,,,,,,,0,0,0,0,0,0,0,0,0,0,0,0,0,0,0,0,,,,,,0.0,,,,,,,
19,2324281,1746077101920,,,,,,,,,,,,,,,,,,,,,,,0.0,0.0,0.0,0.0,0.0,0.0,0.0,0.0,2.25,,,0,0,0,0,0,0,0,0,0,0,0,0,0,0,0,0,,0.0,,,,,38.994724,-76.939072,0.04,25.9,30.0,3.0,0.8
20,2324301,1746077101940,0.0,104.0,,-0.05,-0.02,1.01,1.0,-1.0,0.0,1.01,1.12,90.0,8344.0,49.1,5.11,,9.72,0.953,73.6,,38.8,5.0,,,,,,,,,,,,0,0,0,0,0,0,0,0,0,0,0,0,0,0,0,0,,,,,,0.0,,,,,,,
21,2324321,1746077101960,,,,,,,,,,,,,,,,,,,,,,,,,,,,,,,,,,0,0,0,0,0,0,0,0,0,0,0,0,0,0,0,0,,,,,,,,,,,,,
22,2324341,1746077101980,0.0,103.0,,-0.04,-0.33,1.11,3.0,-1.0,0.0,1.15,1.15,100.0,8344.0,49.1,5.11,,12.47,0.954,73.6,,45.5,5.0,,,,,,,,,,,,0,0,0,0,0,0,0,0,0,0,0,0,0,0,0,0,,,,,,0.0,,,,,,,
23,2324361,1746077101992,,,,,,,,,,,,,,,,,,,,,,,,,,,,,,,,,,0,0,0,0,0,0,0,0,0,0,0,0,0,0,0,0,,,,,,,,,,,,,
24,2324381,1746077102012,0.0,104.0,13.06,-0.0,-0.35,1.09,2.0,-1.0,0.0,1.14,1.15,99.0,9245.0,59.5,5.67,15.0,13.36,0.954,73.6,221.0,45.5,5.0,0.0,0.0,0.0,0.0,0.0,0.0,0.0,0.0,2.24,0.0,0.0,0,0,0,0,0,0,0,0,0,0,0,0,0,0,0,0,0.0,0.0,0.0,0.0,0.0,0.0,38.994724,-76.939072,0.04,25.9,30.0,3.0,0.8
25,2324401,1746077102032,,,,,,,,,,,,,,,,,,,,,,,,,,,,,,,,,,0,0,0,0,0,0,0,0,0,0,0,0,0,0,0,0,,,,,,,,,,,,,
26,2324421,1746077102052,0.0,104.0,,-0.05,-0.11,1.02,0.0,-1.0,0.0,1.03,1.15,89.0,10311.0,61.2,5.66,,13.32,0.955,73.6,,45.5,5.0,,,,,,,,,,,,0,0,0,0,0,0,0,0,0,0,0,0,0,0,0,0,,,,,,0.0,,,,,,,
27,2324441,1746077102072,,,,,,,,,,,,,,,,,,,,,,,,,,,,,,,,,,0,0,0,0,0,0,0,0,0,0,0,0,0,0,0,0,,,,,,,,,,,,,
28,2324461,1746077102098,0.0,104.0,,-0.05,-0.06,0.98,1.0,-1.0,1.0,0.98,1.15,85.0,11508.0,37.2,4.06,,12.12,0.954,73.6,,52.7,5.0,,,,,,,,,,,,0,0,0,0,0,0,0,0,0,0,0,0,0,0,0,0,,,,,,0.0,,,,,,,
29,2324481,1746077102118,,,,,,,,,,,,,,,,,,,,,,,0.0,0.0,0.0,0.0,0.0,0.0,0.0,0.0,2.24,,,0,0,0,0,0,0,0,0,0,0,0,0,0,0,0,0,,0.0,,,,,38.994724,-76.939072,0.05,25.9,30.0,3.0,0.8
30,2324501,1746077102138,0.0,104.0,,-0.01,-0.05,0.95,0.0,-1.0,0.0,0.95,1.15,83.0,12109.0,9.6,2.91,,12.12,0.954,73.6,,52.7,5.0,,,,,,,,,,,,0,0,0,0,0,0,0,0,0,0,0,0,0,0,0,0,,,,,,0.0,,,,,,,
31,2324521,1746077102158,,,,,,,,,,,,,,,,,,,,,,,,,,,,,,,,,,0,0,0,0,0,0,0,0,0,0,0,0,0,0,0,0,,,,,,,,,,,,,
32,2324541,1746077102178,0.0,103.0,,0.01,-0.26,0.94,1.0,-1.0,0.0,0.98,1.15,85.0,12109.0,9.6,2.91,,9.35,0.954,73.6,,52.0,5.0,,,,,,,,,,,,0,0,0,0,0,0,0,0,0,0,0,0,0,0,0,0,,,,,,0.0,,,,,,,
33,2324561,1746077102198,,,,,,,,,,,,,,,,,,,,,,,,,,,,,,,,,,0,0,0,0,0,0,0,0,0,0,0,0,0,0,0,0,,,,,,,,,,,,,
34,2324581,1746077102218,0.0,104.0,,-0.04,-0.44,0.94,1.0,-1.0,-1.0,1.04,1.15,90.0,12305.0,2.3,1.6,,7.35,0.956,73.6,,52.0,5.0,0.0,0.0,0.0,0.0,0.0,0.0,0.0,0.0,2.24,,,0,0,0,0,0,0,0,0,0,0,0,0,0,0,0,0,,0.0,,,,0.0,38.994724,-76.939072,0.05,25.9,30.0,3.0,0.8
35,2324601,1746077102238,,,,,,,,,,,,,,,,,,,,,,,,,,,,,,,,,,0,0,0,0,0,0,0,0,0,0,0,0,0,0,0,0,,,,,,,,,,,,,
36,2324621,1746077102258,0.0,104.0,,-0.07,-0.4,0.94,1.0,-1.0,0.0,1.03,1.15,89.0,11820.0,0.9,1.4,,6.16,0.956,73.6,,52.0,5.0,,,,,,,,,,,,0,0,0,0,0,0,0,0,0,0,0,0,0,0,0,0,,,,,,0.0,,,,,,,
37,2324641,1746077102278,,,,,,,,,,,,,,,,,,,,,,,,,,,,,,,,,,0,0,0,0,0,0,0,0,0,0,0,0,0,0,0,0,,,,,,,,,,,,,
38,2324661,1746077102298,0.0,104.0,,-0.08,-0.24,0.96,1.0,-1.0,0.0,0.99,1.15,86.0,11075.0,0.5,1.4,,5.66,0.954,73.6,,52.6,5.0,,,,,,,,,,,,0,0,0,0,0,0,0,0,0,0,0,0,0,0,0,0,,,,,,0.0,,,,,,,
39,2324681,1746077102318,,,,,,,,,,,,,,,,,,,,,,,0.0,0.0,0.0,0.0,0.0,0.0,0.0,0.0,2.24,,,0,0,0,0,0,0,0,0,0,0,0,0,0,0,0,0,,0.0,,,,,38.994724,-76.939072,0.04,25.9,30.0,3.0,0.8
40,2324701,1746077102338,0.0,103.0,,-0.03,-0.36,1.02,1.0,-1.0,0.0,1.08,1.15,94.0,10399.0,0.4,1.4,,5.66,0.954,73.6,,52.6,5.0,,,,,,,,,,,,0,0,0,0,0,0,0,0,0,0,0,0,0,0,0,0,,,,,,0.0,,,,,,,
41,2324721,1746077102358,,,,,,,,,,,,,,,,,,,,,,,,,,,,,,,,,,0,0,0,0,0,0,0,0,0,0,0,0,0,0,0,0,,,,,,,,,,,,,
42,2324741,1746077102378,0.0,104.0,,0.0,-0.15,1.02,0.0,-1.0,-1.0,1.03,1.15,89.0,10399.0,0.4,1.4,,5.39,0.952,73.6,,53.3,5.0,,,,,,,,,,,,0,0,0,0,0,0,0,0,0,0,0,0,0,0,0,0,,,,,,0.0,,,,,,,
43,2324761,1746077102400,,,,,,,,,,,,,,,,,,,,,,,,,,,,,,,,,,0,0,0,0,0,0,0,0,0,0,0,0,0,0,0,0,,,,,,,,,,,,,
44,2324781,1746077102420,0.0,103.0,,-0.03,-0.32,1.05,0.0,-1.0,-2.0,1.1,1.15,95.0,9816.0,0.1,1.4,,5.23,0.954,73.6,,53.3,5.0,0.0,0.0,0.0,0.0,0.0,0.0,0.0,0.0,2.24,,,0,0,0,0,0,0,0,0,0,0,0,0,0,0,0,0,,0.0,,,,0.0,38.994724,-76.939072,0.06,25.9,30.0,3.0,0.8
45,2324801,1746077102440,,,,,,,,,,,,,,,,,,,,,,,,,,,,,,,,,,0,0,0,0,0,0,0,0,0,0,0,0,0,0,0,0,,,,,,,,,,,,,
46,2324821,1746077102460,0.0,104.0,,-0.05,-0.13,1.07,-1.0,-2.0,-2.0,1.08,1.15,93.0,9217.0,0.1,1.4,,5.11,0.956,73.6,,53.3,5.0,,,,,,,,,,,,0,0,0,0,0,0,0,0,0,0,0,0,0,0,0,0,,,,,,0.0,,,,,,,
47,2324841,1746077102480,,,,,,,,,,,,,,,,,,,,,,,,,,,,,,,,,,0,0,0,0,0,0,0,0,0,0,0,0,0,0,0,0,,,,,,,,,,,,,
48,2324861,1746077102500,0.0,104.0,,-0.01,-0.11,1.01,1.0,-1.0,-2.0,1.02,1.15,88.0,8680.0,0.4,1.4,,5.12,0.955,73.6,,43.0,5.0,,,,,,,,,,,,0,0,0,0,0,0,0,0,0,0,0,0,0,0,0,0,,,,,,0.0,,,,,,,
49,2324881,1746077102520,,,,,,,,,,,,,,,,,,,,,,,0.0,0.0,0.0,0.0,0.0,0.0,0.0,0.0,2.25,,,0,0,0,0,0,0,0,0,0,0,0,0,0,0,0,0,,0.0,,,,,38.994724,-76.939072,0.11,25.9,30.0,3.0,0.8
50,2324901,1746077102540,0.0,103.0,,-0.02,-0.22,1.09,0.0,-2.0,-1.0,1.11,1.15,96.0,8150.0,0.4,1.4,,5.12,0.955,73.6,,43.0,5.0,,,,,,,,,,,,0,0,0,0,0,0,0,0,0,0,0,0,0,0,0,0,,,,,,0.0,,,,,,,
51,2324921,1746077102560,,,,,,,,,,,,,,,,,,,,,,,,,,,,,,,,,,0,0,0,0,0,0,0,0,0,0,0,0,0,0,0,0,,,,,,,,,,,,,
52,2324941,1746077102580,0.0,103.0,,-0.03,-0.16,1.2,0.0,-2.0,-1.0,1.21,1.21,100.0,8150.0,0.4,1.4,,5.32,0.956,73.6,,36.2,5.0,,,,,,,,,,,,0,0,0,0,0,0,0,0,0,0,0,0,0,0,0,0,,,,,,0.0,,,,,,,
53,2324961,1746077102600,,,,,,,,,,,,,,,,,,,,,,,,,,,,,,,,,,0,0,0,0,0,0,0,0,0,0,0,0,0,0,0,0,,,,,,,,,,,,,
54,2324981,1746077102620,0.0,104.0,,-0.01,0.03,1.21,0.0,-2.0,-1.0,1.21,1.21,99.0,7610.0,9.2,1.94,,6.24,0.957,75.4,,36.2,5.0,0.0,0.0,0.0,0.0,0.0,0.0,0.0,0.0,2.25,,,0,0,0,0,0,0,0,0,0,0,0,0,0,0,0,0,,0.0,,,,0.0,38.994724,-76.939072,0.0,25.9,30.0,3.0,0.8
55,2325001,1746077102640,,,,,,,,,,,,,,,,,,,,,,,,,,,,,,,,,,0,0,0,0,0,0,0,0,0,0,0,0,0,0,0,0,,,,,,,,,,,,,
56,2325021,1746077102660,0.0,104.0,,-0.03,-0.2,1.19,0.0,-2.0,-1.0,1.2,1.21,99.0,7206.0,19.8,3.09,,8.45,0.951,75.4,,36.2,5.0,,,,,,,,,,,,0,0,0,0,0,0,0,0,0,0,0,0,0,0,0,0,,,,,,0.0,,,,,,,
57,2325041,1746077102680,,,,,,,,,,,,,,,,,,,,,,,,,,,,,,,,,,0,0,0,0,0,0,0,0,0,0,0,0,0,0,0,0,,,,,,,,,,,,,
58,2325061,1746077102700,0.0,104.0,,-0.02,-0.19,1.13,0.0,-2.0,-2.0,1.15,1.21,95.0,7178.0,24.1,3.5,,10.36,0.949,75.4,,34.2,5.0,,,,,,,,,,,,0,0,0,0,0,0,0,0,0,0,0,0,0,0,0,0,,,,,,0.0,,,,,,,
59,2325081,1746077102720,,,,,,,,,,,,,,,,,,,,,,,0.0,0.0,0.0,0.0,0.0,0.0,0.0,0.0,2.24,,,0,0,0,0,0,0,0,0,0,0,0,0,0,0,0,0,,0.0,,,,,38.994724,-76.939072,0.1,25.9,30.0,3.0,0.8
60,2325101,1746077102740,0.0,104.0,,-0.02,-0.1,1.24,0.0,-2.0,-1.0,1.25,1.25,100.0,7305.0,27.8,5.29,,10.36,0.949,75.4,,34.2,5.0,,,,,,,,,,,,0,0,0,0,0,0,0,0,0,0,0,0,0,0,0,0,,,,,,0.0,,,,,,,
61,2325121,1746077102760,,,,,,,,,,,,,,,,,,,,,,,,,,,,,,,,,,0,0,0,0,0,0,0,0,0,0,0,0,0,0,0,0,,,,,,,,,,,,,
62,2325141,1746077102780,0.0,104.0,,-0.03,-0.13,1.26,0.0,-2.0,-1.0,1.27,1.27,100.0,7305.0,27.8,5.29,,11.56,0.953,75.4,,38.5,5.0,,,,,,,,,,,,0,0,0,0,0,0,0,0,0,0,0,0,0,0,0,0,,,,,,0.0,,,,,,,
63,2325161,1746077102800,,,,,,,,,,,,,,,,,,,,,,,,,,,,,,,,,,0,0,0,0,0,0,0,0,0,0,0,0,0,0,0,0,,,,,,,,,,,,,
64,2325181,1746077102820,0.0,104.0,,-0.03,-0.15,1.16,0.0,-2.0,-1.0,1.17,1.27,92.0,7737.0,28.9,5.07,,11.76,0.955,75.4,,38.5,5.0,0.0,0.0,0.0,0.0,0.0,0.0,0.0,0.0,2.25,,,0,0,0,0,0,0,0,0,0,0,0,0,0,0,0,0,,0.0,,,,0.0,38.994724,-76.939072,0.21,25.9,30.0,3.0,0.8
65,2325201,1746077102840,,,,,,,,,,,,,,,,,,,,,,,,,,,,,,,,,,0,0,0,0,0,0,0,0,0,0,0,0,0,0,0,0,,,,,,,,,,,,,
66,2325221,1746077102860,0.0,104.0,,-0.03,-0.05,1.19,0.0,-2.0,-2.0,1.2,1.27,94.0,8307.0,21.4,5.18,,11.37,0.955,75.4,,38.5,5.0,,,,,,,,,,,,0,0,0,0,0,0,0,0,0,0,0,0,0,0,0,0,,,,,,0.0,,,,,,,
67,2325241,1746077102880,,,,,,,,,,,,,,,,,,,,,,,,,,,,,,,,,,0,0,0,0,0,0,0,0,0,0,0,0,0,0,0,0,,,,,,,,,,,,,
68,2325261,1746077102899,0.0,104.0,,-0.01,-0.08,1.1,1.0,-1.0,-1.0,1.11,1.27,87.0,8719.0,4.0,2.85,,9.42,0.955,75.4,,42.2,5.0,,,,,,,,,,,,0,0,0,0,0,0,0,0,0,0,0,0,0,0,0,0,,,,,,0.0,,,,,,,
69,2325281,1746077102919,,,,,,,,,,,,,,,,,,,,,,,0.0,0.0,0.0,0.0,0.0,0.0,0.0,0.0,2.24,,,0,0,0,0,0,0,0,0,0,0,0,0,0,0,0,0,,0.0,,,,,38.994724,-76.939072,0.09,25.9,30.0,3.0,0.8
70,2325301,1746077102939,0.0,104.0,,-0.01,-0.21,1.02,1.0,-1.0,0.0,1.04,1.27,82.0,9059.0,0.5,1.4,,9.42,0.955,75.4,,42.2,5.0,,,,,,,,,,,,0,0,0,0,0,0,0,0,0,0,0,0,0,0,0,0,,,,,,0.0,,,,,,,
71,2325321,1746077102959,,,,,,,,,,,,,,,,,,,,,,,,,,,,,,,,,,0,0,0,0,0,0,0,0,0,0,0,0,0,0,0,0,,,,,,,,,,,,,
72,2325341,1746077102979,0.0,103.0,,0.02,-0.31,0.92,1.0,-1.0,1.0,0.97,1.27,76.0,9059.0,0.5,1.4,,7.71,0.956,75.4,,41.8,5.0,,,,,,,,,,,,0,0,0,0,0,0,0,0,0,0,0,0,0,0,0,0,,,,,,0.0,,,,,,,
73,2325361,1746077102991,,,,,,,,,,,,,,,,,,,,,,,,,,,,,,,,,,0,0,0,0,0,0,0,0,0,0,0,0,0,0,0,0,,,,,,,,,,,,,
74,2325381,1746077103011,0.0,103.0,13.18,-0.02,-0.29,0.93,0.0,-1.0,0.0,0.98,1.27,77.0,8487.0,0.2,1.4,15.0,6.63,0.955,75.4,219.0,41.8,5.0,0.0,0.0,0.0,0.0,0.0,0.0,0.0,0.0,2.24,0.0,0.0,0,0,0,0,0,0,0,0,0,0,0,0,0,0,0,0,0.0,0.0,0.0,0.0,0.0,0.0,38.994724,-76.939072,0.08,25.9,30.0,3.0,0.8
75,2325401,1746077103031,,,,,,,,,,,,,,,,,,,,,,,,,,,,,,,,,,0,0,0,0,0,0,0,0,0,0,0,0,0,0,0,0,,,,,,,,,,,,,
76,2325421,1746077103051,0.0,104.0,,-0.02,-0.28,0.97,1.0,0.0,0.0,1.01,1.27,79.0,7910.0,0.0,1.4,,6.26,0.957,75.4,,41.8,5.0,,,,,,,,,,,,0,0,0,0,0,0,0,0,0,0,0,0,0,0,0,0,,,,,,0.0,,,,,,,
77,2325441,1746077103071,,,,,,,,,,,,,,,,,,,,,,,,,,,,,,,,,,0,0,0,0,0,0,0,0,0,0,0,0,0,0,0,0,,,,,,,,,,,,,
78,2325461,1746077103095,0.0,104.0,,-0.0,-0.24,0.92,1.0,0.0,1.0,0.95,1.27,75.0,7431.0,4.2,1.4,,6.62,0.957,75.4,,37.2,5.0,,,,,,,,,,,,0,0,0,0,0,0,0,0,0,0,0,0,0,0,0,0,,,,,,0.0,,,,,,,
79,2325481,1746077103115,,,,,,,,,,,,,,,,,,,,,,,0.0,0.0,0.0,0.0,0.0,0.0,0.0,0.0,2.24,,,0,0,0,0,0,0,0,0,0,0,0,0,0,0,0,0,,0.0,,,,,38.994724,-76.939072,0.04,25.9,30.0,3.0,0.8
80,2325501,1746077103135,0.0,104.0,,-0.0,-0.16,0.89,2.0,0.0,1.0,0.9,1.27,71.0,6948.0,15.1,2.52,,6.62,0.957,75.4,,37.2,5.0,,,,,,,,,,,,0,0,0,0,0,0,0,0,0,0,0,0,0,0,0,0,,,,,,0.0,,,,,,,
81,2325521,1746077103155,,,,,,,,,,,,,,,,,,,,,,,,,,,,,,,,,,0,0,0,0,0,0,0,0,0,0,0,0,0,0,0,0,,,,,,,,,,,,,
82,2325541,1746077103175,0.0,104.0,,-0.01,-0.14,0.87,2.0,0.0,1.0,0.88,1.27,69.0,6948.0,15.1,2.52,,8.23,0.955,75.4,,31.4,5.0,,,,,,,,,,,,0,0,0,0,0,0,0,0,0,0,0,0,0,0,0,0,,,,,,0.0,,,,,,,
83,2325561,1746077103199,,,,,,,,,,,,,,,,,,,,,,,,,,,,,,,,,,0,0,0,0,0,0,0,0,0,0,0,0,0,0,0,0,,,,,,,,,,,,,
84,2325581,1746077103219,0.0,104.0,,0.01,-0.23,0.86,1.0,0.0,0.0,0.89,1.27,70.0,6718.0,18.3,3.27,,9.84,0.951,75.4,,31.4,5.0,0.0,0.0,0.0,0.0,0.0,0.0,0.0,0.0,2.25,,,0,0,0,0,0,0,0,0,0,0,0,0,0,0,0,0,,0.0,,,,0.0,38.994724,-76.939072,0.0,25.9,30.0,3.0,0.8
85,2325601,1746077103239,,,,,,,,,,,,,,,,,,,,,,,,,,,,,,,,,,0,0,0,0,0,0,0,0,0,0,0,0,0,0,0,0,,,,,,,,,,,,,
86,2325621,1746077103259,0.0,104.0,,0.02,-0.17,0.88,1.0,0.0,0.0,0.9,1.27,71.0,6759.0,18.6,3.5,,10.72,0.954,75.4,,31.4,5.0,,,,,,,,,,,,0,0,0,0,0,0,0,0,0,0,0,0,0,0,0,0,,,,,,0.0,,,,,,,
87,2325641,1746077103279,,,,,,,,,,,,,,,,,,,,,,,,,,,,,,,,,,0,0,0,0,0,0,0,0,0,0,0,0,0,0,0,0,,,,,,,,,,,,,
88,2325661,1746077103299,0.0,104.0,,0.01,-0.17,0.9,2.0,-1.0,0.0,0.91,1.27,72.0,6862.0,18.8,4.75,,11.22,0.955,75.4,,30.3,5.0,,,,,,,,,,,,0,0,0,0,0,0,0,0,0,0,0,0,0,0,0,0,,,,,,0.0,,,,,,,
89,2325681,1746077103319,,,,,,,,,,,,,,,,,,,,,,,0.0,0.0,0.0,0.0,0.0,0.0,0.0,0.0,2.24,,,0,0,0,0,0,0,0,0,0,0,0,0,0,0,0,0,,0.0,,,,,38.994724,-76.939072,0.1,25.9,30.0,3.0,0.8
90,2325701,1746077103339,0.0,104.0,,-0.01,-0.07,0.96,1.0,-1.0,0.0,0.96,1.27,76.0,7293.0,15.2,4.38,,11.22,0.955,75.4,,30.3,5.0,,,,,,,,,,,,0,0,0,0,0,0,0,0,0,0,0,0,0,0,0,0,,,,,,0.0,,,,,,,
91,2325721,1746077103359,,,,,,,,,,,,,,,,,,,,,,,,,,,,,,,,,,0,0,0,0,0,0,0,0,0,0,0,0,0,0,0,0,,,,,,,,,,,,,
92,2325741,1746077103379,0.0,104.0,,-0.01,-0.06,1.06,1.0,-1.0,0.0,1.06,1.27,84.0,7293.0,15.2,4.38,,10.8,0.955,75.4,,33.9,5.0,,,,,,,,,,,,0,0,0,0,0,0,0,0,0,0,0,0,0,0,0,0,,,,,,0.0,,,,,,,
93,2325761,1746077103399,,,,,,,,,,,,,,,,,,,,,,,,,,,,,,,,,,0,0,0,0,0,0,0,0,0,0,0,0,0,0,0,0,,,,,,,,,,,,,
94,2325781,1746077103419,0.0,104.0,,-0.01,-0.03,1.03,1.0,-1.0,0.0,1.03,1.27,81.0,7712.0,7.8,3.3,,9.81,0.955,75.4,,33.9,5.0,0.0,0.0,0.0,0.0,0.0,0.0,0.0,0.0,2.25,,,0,0,0,0,0,0,0,0,0,0,0,0,0,0,0,0,,0.0,,,,0.0,38.994724,-76.939072,0.36,25.9,30.0,3.0,0.8
95,2325801,1746077103439,,,,,,,,,,,,,,,,,,,,,,,,,,,,,,,,,,0,0,0,0,0,0,0,0,0,0,0,0,0,0,0,0,,,,,,,,,,,,,
96,2325821,1746077103459,0.0,104.0,,-0.02,-0.0,1.07,1.0,-1.0,0.0,1.07,1.27,84.0,8094.0,5.1,2.45,,8.82,0.957,75.4,,33.9,5.0,,,,,,,,,,,,0,0,0,0,0,0,0,0,0,0,0,0,0,0,0,0,,,,,,0.0,,,,,,,
97,2325841,1746077103479,,,,,,,,,,,,,,,,,,,,,,,,,,,,,,,,,,0,0,0,0,0,0,0,0,0,0,0,0,0,0,0,0,,,,,,,,,,,,,
98,2325861,1746077103499,0.0,104.0,,-0.03,0.02,1.04,1.0,-1.0,0.0,1.04,1.27,82.0,8308.0,2.2,1.4,,7.97,0.955,75.4,,37.9,5.0,,,,,,,,,,,,0,0,0,0,0,0,0,0,0,0,0,0,0,0,0,0,,,,,,0.0,,,,,,,
99,2325881,1746077103519,,,,,,,,,,,,,,,,,,,,,,,0.0,0.0,0.0,0.0,0.0,0.0,0.0,0.0,2.24,,,0,0,0,0,0,0,0,0,0,0,0,0,0,0,0,0,,0.0,,,,,38.994724,-76.939072,0.38,25.9,30.0,3.0,0.8
100,2325901,1746077103539,0.0,104.0,,-0.04,0.1,1.03,1.0,-1.0,0.0,1.04,1.27,82.0,8001.0,0.0,1.4,,7.97,0.955,75.4,,37.9,5.0,,,,,,,,,,,,0,0,0,0,0,0,0,0,0,0,0,0,0,0,0,0,,,,,,0.0,,,,,,,
101,2325921,1746077103559,,,,,,,,,,,,,,,,,,,,,,,,,,,,,,,,,,0,0,0,0,0,0,0,0,0,0,0,0,0,0,0,0,,,,,,,,,,,,,
102,2325941,1746077103579,0.0,103.0,,-0.04,0.06,0.87,1.0,0.0,0.0,0.88,1.27,69.0,8001.0,0.0,1.4,,7.18,0.956,75.4,,34.6,5.0,,,,,,,,,,,,0,0,0,0,0,0,0,0,0,0,0,0,0,0,0,0,,,,,,0.0,,,,,,,
103,2325961,1746077103599,,,,,,,,,,,,,,,,,,,,,,,,,,,,,,,,,,0,0,0,0,0,0,0,0,0,0,0,0,0,0,0,0,,,,,,,,,,,,,
104,2325981,1746077103619,0.0,104.0,,-0.03,0.03,0.89,1.0,-1.0,0.0,0.89,1.27,70.0,7447.0,0.0,1.4,,6.74,0.954,75.4,,34.6,5.0,0.0,0.0,0.0,0.0,0.0,0.0,0.0,0.0,2.25,,,0,0,0,0,0,0,0,0,0,0,0,0,0,0,0,0,,0.0,,,,0.0,38.994724,-76.939072,0.05,25.8,30.0,3.0,0.8
105,2326001,1746077103639,,,,,,,,,,,,,,,,,,,,,,,,,,,,,,,,,,0,0,0,0,0,0,0,0,0,0,0,0,0,0,0,0,,,,,,,,,,,,,
106,2326021,1746077103659,0.0,104.0,,-0.05,0.11,0.92,0.0,0.0,-1.0,0.92,1.27,73.0,6964.0,0.0,1.4,,6.62,0.952,75.4,,34.6,5.0,,,,,,,,,,,,0,0,0,0,0,0,0,0,0,0,0,0,0,0,0,0,,,,,,0.0,,,,,,,
107,2326041,1746077103679,,,,,,,,,,,,,,,,,,,,,,,,,,,,,,,,,,0,0,0,0,0,0,0,0,0,0,0,0,0,0,0,0,,,,,,,,,,,,,
108,2326061,1746077103699,0.0,104.0,,-0.06,0.17,0.98,0.0,-1.0,0.0,1.0,1.27,78.0,6541.0,0.0,1.4,,6.8,0.951,75.4,,31.0,5.0,,,,,,,,,,,,0,0,0,0,0,0,0,0,0,0,0,0,0,0,0,0,,,,,,0.0,,,,,,,
109,2326081,1746077103719,,,,,,,,,,,,,,,,,,,,,,,0.0,0.0,0.0,0.0,0.0,0.0,0.0,0.0,2.25,,,0,0,0,0,0,0,0,0,0,0,0,0,0,0,0,0,,0.0,,,,,38.994724,-76.939072,0.1,25.8,30.0,3.0,0.8
110,2326101,1746077103739,0.0,104.0,,-0.07,0.13,1.1,0.0,-2.0,0.0,1.11,1.27,87.0,6111.0,0.0,1.4,,6.8,0.951,75.4,,31.0,5.0,,,,,,,,,,,,0,0,0,0,0,0,0,0,0,0,0,0,0,0,0,0,,,,,,0.0,,,,,,,
111,2326121,1746077103759,,,,,,,,,,,,,,,,,,,,,,,,,,,,,,,,,,0,0,0,0,0,0,0,0,0,0,0,0,0,0,0,0,,,,,,,,,,,,,
112,2326141,1746077103779,0.0,104.0,,-0.06,0.18,1.21,-2.0,-2.0,-1.0,1.23,1.27,97.0,6111.0,0.0,1.4,,7.19,0.954,75.4,,27.3,5.0,,,,,,,,,,,,0,0,0,0,0,0,0,0,0,0,0,0,0,0,0,0,,,,,,0.0,,,,,,,
113,2326161,1746077103799,,,,,,,,,,,,,,,,,,,,,,,,,,,,,,,,,,0,0,0,0,0,0,0,0,0,0,0,0,0,0,0,0,,,,,,,,,,,,,
114,2326181,1746077103819,0.0,104.0,,-0.07,0.3,1.11,-2.0,-2.0,-2.0,1.15,1.27,91.0,5671.0,22.2,2.47,,9.78,0.956,75.4,,27.3,5.0,0.0,0.0,0.0,0.0,0.0,0.0,0.0,0.0,2.24,,,0,0,0,0,0,0,0,0,0,0,0,0,0,0,0,0,,0.0,,,,0.0,38.994724,-76.939072,0.04,25.8,30.0,3.0,0.8
115,2326201,1746077103839,,,,,,,,,,,,,,,,,,,,,,,,,,,,,,,,,,0,0,0,0,0,0,0,0,0,0,0,0,0,0,0,0,,,,,,,,,,,,,
116,2326221,1746077103859,0.0,104.0,,-0.06,0.28,1.07,-1.0,-2.0,-1.0,1.1,1.27,87.0,5342.0,38.0,4.9,,12.99,0.955,75.4,,27.3,5.0,,,,,,,,,,,,0,0,0,0,0,0,0,0,0,0,0,0,0,0,0,0,,,,,,0.0,,,,,,,
117,2326241,1746077103879,,,,,,,,,,,,,,,,,,,,,,,,,,,,,,,,,,0,0,0,0,0,0,0,0,0,0,0,0,0,0,0,0,,,,,,,,,,,,,
118,2326261,1746077103898,0.0,104.0,,-0.05,0.21,1.15,-1.0,-2.0,-1.0,1.17,1.27,92.0,5427.0,43.8,5.25,,13.96,0.955,75.4,,23.9,5.0,,,,,,,,,,,,0,0,0,0,0,0,0,0,0,0,0,0,0,0,0,0,,,,,,0.0,,,,,,,
119,2326281,1746077103918,,,,,,,,,,,,,,,,,,,,,,,0.0,0.0,0.0,0.0,0.0,0.0,0.0,0.0,2.24,,,0,0,0,0,0,0,0,0,0,0,0,0,0,0,0,0,,0.0,,,,,38.994724,-76.939072,0.15,25.8,30.0,3.0,0.8
120,2326301,1746077103938,0.0,104.0,,-0.06,0.22,0.98,-1.0,-2.0,0.0,1.01,1.27,79.0,5844.0,44.0,5.28,,13.96,0.955,75.4,,23.9,5.0,,,,,,,,,,,,0,0,0,0,0,0,0,0,0,0,0,0,0,0,0,0,,,,,,0.0,,,,,,,
121,2326321,1746077103958,,,,,,,,,,,,,,,,,,,,,,,,,,,,,,,,,,0,0,0,0,0,0,0,0,0,0,0,0,0,0,0,0,,,,,,,,,,,,,
122,2326341,1746077103978,0.0,104.0,,-0.05,0.15,0.9,-2.0,-2.0,0.0,0.92,1.27,72.0,5844.0,44.0,5.28,,13.92,0.956,75.4,,26.3,5.0,,,,,,,,,,,,0,0,0,0,0,0,0,0,0,0,0,0,0,0,0,0,,,,,,0.0,,,,,,,
123,2326361,1746077103998,,,,,,,,,,,,,,,,,,,,,,,,,,,,,,,,,,0,0,0,0,0,0,0,0,0,0,0,0,0,0,0,0,,,,,,,,,,,,,
124,2326381,1746077104010,0.0,103.0,13.18,-0.05,0.18,0.99,-2.0,-2.0,-1.0,1.01,1.27,79.0,6168.0,37.5,5.0,15.0,13.6,0.955,75.4,216.0,26.3,5.0,0.0,0.0,0.0,0.0,0.0,0.0,0.0,0.0,2.25,0.0,0.0,0,0,0,0,0,0,0,0,0,0,0,0,0,0,0,0,0.0,0.0,0.0,0.0,0.0,0.0,38.994724,-76.939072,0.04,25.8,30.0,3.0,0.8
125,2326401,1746077104030,,,,,,,,,,,,,,,,,,,,,,,,,,,,,,,,,,0,0,0,0,0,0,0,0,0,0,0,0,0,0,0,0,,,,,,,,,,,,,
126,2326421,1746077104050,0.0,104.0,,-0.05,0.13,0.99,-1.0,-2.0,-1.0,1.0,1.27,78.0,6744.0,19.6,4.97,,12.47,0.955,75.4,,26.3,5.0,,,,,,,,,,,,0,0,0,0,0,0,0,0,0,0,0,0,0,0,0,0,,,,,,0.0,,,,,,,
127,2326441,1746077104070,,,,,,,,,,,,,,,,,,,,,,,,,,,,,,,,,,0,0,0,0,0,0,0,0,0,0,0,0,0,0,0,0,,,,,,,,,,,,,
128,2326461,1746077104098,0.0,104.0,,-0.04,0.18,0.96,-1.0,-1.0,0.0,0.98,1.27,77.0,7003.0,16.6,4.52,,11.88,0.955,75.4,,29.6,5.0,,,,,,,,,,,,0,0,0,0,0,0,0,0,0,0,0,0,0,0,0,0,,,,,,0.0,,,,,,,
129,2326481,1746077104118,,,,,,,,,,,,,,,,,,,,,,,0.0,0.0,0.0,0.0,0.0,0.0,0.0,0.0,2.24,,,0,0,0,0,0,0,0,0,0,0,0,0,0,0,0,0,,0.0,,,,,38.994724,-76.939072,0.1,25.8,30.0,3.0,0.8
130,2326501,1746077104138,0.0,103.0,,-0.07,0.34,0.97,0.0,-2.0,-1.0,1.03,1.27,81.0,7205.0,22.8,4.86,,11.88,0.955,75.4,,29.6,5.0,,,,,,,,,,,,0,0,0,0,0,0,0,0,0,0,0,0,0,0,0,0,,,,,,0.0,,,,,,,
131,2326521,1746077104158,,,,,,,,,,,,,,,,,,,,,,,,,,,,,,,,,,0,0,0,0,0,0,0,0,0,0,0,0,0,0,0,0,,,,,,,,,,,,,
132,2326541,1746077104178,0.0,104.0,,-0.03,0.22,1.01,0.0,-1.0,-1.0,1.04,1.27,82.0,7205.0,22.8,4.86,,11.65,0.955,75.4,,31.6,5.0,,,,,,,,,,,,0,0,0,0,0,0,0,0,0,0,0,0,0,0,0,0,,,,,,0.0,,,,,,,
133,2326561,1746077104198,,,,,,,,,,,,,,,,,,,,,,,,,,,,,,,,,,0,0,0,0,0,0,0,0,0,0,0,0,0,0,0,0,,,,,,,,,,,,,
134,2326581,1746077104218,0.0,103.0,,-0.03,0.26,1.01,0.0,-1.0,-1.0,1.04,1.27,82.0,7468.0,43.7,5.54,,13.19,0.952,75.4,,31.6,5.0,0.0,0.0,0.0,0.0,0.0,0.0,0.0,0.0,2.25,,,0,0,0,0,0,0,0,0,0,0,0,0,0,0,0,0,,0.0,,,,0.0,38.994724,-76.939072,0.12,25.8,30.0,3.0,0.8
135,2326601,1746077104238,,,,,,,,,,,,,,,,,,,,,,,,,,,,,,,,,,0,0,0,0,0,0,0,0,0,0,0,0,0,0,0,0,,,,,,,,,,,,,
136,2326621,1746077104258,0.0,104.0,,0.0,0.13,0.98,0.0,-1.0,-1.0,0.99,1.27,78.0,8087.0,55.1,4.89,,13.59,0.95,75.4,,31.6,5.0,,,,,,,,,,,,0,0,0,0,0,0,0,0,0,0,0,0,0,0,0,0,,,,,,0.0,,,,,,,
137,2326641,1746077104278,,,,,,,,,,,,,,,,,,,,,,,,,,,,,,,,,,0,0,0,0,0,0,0,0,0,0,0,0,0,0,0,0,,,,,,,,,,,,,
138,2326661,1746077104298,0.0,103.0,,-0.01,0.12,1.05,0.0,-1.0,-1.0,1.06,1.27,83.0,8643.0,63.8,5.32,,13.71,0.954,75.4,,36.7,5.0,,,,,,,,,,,,0,0,0,0,0,0,0,0,0,0,0,0,0,0,0,0,,,,,,0.0,,,,,,,
139,2326681,1746077104318,,,,,,,,,,,,,,,,,,,,,,,0.0,0.0,0.0,0.0,0.0,0.0,0.0,0.0,2.25,,,0,0,0,0,0,0,0,0,0,0,0,0,0,0,0,0,,0.0,,,,,38.994724,-76.939072,0.07,25.8,30.0,3.0,0.8
140,2326701,1746077104338,0.0,103.0,,0.01,0.25,1.01,0.0,-1.0,-1.0,1.04,1.27,82.0,9365.0,65.1,5.73,,13.71,0.954,75.4,,36.7,5.0,,,,,,,,,,,,0,0,0,0,0,0,0,0,0,0,0,0,0,0,0,0,,,,,,0.0,,,,,,,
141,2326721,1746077104358,,,,,,,,,,,,,,,,,,,,,,,,,,,,,,,,,,0,0,0,0,0,0,0,0,0,0,0,0,0,0,0,0,,,,,,,,,,,,,
142,2326741,1746077104378,0.0,104.0,,-0.03,0.19,1.01,-1.0,-1.0,-1.0,1.03,1.27,81.0,9365.0,65.1,5.73,,13.44,0.955,75.4,,47.1,5.0,,,,,,,,,,,,0,0,0,0,0,0,0,0,0,0,0,0,0,0,0,0,,,,,,0.0,,,,,,,
143,2326761,1746077104400,,,,,,,,,,,,,,,,,,,,,,,,,,,,,,,,,,0,0,0,0,0,0,0,0,0,0,0,0,0,0,0,0,,,,,,,,,,,,,
144,2326781,1746077104420,0.0,104.0,,-0.02,0.16,1.09,0.0,-1.0,-1.0,1.1,1.27,87.0,9960.0,64.3,5.67,,13.33,0.954,75.4,,47.1,5.0,0.0,0.0,0.0,0.0,0.0,0.0,0.0,0.0,2.24,,,0,0,0,0,0,0,0,0,0,0,0,0,0,0,0,0,,0.0,,,,0.0,38.994724,-76.939072,0.04,25.8,30.0,3.0,0.8
145,2326801,1746077104440,,,,,,,,,,,,,,,,,,,,,,,,,,,,,,,,,,0,0,0,0,0,0,0,0,0,0,0,0,0,0,0,0,,,,,,,,,,,,,
146,2326821,1746077104460,0.0,104.0,,-0.01,0.06,1.13,0.0,-1.0,-2.0,1.13,1.27,89.0,10744.0,63.5,5.13,,13.36,0.955,75.4,,47.1,5.0,,,,,,,,,,,,0,0,0,0,0,0,0,0,0,0,0,0,0,0,0,0,,,,,,0.0,,,,,,,
147,2326841,1746077104480,,,,,,,,,,,,,,,,,,,,,,,,,,,,,,,,,,0,0,0,0,0,0,0,0,0,0,0,0,0,0,0,0,,,,,,,,,,,,,
148,2326861,1746077104500,0.0,104.0,,-0.04,-0.03,1.11,-1.0,-1.0,-1.0,1.11,1.27,88.0,12198.0,62.9,4.16,,12.97,0.954,75.4,,49.6,5.0,,,,,,,,,,,,0,0,0,0,0,0,0,0,0,0,0,0,0,0,0,0,,,,,,0.0,,,,,,,
149,2326881,1746077104520,,,,,,,,,,,,,,,,,,,,,,,0.0,0.0,0.0,0.0,0.0,0.0,0.0,0.0,2.24,,,0,0,0,0,0,0,0,0,0,0,0,0,0,0,0,0,,0.0,,,,,38.994724,-76.939072,0.11,25.8,30.0,3.0,0.8
150,2326901,1746077104540,0.0,103.0,,-0.04,0.15,1.17,-1.0,-1.0,-1.0,1.18,1.27,93.0,13009.0,62.9,4.61,,12.97,0.954,75.4,,49.6,5.0,,,,,,,,,,,,0,0,0,0,0,0,0,0,0,0,0,0,0,0,0,0,,,,,,0.0,,,,,,,
151,2326921,1746077104560,,,,,,,,,,,,,,,,,,,,,,,,,,,,,,,,,,0,0,0,0,0,0,0,0,0,0,0,0,0,0,0,0,,,,,,,,,,,,,
152,2326941,1746077104580,0.0,104.0,,-0.05,0.19,1.08,-2.0,-1.0,-1.0,1.1,1.27,87.0,13009.0,62.9,4.61,,12.77,0.954,75.4,,45.3,5.0,,,,,,,,,,,,0,0,0,0,0,0,0,0,0,0,0,0,0,0,0,0,,,,,,0.0,,,,,,,
153,2326961,1746077104598,,,,,,,,,,,,,,,,,,,,,,,,,,,,,,,,,,0,0,0,0,0,0,0,0,0,0,0,0,0,0,0,0,,,,,,,,,,,,,
154,2326981,1746077104618,0.0,104.0,,-0.02,0.08,1.16,-2.0,-2.0,-2.0,1.17,1.27,92.0,13914.0,63.3,4.54,,12.6,0.951,77.2,,45.3,5.0,0.0,0.0,0.0,0.0,0.0,0.0,0.0,0.0,2.24,,,0,0,0,0,0,0,0,0,0,0,0,0,0,0,0,0,,0.0,,,,0.0,38.994724,-76.939072,0.07,25.8,30.0,3.0,0.8
155,2327001,1746077104638,,,,,,,,,,,,,,,,,,,,,,,,,,,,,,,,,,0,0,0,0,0,0,0,0,0,0,0,0,0,0,0,0,,,,,,,,,,,,,
156,2327021,1746077104658,0.0,105.0,,-0.04,0.06,1.17,-2.0,-2.0,-1.0,1.17,1.27,92.0,13309.0,63.9,4.6,,12.6,0.95,77.2,,45.3,5.0,,,,,,,,,,,,0,0,0,0,0,0,0,0,0,0,0,0,0,0,0,0,,,,,,0.0,,,,,,,
157,2327041,1746077104678,,,,,,,,,,,,,,,,,,,,,,,,,,,,,,,,,,0,0,0,0,0,0,0,0,0,0,0,0,0,0,0,0,,,,,,,,,,,,,
158,2327061,1746077104698,0.0,105.0,,-0.03,0.04,1.15,0.0,-1.0,0.0,1.15,1.27,90.0,13353.0,64.1,4.63,,12.63,0.951,77.2,,43.5,5.0,,,,,,,,,,,,0,0,0,0,0,0,0,0,0,0,0,0,0,0,0,0,,,,,,0.0,,,,,,,
159,2327081,1746077104718,,,,,,,,,,,,,,,,,,,,,,,0.0,0.0,0.0,0.0,0.0,0.0,0.0,0.0,2.25,,,0,0,0,0,0,0,0,0,0,0,0,0,0,0,0,0,,0.0,,,,,38.994724,-76.939072,0.11,25.8,30.0,3.0,0.8
160,2327101,1746077104738,0.0,105.0,,0.01,0.01,1.03,0.0,0.0,-1.0,1.03,1.27,81.0,13867.0,64.2,4.59,,12.63,0.951,77.2,,43.5,5.0,,,,,,,,,,,,0,0,0,0,0,0,0,0,0,0,0,0,0,0,0,0,,,,,,0.0,,,,,,,
161,2327121,1746077104758,,,,,,,,,,,,,,,,,,,,,,,,,,,,,,,,,,0,0,0,0,0,0,0,0,0,0,0,0,0,0,0,0,,,,,,,,,,,,,
162,2327141,1746077104778,0.0,105.0,,0.08,0.01,1.04,0.0,0.0,-1.0,1.04,1.27,82.0,13867.0,64.2,4.59,,12.61,0.954,77.2,,45.3,5.0,,,,,,,,,,,,0,0,0,0,0,0,0,0,0,0,0,0,0,0,0,0,,,,,,0.0,,,,,,,
163,2327161,1746077104800,,,,,,,,,,,,,,,,,,,,,,,,,,,,,,,,,,0,0,0,0,0,0,0,0,0,0,0,0,0,0,0,0,,,,,,,,,,,,,
164,2327181,1746077104820,0.0,104.0,,0.1,0.02,1.09,0.0,0.0,0.0,1.09,1.27,86.0,12552.0,64.2,4.71,,12.75,0.954,77.2,,45.3,5.0,0.0,0.0,0.0,0.0,0.0,0.0,0.0,0.0,2.25,,,0,0,0,0,0,0,0,0,0,0,0,0,0,0,0,0,,0.0,,,,0.0,38.994724,-76.939072,0.13,25.8,30.0,3.0,0.8
165,2327201,1746077104840,,,,,,,,,,,,,,,,,,,,,,,,,,,,,,,,,,0,0,0,0,0,0,0,0,0,0,0,0,0,0,0,0,,,,,,,,,,,,,
166,2327221,1746077104860,0.0,105.0,,0.12,0.04,1.07,0.0,0.0,1.0,1.07,1.27,85.0,12386.0,64.1,4.6,,12.84,0.954,77.2,,45.3,5.0,,,,,,,,,,,,0,0,0,0,0,0,0,0,0,0,0,0,0,0,0,0,,,,,,0.0,,,,,,,
167,2327241,1746077104880,,,,,,,,,,,,,,,,,,,,,,,,,,,,,,,,,,0,0,0,0,0,0,0,0,0,0,0,0,0,0,0,0,,,,,,,,,,,,,
168,2327261,1746077104897,0.0,104.0,,0.17,0.04,1.05,1.0,0.0,1.0,1.06,1.27,83.0,12318.0,63.6,4.48,,12.89,0.954,77.2,,49.1,5.0,,,,,,,,,,,,0,0,0,0,0,0,0,0,0,0,0,0,0,0,0,0,,,,,,0.0,,,,,,,
169,2327281,1746077104917,,,,,,,,,,,,,,,,,,,,,,,0.0,0.0,1.0,0.0,0.0,0.0,0.0,0.0,2.24,,,0,0,0,0,0,0,0,0,0,0,0,0,0,0,0,0,,0.0,,,,,38.994724,-76.939072,1.35,25.8,30.0,3.0,0.8
170,2327301,1746077104937,0.0,103.0,,0.23,-0.08,1.02,1.0,0.0,0.0,1.05,1.27,82.0,12106.0,63.7,4.24,,12.89,0.954,77.2,,49.1,5.0,,,,,,,,,,,,0,0,0,0,0,0,0,0,0,0,0,0,0,0,0,0,,,,,,0.0,,,,,,,
171,2327321,1746077104957,,,,,,,,,,,,,,,,,,,,,,,,,,,,,,,,,,0,0,0,0,0,0,0,0,0,0,0,0,0,0,0,0,,,,,,,,,,,,,
172,2327341,1746077104977,0.0,105.0,,0.31,-0.04,1.0,2.0,0.0,-1.0,1.05,1.27,83.0,12106.0,63.7,4.24,,12.92,0.955,77.2,,49.1,5.0,,,,,,,,,,,,0,0,0,0,0,0,0,0,0,0,0,0,0,0,0,0,,,,,,0.0,,,,,,,
173,2327361,1746077104991,,,,,,,,,,,,,,,,,,,,,,,,,,,,,,,,,,0,0,0,0,0,0,0,0,0,0,0,0,0,0,0,0,,,,,,,,,,,,,
174,2327381,1746077105011,0.0,104.0,13.27,0.37,-0.19,0.98,2.0,0.0,-1.0,1.06,1.27,84.0,11648.0,63.8,4.24,15.0,13.07,0.954,77.2,212.0,49.1,5.0,2.0,0.0,3.0,3.0,0.0,0.0,0.0,0.0,2.25,0.0,0.0,0,0,0,0,0,0,0,0,0,0,0,0,0,0,0,0,0.0,0.0,0.0,0.0,0.0,0.0,38.994724,-76.939072,3.41,25.8,30.0,3.0,0.8
175,2327401,1746077105031,,,,,,,,,,,,,,,,,,,,,,,,,,,,,,,,,,0,0,0,0,0,0,0,0,0,0,0,0,0,0,0,0,,,,,,,,,,,,,
176,2327421,1746077105051,0.0,105.0,,0.41,-0.12,1.01,3.0,-1.0,-1.0,1.1,1.27,86.0,11040.0,63.5,4.61,,13.21,0.955,77.2,,49.1,5.0,,,,,,,,,,,,0,0,0,0,0,0,0,0,0,0,0,0,0,0,0,0,,,,,,0.0,,,,,,,
177,2327441,1746077105071,,,,,,,,,,,,,,,,,,,,,,,,,,,,,,,,,,0,0,0,0,0,0,0,0,0,0,0,0,0,0,0,0,,,,,,,,,,,,,
178,2327461,1746077105099,0.0,105.0,,0.48,-0.05,1.02,3.0,-1.0,-1.0,1.13,1.27,89.0,10827.0,63.7,4.84,,13.23,0.954,77.2,,49.1,5.0,,,,,,,,,,,,0,0,0,0,0,0,0,0,0,0,0,0,0,0,0,0,,,,,,0.0,,,,,,,
179,2327481,1746077105119,,,,,,,,,,,,,,,,,,,,,,,4.0,0.0,5.0,5.0,0.0,0.0,0.0,0.0,2.25,,,0,0,0,0,0,0,0,0,0,0,0,0,0,0,0,0,,0.0,,,,,38.994724,-76.939072,6.69,25.8,30.0,3.0,0.8
180,2327501,1746077105139,0.0,105.0,,0.59,-0.07,0.97,4.0,-1.0,-1.0,1.14,1.27,90.0,9848.0,59.3,5.41,,13.23,0.954,77.2,,49.1,5.0,,,,,,,,,,,,0,0,0,0,0,0,0,0,0,0,0,0,0,0,0,0,,,,,,0.0,,,,,,,
181,2327521,1746077105159,,,,,,,,,,,,,,,,,,,,,,,,,,,,,,,,,,0,0,0,0,0,0,0,0,0,0,0,0,0,0,0,0,,,,,,,,,,,,,
182,2327541,1746077105179,0.0,105.0,,0.65,-0.26,1.01,6.0,0.0,-1.0,1.23,1.27,97.0,9848.0,59.3,5.41,,13.21,0.954,77.2,,47.0,5.0,,,,,,,,,,,,0,0,0,0,0,0,0,0,0,0,0,0,0,0,0,0,,,,,,0.0,,,,,,,
183,2327561,1746077105197,,,,,,,,,,,,,,,,,,,,,,,,,,,,,,,,,,0,0,0,0,0,0,0,0,0,0,0,0,0,0,0,0,,,,,,,,,,,,,
184,2327581,1746077105217,0.0,104.0,,0.71,-0.23,1.02,7.0,-1.0,-2.0,1.27,1.27,100.0,9326.0,52.1,5.21,,13.25,0.95,77.2,,47.0,5.0,7.0,0.0,15.0,15.0,0.0,0.0,0.0,0.0,2.24,,,0,0,0,0,0,0,0,0,0,0,0,0,0,0,0,0,,0.0,,,,0.0,38.994724,-76.939079,9.98,25.8,30.0,3.0,0.8
185,2327601,1746077105237,,,,,,,,,,,,,,,,,,,,,,,,,,,,,,,,,,0,0,0,0,0,0,0,0,0,0,0,0,0,0,0,0,,,,,,,,,,,,,
186,2327621,1746077105257,0.0,104.0,,0.71,-0.25,1.04,8.0,-1.0,-2.0,1.28,1.28,100.0,8496.0,50.6,4.83,,13.28,0.953,77.2,,47.0,5.0,,,,,,,,,,,,0,0,0,0,0,0,0,0,0,0,0,0,0,0,0,0,,,,,,0.0,,,,,,,
187,2327641,1746077105277,,,,,,,,,,,,,,,,,,,,,,,,,,,,,,,,,,0,0,0,0,0,0,0,0,0,0,0,0,0,0,0,0,,,,,,,,,,,,,
188,2327661,1746077105299,0.0,104.0,,0.73,-0.07,1.06,8.0,-1.0,-1.0,1.29,1.29,100.0,8272.0,49.9,4.77,,13.33,0.955,77.2,,40.3,5.0,,,,,,,,,,,,0,0,0,0,0,0,0,0,0,0,0,0,0,0,0,0,,,,,,0.0,,,,,,,
189,2327681,1746077105319,,,,,,,,,,,,,,,,,,,,,,,9.0,0.0,24.0,24.0,0.0,216.0,0.0,0.0,2.24,,,0,0,0,0,0,0,0,0,0,0,0,0,0,0,0,0,,0.0,,,,,38.994724,-76.939079,14.01,25.8,30.0,3.0,0.8
190,2327701,1746077105339,0.0,104.0,,0.74,0.0,1.04,9.0,-1.0,-1.0,1.27,1.29,99.0,8122.0,47.4,4.62,,13.33,0.955,77.2,,40.3,5.0,,,,,,,,,,,,0,0,0,0,0,0,0,0,0,0,0,0,0,0,0,0,,,,,,0.0,,,,,,,
191,2327721,1746077105359,,,,,,,,,,,,,,,,,,,,,,,,,,,,,,,,,,0,0,0,0,0,0,0,0,0,0,0,0,0,0,0,0,,,,,,,,,,,,,
192,2327741,1746077105379,0.0,104.0,,0.8,-0.29,1.06,10.0,-1.0,-1.0,1.35,1.35,100.0,8122.0,47.4,4.62,,13.64,0.955,77.2,,38.8,5.0,,,,,,,,,,,,0,0,0,0,0,0,0,0,0,0,0,0,0,0,0,0,,,,,,0.0,,,,,,,
193,2327761,1746077105399,,,,,,,,,,,,,,,,,,,,,,,,,,,,,,,,,,0,0,0,0,0,0,0,0,0,0,0,0,0,0,0,0,,,,,,,,,,,,,
194,2327781,1746077105419,0.0,104.0,,0.84,-0.5,1.04,10.0,-1.0,-1.0,1.43,1.43,100.0,7746.0,44.4,5.13,,13.57,0.955,77.2,,38.8,5.0,11.0,0.0,20.0,21.0,0.0,126.0,0.0,0.0,2.25,,,0,0,0,0,0,0,0,0,0,0,0,0,0,0,0,0,,1.0,,,,0.0,38.994724,-76.939087,16.69,25.8,30.0,3.0,0.8
195,2327801,1746077105439,,,,,,,,,,,,,,,,,,,,,,,,,,,,,,,,,,0,0,0,0,0,0,0,0,0,0,0,0,0,0,0,0,,,,,,,,,,,,,
196,2327821,1746077105459,0.0,104.0,,0.83,-0.54,1.02,10.0,-1.0,-1.0,1.42,1.43,99.0,7186.0,44.1,5.21,,13.35,0.955,77.2,,38.8,5.0,,,,,,,,,,,,0,0,0,0,0,0,0,0,0,0,0,0,0,0,0,0,,,,,,0.0,,,,,,,
197,2327841,1746077105479,,,,,,,,,,,,,,,,,,,,,,,,,,,,,,,,,,0,0,0,0,0,0,0,0,0,0,0,0,0,0,0,0,,,,,,,,,,,,,
198,2327861,1746077105499,0.0,104.0,,0.83,-0.55,1.02,9.0,0.0,-1.0,1.43,1.43,100.0,6892.0,44.1,5.22,,13.82,0.955,77.2,,29.4,5.0,,,,,,,,,,,,0,0,0,0,0,0,0,0,0,0,0,0,0,0,0,0,,,,,,0.0,,,,,,,
199,2327881,1746077105519,,,,,,,,,,,,,,,,,,,,,,,13.0,0.0,18.0,20.0,0.0,105.0,0.0,0.0,2.24,,,0,0,0,0,0,0,0,0,0,0,0,0,0,0,0,0,,1.0,,,,,38.994724,-76.939095,20.3,25.8,30.0,3.0,0.8
200,2327901,1746077105539,0.0,104.0,,0.89,-0.58,0.96,10.0,0.0,-1.0,1.43,1.43,100.0,6162.0,44.1,5.12,,13.82,0.955,77.2,,29.4,5.0,,,,,,,,,,,,0,0,0,0,0,0,0,0,0,0,0,0,0,0,0,0,,,,,,0.0,,,,,,,
201,2327921,1746077105559,,,,,,,,,,,,,,,,,,,,,,,,,,,,,,,,,,0,0,0,0,0,0,0,0,0,0,0,0,0,0,0,0,,,,,,,,,,,,,
202,2327941,1746077105579,0.0,105.0,,0.85,-0.59,0.95,9.0,0.0,-1.0,1.4,1.43,98.0,6162.0,44.1,5.12,,13.98,0.955,77.2,,24.0,5.0,,,,,,,,,,,,0,0,0,0,0,0,0,0,0,0,0,0,0,0,0,0,,,,,,0.0,,,,,,,
203,2327961,1746077105599,,,,,,,,,,,,,,,,,,,,,,,,,,,,,,,,,,0,0,0,0,0,0,0,0,0,0,0,0,0,0,0,0,,,,,,,,,,,,,
204,2327981,1746077105619,0.0,104.0,,0.82,-0.56,0.93,7.0,-1.0,-1.0,1.36,1.43,95.0,5316.0,44.1,5.09,,14.19,0.952,79.0,,24.0,5.0,15.0,0.0,16.0,16.0,0.0,19.0,0.0,0.0,2.24,,,0,0,0,0,0,0,0,0,0,0,0,0,0,0,0,0,,1.0,,,,0.0,38.994724,-76.939102,23.73,25.9,30.0,3.0,0.8
205,2328001,1746077105639,,,,,,,,,,,,,,,,,,,,,,,,,,,,,,,,,,0,0,0,0,0,0,0,0,0,0,0,0,0,0,0,0,,,,,,,,,,,,,
206,2328021,1746077105659,0.0,104.0,,0.76,-0.27,1.03,5.0,-2.0,1.0,1.31,1.43,92.0,4949.0,44.2,5.04,,14.32,0.949,79.0,,24.0,5.0,,,,,,,,,,,,0,0,0,0,0,0,0,0,0,0,0,0,0,0,0,0,,,,,,0.0,,,,,,,
207,2328041,1746077105679,,,,,,,,,,,,,,,,,,,,,,,,,,,,,,,,,,0,0,0,0,0,0,0,0,0,0,0,0,0,0,0,0,,,,,,,,,,,,,
208,2328061,1746077105701,0.0,103.0,,0.68,-0.29,0.98,4.0,-3.0,-1.0,1.23,1.43,86.0,5326.0,44.7,5.15,,14.11,0.952,79.0,,21.5,5.0,,,,,,,,,,,,0,0,0,0,0,0,0,0,0,0,0,0,0,0,0,0,,,,,,0.0,,,,,,,
209,2328081,1746077105721,,,,,,,,,,,,,,,,,,,,,,,16.0,0.0,16.0,16.0,0.0,4.0,0.0,0.0,2.25,,,0,0,0,0,0,0,0,0,0,0,0,0,0,0,0,0,,1.0,,,,,38.994724,-76.939102,27.27,25.9,30.0,3.0,0.8
210,2328101,1746077105741,0.0,104.0,,0.67,0.01,1.0,4.0,-2.0,1.0,1.21,1.43,84.0,5869.0,45.4,5.14,,14.11,0.952,79.0,,21.5,5.0,,,,,,,,,,,,0,0,0,0,0,0,0,0,0,0,0,0,0,0,0,0,,,,,,0.0,,,,,,,
211,2328121,1746077105761,,,,,,,,,,,,,,,,,,,,,,,,,,,,,,,,,,0,0,0,0,0,0,0,0,0,0,0,0,0,0,0,0,,,,,,,,,,,,,
212,2328141,1746077105781,0.0,104.0,,0.64,0.33,1.03,2.0,-1.0,3.0,1.26,1.43,88.0,5869.0,45.4,5.14,,13.86,0.955,79.0,,24.7,5.0,,,,,,,,,,,,0,0,0,0,0,0,0,0,0,0,0,0,0,0,0,0,,,,,,0.0,,,,,,,
213,2328161,1746077105801,,,,,,,,,,,,,,,,,,,,,,,,,,,,,,,,,,0,0,0,0,0,0,0,0,0,0,0,0,0,0,0,0,,,,,,,,,,,,,
214,2328181,1746077105821,0.0,104.0,,0.62,0.41,1.1,3.0,-1.0,2.0,1.33,1.43,93.0,5967.0,45.5,5.15,,14.06,0.955,79.0,,24.7,5.0,18.0,0.0,18.0,18.0,0.0,40.0,0.0,0.0,2.25,,,0,0,0,0,0,0,0,0,0,0,0,0,0,0,0,0,,0.0,,,,0.0,38.994724,-76.939117,25.89,25.9,30.0,3.0,0.8
215,2328201,1746077105841,,,,,,,,,,,,,,,,,,,,,,,,,,,,,,,,,,0,0,0,0,0,0,0,0,0,0,0,0,0,0,0,0,,,,,,,,,,,,,
216,2328221,1746077105861,0.0,104.0,,0.55,0.18,1.06,1.0,-2.0,0.0,1.21,1.43,85.0,5774.0,45.2,5.13,,14.03,0.955,79.0,,24.7,5.0,,,,,,,,,,,,0,0,0,0,0,0,0,0,0,0,0,0,0,0,0,0,,,,,,0.0,,,,,,,
217,2328241,1746077105881,,,,,,,,,,,,,,,,,,,,,,,,,,,,,,,,,,0,0,0,0,0,0,0,0,0,0,0,0,0,0,0,0,,,,,,,,,,,,,
218,2328261,1746077105900,0.0,104.0,,0.51,-0.06,1.09,2.0,-2.0,-2.0,1.21,1.43,84.0,6091.0,45.3,5.14,,13.92,0.955,79.0,,24.9,5.0,,,,,,,,,,,,0,0,0,0,0,0,0,0,0,0,0,0,0,0,0,0,,,,,,0.0,,,,,,,
219,2328281,1746077105920,,,,,,,,,,,,,,,,,,,,,,,18.0,0.0,19.0,18.0,0.0,35.0,0.0,0.0,2.24,,,0,0,0,0,0,0,0,0,0,0,0,0,0,0,0,0,,0.0,,,,,38.994724,-76.939125,28.16,25.9,30.0,3.0,0.8
220,2328301,1746077105940,0.0,104.0,,0.44,0.11,1.11,1.0,-2.0,-1.0,1.2,1.43,84.0,6277.0,45.7,5.19,,13.92,0.955,79.0,,24.9,5.0,,,,,,,,,,,,0,0,0,0,0,0,0,0,0,0,0,0,0,0,0,0,,,,,,0.0,,,,,,,
221,2328321,1746077105960,,,,,,,,,,,,,,,,,,,,,,,,,,,,,,,,,,0,0,0,0,0,0,0,0,0,0,0,0,0,0,0,0,,,,,,,,,,,,,
222,2328341,1746077105980,0.0,104.0,,0.47,-0.03,1.07,1.0,-1.0,-1.0,1.17,1.43,82.0,6277.0,45.7,5.19,,13.79,0.955,79.0,,28.8,5.0,,,,,,,,,,,,0,0,0,0,0,0,0,0,0,0,0,0,0,0,0,0,,,,,,0.0,,,,,,,
223,2328361,1746077105992,,,,,,,,,,,,,,,,,,,,,,,,,,,,,,,,,,0,0,0,0,0,0,0,0,0,0,0,0,0,0,0,0,,,,,,,,,,,,,
224,2328381,1746077106012,0.0,104.0,13.34,0.45,-0.05,1.03,1.0,-1.0,-1.0,1.12,1.43,79.0,6482.0,45.9,5.2,15.0,13.79,0.955,79.0,209.0,28.8,5.0,19.0,0.0,19.0,20.0,0.0,75.0,0.0,0.0,2.25,0.0,0.0,0,0,0,0,0,0,0,0,0,0,0,0,0,0,0,0,0.0,0.0,0.0,0.0,0.0,0.0,38.994724,-76.939133,28.88,25.9,30.0,3.0,0.8
225,2328401,1746077106032,,,,,,,,,,,,,,,,,,,,,,,,,,,,,,,,,,0,0,0,0,0,0,0,0,0,0,0,0,0,0,0,0,,,,,,,,,,,,,
226,2328421,1746077106052,0.0,105.0,,0.44,-0.06,1.03,0.0,-1.0,-1.0,1.12,1.43,78.0,6628.0,45.9,5.21,,13.92,0.955,79.0,,28.8,5.0,,,,,,,,,,,,0,0,0,0,0,0,0,0,0,0,0,0,0,0,0,0,,,,,,0.0,,,,,,,
227,2328441,1746077106072,,,,,,,,,,,,,,,,,,,,,,,,,,,,,,,,,,0,0,0,0,0,0,0,0,0,0,0,0,0,0,0,0,,,,,,,,,,,,,
228,2328461,1746077106098,0.0,104.0,,0.43,-0.01,1.02,-1.0,-2.0,0.0,1.11,1.43,78.0,6643.0,45.9,5.22,,13.91,0.955,79.0,,28.2,5.0,,,,,,,,,,,,0,0,0,0,0,0,0,0,0,0,0,0,0,0,0,0,,,,,,0.0,,,,,,,
229,2328481,1746077106118,,,,,,,,,,,,,,,,,,,,,,,19.0,0.0,20.0,21.0,0.0,57.0,0.0,0.0,2.25,,,0,0,0,0,0,0,0,0,0,0,0,0,0,0,0,0,,0.0,,,,,38.994724,-76.93914,30.69,25.9,30.0,3.0,0.8
230,2328501,1746077106138,0.0,104.0,,0.45,-0.16,1.02,-3.0,-2.0,-1.0,1.13,1.43,79.0,6884.0,45.5,5.24,,13.91,0.955,79.0,,28.2,5.0,,,,,,,,,,,,0,0,0,0,0,0,0,0,0,0,0,0,0,0,0,0,,,,,,0.0,,,,,,,
231,2328521,1746077106158,,,,,,,,,,,,,,,,,,,,,,,,,,,,,,,,,,0,0,0,0,0,0,0,0,0,0,0,0,0,0,0,0,,,,,,,,,,,,,
232,2328541,1746077106178,0.0,104.0,,0.45,-0.06,1.07,-2.0,-2.0,0.0,1.17,1.43,82.0,6884.0,45.5,5.24,,13.56,0.956,79.0,,28.9,5.0,,,,,,,,,,,,0,0,0,0,0,0,0,0,0,0,0,0,0,0,0,0,,,,,,0.0,,,,,,,
233,2328561,1746077106194,,,,,,,,,,,,,,,,,,,,,,,,,,,,,,,,,,0,0,0,0,0,0,0,0,0,0,0,0,0,0,0,0,,,,,,,,,,,,,
234,2328581,1746077106214,0.0,104.0,,0.48,-0.31,1.0,-3.0,-2.0,0.0,1.15,1.43,81.0,7169.0,45.7,5.17,,13.76,0.954,79.0,,28.9,5.0,21.0,0.0,21.0,21.0,0.0,33.0,0.0,0.0,2.24,,,0,0,0,0,0,0,0,0,0,0,0,0,0,0,0,0,,1.0,,,,0.0,38.994724,-76.939148,32.64,26.0,30.0,3.0,0.8
235,2328601,1746077106234,,,,,,,,,,,,,,,,,,,,,,,,,,,,,,,,,,0,0,0,0,0,0,0,0,0,0,0,0,0,0,0,0,,,,,,,,,,,,,
236,2328621,1746077106254,0.0,105.0,,0.42,-0.11,0.98,-5.0,-2.0,0.0,1.07,1.43,75.0,7218.0,45.2,5.18,,13.67,0.952,79.0,,28.9,5.0,,,,,,,,,,,,0,0,0,0,0,0,0,0,0,0,0,0,0,0,0,0,,,,,,0.0,,,,,,,
237,2328641,1746077106274,,,,,,,,,,,,,,,,,,,,,,,,,,,,,,,,,,0,0,0,0,0,0,0,0,0,0,0,0,0,0,0,0,,,,,,,,,,,,,
238,2328661,1746077106300,0.0,104.0,,0.38,-0.03,0.98,-5.0,-1.0,0.0,1.05,1.43,73.0,7671.0,44.9,5.11,,13.31,0.953,79.0,,30.4,5.0,,,,,,,,,,,,0,0,0,0,0,0,0,0,0,0,0,0,0,0,0,0,,,,,,0.0,,,,,,,
239,2328681,1746077106320,,,,,,,,,,,,,,,,,,,,,,,22.0,0.0,22.0,23.0,0.0,28.0,0.0,0.0,2.25,,,0,0,0,0,0,0,0,0,0,0,0,0,0,0,0,0,,1.0,,,,,38.994724,-76.939163,34.3,26.0,30.0,3.0,0.8
240,2328701,1746077106340,0.0,103.0,,0.42,-0.3,0.95,-5.0,-1.0,0.0,1.08,1.43,75.0,7704.0,44.8,5.13,,13.31,0.953,79.0,,30.4,5.0,,,,,,,,,,,,0,0,0,0,0,0,0,0,0,0,0,0,0,0,0,0,,,,,,0.0,,,,,,,
241,2328721,1746077106360,,,,,,,,,,,,,,,,,,,,,,,,,,,,,,,,,,0,0,0,0,0,0,0,0,0,0,0,0,0,0,0,0,,,,,,,,,,,,,
242,2328741,1746077106380,0.0,105.0,,0.43,-0.31,1.01,-3.0,-2.0,-1.0,1.14,1.43,80.0,7704.0,44.8,5.13,,13.31,0.955,79.0,,32.0,5.0,,,,,,,,,,,,0,0,0,0,0,0,0,0,0,0,0,0,0,0,0,0,,,,,,0.0,,,,,,,
243,2328761,1746077106400,,,,,,,,,,,,,,,,,,,,,,,,,,,,,,,,,,0,0,0,0,0,0,0,0,0,0,0,0,0,0,0,0,,,,,,,,,,,,,
244,2328781,1746077106420,0.0,103.0,,0.38,-0.37,0.97,-4.0,-2.0,-1.0,1.11,1.43,78.0,7843.0,44.8,5.11,,13.41,0.955,79.0,,32.0,5.0,22.0,0.0,24.0,24.0,0.0,89.0,0.0,0.0,2.25,,,0,0,0,0,0,0,0,0,0,0,0,0,0,0,0,0,,1.0,,,,0.0,38.994724,-76.939178,36.38,26.0,30.0,3.0,0.8
245,2328801,1746077106440,,,,,,,,,,,,,,,,,,,,,,,,,,,,,,,,,,0,0,0,0,0,0,0,0,0,0,0,0,0,0,0,0,,,,,,,,,,,,,
246,2328821,1746077106460,0.0,104.0,,0.38,-0.31,1.03,-5.0,-2.0,0.0,1.14,1.43,80.0,8055.0,44.7,5.08,,13.25,0.955,79.0,,32.0,5.0,,,,,,,,,,,,0,0,0,0,0,0,0,0,0,0,0,0,0,0,0,0,,,,,,0.0,,,,,,,
247,2328841,1746077106480,,,,,,,,,,,,,,,,,,,,,,,,,,,,,,,,,,0,0,0,0,0,0,0,0,0,0,0,0,0,0,0,0,,,,,,,,,,,,,
248,2328861,1746077106500,0.0,104.0,,0.4,-0.34,0.99,-5.0,-2.0,0.0,1.12,1.43,78.0,8311.0,44.5,5.07,,13.31,0.955,79.0,,36.9,5.0,,,,,,,,,,,,0,0,0,0,0,0,0,0,0,0,0,0,0,0,0,0,,,,,,0.0,,,,,,,
249,2328881,1746077106520,,,,,,,,,,,,,,,,,,,,,,,23.0,0.0,26.0,25.0,0.0,83.0,0.0,0.0,2.25,,,0,0,0,0,0,0,0,0,0,0,0,0,0,0,0,0,,1.0,,,,,38.994724,-76.939186,38.04,26.0,30.0,3.0,0.8
250,2328901,1746077106540,0.0,104.0,,0.41,-0.07,1.04,-7.0,-1.0,1.0,1.12,1.43,78.0,8461.0,44.0,5.08,,13.31,0.955,79.0,,36.9,5.0,,,,,,,,,,,,0,0,0,0,0,0,0,0,0,0,0,0,0,0,0,0,,,,,,0.0,,,,,,,
251,2328921,1746077106560,,,,,,,,,,,,,,,,,,,,,,,,,,,,,,,,,,0,0,0,0,0,0,0,0,0,0,0,0,0,0,0,0,,,,,,,,,,,,,
252,2328941,1746077106580,0.0,105.0,,0.43,-0.04,0.94,-8.0,-1.0,0.0,1.04,1.04,100.0,8461.0,44.0,5.08,,13.24,0.955,79.0,,42.0,5.0,,,,,,,,,,,,0,0,0,0,0,0,0,0,0,0,0,0,0,0,0,0,,,,,,0.0,,,,,,,
253,2328961,1746077106600,,,,,,,,,,,,,,,,,,,,,,,,,,,,,,,,,,0,0,0,0,0,0,0,0,0,0,0,0,0,0,0,0,,,,,,,,,,,,,
254,2328981,1746077106620,0.0,104.0,,0.46,-0.14,0.93,-7.0,-1.0,0.0,1.05,1.05,100.0,8614.0,40.8,5.03,,12.96,0.955,77.2,,42.0,5.0,25.0,0.0,24.0,27.0,0.0,254.0,0.0,0.0,2.25,,,0,0,0,0,0,0,0,0,0,0,0,0,0,0,0,0,,1.0,,,,0.0,38.994728,-76.939201,39.04,26.0,30.0,3.0,0.8
255,2329001,1746077106640,,,,,,,,,,,,,,,,,,,,,,,,,,,,,,,,,,0,0,0,0,0,0,0,0,0,0,0,0,0,0,0,0,,,,,,,,,,,,,
256,2329021,1746077106660,0.0,104.0,,0.45,0.06,0.79,-7.0,-1.0,1.0,0.91,1.05,87.0,8828.0,38.1,5.24,,12.69,0.955,77.2,,42.0,5.0,,,,,,,,,,,,0,0,0,0,0,0,0,0,0,0,0,0,0,0,0,0,,,,,,0.0,,,,,,,
257,2329041,1746077106680,,,,,,,,,,,,,,,,,,,,,,,,,,,,,,,,,,0,0,0,0,0,0,0,0,0,0,0,0,0,0,0,0,,,,,,,,,,,,,
258,2329541,1746077107177,0.0,105.0,,0.46,-0.22,1.01,-7.0,0.0,0.0,1.13,1.13,100.0,10523.0,20.0,3.38,,9.54,0.955,77.2,,46.4,5.0,,,,,,,,,,,,0,0,0,0,0,0,0,0,0,0,0,0,0,0,0,0,,,,,,0.0,,,,,,,
259,2329561,1746077107199,,,,,,,,,,,,,,,,,,,,,,,,,,,,,,,,,,0,0,0,0,0,0,0,0,0,0,0,0,0,0,0,0,,,,,,,,,,,,,
260,2329581,1746077107219,0.0,104.0,,0.41,-0.33,1.08,-4.0,0.0,1.0,1.2,1.2,100.0,10625.0,20.1,3.22,,9.39,0.955,77.2,,46.4,5.0,31.0,0.0,32.0,33.0,0.0,19.0,0.0,0.0,2.25,,,0,0,0,0,0,0,0,0,0,0,0,0,0,0,0,0,,1.0,,,,0.0,38.994732,-76.939285,49.13,26.2,30.0,3.0,0.8
261,2329601,1746077107239,,,,,,,,,,,,,,,,,,,,,,,,,,,,,,,,,,0,0,0,0,0,0,0,0,0,0,0,0,0,0,0,0,,,,,,,,,,,,,
262,2329621,1746077107259,0.0,104.0,,0.39,-0.27,0.97,-6.0,-1.0,0.0,1.08,1.2,90.0,10696.0,19.9,3.12,,9.29,0.955,77.2,,46.4,5.0,,,,,,,,,,,,0,0,0,0,0,0,0,0,0,0,0,0,0,0,0,0,,,,,,0.0,,,,,,,
263,2329641,1746077107279,,,,,,,,,,,,,,,,,,,,,,,,,,,,,,,,,,0,0,0,0,0,0,0,0,0,0,0,0,0,0,0,0,,,,,,,,,,,,,
264,2329661,1746077107299,0.0,105.0,,0.35,-0.09,1.07,-3.0,-1.0,0.0,1.13,1.2,94.0,10721.0,20.5,3.08,,9.26,0.955,77.2,,47.3,5.0,,,,,,,,,,,,0,0,0,0,0,0,0,0,0,0,0,0,0,0,0,0,,,,,,0.0,,,,,,,
265,2329681,1746077107319,,,,,,,,,,,,,,,,,,,,,,,32.0,0.0,33.0,33.0,0.0,81.0,0.0,0.0,2.24,,,0,0,0,0,0,0,0,0,0,0,0,0,0,0,0,0,,1.0,,,,,38.994732,-76.939301,50.54,26.2,30.0,3.0,0.8
266,2329701,1746077107339,0.0,105.0,,0.34,-0.18,1.06,-2.0,-1.0,0.0,1.13,1.2,94.0,10893.0,20.7,2.92,,9.26,0.955,77.2,,47.3,5.0,,,,,,,,,,,,0,0,0,0,0,0,0,0,0,0,0,0,0,0,0,0,,,,,,0.0,,,,,,,
267,2329721,1746077107359,,,,,,,,,,,,,,,,,,,,,,,,,,,,,,,,,,0,0,0,0,0,0,0,0,0,0,0,0,0,0,0,0,,,,,,,,,,,,,
268,2329741,1746077107379,0.0,105.0,,0.3,-0.36,1.1,-1.0,-2.0,-1.0,1.2,1.2,100.0,10893.0,20.7,2.92,,9.15,0.95,77.2,,45.3,5.0,,,,,,,,,,,,0,0,0,0,0,0,0,0,0,0,0,0,0,0,0,0,,,,,,0.0,,,,,,,
269,2329761,1746077107399,,,,,,,,,,,,,,,,,,,,,,,,,,,,,,,,,,0,0,0,0,0,0,0,0,0,0,0,0,0,0,0,0,,,,,,,,,,,,,
270,2329781,1746077107419,0.0,105.0,,0.3,-0.33,1.11,-3.0,-2.0,1.0,1.2,1.2,100.0,10887.0,19.9,2.83,,9.11,0.952,77.2,,45.3,5.0,33.0,0.0,33.0,32.0,0.0,0.0,0.0,0.0,2.25,,,0,0,0,0,0,0,0,0,0,0,0,0,0,0,0,0,,1.0,,,,0.0,38.994732,-76.939316,51.47,26.2,30.0,3.0,0.8
271,2329801,1746077107439,,,,,,,,,,,,,,,,,,,,,,,,,,,,,,,,,,0,0,0,0,0,0,0,0,0,0,0,0,0,0,0,0,,,,,,,,,,,,,
272,2329821,1746077107459,0.0,104.0,,0.25,-0.42,1.06,-2.0,-1.0,0.0,1.17,1.2,97.0,10943.0,20.7,2.81,,9.06,0.954,77.2,,45.3,5.0,,,,,,,,,,,,0,0,0,0,0,0,0,0,0,0,0,0,0,0,0,0,,,,,,0.0,,,,,,,
273,2329841,1746077107479,,,,,,,,,,,,,,,,,,,,,,,,,,,,,,,,,,0,0,0,0,0,0,0,0,0,0,0,0,0,0,0,0,,,,,,,,,,,,,
274,2329861,1746077107499,0.0,105.0,,0.2,-0.36,1.06,0.0,0.0,0.0,1.13,1.2,94.0,11034.0,20.9,2.81,,9.01,0.955,77.2,,47.0,5.0,,,,,,,,,,,,0,0,0,0,0,0,0,0,0,0,0,0,0,0,0,0,,,,,,0.0,,,,,,,
275,2329881,1746077107519,,,,,,,,,,,,,,,,,,,,,,,34.0,0.0,32.0,33.0,0.0,14.0,0.0,0.0,2.24,,,0,0,0,0,0,0,0,0,0,0,0,0,0,0,0,0,,1.0,,,,,38.994732,-76.939339,51.88,26.3,30.0,3.0,0.8
276,2329901,1746077107539,0.0,104.0,,0.24,-0.26,1.07,-1.0,0.0,1.0,1.13,1.2,94.0,11045.0,20.9,2.79,,9.01,0.955,77.2,,47.0,5.0,,,,,,,,,,,,0,0,0,0,0,0,0,0,0,0,0,0,0,0,0,0,,,,,,0.0,,,,,,,
277,2329921,1746077107559,,,,,,,,,,,,,,,,,,,,,,,,,,,,,,,,,,0,0,0,0,0,0,0,0,0,0,0,0,0,0,0,0,,,,,,,,,,,,,
278,2329941,1746077107579,0.0,105.0,,0.15,-0.47,1.03,-1.0,-1.0,0.0,1.14,1.2,95.0,11045.0,20.9,2.79,,8.98,0.955,77.2,,48.0,5.0,,,,,,,,,,,,0,0,0,0,0,0,0,0,0,0,0,0,0,0,0,0,,,,,,0.0,,,,,,,
279,2329961,1746077107599,,,,,,,,,,,,,,,,,,,,,,,,,,,,,,,,,,0,0,0,0,0,0,0,0,0,0,0,0,0,0,0,0,,,,,,,,,,,,,
280,2329981,1746077107619,0.0,104.0,,0.1,-0.42,1.05,-1.0,-1.0,0.0,1.13,1.2,95.0,11081.0,17.9,2.68,,8.73,0.955,77.2,,48.0,5.0,32.0,0.0,34.0,33.0,0.0,20.0,0.0,0.0,2.25,,,0,0,0,0,0,0,0,0,0,0,0,0,0,0,0,0,,1.0,,,,0.0,38.994732,-76.939346,52.0,26.3,30.0,3.0,0.8
281,2330001,1746077107639,,,,,,,,,,,,,,,,,,,,,,,,,,,,,,,,,,0,0,0,0,0,0,0,0,0,0,0,0,0,0,0,0,,,,,,,,,,,,,
282,2330021,1746077107659,0.0,105.0,,0.12,-0.46,1.09,-1.0,-1.0,0.0,1.19,1.2,99.0,11070.0,12.9,2.33,,8.11,0.955,77.2,,48.0,5.0,,,,,,,,,,,,0,0,0,0,0,0,0,0,0,0,0,0,0,0,0,0,,,,,,0.0,,,,,,,
283,2330041,1746077107679,,,,,,,,,,,,,,,,,,,,,,,,,,,,,,,,,,0,0,0,0,0,0,0,0,0,0,0,0,0,0,0,0,,,,,,,,,,,,,
284,2330061,1746077107701,0.0,105.0,,0.09,-0.35,1.11,-1.0,-2.0,0.0,1.17,1.2,97.0,11029.0,2.9,1.92,,6.84,0.956,77.2,,47.7,5.0,,,,,,,,,,,,0,0,0,0,0,0,0,0,0,0,0,0,0,0,0,0,,,,,,0.0,,,,,,,
285,2330081,1746077107721,,,,,,,,,,,,,,,,,,,,,,,33.0,0.0,33.0,33.0,0.0,4.0,0.0,0.0,2.25,,,0,0,0,0,0,0,0,0,0,0,0,0,0,0,0,0,,1.0,,,,,38.994732,-76.939369,52.38,26.3,30.0,3.0,0.8
286,2330101,1746077107741,13.95,105.0,,0.0,-0.41,1.11,1.0,-2.0,-1.0,1.19,1.2,99.0,10643.0,0.0,1.4,,6.84,0.956,77.2,,47.7,5.0,,,,,,,,,,,,0,0,0,0,0,0,0,0,0,0,0,0,0,0,0,0,,,,,,0.0,,,,,,,
287,2330121,1746077107761,,,,,,,,,,,,,,,,,,,,,,,,,,,,,,,,,,0,0,0,0,0,0,0,0,0,0,0,0,0,0,0,0,,,,,,,,,,,,,
288,2330141,1746077107781,40.98,105.0,,-0.08,-0.58,1.15,2.0,-2.0,-1.0,1.29,1.29,100.0,10643.0,0.0,1.4,,5.8,0.953,77.2,,46.3,5.0,,,,,,,,,,,,0,0,0,0,0,0,0,0,0,0,0,0,0,0,0,0,,,,,,0.0,,,,,,,
289,2330161,1746077107801,,,,,,,,,,,,,,,,,,,,,,,,,,,,,,,,,,0,0,0,0,0,0,0,0,0,0,0,0,0,0,0,0,,,,,,,,,,,,,
290,2330181,1746077107821,68.63,104.0,,-0.14,-0.36,1.08,0.0,-2.0,-1.0,1.15,1.29,89.0,10137.0,0.0,1.4,,5.35,0.95,77.2,,46.3,5.0,32.0,0.0,32.0,33.0,0.0,248.0,0.0,0.0,2.25,,,0,0,0,0,0,0,0,0,0,0,0,0,0,0,0,0,,0.0,,,,0.0,38.994732,-76.939384,52.44,26.4,30.0,3.0,0.8
291,2330201,1746077107841,,,,,,,,,,,,,,,,,,,,,,,,,,,,,,,,,,0,0,0,0,0,0,0,0,0,0,0,0,0,0,0,0,,,,,,,,,,,,,
292,2330221,1746077107861,92.51,105.0,,-0.21,-0.32,1.08,1.0,-2.0,-1.0,1.15,1.29,89.0,9763.0,0.0,1.4,,5.11,0.95,77.2,,46.3,5.0,,,,,,,,,,,,0,0,0,0,0,0,0,0,0,0,0,0,0,0,0,0,,,,,,0.0,,,,,,,
293,2330241,1746077107881,,,,,,,,,,,,,,,,,,,,,,,,,,,,,,,,,,0,0,0,0,0,0,0,0,0,0,0,0,0,0,0,0,,,,,,,,,,,,,
294,2330261,1746077107900,106.96,104.0,,-0.23,-0.4,1.08,-1.0,-2.0,0.0,1.17,1.29,91.0,9489.0,0.0,1.4,,4.92,0.955,77.2,,46.5,5.0,,,,,,,,,,,,0,0,0,0,0,0,0,0,0,0,0,0,0,0,0,0,,,,,,0.0,,,,,,,
295,2330281,1746077107920,,,,,,,,,,,,,,,,,,,,,,,31.0,0.0,29.0,30.0,0.0,233.0,0.0,0.0,2.25,,,0,0,0,0,0,0,0,0,0,0,0,0,0,0,0,0,,0.0,,,,,38.994732,-76.9394,51.01,26.4,30.0,3.0,0.8
296,2330301,1746077107940,119.53,105.0,,-0.37,-0.09,1.09,-1.0,-3.0,0.0,1.15,1.29,90.0,9328.0,0.0,1.4,,4.92,0.955,77.2,,46.5,5.0,,,,,,,,,,,,0,0,0,0,0,0,0,0,0,0,0,0,0,0,0,0,,,,,,0.0,,,,,,,
297,2330321,1746077107960,,,,,,,,,,,,,,,,,,,,,,,,,,,,,,,,,,0,0,0,0,0,0,0,0,0,0,0,0,0,0,0,0,,,,,,,,,,,,,
298,2330341,1746077107980,133.36,105.0,,-0.42,0.12,1.04,-1.0,-3.0,-1.0,1.13,1.29,88.0,9328.0,0.0,1.4,,4.8,0.956,77.2,,38.8,5.0,,,,,,,,,,,,0,0,0,0,0,0,0,0,0,0,0,0,0,0,0,0,,,,,,0.0,,,,,,,
299,2330361,1746077107992,,,,,,,,,,,,,,,,,,,,,,,,,,,,,,,,,,0,0,0,0,0,0,0,0,0,0,0,0,0,0,0,0,,,,,,,,,,,,,
300,2330381,1746077108012,140.9,105.0,13.48,-0.43,0.17,1.05,1.0,-3.0,-1.0,1.14,1.29,89.0,9105.0,0.0,1.4,15.0,4.76,0.956,77.2,205.0,38.8,5.0,29.0,0.0,29.0,28.0,0.0,208.0,0.0,0.0,2.25,0.0,0.0,0,0,0,0,0,0,0,0,0,0,0,0,0,0,0,0,0.0,0.0,0.0,0.0,0.0,0.0,38.994732,-76.939415,48.14,26.4,30.0,3.0,0.8
301,2330401,1746077108032,,,,,,,,,,,,,,,,,,,,,,,,,,,,,,,,,,0,0,0,0,0,0,0,0,0,0,0,0,0,0,0,0,,,,,,,,,,,,,
302,2330421,1746077108052,147.18,106.0,,-0.46,0.29,1.08,3.0,-3.0,-1.0,1.21,1.21,100.0,8896.0,0.0,1.4,,4.76,0.956,77.2,,38.8,5.0,,,,,,,,,,,,0,0,0,0,0,0,0,0,0,0,0,0,0,0,0,0,,,,,,0.0,,,,,,,
303,2330441,1746077108072,,,,,,,,,,,,,,,,,,,,,,,,,,,,,,,,,,0,0,0,0,0,0,0,0,0,0,0,0,0,0,0,0,,,,,,,,,,,,,
304,2330461,1746077108100,152.84,106.0,,-0.5,0.3,1.05,6.0,-3.0,-1.0,1.2,1.21,100.0,8672.0,0.0,1.4,,4.83,0.956,77.2,,43.7,5.0,,,,,,,,,,,,0,0,0,0,0,0,0,0,0,0,0,0,0,0,0,0,,,,,,0.0,,,,,,,
305,2330481,1746077108120,,,,,,,,,,,,,,,,,,,,,,,28.0,0.0,26.0,26.0,0.0,244.0,0.0,0.0,2.25,,,0,0,0,0,0,0,0,0,0,0,0,0,0,0,0,0,,0.0,,,,,38.994736,-76.93943,43.92,26.5,30.0,3.0,0.8
306,2330501,1746077108140,154.1,106.0,,-0.5,0.42,1.09,8.0,-2.0,-1.0,1.27,1.27,100.0,8444.0,0.0,1.4,,4.83,0.956,77.2,,43.7,5.0,,,,,,,,,,,,0,0,0,0,0,0,0,0,0,0,0,0,0,0,0,0,,,,,,0.0,,,,,,,
307,2330521,1746077108160,,,,,,,,,,,,,,,,,,,,,,,,,,,,,,,,,,0,0,0,0,0,0,0,0,0,0,0,0,0,0,0,0,,,,,,,,,,,,,
308,2330541,1746077108180,154.73,106.0,,-0.53,0.39,1.08,10.0,-2.0,-2.0,1.26,1.27,100.0,8444.0,0.0,1.4,,4.91,0.956,77.2,,36.2,5.0,,,,,,,,,,,,0,0,0,0,0,0,0,0,0,0,0,0,0,0,0,0,,,,,,0.0,,,,,,,
309,2330561,1746077108200,,,,,,,,,,,,,,,,,,,,,,,,,,,,,,,,,,0,0,0,0,0,0,0,0,0,0,0,0,0,0,0,0,,,,,,,,,,,,,
310,2330581,1746077108220,149.7,106.0,,-0.53,0.32,1.0,13.0,-2.0,-1.0,1.18,1.27,93.0,8211.0,0.0,1.4,,5.04,0.955,77.2,,36.2,5.0,26.0,0.0,25.0,23.0,0.0,233.0,0.0,0.0,2.24,,,0,0,0,0,0,0,0,0,0,0,0,0,0,0,0,0,,0.0,,,,0.0,38.994736,-76.939446,41.1,26.5,30.0,3.0,0.8
311,2330601,1746077108240,,,,,,,,,,,,,,,,,,,,,,,,,,,,,,,,,,0,0,0,0,0,0,0,0,0,0,0,0,0,0,0,0,,,,,,,,,,,,,
312,2330621,1746077108260,143.41,106.0,,-0.55,0.32,0.89,13.0,-1.0,-2.0,1.1,1.27,86.0,8040.0,0.0,1.4,,5.19,0.956,77.2,,36.2,5.0,,,,,,,,,,,,0,0,0,0,0,0,0,0,0,0,0,0,0,0,0,0,,,,,,0.0,,,,,,,
313,2330641,1746077108280,,,,,,,,,,,,,,,,,,,,,,,,,,,,,,,,,,0,0,0,0,0,0,0,0,0,0,0,0,0,0,0,0,,,,,,,,,,,,,
314,2330661,1746077108300,125.19,106.0,,-0.56,0.42,0.95,14.0,-1.0,-2.0,1.18,1.27,93.0,7871.0,1.5,1.4,,5.52,0.955,77.2,,35.7,5.0,,,,,,,,,,,,0,0,0,0,0,0,0,0,0,0,0,0,0,0,0,0,,,,,,0.0,,,,,,,
315,2330681,1746077108320,,,,,,,,,,,,,,,,,,,,,,,25.0,0.0,24.0,24.0,0.0,220.0,0.0,0.0,2.25,,,0,0,0,0,0,0,0,0,0,0,0,0,0,0,0,0,,0.0,,,,,38.994732,-76.939453,38.76,26.5,30.0,3.0,0.8
316,2330701,1746077108340,105.71,105.0,,-0.55,0.34,0.88,15.0,-1.0,-1.0,1.09,1.27,86.0,7742.0,2.5,1.4,,5.52,0.955,77.2,,35.7,5.0,,,,,,,,,,,,0,0,0,0,0,0,0,0,0,0,0,0,0,0,0,0,,,,,,0.0,,,,,,,
317,2330721,1746077108360,,,,,,,,,,,,,,,,,,,,,,,,,,,,,,,,,,0,0,0,0,0,0,0,0,0,0,0,0,0,0,0,0,,,,,,,,,,,,,
318,2330741,1746077108380,89.99,106.0,,-0.53,0.36,0.98,16.0,-1.0,-1.0,1.17,1.27,92.0,7742.0,2.5,1.4,,5.82,0.951,77.2,,32.3,5.0,,,,,,,,,,,,0,0,0,0,0,0,0,0,0,0,0,0,0,0,0,0,,,,,,0.0,,,,,,,
319,2330761,1746077108400,,,,,,,,,,,,,,,,,,,,,,,,,,,,,,,,,,0,0,0,0,0,0,0,0,0,0,0,0,0,0,0,0,,,,,,,,,,,,,
320,2330781,1746077108420,75.54,106.0,,-0.49,0.42,1.03,17.0,-1.0,-1.0,1.21,1.27,96.0,7646.0,7.7,1.96,,6.43,0.955,77.2,,32.3,5.0,24.0,0.0,23.0,23.0,0.0,243.0,0.0,0.0,2.25,,,0,0,0,0,0,0,0,0,0,0,0,0,0,0,0,0,,0.0,,,,0.0,38.994732,-76.939468,37.26,26.5,30.0,3.0,0.8
321,2330801,1746077108440,,,,,,,,,,,,,,,,,,,,,,,,,,,,,,,,,,0,0,0,0,0,0,0,0,0,0,0,0,0,0,0,0,,,,,,,,,,,,,
322,2330821,1746077108460,61.71,106.0,,-0.46,0.53,1.11,17.0,-1.0,-1.0,1.31,1.31,100.0,7656.0,10.8,2.29,,7.43,0.956,77.2,,32.3,5.0,,,,,,,,,,,,0,0,0,0,0,0,0,0,0,0,0,0,0,0,0,0,,,,,,0.0,,,,,,,
323,2330841,1746077108480,,,,,,,,,,,,,,,,,,,,,,,,,,,,,,,,,,0,0,0,0,0,0,0,0,0,0,0,0,0,0,0,0,,,,,,,,,,,,,
324,2330861,1746077108500,53.54,105.0,,-0.41,0.51,1.04,18.0,-1.0,0.0,1.23,1.31,94.0,7750.0,14.4,2.42,,8.41,0.955,77.2,,32.0,5.0,,,,,,,,,,,,0,0,0,0,0,0,0,0,0,0,0,0,0,0,0,0,,,,,,0.0,,,,,,,
325,2330881,1746077108520,,,,,,,,,,,,,,,,,,,,,,,24.0,0.0,23.0,22.0,0.0,0.0,0.0,0.0,2.25,,,0,0,0,0,0,0,0,0,0,0,0,0,0,0,0,0,,0.0,,,,,38.994732,-76.939484,36.22,26.6,30.0,3.0,0.8
326,2330901,1746077108540,51.66,106.0,,-0.39,0.55,1.1,18.0,-1.0,0.0,1.29,1.31,99.0,7722.0,18.3,3.21,,8.41,0.955,77.2,,32.0,5.0,,,,,,,,,,,,0,0,0,0,0,0,0,0,0,0,0,0,0,0,0,0,,,,,,0.0,,,,,,,
327,2330921,1746077108560,,,,,,,,,,,,,,,,,,,,,,,,,,,,,,,,,,0,0,0,0,0,0,0,0,0,0,0,0,0,0,0,0,,,,,,,,,,,,,
328,2330941,1746077108580,48.52,106.0,,-0.37,0.61,1.08,18.0,-2.0,-1.0,1.3,1.31,99.0,7722.0,18.3,3.21,,9.48,0.955,77.2,,33.9,5.0,,,,,,,,,,,,0,0,0,0,0,0,0,0,0,0,0,0,0,0,0,0,,,,,,0.0,,,,,,,
329,2330961,1746077108600,,,,,,,,,,,,,,,,,,,,,,,,,,,,,,,,,,0,0,0,0,0,0,0,0,0,0,0,0,0,0,0,0,,,,,,,,,,,,,
330,2330981,1746077108620,43.49,106.0,,-0.35,0.66,1.11,18.0,-1.0,-1.0,1.34,1.34,100.0,7819.0,20.2,3.79,,10.16,0.955,77.2,,33.9,5.0,23.0,0.0,23.0,21.0,0.0,6.0,0.0,0.0,2.25,,,0,0,0,0,0,0,0,0,0,0,0,0,0,0,0,0,,0.0,,,,0.0,38.994732,-76.939499,35.64,26.6,30.0,3.0,0.8
331,2331001,1746077108640,,,,,,,,,,,,,,,,,,,,,,,,,,,,,,,,,,0,0,0,0,0,0,0,0,0,0,0,0,0,0,0,0,,,,,,,,,,,,,
332,2331021,1746077108660,41.6,105.0,,-0.3,0.68,1.0,19.0,2.0,-1.0,1.25,1.34,93.0,8314.0,22.0,3.83,,10.53,0.956,77.2,,33.9,5.0,,,,,,,,,,,,0,0,0,0,0,0,0,0,0,0,0,0,0,0,0,0,,,,,,0.0,,,,,,,
333,2331041,1746077108680,,,,,,,,,,,,,,,,,,,,,,,,,,,,,,,,,,0,0,0,0,0,0,0,0,0,0,0,0,0,0,0,0,,,,,,,,,,,,,
334,2331061,1746077108700,34.06,105.0,,-0.24,0.58,1.0,20.0,2.0,0.0,1.18,1.34,88.0,8411.0,21.0,3.74,,10.56,0.951,77.2,,32.8,5.0,,,,,,,,,,,,0,0,0,0,0,0,0,0,0,0,0,0,0,0,0,0,,,,,,0.0,,,,,,,
335,2331081,1746077108720,,,,,,,,,,,,,,,,,,,,,,,23.0,0.0,24.0,27.0,0.0,26.0,0.0,0.0,2.25,,,0,0,0,0,0,0,0,0,0,0,0,0,0,0,0,0,,0.0,,,,,38.994732,-76.939499,34.98,26.6,30.0,3.0,0.8
336,2331101,1746077108740,26.52,105.0,,-0.13,0.52,0.95,20.0,2.0,0.0,1.09,1.34,81.0,8058.0,18.3,3.87,,10.56,0.951,77.2,,32.8,5.0,,,,,,,,,,,,0,0,0,0,0,0,0,0,0,0,0,0,0,0,0,0,,,,,,0.0,,,,,,,
337,2331121,1746077108760,,,,,,,,,,,,,,,,,,,,,,,,,,,,,,,,,,0,0,0,0,0,0,0,0,0,0,0,0,0,0,0,0,,,,,,,,,,,,,
338,2331141,1746077108780,20.86,106.0,,-0.05,0.38,1.02,20.0,1.0,-1.0,1.09,1.34,81.0,8058.0,18.3,3.87,,10.69,0.949,77.2,,33.6,5.0,,,,,,,,,,,,0,0,0,0,0,0,0,0,0,0,0,0,0,0,0,0,,,,,,0.0,,,,,,,
339,2331161,1746077108800,,,,,,,,,,,,,,,,,,,,,,,,,,,,,,,,,,0,0,0,0,0,0,0,0,0,0,0,0,0,0,0,0,,,,,,,,,,,,,
340,2331181,1746077108820,22.75,105.0,,-0.06,0.41,1.0,18.0,0.0,-2.0,1.08,1.34,81.0,7973.0,18.3,4.15,,10.84,0.955,77.2,,33.6,5.0,24.0,0.0,24.0,26.0,0.0,48.0,0.0,0.0,2.25,,,0,0,0,0,0,0,0,0,0,0,0,0,0,0,0,0,,0.0,,,,0.0,38.994728,-76.939514,37.28,26.6,30.0,3.0,0.8
341,2331201,1746077108840,,,,,,,,,,,,,,,,,,,,,,,,,,,,,,,,,,0,0,0,0,0,0,0,0,0,0,0,0,0,0,0,0,,,,,,,,,,,,,
342,2331221,1746077108860,30.92,104.0,,-0.03,0.38,0.96,19.0,0.0,-2.0,1.03,1.34,77.0,8208.0,15.8,4.05,,10.53,0.955,77.2,,33.6,5.0,,,,,,,,,,,,0,0,0,0,0,0,0,0,0,0,0,0,0,0,0,0,,,,,,0.0,,,,,,,
343,2331241,1746077108880,,,,,,,,,,,,,,,,,,,,,,,,,,,,,,,,,,0,0,0,0,0,0,0,0,0,0,0,0,0,0,0,0,,,,,,,,,,,,,
344,2331261,1746077108899,42.86,106.0,,-0.02,0.31,1.03,19.0,1.0,-2.0,1.08,1.34,80.0,8449.0,11.3,3.26,,9.84,0.955,77.2,,32.3,5.0,,,,,,,,,,,,0,0,0,0,0,0,0,0,0,0,0,0,0,0,0,0,,,,,,0.0,,,,,,,
345,2331281,1746077108919,,,,,,,,,,,,,,,,,,,,,,,24.0,0.0,24.0,25.0,0.0,92.0,0.0,0.0,2.24,,,0,0,0,0,0,0,0,0,0,0,0,0,0,0,0,0,,0.0,,,,,38.994728,-76.939529,39.41,26.6,30.0,3.0,0.8
346,2331301,1746077108939,52.92,105.0,,-0.01,0.32,1.06,17.0,1.0,-1.0,1.11,1.34,83.0,8140.0,0.0,1.4,,9.84,0.955,77.2,,32.3,5.0,,,,,,,,,,,,0,0,0,0,0,0,0,0,0,0,0,0,0,0,0,0,,,,,,0.0,,,,,,,
347,2331321,1746077108959,,,,,,,,,,,,,,,,,,,,,,,,,,,,,,,,,,0,0,0,0,0,0,0,0,0,0,0,0,0,0,0,0,,,,,,,,,,,,,
348,2331341,1746077108979,58.57,105.0,,-0.06,0.33,1.01,16.0,0.0,-1.0,1.07,1.34,79.0,8140.0,0.0,1.4,,8.69,0.956,77.2,,31.7,5.0,,,,,,,,,,,,0,0,0,0,0,0,0,0,0,0,0,0,0,0,0,0,,,,,,0.0,,,,,,,
349,2331361,1746077108991,,,,,,,,,,,,,,,,,,,,,,,,,,,,,,,,,,0,0,0,0,0,0,0,0,0,0,0,0,0,0,0,0,,,,,,,,,,,,,
350,2331381,1746077109011,68.63,106.0,13.55,-0.08,0.32,1.09,15.0,-3.0,-1.0,1.14,1.14,100.0,7488.0,0.0,1.4,15.0,7.71,0.956,77.2,205.0,31.7,5.0,24.0,0.0,25.0,23.0,0.0,229.0,0.0,0.0,2.25,0.0,0.0,0,0,0,0,0,0,0,0,0,0,0,0,0,0,0,0,0.0,0.0,0.0,0.0,0.0,0.0,38.994724,-76.939537,38.61,26.6,30.0,3.0,0.8
351,2331401,1746077109031,,,,,,,,,,,,,,,,,,,,,,,,,,,,,,,,,,0,0,0,0,0,0,0,0,0,0,0,0,0,0,0,0,,,,,,,,,,,,,
352,2331421,1746077109051,83.08,106.0,,-0.25,0.29,1.01,14.0,-4.0,-1.0,1.08,1.14,95.0,7034.0,0.0,1.4,,7.25,0.956,77.2,,31.7,5.0,,,,,,,,,,,,0,0,0,0,0,0,0,0,0,0,0,0,0,0,0,0,,,,,,0.0,,,,,,,
353,2331441,1746077109071,,,,,,,,,,,,,,,,,,,,,,,,,,,,,,,,,,0,0,0,0,0,0,0,0,0,0,0,0,0,0,0,0,,,,,,,,,,,,,
354,2331461,1746077109101,98.16,105.0,,-0.31,0.34,1.01,15.0,-3.0,-1.0,1.11,1.14,98.0,6716.0,0.0,1.4,,7.22,0.956,77.2,,29.3,5.0,,,,,,,,,,,,0,0,0,0,0,0,0,0,0,0,0,0,0,0,0,0,,,,,,0.0,,,,,,,
355,2331481,1746077109121,,,,,,,,,,,,,,,,,,,,,,,24.0,0.0,22.0,21.0,0.0,225.0,0.0,0.0,2.25,,,0,0,0,0,0,0,0,0,0,0,0,0,0,0,0,0,,0.0,,,,,38.99472,-76.939552,38.78,26.7,30.0,3.0,0.8
356,2331501,1746077109141,111.36,105.0,,-0.36,0.37,1.01,14.0,-3.0,-1.0,1.13,1.14,100.0,6560.0,0.0,1.4,,7.22,0.956,77.2,,29.3,5.0,,,,,,,,,,,,0,0,0,0,0,0,0,0,0,0,0,0,0,0,0,0,,,,,,0.0,,,,,,,
357,2331521,1746077109161,,,,,,,,,,,,,,,,,,,,,,,,,,,,,,,,,,0,0,0,0,0,0,0,0,0,0,0,0,0,0,0,0,,,,,,,,,,,,,
358,2331541,1746077109181,118.28,104.0,,-0.41,0.4,1.03,20.0,2.0,1.0,1.18,1.18,100.0,6560.0,0.0,1.4,,7.31,0.956,77.2,,27.0,5.0,,,,,,,,,,,,0,0,0,0,0,0,0,0,0,0,0,0,0,0,0,0,,,,,,0.0,,,,,,,
359,2331561,1746077109201,,,,,,,,,,,,,,,,,,,,,,,,,,,,,,,,,,0,0,0,0,0,0,0,0,0,0,0,0,0,0,0,0,,,,,,,,,,,,,
360,2331581,1746077109221,122.05,104.0,,-0.49,0.39,1.0,18.0,1.0,1.0,1.18,1.18,100.0,6536.0,0.0,1.4,,7.33,0.953,77.2,,27.0,5.0,22.0,0.0,19.0,19.0,0.0,158.0,0.0,0.0,2.25,,,0,0,0,0,0,0,0,0,0,0,0,0,0,0,0,0,,0.0,,,,0.0,38.994717,-76.939568,36.07,26.7,30.0,3.0,0.8
361,2331601,1746077109241,,,,,,,,,,,,,,,,,,,,,,,,,,,,,,,,,,0,0,0,0,0,0,0,0,0,0,0,0,0,0,0,0,,,,,,,,,,,,,
362,2331621,1746077109261,122.67,105.0,,-0.53,0.48,1.07,15.0,1.0,1.0,1.28,1.28,100.0,6461.0,52.3,4.53,,11.05,0.953,77.2,,27.0,5.0,,,,,,,,,,,,0,0,0,0,0,0,0,0,0,0,0,0,0,0,0,0,,,,,,0.0,,,,,,,
363,2331641,1746077109281,,,,,,,,,,,,,,,,,,,,,,,,,,,,,,,,,,0,0,0,0,0,0,0,0,0,0,0,0,0,0,0,0,,,,,,,,,,,,,
364,2331661,1746077109299,120.79,104.0,,-0.52,0.41,1.01,13.0,1.0,2.0,1.21,1.28,94.0,6652.0,87.0,6.97,,14.23,0.955,77.2,,27.7,5.0,,,,,,,,,,,,0,0,0,0,0,0,0,0,0,0,0,0,0,0,0,0,,,,,,0.0,,,,,,,
365,2331681,1746077109319,,,,,,,,,,,,,,,,,,,,,,,20.0,0.0,19.0,20.0,0.0,197.0,0.0,0.0,2.24,,,0,0,0,0,0,0,0,0,0,0,0,0,0,0,0,0,,0.0,,,,,38.994713,-76.939575,32.08,26.7,30.0,3.0,0.8
366,2331701,1746077109339,115.13,103.0,,-0.48,0.37,1.04,16.0,1.0,2.0,1.21,1.28,94.0,7462.0,89.1,6.41,,14.23,0.955,77.2,,27.7,5.0,,,,,,,,,,,,0,0,0,0,0,0,0,0,0,0,0,0,0,0,0,0,,,,,,0.0,,,,,,,
367,2331721,1746077109359,,,,,,,,,,,,,,,,,,,,,,,,,,,,,,,,,,0,0,0,0,0,0,0,0,0,0,0,0,0,0,0,0,,,,,,,,,,,,,
368,2331741,1746077109379,109.48,104.0,,-0.46,0.41,1.03,10.0,2.0,3.0,1.2,1.28,94.0,7462.0,89.1,6.41,,13.98,0.955,77.2,,32.0,5.0,,,,,,,,,,,,0,0,0,0,0,0,0,0,0,0,0,0,0,0,0,0,,,,,,0.0,,,,,,,
369,2331761,1746077109399,,,,,,,,,,,,,,,,,,,,,,,,,,,,,,,,,,0,0,0,0,0,0,0,0,0,0,0,0,0,0,0,0,,,,,,,,,,,,,
370,2331781,1746077109419,102.56,104.0,,-0.29,-0.01,1.05,4.0,2.0,3.0,1.09,1.28,85.0,8080.0,66.1,4.96,,13.88,0.955,77.2,,32.0,5.0,18.0,0.0,22.0,22.0,0.0,154.0,0.0,0.0,2.24,,,0,0,0,0,0,0,0,0,0,0,0,0,0,0,0,0,,0.0,,,,0.0,38.994709,-76.939583,29.47,26.8,30.0,3.0,0.8
371,2331801,1746077109439,,,,,,,,,,,,,,,,,,,,,,,,,,,,,,,,,,0,0,0,0,0,0,0,0,0,0,0,0,0,0,0,0,,,,,,,,,,,,,
372,2331821,1746077109459,95.02,104.0,,-0.2,-0.06,1.02,0.0,3.0,4.0,1.04,1.28,81.0,7325.0,23.3,5.26,,12.45,0.955,77.2,,32.0,5.0,,,,,,,,,,,,0,0,0,0,0,0,0,0,0,0,0,0,0,0,0,0,,,,,,0.0,,,,,,,
373,2331841,1746077109479,,,,,,,,,,,,,,,,,,,,,,,,,,,,,,,,,,0,0,0,0,0,0,0,0,0,0,0,0,0,0,0,0,,,,,,,,,,,,,
