,Interval,Utc,FrontBP,SteerAng,Battery,AccelX,AccelY,AccelZ,Yaw,Pitch,Roll,Gsum,GsumMax,GsumPct,RPM,TPS,InjectorPW,Baro,MAP,Lambda,IAT,EngineTemp,EOP,EOT,WSFR,WSFL,WSRR,WSRL,TCSet,TCSlip,TCComp,TCCut,Analog8,OilTemp,AA_On,ThermLF1,ThermLF2,ThermRR1,ThermRR2,ThermLF3,ThermLF4,ThermLF5,ThermLF6,ThermLF7,ThermLF8,ThermRR3,ThermRR4,ThermRR5,ThermRR6,ThermRR7,ThermRR8,AA_LowDrag,Gear,AA_On1,AA_LowDrag1,Fuel_Mix,AA_Packages,Latitude,Longitude,Speed,Altitude,GPSSats,GPSQual,GPSDOP
0,339204,1745647493937,,,,,,,,,,,,,,,,,,,,,,,,,,,,,,,,,,0,0,0,0,0,0,0,0,0,0,0,0,0,0,0,0,,,,,,,,,,,,,
1,339224,1745647493957,0.0,85.0,,-0.11,0.14,1.16,-1.0,0.0,1.0,1.17,1.17,100.0,4882.0,4.8,2.52,,10.28,0.986,77.2,,37.1,5.0,,,,,,,,,,,,0,0,0,0,0,0,0,0,0,0,0,0,0,0,0,0,,,,,,0.0,,,,,,,
2,339244,1745647493977,,,,,,,,,,,,,,,,,,,,,,,,,,,,,,,,,,0,0,0,0,0,0,0,0,0,0,0,0,0,0,0,0,,,,,,,,,,,,,
3,339264,1745647493997,0.0,86.0,,-0.08,0.11,1.11,0.0,0.0,1.0,1.12,1.17,96.0,4781.0,9.2,2.83,,11.1,1.0,77.2,,36.5,5.0,,,,,,,,,,,,0,0,0,0,0,0,0,0,0,0,0,0,0,0,0,0,,,,,,0.0,,,,,,,
4,339284,1745647494010,,,,,,,,,,,,,,,,,,,,,,,0.0,0.0,0.0,0.0,0.0,0.0,0.0,0.0,2.26,,,0,0,0,0,0,0,0,0,0,0,0,0,0,0,0,0,,0.0,,,,,38.985802,-76.949882,0.0,53.1,30.0,3.0,0.8
5,339304,1745647494030,0.0,85.0,,-0.1,0.17,1.16,-1.0,0.0,1.0,1.18,1.18,100.0,4760.0,11.6,3.7,,11.1,1.0,77.2,,36.5,5.0,,,,,,,,,,,,0,0,0,0,0,0,0,0,0,0,0,0,0,0,0,0,,,,,,0.0,,,,,,,
6,339324,1745647494050,,,,,,,,,,,,,,,,,,,,,,,,,,,,,,,,,,0,0,0,0,0,0,0,0,0,0,0,0,0,0,0,0,,,,,,,,,,,,,
7,339344,1745647494070,0.0,86.0,,-0.11,0.06,1.06,0.0,0.0,0.0,1.07,1.18,90.0,4760.0,11.6,3.7,,11.81,1.016,77.2,,37.4,5.0,,,,,,,,,,,,0,0,0,0,0,0,0,0,0,0,0,0,0,0,0,0,,,,,,0.0,,,,,,,
8,339364,1745647494090,,,,,,,,,,,,,,,,,,,,,,,,,,,,,,,,,,0,0,0,0,0,0,0,0,0,0,0,0,0,0,0,0,,,,,,,,,,,,,
9,339384,1745647494118,0.0,85.0,14.17,-0.08,0.13,1.12,-1.0,0.0,1.0,1.13,1.18,96.0,4814.0,12.1,3.78,15.0,12.24,0.99,77.2,149.0,37.4,5.0,0.0,0.0,0.0,0.0,0.0,0.0,0.0,0.0,2.26,0.0,1.0,0,0,0,0,0,0,0,0,0,0,0,0,0,0,0,0,0.0,0.0,0.0,0.0,0.0,0.0,38.985802,-76.949882,0.04,53.1,30.0,3.0,0.8
10,339404,1745647494138,,,,,,,,,,,,,,,,,,,,,,,,,,,,,,,,,,0,0,0,0,0,0,0,0,0,0,0,0,0,0,0,0,,,,,,,,,,,,,
11,339424,1745647494158,0.0,86.0,,-0.12,0.05,1.05,0.0,0.0,0.0,1.06,1.18,90.0,4811.0,12.2,3.79,,12.44,0.931,77.2,,37.4,5.0,,,,,,,,,,,,0,0,0,0,0,0,0,0,0,0,0,0,0,0,0,0,,,,,,0.0,,,,,,,
12,339444,1745647494178,,,,,,,,,,,,,,,,,,,,,,,,,,,,,,,,,,0,0,0,0,0,0,0,0,0,0,0,0,0,0,0,0,,,,,,,,,,,,,
13,339464,1745647494198,0.0,86.0,,-0.09,0.07,1.06,0.0,0.0,0.0,1.07,1.18,91.0,4805.0,12.3,3.8,,12.56,0.892,77.2,,37.7,5.0,,,,,,,,,,,,0,0,0,0,0,0,0,0,0,0,0,0,0,0,0,0,,,,,,0.0,,,,,,,
14,339484,1745647494216,,,,,,,,,,,,,,,,,,,,,,,0.0,0.0,0.0,0.0,0.0,0.0,0.0,0.0,2.26,,,0,0,0,0,0,0,0,0,0,0,0,0,0,0,0,0,,0.0,,,,,38.985802,-76.949882,0.04,53.1,30.0,3.0,0.8
15,339504,1745647494236,0.0,86.0,,-0.13,0.01,1.04,0.0,0.0,0.0,1.05,1.18,89.0,4825.0,8.1,3.61,,12.56,0.892,77.2,,37.7,5.0,,,,,,,,,,,,0,0,0,0,0,0,0,0,0,0,0,0,0,0,0,0,,,,,,0.0,,,,,,,
16,339524,1745647494256,,,,,,,,,,,,,,,,,,,,,,,,,,,,,,,,,,0,0,0,0,0,0,0,0,0,0,0,0,0,0,0,0,,,,,,,,,,,,,
17,339544,1745647494276,0.0,86.0,,-0.08,0.04,1.04,0.0,0.0,0.0,1.04,1.18,88.0,4825.0,8.1,3.61,,12.4,0.917,77.2,,38.2,5.0,,,,,,,,,,,,0,0,0,0,0,0,0,0,0,0,0,0,0,0,0,0,,,,,,0.0,,,,,,,
18,339564,1745647494296,,,,,,,,,,,,,,,,,,,,,,,,,,,,,,,,,,0,0,0,0,0,0,0,0,0,0,0,0,0,0,0,0,,,,,,,,,,,,,
19,339584,1745647494318,0.0,85.0,,-0.11,0.01,1.0,0.0,0.0,0.0,1.01,1.18,86.0,4904.0,4.2,3.74,,12.09,0.957,77.2,,38.2,5.0,0.0,0.0,0.0,0.0,0.0,0.0,0.0,0.0,2.26,,,0,0,0,0,0,0,0,0,0,0,0,0,0,0,0,0,,0.0,,,,0.0,38.985802,-76.949882,0.05,53.1,30.0,3.0,0.8
20,339604,1745647494338,,,,,,,,,,,,,,,,,,,,,,,,,,,,,,,,,,0,0,0,0,0,0,0,0,0,0,0,0,0,0,0,0,,,,,,,,,,,,,
21,339624,1745647494358,0.0,86.0,,-0.12,0.02,1.03,0.0,0.0,0.0,1.04,1.18,88.0,5048.0,3.6,3.6,,11.92,0.934,77.2,,38.2,5.0,,,,,,,,,,,,0,0,0,0,0,0,0,0,0,0,0,0,0,0,0,0,,,,,,0.0,,,,,,,
22,339644,1745647494378,,,,,,,,,,,,,,,,,,,,,,,,,,,,,,,,,,0,0,0,0,0,0,0,0,0,0,0,0,0,0,0,0,,,,,,,,,,,,,
23,339664,1745647494398,0.0,85.0,,-0.1,0.05,1.03,0.0,0.0,0.0,1.04,1.18,88.0,5117.0,3.4,3.53,,11.57,0.854,77.2,,40.5,5.0,,,,,,,,,,,,0,0,0,0,0,0,0,0,0,0,0,0,0,0,0,0,,,,,,0.0,,,,,,,
24,339684,1745647494418,,,,,,,,,,,,,,,,,,,,,,,0.0,0.0,0.0,0.0,0.0,0.0,0.0,0.0,2.25,,,0,0,0,0,0,0,0,0,0,0,0,0,0,0,0,0,,0.0,,,,,38.985802,-76.949882,0.0,53.1,30.0,3.0,0.8
25,339704,1745647494438,0.0,85.0,,-0.09,0.02,1.02,0.0,0.0,0.0,1.03,1.18,87.0,5154.0,3.4,3.48,,11.57,0.854,77.2,,40.5,5.0,,,,,,,,,,,,0,0,0,0,0,0,0,0,0,0,0,0,0,0,0,0,,,,,,0.0,,,,,,,
26,339724,1745647494458,,,,,,,,,,,,,,,,,,,,,,,,,,,,,,,,,,0,0,0,0,0,0,0,0,0,0,0,0,0,0,0,0,,,,,,,,,,,,,
27,339744,1745647494478,0.0,85.0,,-0.09,-0.01,1.01,0.0,0.0,0.0,1.01,1.18,86.0,5154.0,3.4,3.48,,11.38,0.818,77.2,,41.4,5.0,,,,,,,,,,,,0,0,0,0,0,0,0,0,0,0,0,0,0,0,0,0,,,,,,0.0,,,,,,,
28,339764,1745647494498,,,,,,,,,,,,,,,,,,,,,,,,,,,,,,,,,,0,0,0,0,0,0,0,0,0,0,0,0,0,0,0,0,,,,,,,,,,,,,
29,339784,1745647494518,0.0,85.0,,-0.1,-0.02,0.99,0.0,0.0,0.0,0.99,1.18,84.0,5172.0,3.4,3.47,,11.29,0.797,77.2,,41.4,5.0,0.0,0.0,0.0,0.0,0.0,0.0,0.0,0.0,2.26,,,0,0,0,0,0,0,0,0,0,0,0,0,0,0,0,0,,0.0,,,,0.0,38.985802,-76.949882,0.15,53.1,30.0,3.0,0.8
30,339804,1745647494538,,,,,,,,,,,,,,,,,,,,,,,,,,,,,,,,,,0,0,0,0,0,0,0,0,0,0,0,0,0,0,0,0,,,,,,,,,,,,,
31,339824,1745647494558,0.0,86.0,,-0.1,-0.02,0.97,0.0,0.0,0.0,0.97,1.18,83.0,5161.0,3.2,3.43,,11.21,0.785,77.2,,41.4,5.0,,,,,,,,,,,,0,0,0,0,0,0,0,0,0,0,0,0,0,0,0,0,,,,,,0.0,,,,,,,
32,339844,1745647494578,,,,,,,,,,,,,,,,,,,,,,,,,,,,,,,,,,0,0,0,0,0,0,0,0,0,0,0,0,0,0,0,0,,,,,,,,,,,,,
33,339864,1745647494598,0.0,85.0,,-0.11,-0.03,0.97,0.0,0.0,0.0,0.98,1.18,83.0,5169.0,3.1,3.46,,11.21,0.779,77.2,,41.5,5.0,,,,,,,,,,,,0,0,0,0,0,0,0,0,0,0,0,0,0,0,0,0,,,,,,0.0,,,,,,,
34,339884,1745647494618,,,,,,,,,,,,,,,,,,,,,,,0.0,0.0,0.0,0.0,0.0,0.0,0.0,0.0,2.26,,,0,0,0,0,0,0,0,0,0,0,0,0,0,0,0,0,,0.0,,,,,38.985802,-76.949882,0.0,53.1,30.0,3.0,0.8
35,339904,1745647494638,0.0,85.0,,-0.12,-0.02,0.99,0.0,0.0,0.0,1.0,1.18,85.0,5161.0,3.0,3.46,,11.21,0.779,77.2,,41.5,5.0,,,,,,,,,,,,0,0,0,0,0,0,0,0,0,0,0,0,0,0,0,0,,,,,,0.0,,,,,,,
36,339924,1745647494658,,,,,,,,,,,,,,,,,,,,,,,,,,,,,,,,,,0,0,0,0,0,0,0,0,0,0,0,0,0,0,0,0,,,,,,,,,,,,,
37,339944,1745647494678,0.0,85.0,,-0.11,-0.01,1.01,-1.0,0.0,0.0,1.02,1.18,86.0,5161.0,3.0,3.46,,11.14,0.774,77.2,,41.5,5.0,,,,,,,,,,,,0,0,0,0,0,0,0,0,0,0,0,0,0,0,0,0,,,,,,0.0,,,,,,,
38,339964,1745647494698,,,,,,,,,,,,,,,,,,,,,,,,,,,,,,,,,,0,0,0,0,0,0,0,0,0,0,0,0,0,0,0,0,,,,,,,,,,,,,
39,339984,1745647494716,0.0,85.0,,-0.1,0.03,1.02,0.0,0.0,0.0,1.03,1.18,87.0,5144.0,3.0,3.35,,11.21,0.771,77.2,,41.5,5.0,0.0,0.0,0.0,0.0,0.0,0.0,0.0,0.0,2.26,,,0,0,0,0,0,0,0,0,0,0,0,0,0,0,0,0,,0.0,,,,0.0,38.985802,-76.949882,0.06,53.1,30.0,3.0,0.8
40,340004,1745647494736,,,,,,,,,,,,,,,,,,,,,,,,,,,,,,,,,,0,0,0,0,0,0,0,0,0,0,0,0,0,0,0,0,,,,,,,,,,,,,
41,340024,1745647494756,0.0,86.0,,-0.09,-0.02,1.01,0.0,0.0,0.0,1.01,1.18,86.0,5087.0,3.2,3.36,,11.28,0.77,77.2,,41.5,5.0,,,,,,,,,,,,0,0,0,0,0,0,0,0,0,0,0,0,0,0,0,0,,,,,,0.0,,,,,,,
42,340044,1745647494776,,,,,,,,,,,,,,,,,,,,,,,,,,,,,,,,,,0,0,0,0,0,0,0,0,0,0,0,0,0,0,0,0,,,,,,,,,,,,,
43,340064,1745647494796,0.0,86.0,,-0.11,-0.04,0.98,0.0,0.0,0.0,0.98,1.18,83.0,5057.0,3.3,3.36,,11.18,0.771,77.2,,40.2,5.0,,,,,,,,,,,,0,0,0,0,0,0,0,0,0,0,0,0,0,0,0,0,,,,,,0.0,,,,,,,
44,340084,1745647494818,,,,,,,,,,,,,,,,,,,,,,,0.0,0.0,0.0,0.0,0.0,0.0,0.0,0.0,2.25,,,0,0,0,0,0,0,0,0,0,0,0,0,0,0,0,0,,0.0,,,,,38.985802,-76.949882,0.05,53.1,30.0,3.0,0.8
45,340104,1745647494838,0.0,86.0,,-0.11,0.0,1.01,0.0,0.0,0.0,1.01,1.18,86.0,5039.0,3.3,3.4,,11.18,0.771,77.2,,40.2,5.0,,,,,,,,,,,,0,0,0,0,0,0,0,0,0,0,0,0,0,0,0,0,,,,,,0.0,,,,,,,
46,340124,1745647494858,,,,,,,,,,,,,,,,,,,,,,,,,,,,,,,,,,0,0,0,0,0,0,0,0,0,0,0,0,0,0,0,0,,,,,,,,,,,,,
47,340144,1745647494878,0.0,86.0,,-0.08,0.02,1.03,0.0,0.0,0.0,1.04,1.18,88.0,5039.0,3.3,3.4,,11.17,0.771,77.2,,39.7,5.0,,,,,,,,,,,,0,0,0,0,0,0,0,0,0,0,0,0,0,0,0,0,,,,,,0.0,,,,,,,
48,340164,1745647494898,,,,,,,,,,,,,,,,,,,,,,,,,,,,,,,,,,0,0,0,0,0,0,0,0,0,0,0,0,0,0,0,0,,,,,,,,,,,,,
49,340184,1745647494916,0.0,85.0,,-0.1,-0.04,0.99,0.0,0.0,0.0,0.99,1.18,84.0,5030.0,3.3,3.44,,11.22,0.774,77.2,,39.7,5.0,0.0,0.0,0.0,0.0,0.0,0.0,0.0,0.0,2.25,,,0,0,0,0,0,0,0,0,0,0,0,0,0,0,0,0,,0.0,,,,0.0,38.985802,-76.949882,0.05,53.1,30.0,3.0,0.8
50,340204,1745647494936,,,,,,,,,,,,,,,,,,,,,,,,,,,,,,,,,,0,0,0,0,0,0,0,0,0,0,0,0,0,0,0,0,,,,,,,,,,,,,
51,340224,1745647494956,0.0,85.0,,-0.11,0.0,1.03,-1.0,0.0,0.0,1.04,1.18,88.0,4962.0,4.0,3.7,,11.37,0.776,77.2,,39.7,5.0,,,,,,,,,,,,0,0,0,0,0,0,0,0,0,0,0,0,0,0,0,0,,,,,,0.0,,,,,,,
52,340244,1745647494976,,,,,,,,,,,,,,,,,,,,,,,,,,,,,,,,,,0,0,0,0,0,0,0,0,0,0,0,0,0,0,0,0,,,,,,,,,,,,,
53,340264,1745647494996,0.0,85.0,,-0.09,0.01,1.05,0.0,0.0,0.0,1.06,1.18,90.0,5015.0,37.0,5.18,,13.21,0.775,77.2,,38.9,5.0,,,,,,,,,,,,0,0,0,0,0,0,0,0,0,0,0,0,0,0,0,0,,,,,,0.0,,,,,,,
54,340284,1745647495009,,,,,,,,,,,,,,,,,,,,,,,0.0,0.0,0.0,0.0,0.0,0.0,0.0,0.0,2.25,,,0,0,0,0,0,0,0,0,0,0,0,0,0,0,0,0,,0.0,,,,,38.985802,-76.949882,0.04,53.1,30.0,3.0,0.8
55,340304,1745647495029,0.0,85.0,,-0.11,-0.04,1.0,0.0,0.0,0.0,1.0,1.18,85.0,5601.0,57.8,5.77,,13.21,0.775,77.2,,38.9,5.0,,,,,,,,,,,,0,0,0,0,0,0,0,0,0,0,0,0,0,0,0,0,,,,,,0.0,,,,,,,
56,340324,1745647495049,,,,,,,,,,,,,,,,,,,,,,,,,,,,,,,,,,0,0,0,0,0,0,0,0,0,0,0,0,0,0,0,0,,,,,,,,,,,,,
57,340344,1745647495069,0.0,85.0,,-0.12,-0.14,0.98,-1.0,0.0,1.0,0.99,1.18,84.0,5601.0,57.8,5.77,,14.07,0.774,77.2,,44.0,5.0,,,,,,,,,,,,0,0,0,0,0,0,0,0,0,0,0,0,0,0,0,0,,,,,,0.0,,,,,,,
58,340364,1745647495089,,,,,,,,,,,,,,,,,,,,,,,,,,,,,,,,,,0,0,0,0,0,0,0,0,0,0,0,0,0,0,0,0,,,,,,,,,,,,,
59,340384,1745647495115,0.0,86.0,14.08,-0.11,-0.03,1.03,-1.0,0.0,1.0,1.04,1.18,88.0,6804.0,59.5,5.19,15.0,13.91,0.798,77.2,151.0,44.0,5.0,0.0,0.0,0.0,0.0,0.0,0.0,0.0,0.0,2.26,0.0,1.0,0,0,0,0,0,0,0,0,0,0,0,0,0,0,0,0,0.0,0.0,0.0,0.0,0.0,0.0,38.985802,-76.949882,0.07,53.1,30.0,3.0,0.8
60,340404,1745647495135,,,,,,,,,,,,,,,,,,,,,,,,,,,,,,,,,,0,0,0,0,0,0,0,0,0,0,0,0,0,0,0,0,,,,,,,,,,,,,
61,340424,1745647495155,0.0,86.0,,-0.09,0.03,1.03,-1.0,0.0,1.0,1.03,1.18,88.0,7998.0,48.8,4.71,,13.48,0.875,77.2,,44.0,5.0,,,,,,,,,,,,0,0,0,0,0,0,0,0,0,0,0,0,0,0,0,0,,,,,,0.0,,,,,,,
62,340444,1745647495175,,,,,,,,,,,,,,,,,,,,,,,,,,,,,,,,,,0,0,0,0,0,0,0,0,0,0,0,0,0,0,0,0,,,,,,,,,,,,,
63,340464,1745647495195,0.0,86.0,,-0.06,0.13,1.02,-1.0,0.0,1.0,1.03,1.18,87.0,9430.0,13.0,4.96,,11.2,0.894,77.2,,47.9,5.0,,,,,,,,,,,,0,0,0,0,0,0,0,0,0,0,0,0,0,0,0,0,,,,,,0.0,,,,,,,
64,340484,1745647495215,,,,,,,,,,,,,,,,,,,,,,,0.0,0.0,0.0,0.0,0.0,0.0,0.0,0.0,2.26,,,0,0,0,0,0,0,0,0,0,0,0,0,0,0,0,0,,0.0,,,,,38.985802,-76.949882,0.08,53.1,30.0,3.0,0.8
65,340504,1745647495235,0.0,85.0,,-0.08,0.11,1.01,0.0,0.0,1.0,1.02,1.18,86.0,10351.0,1.7,1.4,,11.2,0.894,77.2,,47.9,5.0,,,,,,,,,,,,0,0,0,0,0,0,0,0,0,0,0,0,0,0,0,0,,,,,,0.0,,,,,,,
66,340524,1745647495255,,,,,,,,,,,,,,,,,,,,,,,,,,,,,,,,,,0,0,0,0,0,0,0,0,0,0,0,0,0,0,0,0,,,,,,,,,,,,,
67,340544,1745647495275,0.0,85.0,,-0.07,0.13,1.06,1.0,0.0,0.0,1.07,1.18,91.0,10351.0,1.7,1.4,,8.82,0.827,77.2,,47.1,5.0,,,,,,,,,,,,0,0,0,0,0,0,0,0,0,0,0,0,0,0,0,0,,,,,,0.0,,,,,,,
68,340564,1745647495295,,,,,,,,,,,,,,,,,,,,,,,,,,,,,,,,,,0,0,0,0,0,0,0,0,0,0,0,0,0,0,0,0,,,,,,,,,,,,,
69,340584,1745647495317,0.0,85.0,,-0.1,0.18,1.02,1.0,0.0,0.0,1.04,1.18,89.0,10742.0,0.1,1.4,,7.12,0.771,77.2,,47.1,5.0,0.0,0.0,0.0,0.0,0.0,0.0,0.0,0.0,2.26,,,0,0,0,0,0,0,0,0,0,0,0,0,0,0,0,0,,0.0,,,,0.0,38.985802,-76.949882,0.05,53.1,30.0,3.0,0.8
70,340604,1745647495337,,,,,,,,,,,,,,,,,,,,,,,,,,,,,,,,,,0,0,0,0,0,0,0,0,0,0,0,0,0,0,0,0,,,,,,,,,,,,,
71,340624,1745647495357,0.0,86.0,,-0.11,0.13,1.04,0.0,0.0,0.0,1.06,1.18,90.0,10801.0,0.1,1.4,,6.24,0.803,77.2,,47.1,5.0,,,,,,,,,,,,0,0,0,0,0,0,0,0,0,0,0,0,0,0,0,0,,,,,,0.0,,,,,,,
72,340644,1745647495377,,,,,,,,,,,,,,,,,,,,,,,,,,,,,,,,,,0,0,0,0,0,0,0,0,0,0,0,0,0,0,0,0,,,,,,,,,,,,,
73,340664,1745647495397,0.0,85.0,,-0.08,-0.01,1.05,0.0,0.0,0.0,1.05,1.18,89.0,10696.0,0.1,1.4,,5.58,0.84,77.2,,45.3,5.0,,,,,,,,,,,,0,0,0,0,0,0,0,0,0,0,0,0,0,0,0,0,,,,,,0.0,,,,,,,
74,340684,1745647495417,,,,,,,,,,,,,,,,,,,,,,,0.0,0.0,0.0,0.0,0.0,0.0,0.0,0.0,2.25,,,0,0,0,0,0,0,0,0,0,0,0,0,0,0,0,0,,0.0,,,,,38.985802,-76.949882,0.0,53.1,30.0,3.0,0.8
75,340704,1745647495437,0.0,85.0,,-0.08,-0.12,1.09,1.0,0.0,0.0,1.1,1.18,94.0,10477.0,0.1,1.4,,5.58,0.84,77.2,,45.3,5.0,,,,,,,,,,,,0,0,0,0,0,0,0,0,0,0,0,0,0,0,0,0,,,,,,0.0,,,,,,,
76,340724,1745647495457,,,,,,,,,,,,,,,,,,,,,,,,,,,,,,,,,,0,0,0,0,0,0,0,0,0,0,0,0,0,0,0,0,,,,,,,,,,,,,
77,340744,1745647495477,0.0,85.0,,-0.08,-0.19,1.1,2.0,0.0,0.0,1.12,1.18,95.0,10477.0,0.1,1.4,,5.4,0.819,77.2,,43.7,5.0,,,,,,,,,,,,0,0,0,0,0,0,0,0,0,0,0,0,0,0,0,0,,,,,,0.0,,,,,,,
78,340764,1745647495497,,,,,,,,,,,,,,,,,,,,,,,,,,,,,,,,,,0,0,0,0,0,0,0,0,0,0,0,0,0,0,0,0,,,,,,,,,,,,,
79,340784,1745647495517,0.0,85.0,,-0.09,-0.12,1.03,1.0,0.0,0.0,1.04,1.18,88.0,10199.0,0.1,1.4,,5.18,0.796,77.2,,43.7,5.0,0.0,0.0,0.0,0.0,0.0,0.0,0.0,0.0,2.25,,,0,0,0,0,0,0,0,0,0,0,0,0,0,0,0,0,,0.0,,,,0.0,38.985802,-76.949882,0.0,53.1,30.0,3.0,0.8
80,340804,1745647495537,,,,,,,,,,,,,,,,,,,,,,,,,,,,,,,,,,0,0,0,0,0,0,0,0,0,0,0,0,0,0,0,0,,,,,,,,,,,,,
81,340824,1745647495557,0.0,86.0,,-0.08,-0.18,0.98,2.0,0.0,0.0,0.99,1.18,84.0,9927.0,0.1,1.4,,4.8,0.797,77.2,,43.7,5.0,,,,,,,,,,,,0,0,0,0,0,0,0,0,0,0,0,0,0,0,0,0,,,,,,0.0,,,,,,,
82,340844,1745647495577,,,,,,,,,,,,,,,,,,,,,,,,,,,,,,,,,,0,0,0,0,0,0,0,0,0,0,0,0,0,0,0,0,,,,,,,,,,,,,
83,340864,1745647495597,0.0,85.0,,-0.06,-0.08,0.97,1.0,0.0,0.0,0.97,1.18,83.0,9654.0,0.1,1.4,,4.89,0.83,77.2,,43.9,5.0,,,,,,,,,,,,0,0,0,0,0,0,0,0,0,0,0,0,0,0,0,0,,,,,,0.0,,,,,,,
84,340884,1745647495617,,,,,,,,,,,,,,,,,,,,,,,0.0,0.0,0.0,0.0,0.0,0.0,0.0,0.0,2.26,,,0,0,0,0,0,0,0,0,0,0,0,0,0,0,0,0,,0.0,,,,,38.985802,-76.949882,0.0,53.1,30.0,3.0,0.8
85,340904,1745647495637,0.0,85.0,,-0.06,-0.17,0.99,1.0,0.0,0.0,1.01,1.18,86.0,9414.0,0.0,1.4,,4.89,0.83,77.2,,43.9,5.0,,,,,,,,,,,,0,0,0,0,0,0,0,0,0,0,0,0,0,0,0,0,,,,,,0.0,,,,,,,
86,340924,1745647495657,,,,,,,,,,,,,,,,,,,,,,,,,,,,,,,,,,0,0,0,0,0,0,0,0,0,0,0,0,0,0,0,0,,,,,,,,,,,,,
87,340944,1745647495677,0.0,85.0,,-0.1,-0.04,0.95,1.0,0.0,0.0,0.95,1.18,81.0,9414.0,0.0,1.4,,4.77,0.857,77.2,,42.5,5.0,,,,,,,,,,,,0,0,0,0,0,0,0,0,0,0,0,0,0,0,0,0,,,,,,0.0,,,,,,,
88,340964,1745647495697,,,,,,,,,,,,,,,,,,,,,,,,,,,,,,,,,,0,0,0,0,0,0,0,0,0,0,0,0,0,0,0,0,,,,,,,,,,,,,
89,340984,1745647495717,0.0,85.0,,-0.11,-0.1,0.91,1.0,0.0,0.0,0.92,1.18,78.0,9196.0,0.0,1.4,,4.85,0.857,77.2,,42.5,5.0,0.0,0.0,0.0,0.0,0.0,0.0,0.0,0.0,2.26,,,0,0,0,0,0,0,0,0,0,0,0,0,0,0,0,0,,0.0,,,,0.0,38.985802,-76.949882,0.04,53.1,30.0,3.0,0.8
90,341004,1745647495737,,,,,,,,,,,,,,,,,,,,,,,,,,,,,,,,,,0,0,0,0,0,0,0,0,0,0,0,0,0,0,0,0,,,,,,,,,,,,,
91,341024,1745647495757,0.0,85.0,,-0.12,-0.14,0.89,0.0,-1.0,0.0,0.91,1.18,77.0,8948.0,0.0,1.4,,4.91,0.858,77.2,,42.5,5.0,,,,,,,,,,,,0,0,0,0,0,0,0,0,0,0,0,0,0,0,0,0,,,,,,0.0,,,,,,,
92,341044,1745647495777,,,,,,,,,,,,,,,,,,,,,,,,,,,,,,,,,,0,0,0,0,0,0,0,0,0,0,0,0,0,0,0,0,,,,,,,,,,,,,
93,341064,1745647495797,0.0,86.0,,-0.16,-0.03,0.84,0.0,-1.0,0.0,0.86,1.18,73.0,8748.0,0.0,1.4,,5.07,0.849,77.2,,40.9,5.0,,,,,,,,,,,,0,0,0,0,0,0,0,0,0,0,0,0,0,0,0,0,,,,,,0.0,,,,,,,
94,341084,1745647495817,,,,,,,,,,,,,,,,,,,,,,,0.0,0.0,0.0,0.0,0.0,0.0,0.0,0.0,2.26,,,0,0,0,0,0,0,0,0,0,0,0,0,0,0,0,0,,0.0,,,,,38.985802,-76.949882,0.04,53.1,30.0,3.0,0.8
95,341104,1745647495837,0.0,85.0,,-0.13,-0.12,0.87,1.0,-1.0,0.0,0.89,1.18,75.0,8508.0,0.0,1.4,,5.07,0.849,77.2,,40.9,5.0,,,,,,,,,,,,0,0,0,0,0,0,0,0,0,0,0,0,0,0,0,0,,,,,,0.0,,,,,,,
96,341124,1745647495857,,,,,,,,,,,,,,,,,,,,,,,,,,,,,,,,,,0,0,0,0,0,0,0,0,0,0,0,0,0,0,0,0,,,,,,,,,,,,,
97,341144,1745647495877,0.0,85.0,,-0.11,-0.07,0.89,1.0,-1.0,0.0,0.9,1.18,76.0,8508.0,0.0,1.4,,5.06,0.845,77.2,,40.2,5.0,,,,,,,,,,,,0,0,0,0,0,0,0,0,0,0,0,0,0,0,0,0,,,,,,0.0,,,,,,,
98,341164,1745647495897,,,,,,,,,,,,,,,,,,,,,,,,,,,,,,,,,,0,0,0,0,0,0,0,0,0,0,0,0,0,0,0,0,,,,,,,,,,,,,
99,341184,1745647495919,0.0,85.0,,-0.1,-0.04,0.92,0.0,0.0,0.0,0.93,1.18,79.0,8279.0,0.0,1.4,,5.19,0.858,75.4,,40.2,5.0,0.0,0.0,41.0,0.0,0.0,0.0,0.0,0.0,2.25,,,0,0,0,0,0,0,0,0,0,0,0,0,0,0,0,0,,0.0,,,,0.0,38.985802,-76.949882,0.0,53.1,30.0,3.0,0.8
100,341204,1745647495939,,,,,,,,,,,,,,,,,,,,,,,,,,,,,,,,,,0,0,0,0,0,0,0,0,0,0,0,0,0,0,0,0,,,,,,,,,,,,,
101,341224,1745647495959,0.0,85.0,,-0.08,-0.04,0.92,-1.0,0.0,0.0,0.92,1.18,78.0,8045.0,0.0,1.4,,5.39,0.88,75.4,,40.2,5.0,,,,,,,,,,,,0,0,0,0,0,0,0,0,0,0,0,0,0,0,0,0,,,,,,0.0,,,,,,,
102,341244,1745647495979,,,,,,,,,,,,,,,,,,,,,,,,,,,,,,,,,,0,0,0,0,0,0,0,0,0,0,0,0,0,0,0,0,,,,,,,,,,,,,
103,341264,1745647495999,0.0,85.0,,-0.07,-0.08,0.96,0.0,0.0,0.0,0.96,1.18,82.0,7843.0,0.0,1.4,,5.5,0.91,75.4,,40.6,5.0,,,,,,,,,,,,0,0,0,0,0,0,0,0,0,0,0,0,0,0,0,0,,,,,,0.0,,,,,,,
104,341284,1745647496010,,,,,,,,,,,,,,,,,,,,,,,0.0,0.0,10.0,0.0,0.0,0.0,0.0,0.0,2.25,,,0,0,0,0,0,0,0,0,0,0,0,0,0,0,0,0,,0.0,,,,,38.985802,-76.949882,0.08,53.1,31.0,3.0,0.8
105,341304,1745647496030,0.0,85.0,,-0.04,0.08,0.98,-1.0,0.0,1.0,0.99,1.18,84.0,7559.0,0.0,1.4,,5.5,0.91,75.4,,40.6,5.0,,,,,,,,,,,,0,0,0,0,0,0,0,0,0,0,0,0,0,0,0,0,,,,,,0.0,,,,,,,
106,341324,1745647496050,,,,,,,,,,,,,,,,,,,,,,,,,,,,,,,,,,0,0,0,0,0,0,0,0,0,0,0,0,0,0,0,0,,,,,,,,,,,,,
107,341344,1745647496070,0.0,86.0,,-0.04,0.09,1.05,-1.0,0.0,1.0,1.05,1.18,89.0,7559.0,0.0,1.4,,5.64,0.936,75.4,,40.7,5.0,,,,,,,,,,,,0,0,0,0,0,0,0,0,0,0,0,0,0,0,0,0,,,,,,0.0,,,,,,,
108,341364,1745647496090,,,,,,,,,,,,,,,,,,,,,,,,,,,,,,,,,,0,0,0,0,0,0,0,0,0,0,0,0,0,0,0,0,,,,,,,,,,,,,
109,341384,1745647496118,0.0,85.0,14.09,-0.04,0.01,0.99,1.0,0.0,0.0,0.99,1.18,84.0,7252.0,0.0,1.4,15.0,5.87,0.968,75.4,151.0,40.7,5.0,0.0,0.0,10.0,0.0,0.0,0.0,0.0,0.0,2.26,0.0,1.0,0,0,0,0,0,0,0,0,0,0,0,0,0,0,0,0,0.0,0.0,0.0,0.0,0.0,0.0,38.985802,-76.949882,0.04,53.1,31.0,3.0,0.8
110,341404,1745647496138,,,,,,,,,,,,,,,,,,,,,,,,,,,,,,,,,,0,0,0,0,0,0,0,0,0,0,0,0,0,0,0,0,,,,,,,,,,,,,
111,341424,1745647496158,0.0,86.0,,-0.04,0.03,1.0,0.0,0.0,1.0,1.0,1.18,85.0,6898.0,0.0,1.4,,6.15,1.0,75.4,,40.7,5.0,,,,,,,,,,,,0,0,0,0,0,0,0,0,0,0,0,0,0,0,0,0,,,,,,0.0,,,,,,,
112,341444,1745647496178,,,,,,,,,,,,,,,,,,,,,,,,,,,,,,,,,,0,0,0,0,0,0,0,0,0,0,0,0,0,0,0,0,,,,,,,,,,,,,
113,341464,1745647496198,0.0,85.0,,-0.08,0.08,1.0,0.0,0.0,1.0,1.0,1.18,85.0,6536.0,0.0,1.4,,6.59,1.076,75.4,,39.6,5.0,,,,,,,,,,,,0,0,0,0,0,0,0,0,0,0,0,0,0,0,0,0,,,,,,0.0,,,,,,,
114,341484,1745647496212,,,,,,,,,,,,,,,,,,,,,,,0.0,0.0,10.0,0.0,0.0,0.0,0.0,0.0,2.26,,,0,0,0,0,0,0,0,0,0,0,0,0,0,0,0,0,,0.0,,,,,38.985802,-76.949882,0.0,53.1,31.0,3.0,0.8
115,341504,1745647496232,0.0,85.0,,-0.08,0.0,0.89,0.0,0.0,0.0,0.9,1.18,76.0,6536.0,0.0,1.4,,6.59,1.076,75.4,,39.6,5.0,,,,,,,,,,,,0,0,0,0,0,0,0,0,0,0,0,0,0,0,0,0,,,,,,0.0,,,,,,,
116,341524,1745647496252,,,,,,,,,,,,,,,,,,,,,,,,,,,,,,,,,,0,0,0,0,0,0,0,0,0,0,0,0,0,0,0,0,,,,,,,,,,,,,
117,341544,1745647496272,0.0,85.0,,-0.07,-0.1,0.79,1.0,-1.0,0.0,0.8,1.18,68.0,6089.0,0.0,1.4,,6.92,1.164,75.4,,38.9,5.0,,,,,,,,,,,,0,0,0,0,0,0,0,0,0,0,0,0,0,0,0,0,,,,,,0.0,,,,,,,
118,341564,1745647496292,,,,,,,,,,,,,,,,,,,,,,,,,,,,,,,,,,0,0,0,0,0,0,0,0,0,0,0,0,0,0,0,0,,,,,,,,,,,,,
119,341584,1745647496318,0.0,85.0,,-0.09,-0.09,0.82,1.0,-1.0,0.0,0.83,1.18,71.0,5768.0,0.0,1.4,,7.5,1.248,75.4,,38.9,5.0,0.0,0.0,10.0,0.0,0.0,0.0,0.0,0.0,2.26,,,0,0,0,0,0,0,0,0,0,0,0,0,0,0,0,0,,0.0,,,,0.0,38.985802,-76.949882,0.04,53.1,31.0,3.0,0.8
120,341604,1745647496338,,,,,,,,,,,,,,,,,,,,,,,,,,,,,,,,,,0,0,0,0,0,0,0,0,0,0,0,0,0,0,0,0,,,,,,,,,,,,,
121,341624,1745647496358,0.0,86.0,,-0.08,-0.06,0.85,1.0,0.0,0.0,0.86,1.18,73.0,5364.0,0.0,1.4,,8.06,1.251,75.4,,38.9,5.0,,,,,,,,,,,,0,0,0,0,0,0,0,0,0,0,0,0,0,0,0,0,,,,,,0.0,,,,,,,
122,341644,1745647496378,,,,,,,,,,,,,,,,,,,,,,,,,,,,,,,,,,0,0,0,0,0,0,0,0,0,0,0,0,0,0,0,0,,,,,,,,,,,,,
123,341664,1745647496398,0.0,86.0,,-0.08,-0.12,0.84,1.0,-1.0,0.0,0.85,1.18,72.0,5024.0,17.4,2.62,,10.01,1.251,75.4,,39.2,5.0,,,,,,,,,,,,0,0,0,0,0,0,0,0,0,0,0,0,0,0,0,0,,,,,,0.0,,,,,,,
124,341684,1745647496418,,,,,,,,,,,,,,,,,,,,,,,0.0,0.0,10.0,0.0,0.0,0.0,0.0,0.0,2.26,,,0,0,0,0,0,0,0,0,0,0,0,0,0,0,0,0,,0.0,,,,,38.985802,-76.949882,0.04,53.1,31.0,3.0,0.8
125,341704,1745647496438,0.0,85.0,,-0.08,-0.01,0.93,0.0,0.0,0.0,0.93,1.18,79.0,4790.0,25.8,4.49,,10.01,1.251,75.4,,39.2,5.0,,,,,,,,,,,,0,0,0,0,0,0,0,0,0,0,0,0,0,0,0,0,,,,,,0.0,,,,,,,
126,341724,1745647496458,,,,,,,,,,,,,,,,,,,,,,,,,,,,,,,,,,0,0,0,0,0,0,0,0,0,0,0,0,0,0,0,0,,,,,,,,,,,,,
127,341744,1745647496478,0.0,86.0,,-0.1,-0.07,0.88,1.0,0.0,0.0,0.89,1.18,75.0,4790.0,25.8,4.49,,12.24,1.25,75.4,,37.3,5.0,,,,,,,,,,,,0,0,0,0,0,0,0,0,0,0,0,0,0,0,0,0,,,,,,0.0,,,,,,,
128,341764,1745647496498,,,,,,,,,,,,,,,,,,,,,,,,,,,,,,,,,,0,0,0,0,0,0,0,0,0,0,0,0,0,0,0,0,,,,,,,,,,,,,
129,341784,1745647496518,0.0,86.0,,-0.11,-0.09,0.89,1.0,0.0,0.0,0.91,1.18,77.0,4954.0,26.4,4.57,,13.21,1.25,75.4,,37.3,5.0,0.0,0.0,10.0,0.0,0.0,0.0,0.0,0.0,2.25,,,0,0,0,0,0,0,0,0,0,0,0,0,0,0,0,0,,0.0,,,,0.0,38.985802,-76.949882,0.19,53.1,31.0,3.0,0.8
130,341804,1745647496538,,,,,,,,,,,,,,,,,,,,,,,,,,,,,,,,,,0,0,0,0,0,0,0,0,0,0,0,0,0,0,0,0,,,,,,,,,,,,,
131,341824,1745647496558,0.0,85.0,,-0.07,-0.03,0.96,0.0,0.0,0.0,0.96,1.18,81.0,5372.0,26.4,4.67,,13.31,1.196,75.4,,37.3,5.0,,,,,,,,,,,,0,0,0,0,0,0,0,0,0,0,0,0,0,0,0,0,,,,,,0.0,,,,,,,
132,341844,1745647496578,,,,,,,,,,,,,,,,,,,,,,,,,,,,,,,,,,0,0,0,0,0,0,0,0,0,0,0,0,0,0,0,0,,,,,,,,,,,,,
133,341864,1745647496598,0.0,86.0,,-0.09,-0.14,0.82,1.0,-1.0,0.0,0.84,1.18,71.0,5755.0,11.3,4.2,,12.65,1.029,75.4,,43.7,5.0,,,,,,,,,,,,0,0,0,0,0,0,0,0,0,0,0,0,0,0,0,0,,,,,,0.0,,,,,,,
134,341884,1745647496616,,,,,,,,,,,,,,,,,,,,,,,0.0,0.0,10.0,0.0,0.0,0.0,0.0,0.0,2.26,,,0,0,0,0,0,0,0,0,0,0,0,0,0,0,0,0,,0.0,,,,,38.985802,-76.949882,0.15,53.1,31.0,3.0,0.8
135,341904,1745647496636,0.0,85.0,,-0.13,-0.26,0.72,2.0,-1.0,-1.0,0.78,1.18,66.0,6068.0,2.7,3.64,,12.65,1.029,75.4,,43.7,5.0,,,,,,,,,,,,0,0,0,0,0,0,0,0,0,0,0,0,0,0,0,0,,,,,,0.0,,,,,,,
136,341924,1745647496656,,,,,,,,,,,,,,,,,,,,,,,,,,,,,,,,,,0,0,0,0,0,0,0,0,0,0,0,0,0,0,0,0,,,,,,,,,,,,,
137,341944,1745647496676,0.0,86.0,,-0.1,-0.19,0.79,1.0,-1.0,-1.0,0.82,1.18,70.0,6068.0,2.7,3.64,,11.29,0.976,75.4,,44.6,5.0,,,,,,,,,,,,0,0,0,0,0,0,0,0,0,0,0,0,0,0,0,0,,,,,,0.0,,,,,,,
138,341964,1745647496696,,,,,,,,,,,,,,,,,,,,,,,,,,,,,,,,,,0,0,0,0,0,0,0,0,0,0,0,0,0,0,0,0,,,,,,,,,,,,,
139,341984,1745647496718,0.0,86.0,,-0.11,-0.12,0.89,0.0,0.0,0.0,0.91,1.18,77.0,6333.0,0.0,1.4,,10.16,0.986,75.4,,44.6,5.0,0.0,0.0,10.0,0.0,0.0,0.0,0.0,0.0,2.26,,,0,0,0,0,0,0,0,0,0,0,0,0,0,0,0,0,,0.0,,,,0.0,38.985802,-76.949882,0.07,53.1,31.0,3.0,0.8
140,342004,1745647496738,,,,,,,,,,,,,,,,,,,,,,,,,,,,,,,,,,0,0,0,0,0,0,0,0,0,0,0,0,0,0,0,0,,,,,,,,,,,,,
141,342024,1745647496758,0.0,85.0,,-0.12,-0.02,0.96,-1.0,0.0,0.0,0.97,1.18,82.0,6027.0,0.0,1.4,,9.72,0.968,75.4,,44.6,5.0,,,,,,,,,,,,0,0,0,0,0,0,0,0,0,0,0,0,0,0,0,0,,,,,,0.0,,,,,,,
142,342044,1745647496778,,,,,,,,,,,,,,,,,,,,,,,,,,,,,,,,,,0,0,0,0,0,0,0,0,0,0,0,0,0,0,0,0,,,,,,,,,,,,,
143,342064,1745647496798,0.0,86.0,,-0.05,0.01,1.02,-1.0,0.0,0.0,1.02,1.18,87.0,5633.0,0.0,1.4,,9.72,0.968,75.4,,41.5,5.0,,,,,,,,,,,,0,0,0,0,0,0,0,0,0,0,0,0,0,0,0,0,,,,,,0.0,,,,,,,
144,342084,1745647496818,,,,,,,,,,,,,,,,,,,,,,,0.0,0.0,10.0,0.0,0.0,0.0,0.0,0.0,2.26,,,0,0,0,0,0,0,0,0,0,0,0,0,0,0,0,0,,0.0,,,,,38.985802,-76.949882,0.05,53.1,31.0,3.0,0.8
145,342104,1745647496838,0.0,85.0,,-0.06,0.01,1.01,-1.0,0.0,0.0,1.01,1.18,86.0,5311.0,0.0,1.4,,9.52,0.955,75.4,,41.5,5.0,,,,,,,,,,,,0,0,0,0,0,0,0,0,0,0,0,0,0,0,0,0,,,,,,0.0,,,,,,,
146,342124,1745647496858,,,,,,,,,,,,,,,,,,,,,,,,,,,,,,,,,,0,0,0,0,0,0,0,0,0,0,0,0,0,0,0,0,,,,,,,,,,,,,
147,342144,1745647496878,0.0,85.0,,-0.07,-0.05,0.97,0.0,0.0,0.0,0.97,1.18,83.0,5311.0,0.0,1.4,,9.5,1.047,75.4,,38.2,5.0,,,,,,,,,,,,0,0,0,0,0,0,0,0,0,0,0,0,0,0,0,0,,,,,,0.0,,,,,,,
148,342164,1745647496898,,,,,,,,,,,,,,,,,,,,,,,,,,,,,,,,,,0,0,0,0,0,0,0,0,0,0,0,0,0,0,0,0,,,,,,,,,,,,,
149,342184,1745647496918,0.0,85.0,,-0.08,0.05,1.04,-1.0,0.0,0.0,1.04,1.18,89.0,4972.0,0.0,1.6,,9.7,1.169,77.2,,38.2,5.0,0.0,0.0,10.0,0.0,0.0,0.0,0.0,0.0,2.26,,,0,0,0,0,0,0,0,0,0,0,0,0,0,0,0,0,,0.0,,,,0.0,38.985802,-76.949882,0.08,53.1,31.0,3.0,0.8
150,342204,1745647496938,,,,,,,,,,,,,,,,,,,,,,,,,,,,,,,,,,0,0,0,0,0,0,0,0,0,0,0,0,0,0,0,0,,,,,,,,,,,,,
151,342224,1745647496958,0.0,85.0,,-0.11,0.13,1.11,-2.0,0.0,1.0,1.13,1.18,96.0,4631.0,0.0,1.69,,9.85,1.249,77.2,,38.2,5.0,,,,,,,,,,,,0,0,0,0,0,0,0,0,0,0,0,0,0,0,0,0,,,,,,0.0,,,,,,,
152,342244,1745647496978,,,,,,,,,,,,,,,,,,,,,,,,,,,,,,,,,,0,0,0,0,0,0,0,0,0,0,0,0,0,0,0,0,,,,,,,,,,,,,
153,342264,1745647496998,0.0,86.0,,-0.1,0.21,1.19,-2.0,0.0,1.0,1.21,1.21,100.0,4282.0,0.0,1.74,,10.02,1.25,77.2,,36.3,5.0,,,,,,,,,,,,0,0,0,0,0,0,0,0,0,0,0,0,0,0,0,0,,,,,,0.0,,,,,,,
154,342284,1745647497009,,,,,,,,,,,,,,,,,,,,,,,0.0,0.0,10.0,0.0,0.0,0.0,0.0,0.0,2.26,,,0,0,0,0,0,0,0,0,0,0,0,0,0,0,0,0,,0.0,,,,,38.985802,-76.949882,0.05,53.1,31.0,3.0,0.8
155,342304,1745647497029,0.0,86.0,,-0.1,0.13,1.11,-2.0,0.0,1.0,1.13,1.21,93.0,3997.0,0.0,1.79,,10.02,1.25,77.2,,36.3,5.0,,,,,,,,,,,,0,0,0,0,0,0,0,0,0,0,0,0,0,0,0,0,,,,,,0.0,,,,,,,
156,342324,1745647497049,,,,,,,,,,,,,,,,,,,,,,,,,,,,,,,,,,0,0,0,0,0,0,0,0,0,0,0,0,0,0,0,0,,,,,,,,,,,,,
157,342344,1745647497069,0.0,86.0,,-0.1,0.1,1.11,-1.0,0.0,1.0,1.12,1.21,92.0,3997.0,0.0,1.79,,10.24,1.251,77.2,,37.1,5.0,,,,,,,,,,,,0,0,0,0,0,0,0,0,0,0,0,0,0,0,0,0,,,,,,0.0,,,,,,,
158,342364,1745647497089,,,,,,,,,,,,,,,,,,,,,,,,,,,,,,,,,,0,0,0,0,0,0,0,0,0,0,0,0,0,0,0,0,,,,,,,,,,,,,
159,342384,1745647497115,0.0,86.0,14.06,-0.09,0.15,1.12,-2.0,0.0,1.0,1.13,1.21,93.0,3702.0,27.0,4.52,15.0,12.37,1.25,77.2,151.0,37.1,5.0,0.0,0.0,10.0,0.0,0.0,0.0,0.0,0.0,2.25,0.0,1.0,0,0,0,0,0,0,0,0,0,0,0,0,0,0,0,0,0.0,0.0,0.0,0.0,0.0,0.0,38.985802,-76.949882,0.04,53.1,31.0,3.0,0.8
160,342404,1745647497135,,,,,,,,,,,,,,,,,,,,,,,,,,,,,,,,,,0,0,0,0,0,0,0,0,0,0,0,0,0,0,0,0,,,,,,,,,,,,,
161,342424,1745647497155,0.0,86.0,,-0.09,0.11,1.11,-1.0,0.0,1.0,1.12,1.21,92.0,3515.0,44.9,4.92,,14.27,1.248,77.2,,37.1,5.0,,,,,,,,,,,,0,0,0,0,0,0,0,0,0,0,0,0,0,0,0,0,,,,,,0.0,,,,,,,
162,342444,1745647497175,,,,,,,,,,,,,,,,,,,,,,,,,,,,,,,,,,0,0,0,0,0,0,0,0,0,0,0,0,0,0,0,0,,,,,,,,,,,,,
163,342464,1745647497195,0.0,86.0,,-0.1,0.03,1.05,-1.0,0.0,1.0,1.05,1.21,87.0,3907.0,48.5,5.78,,14.23,1.248,77.2,,38.7,5.0,,,,,,,,,,,,0,0,0,0,0,0,0,0,0,0,0,0,0,0,0,0,,,,,,0.0,,,,,,,
164,342484,1745647497217,,,,,,,,,,,,,,,,,,,,,,,0.0,0.0,10.0,0.0,0.0,0.0,0.0,0.0,2.26,,,0,0,0,0,0,0,0,0,0,0,0,0,0,0,0,0,,0.0,,,,,38.985802,-76.949882,0.2,53.1,31.0,3.0,0.8
165,342504,1745647497237,0.0,85.0,,-0.06,0.11,1.19,-1.0,0.0,1.0,1.2,1.21,99.0,4486.0,48.6,5.37,,14.23,1.248,77.2,,38.7,5.0,,,,,,,,,,,,0,0,0,0,0,0,0,0,0,0,0,0,0,0,0,0,,,,,,0.0,,,,,,,
166,342524,1745647497257,,,,,,,,,,,,,,,,,,,,,,,,,,,,,,,,,,0,0,0,0,0,0,0,0,0,0,0,0,0,0,0,0,,,,,,,,,,,,,
167,342544,1745647497277,0.0,86.0,,-0.08,0.05,1.12,-1.0,0.0,1.0,1.13,1.21,93.0,4486.0,48.6,5.37,,14.24,1.248,77.2,,43.6,5.0,,,,,,,,,,,,0,0,0,0,0,0,0,0,0,0,0,0,0,0,0,0,,,,,,0.0,,,,,,,
168,342564,1745647497297,,,,,,,,,,,,,,,,,,,,,,,,,,,,,,,,,,0,0,0,0,0,0,0,0,0,0,0,0,0,0,0,0,,,,,,,,,,,,,
169,342584,1745647497317,0.0,86.0,,-0.08,0.08,1.18,-2.0,0.0,1.0,1.19,1.21,98.0,5178.0,21.7,4.96,,13.72,1.198,77.2,,43.6,5.0,0.0,0.0,10.0,0.0,0.0,0.0,0.0,0.0,2.26,,,0,0,0,0,0,0,0,0,0,0,0,0,0,0,0,0,,0.0,,,,0.0,38.985802,-76.949882,0.16,53.1,31.0,3.0,0.8
170,342604,1745647497337,,,,,,,,,,,,,,,,,,,,,,,,,,,,,,,,,,0,0,0,0,0,0,0,0,0,0,0,0,0,0,0,0,,,,,,,,,,,,,
171,342624,1745647497357,0.0,86.0,,-0.06,0.04,1.08,-1.0,0.0,1.0,1.08,1.21,89.0,5657.0,2.1,3.91,,12.25,1.001,77.2,,43.6,5.0,,,,,,,,,,,,0,0,0,0,0,0,0,0,0,0,0,0,0,0,0,0,,,,,,0.0,,,,,,,
172,342644,1745647497377,,,,,,,,,,,,,,,,,,,,,,,,,,,,,,,,,,0,0,0,0,0,0,0,0,0,0,0,0,0,0,0,0,,,,,,,,,,,,,
173,342664,1745647497397,0.0,86.0,,-0.08,-0.01,1.03,-1.0,0.0,1.0,1.03,1.21,85.0,5806.0,0.0,1.68,,11.18,0.929,77.2,,44.1,5.0,,,,,,,,,,,,0,0,0,0,0,0,0,0,0,0,0,0,0,0,0,0,,,,,,0.0,,,,,,,
174,342684,1745647497417,,,,,,,,,,,,,,,,,,,,,,,0.0,0.0,10.0,0.0,0.0,0.0,0.0,0.0,2.26,,,0,0,0,0,0,0,0,0,0,0,0,0,0,0,0,0,,0.0,,,,,38.985802,-76.949882,0.05,53.0,31.0,3.0,0.8
175,342704,1745647497437,0.0,86.0,,-0.08,0.05,1.12,-2.0,0.0,1.0,1.12,1.21,93.0,5776.0,0.0,1.4,,11.18,0.929,77.2,,44.1,5.0,,,,,,,,,,,,0,0,0,0,0,0,0,0,0,0,0,0,0,0,0,0,,,,,,0.0,,,,,,,
176,342724,1745647497457,,,,,,,,,,,,,,,,,,,,,,,,,,,,,,,,,,0,0,0,0,0,0,0,0,0,0,0,0,0,0,0,0,,,,,,,,,,,,,
177,342744,1745647497477,0.0,86.0,,-0.04,0.05,1.1,-2.0,0.0,1.0,1.1,1.21,90.0,5776.0,0.0,1.4,,10.57,0.976,77.2,,42.5,5.0,,,,,,,,,,,,0,0,0,0,0,0,0,0,0,0,0,0,0,0,0,0,,,,,,0.0,,,,,,,
178,342764,1745647497497,,,,,,,,,,,,,,,,,,,,,,,,,,,,,,,,,,0,0,0,0,0,0,0,0,0,0,0,0,0,0,0,0,,,,,,,,,,,,,
179,342784,1745647497517,0.0,85.0,,-0.05,0.07,1.11,-2.0,0.0,1.0,1.11,1.21,91.0,5555.0,8.1,2.93,,10.8,0.969,77.2,,42.5,5.0,0.0,0.0,10.0,0.0,0.0,0.0,0.0,0.0,2.25,,,0,0,0,0,0,0,0,0,0,0,0,0,0,0,0,0,,0.0,,,,0.0,38.985802,-76.949882,0.16,53.0,31.0,3.0,0.8
180,342804,1745647497537,,,,,,,,,,,,,,,,,,,,,,,,,,,,,,,,,,0,0,0,0,0,0,0,0,0,0,0,0,0,0,0,0,,,,,,,,,,,,,
181,342824,1745647497557,0.0,85.0,,-0.07,0.03,1.08,-2.0,0.0,1.0,1.08,1.21,89.0,5440.0,20.0,4.18,,12.09,1.026,77.2,,42.5,5.0,,,,,,,,,,,,0,0,0,0,0,0,0,0,0,0,0,0,0,0,0,0,,,,,,0.0,,,,,,,
182,342844,1745647497577,,,,,,,,,,,,,,,,,,,,,,,,,,,,,,,,,,0,0,0,0,0,0,0,0,0,0,0,0,0,0,0,0,,,,,,,,,,,,,
183,342864,1745647497597,0.0,86.0,,-0.07,0.01,1.03,-1.0,0.0,1.0,1.04,1.21,85.0,5473.0,46.6,5.14,,13.79,1.134,77.2,,39.9,5.0,,,,,,,,,,,,0,0,0,0,0,0,0,0,0,0,0,0,0,0,0,0,,,,,,0.0,,,,,,,
184,342884,1745647497617,,,,,,,,,,,,,,,,,,,,,,,0.0,0.0,10.0,0.0,0.0,0.0,0.0,0.0,2.25,,,0,0,0,0,0,0,0,0,0,0,0,0,0,0,0,0,,0.0,,,,,38.985802,-76.949882,0.23,53.0,31.0,3.0,0.8
185,342904,1745647497637,0.0,86.0,,-0.11,-0.05,0.99,-1.0,0.0,1.0,1.0,1.21,82.0,5930.0,54.8,5.79,,13.79,1.134,77.2,,39.9,5.0,,,,,,,,,,,,0,0,0,0,0,0,0,0,0,0,0,0,0,0,0,0,,,,,,0.0,,,,,,,
186,342924,1745647497657,,,,,,,,,,,,,,,,,,,,,,,,,,,,,,,,,,0,0,0,0,0,0,0,0,0,0,0,0,0,0,0,0,,,,,,,,,,,,,
187,342944,1745647497677,0.0,86.0,,-0.1,-0.06,1.0,-1.0,0.0,1.0,1.01,1.21,83.0,5930.0,54.8,5.79,,14.0,1.109,77.2,,45.1,5.0,,,,,,,,,,,,0,0,0,0,0,0,0,0,0,0,0,0,0,0,0,0,,,,,,0.0,,,,,,,
188,342964,1745647497697,,,,,,,,,,,,,,,,,,,,,,,,,,,,,,,,,,0,0,0,0,0,0,0,0,0,0,0,0,0,0,0,0,,,,,,,,,,,,,
189,342984,1745647497717,0.0,86.0,,-0.13,-0.16,1.0,1.0,0.0,0.0,1.02,1.21,84.0,7019.0,54.2,5.3,,13.72,1.118,77.2,,45.1,5.0,0.0,0.0,10.0,0.0,0.0,0.0,0.0,0.0,2.26,,,0,0,0,0,0,0,0,0,0,0,0,0,0,0,0,0,,0.0,,,,0.0,38.985802,-76.949882,0.08,53.0,31.0,3.0,0.8
190,343004,1745647497737,,,,,,,,,,,,,,,,,,,,,,,,,,,,,,,,,,0,0,0,0,0,0,0,0,0,0,0,0,0,0,0,0,,,,,,,,,,,,,
191,343024,1745647497757,0.0,86.0,,-0.13,-0.06,1.0,1.0,0.0,0.0,1.01,1.21,83.0,8143.0,16.2,5.36,,12.03,1.025,77.2,,45.1,5.0,,,,,,,,,,,,0,0,0,0,0,0,0,0,0,0,0,0,0,0,0,0,,,,,,0.0,,,,,,,
192,343044,1745647497777,,,,,,,,,,,,,,,,,,,,,,,,,,,,,,,,,,0,0,0,0,0,0,0,0,0,0,0,0,0,0,0,0,,,,,,,,,,,,,
193,343064,1745647497797,0.0,86.0,,-0.14,-0.05,0.96,2.0,0.0,0.0,0.97,1.21,80.0,9305.0,0.0,1.4,,9.34,0.912,77.2,,47.3,5.0,,,,,,,,,,,,0,0,0,0,0,0,0,0,0,0,0,0,0,0,0,0,,,,,,0.0,,,,,,,
194,343084,1745647497817,,,,,,,,,,,,,,,,,,,,,,,0.0,0.0,10.0,0.0,0.0,0.0,0.0,0.0,2.26,,,0,0,0,0,0,0,0,0,0,0,0,0,0,0,0,0,,0.0,,,,,38.985802,-76.949882,0.04,53.0,31.0,3.0,0.8
195,343104,1745647497837,0.0,86.0,,-0.12,-0.13,0.97,2.0,0.0,0.0,0.99,1.21,81.0,9541.0,0.0,1.4,,9.34,0.912,77.2,,47.3,5.0,,,,,,,,,,,,0,0,0,0,0,0,0,0,0,0,0,0,0,0,0,0,,,,,,0.0,,,,,,,
196,343124,1745647497857,,,,,,,,,,,,,,,,,,,,,,,,,,,,,,,,,,0,0,0,0,0,0,0,0,0,0,0,0,0,0,0,0,,,,,,,,,,,,,
197,343144,1745647497877,0.0,86.0,,-0.12,-0.05,0.94,2.0,0.0,0.0,0.95,1.21,78.0,9541.0,0.0,1.4,,7.7,0.803,77.2,,45.4,5.0,,,,,,,,,,,,0,0,0,0,0,0,0,0,0,0,0,0,0,0,0,0,,,,,,0.0,,,,,,,
198,343164,1745647497897,,,,,,,,,,,,,,,,,,,,,,,,,,,,,,,,,,0,0,0,0,0,0,0,0,0,0,0,0,0,0,0,0,,,,,,,,,,,,,
199,343184,1745647497917,0.0,85.0,,-0.12,-0.08,0.97,2.0,0.0,0.0,0.99,1.21,81.0,9373.0,0.0,1.4,,6.74,0.873,77.2,,45.4,5.0,0.0,0.0,10.0,0.0,0.0,0.0,0.0,0.0,2.26,,,0,0,0,0,0,0,0,0,0,0,0,0,0,0,0,0,,0.0,,,,0.0,38.985802,-76.949882,0.11,53.0,31.0,3.0,0.8
200,343204,1745647497937,,,,,,,,,,,,,,,,,,,,,,,,,,,,,,,,,,0,0,0,0,0,0,0,0,0,0,0,0,0,0,0,0,,,,,,,,,,,,,
201,343224,1745647497957,0.0,86.0,,-0.14,-0.02,0.96,1.0,0.0,0.0,0.97,1.21,80.0,9367.0,0.0,1.4,,6.14,1.114,77.2,,45.4,5.0,,,,,,,,,,,,0,0,0,0,0,0,0,0,0,0,0,0,0,0,0,0,,,,,,0.0,,,,,,,
202,343244,1745647497977,,,,,,,,,,,,,,,,,,,,,,,,,,,,,,,,,,0,0,0,0,0,0,0,0,0,0,0,0,0,0,0,0,,,,,,,,,,,,,
203,343264,1745647497997,0.0,86.0,,-0.11,-0.12,1.0,1.0,0.0,0.0,1.01,1.21,83.0,9324.0,0.0,1.4,,5.75,1.101,77.2,,44.3,5.0,,,,,,,,,,,,0,0,0,0,0,0,0,0,0,0,0,0,0,0,0,0,,,,,,0.0,,,,,,,
204,343284,1745647498010,,,,,,,,,,,,,,,,,,,,,,,0.0,0.0,10.0,0.0,0.0,0.0,0.0,0.0,2.26,,,0,0,0,0,0,0,0,0,0,0,0,0,0,0,0,0,,0.0,,,,,38.985802,-76.949882,0.05,53.0,31.0,3.0,0.8
205,343304,1745647498030,0.0,86.0,,-0.1,0.06,1.0,1.0,0.0,0.0,1.0,1.21,83.0,9219.0,0.0,1.4,,5.75,1.101,77.2,,44.3,5.0,,,,,,,,,,,,0,0,0,0,0,0,0,0,0,0,0,0,0,0,0,0,,,,,,0.0,,,,,,,
206,343324,1745647498050,,,,,,,,,,,,,,,,,,,,,,,,,,,,,,,,,,0,0,0,0,0,0,0,0,0,0,0,0,0,0,0,0,,,,,,,,,,,,,
207,343344,1745647498070,0.0,86.0,,-0.1,0.07,0.96,0.0,0.0,0.0,0.97,1.21,80.0,9219.0,0.0,1.4,,5.5,1.008,77.2,,43.3,5.0,,,,,,,,,,,,0,0,0,0,0,0,0,0,0,0,0,0,0,0,0,0,,,,,,0.0,,,,,,,
208,343364,1745647498090,,,,,,,,,,,,,,,,,,,,,,,,,,,,,,,,,,0,0,0,0,0,0,0,0,0,0,0,0,0,0,0,0,,,,,,,,,,,,,
209,343384,1745647498114,0.0,85.0,14.11,-0.09,0.02,0.96,-1.0,0.0,0.0,0.97,1.21,80.0,9078.0,0.0,1.4,15.0,5.42,0.972,77.2,151.0,43.3,5.0,0.0,0.0,10.0,0.0,0.0,0.0,0.0,0.0,2.26,0.0,1.0,0,0,0,0,0,0,0,0,0,0,0,0,0,0,0,0,0.0,0.0,0.0,0.0,0.0,0.0,38.985802,-76.949882,0.05,53.0,31.0,3.0,0.8
210,343404,1745647498134,,,,,,,,,,,,,,,,,,,,,,,,,,,,,,,,,,0,0,0,0,0,0,0,0,0,0,0,0,0,0,0,0,,,,,,,,,,,,,
211,343424,1745647498154,0.0,85.0,,-0.1,0.0,0.95,-2.0,0.0,1.0,0.95,1.21,79.0,8923.0,0.0,1.4,,5.23,0.961,77.2,,43.3,5.0,,,,,,,,,,,,0,0,0,0,0,0,0,0,0,0,0,0,0,0,0,0,,,,,,0.0,,,,,,,
212,343444,1745647498174,,,,,,,,,,,,,,,,,,,,,,,,,,,,,,,,,,0,0,0,0,0,0,0,0,0,0,0,0,0,0,0,0,,,,,,,,,,,,,
213,343464,1745647498194,0.0,86.0,,-0.11,0.09,0.95,-1.0,0.0,1.0,0.96,1.21,79.0,8744.0,0.0,1.4,,5.26,0.957,77.2,,41.3,5.0,,,,,,,,,,,,0,0,0,0,0,0,0,0,0,0,0,0,0,0,0,0,,,,,,0.0,,,,,,,
214,343484,1745647498218,,,,,,,,,,,,,,,,,,,,,,,0.0,0.0,10.0,0.0,0.0,0.0,0.0,0.0,2.26,,,0,0,0,0,0,0,0,0,0,0,0,0,0,0,0,0,,0.0,,,,,38.985802,-76.949882,0.05,53.0,31.0,3.0,0.8
215,343504,1745647498238,0.0,86.0,,-0.07,0.04,0.97,-2.0,0.0,1.0,0.97,1.21,80.0,8744.0,0.0,1.4,,5.26,0.957,77.2,,41.3,5.0,,,,,,,,,,,,0,0,0,0,0,0,0,0,0,0,0,0,0,0,0,0,,,,,,0.0,,,,,,,
216,343524,1745647498258,,,,,,,,,,,,,,,,,,,,,,,,,,,,,,,,,,0,0,0,0,0,0,0,0,0,0,0,0,0,0,0,0,,,,,,,,,,,,,
217,343544,1745647498278,0.0,85.0,,-0.11,0.0,0.94,-1.0,0.0,0.0,0.95,1.21,78.0,8505.0,0.0,1.4,,5.23,0.964,77.2,,40.3,5.0,,,,,,,,,,,,0,0,0,0,0,0,0,0,0,0,0,0,0,0,0,0,,,,,,0.0,,,,,,,
218,343564,1745647498298,,,,,,,,,,,,,,,,,,,,,,,,,,,,,,,,,,0,0,0,0,0,0,0,0,0,0,0,0,0,0,0,0,,,,,,,,,,,,,
219,343584,1745647498316,0.0,85.0,,-0.1,0.03,0.95,0.0,0.0,0.0,0.95,1.21,78.0,8301.0,0.0,1.4,,5.26,0.99,77.2,,40.3,5.0,0.0,0.0,40.0,0.0,0.0,0.0,0.0,0.0,2.26,,,0,0,0,0,0,0,0,0,0,0,0,0,0,0,0,0,,0.0,,,,0.0,38.985802,-76.949882,0.04,53.0,31.0,3.0,0.8
220,343604,1745647498336,,,,,,,,,,,,,,,,,,,,,,,,,,,,,,,,,,0,0,0,0,0,0,0,0,0,0,0,0,0,0,0,0,,,,,,,,,,,,,
221,343624,1745647498356,0.0,85.0,,-0.09,0.14,0.95,0.0,0.0,0.0,0.96,1.21,79.0,8050.0,0.0,1.4,,5.42,1.004,77.2,,40.3,5.0,,,,,,,,,,,,0,0,0,0,0,0,0,0,0,0,0,0,0,0,0,0,,,,,,0.0,,,,,,,
222,343644,1745647498376,,,,,,,,,,,,,,,,,,,,,,,,,,,,,,,,,,0,0,0,0,0,0,0,0,0,0,0,0,0,0,0,0,,,,,,,,,,,,,
223,343664,1745647498396,0.0,85.0,,-0.12,0.05,0.95,0.0,0.0,0.0,0.96,1.21,79.0,7780.0,0.0,1.4,,5.58,1.016,77.2,,40.1,5.0,,,,,,,,,,,,0,0,0,0,0,0,0,0,0,0,0,0,0,0,0,0,,,,,,0.0,,,,,,,
224,343684,1745647498418,,,,,,,,,,,,,,,,,,,,,,,0.0,0.0,42.0,0.0,0.0,0.0,0.0,0.0,2.26,,,0,0,0,0,0,0,0,0,0,0,0,0,0,0,0,0,,0.0,,,,,38.985802,-76.949882,0.0,53.0,31.0,3.0,0.8
225,343704,1745647498438,0.0,85.0,,-0.12,-0.04,1.0,2.0,0.0,0.0,1.01,1.21,83.0,7510.0,0.0,1.4,,5.58,1.016,77.2,,40.1,5.0,,,,,,,,,,,,0,0,0,0,0,0,0,0,0,0,0,0,0,0,0,0,,,,,,0.0,,,,,,,
226,343724,1745647498458,,,,,,,,,,,,,,,,,,,,,,,,,,,,,,,,,,0,0,0,0,0,0,0,0,0,0,0,0,0,0,0,0,,,,,,,,,,,,,
227,343744,1745647498478,0.0,85.0,,-0.11,-0.15,0.96,2.0,-1.0,-1.0,0.98,1.21,81.0,7510.0,0.0,1.4,,5.67,1.026,77.2,,40.2,5.0,,,,,,,,,,,,0,0,0,0,0,0,0,0,0,0,0,0,0,0,0,0,,,,,,0.0,,,,,,,
228,343764,1745647498498,,,,,,,,,,,,,,,,,,,,,,,,,,,,,,,,,,0,0,0,0,0,0,0,0,0,0,0,0,0,0,0,0,,,,,,,,,,,,,
229,343784,1745647498516,0.0,85.0,,-0.09,-0.07,1.0,1.0,0.0,0.0,1.0,1.21,83.0,7148.0,0.0,1.4,,5.87,1.033,77.2,,40.2,5.0,0.0,0.0,42.0,0.0,0.0,0.0,0.0,0.0,2.26,,,0,0,0,0,0,0,0,0,0,0,0,0,0,0,0,0,,0.0,,,,0.0,38.985802,-76.949882,0.08,53.0,31.0,3.0,0.8
230,343804,1745647498536,,,,,,,,,,,,,,,,,,,,,,,,,,,,,,,,,,0,0,0,0,0,0,0,0,0,0,0,0,0,0,0,0,,,,,,,,,,,,,
231,343824,1745647498556,0.0,85.0,,-0.11,-0.13,1.02,2.0,0.0,-1.0,1.04,1.21,86.0,6761.0,0.0,1.4,,6.24,1.064,77.2,,40.2,5.0,,,,,,,,,,,,0,0,0,0,0,0,0,0,0,0,0,0,0,0,0,0,,,,,,0.0,,,,,,,
232,343844,1745647498576,,,,,,,,,,,,,,,,,,,,,,,,,,,,,,,,,,0,0,0,0,0,0,0,0,0,0,0,0,0,0,0,0,,,,,,,,,,,,,
233,343864,1745647498596,0.0,86.0,,-0.16,-0.04,0.97,1.0,0.0,0.0,0.98,1.21,81.0,6395.0,0.0,1.4,,6.56,1.149,77.2,,39.8,5.0,,,,,,,,,,,,0,0,0,0,0,0,0,0,0,0,0,0,0,0,0,0,,,,,,0.0,,,,,,,
234,343884,1745647498618,,,,,,,,,,,,,,,,,,,,,,,0.0,0.0,42.0,0.0,0.0,0.0,0.0,0.0,2.25,,,0,0,0,0,0,0,0,0,0,0,0,0,0,0,0,0,,0.0,,,,,38.985802,-76.949882,0.08,53.0,31.0,3.0,0.8
235,343904,1745647498638,0.0,86.0,,-0.18,-0.11,0.85,1.0,0.0,0.0,0.88,1.21,72.0,6020.0,0.0,1.4,,6.56,1.149,77.2,,39.8,5.0,,,,,,,,,,,,0,0,0,0,0,0,0,0,0,0,0,0,0,0,0,0,,,,,,0.0,,,,,,,
236,343924,1745647498658,,,,,,,,,,,,,,,,,,,,,,,,,,,,,,,,,,0,0,0,0,0,0,0,0,0,0,0,0,0,0,0,0,,,,,,,,,,,,,
237,343944,1745647498678,0.0,86.0,,-0.22,-0.11,0.8,0.0,0.0,0.0,0.83,1.21,69.0,6020.0,0.0,1.4,,6.99,1.25,77.2,,38.9,5.0,,,,,,,,,,,,0,0,0,0,0,0,0,0,0,0,0,0,0,0,0,0,,,,,,0.0,,,,,,,
238,343964,1745647498698,,,,,,,,,,,,,,,,,,,,,,,,,,,,,,,,,,0,0,0,0,0,0,0,0,0,0,0,0,0,0,0,0,,,,,,,,,,,,,
239,343984,1745647498718,0.0,85.0,,-0.19,-0.12,0.85,0.0,0.0,0.0,0.88,1.21,72.0,5631.0,0.0,1.4,,7.53,1.25,77.2,,38.9,5.0,0.0,0.0,42.0,0.0,0.0,0.0,0.0,0.0,2.26,,,0,0,0,0,0,0,0,0,0,0,0,0,0,0,0,0,,0.0,,,,0.0,38.985802,-76.949882,0.04,53.0,31.0,3.0,0.8
240,344004,1745647498738,,,,,,,,,,,,,,,,,,,,,,,,,,,,,,,,,,0,0,0,0,0,0,0,0,0,0,0,0,0,0,0,0,,,,,,,,,,,,,
241,344024,1745647498758,0.0,85.0,,-0.2,-0.12,0.88,0.0,0.0,0.0,0.91,1.21,75.0,5221.0,0.0,1.4,,7.91,1.249,77.2,,38.9,5.0,,,,,,,,,,,,0,0,0,0,0,0,0,0,0,0,0,0,0,0,0,0,,,,,,0.0,,,,,,,
242,344044,1745647498778,,,,,,,,,,,,,,,,,,,,,,,,,,,,,,,,,,0,0,0,0,0,0,0,0,0,0,0,0,0,0,0,0,,,,,,,,,,,,,
243,344064,1745647498798,0.0,86.0,,-0.14,-0.1,0.93,1.0,0.0,0.0,0.94,1.21,78.0,4870.0,0.0,1.42,,7.91,1.249,77.2,,38.0,5.0,,,,,,,,,,,,0,0,0,0,0,0,0,0,0,0,0,0,0,0,0,0,,,,,,0.0,,,,,,,
244,344084,1745647498818,,,,,,,,,,,,,,,,,,,,,,,0.0,0.0,42.0,0.0,0.0,0.0,0.0,0.0,2.26,,,0,0,0,0,0,0,0,0,0,0,0,0,0,0,0,0,,0.0,,,,,38.985802,-76.949882,0.08,53.0,31.0,3.0,0.8
245,344104,1745647498838,0.0,86.0,,-0.15,0.06,1.03,0.0,0.0,0.0,1.04,1.21,86.0,4491.0,0.0,1.5,,8.33,1.248,77.2,,38.0,5.0,,,,,,,,,,,,0,0,0,0,0,0,0,0,0,0,0,0,0,0,0,0,,,,,,0.0,,,,,,,
246,344124,1745647498858,,,,,,,,,,,,,,,,,,,,,,,,,,,,,,,,,,0,0,0,0,0,0,0,0,0,0,0,0,0,0,0,0,,,,,,,,,,,,,
247,344144,1745647498878,0.0,86.0,,-0.12,0.13,1.08,0.0,0.0,0.0,1.09,1.21,90.0,4491.0,0.0,1.5,,8.69,1.248,77.2,,36.2,5.0,,,,,,,,,,,,0,0,0,0,0,0,0,0,0,0,0,0,0,0,0,0,,,,,,0.0,,,,,,,
248,344164,1745647498898,,,,,,,,,,,,,,,,,,,,,,,,,,,,,,,,,,0,0,0,0,0,0,0,0,0,0,0,0,0,0,0,0,,,,,,,,,,,,,
249,344184,1745647498918,0.0,86.0,,-0.13,0.09,1.04,0.0,0.0,0.0,1.05,1.21,87.0,4180.0,0.0,1.56,,9.05,1.248,77.2,,36.2,5.0,0.0,0.0,42.0,0.0,0.0,0.0,0.0,0.0,2.26,,,0,0,0,0,0,0,0,0,0,0,0,0,0,0,0,0,,0.0,,,,0.0,38.985802,-76.949882,0.0,53.0,31.0,3.0,0.8
250,344204,1745647498938,,,,,,,,,,,,,,,,,,,,,,,,,,,,,,,,,,0,0,0,0,0,0,0,0,0,0,0,0,0,0,0,0,,,,,,,,,,,,,
251,344224,1745647498958,0.0,86.0,,-0.11,0.12,1.04,0.0,0.0,0.0,1.05,1.21,87.0,3848.0,0.0,1.65,,9.49,1.249,77.2,,36.2,5.0,,,,,,,,,,,,0,0,0,0,0,0,0,0,0,0,0,0,0,0,0,0,,,,,,0.0,,,,,,,
252,344244,1745647498978,,,,,,,,,,,,,,,,,,,,,,,,,,,,,,,,,,0,0,0,0,0,0,0,0,0,0,0,0,0,0,0,0,,,,,,,,,,,,,
253,344264,1745647498998,0.0,86.0,,-0.1,0.12,0.98,1.0,0.0,0.0,1.0,1.21,82.0,3488.0,0.0,1.78,,10.02,1.25,77.2,,36.9,5.0,,,,,,,,,,,,0,0,0,0,0,0,0,0,0,0,0,0,0,0,0,0,,,,,,0.0,,,,,,,
254,344284,1745647499009,,,,,,,,,,,,,,,,,,,,,,,0.0,0.0,42.0,0.0,0.0,0.0,0.0,0.0,2.26,,,0,0,0,0,0,0,0,0,0,0,0,0,0,0,0,0,,0.0,,,,,38.985802,-76.949882,0.0,53.0,31.0,3.0,0.8
255,344304,1745647499029,0.0,86.0,,-0.09,0.11,1.03,0.0,0.0,0.0,1.04,1.21,86.0,3165.0,0.0,1.9,,10.02,1.25,77.2,,36.9,5.0,,,,,,,,,,,,0,0,0,0,0,0,0,0,0,0,0,0,0,0,0,0,,,,,,0.0,,,,,,,
256,344324,1745647499049,,,,,,,,,,,,,,,,,,,,,,,,,,,,,,,,,,0,0,0,0,0,0,0,0,0,0,0,0,0,0,0,0,,,,,,,,,,,,,
257,344344,1745647499069,0.0,86.0,,-0.08,0.07,1.07,0.0,0.0,0.0,1.07,1.21,89.0,3165.0,0.0,1.9,,10.56,1.251,77.2,,35.7,5.0,,,,,,,,,,,,0,0,0,0,0,0,0,0,0,0,0,0,0,0,0,0,,,,,,0.0,,,,,,,
258,344364,1745647499089,,,,,,,,,,,,,,,,,,,,,,,,,,,,,,,,,,0,0,0,0,0,0,0,0,0,0,0,0,0,0,0,0,,,,,,,,,,,,,
259,344384,1745647499115,0.0,85.0,14.13,-0.08,0.08,1.04,0.0,0.0,1.0,1.04,1.21,86.0,2950.0,0.0,2.06,15.0,11.06,1.251,77.2,151.0,35.7,5.0,0.0,0.0,42.0,0.0,0.0,0.0,0.0,0.0,2.26,0.0,1.0,0,0,0,0,0,0,0,0,0,0,0,0,0,0,0,0,0.0,0.0,0.0,0.0,0.0,0.0,38.985802,-76.949882,0.04,53.0,31.0,3.0,0.8
260,344404,1745647499135,,,,,,,,,,,,,,,,,,,,,,,,,,,,,,,,,,0,0,0,0,0,0,0,0,0,0,0,0,0,0,0,0,,,,,,,,,,,,,
261,344424,1745647499155,0.0,86.0,,-0.08,0.05,1.04,0.0,0.0,0.0,1.04,1.21,86.0,2697.0,0.0,2.73,,11.48,1.251,77.2,,35.7,5.0,,,,,,,,,,,,0,0,0,0,0,0,0,0,0,0,0,0,0,0,0,0,,,,,,0.0,,,,,,,
262,344444,1745647499175,,,,,,,,,,,,,,,,,,,,,,,,,,,,,,,,,,0,0,0,0,0,0,0,0,0,0,0,0,0,0,0,0,,,,,,,,,,,,,
263,344464,1745647499195,0.0,86.0,,-0.08,0.07,1.05,0.0,0.0,1.0,1.06,1.21,87.0,2647.0,0.0,2.84,,11.87,1.25,77.2,,31.0,5.0,,,,,,,,,,,,0,0,0,0,0,0,0,0,0,0,0,0,0,0,0,0,,,,,,0.0,,,,,,,
264,344484,1745647499215,,,,,,,,,,,,,,,,,,,,,,,0.0,0.0,42.0,0.0,0.0,0.0,0.0,0.0,2.25,,,0,0,0,0,0,0,0,0,0,0,0,0,0,0,0,0,,0.0,,,,,38.985802,-76.949882,0.04,53.0,31.0,3.0,0.8
265,344504,1745647499235,0.0,86.0,,-0.08,0.04,1.05,0.0,0.0,0.0,1.05,1.21,87.0,2581.0,0.0,2.84,,11.87,1.25,77.2,,31.0,5.0,,,,,,,,,,,,0,0,0,0,0,0,0,0,0,0,0,0,0,0,0,0,,,,,,0.0,,,,,,,
266,344524,1745647499255,,,,,,,,,,,,,,,,,,,,,,,,,,,,,,,,,,0,0,0,0,0,0,0,0,0,0,0,0,0,0,0,0,,,,,,,,,,,,,
267,344544,1745647499275,0.0,86.0,,-0.08,0.05,1.03,0.0,0.0,0.0,1.03,1.21,85.0,2581.0,0.0,2.84,,12.13,1.249,77.2,,28.9,5.0,,,,,,,,,,,,0,0,0,0,0,0,0,0,0,0,0,0,0,0,0,0,,,,,,0.0,,,,,,,
268,344564,1745647499295,,,,,,,,,,,,,,,,,,,,,,,,,,,,,,,,,,0,0,0,0,0,0,0,0,0,0,0,0,0,0,0,0,,,,,,,,,,,,,
269,344584,1745647499317,0.0,86.0,,-0.08,0.05,1.04,0.0,0.0,0.0,1.04,1.21,86.0,2496.0,7.0,3.43,,12.76,1.249,77.2,,28.9,5.0,0.0,0.0,42.0,0.0,0.0,0.0,0.0,0.0,2.26,,,0,0,0,0,0,0,0,0,0,0,0,0,0,0,0,0,,0.0,,,,0.0,38.985802,-76.949882,0.04,53.0,31.0,3.0,0.8
270,344604,1745647499337,,,,,,,,,,,,,,,,,,,,,,,,,,,,,,,,,,0,0,0,0,0,0,0,0,0,0,0,0,0,0,0,0,,,,,,,,,,,,,
271,344624,1745647499357,0.0,86.0,,-0.07,0.04,1.04,0.0,0.0,0.0,1.05,1.21,86.0,2524.0,21.3,4.53,,13.86,1.249,77.2,,28.9,5.0,,,,,,,,,,,,0,0,0,0,0,0,0,0,0,0,0,0,0,0,0,0,,,,,,0.0,,,,,,,
272,344644,1745647499377,,,,,,,,,,,,,,,,,,,,,,,,,,,,,,,,,,0,0,0,0,0,0,0,0,0,0,0,0,0,0,0,0,,,,,,,,,,,,,
273,344664,1745647499397,0.0,86.0,,-0.08,0.05,1.06,0.0,0.0,0.0,1.06,1.21,88.0,2582.0,25.4,4.68,,14.19,1.218,77.2,,28.5,5.0,,,,,,,,,,,,0,0,0,0,0,0,0,0,0,0,0,0,0,0,0,0,,,,,,0.0,,,,,,,
274,344684,1745647499417,,,,,,,,,,,,,,,,,,,,,,,0.0,0.0,42.0,0.0,0.0,0.0,0.0,0.0,2.26,,,0,0,0,0,0,0,0,0,0,0,0,0,0,0,0,0,,0.0,,,,,38.985802,-76.949882,0.04,53.0,31.0,3.0,0.8
275,344704,1745647499437,0.0,85.0,,-0.07,0.05,1.01,0.0,0.0,0.0,1.02,1.21,84.0,2836.0,25.5,4.46,,14.19,1.218,77.2,,28.5,5.0,,,,,,,,,,,,0,0,0,0,0,0,0,0,0,0,0,0,0,0,0,0,,,,,,0.0,,,,,,,
276,344724,1745647499457,,,,,,,,,,,,,,,,,,,,,,,,,,,,,,,,,,0,0,0,0,0,0,0,0,0,0,0,0,0,0,0,0,,,,,,,,,,,,,
277,344744,1745647499477,0.0,86.0,,-0.09,0.06,0.98,0.0,0.0,0.0,0.99,1.21,81.0,2836.0,25.5,4.46,,14.18,1.131,77.2,,31.7,5.0,,,,,,,,,,,,0,0,0,0,0,0,0,0,0,0,0,0,0,0,0,0,,,,,,0.0,,,,,,,
278,344764,1745647499497,,,,,,,,,,,,,,,,,,,,,,,,,,,,,,,,,,0,0,0,0,0,0,0,0,0,0,0,0,0,0,0,0,,,,,,,,,,,,,
279,344784,1745647499517,0.0,85.0,,-0.12,0.03,1.0,0.0,0.0,0.0,1.0,1.21,83.0,2944.0,14.0,4.42,,14.0,1.054,77.2,,31.7,5.0,0.0,0.0,42.0,0.0,0.0,0.0,0.0,0.0,2.26,,,0,0,0,0,0,0,0,0,0,0,0,0,0,0,0,0,,0.0,,,,0.0,38.985802,-76.949882,0.04,53.0,31.0,3.0,0.8
280,344804,1745647499537,,,,,,,,,,,,,,,,,,,,,,,,,,,,,,,,,,0,0,0,0,0,0,0,0,0,0,0,0,0,0,0,0,,,,,,,,,,,,,
281,344824,1745647499557,0.0,86.0,,-0.11,0.08,0.93,0.0,0.0,0.0,0.94,1.21,78.0,3133.0,0.2,2.76,,13.48,1.026,77.2,,31.7,5.0,,,,,,,,,,,,0,0,0,0,0,0,0,0,0,0,0,0,0,0,0,0,,,,,,0.0,,,,,,,
282,344844,1745647499577,,,,,,,,,,,,,,,,,,,,,,,,,,,,,,,,,,0,0,0,0,0,0,0,0,0,0,0,0,0,0,0,0,,,,,,,,,,,,,
283,344864,1745647499597,0.0,86.0,,-0.1,0.12,0.94,0.0,0.0,0.0,0.95,1.21,79.0,3236.0,0.0,2.68,,12.96,1.099,77.2,,36.6,5.0,,,,,,,,,,,,0,0,0,0,0,0,0,0,0,0,0,0,0,0,0,0,,,,,,0.0,,,,,,,
284,344884,1745647499617,,,,,,,,,,,,,,,,,,,,,,,0.0,0.0,42.0,0.0,0.0,0.0,0.0,0.0,2.26,,,0,0,0,0,0,0,0,0,0,0,0,0,0,0,0,0,,0.0,,,,,38.985802,-76.949882,0.0,52.9,31.0,3.0,0.8
285,344904,1745647499637,0.0,86.0,,-0.09,0.06,1.01,0.0,0.0,0.0,1.02,1.21,84.0,3129.0,0.0,2.67,,12.96,1.099,77.2,,36.6,5.0,,,,,,,,,,,,0,0,0,0,0,0,0,0,0,0,0,0,0,0,0,0,,,,,,0.0,,,,,,,
286,344924,1745647499657,,,,,,,,,,,,,,,,,,,,,,,,,,,,,,,,,,0,0,0,0,0,0,0,0,0,0,0,0,0,0,0,0,,,,,,,,,,,,,
287,344944,1745647499677,0.0,86.0,,-0.09,-0.01,1.06,0.0,0.0,0.0,1.07,1.21,88.0,3129.0,0.0,2.67,,12.72,1.122,77.2,,36.1,5.0,,,,,,,,,,,,0,0,0,0,0,0,0,0,0,0,0,0,0,0,0,0,,,,,,0.0,,,,,,,
288,344964,1745647499697,,,,,,,,,,,,,,,,,,,,,,,,,,,,,,,,,,0,0,0,0,0,0,0,0,0,0,0,0,0,0,0,0,,,,,,,,,,,,,
289,344984,1745647499717,0.0,85.0,,-0.09,-0.04,1.1,0.0,0.0,0.0,1.1,1.21,91.0,3048.0,0.0,2.68,,12.64,1.139,77.2,,36.1,5.0,0.0,0.0,42.0,0.0,0.0,0.0,0.0,0.0,2.26,,,0,0,0,0,0,0,0,0,0,0,0,0,0,0,0,0,,0.0,,,,0.0,38.985802,-76.949882,0.05,52.9,31.0,3.0,0.8
290,345004,1745647499737,,,,,,,,,,,,,,,,,,,,,,,,,,,,,,,,,,0,0,0,0,0,0,0,0,0,0,0,0,0,0,0,0,,,,,,,,,,,,,
291,345024,1745647499757,0.0,86.0,,-0.09,-0.02,1.07,0.0,0.0,0.0,1.08,1.21,89.0,2778.0,0.0,2.75,,12.64,1.172,77.2,,36.1,5.0,,,,,,,,,,,,0,0,0,0,0,0,0,0,0,0,0,0,0,0,0,0,,,,,,0.0,,,,,,,
292,345044,1745647499777,,,,,,,,,,,,,,,,,,,,,,,,,,,,,,,,,,0,0,0,0,0,0,0,0,0,0,0,0,0,0,0,0,,,,,,,,,,,,,
293,345064,1745647499797,0.0,86.0,,-0.09,0.01,1.05,0.0,0.0,0.0,1.05,1.21,87.0,2730.0,0.0,2.79,,12.72,1.199,77.2,,32.7,5.0,,,,,,,,,,,,0,0,0,0,0,0,0,0,0,0,0,0,0,0,0,0,,,,,,0.0,,,,,,,
294,345084,1745647499817,,,,,,,,,,,,,,,,,,,,,,,0.0,0.0,42.0,0.0,0.0,0.0,0.0,0.0,2.26,,,0,0,0,0,0,0,0,0,0,0,0,0,0,0,0,0,,0.0,,,,,38.985802,-76.949882,0.04,52.9,31.0,3.0,0.8
295,345104,1745647499837,0.0,85.0,,-0.09,0.0,1.04,0.0,0.0,0.0,1.04,1.21,86.0,2543.0,0.0,2.88,,12.72,1.199,77.2,,32.7,5.0,,,,,,,,,,,,0,0,0,0,0,0,0,0,0,0,0,0,0,0,0,0,,,,,,0.0,,,,,,,
296,345124,1745647499857,,,,,,,,,,,,,,,,,,,,,,,,,,,,,,,,,,0,0,0,0,0,0,0,0,0,0,0,0,0,0,0,0,,,,,,,,,,,,,
297,345144,1745647499877,0.0,86.0,,-0.09,0.0,1.04,0.0,0.0,0.0,1.04,1.21,86.0,2543.0,0.0,2.88,,12.84,1.236,77.2,,30.0,5.0,,,,,,,,,,,,0,0,0,0,0,0,0,0,0,0,0,0,0,0,0,0,,,,,,0.0,,,,,,,
298,345164,1745647499897,,,,,,,,,,,,,,,,,,,,,,,,,,,,,,,,,,0,0,0,0,0,0,0,0,0,0,0,0,0,0,0,0,,,,,,,,,,,,,
299,345184,1745647499917,0.0,86.0,,-0.09,0.0,1.03,0.0,0.0,0.0,1.04,1.21,86.0,2683.0,0.0,2.94,,12.85,1.248,79.0,,30.0,5.0,0.0,0.0,42.0,0.0,0.0,0.0,0.0,0.0,2.26,,,0,0,0,0,0,0,0,0,0,0,0,0,0,0,0,0,,0.0,,,,0.0,38.985802,-76.949882,0.0,52.9,31.0,3.0,0.8
300,345204,1745647499937,,,,,,,,,,,,,,,,,,,,,,,,,,,,,,,,,,0,0,0,0,0,0,0,0,0,0,0,0,0,0,0,0,,,,,,,,,,,,,
301,345224,1745647499957,0.0,86.0,,-0.08,-0.02,1.04,0.0,0.0,0.0,1.04,1.21,86.0,2584.0,0.0,2.94,,12.96,1.248,79.0,,30.0,5.0,,,,,,,,,,,,0,0,0,0,0,0,0,0,0,0,0,0,0,0,0,0,,,,,,0.0,,,,,,,
302,345244,1745647499977,,,,,,,,,,,,,,,,,,,,,,,,,,,,,,,,,,0,0,0,0,0,0,0,0,0,0,0,0,0,0,0,0,,,,,,,,,,,,,
303,345264,1745647499997,0.0,86.0,,-0.09,-0.01,1.02,0.0,0.0,0.0,1.03,1.21,85.0,2536.0,10.8,3.91,,13.59,1.249,79.0,,29.3,5.0,,,,,,,,,,,,0,0,0,0,0,0,0,0,0,0,0,0,0,0,0,0,,,,,,0.0,,,,,,,
304,345284,1745647500010,,,,,,,,,,,,,,,,,,,,,,,0.0,0.0,42.0,0.0,0.0,0.0,0.0,0.0,2.26,,,0,0,0,0,0,0,0,0,0,0,0,0,0,0,0,0,,0.0,,,,,38.985802,-76.949882,0.0,52.9,31.0,3.0,0.8
305,345304,1745647500030,0.0,86.0,,-0.08,-0.02,1.04,0.0,0.0,0.0,1.04,1.21,86.0,2560.0,13.0,4.01,,13.59,1.249,79.0,,29.3,5.0,,,,,,,,,,,,0,0,0,0,0,0,0,0,0,0,0,0,0,0,0,0,,,,,,0.0,,,,,,,
306,345324,1745647500050,,,,,,,,,,,,,,,,,,,,,,,,,,,,,,,,,,0,0,0,0,0,0,0,0,0,0,0,0,0,0,0,0,,,,,,,,,,,,,
307,345344,1745647500070,0.0,86.0,,-0.09,0.01,1.03,0.0,0.0,0.0,1.04,1.21,85.0,2560.0,13.0,4.01,,13.92,1.236,79.0,,28.6,5.0,,,,,,,,,,,,0,0,0,0,0,0,0,0,0,0,0,0,0,0,0,0,,,,,,0.0,,,,,,,
308,345364,1745647500090,,,,,,,,,,,,,,,,,,,,,,,,,,,,,,,,,,0,0,0,0,0,0,0,0,0,0,0,0,0,0,0,0,,,,,,,,,,,,,
309,345384,1745647500114,0.0,86.0,14.08,-0.1,-0.06,1.08,0.0,0.0,0.0,1.09,1.21,90.0,2616.0,13.2,4.03,15.0,13.99,1.178,79.0,151.0,28.6,5.0,0.0,0.0,42.0,0.0,0.0,0.0,0.0,0.0,2.26,0.0,1.0,0,0,0,0,0,0,0,0,0,0,0,0,0,0,0,0,0.0,0.0,0.0,0.0,0.0,0.0,38.985802,-76.949882,0.05,52.9,31.0,3.0,0.8
310,345404,1745647500134,,,,,,,,,,,,,,,,,,,,,,,,,,,,,,,,,,0,0,0,0,0,0,0,0,0,0,0,0,0,0,0,0,,,,,,,,,,,,,
311,345424,1745647500154,0.0,85.0,,-0.11,-0.12,1.14,0.0,0.0,0.0,1.15,1.21,95.0,2967.0,13.6,4.1,,13.9,1.16,79.0,,28.6,5.0,,,,,,,,,,,,0,0,0,0,0,0,0,0,0,0,0,0,0,0,0,0,,,,,,0.0,,,,,,,
312,345444,1745647500174,,,,,,,,,,,,,,,,,,,,,,,,,,,,,,,,,,0,0,0,0,0,0,0,0,0,0,0,0,0,0,0,0,,,,,,,,,,,,,
313,345464,1745647500194,0.0,86.0,,-0.12,-0.12,1.1,1.0,0.0,0.0,1.11,1.21,92.0,3161.0,5.3,3.69,,13.56,1.132,79.0,,34.7,5.0,,,,,,,,,,,,0,0,0,0,0,0,0,0,0,0,0,0,0,0,0,0,,,,,,0.0,,,,,,,
314,345484,1745647500218,,,,,,,,,,,,,,,,,,,,,,,0.0,0.0,42.0,0.0,0.0,0.0,0.0,0.0,2.26,,,0,0,0,0,0,0,0,0,0,0,0,0,0,0,0,0,,0.0,,,,,38.985802,-76.949882,0.04,52.9,31.0,3.0,0.8
315,345504,1745647500238,0.0,86.0,,-0.1,-0.03,1.05,0.0,0.0,0.0,1.05,1.21,87.0,3278.0,3.3,3.33,,13.56,1.132,79.0,,34.7,5.0,,,,,,,,,,,,0,0,0,0,0,0,0,0,0,0,0,0,0,0,0,0,,,,,,0.0,,,,,,,
316,345524,1745647500258,,,,,,,,,,,,,,,,,,,,,,,,,,,,,,,,,,0,0,0,0,0,0,0,0,0,0,0,0,0,0,0,0,,,,,,,,,,,,,
317,345544,1745647500278,0.0,86.0,,-0.1,-0.07,1.12,0.0,0.0,0.0,1.13,1.21,93.0,3278.0,3.3,3.33,,13.25,1.081,79.0,,37.0,5.0,,,,,,,,,,,,0,0,0,0,0,0,0,0,0,0,0,0,0,0,0,0,,,,,,0.0,,,,,,,
318,345564,1745647500298,,,,,,,,,,,,,,,,,,,,,,,,,,,,,,,,,,0,0,0,0,0,0,0,0,0,0,0,0,0,0,0,0,,,,,,,,,,,,,
319,345584,1745647500318,0.0,86.0,,-0.12,-0.13,1.12,1.0,0.0,0.0,1.14,1.21,94.0,3183.0,2.7,3.19,,13.09,1.105,79.0,,37.0,5.0,0.0,0.0,42.0,0.0,0.0,0.0,0.0,0.0,2.26,,,0,0,0,0,0,0,0,0,0,0,0,0,0,0,0,0,,0.0,,,,0.0,38.985802,-76.949882,0.04,52.9,31.0,3.0,0.8
320,345604,1745647500338,,,,,,,,,,,,,,,,,,,,,,,,,,,,,,,,,,0,0,0,0,0,0,0,0,0,0,0,0,0,0,0,0,,,,,,,,,,,,,
321,345624,1745647500358,0.0,85.0,,-0.13,-0.08,1.05,1.0,0.0,0.0,1.06,1.21,87.0,3115.0,2.5,3.14,,13.0,1.138,79.0,,37.0,5.0,,,,,,,,,,,,0,0,0,0,0,0,0,0,0,0,0,0,0,0,0,0,,,,,,0.0,,,,,,,
322,345644,1745647500378,,,,,,,,,,,,,,,,,,,,,,,,,,,,,,,,,,0,0,0,0,0,0,0,0,0,0,0,0,0,0,0,0,,,,,,,,,,,,,
323,345664,1745647500398,0.0,86.0,,-0.12,0.0,1.0,0.0,0.0,0.0,1.01,1.21,83.0,3262.0,2.2,3.09,,12.89,1.145,79.0,,36.6,5.0,,,,,,,,,,,,0,0,0,0,0,0,0,0,0,0,0,0,0,0,0,0,,,,,,0.0,,,,,,,
324,345684,1745647500418,,,,,,,,,,,,,,,,,,,,,,,0.0,0.0,0.0,0.0,0.0,0.0,0.0,0.0,2.26,,,0,0,0,0,0,0,0,0,0,0,0,0,0,0,0,0,,0.0,,,,,38.985802,-76.949882,0.04,52.9,31.0,3.0,0.8
325,345704,1745647500438,0.0,86.0,,-0.09,-0.01,1.07,0.0,0.0,0.0,1.07,1.21,89.0,3196.0,1.8,3.08,,12.89,1.145,79.0,,36.6,5.0,,,,,,,,,,,,0,0,0,0,0,0,0,0,0,0,0,0,0,0,0,0,,,,,,0.0,,,,,,,
326,345724,1745647500458,,,,,,,,,,,,,,,,,,,,,,,,,,,,,,,,,,0,0,0,0,0,0,0,0,0,0,0,0,0,0,0,0,,,,,,,,,,,,,
327,345744,1745647500478,0.0,86.0,,-0.09,-0.08,1.13,0.0,0.0,0.0,1.13,1.21,93.0,3196.0,1.8,3.08,,12.87,1.186,79.0,,36.9,5.0,,,,,,,,,,,,0,0,0,0,0,0,0,0,0,0,0,0,0,0,0,0,,,,,,0.0,,,,,,,
328,345764,1745647500498,,,,,,,,,,,,,,,,,,,,,,,,,,,,,,,,,,0,0,0,0,0,0,0,0,0,0,0,0,0,0,0,0,,,,,,,,,,,,,
329,345784,1745647500518,0.0,86.0,,-0.12,-0.13,1.16,0.0,0.0,0.0,1.17,1.21,97.0,3066.0,1.5,3.03,,12.89,1.18,79.0,,36.9,5.0,0.0,0.0,0.0,0.0,0.0,0.0,0.0,0.0,2.26,,,0,0,0,0,0,0,0,0,0,0,0,0,0,0,0,0,,0.0,,,,0.0,38.985802,-76.949882,0.07,52.9,31.0,3.0,0.8
330,345804,1745647500538,,,,,,,,,,,,,,,,,,,,,,,,,,,,,,,,,,0,0,0,0,0,0,0,0,0,0,0,0,0,0,0,0,,,,,,,,,,,,,
331,345824,1745647500558,0.0,86.0,,-0.12,-0.08,1.09,1.0,0.0,0.0,1.1,1.21,91.0,3187.0,1.4,2.93,,12.89,1.189,79.0,,36.9,5.0,,,,,,,,,,,,0,0,0,0,0,0,0,0,0,0,0,0,0,0,0,0,,,,,,0.0,,,,,,,
332,345844,1745647500578,,,,,,,,,,,,,,,,,,,,,,,,,,,,,,,,,,0,0,0,0,0,0,0,0,0,0,0,0,0,0,0,0,,,,,,,,,,,,,
333,345864,1745647500598,0.0,86.0,,-0.1,-0.0,1.05,0.0,0.0,0.0,1.06,1.21,87.0,3255.0,1.4,3.01,,12.85,1.216,79.0,,37.0,5.0,,,,,,,,,,,,0,0,0,0,0,0,0,0,0,0,0,0,0,0,0,0,,,,,,0.0,,,,,,,
334,345884,1745647500618,,,,,,,,,,,,,,,,,,,,,,,0.0,0.0,0.0,0.0,0.0,0.0,0.0,0.0,2.26,,,0,0,0,0,0,0,0,0,0,0,0,0,0,0,0,0,,0.0,,,,,38.985802,-76.949882,0.06,52.9,31.0,3.0,0.8
335,345904,1745647500638,0.0,86.0,,-0.09,-0.04,1.13,0.0,0.0,0.0,1.13,1.21,93.0,3136.0,1.5,2.93,,12.85,1.216,79.0,,37.0,5.0,,,,,,,,,,,,0,0,0,0,0,0,0,0,0,0,0,0,0,0,0,0,,,,,,0.0,,,,,,,
336,345924,1745647500658,,,,,,,,,,,,,,,,,,,,,,,,,,,,,,,,,,0,0,0,0,0,0,0,0,0,0,0,0,0,0,0,0,,,,,,,,,,,,,
337,345944,1745647500678,0.0,86.0,,-0.1,-0.11,1.17,0.0,0.0,0.0,1.18,1.21,97.0,3136.0,1.5,2.93,,12.83,1.191,79.0,,36.4,5.0,,,,,,,,,,,,0,0,0,0,0,0,0,0,0,0,0,0,0,0,0,0,,,,,,0.0,,,,,,,
338,345964,1745647500698,,,,,,,,,,,,,,,,,,,,,,,,,,,,,,,,,,0,0,0,0,0,0,0,0,0,0,0,0,0,0,0,0,,,,,,,,,,,,,
339,345984,1745647500718,0.0,86.0,,-0.11,-0.16,1.2,0.0,0.0,0.0,1.22,1.22,100.0,3050.0,1.6,2.93,,12.84,1.103,79.0,,36.4,5.0,0.0,0.0,0.0,0.0,0.0,0.0,0.0,0.0,2.26,,,0,0,0,0,0,0,0,0,0,0,0,0,0,0,0,0,,0.0,,,,0.0,38.985802,-76.949882,0.08,52.9,31.0,3.0,0.8
340,346004,1745647500738,,,,,,,,,,,,,,,,,,,,,,,,,,,,,,,,,,0,0,0,0,0,0,0,0,0,0,0,0,0,0,0,0,,,,,,,,,,,,,
341,346024,1745647500758,0.0,85.0,,-0.1,-0.14,1.21,0.0,0.0,0.0,1.22,1.22,100.0,2910.0,19.7,4.17,,13.48,1.056,79.0,,36.4,5.0,,,,,,,,,,,,0,0,0,0,0,0,0,0,0,0,0,0,0,0,0,0,,,,,,0.0,,,,,,,
342,346044,1745647500778,,,,,,,,,,,,,,,,,,,,,,,,,,,,,,,,,,0,0,0,0,0,0,0,0,0,0,0,0,0,0,0,0,,,,,,,,,,,,,
343,346064,1745647500798,0.0,86.0,,-0.1,-0.1,1.17,0.0,0.0,0.0,1.18,1.22,96.0,2870.0,72.3,5.17,,14.47,1.056,79.0,,33.6,5.0,,,,,,,,,,,,0,0,0,0,0,0,0,0,0,0,0,0,0,0,0,0,,,,,,0.0,,,,,,,
344,346084,1745647500816,,,,,,,,,,,,,,,,,,,,,,,0.0,0.0,0.0,0.0,0.0,0.0,0.0,0.0,2.25,,,0,0,0,0,0,0,0,0,0,0,0,0,0,0,0,0,,0.0,,,,,38.985802,-76.949882,0.04,52.9,31.0,3.0,0.8
345,346104,1745647500836,0.0,86.0,,-0.09,-0.04,1.11,-1.0,0.0,1.0,1.11,1.22,91.0,3030.0,86.1,4.95,,14.47,1.056,79.0,,33.6,5.0,,,,,,,,,,,,0,0,0,0,0,0,0,0,0,0,0,0,0,0,0,0,,,,,,0.0,,,,,,,
346,346124,1745647500856,,,,,,,,,,,,,,,,,,,,,,,,,,,,,,,,,,0,0,0,0,0,0,0,0,0,0,0,0,0,0,0,0,,,,,,,,,,,,,
347,346144,1745647500876,0.0,86.0,,-0.08,-0.07,1.17,-1.0,0.0,1.0,1.17,1.22,96.0,3030.0,86.1,4.95,,14.5,1.11,79.0,,36.7,5.0,,,,,,,,,,,,0,0,0,0,0,0,0,0,0,0,0,0,0,0,0,0,,,,,,0.0,,,,,,,
348,346164,1745647500896,,,,,,,,,,,,,,,,,,,,,,,,,,,,,,,,,,0,0,0,0,0,0,0,0,0,0,0,0,0,0,0,0,,,,,,,,,,,,,
349,346184,1745647500918,0.0,86.0,,-0.07,-0.02,1.12,0.0,0.0,1.0,1.12,1.22,92.0,3453.0,72.5,4.28,,14.4,1.186,79.0,,36.7,5.0,0.0,0.0,0.0,0.0,0.0,0.0,0.0,0.0,2.25,,,0,0,0,0,0,0,0,0,0,0,0,0,0,0,0,0,,0.0,,,,0.0,38.985802,-76.949882,0.04,52.9,31.0,3.0,0.8
350,346204,1745647500938,,,,,,,,,,,,,,,,,,,,,,,,,,,,,,,,,,0,0,0,0,0,0,0,0,0,0,0,0,0,0,0,0,,,,,,,,,,,,,
351,346224,1745647500958,0.0,86.0,,-0.06,-0.03,1.12,0.0,0.0,0.0,1.12,1.22,92.0,3601.0,15.0,4.12,,13.92,1.213,79.0,,36.7,5.0,,,,,,,,,,,,0,0,0,0,0,0,0,0,0,0,0,0,0,0,0,0,,,,,,0.0,,,,,,,
352,346244,1745647500978,,,,,,,,,,,,,,,,,,,,,,,,,,,,,,,,,,0,0,0,0,0,0,0,0,0,0,0,0,0,0,0,0,,,,,,,,,,,,,
353,346264,1745647500998,0.0,86.0,,-0.06,-0.03,1.09,0.0,0.0,0.0,1.09,1.22,89.0,3749.0,0.0,2.61,,12.99,1.206,79.0,,38.3,5.0,,,,,,,,,,,,0,0,0,0,0,0,0,0,0,0,0,0,0,0,0,0,,,,,,0.0,,,,,,,
354,346284,1745647501009,,,,,,,,,,,,,,,,,,,,,,,0.0,0.0,0.0,0.0,0.0,0.0,0.0,0.0,2.26,,,0,0,0,0,0,0,0,0,0,0,0,0,0,0,0,0,,0.0,,,,,38.985802,-76.949882,0.07,52.9,31.0,3.0,0.8
355,346304,1745647501029,0.0,86.0,,-0.07,-0.04,1.08,0.0,0.0,0.0,1.08,1.22,88.0,3634.0,0.0,2.59,,12.99,1.206,79.0,,38.3,5.0,,,,,,,,,,,,0,0,0,0,0,0,0,0,0,0,0,0,0,0,0,0,,,,,,0.0,,,,,,,
356,346324,1745647501049,,,,,,,,,,,,,,,,,,,,,,,,,,,,,,,,,,0,0,0,0,0,0,0,0,0,0,0,0,0,0,0,0,,,,,,,,,,,,,
357,346344,1745647501069,0.0,85.0,,-0.09,-0.05,1.1,0.0,0.0,0.0,1.11,1.22,90.0,3634.0,0.0,2.59,,12.51,1.183,79.0,,37.2,5.0,,,,,,,,,,,,0,0,0,0,0,0,0,0,0,0,0,0,0,0,0,0,,,,,,0.0,,,,,,,
358,346364,1745647501089,,,,,,,,,,,,,,,,,,,,,,,,,,,,,,,,,,0,0,0,0,0,0,0,0,0,0,0,0,0,0,0,0,,,,,,,,,,,,,
359,346384,1745647501115,0.0,86.0,14.12,-0.08,0.01,1.11,-1.0,0.0,1.0,1.12,1.22,91.0,3629.0,0.0,2.58,15.0,12.24,1.173,79.0,153.0,37.2,5.0,0.0,0.0,0.0,0.0,0.0,0.0,0.0,0.0,2.26,0.0,1.0,0,0,0,0,0,0,0,0,0,0,0,0,0,0,0,0,0.0,0.0,0.0,0.0,0.0,0.0,38.985802,-76.949882,0.0,52.9,31.0,3.0,0.8
360,346404,1745647501135,,,,,,,,,,,,,,,,,,,,,,,,,,,,,,,,,,0,0,0,0,0,0,0,0,0,0,0,0,0,0,0,0,,,,,,,,,,,,,
361,346424,1745647501155,0.0,86.0,,-0.07,0.04,1.05,0.0,0.0,0.0,1.06,1.22,86.0,3469.0,0.0,2.58,,12.09,1.117,79.0,,37.2,5.0,,,,,,,,,,,,0,0,0,0,0,0,0,0,0,0,0,0,0,0,0,0,,,,,,0.0,,,,,,,
362,346444,1745647501175,,,,,,,,,,,,,,,,,,,,,,,,,,,,,,,,,,0,0,0,0,0,0,0,0,0,0,0,0,0,0,0,0,,,,,,,,,,,,,
363,346464,1745647501195,0.0,86.0,,-0.09,-0.04,1.12,0.0,0.0,1.0,1.12,1.22,92.0,3337.0,0.0,2.6,,12.16,1.103,79.0,,37.2,5.0,,,,,,,,,,,,0,0,0,0,0,0,0,0,0,0,0,0,0,0,0,0,,,,,,0.0,,,,,,,
364,346484,1745647501215,,,,,,,,,,,,,,,,,,,,,,,0.0,0.0,0.0,0.0,0.0,0.0,0.0,0.0,2.26,,,0,0,0,0,0,0,0,0,0,0,0,0,0,0,0,0,,0.0,,,,,38.985802,-76.949882,0.06,52.9,31.0,3.0,0.8
365,346504,1745647501235,0.0,86.0,,-0.11,-0.04,1.07,0.0,0.0,0.0,1.08,1.22,88.0,3210.0,0.0,2.63,,12.16,1.103,79.0,,37.2,5.0,,,,,,,,,,,,0,0,0,0,0,0,0,0,0,0,0,0,0,0,0,0,,,,,,0.0,,,,,,,
366,346524,1745647501255,,,,,,,,,,,,,,,,,,,,,,,,,,,,,,,,,,0,0,0,0,0,0,0,0,0,0,0,0,0,0,0,0,,,,,,,,,,,,,
367,346544,1745647501275,0.0,85.0,,-0.1,0.02,1.0,0.0,0.0,0.0,1.0,1.22,82.0,3210.0,0.0,2.63,,12.17,1.145,79.0,,36.7,5.0,,,,,,,,,,,,0,0,0,0,0,0,0,0,0,0,0,0,0,0,0,0,,,,,,0.0,,,,,,,
368,346564,1745647501295,,,,,,,,,,,,,,,,,,,,,,,,,,,,,,,,,,0,0,0,0,0,0,0,0,0,0,0,0,0,0,0,0,,,,,,,,,,,,,
369,346584,1745647501317,0.0,85.0,,-0.1,0.03,0.94,0.0,0.0,0.0,0.94,1.22,77.0,2968.0,0.0,2.65,,12.32,1.173,79.0,,36.7,5.0,0.0,0.0,0.0,0.0,0.0,0.0,0.0,0.0,2.26,,,0,0,0,0,0,0,0,0,0,0,0,0,0,0,0,0,,0.0,,,,0.0,38.985802,-76.949882,0.05,52.9,31.0,3.0,0.8
370,346604,1745647501337,,,,,,,,,,,,,,,,,,,,,,,,,,,,,,,,,,0,0,0,0,0,0,0,0,0,0,0,0,0,0,0,0,,,,,,,,,,,,,
371,346624,1745647501357,0.0,85.0,,-0.1,0.05,0.87,0.0,0.0,0.0,0.88,1.22,72.0,3009.0,0.0,2.7,,12.4,1.168,79.0,,36.7,5.0,,,,,,,,,,,,0,0,0,0,0,0,0,0,0,0,0,0,0,0,0,0,,,,,,0.0,,,,,,,
372,346644,1745647501377,,,,,,,,,,,,,,,,,,,,,,,,,,,,,,,,,,0,0,0,0,0,0,0,0,0,0,0,0,0,0,0,0,,,,,,,,,,,,,
373,346664,1745647501397,0.0,85.0,,-0.09,0.08,0.82,0.0,0.0,0.0,0.83,1.22,68.0,3055.0,0.0,2.67,,12.45,1.226,79.0,,35.0,5.0,,,,,,,,,,,,0,0,0,0,0,0,0,0,0,0,0,0,0,0,0,0,,,,,,0.0,,,,,,,
374,346684,1745647501417,,,,,,,,,,,,,,,,,,,,,,,0.0,0.0,0.0,0.0,0.0,0.0,0.0,0.0,2.26,,,0,0,0,0,0,0,0,0,0,0,0,0,0,0,0,0,,0.0,,,,,38.985802,-76.949882,0.04,52.9,31.0,3.0,0.8
375,346704,1745647501437,0.0,85.0,,-0.09,0.08,0.79,0.0,0.0,0.0,0.8,1.22,65.0,2920.0,0.0,2.69,,12.45,1.226,79.0,,35.0,5.0,,,,,,,,,,,,0,0,0,0,0,0,0,0,0,0,0,0,0,0,0,0,,,,,,0.0,,,,,,,
376,346724,1745647501457,,,,,,,,,,,,,,,,,,,,,,,,,,,,,,,,,,0,0,0,0,0,0,0,0,0,0,0,0,0,0,0,0,,,,,,,,,,,,,
377,346744,1745647501477,0.0,86.0,,-0.11,0.05,0.83,0.0,0.0,0.0,0.84,1.22,69.0,2920.0,0.0,2.69,,12.49,1.196,79.0,,33.6,5.0,,,,,,,,,,,,0,0,0,0,0,0,0,0,0,0,0,0,0,0,0,0,,,,,,0.0,,,,,,,
378,346764,1745647501497,,,,,,,,,,,,,,,,,,,,,,,,,,,,,,,,,,0,0,0,0,0,0,0,0,0,0,0,0,0,0,0,0,,,,,,,,,,,,,
379,346784,1745647501517,0.0,86.0,,-0.11,0.06,0.87,0.0,0.0,0.0,0.88,1.22,72.0,2808.0,9.3,2.77,,12.92,1.135,79.0,,33.6,5.0,0.0,0.0,0.0,0.0,0.0,0.0,0.0,0.0,2.26,,,0,0,0,0,0,0,0,0,0,0,0,0,0,0,0,0,,0.0,,,,0.0,38.985802,-76.949882,0.0,52.8,31.0,3.0,0.8
380,346804,1745647501537,,,,,,,,,,,,,,,,,,,,,,,,,,,,,,,,,,0,0,0,0,0,0,0,0,0,0,0,0,0,0,0,0,,,,,,,,,,,,,
381,346824,1745647501557,0.0,86.0,,-0.11,0.07,0.87,0.0,0.0,0.0,0.88,1.22,72.0,2618.0,41.5,5.21,,14.36,1.123,79.0,,33.6,5.0,,,,,,,,,,,,0,0,0,0,0,0,0,0,0,0,0,0,0,0,0,0,,,,,,0.0,,,,,,,
