,Interval,Utc,FrontBP,SteerAng,Battery,AccelX,AccelY,AccelZ,Yaw,Pitch,Roll,Gsum,GsumMax,GsumPct,RPM,TPS,InjectorPW,Baro,MAP,Lambda,IAT,EngineTemp,EOP,EOT,WSFR,WSFL,WSRR,WSRL,TCSet,TCSlip,TCComp,TCCut,Analog8,OilTemp,AA_On,ThermLF1,ThermLF2,ThermRR1,ThermRR2,ThermLF3,ThermLF4,ThermLF5,ThermLF6,ThermLF7,ThermLF8,ThermRR3,ThermRR4,ThermRR5,ThermRR6,ThermRR7,ThermRR8,AA_LowDrag,Gear,AA_On1,AA_LowDrag1,Fuel_Mix,AA_Packages,Latitude,Longitude,Speed,Altitude,GPSSats,GPSQual,GPSDOP
0,1103511,1745649340142,0.0,84.0,,-0.2,0.18,1.02,4.0,0.0,-1.0,1.06,1.06,100.0,8919.0,29.2,1.84,,5.54,0.87,73.6,,40.2,5.0,,,,,,,,,,,,0,0,0,0,0,0,0,0,0,0,0,0,0,0,0,0,,,,,,0.0,,,,,,,
1,1103531,1745649340162,,,,,,,,,,,,,,,,,,,,,,,,,,,,,,,,,,0,0,0,0,0,0,0,0,0,0,0,0,0,0,0,0,,,,,,,,,,,,,
2,1103551,1745649340182,0.0,84.0,,-0.18,0.02,1.07,4.0,0.0,-1.0,1.09,1.09,100.0,8879.0,25.1,1.82,,5.54,0.87,73.6,,40.2,5.0,,,,,,,,,,,,0,0,0,0,0,0,0,0,0,0,0,0,0,0,0,0,,,,,,0.0,,,,,,,
3,1103571,1745649340200,,,,,,,,,,,,,,,,,,,,,,,,,,,,,,,,,,0,0,0,0,0,0,0,0,0,0,0,0,0,0,0,0,,,,,,,,,,,,,
4,1103591,1745649340220,0.0,84.0,,-0.17,-0.08,1.05,2.0,0.0,-1.0,1.07,1.09,98.0,8879.0,25.1,1.82,,5.59,0.884,73.6,,40.0,5.0,0.0,438.0,0.0,0.0,0.0,24.0,0.0,0.0,2.26,,,0,0,0,0,0,0,0,0,0,0,0,0,0,0,0,0,,0.0,,,,0.0,38.985794,-76.949982,0.04,49.1,30.0,3.0,0.8
5,1103611,1745649340240,,,,,,,,,,,,,,,,,,,,,,,,,,,,,,,,,,0,0,0,0,0,0,0,0,0,0,0,0,0,0,0,0,,,,,,,,,,,,,
6,1103631,1745649340260,0.0,84.0,,-0.14,-0.03,0.99,1.0,0.0,0.0,1.0,1.09,92.0,8879.0,21.3,1.94,,5.68,0.903,73.6,,40.0,5.0,,,,,,,,,,,,0,0,0,0,0,0,0,0,0,0,0,0,0,0,0,0,,,,,,0.0,,,,,,,
7,1103651,1745649340280,,,,,,,,,,,,,,,,,,,,,,,,,,,,,,,,,,0,0,0,0,0,0,0,0,0,0,0,0,0,0,0,0,,,,,,,,,,,,,
8,1103671,1745649340304,0.0,84.0,,-0.11,0.15,0.99,1.0,0.0,0.0,1.0,1.09,92.0,8854.0,17.8,2.01,,5.78,0.946,73.6,,40.0,5.0,,,,,,,,,,,,0,0,0,0,0,0,0,0,0,0,0,0,0,0,0,0,,,,,,0.0,,,,,,,
9,1103691,1745649340324,,,,,,,,,,,,,,,,,,,,,,,0.0,46.0,0.0,0.0,0.0,24.0,0.0,0.0,2.27,,,0,0,0,0,0,0,0,0,0,0,0,0,0,0,0,0,,0.0,,,,,38.985794,-76.949982,0.04,49.1,30.0,3.0,0.8
10,1103711,1745649340344,0.0,84.0,,-0.09,0.1,1.01,2.0,0.0,0.0,1.02,1.09,94.0,8782.0,14.3,1.87,,5.72,0.965,73.6,,39.9,5.0,,,,,,,,,,,,0,0,0,0,0,0,0,0,0,0,0,0,0,0,0,0,,,,,,0.0,,,,,,,
11,1103731,1745649340364,,,,,,,,,,,,,,,,,,,,,,,,,,,,,,,,,,0,0,0,0,0,0,0,0,0,0,0,0,0,0,0,0,,,,,,,,,,,,,
12,1103751,1745649340384,0.0,84.0,,-0.05,-0.05,1.01,2.0,0.0,0.0,1.01,1.09,93.0,8732.0,11.1,1.83,,5.72,0.965,73.6,,39.9,5.0,,,,,,,,,,,,0,0,0,0,0,0,0,0,0,0,0,0,0,0,0,0,,,,,,0.0,,,,,,,
13,1103771,1745649340405,,,,,,,,,,,,,,,,,,,,,,,,,,,,,,,,,,0,0,0,0,0,0,0,0,0,0,0,0,0,0,0,0,,,,,,,,,,,,,
14,1103791,1745649340425,0.0,84.0,,-0.06,0.13,0.97,2.0,0.0,0.0,0.98,1.09,90.0,8732.0,11.1,1.83,,5.88,0.976,73.6,,40.0,5.0,0.0,91.0,0.0,0.0,0.0,24.0,0.0,0.0,2.26,,,0,0,0,0,0,0,0,0,0,0,0,0,0,0,0,0,,0.0,,,,0.0,38.985794,-76.949982,0.1,49.1,30.0,3.0,0.8
15,1103811,1745649340445,,,,,,,,,,,,,,,,,,,,,,,,,,,,,,,,,,0,0,0,0,0,0,0,0,0,0,0,0,0,0,0,0,,,,,,,,,,,,,
16,1103831,1745649340465,0.0,84.0,,-0.06,0.08,0.97,2.0,0.0,0.0,0.97,1.09,89.0,8569.0,8.0,1.89,,5.91,1.001,73.6,,40.0,5.0,,,,,,,,,,,,0,0,0,0,0,0,0,0,0,0,0,0,0,0,0,0,,,,,,0.0,,,,,,,
17,1103851,1745649340485,,,,,,,,,,,,,,,,,,,,,,,,,,,,,,,,,,0,0,0,0,0,0,0,0,0,0,0,0,0,0,0,0,,,,,,,,,,,,,
18,1103871,1745649340502,0.0,83.0,,-0.05,0.05,1.01,1.0,0.0,0.0,1.01,1.09,93.0,8420.0,5.0,1.76,,6.14,1.033,73.6,,40.0,5.0,,,,,,,,,,,,0,0,0,0,0,0,0,0,0,0,0,0,0,0,0,0,,,,,,0.0,,,,,,,
19,1103891,1745649340522,,,,,,,,,,,,,,,,,,,,,,,0.0,91.0,0.0,0.0,0.0,24.0,0.0,0.0,2.26,,,0,0,0,0,0,0,0,0,0,0,0,0,0,0,0,0,,0.0,,,,,38.985794,-76.949982,0.08,49.1,30.0,3.0,0.8
20,1103911,1745649340542,0.0,84.0,,-0.05,0.04,0.98,1.0,0.0,0.0,0.98,1.09,90.0,8138.0,2.2,1.4,,6.38,1.076,73.6,,39.9,5.0,,,,,,,,,,,,0,0,0,0,0,0,0,0,0,0,0,0,0,0,0,0,,,,,,0.0,,,,,,,
21,1103931,1745649340562,,,,,,,,,,,,,,,,,,,,,,,,,,,,,,,,,,0,0,0,0,0,0,0,0,0,0,0,0,0,0,0,0,,,,,,,,,,,,,
22,1103951,1745649340582,0.0,84.0,,-0.07,-0.11,1.01,1.0,0.0,0.0,1.02,1.09,94.0,7693.0,0.0,1.4,,6.38,1.076,73.6,,39.9,5.0,,,,,,,,,,,,0,0,0,0,0,0,0,0,0,0,0,0,0,0,0,0,,,,,,0.0,,,,,,,
23,1103971,1745649340602,,,,,,,,,,,,,,,,,,,,,,,,,,,,,,,,,,0,0,0,0,0,0,0,0,0,0,0,0,0,0,0,0,,,,,,,,,,,,,
24,1103991,1745649340622,0.0,84.0,,-0.09,-0.16,0.97,0.0,0.0,0.0,0.98,1.09,90.0,7693.0,0.0,1.4,,6.79,1.106,73.6,,39.7,5.0,0.0,49.0,0.0,0.0,0.0,0.0,0.0,0.0,2.26,,,0,0,0,0,0,0,0,0,0,0,0,0,0,0,0,0,,0.0,,,,0.0,38.985794,-76.949982,0.05,49.1,30.0,3.0,0.8
25,1104011,1745649340642,,,,,,,,,,,,,,,,,,,,,,,,,,,,,,,,,,0,0,0,0,0,0,0,0,0,0,0,0,0,0,0,0,,,,,,,,,,,,,
26,1104031,1745649340662,0.0,84.0,,-0.06,-0.12,0.97,0.0,0.0,0.0,0.98,1.09,90.0,7131.0,0.0,1.4,,7.45,1.208,73.6,,39.7,5.0,,,,,,,,,,,,0,0,0,0,0,0,0,0,0,0,0,0,0,0,0,0,,,,,,0.0,,,,,,,
27,1104051,1745649340682,,,,,,,,,,,,,,,,,,,,,,,,,,,,,,,,,,0,0,0,0,0,0,0,0,0,0,0,0,0,0,0,0,,,,,,,,,,,,,
28,1104071,1745649340701,0.0,84.0,,-0.08,-0.1,0.95,-1.0,0.0,0.0,0.95,1.09,88.0,6721.0,0.0,1.4,,8.21,1.254,73.6,,39.7,5.0,,,,,,,,,,,,0,0,0,0,0,0,0,0,0,0,0,0,0,0,0,0,,,,,,0.0,,,,,,,
29,1104091,1745649340721,,,,,,,,,,,,,,,,,,,,,,,0.0,6.0,0.0,0.0,0.0,24.0,0.0,0.0,2.26,,,0,0,0,0,0,0,0,0,0,0,0,0,0,0,0,0,,0.0,,,,,38.985794,-76.949982,0.08,49.1,30.0,3.0,0.8
30,1104111,1745649340741,0.0,84.0,,-0.05,-0.1,0.99,1.0,0.0,0.0,1.0,1.09,92.0,6230.0,0.0,1.4,,8.77,1.254,73.6,,39.6,5.0,,,,,,,,,,,,0,0,0,0,0,0,0,0,0,0,0,0,0,0,0,0,,,,,,0.0,,,,,,,
31,1104131,1745649340761,,,,,,,,,,,,,,,,,,,,,,,,,,,,,,,,,,0,0,0,0,0,0,0,0,0,0,0,0,0,0,0,0,,,,,,,,,,,,,
32,1104151,1745649340781,0.0,84.0,,-0.02,-0.05,1.04,2.0,0.0,0.0,1.04,1.09,95.0,5896.0,0.0,1.4,,8.77,1.254,75.4,,39.6,5.0,,,,,,,,,,,,0,0,0,0,0,0,0,0,0,0,0,0,0,0,0,0,,,,,,0.0,,,,,,,
33,1104171,1745649340805,,,,,,,,,,,,,,,,,,,,,,,,,,,,,,,,,,0,0,0,0,0,0,0,0,0,0,0,0,0,0,0,0,,,,,,,,,,,,,
34,1104191,1745649340825,0.0,84.0,,-0.05,-0.03,0.99,2.0,0.0,0.0,0.99,1.09,91.0,5896.0,0.0,1.4,,9.42,1.255,75.4,,38.0,5.0,0.0,24.0,0.0,0.0,0.0,0.0,0.0,0.0,2.26,,,0,0,0,0,0,0,0,0,0,0,0,0,0,0,0,0,,0.0,,,,0.0,38.985794,-76.949982,0.0,49.1,30.0,3.0,0.8
35,1104211,1745649340845,,,,,,,,,,,,,,,,,,,,,,,,,,,,,,,,,,0,0,0,0,0,0,0,0,0,0,0,0,0,0,0,0,,,,,,,,,,,,,
36,1104231,1745649340865,0.0,84.0,,-0.06,0.04,1.01,2.0,0.0,0.0,1.02,1.09,93.0,5461.0,0.0,1.4,,10.04,1.256,75.4,,38.0,5.0,,,,,,,,,,,,0,0,0,0,0,0,0,0,0,0,0,0,0,0,0,0,,,,,,0.0,,,,,,,
37,1104251,1745649340885,,,,,,,,,,,,,,,,,,,,,,,,,,,,,,,,,,0,0,0,0,0,0,0,0,0,0,0,0,0,0,0,0,,,,,,,,,,,,,
38,1104271,1745649340903,0.0,84.0,,-0.04,-0.05,0.96,2.0,0.0,-1.0,0.97,1.09,89.0,5104.0,0.0,1.64,,10.66,1.256,75.4,,38.0,5.0,,,,,,,,,,,,0,0,0,0,0,0,0,0,0,0,0,0,0,0,0,0,,,,,,0.0,,,,,,,
39,1104291,1745649340923,,,,,,,,,,,,,,,,,,,,,,,0.0,3.0,0.0,0.0,0.0,0.0,0.0,0.0,2.26,,,0,0,0,0,0,0,0,0,0,0,0,0,0,0,0,0,,0.0,,,,,38.985794,-76.949982,0.08,49.1,30.0,3.0,0.8
40,1104311,1745649340943,0.0,84.0,,-0.0,0.08,1.07,2.0,0.0,0.0,1.07,1.09,98.0,4732.0,0.0,2.32,,11.21,1.255,75.4,,33.9,5.0,,,,,,,,,,,,0,0,0,0,0,0,0,0,0,0,0,0,0,0,0,0,,,,,,0.0,,,,,,,
41,1104331,1745649340963,,,,,,,,,,,,,,,,,,,,,,,,,,,,,,,,,,0,0,0,0,0,0,0,0,0,0,0,0,0,0,0,0,,,,,,,,,,,,,
42,1104351,1745649340983,0.0,84.0,,0.03,0.13,1.08,2.0,0.0,-1.0,1.09,1.09,100.0,4342.0,0.0,2.44,,11.21,1.255,75.4,,33.9,5.0,,,,,,,,,,,,0,0,0,0,0,0,0,0,0,0,0,0,0,0,0,0,,,,,,0.0,,,,,,,
43,1104371,1745649340997,,,,,,,,,,,,,,,,,,,,,,,,,,,,,,,,,,0,0,0,0,0,0,0,0,0,0,0,0,0,0,0,0,,,,,,,,,,,,,
44,1104391,1745649341017,0.0,84.0,13.52,-0.0,0.02,1.04,2.0,0.0,-1.0,1.04,1.09,95.0,4342.0,0.0,2.44,15.0,11.54,1.253,75.4,191.0,28.4,5.0,0.0,3.0,0.0,0.0,0.0,0.0,0.0,0.0,2.26,0.0,1.0,0,0,0,0,0,0,0,0,0,0,0,0,0,0,0,0,0.0,0.0,0.0,0.0,0.0,0.0,38.985794,-76.949982,0.07,49.1,30.0,3.0,0.8
45,1104411,1745649341037,,,,,,,,,,,,,,,,,,,,,,,,,,,,,,,,,,0,0,0,0,0,0,0,0,0,0,0,0,0,0,0,0,,,,,,,,,,,,,
46,1104431,1745649341057,0.0,84.0,,0.0,0.02,1.03,2.0,0.0,-1.0,1.03,1.09,94.0,4041.0,0.0,2.48,,11.84,1.253,75.4,,28.4,5.0,,,,,,,,,,,,0,0,0,0,0,0,0,0,0,0,0,0,0,0,0,0,,,,,,0.0,,,,,,,
47,1104451,1745649341077,,,,,,,,,,,,,,,,,,,,,,,,,,,,,,,,,,0,0,0,0,0,0,0,0,0,0,0,0,0,0,0,0,,,,,,,,,,,,,
48,1104471,1745649341103,0.0,84.0,,0.01,0.09,1.05,1.0,0.0,0.0,1.05,1.09,97.0,3610.0,0.0,2.55,,12.09,1.254,75.4,,28.4,5.0,,,,,,,,,,,,0,0,0,0,0,0,0,0,0,0,0,0,0,0,0,0,,,,,,0.0,,,,,,,
49,1104491,1745649341123,,,,,,,,,,,,,,,,,,,,,,,0.0,3.0,0.0,0.0,0.0,24.0,0.0,0.0,2.26,,,0,0,0,0,0,0,0,0,0,0,0,0,0,0,0,0,,0.0,,,,,38.985794,-76.949982,0.11,49.1,30.0,3.0,0.8
50,1104511,1745649341143,0.0,84.0,,-0.01,0.05,1.0,2.0,0.0,-1.0,1.0,1.09,92.0,3405.0,0.0,2.6,,12.55,1.253,75.4,,23.8,5.0,,,,,,,,,,,,0,0,0,0,0,0,0,0,0,0,0,0,0,0,0,0,,,,,,0.0,,,,,,,
51,1104531,1745649341163,,,,,,,,,,,,,,,,,,,,,,,,,,,,,,,,,,0,0,0,0,0,0,0,0,0,0,0,0,0,0,0,0,,,,,,,,,,,,,
52,1104551,1745649341183,0.0,84.0,,-0.01,0.09,0.94,2.0,0.0,-1.0,0.95,1.09,87.0,3170.0,0.0,2.66,,12.55,1.253,75.4,,23.8,5.0,,,,,,,,,,,,0,0,0,0,0,0,0,0,0,0,0,0,0,0,0,0,,,,,,0.0,,,,,,,
53,1104571,1745649341205,,,,,,,,,,,,,,,,,,,,,,,,,,,,,,,,,,0,0,0,0,0,0,0,0,0,0,0,0,0,0,0,0,,,,,,,,,,,,,
54,1104591,1745649341225,0.0,84.0,,0.01,0.1,0.91,2.0,0.0,-1.0,0.91,1.09,84.0,3170.0,0.0,2.66,,12.84,1.254,75.4,,20.6,5.0,0.0,9.0,0.0,0.0,0.0,24.0,0.0,0.0,2.26,,,0,0,0,0,0,0,0,0,0,0,0,0,0,0,0,0,,0.0,,,,0.0,38.985794,-76.949982,0.08,49.1,30.0,3.0,0.8
55,1104611,1745649341245,,,,,,,,,,,,,,,,,,,,,,,,,,,,,,,,,,0,0,0,0,0,0,0,0,0,0,0,0,0,0,0,0,,,,,,,,,,,,,
56,1104631,1745649341265,0.0,83.0,,0.0,0.1,0.9,2.0,0.0,-1.0,0.91,1.09,83.0,2966.0,0.0,2.7,,13.24,1.255,75.4,,20.6,5.0,,,,,,,,,,,,0,0,0,0,0,0,0,0,0,0,0,0,0,0,0,0,,,,,,0.0,,,,,,,
57,1104651,1745649341285,,,,,,,,,,,,,,,,,,,,,,,,,,,,,,,,,,0,0,0,0,0,0,0,0,0,0,0,0,0,0,0,0,,,,,,,,,,,,,
58,1104671,1745649341303,0.0,83.0,,-0.01,0.09,0.92,2.0,0.0,-1.0,0.92,1.09,85.0,2655.0,0.0,2.86,,13.68,1.254,75.4,,20.6,5.0,,,,,,,,,,,,0,0,0,0,0,0,0,0,0,0,0,0,0,0,0,0,,,,,,0.0,,,,,,,
59,1104691,1745649341323,,,,,,,,,,,,,,,,,,,,,,,0.0,9.0,0.0,0.0,0.0,24.0,0.0,0.0,2.26,,,0,0,0,0,0,0,0,0,0,0,0,0,0,0,0,0,,0.0,,,,,38.985794,-76.949982,0.07,49.1,30.0,3.0,0.8
60,1104711,1745649341343,0.0,83.0,,-0.02,0.07,0.94,2.0,0.0,0.0,0.94,1.09,86.0,2419.0,0.0,2.98,,13.92,1.254,75.4,,17.6,5.0,,,,,,,,,,,,0,0,0,0,0,0,0,0,0,0,0,0,0,0,0,0,,,,,,0.0,,,,,,,
61,1104731,1745649341363,,,,,,,,,,,,,,,,,,,,,,,,,,,,,,,,,,0,0,0,0,0,0,0,0,0,0,0,0,0,0,0,0,,,,,,,,,,,,,
62,1104751,1745649341383,0.0,83.0,,-0.03,0.06,0.94,1.0,0.0,0.0,0.94,1.09,87.0,2186.0,0.0,3.14,,13.92,1.254,75.4,,17.6,5.0,,,,,,,,,,,,0,0,0,0,0,0,0,0,0,0,0,0,0,0,0,0,,,,,,0.0,,,,,,,
63,1104771,1745649341403,,,,,,,,,,,,,,,,,,,,,,,,,,,,,,,,,,0,0,0,0,0,0,0,0,0,0,0,0,0,0,0,0,,,,,,,,,,,,,
64,1104791,1745649341423,0.0,83.0,,-0.04,0.04,0.94,1.0,0.0,0.0,0.94,1.09,86.0,2186.0,0.0,3.14,,14.06,1.255,75.4,,15.6,5.0,0.0,9.0,0.0,0.0,0.0,24.0,0.0,0.0,2.26,,,0,0,0,0,0,0,0,0,0,0,0,0,0,0,0,0,,0.0,,,,0.0,38.985794,-76.949982,0.04,49.1,30.0,3.0,0.8
65,1104811,1745649341443,,,,,,,,,,,,,,,,,,,,,,,,,,,,,,,,,,0,0,0,0,0,0,0,0,0,0,0,0,0,0,0,0,,,,,,,,,,,,,
66,1104831,1745649341463,0.0,83.0,,-0.03,0.03,0.95,1.0,0.0,0.0,0.95,1.09,87.0,2188.0,0.0,3.22,,14.12,1.256,75.4,,15.6,5.0,,,,,,,,,,,,0,0,0,0,0,0,0,0,0,0,0,0,0,0,0,0,,,,,,0.0,,,,,,,
67,1104851,1745649341483,,,,,,,,,,,,,,,,,,,,,,,,,,,,,,,,,,0,0,0,0,0,0,0,0,0,0,0,0,0,0,0,0,,,,,,,,,,,,,
68,1104871,1745649341505,0.0,83.0,,-0.03,0.02,0.95,1.0,0.0,0.0,0.95,1.09,87.0,2073.0,0.0,3.32,,14.14,1.255,75.4,,15.6,5.0,,,,,,,,,,,,0,0,0,0,0,0,0,0,0,0,0,0,0,0,0,0,,,,,,0.0,,,,,,,
69,1104891,1745649341525,,,,,,,,,,,,,,,,,,,,,,,0.0,9.0,0.0,0.0,0.0,24.0,0.0,0.0,2.27,,,0,0,0,0,0,0,0,0,0,0,0,0,0,0,0,0,,0.0,,,,,38.985794,-76.949982,0.04,49.1,30.0,3.0,0.8
70,1104911,1745649341545,0.0,83.0,,-0.04,0.01,0.95,1.0,0.0,0.0,0.95,1.09,87.0,1966.0,0.0,3.34,,14.24,1.255,75.4,,14.3,5.0,,,,,,,,,,,,0,0,0,0,0,0,0,0,0,0,0,0,0,0,0,0,,,,,,0.0,,,,,,,
71,1104931,1745649341565,,,,,,,,,,,,,,,,,,,,,,,,,,,,,,,,,,0,0,0,0,0,0,0,0,0,0,0,0,0,0,0,0,,,,,,,,,,,,,
72,1104951,1745649341585,0.0,83.0,,-0.04,-0.01,0.95,1.0,0.0,0.0,0.95,1.09,87.0,1815.0,0.0,3.34,,14.24,1.255,75.4,,14.3,5.0,,,,,,,,,,,,0,0,0,0,0,0,0,0,0,0,0,0,0,0,0,0,,,,,,0.0,,,,,,,
73,1104971,1745649341605,,,,,,,,,,,,,,,,,,,,,,,,,,,,,,,,,,0,0,0,0,0,0,0,0,0,0,0,0,0,0,0,0,,,,,,,,,,,,,
74,1104991,1745649341625,0.0,83.0,,-0.05,-0.0,0.97,1.0,0.0,0.0,0.97,1.09,89.0,1815.0,0.0,3.34,,14.31,1.255,75.4,,14.1,5.0,0.0,9.0,0.0,0.0,0.0,24.0,0.0,0.0,2.26,,,0,0,0,0,0,0,0,0,0,0,0,0,0,0,0,0,,0.0,,,,0.0,38.985794,-76.949982,0.04,49.1,30.0,3.0,0.8
75,1105011,1745649341645,,,,,,,,,,,,,,,,,,,,,,,,,,,,,,,,,,0,0,0,0,0,0,0,0,0,0,0,0,0,0,0,0,,,,,,,,,,,,,
76,1105031,1745649341665,0.0,83.0,,-0.05,-0.01,0.96,1.0,0.0,0.0,0.96,1.09,89.0,1833.0,0.0,3.34,,14.3,1.255,75.4,,14.1,5.0,,,,,,,,,,,,0,0,0,0,0,0,0,0,0,0,0,0,0,0,0,0,,,,,,0.0,,,,,,,
77,1105051,1745649341685,,,,,,,,,,,,,,,,,,,,,,,,,,,,,,,,,,0,0,0,0,0,0,0,0,0,0,0,0,0,0,0,0,,,,,,,,,,,,,
78,1105071,1745649341704,0.0,83.0,,-0.06,-0.01,0.98,1.0,0.0,0.0,0.98,1.09,90.0,1949.0,0.0,3.35,,14.4,1.255,75.4,,14.1,5.0,,,,,,,,,,,,0,0,0,0,0,0,0,0,0,0,0,0,0,0,0,0,,,,,,0.0,,,,,,,
79,1105091,1745649341724,,,,,,,,,,,,,,,,,,,,,,,0.0,9.0,0.0,0.0,0.0,24.0,0.0,0.0,2.27,,,0,0,0,0,0,0,0,0,0,0,0,0,0,0,0,0,,0.0,,,,,38.985794,-76.949982,0.1,49.1,30.0,3.0,0.8
80,1105111,1745649341744,0.0,83.0,,-0.04,-0.01,0.97,1.0,0.0,0.0,0.97,1.09,90.0,1929.0,0.0,3.36,,14.44,1.255,75.4,,13.6,5.0,,,,,,,,,,,,0,0,0,0,0,0,0,0,0,0,0,0,0,0,0,0,,,,,,0.0,,,,,,,
81,1105131,1745649341764,,,,,,,,,,,,,,,,,,,,,,,,,,,,,,,,,,0,0,0,0,0,0,0,0,0,0,0,0,0,0,0,0,,,,,,,,,,,,,
82,1105151,1745649341784,0.0,83.0,,-0.05,-0.02,0.98,1.0,0.0,0.0,0.98,1.09,90.0,1794.0,0.0,3.36,,14.44,1.255,77.2,,13.6,5.0,,,,,,,,,,,,0,0,0,0,0,0,0,0,0,0,0,0,0,0,0,0,,,,,,0.0,,,,,,,
83,1105171,1745649341804,,,,,,,,,,,,,,,,,,,,,,,,,,,,,,,,,,0,0,0,0,0,0,0,0,0,0,0,0,0,0,0,0,,,,,,,,,,,,,
84,1105191,1745649341824,0.0,84.0,,-0.04,-0.02,0.98,1.0,0.0,0.0,0.98,1.09,90.0,1794.0,0.0,3.36,,14.4,1.255,77.2,,14.0,5.0,0.0,9.0,0.0,0.0,0.0,24.0,0.0,0.0,2.26,,,0,0,0,0,0,0,0,0,0,0,0,0,0,0,0,0,,0.0,,,,0.0,38.985794,-76.949982,0.04,49.1,30.0,3.0,0.8
85,1105211,1745649341844,,,,,,,,,,,,,,,,,,,,,,,,,,,,,,,,,,0,0,0,0,0,0,0,0,0,0,0,0,0,0,0,0,,,,,,,,,,,,,
86,1105231,1745649341864,0.0,83.0,,-0.04,-0.01,0.98,1.0,0.0,0.0,0.98,1.09,90.0,1847.0,0.0,3.36,,14.44,1.255,77.2,,14.0,5.0,,,,,,,,,,,,0,0,0,0,0,0,0,0,0,0,0,0,0,0,0,0,,,,,,0.0,,,,,,,
87,1105251,1745649341884,,,,,,,,,,,,,,,,,,,,,,,,,,,,,,,,,,0,0,0,0,0,0,0,0,0,0,0,0,0,0,0,0,,,,,,,,,,,,,
88,1105271,1745649341904,0.0,83.0,,-0.04,-0.02,0.99,0.0,0.0,0.0,0.99,1.09,91.0,1796.0,0.0,3.36,,14.44,1.255,77.2,,14.0,5.0,,,,,,,,,,,,0,0,0,0,0,0,0,0,0,0,0,0,0,0,0,0,,,,,,0.0,,,,,,,
89,1105291,1745649341924,,,,,,,,,,,,,,,,,,,,,,,0.0,9.0,0.0,0.0,0.0,0.0,0.0,0.0,2.26,,,0,0,0,0,0,0,0,0,0,0,0,0,0,0,0,0,,0.0,,,,,38.985794,-76.949982,0.04,49.1,30.0,3.0,0.8
90,1105311,1745649341944,0.0,83.0,,-0.05,-0.02,0.99,0.0,0.0,0.0,0.99,1.09,91.0,1937.0,0.0,3.36,,14.43,1.255,77.2,,13.5,5.0,,,,,,,,,,,,0,0,0,0,0,0,0,0,0,0,0,0,0,0,0,0,,,,,,0.0,,,,,,,
91,1105331,1745649341964,,,,,,,,,,,,,,,,,,,,,,,,,,,,,,,,,,0,0,0,0,0,0,0,0,0,0,0,0,0,0,0,0,,,,,,,,,,,,,
92,1105351,1745649341984,0.0,83.0,,-0.05,-0.01,1.0,0.0,0.0,0.0,1.0,1.09,92.0,1994.0,0.0,3.36,,14.43,1.255,77.2,,13.5,5.0,,,,,,,,,,,,0,0,0,0,0,0,0,0,0,0,0,0,0,0,0,0,,,,,,0.0,,,,,,,
93,1105371,1745649341998,,,,,,,,,,,,,,,,,,,,,,,,,,,,,,,,,,0,0,0,0,0,0,0,0,0,0,0,0,0,0,0,0,,,,,,,,,,,,,
94,1105391,1745649342018,0.0,83.0,13.55,-0.06,-0.01,0.98,0.0,0.0,0.0,0.99,1.09,91.0,1994.0,0.0,3.36,15.0,14.44,1.256,77.2,191.0,13.7,5.0,0.0,0.0,0.0,0.0,0.0,0.0,0.0,0.0,2.26,0.0,1.0,0,0,0,0,0,0,0,0,0,0,0,0,0,0,0,0,0.0,0.0,0.0,0.0,0.0,0.0,38.985794,-76.949982,0.04,49.1,30.0,3.0,0.8
95,1105411,1745649342038,,,,,,,,,,,,,,,,,,,,,,,,,,,,,,,,,,0,0,0,0,0,0,0,0,0,0,0,0,0,0,0,0,,,,,,,,,,,,,
96,1105431,1745649342058,0.0,83.0,,-0.06,-0.03,1.0,0.0,0.0,0.0,1.0,1.09,92.0,1890.0,0.0,3.35,,14.42,1.255,77.2,,13.7,5.0,,,,,,,,,,,,0,0,0,0,0,0,0,0,0,0,0,0,0,0,0,0,,,,,,0.0,,,,,,,
97,1105451,1745649342078,,,,,,,,,,,,,,,,,,,,,,,,,,,,,,,,,,0,0,0,0,0,0,0,0,0,0,0,0,0,0,0,0,,,,,,,,,,,,,
98,1105471,1745649342104,0.0,83.0,,-0.06,-0.02,1.0,0.0,0.0,0.0,1.0,1.09,92.0,1876.0,0.0,3.35,,14.42,1.254,77.2,,13.7,5.0,,,,,,,,,,,,0,0,0,0,0,0,0,0,0,0,0,0,0,0,0,0,,,,,,0.0,,,,,,,
99,1105491,1745649342124,,,,,,,,,,,,,,,,,,,,,,,0.0,0.0,0.0,0.0,0.0,0.0,0.0,0.0,2.26,,,0,0,0,0,0,0,0,0,0,0,0,0,0,0,0,0,,0.0,,,,,38.985794,-76.949982,0.07,49.1,30.0,3.0,0.8
100,1105511,1745649342144,0.0,83.0,,-0.04,-0.02,1.01,0.0,0.0,0.0,1.01,1.09,93.0,1940.0,0.0,3.36,,14.47,1.255,77.2,,14.0,5.0,,,,,,,,,,,,0,0,0,0,0,0,0,0,0,0,0,0,0,0,0,0,,,,,,0.0,,,,,,,
101,1105531,1745649342164,,,,,,,,,,,,,,,,,,,,,,,,,,,,,,,,,,0,0,0,0,0,0,0,0,0,0,0,0,0,0,0,0,,,,,,,,,,,,,
102,1105551,1745649342184,0.0,83.0,,-0.05,-0.03,1.0,0.0,0.0,0.0,1.0,1.09,92.0,1974.0,0.0,3.36,,14.47,1.255,77.2,,14.0,5.0,,,,,,,,,,,,0,0,0,0,0,0,0,0,0,0,0,0,0,0,0,0,,,,,,0.0,,,,,,,
103,1105571,1745649342202,,,,,,,,,,,,,,,,,,,,,,,,,,,,,,,,,,0,0,0,0,0,0,0,0,0,0,0,0,0,0,0,0,,,,,,,,,,,,,
104,1105591,1745649342222,0.0,83.0,,-0.04,-0.03,1.0,0.0,0.0,0.0,1.0,1.09,92.0,1974.0,0.0,3.36,,14.48,1.254,77.2,,14.0,5.0,0.0,0.0,0.0,0.0,0.0,0.0,0.0,0.0,2.27,,,0,0,0,0,0,0,0,0,0,0,0,0,0,0,0,0,,0.0,,,,0.0,38.985794,-76.949982,0.04,49.1,30.0,3.0,0.8
105,1105611,1745649342242,,,,,,,,,,,,,,,,,,,,,,,,,,,,,,,,,,0,0,0,0,0,0,0,0,0,0,0,0,0,0,0,0,,,,,,,,,,,,,
106,1105631,1745649342262,0.0,83.0,,-0.05,-0.03,0.99,0.0,0.0,0.0,0.99,1.09,91.0,1964.0,0.0,3.36,,14.51,1.255,77.2,,14.0,5.0,,,,,,,,,,,,0,0,0,0,0,0,0,0,0,0,0,0,0,0,0,0,,,,,,0.0,,,,,,,
107,1105651,1745649342282,,,,,,,,,,,,,,,,,,,,,,,,,,,,,,,,,,0,0,0,0,0,0,0,0,0,0,0,0,0,0,0,0,,,,,,,,,,,,,
108,1105671,1745649342304,0.0,84.0,,-0.05,-0.04,1.0,0.0,0.0,0.0,1.0,1.09,92.0,1806.0,0.0,3.36,,14.55,1.255,77.2,,14.0,5.0,,,,,,,,,,,,0,0,0,0,0,0,0,0,0,0,0,0,0,0,0,0,,,,,,0.0,,,,,,,
109,1105691,1745649342324,,,,,,,,,,,,,,,,,,,,,,,0.0,0.0,0.0,0.0,0.0,0.0,0.0,0.0,2.26,,,0,0,0,0,0,0,0,0,0,0,0,0,0,0,0,0,,0.0,,,,,38.985794,-76.949982,0.08,49.1,30.0,3.0,0.8
110,1105711,1745649342344,0.0,83.0,,-0.05,-0.03,0.98,0.0,0.0,0.0,0.99,1.09,91.0,1782.0,0.0,3.36,,14.55,1.255,77.2,,13.7,5.0,,,,,,,,,,,,0,0,0,0,0,0,0,0,0,0,0,0,0,0,0,0,,,,,,0.0,,,,,,,
111,1105731,1745649342364,,,,,,,,,,,,,,,,,,,,,,,,,,,,,,,,,,0,0,0,0,0,0,0,0,0,0,0,0,0,0,0,0,,,,,,,,,,,,,
112,1105751,1745649342384,0.0,83.0,,-0.05,-0.04,1.0,0.0,0.0,0.0,1.0,1.09,92.0,1956.0,0.0,3.36,,14.55,1.255,77.2,,13.7,5.0,,,,,,,,,,,,0,0,0,0,0,0,0,0,0,0,0,0,0,0,0,0,,,,,,0.0,,,,,,,
113,1105771,1745649342404,,,,,,,,,,,,,,,,,,,,,,,,,,,,,,,,,,0,0,0,0,0,0,0,0,0,0,0,0,0,0,0,0,,,,,,,,,,,,,
114,1105791,1745649342424,0.0,83.0,,-0.05,-0.05,0.99,0.0,0.0,0.0,0.99,1.09,91.0,1956.0,0.0,3.36,,14.4,1.255,77.2,,13.9,5.0,0.0,0.0,0.0,0.0,0.0,0.0,0.0,0.0,2.26,,,0,0,0,0,0,0,0,0,0,0,0,0,0,0,0,0,,0.0,,,,0.0,38.985794,-76.949982,0.04,49.1,30.0,3.0,0.8
115,1105811,1745649342444,,,,,,,,,,,,,,,,,,,,,,,,,,,,,,,,,,0,0,0,0,0,0,0,0,0,0,0,0,0,0,0,0,,,,,,,,,,,,,
116,1105831,1745649342464,0.0,83.0,,-0.05,-0.04,1.01,0.0,0.0,0.0,1.01,1.09,93.0,1941.0,0.0,3.35,,14.3,1.256,77.2,,13.9,5.0,,,,,,,,,,,,0,0,0,0,0,0,0,0,0,0,0,0,0,0,0,0,,,,,,0.0,,,,,,,
117,1105851,1745649342484,,,,,,,,,,,,,,,,,,,,,,,,,,,,,,,,,,0,0,0,0,0,0,0,0,0,0,0,0,0,0,0,0,,,,,,,,,,,,,
118,1105871,1745649342504,0.0,83.0,,-0.05,-0.04,1.0,0.0,0.0,0.0,1.0,1.09,92.0,1789.0,0.0,3.35,,14.23,1.256,77.2,,13.9,5.0,,,,,,,,,,,,0,0,0,0,0,0,0,0,0,0,0,0,0,0,0,0,,,,,,0.0,,,,,,,
119,1105891,1745649342524,,,,,,,,,,,,,,,,,,,,,,,0.0,0.0,0.0,0.0,0.0,0.0,0.0,0.0,2.26,,,0,0,0,0,0,0,0,0,0,0,0,0,0,0,0,0,,0.0,,,,,38.985794,-76.949982,0.04,49.1,30.0,3.0,0.8
120,1105911,1745649342544,0.0,83.0,,-0.03,-0.03,1.0,0.0,0.0,0.0,1.01,1.09,92.0,1781.0,0.0,3.34,,14.26,1.256,77.2,,13.7,5.0,,,,,,,,,,,,0,0,0,0,0,0,0,0,0,0,0,0,0,0,0,0,,,,,,0.0,,,,,,,
121,1105931,1745649342564,,,,,,,,,,,,,,,,,,,,,,,,,,,,,,,,,,0,0,0,0,0,0,0,0,0,0,0,0,0,0,0,0,,,,,,,,,,,,,
122,1105951,1745649342584,0.0,84.0,,-0.04,-0.04,0.99,0.0,0.0,0.0,0.99,1.09,91.0,1877.0,0.0,3.34,,14.26,1.256,77.2,,13.7,5.0,,,,,,,,,,,,0,0,0,0,0,0,0,0,0,0,0,0,0,0,0,0,,,,,,0.0,,,,,,,
123,1105971,1745649342606,,,,,,,,,,,,,,,,,,,,,,,,,,,,,,,,,,0,0,0,0,0,0,0,0,0,0,0,0,0,0,0,0,,,,,,,,,,,,,
124,1105991,1745649342626,0.0,83.0,,-0.04,-0.05,0.99,0.0,0.0,0.0,1.0,1.09,91.0,1877.0,0.0,3.34,,14.2,1.255,77.2,,13.9,5.0,0.0,2.0,0.0,0.0,0.0,0.0,0.0,0.0,2.26,,,0,0,0,0,0,0,0,0,0,0,0,0,0,0,0,0,,0.0,,,,0.0,38.985794,-76.949982,0.08,49.1,30.0,3.0,0.8
125,1106011,1745649342646,,,,,,,,,,,,,,,,,,,,,,,,,,,,,,,,,,0,0,0,0,0,0,0,0,0,0,0,0,0,0,0,0,,,,,,,,,,,,,
126,1106031,1745649342666,0.0,83.0,,-0.05,-0.02,0.98,0.0,0.0,0.0,0.98,1.09,90.0,1924.0,0.0,3.35,,14.36,1.255,77.2,,13.9,5.0,,,,,,,,,,,,0,0,0,0,0,0,0,0,0,0,0,0,0,0,0,0,,,,,,0.0,,,,,,,
127,1106051,1745649342686,,,,,,,,,,,,,,,,,,,,,,,,,,,,,,,,,,0,0,0,0,0,0,0,0,0,0,0,0,0,0,0,0,,,,,,,,,,,,,
128,1106071,1745649342703,0.0,83.0,,-0.03,-0.03,0.98,0.0,0.0,0.0,0.98,1.09,90.0,1824.0,0.0,3.35,,14.48,1.254,77.2,,13.9,5.0,,,,,,,,,,,,0,0,0,0,0,0,0,0,0,0,0,0,0,0,0,0,,,,,,0.0,,,,,,,
129,1106091,1745649342723,,,,,,,,,,,,,,,,,,,,,,,0.0,1.0,0.0,0.0,0.0,0.0,0.0,0.0,2.26,,,0,0,0,0,0,0,0,0,0,0,0,0,0,0,0,0,,0.0,,,,,38.985794,-76.949982,0.04,49.1,30.0,3.0,0.8
130,1106111,1745649342743,0.0,83.0,,-0.02,-0.03,0.99,0.0,0.0,0.0,0.99,1.09,91.0,1570.0,0.0,3.36,,14.44,1.255,77.2,,12.7,5.0,,,,,,,,,,,,0,0,0,0,0,0,0,0,0,0,0,0,0,0,0,0,,,,,,0.0,,,,,,,
131,1106131,1745649342763,,,,,,,,,,,,,,,,,,,,,,,,,,,,,,,,,,0,0,0,0,0,0,0,0,0,0,0,0,0,0,0,0,,,,,,,,,,,,,
132,1106151,1745649342783,0.0,83.0,,-0.03,-0.02,0.98,0.0,0.0,0.0,0.98,1.09,90.0,1825.0,0.0,3.35,,14.44,1.255,77.2,,12.7,5.0,,,,,,,,,,,,0,0,0,0,0,0,0,0,0,0,0,0,0,0,0,0,,,,,,0.0,,,,,,,
133,1106171,1745649342806,,,,,,,,,,,,,,,,,,,,,,,,,,,,,,,,,,0,0,0,0,0,0,0,0,0,0,0,0,0,0,0,0,,,,,,,,,,,,,
134,1106191,1745649342826,0.0,83.0,,-0.03,-0.03,0.99,0.0,0.0,0.0,0.99,1.09,91.0,1825.0,0.0,3.35,,14.47,1.255,77.2,,13.8,5.0,0.0,3.0,0.0,0.0,0.0,0.0,0.0,0.0,2.26,,,0,0,0,0,0,0,0,0,0,0,0,0,0,0,0,0,,0.0,,,,0.0,38.985794,-76.949982,0.08,49.1,30.0,3.0,0.8
135,1106211,1745649342846,,,,,,,,,,,,,,,,,,,,,,,,,,,,,,,,,,0,0,0,0,0,0,0,0,0,0,0,0,0,0,0,0,,,,,,,,,,,,,
136,1106231,1745649342866,0.0,83.0,,-0.04,-0.05,0.99,0.0,0.0,0.0,0.99,1.09,91.0,1900.0,0.0,3.36,,14.46,1.254,77.2,,13.8,5.0,,,,,,,,,,,,0,0,0,0,0,0,0,0,0,0,0,0,0,0,0,0,,,,,,0.0,,,,,,,
137,1106251,1745649342886,,,,,,,,,,,,,,,,,,,,,,,,,,,,,,,,,,0,0,0,0,0,0,0,0,0,0,0,0,0,0,0,0,,,,,,,,,,,,,
138,1106271,1745649342903,0.0,83.0,,-0.03,-0.05,0.99,0.0,0.0,0.0,1.0,1.09,91.0,1943.0,0.0,3.36,,14.43,1.255,77.2,,13.8,5.0,,,,,,,,,,,,0,0,0,0,0,0,0,0,0,0,0,0,0,0,0,0,,,,,,0.0,,,,,,,
139,1106291,1745649342923,,,,,,,,,,,,,,,,,,,,,,,0.0,5.0,0.0,0.0,0.0,0.0,0.0,0.0,2.26,,,0,0,0,0,0,0,0,0,0,0,0,0,0,0,0,0,,0.0,,,,,38.985794,-76.949982,0.05,49.1,30.0,3.0,0.8
140,1106311,1745649342943,0.0,83.0,,-0.04,-0.04,1.0,0.0,0.0,0.0,1.0,1.09,92.0,1839.0,0.0,3.35,,14.42,1.254,77.2,,13.6,5.0,,,,,,,,,,,,0,0,0,0,0,0,0,0,0,0,0,0,0,0,0,0,,,,,,0.0,,,,,,,
141,1106331,1745649342963,,,,,,,,,,,,,,,,,,,,,,,,,,,,,,,,,,0,0,0,0,0,0,0,0,0,0,0,0,0,0,0,0,,,,,,,,,,,,,
142,1106351,1745649342983,0.0,83.0,,-0.03,-0.05,1.0,0.0,0.0,0.0,1.01,1.09,92.0,1878.0,0.0,3.35,,14.42,1.254,77.2,,13.6,5.0,,,,,,,,,,,,0,0,0,0,0,0,0,0,0,0,0,0,0,0,0,0,,,,,,0.0,,,,,,,
143,1106371,1745649342997,,,,,,,,,,,,,,,,,,,,,,,,,,,,,,,,,,0,0,0,0,0,0,0,0,0,0,0,0,0,0,0,0,,,,,,,,,,,,,
144,1106391,1745649343017,0.0,83.0,13.53,-0.04,-0.05,0.99,0.0,0.0,0.0,0.99,1.09,91.0,1878.0,0.0,3.35,15.0,14.4,1.256,77.2,187.0,14.4,5.0,0.0,5.0,0.0,0.0,0.0,0.0,0.0,0.0,2.26,0.0,1.0,0,0,0,0,0,0,0,0,0,0,0,0,0,0,0,0,0.0,0.0,0.0,0.0,0.0,0.0,38.985794,-76.949982,0.0,49.1,30.0,3.0,0.8
145,1106411,1745649343037,,,,,,,,,,,,,,,,,,,,,,,,,,,,,,,,,,0,0,0,0,0,0,0,0,0,0,0,0,0,0,0,0,,,,,,,,,,,,,
146,1106431,1745649343057,0.0,83.0,,-0.02,-0.04,1.0,0.0,0.0,0.0,1.0,1.09,92.0,1982.0,0.0,3.35,,14.42,1.257,77.2,,14.4,5.0,,,,,,,,,,,,0,0,0,0,0,0,0,0,0,0,0,0,0,0,0,0,,,,,,0.0,,,,,,,
147,1106451,1745649343077,,,,,,,,,,,,,,,,,,,,,,,,,,,,,,,,,,0,0,0,0,0,0,0,0,0,0,0,0,0,0,0,0,,,,,,,,,,,,,
148,1106471,1745649343101,0.0,83.0,,-0.03,-0.05,0.98,0.0,0.0,0.0,0.98,1.09,90.0,1952.0,0.0,3.36,,14.46,1.255,77.2,,14.4,5.0,,,,,,,,,,,,0,0,0,0,0,0,0,0,0,0,0,0,0,0,0,0,,,,,,0.0,,,,,,,
149,1106491,1745649343121,,,,,,,,,,,,,,,,,,,,,,,0.0,1.0,0.0,0.0,0.0,0.0,0.0,0.0,2.26,,,0,0,0,0,0,0,0,0,0,0,0,0,0,0,0,0,,0.0,,,,,38.985794,-76.949982,0.0,49.2,30.0,3.0,0.8
150,1106511,1745649343141,0.0,83.0,,-0.03,-0.06,0.98,0.0,0.0,0.0,0.98,1.09,90.0,1996.0,0.0,3.36,,14.47,1.254,77.2,,13.8,5.0,,,,,,,,,,,,0,0,0,0,0,0,0,0,0,0,0,0,0,0,0,0,,,,,,0.0,,,,,,,
151,1106531,1745649343161,,,,,,,,,,,,,,,,,,,,,,,,,,,,,,,,,,0,0,0,0,0,0,0,0,0,0,0,0,0,0,0,0,,,,,,,,,,,,,
152,1106551,1745649343181,0.0,83.0,,-0.04,-0.05,0.98,0.0,0.0,0.0,0.98,1.09,90.0,1861.0,0.0,3.36,,14.47,1.254,77.2,,13.8,5.0,,,,,,,,,,,,0,0,0,0,0,0,0,0,0,0,0,0,0,0,0,0,,,,,,0.0,,,,,,,
153,1106571,1745649343203,,,,,,,,,,,,,,,,,,,,,,,,,,,,,,,,,,0,0,0,0,0,0,0,0,0,0,0,0,0,0,0,0,,,,,,,,,,,,,
154,1106591,1745649343223,0.0,83.0,,-0.05,-0.04,0.98,0.0,0.0,0.0,0.99,1.09,90.0,1861.0,0.0,3.36,,14.52,1.254,77.2,,14.2,5.0,0.0,16.0,0.0,0.0,0.0,0.0,0.0,0.0,2.26,,,0,0,0,0,0,0,0,0,0,0,0,0,0,0,0,0,,0.0,,,,0.0,38.985794,-76.949982,0.05,49.2,30.0,3.0,0.8
155,1106611,1745649343243,,,,,,,,,,,,,,,,,,,,,,,,,,,,,,,,,,0,0,0,0,0,0,0,0,0,0,0,0,0,0,0,0,,,,,,,,,,,,,
156,1106631,1745649343263,0.0,83.0,,-0.04,-0.03,0.99,0.0,0.0,0.0,0.99,1.09,91.0,1876.0,0.0,3.36,,14.56,1.255,77.2,,14.2,5.0,,,,,,,,,,,,0,0,0,0,0,0,0,0,0,0,0,0,0,0,0,0,,,,,,0.0,,,,,,,
157,1106651,1745649343283,,,,,,,,,,,,,,,,,,,,,,,,,,,,,,,,,,0,0,0,0,0,0,0,0,0,0,0,0,0,0,0,0,,,,,,,,,,,,,
158,1106671,1745649343303,0.0,83.0,,-0.05,-0.03,1.0,0.0,0.0,0.0,1.0,1.09,92.0,1919.0,0.0,3.36,,14.32,1.255,77.2,,14.2,5.0,,,,,,,,,,,,0,0,0,0,0,0,0,0,0,0,0,0,0,0,0,0,,,,,,0.0,,,,,,,
159,1106691,1745649343323,,,,,,,,,,,,,,,,,,,,,,,0.0,2.0,0.0,0.0,0.0,0.0,0.0,0.0,2.26,,,0,0,0,0,0,0,0,0,0,0,0,0,0,0,0,0,,0.0,,,,,38.985794,-76.949982,0.04,49.2,30.0,3.0,0.8
160,1106711,1745649343343,0.0,83.0,,-0.04,-0.02,1.0,0.0,0.0,0.0,1.0,1.09,92.0,1957.0,0.0,3.35,,14.16,1.255,77.2,,13.5,5.0,,,,,,,,,,,,0,0,0,0,0,0,0,0,0,0,0,0,0,0,0,0,,,,,,0.0,,,,,,,
161,1106731,1745649343363,,,,,,,,,,,,,,,,,,,,,,,,,,,,,,,,,,0,0,0,0,0,0,0,0,0,0,0,0,0,0,0,0,,,,,,,,,,,,,
162,1106751,1745649343383,0.0,83.0,,-0.04,-0.01,1.01,0.0,0.0,0.0,1.01,1.09,92.0,2013.0,0.0,3.34,,14.16,1.255,77.2,,13.5,5.0,,,,,,,,,,,,0,0,0,0,0,0,0,0,0,0,0,0,0,0,0,0,,,,,,0.0,,,,,,,
163,1106771,1745649343405,,,,,,,,,,,,,,,,,,,,,,,,,,,,,,,,,,0,0,0,0,0,0,0,0,0,0,0,0,0,0,0,0,,,,,,,,,,,,,
164,1106791,1745649343425,0.0,83.0,,-0.03,-0.02,1.02,0.0,0.0,0.0,1.02,1.09,94.0,2013.0,0.0,3.34,,14.12,1.255,77.2,,14.0,5.0,0.0,8.0,0.0,0.0,0.0,24.0,0.0,0.0,2.26,,,0,0,0,0,0,0,0,0,0,0,0,0,0,0,0,0,,0.0,,,,0.0,38.985794,-76.949982,0.05,49.2,30.0,3.0,0.8
165,1106811,1745649343445,,,,,,,,,,,,,,,,,,,,,,,,,,,,,,,,,,0,0,0,0,0,0,0,0,0,0,0,0,0,0,0,0,,,,,,,,,,,,,
166,1106831,1745649343465,0.0,83.0,,-0.04,-0.03,1.0,0.0,0.0,0.0,1.0,1.09,92.0,1935.0,0.0,3.33,,14.3,1.255,77.2,,14.0,5.0,,,,,,,,,,,,0,0,0,0,0,0,0,0,0,0,0,0,0,0,0,0,,,,,,0.0,,,,,,,
167,1106851,1745649343485,,,,,,,,,,,,,,,,,,,,,,,,,,,,,,,,,,0,0,0,0,0,0,0,0,0,0,0,0,0,0,0,0,,,,,,,,,,,,,
168,1106871,1745649343505,0.0,83.0,,-0.03,-0.02,1.0,0.0,0.0,0.0,1.0,1.09,92.0,1859.0,0.0,3.35,,14.52,1.255,77.2,,14.0,5.0,,,,,,,,,,,,0,0,0,0,0,0,0,0,0,0,0,0,0,0,0,0,,,,,,0.0,,,,,,,
169,1106891,1745649343525,,,,,,,,,,,,,,,,,,,,,,,0.0,8.0,0.0,0.0,0.0,24.0,0.0,0.0,2.26,,,0,0,0,0,0,0,0,0,0,0,0,0,0,0,0,0,,0.0,,,,,38.985794,-76.949982,0.04,49.2,30.0,3.0,0.8
170,1106911,1745649343545,0.0,83.0,,-0.02,-0.01,1.0,0.0,0.0,0.0,1.0,1.09,92.0,1992.0,0.0,3.36,,14.48,1.256,77.2,,14.3,5.0,,,,,,,,,,,,0,0,0,0,0,0,0,0,0,0,0,0,0,0,0,0,,,,,,0.0,,,,,,,
171,1106931,1745649343565,,,,,,,,,,,,,,,,,,,,,,,,,,,,,,,,,,0,0,0,0,0,0,0,0,0,0,0,0,0,0,0,0,,,,,,,,,,,,,
172,1106951,1745649343585,0.0,83.0,,-0.03,-0.01,0.99,0.0,0.0,0.0,1.0,1.09,91.0,1965.0,0.0,3.35,,14.48,1.256,77.2,,14.3,5.0,,,,,,,,,,,,0,0,0,0,0,0,0,0,0,0,0,0,0,0,0,0,,,,,,0.0,,,,,,,
173,1106971,1745649343606,,,,,,,,,,,,,,,,,,,,,,,,,,,,,,,,,,0,0,0,0,0,0,0,0,0,0,0,0,0,0,0,0,,,,,,,,,,,,,
174,1106991,1745649343626,0.0,83.0,,-0.04,-0.01,0.99,0.0,0.0,0.0,0.99,1.09,91.0,1965.0,0.0,3.35,,14.47,1.255,77.2,,13.5,5.0,0.0,8.0,0.0,0.0,0.0,0.0,0.0,0.0,2.26,,,0,0,0,0,0,0,0,0,0,0,0,0,0,0,0,0,,0.0,,,,0.0,38.985794,-76.949982,0.05,49.2,30.0,3.0,0.8
175,1107011,1745649343646,,,,,,,,,,,,,,,,,,,,,,,,,,,,,,,,,,0,0,0,0,0,0,0,0,0,0,0,0,0,0,0,0,,,,,,,,,,,,,
176,1107031,1745649343666,0.0,83.0,,-0.05,-0.0,0.99,0.0,0.0,0.0,1.0,1.09,91.0,1978.0,0.0,3.36,,14.44,1.254,77.2,,13.5,5.0,,,,,,,,,,,,0,0,0,0,0,0,0,0,0,0,0,0,0,0,0,0,,,,,,0.0,,,,,,,
177,1107051,1745649343686,,,,,,,,,,,,,,,,,,,,,,,,,,,,,,,,,,0,0,0,0,0,0,0,0,0,0,0,0,0,0,0,0,,,,,,,,,,,,,
178,1107071,1745649343704,0.0,83.0,,-0.04,-0.01,1.0,0.0,0.0,0.0,1.0,1.09,92.0,1856.0,0.0,3.36,,14.4,1.253,77.2,,13.5,5.0,,,,,,,,,,,,0,0,0,0,0,0,0,0,0,0,0,0,0,0,0,0,,,,,,0.0,,,,,,,
179,1107091,1745649343724,,,,,,,,,,,,,,,,,,,,,,,0.0,3.0,0.0,0.0,0.0,0.0,0.0,0.0,2.27,,,0,0,0,0,0,0,0,0,0,0,0,0,0,0,0,0,,0.0,,,,,38.985794,-76.949982,0.04,49.2,30.0,3.0,0.8
180,1107111,1745649343744,0.0,83.0,,-0.05,-0.02,0.99,0.0,0.0,0.0,0.99,1.09,91.0,1923.0,0.0,3.32,,14.22,1.254,77.2,,14.3,5.0,,,,,,,,,,,,0,0,0,0,0,0,0,0,0,0,0,0,0,0,0,0,,,,,,0.0,,,,,,,
181,1107131,1745649343764,,,,,,,,,,,,,,,,,,,,,,,,,,,,,,,,,,0,0,0,0,0,0,0,0,0,0,0,0,0,0,0,0,,,,,,,,,,,,,
182,1107151,1745649343784,0.0,83.0,,-0.05,-0.03,1.0,0.0,0.0,0.0,1.0,1.09,92.0,1982.0,0.0,3.34,,14.22,1.254,77.2,,14.3,5.0,,,,,,,,,,,,0,0,0,0,0,0,0,0,0,0,0,0,0,0,0,0,,,,,,0.0,,,,,,,
183,1107171,1745649343804,,,,,,,,,,,,,,,,,,,,,,,,,,,,,,,,,,0,0,0,0,0,0,0,0,0,0,0,0,0,0,0,0,,,,,,,,,,,,,
184,1107191,1745649343824,0.0,83.0,,-0.06,-0.04,1.0,0.0,0.0,0.0,1.0,1.09,92.0,1982.0,0.0,3.34,,14.03,1.254,77.2,,14.4,5.0,0.0,3.0,0.0,0.0,0.0,0.0,0.0,0.0,2.26,,,0,0,0,0,0,0,0,0,0,0,0,0,0,0,0,0,,0.0,,,,0.0,38.985794,-76.949982,0.05,49.2,30.0,3.0,0.8
185,1107211,1745649343844,,,,,,,,,,,,,,,,,,,,,,,,,,,,,,,,,,0,0,0,0,0,0,0,0,0,0,0,0,0,0,0,0,,,,,,,,,,,,,
186,1107231,1745649343864,0.0,83.0,,-0.07,-0.02,1.0,0.0,0.0,0.0,1.0,1.09,92.0,2038.0,0.0,3.33,,14.14,1.255,77.2,,14.4,5.0,,,,,,,,,,,,0,0,0,0,0,0,0,0,0,0,0,0,0,0,0,0,,,,,,0.0,,,,,,,
187,1107251,1745649343884,,,,,,,,,,,,,,,,,,,,,,,,,,,,,,,,,,0,0,0,0,0,0,0,0,0,0,0,0,0,0,0,0,,,,,,,,,,,,,
188,1107271,1745649343904,0.0,83.0,,-0.07,-0.03,1.02,0.0,0.0,0.0,1.02,1.09,94.0,2033.0,0.0,3.35,,14.48,1.254,77.2,,14.4,5.0,,,,,,,,,,,,0,0,0,0,0,0,0,0,0,0,0,0,0,0,0,0,,,,,,0.0,,,,,,,
189,1107291,1745649343924,,,,,,,,,,,,,,,,,,,,,,,0.0,2.0,0.0,0.0,0.0,0.0,0.0,0.0,2.26,,,0,0,0,0,0,0,0,0,0,0,0,0,0,0,0,0,,0.0,,,,,38.985794,-76.949982,0.05,49.2,30.0,3.0,0.8
190,1107311,1745649343944,0.0,83.0,,-0.06,-0.05,1.02,0.0,0.0,0.0,1.02,1.09,94.0,1936.0,0.0,3.34,,14.48,1.255,77.2,,13.9,5.0,,,,,,,,,,,,0,0,0,0,0,0,0,0,0,0,0,0,0,0,0,0,,,,,,0.0,,,,,,,
191,1107331,1745649343964,,,,,,,,,,,,,,,,,,,,,,,,,,,,,,,,,,0,0,0,0,0,0,0,0,0,0,0,0,0,0,0,0,,,,,,,,,,,,,
192,1107351,1745649343984,0.0,83.0,,-0.07,-0.03,1.03,0.0,0.0,0.0,1.03,1.09,95.0,1874.0,0.0,3.34,,14.48,1.255,77.2,,13.9,5.0,,,,,,,,,,,,0,0,0,0,0,0,0,0,0,0,0,0,0,0,0,0,,,,,,0.0,,,,,,,
193,1107371,1745649343998,,,,,,,,,,,,,,,,,,,,,,,,,,,,,,,,,,0,0,0,0,0,0,0,0,0,0,0,0,0,0,0,0,,,,,,,,,,,,,
194,1107391,1745649344018,0.0,83.0,13.56,-0.07,-0.03,1.01,0.0,0.0,0.0,1.02,1.09,93.0,1874.0,0.0,3.34,15.0,14.44,1.255,77.2,183.0,14.1,5.0,0.0,4.0,0.0,0.0,0.0,0.0,0.0,0.0,2.26,0.0,1.0,0,0,0,0,0,0,0,0,0,0,0,0,0,0,0,0,0.0,0.0,0.0,0.0,0.0,0.0,38.985794,-76.949982,0.0,49.2,30.0,3.0,0.8
195,1107411,1745649344038,,,,,,,,,,,,,,,,,,,,,,,,,,,,,,,,,,0,0,0,0,0,0,0,0,0,0,0,0,0,0,0,0,,,,,,,,,,,,,
196,1107431,1745649344058,0.0,83.0,,-0.06,-0.03,1.02,0.0,0.0,0.0,1.02,1.09,94.0,1924.0,0.0,3.36,,14.36,1.255,77.2,,14.1,5.0,,,,,,,,,,,,0,0,0,0,0,0,0,0,0,0,0,0,0,0,0,0,,,,,,0.0,,,,,,,
197,1107451,1745649344078,,,,,,,,,,,,,,,,,,,,,,,,,,,,,,,,,,0,0,0,0,0,0,0,0,0,0,0,0,0,0,0,0,,,,,,,,,,,,,
198,1107471,1745649344100,0.0,83.0,,-0.05,-0.03,1.01,0.0,0.0,0.0,1.01,1.09,93.0,1937.0,0.0,3.35,,14.2,1.255,77.2,,14.1,5.0,,,,,,,,,,,,0,0,0,0,0,0,0,0,0,0,0,0,0,0,0,0,,,,,,0.0,,,,,,,
199,1107491,1745649344120,,,,,,,,,,,,,,,,,,,,,,,0.0,4.0,0.0,0.0,0.0,0.0,0.0,0.0,2.26,,,0,0,0,0,0,0,0,0,0,0,0,0,0,0,0,0,,0.0,,,,,38.985794,-76.949982,0.05,49.2,30.0,3.0,0.8
200,1107511,1745649344140,0.0,82.0,,-0.05,-0.03,0.99,0.0,0.0,0.0,1.0,1.09,92.0,1983.0,0.0,3.34,,14.16,1.256,77.2,,13.5,5.0,,,,,,,,,,,,0,0,0,0,0,0,0,0,0,0,0,0,0,0,0,0,,,,,,0.0,,,,,,,
201,1107531,1745649344160,,,,,,,,,,,,,,,,,,,,,,,,,,,,,,,,,,0,0,0,0,0,0,0,0,0,0,0,0,0,0,0,0,,,,,,,,,,,,,
202,1107551,1745649344180,0.0,83.0,,-0.05,-0.04,1.0,0.0,0.0,0.0,1.0,1.09,92.0,1892.0,0.0,3.33,,14.16,1.256,77.2,,13.5,5.0,,,,,,,,,,,,0,0,0,0,0,0,0,0,0,0,0,0,0,0,0,0,,,,,,0.0,,,,,,,
203,1107571,1745649344202,,,,,,,,,,,,,,,,,,,,,,,,,,,,,,,,,,0,0,0,0,0,0,0,0,0,0,0,0,0,0,0,0,,,,,,,,,,,,,
204,1107591,1745649344222,0.0,83.0,,-0.07,-0.04,0.98,0.0,0.0,0.0,0.98,1.09,90.0,1892.0,0.0,3.33,,14.19,1.255,77.2,,14.5,5.0,0.0,0.0,0.0,0.0,0.0,0.0,0.0,0.0,2.26,,,0,0,0,0,0,0,0,0,0,0,0,0,0,0,0,0,,0.0,,,,0.0,38.985794,-76.949982,0.05,49.2,30.0,3.0,0.8
205,1107611,1745649344242,,,,,,,,,,,,,,,,,,,,,,,,,,,,,,,,,,0,0,0,0,0,0,0,0,0,0,0,0,0,0,0,0,,,,,,,,,,,,,
206,1107631,1745649344262,0.0,83.0,,-0.07,-0.04,0.99,0.0,0.0,0.0,1.0,1.09,91.0,1956.0,0.0,3.31,,14.08,1.255,77.2,,14.5,5.0,,,,,,,,,,,,0,0,0,0,0,0,0,0,0,0,0,0,0,0,0,0,,,,,,0.0,,,,,,,
207,1107651,1745649344282,,,,,,,,,,,,,,,,,,,,,,,,,,,,,,,,,,0,0,0,0,0,0,0,0,0,0,0,0,0,0,0,0,,,,,,,,,,,,,
208,1107671,1745649344302,0.0,83.0,,-0.06,-0.03,0.99,0.0,0.0,0.0,0.99,1.09,91.0,1973.0,0.0,3.34,,13.94,1.255,77.2,,14.5,5.0,,,,,,,,,,,,0,0,0,0,0,0,0,0,0,0,0,0,0,0,0,0,,,,,,0.0,,,,,,,
209,1107691,1745649344322,,,,,,,,,,,,,,,,,,,,,,,0.0,0.0,0.0,0.0,0.0,0.0,0.0,0.0,2.25,,,0,0,0,0,0,0,0,0,0,0,0,0,0,0,0,0,,0.0,,,,,38.985794,-76.949982,0.04,49.2,30.0,3.0,0.8
210,1107711,1745649344342,0.0,83.0,,-0.07,-0.04,1.0,0.0,0.0,0.0,1.01,1.09,92.0,1951.0,0.0,3.33,,13.8,1.253,77.2,,14.1,5.0,,,,,,,,,,,,0,0,0,0,0,0,0,0,0,0,0,0,0,0,0,0,,,,,,0.0,,,,,,,
211,1107731,1745649344362,,,,,,,,,,,,,,,,,,,,,,,,,,,,,,,,,,0,0,0,0,0,0,0,0,0,0,0,0,0,0,0,0,,,,,,,,,,,,,
212,1107751,1745649344382,0.0,83.0,,-0.07,-0.05,1.0,0.0,0.0,0.0,1.0,1.09,92.0,1972.0,0.0,3.31,,13.8,1.253,77.2,,14.1,5.0,,,,,,,,,,,,0,0,0,0,0,0,0,0,0,0,0,0,0,0,0,0,,,,,,0.0,,,,,,,
213,1107771,1745649344405,,,,,,,,,,,,,,,,,,,,,,,,,,,,,,,,,,0,0,0,0,0,0,0,0,0,0,0,0,0,0,0,0,,,,,,,,,,,,,
214,1107791,1745649344425,0.0,83.0,,-0.08,-0.04,1.01,0.0,0.0,0.0,1.01,1.09,93.0,1972.0,0.0,3.31,,13.77,1.253,77.2,,13.9,5.0,0.0,0.0,0.0,0.0,0.0,0.0,0.0,0.0,2.26,,,0,0,0,0,0,0,0,0,0,0,0,0,0,0,0,0,,0.0,,,,0.0,38.985798,-76.949982,0.04,49.2,30.0,3.0,0.8
215,1107811,1745649344445,,,,,,,,,,,,,,,,,,,,,,,,,,,,,,,,,,0,0,0,0,0,0,0,0,0,0,0,0,0,0,0,0,,,,,,,,,,,,,
216,1107831,1745649344465,0.0,83.0,,-0.06,-0.03,1.0,0.0,0.0,0.0,1.0,1.09,92.0,1904.0,0.0,3.31,,14.14,1.253,77.2,,13.9,5.0,,,,,,,,,,,,0,0,0,0,0,0,0,0,0,0,0,0,0,0,0,0,,,,,,0.0,,,,,,,
217,1107851,1745649344485,,,,,,,,,,,,,,,,,,,,,,,,,,,,,,,,,,0,0,0,0,0,0,0,0,0,0,0,0,0,0,0,0,,,,,,,,,,,,,
218,1107871,1745649344504,0.0,83.0,,-0.07,-0.03,1.01,0.0,0.0,0.0,1.01,1.09,93.0,1858.0,0.0,3.36,,14.5,1.255,77.2,,13.9,5.0,,,,,,,,,,,,0,0,0,0,0,0,0,0,0,0,0,0,0,0,0,0,,,,,,0.0,,,,,,,
219,1107891,1745649344524,,,,,,,,,,,,,,,,,,,,,,,0.0,1.0,0.0,0.0,0.0,0.0,0.0,0.0,2.26,,,0,0,0,0,0,0,0,0,0,0,0,0,0,0,0,0,,0.0,,,,,38.985798,-76.949982,0.07,49.2,30.0,3.0,0.8
220,1107911,1745649344544,0.0,82.0,,-0.05,-0.04,1.01,0.0,0.0,0.0,1.02,1.09,93.0,2002.0,0.0,3.36,,14.48,1.254,77.2,,14.5,5.0,,,,,,,,,,,,0,0,0,0,0,0,0,0,0,0,0,0,0,0,0,0,,,,,,0.0,,,,,,,
221,1107931,1745649344564,,,,,,,,,,,,,,,,,,,,,,,,,,,,,,,,,,0,0,0,0,0,0,0,0,0,0,0,0,0,0,0,0,,,,,,,,,,,,,
222,1107951,1745649344584,0.0,82.0,,-0.06,-0.05,1.0,0.0,0.0,0.0,1.0,1.09,92.0,1972.0,0.0,3.36,,14.48,1.254,77.2,,14.5,5.0,,,,,,,,,,,,0,0,0,0,0,0,0,0,0,0,0,0,0,0,0,0,,,,,,0.0,,,,,,,
223,1107971,1745649344604,,,,,,,,,,,,,,,,,,,,,,,,,,,,,,,,,,0,0,0,0,0,0,0,0,0,0,0,0,0,0,0,0,,,,,,,,,,,,,
224,1107991,1745649344624,0.0,82.0,,-0.04,-0.03,1.01,0.0,0.0,0.0,1.01,1.09,93.0,1972.0,0.0,3.36,,14.5,1.255,77.2,,13.5,5.0,0.0,1.0,0.0,0.0,0.0,0.0,0.0,0.0,2.26,,,0,0,0,0,0,0,0,0,0,0,0,0,0,0,0,0,,0.0,,,,0.0,38.985798,-76.949982,0.06,49.2,30.0,3.0,0.8
225,1108011,1745649344644,,,,,,,,,,,,,,,,,,,,,,,,,,,,,,,,,,0,0,0,0,0,0,0,0,0,0,0,0,0,0,0,0,,,,,,,,,,,,,
226,1108031,1745649344664,0.0,83.0,,-0.06,-0.04,1.01,0.0,0.0,0.0,1.02,1.09,93.0,1833.0,0.0,3.36,,14.51,1.256,77.2,,13.5,5.0,,,,,,,,,,,,0,0,0,0,0,0,0,0,0,0,0,0,0,0,0,0,,,,,,0.0,,,,,,,
227,1108051,1745649344684,,,,,,,,,,,,,,,,,,,,,,,,,,,,,,,,,,0,0,0,0,0,0,0,0,0,0,0,0,0,0,0,0,,,,,,,,,,,,,
228,1108071,1745649344705,0.0,83.0,,-0.07,-0.03,0.99,0.0,0.0,0.0,0.99,1.09,91.0,1586.0,0.0,3.36,,14.44,1.256,77.2,,13.5,5.0,,,,,,,,,,,,0,0,0,0,0,0,0,0,0,0,0,0,0,0,0,0,,,,,,0.0,,,,,,,
229,1108091,1745649344725,,,,,,,,,,,,,,,,,,,,,,,0.0,1.0,0.0,0.0,0.0,0.0,0.0,0.0,2.26,,,0,0,0,0,0,0,0,0,0,0,0,0,0,0,0,0,,0.0,,,,,38.985798,-76.949982,0.0,49.2,30.0,3.0,0.8
230,1108111,1745649344745,0.0,82.0,,-0.06,-0.03,0.99,0.0,0.0,0.0,0.99,1.09,91.0,1806.0,0.0,3.36,,14.47,1.255,77.2,,13.4,5.0,,,,,,,,,,,,0,0,0,0,0,0,0,0,0,0,0,0,0,0,0,0,,,,,,0.0,,,,,,,
231,1108131,1745649344765,,,,,,,,,,,,,,,,,,,,,,,,,,,,,,,,,,0,0,0,0,0,0,0,0,0,0,0,0,0,0,0,0,,,,,,,,,,,,,
232,1108151,1745649344785,0.0,82.0,,-0.05,-0.01,0.98,0.0,0.0,0.0,0.98,1.09,90.0,1921.0,0.0,3.36,,14.47,1.255,77.2,,13.4,5.0,,,,,,,,,,,,0,0,0,0,0,0,0,0,0,0,0,0,0,0,0,0,,,,,,0.0,,,,,,,
233,1108171,1745649344803,,,,,,,,,,,,,,,,,,,,,,,,,,,,,,,,,,0,0,0,0,0,0,0,0,0,0,0,0,0,0,0,0,,,,,,,,,,,,,
234,1108191,1745649344823,0.0,83.0,,-0.05,-0.03,0.99,0.0,0.0,0.0,0.99,1.09,91.0,1921.0,0.0,3.36,,14.47,1.255,77.2,,13.5,5.0,0.0,5.0,0.0,0.0,0.0,0.0,0.0,0.0,2.26,,,0,0,0,0,0,0,0,0,0,0,0,0,0,0,0,0,,0.0,,,,0.0,38.985798,-76.949982,0.05,49.2,30.0,3.0,0.8
235,1108211,1745649344843,,,,,,,,,,,,,,,,,,,,,,,,,,,,,,,,,,0,0,0,0,0,0,0,0,0,0,0,0,0,0,0,0,,,,,,,,,,,,,
236,1108231,1745649344863,0.0,82.0,,-0.06,-0.03,0.98,0.0,0.0,0.0,0.98,1.09,90.0,1935.0,0.0,3.36,,14.47,1.255,77.2,,13.5,5.0,,,,,,,,,,,,0,0,0,0,0,0,0,0,0,0,0,0,0,0,0,0,,,,,,0.0,,,,,,,
237,1108251,1745649344883,,,,,,,,,,,,,,,,,,,,,,,,,,,,,,,,,,0,0,0,0,0,0,0,0,0,0,0,0,0,0,0,0,,,,,,,,,,,,,
238,1108271,1745649344905,0.0,83.0,,-0.05,-0.03,0.98,0.0,0.0,0.0,0.98,1.09,90.0,1796.0,0.0,3.36,,14.47,1.254,77.2,,13.5,5.0,,,,,,,,,,,,0,0,0,0,0,0,0,0,0,0,0,0,0,0,0,0,,,,,,0.0,,,,,,,
239,1108291,1745649344925,,,,,,,,,,,,,,,,,,,,,,,0.0,5.0,0.0,0.0,0.0,0.0,0.0,0.0,2.26,,,0,0,0,0,0,0,0,0,0,0,0,0,0,0,0,0,,0.0,,,,,38.985798,-76.949982,0.0,49.2,30.0,3.0,0.8
240,1108311,1745649344945,0.0,83.0,,-0.06,-0.03,0.99,0.0,0.0,0.0,0.99,1.09,91.0,1799.0,0.0,3.36,,14.52,1.254,77.2,,14.0,5.0,,,,,,,,,,,,0,0,0,0,0,0,0,0,0,0,0,0,0,0,0,0,,,,,,0.0,,,,,,,
241,1108331,1745649344965,,,,,,,,,,,,,,,,,,,,,,,,,,,,,,,,,,0,0,0,0,0,0,0,0,0,0,0,0,0,0,0,0,,,,,,,,,,,,,
242,1108351,1745649344985,0.0,82.0,,-0.05,-0.03,0.99,0.0,0.0,0.0,0.99,1.09,91.0,1980.0,0.0,3.36,,14.52,1.254,77.2,,14.0,5.0,,,,,,,,,,,,0,0,0,0,0,0,0,0,0,0,0,0,0,0,0,0,,,,,,0.0,,,,,,,
243,1108371,1745649344995,,,,,,,,,,,,,,,,,,,,,,,,,,,,,,,,,,0,0,0,0,0,0,0,0,0,0,0,0,0,0,0,0,,,,,,,,,,,,,
244,1108391,1745649345015,0.0,83.0,13.67,-0.06,-0.03,1.0,0.0,0.0,0.0,1.0,1.09,92.0,1980.0,0.0,3.36,15.0,14.47,1.253,77.2,180.0,13.6,5.0,0.0,5.0,0.0,0.0,0.0,0.0,0.0,0.0,2.26,0.0,1.0,0,0,0,0,0,0,0,0,0,0,0,0,0,0,0,0,0.0,0.0,0.0,0.0,0.0,0.0,38.985798,-76.949982,0.05,49.2,30.0,3.0,0.8
245,1108411,1745649345035,,,,,,,,,,,,,,,,,,,,,,,,,,,,,,,,,,0,0,0,0,0,0,0,0,0,0,0,0,0,0,0,0,,,,,,,,,,,,,
246,1108431,1745649345055,0.0,83.0,,-0.05,-0.04,1.0,0.0,0.0,0.0,1.0,1.09,92.0,1925.0,0.0,3.36,,14.46,1.254,77.2,,13.6,5.0,,,,,,,,,,,,0,0,0,0,0,0,0,0,0,0,0,0,0,0,0,0,,,,,,0.0,,,,,,,
247,1108451,1745649345075,,,,,,,,,,,,,,,,,,,,,,,,,,,,,,,,,,0,0,0,0,0,0,0,0,0,0,0,0,0,0,0,0,,,,,,,,,,,,,
248,1108471,1745649345101,0.0,83.0,,-0.06,-0.03,1.0,0.0,0.0,0.0,1.01,1.09,92.0,1816.0,0.0,3.35,,14.46,1.254,77.2,,13.6,5.0,,,,,,,,,,,,0,0,0,0,0,0,0,0,0,0,0,0,0,0,0,0,,,,,,0.0,,,,,,,
249,1108491,1745649345121,,,,,,,,,,,,,,,,,,,,,,,0.0,5.0,0.0,0.0,0.0,0.0,0.0,0.0,2.26,,,0,0,0,0,0,0,0,0,0,0,0,0,0,0,0,0,,0.0,,,,,38.985798,-76.949982,0.0,49.2,30.0,3.0,0.8
250,1108511,1745649345141,0.0,82.0,,-0.07,-0.01,0.98,0.0,0.0,0.0,0.98,1.09,90.0,1607.0,0.0,3.36,,14.54,1.255,77.2,,13.2,5.0,,,,,,,,,,,,0,0,0,0,0,0,0,0,0,0,0,0,0,0,0,0,,,,,,0.0,,,,,,,
251,1108531,1745649345161,,,,,,,,,,,,,,,,,,,,,,,,,,,,,,,,,,0,0,0,0,0,0,0,0,0,0,0,0,0,0,0,0,,,,,,,,,,,,,
252,1108551,1745649345181,0.0,82.0,,-0.06,-0.02,1.0,0.0,0.0,0.0,1.0,1.09,92.0,1878.0,0.0,3.36,,14.54,1.255,77.2,,13.2,5.0,,,,,,,,,,,,0,0,0,0,0,0,0,0,0,0,0,0,0,0,0,0,,,,,,0.0,,,,,,,
253,1108571,1745649345203,,,,,,,,,,,,,,,,,,,,,,,,,,,,,,,,,,0,0,0,0,0,0,0,0,0,0,0,0,0,0,0,0,,,,,,,,,,,,,
254,1108591,1745649345223,0.0,83.0,,-0.07,-0.01,1.0,0.0,0.0,0.0,1.0,1.09,92.0,1878.0,0.0,3.36,,14.47,1.256,77.2,,13.4,5.0,0.0,5.0,0.0,0.0,0.0,24.0,0.0,0.0,2.26,,,0,0,0,0,0,0,0,0,0,0,0,0,0,0,0,0,,0.0,,,,0.0,38.985798,-76.949982,0.04,49.2,30.0,3.0,0.8
255,1108611,1745649345243,,,,,,,,,,,,,,,,,,,,,,,,,,,,,,,,,,0,0,0,0,0,0,0,0,0,0,0,0,0,0,0,0,,,,,,,,,,,,,
256,1108631,1745649345263,0.0,83.0,,-0.05,-0.02,1.01,0.0,0.0,0.0,1.01,1.09,93.0,1982.0,0.0,3.36,,14.43,1.256,77.2,,13.4,5.0,,,,,,,,,,,,0,0,0,0,0,0,0,0,0,0,0,0,0,0,0,0,,,,,,0.0,,,,,,,
257,1108651,1745649345283,,,,,,,,,,,,,,,,,,,,,,,,,,,,,,,,,,0,0,0,0,0,0,0,0,0,0,0,0,0,0,0,0,,,,,,,,,,,,,
258,1108671,1745649345305,0.0,83.0,,-0.07,-0.01,1.0,0.0,0.0,0.0,1.0,1.09,92.0,1869.0,0.0,3.36,,14.43,1.255,77.2,,13.4,5.0,,,,,,,,,,,,0,0,0,0,0,0,0,0,0,0,0,0,0,0,0,0,,,,,,0.0,,,,,,,
259,1108691,1745649345325,,,,,,,,,,,,,,,,,,,,,,,0.0,69.0,0.0,0.0,0.0,24.0,0.0,0.0,2.26,,,0,0,0,0,0,0,0,0,0,0,0,0,0,0,0,0,,0.0,,,,,38.985798,-76.949982,0.04,49.2,30.0,3.0,0.8
260,1108711,1745649345345,0.0,82.0,,-0.07,-0.02,0.99,0.0,0.0,0.0,0.99,1.09,91.0,1603.0,0.0,3.36,,14.54,1.255,77.2,,12.9,5.0,,,,,,,,,,,,0,0,0,0,0,0,0,0,0,0,0,0,0,0,0,0,,,,,,0.0,,,,,,,
261,1108731,1745649345365,,,,,,,,,,,,,,,,,,,,,,,,,,,,,,,,,,0,0,0,0,0,0,0,0,0,0,0,0,0,0,0,0,,,,,,,,,,,,,
262,1108751,1745649345385,0.0,82.0,,-0.06,-0.02,0.98,0.0,0.0,0.0,0.99,1.09,90.0,1736.0,0.0,3.35,,14.54,1.255,77.2,,12.9,5.0,,,,,,,,,,,,0,0,0,0,0,0,0,0,0,0,0,0,0,0,0,0,,,,,,0.0,,,,,,,
263,1108771,1745649345403,,,,,,,,,,,,,,,,,,,,,,,,,,,,,,,,,,0,0,0,0,0,0,0,0,0,0,0,0,0,0,0,0,,,,,,,,,,,,,
264,1108791,1745649345423,0.0,82.0,,-0.04,-0.03,0.99,0.0,0.0,0.0,0.99,1.09,91.0,1736.0,0.0,3.35,,14.5,1.255,77.2,,11.9,5.0,0.0,69.0,0.0,0.0,0.0,24.0,0.0,0.0,2.26,,,0,0,0,0,0,0,0,0,0,0,0,0,0,0,0,0,,0.0,,,,0.0,38.985798,-76.949982,0.07,49.2,30.0,3.0,0.8
265,1108811,1745649345443,,,,,,,,,,,,,,,,,,,,,,,,,,,,,,,,,,0,0,0,0,0,0,0,0,0,0,0,0,0,0,0,0,,,,,,,,,,,,,
266,1108831,1745649345463,0.0,82.0,,-0.03,-0.02,1.0,0.0,0.0,0.0,1.0,1.09,92.0,1472.0,0.0,3.36,,14.42,1.255,77.2,,11.9,5.0,,,,,,,,,,,,0,0,0,0,0,0,0,0,0,0,0,0,0,0,0,0,,,,,,0.0,,,,,,,
267,1108851,1745649345483,,,,,,,,,,,,,,,,,,,,,,,,,,,,,,,,,,0,0,0,0,0,0,0,0,0,0,0,0,0,0,0,0,,,,,,,,,,,,,
268,1108871,1745649345505,0.0,82.0,,-0.03,-0.02,1.01,0.0,0.0,0.0,1.01,1.09,92.0,1474.0,0.0,3.36,,14.54,1.254,77.2,,11.9,5.0,,,,,,,,,,,,0,0,0,0,0,0,0,0,0,0,0,0,0,0,0,0,,,,,,0.0,,,,,,,
269,1108891,1745649345525,,,,,,,,,,,,,,,,,,,,,,,0.0,99.0,0.0,0.0,0.0,24.0,0.0,0.0,2.26,,,0,0,0,0,0,0,0,0,0,0,0,0,0,0,0,0,,0.0,,,,,38.985798,-76.949982,0.05,49.2,30.0,3.0,0.8
270,1108911,1745649345545,0.0,82.0,,-0.03,-0.02,1.01,0.0,0.0,0.0,1.01,1.09,93.0,1474.0,0.0,3.36,,14.44,1.254,77.2,,10.9,5.0,,,,,,,,,,,,0,0,0,0,0,0,0,0,0,0,0,0,0,0,0,0,,,,,,0.0,,,,,,,
271,1108931,1745649345565,,,,,,,,,,,,,,,,,,,,,,,,,,,,,,,,,,0,0,0,0,0,0,0,0,0,0,0,0,0,0,0,0,,,,,,,,,,,,,
272,1108951,1745649345585,0.0,82.0,,-0.03,-0.02,1.01,0.0,0.0,0.0,1.01,1.09,93.0,1040.0,0.0,3.35,,14.44,1.254,77.2,,10.9,5.0,,,,,,,,,,,,0,0,0,0,0,0,0,0,0,0,0,0,0,0,0,0,,,,,,0.0,,,,,,,
273,1108971,1745649345605,,,,,,,,,,,,,,,,,,,,,,,,,,,,,,,,,,0,0,0,0,0,0,0,0,0,0,0,0,0,0,0,0,,,,,,,,,,,,,
274,1108991,1745649345625,0.0,82.0,,-0.04,-0.03,1.0,0.0,0.0,0.0,1.01,1.09,92.0,1040.0,0.0,3.35,,14.54,1.254,77.2,,7.6,5.0,0.0,7.0,0.0,0.0,0.0,24.0,0.0,0.0,2.26,,,0,0,0,0,0,0,0,0,0,0,0,0,0,0,0,0,,0.0,,,,0.0,38.985798,-76.949982,0.0,49.2,30.0,3.0,0.8
275,1109011,1745649345645,,,,,,,,,,,,,,,,,,,,,,,,,,,,,,,,,,0,0,0,0,0,0,0,0,0,0,0,0,0,0,0,0,,,,,,,,,,,,,
276,1109031,1745649345665,0.0,82.0,,-0.04,-0.03,1.0,0.0,0.0,0.0,1.0,1.09,92.0,1040.0,0.0,3.35,,14.54,1.254,77.2,,7.6,5.0,,,,,,,,,,,,0,0,0,0,0,0,0,0,0,0,0,0,0,0,0,0,,,,,,0.0,,,,,,,
277,1109051,1745649345685,,,,,,,,,,,,,,,,,,,,,,,,,,,,,,,,,,0,0,0,0,0,0,0,0,0,0,0,0,0,0,0,0,,,,,,,,,,,,,
278,1109071,1745649345704,0.0,82.0,,-0.04,-0.03,1.0,0.0,0.0,0.0,1.0,1.09,92.0,1040.0,0.0,3.35,,14.54,1.255,77.2,,7.6,5.0,,,,,,,,,,,,0,0,0,0,0,0,0,0,0,0,0,0,0,0,0,0,,,,,,0.0,,,,,,,
279,1109091,1745649345724,,,,,,,,,,,,,,,,,,,,,,,0.0,7.0,0.0,0.0,0.0,24.0,0.0,0.0,2.26,,,0,0,0,0,0,0,0,0,0,0,0,0,0,0,0,0,,0.0,,,,,38.985798,-76.949982,0.0,49.2,30.0,3.0,0.8
280,1109111,1745649345744,0.0,82.0,,-0.04,-0.03,1.0,0.0,0.0,0.0,1.0,1.09,92.0,1040.0,0.0,3.35,,14.54,1.257,77.2,,6.9,5.0,,,,,,,,,,,,0,0,0,0,0,0,0,0,0,0,0,0,0,0,0,0,,,,,,0.0,,,,,,,
281,1109131,1745649345764,,,,,,,,,,,,,,,,,,,,,,,,,,,,,,,,,,0,0,0,0,0,0,0,0,0,0,0,0,0,0,0,0,,,,,,,,,,,,,
282,1109151,1745649345784,0.0,82.0,,-0.04,-0.03,1.0,0.0,0.0,0.0,1.0,1.09,92.0,1040.0,0.0,3.35,,14.54,1.257,77.2,,6.9,5.0,,,,,,,,,,,,0,0,0,0,0,0,0,0,0,0,0,0,0,0,0,0,,,,,,0.0,,,,,,,
283,1109171,1745649345804,,,,,,,,,,,,,,,,,,,,,,,,,,,,,,,,,,0,0,0,0,0,0,0,0,0,0,0,0,0,0,0,0,,,,,,,,,,,,,
284,1109191,1745649345824,0.0,82.0,,-0.04,-0.03,1.0,0.0,0.0,0.0,1.0,1.09,92.0,1040.0,0.0,3.35,,14.54,1.256,77.2,,7.0,5.0,0.0,7.0,0.0,0.0,0.0,24.0,0.0,0.0,2.26,,,0,0,0,0,0,0,0,0,0,0,0,0,0,0,0,0,,0.0,,,,0.0,38.985798,-76.949982,0.04,49.2,30.0,3.0,0.8
285,1109211,1745649345844,,,,,,,,,,,,,,,,,,,,,,,,,,,,,,,,,,0,0,0,0,0,0,0,0,0,0,0,0,0,0,0,0,,,,,,,,,,,,,
286,1109231,1745649345864,0.0,82.0,,-0.04,-0.03,1.0,0.0,0.0,0.0,1.0,1.09,92.0,1040.0,0.0,3.35,,14.54,1.255,77.2,,7.0,5.0,,,,,,,,,,,,0,0,0,0,0,0,0,0,0,0,0,0,0,0,0,0,,,,,,0.0,,,,,,,
287,1109251,1745649345884,,,,,,,,,,,,,,,,,,,,,,,,,,,,,,,,,,0,0,0,0,0,0,0,0,0,0,0,0,0,0,0,0,,,,,,,,,,,,,
288,1109271,1745649345904,0.0,82.0,,-0.04,-0.03,1.0,0.0,0.0,0.0,1.0,1.09,92.0,1040.0,0.0,3.35,,14.54,1.255,77.2,,7.0,5.0,,,,,,,,,,,,0,0,0,0,0,0,0,0,0,0,0,0,0,0,0,0,,,,,,0.0,,,,,,,
289,1109291,1745649345924,,,,,,,,,,,,,,,,,,,,,,,0.0,7.0,0.0,0.0,0.0,24.0,0.0,0.0,2.26,,,0,0,0,0,0,0,0,0,0,0,0,0,0,0,0,0,,0.0,,,,,38.985798,-76.949982,0.04,49.2,30.0,3.0,0.8
290,1109311,1745649345944,0.0,82.0,,-0.05,-0.03,1.0,0.0,0.0,0.0,1.0,1.09,92.0,1040.0,0.0,3.35,,14.54,1.255,77.2,,7.0,5.0,,,,,,,,,,,,0,0,0,0,0,0,0,0,0,0,0,0,0,0,0,0,,,,,,0.0,,,,,,,
291,1109331,1745649345964,,,,,,,,,,,,,,,,,,,,,,,,,,,,,,,,,,0,0,0,0,0,0,0,0,0,0,0,0,0,0,0,0,,,,,,,,,,,,,
292,1109351,1745649345984,0.0,82.0,,-0.05,-0.03,1.0,0.0,0.0,0.0,1.0,1.09,92.0,1040.0,0.0,3.35,,14.54,1.255,77.2,,7.0,5.0,,,,,,,,,,,,0,0,0,0,0,0,0,0,0,0,0,0,0,0,0,0,,,,,,0.0,,,,,,,
293,1109371,1745649345997,,,,,,,,,,,,,,,,,,,,,,,,,,,,,,,,,,0,0,0,0,0,0,0,0,0,0,0,0,0,0,0,0,,,,,,,,,,,,,
294,1109391,1745649346017,0.0,82.0,13.34,-0.05,-0.03,1.0,0.0,0.0,0.0,1.0,1.09,92.0,1040.0,0.0,3.35,15.0,14.54,1.254,77.2,176.0,7.1,5.0,0.0,7.0,0.0,0.0,0.0,24.0,0.0,0.0,2.26,0.0,1.0,0,0,0,0,0,0,0,0,0,0,0,0,0,0,0,0,0.0,0.0,0.0,0.0,0.0,0.0,38.985798,-76.949982,0.08,49.2,30.0,3.0,0.8
295,1109411,1745649346037,,,,,,,,,,,,,,,,,,,,,,,,,,,,,,,,,,0,0,0,0,0,0,0,0,0,0,0,0,0,0,0,0,,,,,,,,,,,,,
296,1109431,1745649346057,0.0,82.0,,-0.05,-0.04,1.0,0.0,0.0,0.0,1.0,1.09,92.0,1040.0,0.0,3.35,,14.54,1.254,77.2,,7.1,5.0,,,,,,,,,,,,0,0,0,0,0,0,0,0,0,0,0,0,0,0,0,0,,,,,,0.0,,,,,,,
297,1109451,1745649346077,,,,,,,,,,,,,,,,,,,,,,,,,,,,,,,,,,0,0,0,0,0,0,0,0,0,0,0,0,0,0,0,0,,,,,,,,,,,,,
298,1109471,1745649346100,0.0,82.0,,-0.05,-0.04,1.0,0.0,0.0,0.0,1.0,1.09,92.0,1040.0,0.0,3.35,,14.54,1.254,77.2,,7.1,5.0,,,,,,,,,,,,0,0,0,0,0,0,0,0,0,0,0,0,0,0,0,0,,,,,,0.0,,,,,,,
299,1109491,1745649346120,,,,,,,,,,,,,,,,,,,,,,,0.0,7.0,0.0,0.0,0.0,24.0,0.0,0.0,2.26,,,0,0,0,0,0,0,0,0,0,0,0,0,0,0,0,0,,0.0,,,,,38.985798,-76.949982,0.0,49.2,30.0,3.0,0.8
300,1109511,1745649346140,0.0,82.0,,-0.05,-0.04,1.0,0.0,0.0,0.0,1.0,1.09,92.0,1040.0,0.0,3.35,,14.54,1.254,77.2,,6.8,5.0,,,,,,,,,,,,0,0,0,0,0,0,0,0,0,0,0,0,0,0,0,0,,,,,,0.0,,,,,,,
301,1109531,1745649346160,,,,,,,,,,,,,,,,,,,,,,,,,,,,,,,,,,0,0,0,0,0,0,0,0,0,0,0,0,0,0,0,0,,,,,,,,,,,,,
302,1109551,1745649346180,0.0,82.0,,-0.05,-0.03,1.0,0.0,0.0,0.0,1.0,1.09,92.0,1040.0,0.0,3.35,,14.54,1.254,77.2,,6.8,5.0,,,,,,,,,,,,0,0,0,0,0,0,0,0,0,0,0,0,0,0,0,0,,,,,,0.0,,,,,,,
303,1109571,1745649346202,,,,,,,,,,,,,,,,,,,,,,,,,,,,,,,,,,0,0,0,0,0,0,0,0,0,0,0,0,0,0,0,0,,,,,,,,,,,,,
304,1109591,1745649346222,0.0,82.0,,-0.05,-0.03,1.0,0.0,0.0,0.0,1.0,1.09,92.0,1040.0,0.0,3.35,,14.54,1.254,77.2,,7.0,5.0,0.0,7.0,0.0,0.0,0.0,24.0,0.0,0.0,2.26,,,0,0,0,0,0,0,0,0,0,0,0,0,0,0,0,0,,0.0,,,,0.0,38.985798,-76.949982,0.0,49.2,30.0,3.0,0.8
305,1109611,1745649346242,,,,,,,,,,,,,,,,,,,,,,,,,,,,,,,,,,0,0,0,0,0,0,0,0,0,0,0,0,0,0,0,0,,,,,,,,,,,,,
306,1109631,1745649346262,0.0,82.0,,-0.05,-0.03,1.0,0.0,0.0,0.0,1.0,1.09,92.0,1040.0,0.0,3.35,,14.54,1.255,77.2,,7.0,5.0,,,,,,,,,,,,0,0,0,0,0,0,0,0,0,0,0,0,0,0,0,0,,,,,,0.0,,,,,,,
307,1109651,1745649346282,,,,,,,,,,,,,,,,,,,,,,,,,,,,,,,,,,0,0,0,0,0,0,0,0,0,0,0,0,0,0,0,0,,,,,,,,,,,,,
308,1109671,1745649346304,0.0,82.0,,-0.05,-0.03,1.0,0.0,0.0,0.0,1.0,1.09,92.0,1040.0,0.0,3.35,,14.54,1.256,77.2,,7.0,5.0,,,,,,,,,,,,0,0,0,0,0,0,0,0,0,0,0,0,0,0,0,0,,,,,,0.0,,,,,,,
309,1109691,1745649346324,,,,,,,,,,,,,,,,,,,,,,,0.0,7.0,0.0,0.0,0.0,24.0,0.0,0.0,2.25,,,0,0,0,0,0,0,0,0,0,0,0,0,0,0,0,0,,0.0,,,,,38.985798,-76.949982,0.0,49.2,30.0,3.0,0.8
310,1109711,1745649346344,0.0,82.0,,-0.05,-0.04,1.0,0.0,0.0,0.0,1.0,1.09,92.0,1040.0,0.0,3.35,,14.54,1.255,77.2,,7.0,5.0,,,,,,,,,,,,0,0,0,0,0,0,0,0,0,0,0,0,0,0,0,0,,,,,,0.0,,,,,,,
311,1109731,1745649346364,,,,,,,,,,,,,,,,,,,,,,,,,,,,,,,,,,0,0,0,0,0,0,0,0,0,0,0,0,0,0,0,0,,,,,,,,,,,,,
312,1109751,1745649346384,0.0,82.0,,-0.05,-0.04,1.0,0.0,0.0,0.0,1.0,1.09,92.0,1040.0,0.0,3.35,,14.54,1.255,77.2,,7.0,5.0,,,,,,,,,,,,0,0,0,0,0,0,0,0,0,0,0,0,0,0,0,0,,,,,,0.0,,,,,,,
313,1109771,1745649346404,,,,,,,,,,,,,,,,,,,,,,,,,,,,,,,,,,0,0,0,0,0,0,0,0,0,0,0,0,0,0,0,0,,,,,,,,,,,,,
314,1109791,1745649346424,0.0,82.0,,-0.05,-0.04,1.0,0.0,0.0,0.0,1.0,1.09,92.0,1040.0,0.0,3.35,,14.54,1.254,77.2,,7.0,5.0,0.0,7.0,0.0,0.0,0.0,24.0,0.0,0.0,2.26,,,0,0,0,0,0,0,0,0,0,0,0,0,0,0,0,0,,0.0,,,,0.0,38.985798,-76.949982,0.08,49.2,30.0,3.0,0.8
315,1109811,1745649346444,,,,,,,,,,,,,,,,,,,,,,,,,,,,,,,,,,0,0,0,0,0,0,0,0,0,0,0,0,0,0,0,0,,,,,,,,,,,,,
316,1109831,1745649346464,0.0,82.0,,-0.05,-0.03,1.0,0.0,0.0,0.0,1.0,1.09,92.0,1040.0,0.0,3.35,,14.54,1.253,77.2,,7.0,5.0,,,,,,,,,,,,0,0,0,0,0,0,0,0,0,0,0,0,0,0,0,0,,,,,,0.0,,,,,,,
317,1109851,1745649346484,,,,,,,,,,,,,,,,,,,,,,,,,,,,,,,,,,0,0,0,0,0,0,0,0,0,0,0,0,0,0,0,0,,,,,,,,,,,,,
318,1109871,1745649346504,0.0,82.0,,-0.05,-0.03,1.0,0.0,0.0,0.0,1.0,1.09,92.0,1040.0,0.0,3.35,,14.54,1.253,77.2,,7.0,5.0,,,,,,,,,,,,0,0,0,0,0,0,0,0,0,0,0,0,0,0,0,0,,,,,,0.0,,,,,,,
319,1109891,1745649346524,,,,,,,,,,,,,,,,,,,,,,,0.0,7.0,0.0,0.0,0.0,24.0,0.0,0.0,2.26,,,0,0,0,0,0,0,0,0,0,0,0,0,0,0,0,0,,0.0,,,,,38.985798,-76.949982,0.05,49.2,30.0,3.0,0.8
320,1109911,1745649346544,0.0,82.0,,-0.05,-0.03,1.0,0.0,0.0,0.0,1.0,1.09,92.0,1040.0,0.0,3.35,,14.54,1.253,77.2,,7.0,5.0,,,,,,,,,,,,0,0,0,0,0,0,0,0,0,0,0,0,0,0,0,0,,,,,,0.0,,,,,,,
321,1109931,1745649346564,,,,,,,,,,,,,,,,,,,,,,,,,,,,,,,,,,0,0,0,0,0,0,0,0,0,0,0,0,0,0,0,0,,,,,,,,,,,,,
322,1109951,1745649346584,0.0,82.0,,-0.05,-0.03,1.0,0.0,0.0,0.0,1.0,1.09,92.0,1040.0,0.0,3.35,,14.54,1.253,77.2,,7.0,5.0,,,,,,,,,,,,0,0,0,0,0,0,0,0,0,0,0,0,0,0,0,0,,,,,,0.0,,,,,,,
323,1109971,1745649346604,,,,,,,,,,,,,,,,,,,,,,,,,,,,,,,,,,0,0,0,0,0,0,0,0,0,0,0,0,0,0,0,0,,,,,,,,,,,,,
324,1109991,1745649346624,0.0,82.0,,-0.05,-0.04,1.0,0.0,0.0,0.0,1.0,1.09,92.0,1040.0,0.0,3.35,,14.54,1.254,77.2,,7.1,5.0,0.0,7.0,0.0,0.0,0.0,24.0,0.0,0.0,2.26,,,0,0,0,0,0,0,0,0,0,0,0,0,0,0,0,0,,0.0,,,,0.0,38.985798,-76.949982,0.04,49.2,30.0,3.0,0.8
325,1110011,1745649346644,,,,,,,,,,,,,,,,,,,,,,,,,,,,,,,,,,0,0,0,0,0,0,0,0,0,0,0,0,0,0,0,0,,,,,,,,,,,,,
326,1110031,1745649346664,0.0,81.0,,-0.05,-0.04,1.0,0.0,0.0,0.0,1.0,1.09,92.0,1040.0,0.0,3.35,,14.54,1.254,77.2,,7.1,5.0,,,,,,,,,,,,0,0,0,0,0,0,0,0,0,0,0,0,0,0,0,0,,,,,,0.0,,,,,,,
327,1110051,1745649346684,,,,,,,,,,,,,,,,,,,,,,,,,,,,,,,,,,0,0,0,0,0,0,0,0,0,0,0,0,0,0,0,0,,,,,,,,,,,,,
328,1110071,1745649346705,0.0,81.0,,-0.05,-0.04,1.0,0.0,0.0,0.0,1.0,1.09,92.0,1040.0,0.0,3.35,,14.54,1.254,77.2,,7.1,5.0,,,,,,,,,,,,0,0,0,0,0,0,0,0,0,0,0,0,0,0,0,0,,,,,,0.0,,,,,,,
329,1110091,1745649346725,,,,,,,,,,,,,,,,,,,,,,,0.0,7.0,0.0,0.0,0.0,24.0,0.0,0.0,2.26,,,0,0,0,0,0,0,0,0,0,0,0,0,0,0,0,0,,0.0,,,,,38.985798,-76.949982,0.07,49.2,30.0,3.0,0.8
330,1110111,1745649346745,0.0,81.0,,-0.05,-0.03,1.0,0.0,0.0,0.0,1.0,1.09,92.0,1040.0,0.0,3.35,,14.54,1.254,77.2,,6.9,5.0,,,,,,,,,,,,0,0,0,0,0,0,0,0,0,0,0,0,0,0,0,0,,,,,,0.0,,,,,,,
331,1110131,1745649346765,,,,,,,,,,,,,,,,,,,,,,,,,,,,,,,,,,0,0,0,0,0,0,0,0,0,0,0,0,0,0,0,0,,,,,,,,,,,,,
332,1110151,1745649346785,0.0,81.0,,-0.05,-0.03,1.0,0.0,0.0,0.0,1.0,1.09,92.0,1040.0,0.0,3.35,,14.54,1.254,77.2,,6.9,5.0,,,,,,,,,,,,0,0,0,0,0,0,0,0,0,0,0,0,0,0,0,0,,,,,,0.0,,,,,,,
333,1110171,1745649346805,,,,,,,,,,,,,,,,,,,,,,,,,,,,,,,,,,0,0,0,0,0,0,0,0,0,0,0,0,0,0,0,0,,,,,,,,,,,,,
334,1110191,1745649346825,0.0,81.0,,-0.05,-0.03,1.0,0.0,0.0,0.0,1.0,1.09,92.0,1040.0,0.0,3.35,,14.54,1.255,77.2,,6.9,5.0,0.0,7.0,0.0,0.0,0.0,24.0,0.0,0.0,2.26,,,0,0,0,0,0,0,0,0,0,0,0,0,0,0,0,0,,0.0,,,,0.0,38.985798,-76.949982,0.11,49.2,30.0,3.0,0.8
335,1110211,1745649346845,,,,,,,,,,,,,,,,,,,,,,,,,,,,,,,,,,0,0,0,0,0,0,0,0,0,0,0,0,0,0,0,0,,,,,,,,,,,,,
336,1110231,1745649346865,0.0,81.0,,-0.05,-0.04,1.0,0.0,0.0,0.0,1.0,1.09,92.0,1040.0,0.0,3.35,,14.54,1.256,77.2,,6.9,5.0,,,,,,,,,,,,0,0,0,0,0,0,0,0,0,0,0,0,0,0,0,0,,,,,,0.0,,,,,,,
337,1110251,1745649346885,,,,,,,,,,,,,,,,,,,,,,,,,,,,,,,,,,0,0,0,0,0,0,0,0,0,0,0,0,0,0,0,0,,,,,,,,,,,,,
338,1110271,1745649346905,0.0,81.0,,-0.05,-0.04,1.0,0.0,0.0,0.0,1.0,1.09,92.0,1040.0,0.0,3.35,,14.54,1.255,77.2,,6.9,5.0,,,,,,,,,,,,0,0,0,0,0,0,0,0,0,0,0,0,0,0,0,0,,,,,,0.0,,,,,,,
339,1110291,1745649346925,,,,,,,,,,,,,,,,,,,,,,,0.0,7.0,0.0,0.0,0.0,24.0,0.0,0.0,2.26,,,0,0,0,0,0,0,0,0,0,0,0,0,0,0,0,0,,0.0,,,,,38.985798,-76.949982,0.05,49.2,30.0,3.0,0.8
340,1110311,1745649346945,0.0,81.0,,-0.05,-0.04,1.0,0.0,0.0,0.0,1.0,1.09,92.0,1040.0,0.0,3.35,,14.54,1.253,77.2,,6.9,5.0,,,,,,,,,,,,0,0,0,0,0,0,0,0,0,0,0,0,0,0,0,0,,,,,,0.0,,,,,,,
341,1110331,1745649346965,,,,,,,,,,,,,,,,,,,,,,,,,,,,,,,,,,0,0,0,0,0,0,0,0,0,0,0,0,0,0,0,0,,,,,,,,,,,,,
342,1110351,1745649346985,0.0,80.0,,-0.05,-0.04,1.0,0.0,0.0,0.0,1.0,1.09,92.0,1040.0,0.0,3.35,,14.54,1.253,77.2,,6.9,5.0,,,,,,,,,,,,0,0,0,0,0,0,0,0,0,0,0,0,0,0,0,0,,,,,,0.0,,,,,,,
343,1110371,1745649346995,,,,,,,,,,,,,,,,,,,,,,,,,,,,,,,,,,0,0,0,0,0,0,0,0,0,0,0,0,0,0,0,0,,,,,,,,,,,,,
344,1110391,1745649347015,0.0,81.0,13.29,-0.05,-0.04,1.0,0.0,0.0,0.0,1.0,1.09,92.0,1040.0,0.0,3.35,15.0,14.54,1.252,77.2,174.0,7.0,5.0,0.0,7.0,0.0,0.0,0.0,24.0,0.0,0.0,2.26,0.0,1.0,0,0,0,0,0,0,0,0,0,0,0,0,0,0,0,0,0.0,0.0,0.0,0.0,0.0,0.0,38.985798,-76.949982,0.07,49.2,30.0,3.0,0.8
345,1110411,1745649347035,,,,,,,,,,,,,,,,,,,,,,,,,,,,,,,,,,0,0,0,0,0,0,0,0,0,0,0,0,0,0,0,0,,,,,,,,,,,,,
346,1110431,1745649347055,0.0,80.0,,-0.05,-0.03,1.0,0.0,0.0,0.0,1.0,1.09,92.0,1040.0,0.0,3.35,,14.54,1.252,77.2,,7.0,5.0,,,,,,,,,,,,0,0,0,0,0,0,0,0,0,0,0,0,0,0,0,0,,,,,,0.0,,,,,,,
347,1110451,1745649347075,,,,,,,,,,,,,,,,,,,,,,,,,,,,,,,,,,0,0,0,0,0,0,0,0,0,0,0,0,0,0,0,0,,,,,,,,,,,,,
348,1110471,1745649347099,0.0,80.0,,-0.05,-0.04,1.0,0.0,0.0,0.0,1.0,1.09,92.0,1040.0,0.0,3.35,,14.54,1.253,77.2,,7.0,5.0,,,,,,,,,,,,0,0,0,0,0,0,0,0,0,0,0,0,0,0,0,0,,,,,,0.0,,,,,,,
349,1110491,1745649347119,,,,,,,,,,,,,,,,,,,,,,,0.0,7.0,0.0,0.0,0.0,24.0,0.0,0.0,2.26,,,0,0,0,0,0,0,0,0,0,0,0,0,0,0,0,0,,0.0,,,,,38.985798,-76.949982,0.04,49.2,30.0,3.0,0.8
350,1110511,1745649347139,0.0,81.0,,-0.05,-0.03,1.0,0.0,0.0,0.0,1.0,1.09,92.0,1040.0,0.0,3.35,,14.54,1.253,77.2,,6.9,5.0,,,,,,,,,,,,0,0,0,0,0,0,0,0,0,0,0,0,0,0,0,0,,,,,,0.0,,,,,,,
351,1110531,1745649347159,,,,,,,,,,,,,,,,,,,,,,,,,,,,,,,,,,0,0,0,0,0,0,0,0,0,0,0,0,0,0,0,0,,,,,,,,,,,,,
352,1110551,1745649347179,0.0,80.0,,-0.05,-0.04,1.0,0.0,0.0,0.0,1.0,1.09,92.0,1040.0,0.0,3.35,,14.54,1.253,77.2,,6.9,5.0,,,,,,,,,,,,0,0,0,0,0,0,0,0,0,0,0,0,0,0,0,0,,,,,,0.0,,,,,,,
353,1110571,1745649347203,,,,,,,,,,,,,,,,,,,,,,,,,,,,,,,,,,0,0,0,0,0,0,0,0,0,0,0,0,0,0,0,0,,,,,,,,,,,,,
354,1110591,1745649347223,0.0,81.0,,-0.05,-0.04,1.0,0.0,0.0,0.0,1.0,1.09,92.0,1040.0,0.0,3.35,,14.54,1.253,77.2,,6.8,5.0,0.0,7.0,0.0,0.0,0.0,24.0,0.0,0.0,2.26,,,0,0,0,0,0,0,0,0,0,0,0,0,0,0,0,0,,0.0,,,,0.0,38.985798,-76.949982,0.05,49.2,30.0,3.0,0.8
355,1110611,1745649347243,,,,,,,,,,,,,,,,,,,,,,,,,,,,,,,,,,0,0,0,0,0,0,0,0,0,0,0,0,0,0,0,0,,,,,,,,,,,,,
356,1110631,1745649347263,0.0,80.0,,-0.05,-0.04,1.0,0.0,0.0,0.0,1.0,1.09,92.0,1040.0,0.0,3.35,,14.54,1.253,77.2,,6.8,5.0,,,,,,,,,,,,0,0,0,0,0,0,0,0,0,0,0,0,0,0,0,0,,,,,,0.0,,,,,,,
357,1110651,1745649347283,,,,,,,,,,,,,,,,,,,,,,,,,,,,,,,,,,0,0,0,0,0,0,0,0,0,0,0,0,0,0,0,0,,,,,,,,,,,,,
358,1110671,1745649347303,0.0,80.0,,-0.05,-0.03,1.0,0.0,0.0,0.0,1.0,1.09,92.0,1040.0,0.0,3.35,,14.54,1.253,77.2,,6.8,5.0,,,,,,,,,,,,0,0,0,0,0,0,0,0,0,0,0,0,0,0,0,0,,,,,,0.0,,,,,,,
359,1110691,1745649347323,,,,,,,,,,,,,,,,,,,,,,,0.0,7.0,0.0,0.0,0.0,24.0,0.0,0.0,2.26,,,0,0,0,0,0,0,0,0,0,0,0,0,0,0,0,0,,0.0,,,,,38.985798,-76.949982,0.04,49.2,30.0,3.0,0.8
360,1110711,1745649347343,0.0,80.0,,-0.05,-0.04,1.0,0.0,0.0,0.0,1.0,1.09,92.0,1040.0,0.0,3.35,,14.54,1.255,77.2,,6.8,5.0,,,,,,,,,,,,0,0,0,0,0,0,0,0,0,0,0,0,0,0,0,0,,,,,,0.0,,,,,,,
361,1110731,1745649347363,,,,,,,,,,,,,,,,,,,,,,,,,,,,,,,,,,0,0,0,0,0,0,0,0,0,0,0,0,0,0,0,0,,,,,,,,,,,,,
362,1110751,1745649347383,0.0,80.0,,-0.05,-0.04,1.0,0.0,0.0,0.0,1.0,1.09,92.0,0.0,0.0,3.6,,14.54,1.255,77.2,,6.8,5.0,,,,,,,,,,,,0,0,0,0,0,0,0,0,0,0,0,0,0,0,0,0,,,,,,0.0,,,,,,,
363,1110771,1745649347403,,,,,,,,,,,,,,,,,,,,,,,,,,,,,,,,,,0,0,0,0,0,0,0,0,0,0,0,0,0,0,0,0,,,,,,,,,,,,,
364,1110791,1745649347423,0.0,80.0,,-0.05,-0.04,1.0,0.0,0.0,0.0,1.0,1.09,92.0,0.0,0.0,3.6,,14.54,1.257,77.2,,6.8,5.0,0.0,7.0,0.0,0.0,0.0,24.0,0.0,0.0,2.26,,,0,0,0,0,0,0,0,0,0,0,0,0,0,0,0,0,,0.0,,,,0.0,38.985798,-76.949982,0.07,49.2,30.0,3.0,0.8
365,1110811,1745649347443,,,,,,,,,,,,,,,,,,,,,,,,,,,,,,,,,,0,0,0,0,0,0,0,0,0,0,0,0,0,0,0,0,,,,,,,,,,,,,
366,1110831,1745649347463,0.0,80.0,,-0.05,-0.04,1.0,0.0,0.0,0.0,1.0,1.09,92.0,0.0,0.0,3.6,,14.54,1.255,77.2,,6.8,5.0,,,,,,,,,,,,0,0,0,0,0,0,0,0,0,0,0,0,0,0,0,0,,,,,,0.0,,,,,,,
367,1110851,1745649347483,,,,,,,,,,,,,,,,,,,,,,,,,,,,,,,,,,0,0,0,0,0,0,0,0,0,0,0,0,0,0,0,0,,,,,,,,,,,,,
368,1110871,1745649347503,0.0,80.0,,-0.05,-0.04,1.0,0.0,0.0,0.0,1.0,1.09,92.0,0.0,0.0,3.6,,14.54,1.254,77.2,,6.8,5.0,,,,,,,,,,,,0,0,0,0,0,0,0,0,0,0,0,0,0,0,0,0,,,,,,0.0,,,,,,,
369,1110891,1745649347523,,,,,,,,,,,,,,,,,,,,,,,0.0,7.0,0.0,0.0,0.0,0.0,0.0,0.0,2.26,,,0,0,0,0,0,0,0,0,0,0,0,0,0,0,0,0,,0.0,,,,,38.985798,-76.949982,0.04,49.2,30.0,3.0,0.8
370,1110911,1745649347543,0.0,80.0,,-0.05,-0.04,1.0,0.0,0.0,0.0,1.0,1.09,92.0,0.0,0.0,3.6,,14.54,1.252,77.2,,6.9,5.0,,,,,,,,,,,,0,0,0,0,0,0,0,0,0,0,0,0,0,0,0,0,,,,,,0.0,,,,,,,
371,1110931,1745649347563,,,,,,,,,,,,,,,,,,,,,,,,,,,,,,,,,,0,0,0,0,0,0,0,0,0,0,0,0,0,0,0,0,,,,,,,,,,,,,
372,1110951,1745649347583,0.0,80.0,,-0.05,-0.04,1.0,0.0,0.0,0.0,1.0,1.09,92.0,0.0,0.0,3.6,,14.54,1.252,77.2,,6.9,5.0,,,,,,,,,,,,0,0,0,0,0,0,0,0,0,0,0,0,0,0,0,0,,,,,,0.0,,,,,,,
373,1110971,1745649347605,,,,,,,,,,,,,,,,,,,,,,,,,,,,,,,,,,0,0,0,0,0,0,0,0,0,0,0,0,0,0,0,0,,,,,,,,,,,,,
374,1110991,1745649347625,0.0,80.0,,-0.05,-0.04,1.0,0.0,0.0,0.0,1.0,1.09,92.0,0.0,0.0,3.6,,14.54,1.252,77.2,,6.9,5.0,0.0,0.0,0.0,0.0,0.0,0.0,0.0,0.0,2.26,,,0,0,0,0,0,0,0,0,0,0,0,0,0,0,0,0,,0.0,,,,0.0,38.985798,-76.949982,0.04,49.2,30.0,3.0,0.8
375,1111011,1745649347645,,,,,,,,,,,,,,,,,,,,,,,,,,,,,,,,,,0,0,0,0,0,0,0,0,0,0,0,0,0,0,0,0,,,,,,,,,,,,,
376,1111031,1745649347665,0.0,80.0,,-0.05,-0.04,1.0,0.0,0.0,0.0,1.0,1.09,92.0,0.0,0.0,3.6,,14.54,1.252,77.2,,6.9,5.0,,,,,,,,,,,,0,0,0,0,0,0,0,0,0,0,0,0,0,0,0,0,,,,,,0.0,,,,,,,
377,1111051,1745649347685,,,,,,,,,,,,,,,,,,,,,,,,,,,,,,,,,,0,0,0,0,0,0,0,0,0,0,0,0,0,0,0,0,,,,,,,,,,,,,
378,1111071,1745649347702,0.0,80.0,,-0.05,-0.03,1.0,0.0,0.0,0.0,1.0,1.09,92.0,0.0,0.0,3.6,,14.54,1.252,77.2,,6.9,5.0,,,,,,,,,,,,0,0,0,0,0,0,0,0,0,0,0,0,0,0,0,0,,,,,,0.0,,,,,,,
379,1111091,1745649347722,,,,,,,,,,,,,,,,,,,,,,,0.0,0.0,0.0,0.0,0.0,0.0,0.0,0.0,2.26,,,0,0,0,0,0,0,0,0,0,0,0,0,0,0,0,0,,0.0,,,,,38.985798,-76.949982,0.0,49.2,30.0,3.0,0.8
