,Interval,Utc,FrontBP,SteerAng,Battery,AccelX,AccelY,AccelZ,Yaw,Pitch,Roll,Gsum,GsumMax,GsumPct,RPM,TPS,InjectorPW,Baro,MAP,Lambda,IAT,EngineTemp,EOP,EOT,WSFR,WSFL,WSRR,WSRL,TCSet,TCSlip,TCComp,TCCut,Analog8,OilTemp,AA_On,ThermLF1,ThermLF2,ThermRR1,ThermRR2,ThermLF3,ThermLF4,ThermLF5,ThermLF6,ThermLF7,ThermLF8,ThermRR3,ThermRR4,ThermRR5,ThermRR6,ThermRR7,ThermRR8,AA_LowDrag,Gear,AA_On1,AA_LowDrag1,Fuel_Mix,AA_Packages,Latitude,Longitude,Speed,Altitude,GPSSats,GPSQual,GPSDOP
0,1489511,1745649726146,34.69,100.0,,-0.05,0.09,1.13,-1.0,0.0,1.0,1.14,1.14,100.0,4396.0,11.4,3.96,,12.67,1.218,79.0,,34.1,5.0,,,,,,,,,,,,0,0,0,0,0,0,0,0,0,0,0,0,0,0,0,0,,,,,,0.0,,,,,,,
1,1489531,1745649726166,,,,,,,,,,,,,,,,,,,,,,,,,,,,,,,,,,0,0,0,0,0,0,0,0,0,0,0,0,0,0,0,0,,,,,,,,,,,,,
2,1489551,1745649726186,35.32,101.0,,-0.01,0.09,1.13,0.0,0.0,0.0,1.14,1.14,100.0,4419.0,11.4,3.93,,12.67,1.222,79.0,,34.9,5.0,,,,,,,,,,,,0,0,0,0,0,0,0,0,0,0,0,0,0,0,0,0,,,,,,0.0,,,,,,,
3,1489571,1745649726206,,,,,,,,,,,,,,,,,,,,,,,,,,,,,,,,,,0,0,0,0,0,0,0,0,0,0,0,0,0,0,0,0,,,,,,,,,,,,,
4,1489591,1745649726226,29.66,101.0,,0.04,0.09,1.09,1.0,0.0,0.0,1.1,1.14,96.0,4472.0,11.4,3.91,,12.72,1.21,79.0,,34.9,5.0,0.0,38.0,0.0,0.0,0.0,24.0,0.0,0.0,2.26,,,0,0,0,0,0,0,0,0,0,0,0,0,0,0,0,0,,0.0,,,,0.0,38.985802,-76.949982,0.09,49.6,31.0,3.0,0.8
5,1489611,1745649726246,,,,,,,,,,,,,,,,,,,,,,,,,,,,,,,,,,0,0,0,0,0,0,0,0,0,0,0,0,0,0,0,0,,,,,,,,,,,,,
6,1489631,1745649726266,30.92,101.0,,0.06,0.04,1.02,1.0,0.0,-1.0,1.02,1.14,90.0,4474.0,11.6,3.9,,12.67,1.224,79.0,,34.9,5.0,,,,,,,,,,,,0,0,0,0,0,0,0,0,0,0,0,0,0,0,0,0,,,,,,0.0,,,,,,,
7,1489651,1745649726286,,,,,,,,,,,,,,,,,,,,,,,,,,,,,,,,,,0,0,0,0,0,0,0,0,0,0,0,0,0,0,0,0,,,,,,,,,,,,,
8,1489671,1745649726308,30.92,101.0,,0.07,-0.03,0.95,2.0,0.0,-1.0,0.96,1.14,84.0,4444.0,11.7,3.87,,12.67,1.224,79.0,,35.2,5.0,,,,,,,,,,,,0,0,0,0,0,0,0,0,0,0,0,0,0,0,0,0,,,,,,0.0,,,,,,,
9,1489691,1745649726328,,,,,,,,,,,,,,,,,,,,,,,0.0,38.0,0.0,0.0,0.0,24.0,0.0,0.0,2.25,,,0,0,0,0,0,0,0,0,0,0,0,0,0,0,0,0,,0.0,,,,,38.985802,-76.949982,0.26,49.6,31.0,3.0,0.8
10,1489711,1745649726348,32.81,100.0,,0.07,-0.11,0.86,3.0,0.0,-1.0,0.87,1.14,76.0,4444.0,11.7,3.87,,12.68,1.226,79.0,,35.2,5.0,,,,,,,,,,,,0,0,0,0,0,0,0,0,0,0,0,0,0,0,0,0,,,,,,0.0,,,,,,,
11,1489731,1745649726368,,,,,,,,,,,,,,,,,,,,,,,,,,,,,,,,,,0,0,0,0,0,0,0,0,0,0,0,0,0,0,0,0,,,,,,,,,,,,,
12,1489751,1745649726388,33.43,101.0,,0.07,-0.21,0.79,3.0,0.0,-2.0,0.82,1.14,72.0,4452.0,11.7,3.87,,12.65,1.209,79.0,,35.0,5.0,,,,,,,,,,,,0,0,0,0,0,0,0,0,0,0,0,0,0,0,0,0,,,,,,0.0,,,,,,,
13,1489771,1745649726406,,,,,,,,,,,,,,,,,,,,,,,,,,,,,,,,,,0,0,0,0,0,0,0,0,0,0,0,0,0,0,0,0,,,,,,,,,,,,,
14,1489791,1745649726426,33.43,101.0,,0.07,-0.3,0.71,3.0,0.0,-2.0,0.77,1.14,68.0,4431.0,11.7,3.87,,12.59,1.221,79.0,,35.0,5.0,0.0,38.0,0.0,0.0,0.0,24.0,0.0,0.0,2.26,,,0,0,0,0,0,0,0,0,0,0,0,0,0,0,0,0,,0.0,,,,0.0,38.985802,-76.949982,0.11,49.6,31.0,3.0,0.8
15,1489811,1745649726446,,,,,,,,,,,,,,,,,,,,,,,,,,,,,,,,,,0,0,0,0,0,0,0,0,0,0,0,0,0,0,0,0,,,,,,,,,,,,,
16,1489831,1745649726466,33.43,101.0,,0.05,-0.39,0.67,4.0,0.0,-2.0,0.77,1.14,68.0,4507.0,11.8,3.85,,12.64,1.228,79.0,,35.0,5.0,,,,,,,,,,,,0,0,0,0,0,0,0,0,0,0,0,0,0,0,0,0,,,,,,0.0,,,,,,,
17,1489851,1745649726486,,,,,,,,,,,,,,,,,,,,,,,,,,,,,,,,,,0,0,0,0,0,0,0,0,0,0,0,0,0,0,0,0,,,,,,,,,,,,,
18,1489871,1745649726506,33.43,101.0,,0.04,-0.44,0.6,4.0,0.0,-2.0,0.75,1.14,66.0,4503.0,11.6,3.85,,12.64,1.228,79.0,,35.3,5.0,,,,,,,,,,,,0,0,0,0,0,0,0,0,0,0,0,0,0,0,0,0,,,,,,0.0,,,,,,,
19,1489891,1745649726526,,,,,,,,,,,,,,,,,,,,,,,0.0,38.0,0.0,0.0,0.0,24.0,0.0,0.0,2.26,,,0,0,0,0,0,0,0,0,0,0,0,0,0,0,0,0,,0.0,,,,,38.985802,-76.949982,0.04,49.6,31.0,3.0,0.8
20,1489911,1745649726546,33.43,100.0,,0.01,-0.52,0.58,4.0,0.0,-2.0,0.78,1.14,69.0,4503.0,11.6,3.85,,12.57,1.218,79.0,,35.3,5.0,,,,,,,,,,,,0,0,0,0,0,0,0,0,0,0,0,0,0,0,0,0,,,,,,0.0,,,,,,,
21,1489931,1745649726566,,,,,,,,,,,,,,,,,,,,,,,,,,,,,,,,,,0,0,0,0,0,0,0,0,0,0,0,0,0,0,0,0,,,,,,,,,,,,,
22,1489951,1745649726586,33.43,101.0,,-0.02,-0.55,0.56,3.0,0.0,-2.0,0.79,1.14,69.0,4470.0,11.3,3.84,,12.63,1.236,79.0,,35.3,5.0,,,,,,,,,,,,0,0,0,0,0,0,0,0,0,0,0,0,0,0,0,0,,,,,,0.0,,,,,,,
23,1489971,1745649726606,,,,,,,,,,,,,,,,,,,,,,,,,,,,,,,,,,0,0,0,0,0,0,0,0,0,0,0,0,0,0,0,0,,,,,,,,,,,,,
24,1489991,1745649726626,34.69,101.0,,-0.07,-0.56,0.58,2.0,0.0,-1.0,0.81,1.14,71.0,4458.0,11.3,3.83,,12.65,1.213,79.0,,35.3,5.0,0.0,38.0,0.0,0.0,0.0,24.0,0.0,0.0,2.26,,,0,0,0,0,0,0,0,0,0,0,0,0,0,0,0,0,,0.0,,,,0.0,38.985802,-76.949982,0.0,49.6,31.0,3.0,0.8
25,1490011,1745649726646,,,,,,,,,,,,,,,,,,,,,,,,,,,,,,,,,,0,0,0,0,0,0,0,0,0,0,0,0,0,0,0,0,,,,,,,,,,,,,
26,1490031,1745649726666,35.95,101.0,,-0.11,-0.46,0.66,1.0,0.0,-1.0,0.81,1.14,71.0,4406.0,11.4,3.83,,12.71,1.226,79.0,,35.3,5.0,,,,,,,,,,,,0,0,0,0,0,0,0,0,0,0,0,0,0,0,0,0,,,,,,0.0,,,,,,,
27,1490051,1745649726686,,,,,,,,,,,,,,,,,,,,,,,,,,,,,,,,,,0,0,0,0,0,0,0,0,0,0,0,0,0,0,0,0,,,,,,,,,,,,,
28,1490071,1745649726706,35.32,100.0,,-0.11,-0.29,0.81,0.0,0.0,0.0,0.86,1.14,76.0,4356.0,11.5,3.83,,12.71,1.226,79.0,,34.6,5.0,,,,,,,,,,,,0,0,0,0,0,0,0,0,0,0,0,0,0,0,0,0,,,,,,0.0,,,,,,,
29,1490091,1745649726726,,,,,,,,,,,,,,,,,,,,,,,0.0,38.0,0.0,0.0,0.0,24.0,0.0,0.0,2.26,,,0,0,0,0,0,0,0,0,0,0,0,0,0,0,0,0,,0.0,,,,,38.985802,-76.949982,0.07,49.6,31.0,3.0,0.8
30,1490111,1745649726746,35.95,100.0,,-0.08,-0.13,0.91,0.0,0.0,0.0,0.93,1.14,81.0,4356.0,11.5,3.83,,12.68,1.241,79.0,,34.6,5.0,,,,,,,,,,,,0,0,0,0,0,0,0,0,0,0,0,0,0,0,0,0,,,,,,0.0,,,,,,,
31,1490131,1745649726766,,,,,,,,,,,,,,,,,,,,,,,,,,,,,,,,,,0,0,0,0,0,0,0,0,0,0,0,0,0,0,0,0,,,,,,,,,,,,,
32,1490151,1745649726786,36.58,101.0,,-0.04,-0.08,0.95,1.0,0.0,0.0,0.95,1.14,83.0,4373.0,11.6,3.84,,12.68,1.237,79.0,,34.3,5.0,,,,,,,,,,,,0,0,0,0,0,0,0,0,0,0,0,0,0,0,0,0,,,,,,0.0,,,,,,,
33,1490171,1745649726807,,,,,,,,,,,,,,,,,,,,,,,,,,,,,,,,,,0,0,0,0,0,0,0,0,0,0,0,0,0,0,0,0,,,,,,,,,,,,,
34,1490191,1745649726827,36.58,100.0,,-0.02,-0.16,0.89,2.0,0.0,-1.0,0.91,1.14,80.0,4451.0,11.7,3.84,,12.69,1.221,79.0,,34.3,5.0,0.0,0.0,0.0,0.0,0.0,0.0,0.0,0.0,2.25,,,0,0,0,0,0,0,0,0,0,0,0,0,0,0,0,0,,0.0,,,,0.0,38.985802,-76.949982,0.0,49.6,31.0,3.0,0.8
35,1490211,1745649726847,,,,,,,,,,,,,,,,,,,,,,,,,,,,,,,,,,0,0,0,0,0,0,0,0,0,0,0,0,0,0,0,0,,,,,,,,,,,,,
36,1490231,1745649726867,37.2,101.0,,0.0,-0.23,0.83,2.0,0.0,-1.0,0.86,1.14,76.0,4445.0,11.5,3.85,,12.68,1.22,79.0,,34.3,5.0,,,,,,,,,,,,0,0,0,0,0,0,0,0,0,0,0,0,0,0,0,0,,,,,,0.0,,,,,,,
37,1490251,1745649726887,,,,,,,,,,,,,,,,,,,,,,,,,,,,,,,,,,0,0,0,0,0,0,0,0,0,0,0,0,0,0,0,0,,,,,,,,,,,,,
38,1490271,1745649726906,37.2,100.0,,-0.06,-0.31,0.78,2.0,0.0,-1.0,0.84,1.14,74.0,4425.0,11.4,3.84,,12.68,1.22,79.0,,35.2,5.0,,,,,,,,,,,,0,0,0,0,0,0,0,0,0,0,0,0,0,0,0,0,,,,,,0.0,,,,,,,
39,1490291,1745649726926,,,,,,,,,,,,,,,,,,,,,,,0.0,0.0,0.0,0.0,0.0,0.0,0.0,0.0,2.26,,,0,0,0,0,0,0,0,0,0,0,0,0,0,0,0,0,,0.0,,,,,38.985802,-76.949982,0.08,49.6,31.0,3.0,0.8
40,1490311,1745649726946,35.95,100.0,,-0.09,-0.26,0.84,2.0,0.0,-1.0,0.88,1.14,77.0,4425.0,11.4,3.84,,12.68,1.215,79.0,,35.2,5.0,,,,,,,,,,,,0,0,0,0,0,0,0,0,0,0,0,0,0,0,0,0,,,,,,0.0,,,,,,,
41,1490331,1745649726966,,,,,,,,,,,,,,,,,,,,,,,,,,,,,,,,,,0,0,0,0,0,0,0,0,0,0,0,0,0,0,0,0,,,,,,,,,,,,,
42,1490351,1745649726986,37.2,101.0,,-0.1,-0.08,0.95,0.0,0.0,0.0,0.96,1.14,84.0,4361.0,11.6,3.84,,12.69,1.226,79.0,,34.6,5.0,,,,,,,,,,,,0,0,0,0,0,0,0,0,0,0,0,0,0,0,0,0,,,,,,0.0,,,,,,,
43,1490371,1745649726998,,,,,,,,,,,,,,,,,,,,,,,,,,,,,,,,,,0,0,0,0,0,0,0,0,0,0,0,0,0,0,0,0,,,,,,,,,,,,,
44,1490391,1745649727018,37.2,100.0,13.58,-0.08,0.01,1.06,0.0,0.0,0.0,1.06,1.14,93.0,4378.0,11.6,3.85,15.0,12.73,1.228,79.0,169.0,34.6,5.0,0.0,0.0,0.0,0.0,0.0,0.0,0.0,0.0,2.26,0.0,1.0,0,0,0,0,0,0,0,0,0,0,0,0,0,0,0,0,0.0,0.0,0.0,0.0,0.0,0.0,38.985802,-76.949982,0.05,49.6,32.0,3.0,0.7
45,1490411,1745649727038,,,,,,,,,,,,,,,,,,,,,,,,,,,,,,,,,,0,0,0,0,0,0,0,0,0,0,0,0,0,0,0,0,,,,,,,,,,,,,
46,1490431,1745649727058,37.83,100.0,,-0.03,0.05,1.04,0.0,0.0,0.0,1.04,1.14,92.0,4386.0,11.6,3.84,,12.68,1.216,79.0,,34.6,5.0,,,,,,,,,,,,0,0,0,0,0,0,0,0,0,0,0,0,0,0,0,0,,,,,,0.0,,,,,,,
47,1490451,1745649727078,,,,,,,,,,,,,,,,,,,,,,,,,,,,,,,,,,0,0,0,0,0,0,0,0,0,0,0,0,0,0,0,0,,,,,,,,,,,,,
48,1490471,1745649727103,38.46,100.0,,0.0,-0.01,0.94,1.0,0.0,0.0,0.94,1.14,83.0,4411.0,11.5,3.86,,12.68,1.216,79.0,,34.3,5.0,,,,,,,,,,,,0,0,0,0,0,0,0,0,0,0,0,0,0,0,0,0,,,,,,0.0,,,,,,,
49,1490491,1745649727123,,,,,,,,,,,,,,,,,,,,,,,0.0,0.0,0.0,0.0,0.0,0.0,0.0,0.0,2.26,,,0,0,0,0,0,0,0,0,0,0,0,0,0,0,0,0,,0.0,,,,,38.985802,-76.949982,0.04,49.6,32.0,3.0,0.7
50,1490511,1745649727143,38.46,100.0,,0.0,-0.13,0.87,2.0,0.0,-1.0,0.88,1.14,77.0,4411.0,11.5,3.86,,12.69,1.222,79.0,,34.3,5.0,,,,,,,,,,,,0,0,0,0,0,0,0,0,0,0,0,0,0,0,0,0,,,,,,0.0,,,,,,,
51,1490531,1745649727163,,,,,,,,,,,,,,,,,,,,,,,,,,,,,,,,,,0,0,0,0,0,0,0,0,0,0,0,0,0,0,0,0,,,,,,,,,,,,,
52,1490551,1745649727183,37.83,101.0,,-0.01,-0.22,0.81,2.0,0.0,-1.0,0.83,1.14,73.0,4433.0,11.6,3.85,,12.69,1.232,79.0,,34.9,5.0,,,,,,,,,,,,0,0,0,0,0,0,0,0,0,0,0,0,0,0,0,0,,,,,,0.0,,,,,,,
53,1490571,1745649727207,,,,,,,,,,,,,,,,,,,,,,,,,,,,,,,,,,0,0,0,0,0,0,0,0,0,0,0,0,0,0,0,0,,,,,,,,,,,,,
54,1490591,1745649727227,37.2,101.0,,-0.06,-0.26,0.8,1.0,0.0,-1.0,0.85,1.14,74.0,4424.0,11.6,3.84,,12.69,1.218,79.0,,34.9,5.0,0.0,0.0,0.0,0.0,0.0,0.0,0.0,0.0,2.26,,,0,0,0,0,0,0,0,0,0,0,0,0,0,0,0,0,,0.0,,,,0.0,38.985802,-76.949982,0.0,49.6,32.0,3.0,0.7
55,1490611,1745649727247,,,,,,,,,,,,,,,,,,,,,,,,,,,,,,,,,,0,0,0,0,0,0,0,0,0,0,0,0,0,0,0,0,,,,,,,,,,,,,
56,1490631,1745649727267,36.58,101.0,,-0.09,-0.16,0.88,1.0,0.0,0.0,0.9,1.14,79.0,4375.0,11.6,3.84,,12.73,1.218,79.0,,34.9,5.0,,,,,,,,,,,,0,0,0,0,0,0,0,0,0,0,0,0,0,0,0,0,,,,,,0.0,,,,,,,
57,1490651,1745649727287,,,,,,,,,,,,,,,,,,,,,,,,,,,,,,,,,,0,0,0,0,0,0,0,0,0,0,0,0,0,0,0,0,,,,,,,,,,,,,
58,1490671,1745649727307,35.95,100.0,,-0.09,-0.03,1.01,0.0,0.0,0.0,1.02,1.14,89.0,4382.0,11.8,3.85,,12.73,1.218,79.0,,34.1,5.0,,,,,,,,,,,,0,0,0,0,0,0,0,0,0,0,0,0,0,0,0,0,,,,,,0.0,,,,,,,
59,1490691,1745649727327,,,,,,,,,,,,,,,,,,,,,,,0.0,0.0,0.0,0.0,0.0,0.0,0.0,0.0,2.26,,,0,0,0,0,0,0,0,0,0,0,0,0,0,0,0,0,,0.0,,,,,38.985802,-76.949982,0.06,49.6,32.0,3.0,0.7
60,1490711,1745649727347,36.58,100.0,,-0.05,0.06,1.06,0.0,0.0,0.0,1.06,1.14,93.0,4382.0,11.8,3.85,,12.77,1.227,79.0,,34.1,5.0,,,,,,,,,,,,0,0,0,0,0,0,0,0,0,0,0,0,0,0,0,0,,,,,,0.0,,,,,,,
61,1490731,1745649727367,,,,,,,,,,,,,,,,,,,,,,,,,,,,,,,,,,0,0,0,0,0,0,0,0,0,0,0,0,0,0,0,0,,,,,,,,,,,,,
62,1490751,1745649727387,39.72,100.0,,-0.01,0.04,1.0,0.0,0.0,0.0,1.0,1.14,88.0,4360.0,12.0,3.87,,12.75,1.217,79.0,,34.1,5.0,,,,,,,,,,,,0,0,0,0,0,0,0,0,0,0,0,0,0,0,0,0,,,,,,0.0,,,,,,,
63,1490771,1745649727405,,,,,,,,,,,,,,,,,,,,,,,,,,,,,,,,,,0,0,0,0,0,0,0,0,0,0,0,0,0,0,0,0,,,,,,,,,,,,,
64,1490791,1745649727425,39.72,100.0,,-0.0,-0.09,0.9,1.0,0.0,-1.0,0.91,1.14,80.0,4419.0,12.2,3.87,,12.76,1.222,79.0,,34.1,5.0,0.0,0.0,0.0,0.0,0.0,0.0,0.0,0.0,2.25,,,0,0,0,0,0,0,0,0,0,0,0,0,0,0,0,0,,0.0,,,,0.0,38.985802,-76.949982,0.11,49.6,32.0,3.0,0.7
65,1490811,1745649727445,,,,,,,,,,,,,,,,,,,,,,,,,,,,,,,,,,0,0,0,0,0,0,0,0,0,0,0,0,0,0,0,0,,,,,,,,,,,,,
66,1490831,1745649727465,40.35,100.0,,-0.01,-0.18,0.85,2.0,0.0,-1.0,0.87,1.14,76.0,4419.0,12.8,3.9,,12.81,1.246,79.0,,34.1,5.0,,,,,,,,,,,,0,0,0,0,0,0,0,0,0,0,0,0,0,0,0,0,,,,,,0.0,,,,,,,
67,1490851,1745649727485,,,,,,,,,,,,,,,,,,,,,,,,,,,,,,,,,,0,0,0,0,0,0,0,0,0,0,0,0,0,0,0,0,,,,,,,,,,,,,
68,1490871,1745649727507,39.09,100.0,,-0.06,-0.21,0.84,1.0,0.0,-1.0,0.87,1.14,76.0,4407.0,13.0,3.93,,12.81,1.246,79.0,,34.5,5.0,,,,,,,,,,,,0,0,0,0,0,0,0,0,0,0,0,0,0,0,0,0,,,,,,0.0,,,,,,,
69,1490891,1745649727527,,,,,,,,,,,,,,,,,,,,,,,0.0,0.0,0.0,0.0,0.0,0.0,0.0,0.0,2.26,,,0,0,0,0,0,0,0,0,0,0,0,0,0,0,0,0,,0.0,,,,,38.985802,-76.949982,0.04,49.6,32.0,3.0,0.7
70,1490911,1745649727547,37.83,100.0,,-0.1,-0.16,0.9,0.0,0.0,0.0,0.92,1.14,81.0,4407.0,13.0,3.93,,12.8,1.221,79.0,,34.5,5.0,,,,,,,,,,,,0,0,0,0,0,0,0,0,0,0,0,0,0,0,0,0,,,,,,0.0,,,,,,,
71,1490931,1745649727567,,,,,,,,,,,,,,,,,,,,,,,,,,,,,,,,,,0,0,0,0,0,0,0,0,0,0,0,0,0,0,0,0,,,,,,,,,,,,,
72,1490951,1745649727587,38.46,100.0,,-0.11,-0.01,1.01,-1.0,0.0,1.0,1.02,1.14,89.0,4394.0,12.9,3.92,,12.84,1.218,79.0,,34.7,5.0,,,,,,,,,,,,0,0,0,0,0,0,0,0,0,0,0,0,0,0,0,0,,,,,,0.0,,,,,,,
73,1490971,1745649727607,,,,,,,,,,,,,,,,,,,,,,,,,,,,,,,,,,0,0,0,0,0,0,0,0,0,0,0,0,0,0,0,0,,,,,,,,,,,,,
74,1490991,1745649727627,39.09,101.0,,-0.1,0.08,1.12,-1.0,0.0,1.0,1.13,1.14,99.0,4404.0,14.2,3.94,,12.88,1.228,79.0,,34.7,5.0,0.0,0.0,0.0,0.0,0.0,0.0,0.0,0.0,2.26,,,0,0,0,0,0,0,0,0,0,0,0,0,0,0,0,0,,0.0,,,,0.0,38.985802,-76.949982,0.08,49.6,32.0,3.0,0.7
75,1491011,1745649727647,,,,,,,,,,,,,,,,,,,,,,,,,,,,,,,,,,0,0,0,0,0,0,0,0,0,0,0,0,0,0,0,0,,,,,,,,,,,,,
76,1491031,1745649727667,37.83,100.0,,-0.06,0.16,1.18,-1.0,0.0,1.0,1.19,1.19,100.0,4408.0,17.2,4.08,,13.0,1.203,79.0,,34.7,5.0,,,,,,,,,,,,0,0,0,0,0,0,0,0,0,0,0,0,0,0,0,0,,,,,,0.0,,,,,,,
77,1491051,1745649727687,,,,,,,,,,,,,,,,,,,,,,,,,,,,,,,,,,0,0,0,0,0,0,0,0,0,0,0,0,0,0,0,0,,,,,,,,,,,,,
78,1491071,1745649727707,38.46,100.0,,-0.02,0.2,1.21,-1.0,0.0,1.0,1.23,1.23,100.0,4496.0,22.3,4.25,,13.0,1.203,79.0,,34.8,5.0,,,,,,,,,,,,0,0,0,0,0,0,0,0,0,0,0,0,0,0,0,0,,,,,,0.0,,,,,,,
79,1491091,1745649727727,,,,,,,,,,,,,,,,,,,,,,,0.0,0.0,0.0,0.0,0.0,0.0,0.0,0.0,2.26,,,0,0,0,0,0,0,0,0,0,0,0,0,0,0,0,0,,0.0,,,,,38.985802,-76.949982,0.05,49.6,32.0,3.0,0.7
80,1491111,1745649727747,39.09,100.0,,0.01,0.25,1.26,-1.0,0.0,1.0,1.28,1.28,100.0,4496.0,22.3,4.25,,13.32,1.198,79.0,,34.8,5.0,,,,,,,,,,,,0,0,0,0,0,0,0,0,0,0,0,0,0,0,0,0,,,,,,0.0,,,,,,,
81,1491131,1745649727767,,,,,,,,,,,,,,,,,,,,,,,,,,,,,,,,,,0,0,0,0,0,0,0,0,0,0,0,0,0,0,0,0,,,,,,,,,,,,,
82,1491151,1745649727787,37.83,101.0,,-0.01,0.3,1.31,-2.0,0.0,2.0,1.35,1.35,100.0,4610.0,25.1,4.47,,13.44,1.227,79.0,,36.7,5.0,,,,,,,,,,,,0,0,0,0,0,0,0,0,0,0,0,0,0,0,0,0,,,,,,0.0,,,,,,,
83,1491171,1745649727807,,,,,,,,,,,,,,,,,,,,,,,,,,,,,,,,,,0,0,0,0,0,0,0,0,0,0,0,0,0,0,0,0,,,,,,,,,,,,,
84,1491191,1745649727827,37.2,101.0,,-0.04,0.19,1.23,-1.0,0.0,1.0,1.25,1.35,93.0,4783.0,25.4,4.5,,13.44,1.232,79.0,,36.7,5.0,0.0,0.0,0.0,0.0,0.0,0.0,0.0,0.0,2.26,,,0,0,0,0,0,0,0,0,0,0,0,0,0,0,0,0,,0.0,,,,0.0,38.985802,-76.949982,0.04,49.6,32.0,3.0,0.7
85,1491211,1745649727847,,,,,,,,,,,,,,,,,,,,,,,,,,,,,,,,,,0,0,0,0,0,0,0,0,0,0,0,0,0,0,0,0,,,,,,,,,,,,,
86,1491231,1745649727867,35.95,101.0,,-0.04,0.23,1.22,-2.0,0.0,1.0,1.25,1.35,92.0,5002.0,25.5,4.51,,13.43,1.251,79.0,,36.7,5.0,,,,,,,,,,,,0,0,0,0,0,0,0,0,0,0,0,0,0,0,0,0,,,,,,0.0,,,,,,,
87,1491251,1745649727887,,,,,,,,,,,,,,,,,,,,,,,,,,,,,,,,,,0,0,0,0,0,0,0,0,0,0,0,0,0,0,0,0,,,,,,,,,,,,,
88,1491271,1745649727907,35.32,100.0,,-0.04,0.24,1.18,-1.0,0.0,1.0,1.21,1.35,90.0,5206.0,25.5,4.52,,13.43,1.251,79.0,,39.2,5.0,,,,,,,,,,,,0,0,0,0,0,0,0,0,0,0,0,0,0,0,0,0,,,,,,0.0,,,,,,,
89,1491291,1745649727927,,,,,,,,,,,,,,,,,,,,,,,0.0,0.0,0.0,0.0,0.0,0.0,0.0,0.0,2.26,,,0,0,0,0,0,0,0,0,0,0,0,0,0,0,0,0,,0.0,,,,,38.985802,-76.949982,0.05,49.6,32.0,3.0,0.7
90,1491311,1745649727947,34.69,100.0,,-0.04,0.16,1.1,-1.0,0.0,1.0,1.11,1.35,82.0,5206.0,25.5,4.52,,13.23,1.243,79.0,,39.2,5.0,,,,,,,,,,,,0,0,0,0,0,0,0,0,0,0,0,0,0,0,0,0,,,,,,0.0,,,,,,,
91,1491331,1745649727967,,,,,,,,,,,,,,,,,,,,,,,,,,,,,,,,,,0,0,0,0,0,0,0,0,0,0,0,0,0,0,0,0,,,,,,,,,,,,,
92,1491351,1745649727987,34.06,101.0,,-0.07,0.19,1.13,-2.0,0.0,1.0,1.15,1.35,85.0,5576.0,25.5,4.53,,13.05,1.25,79.0,,40.6,5.0,,,,,,,,,,,,0,0,0,0,0,0,0,0,0,0,0,0,0,0,0,0,,,,,,0.0,,,,,,,
93,1491371,1745649727998,,,,,,,,,,,,,,,,,,,,,,,,,,,,,,,,,,0,0,0,0,0,0,0,0,0,0,0,0,0,0,0,0,,,,,,,,,,,,,
94,1491391,1745649728018,34.69,101.0,13.62,-0.08,0.22,1.24,-3.0,0.0,2.0,1.27,1.35,94.0,6000.0,25.5,4.53,15.0,12.81,1.249,79.0,169.0,40.6,5.0,0.0,0.0,0.0,0.0,0.0,0.0,0.0,0.0,2.26,0.0,1.0,0,0,0,0,0,0,0,0,0,0,0,0,0,0,0,0,0.0,0.0,0.0,0.0,0.0,0.0,38.985802,-76.949982,0.12,49.6,32.0,3.0,0.7
95,1491411,1745649728038,,,,,,,,,,,,,,,,,,,,,,,,,,,,,,,,,,0,0,0,0,0,0,0,0,0,0,0,0,0,0,0,0,,,,,,,,,,,,,
96,1491431,1745649728058,35.32,101.0,,-0.09,0.16,1.21,-2.0,0.0,2.0,1.22,1.35,91.0,6543.0,25.5,4.94,,12.55,1.185,79.0,,40.6,5.0,,,,,,,,,,,,0,0,0,0,0,0,0,0,0,0,0,0,0,0,0,0,,,,,,0.0,,,,,,,
97,1491451,1745649728078,,,,,,,,,,,,,,,,,,,,,,,,,,,,,,,,,,0,0,0,0,0,0,0,0,0,0,0,0,0,0,0,0,,,,,,,,,,,,,
98,1491471,1745649728098,35.32,100.0,,-0.1,-0.02,1.15,-2.0,0.0,1.0,1.16,1.35,86.0,7235.0,25.3,5.41,,12.55,1.185,79.0,,42.4,5.0,,,,,,,,,,,,0,0,0,0,0,0,0,0,0,0,0,0,0,0,0,0,,,,,,0.0,,,,,,,
99,1491491,1745649728118,,,,,,,,,,,,,,,,,,,,,,,0.0,0.0,0.0,0.0,0.0,0.0,0.0,0.0,2.26,,,0,0,0,0,0,0,0,0,0,0,0,0,0,0,0,0,,0.0,,,,,38.985802,-76.949982,0.11,49.6,32.0,3.0,0.7
100,1491511,1745649728138,36.58,100.0,,-0.09,-0.07,1.19,-2.0,0.0,1.0,1.19,1.35,89.0,7235.0,25.3,5.41,,12.23,1.093,79.0,,42.4,5.0,,,,,,,,,,,,0,0,0,0,0,0,0,0,0,0,0,0,0,0,0,0,,,,,,0.0,,,,,,,
101,1491531,1745649728158,,,,,,,,,,,,,,,,,,,,,,,,,,,,,,,,,,0,0,0,0,0,0,0,0,0,0,0,0,0,0,0,0,,,,,,,,,,,,,
102,1491551,1745649728178,37.2,101.0,,-0.09,-0.06,1.09,-3.0,0.0,1.0,1.1,1.35,81.0,8250.0,25.1,5.15,,11.69,0.982,79.0,,43.6,5.0,,,,,,,,,,,,0,0,0,0,0,0,0,0,0,0,0,0,0,0,0,0,,,,,,0.0,,,,,,,
103,1491571,1745649728202,,,,,,,,,,,,,,,,,,,,,,,,,,,,,,,,,,0,0,0,0,0,0,0,0,0,0,0,0,0,0,0,0,,,,,,,,,,,,,
104,1491591,1745649728222,35.95,101.0,,-0.01,-0.04,1.08,-3.0,0.0,2.0,1.08,1.35,80.0,9539.0,24.6,4.69,,10.89,0.894,79.0,,43.6,5.0,0.0,44.0,0.0,0.0,0.0,24.0,0.0,0.0,2.27,,,0,0,0,0,0,0,0,0,0,0,0,0,0,0,0,0,,0.0,,,,0.0,38.985802,-76.949982,0.08,49.6,32.0,3.0,0.7
105,1491611,1745649728242,,,,,,,,,,,,,,,,,,,,,,,,,,,,,,,,,,0,0,0,0,0,0,0,0,0,0,0,0,0,0,0,0,,,,,,,,,,,,,
106,1491631,1745649728262,35.32,101.0,,-0.02,-0.01,1.1,-3.0,0.0,2.0,1.1,1.35,81.0,10906.0,24.6,3.8,,10.36,0.814,79.0,,43.6,5.0,,,,,,,,,,,,0,0,0,0,0,0,0,0,0,0,0,0,0,0,0,0,,,,,,0.0,,,,,,,
107,1491651,1745649728282,,,,,,,,,,,,,,,,,,,,,,,,,,,,,,,,,,0,0,0,0,0,0,0,0,0,0,0,0,0,0,0,0,,,,,,,,,,,,,
108,1491671,1745649728304,34.69,100.0,,-0.01,0.05,1.06,-4.0,0.0,3.0,1.06,1.35,79.0,11955.0,25.3,3.43,,10.36,0.814,79.0,,47.3,5.0,,,,,,,,,,,,0,0,0,0,0,0,0,0,0,0,0,0,0,0,0,0,,,,,,0.0,,,,,,,
109,1491691,1745649728324,,,,,,,,,,,,,,,,,,,,,,,0.0,10.0,0.0,0.0,0.0,24.0,0.0,0.0,2.25,,,0,0,0,0,0,0,0,0,0,0,0,0,0,0,0,0,,0.0,,,,,38.985802,-76.949982,0.09,49.6,32.0,3.0,0.7
110,1491711,1745649728344,29.66,100.0,,-0.03,0.19,1.1,-4.0,0.0,3.0,1.12,1.35,83.0,11955.0,25.3,3.43,,9.73,0.804,79.0,,47.3,5.0,,,,,,,,,,,,0,0,0,0,0,0,0,0,0,0,0,0,0,0,0,0,,,,,,0.0,,,,,,,
111,1491731,1745649728364,,,,,,,,,,,,,,,,,,,,,,,,,,,,,,,,,,0,0,0,0,0,0,0,0,0,0,0,0,0,0,0,0,,,,,,,,,,,,,
112,1491751,1745649728384,22.75,100.0,,-0.05,0.16,1.05,-4.0,0.0,3.0,1.06,1.35,79.0,12562.0,25.3,2.91,,9.33,0.809,79.0,,50.7,5.0,,,,,,,,,,,,0,0,0,0,0,0,0,0,0,0,0,0,0,0,0,0,,,,,,0.0,,,,,,,
113,1491771,1745649728406,,,,,,,,,,,,,,,,,,,,,,,,,,,,,,,,,,0,0,0,0,0,0,0,0,0,0,0,0,0,0,0,0,,,,,,,,,,,,,
114,1491791,1745649728426,17.09,100.0,,-0.06,0.16,1.0,-4.0,0.0,3.0,1.01,1.35,75.0,13127.0,25.3,2.43,,9.03,0.864,79.0,,50.7,5.0,0.0,66.0,0.0,0.0,0.0,24.0,0.0,0.0,2.25,,,0,0,0,0,0,0,0,0,0,0,0,0,0,0,0,0,,0.0,,,,0.0,38.985802,-76.949982,0.24,49.6,32.0,3.0,0.7
115,1491811,1745649728446,,,,,,,,,,,,,,,,,,,,,,,,,,,,,,,,,,0,0,0,0,0,0,0,0,0,0,0,0,0,0,0,0,,,,,,,,,,,,,
116,1491831,1745649728466,9.55,100.0,,-0.09,0.28,1.02,-3.0,0.0,2.0,1.07,1.35,79.0,13293.0,25.3,2.39,,8.74,0.946,79.0,,50.7,5.0,,,,,,,,,,,,0,0,0,0,0,0,0,0,0,0,0,0,0,0,0,0,,,,,,0.0,,,,,,,
117,1491851,1745649728486,,,,,,,,,,,,,,,,,,,,,,,,,,,,,,,,,,0,0,0,0,0,0,0,0,0,0,0,0,0,0,0,0,,,,,,,,,,,,,
118,1491871,1745649728506,3.9,100.0,,-0.08,0.07,1.07,-2.0,0.0,1.0,1.07,1.35,80.0,13227.0,25.5,2.33,,8.74,0.946,79.0,,55.8,5.0,,,,,,,,,,,,0,0,0,0,0,0,0,0,0,0,0,0,0,0,0,0,,,,,,0.0,,,,,,,
119,1491891,1745649728526,,,,,,,,,,,,,,,,,,,,,,,0.0,51.0,0.0,0.0,0.0,24.0,0.0,0.0,2.26,,,0,0,0,0,0,0,0,0,0,0,0,0,0,0,0,0,,0.0,,,,,38.985802,-76.949982,0.15,49.6,32.0,3.0,0.7
120,1491911,1745649728546,0.75,101.0,,-0.05,0.06,1.03,-2.0,0.0,1.0,1.03,1.35,77.0,13227.0,25.5,2.33,,8.77,1.019,79.0,,55.8,5.0,,,,,,,,,,,,0,0,0,0,0,0,0,0,0,0,0,0,0,0,0,0,,,,,,0.0,,,,,,,
121,1491931,1745649728566,,,,,,,,,,,,,,,,,,,,,,,,,,,,,,,,,,0,0,0,0,0,0,0,0,0,0,0,0,0,0,0,0,,,,,,,,,,,,,
122,1491951,1745649728586,0.0,101.0,,-0.07,0.12,1.01,0.0,0.0,1.0,1.02,1.35,76.0,13123.0,25.6,2.34,,8.53,1.109,79.0,,58.3,5.0,,,,,,,,,,,,0,0,0,0,0,0,0,0,0,0,0,0,0,0,0,0,,,,,,0.0,,,,,,,
123,1491971,1745649728606,,,,,,,,,,,,,,,,,,,,,,,,,,,,,,,,,,0,0,0,0,0,0,0,0,0,0,0,0,0,0,0,0,,,,,,,,,,,,,
124,1491991,1745649728626,0.0,100.0,,-0.04,0.09,1.02,0.0,0.0,1.0,1.03,1.35,76.0,12758.0,25.6,2.46,,8.7,1.193,79.0,,58.3,5.0,0.0,33.0,0.0,0.0,0.0,24.0,0.0,0.0,2.26,,,0,0,0,0,0,0,0,0,0,0,0,0,0,0,0,0,,0.0,,,,0.0,38.985802,-76.949982,0.07,49.6,32.0,3.0,0.7
125,1492011,1745649728646,,,,,,,,,,,,,,,,,,,,,,,,,,,,,,,,,,0,0,0,0,0,0,0,0,0,0,0,0,0,0,0,0,,,,,,,,,,,,,
126,1492031,1745649728666,0.0,100.0,,-0.05,0.15,0.97,0.0,0.0,1.0,0.98,1.35,73.0,12559.0,25.6,2.67,,8.75,1.248,79.0,,58.3,5.0,,,,,,,,,,,,0,0,0,0,0,0,0,0,0,0,0,0,0,0,0,0,,,,,,0.0,,,,,,,
127,1492051,1745649728686,,,,,,,,,,,,,,,,,,,,,,,,,,,,,,,,,,0,0,0,0,0,0,0,0,0,0,0,0,0,0,0,0,,,,,,,,,,,,,
128,1492071,1745649728706,0.0,100.0,,-0.01,0.04,0.99,0.0,0.0,1.0,0.99,1.35,73.0,12396.0,25.9,2.81,,8.75,1.248,79.0,,56.5,5.0,,,,,,,,,,,,0,0,0,0,0,0,0,0,0,0,0,0,0,0,0,0,,,,,,0.0,,,,,,,
129,1492091,1745649728726,,,,,,,,,,,,,,,,,,,,,,,0.0,45.0,0.0,0.0,0.0,24.0,0.0,0.0,2.26,,,0,0,0,0,0,0,0,0,0,0,0,0,0,0,0,0,,0.0,,,,,38.985802,-76.949982,0.08,49.6,32.0,3.0,0.7
130,1492111,1745649728746,0.0,100.0,,0.02,-0.0,0.97,1.0,0.0,0.0,0.97,1.35,72.0,12396.0,25.9,2.81,,8.82,1.248,79.0,,56.5,5.0,,,,,,,,,,,,0,0,0,0,0,0,0,0,0,0,0,0,0,0,0,0,,,,,,0.0,,,,,,,
131,1492131,1745649728766,,,,,,,,,,,,,,,,,,,,,,,,,,,,,,,,,,0,0,0,0,0,0,0,0,0,0,0,0,0,0,0,0,,,,,,,,,,,,,
132,1492151,1745649728786,0.0,101.0,,0.01,0.08,1.09,1.0,0.0,0.0,1.1,1.35,81.0,12420.0,26.0,2.81,,8.83,1.248,79.0,,54.9,5.0,,,,,,,,,,,,0,0,0,0,0,0,0,0,0,0,0,0,0,0,0,0,,,,,,0.0,,,,,,,
133,1492171,1745649728804,,,,,,,,,,,,,,,,,,,,,,,,,,,,,,,,,,0,0,0,0,0,0,0,0,0,0,0,0,0,0,0,0,,,,,,,,,,,,,
134,1492191,1745649728824,0.0,101.0,,0.03,0.11,1.01,1.0,0.0,0.0,1.02,1.35,76.0,12254.0,26.3,2.81,,8.91,1.2,77.2,,54.9,5.0,0.0,48.0,0.0,0.0,0.0,24.0,0.0,0.0,2.26,,,0,0,0,0,0,0,0,0,0,0,0,0,0,0,0,0,,0.0,,,,0.0,38.985802,-76.949982,0.05,49.6,32.0,3.0,0.7
135,1492211,1745649728844,,,,,,,,,,,,,,,,,,,,,,,,,,,,,,,,,,0,0,0,0,0,0,0,0,0,0,0,0,0,0,0,0,,,,,,,,,,,,,
136,1492231,1745649728864,0.0,99.0,,0.1,0.07,1.06,2.0,1.0,1.0,1.07,1.35,80.0,10853.0,27.8,2.91,,9.44,1.179,77.2,,54.9,5.0,,,,,,,,,,,,0,0,0,0,0,0,0,0,0,0,0,0,0,0,0,0,,,,,,0.0,,,,,,,
137,1492251,1745649728884,,,,,,,,,,,,,,,,,,,,,,,,,,,,,,,,,,0,0,0,0,0,0,0,0,0,0,0,0,0,0,0,0,,,,,,,,,,,,,
138,1492271,1745649728906,0.0,98.0,,0.11,-0.01,1.09,2.0,1.0,1.0,1.09,1.35,81.0,9127.0,24.0,3.3,,9.44,1.179,77.2,,51.4,5.0,,,,,,,,,,,,0,0,0,0,0,0,0,0,0,0,0,0,0,0,0,0,,,,,,0.0,,,,,,,
139,1492291,1745649728926,,,,,,,,,,,,,,,,,,,,,,,0.0,303.0,13.0,15.0,0.0,61.0,0.0,0.0,2.25,,,0,0,0,0,0,0,0,0,0,0,0,0,0,0,0,0,,0.0,,,,,38.985802,-76.949982,0.39,49.6,32.0,3.0,0.7
140,1492311,1745649728946,0.0,97.0,,0.12,-0.17,1.06,2.0,1.0,0.0,1.08,1.35,80.0,9127.0,24.0,3.3,,9.97,1.214,77.2,,51.4,5.0,,,,,,,,,,,,0,0,0,0,0,0,0,0,0,0,0,0,0,0,0,0,,,,,,0.0,,,,,,,
141,1492331,1745649728966,,,,,,,,,,,,,,,,,,,,,,,,,,,,,,,,,,0,0,0,0,0,0,0,0,0,0,0,0,0,0,0,0,,,,,,,,,,,,,
142,1492351,1745649728986,0.0,97.0,,0.15,-0.18,1.13,2.0,0.0,0.0,1.15,1.35,85.0,8445.0,25.4,3.58,,10.56,1.251,77.2,,48.3,5.0,,,,,,,,,,,,0,0,0,0,0,0,0,0,0,0,0,0,0,0,0,0,,,,,,0.0,,,,,,,
143,1492371,1745649728996,,,,,,,,,,,,,,,,,,,,,,,,,,,,,,,,,,0,0,0,0,0,0,0,0,0,0,0,0,0,0,0,0,,,,,,,,,,,,,
144,1492391,1745649729016,0.0,97.0,13.61,0.19,-0.1,1.15,1.0,0.0,0.0,1.17,1.35,87.0,8766.0,34.2,3.78,15.0,11.1,1.16,77.2,167.0,48.3,5.0,2.0,584.0,29.0,30.0,0.0,230.0,0.0,0.0,2.25,0.0,1.0,0,0,0,0,0,0,0,0,0,0,0,0,0,0,0,0,0.0,0.0,0.0,0.0,0.0,0.0,38.985802,-76.949982,2.94,49.6,31.0,3.0,0.8
145,1492411,1745649729036,,,,,,,,,,,,,,,,,,,,,,,,,,,,,,,,,,0,0,0,0,0,0,0,0,0,0,0,0,0,0,0,0,,,,,,,,,,,,,
146,1492431,1745649729056,0.0,97.0,,0.21,0.06,1.03,1.0,0.0,0.0,1.05,1.35,78.0,8905.0,53.3,5.28,,12.57,1.055,77.2,,48.3,5.0,,,,,,,,,,,,0,0,0,0,0,0,0,0,0,0,0,0,0,0,0,0,,,,,,0.0,,,,,,,
147,1492451,1745649729076,,,,,,,,,,,,,,,,,,,,,,,,,,,,,,,,,,0,0,0,0,0,0,0,0,0,0,0,0,0,0,0,0,,,,,,,,,,,,,
148,1492471,1745649729103,0.0,96.0,,0.24,-0.09,0.99,1.0,0.0,0.0,1.02,1.35,76.0,9336.0,56.3,5.4,,12.57,1.055,77.2,,47.4,5.0,,,,,,,,,,,,0,0,0,0,0,0,0,0,0,0,0,0,0,0,0,0,,,,,,0.0,,,,,,,
149,1492491,1745649729123,,,,,,,,,,,,,,,,,,,,,,,3.0,494.0,31.0,28.0,0.0,173.0,0.0,0.0,2.26,,,0,0,0,0,0,0,0,0,0,0,0,0,0,0,0,0,,0.0,,,,,38.985802,-76.949982,4.54,49.6,31.0,3.0,0.8
150,1492511,1745649729143,0.0,96.0,,0.27,-0.11,1.01,1.0,0.0,0.0,1.05,1.35,78.0,9336.0,56.3,5.4,,12.93,1.093,77.2,,47.4,5.0,,,,,,,,,,,,0,0,0,0,0,0,0,0,0,0,0,0,0,0,0,0,,,,,,0.0,,,,,,,
151,1492531,1745649729163,,,,,,,,,,,,,,,,,,,,,,,,,,,,,,,,,,0,0,0,0,0,0,0,0,0,0,0,0,0,0,0,0,,,,,,,,,,,,,
152,1492551,1745649729183,0.0,97.0,,0.28,-0.02,0.97,2.0,0.0,1.0,1.01,1.35,75.0,10006.0,55.6,5.34,,12.93,1.057,77.2,,48.8,5.0,,,,,,,,,,,,0,0,0,0,0,0,0,0,0,0,0,0,0,0,0,0,,,,,,0.0,,,,,,,
153,1492571,1745649729204,,,,,,,,,,,,,,,,,,,,,,,,,,,,,,,,,,0,0,0,0,0,0,0,0,0,0,0,0,0,0,0,0,,,,,,,,,,,,,
154,1492591,1745649729224,0.0,96.0,,0.28,0.02,1.01,1.0,0.0,1.0,1.05,1.35,78.0,10620.0,55.8,4.67,,13.0,1.015,77.2,,48.8,5.0,4.0,5.0,33.0,33.0,0.0,178.0,0.0,0.0,2.25,,,0,0,0,0,0,0,0,0,0,0,0,0,0,0,0,0,,0.0,,,,0.0,38.985806,-76.949982,6.71,49.6,31.0,3.0,0.8
155,1492611,1745649729244,,,,,,,,,,,,,,,,,,,,,,,,,,,,,,,,,,0,0,0,0,0,0,0,0,0,0,0,0,0,0,0,0,,,,,,,,,,,,,
156,1492631,1745649729264,0.0,95.0,,0.33,-0.06,0.93,2.0,0.0,0.0,0.99,1.35,73.0,11199.0,55.8,4.09,,12.87,0.983,77.2,,48.8,5.0,,,,,,,,,,,,0,0,0,0,0,0,0,0,0,0,0,0,0,0,0,0,,,,,,0.0,,,,,,,
157,1492651,1745649729284,,,,,,,,,,,,,,,,,,,,,,,,,,,,,,,,,,0,0,0,0,0,0,0,0,0,0,0,0,0,0,0,0,,,,,,,,,,,,,
158,1492671,1745649729305,0.0,96.0,,0.42,0.12,0.88,2.0,0.0,0.0,0.98,1.35,73.0,11295.0,55.7,4.04,,12.87,0.983,77.2,,52.9,5.0,,,,,,,,,,,,0,0,0,0,0,0,0,0,0,0,0,0,0,0,0,0,,,,,,0.0,,,,,,,
159,1492691,1745649729325,,,,,,,,,,,,,,,,,,,,,,,5.0,48.0,32.0,35.0,0.0,230.0,0.0,0.0,2.26,,,0,0,0,0,0,0,0,0,0,0,0,0,0,0,0,0,,1.0,,,,,38.985806,-76.949982,7.93,49.6,31.0,3.0,0.8
160,1492711,1745649729345,0.0,95.0,,0.47,0.0,0.89,3.0,0.0,0.0,1.01,1.35,75.0,11295.0,55.7,4.04,,12.88,1.003,77.2,,52.9,5.0,,,,,,,,,,,,0,0,0,0,0,0,0,0,0,0,0,0,0,0,0,0,,,,,,0.0,,,,,,,
161,1492731,1745649729365,,,,,,,,,,,,,,,,,,,,,,,,,,,,,,,,,,0,0,0,0,0,0,0,0,0,0,0,0,0,0,0,0,,,,,,,,,,,,,
162,1492751,1745649729385,0.0,96.0,,0.47,0.06,0.96,4.0,0.0,0.0,1.07,1.35,79.0,11235.0,55.8,4.09,,12.83,1.081,77.2,,50.1,5.0,,,,,,,,,,,,0,0,0,0,0,0,0,0,0,0,0,0,0,0,0,0,,,,,,0.0,,,,,,,
163,1492771,1745649729405,,,,,,,,,,,,,,,,,,,,,,,,,,,,,,,,,,0,0,0,0,0,0,0,0,0,0,0,0,0,0,0,0,,,,,,,,,,,,,
164,1492791,1745649729425,0.0,96.0,,0.46,-0.02,0.96,6.0,0.0,0.0,1.06,1.35,79.0,11102.0,56.0,4.14,,12.73,1.132,77.2,,50.1,5.0,7.0,48.0,32.0,33.0,0.0,235.0,0.0,0.0,2.26,,,0,0,0,0,0,0,0,0,0,0,0,0,0,0,0,0,,0.0,,,,0.0,38.985809,-76.949982,9.79,49.6,31.0,3.0,0.8
165,1492811,1745649729445,,,,,,,,,,,,,,,,,,,,,,,,,,,,,,,,,,0,0,0,0,0,0,0,0,0,0,0,0,0,0,0,0,,,,,,,,,,,,,
166,1492831,1745649729465,0.0,96.0,,0.46,-0.03,0.96,9.0,0.0,0.0,1.07,1.35,79.0,10935.0,56.0,4.29,,12.89,1.206,77.2,,50.1,5.0,,,,,,,,,,,,0,0,0,0,0,0,0,0,0,0,0,0,0,0,0,0,,,,,,0.0,,,,,,,
167,1492851,1745649729485,,,,,,,,,,,,,,,,,,,,,,,,,,,,,,,,,,0,0,0,0,0,0,0,0,0,0,0,0,0,0,0,0,,,,,,,,,,,,,
168,1492871,1745649729505,0.0,95.0,,0.45,0.03,1.0,9.0,0.0,1.0,1.1,1.35,81.0,10956.0,55.9,4.23,,12.89,1.206,77.2,,51.0,5.0,,,,,,,,,,,,0,0,0,0,0,0,0,0,0,0,0,0,0,0,0,0,,,,,,0.0,,,,,,,
169,1492891,1745649729525,,,,,,,,,,,,,,,,,,,,,,,8.0,48.0,34.0,32.0,0.0,186.0,0.0,0.0,2.25,,,0,0,0,0,0,0,0,0,0,0,0,0,0,0,0,0,,1.0,,,,,38.985813,-76.949982,11.69,49.6,31.0,3.0,0.8
170,1492911,1745649729545,0.0,95.0,,0.46,-0.04,0.95,11.0,-1.0,0.0,1.05,1.35,78.0,10956.0,55.9,4.23,,12.88,1.188,77.2,,51.0,5.0,,,,,,,,,,,,0,0,0,0,0,0,0,0,0,0,0,0,0,0,0,0,,,,,,0.0,,,,,,,
171,1492931,1745649729565,,,,,,,,,,,,,,,,,,,,,,,,,,,,,,,,,,0,0,0,0,0,0,0,0,0,0,0,0,0,0,0,0,,,,,,,,,,,,,
172,1492951,1745649729585,0.0,95.0,,0.42,-0.07,0.97,13.0,-1.0,0.0,1.06,1.35,78.0,11034.0,55.9,4.17,,13.04,1.158,77.2,,48.9,5.0,,,,,,,,,,,,0,0,0,0,0,0,0,0,0,0,0,0,0,0,0,0,,,,,,0.0,,,,,,,
173,1492971,1745649729605,,,,,,,,,,,,,,,,,,,,,,,,,,,,,,,,,,0,0,0,0,0,0,0,0,0,0,0,0,0,0,0,0,,,,,,,,,,,,,
174,1492991,1745649729625,0.0,95.0,,0.43,0.01,1.02,12.0,-1.0,1.0,1.11,1.35,82.0,11100.0,56.1,4.15,,12.64,1.131,77.2,,48.9,5.0,9.0,30.0,34.0,33.0,0.0,183.0,0.0,0.0,2.26,,,0,0,0,0,0,0,0,0,0,0,0,0,0,0,0,0,,1.0,,,,0.0,38.985813,-76.949982,13.46,49.6,31.0,3.0,0.8
175,1493011,1745649729645,,,,,,,,,,,,,,,,,,,,,,,,,,,,,,,,,,0,0,0,0,0,0,0,0,0,0,0,0,0,0,0,0,,,,,,,,,,,,,
176,1493031,1745649729665,0.0,94.0,,0.42,-0.07,0.97,13.0,-1.0,0.0,1.06,1.35,79.0,10994.0,56.0,4.2,,12.76,1.121,77.2,,48.9,5.0,,,,,,,,,,,,0,0,0,0,0,0,0,0,0,0,0,0,0,0,0,0,,,,,,0.0,,,,,,,
177,1493051,1745649729685,,,,,,,,,,,,,,,,,,,,,,,,,,,,,,,,,,0,0,0,0,0,0,0,0,0,0,0,0,0,0,0,0,,,,,,,,,,,,,
178,1493071,1745649729705,0.0,94.0,,0.44,-0.06,0.95,14.0,-1.0,0.0,1.05,1.35,78.0,11024.0,55.8,4.17,,12.76,1.121,77.2,,49.0,5.0,,,,,,,,,,,,0,0,0,0,0,0,0,0,0,0,0,0,0,0,0,0,,,,,,0.0,,,,,,,
179,1493091,1745649729725,,,,,,,,,,,,,,,,,,,,,,,11.0,39.0,32.0,32.0,0.0,107.0,0.0,0.0,2.25,,,0,0,0,0,0,0,0,0,0,0,0,0,0,0,0,0,,1.0,,,,,38.985817,-76.949982,15.72,49.6,31.0,3.0,0.8
180,1493111,1745649729745,0.0,94.0,,0.44,-0.06,1.01,14.0,-1.0,0.0,1.1,1.35,82.0,11024.0,55.8,4.17,,12.84,1.157,77.2,,49.0,5.0,,,,,,,,,,,,0,0,0,0,0,0,0,0,0,0,0,0,0,0,0,0,,,,,,0.0,,,,,,,
181,1493131,1745649729765,,,,,,,,,,,,,,,,,,,,,,,,,,,,,,,,,,0,0,0,0,0,0,0,0,0,0,0,0,0,0,0,0,,,,,,,,,,,,,
182,1493151,1745649729785,0.0,94.0,,0.41,-0.07,0.95,15.0,-1.0,0.0,1.04,1.35,77.0,11113.0,55.8,4.13,,12.84,1.125,77.2,,49.0,5.0,,,,,,,,,,,,0,0,0,0,0,0,0,0,0,0,0,0,0,0,0,0,,,,,,0.0,,,,,,,
183,1493171,1745649729807,,,,,,,,,,,,,,,,,,,,,,,,,,,,,,,,,,0,0,0,0,0,0,0,0,0,0,0,0,0,0,0,0,,,,,,,,,,,,,
184,1493191,1745649729827,0.0,94.0,,0.44,-0.0,0.99,16.0,-1.0,0.0,1.08,1.35,80.0,11059.0,55.8,4.14,,13.03,1.119,77.2,,49.0,5.0,11.0,11.0,32.0,33.0,0.0,190.0,0.0,0.0,2.26,,,0,0,0,0,0,0,0,0,0,0,0,0,0,0,0,0,,0.0,,,,0.0,38.985821,-76.949989,17.73,49.6,31.0,3.0,0.8
185,1493211,1745649729847,,,,,,,,,,,,,,,,,,,,,,,,,,,,,,,,,,0,0,0,0,0,0,0,0,0,0,0,0,0,0,0,0,,,,,,,,,,,,,
186,1493231,1745649729867,0.0,94.0,,0.46,-0.02,1.0,15.0,-1.0,-1.0,1.1,1.35,82.0,10999.0,55.9,4.2,,12.79,1.121,77.2,,49.0,5.0,,,,,,,,,,,,0,0,0,0,0,0,0,0,0,0,0,0,0,0,0,0,,,,,,0.0,,,,,,,
187,1493251,1745649729887,,,,,,,,,,,,,,,,,,,,,,,,,,,,,,,,,,0,0,0,0,0,0,0,0,0,0,0,0,0,0,0,0,,,,,,,,,,,,,
188,1493271,1745649729907,0.0,93.0,,0.45,-0.02,0.98,16.0,-1.0,-1.0,1.08,1.35,80.0,10970.0,56.0,4.21,,12.79,1.121,77.2,,52.2,5.0,,,,,,,,,,,,0,0,0,0,0,0,0,0,0,0,0,0,0,0,0,0,,,,,,0.0,,,,,,,
189,1493291,1745649729927,,,,,,,,,,,,,,,,,,,,,,,13.0,75.0,34.0,35.0,0.0,206.0,0.0,0.0,2.26,,,0,0,0,0,0,0,0,0,0,0,0,0,0,0,0,0,,0.0,,,,,38.985825,-76.949989,19.76,49.6,31.0,3.0,0.8
190,1493311,1745649729947,0.0,93.0,,0.48,0.04,1.01,17.0,-1.0,-1.0,1.12,1.35,83.0,10970.0,56.0,4.21,,12.68,1.127,77.2,,52.2,5.0,,,,,,,,,,,,0,0,0,0,0,0,0,0,0,0,0,0,0,0,0,0,,,,,,0.0,,,,,,,
191,1493431,1745649730058,0.0,94.0,,0.52,0.09,0.96,15.0,-1.0,-1.0,1.09,1.35,81.0,10885.0,55.9,4.32,,12.84,1.112,77.2,,50.5,5.0,,,,,,,,,,,,0,0,0,0,0,0,0,0,0,0,0,0,0,0,0,0,,,,,,0.0,,,,,,,
192,1493451,1745649730078,,,,,,,,,,,,,,,,,,,,,,,,,,,,,,,,,,0,0,0,0,0,0,0,0,0,0,0,0,0,0,0,0,,,,,,,,,,,,,
193,1493471,1745649730098,0.0,94.0,,0.57,0.13,1.04,16.0,-1.0,-1.0,1.19,1.35,88.0,10827.0,56.0,4.33,,12.84,1.112,77.2,,47.7,5.0,,,,,,,,,,,,0,0,0,0,0,0,0,0,0,0,0,0,0,0,0,0,,,,,,0.0,,,,,,,
194,1493691,1745649730326,,,,,,,,,,,,,,,,,,,,,,,19.0,19.0,33.0,32.0,0.0,184.0,0.0,0.0,2.26,,,0,0,0,0,0,0,0,0,0,0,0,0,0,0,0,0,,0.0,,,,,38.985848,-76.950005,28.94,49.6,32.0,3.0,0.7
195,1493711,1745649730346,0.0,93.0,,0.59,0.16,0.98,12.0,0.0,0.0,1.16,1.35,86.0,10801.0,55.0,4.33,,12.72,1.079,77.2,,48.2,5.0,,,,,,,,,,,,0,0,0,0,0,0,0,0,0,0,0,0,0,0,0,0,,,,,,0.0,,,,,,,
196,1493731,1745649730366,,,,,,,,,,,,,,,,,,,,,,,,,,,,,,,,,,0,0,0,0,0,0,0,0,0,0,0,0,0,0,0,0,,,,,,,,,,,,,
197,1493751,1745649730386,0.0,92.0,,0.55,0.08,0.99,9.0,0.0,0.0,1.14,1.35,84.0,10781.0,44.9,4.32,,12.27,1.079,77.2,,46.8,5.0,,,,,,,,,,,,0,0,0,0,0,0,0,0,0,0,0,0,0,0,0,0,,,,,,0.0,,,,,,,
198,1493871,1745649730506,0.0,93.0,,0.64,0.19,1.04,3.0,-1.0,0.0,1.24,1.35,92.0,10959.0,40.5,4.41,,11.77,1.017,77.2,,51.3,5.0,,,,,,,,,,,,0,0,0,0,0,0,0,0,0,0,0,0,0,0,0,0,,,,,,0.0,,,,,,,
199,1493891,1745649730526,,,,,,,,,,,,,,,,,,,,,,,22.0,385.0,32.0,34.0,0.0,190.0,0.0,0.0,2.25,,,0,0,0,0,0,0,0,0,0,0,0,0,0,0,0,0,,0.0,,,,,38.985859,-76.95002,33.76,49.6,32.0,3.0,0.7
200,1493911,1745649730546,0.0,93.0,,0.65,0.21,0.99,3.0,-1.0,0.0,1.2,1.35,89.0,10959.0,40.5,4.41,,11.67,0.97,77.2,,51.3,5.0,,,,,,,,,,,,0,0,0,0,0,0,0,0,0,0,0,0,0,0,0,0,,,,,,0.0,,,,,,,
201,1493931,1745649730566,,,,,,,,,,,,,,,,,,,,,,,,,,,,,,,,,,0,0,0,0,0,0,0,0,0,0,0,0,0,0,0,0,,,,,,,,,,,,,
202,1493951,1745649730586,0.0,93.0,,0.67,0.16,0.99,4.0,-1.0,1.0,1.21,1.35,90.0,11078.0,40.0,4.43,,11.48,0.94,77.2,,50.2,5.0,,,,,,,,,,,,0,0,0,0,0,0,0,0,0,0,0,0,0,0,0,0,,,,,,0.0,,,,,,,
203,1493971,1745649730606,,,,,,,,,,,,,,,,,,,,,,,,,,,,,,,,,,0,0,0,0,0,0,0,0,0,0,0,0,0,0,0,0,,,,,,,,,,,,,
204,1493991,1745649730626,0.0,92.0,,0.62,0.08,1.0,3.0,-1.0,1.0,1.18,1.35,87.0,11048.0,40.0,4.42,,11.8,0.928,77.2,,50.2,5.0,24.0,307.0,33.0,34.0,0.0,216.0,0.0,0.0,2.26,,,0,0,0,0,0,0,0,0,0,0,0,0,0,0,0,0,,0.0,,,,0.0,38.98587,-76.95002,36.59,49.6,32.0,3.0,0.7
205,1494011,1745649730646,,,,,,,,,,,,,,,,,,,,,,,,,,,,,,,,,,0,0,0,0,0,0,0,0,0,0,0,0,0,0,0,0,,,,,,,,,,,,,
206,1494031,1745649730666,0.0,93.0,,0.64,0.09,1.03,3.0,0.0,1.0,1.22,1.35,90.0,11163.0,39.9,4.42,,11.57,0.916,77.2,,50.2,5.0,,,,,,,,,,,,0,0,0,0,0,0,0,0,0,0,0,0,0,0,0,0,,,,,,0.0,,,,,,,
207,1494051,1745649730686,,,,,,,,,,,,,,,,,,,,,,,,,,,,,,,,,,0,0,0,0,0,0,0,0,0,0,0,0,0,0,0,0,,,,,,,,,,,,,
208,1494071,1745649730706,0.0,93.0,,0.67,-0.02,0.98,0.0,0.0,1.0,1.18,1.35,88.0,11064.0,39.9,4.41,,11.57,0.916,77.2,,48.7,5.0,,,,,,,,,,,,0,0,0,0,0,0,0,0,0,0,0,0,0,0,0,0,,,,,,0.0,,,,,,,
209,1494091,1745649730726,,,,,,,,,,,,,,,,,,,,,,,25.0,31.0,33.0,32.0,0.0,159.0,0.0,0.0,2.27,,,0,0,0,0,0,0,0,0,0,0,0,0,0,0,0,0,,0.0,,,,,38.985874,-76.950027,38.69,49.6,32.0,3.0,0.7
210,1494111,1745649730746,0.0,92.0,,0.66,-0.02,0.95,-1.0,1.0,1.0,1.16,1.35,86.0,11064.0,39.9,4.41,,11.52,0.908,77.2,,48.7,5.0,,,,,,,,,,,,0,0,0,0,0,0,0,0,0,0,0,0,0,0,0,0,,,,,,0.0,,,,,,,
211,1494131,1745649730766,,,,,,,,,,,,,,,,,,,,,,,,,,,,,,,,,,0,0,0,0,0,0,0,0,0,0,0,0,0,0,0,0,,,,,,,,,,,,,
212,1494151,1745649730786,0.0,93.0,,0.65,-0.03,0.96,-3.0,2.0,2.0,1.16,1.35,86.0,10796.0,34.9,4.14,,11.4,0.899,77.2,,48.8,5.0,,,,,,,,,,,,0,0,0,0,0,0,0,0,0,0,0,0,0,0,0,0,,,,,,0.0,,,,,,,
213,1494171,1745649730807,,,,,,,,,,,,,,,,,,,,,,,,,,,,,,,,,,0,0,0,0,0,0,0,0,0,0,0,0,0,0,0,0,,,,,,,,,,,,,
214,1494191,1745649730827,0.0,93.0,,0.67,-0.02,0.98,-5.0,1.0,1.0,1.19,1.19,100.0,10590.0,31.6,4.43,,10.94,0.903,77.2,,48.8,5.0,26.0,56.0,30.0,28.0,0.0,195.0,0.0,0.0,2.26,,,0,0,0,0,0,0,0,0,0,0,0,0,0,0,0,0,,1.0,,,,0.0,38.985886,-76.950035,40.85,49.6,32.0,3.0,0.7
215,1494211,1745649730847,,,,,,,,,,,,,,,,,,,,,,,,,,,,,,,,,,0,0,0,0,0,0,0,0,0,0,0,0,0,0,0,0,,,,,,,,,,,,,
216,1494231,1745649730867,0.0,93.0,,0.63,-0.06,1.0,-5.0,1.0,1.0,1.18,1.19,100.0,10321.0,27.9,3.75,,10.68,0.915,77.2,,48.8,5.0,,,,,,,,,,,,0,0,0,0,0,0,0,0,0,0,0,0,0,0,0,0,,,,,,0.0,,,,,,,
217,1494251,1745649730887,,,,,,,,,,,,,,,,,,,,,,,,,,,,,,,,,,0,0,0,0,0,0,0,0,0,0,0,0,0,0,0,0,,,,,,,,,,,,,
218,1494271,1745649730906,0.0,93.0,,0.64,-0.03,0.99,-5.0,0.0,0.0,1.18,1.19,99.0,9980.0,22.9,3.64,,10.68,0.915,77.2,,47.1,5.0,,,,,,,,,,,,0,0,0,0,0,0,0,0,0,0,0,0,0,0,0,0,,,,,,0.0,,,,,,,
219,1494291,1745649730926,,,,,,,,,,,,,,,,,,,,,,,29.0,6.0,30.0,29.0,0.0,155.0,0.0,0.0,2.26,,,0,0,0,0,0,0,0,0,0,0,0,0,0,0,0,0,,0.0,,,,,38.985893,-76.950043,44.99,49.6,32.0,3.0,0.7
220,1494311,1745649730946,0.0,93.0,,0.58,-0.09,0.98,-6.0,0.0,0.0,1.14,1.19,96.0,9980.0,22.9,3.64,,10.13,0.908,77.2,,47.1,5.0,,,,,,,,,,,,0,0,0,0,0,0,0,0,0,0,0,0,0,0,0,0,,,,,,0.0,,,,,,,
221,1494331,1745649730966,,,,,,,,,,,,,,,,,,,,,,,,,,,,,,,,,,0,0,0,0,0,0,0,0,0,0,0,0,0,0,0,0,,,,,,,,,,,,,
222,1494351,1745649730986,0.0,93.0,,0.56,-0.08,0.97,-6.0,0.0,0.0,1.12,1.19,94.0,9966.0,22.6,3.49,,9.96,0.925,77.2,,47.0,5.0,,,,,,,,,,,,0,0,0,0,0,0,0,0,0,0,0,0,0,0,0,0,,,,,,0.0,,,,,,,
223,1494371,1745649730997,,,,,,,,,,,,,,,,,,,,,,,,,,,,,,,,,,0,0,0,0,0,0,0,0,0,0,0,0,0,0,0,0,,,,,,,,,,,,,
224,1494391,1745649731017,0.0,93.0,13.58,0.51,-0.18,1.03,-5.0,-1.0,-1.0,1.17,1.19,98.0,10224.0,22.6,3.45,15.0,9.65,0.912,77.2,167.0,47.0,5.0,30.0,8.0,32.0,30.0,0.0,89.0,0.0,0.0,2.26,0.0,1.0,0,0,0,0,0,0,0,0,0,0,0,0,0,0,0,0,0.0,1.0,0.0,0.0,0.0,0.0,38.985905,-76.95005,48.02,49.6,32.0,3.0,0.7
225,1494411,1745649731037,,,,,,,,,,,,,,,,,,,,,,,,,,,,,,,,,,0,0,0,0,0,0,0,0,0,0,0,0,0,0,0,0,,,,,,,,,,,,,
226,1494431,1745649731057,0.0,94.0,,0.55,-0.16,1.07,-5.0,-2.0,0.0,1.21,1.21,100.0,10356.0,16.4,3.18,,8.95,0.909,77.2,,47.0,5.0,,,,,,,,,,,,0,0,0,0,0,0,0,0,0,0,0,0,0,0,0,0,,,,,,0.0,,,,,,,
227,1494451,1745649731077,,,,,,,,,,,,,,,,,,,,,,,,,,,,,,,,,,0,0,0,0,0,0,0,0,0,0,0,0,0,0,0,0,,,,,,,,,,,,,
228,1494471,1745649731101,0.0,94.0,,0.53,-0.01,1.05,-5.0,-3.0,-1.0,1.18,1.21,97.0,10380.0,14.1,2.68,,8.95,0.909,77.2,,48.1,5.0,,,,,,,,,,,,0,0,0,0,0,0,0,0,0,0,0,0,0,0,0,0,,,,,,0.0,,,,,,,
229,1494491,1745649731121,,,,,,,,,,,,,,,,,,,,,,,31.0,7.0,32.0,33.0,0.0,15.0,0.0,0.0,2.26,,,0,0,0,0,0,0,0,0,0,0,0,0,0,0,0,0,,0.0,,,,,38.985912,-76.950058,48.86,49.6,32.0,3.0,0.7
230,1494511,1745649731141,0.0,94.0,,0.49,0.18,1.02,-2.0,-3.0,-2.0,1.15,1.21,94.0,10380.0,14.1,2.68,,8.27,0.896,77.2,,48.1,5.0,,,,,,,,,,,,0,0,0,0,0,0,0,0,0,0,0,0,0,0,0,0,,,,,,0.0,,,,,,,
231,1494531,1745649731161,,,,,,,,,,,,,,,,,,,,,,,,,,,,,,,,,,0,0,0,0,0,0,0,0,0,0,0,0,0,0,0,0,,,,,,,,,,,,,
232,1494551,1745649731181,0.0,94.0,,0.44,0.21,1.02,-1.0,-3.0,-2.0,1.13,1.21,93.0,10450.0,13.2,2.51,,7.74,0.866,77.2,,48.9,5.0,,,,,,,,,,,,0,0,0,0,0,0,0,0,0,0,0,0,0,0,0,0,,,,,,0.0,,,,,,,
233,1494571,1745649731205,,,,,,,,,,,,,,,,,,,,,,,,,,,,,,,,,,0,0,0,0,0,0,0,0,0,0,0,0,0,0,0,0,,,,,,,,,,,,,
234,1494591,1745649731225,0.0,94.0,,0.4,0.28,0.97,1.0,-2.0,-2.0,1.08,1.21,89.0,10575.0,9.4,2.11,,7.35,0.868,77.2,,48.9,5.0,32.0,7.0,32.0,32.0,0.0,252.0,0.0,0.0,2.26,,,0,0,0,0,0,0,0,0,0,0,0,0,0,0,0,0,,0.0,,,,0.0,38.985928,-76.950058,50.38,49.6,32.0,3.0,0.7
235,1494611,1745649731245,,,,,,,,,,,,,,,,,,,,,,,,,,,,,,,,,,0,0,0,0,0,0,0,0,0,0,0,0,0,0,0,0,,,,,,,,,,,,,
236,1494631,1745649731265,0.0,94.0,,0.34,0.34,1.01,3.0,-2.0,-1.0,1.11,1.21,92.0,10526.0,6.3,1.75,,6.51,0.888,77.2,,48.9,5.0,,,,,,,,,,,,0,0,0,0,0,0,0,0,0,0,0,0,0,0,0,0,,,,,,0.0,,,,,,,
237,1494651,1745649731285,,,,,,,,,,,,,,,,,,,,,,,,,,,,,,,,,,0,0,0,0,0,0,0,0,0,0,0,0,0,0,0,0,,,,,,,,,,,,,
238,1494671,1745649731305,0.0,94.0,,0.27,0.41,1.02,4.0,-2.0,-1.0,1.13,1.21,93.0,10423.0,5.0,1.64,,6.51,0.888,77.2,,47.9,5.0,,,,,,,,,,,,0,0,0,0,0,0,0,0,0,0,0,0,0,0,0,0,,,,,,0.0,,,,,,,
239,1494691,1745649731325,,,,,,,,,,,,,,,,,,,,,,,33.0,21.0,31.0,31.0,0.0,50.0,0.0,0.0,2.26,,,0,0,0,0,0,0,0,0,0,0,0,0,0,0,0,0,,1.0,,,,,38.985935,-76.950073,49.5,49.6,32.0,3.0,0.7
240,1494711,1745649731345,0.0,95.0,,0.2,0.47,1.06,6.0,-2.0,0.0,1.18,1.21,97.0,10423.0,5.0,1.64,,6.22,0.912,77.2,,47.9,5.0,,,,,,,,,,,,0,0,0,0,0,0,0,0,0,0,0,0,0,0,0,0,,,,,,0.0,,,,,,,
241,1494731,1745649731365,,,,,,,,,,,,,,,,,,,,,,,,,,,,,,,,,,0,0,0,0,0,0,0,0,0,0,0,0,0,0,0,0,,,,,,,,,,,,,
242,1494751,1745649731385,0.0,95.0,,0.18,0.32,1.02,8.0,-2.0,-1.0,1.08,1.21,89.0,10347.0,4.3,1.52,,5.86,0.946,77.2,,47.3,5.0,,,,,,,,,,,,0,0,0,0,0,0,0,0,0,0,0,0,0,0,0,0,,,,,,0.0,,,,,,,
243,1494771,1745649731405,,,,,,,,,,,,,,,,,,,,,,,,,,,,,,,,,,0,0,0,0,0,0,0,0,0,0,0,0,0,0,0,0,,,,,,,,,,,,,
244,1494791,1745649731425,1.38,95.0,,0.16,0.39,1.0,9.0,-1.0,-1.0,1.08,1.21,89.0,10199.0,3.8,1.4,,5.63,0.973,77.2,,47.3,5.0,32.0,57.0,32.0,30.0,0.0,9.0,0.0,0.0,2.27,,,0,0,0,0,0,0,0,0,0,0,0,0,0,0,0,0,,1.0,,,,0.0,38.985947,-76.950081,50.25,49.6,32.0,3.0,0.7
245,1494811,1745649731445,,,,,,,,,,,,,,,,,,,,,,,,,,,,,,,,,,0,0,0,0,0,0,0,0,0,0,0,0,0,0,0,0,,,,,,,,,,,,,
246,1494831,1745649731465,2.01,95.0,,0.11,0.31,1.06,11.0,-1.0,-1.0,1.1,1.21,91.0,10015.0,3.7,1.4,,5.56,1.002,77.2,,47.3,5.0,,,,,,,,,,,,0,0,0,0,0,0,0,0,0,0,0,0,0,0,0,0,,,,,,0.0,,,,,,,
247,1494851,1745649731485,,,,,,,,,,,,,,,,,,,,,,,,,,,,,,,,,,0,0,0,0,0,0,0,0,0,0,0,0,0,0,0,0,,,,,,,,,,,,,
248,1494871,1745649731503,0.13,96.0,,0.06,0.3,1.01,12.0,-2.0,-1.0,1.06,1.21,87.0,9719.0,3.7,1.4,,5.56,1.002,77.2,,46.4,5.0,,,,,,,,,,,,0,0,0,0,0,0,0,0,0,0,0,0,0,0,0,0,,,,,,0.0,,,,,,,
249,1494891,1745649731523,,,,,,,,,,,,,,,,,,,,,,,31.0,624.0,30.0,32.0,0.0,204.0,0.0,0.0,2.26,,,0,0,0,0,0,0,0,0,0,0,0,0,0,0,0,0,,1.0,,,,,38.985958,-76.950088,49.0,49.6,32.0,3.0,0.7
250,1494911,1745649731543,0.0,95.0,,0.06,0.36,1.02,13.0,-2.0,-1.0,1.08,1.21,89.0,9719.0,3.7,1.4,,5.36,1.052,77.2,,46.4,5.0,,,,,,,,,,,,0,0,0,0,0,0,0,0,0,0,0,0,0,0,0,0,,,,,,0.0,,,,,,,
251,1494931,1745649731563,,,,,,,,,,,,,,,,,,,,,,,,,,,,,,,,,,0,0,0,0,0,0,0,0,0,0,0,0,0,0,0,0,,,,,,,,,,,,,
252,1494951,1745649731583,0.0,96.0,,-0.0,0.41,0.99,13.0,-2.0,0.0,1.07,1.07,100.0,9633.0,4.0,1.4,,5.34,1.15,77.2,,45.9,5.0,,,,,,,,,,,,0,0,0,0,0,0,0,0,0,0,0,0,0,0,0,0,,,,,,0.0,,,,,,,
253,1494971,1745649731607,,,,,,,,,,,,,,,,,,,,,,,,,,,,,,,,,,0,0,0,0,0,0,0,0,0,0,0,0,0,0,0,0,,,,,,,,,,,,,
254,1494991,1745649731627,0.0,97.0,,-0.06,0.48,1.01,15.0,-2.0,0.0,1.12,1.12,100.0,9664.0,4.4,1.4,,5.38,1.25,77.2,,45.9,5.0,31.0,155.0,28.0,29.0,0.0,119.0,0.0,0.0,2.25,,,0,0,0,0,0,0,0,0,0,0,0,0,0,0,0,0,,0.0,,,,0.0,38.98597,-76.950104,48.94,49.5,32.0,3.0,0.7
255,1495011,1745649731647,,,,,,,,,,,,,,,,,,,,,,,,,,,,,,,,,,0,0,0,0,0,0,0,0,0,0,0,0,0,0,0,0,,,,,,,,,,,,,
256,1495031,1745649731667,0.0,97.0,,-0.11,0.54,1.02,15.0,-1.0,0.0,1.16,1.16,100.0,9638.0,4.5,1.4,,5.43,1.251,77.2,,45.9,5.0,,,,,,,,,,,,0,0,0,0,0,0,0,0,0,0,0,0,0,0,0,0,,,,,,0.0,,,,,,,
257,1495051,1745649731687,,,,,,,,,,,,,,,,,,,,,,,,,,,,,,,,,,0,0,0,0,0,0,0,0,0,0,0,0,0,0,0,0,,,,,,,,,,,,,
258,1495071,1745649731705,0.0,98.0,,-0.14,0.34,1.02,17.0,-1.0,0.0,1.09,1.16,94.0,9533.0,4.4,1.41,,5.43,1.251,77.2,,46.0,5.0,,,,,,,,,,,,0,0,0,0,0,0,0,0,0,0,0,0,0,0,0,0,,,,,,0.0,,,,,,,
259,1495091,1745649731725,,,,,,,,,,,,,,,,,,,,,,,30.0,45.0,30.0,27.0,0.0,190.0,0.0,0.0,2.26,,,0,0,0,0,0,0,0,0,0,0,0,0,0,0,0,0,,1.0,,,,,38.985977,-76.950104,46.39,49.5,32.0,3.0,0.7
260,1495111,1745649731745,0.0,98.0,,-0.16,0.47,0.98,17.0,-1.0,0.0,1.1,1.16,95.0,9533.0,4.4,1.41,,5.52,1.25,77.2,,46.0,5.0,,,,,,,,,,,,0,0,0,0,0,0,0,0,0,0,0,0,0,0,0,0,,,,,,0.0,,,,,,,
261,1495131,1745649731765,,,,,,,,,,,,,,,,,,,,,,,,,,,,,,,,,,0,0,0,0,0,0,0,0,0,0,0,0,0,0,0,0,,,,,,,,,,,,,
262,1495151,1745649731785,0.0,98.0,,-0.21,0.35,1.02,18.0,-2.0,-1.0,1.09,1.16,95.0,9402.0,4.2,1.44,,5.5,1.25,77.2,,44.1,5.0,,,,,,,,,,,,0,0,0,0,0,0,0,0,0,0,0,0,0,0,0,0,,,,,,0.0,,,,,,,
263,1495171,1745649731805,,,,,,,,,,,,,,,,,,,,,,,,,,,,,,,,,,0,0,0,0,0,0,0,0,0,0,0,0,0,0,0,0,,,,,,,,,,,,,
264,1495191,1745649731825,0.0,99.0,,-0.22,0.45,1.04,18.0,-2.0,-1.0,1.15,1.16,99.0,9215.0,4.2,1.47,,5.62,1.251,77.2,,44.1,5.0,29.0,21.0,28.0,26.0,0.0,245.0,0.0,0.0,2.26,,,0,0,0,0,0,0,0,0,0,0,0,0,0,0,0,0,,0.0,,,,0.0,38.985985,-76.950119,45.08,49.5,32.0,3.0,0.7
265,1495211,1745649731845,,,,,,,,,,,,,,,,,,,,,,,,,,,,,,,,,,0,0,0,0,0,0,0,0,0,0,0,0,0,0,0,0,,,,,,,,,,,,,
266,1495231,1745649731865,0.0,99.0,,-0.23,0.55,0.93,18.0,-2.0,-1.0,1.1,1.16,96.0,9019.0,11.4,1.89,,6.15,1.251,77.2,,44.1,5.0,,,,,,,,,,,,0,0,0,0,0,0,0,0,0,0,0,0,0,0,0,0,,,,,,0.0,,,,,,,
267,1495251,1745649731885,,,,,,,,,,,,,,,,,,,,,,,,,,,,,,,,,,0,0,0,0,0,0,0,0,0,0,0,0,0,0,0,0,,,,,,,,,,,,,
268,1495271,1745649731905,0.0,100.0,,-0.26,0.64,0.87,17.0,-2.0,-1.0,1.11,1.16,96.0,8989.0,15.3,2.22,,6.15,1.251,77.2,,43.3,5.0,,,,,,,,,,,,0,0,0,0,0,0,0,0,0,0,0,0,0,0,0,0,,,,,,0.0,,,,,,,
269,1495291,1745649731925,,,,,,,,,,,,,,,,,,,,,,,28.0,13.0,27.0,28.0,0.0,225.0,0.0,0.0,2.27,,,0,0,0,0,0,0,0,0,0,0,0,0,0,0,0,0,,1.0,,,,,38.985992,-76.950127,44.03,49.5,32.0,3.0,0.7
270,1495311,1745649731945,0.0,99.0,,-0.26,0.52,0.82,17.0,-2.0,0.0,1.0,1.16,87.0,8989.0,15.3,2.22,,7.12,1.25,77.2,,43.3,5.0,,,,,,,,,,,,0,0,0,0,0,0,0,0,0,0,0,0,0,0,0,0,,,,,,0.0,,,,,,,
271,1495331,1745649731965,,,,,,,,,,,,,,,,,,,,,,,,,,,,,,,,,,0,0,0,0,0,0,0,0,0,0,0,0,0,0,0,0,,,,,,,,,,,,,
272,1495351,1745649731985,0.0,100.0,,-0.24,0.5,0.85,19.0,-1.0,0.0,1.02,1.16,88.0,9318.0,15.7,2.52,,7.71,1.252,77.2,,45.0,5.0,,,,,,,,,,,,0,0,0,0,0,0,0,0,0,0,0,0,0,0,0,0,,,,,,0.0,,,,,,,
273,1495371,1745649731998,,,,,,,,,,,,,,,,,,,,,,,,,,,,,,,,,,0,0,0,0,0,0,0,0,0,0,0,0,0,0,0,0,,,,,,,,,,,,,
274,1495391,1745649732018,0.0,100.0,13.56,-0.22,0.48,0.91,19.0,-1.0,0.0,1.06,1.16,91.0,9601.0,15.9,2.71,15.0,7.97,1.253,77.2,169.0,45.0,5.0,28.0,8.0,28.0,27.0,0.0,130.0,0.0,0.0,2.26,0.0,1.0,0,0,0,0,0,0,0,0,0,0,0,0,0,0,0,0,0.0,1.0,0.0,0.0,0.0,0.0,38.986004,-76.950142,42.48,49.5,32.0,3.0,0.7
275,1495411,1745649732038,,,,,,,,,,,,,,,,,,,,,,,,,,,,,,,,,,0,0,0,0,0,0,0,0,0,0,0,0,0,0,0,0,,,,,,,,,,,,,
276,1495431,1745649732058,0.0,100.0,,-0.16,0.53,0.93,20.0,0.0,1.0,1.08,1.16,93.0,9818.0,16.0,2.76,,8.15,1.182,77.2,,45.0,5.0,,,,,,,,,,,,0,0,0,0,0,0,0,0,0,0,0,0,0,0,0,0,,,,,,0.0,,,,,,,
277,1495451,1745649732078,,,,,,,,,,,,,,,,,,,,,,,,,,,,,,,,,,0,0,0,0,0,0,0,0,0,0,0,0,0,0,0,0,,,,,,,,,,,,,
278,1495471,1745649732102,0.0,99.0,,-0.1,0.5,0.85,19.0,0.0,1.0,1.0,1.16,86.0,9402.0,15.8,2.76,,8.15,1.182,77.2,,44.5,5.0,,,,,,,,,,,,0,0,0,0,0,0,0,0,0,0,0,0,0,0,0,0,,,,,,0.0,,,,,,,
279,1495491,1745649732122,,,,,,,,,,,,,,,,,,,,,,,28.0,29.0,29.0,28.0,0.0,168.0,0.0,0.0,2.26,,,0,0,0,0,0,0,0,0,0,0,0,0,0,0,0,0,,0.0,,,,,38.986012,-76.950142,42.14,49.5,32.0,3.0,0.7
280,1495511,1745649732142,0.0,99.0,,-0.11,0.37,0.9,18.0,0.0,1.0,0.97,1.16,84.0,9402.0,15.8,2.76,,8.22,1.108,77.2,,44.5,5.0,,,,,,,,,,,,0,0,0,0,0,0,0,0,0,0,0,0,0,0,0,0,,,,,,0.0,,,,,,,
281,1495531,1745649732162,,,,,,,,,,,,,,,,,,,,,,,,,,,,,,,,,,0,0,0,0,0,0,0,0,0,0,0,0,0,0,0,0,,,,,,,,,,,,,
282,1495551,1745649732182,0.0,99.0,,-0.15,0.47,0.94,18.0,-1.0,0.0,1.06,1.16,92.0,9109.0,3.9,1.93,,7.38,1.071,77.2,,43.0,5.0,,,,,,,,,,,,0,0,0,0,0,0,0,0,0,0,0,0,0,0,0,0,,,,,,0.0,,,,,,,
283,1495571,1745649732202,,,,,,,,,,,,,,,,,,,,,,,,,,,,,,,,,,0,0,0,0,0,0,0,0,0,0,0,0,0,0,0,0,,,,,,,,,,,,,
284,1495591,1745649732222,0.0,100.0,,-0.15,0.48,0.95,20.0,-1.0,-1.0,1.08,1.16,93.0,8937.0,0.0,1.4,,6.42,1.038,77.2,,43.0,5.0,28.0,47.0,30.0,30.0,0.0,138.0,0.0,0.0,2.26,,,0,0,0,0,0,0,0,0,0,0,0,0,0,0,0,0,,0.0,,,,0.0,38.986015,-76.950157,44.0,49.5,33.0,3.0,0.7
285,1495611,1745649732242,,,,,,,,,,,,,,,,,,,,,,,,,,,,,,,,,,0,0,0,0,0,0,0,0,0,0,0,0,0,0,0,0,,,,,,,,,,,,,
286,1495631,1745649732262,7.04,99.0,,-0.14,0.55,0.97,20.0,-1.0,-1.0,1.12,1.16,97.0,8431.0,0.0,1.4,,5.91,1.019,77.2,,43.0,5.0,,,,,,,,,,,,0,0,0,0,0,0,0,0,0,0,0,0,0,0,0,0,,,,,,0.0,,,,,,,
287,1495651,1745649732282,,,,,,,,,,,,,,,,,,,,,,,,,,,,,,,,,,0,0,0,0,0,0,0,0,0,0,0,0,0,0,0,0,,,,,,,,,,,,,
288,1495671,1745649732306,13.32,99.0,,-0.25,0.5,0.97,21.0,-2.0,-1.0,1.11,1.16,96.0,8076.0,0.0,1.4,,5.91,1.019,77.2,,42.3,5.0,,,,,,,,,,,,0,0,0,0,0,0,0,0,0,0,0,0,0,0,0,0,,,,,,0.0,,,,,,,
289,1495691,1745649732326,,,,,,,,,,,,,,,,,,,,,,,28.0,35.0,27.0,24.0,0.0,191.0,0.0,0.0,2.27,,,0,0,0,0,0,0,0,0,0,0,0,0,0,0,0,0,,0.0,,,,,38.986023,-76.950165,44.51,49.5,33.0,3.0,0.7
290,1495711,1745649732346,22.12,100.0,,-0.27,0.4,0.98,22.0,-2.0,-1.0,1.09,1.16,94.0,8076.0,0.0,1.4,,5.63,1.163,77.2,,42.3,5.0,,,,,,,,,,,,0,0,0,0,0,0,0,0,0,0,0,0,0,0,0,0,,,,,,0.0,,,,,,,
291,1495731,1745649732366,,,,,,,,,,,,,,,,,,,,,,,,,,,,,,,,,,0,0,0,0,0,0,0,0,0,0,0,0,0,0,0,0,,,,,,,,,,,,,
292,1495751,1745649732386,29.66,100.0,,-0.33,0.45,0.96,22.0,-2.0,-1.0,1.11,1.11,100.0,8004.0,0.0,1.4,,5.51,1.251,77.2,,43.1,5.0,,,,,,,,,,,,0,0,0,0,0,0,0,0,0,0,0,0,0,0,0,0,,,,,,0.0,,,,,,,
293,1495771,1745649732406,,,,,,,,,,,,,,,,,,,,,,,,,,,,,,,,,,0,0,0,0,0,0,0,0,0,0,0,0,0,0,0,0,,,,,,,,,,,,,
294,1495791,1745649732426,33.43,100.0,,-0.35,0.4,0.99,24.0,-2.0,-1.0,1.12,1.12,100.0,7971.0,0.0,1.4,,5.5,1.251,77.2,,43.1,5.0,27.0,43.0,25.0,26.0,0.0,134.0,0.0,0.0,2.27,,,0,0,0,0,0,0,0,0,0,0,0,0,0,0,0,0,,1.0,,,,0.0,38.986031,-76.95018,42.67,49.5,33.0,3.0,0.7
295,1495811,1745649732446,,,,,,,,,,,,,,,,,,,,,,,,,,,,,,,,,,0,0,0,0,0,0,0,0,0,0,0,0,0,0,0,0,,,,,,,,,,,,,
296,1495831,1745649732466,34.06,100.0,,-0.37,0.41,0.95,24.0,-1.0,-1.0,1.1,1.12,98.0,7907.0,0.0,1.4,,5.46,1.251,77.2,,43.1,5.0,,,,,,,,,,,,0,0,0,0,0,0,0,0,0,0,0,0,0,0,0,0,,,,,,0.0,,,,,,,
297,1495851,1745649732486,,,,,,,,,,,,,,,,,,,,,,,,,,,,,,,,,,0,0,0,0,0,0,0,0,0,0,0,0,0,0,0,0,,,,,,,,,,,,,
298,1495871,1745649732506,27.78,101.0,,-0.38,0.38,1.03,25.0,-1.0,-1.0,1.16,1.16,100.0,7817.0,0.0,1.4,,5.46,1.251,77.2,,42.8,5.0,,,,,,,,,,,,0,0,0,0,0,0,0,0,0,0,0,0,0,0,0,0,,,,,,0.0,,,,,,,
299,1495891,1745649732526,,,,,,,,,,,,,,,,,,,,,,,25.0,31.0,24.0,24.0,0.0,167.0,0.0,0.0,2.26,,,0,0,0,0,0,0,0,0,0,0,0,0,0,0,0,0,,0.0,,,,,38.986034,-76.950188,40.01,49.4,33.0,3.0,0.7
300,1495911,1745649732546,22.12,100.0,,-0.36,0.55,1.04,22.0,-1.0,0.0,1.23,1.23,100.0,7817.0,0.0,1.4,,5.44,1.252,77.2,,42.8,5.0,,,,,,,,,,,,0,0,0,0,0,0,0,0,0,0,0,0,0,0,0,0,,,,,,0.0,,,,,,,
301,1495931,1745649732566,,,,,,,,,,,,,,,,,,,,,,,,,,,,,,,,,,0,0,0,0,0,0,0,0,0,0,0,0,0,0,0,0,,,,,,,,,,,,,
302,1495951,1745649732586,15.21,100.0,,-0.36,0.56,1.0,23.0,-1.0,0.0,1.21,1.23,98.0,7839.0,4.5,1.4,,5.83,1.253,77.2,,43.7,5.0,,,,,,,,,,,,0,0,0,0,0,0,0,0,0,0,0,0,0,0,0,0,,,,,,0.0,,,,,,,
303,1495971,1745649732606,,,,,,,,,,,,,,,,,,,,,,,,,,,,,,,,,,0,0,0,0,0,0,0,0,0,0,0,0,0,0,0,0,,,,,,,,,,,,,
304,1495991,1745649732626,9.55,101.0,,-0.38,0.64,0.99,22.0,-1.0,0.0,1.24,1.24,100.0,7774.0,17.7,2.6,,7.26,1.253,77.2,,43.7,5.0,25.0,41.0,24.0,22.0,0.0,80.0,0.0,0.0,2.26,,,0,0,0,0,0,0,0,0,0,0,0,0,0,0,0,0,,1.0,,,,0.0,38.986042,-76.950195,38.36,49.4,33.0,3.0,0.7
305,1496011,1745649732646,,,,,,,,,,,,,,,,,,,,,,,,,,,,,,,,,,0,0,0,0,0,0,0,0,0,0,0,0,0,0,0,0,,,,,,,,,,,,,
306,1496031,1745649732666,5.78,101.0,,-0.37,0.58,0.98,22.0,-1.0,0.0,1.2,1.24,96.0,8000.0,21.4,3.25,,8.93,1.252,77.2,,43.7,5.0,,,,,,,,,,,,0,0,0,0,0,0,0,0,0,0,0,0,0,0,0,0,,,,,,0.0,,,,,,,
307,1496051,1745649732686,,,,,,,,,,,,,,,,,,,,,,,,,,,,,,,,,,0,0,0,0,0,0,0,0,0,0,0,0,0,0,0,0,,,,,,,,,,,,,
308,1496071,1745649732706,0.75,101.0,,-0.34,0.59,0.95,21.0,-1.0,0.0,1.17,1.24,94.0,8493.0,22.6,3.41,,8.93,1.252,77.2,,44.7,5.0,,,,,,,,,,,,0,0,0,0,0,0,0,0,0,0,0,0,0,0,0,0,,,,,,0.0,,,,,,,
309,1496091,1745649732726,,,,,,,,,,,,,,,,,,,,,,,23.0,41.0,24.0,22.0,0.0,98.0,0.0,0.0,2.27,,,0,0,0,0,0,0,0,0,0,0,0,0,0,0,0,0,,0.0,,,,,38.986046,-76.950211,37.07,49.4,33.0,3.0,0.7
310,1496111,1745649732746,0.0,101.0,,-0.36,0.53,1.0,20.0,-1.0,0.0,1.19,1.24,95.0,8493.0,22.6,3.41,,9.76,1.251,77.2,,44.7,5.0,,,,,,,,,,,,0,0,0,0,0,0,0,0,0,0,0,0,0,0,0,0,,,,,,0.0,,,,,,,
311,1496131,1745649732766,,,,,,,,,,,,,,,,,,,,,,,,,,,,,,,,,,0,0,0,0,0,0,0,0,0,0,0,0,0,0,0,0,,,,,,,,,,,,,
312,1496151,1745649732786,0.0,101.0,,-0.24,0.52,0.99,20.0,0.0,0.0,1.14,1.24,92.0,9105.0,22.6,3.29,,9.86,1.201,77.2,,43.7,5.0,,,,,,,,,,,,0,0,0,0,0,0,0,0,0,0,0,0,0,0,0,0,,,,,,0.0,,,,,,,
313,1496171,1745649732806,,,,,,,,,,,,,,,,,,,,,,,,,,,,,,,,,,0,0,0,0,0,0,0,0,0,0,0,0,0,0,0,0,,,,,,,,,,,,,
314,1496191,1745649732826,0.0,101.0,,-0.14,0.44,1.01,18.0,0.0,0.0,1.11,1.24,89.0,8645.0,22.4,3.44,,10.02,1.065,77.2,,43.7,5.0,25.0,25.0,26.0,25.0,0.0,162.0,0.0,0.0,2.27,,,0,0,0,0,0,0,0,0,0,0,0,0,0,0,0,0,,0.0,,,,0.0,38.986053,-76.950218,36.77,49.4,33.0,3.0,0.7
315,1496211,1745649732846,,,,,,,,,,,,,,,,,,,,,,,,,,,,,,,,,,0,0,0,0,0,0,0,0,0,0,0,0,0,0,0,0,,,,,,,,,,,,,
316,1496231,1745649732866,0.0,100.0,,-0.11,0.47,1.03,19.0,0.0,-1.0,1.14,1.24,92.0,8361.0,18.1,3.6,,9.98,1.06,77.2,,43.7,5.0,,,,,,,,,,,,0,0,0,0,0,0,0,0,0,0,0,0,0,0,0,0,,,,,,0.0,,,,,,,
317,1496251,1745649732886,,,,,,,,,,,,,,,,,,,,,,,,,,,,,,,,,,0,0,0,0,0,0,0,0,0,0,0,0,0,0,0,0,,,,,,,,,,,,,
318,1496271,1745649732906,0.0,100.0,,-0.05,0.52,1.07,19.0,0.0,-2.0,1.19,1.24,96.0,8461.0,13.3,3.14,,9.98,1.06,77.2,,42.3,5.0,,,,,,,,,,,,0,0,0,0,0,0,0,0,0,0,0,0,0,0,0,0,,,,,,0.0,,,,,,,
319,1496291,1745649732926,,,,,,,,,,,,,,,,,,,,,,,25.0,42.0,26.0,24.0,0.0,113.0,0.0,0.0,2.26,,,0,0,0,0,0,0,0,0,0,0,0,0,0,0,0,0,,0.0,,,,,38.986053,-76.950226,39.03,49.4,33.0,3.0,0.7
320,1496311,1745649732946,0.0,101.0,,0.01,0.56,1.05,20.0,-1.0,-2.0,1.19,1.24,95.0,8461.0,13.3,3.14,,9.56,1.036,77.2,,42.3,5.0,,,,,,,,,,,,0,0,0,0,0,0,0,0,0,0,0,0,0,0,0,0,,,,,,0.0,,,,,,,
321,1496331,1745649732966,,,,,,,,,,,,,,,,,,,,,,,,,,,,,,,,,,0,0,0,0,0,0,0,0,0,0,0,0,0,0,0,0,,,,,,,,,,,,,
322,1496351,1745649732986,0.0,100.0,,0.05,0.51,1.13,22.0,-1.0,-2.0,1.24,1.24,100.0,8553.0,13.1,3.03,,9.21,0.978,77.2,,43.3,5.0,,,,,,,,,,,,0,0,0,0,0,0,0,0,0,0,0,0,0,0,0,0,,,,,,0.0,,,,,,,
323,1496371,1745649732997,,,,,,,,,,,,,,,,,,,,,,,,,,,,,,,,,,0,0,0,0,0,0,0,0,0,0,0,0,0,0,0,0,,,,,,,,,,,,,
324,1496391,1745649733017,0.0,101.0,13.63,0.09,0.45,1.12,23.0,-1.0,-2.0,1.2,1.24,97.0,8813.0,13.1,2.85,15.0,8.78,0.967,77.2,169.0,43.3,5.0,27.0,42.0,28.0,26.0,0.0,129.0,0.0,0.0,2.26,0.0,1.0,0,0,0,0,0,0,0,0,0,0,0,0,0,0,0,0,0.0,1.0,0.0,0.0,0.0,0.0,38.986061,-76.950241,41.21,49.4,33.0,3.0,0.8
325,1496411,1745649733037,,,,,,,,,,,,,,,,,,,,,,,,,,,,,,,,,,0,0,0,0,0,0,0,0,0,0,0,0,0,0,0,0,,,,,,,,,,,,,
326,1496431,1745649733057,0.0,100.0,,0.09,0.58,1.01,25.0,-1.0,-2.0,1.17,1.24,94.0,8770.0,13.0,2.82,,8.61,0.973,77.2,,43.3,5.0,,,,,,,,,,,,0,0,0,0,0,0,0,0,0,0,0,0,0,0,0,0,,,,,,0.0,,,,,,,
327,1496451,1745649733077,,,,,,,,,,,,,,,,,,,,,,,,,,,,,,,,,,0,0,0,0,0,0,0,0,0,0,0,0,0,0,0,0,,,,,,,,,,,,,
328,1496471,1745649733099,0.0,101.0,,0.07,0.71,1.01,27.0,-2.0,-2.0,1.24,1.24,99.0,8905.0,13.2,2.71,,8.61,0.973,77.2,,44.0,5.0,,,,,,,,,,,,0,0,0,0,0,0,0,0,0,0,0,0,0,0,0,0,,,,,,0.0,,,,,,,
329,1496491,1745649733119,,,,,,,,,,,,,,,,,,,,,,,27.0,42.0,27.0,26.0,0.0,148.0,0.0,0.0,2.26,,,0,0,0,0,0,0,0,0,0,0,0,0,0,0,0,0,,1.0,,,,,38.986065,-76.950256,41.13,49.4,33.0,3.0,0.8
330,1496511,1745649733139,0.0,100.0,,0.05,0.67,1.01,29.0,-2.0,-2.0,1.21,1.24,97.0,8905.0,13.2,2.71,,8.35,0.985,77.2,,44.0,5.0,,,,,,,,,,,,0,0,0,0,0,0,0,0,0,0,0,0,0,0,0,0,,,,,,0.0,,,,,,,
331,1496531,1745649733159,,,,,,,,,,,,,,,,,,,,,,,,,,,,,,,,,,0,0,0,0,0,0,0,0,0,0,0,0,0,0,0,0,,,,,,,,,,,,,
332,1496551,1745649733179,0.0,100.0,,0.04,0.54,1.09,30.0,-2.0,-2.0,1.22,1.24,98.0,8863.0,13.3,2.7,,8.3,0.989,77.2,,43.0,5.0,,,,,,,,,,,,0,0,0,0,0,0,0,0,0,0,0,0,0,0,0,0,,,,,,0.0,,,,,,,
333,1496571,1745649733205,,,,,,,,,,,,,,,,,,,,,,,,,,,,,,,,,,0,0,0,0,0,0,0,0,0,0,0,0,0,0,0,0,,,,,,,,,,,,,
334,1496591,1745649733225,0.0,100.0,,0.07,0.44,1.1,29.0,-2.0,-2.0,1.19,1.24,96.0,8879.0,13.4,2.7,,8.29,0.996,77.2,,43.0,5.0,28.0,42.0,28.0,26.0,0.0,208.0,0.0,0.0,2.26,,,0,0,0,0,0,0,0,0,0,0,0,0,0,0,0,0,,1.0,,,,0.0,38.986069,-76.950264,41.89,49.4,33.0,3.0,0.8
335,1496611,1745649733245,,,,,,,,,,,,,,,,,,,,,,,,,,,,,,,,,,0,0,0,0,0,0,0,0,0,0,0,0,0,0,0,0,,,,,,,,,,,,,
336,1496631,1745649733265,0.0,100.0,,0.07,0.41,1.03,29.0,-2.0,-2.0,1.11,1.24,90.0,8958.0,13.2,2.62,,8.25,1.011,77.2,,43.0,5.0,,,,,,,,,,,,0,0,0,0,0,0,0,0,0,0,0,0,0,0,0,0,,,,,,0.0,,,,,,,
337,1496651,1745649733285,,,,,,,,,,,,,,,,,,,,,,,,,,,,,,,,,,0,0,0,0,0,0,0,0,0,0,0,0,0,0,0,0,,,,,,,,,,,,,
338,1496671,1745649733305,0.0,101.0,,0.07,0.45,1.01,29.0,-2.0,-1.0,1.11,1.11,100.0,8985.0,13.1,2.62,,8.25,1.011,77.2,,44.2,5.0,,,,,,,,,,,,0,0,0,0,0,0,0,0,0,0,0,0,0,0,0,0,,,,,,0.0,,,,,,,
339,1496691,1745649733325,,,,,,,,,,,,,,,,,,,,,,,28.0,42.0,28.0,28.0,0.0,176.0,0.0,0.0,2.27,,,0,0,0,0,0,0,0,0,0,0,0,0,0,0,0,0,,1.0,,,,,38.986073,-76.950279,42.52,49.3,33.0,3.0,0.8
340,1496711,1745649733345,0.0,100.0,,0.07,0.39,1.0,29.0,-2.0,-1.0,1.08,1.11,97.0,8985.0,13.1,2.62,,8.14,1.016,77.2,,44.2,5.0,,,,,,,,,,,,0,0,0,0,0,0,0,0,0,0,0,0,0,0,0,0,,,,,,0.0,,,,,,,
341,1496731,1745649733365,,,,,,,,,,,,,,,,,,,,,,,,,,,,,,,,,,0,0,0,0,0,0,0,0,0,0,0,0,0,0,0,0,,,,,,,,,,,,,
342,1496751,1745649733385,0.0,100.0,,0.06,0.37,0.94,29.0,-2.0,0.0,1.01,1.11,91.0,9041.0,13.0,2.6,,8.07,1.016,77.2,,44.5,5.0,,,,,,,,,,,,0,0,0,0,0,0,0,0,0,0,0,0,0,0,0,0,,,,,,0.0,,,,,,,
343,1496771,1745649733407,,,,,,,,,,,,,,,,,,,,,,,,,,,,,,,,,,0,0,0,0,0,0,0,0,0,0,0,0,0,0,0,0,,,,,,,,,,,,,
344,1496791,1745649733427,0.0,101.0,,0.07,0.45,0.89,30.0,-2.0,0.0,1.0,1.11,90.0,9092.0,13.2,2.56,,7.98,1.02,77.2,,44.5,5.0,28.0,42.0,29.0,27.0,0.0,194.0,0.0,0.0,2.26,,,0,0,0,0,0,0,0,0,0,0,0,0,0,0,0,0,,1.0,,,,0.0,38.986073,-76.950294,42.78,49.3,33.0,3.0,0.8
345,1496811,1745649733447,,,,,,,,,,,,,,,,,,,,,,,,,,,,,,,,,,0,0,0,0,0,0,0,0,0,0,0,0,0,0,0,0,,,,,,,,,,,,,
346,1496831,1745649733467,0.0,100.0,,0.08,0.41,0.82,32.0,-1.0,-1.0,0.92,1.11,83.0,9137.0,13.1,2.55,,7.98,1.024,77.2,,44.5,5.0,,,,,,,,,,,,0,0,0,0,0,0,0,0,0,0,0,0,0,0,0,0,,,,,,0.0,,,,,,,
347,1496851,1745649733487,,,,,,,,,,,,,,,,,,,,,,,,,,,,,,,,,,0,0,0,0,0,0,0,0,0,0,0,0,0,0,0,0,,,,,,,,,,,,,
348,1496871,1745649733507,0.0,101.0,,0.08,0.45,0.92,33.0,-1.0,0.0,1.03,1.11,93.0,9164.0,13.0,2.54,,7.98,1.024,77.2,,44.3,5.0,,,,,,,,,,,,0,0,0,0,0,0,0,0,0,0,0,0,0,0,0,0,,,,,,0.0,,,,,,,
349,1496891,1745649733527,,,,,,,,,,,,,,,,,,,,,,,28.0,42.0,29.0,27.0,0.0,205.0,0.0,0.0,2.27,,,0,0,0,0,0,0,0,0,0,0,0,0,0,0,0,0,,1.0,,,,,38.986073,-76.950302,42.87,49.3,33.0,3.0,0.8
350,1496911,1745649733547,0.0,100.0,,0.05,0.47,0.98,34.0,-1.0,0.0,1.09,1.11,98.0,9164.0,13.0,2.54,,7.89,1.026,77.2,,44.3,5.0,,,,,,,,,,,,0,0,0,0,0,0,0,0,0,0,0,0,0,0,0,0,,,,,,0.0,,,,,,,
351,1496931,1745649733567,,,,,,,,,,,,,,,,,,,,,,,,,,,,,,,,,,0,0,0,0,0,0,0,0,0,0,0,0,0,0,0,0,,,,,,,,,,,,,
352,1496951,1745649733587,0.0,101.0,,0.05,0.62,0.95,34.0,-1.0,0.0,1.13,1.13,100.0,9189.0,13.0,2.52,,7.86,1.029,77.2,,44.1,5.0,,,,,,,,,,,,0,0,0,0,0,0,0,0,0,0,0,0,0,0,0,0,,,,,,0.0,,,,,,,
353,1496971,1745649733605,,,,,,,,,,,,,,,,,,,,,,,,,,,,,,,,,,0,0,0,0,0,0,0,0,0,0,0,0,0,0,0,0,,,,,,,,,,,,,
354,1496991,1745649733625,0.0,101.0,,0.06,0.46,0.93,34.0,-2.0,-1.0,1.04,1.13,92.0,9238.0,13.0,2.48,,7.83,1.033,77.2,,44.1,5.0,28.0,42.0,29.0,27.0,0.0,208.0,0.0,0.0,2.26,,,0,0,0,0,0,0,0,0,0,0,0,0,0,0,0,0,,0.0,,,,0.0,38.986073,-76.950325,43.27,49.3,33.0,3.0,0.8
355,1497011,1745649733645,,,,,,,,,,,,,,,,,,,,,,,,,,,,,,,,,,0,0,0,0,0,0,0,0,0,0,0,0,0,0,0,0,,,,,,,,,,,,,
356,1497031,1745649733665,0.0,101.0,,0.09,0.44,1.01,34.0,-2.0,0.0,1.1,1.13,97.0,9215.0,13.2,2.47,,7.86,1.033,77.2,,44.1,5.0,,,,,,,,,,,,0,0,0,0,0,0,0,0,0,0,0,0,0,0,0,0,,,,,,0.0,,,,,,,
357,1497051,1745649733685,,,,,,,,,,,,,,,,,,,,,,,,,,,,,,,,,,0,0,0,0,0,0,0,0,0,0,0,0,0,0,0,0,,,,,,,,,,,,,
358,1497071,1745649733705,0.0,101.0,,0.11,0.58,1.05,32.0,-2.0,0.0,1.2,1.2,100.0,9238.0,13.3,2.5,,7.86,1.033,77.2,,43.8,5.0,,,,,,,,,,,,0,0,0,0,0,0,0,0,0,0,0,0,0,0,0,0,,,,,,0.0,,,,,,,
359,1497091,1745649733725,,,,,,,,,,,,,,,,,,,,,,,29.0,39.0,28.0,28.0,0.0,99.0,0.0,0.0,2.26,,,0,0,0,0,0,0,0,0,0,0,0,0,0,0,0,0,,1.0,,,,,38.986073,-76.95034,44.11,49.3,33.0,3.0,0.8
360,1497111,1745649733745,0.0,101.0,,0.1,0.58,1.06,31.0,-1.0,0.0,1.22,1.22,100.0,9238.0,13.3,2.5,,7.89,1.033,77.2,,43.8,5.0,,,,,,,,,,,,0,0,0,0,0,0,0,0,0,0,0,0,0,0,0,0,,,,,,0.0,,,,,,,
361,1497131,1745649733765,,,,,,,,,,,,,,,,,,,,,,,,,,,,,,,,,,0,0,0,0,0,0,0,0,0,0,0,0,0,0,0,0,,,,,,,,,,,,,
362,1497151,1745649733785,0.0,101.0,,0.1,0.66,1.07,30.0,-2.0,-1.0,1.26,1.26,100.0,9326.0,13.3,2.5,,7.85,1.036,77.2,,43.6,5.0,,,,,,,,,,,,0,0,0,0,0,0,0,0,0,0,0,0,0,0,0,0,,,,,,0.0,,,,,,,
363,1497171,1745649733803,,,,,,,,,,,,,,,,,,,,,,,,,,,,,,,,,,0,0,0,0,0,0,0,0,0,0,0,0,0,0,0,0,,,,,,,,,,,,,
364,1497191,1745649733823,0.0,101.0,,0.1,0.68,0.99,31.0,-3.0,-1.0,1.2,1.26,95.0,9318.0,13.1,2.48,,7.78,1.034,73.6,,43.6,5.0,29.0,44.0,29.0,27.0,0.0,28.0,0.0,0.0,2.26,,,0,0,0,0,0,0,0,0,0,0,0,0,0,0,0,0,,1.0,,,,0.0,38.986073,-76.950348,43.71,49.3,33.0,3.0,0.8
365,1497211,1745649733843,,,,,,,,,,,,,,,,,,,,,,,,,,,,,,,,,,0,0,0,0,0,0,0,0,0,0,0,0,0,0,0,0,,,,,,,,,,,,,
366,1497231,1745649733863,0.0,101.0,,0.13,0.63,1.07,32.0,-2.0,-1.0,1.25,1.26,99.0,9361.0,13.1,2.48,,7.7,1.037,73.6,,43.6,5.0,,,,,,,,,,,,0,0,0,0,0,0,0,0,0,0,0,0,0,0,0,0,,,,,,0.0,,,,,,,
367,1497251,1745649733883,,,,,,,,,,,,,,,,,,,,,,,,,,,,,,,,,,0,0,0,0,0,0,0,0,0,0,0,0,0,0,0,0,,,,,,,,,,,,,
368,1497271,1745649733905,0.0,101.0,,0.13,0.66,1.06,31.0,-2.0,-1.0,1.25,1.26,99.0,9404.0,13.3,2.46,,7.7,1.037,73.6,,44.1,5.0,,,,,,,,,,,,0,0,0,0,0,0,0,0,0,0,0,0,0,0,0,0,,,,,,0.0,,,,,,,
369,1497291,1745649733925,,,,,,,,,,,,,,,,,,,,,,,29.0,44.0,29.0,26.0,0.0,185.0,0.0,0.0,2.26,,,0,0,0,0,0,0,0,0,0,0,0,0,0,0,0,0,,1.0,,,,,38.986073,-76.950363,44.54,49.3,33.0,3.0,0.8
370,1497311,1745649733945,0.0,101.0,,0.08,0.65,1.08,31.0,-2.0,0.0,1.27,1.27,100.0,9404.0,13.3,2.46,,7.83,1.044,73.6,,44.1,5.0,,,,,,,,,,,,0,0,0,0,0,0,0,0,0,0,0,0,0,0,0,0,,,,,,0.0,,,,,,,
371,1497331,1745649733965,,,,,,,,,,,,,,,,,,,,,,,,,,,,,,,,,,0,0,0,0,0,0,0,0,0,0,0,0,0,0,0,0,,,,,,,,,,,,,
372,1497351,1745649733985,0.0,101.0,,0.05,0.51,1.03,29.0,-2.0,-1.0,1.15,1.27,91.0,9416.0,13.0,2.47,,7.79,1.045,73.6,,43.7,5.0,,,,,,,,,,,,0,0,0,0,0,0,0,0,0,0,0,0,0,0,0,0,,,,,,0.0,,,,,,,
373,1497371,1745649733997,,,,,,,,,,,,,,,,,,,,,,,,,,,,,,,,,,0,0,0,0,0,0,0,0,0,0,0,0,0,0,0,0,,,,,,,,,,,,,
