,Interval,Utc,FrontBP,SteerAng,Battery,AccelX,AccelY,AccelZ,Yaw,Pitch,Roll,Gsum,GsumMax,GsumPct,RPM,TPS,InjectorPW,Baro,MAP,Lambda,IAT,EngineTemp,EOP,EOT,WSFR,WSFL,WSRR,WSRL,TCSet,TCSlip,TCComp,TCCut,Analog8,OilTemp,AA_On,ThermLF1,ThermLF2,ThermRR1,ThermRR2,ThermLF3,ThermLF4,ThermLF5,ThermLF6,ThermLF7,ThermLF8,ThermRR3,ThermRR4,ThermRR5,ThermRR6,ThermRR7,ThermRR8,AA_LowDrag,Gear,AA_On1,AA_LowDrag1,Fuel_Mix,AA_Packages,Latitude,Longitude,Speed,Altitude,GPSSats,GPSQual,GPSDOP
0,80850,1745675868855,,,,,,,,,,,,,,,,,,,,,,,,,,,,,,,,,,0,0,0,0,0,0,0,0,0,0,0,0,0,0,0,0,,,,,,,,,,,,,
1,80870,1745675868875,0.0,103.0,,-0.03,-0.05,1.04,1.0,0.0,0.0,1.04,1.04,100.0,3413.0,13.6,4.09,,13.59,0.891,71.8,,27.2,5.0,,,,,,,,,,,,0,0,0,0,0,0,0,0,0,0,0,0,0,0,0,0,,,,,,0.0,,,,,,,
2,80890,1745675868895,,,,,,,,,,,,,,,,,,,,,,,,,,,,,,,,,,0,0,0,0,0,0,0,0,0,0,0,0,0,0,0,0,,,,,,,,,,,,,
3,80910,1745675868915,0.0,103.0,,0.01,0.1,0.99,0.0,0.0,0.0,1.0,1.04,96.0,3425.0,15.6,4.14,,13.75,0.896,71.8,,27.2,5.0,,,,,,,,,,,,0,0,0,0,0,0,0,0,0,0,0,0,0,0,0,0,,,,,,0.0,,,,,,,
4,80930,1745675868935,,,,,,,,,,,,,,,,,,,,,,,1.0,2.0,1.0,1.0,0.0,165.0,0.0,0.0,2.27,,,0,0,0,0,0,0,0,0,0,0,0,0,0,0,0,0,,0.0,,,,,38.990784,-76.93988,1.99,35.3,24.0,2.0,1.1
5,80950,1745675868955,0.0,102.0,,-0.03,-0.04,1.04,1.0,0.0,0.0,1.04,1.04,100.0,3374.0,15.6,4.14,,13.82,0.907,71.8,,27.2,5.0,,,,,,,,,,,,0,0,0,0,0,0,0,0,0,0,0,0,0,0,0,0,,,,,,0.0,,,,,,,
6,80970,1745675868975,,,,,,,,,,,,,,,,,,,,,,,,,,,,,,,,,,0,0,0,0,0,0,0,0,0,0,0,0,0,0,0,0,,,,,,,,,,,,,
7,80990,1745675868995,0.0,102.0,,0.01,0.06,0.93,0.0,0.0,0.0,0.93,1.04,89.0,3288.0,15.6,4.18,,13.82,0.907,71.8,,27.2,5.0,,,,,,,,,,,,0,0,0,0,0,0,0,0,0,0,0,0,0,0,0,0,,,,,,0.0,,,,,,,
8,81010,1745675869009,,,,,,,,,,,,,,,,,,,,,,,,,,,,,,,,,,0,0,0,0,0,0,0,0,0,0,0,0,0,0,0,0,,,,,,,,,,,,,
9,81030,1745675869029,0.0,101.0,,-0.03,-0.05,1.0,0.0,0.0,0.0,1.0,1.04,96.0,3288.0,15.6,4.18,,13.87,0.943,71.8,,28.4,5.0,1.0,9.0,1.0,1.0,0.0,99.0,0.0,0.0,2.26,,,0,0,0,0,0,0,0,0,0,0,0,0,0,0,0,0,,0.0,,,,0.0,38.990788,-76.93988,2.22,35.3,24.0,2.0,1.1
10,81050,1745675869049,,,,,,,,,,,,,,,,,,,,,,,,,,,,,,,,,,0,0,0,0,0,0,0,0,0,0,0,0,0,0,0,0,,,,,,,,,,,,,
11,81070,1745675869069,0.0,102.0,,0.01,0.11,0.99,-1.0,0.0,1.0,0.99,1.04,95.0,3492.0,15.7,4.14,,13.77,1.025,71.8,,28.4,5.0,,,,,,,,,,,,0,0,0,0,0,0,0,0,0,0,0,0,0,0,0,0,,,,,,0.0,,,,,,,
12,81090,1745675869089,,,,,,,,,,,,,,,,,,,,,,,,,,,,,,,,,,0,0,0,0,0,0,0,0,0,0,0,0,0,0,0,0,,,,,,,,,,,,,
13,81110,1745675869115,0.0,102.0,,0.03,0.06,0.97,0.0,0.0,0.0,0.98,1.04,93.0,3561.0,16.0,4.14,,13.79,1.044,71.8,,28.4,5.0,,,,,,,,,,,,0,0,0,0,0,0,0,0,0,0,0,0,0,0,0,0,,,,,,0.0,,,,,,,
14,81130,1745675869135,,,,,,,,,,,,,,,,,,,,,,,1.0,18.0,2.0,1.0,0.0,121.0,0.0,0.0,2.26,,,0,0,0,0,0,0,0,0,0,0,0,0,0,0,0,0,,0.0,,,,,38.990788,-76.93988,2.54,35.3,24.0,2.0,1.1
15,81150,1745675869155,0.0,102.0,,0.01,0.01,0.95,1.0,0.0,0.0,0.95,1.04,91.0,3670.0,16.0,4.1,,13.69,1.016,71.8,,28.7,5.0,,,,,,,,,,,,0,0,0,0,0,0,0,0,0,0,0,0,0,0,0,0,,,,,,0.0,,,,,,,
16,81170,1745675869175,,,,,,,,,,,,,,,,,,,,,,,,,,,,,,,,,,0,0,0,0,0,0,0,0,0,0,0,0,0,0,0,0,,,,,,,,,,,,,
17,81190,1745675869195,0.0,102.0,,-0.0,0.02,0.96,1.0,0.0,0.0,0.96,1.04,92.0,3766.0,16.1,4.07,,13.69,1.016,71.8,,28.7,5.0,,,,,,,,,,,,0,0,0,0,0,0,0,0,0,0,0,0,0,0,0,0,,,,,,0.0,,,,,,,
18,81210,1745675869215,,,,,,,,,,,,,,,,,,,,,,,,,,,,,,,,,,0,0,0,0,0,0,0,0,0,0,0,0,0,0,0,0,,,,,,,,,,,,,
19,81230,1745675869235,0.0,102.0,,-0.01,0.13,1.01,1.0,0.0,0.0,1.02,1.04,98.0,3766.0,16.1,4.07,,13.53,0.999,71.8,,29.0,5.0,2.0,18.0,2.0,2.0,0.0,140.0,0.0,0.0,2.26,,,0,0,0,0,0,0,0,0,0,0,0,0,0,0,0,0,,0.0,,,,0.0,38.990788,-76.93988,3.07,35.3,24.0,2.0,1.1
20,81250,1745675869255,,,,,,,,,,,,,,,,,,,,,,,,,,,,,,,,,,0,0,0,0,0,0,0,0,0,0,0,0,0,0,0,0,,,,,,,,,,,,,
21,81270,1745675869275,0.0,102.0,,-0.0,0.1,1.05,0.0,0.0,1.0,1.05,1.05,100.0,3927.0,16.2,4.04,,13.63,0.994,71.8,,29.0,5.0,,,,,,,,,,,,0,0,0,0,0,0,0,0,0,0,0,0,0,0,0,0,,,,,,0.0,,,,,,,
22,81290,1745675869295,,,,,,,,,,,,,,,,,,,,,,,,,,,,,,,,,,0,0,0,0,0,0,0,0,0,0,0,0,0,0,0,0,,,,,,,,,,,,,
23,81310,1745675869315,0.0,101.0,,0.0,0.08,1.04,-1.0,0.0,1.0,1.04,1.05,99.0,3798.0,16.1,4.04,,13.48,0.993,71.8,,29.0,5.0,,,,,,,,,,,,0,0,0,0,0,0,0,0,0,0,0,0,0,0,0,0,,,,,,0.0,,,,,,,
24,81330,1745675869335,,,,,,,,,,,,,,,,,,,,,,,2.0,18.0,2.0,2.0,0.0,90.0,0.0,0.0,2.27,,,0,0,0,0,0,0,0,0,0,0,0,0,0,0,0,0,,0.0,,,,,38.990788,-76.93988,3.23,35.3,24.0,2.0,1.1
25,81350,1745675869355,0.0,102.0,,0.01,0.04,1.01,0.0,0.0,1.0,1.01,1.05,96.0,3689.0,15.8,4.08,,13.57,0.992,71.8,,27.3,5.0,,,,,,,,,,,,0,0,0,0,0,0,0,0,0,0,0,0,0,0,0,0,,,,,,0.0,,,,,,,
26,81370,1745675869375,,,,,,,,,,,,,,,,,,,,,,,,,,,,,,,,,,0,0,0,0,0,0,0,0,0,0,0,0,0,0,0,0,,,,,,,,,,,,,
27,81390,1745675869395,0.0,101.0,,0.0,0.04,1.0,0.0,0.0,0.0,1.01,1.05,95.0,3631.0,15.9,4.11,,13.57,0.992,71.8,,27.3,5.0,,,,,,,,,,,,0,0,0,0,0,0,0,0,0,0,0,0,0,0,0,0,,,,,,0.0,,,,,,,
28,81410,1745675869414,,,,,,,,,,,,,,,,,,,,,,,,,,,,,,,,,,0,0,0,0,0,0,0,0,0,0,0,0,0,0,0,0,,,,,,,,,,,,,
29,81430,1745675869434,0.0,102.0,14.06,0.01,0.04,0.98,0.0,0.0,0.0,0.98,1.05,93.0,3631.0,15.9,4.11,15.0,13.65,1.012,71.8,72.0,27.9,5.0,2.0,70.0,2.0,2.0,0.0,87.0,0.0,0.0,2.27,0.0,0.0,0,0,0,0,0,0,0,0,0,0,0,0,0,0,0,0,0.0,0.0,0.0,0.0,0.0,0.0,38.990791,-76.93988,3.57,35.3,24.0,2.0,1.1
30,81450,1745675869454,,,,,,,,,,,,,,,,,,,,,,,,,,,,,,,,,,0,0,0,0,0,0,0,0,0,0,0,0,0,0,0,0,,,,,,,,,,,,,
31,81470,1745675869474,0.0,101.0,,0.01,-0.0,0.97,1.0,0.0,0.0,0.97,1.05,92.0,3748.0,16.0,4.1,,13.61,1.099,71.8,,27.9,5.0,,,,,,,,,,,,0,0,0,0,0,0,0,0,0,0,0,0,0,0,0,0,,,,,,0.0,,,,,,,
32,81490,1745675869494,,,,,,,,,,,,,,,,,,,,,,,,,,,,,,,,,,0,0,0,0,0,0,0,0,0,0,0,0,0,0,0,0,,,,,,,,,,,,,
33,81510,1745675869514,0.0,102.0,,0.0,-0.05,1.0,1.0,0.0,0.0,1.0,1.05,95.0,3665.0,15.8,4.09,,13.64,1.062,71.8,,27.9,5.0,,,,,,,,,,,,0,0,0,0,0,0,0,0,0,0,0,0,0,0,0,0,,,,,,0.0,,,,,,,
34,81530,1745675869534,,,,,,,,,,,,,,,,,,,,,,,2.0,16.0,2.0,2.0,0.0,0.0,0.0,0.0,2.26,,,0,0,0,0,0,0,0,0,0,0,0,0,0,0,0,0,,0.0,,,,,38.990791,-76.93988,3.92,35.3,24.0,2.0,1.1
35,81550,1745675869554,0.0,102.0,,0.04,0.02,1.01,-1.0,0.0,1.0,1.01,1.05,96.0,3486.0,15.9,4.11,,13.73,1.016,71.8,,26.9,5.0,,,,,,,,,,,,0,0,0,0,0,0,0,0,0,0,0,0,0,0,0,0,,,,,,0.0,,,,,,,
36,81570,1745675869574,,,,,,,,,,,,,,,,,,,,,,,,,,,,,,,,,,0,0,0,0,0,0,0,0,0,0,0,0,0,0,0,0,,,,,,,,,,,,,
37,81590,1745675869594,0.0,102.0,,0.04,-0.06,1.01,1.0,0.0,0.0,1.01,1.05,96.0,3354.0,16.1,4.18,,13.73,1.016,71.8,,26.9,5.0,,,,,,,,,,,,0,0,0,0,0,0,0,0,0,0,0,0,0,0,0,0,,,,,,0.0,,,,,,,
38,81610,1745675869614,,,,,,,,,,,,,,,,,,,,,,,,,,,,,,,,,,0,0,0,0,0,0,0,0,0,0,0,0,0,0,0,0,,,,,,,,,,,,,
39,81630,1745675869634,0.0,102.0,,0.07,0.02,1.02,-1.0,0.0,1.0,1.02,1.05,97.0,3354.0,16.1,4.18,,13.8,0.999,71.8,,27.3,5.0,3.0,20.0,3.0,3.0,0.0,254.0,0.0,0.0,2.26,,,0,0,0,0,0,0,0,0,0,0,0,0,0,0,0,0,,0.0,,,,0.0,38.990791,-76.93988,4.57,35.3,24.0,2.0,1.1
40,81650,1745675869654,,,,,,,,,,,,,,,,,,,,,,,,,,,,,,,,,,0,0,0,0,0,0,0,0,0,0,0,0,0,0,0,0,,,,,,,,,,,,,
41,81670,1745675869674,0.0,102.0,,0.04,-0.09,1.06,0.0,0.0,0.0,1.06,1.06,100.0,3268.0,16.1,4.17,,13.87,1.044,71.8,,27.3,5.0,,,,,,,,,,,,0,0,0,0,0,0,0,0,0,0,0,0,0,0,0,0,,,,,,0.0,,,,,,,
42,81690,1745675869694,,,,,,,,,,,,,,,,,,,,,,,,,,,,,,,,,,0,0,0,0,0,0,0,0,0,0,0,0,0,0,0,0,,,,,,,,,,,,,
43,81710,1745675869714,0.0,102.0,,0.09,0.04,0.98,-1.0,0.0,0.0,0.98,1.06,93.0,3311.0,16.1,4.19,,13.88,1.023,71.8,,27.3,5.0,,,,,,,,,,,,0,0,0,0,0,0,0,0,0,0,0,0,0,0,0,0,,,,,,0.0,,,,,,,
44,81730,1745675869734,,,,,,,,,,,,,,,,,,,,,,,3.0,18.0,3.0,3.0,0.0,2.0,0.0,0.0,2.26,,,0,0,0,0,0,0,0,0,0,0,0,0,0,0,0,0,,0.0,,,,,38.990791,-76.939873,5.25,35.3,24.0,2.0,1.1
45,81750,1745675869754,0.0,101.0,,0.08,-0.02,1.06,-2.0,0.0,1.0,1.07,1.07,100.0,3230.0,16.2,4.2,,13.94,0.981,71.8,,26.7,5.0,,,,,,,,,,,,0,0,0,0,0,0,0,0,0,0,0,0,0,0,0,0,,,,,,0.0,,,,,,,
46,81770,1745675869774,,,,,,,,,,,,,,,,,,,,,,,,,,,,,,,,,,0,0,0,0,0,0,0,0,0,0,0,0,0,0,0,0,,,,,,,,,,,,,
47,81790,1745675869794,0.0,103.0,,0.04,-0.1,1.12,-1.0,0.0,0.0,1.12,1.12,100.0,3150.0,15.9,4.24,,13.94,0.981,71.8,,26.7,5.0,,,,,,,,,,,,0,0,0,0,0,0,0,0,0,0,0,0,0,0,0,0,,,,,,0.0,,,,,,,
48,81810,1745675869814,,,,,,,,,,,,,,,,,,,,,,,,,,,,,,,,,,0,0,0,0,0,0,0,0,0,0,0,0,0,0,0,0,,,,,,,,,,,,,
49,81830,1745675869834,0.0,103.0,,0.04,-0.07,1.05,0.0,0.0,0.0,1.05,1.12,94.0,3150.0,15.9,4.24,,13.94,0.959,71.8,,27.7,5.0,4.0,8.0,4.0,4.0,0.0,54.0,0.0,0.0,2.26,,,0,0,0,0,0,0,0,0,0,0,0,0,0,0,0,0,,0.0,,,,0.0,38.990795,-76.939873,6.12,35.3,24.0,2.0,1.1
50,81850,1745675869854,,,,,,,,,,,,,,,,,,,,,,,,,,,,,,,,,,0,0,0,0,0,0,0,0,0,0,0,0,0,0,0,0,,,,,,,,,,,,,
51,81870,1745675869874,0.0,102.0,,0.07,-0.03,0.96,-1.0,0.0,0.0,0.96,1.12,86.0,3102.0,15.7,4.22,,13.95,0.941,71.8,,27.7,5.0,,,,,,,,,,,,0,0,0,0,0,0,0,0,0,0,0,0,0,0,0,0,,,,,,0.0,,,,,,,
52,81890,1745675869894,,,,,,,,,,,,,,,,,,,,,,,,,,,,,,,,,,0,0,0,0,0,0,0,0,0,0,0,0,0,0,0,0,,,,,,,,,,,,,
53,81910,1745675869916,0.0,102.0,,0.1,0.04,0.89,-1.0,0.0,0.0,0.9,1.12,80.0,3093.0,15.7,4.24,,13.9,0.94,71.8,,27.7,5.0,,,,,,,,,,,,0,0,0,0,0,0,0,0,0,0,0,0,0,0,0,0,,,,,,0.0,,,,,,,
54,81930,1745675869936,,,,,,,,,,,,,,,,,,,,,,,4.0,382.0,4.0,4.0,0.0,0.0,0.0,0.0,2.27,,,0,0,0,0,0,0,0,0,0,0,0,0,0,0,0,0,,0.0,,,,,38.990795,-76.939873,6.69,35.3,24.0,2.0,1.1
55,81950,1745675869956,0.0,103.0,,0.12,0.09,0.9,-2.0,0.0,1.0,0.91,1.12,81.0,3086.0,15.5,4.24,,13.96,0.945,71.8,,26.9,5.0,,,,,,,,,,,,0,0,0,0,0,0,0,0,0,0,0,0,0,0,0,0,,,,,,0.0,,,,,,,
56,81970,1745675869976,,,,,,,,,,,,,,,,,,,,,,,,,,,,,,,,,,0,0,0,0,0,0,0,0,0,0,0,0,0,0,0,0,,,,,,,,,,,,,
57,81990,1745675869996,0.0,102.0,,0.13,0.07,0.96,-3.0,0.0,1.0,0.97,1.12,86.0,3072.0,15.6,4.25,,13.96,0.945,71.8,,26.9,5.0,,,,,,,,,,,,0,0,0,0,0,0,0,0,0,0,0,0,0,0,0,0,,,,,,0.0,,,,,,,
58,82010,1745675870008,,,,,,,,,,,,,,,,,,,,,,,,,,,,,,,,,,0,0,0,0,0,0,0,0,0,0,0,0,0,0,0,0,,,,,,,,,,,,,
59,82030,1745675870028,0.0,102.0,,0.13,0.01,1.03,-3.0,0.0,2.0,1.04,1.12,93.0,3072.0,15.6,4.25,,13.99,0.944,71.8,,26.7,5.0,5.0,7.0,5.0,4.0,0.0,49.0,0.0,0.0,2.27,,,0,0,0,0,0,0,0,0,0,0,0,0,0,0,0,0,,0.0,,,,0.0,38.990799,-76.939873,7.43,35.3,24.0,2.0,1.1
60,82050,1745675870048,,,,,,,,,,,,,,,,,,,,,,,,,,,,,,,,,,0,0,0,0,0,0,0,0,0,0,0,0,0,0,0,0,,,,,,,,,,,,,
61,82070,1745675870068,0.0,102.0,,0.11,-0.07,1.12,-3.0,0.0,1.0,1.13,1.13,100.0,3064.0,15.5,4.24,,13.99,0.949,71.8,,26.7,5.0,,,,,,,,,,,,0,0,0,0,0,0,0,0,0,0,0,0,0,0,0,0,,,,,,0.0,,,,,,,
62,82090,1745675870088,,,,,,,,,,,,,,,,,,,,,,,,,,,,,,,,,,0,0,0,0,0,0,0,0,0,0,0,0,0,0,0,0,,,,,,,,,,,,,
63,82110,1745675870114,0.0,103.0,,0.07,-0.13,1.18,-3.0,0.0,1.0,1.19,1.19,100.0,3055.0,15.6,4.24,,13.99,0.948,71.8,,26.7,5.0,,,,,,,,,,,,0,0,0,0,0,0,0,0,0,0,0,0,0,0,0,0,,,,,,0.0,,,,,,,
64,82130,1745675870134,,,,,,,,,,,,,,,,,,,,,,,5.0,869.0,5.0,5.0,0.0,51.0,0.0,0.0,2.26,,,0,0,0,0,0,0,0,0,0,0,0,0,0,0,0,0,,0.0,,,,,38.990799,-76.939873,8.1,35.3,24.0,2.0,1.1
65,82150,1745675870154,0.0,102.0,,0.06,-0.14,1.16,-2.0,0.0,0.0,1.17,1.19,98.0,3097.0,15.7,4.21,,13.91,0.942,71.8,,27.4,5.0,,,,,,,,,,,,0,0,0,0,0,0,0,0,0,0,0,0,0,0,0,0,,,,,,0.0,,,,,,,
66,82170,1745675870174,,,,,,,,,,,,,,,,,,,,,,,,,,,,,,,,,,0,0,0,0,0,0,0,0,0,0,0,0,0,0,0,0,,,,,,,,,,,,,
67,82190,1745675870194,0.0,102.0,,0.08,-0.08,1.06,-2.0,0.0,0.0,1.07,1.19,90.0,3148.0,11.1,4.01,,13.91,0.942,71.8,,27.4,5.0,,,,,,,,,,,,0,0,0,0,0,0,0,0,0,0,0,0,0,0,0,0,,,,,,0.0,,,,,,,
68,82210,1745675870214,,,,,,,,,,,,,,,,,,,,,,,,,,,,,,,,,,0,0,0,0,0,0,0,0,0,0,0,0,0,0,0,0,,,,,,,,,,,,,
69,82230,1745675870234,0.0,102.0,,0.1,0.01,0.98,-2.0,0.0,0.0,0.98,1.19,82.0,3148.0,11.1,4.01,,13.82,0.942,71.8,,27.7,5.0,6.0,869.0,6.0,6.0,0.0,54.0,0.0,0.0,2.26,,,0,0,0,0,0,0,0,0,0,0,0,0,0,0,0,0,,0.0,,,,0.0,38.990799,-76.939873,8.67,35.3,24.0,2.0,1.1
70,82250,1745675870254,,,,,,,,,,,,,,,,,,,,,,,,,,,,,,,,,,0,0,0,0,0,0,0,0,0,0,0,0,0,0,0,0,,,,,,,,,,,,,
71,82270,1745675870274,0.0,103.0,,0.09,-0.01,1.03,-3.0,0.0,1.0,1.04,1.19,87.0,3143.0,10.5,3.97,,13.73,0.94,71.8,,27.7,5.0,,,,,,,,,,,,0,0,0,0,0,0,0,0,0,0,0,0,0,0,0,0,,,,,,0.0,,,,,,,
72,82290,1745675870294,,,,,,,,,,,,,,,,,,,,,,,,,,,,,,,,,,0,0,0,0,0,0,0,0,0,0,0,0,0,0,0,0,,,,,,,,,,,,,
73,82310,1745675870314,0.0,102.0,,0.08,-0.09,1.14,-4.0,0.0,1.0,1.15,1.19,96.0,3134.0,10.3,3.98,,13.69,0.944,71.8,,27.7,5.0,,,,,,,,,,,,0,0,0,0,0,0,0,0,0,0,0,0,0,0,0,0,,,,,,0.0,,,,,,,
74,82330,1745675870334,,,,,,,,,,,,,,,,,,,,,,,6.0,869.0,6.0,6.0,0.0,0.0,0.0,0.0,2.27,,,0,0,0,0,0,0,0,0,0,0,0,0,0,0,0,0,,0.0,,,,,38.990803,-76.939873,9.34,35.3,24.0,2.0,1.1
75,82350,1745675870354,0.0,101.0,,0.04,-0.15,1.17,-3.0,0.0,0.0,1.18,1.19,99.0,3096.0,10.2,3.96,,13.72,0.939,71.8,,27.8,5.0,,,,,,,,,,,,0,0,0,0,0,0,0,0,0,0,0,0,0,0,0,0,,,,,,0.0,,,,,,,
76,82370,1745675870374,,,,,,,,,,,,,,,,,,,,,,,,,,,,,,,,,,0,0,0,0,0,0,0,0,0,0,0,0,0,0,0,0,,,,,,,,,,,,,
77,82390,1745675870394,0.0,99.0,,0.01,-0.16,1.14,-3.0,0.0,0.0,1.15,1.19,96.0,3044.0,9.9,3.98,,13.72,0.939,71.8,,27.8,5.0,,,,,,,,,,,,0,0,0,0,0,0,0,0,0,0,0,0,0,0,0,0,,,,,,0.0,,,,,,,
78,82410,1745675870415,,,,,,,,,,,,,,,,,,,,,,,,,,,,,,,,,,0,0,0,0,0,0,0,0,0,0,0,0,0,0,0,0,,,,,,,,,,,,,
79,82430,1745675870435,0.0,102.0,14.06,0.01,-0.13,1.11,-2.0,0.0,0.0,1.12,1.19,94.0,3044.0,9.9,3.98,15.0,13.73,0.931,71.8,74.0,26.8,5.0,6.0,5.0,6.0,7.0,0.0,0.0,0.0,0.0,2.27,0.0,0.0,0,0,0,0,0,0,0,0,0,0,0,0,0,0,0,0,0.0,0.0,0.0,0.0,0.0,0.0,38.990803,-76.939873,10.15,35.3,24.0,2.0,1.1
80,82450,1745675870455,,,,,,,,,,,,,,,,,,,,,,,,,,,,,,,,,,0,0,0,0,0,0,0,0,0,0,0,0,0,0,0,0,,,,,,,,,,,,,
81,82470,1745675870475,0.0,102.0,,0.01,-0.1,1.1,-3.0,0.0,-1.0,1.1,1.19,93.0,3020.0,5.5,3.83,,13.6,0.919,71.8,,26.8,5.0,,,,,,,,,,,,0,0,0,0,0,0,0,0,0,0,0,0,0,0,0,0,,,,,,0.0,,,,,,,
82,82490,1745675870495,,,,,,,,,,,,,,,,,,,,,,,,,,,,,,,,,,0,0,0,0,0,0,0,0,0,0,0,0,0,0,0,0,,,,,,,,,,,,,
83,82510,1745675870515,0.0,102.0,,0.0,-0.11,1.11,-3.0,0.0,-1.0,1.11,1.19,93.0,2862.0,4.3,3.78,,13.49,0.903,71.8,,26.8,5.0,,,,,,,,,,,,0,0,0,0,0,0,0,0,0,0,0,0,0,0,0,0,,,,,,0.0,,,,,,,
84,82530,1745675870535,,,,,,,,,,,,,,,,,,,,,,,7.0,5.0,7.0,7.0,0.0,0.0,0.0,0.0,2.27,,,0,0,0,0,0,0,0,0,0,0,0,0,0,0,0,0,,0.0,,,,,38.990807,-76.939865,10.51,35.2,24.0,2.0,1.1
85,82550,1745675870555,0.0,102.0,,0.01,-0.07,1.08,-4.0,0.0,0.0,1.08,1.19,91.0,2662.0,4.2,3.74,,13.61,0.892,71.8,,26.2,5.0,,,,,,,,,,,,0,0,0,0,0,0,0,0,0,0,0,0,0,0,0,0,,,,,,0.0,,,,,,,
86,82570,1745675870575,,,,,,,,,,,,,,,,,,,,,,,,,,,,,,,,,,0,0,0,0,0,0,0,0,0,0,0,0,0,0,0,0,,,,,,,,,,,,,
87,82590,1745675870595,0.0,102.0,,-0.0,-0.06,1.06,-4.0,0.0,-1.0,1.06,1.19,89.0,2486.0,4.3,3.72,,13.61,0.892,71.8,,26.2,5.0,,,,,,,,,,,,0,0,0,0,0,0,0,0,0,0,0,0,0,0,0,0,,,,,,0.0,,,,,,,
88,82610,1745675870615,,,,,,,,,,,,,,,,,,,,,,,,,,,,,,,,,,0,0,0,0,0,0,0,0,0,0,0,0,0,0,0,0,,,,,,,,,,,,,
89,82630,1745675870635,0.0,102.0,,-0.01,-0.07,1.06,-4.0,0.0,0.0,1.06,1.19,89.0,2486.0,4.3,3.72,,13.72,0.885,71.8,,25.6,5.0,7.0,3.0,7.0,7.0,0.0,185.0,0.0,0.0,2.26,,,0,0,0,0,0,0,0,0,0,0,0,0,0,0,0,0,,0.0,,,,0.0,38.99081,-76.939865,11.02,35.2,24.0,2.0,1.1
90,82650,1745675870655,,,,,,,,,,,,,,,,,,,,,,,,,,,,,,,,,,0,0,0,0,0,0,0,0,0,0,0,0,0,0,0,0,,,,,,,,,,,,,
91,82670,1745675870675,0.0,102.0,,-0.02,-0.07,1.06,-5.0,0.0,0.0,1.06,1.19,89.0,2402.0,4.3,3.71,,13.82,0.875,71.8,,25.6,5.0,,,,,,,,,,,,0,0,0,0,0,0,0,0,0,0,0,0,0,0,0,0,,,,,,0.0,,,,,,,
92,82690,1745675870695,,,,,,,,,,,,,,,,,,,,,,,,,,,,,,,,,,0,0,0,0,0,0,0,0,0,0,0,0,0,0,0,0,,,,,,,,,,,,,
93,82710,1745675870715,0.0,102.0,,-0.03,-0.06,1.04,-5.0,0.0,0.0,1.05,1.19,88.0,2329.0,4.5,3.69,,13.83,0.865,71.8,,25.6,5.0,,,,,,,,,,,,0,0,0,0,0,0,0,0,0,0,0,0,0,0,0,0,,,,,,0.0,,,,,,,
94,82730,1745675870735,,,,,,,,,,,,,,,,,,,,,,,7.0,8.0,7.0,7.0,0.0,29.0,0.0,0.0,2.26,,,0,0,0,0,0,0,0,0,0,0,0,0,0,0,0,0,,0.0,,,,,38.990814,-76.939865,11.5,35.2,24.0,2.0,1.1
95,82750,1745675870755,0.0,102.0,,-0.04,-0.05,1.03,-5.0,0.0,0.0,1.03,1.19,86.0,2418.0,4.4,3.7,,13.8,0.864,71.8,,26.7,5.0,,,,,,,,,,,,0,0,0,0,0,0,0,0,0,0,0,0,0,0,0,0,,,,,,0.0,,,,,,,
96,82770,1745675870775,,,,,,,,,,,,,,,,,,,,,,,,,,,,,,,,,,0,0,0,0,0,0,0,0,0,0,0,0,0,0,0,0,,,,,,,,,,,,,
97,82790,1745675870795,0.0,101.0,,-0.03,-0.02,1.03,-5.0,0.0,0.0,1.03,1.19,86.0,2483.0,4.4,3.71,,13.8,0.864,71.8,,26.7,5.0,,,,,,,,,,,,0,0,0,0,0,0,0,0,0,0,0,0,0,0,0,0,,,,,,0.0,,,,,,,
98,82810,1745675870815,,,,,,,,,,,,,,,,,,,,,,,,,,,,,,,,,,0,0,0,0,0,0,0,0,0,0,0,0,0,0,0,0,,,,,,,,,,,,,
99,82830,1745675870835,0.0,101.0,,-0.04,-0.03,1.04,-5.0,0.0,0.0,1.04,1.19,87.0,2483.0,4.4,3.71,,13.8,0.866,71.8,,27.5,5.0,7.0,15.0,7.0,7.0,0.0,135.0,0.0,0.0,2.26,,,0,0,0,0,0,0,0,0,0,0,0,0,0,0,0,0,,0.0,,,,0.0,38.990818,-76.939865,11.58,35.2,24.0,2.0,1.1
100,82850,1745675870855,,,,,,,,,,,,,,,,,,,,,,,,,,,,,,,,,,0,0,0,0,0,0,0,0,0,0,0,0,0,0,0,0,,,,,,,,,,,,,
101,82870,1745675870875,0.0,102.0,,-0.05,-0.03,1.03,-6.0,0.0,0.0,1.04,1.19,87.0,2441.0,4.3,3.72,,13.82,0.869,71.8,,27.5,5.0,,,,,,,,,,,,0,0,0,0,0,0,0,0,0,0,0,0,0,0,0,0,,,,,,0.0,,,,,,,
102,82890,1745675870895,,,,,,,,,,,,,,,,,,,,,,,,,,,,,,,,,,0,0,0,0,0,0,0,0,0,0,0,0,0,0,0,0,,,,,,,,,,,,,
103,82910,1745675870915,0.0,102.0,,-0.04,-0.01,1.01,-6.0,0.0,0.0,1.01,1.19,85.0,2485.0,4.1,3.71,,13.73,0.868,71.8,,27.5,5.0,,,,,,,,,,,,0,0,0,0,0,0,0,0,0,0,0,0,0,0,0,0,,,,,,0.0,,,,,,,
104,82930,1745675870935,,,,,,,,,,,,,,,,,,,,,,,8.0,13.0,7.0,7.0,0.0,19.0,0.0,0.0,2.27,,,0,0,0,0,0,0,0,0,0,0,0,0,0,0,0,0,,1.0,,,,,38.990818,-76.939865,11.59,35.2,24.0,2.0,1.1
105,82950,1745675870955,0.0,102.0,,-0.05,-0.04,1.03,-6.0,0.0,0.0,1.03,1.19,86.0,2521.0,4.0,3.73,,13.69,0.869,71.8,,28.0,5.0,,,,,,,,,,,,0,0,0,0,0,0,0,0,0,0,0,0,0,0,0,0,,,,,,0.0,,,,,,,
106,82970,1745675870975,,,,,,,,,,,,,,,,,,,,,,,,,,,,,,,,,,0,0,0,0,0,0,0,0,0,0,0,0,0,0,0,0,,,,,,,,,,,,,
107,82990,1745675870995,0.0,102.0,,-0.05,-0.02,1.0,-6.0,0.0,0.0,1.0,1.19,84.0,2550.0,3.9,3.72,,13.69,0.869,71.8,,28.0,5.0,,,,,,,,,,,,0,0,0,0,0,0,0,0,0,0,0,0,0,0,0,0,,,,,,0.0,,,,,,,
108,83010,1745675871009,,,,,,,,,,,,,,,,,,,,,,,,,,,,,,,,,,0,0,0,0,0,0,0,0,0,0,0,0,0,0,0,0,,,,,,,,,,,,,
109,83030,1745675871029,0.0,102.0,,-0.05,0.02,1.04,-6.0,0.0,0.0,1.04,1.19,87.0,2550.0,3.9,3.72,,13.69,0.876,71.8,,28.1,5.0,7.0,15.0,7.0,8.0,0.0,45.0,0.0,0.0,2.27,,,0,0,0,0,0,0,0,0,0,0,0,0,0,0,0,0,,1.0,,,,0.0,38.990818,-76.939858,11.87,35.2,24.0,2.0,1.1
110,83050,1745675871049,,,,,,,,,,,,,,,,,,,,,,,,,,,,,,,,,,0,0,0,0,0,0,0,0,0,0,0,0,0,0,0,0,,,,,,,,,,,,,
111,83070,1745675871069,0.0,102.0,,-0.06,0.0,1.04,-6.0,1.0,-1.0,1.05,1.19,88.0,2550.0,4.0,3.72,,13.75,0.885,71.8,,28.1,5.0,,,,,,,,,,,,0,0,0,0,0,0,0,0,0,0,0,0,0,0,0,0,,,,,,0.0,,,,,,,
112,83090,1745675871089,,,,,,,,,,,,,,,,,,,,,,,,,,,,,,,,,,0,0,0,0,0,0,0,0,0,0,0,0,0,0,0,0,,,,,,,,,,,,,
113,83110,1745675871115,0.0,102.0,,-0.06,0.0,1.04,-6.0,1.0,-1.0,1.04,1.19,87.0,2497.0,3.9,3.71,,13.75,0.891,71.8,,28.1,5.0,,,,,,,,,,,,0,0,0,0,0,0,0,0,0,0,0,0,0,0,0,0,,,,,,0.0,,,,,,,
114,83130,1745675871135,,,,,,,,,,,,,,,,,,,,,,,7.0,7.0,7.0,8.0,0.0,177.0,0.0,0.0,2.26,,,0,0,0,0,0,0,0,0,0,0,0,0,0,0,0,0,,0.0,,,,,38.990822,-76.939858,11.8,35.2,24.0,2.0,1.1
115,83150,1745675871155,0.0,102.0,,-0.06,-0.01,1.05,-7.0,1.0,-1.0,1.05,1.19,88.0,2547.0,4.2,3.72,,13.69,0.9,71.8,,27.9,5.0,,,,,,,,,,,,0,0,0,0,0,0,0,0,0,0,0,0,0,0,0,0,,,,,,0.0,,,,,,,
116,83170,1745675871175,,,,,,,,,,,,,,,,,,,,,,,,,,,,,,,,,,0,0,0,0,0,0,0,0,0,0,0,0,0,0,0,0,,,,,,,,,,,,,
117,83190,1745675871195,0.0,102.0,,-0.06,-0.01,1.01,-7.0,1.0,0.0,1.01,1.19,85.0,2556.0,4.3,3.72,,13.69,0.9,71.8,,27.9,5.0,,,,,,,,,,,,0,0,0,0,0,0,0,0,0,0,0,0,0,0,0,0,,,,,,0.0,,,,,,,
118,83210,1745675871213,,,,,,,,,,,,,,,,,,,,,,,,,,,,,,,,,,0,0,0,0,0,0,0,0,0,0,0,0,0,0,0,0,,,,,,,,,,,,,
119,83230,1745675871233,0.0,102.0,,-0.06,-0.02,1.03,-7.0,1.0,0.0,1.04,1.19,87.0,2556.0,4.3,3.72,,13.72,0.901,71.8,,28.9,5.0,7.0,10.0,7.0,8.0,0.0,26.0,0.0,0.0,2.26,,,0,0,0,0,0,0,0,0,0,0,0,0,0,0,0,0,,0.0,,,,0.0,38.990826,-76.939858,12.04,35.2,24.0,2.0,1.1
120,83250,1745675871253,,,,,,,,,,,,,,,,,,,,,,,,,,,,,,,,,,0,0,0,0,0,0,0,0,0,0,0,0,0,0,0,0,,,,,,,,,,,,,
121,83270,1745675871273,0.0,102.0,,-0.07,-0.02,1.01,-7.0,2.0,0.0,1.01,1.19,85.0,2631.0,4.5,3.72,,13.68,0.904,71.8,,28.9,5.0,,,,,,,,,,,,0,0,0,0,0,0,0,0,0,0,0,0,0,0,0,0,,,,,,0.0,,,,,,,
122,83290,1745675871293,,,,,,,,,,,,,,,,,,,,,,,,,,,,,,,,,,0,0,0,0,0,0,0,0,0,0,0,0,0,0,0,0,,,,,,,,,,,,,
123,83310,1745675871315,0.0,102.0,,-0.07,-0.04,1.04,-7.0,2.0,0.0,1.04,1.19,87.0,2629.0,4.4,3.73,,13.57,0.911,71.8,,28.9,5.0,,,,,,,,,,,,0,0,0,0,0,0,0,0,0,0,0,0,0,0,0,0,,,,,,0.0,,,,,,,
124,83330,1745675871335,,,,,,,,,,,,,,,,,,,,,,,7.0,8.0,8.0,7.0,0.0,89.0,0.0,0.0,2.26,,,0,0,0,0,0,0,0,0,0,0,0,0,0,0,0,0,,0.0,,,,,38.990829,-76.939858,11.93,35.2,24.0,2.0,1.1
125,83350,1745675871355,0.0,102.0,,-0.06,-0.05,1.01,-7.0,2.0,0.0,1.01,1.19,85.0,2661.0,4.4,3.73,,13.56,0.912,71.8,,28.8,5.0,,,,,,,,,,,,0,0,0,0,0,0,0,0,0,0,0,0,0,0,0,0,,,,,,0.0,,,,,,,
126,83370,1745675871375,,,,,,,,,,,,,,,,,,,,,,,,,,,,,,,,,,0,0,0,0,0,0,0,0,0,0,0,0,0,0,0,0,,,,,,,,,,,,,
127,83390,1745675871395,0.0,102.0,,-0.06,-0.05,1.03,-7.0,2.0,0.0,1.03,1.19,87.0,2659.0,4.2,3.72,,13.56,0.912,71.8,,28.8,5.0,,,,,,,,,,,,0,0,0,0,0,0,0,0,0,0,0,0,0,0,0,0,,,,,,0.0,,,,,,,
128,83410,1745675871415,,,,,,,,,,,,,,,,,,,,,,,,,,,,,,,,,,0,0,0,0,0,0,0,0,0,0,0,0,0,0,0,0,,,,,,,,,,,,,
129,83430,1745675871435,0.0,102.0,14.08,-0.06,-0.04,1.01,-7.0,2.0,0.0,1.01,1.19,85.0,2659.0,4.2,3.72,15.0,13.55,0.919,71.8,74.0,29.0,5.0,8.0,7.0,8.0,8.0,0.0,240.0,0.0,0.0,2.27,0.0,0.0,0,0,0,0,0,0,0,0,0,0,0,0,0,0,0,0,0.0,0.0,0.0,0.0,0.0,0.0,38.990833,-76.939858,11.98,35.2,24.0,2.0,1.1
130,83450,1745675871455,,,,,,,,,,,,,,,,,,,,,,,,,,,,,,,,,,0,0,0,0,0,0,0,0,0,0,0,0,0,0,0,0,,,,,,,,,,,,,
131,83470,1745675871475,0.0,102.0,,-0.06,-0.04,1.03,-7.0,2.0,0.0,1.03,1.19,87.0,2663.0,4.1,3.74,,13.61,0.93,71.8,,29.0,5.0,,,,,,,,,,,,0,0,0,0,0,0,0,0,0,0,0,0,0,0,0,0,,,,,,0.0,,,,,,,
132,83490,1745675871495,,,,,,,,,,,,,,,,,,,,,,,,,,,,,,,,,,0,0,0,0,0,0,0,0,0,0,0,0,0,0,0,0,,,,,,,,,,,,,
133,83510,1745675871514,0.0,102.0,,-0.04,-0.05,1.05,-7.0,2.0,0.0,1.05,1.19,88.0,2705.0,4.0,3.72,,13.57,0.935,71.8,,29.0,5.0,,,,,,,,,,,,0,0,0,0,0,0,0,0,0,0,0,0,0,0,0,0,,,,,,0.0,,,,,,,
134,83530,1745675871534,,,,,,,,,,,,,,,,,,,,,,,8.0,8.0,8.0,8.0,0.0,248.0,0.0,0.0,2.27,,,0,0,0,0,0,0,0,0,0,0,0,0,0,0,0,0,,1.0,,,,,38.990837,-76.939858,12.3,35.2,24.0,2.0,1.1
135,83550,1745675871554,0.0,102.0,,-0.04,-0.05,1.01,-7.0,2.0,0.0,1.02,1.19,85.0,2680.0,4.1,3.73,,13.59,0.938,71.8,,29.0,5.0,,,,,,,,,,,,0,0,0,0,0,0,0,0,0,0,0,0,0,0,0,0,,,,,,0.0,,,,,,,
136,83570,1745675871574,,,,,,,,,,,,,,,,,,,,,,,,,,,,,,,,,,0,0,0,0,0,0,0,0,0,0,0,0,0,0,0,0,,,,,,,,,,,,,
137,83590,1745675871594,0.0,102.0,,-0.04,-0.05,1.03,-7.0,2.0,0.0,1.04,1.19,87.0,2653.0,4.1,3.72,,13.59,0.938,71.8,,29.0,5.0,,,,,,,,,,,,0,0,0,0,0,0,0,0,0,0,0,0,0,0,0,0,,,,,,0.0,,,,,,,
138,83610,1745675871614,,,,,,,,,,,,,,,,,,,,,,,,,,,,,,,,,,0,0,0,0,0,0,0,0,0,0,0,0,0,0,0,0,,,,,,,,,,,,,
139,83630,1745675871634,0.0,102.0,,-0.04,-0.01,0.99,-7.0,1.0,0.0,0.99,1.19,83.0,2653.0,4.1,3.72,,13.59,0.94,71.8,,27.9,5.0,8.0,8.0,8.0,8.0,0.0,23.0,0.0,0.0,2.26,,,0,0,0,0,0,0,0,0,0,0,0,0,0,0,0,0,,1.0,,,,0.0,38.990837,-76.939858,12.43,35.2,24.0,2.0,1.1
140,83650,1745675871654,,,,,,,,,,,,,,,,,,,,,,,,,,,,,,,,,,0,0,0,0,0,0,0,0,0,0,0,0,0,0,0,0,,,,,,,,,,,,,
141,83670,1745675871674,0.0,101.0,,-0.04,-0.01,1.03,-7.0,1.0,0.0,1.03,1.19,87.0,2670.0,4.1,3.72,,13.63,0.942,71.8,,27.9,5.0,,,,,,,,,,,,0,0,0,0,0,0,0,0,0,0,0,0,0,0,0,0,,,,,,0.0,,,,,,,
142,83690,1745675871694,,,,,,,,,,,,,,,,,,,,,,,,,,,,,,,,,,0,0,0,0,0,0,0,0,0,0,0,0,0,0,0,0,,,,,,,,,,,,,
143,83710,1745675871714,0.0,102.0,,-0.03,0.02,1.0,-7.0,1.0,0.0,1.01,1.19,84.0,2652.0,4.2,3.72,,13.59,0.941,71.8,,27.9,5.0,,,,,,,,,,,,0,0,0,0,0,0,0,0,0,0,0,0,0,0,0,0,,,,,,0.0,,,,,,,
144,83730,1745675871734,,,,,,,,,,,,,,,,,,,,,,,8.0,8.0,8.0,8.0,0.0,16.0,0.0,0.0,2.26,,,0,0,0,0,0,0,0,0,0,0,0,0,0,0,0,0,,1.0,,,,,38.990837,-76.93985,12.8,35.2,24.0,2.0,1.1
145,83750,1745675871754,0.0,103.0,,-0.05,0.0,1.0,-6.0,1.0,0.0,1.0,1.19,84.0,2684.0,4.5,3.72,,13.52,0.934,71.8,,28.0,5.0,,,,,,,,,,,,0,0,0,0,0,0,0,0,0,0,0,0,0,0,0,0,,,,,,0.0,,,,,,,
146,83770,1745675871774,,,,,,,,,,,,,,,,,,,,,,,,,,,,,,,,,,0,0,0,0,0,0,0,0,0,0,0,0,0,0,0,0,,,,,,,,,,,,,
147,83790,1745675871794,0.0,102.0,,-0.05,0.02,1.01,-6.0,1.0,0.0,1.01,1.19,85.0,2730.0,4.5,3.73,,13.52,0.934,71.8,,28.0,5.0,,,,,,,,,,,,0,0,0,0,0,0,0,0,0,0,0,0,0,0,0,0,,,,,,0.0,,,,,,,
148,83810,1745675871814,,,,,,,,,,,,,,,,,,,,,,,,,,,,,,,,,,0,0,0,0,0,0,0,0,0,0,0,0,0,0,0,0,,,,,,,,,,,,,
149,83830,1745675871834,0.0,102.0,,-0.04,0.05,0.98,-6.0,1.0,0.0,0.98,1.19,82.0,2730.0,4.5,3.73,,13.59,0.93,71.8,,28.9,5.0,8.0,8.0,8.0,8.0,0.0,1.0,0.0,0.0,2.26,,,0,0,0,0,0,0,0,0,0,0,0,0,0,0,0,0,,1.0,,,,0.0,38.990841,-76.93985,12.81,35.2,24.0,2.0,1.1
150,83850,1745675871854,,,,,,,,,,,,,,,,,,,,,,,,,,,,,,,,,,0,0,0,0,0,0,0,0,0,0,0,0,0,0,0,0,,,,,,,,,,,,,
151,83870,1745675871874,0.0,103.0,,-0.04,0.01,1.03,-6.0,1.0,0.0,1.03,1.19,86.0,2752.0,4.5,3.74,,13.56,0.93,71.8,,28.9,5.0,,,,,,,,,,,,0,0,0,0,0,0,0,0,0,0,0,0,0,0,0,0,,,,,,0.0,,,,,,,
152,83890,1745675871894,,,,,,,,,,,,,,,,,,,,,,,,,,,,,,,,,,0,0,0,0,0,0,0,0,0,0,0,0,0,0,0,0,,,,,,,,,,,,,
153,83910,1745675871914,0.0,101.0,,-0.03,0.03,1.01,-5.0,0.0,0.0,1.01,1.19,85.0,2712.0,4.2,3.73,,13.55,0.929,71.8,,28.9,5.0,,,,,,,,,,,,0,0,0,0,0,0,0,0,0,0,0,0,0,0,0,0,,,,,,0.0,,,,,,,
154,83930,1745675871934,,,,,,,,,,,,,,,,,,,,,,,8.0,14.0,8.0,8.0,0.0,24.0,0.0,0.0,2.27,,,0,0,0,0,0,0,0,0,0,0,0,0,0,0,0,0,,1.0,,,,,38.990845,-76.93985,13.05,35.2,24.0,2.0,1.1
155,83950,1745675871954,0.0,102.0,,-0.02,0.05,0.96,-5.0,0.0,0.0,0.97,1.19,81.0,2735.0,4.2,3.74,,13.56,0.932,71.8,,29.3,5.0,,,,,,,,,,,,0,0,0,0,0,0,0,0,0,0,0,0,0,0,0,0,,,,,,0.0,,,,,,,
156,83970,1745675871974,,,,,,,,,,,,,,,,,,,,,,,,,,,,,,,,,,0,0,0,0,0,0,0,0,0,0,0,0,0,0,0,0,,,,,,,,,,,,,
157,83990,1745675871994,0.0,103.0,,-0.04,0.01,0.99,-4.0,1.0,0.0,0.99,1.19,83.0,2764.0,3.9,3.74,,13.56,0.932,71.8,,29.3,5.0,,,,,,,,,,,,0,0,0,0,0,0,0,0,0,0,0,0,0,0,0,0,,,,,,0.0,,,,,,,
158,84010,1745675872008,,,,,,,,,,,,,,,,,,,,,,,,,,,,,,,,,,0,0,0,0,0,0,0,0,0,0,0,0,0,0,0,0,,,,,,,,,,,,,
159,84030,1745675872028,0.0,103.0,,-0.04,0.01,1.0,-4.0,0.0,0.0,1.0,1.19,84.0,2764.0,3.9,3.74,,13.51,0.934,71.8,,28.6,5.0,8.0,8.0,8.0,8.0,0.0,248.0,0.0,0.0,2.27,,,0,0,0,0,0,0,0,0,0,0,0,0,0,0,0,0,,1.0,,,,0.0,38.990849,-76.939842,12.83,35.2,24.0,2.0,1.1
160,84050,1745675872048,,,,,,,,,,,,,,,,,,,,,,,,,,,,,,,,,,0,0,0,0,0,0,0,0,0,0,0,0,0,0,0,0,,,,,,,,,,,,,
161,84070,1745675872068,0.0,102.0,,-0.02,0.07,0.97,-4.0,0.0,0.0,0.98,1.19,82.0,2765.0,4.0,3.74,,13.53,0.931,71.8,,28.6,5.0,,,,,,,,,,,,0,0,0,0,0,0,0,0,0,0,0,0,0,0,0,0,,,,,,0.0,,,,,,,
162,84090,1745675872088,,,,,,,,,,,,,,,,,,,,,,,,,,,,,,,,,,0,0,0,0,0,0,0,0,0,0,0,0,0,0,0,0,,,,,,,,,,,,,
163,84110,1745675872114,0.0,102.0,,-0.04,0.01,1.0,-4.0,0.0,0.0,1.0,1.19,84.0,2739.0,4.0,3.75,,13.49,0.932,71.8,,28.6,5.0,,,,,,,,,,,,0,0,0,0,0,0,0,0,0,0,0,0,0,0,0,0,,,,,,0.0,,,,,,,
164,84130,1745675872134,,,,,,,,,,,,,,,,,,,,,,,8.0,7.0,8.0,8.0,0.0,66.0,0.0,0.0,2.26,,,0,0,0,0,0,0,0,0,0,0,0,0,0,0,0,0,,1.0,,,,,38.990852,-76.939842,13.19,35.2,24.0,2.0,1.1
165,84150,1745675872154,0.0,102.0,,-0.02,0.01,1.03,-4.0,0.0,0.0,1.03,1.19,86.0,2803.0,4.1,3.73,,13.53,0.925,71.8,,28.2,5.0,,,,,,,,,,,,0,0,0,0,0,0,0,0,0,0,0,0,0,0,0,0,,,,,,0.0,,,,,,,
166,84170,1745675872174,,,,,,,,,,,,,,,,,,,,,,,,,,,,,,,,,,0,0,0,0,0,0,0,0,0,0,0,0,0,0,0,0,,,,,,,,,,,,,
167,84190,1745675872194,0.0,102.0,,-0.01,0.01,0.99,-4.0,0.0,1.0,0.99,1.19,83.0,2776.0,4.2,3.74,,13.53,0.925,71.8,,28.2,5.0,,,,,,,,,,,,0,0,0,0,0,0,0,0,0,0,0,0,0,0,0,0,,,,,,0.0,,,,,,,
168,84210,1745675872214,,,,,,,,,,,,,,,,,,,,,,,,,,,,,,,,,,0,0,0,0,0,0,0,0,0,0,0,0,0,0,0,0,,,,,,,,,,,,,
169,84230,1745675872234,0.0,102.0,,-0.03,0.04,0.99,-3.0,0.0,0.0,0.99,1.19,83.0,2776.0,4.2,3.74,,13.52,0.92,71.8,,28.8,5.0,8.0,27.0,8.0,8.0,0.0,94.0,0.0,0.0,2.26,,,0,0,0,0,0,0,0,0,0,0,0,0,0,0,0,0,,1.0,,,,0.0,38.990856,-76.939842,12.93,35.2,24.0,2.0,1.1
170,84250,1745675872254,,,,,,,,,,,,,,,,,,,,,,,,,,,,,,,,,,0,0,0,0,0,0,0,0,0,0,0,0,0,0,0,0,,,,,,,,,,,,,
171,84270,1745675872274,0.0,102.0,,-0.03,-0.01,1.03,-3.0,0.0,1.0,1.03,1.19,87.0,2804.0,4.3,3.74,,13.45,0.917,71.8,,28.8,5.0,,,,,,,,,,,,0,0,0,0,0,0,0,0,0,0,0,0,0,0,0,0,,,,,,0.0,,,,,,,
172,84290,1745675872294,,,,,,,,,,,,,,,,,,,,,,,,,,,,,,,,,,0,0,0,0,0,0,0,0,0,0,0,0,0,0,0,0,,,,,,,,,,,,,
173,84310,1745675872314,0.0,102.0,,-0.04,0.01,1.03,-3.0,0.0,1.0,1.03,1.19,86.0,2782.0,4.6,3.74,,13.53,0.919,71.8,,28.8,5.0,,,,,,,,,,,,0,0,0,0,0,0,0,0,0,0,0,0,0,0,0,0,,,,,,0.0,,,,,,,
174,84330,1745675872334,,,,,,,,,,,,,,,,,,,,,,,9.0,119.0,9.0,8.0,0.0,81.0,0.0,0.0,2.26,,,0,0,0,0,0,0,0,0,0,0,0,0,0,0,0,0,,1.0,,,,,38.990856,-76.939835,13.19,35.2,24.0,2.0,1.1
175,84350,1745675872354,0.0,102.0,,-0.04,0.04,0.99,-3.0,0.0,1.0,0.99,1.19,83.0,2775.0,4.3,3.74,,13.49,0.919,71.8,,28.1,5.0,,,,,,,,,,,,0,0,0,0,0,0,0,0,0,0,0,0,0,0,0,0,,,,,,0.0,,,,,,,
176,84370,1745675872374,,,,,,,,,,,,,,,,,,,,,,,,,,,,,,,,,,0,0,0,0,0,0,0,0,0,0,0,0,0,0,0,0,,,,,,,,,,,,,
177,84390,1745675872394,0.0,103.0,,-0.07,0.01,0.99,-3.0,0.0,0.0,0.99,1.19,83.0,2776.0,4.4,3.73,,13.49,0.919,71.8,,28.1,5.0,,,,,,,,,,,,0,0,0,0,0,0,0,0,0,0,0,0,0,0,0,0,,,,,,0.0,,,,,,,
178,84410,1745675872414,,,,,,,,,,,,,,,,,,,,,,,,,,,,,,,,,,0,0,0,0,0,0,0,0,0,0,0,0,0,0,0,0,,,,,,,,,,,,,
179,84430,1745675872434,0.0,102.0,14.08,-0.05,0.01,1.05,-3.0,0.0,1.0,1.05,1.19,88.0,2776.0,4.4,3.73,15.0,13.49,0.92,71.8,74.0,28.4,5.0,9.0,4.0,8.0,9.0,0.0,24.0,0.0,0.0,2.27,0.0,0.0,0,0,0,0,0,0,0,0,0,0,0,0,0,0,0,0,0.0,0.0,0.0,0.0,0.0,0.0,38.990856,-76.939835,13.29,35.1,24.0,2.0,1.1
180,84450,1745675872454,,,,,,,,,,,,,,,,,,,,,,,,,,,,,,,,,,0,0,0,0,0,0,0,0,0,0,0,0,0,0,0,0,,,,,,,,,,,,,
181,84470,1745675872474,0.0,103.0,,-0.06,0.02,1.05,-3.0,0.0,1.0,1.05,1.19,88.0,2851.0,4.2,3.75,,13.51,0.919,71.8,,28.4,5.0,,,,,,,,,,,,0,0,0,0,0,0,0,0,0,0,0,0,0,0,0,0,,,,,,0.0,,,,,,,
182,84490,1745675872494,,,,,,,,,,,,,,,,,,,,,,,,,,,,,,,,,,0,0,0,0,0,0,0,0,0,0,0,0,0,0,0,0,,,,,,,,,,,,,
183,84510,1745675872513,0.0,103.0,,-0.05,0.03,1.01,-4.0,0.0,2.0,1.02,1.19,85.0,2845.0,4.0,3.75,,13.4,0.914,71.8,,28.4,5.0,,,,,,,,,,,,0,0,0,0,0,0,0,0,0,0,0,0,0,0,0,0,,,,,,0.0,,,,,,,
184,84530,1745675872533,,,,,,,,,,,,,,,,,,,,,,,8.0,4.0,8.0,9.0,0.0,58.0,0.0,0.0,2.27,,,0,0,0,0,0,0,0,0,0,0,0,0,0,0,0,0,,0.0,,,,,38.99086,-76.939835,13.19,35.2,24.0,2.0,1.1
185,84550,1745675872553,0.0,101.0,,-0.07,0.0,1.02,-4.0,0.0,1.0,1.02,1.19,86.0,2772.0,4.0,3.75,,13.45,0.913,71.8,,28.2,5.0,,,,,,,,,,,,0,0,0,0,0,0,0,0,0,0,0,0,0,0,0,0,,,,,,0.0,,,,,,,
186,84570,1745675872573,,,,,,,,,,,,,,,,,,,,,,,,,,,,,,,,,,0,0,0,0,0,0,0,0,0,0,0,0,0,0,0,0,,,,,,,,,,,,,
187,84590,1745675872593,0.0,102.0,,-0.08,-0.04,1.05,-5.0,-1.0,1.0,1.06,1.19,89.0,2904.0,4.0,3.75,,13.45,0.913,71.8,,28.2,5.0,,,,,,,,,,,,0,0,0,0,0,0,0,0,0,0,0,0,0,0,0,0,,,,,,0.0,,,,,,,
188,84610,1745675872615,,,,,,,,,,,,,,,,,,,,,,,,,,,,,,,,,,0,0,0,0,0,0,0,0,0,0,0,0,0,0,0,0,,,,,,,,,,,,,
189,84630,1745675872635,0.0,102.0,,-0.08,-0.07,1.1,-5.0,-1.0,1.0,1.11,1.19,93.0,2904.0,4.0,3.75,,13.37,0.931,71.8,,28.4,5.0,8.0,4.0,8.0,8.0,0.0,147.0,0.0,0.0,2.27,,,0,0,0,0,0,0,0,0,0,0,0,0,0,0,0,0,,1.0,,,,0.0,38.990864,-76.939827,13.23,35.2,24.0,2.0,1.1
190,84650,1745675872655,,,,,,,,,,,,,,,,,,,,,,,,,,,,,,,,,,0,0,0,0,0,0,0,0,0,0,0,0,0,0,0,0,,,,,,,,,,,,,
191,84670,1745675872675,0.0,102.0,,-0.1,-0.09,1.13,-5.0,-1.0,1.0,1.14,1.19,95.0,2880.0,4.1,3.76,,13.43,0.945,71.8,,28.4,5.0,,,,,,,,,,,,0,0,0,0,0,0,0,0,0,0,0,0,0,0,0,0,,,,,,0.0,,,,,,,
192,84690,1745675872695,,,,,,,,,,,,,,,,,,,,,,,,,,,,,,,,,,0,0,0,0,0,0,0,0,0,0,0,0,0,0,0,0,,,,,,,,,,,,,
193,84710,1745675872715,0.0,102.0,,-0.09,-0.07,1.09,-6.0,-1.0,1.0,1.09,1.19,92.0,2876.0,4.0,3.75,,13.44,0.94,71.8,,28.4,5.0,,,,,,,,,,,,0,0,0,0,0,0,0,0,0,0,0,0,0,0,0,0,,,,,,0.0,,,,,,,
194,84730,1745675872735,,,,,,,,,,,,,,,,,,,,,,,9.0,26.0,8.0,9.0,0.0,174.0,0.0,0.0,2.26,,,0,0,0,0,0,0,0,0,0,0,0,0,0,0,0,0,,1.0,,,,,38.990868,-76.939827,13.46,35.2,24.0,2.0,1.1
195,84750,1745675872755,0.0,102.0,,-0.08,-0.04,1.04,-6.0,-1.0,1.0,1.05,1.05,100.0,2837.0,4.2,3.75,,13.47,0.929,71.8,,27.5,5.0,,,,,,,,,,,,0,0,0,0,0,0,0,0,0,0,0,0,0,0,0,0,,,,,,0.0,,,,,,,
196,84770,1745675872775,,,,,,,,,,,,,,,,,,,,,,,,,,,,,,,,,,0,0,0,0,0,0,0,0,0,0,0,0,0,0,0,0,,,,,,,,,,,,,
197,84790,1745675872795,0.0,102.0,,-0.08,-0.09,1.05,-7.0,-1.0,1.0,1.05,1.05,100.0,2799.0,4.5,3.74,,13.47,0.929,71.8,,27.5,5.0,,,,,,,,,,,,0,0,0,0,0,0,0,0,0,0,0,0,0,0,0,0,,,,,,0.0,,,,,,,
198,84810,1745675872815,,,,,,,,,,,,,,,,,,,,,,,,,,,,,,,,,,0,0,0,0,0,0,0,0,0,0,0,0,0,0,0,0,,,,,,,,,,,,,
199,84830,1745675872835,0.0,103.0,,-0.08,-0.1,1.08,-7.0,-2.0,1.0,1.08,1.08,100.0,2799.0,4.5,3.74,,13.45,0.918,71.8,,26.8,5.0,8.0,7.0,9.0,9.0,0.0,226.0,0.0,0.0,2.26,,,0,0,0,0,0,0,0,0,0,0,0,0,0,0,0,0,,0.0,,,,0.0,38.990871,-76.939827,13.59,35.1,24.0,2.0,1.1
200,84850,1745675872855,,,,,,,,,,,,,,,,,,,,,,,,,,,,,,,,,,0,0,0,0,0,0,0,0,0,0,0,0,0,0,0,0,,,,,,,,,,,,,
201,84870,1745675872875,0.0,102.0,,-0.08,-0.06,1.04,-8.0,-2.0,1.0,1.04,1.08,96.0,2798.0,4.4,3.73,,13.51,0.91,71.8,,26.8,5.0,,,,,,,,,,,,0,0,0,0,0,0,0,0,0,0,0,0,0,0,0,0,,,,,,0.0,,,,,,,
202,84890,1745675872895,,,,,,,,,,,,,,,,,,,,,,,,,,,,,,,,,,0,0,0,0,0,0,0,0,0,0,0,0,0,0,0,0,,,,,,,,,,,,,
203,84910,1745675872915,0.0,102.0,,-0.07,-0.04,1.0,-9.0,-2.0,2.0,1.0,1.08,92.0,2879.0,4.5,3.76,,13.43,0.901,71.8,,26.8,5.0,,,,,,,,,,,,0,0,0,0,0,0,0,0,0,0,0,0,0,0,0,0,,,,,,0.0,,,,,,,
204,84930,1745675872935,,,,,,,,,,,,,,,,,,,,,,,8.0,9.0,8.0,9.0,0.0,14.0,0.0,0.0,2.26,,,0,0,0,0,0,0,0,0,0,0,0,0,0,0,0,0,,0.0,,,,,38.990875,-76.939819,13.72,35.1,24.0,2.0,1.1
205,84950,1745675872955,0.0,102.0,,-0.06,-0.01,0.95,-10.0,-1.0,2.0,0.95,1.08,88.0,2937.0,4.3,3.76,,13.44,0.894,71.8,,28.2,5.0,,,,,,,,,,,,0,0,0,0,0,0,0,0,0,0,0,0,0,0,0,0,,,,,,0.0,,,,,,,
206,84970,1745675872975,,,,,,,,,,,,,,,,,,,,,,,,,,,,,,,,,,0,0,0,0,0,0,0,0,0,0,0,0,0,0,0,0,,,,,,,,,,,,,
207,84990,1745675872995,0.0,101.0,,-0.08,-0.02,0.93,-10.0,-1.0,1.0,0.93,1.08,86.0,2935.0,4.0,3.77,,13.44,0.894,71.8,,28.2,5.0,,,,,,,,,,,,0,0,0,0,0,0,0,0,0,0,0,0,0,0,0,0,,,,,,0.0,,,,,,,
208,85010,1745675873007,,,,,,,,,,,,,,,,,,,,,,,,,,,,,,,,,,0,0,0,0,0,0,0,0,0,0,0,0,0,0,0,0,,,,,,,,,,,,,
209,85030,1745675873027,0.0,102.0,,-0.1,-0.07,0.95,-10.0,-1.0,1.0,0.96,1.08,89.0,2935.0,4.0,3.77,,13.43,0.891,71.8,,28.1,5.0,8.0,10.0,8.0,9.0,0.0,234.0,0.0,0.0,2.27,,,0,0,0,0,0,0,0,0,0,0,0,0,0,0,0,0,,1.0,,,,0.0,38.990879,-76.939819,13.49,35.1,24.0,2.0,1.1
210,85050,1745675873047,,,,,,,,,,,,,,,,,,,,,,,,,,,,,,,,,,0,0,0,0,0,0,0,0,0,0,0,0,0,0,0,0,,,,,,,,,,,,,
211,85070,1745675873067,0.0,102.0,,-0.08,-0.08,1.02,-11.0,-1.0,1.0,1.02,1.08,95.0,2896.0,4.0,3.76,,13.4,0.898,71.8,,28.1,5.0,,,,,,,,,,,,0,0,0,0,0,0,0,0,0,0,0,0,0,0,0,0,,,,,,0.0,,,,,,,
212,85090,1745675873087,,,,,,,,,,,,,,,,,,,,,,,,,,,,,,,,,,0,0,0,0,0,0,0,0,0,0,0,0,0,0,0,0,,,,,,,,,,,,,
213,85110,1745675873115,0.0,102.0,,-0.08,-0.11,1.08,-12.0,0.0,1.0,1.08,1.08,100.0,2892.0,4.0,3.74,,13.44,0.897,71.8,,28.1,5.0,,,,,,,,,,,,0,0,0,0,0,0,0,0,0,0,0,0,0,0,0,0,,,,,,0.0,,,,,,,
214,85130,1745675873135,,,,,,,,,,,,,,,,,,,,,,,9.0,9.0,9.0,9.0,0.0,157.0,0.0,0.0,2.26,,,0,0,0,0,0,0,0,0,0,0,0,0,0,0,0,0,,1.0,,,,,38.990879,-76.939812,13.67,35.1,24.0,2.0,1.1
215,85150,1745675873155,0.0,102.0,,-0.09,-0.12,1.1,-12.0,0.0,1.0,1.11,1.11,100.0,2893.0,4.0,3.77,,13.44,0.891,71.8,,27.8,5.0,,,,,,,,,,,,0,0,0,0,0,0,0,0,0,0,0,0,0,0,0,0,,,,,,0.0,,,,,,,
216,85170,1745675873175,,,,,,,,,,,,,,,,,,,,,,,,,,,,,,,,,,0,0,0,0,0,0,0,0,0,0,0,0,0,0,0,0,,,,,,,,,,,,,
217,85190,1745675873195,0.0,100.0,,-0.09,-0.12,1.09,-13.0,0.0,1.0,1.1,1.11,99.0,2966.0,3.9,3.76,,13.44,0.891,71.8,,27.8,5.0,,,,,,,,,,,,0,0,0,0,0,0,0,0,0,0,0,0,0,0,0,0,,,,,,0.0,,,,,,,
218,85210,1745675873211,,,,,,,,,,,,,,,,,,,,,,,,,,,,,,,,,,0,0,0,0,0,0,0,0,0,0,0,0,0,0,0,0,,,,,,,,,,,,,
219,85230,1745675873231,0.0,101.0,,-0.09,-0.08,1.06,-14.0,0.0,2.0,1.07,1.11,96.0,2966.0,3.9,3.76,,13.44,0.883,71.8,,27.6,5.0,9.0,37.0,8.0,9.0,0.0,7.0,0.0,0.0,2.26,,,0,0,0,0,0,0,0,0,0,0,0,0,0,0,0,0,,0.0,,,,0.0,38.990879,-76.939812,13.53,35.1,24.0,2.0,1.1
220,85250,1745675873251,,,,,,,,,,,,,,,,,,,,,,,,,,,,,,,,,,0,0,0,0,0,0,0,0,0,0,0,0,0,0,0,0,,,,,,,,,,,,,
221,85270,1745675873271,0.0,101.0,,-0.07,-0.03,1.02,-14.0,0.0,2.0,1.02,1.11,92.0,2911.0,4.1,3.75,,13.43,0.878,71.8,,27.6,5.0,,,,,,,,,,,,0,0,0,0,0,0,0,0,0,0,0,0,0,0,0,0,,,,,,0.0,,,,,,,
222,85290,1745675873291,,,,,,,,,,,,,,,,,,,,,,,,,,,,,,,,,,0,0,0,0,0,0,0,0,0,0,0,0,0,0,0,0,,,,,,,,,,,,,
223,85310,1745675873315,0.0,101.0,,-0.06,-0.01,0.96,-14.0,0.0,1.0,0.96,1.11,87.0,2931.0,4.3,3.76,,13.44,0.881,71.8,,27.6,5.0,,,,,,,,,,,,0,0,0,0,0,0,0,0,0,0,0,0,0,0,0,0,,,,,,0.0,,,,,,,
224,85330,1745675873335,,,,,,,,,,,,,,,,,,,,,,,9.0,9.0,8.0,9.0,0.0,185.0,0.0,0.0,2.26,,,0,0,0,0,0,0,0,0,0,0,0,0,0,0,0,0,,0.0,,,,,38.990883,-76.939812,13.77,35.1,24.0,2.0,1.1
225,85350,1745675873355,0.0,101.0,,-0.04,0.04,0.93,-14.0,0.0,2.0,0.93,1.11,84.0,2991.0,4.4,3.77,,13.41,0.881,71.8,,28.2,5.0,,,,,,,,,,,,0,0,0,0,0,0,0,0,0,0,0,0,0,0,0,0,,,,,,0.0,,,,,,,
226,85370,1745675873375,,,,,,,,,,,,,,,,,,,,,,,,,,,,,,,,,,0,0,0,0,0,0,0,0,0,0,0,0,0,0,0,0,,,,,,,,,,,,,
227,85390,1745675873395,0.0,102.0,,-0.03,0.07,0.89,-14.0,-1.0,2.0,0.89,1.11,80.0,2961.0,4.3,3.76,,13.41,0.881,71.8,,28.2,5.0,,,,,,,,,,,,0,0,0,0,0,0,0,0,0,0,0,0,0,0,0,0,,,,,,0.0,,,,,,,
228,85410,1745675873415,,,,,,,,,,,,,,,,,,,,,,,,,,,,,,,,,,0,0,0,0,0,0,0,0,0,0,0,0,0,0,0,0,,,,,,,,,,,,,
229,85430,1745675873435,0.0,101.0,13.99,-0.03,0.07,0.85,-14.0,-1.0,1.0,0.85,1.11,77.0,2961.0,4.3,3.76,15.0,13.37,0.876,71.8,74.0,27.6,5.0,9.0,54.0,9.0,10.0,0.0,56.0,0.0,0.0,2.26,0.0,0.0,0,0,0,0,0,0,0,0,0,0,0,0,0,0,0,0,0.0,0.0,0.0,0.0,0.0,0.0,38.990887,-76.939812,13.74,35.1,24.0,2.0,1.1
230,85450,1745675873455,,,,,,,,,,,,,,,,,,,,,,,,,,,,,,,,,,0,0,0,0,0,0,0,0,0,0,0,0,0,0,0,0,,,,,,,,,,,,,
231,85470,1745675873475,0.0,101.0,,-0.04,0.06,0.86,-13.0,-1.0,1.0,0.87,1.11,78.0,2895.0,4.3,3.77,,13.41,0.874,71.8,,27.6,5.0,,,,,,,,,,,,0,0,0,0,0,0,0,0,0,0,0,0,0,0,0,0,,,,,,0.0,,,,,,,
232,85490,1745675873495,,,,,,,,,,,,,,,,,,,,,,,,,,,,,,,,,,0,0,0,0,0,0,0,0,0,0,0,0,0,0,0,0,,,,,,,,,,,,,
233,85510,1745675873514,0.0,101.0,,-0.06,0.04,0.88,-13.0,0.0,0.0,0.88,1.11,80.0,2937.0,4.1,3.76,,13.39,0.877,71.8,,27.6,5.0,,,,,,,,,,,,0,0,0,0,0,0,0,0,0,0,0,0,0,0,0,0,,,,,,0.0,,,,,,,
234,85530,1745675873534,,,,,,,,,,,,,,,,,,,,,,,9.0,869.0,8.0,9.0,0.0,147.0,0.0,0.0,2.27,,,0,0,0,0,0,0,0,0,0,0,0,0,0,0,0,0,,0.0,,,,,38.99089,-76.939812,13.97,35.1,24.0,2.0,1.1
235,85550,1745675873554,0.0,101.0,,-0.07,0.03,0.87,-13.0,0.0,0.0,0.88,1.11,79.0,3062.0,4.1,3.77,,13.36,0.877,71.8,,28.4,5.0,,,,,,,,,,,,0,0,0,0,0,0,0,0,0,0,0,0,0,0,0,0,,,,,,0.0,,,,,,,
236,85570,1745675873574,,,,,,,,,,,,,,,,,,,,,,,,,,,,,,,,,,0,0,0,0,0,0,0,0,0,0,0,0,0,0,0,0,,,,,,,,,,,,,
237,85590,1745675873594,0.0,101.0,,-0.06,0.05,0.83,-12.0,0.0,0.0,0.84,1.11,75.0,3020.0,4.1,3.76,,13.36,0.877,71.8,,28.4,5.0,,,,,,,,,,,,0,0,0,0,0,0,0,0,0,0,0,0,0,0,0,0,,,,,,0.0,,,,,,,
238,85610,1745675873614,,,,,,,,,,,,,,,,,,,,,,,,,,,,,,,,,,0,0,0,0,0,0,0,0,0,0,0,0,0,0,0,0,,,,,,,,,,,,,
239,85630,1745675873634,0.0,102.0,,-0.08,0.05,0.81,-11.0,0.0,0.0,0.81,1.11,73.0,3020.0,4.1,3.76,,13.36,0.866,71.8,,27.7,5.0,9.0,9.0,9.0,9.0,0.0,55.0,0.0,0.0,2.27,,,0,0,0,0,0,0,0,0,0,0,0,0,0,0,0,0,,0.0,,,,0.0,38.990894,-76.939804,13.86,35.1,24.0,2.0,1.1
240,85650,1745675873654,,,,,,,,,,,,,,,,,,,,,,,,,,,,,,,,,,0,0,0,0,0,0,0,0,0,0,0,0,0,0,0,0,,,,,,,,,,,,,
241,85670,1745675873674,0.0,101.0,,-0.09,0.05,0.81,-11.0,0.0,-1.0,0.82,1.11,74.0,2935.0,4.0,3.76,,13.39,0.866,71.8,,27.7,5.0,,,,,,,,,,,,0,0,0,0,0,0,0,0,0,0,0,0,0,0,0,0,,,,,,0.0,,,,,,,
242,85690,1745675873694,,,,,,,,,,,,,,,,,,,,,,,,,,,,,,,,,,0,0,0,0,0,0,0,0,0,0,0,0,0,0,0,0,,,,,,,,,,,,,
243,85710,1745675873714,0.0,101.0,,-0.1,0.03,0.83,-10.0,1.0,-1.0,0.84,1.11,76.0,2973.0,4.0,3.75,,13.39,0.87,71.8,,27.7,5.0,,,,,,,,,,,,0,0,0,0,0,0,0,0,0,0,0,0,0,0,0,0,,,,,,0.0,,,,,,,
244,85730,1745675873734,,,,,,,,,,,,,,,,,,,,,,,9.0,13.0,9.0,9.0,0.0,55.0,0.0,0.0,2.26,,,0,0,0,0,0,0,0,0,0,0,0,0,0,0,0,0,,0.0,,,,,38.990894,-76.939804,14.24,35.1,24.0,2.0,1.1
245,85750,1745675873754,0.0,101.0,,-0.11,-0.0,0.81,-10.0,1.0,-1.0,0.81,1.11,73.0,3058.0,4.1,3.76,,13.36,0.864,71.8,,27.5,5.0,,,,,,,,,,,,0,0,0,0,0,0,0,0,0,0,0,0,0,0,0,0,,,,,,0.0,,,,,,,
246,85770,1745675873774,,,,,,,,,,,,,,,,,,,,,,,,,,,,,,,,,,0,0,0,0,0,0,0,0,0,0,0,0,0,0,0,0,,,,,,,,,,,,,
247,85790,1745675873794,0.0,101.0,,-0.1,0.02,0.77,-9.0,1.0,-1.0,0.77,1.11,70.0,3064.0,4.3,3.76,,13.36,0.864,71.8,,27.5,5.0,,,,,,,,,,,,0,0,0,0,0,0,0,0,0,0,0,0,0,0,0,0,,,,,,0.0,,,,,,,
248,85810,1745675873814,,,,,,,,,,,,,,,,,,,,,,,,,,,,,,,,,,0,0,0,0,0,0,0,0,0,0,0,0,0,0,0,0,,,,,,,,,,,,,
249,85830,1745675873834,0.0,102.0,,-0.07,0.05,0.71,-10.0,0.0,-1.0,0.72,1.11,65.0,3064.0,4.3,3.76,,13.31,0.855,71.8,,28.3,5.0,9.0,37.0,9.0,10.0,0.0,158.0,0.0,0.0,2.26,,,0,0,0,0,0,0,0,0,0,0,0,0,0,0,0,0,,0.0,,,,0.0,38.990898,-76.939796,13.79,35.1,24.0,2.0,1.1
250,85850,1745675873854,,,,,,,,,,,,,,,,,,,,,,,,,,,,,,,,,,0,0,0,0,0,0,0,0,0,0,0,0,0,0,0,0,,,,,,,,,,,,,
251,85870,1745675873874,0.0,100.0,,-0.03,0.07,0.68,-11.0,0.0,-1.0,0.68,1.11,61.0,3094.0,4.4,3.75,,13.35,0.853,71.8,,28.3,5.0,,,,,,,,,,,,0,0,0,0,0,0,0,0,0,0,0,0,0,0,0,0,,,,,,0.0,,,,,,,
252,85890,1745675873894,,,,,,,,,,,,,,,,,,,,,,,,,,,,,,,,,,0,0,0,0,0,0,0,0,0,0,0,0,0,0,0,0,,,,,,,,,,,,,
253,85910,1745675873914,0.0,101.0,,-0.02,0.08,0.69,-12.0,0.0,0.0,0.69,1.11,63.0,3056.0,4.5,3.77,,13.31,0.86,71.8,,28.3,5.0,,,,,,,,,,,,0,0,0,0,0,0,0,0,0,0,0,0,0,0,0,0,,,,,,0.0,,,,,,,
254,85930,1745675873934,,,,,,,,,,,,,,,,,,,,,,,9.0,15.0,9.0,9.0,0.0,40.0,0.0,0.0,2.26,,,0,0,0,0,0,0,0,0,0,0,0,0,0,0,0,0,,0.0,,,,,38.990898,-76.939789,14.31,35.1,24.0,2.0,1.1
255,85950,1745675873954,0.0,101.0,,-0.02,0.1,0.7,-13.0,0.0,0.0,0.71,1.11,64.0,2996.0,4.4,3.76,,13.36,0.865,71.8,,27.3,5.0,,,,,,,,,,,,0,0,0,0,0,0,0,0,0,0,0,0,0,0,0,0,,,,,,0.0,,,,,,,
256,85970,1745675873974,,,,,,,,,,,,,,,,,,,,,,,,,,,,,,,,,,0,0,0,0,0,0,0,0,0,0,0,0,0,0,0,0,,,,,,,,,,,,,
257,85990,1745675873994,0.0,101.0,,-0.04,0.11,0.74,-13.0,-1.0,1.0,0.75,1.11,67.0,3013.0,4.2,3.76,,13.36,0.865,71.8,,27.3,5.0,,,,,,,,,,,,0,0,0,0,0,0,0,0,0,0,0,0,0,0,0,0,,,,,,0.0,,,,,,,
258,86010,1745675874008,,,,,,,,,,,,,,,,,,,,,,,,,,,,,,,,,,0,0,0,0,0,0,0,0,0,0,0,0,0,0,0,0,,,,,,,,,,,,,
259,86030,1745675874028,0.0,101.0,,-0.05,0.13,0.78,-14.0,-1.0,1.0,0.8,1.11,72.0,3013.0,4.2,3.76,,13.39,0.868,71.8,,27.3,5.0,9.0,33.0,9.0,9.0,0.0,13.0,0.0,0.0,2.27,,,0,0,0,0,0,0,0,0,0,0,0,0,0,0,0,0,,0.0,,,,0.0,38.990898,-76.939789,14.43,35.1,24.0,2.0,1.1
260,86050,1745675874048,,,,,,,,,,,,,,,,,,,,,,,,,,,,,,,,,,0,0,0,0,0,0,0,0,0,0,0,0,0,0,0,0,,,,,,,,,,,,,
261,86070,1745675874068,0.0,102.0,,-0.07,0.1,0.89,-14.0,-1.0,2.0,0.9,1.11,81.0,3055.0,4.0,3.76,,13.32,0.869,71.8,,27.3,5.0,,,,,,,,,,,,0,0,0,0,0,0,0,0,0,0,0,0,0,0,0,0,,,,,,0.0,,,,,,,
262,86090,1745675874088,,,,,,,,,,,,,,,,,,,,,,,,,,,,,,,,,,0,0,0,0,0,0,0,0,0,0,0,0,0,0,0,0,,,,,,,,,,,,,
263,86110,1745675874110,0.0,101.0,,-0.09,0.01,1.0,-14.0,-1.0,2.0,1.0,1.11,91.0,3138.0,4.0,3.76,,13.31,0.866,71.8,,27.3,5.0,,,,,,,,,,,,0,0,0,0,0,0,0,0,0,0,0,0,0,0,0,0,,,,,,0.0,,,,,,,
264,86130,1745675874130,,,,,,,,,,,,,,,,,,,,,,,9.0,31.0,9.0,10.0,0.0,70.0,0.0,0.0,2.27,,,0,0,0,0,0,0,0,0,0,0,0,0,0,0,0,0,,0.0,,,,,38.990902,-76.939781,14.55,35.0,24.0,2.0,1.1
265,86150,1745675874150,0.0,101.0,,-0.13,-0.06,1.01,-14.0,-1.0,1.0,1.02,1.11,92.0,3102.0,4.0,3.76,,13.31,0.861,71.8,,28.3,5.0,,,,,,,,,,,,0,0,0,0,0,0,0,0,0,0,0,0,0,0,0,0,,,,,,0.0,,,,,,,
266,86170,1745675874170,,,,,,,,,,,,,,,,,,,,,,,,,,,,,,,,,,0,0,0,0,0,0,0,0,0,0,0,0,0,0,0,0,,,,,,,,,,,,,
267,86190,1745675874190,0.0,101.0,,-0.14,-0.06,0.98,-13.0,-1.0,1.0,0.99,1.11,90.0,3060.0,4.0,3.74,,13.31,0.861,71.8,,28.3,5.0,,,,,,,,,,,,0,0,0,0,0,0,0,0,0,0,0,0,0,0,0,0,,,,,,0.0,,,,,,,
268,86210,1745675874214,,,,,,,,,,,,,,,,,,,,,,,,,,,,,,,,,,0,0,0,0,0,0,0,0,0,0,0,0,0,0,0,0,,,,,,,,,,,,,
269,86230,1745675874234,0.0,101.0,,-0.14,-0.06,0.92,-12.0,-1.0,0.0,0.93,1.11,84.0,3060.0,4.0,3.74,,13.23,0.863,71.8,,27.5,5.0,9.0,132.0,9.0,10.0,0.0,84.0,0.0,0.0,2.26,,,0,0,0,0,0,0,0,0,0,0,0,0,0,0,0,0,,0.0,,,,0.0,38.990906,-76.939781,14.77,35.0,24.0,2.0,1.1
270,86250,1745675874254,,,,,,,,,,,,,,,,,,,,,,,,,,,,,,,,,,0,0,0,0,0,0,0,0,0,0,0,0,0,0,0,0,,,,,,,,,,,,,
271,86270,1745675874274,0.0,101.0,,-0.1,0.03,0.82,-12.0,-1.0,0.0,0.83,1.11,75.0,3085.0,4.0,3.74,,13.27,0.865,71.8,,27.5,5.0,,,,,,,,,,,,0,0,0,0,0,0,0,0,0,0,0,0,0,0,0,0,,,,,,0.0,,,,,,,
272,86290,1745675874294,,,,,,,,,,,,,,,,,,,,,,,,,,,,,,,,,,0,0,0,0,0,0,0,0,0,0,0,0,0,0,0,0,,,,,,,,,,,,,
273,86310,1745675874314,0.0,100.0,,-0.08,0.1,0.75,-12.0,-1.0,0.0,0.77,1.11,69.0,3009.0,4.1,3.74,,13.28,0.87,71.8,,27.5,5.0,,,,,,,,,,,,0,0,0,0,0,0,0,0,0,0,0,0,0,0,0,0,,,,,,0.0,,,,,,,
274,86330,1745675874334,,,,,,,,,,,,,,,,,,,,,,,9.0,19.0,9.0,10.0,0.0,84.0,0.0,0.0,2.26,,,0,0,0,0,0,0,0,0,0,0,0,0,0,0,0,0,,0.0,,,,,38.99091,-76.939774,14.78,35.0,24.0,2.0,1.1
275,86350,1745675874354,0.0,101.0,,-0.06,0.11,0.73,-13.0,-1.0,1.0,0.74,1.11,67.0,3038.0,4.3,3.76,,13.27,0.889,71.8,,27.5,5.0,,,,,,,,,,,,0,0,0,0,0,0,0,0,0,0,0,0,0,0,0,0,,,,,,0.0,,,,,,,
276,86370,1745675874374,,,,,,,,,,,,,,,,,,,,,,,,,,,,,,,,,,0,0,0,0,0,0,0,0,0,0,0,0,0,0,0,0,,,,,,,,,,,,,
277,86390,1745675874394,0.0,102.0,,-0.04,0.11,0.71,-13.0,-1.0,1.0,0.72,1.11,65.0,2979.0,4.2,3.75,,13.27,0.889,71.8,,27.5,5.0,,,,,,,,,,,,0,0,0,0,0,0,0,0,0,0,0,0,0,0,0,0,,,,,,0.0,,,,,,,
278,86410,1745675874413,,,,,,,,,,,,,,,,,,,,,,,,,,,,,,,,,,0,0,0,0,0,0,0,0,0,0,0,0,0,0,0,0,,,,,,,,,,,,,
279,86430,1745675874433,0.0,101.0,14.1,-0.04,0.12,0.7,-13.0,-1.0,1.0,0.71,1.11,64.0,2979.0,4.2,3.75,15.0,13.31,0.933,71.8,74.0,26.4,5.0,9.0,7.0,9.0,10.0,0.0,188.0,0.0,0.0,2.26,0.0,0.0,0,0,0,0,0,0,0,0,0,0,0,0,0,0,0,0,0.0,0.0,0.0,0.0,0.0,0.0,38.99091,-76.939774,14.56,35.0,24.0,2.0,1.1
280,86450,1745675874453,,,,,,,,,,,,,,,,,,,,,,,,,,,,,,,,,,0,0,0,0,0,0,0,0,0,0,0,0,0,0,0,0,,,,,,,,,,,,,
281,86470,1745675874473,0.0,101.0,,-0.05,0.11,0.73,-13.0,-1.0,1.0,0.74,1.11,66.0,2907.0,4.2,3.75,,13.37,0.98,71.8,,26.4,5.0,,,,,,,,,,,,0,0,0,0,0,0,0,0,0,0,0,0,0,0,0,0,,,,,,0.0,,,,,,,
282,86490,1745675874493,,,,,,,,,,,,,,,,,,,,,,,,,,,,,,,,,,0,0,0,0,0,0,0,0,0,0,0,0,0,0,0,0,,,,,,,,,,,,,
283,86510,1745675874513,0.0,101.0,,-0.08,0.05,0.8,-12.0,-1.0,1.0,0.8,1.11,72.0,2847.0,4.3,3.75,,13.31,0.997,71.8,,26.4,5.0,,,,,,,,,,,,0,0,0,0,0,0,0,0,0,0,0,0,0,0,0,0,,,,,,0.0,,,,,,,
284,86530,1745675874533,,,,,,,,,,,,,,,,,,,,,,,9.0,13.0,9.0,9.0,0.0,233.0,0.0,0.0,2.27,,,0,0,0,0,0,0,0,0,0,0,0,0,0,0,0,0,,0.0,,,,,38.990913,-76.939774,14.85,35.0,24.0,2.0,1.1
285,86550,1745675874553,0.0,101.0,,-0.1,-0.03,0.88,-12.0,0.0,1.0,0.89,1.11,80.0,2916.0,4.2,3.75,,13.36,0.999,71.8,,26.5,5.0,,,,,,,,,,,,0,0,0,0,0,0,0,0,0,0,0,0,0,0,0,0,,,,,,0.0,,,,,,,
286,86570,1745675874573,,,,,,,,,,,,,,,,,,,,,,,,,,,,,,,,,,0,0,0,0,0,0,0,0,0,0,0,0,0,0,0,0,,,,,,,,,,,,,
287,86590,1745675874593,0.0,101.0,,-0.12,-0.12,0.96,-12.0,0.0,1.0,0.98,1.11,88.0,3031.0,4.0,3.77,,13.36,0.999,71.8,,26.5,5.0,,,,,,,,,,,,0,0,0,0,0,0,0,0,0,0,0,0,0,0,0,0,,,,,,0.0,,,,,,,
288,86610,1745675874613,,,,,,,,,,,,,,,,,,,,,,,,,,,,,,,,,,0,0,0,0,0,0,0,0,0,0,0,0,0,0,0,0,,,,,,,,,,,,,
289,86630,1745675874633,0.0,101.0,,-0.15,-0.24,1.02,-12.0,0.0,0.0,1.05,1.11,95.0,3031.0,4.0,3.77,,13.27,0.997,71.8,,27.7,5.0,9.0,13.0,9.0,9.0,0.0,21.0,0.0,0.0,2.27,,,0,0,0,0,0,0,0,0,0,0,0,0,0,0,0,0,,0.0,,,,0.0,38.990913,-76.939766,14.45,35.0,24.0,2.0,1.1
290,86650,1745675874653,,,,,,,,,,,,,,,,,,,,,,,,,,,,,,,,,,0,0,0,0,0,0,0,0,0,0,0,0,0,0,0,0,,,,,,,,,,,,,
291,86670,1745675874673,0.0,101.0,,-0.19,-0.28,1.02,-11.0,1.0,0.0,1.07,1.11,97.0,3068.0,4.0,3.77,,13.28,1.011,71.8,,27.7,5.0,,,,,,,,,,,,0,0,0,0,0,0,0,0,0,0,0,0,0,0,0,0,,,,,,0.0,,,,,,,
292,86690,1745675874693,,,,,,,,,,,,,,,,,,,,,,,,,,,,,,,,,,0,0,0,0,0,0,0,0,0,0,0,0,0,0,0,0,,,,,,,,,,,,,
293,86710,1745675874713,0.0,101.0,,-0.2,-0.21,0.94,-10.0,1.0,-1.0,0.99,1.11,89.0,3092.0,4.1,3.74,,13.24,1.031,71.8,,27.7,5.0,,,,,,,,,,,,0,0,0,0,0,0,0,0,0,0,0,0,0,0,0,0,,,,,,0.0,,,,,,,
294,86730,1745675874733,,,,,,,,,,,,,,,,,,,,,,,9.0,24.0,9.0,9.0,0.0,79.0,0.0,0.0,2.27,,,0,0,0,0,0,0,0,0,0,0,0,0,0,0,0,0,,0.0,,,,,38.990917,-76.939766,14.0,35.0,24.0,2.0,1.1
295,86750,1745675874753,0.0,100.0,,-0.17,-0.13,0.85,-11.0,1.0,0.0,0.88,1.11,79.0,3124.0,4.1,3.74,,13.19,1.039,71.8,,28.2,5.0,,,,,,,,,,,,0,0,0,0,0,0,0,0,0,0,0,0,0,0,0,0,,,,,,0.0,,,,,,,
296,86770,1745675874773,,,,,,,,,,,,,,,,,,,,,,,,,,,,,,,,,,0,0,0,0,0,0,0,0,0,0,0,0,0,0,0,0,,,,,,,,,,,,,
297,86790,1745675874793,0.0,101.0,,-0.14,-0.09,0.81,-11.0,1.0,0.0,0.83,1.11,75.0,3072.0,4.2,3.75,,13.19,1.039,71.8,,28.2,5.0,,,,,,,,,,,,0,0,0,0,0,0,0,0,0,0,0,0,0,0,0,0,,,,,,0.0,,,,,,,
298,86810,1745675874815,,,,,,,,,,,,,,,,,,,,,,,,,,,,,,,,,,0,0,0,0,0,0,0,0,0,0,0,0,0,0,0,0,,,,,,,,,,,,,
299,86830,1745675874835,0.0,101.0,,-0.12,-0.07,0.8,-12.0,1.0,0.0,0.81,1.11,73.0,3072.0,4.2,3.75,,13.25,1.03,71.8,,27.8,5.0,9.0,13.0,9.0,9.0,0.0,214.0,0.0,0.0,2.26,,,0,0,0,0,0,0,0,0,0,0,0,0,0,0,0,0,,0.0,,,,0.0,38.990917,-76.939758,13.97,35.0,24.0,2.0,1.1
300,86850,1745675874855,,,,,,,,,,,,,,,,,,,,,,,,,,,,,,,,,,0,0,0,0,0,0,0,0,0,0,0,0,0,0,0,0,,,,,,,,,,,,,
301,86870,1745675874875,0.0,101.0,,-0.12,-0.08,0.84,-12.0,1.0,1.0,0.85,1.11,77.0,3057.0,4.3,3.75,,13.24,1.026,71.8,,27.8,5.0,,,,,,,,,,,,0,0,0,0,0,0,0,0,0,0,0,0,0,0,0,0,,,,,,0.0,,,,,,,
302,86890,1745675874895,,,,,,,,,,,,,,,,,,,,,,,,,,,,,,,,,,0,0,0,0,0,0,0,0,0,0,0,0,0,0,0,0,,,,,,,,,,,,,
303,86910,1745675874915,0.0,101.0,,-0.12,-0.06,0.92,-13.0,1.0,1.0,0.93,1.11,84.0,3020.0,4.5,3.75,,13.28,1.032,71.8,,27.8,5.0,,,,,,,,,,,,0,0,0,0,0,0,0,0,0,0,0,0,0,0,0,0,,,,,,0.0,,,,,,,
304,86930,1745675874935,,,,,,,,,,,,,,,,,,,,,,,9.0,43.0,9.0,9.0,0.0,122.0,0.0,0.0,2.26,,,0,0,0,0,0,0,0,0,0,0,0,0,0,0,0,0,,0.0,,,,,38.990917,-76.939751,14.07,35.0,24.0,2.0,1.1
305,86950,1745675874955,0.0,101.0,,-0.11,-0.11,1.0,-13.0,1.0,1.0,1.01,1.11,91.0,3064.0,4.5,3.77,,13.21,1.022,71.8,,27.6,5.0,,,,,,,,,,,,0,0,0,0,0,0,0,0,0,0,0,0,0,0,0,0,,,,,,0.0,,,,,,,
306,86970,1745675874975,,,,,,,,,,,,,,,,,,,,,,,,,,,,,,,,,,0,0,0,0,0,0,0,0,0,0,0,0,0,0,0,0,,,,,,,,,,,,,
307,86990,1745675874995,0.0,101.0,,-0.1,-0.14,1.08,-14.0,1.0,2.0,1.09,1.11,98.0,3024.0,4.6,3.76,,13.21,1.022,71.8,,27.6,5.0,,,,,,,,,,,,0,0,0,0,0,0,0,0,0,0,0,0,0,0,0,0,,,,,,0.0,,,,,,,
308,87010,1745675875007,,,,,,,,,,,,,,,,,,,,,,,,,,,,,,,,,,0,0,0,0,0,0,0,0,0,0,0,0,0,0,0,0,,,,,,,,,,,,,
309,87030,1745675875027,0.0,101.0,,-0.09,-0.16,1.12,-14.0,1.0,2.0,1.14,1.14,100.0,3024.0,4.6,3.76,,13.29,1.014,71.8,,27.2,5.0,9.0,25.0,9.0,9.0,0.0,32.0,0.0,0.0,2.27,,,0,0,0,0,0,0,0,0,0,0,0,0,0,0,0,0,,1.0,,,,0.0,38.990917,-76.939751,13.87,35.0,23.0,2.0,1.3
310,87050,1745675875047,,,,,,,,,,,,,,,,,,,,,,,,,,,,,,,,,,0,0,0,0,0,0,0,0,0,0,0,0,0,0,0,0,,,,,,,,,,,,,
311,87070,1745675875067,0.0,101.0,,-0.09,-0.18,1.15,-14.0,1.0,2.0,1.16,1.16,100.0,2954.0,4.3,3.76,,13.37,1.014,71.8,,27.2,5.0,,,,,,,,,,,,0,0,0,0,0,0,0,0,0,0,0,0,0,0,0,0,,,,,,0.0,,,,,,,
312,87090,1745675875087,,,,,,,,,,,,,,,,,,,,,,,,,,,,,,,,,,0,0,0,0,0,0,0,0,0,0,0,0,0,0,0,0,,,,,,,,,,,,,
313,87110,1745675875115,0.0,100.0,,-0.1,-0.13,1.13,-14.0,0.0,2.0,1.15,1.16,99.0,2904.0,4.2,3.76,,13.4,1.02,71.8,,27.2,5.0,,,,,,,,,,,,0,0,0,0,0,0,0,0,0,0,0,0,0,0,0,0,,,,,,0.0,,,,,,,
314,87130,1745675875135,,,,,,,,,,,,,,,,,,,,,,,9.0,42.0,8.0,9.0,0.0,238.0,0.0,0.0,2.27,,,0,0,0,0,0,0,0,0,0,0,0,0,0,0,0,0,,1.0,,,,,38.990921,-76.939743,13.92,34.9,23.0,2.0,1.3
315,87150,1745675875155,0.0,101.0,,-0.11,-0.12,1.08,-14.0,1.0,1.0,1.09,1.16,94.0,2875.0,4.1,3.74,,13.4,1.018,71.8,,26.1,5.0,,,,,,,,,,,,0,0,0,0,0,0,0,0,0,0,0,0,0,0,0,0,,,,,,0.0,,,,,,,
316,87170,1745675875175,,,,,,,,,,,,,,,,,,,,,,,,,,,,,,,,,,0,0,0,0,0,0,0,0,0,0,0,0,0,0,0,0,,,,,,,,,,,,,
317,87190,1745675875195,0.0,100.0,,-0.11,-0.11,1.03,-13.0,1.0,1.0,1.04,1.16,90.0,2864.0,4.2,3.74,,13.4,1.018,71.8,,26.1,5.0,,,,,,,,,,,,0,0,0,0,0,0,0,0,0,0,0,0,0,0,0,0,,,,,,0.0,,,,,,,
318,87210,1745675875215,,,,,,,,,,,,,,,,,,,,,,,,,,,,,,,,,,0,0,0,0,0,0,0,0,0,0,0,0,0,0,0,0,,,,,,,,,,,,,
319,87230,1745675875235,0.0,100.0,,-0.13,-0.11,1.06,-13.0,1.0,1.0,1.07,1.16,92.0,2864.0,4.2,3.74,,13.39,1.016,71.8,,25.6,5.0,8.0,25.0,8.0,9.0,0.0,22.0,0.0,0.0,2.27,,,0,0,0,0,0,0,0,0,0,0,0,0,0,0,0,0,,0.0,,,,0.0,38.990921,-76.939743,13.7,34.9,23.0,2.0,1.3
320,87250,1745675875255,,,,,,,,,,,,,,,,,,,,,,,,,,,,,,,,,,0,0,0,0,0,0,0,0,0,0,0,0,0,0,0,0,,,,,,,,,,,,,
321,87270,1745675875275,0.0,101.0,,-0.12,-0.09,1.07,-13.0,1.0,1.0,1.08,1.16,93.0,2826.0,4.2,3.74,,13.41,1.02,71.8,,25.6,5.0,,,,,,,,,,,,0,0,0,0,0,0,0,0,0,0,0,0,0,0,0,0,,,,,,0.0,,,,,,,
322,87290,1745675875295,,,,,,,,,,,,,,,,,,,,,,,,,,,,,,,,,,0,0,0,0,0,0,0,0,0,0,0,0,0,0,0,0,,,,,,,,,,,,,
323,87310,1745675875315,0.0,101.0,,-0.12,-0.07,1.02,-13.0,1.0,1.0,1.03,1.03,100.0,2788.0,4.2,3.74,,13.43,1.015,71.8,,25.6,5.0,,,,,,,,,,,,0,0,0,0,0,0,0,0,0,0,0,0,0,0,0,0,,,,,,0.0,,,,,,,
324,87330,1745675875335,,,,,,,,,,,,,,,,,,,,,,,8.0,37.0,8.0,9.0,0.0,69.0,0.0,0.0,2.26,,,0,0,0,0,0,0,0,0,0,0,0,0,0,0,0,0,,0.0,,,,,38.990925,-76.939735,13.7,34.9,23.0,2.0,1.3
325,87350,1745675875355,0.0,101.0,,-0.14,-0.06,1.0,-13.0,1.0,0.0,1.01,1.03,99.0,2777.0,4.4,3.73,,13.48,1.021,71.8,,26.7,5.0,,,,,,,,,,,,0,0,0,0,0,0,0,0,0,0,0,0,0,0,0,0,,,,,,0.0,,,,,,,
326,87370,1745675875375,,,,,,,,,,,,,,,,,,,,,,,,,,,,,,,,,,0,0,0,0,0,0,0,0,0,0,0,0,0,0,0,0,,,,,,,,,,,,,
327,87390,1745675875395,0.0,101.0,,-0.13,-0.06,1.04,-13.0,1.0,1.0,1.05,1.05,100.0,2717.0,4.6,3.73,,13.48,1.021,71.8,,26.7,5.0,,,,,,,,,,,,0,0,0,0,0,0,0,0,0,0,0,0,0,0,0,0,,,,,,0.0,,,,,,,
328,87410,1745675875415,,,,,,,,,,,,,,,,,,,,,,,,,,,,,,,,,,0,0,0,0,0,0,0,0,0,0,0,0,0,0,0,0,,,,,,,,,,,,,
329,87430,1745675875435,0.0,101.0,14.11,-0.14,-0.03,1.03,-13.0,1.0,1.0,1.04,1.05,98.0,2717.0,4.6,3.73,15.0,13.48,1.028,71.8,75.0,26.6,5.0,8.0,19.0,8.0,9.0,0.0,66.0,0.0,0.0,2.26,0.0,0.0,0,0,0,0,0,0,0,0,0,0,0,0,0,0,0,0,0.0,0.0,0.0,0.0,0.0,0.0,38.990925,-76.939735,13.57,34.9,23.0,2.0,1.2
330,87450,1745675875455,,,,,,,,,,,,,,,,,,,,,,,,,,,,,,,,,,0,0,0,0,0,0,0,0,0,0,0,0,0,0,0,0,,,,,,,,,,,,,
331,87470,1745675875475,0.0,101.0,,-0.13,0.01,0.98,-12.0,1.0,1.0,0.99,1.05,94.0,2867.0,4.7,3.76,,13.44,1.03,71.8,,26.6,5.0,,,,,,,,,,,,0,0,0,0,0,0,0,0,0,0,0,0,0,0,0,0,,,,,,0.0,,,,,,,
332,87490,1745675875495,,,,,,,,,,,,,,,,,,,,,,,,,,,,,,,,,,0,0,0,0,0,0,0,0,0,0,0,0,0,0,0,0,,,,,,,,,,,,,
333,87510,1745675875514,0.0,100.0,,-0.12,0.04,0.93,-12.0,1.0,0.0,0.94,1.05,89.0,2905.0,4.9,3.76,,13.43,1.034,71.8,,26.6,5.0,,,,,,,,,,,,0,0,0,0,0,0,0,0,0,0,0,0,0,0,0,0,,,,,,0.0,,,,,,,
334,87530,1745675875534,,,,,,,,,,,,,,,,,,,,,,,8.0,9.0,8.0,9.0,0.0,31.0,0.0,0.0,2.26,,,0,0,0,0,0,0,0,0,0,0,0,0,0,0,0,0,,0.0,,,,,38.990929,-76.939735,13.57,34.9,23.0,2.0,1.3
335,87550,1745675875554,0.0,101.0,,-0.12,0.06,0.9,-11.0,1.0,0.0,0.92,1.05,87.0,2925.0,4.9,3.78,,13.4,1.031,71.8,,27.8,5.0,,,,,,,,,,,,0,0,0,0,0,0,0,0,0,0,0,0,0,0,0,0,,,,,,0.0,,,,,,,
336,87570,1745675875574,,,,,,,,,,,,,,,,,,,,,,,,,,,,,,,,,,0,0,0,0,0,0,0,0,0,0,0,0,0,0,0,0,,,,,,,,,,,,,
337,87590,1745675875594,0.0,101.0,,-0.13,0.07,0.93,-11.0,1.0,-1.0,0.94,1.05,89.0,2875.0,4.8,3.78,,13.4,1.031,71.8,,27.8,5.0,,,,,,,,,,,,0,0,0,0,0,0,0,0,0,0,0,0,0,0,0,0,,,,,,0.0,,,,,,,
338,87610,1745675875614,,,,,,,,,,,,,,,,,,,,,,,,,,,,,,,,,,0,0,0,0,0,0,0,0,0,0,0,0,0,0,0,0,,,,,,,,,,,,,
339,87630,1745675875634,0.0,100.0,,-0.14,0.02,0.98,-10.0,1.0,-1.0,0.99,1.05,94.0,2875.0,4.8,3.78,,13.37,1.034,71.8,,28.1,5.0,8.0,5.0,8.0,9.0,0.0,24.0,0.0,0.0,2.27,,,0,0,0,0,0,0,0,0,0,0,0,0,0,0,0,0,,1.0,,,,0.0,38.990929,-76.939728,13.04,34.9,23.0,2.0,1.3
340,87650,1745675875654,,,,,,,,,,,,,,,,,,,,,,,,,,,,,,,,,,0,0,0,0,0,0,0,0,0,0,0,0,0,0,0,0,,,,,,,,,,,,,
341,87670,1745675875674,0.0,101.0,,-0.13,-0.03,1.01,-11.0,1.0,-1.0,1.02,1.05,97.0,2895.0,4.6,3.78,,13.44,1.042,71.8,,28.1,5.0,,,,,,,,,,,,0,0,0,0,0,0,0,0,0,0,0,0,0,0,0,0,,,,,,0.0,,,,,,,
342,87690,1745675875694,,,,,,,,,,,,,,,,,,,,,,,,,,,,,,,,,,0,0,0,0,0,0,0,0,0,0,0,0,0,0,0,0,,,,,,,,,,,,,
343,87710,1745675875716,0.0,101.0,,-0.15,-0.01,1.0,-11.0,1.0,-1.0,1.01,1.05,96.0,2876.0,4.7,3.77,,13.37,1.062,71.8,,28.1,5.0,,,,,,,,,,,,0,0,0,0,0,0,0,0,0,0,0,0,0,0,0,0,,,,,,0.0,,,,,,,
344,87730,1745675875736,,,,,,,,,,,,,,,,,,,,,,,8.0,4.0,8.0,8.0,0.0,240.0,0.0,0.0,2.27,,,0,0,0,0,0,0,0,0,0,0,0,0,0,0,0,0,,1.0,,,,,38.990929,-76.93972,13.31,34.9,23.0,2.0,1.3
345,87750,1745675875756,0.0,101.0,,-0.14,0.0,0.97,-11.0,1.0,-1.0,0.98,1.05,93.0,2861.0,4.7,3.77,,13.4,1.072,71.8,,27.3,5.0,,,,,,,,,,,,0,0,0,0,0,0,0,0,0,0,0,0,0,0,0,0,,,,,,0.0,,,,,,,
346,87770,1745675875776,,,,,,,,,,,,,,,,,,,,,,,,,,,,,,,,,,0,0,0,0,0,0,0,0,0,0,0,0,0,0,0,0,,,,,,,,,,,,,
347,87790,1745675875796,0.0,100.0,,-0.14,0.01,0.96,-11.0,1.0,-1.0,0.97,1.05,92.0,2828.0,4.8,3.77,,13.4,1.072,71.8,,27.3,5.0,,,,,,,,,,,,0,0,0,0,0,0,0,0,0,0,0,0,0,0,0,0,,,,,,0.0,,,,,,,
348,87810,1745675875814,,,,,,,,,,,,,,,,,,,,,,,,,,,,,,,,,,0,0,0,0,0,0,0,0,0,0,0,0,0,0,0,0,,,,,,,,,,,,,
349,87830,1745675875834,0.0,100.0,,-0.15,-0.03,1.0,-10.0,1.0,-1.0,1.01,1.05,96.0,2828.0,4.8,3.77,,13.44,1.06,71.8,,27.4,5.0,8.0,9.0,8.0,8.0,0.0,27.0,0.0,0.0,2.26,,,0,0,0,0,0,0,0,0,0,0,0,0,0,0,0,0,,1.0,,,,0.0,38.990932,-76.93972,13.02,34.8,23.0,2.0,1.3
350,87850,1745675875854,,,,,,,,,,,,,,,,,,,,,,,,,,,,,,,,,,0,0,0,0,0,0,0,0,0,0,0,0,0,0,0,0,,,,,,,,,,,,,
351,87870,1745675875874,0.0,101.0,,-0.13,-0.07,1.05,-10.0,1.0,-1.0,1.06,1.06,100.0,2830.0,5.0,3.77,,13.44,1.052,71.8,,27.4,5.0,,,,,,,,,,,,0,0,0,0,0,0,0,0,0,0,0,0,0,0,0,0,,,,,,0.0,,,,,,,
352,87890,1745675875894,,,,,,,,,,,,,,,,,,,,,,,,,,,,,,,,,,0,0,0,0,0,0,0,0,0,0,0,0,0,0,0,0,,,,,,,,,,,,,
353,87910,1745675875914,0.0,100.0,,-0.13,-0.06,1.05,-11.0,1.0,-1.0,1.06,1.06,99.0,2840.0,5.1,3.76,,13.49,1.043,71.8,,27.4,5.0,,,,,,,,,,,,0,0,0,0,0,0,0,0,0,0,0,0,0,0,0,0,,,,,,0.0,,,,,,,
354,87930,1745675875934,,,,,,,,,,,,,,,,,,,,,,,8.0,8.0,8.0,9.0,0.0,244.0,0.0,0.0,2.26,,,0,0,0,0,0,0,0,0,0,0,0,0,0,0,0,0,,1.0,,,,,38.990932,-76.939712,12.96,34.8,23.0,2.0,1.3
355,87950,1745675875954,0.0,101.0,,-0.12,-0.07,1.03,-11.0,1.0,0.0,1.04,1.06,98.0,2801.0,5.3,3.77,,13.48,1.036,71.8,,26.8,5.0,,,,,,,,,,,,0,0,0,0,0,0,0,0,0,0,0,0,0,0,0,0,,,,,,0.0,,,,,,,
356,87970,1745675875974,,,,,,,,,,,,,,,,,,,,,,,,,,,,,,,,,,0,0,0,0,0,0,0,0,0,0,0,0,0,0,0,0,,,,,,,,,,,,,
357,87990,1745675875994,0.0,101.0,,-0.12,-0.09,1.06,-10.0,1.0,0.0,1.06,1.06,100.0,2754.0,5.3,3.75,,13.48,1.036,71.8,,26.8,5.0,,,,,,,,,,,,0,0,0,0,0,0,0,0,0,0,0,0,0,0,0,0,,,,,,0.0,,,,,,,
358,88010,1745675876008,,,,,,,,,,,,,,,,,,,,,,,,,,,,,,,,,,0,0,0,0,0,0,0,0,0,0,0,0,0,0,0,0,,,,,,,,,,,,,
359,88030,1745675876028,0.0,100.0,,-0.11,-0.09,1.04,-10.0,1.0,0.0,1.05,1.06,98.0,2754.0,5.3,3.75,,13.44,1.051,71.8,,26.0,5.0,8.0,9.0,8.0,8.0,0.0,241.0,0.0,0.0,2.26,,,0,0,0,0,0,0,0,0,0,0,0,0,0,0,0,0,,1.0,,,,0.0,38.990932,-76.939712,13.11,34.8,23.0,2.0,1.3
360,88050,1745675876048,,,,,,,,,,,,,,,,,,,,,,,,,,,,,,,,,,0,0,0,0,0,0,0,0,0,0,0,0,0,0,0,0,,,,,,,,,,,,,
361,88070,1745675876068,0.0,100.0,,-0.11,-0.06,1.02,-10.0,1.0,0.0,1.03,1.06,96.0,2760.0,5.3,3.77,,13.49,1.051,71.8,,26.0,5.0,,,,,,,,,,,,0,0,0,0,0,0,0,0,0,0,0,0,0,0,0,0,,,,,,0.0,,,,,,,
362,88090,1745675876088,,,,,,,,,,,,,,,,,,,,,,,,,,,,,,,,,,0,0,0,0,0,0,0,0,0,0,0,0,0,0,0,0,,,,,,,,,,,,,
363,88110,1745675876112,0.0,100.0,,-0.1,-0.11,1.06,-9.0,1.0,0.0,1.07,1.07,100.0,2790.0,5.1,3.75,,13.49,1.042,71.8,,26.0,5.0,,,,,,,,,,,,0,0,0,0,0,0,0,0,0,0,0,0,0,0,0,0,,,,,,0.0,,,,,,,
364,88130,1745675876132,,,,,,,,,,,,,,,,,,,,,,,8.0,9.0,8.0,8.0,0.0,73.0,0.0,0.0,2.27,,,0,0,0,0,0,0,0,0,0,0,0,0,0,0,0,0,,1.0,,,,,38.990932,-76.939705,12.82,34.8,23.0,2.0,1.3
365,88150,1745675876152,0.0,100.0,,-0.11,-0.06,1.03,-10.0,1.0,0.0,1.04,1.07,96.0,2744.0,5.0,3.77,,13.56,1.035,71.8,,26.5,5.0,,,,,,,,,,,,0,0,0,0,0,0,0,0,0,0,0,0,0,0,0,0,,,,,,0.0,,,,,,,
366,88170,1745675876172,,,,,,,,,,,,,,,,,,,,,,,,,,,,,,,,,,0,0,0,0,0,0,0,0,0,0,0,0,0,0,0,0,,,,,,,,,,,,,
367,88190,1745675876192,0.0,100.0,,-0.13,-0.06,0.99,-9.0,1.0,-1.0,1.0,1.07,93.0,2727.0,5.0,3.77,,13.56,1.035,71.8,,26.5,5.0,,,,,,,,,,,,0,0,0,0,0,0,0,0,0,0,0,0,0,0,0,0,,,,,,0.0,,,,,,,
368,88210,1745675876212,,,,,,,,,,,,,,,,,,,,,,,,,,,,,,,,,,0,0,0,0,0,0,0,0,0,0,0,0,0,0,0,0,,,,,,,,,,,,,
369,88230,1745675876232,0.0,101.0,,-0.12,-0.09,1.02,-9.0,1.0,-1.0,1.03,1.07,96.0,2727.0,5.0,3.77,,13.59,1.032,71.8,,26.2,5.0,8.0,23.0,8.0,8.0,0.0,8.0,0.0,0.0,2.27,,,0,0,0,0,0,0,0,0,0,0,0,0,0,0,0,0,,0.0,,,,0.0,38.990936,-76.939697,13.01,34.8,23.0,2.0,1.3
370,88250,1745675876252,,,,,,,,,,,,,,,,,,,,,,,,,,,,,,,,,,0,0,0,0,0,0,0,0,0,0,0,0,0,0,0,0,,,,,,,,,,,,,
371,88270,1745675876272,0.0,101.0,,-0.13,-0.08,1.02,-9.0,1.0,-1.0,1.03,1.07,96.0,2733.0,5.0,3.77,,13.55,1.042,71.8,,26.2,5.0,,,,,,,,,,,,0,0,0,0,0,0,0,0,0,0,0,0,0,0,0,0,,,,,,0.0,,,,,,,
372,88290,1745675876292,,,,,,,,,,,,,,,,,,,,,,,,,,,,,,,,,,0,0,0,0,0,0,0,0,0,0,0,0,0,0,0,0,,,,,,,,,,,,,
373,88310,1745675876314,0.0,100.0,,-0.12,-0.05,1.0,-9.0,0.0,-1.0,1.0,1.07,94.0,2838.0,5.0,3.76,,13.51,1.048,71.8,,26.2,5.0,,,,,,,,,,,,0,0,0,0,0,0,0,0,0,0,0,0,0,0,0,0,,,,,,0.0,,,,,,,
374,88330,1745675876334,,,,,,,,,,,,,,,,,,,,,,,8.0,8.0,8.0,9.0,0.0,212.0,0.0,0.0,2.26,,,0,0,0,0,0,0,0,0,0,0,0,0,0,0,0,0,,0.0,,,,,38.990936,-76.939697,12.8,34.8,23.0,2.0,1.3
375,88350,1745675876354,0.0,101.0,,-0.12,-0.06,1.01,-9.0,0.0,-1.0,1.02,1.07,95.0,2770.0,5.1,3.76,,13.49,1.05,71.8,,26.1,5.0,,,,,,,,,,,,0,0,0,0,0,0,0,0,0,0,0,0,0,0,0,0,,,,,,0.0,,,,,,,
376,88370,1745675876374,,,,,,,,,,,,,,,,,,,,,,,,,,,,,,,,,,0,0,0,0,0,0,0,0,0,0,0,0,0,0,0,0,,,,,,,,,,,,,
377,88390,1745675876394,0.0,101.0,,-0.11,-0.04,1.01,-9.0,0.0,-1.0,1.02,1.07,95.0,2722.0,5.2,3.75,,13.49,1.05,71.8,,26.1,5.0,,,,,,,,,,,,0,0,0,0,0,0,0,0,0,0,0,0,0,0,0,0,,,,,,0.0,,,,,,,
378,88410,1745675876414,,,,,,,,,,,,,,,,,,,,,,,,,,,,,,,,,,0,0,0,0,0,0,0,0,0,0,0,0,0,0,0,0,,,,,,,,,,,,,
