,Interval,Utc,FrontBP,SteerAng,Battery,AccelX,AccelY,AccelZ,Yaw,Pitch,Roll,Gsum,GsumMax,GsumPct,RPM,TPS,InjectorPW,Baro,MAP,Lambda,IAT,EngineTemp,EOP,EOT,WSFR,WSFL,WSRR,WSRL,TCSet,TCSlip,TCComp,TCCut,Analog8,OilTemp,AA_On,ThermLF1,ThermLF2,ThermRR1,ThermRR2,ThermLF3,ThermLF4,ThermLF5,ThermLF6,ThermLF7,ThermLF8,ThermRR3,ThermRR4,ThermRR5,ThermRR6,ThermRR7,ThermRR8,AA_LowDrag,Gear,AA_On1,AA_LowDrag1,Fuel_Mix,AA_Packages,Latitude,Longitude,Speed,Altitude,GPSSats,GPSQual,GPSDOP
0,10504,1745676870495,,,,,,,,,,,,,,,,,,,,,,,,,,,,,,,,,,0,0,0,0,0,0,0,0,0,0,0,0,0,0,0,0,,,,,,,,,,,,,
1,10524,1745676870515,42.23,110.0,,-0.09,-0.1,1.04,-1.0,0.0,0.0,1.05,1.05,100.0,3660.0,8.5,4.23,,12.85,1.025,80.8,,33.0,5.0,,,,,,,,,,,,0,0,0,0,0,0,0,0,0,0,0,0,0,0,0,0,,,,,,0.0,,,,,,,
2,10544,1745676870535,,,,,,,,,,,,,,,,,,,,,,,,,,,,,,,,,,0,0,0,0,0,0,0,0,0,0,0,0,0,0,0,0,,,,,,,,,,,,,
3,10564,1745676870555,38.46,110.0,,-0.08,-0.1,1.01,0.0,0.0,0.0,1.01,1.05,96.0,3606.0,8.5,4.23,,12.89,1.029,80.8,,33.0,5.0,,,,,,,,,,,,0,0,0,0,0,0,0,0,0,0,0,0,0,0,0,0,,,,,,0.0,,,,,,,
4,10584,1745676870575,,,,,,,,,,,,,,,,,,,,,,,0.0,0.0,0.0,0.0,0.0,0.0,0.0,0.0,2.27,,,0,0,0,0,0,0,0,0,0,0,0,0,0,0,0,0,,0.0,,,,,38.991528,-76.937012,0.16,48.8,10.0,2.0,3.5
5,10604,1745676870595,33.43,109.0,,-0.11,-0.19,1.03,-1.0,0.0,0.0,1.05,1.05,100.0,3549.0,8.5,4.22,,12.99,1.032,80.8,,33.0,5.0,,,,,,,,,,,,0,0,0,0,0,0,0,0,0,0,0,0,0,0,0,0,,,,,,0.0,,,,,,,
6,10624,1745676870615,,,,,,,,,,,,,,,,,,,,,,,,,,,,,,,,,,0,0,0,0,0,0,0,0,0,0,0,0,0,0,0,0,,,,,,,,,,,,,
7,10644,1745676870635,28.41,110.0,,-0.08,-0.07,1.03,-1.0,0.0,1.0,1.03,1.05,98.0,3490.0,8.8,4.23,,12.99,1.032,80.8,,32.9,5.0,,,,,,,,,,,,0,0,0,0,0,0,0,0,0,0,0,0,0,0,0,0,,,,,,0.0,,,,,,,
8,10664,1745676870655,,,,,,,,,,,,,,,,,,,,,,,,,,,,,,,,,,0,0,0,0,0,0,0,0,0,0,0,0,0,0,0,0,,,,,,,,,,,,,
9,10684,1745676870675,22.75,109.0,13.75,-0.07,-0.11,1.02,-1.0,0.0,0.0,1.03,1.05,97.0,3490.0,8.8,4.23,15.0,13.09,1.034,80.8,106.0,32.9,5.0,0.0,0.0,0.0,0.0,0.0,0.0,0.0,0.0,2.27,0.0,0.0,0,0,0,0,0,0,0,0,0,0,0,0,0,0,0,0,0.0,0.0,0.0,0.0,0.0,0.0,38.991528,-76.937012,0.08,48.7,10.0,2.0,3.5
10,10704,1745676870695,,,,,,,,,,,,,,,,,,,,,,,,,,,,,,,,,,0,0,0,0,0,0,0,0,0,0,0,0,0,0,0,0,,,,,,,,,,,,,
11,10724,1745676870715,17.09,110.0,,-0.07,-0.09,1.01,-1.0,0.0,0.0,1.02,1.05,97.0,3643.0,8.9,4.23,,13.0,1.037,80.8,,33.8,5.0,,,,,,,,,,,,0,0,0,0,0,0,0,0,0,0,0,0,0,0,0,0,,,,,,0.0,,,,,,,
12,10744,1745676870735,,,,,,,,,,,,,,,,,,,,,,,,,,,,,,,,,,0,0,0,0,0,0,0,0,0,0,0,0,0,0,0,0,,,,,,,,,,,,,
13,10764,1745676870755,12.07,110.0,,-0.08,-0.1,0.98,0.0,0.0,0.0,0.99,1.05,94.0,3690.0,8.8,4.22,,12.92,1.039,80.8,,33.8,5.0,,,,,,,,,,,,0,0,0,0,0,0,0,0,0,0,0,0,0,0,0,0,,,,,,0.0,,,,,,,
14,10784,1745676870775,,,,,,,,,,,,,,,,,,,,,,,0.0,0.0,0.0,0.0,0.0,0.0,0.0,0.0,2.27,,,0,0,0,0,0,0,0,0,0,0,0,0,0,0,0,0,,0.0,,,,,38.991528,-76.937012,0.08,48.7,10.0,2.0,3.5
15,10804,1745676870795,8.3,110.0,,-0.11,-0.17,1.0,-1.0,0.0,0.0,1.02,1.05,97.0,3555.0,8.6,4.21,,12.96,1.043,80.8,,33.8,5.0,,,,,,,,,,,,0,0,0,0,0,0,0,0,0,0,0,0,0,0,0,0,,,,,,0.0,,,,,,,
16,10824,1745676870815,,,,,,,,,,,,,,,,,,,,,,,,,,,,,,,,,,0,0,0,0,0,0,0,0,0,0,0,0,0,0,0,0,,,,,,,,,,,,,
17,10844,1745676870835,5.78,110.0,,-0.08,-0.06,1.01,-1.0,0.0,1.0,1.01,1.05,96.0,3525.0,8.6,4.2,,12.96,1.043,80.8,,33.1,5.0,,,,,,,,,,,,0,0,0,0,0,0,0,0,0,0,0,0,0,0,0,0,,,,,,0.0,,,,,,,
18,10864,1745676870855,,,,,,,,,,,,,,,,,,,,,,,,,,,,,,,,,,0,0,0,0,0,0,0,0,0,0,0,0,0,0,0,0,,,,,,,,,,,,,
19,10884,1745676870875,2.64,110.0,,-0.08,-0.1,0.97,0.0,0.0,0.0,0.98,1.05,93.0,3525.0,8.6,4.2,,13.03,1.047,80.8,,33.1,5.0,0.0,0.0,0.0,0.0,0.0,0.0,0.0,0.0,2.27,,,0,0,0,0,0,0,0,0,0,0,0,0,0,0,0,0,,0.0,,,,0.0,38.991528,-76.937012,0.52,48.7,10.0,2.0,3.5
20,10904,1745676870895,,,,,,,,,,,,,,,,,,,,,,,,,,,,,,,,,,0,0,0,0,0,0,0,0,0,0,0,0,0,0,0,0,,,,,,,,,,,,,
21,10924,1745676870915,0.75,110.0,,-0.09,-0.15,0.97,0.0,0.0,0.0,0.98,1.05,93.0,3535.0,8.7,4.2,,13.12,1.051,80.8,,33.6,5.0,,,,,,,,,,,,0,0,0,0,0,0,0,0,0,0,0,0,0,0,0,0,,,,,,0.0,,,,,,,
22,10944,1745676870935,,,,,,,,,,,,,,,,,,,,,,,,,,,,,,,,,,0,0,0,0,0,0,0,0,0,0,0,0,0,0,0,0,,,,,,,,,,,,,
23,10964,1745676870955,0.0,110.0,,-0.09,-0.16,0.97,0.0,0.0,0.0,0.99,1.05,94.0,3719.0,8.7,4.18,,13.05,1.05,80.8,,33.6,5.0,,,,,,,,,,,,0,0,0,0,0,0,0,0,0,0,0,0,0,0,0,0,,,,,,0.0,,,,,,,
24,10984,1745676870975,,,,,,,,,,,,,,,,,,,,,,,0.0,0.0,0.0,0.0,0.0,0.0,0.0,0.0,2.27,,,0,0,0,0,0,0,0,0,0,0,0,0,0,0,0,0,,0.0,,,,,38.991528,-76.937012,0.37,48.6,10.0,2.0,3.5
25,11004,1745676870995,0.0,110.0,,-0.08,-0.07,1.01,0.0,0.0,0.0,1.01,1.05,96.0,3829.0,8.8,4.15,,12.91,1.051,80.8,,33.6,5.0,,,,,,,,,,,,0,0,0,0,0,0,0,0,0,0,0,0,0,0,0,0,,,,,,0.0,,,,,,,
26,11024,1745676871009,,,,,,,,,,,,,,,,,,,,,,,,,,,,,,,,,,0,0,0,0,0,0,0,0,0,0,0,0,0,0,0,0,,,,,,,,,,,,,
27,11044,1745676871029,0.0,110.0,,-0.08,-0.06,1.03,0.0,0.0,0.0,1.04,1.05,98.0,3903.0,8.8,4.14,,12.91,1.051,80.8,,34.2,5.0,,,,,,,,,,,,0,0,0,0,0,0,0,0,0,0,0,0,0,0,0,0,,,,,,0.0,,,,,,,
28,11064,1745676871049,,,,,,,,,,,,,,,,,,,,,,,,,,,,,,,,,,0,0,0,0,0,0,0,0,0,0,0,0,0,0,0,0,,,,,,,,,,,,,
29,11084,1745676871069,0.0,110.0,,-0.08,-0.09,1.03,-1.0,0.0,0.0,1.04,1.05,99.0,3903.0,8.8,4.14,,12.85,1.054,80.8,,34.2,5.0,0.0,0.0,0.0,0.0,0.0,0.0,0.0,0.0,2.27,,,0,0,0,0,0,0,0,0,0,0,0,0,0,0,0,0,,0.0,,,,0.0,38.991528,-76.937012,0.23,48.6,10.0,2.0,3.5
30,11104,1745676871096,,,,,,,,,,,,,,,,,,,,,,,,,,,,,,,,,,0,0,0,0,0,0,0,0,0,0,0,0,0,0,0,0,,,,,,,,,,,,,
31,11124,1745676871116,0.0,110.0,,-0.08,-0.1,1.04,-1.0,0.0,0.0,1.04,1.05,99.0,3778.0,8.8,4.15,,12.85,1.057,80.8,,32.6,5.0,,,,,,,,,,,,0,0,0,0,0,0,0,0,0,0,0,0,0,0,0,0,,,,,,0.0,,,,,,,
32,11144,1745676871136,,,,,,,,,,,,,,,,,,,,,,,,,,,,,,,,,,0,0,0,0,0,0,0,0,0,0,0,0,0,0,0,0,,,,,,,,,,,,,
33,11164,1745676871156,0.0,110.0,,-0.07,-0.08,0.99,0.0,0.0,0.0,1.0,1.05,95.0,3603.0,8.9,4.14,,12.87,1.061,80.8,,32.6,5.0,,,,,,,,,,,,0,0,0,0,0,0,0,0,0,0,0,0,0,0,0,0,,,,,,0.0,,,,,,,
34,11184,1745676871176,,,,,,,,,,,,,,,,,,,,,,,0.0,0.0,0.0,0.0,0.0,0.0,0.0,0.0,2.27,,,0,0,0,0,0,0,0,0,0,0,0,0,0,0,0,0,,0.0,,,,,38.991528,-76.937012,0.4,48.5,10.0,2.0,3.5
35,11204,1745676871195,0.0,110.0,,-0.09,-0.15,1.0,0.0,0.0,0.0,1.01,1.05,96.0,3583.0,9.1,4.15,,12.97,1.066,80.8,,32.6,5.0,,,,,,,,,,,,0,0,0,0,0,0,0,0,0,0,0,0,0,0,0,0,,,,,,0.0,,,,,,,
36,11224,1745676871215,,,,,,,,,,,,,,,,,,,,,,,,,,,,,,,,,,0,0,0,0,0,0,0,0,0,0,0,0,0,0,0,0,,,,,,,,,,,,,
37,11244,1745676871235,0.0,110.0,,-0.08,-0.15,0.99,0.0,0.0,0.0,1.01,1.05,96.0,3775.0,9.0,4.12,,12.97,1.066,80.8,,33.9,5.0,,,,,,,,,,,,0,0,0,0,0,0,0,0,0,0,0,0,0,0,0,0,,,,,,0.0,,,,,,,
38,11264,1745676871255,,,,,,,,,,,,,,,,,,,,,,,,,,,,,,,,,,0,0,0,0,0,0,0,0,0,0,0,0,0,0,0,0,,,,,,,,,,,,,
39,11284,1745676871275,0.0,110.0,,-0.06,-0.06,1.02,0.0,0.0,0.0,1.03,1.05,98.0,3775.0,9.0,4.12,,12.88,1.068,80.8,,33.9,5.0,0.0,0.0,0.0,0.0,0.0,0.0,0.0,0.0,2.27,,,0,0,0,0,0,0,0,0,0,0,0,0,0,0,0,0,,0.0,,,,0.0,38.991528,-76.937012,0.24,48.5,10.0,2.0,3.5
40,11304,1745676871297,,,,,,,,,,,,,,,,,,,,,,,,,,,,,,,,,,0,0,0,0,0,0,0,0,0,0,0,0,0,0,0,0,,,,,,,,,,,,,
41,11324,1745676871317,0.0,110.0,,-0.06,-0.0,1.08,-1.0,0.0,1.0,1.08,1.08,100.0,3910.0,8.7,4.1,,12.92,1.072,80.8,,34.6,5.0,,,,,,,,,,,,0,0,0,0,0,0,0,0,0,0,0,0,0,0,0,0,,,,,,0.0,,,,,,,
42,11344,1745676871337,,,,,,,,,,,,,,,,,,,,,,,,,,,,,,,,,,0,0,0,0,0,0,0,0,0,0,0,0,0,0,0,0,,,,,,,,,,,,,
43,11364,1745676871357,0.0,110.0,,-0.09,-0.12,1.01,-1.0,0.0,0.0,1.02,1.08,94.0,3919.0,8.7,4.09,,12.8,1.077,80.8,,34.6,5.0,,,,,,,,,,,,0,0,0,0,0,0,0,0,0,0,0,0,0,0,0,0,,,,,,0.0,,,,,,,
44,11384,1745676871377,,,,,,,,,,,,,,,,,,,,,,,0.0,0.0,0.0,0.0,0.0,0.0,0.0,0.0,2.28,,,0,0,0,0,0,0,0,0,0,0,0,0,0,0,0,0,,0.0,,,,,38.991528,-76.937012,0.08,48.5,10.0,2.0,3.5
45,11404,1745676871396,0.0,110.0,,-0.05,-0.1,0.99,0.0,0.0,0.0,0.99,1.08,92.0,3991.0,8.6,4.06,,12.77,1.087,80.8,,34.6,5.0,,,,,,,,,,,,0,0,0,0,0,0,0,0,0,0,0,0,0,0,0,0,,,,,,0.0,,,,,,,
46,11424,1745676871416,,,,,,,,,,,,,,,,,,,,,,,,,,,,,,,,,,0,0,0,0,0,0,0,0,0,0,0,0,0,0,0,0,,,,,,,,,,,,,
47,11444,1745676871436,0.0,111.0,,-0.05,0.02,1.09,0.0,0.0,1.0,1.09,1.09,100.0,4067.0,8.6,4.06,,12.77,1.087,80.8,,34.6,5.0,,,,,,,,,,,,0,0,0,0,0,0,0,0,0,0,0,0,0,0,0,0,,,,,,0.0,,,,,,,
48,11464,1745676871456,,,,,,,,,,,,,,,,,,,,,,,,,,,,,,,,,,0,0,0,0,0,0,0,0,0,0,0,0,0,0,0,0,,,,,,,,,,,,,
49,11484,1745676871476,0.0,110.0,,-0.07,-0.13,1.0,0.0,0.0,0.0,1.02,1.09,93.0,4067.0,8.6,4.06,,12.71,1.081,80.8,,34.6,5.0,0.0,0.0,0.0,0.0,0.0,0.0,0.0,0.0,2.28,,,0,0,0,0,0,0,0,0,0,0,0,0,0,0,0,0,,0.0,,,,0.0,38.991528,-76.937012,0.17,48.4,10.0,2.0,2.9
50,11504,1745676871494,,,,,,,,,,,,,,,,,,,,,,,,,,,,,,,,,,0,0,0,0,0,0,0,0,0,0,0,0,0,0,0,0,,,,,,,,,,,,,
51,11524,1745676871514,0.0,110.0,,-0.05,-0.12,1.0,1.0,0.0,0.0,1.01,1.09,93.0,3983.0,8.7,4.02,,12.65,1.07,80.8,,34.0,5.0,,,,,,,,,,,,0,0,0,0,0,0,0,0,0,0,0,0,0,0,0,0,,,,,,0.0,,,,,,,
52,11544,1745676871534,,,,,,,,,,,,,,,,,,,,,,,,,,,,,,,,,,0,0,0,0,0,0,0,0,0,0,0,0,0,0,0,0,,,,,,,,,,,,,
53,11564,1745676871554,0.0,110.0,,-0.06,-0.13,1.01,1.0,0.0,0.0,1.02,1.09,93.0,3818.0,8.4,4.03,,12.72,1.068,80.8,,34.0,5.0,,,,,,,,,,,,0,0,0,0,0,0,0,0,0,0,0,0,0,0,0,0,,,,,,0.0,,,,,,,
54,11584,1745676871574,,,,,,,,,,,,,,,,,,,,,,,0.0,0.0,0.0,0.0,0.0,0.0,0.0,0.0,2.27,,,0,0,0,0,0,0,0,0,0,0,0,0,0,0,0,0,,0.0,,,,,38.991528,-76.937012,0.05,48.3,10.0,2.0,2.9
55,11604,1745676871594,0.0,110.0,,-0.08,-0.17,1.02,1.0,0.0,0.0,1.04,1.09,95.0,3691.0,4.7,3.91,,12.57,1.071,80.8,,34.0,5.0,,,,,,,,,,,,0,0,0,0,0,0,0,0,0,0,0,0,0,0,0,0,,,,,,0.0,,,,,,,
56,11624,1745676871614,,,,,,,,,,,,,,,,,,,,,,,,,,,,,,,,,,0,0,0,0,0,0,0,0,0,0,0,0,0,0,0,0,,,,,,,,,,,,,
57,11644,1745676871634,0.0,111.0,,-0.08,-0.17,1.02,0.0,0.0,0.0,1.04,1.09,95.0,3684.0,4.0,3.87,,12.57,1.071,80.8,,32.7,5.0,,,,,,,,,,,,0,0,0,0,0,0,0,0,0,0,0,0,0,0,0,0,,,,,,0.0,,,,,,,
58,11664,1745676871654,,,,,,,,,,,,,,,,,,,,,,,,,,,,,,,,,,0,0,0,0,0,0,0,0,0,0,0,0,0,0,0,0,,,,,,,,,,,,,
59,11684,1745676871674,0.0,111.0,13.81,-0.07,-0.15,1.01,-1.0,0.0,0.0,1.03,1.09,94.0,3684.0,4.0,3.87,15.0,12.47,1.075,80.8,106.0,32.7,5.0,0.0,0.0,0.0,0.0,0.0,0.0,0.0,0.0,2.27,0.0,0.0,0,0,0,0,0,0,0,0,0,0,0,0,0,0,0,0,0.0,0.0,0.0,0.0,0.0,0.0,38.991528,-76.937012,0.06,48.3,10.0,2.0,2.9
60,11704,1745676871696,,,,,,,,,,,,,,,,,,,,,,,,,,,,,,,,,,0,0,0,0,0,0,0,0,0,0,0,0,0,0,0,0,,,,,,,,,,,,,
61,11724,1745676871716,0.0,110.0,,-0.07,-0.2,0.99,-1.0,0.0,0.0,1.01,1.09,93.0,3796.0,3.5,3.77,,12.36,1.085,80.8,,33.9,5.0,,,,,,,,,,,,0,0,0,0,0,0,0,0,0,0,0,0,0,0,0,0,,,,,,0.0,,,,,,,
62,11744,1745676871736,,,,,,,,,,,,,,,,,,,,,,,,,,,,,,,,,,0,0,0,0,0,0,0,0,0,0,0,0,0,0,0,0,,,,,,,,,,,,,
63,11764,1745676871756,0.0,111.0,,-0.06,-0.19,1.01,-1.0,0.0,0.0,1.02,1.09,94.0,3882.0,1.4,3.22,,12.25,1.098,80.8,,33.9,5.0,,,,,,,,,,,,0,0,0,0,0,0,0,0,0,0,0,0,0,0,0,0,,,,,,0.0,,,,,,,
64,11784,1745676871776,,,,,,,,,,,,,,,,,,,,,,,0.0,0.0,0.0,0.0,0.0,0.0,0.0,0.0,2.27,,,0,0,0,0,0,0,0,0,0,0,0,0,0,0,0,0,,0.0,,,,,38.991528,-76.937012,0.23,48.2,10.0,2.0,2.9
65,11804,1745676871792,0.0,111.0,,-0.07,-0.14,1.03,-1.0,0.0,0.0,1.04,1.09,95.0,3823.0,1.0,3.09,,11.95,1.108,80.8,,33.9,5.0,,,,,,,,,,,,0,0,0,0,0,0,0,0,0,0,0,0,0,0,0,0,,,,,,0.0,,,,,,,
66,11824,1745676871812,,,,,,,,,,,,,,,,,,,,,,,,,,,,,,,,,,0,0,0,0,0,0,0,0,0,0,0,0,0,0,0,0,,,,,,,,,,,,,
67,11844,1745676871832,0.0,111.0,,-0.07,-0.09,1.01,0.0,0.0,0.0,1.01,1.09,93.0,3789.0,0.9,3.14,,11.95,1.108,80.8,,33.3,5.0,,,,,,,,,,,,0,0,0,0,0,0,0,0,0,0,0,0,0,0,0,0,,,,,,0.0,,,,,,,
68,11864,1745676871852,,,,,,,,,,,,,,,,,,,,,,,,,,,,,,,,,,0,0,0,0,0,0,0,0,0,0,0,0,0,0,0,0,,,,,,,,,,,,,
69,11884,1745676871872,2.01,111.0,,-0.06,-0.01,1.02,0.0,0.0,0.0,1.02,1.09,93.0,3789.0,0.9,3.14,,11.89,1.104,80.8,,33.3,5.0,0.0,0.0,0.0,0.0,0.0,0.0,0.0,0.0,2.27,,,0,0,0,0,0,0,0,0,0,0,0,0,0,0,0,0,,0.0,,,,0.0,38.991528,-76.937012,0.16,48.2,10.0,2.0,2.8
70,11904,1745676871896,,,,,,,,,,,,,,,,,,,,,,,,,,,,,,,,,,0,0,0,0,0,0,0,0,0,0,0,0,0,0,0,0,,,,,,,,,,,,,
71,11924,1745676871916,3.9,110.0,,-0.06,0.01,1.03,0.0,0.0,0.0,1.03,1.09,94.0,3817.0,0.9,3.11,,11.87,1.087,80.8,,34.0,5.0,,,,,,,,,,,,0,0,0,0,0,0,0,0,0,0,0,0,0,0,0,0,,,,,,0.0,,,,,,,
72,11944,1745676871936,,,,,,,,,,,,,,,,,,,,,,,,,,,,,,,,,,0,0,0,0,0,0,0,0,0,0,0,0,0,0,0,0,,,,,,,,,,,,,
73,11964,1745676871956,5.78,111.0,,-0.06,-0.03,1.02,-1.0,0.0,0.0,1.03,1.09,94.0,3776.0,1.0,3.08,,11.76,1.085,80.8,,34.0,5.0,,,,,,,,,,,,0,0,0,0,0,0,0,0,0,0,0,0,0,0,0,0,,,,,,0.0,,,,,,,
74,11984,1745676871976,,,,,,,,,,,,,,,,,,,,,,,0.0,0.0,0.0,0.0,0.0,0.0,0.0,0.0,2.28,,,0,0,0,0,0,0,0,0,0,0,0,0,0,0,0,0,,0.0,,,,,38.991528,-76.937012,0.0,48.1,10.0,2.0,2.8
75,12004,1745676871996,7.67,111.0,,-0.05,-0.03,1.0,0.0,0.0,0.0,1.0,1.09,92.0,3652.0,1.2,3.21,,11.75,1.069,80.8,,34.0,5.0,,,,,,,,,,,,0,0,0,0,0,0,0,0,0,0,0,0,0,0,0,0,,,,,,0.0,,,,,,,
76,12024,1745676872008,,,,,,,,,,,,,,,,,,,,,,,,,,,,,,,,,,0,0,0,0,0,0,0,0,0,0,0,0,0,0,0,0,,,,,,,,,,,,,
77,12044,1745676872028,8.92,111.0,,-0.08,-0.08,0.95,1.0,0.0,0.0,0.96,1.09,88.0,3581.0,1.3,3.24,,11.75,1.069,80.8,,32.5,5.0,,,,,,,,,,,,0,0,0,0,0,0,0,0,0,0,0,0,0,0,0,0,,,,,,0.0,,,,,,,
78,12064,1745676872048,,,,,,,,,,,,,,,,,,,,,,,,,,,,,,,,,,0,0,0,0,0,0,0,0,0,0,0,0,0,0,0,0,,,,,,,,,,,,,
79,12084,1745676872068,10.18,111.0,,-0.07,-0.08,1.02,0.0,0.0,0.0,1.02,1.09,94.0,3581.0,1.3,3.24,,11.88,1.057,80.8,,32.5,5.0,0.0,0.0,0.0,0.0,0.0,0.0,0.0,0.0,2.27,,,0,0,0,0,0,0,0,0,0,0,0,0,0,0,0,0,,0.0,,,,0.0,38.991528,-76.937012,0.08,48.1,11.0,2.0,2.0
80,12104,1745676872094,,,,,,,,,,,,,,,,,,,,,,,,,,,,,,,,,,0,0,0,0,0,0,0,0,0,0,0,0,0,0,0,0,,,,,,,,,,,,,
81,12124,1745676872114,11.44,111.0,,-0.06,-0.01,0.93,1.0,0.0,0.0,0.94,1.09,86.0,3463.0,1.2,3.4,,12.01,1.043,80.8,,33.3,5.0,,,,,,,,,,,,0,0,0,0,0,0,0,0,0,0,0,0,0,0,0,0,,,,,,0.0,,,,,,,
82,12144,1745676872134,,,,,,,,,,,,,,,,,,,,,,,,,,,,,,,,,,0,0,0,0,0,0,0,0,0,0,0,0,0,0,0,0,,,,,,,,,,,,,
83,12164,1745676872154,12.69,111.0,,-0.06,-0.03,1.02,-1.0,0.0,1.0,1.02,1.09,94.0,3339.0,1.2,3.5,,12.2,1.033,80.8,,33.3,5.0,,,,,,,,,,,,0,0,0,0,0,0,0,0,0,0,0,0,0,0,0,0,,,,,,0.0,,,,,,,
84,12184,1745676872174,,,,,,,,,,,,,,,,,,,,,,,0.0,0.0,0.0,0.0,0.0,0.0,0.0,0.0,2.27,,,0,0,0,0,0,0,0,0,0,0,0,0,0,0,0,0,,0.0,,,,,38.991528,-76.937012,0.11,48.0,11.0,2.0,2.0
85,12204,1745676872194,13.95,111.0,,-0.1,-0.09,1.06,0.0,0.0,0.0,1.07,1.09,98.0,3199.0,1.4,3.6,,12.31,1.032,80.8,,33.3,5.0,,,,,,,,,,,,0,0,0,0,0,0,0,0,0,0,0,0,0,0,0,0,,,,,,0.0,,,,,,,
86,12224,1745676872214,,,,,,,,,,,,,,,,,,,,,,,,,,,,,,,,,,0,0,0,0,0,0,0,0,0,0,0,0,0,0,0,0,,,,,,,,,,,,,
87,12244,1745676872234,14.58,111.0,,-0.12,-0.06,1.0,1.0,0.0,0.0,1.0,1.09,92.0,3115.0,1.6,3.68,,12.31,1.032,80.8,,33.1,5.0,,,,,,,,,,,,0,0,0,0,0,0,0,0,0,0,0,0,0,0,0,0,,,,,,0.0,,,,,,,
88,12264,1745676872254,,,,,,,,,,,,,,,,,,,,,,,,,,,,,,,,,,0,0,0,0,0,0,0,0,0,0,0,0,0,0,0,0,,,,,,,,,,,,,
89,12284,1745676872274,15.21,111.0,,-0.11,-0.04,0.91,1.0,0.0,-1.0,0.91,1.09,84.0,3115.0,1.6,3.68,,12.37,1.03,80.8,,33.1,5.0,0.0,0.0,0.0,0.0,0.0,0.0,0.0,0.0,2.27,,,0,0,0,0,0,0,0,0,0,0,0,0,0,0,0,0,,0.0,,,,0.0,38.991528,-76.937012,0.04,48.0,11.0,2.0,2.0
90,12304,1745676872296,,,,,,,,,,,,,,,,,,,,,,,,,,,,,,,,,,0,0,0,0,0,0,0,0,0,0,0,0,0,0,0,0,,,,,,,,,,,,,
91,12324,1745676872316,15.21,111.0,,-0.09,-0.02,0.82,1.0,0.0,-1.0,0.82,1.09,75.0,3033.0,11.3,4.2,,12.97,1.034,80.8,,32.8,5.0,,,,,,,,,,,,0,0,0,0,0,0,0,0,0,0,0,0,0,0,0,0,,,,,,0.0,,,,,,,
92,12344,1745676872336,,,,,,,,,,,,,,,,,,,,,,,,,,,,,,,,,,0,0,0,0,0,0,0,0,0,0,0,0,0,0,0,0,,,,,,,,,,,,,
93,12364,1745676872356,15.84,111.0,,-0.05,0.07,0.81,1.0,0.0,0.0,0.81,1.09,75.0,3112.0,12.3,4.34,,13.44,1.038,80.8,,32.8,5.0,,,,,,,,,,,,0,0,0,0,0,0,0,0,0,0,0,0,0,0,0,0,,,,,,0.0,,,,,,,
94,12384,1745676872376,,,,,,,,,,,,,,,,,,,,,,,0.0,0.0,0.0,0.0,0.0,0.0,0.0,0.0,2.27,,,0,0,0,0,0,0,0,0,0,0,0,0,0,0,0,0,,0.0,,,,,38.991528,-76.937012,0.0,47.9,11.0,2.0,2.0
95,12404,1745676872393,15.84,111.0,,-0.05,0.03,0.83,1.0,0.0,-1.0,0.84,1.09,77.0,3521.0,12.3,4.1,,13.44,1.045,80.8,,32.8,5.0,,,,,,,,,,,,0,0,0,0,0,0,0,0,0,0,0,0,0,0,0,0,,,,,,0.0,,,,,,,
96,12424,1745676872413,,,,,,,,,,,,,,,,,,,,,,,,,,,,,,,,,,0,0,0,0,0,0,0,0,0,0,0,0,0,0,0,0,,,,,,,,,,,,,
97,12444,1745676872433,17.09,111.0,,-0.08,-0.03,0.82,2.0,0.0,-1.0,0.83,1.09,76.0,3832.0,12.2,4.08,,13.44,1.045,80.8,,34.2,5.0,,,,,,,,,,,,0,0,0,0,0,0,0,0,0,0,0,0,0,0,0,0,,,,,,0.0,,,,,,,
98,12464,1745676872453,,,,,,,,,,,,,,,,,,,,,,,,,,,,,,,,,,0,0,0,0,0,0,0,0,0,0,0,0,0,0,0,0,,,,,,,,,,,,,
99,12484,1745676872473,17.72,111.0,,-0.09,-0.0,0.83,1.0,0.0,0.0,0.83,1.09,76.0,3832.0,12.2,4.08,,13.33,1.056,80.8,,34.2,5.0,0.0,0.0,0.0,0.0,0.0,0.0,0.0,0.0,2.27,,,0,0,0,0,0,0,0,0,0,0,0,0,0,0,0,0,,0.0,,,,0.0,38.991528,-76.937012,0.05,47.8,12.0,2.0,1.8
100,12504,1745676872493,,,,,,,,,,,,,,,,,,,,,,,,,,,,,,,,,,0,0,0,0,0,0,0,0,0,0,0,0,0,0,0,0,,,,,,,,,,,,,
101,12524,1745676872513,18.35,111.0,,-0.13,-0.08,0.88,0.0,0.0,0.0,0.89,1.09,82.0,3866.0,6.2,3.89,,12.93,1.052,80.8,,34.8,5.0,,,,,,,,,,,,0,0,0,0,0,0,0,0,0,0,0,0,0,0,0,0,,,,,,0.0,,,,,,,
102,12544,1745676872533,,,,,,,,,,,,,,,,,,,,,,,,,,,,,,,,,,0,0,0,0,0,0,0,0,0,0,0,0,0,0,0,0,,,,,,,,,,,,,
103,12564,1745676872553,18.35,111.0,,-0.15,-0.13,0.9,0.0,0.0,0.0,0.92,1.09,84.0,3912.0,3.9,3.74,,12.55,1.045,80.8,,34.8,5.0,,,,,,,,,,,,0,0,0,0,0,0,0,0,0,0,0,0,0,0,0,0,,,,,,0.0,,,,,,,
104,12584,1745676872573,,,,,,,,,,,,,,,,,,,,,,,0.0,0.0,0.0,0.0,0.0,0.0,0.0,0.0,2.27,,,0,0,0,0,0,0,0,0,0,0,0,0,0,0,0,0,,0.0,,,,,38.991528,-76.937012,0.05,47.8,12.0,2.0,1.8
105,12604,1745676872595,17.72,112.0,,-0.14,-0.04,0.95,1.0,0.0,0.0,0.96,1.09,88.0,3789.0,1.7,3.53,,12.36,1.045,80.8,,34.8,5.0,,,,,,,,,,,,0,0,0,0,0,0,0,0,0,0,0,0,0,0,0,0,,,,,,0.0,,,,,,,
106,12624,1745676872615,,,,,,,,,,,,,,,,,,,,,,,,,,,,,,,,,,0,0,0,0,0,0,0,0,0,0,0,0,0,0,0,0,,,,,,,,,,,,,
107,12644,1745676872635,17.72,111.0,,-0.11,-0.05,0.9,1.0,0.0,0.0,0.91,1.09,83.0,3808.0,0.1,2.77,,12.36,1.045,80.8,,33.7,5.0,,,,,,,,,,,,0,0,0,0,0,0,0,0,0,0,0,0,0,0,0,0,,,,,,0.0,,,,,,,
108,12664,1745676872655,,,,,,,,,,,,,,,,,,,,,,,,,,,,,,,,,,0,0,0,0,0,0,0,0,0,0,0,0,0,0,0,0,,,,,,,,,,,,,
109,12684,1745676872675,17.72,111.0,13.86,-0.1,-0.04,0.91,0.0,0.0,0.0,0.91,1.09,84.0,3808.0,0.1,2.77,15.0,11.97,1.05,80.8,104.0,33.7,5.0,0.0,0.0,0.0,0.0,0.0,0.0,0.0,0.0,2.27,0.0,0.0,0,0,0,0,0,0,0,0,0,0,0,0,0,0,0,0,0.0,0.0,0.0,0.0,0.0,0.0,38.991528,-76.937012,0.05,47.7,12.0,2.0,1.8
110,12704,1745676872695,,,,,,,,,,,,,,,,,,,,,,,,,,,,,,,,,,0,0,0,0,0,0,0,0,0,0,0,0,0,0,0,0,,,,,,,,,,,,,
111,12724,1745676872715,18.35,111.0,,-0.1,0.04,0.95,-1.0,0.0,0.0,0.96,1.09,88.0,3740.0,0.0,2.79,,11.75,1.068,80.8,,33.0,5.0,,,,,,,,,,,,0,0,0,0,0,0,0,0,0,0,0,0,0,0,0,0,,,,,,0.0,,,,,,,
112,12744,1745676872735,,,,,,,,,,,,,,,,,,,,,,,,,,,,,,,,,,0,0,0,0,0,0,0,0,0,0,0,0,0,0,0,0,,,,,,,,,,,,,
113,12764,1745676872755,18.35,111.0,,-0.08,0.08,0.92,-1.0,0.0,0.0,0.93,1.09,85.0,3537.0,0.0,2.97,,11.64,1.082,80.8,,33.0,5.0,,,,,,,,,,,,0,0,0,0,0,0,0,0,0,0,0,0,0,0,0,0,,,,,,0.0,,,,,,,
114,12784,1745676872775,,,,,,,,,,,,,,,,,,,,,,,0.0,0.0,0.0,0.0,0.0,0.0,0.0,0.0,2.27,,,0,0,0,0,0,0,0,0,0,0,0,0,0,0,0,0,,0.0,,,,,38.991531,-76.937012,0.04,47.6,12.0,2.0,1.8
115,12804,1745676872795,18.35,111.0,,-0.1,-0.05,0.98,0.0,0.0,0.0,0.98,1.09,90.0,3418.0,0.0,3.15,,11.71,1.091,80.8,,33.0,5.0,,,,,,,,,,,,0,0,0,0,0,0,0,0,0,0,0,0,0,0,0,0,,,,,,0.0,,,,,,,
116,12824,1745676872815,,,,,,,,,,,,,,,,,,,,,,,,,,,,,,,,,,0,0,0,0,0,0,0,0,0,0,0,0,0,0,0,0,,,,,,,,,,,,,
117,12844,1745676872835,18.98,111.0,,-0.09,0.06,0.89,0.0,0.0,0.0,0.9,1.09,82.0,3283.0,0.0,3.28,,11.71,1.091,80.8,,33.3,5.0,,,,,,,,,,,,0,0,0,0,0,0,0,0,0,0,0,0,0,0,0,0,,,,,,0.0,,,,,,,
118,12864,1745676872855,,,,,,,,,,,,,,,,,,,,,,,,,,,,,,,,,,0,0,0,0,0,0,0,0,0,0,0,0,0,0,0,0,,,,,,,,,,,,,
119,12884,1745676872875,18.35,110.0,,-0.08,0.06,0.97,-1.0,0.0,1.0,0.97,1.09,89.0,3283.0,0.0,3.28,,11.84,1.102,80.8,,33.3,5.0,0.0,0.0,0.0,0.0,0.0,0.0,0.0,0.0,2.27,,,0,0,0,0,0,0,0,0,0,0,0,0,0,0,0,0,,0.0,,,,0.0,38.991531,-76.937012,0.09,47.6,12.0,2.0,1.8
120,12904,1745676872895,,,,,,,,,,,,,,,,,,,,,,,,,,,,,,,,,,0,0,0,0,0,0,0,0,0,0,0,0,0,0,0,0,,,,,,,,,,,,,
121,12924,1745676872915,18.98,111.0,,-0.11,-0.03,0.99,0.0,0.0,0.0,1.0,1.09,92.0,3263.0,2.7,3.6,,12.16,1.117,80.8,,32.9,5.0,,,,,,,,,,,,0,0,0,0,0,0,0,0,0,0,0,0,0,0,0,0,,,,,,0.0,,,,,,,
122,12944,1745676872935,,,,,,,,,,,,,,,,,,,,,,,,,,,,,,,,,,0,0,0,0,0,0,0,0,0,0,0,0,0,0,0,0,,,,,,,,,,,,,
123,12964,1745676872955,17.72,111.0,,-0.08,0.1,0.95,-1.0,0.0,1.0,0.96,1.09,88.0,3302.0,4.4,3.68,,12.55,1.133,80.8,,32.9,5.0,,,,,,,,,,,,0,0,0,0,0,0,0,0,0,0,0,0,0,0,0,0,,,,,,0.0,,,,,,,
124,12984,1745676872975,,,,,,,,,,,,,,,,,,,,,,,0.0,0.0,0.0,0.0,0.0,0.0,0.0,0.0,2.28,,,0,0,0,0,0,0,0,0,0,0,0,0,0,0,0,0,,0.0,,,,,38.991531,-76.937012,0.0,47.5,12.0,2.0,1.8
125,13004,1745676872995,18.98,111.0,,-0.1,-0.05,1.02,0.0,0.0,0.0,1.02,1.09,94.0,3333.0,6.0,3.77,,12.76,1.138,80.8,,32.9,5.0,,,,,,,,,,,,0,0,0,0,0,0,0,0,0,0,0,0,0,0,0,0,,,,,,0.0,,,,,,,
126,13024,1745676873007,,,,,,,,,,,,,,,,,,,,,,,,,,,,,,,,,,0,0,0,0,0,0,0,0,0,0,0,0,0,0,0,0,,,,,,,,,,,,,
127,13044,1745676873027,18.35,111.0,,-0.08,0.07,0.95,0.0,0.0,0.0,0.96,1.09,88.0,3334.0,6.1,3.77,,12.76,1.138,80.8,,33.0,5.0,,,,,,,,,,,,0,0,0,0,0,0,0,0,0,0,0,0,0,0,0,0,,,,,,0.0,,,,,,,
128,13064,1745676873047,,,,,,,,,,,,,,,,,,,,,,,,,,,,,,,,,,0,0,0,0,0,0,0,0,0,0,0,0,0,0,0,0,,,,,,,,,,,,,
129,13084,1745676873067,18.35,111.0,,-0.11,-0.05,1.03,0.0,0.0,0.0,1.04,1.09,95.0,3334.0,6.1,3.77,,12.91,1.091,80.8,,33.0,5.0,0.0,0.0,0.0,0.0,0.0,0.0,0.0,0.0,2.27,,,0,0,0,0,0,0,0,0,0,0,0,0,0,0,0,0,,0.0,,,,0.0,38.991531,-76.937012,0.09,47.5,12.0,2.0,1.8
130,13104,1745676873095,,,,,,,,,,,,,,,,,,,,,,,,,,,,,,,,,,0,0,0,0,0,0,0,0,0,0,0,0,0,0,0,0,,,,,,,,,,,,,
131,13124,1745676873115,18.98,111.0,,-0.1,-0.01,0.95,0.0,0.0,0.0,0.95,1.09,87.0,3387.0,5.5,3.78,,12.92,1.048,80.8,,32.8,5.0,,,,,,,,,,,,0,0,0,0,0,0,0,0,0,0,0,0,0,0,0,0,,,,,,0.0,,,,,,,
132,13144,1745676873135,,,,,,,,,,,,,,,,,,,,,,,,,,,,,,,,,,0,0,0,0,0,0,0,0,0,0,0,0,0,0,0,0,,,,,,,,,,,,,
133,13164,1745676873155,19.61,111.0,,-0.07,0.04,0.93,-1.0,0.0,1.0,0.93,1.09,85.0,3191.0,2.6,3.63,,12.84,1.02,80.8,,32.8,5.0,,,,,,,,,,,,0,0,0,0,0,0,0,0,0,0,0,0,0,0,0,0,,,,,,0.0,,,,,,,
134,13184,1745676873175,,,,,,,,,,,,,,,,,,,,,,,0.0,0.0,0.0,0.0,0.0,0.0,0.0,0.0,2.27,,,0,0,0,0,0,0,0,0,0,0,0,0,0,0,0,0,,0.0,,,,,38.991531,-76.937012,0.07,47.4,12.0,2.0,1.8
135,13204,1745676873195,20.24,111.0,,-0.05,0.04,0.95,-1.0,0.0,1.0,0.96,1.09,88.0,3085.0,2.7,3.64,,12.85,0.998,80.8,,32.8,5.0,,,,,,,,,,,,0,0,0,0,0,0,0,0,0,0,0,0,0,0,0,0,,,,,,0.0,,,,,,,
136,13224,1745676873215,,,,,,,,,,,,,,,,,,,,,,,,,,,,,,,,,,0,0,0,0,0,0,0,0,0,0,0,0,0,0,0,0,,,,,,,,,,,,,
137,13244,1745676873235,20.24,111.0,,-0.04,0.08,0.96,-2.0,0.0,1.0,0.96,1.09,88.0,2987.0,2.8,3.73,,12.85,0.998,80.8,,32.0,5.0,,,,,,,,,,,,0,0,0,0,0,0,0,0,0,0,0,0,0,0,0,0,,,,,,0.0,,,,,,,
138,13264,1745676873255,,,,,,,,,,,,,,,,,,,,,,,,,,,,,,,,,,0,0,0,0,0,0,0,0,0,0,0,0,0,0,0,0,,,,,,,,,,,,,
139,13284,1745676873275,8.92,110.0,,-0.04,0.09,0.92,-2.0,0.0,1.0,0.93,1.09,85.0,2987.0,2.8,3.73,,12.84,0.99,80.8,,32.0,5.0,0.0,0.0,0.0,0.0,0.0,0.0,0.0,0.0,2.26,,,0,0,0,0,0,0,0,0,0,0,0,0,0,0,0,0,,0.0,,,,0.0,38.991531,-76.937012,0.05,47.3,12.0,2.0,1.8
140,13304,1745676873295,,,,,,,,,,,,,,,,,,,,,,,,,,,,,,,,,,0,0,0,0,0,0,0,0,0,0,0,0,0,0,0,0,,,,,,,,,,,,,
141,13324,1745676873315,10.81,111.0,,-0.02,0.15,0.87,-2.0,0.0,1.0,0.88,1.09,81.0,2872.0,3.0,3.73,,12.92,1.004,80.8,,32.7,5.0,,,,,,,,,,,,0,0,0,0,0,0,0,0,0,0,0,0,0,0,0,0,,,,,,0.0,,,,,,,
142,13344,1745676873335,,,,,,,,,,,,,,,,,,,,,,,,,,,,,,,,,,0,0,0,0,0,0,0,0,0,0,0,0,0,0,0,0,,,,,,,,,,,,,
143,13364,1745676873355,12.69,111.0,,-0.01,0.17,0.86,-2.0,0.0,2.0,0.87,1.09,80.0,3053.0,11.0,3.76,,13.13,1.041,80.8,,32.7,5.0,,,,,,,,,,,,0,0,0,0,0,0,0,0,0,0,0,0,0,0,0,0,,,,,,0.0,,,,,,,
144,13384,1745676873375,,,,,,,,,,,,,,,,,,,,,,,0.0,0.0,0.0,0.0,0.0,0.0,0.0,0.0,2.26,,,0,0,0,0,0,0,0,0,0,0,0,0,0,0,0,0,,0.0,,,,,38.991531,-76.937012,0.08,47.3,12.0,2.0,1.8
145,13404,1745676873394,14.58,111.0,,-0.0,0.19,0.91,-3.0,0.0,2.0,0.93,1.09,85.0,3002.0,31.9,4.75,,14.15,1.087,80.8,,32.7,5.0,,,,,,,,,,,,0,0,0,0,0,0,0,0,0,0,0,0,0,0,0,0,,,,,,0.0,,,,,,,
146,13424,1745676873414,,,,,,,,,,,,,,,,,,,,,,,,,,,,,,,,,,0,0,0,0,0,0,0,0,0,0,0,0,0,0,0,0,,,,,,,,,,,,,
147,13444,1745676873434,14.58,111.0,,-0.04,0.1,0.94,-2.0,0.0,1.0,0.95,1.09,87.0,3408.0,35.5,4.88,,14.15,1.087,80.8,,32.7,5.0,,,,,,,,,,,,0,0,0,0,0,0,0,0,0,0,0,0,0,0,0,0,,,,,,0.0,,,,,,,
148,13464,1745676873454,,,,,,,,,,,,,,,,,,,,,,,,,,,,,,,,,,0,0,0,0,0,0,0,0,0,0,0,0,0,0,0,0,,,,,,,,,,,,,
149,13484,1745676873474,15.21,110.0,,-0.06,0.08,0.93,-2.0,0.0,1.0,0.94,1.09,86.0,3408.0,35.5,4.88,,14.23,1.105,80.8,,32.7,5.0,0.0,0.0,0.0,0.0,0.0,0.0,0.0,0.0,2.27,,,0,0,0,0,0,0,0,0,0,0,0,0,0,0,0,0,,0.0,,,,0.0,38.991531,-76.937012,0.05,47.2,12.0,2.0,1.8
150,13504,1745676873495,,,,,,,,,,,,,,,,,,,,,,,,,,,,,,,,,,0,0,0,0,0,0,0,0,0,0,0,0,0,0,0,0,,,,,,,,,,,,,
151,13524,1745676873515,16.47,111.0,,-0.02,0.25,1.07,-3.0,0.0,2.0,1.1,1.1,100.0,3676.0,35.8,4.59,,14.2,1.108,80.8,,35.7,5.0,,,,,,,,,,,,0,0,0,0,0,0,0,0,0,0,0,0,0,0,0,0,,,,,,0.0,,,,,,,
152,13544,1745676873535,,,,,,,,,,,,,,,,,,,,,,,,,,,,,,,,,,0,0,0,0,0,0,0,0,0,0,0,0,0,0,0,0,,,,,,,,,,,,,
153,13564,1745676873555,17.09,111.0,,-0.03,0.31,1.13,-4.0,0.0,2.0,1.17,1.17,100.0,4489.0,22.5,4.51,,13.84,1.123,80.8,,35.7,5.0,,,,,,,,,,,,0,0,0,0,0,0,0,0,0,0,0,0,0,0,0,0,,,,,,0.0,,,,,,,
154,13584,1745676873575,,,,,,,,,,,,,,,,,,,,,,,0.0,0.0,0.0,0.0,0.0,0.0,0.0,0.0,2.27,,,0,0,0,0,0,0,0,0,0,0,0,0,0,0,0,0,,0.0,,,,,38.991531,-76.937012,0.05,47.2,12.0,2.0,1.8
155,13604,1745676873594,17.72,111.0,,-0.08,0.23,1.08,-3.0,0.0,2.0,1.11,1.17,95.0,4787.0,9.8,3.84,,13.17,1.139,80.8,,35.7,5.0,,,,,,,,,,,,0,0,0,0,0,0,0,0,0,0,0,0,0,0,0,0,,,,,,0.0,,,,,,,
156,13624,1745676873614,,,,,,,,,,,,,,,,,,,,,,,,,,,,,,,,,,0,0,0,0,0,0,0,0,0,0,0,0,0,0,0,0,,,,,,,,,,,,,
157,13644,1745676873634,5.78,108.0,,-0.05,0.21,1.1,-3.0,0.0,2.0,1.12,1.17,96.0,4932.0,1.6,3.42,,13.17,1.139,80.8,,36.1,5.0,,,,,,,,,,,,0,0,0,0,0,0,0,0,0,0,0,0,0,0,0,0,,,,,,0.0,,,,,,,
158,13664,1745676873654,,,,,,,,,,,,,,,,,,,,,,,,,,,,,,,,,,0,0,0,0,0,0,0,0,0,0,0,0,0,0,0,0,,,,,,,,,,,,,
159,13684,1745676873674,9.55,111.0,13.87,-0.05,0.13,1.06,-2.0,0.0,1.0,1.06,1.17,91.0,4932.0,1.6,3.42,15.0,12.47,1.124,80.8,104.0,36.1,5.0,0.0,0.0,0.0,0.0,0.0,0.0,0.0,0.0,2.27,0.0,0.0,0,0,0,0,0,0,0,0,0,0,0,0,0,0,0,0,0.0,0.0,0.0,0.0,0.0,0.0,38.991531,-76.937012,0.04,47.1,12.0,2.0,1.8
160,13704,1745676873694,,,,,,,,,,,,,,,,,,,,,,,,,,,,,,,,,,0,0,0,0,0,0,0,0,0,0,0,0,0,0,0,0,,,,,,,,,,,,,
161,13724,1745676873714,10.81,111.0,,-0.07,0.12,1.04,-2.0,0.0,1.0,1.05,1.17,90.0,5030.0,0.0,2.39,,11.6,1.089,80.8,,36.5,5.0,,,,,,,,,,,,0,0,0,0,0,0,0,0,0,0,0,0,0,0,0,0,,,,,,0.0,,,,,,,
162,13744,1745676873734,,,,,,,,,,,,,,,,,,,,,,,,,,,,,,,,,,0,0,0,0,0,0,0,0,0,0,0,0,0,0,0,0,,,,,,,,,,,,,
163,13764,1745676873754,5.15,111.0,,-0.07,0.13,1.05,-2.0,0.0,1.0,1.06,1.17,91.0,5074.0,0.0,2.32,,11.09,1.033,80.8,,36.5,5.0,,,,,,,,,,,,0,0,0,0,0,0,0,0,0,0,0,0,0,0,0,0,,,,,,0.0,,,,,,,
164,13784,1745676873774,,,,,,,,,,,,,,,,,,,,,,,0.0,0.0,0.0,0.0,0.0,0.0,0.0,0.0,2.26,,,0,0,0,0,0,0,0,0,0,0,0,0,0,0,0,0,,0.0,,,,,38.991531,-76.937012,0.13,47.0,12.0,2.0,1.8
165,13804,1745676873794,7.67,110.0,,-0.05,0.1,1.06,-2.0,0.0,1.0,1.07,1.17,91.0,5011.0,0.0,1.81,,10.88,0.998,80.8,,36.5,5.0,,,,,,,,,,,,0,0,0,0,0,0,0,0,0,0,0,0,0,0,0,0,,,,,,0.0,,,,,,,
166,13824,1745676873814,,,,,,,,,,,,,,,,,,,,,,,,,,,,,,,,,,0,0,0,0,0,0,0,0,0,0,0,0,0,0,0,0,,,,,,,,,,,,,
167,13844,1745676873834,6.41,110.0,,-0.07,0.06,1.02,-2.0,0.0,1.0,1.02,1.17,87.0,4929.0,0.0,1.8,,10.88,0.998,80.8,,35.7,5.0,,,,,,,,,,,,0,0,0,0,0,0,0,0,0,0,0,0,0,0,0,0,,,,,,0.0,,,,,,,
168,13864,1745676873854,,,,,,,,,,,,,,,,,,,,,,,,,,,,,,,,,,0,0,0,0,0,0,0,0,0,0,0,0,0,0,0,0,,,,,,,,,,,,,
169,13884,1745676873874,0.0,109.0,,-0.05,0.11,1.08,-2.0,0.0,1.0,1.09,1.17,93.0,4929.0,0.0,1.8,,10.44,0.974,80.8,,35.7,5.0,0.0,0.0,0.0,0.0,0.0,0.0,0.0,0.0,2.27,,,0,0,0,0,0,0,0,0,0,0,0,0,0,0,0,0,,0.0,,,,0.0,38.991531,-76.937012,0.0,47.0,12.0,2.0,1.8
170,13904,1745676873894,,,,,,,,,,,,,,,,,,,,,,,,,,,,,,,,,,0,0,0,0,0,0,0,0,0,0,0,0,0,0,0,0,,,,,,,,,,,,,
171,13924,1745676873914,3.27,110.0,,-0.1,0.09,1.07,-2.0,0.0,1.0,1.08,1.17,92.0,4810.0,0.0,1.8,,10.22,0.952,80.8,,33.6,5.0,,,,,,,,,,,,0,0,0,0,0,0,0,0,0,0,0,0,0,0,0,0,,,,,,0.0,,,,,,,
172,13944,1745676873934,,,,,,,,,,,,,,,,,,,,,,,,,,,,,,,,,,0,0,0,0,0,0,0,0,0,0,0,0,0,0,0,0,,,,,,,,,,,,,
173,13964,1745676873954,5.78,110.0,,-0.1,-0.06,0.97,-1.0,0.0,0.0,0.98,1.17,84.0,4676.0,0.0,1.8,,10.2,0.936,80.8,,33.6,5.0,,,,,,,,,,,,0,0,0,0,0,0,0,0,0,0,0,0,0,0,0,0,,,,,,0.0,,,,,,,
174,13984,1745676873974,,,,,,,,,,,,,,,,,,,,,,,0.0,0.0,0.0,0.0,0.0,0.0,0.0,0.0,2.27,,,0,0,0,0,0,0,0,0,0,0,0,0,0,0,0,0,,0.0,,,,,38.991531,-76.937012,0.12,46.9,12.0,2.0,1.8
175,14004,1745676873994,6.41,110.0,,-0.09,-0.2,0.88,0.0,0.0,0.0,0.91,1.17,78.0,4528.0,0.0,1.76,,10.45,0.927,80.8,,33.6,5.0,,,,,,,,,,,,0,0,0,0,0,0,0,0,0,0,0,0,0,0,0,0,,,,,,0.0,,,,,,,
176,14024,1745676874008,,,,,,,,,,,,,,,,,,,,,,,,,,,,,,,,,,0,0,0,0,0,0,0,0,0,0,0,0,0,0,0,0,,,,,,,,,,,,,
177,14044,1745676874028,7.67,110.0,,-0.1,-0.35,0.81,1.0,0.0,-1.0,0.89,1.17,76.0,4392.0,6.7,2.78,,10.45,0.927,80.8,,31.2,5.0,,,,,,,,,,,,0,0,0,0,0,0,0,0,0,0,0,0,0,0,0,0,,,,,,0.0,,,,,,,
178,14064,1745676874048,,,,,,,,,,,,,,,,,,,,,,,,,,,,,,,,,,0,0,0,0,0,0,0,0,0,0,0,0,0,0,0,0,,,,,,,,,,,,,
179,14084,1745676874068,9.55,110.0,,-0.15,-0.27,0.87,0.0,0.0,0.0,0.92,1.17,79.0,4392.0,6.7,2.78,,10.81,0.928,80.8,,31.2,5.0,0.0,0.0,0.0,0.0,0.0,0.0,0.0,0.0,2.27,,,0,0,0,0,0,0,0,0,0,0,0,0,0,0,0,0,,0.0,,,,0.0,38.991531,-76.937012,0.0,46.9,12.0,2.0,1.8
180,14104,1745676874092,,,,,,,,,,,,,,,,,,,,,,,,,,,,,,,,,,0,0,0,0,0,0,0,0,0,0,0,0,0,0,0,0,,,,,,,,,,,,,
181,14124,1745676874112,11.44,110.0,,-0.13,-0.03,1.0,-2.0,0.0,1.0,1.01,1.17,86.0,4330.0,7.7,3.62,,11.48,0.935,80.8,,31.4,5.0,,,,,,,,,,,,0,0,0,0,0,0,0,0,0,0,0,0,0,0,0,0,,,,,,0.0,,,,,,,
182,14144,1745676874132,,,,,,,,,,,,,,,,,,,,,,,,,,,,,,,,,,0,0,0,0,0,0,0,0,0,0,0,0,0,0,0,0,,,,,,,,,,,,,
183,14164,1745676874152,12.69,110.0,,-0.09,-0.07,0.95,0.0,0.0,0.0,0.95,1.17,81.0,4317.0,7.8,3.66,,11.88,0.948,80.8,,31.4,5.0,,,,,,,,,,,,0,0,0,0,0,0,0,0,0,0,0,0,0,0,0,0,,,,,,0.0,,,,,,,
184,14184,1745676874172,,,,,,,,,,,,,,,,,,,,,,,0.0,0.0,0.0,0.0,0.0,0.0,0.0,0.0,2.27,,,0,0,0,0,0,0,0,0,0,0,0,0,0,0,0,0,,0.0,,,,,38.991531,-76.937012,0.08,46.8,12.0,2.0,2.8
185,14204,1745676874194,0.0,106.0,,-0.09,-0.25,0.84,1.0,0.0,-1.0,0.88,1.17,75.0,4343.0,7.6,3.67,,12.08,0.956,80.8,,31.4,5.0,,,,,,,,,,,,0,0,0,0,0,0,0,0,0,0,0,0,0,0,0,0,,,,,,0.0,,,,,,,
186,14224,1745676874214,,,,,,,,,,,,,,,,,,,,,,,,,,,,,,,,,,0,0,0,0,0,0,0,0,0,0,0,0,0,0,0,0,,,,,,,,,,,,,
187,14244,1745676874234,0.0,106.0,,-0.12,-0.3,0.82,1.0,0.0,-1.0,0.88,1.17,75.0,4427.0,3.3,3.46,,12.08,0.956,80.8,,32.5,5.0,,,,,,,,,,,,0,0,0,0,0,0,0,0,0,0,0,0,0,0,0,0,,,,,,0.0,,,,,,,
188,14264,1745676874254,,,,,,,,,,,,,,,,,,,,,,,,,,,,,,,,,,0,0,0,0,0,0,0,0,0,0,0,0,0,0,0,0,,,,,,,,,,,,,
189,14284,1745676874274,0.0,105.0,,-0.16,-0.29,0.82,1.0,0.0,-1.0,0.89,1.17,76.0,4427.0,3.3,3.46,,11.83,0.95,80.8,,32.5,5.0,0.0,0.0,0.0,0.0,0.0,0.0,0.0,0.0,2.26,,,0,0,0,0,0,0,0,0,0,0,0,0,0,0,0,0,,0.0,,,,0.0,38.991531,-76.937012,0.08,46.7,12.0,2.0,2.8
190,14304,1745676874294,,,,,,,,,,,,,,,,,,,,,,,,,,,,,,,,,,0,0,0,0,0,0,0,0,0,0,0,0,0,0,0,0,,,,,,,,,,,,,
191,14324,1745676874314,0.0,104.0,,-0.18,-0.27,0.84,0.0,0.0,0.0,0.9,1.17,77.0,4474.0,0.5,2.65,,11.65,0.95,80.8,,33.8,5.0,,,,,,,,,,,,0,0,0,0,0,0,0,0,0,0,0,0,0,0,0,0,,,,,,0.0,,,,,,,
192,14344,1745676874334,,,,,,,,,,,,,,,,,,,,,,,,,,,,,,,,,,0,0,0,0,0,0,0,0,0,0,0,0,0,0,0,0,,,,,,,,,,,,,
193,14364,1745676874354,0.0,107.0,,-0.21,-0.22,0.87,-2.0,0.0,1.0,0.92,1.17,79.0,4461.0,0.0,2.44,,11.21,0.946,80.8,,33.8,5.0,,,,,,,,,,,,0,0,0,0,0,0,0,0,0,0,0,0,0,0,0,0,,,,,,0.0,,,,,,,
194,14384,1745676874374,,,,,,,,,,,,,,,,,,,,,,,0.0,0.0,0.0,0.0,0.0,0.0,0.0,0.0,2.26,,,0,0,0,0,0,0,0,0,0,0,0,0,0,0,0,0,,0.0,,,,,38.991531,-76.937012,0.05,46.7,12.0,2.0,2.8
195,14404,1745676874393,0.0,108.0,,-0.22,-0.03,0.98,-3.0,0.0,1.0,1.01,1.17,86.0,4371.0,0.0,2.43,,10.96,0.94,80.8,,33.8,5.0,,,,,,,,,,,,0,0,0,0,0,0,0,0,0,0,0,0,0,0,0,0,,,,,,0.0,,,,,,,
196,14424,1745676874413,,,,,,,,,,,,,,,,,,,,,,,,,,,,,,,,,,0,0,0,0,0,0,0,0,0,0,0,0,0,0,0,0,,,,,,,,,,,,,
197,14444,1745676874433,0.0,108.0,,-0.18,0.14,1.05,-3.0,0.0,2.0,1.07,1.17,91.0,4331.0,4.9,2.96,,10.96,0.94,80.8,,32.9,5.0,,,,,,,,,,,,0,0,0,0,0,0,0,0,0,0,0,0,0,0,0,0,,,,,,0.0,,,,,,,
198,14464,1745676874453,,,,,,,,,,,,,,,,,,,,,,,,,,,,,,,,,,0,0,0,0,0,0,0,0,0,0,0,0,0,0,0,0,,,,,,,,,,,,,
199,14484,1745676874473,0.0,108.0,,-0.15,-0.09,0.92,-1.0,0.0,0.0,0.93,1.17,80.0,4331.0,4.9,2.96,,11.18,0.94,80.8,,32.9,5.0,0.0,0.0,0.0,0.0,0.0,0.0,0.0,0.0,2.27,,,0,0,0,0,0,0,0,0,0,0,0,0,0,0,0,0,,0.0,,,,0.0,38.991531,-76.937012,0.04,46.6,12.0,2.0,2.8
200,14504,1745676874493,,,,,,,,,,,,,,,,,,,,,,,,,,,,,,,,,,0,0,0,0,0,0,0,0,0,0,0,0,0,0,0,0,,,,,,,,,,,,,
201,14524,1745676874513,0.0,108.0,,-0.18,-0.14,0.9,-1.0,0.0,0.0,0.93,1.17,80.0,4303.0,8.7,3.81,,11.76,0.953,80.8,,32.5,5.0,,,,,,,,,,,,0,0,0,0,0,0,0,0,0,0,0,0,0,0,0,0,,,,,,0.0,,,,,,,
202,14544,1745676874533,,,,,,,,,,,,,,,,,,,,,,,,,,,,,,,,,,0,0,0,0,0,0,0,0,0,0,0,0,0,0,0,0,,,,,,,,,,,,,
203,14564,1745676874553,0.0,109.0,,-0.2,-0.02,0.98,-2.0,0.0,1.0,1.0,1.17,86.0,4352.0,9.1,3.72,,12.04,0.97,80.8,,32.5,5.0,,,,,,,,,,,,0,0,0,0,0,0,0,0,0,0,0,0,0,0,0,0,,,,,,0.0,,,,,,,
204,14584,1745676874573,,,,,,,,,,,,,,,,,,,,,,,0.0,0.0,0.0,0.0,0.0,0.0,0.0,0.0,2.27,,,0,0,0,0,0,0,0,0,0,0,0,0,0,0,0,0,,0.0,,,,,38.991531,-76.937012,0.05,46.6,12.0,2.0,2.8
205,14604,1745676874593,0.0,109.0,,-0.19,0.15,1.07,-3.0,0.0,2.0,1.1,1.17,94.0,4397.0,9.2,3.71,,12.2,0.984,80.8,,32.5,5.0,,,,,,,,,,,,0,0,0,0,0,0,0,0,0,0,0,0,0,0,0,0,,,,,,0.0,,,,,,,
206,14624,1745676874613,,,,,,,,,,,,,,,,,,,,,,,,,,,,,,,,,,0,0,0,0,0,0,0,0,0,0,0,0,0,0,0,0,,,,,,,,,,,,,
207,14644,1745676874633,0.0,108.0,,-0.17,0.29,1.16,-4.0,0.0,2.0,1.21,1.21,100.0,4483.0,8.8,3.7,,12.2,0.984,80.8,,33.3,5.0,,,,,,,,,,,,0,0,0,0,0,0,0,0,0,0,0,0,0,0,0,0,,,,,,0.0,,,,,,,
208,14664,1745676874653,,,,,,,,,,,,,,,,,,,,,,,,,,,,,,,,,,0,0,0,0,0,0,0,0,0,0,0,0,0,0,0,0,,,,,,,,,,,,,
209,14684,1745676874673,0.0,108.0,13.94,-0.18,0.39,1.2,-5.0,0.0,3.0,1.27,1.27,100.0,4483.0,8.8,3.7,15.0,12.39,0.98,80.8,104.0,33.3,5.0,0.0,0.0,0.0,0.0,0.0,0.0,0.0,0.0,2.27,0.0,0.0,0,0,0,0,0,0,0,0,0,0,0,0,0,0,0,0,0.0,0.0,0.0,0.0,0.0,0.0,38.991531,-76.937012,0.1,46.5,12.0,2.0,2.8
210,14704,1745676874693,,,,,,,,,,,,,,,,,,,,,,,,,,,,,,,,,,0,0,0,0,0,0,0,0,0,0,0,0,0,0,0,0,,,,,,,,,,,,,
211,14724,1745676874713,0.13,109.0,,-0.2,0.41,1.2,-5.0,0.0,3.0,1.28,1.28,100.0,4557.0,0.4,3.11,,11.81,0.977,80.8,,35.0,5.0,,,,,,,,,,,,0,0,0,0,0,0,0,0,0,0,0,0,0,0,0,0,,,,,,0.0,,,,,,,
212,14744,1745676874733,,,,,,,,,,,,,,,,,,,,,,,,,,,,,,,,,,0,0,0,0,0,0,0,0,0,0,0,0,0,0,0,0,,,,,,,,,,,,,
213,14764,1745676874753,0.0,109.0,,-0.23,0.36,1.17,-5.0,0.0,3.0,1.25,1.28,97.0,4552.0,0.0,2.44,,11.4,0.978,80.8,,35.0,5.0,,,,,,,,,,,,0,0,0,0,0,0,0,0,0,0,0,0,0,0,0,0,,,,,,0.0,,,,,,,
214,14784,1745676874773,,,,,,,,,,,,,,,,,,,,,,,0.0,0.0,0.0,0.0,0.0,0.0,0.0,0.0,2.27,,,0,0,0,0,0,0,0,0,0,0,0,0,0,0,0,0,,0.0,,,,,38.991531,-76.937012,0.13,46.5,12.0,2.0,2.8
215,14804,1745676874793,0.0,109.0,,-0.25,0.26,1.12,-5.0,0.0,3.0,1.18,1.28,91.0,4528.0,0.0,2.43,,11.13,0.969,80.8,,35.0,5.0,,,,,,,,,,,,0,0,0,0,0,0,0,0,0,0,0,0,0,0,0,0,,,,,,0.0,,,,,,,
216,14824,1745676874813,,,,,,,,,,,,,,,,,,,,,,,,,,,,,,,,,,0,0,0,0,0,0,0,0,0,0,0,0,0,0,0,0,,,,,,,,,,,,,
217,14844,1745676874833,3.27,109.0,,-0.26,0.25,1.12,-6.0,0.0,3.0,1.18,1.28,92.0,4448.0,0.0,2.21,,11.13,0.969,80.8,,34.0,5.0,,,,,,,,,,,,0,0,0,0,0,0,0,0,0,0,0,0,0,0,0,0,,,,,,0.0,,,,,,,
218,14864,1745676874853,,,,,,,,,,,,,,,,,,,,,,,,,,,,,,,,,,0,0,0,0,0,0,0,0,0,0,0,0,0,0,0,0,,,,,,,,,,,,,
219,14884,1745676874873,5.78,109.0,,-0.25,0.36,1.21,-7.0,0.0,4.0,1.29,1.29,100.0,4448.0,0.0,2.21,,10.84,0.962,80.8,,34.0,5.0,0.0,0.0,0.0,0.0,0.0,0.0,0.0,0.0,2.26,,,0,0,0,0,0,0,0,0,0,0,0,0,0,0,0,0,,0.0,,,,0.0,38.991531,-76.937012,0.04,46.4,12.0,2.0,2.8
220,14904,1745676874893,,,,,,,,,,,,,,,,,,,,,,,,,,,,,,,,,,0,0,0,0,0,0,0,0,0,0,0,0,0,0,0,0,,,,,,,,,,,,,
221,14924,1745676874913,7.04,110.0,,-0.2,0.37,1.19,-5.0,0.0,3.0,1.26,1.29,98.0,4312.0,0.0,2.16,,10.65,0.97,80.8,,32.4,5.0,,,,,,,,,,,,0,0,0,0,0,0,0,0,0,0,0,0,0,0,0,0,,,,,,0.0,,,,,,,
222,14944,1745676874933,,,,,,,,,,,,,,,,,,,,,,,,,,,,,,,,,,0,0,0,0,0,0,0,0,0,0,0,0,0,0,0,0,,,,,,,,,,,,,
223,14964,1745676874953,10.18,109.0,,-0.22,0.16,1.1,-4.0,0.0,2.0,1.14,1.29,88.0,4212.0,3.5,2.72,,10.89,0.978,80.8,,32.4,5.0,,,,,,,,,,,,0,0,0,0,0,0,0,0,0,0,0,0,0,0,0,0,,,,,,0.0,,,,,,,
224,14984,1745676874973,,,,,,,,,,,,,,,,,,,,,,,0.0,0.0,0.0,0.0,0.0,0.0,0.0,0.0,2.27,,,0,0,0,0,0,0,0,0,0,0,0,0,0,0,0,0,,0.0,,,,,38.991531,-76.937012,0.05,46.3,12.0,2.0,2.8
225,15004,1745676874993,12.07,109.0,,-0.16,0.29,1.16,-4.0,0.0,2.0,1.2,1.29,93.0,4118.0,6.6,3.64,,11.37,0.989,80.8,,32.4,5.0,,,,,,,,,,,,0,0,0,0,0,0,0,0,0,0,0,0,0,0,0,0,,,,,,0.0,,,,,,,
226,15024,1745676875005,,,,,,,,,,,,,,,,,,,,,,,,,,,,,,,,,,0,0,0,0,0,0,0,0,0,0,0,0,0,0,0,0,,,,,,,,,,,,,
227,15044,1745676875025,14.58,110.0,,-0.18,0.15,1.11,-4.0,0.0,2.0,1.13,1.29,88.0,4089.0,6.7,3.67,,11.37,0.989,80.8,,32.6,5.0,,,,,,,,,,,,0,0,0,0,0,0,0,0,0,0,0,0,0,0,0,0,,,,,,0.0,,,,,,,
228,15064,1745676875045,,,,,,,,,,,,,,,,,,,,,,,,,,,,,,,,,,0,0,0,0,0,0,0,0,0,0,0,0,0,0,0,0,,,,,,,,,,,,,
229,15084,1745676875065,15.84,110.0,,-0.13,0.2,1.09,-3.0,0.0,1.0,1.11,1.29,86.0,4089.0,6.7,3.67,,11.75,1.002,80.8,,32.6,5.0,0.0,0.0,0.0,0.0,0.0,0.0,0.0,0.0,2.27,,,0,0,0,0,0,0,0,0,0,0,0,0,0,0,0,0,,0.0,,,,0.0,38.991531,-76.937012,0.05,46.2,14.0,2.0,1.6
230,15104,1745676875094,,,,,,,,,,,,,,,,,,,,,,,,,,,,,,,,,,0,0,0,0,0,0,0,0,0,0,0,0,0,0,0,0,,,,,,,,,,,,,
231,15124,1745676875114,17.09,109.0,,-0.14,0.22,1.17,-3.0,0.0,2.0,1.2,1.29,93.0,4036.0,6.6,3.7,,12.0,1.022,80.8,,32.2,5.0,,,,,,,,,,,,0,0,0,0,0,0,0,0,0,0,0,0,0,0,0,0,,,,,,0.0,,,,,,,
232,15144,1745676875134,,,,,,,,,,,,,,,,,,,,,,,,,,,,,,,,,,0,0,0,0,0,0,0,0,0,0,0,0,0,0,0,0,,,,,,,,,,,,,
233,15164,1745676875154,17.72,110.0,,-0.13,0.07,1.06,-1.0,0.0,1.0,1.07,1.29,83.0,4092.0,6.5,3.7,,12.11,1.03,80.8,,32.2,5.0,,,,,,,,,,,,0,0,0,0,0,0,0,0,0,0,0,0,0,0,0,0,,,,,,0.0,,,,,,,
234,15184,1745676875174,,,,,,,,,,,,,,,,,,,,,,,0.0,0.0,0.0,0.0,0.0,0.0,0.0,0.0,2.27,,,0,0,0,0,0,0,0,0,0,0,0,0,0,0,0,0,,0.0,,,,,38.991531,-76.937012,0.04,46.1,14.0,2.0,1.6
235,15204,1745676875193,17.72,109.0,,-0.13,0.23,1.18,-3.0,0.0,2.0,1.21,1.29,94.0,4120.0,4.4,3.68,,12.0,1.053,80.8,,32.2,5.0,,,,,,,,,,,,0,0,0,0,0,0,0,0,0,0,0,0,0,0,0,0,,,,,,0.0,,,,,,,
236,15224,1745676875213,,,,,,,,,,,,,,,,,,,,,,,,,,,,,,,,,,0,0,0,0,0,0,0,0,0,0,0,0,0,0,0,0,,,,,,,,,,,,,
237,15244,1745676875233,17.72,110.0,,-0.12,0.07,1.04,-1.0,0.0,1.0,1.05,1.29,82.0,4160.0,1.8,3.0,,12.0,1.053,80.8,,34.2,5.0,,,,,,,,,,,,0,0,0,0,0,0,0,0,0,0,0,0,0,0,0,0,,,,,,0.0,,,,,,,
238,15264,1745676875253,,,,,,,,,,,,,,,,,,,,,,,,,,,,,,,,,,0,0,0,0,0,0,0,0,0,0,0,0,0,0,0,0,,,,,,,,,,,,,
239,15284,1745676875273,17.72,110.0,,-0.13,0.14,1.14,-3.0,0.0,2.0,1.15,1.29,89.0,4160.0,1.8,3.0,,11.76,1.046,80.8,,34.2,5.0,0.0,0.0,0.0,0.0,0.0,0.0,0.0,0.0,2.27,,,0,0,0,0,0,0,0,0,0,0,0,0,0,0,0,0,,0.0,,,,0.0,38.991531,-76.937012,0.12,46.1,14.0,2.0,1.6
240,15304,1745676875293,,,,,,,,,,,,,,,,,,,,,,,,,,,,,,,,,,0,0,0,0,0,0,0,0,0,0,0,0,0,0,0,0,,,,,,,,,,,,,
241,15324,1745676875313,18.35,110.0,,-0.14,-0.01,1.02,-1.0,0.0,1.0,1.03,1.29,80.0,4112.0,1.4,2.82,,11.5,1.023,80.8,,32.9,5.0,,,,,,,,,,,,0,0,0,0,0,0,0,0,0,0,0,0,0,0,0,0,,,,,,0.0,,,,,,,
242,15344,1745676875333,,,,,,,,,,,,,,,,,,,,,,,,,,,,,,,,,,0,0,0,0,0,0,0,0,0,0,0,0,0,0,0,0,,,,,,,,,,,,,
243,15364,1745676875353,18.98,110.0,,-0.12,-0.02,1.03,0.0,0.0,0.0,1.04,1.29,80.0,4009.0,1.6,2.79,,11.54,1.025,80.8,,32.9,5.0,,,,,,,,,,,,0,0,0,0,0,0,0,0,0,0,0,0,0,0,0,0,,,,,,0.0,,,,,,,
244,15384,1745676875373,,,,,,,,,,,,,,,,,,,,,,,0.0,0.0,0.0,0.0,0.0,0.0,0.0,0.0,2.27,,,0,0,0,0,0,0,0,0,0,0,0,0,0,0,0,0,,0.0,,,,,38.991531,-76.937019,0.08,46.0,14.0,2.0,1.6
245,15404,1745676875392,18.35,110.0,,-0.12,-0.04,1.04,0.0,0.0,0.0,1.05,1.29,81.0,3755.0,1.6,3.08,,11.54,1.034,80.8,,32.9,5.0,,,,,,,,,,,,0,0,0,0,0,0,0,0,0,0,0,0,0,0,0,0,,,,,,0.0,,,,,,,
246,15424,1745676875412,,,,,,,,,,,,,,,,,,,,,,,,,,,,,,,,,,0,0,0,0,0,0,0,0,0,0,0,0,0,0,0,0,,,,,,,,,,,,,
247,15444,1745676875432,20.24,110.0,,-0.13,-0.05,1.07,0.0,0.0,0.0,1.08,1.29,84.0,3592.0,1.4,3.13,,11.54,1.034,80.8,,33.1,5.0,,,,,,,,,,,,0,0,0,0,0,0,0,0,0,0,0,0,0,0,0,0,,,,,,0.0,,,,,,,
248,15464,1745676875452,,,,,,,,,,,,,,,,,,,,,,,,,,,,,,,,,,0,0,0,0,0,0,0,0,0,0,0,0,0,0,0,0,,,,,,,,,,,,,
249,15484,1745676875472,20.24,110.0,,-0.11,0.05,1.07,-1.0,0.0,1.0,1.07,1.29,83.0,3592.0,1.4,3.13,,11.63,1.045,80.8,,33.1,5.0,0.0,0.0,0.0,0.0,0.0,0.0,0.0,0.0,2.27,,,0,0,0,0,0,0,0,0,0,0,0,0,0,0,0,0,,0.0,,,,0.0,38.991531,-76.937019,0.04,45.9,14.0,2.0,1.6
250,15504,1745676875492,,,,,,,,,,,,,,,,,,,,,,,,,,,,,,,,,,0,0,0,0,0,0,0,0,0,0,0,0,0,0,0,0,,,,,,,,,,,,,
251,15524,1745676875512,20.24,109.0,,-0.1,0.0,1.01,0.0,0.0,0.0,1.01,1.29,79.0,3526.0,1.2,3.26,,11.88,1.087,80.8,,33.4,5.0,,,,,,,,,,,,0,0,0,0,0,0,0,0,0,0,0,0,0,0,0,0,,,,,,0.0,,,,,,,
252,15544,1745676875532,,,,,,,,,,,,,,,,,,,,,,,,,,,,,,,,,,0,0,0,0,0,0,0,0,0,0,0,0,0,0,0,0,,,,,,,,,,,,,
253,15564,1745676875552,20.86,110.0,,-0.11,-0.04,1.08,0.0,0.0,1.0,1.08,1.29,84.0,3441.0,1.1,3.35,,12.09,1.145,80.8,,33.4,5.0,,,,,,,,,,,,0,0,0,0,0,0,0,0,0,0,0,0,0,0,0,0,,,,,,0.0,,,,,,,
254,15584,1745676875572,,,,,,,,,,,,,,,,,,,,,,,0.0,0.0,0.0,0.0,0.0,0.0,0.0,0.0,2.27,,,0,0,0,0,0,0,0,0,0,0,0,0,0,0,0,0,,0.0,,,,,38.991531,-76.937019,0.05,45.8,14.0,2.0,1.6
255,15604,1745676875592,20.86,110.0,,-0.11,-0.01,1.0,0.0,0.0,0.0,1.01,1.29,78.0,3290.0,1.2,3.38,,12.19,1.166,80.8,,33.4,5.0,,,,,,,,,,,,0,0,0,0,0,0,0,0,0,0,0,0,0,0,0,0,,,,,,0.0,,,,,,,
256,15624,1745676875612,,,,,,,,,,,,,,,,,,,,,,,,,,,,,,,,,,0,0,0,0,0,0,0,0,0,0,0,0,0,0,0,0,,,,,,,,,,,,,
257,15644,1745676875632,21.49,110.0,,-0.08,0.06,0.95,0.0,0.0,1.0,0.96,1.29,75.0,3193.0,1.1,3.52,,12.19,1.166,80.8,,32.6,5.0,,,,,,,,,,,,0,0,0,0,0,0,0,0,0,0,0,0,0,0,0,0,,,,,,0.0,,,,,,,
258,15664,1745676875652,,,,,,,,,,,,,,,,,,,,,,,,,,,,,,,,,,0,0,0,0,0,0,0,0,0,0,0,0,0,0,0,0,,,,,,,,,,,,,
259,15684,1745676875672,22.75,111.0,13.99,-0.07,0.02,1.03,-1.0,0.0,1.0,1.04,1.29,81.0,3193.0,1.1,3.52,15.0,12.27,1.143,80.8,102.0,32.6,5.0,0.0,0.0,0.0,0.0,0.0,0.0,0.0,0.0,2.27,0.0,0.0,0,0,0,0,0,0,0,0,0,0,0,0,0,0,0,0,0.0,0.0,0.0,0.0,0.0,0.0,38.991531,-76.937019,0.1,45.7,14.0,2.0,1.6
260,15704,1745676875692,,,,,,,,,,,,,,,,,,,,,,,,,,,,,,,,,,0,0,0,0,0,0,0,0,0,0,0,0,0,0,0,0,,,,,,,,,,,,,
261,15724,1745676875712,22.75,110.0,,-0.08,-0.05,1.12,-1.0,0.0,1.0,1.12,1.29,87.0,3098.0,4.6,3.79,,12.55,1.108,80.8,,32.9,5.0,,,,,,,,,,,,0,0,0,0,0,0,0,0,0,0,0,0,0,0,0,0,,,,,,0.0,,,,,,,
262,15744,1745676875732,,,,,,,,,,,,,,,,,,,,,,,,,,,,,,,,,,0,0,0,0,0,0,0,0,0,0,0,0,0,0,0,0,,,,,,,,,,,,,
263,15764,1745676875752,22.75,110.0,,-0.11,-0.11,1.15,0.0,0.0,0.0,1.16,1.29,90.0,3055.0,6.5,3.78,,12.88,1.088,80.8,,32.9,5.0,,,,,,,,,,,,0,0,0,0,0,0,0,0,0,0,0,0,0,0,0,0,,,,,,0.0,,,,,,,
264,15784,1745676875772,,,,,,,,,,,,,,,,,,,,,,,0.0,0.0,0.0,0.0,0.0,0.0,0.0,0.0,2.27,,,0,0,0,0,0,0,0,0,0,0,0,0,0,0,0,0,,0.0,,,,,38.991531,-76.937019,0.04,45.6,14.0,2.0,1.6
265,15804,1745676875792,23.38,110.0,,-0.09,-0.0,1.04,0.0,0.0,0.0,1.05,1.29,81.0,3304.0,6.8,3.8,,13.01,1.081,80.8,,32.9,5.0,,,,,,,,,,,,0,0,0,0,0,0,0,0,0,0,0,0,0,0,0,0,,,,,,0.0,,,,,,,
266,15824,1745676875812,,,,,,,,,,,,,,,,,,,,,,,,,,,,,,,,,,0,0,0,0,0,0,0,0,0,0,0,0,0,0,0,0,,,,,,,,,,,,,
267,15844,1745676875832,24.01,110.0,,-0.12,-0.12,1.09,0.0,0.0,0.0,1.1,1.29,86.0,3500.0,7.0,3.82,,13.01,1.081,80.8,,33.4,5.0,,,,,,,,,,,,0,0,0,0,0,0,0,0,0,0,0,0,0,0,0,0,,,,,,0.0,,,,,,,
268,15864,1745676875852,,,,,,,,,,,,,,,,,,,,,,,,,,,,,,,,,,0,0,0,0,0,0,0,0,0,0,0,0,0,0,0,0,,,,,,,,,,,,,
269,15884,1745676875872,23.38,110.0,,-0.08,-0.0,1.09,-1.0,0.0,1.0,1.1,1.29,85.0,3500.0,7.0,3.82,,12.99,1.112,80.8,,33.4,5.0,0.0,0.0,0.0,0.0,0.0,0.0,0.0,0.0,2.27,,,0,0,0,0,0,0,0,0,0,0,0,0,0,0,0,0,,0.0,,,,0.0,38.991531,-76.937019,0.0,45.5,14.0,2.0,1.6
270,15904,1745676875894,,,,,,,,,,,,,,,,,,,,,,,,,,,,,,,,,,0,0,0,0,0,0,0,0,0,0,0,0,0,0,0,0,,,,,,,,,,,,,
271,15924,1745676875914,22.75,110.0,,-0.09,-0.08,1.06,0.0,0.0,0.0,1.06,1.29,82.0,3437.0,6.6,3.81,,12.99,1.099,80.8,,32.5,5.0,,,,,,,,,,,,0,0,0,0,0,0,0,0,0,0,0,0,0,0,0,0,,,,,,0.0,,,,,,,
272,15944,1745676875934,,,,,,,,,,,,,,,,,,,,,,,,,,,,,,,,,,0,0,0,0,0,0,0,0,0,0,0,0,0,0,0,0,,,,,,,,,,,,,
273,15964,1745676875954,23.38,110.0,,-0.07,0.02,1.04,-1.0,0.0,1.0,1.04,1.29,81.0,3364.0,2.7,3.77,,12.87,1.07,80.8,,32.5,5.0,,,,,,,,,,,,0,0,0,0,0,0,0,0,0,0,0,0,0,0,0,0,,,,,,0.0,,,,,,,
274,15984,1745676875974,,,,,,,,,,,,,,,,,,,,,,,0.0,0.0,0.0,0.0,0.0,0.0,0.0,0.0,2.27,,,0,0,0,0,0,0,0,0,0,0,0,0,0,0,0,0,,0.0,,,,,38.991531,-76.937019,0.08,45.4,14.0,2.0,1.6
275,16004,1745676875994,22.75,111.0,,-0.08,-0.05,1.11,-1.0,0.0,1.0,1.12,1.29,87.0,3200.0,0.4,3.49,,12.68,1.043,80.8,,32.5,5.0,,,,,,,,,,,,0,0,0,0,0,0,0,0,0,0,0,0,0,0,0,0,,,,,,0.0,,,,,,,
276,16024,1745676876004,,,,,,,,,,,,,,,,,,,,,,,,,,,,,,,,,,0,0,0,0,0,0,0,0,0,0,0,0,0,0,0,0,,,,,,,,,,,,,
277,16044,1745676876024,23.38,111.0,,-0.09,-0.08,1.16,0.0,0.0,0.0,1.17,1.29,91.0,3056.0,0.0,3.67,,12.68,1.043,80.8,,32.7,5.0,,,,,,,,,,,,0,0,0,0,0,0,0,0,0,0,0,0,0,0,0,0,,,,,,0.0,,,,,,,
278,16064,1745676876044,,,,,,,,,,,,,,,,,,,,,,,,,,,,,,,,,,0,0,0,0,0,0,0,0,0,0,0,0,0,0,0,0,,,,,,,,,,,,,
279,16084,1745676876064,23.38,110.0,,-0.1,-0.1,1.2,0.0,0.0,0.0,1.21,1.29,94.0,3056.0,0.0,3.67,,12.57,1.044,80.8,,32.7,5.0,0.0,0.0,0.0,0.0,0.0,0.0,0.0,0.0,2.27,,,0,0,0,0,0,0,0,0,0,0,0,0,0,0,0,0,,0.0,,,,0.0,38.991531,-76.937019,0.13,45.3,14.0,2.0,1.6
280,16104,1745676876092,,,,,,,,,,,,,,,,,,,,,,,,,,,,,,,,,,0,0,0,0,0,0,0,0,0,0,0,0,0,0,0,0,,,,,,,,,,,,,
281,16124,1745676876112,23.38,110.0,,-0.1,-0.09,1.17,0.0,0.0,0.0,1.18,1.29,91.0,2915.0,0.0,3.74,,12.57,1.068,80.8,,32.4,5.0,,,,,,,,,,,,0,0,0,0,0,0,0,0,0,0,0,0,0,0,0,0,,,,,,0.0,,,,,,,
282,16144,1745676876132,,,,,,,,,,,,,,,,,,,,,,,,,,,,,,,,,,0,0,0,0,0,0,0,0,0,0,0,0,0,0,0,0,,,,,,,,,,,,,
283,16164,1745676876152,22.75,110.0,,-0.1,-0.05,1.16,0.0,0.0,0.0,1.16,1.29,90.0,2784.0,0.0,3.72,,12.69,1.104,80.8,,32.4,5.0,,,,,,,,,,,,0,0,0,0,0,0,0,0,0,0,0,0,0,0,0,0,,,,,,0.0,,,,,,,
284,16184,1745676876172,,,,,,,,,,,,,,,,,,,,,,,0.0,0.0,0.0,0.0,0.0,0.0,0.0,0.0,2.27,,,0,0,0,0,0,0,0,0,0,0,0,0,0,0,0,0,,0.0,,,,,38.991531,-76.937019,0.15,45.2,14.0,2.0,1.6
285,16204,1745676876194,22.75,110.0,,-0.1,-0.05,1.12,0.0,0.0,0.0,1.13,1.29,88.0,2622.0,7.3,3.9,,13.13,1.142,80.8,,32.4,5.0,,,,,,,,,,,,0,0,0,0,0,0,0,0,0,0,0,0,0,0,0,0,,,,,,0.0,,,,,,,
286,16224,1745676876214,,,,,,,,,,,,,,,,,,,,,,,,,,,,,,,,,,0,0,0,0,0,0,0,0,0,0,0,0,0,0,0,0,,,,,,,,,,,,,
287,16244,1745676876234,22.75,111.0,,-0.1,-0.02,1.11,-1.0,0.0,1.0,1.11,1.29,86.0,2505.0,9.7,3.97,,13.13,1.142,80.8,,32.3,5.0,,,,,,,,,,,,0,0,0,0,0,0,0,0,0,0,0,0,0,0,0,0,,,,,,0.0,,,,,,,
288,16264,1745676876254,,,,,,,,,,,,,,,,,,,,,,,,,,,,,,,,,,0,0,0,0,0,0,0,0,0,0,0,0,0,0,0,0,,,,,,,,,,,,,
289,16284,1745676876274,22.12,111.0,,-0.09,-0.03,1.1,0.0,0.0,0.0,1.11,1.29,86.0,2505.0,9.7,3.97,,13.63,1.168,80.8,,32.3,5.0,0.0,0.0,0.0,0.0,0.0,0.0,0.0,0.0,2.27,,,0,0,0,0,0,0,0,0,0,0,0,0,0,0,0,0,,0.0,,,,0.0,38.991531,-76.937019,0.05,45.2,14.0,2.0,1.6
290,16304,1745676876292,,,,,,,,,,,,,,,,,,,,,,,,,,,,,,,,,,0,0,0,0,0,0,0,0,0,0,0,0,0,0,0,0,,,,,,,,,,,,,
291,16324,1745676876312,22.12,110.0,,-0.1,-0.02,1.08,0.0,0.0,0.0,1.09,1.29,84.0,2420.0,9.9,3.83,,13.8,1.19,80.8,,32.3,5.0,,,,,,,,,,,,0,0,0,0,0,0,0,0,0,0,0,0,0,0,0,0,,,,,,0.0,,,,,,,
292,16344,1745676876332,,,,,,,,,,,,,,,,,,,,,,,,,,,,,,,,,,0,0,0,0,0,0,0,0,0,0,0,0,0,0,0,0,,,,,,,,,,,,,
293,16364,1745676876352,21.49,110.0,,-0.1,-0.01,1.06,-1.0,0.0,1.0,1.07,1.29,83.0,2358.0,10.1,3.83,,13.87,1.199,80.8,,32.3,5.0,,,,,,,,,,,,0,0,0,0,0,0,0,0,0,0,0,0,0,0,0,0,,,,,,0.0,,,,,,,
294,16384,1745676876372,,,,,,,,,,,,,,,,,,,,,,,0.0,0.0,0.0,0.0,0.0,0.0,0.0,0.0,2.27,,,0,0,0,0,0,0,0,0,0,0,0,0,0,0,0,0,,0.0,,,,,38.991531,-76.937019,0.08,45.1,14.0,2.0,1.6
295,16404,1745676876391,21.49,110.0,,-0.09,-0.0,1.06,-1.0,0.0,1.0,1.07,1.29,83.0,2349.0,10.0,3.82,,13.91,1.189,80.8,,32.3,5.0,,,,,,,,,,,,0,0,0,0,0,0,0,0,0,0,0,0,0,0,0,0,,,,,,0.0,,,,,,,
296,16424,1745676876411,,,,,,,,,,,,,,,,,,,,,,,,,,,,,,,,,,0,0,0,0,0,0,0,0,0,0,0,0,0,0,0,0,,,,,,,,,,,,,
297,16444,1745676876431,21.49,111.0,,-0.11,-0.0,1.06,-1.0,0.0,1.0,1.07,1.29,83.0,2408.0,9.9,3.79,,13.91,1.189,80.8,,32.5,5.0,,,,,,,,,,,,0,0,0,0,0,0,0,0,0,0,0,0,0,0,0,0,,,,,,0.0,,,,,,,
298,16464,1745676876451,,,,,,,,,,,,,,,,,,,,,,,,,,,,,,,,,,0,0,0,0,0,0,0,0,0,0,0,0,0,0,0,0,,,,,,,,,,,,,
299,16484,1745676876471,20.86,110.0,,-0.1,0.0,1.05,0.0,0.0,1.0,1.05,1.29,82.0,2408.0,9.9,3.79,,13.9,1.183,80.8,,32.5,5.0,0.0,0.0,0.0,0.0,0.0,0.0,0.0,0.0,2.27,,,0,0,0,0,0,0,0,0,0,0,0,0,0,0,0,0,,0.0,,,,0.0,38.991531,-76.937019,0.11,45.1,14.0,2.0,1.6
300,16504,1745676876491,,,,,,,,,,,,,,,,,,,,,,,,,,,,,,,,,,0,0,0,0,0,0,0,0,0,0,0,0,0,0,0,0,,,,,,,,,,,,,
301,16524,1745676876511,19.61,110.0,,-0.08,0.0,1.04,0.0,0.0,1.0,1.04,1.29,81.0,2348.0,9.9,3.79,,13.94,1.196,80.8,,31.8,5.0,,,,,,,,,,,,0,0,0,0,0,0,0,0,0,0,0,0,0,0,0,0,,,,,,0.0,,,,,,,
302,16544,1745676876531,,,,,,,,,,,,,,,,,,,,,,,,,,,,,,,,,,0,0,0,0,0,0,0,0,0,0,0,0,0,0,0,0,,,,,,,,,,,,,
303,16564,1745676876551,19.61,110.0,,-0.09,-0.0,1.04,0.0,0.0,1.0,1.05,1.29,81.0,2339.0,9.9,3.79,,14.0,1.217,80.8,,31.8,5.0,,,,,,,,,,,,0,0,0,0,0,0,0,0,0,0,0,0,0,0,0,0,,,,,,0.0,,,,,,,
304,16584,1745676876571,,,,,,,,,,,,,,,,,,,,,,,0.0,0.0,0.0,0.0,0.0,0.0,0.0,0.0,2.27,,,0,0,0,0,0,0,0,0,0,0,0,0,0,0,0,0,,0.0,,,,,38.991531,-76.937019,0.04,45.0,14.0,2.0,1.6
305,16604,1745676876591,20.86,110.0,,-0.1,-0.01,1.05,0.0,0.0,1.0,1.05,1.29,82.0,2295.0,9.9,3.78,,14.02,1.237,80.8,,31.8,5.0,,,,,,,,,,,,0,0,0,0,0,0,0,0,0,0,0,0,0,0,0,0,,,,,,0.0,,,,,,,
306,16624,1745676876611,,,,,,,,,,,,,,,,,,,,,,,,,,,,,,,,,,0,0,0,0,0,0,0,0,0,0,0,0,0,0,0,0,,,,,,,,,,,,,
307,16644,1745676876631,20.86,111.0,,-0.09,-0.01,1.05,0.0,0.0,0.0,1.06,1.29,82.0,2300.0,9.9,3.76,,14.02,1.237,80.8,,30.9,5.0,,,,,,,,,,,,0,0,0,0,0,0,0,0,0,0,0,0,0,0,0,0,,,,,,0.0,,,,,,,
308,16664,1745676876651,,,,,,,,,,,,,,,,,,,,,,,,,,,,,,,,,,0,0,0,0,0,0,0,0,0,0,0,0,0,0,0,0,,,,,,,,,,,,,
309,16684,1745676876671,20.86,111.0,14.02,-0.09,-0.02,1.04,0.0,0.0,0.0,1.04,1.29,81.0,2300.0,9.9,3.76,15.0,13.99,1.252,80.8,102.0,30.9,5.0,0.0,0.0,0.0,0.0,0.0,0.0,0.0,0.0,2.27,0.0,0.0,0,0,0,0,0,0,0,0,0,0,0,0,0,0,0,0,0.0,0.0,0.0,0.0,0.0,0.0,38.991531,-76.937019,0.04,45.0,14.0,2.0,1.6
310,16704,1745676876694,,,,,,,,,,,,,,,,,,,,,,,,,,,,,,,,,,0,0,0,0,0,0,0,0,0,0,0,0,0,0,0,0,,,,,,,,,,,,,
311,16724,1745676876714,21.49,111.0,,-0.1,-0.03,1.04,0.0,0.0,0.0,1.05,1.29,81.0,2561.0,25.5,4.96,,14.23,1.253,80.8,,32.8,5.0,,,,,,,,,,,,0,0,0,0,0,0,0,0,0,0,0,0,0,0,0,0,,,,,,0.0,,,,,,,
312,16744,1745676876734,,,,,,,,,,,,,,,,,,,,,,,,,,,,,,,,,,0,0,0,0,0,0,0,0,0,0,0,0,0,0,0,0,,,,,,,,,,,,,
313,16764,1745676876754,19.61,110.0,,-0.1,-0.07,1.12,0.0,0.0,0.0,1.13,1.29,88.0,2769.0,33.3,5.13,,14.36,1.256,80.8,,32.8,5.0,,,,,,,,,,,,0,0,0,0,0,0,0,0,0,0,0,0,0,0,0,0,,,,,,0.0,,,,,,,
314,16784,1745676876774,,,,,,,,,,,,,,,,,,,,,,,0.0,0.0,0.0,0.0,0.0,0.0,0.0,0.0,2.27,,,0,0,0,0,0,0,0,0,0,0,0,0,0,0,0,0,,0.0,,,,,38.991531,-76.937019,0.05,44.9,14.0,2.0,1.6
315,16804,1745676876793,20.24,110.0,,-0.13,-0.14,1.17,0.0,0.0,0.0,1.19,1.29,92.0,3018.0,33.8,4.71,,14.27,1.249,80.8,,32.8,5.0,,,,,,,,,,,,0,0,0,0,0,0,0,0,0,0,0,0,0,0,0,0,,,,,,0.0,,,,,,,
316,16824,1745676876813,,,,,,,,,,,,,,,,,,,,,,,,,,,,,,,,,,0,0,0,0,0,0,0,0,0,0,0,0,0,0,0,0,,,,,,,,,,,,,
317,16844,1745676876833,19.61,111.0,,-0.12,-0.05,1.06,1.0,0.0,0.0,1.07,1.29,83.0,3399.0,28.0,4.74,,14.27,1.249,80.8,,32.9,5.0,,,,,,,,,,,,0,0,0,0,0,0,0,0,0,0,0,0,0,0,0,0,,,,,,0.0,,,,,,,
318,16864,1745676876853,,,,,,,,,,,,,,,,,,,,,,,,,,,,,,,,,,0,0,0,0,0,0,0,0,0,0,0,0,0,0,0,0,,,,,,,,,,,,,
319,16884,1745676876873,16.47,111.0,,-0.14,-0.16,1.09,1.0,0.0,-1.0,1.11,1.29,86.0,3399.0,28.0,4.74,,14.15,1.214,80.8,,32.9,5.0,0.0,0.0,0.0,0.0,0.0,0.0,0.0,0.0,2.27,,,0,0,0,0,0,0,0,0,0,0,0,0,0,0,0,0,,0.0,,,,0.0,38.991531,-76.937019,0.04,44.9,14.0,2.0,1.6
320,16904,1745676876893,,,,,,,,,,,,,,,,,,,,,,,,,,,,,,,,,,0,0,0,0,0,0,0,0,0,0,0,0,0,0,0,0,,,,,,,,,,,,,
321,16924,1745676876913,17.72,110.0,,-0.12,-0.15,1.08,0.0,0.0,0.0,1.1,1.29,85.0,3585.0,10.3,4.07,,13.72,1.196,80.8,,34.1,5.0,,,,,,,,,,,,0,0,0,0,0,0,0,0,0,0,0,0,0,0,0,0,,,,,,0.0,,,,,,,
322,16944,1745676876933,,,,,,,,,,,,,,,,,,,,,,,,,,,,,,,,,,0,0,0,0,0,0,0,0,0,0,0,0,0,0,0,0,,,,,,,,,,,,,
323,16964,1745676876953,13.32,110.0,,-0.1,-0.14,1.06,0.0,0.0,0.0,1.07,1.29,83.0,3819.0,1.4,3.38,,13.01,1.196,80.8,,34.1,5.0,,,,,,,,,,,,0,0,0,0,0,0,0,0,0,0,0,0,0,0,0,0,,,,,,0.0,,,,,,,
324,16984,1745676876973,,,,,,,,,,,,,,,,,,,,,,,0.0,0.0,0.0,0.0,0.0,0.0,0.0,0.0,2.27,,,0,0,0,0,0,0,0,0,0,0,0,0,0,0,0,0,,0.0,,,,,38.991531,-76.937019,0.04,44.1,14.0,2.0,1.6
325,17004,1745676876993,14.58,111.0,,-0.09,-0.16,1.04,1.0,0.0,0.0,1.06,1.29,82.0,3826.0,0.0,2.77,,12.41,1.182,80.8,,34.1,5.0,,,,,,,,,,,,0,0,0,0,0,0,0,0,0,0,0,0,0,0,0,0,,,,,,0.0,,,,,,,
326,17024,1745676877005,,,,,,,,,,,,,,,,,,,,,,,,,,,,,,,,,,0,0,0,0,0,0,0,0,0,0,0,0,0,0,0,0,,,,,,,,,,,,,
327,17044,1745676877025,16.47,111.0,,-0.09,-0.12,1.04,1.0,0.0,0.0,1.06,1.29,82.0,3802.0,0.0,2.79,,12.41,1.182,80.8,,34.0,5.0,,,,,,,,,,,,0,0,0,0,0,0,0,0,0,0,0,0,0,0,0,0,,,,,,0.0,,,,,,,
328,17064,1745676877045,,,,,,,,,,,,,,,,,,,,,,,,,,,,,,,,,,0,0,0,0,0,0,0,0,0,0,0,0,0,0,0,0,,,,,,,,,,,,,
329,17084,1745676877065,15.84,110.0,,-0.11,-0.13,1.04,1.0,0.0,0.0,1.05,1.29,82.0,3802.0,0.0,2.79,,12.09,1.152,80.8,,34.0,5.0,0.0,0.0,0.0,0.0,0.0,0.0,0.0,0.0,2.28,,,0,0,0,0,0,0,0,0,0,0,0,0,0,0,0,0,,0.0,,,,0.0,38.991531,-76.937019,0.15,43.8,14.0,2.0,1.6
330,17104,1745676877091,,,,,,,,,,,,,,,,,,,,,,,,,,,,,,,,,,0,0,0,0,0,0,0,0,0,0,0,0,0,0,0,0,,,,,,,,,,,,,
331,17124,1745676877111,16.47,110.0,,-0.12,-0.18,1.05,1.0,0.0,0.0,1.07,1.29,83.0,3673.0,0.0,2.81,,11.93,1.118,80.8,,32.6,5.0,,,,,,,,,,,,0,0,0,0,0,0,0,0,0,0,0,0,0,0,0,0,,,,,,0.0,,,,,,,
332,17144,1745676877131,,,,,,,,,,,,,,,,,,,,,,,,,,,,,,,,,,0,0,0,0,0,0,0,0,0,0,0,0,0,0,0,0,,,,,,,,,,,,,
333,17164,1745676877151,17.09,110.0,,-0.11,-0.13,1.08,0.0,0.0,0.0,1.09,1.29,85.0,3625.0,0.0,2.94,,11.81,1.102,80.8,,32.6,5.0,,,,,,,,,,,,0,0,0,0,0,0,0,0,0,0,0,0,0,0,0,0,,,,,,0.0,,,,,,,
334,17184,1745676877171,,,,,,,,,,,,,,,,,,,,,,,0.0,0.0,0.0,0.0,0.0,0.0,0.0,0.0,2.27,,,0,0,0,0,0,0,0,0,0,0,0,0,0,0,0,0,,0.0,,,,,38.991531,-76.937019,0.0,43.4,14.0,2.0,1.6
335,17204,1745676877191,14.58,109.0,,-0.08,-0.11,1.02,0.0,0.0,0.0,1.02,1.29,80.0,3492.0,0.0,3.06,,11.84,1.088,80.8,,32.6,5.0,,,,,,,,,,,,0,0,0,0,0,0,0,0,0,0,0,0,0,0,0,0,,,,,,0.0,,,,,,,
336,17224,1745676877211,,,,,,,,,,,,,,,,,,,,,,,,,,,,,,,,,,0,0,0,0,0,0,0,0,0,0,0,0,0,0,0,0,,,,,,,,,,,,,
337,17244,1745676877231,15.84,111.0,,-0.11,-0.2,1.08,0.0,0.0,0.0,1.1,1.29,85.0,3392.0,4.0,3.63,,11.84,1.088,80.8,,32.5,5.0,,,,,,,,,,,,0,0,0,0,0,0,0,0,0,0,0,0,0,0,0,0,,,,,,0.0,,,,,,,
338,17264,1745676877251,,,,,,,,,,,,,,,,,,,,,,,,,,,,,,,,,,0,0,0,0,0,0,0,0,0,0,0,0,0,0,0,0,,,,,,,,,,,,,
339,17284,1745676877271,17.72,110.0,,-0.08,-0.07,0.97,0.0,0.0,0.0,0.98,1.29,76.0,3392.0,4.0,3.63,,12.17,1.079,80.8,,32.5,5.0,0.0,0.0,0.0,0.0,0.0,0.0,0.0,0.0,2.27,,,0,0,0,0,0,0,0,0,0,0,0,0,0,0,0,0,,0.0,,,,0.0,38.991531,-76.937027,0.05,43.1,14.0,2.0,1.6
340,17304,1745676877293,,,,,,,,,,,,,,,,,,,,,,,,,,,,,,,,,,0,0,0,0,0,0,0,0,0,0,0,0,0,0,0,0,,,,,,,,,,,,,
341,17324,1745676877313,15.21,111.0,,-0.08,-0.09,1.05,-1.0,0.0,1.0,1.06,1.29,82.0,3275.0,5.1,3.74,,12.57,1.07,80.8,,32.6,5.0,,,,,,,,,,,,0,0,0,0,0,0,0,0,0,0,0,0,0,0,0,0,,,,,,0.0,,,,,,,
342,17344,1745676877333,,,,,,,,,,,,,,,,,,,,,,,,,,,,,,,,,,0,0,0,0,0,0,0,0,0,0,0,0,0,0,0,0,,,,,,,,,,,,,
343,17364,1745676877353,16.47,111.0,,-0.1,-0.15,1.05,0.0,0.0,0.0,1.07,1.29,83.0,3311.0,5.5,3.76,,12.76,1.054,80.8,,32.6,5.0,,,,,,,,,,,,0,0,0,0,0,0,0,0,0,0,0,0,0,0,0,0,,,,,,0.0,,,,,,,
344,17384,1745676877373,,,,,,,,,,,,,,,,,,,,,,,0.0,0.0,0.0,0.0,0.0,0.0,0.0,0.0,2.27,,,0,0,0,0,0,0,0,0,0,0,0,0,0,0,0,0,,0.0,,,,,38.991531,-76.937027,0.0,42.9,14.0,2.0,1.6
345,17404,1745676877392,13.95,110.0,,-0.07,-0.03,0.98,0.0,0.0,0.0,0.98,1.29,76.0,3266.0,5.5,3.75,,12.91,1.017,80.8,,32.6,5.0,,,,,,,,,,,,0,0,0,0,0,0,0,0,0,0,0,0,0,0,0,0,,,,,,0.0,,,,,,,
346,17424,1745676877412,,,,,,,,,,,,,,,,,,,,,,,,,,,,,,,,,,0,0,0,0,0,0,0,0,0,0,0,0,0,0,0,0,,,,,,,,,,,,,
347,17444,1745676877432,13.32,111.0,,-0.08,-0.09,1.06,-1.0,0.0,1.0,1.07,1.29,83.0,3222.0,5.2,3.76,,12.91,1.017,80.8,,32.9,5.0,,,,,,,,,,,,0,0,0,0,0,0,0,0,0,0,0,0,0,0,0,0,,,,,,0.0,,,,,,,
348,17464,1745676877452,,,,,,,,,,,,,,,,,,,,,,,,,,,,,,,,,,0,0,0,0,0,0,0,0,0,0,0,0,0,0,0,0,,,,,,,,,,,,,
349,17484,1745676877472,14.58,110.0,,-0.09,-0.1,1.01,0.0,0.0,0.0,1.02,1.29,79.0,3222.0,5.2,3.76,,12.96,0.989,80.8,,32.9,5.0,0.0,0.0,0.0,0.0,0.0,0.0,0.0,0.0,2.27,,,0,0,0,0,0,0,0,0,0,0,0,0,0,0,0,0,,0.0,,,,0.0,38.991531,-76.937027,0.04,42.8,14.0,2.0,1.6
350,17504,1745676877494,,,,,,,,,,,,,,,,,,,,,,,,,,,,,,,,,,0,0,0,0,0,0,0,0,0,0,0,0,0,0,0,0,,,,,,,,,,,,,
351,17524,1745676877514,15.84,110.0,,-0.08,-0.01,0.99,-1.0,0.0,1.0,1.0,1.29,77.0,3321.0,4.9,3.75,,12.97,0.981,80.8,,33.2,5.0,,,,,,,,,,,,0,0,0,0,0,0,0,0,0,0,0,0,0,0,0,0,,,,,,0.0,,,,,,,
352,17544,1745676877534,,,,,,,,,,,,,,,,,,,,,,,,,,,,,,,,,,0,0,0,0,0,0,0,0,0,0,0,0,0,0,0,0,,,,,,,,,,,,,
353,17564,1745676877554,16.47,111.0,,-0.1,-0.12,1.06,0.0,0.0,0.0,1.07,1.29,83.0,3266.0,4.6,3.73,,13.0,0.991,80.8,,33.2,5.0,,,,,,,,,,,,0,0,0,0,0,0,0,0,0,0,0,0,0,0,0,0,,,,,,0.0,,,,,,,
354,17584,1745676877574,,,,,,,,,,,,,,,,,,,,,,,0.0,0.0,0.0,0.0,0.0,0.0,0.0,0.0,2.27,,,0,0,0,0,0,0,0,0,0,0,0,0,0,0,0,0,,0.0,,,,,38.991531,-76.937027,0.05,42.6,14.0,2.0,1.6
355,17604,1745676877592,17.09,110.0,,-0.08,-0.02,0.96,0.0,0.0,0.0,0.96,1.29,75.0,3300.0,4.7,3.74,,12.97,1.005,80.8,,33.2,5.0,,,,,,,,,,,,0,0,0,0,0,0,0,0,0,0,0,0,0,0,0,0,,,,,,0.0,,,,,,,
356,17624,1745676877612,,,,,,,,,,,,,,,,,,,,,,,,,,,,,,,,,,0,0,0,0,0,0,0,0,0,0,0,0,0,0,0,0,,,,,,,,,,,,,
357,17644,1745676877632,14.58,109.0,,-0.07,-0.04,1.04,-1.0,0.0,1.0,1.05,1.29,81.0,3310.0,10.9,4.06,,12.97,1.005,80.8,,32.7,5.0,,,,,,,,,,,,0,0,0,0,0,0,0,0,0,0,0,0,0,0,0,0,,,,,,0.0,,,,,,,
358,17664,1745676877652,,,,,,,,,,,,,,,,,,,,,,,,,,,,,,,,,,0,0,0,0,0,0,0,0,0,0,0,0,0,0,0,0,,,,,,,,,,,,,
359,17684,1745676877672,15.84,110.0,14.02,-0.08,-0.06,0.99,0.0,0.0,0.0,1.0,1.29,77.0,3310.0,10.9,4.06,15.0,13.19,1.021,80.8,104.0,32.7,5.0,0.0,0.0,0.0,0.0,0.0,0.0,0.0,0.0,2.27,0.0,0.0,0,0,0,0,0,0,0,0,0,0,0,0,0,0,0,0,0.0,0.0,0.0,0.0,0.0,0.0,38.991531,-76.937027,0.0,42.5,14.0,2.0,1.6
360,17704,1745676877692,,,,,,,,,,,,,,,,,,,,,,,,,,,,,,,,,,0,0,0,0,0,0,0,0,0,0,0,0,0,0,0,0,,,,,,,,,,,,,
361,17724,1745676877712,16.47,110.0,,-0.1,-0.09,1.04,-1.0,0.0,0.0,1.04,1.29,81.0,3412.0,12.2,4.12,,13.41,1.021,80.8,,33.1,5.0,,,,,,,,,,,,0,0,0,0,0,0,0,0,0,0,0,0,0,0,0,0,,,,,,0.0,,,,,,,
362,17744,1745676877732,,,,,,,,,,,,,,,,,,,,,,,,,,,,,,,,,,0,0,0,0,0,0,0,0,0,0,0,0,0,0,0,0,,,,,,,,,,,,,
363,17764,1745676877752,17.09,111.0,,-0.09,0.05,1.03,-1.0,0.0,1.0,1.04,1.29,81.0,3565.0,12.1,4.0,,13.4,1.019,80.8,,33.1,5.0,,,,,,,,,,,,0,0,0,0,0,0,0,0,0,0,0,0,0,0,0,0,,,,,,0.0,,,,,,,
364,17784,1745676877772,,,,,,,,,,,,,,,,,,,,,,,0.0,0.0,0.0,0.0,0.0,0.0,0.0,0.0,2.27,,,0,0,0,0,0,0,0,0,0,0,0,0,0,0,0,0,,0.0,,,,,38.991531,-76.937027,0.08,42.2,14.0,2.0,1.6
365,17804,1745676877792,17.09,110.0,,-0.09,0.03,1.06,-1.0,0.0,1.0,1.06,1.29,83.0,3665.0,7.4,3.89,,13.27,1.023,80.8,,33.1,5.0,,,,,,,,,,,,0,0,0,0,0,0,0,0,0,0,0,0,0,0,0,0,,,,,,0.0,,,,,,,
366,17824,1745676877812,,,,,,,,,,,,,,,,,,,,,,,,,,,,,,,,,,0,0,0,0,0,0,0,0,0,0,0,0,0,0,0,0,,,,,,,,,,,,,
367,17844,1745676877832,18.35,111.0,,-0.08,-0.01,1.05,-1.0,0.0,1.0,1.06,1.29,82.0,3848.0,4.6,3.71,,13.27,1.023,80.8,,34.1,5.0,,,,,,,,,,,,0,0,0,0,0,0,0,0,0,0,0,0,0,0,0,0,,,,,,0.0,,,,,,,
368,17864,1745676877852,,,,,,,,,,,,,,,,,,,,,,,,,,,,,,,,,,0,0,0,0,0,0,0,0,0,0,0,0,0,0,0,0,,,,,,,,,,,,,
369,17884,1745676877872,18.35,110.0,,-0.09,-0.02,1.04,-1.0,0.0,1.0,1.04,1.29,81.0,3848.0,4.6,3.71,,12.85,1.036,80.8,,34.1,5.0,0.0,0.0,0.0,0.0,0.0,0.0,0.0,0.0,2.27,,,0,0,0,0,0,0,0,0,0,0,0,0,0,0,0,0,,0.0,,,,0.0,38.991531,-76.937027,0.08,41.9,14.0,2.0,1.6
370,17904,1745676877892,,,,,,,,,,,,,,,,,,,,,,,,,,,,,,,,,,0,0,0,0,0,0,0,0,0,0,0,0,0,0,0,0,,,,,,,,,,,,,
371,17924,1745676877912,18.98,111.0,,-0.09,0.01,1.04,0.0,0.0,0.0,1.04,1.29,81.0,3750.0,4.0,3.67,,12.55,1.058,80.8,,33.6,5.0,,,,,,,,,,,,0,0,0,0,0,0,0,0,0,0,0,0,0,0,0,0,,,,,,0.0,,,,,,,
372,17944,1745676877932,,,,,,,,,,,,,,,,,,,,,,,,,,,,,,,,,,0,0,0,0,0,0,0,0,0,0,0,0,0,0,0,0,,,,,,,,,,,,,
373,17964,1745676877952,18.98,111.0,,-0.08,0.02,1.04,0.0,0.0,0.0,1.04,1.29,81.0,3679.0,3.5,3.6,,12.4,1.078,80.8,,33.6,5.0,,,,,,,,,,,,0,0,0,0,0,0,0,0,0,0,0,0,0,0,0,0,,,,,,0.0,,,,,,,
374,17984,1745676877972,,,,,,,,,,,,,,,,,,,,,,,0.0,0.0,0.0,0.0,0.0,0.0,0.0,0.0,2.28,,,0,0,0,0,0,0,0,0,0,0,0,0,0,0,0,0,,0.0,,,,,38.991531,-76.937027,0.07,41.6,14.0,2.0,1.6
375,18004,1745676877992,18.98,111.0,,-0.09,-0.05,1.0,1.0,0.0,0.0,1.0,1.29,78.0,3491.0,3.4,3.59,,12.44,1.095,80.8,,33.6,5.0,,,,,,,,,,,,0,0,0,0,0,0,0,0,0,0,0,0,0,0,0,0,,,,,,0.0,,,,,,,
376,18024,1745676878006,,,,,,,,,,,,,,,,,,,,,,,,,,,,,,,,,,0,0,0,0,0,0,0,0,0,0,0,0,0,0,0,0,,,,,,,,,,,,,
377,18044,1745676878026,20.24,112.0,,-0.07,0.01,1.01,0.0,0.0,1.0,1.01,1.29,79.0,3381.0,3.4,3.62,,12.44,1.095,80.8,,32.7,5.0,,,,,,,,,,,,0,0,0,0,0,0,0,0,0,0,0,0,0,0,0,0,,,,,,0.0,,,,,,,
378,18064,1745676878046,,,,,,,,,,,,,,,,,,,,,,,,,,,,,,,,,,0,0,0,0,0,0,0,0,0,0,0,0,0,0,0,0,,,,,,,,,,,,,
379,18084,1745676878066,19.61,110.0,,-0.1,-0.08,1.08,0.0,0.0,0.0,1.09,1.29,85.0,3381.0,3.4,3.62,,12.57,1.101,80.8,,32.7,5.0,0.0,0.0,0.0,0.0,0.0,0.0,0.0,0.0,2.27,,,0,0,0,0,0,0,0,0,0,0,0,0,0,0,0,0,,0.0,,,,0.0,38.991531,-76.937027,0.0,41.4,14.0,2.0,1.6
