,Interval,Utc,FrontBP,SteerAng,Battery,AccelX,AccelY,AccelZ,Yaw,Pitch,Roll,Gsum,GsumMax,GsumPct,RPM,TPS,InjectorPW,Baro,MAP,Lambda,IAT,EngineTemp,EOP,EOT,WSFR,WSFL,WSRR,WSRL,TCSet,TCSlip,TCComp,TCCut,Analog8,OilTemp,AA_On,ThermLF1,ThermLF2,ThermRR1,ThermRR2,ThermLF3,ThermLF4,ThermLF5,ThermLF6,ThermLF7,ThermLF8,ThermRR3,ThermRR4,ThermRR5,ThermRR6,ThermRR7,ThermRR8,AA_LowDrag,Gear,AA_On1,AA_LowDrag1,Fuel_Mix,AA_Packages,Latitude,Longitude,Speed,Altitude,GPSSats,GPSQual,GPSDOP
0,44267,1745686674757,0.0,117.0,,-0.09,-0.07,1.0,-1.0,0.0,0.0,1.01,1.01,100.0,8771.0,3.6,4.11,,10.26,0.966,73.6,,36.3,5.0,,,,,,,,,,,,0,0,0,0,0,0,0,0,0,0,0,0,0,0,0,0,,,,,,0.0,,,,,,,
1,44287,1745686674777,,,,,,,,,,,,,,,,,,,,,,,,,,,,,,,,,,0,0,0,0,0,0,0,0,0,0,0,0,0,0,0,0,,,,,,,,,,,,,
2,44307,1745686674797,0.0,118.0,,-0.13,-0.17,1.0,-1.0,0.0,0.0,1.02,1.02,100.0,9406.0,1.1,1.4,,8.47,0.815,73.6,,36.3,5.0,,,,,,,,,,,,0,0,0,0,0,0,0,0,0,0,0,0,0,0,0,0,,,,,,0.0,,,,,,,
3,44327,1745686674815,,,,,,,,,,,,,,,,,,,,,,,,,,,,,,,,,,0,0,0,0,0,0,0,0,0,0,0,0,0,0,0,0,,,,,,,,,,,,,
4,44347,1745686674835,0.0,119.0,,-0.1,-0.14,1.02,-1.0,0.0,0.0,1.03,1.03,100.0,9710.0,1.3,1.4,,7.33,0.764,73.6,,37.9,5.0,0.0,4.0,0.0,0.0,0.0,0.0,0.0,0.0,2.26,,,0,0,0,0,0,0,0,0,0,0,0,0,0,0,0,0,,0.0,,,,0.0,38.991573,-76.937027,0.08,36.9,14.0,2.0,1.8
5,44367,1745686674855,,,,,,,,,,,,,,,,,,,,,,,,,,,,,,,,,,0,0,0,0,0,0,0,0,0,0,0,0,0,0,0,0,,,,,,,,,,,,,
6,44387,1745686674875,0.0,119.0,,-0.12,-0.17,1.02,0.0,0.0,0.0,1.04,1.04,100.0,9778.0,1.2,1.4,,7.33,0.764,73.6,,37.9,5.0,,,,,,,,,,,,0,0,0,0,0,0,0,0,0,0,0,0,0,0,0,0,,,,,,0.0,,,,,,,
7,44407,1745686674895,,,,,,,,,,,,,,,,,,,,,,,,,,,,,,,,,,0,0,0,0,0,0,0,0,0,0,0,0,0,0,0,0,,,,,,,,,,,,,
8,44427,1745686674916,0.0,119.0,,-0.09,-0.1,0.98,0.0,0.0,0.0,0.99,1.04,96.0,9778.0,1.2,1.4,,6.63,0.813,73.6,,37.0,5.0,,,,,,,,,,,,0,0,0,0,0,0,0,0,0,0,0,0,0,0,0,0,,,,,,0.0,,,,,,,
9,44447,1745686674936,,,,,,,,,,,,,,,,,,,,,,,0.0,4.0,0.0,0.0,0.0,0.0,0.0,0.0,2.26,,,0,0,0,0,0,0,0,0,0,0,0,0,0,0,0,0,,0.0,,,,,38.991573,-76.937027,0.0,36.9,14.0,2.0,1.8
10,44467,1745686674956,0.0,119.0,,-0.1,-0.17,1.0,0.0,0.0,0.0,1.02,1.04,98.0,9696.0,1.2,1.4,,6.2,0.83,73.6,,37.0,5.0,,,,,,,,,,,,0,0,0,0,0,0,0,0,0,0,0,0,0,0,0,0,,,,,,0.0,,,,,,,
11,44487,1745686674976,,,,,,,,,,,,,,,,,,,,,,,,,,,,,,,,,,0,0,0,0,0,0,0,0,0,0,0,0,0,0,0,0,,,,,,,,,,,,,
12,44507,1745686674996,0.0,118.0,,-0.1,-0.07,0.94,0.0,0.0,0.0,0.95,1.04,92.0,9560.0,1.2,1.4,,5.88,0.82,73.6,,37.0,5.0,,,,,,,,,,,,0,0,0,0,0,0,0,0,0,0,0,0,0,0,0,0,,,,,,0.0,,,,,,,
13,44527,1745686675010,,,,,,,,,,,,,,,,,,,,,,,,,,,,,,,,,,0,0,0,0,0,0,0,0,0,0,0,0,0,0,0,0,,,,,,,,,,,,,
14,44547,1745686675030,0.0,119.0,,-0.07,-0.1,0.98,0.0,0.0,0.0,0.99,1.04,95.0,9378.0,0.6,1.4,,5.67,0.813,73.6,,35.5,5.0,0.0,4.0,0.0,0.0,0.0,0.0,0.0,0.0,2.26,,,0,0,0,0,0,0,0,0,0,0,0,0,0,0,0,0,,0.0,,,,0.0,38.991573,-76.937027,0.11,36.9,14.0,2.0,1.8
15,44567,1745686675050,,,,,,,,,,,,,,,,,,,,,,,,,,,,,,,,,,0,0,0,0,0,0,0,0,0,0,0,0,0,0,0,0,,,,,,,,,,,,,
16,44587,1745686675070,0.0,119.0,,-0.06,-0.03,0.95,-1.0,0.0,0.0,0.96,1.04,92.0,9157.0,0.0,1.4,,5.67,0.813,73.6,,35.5,5.0,,,,,,,,,,,,0,0,0,0,0,0,0,0,0,0,0,0,0,0,0,0,,,,,,0.0,,,,,,,
17,44607,1745686675090,,,,,,,,,,,,,,,,,,,,,,,,,,,,,,,,,,0,0,0,0,0,0,0,0,0,0,0,0,0,0,0,0,,,,,,,,,,,,,
18,44627,1745686675116,0.0,118.0,,-0.06,-0.09,0.95,-1.0,0.0,0.0,0.96,1.04,93.0,9157.0,0.0,1.4,,5.44,0.824,73.6,,33.5,5.0,,,,,,,,,,,,0,0,0,0,0,0,0,0,0,0,0,0,0,0,0,0,,,,,,0.0,,,,,,,
19,44647,1745686675136,,,,,,,,,,,,,,,,,,,,,,,0.0,4.0,0.0,0.0,0.0,0.0,0.0,0.0,2.27,,,0,0,0,0,0,0,0,0,0,0,0,0,0,0,0,0,,0.0,,,,,38.991573,-76.937027,0.06,36.9,14.0,2.0,1.8
20,44667,1745686675156,0.0,120.0,,-0.04,-0.03,0.95,-1.0,0.0,0.0,0.95,1.04,92.0,8905.0,0.0,1.4,,5.36,0.833,73.6,,33.5,5.0,,,,,,,,,,,,0,0,0,0,0,0,0,0,0,0,0,0,0,0,0,0,,,,,,0.0,,,,,,,
21,44687,1745686675176,,,,,,,,,,,,,,,,,,,,,,,,,,,,,,,,,,0,0,0,0,0,0,0,0,0,0,0,0,0,0,0,0,,,,,,,,,,,,,
22,44707,1745686675196,0.0,120.0,,-0.01,-0.11,1.0,0.0,0.0,0.0,1.01,1.04,97.0,8680.0,4.2,1.4,,5.64,0.83,73.6,,33.5,5.0,,,,,,,,,,,,0,0,0,0,0,0,0,0,0,0,0,0,0,0,0,0,,,,,,0.0,,,,,,,
23,44727,1745686675216,,,,,,,,,,,,,,,,,,,,,,,,,,,,,,,,,,0,0,0,0,0,0,0,0,0,0,0,0,0,0,0,0,,,,,,,,,,,,,
24,44747,1745686675236,0.0,119.0,14.1,-0.05,-0.03,0.99,-1.0,0.0,0.0,0.99,1.04,96.0,8480.0,31.3,2.8,15.0,8.26,0.832,73.6,88.0,31.7,5.0,0.0,4.0,0.0,0.0,0.0,0.0,0.0,0.0,2.26,0.0,0.0,0,0,0,0,0,0,0,0,0,0,0,0,0,0,0,0,0.0,0.0,0.0,0.0,0.0,0.0,38.991573,-76.937027,0.04,36.9,14.0,2.0,1.8
25,44767,1745686675256,,,,,,,,,,,,,,,,,,,,,,,,,,,,,,,,,,0,0,0,0,0,0,0,0,0,0,0,0,0,0,0,0,,,,,,,,,,,,,
26,44787,1745686675276,0.0,119.0,,-0.05,-0.17,1.0,0.0,0.0,0.0,1.01,1.04,98.0,8514.0,59.2,5.02,,8.26,0.832,73.6,,31.7,5.0,,,,,,,,,,,,0,0,0,0,0,0,0,0,0,0,0,0,0,0,0,0,,,,,,0.0,,,,,,,
27,44807,1745686675296,,,,,,,,,,,,,,,,,,,,,,,,,,,,,,,,,,0,0,0,0,0,0,0,0,0,0,0,0,0,0,0,0,,,,,,,,,,,,,
28,44827,1745686675316,0.0,119.0,,-0.03,-0.11,1.01,0.0,0.0,0.0,1.02,1.04,98.0,8514.0,59.2,5.02,,11.56,0.852,73.6,,31.9,5.0,,,,,,,,,,,,0,0,0,0,0,0,0,0,0,0,0,0,0,0,0,0,,,,,,0.0,,,,,,,
29,44847,1745686675336,,,,,,,,,,,,,,,,,,,,,,,0.0,0.0,0.0,0.0,0.0,0.0,0.0,0.0,2.26,,,0,0,0,0,0,0,0,0,0,0,0,0,0,0,0,0,,0.0,,,,,38.991573,-76.937027,0.24,36.8,14.0,2.0,1.8
30,44867,1745686675356,0.0,120.0,,-0.06,-0.01,0.94,-1.0,0.0,0.0,0.94,1.04,91.0,8532.0,77.0,5.93,,13.59,0.977,73.6,,31.9,5.0,,,,,,,,,,,,0,0,0,0,0,0,0,0,0,0,0,0,0,0,0,0,,,,,,0.0,,,,,,,
31,44887,1745686675376,,,,,,,,,,,,,,,,,,,,,,,,,,,,,,,,,,0,0,0,0,0,0,0,0,0,0,0,0,0,0,0,0,,,,,,,,,,,,,
32,44907,1745686675396,0.0,120.0,,-0.07,0.05,0.93,0.0,0.0,1.0,0.94,1.04,90.0,9087.0,71.9,5.63,,13.56,1.231,73.6,,31.9,5.0,,,,,,,,,,,,0,0,0,0,0,0,0,0,0,0,0,0,0,0,0,0,,,,,,0.0,,,,,,,
33,44927,1745686675416,,,,,,,,,,,,,,,,,,,,,,,,,,,,,,,,,,0,0,0,0,0,0,0,0,0,0,0,0,0,0,0,0,,,,,,,,,,,,,
34,44947,1745686675436,0.0,119.0,,-0.08,0.14,0.94,-1.0,0.0,1.0,0.96,1.04,92.0,10211.0,31.1,5.11,,11.92,1.227,73.6,,36.4,5.0,0.0,0.0,0.0,0.0,0.0,0.0,0.0,0.0,2.26,,,0,0,0,0,0,0,0,0,0,0,0,0,0,0,0,0,,0.0,,,,0.0,38.991573,-76.937027,0.2,36.8,14.0,2.0,1.8
35,44967,1745686675456,,,,,,,,,,,,,,,,,,,,,,,,,,,,,,,,,,0,0,0,0,0,0,0,0,0,0,0,0,0,0,0,0,,,,,,,,,,,,,
36,44987,1745686675476,0.0,119.0,,-0.04,0.27,0.94,-1.0,0.0,0.0,0.98,1.04,95.0,11205.0,5.4,2.72,,11.92,1.227,73.6,,36.4,5.0,,,,,,,,,,,,0,0,0,0,0,0,0,0,0,0,0,0,0,0,0,0,,,,,,0.0,,,,,,,
37,45007,1745686675496,,,,,,,,,,,,,,,,,,,,,,,,,,,,,,,,,,0,0,0,0,0,0,0,0,0,0,0,0,0,0,0,0,,,,,,,,,,,,,
38,45027,1745686675516,0.0,120.0,,-0.05,0.32,0.91,-2.0,0.0,0.0,0.97,1.04,93.0,11205.0,5.4,2.72,,9.18,1.023,73.6,,40.8,5.0,,,,,,,,,,,,0,0,0,0,0,0,0,0,0,0,0,0,0,0,0,0,,,,,,0.0,,,,,,,
39,45047,1745686675536,,,,,,,,,,,,,,,,,,,,,,,0.0,1.0,0.0,0.0,0.0,0.0,0.0,0.0,2.26,,,0,0,0,0,0,0,0,0,0,0,0,0,0,0,0,0,,0.0,,,,,38.991573,-76.937027,0.16,36.8,14.0,2.0,1.8
40,45067,1745686675556,0.0,120.0,,-0.05,0.29,0.92,-1.0,-1.0,0.0,0.97,1.04,93.0,11494.0,0.0,1.4,,7.2,0.858,73.6,,40.8,5.0,,,,,,,,,,,,0,0,0,0,0,0,0,0,0,0,0,0,0,0,0,0,,,,,,0.0,,,,,,,
41,45087,1745686675576,,,,,,,,,,,,,,,,,,,,,,,,,,,,,,,,,,0,0,0,0,0,0,0,0,0,0,0,0,0,0,0,0,,,,,,,,,,,,,
42,45107,1745686675596,0.0,120.0,,-0.07,0.19,0.93,-1.0,-1.0,0.0,0.95,1.04,91.0,11363.0,0.0,1.4,,6.0,0.819,73.6,,40.8,5.0,,,,,,,,,,,,0,0,0,0,0,0,0,0,0,0,0,0,0,0,0,0,,,,,,0.0,,,,,,,
43,45127,1745686675618,,,,,,,,,,,,,,,,,,,,,,,,,,,,,,,,,,0,0,0,0,0,0,0,0,0,0,0,0,0,0,0,0,,,,,,,,,,,,,
44,45147,1745686675638,0.0,120.0,,-0.09,0.29,0.94,-1.0,-1.0,1.0,0.98,1.04,95.0,11078.0,0.0,1.4,,5.38,0.863,73.6,,38.3,5.0,0.0,1.0,0.0,0.0,0.0,0.0,0.0,0.0,2.27,,,0,0,0,0,0,0,0,0,0,0,0,0,0,0,0,0,,0.0,,,,0.0,38.991573,-76.937027,0.09,36.8,14.0,2.0,1.8
45,45167,1745686675658,,,,,,,,,,,,,,,,,,,,,,,,,,,,,,,,,,0,0,0,0,0,0,0,0,0,0,0,0,0,0,0,0,,,,,,,,,,,,,
46,45187,1745686675678,0.0,120.0,,-0.02,0.18,0.95,-2.0,-1.0,1.0,0.97,1.04,93.0,10691.0,0.0,1.4,,5.38,0.863,73.6,,38.3,5.0,,,,,,,,,,,,0,0,0,0,0,0,0,0,0,0,0,0,0,0,0,0,,,,,,0.0,,,,,,,
47,45207,1745686675698,,,,,,,,,,,,,,,,,,,,,,,,,,,,,,,,,,0,0,0,0,0,0,0,0,0,0,0,0,0,0,0,0,,,,,,,,,,,,,
48,45227,1745686675716,0.0,119.0,,-0.05,0.19,1.01,-1.0,-1.0,1.0,1.03,1.04,99.0,10691.0,0.0,1.4,,5.03,0.875,73.6,,36.1,5.0,,,,,,,,,,,,0,0,0,0,0,0,0,0,0,0,0,0,0,0,0,0,,,,,,0.0,,,,,,,
49,45247,1745686675736,,,,,,,,,,,,,,,,,,,,,,,0.0,1.0,0.0,0.0,0.0,0.0,0.0,0.0,2.27,,,0,0,0,0,0,0,0,0,0,0,0,0,0,0,0,0,,0.0,,,,,38.991573,-76.937027,0.15,36.8,14.0,2.0,1.8
50,45267,1745686675756,0.0,120.0,,-0.0,0.17,0.99,0.0,-1.0,0.0,1.0,1.04,97.0,10304.0,0.0,1.4,,4.84,0.856,73.6,,36.1,5.0,,,,,,,,,,,,0,0,0,0,0,0,0,0,0,0,0,0,0,0,0,0,,,,,,0.0,,,,,,,
51,45287,1745686675776,,,,,,,,,,,,,,,,,,,,,,,,,,,,,,,,,,0,0,0,0,0,0,0,0,0,0,0,0,0,0,0,0,,,,,,,,,,,,,
52,45307,1745686675796,0.0,119.0,,-0.03,0.14,1.01,-1.0,0.0,1.0,1.02,1.04,99.0,9853.0,0.0,1.4,,4.73,0.862,73.6,,36.1,5.0,,,,,,,,,,,,0,0,0,0,0,0,0,0,0,0,0,0,0,0,0,0,,,,,,0.0,,,,,,,
53,45327,1745686675816,,,,,,,,,,,,,,,,,,,,,,,,,,,,,,,,,,0,0,0,0,0,0,0,0,0,0,0,0,0,0,0,0,,,,,,,,,,,,,
54,45347,1745686675836,0.0,120.0,,-0.05,0.01,1.03,1.0,-1.0,0.0,1.03,1.04,100.0,9459.0,0.0,1.4,,4.73,0.9,73.6,,34.4,5.0,0.0,1.0,0.0,0.0,0.0,0.0,0.0,0.0,2.26,,,0,0,0,0,0,0,0,0,0,0,0,0,0,0,0,0,,0.0,,,,0.0,38.991573,-76.937027,0.07,36.8,14.0,2.0,1.8
55,45367,1745686675856,,,,,,,,,,,,,,,,,,,,,,,,,,,,,,,,,,0,0,0,0,0,0,0,0,0,0,0,0,0,0,0,0,,,,,,,,,,,,,
56,45387,1745686675876,0.0,119.0,,-0.04,0.32,1.01,1.0,-1.0,0.0,1.06,1.06,100.0,9087.0,0.0,1.4,,4.73,0.9,73.6,,34.4,5.0,,,,,,,,,,,,0,0,0,0,0,0,0,0,0,0,0,0,0,0,0,0,,,,,,0.0,,,,,,,
57,45407,1745686675896,,,,,,,,,,,,,,,,,,,,,,,,,,,,,,,,,,0,0,0,0,0,0,0,0,0,0,0,0,0,0,0,0,,,,,,,,,,,,,
58,45427,1745686675915,0.0,119.0,,-0.04,0.56,1.0,1.0,-1.0,0.0,1.15,1.15,100.0,9087.0,0.0,1.4,,4.79,0.929,73.6,,33.4,5.0,,,,,,,,,,,,0,0,0,0,0,0,0,0,0,0,0,0,0,0,0,0,,,,,,0.0,,,,,,,
59,45447,1745686675935,,,,,,,,,,,,,,,,,,,,,,,0.0,1.0,0.0,0.0,0.0,0.0,0.0,0.0,2.26,,,0,0,0,0,0,0,0,0,0,0,0,0,0,0,0,0,,0.0,,,,,38.991573,-76.937027,0.05,36.8,14.0,2.0,1.8
60,45467,1745686675955,0.0,119.0,,0.01,0.42,1.02,1.0,0.0,0.0,1.11,1.15,96.0,8751.0,0.0,1.4,,4.83,0.922,73.6,,33.4,5.0,,,,,,,,,,,,0,0,0,0,0,0,0,0,0,0,0,0,0,0,0,0,,,,,,0.0,,,,,,,
61,45487,1745686675975,,,,,,,,,,,,,,,,,,,,,,,,,,,,,,,,,,0,0,0,0,0,0,0,0,0,0,0,0,0,0,0,0,,,,,,,,,,,,,
62,45507,1745686675995,0.0,119.0,,-0.04,0.33,0.98,2.0,-1.0,0.0,1.04,1.15,90.0,8368.0,0.0,1.4,,4.93,0.916,73.6,,33.4,5.0,,,,,,,,,,,,0,0,0,0,0,0,0,0,0,0,0,0,0,0,0,0,,,,,,0.0,,,,,,,
63,45527,1745686676009,,,,,,,,,,,,,,,,,,,,,,,,,,,,,,,,,,0,0,0,0,0,0,0,0,0,0,0,0,0,0,0,0,,,,,,,,,,,,,
64,45547,1745686676029,0.0,120.0,,-0.06,0.32,0.98,2.0,-1.0,0.0,1.03,1.15,90.0,8022.0,0.0,1.4,,5.11,0.933,73.6,,33.0,5.0,0.0,1.0,0.0,0.0,0.0,0.0,0.0,0.0,2.26,,,0,0,0,0,0,0,0,0,0,0,0,0,0,0,0,0,,0.0,,,,0.0,38.991573,-76.937027,0.07,36.8,14.0,2.0,1.8
65,45567,1745686676049,,,,,,,,,,,,,,,,,,,,,,,,,,,,,,,,,,0,0,0,0,0,0,0,0,0,0,0,0,0,0,0,0,,,,,,,,,,,,,
66,45587,1745686676069,0.0,120.0,,-0.07,0.29,1.0,4.0,-1.0,-1.0,1.05,1.15,91.0,7745.0,0.0,1.4,,5.11,0.933,73.6,,33.0,5.0,,,,,,,,,,,,0,0,0,0,0,0,0,0,0,0,0,0,0,0,0,0,,,,,,0.0,,,,,,,
67,45607,1745686676089,,,,,,,,,,,,,,,,,,,,,,,,,,,,,,,,,,0,0,0,0,0,0,0,0,0,0,0,0,0,0,0,0,,,,,,,,,,,,,
68,45627,1745686676115,0.0,120.0,,-0.06,0.25,1.05,5.0,0.0,-1.0,1.08,1.15,94.0,7745.0,0.0,1.4,,5.26,0.943,73.6,,33.0,5.0,,,,,,,,,,,,0,0,0,0,0,0,0,0,0,0,0,0,0,0,0,0,,,,,,0.0,,,,,,,
69,45647,1745686676135,,,,,,,,,,,,,,,,,,,,,,,0.0,0.0,0.0,0.0,0.0,0.0,0.0,0.0,2.26,,,0,0,0,0,0,0,0,0,0,0,0,0,0,0,0,0,,0.0,,,,,38.991573,-76.937027,0.16,36.7,14.0,2.0,1.8
70,45667,1745686676155,0.0,120.0,,-0.07,0.16,1.05,5.0,0.0,-1.0,1.06,1.15,92.0,7349.0,0.0,1.4,,5.51,0.931,73.6,,33.0,5.0,,,,,,,,,,,,0,0,0,0,0,0,0,0,0,0,0,0,0,0,0,0,,,,,,0.0,,,,,,,
71,45687,1745686676175,,,,,,,,,,,,,,,,,,,,,,,,,,,,,,,,,,0,0,0,0,0,0,0,0,0,0,0,0,0,0,0,0,,,,,,,,,,,,,
72,45707,1745686676195,0.0,120.0,,-0.07,0.22,1.05,4.0,0.0,-1.0,1.08,1.15,94.0,7020.0,0.0,1.4,,5.84,0.926,73.6,,33.0,5.0,,,,,,,,,,,,0,0,0,0,0,0,0,0,0,0,0,0,0,0,0,0,,,,,,0.0,,,,,,,
73,45727,1745686676217,,,,,,,,,,,,,,,,,,,,,,,,,,,,,,,,,,0,0,0,0,0,0,0,0,0,0,0,0,0,0,0,0,,,,,,,,,,,,,
74,45747,1745686676237,0.0,120.0,14.27,-0.08,0.24,1.02,3.0,0.0,0.0,1.05,1.15,91.0,6584.0,0.0,1.4,15.0,6.27,0.939,73.6,88.0,33.2,5.0,0.0,0.0,0.0,0.0,0.0,0.0,0.0,0.0,2.27,0.0,0.0,0,0,0,0,0,0,0,0,0,0,0,0,0,0,0,0,0.0,0.0,0.0,0.0,0.0,0.0,38.991573,-76.937027,0.15,36.6,14.0,2.0,1.8
75,45767,1745686676257,,,,,,,,,,,,,,,,,,,,,,,,,,,,,,,,,,0,0,0,0,0,0,0,0,0,0,0,0,0,0,0,0,,,,,,,,,,,,,
76,45787,1745686676277,0.0,119.0,,-0.0,0.16,0.98,3.0,0.0,0.0,0.99,1.15,86.0,6211.0,0.0,1.4,,6.27,0.939,73.6,,33.2,5.0,,,,,,,,,,,,0,0,0,0,0,0,0,0,0,0,0,0,0,0,0,0,,,,,,0.0,,,,,,,
77,45807,1745686676297,,,,,,,,,,,,,,,,,,,,,,,,,,,,,,,,,,0,0,0,0,0,0,0,0,0,0,0,0,0,0,0,0,,,,,,,,,,,,,
78,45827,1745686676317,0.0,119.0,,0.09,0.01,1.0,3.0,0.0,-1.0,1.0,1.15,87.0,6211.0,0.0,1.4,,6.7,0.968,73.6,,32.0,5.0,,,,,,,,,,,,0,0,0,0,0,0,0,0,0,0,0,0,0,0,0,0,,,,,,0.0,,,,,,,
79,45847,1745686676337,,,,,,,,,,,,,,,,,,,,,,,0.0,0.0,0.0,0.0,0.0,0.0,0.0,0.0,2.27,,,0,0,0,0,0,0,0,0,0,0,0,0,0,0,0,0,,0.0,,,,,38.991573,-76.937027,0.11,36.6,14.0,2.0,1.8
80,45867,1745686676357,0.0,119.0,,0.05,0.08,0.96,1.0,0.0,0.0,0.96,1.15,84.0,5787.0,0.0,1.4,,7.18,0.994,73.6,,32.0,5.0,,,,,,,,,,,,0,0,0,0,0,0,0,0,0,0,0,0,0,0,0,0,,,,,,0.0,,,,,,,
81,45887,1745686676377,,,,,,,,,,,,,,,,,,,,,,,,,,,,,,,,,,0,0,0,0,0,0,0,0,0,0,0,0,0,0,0,0,,,,,,,,,,,,,
82,45907,1745686676397,0.0,120.0,,0.03,0.11,0.99,1.0,0.0,0.0,1.0,1.15,87.0,5338.0,1.3,1.4,,7.9,1.017,73.6,,32.0,5.0,,,,,,,,,,,,0,0,0,0,0,0,0,0,0,0,0,0,0,0,0,0,,,,,,0.0,,,,,,,
83,45927,1745686676417,,,,,,,,,,,,,,,,,,,,,,,,,,,,,,,,,,0,0,0,0,0,0,0,0,0,0,0,0,0,0,0,0,,,,,,,,,,,,,
84,45947,1745686676437,0.0,120.0,,0.05,-0.0,0.95,1.0,0.0,0.0,0.96,1.15,83.0,4968.0,23.6,2.76,,10.52,1.062,73.6,,31.9,5.0,0.0,0.0,0.0,0.0,0.0,0.0,0.0,0.0,2.26,,,0,0,0,0,0,0,0,0,0,0,0,0,0,0,0,0,,0.0,,,,0.0,38.991573,-76.937027,0.1,36.6,14.0,2.0,1.8
85,45967,1745686676457,,,,,,,,,,,,,,,,,,,,,,,,,,,,,,,,,,0,0,0,0,0,0,0,0,0,0,0,0,0,0,0,0,,,,,,,,,,,,,
86,45987,1745686676477,0.0,120.0,,0.05,0.13,1.06,1.0,0.0,0.0,1.07,1.15,93.0,4652.0,47.9,5.12,,10.52,1.062,73.6,,31.9,5.0,,,,,,,,,,,,0,0,0,0,0,0,0,0,0,0,0,0,0,0,0,0,,,,,,0.0,,,,,,,
87,46007,1745686676497,,,,,,,,,,,,,,,,,,,,,,,,,,,,,,,,,,0,0,0,0,0,0,0,0,0,0,0,0,0,0,0,0,,,,,,,,,,,,,
88,46027,1745686676517,0.0,120.0,,0.07,0.24,1.17,0.0,0.0,1.0,1.2,1.2,100.0,4652.0,47.9,5.12,,13.8,1.174,73.6,,30.3,5.0,,,,,,,,,,,,0,0,0,0,0,0,0,0,0,0,0,0,0,0,0,0,,,,,,0.0,,,,,,,
89,46047,1745686676537,,,,,,,,,,,,,,,,,,,,,,,0.0,42.0,0.0,0.0,0.0,0.0,0.0,0.0,2.26,,,0,0,0,0,0,0,0,0,0,0,0,0,0,0,0,0,,0.0,,,,,38.991573,-76.937027,0.05,36.5,14.0,2.0,1.8
90,46067,1745686676557,0.0,120.0,,0.1,0.31,1.23,1.0,0.0,0.0,1.27,1.27,100.0,4388.0,53.4,5.39,,14.23,1.251,73.6,,30.3,5.0,,,,,,,,,,,,0,0,0,0,0,0,0,0,0,0,0,0,0,0,0,0,,,,,,0.0,,,,,,,
91,46087,1745686676577,,,,,,,,,,,,,,,,,,,,,,,,,,,,,,,,,,0,0,0,0,0,0,0,0,0,0,0,0,0,0,0,0,,,,,,,,,,,,,
92,46107,1745686676597,0.0,120.0,,0.13,0.39,1.3,1.0,0.0,1.0,1.36,1.36,100.0,4446.0,37.4,4.5,,14.1,1.251,73.6,,30.3,5.0,,,,,,,,,,,,0,0,0,0,0,0,0,0,0,0,0,0,0,0,0,0,,,,,,0.0,,,,,,,
93,46127,1745686676617,,,,,,,,,,,,,,,,,,,,,,,,,,,,,,,,,,0,0,0,0,0,0,0,0,0,0,0,0,0,0,0,0,,,,,,,,,,,,,
94,46147,1745686676637,0.0,120.0,,0.12,0.34,1.26,-1.0,0.0,1.0,1.31,1.36,97.0,4783.0,12.5,4.16,,13.4,1.25,73.6,,32.2,5.0,0.0,435.0,0.0,0.0,0.0,24.0,0.0,0.0,2.26,,,0,0,0,0,0,0,0,0,0,0,0,0,0,0,0,0,,0.0,,,,0.0,38.991573,-76.937027,0.08,36.5,14.0,2.0,1.8
95,46167,1745686676657,,,,,,,,,,,,,,,,,,,,,,,,,,,,,,,,,,0,0,0,0,0,0,0,0,0,0,0,0,0,0,0,0,,,,,,,,,,,,,
96,46187,1745686676677,0.0,120.0,,0.1,0.21,1.22,0.0,0.0,1.0,1.24,1.36,92.0,4871.0,4.3,3.74,,13.4,1.25,73.6,,32.2,5.0,,,,,,,,,,,,0,0,0,0,0,0,0,0,0,0,0,0,0,0,0,0,,,,,,0.0,,,,,,,
97,46207,1745686676697,,,,,,,,,,,,,,,,,,,,,,,,,,,,,,,,,,0,0,0,0,0,0,0,0,0,0,0,0,0,0,0,0,,,,,,,,,,,,,
98,46227,1745686676717,0.0,120.0,,0.09,0.32,1.27,-1.0,0.0,1.0,1.31,1.36,96.0,4871.0,4.3,3.74,,12.67,1.22,73.6,,34.5,5.0,,,,,,,,,,,,0,0,0,0,0,0,0,0,0,0,0,0,0,0,0,0,,,,,,0.0,,,,,,,
99,46247,1745686676737,,,,,,,,,,,,,,,,,,,,,,,0.0,1.0,0.0,0.0,0.0,0.0,0.0,0.0,2.27,,,0,0,0,0,0,0,0,0,0,0,0,0,0,0,0,0,,0.0,,,,,38.991573,-76.937027,0.19,36.4,14.0,2.0,1.8
100,46267,1745686676757,0.0,120.0,,0.07,0.11,1.14,-1.0,0.0,1.0,1.15,1.36,84.0,4784.0,4.1,3.72,,12.27,1.119,75.4,,34.5,5.0,,,,,,,,,,,,0,0,0,0,0,0,0,0,0,0,0,0,0,0,0,0,,,,,,0.0,,,,,,,
101,46287,1745686676777,,,,,,,,,,,,,,,,,,,,,,,,,,,,,,,,,,0,0,0,0,0,0,0,0,0,0,0,0,0,0,0,0,,,,,,,,,,,,,
102,46307,1745686676797,0.0,120.0,,0.05,0.13,1.15,1.0,0.0,0.0,1.16,1.36,86.0,4767.0,4.9,3.69,,12.11,1.072,75.4,,34.5,5.0,,,,,,,,,,,,0,0,0,0,0,0,0,0,0,0,0,0,0,0,0,0,,,,,,0.0,,,,,,,
103,46327,1745686676817,,,,,,,,,,,,,,,,,,,,,,,,,,,,,,,,,,0,0,0,0,0,0,0,0,0,0,0,0,0,0,0,0,,,,,,,,,,,,,
104,46347,1745686676837,0.0,120.0,,0.05,0.23,1.19,-1.0,0.0,1.0,1.22,1.36,90.0,4775.0,18.6,4.1,,12.75,1.04,75.4,,34.1,5.0,0.0,549.0,0.0,0.0,0.0,0.0,0.0,0.0,2.27,,,0,0,0,0,0,0,0,0,0,0,0,0,0,0,0,0,,0.0,,,,0.0,38.991573,-76.937027,0.1,36.4,14.0,2.0,1.8
105,46367,1745686676857,,,,,,,,,,,,,,,,,,,,,,,,,,,,,,,,,,0,0,0,0,0,0,0,0,0,0,0,0,0,0,0,0,,,,,,,,,,,,,
106,46387,1745686676877,0.0,120.0,,0.02,0.06,1.1,0.0,0.0,0.0,1.1,1.36,81.0,4832.0,44.5,4.82,,12.75,1.04,75.4,,34.1,5.0,,,,,,,,,,,,0,0,0,0,0,0,0,0,0,0,0,0,0,0,0,0,,,,,,0.0,,,,,,,
107,46407,1745686676897,,,,,,,,,,,,,,,,,,,,,,,,,,,,,,,,,,0,0,0,0,0,0,0,0,0,0,0,0,0,0,0,0,,,,,,,,,,,,,
108,46427,1745686676916,0.0,120.0,,-0.0,0.09,1.11,-1.0,0.0,1.0,1.12,1.36,82.0,4832.0,44.5,4.82,,14.1,0.992,75.4,,35.6,5.0,,,,,,,,,,,,0,0,0,0,0,0,0,0,0,0,0,0,0,0,0,0,,,,,,0.0,,,,,,,
109,46447,1745686676936,,,,,,,,,,,,,,,,,,,,,,,0.0,869.0,0.0,0.0,0.0,0.0,0.0,0.0,2.26,,,0,0,0,0,0,0,0,0,0,0,0,0,0,0,0,0,,0.0,,,,,38.991573,-76.937027,0.15,36.3,14.0,2.0,1.8
110,46467,1745686676956,0.0,120.0,,-0.0,0.05,1.06,-1.0,0.0,1.0,1.06,1.36,78.0,5041.0,59.2,5.49,,14.24,0.989,75.4,,35.6,5.0,,,,,,,,,,,,0,0,0,0,0,0,0,0,0,0,0,0,0,0,0,0,,,,,,0.0,,,,,,,
111,46487,1745686676976,,,,,,,,,,,,,,,,,,,,,,,,,,,,,,,,,,0,0,0,0,0,0,0,0,0,0,0,0,0,0,0,0,,,,,,,,,,,,,
112,46507,1745686676996,0.0,120.0,,-0.01,-0.02,1.1,1.0,0.0,0.0,1.1,1.36,81.0,5472.0,57.0,4.96,,14.11,1.036,75.4,,35.6,5.0,,,,,,,,,,,,0,0,0,0,0,0,0,0,0,0,0,0,0,0,0,0,,,,,,0.0,,,,,,,
113,46527,1745686677010,,,,,,,,,,,,,,,,,,,,,,,,,,,,,,,,,,0,0,0,0,0,0,0,0,0,0,0,0,0,0,0,0,,,,,,,,,,,,,
114,46547,1745686677030,0.0,120.0,,-0.04,-0.05,0.99,0.0,0.0,0.0,0.99,1.36,73.0,5793.0,24.4,4.43,,13.53,1.085,75.4,,37.6,5.0,0.0,3.0,0.0,0.0,0.0,0.0,0.0,0.0,2.26,,,0,0,0,0,0,0,0,0,0,0,0,0,0,0,0,0,,0.0,,,,0.0,38.991573,-76.937027,0.07,36.3,14.0,2.0,1.8
115,46567,1745686677050,,,,,,,,,,,,,,,,,,,,,,,,,,,,,,,,,,0,0,0,0,0,0,0,0,0,0,0,0,0,0,0,0,,,,,,,,,,,,,
116,46587,1745686677070,0.0,120.0,,-0.06,-0.1,0.87,0.0,0.0,0.0,0.88,1.36,65.0,6213.0,6.1,4.1,,13.53,1.085,75.4,,37.6,5.0,,,,,,,,,,,,0,0,0,0,0,0,0,0,0,0,0,0,0,0,0,0,,,,,,0.0,,,,,,,
117,46607,1745686677090,,,,,,,,,,,,,,,,,,,,,,,,,,,,,,,,,,0,0,0,0,0,0,0,0,0,0,0,0,0,0,0,0,,,,,,,,,,,,,
118,46627,1745686677114,0.0,120.0,,-0.06,-0.08,0.95,0.0,0.0,0.0,0.95,1.36,70.0,6213.0,6.1,4.1,,12.01,1.088,75.4,,38.4,5.0,,,,,,,,,,,,0,0,0,0,0,0,0,0,0,0,0,0,0,0,0,0,,,,,,0.0,,,,,,,
119,46647,1745686677134,,,,,,,,,,,,,,,,,,,,,,,0.0,3.0,0.0,0.0,0.0,0.0,0.0,0.0,2.26,,,0,0,0,0,0,0,0,0,0,0,0,0,0,0,0,0,,0.0,,,,,38.991573,-76.937027,0.15,36.3,14.0,2.0,1.8
120,46667,1745686677154,0.0,120.0,,-0.04,-0.08,0.95,-1.0,0.0,0.0,0.95,1.36,70.0,6621.0,1.1,1.85,,10.66,1.05,75.4,,38.4,5.0,,,,,,,,,,,,0,0,0,0,0,0,0,0,0,0,0,0,0,0,0,0,,,,,,0.0,,,,,,,
121,46687,1745686677174,,,,,,,,,,,,,,,,,,,,,,,,,,,,,,,,,,0,0,0,0,0,0,0,0,0,0,0,0,0,0,0,0,,,,,,,,,,,,,
122,46707,1745686677194,0.0,120.0,,-0.03,-0.04,0.93,0.0,0.0,0.0,0.93,1.36,68.0,6577.0,1.3,1.4,,9.82,0.976,75.4,,38.4,5.0,,,,,,,,,,,,0,0,0,0,0,0,0,0,0,0,0,0,0,0,0,0,,,,,,0.0,,,,,,,
123,46727,1745686677208,,,,,,,,,,,,,,,,,,,,,,,,,,,,,,,,,,0,0,0,0,0,0,0,0,0,0,0,0,0,0,0,0,,,,,,,,,,,,,
124,46747,1745686677228,0.0,120.0,14.25,-0.07,-0.05,0.92,0.0,0.0,0.0,0.93,1.36,68.0,6482.0,1.6,1.57,15.0,9.41,0.982,75.4,88.0,37.1,5.0,0.0,3.0,0.0,0.0,0.0,0.0,0.0,0.0,2.27,0.0,0.0,0,0,0,0,0,0,0,0,0,0,0,0,0,0,0,0,0.0,0.0,0.0,0.0,0.0,0.0,38.991573,-76.937027,0.04,36.3,14.0,2.0,1.8
125,46767,1745686677248,,,,,,,,,,,,,,,,,,,,,,,,,,,,,,,,,,0,0,0,0,0,0,0,0,0,0,0,0,0,0,0,0,,,,,,,,,,,,,
126,46787,1745686677268,0.0,120.0,,0.0,-0.04,0.94,0.0,0.0,0.0,0.95,1.36,70.0,6312.0,1.4,1.59,,9.41,0.982,75.4,,37.1,5.0,,,,,,,,,,,,0,0,0,0,0,0,0,0,0,0,0,0,0,0,0,0,,,,,,0.0,,,,,,,
127,46807,1745686677288,,,,,,,,,,,,,,,,,,,,,,,,,,,,,,,,,,0,0,0,0,0,0,0,0,0,0,0,0,0,0,0,0,,,,,,,,,,,,,
128,46827,1745686677316,0.0,120.0,,-0.06,-0.1,1.04,0.0,0.0,0.0,1.04,1.36,77.0,6312.0,1.4,1.59,,9.25,1.029,75.4,,34.7,5.0,,,,,,,,,,,,0,0,0,0,0,0,0,0,0,0,0,0,0,0,0,0,,,,,,0.0,,,,,,,
129,46847,1745686677336,,,,,,,,,,,,,,,,,,,,,,,0.0,3.0,0.0,0.0,0.0,0.0,0.0,0.0,2.27,,,0,0,0,0,0,0,0,0,0,0,0,0,0,0,0,0,,0.0,,,,,38.991573,-76.937027,0.11,36.3,14.0,2.0,1.8
130,46867,1745686677356,0.0,120.0,,-0.15,0.01,1.07,-1.0,0.0,1.0,1.08,1.36,79.0,6134.0,1.5,1.56,,9.25,1.051,75.4,,34.7,5.0,,,,,,,,,,,,0,0,0,0,0,0,0,0,0,0,0,0,0,0,0,0,,,,,,0.0,,,,,,,
131,46887,1745686677376,,,,,,,,,,,,,,,,,,,,,,,,,,,,,,,,,,0,0,0,0,0,0,0,0,0,0,0,0,0,0,0,0,,,,,,,,,,,,,
132,46907,1745686677396,0.0,120.0,,-0.18,0.1,1.15,0.0,0.0,1.0,1.17,1.36,86.0,5906.0,1.5,1.57,,9.3,1.054,75.4,,34.7,5.0,,,,,,,,,,,,0,0,0,0,0,0,0,0,0,0,0,0,0,0,0,0,,,,,,0.0,,,,,,,
133,46927,1745686677418,,,,,,,,,,,,,,,,,,,,,,,,,,,,,,,,,,0,0,0,0,0,0,0,0,0,0,0,0,0,0,0,0,,,,,,,,,,,,,
134,46947,1745686677438,0.0,120.0,,-0.14,0.04,1.12,0.0,0.0,1.0,1.13,1.36,83.0,5632.0,1.2,1.6,,9.56,1.053,75.4,,31.8,5.0,0.0,3.0,0.0,0.0,0.0,0.0,0.0,0.0,2.27,,,0,0,0,0,0,0,0,0,0,0,0,0,0,0,0,0,,0.0,,,,0.0,38.991573,-76.937027,0.09,36.3,14.0,2.0,1.8
135,46967,1745686677458,,,,,,,,,,,,,,,,,,,,,,,,,,,,,,,,,,0,0,0,0,0,0,0,0,0,0,0,0,0,0,0,0,,,,,,,,,,,,,
136,46987,1745686677478,0.0,120.0,,-0.13,-0.02,1.11,1.0,0.0,0.0,1.11,1.36,82.0,5350.0,1.0,1.69,,9.56,1.053,75.4,,31.8,5.0,,,,,,,,,,,,0,0,0,0,0,0,0,0,0,0,0,0,0,0,0,0,,,,,,0.0,,,,,,,
137,47007,1745686677498,,,,,,,,,,,,,,,,,,,,,,,,,,,,,,,,,,0,0,0,0,0,0,0,0,0,0,0,0,0,0,0,0,,,,,,,,,,,,,
138,47027,1745686677518,0.0,119.0,,-0.11,-0.01,1.07,0.0,0.0,0.0,1.08,1.36,79.0,5350.0,1.0,1.69,,9.8,1.077,75.4,,30.0,5.0,,,,,,,,,,,,0,0,0,0,0,0,0,0,0,0,0,0,0,0,0,0,,,,,,0.0,,,,,,,
139,47047,1745686677538,,,,,,,,,,,,,,,,,,,,,,,0.0,173.0,0.0,0.0,0.0,0.0,0.0,0.0,2.26,,,0,0,0,0,0,0,0,0,0,0,0,0,0,0,0,0,,0.0,,,,,38.991573,-76.937027,0.0,36.2,14.0,2.0,1.8
140,47067,1745686677558,0.0,120.0,,-0.14,0.08,1.1,0.0,0.0,0.0,1.11,1.36,82.0,5136.0,0.8,1.68,,10.09,1.064,75.4,,30.0,5.0,,,,,,,,,,,,0,0,0,0,0,0,0,0,0,0,0,0,0,0,0,0,,,,,,0.0,,,,,,,
141,47087,1745686677578,,,,,,,,,,,,,,,,,,,,,,,,,,,,,,,,,,0,0,0,0,0,0,0,0,0,0,0,0,0,0,0,0,,,,,,,,,,,,,
142,47107,1745686677598,0.0,121.0,,-0.12,-0.08,1.0,1.0,0.0,0.0,1.02,1.36,75.0,4858.0,0.7,1.81,,10.2,1.049,75.4,,30.0,5.0,,,,,,,,,,,,0,0,0,0,0,0,0,0,0,0,0,0,0,0,0,0,,,,,,0.0,,,,,,,
143,47127,1745686677618,,,,,,,,,,,,,,,,,,,,,,,,,,,,,,,,,,0,0,0,0,0,0,0,0,0,0,0,0,0,0,0,0,,,,,,,,,,,,,
144,47147,1745686677638,0.0,120.0,,-0.11,-0.2,0.94,2.0,0.0,-1.0,0.97,1.36,71.0,4523.0,0.7,1.9,,10.44,1.051,75.4,,29.1,5.0,0.0,12.0,0.0,0.0,0.0,24.0,0.0,0.0,2.26,,,0,0,0,0,0,0,0,0,0,0,0,0,0,0,0,0,,0.0,,,,0.0,38.991573,-76.937027,0.11,36.2,14.0,2.0,1.8
145,47167,1745686677658,,,,,,,,,,,,,,,,,,,,,,,,,,,,,,,,,,0,0,0,0,0,0,0,0,0,0,0,0,0,0,0,0,,,,,,,,,,,,,
146,47187,1745686677678,0.0,120.0,,-0.13,-0.26,0.91,1.0,0.0,-1.0,0.95,1.36,70.0,4243.0,0.7,1.93,,10.44,1.051,75.4,,29.1,5.0,,,,,,,,,,,,0,0,0,0,0,0,0,0,0,0,0,0,0,0,0,0,,,,,,0.0,,,,,,,
147,47207,1745686677698,,,,,,,,,,,,,,,,,,,,,,,,,,,,,,,,,,0,0,0,0,0,0,0,0,0,0,0,0,0,0,0,0,,,,,,,,,,,,,
148,47227,1745686677718,0.0,118.0,,-0.11,-0.23,0.92,2.0,0.0,-1.0,0.95,1.36,70.0,4243.0,0.7,1.93,,10.61,1.068,75.4,,29.1,5.0,,,,,,,,,,,,0,0,0,0,0,0,0,0,0,0,0,0,0,0,0,0,,,,,,0.0,,,,,,,
149,47247,1745686677738,,,,,,,,,,,,,,,,,,,,,,,0.0,1.0,0.0,0.0,0.0,0.0,0.0,0.0,2.26,,,0,0,0,0,0,0,0,0,0,0,0,0,0,0,0,0,,0.0,,,,,38.991573,-76.937027,0.06,36.2,14.0,2.0,1.8
150,47267,1745686677758,0.0,120.0,,-0.12,-0.22,0.93,1.0,0.0,-1.0,0.96,1.36,71.0,3815.0,0.4,2.14,,10.78,1.132,75.4,,29.1,5.0,,,,,,,,,,,,0,0,0,0,0,0,0,0,0,0,0,0,0,0,0,0,,,,,,0.0,,,,,,,
151,47287,1745686677778,,,,,,,,,,,,,,,,,,,,,,,,,,,,,,,,,,0,0,0,0,0,0,0,0,0,0,0,0,0,0,0,0,,,,,,,,,,,,,
152,47307,1745686677798,0.0,120.0,,-0.1,-0.17,0.99,0.0,0.0,0.0,1.01,1.36,74.0,3496.0,0.3,2.99,,11.18,1.21,75.4,,29.1,5.0,,,,,,,,,,,,0,0,0,0,0,0,0,0,0,0,0,0,0,0,0,0,,,,,,0.0,,,,,,,
153,47327,1745686677816,,,,,,,,,,,,,,,,,,,,,,,,,,,,,,,,,,0,0,0,0,0,0,0,0,0,0,0,0,0,0,0,0,,,,,,,,,,,,,
154,47347,1745686677836,0.0,120.0,,-0.12,-0.2,0.95,1.0,0.0,-1.0,0.98,1.36,72.0,3360.0,9.6,3.98,,12.15,1.25,75.4,,29.0,5.0,0.0,1.0,0.0,0.0,0.0,0.0,0.0,0.0,2.27,,,0,0,0,0,0,0,0,0,0,0,0,0,0,0,0,0,,0.0,,,,0.0,38.991573,-76.937027,0.11,36.2,14.0,2.0,1.8
155,47367,1745686677856,,,,,,,,,,,,,,,,,,,,,,,,,,,,,,,,,,0,0,0,0,0,0,0,0,0,0,0,0,0,0,0,0,,,,,,,,,,,,,
156,47387,1745686677876,0.0,119.0,,-0.08,-0.08,0.92,0.0,0.0,0.0,0.92,1.36,68.0,3203.0,28.9,4.53,,12.15,1.25,75.4,,29.0,5.0,,,,,,,,,,,,0,0,0,0,0,0,0,0,0,0,0,0,0,0,0,0,,,,,,0.0,,,,,,,
157,47407,1745686677896,,,,,,,,,,,,,,,,,,,,,,,,,,,,,,,,,,0,0,0,0,0,0,0,0,0,0,0,0,0,0,0,0,,,,,,,,,,,,,
158,47427,1745686677917,0.0,121.0,,-0.08,-0.11,1.03,0.0,0.0,0.0,1.04,1.36,77.0,3203.0,28.9,4.53,,13.72,1.249,75.4,,29.6,5.0,,,,,,,,,,,,0,0,0,0,0,0,0,0,0,0,0,0,0,0,0,0,,,,,,0.0,,,,,,,
159,47447,1745686677937,,,,,,,,,,,,,,,,,,,,,,,0.0,2.0,0.0,0.0,0.0,0.0,0.0,0.0,2.27,,,0,0,0,0,0,0,0,0,0,0,0,0,0,0,0,0,,0.0,,,,,38.991573,-76.937027,0.09,36.2,14.0,2.0,1.8
160,47467,1745686677957,0.0,121.0,,-0.09,-0.14,1.01,1.0,0.0,0.0,1.02,1.36,75.0,3267.0,35.4,4.76,,14.27,1.251,75.4,,29.6,5.0,,,,,,,,,,,,0,0,0,0,0,0,0,0,0,0,0,0,0,0,0,0,,,,,,0.0,,,,,,,
161,47487,1745686677977,,,,,,,,,,,,,,,,,,,,,,,,,,,,,,,,,,0,0,0,0,0,0,0,0,0,0,0,0,0,0,0,0,,,,,,,,,,,,,
162,47507,1745686677997,0.0,120.0,,-0.08,-0.11,0.99,1.0,0.0,0.0,1.0,1.36,74.0,3641.0,28.4,4.83,,14.11,1.252,75.4,,29.6,5.0,,,,,,,,,,,,0,0,0,0,0,0,0,0,0,0,0,0,0,0,0,0,,,,,,0.0,,,,,,,
163,47527,1745686678009,,,,,,,,,,,,,,,,,,,,,,,,,,,,,,,,,,0,0,0,0,0,0,0,0,0,0,0,0,0,0,0,0,,,,,,,,,,,,,
164,47547,1745686678029,0.0,121.0,,-0.05,-0.0,1.06,0.0,0.0,0.0,1.06,1.36,78.0,3961.0,10.7,4.04,,13.56,1.249,75.4,,35.1,5.0,0.0,3.0,0.0,0.0,0.0,0.0,0.0,0.0,2.26,,,0,0,0,0,0,0,0,0,0,0,0,0,0,0,0,0,,0.0,,,,0.0,38.991573,-76.937027,0.09,36.2,14.0,2.0,1.8
165,47567,1745686678049,,,,,,,,,,,,,,,,,,,,,,,,,,,,,,,,,,0,0,0,0,0,0,0,0,0,0,0,0,0,0,0,0,,,,,,,,,,,,,
166,47587,1745686678069,0.0,120.0,,-0.06,-0.03,1.05,0.0,0.0,1.0,1.05,1.36,77.0,3945.0,2.3,3.32,,13.56,1.249,75.4,,35.1,5.0,,,,,,,,,,,,0,0,0,0,0,0,0,0,0,0,0,0,0,0,0,0,,,,,,0.0,,,,,,,
167,47607,1745686678089,,,,,,,,,,,,,,,,,,,,,,,,,,,,,,,,,,0,0,0,0,0,0,0,0,0,0,0,0,0,0,0,0,,,,,,,,,,,,,
168,47627,1745686678113,0.0,119.0,,-0.07,-0.06,1.03,0.0,0.0,0.0,1.03,1.36,76.0,3945.0,2.3,3.32,,12.89,1.192,75.4,,33.8,5.0,,,,,,,,,,,,0,0,0,0,0,0,0,0,0,0,0,0,0,0,0,0,,,,,,0.0,,,,,,,
169,47647,1745686678133,,,,,,,,,,,,,,,,,,,,,,,0.0,3.0,0.0,0.0,0.0,24.0,0.0,0.0,2.26,,,0,0,0,0,0,0,0,0,0,0,0,0,0,0,0,0,,0.0,,,,,38.991573,-76.937027,0.05,36.2,14.0,2.0,1.8
170,47667,1745686678153,0.0,120.0,,-0.07,-0.02,1.04,1.0,0.0,0.0,1.04,1.36,77.0,3748.0,1.8,3.08,,12.57,1.152,75.4,,33.8,5.0,,,,,,,,,,,,0,0,0,0,0,0,0,0,0,0,0,0,0,0,0,0,,,,,,0.0,,,,,,,
171,47687,1745686678173,,,,,,,,,,,,,,,,,,,,,,,,,,,,,,,,,,0,0,0,0,0,0,0,0,0,0,0,0,0,0,0,0,,,,,,,,,,,,,
172,47707,1745686678193,0.0,121.0,,-0.07,-0.01,1.04,1.0,0.0,0.0,1.04,1.36,77.0,3599.0,1.6,3.22,,12.49,1.162,75.4,,33.8,5.0,,,,,,,,,,,,0,0,0,0,0,0,0,0,0,0,0,0,0,0,0,0,,,,,,0.0,,,,,,,
173,47727,1745686678217,,,,,,,,,,,,,,,,,,,,,,,,,,,,,,,,,,0,0,0,0,0,0,0,0,0,0,0,0,0,0,0,0,,,,,,,,,,,,,
174,47747,1745686678237,0.0,121.0,14.27,-0.07,-0.04,0.99,1.0,0.0,0.0,0.99,1.36,73.0,3592.0,1.6,3.26,15.0,12.45,1.25,75.4,90.0,31.5,5.0,0.0,18.0,0.0,0.0,0.0,24.0,0.0,0.0,2.26,0.0,0.0,0,0,0,0,0,0,0,0,0,0,0,0,0,0,0,0,0.0,0.0,0.0,0.0,0.0,0.0,38.991573,-76.937027,0.15,36.2,14.0,2.0,1.8
175,47767,1745686678257,,,,,,,,,,,,,,,,,,,,,,,,,,,,,,,,,,0,0,0,0,0,0,0,0,0,0,0,0,0,0,0,0,,,,,,,,,,,,,
176,47787,1745686678277,0.0,120.0,,-0.1,-0.11,1.03,1.0,0.0,0.0,1.04,1.36,76.0,3553.0,2.0,3.28,,12.45,1.25,75.4,,31.5,5.0,,,,,,,,,,,,0,0,0,0,0,0,0,0,0,0,0,0,0,0,0,0,,,,,,0.0,,,,,,,
177,47807,1745686678297,,,,,,,,,,,,,,,,,,,,,,,,,,,,,,,,,,0,0,0,0,0,0,0,0,0,0,0,0,0,0,0,0,,,,,,,,,,,,,
178,47827,1745686678317,0.0,120.0,,-0.05,-0.02,1.04,0.0,0.0,0.0,1.04,1.36,76.0,3553.0,2.0,3.28,,12.51,1.219,75.4,,30.2,5.0,,,,,,,,,,,,0,0,0,0,0,0,0,0,0,0,0,0,0,0,0,0,,,,,,0.0,,,,,,,
179,47847,1745686678337,,,,,,,,,,,,,,,,,,,,,,,0.0,3.0,0.0,0.0,0.0,24.0,0.0,0.0,2.27,,,0,0,0,0,0,0,0,0,0,0,0,0,0,0,0,0,,0.0,,,,,38.991573,-76.937027,0.07,36.1,14.0,2.0,1.8
180,47867,1745686678357,0.0,121.0,,-0.09,-0.09,1.01,1.0,0.0,0.0,1.02,1.36,75.0,3469.0,9.8,3.86,,12.91,1.155,75.4,,30.2,5.0,,,,,,,,,,,,0,0,0,0,0,0,0,0,0,0,0,0,0,0,0,0,,,,,,0.0,,,,,,,
181,47887,1745686678377,,,,,,,,,,,,,,,,,,,,,,,,,,,,,,,,,,0,0,0,0,0,0,0,0,0,0,0,0,0,0,0,0,,,,,,,,,,,,,
182,47907,1745686678397,0.0,121.0,,-0.08,-0.02,1.05,0.0,0.0,0.0,1.05,1.36,78.0,3414.0,12.5,4.07,,13.33,1.139,75.4,,30.2,5.0,,,,,,,,,,,,0,0,0,0,0,0,0,0,0,0,0,0,0,0,0,0,,,,,,0.0,,,,,,,
183,47927,1745686678417,,,,,,,,,,,,,,,,,,,,,,,,,,,,,,,,,,0,0,0,0,0,0,0,0,0,0,0,0,0,0,0,0,,,,,,,,,,,,,
184,47947,1745686678437,0.0,120.0,,-0.08,-0.07,1.0,1.0,0.0,0.0,1.01,1.36,74.0,3367.0,12.7,4.04,,13.6,1.147,75.4,,29.0,5.0,0.0,3.0,0.0,0.0,0.0,0.0,0.0,0.0,2.27,,,0,0,0,0,0,0,0,0,0,0,0,0,0,0,0,0,,0.0,,,,0.0,38.991573,-76.937027,0.11,36.1,14.0,2.0,1.8
185,47967,1745686678457,,,,,,,,,,,,,,,,,,,,,,,,,,,,,,,,,,0,0,0,0,0,0,0,0,0,0,0,0,0,0,0,0,,,,,,,,,,,,,
186,47987,1745686678477,0.0,121.0,,-0.08,0.01,1.05,-1.0,0.0,1.0,1.05,1.36,77.0,3396.0,6.1,3.88,,13.6,1.147,75.4,,29.0,5.0,,,,,,,,,,,,0,0,0,0,0,0,0,0,0,0,0,0,0,0,0,0,,,,,,0.0,,,,,,,
187,48007,1745686678497,,,,,,,,,,,,,,,,,,,,,,,,,,,,,,,,,,0,0,0,0,0,0,0,0,0,0,0,0,0,0,0,0,,,,,,,,,,,,,
188,48027,1745686678515,0.0,120.0,,-0.09,-0.02,0.99,1.0,0.0,0.0,0.99,1.36,73.0,3396.0,6.1,3.88,,13.48,1.158,75.4,,29.3,5.0,,,,,,,,,,,,0,0,0,0,0,0,0,0,0,0,0,0,0,0,0,0,,,,,,0.0,,,,,,,
189,48047,1745686678535,,,,,,,,,,,,,,,,,,,,,,,0.0,3.0,0.0,0.0,0.0,0.0,0.0,0.0,2.27,,,0,0,0,0,0,0,0,0,0,0,0,0,0,0,0,0,,0.0,,,,,38.991573,-76.937027,0.08,36.1,14.0,2.0,1.8
190,48067,1745686678555,0.0,121.0,,-0.06,0.02,1.04,-1.0,0.0,1.0,1.04,1.36,77.0,3384.0,0.0,3.33,,13.11,1.173,75.4,,29.3,5.0,,,,,,,,,,,,0,0,0,0,0,0,0,0,0,0,0,0,0,0,0,0,,,,,,0.0,,,,,,,
191,48087,1745686678575,,,,,,,,,,,,,,,,,,,,,,,,,,,,,,,,,,0,0,0,0,0,0,0,0,0,0,0,0,0,0,0,0,,,,,,,,,,,,,
192,48107,1745686678595,0.0,121.0,,-0.09,-0.05,1.04,0.0,0.0,0.0,1.05,1.36,77.0,3321.0,0.0,3.29,,12.83,1.192,75.4,,29.3,5.0,,,,,,,,,,,,0,0,0,0,0,0,0,0,0,0,0,0,0,0,0,0,,,,,,0.0,,,,,,,
193,48127,1745686678615,,,,,,,,,,,,,,,,,,,,,,,,,,,,,,,,,,0,0,0,0,0,0,0,0,0,0,0,0,0,0,0,0,,,,,,,,,,,,,
194,48147,1745686678635,0.0,121.0,,-0.06,0.06,0.95,1.0,0.0,0.0,0.95,1.36,70.0,3237.0,0.0,3.45,,12.59,1.19,75.4,,28.9,5.0,0.0,18.0,0.0,0.0,0.0,24.0,0.0,0.0,2.26,,,0,0,0,0,0,0,0,0,0,0,0,0,0,0,0,0,,0.0,,,,0.0,38.991573,-76.937027,0.08,36.1,14.0,2.0,1.8
195,48167,1745686678655,,,,,,,,,,,,,,,,,,,,,,,,,,,,,,,,,,0,0,0,0,0,0,0,0,0,0,0,0,0,0,0,0,,,,,,,,,,,,,
196,48187,1745686678675,0.0,121.0,,-0.05,0.05,1.02,-1.0,0.0,1.0,1.03,1.36,76.0,3230.0,0.0,3.59,,12.59,1.19,75.4,,28.9,5.0,,,,,,,,,,,,0,0,0,0,0,0,0,0,0,0,0,0,0,0,0,0,,,,,,0.0,,,,,,,
197,48207,1745686678695,,,,,,,,,,,,,,,,,,,,,,,,,,,,,,,,,,0,0,0,0,0,0,0,0,0,0,0,0,0,0,0,0,,,,,,,,,,,,,
198,48227,1745686678715,0.0,121.0,,-0.09,-0.07,1.07,0.0,0.0,0.0,1.07,1.36,79.0,3230.0,0.0,3.59,,12.51,1.223,75.4,,30.0,5.0,,,,,,,,,,,,0,0,0,0,0,0,0,0,0,0,0,0,0,0,0,0,,,,,,0.0,,,,,,,
199,48247,1745686678735,,,,,,,,,,,,,,,,,,,,,,,0.0,4.0,0.0,0.0,0.0,24.0,0.0,0.0,2.26,,,0,0,0,0,0,0,0,0,0,0,0,0,0,0,0,0,,0.0,,,,,38.991573,-76.937027,0.12,36.0,14.0,2.0,1.8
200,48267,1745686678755,0.0,120.0,,-0.07,0.01,0.96,1.0,0.0,0.0,0.96,1.36,71.0,3246.0,0.0,3.41,,12.49,1.232,77.2,,30.0,5.0,,,,,,,,,,,,0,0,0,0,0,0,0,0,0,0,0,0,0,0,0,0,,,,,,0.0,,,,,,,
201,48287,1745686678775,,,,,,,,,,,,,,,,,,,,,,,,,,,,,,,,,,0,0,0,0,0,0,0,0,0,0,0,0,0,0,0,0,,,,,,,,,,,,,
202,48307,1745686678795,0.0,121.0,,-0.04,0.07,0.96,0.0,-1.0,0.0,0.96,1.36,71.0,3200.0,0.0,3.46,,12.39,1.144,77.2,,30.0,5.0,,,,,,,,,,,,0,0,0,0,0,0,0,0,0,0,0,0,0,0,0,0,,,,,,0.0,,,,,,,
203,48327,1745686678815,,,,,,,,,,,,,,,,,,,,,,,,,,,,,,,,,,0,0,0,0,0,0,0,0,0,0,0,0,0,0,0,0,,,,,,,,,,,,,
204,48347,1745686678835,0.0,121.0,,-0.04,0.01,1.05,-1.0,-1.0,1.0,1.05,1.36,77.0,3079.0,0.0,3.52,,12.37,1.017,77.2,,30.0,5.0,0.0,136.0,0.0,0.0,0.0,24.0,0.0,0.0,2.26,,,0,0,0,0,0,0,0,0,0,0,0,0,0,0,0,0,,0.0,,,,0.0,38.991573,-76.937027,0.11,36.0,14.0,2.0,1.8
205,48367,1745686678855,,,,,,,,,,,,,,,,,,,,,,,,,,,,,,,,,,0,0,0,0,0,0,0,0,0,0,0,0,0,0,0,0,,,,,,,,,,,,,
206,48387,1745686678875,0.0,121.0,,-0.05,-0.06,1.13,-1.0,0.0,1.0,1.13,1.36,83.0,3122.0,0.0,3.65,,12.37,1.017,77.2,,30.0,5.0,,,,,,,,,,,,0,0,0,0,0,0,0,0,0,0,0,0,0,0,0,0,,,,,,0.0,,,,,,,
207,48407,1745686678895,,,,,,,,,,,,,,,,,,,,,,,,,,,,,,,,,,0,0,0,0,0,0,0,0,0,0,0,0,0,0,0,0,,,,,,,,,,,,,
208,48427,1745686678916,0.0,121.0,,-0.04,-0.09,1.17,-1.0,0.0,1.0,1.18,1.36,87.0,3122.0,0.0,3.65,,12.4,0.95,77.2,,29.0,5.0,,,,,,,,,,,,0,0,0,0,0,0,0,0,0,0,0,0,0,0,0,0,,,,,,0.0,,,,,,,
209,48447,1745686678936,,,,,,,,,,,,,,,,,,,,,,,0.0,136.0,0.0,0.0,0.0,24.0,0.0,0.0,2.27,,,0,0,0,0,0,0,0,0,0,0,0,0,0,0,0,0,,0.0,,,,,38.991573,-76.937027,0.07,36.0,14.0,2.0,1.8
210,48467,1745686678956,0.0,121.0,,-0.04,-0.13,1.21,-1.0,0.0,1.0,1.22,1.36,90.0,3031.0,0.0,3.72,,12.44,0.936,77.2,,29.0,5.0,,,,,,,,,,,,0,0,0,0,0,0,0,0,0,0,0,0,0,0,0,0,,,,,,0.0,,,,,,,
211,48487,1745686678976,,,,,,,,,,,,,,,,,,,,,,,,,,,,,,,,,,0,0,0,0,0,0,0,0,0,0,0,0,0,0,0,0,,,,,,,,,,,,,
212,48507,1745686678996,0.0,121.0,,-0.04,-0.12,1.24,-1.0,0.0,1.0,1.25,1.36,92.0,2918.0,0.0,3.74,,12.53,0.919,77.2,,29.0,5.0,,,,,,,,,,,,0,0,0,0,0,0,0,0,0,0,0,0,0,0,0,0,,,,,,0.0,,,,,,,
213,48527,1745686679010,,,,,,,,,,,,,,,,,,,,,,,,,,,,,,,,,,0,0,0,0,0,0,0,0,0,0,0,0,0,0,0,0,,,,,,,,,,,,,
214,48547,1745686679030,0.0,121.0,,-0.04,-0.07,1.22,-1.0,0.0,1.0,1.22,1.36,90.0,2836.0,0.0,3.73,,12.56,0.909,77.2,,29.5,5.0,0.0,136.0,0.0,0.0,0.0,24.0,0.0,0.0,2.27,,,0,0,0,0,0,0,0,0,0,0,0,0,0,0,0,0,,0.0,,,,0.0,38.991573,-76.937027,0.05,36.0,14.0,2.0,1.8
215,48567,1745686679050,,,,,,,,,,,,,,,,,,,,,,,,,,,,,,,,,,0,0,0,0,0,0,0,0,0,0,0,0,0,0,0,0,,,,,,,,,,,,,
216,48587,1745686679070,0.0,121.0,,-0.03,-0.07,1.16,-1.0,0.0,1.0,1.16,1.36,86.0,2813.0,0.0,3.72,,12.56,0.909,77.2,,29.5,5.0,,,,,,,,,,,,0,0,0,0,0,0,0,0,0,0,0,0,0,0,0,0,,,,,,0.0,,,,,,,
217,48607,1745686679090,,,,,,,,,,,,,,,,,,,,,,,,,,,,,,,,,,0,0,0,0,0,0,0,0,0,0,0,0,0,0,0,0,,,,,,,,,,,,,
218,48627,1745686679116,0.0,121.0,,-0.04,-0.12,1.16,-1.0,0.0,1.0,1.16,1.36,86.0,2813.0,0.0,3.72,,12.64,0.895,77.2,,29.2,5.0,,,,,,,,,,,,0,0,0,0,0,0,0,0,0,0,0,0,0,0,0,0,,,,,,0.0,,,,,,,
219,48647,1745686679136,,,,,,,,,,,,,,,,,,,,,,,0.0,0.0,0.0,0.0,0.0,0.0,0.0,0.0,2.26,,,0,0,0,0,0,0,0,0,0,0,0,0,0,0,0,0,,0.0,,,,,38.991573,-76.937027,0.05,36.0,14.0,2.0,1.8
220,48667,1745686679156,0.0,121.0,,-0.04,-0.09,1.12,-1.0,0.0,1.0,1.12,1.36,83.0,2717.0,0.0,3.71,,12.72,0.874,77.2,,29.2,5.0,,,,,,,,,,,,0,0,0,0,0,0,0,0,0,0,0,0,0,0,0,0,,,,,,0.0,,,,,,,
221,48687,1745686679176,,,,,,,,,,,,,,,,,,,,,,,,,,,,,,,,,,0,0,0,0,0,0,0,0,0,0,0,0,0,0,0,0,,,,,,,,,,,,,
222,48707,1745686679196,0.0,121.0,,-0.05,-0.08,1.11,-1.0,0.0,0.0,1.11,1.36,82.0,2675.0,0.0,3.71,,12.8,0.858,77.2,,29.2,5.0,,,,,,,,,,,,0,0,0,0,0,0,0,0,0,0,0,0,0,0,0,0,,,,,,0.0,,,,,,,
223,48727,1745686679216,,,,,,,,,,,,,,,,,,,,,,,,,,,,,,,,,,0,0,0,0,0,0,0,0,0,0,0,0,0,0,0,0,,,,,,,,,,,,,
224,48747,1745686679236,0.0,121.0,14.24,-0.06,-0.08,1.1,-1.0,0.0,1.0,1.1,1.36,81.0,2617.0,8.2,3.81,15.0,13.32,0.843,77.2,90.0,29.8,5.0,0.0,0.0,0.0,0.0,0.0,0.0,0.0,0.0,2.26,0.0,0.0,0,0,0,0,0,0,0,0,0,0,0,0,0,0,0,0,0.0,0.0,0.0,0.0,0.0,0.0,38.991573,-76.937027,0.05,36.0,14.0,2.0,1.8
225,48767,1745686679256,,,,,,,,,,,,,,,,,,,,,,,,,,,,,,,,,,0,0,0,0,0,0,0,0,0,0,0,0,0,0,0,0,,,,,,,,,,,,,
226,48787,1745686679276,0.0,122.0,,-0.07,-0.07,1.08,-1.0,0.0,0.0,1.09,1.36,80.0,2623.0,22.9,4.74,,13.32,0.843,77.2,,29.8,5.0,,,,,,,,,,,,0,0,0,0,0,0,0,0,0,0,0,0,0,0,0,0,,,,,,0.0,,,,,,,
227,48807,1745686679296,,,,,,,,,,,,,,,,,,,,,,,,,,,,,,,,,,0,0,0,0,0,0,0,0,0,0,0,0,0,0,0,0,,,,,,,,,,,,,
228,48827,1745686679316,0.0,121.0,,-0.07,-0.12,1.13,-1.0,0.0,0.0,1.14,1.36,84.0,2623.0,22.9,4.74,,14.07,0.831,77.2,,32.0,5.0,,,,,,,,,,,,0,0,0,0,0,0,0,0,0,0,0,0,0,0,0,0,,,,,,0.0,,,,,,,
229,48847,1745686679336,,,,,,,,,,,,,,,,,,,,,,,0.0,16.0,0.0,0.0,0.0,24.0,0.0,0.0,2.26,,,0,0,0,0,0,0,0,0,0,0,0,0,0,0,0,0,,0.0,,,,,38.991573,-76.937027,0.13,36.0,14.0,2.0,1.8
230,48867,1745686679356,0.0,121.0,,-0.1,-0.18,1.15,-1.0,0.0,0.0,1.17,1.36,86.0,2919.0,26.6,4.65,,14.26,0.827,77.2,,32.0,5.0,,,,,,,,,,,,0,0,0,0,0,0,0,0,0,0,0,0,0,0,0,0,,,,,,0.0,,,,,,,
231,48887,1745686679376,,,,,,,,,,,,,,,,,,,,,,,,,,,,,,,,,,0,0,0,0,0,0,0,0,0,0,0,0,0,0,0,0,,,,,,,,,,,,,
232,48907,1745686679396,0.0,121.0,,-0.07,-0.02,1.07,0.0,0.0,0.0,1.07,1.36,79.0,3326.0,15.4,4.41,,13.95,0.833,77.2,,32.0,5.0,,,,,,,,,,,,0,0,0,0,0,0,0,0,0,0,0,0,0,0,0,0,,,,,,0.0,,,,,,,
233,48927,1745686679418,,,,,,,,,,,,,,,,,,,,,,,,,,,,,,,,,,0,0,0,0,0,0,0,0,0,0,0,0,0,0,0,0,,,,,,,,,,,,,
234,48947,1745686679438,0.0,121.0,,-0.11,-0.14,1.08,0.0,0.0,0.0,1.1,1.36,81.0,3549.0,0.0,3.47,,13.31,0.874,77.2,,34.1,5.0,0.0,16.0,0.0,0.0,0.0,24.0,0.0,0.0,2.27,,,0,0,0,0,0,0,0,0,0,0,0,0,0,0,0,0,,0.0,,,,0.0,38.991573,-76.937027,0.11,36.0,14.0,2.0,1.8
235,48967,1745686679458,,,,,,,,,,,,,,,,,,,,,,,,,,,,,,,,,,0,0,0,0,0,0,0,0,0,0,0,0,0,0,0,0,,,,,,,,,,,,,
236,48987,1745686679478,0.0,121.0,,-0.08,-0.06,1.1,-1.0,0.0,1.0,1.1,1.36,81.0,3498.0,0.0,3.23,,13.31,0.874,77.2,,34.1,5.0,,,,,,,,,,,,0,0,0,0,0,0,0,0,0,0,0,0,0,0,0,0,,,,,,0.0,,,,,,,
237,49007,1745686679498,,,,,,,,,,,,,,,,,,,,,,,,,,,,,,,,,,0,0,0,0,0,0,0,0,0,0,0,0,0,0,0,0,,,,,,,,,,,,,
238,49027,1745686679518,0.0,121.0,,-0.05,-0.06,1.06,0.0,0.0,0.0,1.06,1.36,78.0,3498.0,0.0,3.23,,12.88,0.945,77.2,,33.8,5.0,,,,,,,,,,,,0,0,0,0,0,0,0,0,0,0,0,0,0,0,0,0,,,,,,0.0,,,,,,,
239,49047,1745686679538,,,,,,,,,,,,,,,,,,,,,,,0.0,16.0,0.0,0.0,0.0,24.0,0.0,0.0,2.27,,,0,0,0,0,0,0,0,0,0,0,0,0,0,0,0,0,,0.0,,,,,38.991573,-76.937027,0.11,36.0,14.0,2.0,1.8
240,49067,1745686679558,0.0,122.0,,-0.08,-0.2,1.1,0.0,0.0,0.0,1.12,1.36,82.0,3459.0,0.0,3.14,,12.49,1.05,77.2,,33.8,5.0,,,,,,,,,,,,0,0,0,0,0,0,0,0,0,0,0,0,0,0,0,0,,,,,,0.0,,,,,,,
241,49087,1745686679578,,,,,,,,,,,,,,,,,,,,,,,,,,,,,,,,,,0,0,0,0,0,0,0,0,0,0,0,0,0,0,0,0,,,,,,,,,,,,,
242,49107,1745686679598,0.0,122.0,,-0.05,-0.03,1.03,0.0,0.0,0.0,1.03,1.36,76.0,3377.0,0.0,3.35,,12.41,1.079,77.2,,33.8,5.0,,,,,,,,,,,,0,0,0,0,0,0,0,0,0,0,0,0,0,0,0,0,,,,,,0.0,,,,,,,
243,49127,1745686679616,,,,,,,,,,,,,,,,,,,,,,,,,,,,,,,,,,0,0,0,0,0,0,0,0,0,0,0,0,0,0,0,0,,,,,,,,,,,,,
244,49147,1745686679636,0.0,121.0,,-0.06,-0.09,1.11,-1.0,0.0,1.0,1.12,1.36,82.0,3291.0,0.0,3.32,,12.32,1.084,77.2,,31.9,5.0,0.0,1.0,0.0,0.0,0.0,0.0,0.0,0.0,2.27,,,0,0,0,0,0,0,0,0,0,0,0,0,0,0,0,0,,0.0,,,,0.0,38.991573,-76.937027,0.04,36.0,14.0,2.0,1.8
245,49167,1745686679656,,,,,,,,,,,,,,,,,,,,,,,,,,,,,,,,,,0,0,0,0,0,0,0,0,0,0,0,0,0,0,0,0,,,,,,,,,,,,,
246,49187,1745686679676,0.0,121.0,,-0.09,-0.16,1.13,-1.0,0.0,0.0,1.14,1.36,84.0,3127.0,0.0,3.52,,12.32,1.084,77.2,,31.9,5.0,,,,,,,,,,,,0,0,0,0,0,0,0,0,0,0,0,0,0,0,0,0,,,,,,0.0,,,,,,,
247,49207,1745686679696,,,,,,,,,,,,,,,,,,,,,,,,,,,,,,,,,,0,0,0,0,0,0,0,0,0,0,0,0,0,0,0,0,,,,,,,,,,,,,
248,49227,1745686679718,0.0,121.0,,-0.11,-0.19,1.14,0.0,0.0,0.0,1.16,1.36,86.0,3127.0,0.0,3.52,,12.33,1.11,77.2,,28.9,5.0,,,,,,,,,,,,0,0,0,0,0,0,0,0,0,0,0,0,0,0,0,0,,,,,,0.0,,,,,,,
249,49247,1745686679738,,,,,,,,,,,,,,,,,,,,,,,0.0,533.0,0.0,0.0,0.0,24.0,0.0,0.0,2.26,,,0,0,0,0,0,0,0,0,0,0,0,0,0,0,0,0,,0.0,,,,,38.991573,-76.937027,0.07,36.0,14.0,2.0,1.8
250,49267,1745686679758,0.0,122.0,,-0.13,-0.24,1.15,0.0,0.0,0.0,1.19,1.36,87.0,2959.0,0.0,3.73,,12.45,1.079,77.2,,28.9,5.0,,,,,,,,,,,,0,0,0,0,0,0,0,0,0,0,0,0,0,0,0,0,,,,,,0.0,,,,,,,
251,49287,1745686679778,,,,,,,,,,,,,,,,,,,,,,,,,,,,,,,,,,0,0,0,0,0,0,0,0,0,0,0,0,0,0,0,0,,,,,,,,,,,,,
252,49307,1745686679798,0.0,122.0,,-0.16,-0.28,1.17,0.0,0.0,0.0,1.22,1.36,90.0,2965.0,0.0,3.71,,12.49,1.058,77.2,,28.9,5.0,,,,,,,,,,,,0,0,0,0,0,0,0,0,0,0,0,0,0,0,0,0,,,,,,0.0,,,,,,,
253,49327,1745686679818,,,,,,,,,,,,,,,,,,,,,,,,,,,,,,,,,,0,0,0,0,0,0,0,0,0,0,0,0,0,0,0,0,,,,,,,,,,,,,
254,49347,1745686679838,0.0,122.0,,-0.19,-0.3,1.18,0.0,0.0,0.0,1.23,1.36,91.0,3072.0,0.0,3.74,,12.49,1.022,77.2,,29.3,5.0,0.0,307.0,0.0,0.0,0.0,24.0,0.0,0.0,2.26,,,0,0,0,0,0,0,0,0,0,0,0,0,0,0,0,0,,0.0,,,,0.0,38.991573,-76.937027,0.04,36.0,14.0,2.0,1.8
255,49367,1745686679858,,,,,,,,,,,,,,,,,,,,,,,,,,,,,,,,,,0,0,0,0,0,0,0,0,0,0,0,0,0,0,0,0,,,,,,,,,,,,,
256,49387,1745686679878,0.0,122.0,,-0.21,-0.3,1.18,0.0,0.0,-1.0,1.24,1.36,91.0,3015.0,0.0,3.74,,12.49,1.022,77.2,,29.3,5.0,,,,,,,,,,,,0,0,0,0,0,0,0,0,0,0,0,0,0,0,0,0,,,,,,0.0,,,,,,,
257,49407,1745686679898,,,,,,,,,,,,,,,,,,,,,,,,,,,,,,,,,,0,0,0,0,0,0,0,0,0,0,0,0,0,0,0,0,,,,,,,,,,,,,
258,49427,1745686679917,0.0,122.0,,-0.2,-0.31,1.21,0.0,0.0,0.0,1.27,1.36,93.0,3015.0,0.0,3.74,,12.53,1.008,77.2,,28.9,5.0,,,,,,,,,,,,0,0,0,0,0,0,0,0,0,0,0,0,0,0,0,0,,,,,,0.0,,,,,,,
259,49447,1745686679937,,,,,,,,,,,,,,,,,,,,,,,0.0,869.0,0.0,0.0,0.0,24.0,0.0,0.0,2.26,,,0,0,0,0,0,0,0,0,0,0,0,0,0,0,0,0,,0.0,,,,,38.991573,-76.937027,0.08,36.0,14.0,2.0,1.8
260,49467,1745686679957,0.0,122.0,,-0.19,-0.26,1.23,-1.0,0.0,0.0,1.27,1.36,94.0,2908.0,0.0,3.73,,12.6,0.926,77.2,,28.9,5.0,,,,,,,,,,,,0,0,0,0,0,0,0,0,0,0,0,0,0,0,0,0,,,,,,0.0,,,,,,,
261,49487,1745686679977,,,,,,,,,,,,,,,,,,,,,,,,,,,,,,,,,,0,0,0,0,0,0,0,0,0,0,0,0,0,0,0,0,,,,,,,,,,,,,
262,49507,1745686679997,0.0,122.0,,-0.17,-0.22,1.18,-1.0,0.0,0.0,1.22,1.36,90.0,2763.0,0.0,3.72,,12.6,0.906,77.2,,28.9,5.0,,,,,,,,,,,,0,0,0,0,0,0,0,0,0,0,0,0,0,0,0,0,,,,,,0.0,,,,,,,
263,49527,1745686680011,,,,,,,,,,,,,,,,,,,,,,,,,,,,,,,,,,0,0,0,0,0,0,0,0,0,0,0,0,0,0,0,0,,,,,,,,,,,,,
264,49547,1745686680031,0.0,122.0,,-0.17,-0.18,1.14,0.0,0.0,0.0,1.16,1.36,85.0,2831.0,0.0,3.72,,12.75,0.889,77.2,,29.9,5.0,0.0,388.0,0.0,0.0,0.0,24.0,0.0,0.0,2.27,,,0,0,0,0,0,0,0,0,0,0,0,0,0,0,0,0,,0.0,,,,0.0,38.991573,-76.937027,0.16,36.0,14.0,2.0,1.8
265,49567,1745686680051,,,,,,,,,,,,,,,,,,,,,,,,,,,,,,,,,,0,0,0,0,0,0,0,0,0,0,0,0,0,0,0,0,,,,,,,,,,,,,
266,49587,1745686680071,0.0,121.0,,-0.15,-0.2,1.15,0.0,0.0,0.0,1.17,1.36,86.0,2772.0,0.0,3.73,,12.75,0.889,77.2,,29.9,5.0,,,,,,,,,,,,0,0,0,0,0,0,0,0,0,0,0,0,0,0,0,0,,,,,,0.0,,,,,,,
267,49607,1745686680091,,,,,,,,,,,,,,,,,,,,,,,,,,,,,,,,,,0,0,0,0,0,0,0,0,0,0,0,0,0,0,0,0,,,,,,,,,,,,,
268,49627,1745686680117,0.0,122.0,,-0.14,-0.17,1.1,0.0,0.0,0.0,1.13,1.36,83.0,2772.0,0.0,3.73,,12.75,0.882,77.2,,29.6,5.0,,,,,,,,,,,,0,0,0,0,0,0,0,0,0,0,0,0,0,0,0,0,,,,,,0.0,,,,,,,
269,49647,1745686680137,,,,,,,,,,,,,,,,,,,,,,,0.0,27.0,0.0,0.0,0.0,24.0,0.0,0.0,2.26,,,0,0,0,0,0,0,0,0,0,0,0,0,0,0,0,0,,0.0,,,,,38.991573,-76.937027,0.22,36.0,14.0,2.0,1.8
270,49667,1745686680157,0.0,122.0,,-0.15,-0.15,1.12,0.0,0.0,0.0,1.14,1.36,84.0,2726.0,0.0,3.71,,12.81,0.868,77.2,,29.6,5.0,,,,,,,,,,,,0,0,0,0,0,0,0,0,0,0,0,0,0,0,0,0,,,,,,0.0,,,,,,,
271,49687,1745686680177,,,,,,,,,,,,,,,,,,,,,,,,,,,,,,,,,,0,0,0,0,0,0,0,0,0,0,0,0,0,0,0,0,,,,,,,,,,,,,
272,49707,1745686680197,0.0,122.0,,-0.14,-0.13,1.1,0.0,0.0,0.0,1.12,1.36,82.0,2673.0,1.3,3.71,,13.07,0.854,77.2,,29.6,5.0,,,,,,,,,,,,0,0,0,0,0,0,0,0,0,0,0,0,0,0,0,0,,,,,,0.0,,,,,,,
273,49727,1745686680217,,,,,,,,,,,,,,,,,,,,,,,,,,,,,,,,,,0,0,0,0,0,0,0,0,0,0,0,0,0,0,0,0,,,,,,,,,,,,,
274,49747,1745686680237,0.0,122.0,14.22,-0.14,-0.11,1.1,0.0,0.0,0.0,1.11,1.36,82.0,2659.0,10.7,3.94,15.0,13.57,0.835,77.2,92.0,31.2,5.0,0.0,27.0,0.0,0.0,0.0,24.0,0.0,0.0,2.26,0.0,0.0,0,0,0,0,0,0,0,0,0,0,0,0,0,0,0,0,0.0,0.0,0.0,0.0,0.0,0.0,38.991573,-76.937027,0.29,36.0,14.0,2.0,1.8
275,49767,1745686680257,,,,,,,,,,,,,,,,,,,,,,,,,,,,,,,,,,0,0,0,0,0,0,0,0,0,0,0,0,0,0,0,0,,,,,,,,,,,,,
276,49787,1745686680277,0.0,122.0,,-0.13,-0.15,1.13,0.0,0.0,0.0,1.14,1.36,84.0,2808.0,12.2,3.91,,13.57,0.835,77.2,,31.2,5.0,,,,,,,,,,,,0,0,0,0,0,0,0,0,0,0,0,0,0,0,0,0,,,,,,0.0,,,,,,,
277,49807,1745686680297,,,,,,,,,,,,,,,,,,,,,,,,,,,,,,,,,,0,0,0,0,0,0,0,0,0,0,0,0,0,0,0,0,,,,,,,,,,,,,
278,49827,1745686680317,0.0,122.0,,-0.11,-0.1,1.14,-1.0,0.0,0.0,1.15,1.36,85.0,2808.0,12.2,3.91,,13.82,0.823,77.2,,31.8,5.0,,,,,,,,,,,,0,0,0,0,0,0,0,0,0,0,0,0,0,0,0,0,,,,,,0.0,,,,,,,
279,49847,1745686680337,,,,,,,,,,,,,,,,,,,,,,,0.0,2.0,0.0,0.0,0.0,0.0,0.0,0.0,2.26,,,0,0,0,0,0,0,0,0,0,0,0,0,0,0,0,0,,0.0,,,,,38.991573,-76.937027,0.46,36.0,14.0,2.0,1.8
280,49867,1745686680357,0.0,122.0,,-0.11,-0.14,1.23,-1.0,0.0,0.0,1.24,1.36,92.0,3008.0,5.5,3.87,,13.75,0.821,77.2,,31.8,5.0,,,,,,,,,,,,0,0,0,0,0,0,0,0,0,0,0,0,0,0,0,0,,,,,,0.0,,,,,,,
281,49887,1745686680377,,,,,,,,,,,,,,,,,,,,,,,,,,,,,,,,,,0,0,0,0,0,0,0,0,0,0,0,0,0,0,0,0,,,,,,,,,,,,,
282,49907,1745686680397,0.0,122.0,,-0.14,-0.18,1.23,0.0,0.0,0.0,1.25,1.36,92.0,3199.0,0.0,3.66,,13.27,0.847,77.2,,31.8,5.0,,,,,,,,,,,,0,0,0,0,0,0,0,0,0,0,0,0,0,0,0,0,,,,,,0.0,,,,,,,
283,49927,1745686680417,,,,,,,,,,,,,,,,,,,,,,,,,,,,,,,,,,0,0,0,0,0,0,0,0,0,0,0,0,0,0,0,0,,,,,,,,,,,,,
284,49947,1745686680437,0.0,122.0,,-0.1,-0.06,1.1,0.0,0.0,0.0,1.11,1.36,82.0,3248.0,0.0,3.51,,12.88,0.893,77.2,,33.3,5.0,0.0,3.0,0.0,0.0,0.0,0.0,0.0,0.0,2.26,,,0,0,0,0,0,0,0,0,0,0,0,0,0,0,0,0,,0.0,,,,0.0,38.991573,-76.937027,0.92,36.0,14.0,2.0,1.8
285,49967,1745686680457,,,,,,,,,,,,,,,,,,,,,,,,,,,,,,,,,,0,0,0,0,0,0,0,0,0,0,0,0,0,0,0,0,,,,,,,,,,,,,
286,49987,1745686680477,0.0,122.0,,-0.09,-0.06,1.16,-1.0,0.0,0.0,1.17,1.36,86.0,3223.0,0.0,3.45,,12.88,0.893,77.2,,33.3,5.0,,,,,,,,,,,,0,0,0,0,0,0,0,0,0,0,0,0,0,0,0,0,,,,,,0.0,,,,,,,
287,50007,1745686680497,,,,,,,,,,,,,,,,,,,,,,,,,,,,,,,,,,0,0,0,0,0,0,0,0,0,0,0,0,0,0,0,0,,,,,,,,,,,,,
288,50027,1745686680517,0.0,121.0,,-0.13,-0.14,1.17,0.0,0.0,0.0,1.18,1.36,87.0,3223.0,0.0,3.45,,12.71,0.926,77.2,,33.2,5.0,,,,,,,,,,,,0,0,0,0,0,0,0,0,0,0,0,0,0,0,0,0,,,,,,0.0,,,,,,,
289,50047,1745686680537,,,,,,,,,,,,,,,,,,,,,,,0.0,9.0,0.0,0.0,0.0,24.0,0.0,0.0,2.27,,,0,0,0,0,0,0,0,0,0,0,0,0,0,0,0,0,,0.0,,,,,38.991573,-76.937027,1.12,36.0,14.0,2.0,1.8
290,50067,1745686680557,0.0,122.0,,-0.11,-0.05,1.06,1.0,0.0,0.0,1.07,1.36,78.0,3201.0,0.0,3.47,,12.6,0.934,77.2,,33.2,5.0,,,,,,,,,,,,0,0,0,0,0,0,0,0,0,0,0,0,0,0,0,0,,,,,,0.0,,,,,,,
291,50087,1745686680577,,,,,,,,,,,,,,,,,,,,,,,,,,,,,,,,,,0,0,0,0,0,0,0,0,0,0,0,0,0,0,0,0,,,,,,,,,,,,,
292,50107,1745686680597,0.0,122.0,,-0.08,0.0,1.0,0.0,0.0,0.0,1.0,1.36,74.0,3170.0,0.0,3.55,,12.52,0.92,77.2,,33.2,5.0,,,,,,,,,,,,0,0,0,0,0,0,0,0,0,0,0,0,0,0,0,0,,,,,,0.0,,,,,,,
293,50127,1745686680617,,,,,,,,,,,,,,,,,,,,,,,,,,,,,,,,,,0,0,0,0,0,0,0,0,0,0,0,0,0,0,0,0,,,,,,,,,,,,,
294,50147,1745686680637,0.0,122.0,,-0.06,0.01,1.02,-1.0,0.0,1.0,1.02,1.36,75.0,3086.0,0.0,3.61,,12.49,0.899,77.2,,32.0,5.0,0.0,20.0,0.0,0.0,0.0,24.0,0.0,0.0,2.27,,,0,0,0,0,0,0,0,0,0,0,0,0,0,0,0,0,,0.0,,,,0.0,38.991573,-76.937027,0.47,36.1,14.0,2.0,1.8
295,50167,1745686680657,,,,,,,,,,,,,,,,,,,,,,,,,,,,,,,,,,0,0,0,0,0,0,0,0,0,0,0,0,0,0,0,0,,,,,,,,,,,,,
296,50187,1745686680677,0.0,122.0,,-0.05,0.04,1.05,-1.0,0.0,1.0,1.05,1.36,77.0,3013.0,0.0,3.72,,12.49,0.899,77.2,,32.0,5.0,,,,,,,,,,,,0,0,0,0,0,0,0,0,0,0,0,0,0,0,0,0,,,,,,0.0,,,,,,,
297,50207,1745686680697,,,,,,,,,,,,,,,,,,,,,,,,,,,,,,,,,,0,0,0,0,0,0,0,0,0,0,0,0,0,0,0,0,,,,,,,,,,,,,
298,50227,1745686680717,0.0,122.0,,-0.03,0.04,1.03,-1.0,0.0,1.0,1.03,1.36,76.0,3013.0,0.0,3.72,,12.6,0.88,77.2,,30.1,5.0,,,,,,,,,,,,0,0,0,0,0,0,0,0,0,0,0,0,0,0,0,0,,,,,,0.0,,,,,,,
299,50247,1745686680737,,,,,,,,,,,,,,,,,,,,,,,0.0,29.0,0.0,0.0,0.0,24.0,0.0,0.0,2.27,,,0,0,0,0,0,0,0,0,0,0,0,0,0,0,0,0,,0.0,,,,,38.991573,-76.937027,0.25,36.1,14.0,2.0,1.8
300,50267,1745686680757,0.0,122.0,,-0.02,0.02,0.99,-1.0,-1.0,1.0,0.99,1.36,73.0,2842.0,0.0,3.73,,12.68,0.868,75.4,,30.1,5.0,,,,,,,,,,,,0,0,0,0,0,0,0,0,0,0,0,0,0,0,0,0,,,,,,0.0,,,,,,,
301,50287,1745686680777,,,,,,,,,,,,,,,,,,,,,,,,,,,,,,,,,,0,0,0,0,0,0,0,0,0,0,0,0,0,0,0,0,,,,,,,,,,,,,
302,50307,1745686680797,0.0,122.0,,-0.02,-0.02,1.01,-1.0,0.0,1.0,1.01,1.36,74.0,2774.0,0.0,3.72,,12.69,0.867,75.4,,30.1,5.0,,,,,,,,,,,,0,0,0,0,0,0,0,0,0,0,0,0,0,0,0,0,,,,,,0.0,,,,,,,
303,50327,1745686680817,,,,,,,,,,,,,,,,,,,,,,,,,,,,,,,,,,0,0,0,0,0,0,0,0,0,0,0,0,0,0,0,0,,,,,,,,,,,,,
304,50347,1745686680837,0.0,122.0,,-0.04,0.0,1.01,-1.0,0.0,1.0,1.01,1.36,74.0,2703.0,0.0,3.7,,12.84,0.87,75.4,,29.1,5.0,0.0,2.0,0.0,0.0,0.0,0.0,0.0,0.0,2.26,,,0,0,0,0,0,0,0,0,0,0,0,0,0,0,0,0,,0.0,,,,0.0,38.991573,-76.937027,0.23,36.1,14.0,2.0,1.8
305,50367,1745686680857,,,,,,,,,,,,,,,,,,,,,,,,,,,,,,,,,,0,0,0,0,0,0,0,0,0,0,0,0,0,0,0,0,,,,,,,,,,,,,
306,50387,1745686680877,0.0,122.0,,-0.05,-0.02,1.01,0.0,0.0,1.0,1.01,1.36,75.0,2683.0,0.0,3.72,,12.84,0.87,75.4,,29.1,5.0,,,,,,,,,,,,0,0,0,0,0,0,0,0,0,0,0,0,0,0,0,0,,,,,,0.0,,,,,,,
307,50407,1745686680897,,,,,,,,,,,,,,,,,,,,,,,,,,,,,,,,,,0,0,0,0,0,0,0,0,0,0,0,0,0,0,0,0,,,,,,,,,,,,,
308,50427,1745686680916,0.0,122.0,,-0.05,-0.05,1.04,0.0,0.0,1.0,1.04,1.36,77.0,2683.0,0.0,3.72,,12.88,0.864,75.4,,31.4,5.0,,,,,,,,,,,,0,0,0,0,0,0,0,0,0,0,0,0,0,0,0,0,,,,,,0.0,,,,,,,
309,50447,1745686680936,,,,,,,,,,,,,,,,,,,,,,,0.0,3.0,0.0,0.0,0.0,0.0,0.0,0.0,2.26,,,0,0,0,0,0,0,0,0,0,0,0,0,0,0,0,0,,0.0,,,,,38.991573,-76.937027,0.37,36.1,14.0,2.0,1.8
310,50467,1745686680956,0.0,121.0,,-0.04,-0.02,1.0,-1.0,0.0,1.0,1.0,1.36,74.0,2758.0,0.0,3.73,,12.99,0.843,75.4,,31.4,5.0,,,,,,,,,,,,0,0,0,0,0,0,0,0,0,0,0,0,0,0,0,0,,,,,,0.0,,,,,,,
311,50487,1745686680976,,,,,,,,,,,,,,,,,,,,,,,,,,,,,,,,,,0,0,0,0,0,0,0,0,0,0,0,0,0,0,0,0,,,,,,,,,,,,,
312,50507,1745686680996,0.0,122.0,,-0.06,-0.01,1.01,0.0,0.0,0.0,1.01,1.36,74.0,2733.0,0.0,3.72,,13.11,0.825,75.4,,31.4,5.0,,,,,,,,,,,,0,0,0,0,0,0,0,0,0,0,0,0,0,0,0,0,,,,,,0.0,,,,,,,
313,50527,1745686681010,,,,,,,,,,,,,,,,,,,,,,,,,,,,,,,,,,0,0,0,0,0,0,0,0,0,0,0,0,0,0,0,0,,,,,,,,,,,,,
314,50547,1745686681030,0.0,122.0,,-0.06,0.01,1.03,0.0,0.0,1.0,1.04,1.36,76.0,2739.0,0.0,3.75,,13.16,0.814,75.4,,31.6,5.0,0.0,16.0,0.0,0.0,0.0,24.0,0.0,0.0,2.26,,,0,0,0,0,0,0,0,0,0,0,0,0,0,0,0,0,,0.0,,,,0.0,38.991573,-76.937027,0.08,36.1,14.0,2.0,1.8
315,50567,1745686681050,,,,,,,,,,,,,,,,,,,,,,,,,,,,,,,,,,0,0,0,0,0,0,0,0,0,0,0,0,0,0,0,0,,,,,,,,,,,,,
316,50587,1745686681070,0.0,123.0,,-0.06,0.02,1.02,-1.0,0.0,1.0,1.02,1.36,75.0,2816.0,0.0,3.76,,13.16,0.814,75.4,,31.6,5.0,,,,,,,,,,,,0,0,0,0,0,0,0,0,0,0,0,0,0,0,0,0,,,,,,0.0,,,,,,,
317,50607,1745686681090,,,,,,,,,,,,,,,,,,,,,,,,,,,,,,,,,,0,0,0,0,0,0,0,0,0,0,0,0,0,0,0,0,,,,,,,,,,,,,
318,50627,1745686681114,0.0,122.0,,-0.06,0.03,0.97,0.0,0.0,0.0,0.97,1.36,72.0,2816.0,0.0,3.76,,13.16,0.813,75.4,,31.7,5.0,,,,,,,,,,,,0,0,0,0,0,0,0,0,0,0,0,0,0,0,0,0,,,,,,0.0,,,,,,,
319,50647,1745686681134,,,,,,,,,,,,,,,,,,,,,,,0.0,16.0,0.0,0.0,0.0,24.0,0.0,0.0,2.27,,,0,0,0,0,0,0,0,0,0,0,0,0,0,0,0,0,,0.0,,,,,38.991573,-76.937027,0.04,36.1,14.0,2.0,1.8
320,50667,1745686681154,0.0,122.0,,-0.06,0.03,0.96,0.0,0.0,0.0,0.97,1.36,71.0,2891.0,0.0,3.75,,13.05,0.817,75.4,,31.7,5.0,,,,,,,,,,,,0,0,0,0,0,0,0,0,0,0,0,0,0,0,0,0,,,,,,0.0,,,,,,,
321,50687,1745686681174,,,,,,,,,,,,,,,,,,,,,,,,,,,,,,,,,,0,0,0,0,0,0,0,0,0,0,0,0,0,0,0,0,,,,,,,,,,,,,
322,50707,1745686681194,0.0,123.0,,-0.08,0.0,0.98,0.0,0.0,0.0,0.99,1.36,73.0,2869.0,0.0,3.77,,12.92,0.82,75.4,,31.7,5.0,,,,,,,,,,,,0,0,0,0,0,0,0,0,0,0,0,0,0,0,0,0,,,,,,0.0,,,,,,,
323,50727,1745686681216,,,,,,,,,,,,,,,,,,,,,,,,,,,,,,,,,,0,0,0,0,0,0,0,0,0,0,0,0,0,0,0,0,,,,,,,,,,,,,
324,50747,1745686681236,0.0,122.0,14.29,-0.08,-0.04,1.03,0.0,0.0,0.0,1.03,1.36,76.0,2856.0,0.0,3.76,15.0,12.88,0.821,75.4,92.0,32.5,5.0,0.0,367.0,0.0,0.0,0.0,24.0,0.0,0.0,2.27,0.0,0.0,0,0,0,0,0,0,0,0,0,0,0,0,0,0,0,0,0.0,0.0,0.0,0.0,0.0,0.0,38.991573,-76.937027,0.54,36.1,14.0,2.0,1.8
325,50767,1745686681256,,,,,,,,,,,,,,,,,,,,,,,,,,,,,,,,,,0,0,0,0,0,0,0,0,0,0,0,0,0,0,0,0,,,,,,,,,,,,,
326,50787,1745686681276,0.0,122.0,,-0.08,-0.0,1.05,0.0,0.0,0.0,1.05,1.36,78.0,2853.0,0.0,3.74,,12.88,0.821,75.4,,32.5,5.0,,,,,,,,,,,,0,0,0,0,0,0,0,0,0,0,0,0,0,0,0,0,,,,,,0.0,,,,,,,
327,50807,1745686681296,,,,,,,,,,,,,,,,,,,,,,,,,,,,,,,,,,0,0,0,0,0,0,0,0,0,0,0,0,0,0,0,0,,,,,,,,,,,,,
328,50827,1745686681318,0.0,122.0,,-0.06,0.02,1.01,0.0,0.0,0.0,1.02,1.36,75.0,2853.0,0.0,3.74,,12.85,0.825,75.4,,30.6,5.0,,,,,,,,,,,,0,0,0,0,0,0,0,0,0,0,0,0,0,0,0,0,,,,,,0.0,,,,,,,
329,50847,1745686681338,,,,,,,,,,,,,,,,,,,,,,,0.0,869.0,0.0,0.0,0.0,0.0,0.0,0.0,2.26,,,0,0,0,0,0,0,0,0,0,0,0,0,0,0,0,0,,0.0,,,,,38.991573,-76.937027,0.27,36.1,14.0,2.0,1.8
330,50867,1745686681358,0.0,122.0,,-0.07,0.0,1.03,0.0,0.0,0.0,1.03,1.36,76.0,2757.0,0.0,3.73,,12.83,0.832,75.4,,30.6,5.0,,,,,,,,,,,,0,0,0,0,0,0,0,0,0,0,0,0,0,0,0,0,,,,,,0.0,,,,,,,
331,50887,1745686681378,,,,,,,,,,,,,,,,,,,,,,,,,,,,,,,,,,0,0,0,0,0,0,0,0,0,0,0,0,0,0,0,0,,,,,,,,,,,,,
332,50907,1745686681398,0.0,122.0,,-0.07,0.03,1.01,0.0,0.0,0.0,1.01,1.36,75.0,2632.0,0.0,3.71,,13.03,0.83,75.4,,30.6,5.0,,,,,,,,,,,,0,0,0,0,0,0,0,0,0,0,0,0,0,0,0,0,,,,,,0.0,,,,,,,
333,50927,1745686681418,,,,,,,,,,,,,,,,,,,,,,,,,,,,,,,,,,0,0,0,0,0,0,0,0,0,0,0,0,0,0,0,0,,,,,,,,,,,,,
334,50947,1745686681438,0.0,122.0,,-0.08,0.0,1.03,0.0,0.0,0.0,1.03,1.36,76.0,2647.0,0.0,3.72,,13.03,0.834,75.4,,29.8,5.0,0.0,251.0,0.0,0.0,0.0,24.0,0.0,0.0,2.26,,,0,0,0,0,0,0,0,0,0,0,0,0,0,0,0,0,,0.0,,,,0.0,38.991573,-76.937027,0.08,36.1,14.0,2.0,1.8
335,50967,1745686681458,,,,,,,,,,,,,,,,,,,,,,,,,,,,,,,,,,0,0,0,0,0,0,0,0,0,0,0,0,0,0,0,0,,,,,,,,,,,,,
336,50987,1745686681478,0.0,123.0,,-0.07,0.02,1.02,0.0,0.0,0.0,1.02,1.36,75.0,2647.0,0.0,3.71,,13.03,0.834,75.4,,29.8,5.0,,,,,,,,,,,,0,0,0,0,0,0,0,0,0,0,0,0,0,0,0,0,,,,,,0.0,,,,,,,
337,51007,1745686681498,,,,,,,,,,,,,,,,,,,,,,,,,,,,,,,,,,0,0,0,0,0,0,0,0,0,0,0,0,0,0,0,0,,,,,,,,,,,,,
338,51027,1745686681514,0.0,123.0,,-0.08,0.02,1.04,0.0,0.0,0.0,1.04,1.36,76.0,2647.0,0.0,3.71,,13.15,0.833,75.4,,31.0,5.0,,,,,,,,,,,,0,0,0,0,0,0,0,0,0,0,0,0,0,0,0,0,,,,,,0.0,,,,,,,
339,51047,1745686681534,,,,,,,,,,,,,,,,,,,,,,,0.0,1.0,0.0,0.0,0.0,24.0,0.0,0.0,2.26,,,0,0,0,0,0,0,0,0,0,0,0,0,0,0,0,0,,0.0,,,,,38.991573,-76.937027,0.57,36.1,14.0,2.0,1.8
340,51067,1745686681554,0.0,122.0,,-0.08,0.03,1.03,0.0,0.0,0.0,1.03,1.36,76.0,2597.0,0.7,3.73,,13.33,0.825,75.4,,31.0,5.0,,,,,,,,,,,,0,0,0,0,0,0,0,0,0,0,0,0,0,0,0,0,,,,,,0.0,,,,,,,
341,51087,1745686681574,,,,,,,,,,,,,,,,,,,,,,,,,,,,,,,,,,0,0,0,0,0,0,0,0,0,0,0,0,0,0,0,0,,,,,,,,,,,,,
342,51107,1745686681594,0.0,122.0,,-0.08,0.04,1.01,0.0,0.0,0.0,1.02,1.36,75.0,2689.0,0.9,3.74,,13.39,0.821,75.4,,31.0,5.0,,,,,,,,,,,,0,0,0,0,0,0,0,0,0,0,0,0,0,0,0,0,,,,,,0.0,,,,,,,
343,51127,1745686681614,,,,,,,,,,,,,,,,,,,,,,,,,,,,,,,,,,0,0,0,0,0,0,0,0,0,0,0,0,0,0,0,0,,,,,,,,,,,,,
344,51147,1745686681634,0.0,122.0,,-0.08,-0.03,1.05,0.0,0.0,0.0,1.06,1.36,78.0,2749.0,0.5,3.73,,13.33,0.823,75.4,,31.6,5.0,0.0,1.0,0.0,0.0,0.0,0.0,0.0,0.0,2.27,,,0,0,0,0,0,0,0,0,0,0,0,0,0,0,0,0,,0.0,,,,0.0,38.991573,-76.937027,0.15,36.1,14.0,2.0,1.8
345,51167,1745686681654,,,,,,,,,,,,,,,,,,,,,,,,,,,,,,,,,,0,0,0,0,0,0,0,0,0,0,0,0,0,0,0,0,,,,,,,,,,,,,
346,51187,1745686681674,0.0,123.0,,-0.07,0.03,1.05,0.0,0.0,0.0,1.05,1.36,78.0,2808.0,0.0,3.77,,13.33,0.823,75.4,,31.6,5.0,,,,,,,,,,,,0,0,0,0,0,0,0,0,0,0,0,0,0,0,0,0,,,,,,0.0,,,,,,,
347,51207,1745686681694,,,,,,,,,,,,,,,,,,,,,,,,,,,,,,,,,,0,0,0,0,0,0,0,0,0,0,0,0,0,0,0,0,,,,,,,,,,,,,
348,51227,1745686681716,0.0,122.0,,-0.06,-0.0,1.01,0.0,0.0,0.0,1.02,1.36,75.0,2808.0,0.0,3.77,,13.19,0.823,75.4,,32.1,5.0,,,,,,,,,,,,0,0,0,0,0,0,0,0,0,0,0,0,0,0,0,0,,,,,,0.0,,,,,,,
349,51247,1745686681736,,,,,,,,,,,,,,,,,,,,,,,0.0,1.0,0.0,0.0,0.0,0.0,0.0,0.0,2.27,,,0,0,0,0,0,0,0,0,0,0,0,0,0,0,0,0,,0.0,,,,,38.991573,-76.937027,0.15,36.1,14.0,2.0,1.8
350,51267,1745686681756,0.0,122.0,,-0.08,0.03,1.02,0.0,0.0,0.0,1.02,1.36,75.0,2792.0,0.0,3.75,,13.01,0.83,77.2,,32.1,5.0,,,,,,,,,,,,0,0,0,0,0,0,0,0,0,0,0,0,0,0,0,0,,,,,,0.0,,,,,,,
351,51287,1745686681776,,,,,,,,,,,,,,,,,,,,,,,,,,,,,,,,,,0,0,0,0,0,0,0,0,0,0,0,0,0,0,0,0,,,,,,,,,,,,,
352,51307,1745686681796,0.0,123.0,,-0.07,-0.01,1.07,0.0,0.0,0.0,1.07,1.36,79.0,2756.0,0.0,3.74,,12.95,0.837,77.2,,32.1,5.0,,,,,,,,,,,,0,0,0,0,0,0,0,0,0,0,0,0,0,0,0,0,,,,,,0.0,,,,,,,
353,51327,1745686681816,,,,,,,,,,,,,,,,,,,,,,,,,,,,,,,,,,0,0,0,0,0,0,0,0,0,0,0,0,0,0,0,0,,,,,,,,,,,,,
354,51347,1745686681836,0.0,122.0,,-0.08,-0.01,1.12,0.0,0.0,0.0,1.12,1.36,82.0,2943.0,0.0,3.74,,13.01,0.864,77.2,,31.7,5.0,0.0,1.0,0.0,0.0,0.0,0.0,0.0,0.0,2.27,,,0,0,0,0,0,0,0,0,0,0,0,0,0,0,0,0,,0.0,,,,0.0,38.991573,-76.937027,0.15,36.1,14.0,2.0,1.8
355,51367,1745686681856,,,,,,,,,,,,,,,,,,,,,,,,,,,,,,,,,,0,0,0,0,0,0,0,0,0,0,0,0,0,0,0,0,,,,,,,,,,,,,
356,51387,1745686681876,0.0,123.0,,-0.09,0.04,1.14,-1.0,0.0,1.0,1.15,1.36,84.0,2906.0,6.3,3.85,,13.01,0.864,77.2,,31.7,5.0,,,,,,,,,,,,0,0,0,0,0,0,0,0,0,0,0,0,0,0,0,0,,,,,,0.0,,,,,,,
357,51407,1745686681896,,,,,,,,,,,,,,,,,,,,,,,,,,,,,,,,,,0,0,0,0,0,0,0,0,0,0,0,0,0,0,0,0,,,,,,,,,,,,,
358,51427,1745686681915,0.0,122.0,,-0.09,0.07,1.17,-1.0,0.0,1.0,1.18,1.36,87.0,2906.0,6.3,3.85,,13.39,0.899,77.2,,32.7,5.0,,,,,,,,,,,,0,0,0,0,0,0,0,0,0,0,0,0,0,0,0,0,,,,,,0.0,,,,,,,
359,51447,1745686681935,,,,,,,,,,,,,,,,,,,,,,,0.0,1.0,0.0,0.0,0.0,0.0,0.0,0.0,2.26,,,0,0,0,0,0,0,0,0,0,0,0,0,0,0,0,0,,0.0,,,,,38.991573,-76.937027,0.21,36.1,14.0,2.0,1.8
360,51467,1745686681955,0.0,122.0,,-0.08,0.07,1.23,-1.0,0.0,1.0,1.24,1.36,91.0,2981.0,7.1,3.85,,13.59,0.876,77.2,,32.7,5.0,,,,,,,,,,,,0,0,0,0,0,0,0,0,0,0,0,0,0,0,0,0,,,,,,0.0,,,,,,,
361,51487,1745686681975,,,,,,,,,,,,,,,,,,,,,,,,,,,,,,,,,,0,0,0,0,0,0,0,0,0,0,0,0,0,0,0,0,,,,,,,,,,,,,
362,51507,1745686681995,0.0,123.0,,-0.1,-0.0,1.2,0.0,0.0,1.0,1.2,1.36,88.0,3276.0,7.3,3.87,,13.57,0.855,77.2,,32.7,5.0,,,,,,,,,,,,0,0,0,0,0,0,0,0,0,0,0,0,0,0,0,0,,,,,,0.0,,,,,,,
363,51527,1745686682011,,,,,,,,,,,,,,,,,,,,,,,,,,,,,,,,,,0,0,0,0,0,0,0,0,0,0,0,0,0,0,0,0,,,,,,,,,,,,,
364,51547,1745686682031,0.0,123.0,,-0.08,0.06,1.19,-2.0,0.0,1.0,1.19,1.36,88.0,3471.0,0.0,3.39,,13.21,0.879,77.2,,34.1,5.0,0.0,1.0,0.0,0.0,0.0,0.0,0.0,0.0,2.26,,,0,0,0,0,0,0,0,0,0,0,0,0,0,0,0,0,,0.0,,,,0.0,38.991573,-76.937027,0.16,36.1,14.0,2.0,1.8
365,51567,1745686682051,,,,,,,,,,,,,,,,,,,,,,,,,,,,,,,,,,0,0,0,0,0,0,0,0,0,0,0,0,0,0,0,0,,,,,,,,,,,,,
366,51587,1745686682071,0.0,123.0,,-0.07,0.02,1.15,0.0,0.0,1.0,1.16,1.36,85.0,3541.0,0.0,3.12,,13.21,0.879,77.2,,34.1,5.0,,,,,,,,,,,,0,0,0,0,0,0,0,0,0,0,0,0,0,0,0,0,,,,,,0.0,,,,,,,
367,51607,1745686682091,,,,,,,,,,,,,,,,,,,,,,,,,,,,,,,,,,0,0,0,0,0,0,0,0,0,0,0,0,0,0,0,0,,,,,,,,,,,,,
368,51627,1745686682115,0.0,123.0,,-0.08,-0.08,1.11,0.0,0.0,0.0,1.12,1.36,82.0,3541.0,0.0,3.12,,12.73,0.888,77.2,,34.1,5.0,,,,,,,,,,,,0,0,0,0,0,0,0,0,0,0,0,0,0,0,0,0,,,,,,0.0,,,,,,,
369,51647,1745686682135,,,,,,,,,,,,,,,,,,,,,,,0.0,1.0,0.0,0.0,0.0,0.0,0.0,0.0,2.26,,,0,0,0,0,0,0,0,0,0,0,0,0,0,0,0,0,,0.0,,,,,38.991573,-76.937027,0.08,36.1,14.0,2.0,1.8
370,51667,1745686682155,0.0,122.0,,-0.08,-0.05,1.15,-1.0,0.0,1.0,1.15,1.36,85.0,3506.0,0.0,3.11,,12.44,0.887,77.2,,34.1,5.0,,,,,,,,,,,,0,0,0,0,0,0,0,0,0,0,0,0,0,0,0,0,,,,,,0.0,,,,,,,
371,51687,1745686682175,,,,,,,,,,,,,,,,,,,,,,,,,,,,,,,,,,0,0,0,0,0,0,0,0,0,0,0,0,0,0,0,0,,,,,,,,,,,,,
372,51707,1745686682195,0.0,123.0,,-0.07,-0.02,1.06,0.0,0.0,0.0,1.07,1.36,79.0,3432.0,0.0,3.17,,12.39,0.888,77.2,,34.1,5.0,,,,,,,,,,,,0,0,0,0,0,0,0,0,0,0,0,0,0,0,0,0,,,,,,0.0,,,,,,,
373,51727,1745686682215,,,,,,,,,,,,,,,,,,,,,,,,,,,,,,,,,,0,0,0,0,0,0,0,0,0,0,0,0,0,0,0,0,,,,,,,,,,,,,
374,51747,1745686682235,0.0,123.0,14.28,-0.06,0.01,1.13,-1.0,0.0,1.0,1.13,1.36,83.0,3273.0,0.0,3.32,15.0,12.33,0.886,77.2,92.0,32.6,5.0,0.0,1.0,0.0,0.0,0.0,0.0,0.0,0.0,2.27,0.0,0.0,0,0,0,0,0,0,0,0,0,0,0,0,0,0,0,0,0.0,0.0,0.0,0.0,0.0,0.0,38.991573,-76.937027,0.11,36.1,14.0,2.0,1.8
375,51767,1745686682255,,,,,,,,,,,,,,,,,,,,,,,,,,,,,,,,,,0,0,0,0,0,0,0,0,0,0,0,0,0,0,0,0,,,,,,,,,,,,,
376,51787,1745686682275,0.0,122.0,,-0.12,-0.1,1.13,0.0,0.0,0.0,1.14,1.36,84.0,3286.0,0.0,3.46,,12.33,0.886,77.2,,32.6,5.0,,,,,,,,,,,,0,0,0,0,0,0,0,0,0,0,0,0,0,0,0,0,,,,,,0.0,,,,,,,
377,51807,1745686682295,,,,,,,,,,,,,,,,,,,,,,,,,,,,,,,,,,0,0,0,0,0,0,0,0,0,0,0,0,0,0,0,0,,,,,,,,,,,,,
378,51827,1745686682317,0.0,123.0,,-0.08,0.01,1.02,0.0,0.0,0.0,1.03,1.36,76.0,3286.0,0.0,3.46,,12.36,0.887,77.2,,31.0,5.0,,,,,,,,,,,,0,0,0,0,0,0,0,0,0,0,0,0,0,0,0,0,,,,,,0.0,,,,,,,
379,51847,1745686682337,,,,,,,,,,,,,,,,,,,,,,,0.0,0.0,0.0,0.0,0.0,0.0,0.0,0.0,2.27,,,0,0,0,0,0,0,0,0,0,0,0,0,0,0,0,0,,0.0,,,,,38.991573,-76.937027,0.07,36.1,14.0,2.0,1.8
380,51867,1745686682357,0.0,123.0,,-0.06,-0.0,0.99,0.0,-1.0,1.0,1.0,1.36,73.0,3133.0,0.0,3.47,,12.36,0.898,77.2,,31.0,5.0,,,,,,,,,,,,0,0,0,0,0,0,0,0,0,0,0,0,0,0,0,0,,,,,,0.0,,,,,,,
381,51887,1745686682377,,,,,,,,,,,,,,,,,,,,,,,,,,,,,,,,,,0,0,0,0,0,0,0,0,0,0,0,0,0,0,0,0,,,,,,,,,,,,,
