,Interval,Utc,FrontBP,SteerAng,Battery,AccelX,AccelY,AccelZ,Yaw,Pitch,Roll,Gsum,GsumMax,GsumPct,RPM,TPS,InjectorPW,Baro,MAP,Lambda,IAT,EngineTemp,EOP,EOT,WSFR,WSFL,WSRR,WSRL,TCSet,TCSlip,TCComp,TCCut,Analog8,OilTemp,AA_On,ThermLF1,ThermLF2,ThermRR1,ThermRR2,ThermLF3,ThermLF4,ThermLF5,ThermLF6,ThermLF7,ThermLF8,ThermRR3,ThermRR4,ThermRR5,ThermRR6,ThermRR7,ThermRR8,AA_LowDrag,Gear,AA_On1,AA_LowDrag1,Fuel_Mix,AA_Packages,Latitude,Longitude,Speed,Altitude,GPSSats,GPSQual,GPSDOP
0,36907,1745695688800,0.0,-135.0,,-0.04,-0.13,0.96,0.0,0.0,0.0,0.97,0.97,100.0,3936.0,10.6,3.87,,12.88,0.857,75.4,,33.1,5.0,,,,,,,,,,,,0,0,0,0,0,0,0,0,0,0,0,0,0,0,0,0,,,,,,0.0,,,,,,,
1,36927,1745695688820,,,,,,,,,,,,,,,,,,,,,,,,,,,,,,,,,,0,0,0,0,0,0,0,0,0,0,0,0,0,0,0,0,,,,,,,,,,,,,
2,36947,1745695688840,0.0,-135.0,,-0.05,-0.1,0.94,1.0,0.0,0.0,0.94,0.97,97.0,3828.0,10.7,3.87,,12.88,0.857,75.4,,33.1,5.0,,,,,,,,,,,,0,0,0,0,0,0,0,0,0,0,0,0,0,0,0,0,,,,,,0.0,,,,,,,
3,36967,1745695688860,,,,,,,,,,,,,,,,,,,,,,,,,,,,,,,,,,0,0,0,0,0,0,0,0,0,0,0,0,0,0,0,0,,,,,,,,,,,,,
4,36987,1745695688880,0.0,-135.0,,-0.03,-0.11,0.92,2.0,0.0,0.0,0.92,0.97,95.0,3828.0,10.7,3.87,,13.03,0.883,75.4,,33.4,5.0,0.0,0.0,0.0,0.0,0.0,72.0,0.0,0.0,2.55,,,0,0,0,0,0,0,0,0,0,0,0,0,0,0,0,0,,0.0,,,,0.0,38.991592,-76.937012,0.93,31.5,11.0,2.0,2.2
5,37007,1745695688898,,,,,,,,,,,,,,,,,,,,,,,,,,,,,,,,,,0,0,0,0,0,0,0,0,0,0,0,0,0,0,0,0,,,,,,,,,,,,,
6,37027,1745695688918,0.0,-135.0,,-0.03,-0.12,0.91,2.0,0.0,-1.0,0.92,0.97,94.0,3855.0,10.6,3.88,,13.07,0.892,75.4,,33.4,5.0,,,,,,,,,,,,0,0,0,0,0,0,0,0,0,0,0,0,0,0,0,0,,,,,,0.0,,,,,,,
7,37047,1745695688938,,,,,,,,,,,,,,,,,,,,,,,,,,,,,,,,,,0,0,0,0,0,0,0,0,0,0,0,0,0,0,0,0,,,,,,,,,,,,,
8,37067,1745695688958,0.0,-135.0,,0.0,-0.11,0.93,2.0,0.0,-1.0,0.93,0.97,96.0,3820.0,10.6,3.88,,13.12,0.887,75.4,,33.4,5.0,,,,,,,,,,,,0,0,0,0,0,0,0,0,0,0,0,0,0,0,0,0,,,,,,0.0,,,,,,,
9,37087,1745695688978,,,,,,,,,,,,,,,,,,,,,,,1.0,19.0,1.0,0.0,0.0,87.0,0.0,0.0,2.55,,,0,0,0,0,0,0,0,0,0,0,0,0,0,0,0,0,,0.0,,,,,38.991592,-76.937012,1.78,31.5,11.0,2.0,2.2
10,37107,1745695688994,0.0,-135.0,,0.01,-0.08,0.94,2.0,0.0,0.0,0.95,0.97,97.0,3813.0,10.6,3.89,,13.05,0.878,75.4,,33.6,5.0,,,,,,,,,,,,0,0,0,0,0,0,0,0,0,0,0,0,0,0,0,0,,,,,,0.0,,,,,,,
11,37127,1745695689014,,,,,,,,,,,,,,,,,,,,,,,,,,,,,,,,,,0,0,0,0,0,0,0,0,0,0,0,0,0,0,0,0,,,,,,,,,,,,,
12,37147,1745695689034,0.0,-135.0,,0.02,-0.03,0.96,2.0,-1.0,0.0,0.96,0.97,98.0,3795.0,10.5,3.89,,13.05,0.878,75.4,,33.6,5.0,,,,,,,,,,,,0,0,0,0,0,0,0,0,0,0,0,0,0,0,0,0,,,,,,0.0,,,,,,,
13,37167,1745695689054,,,,,,,,,,,,,,,,,,,,,,,,,,,,,,,,,,0,0,0,0,0,0,0,0,0,0,0,0,0,0,0,0,,,,,,,,,,,,,
14,37187,1745695689074,0.0,-135.0,,0.0,-0.02,0.94,2.0,-1.0,-1.0,0.94,0.97,96.0,3795.0,10.5,3.89,,13.05,0.879,75.4,,32.9,5.0,1.0,19.0,1.0,1.0,0.0,101.0,0.0,0.0,2.55,,,0,0,0,0,0,0,0,0,0,0,0,0,0,0,0,0,,0.0,,,,0.0,38.991592,-76.937012,2.19,31.6,11.0,2.0,2.2
15,37207,1745695689096,,,,,,,,,,,,,,,,,,,,,,,,,,,,,,,,,,0,0,0,0,0,0,0,0,0,0,0,0,0,0,0,0,,,,,,,,,,,,,
16,37227,1745695689116,0.0,-135.0,,0.0,0.01,0.94,2.0,-1.0,-1.0,0.94,0.97,97.0,3712.0,10.7,3.9,,13.23,0.888,75.4,,32.9,5.0,,,,,,,,,,,,0,0,0,0,0,0,0,0,0,0,0,0,0,0,0,0,,,,,,0.0,,,,,,,
17,37247,1745695689136,,,,,,,,,,,,,,,,,,,,,,,,,,,,,,,,,,0,0,0,0,0,0,0,0,0,0,0,0,0,0,0,0,,,,,,,,,,,,,
18,37267,1745695689156,0.0,-135.0,,-0.0,0.01,0.94,2.0,-1.0,0.0,0.94,0.97,97.0,3685.0,10.7,3.89,,13.24,0.899,75.4,,32.9,5.0,,,,,,,,,,,,0,0,0,0,0,0,0,0,0,0,0,0,0,0,0,0,,,,,,0.0,,,,,,,
19,37287,1745695689176,,,,,,,,,,,,,,,,,,,,,,,1.0,19.0,1.0,1.0,0.0,108.0,0.0,0.0,2.55,,,0,0,0,0,0,0,0,0,0,0,0,0,0,0,0,0,,0.0,,,,,38.991592,-76.937012,1.89,31.6,13.0,2.0,2.2
20,37307,1745695689198,0.0,-135.0,,0.01,-0.04,0.95,2.0,0.0,0.0,0.95,0.97,98.0,3721.0,10.6,3.9,,13.24,0.909,75.4,,33.8,5.0,,,,,,,,,,,,0,0,0,0,0,0,0,0,0,0,0,0,0,0,0,0,,,,,,0.0,,,,,,,
21,37327,1745695689218,,,,,,,,,,,,,,,,,,,,,,,,,,,,,,,,,,0,0,0,0,0,0,0,0,0,0,0,0,0,0,0,0,,,,,,,,,,,,,
22,37347,1745695689238,0.0,-134.0,,0.0,-0.1,0.96,2.0,0.0,0.0,0.96,0.97,99.0,3705.0,10.6,3.89,,13.24,0.909,75.4,,33.8,5.0,,,,,,,,,,,,0,0,0,0,0,0,0,0,0,0,0,0,0,0,0,0,,,,,,0.0,,,,,,,
23,37367,1745695689258,,,,,,,,,,,,,,,,,,,,,,,,,,,,,,,,,,0,0,0,0,0,0,0,0,0,0,0,0,0,0,0,0,,,,,,,,,,,,,
24,37387,1745695689278,0.0,-134.0,13.98,-0.01,-0.14,0.98,2.0,0.0,0.0,0.99,0.99,100.0,3705.0,10.6,3.89,15.0,13.15,0.915,75.4,77.0,33.8,5.0,2.0,19.0,2.0,1.0,0.0,116.0,0.0,0.0,2.55,0.0,0.0,0,0,0,0,0,0,0,0,0,0,0,0,0,0,0,0,0.0,0.0,0.0,0.0,-1.0,0.0,38.991592,-76.937012,2.3,31.6,14.0,2.0,2.1
25,37407,1745695689299,,,,,,,,,,,,,,,,,,,,,,,,,,,,,,,,,,0,0,0,0,0,0,0,0,0,0,0,0,0,0,0,0,,,,,,,,,,,,,
26,37427,1745695689319,0.0,-134.0,,-0.01,-0.09,1.0,2.0,-1.0,0.0,1.0,1.0,100.0,3643.0,10.6,3.9,,13.15,0.917,75.4,,33.8,5.0,,,,,,,,,,,,0,0,0,0,0,0,0,0,0,0,0,0,0,0,0,0,,,,,,0.0,,,,,,,
27,37447,1745695689339,,,,,,,,,,,,,,,,,,,,,,,,,,,,,,,,,,0,0,0,0,0,0,0,0,0,0,0,0,0,0,0,0,,,,,,,,,,,,,
28,37467,1745695689359,0.0,-134.0,,-0.01,-0.01,1.0,2.0,-1.0,0.0,1.0,1.0,100.0,3667.0,10.6,3.9,,13.23,0.921,75.4,,33.8,5.0,,,,,,,,,,,,0,0,0,0,0,0,0,0,0,0,0,0,0,0,0,0,,,,,,0.0,,,,,,,
29,37487,1745695689379,,,,,,,,,,,,,,,,,,,,,,,2.0,19.0,2.0,2.0,0.0,127.0,0.0,0.0,2.55,,,0,0,0,0,0,0,0,0,0,0,0,0,0,0,0,0,,0.0,,,,,38.991589,-76.937012,2.41,31.6,14.0,2.0,2.1
30,37507,1745695689399,0.0,-135.0,,0.01,0.03,1.02,3.0,-1.0,0.0,1.02,1.02,100.0,3686.0,10.6,3.9,,13.25,0.926,75.4,,33.3,5.0,,,,,,,,,,,,0,0,0,0,0,0,0,0,0,0,0,0,0,0,0,0,,,,,,0.0,,,,,,,
31,37527,1745695689419,,,,,,,,,,,,,,,,,,,,,,,,,,,,,,,,,,0,0,0,0,0,0,0,0,0,0,0,0,0,0,0,0,,,,,,,,,,,,,
32,37547,1745695689439,0.0,-134.0,,0.04,0.0,1.02,3.0,-1.0,0.0,1.02,1.02,100.0,3692.0,10.6,3.91,,13.25,0.926,75.4,,33.3,5.0,,,,,,,,,,,,0,0,0,0,0,0,0,0,0,0,0,0,0,0,0,0,,,,,,0.0,,,,,,,
33,37567,1745695689459,,,,,,,,,,,,,,,,,,,,,,,,,,,,,,,,,,0,0,0,0,0,0,0,0,0,0,0,0,0,0,0,0,,,,,,,,,,,,,
34,37587,1745695689479,0.0,-134.0,,0.03,-0.01,0.99,4.0,-1.0,0.0,0.99,1.02,96.0,3692.0,10.6,3.91,,13.2,0.933,75.4,,33.7,5.0,2.0,19.0,2.0,2.0,0.0,141.0,0.0,0.0,2.55,,,0,0,0,0,0,0,0,0,0,0,0,0,0,0,0,0,,0.0,,,,0.0,38.991589,-76.937012,3.02,31.6,14.0,2.0,2.1
35,37607,1745695689497,,,,,,,,,,,,,,,,,,,,,,,,,,,,,,,,,,0,0,0,0,0,0,0,0,0,0,0,0,0,0,0,0,,,,,,,,,,,,,
36,37627,1745695689517,0.0,-134.0,,0.02,-0.03,0.97,5.0,-1.0,0.0,0.97,1.02,95.0,3654.0,10.6,3.9,,13.24,0.932,75.4,,33.7,5.0,,,,,,,,,,,,0,0,0,0,0,0,0,0,0,0,0,0,0,0,0,0,,,,,,0.0,,,,,,,
37,37647,1745695689537,,,,,,,,,,,,,,,,,,,,,,,,,,,,,,,,,,0,0,0,0,0,0,0,0,0,0,0,0,0,0,0,0,,,,,,,,,,,,,
38,37667,1745695689557,0.0,-134.0,,0.0,-0.07,0.96,5.0,-1.0,0.0,0.96,1.02,94.0,3656.0,10.6,3.9,,13.28,0.927,75.4,,33.7,5.0,,,,,,,,,,,,0,0,0,0,0,0,0,0,0,0,0,0,0,0,0,0,,,,,,0.0,,,,,,,
39,37687,1745695689577,,,,,,,,,,,,,,,,,,,,,,,2.0,19.0,2.0,2.0,0.0,152.0,0.0,0.0,2.54,,,0,0,0,0,0,0,0,0,0,0,0,0,0,0,0,0,,0.0,,,,,38.991589,-76.937012,3.16,31.6,14.0,2.0,2.1
40,37707,1745695689595,0.0,-134.0,,-0.0,-0.13,0.96,4.0,-1.0,0.0,0.97,1.02,94.0,3725.0,10.7,3.9,,13.24,0.927,75.4,,33.2,5.0,,,,,,,,,,,,0,0,0,0,0,0,0,0,0,0,0,0,0,0,0,0,,,,,,0.0,,,,,,,
41,37727,1745695689615,,,,,,,,,,,,,,,,,,,,,,,,,,,,,,,,,,0,0,0,0,0,0,0,0,0,0,0,0,0,0,0,0,,,,,,,,,,,,,
42,37747,1745695689635,0.0,-135.0,,0.01,-0.18,0.97,5.0,-1.0,0.0,0.99,1.02,96.0,3750.0,10.7,3.9,,13.24,0.927,75.4,,33.2,5.0,,,,,,,,,,,,0,0,0,0,0,0,0,0,0,0,0,0,0,0,0,0,,,,,,0.0,,,,,,,
43,37767,1745695689655,,,,,,,,,,,,,,,,,,,,,,,,,,,,,,,,,,0,0,0,0,0,0,0,0,0,0,0,0,0,0,0,0,,,,,,,,,,,,,
44,37787,1745695689675,0.0,-134.0,,0.02,-0.21,0.97,5.0,-1.0,0.0,0.99,1.02,97.0,3750.0,10.7,3.9,,13.12,0.934,75.4,,34.1,5.0,2.0,19.0,2.0,2.0,0.0,160.0,0.0,0.0,2.54,,,0,0,0,0,0,0,0,0,0,0,0,0,0,0,0,0,,0.0,,,,0.0,38.991589,-76.937012,3.48,31.6,14.0,2.0,2.1
45,37807,1745695689698,,,,,,,,,,,,,,,,,,,,,,,,,,,,,,,,,,0,0,0,0,0,0,0,0,0,0,0,0,0,0,0,0,,,,,,,,,,,,,
46,37827,1745695689718,0.0,-134.0,,0.04,-0.2,0.98,6.0,-1.0,0.0,1.0,1.02,97.0,3777.0,10.6,3.9,,13.12,0.931,75.4,,34.1,5.0,,,,,,,,,,,,0,0,0,0,0,0,0,0,0,0,0,0,0,0,0,0,,,,,,0.0,,,,,,,
47,37847,1745695689738,,,,,,,,,,,,,,,,,,,,,,,,,,,,,,,,,,0,0,0,0,0,0,0,0,0,0,0,0,0,0,0,0,,,,,,,,,,,,,
48,37867,1745695689758,0.0,-134.0,,0.04,-0.14,0.99,5.0,-1.0,0.0,1.0,1.02,97.0,3861.0,10.6,3.89,,13.12,0.923,75.4,,34.1,5.0,,,,,,,,,,,,0,0,0,0,0,0,0,0,0,0,0,0,0,0,0,0,,,,,,0.0,,,,,,,
49,37887,1745695689778,,,,,,,,,,,,,,,,,,,,,,,3.0,19.0,3.0,2.0,0.0,167.0,0.0,0.0,2.55,,,0,0,0,0,0,0,0,0,0,0,0,0,0,0,0,0,,0.0,,,,,38.991585,-76.937012,4.07,31.6,14.0,2.0,2.1
50,37907,1745695689797,0.0,-135.0,,0.03,-0.07,1.02,4.0,-1.0,0.0,1.02,1.02,100.0,3879.0,10.6,3.89,,13.11,0.918,75.4,,35.3,5.0,,,,,,,,,,,,0,0,0,0,0,0,0,0,0,0,0,0,0,0,0,0,,,,,,0.0,,,,,,,
51,37927,1745695689817,,,,,,,,,,,,,,,,,,,,,,,,,,,,,,,,,,0,0,0,0,0,0,0,0,0,0,0,0,0,0,0,0,,,,,,,,,,,,,
52,37947,1745695689837,0.0,-135.0,,0.02,-0.16,1.03,4.0,-1.0,0.0,1.04,1.04,100.0,3857.0,10.6,3.89,,13.11,0.918,75.4,,35.3,5.0,,,,,,,,,,,,0,0,0,0,0,0,0,0,0,0,0,0,0,0,0,0,,,,,,0.0,,,,,,,
53,37967,1745695689857,,,,,,,,,,,,,,,,,,,,,,,,,,,,,,,,,,0,0,0,0,0,0,0,0,0,0,0,0,0,0,0,0,,,,,,,,,,,,,
54,37987,1745695689877,0.0,-135.0,,0.0,-0.17,1.03,4.0,-1.0,0.0,1.04,1.04,100.0,3857.0,10.6,3.89,,13.2,0.911,75.4,,35.2,5.0,3.0,19.0,3.0,2.0,0.0,178.0,0.0,0.0,2.55,,,0,0,0,0,0,0,0,0,0,0,0,0,0,0,0,0,,0.0,,,,0.0,38.991585,-76.937012,4.0,31.6,14.0,2.0,2.1
55,38007,1745695689899,,,,,,,,,,,,,,,,,,,,,,,,,,,,,,,,,,0,0,0,0,0,0,0,0,0,0,0,0,0,0,0,0,,,,,,,,,,,,,
56,38027,1745695689919,0.0,-135.0,,-0.0,-0.17,1.01,4.0,-1.0,0.0,1.03,1.04,99.0,3866.0,10.6,3.89,,13.08,0.898,75.4,,35.2,5.0,,,,,,,,,,,,0,0,0,0,0,0,0,0,0,0,0,0,0,0,0,0,,,,,,0.0,,,,,,,
57,38047,1745695689939,,,,,,,,,,,,,,,,,,,,,,,,,,,,,,,,,,0,0,0,0,0,0,0,0,0,0,0,0,0,0,0,0,,,,,,,,,,,,,
58,38067,1745695689959,0.0,-135.0,,-0.0,-0.17,0.98,5.0,-1.0,0.0,1.0,1.04,95.0,3863.0,10.6,3.89,,13.08,0.893,75.4,,35.2,5.0,,,,,,,,,,,,0,0,0,0,0,0,0,0,0,0,0,0,0,0,0,0,,,,,,0.0,,,,,,,
59,38087,1745695689979,,,,,,,,,,,,,,,,,,,,,,,3.0,19.0,3.0,3.0,0.0,0.0,0.0,0.0,2.55,,,0,0,0,0,0,0,0,0,0,0,0,0,0,0,0,0,,0.0,,,,,38.991585,-76.937012,4.31,31.6,14.0,2.0,2.1
60,38107,1745695689993,0.0,-135.0,,0.02,-0.13,0.98,5.0,-1.0,0.0,0.99,1.04,95.0,3865.0,10.6,3.88,,13.13,0.892,75.4,,35.9,5.0,,,,,,,,,,,,0,0,0,0,0,0,0,0,0,0,0,0,0,0,0,0,,,,,,0.0,,,,,,,
61,38127,1745695690013,,,,,,,,,,,,,,,,,,,,,,,,,,,,,,,,,,0,0,0,0,0,0,0,0,0,0,0,0,0,0,0,0,,,,,,,,,,,,,
62,38147,1745695690033,0.0,-135.0,,0.02,-0.1,0.98,5.0,-1.0,0.0,0.99,1.04,95.0,3821.0,10.6,3.89,,13.13,0.892,75.4,,35.9,5.0,,,,,,,,,,,,0,0,0,0,0,0,0,0,0,0,0,0,0,0,0,0,,,,,,0.0,,,,,,,
63,38167,1745695690053,,,,,,,,,,,,,,,,,,,,,,,,,,,,,,,,,,0,0,0,0,0,0,0,0,0,0,0,0,0,0,0,0,,,,,,,,,,,,,
64,38187,1745695690073,0.0,-135.0,,0.03,-0.08,0.98,4.0,-1.0,0.0,0.99,1.04,95.0,3821.0,10.6,3.89,,13.15,0.891,75.4,,35.1,5.0,3.0,6.0,3.0,3.0,0.0,0.0,0.0,0.0,2.55,,,0,0,0,0,0,0,0,0,0,0,0,0,0,0,0,0,,0.0,,,,0.0,38.991581,-76.937012,4.14,31.6,14.0,2.0,2.1
65,38207,1745695690095,,,,,,,,,,,,,,,,,,,,,,,,,,,,,,,,,,0,0,0,0,0,0,0,0,0,0,0,0,0,0,0,0,,,,,,,,,,,,,
66,38227,1745695690115,0.0,-135.0,,0.01,-0.11,0.95,4.0,-1.0,0.0,0.96,1.04,92.0,3772.0,10.6,3.89,,13.21,0.889,75.4,,35.1,5.0,,,,,,,,,,,,0,0,0,0,0,0,0,0,0,0,0,0,0,0,0,0,,,,,,0.0,,,,,,,
67,38247,1745695690135,,,,,,,,,,,,,,,,,,,,,,,,,,,,,,,,,,0,0,0,0,0,0,0,0,0,0,0,0,0,0,0,0,,,,,,,,,,,,,
68,38267,1745695690155,0.0,-135.0,,0.01,-0.08,0.95,3.0,-1.0,0.0,0.95,1.04,91.0,3762.0,10.6,3.89,,13.24,0.883,75.4,,35.1,5.0,,,,,,,,,,,,0,0,0,0,0,0,0,0,0,0,0,0,0,0,0,0,,,,,,0.0,,,,,,,
69,38287,1745695690175,,,,,,,,,,,,,,,,,,,,,,,3.0,3.0,3.0,3.0,0.0,41.0,0.0,0.0,2.54,,,0,0,0,0,0,0,0,0,0,0,0,0,0,0,0,0,,0.0,,,,,38.991581,-76.937012,5.25,31.6,17.0,2.0,2.0
70,38307,1745695690199,0.0,-135.0,,0.01,-0.02,0.95,3.0,-1.0,0.0,0.95,1.04,91.0,3783.0,10.6,3.89,,13.15,0.88,75.4,,34.6,5.0,,,,,,,,,,,,0,0,0,0,0,0,0,0,0,0,0,0,0,0,0,0,,,,,,0.0,,,,,,,
71,38327,1745695690219,,,,,,,,,,,,,,,,,,,,,,,,,,,,,,,,,,0,0,0,0,0,0,0,0,0,0,0,0,0,0,0,0,,,,,,,,,,,,,
72,38347,1745695690239,0.0,-135.0,,0.0,0.04,0.97,2.0,-1.0,0.0,0.97,1.04,93.0,3787.0,10.5,3.89,,13.15,0.88,75.4,,34.6,5.0,,,,,,,,,,,,0,0,0,0,0,0,0,0,0,0,0,0,0,0,0,0,,,,,,0.0,,,,,,,
73,38367,1745695690259,,,,,,,,,,,,,,,,,,,,,,,,,,,,,,,,,,0,0,0,0,0,0,0,0,0,0,0,0,0,0,0,0,,,,,,,,,,,,,
74,38387,1745695690279,0.0,-135.0,13.99,-0.0,0.08,0.98,2.0,-1.0,1.0,0.99,1.04,95.0,3787.0,10.5,3.89,15.0,13.25,0.889,75.4,79.0,34.5,5.0,3.0,24.0,3.0,4.0,0.0,187.0,0.0,0.0,2.54,0.0,0.0,0,0,0,0,0,0,0,0,0,0,0,0,0,0,0,0,0.0,0.0,0.0,0.0,-1.0,0.0,38.991577,-76.937012,5.32,31.6,17.0,2.0,2.0
75,38407,1745695690298,,,,,,,,,,,,,,,,,,,,,,,,,,,,,,,,,,0,0,0,0,0,0,0,0,0,0,0,0,0,0,0,0,,,,,,,,,,,,,
76,38427,1745695690318,0.0,-135.0,,-0.01,0.09,0.99,2.0,-1.0,1.0,1.0,1.04,96.0,3780.0,10.5,3.89,,13.21,0.898,75.4,,34.5,5.0,,,,,,,,,,,,0,0,0,0,0,0,0,0,0,0,0,0,0,0,0,0,,,,,,0.0,,,,,,,
77,38447,1745695690338,,,,,,,,,,,,,,,,,,,,,,,,,,,,,,,,,,0,0,0,0,0,0,0,0,0,0,0,0,0,0,0,0,,,,,,,,,,,,,
78,38467,1745695690358,0.0,-135.0,,0.01,0.08,0.99,1.0,-1.0,1.0,1.0,1.04,96.0,3769.0,10.5,3.89,,13.16,0.903,75.4,,34.5,5.0,,,,,,,,,,,,0,0,0,0,0,0,0,0,0,0,0,0,0,0,0,0,,,,,,0.0,,,,,,,
79,38487,1745695690378,,,,,,,,,,,,,,,,,,,,,,,4.0,18.0,4.0,4.0,0.0,45.0,0.0,0.0,2.55,,,0,0,0,0,0,0,0,0,0,0,0,0,0,0,0,0,,0.0,,,,,38.991577,-76.937012,5.6,31.6,18.0,2.0,1.7
80,38507,1745695690398,0.0,-133.0,,0.01,0.05,0.99,1.0,-1.0,0.0,0.99,1.04,95.0,3729.0,10.5,3.89,,13.19,0.901,75.4,,34.0,5.0,,,,,,,,,,,,0,0,0,0,0,0,0,0,0,0,0,0,0,0,0,0,,,,,,0.0,,,,,,,
81,38527,1745695690418,,,,,,,,,,,,,,,,,,,,,,,,,,,,,,,,,,0,0,0,0,0,0,0,0,0,0,0,0,0,0,0,0,,,,,,,,,,,,,
82,38547,1745695690438,0.0,-135.0,,0.01,0.04,1.0,1.0,-1.0,0.0,1.0,1.04,96.0,3730.0,10.5,3.89,,13.19,0.901,75.4,,34.0,5.0,,,,,,,,,,,,0,0,0,0,0,0,0,0,0,0,0,0,0,0,0,0,,,,,,0.0,,,,,,,
83,38567,1745695690458,,,,,,,,,,,,,,,,,,,,,,,,,,,,,,,,,,0,0,0,0,0,0,0,0,0,0,0,0,0,0,0,0,,,,,,,,,,,,,
84,38587,1745695690478,0.0,-135.0,,0.0,0.05,0.98,1.0,-1.0,0.0,0.99,1.04,94.0,3730.0,10.5,3.89,,13.25,0.899,75.4,,33.8,5.0,4.0,4.0,4.0,4.0,0.0,0.0,0.0,0.0,2.55,,,0,0,0,0,0,0,0,0,0,0,0,0,0,0,0,0,,0.0,,,,0.0,38.991577,-76.937019,6.26,31.6,18.0,2.0,1.7
85,38607,1745695690497,,,,,,,,,,,,,,,,,,,,,,,,,,,,,,,,,,0,0,0,0,0,0,0,0,0,0,0,0,0,0,0,0,,,,,,,,,,,,,
86,38627,1745695690517,0.0,-102.0,,0.0,0.07,0.96,1.0,-1.0,0.0,0.96,1.04,92.0,3701.0,10.5,3.89,,13.25,0.898,75.4,,33.8,5.0,,,,,,,,,,,,0,0,0,0,0,0,0,0,0,0,0,0,0,0,0,0,,,,,,0.0,,,,,,,
87,38647,1745695690537,,,,,,,,,,,,,,,,,,,,,,,,,,,,,,,,,,0,0,0,0,0,0,0,0,0,0,0,0,0,0,0,0,,,,,,,,,,,,,
88,38667,1745695690557,0.0,-135.0,,-0.0,0.07,0.96,1.0,-1.0,-1.0,0.96,1.04,92.0,3672.0,10.5,3.89,,13.24,0.904,75.4,,33.8,5.0,,,,,,,,,,,,0,0,0,0,0,0,0,0,0,0,0,0,0,0,0,0,,,,,,0.0,,,,,,,
89,38687,1745695690577,,,,,,,,,,,,,,,,,,,,,,,4.0,4.0,4.0,4.0,0.0,124.0,0.0,0.0,2.55,,,0,0,0,0,0,0,0,0,0,0,0,0,0,0,0,0,,0.0,,,,,38.991573,-76.937019,5.97,31.6,18.0,2.0,1.7
90,38707,1745695690596,0.0,-129.0,,-0.01,0.07,0.97,1.0,-1.0,-1.0,0.97,1.04,93.0,3702.0,10.5,3.89,,13.16,0.909,75.4,,33.3,5.0,,,,,,,,,,,,0,0,0,0,0,0,0,0,0,0,0,0,0,0,0,0,,,,,,0.0,,,,,,,
91,38727,1745695690616,,,,,,,,,,,,,,,,,,,,,,,,,,,,,,,,,,0,0,0,0,0,0,0,0,0,0,0,0,0,0,0,0,,,,,,,,,,,,,
92,38747,1745695690636,0.0,-135.0,,0.01,-0.0,0.96,0.0,-1.0,0.0,0.96,1.04,92.0,3714.0,10.6,3.91,,13.16,0.909,75.4,,33.3,5.0,,,,,,,,,,,,0,0,0,0,0,0,0,0,0,0,0,0,0,0,0,0,,,,,,0.0,,,,,,,
93,38767,1745695690656,,,,,,,,,,,,,,,,,,,,,,,,,,,,,,,,,,0,0,0,0,0,0,0,0,0,0,0,0,0,0,0,0,,,,,,,,,,,,,
94,38787,1745695690676,0.0,-135.0,,-0.0,-0.09,0.97,0.0,0.0,0.0,0.97,1.04,93.0,3714.0,10.6,3.91,,13.19,0.913,75.4,,33.3,5.0,4.0,43.0,4.0,4.0,0.0,148.0,0.0,0.0,2.54,,,0,0,0,0,0,0,0,0,0,0,0,0,0,0,0,0,,0.0,,,,0.0,38.991573,-76.937019,6.69,31.6,18.0,2.0,1.7
95,38807,1745695690696,,,,,,,,,,,,,,,,,,,,,,,,,,,,,,,,,,0,0,0,0,0,0,0,0,0,0,0,0,0,0,0,0,,,,,,,,,,,,,
96,38827,1745695690716,0.0,-129.0,,-0.01,-0.09,1.0,0.0,0.0,0.0,1.01,1.04,96.0,3676.0,10.6,3.91,,13.28,0.915,75.4,,33.3,5.0,,,,,,,,,,,,0,0,0,0,0,0,0,0,0,0,0,0,0,0,0,0,,,,,,0.0,,,,,,,
97,38847,1745695690736,,,,,,,,,,,,,,,,,,,,,,,,,,,,,,,,,,0,0,0,0,0,0,0,0,0,0,0,0,0,0,0,0,,,,,,,,,,,,,
98,38867,1745695690756,0.0,-135.0,,-0.0,-0.01,1.02,0.0,0.0,1.0,1.02,1.04,98.0,3656.0,10.5,3.9,,13.31,0.911,75.4,,33.3,5.0,,,,,,,,,,,,0,0,0,0,0,0,0,0,0,0,0,0,0,0,0,0,,,,,,0.0,,,,,,,
99,38887,1745695690776,,,,,,,,,,,,,,,,,,,,,,,4.0,671.0,5.0,4.0,0.0,68.0,0.0,0.0,2.54,,,0,0,0,0,0,0,0,0,0,0,0,0,0,0,0,0,,0.0,,,,,38.991573,-76.937019,7.12,31.7,18.0,2.0,1.7
100,38907,1745695690794,0.0,-112.0,,0.02,0.02,1.03,-1.0,0.0,1.0,1.03,1.04,98.0,3617.0,10.6,3.9,,13.32,0.906,75.4,,32.8,5.0,,,,,,,,,,,,0,0,0,0,0,0,0,0,0,0,0,0,0,0,0,0,,,,,,0.0,,,,,,,
101,38927,1745695690814,,,,,,,,,,,,,,,,,,,,,,,,,,,,,,,,,,0,0,0,0,0,0,0,0,0,0,0,0,0,0,0,0,,,,,,,,,,,,,
102,38947,1745695690834,0.0,-133.0,,0.03,0.01,1.01,0.0,0.0,1.0,1.02,1.04,97.0,3609.0,10.5,3.9,,13.32,0.906,75.4,,32.8,5.0,,,,,,,,,,,,0,0,0,0,0,0,0,0,0,0,0,0,0,0,0,0,,,,,,0.0,,,,,,,
103,38967,1745695690854,,,,,,,,,,,,,,,,,,,,,,,,,,,,,,,,,,0,0,0,0,0,0,0,0,0,0,0,0,0,0,0,0,,,,,,,,,,,,,
104,38987,1745695690874,0.0,-129.0,,0.02,-0.05,0.97,1.0,0.0,0.0,0.97,1.04,93.0,3609.0,10.5,3.9,,13.31,0.904,75.4,,32.5,5.0,5.0,6.0,5.0,5.0,0.0,0.0,0.0,0.0,2.55,,,0,0,0,0,0,0,0,0,0,0,0,0,0,0,0,0,,0.0,,,,0.0,38.99157,-76.937019,7.23,31.7,18.0,2.0,1.7
105,39007,1745695690898,,,,,,,,,,,,,,,,,,,,,,,,,,,,,,,,,,0,0,0,0,0,0,0,0,0,0,0,0,0,0,0,0,,,,,,,,,,,,,
106,39027,1745695690918,0.0,-133.0,,0.0,-0.09,1.01,0.0,0.0,0.0,1.02,1.04,98.0,3562.0,10.5,3.89,,13.35,0.908,75.4,,32.5,5.0,,,,,,,,,,,,0,0,0,0,0,0,0,0,0,0,0,0,0,0,0,0,,,,,,0.0,,,,,,,
107,39047,1745695690938,,,,,,,,,,,,,,,,,,,,,,,,,,,,,,,,,,0,0,0,0,0,0,0,0,0,0,0,0,0,0,0,0,,,,,,,,,,,,,
108,39067,1745695690958,0.0,-112.0,,0.01,0.02,1.04,-1.0,0.0,0.0,1.04,1.04,100.0,3546.0,10.5,3.91,,13.37,0.911,75.4,,32.5,5.0,,,,,,,,,,,,0,0,0,0,0,0,0,0,0,0,0,0,0,0,0,0,,,,,,0.0,,,,,,,
109,39087,1745695690978,,,,,,,,,,,,,,,,,,,,,,,5.0,4.0,5.0,5.0,0.0,0.0,0.0,0.0,2.55,,,0,0,0,0,0,0,0,0,0,0,0,0,0,0,0,0,,0.0,,,,,38.99157,-76.937019,7.4,31.7,18.0,2.0,1.7
110,39107,1745695690998,0.0,-119.0,,0.02,-0.01,0.99,0.0,0.0,0.0,0.99,1.04,95.0,3497.0,10.5,3.9,,13.37,0.911,75.4,,31.9,5.0,,,,,,,,,,,,0,0,0,0,0,0,0,0,0,0,0,0,0,0,0,0,,,,,,0.0,,,,,,,
111,39127,1745695691010,,,,,,,,,,,,,,,,,,,,,,,,,,,,,,,,,,0,0,0,0,0,0,0,0,0,0,0,0,0,0,0,0,,,,,,,,,,,,,
112,39147,1745695691030,0.0,-133.0,,-0.0,-0.14,1.0,1.0,0.0,0.0,1.01,1.04,97.0,3475.0,10.5,3.92,,13.37,0.911,75.4,,31.9,5.0,,,,,,,,,,,,0,0,0,0,0,0,0,0,0,0,0,0,0,0,0,0,,,,,,0.0,,,,,,,
113,39167,1745695691050,,,,,,,,,,,,,,,,,,,,,,,,,,,,,,,,,,0,0,0,0,0,0,0,0,0,0,0,0,0,0,0,0,,,,,,,,,,,,,
114,39187,1745695691070,0.0,-129.0,,0.03,-0.04,1.02,-1.0,0.0,0.0,1.02,1.04,98.0,3475.0,10.5,3.92,,13.39,0.91,75.4,,30.7,5.0,5.0,6.0,5.0,5.0,0.0,0.0,0.0,0.0,2.54,,,0,0,0,0,0,0,0,0,0,0,0,0,0,0,0,0,,0.0,,,,0.0,38.991566,-76.937019,7.89,31.7,18.0,2.0,1.7
115,39207,1745695691098,,,,,,,,,,,,,,,,,,,,,,,,,,,,,,,,,,0,0,0,0,0,0,0,0,0,0,0,0,0,0,0,0,,,,,,,,,,,,,
116,39227,1745695691118,0.0,-95.0,,0.02,-0.05,0.98,0.0,0.0,0.0,0.98,1.04,94.0,3442.0,10.5,3.92,,13.53,0.903,75.4,,30.7,5.0,,,,,,,,,,,,0,0,0,0,0,0,0,0,0,0,0,0,0,0,0,0,,,,,,0.0,,,,,,,
117,39247,1745695691138,,,,,,,,,,,,,,,,,,,,,,,,,,,,,,,,,,0,0,0,0,0,0,0,0,0,0,0,0,0,0,0,0,,,,,,,,,,,,,
118,39267,1745695691158,0.0,-109.0,,0.02,-0.08,1.05,-1.0,1.0,0.0,1.06,1.06,100.0,3485.0,10.5,3.91,,13.45,0.9,75.4,,30.7,5.0,,,,,,,,,,,,0,0,0,0,0,0,0,0,0,0,0,0,0,0,0,0,,,,,,0.0,,,,,,,
119,39287,1745695691178,,,,,,,,,,,,,,,,,,,,,,,5.0,6.0,6.0,6.0,0.0,0.0,0.0,0.0,2.55,,,0,0,0,0,0,0,0,0,0,0,0,0,0,0,0,0,,0.0,,,,,38.991562,-76.937019,8.34,31.7,18.0,2.0,1.7
120,39307,1745695691194,0.0,-102.0,,0.03,-0.06,0.99,0.0,1.0,0.0,0.99,1.06,94.0,3359.0,10.5,3.91,,13.53,0.899,75.4,,32.8,5.0,,,,,,,,,,,,0,0,0,0,0,0,0,0,0,0,0,0,0,0,0,0,,,,,,0.0,,,,,,,
121,39327,1745695691214,,,,,,,,,,,,,,,,,,,,,,,,,,,,,,,,,,0,0,0,0,0,0,0,0,0,0,0,0,0,0,0,0,,,,,,,,,,,,,
122,39347,1745695691234,0.0,-119.0,,0.05,-0.03,1.05,-2.0,1.0,0.0,1.05,1.06,100.0,3272.0,10.5,3.93,,13.53,0.899,75.4,,32.8,5.0,,,,,,,,,,,,0,0,0,0,0,0,0,0,0,0,0,0,0,0,0,0,,,,,,0.0,,,,,,,
123,39367,1745695691254,,,,,,,,,,,,,,,,,,,,,,,,,,,,,,,,,,0,0,0,0,0,0,0,0,0,0,0,0,0,0,0,0,,,,,,,,,,,,,
124,39387,1745695691274,0.0,-109.0,14.06,0.01,-0.11,1.1,-1.0,1.0,-1.0,1.1,1.1,100.0,3272.0,10.5,3.93,15.0,13.6,0.898,75.4,79.0,32.9,5.0,6.0,6.0,6.0,6.0,0.0,0.0,0.0,0.0,2.54,0.0,0.0,0,0,0,0,0,0,0,0,0,0,0,0,0,0,0,0,0.0,0.0,0.0,0.0,-1.0,0.0,38.991562,-76.937027,8.53,31.7,18.0,2.0,1.7
125,39407,1745695691299,,,,,,,,,,,,,,,,,,,,,,,,,,,,,,,,,,0,0,0,0,0,0,0,0,0,0,0,0,0,0,0,0,,,,,,,,,,,,,
126,39427,1745695691319,0.0,-99.0,,0.02,-0.06,1.01,0.0,0.0,-1.0,1.01,1.1,92.0,3173.0,10.5,3.93,,13.6,0.9,75.4,,32.9,5.0,,,,,,,,,,,,0,0,0,0,0,0,0,0,0,0,0,0,0,0,0,0,,,,,,0.0,,,,,,,
127,39447,1745695691339,,,,,,,,,,,,,,,,,,,,,,,,,,,,,,,,,,0,0,0,0,0,0,0,0,0,0,0,0,0,0,0,0,,,,,,,,,,,,,
128,39467,1745695691359,0.0,-88.0,,0.05,0.05,0.91,-1.0,0.0,0.0,0.92,1.1,83.0,3147.0,10.5,3.93,,13.64,0.896,75.4,,32.9,5.0,,,,,,,,,,,,0,0,0,0,0,0,0,0,0,0,0,0,0,0,0,0,,,,,,0.0,,,,,,,
129,39487,1745695691379,,,,,,,,,,,,,,,,,,,,,,,6.0,6.0,6.0,6.0,0.0,0.0,0.0,0.0,2.55,,,0,0,0,0,0,0,0,0,0,0,0,0,0,0,0,0,,0.0,,,,,38.991558,-76.937027,9.36,31.7,18.0,2.0,1.7
130,39507,1745695691397,0.0,-85.0,,0.06,0.03,0.94,-2.0,0.0,1.0,0.95,1.1,86.0,3147.0,10.4,3.93,,13.67,0.893,75.4,,33.2,5.0,,,,,,,,,,,,0,0,0,0,0,0,0,0,0,0,0,0,0,0,0,0,,,,,,0.0,,,,,,,
131,39527,1745695691417,,,,,,,,,,,,,,,,,,,,,,,,,,,,,,,,,,0,0,0,0,0,0,0,0,0,0,0,0,0,0,0,0,,,,,,,,,,,,,
132,39547,1745695691437,0.0,-102.0,,0.02,-0.09,1.04,-1.0,0.0,1.0,1.05,1.1,95.0,3199.0,10.4,3.93,,13.67,0.893,75.4,,33.2,5.0,,,,,,,,,,,,0,0,0,0,0,0,0,0,0,0,0,0,0,0,0,0,,,,,,0.0,,,,,,,
133,39567,1745695691457,,,,,,,,,,,,,,,,,,,,,,,,,,,,,,,,,,0,0,0,0,0,0,0,0,0,0,0,0,0,0,0,0,,,,,,,,,,,,,
134,39587,1745695691477,0.0,-109.0,,0.02,-0.09,1.01,0.0,0.0,0.0,1.01,1.1,92.0,3199.0,10.4,3.93,,13.67,0.898,75.4,,32.9,5.0,6.0,6.0,6.0,6.0,0.0,125.0,0.0,0.0,2.54,,,0,0,0,0,0,0,0,0,0,0,0,0,0,0,0,0,,0.0,,,,0.0,38.991554,-76.937027,9.73,31.7,18.0,2.0,1.7
135,39607,1745695691495,,,,,,,,,,,,,,,,,,,,,,,,,,,,,,,,,,0,0,0,0,0,0,0,0,0,0,0,0,0,0,0,0,,,,,,,,,,,,,
136,39627,1745695691515,0.0,-102.0,,0.05,-0.0,0.94,0.0,0.0,0.0,0.95,1.1,86.0,3181.0,10.3,3.93,,13.64,0.901,75.4,,32.9,5.0,,,,,,,,,,,,0,0,0,0,0,0,0,0,0,0,0,0,0,0,0,0,,,,,,0.0,,,,,,,
137,39647,1745695691535,,,,,,,,,,,,,,,,,,,,,,,,,,,,,,,,,,0,0,0,0,0,0,0,0,0,0,0,0,0,0,0,0,,,,,,,,,,,,,
138,39667,1745695691555,0.0,-109.0,,0.05,0.06,0.94,0.0,0.0,1.0,0.94,1.1,86.0,3166.0,10.4,3.93,,13.63,0.903,75.4,,32.9,5.0,,,,,,,,,,,,0,0,0,0,0,0,0,0,0,0,0,0,0,0,0,0,,,,,,0.0,,,,,,,
139,39687,1745695691575,,,,,,,,,,,,,,,,,,,,,,,6.0,29.0,7.0,6.0,0.0,237.0,0.0,0.0,2.54,,,0,0,0,0,0,0,0,0,0,0,0,0,0,0,0,0,,0.0,,,,,38.991554,-76.937027,10.15,31.7,18.0,2.0,1.7
140,39707,1745695691595,0.0,-95.0,,0.05,-0.02,1.04,0.0,0.0,1.0,1.04,1.1,94.0,3152.0,10.4,3.93,,13.6,0.904,75.4,,32.9,5.0,,,,,,,,,,,,0,0,0,0,0,0,0,0,0,0,0,0,0,0,0,0,,,,,,0.0,,,,,,,
141,39727,1745695691615,,,,,,,,,,,,,,,,,,,,,,,,,,,,,,,,,,0,0,0,0,0,0,0,0,0,0,0,0,0,0,0,0,,,,,,,,,,,,,
142,39747,1745695691635,0.0,-116.0,,0.03,-0.07,1.11,1.0,0.0,0.0,1.11,1.11,100.0,3068.0,10.3,3.93,,13.6,0.904,75.4,,32.9,5.0,,,,,,,,,,,,0,0,0,0,0,0,0,0,0,0,0,0,0,0,0,0,,,,,,0.0,,,,,,,
143,39767,1745695691655,,,,,,,,,,,,,,,,,,,,,,,,,,,,,,,,,,0,0,0,0,0,0,0,0,0,0,0,0,0,0,0,0,,,,,,,,,,,,,
144,39787,1745695691675,0.0,-109.0,,0.02,-0.07,1.15,1.0,0.0,0.0,1.15,1.15,100.0,3068.0,10.3,3.93,,13.59,0.906,75.4,,30.8,5.0,7.0,7.0,7.0,7.0,0.0,28.0,0.0,0.0,2.54,,,0,0,0,0,0,0,0,0,0,0,0,0,0,0,0,0,,0.0,,,,0.0,38.991554,-76.937027,10.62,31.7,18.0,2.0,1.7
145,39807,1745695691695,,,,,,,,,,,,,,,,,,,,,,,,,,,,,,,,,,0,0,0,0,0,0,0,0,0,0,0,0,0,0,0,0,,,,,,,,,,,,,
146,39827,1745695691715,0.0,-102.0,,0.03,-0.04,1.11,2.0,0.0,0.0,1.11,1.15,97.0,2912.0,10.5,3.92,,13.71,0.904,75.4,,30.8,5.0,,,,,,,,,,,,0,0,0,0,0,0,0,0,0,0,0,0,0,0,0,0,,,,,,0.0,,,,,,,
147,39847,1745695691735,,,,,,,,,,,,,,,,,,,,,,,,,,,,,,,,,,0,0,0,0,0,0,0,0,0,0,0,0,0,0,0,0,,,,,,,,,,,,,
148,39867,1745695691755,0.0,-105.0,,0.03,-0.02,1.1,2.0,0.0,0.0,1.11,1.15,96.0,2685.0,10.5,3.88,,13.79,0.914,75.4,,30.8,5.0,,,,,,,,,,,,0,0,0,0,0,0,0,0,0,0,0,0,0,0,0,0,,,,,,0.0,,,,,,,
149,39887,1745695691775,,,,,,,,,,,,,,,,,,,,,,,7.0,7.0,7.0,7.0,0.0,41.0,0.0,0.0,2.55,,,0,0,0,0,0,0,0,0,0,0,0,0,0,0,0,0,,0.0,,,,,38.99155,-76.937027,10.96,31.7,18.0,2.0,1.7
150,39907,1745695691795,0.0,-109.0,,0.04,-0.04,1.16,3.0,0.0,0.0,1.16,1.16,100.0,2796.0,10.5,3.86,,13.79,0.965,75.4,,31.1,5.0,,,,,,,,,,,,0,0,0,0,0,0,0,0,0,0,0,0,0,0,0,0,,,,,,0.0,,,,,,,
151,39927,1745695691815,,,,,,,,,,,,,,,,,,,,,,,,,,,,,,,,,,0,0,0,0,0,0,0,0,0,0,0,0,0,0,0,0,,,,,,,,,,,,,
152,39947,1745695691835,0.0,-99.0,,0.04,-0.11,1.2,4.0,0.0,0.0,1.21,1.21,100.0,3012.0,10.3,3.91,,13.79,0.965,75.4,,31.1,5.0,,,,,,,,,,,,0,0,0,0,0,0,0,0,0,0,0,0,0,0,0,0,,,,,,0.0,,,,,,,
153,39967,1745695691855,,,,,,,,,,,,,,,,,,,,,,,,,,,,,,,,,,0,0,0,0,0,0,0,0,0,0,0,0,0,0,0,0,,,,,,,,,,,,,
154,39987,1745695691875,0.0,-119.0,,0.01,-0.14,1.26,5.0,0.0,0.0,1.27,1.27,100.0,3012.0,10.3,3.91,,13.77,1.071,75.4,,33.7,5.0,8.0,7.0,7.0,8.0,0.0,239.0,0.0,0.0,2.55,,,0,0,0,0,0,0,0,0,0,0,0,0,0,0,0,0,,0.0,,,,0.0,38.991547,-76.937035,11.33,31.7,18.0,2.0,1.7
155,40007,1745695691899,,,,,,,,,,,,,,,,,,,,,,,,,,,,,,,,,,0,0,0,0,0,0,0,0,0,0,0,0,0,0,0,0,,,,,,,,,,,,,
156,40027,1745695691919,0.0,-112.0,,-0.01,-0.16,1.28,6.0,0.0,0.0,1.29,1.29,100.0,3112.0,10.3,3.93,,13.73,1.034,75.4,,33.7,5.0,,,,,,,,,,,,0,0,0,0,0,0,0,0,0,0,0,0,0,0,0,0,,,,,,0.0,,,,,,,
157,40047,1745695691939,,,,,,,,,,,,,,,,,,,,,,,,,,,,,,,,,,0,0,0,0,0,0,0,0,0,0,0,0,0,0,0,0,,,,,,,,,,,,,
158,40067,1745695691959,0.0,-119.0,,-0.0,-0.13,1.24,8.0,0.0,0.0,1.24,1.29,96.0,3114.0,10.3,3.93,,13.69,0.985,75.4,,33.7,5.0,,,,,,,,,,,,0,0,0,0,0,0,0,0,0,0,0,0,0,0,0,0,,,,,,0.0,,,,,,,
159,40087,1745695691979,,,,,,,,,,,,,,,,,,,,,,,7.0,7.0,8.0,7.0,0.0,248.0,0.0,0.0,2.54,,,0,0,0,0,0,0,0,0,0,0,0,0,0,0,0,0,,0.0,,,,,38.991543,-76.937035,11.51,31.7,18.0,2.0,1.7
160,40107,1745695691993,0.0,-119.0,,0.02,-0.06,1.14,8.0,0.0,-1.0,1.14,1.29,88.0,3155.0,10.3,3.93,,13.63,0.951,75.4,,33.7,5.0,,,,,,,,,,,,0,0,0,0,0,0,0,0,0,0,0,0,0,0,0,0,,,,,,0.0,,,,,,,
161,40127,1745695692013,,,,,,,,,,,,,,,,,,,,,,,,,,,,,,,,,,0,0,0,0,0,0,0,0,0,0,0,0,0,0,0,0,,,,,,,,,,,,,
162,40147,1745695692033,0.0,-122.0,,0.03,0.03,1.09,8.0,0.0,0.0,1.09,1.29,85.0,3194.0,10.2,3.93,,13.63,0.951,75.4,,33.7,5.0,,,,,,,,,,,,0,0,0,0,0,0,0,0,0,0,0,0,0,0,0,0,,,,,,0.0,,,,,,,
163,40167,1745695692053,,,,,,,,,,,,,,,,,,,,,,,,,,,,,,,,,,0,0,0,0,0,0,0,0,0,0,0,0,0,0,0,0,,,,,,,,,,,,,
164,40187,1745695692073,0.0,-129.0,,0.02,-0.03,1.18,8.0,1.0,0.0,1.18,1.29,92.0,3194.0,10.2,3.93,,13.64,0.931,75.4,,33.5,5.0,8.0,7.0,8.0,7.0,0.0,33.0,0.0,0.0,2.54,,,0,0,0,0,0,0,0,0,0,0,0,0,0,0,0,0,,0.0,,,,0.0,38.991539,-76.937035,12.16,31.7,18.0,2.0,1.7
165,40207,1745695692097,,,,,,,,,,,,,,,,,,,,,,,,,,,,,,,,,,0,0,0,0,0,0,0,0,0,0,0,0,0,0,0,0,,,,,,,,,,,,,
166,40227,1745695692117,0.0,-126.0,,-0.02,-0.07,1.15,10.0,1.0,0.0,1.15,1.29,89.0,3205.0,10.1,3.92,,13.65,0.925,75.4,,33.5,5.0,,,,,,,,,,,,0,0,0,0,0,0,0,0,0,0,0,0,0,0,0,0,,,,,,0.0,,,,,,,
167,40247,1745695692137,,,,,,,,,,,,,,,,,,,,,,,,,,,,,,,,,,0,0,0,0,0,0,0,0,0,0,0,0,0,0,0,0,,,,,,,,,,,,,
168,40267,1745695692157,0.0,-129.0,,0.02,0.01,1.05,11.0,1.0,0.0,1.05,1.29,81.0,3207.0,10.1,3.92,,13.61,0.916,75.4,,33.5,5.0,,,,,,,,,,,,0,0,0,0,0,0,0,0,0,0,0,0,0,0,0,0,,,,,,0.0,,,,,,,
169,40287,1745695692177,,,,,,,,,,,,,,,,,,,,,,,8.0,7.0,8.0,7.0,0.0,8.0,0.0,0.0,2.54,,,0,0,0,0,0,0,0,0,0,0,0,0,0,0,0,0,,0.0,,,,,38.991535,-76.937035,12.09,31.7,18.0,2.0,1.7
170,40307,1745695692199,0.0,-135.0,,0.02,-0.02,1.13,11.0,1.0,0.0,1.13,1.29,87.0,3254.0,10.0,3.92,,13.56,0.911,75.4,,33.8,5.0,,,,,,,,,,,,0,0,0,0,0,0,0,0,0,0,0,0,0,0,0,0,,,,,,0.0,,,,,,,
171,40327,1745695692219,,,,,,,,,,,,,,,,,,,,,,,,,,,,,,,,,,0,0,0,0,0,0,0,0,0,0,0,0,0,0,0,0,,,,,,,,,,,,,
172,40347,1745695692239,0.0,-135.0,,-0.01,-0.07,1.15,13.0,1.0,-1.0,1.15,1.29,89.0,3218.0,6.5,3.8,,13.56,0.911,75.4,,33.8,5.0,,,,,,,,,,,,0,0,0,0,0,0,0,0,0,0,0,0,0,0,0,0,,,,,,0.0,,,,,,,
173,40367,1745695692259,,,,,,,,,,,,,,,,,,,,,,,,,,,,,,,,,,0,0,0,0,0,0,0,0,0,0,0,0,0,0,0,0,,,,,,,,,,,,,
174,40387,1745695692279,0.0,-122.0,14.02,0.02,0.02,1.05,14.0,1.0,-1.0,1.05,1.29,81.0,3218.0,6.5,3.8,15.0,13.52,0.905,75.4,81.0,33.4,5.0,9.0,7.0,9.0,8.0,0.0,233.0,0.0,0.0,2.54,0.0,0.0,0,0,0,0,0,0,0,0,0,0,0,0,0,0,0,0,0.0,0.0,0.0,0.0,-1.0,0.0,38.991531,-76.937035,12.73,31.7,18.0,2.0,1.7
175,40407,1745695692298,,,,,,,,,,,,,,,,,,,,,,,,,,,,,,,,,,0,0,0,0,0,0,0,0,0,0,0,0,0,0,0,0,,,,,,,,,,,,,
176,40427,1745695692318,0.0,-135.0,,0.04,0.09,1.01,13.0,1.0,0.0,1.02,1.29,79.0,3182.0,6.2,3.79,,13.39,0.897,75.4,,33.4,5.0,,,,,,,,,,,,0,0,0,0,0,0,0,0,0,0,0,0,0,0,0,0,,,,,,0.0,,,,,,,
177,40447,1745695692338,,,,,,,,,,,,,,,,,,,,,,,,,,,,,,,,,,0,0,0,0,0,0,0,0,0,0,0,0,0,0,0,0,,,,,,,,,,,,,
178,40467,1745695692358,0.0,-135.0,,0.04,0.06,1.1,14.0,1.0,0.0,1.1,1.29,85.0,3134.0,6.1,3.79,,13.33,0.888,75.4,,33.4,5.0,,,,,,,,,,,,0,0,0,0,0,0,0,0,0,0,0,0,0,0,0,0,,,,,,0.0,,,,,,,
179,40487,1745695692378,,,,,,,,,,,,,,,,,,,,,,,9.0,7.0,9.0,8.0,0.0,15.0,0.0,0.0,2.54,,,0,0,0,0,0,0,0,0,0,0,0,0,0,0,0,0,,0.0,,,,,38.991531,-76.937035,12.99,31.8,18.0,2.0,1.7
180,40507,1745695692398,0.0,-135.0,,0.02,-0.01,1.18,14.0,1.0,0.0,1.18,1.29,91.0,3106.0,6.1,3.78,,13.43,0.88,75.4,,32.2,5.0,,,,,,,,,,,,0,0,0,0,0,0,0,0,0,0,0,0,0,0,0,0,,,,,,0.0,,,,,,,
181,40527,1745695692418,,,,,,,,,,,,,,,,,,,,,,,,,,,,,,,,,,0,0,0,0,0,0,0,0,0,0,0,0,0,0,0,0,,,,,,,,,,,,,
182,40547,1745695692438,0.0,-135.0,,-0.01,-0.03,1.25,15.0,1.0,0.0,1.25,1.29,97.0,2992.0,5.9,3.79,,13.43,0.88,75.4,,32.2,5.0,,,,,,,,,,,,0,0,0,0,0,0,0,0,0,0,0,0,0,0,0,0,,,,,,0.0,,,,,,,
183,40567,1745695692458,,,,,,,,,,,,,,,,,,,,,,,,,,,,,,,,,,0,0,0,0,0,0,0,0,0,0,0,0,0,0,0,0,,,,,,,,,,,,,
184,40587,1745695692478,0.0,-133.0,,-0.03,-0.04,1.27,15.0,0.0,0.0,1.27,1.29,99.0,2992.0,5.9,3.79,,13.37,0.865,75.4,,31.1,5.0,9.0,7.0,9.0,8.0,0.0,234.0,0.0,0.0,2.54,,,0,0,0,0,0,0,0,0,0,0,0,0,0,0,0,0,,0.0,,,,0.0,38.991528,-76.937035,13.02,31.8,18.0,2.0,1.7
185,40607,1745695692496,,,,,,,,,,,,,,,,,,,,,,,,,,,,,,,,,,0,0,0,0,0,0,0,0,0,0,0,0,0,0,0,0,,,,,,,,,,,,,
186,40627,1745695692516,0.0,-135.0,,-0.03,-0.03,1.29,15.0,0.0,0.0,1.29,1.29,100.0,2941.0,5.5,3.77,,13.45,0.858,75.4,,31.1,5.0,,,,,,,,,,,,0,0,0,0,0,0,0,0,0,0,0,0,0,0,0,0,,,,,,0.0,,,,,,,
187,40647,1745695692536,,,,,,,,,,,,,,,,,,,,,,,,,,,,,,,,,,0,0,0,0,0,0,0,0,0,0,0,0,0,0,0,0,,,,,,,,,,,,,
188,40667,1745695692556,0.0,-135.0,,-0.03,-0.01,1.28,15.0,0.0,0.0,1.28,1.29,99.0,2936.0,5.4,3.76,,13.48,0.847,75.4,,31.1,5.0,,,,,,,,,,,,0,0,0,0,0,0,0,0,0,0,0,0,0,0,0,0,,,,,,0.0,,,,,,,
189,40687,1745695692576,,,,,,,,,,,,,,,,,,,,,,,9.0,7.0,9.0,9.0,0.0,220.0,0.0,0.0,2.54,,,0,0,0,0,0,0,0,0,0,0,0,0,0,0,0,0,,1.0,,,,,38.991524,-76.937035,13.74,31.8,18.0,2.0,1.7
190,40707,1745695692594,0.0,-134.0,,-0.05,0.05,1.22,15.0,0.0,0.0,1.22,1.29,94.0,2892.0,5.4,3.76,,13.47,0.845,75.4,,32.4,5.0,,,,,,,,,,,,0,0,0,0,0,0,0,0,0,0,0,0,0,0,0,0,,,,,,0.0,,,,,,,
191,40727,1745695692614,,,,,,,,,,,,,,,,,,,,,,,,,,,,,,,,,,0,0,0,0,0,0,0,0,0,0,0,0,0,0,0,0,,,,,,,,,,,,,
192,40747,1745695692634,0.0,-134.0,,-0.05,0.07,1.14,15.0,-1.0,0.0,1.14,1.29,88.0,2912.0,5.3,3.75,,13.47,0.845,75.4,,32.4,5.0,,,,,,,,,,,,0,0,0,0,0,0,0,0,0,0,0,0,0,0,0,0,,,,,,0.0,,,,,,,
193,40767,1745695692654,,,,,,,,,,,,,,,,,,,,,,,,,,,,,,,,,,0,0,0,0,0,0,0,0,0,0,0,0,0,0,0,0,,,,,,,,,,,,,
194,40787,1745695692674,0.0,-135.0,,-0.03,0.06,1.07,16.0,-1.0,0.0,1.08,1.29,83.0,2912.0,5.3,3.75,,13.44,0.845,75.4,,32.8,5.0,9.0,7.0,9.0,8.0,0.0,227.0,0.0,0.0,2.55,,,0,0,0,0,0,0,0,0,0,0,0,0,0,0,0,0,,1.0,,,,0.0,38.99152,-76.937035,13.82,31.8,18.0,2.0,1.7
195,40807,1745695692696,,,,,,,,,,,,,,,,,,,,,,,,,,,,,,,,,,0,0,0,0,0,0,0,0,0,0,0,0,0,0,0,0,,,,,,,,,,,,,
196,40827,1745695692716,0.0,-135.0,,-0.04,0.06,1.05,16.0,-1.0,0.0,1.05,1.29,81.0,2905.0,5.3,3.76,,13.43,0.844,75.4,,32.8,5.0,,,,,,,,,,,,0,0,0,0,0,0,0,0,0,0,0,0,0,0,0,0,,,,,,0.0,,,,,,,
197,40847,1745695692736,,,,,,,,,,,,,,,,,,,,,,,,,,,,,,,,,,0,0,0,0,0,0,0,0,0,0,0,0,0,0,0,0,,,,,,,,,,,,,
198,40867,1745695692756,0.0,-134.0,,-0.05,0.09,1.06,17.0,-1.0,-1.0,1.06,1.29,82.0,2922.0,5.4,3.76,,13.43,0.848,75.4,,32.8,5.0,,,,,,,,,,,,0,0,0,0,0,0,0,0,0,0,0,0,0,0,0,0,,,,,,0.0,,,,,,,
199,40887,1745695692776,,,,,,,,,,,,,,,,,,,,,,,9.0,7.0,9.0,8.0,0.0,45.0,0.0,0.0,2.54,,,0,0,0,0,0,0,0,0,0,0,0,0,0,0,0,0,,0.0,,,,,38.991516,-76.937035,13.74,31.8,18.0,2.0,1.7
200,40907,1745695692796,0.0,-135.0,,-0.04,0.08,1.09,18.0,-1.0,-1.0,1.1,1.29,85.0,2894.0,5.4,3.75,,13.43,0.855,75.4,,32.6,5.0,,,,,,,,,,,,0,0,0,0,0,0,0,0,0,0,0,0,0,0,0,0,,,,,,0.0,,,,,,,
201,40927,1745695692816,,,,,,,,,,,,,,,,,,,,,,,,,,,,,,,,,,0,0,0,0,0,0,0,0,0,0,0,0,0,0,0,0,,,,,,,,,,,,,
202,40947,1745695692836,0.0,-134.0,,-0.04,0.12,1.08,18.0,-1.0,0.0,1.09,1.29,84.0,2791.0,5.2,3.73,,13.43,0.855,75.4,,32.6,5.0,,,,,,,,,,,,0,0,0,0,0,0,0,0,0,0,0,0,0,0,0,0,,,,,,0.0,,,,,,,
203,40967,1745695692856,,,,,,,,,,,,,,,,,,,,,,,,,,,,,,,,,,0,0,0,0,0,0,0,0,0,0,0,0,0,0,0,0,,,,,,,,,,,,,
204,40987,1745695692876,0.0,-134.0,,-0.05,0.13,1.06,18.0,-2.0,0.0,1.06,1.29,82.0,2791.0,5.2,3.73,,13.44,0.864,75.4,,31.2,5.0,10.0,7.0,9.0,8.0,0.0,0.0,0.0,0.0,2.54,,,0,0,0,0,0,0,0,0,0,0,0,0,0,0,0,0,,0.0,,,,0.0,38.991512,-76.937035,13.96,31.8,18.0,2.0,1.7
205,41007,1745695692899,,,,,,,,,,,,,,,,,,,,,,,,,,,,,,,,,,0,0,0,0,0,0,0,0,0,0,0,0,0,0,0,0,,,,,,,,,,,,,
206,41027,1745695692919,0.0,-135.0,,-0.06,0.08,1.1,18.0,-2.0,0.0,1.1,1.29,85.0,2779.0,5.1,3.73,,13.45,0.874,75.4,,31.2,5.0,,,,,,,,,,,,0,0,0,0,0,0,0,0,0,0,0,0,0,0,0,0,,,,,,0.0,,,,,,,
207,41047,1745695692939,,,,,,,,,,,,,,,,,,,,,,,,,,,,,,,,,,0,0,0,0,0,0,0,0,0,0,0,0,0,0,0,0,,,,,,,,,,,,,
208,41067,1745695692959,0.0,-135.0,,-0.09,0.09,1.01,18.0,-1.0,0.0,1.02,1.29,79.0,2641.0,5.0,3.71,,13.52,0.881,75.4,,31.2,5.0,,,,,,,,,,,,0,0,0,0,0,0,0,0,0,0,0,0,0,0,0,0,,,,,,0.0,,,,,,,
209,41087,1745695692979,,,,,,,,,,,,,,,,,,,,,,,9.0,7.0,9.0,9.0,0.0,241.0,0.0,0.0,2.54,,,0,0,0,0,0,0,0,0,0,0,0,0,0,0,0,0,,0.0,,,,,38.991508,-76.937035,13.93,31.8,18.0,2.0,1.7
210,41107,1745695692992,0.0,-135.0,,-0.1,0.04,1.04,18.0,-1.0,-1.0,1.04,1.29,81.0,2650.0,1.8,3.69,,13.41,0.892,75.4,,30.9,5.0,,,,,,,,,,,,0,0,0,0,0,0,0,0,0,0,0,0,0,0,0,0,,,,,,0.0,,,,,,,
211,41127,1745695693012,,,,,,,,,,,,,,,,,,,,,,,,,,,,,,,,,,0,0,0,0,0,0,0,0,0,0,0,0,0,0,0,0,,,,,,,,,,,,,
212,41147,1745695693032,0.0,-134.0,,-0.09,0.04,1.05,17.0,-1.0,0.0,1.06,1.29,82.0,2839.0,1.0,3.73,,13.41,0.892,75.4,,30.9,5.0,,,,,,,,,,,,0,0,0,0,0,0,0,0,0,0,0,0,0,0,0,0,,,,,,0.0,,,,,,,
213,41167,1745695693052,,,,,,,,,,,,,,,,,,,,,,,,,,,,,,,,,,0,0,0,0,0,0,0,0,0,0,0,0,0,0,0,0,,,,,,,,,,,,,
214,41187,1745695693072,0.0,-135.0,,-0.09,0.06,1.02,16.0,0.0,0.0,1.03,1.29,80.0,2839.0,1.0,3.73,,13.24,0.983,75.4,,33.2,5.0,9.0,7.0,9.0,8.0,0.0,241.0,0.0,0.0,2.54,,,0,0,0,0,0,0,0,0,0,0,0,0,0,0,0,0,,0.0,,,,0.0,38.991505,-76.937035,13.85,31.8,18.0,2.0,1.7
215,41207,1745695693098,,,,,,,,,,,,,,,,,,,,,,,,,,,,,,,,,,0,0,0,0,0,0,0,0,0,0,0,0,0,0,0,0,,,,,,,,,,,,,
216,41227,1745695693118,0.0,-135.0,,-0.09,0.06,0.99,15.0,0.0,0.0,1.0,1.29,77.0,2915.0,1.0,3.72,,13.09,1.037,75.4,,33.2,5.0,,,,,,,,,,,,0,0,0,0,0,0,0,0,0,0,0,0,0,0,0,0,,,,,,0.0,,,,,,,
217,41247,1745695693138,,,,,,,,,,,,,,,,,,,,,,,,,,,,,,,,,,0,0,0,0,0,0,0,0,0,0,0,0,0,0,0,0,,,,,,,,,,,,,
218,41267,1745695693158,0.0,-135.0,,-0.06,0.1,0.93,15.0,0.0,0.0,0.94,1.29,73.0,2877.0,0.9,3.72,,13.11,1.036,75.4,,33.2,5.0,,,,,,,,,,,,0,0,0,0,0,0,0,0,0,0,0,0,0,0,0,0,,,,,,0.0,,,,,,,
219,41287,1745695693178,,,,,,,,,,,,,,,,,,,,,,,9.0,7.0,9.0,8.0,0.0,150.0,0.0,0.0,2.54,,,0,0,0,0,0,0,0,0,0,0,0,0,0,0,0,0,,1.0,,,,,38.991501,-76.937035,13.4,31.8,18.0,2.0,1.7
220,41307,1745695693198,0.0,-135.0,,-0.05,0.13,0.92,13.0,0.0,1.0,0.93,1.29,72.0,3135.0,0.9,3.63,,13.0,1.095,75.4,,33.9,5.0,,,,,,,,,,,,0,0,0,0,0,0,0,0,0,0,0,0,0,0,0,0,,,,,,0.0,,,,,,,
221,41327,1745695693218,,,,,,,,,,,,,,,,,,,,,,,,,,,,,,,,,,0,0,0,0,0,0,0,0,0,0,0,0,0,0,0,0,,,,,,,,,,,,,
222,41347,1745695693238,0.0,-135.0,,-0.02,0.09,0.96,11.0,0.0,2.0,0.96,1.29,74.0,3091.0,1.0,3.62,,13.0,1.095,75.4,,33.9,5.0,,,,,,,,,,,,0,0,0,0,0,0,0,0,0,0,0,0,0,0,0,0,,,,,,0.0,,,,,,,
223,41367,1745695693258,,,,,,,,,,,,,,,,,,,,,,,,,,,,,,,,,,0,0,0,0,0,0,0,0,0,0,0,0,0,0,0,0,,,,,,,,,,,,,
224,41387,1745695693278,0.0,-135.0,14.11,-0.01,0.08,0.95,10.0,0.0,2.0,0.96,0.96,100.0,3091.0,1.0,3.62,15.0,12.93,1.01,75.4,81.0,31.8,5.0,8.0,8.0,8.0,8.0,0.0,241.0,0.0,0.0,2.54,0.0,0.0,0,0,0,0,0,0,0,0,0,0,0,0,0,0,0,0,0.0,1.0,0.0,0.0,-1.0,0.0,38.991497,-76.937035,13.17,31.8,18.0,2.0,1.7
225,41407,1745695693297,,,,,,,,,,,,,,,,,,,,,,,,,,,,,,,,,,0,0,0,0,0,0,0,0,0,0,0,0,0,0,0,0,,,,,,,,,,,,,
226,41427,1745695693317,0.0,-135.0,,-0.02,0.08,0.96,9.0,1.0,2.0,0.96,0.96,100.0,2815.0,1.0,3.7,,13.0,0.929,75.4,,31.8,5.0,,,,,,,,,,,,0,0,0,0,0,0,0,0,0,0,0,0,0,0,0,0,,,,,,0.0,,,,,,,
227,41447,1745695693337,,,,,,,,,,,,,,,,,,,,,,,,,,,,,,,,,,0,0,0,0,0,0,0,0,0,0,0,0,0,0,0,0,,,,,,,,,,,,,
228,41467,1745695693357,0.0,-126.0,,-0.03,0.05,1.0,8.0,1.0,1.0,1.0,1.0,100.0,2686.0,1.0,3.69,,13.11,0.896,75.4,,31.8,5.0,,,,,,,,,,,,0,0,0,0,0,0,0,0,0,0,0,0,0,0,0,0,,,,,,0.0,,,,,,,
229,41487,1745695693377,,,,,,,,,,,,,,,,,,,,,,,8.0,12.0,8.0,9.0,0.0,233.0,0.0,0.0,2.54,,,0,0,0,0,0,0,0,0,0,0,0,0,0,0,0,0,,0.0,,,,,38.991493,-76.937035,13.02,31.8,18.0,2.0,1.7
230,41507,1745695693397,0.0,-122.0,,-0.04,0.05,0.96,7.0,1.0,1.0,0.97,1.0,96.0,2634.0,0.8,3.69,,13.19,0.892,75.4,,31.5,5.0,,,,,,,,,,,,0,0,0,0,0,0,0,0,0,0,0,0,0,0,0,0,,,,,,0.0,,,,,,,
231,41527,1745695693417,,,,,,,,,,,,,,,,,,,,,,,,,,,,,,,,,,0,0,0,0,0,0,0,0,0,0,0,0,0,0,0,0,,,,,,,,,,,,,
232,41547,1745695693437,0.0,-133.0,,-0.05,0.02,0.97,6.0,1.0,1.0,0.97,1.0,97.0,2634.0,0.8,3.68,,13.19,0.892,75.4,,31.5,5.0,,,,,,,,,,,,0,0,0,0,0,0,0,0,0,0,0,0,0,0,0,0,,,,,,0.0,,,,,,,
233,41567,1745695693457,,,,,,,,,,,,,,,,,,,,,,,,,,,,,,,,,,0,0,0,0,0,0,0,0,0,0,0,0,0,0,0,0,,,,,,,,,,,,,
234,41587,1745695693477,0.0,-133.0,,-0.06,0.02,0.95,5.0,1.0,1.0,0.96,1.0,95.0,2634.0,0.8,3.68,,13.21,0.878,75.4,,31.4,5.0,8.0,32.0,8.0,8.0,0.0,186.0,0.0,0.0,2.55,,,0,0,0,0,0,0,0,0,0,0,0,0,0,0,0,0,,0.0,,,,0.0,38.991489,-76.937035,13.02,31.8,18.0,2.0,1.7
235,41607,1745695693493,,,,,,,,,,,,,,,,,,,,,,,,,,,,,,,,,,0,0,0,0,0,0,0,0,0,0,0,0,0,0,0,0,,,,,,,,,,,,,
236,41627,1745695693513,0.0,-112.0,,-0.07,-0.0,1.0,4.0,0.0,1.0,1.0,1.0,100.0,2618.0,0.8,3.68,,13.23,0.857,75.4,,31.4,5.0,,,,,,,,,,,,0,0,0,0,0,0,0,0,0,0,0,0,0,0,0,0,,,,,,0.0,,,,,,,
237,41647,1745695693533,,,,,,,,,,,,,,,,,,,,,,,,,,,,,,,,,,0,0,0,0,0,0,0,0,0,0,0,0,0,0,0,0,,,,,,,,,,,,,
238,41667,1745695693553,0.0,-122.0,,-0.07,-0.01,0.98,3.0,0.0,1.0,0.99,1.0,98.0,2650.0,0.8,3.69,,13.27,0.839,75.4,,31.4,5.0,,,,,,,,,,,,0,0,0,0,0,0,0,0,0,0,0,0,0,0,0,0,,,,,,0.0,,,,,,,
239,41687,1745695693573,,,,,,,,,,,,,,,,,,,,,,,8.0,8.0,8.0,9.0,0.0,35.0,0.0,0.0,2.54,,,0,0,0,0,0,0,0,0,0,0,0,0,0,0,0,0,,0.0,,,,,38.991486,-76.937035,12.87,31.8,18.0,2.0,1.7
240,41707,1745695693597,0.0,-88.0,,-0.1,-0.05,1.02,2.0,0.0,1.0,1.02,1.02,100.0,2681.0,0.8,3.7,,13.19,0.83,75.4,,32.0,5.0,,,,,,,,,,,,0,0,0,0,0,0,0,0,0,0,0,0,0,0,0,0,,,,,,0.0,,,,,,,
241,41727,1745695693617,,,,,,,,,,,,,,,,,,,,,,,,,,,,,,,,,,0,0,0,0,0,0,0,0,0,0,0,0,0,0,0,0,,,,,,,,,,,,,
242,41747,1745695693637,0.0,-116.0,,-0.09,-0.05,1.02,0.0,0.0,1.0,1.02,1.02,100.0,2718.0,0.8,3.7,,13.19,0.83,75.4,,32.0,5.0,,,,,,,,,,,,0,0,0,0,0,0,0,0,0,0,0,0,0,0,0,0,,,,,,0.0,,,,,,,
243,41767,1745695693657,,,,,,,,,,,,,,,,,,,,,,,,,,,,,,,,,,0,0,0,0,0,0,0,0,0,0,0,0,0,0,0,0,,,,,,,,,,,,,
244,41787,1745695693677,0.0,-116.0,,-0.1,-0.07,0.98,-1.0,0.0,1.0,0.98,1.02,96.0,2718.0,0.8,3.7,,13.2,0.827,75.4,,32.9,5.0,8.0,3.0,8.0,9.0,0.0,101.0,0.0,0.0,2.53,,,0,0,0,0,0,0,0,0,0,0,0,0,0,0,0,0,,0.0,,,,0.0,38.991482,-76.937035,12.77,31.8,18.0,2.0,1.7
245,41807,1745695693695,,,,,,,,,,,,,,,,,,,,,,,,,,,,,,,,,,0,0,0,0,0,0,0,0,0,0,0,0,0,0,0,0,,,,,,,,,,,,,
246,41827,1745695693715,0.0,-99.0,,-0.09,-0.1,1.01,-2.0,0.0,0.0,1.01,1.02,99.0,2720.0,0.8,3.71,,13.13,0.828,75.4,,32.9,5.0,,,,,,,,,,,,0,0,0,0,0,0,0,0,0,0,0,0,0,0,0,0,,,,,,0.0,,,,,,,
247,41847,1745695693735,,,,,,,,,,,,,,,,,,,,,,,,,,,,,,,,,,0,0,0,0,0,0,0,0,0,0,0,0,0,0,0,0,,,,,,,,,,,,,
248,41867,1745695693755,0.0,-112.0,,-0.1,-0.07,0.97,-3.0,0.0,0.0,0.98,1.02,95.0,2669.0,0.9,3.7,,13.25,0.833,75.4,,32.9,5.0,,,,,,,,,,,,0,0,0,0,0,0,0,0,0,0,0,0,0,0,0,0,,,,,,0.0,,,,,,,
249,41887,1745695693775,,,,,,,,,,,,,,,,,,,,,,,7.0,43.0,8.0,9.0,0.0,71.0,0.0,0.0,2.53,,,0,0,0,0,0,0,0,0,0,0,0,0,0,0,0,0,,0.0,,,,,38.991478,-76.937035,12.43,31.8,18.0,2.0,1.7
250,41907,1745695693799,0.0,-109.0,,-0.09,-0.08,1.01,-4.0,0.0,0.0,1.02,1.02,99.0,2580.0,1.0,3.69,,13.27,0.841,75.4,,31.8,5.0,,,,,,,,,,,,0,0,0,0,0,0,0,0,0,0,0,0,0,0,0,0,,,,,,0.0,,,,,,,
251,41927,1745695693819,,,,,,,,,,,,,,,,,,,,,,,,,,,,,,,,,,0,0,0,0,0,0,0,0,0,0,0,0,0,0,0,0,,,,,,,,,,,,,
252,41947,1745695693839,0.0,-105.0,,-0.09,-0.08,1.01,-4.0,0.0,0.0,1.02,1.02,99.0,2466.0,1.0,3.68,,13.27,0.841,75.4,,31.8,5.0,,,,,,,,,,,,0,0,0,0,0,0,0,0,0,0,0,0,0,0,0,0,,,,,,0.0,,,,,,,
253,41967,1745695693859,,,,,,,,,,,,,,,,,,,,,,,,,,,,,,,,,,0,0,0,0,0,0,0,0,0,0,0,0,0,0,0,0,,,,,,,,,,,,,
254,41987,1745695693879,0.0,-102.0,,-0.11,-0.07,1.01,-5.0,0.0,1.0,1.02,1.02,99.0,2466.0,1.0,3.68,,13.31,0.85,75.4,,29.8,5.0,8.0,224.0,8.0,7.0,0.0,34.0,0.0,0.0,2.54,,,0,0,0,0,0,0,0,0,0,0,0,0,0,0,0,0,,0.0,,,,0.0,38.991474,-76.937035,12.21,31.8,18.0,2.0,1.7
255,42007,1745695693899,,,,,,,,,,,,,,,,,,,,,,,,,,,,,,,,,,0,0,0,0,0,0,0,0,0,0,0,0,0,0,0,0,,,,,,,,,,,,,
256,42027,1745695693919,0.0,-95.0,,-0.12,-0.08,1.0,-6.0,0.0,1.0,1.01,1.02,99.0,2449.0,0.8,3.66,,13.36,0.855,75.4,,29.8,5.0,,,,,,,,,,,,0,0,0,0,0,0,0,0,0,0,0,0,0,0,0,0,,,,,,0.0,,,,,,,
257,42047,1745695693939,,,,,,,,,,,,,,,,,,,,,,,,,,,,,,,,,,0,0,0,0,0,0,0,0,0,0,0,0,0,0,0,0,,,,,,,,,,,,,
258,42067,1745695693959,0.0,-95.0,,-0.14,-0.09,0.99,-8.0,0.0,0.0,1.0,1.02,98.0,2378.0,0.8,3.66,,13.41,0.859,75.4,,29.8,5.0,,,,,,,,,,,,0,0,0,0,0,0,0,0,0,0,0,0,0,0,0,0,,,,,,0.0,,,,,,,
259,42087,1745695693979,,,,,,,,,,,,,,,,,,,,,,,7.0,869.0,7.0,8.0,0.0,251.0,0.0,0.0,2.55,,,0,0,0,0,0,0,0,0,0,0,0,0,0,0,0,0,,0.0,,,,,38.991474,-76.937035,12.19,31.8,18.0,2.0,1.7
260,42107,1745695693993,0.0,-88.0,,-0.13,-0.1,0.98,-8.0,0.0,0.0,1.0,1.02,97.0,2386.0,0.7,3.67,,13.44,0.862,75.4,,30.3,5.0,,,,,,,,,,,,0,0,0,0,0,0,0,0,0,0,0,0,0,0,0,0,,,,,,0.0,,,,,,,
261,42127,1745695694013,,,,,,,,,,,,,,,,,,,,,,,,,,,,,,,,,,0,0,0,0,0,0,0,0,0,0,0,0,0,0,0,0,,,,,,,,,,,,,
262,42147,1745695694033,0.0,-55.0,,-0.12,-0.12,1.0,-9.0,0.0,0.0,1.02,1.02,99.0,2318.0,0.7,3.65,,13.44,0.862,75.4,,30.3,5.0,,,,,,,,,,,,0,0,0,0,0,0,0,0,0,0,0,0,0,0,0,0,,,,,,0.0,,,,,,,
263,42167,1745695694053,,,,,,,,,,,,,,,,,,,,,,,,,,,,,,,,,,0,0,0,0,0,0,0,0,0,0,0,0,0,0,0,0,,,,,,,,,,,,,
264,42187,1745695694073,0.0,-88.0,,-0.13,-0.12,0.99,-10.0,0.0,1.0,1.01,1.02,98.0,2318.0,0.7,3.65,,13.52,0.868,75.4,,32.3,5.0,7.0,16.0,7.0,8.0,0.0,62.0,0.0,0.0,2.54,,,0,0,0,0,0,0,0,0,0,0,0,0,0,0,0,0,,0.0,,,,0.0,38.99147,-76.937035,11.84,31.8,18.0,2.0,1.7
265,42207,1745695694099,,,,,,,,,,,,,,,,,,,,,,,,,,,,,,,,,,0,0,0,0,0,0,0,0,0,0,0,0,0,0,0,0,,,,,,,,,,,,,
266,42227,1745695694119,0.0,-82.0,,-0.12,-0.13,1.02,-11.0,0.0,1.0,1.04,1.04,100.0,2567.0,0.7,3.68,,13.44,0.9,75.4,,32.3,5.0,,,,,,,,,,,,0,0,0,0,0,0,0,0,0,0,0,0,0,0,0,0,,,,,,0.0,,,,,,,
267,42247,1745695694139,,,,,,,,,,,,,,,,,,,,,,,,,,,,,,,,,,0,0,0,0,0,0,0,0,0,0,0,0,0,0,0,0,,,,,,,,,,,,,
268,42267,1745695694159,0.0,-82.0,,-0.13,-0.1,0.97,-12.0,0.0,0.0,0.99,1.04,95.0,2564.0,0.7,3.69,,13.4,0.966,75.4,,32.3,5.0,,,,,,,,,,,,0,0,0,0,0,0,0,0,0,0,0,0,0,0,0,0,,,,,,0.0,,,,,,,
269,42287,1745695694179,,,,,,,,,,,,,,,,,,,,,,,7.0,869.0,7.0,8.0,0.0,70.0,0.0,0.0,2.54,,,0,0,0,0,0,0,0,0,0,0,0,0,0,0,0,0,,0.0,,,,,38.991466,-76.937035,11.52,31.8,18.0,2.0,1.7
270,42307,1745695694197,0.0,-78.0,,-0.12,-0.11,1.0,-13.0,0.0,0.0,1.01,1.04,97.0,2652.0,0.7,3.7,,13.29,0.945,75.4,,33.7,5.0,,,,,,,,,,,,0,0,0,0,0,0,0,0,0,0,0,0,0,0,0,0,,,,,,0.0,,,,,,,
271,42327,1745695694217,,,,,,,,,,,,,,,,,,,,,,,,,,,,,,,,,,0,0,0,0,0,0,0,0,0,0,0,0,0,0,0,0,,,,,,,,,,,,,
272,42347,1745695694237,0.0,-82.0,,-0.11,-0.08,0.98,-13.0,0.0,0.0,0.99,1.04,95.0,2598.0,0.7,3.7,,13.29,0.945,75.4,,33.7,5.0,,,,,,,,,,,,0,0,0,0,0,0,0,0,0,0,0,0,0,0,0,0,,,,,,0.0,,,,,,,
273,42367,1745695694257,,,,,,,,,,,,,,,,,,,,,,,,,,,,,,,,,,0,0,0,0,0,0,0,0,0,0,0,0,0,0,0,0,,,,,,,,,,,,,
274,42387,1745695694277,0.0,-78.0,14.13,-0.11,-0.07,1.0,-14.0,0.0,0.0,1.01,1.04,97.0,2598.0,0.7,3.7,15.0,13.29,0.904,75.4,81.0,32.3,5.0,7.0,2.0,7.0,7.0,0.0,160.0,0.0,0.0,2.54,0.0,0.0,0,0,0,0,0,0,0,0,0,0,0,0,0,0,0,0,0.0,0.0,0.0,0.0,-1.0,0.0,38.991463,-76.937035,11.48,31.8,18.0,2.0,1.7
275,42407,1745695694298,,,,,,,,,,,,,,,,,,,,,,,,,,,,,,,,,,0,0,0,0,0,0,0,0,0,0,0,0,0,0,0,0,,,,,,,,,,,,,
276,42427,1745695694318,0.0,-65.0,,-0.13,-0.12,0.98,-15.0,0.0,0.0,1.0,1.04,96.0,2496.0,0.8,3.68,,13.39,0.882,75.4,,32.3,5.0,,,,,,,,,,,,0,0,0,0,0,0,0,0,0,0,0,0,0,0,0,0,,,,,,0.0,,,,,,,
277,42447,1745695694338,,,,,,,,,,,,,,,,,,,,,,,,,,,,,,,,,,0,0,0,0,0,0,0,0,0,0,0,0,0,0,0,0,,,,,,,,,,,,,
278,42467,1745695694358,0.0,-61.0,,-0.13,-0.11,0.97,-16.0,1.0,0.0,0.99,1.04,95.0,2335.0,1.0,3.67,,13.47,0.877,75.4,,32.3,5.0,,,,,,,,,,,,0,0,0,0,0,0,0,0,0,0,0,0,0,0,0,0,,,,,,0.0,,,,,,,
279,42487,1745695694378,,,,,,,,,,,,,,,,,,,,,,,7.0,15.0,7.0,7.0,0.0,62.0,0.0,0.0,2.54,,,0,0,0,0,0,0,0,0,0,0,0,0,0,0,0,0,,0.0,,,,,38.991459,-76.937035,11.06,31.8,18.0,2.0,1.7
280,42507,1745695694398,0.0,-65.0,,-0.12,-0.13,0.98,-16.0,2.0,0.0,1.0,1.04,96.0,2263.0,0.9,3.65,,13.53,0.878,75.4,,29.9,5.0,,,,,,,,,,,,0,0,0,0,0,0,0,0,0,0,0,0,0,0,0,0,,,,,,0.0,,,,,,,
281,42527,1745695694418,,,,,,,,,,,,,,,,,,,,,,,,,,,,,,,,,,0,0,0,0,0,0,0,0,0,0,0,0,0,0,0,0,,,,,,,,,,,,,
282,42547,1745695694438,0.0,-68.0,,-0.12,-0.14,0.99,-17.0,2.0,0.0,1.01,1.04,97.0,2206.0,0.7,3.65,,13.53,0.878,75.4,,29.9,5.0,,,,,,,,,,,,0,0,0,0,0,0,0,0,0,0,0,0,0,0,0,0,,,,,,0.0,,,,,,,
283,42567,1745695694458,,,,,,,,,,,,,,,,,,,,,,,,,,,,,,,,,,0,0,0,0,0,0,0,0,0,0,0,0,0,0,0,0,,,,,,,,,,,,,
284,42587,1745695694478,0.0,-48.0,,-0.13,-0.12,1.02,-18.0,2.0,1.0,1.03,1.04,100.0,2206.0,0.7,3.65,,13.65,0.883,75.4,,29.3,5.0,7.0,498.0,7.0,8.0,0.0,123.0,0.0,0.0,2.54,,,0,0,0,0,0,0,0,0,0,0,0,0,0,0,0,0,,0.0,,,,0.0,38.991455,-76.937035,10.95,31.8,18.0,2.0,1.7
285,42607,1745695694498,,,,,,,,,,,,,,,,,,,,,,,,,,,,,,,,,,0,0,0,0,0,0,0,0,0,0,0,0,0,0,0,0,,,,,,,,,,,,,
286,42627,1745695694518,0.0,-61.0,,-0.13,-0.13,1.02,-19.0,2.0,1.0,1.03,1.04,99.0,2170.0,0.7,3.63,,13.76,0.887,75.4,,29.3,5.0,,,,,,,,,,,,0,0,0,0,0,0,0,0,0,0,0,0,0,0,0,0,,,,,,0.0,,,,,,,
287,42647,1745695694538,,,,,,,,,,,,,,,,,,,,,,,,,,,,,,,,,,0,0,0,0,0,0,0,0,0,0,0,0,0,0,0,0,,,,,,,,,,,,,
288,42667,1745695694558,0.0,-61.0,,-0.14,-0.11,1.01,-19.0,2.0,0.0,1.03,1.04,99.0,2202.0,0.8,3.65,,13.69,0.894,75.4,,29.3,5.0,,,,,,,,,,,,0,0,0,0,0,0,0,0,0,0,0,0,0,0,0,0,,,,,,0.0,,,,,,,
289,42687,1745695694578,,,,,,,,,,,,,,,,,,,,,,,7.0,42.0,6.0,8.0,0.0,184.0,0.0,0.0,2.54,,,0,0,0,0,0,0,0,0,0,0,0,0,0,0,0,0,,0.0,,,,,38.991455,-76.937035,10.95,31.8,18.0,2.0,1.7
290,42707,1745695694596,0.0,-61.0,,-0.14,-0.11,1.0,-20.0,3.0,1.0,1.02,1.04,98.0,2126.0,0.9,3.63,,13.8,0.895,75.4,,29.4,5.0,,,,,,,,,,,,0,0,0,0,0,0,0,0,0,0,0,0,0,0,0,0,,,,,,0.0,,,,,,,
291,42727,1745695694616,,,,,,,,,,,,,,,,,,,,,,,,,,,,,,,,,,0,0,0,0,0,0,0,0,0,0,0,0,0,0,0,0,,,,,,,,,,,,,
292,42747,1745695694636,0.0,-61.0,,-0.13,-0.11,1.02,-20.0,3.0,1.0,1.03,1.04,99.0,2163.0,0.9,3.63,,13.8,0.895,75.4,,29.4,5.0,,,,,,,,,,,,0,0,0,0,0,0,0,0,0,0,0,0,0,0,0,0,,,,,,0.0,,,,,,,
293,42767,1745695694656,,,,,,,,,,,,,,,,,,,,,,,,,,,,,,,,,,0,0,0,0,0,0,0,0,0,0,0,0,0,0,0,0,,,,,,,,,,,,,
294,42787,1745695694676,0.0,-51.0,,-0.12,-0.11,1.01,-21.0,3.0,1.0,1.02,1.04,98.0,2163.0,0.9,3.63,,13.77,0.899,75.4,,30.5,5.0,6.0,8.0,6.0,7.0,0.0,247.0,0.0,0.0,2.54,,,0,0,0,0,0,0,0,0,0,0,0,0,0,0,0,0,,0.0,,,,0.0,38.991455,-76.937035,10.43,31.8,18.0,2.0,1.7
295,42807,1745695694696,,,,,,,,,,,,,,,,,,,,,,,,,,,,,,,,,,0,0,0,0,0,0,0,0,0,0,0,0,0,0,0,0,,,,,,,,,,,,,
296,42827,1745695694716,0.0,-55.0,,-0.13,-0.12,1.01,-21.0,3.0,1.0,1.03,1.04,99.0,2293.0,1.0,3.63,,13.69,0.906,75.4,,30.5,5.0,,,,,,,,,,,,0,0,0,0,0,0,0,0,0,0,0,0,0,0,0,0,,,,,,0.0,,,,,,,
297,42847,1745695694736,,,,,,,,,,,,,,,,,,,,,,,,,,,,,,,,,,0,0,0,0,0,0,0,0,0,0,0,0,0,0,0,0,,,,,,,,,,,,,
298,42867,1745695694756,0.0,-61.0,,-0.14,-0.13,1.02,-21.0,3.0,1.0,1.04,1.04,100.0,2480.0,1.1,3.68,,13.61,0.93,75.4,,30.5,5.0,,,,,,,,,,,,0,0,0,0,0,0,0,0,0,0,0,0,0,0,0,0,,,,,,0.0,,,,,,,
299,42887,1745695694776,,,,,,,,,,,,,,,,,,,,,,,6.0,7.0,6.0,7.0,0.0,238.0,0.0,0.0,2.54,,,0,0,0,0,0,0,0,0,0,0,0,0,0,0,0,0,,0.0,,,,,38.991451,-76.937035,10.11,31.9,18.0,2.0,1.7
300,42907,1745695694798,0.0,-58.0,,-0.14,-0.12,1.01,-21.0,2.0,1.0,1.03,1.04,99.0,2495.0,1.2,3.69,,13.55,0.935,75.4,,33.0,5.0,,,,,,,,,,,,0,0,0,0,0,0,0,0,0,0,0,0,0,0,0,0,,,,,,0.0,,,,,,,
301,42927,1745695694818,,,,,,,,,,,,,,,,,,,,,,,,,,,,,,,,,,0,0,0,0,0,0,0,0,0,0,0,0,0,0,0,0,,,,,,,,,,,,,
302,42947,1745695694838,0.0,-61.0,,-0.12,-0.12,0.99,-21.0,2.0,0.0,1.0,1.04,96.0,2444.0,1.3,3.67,,13.55,0.935,75.4,,33.0,5.0,,,,,,,,,,,,0,0,0,0,0,0,0,0,0,0,0,0,0,0,0,0,,,,,,0.0,,,,,,,
303,42967,1745695694858,,,,,,,,,,,,,,,,,,,,,,,,,,,,,,,,,,0,0,0,0,0,0,0,0,0,0,0,0,0,0,0,0,,,,,,,,,,,,,
304,42987,1745695694878,0.0,-65.0,,-0.1,-0.13,1.0,-22.0,2.0,0.0,1.01,1.04,97.0,2444.0,1.3,3.67,,13.59,0.925,75.4,,31.2,5.0,6.0,7.0,6.0,7.0,0.0,247.0,0.0,0.0,2.54,,,0,0,0,0,0,0,0,0,0,0,0,0,0,0,0,0,,0.0,,,,0.0,38.991447,-76.937035,10.08,31.9,18.0,2.0,1.7
305,43007,1745695694898,,,,,,,,,,,,,,,,,,,,,,,,,,,,,,,,,,0,0,0,0,0,0,0,0,0,0,0,0,0,0,0,0,,,,,,,,,,,,,
306,43027,1745695694918,0.0,-24.0,,-0.1,-0.12,1.0,-22.0,2.0,0.0,1.01,1.04,97.0,2257.0,1.4,3.67,,13.61,0.916,75.4,,31.2,5.0,,,,,,,,,,,,0,0,0,0,0,0,0,0,0,0,0,0,0,0,0,0,,,,,,0.0,,,,,,,
307,43047,1745695694938,,,,,,,,,,,,,,,,,,,,,,,,,,,,,,,,,,0,0,0,0,0,0,0,0,0,0,0,0,0,0,0,0,,,,,,,,,,,,,
308,43067,1745695694958,0.0,-55.0,,-0.11,-0.13,1.0,-22.0,1.0,0.0,1.01,1.04,97.0,2161.0,1.2,3.65,,13.76,0.915,75.4,,31.2,5.0,,,,,,,,,,,,0,0,0,0,0,0,0,0,0,0,0,0,0,0,0,0,,,,,,0.0,,,,,,,
309,43087,1745695694978,,,,,,,,,,,,,,,,,,,,,,,6.0,7.0,6.0,7.0,0.0,165.0,0.0,0.0,2.54,,,0,0,0,0,0,0,0,0,0,0,0,0,0,0,0,0,,0.0,,,,,38.991444,-76.937035,10.01,31.9,18.0,2.0,1.7
310,43107,1745695694992,0.0,-41.0,,-0.1,-0.12,1.01,-23.0,1.0,0.0,1.02,1.04,98.0,2077.0,1.0,3.63,,13.77,0.916,75.4,,29.1,5.0,,,,,,,,,,,,0,0,0,0,0,0,0,0,0,0,0,0,0,0,0,0,,,,,,0.0,,,,,,,
311,43127,1745695695012,,,,,,,,,,,,,,,,,,,,,,,,,,,,,,,,,,0,0,0,0,0,0,0,0,0,0,0,0,0,0,0,0,,,,,,,,,,,,,
312,43147,1745695695032,0.0,-55.0,,-0.1,-0.15,1.02,-23.0,1.0,0.0,1.03,1.04,99.0,2048.0,1.1,3.62,,13.77,0.916,75.4,,29.1,5.0,,,,,,,,,,,,0,0,0,0,0,0,0,0,0,0,0,0,0,0,0,0,,,,,,0.0,,,,,,,
313,43167,1745695695052,,,,,,,,,,,,,,,,,,,,,,,,,,,,,,,,,,0,0,0,0,0,0,0,0,0,0,0,0,0,0,0,0,,,,,,,,,,,,,
314,43187,1745695695072,0.0,-61.0,,-0.11,-0.13,1.01,-23.0,1.0,0.0,1.02,1.04,98.0,2048.0,1.1,3.62,,13.9,0.928,75.4,,29.4,5.0,6.0,4.0,6.0,7.0,0.0,219.0,0.0,0.0,2.53,,,0,0,0,0,0,0,0,0,0,0,0,0,0,0,0,0,,0.0,,,,0.0,38.991444,-76.937042,10.12,31.9,18.0,2.0,1.7
315,43207,1745695695096,,,,,,,,,,,,,,,,,,,,,,,,,,,,,,,,,,0,0,0,0,0,0,0,0,0,0,0,0,0,0,0,0,,,,,,,,,,,,,
316,43227,1745695695116,0.0,-48.0,,-0.1,-0.13,0.99,-24.0,0.0,0.0,1.01,1.04,97.0,2011.0,1.1,3.62,,13.84,0.935,75.4,,29.4,5.0,,,,,,,,,,,,0,0,0,0,0,0,0,0,0,0,0,0,0,0,0,0,,,,,,0.0,,,,,,,
317,43247,1745695695136,,,,,,,,,,,,,,,,,,,,,,,,,,,,,,,,,,0,0,0,0,0,0,0,0,0,0,0,0,0,0,0,0,,,,,,,,,,,,,
318,43267,1745695695156,0.0,-48.0,,-0.1,-0.14,0.99,-24.0,0.0,0.0,1.0,1.04,96.0,2015.0,1.1,3.61,,13.91,0.932,75.4,,29.4,5.0,,,,,,,,,,,,0,0,0,0,0,0,0,0,0,0,0,0,0,0,0,0,,,,,,0.0,,,,,,,
319,43287,1745695695176,,,,,,,,,,,,,,,,,,,,,,,6.0,7.0,6.0,8.0,0.0,247.0,0.0,0.0,2.54,,,0,0,0,0,0,0,0,0,0,0,0,0,0,0,0,0,,0.0,,,,,38.99144,-76.937042,10.06,31.9,18.0,2.0,1.7
320,43307,1745695695198,0.0,-44.0,,-0.1,-0.1,0.99,-24.0,0.0,0.0,1.0,1.04,96.0,2115.0,1.1,3.65,,13.82,0.93,75.4,,31.4,5.0,,,,,,,,,,,,0,0,0,0,0,0,0,0,0,0,0,0,0,0,0,0,,,,,,0.0,,,,,,,
321,43327,1745695695218,,,,,,,,,,,,,,,,,,,,,,,,,,,,,,,,,,0,0,0,0,0,0,0,0,0,0,0,0,0,0,0,0,,,,,,,,,,,,,
322,43347,1745695695238,0.0,-48.0,,-0.08,-0.08,1.0,-24.0,0.0,1.0,1.01,1.04,97.0,2266.0,1.1,3.64,,13.82,0.93,75.4,,31.4,5.0,,,,,,,,,,,,0,0,0,0,0,0,0,0,0,0,0,0,0,0,0,0,,,,,,0.0,,,,,,,
323,43367,1745695695258,,,,,,,,,,,,,,,,,,,,,,,,,,,,,,,,,,0,0,0,0,0,0,0,0,0,0,0,0,0,0,0,0,,,,,,,,,,,,,
324,43387,1745695695278,0.0,-58.0,14.14,-0.08,-0.08,1.0,-24.0,0.0,1.0,1.01,1.04,97.0,2266.0,1.1,3.64,15.0,13.8,0.933,75.4,81.0,32.1,5.0,6.0,7.0,6.0,7.0,0.0,0.0,0.0,0.0,2.54,0.0,0.0,0,0,0,0,0,0,0,0,0,0,0,0,0,0,0,0,0.0,0.0,0.0,0.0,-1.0,0.0,38.991436,-76.937042,9.76,31.9,18.0,2.0,1.7
325,43407,1745695695299,,,,,,,,,,,,,,,,,,,,,,,,,,,,,,,,,,0,0,0,0,0,0,0,0,0,0,0,0,0,0,0,0,,,,,,,,,,,,,
326,43427,1745695695319,0.0,-38.0,,-0.08,-0.08,1.0,-24.0,0.0,1.0,1.01,1.04,97.0,2229.0,1.0,3.66,,13.75,0.927,75.4,,32.1,5.0,,,,,,,,,,,,0,0,0,0,0,0,0,0,0,0,0,0,0,0,0,0,,,,,,0.0,,,,,,,
327,43447,1745695695339,,,,,,,,,,,,,,,,,,,,,,,,,,,,,,,,,,0,0,0,0,0,0,0,0,0,0,0,0,0,0,0,0,,,,,,,,,,,,,
328,43467,1745695695359,0.0,-17.0,,-0.09,-0.07,1.0,-24.0,0.0,1.0,1.01,1.04,97.0,2170.0,1.2,3.64,,13.75,0.927,75.4,,32.1,5.0,,,,,,,,,,,,0,0,0,0,0,0,0,0,0,0,0,0,0,0,0,0,,,,,,0.0,,,,,,,
329,43487,1745695695379,,,,,,,,,,,,,,,,,,,,,,,6.0,7.0,6.0,7.0,0.0,208.0,0.0,0.0,2.53,,,0,0,0,0,0,0,0,0,0,0,0,0,0,0,0,0,,0.0,,,,,38.991436,-76.937042,9.46,31.9,18.0,2.0,1.7
330,43507,1745695695397,0.0,-38.0,,-0.09,-0.07,1.01,-24.0,0.0,1.0,1.02,1.04,98.0,1964.0,1.4,3.63,,13.84,0.933,75.4,,29.3,5.0,,,,,,,,,,,,0,0,0,0,0,0,0,0,0,0,0,0,0,0,0,0,,,,,,0.0,,,,,,,
331,43527,1745695695417,,,,,,,,,,,,,,,,,,,,,,,,,,,,,,,,,,0,0,0,0,0,0,0,0,0,0,0,0,0,0,0,0,,,,,,,,,,,,,
332,43547,1745695695437,0.0,-41.0,,-0.1,-0.07,1.02,-24.0,0.0,1.0,1.03,1.04,99.0,1863.0,1.2,3.62,,13.84,0.933,75.4,,29.3,5.0,,,,,,,,,,,,0,0,0,0,0,0,0,0,0,0,0,0,0,0,0,0,,,,,,0.0,,,,,,,
333,43567,1745695695457,,,,,,,,,,,,,,,,,,,,,,,,,,,,,,,,,,0,0,0,0,0,0,0,0,0,0,0,0,0,0,0,0,,,,,,,,,,,,,
334,43587,1745695695477,0.0,-24.0,,-0.11,-0.08,1.01,-24.0,0.0,1.0,1.02,1.04,98.0,1863.0,1.2,3.62,,13.94,0.941,75.4,,28.8,5.0,6.0,7.0,5.0,7.0,0.0,157.0,0.0,0.0,2.54,,,0,0,0,0,0,0,0,0,0,0,0,0,0,0,0,0,,0.0,,,,0.0,38.991432,-76.93705,9.65,31.9,18.0,2.0,1.7
335,43607,1745695695495,,,,,,,,,,,,,,,,,,,,,,,,,,,,,,,,,,0,0,0,0,0,0,0,0,0,0,0,0,0,0,0,0,,,,,,,,,,,,,
336,43627,1745695695515,0.0,-48.0,,-0.11,-0.07,1.02,-24.0,0.0,1.0,1.03,1.04,99.0,1834.0,1.0,3.62,,14.0,0.965,75.4,,28.8,5.0,,,,,,,,,,,,0,0,0,0,0,0,0,0,0,0,0,0,0,0,0,0,,,,,,0.0,,,,,,,
337,43647,1745695695535,,,,,,,,,,,,,,,,,,,,,,,,,,,,,,,,,,0,0,0,0,0,0,0,0,0,0,0,0,0,0,0,0,,,,,,,,,,,,,
338,43667,1745695695555,0.0,-44.0,,-0.12,-0.07,1.01,-24.0,0.0,1.0,1.02,1.04,98.0,1843.0,1.1,3.62,,14.04,0.993,75.4,,28.8,5.0,,,,,,,,,,,,0,0,0,0,0,0,0,0,0,0,0,0,0,0,0,0,,,,,,0.0,,,,,,,
339,43687,1745695695575,,,,,,,,,,,,,,,,,,,,,,,6.0,7.0,5.0,7.0,0.0,0.0,0.0,0.0,2.54,,,0,0,0,0,0,0,0,0,0,0,0,0,0,0,0,0,,0.0,,,,,38.991432,-76.93705,9.46,32.0,18.0,2.0,1.7
340,43707,1745695695595,0.0,-34.0,,-0.12,-0.07,1.02,-25.0,0.0,1.0,1.03,1.04,99.0,1853.0,1.0,3.63,,14.04,1.007,75.4,,30.0,5.0,,,,,,,,,,,,0,0,0,0,0,0,0,0,0,0,0,0,0,0,0,0,,,,,,0.0,,,,,,,
341,43727,1745695695615,,,,,,,,,,,,,,,,,,,,,,,,,,,,,,,,,,0,0,0,0,0,0,0,0,0,0,0,0,0,0,0,0,,,,,,,,,,,,,
342,43747,1745695695635,0.0,-27.0,,-0.13,-0.07,1.0,-25.0,0.0,1.0,1.01,1.04,97.0,1841.0,1.0,3.62,,14.04,1.007,75.4,,30.0,5.0,,,,,,,,,,,,0,0,0,0,0,0,0,0,0,0,0,0,0,0,0,0,,,,,,0.0,,,,,,,
343,43767,1745695695655,,,,,,,,,,,,,,,,,,,,,,,,,,,,,,,,,,0,0,0,0,0,0,0,0,0,0,0,0,0,0,0,0,,,,,,,,,,,,,
344,43787,1745695695675,0.0,-44.0,,-0.13,-0.08,1.01,-24.0,0.0,1.0,1.02,1.04,98.0,1841.0,1.0,3.62,,14.07,1.013,75.4,,31.4,5.0,5.0,7.0,5.0,7.0,0.0,0.0,0.0,0.0,2.54,,,0,0,0,0,0,0,0,0,0,0,0,0,0,0,0,0,,0.0,,,,0.0,38.991432,-76.93705,9.27,32.0,18.0,2.0,1.7
345,43807,1745695695695,,,,,,,,,,,,,,,,,,,,,,,,,,,,,,,,,,0,0,0,0,0,0,0,0,0,0,0,0,0,0,0,0,,,,,,,,,,,,,
346,43827,1745695695715,0.0,-44.0,,-0.14,-0.08,1.01,-24.0,0.0,1.0,1.02,1.04,98.0,1943.0,1.0,3.62,,13.96,1.012,75.4,,31.4,5.0,,,,,,,,,,,,0,0,0,0,0,0,0,0,0,0,0,0,0,0,0,0,,,,,,0.0,,,,,,,
347,43847,1745695695735,,,,,,,,,,,,,,,,,,,,,,,,,,,,,,,,,,0,0,0,0,0,0,0,0,0,0,0,0,0,0,0,0,,,,,,,,,,,,,
348,43867,1745695695755,0.0,-38.0,,-0.15,-0.06,1.0,-24.0,0.0,0.0,1.01,1.04,97.0,1956.0,1.0,3.62,,13.91,1.014,75.4,,31.4,5.0,,,,,,,,,,,,0,0,0,0,0,0,0,0,0,0,0,0,0,0,0,0,,,,,,0.0,,,,,,,
349,43887,1745695695775,,,,,,,,,,,,,,,,,,,,,,,5.0,7.0,5.0,6.0,0.0,0.0,0.0,0.0,2.53,,,0,0,0,0,0,0,0,0,0,0,0,0,0,0,0,0,,0.0,,,,,38.991428,-76.93705,8.97,32.0,18.0,2.0,1.7
350,43907,1745695695797,0.0,-14.0,,-0.15,-0.08,0.99,-24.0,0.0,0.0,1.01,1.04,97.0,2100.0,0.9,3.64,,13.92,1.011,75.4,,32.2,5.0,,,,,,,,,,,,0,0,0,0,0,0,0,0,0,0,0,0,0,0,0,0,,,,,,0.0,,,,,,,
351,43927,1745695695817,,,,,,,,,,,,,,,,,,,,,,,,,,,,,,,,,,0,0,0,0,0,0,0,0,0,0,0,0,0,0,0,0,,,,,,,,,,,,,
352,43947,1745695695837,0.0,-34.0,,-0.13,-0.07,1.0,-24.0,0.0,1.0,1.01,1.04,97.0,2183.0,1.1,3.64,,13.92,1.011,75.4,,32.2,5.0,,,,,,,,,,,,0,0,0,0,0,0,0,0,0,0,0,0,0,0,0,0,,,,,,0.0,,,,,,,
353,43967,1745695695857,,,,,,,,,,,,,,,,,,,,,,,,,,,,,,,,,,0,0,0,0,0,0,0,0,0,0,0,0,0,0,0,0,,,,,,,,,,,,,
354,43987,1745695695877,0.0,-51.0,,-0.09,-0.08,1.01,-24.0,0.0,1.0,1.02,1.04,98.0,2183.0,1.1,3.64,,13.84,1.006,75.4,,32.4,5.0,5.0,7.0,5.0,7.0,0.0,0.0,0.0,0.0,2.53,,,0,0,0,0,0,0,0,0,0,0,0,0,0,0,0,0,,0.0,,,,0.0,38.991428,-76.937058,8.56,32.0,18.0,2.0,1.7
355,44007,1745695695899,,,,,,,,,,,,,,,,,,,,,,,,,,,,,,,,,,0,0,0,0,0,0,0,0,0,0,0,0,0,0,0,0,,,,,,,,,,,,,
356,44027,1745695695919,0.0,-14.0,,-0.09,-0.1,0.99,-23.0,0.0,0.0,1.0,1.04,96.0,2165.0,1.2,3.66,,13.91,0.996,75.4,,32.4,5.0,,,,,,,,,,,,0,0,0,0,0,0,0,0,0,0,0,0,0,0,0,0,,,,,,0.0,,,,,,,
357,44047,1745695695939,,,,,,,,,,,,,,,,,,,,,,,,,,,,,,,,,,0,0,0,0,0,0,0,0,0,0,0,0,0,0,0,0,,,,,,,,,,,,,
358,44067,1745695695959,0.0,-27.0,,-0.09,-0.1,0.99,-23.0,1.0,0.0,1.0,1.04,96.0,1985.0,1.3,3.63,,13.88,0.992,75.4,,32.4,5.0,,,,,,,,,,,,0,0,0,0,0,0,0,0,0,0,0,0,0,0,0,0,,,,,,0.0,,,,,,,
359,44087,1745695695979,,,,,,,,,,,,,,,,,,,,,,,5.0,6.0,5.0,6.0,0.0,0.0,0.0,0.0,2.53,,,0,0,0,0,0,0,0,0,0,0,0,0,0,0,0,0,,0.0,,,,,38.991425,-76.937058,8.5,32.0,18.0,2.0,1.7
360,44107,1745695695991,0.0,-24.0,,-0.08,-0.11,0.99,-23.0,1.0,0.0,1.0,1.04,96.0,1933.0,1.1,3.62,,13.95,0.993,75.4,,29.4,5.0,,,,,,,,,,,,0,0,0,0,0,0,0,0,0,0,0,0,0,0,0,0,,,,,,0.0,,,,,,,
361,44127,1745695696011,,,,,,,,,,,,,,,,,,,,,,,,,,,,,,,,,,0,0,0,0,0,0,0,0,0,0,0,0,0,0,0,0,,,,,,,,,,,,,
362,44147,1745695696031,0.0,-38.0,,-0.08,-0.11,1.0,-23.0,1.0,0.0,1.01,1.04,97.0,1753.0,1.0,3.62,,13.95,0.993,75.4,,29.4,5.0,,,,,,,,,,,,0,0,0,0,0,0,0,0,0,0,0,0,0,0,0,0,,,,,,0.0,,,,,,,
363,44167,1745695696051,,,,,,,,,,,,,,,,,,,,,,,,,,,,,,,,,,0,0,0,0,0,0,0,0,0,0,0,0,0,0,0,0,,,,,,,,,,,,,
364,44187,1745695696071,0.0,-41.0,,-0.08,-0.09,0.99,-23.0,1.0,0.0,1.0,1.04,96.0,1753.0,1.0,3.62,,13.96,1.009,75.4,,29.2,5.0,5.0,7.0,5.0,7.0,0.0,0.0,0.0,0.0,2.54,,,0,0,0,0,0,0,0,0,0,0,0,0,0,0,0,0,,0.0,,,,0.0,38.991425,-76.937058,8.71,32.0,18.0,2.0,1.7
365,44207,1745695696098,,,,,,,,,,,,,,,,,,,,,,,,,,,,,,,,,,0,0,0,0,0,0,0,0,0,0,0,0,0,0,0,0,,,,,,,,,,,,,
366,44227,1745695696118,0.0,-44.0,,-0.07,-0.1,1.01,-23.0,1.0,0.0,1.02,1.04,98.0,1779.0,1.0,3.63,,13.99,1.017,75.4,,29.2,5.0,,,,,,,,,,,,0,0,0,0,0,0,0,0,0,0,0,0,0,0,0,0,,,,,,0.0,,,,,,,
367,44247,1745695696138,,,,,,,,,,,,,,,,,,,,,,,,,,,,,,,,,,0,0,0,0,0,0,0,0,0,0,0,0,0,0,0,0,,,,,,,,,,,,,
368,44267,1745695696158,0.0,-41.0,,-0.08,-0.1,1.02,-23.0,1.0,-1.0,1.03,1.04,99.0,1715.0,1.0,3.63,,14.04,1.025,75.4,,29.2,5.0,,,,,,,,,,,,0,0,0,0,0,0,0,0,0,0,0,0,0,0,0,0,,,,,,0.0,,,,,,,
369,44287,1745695696178,,,,,,,,,,,,,,,,,,,,,,,5.0,6.0,5.0,6.0,0.0,54.0,0.0,0.0,2.54,,,0,0,0,0,0,0,0,0,0,0,0,0,0,0,0,0,,0.0,,,,,38.991421,-76.937065,8.62,32.0,18.0,2.0,1.7
370,44307,1745695696197,0.0,-34.0,,-0.09,-0.08,1.01,-23.0,1.0,-1.0,1.02,1.04,98.0,1714.0,1.1,3.63,,14.04,1.039,75.4,,28.8,5.0,,,,,,,,,,,,0,0,0,0,0,0,0,0,0,0,0,0,0,0,0,0,,,,,,0.0,,,,,,,
371,44327,1745695696217,,,,,,,,,,,,,,,,,,,,,,,,,,,,,,,,,,0,0,0,0,0,0,0,0,0,0,0,0,0,0,0,0,,,,,,,,,,,,,
372,44347,1745695696237,0.0,-14.0,,-0.08,-0.1,1.02,-22.0,2.0,0.0,1.03,1.04,99.0,1810.0,1.1,3.63,,14.04,1.039,75.4,,28.8,5.0,,,,,,,,,,,,0,0,0,0,0,0,0,0,0,0,0,0,0,0,0,0,,,,,,0.0,,,,,,,
373,44367,1745695696257,,,,,,,,,,,,,,,,,,,,,,,,,,,,,,,,,,0,0,0,0,0,0,0,0,0,0,0,0,0,0,0,0,,,,,,,,,,,,,
374,44387,1745695696277,0.0,-38.0,14.12,-0.1,-0.09,1.03,-22.0,1.0,-1.0,1.04,1.04,100.0,1810.0,1.1,3.63,15.0,14.04,1.05,75.4,83.0,29.5,5.0,5.0,6.0,5.0,6.0,0.0,0.0,0.0,0.0,2.53,0.0,0.0,0,0,0,0,0,0,0,0,0,0,0,0,0,0,0,0,0.0,0.0,0.0,0.0,-1.0,0.0,38.991421,-76.937065,8.5,32.1,18.0,2.0,1.7
375,44407,1745695696298,,,,,,,,,,,,,,,,,,,,,,,,,,,,,,,,,,0,0,0,0,0,0,0,0,0,0,0,0,0,0,0,0,,,,,,,,,,,,,
376,44427,1745695696318,0.0,-31.0,,-0.09,-0.08,1.03,-22.0,1.0,-1.0,1.03,1.04,99.0,1766.0,1.1,3.63,,14.02,1.048,75.4,,29.5,5.0,,,,,,,,,,,,0,0,0,0,0,0,0,0,0,0,0,0,0,0,0,0,,,,,,0.0,,,,,,,
377,44447,1745695696338,,,,,,,,,,,,,,,,,,,,,,,,,,,,,,,,,,0,0,0,0,0,0,0,0,0,0,0,0,0,0,0,0,,,,,,,,,,,,,
378,44467,1745695696358,0.0,-38.0,,-0.09,-0.04,1.02,-22.0,1.0,0.0,1.03,1.04,98.0,1928.0,1.1,3.62,,13.96,1.043,75.4,,29.5,5.0,,,,,,,,,,,,0,0,0,0,0,0,0,0,0,0,0,0,0,0,0,0,,,,,,0.0,,,,,,,
