"Interval"|"ms"|0|0|1,"Utc"|"ms"|0|0|1,"FrontBP"|"psi"|-5.0|5.0|25,"SteerAng"|"Degrees"|-145|145|25,"Battery"|"Volts"|-5.0|20.0|1,"AccelX"|"G"|-3.0|3.0|25,"AccelY"|"G"|-3.0|3.0|25,"AccelZ"|"G"|-3.0|3.0|25,"Yaw"|"Deg/Sec"|-120|120|25,"Pitch"|"Deg/Sec"|-120|120|25,"Roll"|"Deg/Sec"|-120|120|25,"Gsum"|"G"|0.0|3.0|25,"GsumMax"|"G"|0.0|3.0|25,"GsumPct"|"%"|0|100|25,"RPM"|""|0|10000|25,"TPS"|"%"|0.0|100.0|25,"InjectorPW"|"ms"|0.0|100.0|25,"Baro"|"kPa"|0|105|1,"MAP"|"Psi"|0.0|255.0|25,"Lambda"|""|-2.0|2.0|25,"IAT"|"C"|0.0|200.0|25,"EngineTemp"|"C"|0|200|1,"EOP"|"PSI"|0.0|152.0|25,"EOT"|"F"|0|250|25,"WSFR"|"MPH"|0|150|10,"WSFL"|"MPH"|0|100|10,"WSRR"|"MPH"|0|100|10,"WSRL"|""|0|100|10,"TCSet"|"%"|0.0|100.0|10,"TCSlip"|"%"|0.0|100.0|10,"TCComp"|"deg"|0.0|50.0|10,"TCCut"|"%"|0.0|100.0|10,"Analog8"|""|0.0|5.0|10,"OilTemp"|"F"|0|300|1,"AA_On"|""|0.0|1.0|1,"ThermLF1"|"C"|0|400|50,"ThermLF2"|"C"|0|400|50,"ThermRR1"|"C"|0|400|50,"ThermRR2"|"C"|0|400|50,"ThermLF3"|"C"|0|400|50,"ThermLF4"|"C"|0|400|50,"ThermLF5"|"C"|0|400|50,"ThermLF6"|"C"|0|400|50,"ThermLF7"|"C"|0|400|50,"ThermLF8"|"C"|0|400|50,"ThermRR3"|"C"|0|400|50,"ThermRR4"|"C"|0|400|50,"ThermRR5"|"C"|0|400|50,"ThermRR6"|"C"|0|400|50,"ThermRR7"|"C"|0|400|50,"ThermRR8"|"C"|0|400|50,"AA_LowDrag"|""|0|1|1,"Gear"|""|1|6|10,"AA_On"|""|0.0|1.0|1,"AA_LowDrag"|""|0|1|1,"Fuel_Mix"|""|-10|10|1,"AA_Packages"|""|0.0|1000.0|25,"Latitude"|"Degrees"|-180.0|180.0|10,"Longitude"|"Degrees"|-180.0|180.0|10,"Speed"|"kph"|0.0|150.0|10,"Altitude"|"m"|0.0|4000.0|10,"GPSSats"|""|0|20|10,"GPSQual"|""|0|5|10,"GPSDOP"|""|0.0|20.0|10
202704,1745468799664,0.0,112,,-0.2,-0.13,1.28,-3,-0,0,1.31,1.31,100,3042,0.0,3.56,,12.59,1.021,68.2,,39.3,5,,,,,,,,,,,,0,0,0,0,0,0,0,0,0,0,0,0,0,0,0,0,,,,,,0.0,,,,,,,
202724,1745468799684,,,,,,,,,,,,,,,,,,,,,,,,,,,,,,,,,,0,0,0,0,0,0,0,0,0,0,0,0,0,0,0,0,,,,,,,,,,,,,
202744,1745468799704,0.0,125,,-0.22,-0.12,1.27,-3,0,0,1.3,1.31,99,2952,0.0,3.58,,12.63,1.021,66.4,,39.3,5,,,,,,,,,,,,0,0,0,0,0,0,0,0,0,0,0,0,0,0,0,0,,,,,,0.0,,,,,,,
202764,1745468799724,,,,,,,,,,,,,,,,,,,,,,,,,,,,,,,,,,0,0,0,0,0,0,0,0,0,0,0,0,0,0,0,0,,,,,,,,,,,,,
202784,1745468799744,0.0,125,,-0.23,-0.11,1.26,-2,0,0,1.29,1.31,99,2979,0.0,3.53,,12.64,1.022,66.4,,39.3,5,0,0,0,0,0.0,0.0,0.0,0.0,2.26,,,0,0,0,0,0,0,0,0,0,0,0,0,0,0,0,0,,0,,,,0.0,38.9907,-76.939865,0.0,32.3,22,2,1.1
202804,1745468799764,,,,,,,,,,,,,,,,,,,,,,,,,,,,,,,,,,0,0,0,0,0,0,0,0,0,0,0,0,0,0,0,0,,,,,,,,,,,,,
202824,1745468799784,0.0,115,,-0.25,-0.11,1.25,-2,0,-0,1.28,1.31,98,3024,0.0,3.57,,12.64,1.022,66.4,,39.3,5,,,,,,,,,,,,0,0,0,0,0,0,0,0,0,0,0,0,0,0,0,0,,,,,,0.0,,,,,,,
202844,1745468799808,,,,,,,,,,,,,,,,,,,,,,,,,,,,,,,,,,0,0,0,0,0,0,0,0,0,0,0,0,0,0,0,0,,,,,,,,,,,,,
202864,1745468799828,0.0,112,,-0.26,-0.11,1.24,-2,0,-0,1.28,1.31,98,3024,0.0,3.57,,12.64,1.029,66.4,,39.3,5,,,,,,,,,,,,0,0,0,0,0,0,0,0,0,0,0,0,0,0,0,0,,,,,,0.0,,,,,,,
202884,1745468799848,,,,,,,,,,,,,,,,,,,,,,,0,0,0,0,0.0,0.0,0.0,0.0,2.27,,,0,0,0,0,0,0,0,0,0,0,0,0,0,0,0,0,,0,,,,,38.9907,-76.939865,0.04,32.3,22,2,1.1
202904,1745468799868,0.0,105,,-0.26,-0.12,1.26,-2,0,-0,1.29,1.31,99,2924,0.0,3.56,,12.65,1.039,66.4,,41.0,5,,,,,,,,,,,,0,0,0,0,0,0,0,0,0,0,0,0,0,0,0,0,,,,,,0.0,,,,,,,
202924,1745468799888,,,,,,,,,,,,,,,,,,,,,,,,,,,,,,,,,,0,0,0,0,0,0,0,0,0,0,0,0,0,0,0,0,,,,,,,,,,,,,
202944,1745468799908,0.0,112,,-0.25,-0.14,1.28,-2,0,-0,1.31,1.31,100,3005,0.0,3.56,,12.64,1.04,66.4,,41.0,5,,,,,,,,,,,,0,0,0,0,0,0,0,0,0,0,0,0,0,0,0,0,,,,,,0.0,,,,,,,
202964,1745468799928,,,,,,,,,,,,,,,,,,,,,,,,,,,,,,,,,,0,0,0,0,0,0,0,0,0,0,0,0,0,0,0,0,,,,,,,,,,,,,
202984,1745468799948,0.0,115,,-0.23,-0.19,1.31,-2,0,-0,1.34,1.34,100,2890,0.0,3.57,,12.72,1.04,66.4,,41.0,5,0,0,0,0,0.0,0.0,0.0,0.0,2.28,,,0,0,0,0,0,0,0,0,0,0,0,0,0,0,0,0,,0,,,,0.0,38.9907,-76.939865,0.04,32.3,22,2,1.1
203004,1745468799968,,,,,,,,,,,,,,,,,,,,,,,,,,,,,,,,,,0,0,0,0,0,0,0,0,0,0,0,0,0,0,0,0,,,,,,,,,,,,,
203024,1745468799988,0.0,119,,-0.21,-0.21,1.33,-3,-0,0,1.37,1.37,100,2938,0.0,3.52,,12.72,1.04,66.4,,42.1,5,,,,,,,,,,,,0,0,0,0,0,0,0,0,0,0,0,0,0,0,0,0,,,,,,0.0,,,,,,,
203044,1745468799997,,,,,,,,,,,,,,,,,,,,,,,,,,,,,,,,,,0,0,0,0,0,0,0,0,0,0,0,0,0,0,0,0,,,,,,,,,,,,,
203064,1745468800017,0.0,125,,-0.19,-0.18,1.35,-3,-0,1,1.37,1.37,100,2938,0.0,3.52,,12.71,1.037,66.4,,42.1,5,,,,,,,,,,,,0,0,0,0,0,0,0,0,0,0,0,0,0,0,0,0,,,,,,0.0,,,,,,,
203084,1745468800037,,,,,,,,,,,,,,,,,,,,,,,0,0,0,0,0.0,0.0,0.0,0.0,2.28,,,0,0,0,0,0,0,0,0,0,0,0,0,0,0,0,0,,0,,,,,38.9907,-76.939865,0.08,32.3,22,2,1.2
203104,1745468800057,0.0,119,,-0.18,-0.15,1.33,-4,-0,1,1.35,1.37,98,2971,0.0,3.56,,12.75,1.04,66.4,,41.6,5,,,,,,,,,,,,0,0,0,0,0,0,0,0,0,0,0,0,0,0,0,0,,,,,,0.0,,,,,,,
203124,1745468800077,,,,,,,,,,,,,,,,,,,,,,,,,,,,,,,,,,0,0,0,0,0,0,0,0,0,0,0,0,0,0,0,0,,,,,,,,,,,,,
203144,1745468800107,0.0,125,,-0.16,-0.08,1.29,-4,-0,1,1.3,1.37,95,2942,0.0,3.54,,12.75,1.041,66.4,,41.6,5,,,,,,,,,,,,0,0,0,0,0,0,0,0,0,0,0,0,0,0,0,0,,,,,,0.0,,,,,,,
203164,1745468800127,,,,,,,,,,,,,,,,,,,,,,,,,,,,,,,,,,0,0,0,0,0,0,0,0,0,0,0,0,0,0,0,0,,,,,,,,,,,,,
203184,1745468800147,0.0,119,,-0.15,-0.01,1.24,-3,-0,1,1.25,1.37,91,2994,0.0,3.48,,12.73,1.046,66.4,,41.6,5,0,0,0,0,0.0,0.0,0.0,0.0,2.27,,,0,0,0,0,0,0,0,0,0,0,0,0,0,0,0,0,,0,,,,0.0,38.9907,-76.939865,0.04,32.3,22,2,1.2
203204,1745468800167,,,,,,,,,,,,,,,,,,,,,,,,,,,,,,,,,,0,0,0,0,0,0,0,0,0,0,0,0,0,0,0,0,,,,,,,,,,,,,
203224,1745468800187,0.0,115,,-0.13,0.04,1.17,-3,-0,1,1.18,1.37,86,2961,0.0,3.51,,12.73,1.046,66.4,,42.1,5,,,,,,,,,,,,0,0,0,0,0,0,0,0,0,0,0,0,0,0,0,0,,,,,,0.0,,,,,,,
203244,1745468800207,,,,,,,,,,,,,,,,,,,,,,,,,,,,,,,,,,0,0,0,0,0,0,0,0,0,0,0,0,0,0,0,0,,,,,,,,,,,,,
203264,1745468800227,0.0,108,,-0.1,0.05,1.1,-2,-0,1,1.11,1.37,81,2961,0.0,3.51,,12.76,1.04,66.4,,42.1,5,,,,,,,,,,,,0,0,0,0,0,0,0,0,0,0,0,0,0,0,0,0,,,,,,0.0,,,,,,,
203284,1745468800247,,,,,,,,,,,,,,,,,,,,,,,0,0,0,0,0.0,0.0,0.0,0.0,2.27,,,0,0,0,0,0,0,0,0,0,0,0,0,0,0,0,0,,0,,,,,38.9907,-76.939865,0.04,32.3,22,2,1.2
203304,1745468800267,0.0,108,,-0.09,0.05,1.03,-2,-0,1,1.04,1.37,76,2877,0.0,3.51,,12.75,1.045,66.4,,41.4,5,,,,,,,,,,,,0,0,0,0,0,0,0,0,0,0,0,0,0,0,0,0,,,,,,0.0,,,,,,,
203324,1745468800287,,,,,,,,,,,,,,,,,,,,,,,,,,,,,,,,,,0,0,0,0,0,0,0,0,0,0,0,0,0,0,0,0,,,,,,,,,,,,,
203344,1745468800308,0.0,115,,-0.1,0.07,1.04,-1,-0,0,1.05,1.37,76,2849,0.0,3.51,,12.77,1.046,66.4,,41.4,5,,,,,,,,,,,,0,0,0,0,0,0,0,0,0,0,0,0,0,0,0,0,,,,,,0.0,,,,,,,
203364,1745468800328,,,,,,,,,,,,,,,,,,,,,,,,,,,,,,,,,,0,0,0,0,0,0,0,0,0,0,0,0,0,0,0,0,,,,,,,,,,,,,
203384,1745468800348,0.0,129,13.17,-0.11,0.02,1.1,-1,-0,0,1.1,1.37,80,2917,0.0,3.53,15,12.75,1.05,66.4,74,41.4,5,0,0,0,0,0.0,0.0,0.0,0.0,2.27,0,1.0,0,0,0,0,0,0,0,0,0,0,0,0,0,0,0,0,0,0,1.0,0,-0,0.0,38.9907,-76.939865,0.0,32.3,22,2,1.2
203404,1745468800368,,,,,,,,,,,,,,,,,,,,,,,,,,,,,,,,,,0,0,0,0,0,0,0,0,0,0,0,0,0,0,0,0,,,,,,,,,,,,,
203424,1745468800388,0.0,122,,-0.1,-0.07,1.15,-2,-0,0,1.16,1.37,84,2922,0.0,3.47,,12.75,1.05,66.4,,41.3,5,,,,,,,,,,,,0,0,0,0,0,0,0,0,0,0,0,0,0,0,0,0,,,,,,0.0,,,,,,,
203444,1745468800409,,,,,,,,,,,,,,,,,,,,,,,,,,,,,,,,,,0,0,0,0,0,0,0,0,0,0,0,0,0,0,0,0,,,,,,,,,,,,,
203464,1745468800429,0.0,135,,-0.09,-0.13,1.2,-2,-0,1,1.21,1.37,88,2922,0.0,3.47,,12.76,1.052,66.4,,41.3,5,,,,,,,,,,,,0,0,0,0,0,0,0,0,0,0,0,0,0,0,0,0,,,,,,0.0,,,,,,,
203484,1745468800449,,,,,,,,,,,,,,,,,,,,,,,0,0,0,0,0.0,0.0,0.0,0.0,2.28,,,0,0,0,0,0,0,0,0,0,0,0,0,0,0,0,0,,0,,,,,38.9907,-76.939865,0.08,32.3,22,2,1.2
203504,1745468800469,0.0,112,,-0.08,-0.19,1.24,-3,-0,1,1.26,1.37,92,2982,0.0,3.44,,12.73,1.054,66.4,,42.5,5,,,,,,,,,,,,0,0,0,0,0,0,0,0,0,0,0,0,0,0,0,0,,,,,,0.0,,,,,,,
203524,1745468800489,,,,,,,,,,,,,,,,,,,,,,,,,,,,,,,,,,0,0,0,0,0,0,0,0,0,0,0,0,0,0,0,0,,,,,,,,,,,,,
203544,1745468800507,0.0,112,,-0.07,-0.18,1.27,-4,-0,1,1.28,1.37,94,2952,0.0,3.44,,12.76,1.066,66.4,,42.5,5,,,,,,,,,,,,0,0,0,0,0,0,0,0,0,0,0,0,0,0,0,0,,,,,,0.0,,,,,,,
203564,1745468800527,,,,,,,,,,,,,,,,,,,,,,,,,,,,,,,,,,0,0,0,0,0,0,0,0,0,0,0,0,0,0,0,0,,,,,,,,,,,,,
203584,1745468800547,0.0,115,,-0.05,-0.18,1.3,-4,-0,1,1.31,1.37,96,2995,0.0,3.42,,12.69,1.067,66.4,,42.5,5,0,0,0,0,0.0,0.0,0.0,0.0,2.28,,,0,0,0,0,0,0,0,0,0,0,0,0,0,0,0,0,,0,,,,0.0,38.9907,-76.939865,0.09,32.2,22,2,1.2
203604,1745468800567,,,,,,,,,,,,,,,,,,,,,,,,,,,,,,,,,,0,0,0,0,0,0,0,0,0,0,0,0,0,0,0,0,,,,,,,,,,,,,
203624,1745468800587,0.0,115,,-0.04,-0.15,1.3,-4,-0,2,1.31,1.37,96,2968,0.0,3.42,,12.69,1.067,66.4,,42.6,5,,,,,,,,,,,,0,0,0,0,0,0,0,0,0,0,0,0,0,0,0,0,,,,,,0.0,,,,,,,
203644,1745468800609,,,,,,,,,,,,,,,,,,,,,,,,,,,,,,,,,,0,0,0,0,0,0,0,0,0,0,0,0,0,0,0,0,,,,,,,,,,,,,
203664,1745468800629,0.0,132,,-0.04,-0.09,1.3,-4,-0,2,1.3,1.37,95,2968,0.0,3.42,,12.75,1.07,66.4,,42.6,5,,,,,,,,,,,,0,0,0,0,0,0,0,0,0,0,0,0,0,0,0,0,,,,,,0.0,,,,,,,
203684,1745468800649,,,,,,,,,,,,,,,,,,,,,,,0,0,0,0,0.0,0.0,0.0,0.0,2.27,,,0,0,0,0,0,0,0,0,0,0,0,0,0,0,0,0,,0,,,,,38.9907,-76.939865,0.07,32.2,22,2,1.2
203704,1745468800669,0.0,115,,-0.03,-0.05,1.23,-4,-0,2,1.23,1.37,90,2935,0.0,3.4,,12.76,1.07,66.4,,41.5,5,,,,,,,,,,,,0,0,0,0,0,0,0,0,0,0,0,0,0,0,0,0,,,,,,0.0,,,,,,,
203724,1745468800689,,,,,,,,,,,,,,,,,,,,,,,,,,,,,,,,,,0,0,0,0,0,0,0,0,0,0,0,0,0,0,0,0,,,,,,,,,,,,,
203744,1745468800707,0.0,132,,-0.01,-0.02,1.15,-3,-0,2,1.15,1.37,83,2918,0.0,3.42,,12.8,1.067,66.4,,41.5,5,,,,,,,,,,,,0,0,0,0,0,0,0,0,0,0,0,0,0,0,0,0,,,,,,0.0,,,,,,,
203764,1745468800727,,,,,,,,,,,,,,,,,,,,,,,,,,,,,,,,,,0,0,0,0,0,0,0,0,0,0,0,0,0,0,0,0,,,,,,,,,,,,,
203784,1745468800747,0.0,85,,0.0,0.0,1.06,-2,-0,1,1.06,1.37,77,2922,0.0,3.39,,12.76,1.079,66.4,,41.5,5,0,0,0,0,0.0,0.0,0.0,0.0,2.27,,,0,0,0,0,0,0,0,0,0,0,0,0,0,0,0,0,,0,,,,0.0,38.9907,-76.939865,0.05,32.2,22,2,1.2
203804,1745468800767,,,,,,,,,,,,,,,,,,,,,,,,,,,,,,,,,,0,0,0,0,0,0,0,0,0,0,0,0,0,0,0,0,,,,,,,,,,,,,
203824,1745468800787,0.0,115,,-0.0,0.03,1.0,-1,-0,1,1.0,1.37,73,2962,0.0,3.37,,12.76,1.079,66.4,,42.1,5,,,,,,,,,,,,0,0,0,0,0,0,0,0,0,0,0,0,0,0,0,0,,,,,,0.0,,,,,,,
203844,1745468800809,,,,,,,,,,,,,,,,,,,,,,,,,,,,,,,,,,0,0,0,0,0,0,0,0,0,0,0,0,0,0,0,0,,,,,,,,,,,,,
203864,1745468800829,0.0,112,,-0.03,0.03,0.98,-1,-0,1,0.98,1.37,72,2962,0.0,3.37,,12.76,1.075,66.4,,42.1,5,,,,,,,,,,,,0,0,0,0,0,0,0,0,0,0,0,0,0,0,0,0,,,,,,0.0,,,,,,,
203884,1745468800849,,,,,,,,,,,,,,,,,,,,,,,0,0,0,0,0.0,0.0,0.0,0.0,2.27,,,0,0,0,0,0,0,0,0,0,0,0,0,0,0,0,0,,0,,,,,38.9907,-76.939865,0.05,32.2,22,2,1.2
203904,1745468800869,0.0,105,,-0.05,0.01,1.02,-0,-0,0,1.02,1.37,74,2923,0.0,3.4,,12.77,1.077,66.4,,41.3,5,,,,,,,,,,,,0,0,0,0,0,0,0,0,0,0,0,0,0,0,0,0,,,,,,0.0,,,,,,,
203924,1745468800889,,,,,,,,,,,,,,,,,,,,,,,,,,,,,,,,,,0,0,0,0,0,0,0,0,0,0,0,0,0,0,0,0,,,,,,,,,,,,,
203944,1745468800909,0.0,119,,-0.05,-0.01,1.07,-0,-0,0,1.07,1.37,78,2846,0.0,3.39,,12.77,1.079,66.4,,41.3,5,,,,,,,,,,,,0,0,0,0,0,0,0,0,0,0,0,0,0,0,0,0,,,,,,0.0,,,,,,,
203964,1745468800929,,,,,,,,,,,,,,,,,,,,,,,,,,,,,,,,,,0,0,0,0,0,0,0,0,0,0,0,0,0,0,0,0,,,,,,,,,,,,,
203984,1745468800949,0.0,135,,-0.05,-0.01,1.09,-1,-0,1,1.09,1.37,79,2882,0.0,3.42,,12.8,1.077,66.4,,41.3,5,0,0,0,0,0.0,0.0,0.0,0.0,2.27,,,0,0,0,0,0,0,0,0,0,0,0,0,0,0,0,0,,0,,,,0.0,38.9907,-76.939865,0.07,32.2,22,2,1.2
204004,1745468800969,,,,,,,,,,,,,,,,,,,,,,,,,,,,,,,,,,0,0,0,0,0,0,0,0,0,0,0,0,0,0,0,0,,,,,,,,,,,,,
204024,1745468800989,0.0,125,,-0.05,0.01,1.04,-1,-0,1,1.04,1.37,76,2830,0.0,3.39,,12.8,1.077,66.4,,40.8,5,,,,,,,,,,,,0,0,0,0,0,0,0,0,0,0,0,0,0,0,0,0,,,,,,0.0,,,,,,,
204044,1745468800998,,,,,,,,,,,,,,,,,,,,,,,,,,,,,,,,,,0,0,0,0,0,0,0,0,0,0,0,0,0,0,0,0,,,,,,,,,,,,,
204064,1745468801018,0.0,129,,-0.04,0.02,0.97,-0,-0,1,0.97,1.37,71,2830,0.0,3.39,,12.8,1.086,66.4,,40.8,5,,,,,,,,,,,,0,0,0,0,0,0,0,0,0,0,0,0,0,0,0,0,,,,,,0.0,,,,,,,
204084,1745468801038,,,,,,,,,,,,,,,,,,,,,,,0,0,0,0,0.0,0.0,0.0,0.0,2.28,,,0,0,0,0,0,0,0,0,0,0,0,0,0,0,0,0,,0,,,,,38.9907,-76.939865,0.13,32.2,23,2,1.1
204104,1745468801058,0.0,105,,-0.05,0.03,0.95,0,-0,0,0.95,1.37,70,2930,0.0,3.36,,12.77,1.084,66.4,,41.3,5,,,,,,,,,,,,0,0,0,0,0,0,0,0,0,0,0,0,0,0,0,0,,,,,,0.0,,,,,,,
204124,1745468801078,,,,,,,,,,,,,,,,,,,,,,,,,,,,,,,,,,0,0,0,0,0,0,0,0,0,0,0,0,0,0,0,0,,,,,,,,,,,,,
204144,1745468801108,0.0,115,,-0.07,0.04,0.99,0,-0,0,0.99,1.37,72,2904,0.0,3.36,,12.76,1.084,66.4,,41.3,5,,,,,,,,,,,,0,0,0,0,0,0,0,0,0,0,0,0,0,0,0,0,,,,,,0.0,,,,,,,
204164,1745468801128,,,,,,,,,,,,,,,,,,,,,,,,,,,,,,,,,,0,0,0,0,0,0,0,0,0,0,0,0,0,0,0,0,,,,,,,,,,,,,
204184,1745468801148,0.0,119,,-0.07,-0.04,1.05,0,-0,-0,1.05,1.37,77,2891,0.0,3.33,,12.79,1.09,66.4,,41.3,5,0,0,0,0,0.0,0.0,0.0,0.0,2.28,,,0,0,0,0,0,0,0,0,0,0,0,0,0,0,0,0,,0,,,,0.0,38.9907,-76.939865,0.11,32.2,23,2,1.1
204204,1745468801168,,,,,,,,,,,,,,,,,,,,,,,,,,,,,,,,,,0,0,0,0,0,0,0,0,0,0,0,0,0,0,0,0,,,,,,,,,,,,,
204224,1745468801188,0.0,115,,-0.06,-0.05,1.1,-0,-0,0,1.1,1.37,80,2889,0.0,3.35,,12.79,1.09,66.4,,41.0,5,,,,,,,,,,,,0,0,0,0,0,0,0,0,0,0,0,0,0,0,0,0,,,,,,0.0,,,,,,,
204244,1745468801204,,,,,,,,,,,,,,,,,,,,,,,,,,,,,,,,,,0,0,0,0,0,0,0,0,0,0,0,0,0,0,0,0,,,,,,,,,,,,,
204264,1745468801224,0.0,122,,-0.06,-0.0,1.09,-0,-0,0,1.09,1.37,79,2889,0.0,3.35,,12.81,1.092,66.4,,41.0,5,,,,,,,,,,,,0,0,0,0,0,0,0,0,0,0,0,0,0,0,0,0,,,,,,0.0,,,,,,,
204284,1745468801244,,,,,,,,,,,,,,,,,,,,,,,0,0,0,0,0.0,0.0,0.0,0.0,2.27,,,0,0,0,0,0,0,0,0,0,0,0,0,0,0,0,0,,0,,,,,38.9907,-76.939865,0.12,32.2,23,2,1.1
204304,1745468801264,0.0,122,,-0.04,-0.02,1.04,-0,-0,0,1.04,1.37,76,2842,0.0,3.32,,12.83,1.103,66.4,,40.2,5,,,,,,,,,,,,0,0,0,0,0,0,0,0,0,0,0,0,0,0,0,0,,,,,,0.0,,,,,,,
204324,1745468801284,,,,,,,,,,,,,,,,,,,,,,,,,,,,,,,,,,0,0,0,0,0,0,0,0,0,0,0,0,0,0,0,0,,,,,,,,,,,,,
204344,1745468801306,0.0,122,,-0.05,0.02,1.01,0,-0,0,1.01,1.37,73,2859,0.0,3.34,,12.8,1.099,66.4,,40.2,5,,,,,,,,,,,,0,0,0,0,0,0,0,0,0,0,0,0,0,0,0,0,,,,,,0.0,,,,,,,
204364,1745468801326,,,,,,,,,,,,,,,,,,,,,,,,,,,,,,,,,,0,0,0,0,0,0,0,0,0,0,0,0,0,0,0,0,,,,,,,,,,,,,
204384,1745468801346,0.0,129,13.27,-0.06,-0.01,1.04,-0,-0,0,1.05,1.37,76,2816,0.0,3.35,15,12.81,1.119,66.4,77,40.2,5,0,0,0,0,0.0,0.0,0.0,0.0,2.27,0,1.0,0,0,0,0,0,0,0,0,0,0,0,0,0,0,0,0,0,0,1.0,0,-0,0.0,38.9907,-76.939865,0.05,32.2,23,2,1.1
204404,1745468801366,,,,,,,,,,,,,,,,,,,,,,,,,,,,,,,,,,0,0,0,0,0,0,0,0,0,0,0,0,0,0,0,0,,,,,,,,,,,,,
204424,1745468801386,0.0,119,,-0.05,-0.03,1.09,-0,-0,0,1.09,1.37,79,2879,0.0,3.31,,12.81,1.119,66.4,,40.5,5,,,,,,,,,,,,0,0,0,0,0,0,0,0,0,0,0,0,0,0,0,0,,,,,,0.0,,,,,,,
204444,1745468801408,,,,,,,,,,,,,,,,,,,,,,,,,,,,,,,,,,0,0,0,0,0,0,0,0,0,0,0,0,0,0,0,0,,,,,,,,,,,,,
204464,1745468801428,0.0,115,,-0.06,0.0,1.07,-0,-0,1,1.07,1.37,78,2879,0.0,3.31,,12.77,1.128,66.4,,40.5,5,,,,,,,,,,,,0,0,0,0,0,0,0,0,0,0,0,0,0,0,0,0,,,,,,0.0,,,,,,,
204484,1745468801448,,,,,,,,,,,,,,,,,,,,,,,0,0,0,0,0.0,0.0,0.0,0.0,2.27,,,0,0,0,0,0,0,0,0,0,0,0,0,0,0,0,0,,0,,,,,38.9907,-76.939865,0.08,32.2,23,2,1.1
204504,1745468801468,0.0,105,,-0.05,0.06,1.03,-0,-0,1,1.04,1.37,75,2872,0.0,3.32,,12.83,1.148,66.4,,41.9,5,,,,,,,,,,,,0,0,0,0,0,0,0,0,0,0,0,0,0,0,0,0,,,,,,0.0,,,,,,,
204524,1745468801488,,,,,,,,,,,,,,,,,,,,,,,,,,,,,,,,,,0,0,0,0,0,0,0,0,0,0,0,0,0,0,0,0,,,,,,,,,,,,,
204544,1745468801508,0.0,112,,-0.04,0.1,0.99,-0,-0,1,1.0,1.37,73,2958,0.0,3.24,,12.79,1.154,66.4,,41.9,5,,,,,,,,,,,,0,0,0,0,0,0,0,0,0,0,0,0,0,0,0,0,,,,,,0.0,,,,,,,
204564,1745468801528,,,,,,,,,,,,,,,,,,,,,,,,,,,,,,,,,,0,0,0,0,0,0,0,0,0,0,0,0,0,0,0,0,,,,,,,,,,,,,
204584,1745468801548,0.0,135,,-0.02,0.15,0.95,-1,-1,1,0.96,1.37,70,2999,0.0,3.24,,12.73,1.159,66.4,,41.9,5,0,0,0,0,0.0,0.0,0.0,0.0,2.28,,,0,0,0,0,0,0,0,0,0,0,0,0,0,0,0,0,,0,,,,0.0,38.9907,-76.939858,0.15,32.2,23,2,1.1
204604,1745468801568,,,,,,,,,,,,,,,,,,,,,,,,,,,,,,,,,,0,0,0,0,0,0,0,0,0,0,0,0,0,0,0,0,,,,,,,,,,,,,
204624,1745468801588,0.0,132,,-0.01,0.17,0.92,-0,-1,1,0.93,1.37,68,2953,0.0,3.22,,12.73,1.159,66.4,,42.9,5,,,,,,,,,,,,0,0,0,0,0,0,0,0,0,0,0,0,0,0,0,0,,,,,,0.0,,,,,,,
204644,1745468801608,,,,,,,,,,,,,,,,,,,,,,,,,,,,,,,,,,0,0,0,0,0,0,0,0,0,0,0,0,0,0,0,0,,,,,,,,,,,,,
204664,1745468801628,0.0,129,,0.0,0.17,0.86,0,-1,1,0.88,1.37,64,2953,0.0,3.22,,12.79,1.164,66.4,,42.9,5,,,,,,,,,,,,0,0,0,0,0,0,0,0,0,0,0,0,0,0,0,0,,,,,,0.0,,,,,,,
204684,1745468801648,,,,,,,,,,,,,,,,,,,,,,,0,0,0,0,0.0,0.0,0.0,0.0,2.28,,,0,0,0,0,0,0,0,0,0,0,0,0,0,0,0,0,,0,,,,,38.9907,-76.939858,0.05,32.2,23,2,1.1
204704,1745468801668,0.0,119,,0.01,0.15,0.83,0,-1,1,0.84,1.37,61,2959,0.0,3.24,,12.76,1.156,66.4,,41.3,5,,,,,,,,,,,,0,0,0,0,0,0,0,0,0,0,0,0,0,0,0,0,,,,,,0.0,,,,,,,
204724,1745468801688,,,,,,,,,,,,,,,,,,,,,,,,,,,,,,,,,,0,0,0,0,0,0,0,0,0,0,0,0,0,0,0,0,,,,,,,,,,,,,
204744,1745468801708,0.0,119,,-0.0,0.15,0.81,1,-1,0,0.83,1.37,60,2936,0.0,3.25,,12.8,1.142,66.4,,41.3,5,,,,,,,,,,,,0,0,0,0,0,0,0,0,0,0,0,0,0,0,0,0,,,,,,0.0,,,,,,,
204764,1745468801728,,,,,,,,,,,,,,,,,,,,,,,,,,,,,,,,,,0,0,0,0,0,0,0,0,0,0,0,0,0,0,0,0,,,,,,,,,,,,,
204784,1745468801748,0.0,115,,-0.01,0.15,0.86,1,-1,0,0.87,1.37,64,2874,0.0,3.22,,12.8,1.142,66.4,,41.3,5,0,0,0,0,0.0,0.0,0.0,0.0,2.27,,,0,0,0,0,0,0,0,0,0,0,0,0,0,0,0,0,,0,,,,0.0,38.9907,-76.939858,0.09,32.2,23,2,1.1
204804,1745468801768,,,,,,,,,,,,,,,,,,,,,,,,,,,,,,,,,,0,0,0,0,0,0,0,0,0,0,0,0,0,0,0,0,,,,,,,,,,,,,
204824,1745468801788,0.0,108,,-0.02,0.08,0.95,0,-0,0,0.95,1.37,69,2936,0.0,3.26,,12.81,1.134,66.4,,41.0,5,,,,,,,,,,,,0,0,0,0,0,0,0,0,0,0,0,0,0,0,0,0,,,,,,0.0,,,,,,,
204844,1745468801808,,,,,,,,,,,,,,,,,,,,,,,,,,,,,,,,,,0,0,0,0,0,0,0,0,0,0,0,0,0,0,0,0,,,,,,,,,,,,,
204864,1745468801828,0.0,122,,-0.02,0.03,1.01,-0,-0,0,1.01,1.37,74,2936,0.0,3.26,,12.81,1.118,66.4,,41.0,5,,,,,,,,,,,,0,0,0,0,0,0,0,0,0,0,0,0,0,0,0,0,,,,,,0.0,,,,,,,
204884,1745468801848,,,,,,,,,,,,,,,,,,,,,,,0,0,0,0,0.0,0.0,0.0,0.0,2.27,,,0,0,0,0,0,0,0,0,0,0,0,0,0,0,0,0,,0,,,,,38.9907,-76.939858,0.06,32.2,23,2,1.1
204904,1745468801868,0.0,119,,-0.02,0.04,1.04,-1,-0,1,1.04,1.37,76,2890,0.0,3.23,,12.84,1.106,66.4,,41.4,5,,,,,,,,,,,,0,0,0,0,0,0,0,0,0,0,0,0,0,0,0,0,,,,,,0.0,,,,,,,
204924,1745468801888,,,,,,,,,,,,,,,,,,,,,,,,,,,,,,,,,,0,0,0,0,0,0,0,0,0,0,0,0,0,0,0,0,,,,,,,,,,,,,
204944,1745468801908,0.0,122,,-0.02,0.04,1.0,-0,-0,1,1.0,1.37,73,2894,0.0,3.19,,12.83,1.104,66.4,,41.4,5,,,,,,,,,,,,0,0,0,0,0,0,0,0,0,0,0,0,0,0,0,0,,,,,,0.0,,,,,,,
204964,1745468801928,,,,,,,,,,,,,,,,,,,,,,,,,,,,,,,,,,0,0,0,0,0,0,0,0,0,0,0,0,0,0,0,0,,,,,,,,,,,,,
204984,1745468801948,0.0,129,,-0.04,0.07,0.98,-1,-0,0,0.99,1.37,72,2775,0.0,3.28,,12.8,1.105,66.4,,41.4,5,0,0,0,0,0.0,0.0,0.0,0.0,2.27,,,0,0,0,0,0,0,0,0,0,0,0,0,0,0,0,0,,0,,,,0.0,38.9907,-76.939858,0.0,32.2,23,2,1.1
205004,1745468801968,,,,,,,,,,,,,,,,,,,,,,,,,,,,,,,,,,0,0,0,0,0,0,0,0,0,0,0,0,0,0,0,0,,,,,,,,,,,,,
205024,1745468801988,0.0,125,,-0.03,0.06,0.99,-0,-0,1,0.99,1.37,72,2578,0.0,3.3,,12.8,1.105,66.4,,40.1,5,,,,,,,,,,,,0,0,0,0,0,0,0,0,0,0,0,0,0,0,0,0,,,,,,0.0,,,,,,,
205044,1745468801998,,,,,,,,,,,,,,,,,,,,,,,,,,,,,,,,,,0,0,0,0,0,0,0,0,0,0,0,0,0,0,0,0,,,,,,,,,,,,,
205064,1745468802018,0.0,115,,-0.04,0.03,1.01,-1,-0,0,1.01,1.37,74,2578,0.0,3.3,,12.92,1.105,66.4,,40.1,5,,,,,,,,,,,,0,0,0,0,0,0,0,0,0,0,0,0,0,0,0,0,,,,,,0.0,,,,,,,
205084,1745468802038,,,,,,,,,,,,,,,,,,,,,,,0,0,0,0,0.0,0.0,0.0,0.0,2.28,,,0,0,0,0,0,0,0,0,0,0,0,0,0,0,0,0,,0,,,,,38.9907,-76.939858,0.08,32.2,23,2,1.1
205104,1745468802058,0.0,115,,-0.04,0.04,1.0,-0,-0,0,1.0,1.37,73,2597,0.0,3.36,,13.0,1.116,66.4,,43.1,5,,,,,,,,,,,,0,0,0,0,0,0,0,0,0,0,0,0,0,0,0,0,,,,,,0.0,,,,,,,
205124,1745468802078,,,,,,,,,,,,,,,,,,,,,,,,,,,,,,,,,,0,0,0,0,0,0,0,0,0,0,0,0,0,0,0,0,,,,,,,,,,,,,
205144,1745468802105,0.0,108,,-0.05,0.02,0.99,-0,-0,0,0.99,1.37,72,2698,0.0,3.27,,12.97,1.171,66.4,,43.1,5,,,,,,,,,,,,0,0,0,0,0,0,0,0,0,0,0,0,0,0,0,0,,,,,,0.0,,,,,,,
205164,1745468802125,,,,,,,,,,,,,,,,,,,,,,,,,,,,,,,,,,0,0,0,0,0,0,0,0,0,0,0,0,0,0,0,0,,,,,,,,,,,,,
205184,1745468802145,0.0,125,,-0.04,0.02,0.99,-0,-0,0,0.99,1.37,72,2604,0.0,3.29,,13.07,1.249,66.4,,43.1,5,0,0,0,0,0.0,0.0,0.0,0.0,2.28,,,0,0,0,0,0,0,0,0,0,0,0,0,0,0,0,0,,0,,,,0.0,38.9907,-76.939858,0.07,32.2,23,2,1.1
205204,1745468802165,,,,,,,,,,,,,,,,,,,,,,,,,,,,,,,,,,0,0,0,0,0,0,0,0,0,0,0,0,0,0,0,0,,,,,,,,,,,,,
205224,1745468802185,0.0,132,,-0.04,0.0,0.99,-0,-0,0,0.99,1.37,72,2594,0.0,3.31,,13.07,1.249,66.4,,42.2,5,,,,,,,,,,,,0,0,0,0,0,0,0,0,0,0,0,0,0,0,0,0,,,,,,0.0,,,,,,,
205244,1745468802207,,,,,,,,,,,,,,,,,,,,,,,,,,,,,,,,,,0,0,0,0,0,0,0,0,0,0,0,0,0,0,0,0,,,,,,,,,,,,,
205264,1745468802227,0.0,132,,-0.04,0.0,1.0,-0,-0,0,1.0,1.37,73,2594,0.0,3.31,,13.01,1.252,66.4,,42.2,5,,,,,,,,,,,,0,0,0,0,0,0,0,0,0,0,0,0,0,0,0,0,,,,,,0.0,,,,,,,
205284,1745468802247,,,,,,,,,,,,,,,,,,,,,,,0,0,0,0,0.0,0.0,0.0,0.0,2.28,,,0,0,0,0,0,0,0,0,0,0,0,0,0,0,0,0,,0,,,,,38.9907,-76.939858,0.09,32.2,23,2,1.1
205304,1745468802267,0.0,119,,-0.05,0.0,0.98,0,-0,0,0.99,1.37,72,2668,0.0,3.26,,13.04,1.252,66.4,,42.5,5,,,,,,,,,,,,0,0,0,0,0,0,0,0,0,0,0,0,0,0,0,0,,,,,,0.0,,,,,,,
205324,1745468802287,,,,,,,,,,,,,,,,,,,,,,,,,,,,,,,,,,0,0,0,0,0,0,0,0,0,0,0,0,0,0,0,0,,,,,,,,,,,,,
205344,1745468802307,0.0,125,,-0.04,-0.01,0.98,-0,-0,0,0.98,1.37,71,2552,0.0,3.26,,13.05,1.252,66.4,,42.5,5,,,,,,,,,,,,0,0,0,0,0,0,0,0,0,0,0,0,0,0,0,0,,,,,,0.0,,,,,,,
205364,1745468802327,,,,,,,,,,,,,,,,,,,,,,,,,,,,,,,,,,0,0,0,0,0,0,0,0,0,0,0,0,0,0,0,0,,,,,,,,,,,,,
205384,1745468802347,0.0,119,13.33,-0.04,-0.01,0.99,-0,-0,0,0.99,1.37,72,2526,0.0,3.29,15,13.08,1.248,66.4,77,42.5,5,0,0,0,0,0.0,0.0,0.0,0.0,2.27,0,1.0,0,0,0,0,0,0,0,0,0,0,0,0,0,0,0,0,0,0,1.0,0,-0,0.0,38.9907,-76.939858,0.04,32.2,23,2,1.1
205404,1745468802367,,,,,,,,,,,,,,,,,,,,,,,,,,,,,,,,,,0,0,0,0,0,0,0,0,0,0,0,0,0,0,0,0,,,,,,,,,,,,,
205424,1745468802387,0.0,112,,-0.05,-0.01,0.99,-0,-0,0,0.99,1.37,72,2435,0.0,3.35,,13.08,1.248,66.4,,38.9,5,,,,,,,,,,,,0,0,0,0,0,0,0,0,0,0,0,0,0,0,0,0,,,,,,0.0,,,,,,,
205444,1745468802407,,,,,,,,,,,,,,,,,,,,,,,,,,,,,,,,,,0,0,0,0,0,0,0,0,0,0,0,0,0,0,0,0,,,,,,,,,,,,,
205464,1745468802427,0.0,119,,-0.04,-0.02,0.99,-0,-0,0,0.99,1.37,72,2435,0.0,3.35,,13.24,1.252,66.4,,38.9,5,,,,,,,,,,,,0,0,0,0,0,0,0,0,0,0,0,0,0,0,0,0,,,,,,0.0,,,,,,,
205484,1745468802447,,,,,,,,,,,,,,,,,,,,,,,0,0,0,0,0.0,0.0,0.0,0.0,2.27,,,0,0,0,0,0,0,0,0,0,0,0,0,0,0,0,0,,0,,,,,38.9907,-76.939858,0.05,32.2,23,2,1.1
205504,1745468802467,0.0,108,,-0.04,-0.01,1.01,-0,-0,0,1.01,1.37,73,2561,0.0,3.3,,13.21,1.251,66.4,,40.5,5,,,,,,,,,,,,0,0,0,0,0,0,0,0,0,0,0,0,0,0,0,0,,,,,,0.0,,,,,,,
205524,1745468802487,,,,,,,,,,,,,,,,,,,,,,,,,,,,,,,,,,0,0,0,0,0,0,0,0,0,0,0,0,0,0,0,0,,,,,,,,,,,,,
205544,1745468802507,0.0,122,,-0.05,-0.0,1.01,0,-0,0,1.01,1.37,73,2448,0.0,3.28,,13.27,1.25,66.4,,40.5,5,,,,,,,,,,,,0,0,0,0,0,0,0,0,0,0,0,0,0,0,0,0,,,,,,0.0,,,,,,,
205564,1745468802527,,,,,,,,,,,,,,,,,,,,,,,,,,,,,,,,,,0,0,0,0,0,0,0,0,0,0,0,0,0,0,0,0,,,,,,,,,,,,,
205584,1745468802547,0.0,125,,-0.05,-0.01,1.0,0,-0,0,1.0,1.37,73,2452,0.0,3.31,,13.31,1.241,66.4,,40.5,5,0,0,0,0,0.0,0.0,0.0,0.0,2.27,,,0,0,0,0,0,0,0,0,0,0,0,0,0,0,0,0,,0,,,,0.0,38.9907,-76.939858,0.05,32.2,23,2,1.1
205604,1745468802567,,,,,,,,,,,,,,,,,,,,,,,,,,,,,,,,,,0,0,0,0,0,0,0,0,0,0,0,0,0,0,0,0,,,,,,,,,,,,,
205624,1745468802587,0.0,125,,-0.04,0.02,1.0,0,-0,0,1.0,1.37,73,2428,0.0,3.3,,13.31,1.241,66.4,,40.2,5,,,,,,,,,,,,0,0,0,0,0,0,0,0,0,0,0,0,0,0,0,0,,,,,,0.0,,,,,,,
205644,1745468802607,,,,,,,,,,,,,,,,,,,,,,,,,,,,,,,,,,0,0,0,0,0,0,0,0,0,0,0,0,0,0,0,0,,,,,,,,,,,,,
205664,1745468802627,0.0,125,,-0.05,0.0,1.01,0,-0,0,1.01,1.37,73,2428,0.0,3.3,,13.31,1.237,66.4,,40.2,5,,,,,,,,,,,,0,0,0,0,0,0,0,0,0,0,0,0,0,0,0,0,,,,,,0.0,,,,,,,
205684,1745468802647,,,,,,,,,,,,,,,,,,,,,,,0,0,0,0,0.0,0.0,0.0,0.0,2.28,,,0,0,0,0,0,0,0,0,0,0,0,0,0,0,0,0,,0,,,,,38.9907,-76.939858,0.05,32.2,23,2,1.1
205704,1745468802667,0.0,108,,-0.04,0.0,0.99,0,-0,0,0.99,1.37,72,2512,0.0,3.27,,13.29,1.211,66.4,,42.0,5,,,,,,,,,,,,0,0,0,0,0,0,0,0,0,0,0,0,0,0,0,0,,,,,,0.0,,,,,,,
205724,1745468802687,,,,,,,,,,,,,,,,,,,,,,,,,,,,,,,,,,0,0,0,0,0,0,0,0,0,0,0,0,0,0,0,0,,,,,,,,,,,,,
205744,1745468802708,0.0,108,,-0.04,0.02,1.01,0,-0,0,1.02,1.37,74,2557,0.0,3.26,,13.23,1.215,66.4,,42.0,5,,,,,,,,,,,,0,0,0,0,0,0,0,0,0,0,0,0,0,0,0,0,,,,,,0.0,,,,,,,
205764,1745468802728,,,,,,,,,,,,,,,,,,,,,,,,,,,,,,,,,,0,0,0,0,0,0,0,0,0,0,0,0,0,0,0,0,,,,,,,,,,,,,
205784,1745468802748,0.0,115,,-0.06,0.05,1.02,0,-0,0,1.02,1.37,75,2591,0.0,3.22,,13.21,1.216,66.4,,42.0,5,0,0,0,0,0.0,0.0,0.0,0.0,2.28,,,0,0,0,0,0,0,0,0,0,0,0,0,0,0,0,0,,0,,,,0.0,38.9907,-76.939858,0.13,32.2,23,2,1.1
205804,1745468802768,,,,,,,,,,,,,,,,,,,,,,,,,,,,,,,,,,0,0,0,0,0,0,0,0,0,0,0,0,0,0,0,0,,,,,,,,,,,,,
205824,1745468802788,0.0,119,,-0.05,0.03,1.01,0,-0,0,1.01,1.37,74,2441,0.0,3.21,,13.21,1.216,66.4,,42.2,5,,,,,,,,,,,,0,0,0,0,0,0,0,0,0,0,0,0,0,0,0,0,,,,,,0.0,,,,,,,
205844,1745468802807,,,,,,,,,,,,,,,,,,,,,,,,,,,,,,,,,,0,0,0,0,0,0,0,0,0,0,0,0,0,0,0,0,,,,,,,,,,,,,
205864,1745468802827,0.0,129,,-0.06,0.04,1.0,0,-0,0,1.0,1.37,73,2441,0.0,3.21,,13.23,1.243,66.4,,42.2,5,,,,,,,,,,,,0,0,0,0,0,0,0,0,0,0,0,0,0,0,0,0,,,,,,0.0,,,,,,,
205884,1745468802847,,,,,,,,,,,,,,,,,,,,,,,0,0,0,0,0.0,0.0,0.0,0.0,2.27,,,0,0,0,0,0,0,0,0,0,0,0,0,0,0,0,0,,0,,,,,38.9907,-76.939858,0.11,32.2,23,2,1.1
205904,1745468802867,0.0,129,,-0.07,0.07,1.02,0,-0,0,1.02,1.37,75,2269,0.0,3.32,,13.33,1.252,66.4,,38.8,5,,,,,,,,,,,,0,0,0,0,0,0,0,0,0,0,0,0,0,0,0,0,,,,,,0.0,,,,,,,
205924,1745468802887,,,,,,,,,,,,,,,,,,,,,,,,,,,,,,,,,,0,0,0,0,0,0,0,0,0,0,0,0,0,0,0,0,,,,,,,,,,,,,
205944,1745468802909,0.0,132,,-0.06,0.04,1.04,0,-0,0,1.04,1.37,76,2364,0.0,3.31,,13.39,1.253,66.4,,38.8,5,,,,,,,,,,,,0,0,0,0,0,0,0,0,0,0,0,0,0,0,0,0,,,,,,0.0,,,,,,,
205964,1745468802929,,,,,,,,,,,,,,,,,,,,,,,,,,,,,,,,,,0,0,0,0,0,0,0,0,0,0,0,0,0,0,0,0,,,,,,,,,,,,,
205984,1745468802949,0.0,125,,-0.06,0.07,1.02,1,-0,0,1.02,1.37,75,2499,0.0,3.23,,13.33,1.252,66.4,,38.8,5,0,0,0,0,0.0,0.0,0.0,0.0,2.27,,,0,0,0,0,0,0,0,0,0,0,0,0,0,0,0,0,,0,,,,0.0,38.9907,-76.939858,0.08,32.2,23,2,1.1
206004,1745468802969,,,,,,,,,,,,,,,,,,,,,,,,,,,,,,,,,,0,0,0,0,0,0,0,0,0,0,0,0,0,0,0,0,,,,,,,,,,,,,
206024,1745468802989,0.0,119,,-0.05,0.03,1.01,1,-0,0,1.02,1.37,74,2414,0.0,3.22,,13.33,1.252,66.4,,42.8,5,,,,,,,,,,,,0,0,0,0,0,0,0,0,0,0,0,0,0,0,0,0,,,,,,0.0,,,,,,,
206044,1745468802997,,,,,,,,,,,,,,,,,,,,,,,,,,,,,,,,,,0,0,0,0,0,0,0,0,0,0,0,0,0,0,0,0,,,,,,,,,,,,,
206064,1745468803017,0.0,119,,-0.05,0.03,1.0,0,-0,0,1.0,1.37,73,2414,0.0,3.22,,13.35,1.251,66.4,,42.8,5,,,,,,,,,,,,0,0,0,0,0,0,0,0,0,0,0,0,0,0,0,0,,,,,,0.0,,,,,,,
206084,1745468803037,,,,,,,,,,,,,,,,,,,,,,,0,0,0,0,0.0,0.0,0.0,0.0,2.27,,,0,0,0,0,0,0,0,0,0,0,0,0,0,0,0,0,,0,,,,,38.9907,-76.939858,0.13,32.2,23,2,1.1
206104,1745468803057,0.0,115,,-0.05,0.0,1.02,0,-0,0,1.02,1.37,75,2408,0.0,3.28,,13.39,1.25,66.4,,42.1,5,,,,,,,,,,,,0,0,0,0,0,0,0,0,0,0,0,0,0,0,0,0,,,,,,0.0,,,,,,,
206124,1745468803077,,,,,,,,,,,,,,,,,,,,,,,,,,,,,,,,,,0,0,0,0,0,0,0,0,0,0,0,0,0,0,0,0,,,,,,,,,,,,,
206144,1745468803102,0.0,115,,-0.05,0.02,1.01,0,-0,0,1.02,1.37,74,2435,0.0,3.24,,13.4,1.25,66.4,,42.1,5,,,,,,,,,,,,0,0,0,0,0,0,0,0,0,0,0,0,0,0,0,0,,,,,,0.0,,,,,,,
206164,1745468803122,,,,,,,,,,,,,,,,,,,,,,,,,,,,,,,,,,0,0,0,0,0,0,0,0,0,0,0,0,0,0,0,0,,,,,,,,,,,,,
206184,1745468803142,0.0,132,,-0.05,0.03,1.01,0,-0,0,1.01,1.37,74,2457,0.0,3.25,,13.37,1.249,66.4,,42.1,5,0,0,0,0,0.0,0.0,0.0,0.0,2.28,,,0,0,0,0,0,0,0,0,0,0,0,0,0,0,0,0,,0,,,,0.0,38.9907,-76.939858,0.11,32.2,23,2,1.1
206204,1745468803162,,,,,,,,,,,,,,,,,,,,,,,,,,,,,,,,,,0,0,0,0,0,0,0,0,0,0,0,0,0,0,0,0,,,,,,,,,,,,,
206224,1745468803182,0.0,119,,-0.06,0.03,1.01,0,-0,0,1.01,1.37,74,2477,0.0,3.23,,13.37,1.249,66.4,,42.8,5,,,,,,,,,,,,0,0,0,0,0,0,0,0,0,0,0,0,0,0,0,0,,,,,,0.0,,,,,,,
206244,1745468803208,,,,,,,,,,,,,,,,,,,,,,,,,,,,,,,,,,0,0,0,0,0,0,0,0,0,0,0,0,0,0,0,0,,,,,,,,,,,,,
206264,1745468803228,0.0,132,,-0.07,0.03,1.03,0,-0,0,1.03,1.37,75,2477,0.0,3.23,,13.35,1.25,66.4,,42.8,5,,,,,,,,,,,,0,0,0,0,0,0,0,0,0,0,0,0,0,0,0,0,,,,,,0.0,,,,,,,
206284,1745468803248,,,,,,,,,,,,,,,,,,,,,,,0,0,0,0,0.0,0.0,0.0,0.0,2.28,,,0,0,0,0,0,0,0,0,0,0,0,0,0,0,0,0,,0,,,,,38.9907,-76.939858,0.14,32.2,23,2,1.1
206304,1745468803268,0.0,122,,-0.07,0.03,1.02,0,-0,0,1.02,1.37,75,2283,0.0,3.29,,13.45,1.25,66.4,,40.8,5,,,,,,,,,,,,0,0,0,0,0,0,0,0,0,0,0,0,0,0,0,0,,,,,,0.0,,,,,,,
206324,1745468803288,,,,,,,,,,,,,,,,,,,,,,,,,,,,,,,,,,0,0,0,0,0,0,0,0,0,0,0,0,0,0,0,0,,,,,,,,,,,,,
206344,1745468803308,0.0,115,,-0.07,0.03,1.01,0,-0,0,1.02,1.37,74,2462,0.0,3.26,,13.4,1.252,66.4,,40.8,5,,,,,,,,,,,,0,0,0,0,0,0,0,0,0,0,0,0,0,0,0,0,,,,,,0.0,,,,,,,
206364,1745468803328,,,,,,,,,,,,,,,,,,,,,,,,,,,,,,,,,,0,0,0,0,0,0,0,0,0,0,0,0,0,0,0,0,,,,,,,,,,,,,
206384,1745468803348,0.0,119,13.31,-0.06,0.01,1.01,-0,-0,0,1.01,1.37,74,2432,0.0,3.24,15,13.4,1.253,66.4,77,40.8,5,0,0,0,0,0.0,0.0,0.0,0.0,2.28,0,1.0,0,0,0,0,0,0,0,0,0,0,0,0,0,0,0,0,0,0,1.0,0,-0,0.0,38.9907,-76.939858,0.04,32.2,23,2,1.1
206404,1745468803368,,,,,,,,,,,,,,,,,,,,,,,,,,,,,,,,,,0,0,0,0,0,0,0,0,0,0,0,0,0,0,0,0,,,,,,,,,,,,,
206424,1745468803388,0.0,115,,-0.06,0.01,1.0,0,-0,0,1.0,1.37,73,2357,0.0,3.27,,13.4,1.253,66.4,,41.0,5,,,,,,,,,,,,0,0,0,0,0,0,0,0,0,0,0,0,0,0,0,0,,,,,,0.0,,,,,,,
206444,1745468803408,,,,,,,,,,,,,,,,,,,,,,,,,,,,,,,,,,0,0,0,0,0,0,0,0,0,0,0,0,0,0,0,0,,,,,,,,,,,,,
206464,1745468803428,0.0,122,,-0.05,0.0,1.0,0,-0,0,1.0,1.37,73,2357,0.0,3.27,,13.43,1.253,66.4,,41.0,5,,,,,,,,,,,,0,0,0,0,0,0,0,0,0,0,0,0,0,0,0,0,,,,,,0.0,,,,,,,
206484,1745468803448,,,,,,,,,,,,,,,,,,,,,,,0,0,0,0,0.0,0.0,0.0,0.0,2.27,,,0,0,0,0,0,0,0,0,0,0,0,0,0,0,0,0,,0,,,,,38.9907,-76.939858,0.04,32.2,23,2,1.1
206504,1745468803468,0.0,119,,-0.07,0.02,1.0,-0,-0,-0,1.01,1.37,73,2301,0.0,3.33,,13.44,1.252,66.4,,38.1,5,,,,,,,,,,,,0,0,0,0,0,0,0,0,0,0,0,0,0,0,0,0,,,,,,0.0,,,,,,,
206524,1745468803488,,,,,,,,,,,,,,,,,,,,,,,,,,,,,,,,,,0,0,0,0,0,0,0,0,0,0,0,0,0,0,0,0,,,,,,,,,,,,,
206544,1745468803507,0.0,129,,-0.07,0.0,0.99,-0,-0,-0,1.0,1.37,73,2204,0.0,3.3,,13.52,1.252,66.4,,38.1,5,,,,,,,,,,,,0,0,0,0,0,0,0,0,0,0,0,0,0,0,0,0,,,,,,0.0,,,,,,,
206564,1745468803527,,,,,,,,,,,,,,,,,,,,,,,,,,,,,,,,,,0,0,0,0,0,0,0,0,0,0,0,0,0,0,0,0,,,,,,,,,,,,,
206584,1745468803547,0.0,132,,-0.07,-0.02,1.01,-0,-0,-0,1.01,1.37,73,2353,0.0,3.36,,13.47,1.25,66.4,,38.1,5,0,0,0,0,0.0,0.0,0.0,0.0,2.27,,,0,0,0,0,0,0,0,0,0,0,0,0,0,0,0,0,,0,,,,0.0,38.9907,-76.939858,0.0,32.2,23,2,1.1
206604,1745468803567,,,,,,,,,,,,,,,,,,,,,,,,,,,,,,,,,,0,0,0,0,0,0,0,0,0,0,0,0,0,0,0,0,,,,,,,,,,,,,
206624,1745468803587,0.0,122,,-0.07,-0.03,1.02,-0,-0,-0,1.02,1.37,74,2444,0.0,3.24,,13.47,1.25,66.4,,43.1,5,,,,,,,,,,,,0,0,0,0,0,0,0,0,0,0,0,0,0,0,0,0,,,,,,0.0,,,,,,,
206644,1745468803608,,,,,,,,,,,,,,,,,,,,,,,,,,,,,,,,,,0,0,0,0,0,0,0,0,0,0,0,0,0,0,0,0,,,,,,,,,,,,,
206664,1745468803628,0.0,112,,-0.07,-0.01,1.01,-0,-0,-0,1.01,1.37,74,2444,0.0,3.24,,13.41,1.25,66.4,,43.1,5,,,,,,,,,,,,0,0,0,0,0,0,0,0,0,0,0,0,0,0,0,0,,,,,,0.0,,,,,,,
206684,1745468803648,,,,,,,,,,,,,,,,,,,,,,,0,0,0,0,0.0,0.0,0.0,0.0,2.28,,,0,0,0,0,0,0,0,0,0,0,0,0,0,0,0,0,,0,,,,,38.9907,-76.939858,0.05,32.2,23,2,1.1
206704,1745468803668,0.0,108,,-0.07,-0.01,1.01,-0,-0,0,1.01,1.37,74,2331,0.0,3.25,,13.47,1.25,66.4,,42.3,5,,,,,,,,,,,,0,0,0,0,0,0,0,0,0,0,0,0,0,0,0,0,,,,,,0.0,,,,,,,
206724,1745468803688,,,,,,,,,,,,,,,,,,,,,,,,,,,,,,,,,,0,0,0,0,0,0,0,0,0,0,0,0,0,0,0,0,,,,,,,,,,,,,
206744,1745468803706,0.0,115,,-0.06,-0.03,0.99,-0,-0,0,1.0,1.37,73,2356,0.0,3.28,,13.48,1.25,66.4,,42.3,5,,,,,,,,,,,,0,0,0,0,0,0,0,0,0,0,0,0,0,0,0,0,,,,,,0.0,,,,,,,
206764,1745468803726,,,,,,,,,,,,,,,,,,,,,,,,,,,,,,,,,,0,0,0,0,0,0,0,0,0,0,0,0,0,0,0,0,,,,,,,,,,,,,
206784,1745468803746,0.0,129,,-0.06,-0.02,1.0,0,-0,0,1.0,1.37,73,2444,0.0,3.3,,13.43,1.251,66.4,,42.3,5,0,0,0,0,0.0,0.0,0.0,0.0,2.29,,,0,0,0,0,0,0,0,0,0,0,0,0,0,0,0,0,,0,,,,0.0,38.9907,-76.939858,0.08,32.2,23,2,1.1
206804,1745468803766,,,,,,,,,,,,,,,,,,,,,,,,,,,,,,,,,,0,0,0,0,0,0,0,0,0,0,0,0,0,0,0,0,,,,,,,,,,,,,
206824,1745468803786,0.0,129,,-0.06,-0.04,1.01,-0,-0,0,1.02,1.37,74,2461,0.0,3.22,,13.43,1.251,66.4,,43.6,5,,,,,,,,,,,,0,0,0,0,0,0,0,0,0,0,0,0,0,0,0,0,,,,,,0.0,,,,,,,
206844,1745468803808,,,,,,,,,,,,,,,,,,,,,,,,,,,,,,,,,,0,0,0,0,0,0,0,0,0,0,0,0,0,0,0,0,,,,,,,,,,,,,
206864,1745468803828,0.0,132,,-0.05,-0.06,1.0,-0,-0,0,1.01,1.37,73,2461,0.0,3.22,,13.37,1.251,66.4,,43.6,5,,,,,,,,,,,,0,0,0,0,0,0,0,0,0,0,0,0,0,0,0,0,,,,,,0.0,,,,,,,
206884,1745468803848,,,,,,,,,,,,,,,,,,,,,,,0,0,0,0,0.0,0.0,0.0,0.0,2.28,,,0,0,0,0,0,0,0,0,0,0,0,0,0,0,0,0,,0,,,,,38.9907,-76.939858,0.08,32.2,23,2,1.1
206904,1745468803868,0.0,129,,-0.05,-0.05,0.99,-0,-0,-0,0.99,1.37,72,2267,0.0,3.25,,13.47,1.252,66.4,,39.3,5,,,,,,,,,,,,0,0,0,0,0,0,0,0,0,0,0,0,0,0,0,0,,,,,,0.0,,,,,,,
206924,1745468803888,,,,,,,,,,,,,,,,,,,,,,,,,,,,,,,,,,0,0,0,0,0,0,0,0,0,0,0,0,0,0,0,0,,,,,,,,,,,,,
206944,1745468803908,0.0,135,,-0.05,-0.06,1.0,-0,-0,-0,1.0,1.37,73,2221,0.0,3.31,,13.53,1.253,66.4,,39.3,5,,,,,,,,,,,,0,0,0,0,0,0,0,0,0,0,0,0,0,0,0,0,,,,,,0.0,,,,,,,
206964,1745468803928,,,,,,,,,,,,,,,,,,,,,,,,,,,,,,,,,,0,0,0,0,0,0,0,0,0,0,0,0,0,0,0,0,,,,,,,,,,,,,
206984,1745468803948,0.0,122,,-0.07,-0.05,0.99,-0,-0,-0,0.99,1.37,72,2396,0.0,3.34,,13.53,1.253,66.4,,39.3,5,0,0,0,0,0.0,0.0,0.0,0.0,2.27,,,0,0,0,0,0,0,0,0,0,0,0,0,0,0,0,0,,0,,,,0.0,38.9907,-76.939858,0.04,32.1,23,2,1.1
207004,1745468803968,,,,,,,,,,,,,,,,,,,,,,,,,,,,,,,,,,0,0,0,0,0,0,0,0,0,0,0,0,0,0,0,0,,,,,,,,,,,,,
207024,1745468803988,0.0,122,,-0.06,-0.04,0.97,-0,-0,-0,0.97,1.37,71,2467,0.0,3.23,,13.53,1.253,66.4,,43.0,5,,,,,,,,,,,,0,0,0,0,0,0,0,0,0,0,0,0,0,0,0,0,,,,,,0.0,,,,,,,
207044,1745468803997,,,,,,,,,,,,,,,,,,,,,,,,,,,,,,,,,,0,0,0,0,0,0,0,0,0,0,0,0,0,0,0,0,,,,,,,,,,,,,
207064,1745468804017,0.0,119,,-0.08,-0.03,0.98,-0,-0,-0,0.98,1.37,72,2467,0.0,3.23,,13.44,1.253,66.4,,43.0,5,,,,,,,,,,,,0,0,0,0,0,0,0,0,0,0,0,0,0,0,0,0,,,,,,0.0,,,,,,,
207084,1745468804037,,,,,,,,,,,,,,,,,,,,,,,0,0,0,0,0.0,0.0,0.0,0.0,2.27,,,0,0,0,0,0,0,0,0,0,0,0,0,0,0,0,0,,0,,,,,38.9907,-76.939858,0.07,32.1,23,2,1.1
207104,1745468804057,0.0,119,,-0.07,-0.03,0.98,-0,-0,-0,0.98,1.37,72,2374,0.0,3.24,,13.49,1.252,66.4,,41.9,5,,,,,,,,,,,,0,0,0,0,0,0,0,0,0,0,0,0,0,0,0,0,,,,,,0.0,,,,,,,
207124,1745468804077,,,,,,,,,,,,,,,,,,,,,,,,,,,,,,,,,,0,0,0,0,0,0,0,0,0,0,0,0,0,0,0,0,,,,,,,,,,,,,
207144,1745468804105,0.0,125,,-0.05,-0.05,0.97,-0,-0,-0,0.97,1.37,71,2300,0.0,3.28,,13.49,1.251,66.4,,41.9,5,,,,,,,,,,,,0,0,0,0,0,0,0,0,0,0,0,0,0,0,0,0,,,,,,0.0,,,,,,,
207164,1745468804125,,,,,,,,,,,,,,,,,,,,,,,,,,,,,,,,,,0,0,0,0,0,0,0,0,0,0,0,0,0,0,0,0,,,,,,,,,,,,,
207184,1745468804145,0.0,132,,-0.06,-0.03,0.97,-1,-0,0,0.98,1.37,71,2158,0.0,3.3,,13.52,1.25,66.4,,41.9,5,0,0,0,0,0.0,0.0,0.0,0.0,2.27,,,0,0,0,0,0,0,0,0,0,0,0,0,0,0,0,0,,0,,,,0.0,38.9907,-76.939858,0.2,32.1,23,2,1.1
207204,1745468804165,,,,,,,,,,,,,,,,,,,,,,,,,,,,,,,,,,0,0,0,0,0,0,0,0,0,0,0,0,0,0,0,0,,,,,,,,,,,,,
207224,1745468804185,0.0,115,,-0.05,-0.01,0.99,-0,-0,0,0.99,1.37,72,2092,0.0,3.43,,13.52,1.25,66.4,,37.3,5,,,,,,,,,,,,0,0,0,0,0,0,0,0,0,0,0,0,0,0,0,0,,,,,,0.0,,,,,,,
207244,1745468804207,,,,,,,,,,,,,,,,,,,,,,,,,,,,,,,,,,0,0,0,0,0,0,0,0,0,0,0,0,0,0,0,0,,,,,,,,,,,,,
207264,1745468804227,0.0,122,,-0.06,0.0,0.99,-0,-0,-0,0.99,1.37,72,2092,0.0,3.43,,13.69,1.251,66.4,,37.3,5,,,,,,,,,,,,0,0,0,0,0,0,0,0,0,0,0,0,0,0,0,0,,,,,,0.0,,,,,,,
207284,1745468804247,,,,,,,,,,,,,,,,,,,,,,,0,0,0,0,0.0,0.0,0.0,0.0,2.28,,,0,0,0,0,0,0,0,0,0,0,0,0,0,0,0,0,,0,,,,,38.9907,-76.939858,0.08,32.1,23,2,1.1
207304,1745468804267,0.0,108,,-0.06,-0.01,1.02,-0,-0,0,1.02,1.37,74,2420,0.0,3.32,,13.57,1.25,66.4,,44.6,5,,,,,,,,,,,,0,0,0,0,0,0,0,0,0,0,0,0,0,0,0,0,,,,,,0.0,,,,,,,
207324,1745468804287,,,,,,,,,,,,,,,,,,,,,,,,,,,,,,,,,,0,0,0,0,0,0,0,0,0,0,0,0,0,0,0,0,,,,,,,,,,,,,
207344,1745468804308,0.0,119,,-0.05,0.01,1.02,-0,-0,0,1.02,1.37,75,2423,0.0,3.27,,13.55,1.25,66.4,,44.6,5,,,,,,,,,,,,0,0,0,0,0,0,0,0,0,0,0,0,0,0,0,0,,,,,,0.0,,,,,,,
207364,1745468804328,,,,,,,,,,,,,,,,,,,,,,,,,,,,,,,,,,0,0,0,0,0,0,0,0,0,0,0,0,0,0,0,0,,,,,,,,,,,,,
207384,1745468804348,0.0,115,13.33,-0.06,0.03,1.01,-0,-0,0,1.01,1.37,74,2367,0.0,3.27,15,13.51,1.251,66.4,79,44.6,5,0,0,0,0,0.0,0.0,0.0,0.0,2.29,0,1.0,0,0,0,0,0,0,0,0,0,0,0,0,0,0,0,0,0,0,1.0,0,-0,0.0,38.9907,-76.939858,0.05,32.1,23,2,1.1
207404,1745468804368,,,,,,,,,,,,,,,,,,,,,,,,,,,,,,,,,,0,0,0,0,0,0,0,0,0,0,0,0,0,0,0,0,,,,,,,,,,,,,
207424,1745468804388,0.0,119,,-0.05,0.01,1.01,-0,-0,0,1.01,1.37,73,2361,0.0,3.27,,13.51,1.251,66.4,,43.2,5,,,,,,,,,,,,0,0,0,0,0,0,0,0,0,0,0,0,0,0,0,0,,,,,,0.0,,,,,,,
207444,1745468804407,,,,,,,,,,,,,,,,,,,,,,,,,,,,,,,,,,0,0,0,0,0,0,0,0,0,0,0,0,0,0,0,0,,,,,,,,,,,,,
207464,1745468804427,0.0,132,,-0.05,0.01,0.99,-0,-0,0,0.99,1.37,72,2361,0.0,3.27,,13.52,1.252,66.4,,43.2,5,,,,,,,,,,,,0,0,0,0,0,0,0,0,0,0,0,0,0,0,0,0,,,,,,0.0,,,,,,,
207484,1745468804447,,,,,,,,,,,,,,,,,,,,,,,0,0,0,0,0.0,0.0,0.0,0.0,2.28,,,0,0,0,0,0,0,0,0,0,0,0,0,0,0,0,0,,0,,,,,38.9907,-76.939858,0.16,32.1,23,2,1.1
207504,1745468804467,0.0,129,,-0.05,0.0,0.99,-0,-0,0,0.99,1.37,72,2341,0.0,3.27,,13.44,1.252,66.4,,42.6,5,,,,,,,,,,,,0,0,0,0,0,0,0,0,0,0,0,0,0,0,0,0,,,,,,0.0,,,,,,,
207524,1745468804487,,,,,,,,,,,,,,,,,,,,,,,,,,,,,,,,,,0,0,0,0,0,0,0,0,0,0,0,0,0,0,0,0,,,,,,,,,,,,,
207544,1745468804507,0.0,125,,-0.06,0.01,1.02,-0,-0,0,1.03,1.37,75,2327,0.0,3.28,,13.51,1.252,66.4,,42.6,5,,,,,,,,,,,,0,0,0,0,0,0,0,0,0,0,0,0,0,0,0,0,,,,,,0.0,,,,,,,
207564,1745468804527,,,,,,,,,,,,,,,,,,,,,,,,,,,,,,,,,,0,0,0,0,0,0,0,0,0,0,0,0,0,0,0,0,,,,,,,,,,,,,
207584,1745468804547,0.0,122,,-0.05,0.01,1.02,-0,-0,0,1.03,1.37,75,2370,0.0,3.31,,13.48,1.253,66.4,,42.6,5,0,0,0,0,0.0,0.0,0.0,0.0,2.27,,,0,0,0,0,0,0,0,0,0,0,0,0,0,0,0,0,,0,,,,0.0,38.9907,-76.939858,0.16,32.1,23,2,1.1
207604,1745468804567,,,,,,,,,,,,,,,,,,,,,,,,,,,,,,,,,,0,0,0,0,0,0,0,0,0,0,0,0,0,0,0,0,,,,,,,,,,,,,
207624,1745468804587,0.0,108,,-0.05,0.0,1.02,-0,-0,0,1.02,1.37,75,2435,0.0,3.26,,13.48,1.253,66.4,,44.2,5,,,,,,,,,,,,0,0,0,0,0,0,0,0,0,0,0,0,0,0,0,0,,,,,,0.0,,,,,,,
207644,1745468804607,,,,,,,,,,,,,,,,,,,,,,,,,,,,,,,,,,0,0,0,0,0,0,0,0,0,0,0,0,0,0,0,0,,,,,,,,,,,,,
207664,1745468804627,0.0,112,,-0.06,-0.0,1.04,-0,-0,0,1.04,1.37,76,2435,0.0,3.26,,13.43,1.252,66.4,,44.2,5,,,,,,,,,,,,0,0,0,0,0,0,0,0,0,0,0,0,0,0,0,0,,,,,,0.0,,,,,,,
207684,1745468804647,,,,,,,,,,,,,,,,,,,,,,,0,0,0,0,0.0,0.0,0.0,0.0,2.27,,,0,0,0,0,0,0,0,0,0,0,0,0,0,0,0,0,,0,,,,,38.9907,-76.939858,0.07,32.1,23,2,1.1
207704,1745468804667,0.0,119,,-0.06,0.02,1.04,-0,-0,0,1.04,1.37,76,2369,0.0,3.26,,13.44,1.251,66.4,,38.6,5,,,,,,,,,,,,0,0,0,0,0,0,0,0,0,0,0,0,0,0,0,0,,,,,,0.0,,,,,,,
207724,1745468804687,,,,,,,,,,,,,,,,,,,,,,,,,,,,,,,,,,0,0,0,0,0,0,0,0,0,0,0,0,0,0,0,0,,,,,,,,,,,,,
207744,1745468804707,0.0,122,,-0.07,0.02,1.03,-0,-0,0,1.03,1.37,75,2090,0.0,3.36,,13.61,1.251,66.4,,38.6,5,,,,,,,,,,,,0,0,0,0,0,0,0,0,0,0,0,0,0,0,0,0,,,,,,0.0,,,,,,,
207764,1745468804727,,,,,,,,,,,,,,,,,,,,,,,,,,,,,,,,,,0,0,0,0,0,0,0,0,0,0,0,0,0,0,0,0,,,,,,,,,,,,,
207784,1745468804747,0.0,135,,-0.06,0.01,1.01,-0,-0,0,1.01,1.37,74,2184,0.0,3.43,,13.59,1.25,66.4,,38.6,5,0,0,0,0,0.0,0.0,0.0,0.0,2.28,,,0,0,0,0,0,0,0,0,0,0,0,0,0,0,0,0,,0,,,,0.0,38.9907,-76.939858,0.0,32.1,23,2,1.1
207804,1745468804767,,,,,,,,,,,,,,,,,,,,,,,,,,,,,,,,,,0,0,0,0,0,0,0,0,0,0,0,0,0,0,0,0,,,,,,,,,,,,,
207824,1745468804787,0.0,125,,-0.05,-0.01,1.03,-1,-0,0,1.03,1.37,75,2328,0.0,3.31,,13.59,1.25,66.4,,43.5,5,,,,,,,,,,,,0,0,0,0,0,0,0,0,0,0,0,0,0,0,0,0,,,,,,0.0,,,,,,,
207844,1745468804807,,,,,,,,,,,,,,,,,,,,,,,,,,,,,,,,,,0,0,0,0,0,0,0,0,0,0,0,0,0,0,0,0,,,,,,,,,,,,,
207864,1745468804827,0.0,135,,-0.06,0.0,1.03,-1,-0,0,1.03,1.37,75,2328,0.0,3.31,,13.56,1.251,66.4,,43.5,5,,,,,,,,,,,,0,0,0,0,0,0,0,0,0,0,0,0,0,0,0,0,,,,,,0.0,,,,,,,
207884,1745468804847,,,,,,,,,,,,,,,,,,,,,,,0,0,0,0,0.0,0.0,0.0,0.0,2.29,,,0,0,0,0,0,0,0,0,0,0,0,0,0,0,0,0,,0,,,,,38.9907,-76.939858,0.07,32.1,23,2,1.1
207904,1745468804867,0.0,108,,-0.06,0.01,1.02,-0,-0,0,1.02,1.37,74,2311,0.0,3.29,,13.51,1.251,66.4,,42.6,5,,,,,,,,,,,,0,0,0,0,0,0,0,0,0,0,0,0,0,0,0,0,,,,,,0.0,,,,,,,
207924,1745468804887,,,,,,,,,,,,,,,,,,,,,,,,,,,,,,,,,,0,0,0,0,0,0,0,0,0,0,0,0,0,0,0,0,,,,,,,,,,,,,
207944,1745468804907,0.0,112,,-0.06,0.02,1.01,-0,-0,0,1.01,1.37,73,2317,0.0,3.32,,13.56,1.252,66.4,,42.6,5,,,,,,,,,,,,0,0,0,0,0,0,0,0,0,0,0,0,0,0,0,0,,,,,,0.0,,,,,,,
207964,1745468804927,,,,,,,,,,,,,,,,,,,,,,,,,,,,,,,,,,0,0,0,0,0,0,0,0,0,0,0,0,0,0,0,0,,,,,,,,,,,,,
207984,1745468804947,0.0,125,,-0.06,-0.01,1.01,-1,-0,0,1.01,1.37,73,2193,0.0,3.3,,13.6,1.253,66.4,,42.6,5,0,0,0,0,0.0,0.0,0.0,0.0,2.28,,,0,0,0,0,0,0,0,0,0,0,0,0,0,0,0,0,,0,,,,0.0,38.9907,-76.939858,0.07,32.1,23,2,1.1
208004,1745468804967,,,,,,,,,,,,,,,,,,,,,,,,,,,,,,,,,,0,0,0,0,0,0,0,0,0,0,0,0,0,0,0,0,,,,,,,,,,,,,
208024,1745468804987,0.0,108,,-0.07,0.02,1.02,-1,-0,0,1.02,1.37,74,2288,0.0,3.4,,13.6,1.253,66.4,,41.7,5,,,,,,,,,,,,0,0,0,0,0,0,0,0,0,0,0,0,0,0,0,0,,,,,,0.0,,,,,,,
208044,1745468804998,,,,,,,,,,,,,,,,,,,,,,,,,,,,,,,,,,0,0,0,0,0,0,0,0,0,0,0,0,0,0,0,0,,,,,,,,,,,,,
208064,1745468805018,0.0,112,,-0.07,0.01,1.01,-1,-0,0,1.01,1.37,73,2288,0.0,3.4,,13.59,1.253,66.4,,41.7,5,,,,,,,,,,,,0,0,0,0,0,0,0,0,0,0,0,0,0,0,0,0,,,,,,0.0,,,,,,,
208084,1745468805038,,,,,,,,,,,,,,,,,,,,,,,0,0,0,0,0.0,0.0,0.0,0.0,2.27,,,0,0,0,0,0,0,0,0,0,0,0,0,0,0,0,0,,0,,,,,38.9907,-76.939858,0.09,32.1,23,2,1.1
208104,1745468805058,0.0,132,,-0.07,0.01,1.0,-1,-0,0,1.01,1.37,73,2415,0.0,3.26,,13.49,1.252,66.4,,43.8,5,,,,,,,,,,,,0,0,0,0,0,0,0,0,0,0,0,0,0,0,0,0,,,,,,0.0,,,,,,,
208124,1745468805078,,,,,,,,,,,,,,,,,,,,,,,,,,,,,,,,,,0,0,0,0,0,0,0,0,0,0,0,0,0,0,0,0,,,,,,,,,,,,,
208144,1745468805108,0.0,129,,-0.07,0.0,1.03,-1,-0,0,1.03,1.37,75,2384,0.0,3.28,,13.47,1.252,66.4,,43.8,5,,,,,,,,,,,,0,0,0,0,0,0,0,0,0,0,0,0,0,0,0,0,,,,,,0.0,,,,,,,
208164,1745468805128,,,,,,,,,,,,,,,,,,,,,,,,,,,,,,,,,,0,0,0,0,0,0,0,0,0,0,0,0,0,0,0,0,,,,,,,,,,,,,
208184,1745468805148,0.0,135,,-0.06,-0.02,1.03,-1,-0,0,1.03,1.37,75,2481,0.0,3.23,,13.39,1.251,66.4,,43.8,5,0,0,0,0,0.0,0.0,0.0,0.0,2.27,,,0,0,0,0,0,0,0,0,0,0,0,0,0,0,0,0,,0,,,,0.0,38.9907,-76.939858,0.08,32.1,23,2,1.1
208204,1745468805168,,,,,,,,,,,,,,,,,,,,,,,,,,,,,,,,,,0,0,0,0,0,0,0,0,0,0,0,0,0,0,0,0,,,,,,,,,,,,,
208224,1745468805188,0.0,122,,-0.06,-0.03,1.03,-1,-0,0,1.03,1.37,75,2281,0.0,3.25,,13.39,1.251,66.4,,41.4,5,,,,,,,,,,,,0,0,0,0,0,0,0,0,0,0,0,0,0,0,0,0,,,,,,0.0,,,,,,,
208244,1745468805206,,,,,,,,,,,,,,,,,,,,,,,,,,,,,,,,,,0,0,0,0,0,0,0,0,0,0,0,0,0,0,0,0,,,,,,,,,,,,,
208264,1745468805226,0.0,122,,-0.05,-0.03,1.01,-1,-0,0,1.02,1.37,74,2281,0.0,3.25,,13.45,1.25,66.4,,41.4,5,,,,,,,,,,,,0,0,0,0,0,0,0,0,0,0,0,0,0,0,0,0,,,,,,0.0,,,,,,,
208284,1745468805246,,,,,,,,,,,,,,,,,,,,,,,0,0,0,0,0.0,0.0,0.0,0.0,2.27,,,0,0,0,0,0,0,0,0,0,0,0,0,0,0,0,0,,0,,,,,38.9907,-76.939858,0.11,32.1,23,2,1.1
208304,1745468805266,0.0,119,,-0.05,-0.03,1.0,-1,-0,0,1.0,1.37,73,2223,0.0,3.31,,13.57,1.251,66.4,,38.9,5,,,,,,,,,,,,0,0,0,0,0,0,0,0,0,0,0,0,0,0,0,0,,,,,,0.0,,,,,,,
208324,1745468805286,,,,,,,,,,,,,,,,,,,,,,,,,,,,,,,,,,0,0,0,0,0,0,0,0,0,0,0,0,0,0,0,0,,,,,,,,,,,,,
208344,1745468805308,0.0,115,,-0.04,-0.03,0.99,-0,-0,0,0.99,1.37,72,2096,0.0,3.33,,13.57,1.251,66.4,,38.9,5,,,,,,,,,,,,0,0,0,0,0,0,0,0,0,0,0,0,0,0,0,0,,,,,,0.0,,,,,,,
208364,1745468805328,,,,,,,,,,,,,,,,,,,,,,,,,,,,,,,,,,0,0,0,0,0,0,0,0,0,0,0,0,0,0,0,0,,,,,,,,,,,,,
208384,1745468805348,0.0,119,13.39,-0.06,-0.02,1.0,-0,-0,0,1.01,1.37,73,2250,0.0,3.39,15,13.57,1.251,66.4,79,38.9,5,0,0,0,0,0.0,0.0,0.0,0.0,2.29,0,1.0,0,0,0,0,0,0,0,0,0,0,0,0,0,0,0,0,0,0,1.0,0,-0,0.0,38.9907,-76.939858,0.07,32.1,23,2,1.1
208404,1745468805368,,,,,,,,,,,,,,,,,,,,,,,,,,,,,,,,,,0,0,0,0,0,0,0,0,0,0,0,0,0,0,0,0,,,,,,,,,,,,,
208424,1745468805388,0.0,122,,-0.06,-0.03,1.02,-0,-0,0,1.03,1.37,75,2331,0.0,3.33,,13.57,1.251,66.4,,41.6,5,,,,,,,,,,,,0,0,0,0,0,0,0,0,0,0,0,0,0,0,0,0,,,,,,0.0,,,,,,,
208444,1745468805408,,,,,,,,,,,,,,,,,,,,,,,,,,,,,,,,,,0,0,0,0,0,0,0,0,0,0,0,0,0,0,0,0,,,,,,,,,,,,,
208464,1745468805428,0.0,132,,-0.05,-0.04,1.02,-0,-0,0,1.02,1.37,74,2331,0.0,3.33,,13.61,1.251,66.4,,41.6,5,,,,,,,,,,,,0,0,0,0,0,0,0,0,0,0,0,0,0,0,0,0,,,,,,0.0,,,,,,,
208484,1745468805448,,,,,,,,,,,,,,,,,,,,,,,0,0,0,0,0.0,0.0,0.0,0.0,2.28,,,0,0,0,0,0,0,0,0,0,0,0,0,0,0,0,0,,0,,,,,38.9907,-76.939858,0.0,32.1,23,2,1.1
208504,1745468805468,0.0,129,,-0.04,-0.04,1.03,-0,-0,0,1.03,1.37,75,2272,0.0,3.26,,13.57,1.252,66.4,,40.3,5,,,,,,,,,,,,0,0,0,0,0,0,0,0,0,0,0,0,0,0,0,0,,,,,,0.0,,,,,,,
208524,1745468805488,,,,,,,,,,,,,,,,,,,,,,,,,,,,,,,,,,0,0,0,0,0,0,0,0,0,0,0,0,0,0,0,0,,,,,,,,,,,,,
208544,1745468805508,0.0,125,,-0.04,-0.06,1.03,-1,-0,0,1.03,1.37,75,2287,0.0,3.35,,13.55,1.253,66.4,,40.3,5,,,,,,,,,,,,0,0,0,0,0,0,0,0,0,0,0,0,0,0,0,0,,,,,,0.0,,,,,,,
208564,1745468805528,,,,,,,,,,,,,,,,,,,,,,,,,,,,,,,,,,0,0,0,0,0,0,0,0,0,0,0,0,0,0,0,0,,,,,,,,,,,,,
208584,1745468805548,0.0,115,,-0.05,-0.03,1.02,-1,-0,0,1.03,1.37,75,2395,0.0,3.28,,13.53,1.253,66.4,,40.3,5,0,0,0,0,0.0,0.0,0.0,0.0,2.28,,,0,0,0,0,0,0,0,0,0,0,0,0,0,0,0,0,,0,,,,0.0,38.9907,-76.939858,0.0,32.1,23,2,1.1
208604,1745468805568,,,,,,,,,,,,,,,,,,,,,,,,,,,,,,,,,,0,0,0,0,0,0,0,0,0,0,0,0,0,0,0,0,,,,,,,,,,,,,
208624,1745468805588,0.0,108,,-0.06,-0.01,1.02,-1,-0,0,1.03,1.37,75,2269,0.0,3.29,,13.53,1.253,66.4,,43.4,5,,,,,,,,,,,,0,0,0,0,0,0,0,0,0,0,0,0,0,0,0,0,,,,,,0.0,,,,,,,
208644,1745468805608,,,,,,,,,,,,,,,,,,,,,,,,,,,,,,,,,,0,0,0,0,0,0,0,0,0,0,0,0,0,0,0,0,,,,,,,,,,,,,
208664,1745468805628,0.0,122,,-0.06,-0.0,1.03,-0,-0,0,1.03,1.37,75,2269,0.0,3.29,,13.51,1.253,66.4,,43.4,5,,,,,,,,,,,,0,0,0,0,0,0,0,0,0,0,0,0,0,0,0,0,,,,,,0.0,,,,,,,
208684,1745468805648,,,,,,,,,,,,,,,,,,,,,,,0,0,0,0,0.0,0.0,0.0,0.0,2.27,,,0,0,0,0,0,0,0,0,0,0,0,0,0,0,0,0,,0,,,,,38.9907,-76.939858,0.07,32.1,23,2,1.1
208704,1745468805668,0.0,119,,-0.06,-0.0,1.03,-0,-0,0,1.03,1.37,75,2333,0.0,3.32,,13.48,1.251,66.4,,40.5,5,,,,,,,,,,,,0,0,0,0,0,0,0,0,0,0,0,0,0,0,0,0,,,,,,0.0,,,,,,,
208724,1745468805688,,,,,,,,,,,,,,,,,,,,,,,,,,,,,,,,,,0,0,0,0,0,0,0,0,0,0,0,0,0,0,0,0,,,,,,,,,,,,,
208744,1745468805708,0.0,132,,-0.05,0.01,1.02,0,-0,0,1.02,1.37,75,2178,0.0,3.33,,13.63,1.251,66.4,,40.5,5,,,,,,,,,,,,0,0,0,0,0,0,0,0,0,0,0,0,0,0,0,0,,,,,,0.0,,,,,,,
208764,1745468805728,,,,,,,,,,,,,,,,,,,,,,,,,,,,,,,,,,0,0,0,0,0,0,0,0,0,0,0,0,0,0,0,0,,,,,,,,,,,,,
208784,1745468805748,0.0,135,,-0.06,-0.01,1.02,-0,-0,0,1.02,1.37,75,2157,0.0,3.41,,13.59,1.25,66.4,,40.5,5,0,0,0,0,0.0,0.0,0.0,0.0,2.27,,,0,0,0,0,0,0,0,0,0,0,0,0,0,0,0,0,,0,,,,0.0,38.9907,-76.939858,0.0,32.1,23,2,1.1
208804,1745468805768,,,,,,,,,,,,,,,,,,,,,,,,,,,,,,,,,,0,0,0,0,0,0,0,0,0,0,0,0,0,0,0,0,,,,,,,,,,,,,
208824,1745468805788,0.0,129,,-0.07,0.01,1.01,0,-0,-0,1.01,1.37,74,2359,0.0,3.32,,13.59,1.25,66.4,,43.0,5,,,,,,,,,,,,0,0,0,0,0,0,0,0,0,0,0,0,0,0,0,0,,,,,,0.0,,,,,,,
208844,1745468805808,,,,,,,,,,,,,,,,,,,,,,,,,,,,,,,,,,0,0,0,0,0,0,0,0,0,0,0,0,0,0,0,0,,,,,,,,,,,,,
208864,1745468805828,0.0,125,,-0.07,0.01,1.0,0,-0,0,1.0,1.37,73,2359,0.0,3.32,,13.56,1.251,66.4,,43.0,5,,,,,,,,,,,,0,0,0,0,0,0,0,0,0,0,0,0,0,0,0,0,,,,,,0.0,,,,,,,
208884,1745468805848,,,,,,,,,,,,,,,,,,,,,,,0,0,0,0,0.0,0.0,0.0,0.0,2.28,,,0,0,0,0,0,0,0,0,0,0,0,0,0,0,0,0,,0,,,,,38.9907,-76.939858,0.0,32.1,23,2,1.1
208904,1745468805868,0.0,119,,-0.06,0.03,1.0,0,-0,0,1.0,1.37,73,2418,0.0,3.25,,13.47,1.251,66.4,,45.0,5,,,,,,,,,,,,0,0,0,0,0,0,0,0,0,0,0,0,0,0,0,0,,,,,,0.0,,,,,,,
208924,1745468805888,,,,,,,,,,,,,,,,,,,,,,,,,,,,,,,,,,0,0,0,0,0,0,0,0,0,0,0,0,0,0,0,0,,,,,,,,,,,,,
208944,1745468805908,0.0,119,,-0.08,0.02,1.02,0,-0,0,1.02,1.37,74,2486,0.0,3.27,,13.43,1.251,66.4,,45.0,5,,,,,,,,,,,,0,0,0,0,0,0,0,0,0,0,0,0,0,0,0,0,,,,,,0.0,,,,,,,
208964,1745468805928,,,,,,,,,,,,,,,,,,,,,,,,,,,,,,,,,,0,0,0,0,0,0,0,0,0,0,0,0,0,0,0,0,,,,,,,,,,,,,
208984,1745468805948,0.0,125,,-0.07,0.0,1.02,0,-0,0,1.03,1.37,75,2247,0.0,3.3,,13.49,1.251,66.4,,45.0,5,0,0,0,0,0.0,0.0,0.0,0.0,2.29,,,0,0,0,0,0,0,0,0,0,0,0,0,0,0,0,0,,0,,,,0.0,38.9907,-76.939858,0.04,32.1,23,2,1.1
209004,1745468805968,,,,,,,,,,,,,,,,,,,,,,,,,,,,,,,,,,0,0,0,0,0,0,0,0,0,0,0,0,0,0,0,0,,,,,,,,,,,,,
209024,1745468805988,0.0,122,,-0.06,0.0,1.02,0,-0,0,1.02,1.37,75,2405,0.0,3.31,,13.49,1.251,66.4,,41.4,5,,,,,,,,,,,,0,0,0,0,0,0,0,0,0,0,0,0,0,0,0,0,,,,,,0.0,,,,,,,
209044,1745468805996,,,,,,,,,,,,,,,,,,,,,,,,,,,,,,,,,,0,0,0,0,0,0,0,0,0,0,0,0,0,0,0,0,,,,,,,,,,,,,
209064,1745468806016,0.0,135,,-0.06,0.0,1.02,-0,-0,0,1.02,1.37,75,2405,0.0,3.31,,13.44,1.252,66.4,,41.4,5,,,,,,,,,,,,0,0,0,0,0,0,0,0,0,0,0,0,0,0,0,0,,,,,,0.0,,,,,,,
209084,1745468806036,,,,,,,,,,,,,,,,,,,,,,,0,0,0,0,0.0,0.0,0.0,0.0,2.28,,,0,0,0,0,0,0,0,0,0,0,0,0,0,0,0,0,,0,,,,,38.9907,-76.939858,0.05,32.1,23,2,1.1
209104,1745468806056,0.0,129,,-0.04,-0.01,1.0,-0,-0,0,1.0,1.37,73,2465,0.0,3.23,,13.39,1.253,66.4,,40.9,5,,,,,,,,,,,,0,0,0,0,0,0,0,0,0,0,0,0,0,0,0,0,,,,,,0.0,,,,,,,
209124,1745468806076,,,,,,,,,,,,,,,,,,,,,,,,,,,,,,,,,,0,0,0,0,0,0,0,0,0,0,0,0,0,0,0,0,,,,,,,,,,,,,
209144,1745468806107,0.0,135,,-0.04,-0.01,1.0,-0,-0,0,1.0,1.37,73,2293,0.0,3.31,,13.48,1.253,66.4,,40.9,5,,,,,,,,,,,,0,0,0,0,0,0,0,0,0,0,0,0,0,0,0,0,,,,,,0.0,,,,,,,
209164,1745468806127,,,,,,,,,,,,,,,,,,,,,,,,,,,,,,,,,,0,0,0,0,0,0,0,0,0,0,0,0,0,0,0,0,,,,,,,,,,,,,
209184,1745468806147,0.0,122,,-0.04,-0.02,1.0,-0,-0,0,1.0,1.37,73,2283,0.0,3.34,,13.53,1.254,66.4,,40.9,5,0,0,0,0,0.0,0.0,0.0,0.0,2.27,,,0,0,0,0,0,0,0,0,0,0,0,0,0,0,0,0,,0,,,,0.0,38.9907,-76.939858,0.11,32.1,23,2,1.1
209204,1745468806167,,,,,,,,,,,,,,,,,,,,,,,,,,,,,,,,,,0,0,0,0,0,0,0,0,0,0,0,0,0,0,0,0,,,,,,,,,,,,,
209224,1745468806187,0.0,115,,-0.03,-0.04,1.0,-0,-0,0,1.0,1.37,73,2296,0.0,3.34,,13.53,1.254,66.4,,39.5,5,,,,,,,,,,,,0,0,0,0,0,0,0,0,0,0,0,0,0,0,0,0,,,,,,0.0,,,,,,,
209244,1745468806205,,,,,,,,,,,,,,,,,,,,,,,,,,,,,,,,,,0,0,0,0,0,0,0,0,0,0,0,0,0,0,0,0,,,,,,,,,,,,,
209264,1745468806225,0.0,122,,-0.03,-0.06,1.0,-1,-0,0,1.01,1.37,73,2296,0.0,3.34,,13.51,1.252,66.4,,39.5,5,,,,,,,,,,,,0,0,0,0,0,0,0,0,0,0,0,0,0,0,0,0,,,,,,0.0,,,,,,,
209284,1745468806245,,,,,,,,,,,,,,,,,,,,,,,0,0,0,0,0.0,0.0,0.0,0.0,2.27,,,0,0,0,0,0,0,0,0,0,0,0,0,0,0,0,0,,0,,,,,38.9907,-76.939865,0.04,32.1,23,2,1.1
209304,1745468806265,0.0,112,,-0.03,-0.05,1.01,-1,-0,0,1.01,1.37,74,2178,0.0,3.31,,13.6,1.251,66.4,,40.1,5,,,,,,,,,,,,0,0,0,0,0,0,0,0,0,0,0,0,0,0,0,0,,,,,,0.0,,,,,,,
209324,1745468806285,,,,,,,,,,,,,,,,,,,,,,,,,,,,,,,,,,0,0,0,0,0,0,0,0,0,0,0,0,0,0,0,0,,,,,,,,,,,,,
209344,1745468806307,0.0,122,,-0.04,-0.05,1.0,-1,-0,0,1.0,1.37,73,2316,0.0,3.38,,13.48,1.249,66.4,,40.1,5,,,,,,,,,,,,0,0,0,0,0,0,0,0,0,0,0,0,0,0,0,0,,,,,,0.0,,,,,,,
209364,1745468806327,,,,,,,,,,,,,,,,,,,,,,,,,,,,,,,,,,0,0,0,0,0,0,0,0,0,0,0,0,0,0,0,0,,,,,,,,,,,,,
209384,1745468806347,0.0,135,13.47,-0.04,-0.08,1.01,-1,-0,-0,1.01,1.37,74,2487,0.0,3.23,15,13.41,1.25,66.4,81,40.1,5,0,0,0,0,0.0,0.0,0.0,0.0,2.27,0,1.0,0,0,0,0,0,0,0,0,0,0,0,0,0,0,0,0,0,0,1.0,0,-0,0.0,38.9907,-76.939865,0.0,32.1,23,2,1.1
209404,1745468806367,,,,,,,,,,,,,,,,,,,,,,,,,,,,,,,,,,0,0,0,0,0,0,0,0,0,0,0,0,0,0,0,0,,,,,,,,,,,,,
209424,1745468806387,0.0,115,,-0.07,-0.03,1.01,-1,-0,0,1.02,1.37,74,2487,0.0,3.23,,13.41,1.25,66.4,,42.8,5,,,,,,,,,,,,0,0,0,0,0,0,0,0,0,0,0,0,0,0,0,0,,,,,,0.0,,,,,,,
209444,1745468806407,,,,,,,,,,,,,,,,,,,,,,,,,,,,,,,,,,0,0,0,0,0,0,0,0,0,0,0,0,0,0,0,0,,,,,,,,,,,,,
209464,1745468806427,0.0,129,,-0.06,-0.02,1.0,-1,-0,0,1.0,1.37,73,2487,0.0,3.26,,13.4,1.25,66.4,,42.8,5,,,,,,,,,,,,0,0,0,0,0,0,0,0,0,0,0,0,0,0,0,0,,,,,,0.0,,,,,,,
209484,1745468806447,,,,,,,,,,,,,,,,,,,,,,,0,0,0,0,0.0,0.0,0.0,0.0,2.28,,,0,0,0,0,0,0,0,0,0,0,0,0,0,0,0,0,,0,,,,,38.9907,-76.939865,0.1,32.1,23,2,1.1
209504,1745468806467,0.0,122,,-0.05,-0.02,1.0,-1,-0,0,1.0,1.37,73,2389,0.0,3.22,,13.4,1.251,66.4,,39.9,5,,,,,,,,,,,,0,0,0,0,0,0,0,0,0,0,0,0,0,0,0,0,,,,,,0.0,,,,,,,
209524,1745468806487,,,,,,,,,,,,,,,,,,,,,,,,,,,,,,,,,,0,0,0,0,0,0,0,0,0,0,0,0,0,0,0,0,,,,,,,,,,,,,
209544,1745468806509,0.0,122,,-0.05,-0.02,0.99,-1,-0,0,0.99,1.37,72,2266,0.0,3.32,,13.49,1.251,66.4,,39.9,5,,,,,,,,,,,,0,0,0,0,0,0,0,0,0,0,0,0,0,0,0,0,,,,,,0.0,,,,,,,
209564,1745468806529,,,,,,,,,,,,,,,,,,,,,,,,,,,,,,,,,,0,0,0,0,0,0,0,0,0,0,0,0,0,0,0,0,,,,,,,,,,,,,
209584,1745468806549,0.0,125,,-0.05,-0.05,1.0,-1,-0,0,1.0,1.37,73,2493,0.0,3.27,,13.43,1.252,66.4,,39.9,5,0,0,0,0,0.0,0.0,0.0,0.0,2.28,,,0,0,0,0,0,0,0,0,0,0,0,0,0,0,0,0,,0,,,,0.0,38.9907,-76.939865,0.0,32.1,23,2,1.1
209604,1745468806569,,,,,,,,,,,,,,,,,,,,,,,,,,,,,,,,,,0,0,0,0,0,0,0,0,0,0,0,0,0,0,0,0,,,,,,,,,,,,,
209624,1745468806589,0.0,119,,-0.06,-0.02,0.99,-0,-0,0,0.99,1.37,72,2531,0.0,3.21,,13.43,1.252,66.4,,44.2,5,,,,,,,,,,,,0,0,0,0,0,0,0,0,0,0,0,0,0,0,0,0,,,,,,0.0,,,,,,,
209644,1745468806609,,,,,,,,,,,,,,,,,,,,,,,,,,,,,,,,,,0,0,0,0,0,0,0,0,0,0,0,0,0,0,0,0,,,,,,,,,,,,,
209664,1745468806629,0.0,135,,-0.05,-0.03,0.97,-0,-0,0,0.97,1.37,71,2531,0.0,3.21,,13.35,1.253,66.4,,44.2,5,,,,,,,,,,,,0,0,0,0,0,0,0,0,0,0,0,0,0,0,0,0,,,,,,0.0,,,,,,,
209684,1745468806649,,,,,,,,,,,,,,,,,,,,,,,0,0,0,0,0.0,0.0,0.0,0.0,2.27,,,0,0,0,0,0,0,0,0,0,0,0,0,0,0,0,0,,0,,,,,38.9907,-76.939865,0.07,32.1,23,2,1.1
209704,1745468806669,0.0,129,,-0.06,-0.04,0.98,-1,-0,0,0.98,1.37,72,2471,0.0,3.23,,13.4,1.253,66.4,,42.4,5,,,,,,,,,,,,0,0,0,0,0,0,0,0,0,0,0,0,0,0,0,0,,,,,,0.0,,,,,,,
209724,1745468806689,,,,,,,,,,,,,,,,,,,,,,,,,,,,,,,,,,0,0,0,0,0,0,0,0,0,0,0,0,0,0,0,0,,,,,,,,,,,,,
209744,1745468806709,0.0,125,,-0.06,-0.03,0.98,-0,-0,0,0.99,1.37,72,2468,0.0,3.23,,13.36,1.253,66.4,,42.4,5,,,,,,,,,,,,0,0,0,0,0,0,0,0,0,0,0,0,0,0,0,0,,,,,,0.0,,,,,,,
209764,1745468806729,,,,,,,,,,,,,,,,,,,,,,,,,,,,,,,,,,0,0,0,0,0,0,0,0,0,0,0,0,0,0,0,0,,,,,,,,,,,,,
209784,1745468806749,0.0,135,,-0.05,-0.05,0.97,-0,-0,0,0.98,1.37,71,2513,0.0,3.21,,13.41,1.252,66.4,,42.4,5,0,0,0,0,0.0,0.0,0.0,0.0,2.27,,,0,0,0,0,0,0,0,0,0,0,0,0,0,0,0,0,,0,,,,0.0,38.9907,-76.939865,0.04,32.1,23,2,1.1
209804,1745468806769,,,,,,,,,,,,,,,,,,,,,,,,,,,,,,,,,,0,0,0,0,0,0,0,0,0,0,0,0,0,0,0,0,,,,,,,,,,,,,
209824,1745468806789,0.0,115,,-0.05,-0.07,0.98,-0,-0,-0,0.99,1.37,72,2591,0.0,3.2,,13.41,1.252,66.4,,43.4,5,,,,,,,,,,,,0,0,0,0,0,0,0,0,0,0,0,0,0,0,0,0,,,,,,0.0,,,,,,,
209844,1745468806809,,,,,,,,,,,,,,,,,,,,,,,,,,,,,,,,,,0,0,0,0,0,0,0,0,0,0,0,0,0,0,0,0,,,,,,,,,,,,,
209864,1745468806829,0.0,112,,-0.07,-0.05,0.99,-0,-0,0,0.99,1.37,72,2591,0.0,3.2,,13.23,1.251,66.4,,43.4,5,,,,,,,,,,,,0,0,0,0,0,0,0,0,0,0,0,0,0,0,0,0,,,,,,0.0,,,,,,,
209884,1745468806849,,,,,,,,,,,,,,,,,,,,,,,0,0,0,0,0.0,0.0,0.0,0.0,2.27,,,0,0,0,0,0,0,0,0,0,0,0,0,0,0,0,0,,0,,,,,38.9907,-76.939865,0.0,32.1,23,2,1.1
209904,1745468806869,0.0,119,,-0.05,-0.07,0.97,-0,-0,-0,0.97,1.37,71,2448,0.0,3.19,,13.35,1.249,66.4,,42.3,5,,,,,,,,,,,,0,0,0,0,0,0,0,0,0,0,0,0,0,0,0,0,,,,,,0.0,,,,,,,
209924,1745468806889,,,,,,,,,,,,,,,,,,,,,,,,,,,,,,,,,,0,0,0,0,0,0,0,0,0,0,0,0,0,0,0,0,,,,,,,,,,,,,
209944,1745468806907,0.0,115,,-0.05,-0.07,0.99,-0,-0,0,0.99,1.37,72,2524,0.0,3.25,,13.28,1.25,66.4,,42.3,5,,,,,,,,,,,,0,0,0,0,0,0,0,0,0,0,0,0,0,0,0,0,,,,,,0.0,,,,,,,
209964,1745468806927,,,,,,,,,,,,,,,,,,,,,,,,,,,,,,,,,,0,0,0,0,0,0,0,0,0,0,0,0,0,0,0,0,,,,,,,,,,,,,
209984,1745468806947,0.0,129,,-0.06,-0.04,0.99,-0,-0,0,0.99,1.37,72,2484,0.0,3.21,,13.32,1.25,66.4,,42.3,5,0,0,0,0,0.0,0.0,0.0,0.0,2.28,,,0,0,0,0,0,0,0,0,0,0,0,0,0,0,0,0,,0,,,,0.0,38.9907,-76.939865,0.0,32.1,23,2,1.1
210004,1745468806967,,,,,,,,,,,,,,,,,,,,,,,,,,,,,,,,,,0,0,0,0,0,0,0,0,0,0,0,0,0,0,0,0,,,,,,,,,,,,,
210024,1745468806987,0.0,129,,-0.06,-0.06,0.99,-0,-0,0,0.99,1.37,72,2579,0.0,3.19,,13.32,1.25,66.4,,44.1,5,,,,,,,,,,,,0,0,0,0,0,0,0,0,0,0,0,0,0,0,0,0,,,,,,0.0,,,,,,,
210044,1745468806998,,,,,,,,,,,,,,,,,,,,,,,,,,,,,,,,,,0,0,0,0,0,0,0,0,0,0,0,0,0,0,0,0,,,,,,,,,,,,,
210064,1745468807018,0.0,129,,-0.06,-0.04,0.99,-0,-0,0,1.0,1.37,73,2579,0.0,3.19,,13.27,1.249,66.4,,44.1,5,,,,,,,,,,,,0,0,0,0,0,0,0,0,0,0,0,0,0,0,0,0,,,,,,0.0,,,,,,,
210084,1745468807038,,,,,,,,,,,,,,,,,,,,,,,0,0,0,0,0.0,0.0,0.0,0.0,2.29,,,0,0,0,0,0,0,0,0,0,0,0,0,0,0,0,0,,0,,,,,38.9907,-76.939865,0.08,32.1,23,2,1.1
210104,1745468807058,0.0,119,,-0.07,-0.03,1.02,0,-0,0,1.02,1.37,75,2375,0.0,3.22,,13.36,1.25,66.4,,38.6,5,,,,,,,,,,,,0,0,0,0,0,0,0,0,0,0,0,0,0,0,0,0,,,,,,0.0,,,,,,,
210124,1745468807078,,,,,,,,,,,,,,,,,,,,,,,,,,,,,,,,,,0,0,0,0,0,0,0,0,0,0,0,0,0,0,0,0,,,,,,,,,,,,,
210144,1745468807104,0.0,119,,-0.07,-0.01,1.02,0,-0,0,1.03,1.37,75,2254,0.0,3.33,,13.49,1.249,66.4,,38.6,5,,,,,,,,,,,,0,0,0,0,0,0,0,0,0,0,0,0,0,0,0,0,,,,,,0.0,,,,,,,
210164,1745468807124,,,,,,,,,,,,,,,,,,,,,,,,,,,,,,,,,,0,0,0,0,0,0,0,0,0,0,0,0,0,0,0,0,,,,,,,,,,,,,
210184,1745468807144,0.0,125,,-0.07,-0.0,1.02,0,-0,0,1.02,1.37,74,2242,0.0,3.34,,13.55,1.253,66.4,,38.6,5,0,0,0,0,0.0,0.0,0.0,0.0,2.28,,,0,0,0,0,0,0,0,0,0,0,0,0,0,0,0,0,,0,,,,0.0,38.9907,-76.939865,0.04,32.1,23,2,1.1
210204,1745468807164,,,,,,,,,,,,,,,,,,,,,,,,,,,,,,,,,,0,0,0,0,0,0,0,0,0,0,0,0,0,0,0,0,,,,,,,,,,,,,
210224,1745468807184,0.0,122,,-0.06,0.02,1.01,0,-0,0,1.01,1.37,74,2165,0.0,3.38,,13.55,1.253,66.4,,37.4,5,,,,,,,,,,,,0,0,0,0,0,0,0,0,0,0,0,0,0,0,0,0,,,,,,0.0,,,,,,,
210244,1745468807204,,,,,,,,,,,,,,,,,,,,,,,,,,,,,,,,,,0,0,0,0,0,0,0,0,0,0,0,0,0,0,0,0,,,,,,,,,,,,,
210264,1745468807224,0.0,119,,-0.05,0.01,1.02,0,-0,0,1.02,1.37,74,2165,0.0,3.38,,13.64,1.253,66.4,,37.4,5,,,,,,,,,,,,0,0,0,0,0,0,0,0,0,0,0,0,0,0,0,0,,,,,,0.0,,,,,,,
210284,1745468807244,,,,,,,,,,,,,,,,,,,,,,,0,0,0,0,0.0,0.0,0.0,0.0,2.27,,,0,0,0,0,0,0,0,0,0,0,0,0,0,0,0,0,,0,,,,,38.9907,-76.939865,0.04,32.1,23,2,1.1
210304,1745468807264,0.0,135,,-0.06,0.01,1.0,0,-0,0,1.0,1.37,73,1990,0.0,3.37,,13.82,1.253,66.4,,38.6,5,,,,,,,,,,,,0,0,0,0,0,0,0,0,0,0,0,0,0,0,0,0,,,,,,0.0,,,,,,,
210324,1745468807284,,,,,,,,,,,,,,,,,,,,,,,,,,,,,,,,,,0,0,0,0,0,0,0,0,0,0,0,0,0,0,0,0,,,,,,,,,,,,,
210344,1745468807306,0.0,132,,-0.05,0.02,1.0,0,-0,0,1.01,1.37,73,2012,0.0,3.46,,13.77,1.251,66.4,,38.6,5,,,,,,,,,,,,0,0,0,0,0,0,0,0,0,0,0,0,0,0,0,0,,,,,,0.0,,,,,,,
210364,1745468807326,,,,,,,,,,,,,,,,,,,,,,,,,,,,,,,,,,0,0,0,0,0,0,0,0,0,0,0,0,0,0,0,0,,,,,,,,,,,,,
210384,1745468807346,0.0,135,13.42,-0.06,0.01,1.02,0,-0,0,1.02,1.37,74,2080,0.0,3.38,15,13.8,1.251,66.4,81,38.6,5,0,0,0,0,0.0,0.0,0.0,0.0,2.27,0,1.0,0,0,0,0,0,0,0,0,0,0,0,0,0,0,0,0,0,0,1.0,0,-0,0.0,38.9907,-76.939865,0.08,32.1,23,2,1.1
210404,1745468807366,,,,,,,,,,,,,,,,,,,,,,,,,,,,,,,,,,0,0,0,0,0,0,0,0,0,0,0,0,0,0,0,0,,,,,,,,,,,,,
210424,1745468807386,0.0,115,,-0.05,0.03,1.02,1,-0,0,1.02,1.37,74,1982,0.0,3.41,,13.8,1.251,66.4,,38.9,5,,,,,,,,,,,,0,0,0,0,0,0,0,0,0,0,0,0,0,0,0,0,,,,,,0.0,,,,,,,
210444,1745468807408,,,,,,,,,,,,,,,,,,,,,,,,,,,,,,,,,,0,0,0,0,0,0,0,0,0,0,0,0,0,0,0,0,,,,,,,,,,,,,
210464,1745468807428,0.0,108,,-0.07,0.03,1.02,0,-0,0,1.02,1.37,75,1982,0.0,3.41,,13.75,1.25,66.4,,38.9,5,,,,,,,,,,,,0,0,0,0,0,0,0,0,0,0,0,0,0,0,0,0,,,,,,0.0,,,,,,,
210484,1745468807448,,,,,,,,,,,,,,,,,,,,,,,0,0,0,0,0.0,0.0,0.0,0.0,2.28,,,0,0,0,0,0,0,0,0,0,0,0,0,0,0,0,0,,0,,,,,38.9907,-76.939865,0.07,32.1,23,2,1.1
210504,1745468807468,0.0,119,,-0.06,0.02,1.01,1,-0,0,1.01,1.37,74,2353,0.0,3.37,,13.64,1.249,66.4,,44.2,5,,,,,,,,,,,,0,0,0,0,0,0,0,0,0,0,0,0,0,0,0,0,,,,,,0.0,,,,,,,
210524,1745468807488,,,,,,,,,,,,,,,,,,,,,,,,,,,,,,,,,,0,0,0,0,0,0,0,0,0,0,0,0,0,0,0,0,,,,,,,,,,,,,
210544,1745468807509,0.0,115,,-0.05,0.01,1.0,0,-0,0,1.0,1.37,73,2406,0.0,3.3,,13.53,1.25,66.4,,44.2,5,,,,,,,,,,,,0,0,0,0,0,0,0,0,0,0,0,0,0,0,0,0,,,,,,0.0,,,,,,,
210564,1745468807529,,,,,,,,,,,,,,,,,,,,,,,,,,,,,,,,,,0,0,0,0,0,0,0,0,0,0,0,0,0,0,0,0,,,,,,,,,,,,,
210584,1745468807549,0.0,112,,-0.07,0.01,1.01,0,-0,0,1.01,1.37,74,2280,0.0,3.3,,13.48,1.25,66.4,,44.2,5,0,0,0,0,0.0,0.0,0.0,0.0,2.28,,,0,0,0,0,0,0,0,0,0,0,0,0,0,0,0,0,,0,,,,0.0,38.9907,-76.939865,0.08,32.1,23,2,1.1
210604,1745468807569,,,,,,,,,,,,,,,,,,,,,,,,,,,,,,,,,,0,0,0,0,0,0,0,0,0,0,0,0,0,0,0,0,,,,,,,,,,,,,
210624,1745468807589,0.0,129,,-0.07,0.03,1.0,0,-0,-0,1.0,1.37,73,2556,0.0,3.26,,13.48,1.25,66.4,,45.5,5,,,,,,,,,,,,0,0,0,0,0,0,0,0,0,0,0,0,0,0,0,0,,,,,,0.0,,,,,,,
210644,1745468807608,,,,,,,,,,,,,,,,,,,,,,,,,,,,,,,,,,0,0,0,0,0,0,0,0,0,0,0,0,0,0,0,0,,,,,,,,,,,,,
210664,1745468807628,0.0,132,,-0.06,0.01,0.99,0,-0,0,1.0,1.37,73,2556,0.0,3.26,,13.36,1.251,66.4,,45.5,5,,,,,,,,,,,,0,0,0,0,0,0,0,0,0,0,0,0,0,0,0,0,,,,,,0.0,,,,,,,
210684,1745468807648,,,,,,,,,,,,,,,,,,,,,,,0,0,0,0,0.0,0.0,0.0,0.0,2.28,,,0,0,0,0,0,0,0,0,0,0,0,0,0,0,0,0,,0,,,,,38.9907,-76.939865,0.11,32.1,23,2,1.1
210704,1745468807668,0.0,132,,-0.06,0.0,1.01,0,-0,0,1.01,1.37,73,2454,0.0,3.2,,13.35,1.252,66.4,,42.5,5,,,,,,,,,,,,0,0,0,0,0,0,0,0,0,0,0,0,0,0,0,0,,,,,,0.0,,,,,,,
210724,1745468807688,,,,,,,,,,,,,,,,,,,,,,,,,,,,,,,,,,0,0,0,0,0,0,0,0,0,0,0,0,0,0,0,0,,,,,,,,,,,,,
210744,1745468807708,0.0,115,,-0.06,0.01,1.02,0,-0,0,1.02,1.37,74,2446,0.0,3.22,,13.4,1.252,66.4,,42.5,5,,,,,,,,,,,,0,0,0,0,0,0,0,0,0,0,0,0,0,0,0,0,,,,,,0.0,,,,,,,
210764,1745468807728,,,,,,,,,,,,,,,,,,,,,,,,,,,,,,,,,,0,0,0,0,0,0,0,0,0,0,0,0,0,0,0,0,,,,,,,,,,,,,
210784,1745468807748,0.0,119,,-0.06,0.03,1.03,0,-0,0,1.03,1.37,75,2491,0.0,3.23,,13.39,1.253,66.4,,42.5,5,0,0,0,0,0.0,0.0,0.0,0.0,2.27,,,0,0,0,0,0,0,0,0,0,0,0,0,0,0,0,0,,0,,,,0.0,38.9907,-76.939865,0.04,32.1,23,2,1.1
210804,1745468807768,,,,,,,,,,,,,,,,,,,,,,,,,,,,,,,,,,0,0,0,0,0,0,0,0,0,0,0,0,0,0,0,0,,,,,,,,,,,,,
210824,1745468807788,0.0,115,,-0.07,0.07,1.03,0,-0,0,1.04,1.37,76,2478,0.0,3.18,,13.39,1.253,66.4,,43.6,5,,,,,,,,,,,,0,0,0,0,0,0,0,0,0,0,0,0,0,0,0,0,,,,,,0.0,,,,,,,
210844,1745468807808,,,,,,,,,,,,,,,,,,,,,,,,,,,,,,,,,,0,0,0,0,0,0,0,0,0,0,0,0,0,0,0,0,,,,,,,,,,,,,
