"Interval"|"ms"|0|0|1,"Utc"|"ms"|0|0|1,"FrontBP"|"psi"|-5.0|5.0|25,"SteerAng"|"Degrees"|-145|145|25,"Battery"|"Volts"|-5.0|20.0|1,"AccelX"|"G"|-3.0|3.0|25,"AccelY"|"G"|-3.0|3.0|25,"AccelZ"|"G"|-3.0|3.0|25,"Yaw"|"Deg/Sec"|-120|120|25,"Pitch"|"Deg/Sec"|-120|120|25,"Roll"|"Deg/Sec"|-120|120|25,"Gsum"|"G"|0.0|3.0|25,"GsumMax"|"G"|0.0|3.0|25,"GsumPct"|"%"|0|100|25,"RPM"|""|0|10000|25,"TPS"|"%"|0.0|100.0|25,"InjectorPW"|"ms"|0.0|100.0|25,"Baro"|"kPa"|0|105|1,"MAP"|"Psi"|0.0|255.0|25,"Lambda"|""|-2.0|2.0|25,"IAT"|"C"|0.0|200.0|25,"EngineTemp"|"C"|0|200|1,"EOP"|"PSI"|0.0|152.0|25,"EOT"|"F"|0|250|25,"WSFR"|"MPH"|0|150|10,"WSFL"|"MPH"|0|100|10,"WSRR"|"MPH"|0|100|10,"WSRL"|""|0|100|10,"TCSet"|"%"|0.0|100.0|10,"TCSlip"|"%"|0.0|100.0|10,"TCComp"|"deg"|0.0|50.0|10,"TCCut"|"%"|0.0|100.0|10,"Analog8"|""|0.0|5.0|10,"OilTemp"|"F"|0|300|1,"AA_On"|""|0.0|1.0|1,"ThermLF1"|"C"|0|400|50,"ThermLF2"|"C"|0|400|50,"ThermRR1"|"C"|0|400|50,"ThermRR2"|"C"|0|400|50,"ThermLF3"|"C"|0|400|50,"ThermLF4"|"C"|0|400|50,"ThermLF5"|"C"|0|400|50,"ThermLF6"|"C"|0|400|50,"ThermLF7"|"C"|0|400|50,"ThermLF8"|"C"|0|400|50,"ThermRR3"|"C"|0|400|50,"ThermRR4"|"C"|0|400|50,"ThermRR5"|"C"|0|400|50,"ThermRR6"|"C"|0|400|50,"ThermRR7"|"C"|0|400|50,"ThermRR8"|"C"|0|400|50,"AA_LowDrag"|""|0|1|1,"Gear"|""|1|6|10,"AA_On"|""|0.0|1.0|1,"AA_LowDrag"|""|0|1|1,"Fuel_Mix"|""|-10|10|1,"AA_Packages"|""|0.0|1000.0|25,"Latitude"|"Degrees"|-180.0|180.0|10,"Longitude"|"Degrees"|-180.0|180.0|10,"Speed"|"kph"|0.0|150.0|10,"Altitude"|"m"|0.0|4000.0|10,"GPSSats"|""|0|20|10,"GPSQual"|""|0|5|10,"GPSDOP"|""|0.0|20.0|10
5158904,1745473757937,0.0,129,,-0.01,-0.09,0.85,1,-0,-1,0.86,0.86,100,4342,39.1,4.6,,14.12,1.25,95.2,,29.5,5,,,,,,,,,,,,0,0,0,0,0,0,0,0,0,0,0,0,0,0,0,0,,,,,,0.0,,,,,,,
5158924,1745473757957,,,,,,,,,,,,,,,,,,,,,,,,,,,,,,,,,,0,0,0,0,0,0,0,0,0,0,0,0,0,0,0,0,,,,,,,,,,,,,
5158944,1745473757977,0.0,129,,0.0,-0.11,0.79,1,-0,-1,0.8,0.86,93,4630,40.6,4.81,,14.12,1.25,95.2,,29.5,5,,,,,,,,,,,,0,0,0,0,0,0,0,0,0,0,0,0,0,0,0,0,,,,,,0.0,,,,,,,
5158964,1745473757997,,,,,,,,,,,,,,,,,,,,,,,,,,,,,,,,,,0,0,0,0,0,0,0,0,0,0,0,0,0,0,0,0,,,,,,,,,,,,,
5158984,1745473758011,0.0,129,,0.0,-0.06,0.88,3,-0,-1,0.88,0.88,100,4630,40.6,4.81,,14.2,1.25,95.2,,33.8,5,0,0,0,0,3.3,0.0,0.0,0.0,2.27,,,0,0,0,0,0,0,0,0,0,0,0,0,0,0,0,0,,0,,,,0.0,38.994095,-76.939652,0.04,26.5,31,3,0.9
5159004,1745473758031,,,,,,,,,,,,,,,,,,,,,,,,,,,,,,,,,,0,0,0,0,0,0,0,0,0,0,0,0,0,0,0,0,,,,,,,,,,,,,
5159024,1745473758051,0.0,129,,-0.02,-0.1,0.86,1,-0,-1,0.86,0.88,98,4818,16.7,4.6,,13.61,1.212,95.2,,33.8,5,,,,,,,,,,,,0,0,0,0,0,0,0,0,0,0,0,0,0,0,0,0,,,,,,0.0,,,,,,,
5159044,1745473758071,,,,,,,,,,,,,,,,,,,,,,,,,,,,,,,,,,0,0,0,0,0,0,0,0,0,0,0,0,0,0,0,0,,,,,,,,,,,,,
5159064,1745473758091,0.0,129,,-0.03,-0.07,0.91,2,-0,-0,0.92,0.92,100,4956,0.0,2.8,,12.47,1.143,95.2,,33.8,5,,,,,,,,,,,,0,0,0,0,0,0,0,0,0,0,0,0,0,0,0,0,,,,,,0.0,,,,,,,
5159084,1745473758110,,,,,,,,,,,,,,,,,,,,,,,0,0,0,0,3.3,0.0,0.0,0.0,2.27,,,0,0,0,0,0,0,0,0,0,0,0,0,0,0,0,0,,0,,,,,38.994095,-76.939652,0.21,26.5,31,3,0.9
5159104,1745473758130,0.0,129,,-0.03,-0.08,0.86,1,-0,-1,0.87,0.92,95,4914,0.0,2.51,,11.65,1.091,95.2,,36.2,5,,,,,,,,,,,,0,0,0,0,0,0,0,0,0,0,0,0,0,0,0,0,,,,,,0.0,,,,,,,
5159124,1745473758150,,,,,,,,,,,,,,,,,,,,,,,,,,,,,,,,,,0,0,0,0,0,0,0,0,0,0,0,0,0,0,0,0,,,,,,,,,,,,,
5159144,1745473758170,0.0,130,,-0.03,-0.06,0.9,2,-0,-0,0.91,0.92,99,4726,0.0,2.48,,11.65,1.091,95.2,,36.2,5,,,,,,,,,,,,0,0,0,0,0,0,0,0,0,0,0,0,0,0,0,0,,,,,,0.0,,,,,,,
5159164,1745473758190,,,,,,,,,,,,,,,,,,,,,,,,,,,,,,,,,,0,0,0,0,0,0,0,0,0,0,0,0,0,0,0,0,,,,,,,,,,,,,
5159184,1745473758218,0.0,130,,-0.05,0.01,1.01,2,-0,-0,1.01,1.01,100,4726,0.0,2.48,,11.16,1.047,95.2,,34.0,5,0,0,0,0,3.3,0.0,0.0,0.0,2.27,,,0,0,0,0,0,0,0,0,0,0,0,0,0,0,0,0,,0,,,,0.0,38.994095,-76.939652,0.3,26.5,31,3,0.9
5159204,1745473758238,,,,,,,,,,,,,,,,,,,,,,,,,,,,,,,,,,0,0,0,0,0,0,0,0,0,0,0,0,0,0,0,0,,,,,,,,,,,,,
5159224,1745473758258,0.0,129,,-0.08,0.06,1.09,2,-0,0,1.09,1.09,100,4567,0.0,2.48,,11.0,1.097,95.2,,34.0,5,,,,,,,,,,,,0,0,0,0,0,0,0,0,0,0,0,0,0,0,0,0,,,,,,0.0,,,,,,,
5159244,1745473758278,,,,,,,,,,,,,,,,,,,,,,,,,,,,,,,,,,0,0,0,0,0,0,0,0,0,0,0,0,0,0,0,0,,,,,,,,,,,,,
5159264,1745473758298,0.0,129,,-0.11,0.17,1.18,2,-0,0,1.2,1.2,100,4487,0.0,2.19,,10.84,1.179,95.2,,34.0,5,,,,,,,,,,,,0,0,0,0,0,0,0,0,0,0,0,0,0,0,0,0,,,,,,0.0,,,,,,,
5159284,1745473758316,,,,,,,,,,,,,,,,,,,,,,,0,0,0,0,3.3,0.0,0.0,0.0,2.26,,,0,0,0,0,0,0,0,0,0,0,0,0,0,0,0,0,,0,,,,,38.994095,-76.939652,0.15,26.5,31,3,0.9
5159304,1745473758336,0.0,129,,-0.12,0.18,1.19,3,-0,0,1.21,1.21,100,4358,0.0,2.12,,10.84,1.17,95.2,,32.4,5,,,,,,,,,,,,0,0,0,0,0,0,0,0,0,0,0,0,0,0,0,0,,,,,,0.0,,,,,,,
5159324,1745473758356,,,,,,,,,,,,,,,,,,,,,,,,,,,,,,,,,,0,0,0,0,0,0,0,0,0,0,0,0,0,0,0,0,,,,,,,,,,,,,
5159344,1745473758376,0.0,129,,-0.09,0.05,1.1,1,-0,0,1.1,1.21,91,4115,12.2,3.88,,10.84,1.17,95.2,,32.4,5,,,,,,,,,,,,0,0,0,0,0,0,0,0,0,0,0,0,0,0,0,0,,,,,,0.0,,,,,,,
5159364,1745473758396,,,,,,,,,,,,,,,,,,,,,,,,,,,,,,,,,,0,0,0,0,0,0,0,0,0,0,0,0,0,0,0,0,,,,,,,,,,,,,
5159384,1745473758418,0.0,129,13.18,-0.1,0.13,1.11,3,-0,-0,1.12,1.21,92,4115,12.2,3.88,15,11.54,1.203,95.2,164,28.8,5,0,0,0,0,3.3,0.0,0.0,0.0,2.26,0,1.0,0,0,0,0,0,0,0,0,0,0,0,0,0,0,0,0,0,0,1.0,0,0,0.0,38.994095,-76.939652,0.18,26.5,31,3,0.9
5159404,1745473758438,,,,,,,,,,,,,,,,,,,,,,,,,,,,,,,,,,0,0,0,0,0,0,0,0,0,0,0,0,0,0,0,0,,,,,,,,,,,,,
5159424,1745473758458,0.0,129,,-0.07,0.07,1.12,1,-0,0,1.12,1.21,93,4025,26.2,4.56,,13.05,1.249,95.2,,28.8,5,,,,,,,,,,,,0,0,0,0,0,0,0,0,0,0,0,0,0,0,0,0,,,,,,0.0,,,,,,,
5159444,1745473758478,,,,,,,,,,,,,,,,,,,,,,,,,,,,,,,,,,0,0,0,0,0,0,0,0,0,0,0,0,0,0,0,0,,,,,,,,,,,,,
5159464,1745473758498,0.0,129,,-0.08,0.13,1.16,3,-0,0,1.16,1.21,96,4253,31.2,5.0,,13.9,1.248,95.2,,28.8,5,,,,,,,,,,,,0,0,0,0,0,0,0,0,0,0,0,0,0,0,0,0,,,,,,0.0,,,,,,,
5159484,1745473758518,,,,,,,,,,,,,,,,,,,,,,,0,0,0,0,3.3,0.0,0.0,0.0,2.26,,,0,0,0,0,0,0,0,0,0,0,0,0,0,0,0,0,,0,,,,,38.994095,-76.939652,0.11,26.5,31,3,0.9
5159504,1745473758538,0.0,129,,-0.06,0.09,1.13,3,-0,-0,1.13,1.21,93,4404,31.9,5.14,,14.0,1.248,95.2,,30.7,5,,,,,,,,,,,,0,0,0,0,0,0,0,0,0,0,0,0,0,0,0,0,,,,,,0.0,,,,,,,
5159524,1745473758558,,,,,,,,,,,,,,,,,,,,,,,,,,,,,,,,,,0,0,0,0,0,0,0,0,0,0,0,0,0,0,0,0,,,,,,,,,,,,,
5159544,1745473758578,0.0,130,,-0.07,0.11,1.16,4,-0,0,1.17,1.21,97,4798,8.9,4.02,,14.0,1.248,95.2,,30.7,5,,,,,,,,,,,,0,0,0,0,0,0,0,0,0,0,0,0,0,0,0,0,,,,,,0.0,,,,,,,
5159564,1745473758598,,,,,,,,,,,,,,,,,,,,,,,,,,,,,,,,,,0,0,0,0,0,0,0,0,0,0,0,0,0,0,0,0,,,,,,,,,,,,,
5159584,1745473758618,0.0,130,,-0.07,0.06,1.1,3,-0,-0,1.11,1.21,91,4798,8.9,4.02,,13.21,1.248,95.2,,35.6,5,0,0,0,0,3.3,0.0,0.0,0.0,2.27,,,0,0,0,0,0,0,0,0,0,0,0,0,0,0,0,0,,0,,,,0.0,38.994095,-76.939652,0.04,26.5,31,3,0.9
5159604,1745473758638,,,,,,,,,,,,,,,,,,,,,,,,,,,,,,,,,,0,0,0,0,0,0,0,0,0,0,0,0,0,0,0,0,,,,,,,,,,,,,
5159624,1745473758658,0.0,130,,-0.07,0.09,1.14,3,-0,0,1.14,1.21,94,4921,0.0,2.68,,12.15,1.248,95.2,,35.6,5,,,,,,,,,,,,0,0,0,0,0,0,0,0,0,0,0,0,0,0,0,0,,,,,,0.0,,,,,,,
5159644,1745473758678,,,,,,,,,,,,,,,,,,,,,,,,,,,,,,,,,,0,0,0,0,0,0,0,0,0,0,0,0,0,0,0,0,,,,,,,,,,,,,
5159664,1745473758698,0.0,129,,-0.06,0.07,1.07,2,-0,-0,1.08,1.21,89,4891,0.0,2.42,,11.52,1.25,95.2,,35.6,5,,,,,,,,,,,,0,0,0,0,0,0,0,0,0,0,0,0,0,0,0,0,,,,,,0.0,,,,,,,
5159684,1745473758718,,,,,,,,,,,,,,,,,,,,,,,0,0,0,0,3.3,0.0,0.0,0.0,2.27,,,0,0,0,0,0,0,0,0,0,0,0,0,0,0,0,0,,0,,,,,38.994095,-76.939652,0.04,26.5,31,3,0.9
5159704,1745473758738,0.0,129,,-0.07,0.11,1.14,3,-0,0,1.15,1.21,95,4783,0.0,2.4,,11.16,1.194,95.2,,35.6,5,,,,,,,,,,,,0,0,0,0,0,0,0,0,0,0,0,0,0,0,0,0,,,,,,0.0,,,,,,,
5159724,1745473758758,,,,,,,,,,,,,,,,,,,,,,,,,,,,,,,,,,0,0,0,0,0,0,0,0,0,0,0,0,0,0,0,0,,,,,,,,,,,,,
5159744,1745473758778,0.0,129,,-0.1,0.16,1.17,2,-0,0,1.19,1.21,98,4612,0.0,2.33,,11.16,1.194,95.2,,35.6,5,,,,,,,,,,,,0,0,0,0,0,0,0,0,0,0,0,0,0,0,0,0,,,,,,0.0,,,,,,,
5159764,1745473758798,,,,,,,,,,,,,,,,,,,,,,,,,,,,,,,,,,0,0,0,0,0,0,0,0,0,0,0,0,0,0,0,0,,,,,,,,,,,,,
5159784,1745473758818,0.0,129,,-0.13,0.19,1.18,1,-0,1,1.21,1.21,99,4612,0.0,2.33,,10.97,1.161,95.2,,32.9,5,0,0,0,0,3.3,0.0,0.0,0.0,2.26,,,0,0,0,0,0,0,0,0,0,0,0,0,0,0,0,0,,0,,,,0.0,38.994095,-76.939652,0.04,26.5,31,3,0.9
5159804,1745473758838,,,,,,,,,,,,,,,,,,,,,,,,,,,,,,,,,,0,0,0,0,0,0,0,0,0,0,0,0,0,0,0,0,,,,,,,,,,,,,
5159824,1745473758858,0.0,129,,-0.15,0.29,1.27,1,-0,1,1.32,1.32,100,4419,0.1,2.14,,10.8,1.242,95.2,,32.9,5,,,,,,,,,,,,0,0,0,0,0,0,0,0,0,0,0,0,0,0,0,0,,,,,,0.0,,,,,,,
5159844,1745473758878,,,,,,,,,,,,,,,,,,,,,,,,,,,,,,,,,,0,0,0,0,0,0,0,0,0,0,0,0,0,0,0,0,,,,,,,,,,,,,
5159864,1745473758898,0.0,129,,-0.15,0.19,1.15,0,-0,0,1.18,1.32,90,4191,0.1,2.08,,10.72,1.221,95.2,,32.9,5,,,,,,,,,,,,0,0,0,0,0,0,0,0,0,0,0,0,0,0,0,0,,,,,,0.0,,,,,,,
5159884,1745473758918,,,,,,,,,,,,,,,,,,,,,,,0,0,0,0,3.3,0.0,0.0,0.0,2.26,,,0,0,0,0,0,0,0,0,0,0,0,0,0,0,0,0,,0,,,,,38.994095,-76.939652,0.1,26.5,31,3,0.9
5159904,1745473758938,0.0,129,,-0.15,0.24,1.16,2,-0,0,1.2,1.32,91,3970,3.1,1.97,,11.01,1.236,95.2,,29.7,5,,,,,,,,,,,,0,0,0,0,0,0,0,0,0,0,0,0,0,0,0,0,,,,,,0.0,,,,,,,
5159924,1745473758958,,,,,,,,,,,,,,,,,,,,,,,,,,,,,,,,,,0,0,0,0,0,0,0,0,0,0,0,0,0,0,0,0,,,,,,,,,,,,,
5159944,1745473758978,0.0,129,,-0.15,0.2,1.15,2,-0,0,1.17,1.32,89,3696,24.2,4.4,,11.01,1.236,95.2,,29.7,5,,,,,,,,,,,,0,0,0,0,0,0,0,0,0,0,0,0,0,0,0,0,,,,,,0.0,,,,,,,
5159964,1745473758998,,,,,,,,,,,,,,,,,,,,,,,,,,,,,,,,,,0,0,0,0,0,0,0,0,0,0,0,0,0,0,0,0,,,,,,,,,,,,,
5159984,1745473759009,0.0,129,,-0.14,0.19,1.15,2,-0,0,1.18,1.32,90,3696,24.2,4.4,,12.76,1.249,95.2,,26.1,5,0,0,0,0,3.3,0.0,0.0,0.0,2.27,,,0,0,0,0,0,0,0,0,0,0,0,0,0,0,0,0,,0,,,,0.0,38.994095,-76.939652,0.08,26.5,31,3,0.9
5160004,1745473759029,,,,,,,,,,,,,,,,,,,,,,,,,,,,,,,,,,0,0,0,0,0,0,0,0,0,0,0,0,0,0,0,0,,,,,,,,,,,,,
5160024,1745473759049,0.0,129,,-0.11,0.14,1.17,1,-0,1,1.19,1.32,90,3853,36.6,4.6,,14.06,1.248,95.2,,26.1,5,,,,,,,,,,,,0,0,0,0,0,0,0,0,0,0,0,0,0,0,0,0,,,,,,0.0,,,,,,,
5160044,1745473759069,,,,,,,,,,,,,,,,,,,,,,,,,,,,,,,,,,0,0,0,0,0,0,0,0,0,0,0,0,0,0,0,0,,,,,,,,,,,,,
5160064,1745473759089,0.0,129,,-0.1,0.09,1.09,1,-0,0,1.1,1.32,83,4170,39.1,4.07,,14.31,1.247,95.2,,26.1,5,,,,,,,,,,,,0,0,0,0,0,0,0,0,0,0,0,0,0,0,0,0,,,,,,0.0,,,,,,,
5160084,1745473759117,,,,,,,,,,,,,,,,,,,,,,,0,0,0,0,3.3,0.0,0.0,0.0,2.27,,,0,0,0,0,0,0,0,0,0,0,0,0,0,0,0,0,,0,,,,,38.994095,-76.939652,0.12,26.5,31,3,0.9
5160104,1745473759137,0.0,129,,-0.08,0.04,1.07,-0,-0,0,1.07,1.32,82,4232,18.6,4.5,,13.83,1.249,95.2,,29.5,5,,,,,,,,,,,,0,0,0,0,0,0,0,0,0,0,0,0,0,0,0,0,,,,,,0.0,,,,,,,
5160124,1745473759157,,,,,,,,,,,,,,,,,,,,,,,,,,,,,,,,,,0,0,0,0,0,0,0,0,0,0,0,0,0,0,0,0,,,,,,,,,,,,,
5160144,1745473759177,0.0,129,,-0.12,0.1,1.14,-0,-0,1,1.15,1.32,87,4370,0.4,2.65,,13.83,1.249,93.4,,29.5,5,,,,,,,,,,,,0,0,0,0,0,0,0,0,0,0,0,0,0,0,0,0,,,,,,0.0,,,,,,,
5160164,1745473759197,,,,,,,,,,,,,,,,,,,,,,,,,,,,,,,,,,0,0,0,0,0,0,0,0,0,0,0,0,0,0,0,0,,,,,,,,,,,,,
5160184,1745473759215,0.0,129,,-0.13,0.17,1.22,1,-0,0,1.24,1.32,94,4370,0.4,2.65,,12.72,1.251,93.4,,31.2,5,0,0,0,0,3.3,0.0,0.0,0.0,2.26,,,0,0,0,0,0,0,0,0,0,0,0,0,0,0,0,0,,0,,,,0.0,38.994095,-76.939652,0.0,26.5,31,3,0.9
5160204,1745473759235,,,,,,,,,,,,,,,,,,,,,,,,,,,,,,,,,,0,0,0,0,0,0,0,0,0,0,0,0,0,0,0,0,,,,,,,,,,,,,
5160224,1745473759255,0.0,129,,-0.11,0.14,1.16,2,-0,0,1.17,1.32,89,4399,0.0,2.5,,12.05,1.251,93.4,,31.2,5,,,,,,,,,,,,0,0,0,0,0,0,0,0,0,0,0,0,0,0,0,0,,,,,,0.0,,,,,,,
5160244,1745473759275,,,,,,,,,,,,,,,,,,,,,,,,,,,,,,,,,,0,0,0,0,0,0,0,0,0,0,0,0,0,0,0,0,,,,,,,,,,,,,
5160264,1745473759295,0.0,130,,-0.11,0.06,1.11,0,-0,0,1.11,1.32,85,4225,0.0,2.48,,11.67,1.251,93.4,,31.2,5,,,,,,,,,,,,0,0,0,0,0,0,0,0,0,0,0,0,0,0,0,0,,,,,,0.0,,,,,,,
5160284,1745473759317,,,,,,,,,,,,,,,,,,,,,,,0,0,0,0,3.3,0.0,0.0,0.0,2.26,,,0,0,0,0,0,0,0,0,0,0,0,0,0,0,0,0,,0,,,,,38.994095,-76.939652,0.18,26.5,31,3,0.9
5160304,1745473759337,0.0,129,,-0.13,0.09,1.07,1,-0,-0,1.08,1.32,82,4060,0.0,2.48,,11.4,1.25,93.4,,29.9,5,,,,,,,,,,,,0,0,0,0,0,0,0,0,0,0,0,0,0,0,0,0,,,,,,0.0,,,,,,,
5160324,1745473759357,,,,,,,,,,,,,,,,,,,,,,,,,,,,,,,,,,0,0,0,0,0,0,0,0,0,0,0,0,0,0,0,0,,,,,,,,,,,,,
5160344,1745473759377,0.0,129,,-0.12,0.1,1.09,2,-0,0,1.1,1.32,83,3829,0.0,2.49,,11.4,1.25,93.4,,29.9,5,,,,,,,,,,,,0,0,0,0,0,0,0,0,0,0,0,0,0,0,0,0,,,,,,0.0,,,,,,,
5160364,1745473759397,,,,,,,,,,,,,,,,,,,,,,,,,,,,,,,,,,0,0,0,0,0,0,0,0,0,0,0,0,0,0,0,0,,,,,,,,,,,,,
5160384,1745473759417,0.0,129,13.22,-0.11,0.07,1.07,2,-0,-0,1.08,1.32,82,3829,0.0,2.49,15,11.3,1.25,93.4,165,27.1,5,0,0,0,0,3.3,0.0,0.0,0.0,2.27,0,1.0,0,0,0,0,0,0,0,0,0,0,0,0,0,0,0,0,0,0,1.0,0,-0,0.0,38.994099,-76.939652,0.16,26.5,31,3,0.9
5160404,1745473759437,,,,,,,,,,,,,,,,,,,,,,,,,,,,,,,,,,0,0,0,0,0,0,0,0,0,0,0,0,0,0,0,0,,,,,,,,,,,,,
5160424,1745473759457,0.0,129,,-0.12,0.05,1.04,1,-0,-0,1.05,1.32,80,3704,0.0,2.52,,11.33,1.248,93.4,,27.1,5,,,,,,,,,,,,0,0,0,0,0,0,0,0,0,0,0,0,0,0,0,0,,,,,,0.0,,,,,,,
5160444,1745473759477,,,,,,,,,,,,,,,,,,,,,,,,,,,,,,,,,,0,0,0,0,0,0,0,0,0,0,0,0,0,0,0,0,,,,,,,,,,,,,
5160464,1745473759497,0.0,129,,-0.12,-0.05,1.06,-0,-0,-0,1.07,1.32,81,3529,14.3,4.14,,12.25,1.248,93.4,,27.1,5,,,,,,,,,,,,0,0,0,0,0,0,0,0,0,0,0,0,0,0,0,0,,,,,,0.0,,,,,,,
5160484,1745473759518,,,,,,,,,,,,,,,,,,,,,,,0,0,0,0,3.3,0.0,0.0,0.0,2.27,,,0,0,0,0,0,0,0,0,0,0,0,0,0,0,0,0,,0,,,,,38.994099,-76.939652,0.19,26.5,31,3,0.9
5160504,1745473759538,0.0,129,,-0.09,0.01,1.07,1,-0,0,1.07,1.32,82,3522,26.5,4.51,,13.69,1.249,93.4,,24.7,5,,,,,,,,,,,,0,0,0,0,0,0,0,0,0,0,0,0,0,0,0,0,,,,,,0.0,,,,,,,
5160524,1745473759558,,,,,,,,,,,,,,,,,,,,,,,,,,,,,,,,,,0,0,0,0,0,0,0,0,0,0,0,0,0,0,0,0,,,,,,,,,,,,,
5160544,1745473759578,0.0,129,,-0.09,0.02,1.04,1,-0,0,1.05,1.32,80,3657,32.7,4.95,,13.69,1.249,93.4,,24.7,5,,,,,,,,,,,,0,0,0,0,0,0,0,0,0,0,0,0,0,0,0,0,,,,,,0.0,,,,,,,
5160564,1745473759598,,,,,,,,,,,,,,,,,,,,,,,,,,,,,,,,,,0,0,0,0,0,0,0,0,0,0,0,0,0,0,0,0,,,,,,,,,,,,,
5160584,1745473759617,0.0,129,,-0.09,-0.01,1.05,0,-0,0,1.05,1.32,80,3657,32.7,4.95,,14.19,1.248,93.4,,26.8,5,0,0,0,0,3.3,0.0,0.0,0.0,2.27,,,0,0,0,0,0,0,0,0,0,0,0,0,0,0,0,0,,0,,,,0.0,38.994099,-76.939652,0.13,26.5,31,3,0.9
5160604,1745473759637,,,,,,,,,,,,,,,,,,,,,,,,,,,,,,,,,,0,0,0,0,0,0,0,0,0,0,0,0,0,0,0,0,,,,,,,,,,,,,
5160624,1745473759657,0.0,130,,-0.11,0.02,1.02,1,-0,-0,1.02,1.32,78,4068,34.2,4.53,,14.26,1.25,93.4,,26.8,5,,,,,,,,,,,,0,0,0,0,0,0,0,0,0,0,0,0,0,0,0,0,,,,,,0.0,,,,,,,
5160644,1745473759677,,,,,,,,,,,,,,,,,,,,,,,,,,,,,,,,,,0,0,0,0,0,0,0,0,0,0,0,0,0,0,0,0,,,,,,,,,,,,,
5160664,1745473759697,0.0,129,,-0.08,-0.05,0.94,1,-0,-0,0.95,1.32,72,4316,20.5,4.49,,13.91,1.251,93.4,,26.8,5,,,,,,,,,,,,0,0,0,0,0,0,0,0,0,0,0,0,0,0,0,0,,,,,,0.0,,,,,,,
5160684,1745473759717,,,,,,,,,,,,,,,,,,,,,,,0,0,0,0,3.3,0.0,0.0,0.0,2.26,,,0,0,0,0,0,0,0,0,0,0,0,0,0,0,0,0,,0,,,,,38.994099,-76.939652,0.04,26.5,31,3,0.9
5160704,1745473759737,0.0,129,,-0.05,-0.1,0.85,0,-0,-0,0.86,1.32,65,4467,5.0,3.73,,12.97,1.251,93.4,,31.3,5,,,,,,,,,,,,0,0,0,0,0,0,0,0,0,0,0,0,0,0,0,0,,,,,,0.0,,,,,,,
5160724,1745473759757,,,,,,,,,,,,,,,,,,,,,,,,,,,,,,,,,,0,0,0,0,0,0,0,0,0,0,0,0,0,0,0,0,,,,,,,,,,,,,
5160744,1745473759777,0.0,129,,-0.03,-0.16,0.79,-0,-0,-1,0.81,1.32,62,4464,0.1,2.48,,12.97,1.251,93.4,,31.3,5,,,,,,,,,,,,0,0,0,0,0,0,0,0,0,0,0,0,0,0,0,0,,,,,,0.0,,,,,,,
5160764,1745473759797,,,,,,,,,,,,,,,,,,,,,,,,,,,,,,,,,,0,0,0,0,0,0,0,0,0,0,0,0,0,0,0,0,,,,,,,,,,,,,
5160784,1745473759817,0.0,129,,-0.02,-0.2,0.75,-1,-0,-0,0.78,1.32,59,4464,0.1,2.48,,12.23,1.252,93.4,,31.7,5,0,0,0,0,3.3,0.0,0.0,0.0,2.26,,,0,0,0,0,0,0,0,0,0,0,0,0,0,0,0,0,,0,,,,0.0,38.994099,-76.939652,0.13,26.5,31,3,0.9
5160804,1745473759837,,,,,,,,,,,,,,,,,,,,,,,,,,,,,,,,,,0,0,0,0,0,0,0,0,0,0,0,0,0,0,0,0,,,,,,,,,,,,,
5160824,1745473759857,0.0,129,,-0.06,-0.12,0.84,-2,-0,-0,0.85,1.32,65,4364,0.0,2.46,,11.64,1.251,93.4,,31.7,5,,,,,,,,,,,,0,0,0,0,0,0,0,0,0,0,0,0,0,0,0,0,,,,,,0.0,,,,,,,
5160844,1745473759877,,,,,,,,,,,,,,,,,,,,,,,,,,,,,,,,,,0,0,0,0,0,0,0,0,0,0,0,0,0,0,0,0,,,,,,,,,,,,,
5160864,1745473759897,0.0,129,,-0.06,-0.06,0.88,-0,-0,-0,0.89,1.32,67,4261,0.0,2.47,,11.41,1.249,93.4,,31.7,5,,,,,,,,,,,,0,0,0,0,0,0,0,0,0,0,0,0,0,0,0,0,,,,,,0.0,,,,,,,
5160884,1745473759917,,,,,,,,,,,,,,,,,,,,,,,0,0,0,0,3.3,0.0,0.0,0.0,2.27,,,0,0,0,0,0,0,0,0,0,0,0,0,0,0,0,0,,0,,,,,38.994099,-76.939652,0.04,26.5,31,3,0.9
5160904,1745473759937,0.0,129,,-0.03,-0.08,0.92,-2,-0,0,0.92,1.32,70,4047,0.0,2.47,,11.26,1.248,93.4,,30.1,5,,,,,,,,,,,,0,0,0,0,0,0,0,0,0,0,0,0,0,0,0,0,,,,,,0.0,,,,,,,
5160924,1745473759957,,,,,,,,,,,,,,,,,,,,,,,,,,,,,,,,,,0,0,0,0,0,0,0,0,0,0,0,0,0,0,0,0,,,,,,,,,,,,,
5160944,1745473759977,0.0,129,,-0.05,-0.1,0.88,-1,-0,-0,0.89,1.32,67,3902,0.0,2.48,,11.26,1.248,93.4,,30.1,5,,,,,,,,,,,,0,0,0,0,0,0,0,0,0,0,0,0,0,0,0,0,,,,,,0.0,,,,,,,
5160964,1745473759997,,,,,,,,,,,,,,,,,,,,,,,,,,,,,,,,,,0,0,0,0,0,0,0,0,0,0,0,0,0,0,0,0,,,,,,,,,,,,,
5160984,1745473760008,0.0,129,,-0.05,-0.09,0.89,-1,-0,-0,0.89,1.32,68,3902,0.0,2.48,,11.21,1.249,93.4,,26.8,5,0,0,0,0,3.3,0.0,0.0,0.0,2.27,,,0,0,0,0,0,0,0,0,0,0,0,0,0,0,0,0,,0,,,,0.0,38.994099,-76.939652,0.05,26.5,31,3,0.9
5161004,1745473760028,,,,,,,,,,,,,,,,,,,,,,,,,,,,,,,,,,0,0,0,0,0,0,0,0,0,0,0,0,0,0,0,0,,,,,,,,,,,,,
5161024,1745473760048,0.0,129,,-0.09,-0.1,0.9,-0,-0,-1,0.91,1.32,69,3758,0.0,2.51,,11.28,1.248,93.4,,26.8,5,,,,,,,,,,,,0,0,0,0,0,0,0,0,0,0,0,0,0,0,0,0,,,,,,0.0,,,,,,,
5161044,1745473760068,,,,,,,,,,,,,,,,,,,,,,,,,,,,,,,,,,0,0,0,0,0,0,0,0,0,0,0,0,0,0,0,0,,,,,,,,,,,,,
5161064,1745473760088,0.0,130,,-0.07,-0.0,0.91,0,-0,-0,0.91,1.32,69,3551,0.0,2.54,,11.45,1.25,93.4,,26.8,5,,,,,,,,,,,,0,0,0,0,0,0,0,0,0,0,0,0,0,0,0,0,,,,,,0.0,,,,,,,
5161084,1745473760114,,,,,,,,,,,,,,,,,,,,,,,0,0,0,0,3.3,0.0,0.0,0.0,2.27,,,0,0,0,0,0,0,0,0,0,0,0,0,0,0,0,0,,0,,,,,38.994099,-76.939652,0.15,26.5,31,3,0.9
5161104,1745473760134,0.0,129,,-0.1,-0.02,0.89,1,-0,-1,0.9,1.32,68,3452,12.2,3.97,,12.41,1.251,93.4,,24.6,5,,,,,,,,,,,,0,0,0,0,0,0,0,0,0,0,0,0,0,0,0,0,,,,,,0.0,,,,,,,
5161124,1745473760154,,,,,,,,,,,,,,,,,,,,,,,,,,,,,,,,,,0,0,0,0,0,0,0,0,0,0,0,0,0,0,0,0,,,,,,,,,,,,,
5161144,1745473760174,0.0,128,,-0.08,-0.01,0.97,-0,-0,-0,0.97,1.32,74,3429,19.0,4.33,,12.41,1.251,91.6,,24.6,5,,,,,,,,,,,,0,0,0,0,0,0,0,0,0,0,0,0,0,0,0,0,,,,,,0.0,,,,,,,
5161164,1745473760194,,,,,,,,,,,,,,,,,,,,,,,,,,,,,,,,,,0,0,0,0,0,0,0,0,0,0,0,0,0,0,0,0,,,,,,,,,,,,,
5161184,1745473760216,0.0,129,,-0.08,0.02,0.91,1,-0,-0,0.92,1.32,70,3429,19.0,4.33,,13.4,1.251,91.6,,24.5,5,0,0,0,0,3.3,0.0,0.0,0.0,2.26,,,0,0,0,0,0,0,0,0,0,0,0,0,0,0,0,0,,0,,,,0.0,38.994099,-76.939652,0.11,26.5,31,3,0.9
5161204,1745473760236,,,,,,,,,,,,,,,,,,,,,,,,,,,,,,,,,,0,0,0,0,0,0,0,0,0,0,0,0,0,0,0,0,,,,,,,,,,,,,
5161224,1745473760256,0.0,129,,-0.07,-0.02,0.92,1,-0,-0,0.93,1.32,70,3558,21.9,4.51,,13.87,1.251,91.6,,24.5,5,,,,,,,,,,,,0,0,0,0,0,0,0,0,0,0,0,0,0,0,0,0,,,,,,0.0,,,,,,,
5161244,1745473760276,,,,,,,,,,,,,,,,,,,,,,,,,,,,,,,,,,0,0,0,0,0,0,0,0,0,0,0,0,0,0,0,0,,,,,,,,,,,,,
5161264,1745473760296,0.0,129,,-0.07,-0.02,0.93,1,-0,-0,0.93,1.32,71,3680,22.4,4.39,,13.84,1.251,91.6,,24.5,5,,,,,,,,,,,,0,0,0,0,0,0,0,0,0,0,0,0,0,0,0,0,,,,,,0.0,,,,,,,
5161284,1745473760318,,,,,,,,,,,,,,,,,,,,,,,0,0,0,0,3.3,0.0,0.0,0.0,2.26,,,0,0,0,0,0,0,0,0,0,0,0,0,0,0,0,0,,0,,,,,38.994099,-76.939652,0.11,26.5,31,3,0.9
5161304,1745473760338,0.0,129,,-0.07,0.01,1.0,1,-0,-0,1.0,1.32,76,3972,22.6,4.37,,13.86,1.25,91.6,,26.6,5,,,,,,,,,,,,0,0,0,0,0,0,0,0,0,0,0,0,0,0,0,0,,,,,,0.0,,,,,,,
5161324,1745473760358,,,,,,,,,,,,,,,,,,,,,,,,,,,,,,,,,,0,0,0,0,0,0,0,0,0,0,0,0,0,0,0,0,,,,,,,,,,,,,
5161344,1745473760378,0.0,129,,-0.07,-0.1,0.89,-1,-0,-0,0.89,1.32,68,4048,12.4,4.02,,13.86,1.25,91.6,,26.6,5,,,,,,,,,,,,0,0,0,0,0,0,0,0,0,0,0,0,0,0,0,0,,,,,,0.0,,,,,,,
5161364,1745473760398,,,,,,,,,,,,,,,,,,,,,,,,,,,,,,,,,,0,0,0,0,0,0,0,0,0,0,0,0,0,0,0,0,,,,,,,,,,,,,
5161384,1745473760416,0.0,129,13.24,-0.09,0.02,0.99,1,-0,-0,1.0,1.32,76,4048,12.4,4.02,15,13.48,1.248,91.6,165,29.4,5,0,0,0,0,3.3,0.0,0.0,0.0,2.27,0,1.0,0,0,0,0,0,0,0,0,0,0,0,0,0,0,0,0,0,0,1.0,0,-0,0.0,38.994095,-76.939652,0.07,26.5,31,3,0.9
5161404,1745473760436,,,,,,,,,,,,,,,,,,,,,,,,,,,,,,,,,,0,0,0,0,0,0,0,0,0,0,0,0,0,0,0,0,,,,,,,,,,,,,
5161424,1745473760456,0.0,129,,-0.07,-0.03,0.93,1,-0,-0,0.94,1.32,71,4177,4.7,3.75,,12.81,1.248,91.6,,29.4,5,,,,,,,,,,,,0,0,0,0,0,0,0,0,0,0,0,0,0,0,0,0,,,,,,0.0,,,,,,,
5161444,1745473760476,,,,,,,,,,,,,,,,,,,,,,,,,,,,,,,,,,0,0,0,0,0,0,0,0,0,0,0,0,0,0,0,0,,,,,,,,,,,,,
5161464,1745473760496,0.0,129,,-0.06,-0.08,0.91,-1,-0,-0,0.92,1.32,70,4267,0.0,2.6,,12.2,1.249,91.6,,29.4,5,,,,,,,,,,,,0,0,0,0,0,0,0,0,0,0,0,0,0,0,0,0,,,,,,0.0,,,,,,,
5161484,1745473760518,,,,,,,,,,,,,,,,,,,,,,,0,0,0,0,3.3,0.0,0.0,0.0,2.27,,,0,0,0,0,0,0,0,0,0,0,0,0,0,0,0,0,,0,,,,,38.994095,-76.939652,0.16,26.5,31,3,0.9
5161504,1745473760538,0.0,129,,-0.09,0.05,0.99,1,-0,-0,0.99,1.32,76,4172,0.0,2.49,,11.75,1.249,91.6,,30.2,5,,,,,,,,,,,,0,0,0,0,0,0,0,0,0,0,0,0,0,0,0,0,,,,,,0.0,,,,,,,
5161524,1745473760558,,,,,,,,,,,,,,,,,,,,,,,,,,,,,,,,,,0,0,0,0,0,0,0,0,0,0,0,0,0,0,0,0,,,,,,,,,,,,,
5161544,1745473760578,0.0,129,,-0.08,-0.03,0.97,-1,-0,-0,0.97,1.32,74,4031,0.0,2.48,,11.75,1.249,91.6,,30.2,5,,,,,,,,,,,,0,0,0,0,0,0,0,0,0,0,0,0,0,0,0,0,,,,,,0.0,,,,,,,
5161564,1745473760598,,,,,,,,,,,,,,,,,,,,,,,,,,,,,,,,,,0,0,0,0,0,0,0,0,0,0,0,0,0,0,0,0,,,,,,,,,,,,,
5161584,1745473760616,0.0,129,,-0.1,-0.04,0.93,-1,-0,-0,0.93,1.32,71,4031,0.0,2.48,,11.45,1.25,91.6,,27.6,5,0,0,0,0,3.3,0.0,0.0,0.0,2.27,,,0,0,0,0,0,0,0,0,0,0,0,0,0,0,0,0,,0,,,,0.0,38.994095,-76.939652,0.21,26.5,31,3,0.9
5161604,1745473760636,,,,,,,,,,,,,,,,,,,,,,,,,,,,,,,,,,0,0,0,0,0,0,0,0,0,0,0,0,0,0,0,0,,,,,,,,,,,,,
5161624,1745473760656,0.0,129,,-0.11,-0.04,0.96,-1,-0,-0,0.96,1.32,73,3820,0.0,2.5,,11.4,1.252,91.6,,27.6,5,,,,,,,,,,,,0,0,0,0,0,0,0,0,0,0,0,0,0,0,0,0,,,,,,0.0,,,,,,,
5161644,1745473760676,,,,,,,,,,,,,,,,,,,,,,,,,,,,,,,,,,0,0,0,0,0,0,0,0,0,0,0,0,0,0,0,0,,,,,,,,,,,,,
5161664,1745473760696,0.0,129,,-0.11,-0.04,0.99,-1,-0,-0,1.0,1.32,76,3725,0.0,2.52,,11.42,1.252,91.6,,27.6,5,,,,,,,,,,,,0,0,0,0,0,0,0,0,0,0,0,0,0,0,0,0,,,,,,0.0,,,,,,,
5161684,1745473760716,,,,,,,,,,,,,,,,,,,,,,,0,0,0,0,3.3,0.0,0.0,0.0,2.26,,,0,0,0,0,0,0,0,0,0,0,0,0,0,0,0,0,,0,,,,,38.994095,-76.939652,0.16,26.5,31,3,0.9
5161704,1745473760736,0.0,129,,-0.09,-0.01,1.01,-1,-0,0,1.01,1.32,77,3547,0.0,2.54,,11.48,1.252,91.6,,25.5,5,,,,,,,,,,,,0,0,0,0,0,0,0,0,0,0,0,0,0,0,0,0,,,,,,0.0,,,,,,,
5161724,1745473760756,,,,,,,,,,,,,,,,,,,,,,,,,,,,,,,,,,0,0,0,0,0,0,0,0,0,0,0,0,0,0,0,0,,,,,,,,,,,,,
5161744,1745473760776,0.0,129,,-0.09,-0.01,0.95,1,-0,-0,0.95,1.32,72,3443,0.0,2.57,,11.48,1.252,91.6,,25.5,5,,,,,,,,,,,,0,0,0,0,0,0,0,0,0,0,0,0,0,0,0,0,,,,,,0.0,,,,,,,
5161764,1745473760796,,,,,,,,,,,,,,,,,,,,,,,,,,,,,,,,,,0,0,0,0,0,0,0,0,0,0,0,0,0,0,0,0,,,,,,,,,,,,,
5161784,1745473760816,0.0,129,,-0.09,-0.06,1.04,-1,-0,-0,1.05,1.32,80,3443,0.0,2.57,,11.63,1.25,91.6,,23.7,5,0,0,0,0,3.3,0.0,0.0,0.0,2.26,,,0,0,0,0,0,0,0,0,0,0,0,0,0,0,0,0,,0,,,,0.0,38.994095,-76.939652,0.2,26.5,31,3,0.9
5161804,1745473760836,,,,,,,,,,,,,,,,,,,,,,,,,,,,,,,,,,0,0,0,0,0,0,0,0,0,0,0,0,0,0,0,0,,,,,,,,,,,,,
5161824,1745473760856,0.0,128,,-0.11,-0.04,0.99,-0,-0,-0,0.99,1.32,75,3350,3.6,2.58,,11.88,1.248,91.6,,23.7,5,,,,,,,,,,,,0,0,0,0,0,0,0,0,0,0,0,0,0,0,0,0,,,,,,0.0,,,,,,,
5161844,1745473760876,,,,,,,,,,,,,,,,,,,,,,,,,,,,,,,,,,0,0,0,0,0,0,0,0,0,0,0,0,0,0,0,0,,,,,,,,,,,,,
5161864,1745473760896,0.0,129,,-0.11,-0.02,0.91,0,-0,-0,0.92,1.32,70,3142,12.7,4.02,,12.76,1.248,91.6,,23.7,5,,,,,,,,,,,,0,0,0,0,0,0,0,0,0,0,0,0,0,0,0,0,,,,,,0.0,,,,,,,
5161884,1745473760916,,,,,,,,,,,,,,,,,,,,,,,0,0,0,0,3.3,0.0,0.0,0.0,2.27,,,0,0,0,0,0,0,0,0,0,0,0,0,0,0,0,0,,0,,,,,38.994095,-76.939652,0.15,26.5,31,3,0.9
5161904,1745473760936,0.0,129,,-0.09,0.03,0.91,1,-1,-0,0.91,1.32,69,3215,16.2,4.22,,13.51,1.249,91.6,,22.2,5,,,,,,,,,,,,0,0,0,0,0,0,0,0,0,0,0,0,0,0,0,0,,,,,,0.0,,,,,,,
5161924,1745473760956,,,,,,,,,,,,,,,,,,,,,,,,,,,,,,,,,,0,0,0,0,0,0,0,0,0,0,0,0,0,0,0,0,,,,,,,,,,,,,
5161944,1745473760976,0.0,129,,-0.08,-0.05,1.0,-0,-0,-0,1.01,1.32,77,3283,17.2,4.27,,13.51,1.249,91.6,,22.2,5,,,,,,,,,,,,0,0,0,0,0,0,0,0,0,0,0,0,0,0,0,0,,,,,,0.0,,,,,,,
5161964,1745473760996,,,,,,,,,,,,,,,,,,,,,,,,,,,,,,,,,,0,0,0,0,0,0,0,0,0,0,0,0,0,0,0,0,,,,,,,,,,,,,
5161984,1745473761009,0.0,129,,-0.08,-0.0,0.92,1,-1,-0,0.93,1.32,70,3283,17.2,4.27,,13.76,1.247,91.6,,24.0,5,0,0,0,0,3.3,0.0,0.0,0.0,2.27,,,0,0,0,0,0,0,0,0,0,0,0,0,0,0,0,0,,0,,,,0.0,38.994095,-76.939652,0.21,26.5,31,3,0.9
5162004,1745473761029,,,,,,,,,,,,,,,,,,,,,,,,,,,,,,,,,,0,0,0,0,0,0,0,0,0,0,0,0,0,0,0,0,,,,,,,,,,,,,
5162024,1745473761049,0.0,129,,-0.1,-0.01,0.85,2,-1,-1,0.86,1.32,65,3396,17.4,4.24,,13.84,1.25,91.6,,24.0,5,,,,,,,,,,,,0,0,0,0,0,0,0,0,0,0,0,0,0,0,0,0,,,,,,0.0,,,,,,,
5162044,1745473761069,,,,,,,,,,,,,,,,,,,,,,,,,,,,,,,,,,0,0,0,0,0,0,0,0,0,0,0,0,0,0,0,0,,,,,,,,,,,,,
5162064,1745473761089,0.0,129,,-0.09,-0.0,0.88,1,-1,-0,0.89,1.32,68,3550,17.4,4.22,,13.8,1.25,91.6,,24.0,5,,,,,,,,,,,,0,0,0,0,0,0,0,0,0,0,0,0,0,0,0,0,,,,,,0.0,,,,,,,
5162084,1745473761116,,,,,,,,,,,,,,,,,,,,,,,0,0,0,0,3.3,0.0,0.0,0.0,2.26,,,0,0,0,0,0,0,0,0,0,0,0,0,0,0,0,0,,0,,,,,38.994099,-76.939652,0.21,26.5,31,3,0.9
5162104,1745473761136,0.0,128,,-0.09,0.05,0.92,2,-1,-0,0.92,1.32,70,3614,6.2,3.88,,13.39,1.25,91.6,,25.2,5,,,,,,,,,,,,0,0,0,0,0,0,0,0,0,0,0,0,0,0,0,0,,,,,,0.0,,,,,,,
5162124,1745473761156,,,,,,,,,,,,,,,,,,,,,,,,,,,,,,,,,,0,0,0,0,0,0,0,0,0,0,0,0,0,0,0,0,,,,,,,,,,,,,
5162144,1745473761176,0.0,129,,-0.08,0.06,0.93,2,-1,-0,0.94,1.32,71,3753,1.1,3.12,,13.39,1.25,91.6,,25.2,5,,,,,,,,,,,,0,0,0,0,0,0,0,0,0,0,0,0,0,0,0,0,,,,,,0.0,,,,,,,
5162164,1745473761196,,,,,,,,,,,,,,,,,,,,,,,,,,,,,,,,,,0,0,0,0,0,0,0,0,0,0,0,0,0,0,0,0,,,,,,,,,,,,,
5162184,1745473761209,0.0,129,,-0.08,0.06,0.94,2,-1,-0,0.95,1.32,72,3753,1.1,3.12,,12.76,1.251,91.6,,26.5,5,0,0,0,0,3.3,0.0,0.0,0.0,2.26,,,0,0,0,0,0,0,0,0,0,0,0,0,0,0,0,0,,0,,,,0.0,38.994099,-76.939652,0.16,26.5,31,3,0.9
5162204,1745473761229,,,,,,,,,,,,,,,,,,,,,,,,,,,,,,,,,,0,0,0,0,0,0,0,0,0,0,0,0,0,0,0,0,,,,,,,,,,,,,
5162224,1745473761249,0.0,129,,-0.07,0.04,0.94,2,-1,-0,0.94,1.32,72,3723,0.0,2.57,,12.31,1.251,91.6,,26.5,5,,,,,,,,,,,,0,0,0,0,0,0,0,0,0,0,0,0,0,0,0,0,,,,,,0.0,,,,,,,
5162244,1745473761269,,,,,,,,,,,,,,,,,,,,,,,,,,,,,,,,,,0,0,0,0,0,0,0,0,0,0,0,0,0,0,0,0,,,,,,,,,,,,,
5162264,1745473761289,0.0,129,,-0.07,0.01,0.93,2,-1,-0,0.93,1.32,71,3689,0.0,2.56,,12.03,1.25,91.6,,26.5,5,,,,,,,,,,,,0,0,0,0,0,0,0,0,0,0,0,0,0,0,0,0,,,,,,0.0,,,,,,,
5162284,1745473761315,,,,,,,,,,,,,,,,,,,,,,,0,0,0,0,3.3,0.0,0.0,0.0,2.26,,,0,0,0,0,0,0,0,0,0,0,0,0,0,0,0,0,,0,,,,,38.994099,-76.939652,0.1,26.5,31,3,0.9
5162304,1745473761335,0.0,129,,-0.08,-0.05,0.92,1,-0,-1,0.92,1.32,70,3541,0.0,2.57,,11.93,1.248,91.6,,25.7,5,,,,,,,,,,,,0,0,0,0,0,0,0,0,0,0,0,0,0,0,0,0,,,,,,0.0,,,,,,,
5162324,1745473761355,,,,,,,,,,,,,,,,,,,,,,,,,,,,,,,,,,0,0,0,0,0,0,0,0,0,0,0,0,0,0,0,0,,,,,,,,,,,,,
5162344,1745473761375,0.0,129,,-0.06,-0.02,0.98,1,-0,-0,0.98,1.32,74,3451,0.0,2.59,,11.93,1.248,91.6,,25.7,5,,,,,,,,,,,,0,0,0,0,0,0,0,0,0,0,0,0,0,0,0,0,,,,,,0.0,,,,,,,
5162364,1745473761395,,,,,,,,,,,,,,,,,,,,,,,,,,,,,,,,,,0,0,0,0,0,0,0,0,0,0,0,0,0,0,0,0,,,,,,,,,,,,,
5162384,1745473761415,0.0,129,13.26,-0.09,-0.04,0.94,1,-0,-0,0.94,1.32,72,3451,0.0,2.59,15,11.93,1.249,91.6,165,23.7,5,0,0,0,0,3.3,0.0,0.0,0.0,2.27,0,1.0,0,0,0,0,0,0,0,0,0,0,0,0,0,0,0,0,0,0,1.0,0,-0,0.0,38.994099,-76.939652,0.12,26.5,31,3,0.9
5162404,1745473761435,,,,,,,,,,,,,,,,,,,,,,,,,,,,,,,,,,0,0,0,0,0,0,0,0,0,0,0,0,0,0,0,0,,,,,,,,,,,,,
5162424,1745473761455,0.0,129,,-0.09,-0.0,0.89,2,-0,-0,0.89,1.32,68,3273,0.0,2.6,,12.04,1.249,91.6,,23.7,5,,,,,,,,,,,,0,0,0,0,0,0,0,0,0,0,0,0,0,0,0,0,,,,,,0.0,,,,,,,
5162444,1745473761475,,,,,,,,,,,,,,,,,,,,,,,,,,,,,,,,,,0,0,0,0,0,0,0,0,0,0,0,0,0,0,0,0,,,,,,,,,,,,,
5162464,1745473761495,0.0,128,,-0.07,0.06,0.9,2,-1,-0,0.91,1.32,69,3106,0.5,2.73,,12.23,1.25,91.6,,23.7,5,,,,,,,,,,,,0,0,0,0,0,0,0,0,0,0,0,0,0,0,0,0,,,,,,0.0,,,,,,,
5162484,1745473761513,,,,,,,,,,,,,,,,,,,,,,,0,0,0,0,3.3,0.0,0.0,0.0,2.27,,,0,0,0,0,0,0,0,0,0,0,0,0,0,0,0,0,,0,,,,,38.994099,-76.939652,0.07,26.5,31,3,0.9
5162504,1745473761533,0.0,128,,-0.06,0.1,0.92,2,-1,0,0.92,1.32,70,3012,4.0,3.21,,12.56,1.251,91.6,,21.4,5,,,,,,,,,,,,0,0,0,0,0,0,0,0,0,0,0,0,0,0,0,0,,,,,,0.0,,,,,,,
5162524,1745473761553,,,,,,,,,,,,,,,,,,,,,,,,,,,,,,,,,,0,0,0,0,0,0,0,0,0,0,0,0,0,0,0,0,,,,,,,,,,,,,
5162544,1745473761573,0.0,128,,-0.05,0.11,0.89,3,-1,-0,0.9,1.32,68,2915,7.9,3.67,,12.56,1.251,91.6,,21.4,5,,,,,,,,,,,,0,0,0,0,0,0,0,0,0,0,0,0,0,0,0,0,,,,,,0.0,,,,,,,
5162564,1745473761593,,,,,,,,,,,,,,,,,,,,,,,,,,,,,,,,,,0,0,0,0,0,0,0,0,0,0,0,0,0,0,0,0,,,,,,,,,,,,,
5162584,1745473761617,0.0,129,,-0.06,0.09,0.85,3,-1,-0,0.86,1.32,65,2915,7.9,3.67,,13.08,1.252,91.6,,20.4,5,0,0,0,0,3.3,0.0,0.0,0.0,2.26,,,0,0,0,0,0,0,0,0,0,0,0,0,0,0,0,0,,0,,,,0.0,38.994099,-76.939652,0.26,26.5,31,3,0.9
5162604,1745473761637,,,,,,,,,,,,,,,,,,,,,,,,,,,,,,,,,,0,0,0,0,0,0,0,0,0,0,0,0,0,0,0,0,,,,,,,,,,,,,
5162624,1745473761657,0.0,128,,-0.1,0.05,0.85,2,-0,-1,0.86,1.32,65,2840,9.9,3.89,,13.44,1.251,91.6,,20.4,5,,,,,,,,,,,,0,0,0,0,0,0,0,0,0,0,0,0,0,0,0,0,,,,,,0.0,,,,,,,
5162644,1745473761677,,,,,,,,,,,,,,,,,,,,,,,,,,,,,,,,,,0,0,0,0,0,0,0,0,0,0,0,0,0,0,0,0,,,,,,,,,,,,,
5162664,1745473761697,0.0,129,,-0.14,0.03,0.87,2,-0,-1,0.88,1.32,67,2935,10.7,3.95,,13.64,1.251,91.6,,20.4,5,,,,,,,,,,,,0,0,0,0,0,0,0,0,0,0,0,0,0,0,0,0,,,,,,0.0,,,,,,,
5162684,1745473761717,,,,,,,,,,,,,,,,,,,,,,,0,0,0,0,3.3,0.0,0.0,0.0,2.26,,,0,0,0,0,0,0,0,0,0,0,0,0,0,0,0,0,,0,,,,,38.994099,-76.939652,0.31,26.5,31,3,0.9
5162704,1745473761737,0.0,129,,-0.17,0.03,0.86,1,-0,-1,0.87,1.32,66,3082,11.0,3.97,,13.64,1.25,91.6,,20.8,5,,,,,,,,,,,,0,0,0,0,0,0,0,0,0,0,0,0,0,0,0,0,,,,,,0.0,,,,,,,
5162724,1745473761757,,,,,,,,,,,,,,,,,,,,,,,,,,,,,,,,,,0,0,0,0,0,0,0,0,0,0,0,0,0,0,0,0,,,,,,,,,,,,,
5162744,1745473761777,0.0,129,,-0.17,0.05,0.79,2,-0,-1,0.81,1.32,62,3153,11.0,3.97,,13.64,1.25,91.6,,20.8,5,,,,,,,,,,,,0,0,0,0,0,0,0,0,0,0,0,0,0,0,0,0,,,,,,0.0,,,,,,,
5162764,1745473761797,,,,,,,,,,,,,,,,,,,,,,,,,,,,,,,,,,0,0,0,0,0,0,0,0,0,0,0,0,0,0,0,0,,,,,,,,,,,,,
5162784,1745473761815,0.0,129,,-0.15,0.08,0.86,2,-0,-0,0.88,1.32,67,3153,11.0,3.97,,13.61,1.248,91.6,,22.9,5,0,0,0,0,3.3,0.0,0.0,0.0,2.27,,,0,0,0,0,0,0,0,0,0,0,0,0,0,0,0,0,,0,,,,0.0,38.994099,-76.939652,0.23,26.5,31,3,0.9
5162804,1745473761835,,,,,,,,,,,,,,,,,,,,,,,,,,,,,,,,,,0,0,0,0,0,0,0,0,0,0,0,0,0,0,0,0,,,,,,,,,,,,,
5162824,1745473761855,0.0,128,,-0.16,-0.0,0.87,1,-0,-1,0.89,1.32,67,3260,10.5,3.99,,13.56,1.248,91.6,,22.9,5,,,,,,,,,,,,0,0,0,0,0,0,0,0,0,0,0,0,0,0,0,0,,,,,,0.0,,,,,,,
5162844,1745473761875,,,,,,,,,,,,,,,,,,,,,,,,,,,,,,,,,,0,0,0,0,0,0,0,0,0,0,0,0,0,0,0,0,,,,,,,,,,,,,
5162864,1745473761895,0.0,128,,-0.13,0.04,0.92,1,-0,-0,0.93,1.32,70,3421,5.3,3.74,,13.31,1.249,91.6,,22.9,5,,,,,,,,,,,,0,0,0,0,0,0,0,0,0,0,0,0,0,0,0,0,,,,,,0.0,,,,,,,
5162884,1745473761916,,,,,,,,,,,,,,,,,,,,,,,0,0,0,0,3.3,0.0,0.0,0.0,2.27,,,0,0,0,0,0,0,0,0,0,0,0,0,0,0,0,0,,0,,,,,38.994099,-76.939652,0.11,26.5,31,3,0.9
5162904,1745473761936,0.0,128,,-0.14,0.02,0.87,2,-0,-1,0.88,1.32,67,3430,3.9,3.55,,13.05,1.249,91.6,,24.0,5,,,,,,,,,,,,0,0,0,0,0,0,0,0,0,0,0,0,0,0,0,0,,,,,,0.0,,,,,,,
5162924,1745473761956,,,,,,,,,,,,,,,,,,,,,,,,,,,,,,,,,,0,0,0,0,0,0,0,0,0,0,0,0,0,0,0,0,,,,,,,,,,,,,
5162944,1745473761976,0.0,129,,-0.14,-0.02,0.94,-0,-0,-0,0.95,1.32,72,3492,3.8,3.47,,13.05,1.249,91.6,,24.0,5,,,,,,,,,,,,0,0,0,0,0,0,0,0,0,0,0,0,0,0,0,0,,,,,,0.0,,,,,,,
5162964,1745473761996,,,,,,,,,,,,,,,,,,,,,,,,,,,,,,,,,,0,0,0,0,0,0,0,0,0,0,0,0,0,0,0,0,,,,,,,,,,,,,
5162984,1745473762009,0.0,128,,-0.12,0.09,0.92,1,-0,-0,0.93,1.32,71,3492,3.8,3.47,,12.93,1.25,91.6,,24.4,5,0,0,0,0,3.3,0.0,0.0,0.0,2.27,,,0,0,0,0,0,0,0,0,0,0,0,0,0,0,0,0,,0,,,,0.0,38.994095,-76.939652,0.11,26.5,31,3,0.9
5163004,1745473762029,,,,,,,,,,,,,,,,,,,,,,,,,,,,,,,,,,0,0,0,0,0,0,0,0,0,0,0,0,0,0,0,0,,,,,,,,,,,,,
5163024,1745473762049,0.0,128,,-0.13,0.08,0.92,1,-0,-0,0.93,1.32,71,3460,3.9,3.49,,12.84,1.251,91.6,,24.4,5,,,,,,,,,,,,0,0,0,0,0,0,0,0,0,0,0,0,0,0,0,0,,,,,,0.0,,,,,,,
5163044,1745473762069,,,,,,,,,,,,,,,,,,,,,,,,,,,,,,,,,,0,0,0,0,0,0,0,0,0,0,0,0,0,0,0,0,,,,,,,,,,,,,
5163064,1745473762089,0.0,129,,-0.11,0.1,0.99,0,-0,0,1.0,1.32,76,3448,5.7,3.64,,12.97,1.251,91.6,,24.4,5,,,,,,,,,,,,0,0,0,0,0,0,0,0,0,0,0,0,0,0,0,0,,,,,,0.0,,,,,,,
5163084,1745473762110,,,,,,,,,,,,,,,,,,,,,,,0,0,0,0,3.3,0.0,0.0,0.0,2.27,,,0,0,0,0,0,0,0,0,0,0,0,0,0,0,0,0,,0,,,,,38.994095,-76.939652,0.05,26.5,31,3,0.9
5163104,1745473762130,0.0,128,,-0.12,0.09,0.91,1,-0,-0,0.93,1.32,70,3450,6.1,3.64,,12.99,1.249,91.6,,23.7,5,,,,,,,,,,,,0,0,0,0,0,0,0,0,0,0,0,0,0,0,0,0,,,,,,0.0,,,,,,,
5163124,1745473762150,,,,,,,,,,,,,,,,,,,,,,,,,,,,,,,,,,0,0,0,0,0,0,0,0,0,0,0,0,0,0,0,0,,,,,,,,,,,,,
5163144,1745473762170,0.0,128,,-0.11,0.04,1.0,-0,-0,0,1.01,1.32,77,3384,6.1,3.66,,12.99,1.249,91.6,,23.7,5,,,,,,,,,,,,0,0,0,0,0,0,0,0,0,0,0,0,0,0,0,0,,,,,,0.0,,,,,,,
5163164,1745473762190,,,,,,,,,,,,,,,,,,,,,,,,,,,,,,,,,,0,0,0,0,0,0,0,0,0,0,0,0,0,0,0,0,,,,,,,,,,,,,
5163184,1745473762214,0.0,128,,-0.11,0.1,0.93,1,-0,-0,0.95,1.32,72,3384,6.1,3.66,,13.04,1.25,91.6,,23.4,5,0,0,0,0,3.3,0.0,0.0,0.0,2.27,,,0,0,0,0,0,0,0,0,0,0,0,0,0,0,0,0,,0,,,,0.0,38.994095,-76.939652,0.05,26.5,31,3,0.9
5163204,1745473762234,,,,,,,,,,,,,,,,,,,,,,,,,,,,,,,,,,0,0,0,0,0,0,0,0,0,0,0,0,0,0,0,0,,,,,,,,,,,,,
5163224,1745473762254,0.0,128,,-0.11,0.02,1.02,-0,-0,0,1.03,1.32,78,3400,3.3,3.44,,12.91,1.25,91.6,,23.4,5,,,,,,,,,,,,0,0,0,0,0,0,0,0,0,0,0,0,0,0,0,0,,,,,,0.0,,,,,,,
5163244,1745473762274,,,,,,,,,,,,,,,,,,,,,,,,,,,,,,,,,,0,0,0,0,0,0,0,0,0,0,0,0,0,0,0,0,,,,,,,,,,,,,
5163264,1745473762294,0.0,128,,-0.11,0.06,0.94,1,-0,-0,0.95,1.32,72,3313,0.9,2.91,,12.73,1.248,91.6,,23.4,5,,,,,,,,,,,,0,0,0,0,0,0,0,0,0,0,0,0,0,0,0,0,,,,,,0.0,,,,,,,
5163284,1745473762316,,,,,,,,,,,,,,,,,,,,,,,0,0,0,0,3.3,0.0,0.0,0.0,2.27,,,0,0,0,0,0,0,0,0,0,0,0,0,0,0,0,0,,0,,,,,38.994095,-76.939652,0.13,26.5,31,3,0.9
5163304,1745473762336,0.0,128,,-0.09,0.07,0.99,1,-0,0,0.99,1.32,76,3270,0.4,2.72,,12.61,1.25,91.6,,23.3,5,,,,,,,,,,,,0,0,0,0,0,0,0,0,0,0,0,0,0,0,0,0,,,,,,0.0,,,,,,,
5163324,1745473762356,,,,,,,,,,,,,,,,,,,,,,,,,,,,,,,,,,0,0,0,0,0,0,0,0,0,0,0,0,0,0,0,0,,,,,,,,,,,,,
5163344,1745473762376,0.0,128,,-0.07,-0.0,1.06,-0,-0,0,1.06,1.32,80,3189,0.2,2.77,,12.61,1.25,91.6,,23.3,5,,,,,,,,,,,,0,0,0,0,0,0,0,0,0,0,0,0,0,0,0,0,,,,,,0.0,,,,,,,
5163364,1745473762396,,,,,,,,,,,,,,,,,,,,,,,,,,,,,,,,,,0,0,0,0,0,0,0,0,0,0,0,0,0,0,0,0,,,,,,,,,,,,,
5163384,1745473762416,0.0,129,13.26,-0.08,-0.02,1.09,-1,-0,0,1.09,1.32,83,3189,0.2,2.77,15,12.53,1.249,91.6,165,21.9,5,0,0,0,0,3.0,0.0,0.0,0.0,2.27,0,1.0,0,0,0,0,0,0,0,0,0,0,0,0,0,0,0,0,0,0,1.0,0,-0,0.0,38.994095,-76.939652,0.18,26.5,31,3,0.9
5163404,1745473762436,,,,,,,,,,,,,,,,,,,,,,,,,,,,,,,,,,0,0,0,0,0,0,0,0,0,0,0,0,0,0,0,0,,,,,,,,,,,,,
5163424,1745473762456,0.0,128,,-0.08,-0.04,1.14,-2,-0,0,1.14,1.32,87,2952,2.9,3.09,,12.75,1.25,91.6,,21.9,5,,,,,,,,,,,,0,0,0,0,0,0,0,0,0,0,0,0,0,0,0,0,,,,,,0.0,,,,,,,
5163444,1745473762476,,,,,,,,,,,,,,,,,,,,,,,,,,,,,,,,,,0,0,0,0,0,0,0,0,0,0,0,0,0,0,0,0,,,,,,,,,,,,,
5163464,1745473762496,0.0,129,,-0.07,-0.05,1.15,-2,-0,0,1.15,1.32,88,2904,3.6,3.25,,13.0,1.251,91.6,,21.9,5,,,,,,,,,,,,0,0,0,0,0,0,0,0,0,0,0,0,0,0,0,0,,,,,,0.0,,,,,,,
5163484,1745473762514,,,,,,,,,,,,,,,,,,,,,,,0,0,0,0,2.9,0.0,0.0,0.0,2.27,,,0,0,0,0,0,0,0,0,0,0,0,0,0,0,0,0,,0,,,,,38.994095,-76.939652,0.29,26.5,31,3,0.9
5163504,1745473762534,0.0,128,,-0.04,-0.02,1.11,-1,-0,1,1.11,1.32,85,2909,3.7,3.33,,13.15,1.252,91.6,,20.2,5,,,,,,,,,,,,0,0,0,0,0,0,0,0,0,0,0,0,0,0,0,0,,,,,,0.0,,,,,,,
5163524,1745473762554,,,,,,,,,,,,,,,,,,,,,,,,,,,,,,,,,,0,0,0,0,0,0,0,0,0,0,0,0,0,0,0,0,,,,,,,,,,,,,
5163544,1745473762574,0.0,128,,-0.03,0.01,1.04,-1,-0,0,1.04,1.32,79,2868,4.0,3.31,,13.15,1.252,91.6,,20.2,5,,,,,,,,,,,,0,0,0,0,0,0,0,0,0,0,0,0,0,0,0,0,,,,,,0.0,,,,,,,
5163564,1745473762594,,,,,,,,,,,,,,,,,,,,,,,,,,,,,,,,,,0,0,0,0,0,0,0,0,0,0,0,0,0,0,0,0,,,,,,,,,,,,,
5163584,1745473762616,0.0,128,,-0.06,-0.02,1.02,-1,-0,0,1.03,1.32,78,2868,4.0,3.31,,13.2,1.251,91.6,,20.1,5,0,0,0,0,2.9,0.0,0.0,0.0,2.26,,,0,0,0,0,0,0,0,0,0,0,0,0,0,0,0,0,,0,,,,0.0,38.994095,-76.939652,0.14,26.5,31,3,0.9
5163604,1745473762636,,,,,,,,,,,,,,,,,,,,,,,,,,,,,,,,,,0,0,0,0,0,0,0,0,0,0,0,0,0,0,0,0,,,,,,,,,,,,,
5163624,1745473762656,0.0,128,,-0.08,-0.03,1.07,-1,-0,0,1.08,1.32,82,2871,4.1,3.31,,13.24,1.251,91.6,,20.1,5,,,,,,,,,,,,0,0,0,0,0,0,0,0,0,0,0,0,0,0,0,0,,,,,,0.0,,,,,,,
5163644,1745473762676,,,,,,,,,,,,,,,,,,,,,,,,,,,,,,,,,,0,0,0,0,0,0,0,0,0,0,0,0,0,0,0,0,,,,,,,,,,,,,
5163664,1745473762696,0.0,128,,-0.08,-0.02,1.09,-1,-0,0,1.09,1.32,83,2802,3.8,3.34,,13.25,1.25,91.6,,20.1,5,,,,,,,,,,,,0,0,0,0,0,0,0,0,0,0,0,0,0,0,0,0,,,,,,0.0,,,,,,,
5163684,1745473762717,,,,,,,,,,,,,,,,,,,,,,,0,0,0,0,2.9,0.0,0.0,0.0,2.27,,,0,0,0,0,0,0,0,0,0,0,0,0,0,0,0,0,,0,,,,,38.994095,-76.939652,0.13,26.5,31,3,0.9
5163704,1745473762737,0.0,128,,-0.06,0.02,1.04,-1,-0,0,1.04,1.32,79,2773,3.7,3.34,,13.27,1.248,91.6,,20.2,5,,,,,,,,,,,,0,0,0,0,0,0,0,0,0,0,0,0,0,0,0,0,,,,,,0.0,,,,,,,
5163724,1745473762757,,,,,,,,,,,,,,,,,,,,,,,,,,,,,,,,,,0,0,0,0,0,0,0,0,0,0,0,0,0,0,0,0,,,,,,,,,,,,,
5163744,1745473762777,0.0,128,,-0.07,-0.0,1.01,-0,-0,0,1.01,1.32,77,2799,3.4,3.31,,13.27,1.248,91.6,,20.2,5,,,,,,,,,,,,0,0,0,0,0,0,0,0,0,0,0,0,0,0,0,0,,,,,,0.0,,,,,,,
5163764,1745473762797,,,,,,,,,,,,,,,,,,,,,,,,,,,,,,,,,,0,0,0,0,0,0,0,0,0,0,0,0,0,0,0,0,,,,,,,,,,,,,
5163784,1745473762816,0.0,129,,-0.08,-0.02,1.04,-0,-0,0,1.05,1.32,80,2799,3.4,3.31,,13.31,1.248,91.6,,19.7,5,0,0,0,0,2.9,0.0,0.0,0.0,2.27,,,0,0,0,0,0,0,0,0,0,0,0,0,0,0,0,0,,0,,,,0.0,38.994099,-76.939652,0.11,26.5,31,3,0.9
5163804,1745473762836,,,,,,,,,,,,,,,,,,,,,,,,,,,,,,,,,,0,0,0,0,0,0,0,0,0,0,0,0,0,0,0,0,,,,,,,,,,,,,
5163824,1745473762856,0.0,128,,-0.08,0.01,1.04,-0,-0,0,1.04,1.32,79,2807,3.3,3.28,,13.29,1.248,91.6,,19.7,5,,,,,,,,,,,,0,0,0,0,0,0,0,0,0,0,0,0,0,0,0,0,,,,,,0.0,,,,,,,
5163844,1745473762876,,,,,,,,,,,,,,,,,,,,,,,,,,,,,,,,,,0,0,0,0,0,0,0,0,0,0,0,0,0,0,0,0,,,,,,,,,,,,,
5163864,1745473762896,0.0,129,,-0.08,0.01,1.01,-0,-0,0,1.01,1.32,77,2799,3.3,3.32,,13.31,1.249,91.6,,19.7,5,,,,,,,,,,,,0,0,0,0,0,0,0,0,0,0,0,0,0,0,0,0,,,,,,0.0,,,,,,,
5163884,1745473762916,,,,,,,,,,,,,,,,,,,,,,,0,0,0,0,2.9,0.0,0.0,0.0,2.27,,,0,0,0,0,0,0,0,0,0,0,0,0,0,0,0,0,,0,,,,,38.994099,-76.939652,0.08,26.5,31,3,0.9
5163904,1745473762936,0.0,128,,-0.08,-0.02,1.03,-0,-0,0,1.03,1.32,78,2772,3.3,3.35,,13.36,1.249,91.6,,19.5,5,,,,,,,,,,,,0,0,0,0,0,0,0,0,0,0,0,0,0,0,0,0,,,,,,0.0,,,,,,,
5163924,1745473762956,,,,,,,,,,,,,,,,,,,,,,,,,,,,,,,,,,0,0,0,0,0,0,0,0,0,0,0,0,0,0,0,0,,,,,,,,,,,,,
5163944,1745473762976,0.0,128,,-0.08,-0.0,1.01,-0,-0,0,1.02,1.32,77,2730,3.3,3.33,,13.36,1.249,91.6,,19.5,5,,,,,,,,,,,,0,0,0,0,0,0,0,0,0,0,0,0,0,0,0,0,,,,,,0.0,,,,,,,
5163964,1745473762996,,,,,,,,,,,,,,,,,,,,,,,,,,,,,,,,,,0,0,0,0,0,0,0,0,0,0,0,0,0,0,0,0,,,,,,,,,,,,,
5163984,1745473763007,0.0,128,,-0.08,0.0,1.01,-0,-0,0,1.02,1.32,77,2730,3.3,3.33,,13.4,1.252,91.6,,19.1,5,0,0,0,0,2.9,0.0,0.0,0.0,2.26,,,0,0,0,0,0,0,0,0,0,0,0,0,0,0,0,0,,0,,,,0.0,38.994095,-76.939652,0.07,26.5,30,3,0.9
5164004,1745473763027,,,,,,,,,,,,,,,,,,,,,,,,,,,,,,,,,,0,0,0,0,0,0,0,0,0,0,0,0,0,0,0,0,,,,,,,,,,,,,
5164024,1745473763047,0.0,128,,-0.08,0.0,1.02,-0,-0,0,1.02,1.32,77,2628,3.6,3.3,,13.48,1.252,91.6,,19.1,5,,,,,,,,,,,,0,0,0,0,0,0,0,0,0,0,0,0,0,0,0,0,,,,,,0.0,,,,,,,
5164044,1745473763067,,,,,,,,,,,,,,,,,,,,,,,,,,,,,,,,,,0,0,0,0,0,0,0,0,0,0,0,0,0,0,0,0,,,,,,,,,,,,,
5164064,1745473763087,0.0,128,,-0.07,-0.03,1.03,-1,-0,-0,1.03,1.32,79,2521,3.7,3.3,,13.56,1.252,91.6,,19.1,5,,,,,,,,,,,,0,0,0,0,0,0,0,0,0,0,0,0,0,0,0,0,,,,,,0.0,,,,,,,
5164084,1745473763109,,,,,,,,,,,,,,,,,,,,,,,0,0,0,0,3.0,0.0,0.0,0.0,2.26,,,0,0,0,0,0,0,0,0,0,0,0,0,0,0,0,0,,0,,,,,38.994095,-76.939652,0.08,26.5,30,3,0.9
5164104,1745473763129,0.0,128,,-0.07,-0.01,0.99,-0,-0,0,1.0,1.32,76,2579,4.0,3.36,,13.57,1.251,91.6,,18.6,5,,,,,,,,,,,,0,0,0,0,0,0,0,0,0,0,0,0,0,0,0,0,,,,,,0.0,,,,,,,
5164124,1745473763149,,,,,,,,,,,,,,,,,,,,,,,,,,,,,,,,,,0,0,0,0,0,0,0,0,0,0,0,0,0,0,0,0,,,,,,,,,,,,,
5164144,1745473763169,0.0,128,,-0.07,-0.02,1.03,-1,-0,0,1.03,1.32,78,2509,5.3,3.39,,13.57,1.251,91.6,,18.6,5,,,,,,,,,,,,0,0,0,0,0,0,0,0,0,0,0,0,0,0,0,0,,,,,,0.0,,,,,,,
5164164,1745473763189,,,,,,,,,,,,,,,,,,,,,,,,,,,,,,,,,,0,0,0,0,0,0,0,0,0,0,0,0,0,0,0,0,,,,,,,,,,,,,
5164184,1745473763215,0.0,128,,-0.07,-0.03,1.01,-1,-0,-0,1.01,1.32,77,2509,5.3,3.39,,13.71,1.25,91.6,,18.3,5,0,0,0,0,3.0,0.0,0.0,0.0,2.26,,,0,0,0,0,0,0,0,0,0,0,0,0,0,0,0,0,,0,,,,0.0,38.994095,-76.939652,0.24,26.5,30,3,0.9
5164204,1745473763235,,,,,,,,,,,,,,,,,,,,,,,,,,,,,,,,,,0,0,0,0,0,0,0,0,0,0,0,0,0,0,0,0,,,,,,,,,,,,,
5164224,1745473763255,0.0,128,,-0.07,-0.01,1.01,-1,-0,0,1.01,1.32,77,2524,5.4,3.53,,13.77,1.249,91.6,,18.3,5,,,,,,,,,,,,0,0,0,0,0,0,0,0,0,0,0,0,0,0,0,0,,,,,,0.0,,,,,,,
5164244,1745473763275,,,,,,,,,,,,,,,,,,,,,,,,,,,,,,,,,,0,0,0,0,0,0,0,0,0,0,0,0,0,0,0,0,,,,,,,,,,,,,
5164264,1745473763295,0.0,128,,-0.07,-0.04,1.01,-1,-0,-0,1.01,1.32,77,2529,5.2,3.55,,13.75,1.249,91.6,,18.3,5,,,,,,,,,,,,0,0,0,0,0,0,0,0,0,0,0,0,0,0,0,0,,,,,,0.0,,,,,,,
5164284,1745473763315,,,,,,,,,,,,,,,,,,,,,,,0,0,0,0,3.0,0.0,0.0,0.0,2.27,,,0,0,0,0,0,0,0,0,0,0,0,0,0,0,0,0,,0,,,,,38.994095,-76.939652,0.22,26.5,30,3,0.9
5164304,1745473763335,0.0,128,,-0.07,-0.0,0.99,-0,-0,0,0.99,1.32,75,2469,5.1,3.56,,13.79,1.249,91.6,,17.8,5,,,,,,,,,,,,0,0,0,0,0,0,0,0,0,0,0,0,0,0,0,0,,,,,,0.0,,,,,,,
5164324,1745473763355,,,,,,,,,,,,,,,,,,,,,,,,,,,,,,,,,,0,0,0,0,0,0,0,0,0,0,0,0,0,0,0,0,,,,,,,,,,,,,
5164344,1745473763375,0.0,128,,-0.07,-0.03,1.03,-0,-0,0,1.03,1.32,78,2614,5.2,3.53,,13.79,1.249,91.6,,17.8,5,,,,,,,,,,,,0,0,0,0,0,0,0,0,0,0,0,0,0,0,0,0,,,,,,0.0,,,,,,,
5164364,1745473763395,,,,,,,,,,,,,,,,,,,,,,,,,,,,,,,,,,0,0,0,0,0,0,0,0,0,0,0,0,0,0,0,0,,,,,,,,,,,,,
5164384,1745473763415,0.0,128,13.3,-0.08,-0.02,0.98,0,-0,-0,0.99,1.32,75,2614,5.2,3.53,15,13.76,1.249,91.6,165,18.2,5,0,0,0,0,3.0,0.0,0.0,0.0,2.27,0,1.0,0,0,0,0,0,0,0,0,0,0,0,0,0,0,0,0,0,0,1.0,0,-0,0.0,38.994095,-76.939652,0.06,26.5,30,3,0.9
5164404,1745473763435,,,,,,,,,,,,,,,,,,,,,,,,,,,,,,,,,,0,0,0,0,0,0,0,0,0,0,0,0,0,0,0,0,,,,,,,,,,,,,
5164424,1745473763455,0.0,128,,-0.07,-0.03,1.02,-0,-0,0,1.02,1.32,78,2635,5.1,3.52,,13.73,1.251,91.6,,18.2,5,,,,,,,,,,,,0,0,0,0,0,0,0,0,0,0,0,0,0,0,0,0,,,,,,0.0,,,,,,,
5164444,1745473763475,,,,,,,,,,,,,,,,,,,,,,,,,,,,,,,,,,0,0,0,0,0,0,0,0,0,0,0,0,0,0,0,0,,,,,,,,,,,,,
5164464,1745473763495,0.0,128,,-0.08,-0.04,0.99,-0,-0,-0,1.0,1.32,76,2644,5.3,3.52,,13.69,1.251,91.6,,18.2,5,,,,,,,,,,,,0,0,0,0,0,0,0,0,0,0,0,0,0,0,0,0,,,,,,0.0,,,,,,,
5164484,1745473763517,,,,,,,,,,,,,,,,,,,,,,,0,0,0,0,3.0,0.0,0.0,0.0,2.26,,,0,0,0,0,0,0,0,0,0,0,0,0,0,0,0,0,,0,,,,,38.994095,-76.939652,0.04,26.5,30,3,0.9
5164504,1745473763537,0.0,128,,-0.08,-0.04,1.0,-1,-0,-0,1.0,1.32,76,2625,5.5,3.51,,13.72,1.251,91.6,,18.3,5,,,,,,,,,,,,0,0,0,0,0,0,0,0,0,0,0,0,0,0,0,0,,,,,,0.0,,,,,,,
5164524,1745473763557,,,,,,,,,,,,,,,,,,,,,,,,,,,,,,,,,,0,0,0,0,0,0,0,0,0,0,0,0,0,0,0,0,,,,,,,,,,,,,
5164544,1745473763577,0.0,128,,-0.08,-0.02,0.97,-0,-0,-0,0.98,1.32,74,2642,5.5,3.52,,13.72,1.251,91.6,,18.3,5,,,,,,,,,,,,0,0,0,0,0,0,0,0,0,0,0,0,0,0,0,0,,,,,,0.0,,,,,,,
5164564,1745473763597,,,,,,,,,,,,,,,,,,,,,,,,,,,,,,,,,,0,0,0,0,0,0,0,0,0,0,0,0,0,0,0,0,,,,,,,,,,,,,
5164584,1745473763617,0.0,128,,-0.08,-0.01,1.0,-0,-0,-0,1.01,1.32,77,2642,5.5,3.52,,13.69,1.251,91.6,,19.0,5,0,0,0,0,3.0,0.0,0.0,0.0,2.26,,,0,0,0,0,0,0,0,0,0,0,0,0,0,0,0,0,,0,,,,0.0,38.994095,-76.939652,0.08,26.5,30,3,0.9
5164604,1745473763637,,,,,,,,,,,,,,,,,,,,,,,,,,,,,,,,,,0,0,0,0,0,0,0,0,0,0,0,0,0,0,0,0,,,,,,,,,,,,,
5164624,1745473763657,0.0,127,,-0.08,0.01,0.97,-0,-0,-0,0.97,1.32,74,2596,5.5,3.56,,13.68,1.25,91.6,,19.0,5,,,,,,,,,,,,0,0,0,0,0,0,0,0,0,0,0,0,0,0,0,0,,,,,,0.0,,,,,,,
5164644,1745473763677,,,,,,,,,,,,,,,,,,,,,,,,,,,,,,,,,,0,0,0,0,0,0,0,0,0,0,0,0,0,0,0,0,,,,,,,,,,,,,
5164664,1745473763697,0.0,128,,-0.08,0.01,1.02,-0,-0,0,1.02,1.32,78,2607,5.5,3.56,,13.69,1.249,91.6,,19.0,5,,,,,,,,,,,,0,0,0,0,0,0,0,0,0,0,0,0,0,0,0,0,,,,,,0.0,,,,,,,
5164684,1745473763717,,,,,,,,,,,,,,,,,,,,,,,0,0,0,0,3.0,0.0,0.0,0.0,2.27,,,0,0,0,0,0,0,0,0,0,0,0,0,0,0,0,0,,0,,,,,38.994095,-76.939652,0.04,26.5,30,3,0.9
5164704,1745473763737,0.0,128,,-0.08,0.02,0.97,0,-0,0,0.97,1.32,74,2669,5.3,3.56,,13.67,1.248,91.6,,19.3,5,,,,,,,,,,,,0,0,0,0,0,0,0,0,0,0,0,0,0,0,0,0,,,,,,0.0,,,,,,,
5164724,1745473763757,,,,,,,,,,,,,,,,,,,,,,,,,,,,,,,,,,0,0,0,0,0,0,0,0,0,0,0,0,0,0,0,0,,,,,,,,,,,,,
5164744,1745473763777,0.0,128,,-0.08,0.01,1.0,-0,-0,-0,1.0,1.32,76,2673,5.1,3.57,,13.67,1.248,91.6,,19.3,5,,,,,,,,,,,,0,0,0,0,0,0,0,0,0,0,0,0,0,0,0,0,,,,,,0.0,,,,,,,
5164764,1745473763797,,,,,,,,,,,,,,,,,,,,,,,,,,,,,,,,,,0,0,0,0,0,0,0,0,0,0,0,0,0,0,0,0,,,,,,,,,,,,,
5164784,1745473763815,0.0,128,,-0.07,0.02,0.98,0,-0,0,0.99,1.32,75,2673,5.1,3.57,,13.68,1.248,91.6,,19.0,5,0,0,0,0,3.0,0.0,0.0,0.0,2.27,,,0,0,0,0,0,0,0,0,0,0,0,0,0,0,0,0,,0,,,,0.0,38.994095,-76.939652,0.04,26.5,30,3,0.9
5164804,1745473763835,,,,,,,,,,,,,,,,,,,,,,,,,,,,,,,,,,0,0,0,0,0,0,0,0,0,0,0,0,0,0,0,0,,,,,,,,,,,,,
5164824,1745473763855,0.0,128,,-0.09,0.02,0.98,0,-0,-0,0.98,1.32,75,2644,7.8,3.56,,13.73,1.25,91.6,,19.0,5,,,,,,,,,,,,0,0,0,0,0,0,0,0,0,0,0,0,0,0,0,0,,,,,,0.0,,,,,,,
5164844,1745473763875,,,,,,,,,,,,,,,,,,,,,,,,,,,,,,,,,,0,0,0,0,0,0,0,0,0,0,0,0,0,0,0,0,,,,,,,,,,,,,
5164864,1745473763895,0.0,128,,-0.08,0.01,1.01,-0,-0,0,1.01,1.32,77,2732,12.6,3.99,,13.96,1.251,91.6,,19.0,5,,,,,,,,,,,,0,0,0,0,0,0,0,0,0,0,0,0,0,0,0,0,,,,,,0.0,,,,,,,
5164884,1745473763916,,,,,,,,,,,,,,,,,,,,,,,0,0,0,0,3.0,0.0,0.0,0.0,2.27,,,0,0,0,0,0,0,0,0,0,0,0,0,0,0,0,0,,0,,,,,38.994095,-76.939652,0.04,26.5,30,3,0.9
5164904,1745473763936,0.0,128,,-0.08,0.03,1.0,0,-0,0,1.0,1.32,76,2788,14.0,4.14,,14.03,1.252,91.6,,18.8,5,,,,,,,,,,,,0,0,0,0,0,0,0,0,0,0,0,0,0,0,0,0,,,,,,0.0,,,,,,,
5164924,1745473763956,,,,,,,,,,,,,,,,,,,,,,,,,,,,,,,,,,0,0,0,0,0,0,0,0,0,0,0,0,0,0,0,0,,,,,,,,,,,,,
5164944,1745473763976,0.0,128,,-0.08,0.03,0.94,1,-0,-0,0.94,1.32,72,2880,14.4,4.16,,14.03,1.252,91.6,,18.8,5,,,,,,,,,,,,0,0,0,0,0,0,0,0,0,0,0,0,0,0,0,0,,,,,,0.0,,,,,,,
5164964,1745473763996,,,,,,,,,,,,,,,,,,,,,,,,,,,,,,,,,,0,0,0,0,0,0,0,0,0,0,0,0,0,0,0,0,,,,,,,,,,,,,
5164984,1745473764007,0.0,128,,-0.09,0.03,0.87,1,-0,-0,0.87,1.32,66,2880,14.4,4.16,,14.02,1.252,91.6,,21.0,5,0,0,0,0,3.0,0.0,0.0,0.0,2.26,,,0,0,0,0,0,0,0,0,0,0,0,0,0,0,0,0,,0,,,,0.0,38.994095,-76.939652,0.04,26.5,30,3,0.9
5165004,1745473764027,,,,,,,,,,,,,,,,,,,,,,,,,,,,,,,,,,0,0,0,0,0,0,0,0,0,0,0,0,0,0,0,0,,,,,,,,,,,,,
5165024,1745473764047,0.0,128,,-0.1,0.05,0.8,2,-0,-1,0.81,1.32,62,3011,12.5,4.15,,13.94,1.252,91.6,,21.0,5,,,,,,,,,,,,0,0,0,0,0,0,0,0,0,0,0,0,0,0,0,0,,,,,,0.0,,,,,,,
5165044,1745473764067,,,,,,,,,,,,,,,,,,,,,,,,,,,,,,,,,,0,0,0,0,0,0,0,0,0,0,0,0,0,0,0,0,,,,,,,,,,,,,
5165064,1745473764087,0.0,128,,-0.09,0.06,0.9,1,-0,-0,0.9,1.32,69,3269,4.5,3.5,,13.53,1.251,91.6,,21.0,5,,,,,,,,,,,,0,0,0,0,0,0,0,0,0,0,0,0,0,0,0,0,,,,,,0.0,,,,,,,
5165084,1745473764116,,,,,,,,,,,,,,,,,,,,,,,0,0,0,0,3.0,0.0,0.0,0.0,2.26,,,0,0,0,0,0,0,0,0,0,0,0,0,0,0,0,0,,0,,,,,38.994095,-76.939652,0.04,26.5,30,3,0.9
5165104,1745473764136,0.0,128,,-0.11,-0.01,0.92,0,-0,-0,0.92,1.32,70,3307,2.5,3.19,,13.16,1.248,91.6,,22.2,5,,,,,,,,,,,,0,0,0,0,0,0,0,0,0,0,0,0,0,0,0,0,,,,,,0.0,,,,,,,
5165124,1745473764156,,,,,,,,,,,,,,,,,,,,,,,,,,,,,,,,,,0,0,0,0,0,0,0,0,0,0,0,0,0,0,0,0,,,,,,,,,,,,,
5165144,1745473764176,0.0,128,,-0.11,0.04,0.85,1,-1,-0,0.86,1.32,65,3225,1.9,3.08,,13.16,1.248,91.6,,22.2,5,,,,,,,,,,,,0,0,0,0,0,0,0,0,0,0,0,0,0,0,0,0,,,,,,0.0,,,,,,,
5165164,1745473764196,,,,,,,,,,,,,,,,,,,,,,,,,,,,,,,,,,0,0,0,0,0,0,0,0,0,0,0,0,0,0,0,0,,,,,,,,,,,,,
5165184,1745473764216,0.0,128,,-0.07,0.02,0.93,1,-0,0,0.93,1.32,71,3225,1.9,3.08,,13.0,1.249,91.6,,22.6,5,0,0,0,0,3.0,0.0,0.0,0.0,2.27,,,0,0,0,0,0,0,0,0,0,0,0,0,0,0,0,0,,0,,,,0.0,38.994095,-76.939652,0.19,26.5,30,3,0.9
5165204,1745473764236,,,,,,,,,,,,,,,,,,,,,,,,,,,,,,,,,,0,0,0,0,0,0,0,0,0,0,0,0,0,0,0,0,,,,,,,,,,,,,
5165224,1745473764256,0.0,128,,-0.08,-0.03,0.98,-0,-0,0,0.99,1.32,75,3211,1.7,2.98,,12.89,1.248,91.6,,22.6,5,,,,,,,,,,,,0,0,0,0,0,0,0,0,0,0,0,0,0,0,0,0,,,,,,0.0,,,,,,,
5165244,1745473764276,,,,,,,,,,,,,,,,,,,,,,,,,,,,,,,,,,0,0,0,0,0,0,0,0,0,0,0,0,0,0,0,0,,,,,,,,,,,,,
5165264,1745473764296,0.0,128,,-0.11,-0.05,0.94,-0,-0,-0,0.95,1.32,72,3188,5.0,3.43,,12.97,1.248,91.6,,22.6,5,,,,,,,,,,,,0,0,0,0,0,0,0,0,0,0,0,0,0,0,0,0,,,,,,0.0,,,,,,,
5165284,1745473764316,,,,,,,,,,,,,,,,,,,,,,,0,0,0,0,3.0,0.0,0.0,0.0,2.27,,,0,0,0,0,0,0,0,0,0,0,0,0,0,0,0,0,,0,,,,,38.994095,-76.939652,0.05,26.5,30,3,0.9
5165304,1745473764336,0.0,128,,-0.12,-0.01,0.86,1,-0,-1,0.87,1.32,66,3071,6.8,3.73,,13.23,1.25,91.6,,22.2,5,,,,,,,,,,,,0,0,0,0,0,0,0,0,0,0,0,0,0,0,0,0,,,,,,0.0,,,,,,,
5165324,1745473764356,,,,,,,,,,,,,,,,,,,,,,,,,,,,,,,,,,0,0,0,0,0,0,0,0,0,0,0,0,0,0,0,0,,,,,,,,,,,,,
5165344,1745473764376,0.0,127,,-0.1,0.06,0.87,2,-0,-0,0.88,1.32,67,3206,7.3,3.81,,13.23,1.25,91.6,,22.2,5,,,,,,,,,,,,0,0,0,0,0,0,0,0,0,0,0,0,0,0,0,0,,,,,,0.0,,,,,,,
5165364,1745473764396,,,,,,,,,,,,,,,,,,,,,,,,,,,,,,,,,,0,0,0,0,0,0,0,0,0,0,0,0,0,0,0,0,,,,,,,,,,,,,
5165384,1745473764416,0.0,128,13.29,-0.09,0.01,0.97,0,-0,0,0.97,1.32,74,3206,7.3,3.81,15,13.32,1.25,91.6,165,21.9,5,0,0,0,0,3.0,0.0,0.0,0.0,2.26,0,1.0,0,0,0,0,0,0,0,0,0,0,0,0,0,0,0,0,0,0,1.0,0,0,0.0,38.994095,-76.939652,0.0,26.5,30,3,0.9
5165404,1745473764436,,,,,,,,,,,,,,,,,,,,,,,,,,,,,,,,,,0,0,0,0,0,0,0,0,0,0,0,0,0,0,0,0,,,,,,,,,,,,,
5165424,1745473764456,0.0,128,,-0.11,-0.01,0.92,0,-0,-0,0.92,1.32,70,3265,7.6,3.81,,13.31,1.251,91.6,,21.9,5,,,,,,,,,,,,0,0,0,0,0,0,0,0,0,0,0,0,0,0,0,0,,,,,,0.0,,,,,,,
5165444,1745473764476,,,,,,,,,,,,,,,,,,,,,,,,,,,,,,,,,,0,0,0,0,0,0,0,0,0,0,0,0,0,0,0,0,,,,,,,,,,,,,
5165464,1745473764496,0.0,128,,-0.08,0.01,0.94,1,-0,0,0.95,1.32,72,3285,5.3,3.67,,13.25,1.251,91.6,,21.9,5,,,,,,,,,,,,0,0,0,0,0,0,0,0,0,0,0,0,0,0,0,0,,,,,,0.0,,,,,,,
5165484,1745473764516,,,,,,,,,,,,,,,,,,,,,,,0,0,0,0,3.0,0.0,0.0,0.0,2.26,,,0,0,0,0,0,0,0,0,0,0,0,0,0,0,0,0,,0,,,,,38.994095,-76.939652,0.0,26.5,30,3,0.9
5165504,1745473764536,0.0,128,,-0.1,-0.03,0.95,0,-0,-0,0.95,1.32,73,3365,3.6,3.35,,13.07,1.251,91.6,,23.0,5,,,,,,,,,,,,0,0,0,0,0,0,0,0,0,0,0,0,0,0,0,0,,,,,,0.0,,,,,,,
5165524,1745473764556,,,,,,,,,,,,,,,,,,,,,,,,,,,,,,,,,,0,0,0,0,0,0,0,0,0,0,0,0,0,0,0,0,,,,,,,,,,,,,
5165544,1745473764576,0.0,128,,-0.09,0.03,0.93,1,-0,0,0.93,1.32,71,3323,3.4,3.35,,13.07,1.251,91.6,,23.0,5,,,,,,,,,,,,0,0,0,0,0,0,0,0,0,0,0,0,0,0,0,0,,,,,,0.0,,,,,,,
5165564,1745473764596,,,,,,,,,,,,,,,,,,,,,,,,,,,,,,,,,,0,0,0,0,0,0,0,0,0,0,0,0,0,0,0,0,,,,,,,,,,,,,
5165584,1745473764616,0.0,128,,-0.1,-0.02,1.0,-0,-0,0,1.0,1.32,76,3323,3.4,3.35,,12.96,1.25,91.6,,23.2,5,0,0,0,0,3.0,0.0,0.0,0.0,2.26,,,0,0,0,0,0,0,0,0,0,0,0,0,0,0,0,0,,0,,,,0.0,38.994095,-76.939652,0.0,26.5,30,3,0.9
5165604,1745473764636,,,,,,,,,,,,,,,,,,,,,,,,,,,,,,,,,,0,0,0,0,0,0,0,0,0,0,0,0,0,0,0,0,,,,,,,,,,,,,
5165624,1745473764656,0.0,127,,-0.1,0.04,0.91,1,-0,-0,0.91,1.32,69,3279,3.7,3.32,,12.93,1.248,91.6,,23.2,5,,,,,,,,,,,,0,0,0,0,0,0,0,0,0,0,0,0,0,0,0,0,,,,,,0.0,,,,,,,
5165644,1745473764676,,,,,,,,,,,,,,,,,,,,,,,,,,,,,,,,,,0,0,0,0,0,0,0,0,0,0,0,0,0,0,0,0,,,,,,,,,,,,,
5165664,1745473764696,0.0,128,,-0.07,0.01,0.99,0,-0,0,1.0,1.32,76,3302,4.7,3.54,,13.0,1.249,91.6,,23.2,5,,,,,,,,,,,,0,0,0,0,0,0,0,0,0,0,0,0,0,0,0,0,,,,,,0.0,,,,,,,
5165684,1745473764718,,,,,,,,,,,,,,,,,,,,,,,0,0,0,0,3.0,0.0,0.0,0.0,2.27,,,0,0,0,0,0,0,0,0,0,0,0,0,0,0,0,0,,0,,,,,38.994095,-76.939652,0.1,26.5,30,3,0.9
5165704,1745473764738,0.0,128,,-0.09,-0.05,1.0,-1,-0,0,1.01,1.32,77,3204,4.7,3.55,,13.03,1.249,91.6,,22.9,5,,,,,,,,,,,,0,0,0,0,0,0,0,0,0,0,0,0,0,0,0,0,,,,,,0.0,,,,,,,
5165724,1745473764758,,,,,,,,,,,,,,,,,,,,,,,,,,,,,,,,,,0,0,0,0,0,0,0,0,0,0,0,0,0,0,0,0,,,,,,,,,,,,,
5165744,1745473764778,0.0,128,,-0.1,-0.01,0.93,0,-0,-0,0.93,1.32,71,3187,3.3,3.5,,13.03,1.249,91.6,,22.9,5,,,,,,,,,,,,0,0,0,0,0,0,0,0,0,0,0,0,0,0,0,0,,,,,,0.0,,,,,,,
5165764,1745473764798,,,,,,,,,,,,,,,,,,,,,,,,,,,,,,,,,,0,0,0,0,0,0,0,0,0,0,0,0,0,0,0,0,,,,,,,,,,,,,
5165784,1745473764816,0.0,128,,-0.08,0.03,0.96,1,-0,0,0.96,1.32,73,3187,3.3,3.5,,13.01,1.25,91.6,,22.1,5,0,0,0,0,3.0,0.0,0.0,0.0,2.27,,,0,0,0,0,0,0,0,0,0,0,0,0,0,0,0,0,,0,,,,0.0,38.994095,-76.939652,0.0,26.5,30,3,0.9
5165804,1745473764836,,,,,,,,,,,,,,,,,,,,,,,,,,,,,,,,,,0,0,0,0,0,0,0,0,0,0,0,0,0,0,0,0,,,,,,,,,,,,,
5165824,1745473764856,0.0,128,,-0.08,-0.01,1.03,-1,-0,0,1.04,1.32,79,3226,1.6,2.98,,12.88,1.25,91.6,,22.1,5,,,,,,,,,,,,0,0,0,0,0,0,0,0,0,0,0,0,0,0,0,0,,,,,,0.0,,,,,,,
5165844,1745473764876,,,,,,,,,,,,,,,,,,,,,,,,,,,,,,,,,,0,0,0,0,0,0,0,0,0,0,0,0,0,0,0,0,,,,,,,,,,,,,
5165864,1745473764896,0.0,128,,-0.11,-0.04,1.03,-1,-0,0,1.04,1.32,79,3146,1.5,2.91,,12.76,1.252,91.6,,22.1,5,,,,,,,,,,,,0,0,0,0,0,0,0,0,0,0,0,0,0,0,0,0,,,,,,0.0,,,,,,,
5165884,1745473764918,,,,,,,,,,,,,,,,,,,,,,,0,0,0,0,3.0,0.0,0.0,0.0,2.26,,,0,0,0,0,0,0,0,0,0,0,0,0,0,0,0,0,,0,,,,,38.994095,-76.939652,0.08,26.5,30,3,0.9
5165904,1745473764938,0.0,128,,-0.14,-0.04,0.98,-1,-0,-0,0.99,1.32,75,3039,4.4,2.93,,12.88,1.251,91.6,,21.6,5,,,,,,,,,,,,0,0,0,0,0,0,0,0,0,0,0,0,0,0,0,0,,,,,,0.0,,,,,,,
5165924,1745473764958,,,,,,,,,,,,,,,,,,,,,,,,,,,,,,,,,,0,0,0,0,0,0,0,0,0,0,0,0,0,0,0,0,,,,,,,,,,,,,
5165944,1745473764978,0.0,127,,-0.16,-0.03,0.95,-1,-0,-0,0.96,1.32,73,2975,8.6,3.85,,12.88,1.251,91.6,,21.6,5,,,,,,,,,,,,0,0,0,0,0,0,0,0,0,0,0,0,0,0,0,0,,,,,,0.0,,,,,,,
5165964,1745473764998,,,,,,,,,,,,,,,,,,,,,,,,,,,,,,,,,,0,0,0,0,0,0,0,0,0,0,0,0,0,0,0,0,,,,,,,,,,,,,
5165984,1745473765009,0.0,128,,-0.19,-0.03,0.93,-1,-0,-0,0.95,1.32,72,2975,8.6,3.85,,13.23,1.251,91.6,,20.5,5,0,0,0,0,3.0,0.0,0.0,0.0,2.26,,,0,0,0,0,0,0,0,0,0,0,0,0,0,0,0,0,,0,,,,0.0,38.994095,-76.939652,0.07,26.5,30,3,0.9
5166004,1745473765029,,,,,,,,,,,,,,,,,,,,,,,,,,,,,,,,,,0,0,0,0,0,0,0,0,0,0,0,0,0,0,0,0,,,,,,,,,,,,,
5166024,1745473765049,0.0,127,,-0.21,-0.01,0.87,-0,-0,-0,0.9,1.32,68,3049,11.6,3.94,,13.51,1.249,91.6,,20.5,5,,,,,,,,,,,,0,0,0,0,0,0,0,0,0,0,0,0,0,0,0,0,,,,,,0.0,,,,,,,
5166044,1745473765069,,,,,,,,,,,,,,,,,,,,,,,,,,,,,,,,,,0,0,0,0,0,0,0,0,0,0,0,0,0,0,0,0,,,,,,,,,,,,,
5166064,1745473765089,0.0,128,,-0.19,0.07,0.81,0,-0,-0,0.84,1.32,64,3127,13.5,4.12,,13.69,1.248,91.6,,20.5,5,,,,,,,,,,,,0,0,0,0,0,0,0,0,0,0,0,0,0,0,0,0,,,,,,0.0,,,,,,,
5166084,1745473765118,,,,,,,,,,,,,,,,,,,,,,,0,0,0,0,3.0,0.0,0.0,0.0,2.27,,,0,0,0,0,0,0,0,0,0,0,0,0,0,0,0,0,,0,,,,,38.994095,-76.939652,0.13,26.5,30,3,0.9
5166104,1745473765138,0.0,128,,-0.16,0.04,0.91,-1,-0,-0,0.93,1.32,71,3376,13.9,4.1,,13.76,1.248,91.6,,22.2,5,,,,,,,,,,,,0,0,0,0,0,0,0,0,0,0,0,0,0,0,0,0,,,,,,0.0,,,,,,,
5166124,1745473765158,,,,,,,,,,,,,,,,,,,,,,,,,,,,,,,,,,0,0,0,0,0,0,0,0,0,0,0,0,0,0,0,0,,,,,,,,,,,,,
5166144,1745473765178,0.0,128,,-0.16,0.07,0.84,0,-0,-0,0.86,1.32,66,3432,14.0,4.08,,13.76,1.248,89.8,,22.2,5,,,,,,,,,,,,0,0,0,0,0,0,0,0,0,0,0,0,0,0,0,0,,,,,,0.0,,,,,,,
5166164,1745473765198,,,,,,,,,,,,,,,,,,,,,,,,,,,,,,,,,,0,0,0,0,0,0,0,0,0,0,0,0,0,0,0,0,,,,,,,,,,,,,
5166184,1745473765217,0.0,127,,-0.17,-0.01,0.88,0,-0,-0,0.89,1.32,68,3432,14.0,4.08,,13.77,1.249,89.8,,24.5,5,0,0,0,0,3.0,0.0,0.0,0.0,2.26,,,0,0,0,0,0,0,0,0,0,0,0,0,0,0,0,0,,0,,,,0.0,38.994095,-76.939652,0.21,26.5,30,3,0.9
5166204,1745473765237,,,,,,,,,,,,,,,,,,,,,,,,,,,,,,,,,,0,0,0,0,0,0,0,0,0,0,0,0,0,0,0,0,,,,,,,,,,,,,
5166224,1745473765257,0.0,127,,-0.15,0.01,0.9,-1,-0,-0,0.91,1.32,69,3621,14.4,4.08,,13.68,1.249,89.8,,24.5,5,,,,,,,,,,,,0,0,0,0,0,0,0,0,0,0,0,0,0,0,0,0,,,,,,0.0,,,,,,,
5166244,1745473765277,,,,,,,,,,,,,,,,,,,,,,,,,,,,,,,,,,0,0,0,0,0,0,0,0,0,0,0,0,0,0,0,0,,,,,,,,,,,,,
5166264,1745473765297,0.0,128,,-0.16,-0.01,0.88,-1,-0,-0,0.89,1.32,68,3703,15.4,4.08,,13.59,1.25,89.8,,24.5,5,,,,,,,,,,,,0,0,0,0,0,0,0,0,0,0,0,0,0,0,0,0,,,,,,0.0,,,,,,,
5166284,1745473765317,,,,,,,,,,,,,,,,,,,,,,,0,0,0,0,3.0,0.0,0.0,0.0,2.26,,,0,0,0,0,0,0,0,0,0,0,0,0,0,0,0,0,,0,,,,,38.994095,-76.939652,0.17,26.5,30,3,0.9
5166304,1745473765337,0.0,128,,-0.16,0.02,0.9,1,-0,-0,0.91,1.32,69,3945,15.8,4.05,,13.64,1.251,89.8,,26.3,5,,,,,,,,,,,,0,0,0,0,0,0,0,0,0,0,0,0,0,0,0,0,,,,,,0.0,,,,,,,
5166324,1745473765357,,,,,,,,,,,,,,,,,,,,,,,,,,,,,,,,,,0,0,0,0,0,0,0,0,0,0,0,0,0,0,0,0,,,,,,,,,,,,,
5166344,1745473765377,0.0,128,,-0.15,0.06,0.99,0,-0,0,1.0,1.32,76,3993,16.1,4.01,,13.64,1.251,89.8,,26.3,5,,,,,,,,,,,,0,0,0,0,0,0,0,0,0,0,0,0,0,0,0,0,,,,,,0.0,,,,,,,
5166364,1745473765397,,,,,,,,,,,,,,,,,,,,,,,,,,,,,,,,,,0,0,0,0,0,0,0,0,0,0,0,0,0,0,0,0,,,,,,,,,,,,,
5166384,1745473765417,0.0,128,13.37,-0.15,-0.05,0.89,-2,-0,-0,0.9,1.32,69,3993,16.1,4.01,15,13.48,1.249,89.8,167,28.0,5,0,0,0,0,3.0,0.0,0.0,0.0,2.26,0,1.0,0,0,0,0,0,0,0,0,0,0,0,0,0,0,0,0,0,0,1.0,0,0,0.0,38.994095,-76.939652,0.07,26.5,30,3,0.9
5166404,1745473765437,,,,,,,,,,,,,,,,,,,,,,,,,,,,,,,,,,0,0,0,0,0,0,0,0,0,0,0,0,0,0,0,0,,,,,,,,,,,,,
5166424,1745473765457,0.0,128,,-0.16,0.03,1.0,-0,-0,0,1.01,1.32,77,4105,16.4,4.04,,13.33,1.252,89.8,,28.0,5,,,,,,,,,,,,0,0,0,0,0,0,0,0,0,0,0,0,0,0,0,0,,,,,,0.0,,,,,,,
5166444,1745473765477,,,,,,,,,,,,,,,,,,,,,,,,,,,,,,,,,,0,0,0,0,0,0,0,0,0,0,0,0,0,0,0,0,,,,,,,,,,,,,
5166464,1745473765497,0.0,128,,-0.16,-0.0,0.97,1,-0,-0,0.98,1.32,75,4244,16.5,4.04,,13.36,1.251,89.8,,28.0,5,,,,,,,,,,,,0,0,0,0,0,0,0,0,0,0,0,0,0,0,0,0,,,,,,0.0,,,,,,,
5166484,1745473765517,,,,,,,,,,,,,,,,,,,,,,,0,0,0,0,3.0,0.0,0.0,0.0,2.26,,,0,0,0,0,0,0,0,0,0,0,0,0,0,0,0,0,,0,,,,,38.994095,-76.939652,0.05,26.5,30,3,0.9
5166504,1745473765537,0.0,128,,-0.11,-0.09,0.91,-1,-0,-0,0.93,1.32,70,4287,16.5,4.05,,13.37,1.249,89.8,,29.7,5,,,,,,,,,,,,0,0,0,0,0,0,0,0,0,0,0,0,0,0,0,0,,,,,,0.0,,,,,,,
5166524,1745473765557,,,,,,,,,,,,,,,,,,,,,,,,,,,,,,,,,,0,0,0,0,0,0,0,0,0,0,0,0,0,0,0,0,,,,,,,,,,,,,
5166544,1745473765577,0.0,127,,-0.13,-0.05,0.96,-2,-0,0,0.97,1.32,74,4357,16.3,4.07,,13.37,1.249,89.8,,29.7,5,,,,,,,,,,,,0,0,0,0,0,0,0,0,0,0,0,0,0,0,0,0,,,,,,0.0,,,,,,,
5166564,1745473765597,,,,,,,,,,,,,,,,,,,,,,,,,,,,,,,,,,0,0,0,0,0,0,0,0,0,0,0,0,0,0,0,0,,,,,,,,,,,,,
5166584,1745473765617,0.0,128,,-0.16,0.02,1.05,-2,-0,0,1.06,1.32,81,4357,16.3,4.07,,13.35,1.249,89.8,,30.8,5,0,0,0,0,3.0,0.0,0.0,0.0,2.27,,,0,0,0,0,0,0,0,0,0,0,0,0,0,0,0,0,,0,,,,0.0,38.994095,-76.939652,0.04,26.5,30,3,0.9
5166604,1745473765637,,,,,,,,,,,,,,,,,,,,,,,,,,,,,,,,,,0,0,0,0,0,0,0,0,0,0,0,0,0,0,0,0,,,,,,,,,,,,,
5166624,1745473765657,0.0,127,,-0.17,0.09,1.12,-2,-0,1,1.14,1.32,87,4433,16.1,4.1,,13.27,1.248,89.8,,30.8,5,,,,,,,,,,,,0,0,0,0,0,0,0,0,0,0,0,0,0,0,0,0,,,,,,0.0,,,,,,,
5166644,1745473765677,,,,,,,,,,,,,,,,,,,,,,,,,,,,,,,,,,0,0,0,0,0,0,0,0,0,0,0,0,0,0,0,0,,,,,,,,,,,,,
5166664,1745473765697,0.0,128,,-0.19,0.09,1.14,-3,-0,1,1.16,1.32,88,4546,16.1,4.09,,13.21,1.248,89.8,,30.8,5,,,,,,,,,,,,0,0,0,0,0,0,0,0,0,0,0,0,0,0,0,0,,,,,,0.0,,,,,,,
5166684,1745473765717,,,,,,,,,,,,,,,,,,,,,,,0,0,0,0,3.0,0.0,0.0,0.0,2.27,,,0,0,0,0,0,0,0,0,0,0,0,0,0,0,0,0,,0,,,,,38.994095,-76.939652,0.0,26.5,30,3,0.9
5166704,1745473765737,0.0,128,,-0.18,0.01,1.09,-4,-0,1,1.11,1.32,84,4607,16.0,4.1,,13.15,1.249,89.8,,31.9,5,,,,,,,,,,,,0,0,0,0,0,0,0,0,0,0,0,0,0,0,0,0,,,,,,0.0,,,,,,,
5166724,1745473765757,,,,,,,,,,,,,,,,,,,,,,,,,,,,,,,,,,0,0,0,0,0,0,0,0,0,0,0,0,0,0,0,0,,,,,,,,,,,,,
5166744,1745473765777,0.0,127,,-0.16,0.0,1.0,-4,-0,0,1.02,1.32,77,4688,16.0,4.09,,13.15,1.249,89.8,,31.9,5,,,,,,,,,,,,0,0,0,0,0,0,0,0,0,0,0,0,0,0,0,0,,,,,,0.0,,,,,,,
5166764,1745473765797,,,,,,,,,,,,,,,,,,,,,,,,,,,,,,,,,,0,0,0,0,0,0,0,0,0,0,0,0,0,0,0,0,,,,,,,,,,,,,
5166784,1745473765817,0.0,128,,-0.13,-0.01,1.01,-2,-0,0,1.02,1.32,78,4688,16.0,4.09,,13.21,1.245,89.8,,32.7,5,0,0,0,0,3.0,0.0,0.0,0.0,2.26,,,0,0,0,0,0,0,0,0,0,0,0,0,0,0,0,0,,0,,,,0.0,38.994095,-76.939652,0.04,26.5,30,3,0.9
5166804,1745473765837,,,,,,,,,,,,,,,,,,,,,,,,,,,,,,,,,,0,0,0,0,0,0,0,0,0,0,0,0,0,0,0,0,,,,,,,,,,,,,
5166824,1745473765857,0.0,128,,-0.15,0.02,1.07,-2,-0,0,1.08,1.32,82,4715,16.2,4.11,,13.13,1.251,89.8,,32.7,5,,,,,,,,,,,,0,0,0,0,0,0,0,0,0,0,0,0,0,0,0,0,,,,,,0.0,,,,,,,
5166844,1745473765877,,,,,,,,,,,,,,,,,,,,,,,,,,,,,,,,,,0,0,0,0,0,0,0,0,0,0,0,0,0,0,0,0,,,,,,,,,,,,,
5166864,1745473765897,0.0,128,,-0.13,-0.05,0.99,-2,-0,0,1.0,1.32,76,4769,16.4,4.12,,13.17,1.228,89.8,,32.7,5,,,,,,,,,,,,0,0,0,0,0,0,0,0,0,0,0,0,0,0,0,0,,,,,,0.0,,,,,,,
5166884,1745473765918,,,,,,,,,,,,,,,,,,,,,,,0,0,0,0,3.0,0.0,0.0,0.0,2.26,,,0,0,0,0,0,0,0,0,0,0,0,0,0,0,0,0,,0,,,,,38.994095,-76.939652,0.08,26.5,30,3,0.9
5166904,1745473765938,0.0,128,,-0.12,-0.01,1.04,-1,-0,0,1.05,1.32,80,4824,16.4,4.12,,13.09,1.229,89.8,,33.4,5,,,,,,,,,,,,0,0,0,0,0,0,0,0,0,0,0,0,0,0,0,0,,,,,,0.0,,,,,,,
5166924,1745473765958,,,,,,,,,,,,,,,,,,,,,,,,,,,,,,,,,,0,0,0,0,0,0,0,0,0,0,0,0,0,0,0,0,,,,,,,,,,,,,
5166944,1745473765978,0.0,127,,-0.12,-0.07,1.02,-2,-0,-0,1.03,1.32,78,4858,16.4,4.12,,13.09,1.229,89.8,,33.4,5,,,,,,,,,,,,0,0,0,0,0,0,0,0,0,0,0,0,0,0,0,0,,,,,,0.0,,,,,,,
5166964,1745473765998,,,,,,,,,,,,,,,,,,,,,,,,,,,,,,,,,,0,0,0,0,0,0,0,0,0,0,0,0,0,0,0,0,,,,,,,,,,,,,
