"Interval"|"ms"|0|0|1,"Utc"|"ms"|0|0|1,"FrontBP"|"psi"|-5.0|5.0|25,"SteerAng"|"Degrees"|-145|145|25,"Battery"|"Volts"|-5.0|20.0|1,"AccelX"|"G"|-3.0|3.0|25,"AccelY"|"G"|-3.0|3.0|25,"AccelZ"|"G"|-3.0|3.0|25,"Yaw"|"Deg/Sec"|-120|120|25,"Pitch"|"Deg/Sec"|-120|120|25,"Roll"|"Deg/Sec"|-120|120|25,"Gsum"|"G"|0.0|3.0|25,"GsumMax"|"G"|0.0|3.0|25,"GsumPct"|"%"|0|100|25,"RPM"|""|0|10000|25,"TPS"|"%"|0.0|100.0|25,"InjectorPW"|"ms"|0.0|100.0|25,"Baro"|"kPa"|0|105|1,"MAP"|"Psi"|0.0|255.0|25,"Lambda"|""|-2.0|2.0|25,"IAT"|"C"|0.0|200.0|25,"EngineTemp"|"C"|0|200|1,"EOP"|"PSI"|0.0|152.0|25,"EOT"|"F"|0|250|25,"WSFR"|"MPH"|0|150|10,"WSFL"|"MPH"|0|100|10,"WSRR"|"MPH"|0|100|10,"WSRL"|""|0|100|10,"TCSet"|"%"|0.0|100.0|10,"TCSlip"|"%"|0.0|100.0|10,"TCComp"|"deg"|0.0|50.0|10,"TCCut"|"%"|0.0|100.0|10,"Analog8"|""|0.0|5.0|10,"OilTemp"|"F"|0|300|1,"AA_On"|""|0.0|1.0|1,"ThermLF1"|"C"|0|400|50,"ThermLF2"|"C"|0|400|50,"ThermRR1"|"C"|0|400|50,"ThermRR2"|"C"|0|400|50,"ThermLF3"|"C"|0|400|50,"ThermLF4"|"C"|0|400|50,"ThermLF5"|"C"|0|400|50,"ThermLF6"|"C"|0|400|50,"ThermLF7"|"C"|0|400|50,"ThermLF8"|"C"|0|400|50,"ThermRR3"|"C"|0|400|50,"ThermRR4"|"C"|0|400|50,"ThermRR5"|"C"|0|400|50,"ThermRR6"|"C"|0|400|50,"ThermRR7"|"C"|0|400|50,"ThermRR8"|"C"|0|400|50,"AA_LowDrag"|""|0|1|1,"Gear"|""|1|6|10,"AA_On"|""|0.0|1.0|1,"AA_LowDrag"|""|0|1|1,"Fuel_Mix"|""|-10|10|1,"AA_Packages"|""|0.0|1000.0|25,"Latitude"|"Degrees"|-180.0|180.0|10,"Longitude"|"Degrees"|-180.0|180.0|10,"Speed"|"kph"|0.0|150.0|10,"Altitude"|"m"|0.0|4000.0|10,"GPSSats"|""|0|20|10,"GPSQual"|""|0|5|10,"GPSDOP"|""|0.0|20.0|10
4594604,1745473193626,,,,,,,,,,,,,,,,,,,,,,,,,,,,,,,,,,0,0,0,0,0,0,0,0,0,0,0,0,0,0,0,0,,,,,,,,,,,,,
4594624,1745473193646,0.0,64,,-0.07,0.03,1.03,-0,-0,0,1.03,1.03,100,4831,0.4,1.9,,10.4,1.139,97.0,,43.0,5,,,,,,,,,,,,0,0,0,0,0,0,0,0,0,0,0,0,0,0,0,0,,,,,,0.0,,,,,,,
4594644,1745473193666,,,,,,,,,,,,,,,,,,,,,,,,,,,,,,,,,,0,0,0,0,0,0,0,0,0,0,0,0,0,0,0,0,,,,,,,,,,,,,
4594664,1745473193686,0.0,51,,-0.04,0.02,1.02,1,-0,-0,1.02,1.03,99,4571,0.2,1.86,,10.44,1.118,97.0,,43.0,5,,,,,,,,,,,,0,0,0,0,0,0,0,0,0,0,0,0,0,0,0,0,,,,,,0.0,,,,,,,
4594684,1745473193708,,,,,,,,,,,,,,,,,,,,,,,0,0,0,0,0.0,0.0,0.0,0.0,2.28,,,0,0,0,0,0,0,0,0,0,0,0,0,0,0,0,0,,0,,,,,38.994099,-76.939652,0.06,26.8,31,3,0.9
4594704,1745473193728,0.0,37,,-0.02,-0.06,0.92,1,-0,-1,0.92,1.03,89,4326,14.9,3.56,,11.46,1.12,97.0,,43.0,5,,,,,,,,,,,,0,0,0,0,0,0,0,0,0,0,0,0,0,0,0,0,,,,,,0.0,,,,,,,
4594724,1745473193748,,,,,,,,,,,,,,,,,,,,,,,,,,,,,,,,,,0,0,0,0,0,0,0,0,0,0,0,0,0,0,0,0,,,,,,,,,,,,,
4594744,1745473193768,0.0,51,,-0.02,-0.02,1.0,0,-0,-0,1.0,1.03,97,4108,25.4,4.53,,11.46,1.12,97.0,,37.9,5,,,,,,,,,,,,0,0,0,0,0,0,0,0,0,0,0,0,0,0,0,0,,,,,,0.0,,,,,,,
4594764,1745473193788,,,,,,,,,,,,,,,,,,,,,,,,,,,,,,,,,,0,0,0,0,0,0,0,0,0,0,0,0,0,0,0,0,,,,,,,,,,,,,
4594784,1745473193808,0.0,41,,-0.01,-0.0,0.98,1,-0,-1,0.98,1.03,95,4108,25.4,4.53,,12.93,1.157,97.0,,37.9,5,0,0,0,0,0.0,0.0,0.0,0.0,2.28,,,0,0,0,0,0,0,0,0,0,0,0,0,0,0,0,0,,0,,,,0.0,38.994099,-76.939652,0.04,26.8,31,3,0.9
4594804,1745473193828,,,,,,,,,,,,,,,,,,,,,,,,,,,,,,,,,,0,0,0,0,0,0,0,0,0,0,0,0,0,0,0,0,,,,,,,,,,,,,
4594824,1745473193848,0.0,51,,-0.01,-0.09,0.89,1,-0,-1,0.89,1.03,86,4319,34.6,4.81,,13.94,1.251,97.0,,38.9,5,,,,,,,,,,,,0,0,0,0,0,0,0,0,0,0,0,0,0,0,0,0,,,,,,0.0,,,,,,,
4594844,1745473193868,,,,,,,,,,,,,,,,,,,,,,,,,,,,,,,,,,0,0,0,0,0,0,0,0,0,0,0,0,0,0,0,0,,,,,,,,,,,,,
4594864,1745473193888,0.0,47,,-0.03,-0.15,0.83,0,-0,-1,0.84,1.03,82,4429,36.6,4.46,,14.1,1.251,97.0,,38.9,5,,,,,,,,,,,,0,0,0,0,0,0,0,0,0,0,0,0,0,0,0,0,,,,,,0.0,,,,,,,
4594884,1745473193909,,,,,,,,,,,,,,,,,,,,,,,0,0,0,0,0.0,0.0,0.0,0.0,2.28,,,0,0,0,0,0,0,0,0,0,0,0,0,0,0,0,0,,0,,,,,38.994099,-76.939652,0.08,26.8,31,3,0.9
4594904,1745473193929,0.0,51,,-0.05,-0.2,0.79,-0,-0,-1,0.82,1.03,79,4609,32.1,4.96,,13.98,1.252,97.0,,38.9,5,,,,,,,,,,,,0,0,0,0,0,0,0,0,0,0,0,0,0,0,0,0,,,,,,0.0,,,,,,,
4594924,1745473193949,,,,,,,,,,,,,,,,,,,,,,,,,,,,,,,,,,0,0,0,0,0,0,0,0,0,0,0,0,0,0,0,0,,,,,,,,,,,,,
4594944,1745473193969,0.0,47,,-0.04,-0.2,0.76,1,-0,-1,0.79,1.03,76,4668,11.3,4.03,,13.98,1.252,97.0,,41.4,5,,,,,,,,,,,,0,0,0,0,0,0,0,0,0,0,0,0,0,0,0,0,,,,,,0.0,,,,,,,
4594964,1745473193989,,,,,,,,,,,,,,,,,,,,,,,,,,,,,,,,,,0,0,0,0,0,0,0,0,0,0,0,0,0,0,0,0,,,,,,,,,,,,,
4594984,1745473194009,0.0,54,,-0.04,-0.16,0.85,1,-0,-0,0.87,1.03,85,4668,11.3,4.03,,13.2,1.251,97.0,,41.4,5,0,0,0,0,0.0,0.0,0.0,0.0,2.29,,,0,0,0,0,0,0,0,0,0,0,0,0,0,0,0,0,,0,,,,0.0,38.994099,-76.939652,0.08,26.8,31,3,0.9
4595004,1745473194020,,,,,,,,,,,,,,,,,,,,,,,,,,,,,,,,,,0,0,0,0,0,0,0,0,0,0,0,0,0,0,0,0,,,,,,,,,,,,,
4595024,1745473194040,0.0,47,,-0.05,-0.21,0.83,0,-0,-0,0.85,1.03,83,4853,4.5,3.74,,12.41,1.251,97.0,,43.7,5,,,,,,,,,,,,0,0,0,0,0,0,0,0,0,0,0,0,0,0,0,0,,,,,,0.0,,,,,,,
4595044,1745473194060,,,,,,,,,,,,,,,,,,,,,,,,,,,,,,,,,,0,0,0,0,0,0,0,0,0,0,0,0,0,0,0,0,,,,,,,,,,,,,
4595064,1745473194080,0.0,51,,-0.04,-0.12,0.91,1,-0,-0,0.92,1.03,89,4870,0.8,2.68,,11.75,1.251,95.2,,43.7,5,,,,,,,,,,,,0,0,0,0,0,0,0,0,0,0,0,0,0,0,0,0,,,,,,0.0,,,,,,,
4595084,1745473194108,,,,,,,,,,,,,,,,,,,,,,,0,0,0,0,0.0,0.0,0.0,0.0,2.29,,,0,0,0,0,0,0,0,0,0,0,0,0,0,0,0,0,,0,,,,,38.994099,-76.939652,0.07,26.8,31,3,0.9
4595104,1745473194128,0.0,44,,-0.07,-0.17,0.88,-0,-0,-0,0.9,1.03,87,4786,0.5,2.56,,11.26,1.252,95.2,,43.7,5,,,,,,,,,,,,0,0,0,0,0,0,0,0,0,0,0,0,0,0,0,0,,,,,,0.0,,,,,,,
4595124,1745473194148,,,,,,,,,,,,,,,,,,,,,,,,,,,,,,,,,,0,0,0,0,0,0,0,0,0,0,0,0,0,0,0,0,,,,,,,,,,,,,
4595144,1745473194168,0.0,47,,-0.06,-0.19,0.83,1,-0,-0,0.85,1.03,83,4642,0.4,2.52,,11.26,1.252,95.2,,43.3,5,,,,,,,,,,,,0,0,0,0,0,0,0,0,0,0,0,0,0,0,0,0,,,,,,0.0,,,,,,,
4595164,1745473194188,,,,,,,,,,,,,,,,,,,,,,,,,,,,,,,,,,0,0,0,0,0,0,0,0,0,0,0,0,0,0,0,0,,,,,,,,,,,,,
4595184,1745473194206,0.0,44,,-0.04,-0.2,0.78,2,-0,-1,0.81,1.03,78,4642,0.4,2.52,,11.0,1.253,95.2,,43.3,5,0,0,0,0,0.0,0.0,0.0,0.0,2.28,,,0,0,0,0,0,0,0,0,0,0,0,0,0,0,0,0,,0,,,,0.0,38.994099,-76.939652,0.06,26.8,31,3,0.9
4595204,1745473194226,,,,,,,,,,,,,,,,,,,,,,,,,,,,,,,,,,0,0,0,0,0,0,0,0,0,0,0,0,0,0,0,0,,,,,,,,,,,,,
4595224,1745473194246,0.0,51,,-0.02,-0.25,0.73,1,-0,-1,0.77,1.03,75,4469,0.4,2.3,,10.85,1.254,95.2,,39.9,5,,,,,,,,,,,,0,0,0,0,0,0,0,0,0,0,0,0,0,0,0,0,,,,,,0.0,,,,,,,
4595244,1745473194266,,,,,,,,,,,,,,,,,,,,,,,,,,,,,,,,,,0,0,0,0,0,0,0,0,0,0,0,0,0,0,0,0,,,,,,,,,,,,,
4595264,1745473194286,0.0,47,,-0.04,-0.23,0.78,1,-0,-0,0.81,1.03,79,4273,6.2,3.65,,11.16,1.253,95.2,,39.9,5,,,,,,,,,,,,0,0,0,0,0,0,0,0,0,0,0,0,0,0,0,0,,,,,,0.0,,,,,,,
4595284,1745473194308,,,,,,,,,,,,,,,,,,,,,,,0,0,0,0,0.0,0.0,0.0,0.0,2.28,,,0,0,0,0,0,0,0,0,0,0,0,0,0,0,0,0,,0,,,,,38.994099,-76.939652,0.0,26.8,31,3,0.9
4595304,1745473194328,0.0,61,,-0.05,-0.11,0.85,1,-0,-0,0.86,1.03,84,4253,14.2,3.33,,12.03,1.252,95.2,,39.9,5,,,,,,,,,,,,0,0,0,0,0,0,0,0,0,0,0,0,0,0,0,0,,,,,,0.0,,,,,,,
4595324,1745473194348,,,,,,,,,,,,,,,,,,,,,,,,,,,,,,,,,,0,0,0,0,0,0,0,0,0,0,0,0,0,0,0,0,,,,,,,,,,,,,
4595344,1745473194368,0.0,47,,-0.06,-0.19,0.8,0,-0,-0,0.83,1.03,80,4099,19.3,4.15,,12.03,1.252,95.2,,37.4,5,,,,,,,,,,,,0,0,0,0,0,0,0,0,0,0,0,0,0,0,0,0,,,,,,0.0,,,,,,,
4595364,1745473194388,,,,,,,,,,,,,,,,,,,,,,,,,,,,,,,,,,0,0,0,0,0,0,0,0,0,0,0,0,0,0,0,0,,,,,,,,,,,,,
4595384,1745473194408,0.0,47,13.31,-0.07,-0.16,0.81,0,-0,-0,0.83,1.03,81,4099,19.3,4.15,15,12.95,1.252,95.2,165,37.4,5,0,0,0,0,0.0,0.0,0.0,0.0,2.28,0,1.0,0,0,0,0,0,0,0,0,0,0,0,0,0,0,0,0,0,0,1.0,0,-0,0.0,38.994099,-76.939652,0.05,26.9,31,3,0.9
4595404,1745473194428,,,,,,,,,,,,,,,,,,,,,,,,,,,,,,,,,,0,0,0,0,0,0,0,0,0,0,0,0,0,0,0,0,,,,,,,,,,,,,
4595424,1745473194448,0.0,47,,-0.08,-0.17,0.86,-0,-0,0,0.88,1.03,85,4022,21.1,4.27,,13.48,1.252,95.2,,35.9,5,,,,,,,,,,,,0,0,0,0,0,0,0,0,0,0,0,0,0,0,0,0,,,,,,0.0,,,,,,,
4595444,1745473194468,,,,,,,,,,,,,,,,,,,,,,,,,,,,,,,,,,0,0,0,0,0,0,0,0,0,0,0,0,0,0,0,0,,,,,,,,,,,,,
4595464,1745473194488,0.0,41,,-0.09,-0.26,0.74,-2,-0,-0,0.79,1.03,77,4046,21.6,4.3,,13.67,1.252,95.2,,35.9,5,,,,,,,,,,,,0,0,0,0,0,0,0,0,0,0,0,0,0,0,0,0,,,,,,0.0,,,,,,,
4595484,1745473194507,,,,,,,,,,,,,,,,,,,,,,,0,0,0,0,0.0,0.0,0.0,0.0,2.29,,,0,0,0,0,0,0,0,0,0,0,0,0,0,0,0,0,,0,,,,,38.994099,-76.939652,0.09,26.9,31,3,0.9
4595504,1745473194527,0.0,44,,-0.08,-0.12,0.87,-0,-0,-0,0.88,1.03,86,4174,19.4,4.3,,13.67,1.252,95.2,,35.9,5,,,,,,,,,,,,0,0,0,0,0,0,0,0,0,0,0,0,0,0,0,0,,,,,,0.0,,,,,,,
4595524,1745473194547,,,,,,,,,,,,,,,,,,,,,,,,,,,,,,,,,,0,0,0,0,0,0,0,0,0,0,0,0,0,0,0,0,,,,,,,,,,,,,
4595544,1745473194567,0.0,44,,-0.06,-0.16,0.83,-0,-0,-1,0.85,1.03,83,4257,8.8,3.84,,13.59,1.252,95.2,,37.3,5,,,,,,,,,,,,0,0,0,0,0,0,0,0,0,0,0,0,0,0,0,0,,,,,,0.0,,,,,,,
4595564,1745473194587,,,,,,,,,,,,,,,,,,,,,,,,,,,,,,,,,,0,0,0,0,0,0,0,0,0,0,0,0,0,0,0,0,,,,,,,,,,,,,
4595584,1745473194607,0.0,61,,-0.05,-0.22,0.8,-1,-0,-0,0.83,1.03,80,4257,8.8,3.84,,13.07,1.252,95.2,,37.3,5,0,0,0,0,0.0,0.0,0.0,0.0,2.29,,,0,0,0,0,0,0,0,0,0,0,0,0,0,0,0,0,,0,,,,0.0,38.994099,-76.939652,0.11,26.9,31,3,0.9
4595604,1745473194627,,,,,,,,,,,,,,,,,,,,,,,,,,,,,,,,,,0,0,0,0,0,0,0,0,0,0,0,0,0,0,0,0,,,,,,,,,,,,,
4595624,1745473194647,0.0,57,,-0.08,-0.14,0.88,-1,-0,0,0.89,1.03,87,4277,5.2,3.72,,12.55,1.252,95.2,,38.2,5,,,,,,,,,,,,0,0,0,0,0,0,0,0,0,0,0,0,0,0,0,0,,,,,,0.0,,,,,,,
4595644,1745473194667,,,,,,,,,,,,,,,,,,,,,,,,,,,,,,,,,,0,0,0,0,0,0,0,0,0,0,0,0,0,0,0,0,,,,,,,,,,,,,
4595664,1745473194687,0.0,37,,-0.07,-0.14,0.87,0,-0,-0,0.88,1.03,86,4287,4.2,3.68,,12.23,1.253,95.2,,38.2,5,,,,,,,,,,,,0,0,0,0,0,0,0,0,0,0,0,0,0,0,0,0,,,,,,0.0,,,,,,,
4595684,1745473194709,,,,,,,,,,,,,,,,,,,,,,,0,0,0,0,0.0,0.0,0.0,0.0,2.28,,,0,0,0,0,0,0,0,0,0,0,0,0,0,0,0,0,,0,,,,,38.994099,-76.939652,0.04,26.9,31,3,0.9
4595704,1745473194729,0.0,41,,-0.05,-0.17,0.83,-0,-0,-0,0.85,1.03,83,4298,4.0,3.65,,11.93,1.255,95.2,,38.2,5,,,,,,,,,,,,0,0,0,0,0,0,0,0,0,0,0,0,0,0,0,0,,,,,,0.0,,,,,,,
4595724,1745473194749,,,,,,,,,,,,,,,,,,,,,,,,,,,,,,,,,,0,0,0,0,0,0,0,0,0,0,0,0,0,0,0,0,,,,,,,,,,,,,
4595744,1745473194769,0.0,47,,-0.06,-0.07,0.93,-1,-0,0,0.93,1.03,90,4237,12.3,3.95,,11.93,1.255,95.2,,38.3,5,,,,,,,,,,,,0,0,0,0,0,0,0,0,0,0,0,0,0,0,0,0,,,,,,0.0,,,,,,,
4595764,1745473194789,,,,,,,,,,,,,,,,,,,,,,,,,,,,,,,,,,0,0,0,0,0,0,0,0,0,0,0,0,0,0,0,0,,,,,,,,,,,,,
4595784,1745473194805,0.0,41,,-0.07,-0.04,0.92,1,-0,-0,0.92,1.03,89,4237,12.3,3.95,,12.33,1.253,95.2,,38.3,5,0,0,0,0,0.0,0.0,0.0,0.0,2.28,,,0,0,0,0,0,0,0,0,0,0,0,0,0,0,0,0,,0,,,,0.0,38.994099,-76.939652,0.34,26.9,31,3,0.9
4595804,1745473194825,,,,,,,,,,,,,,,,,,,,,,,,,,,,,,,,,,0,0,0,0,0,0,0,0,0,0,0,0,0,0,0,0,,,,,,,,,,,,,
4595824,1745473194845,0.0,47,,-0.07,-0.12,0.87,-1,-0,-0,0.88,1.03,85,4180,19.6,4.15,,13.04,1.252,95.2,,37.4,5,,,,,,,,,,,,0,0,0,0,0,0,0,0,0,0,0,0,0,0,0,0,,,,,,0.0,,,,,,,
4595844,1745473194865,,,,,,,,,,,,,,,,,,,,,,,,,,,,,,,,,,0,0,0,0,0,0,0,0,0,0,0,0,0,0,0,0,,,,,,,,,,,,,
4595864,1745473194885,0.0,44,,-0.07,0.0,0.99,-0,-0,0,0.99,1.03,96,4225,21.1,4.31,,13.4,1.231,95.2,,37.4,5,,,,,,,,,,,,0,0,0,0,0,0,0,0,0,0,0,0,0,0,0,0,,,,,,0.0,,,,,,,
4595884,1745473194907,,,,,,,,,,,,,,,,,,,,,,,0,0,0,0,0.0,0.0,0.0,0.0,2.29,,,0,0,0,0,0,0,0,0,0,0,0,0,0,0,0,0,,0,,,,,38.994099,-76.939652,0.34,26.9,31,3,0.9
4595904,1745473194927,0.0,54,,-0.07,0.04,1.01,0,-0,0,1.01,1.03,98,4343,21.4,4.27,,13.51,1.246,95.2,,37.4,5,,,,,,,,,,,,0,0,0,0,0,0,0,0,0,0,0,0,0,0,0,0,,,,,,0.0,,,,,,,
4595924,1745473194947,,,,,,,,,,,,,,,,,,,,,,,,,,,,,,,,,,0,0,0,0,0,0,0,0,0,0,0,0,0,0,0,0,,,,,,,,,,,,,
4595944,1745473194967,0.0,61,,-0.05,0.01,0.95,2,-0,-0,0.95,1.03,93,4460,15.0,4.08,,13.51,1.246,95.2,,39.3,5,,,,,,,,,,,,0,0,0,0,0,0,0,0,0,0,0,0,0,0,0,0,,,,,,0.0,,,,,,,
4595964,1745473194987,,,,,,,,,,,,,,,,,,,,,,,,,,,,,,,,,,0,0,0,0,0,0,0,0,0,0,0,0,0,0,0,0,,,,,,,,,,,,,
4595984,1745473195007,0.0,44,,-0.03,-0.04,0.88,3,-0,-0,0.89,1.03,86,4460,15.0,4.08,,13.35,1.252,95.2,,39.3,5,0,0,0,0,0.0,0.0,0.0,0.0,2.29,,,0,0,0,0,0,0,0,0,0,0,0,0,0,0,0,0,,0,,,,0.0,38.994099,-76.939652,0.34,26.9,31,3,0.9
4596004,1745473195019,,,,,,,,,,,,,,,,,,,,,,,,,,,,,,,,,,0,0,0,0,0,0,0,0,0,0,0,0,0,0,0,0,,,,,,,,,,,,,
4596024,1745473195039,0.0,47,,-0.01,-0.05,0.85,4,-0,-1,0.85,1.03,82,4566,13.0,3.93,,13.0,1.252,95.2,,41.4,5,,,,,,,,,,,,0,0,0,0,0,0,0,0,0,0,0,0,0,0,0,0,,,,,,0.0,,,,,,,
4596044,1745473195059,,,,,,,,,,,,,,,,,,,,,,,,,,,,,,,,,,0,0,0,0,0,0,0,0,0,0,0,0,0,0,0,0,,,,,,,,,,,,,
4596064,1745473195079,0.0,47,,0.01,-0.05,0.86,5,-0,-1,0.86,1.03,84,4590,12.7,3.89,,12.95,1.252,95.2,,41.4,5,,,,,,,,,,,,0,0,0,0,0,0,0,0,0,0,0,0,0,0,0,0,,,,,,0.0,,,,,,,
4596084,1745473195105,,,,,,,,,,,,,,,,,,,,,,,0,0,0,0,0.0,0.0,0.0,0.0,2.28,,,0,0,0,0,0,0,0,0,0,0,0,0,0,0,0,0,,0,,,,,38.994099,-76.939652,0.12,26.9,31,3,0.9
4596104,1745473195125,0.0,44,,0.01,0.01,0.94,5,-0,-0,0.94,1.03,91,4538,12.7,3.89,,12.81,1.252,95.2,,41.4,5,,,,,,,,,,,,0,0,0,0,0,0,0,0,0,0,0,0,0,0,0,0,,,,,,0.0,,,,,,,
4596124,1745473195145,,,,,,,,,,,,,,,,,,,,,,,,,,,,,,,,,,0,0,0,0,0,0,0,0,0,0,0,0,0,0,0,0,,,,,,,,,,,,,
4596144,1745473195165,0.0,37,,0.0,0.07,1.04,4,-0,-0,1.04,1.04,100,4578,12.7,3.87,,12.81,1.252,95.2,,41.8,5,,,,,,,,,,,,0,0,0,0,0,0,0,0,0,0,0,0,0,0,0,0,,,,,,0.0,,,,,,,
4596164,1745473195185,,,,,,,,,,,,,,,,,,,,,,,,,,,,,,,,,,0,0,0,0,0,0,0,0,0,0,0,0,0,0,0,0,,,,,,,,,,,,,
4596184,1745473195209,0.0,41,,-0.03,0.09,1.09,2,-0,0,1.1,1.1,100,4578,12.7,3.87,,12.76,1.253,95.2,,41.8,5,0,0,0,0,0.0,0.0,0.0,0.0,2.29,,,0,0,0,0,0,0,0,0,0,0,0,0,0,0,0,0,,0,,,,0.0,38.994099,-76.939652,0.16,26.9,31,3,0.9
4596204,1745473195229,,,,,,,,,,,,,,,,,,,,,,,,,,,,,,,,,,0,0,0,0,0,0,0,0,0,0,0,0,0,0,0,0,,,,,,,,,,,,,
4596224,1745473195249,0.0,47,,-0.06,0.06,1.08,1,-0,0,1.09,1.1,99,4558,12.8,3.88,,12.77,1.255,95.2,,41.4,5,,,,,,,,,,,,0,0,0,0,0,0,0,0,0,0,0,0,0,0,0,0,,,,,,0.0,,,,,,,
4596244,1745473195269,,,,,,,,,,,,,,,,,,,,,,,,,,,,,,,,,,0,0,0,0,0,0,0,0,0,0,0,0,0,0,0,0,,,,,,,,,,,,,
4596264,1745473195289,0.0,61,,-0.08,-0.02,1.01,-1,-0,0,1.01,1.1,92,4564,13.0,3.87,,12.75,1.253,95.2,,41.4,5,,,,,,,,,,,,0,0,0,0,0,0,0,0,0,0,0,0,0,0,0,0,,,,,,0.0,,,,,,,
4596284,1745473195307,,,,,,,,,,,,,,,,,,,,,,,0,0,0,0,0.0,0.0,0.0,0.0,2.29,,,0,0,0,0,0,0,0,0,0,0,0,0,0,0,0,0,,0,,,,,38.994099,-76.939652,0.12,26.9,31,3,0.9
4596304,1745473195327,0.0,41,,-0.08,-0.1,0.93,-1,-0,-0,0.94,1.1,85,4532,13.1,3.9,,12.69,1.252,95.2,,41.4,5,,,,,,,,,,,,0,0,0,0,0,0,0,0,0,0,0,0,0,0,0,0,,,,,,0.0,,,,,,,
4596324,1745473195347,,,,,,,,,,,,,,,,,,,,,,,,,,,,,,,,,,0,0,0,0,0,0,0,0,0,0,0,0,0,0,0,0,,,,,,,,,,,,,
4596344,1745473195367,0.0,44,,-0.06,-0.09,0.86,-0,-0,-0,0.87,1.1,79,4624,12.9,3.88,,12.69,1.252,95.2,,41.6,5,,,,,,,,,,,,0,0,0,0,0,0,0,0,0,0,0,0,0,0,0,0,,,,,,0.0,,,,,,,
4596364,1745473195387,,,,,,,,,,,,,,,,,,,,,,,,,,,,,,,,,,0,0,0,0,0,0,0,0,0,0,0,0,0,0,0,0,,,,,,,,,,,,,
4596384,1745473195409,0.0,51,13.35,-0.04,-0.06,0.88,1,-0,-1,0.88,1.1,80,4624,12.9,3.88,15,12.79,1.252,95.2,165,41.6,5,0,0,0,0,0.0,0.0,0.0,0.0,2.28,0,1.0,0,0,0,0,0,0,0,0,0,0,0,0,0,0,0,0,0,0,1.0,0,-0,0.0,38.994099,-76.939652,0.09,26.9,31,3,0.9
4596404,1745473195429,,,,,,,,,,,,,,,,,,,,,,,,,,,,,,,,,,0,0,0,0,0,0,0,0,0,0,0,0,0,0,0,0,,,,,,,,,,,,,
4596424,1745473195449,0.0,57,,-0.04,0.0,0.98,3,-0,-0,0.98,1.1,89,4624,12.7,3.89,,12.69,1.252,95.2,,41.9,5,,,,,,,,,,,,0,0,0,0,0,0,0,0,0,0,0,0,0,0,0,0,,,,,,0.0,,,,,,,
4596444,1745473195469,,,,,,,,,,,,,,,,,,,,,,,,,,,,,,,,,,0,0,0,0,0,0,0,0,0,0,0,0,0,0,0,0,,,,,,,,,,,,,
4596464,1745473195489,0.0,44,,-0.06,0.1,1.09,3,-0,0,1.09,1.1,99,4604,12.7,3.88,,12.68,1.253,95.2,,41.9,5,,,,,,,,,,,,0,0,0,0,0,0,0,0,0,0,0,0,0,0,0,0,,,,,,0.0,,,,,,,
4596484,1745473195508,,,,,,,,,,,,,,,,,,,,,,,0,0,0,0,0.0,0.0,0.0,0.0,2.29,,,0,0,0,0,0,0,0,0,0,0,0,0,0,0,0,0,,0,,,,,38.994099,-76.939652,0.05,26.9,31,3,0.9
4596504,1745473195528,0.0,44,,-0.09,0.08,1.11,2,-0,0,1.11,1.11,100,4622,12.7,3.88,,12.75,1.253,95.2,,41.9,5,,,,,,,,,,,,0,0,0,0,0,0,0,0,0,0,0,0,0,0,0,0,,,,,,0.0,,,,,,,
4596524,1745473195548,,,,,,,,,,,,,,,,,,,,,,,,,,,,,,,,,,0,0,0,0,0,0,0,0,0,0,0,0,0,0,0,0,,,,,,,,,,,,,
4596544,1745473195568,0.0,47,,-0.1,-0.01,1.06,0,-0,0,1.07,1.11,96,4613,12.8,3.87,,12.75,1.253,95.2,,42.0,5,,,,,,,,,,,,0,0,0,0,0,0,0,0,0,0,0,0,0,0,0,0,,,,,,0.0,,,,,,,
4596564,1745473195588,,,,,,,,,,,,,,,,,,,,,,,,,,,,,,,,,,0,0,0,0,0,0,0,0,0,0,0,0,0,0,0,0,,,,,,,,,,,,,
4596584,1745473195608,0.0,64,,-0.1,-0.04,1.0,-1,-0,0,1.0,1.11,90,4613,12.8,3.87,,12.79,1.253,95.2,,42.0,5,0,0,0,0,0.0,0.0,0.0,0.0,2.29,,,0,0,0,0,0,0,0,0,0,0,0,0,0,0,0,0,,0,,,,0.0,38.994099,-76.939652,0.14,26.9,31,3,0.9
4596604,1745473195628,,,,,,,,,,,,,,,,,,,,,,,,,,,,,,,,,,0,0,0,0,0,0,0,0,0,0,0,0,0,0,0,0,,,,,,,,,,,,,
4596624,1745473195648,0.0,57,,-0.08,-0.08,0.9,-2,-0,-0,0.91,1.11,82,4625,12.8,3.89,,12.69,1.253,95.2,,41.9,5,,,,,,,,,,,,0,0,0,0,0,0,0,0,0,0,0,0,0,0,0,0,,,,,,0.0,,,,,,,
4596644,1745473195668,,,,,,,,,,,,,,,,,,,,,,,,,,,,,,,,,,0,0,0,0,0,0,0,0,0,0,0,0,0,0,0,0,,,,,,,,,,,,,
4596664,1745473195688,0.0,44,,-0.05,-0.08,0.9,-1,-0,-0,0.9,1.11,81,4606,12.8,3.87,,12.75,1.255,95.2,,41.9,5,,,,,,,,,,,,0,0,0,0,0,0,0,0,0,0,0,0,0,0,0,0,,,,,,0.0,,,,,,,
4596684,1745473195708,,,,,,,,,,,,,,,,,,,,,,,0,0,0,0,0.0,0.0,0.0,0.0,2.28,,,0,0,0,0,0,0,0,0,0,0,0,0,0,0,0,0,,0,,,,,38.994099,-76.939652,0.05,26.9,31,3,0.9
4596704,1745473195728,0.0,51,,-0.06,-0.02,0.99,2,-0,-0,0.99,1.11,89,4608,12.8,3.88,,12.73,1.252,95.2,,41.9,5,,,,,,,,,,,,0,0,0,0,0,0,0,0,0,0,0,0,0,0,0,0,,,,,,0.0,,,,,,,
4596724,1745473195748,,,,,,,,,,,,,,,,,,,,,,,,,,,,,,,,,,0,0,0,0,0,0,0,0,0,0,0,0,0,0,0,0,,,,,,,,,,,,,
4596744,1745473195768,0.0,47,,-0.09,0.04,1.07,2,-0,0,1.08,1.11,97,4580,13.1,3.86,,12.73,1.252,95.2,,41.7,5,,,,,,,,,,,,0,0,0,0,0,0,0,0,0,0,0,0,0,0,0,0,,,,,,0.0,,,,,,,
4596764,1745473195788,,,,,,,,,,,,,,,,,,,,,,,,,,,,,,,,,,0,0,0,0,0,0,0,0,0,0,0,0,0,0,0,0,,,,,,,,,,,,,
4596784,1745473195806,0.0,34,,-0.11,0.03,1.09,1,-0,0,1.09,1.11,98,4580,13.1,3.86,,12.71,1.252,95.2,,41.7,5,0,0,0,0,0.0,0.0,0.0,0.0,2.29,,,0,0,0,0,0,0,0,0,0,0,0,0,0,0,0,0,,0,,,,0.0,38.994099,-76.939652,0.11,26.9,31,3,0.9
4596804,1745473195826,,,,,,,,,,,,,,,,,,,,,,,,,,,,,,,,,,0,0,0,0,0,0,0,0,0,0,0,0,0,0,0,0,,,,,,,,,,,,,
4596824,1745473195846,0.0,54,,-0.12,-0.03,1.04,-0,-0,0,1.05,1.11,94,4575,13.1,3.86,,12.73,1.253,95.2,,41.2,5,,,,,,,,,,,,0,0,0,0,0,0,0,0,0,0,0,0,0,0,0,0,,,,,,0.0,,,,,,,
4596844,1745473195866,,,,,,,,,,,,,,,,,,,,,,,,,,,,,,,,,,0,0,0,0,0,0,0,0,0,0,0,0,0,0,0,0,,,,,,,,,,,,,
4596864,1745473195886,0.0,54,,-0.1,-0.07,0.94,-2,-0,0,0.95,1.11,85,4579,13.3,3.89,,12.77,1.249,95.2,,41.2,5,,,,,,,,,,,,0,0,0,0,0,0,0,0,0,0,0,0,0,0,0,0,,,,,,0.0,,,,,,,
4596884,1745473195908,,,,,,,,,,,,,,,,,,,,,,,0,0,0,0,0.0,0.0,0.0,0.0,2.29,,,0,0,0,0,0,0,0,0,0,0,0,0,0,0,0,0,,0,,,,,38.994099,-76.939652,0.16,26.9,31,3,0.9
4596904,1745473195928,0.0,47,,-0.07,-0.11,0.88,-2,-0,-0,0.89,1.11,80,4582,19.6,4.2,,13.07,1.251,95.2,,41.2,5,,,,,,,,,,,,0,0,0,0,0,0,0,0,0,0,0,0,0,0,0,0,,,,,,0.0,,,,,,,
4596924,1745473195948,,,,,,,,,,,,,,,,,,,,,,,,,,,,,,,,,,0,0,0,0,0,0,0,0,0,0,0,0,0,0,0,0,,,,,,,,,,,,,
4596944,1745473195968,0.0,61,,-0.06,-0.09,0.93,-0,-0,-0,0.93,1.11,84,4582,19.6,4.2,,13.07,1.251,95.2,,41.5,5,,,,,,,,,,,,0,0,0,0,0,0,0,0,0,0,0,0,0,0,0,0,,,,,,0.0,,,,,,,
4596964,1745473195988,,,,,,,,,,,,,,,,,,,,,,,,,,,,,,,,,,0,0,0,0,0,0,0,0,0,0,0,0,0,0,0,0,,,,,,,,,,,,,
4596984,1745473196008,0.0,41,,-0.07,-0.05,0.98,0,-0,-0,0.98,1.11,88,4649,24.0,4.4,,13.48,1.252,95.2,,41.5,5,0,0,1,0,0.0,0.0,0.0,0.0,2.29,,,0,0,0,0,0,0,0,0,0,0,0,0,0,0,0,0,,0,,,,0.0,38.994099,-76.939652,0.16,26.9,31,3,0.9
4597004,1745473196019,,,,,,,,,,,,,,,,,,,,,,,,,,,,,,,,,,0,0,0,0,0,0,0,0,0,0,0,0,0,0,0,0,,,,,,,,,,,,,
4597024,1745473196039,0.0,61,,-0.07,-0.05,0.96,-0,-0,-0,0.96,1.11,87,4829,32.8,5.04,,13.86,1.253,95.2,,44.5,5,,,,,,,,,,,,0,0,0,0,0,0,0,0,0,0,0,0,0,0,0,0,,,,,,0.0,,,,,,,
4597044,1745473196059,,,,,,,,,,,,,,,,,,,,,,,,,,,,,,,,,,0,0,0,0,0,0,0,0,0,0,0,0,0,0,0,0,,,,,,,,,,,,,
4597064,1745473196079,0.0,47,,-0.06,-0.01,0.99,0,-0,0,1.0,1.11,90,5196,37.9,4.79,,13.92,1.253,95.2,,44.5,5,,,,,,,,,,,,0,0,0,0,0,0,0,0,0,0,0,0,0,0,0,0,,,,,,0.0,,,,,,,
4597084,1745473196108,,,,,,,,,,,,,,,,,,,,,,,0,0,1,0,0.0,0.0,0.0,0.0,2.29,,,0,0,0,0,0,0,0,0,0,0,0,0,0,0,0,0,,0,,,,,38.994099,-76.939652,0.05,26.9,31,3,0.9
4597104,1745473196128,0.0,41,,-0.06,-0.06,0.9,-1,-0,-0,0.9,1.11,81,5519,39.4,4.78,,13.91,1.252,95.2,,44.5,5,,,,,,,,,,,,0,0,0,0,0,0,0,0,0,0,0,0,0,0,0,0,,,,,,0.0,,,,,,,
4597124,1745473196148,,,,,,,,,,,,,,,,,,,,,,,,,,,,,,,,,,0,0,0,0,0,0,0,0,0,0,0,0,0,0,0,0,,,,,,,,,,,,,
4597144,1745473196168,0.0,44,,-0.11,0.01,1.01,1,-0,0,1.02,1.11,91,5917,39.5,4.78,,13.91,1.252,95.2,,46.0,5,,,,,,,,,,,,0,0,0,0,0,0,0,0,0,0,0,0,0,0,0,0,,,,,,0.0,,,,,,,
4597164,1745473196188,,,,,,,,,,,,,,,,,,,,,,,,,,,,,,,,,,0,0,0,0,0,0,0,0,0,0,0,0,0,0,0,0,,,,,,,,,,,,,
4597184,1745473196206,0.0,37,,-0.18,0.08,1.0,2,-0,0,1.02,1.11,92,5917,39.5,4.78,,13.79,1.254,95.2,,46.0,5,0,0,1,0,0.0,0.0,0.0,0.0,2.29,,,0,0,0,0,0,0,0,0,0,0,0,0,0,0,0,0,,0,,,,0.0,38.994099,-76.939652,0.05,26.9,31,3,0.9
4597204,1745473196226,,,,,,,,,,,,,,,,,,,,,,,,,,,,,,,,,,0,0,0,0,0,0,0,0,0,0,0,0,0,0,0,0,,,,,,,,,,,,,
4597224,1745473196246,0.0,44,,-0.14,0.01,0.99,1,-0,0,1.0,1.11,90,6355,39.8,5.05,,13.67,1.253,95.2,,47.7,5,,,,,,,,,,,,0,0,0,0,0,0,0,0,0,0,0,0,0,0,0,0,,,,,,0.0,,,,,,,
4597244,1745473196266,,,,,,,,,,,,,,,,,,,,,,,,,,,,,,,,,,0,0,0,0,0,0,0,0,0,0,0,0,0,0,0,0,,,,,,,,,,,,,
4597264,1745473196286,0.0,44,,-0.16,0.12,0.97,1,-1,0,0.99,1.11,89,7233,40.1,5.41,,13.47,1.251,95.2,,47.7,5,,,,,,,,,,,,0,0,0,0,0,0,0,0,0,0,0,0,0,0,0,0,,,,,,0.0,,,,,,,
4597284,1745473196307,,,,,,,,,,,,,,,,,,,,,,,0,0,1,0,0.0,0.0,0.0,0.0,2.28,,,0,0,0,0,0,0,0,0,0,0,0,0,0,0,0,0,,0,,,,,38.994099,-76.939652,0.05,26.9,31,3,0.9
4597304,1745473196327,0.0,51,,-0.14,0.07,1.05,2,-1,-0,1.06,1.11,95,8749,40.9,4.94,,12.84,1.09,95.2,,47.7,5,,,,,,,,,,,,0,0,0,0,0,0,0,0,0,0,0,0,0,0,0,0,,,,,,0.0,,,,,,,
4597324,1745473196347,,,,,,,,,,,,,,,,,,,,,,,,,,,,,,,,,,0,0,0,0,0,0,0,0,0,0,0,0,0,0,0,0,,,,,,,,,,,,,
4597344,1745473196367,0.0,41,,-0.17,0.04,1.11,3,-1,-0,1.12,1.12,100,10227,40.9,5.08,,12.84,1.09,95.2,,49.7,5,,,,,,,,,,,,0,0,0,0,0,0,0,0,0,0,0,0,0,0,0,0,,,,,,0.0,,,,,,,
4597364,1745473196387,,,,,,,,,,,,,,,,,,,,,,,,,,,,,,,,,,0,0,0,0,0,0,0,0,0,0,0,0,0,0,0,0,,,,,,,,,,,,,
4597384,1745473196408,0.0,30,13.33,-0.17,-0.15,1.12,3,-0,-0,1.14,1.14,100,10227,40.9,5.08,15,12.28,0.987,95.2,165,49.7,5,0,0,1,0,0.0,0.0,0.0,0.0,2.29,0,1.0,0,0,0,0,0,0,0,0,0,0,0,0,0,0,0,0,0,0,1.0,0,-0,0.0,38.994099,-76.939652,0.04,26.9,31,3,0.9
4597404,1745473196428,,,,,,,,,,,,,,,,,,,,,,,,,,,,,,,,,,0,0,0,0,0,0,0,0,0,0,0,0,0,0,0,0,,,,,,,,,,,,,
4597424,1745473196448,0.0,51,,-0.12,-0.06,1.09,4,-0,0,1.1,1.14,97,11773,40.8,4.51,,11.77,0.949,95.2,,55.9,5,,,,,,,,,,,,0,0,0,0,0,0,0,0,0,0,0,0,0,0,0,0,,,,,,0.0,,,,,,,
4597444,1745473196468,,,,,,,,,,,,,,,,,,,,,,,,,,,,,,,,,,0,0,0,0,0,0,0,0,0,0,0,0,0,0,0,0,,,,,,,,,,,,,
4597464,1745473196488,0.0,64,,-0.14,0.17,1.03,4,-0,-0,1.05,1.14,93,12990,40.8,3.78,,11.42,0.914,95.2,,55.9,5,,,,,,,,,,,,0,0,0,0,0,0,0,0,0,0,0,0,0,0,0,0,,,,,,0.0,,,,,,,
4597484,1745473196507,,,,,,,,,,,,,,,,,,,,,,,0,0,1,0,0.0,0.0,0.0,0.0,2.29,,,0,0,0,0,0,0,0,0,0,0,0,0,0,0,0,0,,0,,,,,38.994099,-76.939652,0.05,26.9,31,3,0.9
4597504,1745473196527,0.0,51,,-0.15,0.27,0.99,2,0,2,1.04,1.14,91,13953,41.0,3.61,,11.26,0.894,95.2,,55.9,5,,,,,,,,,,,,0,0,0,0,0,0,0,0,0,0,0,0,0,0,0,0,,,,,,0.0,,,,,,,
4597524,1745473196547,,,,,,,,,,,,,,,,,,,,,,,,,,,,,,,,,,0,0,0,0,0,0,0,0,0,0,0,0,0,0,0,0,,,,,,,,,,,,,
4597544,1745473196567,0.0,34,,-0.11,0.06,1.03,-1,-0,2,1.04,1.14,91,13953,41.0,3.61,,11.26,0.894,95.2,,68.4,5,,,,,,,,,,,,0,0,0,0,0,0,0,0,0,0,0,0,0,0,0,0,,,,,,0.0,,,,,,,
4597564,1745473196587,,,,,,,,,,,,,,,,,,,,,,,,,,,,,,,,,,0,0,0,0,0,0,0,0,0,0,0,0,0,0,0,0,,,,,,,,,,,,,
4597584,1745473196607,0.0,54,,-0.09,0.05,0.99,-1,-0,1,1.0,1.14,88,13104,56.0,4.09,,12.08,0.958,95.2,,68.4,5,0,0,1,0,0.0,0.0,0.0,0.0,2.29,,,0,0,0,0,0,0,0,0,0,0,0,0,0,0,0,0,,0,,,,0.0,38.994099,-76.939652,0.0,26.9,31,3,0.9
4597604,1745473196627,,,,,,,,,,,,,,,,,,,,,,,,,,,,,,,,,,0,0,0,0,0,0,0,0,0,0,0,0,0,0,0,0,,,,,,,,,,,,,
4597624,1745473196647,0.0,57,,-0.03,0.12,0.99,-1,1,1,1.0,1.14,88,12769,85.7,4.76,,12.61,1.25,95.2,,68.4,5,,,,,,,,,,,,0,0,0,0,0,0,0,0,0,0,0,0,0,0,0,0,,,,,,0.0,,,,,,,
4597644,1745473196667,,,,,,,,,,,,,,,,,,,,,,,,,,,,,,,,,,0,0,0,0,0,0,0,0,0,0,0,0,0,0,0,0,,,,,,,,,,,,,
4597664,1745473196687,0.0,47,,-0.02,0.11,0.96,0,1,1,0.96,1.14,85,11685,93.6,5.55,,13.08,1.25,95.2,,67.8,5,,,,,,,,,,,,0,0,0,0,0,0,0,0,0,0,0,0,0,0,0,0,,,,,,0.0,,,,,,,
4597684,1745473196709,,,,,,,,,,,,,,,,,,,,,,,0,0,17,17,0.0,0.0,0.0,0.0,2.28,,,0,0,0,0,0,0,0,0,0,0,0,0,0,0,0,0,,0,,,,,38.994099,-76.939652,0.63,26.9,31,3,0.9
4597704,1745473196729,0.0,47,,0.01,0.11,1.06,0,1,0,1.06,1.14,93,11089,95.4,5.59,,13.6,1.114,95.2,,67.8,5,,,,,,,,,,,,0,0,0,0,0,0,0,0,0,0,0,0,0,0,0,0,,,,,,0.0,,,,,,,
4597724,1745473196749,,,,,,,,,,,,,,,,,,,,,,,,,,,,,,,,,,0,0,0,0,0,0,0,0,0,0,0,0,0,0,0,0,,,,,,,,,,,,,
4597744,1745473196769,0.0,47,,0.05,0.17,1.08,-1,0,0,1.09,1.14,96,11795,99.4,5.24,,13.6,1.114,95.2,,63.5,5,,,,,,,,,,,,0,0,0,0,0,0,0,0,0,0,0,0,0,0,0,0,,,,,,0.0,,,,,,,
4597764,1745473196789,,,,,,,,,,,,,,,,,,,,,,,,,,,,,,,,,,0,0,0,0,0,0,0,0,0,0,0,0,0,0,0,0,,,,,,,,,,,,,
4597784,1745473196809,0.0,47,,0.06,0.23,1.12,1,-0,0,1.15,1.15,100,11795,99.4,5.24,,13.48,1.014,95.2,,63.5,5,1,0,36,38,0.0,0.0,0.0,0.0,2.28,,,0,0,0,0,0,0,0,0,0,0,0,0,0,0,0,0,,0,,,,0.0,38.994099,-76.939652,3.16,26.9,31,3,0.9
4597804,1745473196829,,,,,,,,,,,,,,,,,,,,,,,,,,,,,,,,,,0,0,0,0,0,0,0,0,0,0,0,0,0,0,0,0,,,,,,,,,,,,,
4597824,1745473196849,0.0,57,,0.13,0.28,1.09,0,0,1,1.14,1.15,99,12205,99.5,5.12,,13.27,1.019,95.2,,63.5,5,,,,,,,,,,,,0,0,0,0,0,0,0,0,0,0,0,0,0,0,0,0,,,,,,0.0,,,,,,,
4597844,1745473196869,,,,,,,,,,,,,,,,,,,,,,,,,,,,,,,,,,0,0,0,0,0,0,0,0,0,0,0,0,0,0,0,0,,,,,,,,,,,,,
4597864,1745473196889,0.0,44,,0.22,0.14,1.1,-1,0,1,1.13,1.15,98,12342,99.5,5.04,,13.19,1.029,95.2,,66.1,5,,,,,,,,,,,,0,0,0,0,0,0,0,0,0,0,0,0,0,0,0,0,,,,,,0.0,,,,,,,
4597884,1745473196909,,,,,,,,,,,,,,,,,,,,,,,3,0,36,37,0.0,0.0,0.0,0.0,2.29,,,0,0,0,0,0,0,0,0,0,0,0,0,0,0,0,0,,1,,,,,38.994099,-76.939644,5.52,26.9,31,3,0.9
4597904,1745473196929,0.0,51,,0.21,0.03,1.07,-2,0,1,1.09,1.15,96,12359,99.4,5.03,,13.21,1.047,95.2,,66.1,5,,,,,,,,,,,,0,0,0,0,0,0,0,0,0,0,0,0,0,0,0,0,,,,,,0.0,,,,,,,
4597924,1745473196949,,,,,,,,,,,,,,,,,,,,,,,,,,,,,,,,,,0,0,0,0,0,0,0,0,0,0,0,0,0,0,0,0,,,,,,,,,,,,,
4597944,1745473196969,0.0,51,,0.21,0.0,1.08,-2,0,1,1.09,1.15,96,12583,99.4,5.0,,13.21,1.047,95.2,,66.2,5,,,,,,,,,,,,0,0,0,0,0,0,0,0,0,0,0,0,0,0,0,0,,,,,,0.0,,,,,,,
4597964,1745473196989,,,,,,,,,,,,,,,,,,,,,,,,,,,,,,,,,,0,0,0,0,0,0,0,0,0,0,0,0,0,0,0,0,,,,,,,,,,,,,
4597984,1745473197003,0.0,61,,0.25,-0.04,1.06,1,0,0,1.09,1.15,95,12583,99.4,5.0,,13.2,1.06,95.2,,66.2,5,5,0,36,36,0.0,0.0,0.0,0.0,2.29,,,0,0,0,0,0,0,0,0,0,0,0,0,0,0,0,0,,1,,,,0.0,38.994099,-76.939644,8.1,26.9,31,3,0.9
4598004,1745473197023,,,,,,,,,,,,,,,,,,,,,,,,,,,,,,,,,,0,0,0,0,0,0,0,0,0,0,0,0,0,0,0,0,,,,,,,,,,,,,
4598024,1745473197043,0.0,64,,0.3,-0.04,1.05,2,0,-1,1.09,1.15,95,12791,99.4,4.85,,13.17,1.036,95.2,,68.5,5,,,,,,,,,,,,0,0,0,0,0,0,0,0,0,0,0,0,0,0,0,0,,,,,,0.0,,,,,,,
4598044,1745473197063,,,,,,,,,,,,,,,,,,,,,,,,,,,,,,,,,,0,0,0,0,0,0,0,0,0,0,0,0,0,0,0,0,,,,,,,,,,,,,
4598064,1745473197083,0.0,51,,0.37,-0.16,1.04,-2,-0,-0,1.12,1.15,97,12701,99.4,4.86,,13.23,1.038,91.6,,68.5,5,,,,,,,,,,,,0,0,0,0,0,0,0,0,0,0,0,0,0,0,0,0,,,,,,0.0,,,,,,,
4598084,1745473197106,,,,,,,,,,,,,,,,,,,,,,,6,0,37,39,0.0,0.0,0.0,0.0,2.29,,,0,0,0,0,0,0,0,0,0,0,0,0,0,0,0,0,,1,,,,,38.994099,-76.939644,10.3,26.9,31,3,0.9
4598104,1745473197126,0.0,44,,0.42,-0.12,1.05,-1,-0,-0,1.14,1.15,99,12555,99.4,4.97,,13.15,1.064,91.6,,68.5,5,,,,,,,,,,,,0,0,0,0,0,0,0,0,0,0,0,0,0,0,0,0,,,,,,0.0,,,,,,,
4598124,1745473197146,,,,,,,,,,,,,,,,,,,,,,,,,,,,,,,,,,0,0,0,0,0,0,0,0,0,0,0,0,0,0,0,0,,,,,,,,,,,,,
4598144,1745473197166,0.0,54,,0.38,-0.2,1.07,0,-1,-1,1.16,1.16,100,12555,99.4,4.97,,13.15,1.064,91.6,,64.5,5,,,,,,,,,,,,0,0,0,0,0,0,0,0,0,0,0,0,0,0,0,0,,,,,,0.0,,,,,,,
4598164,1745473197186,,,,,,,,,,,,,,,,,,,,,,,,,,,,,,,,,,0,0,0,0,0,0,0,0,0,0,0,0,0,0,0,0,,,,,,,,,,,,,
4598184,1745473197205,0.0,61,,0.39,-0.08,1.09,1,-1,-0,1.16,1.16,100,12506,99.4,5.02,,13.27,1.074,91.6,,64.5,5,8,0,39,38,0.0,172.0,0.0,0.0,2.29,,,0,0,0,0,0,0,0,0,0,0,0,0,0,0,0,0,,1,,,,0.0,38.994099,-76.939636,12.9,26.9,32,3,0.9
4598204,1745473197225,,,,,,,,,,,,,,,,,,,,,,,,,,,,,,,,,,0,0,0,0,0,0,0,0,0,0,0,0,0,0,0,0,,,,,,,,,,,,,
4598224,1745473197245,0.0,85,,0.45,-0.21,1.08,3,-0,-1,1.19,1.19,100,12403,99.4,5.06,,13.24,1.066,91.6,,66.9,5,,,,,,,,,,,,0,0,0,0,0,0,0,0,0,0,0,0,0,0,0,0,,,,,,0.0,,,,,,,
4598244,1745473197265,,,,,,,,,,,,,,,,,,,,,,,,,,,,,,,,,,0,0,0,0,0,0,0,0,0,0,0,0,0,0,0,0,,,,,,,,,,,,,
4598264,1745473197285,0.0,64,,0.52,-0.24,1.0,3,-0,-0,1.15,1.19,97,12205,99.4,5.11,,13.33,1.069,91.6,,66.9,5,,,,,,,,,,,,0,0,0,0,0,0,0,0,0,0,0,0,0,0,0,0,,,,,,0.0,,,,,,,
4598284,1745473197309,,,,,,,,,,,,,,,,,,,,,,,9,0,37,37,0.0,79.0,0.0,0.0,2.29,,,0,0,0,0,0,0,0,0,0,0,0,0,0,0,0,0,,1,,,,,38.994099,-76.939629,15.38,26.9,32,3,0.9
4598304,1745473197329,0.0,57,,0.59,-0.08,1.0,2,-0,0,1.17,1.19,98,12188,99.4,5.11,,13.35,1.055,91.6,,66.9,5,,,,,,,,,,,,0,0,0,0,0,0,0,0,0,0,0,0,0,0,0,0,,,,,,0.0,,,,,,,
4598324,1745473197349,,,,,,,,,,,,,,,,,,,,,,,,,,,,,,,,,,0,0,0,0,0,0,0,0,0,0,0,0,0,0,0,0,,,,,,,,,,,,,
4598344,1745473197369,0.0,54,,0.6,0.04,1.1,3,-0,1,1.26,1.26,100,12080,99.5,5.13,,13.35,1.055,91.6,,62.1,5,,,,,,,,,,,,0,0,0,0,0,0,0,0,0,0,0,0,0,0,0,0,,,,,,0.0,,,,,,,
4598364,1745473197389,,,,,,,,,,,,,,,,,,,,,,,,,,,,,,,,,,0,0,0,0,0,0,0,0,0,0,0,0,0,0,0,0,,,,,,,,,,,,,
4598384,1745473197407,0.0,57,13.29,0.61,-0.04,1.2,3,-0,1,1.35,1.35,100,12080,99.5,5.13,15,13.35,1.048,91.6,164,62.1,5,11,0,37,37,0.0,57.0,0.0,0.0,2.29,0,1.0,0,0,0,0,0,0,0,0,0,0,0,0,0,0,0,0,0,1,1.0,0,-0,0.0,38.994099,-76.939621,18.24,26.8,32,3,0.9
4598404,1745473197427,,,,,,,,,,,,,,,,,,,,,,,,,,,,,,,,,,0,0,0,0,0,0,0,0,0,0,0,0,0,0,0,0,,,,,,,,,,,,,
4598424,1745473197447,0.0,54,,0.63,0.02,1.3,4,-0,1,1.44,1.44,100,12006,99.4,5.17,,13.43,1.05,91.6,,62.6,5,,,,,,,,,,,,0,0,0,0,0,0,0,0,0,0,0,0,0,0,0,0,,,,,,0.0,,,,,,,
4598444,1745473197467,,,,,,,,,,,,,,,,,,,,,,,,,,,,,,,,,,0,0,0,0,0,0,0,0,0,0,0,0,0,0,0,0,,,,,,,,,,,,,
4598464,1745473197487,0.0,54,,0.6,-0.05,1.41,3,0,1,1.53,1.53,100,12090,99.4,5.13,,13.32,1.033,91.6,,62.6,5,,,,,,,,,,,,0,0,0,0,0,0,0,0,0,0,0,0,0,0,0,0,,,,,,0.0,,,,,,,
4598484,1745473197508,,,,,,,,,,,,,,,,,,,,,,,13,0,35,38,0.0,133.0,0.0,0.0,2.3,,,0,0,0,0,0,0,0,0,0,0,0,0,0,0,0,0,,0,,,,,38.994099,-76.939613,21.12,26.8,32,3,0.9
4598504,1745473197528,0.0,51,,0.62,-0.0,1.42,4,0,1,1.55,1.55,100,12087,99.4,5.13,,13.32,1.023,91.6,,62.6,5,,,,,,,,,,,,0,0,0,0,0,0,0,0,0,0,0,0,0,0,0,0,,,,,,0.0,,,,,,,
4598524,1745473197548,,,,,,,,,,,,,,,,,,,,,,,,,,,,,,,,,,0,0,0,0,0,0,0,0,0,0,0,0,0,0,0,0,,,,,,,,,,,,,
4598544,1745473197568,0.0,54,,0.66,0.13,1.48,4,0,2,1.63,1.63,100,11688,99.4,5.26,,13.32,1.023,91.6,,59.2,5,,,,,,,,,,,,0,0,0,0,0,0,0,0,0,0,0,0,0,0,0,0,,,,,,0.0,,,,,,,
4598564,1745473197588,,,,,,,,,,,,,,,,,,,,,,,,,,,,,,,,,,0,0,0,0,0,0,0,0,0,0,0,0,0,0,0,0,,,,,,,,,,,,,
4598584,1745473197608,0.0,41,,0.71,0.18,1.38,4,0,3,1.56,1.63,96,11688,99.4,5.26,,13.43,1.039,91.6,,59.2,5,15,0,35,37,0.0,90.0,0.0,0.0,2.29,,,0,0,0,0,0,0,0,0,0,0,0,0,0,0,0,0,,0,,,,0.0,38.994099,-76.939613,24.07,26.8,32,3,0.9
4598604,1745473197628,,,,,,,,,,,,,,,,,,,,,,,,,,,,,,,,,,0,0,0,0,0,0,0,0,0,0,0,0,0,0,0,0,,,,,,,,,,,,,
4598624,1745473197648,0.0,61,,0.79,0.01,1.37,3,0,2,1.58,1.63,97,11532,99.4,5.33,,13.52,1.024,91.6,,63.4,5,,,,,,,,,,,,0,0,0,0,0,0,0,0,0,0,0,0,0,0,0,0,,,,,,0.0,,,,,,,
4598644,1745473197668,,,,,,,,,,,,,,,,,,,,,,,,,,,,,,,,,,0,0,0,0,0,0,0,0,0,0,0,0,0,0,0,0,,,,,,,,,,,,,
4598664,1745473197688,0.0,54,,0.75,-0.02,1.31,5,0,2,1.51,1.63,93,11511,99.5,5.35,,13.67,1.0,91.6,,63.4,5,,,,,,,,,,,,0,0,0,0,0,0,0,0,0,0,0,0,0,0,0,0,,,,,,0.0,,,,,,,
4598684,1745473197708,,,,,,,,,,,,,,,,,,,,,,,17,0,34,33,0.0,97.0,0.0,0.0,2.29,,,0,0,0,0,0,0,0,0,0,0,0,0,0,0,0,0,,0,,,,,38.994099,-76.939606,27.83,26.8,32,3,0.9
4598704,1745473197728,0.0,51,,0.7,0.15,1.32,6,0,2,1.5,1.63,92,11621,99.4,5.31,,13.44,0.981,91.6,,63.4,5,,,,,,,,,,,,0,0,0,0,0,0,0,0,0,0,0,0,0,0,0,0,,,,,,0.0,,,,,,,
4598724,1745473197748,,,,,,,,,,,,,,,,,,,,,,,,,,,,,,,,,,0,0,0,0,0,0,0,0,0,0,0,0,0,0,0,0,,,,,,,,,,,,,
4598744,1745473197768,0.0,61,,0.74,-0.06,1.32,6,-0,1,1.51,1.63,93,11594,99.4,5.3,,13.44,0.981,91.6,,64.1,5,,,,,,,,,,,,0,0,0,0,0,0,0,0,0,0,0,0,0,0,0,0,,,,,,0.0,,,,,,,
4598764,1745473197788,,,,,,,,,,,,,,,,,,,,,,,,,,,,,,,,,,0,0,0,0,0,0,0,0,0,0,0,0,0,0,0,0,,,,,,,,,,,,,
4598784,1745473197810,0.0,54,,0.77,-0.04,1.29,5,-0,2,1.51,1.63,92,11594,99.4,5.3,,13.61,0.982,91.6,,64.1,5,19,0,34,33,0.0,169.0,0.0,0.0,2.29,,,0,0,0,0,0,0,0,0,0,0,0,0,0,0,0,0,,0,,,,0.0,38.994099,-76.939598,30.83,26.8,32,3,0.9
4598804,1745473197830,,,,,,,,,,,,,,,,,,,,,,,,,,,,,,,,,,0,0,0,0,0,0,0,0,0,0,0,0,0,0,0,0,,,,,,,,,,,,,
4598824,1745473197850,0.0,64,,0.78,0.15,1.31,5,-1,2,1.53,1.63,94,11447,99.4,5.36,,13.77,0.977,91.6,,61.5,5,,,,,,,,,,,,0,0,0,0,0,0,0,0,0,0,0,0,0,0,0,0,,,,,,0.0,,,,,,,
4598844,1745473197870,,,,,,,,,,,,,,,,,,,,,,,,,,,,,,,,,,0,0,0,0,0,0,0,0,0,0,0,0,0,0,0,0,,,,,,,,,,,,,
4598864,1745473197890,0.0,51,,0.81,0.09,1.28,4,-0,1,1.52,1.63,93,11395,99.4,5.4,,13.73,0.967,91.6,,61.5,5,,,,,,,,,,,,0,0,0,0,0,0,0,0,0,0,0,0,0,0,0,0,,,,,,0.0,,,,,,,
4598884,1745473197910,,,,,,,,,,,,,,,,,,,,,,,21,0,35,35,0.0,115.0,0.0,0.0,2.29,,,0,0,0,0,0,0,0,0,0,0,0,0,0,0,0,0,,1,,,,,38.994099,-76.939583,34.32,26.8,32,3,0.9
4598904,1745473197930,0.0,64,,0.75,-0.05,1.2,5,-1,1,1.42,1.63,87,11550,99.4,5.36,,13.45,0.96,91.6,,61.5,5,,,,,,,,,,,,0,0,0,0,0,0,0,0,0,0,0,0,0,0,0,0,,,,,,0.0,,,,,,,
4598924,1745473197950,,,,,,,,,,,,,,,,,,,,,,,,,,,,,,,,,,0,0,0,0,0,0,0,0,0,0,0,0,0,0,0,0,,,,,,,,,,,,,
4598944,1745473197970,0.0,88,,0.74,0.14,1.25,4,-0,1,1.46,1.63,90,11795,99.4,5.25,,13.45,0.96,91.6,,65.0,5,,,,,,,,,,,,0,0,0,0,0,0,0,0,0,0,0,0,0,0,0,0,,,,,,0.0,,,,,,,
4598964,1745473197990,,,,,,,,,,,,,,,,,,,,,,,,,,,,,,,,,,0,0,0,0,0,0,0,0,0,0,0,0,0,0,0,0,,,,,,,,,,,,,
4598984,1745473198002,0.0,68,,0.76,0.13,1.25,3,0,1,1.47,1.63,90,11795,99.4,5.25,,13.39,0.954,91.6,,65.0,5,22,0,34,33,0.0,247.0,0.0,0.0,2.29,,,0,0,0,0,0,0,0,0,0,0,0,0,0,0,0,0,,0,,,,0.0,38.994102,-76.939575,36.97,26.8,32,3,0.9
4599004,1745473198022,,,,,,,,,,,,,,,,,,,,,,,,,,,,,,,,,,0,0,0,0,0,0,0,0,0,0,0,0,0,0,0,0,,,,,,,,,,,,,
4599024,1745473198042,0.0,74,,0.77,-0.14,1.2,0,1,0,1.43,1.63,88,11412,49.5,3.91,,12.73,0.963,91.6,,60.1,5,,,,,,,,,,,,0,0,0,0,0,0,0,0,0,0,0,0,0,0,0,0,,,,,,0.0,,,,,,,
4599044,1745473198062,,,,,,,,,,,,,,,,,,,,,,,,,,,,,,,,,,0,0,0,0,0,0,0,0,0,0,0,0,0,0,0,0,,,,,,,,,,,,,
4599064,1745473198082,0.0,74,,0.78,-0.12,1.18,-3,1,0,1.42,1.63,87,10799,8.2,2.8,,10.0,0.977,91.6,,60.1,5,,,,,,,,,,,,0,0,0,0,0,0,0,0,0,0,0,0,0,0,0,0,,,,,,0.0,,,,,,,
4599084,1745473198102,,,,,,,,,,,,,,,,,,,,,,,25,27,35,33,0.0,81.0,0.0,0.0,2.29,,,0,0,0,0,0,0,0,0,0,0,0,0,0,0,0,0,,1,,,,,38.994102,-76.93956,40.04,26.7,32,3,0.9
4599104,1745473198122,0.0,71,,0.73,-0.16,1.18,-5,0,1,1.39,1.63,86,9973,3.0,1.61,,8.25,0.914,89.8,,60.1,5,,,,,,,,,,,,0,0,0,0,0,0,0,0,0,0,0,0,0,0,0,0,,,,,,0.0,,,,,,,
4599124,1745473198142,,,,,,,,,,,,,,,,,,,,,,,,,,,,,,,,,,0,0,0,0,0,0,0,0,0,0,0,0,0,0,0,0,,,,,,,,,,,,,
4599144,1745473198162,0.0,91,,0.67,-0.32,1.12,-8,-1,1,1.34,1.63,82,9973,3.0,1.61,,8.25,0.914,89.8,,54.5,5,,,,,,,,,,,,0,0,0,0,0,0,0,0,0,0,0,0,0,0,0,0,,,,,,0.0,,,,,,,
4599164,1745473198182,,,,,,,,,,,,,,,,,,,,,,,,,,,,,,,,,,0,0,0,0,0,0,0,0,0,0,0,0,0,0,0,0,,,,,,,,,,,,,
4599184,1745473198210,0.0,78,,0.53,-0.3,1.12,-12,-3,1,1.28,1.63,79,9007,0.0,1.4,,7.15,0.864,89.8,,54.5,5,25,29,28,29,0.0,38.0,0.0,0.0,2.29,,,0,0,0,0,0,0,0,0,0,0,0,0,0,0,0,0,,0,,,,0.0,38.994102,-76.939545,44.81,26.7,32,3,0.9
4599204,1745473198230,,,,,,,,,,,,,,,,,,,,,,,,,,,,,,,,,,0,0,0,0,0,0,0,0,0,0,0,0,0,0,0,0,,,,,,,,,,,,,
4599224,1745473198250,0.0,95,,0.43,-0.44,1.13,-15,-3,1,1.29,1.63,79,8647,0.7,1.4,,6.68,0.921,89.8,,50.1,5,,,,,,,,,,,,0,0,0,0,0,0,0,0,0,0,0,0,0,0,0,0,,,,,,0.0,,,,,,,
4599244,1745473198270,,,,,,,,,,,,,,,,,,,,,,,,,,,,,,,,,,0,0,0,0,0,0,0,0,0,0,0,0,0,0,0,0,,,,,,,,,,,,,
4599264,1745473198290,0.0,88,,0.34,-0.47,1.11,-18,-2,0,1.26,1.63,77,8642,1.0,1.4,,6.23,0.995,89.8,,50.1,5,,,,,,,,,,,,0,0,0,0,0,0,0,0,0,0,0,0,0,0,0,0,,,,,,0.0,,,,,,,
4599284,1745473198310,,,,,,,,,,,,,,,,,,,,,,,27,38,26,29,0.0,91.0,0.0,0.0,2.29,,,0,0,0,0,0,0,0,0,0,0,0,0,0,0,0,0,,0,,,,,38.994102,-76.939537,44.64,26.7,32,3,0.9
4599304,1745473198330,0.0,91,,0.24,-0.63,1.13,-21,-2,1,1.32,1.63,81,8609,1.0,1.4,,6.23,0.995,89.8,,50.1,5,,,,,,,,,,,,0,0,0,0,0,0,0,0,0,0,0,0,0,0,0,0,,,,,,0.0,,,,,,,
4599324,1745473198350,,,,,,,,,,,,,,,,,,,,,,,,,,,,,,,,,,0,0,0,0,0,0,0,0,0,0,0,0,0,0,0,0,,,,,,,,,,,,,
4599344,1745473198370,0.0,81,,0.12,-0.71,1.07,-23,-2,-0,1.29,1.29,100,8801,0.9,1.4,,6.08,1.043,89.8,,51.5,5,,,,,,,,,,,,0,0,0,0,0,0,0,0,0,0,0,0,0,0,0,0,,,,,,0.0,,,,,,,
4599364,1745473198390,,,,,,,,,,,,,,,,,,,,,,,,,,,,,,,,,,0,0,0,0,0,0,0,0,0,0,0,0,0,0,0,0,,,,,,,,,,,,,
4599384,1745473198408,0.0,81,13.34,0.03,-0.65,1.08,-25,-2,0,1.26,1.29,98,8801,0.9,1.4,15,5.76,1.058,89.8,162,51.5,5,27,38,25,26,0.0,1.0,0.0,0.0,2.29,0,1.0,0,0,0,0,0,0,0,0,0,0,0,0,0,0,0,0,0,1,1.0,0,-0,0.0,38.994099,-76.939522,42.66,26.7,32,3,0.9
4599404,1745473198428,,,,,,,,,,,,,,,,,,,,,,,,,,,,,,,,,,0,0,0,0,0,0,0,0,0,0,0,0,0,0,0,0,,,,,,,,,,,,,
4599424,1745473198448,0.0,88,,-0.03,-0.49,1.06,-27,-1,0,1.17,1.29,90,8958,0.9,1.4,,5.59,1.081,89.8,,52.7,5,,,,,,,,,,,,0,0,0,0,0,0,0,0,0,0,0,0,0,0,0,0,,,,,,0.0,,,,,,,
4599444,1745473198468,,,,,,,,,,,,,,,,,,,,,,,,,,,,,,,,,,0,0,0,0,0,0,0,0,0,0,0,0,0,0,0,0,,,,,,,,,,,,,
4599464,1745473198488,0.0,81,,-0.07,-0.46,1.07,-30,-0,1,1.17,1.29,91,8879,0.9,1.4,,5.42,1.098,89.8,,52.7,5,,,,,,,,,,,,0,0,0,0,0,0,0,0,0,0,0,0,0,0,0,0,,,,,,0.0,,,,,,,
4599484,1745473198509,,,,,,,,,,,,,,,,,,,,,,,26,28,26,27,0.0,14.0,0.0,0.0,2.3,,,0,0,0,0,0,0,0,0,0,0,0,0,0,0,0,0,,1,,,,,38.994099,-76.939506,41.53,26.6,32,3,0.9
4599504,1745473198529,0.0,91,,-0.13,-0.59,1.06,-32,-0,1,1.22,1.29,95,8731,0.9,1.4,,5.35,1.123,89.8,,52.7,5,,,,,,,,,,,,0,0,0,0,0,0,0,0,0,0,0,0,0,0,0,0,,,,,,0.0,,,,,,,
4599524,1745473198549,,,,,,,,,,,,,,,,,,,,,,,,,,,,,,,,,,0,0,0,0,0,0,0,0,0,0,0,0,0,0,0,0,,,,,,,,,,,,,
4599544,1745473198569,0.0,88,,-0.17,-0.65,1.08,-33,-0,2,1.28,1.29,99,8548,0.9,1.4,,5.35,1.123,89.8,,52.1,5,,,,,,,,,,,,0,0,0,0,0,0,0,0,0,0,0,0,0,0,0,0,,,,,,0.0,,,,,,,
4599564,1745473198589,,,,,,,,,,,,,,,,,,,,,,,,,,,,,,,,,,0,0,0,0,0,0,0,0,0,0,0,0,0,0,0,0,,,,,,,,,,,,,
4599584,1745473198609,0.0,95,,-0.24,-0.74,1.07,-35,-1,1,1.32,1.32,100,8548,0.9,1.4,,5.38,1.136,89.8,,52.1,5,25,27,25,28,0.0,232.0,0.0,0.0,2.3,,,0,0,0,0,0,0,0,0,0,0,0,0,0,0,0,0,,0,,,,0.0,38.994095,-76.939499,41.1,26.6,32,3,0.9
4599604,1745473198629,,,,,,,,,,,,,,,,,,,,,,,,,,,,,,,,,,0,0,0,0,0,0,0,0,0,0,0,0,0,0,0,0,,,,,,,,,,,,,
4599624,1745473198649,0.0,108,,-0.31,-0.8,1.05,-38,-2,1,1.36,1.36,100,8397,0.9,1.4,,5.35,1.169,89.8,,51.8,5,,,,,,,,,,,,0,0,0,0,0,0,0,0,0,0,0,0,0,0,0,0,,,,,,0.0,,,,,,,
4599644,1745473198669,,,,,,,,,,,,,,,,,,,,,,,,,,,,,,,,,,0,0,0,0,0,0,0,0,0,0,0,0,0,0,0,0,,,,,,,,,,,,,
4599664,1745473198689,0.0,105,,-0.35,-0.87,1.03,-41,-1,2,1.4,1.4,100,8237,4.4,1.56,,5.68,1.215,89.8,,51.8,5,,,,,,,,,,,,0,0,0,0,0,0,0,0,0,0,0,0,0,0,0,0,,,,,,0.0,,,,,,,
4599684,1745473198710,,,,,,,,,,,,,,,,,,,,,,,24,29,24,28,0.0,177.0,0.0,0.0,2.3,,,0,0,0,0,0,0,0,0,0,0,0,0,0,0,0,0,,0,,,,,38.994095,-76.939484,40.72,26.6,32,3,0.9
4599704,1745473198730,0.0,98,,-0.39,-0.88,1.03,-44,-0,2,1.41,1.41,100,8068,5.5,1.78,,6.03,1.254,89.8,,51.8,5,,,,,,,,,,,,0,0,0,0,0,0,0,0,0,0,0,0,0,0,0,0,,,,,,0.0,,,,,,,
4599724,1745473198750,,,,,,,,,,,,,,,,,,,,,,,,,,,,,,,,,,0,0,0,0,0,0,0,0,0,0,0,0,0,0,0,0,,,,,,,,,,,,,
4599744,1745473198770,0.0,88,,-0.41,-0.85,1.04,-47,0,2,1.41,1.41,100,8122,5.7,1.86,,6.03,1.254,89.8,,51.5,5,,,,,,,,,,,,0,0,0,0,0,0,0,0,0,0,0,0,0,0,0,0,,,,,,0.0,,,,,,,
4599764,1745473198790,,,,,,,,,,,,,,,,,,,,,,,,,,,,,,,,,,0,0,0,0,0,0,0,0,0,0,0,0,0,0,0,0,,,,,,,,,,,,,
4599784,1745473198809,0.0,102,,-0.43,-0.93,1.04,-49,-0,2,1.46,1.46,100,8122,5.7,1.86,,6.34,1.252,89.8,,51.5,5,23,27,23,27,0.0,46.0,0.0,0.0,2.29,,,0,0,0,0,0,0,0,0,0,0,0,0,0,0,0,0,,0,,,,0.0,38.994091,-76.939468,38.5,26.6,32,3,0.9
4599804,1745473198829,,,,,,,,,,,,,,,,,,,,,,,,,,,,,,,,,,0,0,0,0,0,0,0,0,0,0,0,0,0,0,0,0,,,,,,,,,,,,,
4599824,1745473198849,0.0,102,,-0.44,-0.96,1.02,-51,-0,2,1.46,1.46,100,8146,5.7,1.96,,6.63,1.253,89.8,,50.4,5,,,,,,,,,,,,0,0,0,0,0,0,0,0,0,0,0,0,0,0,0,0,,,,,,0.0,,,,,,,
4599844,1745473198869,,,,,,,,,,,,,,,,,,,,,,,,,,,,,,,,,,0,0,0,0,0,0,0,0,0,0,0,0,0,0,0,0,,,,,,,,,,,,,
4599864,1745473198889,0.0,119,,-0.48,-0.94,1.0,-53,0,1,1.45,1.46,99,8100,5.6,1.99,,6.7,1.247,89.8,,50.4,5,,,,,,,,,,,,0,0,0,0,0,0,0,0,0,0,0,0,0,0,0,0,,,,,,0.0,,,,,,,
4599884,1745473198909,,,,,,,,,,,,,,,,,,,,,,,22,27,22,24,0.0,181.0,0.0,0.0,2.3,,,0,0,0,0,0,0,0,0,0,0,0,0,0,0,0,0,,1,,,,,38.994083,-76.939453,38.42,26.6,32,3,0.9
4599904,1745473198929,0.0,78,,-0.46,-0.91,0.98,-55,1,1,1.42,1.46,97,8076,11.1,2.35,,7.12,1.148,89.8,,50.4,5,,,,,,,,,,,,0,0,0,0,0,0,0,0,0,0,0,0,0,0,0,0,,,,,,0.0,,,,,,,
4599924,1745473198949,,,,,,,,,,,,,,,,,,,,,,,,,,,,,,,,,,0,0,0,0,0,0,0,0,0,0,0,0,0,0,0,0,,,,,,,,,,,,,
4599944,1745473198969,0.0,74,,-0.45,-0.91,1.0,-56,1,1,1.43,1.46,98,8027,14.3,2.57,,7.12,1.148,89.8,,51.6,5,,,,,,,,,,,,0,0,0,0,0,0,0,0,0,0,0,0,0,0,0,0,,,,,,0.0,,,,,,,
4599964,1745473198989,,,,,,,,,,,,,,,,,,,,,,,,,,,,,,,,,,0,0,0,0,0,0,0,0,0,0,0,0,0,0,0,0,,,,,,,,,,,,,
4599984,1745473199001,0.0,81,,-0.46,-1.01,0.98,-57,1,1,1.48,1.48,100,8027,14.3,2.57,,7.94,1.112,89.8,,51.6,5,22,27,22,24,0.0,152.0,0.0,0.0,2.3,,,0,0,0,0,0,0,0,0,0,0,0,0,0,0,0,0,,1,,,,0.0,38.994076,-76.939453,37.16,26.5,31,3,0.9
4600004,1745473199021,,,,,,,,,,,,,,,,,,,,,,,,,,,,,,,,,,0,0,0,0,0,0,0,0,0,0,0,0,0,0,0,0,,,,,,,,,,,,,
4600024,1745473199041,0.0,85,,-0.5,-1.06,1.01,-58,1,1,1.55,1.55,100,8111,15.1,2.79,,8.34,1.093,89.8,,51.5,5,,,,,,,,,,,,0,0,0,0,0,0,0,0,0,0,0,0,0,0,0,0,,,,,,0.0,,,,,,,
4600044,1745473199061,,,,,,,,,,,,,,,,,,,,,,,,,,,,,,,,,,0,0,0,0,0,0,0,0,0,0,0,0,0,0,0,0,,,,,,,,,,,,,
4600064,1745473199081,0.0,71,,-0.48,-1.05,0.99,-58,1,0,1.52,1.55,98,8348,15.3,2.9,,8.71,1.068,88.0,,51.5,5,,,,,,,,,,,,0,0,0,0,0,0,0,0,0,0,0,0,0,0,0,0,,,,,,0.0,,,,,,,
4600084,1745473199109,,,,,,,,,,,,,,,,,,,,,,,22,24,22,24,0.0,71.0,0.0,0.0,2.3,,,0,0,0,0,0,0,0,0,0,0,0,0,0,0,0,0,,1,,,,,38.994072,-76.939438,37.04,26.5,31,3,0.9
4600104,1745473199129,0.0,57,,-0.45,-1.16,0.96,-59,2,0,1.57,1.57,100,8513,17.4,3.09,,9.03,1.041,88.0,,51.5,5,,,,,,,,,,,,0,0,0,0,0,0,0,0,0,0,0,0,0,0,0,0,,,,,,0.0,,,,,,,
4600124,1745473199149,,,,,,,,,,,,,,,,,,,,,,,,,,,,,,,,,,0,0,0,0,0,0,0,0,0,0,0,0,0,0,0,0,,,,,,,,,,,,,
4600144,1745473199169,0.0,74,,-0.4,-1.2,0.95,-59,2,0,1.58,1.58,100,8433,17.6,3.2,,9.03,1.041,88.0,,52.0,5,,,,,,,,,,,,0,0,0,0,0,0,0,0,0,0,0,0,0,0,0,0,,,,,,0.0,,,,,,,
4600164,1745473199189,,,,,,,,,,,,,,,,,,,,,,,,,,,,,,,,,,0,0,0,0,0,0,0,0,0,0,0,0,0,0,0,0,,,,,,,,,,,,,
4600184,1745473199207,0.0,68,,-0.32,-1.13,0.98,-58,2,-0,1.53,1.58,97,8433,17.6,3.2,,9.21,1.029,88.0,,52.0,5,23,24,25,25,0.0,36.0,0.0,0.0,2.29,,,0,0,0,0,0,0,0,0,0,0,0,0,0,0,0,0,,1,,,,0.0,38.994064,-76.93943,36.91,26.5,31,3,0.9
4600204,1745473199227,,,,,,,,,,,,,,,,,,,,,,,,,,,,,,,,,,0,0,0,0,0,0,0,0,0,0,0,0,0,0,0,0,,,,,,,,,,,,,
4600224,1745473199247,0.0,68,,-0.31,-1.17,0.97,-58,2,0,1.55,1.58,98,8434,17.0,3.22,,9.42,1.023,88.0,,51.2,5,,,,,,,,,,,,0,0,0,0,0,0,0,0,0,0,0,0,0,0,0,0,,,,,,0.0,,,,,,,
4600244,1745473199267,,,,,,,,,,,,,,,,,,,,,,,,,,,,,,,,,,0,0,0,0,0,0,0,0,0,0,0,0,0,0,0,0,,,,,,,,,,,,,
4600264,1745473199287,0.0,74,,-0.29,-1.2,0.96,-57,1,1,1.57,1.57,100,8501,17.8,3.31,,9.62,1.007,88.0,,51.2,5,,,,,,,,,,,,0,0,0,0,0,0,0,0,0,0,0,0,0,0,0,0,,,,,,0.0,,,,,,,
4600284,1745473199309,,,,,,,,,,,,,,,,,,,,,,,23,25,25,28,0.0,70.0,0.0,0.0,2.29,,,0,0,0,0,0,0,0,0,0,0,0,0,0,0,0,0,,0,,,,,38.994057,-76.939423,38.21,26.5,31,3,0.9
4600304,1745473199329,0.0,57,,-0.26,-1.05,0.96,-57,2,1,1.45,1.57,92,8741,14.0,3.07,,9.1,1.0,88.0,,51.2,5,,,,,,,,,,,,0,0,0,0,0,0,0,0,0,0,0,0,0,0,0,0,,,,,,0.0,,,,,,,
4600324,1745473199349,,,,,,,,,,,,,,,,,,,,,,,,,,,,,,,,,,0,0,0,0,0,0,0,0,0,0,0,0,0,0,0,0,,,,,,,,,,,,,
4600344,1745473199369,0.0,71,,-0.24,-0.99,1.01,-58,2,1,1.43,1.57,92,8766,7.3,2.59,,9.1,1.0,88.0,,51.6,5,,,,,,,,,,,,0,0,0,0,0,0,0,0,0,0,0,0,0,0,0,0,,,,,,0.0,,,,,,,
4600364,1745473199389,,,,,,,,,,,,,,,,,,,,,,,,,,,,,,,,,,0,0,0,0,0,0,0,0,0,0,0,0,0,0,0,0,,,,,,,,,,,,,
4600384,1745473199409,0.0,61,13.4,-0.22,-1.09,0.99,-60,3,1,1.49,1.57,95,8766,7.3,2.59,15,8.25,0.991,88.0,162,51.6,5,22,27,27,28,0.0,200.0,0.0,0.0,2.3,0,1.0,0,0,0,0,0,0,0,0,0,0,0,0,0,0,0,0,0,0,1.0,0,-0,0.0,38.994049,-76.939415,37.77,26.5,31,3,0.9
4600404,1745473199429,,,,,,,,,,,,,,,,,,,,,,,,,,,,,,,,,,0,0,0,0,0,0,0,0,0,0,0,0,0,0,0,0,,,,,,,,,,,,,
4600424,1745473199449,0.0,78,,-0.22,-1.0,0.96,-59,2,1,1.41,1.57,90,8683,4.6,2.13,,7.54,0.988,88.0,,51.2,5,,,,,,,,,,,,0,0,0,0,0,0,0,0,0,0,0,0,0,0,0,0,,,,,,0.0,,,,,,,
4600444,1745473199469,,,,,,,,,,,,,,,,,,,,,,,,,,,,,,,,,,0,0,0,0,0,0,0,0,0,0,0,0,0,0,0,0,,,,,,,,,,,,,
4600464,1745473199489,0.0,74,,-0.22,-0.95,1.01,-58,1,1,1.41,1.57,90,8375,1.3,1.4,,6.87,0.983,88.0,,51.2,5,,,,,,,,,,,,0,0,0,0,0,0,0,0,0,0,0,0,0,0,0,0,,,,,,0.0,,,,,,,
4600484,1745473199509,,,,,,,,,,,,,,,,,,,,,,,22,26,26,26,0.0,79.0,0.0,0.0,2.3,,,0,0,0,0,0,0,0,0,0,0,0,0,0,0,0,0,,0,,,,,38.994038,-76.939415,39.03,26.4,31,3,0.9
4600504,1745473199529,0.0,68,,-0.24,-0.88,1.01,-57,0,2,1.36,1.57,87,7658,1.1,1.4,,6.52,0.997,88.0,,51.2,5,,,,,,,,,,,,0,0,0,0,0,0,0,0,0,0,0,0,0,0,0,0,,,,,,0.0,,,,,,,
4600524,1745473199549,,,,,,,,,,,,,,,,,,,,,,,,,,,,,,,,,,0,0,0,0,0,0,0,0,0,0,0,0,0,0,0,0,,,,,,,,,,,,,
4600544,1745473199569,0.0,68,,-0.25,-0.99,1.06,-56,1,1,1.47,1.57,94,7193,7.8,2.34,,6.52,0.997,88.0,,51.4,5,,,,,,,,,,,,0,0,0,0,0,0,0,0,0,0,0,0,0,0,0,0,,,,,,0.0,,,,,,,
4600564,1745473199589,,,,,,,,,,,,,,,,,,,,,,,,,,,,,,,,,,0,0,0,0,0,0,0,0,0,0,0,0,0,0,0,0,,,,,,,,,,,,,
4600584,1745473199608,0.0,74,,-0.34,-1.1,1.01,-59,1,0,1.53,1.57,98,7193,7.8,2.34,,6.96,1.071,88.0,,51.4,5,22,27,24,26,0.0,251.0,0.0,0.0,2.3,,,0,0,0,0,0,0,0,0,0,0,0,0,0,0,0,0,,0,,,,0.0,38.99403,-76.939415,38.7,26.4,31,3,0.9
4600604,1745473199628,,,,,,,,,,,,,,,,,,,,,,,,,,,,,,,,,,0,0,0,0,0,0,0,0,0,0,0,0,0,0,0,0,,,,,,,,,,,,,
4600624,1745473199648,0.0,85,,-0.42,-1.03,0.98,-61,1,1,1.49,1.57,95,7334,11.7,2.76,,7.98,1.252,88.0,,51.9,5,,,,,,,,,,,,0,0,0,0,0,0,0,0,0,0,0,0,0,0,0,0,,,,,,0.0,,,,,,,
4600644,1745473199668,,,,,,,,,,,,,,,,,,,,,,,,,,,,,,,,,,0,0,0,0,0,0,0,0,0,0,0,0,0,0,0,0,,,,,,,,,,,,,
4600664,1745473199688,0.0,133,,-0.46,-1.22,0.95,-62,1,2,1.61,1.61,100,7616,14.1,2.91,,8.51,1.253,88.0,,51.9,5,,,,,,,,,,,,0,0,0,0,0,0,0,0,0,0,0,0,0,0,0,0,,,,,,0.0,,,,,,,
4600684,1745473199708,,,,,,,,,,,,,,,,,,,,,,,22,24,21,24,0.0,19.0,0.0,0.0,2.3,,,0,0,0,0,0,0,0,0,0,0,0,0,0,0,0,0,,0,,,,,38.994019,-76.939415,36.09,26.4,31,3,0.9
4600704,1745473199728,0.0,74,,-0.48,-1.17,0.94,-62,-0,2,1.58,1.61,98,7801,14.6,3.05,,8.95,1.244,88.0,,51.9,5,,,,,,,,,,,,0,0,0,0,0,0,0,0,0,0,0,0,0,0,0,0,,,,,,0.0,,,,,,,
4600724,1745473199748,,,,,,,,,,,,,,,,,,,,,,,,,,,,,,,,,,0,0,0,0,0,0,0,0,0,0,0,0,0,0,0,0,,,,,,,,,,,,,
4600744,1745473199768,0.0,71,,-0.49,-1.17,0.96,-65,0,2,1.59,1.61,99,8096,18.1,3.28,,8.95,1.244,88.0,,51.1,5,,,,,,,,,,,,0,0,0,0,0,0,0,0,0,0,0,0,0,0,0,0,,,,,,0.0,,,,,,,
4600764,1745473199788,,,,,,,,,,,,,,,,,,,,,,,,,,,,,,,,,,0,0,0,0,0,0,0,0,0,0,0,0,0,0,0,0,,,,,,,,,,,,,
4600784,1745473199808,0.0,74,,-0.47,-1.14,1.04,-66,1,1,1.61,1.61,100,8096,18.1,3.28,,9.5,1.108,88.0,,51.1,5,21,26,22,25,0.0,0.0,0.0,0.0,2.29,,,0,0,0,0,0,0,0,0,0,0,0,0,0,0,0,0,,1,,,,0.0,38.994015,-76.939415,35.62,26.4,31,3,0.9
4600804,1745473199828,,,,,,,,,,,,,,,,,,,,,,,,,,,,,,,,,,0,0,0,0,0,0,0,0,0,0,0,0,0,0,0,0,,,,,,,,,,,,,
4600824,1745473199848,0.0,71,,-0.42,-1.11,1.0,-67,1,1,1.55,1.61,96,8517,21.3,3.53,,9.86,1.053,88.0,,52.2,5,,,,,,,,,,,,0,0,0,0,0,0,0,0,0,0,0,0,0,0,0,0,,,,,,0.0,,,,,,,
4600844,1745473199868,,,,,,,,,,,,,,,,,,,,,,,,,,,,,,,,,,0,0,0,0,0,0,0,0,0,0,0,0,0,0,0,0,,,,,,,,,,,,,
4600864,1745473199888,0.0,71,,-0.39,-1.16,1.03,-67,1,1,1.6,1.61,99,8663,22.0,3.51,,10.05,1.019,88.0,,52.2,5,,,,,,,,,,,,0,0,0,0,0,0,0,0,0,0,0,0,0,0,0,0,,,,,,0.0,,,,,,,
4600884,1745473199906,,,,,,,,,,,,,,,,,,,,,,,20,24,27,26,0.0,17.0,0.0,0.0,2.3,,,0,0,0,0,0,0,0,0,0,0,0,0,0,0,0,0,,1,,,,,38.994003,-76.939415,34.76,26.4,31,3,0.9
4600904,1745473199926,0.0,64,,-0.35,-1.25,1.02,-66,1,1,1.65,1.65,100,8615,21.0,3.62,,10.24,1.001,88.0,,52.2,5,,,,,,,,,,,,0,0,0,0,0,0,0,0,0,0,0,0,0,0,0,0,,,,,,0.0,,,,,,,
4600924,1745473199946,,,,,,,,,,,,,,,,,,,,,,,,,,,,,,,,,,0,0,0,0,0,0,0,0,0,0,0,0,0,0,0,0,,,,,,,,,,,,,
4600944,1745473199966,0.0,57,,-0.27,-1.16,1.07,-65,1,0,1.6,1.65,97,8610,21.8,3.71,,10.24,1.001,88.0,,52.3,5,,,,,,,,,,,,0,0,0,0,0,0,0,0,0,0,0,0,0,0,0,0,,,,,,0.0,,,,,,,
4600964,1745473199986,,,,,,,,,,,,,,,,,,,,,,,,,,,,,,,,,,0,0,0,0,0,0,0,0,0,0,0,0,0,0,0,0,,,,,,,,,,,,,
4600984,1745473200006,0.0,54,,-0.22,-1.25,0.98,-64,1,0,1.6,1.65,97,8610,21.8,3.71,,10.3,1.009,88.0,,52.3,5,20,23,25,26,0.0,109.0,0.0,0.0,2.3,,,0,0,0,0,0,0,0,0,0,0,0,0,0,0,0,0,,1,,,,0.0,38.994003,-76.939415,34.76,26.4,31,3,0.9
4601004,1745473200018,,,,,,,,,,,,,,,,,,,,,,,,,,,,,,,,,,0,0,0,0,0,0,0,0,0,0,0,0,0,0,0,0,,,,,,,,,,,,,
4601024,1745473200038,0.0,68,,-0.19,-1.15,1.03,-63,1,0,1.56,1.65,94,8705,21.4,3.61,,10.36,1.003,88.0,,51.1,5,,,,,,,,,,,,0,0,0,0,0,0,0,0,0,0,0,0,0,0,0,0,,,,,,0.0,,,,,,,
4601044,1745473200058,,,,,,,,,,,,,,,,,,,,,,,,,,,,,,,,,,0,0,0,0,0,0,0,0,0,0,0,0,0,0,0,0,,,,,,,,,,,,,
4601064,1745473200078,0.0,64,,-0.13,-1.19,1.03,-62,0,0,1.58,1.65,96,8765,20.1,3.62,,10.14,0.997,88.0,,51.1,5,,,,,,,,,,,,0,0,0,0,0,0,0,0,0,0,0,0,0,0,0,0,,,,,,0.0,,,,,,,
4601084,1745473200104,,,,,,,,,,,,,,,,,,,,,,,21,25,26,28,0.0,138.0,0.0,0.0,2.3,,,0,0,0,0,0,0,0,0,0,0,0,0,0,0,0,0,,0,,,,,38.993984,-76.939415,37.92,26.4,31,3,0.9
4601104,1745473200124,0.0,71,,-0.12,-1.43,0.95,-62,-0,0,1.72,1.72,100,8785,17.7,3.41,,9.89,0.996,88.0,,51.1,5,,,,,,,,,,,,0,0,0,0,0,0,0,0,0,0,0,0,0,0,0,0,,,,,,0.0,,,,,,,
4601124,1745473200144,,,,,,,,,,,,,,,,,,,,,,,,,,,,,,,,,,0,0,0,0,0,0,0,0,0,0,0,0,0,0,0,0,,,,,,,,,,,,,
4601144,1745473200164,0.0,61,,-0.1,-1.26,0.95,-61,-0,1,1.58,1.72,92,8861,16.5,3.19,,9.89,0.996,88.0,,51.0,5,,,,,,,,,,,,0,0,0,0,0,0,0,0,0,0,0,0,0,0,0,0,,,,,,0.0,,,,,,,
4601164,1745473200184,,,,,,,,,,,,,,,,,,,,,,,,,,,,,,,,,,0,0,0,0,0,0,0,0,0,0,0,0,0,0,0,0,,,,,,,,,,,,,
4601184,1745473200208,0.0,61,,-0.09,-1.04,1.01,-61,-1,1,1.45,1.72,84,8861,16.5,3.19,,9.41,0.987,88.0,,51.0,5,23,26,27,26,0.0,77.0,0.0,0.0,2.29,,,0,0,0,0,0,0,0,0,0,0,0,0,0,0,0,0,,1,,,,0.0,38.993977,-76.939415,38.98,26.4,32,3,0.9
4601204,1745473200228,,,,,,,,,,,,,,,,,,,,,,,,,,,,,,,,,,0,0,0,0,0,0,0,0,0,0,0,0,0,0,0,0,,,,,,,,,,,,,
4601224,1745473200248,0.0,64,,-0.08,-0.84,1.01,-61,-1,1,1.32,1.32,100,8951,15.5,3.07,,9.15,0.976,88.0,,51.7,5,,,,,,,,,,,,0,0,0,0,0,0,0,0,0,0,0,0,0,0,0,0,,,,,,0.0,,,,,,,
4601244,1745473200268,,,,,,,,,,,,,,,,,,,,,,,,,,,,,,,,,,0,0,0,0,0,0,0,0,0,0,0,0,0,0,0,0,,,,,,,,,,,,,
4601264,1745473200288,0.0,81,,-0.11,-0.69,1.0,-61,-1,2,1.22,1.32,93,9059,14.6,2.89,,8.87,0.983,88.0,,51.7,5,,,,,,,,,,,,0,0,0,0,0,0,0,0,0,0,0,0,0,0,0,0,,,,,,0.0,,,,,,,
4601284,1745473200309,,,,,,,,,,,,,,,,,,,,,,,22,26,27,28,0.0,9.0,0.0,0.0,2.3,,,0,0,0,0,0,0,0,0,0,0,0,0,0,0,0,0,,0,,,,,38.993969,-76.939423,38.86,26.4,32,3,0.9
4601304,1745473200329,0.0,64,,-0.12,-0.57,0.97,-61,-0,2,1.13,1.32,86,9072,13.7,2.77,,8.55,0.994,88.0,,51.7,5,,,,,,,,,,,,0,0,0,0,0,0,0,0,0,0,0,0,0,0,0,0,,,,,,0.0,,,,,,,
4601324,1745473200349,,,,,,,,,,,,,,,,,,,,,,,,,,,,,,,,,,0,0,0,0,0,0,0,0,0,0,0,0,0,0,0,0,,,,,,,,,,,,,
4601344,1745473200369,0.0,71,,-0.07,-0.56,0.94,-62,1,1,1.1,1.32,83,9023,12.4,2.62,,8.55,0.994,88.0,,50.6,5,,,,,,,,,,,,0,0,0,0,0,0,0,0,0,0,0,0,0,0,0,0,,,,,,0.0,,,,,,,
4601364,1745473200389,,,,,,,,,,,,,,,,,,,,,,,,,,,,,,,,,,0,0,0,0,0,0,0,0,0,0,0,0,0,0,0,0,,,,,,,,,,,,,
4601384,1745473200408,0.0,64,13.42,-0.03,-0.56,0.93,-63,1,1,1.09,1.32,83,9023,12.4,2.62,15,8.3,1.001,88.0,162,50.6,5,22,24,28,28,0.0,130.0,0.0,0.0,2.3,0,1.0,0,0,0,0,0,0,0,0,0,0,0,0,0,0,0,0,0,0,1.0,0,-0,0.0,38.993958,-76.93943,39.01,26.4,32,3,0.9
4601404,1745473200428,,,,,,,,,,,,,,,,,,,,,,,,,,,,,,,,,,0,0,0,0,0,0,0,0,0,0,0,0,0,0,0,0,,,,,,,,,,,,,
4601424,1745473200448,0.0,88,,-0.06,-0.54,0.89,-61,0,1,1.04,1.32,79,8917,11.5,2.57,,8.15,1.0,88.0,,50.3,5,,,,,,,,,,,,0,0,0,0,0,0,0,0,0,0,0,0,0,0,0,0,,,,,,0.0,,,,,,,
4601444,1745473200468,,,,,,,,,,,,,,,,,,,,,,,,,,,,,,,,,,0,0,0,0,0,0,0,0,0,0,0,0,0,0,0,0,,,,,,,,,,,,,
4601464,1745473200488,0.0,78,,-0.1,-0.58,0.96,-59,-0,1,1.12,1.32,85,8780,11.2,2.57,,8.06,1.003,88.0,,50.3,5,,,,,,,,,,,,0,0,0,0,0,0,0,0,0,0,0,0,0,0,0,0,,,,,,0.0,,,,,,,
4601484,1745473200509,,,,,,,,,,,,,,,,,,,,,,,24,26,26,26,0.0,117.0,0.0,0.0,2.3,,,0,0,0,0,0,0,0,0,0,0,0,0,0,0,0,0,,1,,,,,38.993954,-76.939438,40.02,26.3,32,3,0.9
4601504,1745473200529,0.0,88,,-0.15,-0.76,0.94,-58,-0,0,1.22,1.32,92,8782,11.3,2.51,,8.06,1.003,88.0,,50.3,5,,,,,,,,,,,,0,0,0,0,0,0,0,0,0,0,0,0,0,0,0,0,,,,,,0.0,,,,,,,
4601524,1745473200549,,,,,,,,,,,,,,,,,,,,,,,,,,,,,,,,,,0,0,0,0,0,0,0,0,0,0,0,0,0,0,0,0,,,,,,,,,,,,,
4601544,1745473200569,0.0,88,,-0.18,-0.79,0.92,-58,-0,0,1.23,1.32,93,8780,11.3,2.48,,7.91,1.007,88.0,,50.2,5,,,,,,,,,,,,0,0,0,0,0,0,0,0,0,0,0,0,0,0,0,0,,,,,,0.0,,,,,,,
4601564,1745473200589,,,,,,,,,,,,,,,,,,,,,,,,,,,,,,,,,,0,0,0,0,0,0,0,0,0,0,0,0,0,0,0,0,,,,,,,,,,,,,
4601584,1745473200607,0.0,57,,-0.19,-0.74,0.97,-56,-0,-0,1.24,1.32,94,8780,11.3,2.48,,7.83,0.998,88.0,,50.2,5,23,26,25,27,0.0,47.0,0.0,0.0,2.3,,,0,0,0,0,0,0,0,0,0,0,0,0,0,0,0,0,,1,,,,0.0,38.993946,-76.939453,39.36,26.3,32,3,0.9
4601604,1745473200627,,,,,,,,,,,,,,,,,,,,,,,,,,,,,,,,,,0,0,0,0,0,0,0,0,0,0,0,0,0,0,0,0,,,,,,,,,,,,,
4601624,1745473200647,0.0,85,,-0.27,-0.74,0.95,-56,-0,1,1.23,1.32,94,8635,10.5,2.49,,7.91,0.997,88.0,,50.4,5,,,,,,,,,,,,0,0,0,0,0,0,0,0,0,0,0,0,0,0,0,0,,,,,,0.0,,,,,,,
4601644,1745473200667,,,,,,,,,,,,,,,,,,,,,,,,,,,,,,,,,,0,0,0,0,0,0,0,0,0,0,0,0,0,0,0,0,,,,,,,,,,,,,
4601664,1745473200687,0.0,91,,-0.27,-0.75,1.0,-56,1,1,1.28,1.32,97,8594,10.3,2.54,,7.87,1.002,88.0,,50.4,5,,,,,,,,,,,,0,0,0,0,0,0,0,0,0,0,0,0,0,0,0,0,,,,,,0.0,,,,,,,
4601684,1745473200707,,,,,,,,,,,,,,,,,,,,,,,25,29,24,25,0.0,231.0,0.0,0.0,2.29,,,0,0,0,0,0,0,0,0,0,0,0,0,0,0,0,0,,1,,,,,38.993938,-76.939453,38.91,26.3,32,3,0.9
4601704,1745473200727,0.0,78,,-0.27,-0.9,0.96,-57,2,0,1.34,1.34,100,8595,7.7,2.38,,7.46,1.006,88.0,,50.4,5,,,,,,,,,,,,0,0,0,0,0,0,0,0,0,0,0,0,0,0,0,0,,,,,,0.0,,,,,,,
4601724,1745473200747,,,,,,,,,,,,,,,,,,,,,,,,,,,,,,,,,,0,0,0,0,0,0,0,0,0,0,0,0,0,0,0,0,,,,,,,,,,,,,
4601744,1745473200767,0.0,95,,-0.25,-0.94,1.0,-56,2,1,1.4,1.4,100,8505,5.5,2.22,,7.46,1.006,88.0,,51.6,5,,,,,,,,,,,,0,0,0,0,0,0,0,0,0,0,0,0,0,0,0,0,,,,,,0.0,,,,,,,
4601764,1745473200787,,,,,,,,,,,,,,,,,,,,,,,,,,,,,,,,,,0,0,0,0,0,0,0,0,0,0,0,0,0,0,0,0,,,,,,,,,,,,,
4601784,1745473200807,0.0,85,,-0.24,-0.97,1.0,-56,1,2,1.41,1.41,100,8505,5.5,2.22,,7.19,0.999,88.0,,51.6,5,23,24,26,27,0.0,125.0,0.0,0.0,2.29,,,0,0,0,0,0,0,0,0,0,0,0,0,0,0,0,0,,0,,,,0.0,38.993935,-76.939468,38.43,26.3,32,3,0.9
4601804,1745473200827,,,,,,,,,,,,,,,,,,,,,,,,,,,,,,,,,,0,0,0,0,0,0,0,0,0,0,0,0,0,0,0,0,,,,,,,,,,,,,
4601824,1745473200847,0.0,95,,-0.32,-0.96,0.98,-55,-0,2,1.41,1.41,100,8231,1.5,1.4,,6.88,0.99,88.0,,50.6,5,,,,,,,,,,,,0,0,0,0,0,0,0,0,0,0,0,0,0,0,0,0,,,,,,0.0,,,,,,,
4601844,1745473200867,,,,,,,,,,,,,,,,,,,,,,,,,,,,,,,,,,0,0,0,0,0,0,0,0,0,0,0,0,0,0,0,0,,,,,,,,,,,,,
4601864,1745473200887,0.0,95,,-0.32,-1.06,1.01,-57,-0,1,1.5,1.5,100,7655,0.8,1.4,,6.51,0.993,88.0,,50.6,5,,,,,,,,,,,,0,0,0,0,0,0,0,0,0,0,0,0,0,0,0,0,,,,,,0.0,,,,,,,
4601884,1745473200907,,,,,,,,,,,,,,,,,,,,,,,23,24,25,25,0.0,246.0,0.0,0.0,2.29,,,0,0,0,0,0,0,0,0,0,0,0,0,0,0,0,0,,0,,,,,38.993931,-76.939484,39.07,26.3,32,3,0.9
4601904,1745473200927,0.0,91,,-0.35,-1.08,1.0,-59,-0,0,1.51,1.51,100,7228,0.9,1.4,,6.47,1.034,88.0,,50.6,5,,,,,,,,,,,,0,0,0,0,0,0,0,0,0,0,0,0,0,0,0,0,,,,,,0.0,,,,,,,
4601924,1745473200947,,,,,,,,,,,,,,,,,,,,,,,,,,,,,,,,,,0,0,0,0,0,0,0,0,0,0,0,0,0,0,0,0,,,,,,,,,,,,,
4601944,1745473200967,0.0,95,,-0.43,-0.94,1.01,-59,-1,1,1.44,1.51,96,7165,0.9,1.4,,6.47,1.034,88.0,,50.9,5,,,,,,,,,,,,0,0,0,0,0,0,0,0,0,0,0,0,0,0,0,0,,,,,,0.0,,,,,,,
4601964,1745473200987,,,,,,,,,,,,,,,,,,,,,,,,,,,,,,,,,,0,0,0,0,0,0,0,0,0,0,0,0,0,0,0,0,,,,,,,,,,,,,
4601984,1745473201007,0.0,85,,-0.5,-1.08,0.99,-61,-2,2,1.55,1.55,100,7165,0.9,1.4,,6.51,1.232,88.0,,50.9,5,22,26,20,23,0.0,209.0,0.0,0.0,2.3,,,0,0,0,0,0,0,0,0,0,0,0,0,0,0,0,0,,0,,,,0.0,38.993931,-76.939484,39.07,26.3,32,3,0.9
4602004,1745473201019,,,,,,,,,,,,,,,,,,,,,,,,,,,,,,,,,,0,0,0,0,0,0,0,0,0,0,0,0,0,0,0,0,,,,,,,,,,,,,
4602024,1745473201039,0.0,105,,-0.57,-0.98,1.01,-63,-2,2,1.52,1.55,98,7130,1.0,1.4,,6.54,1.254,88.0,,50.6,5,,,,,,,,,,,,0,0,0,0,0,0,0,0,0,0,0,0,0,0,0,0,,,,,,0.0,,,,,,,
4602044,1745473201059,,,,,,,,,,,,,,,,,,,,,,,,,,,,,,,,,,0,0,0,0,0,0,0,0,0,0,0,0,0,0,0,0,,,,,,,,,,,,,
4602064,1745473201079,0.0,105,,-0.57,-1.0,1.03,-65,-0,0,1.55,1.55,100,6899,1.0,1.4,,6.62,1.253,88.0,,50.6,5,,,,,,,,,,,,0,0,0,0,0,0,0,0,0,0,0,0,0,0,0,0,,,,,,0.0,,,,,,,
4602084,1745473201107,,,,,,,,,,,,,,,,,,,,,,,20,24,18,25,0.0,209.0,0.0,0.0,2.3,,,0,0,0,0,0,0,0,0,0,0,0,0,0,0,0,0,,0,,,,,38.993923,-76.939499,34.67,26.4,32,3,0.9
4602104,1745473201127,0.0,102,,-0.62,-1.09,1.02,-68,0,1,1.61,1.61,100,6607,1.0,1.4,,6.83,1.254,88.0,,50.6,5,,,,,,,,,,,,0,0,0,0,0,0,0,0,0,0,0,0,0,0,0,0,,,,,,0.0,,,,,,,
4602124,1745473201147,,,,,,,,,,,,,,,,,,,,,,,,,,,,,,,,,,0,0,0,0,0,0,0,0,0,0,0,0,0,0,0,0,,,,,,,,,,,,,
4602144,1745473201167,0.0,102,,-0.69,-1.12,0.93,-70,-0,1,1.61,1.61,100,6607,1.0,1.4,,6.83,1.254,88.0,,49.3,5,,,,,,,,,,,,0,0,0,0,0,0,0,0,0,0,0,0,0,0,0,0,,,,,,0.0,,,,,,,
4602164,1745473201187,,,,,,,,,,,,,,,,,,,,,,,,,,,,,,,,,,0,0,0,0,0,0,0,0,0,0,0,0,0,0,0,0,,,,,,,,,,,,,
4602184,1745473201205,0.0,95,,-0.71,-1.09,0.97,-72,-0,1,1.62,1.62,100,6505,0.9,1.4,,7.02,1.254,88.0,,49.3,5,19,24,16,22,0.0,224.0,0.0,0.0,2.29,,,0,0,0,0,0,0,0,0,0,0,0,0,0,0,0,0,,0,,,,0.0,38.993923,-76.939514,32.82,26.4,32,3,0.9
4602204,1745473201225,,,,,,,,,,,,,,,,,,,,,,,,,,,,,,,,,,0,0,0,0,0,0,0,0,0,0,0,0,0,0,0,0,,,,,,,,,,,,,
4602224,1745473201245,0.0,108,,-0.73,-1.08,0.94,-75,1,1,1.61,1.62,99,6277,2.9,1.64,,7.34,1.254,88.0,,49.8,5,,,,,,,,,,,,0,0,0,0,0,0,0,0,0,0,0,0,0,0,0,0,,,,,,0.0,,,,,,,
4602244,1745473201265,,,,,,,,,,,,,,,,,,,,,,,,,,,,,,,,,,0,0,0,0,0,0,0,0,0,0,0,0,0,0,0,0,,,,,,,,,,,,,
4602264,1745473201285,0.0,91,,-0.76,-1.02,0.9,-79,2,1,1.56,1.62,96,5979,13.0,2.53,,8.61,1.254,88.0,,49.8,5,,,,,,,,,,,,0,0,0,0,0,0,0,0,0,0,0,0,0,0,0,0,,,,,,0.0,,,,,,,
4602284,1745473201309,,,,,,,,,,,,,,,,,,,,,,,17,22,15,21,0.0,77.0,0.0,0.0,2.29,,,0,0,0,0,0,0,0,0,0,0,0,0,0,0,0,0,,0,,,,,38.993923,-76.939529,30.69,26.4,32,3,0.9
4602304,1745473201329,0.0,95,,-0.84,-0.9,0.93,-81,2,2,1.54,1.62,95,5857,20.0,2.97,,10.37,1.254,88.0,,49.8,5,,,,,,,,,,,,0,0,0,0,0,0,0,0,0,0,0,0,0,0,0,0,,,,,,0.0,,,,,,,
4602324,1745473201349,,,,,,,,,,,,,,,,,,,,,,,,,,,,,,,,,,0,0,0,0,0,0,0,0,0,0,0,0,0,0,0,0,,,,,,,,,,,,,
4602344,1745473201369,0.0,95,,-0.86,-0.8,1.07,-83,1,2,1.59,1.62,98,5873,25.7,4.5,,10.37,1.254,88.0,,48.4,5,,,,,,,,,,,,0,0,0,0,0,0,0,0,0,0,0,0,0,0,0,0,,,,,,0.0,,,,,,,
4602364,1745473201389,,,,,,,,,,,,,,,,,,,,,,,,,,,,,,,,,,0,0,0,0,0,0,0,0,0,0,0,0,0,0,0,0,,,,,,,,,,,,,
4602384,1745473201409,0.0,81,13.46,-0.83,-0.74,1.18,-85,1,2,1.62,1.62,100,5873,25.7,4.5,15,11.88,1.254,88.0,162,48.4,5,16,21,15,20,0.0,193.0,0.0,0.0,2.29,0,1.0,0,0,0,0,0,0,0,0,0,0,0,0,0,0,0,0,0,0,1.0,0,-0,0.0,38.993923,-76.939537,29.27,26.4,32,3,0.9
4602404,1745473201429,,,,,,,,,,,,,,,,,,,,,,,,,,,,,,,,,,0,0,0,0,0,0,0,0,0,0,0,0,0,0,0,0,,,,,,,,,,,,,
4602424,1745473201449,0.0,78,,-0.79,-0.71,1.19,-87,1,2,1.6,1.62,98,6170,26.6,4.73,,12.59,1.254,88.0,,48.8,5,,,,,,,,,,,,0,0,0,0,0,0,0,0,0,0,0,0,0,0,0,0,,,,,,0.0,,,,,,,
4602444,1745473201469,,,,,,,,,,,,,,,,,,,,,,,,,,,,,,,,,,0,0,0,0,0,0,0,0,0,0,0,0,0,0,0,0,,,,,,,,,,,,,
4602464,1745473201489,0.0,78,,-0.72,-0.8,1.16,-88,1,2,1.58,1.62,97,6490,26.7,5.08,,12.63,1.254,88.0,,48.8,5,,,,,,,,,,,,0,0,0,0,0,0,0,0,0,0,0,0,0,0,0,0,,,,,,0.0,,,,,,,
4602484,1745473201508,,,,,,,,,,,,,,,,,,,,,,,16,22,17,20,0.0,196.0,0.0,0.0,2.29,,,0,0,0,0,0,0,0,0,0,0,0,0,0,0,0,0,,0,,,,,38.993927,-76.939537,28.27,26.4,32,3,0.9
4602504,1745473201528,0.0,64,,-0.61,-0.88,1.13,-87,1,1,1.56,1.62,96,6987,26.8,5.45,,12.49,1.233,88.0,,48.8,5,,,,,,,,,,,,0,0,0,0,0,0,0,0,0,0,0,0,0,0,0,0,,,,,,0.0,,,,,,,
4602524,1745473201548,,,,,,,,,,,,,,,,,,,,,,,,,,,,,,,,,,0,0,0,0,0,0,0,0,0,0,0,0,0,0,0,0,,,,,,,,,,,,,
4602544,1745473201568,0.0,47,,-0.52,-1.01,1.05,-85,2,0,1.54,1.62,95,7585,28.0,5.43,,12.49,1.233,88.0,,49.6,5,,,,,,,,,,,,0,0,0,0,0,0,0,0,0,0,0,0,0,0,0,0,,,,,,0.0,,,,,,,
4602564,1745473201588,,,,,,,,,,,,,,,,,,,,,,,,,,,,,,,,,,0,0,0,0,0,0,0,0,0,0,0,0,0,0,0,0,,,,,,,,,,,,,
4602584,1745473201606,0.0,47,,-0.37,-0.99,1.11,-81,3,1,1.53,1.62,95,7585,28.0,5.43,,12.29,1.144,88.0,,49.6,5,17,22,22,21,0.0,56.0,0.0,0.0,2.3,,,0,0,0,0,0,0,0,0,0,0,0,0,0,0,0,0,,0,,,,0.0,38.993927,-76.939552,27.91,26.4,32,3,0.9
4602604,1745473201626,,,,,,,,,,,,,,,,,,,,,,,,,,,,,,,,,,0,0,0,0,0,0,0,0,0,0,0,0,0,0,0,0,,,,,,,,,,,,,
4602624,1745473201646,0.0,27,,-0.24,-0.85,1.08,-74,3,-1,1.39,1.62,86,7861,28.5,5.24,,12.13,0.916,88.0,,50.8,5,,,,,,,,,,,,0,0,0,0,0,0,0,0,0,0,0,0,0,0,0,0,,,,,,0.0,,,,,,,
4602644,1745473201666,,,,,,,,,,,,,,,,,,,,,,,,,,,,,,,,,,0,0,0,0,0,0,0,0,0,0,0,0,0,0,0,0,,,,,,,,,,,,,
