"Interval"|"ms"|0|0|1,"Utc"|"ms"|0|0|1,"FrontBP"|"psi"|-5.0|5.0|25,"SteerAng"|"Degrees"|-145|145|25,"Battery"|"Volts"|-5.0|20.0|1,"AccelX"|"G"|-3.0|3.0|25,"AccelY"|"G"|-3.0|3.0|25,"AccelZ"|"G"|-3.0|3.0|25,"Yaw"|"Deg/Sec"|-120|120|25,"Pitch"|"Deg/Sec"|-120|120|25,"Roll"|"Deg/Sec"|-120|120|25,"Gsum"|"G"|0.0|3.0|25,"GsumMax"|"G"|0.0|3.0|25,"GsumPct"|"%"|0|100|25,"RPM"|""|0|10000|25,"TPS"|"%"|0.0|100.0|25,"InjectorPW"|"ms"|0.0|100.0|25,"Baro"|"kPa"|0|105|1,"MAP"|"Psi"|0.0|255.0|25,"Lambda"|""|-2.0|2.0|25,"IAT"|"C"|0.0|200.0|25,"EngineTemp"|"C"|0|200|1,"EOP"|"PSI"|0.0|152.0|25,"EOT"|"F"|0|250|25,"WSFR"|"MPH"|0|150|10,"WSFL"|"MPH"|0|100|10,"WSRR"|"MPH"|0|100|10,"WSRL"|""|0|100|10,"TCSet"|"%"|0.0|100.0|10,"TCSlip"|"%"|0.0|100.0|10,"TCComp"|"deg"|0.0|50.0|10,"TCCut"|"%"|0.0|100.0|10,"Analog8"|""|0.0|5.0|10,"OilTemp"|"F"|0|300|1,"AA_On"|""|0.0|1.0|1,"ThermLF1"|"C"|0|400|50,"ThermLF2"|"C"|0|400|50,"ThermRR1"|"C"|0|400|50,"ThermRR2"|"C"|0|400|50,"ThermLF3"|"C"|0|400|50,"ThermLF4"|"C"|0|400|50,"ThermLF5"|"C"|0|400|50,"ThermLF6"|"C"|0|400|50,"ThermLF7"|"C"|0|400|50,"ThermLF8"|"C"|0|400|50,"ThermRR3"|"C"|0|400|50,"ThermRR4"|"C"|0|400|50,"ThermRR5"|"C"|0|400|50,"ThermRR6"|"C"|0|400|50,"ThermRR7"|"C"|0|400|50,"ThermRR8"|"C"|0|400|50,"AA_LowDrag"|""|0|1|1,"Gear"|""|1|6|10,"AA_On"|""|0.0|1.0|1,"AA_LowDrag"|""|0|1|1,"Fuel_Mix"|""|-10|10|1,"AA_Packages"|""|0.0|1000.0|25,"Latitude"|"Degrees"|-180.0|180.0|10,"Longitude"|"Degrees"|-180.0|180.0|10,"Speed"|"kph"|0.0|150.0|10,"Altitude"|"m"|0.0|4000.0|10,"GPSSats"|""|0|20|10,"GPSQual"|""|0|5|10,"GPSDOP"|""|0.0|20.0|10
5303304,1745473902338,0.0,133,,-0.08,-0.04,0.9,-1,-0,0,0.9,0.9,100,5371,0.1,1.53,,10.42,1.229,86.2,,39.2,5,,,,,,,,,,,,0,0,0,0,0,0,0,0,0,0,0,0,0,0,0,0,,,,,,0.0,,,,,,,
5303324,1745473902358,,,,,,,,,,,,,,,,,,,,,,,,,,,,,,,,,,0,0,0,0,0,0,0,0,0,0,0,0,0,0,0,0,,,,,,,,,,,,,
5303344,1745473902378,0.0,133,,-0.09,-0.06,0.93,-1,-0,-0,0.94,0.94,100,5096,0.1,1.67,,10.42,1.229,86.2,,37.3,5,,,,,,,,,,,,0,0,0,0,0,0,0,0,0,0,0,0,0,0,0,0,,,,,,0.0,,,,,,,
5303364,1745473902398,,,,,,,,,,,,,,,,,,,,,,,,,,,,,,,,,,0,0,0,0,0,0,0,0,0,0,0,0,0,0,0,0,,,,,,,,,,,,,
5303384,1745473902418,0.0,134,13.28,-0.07,-0.08,0.89,-1,-0,-0,0.9,0.94,96,5096,0.1,1.67,15,10.29,1.083,86.2,176,37.3,5,0,0,0,0,10.0,0.0,0.0,0.0,2.26,0,1.0,0,0,0,0,0,0,0,0,0,0,0,0,0,0,0,0,0,0,1.0,0,0,0.0,38.994102,-76.939652,0.04,26.6,31,3,0.9
5303404,1745473902438,,,,,,,,,,,,,,,,,,,,,,,,,,,,,,,,,,0,0,0,0,0,0,0,0,0,0,0,0,0,0,0,0,,,,,,,,,,,,,
5303424,1745473902458,0.0,134,,-0.06,-0.05,0.95,1,-0,-0,0.96,0.96,100,4767,0.0,1.77,,10.17,1.065,86.2,,31.8,5,,,,,,,,,,,,0,0,0,0,0,0,0,0,0,0,0,0,0,0,0,0,,,,,,0.0,,,,,,,
5303444,1745473902478,,,,,,,,,,,,,,,,,,,,,,,,,,,,,,,,,,0,0,0,0,0,0,0,0,0,0,0,0,0,0,0,0,,,,,,,,,,,,,
5303464,1745473902498,0.0,134,,-0.07,-0.01,0.99,2,-0,-0,1.0,1.0,100,4413,0.0,1.8,,10.2,1.165,86.2,,31.8,5,,,,,,,,,,,,0,0,0,0,0,0,0,0,0,0,0,0,0,0,0,0,,,,,,0.0,,,,,,,
5303484,1745473902518,,,,,,,,,,,,,,,,,,,,,,,0,0,0,0,10.0,0.0,0.0,0.0,2.26,,,0,0,0,0,0,0,0,0,0,0,0,0,0,0,0,0,,0,,,,,38.994102,-76.939652,0.08,26.6,31,3,0.9
5303504,1745473902538,0.0,134,,-0.05,-0.06,1.03,1,-0,0,1.03,1.03,100,4125,11.4,2.5,,11.04,1.249,86.2,,31.8,5,,,,,,,,,,,,0,0,0,0,0,0,0,0,0,0,0,0,0,0,0,0,,,,,,0.0,,,,,,,
5303524,1745473902558,,,,,,,,,,,,,,,,,,,,,,,,,,,,,,,,,,0,0,0,0,0,0,0,0,0,0,0,0,0,0,0,0,,,,,,,,,,,,,
5303544,1745473902578,0.0,134,,-0.05,-0.09,1.03,-1,-0,0,1.04,1.04,100,3724,40.3,4.47,,11.04,1.249,86.2,,26.9,5,,,,,,,,,,,,0,0,0,0,0,0,0,0,0,0,0,0,0,0,0,0,,,,,,0.0,,,,,,,
5303564,1745473902598,,,,,,,,,,,,,,,,,,,,,,,,,,,,,,,,,,0,0,0,0,0,0,0,0,0,0,0,0,0,0,0,0,,,,,,,,,,,,,
5303584,1745473902618,0.0,134,,-0.05,-0.06,1.04,-1,-0,0,1.04,1.04,100,3724,40.3,4.47,,13.69,1.249,86.2,,26.9,5,0,0,0,0,10.0,0.0,0.0,0.0,2.27,,,0,0,0,0,0,0,0,0,0,0,0,0,0,0,0,0,,0,,,,0.0,38.994102,-76.939652,0.0,26.6,31,3,0.9
5303604,1745473902638,,,,,,,,,,,,,,,,,,,,,,,,,,,,,,,,,,0,0,0,0,0,0,0,0,0,0,0,0,0,0,0,0,,,,,,,,,,,,,
5303624,1745473902658,0.0,134,,-0.06,-0.01,1.03,-0,-0,0,1.03,1.04,99,3707,61.0,4.64,,14.54,1.251,86.2,,24.4,5,,,,,,,,,,,,0,0,0,0,0,0,0,0,0,0,0,0,0,0,0,0,,,,,,0.0,,,,,,,
5303644,1745473902678,,,,,,,,,,,,,,,,,,,,,,,,,,,,,,,,,,0,0,0,0,0,0,0,0,0,0,0,0,0,0,0,0,,,,,,,,,,,,,
5303664,1745473902698,0.0,134,,-0.09,-0.06,0.93,-1,-0,-0,0.94,1.04,90,3875,65.5,4.88,,14.51,1.251,86.2,,24.4,5,,,,,,,,,,,,0,0,0,0,0,0,0,0,0,0,0,0,0,0,0,0,,,,,,0.0,,,,,,,
5303684,1745473902720,,,,,,,,,,,,,,,,,,,,,,,0,0,0,0,10.0,0.0,0.0,0.0,2.26,,,0,0,0,0,0,0,0,0,0,0,0,0,0,0,0,0,,0,,,,,38.994102,-76.939652,0.05,26.6,31,3,0.9
5303704,1745473902740,0.0,133,,-0.1,-0.05,0.94,-1,-0,-0,0.94,1.04,91,4451,65.6,4.76,,14.47,1.251,86.2,,24.4,5,,,,,,,,,,,,0,0,0,0,0,0,0,0,0,0,0,0,0,0,0,0,,,,,,0.0,,,,,,,
5303724,1745473902760,,,,,,,,,,,,,,,,,,,,,,,,,,,,,,,,,,0,0,0,0,0,0,0,0,0,0,0,0,0,0,0,0,,,,,,,,,,,,,
5303744,1745473902780,0.0,134,,-0.09,-0.06,0.88,-2,-0,-0,0.89,1.04,85,4787,49.3,4.81,,14.47,1.251,86.2,,29.8,5,,,,,,,,,,,,0,0,0,0,0,0,0,0,0,0,0,0,0,0,0,0,,,,,,0.0,,,,,,,
5303764,1745473902800,,,,,,,,,,,,,,,,,,,,,,,,,,,,,,,,,,0,0,0,0,0,0,0,0,0,0,0,0,0,0,0,0,,,,,,,,,,,,,
5303784,1745473902820,0.0,134,,-0.1,-0.02,0.92,-1,-0,0,0.93,1.04,89,4787,49.3,4.81,,14.43,1.138,86.2,,29.8,5,0,0,0,0,10.0,0.0,0.0,0.0,2.26,,,0,0,0,0,0,0,0,0,0,0,0,0,0,0,0,0,,0,,,,0.0,38.994102,-76.939652,0.0,26.6,31,3,0.9
5303804,1745473902840,,,,,,,,,,,,,,,,,,,,,,,,,,,,,,,,,,0,0,0,0,0,0,0,0,0,0,0,0,0,0,0,0,,,,,,,,,,,,,
5303824,1745473902860,0.0,134,,-0.11,0.03,0.93,-1,-0,-0,0.94,1.04,90,5070,19.1,4.22,,13.67,1.073,86.2,,34.8,5,,,,,,,,,,,,0,0,0,0,0,0,0,0,0,0,0,0,0,0,0,0,,,,,,0.0,,,,,,,
5303844,1745473902880,,,,,,,,,,,,,,,,,,,,,,,,,,,,,,,,,,0,0,0,0,0,0,0,0,0,0,0,0,0,0,0,0,,,,,,,,,,,,,
5303864,1745473902900,0.0,134,,-0.1,0.05,0.93,-1,-0,0,0.93,1.04,90,5259,2.3,3.85,,12.43,1.058,86.2,,34.8,5,,,,,,,,,,,,0,0,0,0,0,0,0,0,0,0,0,0,0,0,0,0,,,,,,0.0,,,,,,,
5303884,1745473902920,,,,,,,,,,,,,,,,,,,,,,,0,0,0,0,10.0,0.0,0.0,0.0,2.26,,,0,0,0,0,0,0,0,0,0,0,0,0,0,0,0,0,,0,,,,,38.994102,-76.939652,0.0,26.6,31,3,0.9
5303904,1745473902940,0.0,133,,-0.1,0.03,0.91,-1,-0,-0,0.92,1.04,88,5289,0.0,2.11,,11.6,1.069,86.2,,34.8,5,,,,,,,,,,,,0,0,0,0,0,0,0,0,0,0,0,0,0,0,0,0,,,,,,0.0,,,,,,,
5303924,1745473902960,,,,,,,,,,,,,,,,,,,,,,,,,,,,,,,,,,0,0,0,0,0,0,0,0,0,0,0,0,0,0,0,0,,,,,,,,,,,,,
5303944,1745473902980,0.0,134,,-0.09,0.07,0.95,-1,-0,-0,0.96,1.04,92,5141,0.0,2.25,,11.6,1.069,86.2,,36.5,5,,,,,,,,,,,,0,0,0,0,0,0,0,0,0,0,0,0,0,0,0,0,,,,,,0.0,,,,,,,
5303964,1745473903000,,,,,,,,,,,,,,,,,,,,,,,,,,,,,,,,,,0,0,0,0,0,0,0,0,0,0,0,0,0,0,0,0,,,,,,,,,,,,,
5303984,1745473903010,0.0,134,,-0.08,0.03,0.95,-0,-0,-0,0.95,1.04,91,5141,0.0,2.25,,10.93,1.121,86.2,,36.5,5,0,0,0,0,10.0,0.0,0.0,0.0,2.27,,,0,0,0,0,0,0,0,0,0,0,0,0,0,0,0,0,,0,,,,0.0,38.994102,-76.939652,0.05,26.6,31,3,0.9
5304004,1745473903030,,,,,,,,,,,,,,,,,,,,,,,,,,,,,,,,,,0,0,0,0,0,0,0,0,0,0,0,0,0,0,0,0,,,,,,,,,,,,,
5304024,1745473903050,0.0,134,,-0.1,0.01,0.97,-1,-0,-0,0.97,1.04,93,4939,0.0,2.07,,10.73,1.187,86.2,,33.6,5,,,,,,,,,,,,0,0,0,0,0,0,0,0,0,0,0,0,0,0,0,0,,,,,,0.0,,,,,,,
5304044,1745473903070,,,,,,,,,,,,,,,,,,,,,,,,,,,,,,,,,,0,0,0,0,0,0,0,0,0,0,0,0,0,0,0,0,,,,,,,,,,,,,
5304064,1745473903090,0.0,133,,-0.08,-0.05,0.89,-2,-0,-0,0.89,1.04,86,4716,0.0,1.83,,10.65,1.249,86.2,,33.6,5,,,,,,,,,,,,0,0,0,0,0,0,0,0,0,0,0,0,0,0,0,0,,,,,,0.0,,,,,,,
5304084,1745473903117,,,,,,,,,,,,,,,,,,,,,,,0,0,0,0,10.0,0.0,0.0,0.0,2.27,,,0,0,0,0,0,0,0,0,0,0,0,0,0,0,0,0,,0,,,,,38.994102,-76.939652,0.08,26.6,31,3,0.9
5304104,1745473903137,0.0,134,,-0.06,-0.11,0.8,-3,-0,-0,0.81,1.04,78,4450,2.7,2.53,,10.78,1.251,86.2,,33.6,5,,,,,,,,,,,,0,0,0,0,0,0,0,0,0,0,0,0,0,0,0,0,,,,,,0.0,,,,,,,
5304124,1745473903157,,,,,,,,,,,,,,,,,,,,,,,,,,,,,,,,,,0,0,0,0,0,0,0,0,0,0,0,0,0,0,0,0,,,,,,,,,,,,,
5304144,1745473903177,0.0,134,,-0.06,-0.1,0.83,-3,-0,-0,0.84,1.04,81,4169,29.1,4.47,,10.78,1.251,86.2,,29.7,5,,,,,,,,,,,,0,0,0,0,0,0,0,0,0,0,0,0,0,0,0,0,,,,,,0.0,,,,,,,
5304164,1745473903197,,,,,,,,,,,,,,,,,,,,,,,,,,,,,,,,,,0,0,0,0,0,0,0,0,0,0,0,0,0,0,0,0,,,,,,,,,,,,,
5304184,1745473903213,0.0,134,,-0.07,-0.07,0.81,-2,-0,-0,0.81,1.04,78,4169,29.1,4.47,,12.68,1.251,86.2,,29.7,5,0,0,0,0,10.0,0.0,0.0,0.0,2.26,,,0,0,0,0,0,0,0,0,0,0,0,0,0,0,0,0,,0,,,,0.0,38.994102,-76.939652,0.1,26.6,31,3,0.9
5304204,1745473903233,,,,,,,,,,,,,,,,,,,,,,,,,,,,,,,,,,0,0,0,0,0,0,0,0,0,0,0,0,0,0,0,0,,,,,,,,,,,,,
5304224,1745473903253,0.0,134,,-0.04,-0.14,0.8,-3,-0,-0,0.81,1.04,78,4183,56.9,4.8,,14.38,1.251,86.2,,28.3,5,,,,,,,,,,,,0,0,0,0,0,0,0,0,0,0,0,0,0,0,0,0,,,,,,0.0,,,,,,,
5304244,1745473903273,,,,,,,,,,,,,,,,,,,,,,,,,,,,,,,,,,0,0,0,0,0,0,0,0,0,0,0,0,0,0,0,0,,,,,,,,,,,,,
5304264,1745473903293,0.0,133,,-0.06,-0.18,0.77,-4,-0,-0,0.79,1.04,76,4521,66.6,5.17,,14.51,1.25,86.2,,28.3,5,,,,,,,,,,,,0,0,0,0,0,0,0,0,0,0,0,0,0,0,0,0,,,,,,0.0,,,,,,,
5304284,1745473903319,,,,,,,,,,,,,,,,,,,,,,,0,0,0,0,10.0,0.0,0.0,0.0,2.26,,,0,0,0,0,0,0,0,0,0,0,0,0,0,0,0,0,,0,,,,,38.994102,-76.939652,0.08,26.6,31,3,0.9
5304304,1745473903339,0.0,133,,-0.04,-0.14,0.73,-4,-0,-1,0.75,1.04,72,4739,67.7,5.61,,14.51,1.249,86.2,,28.3,5,,,,,,,,,,,,0,0,0,0,0,0,0,0,0,0,0,0,0,0,0,0,,,,,,0.0,,,,,,,
5304324,1745473903359,,,,,,,,,,,,,,,,,,,,,,,,,,,,,,,,,,0,0,0,0,0,0,0,0,0,0,0,0,0,0,0,0,,,,,,,,,,,,,
5304344,1745473903379,0.0,134,,-0.04,-0.15,0.77,-3,-0,-0,0.79,1.04,76,5083,56.2,5.0,,14.51,1.249,86.2,,32.2,5,,,,,,,,,,,,0,0,0,0,0,0,0,0,0,0,0,0,0,0,0,0,,,,,,0.0,,,,,,,
5304364,1745473903399,,,,,,,,,,,,,,,,,,,,,,,,,,,,,,,,,,0,0,0,0,0,0,0,0,0,0,0,0,0,0,0,0,,,,,,,,,,,,,
5304384,1745473903419,0.0,134,13.28,-0.05,-0.15,0.79,-2,-0,-0,0.81,1.04,78,5083,56.2,5.0,15,14.38,1.249,86.2,178,32.2,5,0,0,0,0,10.0,0.0,0.0,0.0,2.26,0,1.0,0,0,0,0,0,0,0,0,0,0,0,0,0,0,0,0,0,0,1.0,0,0,0.0,38.994102,-76.939652,0.04,26.5,31,3,0.9
5304404,1745473903439,,,,,,,,,,,,,,,,,,,,,,,,,,,,,,,,,,0,0,0,0,0,0,0,0,0,0,0,0,0,0,0,0,,,,,,,,,,,,,
5304424,1745473903459,0.0,134,,-0.08,-0.12,0.86,-2,-0,-0,0.87,1.04,84,5480,19.4,4.39,,13.43,1.248,86.2,,38.4,5,,,,,,,,,,,,0,0,0,0,0,0,0,0,0,0,0,0,0,0,0,0,,,,,,0.0,,,,,,,
5304444,1745473903479,,,,,,,,,,,,,,,,,,,,,,,,,,,,,,,,,,0,0,0,0,0,0,0,0,0,0,0,0,0,0,0,0,,,,,,,,,,,,,
5304464,1745473903499,0.0,134,,-0.07,0.03,0.96,-0,-0,0,0.96,1.04,92,5790,5.3,3.91,,12.12,1.245,86.2,,38.4,5,,,,,,,,,,,,0,0,0,0,0,0,0,0,0,0,0,0,0,0,0,0,,,,,,0.0,,,,,,,
5304484,1745473903519,,,,,,,,,,,,,,,,,,,,,,,0,0,0,0,10.0,0.0,0.0,0.0,2.27,,,0,0,0,0,0,0,0,0,0,0,0,0,0,0,0,0,,0,,,,,38.994102,-76.939652,0.05,26.5,31,3,0.9
5304504,1745473903539,0.0,133,,-0.06,-0.04,0.89,-1,-0,-0,0.89,1.04,86,5848,0.0,1.69,,11.04,1.236,86.2,,38.4,5,,,,,,,,,,,,0,0,0,0,0,0,0,0,0,0,0,0,0,0,0,0,,,,,,0.0,,,,,,,
5304524,1745473903559,,,,,,,,,,,,,,,,,,,,,,,,,,,,,,,,,,0,0,0,0,0,0,0,0,0,0,0,0,0,0,0,0,,,,,,,,,,,,,
5304544,1745473903579,0.0,133,,-0.08,-0.17,0.84,-2,-0,-0,0.86,1.04,83,5732,0.0,1.4,,11.04,1.236,86.2,,40.8,5,,,,,,,,,,,,0,0,0,0,0,0,0,0,0,0,0,0,0,0,0,0,,,,,,0.0,,,,,,,
5304564,1745473903599,,,,,,,,,,,,,,,,,,,,,,,,,,,,,,,,,,0,0,0,0,0,0,0,0,0,0,0,0,0,0,0,0,,,,,,,,,,,,,
5304584,1745473903619,0.0,133,,-0.07,-0.12,0.88,-2,-0,-0,0.89,1.04,85,5732,0.0,1.4,,10.29,1.197,86.2,,40.8,5,0,0,0,0,10.0,0.0,0.0,0.0,2.27,,,0,0,0,0,0,0,0,0,0,0,0,0,0,0,0,0,,0,,,,0.0,38.994102,-76.939652,0.04,26.5,31,3,0.9
5304604,1745473903639,,,,,,,,,,,,,,,,,,,,,,,,,,,,,,,,,,0,0,0,0,0,0,0,0,0,0,0,0,0,0,0,0,,,,,,,,,,,,,
5304624,1745473903659,0.0,133,,-0.07,-0.06,0.87,-2,-0,-0,0.87,1.04,84,5419,0.0,1.4,,10.12,1.196,86.2,,40.8,5,,,,,,,,,,,,0,0,0,0,0,0,0,0,0,0,0,0,0,0,0,0,,,,,,0.0,,,,,,,
5304644,1745473903679,,,,,,,,,,,,,,,,,,,,,,,,,,,,,,,,,,0,0,0,0,0,0,0,0,0,0,0,0,0,0,0,0,,,,,,,,,,,,,
5304664,1745473903699,0.0,133,,-0.09,-0.04,0.89,-2,-0,-0,0.89,1.04,86,5091,0.0,1.61,,9.98,1.251,86.2,,37.2,5,,,,,,,,,,,,0,0,0,0,0,0,0,0,0,0,0,0,0,0,0,0,,,,,,0.0,,,,,,,
5304684,1745473903719,,,,,,,,,,,,,,,,,,,,,,,0,0,0,0,10.0,0.0,0.0,0.0,2.26,,,0,0,0,0,0,0,0,0,0,0,0,0,0,0,0,0,,0,,,,,38.994102,-76.939652,0.06,26.5,31,3,0.9
5304704,1745473903739,0.0,133,,-0.06,-0.05,0.83,-2,-0,-0,0.84,1.04,80,4736,12.2,2.71,,10.88,1.251,86.2,,37.2,5,,,,,,,,,,,,0,0,0,0,0,0,0,0,0,0,0,0,0,0,0,0,,,,,,0.0,,,,,,,
5304724,1745473903759,,,,,,,,,,,,,,,,,,,,,,,,,,,,,,,,,,0,0,0,0,0,0,0,0,0,0,0,0,0,0,0,0,,,,,,,,,,,,,
5304744,1745473903779,0.0,134,,-0.05,-0.07,0.78,-2,-0,-0,0.79,1.04,76,4440,22.3,4.25,,10.88,1.251,86.2,,31.4,5,,,,,,,,,,,,0,0,0,0,0,0,0,0,0,0,0,0,0,0,0,0,,,,,,0.0,,,,,,,
5304764,1745473903799,,,,,,,,,,,,,,,,,,,,,,,,,,,,,,,,,,0,0,0,0,0,0,0,0,0,0,0,0,0,0,0,0,,,,,,,,,,,,,
5304784,1745473903819,0.0,134,,-0.01,-0.11,0.73,-3,-0,-0,0.74,1.04,71,4440,22.3,4.25,,12.51,1.251,86.2,,31.4,5,0,0,0,0,10.0,0.0,0.0,0.0,2.26,,,0,0,0,0,0,0,0,0,0,0,0,0,0,0,0,0,,0,,,,0.0,38.994102,-76.939652,0.11,26.5,31,3,0.9
5304804,1745473903839,,,,,,,,,,,,,,,,,,,,,,,,,,,,,,,,,,0,0,0,0,0,0,0,0,0,0,0,0,0,0,0,0,,,,,,,,,,,,,
5304824,1745473903859,0.0,134,,-0.01,-0.12,0.7,-2,-0,-1,0.71,1.04,68,4546,34.2,4.84,,13.75,1.249,86.2,,30.7,5,,,,,,,,,,,,0,0,0,0,0,0,0,0,0,0,0,0,0,0,0,0,,,,,,0.0,,,,,,,
5304844,1745473903879,,,,,,,,,,,,,,,,,,,,,,,,,,,,,,,,,,0,0,0,0,0,0,0,0,0,0,0,0,0,0,0,0,,,,,,,,,,,,,
5304864,1745473903899,0.0,134,,-0.03,-0.11,0.79,-1,-0,-0,0.79,1.04,76,4945,45.8,5.31,,14.22,1.247,86.2,,30.7,5,,,,,,,,,,,,0,0,0,0,0,0,0,0,0,0,0,0,0,0,0,0,,,,,,0.0,,,,,,,
5304884,1745473903919,,,,,,,,,,,,,,,,,,,,,,,0,0,0,0,10.0,0.0,0.0,0.0,2.26,,,0,0,0,0,0,0,0,0,0,0,0,0,0,0,0,0,,0,,,,,38.994102,-76.939652,0.11,26.5,31,3,0.9
5304904,1745473903939,0.0,133,,-0.03,-0.06,0.81,-1,-0,-0,0.81,1.04,78,5172,46.9,5.47,,14.27,1.248,86.2,,30.7,5,,,,,,,,,,,,0,0,0,0,0,0,0,0,0,0,0,0,0,0,0,0,,,,,,0.0,,,,,,,
5304924,1745473903959,,,,,,,,,,,,,,,,,,,,,,,,,,,,,,,,,,0,0,0,0,0,0,0,0,0,0,0,0,0,0,0,0,,,,,,,,,,,,,
5304944,1745473903979,0.0,134,,-0.03,-0.11,0.76,-2,-0,-0,0.77,1.04,74,5581,29.0,5.0,,14.27,1.248,86.2,,35.4,5,,,,,,,,,,,,0,0,0,0,0,0,0,0,0,0,0,0,0,0,0,0,,,,,,0.0,,,,,,,
5304964,1745473903999,,,,,,,,,,,,,,,,,,,,,,,,,,,,,,,,,,0,0,0,0,0,0,0,0,0,0,0,0,0,0,0,0,,,,,,,,,,,,,
5304984,1745473904011,0.0,133,,-0.04,-0.17,0.66,-1,-0,-0,0.68,1.04,65,5581,29.0,5.0,,13.67,1.248,86.2,,35.4,5,0,0,0,0,10.0,0.0,0.0,0.0,2.26,,,0,0,0,0,0,0,0,0,0,0,0,0,0,0,0,0,,0,,,,0.0,38.994102,-76.939652,0.08,26.5,31,3,0.9
5305004,1745473904031,,,,,,,,,,,,,,,,,,,,,,,,,,,,,,,,,,0,0,0,0,0,0,0,0,0,0,0,0,0,0,0,0,,,,,,,,,,,,,
5305024,1745473904051,0.0,134,,-0.05,-0.18,0.6,-1,-1,0,0.63,1.04,60,6005,11.1,4.3,,12.47,1.248,86.2,,41.3,5,,,,,,,,,,,,0,0,0,0,0,0,0,0,0,0,0,0,0,0,0,0,,,,,,0.0,,,,,,,
5305044,1745473904071,,,,,,,,,,,,,,,,,,,,,,,,,,,,,,,,,,0,0,0,0,0,0,0,0,0,0,0,0,0,0,0,0,,,,,,,,,,,,,
5305064,1745473904091,0.0,134,,-0.0,-0.28,0.57,-1,-1,-0,0.64,1.04,61,6158,4.6,3.99,,11.42,1.199,86.2,,41.3,5,,,,,,,,,,,,0,0,0,0,0,0,0,0,0,0,0,0,0,0,0,0,,,,,,0.0,,,,,,,
5305084,1745473904119,,,,,,,,,,,,,,,,,,,,,,,0,0,0,0,10.0,0.0,0.0,0.0,2.27,,,0,0,0,0,0,0,0,0,0,0,0,0,0,0,0,0,,0,,,,,38.994102,-76.939652,0.11,26.5,31,3,0.9
5305104,1745473904139,0.0,134,,-0.01,-0.22,0.69,-1,-0,-0,0.73,1.04,70,6407,2.5,2.59,,10.66,1.197,86.2,,41.3,5,,,,,,,,,,,,0,0,0,0,0,0,0,0,0,0,0,0,0,0,0,0,,,,,,0.0,,,,,,,
5305124,1745473904159,,,,,,,,,,,,,,,,,,,,,,,,,,,,,,,,,,0,0,0,0,0,0,0,0,0,0,0,0,0,0,0,0,,,,,,,,,,,,,
5305144,1745473904179,0.0,133,,-0.0,-0.16,0.71,-0,-1,-0,0.73,1.04,70,6583,2.7,1.97,,10.66,1.197,86.2,,41.8,5,,,,,,,,,,,,0,0,0,0,0,0,0,0,0,0,0,0,0,0,0,0,,,,,,0.0,,,,,,,
5305164,1745473904199,,,,,,,,,,,,,,,,,,,,,,,,,,,,,,,,,,0,0,0,0,0,0,0,0,0,0,0,0,0,0,0,0,,,,,,,,,,,,,
5305184,1745473904218,0.0,134,,-0.01,-0.18,0.74,-0,-1,-0,0.76,1.04,73,6583,2.7,1.97,,9.74,0.934,86.2,,41.8,5,0,0,0,0,10.0,0.0,0.0,0.0,2.26,,,0,0,0,0,0,0,0,0,0,0,0,0,0,0,0,0,,0,,,,0.0,38.994102,-76.939652,0.05,26.5,31,3,0.9
5305204,1745473904238,,,,,,,,,,,,,,,,,,,,,,,,,,,,,,,,,,0,0,0,0,0,0,0,0,0,0,0,0,0,0,0,0,,,,,,,,,,,,,
5305224,1745473904258,0.0,133,,-0.05,-0.16,0.77,-1,-1,0,0.78,1.04,75,6530,3.5,2.4,,9.42,0.874,86.2,,42.0,5,,,,,,,,,,,,0,0,0,0,0,0,0,0,0,0,0,0,0,0,0,0,,,,,,0.0,,,,,,,
5305244,1745473904278,,,,,,,,,,,,,,,,,,,,,,,,,,,,,,,,,,0,0,0,0,0,0,0,0,0,0,0,0,0,0,0,0,,,,,,,,,,,,,
5305264,1745473904298,0.0,134,,-0.05,-0.11,0.84,-1,-0,-0,0.85,1.04,82,6458,10.1,3.04,,9.82,1.035,86.2,,42.0,5,,,,,,,,,,,,0,0,0,0,0,0,0,0,0,0,0,0,0,0,0,0,,,,,,0.0,,,,,,,
5305284,1745473904319,,,,,,,,,,,,,,,,,,,,,,,0,0,0,0,10.0,0.0,0.0,0.0,2.26,,,0,0,0,0,0,0,0,0,0,0,0,0,0,0,0,0,,0,,,,,38.994102,-76.939652,0.1,26.5,31,3,0.9
5305304,1745473904339,0.0,133,,-0.09,-0.03,0.81,0,-0,0,0.81,1.04,78,6360,10.5,3.19,,10.18,1.187,86.2,,42.0,5,,,,,,,,,,,,0,0,0,0,0,0,0,0,0,0,0,0,0,0,0,0,,,,,,0.0,,,,,,,
5305324,1745473904359,,,,,,,,,,,,,,,,,,,,,,,,,,,,,,,,,,0,0,0,0,0,0,0,0,0,0,0,0,0,0,0,0,,,,,,,,,,,,,
5305344,1745473904379,0.0,133,,-0.04,-0.12,0.81,-0,-0,-0,0.82,1.04,79,6365,8.5,3.13,,10.18,1.187,86.2,,42.0,5,,,,,,,,,,,,0,0,0,0,0,0,0,0,0,0,0,0,0,0,0,0,,,,,,0.0,,,,,,,
5305364,1745473904399,,,,,,,,,,,,,,,,,,,,,,,,,,,,,,,,,,0,0,0,0,0,0,0,0,0,0,0,0,0,0,0,0,,,,,,,,,,,,,
5305384,1745473904418,0.0,134,13.31,-0.05,-0.1,0.83,-0,-0,-0,0.83,1.04,80,6365,8.5,3.13,15,10.16,1.163,86.2,178,42.0,5,0,0,0,0,10.0,0.0,0.0,0.0,2.26,0,1.0,0,0,0,0,0,0,0,0,0,0,0,0,0,0,0,0,0,0,1.0,0,0,0.0,38.994102,-76.939652,0.08,26.5,31,3,0.9
5305404,1745473904438,,,,,,,,,,,,,,,,,,,,,,,,,,,,,,,,,,0,0,0,0,0,0,0,0,0,0,0,0,0,0,0,0,,,,,,,,,,,,,
5305424,1745473904458,0.0,133,,-0.04,-0.07,0.83,0,-0,-0,0.84,1.04,80,6420,5.0,2.88,,9.69,1.227,86.2,,42.1,5,,,,,,,,,,,,0,0,0,0,0,0,0,0,0,0,0,0,0,0,0,0,,,,,,0.0,,,,,,,
5305444,1745473904478,,,,,,,,,,,,,,,,,,,,,,,,,,,,,,,,,,0,0,0,0,0,0,0,0,0,0,0,0,0,0,0,0,,,,,,,,,,,,,
5305464,1745473904498,0.0,134,,-0.03,-0.01,0.86,0,-0,-0,0.86,1.04,82,6581,4.4,2.79,,9.27,1.17,86.2,,42.1,5,,,,,,,,,,,,0,0,0,0,0,0,0,0,0,0,0,0,0,0,0,0,,,,,,0.0,,,,,,,
5305484,1745473904518,,,,,,,,,,,,,,,,,,,,,,,0,0,0,0,10.0,0.0,0.0,0.0,2.27,,,0,0,0,0,0,0,0,0,0,0,0,0,0,0,0,0,,0,,,,,38.994102,-76.939652,0.05,26.5,31,3,0.9
5305504,1745473904538,0.0,133,,-0.03,-0.06,0.87,-0,-0,-0,0.87,1.04,84,6586,4.3,2.66,,9.07,1.114,86.2,,42.1,5,,,,,,,,,,,,0,0,0,0,0,0,0,0,0,0,0,0,0,0,0,0,,,,,,0.0,,,,,,,
5305524,1745473904558,,,,,,,,,,,,,,,,,,,,,,,,,,,,,,,,,,0,0,0,0,0,0,0,0,0,0,0,0,0,0,0,0,,,,,,,,,,,,,
5305544,1745473904578,0.0,133,,-0.04,-0.02,0.86,-0,-0,-0,0.86,1.04,83,6712,5.3,2.68,,9.07,1.114,86.2,,42.5,5,,,,,,,,,,,,0,0,0,0,0,0,0,0,0,0,0,0,0,0,0,0,,,,,,0.0,,,,,,,
5305564,1745473904598,,,,,,,,,,,,,,,,,,,,,,,,,,,,,,,,,,0,0,0,0,0,0,0,0,0,0,0,0,0,0,0,0,,,,,,,,,,,,,
5305584,1745473904618,0.0,133,,-0.03,-0.06,0.88,-0,-0,-0,0.88,1.04,85,6712,5.3,2.68,,8.98,1.145,86.2,,42.5,5,0,0,0,0,10.0,0.0,0.0,0.0,2.26,,,0,0,0,0,0,0,0,0,0,0,0,0,0,0,0,0,,0,,,,0.0,38.994102,-76.939652,0.05,26.5,31,3,0.9
5305604,1745473904638,,,,,,,,,,,,,,,,,,,,,,,,,,,,,,,,,,0,0,0,0,0,0,0,0,0,0,0,0,0,0,0,0,,,,,,,,,,,,,
5305624,1745473904658,0.0,133,,0.0,-0.0,0.89,-0,-0,-0,0.89,1.04,86,6787,6.7,2.82,,9.09,1.122,86.2,,42.5,5,,,,,,,,,,,,0,0,0,0,0,0,0,0,0,0,0,0,0,0,0,0,,,,,,0.0,,,,,,,
5305644,1745473904678,,,,,,,,,,,,,,,,,,,,,,,,,,,,,,,,,,0,0,0,0,0,0,0,0,0,0,0,0,0,0,0,0,,,,,,,,,,,,,
5305664,1745473904698,0.0,133,,-0.02,-0.05,0.92,-1,-0,-0,0.92,1.04,88,6765,7.5,2.94,,9.13,1.115,84.4,,42.3,5,,,,,,,,,,,,0,0,0,0,0,0,0,0,0,0,0,0,0,0,0,0,,,,,,0.0,,,,,,,
5305684,1745473904718,,,,,,,,,,,,,,,,,,,,,,,0,0,0,0,10.0,0.0,0.0,0.0,2.26,,,0,0,0,0,0,0,0,0,0,0,0,0,0,0,0,0,,0,,,,,38.994102,-76.939652,0.11,26.5,31,3,0.9
5305704,1745473904738,0.0,133,,-0.03,-0.0,0.92,0,-0,-0,0.92,1.04,88,6894,8.1,3.04,,9.21,1.114,84.4,,42.3,5,,,,,,,,,,,,0,0,0,0,0,0,0,0,0,0,0,0,0,0,0,0,,,,,,0.0,,,,,,,
5305724,1745473904758,,,,,,,,,,,,,,,,,,,,,,,,,,,,,,,,,,0,0,0,0,0,0,0,0,0,0,0,0,0,0,0,0,,,,,,,,,,,,,
5305744,1745473904778,0.0,134,,-0.06,0.06,0.95,0,-0,-0,0.95,1.04,91,7098,8.3,3.09,,9.21,1.114,84.4,,43.1,5,,,,,,,,,,,,0,0,0,0,0,0,0,0,0,0,0,0,0,0,0,0,,,,,,0.0,,,,,,,
5305764,1745473904798,,,,,,,,,,,,,,,,,,,,,,,,,,,,,,,,,,0,0,0,0,0,0,0,0,0,0,0,0,0,0,0,0,,,,,,,,,,,,,
5305784,1745473904818,0.0,133,,-0.02,0.01,0.95,1,-0,-0,0.95,1.04,92,7098,8.3,3.09,,9.18,1.024,84.4,,43.1,5,0,0,0,0,10.0,0.0,0.0,0.0,2.26,,,0,0,0,0,0,0,0,0,0,0,0,0,0,0,0,0,,0,,,,0.0,38.994102,-76.939652,0.07,26.5,31,3,0.9
5305804,1745473904838,,,,,,,,,,,,,,,,,,,,,,,,,,,,,,,,,,0,0,0,0,0,0,0,0,0,0,0,0,0,0,0,0,,,,,,,,,,,,,
5305824,1745473904858,0.0,133,,-0.05,-0.05,0.92,0,-0,-0,0.92,1.04,88,7326,8.2,3.0,,8.67,1.004,84.4,,43.7,5,,,,,,,,,,,,0,0,0,0,0,0,0,0,0,0,0,0,0,0,0,0,,,,,,0.0,,,,,,,
5305844,1745473904878,,,,,,,,,,,,,,,,,,,,,,,,,,,,,,,,,,0,0,0,0,0,0,0,0,0,0,0,0,0,0,0,0,,,,,,,,,,,,,
5305864,1745473904898,0.0,133,,-0.04,-0.18,0.95,-0,-0,-0,0.96,1.04,93,7573,7.2,2.83,,8.39,1.011,84.4,,43.7,5,,,,,,,,,,,,0,0,0,0,0,0,0,0,0,0,0,0,0,0,0,0,,,,,,0.0,,,,,,,
5305884,1745473904918,,,,,,,,,,,,,,,,,,,,,,,0,0,0,0,10.0,0.0,0.0,0.0,2.26,,,0,0,0,0,0,0,0,0,0,0,0,0,0,0,0,0,,0,,,,,38.994102,-76.939652,0.08,26.5,31,3,0.9
5305904,1745473904938,0.0,133,,-0.05,-0.11,0.96,0,-0,-0,0.96,1.04,93,7688,6.6,2.64,,8.01,1.044,84.4,,43.7,5,,,,,,,,,,,,0,0,0,0,0,0,0,0,0,0,0,0,0,0,0,0,,,,,,0.0,,,,,,,
5305924,1745473904958,,,,,,,,,,,,,,,,,,,,,,,,,,,,,,,,,,0,0,0,0,0,0,0,0,0,0,0,0,0,0,0,0,,,,,,,,,,,,,
5305944,1745473904978,0.0,133,,-0.05,-0.07,0.95,0,-0,-0,0.95,1.04,91,7688,6.6,2.64,,8.01,1.044,84.4,,43.3,5,,,,,,,,,,,,0,0,0,0,0,0,0,0,0,0,0,0,0,0,0,0,,,,,,0.0,,,,,,,
5305964,1745473904998,,,,,,,,,,,,,,,,,,,,,,,,,,,,,,,,,,0,0,0,0,0,0,0,0,0,0,0,0,0,0,0,0,,,,,,,,,,,,,
5305984,1745473905010,0.0,133,,-0.02,-0.02,0.94,0,-0,-0,0.94,1.04,90,7910,6.3,2.47,,7.85,1.079,84.4,,43.3,5,0,0,0,0,10.0,0.0,0.0,0.0,2.26,,,0,0,0,0,0,0,0,0,0,0,0,0,0,0,0,0,,0,,,,0.0,38.994102,-76.939652,0.04,26.5,31,3,0.9
5306004,1745473905030,,,,,,,,,,,,,,,,,,,,,,,,,,,,,,,,,,0,0,0,0,0,0,0,0,0,0,0,0,0,0,0,0,,,,,,,,,,,,,
5306024,1745473905050,0.0,133,,-0.03,0.02,0.91,0,-1,-0,0.91,1.04,88,8138,6.2,2.42,,7.69,1.019,84.4,,43.3,5,,,,,,,,,,,,0,0,0,0,0,0,0,0,0,0,0,0,0,0,0,0,,,,,,0.0,,,,,,,
5306044,1745473905070,,,,,,,,,,,,,,,,,,,,,,,,,,,,,,,,,,0,0,0,0,0,0,0,0,0,0,0,0,0,0,0,0,,,,,,,,,,,,,
5306064,1745473905090,0.0,133,,-0.05,0.04,0.96,0,-0,-0,0.96,1.04,93,8322,6.1,2.24,,7.43,0.986,84.4,,43.3,5,,,,,,,,,,,,0,0,0,0,0,0,0,0,0,0,0,0,0,0,0,0,,,,,,0.0,,,,,,,
5306084,1745473905118,,,,,,,,,,,,,,,,,,,,,,,0,0,0,0,10.0,0.0,0.0,0.0,2.26,,,0,0,0,0,0,0,0,0,0,0,0,0,0,0,0,0,,0,,,,,38.994102,-76.939652,0.11,26.5,31,3,0.9
5306104,1745473905138,0.0,133,,-0.03,-0.0,0.95,0,-0,-0,0.95,1.04,91,8472,6.1,2.17,,7.43,0.986,84.4,,43.3,5,,,,,,,,,,,,0,0,0,0,0,0,0,0,0,0,0,0,0,0,0,0,,,,,,0.0,,,,,,,
5306124,1745473905158,,,,,,,,,,,,,,,,,,,,,,,,,,,,,,,,,,0,0,0,0,0,0,0,0,0,0,0,0,0,0,0,0,,,,,,,,,,,,,
5306144,1745473905178,0.0,133,,-0.05,0.1,1.01,-1,-0,-0,1.01,1.04,97,8581,6.4,2.08,,7.08,0.985,84.4,,43.7,5,,,,,,,,,,,,0,0,0,0,0,0,0,0,0,0,0,0,0,0,0,0,,,,,,0.0,,,,,,,
5306164,1745473905198,,,,,,,,,,,,,,,,,,,,,,,,,,,,,,,,,,0,0,0,0,0,0,0,0,0,0,0,0,0,0,0,0,,,,,,,,,,,,,
5306184,1745473905213,0.0,133,,-0.05,-0.0,0.96,-0,-0,-0,0.96,1.04,92,8581,6.4,2.08,,6.91,0.995,84.4,,43.7,5,0,0,0,0,10.0,0.0,0.0,0.0,2.26,,,0,0,0,0,0,0,0,0,0,0,0,0,0,0,0,0,,0,,,,0.0,38.994102,-76.939652,0.14,26.5,31,3,0.9
5306204,1745473905233,,,,,,,,,,,,,,,,,,,,,,,,,,,,,,,,,,0,0,0,0,0,0,0,0,0,0,0,0,0,0,0,0,,,,,,,,,,,,,
5306224,1745473905253,0.0,133,,-0.04,0.04,1.03,0,-0,-0,1.03,1.04,99,8630,6.5,2.04,,6.91,1.019,84.4,,43.6,5,,,,,,,,,,,,0,0,0,0,0,0,0,0,0,0,0,0,0,0,0,0,,,,,,0.0,,,,,,,
5306244,1745473905273,,,,,,,,,,,,,,,,,,,,,,,,,,,,,,,,,,0,0,0,0,0,0,0,0,0,0,0,0,0,0,0,0,,,,,,,,,,,,,
5306264,1745473905293,0.0,133,,-0.06,0.11,0.95,-0,-0,-0,0.96,1.04,92,8555,6.6,2.0,,6.76,1.046,84.4,,43.6,5,,,,,,,,,,,,0,0,0,0,0,0,0,0,0,0,0,0,0,0,0,0,,,,,,0.0,,,,,,,
5306284,1745473905317,,,,,,,,,,,,,,,,,,,,,,,0,0,0,0,10.0,0.0,0.0,0.0,2.26,,,0,0,0,0,0,0,0,0,0,0,0,0,0,0,0,0,,0,,,,,38.994102,-76.939652,0.0,26.5,31,3,0.9
5306304,1745473905337,0.0,133,,-0.07,-0.03,0.98,-1,-0,-0,0.98,1.04,94,8535,6.5,2.01,,6.7,1.093,84.4,,43.6,5,,,,,,,,,,,,0,0,0,0,0,0,0,0,0,0,0,0,0,0,0,0,,,,,,0.0,,,,,,,
5306324,1745473905357,,,,,,,,,,,,,,,,,,,,,,,,,,,,,,,,,,0,0,0,0,0,0,0,0,0,0,0,0,0,0,0,0,,,,,,,,,,,,,
5306344,1745473905377,0.0,133,,-0.05,0.02,0.98,0,-0,-0,0.98,1.04,94,8484,6.5,2.01,,6.7,1.093,84.4,,43.4,5,,,,,,,,,,,,0,0,0,0,0,0,0,0,0,0,0,0,0,0,0,0,,,,,,0.0,,,,,,,
5306364,1745473905397,,,,,,,,,,,,,,,,,,,,,,,,,,,,,,,,,,0,0,0,0,0,0,0,0,0,0,0,0,0,0,0,0,,,,,,,,,,,,,
5306384,1745473905417,0.0,133,13.29,-0.07,-0.01,0.94,-0,-0,-0,0.94,1.04,91,8484,6.5,2.01,15,6.64,1.097,84.4,180,43.4,5,0,0,0,0,10.0,0.0,0.0,0.0,2.26,0,1.0,0,0,0,0,0,0,0,0,0,0,0,0,0,0,0,0,0,0,1.0,0,0,0.0,38.994102,-76.939652,0.04,26.5,31,3,0.9
5306404,1745473905437,,,,,,,,,,,,,,,,,,,,,,,,,,,,,,,,,,0,0,0,0,0,0,0,0,0,0,0,0,0,0,0,0,,,,,,,,,,,,,
5306424,1745473905457,0.0,133,,-0.06,-0.03,0.94,-1,-0,-0,0.94,1.04,91,8387,6.4,2.01,,6.59,1.097,84.4,,43.6,5,,,,,,,,,,,,0,0,0,0,0,0,0,0,0,0,0,0,0,0,0,0,,,,,,0.0,,,,,,,
5306444,1745473905477,,,,,,,,,,,,,,,,,,,,,,,,,,,,,,,,,,0,0,0,0,0,0,0,0,0,0,0,0,0,0,0,0,,,,,,,,,,,,,
5306464,1745473905497,0.0,133,,-0.08,0.03,0.93,-1,-0,-0,0.94,1.04,90,8297,6.2,2.01,,6.72,1.106,84.4,,43.6,5,,,,,,,,,,,,0,0,0,0,0,0,0,0,0,0,0,0,0,0,0,0,,,,,,0.0,,,,,,,
5306484,1745473905517,,,,,,,,,,,,,,,,,,,,,,,0,0,0,0,10.0,0.0,0.0,0.0,2.26,,,0,0,0,0,0,0,0,0,0,0,0,0,0,0,0,0,,0,,,,,38.994102,-76.939652,0.0,26.5,31,3,0.9
5306504,1745473905537,0.0,133,,-0.09,-0.02,0.94,-1,-0,-0,0.94,1.04,90,8186,6.1,2.04,,6.8,1.108,84.4,,43.6,5,,,,,,,,,,,,0,0,0,0,0,0,0,0,0,0,0,0,0,0,0,0,,,,,,0.0,,,,,,,
5306524,1745473905557,,,,,,,,,,,,,,,,,,,,,,,,,,,,,,,,,,0,0,0,0,0,0,0,0,0,0,0,0,0,0,0,0,,,,,,,,,,,,,
5306544,1745473905577,0.0,133,,-0.11,-0.01,0.94,-1,-0,0,0.95,1.04,91,8143,6.1,2.1,,6.8,1.108,84.4,,43.3,5,,,,,,,,,,,,0,0,0,0,0,0,0,0,0,0,0,0,0,0,0,0,,,,,,0.0,,,,,,,
5306564,1745473905597,,,,,,,,,,,,,,,,,,,,,,,,,,,,,,,,,,0,0,0,0,0,0,0,0,0,0,0,0,0,0,0,0,,,,,,,,,,,,,
5306584,1745473905617,0.0,133,,-0.12,0.05,0.96,-0,-0,-0,0.97,1.04,93,8143,6.1,2.1,,6.9,1.115,84.4,,43.3,5,0,0,1,0,10.0,0.0,0.0,0.0,2.26,,,0,0,0,0,0,0,0,0,0,0,0,0,0,0,0,0,,0,,,,0.0,38.994102,-76.939652,0.05,26.5,31,3,0.9
5306604,1745473905637,,,,,,,,,,,,,,,,,,,,,,,,,,,,,,,,,,0,0,0,0,0,0,0,0,0,0,0,0,0,0,0,0,,,,,,,,,,,,,
5306624,1745473905657,0.0,133,,-0.11,-0.0,0.92,-1,-0,-0,0.93,1.04,89,8050,6.2,2.11,,6.92,1.104,84.4,,43.2,5,,,,,,,,,,,,0,0,0,0,0,0,0,0,0,0,0,0,0,0,0,0,,,,,,0.0,,,,,,,
5306644,1745473905677,,,,,,,,,,,,,,,,,,,,,,,,,,,,,,,,,,0,0,0,0,0,0,0,0,0,0,0,0,0,0,0,0,,,,,,,,,,,,,
5306664,1745473905697,0.0,133,,-0.12,0.06,0.92,-1,-0,-0,0.93,1.04,90,7923,6.4,2.2,,7.12,1.104,84.4,,43.2,5,,,,,,,,,,,,0,0,0,0,0,0,0,0,0,0,0,0,0,0,0,0,,,,,,0.0,,,,,,,
5306684,1745473905717,,,,,,,,,,,,,,,,,,,,,,,0,0,1,0,10.0,0.0,0.0,0.0,2.26,,,0,0,0,0,0,0,0,0,0,0,0,0,0,0,0,0,,0,,,,,38.994102,-76.939652,0.04,26.5,31,3,0.9
5306704,1745473905737,0.0,133,,-0.11,-0.0,0.93,-0,-0,-0,0.93,1.04,90,7815,6.6,2.21,,7.1,1.111,84.4,,43.2,5,,,,,,,,,,,,0,0,0,0,0,0,0,0,0,0,0,0,0,0,0,0,,,,,,0.0,,,,,,,
5306724,1745473905757,,,,,,,,,,,,,,,,,,,,,,,,,,,,,,,,,,0,0,0,0,0,0,0,0,0,0,0,0,0,0,0,0,,,,,,,,,,,,,
5306744,1745473905777,0.0,133,,-0.1,0.08,0.96,-0,-0,-0,0.97,1.04,93,7650,6.6,2.32,,7.1,1.111,84.4,,42.9,5,,,,,,,,,,,,0,0,0,0,0,0,0,0,0,0,0,0,0,0,0,0,,,,,,0.0,,,,,,,
5306764,1745473905797,,,,,,,,,,,,,,,,,,,,,,,,,,,,,,,,,,0,0,0,0,0,0,0,0,0,0,0,0,0,0,0,0,,,,,,,,,,,,,
5306784,1745473905819,0.0,133,,-0.07,0.19,0.98,-0,-0,0,1.0,1.04,96,7650,6.6,2.32,,7.16,1.176,84.4,,42.9,5,0,0,1,0,10.0,0.0,0.0,0.0,2.26,,,0,0,0,0,0,0,0,0,0,0,0,0,0,0,0,0,,0,,,,0.0,38.994102,-76.939652,0.04,26.5,31,3,0.9
5306804,1745473905839,,,,,,,,,,,,,,,,,,,,,,,,,,,,,,,,,,0,0,0,0,0,0,0,0,0,0,0,0,0,0,0,0,,,,,,,,,,,,,
5306824,1745473905859,0.0,133,,-0.08,0.14,0.96,-1,-0,0,0.97,1.04,93,7684,6.7,2.33,,7.34,1.159,84.4,,43.4,5,,,,,,,,,,,,0,0,0,0,0,0,0,0,0,0,0,0,0,0,0,0,,,,,,0.0,,,,,,,
5306844,1745473905879,,,,,,,,,,,,,,,,,,,,,,,,,,,,,,,,,,0,0,0,0,0,0,0,0,0,0,0,0,0,0,0,0,,,,,,,,,,,,,
5306864,1745473905899,0.0,133,,-0.09,0.02,0.96,-1,-0,-0,0.97,1.04,93,7709,6.8,2.36,,7.41,1.122,84.4,,43.4,5,,,,,,,,,,,,0,0,0,0,0,0,0,0,0,0,0,0,0,0,0,0,,,,,,0.0,,,,,,,
5306884,1745473905919,,,,,,,,,,,,,,,,,,,,,,,0,0,1,0,10.0,0.0,0.0,0.0,2.26,,,0,0,0,0,0,0,0,0,0,0,0,0,0,0,0,0,,0,,,,,38.994102,-76.939652,0.05,26.5,31,3,0.9
5306904,1745473905939,0.0,133,,-0.1,0.03,0.99,-0,-0,-0,1.0,1.04,96,7722,6.7,2.38,,7.49,1.083,84.4,,43.4,5,,,,,,,,,,,,0,0,0,0,0,0,0,0,0,0,0,0,0,0,0,0,,,,,,0.0,,,,,,,
5306924,1745473905959,,,,,,,,,,,,,,,,,,,,,,,,,,,,,,,,,,0,0,0,0,0,0,0,0,0,0,0,0,0,0,0,0,,,,,,,,,,,,,
5306944,1745473905979,0.0,133,,-0.09,0.1,0.98,0,-0,-0,0.99,1.04,95,7683,9.4,2.53,,7.49,1.083,84.4,,43.5,5,,,,,,,,,,,,0,0,0,0,0,0,0,0,0,0,0,0,0,0,0,0,,,,,,0.0,,,,,,,
5306964,1745473905999,,,,,,,,,,,,,,,,,,,,,,,,,,,,,,,,,,0,0,0,0,0,0,0,0,0,0,0,0,0,0,0,0,,,,,,,,,,,,,
5306984,1745473906009,0.0,133,,-0.09,0.01,0.97,0,-0,-0,0.97,1.04,93,7683,9.4,2.53,,7.82,1.078,84.4,,43.5,5,0,0,1,0,10.0,0.0,0.0,0.0,2.26,,,0,0,0,0,0,0,0,0,0,0,0,0,0,0,0,0,,0,,,,0.0,38.994102,-76.939652,0.05,26.5,30,3,0.9
5307004,1745473906029,,,,,,,,,,,,,,,,,,,,,,,,,,,,,,,,,,0,0,0,0,0,0,0,0,0,0,0,0,0,0,0,0,,,,,,,,,,,,,
5307024,1745473906049,0.0,133,,-0.1,-0.04,0.94,0,-0,-0,0.94,1.04,91,7655,18.0,3.19,,8.65,1.097,84.4,,43.5,5,,,,,,,,,,,,0,0,0,0,0,0,0,0,0,0,0,0,0,0,0,0,,,,,,0.0,,,,,,,
5307044,1745473906069,,,,,,,,,,,,,,,,,,,,,,,,,,,,,,,,,,0,0,0,0,0,0,0,0,0,0,0,0,0,0,0,0,,,,,,,,,,,,,
5307064,1745473906089,0.0,133,,-0.09,0.02,0.97,0,-0,-0,0.97,1.04,93,7706,24.3,3.57,,9.96,1.11,84.4,,42.7,5,,,,,,,,,,,,0,0,0,0,0,0,0,0,0,0,0,0,0,0,0,0,,,,,,0.0,,,,,,,
5307084,1745473906115,,,,,,,,,,,,,,,,,,,,,,,0,0,1,0,10.0,0.0,0.0,0.0,2.26,,,0,0,0,0,0,0,0,0,0,0,0,0,0,0,0,0,,0,,,,,38.994102,-76.939652,0.05,26.5,30,3,0.9
5307104,1745473906135,0.0,133,,-0.11,-0.03,0.95,-0,-0,-0,0.96,1.04,92,8022,25.5,3.91,,10.81,1.175,84.4,,42.7,5,,,,,,,,,,,,0,0,0,0,0,0,0,0,0,0,0,0,0,0,0,0,,,,,,0.0,,,,,,,
5307124,1745473906155,,,,,,,,,,,,,,,,,,,,,,,,,,,,,,,,,,0,0,0,0,0,0,0,0,0,0,0,0,0,0,0,0,,,,,,,,,,,,,
5307144,1745473906175,0.0,133,,-0.08,0.08,0.99,1,-0,-0,1.0,1.04,96,8587,26.5,4.72,,10.81,1.175,84.4,,43.7,5,,,,,,,,,,,,0,0,0,0,0,0,0,0,0,0,0,0,0,0,0,0,,,,,,0.0,,,,,,,
5307164,1745473906195,,,,,,,,,,,,,,,,,,,,,,,,,,,,,,,,,,0,0,0,0,0,0,0,0,0,0,0,0,0,0,0,0,,,,,,,,,,,,,
5307184,1745473906216,0.0,133,,-0.06,-0.1,1.03,1,-0,-1,1.04,1.04,100,8587,26.5,4.72,,10.98,1.164,84.4,,43.7,5,0,0,1,0,10.0,0.0,0.0,0.0,2.26,,,0,0,0,0,0,0,0,0,0,0,0,0,0,0,0,0,,0,,,,0.0,38.994102,-76.939652,0.07,26.5,30,3,0.9
5307204,1745473906236,,,,,,,,,,,,,,,,,,,,,,,,,,,,,,,,,,0,0,0,0,0,0,0,0,0,0,0,0,0,0,0,0,,,,,,,,,,,,,
5307224,1745473906256,0.0,133,,-0.05,0.0,0.97,1,-0,-1,0.97,1.04,93,9519,27.1,4.29,,10.81,1.154,84.4,,45.8,5,,,,,,,,,,,,0,0,0,0,0,0,0,0,0,0,0,0,0,0,0,0,,,,,,0.0,,,,,,,
5307244,1745473906276,,,,,,,,,,,,,,,,,,,,,,,,,,,,,,,,,,0,0,0,0,0,0,0,0,0,0,0,0,0,0,0,0,,,,,,,,,,,,,
5307264,1745473906296,0.0,133,,-0.09,0.08,0.94,0,-1,-1,0.95,1.04,91,10699,27.4,3.53,,10.49,1.027,84.4,,45.8,5,,,,,,,,,,,,0,0,0,0,0,0,0,0,0,0,0,0,0,0,0,0,,,,,,0.0,,,,,,,
5307284,1745473906318,,,,,,,,,,,,,,,,,,,,,,,0,0,1,0,10.0,0.0,0.0,0.0,2.25,,,0,0,0,0,0,0,0,0,0,0,0,0,0,0,0,0,,0,,,,,38.994102,-76.939652,0.19,26.5,30,3,0.9
5307304,1745473906338,0.0,133,,-0.1,0.05,1.03,0,-0,-0,1.04,1.04,100,11497,27.8,3.24,,10.14,0.99,84.4,,45.8,5,,,,,,,,,,,,0,0,0,0,0,0,0,0,0,0,0,0,0,0,0,0,,,,,,0.0,,,,,,,
5307324,1745473906358,,,,,,,,,,,,,,,,,,,,,,,,,,,,,,,,,,0,0,0,0,0,0,0,0,0,0,0,0,0,0,0,0,,,,,,,,,,,,,
5307344,1745473906378,0.0,132,,-0.08,0.09,1.13,1,-0,-0,1.14,1.14,100,12155,28.4,3.03,,10.14,0.99,84.4,,49.2,5,,,,,,,,,,,,0,0,0,0,0,0,0,0,0,0,0,0,0,0,0,0,,,,,,0.0,,,,,,,
5307364,1745473906398,,,,,,,,,,,,,,,,,,,,,,,,,,,,,,,,,,0,0,0,0,0,0,0,0,0,0,0,0,0,0,0,0,,,,,,,,,,,,,
5307384,1745473906418,0.0,133,13.25,-0.11,0.14,1.25,1,-0,1,1.27,1.27,100,12155,28.4,3.03,15,9.93,1.021,84.4,180,49.2,5,0,0,1,0,10.0,0.0,0.0,0.0,2.26,0,1.0,0,0,0,0,0,0,0,0,0,0,0,0,0,0,0,0,0,0,1.0,0,0,0.0,38.994102,-76.939652,0.18,26.5,30,3,0.9
5307404,1745473906438,,,,,,,,,,,,,,,,,,,,,,,,,,,,,,,,,,0,0,0,0,0,0,0,0,0,0,0,0,0,0,0,0,,,,,,,,,,,,,
5307424,1745473906458,0.0,133,,-0.13,0.16,1.12,-1,-0,1,1.14,1.27,90,12315,29.1,2.85,,9.73,1.051,84.4,,49.2,5,,,,,,,,,,,,0,0,0,0,0,0,0,0,0,0,0,0,0,0,0,0,,,,,,0.0,,,,,,,
5307444,1745473906478,,,,,,,,,,,,,,,,,,,,,,,,,,,,,,,,,,0,0,0,0,0,0,0,0,0,0,0,0,0,0,0,0,,,,,,,,,,,,,
5307464,1745473906498,0.0,133,,-0.16,0.16,1.14,-0,-0,1,1.16,1.27,92,12298,32.3,2.67,,9.86,1.149,84.4,,51.4,5,,,,,,,,,,,,0,0,0,0,0,0,0,0,0,0,0,0,0,0,0,0,,,,,,0.0,,,,,,,
5307484,1745473906518,,,,,,,,,,,,,,,,,,,,,,,0,0,1,0,10.0,0.0,0.0,0.0,2.26,,,0,0,0,0,0,0,0,0,0,0,0,0,0,0,0,0,,0,,,,,38.994102,-76.939652,0.8,26.5,30,3,0.9
5307504,1745473906538,0.0,133,,-0.19,0.17,1.13,-1,-1,0,1.15,1.27,91,11857,43.8,3.54,,10.97,1.243,84.4,,51.4,5,,,,,,,,,,,,0,0,0,0,0,0,0,0,0,0,0,0,0,0,0,0,,,,,,0.0,,,,,,,
5307524,1745473906558,,,,,,,,,,,,,,,,,,,,,,,,,,,,,,,,,,0,0,0,0,0,0,0,0,0,0,0,0,0,0,0,0,,,,,,,,,,,,,
5307544,1745473906578,0.0,133,,-0.17,-0.06,1.04,-2,-1,-0,1.06,1.27,84,12041,51.0,3.72,,10.97,1.243,84.4,,54.3,5,,,,,,,,,,,,0,0,0,0,0,0,0,0,0,0,0,0,0,0,0,0,,,,,,0.0,,,,,,,
5307564,1745473906598,,,,,,,,,,,,,,,,,,,,,,,,,,,,,,,,,,0,0,0,0,0,0,0,0,0,0,0,0,0,0,0,0,,,,,,,,,,,,,
5307584,1745473906618,0.0,133,,-0.18,-0.17,1.01,-3,-1,-0,1.04,1.27,82,12041,51.0,3.72,,11.88,1.249,84.4,,54.3,5,0,0,1,0,10.0,0.0,0.0,0.0,2.26,,,0,0,0,0,0,0,0,0,0,0,0,0,0,0,0,0,,0,,,,0.0,38.994102,-76.939652,0.31,26.5,30,3,0.9
5307604,1745473906638,,,,,,,,,,,,,,,,,,,,,,,,,,,,,,,,,,0,0,0,0,0,0,0,0,0,0,0,0,0,0,0,0,,,,,,,,,,,,,
5307624,1745473906658,0.0,133,,-0.16,-0.04,0.99,-4,-0,1,1.01,1.27,79,12315,64.9,4.5,,12.47,1.249,84.4,,57.4,5,,,,,,,,,,,,0,0,0,0,0,0,0,0,0,0,0,0,0,0,0,0,,,,,,0.0,,,,,,,
5307644,1745473906678,,,,,,,,,,,,,,,,,,,,,,,,,,,,,,,,,,0,0,0,0,0,0,0,0,0,0,0,0,0,0,0,0,,,,,,,,,,,,,
5307664,1745473906698,0.0,133,,-0.06,-0.13,1.02,-2,0,1,1.03,1.27,81,12998,81.3,4.74,,12.71,1.25,84.4,,57.4,5,,,,,,,,,,,,0,0,0,0,0,0,0,0,0,0,0,0,0,0,0,0,,,,,,0.0,,,,,,,
5307684,1745473906718,,,,,,,,,,,,,,,,,,,,,,,0,0,1,0,10.0,0.0,0.0,0.0,2.26,,,0,0,0,0,0,0,0,0,0,0,0,0,0,0,0,0,,0,,,,,38.994102,-76.939652,0.05,26.5,30,3,0.9
5307704,1745473906738,0.0,133,,0.06,-0.08,1.04,-1,1,1,1.05,1.27,83,12711,95.2,4.85,,12.95,1.104,84.4,,57.4,5,,,,,,,,,,,,0,0,0,0,0,0,0,0,0,0,0,0,0,0,0,0,,,,,,0.0,,,,,,,
5307724,1745473906758,,,,,,,,,,,,,,,,,,,,,,,,,,,,,,,,,,0,0,0,0,0,0,0,0,0,0,0,0,0,0,0,0,,,,,,,,,,,,,
5307744,1745473906778,0.0,133,,0.11,0.01,1.07,0,1,2,1.08,1.27,85,11870,99.4,5.17,,12.95,1.104,84.4,,58.9,5,,,,,,,,,,,,0,0,0,0,0,0,0,0,0,0,0,0,0,0,0,0,,,,,,0.0,,,,,,,
5307764,1745473906798,,,,,,,,,,,,,,,,,,,,,,,,,,,,,,,,,,0,0,0,0,0,0,0,0,0,0,0,0,0,0,0,0,,,,,,,,,,,,,
5307784,1745473906818,0.0,133,,0.2,0.17,1.12,1,1,1,1.15,1.27,91,11870,99.4,5.17,,13.35,1.052,84.4,,58.9,5,0,0,12,10,10.0,0.0,0.0,0.0,2.26,,,0,0,0,0,0,0,0,0,0,0,0,0,0,0,0,0,,0,,,,0.0,38.994102,-76.939652,1.09,26.5,30,3,0.9
5307804,1745473906838,,,,,,,,,,,,,,,,,,,,,,,,,,,,,,,,,,0,0,0,0,0,0,0,0,0,0,0,0,0,0,0,0,,,,,,,,,,,,,
5307824,1745473906858,0.0,133,,0.21,0.07,1.13,2,1,1,1.15,1.27,91,10943,99.4,5.51,,13.59,1.034,84.4,,52.9,5,,,,,,,,,,,,0,0,0,0,0,0,0,0,0,0,0,0,0,0,0,0,,,,,,0.0,,,,,,,
5307844,1745473906878,,,,,,,,,,,,,,,,,,,,,,,,,,,,,,,,,,0,0,0,0,0,0,0,0,0,0,0,0,0,0,0,0,,,,,,,,,,,,,
5307864,1745473906898,0.0,133,,0.26,-0.13,1.08,2,1,1,1.12,1.27,89,11207,99.3,5.51,,13.49,1.017,84.4,,52.9,5,,,,,,,,,,,,0,0,0,0,0,0,0,0,0,0,0,0,0,0,0,0,,,,,,0.0,,,,,,,
5307884,1745473906918,,,,,,,,,,,,,,,,,,,,,,,3,0,32,31,10.0,0.0,0.0,0.0,2.26,,,0,0,0,0,0,0,0,0,0,0,0,0,0,0,0,0,,0,,,,,38.994102,-76.939644,4.07,26.5,30,3,0.9
5307904,1745473906938,0.0,133,,0.26,-0.21,1.13,3,0,1,1.18,1.27,93,11585,99.3,5.35,,13.68,1.003,84.4,,52.9,5,,,,,,,,,,,,0,0,0,0,0,0,0,0,0,0,0,0,0,0,0,0,,,,,,0.0,,,,,,,
5307924,1745473906958,,,,,,,,,,,,,,,,,,,,,,,,,,,,,,,,,,0,0,0,0,0,0,0,0,0,0,0,0,0,0,0,0,,,,,,,,,,,,,
5307944,1745473906978,0.0,133,,0.31,-0.19,1.2,5,0,1,1.26,1.27,99,11823,99.4,5.26,,13.68,1.003,84.4,,58.0,5,,,,,,,,,,,,0,0,0,0,0,0,0,0,0,0,0,0,0,0,0,0,,,,,,0.0,,,,,,,
5307964,1745473906998,,,,,,,,,,,,,,,,,,,,,,,,,,,,,,,,,,0,0,0,0,0,0,0,0,0,0,0,0,0,0,0,0,,,,,,,,,,,,,
5307984,1745473907010,0.0,132,,0.41,0.04,1.16,6,0,0,1.23,1.27,97,11823,99.4,5.26,,13.51,0.973,84.4,,58.0,5,5,0,36,36,10.0,0.0,0.0,0.0,2.26,,,0,0,0,0,0,0,0,0,0,0,0,0,0,0,0,0,,1,,,,0.0,38.994102,-76.939644,7.73,26.5,31,3,0.9
5308004,1745473907030,,,,,,,,,,,,,,,,,,,,,,,,,,,,,,,,,,0,0,0,0,0,0,0,0,0,0,0,0,0,0,0,0,,,,,,,,,,,,,
5308024,1745473907050,0.0,133,,0.46,-0.09,1.04,6,0,0,1.14,1.27,90,11801,99.3,5.26,,13.47,0.968,84.4,,58.3,5,,,,,,,,,,,,0,0,0,0,0,0,0,0,0,0,0,0,0,0,0,0,,,,,,0.0,,,,,,,
5308044,1745473907070,,,,,,,,,,,,,,,,,,,,,,,,,,,,,,,,,,0,0,0,0,0,0,0,0,0,0,0,0,0,0,0,0,,,,,,,,,,,,,
5308064,1745473907090,0.0,132,,0.49,-0.21,1.04,7,0,0,1.17,1.27,92,11826,99.4,5.25,,13.55,0.996,84.4,,58.3,5,,,,,,,,,,,,0,0,0,0,0,0,0,0,0,0,0,0,0,0,0,0,,,,,,0.0,,,,,,,
5308084,1745473907112,,,,,,,,,,,,,,,,,,,,,,,6,0,38,37,10.0,0.0,0.0,0.0,2.27,,,0,0,0,0,0,0,0,0,0,0,0,0,0,0,0,0,,0,,,,,38.994102,-76.939644,10.4,26.5,31,3,0.9
5308104,1745473907132,0.0,132,,0.55,-0.32,1.02,8,-0,0,1.2,1.27,95,11993,99.4,5.19,,13.52,0.988,84.4,,58.3,5,,,,,,,,,,,,0,0,0,0,0,0,0,0,0,0,0,0,0,0,0,0,,,,,,0.0,,,,,,,
5308124,1745473907152,,,,,,,,,,,,,,,,,,,,,,,,,,,,,,,,,,0,0,0,0,0,0,0,0,0,0,0,0,0,0,0,0,,,,,,,,,,,,,
5308144,1745473907172,0.0,132,,0.65,-0.51,0.98,8,-0,-0,1.28,1.28,100,11920,99.4,5.21,,13.52,0.988,84.4,,60.8,5,,,,,,,,,,,,0,0,0,0,0,0,0,0,0,0,0,0,0,0,0,0,,,,,,0.0,,,,,,,
5308164,1745473907192,,,,,,,,,,,,,,,,,,,,,,,,,,,,,,,,,,0,0,0,0,0,0,0,0,0,0,0,0,0,0,0,0,,,,,,,,,,,,,
5308184,1745473907215,0.0,132,,0.68,-0.57,1.05,8,0,-0,1.38,1.38,100,11920,99.4,5.21,,13.49,0.968,84.4,,60.8,5,8,0,36,37,10.0,244.0,50.0,0.0,2.26,,,0,0,0,0,0,0,0,0,0,0,0,0,0,0,0,0,,0,,,,0.0,38.994102,-76.939636,13.31,26.5,31,3,0.9
5308204,1745473907235,,,,,,,,,,,,,,,,,,,,,,,,,,,,,,,,,,0,0,0,0,0,0,0,0,0,0,0,0,0,0,0,0,,,,,,,,,,,,,
5308224,1745473907255,0.0,132,,0.72,-0.6,1.02,5,-0,-1,1.39,1.39,100,11740,99.4,5.25,,13.39,0.978,84.4,,60.8,5,,,,,,,,,,,,0,0,0,0,0,0,0,0,0,0,0,0,0,0,0,0,,,,,,0.0,,,,,,,
5308244,1745473907275,,,,,,,,,,,,,,,,,,,,,,,,,,,,,,,,,,0,0,0,0,0,0,0,0,0,0,0,0,0,0,0,0,,,,,,,,,,,,,
5308264,1745473907295,0.0,132,,0.71,-0.34,0.97,5,-1,-2,1.25,1.39,90,11568,99.4,5.34,,13.45,0.987,84.4,,59.0,5,,,,,,,,,,,,0,0,0,0,0,0,0,0,0,0,0,0,0,0,0,0,,,,,,0.0,,,,,,,
5308284,1745473907317,,,,,,,,,,,,,,,,,,,,,,,10,0,36,36,10.0,147.0,50.0,0.0,2.26,,,0,0,0,0,0,0,0,0,0,0,0,0,0,0,0,0,,1,,,,,38.994102,-76.939629,16.49,26.5,31,3,0.9
5308304,1745473907337,0.0,131,,0.7,-0.37,0.94,4,-0,-2,1.22,1.39,88,11571,99.4,5.32,,13.64,0.977,84.4,,59.0,5,,,,,,,,,,,,0,0,0,0,0,0,0,0,0,0,0,0,0,0,0,0,,,,,,0.0,,,,,,,
5308324,1745473907357,,,,,,,,,,,,,,,,,,,,,,,,,,,,,,,,,,0,0,0,0,0,0,0,0,0,0,0,0,0,0,0,0,,,,,,,,,,,,,
5308344,1745473907377,0.0,131,,0.74,-0.43,0.96,2,-0,-2,1.28,1.39,92,11585,99.4,5.34,,13.64,0.977,84.4,,57.5,5,,,,,,,,,,,,0,0,0,0,0,0,0,0,0,0,0,0,0,0,0,0,,,,,,0.0,,,,,,,
5308364,1745473907397,,,,,,,,,,,,,,,,,,,,,,,,,,,,,,,,,,0,0,0,0,0,0,0,0,0,0,0,0,0,0,0,0,,,,,,,,,,,,,
5308384,1745473907417,0.0,132,13.24,0.76,-0.42,1.08,2,0,-1,1.39,1.39,100,11585,99.4,5.34,15,13.61,0.963,84.4,180,57.5,5,12,0,35,35,10.0,51.0,50.0,0.0,2.25,0,1.0,0,0,0,0,0,0,0,0,0,0,0,0,0,0,0,0,0,1,1.0,0,0,0.0,38.994102,-76.939621,19.63,26.5,31,3,0.9
5308404,1745473907437,,,,,,,,,,,,,,,,,,,,,,,,,,,,,,,,,,0,0,0,0,0,0,0,0,0,0,0,0,0,0,0,0,,,,,,,,,,,,,
5308424,1745473907457,0.0,132,,0.8,-0.33,1.04,1,-0,-2,1.35,1.39,98,11456,99.5,5.36,,13.48,0.967,84.4,,57.9,5,,,,,,,,,,,,0,0,0,0,0,0,0,0,0,0,0,0,0,0,0,0,,,,,,0.0,,,,,,,
5308444,1745473907477,,,,,,,,,,,,,,,,,,,,,,,,,,,,,,,,,,0,0,0,0,0,0,0,0,0,0,0,0,0,0,0,0,,,,,,,,,,,,,
5308464,1745473907497,0.0,132,,0.79,-0.19,1.05,4,1,-1,1.33,1.39,96,11438,99.5,5.38,,13.6,0.969,84.4,,57.9,5,,,,,,,,,,,,0,0,0,0,0,0,0,0,0,0,0,0,0,0,0,0,,,,,,0.0,,,,,,,
5308484,1745473907518,,,,,,,,,,,,,,,,,,,,,,,14,0,35,35,10.0,210.0,50.0,0.0,2.26,,,0,0,0,0,0,0,0,0,0,0,0,0,0,0,0,0,,1,,,,,38.994102,-76.939613,23.1,26.5,31,3,0.9
5308504,1745473907538,0.0,132,,0.8,-0.07,0.98,6,1,-1,1.27,1.39,91,11398,99.4,5.4,,13.53,0.946,84.4,,57.9,5,,,,,,,,,,,,0,0,0,0,0,0,0,0,0,0,0,0,0,0,0,0,,,,,,0.0,,,,,,,
5308524,1745473907558,,,,,,,,,,,,,,,,,,,,,,,,,,,,,,,,,,0,0,0,0,0,0,0,0,0,0,0,0,0,0,0,0,,,,,,,,,,,,,
5308544,1745473907578,0.0,131,,0.82,-0.2,0.94,6,1,-1,1.27,1.39,91,11278,99.4,5.42,,13.53,0.946,84.4,,59.5,5,,,,,,,,,,,,0,0,0,0,0,0,0,0,0,0,0,0,0,0,0,0,,,,,,0.0,,,,,,,
5308564,1745473907598,,,,,,,,,,,,,,,,,,,,,,,,,,,,,,,,,,0,0,0,0,0,0,0,0,0,0,0,0,0,0,0,0,,,,,,,,,,,,,
5308584,1745473907617,0.0,131,,0.82,-0.2,0.98,5,1,-0,1.3,1.39,93,11278,99.4,5.42,,13.63,0.946,84.4,,59.5,5,16,0,35,35,10.0,120.0,50.0,0.0,2.27,,,0,0,0,0,0,0,0,0,0,0,0,0,0,0,0,0,,1,,,,0.0,38.994102,-76.939613,25.93,26.4,31,3,0.9
5308604,1745473907637,,,,,,,,,,,,,,,,,,,,,,,,,,,,,,,,,,0,0,0,0,0,0,0,0,0,0,0,0,0,0,0,0,,,,,,,,,,,,,
5308624,1745473907657,0.0,131,,0.81,-0.23,1.01,7,1,-0,1.31,1.39,95,11205,99.4,5.45,,13.72,0.958,84.4,,56.7,5,,,,,,,,,,,,0,0,0,0,0,0,0,0,0,0,0,0,0,0,0,0,,,,,,0.0,,,,,,,
5308644,1745473907677,,,,,,,,,,,,,,,,,,,,,,,,,,,,,,,,,,0,0,0,0,0,0,0,0,0,0,0,0,0,0,0,0,,,,,,,,,,,,,
5308664,1745473907697,0.0,132,,0.78,-0.17,0.97,7,0,0,1.26,1.39,90,11298,99.5,5.42,,13.69,0.957,82.6,,56.7,5,,,,,,,,,,,,0,0,0,0,0,0,0,0,0,0,0,0,0,0,0,0,,,,,,0.0,,,,,,,
5308684,1745473907719,,,,,,,,,,,,,,,,,,,,,,,19,0,35,34,10.0,190.0,50.0,0.0,2.26,,,0,0,0,0,0,0,0,0,0,0,0,0,0,0,0,0,,1,,,,,38.994102,-76.939606,29.64,26.4,31,3,0.9
5308704,1745473907739,0.0,131,,0.72,-0.11,0.95,8,0,0,1.2,1.39,86,11438,99.4,5.37,,13.73,0.939,82.6,,56.7,5,,,,,,,,,,,,0,0,0,0,0,0,0,0,0,0,0,0,0,0,0,0,,,,,,0.0,,,,,,,
5308724,1745473907759,,,,,,,,,,,,,,,,,,,,,,,,,,,,,,,,,,0,0,0,0,0,0,0,0,0,0,0,0,0,0,0,0,,,,,,,,,,,,,
5308744,1745473907779,0.0,132,,0.71,-0.22,0.94,6,-0,1,1.19,1.39,86,11378,99.5,5.39,,13.73,0.939,82.6,,56.2,5,,,,,,,,,,,,0,0,0,0,0,0,0,0,0,0,0,0,0,0,0,0,,,,,,0.0,,,,,,,
5308764,1745473907799,,,,,,,,,,,,,,,,,,,,,,,,,,,,,,,,,,0,0,0,0,0,0,0,0,0,0,0,0,0,0,0,0,,,,,,,,,,,,,
5308784,1745473907817,0.0,132,,0.74,-0.21,0.96,6,-1,1,1.23,1.39,89,11378,99.5,5.39,,13.48,0.922,82.6,,56.2,5,20,0,34,33,10.0,24.0,50.0,0.0,2.26,,,0,0,0,0,0,0,0,0,0,0,0,0,0,0,0,0,,1,,,,0.0,38.994102,-76.93959,32.12,26.4,31,3,0.9
5308804,1745473907837,,,,,,,,,,,,,,,,,,,,,,,,,,,,,,,,,,0,0,0,0,0,0,0,0,0,0,0,0,0,0,0,0,,,,,,,,,,,,,
5308824,1745473907857,0.0,132,,0.76,-0.15,1.0,3,-1,1,1.27,1.39,91,11340,99.5,5.42,,13.57,0.926,82.6,,56.2,5,,,,,,,,,,,,0,0,0,0,0,0,0,0,0,0,0,0,0,0,0,0,,,,,,0.0,,,,,,,
5308844,1745473907877,,,,,,,,,,,,,,,,,,,,,,,,,,,,,,,,,,0,0,0,0,0,0,0,0,0,0,0,0,0,0,0,0,,,,,,,,,,,,,
5308864,1745473907897,0.0,131,,0.75,-0.33,0.93,4,-1,0,1.23,1.39,89,11438,99.5,5.37,,13.48,0.922,82.6,,59.5,5,,,,,,,,,,,,0,0,0,0,0,0,0,0,0,0,0,0,0,0,0,0,,,,,,0.0,,,,,,,
5308884,1745473907917,,,,,,,,,,,,,,,,,,,,,,,24,0,35,34,10.0,139.0,50.0,0.0,2.26,,,0,0,0,0,0,0,0,0,0,0,0,0,0,0,0,0,,1,,,,,38.994106,-76.939575,35.33,26.4,31,3,0.9
5308904,1745473907937,0.0,130,,0.73,-0.35,0.9,2,-0,1,1.21,1.39,87,11737,99.5,5.28,,13.44,0.922,82.6,,59.5,5,,,,,,,,,,,,0,0,0,0,0,0,0,0,0,0,0,0,0,0,0,0,,,,,,0.0,,,,,,,
5308924,1745473907957,,,,,,,,,,,,,,,,,,,,,,,,,,,,,,,,,,0,0,0,0,0,0,0,0,0,0,0,0,0,0,0,0,,,,,,,,,,,,,
5308944,1745473907977,0.0,130,,0.75,-0.54,0.94,-0,0,-1,1.32,1.39,95,11511,99.5,5.33,,13.44,0.922,82.6,,59.4,5,,,,,,,,,,,,0,0,0,0,0,0,0,0,0,0,0,0,0,0,0,0,,,,,,0.0,,,,,,,
5308964,1745473907997,,,,,,,,,,,,,,,,,,,,,,,,,,,,,,,,,,0,0,0,0,0,0,0,0,0,0,0,0,0,0,0,0,,,,,,,,,,,,,
5308984,1745473908009,0.0,131,,0.78,-0.62,0.89,-4,1,0,1.34,1.39,96,11511,99.5,5.33,,13.47,0.915,82.6,,59.4,5,25,0,34,35,10.0,133.0,41.0,0.0,2.26,,,0,0,0,0,0,0,0,0,0,0,0,0,0,0,0,0,,1,,,,0.0,38.994106,-76.939575,38.77,26.4,30,3,0.9
5309004,1745473908029,,,,,,,,,,,,,,,,,,,,,,,,,,,,,,,,,,0,0,0,0,0,0,0,0,0,0,0,0,0,0,0,0,,,,,,,,,,,,,
5309024,1745473908049,0.0,131,,0.8,-0.5,0.92,-7,1,0,1.32,1.39,95,10989,99.4,5.49,,13.51,0.916,82.6,,59.4,5,,,,,,,,,,,,0,0,0,0,0,0,0,0,0,0,0,0,0,0,0,0,,,,,,0.0,,,,,,,
5309044,1745473908069,,,,,,,,,,,,,,,,,,,,,,,,,,,,,,,,,,0,0,0,0,0,0,0,0,0,0,0,0,0,0,0,0,,,,,,,,,,,,,
5309064,1745473908089,0.0,130,,0.81,-0.68,0.92,-9,1,1,1.4,1.4,100,10773,67.3,4.78,,13.59,0.938,82.6,,57.3,5,,,,,,,,,,,,0,0,0,0,0,0,0,0,0,0,0,0,0,0,0,0,,,,,,0.0,,,,,,,
5309084,1745473908117,,,,,,,,,,,,,,,,,,,,,,,26,28,32,35,10.0,108.0,10.0,0.0,2.26,,,0,0,0,0,0,0,0,0,0,0,0,0,0,0,0,0,,0,,,,,38.994106,-76.93956,41.53,26.4,30,3,0.9
5309104,1745473908137,0.0,130,,0.78,-0.67,1.03,-14,-0,2,1.45,1.45,100,10462,15.6,4.81,,11.18,0.936,82.6,,57.3,5,,,,,,,,,,,,0,0,0,0,0,0,0,0,0,0,0,0,0,0,0,0,,,,,,0.0,,,,,,,
5309124,1745473908157,,,,,,,,,,,,,,,,,,,,,,,,,,,,,,,,,,0,0,0,0,0,0,0,0,0,0,0,0,0,0,0,0,,,,,,,,,,,,,
5309144,1745473908177,0.0,130,,0.72,-0.61,0.99,-18,-1,3,1.37,1.45,94,10462,15.6,4.81,,11.18,0.936,82.6,,55.9,5,,,,,,,,,,,,0,0,0,0,0,0,0,0,0,0,0,0,0,0,0,0,,,,,,0.0,,,,,,,
5309164,1745473908197,,,,,,,,,,,,,,,,,,,,,,,,,,,,,,,,,,0,0,0,0,0,0,0,0,0,0,0,0,0,0,0,0,,,,,,,,,,,,,
5309184,1745473908218,0.0,130,,0.62,-0.81,0.99,-22,-2,2,1.43,1.45,98,10114,0.0,1.4,,8.69,0.929,82.6,,55.9,5,27,32,31,30,10.0,139.0,0.0,0.0,2.26,,,0,0,0,0,0,0,0,0,0,0,0,0,0,0,0,0,,1,,,,0.0,38.994106,-76.939537,46.72,26.4,30,3,0.9
5309204,1745473908238,,,,,,,,,,,,,,,,,,,,,,,,,,,,,,,,,,0,0,0,0,0,0,0,0,0,0,0,0,0,0,0,0,,,,,,,,,,,,,
5309224,1745473908258,0.0,129,,0.52,-0.74,0.98,-26,-2,2,1.34,1.45,92,9725,0.0,1.4,,7.25,0.838,82.6,,55.9,5,,,,,,,,,,,,0,0,0,0,0,0,0,0,0,0,0,0,0,0,0,0,,,,,,0.0,,,,,,,
5309244,1745473908278,,,,,,,,,,,,,,,,,,,,,,,,,,,,,,,,,,0,0,0,0,0,0,0,0,0,0,0,0,0,0,0,0,,,,,,,,,,,,,
5309264,1745473908298,0.0,130,,0.49,-0.74,1.01,-28,-2,2,1.34,1.45,92,9586,0.0,1.4,,6.44,0.926,82.6,,50.6,5,,,,,,,,,,,,0,0,0,0,0,0,0,0,0,0,0,0,0,0,0,0,,,,,,0.0,,,,,,,
5309284,1745473908317,,,,,,,,,,,,,,,,,,,,,,,27,30,28,30,10.0,36.0,0.0,0.0,2.26,,,0,0,0,0,0,0,0,0,0,0,0,0,0,0,0,0,,0,,,,,38.994106,-76.939529,46.61,26.3,30,3,0.9
5309304,1745473908337,0.0,130,,0.36,-0.86,1.01,-29,-2,1,1.38,1.45,95,9418,0.0,1.4,,5.99,1.107,82.6,,50.6,5,,,,,,,,,,,,0,0,0,0,0,0,0,0,0,0,0,0,0,0,0,0,,,,,,0.0,,,,,,,
5309324,1745473908357,,,,,,,,,,,,,,,,,,,,,,,,,,,,,,,,,,0,0,0,0,0,0,0,0,0,0,0,0,0,0,0,0,,,,,,,,,,,,,
5309344,1745473908377,0.0,130,,0.24,-0.66,0.95,-30,-2,1,1.18,1.18,100,9418,0.0,1.4,,5.99,1.107,82.6,,47.0,5,,,,,,,,,,,,0,0,0,0,0,0,0,0,0,0,0,0,0,0,0,0,,,,,,0.0,,,,,,,
5309364,1745473908397,,,,,,,,,,,,,,,,,,,,,,,,,,,,,,,,,,0,0,0,0,0,0,0,0,0,0,0,0,0,0,0,0,,,,,,,,,,,,,
5309384,1745473908416,0.0,130,13.33,0.11,-0.93,0.87,-31,-1,1,1.28,1.28,100,9312,0.1,1.4,15,5.67,1.129,82.6,180,47.0,5,28,31,29,29,10.0,130.0,0.0,0.0,2.26,0,1.0,0,0,0,0,0,0,0,0,0,0,0,0,0,0,0,0,0,0,1.0,0,0,0.0,38.994106,-76.939514,45.56,26.3,30,3,0.9
5309404,1745473908436,,,,,,,,,,,,,,,,,,,,,,,,,,,,,,,,,,0,0,0,0,0,0,0,0,0,0,0,0,0,0,0,0,,,,,,,,,,,,,
5309424,1745473908456,0.0,130,,0.07,-1.01,0.93,-33,-0,0,1.37,1.37,100,9209,0.0,1.4,,5.5,1.103,82.6,,48.2,5,,,,,,,,,,,,0,0,0,0,0,0,0,0,0,0,0,0,0,0,0,0,,,,,,0.0,,,,,,,
5309444,1745473908476,,,,,,,,,,,,,,,,,,,,,,,,,,,,,,,,,,0,0,0,0,0,0,0,0,0,0,0,0,0,0,0,0,,,,,,,,,,,,,
5309464,1745473908496,0.0,131,,0.01,-0.81,0.98,-35,0,1,1.27,1.37,93,9090,0.4,1.4,,5.36,1.09,82.6,,48.2,5,,,,,,,,,,,,0,0,0,0,0,0,0,0,0,0,0,0,0,0,0,0,,,,,,0.0,,,,,,,
5309484,1745473908518,,,,,,,,,,,,,,,,,,,,,,,27,29,27,30,10.0,191.0,0.0,0.0,2.27,,,0,0,0,0,0,0,0,0,0,0,0,0,0,0,0,0,,0,,,,,38.994102,-76.939499,44.56,26.3,30,3,0.9
5309504,1745473908538,0.0,130,,-0.08,-0.54,1.05,-36,-1,2,1.19,1.37,86,9094,2.6,1.4,,5.44,1.096,82.6,,48.2,5,,,,,,,,,,,,0,0,0,0,0,0,0,0,0,0,0,0,0,0,0,0,,,,,,0.0,,,,,,,
5309524,1745473908558,,,,,,,,,,,,,,,,,,,,,,,,,,,,,,,,,,0,0,0,0,0,0,0,0,0,0,0,0,0,0,0,0,,,,,,,,,,,,,
5309544,1745473908578,0.0,129,,-0.15,-0.4,1.04,-38,-2,2,1.12,1.37,82,9061,2.9,1.4,,5.44,1.096,82.6,,47.5,5,,,,,,,,,,,,0,0,0,0,0,0,0,0,0,0,0,0,0,0,0,0,,,,,,0.0,,,,,,,
5309564,1745473908598,,,,,,,,,,,,,,,,,,,,,,,,,,,,,,,,,,0,0,0,0,0,0,0,0,0,0,0,0,0,0,0,0,,,,,,,,,,,,,
5309584,1745473908618,0.0,129,,-0.23,-0.22,1.02,-41,-2,2,1.06,1.37,77,9061,2.9,1.4,,5.59,1.1,82.6,,47.5,5,25,28,26,29,10.0,229.0,0.0,0.0,2.27,,,0,0,0,0,0,0,0,0,0,0,0,0,0,0,0,0,,0,,,,0.0,38.994099,-76.939484,44.12,26.2,30,3,0.9
5309604,1745473908638,,,,,,,,,,,,,,,,,,,,,,,,,,,,,,,,,,0,0,0,0,0,0,0,0,0,0,0,0,0,0,0,0,,,,,,,,,,,,,
5309624,1745473908658,0.0,129,,-0.29,-0.14,1.06,-45,-1,3,1.11,1.37,81,8865,3.5,1.4,,5.71,1.137,82.6,,45.1,5,,,,,,,,,,,,0,0,0,0,0,0,0,0,0,0,0,0,0,0,0,0,,,,,,0.0,,,,,,,
5309644,1745473908678,,,,,,,,,,,,,,,,,,,,,,,,,,,,,,,,,,0,0,0,0,0,0,0,0,0,0,0,0,0,0,0,0,,,,,,,,,,,,,
5309664,1745473908698,0.0,129,,-0.34,-0.36,1.06,-49,-1,2,1.17,1.37,85,8609,9.3,1.93,,6.16,1.241,80.8,,45.1,5,,,,,,,,,,,,0,0,0,0,0,0,0,0,0,0,0,0,0,0,0,0,,,,,,0.0,,,,,,,
5309684,1745473908716,,,,,,,,,,,,,,,,,,,,,,,26,29,23,27,10.0,198.0,0.0,0.0,2.26,,,0,0,0,0,0,0,0,0,0,0,0,0,0,0,0,0,,0,,,,,38.994095,-76.939468,42.59,26.2,30,3,0.9
5309704,1745473908736,0.0,129,,-0.37,-0.35,1.08,-53,0,2,1.19,1.37,87,8625,16.7,2.43,,7.37,1.251,80.8,,45.1,5,,,,,,,,,,,,0,0,0,0,0,0,0,0,0,0,0,0,0,0,0,0,,,,,,0.0,,,,,,,
5309724,1745473908756,,,,,,,,,,,,,,,,,,,,,,,,,,,,,,,,,,0,0,0,0,0,0,0,0,0,0,0,0,0,0,0,0,,,,,,,,,,,,,
5309744,1745473908776,0.0,128,,-0.43,-0.6,1.04,-56,0,2,1.27,1.37,93,8814,18.3,2.88,,7.37,1.251,80.8,,45.4,5,,,,,,,,,,,,0,0,0,0,0,0,0,0,0,0,0,0,0,0,0,0,,,,,,0.0,,,,,,,
5309764,1745473908796,,,,,,,,,,,,,,,,,,,,,,,,,,,,,,,,,,0,0,0,0,0,0,0,0,0,0,0,0,0,0,0,0,,,,,,,,,,,,,
5309784,1745473908818,0.0,129,,-0.46,-0.87,0.96,-58,-0,3,1.38,1.38,100,8814,18.3,2.88,,8.25,1.251,80.8,,45.4,5,25,28,24,28,10.0,211.0,0.0,0.0,2.26,,,0,0,0,0,0,0,0,0,0,0,0,0,0,0,0,0,,0,,,,0.0,38.994091,-76.939461,41.1,26.2,30,3,0.9
5309804,1745473908838,,,,,,,,,,,,,,,,,,,,,,,,,,,,,,,,,,0,0,0,0,0,0,0,0,0,0,0,0,0,0,0,0,,,,,,,,,,,,,
5309824,1745473908858,0.0,130,,-0.48,-1.02,0.96,-60,0,2,1.48,1.48,100,9280,18.6,3.0,,8.53,1.168,80.8,,47.1,5,,,,,,,,,,,,0,0,0,0,0,0,0,0,0,0,0,0,0,0,0,0,,,,,,0.0,,,,,,,
5309844,1745473908878,,,,,,,,,,,,,,,,,,,,,,,,,,,,,,,,,,0,0,0,0,0,0,0,0,0,0,0,0,0,0,0,0,,,,,,,,,,,,,
5309864,1745473908898,0.0,129,,-0.42,-0.81,0.95,-61,1,1,1.32,1.48,89,9685,19.0,3.1,,8.74,1.061,80.8,,47.1,5,,,,,,,,,,,,0,0,0,0,0,0,0,0,0,0,0,0,0,0,0,0,,,,,,0.0,,,,,,,
5309884,1745473908918,,,,,,,,,,,,,,,,,,,,,,,24,28,26,27,10.0,247.0,0.0,0.0,2.26,,,0,0,0,0,0,0,0,0,0,0,0,0,0,0,0,0,,0,,,,,38.994083,-76.939453,40.55,26.1,30,3,0.9
5309904,1745473908938,0.0,129,,-0.37,-0.79,0.93,-62,1,0,1.28,1.48,87,9812,18.8,3.18,,8.79,1.04,80.8,,47.1,5,,,,,,,,,,,,0,0,0,0,0,0,0,0,0,0,0,0,0,0,0,0,,,,,,0.0,,,,,,,
5309924,1745473908958,,,,,,,,,,,,,,,,,,,,,,,,,,,,,,,,,,0,0,0,0,0,0,0,0,0,0,0,0,0,0,0,0,,,,,,,,,,,,,
5309944,1745473908978,0.0,129,,-0.31,-0.73,0.9,-62,2,-0,1.2,1.48,81,9675,18.6,3.1,,8.79,1.04,80.8,,47.5,5,,,,,,,,,,,,0,0,0,0,0,0,0,0,0,0,0,0,0,0,0,0,,,,,,0.0,,,,,,,
5309964,1745473908998,,,,,,,,,,,,,,,,,,,,,,,,,,,,,,,,,,0,0,0,0,0,0,0,0,0,0,0,0,0,0,0,0,,,,,,,,,,,,,
5309984,1745473909010,0.0,129,,-0.29,-0.78,0.96,-62,2,-0,1.27,1.48,86,9675,18.6,3.1,,8.93,1.033,80.8,,47.5,5,23,29,29,28,10.0,60.0,4.0,0.0,2.27,,,0,0,0,0,0,0,0,0,0,0,0,0,0,0,0,0,,1,,,,0.0,38.994076,-76.939446,39.78,26.1,30,3,0.9
5310004,1745473909030,,,,,,,,,,,,,,,,,,,,,,,,,,,,,,,,,,0,0,0,0,0,0,0,0,0,0,0,0,0,0,0,0,,,,,,,,,,,,,
5310024,1745473909050,0.0,130,,-0.26,-0.83,0.92,-62,2,-0,1.27,1.48,86,9644,17.6,3.14,,8.93,1.048,80.8,,46.6,5,,,,,,,,,,,,0,0,0,0,0,0,0,0,0,0,0,0,0,0,0,0,,,,,,0.0,,,,,,,
5310044,1745473909070,,,,,,,,,,,,,,,,,,,,,,,,,,,,,,,,,,0,0,0,0,0,0,0,0,0,0,0,0,0,0,0,0,,,,,,,,,,,,,
5310064,1745473909090,0.0,129,,-0.22,-0.9,0.91,-59,2,-0,1.3,1.48,88,9640,19.4,3.27,,9.06,1.027,80.8,,46.6,5,,,,,,,,,,,,0,0,0,0,0,0,0,0,0,0,0,0,0,0,0,0,,,,,,0.0,,,,,,,
5310084,1745473909118,,,,,,,,,,,,,,,,,,,,,,,23,29,29,29,10.0,48.0,17.0,0.0,2.27,,,0,0,0,0,0,0,0,0,0,0,0,0,0,0,0,0,,1,,,,,38.994068,-76.93943,41.85,26.1,30,3,0.9
5310104,1745473909138,0.0,129,,-0.22,-0.83,0.9,-59,2,-0,1.24,1.48,84,9640,20.1,3.35,,9.06,1.027,80.8,,46.6,5,,,,,,,,,,,,0,0,0,0,0,0,0,0,0,0,0,0,0,0,0,0,,,,,,0.0,,,,,,,
5310124,1745473909158,,,,,,,,,,,,,,,,,,,,,,,,,,,,,,,,,,0,0,0,0,0,0,0,0,0,0,0,0,0,0,0,0,,,,,,,,,,,,,
5310144,1745473909178,0.0,130,,-0.21,-0.73,0.89,-58,2,1,1.17,1.48,80,9700,20.0,3.38,,9.26,1.019,80.8,,46.2,5,,,,,,,,,,,,0,0,0,0,0,0,0,0,0,0,0,0,0,0,0,0,,,,,,0.0,,,,,,,
5310164,1745473909198,,,,,,,,,,,,,,,,,,,,,,,,,,,,,,,,,,0,0,0,0,0,0,0,0,0,0,0,0,0,0,0,0,,,,,,,,,,,,,
5310184,1745473909217,0.0,130,,-0.21,-0.94,0.84,-58,2,1,1.27,1.27,100,9700,20.0,3.38,,9.34,1.033,80.8,,46.2,5,25,29,29,27,10.0,78.0,0.0,0.0,2.26,,,0,0,0,0,0,0,0,0,0,0,0,0,0,0,0,0,,0,,,,0.0,38.99406,-76.939423,42.27,26.1,31,3,0.9
5310204,1745473909237,,,,,,,,,,,,,,,,,,,,,,,,,,,,,,,,,,0,0,0,0,0,0,0,0,0,0,0,0,0,0,0,0,,,,,,,,,,,,,
5310224,1745473909257,0.0,129,,-0.24,-1.05,0.87,-59,2,2,1.38,1.38,100,9831,19.1,3.33,,9.35,1.03,80.8,,47.3,5,,,,,,,,,,,,0,0,0,0,0,0,0,0,0,0,0,0,0,0,0,0,,,,,,0.0,,,,,,,
5310244,1745473909277,,,,,,,,,,,,,,,,,,,,,,,,,,,,,,,,,,0,0,0,0,0,0,0,0,0,0,0,0,0,0,0,0,,,,,,,,,,,,,
5310264,1745473909297,0.0,129,,-0.24,-0.83,0.92,-61,2,1,1.26,1.38,91,9991,15.6,3.13,,8.86,1.005,80.8,,47.3,5,,,,,,,,,,,,0,0,0,0,0,0,0,0,0,0,0,0,0,0,0,0,,,,,,0.0,,,,,,,
5310284,1745473909317,,,,,,,,,,,,,,,,,,,,,,,25,29,29,31,10.0,82.0,5.0,0.0,2.26,,,0,0,0,0,0,0,0,0,0,0,0,0,0,0,0,0,,1,,,,,38.994053,-76.939415,42.2,26.0,31,3,0.9
5310304,1745473909337,0.0,129,,-0.22,-0.96,0.93,-61,2,1,1.36,1.38,98,9962,13.3,2.57,,8.35,0.963,80.8,,47.3,5,,,,,,,,,,,,0,0,0,0,0,0,0,0,0,0,0,0,0,0,0,0,,,,,,0.0,,,,,,,
5310324,1745473909357,,,,,,,,,,,,,,,,,,,,,,,,,,,,,,,,,,0,0,0,0,0,0,0,0,0,0,0,0,0,0,0,0,,,,,,,,,,,,,
5310344,1745473909377,0.0,129,,-0.2,-1.11,0.96,-60,1,1,1.48,1.48,100,9763,9.0,2.23,,8.35,0.963,80.8,,46.2,5,,,,,,,,,,,,0,0,0,0,0,0,0,0,0,0,0,0,0,0,0,0,,,,,,0.0,,,,,,,
5310364,1745473909397,,,,,,,,,,,,,,,,,,,,,,,,,,,,,,,,,,0,0,0,0,0,0,0,0,0,0,0,0,0,0,0,0,,,,,,,,,,,,,
5310384,1745473909417,0.0,129,13.33,-0.24,-1.15,0.98,-58,0,1,1.53,1.53,100,9763,9.0,2.23,15,7.89,0.94,80.8,180,46.2,5,24,26,29,30,10.0,54.0,4.0,0.0,2.26,0,1.0,0,0,0,0,0,0,0,0,0,0,0,0,0,0,0,0,0,1,1.0,0,-0,0.0,38.994041,-76.939415,43.19,26.0,31,3,0.9
5310404,1745473909437,,,,,,,,,,,,,,,,,,,,,,,,,,,,,,,,,,0,0,0,0,0,0,0,0,0,0,0,0,0,0,0,0,,,,,,,,,,,,,
5310424,1745473909457,0.0,129,,-0.26,-1.18,1.01,-59,1,1,1.57,1.57,100,9627,8.4,2.17,,7.39,0.965,80.8,,47.2,5,,,,,,,,,,,,0,0,0,0,0,0,0,0,0,0,0,0,0,0,0,0,,,,,,0.0,,,,,,,
5310444,1745473909477,,,,,,,,,,,,,,,,,,,,,,,,,,,,,,,,,,0,0,0,0,0,0,0,0,0,0,0,0,0,0,0,0,,,,,,,,,,,,,
5310464,1745473909497,0.0,129,,-0.27,-1.31,1.04,-60,1,1,1.69,1.69,100,9664,8.5,2.1,,7.14,0.979,80.8,,47.2,5,,,,,,,,,,,,0,0,0,0,0,0,0,0,0,0,0,0,0,0,0,0,,,,,,0.0,,,,,,,
5310484,1745473909515,,,,,,,,,,,,,,,,,,,,,,,25,29,29,29,10.0,36.0,0.0,0.0,2.27,,,0,0,0,0,0,0,0,0,0,0,0,0,0,0,0,0,,1,,,,,38.99403,-76.939415,44.22,26.0,31,3,0.9
5310504,1745473909535,0.0,129,,-0.3,-1.36,1.02,-61,1,2,1.72,1.72,100,9576,8.6,2.09,,7.14,0.979,80.8,,47.2,5,,,,,,,,,,,,0,0,0,0,0,0,0,0,0,0,0,0,0,0,0,0,,,,,,0.0,,,,,,,
5310524,1745473909555,,,,,,,,,,,,,,,,,,,,,,,,,,,,,,,,,,0,0,0,0,0,0,0,0,0,0,0,0,0,0,0,0,,,,,,,,,,,,,
5310544,1745473909575,0.0,128,,-0.29,-1.19,0.97,-59,0,2,1.56,1.72,91,9353,7.4,2.0,,6.99,1.001,80.8,,47.3,5,,,,,,,,,,,,0,0,0,0,0,0,0,0,0,0,0,0,0,0,0,0,,,,,,0.0,,,,,,,
5310564,1745473909595,,,,,,,,,,,,,,,,,,,,,,,,,,,,,,,,,,0,0,0,0,0,0,0,0,0,0,0,0,0,0,0,0,,,,,,,,,,,,,
5310584,1745473909617,0.0,129,,-0.32,-1.38,0.97,-60,-0,2,1.72,1.72,100,9353,7.4,2.0,,6.91,1.024,80.8,,47.3,5,24,28,29,28,10.0,61.0,0.0,0.0,2.27,,,0,0,0,0,0,0,0,0,0,0,0,0,0,0,0,0,,1,,,,0.0,38.994019,-76.939407,41.85,26.0,31,3,0.9
5310604,1745473909637,,,,,,,,,,,,,,,,,,,,,,,,,,,,,,,,,,0,0,0,0,0,0,0,0,0,0,0,0,0,0,0,0,,,,,,,,,,,,,
5310624,1745473909657,0.0,129,,-0.32,-1.42,1.0,-59,-0,0,1.76,1.76,100,9299,6.9,1.94,,6.79,1.036,80.8,,47.6,5,,,,,,,,,,,,0,0,0,0,0,0,0,0,0,0,0,0,0,0,0,0,,,,,,0.0,,,,,,,
5310644,1745473909677,,,,,,,,,,,,,,,,,,,,,,,,,,,,,,,,,,0,0,0,0,0,0,0,0,0,0,0,0,0,0,0,0,,,,,,,,,,,,,
5310664,1745473909697,0.0,129,,-0.37,-1.18,0.95,-61,-0,0,1.56,1.76,88,9238,7.1,1.93,,6.72,1.047,80.8,,47.6,5,,,,,,,,,,,,0,0,0,0,0,0,0,0,0,0,0,0,0,0,0,0,,,,,,0.0,,,,,,,
5310684,1745473909717,,,,,,,,,,,,,,,,,,,,,,,26,27,26,28,10.0,74.0,0.0,0.0,2.26,,,0,0,0,0,0,0,0,0,0,0,0,0,0,0,0,0,,1,,,,,38.994011,-76.939407,42.9,26.0,31,3,0.9
5310704,1745473909737,0.0,129,,-0.41,-1.35,0.87,-61,-0,2,1.66,1.76,94,9076,6.4,1.85,,6.5,1.073,80.8,,47.6,5,,,,,,,,,,,,0,0,0,0,0,0,0,0,0,0,0,0,0,0,0,0,,,,,,0.0,,,,,,,
5310724,1745473909757,,,,,,,,,,,,,,,,,,,,,,,,,,,,,,,,,,0,0,0,0,0,0,0,0,0,0,0,0,0,0,0,0,,,,,,,,,,,,,
5310744,1745473909777,0.0,129,,-0.46,-1.51,0.82,-62,-1,2,1.78,1.78,100,8840,3.6,1.46,,6.5,1.073,80.8,,47.1,5,,,,,,,,,,,,0,0,0,0,0,0,0,0,0,0,0,0,0,0,0,0,,,,,,0.0,,,,,,,
5310764,1745473909797,,,,,,,,,,,,,,,,,,,,,,,,,,,,,,,,,,0,0,0,0,0,0,0,0,0,0,0,0,0,0,0,0,,,,,,,,,,,,,
5310784,1745473909817,0.0,129,,-0.49,-1.45,0.88,-61,-0,1,1.76,1.78,99,8840,3.6,1.46,,6.27,1.083,80.8,,47.1,5,23,29,27,26,10.0,233.0,0.0,0.0,2.26,,,0,0,0,0,0,0,0,0,0,0,0,0,0,0,0,0,,1,,,,0.0,38.993996,-76.939407,41.0,26.0,31,3,0.9
5310804,1745473909837,,,,,,,,,,,,,,,,,,,,,,,,,,,,,,,,,,0,0,0,0,0,0,0,0,0,0,0,0,0,0,0,0,,,,,,,,,,,,,
5310824,1745473909857,0.0,128,,-0.51,-1.35,0.89,-60,-0,0,1.7,1.78,95,8339,3.2,1.4,,6.11,1.083,80.8,,47.1,5,,,,,,,,,,,,0,0,0,0,0,0,0,0,0,0,0,0,0,0,0,0,,,,,,0.0,,,,,,,
5310844,1745473909877,,,,,,,,,,,,,,,,,,,,,,,,,,,,,,,,,,0,0,0,0,0,0,0,0,0,0,0,0,0,0,0,0,,,,,,,,,,,,,
5310864,1745473909897,0.0,129,,-0.52,-1.25,0.92,-60,-1,0,1.64,1.78,92,7882,3.2,1.4,,6.18,1.118,80.8,,46.8,5,,,,,,,,,,,,0,0,0,0,0,0,0,0,0,0,0,0,0,0,0,0,,,,,,0.0,,,,,,,
5310884,1745473909918,,,,,,,,,,,,,,,,,,,,,,,24,28,24,28,10.0,140.0,0.0,0.0,2.26,,,0,0,0,0,0,0,0,0,0,0,0,0,0,0,0,0,,0,,,,,38.993988,-76.939415,42.34,26.0,31,3,0.9
5310904,1745473909938,0.0,129,,-0.62,-1.16,0.91,-60,-1,0,1.6,1.78,90,7651,2.8,1.4,,6.24,1.249,80.8,,46.8,5,,,,,,,,,,,,0,0,0,0,0,0,0,0,0,0,0,0,0,0,0,0,,,,,,0.0,,,,,,,
5310924,1745473909958,,,,,,,,,,,,,,,,,,,,,,,,,,,,,,,,,,0,0,0,0,0,0,0,0,0,0,0,0,0,0,0,0,,,,,,,,,,,,,
5310944,1745473909978,0.0,129,,-0.67,-1.11,0.88,-62,-2,0,1.57,1.78,88,7550,4.8,1.93,,6.24,1.249,80.8,,46.8,5,,,,,,,,,,,,0,0,0,0,0,0,0,0,0,0,0,0,0,0,0,0,,,,,,0.0,,,,,,,
5310964,1745473909998,,,,,,,,,,,,,,,,,,,,,,,,,,,,,,,,,,0,0,0,0,0,0,0,0,0,0,0,0,0,0,0,0,,,,,,,,,,,,,
5310984,1745473910009,0.0,129,,-0.7,-1.15,0.86,-64,-2,0,1.6,1.78,90,7550,4.8,1.93,,6.58,1.249,80.8,,46.8,5,22,26,20,25,10.0,251.0,0.0,0.0,2.27,,,0,0,0,0,0,0,0,0,0,0,0,0,0,0,0,0,,0,,,,0.0,38.993977,-76.939415,39.94,26.1,30,3,0.9
5311004,1745473910029,,,,,,,,,,,,,,,,,,,,,,,,,,,,,,,,,,0,0,0,0,0,0,0,0,0,0,0,0,0,0,0,0,,,,,,,,,,,,,
5311024,1745473910049,0.0,129,,-0.73,-1.09,0.85,-66,-1,1,1.56,1.56,100,7483,9.3,2.36,,7.25,1.249,80.8,,46.0,5,,,,,,,,,,,,0,0,0,0,0,0,0,0,0,0,0,0,0,0,0,0,,,,,,0.0,,,,,,,
5311044,1745473910069,,,,,,,,,,,,,,,,,,,,,,,,,,,,,,,,,,0,0,0,0,0,0,0,0,0,0,0,0,0,0,0,0,,,,,,,,,,,,,
5311064,1745473910089,0.0,129,,-0.75,-1.11,0.87,-68,-1,1,1.6,1.6,100,7554,12.2,2.63,,7.97,1.249,80.8,,46.0,5,,,,,,,,,,,,0,0,0,0,0,0,0,0,0,0,0,0,0,0,0,0,,,,,,0.0,,,,,,,
5311084,1745473910115,,,,,,,,,,,,,,,,,,,,,,,21,24,20,25,10.0,36.0,0.0,0.0,2.27,,,0,0,0,0,0,0,0,0,0,0,0,0,0,0,0,0,,0,,,,,38.993969,-76.939415,38.4,26.1,30,3,0.9
5311104,1745473910135,0.0,129,,-0.74,-1.26,0.84,-71,-1,1,1.68,1.68,100,7656,13.5,2.89,,8.55,1.25,80.8,,46.0,5,,,,,,,,,,,,0,0,0,0,0,0,0,0,0,0,0,0,0,0,0,0,,,,,,0.0,,,,,,,
5311124,1745473910155,,,,,,,,,,,,,,,,,,,,,,,,,,,,,,,,,,0,0,0,0,0,0,0,0,0,0,0,0,0,0,0,0,,,,,,,,,,,,,
5311144,1745473910175,0.0,129,,-0.73,-1.33,0.85,-72,-0,1,1.73,1.73,100,7720,14.6,3.02,,8.55,1.25,80.8,,46.3,5,,,,,,,,,,,,0,0,0,0,0,0,0,0,0,0,0,0,0,0,0,0,,,,,,0.0,,,,,,,
5311164,1745473910195,,,,,,,,,,,,,,,,,,,,,,,,,,,,,,,,,,0,0,0,0,0,0,0,0,0,0,0,0,0,0,0,0,,,,,,,,,,,,,
5311184,1745473910214,0.0,129,,-0.72,-1.23,0.83,-73,0,1,1.65,1.73,95,7720,14.6,3.02,,9.1,1.157,80.8,,46.3,5,22,26,21,25,10.0,27.0,0.0,0.0,2.26,,,0,0,0,0,0,0,0,0,0,0,0,0,0,0,0,0,,0,,,,0.0,38.993961,-76.939423,35.97,26.1,30,3,0.9
5311204,1745473910234,,,,,,,,,,,,,,,,,,,,,,,,,,,,,,,,,,0,0,0,0,0,0,0,0,0,0,0,0,0,0,0,0,,,,,,,,,,,,,
5311224,1745473910254,0.0,129,,-0.7,-1.23,0.88,-74,1,1,1.67,1.73,96,7916,15.6,3.15,,9.41,1.118,80.8,,46.4,5,,,,,,,,,,,,0,0,0,0,0,0,0,0,0,0,0,0,0,0,0,0,,,,,,0.0,,,,,,,
5311244,1745473910274,,,,,,,,,,,,,,,,,,,,,,,,,,,,,,,,,,0,0,0,0,0,0,0,0,0,0,0,0,0,0,0,0,,,,,,,,,,,,,
5311264,1745473910294,0.0,129,,-0.68,-1.19,0.82,-74,1,1,1.6,1.73,92,8244,16.0,3.13,,9.45,1.079,80.8,,46.4,5,,,,,,,,,,,,0,0,0,0,0,0,0,0,0,0,0,0,0,0,0,0,,,,,,0.0,,,,,,,
5311284,1745473910316,,,,,,,,,,,,,,,,,,,,,,,20,23,22,25,10.0,54.0,0.0,0.0,2.26,,,0,0,0,0,0,0,0,0,0,0,0,0,0,0,0,0,,1,,,,,38.993954,-76.93943,35.27,26.1,30,3,0.9
