"Interval"|"ms"|0|0|1,"Utc"|"ms"|0|0|1,"FrontBP"|"psi"|-5.0|5.0|25,"SteerAng"|"Degrees"|-145|145|25,"Battery"|"Volts"|-5.0|20.0|1,"AccelX"|"G"|-3.0|3.0|25,"AccelY"|"G"|-3.0|3.0|25,"AccelZ"|"G"|-3.0|3.0|25,"Yaw"|"Deg/Sec"|-120|120|25,"Pitch"|"Deg/Sec"|-120|120|25,"Roll"|"Deg/Sec"|-120|120|25,"Gsum"|"G"|0.0|3.0|25,"GsumMax"|"G"|0.0|3.0|25,"GsumPct"|"%"|0|100|25,"RPM"|""|0|10000|25,"TPS"|"%"|0.0|100.0|25,"InjectorPW"|"ms"|0.0|100.0|25,"Baro"|"kPa"|0|105|1,"MAP"|"Psi"|0.0|255.0|25,"Lambda"|""|-2.0|2.0|25,"IAT"|"C"|0.0|200.0|25,"EngineTemp"|"C"|0|200|1,"EOP"|"PSI"|0.0|152.0|25,"EOT"|"F"|0|250|25,"WSFR"|"MPH"|0|150|10,"WSFL"|"MPH"|0|100|10,"WSRR"|"MPH"|0|100|10,"WSRL"|""|0|100|10,"TCSet"|"%"|0.0|100.0|10,"TCSlip"|"%"|0.0|100.0|10,"TCComp"|"deg"|0.0|50.0|10,"TCCut"|"%"|0.0|100.0|10,"Analog8"|""|0.0|5.0|10,"OilTemp"|"F"|0|300|1,"AA_On"|""|0.0|1.0|1,"ThermLF1"|"C"|0|400|50,"ThermLF2"|"C"|0|400|50,"ThermRR1"|"C"|0|400|50,"ThermRR2"|"C"|0|400|50,"ThermLF3"|"C"|0|400|50,"ThermLF4"|"C"|0|400|50,"ThermLF5"|"C"|0|400|50,"ThermLF6"|"C"|0|400|50,"ThermLF7"|"C"|0|400|50,"ThermLF8"|"C"|0|400|50,"ThermRR3"|"C"|0|400|50,"ThermRR4"|"C"|0|400|50,"ThermRR5"|"C"|0|400|50,"ThermRR6"|"C"|0|400|50,"ThermRR7"|"C"|0|400|50,"ThermRR8"|"C"|0|400|50,"AA_LowDrag"|""|0|1|1,"Gear"|""|1|6|10,"AA_On"|""|0.0|1.0|1,"AA_LowDrag"|""|0|1|1,"Fuel_Mix"|""|-10|10|1,"AA_Packages"|""|0.0|1000.0|25,"Latitude"|"Degrees"|-180.0|180.0|10,"Longitude"|"Degrees"|-180.0|180.0|10,"Speed"|"kph"|0.0|150.0|10,"Altitude"|"m"|0.0|4000.0|10,"GPSSats"|""|0|20|10,"GPSQual"|""|0|5|10,"GPSDOP"|""|0.0|20.0|10
600404,1745469197369,,,,,,,,,,,,,,,,,,,,,,,,,,,,,,,,,,0,0,0,0,0,0,0,0,0,0,0,0,0,0,0,0,,,,,,,,,,,,,
600424,1745469197391,0.0,-4,,-0.09,0.02,0.88,2,-0,-0,0.89,0.89,100,3054,0.0,3.08,,12.27,1.096,98.8,,34.0,5,,,,,,,,,,,,0,0,0,0,0,0,0,0,0,0,0,0,0,0,0,0,,,,,,0.0,,,,,,,
600444,1745469197411,,,,,,,,,,,,,,,,,,,,,,,,,,,,,,,,,,0,0,0,0,0,0,0,0,0,0,0,0,0,0,0,0,,,,,,,,,,,,,
600464,1745469197431,0.0,20,,-0.08,0.03,0.82,2,-0,-1,0.83,0.89,93,3021,0.0,3.08,,12.27,1.096,98.8,,34.0,5,,,,,,,,,,,,0,0,0,0,0,0,0,0,0,0,0,0,0,0,0,0,,,,,,0.0,,,,,,,
600484,1745469197451,,,,,,,,,,,,,,,,,,,,,,,0,0,0,0,0.0,0.0,0.0,0.0,2.26,,,0,0,0,0,0,0,0,0,0,0,0,0,0,0,0,0,,0,,,,,38.9907,-76.939865,0.0,32.5,23,2,1.1
600504,1745469197471,0.0,13,,-0.07,0.03,0.77,2,-0,-1,0.77,0.89,87,3021,0.0,3.08,,12.33,1.094,98.8,,33.3,5,,,,,,,,,,,,0,0,0,0,0,0,0,0,0,0,0,0,0,0,0,0,,,,,,0.0,,,,,,,
600524,1745469197491,,,,,,,,,,,,,,,,,,,,,,,,,,,,,,,,,,0,0,0,0,0,0,0,0,0,0,0,0,0,0,0,0,,,,,,,,,,,,,
600544,1745469197510,0.0,-0,,-0.05,0.03,0.71,3,-1,-1,0.71,0.89,80,3020,0.0,3.1,,12.4,1.095,98.8,,33.3,5,,,,,,,,,,,,0,0,0,0,0,0,0,0,0,0,0,0,0,0,0,0,,,,,,0.0,,,,,,,
600564,1745469197530,,,,,,,,,,,,,,,,,,,,,,,,,,,,,,,,,,0,0,0,0,0,0,0,0,0,0,0,0,0,0,0,0,,,,,,,,,,,,,
600584,1745469197550,0.0,-14,,-0.03,0.01,0.8,2,-1,-0,0.8,0.89,90,3105,0.0,3.08,,12.39,1.087,98.8,,33.3,5,0,0,0,0,0.0,0.0,0.0,0.0,2.26,,,0,0,0,0,0,0,0,0,0,0,0,0,0,0,0,0,,0,,,,0.0,38.9907,-76.939865,0.05,32.5,23,2,1.1
600604,1745469197570,,,,,,,,,,,,,,,,,,,,,,,,,,,,,,,,,,0,0,0,0,0,0,0,0,0,0,0,0,0,0,0,0,,,,,,,,,,,,,
600624,1745469197590,0.0,-10,,-0.08,-0.04,0.85,1,-0,-0,0.86,0.89,97,3317,0.0,2.97,,12.24,1.128,98.8,,35.7,5,,,,,,,,,,,,0,0,0,0,0,0,0,0,0,0,0,0,0,0,0,0,,,,,,0.0,,,,,,,
600644,1745469197610,,,,,,,,,,,,,,,,,,,,,,,,,,,,,,,,,,0,0,0,0,0,0,0,0,0,0,0,0,0,0,0,0,,,,,,,,,,,,,
600664,1745469197630,0.0,7,,-0.05,0.05,0.79,3,-1,-0,0.79,0.89,89,3296,0.0,2.95,,12.24,1.128,98.8,,35.7,5,,,,,,,,,,,,0,0,0,0,0,0,0,0,0,0,0,0,0,0,0,0,,,,,,0.0,,,,,,,
600684,1745469197650,,,,,,,,,,,,,,,,,,,,,,,0,0,0,0,0.0,0.0,0.0,0.0,2.27,,,0,0,0,0,0,0,0,0,0,0,0,0,0,0,0,0,,0,,,,,38.9907,-76.939865,0.15,32.5,23,2,1.1
600704,1745469197670,0.0,10,,-0.04,0.02,0.89,1,-1,0,0.89,0.89,100,3296,0.0,2.95,,12.2,1.081,98.8,,36.8,5,,,,,,,,,,,,0,0,0,0,0,0,0,0,0,0,0,0,0,0,0,0,,,,,,0.0,,,,,,,
600724,1745469197690,,,,,,,,,,,,,,,,,,,,,,,,,,,,,,,,,,0,0,0,0,0,0,0,0,0,0,0,0,0,0,0,0,,,,,,,,,,,,,
600744,1745469197710,0.0,17,,-0.07,-0.01,0.88,1,-0,-0,0.88,0.89,100,3258,0.0,2.95,,12.2,1.022,98.8,,36.8,5,,,,,,,,,,,,0,0,0,0,0,0,0,0,0,0,0,0,0,0,0,0,,,,,,0.0,,,,,,,
600764,1745469197730,,,,,,,,,,,,,,,,,,,,,,,,,,,,,,,,,,0,0,0,0,0,0,0,0,0,0,0,0,0,0,0,0,,,,,,,,,,,,,
600784,1745469197750,0.0,13,,-0.05,0.05,0.84,2,-0,-0,0.84,0.89,95,3256,0.0,2.92,,12.15,1.003,98.8,,36.8,5,0,0,0,0,0.0,0.0,0.0,0.0,2.27,,,0,0,0,0,0,0,0,0,0,0,0,0,0,0,0,0,,0,,,,0.0,38.9907,-76.939865,0.04,32.5,23,2,1.1
600804,1745469197770,,,,,,,,,,,,,,,,,,,,,,,,,,,,,,,,,,0,0,0,0,0,0,0,0,0,0,0,0,0,0,0,0,,,,,,,,,,,,,
600824,1745469197790,0.0,-0,,-0.04,0.04,0.92,0,-0,0,0.92,0.92,100,3250,0.0,2.94,,12.16,1.024,98.8,,36.2,5,,,,,,,,,,,,0,0,0,0,0,0,0,0,0,0,0,0,0,0,0,0,,,,,,0.0,,,,,,,
600844,1745469197810,,,,,,,,,,,,,,,,,,,,,,,,,,,,,,,,,,0,0,0,0,0,0,0,0,0,0,0,0,0,0,0,0,,,,,,,,,,,,,
600864,1745469197830,0.0,10,,-0.08,-0.03,0.96,-0,-0,-0,0.96,0.96,100,3202,0.0,2.94,,12.16,1.024,98.8,,36.2,5,,,,,,,,,,,,0,0,0,0,0,0,0,0,0,0,0,0,0,0,0,0,,,,,,0.0,,,,,,,
600884,1745469197850,,,,,,,,,,,,,,,,,,,,,,,0,0,0,0,0.0,0.0,0.0,0.0,2.27,,,0,0,0,0,0,0,0,0,0,0,0,0,0,0,0,0,,0,,,,,38.9907,-76.939865,0.13,32.5,23,2,1.1
600904,1745469197870,0.0,7,,-0.08,0.02,0.89,1,-0,-0,0.89,0.96,93,3202,0.0,2.94,,12.13,1.068,98.8,,36.1,5,,,,,,,,,,,,0,0,0,0,0,0,0,0,0,0,0,0,0,0,0,0,,,,,,0.0,,,,,,,
600924,1745469197891,,,,,,,,,,,,,,,,,,,,,,,,,,,,,,,,,,0,0,0,0,0,0,0,0,0,0,0,0,0,0,0,0,,,,,,,,,,,,,
600944,1745469197911,0.0,-0,,-0.05,0.06,0.85,1,-0,-0,0.85,0.96,88,3201,0.0,2.92,,12.11,1.092,98.8,,36.1,5,,,,,,,,,,,,0,0,0,0,0,0,0,0,0,0,0,0,0,0,0,0,,,,,,0.0,,,,,,,
600964,1745469197931,,,,,,,,,,,,,,,,,,,,,,,,,,,,,,,,,,0,0,0,0,0,0,0,0,0,0,0,0,0,0,0,0,,,,,,,,,,,,,
600984,1745469197951,0.0,3,,-0.03,0.06,0.92,0,-1,0,0.92,0.96,96,3182,0.0,2.94,,12.13,1.109,98.8,,36.1,5,0,0,0,0,0.0,0.0,0.0,0.0,2.27,,,0,0,0,0,0,0,0,0,0,0,0,0,0,0,0,0,,0,,,,0.0,38.9907,-76.939865,0.07,32.5,23,2,1.1
601004,1745469197971,,,,,,,,,,,,,,,,,,,,,,,,,,,,,,,,,,0,0,0,0,0,0,0,0,0,0,0,0,0,0,0,0,,,,,,,,,,,,,
601024,1745469197991,0.0,7,,-0.03,-0.01,1.0,-1,-0,0,1.0,1.0,100,3124,0.0,2.96,,12.2,1.118,98.8,,34.8,5,,,,,,,,,,,,0,0,0,0,0,0,0,0,0,0,0,0,0,0,0,0,,,,,,0.0,,,,,,,
601044,1745469198002,,,,,,,,,,,,,,,,,,,,,,,,,,,,,,,,,,0,0,0,0,0,0,0,0,0,0,0,0,0,0,0,0,,,,,,,,,,,,,
601064,1745469198022,0.0,10,,-0.05,-0.05,1.04,-1,-0,0,1.04,1.04,100,3109,0.0,2.93,,12.2,1.118,98.8,,34.8,5,,,,,,,,,,,,0,0,0,0,0,0,0,0,0,0,0,0,0,0,0,0,,,,,,0.0,,,,,,,
601084,1745469198042,,,,,,,,,,,,,,,,,,,,,,,0,0,0,0,0.0,0.0,0.0,0.0,2.26,,,0,0,0,0,0,0,0,0,0,0,0,0,0,0,0,0,,0,,,,,38.9907,-76.939865,0.05,32.5,23,2,1.1
601104,1745469198062,0.0,13,,-0.08,-0.03,1.06,-1,-0,0,1.06,1.06,100,3109,0.0,2.93,,12.21,1.125,98.8,,34.7,5,,,,,,,,,,,,0,0,0,0,0,0,0,0,0,0,0,0,0,0,0,0,,,,,,0.0,,,,,,,
601124,1745469198082,,,,,,,,,,,,,,,,,,,,,,,,,,,,,,,,,,0,0,0,0,0,0,0,0,0,0,0,0,0,0,0,0,,,,,,,,,,,,,
601144,1745469198104,0.0,13,,-0.11,-0.02,1.09,-1,-0,-0,1.1,1.1,100,2983,0.0,2.95,,12.29,1.126,98.8,,34.7,5,,,,,,,,,,,,0,0,0,0,0,0,0,0,0,0,0,0,0,0,0,0,,,,,,0.0,,,,,,,
601164,1745469198124,,,,,,,,,,,,,,,,,,,,,,,,,,,,,,,,,,0,0,0,0,0,0,0,0,0,0,0,0,0,0,0,0,,,,,,,,,,,,,
601184,1745469198144,0.0,13,,-0.13,-0.05,1.15,-2,-0,-0,1.16,1.16,100,2898,0.0,2.99,,12.36,1.125,98.8,,34.7,5,0,0,0,0,0.0,0.0,0.0,0.0,2.26,,,0,0,0,0,0,0,0,0,0,0,0,0,0,0,0,0,,0,,,,0.0,38.9907,-76.939865,0.11,32.5,23,2,1.1
601204,1745469198164,,,,,,,,,,,,,,,,,,,,,,,,,,,,,,,,,,0,0,0,0,0,0,0,0,0,0,0,0,0,0,0,0,,,,,,,,,,,,,
601224,1745469198184,0.0,-0,,-0.16,-0.04,1.11,-1,-0,-0,1.12,1.16,97,3175,0.0,2.92,,12.36,1.131,98.8,,32.6,5,,,,,,,,,,,,0,0,0,0,0,0,0,0,0,0,0,0,0,0,0,0,,,,,,0.0,,,,,,,
601244,1745469198208,,,,,,,,,,,,,,,,,,,,,,,,,,,,,,,,,,0,0,0,0,0,0,0,0,0,0,0,0,0,0,0,0,,,,,,,,,,,,,
601264,1745469198228,0.0,7,,-0.13,0.04,1.02,0,-0,-0,1.03,1.16,89,3231,0.0,2.9,,12.36,1.131,98.8,,32.6,5,,,,,,,,,,,,0,0,0,0,0,0,0,0,0,0,0,0,0,0,0,0,,,,,,0.0,,,,,,,
601284,1745469198248,,,,,,,,,,,,,,,,,,,,,,,0,0,0,0,0.0,0.0,0.0,0.0,2.27,,,0,0,0,0,0,0,0,0,0,0,0,0,0,0,0,0,,0,,,,,38.9907,-76.939865,0.08,32.5,23,2,1.1
601304,1745469198268,0.0,3,,-0.11,0.01,1.1,-1,-0,0,1.11,1.16,96,3231,0.0,2.9,,12.31,1.238,98.8,,36.5,5,,,,,,,,,,,,0,0,0,0,0,0,0,0,0,0,0,0,0,0,0,0,,,,,,0.0,,,,,,,
601324,1745469198288,,,,,,,,,,,,,,,,,,,,,,,,,,,,,,,,,,0,0,0,0,0,0,0,0,0,0,0,0,0,0,0,0,,,,,,,,,,,,,
601344,1745469198310,0.0,17,,-0.15,-0.03,1.1,-1,-0,-0,1.11,1.16,96,3211,0.0,2.85,,12.25,1.152,98.8,,36.5,5,,,,,,,,,,,,0,0,0,0,0,0,0,0,0,0,0,0,0,0,0,0,,,,,,0.0,,,,,,,
601364,1745469198330,,,,,,,,,,,,,,,,,,,,,,,,,,,,,,,,,,0,0,0,0,0,0,0,0,0,0,0,0,0,0,0,0,,,,,,,,,,,,,
601384,1745469198350,0.0,24,13.69,-0.13,0.04,1.01,0,-0,-0,1.02,1.16,88,3191,0.0,2.85,15,12.2,1.081,98.8,165,36.5,5,0,0,0,0,0.0,0.0,0.0,0.0,2.27,0,1.0,0,0,0,0,0,0,0,0,0,0,0,0,0,0,0,0,0,0,1.0,0,-0,0.0,38.9907,-76.939865,0.11,32.5,23,2,1.1
601404,1745469198370,,,,,,,,,,,,,,,,,,,,,,,,,,,,,,,,,,0,0,0,0,0,0,0,0,0,0,0,0,0,0,0,0,,,,,,,,,,,,,
601424,1745469198390,0.0,13,,-0.11,-0.01,1.09,-1,-0,0,1.09,1.16,94,3381,0.0,2.78,,12.17,1.067,98.8,,36.4,5,,,,,,,,,,,,0,0,0,0,0,0,0,0,0,0,0,0,0,0,0,0,,,,,,0.0,,,,,,,
601444,1745469198409,,,,,,,,,,,,,,,,,,,,,,,,,,,,,,,,,,0,0,0,0,0,0,0,0,0,0,0,0,0,0,0,0,,,,,,,,,,,,,
601464,1745469198429,0.0,20,,-0.12,0.01,1.0,0,-0,-0,1.0,1.16,87,3296,0.0,2.8,,12.17,1.067,98.8,,36.4,5,,,,,,,,,,,,0,0,0,0,0,0,0,0,0,0,0,0,0,0,0,0,,,,,,0.0,,,,,,,
601484,1745469198449,,,,,,,,,,,,,,,,,,,,,,,0,0,0,0,0.0,0.0,0.0,0.0,2.27,,,0,0,0,0,0,0,0,0,0,0,0,0,0,0,0,0,,0,,,,,38.9907,-76.939865,0.0,32.5,23,2,1.1
601504,1745469198469,0.0,17,,-0.09,0.03,1.05,-1,-0,0,1.05,1.16,91,3296,0.0,2.8,,12.16,1.093,98.8,,37.2,5,,,,,,,,,,,,0,0,0,0,0,0,0,0,0,0,0,0,0,0,0,0,,,,,,0.0,,,,,,,
601524,1745469198489,,,,,,,,,,,,,,,,,,,,,,,,,,,,,,,,,,0,0,0,0,0,0,0,0,0,0,0,0,0,0,0,0,,,,,,,,,,,,,
601544,1745469198509,0.0,7,,-0.12,-0.02,1.08,-1,-0,-0,1.08,1.16,93,3272,0.0,2.81,,12.15,1.086,98.8,,37.2,5,,,,,,,,,,,,0,0,0,0,0,0,0,0,0,0,0,0,0,0,0,0,,,,,,0.0,,,,,,,
601564,1745469198529,,,,,,,,,,,,,,,,,,,,,,,,,,,,,,,,,,0,0,0,0,0,0,0,0,0,0,0,0,0,0,0,0,,,,,,,,,,,,,
601584,1745469198549,0.0,13,,-0.13,0.01,1.0,-0,-0,-0,1.01,1.16,87,3183,0.0,2.85,,12.12,1.079,98.8,,37.2,5,0,0,0,0,0.0,0.0,0.0,0.0,2.26,,,0,0,0,0,0,0,0,0,0,0,0,0,0,0,0,0,,0,,,,0.0,38.9907,-76.939865,0.04,32.5,23,2,1.1
601604,1745469198569,,,,,,,,,,,,,,,,,,,,,,,,,,,,,,,,,,0,0,0,0,0,0,0,0,0,0,0,0,0,0,0,0,,,,,,,,,,,,,
601624,1745469198589,0.0,-0,,-0.11,0.05,0.92,1,-0,-0,0.92,1.16,80,3123,0.0,2.86,,12.21,1.089,98.8,,35.7,5,,,,,,,,,,,,0,0,0,0,0,0,0,0,0,0,0,0,0,0,0,0,,,,,,0.0,,,,,,,
601644,1745469198609,,,,,,,,,,,,,,,,,,,,,,,,,,,,,,,,,,0,0,0,0,0,0,0,0,0,0,0,0,0,0,0,0,,,,,,,,,,,,,
601664,1745469198629,0.0,20,,-0.07,0.07,0.9,1,-0,-0,0.9,1.16,78,3087,0.0,2.89,,12.21,1.089,98.8,,35.7,5,,,,,,,,,,,,0,0,0,0,0,0,0,0,0,0,0,0,0,0,0,0,,,,,,0.0,,,,,,,
601684,1745469198649,,,,,,,,,,,,,,,,,,,,,,,0,0,0,0,0.0,0.0,0.0,0.0,2.26,,,0,0,0,0,0,0,0,0,0,0,0,0,0,0,0,0,,0,,,,,38.9907,-76.939865,0.08,32.5,22,2,1.1
601704,1745469198669,0.0,27,,-0.04,0.08,0.93,1,-1,0,0.94,1.16,81,3087,0.0,2.89,,12.21,1.108,98.8,,34.4,5,,,,,,,,,,,,0,0,0,0,0,0,0,0,0,0,0,0,0,0,0,0,,,,,,0.0,,,,,,,
601724,1745469198691,,,,,,,,,,,,,,,,,,,,,,,,,,,,,,,,,,0,0,0,0,0,0,0,0,0,0,0,0,0,0,0,0,,,,,,,,,,,,,
601744,1745469198711,0.0,17,,-0.02,0.12,0.96,1,-1,0,0.97,1.16,84,3048,0.0,2.93,,12.28,1.133,98.8,,34.4,5,,,,,,,,,,,,0,0,0,0,0,0,0,0,0,0,0,0,0,0,0,0,,,,,,0.0,,,,,,,
601764,1745469198731,,,,,,,,,,,,,,,,,,,,,,,,,,,,,,,,,,0,0,0,0,0,0,0,0,0,0,0,0,0,0,0,0,,,,,,,,,,,,,
601784,1745469198751,0.0,20,,0.01,0.13,0.98,1,-1,1,0.99,1.16,85,2971,0.0,2.93,,12.33,1.143,98.8,,34.4,5,0,0,0,0,0.0,0.0,0.0,0.0,2.27,,,0,0,0,0,0,0,0,0,0,0,0,0,0,0,0,0,,0,,,,0.0,38.9907,-76.939865,0.07,32.5,22,2,1.1
601804,1745469198771,,,,,,,,,,,,,,,,,,,,,,,,,,,,,,,,,,0,0,0,0,0,0,0,0,0,0,0,0,0,0,0,0,,,,,,,,,,,,,
601824,1745469198791,0.0,3,,0.03,0.15,0.96,0,-1,1,0.98,1.16,84,3013,0.0,2.95,,12.39,1.141,98.8,,33.5,5,,,,,,,,,,,,0,0,0,0,0,0,0,0,0,0,0,0,0,0,0,0,,,,,,0.0,,,,,,,
601844,1745469198809,,,,,,,,,,,,,,,,,,,,,,,,,,,,,,,,,,0,0,0,0,0,0,0,0,0,0,0,0,0,0,0,0,,,,,,,,,,,,,
601864,1745469198829,0.0,17,,0.05,0.14,0.92,1,-1,1,0.93,1.16,81,2942,0.0,2.98,,12.39,1.141,98.8,,33.5,5,,,,,,,,,,,,0,0,0,0,0,0,0,0,0,0,0,0,0,0,0,0,,,,,,0.0,,,,,,,
601884,1745469198849,,,,,,,,,,,,,,,,,,,,,,,0,0,0,0,0.0,0.0,0.0,0.0,2.27,,,0,0,0,0,0,0,0,0,0,0,0,0,0,0,0,0,,0,,,,,38.9907,-76.939865,0.08,32.5,22,2,1.1
601904,1745469198869,0.0,13,,0.07,0.12,0.87,1,-1,1,0.88,1.16,76,2942,0.0,2.98,,12.45,1.134,98.8,,33.1,5,,,,,,,,,,,,0,0,0,0,0,0,0,0,0,0,0,0,0,0,0,0,,,,,,0.0,,,,,,,
601924,1745469198889,,,,,,,,,,,,,,,,,,,,,,,,,,,,,,,,,,0,0,0,0,0,0,0,0,0,0,0,0,0,0,0,0,,,,,,,,,,,,,
601944,1745469198909,0.0,13,,0.03,0.14,0.85,1,-1,0,0.87,1.16,75,2944,0.0,2.96,,12.45,1.129,98.8,,33.1,5,,,,,,,,,,,,0,0,0,0,0,0,0,0,0,0,0,0,0,0,0,0,,,,,,0.0,,,,,,,
601964,1745469198929,,,,,,,,,,,,,,,,,,,,,,,,,,,,,,,,,,0,0,0,0,0,0,0,0,0,0,0,0,0,0,0,0,,,,,,,,,,,,,
601984,1745469198949,0.0,20,,-0.01,0.12,0.87,2,-1,0,0.88,1.16,76,2888,0.0,3.0,,12.55,1.134,98.8,,33.1,5,0,0,0,0,0.0,0.0,0.0,0.0,2.28,,,0,0,0,0,0,0,0,0,0,0,0,0,0,0,0,0,,0,,,,0.0,38.9907,-76.939865,0.04,32.5,22,2,1.1
602004,1745469198969,,,,,,,,,,,,,,,,,,,,,,,,,,,,,,,,,,0,0,0,0,0,0,0,0,0,0,0,0,0,0,0,0,,,,,,,,,,,,,
602024,1745469198989,0.0,13,,-0.04,0.08,0.94,1,-1,0,0.95,1.16,82,2856,0.0,3.01,,12.59,1.149,98.8,,31.8,5,,,,,,,,,,,,0,0,0,0,0,0,0,0,0,0,0,0,0,0,0,0,,,,,,0.0,,,,,,,
602044,1745469198999,,,,,,,,,,,,,,,,,,,,,,,,,,,,,,,,,,0,0,0,0,0,0,0,0,0,0,0,0,0,0,0,0,,,,,,,,,,,,,
602064,1745469199019,0.0,24,,-0.05,0.06,1.01,0,-0,0,1.01,1.16,87,2889,0.0,3.0,,12.59,1.149,98.8,,31.8,5,,,,,,,,,,,,0,0,0,0,0,0,0,0,0,0,0,0,0,0,0,0,,,,,,0.0,,,,,,,
602084,1745469199039,,,,,,,,,,,,,,,,,,,,,,,0,0,0,0,0.0,0.0,0.0,0.0,2.26,,,0,0,0,0,0,0,0,0,0,0,0,0,0,0,0,0,,0,,,,,38.9907,-76.939865,0.07,32.5,22,2,1.1
602104,1745469199059,0.0,30,,-0.04,0.07,1.02,-0,-0,0,1.02,1.16,88,2889,0.0,3.0,,12.57,1.154,98.8,,32.0,5,,,,,,,,,,,,0,0,0,0,0,0,0,0,0,0,0,0,0,0,0,0,,,,,,0.0,,,,,,,
602124,1745469199079,,,,,,,,,,,,,,,,,,,,,,,,,,,,,,,,,,0,0,0,0,0,0,0,0,0,0,0,0,0,0,0,0,,,,,,,,,,,,,
602144,1745469199107,0.0,17,,-0.01,0.08,0.98,-0,-1,1,0.98,1.16,85,2895,0.0,3.0,,12.56,1.153,98.8,,32.0,5,,,,,,,,,,,,0,0,0,0,0,0,0,0,0,0,0,0,0,0,0,0,,,,,,0.0,,,,,,,
602164,1745469199127,,,,,,,,,,,,,,,,,,,,,,,,,,,,,,,,,,0,0,0,0,0,0,0,0,0,0,0,0,0,0,0,0,,,,,,,,,,,,,
602184,1745469199147,0.0,17,,-0.0,0.09,0.91,0,-1,0,0.92,1.16,79,2873,0.0,3.0,,12.55,1.139,98.8,,32.0,5,0,0,0,0,0.0,0.0,0.0,0.0,2.26,,,0,0,0,0,0,0,0,0,0,0,0,0,0,0,0,0,,0,,,,0.0,38.9907,-76.939865,0.04,32.5,22,2,1.1
602204,1745469199167,,,,,,,,,,,,,,,,,,,,,,,,,,,,,,,,,,0,0,0,0,0,0,0,0,0,0,0,0,0,0,0,0,,,,,,,,,,,,,
602224,1745469199187,0.0,10,,-0.02,0.09,0.87,1,-1,0,0.87,1.16,76,2945,0.0,2.99,,12.53,1.134,98.8,,32.0,5,,,,,,,,,,,,0,0,0,0,0,0,0,0,0,0,0,0,0,0,0,0,,,,,,0.0,,,,,,,
602244,1745469199209,,,,,,,,,,,,,,,,,,,,,,,,,,,,,,,,,,0,0,0,0,0,0,0,0,0,0,0,0,0,0,0,0,,,,,,,,,,,,,
602264,1745469199229,0.0,13,,-0.05,0.06,0.92,1,-0,0,0.92,1.16,79,2792,0.0,3.0,,12.53,1.134,98.8,,32.0,5,,,,,,,,,,,,0,0,0,0,0,0,0,0,0,0,0,0,0,0,0,0,,,,,,0.0,,,,,,,
602284,1745469199249,,,,,,,,,,,,,,,,,,,,,,,0,0,0,0,0.0,0.0,0.0,0.0,2.27,,,0,0,0,0,0,0,0,0,0,0,0,0,0,0,0,0,,0,,,,,38.9907,-76.939865,0.09,32.5,22,2,1.1
602304,1745469199269,0.0,27,,-0.05,0.03,0.97,0,-0,0,0.97,1.16,84,2792,0.0,3.0,,12.57,1.146,98.8,,31.5,5,,,,,,,,,,,,0,0,0,0,0,0,0,0,0,0,0,0,0,0,0,0,,,,,,0.0,,,,,,,
602324,1745469199289,,,,,,,,,,,,,,,,,,,,,,,,,,,,,,,,,,0,0,0,0,0,0,0,0,0,0,0,0,0,0,0,0,,,,,,,,,,,,,
602344,1745469199309,0.0,24,,-0.05,0.06,0.95,0,-0,0,0.95,1.16,82,2769,0.0,3.05,,12.63,1.152,98.8,,31.5,5,,,,,,,,,,,,0,0,0,0,0,0,0,0,0,0,0,0,0,0,0,0,,,,,,0.0,,,,,,,
602364,1745469199329,,,,,,,,,,,,,,,,,,,,,,,,,,,,,,,,,,0,0,0,0,0,0,0,0,0,0,0,0,0,0,0,0,,,,,,,,,,,,,
602384,1745469199349,0.0,30,13.73,-0.05,0.04,0.97,0,-0,0,0.97,1.16,84,2718,0.0,3.1,15,12.71,1.152,98.8,165,31.5,5,0,0,0,0,0.0,0.0,0.0,0.0,2.27,0,1.0,0,0,0,0,0,0,0,0,0,0,0,0,0,0,0,0,0,0,1.0,0,-0,0.0,38.9907,-76.939865,0.11,32.5,22,2,1.1
602404,1745469199369,,,,,,,,,,,,,,,,,,,,,,,,,,,,,,,,,,0,0,0,0,0,0,0,0,0,0,0,0,0,0,0,0,,,,,,,,,,,,,
602424,1745469199389,0.0,17,,-0.05,0.05,0.96,0,-0,0,0.96,1.16,83,2636,0.0,3.12,,12.77,1.155,98.8,,29.3,5,,,,,,,,,,,,0,0,0,0,0,0,0,0,0,0,0,0,0,0,0,0,,,,,,0.0,,,,,,,
602444,1745469199408,,,,,,,,,,,,,,,,,,,,,,,,,,,,,,,,,,0,0,0,0,0,0,0,0,0,0,0,0,0,0,0,0,,,,,,,,,,,,,
602464,1745469199428,0.0,17,,-0.05,0.06,0.98,0,-0,0,0.98,1.16,85,2568,0.0,3.16,,12.77,1.155,98.8,,29.3,5,,,,,,,,,,,,0,0,0,0,0,0,0,0,0,0,0,0,0,0,0,0,,,,,,0.0,,,,,,,
602484,1745469199448,,,,,,,,,,,,,,,,,,,,,,,0,0,0,0,0.0,0.0,0.0,0.0,2.27,,,0,0,0,0,0,0,0,0,0,0,0,0,0,0,0,0,,0,,,,,38.9907,-76.939865,0.04,32.5,22,2,1.1
602504,1745469199468,0.0,24,,-0.05,0.08,0.98,0,-0,0,0.98,1.16,85,2568,0.0,3.16,,12.89,1.184,98.8,,27.4,5,,,,,,,,,,,,0,0,0,0,0,0,0,0,0,0,0,0,0,0,0,0,,,,,,0.0,,,,,,,
602524,1745469199488,,,,,,,,,,,,,,,,,,,,,,,,,,,,,,,,,,0,0,0,0,0,0,0,0,0,0,0,0,0,0,0,0,,,,,,,,,,,,,
602544,1745469199510,0.0,10,,-0.07,0.07,0.98,0,-0,0,0.98,1.16,85,2469,0.0,3.2,,13.03,1.216,98.8,,27.4,5,,,,,,,,,,,,0,0,0,0,0,0,0,0,0,0,0,0,0,0,0,0,,,,,,0.0,,,,,,,
602564,1745469199530,,,,,,,,,,,,,,,,,,,,,,,,,,,,,,,,,,0,0,0,0,0,0,0,0,0,0,0,0,0,0,0,0,,,,,,,,,,,,,
602584,1745469199550,0.0,24,,-0.06,0.06,0.97,0,-0,0,0.98,1.16,84,2406,0.0,3.26,,13.11,1.249,98.8,,27.4,5,0,0,0,0,0.0,0.0,0.0,0.0,2.27,,,0,0,0,0,0,0,0,0,0,0,0,0,0,0,0,0,,0,,,,0.0,38.9907,-76.939865,0.11,32.5,22,2,1.1
602604,1745469199570,,,,,,,,,,,,,,,,,,,,,,,,,,,,,,,,,,0,0,0,0,0,0,0,0,0,0,0,0,0,0,0,0,,,,,,,,,,,,,
602624,1745469199590,0.0,20,,-0.05,0.01,1.03,-0,-0,0,1.03,1.16,89,2361,0.0,3.28,,13.23,1.25,98.8,,25.7,5,,,,,,,,,,,,0,0,0,0,0,0,0,0,0,0,0,0,0,0,0,0,,,,,,0.0,,,,,,,
602644,1745469199608,,,,,,,,,,,,,,,,,,,,,,,,,,,,,,,,,,0,0,0,0,0,0,0,0,0,0,0,0,0,0,0,0,,,,,,,,,,,,,
602664,1745469199628,0.0,37,,-0.05,0.0,1.07,-1,-0,0,1.07,1.16,92,2894,0.0,3.03,,13.23,1.25,98.8,,25.7,5,,,,,,,,,,,,0,0,0,0,0,0,0,0,0,0,0,0,0,0,0,0,,,,,,0.0,,,,,,,
602684,1745469199648,,,,,,,,,,,,,,,,,,,,,,,0,0,0,0,0.0,0.0,0.0,0.0,2.26,,,0,0,0,0,0,0,0,0,0,0,0,0,0,0,0,0,,0,,,,,38.9907,-76.939865,0.11,32.5,22,2,1.1
602704,1745469199668,0.0,34,,-0.03,0.03,1.08,-1,-0,1,1.08,1.16,93,2894,0.0,3.03,,12.96,1.251,98.8,,31.8,5,,,,,,,,,,,,0,0,0,0,0,0,0,0,0,0,0,0,0,0,0,0,,,,,,0.0,,,,,,,
602724,1745469199688,,,,,,,,,,,,,,,,,,,,,,,,,,,,,,,,,,0,0,0,0,0,0,0,0,0,0,0,0,0,0,0,0,,,,,,,,,,,,,
602744,1745469199708,0.0,27,,-0.01,0.07,1.05,-1,-0,1,1.05,1.16,90,2942,0.0,3.0,,12.84,1.249,98.8,,31.8,5,,,,,,,,,,,,0,0,0,0,0,0,0,0,0,0,0,0,0,0,0,0,,,,,,0.0,,,,,,,
602764,1745469199728,,,,,,,,,,,,,,,,,,,,,,,,,,,,,,,,,,0,0,0,0,0,0,0,0,0,0,0,0,0,0,0,0,,,,,,,,,,,,,
602784,1745469199748,0.0,27,,0.01,0.1,1.03,-1,-0,1,1.04,1.16,89,2961,0.0,2.99,,12.68,1.147,98.8,,31.8,5,0,0,0,0,0.0,0.0,0.0,0.0,2.27,,,0,0,0,0,0,0,0,0,0,0,0,0,0,0,0,0,,0,,,,0.0,38.9907,-76.939865,0.11,32.5,22,2,1.1
602804,1745469199768,,,,,,,,,,,,,,,,,,,,,,,,,,,,,,,,,,0,0,0,0,0,0,0,0,0,0,0,0,0,0,0,0,,,,,,,,,,,,,
602824,1745469199788,0.0,13,,0.02,0.12,1.01,-1,-0,1,1.01,1.16,87,2981,0.0,2.97,,12.64,1.102,98.8,,33.4,5,,,,,,,,,,,,0,0,0,0,0,0,0,0,0,0,0,0,0,0,0,0,,,,,,0.0,,,,,,,
602844,1745469199808,,,,,,,,,,,,,,,,,,,,,,,,,,,,,,,,,,0,0,0,0,0,0,0,0,0,0,0,0,0,0,0,0,,,,,,,,,,,,,
602864,1745469199828,0.0,17,,0.03,0.1,0.96,-0,-1,1,0.96,1.16,83,2897,0.0,3.02,,12.64,1.102,98.8,,33.4,5,,,,,,,,,,,,0,0,0,0,0,0,0,0,0,0,0,0,0,0,0,0,,,,,,0.0,,,,,,,
602884,1745469199848,,,,,,,,,,,,,,,,,,,,,,,0,0,0,0,0.0,0.0,0.0,0.0,2.27,,,0,0,0,0,0,0,0,0,0,0,0,0,0,0,0,0,,0,,,,,38.9907,-76.939865,0.08,32.5,22,2,1.1
602904,1745469199868,0.0,20,,0.01,0.09,0.96,0,-0,0,0.97,1.16,83,2897,0.0,3.02,,12.63,1.072,98.8,,31.4,5,,,,,,,,,,,,0,0,0,0,0,0,0,0,0,0,0,0,0,0,0,0,,,,,,0.0,,,,,,,
602924,1745469199888,,,,,,,,,,,,,,,,,,,,,,,,,,,,,,,,,,0,0,0,0,0,0,0,0,0,0,0,0,0,0,0,0,,,,,,,,,,,,,
602944,1745469199908,0.0,24,,0.0,0.07,0.99,-0,-0,1,0.99,1.16,86,2704,0.0,3.04,,12.69,1.075,98.8,,31.4,5,,,,,,,,,,,,0,0,0,0,0,0,0,0,0,0,0,0,0,0,0,0,,,,,,0.0,,,,,,,
602964,1745469199928,,,,,,,,,,,,,,,,,,,,,,,,,,,,,,,,,,0,0,0,0,0,0,0,0,0,0,0,0,0,0,0,0,,,,,,,,,,,,,
602984,1745469199948,0.0,24,,-0.01,0.09,0.95,0,-0,0,0.96,1.16,83,2680,0.0,3.07,,12.79,1.121,98.8,,31.4,5,0,0,0,0,0.0,0.0,0.0,0.0,2.27,,,0,0,0,0,0,0,0,0,0,0,0,0,0,0,0,0,,0,,,,0.0,38.9907,-76.939865,0.08,32.5,22,2,1.1
603004,1745469199968,,,,,,,,,,,,,,,,,,,,,,,,,,,,,,,,,,0,0,0,0,0,0,0,0,0,0,0,0,0,0,0,0,,,,,,,,,,,,,
603024,1745469199988,0.0,24,,-0.03,0.06,0.98,1,-0,0,0.99,1.16,85,2804,0.0,3.13,,12.8,1.175,98.8,,29.3,5,,,,,,,,,,,,0,0,0,0,0,0,0,0,0,0,0,0,0,0,0,0,,,,,,0.0,,,,,,,
603044,1745469200000,,,,,,,,,,,,,,,,,,,,,,,,,,,,,,,,,,0,0,0,0,0,0,0,0,0,0,0,0,0,0,0,0,,,,,,,,,,,,,
603064,1745469200020,0.0,27,,-0.04,0.05,1.02,-0,-0,0,1.03,1.16,89,2812,0.0,3.06,,12.8,1.175,98.8,,29.3,5,,,,,,,,,,,,0,0,0,0,0,0,0,0,0,0,0,0,0,0,0,0,,,,,,0.0,,,,,,,
603084,1745469200040,,,,,,,,,,,,,,,,,,,,,,,0,0,0,0,0.0,0.0,0.0,0.0,2.27,,,0,0,0,0,0,0,0,0,0,0,0,0,0,0,0,0,,0,,,,,38.9907,-76.939865,0.08,32.5,22,2,1.1
603104,1745469200060,0.0,30,,-0.03,0.05,0.98,-0,-0,0,0.99,1.16,85,2812,0.0,3.06,,12.76,1.249,98.8,,30.3,5,,,,,,,,,,,,0,0,0,0,0,0,0,0,0,0,0,0,0,0,0,0,,,,,,0.0,,,,,,,
603124,1745469200080,,,,,,,,,,,,,,,,,,,,,,,,,,,,,,,,,,0,0,0,0,0,0,0,0,0,0,0,0,0,0,0,0,,,,,,,,,,,,,
603144,1745469200108,0.0,24,,-0.05,0.01,0.95,1,-0,0,0.95,1.16,82,2720,0.0,3.08,,12.81,1.252,98.8,,30.3,5,,,,,,,,,,,,0,0,0,0,0,0,0,0,0,0,0,0,0,0,0,0,,,,,,0.0,,,,,,,
603164,1745469200128,,,,,,,,,,,,,,,,,,,,,,,,,,,,,,,,,,0,0,0,0,0,0,0,0,0,0,0,0,0,0,0,0,,,,,,,,,,,,,
603184,1745469200148,0.0,17,,-0.07,-0.0,1.0,1,-0,-0,1.0,1.16,86,2870,0.0,3.04,,12.75,1.215,98.8,,30.3,5,0,0,0,0,0.0,0.0,0.0,0.0,2.26,,,0,0,0,0,0,0,0,0,0,0,0,0,0,0,0,0,,0,,,,0.0,38.9907,-76.939865,0.08,32.5,22,2,1.1
603204,1745469200168,,,,,,,,,,,,,,,,,,,,,,,,,,,,,,,,,,0,0,0,0,0,0,0,0,0,0,0,0,0,0,0,0,,,,,,,,,,,,,
603224,1745469200188,0.0,20,,-0.07,-0.04,1.06,0,-0,0,1.06,1.16,92,2858,0.0,3.03,,12.71,1.21,98.8,,31.7,5,,,,,,,,,,,,0,0,0,0,0,0,0,0,0,0,0,0,0,0,0,0,,,,,,0.0,,,,,,,
603244,1745469200210,,,,,,,,,,,,,,,,,,,,,,,,,,,,,,,,,,0,0,0,0,0,0,0,0,0,0,0,0,0,0,0,0,,,,,,,,,,,,,
603264,1745469200230,0.0,27,,-0.06,0.0,1.06,-1,-0,0,1.06,1.16,91,2820,0.0,3.02,,12.71,1.21,98.8,,31.7,5,,,,,,,,,,,,0,0,0,0,0,0,0,0,0,0,0,0,0,0,0,0,,,,,,0.0,,,,,,,
603284,1745469200250,,,,,,,,,,,,,,,,,,,,,,,0,0,0,0,0.0,0.0,0.0,0.0,2.26,,,0,0,0,0,0,0,0,0,0,0,0,0,0,0,0,0,,0,,,,,38.9907,-76.939865,0.09,32.5,22,2,1.1
603304,1745469200270,0.0,37,,-0.03,-0.01,1.01,-0,-0,0,1.01,1.16,87,2820,0.0,3.02,,12.69,1.19,98.8,,31.2,5,,,,,,,,,,,,0,0,0,0,0,0,0,0,0,0,0,0,0,0,0,0,,,,,,0.0,,,,,,,
603324,1745469200290,,,,,,,,,,,,,,,,,,,,,,,,,,,,,,,,,,0,0,0,0,0,0,0,0,0,0,0,0,0,0,0,0,,,,,,,,,,,,,
603344,1745469200310,0.0,30,,-0.06,0.0,1.0,0,-0,0,1.0,1.16,86,2774,0.0,3.03,,12.76,1.164,98.8,,31.2,5,,,,,,,,,,,,0,0,0,0,0,0,0,0,0,0,0,0,0,0,0,0,,,,,,0.0,,,,,,,
603364,1745469200330,,,,,,,,,,,,,,,,,,,,,,,,,,,,,,,,,,0,0,0,0,0,0,0,0,0,0,0,0,0,0,0,0,,,,,,,,,,,,,
603384,1745469200350,0.0,44,13.76,-0.07,-0.04,1.04,-0,-0,0,1.04,1.16,90,2862,0.0,3.03,15,12.68,1.166,98.8,165,31.2,5,0,0,0,0,0.0,0.0,0.0,0.0,2.27,0,1.0,0,0,0,0,0,0,0,0,0,0,0,0,0,0,0,0,0,0,1.0,0,-0,0.0,38.9907,-76.939865,0.0,32.5,22,2,1.1
603404,1745469200370,,,,,,,,,,,,,,,,,,,,,,,,,,,,,,,,,,0,0,0,0,0,0,0,0,0,0,0,0,0,0,0,0,,,,,,,,,,,,,
603424,1745469200390,0.0,13,,-0.07,0.01,1.03,-0,-0,0,1.03,1.16,89,2780,0.0,3.06,,12.72,1.207,98.8,,31.1,5,,,,,,,,,,,,0,0,0,0,0,0,0,0,0,0,0,0,0,0,0,0,,,,,,0.0,,,,,,,
603444,1745469200410,,,,,,,,,,,,,,,,,,,,,,,,,,,,,,,,,,0,0,0,0,0,0,0,0,0,0,0,0,0,0,0,0,,,,,,,,,,,,,
603464,1745469200430,0.0,20,,-0.06,-0.01,1.02,-0,-0,0,1.02,1.16,88,2706,0.0,3.09,,12.72,1.207,98.8,,31.1,5,,,,,,,,,,,,0,0,0,0,0,0,0,0,0,0,0,0,0,0,0,0,,,,,,0.0,,,,,,,
603484,1745469200450,,,,,,,,,,,,,,,,,,,,,,,0,0,0,0,0.0,0.0,0.0,0.0,2.27,,,0,0,0,0,0,0,0,0,0,0,0,0,0,0,0,0,,0,,,,,38.9907,-76.939865,0.08,32.5,22,2,1.1
603504,1745469200470,0.0,24,,-0.05,0.01,1.01,-0,-0,0,1.01,1.16,87,2706,0.0,3.09,,12.77,1.206,98.8,,29.0,5,,,,,,,,,,,,0,0,0,0,0,0,0,0,0,0,0,0,0,0,0,0,,,,,,0.0,,,,,,,
603524,1745469200490,,,,,,,,,,,,,,,,,,,,,,,,,,,,,,,,,,0,0,0,0,0,0,0,0,0,0,0,0,0,0,0,0,,,,,,,,,,,,,
603544,1745469200509,0.0,24,,-0.06,-0.05,1.04,-0,-0,0,1.04,1.16,90,2613,0.0,3.14,,12.87,1.197,98.8,,29.0,5,,,,,,,,,,,,0,0,0,0,0,0,0,0,0,0,0,0,0,0,0,0,,,,,,0.0,,,,,,,
603564,1745469200529,,,,,,,,,,,,,,,,,,,,,,,,,,,,,,,,,,0,0,0,0,0,0,0,0,0,0,0,0,0,0,0,0,,,,,,,,,,,,,
603584,1745469200549,0.0,51,,-0.06,-0.0,1.02,-1,-0,0,1.03,1.16,89,2735,0.0,3.16,,12.91,1.192,98.8,,29.0,5,0,0,0,0,0.0,0.0,0.0,0.0,2.28,,,0,0,0,0,0,0,0,0,0,0,0,0,0,0,0,0,,0,,,,0.0,38.9907,-76.939865,0.09,32.5,22,2,1.1
603604,1745469200569,,,,,,,,,,,,,,,,,,,,,,,,,,,,,,,,,,0,0,0,0,0,0,0,0,0,0,0,0,0,0,0,0,,,,,,,,,,,,,
603624,1745469200589,0.0,37,,-0.07,0.01,0.99,-0,-0,0,0.99,1.16,86,2716,0.0,3.1,,12.91,1.249,98.8,,29.7,5,,,,,,,,,,,,0,0,0,0,0,0,0,0,0,0,0,0,0,0,0,0,,,,,,0.0,,,,,,,
603644,1745469200609,,,,,,,,,,,,,,,,,,,,,,,,,,,,,,,,,,0,0,0,0,0,0,0,0,0,0,0,0,0,0,0,0,,,,,,,,,,,,,
603664,1745469200629,0.0,37,,-0.06,-0.03,1.03,-0,-0,0,1.03,1.16,89,2769,0.0,3.08,,12.91,1.249,98.8,,29.7,5,,,,,,,,,,,,0,0,0,0,0,0,0,0,0,0,0,0,0,0,0,0,,,,,,0.0,,,,,,,
603684,1745469200649,,,,,,,,,,,,,,,,,,,,,,,0,0,0,0,0.0,0.0,0.0,0.0,2.26,,,0,0,0,0,0,0,0,0,0,0,0,0,0,0,0,0,,0,,,,,38.9907,-76.939865,0.08,32.5,22,2,1.1
603704,1745469200669,0.0,44,,-0.06,-0.02,1.0,-0,-0,0,1.0,1.16,87,2769,0.0,3.08,,12.88,1.25,98.8,,29.7,5,,,,,,,,,,,,0,0,0,0,0,0,0,0,0,0,0,0,0,0,0,0,,,,,,0.0,,,,,,,
603724,1745469200689,,,,,,,,,,,,,,,,,,,,,,,,,,,,,,,,,,0,0,0,0,0,0,0,0,0,0,0,0,0,0,0,0,,,,,,,,,,,,,
603744,1745469200709,0.0,24,,-0.06,-0.01,1.02,-0,-0,0,1.02,1.16,88,2623,0.0,3.1,,12.95,1.226,98.8,,29.7,5,,,,,,,,,,,,0,0,0,0,0,0,0,0,0,0,0,0,0,0,0,0,,,,,,0.0,,,,,,,
603764,1745469200729,,,,,,,,,,,,,,,,,,,,,,,,,,,,,,,,,,0,0,0,0,0,0,0,0,0,0,0,0,0,0,0,0,,,,,,,,,,,,,
603784,1745469200749,0.0,27,,-0.07,0.05,1.01,-0,-0,0,1.01,1.16,87,2627,0.0,3.1,,12.95,1.163,98.8,,29.7,5,0,0,0,0,0.0,0.0,0.0,0.0,2.26,,,0,0,0,0,0,0,0,0,0,0,0,0,0,0,0,0,,0,,,,0.0,38.9907,-76.939865,0.04,32.5,22,2,1.1
603804,1745469200769,,,,,,,,,,,,,,,,,,,,,,,,,,,,,,,,,,0,0,0,0,0,0,0,0,0,0,0,0,0,0,0,0,,,,,,,,,,,,,
603824,1745469200789,0.0,27,,-0.07,0.05,0.99,0,-0,0,1.0,1.16,86,2712,0.0,3.11,,12.93,1.133,98.8,,29.3,5,,,,,,,,,,,,0,0,0,0,0,0,0,0,0,0,0,0,0,0,0,0,,,,,,0.0,,,,,,,
603844,1745469200809,,,,,,,,,,,,,,,,,,,,,,,,,,,,,,,,,,0,0,0,0,0,0,0,0,0,0,0,0,0,0,0,0,,,,,,,,,,,,,
603864,1745469200829,0.0,17,,-0.07,0.03,1.01,0,-0,0,1.02,1.16,88,2696,0.0,3.09,,12.93,1.133,98.8,,29.3,5,,,,,,,,,,,,0,0,0,0,0,0,0,0,0,0,0,0,0,0,0,0,,,,,,0.0,,,,,,,
603884,1745469200849,,,,,,,,,,,,,,,,,,,,,,,0,0,0,0,0.0,0.0,0.0,0.0,2.27,,,0,0,0,0,0,0,0,0,0,0,0,0,0,0,0,0,,0,,,,,38.9907,-76.939865,0.47,32.5,22,2,1.1
603904,1745469200869,0.0,37,,-0.07,0.03,1.0,0,-0,0,1.01,1.16,87,2696,0.0,3.09,,12.88,1.158,98.8,,28.8,5,,,,,,,,,,,,0,0,0,0,0,0,0,0,0,0,0,0,0,0,0,0,,,,,,0.0,,,,,,,
603924,1745469200889,,,,,,,,,,,,,,,,,,,,,,,,,,,,,,,,,,0,0,0,0,0,0,0,0,0,0,0,0,0,0,0,0,,,,,,,,,,,,,
603944,1745469200909,0.0,37,,-0.07,0.01,0.99,-0,-0,0,0.99,1.16,85,2614,0.0,3.15,,12.96,1.17,98.8,,28.8,5,,,,,,,,,,,,0,0,0,0,0,0,0,0,0,0,0,0,0,0,0,0,,,,,,0.0,,,,,,,
603964,1745469200929,,,,,,,,,,,,,,,,,,,,,,,,,,,,,,,,,,0,0,0,0,0,0,0,0,0,0,0,0,0,0,0,0,,,,,,,,,,,,,
603984,1745469200949,0.0,44,,-0.06,-0.03,1.01,-0,-0,0,1.01,1.16,87,2552,0.0,3.18,,13.05,1.151,98.8,,28.8,5,0,0,0,0,0.0,0.0,0.0,0.0,2.27,,,0,0,0,0,0,0,0,0,0,0,0,0,0,0,0,0,,0,,,,0.0,38.9907,-76.939865,0.32,32.5,22,2,1.1
604004,1745469200969,,,,,,,,,,,,,,,,,,,,,,,,,,,,,,,,,,0,0,0,0,0,0,0,0,0,0,0,0,0,0,0,0,,,,,,,,,,,,,
604024,1745469200989,0.0,41,,-0.06,-0.02,0.99,0,-0,-0,1.0,1.16,86,2509,0.0,3.22,,13.11,1.133,98.8,,27.5,5,,,,,,,,,,,,0,0,0,0,0,0,0,0,0,0,0,0,0,0,0,0,,,,,,0.0,,,,,,,
604044,1745469200999,,,,,,,,,,,,,,,,,,,,,,,,,,,,,,,,,,0,0,0,0,0,0,0,0,0,0,0,0,0,0,0,0,,,,,,,,,,,,,
604064,1745469201019,0.0,17,,-0.06,0.0,1.0,0,-0,-0,1.0,1.16,86,2413,0.0,3.24,,13.11,1.133,98.8,,27.5,5,,,,,,,,,,,,0,0,0,0,0,0,0,0,0,0,0,0,0,0,0,0,,,,,,0.0,,,,,,,
604084,1745469201039,,,,,,,,,,,,,,,,,,,,,,,0,0,0,0,0.0,0.0,0.0,0.0,2.28,,,0,0,0,0,0,0,0,0,0,0,0,0,0,0,0,0,,0,,,,,38.9907,-76.939865,0.0,32.5,22,2,1.1
604104,1745469201059,0.0,37,,-0.06,-0.02,0.98,0,-0,0,0.98,1.16,85,2413,0.0,3.24,,13.23,1.135,98.8,,25.7,5,,,,,,,,,,,,0,0,0,0,0,0,0,0,0,0,0,0,0,0,0,0,,,,,,0.0,,,,,,,
604124,1745469201079,,,,,,,,,,,,,,,,,,,,,,,,,,,,,,,,,,0,0,0,0,0,0,0,0,0,0,0,0,0,0,0,0,,,,,,,,,,,,,
604144,1745469201109,0.0,30,,-0.06,-0.04,1.0,0,-0,-0,1.0,1.16,87,2359,0.0,3.28,,13.23,1.162,98.8,,25.7,5,,,,,,,,,,,,0,0,0,0,0,0,0,0,0,0,0,0,0,0,0,0,,,,,,0.0,,,,,,,
604164,1745469201129,,,,,,,,,,,,,,,,,,,,,,,,,,,,,,,,,,0,0,0,0,0,0,0,0,0,0,0,0,0,0,0,0,,,,,,,,,,,,,
604184,1745469201149,0.0,30,,-0.06,-0.01,0.97,0,-0,-0,0.98,1.16,84,2570,0.0,3.17,,13.16,1.244,98.8,,25.7,5,0,0,0,0,0.0,0.0,0.0,0.0,2.27,,,0,0,0,0,0,0,0,0,0,0,0,0,0,0,0,0,,0,,,,0.0,38.9907,-76.939865,0.3,32.5,22,2,1.1
604204,1745469201169,,,,,,,,,,,,,,,,,,,,,,,,,,,,,,,,,,0,0,0,0,0,0,0,0,0,0,0,0,0,0,0,0,,,,,,,,,,,,,
604224,1745469201189,0.0,34,,-0.05,-0.01,1.01,0,-0,0,1.01,1.16,87,2492,0.0,3.16,,13.16,1.247,98.8,,28.6,5,,,,,,,,,,,,0,0,0,0,0,0,0,0,0,0,0,0,0,0,0,0,,,,,,0.0,,,,,,,
604244,1745469201207,,,,,,,,,,,,,,,,,,,,,,,,,,,,,,,,,,0,0,0,0,0,0,0,0,0,0,0,0,0,0,0,0,,,,,,,,,,,,,
604264,1745469201227,0.0,34,,-0.06,-0.01,1.0,0,-0,0,1.0,1.16,87,2508,0.0,3.18,,13.16,1.247,98.8,,28.6,5,,,,,,,,,,,,0,0,0,0,0,0,0,0,0,0,0,0,0,0,0,0,,,,,,0.0,,,,,,,
604284,1745469201247,,,,,,,,,,,,,,,,,,,,,,,0,0,0,0,0.0,0.0,0.0,0.0,2.26,,,0,0,0,0,0,0,0,0,0,0,0,0,0,0,0,0,,0,,,,,38.9907,-76.939865,0.24,32.5,22,2,1.1
604304,1745469201267,0.0,47,,-0.05,-0.02,0.99,0,-0,0,1.0,1.16,86,2508,0.0,3.18,,13.2,1.2,98.8,,27.6,5,,,,,,,,,,,,0,0,0,0,0,0,0,0,0,0,0,0,0,0,0,0,,,,,,0.0,,,,,,,
604324,1745469201287,,,,,,,,,,,,,,,,,,,,,,,,,,,,,,,,,,0,0,0,0,0,0,0,0,0,0,0,0,0,0,0,0,,,,,,,,,,,,,
604344,1745469201309,0.0,41,,-0.05,0.0,1.0,1,-0,0,1.0,1.16,87,2418,0.0,3.2,,13.25,1.143,98.8,,27.6,5,,,,,,,,,,,,0,0,0,0,0,0,0,0,0,0,0,0,0,0,0,0,,,,,,0.0,,,,,,,
604364,1745469201329,,,,,,,,,,,,,,,,,,,,,,,,,,,,,,,,,,0,0,0,0,0,0,0,0,0,0,0,0,0,0,0,0,,,,,,,,,,,,,
604384,1745469201349,0.0,37,13.81,-0.05,-0.03,1.02,0,-0,0,1.02,1.16,88,2363,0.0,3.23,15,13.28,1.109,98.8,165,27.6,5,0,0,0,0,0.0,0.0,0.0,0.0,2.27,0,1.0,0,0,0,0,0,0,0,0,0,0,0,0,0,0,0,0,0,0,1.0,0,-0,0.0,38.9907,-76.939865,0.13,32.5,22,2,1.1
604404,1745469201369,,,,,,,,,,,,,,,,,,,,,,,,,,,,,,,,,,0,0,0,0,0,0,0,0,0,0,0,0,0,0,0,0,,,,,,,,,,,,,
604424,1745469201389,0.0,27,,-0.06,-0.02,1.0,1,-0,-0,1.0,1.16,87,2596,0.0,3.26,,13.23,1.12,98.8,,26.5,5,,,,,,,,,,,,0,0,0,0,0,0,0,0,0,0,0,0,0,0,0,0,,,,,,0.0,,,,,,,
604444,1745469201408,,,,,,,,,,,,,,,,,,,,,,,,,,,,,,,,,,0,0,0,0,0,0,0,0,0,0,0,0,0,0,0,0,,,,,,,,,,,,,
604464,1745469201428,0.0,24,,-0.04,-0.04,0.98,0,-0,0,0.98,1.16,85,2432,0.0,3.19,,13.23,1.12,98.8,,26.5,5,,,,,,,,,,,,0,0,0,0,0,0,0,0,0,0,0,0,0,0,0,0,,,,,,0.0,,,,,,,
604484,1745469201448,,,,,,,,,,,,,,,,,,,,,,,0,0,0,0,0.0,0.0,0.0,0.0,2.27,,,0,0,0,0,0,0,0,0,0,0,0,0,0,0,0,0,,0,,,,,38.9907,-76.939865,0.07,32.5,22,2,1.1
604504,1745469201468,0.0,34,,-0.06,-0.03,1.0,0,-0,-0,1.0,1.16,86,2432,0.0,3.19,,13.23,1.204,98.8,,27.7,5,,,,,,,,,,,,0,0,0,0,0,0,0,0,0,0,0,0,0,0,0,0,,,,,,0.0,,,,,,,
604524,1745469201488,,,,,,,,,,,,,,,,,,,,,,,,,,,,,,,,,,0,0,0,0,0,0,0,0,0,0,0,0,0,0,0,0,,,,,,,,,,,,,
604544,1745469201508,0.0,47,,-0.06,-0.0,0.98,0,-0,0,0.98,1.16,85,2654,0.0,3.2,,13.16,1.23,98.8,,27.7,5,,,,,,,,,,,,0,0,0,0,0,0,0,0,0,0,0,0,0,0,0,0,,,,,,0.0,,,,,,,
604564,1745469201528,,,,,,,,,,,,,,,,,,,,,,,,,,,,,,,,,,0,0,0,0,0,0,0,0,0,0,0,0,0,0,0,0,,,,,,,,,,,,,
604584,1745469201548,0.0,47,,-0.07,0.01,1.01,0,-0,-0,1.01,1.16,87,2579,0.0,3.17,,13.19,1.216,98.8,,27.7,5,0,0,0,0,0.0,0.0,0.0,0.0,2.28,,,0,0,0,0,0,0,0,0,0,0,0,0,0,0,0,0,,0,,,,0.0,38.9907,-76.939865,0.05,32.4,22,2,1.1
604604,1745469201568,,,,,,,,,,,,,,,,,,,,,,,,,,,,,,,,,,0,0,0,0,0,0,0,0,0,0,0,0,0,0,0,0,,,,,,,,,,,,,
604624,1745469201588,0.0,41,,-0.07,0.02,0.99,0,-0,0,0.99,1.16,85,2555,0.0,3.13,,13.12,1.173,98.8,,28.5,5,,,,,,,,,,,,0,0,0,0,0,0,0,0,0,0,0,0,0,0,0,0,,,,,,0.0,,,,,,,
604644,1745469201608,,,,,,,,,,,,,,,,,,,,,,,,,,,,,,,,,,0,0,0,0,0,0,0,0,0,0,0,0,0,0,0,0,,,,,,,,,,,,,
604664,1745469201628,0.0,41,,-0.08,0.03,0.99,0,-0,0,1.0,1.16,86,2510,0.0,3.18,,13.12,1.173,98.8,,28.5,5,,,,,,,,,,,,0,0,0,0,0,0,0,0,0,0,0,0,0,0,0,0,,,,,,0.0,,,,,,,
604684,1745469201648,,,,,,,,,,,,,,,,,,,,,,,0,0,0,0,0.0,0.0,0.0,0.0,2.27,,,0,0,0,0,0,0,0,0,0,0,0,0,0,0,0,0,,0,,,,,38.9907,-76.939865,0.11,32.4,22,2,1.1
604704,1745469201668,0.0,41,,-0.08,0.0,1.01,0,-0,0,1.01,1.16,87,2510,0.0,3.18,,13.13,1.142,98.8,,26.8,5,,,,,,,,,,,,0,0,0,0,0,0,0,0,0,0,0,0,0,0,0,0,,,,,,0.0,,,,,,,
604724,1745469201688,,,,,,,,,,,,,,,,,,,,,,,,,,,,,,,,,,0,0,0,0,0,0,0,0,0,0,0,0,0,0,0,0,,,,,,,,,,,,,
604744,1745469201708,0.0,34,,-0.06,0.01,0.97,-0,-0,0,0.98,1.16,84,2467,0.0,3.24,,13.2,1.112,98.8,,26.8,5,,,,,,,,,,,,0,0,0,0,0,0,0,0,0,0,0,0,0,0,0,0,,,,,,0.0,,,,,,,
604764,1745469201728,,,,,,,,,,,,,,,,,,,,,,,,,,,,,,,,,,0,0,0,0,0,0,0,0,0,0,0,0,0,0,0,0,,,,,,,,,,,,,
604784,1745469201748,0.0,41,,-0.06,-0.01,0.99,-0,-0,0,0.99,1.16,86,2681,0.0,3.12,,13.11,1.124,98.8,,26.8,5,0,0,0,0,0.0,0.0,0.0,0.0,2.26,,,0,0,0,0,0,0,0,0,0,0,0,0,0,0,0,0,,0,,,,0.0,38.9907,-76.939865,0.05,32.4,22,2,1.1
604804,1745469201768,,,,,,,,,,,,,,,,,,,,,,,,,,,,,,,,,,0,0,0,0,0,0,0,0,0,0,0,0,0,0,0,0,,,,,,,,,,,,,
604824,1745469201788,0.0,30,,-0.06,0.01,0.97,-0,-0,0,0.97,1.16,84,2596,0.0,3.18,,13.07,1.225,98.8,,28.0,5,,,,,,,,,,,,0,0,0,0,0,0,0,0,0,0,0,0,0,0,0,0,,,,,,0.0,,,,,,,
604844,1745469201808,,,,,,,,,,,,,,,,,,,,,,,,,,,,,,,,,,0,0,0,0,0,0,0,0,0,0,0,0,0,0,0,0,,,,,,,,,,,,,
604864,1745469201828,0.0,41,,-0.07,0.0,0.98,0,-0,0,0.99,1.16,85,2564,0.0,3.19,,13.07,1.225,98.8,,28.0,5,,,,,,,,,,,,0,0,0,0,0,0,0,0,0,0,0,0,0,0,0,0,,,,,,0.0,,,,,,,
604884,1745469201848,,,,,,,,,,,,,,,,,,,,,,,0,0,0,0,0.0,0.0,0.0,0.0,2.26,,,0,0,0,0,0,0,0,0,0,0,0,0,0,0,0,0,,0,,,,,38.9907,-76.939865,0.04,32.4,22,2,1.1
604904,1745469201868,0.0,34,,-0.07,-0.0,1.0,-0,-0,0,1.0,1.16,86,2564,0.0,3.19,,13.08,1.213,98.8,,27.4,5,,,,,,,,,,,,0,0,0,0,0,0,0,0,0,0,0,0,0,0,0,0,,,,,,0.0,,,,,,,
604924,1745469201888,,,,,,,,,,,,,,,,,,,,,,,,,,,,,,,,,,0,0,0,0,0,0,0,0,0,0,0,0,0,0,0,0,,,,,,,,,,,,,
604944,1745469201909,0.0,41,,-0.07,0.0,1.01,-0,-0,0,1.01,1.16,87,2512,0.0,3.22,,13.13,1.177,98.8,,27.4,5,,,,,,,,,,,,0,0,0,0,0,0,0,0,0,0,0,0,0,0,0,0,,,,,,0.0,,,,,,,
604984,1745469201949,0.0,57,,-0.08,0.0,1.01,0,-0,0,1.01,1.16,88,2718,0.0,3.11,,13.04,1.186,98.8,,27.4,5,0,0,0,0,0.0,0.0,0.0,0.0,2.27,,,0,0,0,0,0,0,0,0,0,0,0,0,0,0,0,0,,0,,,,0.0,38.9907,-76.939865,0.06,32.4,22,2,1.1
605004,1745469201969,,,,,,,,,,,,,,,,,,,,,,,,,,,,,,,,,,0,0,0,0,0,0,0,0,0,0,0,0,0,0,0,0,,,,,,,,,,,,,
605024,1745469201989,0.0,30,,-0.07,0.01,1.02,-0,-0,0,1.02,1.16,88,2634,0.0,3.12,,12.97,1.238,98.8,,29.2,5,,,,,,,,,,,,0,0,0,0,0,0,0,0,0,0,0,0,0,0,0,0,,,,,,0.0,,,,,,,
605044,1745469201998,,,,,,,,,,,,,,,,,,,,,,,,,,,,,,,,,,0,0,0,0,0,0,0,0,0,0,0,0,0,0,0,0,,,,,,,,,,,,,
605064,1745469202018,0.0,37,,-0.08,-0.0,1.02,-0,-0,0,1.02,1.16,88,2502,0.0,3.15,,12.97,1.238,98.8,,29.2,5,,,,,,,,,,,,0,0,0,0,0,0,0,0,0,0,0,0,0,0,0,0,,,,,,0.0,,,,,,,
605084,1745469202038,,,,,,,,,,,,,,,,,,,,,,,0,0,0,0,0.0,0.0,0.0,0.0,2.27,,,0,0,0,0,0,0,0,0,0,0,0,0,0,0,0,0,,0,,,,,38.9907,-76.939865,0.07,32.4,22,2,1.1
605104,1745469202058,0.0,68,,-0.07,-0.0,1.01,-0,-0,0,1.01,1.16,88,2502,0.0,3.15,,13.08,1.212,98.8,,28.0,5,,,,,,,,,,,,0,0,0,0,0,0,0,0,0,0,0,0,0,0,0,0,,,,,,0.0,,,,,,,
605124,1745469202078,,,,,,,,,,,,,,,,,,,,,,,,,,,,,,,,,,0,0,0,0,0,0,0,0,0,0,0,0,0,0,0,0,,,,,,,,,,,,,
605144,1745469202106,0.0,13,,-0.07,0.01,1.01,0,-0,0,1.02,1.16,88,2444,0.0,3.18,,13.16,1.163,98.8,,28.0,5,,,,,,,,,,,,0,0,0,0,0,0,0,0,0,0,0,0,0,0,0,0,,,,,,0.0,,,,,,,
605164,1745469202126,,,,,,,,,,,,,,,,,,,,,,,,,,,,,,,,,,0,0,0,0,0,0,0,0,0,0,0,0,0,0,0,0,,,,,,,,,,,,,
605184,1745469202146,0.0,51,,-0.07,-0.01,1.02,0,-0,0,1.02,1.16,88,2347,0.0,3.24,,13.27,1.174,98.8,,28.0,5,0,0,0,0,0.0,0.0,0.0,0.0,2.27,,,0,0,0,0,0,0,0,0,0,0,0,0,0,0,0,0,,0,,,,0.0,38.9907,-76.939865,0.0,32.4,22,2,1.1
605204,1745469202166,,,,,,,,,,,,,,,,,,,,,,,,,,,,,,,,,,0,0,0,0,0,0,0,0,0,0,0,0,0,0,0,0,,,,,,,,,,,,,
605224,1745469202186,0.0,47,,-0.06,-0.02,1.03,0,-0,0,1.03,1.16,89,2301,0.0,3.25,,13.32,1.198,98.8,,26.2,5,,,,,,,,,,,,0,0,0,0,0,0,0,0,0,0,0,0,0,0,0,0,,,,,,0.0,,,,,,,
605244,1745469202206,,,,,,,,,,,,,,,,,,,,,,,,,,,,,,,,,,0,0,0,0,0,0,0,0,0,0,0,0,0,0,0,0,,,,,,,,,,,,,
605264,1745469202226,0.0,44,,-0.06,-0.02,1.02,0,-0,0,1.02,1.16,88,2238,0.0,3.29,,13.32,1.198,98.8,,26.2,5,,,,,,,,,,,,0,0,0,0,0,0,0,0,0,0,0,0,0,0,0,0,,,,,,0.0,,,,,,,
605284,1745469202246,,,,,,,,,,,,,,,,,,,,,,,0,0,0,0,0.0,0.0,0.0,0.0,2.27,,,0,0,0,0,0,0,0,0,0,0,0,0,0,0,0,0,,0,,,,,38.9907,-76.939865,0.04,32.4,22,2,1.1
605304,1745469202266,0.0,54,,-0.06,-0.02,1.01,0,-0,0,1.01,1.16,87,2238,0.0,3.29,,13.36,1.218,98.8,,24.8,5,,,,,,,,,,,,0,0,0,0,0,0,0,0,0,0,0,0,0,0,0,0,,,,,,0.0,,,,,,,
605324,1745469202286,,,,,,,,,,,,,,,,,,,,,,,,,,,,,,,,,,0,0,0,0,0,0,0,0,0,0,0,0,0,0,0,0,,,,,,,,,,,,,
605344,1745469202310,0.0,34,,-0.06,-0.02,1.0,-0,-0,0,1.0,1.16,86,2258,0.0,3.33,,13.4,1.232,98.8,,24.8,5,,,,,,,,,,,,0,0,0,0,0,0,0,0,0,0,0,0,0,0,0,0,,,,,,0.0,,,,,,,
605364,1745469202330,,,,,,,,,,,,,,,,,,,,,,,,,,,,,,,,,,0,0,0,0,0,0,0,0,0,0,0,0,0,0,0,0,,,,,,,,,,,,,
605384,1745469202350,0.0,47,13.75,-0.06,-0.01,1.0,-0,-0,0,1.0,1.16,87,2206,0.0,3.37,15,13.52,1.235,98.8,165,24.8,5,0,0,0,0,0.0,0.0,0.0,0.0,2.26,0,1.0,0,0,0,0,0,0,0,0,0,0,0,0,0,0,0,0,0,0,1.0,0,-0,0.0,38.9907,-76.939865,0.04,32.4,22,2,1.1
605404,1745469202370,,,,,,,,,,,,,,,,,,,,,,,,,,,,,,,,,,0,0,0,0,0,0,0,0,0,0,0,0,0,0,0,0,,,,,,,,,,,,,
605424,1745469202390,0.0,30,,-0.07,-0.01,1.02,-0,-0,0,1.02,1.16,88,2168,0.0,3.38,,13.51,1.23,98.8,,23.3,5,,,,,,,,,,,,0,0,0,0,0,0,0,0,0,0,0,0,0,0,0,0,,,,,,0.0,,,,,,,
605444,1745469202409,,,,,,,,,,,,,,,,,,,,,,,,,,,,,,,,,,0,0,0,0,0,0,0,0,0,0,0,0,0,0,0,0,,,,,,,,,,,,,
605464,1745469202429,0.0,27,,-0.07,-0.02,1.01,-0,-0,0,1.01,1.16,87,2110,0.0,3.41,,13.51,1.23,98.8,,23.3,5,,,,,,,,,,,,0,0,0,0,0,0,0,0,0,0,0,0,0,0,0,0,,,,,,0.0,,,,,,,
605484,1745469202449,,,,,,,,,,,,,,,,,,,,,,,0,0,0,0,0.0,0.0,0.0,0.0,2.27,,,0,0,0,0,0,0,0,0,0,0,0,0,0,0,0,0,,0,,,,,38.9907,-76.939865,0.04,32.4,22,2,1.1
605504,1745469202469,0.0,61,,-0.06,-0.02,1.0,-0,-0,0,1.0,1.16,86,2110,0.0,3.41,,13.65,1.238,98.8,,24.9,5,,,,,,,,,,,,0,0,0,0,0,0,0,0,0,0,0,0,0,0,0,0,,,,,,0.0,,,,,,,
605524,1745469202489,,,,,,,,,,,,,,,,,,,,,,,,,,,,,,,,,,0,0,0,0,0,0,0,0,0,0,0,0,0,0,0,0,,,,,,,,,,,,,
605544,1745469202509,0.0,51,,-0.06,-0.01,1.02,-0,-0,0,1.02,1.16,88,2373,0.0,3.27,,13.57,1.245,98.8,,24.9,5,,,,,,,,,,,,0,0,0,0,0,0,0,0,0,0,0,0,0,0,0,0,,,,,,0.0,,,,,,,
605564,1745469202529,,,,,,,,,,,,,,,,,,,,,,,,,,,,,,,,,,0,0,0,0,0,0,0,0,0,0,0,0,0,0,0,0,,,,,,,,,,,,,
605584,1745469202549,0.0,54,,-0.06,-0.01,1.02,-0,-0,0,1.02,1.16,88,2485,0.0,3.27,,13.43,1.249,98.8,,24.9,5,0,0,0,0,0.0,0.0,0.0,0.0,2.28,,,0,0,0,0,0,0,0,0,0,0,0,0,0,0,0,0,,0,,,,0.0,38.9907,-76.939865,0.04,32.4,22,2,1.1
605604,1745469202569,,,,,,,,,,,,,,,,,,,,,,,,,,,,,,,,,,0,0,0,0,0,0,0,0,0,0,0,0,0,0,0,0,,,,,,,,,,,,,
605624,1745469202589,0.0,47,,-0.06,-0.01,1.02,-0,-0,0,1.02,1.16,88,2428,0.0,3.27,,13.41,1.247,98.8,,25.7,5,,,,,,,,,,,,0,0,0,0,0,0,0,0,0,0,0,0,0,0,0,0,,,,,,0.0,,,,,,,
605644,1745469202609,,,,,,,,,,,,,,,,,,,,,,,,,,,,,,,,,,0,0,0,0,0,0,0,0,0,0,0,0,0,0,0,0,,,,,,,,,,,,,
605664,1745469202629,0.0,44,,-0.06,0.01,1.02,-0,-0,0,1.02,1.16,88,2401,0.0,3.28,,13.41,1.247,98.8,,25.7,5,,,,,,,,,,,,0,0,0,0,0,0,0,0,0,0,0,0,0,0,0,0,,,,,,0.0,,,,,,,
605684,1745469202649,,,,,,,,,,,,,,,,,,,,,,,0,0,0,0,0.0,0.0,0.0,0.0,2.27,,,0,0,0,0,0,0,0,0,0,0,0,0,0,0,0,0,,0,,,,,38.9907,-76.939865,0.04,32.4,22,2,1.1
605704,1745469202669,0.0,47,,-0.06,0.01,1.0,-0,-0,0,1.0,1.16,87,2401,0.0,3.28,,13.43,1.184,98.8,,25.3,5,,,,,,,,,,,,0,0,0,0,0,0,0,0,0,0,0,0,0,0,0,0,,,,,,0.0,,,,,,,
605724,1745469202691,,,,,,,,,,,,,,,,,,,,,,,,,,,,,,,,,,0,0,0,0,0,0,0,0,0,0,0,0,0,0,0,0,,,,,,,,,,,,,
605744,1745469202711,0.0,30,,-0.05,-0.0,0.99,-0,-0,0,0.99,1.16,85,2376,0.0,3.29,,13.44,1.136,97.0,,25.3,5,,,,,,,,,,,,0,0,0,0,0,0,0,0,0,0,0,0,0,0,0,0,,,,,,0.0,,,,,,,
605764,1745469202731,,,,,,,,,,,,,,,,,,,,,,,,,,,,,,,,,,0,0,0,0,0,0,0,0,0,0,0,0,0,0,0,0,,,,,,,,,,,,,
605784,1745469202751,0.0,41,,-0.06,0.0,0.99,-0,-0,0,0.99,1.16,85,2315,0.0,3.32,,13.47,1.109,97.0,,25.3,5,0,0,0,0,0.0,0.0,0.0,0.0,2.26,,,0,0,0,0,0,0,0,0,0,0,0,0,0,0,0,0,,0,,,,0.0,38.9907,-76.939865,0.04,32.4,22,2,1.1
605804,1745469202771,,,,,,,,,,,,,,,,,,,,,,,,,,,,,,,,,,0,0,0,0,0,0,0,0,0,0,0,0,0,0,0,0,,,,,,,,,,,,,
605824,1745469202791,0.0,51,,-0.06,0.01,1.0,-0,-0,0,1.0,1.16,86,2251,0.0,3.33,,13.47,1.11,97.0,,24.6,5,,,,,,,,,,,,0,0,0,0,0,0,0,0,0,0,0,0,0,0,0,0,,,,,,0.0,,,,,,,
605844,1745469202809,,,,,,,,,,,,,,,,,,,,,,,,,,,,,,,,,,0,0,0,0,0,0,0,0,0,0,0,0,0,0,0,0,,,,,,,,,,,,,
605864,1745469202829,0.0,51,,-0.06,0.01,1.0,-0,-0,0,1.0,1.16,86,2143,0.0,3.33,,13.47,1.11,97.0,,24.6,5,,,,,,,,,,,,0,0,0,0,0,0,0,0,0,0,0,0,0,0,0,0,,,,,,0.0,,,,,,,
605884,1745469202849,,,,,,,,,,,,,,,,,,,,,,,0,0,0,0,0.0,0.0,0.0,0.0,2.26,,,0,0,0,0,0,0,0,0,0,0,0,0,0,0,0,0,,0,,,,,38.9907,-76.939865,0.05,32.4,22,2,1.1
605904,1745469202869,0.0,64,,-0.05,0.01,1.0,-0,-0,0,1.0,1.16,86,2143,0.0,3.33,,13.61,1.145,97.0,,23.7,5,,,,,,,,,,,,0,0,0,0,0,0,0,0,0,0,0,0,0,0,0,0,,,,,,0.0,,,,,,,
605924,1745469202889,,,,,,,,,,,,,,,,,,,,,,,,,,,,,,,,,,0,0,0,0,0,0,0,0,0,0,0,0,0,0,0,0,,,,,,,,,,,,,
605944,1745469202909,0.0,44,,-0.06,0.03,1.0,0,-0,0,1.0,1.16,86,2101,0.0,3.36,,13.6,1.169,97.0,,23.7,5,,,,,,,,,,,,0,0,0,0,0,0,0,0,0,0,0,0,0,0,0,0,,,,,,0.0,,,,,,,
605964,1745469202929,,,,,,,,,,,,,,,,,,,,,,,,,,,,,,,,,,0,0,0,0,0,0,0,0,0,0,0,0,0,0,0,0,,,,,,,,,,,,,
605984,1745469202949,0.0,47,,-0.06,0.03,0.99,0,-0,0,0.99,1.16,86,2390,0.0,3.4,,13.53,1.185,97.0,,23.7,5,0,0,0,0,0.0,0.0,0.0,0.0,2.27,,,0,0,0,0,0,0,0,0,0,0,0,0,0,0,0,0,,0,,,,0.0,38.9907,-76.939865,0.04,32.4,22,2,1.1
606004,1745469202969,,,,,,,,,,,,,,,,,,,,,,,,,,,,,,,,,,0,0,0,0,0,0,0,0,0,0,0,0,0,0,0,0,,,,,,,,,,,,,
606024,1745469202989,0.0,41,,-0.06,0.05,1.0,0,-0,0,1.0,1.16,87,2432,0.0,3.28,,13.48,1.247,97.0,,26.0,5,,,,,,,,,,,,0,0,0,0,0,0,0,0,0,0,0,0,0,0,0,0,,,,,,0.0,,,,,,,
606044,1745469202999,,,,,,,,,,,,,,,,,,,,,,,,,,,,,,,,,,0,0,0,0,0,0,0,0,0,0,0,0,0,0,0,0,,,,,,,,,,,,,
606064,1745469203019,0.0,41,,-0.06,0.02,1.01,0,-0,0,1.02,1.16,88,2409,0.0,3.21,,13.48,1.247,97.0,,26.0,5,,,,,,,,,,,,0,0,0,0,0,0,0,0,0,0,0,0,0,0,0,0,,,,,,0.0,,,,,,,
606084,1745469203039,,,,,,,,,,,,,,,,,,,,,,,0,0,0,0,0.0,0.0,0.0,0.0,2.28,,,0,0,0,0,0,0,0,0,0,0,0,0,0,0,0,0,,0,,,,,38.9907,-76.939865,0.07,32.4,23,2,1.1
606104,1745469203059,0.0,44,,-0.06,0.02,1.01,0,-0,0,1.01,1.16,87,2409,0.0,3.21,,13.41,1.248,97.0,,26.7,5,,,,,,,,,,,,0,0,0,0,0,0,0,0,0,0,0,0,0,0,0,0,,,,,,0.0,,,,,,,
606124,1745469203079,,,,,,,,,,,,,,,,,,,,,,,,,,,,,,,,,,0,0,0,0,0,0,0,0,0,0,0,0,0,0,0,0,,,,,,,,,,,,,
606144,1745469203101,0.0,41,,-0.06,0.03,1.01,0,-0,0,1.01,1.16,87,2388,0.0,3.23,,13.41,1.217,97.0,,26.7,5,,,,,,,,,,,,0,0,0,0,0,0,0,0,0,0,0,0,0,0,0,0,,,,,,0.0,,,,,,,
606164,1745469203121,,,,,,,,,,,,,,,,,,,,,,,,,,,,,,,,,,0,0,0,0,0,0,0,0,0,0,0,0,0,0,0,0,,,,,,,,,,,,,
606184,1745469203141,0.0,54,,-0.07,0.01,1.01,0,-0,0,1.01,1.16,88,2295,0.0,3.25,,13.43,1.147,97.0,,26.7,5,0,0,0,0,0.0,0.0,0.0,0.0,2.28,,,0,0,0,0,0,0,0,0,0,0,0,0,0,0,0,0,,0,,,,0.0,38.9907,-76.939865,0.05,32.4,23,2,1.1
606204,1745469203161,,,,,,,,,,,,,,,,,,,,,,,,,,,,,,,,,,0,0,0,0,0,0,0,0,0,0,0,0,0,0,0,0,,,,,,,,,,,,,
606224,1745469203181,0.0,44,,-0.07,0.01,1.0,0,-0,0,1.0,1.16,87,2239,0.0,3.29,,13.47,1.112,97.0,,25.5,5,,,,,,,,,,,,0,0,0,0,0,0,0,0,0,0,0,0,0,0,0,0,,,,,,0.0,,,,,,,
606244,1745469203209,,,,,,,,,,,,,,,,,,,,,,,,,,,,,,,,,,0,0,0,0,0,0,0,0,0,0,0,0,0,0,0,0,,,,,,,,,,,,,
606264,1745469203229,0.0,41,,-0.06,0.01,0.99,0,-0,0,0.99,1.16,86,2184,0.0,3.31,,13.47,1.112,97.0,,25.5,5,,,,,,,,,,,,0,0,0,0,0,0,0,0,0,0,0,0,0,0,0,0,,,,,,0.0,,,,,,,
606284,1745469203249,,,,,,,,,,,,,,,,,,,,,,,0,0,0,0,0.0,0.0,0.0,0.0,2.27,,,0,0,0,0,0,0,0,0,0,0,0,0,0,0,0,0,,0,,,,,38.9907,-76.939865,0.04,32.4,23,2,1.1
606304,1745469203269,0.0,44,,-0.05,-0.0,1.0,-0,-0,0,1.0,1.16,87,2184,0.0,3.31,,13.56,1.111,97.0,,24.0,5,,,,,,,,,,,,0,0,0,0,0,0,0,0,0,0,0,0,0,0,0,0,,,,,,0.0,,,,,,,
606324,1745469203289,,,,,,,,,,,,,,,,,,,,,,,,,,,,,,,,,,0,0,0,0,0,0,0,0,0,0,0,0,0,0,0,0,,,,,,,,,,,,,
606344,1745469203309,0.0,30,,-0.06,0.01,1.01,-0,-0,0,1.01,1.16,87,2114,0.0,3.35,,13.56,1.139,97.0,,24.0,5,,,,,,,,,,,,0,0,0,0,0,0,0,0,0,0,0,0,0,0,0,0,,,,,,0.0,,,,,,,
606364,1745469203329,,,,,,,,,,,,,,,,,,,,,,,,,,,,,,,,,,0,0,0,0,0,0,0,0,0,0,0,0,0,0,0,0,,,,,,,,,,,,,
606384,1745469203349,0.0,41,13.77,-0.06,0.02,1.0,0,-0,0,1.0,1.16,86,2482,0.0,3.36,15,13.49,1.17,97.0,165,24.0,5,0,0,0,0,0.0,0.0,0.0,0.0,2.26,0,1.0,0,0,0,0,0,0,0,0,0,0,0,0,0,0,0,0,0,0,1.0,0,-0,0.0,38.9907,-76.939865,0.05,32.4,23,2,1.1
606404,1745469203369,,,,,,,,,,,,,,,,,,,,,,,,,,,,,,,,,,0,0,0,0,0,0,0,0,0,0,0,0,0,0,0,0,,,,,,,,,,,,,
606424,1745469203389,0.0,41,,-0.06,0.01,0.98,-0,-0,0,0.98,1.16,85,2429,0.0,3.23,,13.47,1.235,97.0,,26.1,5,,,,,,,,,,,,0,0,0,0,0,0,0,0,0,0,0,0,0,0,0,0,,,,,,0.0,,,,,,,
606444,1745469203408,,,,,,,,,,,,,,,,,,,,,,,,,,,,,,,,,,0,0,0,0,0,0,0,0,0,0,0,0,0,0,0,0,,,,,,,,,,,,,
606464,1745469203428,0.0,44,,-0.07,0.02,0.99,0,-0,0,0.99,1.16,86,2660,0.0,3.23,,13.47,1.235,97.0,,26.1,5,,,,,,,,,,,,0,0,0,0,0,0,0,0,0,0,0,0,0,0,0,0,,,,,,0.0,,,,,,,
606484,1745469203448,,,,,,,,,,,,,,,,,,,,,,,0,0,0,0,0.0,0.0,0.0,0.0,2.26,,,0,0,0,0,0,0,0,0,0,0,0,0,0,0,0,0,,0,,,,,38.9907,-76.939865,0.05,32.4,23,2,1.1
606504,1745469203468,0.0,57,,-0.07,0.03,0.99,0,-0,0,0.99,1.16,85,2660,0.0,3.23,,13.35,1.25,97.0,,28.1,5,,,,,,,,,,,,0,0,0,0,0,0,0,0,0,0,0,0,0,0,0,0,,,,,,0.0,,,,,,,
606524,1745469203488,,,,,,,,,,,,,,,,,,,,,,,,,,,,,,,,,,0,0,0,0,0,0,0,0,0,0,0,0,0,0,0,0,,,,,,,,,,,,,
606544,1745469203509,0.0,51,,-0.07,0.04,1.0,-0,-0,0,1.01,1.16,87,2450,0.0,3.17,,13.36,1.248,97.0,,28.1,5,,,,,,,,,,,,0,0,0,0,0,0,0,0,0,0,0,0,0,0,0,0,,,,,,0.0,,,,,,,
606564,1745469203529,,,,,,,,,,,,,,,,,,,,,,,,,,,,,,,,,,0,0,0,0,0,0,0,0,0,0,0,0,0,0,0,0,,,,,,,,,,,,,
606584,1745469203549,0.0,61,,-0.07,0.04,1.0,-0,-0,0,1.01,1.16,87,2490,0.0,3.18,,13.32,1.213,97.0,,28.1,5,0,0,0,0,0.0,0.0,0.0,0.0,2.27,,,0,0,0,0,0,0,0,0,0,0,0,0,0,0,0,0,,0,,,,0.0,38.9907,-76.939865,0.09,32.4,23,2,1.1
606604,1745469203569,,,,,,,,,,,,,,,,,,,,,,,,,,,,,,,,,,0,0,0,0,0,0,0,0,0,0,0,0,0,0,0,0,,,,,,,,,,,,,
606624,1745469203589,0.0,41,,-0.08,0.03,0.99,-0,-0,0,1.0,1.16,86,2375,0.0,3.21,,13.33,1.165,97.0,,27.3,5,,,,,,,,,,,,0,0,0,0,0,0,0,0,0,0,0,0,0,0,0,0,,,,,,0.0,,,,,,,
606644,1745469203608,,,,,,,,,,,,,,,,,,,,,,,,,,,,,,,,,,0,0,0,0,0,0,0,0,0,0,0,0,0,0,0,0,,,,,,,,,,,,,
606664,1745469203628,0.0,41,,-0.06,0.01,0.98,0,-0,0,0.98,1.16,85,2395,0.0,3.23,,13.33,1.165,97.0,,27.3,5,,,,,,,,,,,,0,0,0,0,0,0,0,0,0,0,0,0,0,0,0,0,,,,,,0.0,,,,,,,
606684,1745469203648,,,,,,,,,,,,,,,,,,,,,,,0,0,0,0,0.0,0.0,0.0,0.0,2.27,,,0,0,0,0,0,0,0,0,0,0,0,0,0,0,0,0,,0,,,,,38.9907,-76.939865,0.0,32.4,23,2,1.1
606704,1745469203668,0.0,51,,-0.07,0.02,0.98,0,-0,0,0.99,1.16,85,2395,0.0,3.23,,13.35,1.142,97.0,,26.4,5,,,,,,,,,,,,0,0,0,0,0,0,0,0,0,0,0,0,0,0,0,0,,,,,,0.0,,,,,,,
606724,1745469203688,,,,,,,,,,,,,,,,,,,,,,,,,,,,,,,,,,0,0,0,0,0,0,0,0,0,0,0,0,0,0,0,0,,,,,,,,,,,,,
606744,1745469203708,0.0,37,,-0.07,0.03,1.0,0,-0,0,1.0,1.16,87,2305,0.0,3.25,,13.43,1.128,97.0,,26.4,5,,,,,,,,,,,,0,0,0,0,0,0,0,0,0,0,0,0,0,0,0,0,,,,,,0.0,,,,,,,
606764,1745469203728,,,,,,,,,,,,,,,,,,,,,,,,,,,,,,,,,,0,0,0,0,0,0,0,0,0,0,0,0,0,0,0,0,,,,,,,,,,,,,
606784,1745469203748,0.0,57,,-0.06,0.02,1.01,0,-0,0,1.01,1.16,87,2283,0.0,3.28,,13.48,1.154,97.0,,26.4,5,0,0,0,0,0.0,0.0,0.0,0.0,2.27,,,0,0,0,0,0,0,0,0,0,0,0,0,0,0,0,0,,0,,,,0.0,38.9907,-76.939865,0.04,32.4,23,2,1.1
606804,1745469203768,,,,,,,,,,,,,,,,,,,,,,,,,,,,,,,,,,0,0,0,0,0,0,0,0,0,0,0,0,0,0,0,0,,,,,,,,,,,,,
606824,1745469203788,0.0,54,,-0.07,0.03,1.02,0,-0,0,1.02,1.16,88,2235,0.0,3.29,,13.47,1.177,97.0,,25.2,5,,,,,,,,,,,,0,0,0,0,0,0,0,0,0,0,0,0,0,0,0,0,,,,,,0.0,,,,,,,
606844,1745469203808,,,,,,,,,,,,,,,,,,,,,,,,,,,,,,,,,,0,0,0,0,0,0,0,0,0,0,0,0,0,0,0,0,,,,,,,,,,,,,
606864,1745469203828,0.0,61,,-0.07,0.02,1.01,0,-0,0,1.02,1.16,88,2284,0.0,3.34,,13.47,1.177,97.0,,25.2,5,,,,,,,,,,,,0,0,0,0,0,0,0,0,0,0,0,0,0,0,0,0,,,,,,0.0,,,,,,,
606884,1745469203848,,,,,,,,,,,,,,,,,,,,,,,0,0,0,0,0.0,0.0,0.0,0.0,2.26,,,0,0,0,0,0,0,0,0,0,0,0,0,0,0,0,0,,0,,,,,38.9907,-76.939865,0.05,32.4,23,2,1.1
606904,1745469203868,0.0,64,,-0.07,0.02,1.0,0,-0,0,1.0,1.16,87,2284,0.0,3.34,,13.48,1.199,97.0,,24.3,5,,,,,,,,,,,,0,0,0,0,0,0,0,0,0,0,0,0,0,0,0,0,,,,,,0.0,,,,,,,
606924,1745469203888,,,,,,,,,,,,,,,,,,,,,,,,,,,,,,,,,,0,0,0,0,0,0,0,0,0,0,0,0,0,0,0,0,,,,,,,,,,,,,
606944,1745469203908,0.0,41,,-0.06,0.01,1.0,0,-0,0,1.0,1.16,86,2211,0.0,3.37,,13.59,1.216,97.0,,24.3,5,,,,,,,,,,,,0,0,0,0,0,0,0,0,0,0,0,0,0,0,0,0,,,,,,0.0,,,,,,,
606964,1745469203928,,,,,,,,,,,,,,,,,,,,,,,,,,,,,,,,,,0,0,0,0,0,0,0,0,0,0,0,0,0,0,0,0,,,,,,,,,,,,,
606984,1745469203948,0.0,51,,-0.05,0.01,0.99,0,-0,0,0.99,1.16,86,2143,0.0,3.39,,13.6,1.225,97.0,,24.3,5,0,0,0,0,0.0,0.0,0.0,0.0,2.26,,,0,0,0,0,0,0,0,0,0,0,0,0,0,0,0,0,,0,,,,0.0,38.9907,-76.939865,0.1,32.4,23,2,1.1
607004,1745469203968,,,,,,,,,,,,,,,,,,,,,,,,,,,,,,,,,,0,0,0,0,0,0,0,0,0,0,0,0,0,0,0,0,,,,,,,,,,,,,
607024,1745469203988,0.0,47,,-0.05,0.01,0.98,0,-0,0,0.98,1.16,85,2078,0.0,3.43,,13.73,1.234,97.0,,22.6,5,,,,,,,,,,,,0,0,0,0,0,0,0,0,0,0,0,0,0,0,0,0,,,,,,0.0,,,,,,,
607044,1745469203996,,,,,,,,,,,,,,,,,,,,,,,,,,,,,,,,,,0,0,0,0,0,0,0,0,0,0,0,0,0,0,0,0,,,,,,,,,,,,,
607064,1745469204016,0.0,47,,-0.06,0.0,0.98,0,-0,0,0.99,1.16,85,1974,0.0,3.41,,13.73,1.234,97.0,,22.6,5,,,,,,,,,,,,0,0,0,0,0,0,0,0,0,0,0,0,0,0,0,0,,,,,,0.0,,,,,,,
607084,1745469204036,,,,,,,,,,,,,,,,,,,,,,,0,0,0,0,0.0,0.0,0.0,0.0,2.27,,,0,0,0,0,0,0,0,0,0,0,0,0,0,0,0,0,,0,,,,,38.9907,-76.939865,0.07,32.4,23,2,1.1
607104,1745469204056,0.0,61,,-0.04,0.0,0.99,0,-0,0,0.99,1.16,85,1974,0.0,3.41,,13.75,1.235,97.0,,21.6,5,,,,,,,,,,,,0,0,0,0,0,0,0,0,0,0,0,0,0,0,0,0,,,,,,0.0,,,,,,,
607124,1745469204076,,,,,,,,,,,,,,,,,,,,,,,,,,,,,,,,,,0,0,0,0,0,0,0,0,0,0,0,0,0,0,0,0,,,,,,,,,,,,,
607144,1745469204106,0.0,51,,-0.05,0.01,0.98,0,-0,0,0.98,1.16,85,1916,0.0,3.45,,13.77,1.241,97.0,,21.6,5,,,,,,,,,,,,0,0,0,0,0,0,0,0,0,0,0,0,0,0,0,0,,,,,,0.0,,,,,,,
607164,1745469204126,,,,,,,,,,,,,,,,,,,,,,,,,,,,,,,,,,0,0,0,0,0,0,0,0,0,0,0,0,0,0,0,0,,,,,,,,,,,,,
607184,1745469204146,0.0,61,,-0.04,0.0,0.99,0,-0,0,0.99,1.16,85,1844,0.0,3.46,,13.83,1.247,97.0,,21.6,5,0,0,0,0,0.0,0.0,0.0,0.0,2.27,,,0,0,0,0,0,0,0,0,0,0,0,0,0,0,0,0,,0,,,,0.0,38.9907,-76.939865,0.0,32.4,23,2,1.1
607204,1745469204166,,,,,,,,,,,,,,,,,,,,,,,,,,,,,,,,,,0,0,0,0,0,0,0,0,0,0,0,0,0,0,0,0,,,,,,,,,,,,,
607224,1745469204186,0.0,54,,-0.06,0.0,0.99,0,-0,0,0.99,1.16,86,1877,0.0,3.48,,13.88,1.249,97.0,,20.4,5,,,,,,,,,,,,0,0,0,0,0,0,0,0,0,0,0,0,0,0,0,0,,,,,,0.0,,,,,,,
607244,1745469204208,,,,,,,,,,,,,,,,,,,,,,,,,,,,,,,,,,0,0,0,0,0,0,0,0,0,0,0,0,0,0,0,0,,,,,,,,,,,,,
607264,1745469204228,0.0,47,,-0.06,0.0,0.98,0,-0,0,0.98,1.16,85,1795,0.0,3.49,,13.88,1.249,97.0,,20.4,5,,,,,,,,,,,,0,0,0,0,0,0,0,0,0,0,0,0,0,0,0,0,,,,,,0.0,,,,,,,
607284,1745469204248,,,,,,,,,,,,,,,,,,,,,,,0,0,0,0,0.0,0.0,0.0,0.0,2.27,,,0,0,0,0,0,0,0,0,0,0,0,0,0,0,0,0,,0,,,,,38.9907,-76.939865,0.23,32.4,23,2,1.1
607304,1745469204268,0.0,51,,-0.04,0.0,0.99,0,-0,0,0.99,1.16,85,1795,0.0,3.49,,13.95,1.251,97.0,,19.1,5,,,,,,,,,,,,0,0,0,0,0,0,0,0,0,0,0,0,0,0,0,0,,,,,,0.0,,,,,,,
607324,1745469204288,,,,,,,,,,,,,,,,,,,,,,,,,,,,,,,,,,0,0,0,0,0,0,0,0,0,0,0,0,0,0,0,0,,,,,,,,,,,,,
607344,1745469204309,0.0,47,,-0.03,0.01,1.0,-0,-0,0,1.0,1.16,86,1675,0.0,3.49,,13.96,1.251,97.0,,19.1,5,,,,,,,,,,,,0,0,0,0,0,0,0,0,0,0,0,0,0,0,0,0,,,,,,0.0,,,,,,,
607364,1745469204329,,,,,,,,,,,,,,,,,,,,,,,,,,,,,,,,,,0,0,0,0,0,0,0,0,0,0,0,0,0,0,0,0,,,,,,,,,,,,,
607384,1745469204349,0.0,47,13.74,-0.02,0.0,1.0,-0,-0,0,1.0,1.16,87,2086,0.0,3.5,15,13.95,1.249,97.0,165,19.1,5,0,0,0,0,0.0,0.0,0.0,0.0,2.27,0,1.0,0,0,0,0,0,0,0,0,0,0,0,0,0,0,0,0,0,0,1.0,0,-0,0.0,38.9907,-76.939865,0.11,32.4,23,2,1.1
607404,1745469204369,,,,,,,,,,,,,,,,,,,,,,,,,,,,,,,,,,0,0,0,0,0,0,0,0,0,0,0,0,0,0,0,0,,,,,,,,,,,,,
607424,1745469204389,0.0,57,,-0.02,-0.01,1.0,-0,-0,0,1.0,1.16,86,2046,0.0,3.42,,13.82,1.251,97.0,,21.6,5,,,,,,,,,,,,0,0,0,0,0,0,0,0,0,0,0,0,0,0,0,0,,,,,,0.0,,,,,,,
607444,1745469204408,,,,,,,,,,,,,,,,,,,,,,,,,,,,,,,,,,0,0,0,0,0,0,0,0,0,0,0,0,0,0,0,0,,,,,,,,,,,,,
607464,1745469204428,0.0,54,,-0.02,-0.02,1.0,-0,-0,0,1.0,1.16,87,2286,0.0,3.39,,13.82,1.251,97.0,,21.6,5,,,,,,,,,,,,0,0,0,0,0,0,0,0,0,0,0,0,0,0,0,0,,,,,,0.0,,,,,,,
607484,1745469204448,,,,,,,,,,,,,,,,,,,,,,,0,0,0,0,0.0,0.0,0.0,0.0,2.26,,,0,0,0,0,0,0,0,0,0,0,0,0,0,0,0,0,,0,,,,,38.9907,-76.939865,0.21,32.4,23,2,1.1
607504,1745469204468,0.0,68,,-0.03,-0.01,0.99,-0,-0,-0,0.99,1.16,86,2286,0.0,3.39,,13.71,1.251,97.0,,25.2,5,,,,,,,,,,,,0,0,0,0,0,0,0,0,0,0,0,0,0,0,0,0,,,,,,0.0,,,,,,,
607524,1745469204488,,,,,,,,,,,,,,,,,,,,,,,,,,,,,,,,,,0,0,0,0,0,0,0,0,0,0,0,0,0,0,0,0,,,,,,,,,,,,,
607544,1745469204507,0.0,57,,-0.03,-0.01,0.98,-0,-0,0,0.99,1.16,85,2380,0.0,3.29,,13.63,1.22,97.0,,25.2,5,,,,,,,,,,,,0,0,0,0,0,0,0,0,0,0,0,0,0,0,0,0,,,,,,0.0,,,,,,,
607564,1745469204527,,,,,,,,,,,,,,,,,,,,,,,,,,,,,,,,,,0,0,0,0,0,0,0,0,0,0,0,0,0,0,0,0,,,,,,,,,,,,,
607584,1745469204547,0.0,51,,-0.03,-0.01,1.0,-0,-0,0,1.0,1.16,86,2359,0.0,3.34,,13.57,1.133,97.0,,25.2,5,0,0,0,0,0.0,0.0,0.0,0.0,2.27,,,0,0,0,0,0,0,0,0,0,0,0,0,0,0,0,0,,0,,,,0.0,38.9907,-76.939865,0.16,32.4,23,2,1.1
607604,1745469204567,,,,,,,,,,,,,,,,,,,,,,,,,,,,,,,,,,0,0,0,0,0,0,0,0,0,0,0,0,0,0,0,0,,,,,,,,,,,,,
607624,1745469204587,0.0,54,,-0.04,-0.02,1.01,-0,-0,0,1.01,1.16,87,2397,0.0,3.31,,13.53,1.081,97.0,,25.4,5,,,,,,,,,,,,0,0,0,0,0,0,0,0,0,0,0,0,0,0,0,0,,,,,,0.0,,,,,,,
607644,1745469204607,,,,,,,,,,,,,,,,,,,,,,,,,,,,,,,,,,0,0,0,0,0,0,0,0,0,0,0,0,0,0,0,0,,,,,,,,,,,,,
607664,1745469204627,0.0,44,,-0.04,-0.02,0.99,0,-0,0,1.0,1.16,86,2351,0.0,3.3,,13.53,1.081,97.0,,25.4,5,,,,,,,,,,,,0,0,0,0,0,0,0,0,0,0,0,0,0,0,0,0,,,,,,0.0,,,,,,,
607684,1745469204647,,,,,,,,,,,,,,,,,,,,,,,0,0,0,0,0.0,0.0,0.0,0.0,2.28,,,0,0,0,0,0,0,0,0,0,0,0,0,0,0,0,0,,0,,,,,38.9907,-76.939865,0.04,32.3,23,2,1.1
607704,1745469204667,0.0,47,,-0.03,-0.01,0.99,-0,-0,0,0.99,1.16,86,2351,0.0,3.3,,13.49,1.057,97.0,,25.1,5,,,,,,,,,,,,0,0,0,0,0,0,0,0,0,0,0,0,0,0,0,0,,,,,,0.0,,,,,,,
607724,1745469204687,,,,,,,,,,,,,,,,,,,,,,,,,,,,,,,,,,0,0,0,0,0,0,0,0,0,0,0,0,0,0,0,0,,,,,,,,,,,,,
607744,1745469204707,0.0,57,,-0.05,-0.02,1.0,0,-0,0,1.0,1.16,87,2339,0.0,3.32,,13.49,1.072,97.0,,25.1,5,,,,,,,,,,,,0,0,0,0,0,0,0,0,0,0,0,0,0,0,0,0,,,,,,0.0,,,,,,,
607764,1745469204727,,,,,,,,,,,,,,,,,,,,,,,,,,,,,,,,,,0,0,0,0,0,0,0,0,0,0,0,0,0,0,0,0,,,,,,,,,,,,,
607784,1745469204747,0.0,54,,-0.05,-0.01,1.0,0,-0,0,1.0,1.16,86,2253,0.0,3.34,,13.53,1.107,97.0,,25.1,5,0,0,0,0,0.0,0.0,0.0,0.0,2.28,,,0,0,0,0,0,0,0,0,0,0,0,0,0,0,0,0,,0,,,,0.0,38.9907,-76.939865,0.0,32.3,23,2,1.1
607804,1745469204767,,,,,,,,,,,,,,,,,,,,,,,,,,,,,,,,,,0,0,0,0,0,0,0,0,0,0,0,0,0,0,0,0,,,,,,,,,,,,,
607824,1745469204787,0.0,64,,-0.04,-0.01,0.98,0,-0,0,0.99,1.16,85,2247,0.0,3.36,,13.61,1.142,97.0,,23.9,5,,,,,,,,,,,,0,0,0,0,0,0,0,0,0,0,0,0,0,0,0,0,,,,,,0.0,,,,,,,
607844,1745469204809,,,,,,,,,,,,,,,,,,,,,,,,,,,,,,,,,,0,0,0,0,0,0,0,0,0,0,0,0,0,0,0,0,,,,,,,,,,,,,
607864,1745469204829,0.0,54,,-0.04,-0.01,0.99,0,-0,0,0.99,1.16,85,2206,0.0,3.38,,13.61,1.142,97.0,,23.9,5,,,,,,,,,,,,0,0,0,0,0,0,0,0,0,0,0,0,0,0,0,0,,,,,,0.0,,,,,,,
607884,1745469204849,,,,,,,,,,,,,,,,,,,,,,,0,0,0,0,0.0,0.0,0.0,0.0,2.27,,,0,0,0,0,0,0,0,0,0,0,0,0,0,0,0,0,,0,,,,,38.9907,-76.939865,0.1,32.3,23,2,1.1
607904,1745469204869,0.0,57,,-0.06,-0.0,0.99,0,-0,0,0.99,1.16,85,2206,0.0,3.38,,13.63,1.185,97.0,,23.3,5,,,,,,,,,,,,0,0,0,0,0,0,0,0,0,0,0,0,0,0,0,0,,,,,,0.0,,,,,,,
607924,1745469204889,,,,,,,,,,,,,,,,,,,,,,,,,,,,,,,,,,0,0,0,0,0,0,0,0,0,0,0,0,0,0,0,0,,,,,,,,,,,,,
607944,1745469204909,0.0,41,,-0.06,-0.0,1.0,-0,-0,0,1.01,1.16,87,2114,0.0,3.35,,13.72,1.209,97.0,,23.3,5,,,,,,,,,,,,0,0,0,0,0,0,0,0,0,0,0,0,0,0,0,0,,,,,,0.0,,,,,,,
607964,1745469204929,,,,,,,,,,,,,,,,,,,,,,,,,,,,,,,,,,0,0,0,0,0,0,0,0,0,0,0,0,0,0,0,0,,,,,,,,,,,,,
607984,1745469204949,0.0,54,,-0.06,0.01,1.01,-0,-0,0,1.02,1.16,88,2035,0.0,3.4,,13.71,1.226,97.0,,23.3,5,0,0,0,0,0.0,0.0,0.0,0.0,2.26,,,0,0,0,0,0,0,0,0,0,0,0,0,0,0,0,0,,0,,,,0.0,38.9907,-76.939865,0.05,32.3,23,2,1.1
608004,1745469204969,,,,,,,,,,,,,,,,,,,,,,,,,,,,,,,,,,0,0,0,0,0,0,0,0,0,0,0,0,0,0,0,0,,,,,,,,,,,,,
608024,1745469204989,0.0,51,,-0.07,-0.0,1.0,-0,-0,0,1.01,1.16,87,2024,0.0,3.4,,13.77,1.218,97.0,,22.9,5,,,,,,,,,,,,0,0,0,0,0,0,0,0,0,0,0,0,0,0,0,0,,,,,,0.0,,,,,,,
608044,1745469205001,,,,,,,,,,,,,,,,,,,,,,,,,,,,,,,,,,0,0,0,0,0,0,0,0,0,0,0,0,0,0,0,0,,,,,,,,,,,,,
608064,1745469205021,0.0,64,,-0.06,-0.01,1.01,-0,-0,0,1.01,1.16,88,2017,0.0,3.44,,13.77,1.218,97.0,,22.9,5,,,,,,,,,,,,0,0,0,0,0,0,0,0,0,0,0,0,0,0,0,0,,,,,,0.0,,,,,,,
608084,1745469205041,,,,,,,,,,,,,,,,,,,,,,,0,0,0,0,0.0,0.0,0.0,0.0,2.27,,,0,0,0,0,0,0,0,0,0,0,0,0,0,0,0,0,,0,,,,,38.9907,-76.939865,0.04,32.3,23,2,1.1
608104,1745469205061,0.0,68,,-0.06,-0.03,1.01,-1,-0,0,1.02,1.16,88,2017,0.0,3.44,,13.69,1.24,97.0,,24.3,5,,,,,,,,,,,,0,0,0,0,0,0,0,0,0,0,0,0,0,0,0,0,,,,,,0.0,,,,,,,
608124,1745469205081,,,,,,,,,,,,,,,,,,,,,,,,,,,,,,,,,,0,0,0,0,0,0,0,0,0,0,0,0,0,0,0,0,,,,,,,,,,,,,
608144,1745469205109,0.0,47,,-0.06,-0.02,1.0,-0,-0,0,1.0,1.16,86,2348,0.0,3.37,,13.6,1.248,97.0,,24.3,5,,,,,,,,,,,,0,0,0,0,0,0,0,0,0,0,0,0,0,0,0,0,,,,,,0.0,,,,,,,
608164,1745469205129,,,,,,,,,,,,,,,,,,,,,,,,,,,,,,,,,,0,0,0,0,0,0,0,0,0,0,0,0,0,0,0,0,,,,,,,,,,,,,
608184,1745469205149,0.0,57,,-0.06,-0.02,1.01,-1,-0,0,1.01,1.16,88,2535,0.0,3.21,,13.49,1.248,97.0,,24.3,5,0,0,0,0,0.0,0.0,0.0,0.0,2.27,,,0,0,0,0,0,0,0,0,0,0,0,0,0,0,0,0,,0,,,,0.0,38.9907,-76.939865,0.0,32.3,23,2,1.1
608204,1745469205169,,,,,,,,,,,,,,,,,,,,,,,,,,,,,,,,,,0,0,0,0,0,0,0,0,0,0,0,0,0,0,0,0,,,,,,,,,,,,,
608224,1745469205191,0.0,47,,-0.07,-0.01,1.01,-0,-0,0,1.01,1.16,87,2599,0.0,3.15,,13.33,1.178,97.0,,28.2,5,,,,,,,,,,,,0,0,0,0,0,0,0,0,0,0,0,0,0,0,0,0,,,,,,0.0,,,,,,,
608244,1745469205211,,,,,,,,,,,,,,,,,,,,,,,,,,,,,,,,,,0,0,0,0,0,0,0,0,0,0,0,0,0,0,0,0,,,,,,,,,,,,,
608264,1745469205231,0.0,51,,-0.06,-0.0,0.99,-0,-0,0,0.99,1.16,85,2548,0.0,3.15,,13.33,1.178,97.0,,28.2,5,,,,,,,,,,,,0,0,0,0,0,0,0,0,0,0,0,0,0,0,0,0,,,,,,0.0,,,,,,,
608284,1745469205251,,,,,,,,,,,,,,,,,,,,,,,0,0,0,0,0.0,0.0,0.0,0.0,2.26,,,0,0,0,0,0,0,0,0,0,0,0,0,0,0,0,0,,0,,,,,38.9907,-76.939865,0.05,32.3,23,2,1.1
608304,1745469205271,0.0,61,,-0.07,-0.01,1.0,-0,-0,0,1.01,1.16,87,2548,0.0,3.15,,13.25,1.125,97.0,,28.0,5,,,,,,,,,,,,0,0,0,0,0,0,0,0,0,0,0,0,0,0,0,0,,,,,,0.0,,,,,,,
608324,1745469205291,,,,,,,,,,,,,,,,,,,,,,,,,,,,,,,,,,0,0,0,0,0,0,0,0,0,0,0,0,0,0,0,0,,,,,,,,,,,,,
608344,1745469205311,0.0,27,,-0.07,-0.01,1.0,-0,-0,0,1.0,1.16,86,2508,0.0,3.18,,13.28,1.113,97.0,,28.0,5,,,,,,,,,,,,0,0,0,0,0,0,0,0,0,0,0,0,0,0,0,0,,,,,,0.0,,,,,,,
608364,1745469205331,,,,,,,,,,,,,,,,,,,,,,,,,,,,,,,,,,0,0,0,0,0,0,0,0,0,0,0,0,0,0,0,0,,,,,,,,,,,,,
608384,1745469205351,0.0,71,13.83,-0.07,-0.02,0.99,-0,-0,0,1.0,1.16,86,2389,0.0,3.21,15,13.33,1.122,97.0,167,28.0,5,0,0,0,0,0.0,0.0,0.0,0.0,2.27,0,1.0,0,0,0,0,0,0,0,0,0,0,0,0,0,0,0,0,0,0,1.0,0,-0,0.0,38.9907,-76.939865,0.18,32.3,23,2,1.1
608404,1745469205371,,,,,,,,,,,,,,,,,,,,,,,,,,,,,,,,,,0,0,0,0,0,0,0,0,0,0,0,0,0,0,0,0,,,,,,,,,,,,,
608424,1745469205391,0.0,74,,-0.07,-0.01,0.98,0,-0,0,0.98,1.16,85,2366,0.0,3.24,,13.35,1.13,97.0,,26.6,5,,,,,,,,,,,,0,0,0,0,0,0,0,0,0,0,0,0,0,0,0,0,,,,,,0.0,,,,,,,
608444,1745469205411,,,,,,,,,,,,,,,,,,,,,,,,,,,,,,,,,,0,0,0,0,0,0,0,0,0,0,0,0,0,0,0,0,,,,,,,,,,,,,
608464,1745469205431,0.0,61,,-0.08,-0.0,0.98,0,-0,-0,0.99,1.16,85,2635,0.0,3.26,,13.35,1.13,97.0,,26.6,5,,,,,,,,,,,,0,0,0,0,0,0,0,0,0,0,0,0,0,0,0,0,,,,,,0.0,,,,,,,
608484,1745469205451,,,,,,,,,,,,,,,,,,,,,,,0,0,0,0,0.0,0.0,0.0,0.0,2.27,,,0,0,0,0,0,0,0,0,0,0,0,0,0,0,0,0,,0,,,,,38.9907,-76.939865,0.04,32.3,23,2,1.1
608504,1745469205471,0.0,74,,-0.07,0.02,0.98,0,-0,0,0.98,1.16,85,2635,0.0,3.26,,13.29,1.141,97.0,,28.5,5,,,,,,,,,,,,0,0,0,0,0,0,0,0,0,0,0,0,0,0,0,0,,,,,,0.0,,,,,,,
608524,1745469205491,,,,,,,,,,,,,,,,,,,,,,,,,,,,,,,,,,0,0,0,0,0,0,0,0,0,0,0,0,0,0,0,0,,,,,,,,,,,,,
608544,1745469205510,0.0,47,,-0.08,0.02,0.97,1,-0,-0,0.98,1.16,84,2596,0.0,3.13,,13.21,1.238,97.0,,28.5,5,,,,,,,,,,,,0,0,0,0,0,0,0,0,0,0,0,0,0,0,0,0,,,,,,0.0,,,,,,,
608564,1745469205530,,,,,,,,,,,,,,,,,,,,,,,,,,,,,,,,,,0,0,0,0,0,0,0,0,0,0,0,0,0,0,0,0,,,,,,,,,,,,,
608584,1745469205550,0.0,54,,-0.08,0.01,0.99,0,-0,0,0.99,1.16,85,2694,0.0,3.13,,13.13,1.216,97.0,,28.5,5,0,0,0,0,0.0,0.0,0.0,0.0,2.26,,,0,0,0,0,0,0,0,0,0,0,0,0,0,0,0,0,,0,,,,0.0,38.9907,-76.939865,0.04,32.3,23,2,1.1
608604,1745469205570,,,,,,,,,,,,,,,,,,,,,,,,,,,,,,,,,,0,0,0,0,0,0,0,0,0,0,0,0,0,0,0,0,,,,,,,,,,,,,
