"Interval"|"ms"|0|0|1,"Utc"|"ms"|0|0|1,"FrontBP"|"psi"|-5.0|5.0|25,"SteerAng"|"Degrees"|-145|145|25,"Battery"|"Volts"|-5.0|20.0|1,"AccelX"|"G"|-3.0|3.0|25,"AccelY"|"G"|-3.0|3.0|25,"AccelZ"|"G"|-3.0|3.0|25,"Yaw"|"Deg/Sec"|-120|120|25,"Pitch"|"Deg/Sec"|-120|120|25,"Roll"|"Deg/Sec"|-120|120|25,"Gsum"|"G"|0.0|3.0|25,"GsumMax"|"G"|0.0|3.0|25,"GsumPct"|"%"|0|100|25,"RPM"|""|0|10000|25,"TPS"|"%"|0.0|100.0|25,"InjectorPW"|"ms"|0.0|100.0|25,"Baro"|"kPa"|0|105|1,"MAP"|"Psi"|0.0|255.0|25,"Lambda"|""|-2.0|2.0|25,"IAT"|"C"|0.0|200.0|25,"EngineTemp"|"C"|0|200|1,"EOP"|"PSI"|0.0|152.0|25,"EOT"|"F"|0|250|25,"WSFR"|"MPH"|0|150|10,"WSFL"|"MPH"|0|100|10,"WSRR"|"MPH"|0|100|10,"WSRL"|""|0|100|10,"TCSet"|"%"|0.0|100.0|10,"TCSlip"|"%"|0.0|100.0|10,"TCComp"|"deg"|0.0|50.0|10,"TCCut"|"%"|0.0|100.0|10,"Analog8"|""|0.0|5.0|10,"OilTemp"|"F"|0|300|1,"AA_On"|""|0.0|1.0|1,"ThermLF1"|"C"|0|400|50,"ThermLF2"|"C"|0|400|50,"ThermRR1"|"C"|0|400|50,"ThermRR2"|"C"|0|400|50,"ThermLF3"|"C"|0|400|50,"ThermLF4"|"C"|0|400|50,"ThermLF5"|"C"|0|400|50,"ThermLF6"|"C"|0|400|50,"ThermLF7"|"C"|0|400|50,"ThermLF8"|"C"|0|400|50,"ThermRR3"|"C"|0|400|50,"ThermRR4"|"C"|0|400|50,"ThermRR5"|"C"|0|400|50,"ThermRR6"|"C"|0|400|50,"ThermRR7"|"C"|0|400|50,"ThermRR8"|"C"|0|400|50,"AA_LowDrag"|""|0|1|1,"Gear"|""|1|6|10,"AA_On"|""|0.0|1.0|1,"AA_LowDrag"|""|0|1|1,"Fuel_Mix"|""|-10|10|1,"AA_Packages"|""|0.0|1000.0|25,"Latitude"|"Degrees"|-180.0|180.0|10,"Longitude"|"Degrees"|-180.0|180.0|10,"Speed"|"kph"|0.0|150.0|10,"Altitude"|"m"|0.0|4000.0|10,"GPSSats"|""|0|20|10,"GPSQual"|""|0|5|10,"GPSDOP"|""|0.0|20.0|10
3758004,1745472357008,,,,,,,,,,,,,,,,,,,,,,,,,,,,,,,,,,0,0,0,0,0,0,0,0,0,0,0,0,0,0,0,0,,,,,,,,,,,,,
3758024,1745472357028,0.0,134,,-0.03,-0.07,0.91,0,-0,-0,0.91,0.91,100,6093,73.4,5.72,,14.34,1.227,95.2,,46.2,5,,,,,,,,,,,,0,0,0,0,0,0,0,0,0,0,0,0,0,0,0,0,,,,,,0.0,,,,,,,
3758044,1745472357048,,,,,,,,,,,,,,,,,,,,,,,,,,,,,,,,,,0,0,0,0,0,0,0,0,0,0,0,0,0,0,0,0,,,,,,,,,,,,,
3758064,1745472357068,0.0,134,,-0.0,-0.14,0.96,0,-0,-0,0.97,0.97,100,6093,73.4,5.72,,14.28,1.205,95.2,,46.2,5,,,,,,,,,,,,0,0,0,0,0,0,0,0,0,0,0,0,0,0,0,0,,,,,,0.0,,,,,,,
3758084,1745472357088,,,,,,,,,,,,,,,,,,,,,,,0,0,0,0,0.0,0.0,0.0,0.0,2.27,,,0,0,0,0,0,0,0,0,0,0,0,0,0,0,0,0,,0,,,,,38.994099,-76.939636,0.04,26.4,31,3,0.9
3758104,1745472357119,0.0,134,,0.01,-0.06,0.98,1,-0,-0,0.98,0.98,100,6700,9.5,5.07,,12.85,1.226,95.2,,49.9,5,,,,,,,,,,,,0,0,0,0,0,0,0,0,0,0,0,0,0,0,0,0,,,,,,0.0,,,,,,,
3758124,1745472357139,,,,,,,,,,,,,,,,,,,,,,,,,,,,,,,,,,0,0,0,0,0,0,0,0,0,0,0,0,0,0,0,0,,,,,,,,,,,,,
3758144,1745472357159,0.0,134,,0.01,-0.11,0.95,1,-0,-0,0.96,0.98,98,7366,0.0,1.4,,10.57,1.174,93.4,,49.9,5,,,,,,,,,,,,0,0,0,0,0,0,0,0,0,0,0,0,0,0,0,0,,,,,,0.0,,,,,,,
3758164,1745472357179,,,,,,,,,,,,,,,,,,,,,,,,,,,,,,,,,,0,0,0,0,0,0,0,0,0,0,0,0,0,0,0,0,,,,,,,,,,,,,
3758184,1745472357199,0.0,134,,-0.02,-0.09,0.97,1,-0,-0,0.98,0.98,99,7164,0.0,1.4,,9.07,1.018,93.4,,49.9,5,0,0,0,0,0.0,0.0,0.0,0.0,2.28,,,0,0,0,0,0,0,0,0,0,0,0,0,0,0,0,0,,0,,,,0.0,38.994099,-76.939636,0.08,26.4,31,3,0.9
3758204,1745472357218,,,,,,,,,,,,,,,,,,,,,,,,,,,,,,,,,,0,0,0,0,0,0,0,0,0,0,0,0,0,0,0,0,,,,,,,,,,,,,
3758224,1745472357238,0.0,135,,-0.01,-0.03,1.01,0,-0,-0,1.01,1.01,100,6676,0.0,1.4,,9.07,1.018,93.4,,50.1,5,,,,,,,,,,,,0,0,0,0,0,0,0,0,0,0,0,0,0,0,0,0,,,,,,0.0,,,,,,,
3758244,1745472357258,,,,,,,,,,,,,,,,,,,,,,,,,,,,,,,,,,0,0,0,0,0,0,0,0,0,0,0,0,0,0,0,0,,,,,,,,,,,,,
3758264,1745472357278,0.0,132,,-0.04,-0.12,0.95,-0,-0,-0,0.96,1.01,95,6676,0.0,1.4,,8.46,1.096,93.4,,50.1,5,,,,,,,,,,,,0,0,0,0,0,0,0,0,0,0,0,0,0,0,0,0,,,,,,0.0,,,,,,,
3758284,1745472357298,,,,,,,,,,,,,,,,,,,,,,,0,0,0,0,0.0,0.0,0.0,0.0,2.27,,,0,0,0,0,0,0,0,0,0,0,0,0,0,0,0,0,,0,,,,,38.994099,-76.939636,0.05,26.4,31,3,0.9
3758304,1745472357318,0.0,135,,-0.03,-0.26,0.87,-2,-0,-1,0.91,1.01,90,6255,0.1,1.4,,8.3,1.251,93.4,,49.2,5,,,,,,,,,,,,0,0,0,0,0,0,0,0,0,0,0,0,0,0,0,0,,,,,,0.0,,,,,,,
3758324,1745472357338,,,,,,,,,,,,,,,,,,,,,,,,,,,,,,,,,,0,0,0,0,0,0,0,0,0,0,0,0,0,0,0,0,,,,,,,,,,,,,
3758344,1745472357358,0.0,135,,-0.05,-0.33,0.82,-3,-0,-1,0.88,1.01,87,5825,2.1,1.4,,8.51,1.25,93.4,,49.2,5,,,,,,,,,,,,0,0,0,0,0,0,0,0,0,0,0,0,0,0,0,0,,,,,,0.0,,,,,,,
3758364,1745472357378,,,,,,,,,,,,,,,,,,,,,,,,,,,,,,,,,,0,0,0,0,0,0,0,0,0,0,0,0,0,0,0,0,,,,,,,,,,,,,
3758384,1745472357398,0.0,135,13.36,-0.05,-0.23,0.83,-2,-0,-0,0.86,1.01,86,5380,47.2,5.83,15,12.4,1.249,93.4,173,49.2,5,0,0,0,0,0.0,0.0,0.0,0.0,2.26,0,1.0,0,0,0,0,0,0,0,0,0,0,0,0,0,0,0,0,0,0,1.0,0,-0,0.0,38.994099,-76.939636,0.08,26.4,31,3,0.9
3758404,1745472357416,,,,,,,,,,,,,,,,,,,,,,,,,,,,,,,,,,0,0,0,0,0,0,0,0,0,0,0,0,0,0,0,0,,,,,,,,,,,,,
3758424,1745472357436,0.0,134,,-0.05,-0.2,0.87,-1,-0,-0,0.89,1.01,89,5063,78.0,6.45,,12.4,1.249,93.4,,46.5,5,,,,,,,,,,,,0,0,0,0,0,0,0,0,0,0,0,0,0,0,0,0,,,,,,0.0,,,,,,,
3758444,1745472357456,,,,,,,,,,,,,,,,,,,,,,,,,,,,,,,,,,0,0,0,0,0,0,0,0,0,0,0,0,0,0,0,0,,,,,,,,,,,,,
3758464,1745472357476,0.0,135,,-0.06,-0.17,0.86,-2,-0,-0,0.88,1.01,87,5063,78.0,6.45,,14.51,1.248,93.4,,46.5,5,,,,,,,,,,,,0,0,0,0,0,0,0,0,0,0,0,0,0,0,0,0,,,,,,0.0,,,,,,,
3758484,1745472357496,,,,,,,,,,,,,,,,,,,,,,,0,0,0,0,0.0,0.0,0.0,0.0,2.27,,,0,0,0,0,0,0,0,0,0,0,0,0,0,0,0,0,,0,,,,,38.994099,-76.939636,0.09,26.4,31,3,0.9
3758504,1745472357518,0.0,134,,-0.07,-0.1,0.92,-1,-0,-0,0.93,1.01,92,5072,78.1,6.11,,14.52,1.248,93.4,,45.8,5,,,,,,,,,,,,0,0,0,0,0,0,0,0,0,0,0,0,0,0,0,0,,,,,,0.0,,,,,,,
3758524,1745472357538,,,,,,,,,,,,,,,,,,,,,,,,,,,,,,,,,,0,0,0,0,0,0,0,0,0,0,0,0,0,0,0,0,,,,,,,,,,,,,
3758544,1745472357558,0.0,129,,-0.06,-0.08,0.88,-1,-0,-0,0.88,1.01,88,5701,7.4,3.92,,13.09,1.248,93.4,,45.8,5,,,,,,,,,,,,0,0,0,0,0,0,0,0,0,0,0,0,0,0,0,0,,,,,,0.0,,,,,,,
3758564,1745472357578,,,,,,,,,,,,,,,,,,,,,,,,,,,,,,,,,,0,0,0,0,0,0,0,0,0,0,0,0,0,0,0,0,,,,,,,,,,,,,
3758584,1745472357598,0.0,134,,-0.1,-0.14,0.83,-3,-0,-0,0.85,1.01,84,5793,0.0,1.64,,11.36,1.249,93.4,,45.8,5,0,0,0,0,0.0,0.0,0.0,0.0,2.27,,,0,0,0,0,0,0,0,0,0,0,0,0,0,0,0,0,,0,,,,0.0,38.994099,-76.939636,0.0,26.4,31,3,0.9
3758604,1745472357615,,,,,,,,,,,,,,,,,,,,,,,,,,,,,,,,,,0,0,0,0,0,0,0,0,0,0,0,0,0,0,0,0,,,,,,,,,,,,,
3758624,1745472357635,0.0,135,,-0.08,-0.18,0.87,-2,-0,-0,0.89,1.01,89,5531,0.0,1.6,,11.36,1.249,93.4,,47.8,5,,,,,,,,,,,,0,0,0,0,0,0,0,0,0,0,0,0,0,0,0,0,,,,,,0.0,,,,,,,
3758644,1745472357655,,,,,,,,,,,,,,,,,,,,,,,,,,,,,,,,,,0,0,0,0,0,0,0,0,0,0,0,0,0,0,0,0,,,,,,,,,,,,,
3758664,1745472357675,0.0,129,,-0.08,-0.06,0.86,-2,-0,-0,0.86,1.01,86,5531,0.0,1.6,,10.54,1.236,93.4,,47.8,5,,,,,,,,,,,,0,0,0,0,0,0,0,0,0,0,0,0,0,0,0,0,,,,,,0.0,,,,,,,
3758684,1745472357695,,,,,,,,,,,,,,,,,,,,,,,0,0,0,0,0.0,0.0,0.0,0.0,2.27,,,0,0,0,0,0,0,0,0,0,0,0,0,0,0,0,0,,0,,,,,38.994099,-76.939636,0.04,26.4,31,3,0.9
3758704,1745472357717,0.0,134,,-0.1,-0.02,0.91,-2,-0,-0,0.92,1.01,91,5143,0.0,1.6,,10.24,1.251,93.4,,45.3,5,,,,,,,,,,,,0,0,0,0,0,0,0,0,0,0,0,0,0,0,0,0,,,,,,0.0,,,,,,,
3758724,1745472357737,,,,,,,,,,,,,,,,,,,,,,,,,,,,,,,,,,0,0,0,0,0,0,0,0,0,0,0,0,0,0,0,0,,,,,,,,,,,,,
3758744,1745472357757,0.0,134,,-0.09,-0.08,0.87,-3,-0,-0,0.88,1.01,87,4802,22.8,4.64,,11.53,1.251,93.4,,45.3,5,,,,,,,,,,,,0,0,0,0,0,0,0,0,0,0,0,0,0,0,0,0,,,,,,0.0,,,,,,,
3758764,1745472357777,,,,,,,,,,,,,,,,,,,,,,,,,,,,,,,,,,0,0,0,0,0,0,0,0,0,0,0,0,0,0,0,0,,,,,,,,,,,,,
3758784,1745472357797,0.0,135,,-0.07,-0.11,0.81,-4,-0,-0,0.82,1.01,81,4528,68.8,5.81,,14.56,1.25,93.4,,45.3,5,0,0,0,0,0.0,0.0,0.0,0.0,2.26,,,0,0,0,0,0,0,0,0,0,0,0,0,0,0,0,0,,0,,,,0.0,38.994099,-76.939636,0.05,26.4,31,3,0.9
3758804,1745472357817,,,,,,,,,,,,,,,,,,,,,,,,,,,,,,,,,,0,0,0,0,0,0,0,0,0,0,0,0,0,0,0,0,,,,,,,,,,,,,
3758824,1745472357837,0.0,134,,-0.06,-0.08,0.86,-2,-0,-0,0.87,1.01,86,4861,91.4,6.15,,14.56,1.25,93.4,,39.7,5,,,,,,,,,,,,0,0,0,0,0,0,0,0,0,0,0,0,0,0,0,0,,,,,,0.0,,,,,,,
3758844,1745472357857,,,,,,,,,,,,,,,,,,,,,,,,,,,,,,,,,,0,0,0,0,0,0,0,0,0,0,0,0,0,0,0,0,,,,,,,,,,,,,
3758864,1745472357877,0.0,134,,-0.05,-0.07,0.88,-2,-0,-0,0.89,1.01,88,4861,91.4,6.15,,14.54,1.249,93.4,,39.7,5,,,,,,,,,,,,0,0,0,0,0,0,0,0,0,0,0,0,0,0,0,0,,,,,,0.0,,,,,,,
3758884,1745472357897,,,,,,,,,,,,,,,,,,,,,,,0,0,0,0,0.0,0.0,0.0,0.0,2.26,,,0,0,0,0,0,0,0,0,0,0,0,0,0,0,0,0,,0,,,,,38.994099,-76.939636,0.05,26.4,31,3,0.9
3758904,1745472357918,0.0,134,,-0.07,-0.08,0.85,-2,-0,-0,0.86,1.01,85,5193,93.0,6.01,,14.42,1.248,93.4,,46.2,5,,,,,,,,,,,,0,0,0,0,0,0,0,0,0,0,0,0,0,0,0,0,,,,,,0.0,,,,,,,
3758924,1745472357938,,,,,,,,,,,,,,,,,,,,,,,,,,,,,,,,,,0,0,0,0,0,0,0,0,0,0,0,0,0,0,0,0,,,,,,,,,,,,,
3758944,1745472357958,0.0,134,,-0.11,0.02,1.0,-0,-0,0,1.01,1.01,100,5775,30.0,5.05,,13.68,1.247,93.4,,46.2,5,,,,,,,,,,,,0,0,0,0,0,0,0,0,0,0,0,0,0,0,0,0,,,,,,0.0,,,,,,,
3758964,1745472357978,,,,,,,,,,,,,,,,,,,,,,,,,,,,,,,,,,0,0,0,0,0,0,0,0,0,0,0,0,0,0,0,0,,,,,,,,,,,,,
3758984,1745472357998,0.0,135,,-0.16,0.07,1.01,0,-0,0,1.03,1.03,100,6277,0.0,1.4,,11.83,1.247,93.4,,46.2,5,0,0,0,0,0.0,0.0,0.0,0.0,2.27,,,0,0,0,0,0,0,0,0,0,0,0,0,0,0,0,0,,0,,,,0.0,38.994099,-76.939636,0.05,26.4,31,3,0.9
3759004,1745472358007,,,,,,,,,,,,,,,,,,,,,,,,,,,,,,,,,,0,0,0,0,0,0,0,0,0,0,0,0,0,0,0,0,,,,,,,,,,,,,
3759024,1745472358027,0.0,135,,-0.1,-0.0,0.96,-0,-0,0,0.97,1.03,94,6267,0.0,1.4,,11.83,1.247,93.4,,49.0,5,,,,,,,,,,,,0,0,0,0,0,0,0,0,0,0,0,0,0,0,0,0,,,,,,0.0,,,,,,,
3759044,1745472358047,,,,,,,,,,,,,,,,,,,,,,,,,,,,,,,,,,0,0,0,0,0,0,0,0,0,0,0,0,0,0,0,0,,,,,,,,,,,,,
3759064,1745472358067,0.0,135,,-0.03,-0.01,0.99,-0,-0,-0,0.99,1.03,96,6267,0.0,1.4,,10.46,1.241,93.4,,49.0,5,,,,,,,,,,,,0,0,0,0,0,0,0,0,0,0,0,0,0,0,0,0,,,,,,0.0,,,,,,,
3759084,1745472358087,,,,,,,,,,,,,,,,,,,,,,,0,0,0,0,0.0,0.0,0.0,0.0,2.27,,,0,0,0,0,0,0,0,0,0,0,0,0,0,0,0,0,,0,,,,,38.994099,-76.939636,0.0,26.4,31,3,0.9
3759104,1745472358115,0.0,135,,-0.03,-0.03,0.95,-1,-0,-0,0.95,1.03,93,5863,0.0,1.4,,9.92,1.137,93.4,,47.9,5,,,,,,,,,,,,0,0,0,0,0,0,0,0,0,0,0,0,0,0,0,0,,,,,,0.0,,,,,,,
3759124,1745472358135,,,,,,,,,,,,,,,,,,,,,,,,,,,,,,,,,,0,0,0,0,0,0,0,0,0,0,0,0,0,0,0,0,,,,,,,,,,,,,
3759144,1745472358155,0.0,134,,-0.05,-0.02,0.96,-0,-0,-0,0.96,1.03,94,5439,32.7,5.48,,12.11,1.232,93.4,,47.9,5,,,,,,,,,,,,0,0,0,0,0,0,0,0,0,0,0,0,0,0,0,0,,,,,,0.0,,,,,,,
3759164,1745472358175,,,,,,,,,,,,,,,,,,,,,,,,,,,,,,,,,,0,0,0,0,0,0,0,0,0,0,0,0,0,0,0,0,,,,,,,,,,,,,
3759184,1745472358195,0.0,135,,-0.05,-0.05,0.96,-0,-0,-0,0.96,1.03,94,5402,57.0,5.87,,14.26,1.25,93.4,,47.9,5,0,0,0,0,0.0,0.0,0.0,0.0,2.27,,,0,0,0,0,0,0,0,0,0,0,0,0,0,0,0,0,,0,,,,0.0,38.994099,-76.939636,0.08,26.4,31,3,0.9
3759204,1745472358211,,,,,,,,,,,,,,,,,,,,,,,,,,,,,,,,,,0,0,0,0,0,0,0,0,0,0,0,0,0,0,0,0,,,,,,,,,,,,,
3759224,1745472358231,0.0,134,,-0.07,-0.07,0.94,-1,-0,-0,0.95,1.03,93,5737,88.0,6.03,,14.26,1.25,93.4,,46.7,5,,,,,,,,,,,,0,0,0,0,0,0,0,0,0,0,0,0,0,0,0,0,,,,,,0.0,,,,,,,
3759244,1745472358251,,,,,,,,,,,,,,,,,,,,,,,,,,,,,,,,,,0,0,0,0,0,0,0,0,0,0,0,0,0,0,0,0,,,,,,,,,,,,,
3759264,1745472358271,0.0,135,,-0.09,-0.08,0.99,-1,-0,-0,1.0,1.03,97,5737,88.0,6.03,,14.44,1.25,93.4,,46.7,5,,,,,,,,,,,,0,0,0,0,0,0,0,0,0,0,0,0,0,0,0,0,,,,,,0.0,,,,,,,
3759284,1745472358291,,,,,,,,,,,,,,,,,,,,,,,0,0,0,0,0.0,0.0,0.0,0.0,2.26,,,0,0,0,0,0,0,0,0,0,0,0,0,0,0,0,0,,0,,,,,38.994099,-76.939636,0.1,26.4,31,3,0.9
3759304,1745472358317,0.0,135,,-0.09,-0.06,0.99,-2,-0,0,1.0,1.03,97,6370,99.3,5.86,,14.36,1.25,93.4,,48.4,5,,,,,,,,,,,,0,0,0,0,0,0,0,0,0,0,0,0,0,0,0,0,,,,,,0.0,,,,,,,
3759324,1745472358337,,,,,,,,,,,,,,,,,,,,,,,,,,,,,,,,,,0,0,0,0,0,0,0,0,0,0,0,0,0,0,0,0,,,,,,,,,,,,,
3759344,1745472358357,0.0,135,,-0.11,0.02,1.03,-1,-0,0,1.04,1.04,100,7208,65.5,5.53,,13.86,1.248,93.4,,48.4,5,,,,,,,,,,,,0,0,0,0,0,0,0,0,0,0,0,0,0,0,0,0,,,,,,0.0,,,,,,,
3759364,1745472358377,,,,,,,,,,,,,,,,,,,,,,,,,,,,,,,,,,0,0,0,0,0,0,0,0,0,0,0,0,0,0,0,0,,,,,,,,,,,,,
3759384,1745472358397,0.0,135,13.42,-0.09,-0.12,0.98,-1,-0,-0,0.99,1.04,95,8687,0.0,1.4,15,13.86,1.248,93.4,173,48.4,5,0,0,0,0,0.0,0.0,0.0,0.0,2.26,0,1.0,0,0,0,0,0,0,0,0,0,0,0,0,0,0,0,0,0,0,1.0,0,-0,0.0,38.994099,-76.939636,0.06,26.4,31,3,0.9
3759404,1745472358417,,,,,,,,,,,,,,,,,,,,,,,,,,,,,,,,,,0,0,0,0,0,0,0,0,0,0,0,0,0,0,0,0,,,,,,,,,,,,,
3759424,1745472358437,0.0,135,,-0.1,-0.34,0.98,-1,-0,-0,1.04,1.04,100,8687,0.0,1.4,,10.74,1.135,93.4,,52.7,5,,,,,,,,,,,,0,0,0,0,0,0,0,0,0,0,0,0,0,0,0,0,,,,,,0.0,,,,,,,
3759444,1745472358457,,,,,,,,,,,,,,,,,,,,,,,,,,,,,,,,,,0,0,0,0,0,0,0,0,0,0,0,0,0,0,0,0,,,,,,,,,,,,,
3759464,1745472358477,0.0,134,,-0.1,-0.48,0.96,-1,-0,-1,1.08,1.08,100,9057,0.0,1.4,,8.27,0.889,93.4,,52.7,5,,,,,,,,,,,,0,0,0,0,0,0,0,0,0,0,0,0,0,0,0,0,,,,,,0.0,,,,,,,
3759484,1745472358497,,,,,,,,,,,,,,,,,,,,,,,0,0,0,0,0.0,0.0,0.0,0.0,2.27,,,0,0,0,0,0,0,0,0,0,0,0,0,0,0,0,0,,0,,,,,38.994099,-76.939636,0.04,26.4,31,3,0.9
3759504,1745472358519,0.0,134,,-0.11,-0.43,0.96,-1,-0,-1,1.06,1.08,98,8501,0.0,1.4,,7.16,0.909,93.4,,52.7,5,,,,,,,,,,,,0,0,0,0,0,0,0,0,0,0,0,0,0,0,0,0,,,,,,0.0,,,,,,,
3759524,1745472358539,,,,,,,,,,,,,,,,,,,,,,,,,,,,,,,,,,0,0,0,0,0,0,0,0,0,0,0,0,0,0,0,0,,,,,,,,,,,,,
3759544,1745472358559,0.0,134,,-0.11,-0.29,0.97,-1,-0,-0,1.02,1.08,94,8052,0.0,1.4,,6.64,1.25,93.4,,50.5,5,,,,,,,,,,,,0,0,0,0,0,0,0,0,0,0,0,0,0,0,0,0,,,,,,0.0,,,,,,,
3759564,1745472358579,,,,,,,,,,,,,,,,,,,,,,,,,,,,,,,,,,0,0,0,0,0,0,0,0,0,0,0,0,0,0,0,0,,,,,,,,,,,,,
3759584,1745472358599,0.0,135,,-0.13,-0.34,0.91,-1,-0,-0,0.98,1.08,90,7585,2.1,1.4,,6.64,1.25,93.4,,50.5,5,0,0,0,0,0.0,0.0,0.0,0.0,2.27,,,0,0,0,0,0,0,0,0,0,0,0,0,0,0,0,0,,0,,,,0.0,38.994099,-76.939636,0.07,26.4,31,3,0.9
3759604,1745472358616,,,,,,,,,,,,,,,,,,,,,,,,,,,,,,,,,,0,0,0,0,0,0,0,0,0,0,0,0,0,0,0,0,,,,,,,,,,,,,
3759624,1745472358636,0.0,134,,-0.15,-0.33,0.91,-1,-0,-0,0.98,1.08,90,7585,2.1,1.4,,6.66,1.25,93.4,,50.5,5,,,,,,,,,,,,0,0,0,0,0,0,0,0,0,0,0,0,0,0,0,0,,,,,,0.0,,,,,,,
3759644,1745472358656,,,,,,,,,,,,,,,,,,,,,,,,,,,,,,,,,,0,0,0,0,0,0,0,0,0,0,0,0,0,0,0,0,,,,,,,,,,,,,
3759664,1745472358676,0.0,135,,-0.14,-0.18,0.96,-1,-0,-0,0.99,1.08,91,7227,49.9,3.74,,10.21,1.25,93.4,,50.5,5,,,,,,,,,,,,0,0,0,0,0,0,0,0,0,0,0,0,0,0,0,0,,,,,,0.0,,,,,,,
3759684,1745472358696,,,,,,,,,,,,,,,,,,,,,,,0,0,0,0,0.0,0.0,0.0,0.0,2.26,,,0,0,0,0,0,0,0,0,0,0,0,0,0,0,0,0,,0,,,,,38.994099,-76.939636,0.05,26.4,31,3,0.9
3759704,1745472358719,0.0,135,,-0.11,-0.19,0.94,-1,-0,-0,0.97,1.08,89,7348,86.9,6.41,,14.04,1.249,93.4,,50.5,5,,,,,,,,,,,,0,0,0,0,0,0,0,0,0,0,0,0,0,0,0,0,,,,,,0.0,,,,,,,
3759724,1745472358739,,,,,,,,,,,,,,,,,,,,,,,,,,,,,,,,,,0,0,0,0,0,0,0,0,0,0,0,0,0,0,0,0,,,,,,,,,,,,,
3759744,1745472358759,0.0,135,,-0.11,-0.17,0.91,-1,-0,0,0.93,1.08,86,7298,91.9,6.16,,14.31,1.248,93.4,,49.8,5,,,,,,,,,,,,0,0,0,0,0,0,0,0,0,0,0,0,0,0,0,0,,,,,,0.0,,,,,,,
3759764,1745472358779,,,,,,,,,,,,,,,,,,,,,,,,,,,,,,,,,,0,0,0,0,0,0,0,0,0,0,0,0,0,0,0,0,,,,,,,,,,,,,
3759784,1745472358799,0.0,132,,-0.12,-0.26,0.89,-1,-1,-0,0.93,1.08,86,7974,25.4,5.36,,14.31,1.248,93.4,,49.8,5,0,0,0,0,0.0,0.0,0.0,0.0,2.27,,,0,0,0,0,0,0,0,0,0,0,0,0,0,0,0,0,,0,,,,0.0,38.994099,-76.939636,0.07,26.4,31,3,0.9
3759804,1745472358816,,,,,,,,,,,,,,,,,,,,,,,,,,,,,,,,,,0,0,0,0,0,0,0,0,0,0,0,0,0,0,0,0,,,,,,,,,,,,,
3759824,1745472358836,0.0,135,,-0.11,-0.01,0.93,-0,-1,-0,0.93,1.08,86,7974,25.4,5.36,,12.89,1.248,93.4,,51.2,5,,,,,,,,,,,,0,0,0,0,0,0,0,0,0,0,0,0,0,0,0,0,,,,,,0.0,,,,,,,
3759844,1745472358856,,,,,,,,,,,,,,,,,,,,,,,,,,,,,,,,,,0,0,0,0,0,0,0,0,0,0,0,0,0,0,0,0,,,,,,,,,,,,,
3759864,1745472358876,0.0,135,,-0.11,-0.14,0.92,-0,-1,-0,0.94,1.08,86,8789,0.0,1.4,,9.76,1.248,93.4,,51.2,5,,,,,,,,,,,,0,0,0,0,0,0,0,0,0,0,0,0,0,0,0,0,,,,,,0.0,,,,,,,
3759884,1745472358896,,,,,,,,,,,,,,,,,,,,,,,0,0,0,0,0.0,0.0,0.0,0.0,2.28,,,0,0,0,0,0,0,0,0,0,0,0,0,0,0,0,0,,0,,,,,38.994099,-76.939636,0.04,26.4,31,3,0.9
3759904,1745472358918,0.0,134,,-0.12,-0.1,0.93,-1,-0,-0,0.94,1.08,87,8342,0.0,1.4,,7.9,1.127,93.4,,51.2,5,,,,,,,,,,,,0,0,0,0,0,0,0,0,0,0,0,0,0,0,0,0,,,,,,0.0,,,,,,,
3759924,1745472358938,,,,,,,,,,,,,,,,,,,,,,,,,,,,,,,,,,0,0,0,0,0,0,0,0,0,0,0,0,0,0,0,0,,,,,,,,,,,,,
3759944,1745472358958,0.0,135,,-0.11,-0.0,0.94,0,-0,-0,0.95,1.08,87,7754,0.0,1.4,,7.11,1.173,93.4,,50.4,5,,,,,,,,,,,,0,0,0,0,0,0,0,0,0,0,0,0,0,0,0,0,,,,,,0.0,,,,,,,
3759964,1745472358978,,,,,,,,,,,,,,,,,,,,,,,,,,,,,,,,,,0,0,0,0,0,0,0,0,0,0,0,0,0,0,0,0,,,,,,,,,,,,,
3759984,1745472358998,0.0,132,,-0.08,0.0,0.99,-0,-0,-0,0.99,1.08,92,7255,0.0,1.4,,7.11,1.173,93.4,,50.4,5,0,0,0,0,0.0,0.0,0.0,0.0,2.28,,,0,0,0,0,0,0,0,0,0,0,0,0,0,0,0,0,,0,,,,0.0,38.994099,-76.939636,0.0,26.4,31,3,0.9
3760004,1745472359008,,,,,,,,,,,,,,,,,,,,,,,,,,,,,,,,,,0,0,0,0,0,0,0,0,0,0,0,0,0,0,0,0,,,,,,,,,,,,,
3760024,1745472359028,0.0,135,,-0.11,0.01,1.01,0,-0,-0,1.02,1.08,94,7255,0.0,1.4,,6.82,1.251,93.4,,50.3,5,,,,,,,,,,,,0,0,0,0,0,0,0,0,0,0,0,0,0,0,0,0,,,,,,0.0,,,,,,,
3760044,1745472359048,,,,,,,,,,,,,,,,,,,,,,,,,,,,,,,,,,0,0,0,0,0,0,0,0,0,0,0,0,0,0,0,0,,,,,,,,,,,,,
3760064,1745472359068,0.0,129,,-0.11,0.02,0.98,1,-0,-0,0.99,1.08,91,6753,29.3,3.49,,8.9,1.251,93.4,,50.3,5,,,,,,,,,,,,0,0,0,0,0,0,0,0,0,0,0,0,0,0,0,0,,,,,,0.0,,,,,,,
3760084,1745472359088,,,,,,,,,,,,,,,,,,,,,,,0,0,0,0,0.0,0.0,0.0,0.0,2.27,,,0,0,0,0,0,0,0,0,0,0,0,0,0,0,0,0,,0,,,,,38.994099,-76.939636,0.0,26.4,31,3,0.9
3760104,1745472359114,0.0,132,,-0.1,0.04,1.01,0,-0,-0,1.02,1.08,94,6811,92.3,6.39,,14.11,1.248,93.4,,50.3,5,,,,,,,,,,,,0,0,0,0,0,0,0,0,0,0,0,0,0,0,0,0,,,,,,0.0,,,,,,,
3760124,1745472359134,,,,,,,,,,,,,,,,,,,,,,,,,,,,,,,,,,0,0,0,0,0,0,0,0,0,0,0,0,0,0,0,0,,,,,,,,,,,,,
3760144,1745472359154,0.0,135,,-0.12,0.01,1.03,0,-0,-0,1.03,1.08,95,6646,99.3,5.43,,14.11,1.248,93.4,,49.2,5,,,,,,,,,,,,0,0,0,0,0,0,0,0,0,0,0,0,0,0,0,0,,,,,,0.0,,,,,,,
3760164,1745472359174,,,,,,,,,,,,,,,,,,,,,,,,,,,,,,,,,,0,0,0,0,0,0,0,0,0,0,0,0,0,0,0,0,,,,,,,,,,,,,
3760184,1745472359194,0.0,135,,-0.1,-0.09,0.96,-0,-0,-0,0.97,1.08,90,6646,99.3,5.43,,14.32,1.247,91.6,,49.2,5,0,0,0,0,0.0,0.0,0.0,0.0,2.27,,,0,0,0,0,0,0,0,0,0,0,0,0,0,0,0,0,,0,,,,0.0,38.994099,-76.939636,0.08,26.4,31,3,0.9
3760204,1745472359212,,,,,,,,,,,,,,,,,,,,,,,,,,,,,,,,,,0,0,0,0,0,0,0,0,0,0,0,0,0,0,0,0,,,,,,,,,,,,,
3760224,1745472359232,0.0,134,,-0.1,-0.07,0.96,-0,-0,0,0.97,1.08,89,7165,61.2,5.82,,13.99,1.248,91.6,,50.6,5,,,,,,,,,,,,0,0,0,0,0,0,0,0,0,0,0,0,0,0,0,0,,,,,,0.0,,,,,,,
3760244,1745472359252,,,,,,,,,,,,,,,,,,,,,,,,,,,,,,,,,,0,0,0,0,0,0,0,0,0,0,0,0,0,0,0,0,,,,,,,,,,,,,
3760264,1745472359272,0.0,135,,-0.1,-0.1,0.94,-0,-0,-0,0.95,1.08,88,7780,0.0,1.4,,11.2,1.248,91.6,,50.6,5,,,,,,,,,,,,0,0,0,0,0,0,0,0,0,0,0,0,0,0,0,0,,,,,,0.0,,,,,,,
3760284,1745472359292,,,,,,,,,,,,,,,,,,,,,,,0,0,0,0,0.0,0.0,0.0,0.0,2.27,,,0,0,0,0,0,0,0,0,0,0,0,0,0,0,0,0,,0,,,,,38.994099,-76.939636,0.0,26.4,31,3,0.9
3760304,1745472359318,0.0,135,,-0.12,0.04,1.0,0,-0,0,1.01,1.08,93,7762,0.0,1.4,,9.15,1.244,91.6,,50.6,5,,,,,,,,,,,,0,0,0,0,0,0,0,0,0,0,0,0,0,0,0,0,,,,,,0.0,,,,,,,
3760324,1745472359338,,,,,,,,,,,,,,,,,,,,,,,,,,,,,,,,,,0,0,0,0,0,0,0,0,0,0,0,0,0,0,0,0,,,,,,,,,,,,,
3760344,1745472359358,0.0,135,,-0.09,0.1,1.01,1,-0,0,1.02,1.08,94,7292,0.0,1.4,,9.15,1.244,91.6,,49.9,5,,,,,,,,,,,,0,0,0,0,0,0,0,0,0,0,0,0,0,0,0,0,,,,,,0.0,,,,,,,
3760364,1745472359378,,,,,,,,,,,,,,,,,,,,,,,,,,,,,,,,,,0,0,0,0,0,0,0,0,0,0,0,0,0,0,0,0,,,,,,,,,,,,,
3760384,1745472359398,0.0,132,13.44,-0.09,0.09,1.03,1,-0,0,1.04,1.08,96,7292,0.0,1.4,15,8.15,1.212,91.6,173,49.9,5,0,0,0,0,0.0,0.0,0.0,0.0,2.28,0,1.0,0,0,0,0,0,0,0,0,0,0,0,0,0,0,0,0,0,0,1.0,0,-0,0.0,38.994099,-76.939636,0.04,26.4,31,3,0.9
3760404,1745472359418,,,,,,,,,,,,,,,,,,,,,,,,,,,,,,,,,,0,0,0,0,0,0,0,0,0,0,0,0,0,0,0,0,,,,,,,,,,,,,
3760424,1745472359438,0.0,135,,-0.09,0.0,1.0,0,-0,0,1.0,1.08,93,6781,0.0,1.4,,7.71,1.251,91.6,,49.8,5,,,,,,,,,,,,0,0,0,0,0,0,0,0,0,0,0,0,0,0,0,0,,,,,,0.0,,,,,,,
3760444,1745472359458,,,,,,,,,,,,,,,,,,,,,,,,,,,,,,,,,,0,0,0,0,0,0,0,0,0,0,0,0,0,0,0,0,,,,,,,,,,,,,
3760464,1745472359478,0.0,132,,-0.1,0.09,1.1,1,-0,0,1.11,1.11,100,6348,22.2,2.99,,9.19,1.251,91.6,,49.8,5,,,,,,,,,,,,0,0,0,0,0,0,0,0,0,0,0,0,0,0,0,0,,,,,,0.0,,,,,,,
3760484,1745472359498,,,,,,,,,,,,,,,,,,,,,,,0,0,0,0,0.0,0.0,0.0,0.0,2.27,,,0,0,0,0,0,0,0,0,0,0,0,0,0,0,0,0,,0,,,,,38.994099,-76.939636,0.05,26.4,31,3,0.9
3760504,1745472359519,0.0,135,,-0.13,0.21,1.21,2,-0,1,1.24,1.24,100,5989,70.0,5.6,,13.94,1.25,91.6,,49.8,5,,,,,,,,,,,,0,0,0,0,0,0,0,0,0,0,0,0,0,0,0,0,,,,,,0.0,,,,,,,
3760524,1745472359539,,,,,,,,,,,,,,,,,,,,,,,,,,,,,,,,,,0,0,0,0,0,0,0,0,0,0,0,0,0,0,0,0,,,,,,,,,,,,,
3760544,1745472359559,0.0,135,,-0.15,0.31,1.3,4,-0,1,1.35,1.35,100,5996,77.3,6.61,,13.94,1.25,91.6,,47.3,5,,,,,,,,,,,,0,0,0,0,0,0,0,0,0,0,0,0,0,0,0,0,,,,,,0.0,,,,,,,
3760564,1745472359579,,,,,,,,,,,,,,,,,,,,,,,,,,,,,,,,,,0,0,0,0,0,0,0,0,0,0,0,0,0,0,0,0,,,,,,,,,,,,,
3760584,1745472359599,0.0,132,,-0.16,0.26,1.21,4,-0,1,1.25,1.35,93,5996,77.3,6.61,,14.3,1.249,91.6,,47.3,5,0,0,0,0,0.0,0.0,0.0,0.0,2.27,,,0,0,0,0,0,0,0,0,0,0,0,0,0,0,0,0,,0,,,,0.0,38.994099,-76.939636,0.04,26.4,31,3,0.9
3760604,1745472359619,,,,,,,,,,,,,,,,,,,,,,,,,,,,,,,,,,0,0,0,0,0,0,0,0,0,0,0,0,0,0,0,0,,,,,,,,,,,,,
3760624,1745472359639,0.0,135,,-0.15,0.25,1.17,3,-0,1,1.21,1.35,90,6610,25.5,5.18,,13.33,1.248,91.6,,49.7,5,,,,,,,,,,,,0,0,0,0,0,0,0,0,0,0,0,0,0,0,0,0,,,,,,0.0,,,,,,,
3760644,1745472359659,,,,,,,,,,,,,,,,,,,,,,,,,,,,,,,,,,0,0,0,0,0,0,0,0,0,0,0,0,0,0,0,0,,,,,,,,,,,,,
3760664,1745472359679,0.0,135,,-0.13,0.21,1.21,2,-0,1,1.23,1.35,91,7256,0.0,1.4,,11.01,1.248,91.6,,49.7,5,,,,,,,,,,,,0,0,0,0,0,0,0,0,0,0,0,0,0,0,0,0,,,,,,0.0,,,,,,,
3760684,1745472359699,,,,,,,,,,,,,,,,,,,,,,,0,0,0,0,0.0,0.0,0.0,0.0,2.28,,,0,0,0,0,0,0,0,0,0,0,0,0,0,0,0,0,,0,,,,,38.994099,-76.939636,0.2,26.4,31,3,0.9
3760704,1745472359717,0.0,132,,-0.12,0.12,1.16,2,-0,1,1.17,1.35,87,7197,0.0,1.4,,9.31,1.156,91.6,,49.7,5,,,,,,,,,,,,0,0,0,0,0,0,0,0,0,0,0,0,0,0,0,0,,,,,,0.0,,,,,,,
3760724,1745472359737,,,,,,,,,,,,,,,,,,,,,,,,,,,,,,,,,,0,0,0,0,0,0,0,0,0,0,0,0,0,0,0,0,,,,,,,,,,,,,
3760744,1745472359757,0.0,129,,-0.12,0.11,1.11,2,-0,1,1.12,1.35,84,6703,0.0,1.4,,9.31,1.156,91.6,,49.8,5,,,,,,,,,,,,0,0,0,0,0,0,0,0,0,0,0,0,0,0,0,0,,,,,,0.0,,,,,,,
3760764,1745472359777,,,,,,,,,,,,,,,,,,,,,,,,,,,,,,,,,,0,0,0,0,0,0,0,0,0,0,0,0,0,0,0,0,,,,,,,,,,,,,
3760784,1745472359797,0.0,132,,-0.08,0.18,1.16,2,-0,1,1.17,1.35,87,6703,0.0,1.4,,8.47,1.093,91.6,,49.8,5,0,0,0,0,0.0,0.0,0.0,0.0,2.28,,,0,0,0,0,0,0,0,0,0,0,0,0,0,0,0,0,,0,,,,0.0,38.994099,-76.939636,0.08,26.4,31,3,0.9
3760804,1745472359819,,,,,,,,,,,,,,,,,,,,,,,,,,,,,,,,,,0,0,0,0,0,0,0,0,0,0,0,0,0,0,0,0,,,,,,,,,,,,,
3760824,1745472359839,0.0,132,,-0.11,0.24,1.26,4,-0,1,1.29,1.35,96,6272,0.0,1.4,,8.29,1.236,91.6,,48.6,5,,,,,,,,,,,,0,0,0,0,0,0,0,0,0,0,0,0,0,0,0,0,,,,,,0.0,,,,,,,
3760844,1745472359859,,,,,,,,,,,,,,,,,,,,,,,,,,,,,,,,,,0,0,0,0,0,0,0,0,0,0,0,0,0,0,0,0,,,,,,,,,,,,,
3760864,1745472359879,0.0,129,,-0.08,0.31,1.27,5,-0,1,1.31,1.35,97,5825,15.9,2.83,,9.97,1.252,91.6,,48.6,5,,,,,,,,,,,,0,0,0,0,0,0,0,0,0,0,0,0,0,0,0,0,,,,,,0.0,,,,,,,
3760884,1745472359899,,,,,,,,,,,,,,,,,,,,,,,0,0,0,0,0.0,0.0,0.0,0.0,2.27,,,0,0,0,0,0,0,0,0,0,0,0,0,0,0,0,0,,0,,,,,38.994099,-76.939636,0.09,26.4,31,3,0.9
3760904,1745472359919,0.0,134,,-0.1,0.24,1.25,4,-0,1,1.28,1.35,95,5490,53.2,5.76,,13.67,1.251,91.6,,48.6,5,,,,,,,,,,,,0,0,0,0,0,0,0,0,0,0,0,0,0,0,0,0,,,,,,0.0,,,,,,,
3760924,1745472359939,,,,,,,,,,,,,,,,,,,,,,,,,,,,,,,,,,0,0,0,0,0,0,0,0,0,0,0,0,0,0,0,0,,,,,,,,,,,,,
3760944,1745472359959,0.0,135,,-0.09,0.18,1.16,3,-0,1,1.18,1.35,87,5681,68.1,5.83,,13.67,1.251,91.6,,46.9,5,,,,,,,,,,,,0,0,0,0,0,0,0,0,0,0,0,0,0,0,0,0,,,,,,0.0,,,,,,,
3760964,1745472359979,,,,,,,,,,,,,,,,,,,,,,,,,,,,,,,,,,0,0,0,0,0,0,0,0,0,0,0,0,0,0,0,0,,,,,,,,,,,,,
3760984,1745472359999,0.0,132,,-0.11,0.12,1.07,2,-0,1,1.08,1.35,80,5681,68.1,5.83,,14.36,1.251,91.6,,46.9,5,0,0,0,0,0.0,0.0,0.0,0.0,2.27,,,0,0,0,0,0,0,0,0,0,0,0,0,0,0,0,0,,0,,,,0.0,38.994099,-76.939636,0.0,26.4,31,3,0.9
3761004,1745472360013,,,,,,,,,,,,,,,,,,,,,,,,,,,,,,,,,,0,0,0,0,0,0,0,0,0,0,0,0,0,0,0,0,,,,,,,,,,,,,
3761024,1745472360033,0.0,135,,-0.09,0.17,1.03,1,-0,0,1.05,1.35,78,6134,66.6,5.39,,14.26,1.249,91.6,,48.4,5,,,,,,,,,,,,0,0,0,0,0,0,0,0,0,0,0,0,0,0,0,0,,,,,,0.0,,,,,,,
3761044,1745472360053,,,,,,,,,,,,,,,,,,,,,,,,,,,,,,,,,,0,0,0,0,0,0,0,0,0,0,0,0,0,0,0,0,,,,,,,,,,,,,
3761064,1745472360073,0.0,115,,-0.08,0.2,1.04,1,-0,1,1.06,1.35,79,6818,7.9,4.67,,12.65,1.248,91.6,,48.4,5,,,,,,,,,,,,0,0,0,0,0,0,0,0,0,0,0,0,0,0,0,0,,,,,,0.0,,,,,,,
3761084,1745472360093,,,,,,,,,,,,,,,,,,,,,,,0,0,0,0,0.0,0.0,0.0,0.0,2.27,,,0,0,0,0,0,0,0,0,0,0,0,0,0,0,0,0,,0,,,,,38.994099,-76.939636,0.0,26.4,31,3,0.9
3761104,1745472360119,0.0,135,,-0.08,0.16,1.06,1,-0,1,1.07,1.35,80,7194,0.0,1.4,,10.29,1.23,91.6,,48.4,5,,,,,,,,,,,,0,0,0,0,0,0,0,0,0,0,0,0,0,0,0,0,,,,,,0.0,,,,,,,
3761124,1745472360139,,,,,,,,,,,,,,,,,,,,,,,,,,,,,,,,,,0,0,0,0,0,0,0,0,0,0,0,0,0,0,0,0,,,,,,,,,,,,,
3761144,1745472360159,0.0,135,,-0.08,0.18,1.08,1,-0,0,1.1,1.35,82,6798,0.0,1.4,,10.29,1.23,91.6,,49.4,5,,,,,,,,,,,,0,0,0,0,0,0,0,0,0,0,0,0,0,0,0,0,,,,,,0.0,,,,,,,
3761164,1745472360179,,,,,,,,,,,,,,,,,,,,,,,,,,,,,,,,,,0,0,0,0,0,0,0,0,0,0,0,0,0,0,0,0,,,,,,,,,,,,,
3761184,1745472360199,0.0,122,,-0.07,0.1,1.02,0,-0,0,1.03,1.35,77,6798,0.0,1.4,,9.18,1.084,91.6,,49.4,5,0,0,0,0,0.0,0.0,0.0,0.0,2.28,,,0,0,0,0,0,0,0,0,0,0,0,0,0,0,0,0,,0,,,,0.0,38.994099,-76.939636,0.05,26.4,31,3,0.9
3761204,1745472360217,,,,,,,,,,,,,,,,,,,,,,,,,,,,,,,,,,0,0,0,0,0,0,0,0,0,0,0,0,0,0,0,0,,,,,,,,,,,,,
3761224,1745472360237,0.0,135,,-0.03,0.15,1.08,0,-0,0,1.09,1.35,81,6377,0.0,1.4,,8.71,1.15,91.6,,48.9,5,,,,,,,,,,,,0,0,0,0,0,0,0,0,0,0,0,0,0,0,0,0,,,,,,0.0,,,,,,,
3761244,1745472360257,,,,,,,,,,,,,,,,,,,,,,,,,,,,,,,,,,0,0,0,0,0,0,0,0,0,0,0,0,0,0,0,0,,,,,,,,,,,,,
3761264,1745472360277,0.0,112,,-0.01,0.19,1.07,-0,-0,0,1.09,1.35,81,5942,6.3,2.63,,8.91,1.249,91.6,,48.9,5,,,,,,,,,,,,0,0,0,0,0,0,0,0,0,0,0,0,0,0,0,0,,,,,,0.0,,,,,,,
3761284,1745472360302,,,,,,,,,,,,,,,,,,,,,,,0,0,0,0,0.0,0.0,0.0,0.0,2.28,,,0,0,0,0,0,0,0,0,0,0,0,0,0,0,0,0,,0,,,,,38.994102,-76.939636,0.08,26.4,31,3,0.9
3761304,1745472360322,0.0,135,,-0.03,0.12,1.07,-1,-0,0,1.08,1.35,80,5515,36.1,5.23,,11.92,1.25,91.6,,48.9,5,,,,,,,,,,,,0,0,0,0,0,0,0,0,0,0,0,0,0,0,0,0,,,,,,0.0,,,,,,,
3761324,1745472360342,,,,,,,,,,,,,,,,,,,,,,,,,,,,,,,,,,0,0,0,0,0,0,0,0,0,0,0,0,0,0,0,0,,,,,,,,,,,,,
3761344,1745472360362,0.0,135,,-0.04,0.14,1.03,-1,-0,0,1.04,1.35,77,5386,68.7,5.53,,11.92,1.25,91.6,,46.4,5,,,,,,,,,,,,0,0,0,0,0,0,0,0,0,0,0,0,0,0,0,0,,,,,,0.0,,,,,,,
3761364,1745472360382,,,,,,,,,,,,,,,,,,,,,,,,,,,,,,,,,,0,0,0,0,0,0,0,0,0,0,0,0,0,0,0,0,,,,,,,,,,,,,
3761384,1745472360401,0.0,132,13.43,-0.03,0.08,0.99,-1,-1,-0,0.99,1.35,74,5386,68.7,5.53,15,14.39,1.251,91.6,173,46.4,5,0,0,0,0,0.0,0.0,0.0,0.0,2.27,0,1.0,0,0,0,0,0,0,0,0,0,0,0,0,0,0,0,0,0,0,1.0,0,-0,0.0,38.994102,-76.939636,0.0,26.4,31,3,0.9
3761404,1745472360421,,,,,,,,,,,,,,,,,,,,,,,,,,,,,,,,,,0,0,0,0,0,0,0,0,0,0,0,0,0,0,0,0,,,,,,,,,,,,,
3761424,1745472360441,0.0,132,,-0.04,0.15,1.11,0,-0,0,1.12,1.35,83,5463,79.4,6.21,,14.44,1.251,91.6,,46.0,5,,,,,,,,,,,,0,0,0,0,0,0,0,0,0,0,0,0,0,0,0,0,,,,,,0.0,,,,,,,
3761444,1745472360461,,,,,,,,,,,,,,,,,,,,,,,,,,,,,,,,,,0,0,0,0,0,0,0,0,0,0,0,0,0,0,0,0,,,,,,,,,,,,,
3761464,1745472360481,0.0,129,,-0.04,0.27,1.16,2,-0,0,1.19,1.35,89,5972,71.5,5.66,,14.36,1.25,91.6,,46.0,5,,,,,,,,,,,,0,0,0,0,0,0,0,0,0,0,0,0,0,0,0,0,,,,,,0.0,,,,,,,
3761484,1745472360501,,,,,,,,,,,,,,,,,,,,,,,0,0,0,0,0.0,0.0,0.0,0.0,2.26,,,0,0,0,0,0,0,0,0,0,0,0,0,0,0,0,0,,0,,,,,38.994102,-76.939636,0.0,26.4,31,3,0.9
3761504,1745472360521,0.0,132,,-0.09,0.31,1.17,2,-0,0,1.21,1.35,90,6339,8.6,4.45,,12.75,1.249,91.6,,46.0,5,,,,,,,,,,,,0,0,0,0,0,0,0,0,0,0,0,0,0,0,0,0,,,,,,0.0,,,,,,,
3761524,1745472360541,,,,,,,,,,,,,,,,,,,,,,,,,,,,,,,,,,0,0,0,0,0,0,0,0,0,0,0,0,0,0,0,0,,,,,,,,,,,,,
3761544,1745472360561,0.0,135,,-0.05,0.23,1.14,2,-0,0,1.17,1.35,87,6470,0.1,1.4,,12.75,1.249,91.6,,48.2,5,,,,,,,,,,,,0,0,0,0,0,0,0,0,0,0,0,0,0,0,0,0,,,,,,0.0,,,,,,,
3761564,1745472360581,,,,,,,,,,,,,,,,,,,,,,,,,,,,,,,,,,0,0,0,0,0,0,0,0,0,0,0,0,0,0,0,0,,,,,,,,,,,,,
3761584,1745472360601,0.0,135,,-0.09,0.23,1.12,1,-0,-0,1.14,1.35,85,6470,0.1,1.4,,10.9,1.249,91.6,,48.2,5,0,0,0,0,0.0,0.0,0.0,0.0,2.27,,,0,0,0,0,0,0,0,0,0,0,0,0,0,0,0,0,,0,,,,0.0,38.994102,-76.939636,0.0,26.4,31,3,0.9
3761604,1745472360620,,,,,,,,,,,,,,,,,,,,,,,,,,,,,,,,,,0,0,0,0,0,0,0,0,0,0,0,0,0,0,0,0,,,,,,,,,,,,,
3761624,1745472360640,0.0,135,,-0.1,0.12,1.02,-0,-0,-0,1.03,1.35,77,6110,0.0,1.4,,10.08,1.226,91.6,,48.3,5,,,,,,,,,,,,0,0,0,0,0,0,0,0,0,0,0,0,0,0,0,0,,,,,,0.0,,,,,,,
3761644,1745472360660,,,,,,,,,,,,,,,,,,,,,,,,,,,,,,,,,,0,0,0,0,0,0,0,0,0,0,0,0,0,0,0,0,,,,,,,,,,,,,
3761664,1745472360680,0.0,135,,-0.1,0.12,1.08,-0,-0,-0,1.09,1.35,81,5681,0.0,1.4,,9.53,1.249,91.6,,48.3,5,,,,,,,,,,,,0,0,0,0,0,0,0,0,0,0,0,0,0,0,0,0,,,,,,0.0,,,,,,,
3761684,1745472360700,,,,,,,,,,,,,,,,,,,,,,,0,0,0,0,0.0,0.0,0.0,0.0,2.28,,,0,0,0,0,0,0,0,0,0,0,0,0,0,0,0,0,,0,,,,,38.994102,-76.939636,0.04,26.4,31,3,0.9
3761704,1745472360720,0.0,135,,-0.09,0.06,1.06,0,-0,-0,1.07,1.35,79,5316,0.0,1.4,,9.49,1.249,91.6,,48.3,5,,,,,,,,,,,,0,0,0,0,0,0,0,0,0,0,0,0,0,0,0,0,,,,,,0.0,,,,,,,
3761724,1745472360740,,,,,,,,,,,,,,,,,,,,,,,,,,,,,,,,,,0,0,0,0,0,0,0,0,0,0,0,0,0,0,0,0,,,,,,,,,,,,,
3761744,1745472360760,0.0,122,,-0.08,0.05,1.02,-1,-0,-0,1.02,1.35,76,4940,0.0,1.59,,9.49,1.249,91.6,,46.0,5,,,,,,,,,,,,0,0,0,0,0,0,0,0,0,0,0,0,0,0,0,0,,,,,,0.0,,,,,,,
3761764,1745472360780,,,,,,,,,,,,,,,,,,,,,,,,,,,,,,,,,,0,0,0,0,0,0,0,0,0,0,0,0,0,0,0,0,,,,,,,,,,,,,
3761784,1745472360800,0.0,125,,-0.06,0.02,0.97,0,-0,-0,0.97,1.35,72,4940,0.0,1.59,,9.53,1.251,91.6,,46.0,5,0,0,0,0,0.0,0.0,0.0,0.0,2.28,,,0,0,0,0,0,0,0,0,0,0,0,0,0,0,0,0,,0,,,,0.0,38.994102,-76.939636,0.08,26.4,31,3,0.9
3761804,1745472360819,,,,,,,,,,,,,,,,,,,,,,,,,,,,,,,,,,0,0,0,0,0,0,0,0,0,0,0,0,0,0,0,0,,,,,,,,,,,,,
3761824,1745472360839,0.0,132,,-0.03,-0.04,0.89,-0,-0,-1,0.89,1.35,66,4544,4.7,2.71,,10.01,1.25,91.6,,37.8,5,,,,,,,,,,,,0,0,0,0,0,0,0,0,0,0,0,0,0,0,0,0,,,,,,0.0,,,,,,,
3761844,1745472360859,,,,,,,,,,,,,,,,,,,,,,,,,,,,,,,,,,0,0,0,0,0,0,0,0,0,0,0,0,0,0,0,0,,,,,,,,,,,,,
3761864,1745472360879,0.0,122,,-0.02,-0.03,0.95,-1,-0,-0,0.95,1.35,70,4173,32.0,5.17,,12.63,1.25,91.6,,37.8,5,,,,,,,,,,,,0,0,0,0,0,0,0,0,0,0,0,0,0,0,0,0,,,,,,0.0,,,,,,,
3761884,1745472360899,,,,,,,,,,,,,,,,,,,,,,,0,0,0,0,0.0,0.0,0.0,0.0,2.27,,,0,0,0,0,0,0,0,0,0,0,0,0,0,0,0,0,,0,,,,,38.994102,-76.939636,0.04,26.4,31,3,0.9
3761904,1745472360919,0.0,135,,-0.05,0.03,0.95,0,-0,-0,0.95,1.35,70,4231,47.4,5.66,,14.24,1.25,91.6,,37.8,5,,,,,,,,,,,,0,0,0,0,0,0,0,0,0,0,0,0,0,0,0,0,,,,,,0.0,,,,,,,
3761924,1745472360939,,,,,,,,,,,,,,,,,,,,,,,,,,,,,,,,,,0,0,0,0,0,0,0,0,0,0,0,0,0,0,0,0,,,,,,,,,,,,,
3761944,1745472360959,0.0,135,,-0.03,-0.06,0.85,-1,-0,-0,0.85,1.35,63,4483,49.6,5.74,,14.24,1.25,91.6,,36.1,5,,,,,,,,,,,,0,0,0,0,0,0,0,0,0,0,0,0,0,0,0,0,,,,,,0.0,,,,,,,
3761964,1745472360979,,,,,,,,,,,,,,,,,,,,,,,,,,,,,,,,,,0,0,0,0,0,0,0,0,0,0,0,0,0,0,0,0,,,,,,,,,,,,,
3761984,1745472360999,0.0,125,,-0.01,-0.05,0.81,-0,-0,-1,0.81,1.35,60,4483,49.6,5.74,,14.4,1.249,91.6,,36.1,5,0,0,0,0,0.0,0.0,0.0,0.0,2.27,,,0,0,0,0,0,0,0,0,0,0,0,0,0,0,0,0,,0,,,,0.0,38.994102,-76.939636,0.0,26.4,31,3,0.9
3762004,1745472361014,,,,,,,,,,,,,,,,,,,,,,,,,,,,,,,,,,0,0,0,0,0,0,0,0,0,0,0,0,0,0,0,0,,,,,,,,,,,,,
3762024,1745472361034,0.0,135,,-0.02,-0.08,0.84,-0,-0,-0,0.85,1.35,63,4864,47.1,5.26,,14.35,1.247,91.6,,42.0,5,,,,,,,,,,,,0,0,0,0,0,0,0,0,0,0,0,0,0,0,0,0,,,,,,0.0,,,,,,,
3762044,1745472361054,,,,,,,,,,,,,,,,,,,,,,,,,,,,,,,,,,0,0,0,0,0,0,0,0,0,0,0,0,0,0,0,0,,,,,,,,,,,,,
3762064,1745472361074,0.0,129,,-0.03,-0.07,0.86,0,-0,-0,0.86,1.35,64,5211,10.3,3.74,,13.25,1.249,91.6,,42.0,5,,,,,,,,,,,,0,0,0,0,0,0,0,0,0,0,0,0,0,0,0,0,,,,,,0.0,,,,,,,
3762084,1745472361094,,,,,,,,,,,,,,,,,,,,,,,0,0,0,0,0.0,0.0,0.0,0.0,2.28,,,0,0,0,0,0,0,0,0,0,0,0,0,0,0,0,0,,0,,,,,38.994102,-76.939636,0.0,26.4,31,3,0.9
3762104,1745472361112,0.0,135,,-0.03,-0.11,0.88,-0,-0,-0,0.88,1.35,66,5232,0.0,2.26,,11.89,1.248,91.6,,42.0,5,,,,,,,,,,,,0,0,0,0,0,0,0,0,0,0,0,0,0,0,0,0,,,,,,0.0,,,,,,,
3762124,1745472361132,,,,,,,,,,,,,,,,,,,,,,,,,,,,,,,,,,0,0,0,0,0,0,0,0,0,0,0,0,0,0,0,0,,,,,,,,,,,,,
3762144,1745472361152,0.0,135,,-0.04,-0.04,0.9,-0,-0,-0,0.9,1.35,67,5090,0.0,2.26,,11.89,1.248,91.6,,46.1,5,,,,,,,,,,,,0,0,0,0,0,0,0,0,0,0,0,0,0,0,0,0,,,,,,0.0,,,,,,,
3762164,1745472361172,,,,,,,,,,,,,,,,,,,,,,,,,,,,,,,,,,0,0,0,0,0,0,0,0,0,0,0,0,0,0,0,0,,,,,,,,,,,,,
3762184,1745472361202,0.0,135,,-0.03,-0.07,0.89,0,-0,-0,0.89,1.35,66,5090,0.0,2.26,,11.1,1.248,89.8,,46.1,5,0,0,0,0,0.0,0.0,0.0,0.0,2.28,,,0,0,0,0,0,0,0,0,0,0,0,0,0,0,0,0,,0,,,,0.0,38.994102,-76.939636,0.04,26.4,31,3,0.9
3762204,1745472361222,,,,,,,,,,,,,,,,,,,,,,,,,,,,,,,,,,0,0,0,0,0,0,0,0,0,0,0,0,0,0,0,0,,,,,,,,,,,,,
3762224,1745472361242,0.0,129,,-0.06,-0.03,0.94,0,-0,-0,0.94,1.35,70,4890,0.0,2.09,,10.84,1.251,89.8,,42.2,5,,,,,,,,,,,,0,0,0,0,0,0,0,0,0,0,0,0,0,0,0,0,,,,,,0.0,,,,,,,
3762244,1745472361262,,,,,,,,,,,,,,,,,,,,,,,,,,,,,,,,,,0,0,0,0,0,0,0,0,0,0,0,0,0,0,0,0,,,,,,,,,,,,,
3762264,1745472361282,0.0,135,,-0.05,-0.09,0.89,-1,-0,-0,0.9,1.35,67,4691,0.0,1.83,,10.64,1.252,89.8,,42.2,5,,,,,,,,,,,,0,0,0,0,0,0,0,0,0,0,0,0,0,0,0,0,,,,,,0.0,,,,,,,
3762284,1745472361302,,,,,,,,,,,,,,,,,,,,,,,0,0,0,0,0.0,0.0,0.0,0.0,2.27,,,0,0,0,0,0,0,0,0,0,0,0,0,0,0,0,0,,0,,,,,38.994102,-76.939636,0.04,26.4,31,3,0.9
3762304,1745472361322,0.0,135,,-0.03,-0.17,0.85,-3,-0,-0,0.87,1.35,65,4485,0.0,1.83,,10.65,1.252,89.8,,42.2,5,,,,,,,,,,,,0,0,0,0,0,0,0,0,0,0,0,0,0,0,0,0,,,,,,0.0,,,,,,,
3762324,1745472361342,,,,,,,,,,,,,,,,,,,,,,,,,,,,,,,,,,0,0,0,0,0,0,0,0,0,0,0,0,0,0,0,0,,,,,,,,,,,,,
3762344,1745472361362,0.0,134,,-0.05,-0.07,0.96,-1,-0,0,0.97,1.35,72,4123,18.5,4.19,,10.65,1.252,89.8,,37.2,5,,,,,,,,,,,,0,0,0,0,0,0,0,0,0,0,0,0,0,0,0,0,,,,,,0.0,,,,,,,
3762364,1745472361382,,,,,,,,,,,,,,,,,,,,,,,,,,,,,,,,,,0,0,0,0,0,0,0,0,0,0,0,0,0,0,0,0,,,,,,,,,,,,,
3762384,1745472361402,0.0,135,13.48,-0.03,-0.15,0.92,-4,-0,0,0.93,1.35,69,4123,18.5,4.19,15,11.95,1.252,89.8,173,37.2,5,0,0,0,0,0.0,0.0,0.0,0.0,2.26,0,1.0,0,0,0,0,0,0,0,0,0,0,0,0,0,0,0,0,0,0,1.0,0,0,0.0,38.994102,-76.939636,0.04,26.4,31,3,0.9
3762404,1745472361422,,,,,,,,,,,,,,,,,,,,,,,,,,,,,,,,,,0,0,0,0,0,0,0,0,0,0,0,0,0,0,0,0,,,,,,,,,,,,,
3762424,1745472361442,0.0,135,,-0.06,0.01,0.97,-1,-0,0,0.98,1.35,73,3958,32.2,4.84,,13.79,1.251,89.8,,33.8,5,,,,,,,,,,,,0,0,0,0,0,0,0,0,0,0,0,0,0,0,0,0,,,,,,0.0,,,,,,,
3762444,1745472361462,,,,,,,,,,,,,,,,,,,,,,,,,,,,,,,,,,0,0,0,0,0,0,0,0,0,0,0,0,0,0,0,0,,,,,,,,,,,,,
3762464,1745472361482,0.0,122,,-0.04,-0.07,0.87,-2,-0,-0,0.88,1.35,65,4267,34.4,4.75,,14.14,1.249,89.8,,33.8,5,,,,,,,,,,,,0,0,0,0,0,0,0,0,0,0,0,0,0,0,0,0,,,,,,0.0,,,,,,,
3762484,1745472361502,,,,,,,,,,,,,,,,,,,,,,,0,0,0,0,0.0,0.0,0.0,0.0,2.27,,,0,0,0,0,0,0,0,0,0,0,0,0,0,0,0,0,,0,,,,,38.994102,-76.939636,0.07,26.4,31,3,0.9
3762504,1745472361522,0.0,125,,-0.03,0.02,0.93,-0,-0,-0,0.93,1.35,69,4735,21.1,4.27,,13.71,1.248,89.8,,33.8,5,,,,,,,,,,,,0,0,0,0,0,0,0,0,0,0,0,0,0,0,0,0,,,,,,0.0,,,,,,,
3762524,1745472361542,,,,,,,,,,,,,,,,,,,,,,,,,,,,,,,,,,0,0,0,0,0,0,0,0,0,0,0,0,0,0,0,0,,,,,,,,,,,,,
3762544,1745472361562,0.0,135,,-0.05,-0.03,0.93,-1,-0,-0,0.93,1.35,69,4871,3.8,3.75,,13.71,1.248,89.8,,40.8,5,,,,,,,,,,,,0,0,0,0,0,0,0,0,0,0,0,0,0,0,0,0,,,,,,0.0,,,,,,,
3762564,1745472361582,,,,,,,,,,,,,,,,,,,,,,,,,,,,,,,,,,0,0,0,0,0,0,0,0,0,0,0,0,0,0,0,0,,,,,,,,,,,,,
3762584,1745472361601,0.0,135,,-0.05,0.04,0.94,-0,-0,-0,0.94,1.35,70,4871,3.8,3.75,,12.75,1.248,89.8,,40.8,5,0,0,0,0,0.0,0.0,0.0,0.0,2.28,,,0,0,0,0,0,0,0,0,0,0,0,0,0,0,0,0,,0,,,,0.0,38.994102,-76.939636,0.07,26.4,31,3,0.9
3762604,1745472361621,,,,,,,,,,,,,,,,,,,,,,,,,,,,,,,,,,0,0,0,0,0,0,0,0,0,0,0,0,0,0,0,0,,,,,,,,,,,,,
3762624,1745472361641,0.0,135,,-0.06,-0.0,0.94,-1,-0,0,0.94,1.35,70,4850,0.0,2.44,,11.83,1.248,89.8,,41.9,5,,,,,,,,,,,,0,0,0,0,0,0,0,0,0,0,0,0,0,0,0,0,,,,,,0.0,,,,,,,
3762644,1745472361661,,,,,,,,,,,,,,,,,,,,,,,,,,,,,,,,,,0,0,0,0,0,0,0,0,0,0,0,0,0,0,0,0,,,,,,,,,,,,,
3762664,1745472361681,0.0,135,,-0.03,-0.01,0.87,-2,-0,-0,0.87,1.35,64,4730,0.0,2.42,,11.28,1.24,89.8,,41.9,5,,,,,,,,,,,,0,0,0,0,0,0,0,0,0,0,0,0,0,0,0,0,,,,,,0.0,,,,,,,
3762684,1745472361701,,,,,,,,,,,,,,,,,,,,,,,0,0,0,0,0.0,0.0,0.0,0.0,2.28,,,0,0,0,0,0,0,0,0,0,0,0,0,0,0,0,0,,0,,,,,38.994102,-76.939636,0.1,26.4,31,3,0.9
3762704,1745472361721,0.0,135,,-0.02,-0.01,0.84,-1,-0,-0,0.84,1.35,63,4522,0.0,2.42,,11.01,1.248,89.8,,41.9,5,,,,,,,,,,,,0,0,0,0,0,0,0,0,0,0,0,0,0,0,0,0,,,,,,0.0,,,,,,,
3762724,1745472361741,,,,,,,,,,,,,,,,,,,,,,,,,,,,,,,,,,0,0,0,0,0,0,0,0,0,0,0,0,0,0,0,0,,,,,,,,,,,,,
3762744,1745472361761,0.0,135,,-0.01,-0.05,0.78,-1,-0,-1,0.78,1.35,58,4415,0.0,2.31,,11.01,1.248,89.8,,38.7,5,,,,,,,,,,,,0,0,0,0,0,0,0,0,0,0,0,0,0,0,0,0,,,,,,0.0,,,,,,,
3762764,1745472361781,,,,,,,,,,,,,,,,,,,,,,,,,,,,,,,,,,0,0,0,0,0,0,0,0,0,0,0,0,0,0,0,0,,,,,,,,,,,,,
3762784,1745472361801,0.0,135,,0.01,-0.14,0.73,-3,-0,-1,0.75,1.35,56,4415,0.0,2.31,,11.04,1.25,89.8,,38.7,5,0,0,0,0,0.0,0.0,0.0,0.0,2.27,,,0,0,0,0,0,0,0,0,0,0,0,0,0,0,0,0,,0,,,,0.0,38.994102,-76.939636,0.04,26.4,31,3,0.9
3762804,1745472361821,,,,,,,,,,,,,,,,,,,,,,,,,,,,,,,,,,0,0,0,0,0,0,0,0,0,0,0,0,0,0,0,0,,,,,,,,,,,,,
3762824,1745472361841,0.0,135,,-0.01,-0.01,0.87,-0,-0,-0,0.87,1.35,64,4230,15.5,4.06,,12.0,1.251,89.8,,35.7,5,,,,,,,,,,,,0,0,0,0,0,0,0,0,0,0,0,0,0,0,0,0,,,,,,0.0,,,,,,,
3762844,1745472361861,,,,,,,,,,,,,,,,,,,,,,,,,,,,,,,,,,0,0,0,0,0,0,0,0,0,0,0,0,0,0,0,0,,,,,,,,,,,,,
3762864,1745472361881,0.0,135,,-0.02,-0.01,0.84,-1,-0,-0,0.84,1.35,63,4207,25.9,4.52,,13.32,1.25,89.8,,35.7,5,,,,,,,,,,,,0,0,0,0,0,0,0,0,0,0,0,0,0,0,0,0,,,,,,0.0,,,,,,,
3762884,1745472361902,,,,,,,,,,,,,,,,,,,,,,,0,0,0,0,0.0,0.0,0.0,0.0,2.26,,,0,0,0,0,0,0,0,0,0,0,0,0,0,0,0,0,,0,,,,,38.994102,-76.939636,0.05,26.4,31,3,0.9
3762904,1745472361922,0.0,125,,-0.01,-0.08,0.76,-2,-0,-1,0.77,1.35,57,4299,32.1,5.08,,13.99,1.25,89.8,,35.7,5,,,,,,,,,,,,0,0,0,0,0,0,0,0,0,0,0,0,0,0,0,0,,,,,,0.0,,,,,,,
3762924,1745472361942,,,,,,,,,,,,,,,,,,,,,,,,,,,,,,,,,,0,0,0,0,0,0,0,0,0,0,0,0,0,0,0,0,,,,,,,,,,,,,
3762944,1745472361962,0.0,132,,0.01,-0.12,0.71,-3,-0,-1,0.72,1.35,53,4613,30.2,4.88,,13.99,1.25,89.8,,37.0,5,,,,,,,,,,,,0,0,0,0,0,0,0,0,0,0,0,0,0,0,0,0,,,,,,0.0,,,,,,,
3762964,1745472361982,,,,,,,,,,,,,,,,,,,,,,,,,,,,,,,,,,0,0,0,0,0,0,0,0,0,0,0,0,0,0,0,0,,,,,,,,,,,,,
3762984,1745472362002,0.0,135,,-0.0,-0.09,0.74,-2,-0,-1,0.75,1.35,56,4613,30.2,4.88,,13.92,1.248,89.8,,37.0,5,0,0,0,0,0.0,0.0,0.0,0.0,2.27,,,0,0,0,0,0,0,0,0,0,0,0,0,0,0,0,0,,0,,,,0.0,38.994102,-76.939636,0.05,26.4,31,3,0.9
3763004,1745472362013,,,,,,,,,,,,,,,,,,,,,,,,,,,,,,,,,,0,0,0,0,0,0,0,0,0,0,0,0,0,0,0,0,,,,,,,,,,,,,
3763024,1745472362033,0.0,134,,-0.01,-0.06,0.79,-1,-0,-1,0.79,1.35,59,5035,2.1,3.17,,12.8,1.25,89.8,,43.6,5,,,,,,,,,,,,0,0,0,0,0,0,0,0,0,0,0,0,0,0,0,0,,,,,,0.0,,,,,,,
3763044,1745472362053,,,,,,,,,,,,,,,,,,,,,,,,,,,,,,,,,,0,0,0,0,0,0,0,0,0,0,0,0,0,0,0,0,,,,,,,,,,,,,
3763064,1745472362073,0.0,135,,-0.01,-0.09,0.75,-2,-0,-1,0.76,1.35,56,5042,0.0,2.33,,11.68,1.249,89.8,,43.6,5,,,,,,,,,,,,0,0,0,0,0,0,0,0,0,0,0,0,0,0,0,0,,,,,,0.0,,,,,,,
3763084,1745472362101,,,,,,,,,,,,,,,,,,,,,,,0,0,0,0,0.0,0.0,0.0,0.0,2.28,,,0,0,0,0,0,0,0,0,0,0,0,0,0,0,0,0,,0,,,,,38.994102,-76.939636,0.04,26.4,31,3,0.9
3763104,1745472362121,0.0,135,,-0.04,-0.03,0.85,-1,-0,-0,0.85,1.35,63,4913,0.0,2.39,,11.18,1.214,89.8,,43.6,5,,,,,,,,,,,,0,0,0,0,0,0,0,0,0,0,0,0,0,0,0,0,,,,,,0.0,,,,,,,
3763124,1745472362141,,,,,,,,,,,,,,,,,,,,,,,,,,,,,,,,,,0,0,0,0,0,0,0,0,0,0,0,0,0,0,0,0,,,,,,,,,,,,,
3763144,1745472362161,0.0,135,,-0.05,-0.05,0.83,-2,-0,-0,0.83,1.35,62,4711,0.0,2.34,,11.18,1.214,89.8,,41.8,5,,,,,,,,,,,,0,0,0,0,0,0,0,0,0,0,0,0,0,0,0,0,,,,,,0.0,,,,,,,
3763164,1745472362181,,,,,,,,,,,,,,,,,,,,,,,,,,,,,,,,,,0,0,0,0,0,0,0,0,0,0,0,0,0,0,0,0,,,,,,,,,,,,,
3763184,1745472362201,0.0,135,,-0.02,-0.06,0.75,-3,-0,-0,0.76,1.35,56,4711,0.0,2.34,,10.9,1.228,89.8,,41.8,5,0,0,0,0,0.0,0.0,0.0,0.0,2.27,,,0,0,0,0,0,0,0,0,0,0,0,0,0,0,0,0,,0,,,,0.0,38.994102,-76.939636,0.04,26.4,31,3,0.9
3763204,1745472362218,,,,,,,,,,,,,,,,,,,,,,,,,,,,,,,,,,0,0,0,0,0,0,0,0,0,0,0,0,0,0,0,0,,,,,,,,,,,,,
3763224,1745472362238,0.0,135,,0.01,-0.13,0.69,-4,-0,-1,0.7,1.35,52,4507,3.5,3.34,,11.02,1.252,89.8,,37.8,5,,,,,,,,,,,,0,0,0,0,0,0,0,0,0,0,0,0,0,0,0,0,,,,,,0.0,,,,,,,
3763244,1745472362258,,,,,,,,,,,,,,,,,,,,,,,,,,,,,,,,,,0,0,0,0,0,0,0,0,0,0,0,0,0,0,0,0,,,,,,,,,,,,,
3763264,1745472362278,0.0,135,,0.01,-0.19,0.7,-5,-0,-0,0.73,1.35,54,4310,14.9,4.06,,12.01,1.252,89.8,,37.8,5,,,,,,,,,,,,0,0,0,0,0,0,0,0,0,0,0,0,0,0,0,0,,,,,,0.0,,,,,,,
3763284,1745472362301,,,,,,,,,,,,,,,,,,,,,,,0,0,0,0,0.0,0.0,0.0,0.0,2.27,,,0,0,0,0,0,0,0,0,0,0,0,0,0,0,0,0,,0,,,,,38.994102,-76.939636,0.04,26.4,32,3,0.9
3763304,1745472362321,0.0,135,,-0.03,-0.11,0.81,-3,-0,0,0.82,1.35,61,4355,24.8,4.42,,13.21,1.247,89.8,,37.8,5,,,,,,,,,,,,0,0,0,0,0,0,0,0,0,0,0,0,0,0,0,0,,,,,,0.0,,,,,,,
3763324,1745472362341,,,,,,,,,,,,,,,,,,,,,,,,,,,,,,,,,,0,0,0,0,0,0,0,0,0,0,0,0,0,0,0,0,,,,,,,,,,,,,
3763344,1745472362361,0.0,135,,-0.06,-0.01,0.93,-2,-0,0,0.93,1.35,69,4510,28.6,4.8,,13.21,1.247,89.8,,37.3,5,,,,,,,,,,,,0,0,0,0,0,0,0,0,0,0,0,0,0,0,0,0,,,,,,0.0,,,,,,,
3763364,1745472362381,,,,,,,,,,,,,,,,,,,,,,,,,,,,,,,,,,0,0,0,0,0,0,0,0,0,0,0,0,0,0,0,0,,,,,,,,,,,,,
3763384,1745472362401,0.0,134,13.49,-0.09,0.01,1.0,-1,-0,0,1.01,1.35,75,4510,28.6,4.8,15,13.87,1.1,89.8,173,37.3,5,0,0,0,0,0.0,0.0,0.0,0.0,2.27,0,1.0,0,0,0,0,0,0,0,0,0,0,0,0,0,0,0,0,0,0,1.0,0,-0,0.0,38.994102,-76.939636,0.05,26.4,32,3,0.9
3763404,1745472362421,,,,,,,,,,,,,,,,,,,,,,,,,,,,,,,,,,0,0,0,0,0,0,0,0,0,0,0,0,0,0,0,0,,,,,,,,,,,,,
3763424,1745472362441,0.0,135,,-0.08,-0.03,0.95,-2,-0,0,0.96,1.35,71,4746,28.3,4.74,,13.88,1.046,89.8,,40.8,5,,,,,,,,,,,,0,0,0,0,0,0,0,0,0,0,0,0,0,0,0,0,,,,,,0.0,,,,,,,
3763444,1745472362461,,,,,,,,,,,,,,,,,,,,,,,,,,,,,,,,,,0,0,0,0,0,0,0,0,0,0,0,0,0,0,0,0,,,,,,,,,,,,,
3763464,1745472362481,0.0,125,,-0.09,-0.02,0.99,-0,-0,0,0.99,1.35,74,4965,6.8,3.66,,13.05,1.118,89.8,,40.8,5,,,,,,,,,,,,0,0,0,0,0,0,0,0,0,0,0,0,0,0,0,0,,,,,,0.0,,,,,,,
3763484,1745472362501,,,,,,,,,,,,,,,,,,,,,,,0,0,0,0,0.0,0.0,0.0,0.0,2.28,,,0,0,0,0,0,0,0,0,0,0,0,0,0,0,0,0,,0,,,,,38.994102,-76.939636,0.0,26.4,32,3,0.9
3763504,1745472362521,0.0,125,,-0.08,0.0,1.0,-0,-0,0,1.0,1.35,74,5010,0.0,2.43,,13.05,1.118,89.8,,40.8,5,,,,,,,,,,,,0,0,0,0,0,0,0,0,0,0,0,0,0,0,0,0,,,,,,0.0,,,,,,,
3763524,1745472362541,,,,,,,,,,,,,,,,,,,,,,,,,,,,,,,,,,0,0,0,0,0,0,0,0,0,0,0,0,0,0,0,0,,,,,,,,,,,,,
3763544,1745472362561,0.0,135,,-0.09,-0.06,0.98,-1,-0,0,0.98,1.35,73,5010,0.0,2.43,,11.88,1.179,89.8,,42.9,5,,,,,,,,,,,,0,0,0,0,0,0,0,0,0,0,0,0,0,0,0,0,,,,,,0.0,,,,,,,
3763564,1745472362581,,,,,,,,,,,,,,,,,,,,,,,,,,,,,,,,,,0,0,0,0,0,0,0,0,0,0,0,0,0,0,0,0,,,,,,,,,,,,,
3763584,1745472362601,0.0,135,,-0.07,-0.04,0.97,-1,-0,-0,0.97,1.35,72,4848,0.0,2.4,,11.33,1.222,89.8,,42.9,5,0,0,0,0,0.0,0.0,0.0,0.0,2.27,,,0,0,0,0,0,0,0,0,0,0,0,0,0,0,0,0,,0,,,,0.0,38.994102,-76.939636,0.0,26.4,32,3,0.9
3763604,1745472362620,,,,,,,,,,,,,,,,,,,,,,,,,,,,,,,,,,0,0,0,0,0,0,0,0,0,0,0,0,0,0,0,0,,,,,,,,,,,,,
3763624,1745472362640,0.0,135,,-0.09,0.01,1.06,1,-0,0,1.07,1.35,79,4743,0.0,2.4,,11.02,1.226,89.8,,42.9,5,,,,,,,,,,,,0,0,0,0,0,0,0,0,0,0,0,0,0,0,0,0,,,,,,0.0,,,,,,,
3763644,1745472362660,,,,,,,,,,,,,,,,,,,,,,,,,,,,,,,,,,0,0,0,0,0,0,0,0,0,0,0,0,0,0,0,0,,,,,,,,,,,,,
3763664,1745472362680,0.0,135,,-0.12,0.06,1.11,1,-0,0,1.11,1.35,83,4658,1.2,2.27,,11.02,1.252,89.8,,39.5,5,,,,,,,,,,,,0,0,0,0,0,0,0,0,0,0,0,0,0,0,0,0,,,,,,0.0,,,,,,,
3763684,1745472362702,,,,,,,,,,,,,,,,,,,,,,,0,0,0,0,0.0,0.0,0.0,0.0,2.27,,,0,0,0,0,0,0,0,0,0,0,0,0,0,0,0,0,,0,,,,,38.994102,-76.939636,0.0,26.4,32,3,0.9
3763704,1745472362722,0.0,134,,-0.15,0.1,1.17,2,-0,1,1.18,1.35,88,4460,20.4,4.17,,11.02,1.252,89.8,,39.5,5,,,,,,,,,,,,0,0,0,0,0,0,0,0,0,0,0,0,0,0,0,0,,,,,,0.0,,,,,,,
3763724,1745472362742,,,,,,,,,,,,,,,,,,,,,,,,,,,,,,,,,,0,0,0,0,0,0,0,0,0,0,0,0,0,0,0,0,,,,,,,,,,,,,
3763744,1745472362762,0.0,134,,-0.16,0.17,1.25,3,-0,1,1.27,1.35,95,4460,20.4,4.17,,12.25,1.231,89.8,,37.8,5,,,,,,,,,,,,0,0,0,0,0,0,0,0,0,0,0,0,0,0,0,0,,,,,,0.0,,,,,,,
3763764,1745472362782,,,,,,,,,,,,,,,,,,,,,,,,,,,,,,,,,,0,0,0,0,0,0,0,0,0,0,0,0,0,0,0,0,,,,,,,,,,,,,
3763784,1745472362802,0.0,135,,-0.18,0.19,1.28,3,-0,1,1.31,1.35,97,4581,37.7,4.72,,13.88,1.196,89.8,,37.8,5,0,0,0,0,0.0,0.0,0.0,0.0,2.27,,,0,0,0,0,0,0,0,0,0,0,0,0,0,0,0,0,,0,,,,0.0,38.994102,-76.939636,0.0,26.4,32,3,0.9
3763804,1745472362820,,,,,,,,,,,,,,,,,,,,,,,,,,,,,,,,,,0,0,0,0,0,0,0,0,0,0,0,0,0,0,0,0,,,,,,,,,,,,,
3763824,1745472362840,0.0,135,,-0.16,0.11,1.22,2,-0,1,1.23,1.35,92,4824,41.7,4.6,,14.15,1.194,89.8,,37.8,5,,,,,,,,,,,,0,0,0,0,0,0,0,0,0,0,0,0,0,0,0,0,,,,,,0.0,,,,,,,
3763844,1745472362860,,,,,,,,,,,,,,,,,,,,,,,,,,,,,,,,,,0,0,0,0,0,0,0,0,0,0,0,0,0,0,0,0,,,,,,,,,,,,,
3763864,1745472362880,0.0,129,,-0.16,0.1,1.2,2,-0,0,1.22,1.35,90,5026,39.4,4.75,,14.2,1.234,89.8,,41.8,5,,,,,,,,,,,,0,0,0,0,0,0,0,0,0,0,0,0,0,0,0,0,,,,,,0.0,,,,,,,
3763884,1745472362900,,,,,,,,,,,,,,,,,,,,,,,0,0,0,0,0.0,0.0,0.0,0.0,2.28,,,0,0,0,0,0,0,0,0,0,0,0,0,0,0,0,0,,0,,,,,38.994102,-76.939636,0.0,26.4,32,3,0.9
3763904,1745472362920,0.0,129,,-0.14,0.06,1.17,2,-0,0,1.18,1.35,88,5348,7.3,3.96,,14.2,1.234,89.8,,41.8,5,,,,,,,,,,,,0,0,0,0,0,0,0,0,0,0,0,0,0,0,0,0,,,,,,0.0,,,,,,,
3763924,1745472362940,,,,,,,,,,,,,,,,,,,,,,,,,,,,,,,,,,0,0,0,0,0,0,0,0,0,0,0,0,0,0,0,0,,,,,,,,,,,,,
3763944,1745472362960,0.0,135,,-0.13,0.1,1.18,2,-0,0,1.19,1.35,88,5348,7.3,3.96,,12.95,1.248,89.8,,45.9,5,,,,,,,,,,,,0,0,0,0,0,0,0,0,0,0,0,0,0,0,0,0,,,,,,0.0,,,,,,,
3763964,1745472362980,,,,,,,,,,,,,,,,,,,,,,,,,,,,,,,,,,0,0,0,0,0,0,0,0,0,0,0,0,0,0,0,0,,,,,,,,,,,,,
3763984,1745472363000,0.0,132,,-0.14,0.05,1.12,1,-0,0,1.13,1.35,84,5460,0.0,1.97,,11.57,1.25,89.8,,45.9,5,0,0,0,0,0.0,0.0,0.0,0.0,2.28,,,0,0,0,0,0,0,0,0,0,0,0,0,0,0,0,0,,0,,,,0.0,38.994102,-76.939636,0.04,26.4,32,3,0.9
3764004,1745472363014,,,,,,,,,,,,,,,,,,,,,,,,,,,,,,,,,,0,0,0,0,0,0,0,0,0,0,0,0,0,0,0,0,,,,,,,,,,,,,
3764024,1745472363034,0.0,135,,-0.13,0.09,1.1,1,-0,0,1.11,1.35,83,5475,0.0,1.9,,10.89,1.249,89.8,,45.9,5,,,,,,,,,,,,0,0,0,0,0,0,0,0,0,0,0,0,0,0,0,0,,,,,,0.0,,,,,,,
3764044,1745472363054,,,,,,,,,,,,,,,,,,,,,,,,,,,,,,,,,,0,0,0,0,0,0,0,0,0,0,0,0,0,0,0,0,,,,,,,,,,,,,
3764064,1745472363074,0.0,135,,-0.13,0.08,1.11,1,-0,0,1.12,1.35,83,5225,0.0,1.64,,10.48,1.252,89.8,,46.5,5,,,,,,,,,,,,0,0,0,0,0,0,0,0,0,0,0,0,0,0,0,0,,,,,,0.0,,,,,,,
3764084,1745472363094,,,,,,,,,,,,,,,,,,,,,,,0,0,0,0,0.0,0.0,0.0,0.0,2.27,,,0,0,0,0,0,0,0,0,0,0,0,0,0,0,0,0,,0,,,,,38.994102,-76.939636,0.0,26.4,32,3,0.9
3764104,1745472363118,0.0,134,,-0.1,0.06,1.07,1,-0,0,1.07,1.35,80,4927,10.4,2.88,,10.48,1.252,89.8,,46.5,5,,,,,,,,,,,,0,0,0,0,0,0,0,0,0,0,0,0,0,0,0,0,,,,,,0.0,,,,,,,
3764124,1745472363138,,,,,,,,,,,,,,,,,,,,,,,,,,,,,,,,,,0,0,0,0,0,0,0,0,0,0,0,0,0,0,0,0,,,,,,,,,,,,,
3764144,1745472363158,0.0,135,,-0.11,0.12,1.14,2,-0,0,1.15,1.35,85,4927,10.4,2.88,,11.06,1.252,89.8,,41.8,5,,,,,,,,,,,,0,0,0,0,0,0,0,0,0,0,0,0,0,0,0,0,,,,,,0.0,,,,,,,
3764164,1745472363178,,,,,,,,,,,,,,,,,,,,,,,,,,,,,,,,,,0,0,0,0,0,0,0,0,0,0,0,0,0,0,0,0,,,,,,,,,,,,,
3764184,1745472363198,0.0,132,,-0.14,0.11,1.11,1,-0,0,1.13,1.35,84,4680,27.7,4.54,,12.88,1.251,88.0,,41.8,5,0,0,0,0,0.0,0.0,0.0,0.0,2.27,,,0,0,0,0,0,0,0,0,0,0,0,0,0,0,0,0,,0,,,,0.0,38.994102,-76.939636,0.04,26.4,32,3,0.9
3764204,1745472363218,,,,,,,,,,,,,,,,,,,,,,,,,,,,,,,,,,0,0,0,0,0,0,0,0,0,0,0,0,0,0,0,0,,,,,,,,,,,,,
3764224,1745472363238,0.0,135,,-0.12,0.13,1.08,1,-0,0,1.1,1.35,81,4819,34.5,5.05,,13.98,1.25,88.0,,41.8,5,,,,,,,,,,,,0,0,0,0,0,0,0,0,0,0,0,0,0,0,0,0,,,,,,0.0,,,,,,,
3764244,1745472363258,,,,,,,,,,,,,,,,,,,,,,,,,,,,,,,,,,0,0,0,0,0,0,0,0,0,0,0,0,0,0,0,0,,,,,,,,,,,,,
3764264,1745472363278,0.0,135,,-0.12,0.09,1.06,1,-0,0,1.07,1.35,80,5111,35.3,5.08,,14.0,1.25,88.0,,41.7,5,,,,,,,,,,,,0,0,0,0,0,0,0,0,0,0,0,0,0,0,0,0,,,,,,0.0,,,,,,,
3764284,1745472363298,,,,,,,,,,,,,,,,,,,,,,,0,0,0,0,0.0,0.0,0.0,0.0,2.27,,,0,0,0,0,0,0,0,0,0,0,0,0,0,0,0,0,,0,,,,,38.994102,-76.939636,0.08,26.4,32,3,0.9
3764304,1745472363320,0.0,135,,-0.12,0.07,1.07,1,-0,0,1.08,1.35,80,5442,15.8,4.29,,14.0,1.25,88.0,,41.7,5,,,,,,,,,,,,0,0,0,0,0,0,0,0,0,0,0,0,0,0,0,0,,,,,,0.0,,,,,,,
3764324,1745472363340,,,,,,,,,,,,,,,,,,,,,,,,,,,,,,,,,,0,0,0,0,0,0,0,0,0,0,0,0,0,0,0,0,,,,,,,,,,,,,
3764344,1745472363360,0.0,135,,-0.09,0.03,1.01,0,-0,0,1.01,1.35,75,5442,15.8,4.29,,13.49,1.249,88.0,,46.3,5,,,,,,,,,,,,0,0,0,0,0,0,0,0,0,0,0,0,0,0,0,0,,,,,,0.0,,,,,,,
3764364,1745472363380,,,,,,,,,,,,,,,,,,,,,,,,,,,,,,,,,,0,0,0,0,0,0,0,0,0,0,0,0,0,0,0,0,,,,,,,,,,,,,
3764384,1745472363400,0.0,134,13.5,-0.13,0.08,1.04,0,-0,0,1.05,1.35,78,5590,0.0,2.05,15,11.67,1.249,88.0,173,46.3,5,0,0,0,0,0.0,0.0,0.0,0.0,2.28,0,1.0,0,0,0,0,0,0,0,0,0,0,0,0,0,0,0,0,0,0,1.0,0,-0,0.0,38.994102,-76.939636,0.08,26.4,32,3,0.9
3764404,1745472363420,,,,,,,,,,,,,,,,,,,,,,,,,,,,,,,,,,0,0,0,0,0,0,0,0,0,0,0,0,0,0,0,0,,,,,,,,,,,,,
3764424,1745472363440,0.0,135,,-0.08,0.07,1.08,1,-0,0,1.09,1.35,81,5753,0.0,1.65,,10.77,1.25,88.0,,46.3,5,,,,,,,,,,,,0,0,0,0,0,0,0,0,0,0,0,0,0,0,0,0,,,,,,0.0,,,,,,,
3764444,1745472363460,,,,,,,,,,,,,,,,,,,,,,,,,,,,,,,,,,0,0,0,0,0,0,0,0,0,0,0,0,0,0,0,0,,,,,,,,,,,,,
3764464,1745472363480,0.0,135,,-0.09,0.04,1.06,1,-0,-0,1.07,1.35,79,5487,0.0,1.4,,10.25,1.198,88.0,,46.4,5,,,,,,,,,,,,0,0,0,0,0,0,0,0,0,0,0,0,0,0,0,0,,,,,,0.0,,,,,,,
3764484,1745472363501,,,,,,,,,,,,,,,,,,,,,,,0,0,0,0,0.0,0.0,0.0,0.0,2.27,,,0,0,0,0,0,0,0,0,0,0,0,0,0,0,0,0,,0,,,,,38.994102,-76.939636,0.04,26.4,32,3,0.9
3764504,1745472363521,0.0,135,,-0.07,-0.01,1.05,1,-0,-0,1.06,1.35,78,5142,0.0,1.58,,10.25,1.198,88.0,,46.4,5,,,,,,,,,,,,0,0,0,0,0,0,0,0,0,0,0,0,0,0,0,0,,,,,,0.0,,,,,,,
3764524,1745472363541,,,,,,,,,,,,,,,,,,,,,,,,,,,,,,,,,,0,0,0,0,0,0,0,0,0,0,0,0,0,0,0,0,,,,,,,,,,,,,
3764544,1745472363561,0.0,135,,-0.1,-0.01,1.05,0,-0,-0,1.05,1.35,78,5142,0.0,1.58,,10.22,1.202,88.0,,43.3,5,,,,,,,,,,,,0,0,0,0,0,0,0,0,0,0,0,0,0,0,0,0,,,,,,0.0,,,,,,,
3764564,1745472363581,,,,,,,,,,,,,,,,,,,,,,,,,,,,,,,,,,0,0,0,0,0,0,0,0,0,0,0,0,0,0,0,0,,,,,,,,,,,,,
3764584,1745472363601,0.0,135,,-0.1,-0.02,1.02,-1,-0,0,1.02,1.35,76,4778,16.4,2.96,,11.3,1.252,88.0,,43.3,5,0,0,0,0,0.0,0.0,0.0,0.0,2.27,,,0,0,0,0,0,0,0,0,0,0,0,0,0,0,0,0,,0,,,,0.0,38.994102,-76.939636,0.04,26.4,32,3,0.9
3764604,1745472363619,,,,,,,,,,,,,,,,,,,,,,,,,,,,,,,,,,0,0,0,0,0,0,0,0,0,0,0,0,0,0,0,0,,,,,,,,,,,,,
3764624,1745472363639,0.0,135,,-0.07,-0.06,0.96,-1,-0,-0,0.97,1.35,72,4567,33.1,4.97,,13.36,1.252,88.0,,43.3,5,,,,,,,,,,,,0,0,0,0,0,0,0,0,0,0,0,0,0,0,0,0,,,,,,0.0,,,,,,,
3764644,1745472363659,,,,,,,,,,,,,,,,,,,,,,,,,,,,,,,,,,0,0,0,0,0,0,0,0,0,0,0,0,0,0,0,0,,,,,,,,,,,,,
3764664,1745472363679,0.0,135,,-0.08,-0.04,1.02,0,-0,0,1.02,1.35,76,4757,38.2,4.77,,14.06,1.25,88.0,,38.9,5,,,,,,,,,,,,0,0,0,0,0,0,0,0,0,0,0,0,0,0,0,0,,,,,,0.0,,,,,,,
3764684,1745472363699,,,,,,,,,,,,,,,,,,,,,,,0,0,0,0,0.0,0.0,0.0,0.0,2.27,,,0,0,0,0,0,0,0,0,0,0,0,0,0,0,0,0,,0,,,,,38.994102,-76.939636,0.04,26.4,32,3,0.9
3764704,1745472363719,0.0,134,,-0.08,-0.06,0.99,0,-0,-0,1.0,1.35,74,4942,35.1,4.64,,14.06,1.25,88.0,,38.9,5,,,,,,,,,,,,0,0,0,0,0,0,0,0,0,0,0,0,0,0,0,0,,,,,,0.0,,,,,,,
3764724,1745472363739,,,,,,,,,,,,,,,,,,,,,,,,,,,,,,,,,,0,0,0,0,0,0,0,0,0,0,0,0,0,0,0,0,,,,,,,,,,,,,
3764744,1745472363759,0.0,134,,-0.08,-0.05,0.98,0,-0,-0,0.99,1.35,73,4942,35.1,4.64,,14.02,1.249,88.0,,42.6,5,,,,,,,,,,,,0,0,0,0,0,0,0,0,0,0,0,0,0,0,0,0,,,,,,0.0,,,,,,,
3764764,1745472363779,,,,,,,,,,,,,,,,,,,,,,,,,,,,,,,,,,0,0,0,0,0,0,0,0,0,0,0,0,0,0,0,0,,,,,,,,,,,,,
3764784,1745472363799,0.0,134,,-0.07,-0.02,1.0,0,-0,-0,1.0,1.35,74,5299,2.7,3.34,,12.67,1.249,88.0,,42.6,5,0,0,0,0,0.0,0.0,0.0,0.0,2.28,,,0,0,0,0,0,0,0,0,0,0,0,0,0,0,0,0,,0,,,,0.0,38.994102,-76.939636,0.04,26.4,32,3,0.9
3764804,1745472363819,,,,,,,,,,,,,,,,,,,,,,,,,,,,,,,,,,0,0,0,0,0,0,0,0,0,0,0,0,0,0,0,0,,,,,,,,,,,,,
3764824,1745472363839,0.0,134,,-0.06,-0.03,0.99,-0,-0,-0,0.99,1.35,73,5320,0.0,2.13,,11.49,1.249,88.0,,42.6,5,,,,,,,,,,,,0,0,0,0,0,0,0,0,0,0,0,0,0,0,0,0,,,,,,0.0,,,,,,,
3764844,1745472363859,,,,,,,,,,,,,,,,,,,,,,,,,,,,,,,,,,0,0,0,0,0,0,0,0,0,0,0,0,0,0,0,0,,,,,,,,,,,,,
3764864,1745472363879,0.0,132,,-0.06,-0.01,0.97,-1,-0,-0,0.97,1.35,72,5129,0.0,2.24,,10.97,1.249,88.0,,45.8,5,,,,,,,,,,,,0,0,0,0,0,0,0,0,0,0,0,0,0,0,0,0,,,,,,0.0,,,,,,,
3764884,1745472363899,,,,,,,,,,,,,,,,,,,,,,,0,0,0,0,0.0,0.0,0.0,0.0,2.28,,,0,0,0,0,0,0,0,0,0,0,0,0,0,0,0,0,,0,,,,,38.994102,-76.939636,0.05,26.4,32,3,0.9
3764904,1745472363919,0.0,132,,-0.09,0.03,1.02,0,-0,0,1.03,1.35,76,4963,0.0,2.06,,10.97,1.249,88.0,,45.8,5,,,,,,,,,,,,0,0,0,0,0,0,0,0,0,0,0,0,0,0,0,0,,,,,,0.0,,,,,,,
3764924,1745472363939,,,,,,,,,,,,,,,,,,,,,,,,,,,,,,,,,,0,0,0,0,0,0,0,0,0,0,0,0,0,0,0,0,,,,,,,,,,,,,
3764944,1745472363959,0.0,135,,-0.07,-0.06,0.95,-1,-0,-0,0.95,1.35,71,4963,0.0,2.06,,10.74,1.249,88.0,,41.9,5,,,,,,,,,,,,0,0,0,0,0,0,0,0,0,0,0,0,0,0,0,0,,,,,,0.0,,,,,,,
3764964,1745472363979,,,,,,,,,,,,,,,,,,,,,,,,,,,,,,,,,,0,0,0,0,0,0,0,0,0,0,0,0,0,0,0,0,,,,,,,,,,,,,
3764984,1745472363999,0.0,135,,-0.04,-0.12,0.89,-1,-0,-0,0.89,1.35,66,4735,0.0,1.83,,10.61,1.252,88.0,,41.9,5,0,0,0,0,0.0,0.0,0.0,0.0,2.28,,,0,0,0,0,0,0,0,0,0,0,0,0,0,0,0,0,,0,,,,0.0,38.994102,-76.939636,0.05,26.4,32,3,0.9
3765004,1745472364011,,,,,,,,,,,,,,,,,,,,,,,,,,,,,,,,,,0,0,0,0,0,0,0,0,0,0,0,0,0,0,0,0,,,,,,,,,,,,,
3765024,1745472364031,0.0,135,,-0.02,-0.21,0.78,-3,-0,-1,0.81,1.35,60,4452,11.8,3.17,,11.3,1.252,88.0,,41.9,5,,,,,,,,,,,,0,0,0,0,0,0,0,0,0,0,0,0,0,0,0,0,,,,,,0.0,,,,,,,
3765044,1745472364051,,,,,,,,,,,,,,,,,,,,,,,,,,,,,,,,,,0,0,0,0,0,0,0,0,0,0,0,0,0,0,0,0,,,,,,,,,,,,,
3765064,1745472364071,0.0,135,,-0.02,-0.2,0.83,-2,-0,-0,0.85,1.35,63,4309,29.7,4.82,,13.2,1.252,88.0,,36.8,5,,,,,,,,,,,,0,0,0,0,0,0,0,0,0,0,0,0,0,0,0,0,,,,,,0.0,,,,,,,
3765084,1745472364091,,,,,,,,,,,,,,,,,,,,,,,0,0,0,0,0.0,0.0,0.0,0.0,2.27,,,0,0,0,0,0,0,0,0,0,0,0,0,0,0,0,0,,0,,,,,38.994102,-76.939636,0.04,26.4,32,3,0.9
3765104,1745472364119,0.0,134,,-0.06,-0.06,0.96,-1,-0,0,0.97,1.35,72,4344,41.0,4.4,,13.2,1.252,88.0,,36.8,5,,,,,,,,,,,,0,0,0,0,0,0,0,0,0,0,0,0,0,0,0,0,,,,,,0.0,,,,,,,
3765124,1745472364139,,,,,,,,,,,,,,,,,,,,,,,,,,,,,,,,,,0,0,0,0,0,0,0,0,0,0,0,0,0,0,0,0,,,,,,,,,,,,,
3765144,1745472364159,0.0,134,,-0.09,0.0,1.06,1,-0,0,1.06,1.35,79,4344,41.0,4.4,,14.19,1.251,88.0,,36.8,5,,,,,,,,,,,,0,0,0,0,0,0,0,0,0,0,0,0,0,0,0,0,,,,,,0.0,,,,,,,
3765164,1745472364179,,,,,,,,,,,,,,,,,,,,,,,,,,,,,,,,,,0,0,0,0,0,0,0,0,0,0,0,0,0,0,0,0,,,,,,,,,,,,,
3765184,1745472364199,0.0,135,,-0.11,0.02,1.05,-0,-0,0,1.06,1.35,78,4529,42.4,4.76,,14.31,1.249,88.0,,36.8,5,0,0,0,0,0.0,0.0,0.0,0.0,2.27,,,0,0,0,0,0,0,0,0,0,0,0,0,0,0,0,0,,0,,,,0.0,38.994102,-76.939636,0.04,26.4,32,3,0.9
3765204,1745472364219,,,,,,,,,,,,,,,,,,,,,,,,,,,,,,,,,,0,0,0,0,0,0,0,0,0,0,0,0,0,0,0,0,,,,,,,,,,,,,
3765224,1745472364239,0.0,134,,-0.09,0.05,1.04,0,-0,0,1.04,1.35,77,4777,29.8,4.94,,13.96,1.249,88.0,,36.8,5,,,,,,,,,,,,0,0,0,0,0,0,0,0,0,0,0,0,0,0,0,0,,,,,,0.0,,,,,,,
3765244,1745472364259,,,,,,,,,,,,,,,,,,,,,,,,,,,,,,,,,,0,0,0,0,0,0,0,0,0,0,0,0,0,0,0,0,,,,,,,,,,,,,
3765264,1745472364279,0.0,132,,-0.08,-0.01,1.02,-0,-0,0,1.02,1.35,76,4911,5.2,3.66,,12.95,1.25,88.0,,40.8,5,,,,,,,,,,,,0,0,0,0,0,0,0,0,0,0,0,0,0,0,0,0,,,,,,0.0,,,,,,,
3765284,1745472364301,,,,,,,,,,,,,,,,,,,,,,,0,0,0,0,0.0,0.0,0.0,0.0,2.28,,,0,0,0,0,0,0,0,0,0,0,0,0,0,0,0,0,,0,,,,,38.994102,-76.939636,0.0,26.5,32,3,0.9
3765304,1745472364321,0.0,135,,-0.09,0.05,1.04,1,-0,0,1.05,1.35,78,5042,0.0,2.43,,12.95,1.25,88.0,,40.8,5,,,,,,,,,,,,0,0,0,0,0,0,0,0,0,0,0,0,0,0,0,0,,,,,,0.0,,,,,,,
3765324,1745472364341,,,,,,,,,,,,,,,,,,,,,,,,,,,,,,,,,,0,0,0,0,0,0,0,0,0,0,0,0,0,0,0,0,,,,,,,,,,,,,
3765344,1745472364361,0.0,134,,-0.07,0.02,1.01,1,-0,0,1.01,1.35,75,5042,0.0,2.43,,11.91,1.249,88.0,,42.3,5,,,,,,,,,,,,0,0,0,0,0,0,0,0,0,0,0,0,0,0,0,0,,,,,,0.0,,,,,,,
3765364,1745472364381,,,,,,,,,,,,,,,,,,,,,,,,,,,,,,,,,,0,0,0,0,0,0,0,0,0,0,0,0,0,0,0,0,,,,,,,,,,,,,
3765384,1745472364401,0.0,135,13.54,-0.1,0.06,1.07,1,-0,0,1.08,1.35,80,4916,0.0,2.41,15,11.32,1.249,88.0,173,42.3,5,0,0,0,0,0.0,0.0,0.0,0.0,2.29,0,1.0,0,0,0,0,0,0,0,0,0,0,0,0,0,0,0,0,0,0,1.0,0,-0,0.0,38.994102,-76.939636,0.0,26.5,32,3,0.9
3765404,1745472364421,,,,,,,,,,,,,,,,,,,,,,,,,,,,,,,,,,0,0,0,0,0,0,0,0,0,0,0,0,0,0,0,0,,,,,,,,,,,,,
3765424,1745472364441,0.0,134,,-0.09,-0.01,1.02,-0,-0,0,1.02,1.35,76,4739,0.0,2.41,,11.02,1.251,88.0,,42.3,5,,,,,,,,,,,,0,0,0,0,0,0,0,0,0,0,0,0,0,0,0,0,,,,,,0.0,,,,,,,
3765444,1745472364461,,,,,,,,,,,,,,,,,,,,,,,,,,,,,,,,,,0,0,0,0,0,0,0,0,0,0,0,0,0,0,0,0,,,,,,,,,,,,,
3765464,1745472364481,0.0,135,,-0.06,-0.08,0.93,-2,-0,0,0.93,1.35,69,4532,7.4,3.77,,11.29,1.252,88.0,,39.0,5,,,,,,,,,,,,0,0,0,0,0,0,0,0,0,0,0,0,0,0,0,0,,,,,,0.0,,,,,,,
3765484,1745472364501,,,,,,,,,,,,,,,,,,,,,,,0,0,0,0,0.0,0.0,0.0,0.0,2.27,,,0,0,0,0,0,0,0,0,0,0,0,0,0,0,0,0,,0,,,,,38.994102,-76.939636,0.0,26.5,32,3,0.9
3765504,1745472364519,0.0,134,,-0.05,-0.18,0.87,-3,-0,0,0.89,1.35,66,4391,19.8,4.25,,11.29,1.252,88.0,,39.0,5,,,,,,,,,,,,0,0,0,0,0,0,0,0,0,0,0,0,0,0,0,0,,,,,,0.0,,,,,,,
3765524,1745472364539,,,,,,,,,,,,,,,,,,,,,,,,,,,,,,,,,,0,0,0,0,0,0,0,0,0,0,0,0,0,0,0,0,,,,,,,,,,,,,
3765544,1745472364559,0.0,134,,-0.04,-0.21,0.87,-4,-0,0,0.9,1.35,67,4391,19.8,4.25,,12.49,1.252,88.0,,36.5,5,,,,,,,,,,,,0,0,0,0,0,0,0,0,0,0,0,0,0,0,0,0,,,,,,0.0,,,,,,,
3765564,1745472364579,,,,,,,,,,,,,,,,,,,,,,,,,,,,,,,,,,0,0,0,0,0,0,0,0,0,0,0,0,0,0,0,0,,,,,,,,,,,,,
3765584,1745472364599,0.0,135,,-0.07,-0.22,0.89,-4,-0,1,0.92,1.35,68,4392,23.4,4.5,,13.36,1.252,88.0,,36.5,5,0,0,0,0,0.0,0.0,0.0,0.0,2.27,,,0,0,0,0,0,0,0,0,0,0,0,0,0,0,0,0,,0,,,,0.0,38.994102,-76.939636,0.04,26.5,32,3,0.9
3765604,1745472364620,,,,,,,,,,,,,,,,,,,,,,,,,,,,,,,,,,0,0,0,0,0,0,0,0,0,0,0,0,0,0,0,0,,,,,,,,,,,,,
3765624,1745472364640,0.0,135,,-0.05,-0.28,0.84,-6,-0,0,0.89,1.35,66,4604,19.6,4.19,,13.44,1.25,88.0,,36.5,5,,,,,,,,,,,,0,0,0,0,0,0,0,0,0,0,0,0,0,0,0,0,,,,,,0.0,,,,,,,
3765644,1745472364660,,,,,,,,,,,,,,,,,,,,,,,,,,,,,,,,,,0,0,0,0,0,0,0,0,0,0,0,0,0,0,0,0,,,,,,,,,,,,,
3765664,1745472364680,0.0,135,,-0.03,-0.29,0.8,-5,-0,0,0.85,1.35,63,4688,3.0,3.75,,12.64,1.248,88.0,,38.3,5,,,,,,,,,,,,0,0,0,0,0,0,0,0,0,0,0,0,0,0,0,0,,,,,,0.0,,,,,,,
3765684,1745472364700,,,,,,,,,,,,,,,,,,,,,,,0,0,0,0,0.0,0.0,0.0,0.0,2.27,,,0,0,0,0,0,0,0,0,0,0,0,0,0,0,0,0,,0,,,,,38.994102,-76.939636,0.0,26.5,32,3,0.9
3765704,1745472364718,0.0,135,,-0.02,-0.27,0.83,-4,-0,-0,0.88,1.35,65,4633,0.0,2.5,,12.64,1.248,88.0,,38.3,5,,,,,,,,,,,,0,0,0,0,0,0,0,0,0,0,0,0,0,0,0,0,,,,,,0.0,,,,,,,
3765724,1745472364738,,,,,,,,,,,,,,,,,,,,,,,,,,,,,,,,,,0,0,0,0,0,0,0,0,0,0,0,0,0,0,0,0,,,,,,,,,,,,,
3765744,1745472364758,0.0,134,,-0.02,-0.18,0.9,-2,-0,-0,0.92,1.35,69,4633,0.0,2.5,,11.93,1.243,88.0,,38.2,5,,,,,,,,,,,,0,0,0,0,0,0,0,0,0,0,0,0,0,0,0,0,,,,,,0.0,,,,,,,
3765764,1745472364778,,,,,,,,,,,,,,,,,,,,,,,,,,,,,,,,,,0,0,0,0,0,0,0,0,0,0,0,0,0,0,0,0,,,,,,,,,,,,,
3765784,1745472364798,0.0,134,,-0.03,-0.16,0.87,-2,-0,-0,0.89,1.35,66,4484,0.0,2.45,,11.45,1.221,88.0,,38.2,5,0,0,0,0,0.0,0.0,0.0,0.0,2.28,,,0,0,0,0,0,0,0,0,0,0,0,0,0,0,0,0,,0,,,,0.0,38.994102,-76.939636,0.05,26.5,32,3,0.9
3765804,1745472364820,,,,,,,,,,,,,,,,,,,,,,,,,,,,,,,,,,0,0,0,0,0,0,0,0,0,0,0,0,0,0,0,0,,,,,,,,,,,,,
3765824,1745472364840,0.0,134,,-0.01,-0.23,0.8,-3,-0,-1,0.83,1.35,62,4334,0.0,2.44,,11.22,1.198,88.0,,38.2,5,,,,,,,,,,,,0,0,0,0,0,0,0,0,0,0,0,0,0,0,0,0,,,,,,0.0,,,,,,,
3765844,1745472364860,,,,,,,,,,,,,,,,,,,,,,,,,,,,,,,,,,0,0,0,0,0,0,0,0,0,0,0,0,0,0,0,0,,,,,,,,,,,,,
3765864,1745472364880,0.0,134,,-0.03,-0.1,0.92,-0,-0,-0,0.92,1.35,68,4173,7.2,3.32,,11.48,1.246,88.0,,35.1,5,,,,,,,,,,,,0,0,0,0,0,0,0,0,0,0,0,0,0,0,0,0,,,,,,0.0,,,,,,,
3765884,1745472364900,,,,,,,,,,,,,,,,,,,,,,,0,0,0,0,0.0,0.0,0.0,0.0,2.28,,,0,0,0,0,0,0,0,0,0,0,0,0,0,0,0,0,,0,,,,,38.994102,-76.939636,0.0,26.5,32,3,0.9
3765904,1745472364920,0.0,135,,-0.02,-0.18,0.85,-4,-0,-0,0.87,1.35,65,4056,22.9,4.51,,11.48,1.246,88.0,,35.1,5,,,,,,,,,,,,0,0,0,0,0,0,0,0,0,0,0,0,0,0,0,0,,,,,,0.0,,,,,,,
3765924,1745472364940,,,,,,,,,,,,,,,,,,,,,,,,,,,,,,,,,,0,0,0,0,0,0,0,0,0,0,0,0,0,0,0,0,,,,,,,,,,,,,
3765944,1745472364960,0.0,134,,-0.05,-0.05,0.98,-1,-0,0,0.98,1.35,73,4056,22.9,4.51,,12.8,1.251,88.0,,33.6,5,,,,,,,,,,,,0,0,0,0,0,0,0,0,0,0,0,0,0,0,0,0,,,,,,0.0,,,,,,,
3765964,1745472364980,,,,,,,,,,,,,,,,,,,,,,,,,,,,,,,,,,0,0,0,0,0,0,0,0,0,0,0,0,0,0,0,0,,,,,,,,,,,,,
3765984,1745472365000,0.0,135,,-0.08,0.02,1.04,-0,-0,0,1.05,1.35,78,4314,31.4,5.04,,13.82,1.252,88.0,,33.6,5,0,0,0,0,0.0,0.0,0.0,0.0,2.27,,,0,0,0,0,0,0,0,0,0,0,0,0,0,0,0,0,,0,,,,0.0,38.994102,-76.939636,0.04,26.5,32,3,0.9
3766004,1745472365010,,,,,,,,,,,,,,,,,,,,,,,,,,,,,,,,,,0,0,0,0,0,0,0,0,0,0,0,0,0,0,0,0,,,,,,,,,,,,,
3766024,1745472365030,0.0,135,,-0.06,0.08,1.08,2,-0,0,1.08,1.35,80,4556,33.6,4.94,,14.07,1.252,88.0,,33.6,5,,,,,,,,,,,,0,0,0,0,0,0,0,0,0,0,0,0,0,0,0,0,,,,,,0.0,,,,,,,
3766044,1745472365050,,,,,,,,,,,,,,,,,,,,,,,,,,,,,,,,,,0,0,0,0,0,0,0,0,0,0,0,0,0,0,0,0,,,,,,,,,,,,,
3766064,1745472365070,0.0,135,,-0.09,0.12,1.12,2,-0,0,1.13,1.35,84,4840,21.1,4.26,,13.73,1.251,88.0,,37.6,5,,,,,,,,,,,,0,0,0,0,0,0,0,0,0,0,0,0,0,0,0,0,,,,,,0.0,,,,,,,
