"Interval"|"ms"|0|0|1,"Utc"|"ms"|0|0|1,"FrontBP"|"psi"|-5.0|5.0|25,"SteerAng"|"Degrees"|-145|145|25,"Battery"|"Volts"|-5.0|20.0|1,"AccelX"|"G"|-3.0|3.0|25,"AccelY"|"G"|-3.0|3.0|25,"AccelZ"|"G"|-3.0|3.0|25,"Yaw"|"Deg/Sec"|-120|120|25,"Pitch"|"Deg/Sec"|-120|120|25,"Roll"|"Deg/Sec"|-120|120|25,"Gsum"|"G"|0.0|3.0|25,"GsumMax"|"G"|0.0|3.0|25,"GsumPct"|"%"|0|100|25,"RPM"|""|0|10000|25,"TPS"|"%"|0.0|100.0|25,"InjectorPW"|"ms"|0.0|100.0|25,"Baro"|"kPa"|0|105|1,"MAP"|"Psi"|0.0|255.0|25,"Lambda"|""|-2.0|2.0|25,"IAT"|"C"|0.0|200.0|25,"EngineTemp"|"C"|0|200|1,"EOP"|"PSI"|0.0|152.0|25,"EOT"|"F"|0|250|25,"WSFR"|"MPH"|0|150|10,"WSFL"|"MPH"|0|100|10,"WSRR"|"MPH"|0|100|10,"WSRL"|""|0|100|10,"TCSet"|"%"|0.0|100.0|10,"TCSlip"|"%"|0.0|100.0|10,"TCComp"|"deg"|0.0|50.0|10,"TCCut"|"%"|0.0|100.0|10,"Analog8"|""|0.0|5.0|10,"OilTemp"|"F"|0|300|1,"AA_On"|""|0.0|1.0|1,"ThermLF1"|"C"|0|400|50,"ThermLF2"|"C"|0|400|50,"ThermRR1"|"C"|0|400|50,"ThermRR2"|"C"|0|400|50,"ThermLF3"|"C"|0|400|50,"ThermLF4"|"C"|0|400|50,"ThermLF5"|"C"|0|400|50,"ThermLF6"|"C"|0|400|50,"ThermLF7"|"C"|0|400|50,"ThermLF8"|"C"|0|400|50,"ThermRR3"|"C"|0|400|50,"ThermRR4"|"C"|0|400|50,"ThermRR5"|"C"|0|400|50,"ThermRR6"|"C"|0|400|50,"ThermRR7"|"C"|0|400|50,"ThermRR8"|"C"|0|400|50,"AA_LowDrag"|""|0|1|1,"Gear"|""|1|6|10,"AA_On"|""|0.0|1.0|1,"AA_LowDrag"|""|0|1|1,"Fuel_Mix"|""|-10|10|1,"AA_Packages"|""|0.0|1000.0|25,"Latitude"|"Degrees"|-180.0|180.0|10,"Longitude"|"Degrees"|-180.0|180.0|10,"Speed"|"kph"|0.0|150.0|10,"Altitude"|"m"|0.0|4000.0|10,"GPSSats"|""|0|20|10,"GPSQual"|""|0|5|10,"GPSDOP"|""|0.0|20.0|10
5859104,1745474458127,0.0,133,,-0.07,-0.13,1.01,-0,-0,0,1.02,1.02,100,5259,52.0,6.04,,14.16,1.158,93.4,,38.2,5,,,,,,,,,,,,0,0,0,0,0,0,0,0,0,0,0,0,0,0,0,0,,,,,,0.0,,,,,,,
5859124,1745474458147,,,,,,,,,,,,,,,,,,,,,,,,,,,,,,,,,,0,0,0,0,0,0,0,0,0,0,0,0,0,0,0,0,,,,,,,,,,,,,
5859144,1745474458167,0.0,132,,-0.05,-0.09,0.96,-1,-0,0,0.96,1.02,95,5491,53.9,5.96,,14.27,1.135,93.4,,40.3,5,,,,,,,,,,,,0,0,0,0,0,0,0,0,0,0,0,0,0,0,0,0,,,,,,0.0,,,,,,,
5859164,1745474458187,,,,,,,,,,,,,,,,,,,,,,,,,,,,,,,,,,0,0,0,0,0,0,0,0,0,0,0,0,0,0,0,0,,,,,,,,,,,,,
5859184,1745474458209,0.0,133,,-0.05,-0.17,0.89,-1,-0,-0,0.91,1.02,89,6123,0.7,4.22,,12.45,1.111,93.4,,40.3,5,0,0,0,0,3.9,0.0,0.0,0.0,2.26,,,0,0,0,0,0,0,0,0,0,0,0,0,0,0,0,0,,0,,,,0.0,38.994099,-76.939652,0.0,26.9,31,3,0.8
5859204,1745474458229,,,,,,,,,,,,,,,,,,,,,,,,,,,,,,,,,,0,0,0,0,0,0,0,0,0,0,0,0,0,0,0,0,,,,,,,,,,,,,
5859224,1745474458249,0.0,133,,-0.09,-0.1,0.91,0,-0,-0,0.92,1.02,90,6495,0.0,1.4,,10.86,1.024,93.4,,40.3,5,,,,,,,,,,,,0,0,0,0,0,0,0,0,0,0,0,0,0,0,0,0,,,,,,0.0,,,,,,,
5859244,1745474458269,,,,,,,,,,,,,,,,,,,,,,,,,,,,,,,,,,0,0,0,0,0,0,0,0,0,0,0,0,0,0,0,0,,,,,,,,,,,,,
5859264,1745474458289,0.0,132,,-0.09,-0.15,0.88,-1,-0,-0,0.9,1.02,88,6495,0.0,1.4,,10.86,1.024,93.4,,42.9,5,,,,,,,,,,,,0,0,0,0,0,0,0,0,0,0,0,0,0,0,0,0,,,,,,0.0,,,,,,,
5859284,1745474458307,,,,,,,,,,,,,,,,,,,,,,,0,0,0,0,3.9,0.0,0.0,0.0,2.27,,,0,0,0,0,0,0,0,0,0,0,0,0,0,0,0,0,,0,,,,,38.994099,-76.939652,0.04,27.0,31,3,0.8
5859304,1745474458327,0.0,132,,-0.07,-0.3,0.82,-2,-0,-0,0.87,1.02,86,6109,0.0,1.4,,9.84,0.997,93.4,,42.9,5,,,,,,,,,,,,0,0,0,0,0,0,0,0,0,0,0,0,0,0,0,0,,,,,,0.0,,,,,,,
5859324,1745474458347,,,,,,,,,,,,,,,,,,,,,,,,,,,,,,,,,,0,0,0,0,0,0,0,0,0,0,0,0,0,0,0,0,,,,,,,,,,,,,
5859344,1745474458367,0.0,132,,-0.09,-0.27,0.89,-2,-0,-0,0.93,1.02,92,5784,0.0,1.4,,9.49,1.059,93.4,,41.5,5,,,,,,,,,,,,0,0,0,0,0,0,0,0,0,0,0,0,0,0,0,0,,,,,,0.0,,,,,,,
5859364,1745474458391,,,,,,,,,,,,,,,,,,,,,,,,,,,,,,,,,,0,0,0,0,0,0,0,0,0,0,0,0,0,0,0,0,,,,,,,,,,,,,
5859384,1745474458411,0.0,133,13.06,-0.08,-0.3,0.91,-2,-0,-0,0.96,1.02,94,5354,21.4,3.28,15,11.05,1.247,93.4,174,41.5,5,0,0,0,0,3.9,0.0,0.0,0.0,2.27,0,1.0,0,0,0,0,0,0,0,0,0,0,0,0,0,0,0,0,0,0,1.0,0,-0,0.0,38.994099,-76.939652,0.04,27.0,31,3,0.8
5859404,1745474458431,,,,,,,,,,,,,,,,,,,,,,,,,,,,,,,,,,0,0,0,0,0,0,0,0,0,0,0,0,0,0,0,0,,,,,,,,,,,,,
5859424,1745474458451,0.0,133,,-0.08,-0.29,0.93,-1,-0,-0,0.97,1.02,96,5081,31.7,5.46,,13.19,1.25,93.4,,41.5,5,,,,,,,,,,,,0,0,0,0,0,0,0,0,0,0,0,0,0,0,0,0,,,,,,0.0,,,,,,,
5859444,1745474458471,,,,,,,,,,,,,,,,,,,,,,,,,,,,,,,,,,0,0,0,0,0,0,0,0,0,0,0,0,0,0,0,0,,,,,,,,,,,,,
5859464,1745474458491,0.0,133,,-0.08,-0.38,0.85,-2,-0,-1,0.93,1.02,91,5813,9.1,4.3,,13.19,1.25,93.4,,38.2,5,,,,,,,,,,,,0,0,0,0,0,0,0,0,0,0,0,0,0,0,0,0,,,,,,0.0,,,,,,,
5859484,1745474458509,,,,,,,,,,,,,,,,,,,,,,,0,0,0,0,3.9,0.0,0.0,0.0,2.26,,,0,0,0,0,0,0,0,0,0,0,0,0,0,0,0,0,,0,,,,,38.994099,-76.939652,0.0,27.0,31,3,0.8
5859504,1745474458529,0.0,133,,-0.12,-0.43,0.83,-4,-0,-1,0.95,1.02,93,5813,9.1,4.3,,12.6,1.251,93.4,,38.2,5,,,,,,,,,,,,0,0,0,0,0,0,0,0,0,0,0,0,0,0,0,0,,,,,,0.0,,,,,,,
5859524,1745474458549,,,,,,,,,,,,,,,,,,,,,,,,,,,,,,,,,,0,0,0,0,0,0,0,0,0,0,0,0,0,0,0,0,,,,,,,,,,,,,
5859544,1745474458569,0.0,132,,-0.15,-0.41,0.85,-5,-0,-1,0.96,1.02,94,5988,0.0,1.5,,11.1,1.25,93.4,,42.2,5,,,,,,,,,,,,0,0,0,0,0,0,0,0,0,0,0,0,0,0,0,0,,,,,,0.0,,,,,,,
5859564,1745474458589,,,,,,,,,,,,,,,,,,,,,,,,,,,,,,,,,,0,0,0,0,0,0,0,0,0,0,0,0,0,0,0,0,,,,,,,,,,,,,
5859584,1745474458609,0.0,133,,-0.15,-0.27,0.97,-3,-0,-0,1.02,1.02,100,5774,0.0,1.4,,10.29,1.039,93.4,,42.2,5,0,0,0,0,3.9,0.0,0.0,0.0,2.26,,,0,0,0,0,0,0,0,0,0,0,0,0,0,0,0,0,,0,,,,0.0,38.994099,-76.939652,0.0,27.0,31,3,0.8
5859604,1745474458629,,,,,,,,,,,,,,,,,,,,,,,,,,,,,,,,,,0,0,0,0,0,0,0,0,0,0,0,0,0,0,0,0,,,,,,,,,,,,,
5859624,1745474458649,0.0,133,,-0.16,-0.27,0.96,-2,-0,-0,1.01,1.02,99,5453,20.5,3.4,,11.16,1.021,93.4,,42.2,5,,,,,,,,,,,,0,0,0,0,0,0,0,0,0,0,0,0,0,0,0,0,,,,,,0.0,,,,,,,
5859644,1745474458669,,,,,,,,,,,,,,,,,,,,,,,,,,,,,,,,,,0,0,0,0,0,0,0,0,0,0,0,0,0,0,0,0,,,,,,,,,,,,,
5859664,1745474458689,0.0,132,,-0.14,-0.22,0.98,-2,-0,0,1.02,1.02,100,5081,55.2,5.92,,11.16,1.021,93.4,,38.7,5,,,,,,,,,,,,0,0,0,0,0,0,0,0,0,0,0,0,0,0,0,0,,,,,,0.0,,,,,,,
5859684,1745474458709,,,,,,,,,,,,,,,,,,,,,,,0,0,0,0,3.9,0.0,0.0,0.0,2.26,,,0,0,0,0,0,0,0,0,0,0,0,0,0,0,0,0,,0,,,,,38.994099,-76.939652,0.08,27.0,31,3,0.8
5859704,1745474458729,0.0,133,,-0.14,-0.24,0.96,-2,-0,-0,1.0,1.02,98,5081,55.2,5.92,,14.1,1.131,93.4,,38.7,5,,,,,,,,,,,,0,0,0,0,0,0,0,0,0,0,0,0,0,0,0,0,,,,,,0.0,,,,,,,
5859724,1745474458749,,,,,,,,,,,,,,,,,,,,,,,,,,,,,,,,,,0,0,0,0,0,0,0,0,0,0,0,0,0,0,0,0,,,,,,,,,,,,,
5859744,1745474458769,0.0,133,,-0.12,-0.15,0.98,-1,-0,-0,1.0,1.02,98,5435,61.1,5.61,,14.32,1.248,93.4,,40.4,5,,,,,,,,,,,,0,0,0,0,0,0,0,0,0,0,0,0,0,0,0,0,,,,,,0.0,,,,,,,
5859764,1745474458789,,,,,,,,,,,,,,,,,,,,,,,,,,,,,,,,,,0,0,0,0,0,0,0,0,0,0,0,0,0,0,0,0,,,,,,,,,,,,,
5859784,1745474458808,0.0,133,,-0.09,-0.24,0.98,-2,-0,-0,1.01,1.02,100,6046,8.0,4.29,,12.77,1.248,93.4,,40.4,5,0,0,0,0,3.9,0.0,0.0,0.0,2.27,,,0,0,0,0,0,0,0,0,0,0,0,0,0,0,0,0,,0,,,,0.0,38.994099,-76.939652,0.04,27.0,31,3,0.8
5859804,1745474458828,,,,,,,,,,,,,,,,,,,,,,,,,,,,,,,,,,0,0,0,0,0,0,0,0,0,0,0,0,0,0,0,0,,,,,,,,,,,,,
5859824,1745474458848,0.0,133,,-0.13,-0.15,0.99,-1,-0,-0,1.01,1.02,99,6388,0.0,1.4,,11.1,1.25,93.4,,40.4,5,,,,,,,,,,,,0,0,0,0,0,0,0,0,0,0,0,0,0,0,0,0,,,,,,0.0,,,,,,,
5859844,1745474458868,,,,,,,,,,,,,,,,,,,,,,,,,,,,,,,,,,0,0,0,0,0,0,0,0,0,0,0,0,0,0,0,0,,,,,,,,,,,,,
5859864,1745474458888,0.0,132,,-0.12,-0.16,0.88,-2,-0,-0,0.9,1.02,88,6100,0.0,1.4,,11.1,1.25,93.4,,42.9,5,,,,,,,,,,,,0,0,0,0,0,0,0,0,0,0,0,0,0,0,0,0,,,,,,0.0,,,,,,,
5859884,1745474458908,,,,,,,,,,,,,,,,,,,,,,,0,0,0,0,3.9,0.0,0.0,0.0,2.26,,,0,0,0,0,0,0,0,0,0,0,0,0,0,0,0,0,,0,,,,,38.994099,-76.939652,0.05,27.0,31,3,0.8
5859904,1745474458928,0.0,132,,-0.12,-0.22,0.79,-2,-0,-1,0.83,1.02,81,6100,0.0,1.4,,10.12,1.231,91.6,,42.9,5,,,,,,,,,,,,0,0,0,0,0,0,0,0,0,0,0,0,0,0,0,0,,,,,,0.0,,,,,,,
5859924,1745474458948,,,,,,,,,,,,,,,,,,,,,,,,,,,,,,,,,,0,0,0,0,0,0,0,0,0,0,0,0,0,0,0,0,,,,,,,,,,,,,
5859944,1745474458968,0.0,133,,-0.12,-0.13,0.86,-1,-0,-0,0.88,1.02,86,5686,19.1,3.27,,10.76,1.25,91.6,,40.8,5,,,,,,,,,,,,0,0,0,0,0,0,0,0,0,0,0,0,0,0,0,0,,,,,,0.0,,,,,,,
5859964,1745474458988,,,,,,,,,,,,,,,,,,,,,,,,,,,,,,,,,,0,0,0,0,0,0,0,0,0,0,0,0,0,0,0,0,,,,,,,,,,,,,
5859984,1745474458998,0.0,133,,-0.12,-0.05,0.89,-1,-0,-0,0.9,1.02,88,5313,41.8,5.33,,13.48,1.25,91.6,,40.8,5,0,0,0,0,3.9,0.0,0.0,0.0,2.26,,,0,0,0,0,0,0,0,0,0,0,0,0,0,0,0,0,,0,,,,0.0,38.994099,-76.939652,0.08,27.0,33,3,0.8
5860004,1745474459018,,,,,,,,,,,,,,,,,,,,,,,,,,,,,,,,,,0,0,0,0,0,0,0,0,0,0,0,0,0,0,0,0,,,,,,,,,,,,,
5860024,1745474459038,0.0,132,,-0.14,-0.05,0.88,-1,-0,-0,0.89,1.02,88,5535,14.6,4.65,,13.15,1.251,91.6,,40.8,5,,,,,,,,,,,,0,0,0,0,0,0,0,0,0,0,0,0,0,0,0,0,,,,,,0.0,,,,,,,
5860044,1745474459058,,,,,,,,,,,,,,,,,,,,,,,,,,,,,,,,,,0,0,0,0,0,0,0,0,0,0,0,0,0,0,0,0,,,,,,,,,,,,,
5860064,1745474459078,0.0,132,,-0.13,-0.02,0.96,-0,-0,0,0.97,1.02,95,5723,0.0,1.72,,13.15,1.251,91.6,,40.8,5,,,,,,,,,,,,0,0,0,0,0,0,0,0,0,0,0,0,0,0,0,0,,,,,,0.0,,,,,,,
5860084,1745474459104,,,,,,,,,,,,,,,,,,,,,,,0,0,0,0,3.9,0.0,0.0,0.0,2.26,,,0,0,0,0,0,0,0,0,0,0,0,0,0,0,0,0,,0,,,,,38.994099,-76.939652,0.04,27.0,33,3,0.8
5860104,1745474459124,0.0,133,,-0.11,0.0,0.89,-0,-0,-0,0.9,1.02,88,5723,0.0,1.72,,11.57,1.25,91.6,,40.8,5,,,,,,,,,,,,0,0,0,0,0,0,0,0,0,0,0,0,0,0,0,0,,,,,,0.0,,,,,,,
5860124,1745474459144,,,,,,,,,,,,,,,,,,,,,,,,,,,,,,,,,,0,0,0,0,0,0,0,0,0,0,0,0,0,0,0,0,,,,,,,,,,,,,
5860144,1745474459164,0.0,133,,-0.1,-0.01,0.92,0,-0,-0,0.93,1.02,91,5572,0.0,1.53,,10.61,1.227,91.6,,40.8,5,,,,,,,,,,,,0,0,0,0,0,0,0,0,0,0,0,0,0,0,0,0,,,,,,0.0,,,,,,,
5860164,1745474459184,,,,,,,,,,,,,,,,,,,,,,,,,,,,,,,,,,0,0,0,0,0,0,0,0,0,0,0,0,0,0,0,0,,,,,,,,,,,,,
5860184,1745474459208,0.0,133,,-0.11,0.06,0.91,-0,-0,-0,0.92,1.02,90,5269,0.0,1.56,,10.21,1.183,91.6,,40.3,5,0,0,0,0,3.9,0.0,0.0,0.0,2.27,,,0,0,0,0,0,0,0,0,0,0,0,0,0,0,0,0,,0,,,,0.0,38.994099,-76.939652,0.04,27.0,33,3,0.8
5860204,1745474459228,,,,,,,,,,,,,,,,,,,,,,,,,,,,,,,,,,0,0,0,0,0,0,0,0,0,0,0,0,0,0,0,0,,,,,,,,,,,,,
5860224,1745474459248,0.0,133,,-0.12,0.08,0.98,0,-0,0,0.99,1.02,98,4918,28.0,4.53,,12.13,1.248,91.6,,40.3,5,,,,,,,,,,,,0,0,0,0,0,0,0,0,0,0,0,0,0,0,0,0,,,,,,0.0,,,,,,,
5860244,1745474459268,,,,,,,,,,,,,,,,,,,,,,,,,,,,,,,,,,0,0,0,0,0,0,0,0,0,0,0,0,0,0,0,0,,,,,,,,,,,,,
5860264,1745474459288,0.0,132,,-0.15,0.11,1.02,-0,-0,0,1.04,1.04,100,4541,50.1,5.85,,12.13,1.248,91.6,,33.7,5,,,,,,,,,,,,0,0,0,0,0,0,0,0,0,0,0,0,0,0,0,0,,,,,,0.0,,,,,,,
5860284,1745474459310,,,,,,,,,,,,,,,,,,,,,,,0,0,0,0,3.9,0.0,0.0,0.0,2.27,,,0,0,0,0,0,0,0,0,0,0,0,0,0,0,0,0,,0,,,,,38.994099,-76.939652,0.08,27.0,33,3,0.8
5860304,1745474459330,0.0,133,,-0.17,0.18,1.12,1,-0,1,1.15,1.15,100,4541,50.1,5.85,,14.24,1.248,91.6,,33.7,5,,,,,,,,,,,,0,0,0,0,0,0,0,0,0,0,0,0,0,0,0,0,,,,,,0.0,,,,,,,
5860324,1745474459350,,,,,,,,,,,,,,,,,,,,,,,,,,,,,,,,,,0,0,0,0,0,0,0,0,0,0,0,0,0,0,0,0,,,,,,,,,,,,,
5860344,1745474459370,0.0,133,,-0.17,0.2,1.17,1,-0,1,1.2,1.2,100,4504,50.6,5.31,,14.39,1.25,91.6,,32.4,5,,,,,,,,,,,,0,0,0,0,0,0,0,0,0,0,0,0,0,0,0,0,,,,,,0.0,,,,,,,
5860364,1745474459390,,,,,,,,,,,,,,,,,,,,,,,,,,,,,,,,,,0,0,0,0,0,0,0,0,0,0,0,0,0,0,0,0,,,,,,,,,,,,,
5860384,1745474459410,0.0,133,13.1,-0.15,0.11,1.11,1,-0,1,1.13,1.2,94,4871,14.7,4.32,15,13.68,1.251,91.6,176,32.4,5,0,0,0,0,3.9,0.0,0.0,0.0,2.26,0,1.0,0,0,0,0,0,0,0,0,0,0,0,0,0,0,0,0,0,0,1.0,0,-0,0.0,38.994099,-76.939652,0.05,27.0,33,3,0.8
5860404,1745474459430,,,,,,,,,,,,,,,,,,,,,,,,,,,,,,,,,,0,0,0,0,0,0,0,0,0,0,0,0,0,0,0,0,,,,,,,,,,,,,
5860424,1745474459450,0.0,133,,-0.16,0.08,1.12,0,-0,1,1.13,1.2,94,5015,0.0,2.47,,12.32,1.252,91.6,,32.4,5,,,,,,,,,,,,0,0,0,0,0,0,0,0,0,0,0,0,0,0,0,0,,,,,,0.0,,,,,,,
5860444,1745474459470,,,,,,,,,,,,,,,,,,,,,,,,,,,,,,,,,,0,0,0,0,0,0,0,0,0,0,0,0,0,0,0,0,,,,,,,,,,,,,
5860464,1745474459490,0.0,133,,-0.14,0.15,1.14,1,-0,1,1.16,1.2,96,4946,0.0,2.41,,12.32,1.252,91.6,,35.6,5,,,,,,,,,,,,0,0,0,0,0,0,0,0,0,0,0,0,0,0,0,0,,,,,,0.0,,,,,,,
5860484,1745474459509,,,,,,,,,,,,,,,,,,,,,,,0,0,0,0,3.9,0.0,0.0,0.0,2.26,,,0,0,0,0,0,0,0,0,0,0,0,0,0,0,0,0,,0,,,,,38.994099,-76.939652,0.19,27.0,33,3,0.8
5860504,1745474459529,0.0,133,,-0.14,0.09,1.09,0,-0,1,1.11,1.2,92,4946,0.0,2.41,,11.52,1.252,91.6,,35.6,5,,,,,,,,,,,,0,0,0,0,0,0,0,0,0,0,0,0,0,0,0,0,,,,,,0.0,,,,,,,
5860524,1745474459549,,,,,,,,,,,,,,,,,,,,,,,,,,,,,,,,,,0,0,0,0,0,0,0,0,0,0,0,0,0,0,0,0,,,,,,,,,,,,,
5860544,1745474459569,0.0,133,,-0.1,0.05,0.99,-0,-0,0,1.0,1.2,83,4763,0.0,2.41,,11.1,1.251,91.6,,33.1,5,,,,,,,,,,,,0,0,0,0,0,0,0,0,0,0,0,0,0,0,0,0,,,,,,0.0,,,,,,,
5860564,1745474459589,,,,,,,,,,,,,,,,,,,,,,,,,,,,,,,,,,0,0,0,0,0,0,0,0,0,0,0,0,0,0,0,0,,,,,,,,,,,,,
5860584,1745474459608,0.0,133,,-0.08,-0.02,0.93,-0,-0,-0,0.93,1.2,78,4571,9.7,3.69,,11.49,1.248,91.6,,33.1,5,0,0,0,0,3.9,0.0,0.0,0.0,2.26,,,0,0,0,0,0,0,0,0,0,0,0,0,0,0,0,0,,0,,,,0.0,38.994099,-76.939652,0.09,27.0,33,3,0.8
5860604,1745474459628,,,,,,,,,,,,,,,,,,,,,,,,,,,,,,,,,,0,0,0,0,0,0,0,0,0,0,0,0,0,0,0,0,,,,,,,,,,,,,
5860624,1745474459648,0.0,133,,-0.05,-0.12,0.83,-1,-0,-0,0.84,1.2,70,4476,15.9,4.12,,12.37,1.248,91.6,,33.1,5,,,,,,,,,,,,0,0,0,0,0,0,0,0,0,0,0,0,0,0,0,0,,,,,,0.0,,,,,,,
5860644,1745474459668,,,,,,,,,,,,,,,,,,,,,,,,,,,,,,,,,,0,0,0,0,0,0,0,0,0,0,0,0,0,0,0,0,,,,,,,,,,,,,
5860664,1745474459688,0.0,132,,-0.02,-0.2,0.77,-2,-0,-1,0.8,1.2,67,4425,16.3,4.17,,12.37,1.248,91.6,,31.2,5,,,,,,,,,,,,0,0,0,0,0,0,0,0,0,0,0,0,0,0,0,0,,,,,,0.0,,,,,,,
5860684,1745474459707,,,,,,,,,,,,,,,,,,,,,,,0,0,0,0,3.9,0.0,0.0,0.0,2.27,,,0,0,0,0,0,0,0,0,0,0,0,0,0,0,0,0,,0,,,,,38.994099,-76.939652,0.04,26.9,33,3,0.8
5860704,1745474459727,0.0,133,,-0.0,-0.23,0.71,-4,-0,-1,0.74,1.2,62,4425,16.3,4.17,,12.92,1.248,91.6,,31.2,5,,,,,,,,,,,,0,0,0,0,0,0,0,0,0,0,0,0,0,0,0,0,,,,,,0.0,,,,,,,
5860724,1745474459747,,,,,,,,,,,,,,,,,,,,,,,,,,,,,,,,,,0,0,0,0,0,0,0,0,0,0,0,0,0,0,0,0,,,,,,,,,,,,,
5860744,1745474459767,0.0,133,,0.01,-0.3,0.67,-5,-0,-1,0.74,1.2,61,4447,16.3,4.07,,13.07,1.248,91.6,,31.2,5,,,,,,,,,,,,0,0,0,0,0,0,0,0,0,0,0,0,0,0,0,0,,,,,,0.0,,,,,,,
5860764,1745474459787,,,,,,,,,,,,,,,,,,,,,,,,,,,,,,,,,,0,0,0,0,0,0,0,0,0,0,0,0,0,0,0,0,,,,,,,,,,,,,
5860784,1745474459806,0.0,133,,0.02,-0.28,0.62,-6,-0,-1,0.68,1.2,57,4476,16.3,4.08,,13.16,1.25,91.6,,31.2,5,0,0,0,0,3.9,0.0,0.0,0.0,2.27,,,0,0,0,0,0,0,0,0,0,0,0,0,0,0,0,0,,0,,,,0.0,38.994099,-76.939652,0.19,26.9,33,3,0.8
5860804,1745474459826,,,,,,,,,,,,,,,,,,,,,,,,,,,,,,,,,,0,0,0,0,0,0,0,0,0,0,0,0,0,0,0,0,,,,,,,,,,,,,
5860824,1745474459846,0.0,133,,0.04,-0.31,0.59,-6,-0,-1,0.67,1.2,56,4560,20.3,4.21,,13.31,1.251,91.6,,31.2,5,,,,,,,,,,,,0,0,0,0,0,0,0,0,0,0,0,0,0,0,0,0,,,,,,0.0,,,,,,,
5860844,1745474459866,,,,,,,,,,,,,,,,,,,,,,,,,,,,,,,,,,0,0,0,0,0,0,0,0,0,0,0,0,0,0,0,0,,,,,,,,,,,,,
5860864,1745474459886,0.0,132,,0.04,-0.3,0.59,-5,-0,-1,0.66,1.2,55,4613,21.1,4.23,,13.31,1.251,91.6,,31.8,5,,,,,,,,,,,,0,0,0,0,0,0,0,0,0,0,0,0,0,0,0,0,,,,,,0.0,,,,,,,
5860884,1745474459907,,,,,,,,,,,,,,,,,,,,,,,0,0,0,0,3.9,0.0,0.0,0.0,2.26,,,0,0,0,0,0,0,0,0,0,0,0,0,0,0,0,0,,0,,,,,38.994099,-76.939652,0.22,26.9,33,3,0.8
5860904,1745474459927,0.0,133,,0.02,-0.22,0.7,-3,-0,-1,0.74,1.2,62,4613,21.1,4.23,,13.43,1.251,91.6,,31.8,5,,,,,,,,,,,,0,0,0,0,0,0,0,0,0,0,0,0,0,0,0,0,,,,,,0.0,,,,,,,
5860924,1745474459947,,,,,,,,,,,,,,,,,,,,,,,,,,,,,,,,,,0,0,0,0,0,0,0,0,0,0,0,0,0,0,0,0,,,,,,,,,,,,,
5860944,1745474459967,0.0,132,,-0.01,-0.2,0.75,-3,-0,-1,0.78,1.2,65,4727,21.3,4.23,,13.45,1.251,91.6,,33.1,5,,,,,,,,,,,,0,0,0,0,0,0,0,0,0,0,0,0,0,0,0,0,,,,,,0.0,,,,,,,
5860964,1745474459987,,,,,,,,,,,,,,,,,,,,,,,,,,,,,,,,,,0,0,0,0,0,0,0,0,0,0,0,0,0,0,0,0,,,,,,,,,,,,,
5860984,1745474459995,0.0,133,,-0.0,-0.18,0.75,-3,-0,-1,0.77,1.2,64,4840,21.3,4.24,,13.45,1.251,91.6,,33.1,5,0,0,0,0,3.9,0.0,0.0,0.0,2.26,,,0,0,0,0,0,0,0,0,0,0,0,0,0,0,0,0,,0,,,,0.0,38.994099,-76.939652,0.0,26.9,33,3,0.8
5861004,1745474460015,,,,,,,,,,,,,,,,,,,,,,,,,,,,,,,,,,0,0,0,0,0,0,0,0,0,0,0,0,0,0,0,0,,,,,,,,,,,,,
5861024,1745474460035,0.0,133,,-0.03,-0.18,0.8,-2,-0,-1,0.82,1.2,69,4948,21.3,4.24,,13.36,1.249,91.6,,33.1,5,,,,,,,,,,,,0,0,0,0,0,0,0,0,0,0,0,0,0,0,0,0,,,,,,0.0,,,,,,,
5861044,1745474460055,,,,,,,,,,,,,,,,,,,,,,,,,,,,,,,,,,0,0,0,0,0,0,0,0,0,0,0,0,0,0,0,0,,,,,,,,,,,,,
5861064,1745474460075,0.0,132,,-0.03,-0.1,0.84,-2,-0,-1,0.84,1.2,70,5012,21.3,4.22,,13.36,1.249,91.6,,34.8,5,,,,,,,,,,,,0,0,0,0,0,0,0,0,0,0,0,0,0,0,0,0,,,,,,0.0,,,,,,,
5861084,1745474460105,,,,,,,,,,,,,,,,,,,,,,,0,0,0,0,3.9,0.0,0.0,0.0,2.26,,,0,0,0,0,0,0,0,0,0,0,0,0,0,0,0,0,,0,,,,,38.994099,-76.939652,0.51,26.9,33,3,0.8
5861104,1745474460125,0.0,132,,-0.03,-0.16,0.85,-2,-0,-1,0.87,1.2,72,5012,21.3,4.22,,13.23,1.248,91.6,,34.8,5,,,,,,,,,,,,0,0,0,0,0,0,0,0,0,0,0,0,0,0,0,0,,,,,,0.0,,,,,,,
5861184,1745474460205,0.0,133,,-0.04,-0.19,0.88,-1,-0,-1,0.9,1.2,75,5270,21.1,4.23,,13.05,,,,,,,,,,,,,,,,,,,,,,,,,,,,,,,,,,,,,,,,,,,,,
5861204,1745474460225,,,,,,,,,,,,,,,,,,,,,,,,,,,,,,,,,,0,0,0,0,0,0,0,0,0,0,0,0,0,0,0,0,,,,,,,,,,,,,
5861284,1745474460311,,,,,,,,,,,,,,,,,,,,,,,0,0,0,0,3.9,0.0,0.0,0.0,2.26,,,0,0,0,0,0,0,0,0,0,0,0,0,0,0,0,0,,0,,,,,38.994099,-76.939652,0.0,26.9,33,3,0.8
5861304,1745474460331,0.0,132,,-0.05,-0.09,0.94,0,-0,-0,0.94,1.2,79,5485,21.2,4.21,,12.91,1.25,91.6,,38.8,5,,,,,,,,,,,,0,0,0,0,0,0,0,0,0,0,0,0,0,0,0,0,,,,,,0.0,,,,,,,
5861384,1745474460411,0.0,133,13.15,-0.05,0.02,0.93,0,-0,-0,0.93,1.2,78,5651,21.7,4.22,15,12.87,1.25,91.6,176,39.7,5,0,0,0,0,3.9,0.0,0.0,0.0,2.26,0,1.0,0,0,0,0,0,0,0,0,0,0,0,0,0,0,0,0,0,0,1.0,0,-0,0.0,38.994099,-76.939652,0.04,26.9,33,3,0.8
5861564,1745474460589,,,,,,,,,,,,,,,,,,,,,,,,,,,,,,,,,,0,0,0,0,0,0,0,0,0,0,0,0,0,0,0,0,,,,,,,,,,,,,
5861584,1745474460609,0.0,133,,-0.09,0.11,1.16,3,-0,0,1.17,1.2,97,5995,22.0,4.29,,12.83,1.05,91.6,,41.1,5,0,0,0,0,3.9,0.0,0.0,0.0,2.27,,,0,0,0,0,0,0,0,0,0,0,0,0,0,0,0,0,,0,,,,0.0,38.994099,-76.939652,0.15,26.9,33,3,0.8
5861744,1745474460768,0.0,132,,-0.11,0.06,1.14,1,-0,1,1.14,1.21,95,6493,21.9,4.94,,12.4,1.03,91.6,,42.2,5,,,,,,,,,,,,0,0,0,0,0,0,0,0,0,0,0,0,0,0,0,0,,,,,,0.0,,,,,,,
5861764,1745474460788,,,,,,,,,,,,,,,,,,,,,,,,,,,,,,,,,,0,0,0,0,0,0,0,0,0,0,0,0,0,0,0,0,,,,,,,,,,,,,
5861784,1745474460808,0.0,132,,-0.11,0.03,1.11,1,-0,0,1.11,1.21,92,6872,22.0,5.27,,12.23,1.018,91.6,,42.2,5,0,0,0,0,3.9,0.0,0.0,0.0,2.26,,,0,0,0,0,0,0,0,0,0,0,0,0,0,0,0,0,,0,,,,0.0,38.994099,-76.939652,0.04,26.9,33,3,0.8
5861804,1745474460828,,,,,,,,,,,,,,,,,,,,,,,,,,,,,,,,,,0,0,0,0,0,0,0,0,0,0,0,0,0,0,0,0,,,,,,,,,,,,,
5861824,1745474460848,0.0,133,,-0.08,0.09,1.12,1,-0,0,1.12,1.21,93,7198,33.6,5.86,,12.23,1.018,91.6,,42.2,5,,,,,,,,,,,,0,0,0,0,0,0,0,0,0,0,0,0,0,0,0,0,,,,,,0.0,,,,,,,
5861844,1745474460868,,,,,,,,,,,,,,,,,,,,,,,,,,,,,,,,,,0,0,0,0,0,0,0,0,0,0,0,0,0,0,0,0,,,,,,,,,,,,,
5861864,1745474460888,0.0,132,,-0.1,0.03,1.11,1,-0,1,1.11,1.21,92,8256,78.4,6.68,,12.48,0.957,91.6,,43.4,5,,,,,,,,,,,,0,0,0,0,0,0,0,0,0,0,0,0,0,0,0,0,,,,,,0.0,,,,,,,
5861884,1745474460908,,,,,,,,,,,,,,,,,,,,,,,0,0,0,0,3.9,0.0,0.0,0.0,2.26,,,0,0,0,0,0,0,0,0,0,0,0,0,0,0,0,0,,0,,,,,38.994099,-76.939652,0.04,26.9,33,3,0.8
5861904,1745474460928,0.0,133,,-0.09,0.3,1.09,1,-0,0,1.14,1.21,94,8256,78.4,6.68,,13.94,0.962,91.6,,43.4,5,,,,,,,,,,,,0,0,0,0,0,0,0,0,0,0,0,0,0,0,0,0,,,,,,0.0,,,,,,,
5861924,1745474460948,,,,,,,,,,,,,,,,,,,,,,,,,,,,,,,,,,0,0,0,0,0,0,0,0,0,0,0,0,0,0,0,0,,,,,,,,,,,,,
5861944,1745474460968,0.0,132,,0.01,0.31,1.06,1,0,1,1.11,1.21,92,9675,99.4,6.77,,13.8,0.955,91.6,,45.7,5,,,,,,,,,,,,0,0,0,0,0,0,0,0,0,0,0,0,0,0,0,0,,,,,,0.0,,,,,,,
5861964,1745474460988,,,,,,,,,,,,,,,,,,,,,,,,,,,,,,,,,,0,0,0,0,0,0,0,0,0,0,0,0,0,0,0,0,,,,,,,,,,,,,
5861984,1745474460996,0.0,132,,0.13,0.16,1.07,1,1,1,1.09,1.21,90,9949,99.4,6.09,,13.83,0.955,91.6,,45.7,5,0,0,0,7,3.9,0.0,0.0,0.0,2.26,,,0,0,0,0,0,0,0,0,0,0,0,0,0,0,0,0,,0,,,,0.0,38.994099,-76.939652,0.0,26.9,33,3,0.8
5862004,1745474461016,,,,,,,,,,,,,,,,,,,,,,,,,,,,,,,,,,0,0,0,0,0,0,0,0,0,0,0,0,0,0,0,0,,,,,,,,,,,,,
5862024,1745474461036,0.0,132,,0.2,-0.03,1.02,1,1,1,1.04,1.21,86,9825,99.4,6.07,,13.83,0.955,91.6,,45.7,5,,,,,,,,,,,,0,0,0,0,0,0,0,0,0,0,0,0,0,0,0,0,,,,,,0.0,,,,,,,
5862044,1745474461056,,,,,,,,,,,,,,,,,,,,,,,,,,,,,,,,,,0,0,0,0,0,0,0,0,0,0,0,0,0,0,0,0,,,,,,,,,,,,,
5862064,1745474461076,0.0,132,,0.23,-0.05,1.11,-0,1,1,1.14,1.21,94,9702,99.5,6.02,,13.8,0.891,91.6,,46.1,5,,,,,,,,,,,,0,0,0,0,0,0,0,0,0,0,0,0,0,0,0,0,,,,,,0.0,,,,,,,
5862084,1745474461103,,,,,,,,,,,,,,,,,,,,,,,0,0,33,31,3.9,0.0,0.0,0.0,2.27,,,0,0,0,0,0,0,0,0,0,0,0,0,0,0,0,0,,0,,,,,38.994099,-76.939652,2.05,26.9,33,3,0.8
5862104,1745474461123,0.0,132,,0.24,-0.05,1.14,-1,0,1,1.17,1.21,97,9702,99.5,6.02,,13.72,0.901,91.6,,46.1,5,,,,,,,,,,,,0,0,0,0,0,0,0,0,0,0,0,0,0,0,0,0,,,,,,0.0,,,,,,,
5862124,1745474461143,,,,,,,,,,,,,,,,,,,,,,,,,,,,,,,,,,0,0,0,0,0,0,0,0,0,0,0,0,0,0,0,0,,,,,,,,,,,,,
5862144,1745474461163,0.0,132,,0.27,-0.04,1.12,0,0,1,1.15,1.21,96,10573,99.4,5.78,,13.76,0.916,91.6,,51.7,5,,,,,,,,,,,,0,0,0,0,0,0,0,0,0,0,0,0,0,0,0,0,,,,,,0.0,,,,,,,
5862164,1745474461183,,,,,,,,,,,,,,,,,,,,,,,,,,,,,,,,,,0,0,0,0,0,0,0,0,0,0,0,0,0,0,0,0,,,,,,,,,,,,,
5862184,1745474461204,0.0,132,,0.35,-0.09,1.04,-1,1,1,1.1,1.21,91,11182,99.5,5.48,,13.57,0.904,91.6,,51.7,5,3,0,33,34,3.9,0.0,0.0,0.0,2.27,,,0,0,0,0,0,0,0,0,0,0,0,0,0,0,0,0,,1,,,,0.0,38.994099,-76.939652,6.1,26.9,33,3,0.8
5862204,1745474461224,,,,,,,,,,,,,,,,,,,,,,,,,,,,,,,,,,0,0,0,0,0,0,0,0,0,0,0,0,0,0,0,0,,,,,,,,,,,,,
5862224,1745474461244,0.0,132,,0.41,-0.01,1.05,1,1,1,1.12,1.21,93,11369,99.5,5.38,,13.79,0.904,91.6,,51.7,5,,,,,,,,,,,,0,0,0,0,0,0,0,0,0,0,0,0,0,0,0,0,,,,,,0.0,,,,,,,
5862244,1745474461264,,,,,,,,,,,,,,,,,,,,,,,,,,,,,,,,,,0,0,0,0,0,0,0,0,0,0,0,0,0,0,0,0,,,,,,,,,,,,,
5862264,1745474461284,0.0,132,,0.44,0.0,1.04,3,1,1,1.13,1.21,93,11609,99.5,5.31,,13.79,0.904,91.6,,55.8,5,,,,,,,,,,,,0,0,0,0,0,0,0,0,0,0,0,0,0,0,0,0,,,,,,0.0,,,,,,,
5862284,1745474461308,,,,,,,,,,,,,,,,,,,,,,,6,0,36,34,3.9,0.0,0.0,0.0,2.26,,,0,0,0,0,0,0,0,0,0,0,0,0,0,0,0,0,,1,,,,,38.994099,-76.939652,8.34,26.9,33,3,0.8
5862304,1745474461328,0.0,132,,0.5,0.13,1.03,3,1,1,1.15,1.21,95,11609,99.5,5.31,,13.51,0.906,91.6,,55.8,5,,,,,,,,,,,,0,0,0,0,0,0,0,0,0,0,0,0,0,0,0,0,,,,,,0.0,,,,,,,
5862324,1745474461348,,,,,,,,,,,,,,,,,,,,,,,,,,,,,,,,,,0,0,0,0,0,0,0,0,0,0,0,0,0,0,0,0,,,,,,,,,,,,,
5862344,1745474461368,0.0,132,,0.5,0.28,0.94,3,1,1,1.1,1.21,91,11749,99.5,5.25,,13.35,0.925,91.6,,55.8,5,,,,,,,,,,,,0,0,0,0,0,0,0,0,0,0,0,0,0,0,0,0,,,,,,0.0,,,,,,,
5862364,1745474461388,,,,,,,,,,,,,,,,,,,,,,,,,,,,,,,,,,0,0,0,0,0,0,0,0,0,0,0,0,0,0,0,0,,,,,,,,,,,,,
5862384,1745474461408,0.0,132,13.05,0.52,0.17,0.9,4,1,1,1.05,1.21,87,11845,99.5,5.23,15,13.36,0.965,91.6,176,57.9,5,7,0,34,36,3.9,0.0,50.0,0.0,2.26,0,1.0,0,0,0,0,0,0,0,0,0,0,0,0,0,0,0,0,0,0,1.0,0,0,0.0,38.994099,-76.939644,11.46,26.9,33,3,0.8
5862404,1745474461428,,,,,,,,,,,,,,,,,,,,,,,,,,,,,,,,,,0,0,0,0,0,0,0,0,0,0,0,0,0,0,0,0,,,,,,,,,,,,,
5862424,1745474461448,0.0,132,,0.55,0.03,0.92,7,1,1,1.07,1.21,89,11804,99.5,5.23,,13.49,0.968,91.6,,57.9,5,,,,,,,,,,,,0,0,0,0,0,0,0,0,0,0,0,0,0,0,0,0,,,,,,0.0,,,,,,,
5862444,1745474461468,,,,,,,,,,,,,,,,,,,,,,,,,,,,,,,,,,0,0,0,0,0,0,0,0,0,0,0,0,0,0,0,0,,,,,,,,,,,,,
5862464,1745474461488,0.0,132,,0.57,-0.05,0.87,7,1,1,1.04,1.21,86,11755,99.5,5.25,,13.49,0.968,91.6,,59.5,5,,,,,,,,,,,,0,0,0,0,0,0,0,0,0,0,0,0,0,0,0,0,,,,,,0.0,,,,,,,
5862484,1745474461508,,,,,,,,,,,,,,,,,,,,,,,10,0,35,34,3.9,48.0,50.0,0.0,2.26,,,0,0,0,0,0,0,0,0,0,0,0,0,0,0,0,0,,1,,,,,38.994099,-76.939644,14.41,26.9,33,3,0.8
5862504,1745474461528,0.0,132,,0.59,-0.13,0.95,8,1,1,1.13,1.21,93,11755,99.5,5.25,,13.44,0.967,91.6,,59.5,5,,,,,,,,,,,,0,0,0,0,0,0,0,0,0,0,0,0,0,0,0,0,,,,,,0.0,,,,,,,
5862524,1745474461548,,,,,,,,,,,,,,,,,,,,,,,,,,,,,,,,,,0,0,0,0,0,0,0,0,0,0,0,0,0,0,0,0,,,,,,,,,,,,,
5862544,1745474461568,0.0,132,,0.64,-0.04,0.95,8,1,1,1.14,1.21,95,11706,99.5,5.27,,13.43,0.954,91.6,,59.5,5,,,,,,,,,,,,0,0,0,0,0,0,0,0,0,0,0,0,0,0,0,0,,,,,,0.0,,,,,,,
5862564,1745474461588,,,,,,,,,,,,,,,,,,,,,,,,,,,,,,,,,,0,0,0,0,0,0,0,0,0,0,0,0,0,0,0,0,,,,,,,,,,,,,
5862584,1745474461608,0.0,132,,0.69,-0.07,0.96,7,1,1,1.19,1.21,98,11523,99.5,5.34,,13.48,0.964,91.6,,57.7,5,11,0,33,33,3.9,58.0,50.0,0.0,2.27,,,0,0,0,0,0,0,0,0,0,0,0,0,0,0,0,0,,1,,,,0.0,38.994099,-76.939636,18.11,26.9,33,3,0.8
5862604,1745474461628,,,,,,,,,,,,,,,,,,,,,,,,,,,,,,,,,,0,0,0,0,0,0,0,0,0,0,0,0,0,0,0,0,,,,,,,,,,,,,
5862624,1745474461648,0.0,131,,0.72,-0.17,1.02,9,1,2,1.27,1.27,100,11289,99.4,5.43,,13.52,0.959,91.6,,57.7,5,,,,,,,,,,,,0,0,0,0,0,0,0,0,0,0,0,0,0,0,0,0,,,,,,0.0,,,,,,,
5862644,1745474461668,,,,,,,,,,,,,,,,,,,,,,,,,,,,,,,,,,0,0,0,0,0,0,0,0,0,0,0,0,0,0,0,0,,,,,,,,,,,,,
5862664,1745474461688,0.0,132,,0.71,-0.08,0.98,7,1,3,1.21,1.27,96,10999,99.5,5.51,,13.52,0.959,91.6,,53.1,5,,,,,,,,,,,,0,0,0,0,0,0,0,0,0,0,0,0,0,0,0,0,,,,,,0.0,,,,,,,
5862684,1745474461707,,,,,,,,,,,,,,,,,,,,,,,14,14,33,33,3.9,195.0,50.0,0.0,2.26,,,0,0,0,0,0,0,0,0,0,0,0,0,0,0,0,0,,1,,,,,38.994099,-76.939629,21.2,26.9,33,3,0.8
5862704,1745474461727,0.0,132,,0.72,-0.1,1.02,6,1,2,1.26,1.27,99,10999,99.5,5.51,,13.45,0.971,91.6,,53.1,5,,,,,,,,,,,,0,0,0,0,0,0,0,0,0,0,0,0,0,0,0,0,,,,,,0.0,,,,,,,
5862724,1745474461747,,,,,,,,,,,,,,,,,,,,,,,,,,,,,,,,,,0,0,0,0,0,0,0,0,0,0,0,0,0,0,0,0,,,,,,,,,,,,,
5862744,1745474461767,0.0,132,,0.78,-0.23,1.07,4,1,1,1.34,1.34,100,10975,99.5,5.53,,13.65,0.97,91.6,,56.4,5,,,,,,,,,,,,0,0,0,0,0,0,0,0,0,0,0,0,0,0,0,0,,,,,,0.0,,,,,,,
5862764,1745474461787,,,,,,,,,,,,,,,,,,,,,,,,,,,,,,,,,,0,0,0,0,0,0,0,0,0,0,0,0,0,0,0,0,,,,,,,,,,,,,
5862784,1745474461807,0.0,132,,0.8,-0.06,1.02,3,1,2,1.3,1.34,97,10964,99.6,5.54,,13.59,0.966,91.6,,56.4,5,16,25,33,34,3.9,86.0,30.0,0.0,2.26,,,0,0,0,0,0,0,0,0,0,0,0,0,0,0,0,0,,1,,,,0.0,38.994099,-76.939621,25.28,26.8,33,3,0.8
5862804,1745474461827,,,,,,,,,,,,,,,,,,,,,,,,,,,,,,,,,,0,0,0,0,0,0,0,0,0,0,0,0,0,0,0,0,,,,,,,,,,,,,
5862824,1745474461847,0.0,132,,0.86,-0.09,1.05,3,1,2,1.36,1.36,100,10727,99.5,5.65,,13.48,0.954,91.6,,56.4,5,,,,,,,,,,,,0,0,0,0,0,0,0,0,0,0,0,0,0,0,0,0,,,,,,0.0,,,,,,,
5862844,1745474461867,,,,,,,,,,,,,,,,,,,,,,,,,,,,,,,,,,0,0,0,0,0,0,0,0,0,0,0,0,0,0,0,0,,,,,,,,,,,,,
5862864,1745474461887,0.0,131,,0.88,-0.28,1.02,4,1,2,1.37,1.37,100,10399,99.5,5.85,,13.48,0.954,91.6,,52.3,5,,,,,,,,,,,,0,0,0,0,0,0,0,0,0,0,0,0,0,0,0,0,,,,,,0.0,,,,,,,
5862884,1745474461908,,,,,,,,,,,,,,,,,,,,,,,18,25,32,32,3.9,29.0,26.0,0.0,2.26,,,0,0,0,0,0,0,0,0,0,0,0,0,0,0,0,0,,1,,,,,38.994099,-76.939613,28.57,26.8,33,3,0.8
5862904,1745474461928,0.0,132,,0.93,-0.21,0.99,3,1,0,1.37,1.37,100,10399,99.5,5.85,,13.65,0.967,89.8,,52.3,5,,,,,,,,,,,,0,0,0,0,0,0,0,0,0,0,0,0,0,0,0,0,,,,,,0.0,,,,,,,
5862924,1745474461948,,,,,,,,,,,,,,,,,,,,,,,,,,,,,,,,,,0,0,0,0,0,0,0,0,0,0,0,0,0,0,0,0,,,,,,,,,,,,,
5862944,1745474461968,0.0,132,,0.92,0.21,1.0,2,0,1,1.37,1.37,100,10227,99.5,5.99,,13.75,0.958,89.8,,51.8,5,,,,,,,,,,,,0,0,0,0,0,0,0,0,0,0,0,0,0,0,0,0,,,,,,0.0,,,,,,,
5862964,1745474461988,,,,,,,,,,,,,,,,,,,,,,,,,,,,,,,,,,0,0,0,0,0,0,0,0,0,0,0,0,0,0,0,0,,,,,,,,,,,,,
5862984,1745474461997,0.0,132,,0.89,-0.09,1.07,4,0,0,1.39,1.39,100,10273,99.5,5.96,,13.71,0.942,89.8,,51.8,5,21,25,30,31,3.9,231.0,17.0,0.0,2.26,,,0,0,0,0,0,0,0,0,0,0,0,0,0,0,0,0,,0,,,,0.0,38.994102,-76.939606,33.21,26.8,33,3,0.8
5863004,1745474462017,,,,,,,,,,,,,,,,,,,,,,,,,,,,,,,,,,0,0,0,0,0,0,0,0,0,0,0,0,0,0,0,0,,,,,,,,,,,,,
5863024,1745474462037,0.0,131,,0.92,-0.41,0.98,5,-0,-1,1.41,1.41,100,10187,99.5,5.99,,13.71,0.942,89.8,,51.8,5,,,,,,,,,,,,0,0,0,0,0,0,0,0,0,0,0,0,0,0,0,0,,,,,,0.0,,,,,,,
5863044,1745474462057,,,,,,,,,,,,,,,,,,,,,,,,,,,,,,,,,,0,0,0,0,0,0,0,0,0,0,0,0,0,0,0,0,,,,,,,,,,,,,
5863064,1745474462077,0.0,131,,0.92,-0.47,1.03,4,-0,-1,1.46,1.46,100,10008,99.6,6.07,,13.65,0.937,89.8,,51.5,5,,,,,,,,,,,,0,0,0,0,0,0,0,0,0,0,0,0,0,0,0,0,,,,,,0.0,,,,,,,
5863084,1745474462099,,,,,,,,,,,,,,,,,,,,,,,24,25,29,31,3.9,237.0,12.0,0.0,2.27,,,0,0,0,0,0,0,0,0,0,0,0,0,0,0,0,0,,1,,,,,38.994102,-76.93959,36.63,26.8,33,3,0.8
5863104,1745474462119,0.0,131,,0.94,-0.44,0.99,2,-0,-0,1.44,1.46,98,10008,99.6,6.07,,13.65,0.929,89.8,,51.5,5,,,,,,,,,,,,0,0,0,0,0,0,0,0,0,0,0,0,0,0,0,0,,,,,,0.0,,,,,,,
5863124,1745474462139,,,,,,,,,,,,,,,,,,,,,,,,,,,,,,,,,,0,0,0,0,0,0,0,0,0,0,0,0,0,0,0,0,,,,,,,,,,,,,
5863144,1745474462159,0.0,131,,0.92,-0.55,0.97,-1,-1,-1,1.45,1.46,99,9892,99.6,6.08,,13.8,0.912,89.8,,51.5,5,,,,,,,,,,,,0,0,0,0,0,0,0,0,0,0,0,0,0,0,0,0,,,,,,0.0,,,,,,,
5863164,1745474462179,,,,,,,,,,,,,,,,,,,,,,,,,,,,,,,,,,0,0,0,0,0,0,0,0,0,0,0,0,0,0,0,0,,,,,,,,,,,,,
5863184,1745474462207,0.0,131,,0.9,-0.64,0.98,-2,-0,0,1.47,1.47,100,10185,99.4,6.0,,13.67,0.905,89.8,,51.9,5,25,25,29,33,3.9,24.0,18.0,0.0,2.27,,,0,0,0,0,0,0,0,0,0,0,0,0,0,0,0,0,,0,,,,0.0,38.994102,-76.939575,40.74,26.8,33,3,0.8
5863204,1745474462227,,,,,,,,,,,,,,,,,,,,,,,,,,,,,,,,,,0,0,0,0,0,0,0,0,0,0,0,0,0,0,0,0,,,,,,,,,,,,,
5863224,1745474462247,0.0,132,,0.92,-0.67,0.95,-3,0,0,1.48,1.48,100,10078,48.8,5.34,,13.08,0.889,89.8,,51.9,5,,,,,,,,,,,,0,0,0,0,0,0,0,0,0,0,0,0,0,0,0,0,,,,,,0.0,,,,,,,
5863244,1745474462267,,,,,,,,,,,,,,,,,,,,,,,,,,,,,,,,,,0,0,0,0,0,0,0,0,0,0,0,0,0,0,0,0,,,,,,,,,,,,,
5863264,1745474462287,0.0,131,,0.92,-0.89,0.9,-6,1,0,1.56,1.56,100,10078,48.8,5.34,,13.08,0.889,89.8,,57.0,5,,,,,,,,,,,,0,0,0,0,0,0,0,0,0,0,0,0,0,0,0,0,,,,,,0.0,,,,,,,
5863284,1745474462307,,,,,,,,,,,,,,,,,,,,,,,27,30,30,31,3.9,72.0,6.0,0.0,2.26,,,0,0,0,0,0,0,0,0,0,0,0,0,0,0,0,0,,0,,,,,38.994102,-76.939568,43.59,26.8,33,3,0.8
5863304,1745474462327,0.0,131,,0.85,-0.74,0.95,-7,0,-0,1.47,1.56,94,9746,32.0,5.04,,11.88,0.882,89.8,,57.0,5,,,,,,,,,,,,0,0,0,0,0,0,0,0,0,0,0,0,0,0,0,0,,,,,,0.0,,,,,,,
5863324,1745474462347,,,,,,,,,,,,,,,,,,,,,,,,,,,,,,,,,,0,0,0,0,0,0,0,0,0,0,0,0,0,0,0,0,,,,,,,,,,,,,
5863344,1745474462367,0.0,131,,0.76,-0.82,1.01,-8,-1,0,1.5,1.56,96,9874,28.2,4.9,,11.26,0.87,89.8,,57.7,5,,,,,,,,,,,,0,0,0,0,0,0,0,0,0,0,0,0,0,0,0,0,,,,,,0.0,,,,,,,
5863364,1745474462387,,,,,,,,,,,,,,,,,,,,,,,,,,,,,,,,,,0,0,0,0,0,0,0,0,0,0,0,0,0,0,0,0,,,,,,,,,,,,,
5863384,1745474462409,0.0,131,13.08,0.67,-0.73,0.97,-13,-2,1,1.39,1.56,89,10158,27.0,4.27,15,10.61,0.832,89.8,176,57.7,5,28,31,31,31,3.9,13.0,0.0,0.0,2.26,0,1.0,0,0,0,0,0,0,0,0,0,0,0,0,0,0,0,0,0,0,1.0,0,0,0.0,38.994102,-76.939552,47.57,26.7,33,3,0.8
5863404,1745474462429,,,,,,,,,,,,,,,,,,,,,,,,,,,,,,,,,,0,0,0,0,0,0,0,0,0,0,0,0,0,0,0,0,,,,,,,,,,,,,
5863424,1745474462449,0.0,131,,0.57,-0.78,0.95,-16,-2,0,1.36,1.56,87,10457,16.4,3.49,,9.85,0.805,89.8,,57.7,5,,,,,,,,,,,,0,0,0,0,0,0,0,0,0,0,0,0,0,0,0,0,,,,,,0.0,,,,,,,
5863444,1745474462469,,,,,,,,,,,,,,,,,,,,,,,,,,,,,,,,,,0,0,0,0,0,0,0,0,0,0,0,0,0,0,0,0,,,,,,,,,,,,,
5863464,1745474462489,0.0,131,,0.51,-0.6,0.95,-21,-1,1,1.23,1.56,79,10457,16.4,3.49,,9.85,0.805,89.8,,53.9,5,,,,,,,,,,,,0,0,0,0,0,0,0,0,0,0,0,0,0,0,0,0,,,,,,0.0,,,,,,,
5863484,1745474462509,,,,,,,,,,,,,,,,,,,,,,,29,32,32,32,3.9,227.0,0.0,0.0,2.27,,,0,0,0,0,0,0,0,0,0,0,0,0,0,0,0,0,,1,,,,,38.994102,-76.939537,48.71,26.7,33,3,0.8
5863504,1745474462529,0.0,130,,0.48,-0.52,0.99,-23,-1,2,1.22,1.56,78,10671,7.2,2.29,,8.26,0.822,89.8,,53.9,5,,,,,,,,,,,,0,0,0,0,0,0,0,0,0,0,0,0,0,0,0,0,,,,,,0.0,,,,,,,
5863524,1745474462549,,,,,,,,,,,,,,,,,,,,,,,,,,,,,,,,,,0,0,0,0,0,0,0,0,0,0,0,0,0,0,0,0,,,,,,,,,,,,,
5863544,1745474462569,0.0,131,,0.43,-0.41,0.96,-25,-1,2,1.12,1.12,100,10438,1.7,1.4,,6.83,0.826,89.8,,53.9,5,,,,,,,,,,,,0,0,0,0,0,0,0,0,0,0,0,0,0,0,0,0,,,,,,0.0,,,,,,,
5863564,1745474462589,,,,,,,,,,,,,,,,,,,,,,,,,,,,,,,,,,0,0,0,0,0,0,0,0,0,0,0,0,0,0,0,0,,,,,,,,,,,,,
5863584,1745474462609,0.0,130,,0.31,-0.52,0.88,-26,-2,2,1.07,1.12,95,10135,0.5,1.4,,6.23,0.842,89.8,,52.9,5,30,33,30,33,3.9,220.0,0.0,0.0,2.27,,,0,0,0,0,0,0,0,0,0,0,0,0,0,0,0,0,,0,,,,0.0,38.994102,-76.939522,48.59,26.7,33,3,0.8
5863604,1745474462629,,,,,,,,,,,,,,,,,,,,,,,,,,,,,,,,,,0,0,0,0,0,0,0,0,0,0,0,0,0,0,0,0,,,,,,,,,,,,,
5863624,1745474462649,0.0,130,,0.21,-0.51,0.84,-30,-1,2,1.0,1.12,89,10033,0.3,1.4,,5.75,0.888,89.8,,52.9,5,,,,,,,,,,,,0,0,0,0,0,0,0,0,0,0,0,0,0,0,0,0,,,,,,0.0,,,,,,,
5863644,1745474462669,,,,,,,,,,,,,,,,,,,,,,,,,,,,,,,,,,0,0,0,0,0,0,0,0,0,0,0,0,0,0,0,0,,,,,,,,,,,,,
5863664,1745474462689,0.0,130,,0.09,-0.7,0.8,-33,-0,1,1.06,1.12,95,10033,0.3,1.4,,5.75,0.888,89.8,,50.3,5,,,,,,,,,,,,0,0,0,0,0,0,0,0,0,0,0,0,0,0,0,0,,,,,,0.0,,,,,,,
5863684,1745474462710,,,,,,,,,,,,,,,,,,,,,,,30,31,29,32,3.9,198.0,0.0,0.0,2.26,,,0,0,0,0,0,0,0,0,0,0,0,0,0,0,0,0,,0,,,,,38.994099,-76.939506,49.49,26.6,33,3,0.8
5863704,1745474462730,0.0,130,,0.04,-0.8,0.79,-35,-0,2,1.12,1.12,100,9953,0.3,1.4,,5.48,0.948,89.8,,50.3,5,,,,,,,,,,,,0,0,0,0,0,0,0,0,0,0,0,0,0,0,0,0,,,,,,0.0,,,,,,,
5863724,1745474462750,,,,,,,,,,,,,,,,,,,,,,,,,,,,,,,,,,0,0,0,0,0,0,0,0,0,0,0,0,0,0,0,0,,,,,,,,,,,,,
5863744,1745474462770,0.0,130,,-0.01,-0.84,0.85,-37,-1,3,1.2,1.2,100,9831,0.6,1.4,,5.28,0.97,89.8,,48.2,5,,,,,,,,,,,,0,0,0,0,0,0,0,0,0,0,0,0,0,0,0,0,,,,,,0.0,,,,,,,
5863764,1745474462790,,,,,,,,,,,,,,,,,,,,,,,,,,,,,,,,,,0,0,0,0,0,0,0,0,0,0,0,0,0,0,0,0,,,,,,,,,,,,,
5863784,1745474462808,0.0,129,,-0.12,-0.98,0.86,-39,-2,2,1.31,1.31,100,9692,0.8,1.4,,5.14,0.987,89.8,,48.2,5,29,30,29,32,3.9,250.0,0.0,0.0,2.26,,,0,0,0,0,0,0,0,0,0,0,0,0,0,0,0,0,,0,,,,0.0,38.994095,-76.939491,47.73,26.6,33,3,0.8
5863804,1745474462828,,,,,,,,,,,,,,,,,,,,,,,,,,,,,,,,,,0,0,0,0,0,0,0,0,0,0,0,0,0,0,0,0,,,,,,,,,,,,,
5863824,1745474462848,0.0,129,,-0.23,-1.0,0.83,-42,-2,3,1.32,1.32,100,9652,0.8,1.4,,5.14,0.987,89.8,,48.2,5,,,,,,,,,,,,0,0,0,0,0,0,0,0,0,0,0,0,0,0,0,0,,,,,,0.0,,,,,,,
5863844,1745474462868,,,,,,,,,,,,,,,,,,,,,,,,,,,,,,,,,,0,0,0,0,0,0,0,0,0,0,0,0,0,0,0,0,,,,,,,,,,,,,
5863864,1745474462888,0.0,130,,-0.25,-0.96,0.83,-46,-1,2,1.3,1.32,98,9437,0.7,1.4,,4.97,1.002,89.8,,47.7,5,,,,,,,,,,,,0,0,0,0,0,0,0,0,0,0,0,0,0,0,0,0,,,,,,0.0,,,,,,,
5863884,1745474462908,,,,,,,,,,,,,,,,,,,,,,,28,32,26,33,3.9,35.0,0.0,0.0,2.26,,,0,0,0,0,0,0,0,0,0,0,0,0,0,0,0,0,,0,,,,,38.994095,-76.939476,47.65,26.6,33,3,0.8
5863904,1745474462928,0.0,129,,-0.34,-1.17,0.83,-50,-0,2,1.47,1.47,100,9437,0.7,1.4,,4.91,1.035,88.0,,47.7,5,,,,,,,,,,,,0,0,0,0,0,0,0,0,0,0,0,0,0,0,0,0,,,,,,0.0,,,,,,,
5863924,1745474462948,,,,,,,,,,,,,,,,,,,,,,,,,,,,,,,,,,0,0,0,0,0,0,0,0,0,0,0,0,0,0,0,0,,,,,,,,,,,,,
5863944,1745474462968,0.0,129,,-0.4,-1.07,0.86,-51,-1,2,1.43,1.47,97,9282,0.4,1.4,,4.81,1.069,88.0,,47.1,5,,,,,,,,,,,,0,0,0,0,0,0,0,0,0,0,0,0,0,0,0,0,,,,,,0.0,,,,,,,
5863964,1745474462988,,,,,,,,,,,,,,,,,,,,,,,,,,,,,,,,,,0,0,0,0,0,0,0,0,0,0,0,0,0,0,0,0,,,,,,,,,,,,,
5863984,1745474463000,0.0,130,,-0.44,-0.95,0.84,-54,-1,3,1.34,1.47,91,9206,0.5,1.4,,4.8,1.165,88.0,,47.1,5,27,31,25,30,3.9,223.0,0.0,0.0,2.27,,,0,0,0,0,0,0,0,0,0,0,0,0,0,0,0,0,,0,,,,0.0,38.994091,-76.939461,44.88,26.6,32,3,0.8
5864004,1745474463020,,,,,,,,,,,,,,,,,,,,,,,,,,,,,,,,,,0,0,0,0,0,0,0,0,0,0,0,0,0,0,0,0,,,,,,,,,,,,,
5864024,1745474463040,0.0,130,,-0.52,-1.06,0.81,-57,-0,2,1.43,1.47,97,8996,0.4,1.4,,4.83,1.247,88.0,,47.1,5,,,,,,,,,,,,0,0,0,0,0,0,0,0,0,0,0,0,0,0,0,0,,,,,,0.0,,,,,,,
5864044,1745474463060,,,,,,,,,,,,,,,,,,,,,,,,,,,,,,,,,,0,0,0,0,0,0,0,0,0,0,0,0,0,0,0,0,,,,,,,,,,,,,
5864064,1745474463080,0.0,130,,-0.55,-0.94,0.8,-59,0,2,1.36,1.47,92,8765,0.4,1.4,,4.83,1.247,88.0,,47.4,5,,,,,,,,,,,,0,0,0,0,0,0,0,0,0,0,0,0,0,0,0,0,,,,,,0.0,,,,,,,
5864084,1745474463108,,,,,,,,,,,,,,,,,,,,,,,24,30,24,30,3.9,45.0,0.0,0.0,2.27,,,0,0,0,0,0,0,0,0,0,0,0,0,0,0,0,0,,0,,,,,38.994083,-76.939453,44.49,26.5,32,3,0.8
5864104,1745474463128,0.0,130,,-0.6,-0.84,0.85,-61,1,2,1.34,1.47,91,8765,0.4,1.4,,4.93,1.25,88.0,,47.4,5,,,,,,,,,,,,0,0,0,0,0,0,0,0,0,0,0,0,0,0,0,0,,,,,,0.0,,,,,,,
5864124,1745474463148,,,,,,,,,,,,,,,,,,,,,,,,,,,,,,,,,,0,0,0,0,0,0,0,0,0,0,0,0,0,0,0,0,,,,,,,,,,,,,
5864144,1745474463168,0.0,130,,-0.6,-0.89,0.89,-61,1,2,1.4,1.47,95,8569,0.6,1.4,,4.97,1.252,88.0,,47.3,5,,,,,,,,,,,,0,0,0,0,0,0,0,0,0,0,0,0,0,0,0,0,,,,,,0.0,,,,,,,
5864164,1745474463188,,,,,,,,,,,,,,,,,,,,,,,,,,,,,,,,,,0,0,0,0,0,0,0,0,0,0,0,0,0,0,0,0,,,,,,,,,,,,,
5864184,1745474463210,0.0,130,,-0.62,-0.95,0.9,-64,1,1,1.44,1.47,98,8364,5.8,1.59,,5.43,1.252,88.0,,47.3,5,26,28,23,27,3.9,203.0,0.0,0.0,2.26,,,0,0,0,0,0,0,0,0,0,0,0,0,0,0,0,0,,0,,,,0.0,38.994076,-76.939438,42.32,26.5,32,3,0.8
5864204,1745474463230,,,,,,,,,,,,,,,,,,,,,,,,,,,,,,,,,,0,0,0,0,0,0,0,0,0,0,0,0,0,0,0,0,,,,,,,,,,,,,
5864224,1745474463250,0.0,130,,-0.63,-0.99,0.89,-64,1,1,1.47,1.47,100,8174,11.6,1.95,,6.36,1.252,88.0,,47.3,5,,,,,,,,,,,,0,0,0,0,0,0,0,0,0,0,0,0,0,0,0,0,,,,,,0.0,,,,,,,
5864244,1745474463270,,,,,,,,,,,,,,,,,,,,,,,,,,,,,,,,,,0,0,0,0,0,0,0,0,0,0,0,0,0,0,0,0,,,,,,,,,,,,,
5864264,1745474463290,0.0,130,,-0.65,-1.04,0.87,-67,1,0,1.51,1.51,100,8133,17.9,2.42,,6.36,1.252,88.0,,47.5,5,,,,,,,,,,,,0,0,0,0,0,0,0,0,0,0,0,0,0,0,0,0,,,,,,0.0,,,,,,,
5864284,1745474463308,,,,,,,,,,,,,,,,,,,,,,,24,27,22,29,3.9,229.0,0.0,0.0,2.26,,,0,0,0,0,0,0,0,0,0,0,0,0,0,0,0,0,,0,,,,,38.994068,-76.93943,40.5,26.5,32,3,0.8
5864304,1745474463328,0.0,130,,-0.64,-1.01,0.88,-67,1,0,1.48,1.48,100,8133,17.9,2.42,,7.59,1.25,88.0,,47.5,5,,,,,,,,,,,,0,0,0,0,0,0,0,0,0,0,0,0,0,0,0,0,,,,,,0.0,,,,,,,
5864324,1745474463348,,,,,,,,,,,,,,,,,,,,,,,,,,,,,,,,,,0,0,0,0,0,0,0,0,0,0,0,0,0,0,0,0,,,,,,,,,,,,,
5864344,1745474463368,0.0,130,,-0.65,-1.03,0.85,-68,1,1,1.49,1.49,100,8205,20.0,3.25,,8.7,1.25,88.0,,47.0,5,,,,,,,,,,,,0,0,0,0,0,0,0,0,0,0,0,0,0,0,0,0,,,,,,0.0,,,,,,,
5864364,1745474463388,,,,,,,,,,,,,,,,,,,,,,,,,,,,,,,,,,0,0,0,0,0,0,0,0,0,0,0,0,0,0,0,0,,,,,,,,,,,,,
5864384,1745474463410,0.0,129,13.14,-0.63,-1.25,0.91,-67,1,2,1.67,1.67,100,8678,20.1,3.34,15,9.37,1.25,88.0,176,47.0,5,22,25,23,27,3.9,239.0,1.0,0.0,2.27,0,1.0,0,0,0,0,0,0,0,0,0,0,0,0,0,0,0,0,0,0,1.0,0,-0,0.0,38.99406,-76.939423,39.26,26.5,32,3,0.8
5864404,1745474463430,,,,,,,,,,,,,,,,,,,,,,,,,,,,,,,,,,0,0,0,0,0,0,0,0,0,0,0,0,0,0,0,0,,,,,,,,,,,,,
5864424,1745474463450,0.0,130,,-0.64,-1.38,0.94,-66,1,1,1.79,1.79,100,9240,19.5,3.26,,9.38,1.113,88.0,,47.0,5,,,,,,,,,,,,0,0,0,0,0,0,0,0,0,0,0,0,0,0,0,0,,,,,,0.0,,,,,,,
5864444,1745474463470,,,,,,,,,,,,,,,,,,,,,,,,,,,,,,,,,,0,0,0,0,0,0,0,0,0,0,0,0,0,0,0,0,,,,,,,,,,,,,
5864464,1745474463490,0.0,130,,-0.56,-1.46,0.89,-68,2,-0,1.8,1.8,100,9447,18.7,3.24,,9.38,1.113,88.0,,48.7,5,,,,,,,,,,,,0,0,0,0,0,0,0,0,0,0,0,0,0,0,0,0,,,,,,0.0,,,,,,,
5864484,1745474463505,,,,,,,,,,,,,,,,,,,,,,,22,25,31,25,3.9,157.0,12.0,0.0,2.27,,,0,0,0,0,0,0,0,0,0,0,0,0,0,0,0,0,,0,,,,,38.994053,-76.939415,38.01,26.5,32,3,0.8
5864504,1745474463525,0.0,130,,-0.49,-1.35,0.93,-67,3,0,1.71,1.8,95,9447,18.7,3.24,,9.06,1.031,88.0,,48.7,5,,,,,,,,,,,,0,0,0,0,0,0,0,0,0,0,0,0,0,0,0,0,,,,,,0.0,,,,,,,
5864524,1745474463545,,,,,,,,,,,,,,,,,,,,,,,,,,,,,,,,,,0,0,0,0,0,0,0,0,0,0,0,0,0,0,0,0,,,,,,,,,,,,,
5864544,1745474463565,0.0,130,,-0.4,-1.36,0.94,-66,3,1,1.7,1.8,94,9556,16.5,3.11,,8.79,1.046,88.0,,48.6,5,,,,,,,,,,,,0,0,0,0,0,0,0,0,0,0,0,0,0,0,0,0,,,,,,0.0,,,,,,,
5864564,1745474463585,,,,,,,,,,,,,,,,,,,,,,,,,,,,,,,,,,0,0,0,0,0,0,0,0,0,0,0,0,0,0,0,0,,,,,,,,,,,,,
5864584,1745474463604,0.0,129,,-0.35,-1.5,0.99,-62,2,0,1.83,1.83,100,9120,7.5,2.57,,8.13,1.051,88.0,,48.6,5,22,30,28,29,3.9,67.0,21.0,0.0,2.26,,,0,0,0,0,0,0,0,0,0,0,0,0,0,0,0,0,,0,,,,0.0,38.994041,-76.939415,38.04,26.5,32,3,0.8
5864604,1745474463624,,,,,,,,,,,,,,,,,,,,,,,,,,,,,,,,,,0,0,0,0,0,0,0,0,0,0,0,0,0,0,0,0,,,,,,,,,,,,,
5864624,1745474463644,0.0,130,,-0.4,-1.53,0.99,-60,1,1,1.87,1.87,100,8637,2.7,1.4,,7.39,1.036,88.0,,48.6,5,,,,,,,,,,,,0,0,0,0,0,0,0,0,0,0,0,0,0,0,0,0,,,,,,0.0,,,,,,,
5864644,1745474463664,,,,,,,,,,,,,,,,,,,,,,,,,,,,,,,,,,0,0,0,0,0,0,0,0,0,0,0,0,0,0,0,0,,,,,,,,,,,,,
5864664,1745474463684,0.0,130,,-0.42,-1.4,1.03,-59,1,1,1.79,1.87,96,8050,3.7,1.67,,7.39,1.036,88.0,,47.8,5,,,,,,,,,,,,0,0,0,0,0,0,0,0,0,0,0,0,0,0,0,0,,,,,,0.0,,,,,,,
5864684,1745474463703,,,,,,,,,,,,,,,,,,,,,,,22,24,26,26,3.9,7.0,0.0,0.0,2.26,,,0,0,0,0,0,0,0,0,0,0,0,0,0,0,0,0,,0,,,,,38.994034,-76.939407,40.55,26.4,32,3,0.8
5864704,1745474463723,0.0,128,,-0.44,-1.48,1.01,-59,1,-0,1.84,1.87,99,8050,3.7,1.67,,6.98,1.014,88.0,,47.8,5,,,,,,,,,,,,0,0,0,0,0,0,0,0,0,0,0,0,0,0,0,0,,,,,,0.0,,,,,,,
5864724,1745474463743,,,,,,,,,,,,,,,,,,,,,,,,,,,,,,,,,,0,0,0,0,0,0,0,0,0,0,0,0,0,0,0,0,,,,,,,,,,,,,
5864744,1745474463763,0.0,129,,-0.51,-1.49,0.99,-59,1,-0,1.86,1.87,100,7568,4.0,1.99,,6.87,1.051,88.0,,47.8,5,,,,,,,,,,,,0,0,0,0,0,0,0,0,0,0,0,0,0,0,0,0,,,,,,0.0,,,,,,,
5864764,1745474463783,,,,,,,,,,,,,,,,,,,,,,,,,,,,,,,,,,0,0,0,0,0,0,0,0,0,0,0,0,0,0,0,0,,,,,,,,,,,,,
5864784,1745474463803,0.0,127,,-0.61,-1.56,0.96,-58,0,1,1.93,1.93,100,7550,3.9,1.92,,6.96,1.249,88.0,,47.5,5,22,23,22,23,3.9,183.0,0.0,0.0,2.26,,,0,0,0,0,0,0,0,0,0,0,0,0,0,0,0,0,,0,,,,0.0,38.994022,-76.939407,38.65,26.4,32,3,0.8
5864804,1745474463823,,,,,,,,,,,,,,,,,,,,,,,,,,,,,,,,,,0,0,0,0,0,0,0,0,0,0,0,0,0,0,0,0,,,,,,,,,,,,,
5864824,1745474463843,0.0,129,,-0.62,-1.53,1.01,-58,-1,1,1.94,1.94,100,7762,3.7,1.9,,6.84,1.249,88.0,,47.5,5,,,,,,,,,,,,0,0,0,0,0,0,0,0,0,0,0,0,0,0,0,0,,,,,,0.0,,,,,,,
5864844,1745474463863,,,,,,,,,,,,,,,,,,,,,,,,,,,,,,,,,,0,0,0,0,0,0,0,0,0,0,0,0,0,0,0,0,,,,,,,,,,,,,
5864864,1745474463883,0.0,130,,-0.63,-1.4,1.01,-60,-0,0,1.84,1.94,95,7547,3.5,1.72,,6.84,1.249,88.0,,48.0,5,,,,,,,,,,,,0,0,0,0,0,0,0,0,0,0,0,0,0,0,0,0,,,,,,0.0,,,,,,,
5864884,1745474463909,,,,,,,,,,,,,,,,,,,,,,,21,24,20,25,3.9,20.0,0.0,0.0,2.27,,,0,0,0,0,0,0,0,0,0,0,0,0,0,0,0,0,,1,,,,,38.994015,-76.939407,37.38,26.4,32,3,0.8
5864904,1745474463929,0.0,129,,-0.62,-1.38,1.06,-61,1,-0,1.85,1.94,95,7547,3.5,1.72,,6.91,1.249,86.2,,48.0,5,,,,,,,,,,,,0,0,0,0,0,0,0,0,0,0,0,0,0,0,0,0,,,,,,0.0,,,,,,,
5864924,1745474463949,,,,,,,,,,,,,,,,,,,,,,,,,,,,,,,,,,0,0,0,0,0,0,0,0,0,0,0,0,0,0,0,0,,,,,,,,,,,,,
5864944,1745474463969,0.0,129,,-0.57,-1.33,1.06,-62,0,0,1.8,1.94,93,7333,3.5,1.86,,6.96,1.25,86.2,,47.5,5,,,,,,,,,,,,0,0,0,0,0,0,0,0,0,0,0,0,0,0,0,0,,,,,,0.0,,,,,,,
5864964,1745474463989,,,,,,,,,,,,,,,,,,,,,,,,,,,,,,,,,,0,0,0,0,0,0,0,0,0,0,0,0,0,0,0,0,,,,,,,,,,,,,
5864984,1745474463999,0.0,129,,-0.64,-1.37,0.99,-63,-1,1,1.8,1.94,93,7239,3.6,1.8,,7.0,1.25,86.2,,47.5,5,22,26,20,26,3.9,212.0,0.0,0.0,2.27,,,0,0,0,0,0,0,0,0,0,0,0,0,0,0,0,0,,0,,,,0.0,38.994007,-76.939407,34.8,26.4,32,3,0.8
5865004,1745474464019,,,,,,,,,,,,,,,,,,,,,,,,,,,,,,,,,,0,0,0,0,0,0,0,0,0,0,0,0,0,0,0,0,,,,,,,,,,,,,
5865024,1745474464039,0.0,130,,-0.66,-1.24,1.01,-64,-0,1,1.73,1.94,89,7196,9.0,2.55,,7.63,1.252,86.2,,47.5,5,,,,,,,,,,,,0,0,0,0,0,0,0,0,0,0,0,0,0,0,0,0,,,,,,0.0,,,,,,,
5865044,1745474464059,,,,,,,,,,,,,,,,,,,,,,,,,,,,,,,,,,0,0,0,0,0,0,0,0,0,0,0,0,0,0,0,0,,,,,,,,,,,,,
5865064,1745474464079,0.0,130,,-0.62,-1.39,0.97,-66,0,0,1.81,1.94,93,7262,11.1,2.81,,7.63,1.252,86.2,,47.0,5,,,,,,,,,,,,0,0,0,0,0,0,0,0,0,0,0,0,0,0,0,0,,,,,,0.0,,,,,,,
5865084,1745474464107,,,,,,,,,,,,,,,,,,,,,,,20,24,19,24,3.9,11.0,0.0,0.0,2.26,,,0,0,0,0,0,0,0,0,0,0,0,0,0,0,0,0,,0,,,,,38.993996,-76.939407,34.83,26.4,32,3,0.8
5865104,1745474464127,0.0,130,,-0.64,-1.36,0.93,-66,0,-0,1.76,1.94,91,7262,11.1,2.81,,8.27,1.253,86.2,,47.0,5,,,,,,,,,,,,0,0,0,0,0,0,0,0,0,0,0,0,0,0,0,0,,,,,,0.0,,,,,,,
5865124,1745474464147,,,,,,,,,,,,,,,,,,,,,,,,,,,,,,,,,,0,0,0,0,0,0,0,0,0,0,0,0,0,0,0,0,,,,,,,,,,,,,
5865144,1745474464167,0.0,130,,-0.62,-1.23,0.93,-66,0,0,1.66,1.94,86,7396,12.2,2.98,,8.75,1.252,86.2,,46.8,5,,,,,,,,,,,,0,0,0,0,0,0,0,0,0,0,0,0,0,0,0,0,,,,,,0.0,,,,,,,
5865164,1745474464191,,,,,,,,,,,,,,,,,,,,,,,,,,,,,,,,,,0,0,0,0,0,0,0,0,0,0,0,0,0,0,0,0,,,,,,,,,,,,,
5865184,1745474464211,0.0,130,,-0.61,-1.14,0.95,-65,-0,-0,1.6,1.94,83,7500,12.6,3.01,,9.05,1.131,86.2,,46.8,5,21,22,20,23,3.9,27.0,0.0,0.0,2.26,,,0,0,0,0,0,0,0,0,0,0,0,0,0,0,0,0,,1,,,,0.0,38.993988,-76.939415,33.31,26.4,33,3,0.8
5865204,1745474464231,,,,,,,,,,,,,,,,,,,,,,,,,,,,,,,,,,0,0,0,0,0,0,0,0,0,0,0,0,0,0,0,0,,,,,,,,,,,,,
5865224,1745474464251,0.0,130,,-0.59,-1.25,0.9,-65,-0,-0,1.65,1.94,85,7571,12.9,3.1,,9.11,1.066,86.2,,46.8,5,,,,,,,,,,,,0,0,0,0,0,0,0,0,0,0,0,0,0,0,0,0,,,,,,0.0,,,,,,,
5865244,1745474464271,,,,,,,,,,,,,,,,,,,,,,,,,,,,,,,,,,0,0,0,0,0,0,0,0,0,0,0,0,0,0,0,0,,,,,,,,,,,,,
5865264,1745474464291,0.0,130,,-0.57,-1.31,0.89,-64,-0,-0,1.68,1.68,100,7302,13.3,3.27,,9.11,1.066,86.2,,47.1,5,,,,,,,,,,,,0,0,0,0,0,0,0,0,0,0,0,0,0,0,0,0,,,,,,0.0,,,,,,,
5865284,1745474464310,,,,,,,,,,,,,,,,,,,,,,,20,23,21,23,3.9,11.0,0.0,0.0,2.27,,,0,0,0,0,0,0,0,0,0,0,0,0,0,0,0,0,,1,,,,,38.99398,-76.939415,33.57,26.4,33,3,0.8
5865304,1745474464330,0.0,130,,-0.5,-1.23,0.91,-62,-0,-0,1.61,1.68,95,7302,13.3,3.27,,9.31,1.07,86.2,,47.1,5,,,,,,,,,,,,0,0,0,0,0,0,0,0,0,0,0,0,0,0,0,0,,,,,,0.0,,,,,,,
5865324,1745474464350,,,,,,,,,,,,,,,,,,,,,,,,,,,,,,,,,,0,0,0,0,0,0,0,0,0,0,0,0,0,0,0,0,,,,,,,,,,,,,
5865344,1745474464370,0.0,129,,-0.52,-1.29,0.93,-62,-1,-0,1.67,1.68,99,7186,13.0,3.36,,9.56,1.163,86.2,,46.0,5,,,,,,,,,,,,0,0,0,0,0,0,0,0,0,0,0,0,0,0,0,0,,,,,,0.0,,,,,,,
5865364,1745474464391,,,,,,,,,,,,,,,,,,,,,,,,,,,,,,,,,,0,0,0,0,0,0,0,0,0,0,0,0,0,0,0,0,,,,,,,,,,,,,
5865384,1745474464411,0.0,130,13.15,-0.51,-1.23,0.94,-61,-0,-0,1.63,1.68,97,7171,13.0,3.41,15,9.66,1.109,86.2,176,46.0,5,20,23,21,24,3.9,47.0,0.0,0.0,2.27,0,1.0,0,0,0,0,0,0,0,0,0,0,0,0,0,0,0,0,0,0,1.0,0,-0,0.0,38.993977,-76.939415,33.85,26.4,33,3,0.8
5865404,1745474464431,,,,,,,,,,,,,,,,,,,,,,,,,,,,,,,,,,0,0,0,0,0,0,0,0,0,0,0,0,0,0,0,0,,,,,,,,,,,,,
5865424,1745474464451,0.0,130,,-0.45,-1.25,0.95,-61,-0,-0,1.63,1.68,97,7158,13.1,3.49,,9.82,1.058,86.2,,46.0,5,,,,,,,,,,,,0,0,0,0,0,0,0,0,0,0,0,0,0,0,0,0,,,,,,0.0,,,,,,,
5865444,1745474464471,,,,,,,,,,,,,,,,,,,,,,,,,,,,,,,,,,0,0,0,0,0,0,0,0,0,0,0,0,0,0,0,0,,,,,,,,,,,,,
5865464,1745474464491,0.0,130,,-0.49,-1.2,0.94,-60,0,1,1.6,1.68,95,7188,13.0,3.51,,9.82,1.058,86.2,,45.6,5,,,,,,,,,,,,0,0,0,0,0,0,0,0,0,0,0,0,0,0,0,0,,,,,,0.0,,,,,,,
5865484,1745474464509,,,,,,,,,,,,,,,,,,,,,,,20,26,20,23,3.9,52.0,0.0,0.0,2.27,,,0,0,0,0,0,0,0,0,0,0,0,0,0,0,0,0,,0,,,,,38.993969,-76.939423,33.7,26.4,33,3,0.8
5865504,1745474464529,0.0,130,,-0.41,-1.19,0.94,-59,1,1,1.57,1.68,93,7188,13.0,3.51,,9.84,1.112,86.2,,45.6,5,,,,,,,,,,,,0,0,0,0,0,0,0,0,0,0,0,0,0,0,0,0,,,,,,0.0,,,,,,,
5865524,1745474464549,,,,,,,,,,,,,,,,,,,,,,,,,,,,,,,,,,0,0,0,0,0,0,0,0,0,0,0,0,0,0,0,0,,,,,,,,,,,,,
5865544,1745474464569,0.0,130,,-0.41,-1.21,0.92,-59,1,1,1.57,1.68,93,7210,13.0,3.47,,9.9,1.176,86.2,,45.2,5,,,,,,,,,,,,0,0,0,0,0,0,0,0,0,0,0,0,0,0,0,0,,,,,,0.0,,,,,,,
5865564,1745474464589,,,,,,,,,,,,,,,,,,,,,,,,,,,,,,,,,,0,0,0,0,0,0,0,0,0,0,0,0,0,0,0,0,,,,,,,,,,,,,
5865584,1745474464609,0.0,130,,-0.37,-1.17,0.96,-58,1,0,1.55,1.68,92,7182,13.3,3.51,,9.93,1.078,86.2,,45.2,5,20,23,20,23,3.9,46.0,0.0,0.0,2.26,,,0,0,0,0,0,0,0,0,0,0,0,0,0,0,0,0,,0,,,,0.0,38.993961,-76.93943,33.19,26.4,33,3,0.8
5865604,1745474464629,,,,,,,,,,,,,,,,,,,,,,,,,,,,,,,,,,0,0,0,0,0,0,0,0,0,0,0,0,0,0,0,0,,,,,,,,,,,,,
5865624,1745474464649,0.0,130,,-0.31,-1.17,0.94,-57,1,-0,1.54,1.68,91,7181,14.4,3.58,,10.04,1.067,86.2,,45.2,5,,,,,,,,,,,,0,0,0,0,0,0,0,0,0,0,0,0,0,0,0,0,,,,,,0.0,,,,,,,
5865644,1745474464669,,,,,,,,,,,,,,,,,,,,,,,,,,,,,,,,,,0,0,0,0,0,0,0,0,0,0,0,0,0,0,0,0,,,,,,,,,,,,,
5865664,1745474464689,0.0,131,,-0.3,-1.05,0.97,-54,1,0,1.46,1.68,87,7185,15.3,3.65,,10.04,1.067,86.2,,44.7,5,,,,,,,,,,,,0,0,0,0,0,0,0,0,0,0,0,0,0,0,0,0,,,,,,0.0,,,,,,,
5865684,1745474464708,,,,,,,,,,,,,,,,,,,,,,,21,24,21,22,3.9,231.0,0.0,0.0,2.26,,,0,0,0,0,0,0,0,0,0,0,0,0,0,0,0,0,,0,,,,,38.993958,-76.939438,33.61,26.4,33,3,0.8
5865704,1745474464728,0.0,131,,-0.28,-1.0,0.96,-53,1,-0,1.41,1.68,84,7185,15.3,3.65,,10.17,1.122,86.2,,44.7,5,,,,,,,,,,,,0,0,0,0,0,0,0,0,0,0,0,0,0,0,0,0,,,,,,0.0,,,,,,,
5865724,1745474464748,,,,,,,,,,,,,,,,,,,,,,,,,,,,,,,,,,0,0,0,0,0,0,0,0,0,0,0,0,0,0,0,0,,,,,,,,,,,,,
5865744,1745474464768,0.0,131,,-0.33,-0.97,0.97,-52,0,0,1.41,1.68,84,7155,16.0,3.74,,10.46,1.048,86.2,,44.5,5,,,,,,,,,,,,0,0,0,0,0,0,0,0,0,0,0,0,0,0,0,0,,,,,,0.0,,,,,,,
5865764,1745474464788,,,,,,,,,,,,,,,,,,,,,,,,,,,,,,,,,,0,0,0,0,0,0,0,0,0,0,0,0,0,0,0,0,,,,,,,,,,,,,
5865784,1745474464808,0.0,130,,-0.31,-0.89,0.98,-51,1,0,1.36,1.68,81,7238,16.6,3.85,,10.61,1.077,86.2,,44.5,5,20,23,21,24,3.9,236.0,0.0,0.0,2.27,,,0,0,0,0,0,0,0,0,0,0,0,0,0,0,0,0,,0,,,,0.0,38.99395,-76.939453,34.11,26.4,33,3,0.8
5865804,1745474464828,,,,,,,,,,,,,,,,,,,,,,,,,,,,,,,,,,0,0,0,0,0,0,0,0,0,0,0,0,0,0,0,0,,,,,,,,,,,,,
5865824,1745474464848,0.0,130,,-0.28,-1.03,0.98,-51,1,1,1.45,1.68,86,7290,16.8,3.85,,10.57,1.112,86.2,,44.5,5,,,,,,,,,,,,0,0,0,0,0,0,0,0,0,0,0,0,0,0,0,0,,,,,,0.0,,,,,,,
5865844,1745474464868,,,,,,,,,,,,,,,,,,,,,,,,,,,,,,,,,,0,0,0,0,0,0,0,0,0,0,0,0,0,0,0,0,,,,,,,,,,,,,
5865864,1745474464888,0.0,130,,-0.31,-1.15,0.97,-51,1,0,1.53,1.68,91,7307,17.0,3.97,,10.57,1.112,86.2,,43.9,5,,,,,,,,,,,,0,0,0,0,0,0,0,0,0,0,0,0,0,0,0,0,,,,,,0.0,,,,,,,
5865884,1745474464910,,,,,,,,,,,,,,,,,,,,,,,20,23,22,23,3.9,30.0,0.0,0.0,2.27,,,0,0,0,0,0,0,0,0,0,0,0,0,0,0,0,0,,0,,,,,38.993946,-76.939453,33.57,26.4,33,3,0.8
5865904,1745474464930,0.0,130,,-0.29,-1.04,1.02,-51,1,0,1.48,1.68,88,7307,17.0,3.97,,10.66,1.109,86.2,,43.9,5,,,,,,,,,,,,0,0,0,0,0,0,0,0,0,0,0,0,0,0,0,0,,,,,,0.0,,,,,,,
5865924,1745474464950,,,,,,,,,,,,,,,,,,,,,,,,,,,,,,,,,,0,0,0,0,0,0,0,0,0,0,0,0,0,0,0,0,,,,,,,,,,,,,
5865944,1745474464970,0.0,130,,-0.24,-1.0,1.05,-51,2,0,1.47,1.68,87,7323,17.0,3.91,,10.54,1.098,86.2,,43.0,5,,,,,,,,,,,,0,0,0,0,0,0,0,0,0,0,0,0,0,0,0,0,,,,,,0.0,,,,,,,
5865964,1745474464990,,,,,,,,,,,,,,,,,,,,,,,,,,,,,,,,,,0,0,0,0,0,0,0,0,0,0,0,0,0,0,0,0,,,,,,,,,,,,,
5865984,1745474465000,0.0,130,,-0.22,-1.04,1.05,-51,2,0,1.49,1.68,88,7343,17.1,3.91,,10.58,1.085,86.2,,43.0,5,20,22,21,23,3.9,8.0,0.0,0.0,2.27,,,0,0,0,0,0,0,0,0,0,0,0,0,0,0,0,0,,0,,,,0.0,38.993942,-76.939468,33.79,26.4,31,3,0.8
5866004,1745474465020,,,,,,,,,,,,,,,,,,,,,,,,,,,,,,,,,,0,0,0,0,0,0,0,0,0,0,0,0,0,0,0,0,,,,,,,,,,,,,
5866024,1745474465040,0.0,130,,-0.26,-1.11,0.99,-52,2,1,1.51,1.68,90,7324,17.3,3.95,,10.77,1.072,86.2,,43.0,5,,,,,,,,,,,,0,0,0,0,0,0,0,0,0,0,0,0,0,0,0,0,,,,,,0.0,,,,,,,
5866044,1745474465060,,,,,,,,,,,,,,,,,,,,,,,,,,,,,,,,,,0,0,0,0,0,0,0,0,0,0,0,0,0,0,0,0,,,,,,,,,,,,,
5866064,1745474465080,0.0,131,,-0.28,-1.15,0.98,-53,1,0,1.54,1.68,91,7386,19.4,4.69,,10.77,1.072,86.2,,43.1,5,,,,,,,,,,,,0,0,0,0,0,0,0,0,0,0,0,0,0,0,0,0,,,,,,0.0,,,,,,,
5866084,1745474465108,,,,,,,,,,,,,,,,,,,,,,,20,25,21,23,3.9,245.0,0.0,0.0,2.27,,,0,0,0,0,0,0,0,0,0,0,0,0,0,0,0,0,,0,,,,,38.993938,-76.939476,34.17,26.4,31,3,0.8
5866104,1745474465128,0.0,131,,-0.3,-1.03,1.0,-53,1,0,1.47,1.68,87,7386,19.4,4.69,,10.9,1.068,86.2,,43.1,5,,,,,,,,,,,,0,0,0,0,0,0,0,0,0,0,0,0,0,0,0,0,,,,,,0.0,,,,,,,
5866124,1745474465148,,,,,,,,,,,,,,,,,,,,,,,,,,,,,,,,,,0,0,0,0,0,0,0,0,0,0,0,0,0,0,0,0,,,,,,,,,,,,,
5866144,1745474465168,0.0,130,,-0.3,-0.93,1.01,-53,1,0,1.4,1.68,83,7492,20.1,5.3,,10.9,1.055,86.2,,42.8,5,,,,,,,,,,,,0,0,0,0,0,0,0,0,0,0,0,0,0,0,0,0,,,,,,0.0,,,,,,,
5866164,1745474465188,,,,,,,,,,,,,,,,,,,,,,,,,,,,,,,,,,0,0,0,0,0,0,0,0,0,0,0,0,0,0,0,0,,,,,,,,,,,,,
5866184,1745474465206,0.0,130,,-0.3,-0.9,0.99,-53,0,1,1.37,1.68,82,7496,20.7,5.5,,11.01,0.952,86.2,,42.8,5,20,23,21,23,3.9,215.0,5.0,0.0,2.27,,,0,0,0,0,0,0,0,0,0,0,0,0,0,0,0,0,,1,,,,0.0,38.993935,-76.939491,34.78,26.4,31,3,0.8
5866204,1745474465226,,,,,,,,,,,,,,,,,,,,,,,,,,,,,,,,,,0,0,0,0,0,0,0,0,0,0,0,0,0,0,0,0,,,,,,,,,,,,,
5866224,1745474465246,0.0,130,,-0.32,-0.89,0.98,-53,0,2,1.36,1.68,81,7473,20.6,5.5,,11.04,0.88,86.2,,42.8,5,,,,,,,,,,,,0,0,0,0,0,0,0,0,0,0,0,0,0,0,0,0,,,,,,0.0,,,,,,,
5866244,1745474465266,,,,,,,,,,,,,,,,,,,,,,,,,,,,,,,,,,0,0,0,0,0,0,0,0,0,0,0,0,0,0,0,0,,,,,,,,,,,,,
5866264,1745474465286,0.0,130,,-0.35,-0.83,0.97,-54,0,2,1.32,1.68,79,7554,20.3,5.49,,11.04,0.88,86.2,,42.8,5,,,,,,,,,,,,0,0,0,0,0,0,0,0,0,0,0,0,0,0,0,0,,,,,,0.0,,,,,,,
5866284,1745474465308,,,,,,,,,,,,,,,,,,,,,,,20,24,22,23,3.9,38.0,0.0,0.0,2.27,,,0,0,0,0,0,0,0,0,0,0,0,0,0,0,0,0,,1,,,,,38.993935,-76.939499,34.64,26.5,31,3,0.8
5866304,1745474465328,0.0,130,,-0.35,-0.94,0.98,-55,-0,1,1.41,1.68,84,7554,20.3,5.49,,11.04,0.856,86.2,,42.8,5,,,,,,,,,,,,0,0,0,0,0,0,0,0,0,0,0,0,0,0,0,0,,,,,,0.0,,,,,,,
5866324,1745474465348,,,,,,,,,,,,,,,,,,,,,,,,,,,,,,,,,,0,0,0,0,0,0,0,0,0,0,0,0,0,0,0,0,,,,,,,,,,,,,
5866344,1745474465368,0.0,130,,-0.37,-0.97,0.98,-55,-0,1,1.43,1.43,100,7857,20.3,5.43,,10.97,0.822,86.2,,44.5,5,,,,,,,,,,,,0,0,0,0,0,0,0,0,0,0,0,0,0,0,0,0,,,,,,0.0,,,,,,,
5866364,1745474465388,,,,,,,,,,,,,,,,,,,,,,,,,,,,,,,,,,0,0,0,0,0,0,0,0,0,0,0,0,0,0,0,0,,,,,,,,,,,,,
5866384,1745474465410,0.0,130,13.13,-0.3,-1.07,0.96,-57,0,2,1.46,1.46,100,8302,20.2,4.75,15,10.76,0.798,86.2,176,44.5,5,21,24,25,27,3.9,55.0,0.0,0.0,2.27,0,1.0,0,0,0,0,0,0,0,0,0,0,0,0,0,0,0,0,0,0,1.0,0,-0,0.0,38.993935,-76.939506,34.72,26.5,31,3,0.8
5866404,1745474465430,,,,,,,,,,,,,,,,,,,,,,,,,,,,,,,,,,0,0,0,0,0,0,0,0,0,0,0,0,0,0,0,0,,,,,,,,,,,,,
5866424,1745474465450,0.0,130,,-0.24,-1.1,0.96,-58,1,1,1.48,1.48,100,8535,20.0,3.94,,10.52,0.74,86.2,,44.5,5,,,,,,,,,,,,0,0,0,0,0,0,0,0,0,0,0,0,0,0,0,0,,,,,,0.0,,,,,,,
5866444,1745474465470,,,,,,,,,,,,,,,,,,,,,,,,,,,,,,,,,,0,0,0,0,0,0,0,0,0,0,0,0,0,0,0,0,,,,,,,,,,,,,
5866464,1745474465490,0.0,130,,-0.21,-1.02,0.97,-59,2,1,1.43,1.48,97,8525,19.3,3.81,,10.52,0.74,86.2,,44.4,5,,,,,,,,,,,,0,0,0,0,0,0,0,0,0,0,0,0,0,0,0,0,,,,,,0.0,,,,,,,
5866484,1745474465510,,,,,,,,,,,,,,,,,,,,,,,20,25,26,27,3.9,254.0,1.0,0.0,2.26,,,0,0,0,0,0,0,0,0,0,0,0,0,0,0,0,0,,0,,,,,38.993935,-76.939522,34.7,26.5,31,3,0.8
5866504,1745474465530,0.0,130,,-0.17,-1.13,0.98,-59,2,1,1.5,1.5,100,8525,19.3,3.81,,10.49,0.742,86.2,,44.4,5,,,,,,,,,,,,0,0,0,0,0,0,0,0,0,0,0,0,0,0,0,0,,,,,,0.0,,,,,,,
5866524,1745474465550,,,,,,,,,,,,,,,,,,,,,,,,,,,,,,,,,,0,0,0,0,0,0,0,0,0,0,0,0,0,0,0,0,,,,,,,,,,,,,
5866544,1745474465570,0.0,130,,-0.12,-1.07,0.98,-59,2,1,1.46,1.5,97,8638,19.4,3.71,,10.3,0.782,86.2,,44.3,5,,,,,,,,,,,,0,0,0,0,0,0,0,0,0,0,0,0,0,0,0,0,,,,,,0.0,,,,,,,
5866564,1745474465590,,,,,,,,,,,,,,,,,,,,,,,,,,,,,,,,,,0,0,0,0,0,0,0,0,0,0,0,0,0,0,0,0,,,,,,,,,,,,,
5866584,1745474465608,0.0,130,,-0.13,-1.21,1.0,-59,2,1,1.57,1.57,100,8635,20.2,3.76,,10.2,0.825,86.2,,44.3,5,22,27,26,27,3.9,32.0,0.0,0.0,2.26,,,0,0,0,0,0,0,0,0,0,0,0,0,0,0,0,0,,0,,,,0.0,38.993935,-76.939537,37.06,26.5,31,3,0.8
5866604,1745474465628,,,,,,,,,,,,,,,,,,,,,,,,,,,,,,,,,,0,0,0,0,0,0,0,0,0,0,0,0,0,0,0,0,,,,,,,,,,,,,
5866624,1745474465648,0.0,130,,-0.1,-1.3,0.97,-58,1,2,1.63,1.63,100,8806,19.4,3.63,,9.98,0.866,86.2,,44.3,5,,,,,,,,,,,,0,0,0,0,0,0,0,0,0,0,0,0,0,0,0,0,,,,,,0.0,,,,,,,
5866644,1745474465668,,,,,,,,,,,,,,,,,,,,,,,,,,,,,,,,,,0,0,0,0,0,0,0,0,0,0,0,0,0,0,0,0,,,,,,,,,,,,,
5866664,1745474465688,0.0,130,,-0.08,-1.15,1.01,-58,-0,1,1.53,1.63,94,9005,17.2,3.27,,9.98,0.866,86.2,,45.1,5,,,,,,,,,,,,0,0,0,0,0,0,0,0,0,0,0,0,0,0,0,0,,,,,,0.0,,,,,,,
5866684,1745474465709,,,,,,,,,,,,,,,,,,,,,,,21,27,27,26,3.9,164.0,4.0,0.0,2.27,,,0,0,0,0,0,0,0,0,0,0,0,0,0,0,0,0,,1,,,,,38.993935,-76.939545,38.95,26.5,31,3,0.8
5866704,1745474465729,0.0,130,,-0.08,-1.09,0.93,-59,-1,2,1.44,1.63,89,9005,17.2,3.27,,9.69,0.881,86.2,,45.1,5,,,,,,,,,,,,0,0,0,0,0,0,0,0,0,0,0,0,0,0,0,0,,,,,,0.0,,,,,,,
5866724,1745474465749,,,,,,,,,,,,,,,,,,,,,,,,,,,,,,,,,,0,0,0,0,0,0,0,0,0,0,0,0,0,0,0,0,,,,,,,,,,,,,
5866744,1745474465769,0.0,130,,-0.09,-0.97,0.87,-60,-0,3,1.3,1.63,80,8989,10.7,2.94,,9.01,0.906,86.2,,45.2,5,,,,,,,,,,,,0,0,0,0,0,0,0,0,0,0,0,0,0,0,0,0,,,,,,0.0,,,,,,,
5866764,1745474465789,,,,,,,,,,,,,,,,,,,,,,,,,,,,,,,,,,0,0,0,0,0,0,0,0,0,0,0,0,0,0,0,0,,,,,,,,,,,,,
5866784,1745474465809,0.0,130,,-0.04,-0.87,0.85,-61,1,3,1.22,1.63,75,9057,8.4,2.55,,8.15,0.936,86.2,,45.2,5,22,26,27,27,3.9,72.0,0.0,0.0,2.27,,,0,0,0,0,0,0,0,0,0,0,0,0,0,0,0,0,,1,,,,0.0,38.993935,-76.93956,39.15,26.6,31,3,0.8
5866804,1745474465829,,,,,,,,,,,,,,,,,,,,,,,,,,,,,,,,,,0,0,0,0,0,0,0,0,0,0,0,0,0,0,0,0,,,,,,,,,,,,,
5866824,1745474465849,0.0,130,,-0.01,-0.92,0.84,-62,2,2,1.25,1.63,77,8992,8.5,2.43,,7.69,0.93,86.2,,45.2,5,,,,,,,,,,,,0,0,0,0,0,0,0,0,0,0,0,0,0,0,0,0,,,,,,0.0,,,,,,,
5866844,1745474465869,,,,,,,,,,,,,,,,,,,,,,,,,,,,,,,,,,0,0,0,0,0,0,0,0,0,0,0,0,0,0,0,0,,,,,,,,,,,,,
5866864,1745474465891,0.0,130,,0.02,-0.99,0.81,-62,2,1,1.28,1.63,79,8828,7.0,2.23,,7.69,0.93,86.2,,43.8,5,,,,,,,,,,,,0,0,0,0,0,0,0,0,0,0,0,0,0,0,0,0,,,,,,0.0,,,,,,,
5866884,1745474465911,,,,,,,,,,,,,,,,,,,,,,,23,25,28,28,3.9,28.0,3.0,0.0,2.27,,,0,0,0,0,0,0,0,0,0,0,0,0,0,0,0,0,,1,,,,,38.993942,-76.939568,38.41,26.6,31,3,0.8
5866904,1745474465931,0.0,130,,0.01,-1.01,0.84,-60,2,2,1.31,1.63,81,8828,7.0,2.23,,7.49,0.934,86.2,,43.8,5,,,,,,,,,,,,0,0,0,0,0,0,0,0,0,0,0,0,0,0,0,0,,,,,,0.0,,,,,,,
5866924,1745474465951,,,,,,,,,,,,,,,,,,,,,,,,,,,,,,,,,,0,0,0,0,0,0,0,0,0,0,0,0,0,0,0,0,,,,,,,,,,,,,
5866944,1745474465971,0.0,130,,-0.06,-1.04,0.84,-58,1,2,1.34,1.63,82,8532,6.5,2.18,,7.25,0.941,86.2,,42.9,5,,,,,,,,,,,,0,0,0,0,0,0,0,0,0,0,0,0,0,0,0,0,,,,,,0.0,,,,,,,
5866964,1745474465991,,,,,,,,,,,,,,,,,,,,,,,,,,,,,,,,,,0,0,0,0,0,0,0,0,0,0,0,0,0,0,0,0,,,,,,,,,,,,,
5866984,1745474465999,0.0,129,,-0.11,-1.09,0.87,-56,1,1,1.4,1.63,86,8460,6.8,2.23,,7.3,0.959,86.2,,42.9,5,23,26,26,28,3.9,30.0,5.0,0.0,2.27,,,0,0,0,0,0,0,0,0,0,0,0,0,0,0,0,0,,0,,,,0.0,38.993946,-76.939575,39.85,26.6,30,3,0.8
5867004,1745474466019,,,,,,,,,,,,,,,,,,,,,,,,,,,,,,,,,,0,0,0,0,0,0,0,0,0,0,0,0,0,0,0,0,,,,,,,,,,,,,
5867024,1745474466039,0.0,130,,-0.14,-1.08,0.92,-55,0,1,1.43,1.63,88,8438,7.3,2.24,,7.3,0.959,86.2,,42.9,5,,,,,,,,,,,,0,0,0,0,0,0,0,0,0,0,0,0,0,0,0,0,,,,,,0.0,,,,,,,
5867044,1745474466059,,,,,,,,,,,,,,,,,,,,,,,,,,,,,,,,,,0,0,0,0,0,0,0,0,0,0,0,0,0,0,0,0,,,,,,,,,,,,,
5867064,1745474466079,0.0,129,,-0.18,-1.12,0.91,-54,-0,1,1.45,1.63,89,8381,7.4,2.32,,7.42,0.982,86.2,,42.9,5,,,,,,,,,,,,0,0,0,0,0,0,0,0,0,0,0,0,0,0,0,0,,,,,,0.0,,,,,,,
5867084,1745474466109,,,,,,,,,,,,,,,,,,,,,,,23,29,24,27,3.9,41.0,2.0,0.0,2.27,,,0,0,0,0,0,0,0,0,0,0,0,0,0,0,0,0,,0,,,,,38.993954,-76.93959,39.27,26.6,30,3,0.8
5867104,1745474466129,0.0,130,,-0.2,-1.1,0.93,-53,-0,1,1.45,1.63,89,8381,7.4,2.32,,7.23,0.993,86.2,,42.9,5,,,,,,,,,,,,0,0,0,0,0,0,0,0,0,0,0,0,0,0,0,0,,,,,,0.0,,,,,,,
5867124,1745474466149,,,,,,,,,,,,,,,,,,,,,,,,,,,,,,,,,,0,0,0,0,0,0,0,0,0,0,0,0,0,0,0,0,,,,,,,,,,,,,
5867144,1745474466169,0.0,130,,-0.21,-1.16,0.94,-54,-0,2,1.51,1.63,93,8270,7.1,2.36,,7.31,1.003,86.2,,43.1,5,,,,,,,,,,,,0,0,0,0,0,0,0,0,0,0,0,0,0,0,0,0,,,,,,0.0,,,,,,,
5867164,1745474466191,,,,,,,,,,,,,,,,,,,,,,,,,,,,,,,,,,0,0,0,0,0,0,0,0,0,0,0,0,0,0,0,0,,,,,,,,,,,,,
5867184,1745474466211,0.0,129,,-0.24,-1.17,0.96,-54,-0,1,1.53,1.63,94,8150,6.7,2.33,,7.47,1.004,86.2,,43.1,5,23,26,24,26,3.9,174.0,6.0,0.0,2.27,,,0,0,0,0,0,0,0,0,0,0,0,0,0,0,0,0,,0,,,,0.0,38.993958,-76.939598,38.34,26.7,31,3,0.8
5867204,1745474466231,,,,,,,,,,,,,,,,,,,,,,,,,,,,,,,,,,0,0,0,0,0,0,0,0,0,0,0,0,0,0,0,0,,,,,,,,,,,,,
5867224,1745474466251,0.0,130,,-0.27,-1.2,0.96,-54,-0,1,1.56,1.63,96,8100,6.6,2.36,,7.51,1.008,86.2,,43.1,5,,,,,,,,,,,,0,0,0,0,0,0,0,0,0,0,0,0,0,0,0,0,,,,,,0.0,,,,,,,
5867244,1745474466271,,,,,,,,,,,,,,,,,,,,,,,,,,,,,,,,,,0,0,0,0,0,0,0,0,0,0,0,0,0,0,0,0,,,,,,,,,,,,,
5867264,1745474466291,0.0,129,,-0.33,-1.18,0.9,-55,-0,1,1.52,1.63,93,8087,6.9,2.41,,7.51,1.008,86.2,,42.4,5,,,,,,,,,,,,0,0,0,0,0,0,0,0,0,0,0,0,0,0,0,0,,,,,,0.0,,,,,,,
5867284,1745474466311,,,,,,,,,,,,,,,,,,,,,,,22,25,23,23,3.9,240.0,0.0,0.0,2.27,,,0,0,0,0,0,0,0,0,0,0,0,0,0,0,0,0,,0,,,,,38.993965,-76.939606,38.15,26.7,31,3,0.8
5867304,1745474466331,0.0,130,,-0.34,-1.12,0.92,-56,0,1,1.49,1.49,100,8087,6.9,2.41,,7.61,1.015,86.2,,42.4,5,,,,,,,,,,,,0,0,0,0,0,0,0,0,0,0,0,0,0,0,0,0,,,,,,0.0,,,,,,,
5867324,1745474466351,,,,,,,,,,,,,,,,,,,,,,,,,,,,,,,,,,0,0,0,0,0,0,0,0,0,0,0,0,0,0,0,0,,,,,,,,,,,,,
5867344,1745474466371,0.0,130,,-0.36,-1.12,0.93,-57,1,1,1.5,1.5,100,8089,7.1,2.42,,7.55,1.02,86.2,,42.4,5,,,,,,,,,,,,0,0,0,0,0,0,0,0,0,0,0,0,0,0,0,0,,,,,,0.0,,,,,,,
5867364,1745474466391,,,,,,,,,,,,,,,,,,,,,,,,,,,,,,,,,,0,0,0,0,0,0,0,0,0,0,0,0,0,0,0,0,,,,,,,,,,,,,
5867384,1745474466411,0.0,129,13.19,-0.36,-1.13,0.9,-57,1,1,1.49,1.5,99,8032,6.8,2.45,15,7.7,1.019,86.2,176,42.4,5,23,25,23,26,3.9,248.0,0.0,0.0,2.27,0,1.0,0,0,0,0,0,0,0,0,0,0,0,0,0,0,0,0,0,0,1.0,0,-0,0.0,38.993973,-76.939613,36.69,26.7,31,3,0.8
5867404,1745474466431,,,,,,,,,,,,,,,,,,,,,,,,,,,,,,,,,,0,0,0,0,0,0,0,0,0,0,0,0,0,0,0,0,,,,,,,,,,,,,
5867424,1745474466451,0.0,130,,-0.38,-1.04,0.94,-57,1,1,1.45,1.5,97,7916,6.7,2.48,,7.73,1.021,86.2,,42.4,5,,,,,,,,,,,,0,0,0,0,0,0,0,0,0,0,0,0,0,0,0,0,,,,,,0.0,,,,,,,
5867444,1745474466471,,,,,,,,,,,,,,,,,,,,,,,,,,,,,,,,,,0,0,0,0,0,0,0,0,0,0,0,0,0,0,0,0,,,,,,,,,,,,,
5867464,1745474466491,0.0,129,,-0.37,-1.08,0.94,-59,1,0,1.48,1.5,98,7867,7.0,2.5,,7.73,1.021,86.2,,41.5,5,,,,,,,,,,,,0,0,0,0,0,0,0,0,0,0,0,0,0,0,0,0,,,,,,0.0,,,,,,,
5867484,1745474466509,,,,,,,,,,,,,,,,,,,,,,,21,26,23,26,3.9,193.0,0.0,0.0,2.27,,,0,0,0,0,0,0,0,0,0,0,0,0,0,0,0,0,,0,,,,,38.99398,-76.939621,36.84,26.7,31,3,0.8
5867504,1745474466529,0.0,130,,-0.37,-1.06,1.0,-60,0,1,1.5,1.5,100,7867,7.0,2.5,,7.83,1.017,86.2,,41.5,5,,,,,,,,,,,,0,0,0,0,0,0,0,0,0,0,0,0,0,0,0,0,,,,,,0.0,,,,,,,
5867524,1745474466549,,,,,,,,,,,,,,,,,,,,,,,,,,,,,,,,,,0,0,0,0,0,0,0,0,0,0,0,0,0,0,0,0,,,,,,,,,,,,,
5867544,1745474466569,0.0,130,,-0.41,-1.17,0.92,-60,0,1,1.54,1.54,100,7876,7.2,2.55,,7.83,1.028,86.2,,41.5,5,,,,,,,,,,,,0,0,0,0,0,0,0,0,0,0,0,0,0,0,0,0,,,,,,0.0,,,,,,,
5867564,1745474466589,,,,,,,,,,,,,,,,,,,,,,,,,,,,,,,,,,0,0,0,0,0,0,0,0,0,0,0,0,0,0,0,0,,,,,,,,,,,,,
