"Interval"|"ms"|0|0|1,"Utc"|"ms"|0|0|1,"FrontBP"|"psi"|-5.0|5.0|25,"SteerAng"|"Degrees"|-145|145|25,"Battery"|"Volts"|-5.0|20.0|1,"AccelX"|"G"|-3.0|3.0|25,"AccelY"|"G"|-3.0|3.0|25,"AccelZ"|"G"|-3.0|3.0|25,"Yaw"|"Deg/Sec"|-120|120|25,"Pitch"|"Deg/Sec"|-120|120|25,"Roll"|"Deg/Sec"|-120|120|25,"Gsum"|"G"|0.0|3.0|25,"GsumMax"|"G"|0.0|3.0|25,"GsumPct"|"%"|0|100|25,"RPM"|""|0|10000|25,"TPS"|"%"|0.0|100.0|25,"InjectorPW"|"ms"|0.0|100.0|25,"Baro"|"kPa"|0|105|1,"MAP"|"Psi"|0.0|255.0|25,"Lambda"|""|-2.0|2.0|25,"IAT"|"C"|0.0|200.0|25,"EngineTemp"|"C"|0|200|1,"EOP"|"PSI"|0.0|152.0|25,"EOT"|"F"|0|250|25,"WSFR"|"MPH"|0|150|10,"WSFL"|"MPH"|0|100|10,"WSRR"|"MPH"|0|100|10,"WSRL"|""|0|100|10,"TCSet"|"%"|0.0|100.0|10,"TCSlip"|"%"|0.0|100.0|10,"TCComp"|"deg"|0.0|50.0|10,"TCCut"|"%"|0.0|100.0|10,"Analog8"|""|0.0|5.0|10,"OilTemp"|"F"|0|300|1,"AA_On"|""|0.0|1.0|1,"ThermLF1"|"C"|0|400|50,"ThermLF2"|"C"|0|400|50,"ThermRR1"|"C"|0|400|50,"ThermRR2"|"C"|0|400|50,"ThermLF3"|"C"|0|400|50,"ThermLF4"|"C"|0|400|50,"ThermLF5"|"C"|0|400|50,"ThermLF6"|"C"|0|400|50,"ThermLF7"|"C"|0|400|50,"ThermLF8"|"C"|0|400|50,"ThermRR3"|"C"|0|400|50,"ThermRR4"|"C"|0|400|50,"ThermRR5"|"C"|0|400|50,"ThermRR6"|"C"|0|400|50,"ThermRR7"|"C"|0|400|50,"ThermRR8"|"C"|0|400|50,"AA_LowDrag"|""|0|1|1,"Gear"|""|1|6|10,"AA_On"|""|0.0|1.0|1,"AA_LowDrag"|""|0|1|1,"Fuel_Mix"|""|-10|10|1,"AA_Packages"|""|0.0|1000.0|25,"Latitude"|"Degrees"|-180.0|180.0|10,"Longitude"|"Degrees"|-180.0|180.0|10,"Speed"|"kph"|0.0|150.0|10,"Altitude"|"m"|0.0|4000.0|10,"GPSSats"|""|0|20|10,"GPSQual"|""|0|5|10,"GPSDOP"|""|0.0|20.0|10
6120204,1745474719230,,,,,,,,,,,,,,,,,,,,,,,,,,,,,,,,,,0,0,0,0,0,0,0,0,0,0,0,0,0,0,0,0,,,,,,,,,,,,,
6120224,1745474719250,34.06,134,,-0.1,-0.05,1.02,-1,-0,0,1.03,1.03,100,3469,28.7,4.55,,14.27,1.251,91.6,,23.3,5,,,,,,,,,,,,0,0,0,0,0,0,0,0,0,0,0,0,0,0,0,0,,,,,,0.0,,,,,,,
6120244,1745474719270,,,,,,,,,,,,,,,,,,,,,,,,,,,,,,,,,,0,0,0,0,0,0,0,0,0,0,0,0,0,0,0,0,,,,,,,,,,,,,
6120264,1745474719292,24.01,134,,-0.07,-0.03,1.03,-1,-0,0,1.04,1.04,100,3469,28.7,4.55,,14.24,1.249,91.6,,23.3,5,,,,,,,,,,,,0,0,0,0,0,0,0,0,0,0,0,0,0,0,0,0,,,,,,0.0,,,,,,,
6120284,1745474719312,,,,,,,,,,,,,,,,,,,,,,,0,0,0,0,7.9,0.0,0.0,0.0,2.26,,,0,0,0,0,0,0,0,0,0,0,0,0,0,0,0,0,,0,,,,,38.994099,-76.939659,0.07,26.3,33,3,0.8
6120304,1745474719332,16.47,134,,-0.08,0.0,1.02,-0,-0,0,1.03,1.04,99,3684,28.7,4.61,,14.26,1.248,91.6,,25.6,5,,,,,,,,,,,,0,0,0,0,0,0,0,0,0,0,0,0,0,0,0,0,,,,,,0.0,,,,,,,
6120324,1745474719352,,,,,,,,,,,,,,,,,,,,,,,,,,,,,,,,,,0,0,0,0,0,0,0,0,0,0,0,0,0,0,0,0,,,,,,,,,,,,,
6120344,1745474719372,10.18,134,,-0.08,-0.0,1.02,-0,-0,0,1.02,1.04,99,3793,28.6,4.6,,14.16,1.248,91.6,,25.6,5,,,,,,,,,,,,0,0,0,0,0,0,0,0,0,0,0,0,0,0,0,0,,,,,,0.0,,,,,,,
6120364,1745474719394,,,,,,,,,,,,,,,,,,,,,,,,,,,,,,,,,,0,0,0,0,0,0,0,0,0,0,0,0,0,0,0,0,,,,,,,,,,,,,
6120384,1745474719414,5.78,134,13.02,-0.1,-0.0,0.99,-1,-0,0,1.0,1.04,96,3772,28.4,4.62,15,14.11,1.247,91.6,176,25.6,5,0,0,0,0,7.9,0.0,0.0,0.0,2.26,0,1.0,0,0,0,0,0,0,0,0,0,0,0,0,0,0,0,0,0,0,1.0,0,-0,0.0,38.994099,-76.939659,0.0,26.3,33,3,0.8
6120404,1745474719434,,,,,,,,,,,,,,,,,,,,,,,,,,,,,,,,,,0,0,0,0,0,0,0,0,0,0,0,0,0,0,0,0,,,,,,,,,,,,,
6120424,1745474719454,0.13,134,,-0.12,-0.05,0.92,-1,-0,0,0.93,1.04,90,3920,28.4,4.58,,14.11,1.247,91.6,,26.6,5,,,,,,,,,,,,0,0,0,0,0,0,0,0,0,0,0,0,0,0,0,0,,,,,,0.0,,,,,,,
6120444,1745474719474,,,,,,,,,,,,,,,,,,,,,,,,,,,,,,,,,,0,0,0,0,0,0,0,0,0,0,0,0,0,0,0,0,,,,,,,,,,,,,
6120464,1745474719493,0.0,134,,-0.13,-0.02,0.93,2,-0,-0,0.94,1.04,91,3920,28.4,4.58,,14.12,1.248,91.6,,26.6,5,,,,,,,,,,,,0,0,0,0,0,0,0,0,0,0,0,0,0,0,0,0,,,,,,0.0,,,,,,,
6120484,1745474719513,,,,,,,,,,,,,,,,,,,,,,,0,0,0,0,7.9,0.0,0.0,0.0,2.26,,,0,0,0,0,0,0,0,0,0,0,0,0,0,0,0,0,,0,,,,,38.994099,-76.939659,0.09,26.3,33,3,0.8
6120504,1745474719533,0.0,134,,-0.11,0.05,1.02,3,-0,-0,1.03,1.04,99,4001,28.5,4.57,,14.11,1.249,91.6,,27.7,5,,,,,,,,,,,,0,0,0,0,0,0,0,0,0,0,0,0,0,0,0,0,,,,,,0.0,,,,,,,
6120524,1745474719553,,,,,,,,,,,,,,,,,,,,,,,,,,,,,,,,,,0,0,0,0,0,0,0,0,0,0,0,0,0,0,0,0,,,,,,,,,,,,,
6120544,1745474719573,0.0,134,,-0.09,-0.09,0.95,-0,-0,-0,0.96,1.04,92,3945,28.4,4.56,,14.18,1.251,91.6,,27.7,5,,,,,,,,,,,,0,0,0,0,0,0,0,0,0,0,0,0,0,0,0,0,,,,,,0.0,,,,,,,
6120564,1745474719592,,,,,,,,,,,,,,,,,,,,,,,,,,,,,,,,,,0,0,0,0,0,0,0,0,0,0,0,0,0,0,0,0,,,,,,,,,,,,,
6120584,1745474719612,0.0,134,,-0.11,-0.05,0.98,-1,-0,-0,0.99,1.04,96,4363,28.6,4.73,,13.96,1.251,91.6,,27.7,5,0,0,0,0,7.9,0.0,0.0,0.0,2.26,,,0,0,0,0,0,0,0,0,0,0,0,0,0,0,0,0,,0,,,,0.0,38.994099,-76.939659,0.0,26.3,33,3,0.8
6120604,1745474719632,,,,,,,,,,,,,,,,,,,,,,,,,,,,,,,,,,0,0,0,0,0,0,0,0,0,0,0,0,0,0,0,0,,,,,,,,,,,,,
6120624,1745474719652,0.0,134,,-0.12,-0.13,0.95,-2,-0,-0,0.97,1.04,93,4671,28.7,4.79,,13.96,1.251,91.6,,31.3,5,,,,,,,,,,,,0,0,0,0,0,0,0,0,0,0,0,0,0,0,0,0,,,,,,0.0,,,,,,,
6120644,1745474719672,,,,,,,,,,,,,,,,,,,,,,,,,,,,,,,,,,0,0,0,0,0,0,0,0,0,0,0,0,0,0,0,0,,,,,,,,,,,,,
6120664,1745474719694,0.0,134,,-0.11,-0.06,0.96,-2,-0,-0,0.97,1.04,93,4671,28.7,4.79,,13.92,1.25,91.6,,31.3,5,,,,,,,,,,,,0,0,0,0,0,0,0,0,0,0,0,0,0,0,0,0,,,,,,0.0,,,,,,,
6120684,1745474719714,,,,,,,,,,,,,,,,,,,,,,,0,0,0,0,7.9,0.0,0.0,0.0,2.26,,,0,0,0,0,0,0,0,0,0,0,0,0,0,0,0,0,,0,,,,,38.994099,-76.939659,0.0,26.3,33,3,0.8
6120704,1745474719734,0.0,133,,-0.1,-0.11,0.96,-2,-0,-0,0.97,1.04,93,4999,28.7,4.99,,13.76,1.25,91.6,,36.6,5,,,,,,,,,,,,0,0,0,0,0,0,0,0,0,0,0,0,0,0,0,0,,,,,,0.0,,,,,,,
6120724,1745474719754,,,,,,,,,,,,,,,,,,,,,,,,,,,,,,,,,,0,0,0,0,0,0,0,0,0,0,0,0,0,0,0,0,,,,,,,,,,,,,
6120744,1745474719774,0.0,134,,-0.11,-0.15,0.91,-2,-0,-0,0.93,1.04,90,5374,28.7,4.97,,13.56,1.249,91.6,,36.6,5,,,,,,,,,,,,0,0,0,0,0,0,0,0,0,0,0,0,0,0,0,0,,,,,,0.0,,,,,,,
6120764,1745474719794,,,,,,,,,,,,,,,,,,,,,,,,,,,,,,,,,,0,0,0,0,0,0,0,0,0,0,0,0,0,0,0,0,,,,,,,,,,,,,
6120784,1745474719814,0.0,134,,-0.13,-0.18,0.93,-3,-0,-1,0.95,1.04,92,6082,28.7,4.94,,13.32,1.248,91.6,,36.6,5,0,0,0,0,7.9,0.0,0.0,0.0,2.26,,,0,0,0,0,0,0,0,0,0,0,0,0,0,0,0,0,,0,,,,0.0,38.994099,-76.939659,0.04,26.3,33,3,0.8
6120804,1745474719834,,,,,,,,,,,,,,,,,,,,,,,,,,,,,,,,,,0,0,0,0,0,0,0,0,0,0,0,0,0,0,0,0,,,,,,,,,,,,,
6120824,1745474719854,0.0,134,,-0.1,-0.23,0.94,-3,-0,-0,0.97,1.04,93,6967,28.6,5.48,,13.32,1.248,91.6,,41.9,5,,,,,,,,,,,,0,0,0,0,0,0,0,0,0,0,0,0,0,0,0,0,,,,,,0.0,,,,,,,
6120844,1745474719874,,,,,,,,,,,,,,,,,,,,,,,,,,,,,,,,,,0,0,0,0,0,0,0,0,0,0,0,0,0,0,0,0,,,,,,,,,,,,,
6120864,1745474719894,0.0,134,,-0.13,-0.12,0.92,-2,-0,-0,0.94,1.04,91,6967,28.6,5.48,,12.96,1.206,91.6,,41.9,5,,,,,,,,,,,,0,0,0,0,0,0,0,0,0,0,0,0,0,0,0,0,,,,,,0.0,,,,,,,
6120884,1745474719914,,,,,,,,,,,,,,,,,,,,,,,0,0,0,0,7.9,0.0,0.0,0.0,2.27,,,0,0,0,0,0,0,0,0,0,0,0,0,0,0,0,0,,0,,,,,38.994099,-76.939659,0.11,26.3,33,3,0.8
6120904,1745474719934,0.0,134,,-0.11,-0.18,0.91,-1,-0,-0,0.94,1.04,90,8128,63.2,5.51,,13.75,1.058,91.6,,45.6,5,,,,,,,,,,,,0,0,0,0,0,0,0,0,0,0,0,0,0,0,0,0,,,,,,0.0,,,,,,,
6120924,1745474719954,,,,,,,,,,,,,,,,,,,,,,,,,,,,,,,,,,0,0,0,0,0,0,0,0,0,0,0,0,0,0,0,0,,,,,,,,,,,,,
6120944,1745474719974,0.0,134,,-0.09,-0.14,0.99,-2,-0,-0,1.01,1.04,97,9303,99.4,6.8,,13.8,0.991,91.6,,45.6,5,,,,,,,,,,,,0,0,0,0,0,0,0,0,0,0,0,0,0,0,0,0,,,,,,0.0,,,,,,,
6120964,1745474719994,,,,,,,,,,,,,,,,,,,,,,,,,,,,,,,,,,0,0,0,0,0,0,0,0,0,0,0,0,0,0,0,0,,,,,,,,,,,,,
6120984,1745474720001,0.0,134,,-0.09,-0.06,0.94,-2,-0,0,0.94,1.04,91,11160,99.4,5.54,,13.72,1.072,91.6,,45.6,5,0,0,0,0,7.9,0.0,0.0,0.0,2.27,,,0,0,0,0,0,0,0,0,0,0,0,0,0,0,0,0,,0,,,,0.0,38.994099,-76.939659,0.05,26.3,33,3,0.8
6121004,1745474720021,,,,,,,,,,,,,,,,,,,,,,,,,,,,,,,,,,0,0,0,0,0,0,0,0,0,0,0,0,0,0,0,0,,,,,,,,,,,,,
6121024,1745474720041,0.0,134,,-0.03,-0.16,0.97,-2,0,-1,0.98,1.04,94,11971,99.4,5.17,,13.72,1.072,91.6,,55.3,5,,,,,,,,,,,,0,0,0,0,0,0,0,0,0,0,0,0,0,0,0,0,,,,,,0.0,,,,,,,
6121044,1745474720061,,,,,,,,,,,,,,,,,,,,,,,,,,,,,,,,,,0,0,0,0,0,0,0,0,0,0,0,0,0,0,0,0,,,,,,,,,,,,,
6121064,1745474720091,0.0,134,,0.05,-0.19,0.93,-2,1,0,0.95,1.04,92,11971,99.4,5.17,,13.32,0.908,91.6,,55.3,5,,,,,,,,,,,,0,0,0,0,0,0,0,0,0,0,0,0,0,0,0,0,,,,,,0.0,,,,,,,
6121084,1745474720111,,,,,,,,,,,,,,,,,,,,,,,0,0,0,0,7.9,0.0,0.0,0.0,2.26,,,0,0,0,0,0,0,0,0,0,0,0,0,0,0,0,0,,0,,,,,38.994099,-76.939659,0.11,26.3,33,3,0.8
6121104,1745474720131,0.0,134,,0.12,0.04,0.93,-1,1,0,0.94,1.04,91,10959,99.5,5.49,,13.36,0.949,91.6,,51.3,5,,,,,,,,,,,,0,0,0,0,0,0,0,0,0,0,0,0,0,0,0,0,,,,,,0.0,,,,,,,
6121124,1745474720151,,,,,,,,,,,,,,,,,,,,,,,,,,,,,,,,,,0,0,0,0,0,0,0,0,0,0,0,0,0,0,0,0,,,,,,,,,,,,,
6121144,1745474720171,0.0,134,,0.09,0.12,0.89,-0,0,1,0.9,1.04,87,10799,99.5,5.7,,13.72,0.977,91.6,,51.3,5,,,,,,,,,,,,0,0,0,0,0,0,0,0,0,0,0,0,0,0,0,0,,,,,,0.0,,,,,,,
6121164,1745474720191,,,,,,,,,,,,,,,,,,,,,,,,,,,,,,,,,,0,0,0,0,0,0,0,0,0,0,0,0,0,0,0,0,,,,,,,,,,,,,
6121184,1745474720211,0.0,134,,0.15,0.05,0.95,-0,-0,0,0.96,1.04,92,11565,99.6,5.37,,13.45,0.961,91.6,,51.3,5,0,0,33,33,7.9,0.0,0.0,0.0,2.26,,,0,0,0,0,0,0,0,0,0,0,0,0,0,0,0,0,,1,,,,0.0,38.994099,-76.939659,2.31,26.4,33,3,0.8
6121204,1745474720231,,,,,,,,,,,,,,,,,,,,,,,,,,,,,,,,,,0,0,0,0,0,0,0,0,0,0,0,0,0,0,0,0,,,,,,,,,,,,,
6121224,1745474720251,0.0,134,,0.21,0.16,0.97,-2,0,1,1.0,1.04,97,12077,99.5,5.15,,13.45,0.961,91.6,,61.0,5,,,,,,,,,,,,0,0,0,0,0,0,0,0,0,0,0,0,0,0,0,0,,,,,,0.0,,,,,,,
6121244,1745474720271,,,,,,,,,,,,,,,,,,,,,,,,,,,,,,,,,,0,0,0,0,0,0,0,0,0,0,0,0,0,0,0,0,,,,,,,,,,,,,
6121804,1745474720833,,,,,,,,,,,,,,,,,,,,,,,,,,,,,,,,,,0,0,0,0,0,0,0,0,0,0,0,0,0,0,0,0,,,,,,,,,,,,,
6121824,1745474720853,0.0,134,,0.75,-0.13,1.05,7,-0,-0,1.3,1.39,93,11360,99.5,5.37,,13.71,1.015,89.8,,60.7,5,,,,,,,,,,,,0,0,0,0,0,0,0,0,0,0,0,0,0,0,0,0,,,,,,0.0,,,,,,,
6121844,1745474720873,,,,,,,,,,,,,,,,,,,,,,,,,,,,,,,,,,0,0,0,0,0,0,0,0,0,0,0,0,0,0,0,0,,,,,,,,,,,,,
6121864,1745474720893,0.0,133,,0.8,-0.09,1.06,7,-0,-0,1.33,1.39,95,11360,99.5,5.37,,13.59,0.995,89.8,,60.7,5,,,,,,,,,,,,0,0,0,0,0,0,0,0,0,0,0,0,0,0,0,0,,,,,,0.0,,,,,,,
6121884,1745474720913,,,,,,,,,,,,,,,,,,,,,,,14,7,35,35,7.9,156.0,50.0,0.0,2.27,,,0,0,0,0,0,0,0,0,0,0,0,0,0,0,0,0,,0,,,,,38.994099,-76.939629,22.76,26.3,33,3,0.8
6121904,1745474720933,0.0,133,,0.85,-0.14,1.02,8,0,0,1.34,1.39,96,11281,99.5,5.4,,13.73,0.962,89.8,,59.5,5,,,,,,,,,,,,0,0,0,0,0,0,0,0,0,0,0,0,0,0,0,0,,,,,,0.0,,,,,,,
6121924,1745474720953,,,,,,,,,,,,,,,,,,,,,,,,,,,,,,,,,,0,0,0,0,0,0,0,0,0,0,0,0,0,0,0,0,,,,,,,,,,,,,
6121944,1745474720973,0.0,134,,0.85,-0.06,0.94,9,0,0,1.27,1.39,91,11244,99.6,5.44,,13.75,0.943,89.8,,59.5,5,,,,,,,,,,,,0,0,0,0,0,0,0,0,0,0,0,0,0,0,0,0,,,,,,0.0,,,,,,,
6121964,1745474720993,,,,,,,,,,,,,,,,,,,,,,,,,,,,,,,,,,0,0,0,0,0,0,0,0,0,0,0,0,0,0,0,0,,,,,,,,,,,,,
6121984,1745474721004,0.0,133,,0.86,-0.05,0.93,8,1,0,1.26,1.39,91,11152,99.5,5.48,,13.57,0.957,89.8,,59.5,5,15,7,35,34,7.9,201.0,50.0,0.0,2.26,,,0,0,0,0,0,0,0,0,0,0,0,0,0,0,0,0,,1,,,,0.0,38.994099,-76.939621,25.86,26.3,33,3,0.8
6122004,1745474721024,,,,,,,,,,,,,,,,,,,,,,,,,,,,,,,,,,0,0,0,0,0,0,0,0,0,0,0,0,0,0,0,0,,,,,,,,,,,,,
6122024,1745474721044,0.0,133,,0.91,-0.11,0.98,8,0,0,1.34,1.39,96,10940,99.6,5.54,,13.57,0.957,89.8,,58.0,5,,,,,,,,,,,,0,0,0,0,0,0,0,0,0,0,0,0,0,0,0,0,,,,,,0.0,,,,,,,
6122044,1745474721064,,,,,,,,,,,,,,,,,,,,,,,,,,,,,,,,,,0,0,0,0,0,0,0,0,0,0,0,0,0,0,0,0,,,,,,,,,,,,,
6122064,1745474721091,0.0,133,,0.87,0.16,0.96,8,0,1,1.31,1.39,94,10940,99.6,5.54,,13.48,0.963,89.8,,58.0,5,,,,,,,,,,,,0,0,0,0,0,0,0,0,0,0,0,0,0,0,0,0,,,,,,0.0,,,,,,,
6122084,1745474721111,,,,,,,,,,,,,,,,,,,,,,,17,7,33,31,7.9,235.0,50.0,0.0,2.26,,,0,0,0,0,0,0,0,0,0,0,0,0,0,0,0,0,,0,,,,,38.994099,-76.939613,29.37,26.3,33,3,0.8
6122104,1745474721131,0.0,133,,0.85,0.26,0.98,6,0,1,1.32,1.39,95,10781,99.6,5.65,,13.71,0.968,89.8,,58.8,5,,,,,,,,,,,,0,0,0,0,0,0,0,0,0,0,0,0,0,0,0,0,,,,,,0.0,,,,,,,
6122124,1745474721151,,,,,,,,,,,,,,,,,,,,,,,,,,,,,,,,,,0,0,0,0,0,0,0,0,0,0,0,0,0,0,0,0,,,,,,,,,,,,,
6122144,1745474721171,0.0,133,,0.88,0.06,0.96,5,0,1,1.31,1.39,94,10686,99.5,5.69,,13.64,0.963,89.8,,58.8,5,,,,,,,,,,,,0,0,0,0,0,0,0,0,0,0,0,0,0,0,0,0,,,,,,0.0,,,,,,,
6122164,1745474721191,,,,,,,,,,,,,,,,,,,,,,,,,,,,,,,,,,0,0,0,0,0,0,0,0,0,0,0,0,0,0,0,0,,,,,,,,,,,,,
6122184,1745474721210,0.0,133,,0.85,-0.04,0.99,5,0,-0,1.31,1.39,94,10688,99.5,5.69,,13.6,0.971,89.8,,58.8,5,20,7,32,31,7.9,132.0,49.0,0.0,2.26,,,0,0,0,0,0,0,0,0,0,0,0,0,0,0,0,0,,1,,,,0.0,38.994102,-76.939606,32.96,26.3,33,3,0.8
6122204,1745474721230,,,,,,,,,,,,,,,,,,,,,,,,,,,,,,,,,,0,0,0,0,0,0,0,0,0,0,0,0,0,0,0,0,,,,,,,,,,,,,
6122224,1745474721250,0.0,133,,0.83,0.01,0.96,3,-0,-0,1.27,1.39,91,10643,99.5,5.71,,13.6,0.971,89.8,,52.8,5,,,,,,,,,,,,0,0,0,0,0,0,0,0,0,0,0,0,0,0,0,0,,,,,,0.0,,,,,,,
6122244,1745474721270,,,,,,,,,,,,,,,,,,,,,,,,,,,,,,,,,,0,0,0,0,0,0,0,0,0,0,0,0,0,0,0,0,,,,,,,,,,,,,
6122264,1745474721292,0.0,133,,0.87,0.1,0.9,1,-0,-0,1.26,1.39,90,10643,99.5,5.71,,13.65,0.961,89.8,,52.8,5,,,,,,,,,,,,0,0,0,0,0,0,0,0,0,0,0,0,0,0,0,0,,,,,,0.0,,,,,,,
6122284,1745474721312,,,,,,,,,,,,,,,,,,,,,,,22,7,33,32,7.9,196.0,38.0,0.0,2.27,,,0,0,0,0,0,0,0,0,0,0,0,0,0,0,0,0,,1,,,,,38.994102,-76.93959,36.68,26.2,33,3,0.8
6122304,1745474721332,0.0,133,,0.89,0.1,0.96,-1,-0,-0,1.31,1.39,94,10570,99.5,5.74,,13.82,0.948,89.8,,57.7,5,,,,,,,,,,,,0,0,0,0,0,0,0,0,0,0,0,0,0,0,0,0,,,,,,0.0,,,,,,,
6122324,1745474721352,,,,,,,,,,,,,,,,,,,,,,,,,,,,,,,,,,0,0,0,0,0,0,0,0,0,0,0,0,0,0,0,0,,,,,,,,,,,,,
6122344,1745474721372,0.0,133,,0.88,-0.0,0.92,-2,-0,-1,1.27,1.39,91,10583,99.5,5.77,,13.61,0.939,89.8,,57.7,5,,,,,,,,,,,,0,0,0,0,0,0,0,0,0,0,0,0,0,0,0,0,,,,,,0.0,,,,,,,
6122364,1745474721392,,,,,,,,,,,,,,,,,,,,,,,,,,,,,,,,,,0,0,0,0,0,0,0,0,0,0,0,0,0,0,0,0,,,,,,,,,,,,,
6122384,1745474721412,0.0,133,13.02,0.87,-0.13,0.96,-3,0,-0,1.3,1.39,93,10812,99.4,5.62,15,13.83,0.925,89.8,178,57.7,5,24,7,33,34,7.9,91.0,32.0,0.0,2.27,0,1.0,0,0,0,0,0,0,0,0,0,0,0,0,0,0,0,0,0,0,1.0,0,-0,0.0,38.994102,-76.939583,40.06,26.2,33,3,0.8
6122404,1745474721432,,,,,,,,,,,,,,,,,,,,,,,,,,,,,,,,,,0,0,0,0,0,0,0,0,0,0,0,0,0,0,0,0,,,,,,,,,,,,,
6122424,1745474721452,0.0,132,,0.85,0.07,0.99,-5,1,1,1.31,1.39,94,10316,44.6,4.77,,13.83,0.925,89.8,,59.1,5,,,,,,,,,,,,0,0,0,0,0,0,0,0,0,0,0,0,0,0,0,0,,,,,,0.0,,,,,,,
6122444,1745474721472,,,,,,,,,,,,,,,,,,,,,,,,,,,,,,,,,,0,0,0,0,0,0,0,0,0,0,0,0,0,0,0,0,,,,,,,,,,,,,
6122464,1745474721492,0.0,133,,0.83,-0.22,1.01,-4,1,2,1.33,1.39,95,10316,44.6,4.77,,12.68,0.925,89.8,,59.1,5,,,,,,,,,,,,0,0,0,0,0,0,0,0,0,0,0,0,0,0,0,0,,,,,,0.0,,,,,,,
6122484,1745474721512,,,,,,,,,,,,,,,,,,,,,,,27,7,30,30,7.9,180.0,17.0,0.0,2.26,,,0,0,0,0,0,0,0,0,0,0,0,0,0,0,0,0,,1,,,,,38.994102,-76.939568,42.83,26.2,33,3,0.8
6122504,1745474721532,0.0,132,,0.83,-0.2,1.05,-4,0,1,1.35,1.39,97,9918,13.2,4.94,,10.61,0.926,89.8,,56.4,5,,,,,,,,,,,,0,0,0,0,0,0,0,0,0,0,0,0,0,0,0,0,,,,,,0.0,,,,,,,
6122524,1745474721552,,,,,,,,,,,,,,,,,,,,,,,,,,,,,,,,,,0,0,0,0,0,0,0,0,0,0,0,0,0,0,0,0,,,,,,,,,,,,,
6122544,1745474721572,0.0,132,,0.71,-0.06,1.03,-7,-1,2,1.25,1.39,90,9631,5.1,2.6,,8.86,0.879,88.0,,56.4,5,,,,,,,,,,,,0,0,0,0,0,0,0,0,0,0,0,0,0,0,0,0,,,,,,0.0,,,,,,,
6122564,1745474721592,,,,,,,,,,,,,,,,,,,,,,,,,,,,,,,,,,0,0,0,0,0,0,0,0,0,0,0,0,0,0,0,0,,,,,,,,,,,,,
6122584,1745474721612,0.0,132,,0.59,-0.09,1.02,-9,-3,2,1.19,1.39,85,9671,1.9,1.4,,7.47,0.814,88.0,,56.4,5,28,29,30,30,7.9,18.0,0.0,0.0,2.26,,,0,0,0,0,0,0,0,0,0,0,0,0,0,0,0,0,,1,,,,0.0,38.994102,-76.939552,47.89,26.2,33,3,0.8
6122604,1745474721632,,,,,,,,,,,,,,,,,,,,,,,,,,,,,,,,,,0,0,0,0,0,0,0,0,0,0,0,0,0,0,0,0,,,,,,,,,,,,,
6122624,1745474721652,0.0,132,,0.46,-0.15,1.03,-12,-3,2,1.14,1.39,82,9539,0.6,1.4,,7.47,0.814,88.0,,52.9,5,,,,,,,,,,,,0,0,0,0,0,0,0,0,0,0,0,0,0,0,0,0,,,,,,0.0,,,,,,,
6122644,1745474721672,,,,,,,,,,,,,,,,,,,,,,,,,,,,,,,,,,0,0,0,0,0,0,0,0,0,0,0,0,0,0,0,0,,,,,,,,,,,,,
6122664,1745474721692,0.0,132,,0.34,-0.21,1.02,-16,-2,2,1.1,1.39,79,9539,0.6,1.4,,6.5,0.847,88.0,,52.9,5,,,,,,,,,,,,0,0,0,0,0,0,0,0,0,0,0,0,0,0,0,0,,,,,,0.0,,,,,,,
6122684,1745474721712,,,,,,,,,,,,,,,,,,,,,,,29,30,29,30,7.9,4.0,0.0,0.0,2.26,,,0,0,0,0,0,0,0,0,0,0,0,0,0,0,0,0,,1,,,,,38.994102,-76.939537,47.76,26.1,33,3,0.8
6122704,1745474721732,0.0,131,,0.26,-0.16,1.02,-19,-2,2,1.06,1.06,100,9406,0.2,1.4,,6.08,0.972,88.0,,48.5,5,,,,,,,,,,,,0,0,0,0,0,0,0,0,0,0,0,0,0,0,0,0,,,,,,0.0,,,,,,,
6122724,1745474721752,,,,,,,,,,,,,,,,,,,,,,,,,,,,,,,,,,0,0,0,0,0,0,0,0,0,0,0,0,0,0,0,0,,,,,,,,,,,,,
6122744,1745474721772,0.0,131,,0.16,-0.35,1.0,-21,-2,1,1.07,1.07,100,9334,0.0,1.4,,5.68,1.105,88.0,,48.5,5,,,,,,,,,,,,0,0,0,0,0,0,0,0,0,0,0,0,0,0,0,0,,,,,,0.0,,,,,,,
6122764,1745474721792,,,,,,,,,,,,,,,,,,,,,,,,,,,,,,,,,,0,0,0,0,0,0,0,0,0,0,0,0,0,0,0,0,,,,,,,,,,,,,
6122784,1745474721812,0.0,131,,0.06,-0.48,1.03,-23,-2,1,1.14,1.14,100,9295,0.1,1.4,,5.34,1.154,88.0,,48.5,5,28,30,27,31,7.9,191.0,0.0,0.0,2.27,,,0,0,0,0,0,0,0,0,0,0,0,0,0,0,0,0,,0,,,,0.0,38.994102,-76.939522,45.66,26.1,33,3,0.8
6122804,1745474721832,,,,,,,,,,,,,,,,,,,,,,,,,,,,,,,,,,0,0,0,0,0,0,0,0,0,0,0,0,0,0,0,0,,,,,,,,,,,,,
6122824,1745474721852,0.0,130,,-0.01,-0.61,0.92,-27,-1,1,1.11,1.14,97,9392,0.2,1.4,,5.34,1.154,88.0,,48.0,5,,,,,,,,,,,,0,0,0,0,0,0,0,0,0,0,0,0,0,0,0,0,,,,,,0.0,,,,,,,
6122844,1745474721872,,,,,,,,,,,,,,,,,,,,,,,,,,,,,,,,,,0,0,0,0,0,0,0,0,0,0,0,0,0,0,0,0,,,,,,,,,,,,,
6122864,1745474721893,0.0,131,,-0.07,-0.6,1.02,-29,-0,1,1.18,1.18,100,9392,0.2,1.4,,5.23,1.122,88.0,,48.0,5,,,,,,,,,,,,0,0,0,0,0,0,0,0,0,0,0,0,0,0,0,0,,,,,,0.0,,,,,,,
6122884,1745474721913,,,,,,,,,,,,,,,,,,,,,,,27,31,27,29,7.9,167.0,0.0,0.0,2.27,,,0,0,0,0,0,0,0,0,0,0,0,0,0,0,0,0,,1,,,,,38.994099,-76.939506,45.5,26.1,33,3,0.8
6122904,1745474721933,0.0,130,,-0.11,-0.76,0.96,-31,-0,2,1.23,1.23,100,9363,0.2,1.4,,5.19,1.109,88.0,,48.7,5,,,,,,,,,,,,0,0,0,0,0,0,0,0,0,0,0,0,0,0,0,0,,,,,,0.0,,,,,,,
6122924,1745474721953,,,,,,,,,,,,,,,,,,,,,,,,,,,,,,,,,,0,0,0,0,0,0,0,0,0,0,0,0,0,0,0,0,,,,,,,,,,,,,
6122944,1745474721973,0.0,130,,-0.19,-0.87,1.01,-32,-1,2,1.34,1.34,100,9263,0.3,1.4,,4.97,1.125,88.0,,48.7,5,,,,,,,,,,,,0,0,0,0,0,0,0,0,0,0,0,0,0,0,0,0,,,,,,0.0,,,,,,,
6122964,1745474721993,,,,,,,,,,,,,,,,,,,,,,,,,,,,,,,,,,0,0,0,0,0,0,0,0,0,0,0,0,0,0,0,0,,,,,,,,,,,,,
6122984,1745474722003,0.0,130,,-0.25,-0.85,0.98,-33,-2,1,1.33,1.34,99,9090,0.6,1.4,,5.01,1.16,88.0,,48.7,5,28,30,27,30,7.9,91.0,0.0,0.0,2.26,,,0,0,0,0,0,0,0,0,0,0,0,0,0,0,0,0,,0,,,,0.0,38.994095,-76.939499,43.83,26.1,30,3,0.9
6123004,1745474722023,,,,,,,,,,,,,,,,,,,,,,,,,,,,,,,,,,0,0,0,0,0,0,0,0,0,0,0,0,0,0,0,0,,,,,,,,,,,,,
6123024,1745474722043,0.0,129,,-0.33,-0.79,0.99,-37,-2,1,1.31,1.34,98,8932,0.7,1.4,,5.01,1.16,88.0,,49.5,5,,,,,,,,,,,,0,0,0,0,0,0,0,0,0,0,0,0,0,0,0,0,,,,,,0.0,,,,,,,
6123044,1745474722063,,,,,,,,,,,,,,,,,,,,,,,,,,,,,,,,,,0,0,0,0,0,0,0,0,0,0,0,0,0,0,0,0,,,,,,,,,,,,,
6123064,1745474722091,0.0,129,,-0.39,-0.98,0.99,-40,-1,1,1.45,1.45,100,8932,0.7,1.4,,4.93,1.232,88.0,,49.5,5,,,,,,,,,,,,0,0,0,0,0,0,0,0,0,0,0,0,0,0,0,0,,,,,,0.0,,,,,,,
6123084,1745474722111,,,,,,,,,,,,,,,,,,,,,,,26,31,25,28,7.9,41.0,0.0,0.0,2.26,,,0,0,0,0,0,0,0,0,0,0,0,0,0,0,0,0,,0,,,,,38.994095,-76.939484,43.86,26.1,30,3,0.9
6123104,1745474722131,0.0,129,,-0.44,-0.99,1.0,-43,-0,1,1.48,1.48,100,8736,0.6,1.4,,4.87,1.249,88.0,,48.4,5,,,,,,,,,,,,0,0,0,0,0,0,0,0,0,0,0,0,0,0,0,0,,,,,,0.0,,,,,,,
6123124,1745474722151,,,,,,,,,,,,,,,,,,,,,,,,,,,,,,,,,,0,0,0,0,0,0,0,0,0,0,0,0,0,0,0,0,,,,,,,,,,,,,
6123144,1745474722171,0.0,129,,-0.48,-0.96,1.03,-46,-0,1,1.48,1.48,100,8514,0.5,1.4,,4.96,1.249,88.0,,48.4,5,,,,,,,,,,,,0,0,0,0,0,0,0,0,0,0,0,0,0,0,0,0,,,,,,0.0,,,,,,,
6123164,1745474722193,,,,,,,,,,,,,,,,,,,,,,,,,,,,,,,,,,0,0,0,0,0,0,0,0,0,0,0,0,0,0,0,0,,,,,,,,,,,,,
6123184,1745474722213,0.0,130,,-0.55,-1.14,0.98,-49,-1,1,1.59,1.59,100,8345,0.3,1.4,,4.95,1.248,88.0,,48.4,5,25,27,25,28,7.9,11.0,0.0,0.0,2.27,,,0,0,0,0,0,0,0,0,0,0,0,0,0,0,0,0,,0,,,,0.0,38.994091,-76.939468,41.32,26.1,30,3,0.9
6123204,1745474722233,,,,,,,,,,,,,,,,,,,,,,,,,,,,,,,,,,0,0,0,0,0,0,0,0,0,0,0,0,0,0,0,0,,,,,,,,,,,,,
6123224,1745474722253,0.0,128,,-0.56,-1.21,0.97,-52,-1,1,1.65,1.65,100,8198,0.3,1.4,,4.95,1.248,88.0,,48.4,5,,,,,,,,,,,,0,0,0,0,0,0,0,0,0,0,0,0,0,0,0,0,,,,,,0.0,,,,,,,
6123244,1745474722273,,,,,,,,,,,,,,,,,,,,,,,,,,,,,,,,,,0,0,0,0,0,0,0,0,0,0,0,0,0,0,0,0,,,,,,,,,,,,,
6123264,1745474722293,0.0,130,,-0.56,-1.14,0.96,-53,0,1,1.6,1.65,97,8198,0.3,1.4,,5.03,1.248,88.0,,48.4,5,,,,,,,,,,,,0,0,0,0,0,0,0,0,0,0,0,0,0,0,0,0,,,,,,0.0,,,,,,,
6123284,1745474722313,,,,,,,,,,,,,,,,,,,,,,,23,27,23,27,7.9,47.0,0.0,0.0,2.27,,,0,0,0,0,0,0,0,0,0,0,0,0,0,0,0,0,,0,,,,,38.994083,-76.939453,40.53,26.1,30,3,0.9
6123304,1745474722333,0.0,130,,-0.6,-1.05,0.95,-56,0,1,1.54,1.65,93,7912,0.4,1.4,,5.26,1.25,88.0,,48.2,5,,,,,,,,,,,,0,0,0,0,0,0,0,0,0,0,0,0,0,0,0,0,,,,,,0.0,,,,,,,
6123324,1745474722353,,,,,,,,,,,,,,,,,,,,,,,,,,,,,,,,,,0,0,0,0,0,0,0,0,0,0,0,0,0,0,0,0,,,,,,,,,,,,,
6123344,1745474722373,0.0,129,,-0.65,-1.08,0.87,-58,0,1,1.53,1.65,93,7685,4.3,1.61,,5.67,1.252,88.0,,48.2,5,,,,,,,,,,,,0,0,0,0,0,0,0,0,0,0,0,0,0,0,0,0,,,,,,0.0,,,,,,,
6123364,1745474722393,,,,,,,,,,,,,,,,,,,,,,,,,,,,,,,,,,0,0,0,0,0,0,0,0,0,0,0,0,0,0,0,0,,,,,,,,,,,,,
6123384,1745474722413,0.0,127,13.09,-0.69,-1.21,0.89,-61,1,1,1.65,1.65,100,7554,8.0,1.98,15,6.47,1.251,88.0,178,48.2,5,23,27,20,26,7.9,62.0,0.0,0.0,2.27,0,1.0,0,0,0,0,0,0,0,0,0,0,0,0,0,0,0,0,0,0,1.0,0,-0,0.0,38.99408,-76.939453,38.58,26.0,30,3,0.9
6123404,1745474722433,,,,,,,,,,,,,,,,,,,,,,,,,,,,,,,,,,0,0,0,0,0,0,0,0,0,0,0,0,0,0,0,0,,,,,,,,,,,,,
6123424,1745474722453,0.0,130,,-0.66,-1.25,0.87,-64,1,0,1.66,1.66,100,7556,12.2,2.39,,6.47,1.251,88.0,,48.7,5,,,,,,,,,,,,0,0,0,0,0,0,0,0,0,0,0,0,0,0,0,0,,,,,,0.0,,,,,,,
6123444,1745474722473,,,,,,,,,,,,,,,,,,,,,,,,,,,,,,,,,,0,0,0,0,0,0,0,0,0,0,0,0,0,0,0,0,,,,,,,,,,,,,
6123464,1745474722493,0.0,131,,-0.6,-1.16,0.91,-66,2,0,1.59,1.66,96,7556,12.2,2.39,,7.27,1.251,88.0,,48.7,5,,,,,,,,,,,,0,0,0,0,0,0,0,0,0,0,0,0,0,0,0,0,,,,,,0.0,,,,,,,
6123484,1745474722513,,,,,,,,,,,,,,,,,,,,,,,21,27,20,25,7.9,231.0,0.0,0.0,2.26,,,0,0,0,0,0,0,0,0,0,0,0,0,0,0,0,0,,0,,,,,38.994072,-76.939438,36.8,26.0,30,3,0.9
6123504,1745474722533,0.0,131,,-0.58,-1.11,0.9,-66,2,0,1.54,1.66,93,7659,16.6,2.92,,8.45,1.25,88.0,,48.6,5,,,,,,,,,,,,0,0,0,0,0,0,0,0,0,0,0,0,0,0,0,0,,,,,,0.0,,,,,,,
6123524,1745474722553,,,,,,,,,,,,,,,,,,,,,,,,,,,,,,,,,,0,0,0,0,0,0,0,0,0,0,0,0,0,0,0,0,,,,,,,,,,,,,
6123544,1745474722573,0.0,130,,-0.57,-1.13,0.92,-64,1,0,1.57,1.57,100,7804,17.8,3.25,,9.23,1.249,86.2,,48.6,5,,,,,,,,,,,,0,0,0,0,0,0,0,0,0,0,0,0,0,0,0,0,,,,,,0.0,,,,,,,
6123564,1745474722593,,,,,,,,,,,,,,,,,,,,,,,,,,,,,,,,,,0,0,0,0,0,0,0,0,0,0,0,0,0,0,0,0,,,,,,,,,,,,,
6123584,1745474722613,0.0,130,,-0.57,-1.17,0.89,-64,1,0,1.58,1.58,100,8102,19.4,3.63,,9.69,1.171,86.2,,48.6,5,22,25,21,23,7.9,41.0,0.0,0.0,2.26,,,0,0,0,0,0,0,0,0,0,0,0,0,0,0,0,0,,1,,,,0.0,38.994064,-76.93943,35.74,26.0,30,3,0.9
6123604,1745474722633,,,,,,,,,,,,,,,,,,,,,,,,,,,,,,,,,,0,0,0,0,0,0,0,0,0,0,0,0,0,0,0,0,,,,,,,,,,,,,
6123624,1745474722653,0.0,131,,-0.55,-1.01,0.9,-64,2,0,1.46,1.58,92,8668,20.5,3.6,,9.69,1.171,86.2,,48.6,5,,,,,,,,,,,,0,0,0,0,0,0,0,0,0,0,0,0,0,0,0,0,,,,,,0.0,,,,,,,
6123644,1745474722673,,,,,,,,,,,,,,,,,,,,,,,,,,,,,,,,,,0,0,0,0,0,0,0,0,0,0,0,0,0,0,0,0,,,,,,,,,,,,,
6123664,1745474722693,0.0,130,,-0.47,-1.14,0.96,-62,2,1,1.56,1.58,99,8668,20.5,3.6,,9.85,1.087,86.2,,48.6,5,,,,,,,,,,,,0,0,0,0,0,0,0,0,0,0,0,0,0,0,0,0,,,,,,0.0,,,,,,,
6123684,1745474722713,,,,,,,,,,,,,,,,,,,,,,,22,25,23,24,7.9,86.0,0.0,0.0,2.27,,,0,0,0,0,0,0,0,0,0,0,0,0,0,0,0,0,,0,,,,,38.994057,-76.939423,35.62,26.0,30,3,0.9
6123704,1745474722733,0.0,131,,-0.4,-1.11,0.87,-62,3,0,1.47,1.58,93,8778,21.3,3.48,,9.94,1.017,86.2,,49.3,5,,,,,,,,,,,,0,0,0,0,0,0,0,0,0,0,0,0,0,0,0,0,,,,,,0.0,,,,,,,
6123724,1745474722753,,,,,,,,,,,,,,,,,,,,,,,,,,,,,,,,,,0,0,0,0,0,0,0,0,0,0,0,0,0,0,0,0,,,,,,,,,,,,,
6123744,1745474722773,0.0,130,,-0.32,-1.15,0.9,-61,3,1,1.49,1.58,94,8614,21.5,3.6,,10.06,0.999,86.2,,49.3,5,,,,,,,,,,,,0,0,0,0,0,0,0,0,0,0,0,0,0,0,0,0,,,,,,0.0,,,,,,,
6123764,1745474722793,,,,,,,,,,,,,,,,,,,,,,,,,,,,,,,,,,0,0,0,0,0,0,0,0,0,0,0,0,0,0,0,0,,,,,,,,,,,,,
6123784,1745474722813,0.0,131,,-0.29,-1.09,0.91,-58,3,1,1.44,1.58,91,8439,20.7,3.8,,10.29,1.018,86.2,,49.3,5,22,25,27,27,7.9,98.0,2.0,0.0,2.27,,,0,0,0,0,0,0,0,0,0,0,0,0,0,0,0,0,,0,,,,0.0,38.994049,-76.939423,36.42,26.0,30,3,0.9
6123804,1745474722833,,,,,,,,,,,,,,,,,,,,,,,,,,,,,,,,,,0,0,0,0,0,0,0,0,0,0,0,0,0,0,0,0,,,,,,,,,,,,,
6123824,1745474722853,0.0,130,,-0.27,-1.13,0.9,-56,2,1,1.46,1.58,93,8480,21.3,3.75,,10.29,1.018,86.2,,48.9,5,,,,,,,,,,,,0,0,0,0,0,0,0,0,0,0,0,0,0,0,0,0,,,,,,0.0,,,,,,,
6123844,1745474722873,,,,,,,,,,,,,,,,,,,,,,,,,,,,,,,,,,0,0,0,0,0,0,0,0,0,0,0,0,0,0,0,0,,,,,,,,,,,,,
6123864,1745474722893,0.0,130,,-0.28,-1.04,0.94,-56,1,1,1.43,1.58,91,8480,21.3,3.75,,10.48,1.017,86.2,,48.9,5,,,,,,,,,,,,0,0,0,0,0,0,0,0,0,0,0,0,0,0,0,0,,,,,,0.0,,,,,,,
6123884,1745474722913,,,,,,,,,,,,,,,,,,,,,,,22,25,27,26,7.9,33.0,0.0,0.0,2.26,,,0,0,0,0,0,0,0,0,0,0,0,0,0,0,0,0,,1,,,,,38.994038,-76.939415,38.81,26.0,30,3,0.9
6123904,1745474722933,0.0,130,,-0.29,-1.32,0.89,-57,1,2,1.62,1.62,100,8670,21.7,3.69,,10.5,0.998,86.2,,48.1,5,,,,,,,,,,,,0,0,0,0,0,0,0,0,0,0,0,0,0,0,0,0,,,,,,0.0,,,,,,,
6123924,1745474722953,,,,,,,,,,,,,,,,,,,,,,,,,,,,,,,,,,0,0,0,0,0,0,0,0,0,0,0,0,0,0,0,0,,,,,,,,,,,,,
6123944,1745474722973,0.0,130,,-0.24,-1.51,0.88,-58,2,-0,1.77,1.77,100,8982,21.6,3.58,,10.21,0.989,86.2,,48.1,5,,,,,,,,,,,,0,0,0,0,0,0,0,0,0,0,0,0,0,0,0,0,,,,,,0.0,,,,,,,
6123964,1745474722993,,,,,,,,,,,,,,,,,,,,,,,,,,,,,,,,,,0,0,0,0,0,0,0,0,0,0,0,0,0,0,0,0,,,,,,,,,,,,,
6123984,1745474723002,0.0,130,,-0.23,-1.55,0.92,-59,2,1,1.82,1.82,100,9120,20.1,3.53,,9.82,1.006,86.2,,48.1,5,23,27,27,27,7.9,44.0,0.0,0.0,2.26,,,0,0,0,0,0,0,0,0,0,0,0,0,0,0,0,0,,1,,,,0.0,38.99403,-76.939415,39.14,26.0,31,3,0.8
6124004,1745474723022,,,,,,,,,,,,,,,,,,,,,,,,,,,,,,,,,,0,0,0,0,0,0,0,0,0,0,0,0,0,0,0,0,,,,,,,,,,,,,
6124024,1745474723042,0.0,131,,-0.21,-1.42,0.95,-59,2,1,1.72,1.82,95,9225,11.7,2.86,,9.82,1.006,86.2,,47.8,5,,,,,,,,,,,,0,0,0,0,0,0,0,0,0,0,0,0,0,0,0,0,,,,,,0.0,,,,,,,
6124044,1745474723062,,,,,,,,,,,,,,,,,,,,,,,,,,,,,,,,,,0,0,0,0,0,0,0,0,0,0,0,0,0,0,0,0,,,,,,,,,,,,,
6124064,1745474723082,0.0,131,,-0.19,-1.23,0.97,-59,1,1,1.58,1.82,87,9225,11.7,2.86,,9.07,1.037,86.2,,47.8,5,,,,,,,,,,,,0,0,0,0,0,0,0,0,0,0,0,0,0,0,0,0,,,,,,0.0,,,,,,,
6124084,1745474723108,,,,,,,,,,,,,,,,,,,,,,,22,27,26,26,7.9,68.0,5.0,0.0,2.26,,,0,0,0,0,0,0,0,0,0,0,0,0,0,0,0,0,,0,,,,,38.994019,-76.939415,39.02,25.9,31,3,0.8
6124104,1745474723128,0.0,130,,-0.23,-1.11,0.94,-61,0,1,1.47,1.82,81,8973,5.7,2.34,,8.03,1.025,86.2,,47.4,5,,,,,,,,,,,,0,0,0,0,0,0,0,0,0,0,0,0,0,0,0,0,,,,,,0.0,,,,,,,
6124124,1745474723148,,,,,,,,,,,,,,,,,,,,,,,,,,,,,,,,,,0,0,0,0,0,0,0,0,0,0,0,0,0,0,0,0,,,,,,,,,,,,,
6124144,1745474723168,0.0,130,,-0.25,-0.88,0.98,-62,0,1,1.34,1.82,74,8935,5.8,2.14,,7.5,1.012,86.2,,47.4,5,,,,,,,,,,,,0,0,0,0,0,0,0,0,0,0,0,0,0,0,0,0,,,,,,0.0,,,,,,,
6124164,1745474723194,,,,,,,,,,,,,,,,,,,,,,,,,,,,,,,,,,0,0,0,0,0,0,0,0,0,0,0,0,0,0,0,0,,,,,,,,,,,,,
6124184,1745474723214,0.0,130,,-0.26,-0.86,1.04,-63,0,1,1.37,1.82,75,8847,5.8,2.05,,7.14,1.018,86.2,,47.4,5,23,26,27,27,7.9,115.0,0.0,0.0,2.27,,,0,0,0,0,0,0,0,0,0,0,0,0,0,0,0,0,,1,,,,0.0,38.994011,-76.939415,40.75,25.9,32,3,0.8
6124204,1745474723234,,,,,,,,,,,,,,,,,,,,,,,,,,,,,,,,,,0,0,0,0,0,0,0,0,0,0,0,0,0,0,0,0,,,,,,,,,,,,,
6124224,1745474723254,0.0,130,,-0.28,-1.12,1.0,-62,-0,1,1.53,1.82,84,8678,5.9,2.02,,7.14,1.018,86.2,,46.4,5,,,,,,,,,,,,0,0,0,0,0,0,0,0,0,0,0,0,0,0,0,0,,,,,,0.0,,,,,,,
6124244,1745474723274,,,,,,,,,,,,,,,,,,,,,,,,,,,,,,,,,,0,0,0,0,0,0,0,0,0,0,0,0,0,0,0,0,,,,,,,,,,,,,
6124264,1745474723294,0.0,130,,-0.28,-1.06,1.05,-61,-1,1,1.52,1.82,84,8678,5.9,2.02,,6.91,1.038,86.2,,46.4,5,,,,,,,,,,,,0,0,0,0,0,0,0,0,0,0,0,0,0,0,0,0,,,,,,0.0,,,,,,,
6124284,1745474723314,,,,,,,,,,,,,,,,,,,,,,,23,26,24,27,7.9,97.0,0.0,0.0,2.27,,,0,0,0,0,0,0,0,0,0,0,0,0,0,0,0,0,,0,,,,,38.994,-76.939415,39.31,25.9,32,3,0.8
6124304,1745474723334,0.0,130,,-0.32,-1.1,1.02,-61,-0,1,1.53,1.82,84,8466,5.6,2.04,,6.94,1.057,86.2,,47.0,5,,,,,,,,,,,,0,0,0,0,0,0,0,0,0,0,0,0,0,0,0,0,,,,,,0.0,,,,,,,
6124324,1745474723354,,,,,,,,,,,,,,,,,,,,,,,,,,,,,,,,,,0,0,0,0,0,0,0,0,0,0,0,0,0,0,0,0,,,,,,,,,,,,,
6124344,1745474723374,0.0,130,,-0.32,-1.1,1.03,-61,-0,1,1.54,1.82,85,8285,5.8,2.04,,7.06,1.082,86.2,,47.0,5,,,,,,,,,,,,0,0,0,0,0,0,0,0,0,0,0,0,0,0,0,0,,,,,,0.0,,,,,,,
6124364,1745474723394,,,,,,,,,,,,,,,,,,,,,,,,,,,,,,,,,,0,0,0,0,0,0,0,0,0,0,0,0,0,0,0,0,,,,,,,,,,,,,
6124384,1745474723414,0.0,130,13.1,-0.32,-1.21,1.03,-61,-0,0,1.62,1.82,89,8172,6.0,2.06,15,6.95,1.086,86.2,180,47.0,5,23,26,25,26,7.9,155.0,0.0,0.0,2.26,0,1.0,0,0,0,0,0,0,0,0,0,0,0,0,0,0,0,0,0,0,1.0,0,-0,0.0,38.993992,-76.939415,39.3,25.9,32,3,0.8
6124404,1745474723434,,,,,,,,,,,,,,,,,,,,,,,,,,,,,,,,,,0,0,0,0,0,0,0,0,0,0,0,0,0,0,0,0,,,,,,,,,,,,,
6124424,1745474723454,0.0,129,,-0.37,-1.24,1.0,-60,-1,1,1.64,1.82,90,8054,6.4,2.21,,6.95,1.086,86.2,,47.1,5,,,,,,,,,,,,0,0,0,0,0,0,0,0,0,0,0,0,0,0,0,0,,,,,,0.0,,,,,,,
6124444,1745474723474,,,,,,,,,,,,,,,,,,,,,,,,,,,,,,,,,,0,0,0,0,0,0,0,0,0,0,0,0,0,0,0,0,,,,,,,,,,,,,
6124464,1745474723494,0.0,130,,-0.42,-1.17,1.02,-61,-1,1,1.61,1.61,100,8054,6.4,2.21,,7.14,1.093,86.2,,47.1,5,,,,,,,,,,,,0,0,0,0,0,0,0,0,0,0,0,0,0,0,0,0,,,,,,0.0,,,,,,,
6124484,1745474723514,,,,,,,,,,,,,,,,,,,,,,,22,25,23,25,7.9,43.0,6.0,0.0,2.26,,,0,0,0,0,0,0,0,0,0,0,0,0,0,0,0,0,,0,,,,,38.99398,-76.939415,38.39,25.9,32,3,0.8
6124504,1745474723534,0.0,130,,-0.43,-1.16,1.01,-62,-1,1,1.6,1.61,100,8008,7.4,2.38,,7.31,1.095,86.2,,47.6,5,,,,,,,,,,,,0,0,0,0,0,0,0,0,0,0,0,0,0,0,0,0,,,,,,0.0,,,,,,,
6124524,1745474723554,,,,,,,,,,,,,,,,,,,,,,,,,,,,,,,,,,0,0,0,0,0,0,0,0,0,0,0,0,0,0,0,0,,,,,,,,,,,,,
6124544,1745474723574,0.0,129,,-0.43,-1.23,1.01,-63,-1,1,1.65,1.65,100,8004,9.2,2.52,,7.75,1.094,86.2,,47.6,5,,,,,,,,,,,,0,0,0,0,0,0,0,0,0,0,0,0,0,0,0,0,,,,,,0.0,,,,,,,
6124564,1745474723592,,,,,,,,,,,,,,,,,,,,,,,,,,,,,,,,,,0,0,0,0,0,0,0,0,0,0,0,0,0,0,0,0,,,,,,,,,,,,,
6124584,1745474723612,0.0,130,,-0.47,-1.27,0.98,-64,-1,1,1.67,1.67,100,8081,11.1,2.62,,8.1,1.091,86.2,,47.6,5,22,25,22,26,7.9,137.0,0.0,0.0,2.27,,,0,0,0,0,0,0,0,0,0,0,0,0,0,0,0,0,,0,,,,0.0,38.993977,-76.939423,37.14,25.9,32,3,0.8
6124604,1745474723632,,,,,,,,,,,,,,,,,,,,,,,,,,,,,,,,,,0,0,0,0,0,0,0,0,0,0,0,0,0,0,0,0,,,,,,,,,,,,,
6124624,1745474723652,0.0,130,,-0.47,-1.24,0.98,-65,-1,2,1.65,1.67,98,8086,12.4,2.75,,8.1,1.091,86.2,,47.6,5,,,,,,,,,,,,0,0,0,0,0,0,0,0,0,0,0,0,0,0,0,0,,,,,,0.0,,,,,,,
6124644,1745474723672,,,,,,,,,,,,,,,,,,,,,,,,,,,,,,,,,,0,0,0,0,0,0,0,0,0,0,0,0,0,0,0,0,,,,,,,,,,,,,
6124664,1745474723692,0.0,130,,-0.47,-1.18,0.98,-66,-0,2,1.61,1.67,96,8086,12.4,2.75,,8.51,1.059,86.2,,47.6,5,,,,,,,,,,,,0,0,0,0,0,0,0,0,0,0,0,0,0,0,0,0,,,,,,0.0,,,,,,,
6124684,1745474723710,,,,,,,,,,,,,,,,,,,,,,,21,25,24,26,7.9,22.0,0.0,0.0,2.27,,,0,0,0,0,0,0,0,0,0,0,0,0,0,0,0,0,,0,,,,,38.993965,-76.93943,36.18,25.9,32,3,0.8
6124704,1745474723730,0.0,130,,-0.48,-1.19,0.98,-67,1,2,1.61,1.67,96,8131,14.6,2.9,,8.85,1.051,86.2,,47.2,5,,,,,,,,,,,,0,0,0,0,0,0,0,0,0,0,0,0,0,0,0,0,,,,,,0.0,,,,,,,
6124724,1745474723750,,,,,,,,,,,,,,,,,,,,,,,,,,,,,,,,,,0,0,0,0,0,0,0,0,0,0,0,0,0,0,0,0,,,,,,,,,,,,,
6124744,1745474723770,0.0,130,,-0.45,-1.15,1.0,-67,1,1,1.59,1.67,95,8279,16.1,3.04,,9.37,1.045,86.2,,47.2,5,,,,,,,,,,,,0,0,0,0,0,0,0,0,0,0,0,0,0,0,0,0,,,,,,0.0,,,,,,,
6124764,1745474723792,,,,,,,,,,,,,,,,,,,,,,,,,,,,,,,,,,0,0,0,0,0,0,0,0,0,0,0,0,0,0,0,0,,,,,,,,,,,,,
6124784,1745474723812,0.0,130,,-0.45,-1.18,1.02,-67,1,2,1.63,1.67,97,8192,16.8,3.18,,9.53,1.045,86.2,,47.2,5,20,25,22,26,7.9,240.0,8.0,0.0,2.27,,,0,0,0,0,0,0,0,0,0,0,0,0,0,0,0,0,,0,,,,0.0,38.993958,-76.939438,35.18,25.9,32,3,0.8
6124804,1745474723832,,,,,,,,,,,,,,,,,,,,,,,,,,,,,,,,,,0,0,0,0,0,0,0,0,0,0,0,0,0,0,0,0,,,,,,,,,,,,,
6124824,1745474723852,0.0,130,,-0.45,-1.2,1.0,-66,1,1,1.63,1.67,97,8189,16.8,3.31,,9.53,1.045,86.2,,46.3,5,,,,,,,,,,,,0,0,0,0,0,0,0,0,0,0,0,0,0,0,0,0,,,,,,0.0,,,,,,,
6124844,1745474723872,,,,,,,,,,,,,,,,,,,,,,,,,,,,,,,,,,0,0,0,0,0,0,0,0,0,0,0,0,0,0,0,0,,,,,,,,,,,,,
6124864,1745474723892,0.0,130,,-0.43,-1.13,0.98,-66,1,1,1.56,1.67,93,8189,16.8,3.31,,9.65,1.047,86.2,,46.3,5,,,,,,,,,,,,0,0,0,0,0,0,0,0,0,0,0,0,0,0,0,0,,,,,,0.0,,,,,,,
6124884,1745474723912,,,,,,,,,,,,,,,,,,,,,,,21,24,25,25,7.9,60.0,1.0,0.0,2.26,,,0,0,0,0,0,0,0,0,0,0,0,0,0,0,0,0,,1,,,,,38.993954,-76.939446,36.53,25.9,32,3,0.8
6124904,1745474723932,0.0,130,,-0.41,-1.14,0.97,-66,1,1,1.55,1.67,93,8317,17.7,3.47,,9.77,1.029,86.2,,46.9,5,,,,,,,,,,,,0,0,0,0,0,0,0,0,0,0,0,0,0,0,0,0,,,,,,0.0,,,,,,,
6124924,1745474723952,,,,,,,,,,,,,,,,,,,,,,,,,,,,,,,,,,0,0,0,0,0,0,0,0,0,0,0,0,0,0,0,0,,,,,,,,,,,,,
6124944,1745474723972,0.0,131,,-0.33,-1.2,0.97,-66,1,0,1.58,1.67,94,8452,18.2,3.51,,9.9,1.016,86.2,,46.9,5,,,,,,,,,,,,0,0,0,0,0,0,0,0,0,0,0,0,0,0,0,0,,,,,,0.0,,,,,,,
6124964,1745474723992,,,,,,,,,,,,,,,,,,,,,,,,,,,,,,,,,,0,0,0,0,0,0,0,0,0,0,0,0,0,0,0,0,,,,,,,,,,,,,
6124984,1745474724003,0.0,130,,-0.32,-1.15,0.97,-65,1,1,1.54,1.67,92,8345,18.2,3.51,,9.88,1.005,86.2,,46.9,5,22,26,25,24,7.9,218.0,0.0,0.0,2.27,,,0,0,0,0,0,0,0,0,0,0,0,0,0,0,0,0,,0,,,,0.0,38.993946,-76.939453,35.84,25.9,29,3,0.9
6125004,1745474724023,,,,,,,,,,,,,,,,,,,,,,,,,,,,,,,,,,0,0,0,0,0,0,0,0,0,0,0,0,0,0,0,0,,,,,,,,,,,,,
6125024,1745474724043,0.0,130,,-0.3,-1.16,0.97,-65,1,1,1.54,1.67,92,8370,17.2,3.44,,9.88,1.005,86.2,,47.0,5,,,,,,,,,,,,0,0,0,0,0,0,0,0,0,0,0,0,0,0,0,0,,,,,,0.0,,,,,,,
6125044,1745474724063,,,,,,,,,,,,,,,,,,,,,,,,,,,,,,,,,,0,0,0,0,0,0,0,0,0,0,0,0,0,0,0,0,,,,,,,,,,,,,
6125064,1745474724083,0.0,130,,-0.32,-1.11,0.97,-65,2,0,1.51,1.67,90,8370,17.2,3.44,,9.98,0.992,86.2,,47.0,5,,,,,,,,,,,,0,0,0,0,0,0,0,0,0,0,0,0,0,0,0,0,,,,,,0.0,,,,,,,
6125084,1745474724109,,,,,,,,,,,,,,,,,,,,,,,21,25,26,25,7.9,67.0,0.0,0.0,2.27,,,0,0,0,0,0,0,0,0,0,0,0,0,0,0,0,0,,1,,,,,38.993942,-76.939461,37.33,25.9,29,3,0.9
6125104,1745474724129,0.0,130,,-0.26,-1.2,0.96,-65,2,-0,1.56,1.67,93,8566,17.6,3.44,,9.78,0.979,86.2,,46.6,5,,,,,,,,,,,,0,0,0,0,0,0,0,0,0,0,0,0,0,0,0,0,,,,,,0.0,,,,,,,
6125124,1745474724149,,,,,,,,,,,,,,,,,,,,,,,,,,,,,,,,,,0,0,0,0,0,0,0,0,0,0,0,0,0,0,0,0,,,,,,,,,,,,,
6125144,1745474724169,0.0,130,,-0.23,-1.02,1.02,-63,2,1,1.46,1.67,87,8615,18.0,3.48,,9.86,0.984,86.2,,46.6,5,,,,,,,,,,,,0,0,0,0,0,0,0,0,0,0,0,0,0,0,0,0,,,,,,0.0,,,,,,,
6125164,1745474724191,,,,,,,,,,,,,,,,,,,,,,,,,,,,,,,,,,0,0,0,0,0,0,0,0,0,0,0,0,0,0,0,0,,,,,,,,,,,,,
6125184,1745474724211,0.0,130,,-0.2,-1.07,0.99,-62,1,1,1.47,1.67,88,8768,17.6,3.33,,9.66,0.984,86.2,,46.6,5,22,26,25,25,7.9,37.0,0.0,0.0,2.27,,,0,0,0,0,0,0,0,0,0,0,0,0,0,0,0,0,,0,,,,0.0,38.993935,-76.939476,36.6,25.9,29,3,0.9
6125204,1745474724231,,,,,,,,,,,,,,,,,,,,,,,,,,,,,,,,,,0,0,0,0,0,0,0,0,0,0,0,0,0,0,0,0,,,,,,,,,,,,,
6125224,1745474724251,0.0,130,,-0.23,-1.09,0.97,-61,1,1,1.48,1.67,89,8662,16.9,3.26,,9.66,0.984,86.2,,46.4,5,,,,,,,,,,,,0,0,0,0,0,0,0,0,0,0,0,0,0,0,0,0,,,,,,0.0,,,,,,,
6125244,1745474724271,,,,,,,,,,,,,,,,,,,,,,,,,,,,,,,,,,0,0,0,0,0,0,0,0,0,0,0,0,0,0,0,0,,,,,,,,,,,,,
6125264,1745474724291,0.0,130,,-0.27,-1.01,1.04,-62,0,0,1.47,1.67,88,8662,16.9,3.26,,9.65,0.981,86.2,,46.4,5,,,,,,,,,,,,0,0,0,0,0,0,0,0,0,0,0,0,0,0,0,0,,,,,,0.0,,,,,,,
6125284,1745474724311,,,,,,,,,,,,,,,,,,,,,,,22,28,28,26,7.9,127.0,0.0,0.0,2.26,,,0,0,0,0,0,0,0,0,0,0,0,0,0,0,0,0,,1,,,,,38.993935,-76.939491,39.15,25.9,29,3,0.9
6125304,1745474724331,0.0,130,,-0.27,-1.26,0.97,-62,0,1,1.62,1.67,96,8792,17.9,3.32,,9.65,0.987,86.2,,46.5,5,,,,,,,,,,,,0,0,0,0,0,0,0,0,0,0,0,0,0,0,0,0,,,,,,0.0,,,,,,,
6125324,1745474724351,,,,,,,,,,,,,,,,,,,,,,,,,,,,,,,,,,0,0,0,0,0,0,0,0,0,0,0,0,0,0,0,0,,,,,,,,,,,,,
6125344,1745474724371,0.0,130,,-0.26,-1.48,0.94,-63,0,2,1.77,1.77,100,8932,18.1,3.23,,9.57,0.996,86.2,,46.5,5,,,,,,,,,,,,0,0,0,0,0,0,0,0,0,0,0,0,0,0,0,0,,,,,,0.0,,,,,,,
6125364,1745474724393,,,,,,,,,,,,,,,,,,,,,,,,,,,,,,,,,,0,0,0,0,0,0,0,0,0,0,0,0,0,0,0,0,,,,,,,,,,,,,
6125384,1745474724413,0.0,130,13.11,-0.25,-1.72,0.91,-64,0,2,1.96,1.96,100,9030,17.6,3.21,15,9.42,0.998,86.2,180,46.5,5,22,25,28,27,7.9,122.0,2.0,0.0,2.26,0,1.0,0,0,0,0,0,0,0,0,0,0,0,0,0,0,0,0,0,1,1.0,0,-0,0.0,38.993935,-76.939499,38.4,25.9,29,3,0.9
6125404,1745474724433,,,,,,,,,,,,,,,,,,,,,,,,,,,,,,,,,,0,0,0,0,0,0,0,0,0,0,0,0,0,0,0,0,,,,,,,,,,,,,
6125424,1745474724453,0.0,130,,-0.24,-1.89,0.94,-64,0,1,2.12,2.12,100,9101,16.4,3.14,,9.42,0.998,86.2,,45.6,5,,,,,,,,,,,,0,0,0,0,0,0,0,0,0,0,0,0,0,0,0,0,,,,,,0.0,,,,,,,
6125444,1745474724473,,,,,,,,,,,,,,,,,,,,,,,,,,,,,,,,,,0,0,0,0,0,0,0,0,0,0,0,0,0,0,0,0,,,,,,,,,,,,,
6125464,1745474724491,0.0,130,,-0.28,-1.79,0.94,-64,0,1,2.04,2.04,100,9101,16.4,3.14,,9.23,1.01,86.2,,45.6,5,,,,,,,,,,,,0,0,0,0,0,0,0,0,0,0,0,0,0,0,0,0,,,,,,0.0,,,,,,,
6125484,1745474724511,,,,,,,,,,,,,,,,,,,,,,,22,26,30,26,7.9,74.0,1.0,0.0,2.27,,,0,0,0,0,0,0,0,0,0,0,0,0,0,0,0,0,,0,,,,,38.993931,-76.939514,38.44,25.9,29,3,0.9
6125504,1745474724531,0.0,130,,-0.28,-1.65,0.92,-66,1,2,1.91,2.04,94,9245,16.4,3.07,,9.03,1.025,86.2,,45.6,5,,,,,,,,,,,,0,0,0,0,0,0,0,0,0,0,0,0,0,0,0,0,,,,,,0.0,,,,,,,
6125524,1745474724551,,,,,,,,,,,,,,,,,,,,,,,,,,,,,,,,,,0,0,0,0,0,0,0,0,0,0,0,0,0,0,0,0,,,,,,,,,,,,,
6125544,1745474724571,0.0,129,,-0.26,-1.67,0.89,-68,1,2,1.91,2.04,94,9221,14.9,2.9,,8.77,1.034,86.2,,45.6,5,,,,,,,,,,,,0,0,0,0,0,0,0,0,0,0,0,0,0,0,0,0,,,,,,0.0,,,,,,,
6125564,1745474724591,,,,,,,,,,,,,,,,,,,,,,,,,,,,,,,,,,0,0,0,0,0,0,0,0,0,0,0,0,0,0,0,0,,,,,,,,,,,,,
6125584,1745474724609,0.0,128,,-0.26,-1.76,0.96,-69,1,1,2.02,2.04,99,9111,14.2,2.81,,8.62,1.031,86.2,,45.6,5,22,26,27,28,7.9,111.0,0.0,0.0,2.27,,,0,0,0,0,0,0,0,0,0,0,0,0,0,0,0,0,,0,,,,0.0,38.993931,-76.939529,39.0,25.9,29,3,0.9
6125604,1745474724629,,,,,,,,,,,,,,,,,,,,,,,,,,,,,,,,,,0,0,0,0,0,0,0,0,0,0,0,0,0,0,0,0,,,,,,,,,,,,,
6125624,1745474724649,0.0,129,,-0.25,-1.66,1.0,-68,1,1,1.96,2.04,96,9087,13.7,2.76,,8.62,1.031,86.2,,44.9,5,,,,,,,,,,,,0,0,0,0,0,0,0,0,0,0,0,0,0,0,0,0,,,,,,0.0,,,,,,,
6125644,1745474724669,,,,,,,,,,,,,,,,,,,,,,,,,,,,,,,,,,0,0,0,0,0,0,0,0,0,0,0,0,0,0,0,0,,,,,,,,,,,,,
6125664,1745474724691,0.0,130,,-0.25,-1.43,1.05,-67,1,1,1.8,2.04,88,9087,13.7,2.76,,8.5,1.023,86.2,,44.9,5,,,,,,,,,,,,0,0,0,0,0,0,0,0,0,0,0,0,0,0,0,0,,,,,,0.0,,,,,,,
6125684,1745474724711,,,,,,,,,,,,,,,,,,,,,,,22,27,29,28,7.9,68.0,0.0,0.0,2.27,,,0,0,0,0,0,0,0,0,0,0,0,0,0,0,0,0,,1,,,,,38.993931,-76.939537,39.11,25.9,29,3,0.9
6125704,1745474724731,0.0,131,,-0.22,-1.09,1.1,-66,0,2,1.56,2.04,77,9034,13.8,2.77,,8.51,1.023,86.2,,45.7,5,,,,,,,,,,,,0,0,0,0,0,0,0,0,0,0,0,0,0,0,0,0,,,,,,0.0,,,,,,,
6125724,1745474724751,,,,,,,,,,,,,,,,,,,,,,,,,,,,,,,,,,0,0,0,0,0,0,0,0,0,0,0,0,0,0,0,0,,,,,,,,,,,,,
6125744,1745474724771,0.0,130,,-0.22,-0.89,1.08,-65,-0,2,1.42,2.04,69,9050,14.4,2.79,,8.53,1.03,86.2,,45.7,5,,,,,,,,,,,,0,0,0,0,0,0,0,0,0,0,0,0,0,0,0,0,,,,,,0.0,,,,,,,
6125764,1745474724791,,,,,,,,,,,,,,,,,,,,,,,,,,,,,,,,,,0,0,0,0,0,0,0,0,0,0,0,0,0,0,0,0,,,,,,,,,,,,,
6125784,1745474724811,0.0,130,,-0.19,-0.79,1.07,-65,-1,2,1.34,2.04,66,9133,14.4,2.72,,8.54,1.035,86.2,,45.7,5,23,24,27,27,7.9,63.0,0.0,0.0,2.27,,,0,0,0,0,0,0,0,0,0,0,0,0,0,0,0,0,,1,,,,0.0,38.993935,-76.939545,39.67,25.9,29,3,0.9
6125804,1745474724831,,,,,,,,,,,,,,,,,,,,,,,,,,,,,,,,,,0,0,0,0,0,0,0,0,0,0,0,0,0,0,0,0,,,,,,,,,,,,,
6125824,1745474724851,0.0,130,,-0.19,-0.77,1.04,-66,-0,2,1.31,2.04,64,8989,14.0,2.73,,8.54,1.035,86.2,,45.5,5,,,,,,,,,,,,0,0,0,0,0,0,0,0,0,0,0,0,0,0,0,0,,,,,,0.0,,,,,,,
6125844,1745474724871,,,,,,,,,,,,,,,,,,,,,,,,,,,,,,,,,,0,0,0,0,0,0,0,0,0,0,0,0,0,0,0,0,,,,,,,,,,,,,
6125864,1745474724891,0.0,131,,-0.16,-0.64,1.0,-66,1,2,1.19,2.04,58,8989,14.0,2.73,,8.45,1.034,86.2,,45.5,5,,,,,,,,,,,,0,0,0,0,0,0,0,0,0,0,0,0,0,0,0,0,,,,,,0.0,,,,,,,
6125884,1745474724911,,,,,,,,,,,,,,,,,,,,,,,22,27,27,27,7.9,123.0,0.0,0.0,2.26,,,0,0,0,0,0,0,0,0,0,0,0,0,0,0,0,0,,1,,,,,38.993935,-76.93956,37.95,25.9,29,3,0.9
6125904,1745474724931,0.0,131,,-0.13,-0.63,1.06,-64,2,2,1.24,2.04,61,8886,14.2,2.77,,8.55,1.039,86.2,,46.2,5,,,,,,,,,,,,0,0,0,0,0,0,0,0,0,0,0,0,0,0,0,0,,,,,,0.0,,,,,,,
6125924,1745474724951,,,,,,,,,,,,,,,,,,,,,,,,,,,,,,,,,,0,0,0,0,0,0,0,0,0,0,0,0,0,0,0,0,,,,,,,,,,,,,
6125944,1745474724971,0.0,130,,-0.12,-0.77,1.03,-63,2,2,1.29,2.04,63,8833,14.1,2.81,,8.66,1.038,86.2,,46.2,5,,,,,,,,,,,,0,0,0,0,0,0,0,0,0,0,0,0,0,0,0,0,,,,,,0.0,,,,,,,
6125964,1745474724991,,,,,,,,,,,,,,,,,,,,,,,,,,,,,,,,,,0,0,0,0,0,0,0,0,0,0,0,0,0,0,0,0,,,,,,,,,,,,,
6125984,1745474725000,0.0,130,,-0.15,-0.88,0.99,-62,2,1,1.33,2.04,65,8746,13.6,2.83,,8.63,1.036,86.2,,46.2,5,22,42,27,26,7.9,141.0,16.0,0.0,2.27,,,0,0,0,0,0,0,0,0,0,0,0,0,0,0,0,0,,1,,,,0.0,38.993938,-76.939575,37.66,25.9,30,3,0.9
6126004,1745474725020,,,,,,,,,,,,,,,,,,,,,,,,,,,,,,,,,,0,0,0,0,0,0,0,0,0,0,0,0,0,0,0,0,,,,,,,,,,,,,
6126024,1745474725040,0.0,130,,-0.16,-0.75,1.07,-60,2,3,1.31,2.04,64,8705,14.1,2.8,,8.63,1.036,86.2,,45.6,5,,,,,,,,,,,,0,0,0,0,0,0,0,0,0,0,0,0,0,0,0,0,,,,,,0.0,,,,,,,
6126044,1745474725060,,,,,,,,,,,,,,,,,,,,,,,,,,,,,,,,,,0,0,0,0,0,0,0,0,0,0,0,0,0,0,0,0,,,,,,,,,,,,,
6126064,1745474725080,0.0,130,,-0.19,-0.86,1.07,-58,1,1,1.38,2.04,68,8705,14.1,2.8,,8.7,1.032,86.2,,45.6,5,,,,,,,,,,,,0,0,0,0,0,0,0,0,0,0,0,0,0,0,0,0,,,,,,0.0,,,,,,,
6126084,1745474725110,,,,,,,,,,,,,,,,,,,,,,,23,27,26,27,7.9,71.0,0.0,0.0,2.27,,,0,0,0,0,0,0,0,0,0,0,0,0,0,0,0,0,,0,,,,,38.993942,-76.939583,40.42,26.0,30,3,1.0
6126104,1745474725130,0.0,130,,-0.21,-0.71,1.09,-55,1,1,1.32,2.04,65,8657,13.7,2.89,,8.75,1.03,86.2,,46.6,5,,,,,,,,,,,,0,0,0,0,0,0,0,0,0,0,0,0,0,0,0,0,,,,,,0.0,,,,,,,
6126124,1745474725150,,,,,,,,,,,,,,,,,,,,,,,,,,,,,,,,,,0,0,0,0,0,0,0,0,0,0,0,0,0,0,0,0,,,,,,,,,,,,,
6126144,1745474725170,0.0,130,,-0.19,-0.85,1.06,-54,0,1,1.37,2.04,67,8648,14.0,2.84,,8.85,1.031,86.2,,46.6,5,,,,,,,,,,,,0,0,0,0,0,0,0,0,0,0,0,0,0,0,0,0,,,,,,0.0,,,,,,,
6126164,1745474725190,,,,,,,,,,,,,,,,,,,,,,,,,,,,,,,,,,0,0,0,0,0,0,0,0,0,0,0,0,0,0,0,0,,,,,,,,,,,,,
6126184,1745474725208,0.0,130,,-0.23,-0.74,1.04,-55,0,1,1.3,2.04,63,8672,14.0,2.84,,8.79,1.023,86.2,,46.6,5,23,25,27,27,7.9,120.0,0.0,0.0,2.27,,,0,0,0,0,0,0,0,0,0,0,0,0,0,0,0,0,,1,,,,0.0,38.99395,-76.93959,38.88,26.0,31,3,1.0
6126204,1745474725228,,,,,,,,,,,,,,,,,,,,,,,,,,,,,,,,,,0,0,0,0,0,0,0,0,0,0,0,0,0,0,0,0,,,,,,,,,,,,,
6126224,1745474725248,0.0,129,,-0.28,-0.86,1.06,-55,0,1,1.39,2.04,68,8592,13.9,2.91,,8.79,1.023,86.2,,46.4,5,,,,,,,,,,,,0,0,0,0,0,0,0,0,0,0,0,0,0,0,0,0,,,,,,0.0,,,,,,,
6126244,1745474725268,,,,,,,,,,,,,,,,,,,,,,,,,,,,,,,,,,0,0,0,0,0,0,0,0,0,0,0,0,0,0,0,0,,,,,,,,,,,,,
6126264,1745474725292,0.0,130,,-0.27,-0.83,1.05,-55,0,2,1.37,2.04,67,8592,13.9,2.91,,8.91,1.024,86.2,,46.4,5,,,,,,,,,,,,0,0,0,0,0,0,0,0,0,0,0,0,0,0,0,0,,,,,,0.0,,,,,,,
6126284,1745474725312,,,,,,,,,,,,,,,,,,,,,,,24,24,26,26,7.9,37.0,0.0,0.0,2.27,,,0,0,0,0,0,0,0,0,0,0,0,0,0,0,0,0,,1,,,,,38.993958,-76.939606,38.42,26.0,31,3,1.0
6126304,1745474725332,0.0,130,,-0.27,-0.95,1.06,-55,0,1,1.45,2.04,71,8662,14.1,2.88,,8.85,1.029,86.2,,45.2,5,,,,,,,,,,,,0,0,0,0,0,0,0,0,0,0,0,0,0,0,0,0,,,,,,0.0,,,,,,,
6126324,1745474725352,,,,,,,,,,,,,,,,,,,,,,,,,,,,,,,,,,0,0,0,0,0,0,0,0,0,0,0,0,0,0,0,0,,,,,,,,,,,,,
6126344,1745474725372,0.0,130,,-0.31,-1.1,0.97,-56,0,1,1.5,2.04,73,8707,13.8,2.92,,8.85,1.029,86.2,,45.2,5,,,,,,,,,,,,0,0,0,0,0,0,0,0,0,0,0,0,0,0,0,0,,,,,,0.0,,,,,,,
6126364,1745474725392,,,,,,,,,,,,,,,,,,,,,,,,,,,,,,,,,,0,0,0,0,0,0,0,0,0,0,0,0,0,0,0,0,,,,,,,,,,,,,
6126384,1745474725412,0.0,130,13.1,-0.33,-0.91,0.97,-58,1,1,1.37,1.37,100,8787,14.1,2.88,15,8.73,1.029,86.2,180,45.2,5,23,26,26,26,7.9,5.0,0.0,0.0,2.27,0,1.0,0,0,0,0,0,0,0,0,0,0,0,0,0,0,0,0,0,1,1.0,0,-0,0.0,38.993965,-76.939613,38.44,26.0,31,3,1.0
6126404,1745474725432,,,,,,,,,,,,,,,,,,,,,,,,,,,,,,,,,,0,0,0,0,0,0,0,0,0,0,0,0,0,0,0,0,,,,,,,,,,,,,
6126424,1745474725452,0.0,130,,-0.37,-0.88,1.0,-61,1,1,1.38,1.38,100,8872,13.9,2.82,,8.73,1.029,86.2,,45.8,5,,,,,,,,,,,,0,0,0,0,0,0,0,0,0,0,0,0,0,0,0,0,,,,,,0.0,,,,,,,
6126444,1745474725472,,,,,,,,,,,,,,,,,,,,,,,,,,,,,,,,,,0,0,0,0,0,0,0,0,0,0,0,0,0,0,0,0,,,,,,,,,,,,,
6126464,1745474725492,0.0,130,,-0.37,-1.02,1.03,-63,1,2,1.5,1.5,100,8872,13.9,2.82,,8.82,1.03,86.2,,45.8,5,,,,,,,,,,,,0,0,0,0,0,0,0,0,0,0,0,0,0,0,0,0,,,,,,0.0,,,,,,,
6126484,1745474725512,,,,,,,,,,,,,,,,,,,,,,,22,24,26,26,7.9,31.0,0.0,0.0,2.27,,,0,0,0,0,0,0,0,0,0,0,0,0,0,0,0,0,,1,,,,,38.993973,-76.939613,37.65,26.1,31,3,1.0
6126504,1745474725532,0.0,130,,-0.37,-1.25,0.98,-64,1,1,1.63,1.63,100,8839,13.6,2.79,,8.73,1.02,86.2,,44.4,5,,,,,,,,,,,,0,0,0,0,0,0,0,0,0,0,0,0,0,0,0,0,,,,,,0.0,,,,,,,
6126524,1745474725552,,,,,,,,,,,,,,,,,,,,,,,,,,,,,,,,,,0,0,0,0,0,0,0,0,0,0,0,0,0,0,0,0,,,,,,,,,,,,,
6126544,1745474725572,0.0,130,,-0.38,-1.21,1.03,-64,1,1,1.63,1.63,100,8768,13.6,2.81,,8.79,1.028,86.2,,44.4,5,,,,,,,,,,,,0,0,0,0,0,0,0,0,0,0,0,0,0,0,0,0,,,,,,0.0,,,,,,,
6126564,1745474725592,,,,,,,,,,,,,,,,,,,,,,,,,,,,,,,,,,0,0,0,0,0,0,0,0,0,0,0,0,0,0,0,0,,,,,,,,,,,,,
6126584,1745474725612,0.0,130,,-0.38,-1.14,1.06,-65,1,1,1.61,1.63,98,8816,13.6,2.84,,8.85,1.033,86.2,,44.4,5,22,26,26,26,7.9,79.0,0.0,0.0,2.27,,,0,0,0,0,0,0,0,0,0,0,0,0,0,0,0,0,,1,,,,0.0,38.993977,-76.939621,37.89,26.1,31,3,1.0
6126604,1745474725632,,,,,,,,,,,,,,,,,,,,,,,,,,,,,,,,,,0,0,0,0,0,0,0,0,0,0,0,0,0,0,0,0,,,,,,,,,,,,,
6126624,1745474725652,0.0,128,,-0.37,-1.29,1.09,-65,1,1,1.73,1.73,100,8875,13.9,2.81,,8.85,1.033,86.2,,44.2,5,,,,,,,,,,,,0,0,0,0,0,0,0,0,0,0,0,0,0,0,0,0,,,,,,0.0,,,,,,,
6126644,1745474725672,,,,,,,,,,,,,,,,,,,,,,,,,,,,,,,,,,0,0,0,0,0,0,0,0,0,0,0,0,0,0,0,0,,,,,,,,,,,,,
6126664,1745474725692,0.0,130,,-0.35,-1.46,1.05,-65,1,1,1.83,1.83,100,8875,13.9,2.81,,8.73,1.033,86.2,,44.2,5,,,,,,,,,,,,0,0,0,0,0,0,0,0,0,0,0,0,0,0,0,0,,,,,,0.0,,,,,,,
6126684,1745474725712,,,,,,,,,,,,,,,,,,,,,,,21,27,27,27,7.9,95.0,0.0,0.0,2.27,,,0,0,0,0,0,0,0,0,0,0,0,0,0,0,0,0,,1,,,,,38.993988,-76.939629,37.84,26.1,31,3,1.0
6126704,1745474725732,0.0,130,,-0.39,-1.48,0.98,-67,0,1,1.82,1.83,99,8875,14.1,2.85,,8.69,1.027,86.2,,44.2,5,,,,,,,,,,,,0,0,0,0,0,0,0,0,0,0,0,0,0,0,0,0,,,,,,0.0,,,,,,,
6126724,1745474725752,,,,,,,,,,,,,,,,,,,,,,,,,,,,,,,,,,0,0,0,0,0,0,0,0,0,0,0,0,0,0,0,0,,,,,,,,,,,,,
6126744,1745474725772,0.0,130,,-0.42,-1.3,0.96,-69,0,0,1.67,1.83,91,8861,14.2,2.82,,8.65,1.031,86.2,,44.2,5,,,,,,,,,,,,0,0,0,0,0,0,0,0,0,0,0,0,0,0,0,0,,,,,,0.0,,,,,,,
6126764,1745474725792,,,,,,,,,,,,,,,,,,,,,,,,,,,,,,,,,,0,0,0,0,0,0,0,0,0,0,0,0,0,0,0,0,,,,,,,,,,,,,
6126784,1745474725812,0.0,130,,-0.41,-1.22,0.95,-72,1,0,1.6,1.83,88,8860,14.2,2.85,,8.59,1.032,86.2,,44.2,5,21,26,28,26,7.9,115.0,0.0,0.0,2.26,,,0,0,0,0,0,0,0,0,0,0,0,0,0,0,0,0,,1,,,,0.0,38.993996,-76.939629,37.53,26.2,31,3,1.0
6126804,1745474725832,,,,,,,,,,,,,,,,,,,,,,,,,,,,,,,,,,0,0,0,0,0,0,0,0,0,0,0,0,0,0,0,0,,,,,,,,,,,,,
6126824,1745474725852,0.0,130,,-0.41,-1.29,0.99,-75,1,1,1.67,1.83,91,8875,14.2,2.82,,8.59,1.032,86.2,,44.0,5,,,,,,,,,,,,0,0,0,0,0,0,0,0,0,0,0,0,0,0,0,0,,,,,,0.0,,,,,,,
6126844,1745474725872,,,,,,,,,,,,,,,,,,,,,,,,,,,,,,,,,,0,0,0,0,0,0,0,0,0,0,0,0,0,0,0,0,,,,,,,,,,,,,
6126864,1745474725894,0.0,130,,-0.41,-1.47,0.99,-75,1,1,1.82,1.83,100,8875,14.2,2.82,,8.75,1.031,86.2,,44.0,5,,,,,,,,,,,,0,0,0,0,0,0,0,0,0,0,0,0,0,0,0,0,,,,,,0.0,,,,,,,
6126884,1745474725914,,,,,,,,,,,,,,,,,,,,,,,20,26,28,27,7.9,105.0,0.0,0.0,2.27,,,0,0,0,0,0,0,0,0,0,0,0,0,0,0,0,0,,1,,,,,38.994007,-76.939636,36.57,26.2,31,3,1.0
6126904,1745474725934,0.0,130,,-0.42,-1.54,0.98,-76,1,0,1.87,1.87,100,8820,13.7,2.78,,8.69,1.03,86.2,,44.1,5,,,,,,,,,,,,0,0,0,0,0,0,0,0,0,0,0,0,0,0,0,0,,,,,,0.0,,,,,,,
6126924,1745474725954,,,,,,,,,,,,,,,,,,,,,,,,,,,,,,,,,,0,0,0,0,0,0,0,0,0,0,0,0,0,0,0,0,,,,,,,,,,,,,
6126944,1745474725974,0.0,130,,-0.4,-1.33,1.0,-76,1,0,1.71,1.87,91,8761,13.6,2.86,,8.81,1.036,86.2,,44.1,5,,,,,,,,,,,,0,0,0,0,0,0,0,0,0,0,0,0,0,0,0,0,,,,,,0.0,,,,,,,
6126964,1745474725994,,,,,,,,,,,,,,,,,,,,,,,,,,,,,,,,,,0,0,0,0,0,0,0,0,0,0,0,0,0,0,0,0,,,,,,,,,,,,,
6126984,1745474726003,0.0,130,,-0.37,-1.27,1.03,-76,1,0,1.67,1.87,89,8753,13.6,2.86,,8.82,1.03,86.2,,44.1,5,20,24,27,27,7.9,34.0,1.0,0.0,2.27,,,0,0,0,0,0,0,0,0,0,0,0,0,0,0,0,0,,0,,,,0.0,38.994015,-76.939636,36.25,26.2,29,3,1.0
6127004,1745474726023,,,,,,,,,,,,,,,,,,,,,,,,,,,,,,,,,,0,0,0,0,0,0,0,0,0,0,0,0,0,0,0,0,,,,,,,,,,,,,
6127024,1745474726043,0.0,130,,-0.34,-1.44,0.95,-77,1,0,1.76,1.87,94,8731,13.5,2.85,,8.82,1.03,86.2,,43.2,5,,,,,,,,,,,,0,0,0,0,0,0,0,0,0,0,0,0,0,0,0,0,,,,,,0.0,,,,,,,
6127044,1745474726063,,,,,,,,,,,,,,,,,,,,,,,,,,,,,,,,,,0,0,0,0,0,0,0,0,0,0,0,0,0,0,0,0,,,,,,,,,,,,,
6127064,1745474726091,0.0,130,,-0.35,-1.4,0.99,-78,1,0,1.75,1.87,93,8731,13.5,2.85,,8.75,1.032,86.2,,43.2,5,,,,,,,,,,,,0,0,0,0,0,0,0,0,0,0,0,0,0,0,0,0,,,,,,0.0,,,,,,,
6127084,1745474726111,,,,,,,,,,,,,,,,,,,,,,,21,24,28,26,7.9,148.0,0.0,0.0,2.27,,,0,0,0,0,0,0,0,0,0,0,0,0,0,0,0,0,,1,,,,,38.994022,-76.939636,36.38,26.2,28,3,1.0
6127104,1745474726131,0.0,131,,-0.34,-1.45,0.96,-79,1,0,1.77,1.87,95,8687,13.6,2.89,,8.85,1.029,86.2,,43.8,5,,,,,,,,,,,,0,0,0,0,0,0,0,0,0,0,0,0,0,0,0,0,,,,,,0.0,,,,,,,
6127124,1745474726151,,,,,,,,,,,,,,,,,,,,,,,,,,,,,,,,,,0,0,0,0,0,0,0,0,0,0,0,0,0,0,0,0,,,,,,,,,,,,,
6127144,1745474726171,0.0,131,,-0.33,-1.27,0.96,-78,1,1,1.62,1.87,87,8628,13.9,2.91,,8.91,1.021,86.2,,43.8,5,,,,,,,,,,,,0,0,0,0,0,0,0,0,0,0,0,0,0,0,0,0,,,,,,0.0,,,,,,,
6127164,1745474726193,,,,,,,,,,,,,,,,,,,,,,,,,,,,,,,,,,0,0,0,0,0,0,0,0,0,0,0,0,0,0,0,0,,,,,,,,,,,,,
6127184,1745474726213,0.0,131,,-0.3,-1.29,0.98,-77,1,1,1.65,1.87,88,8550,14.3,2.93,,9.15,1.024,86.2,,43.8,5,21,19,25,27,7.9,104.0,21.0,0.0,2.27,,,0,0,0,0,0,0,0,0,0,0,0,0,0,0,0,0,,0,,,,0.0,38.994034,-76.939629,35.94,26.2,28,3,1.0
6127204,1745474726233,,,,,,,,,,,,,,,,,,,,,,,,,,,,,,,,,,0,0,0,0,0,0,0,0,0,0,0,0,0,0,0,0,,,,,,,,,,,,,
6127224,1745474726253,0.0,131,,-0.29,-1.29,1.03,-77,1,1,1.67,1.87,89,8547,14.5,2.96,,9.15,1.024,86.2,,43.4,5,,,,,,,,,,,,0,0,0,0,0,0,0,0,0,0,0,0,0,0,0,0,,,,,,0.0,,,,,,,
6127244,1745474726273,,,,,,,,,,,,,,,,,,,,,,,,,,,,,,,,,,0,0,0,0,0,0,0,0,0,0,0,0,0,0,0,0,,,,,,,,,,,,,
6127264,1745474726291,0.0,131,,-0.28,-1.23,1.0,-75,1,2,1.61,1.87,86,8547,14.5,2.96,,9.15,1.025,86.2,,43.4,5,,,,,,,,,,,,0,0,0,0,0,0,0,0,0,0,0,0,0,0,0,0,,,,,,0.0,,,,,,,
6127284,1745474726311,,,,,,,,,,,,,,,,,,,,,,,20,19,24,25,7.9,206.0,15.0,0.0,2.27,,,0,0,0,0,0,0,0,0,0,0,0,0,0,0,0,0,,1,,,,,38.994041,-76.939629,36.14,26.2,29,3,1.0
6127304,1745474726331,0.0,131,,-0.23,-1.28,0.99,-75,1,2,1.64,1.87,87,8469,15.1,3.05,,9.29,1.026,86.2,,43.3,5,,,,,,,,,,,,0,0,0,0,0,0,0,0,0,0,0,0,0,0,0,0,,,,,,0.0,,,,,,,
6127324,1745474726351,,,,,,,,,,,,,,,,,,,,,,,,,,,,,,,,,,0,0,0,0,0,0,0,0,0,0,0,0,0,0,0,0,,,,,,,,,,,,,
6127344,1745474726371,0.0,131,,-0.21,-1.27,0.97,-73,1,1,1.61,1.61,100,8422,15.3,3.12,,9.3,1.025,86.2,,43.3,5,,,,,,,,,,,,0,0,0,0,0,0,0,0,0,0,0,0,0,0,0,0,,,,,,0.0,,,,,,,
6127364,1745474726391,,,,,,,,,,,,,,,,,,,,,,,,,,,,,,,,,,0,0,0,0,0,0,0,0,0,0,0,0,0,0,0,0,,,,,,,,,,,,,
6127384,1745474726411,0.0,131,13.15,-0.16,-1.22,0.99,-69,1,1,1.57,1.61,98,8430,16.3,3.21,15,9.53,1.023,86.2,180,43.3,5,21,19,25,27,7.9,32.0,15.0,0.0,2.27,0,1.0,0,0,0,0,0,0,0,0,0,0,0,0,0,0,0,0,0,0,1.0,0,-0,0.0,38.994049,-76.939621,35.9,26.3,29,3,1.0
6127404,1745474726431,,,,,,,,,,,,,,,,,,,,,,,,,,,,,,,,,,0,0,0,0,0,0,0,0,0,0,0,0,0,0,0,0,,,,,,,,,,,,,
6127424,1745474726451,0.0,131,,-0.13,-1.08,0.97,-65,1,1,1.45,1.61,90,8378,16.4,3.27,,9.53,1.023,86.2,,43.9,5,,,,,,,,,,,,0,0,0,0,0,0,0,0,0,0,0,0,0,0,0,0,,,,,,0.0,,,,,,,
6127444,1745474726471,,,,,,,,,,,,,,,,,,,,,,,,,,,,,,,,,,0,0,0,0,0,0,0,0,0,0,0,0,0,0,0,0,,,,,,,,,,,,,
6127464,1745474726491,0.0,132,,-0.1,-1.02,0.99,-60,1,1,1.43,1.61,88,8378,16.4,3.27,,9.66,1.02,86.2,,43.9,5,,,,,,,,,,,,0,0,0,0,0,0,0,0,0,0,0,0,0,0,0,0,,,,,,0.0,,,,,,,
6127484,1745474726511,,,,,,,,,,,,,,,,,,,,,,,22,19,26,27,7.9,6.0,10.0,0.0,2.27,,,0,0,0,0,0,0,0,0,0,0,0,0,0,0,0,0,,0,,,,,38.994057,-76.939613,36.61,26.3,29,3,1.0
6127504,1745474726531,0.0,132,,-0.08,-1.0,1.01,-56,0,1,1.42,1.61,88,8273,16.5,3.32,,9.84,1.006,86.2,,43.7,5,,,,,,,,,,,,0,0,0,0,0,0,0,0,0,0,0,0,0,0,0,0,,,,,,0.0,,,,,,,
6127524,1745474726551,,,,,,,,,,,,,,,,,,,,,,,,,,,,,,,,,,0,0,0,0,0,0,0,0,0,0,0,0,0,0,0,0,,,,,,,,,,,,,
6127544,1745474726571,0.0,131,,-0.1,-0.98,1.02,-51,0,1,1.42,1.61,88,8174,16.1,3.36,,9.89,0.999,86.2,,43.7,5,,,,,,,,,,,,0,0,0,0,0,0,0,0,0,0,0,0,0,0,0,0,,,,,,0.0,,,,,,,
6127564,1745474726593,,,,,,,,,,,,,,,,,,,,,,,,,,,,,,,,,,0,0,0,0,0,0,0,0,0,0,0,0,0,0,0,0,,,,,,,,,,,,,
6127584,1745474726613,0.0,131,,-0.1,-1.01,0.99,-49,0,1,1.42,1.61,88,8116,15.8,3.37,,10.13,0.993,86.2,,43.7,5,24,19,25,25,7.9,22.0,10.0,0.0,2.27,,,0,0,0,0,0,0,0,0,0,0,0,0,0,0,0,0,,1,,,,0.0,38.994064,-76.939606,37.67,26.3,29,3,1.0
6127604,1745474726633,,,,,,,,,,,,,,,,,,,,,,,,,,,,,,,,,,0,0,0,0,0,0,0,0,0,0,0,0,0,0,0,0,,,,,,,,,,,,,
6127624,1745474726653,0.0,131,,-0.12,-0.98,0.97,-47,-0,0,1.38,1.61,86,8116,16.6,3.48,,10.13,0.993,86.2,,44.1,5,,,,,,,,,,,,0,0,0,0,0,0,0,0,0,0,0,0,0,0,0,0,,,,,,0.0,,,,,,,
6127644,1745474726673,,,,,,,,,,,,,,,,,,,,,,,,,,,,,,,,,,0,0,0,0,0,0,0,0,0,0,0,0,0,0,0,0,,,,,,,,,,,,,
6127664,1745474726695,0.0,131,,-0.14,-1.01,0.98,-46,-1,1,1.41,1.61,88,8116,16.6,3.48,,10.18,0.987,86.2,,44.1,5,,,,,,,,,,,,0,0,0,0,0,0,0,0,0,0,0,0,0,0,0,0,,,,,,0.0,,,,,,,
6127684,1745474726715,,,,,,,,,,,,,,,,,,,,,,,23,26,24,26,7.9,13.0,0.0,0.0,2.26,,,0,0,0,0,0,0,0,0,0,0,0,0,0,0,0,0,,0,,,,,38.994072,-76.939598,38.75,26.3,29,3,1.0
6127704,1745474726735,0.0,131,,-0.15,-0.89,1.01,-46,-0,1,1.36,1.61,84,8276,17.5,3.6,,10.1,0.993,86.2,,45.2,5,,,,,,,,,,,,0,0,0,0,0,0,0,0,0,0,0,0,0,0,0,0,,,,,,0.0,,,,,,,
6127724,1745474726755,,,,,,,,,,,,,,,,,,,,,,,,,,,,,,,,,,0,0,0,0,0,0,0,0,0,0,0,0,0,0,0,0,,,,,,,,,,,,,
6127744,1745474726775,0.0,131,,-0.18,-0.87,1.03,-47,-1,2,1.36,1.61,84,8474,17.3,3.49,,10.0,0.988,86.2,,45.2,5,,,,,,,,,,,,0,0,0,0,0,0,0,0,0,0,0,0,0,0,0,0,,,,,,0.0,,,,,,,
6127764,1745474726793,,,,,,,,,,,,,,,,,,,,,,,,,,,,,,,,,,0,0,0,0,0,0,0,0,0,0,0,0,0,0,0,0,,,,,,,,,,,,,
6127784,1745474726813,0.0,131,,-0.19,-0.81,1.1,-49,-1,2,1.38,1.61,85,8842,16.4,3.26,,9.77,0.972,86.2,,45.2,5,23,28,26,26,7.9,233.0,0.0,0.0,2.27,,,0,0,0,0,0,0,0,0,0,0,0,0,0,0,0,0,,1,,,,0.0,38.994076,-76.93959,38.6,26.2,29,3,1.0
6127804,1745474726833,,,,,,,,,,,,,,,,,,,,,,,,,,,,,,,,,,0,0,0,0,0,0,0,0,0,0,0,0,0,0,0,0,,,,,,,,,,,,,
6127824,1745474726853,0.0,131,,-0.2,-0.76,1.09,-51,-0,2,1.35,1.61,84,9048,15.9,3.19,,9.77,0.972,86.2,,47.3,5,,,,,,,,,,,,0,0,0,0,0,0,0,0,0,0,0,0,0,0,0,0,,,,,,0.0,,,,,,,
6127844,1745474726873,,,,,,,,,,,,,,,,,,,,,,,,,,,,,,,,,,0,0,0,0,0,0,0,0,0,0,0,0,0,0,0,0,,,,,,,,,,,,,
6127864,1745474726893,0.0,131,,-0.21,-0.66,1.11,-54,0,3,1.31,1.61,81,9048,15.9,3.19,,9.5,0.965,86.2,,47.3,5,,,,,,,,,,,,0,0,0,0,0,0,0,0,0,0,0,0,0,0,0,0,,,,,,0.0,,,,,,,
6127884,1745474726913,,,,,,,,,,,,,,,,,,,,,,,23,28,29,28,7.9,0.0,0.0,0.0,2.27,,,0,0,0,0,0,0,0,0,0,0,0,0,0,0,0,0,,1,,,,,38.994083,-76.939575,38.37,26.2,29,3,1.0
6127904,1745474726933,0.0,131,,-0.19,-0.47,1.1,-55,-0,4,1.21,1.61,75,9036,15.0,3.0,,9.17,0.987,86.2,,44.1,5,,,,,,,,,,,,0,0,0,0,0,0,0,0,0,0,0,0,0,0,0,0,,,,,,0.0,,,,,,,
6127924,1745474726953,,,,,,,,,,,,,,,,,,,,,,,,,,,,,,,,,,0,0,0,0,0,0,0,0,0,0,0,0,0,0,0,0,,,,,,,,,,,,,
6127944,1745474726973,0.0,131,,-0.23,-0.33,1.1,-58,-0,3,1.18,1.61,73,9068,14.0,2.89,,9.02,1.008,86.2,,44.1,5,,,,,,,,,,,,0,0,0,0,0,0,0,0,0,0,0,0,0,0,0,0,,,,,,0.0,,,,,,,
6127964,1745474726993,,,,,,,,,,,,,,,,,,,,,,,,,,,,,,,,,,0,0,0,0,0,0,0,0,0,0,0,0,0,0,0,0,,,,,,,,,,,,,
6127984,1745474727004,0.0,131,,-0.26,-0.23,1.04,-61,0,3,1.09,1.61,68,9111,14.0,2.87,,8.69,1.01,86.2,,44.1,5,22,28,27,30,7.9,49.0,0.0,0.0,2.27,,,0,0,0,0,0,0,0,0,0,0,0,0,0,0,0,0,,0,,,,0.0,38.994087,-76.939568,39.54,26.2,29,3,0.8
6128004,1745474727024,,,,,,,,,,,,,,,,,,,,,,,,,,,,,,,,,,0,0,0,0,0,0,0,0,0,0,0,0,0,0,0,0,,,,,,,,,,,,,
6128024,1745474727044,0.0,131,,-0.25,-0.38,0.99,-63,1,3,1.09,1.61,68,9142,14.3,2.83,,8.69,1.01,86.2,,44.0,5,,,,,,,,,,,,0,0,0,0,0,0,0,0,0,0,0,0,0,0,0,0,,,,,,0.0,,,,,,,
6128044,1745474727064,,,,,,,,,,,,,,,,,,,,,,,,,,,,,,,,,,0,0,0,0,0,0,0,0,0,0,0,0,0,0,0,0,,,,,,,,,,,,,
6128064,1745474727092,0.0,131,,-0.21,-0.67,0.92,-63,0,4,1.16,1.61,72,9142,14.3,2.83,,8.71,1.017,86.2,,44.0,5,,,,,,,,,,,,0,0,0,0,0,0,0,0,0,0,0,0,0,0,0,0,,,,,,0.0,,,,,,,
6128084,1745474727112,,,,,,,,,,,,,,,,,,,,,,,22,28,27,28,7.9,29.0,0.0,0.0,2.26,,,0,0,0,0,0,0,0,0,0,0,0,0,0,0,0,0,,0,,,,,38.994095,-76.93956,39.26,26.2,29,3,0.8
6128104,1745474727132,0.0,131,,-0.2,-0.94,0.95,-61,-0,3,1.35,1.61,84,9036,13.2,2.76,,8.7,1.02,86.2,,42.7,5,,,,,,,,,,,,0,0,0,0,0,0,0,0,0,0,0,0,0,0,0,0,,,,,,0.0,,,,,,,
6128124,1745474727152,,,,,,,,,,,,,,,,,,,,,,,,,,,,,,,,,,0,0,0,0,0,0,0,0,0,0,0,0,0,0,0,0,,,,,,,,,,,,,
6128144,1745474727172,0.0,131,,-0.2,-1.21,0.95,-60,-1,2,1.55,1.61,96,8974,13.7,2.81,,8.62,1.025,86.2,,42.7,5,,,,,,,,,,,,0,0,0,0,0,0,0,0,0,0,0,0,0,0,0,0,,,,,,0.0,,,,,,,
6128164,1745474727192,,,,,,,,,,,,,,,,,,,,,,,,,,,,,,,,,,0,0,0,0,0,0,0,0,0,0,0,0,0,0,0,0,,,,,,,,,,,,,
6128184,1745474727212,0.0,131,,-0.2,-1.44,0.94,-61,-0,2,1.73,1.73,100,9063,14.2,2.8,,8.53,1.026,86.2,,42.7,5,23,28,27,26,7.9,73.0,0.0,0.0,2.27,,,0,0,0,0,0,0,0,0,0,0,0,0,0,0,0,0,,0,,,,0.0,38.994095,-76.939545,41.2,26.2,30,3,0.8
6128204,1745474727232,,,,,,,,,,,,,,,,,,,,,,,,,,,,,,,,,,0,0,0,0,0,0,0,0,0,0,0,0,0,0,0,0,,,,,,,,,,,,,
6128224,1745474727252,0.0,130,,-0.19,-1.64,0.94,-60,-0,2,1.9,1.9,100,9116,14.0,2.74,,8.53,1.026,86.2,,43.7,5,,,,,,,,,,,,0,0,0,0,0,0,0,0,0,0,0,0,0,0,0,0,,,,,,0.0,,,,,,,
6128244,1745474727272,,,,,,,,,,,,,,,,,,,,,,,,,,,,,,,,,,0,0,0,0,0,0,0,0,0,0,0,0,0,0,0,0,,,,,,,,,,,,,
6128264,1745474727292,0.0,129,,-0.16,-1.66,1.0,-58,-0,2,1.95,1.95,100,9116,14.0,2.74,,8.45,1.021,86.2,,43.7,5,,,,,,,,,,,,0,0,0,0,0,0,0,0,0,0,0,0,0,0,0,0,,,,,,0.0,,,,,,,
6128284,1745474727312,,,,,,,,,,,,,,,,,,,,,,,24,26,27,27,7.9,49.0,0.0,0.0,2.26,,,0,0,0,0,0,0,0,0,0,0,0,0,0,0,0,0,,1,,,,,38.994095,-76.939537,40.28,26.2,30,3,0.8
6128304,1745474727332,0.0,131,,-0.2,-1.51,1.02,-57,-0,1,1.84,1.84,100,9054,10.7,2.62,,8.18,1.017,86.2,,44.5,5,,,,,,,,,,,,0,0,0,0,0,0,0,0,0,0,0,0,0,0,0,0,,,,,,0.0,,,,,,,
6128324,1745474727352,,,,,,,,,,,,,,,,,,,,,,,,,,,,,,,,,,0,0,0,0,0,0,0,0,0,0,0,0,0,0,0,0,,,,,,,,,,,,,
6128344,1745474727372,0.0,130,,-0.21,-1.26,1.05,-59,0,1,1.65,1.84,90,9101,9.2,2.45,,7.79,1.018,86.2,,44.5,5,,,,,,,,,,,,0,0,0,0,0,0,0,0,0,0,0,0,0,0,0,0,,,,,,0.0,,,,,,,
6128364,1745474727394,,,,,,,,,,,,,,,,,,,,,,,,,,,,,,,,,,0,0,0,0,0,0,0,0,0,0,0,0,0,0,0,0,,,,,,,,,,,,,
6128384,1745474727414,0.0,131,13.18,-0.21,-1.06,1.01,-60,0,1,1.48,1.84,80,9116,9.7,2.37,15,7.73,1.018,86.2,180,44.5,5,23,28,27,29,7.9,44.0,0.0,0.0,2.27,0,1.0,0,0,0,0,0,0,0,0,0,0,0,0,0,0,0,0,0,0,1.0,0,-0,0.0,38.994095,-76.939522,40.6,26.2,30,3,0.8
6128404,1745474727434,,,,,,,,,,,,,,,,,,,,,,,,,,,,,,,,,,0,0,0,0,0,0,0,0,0,0,0,0,0,0,0,0,,,,,,,,,,,,,
6128424,1745474727454,0.0,131,,-0.23,-1.01,1.0,-60,0,1,1.44,1.84,78,9032,9.6,2.33,,7.73,1.018,86.2,,44.5,5,,,,,,,,,,,,0,0,0,0,0,0,0,0,0,0,0,0,0,0,0,0,,,,,,0.0,,,,,,,
6128444,1745474727474,,,,,,,,,,,,,,,,,,,,,,,,,,,,,,,,,,0,0,0,0,0,0,0,0,0,0,0,0,0,0,0,0,,,,,,,,,,,,,
6128464,1745474727494,0.0,131,,-0.24,-1.06,0.96,-61,0,1,1.45,1.84,79,9032,9.6,2.33,,7.46,1.022,86.2,,44.5,5,,,,,,,,,,,,0,0,0,0,0,0,0,0,0,0,0,0,0,0,0,0,,,,,,0.0,,,,,,,
6128484,1745474727514,,,,,,,,,,,,,,,,,,,,,,,24,28,28,28,7.9,16.0,0.0,0.0,2.27,,,0,0,0,0,0,0,0,0,0,0,0,0,0,0,0,0,,1,,,,,38.994095,-76.939506,39.82,26.1,30,3,0.8
6128504,1745474727534,0.0,131,,-0.28,-1.2,0.92,-62,0,1,1.54,1.84,84,9027,9.1,2.29,,7.55,1.03,86.2,,44.5,5,,,,,,,,,,,,0,0,0,0,0,0,0,0,0,0,0,0,0,0,0,0,,,,,,0.0,,,,,,,
6128524,1745474727554,,,,,,,,,,,,,,,,,,,,,,,,,,,,,,,,,,0,0,0,0,0,0,0,0,0,0,0,0,0,0,0,0,,,,,,,,,,,,,
6128544,1745474727574,0.0,131,,-0.28,-1.11,0.93,-63,-0,2,1.47,1.84,80,8969,9.3,2.3,,7.37,1.036,86.2,,44.5,5,,,,,,,,,,,,0,0,0,0,0,0,0,0,0,0,0,0,0,0,0,0,,,,,,0.0,,,,,,,
6128564,1745474727594,,,,,,,,,,,,,,,,,,,,,,,,,,,,,,,,,,0,0,0,0,0,0,0,0,0,0,0,0,0,0,0,0,,,,,,,,,,,,,
6128584,1745474727614,0.0,131,,-0.3,-1.14,0.87,-63,-1,2,1.46,1.84,80,8903,8.8,2.28,,7.33,1.037,86.2,,44.5,5,23,29,27,28,7.9,4.0,0.0,0.0,2.27,,,0,0,0,0,0,0,0,0,0,0,0,0,0,0,0,0,,0,,,,0.0,38.994095,-76.939499,39.95,26.1,30,3,0.8
6128604,1745474727634,,,,,,,,,,,,,,,,,,,,,,,,,,,,,,,,,,0,0,0,0,0,0,0,0,0,0,0,0,0,0,0,0,,,,,,,,,,,,,
6128624,1745474727654,0.0,130,,-0.29,-1.17,0.94,-65,-1,3,1.53,1.84,83,8854,9.1,2.34,,7.33,1.037,86.2,,43.8,5,,,,,,,,,,,,0,0,0,0,0,0,0,0,0,0,0,0,0,0,0,0,,,,,,0.0,,,,,,,
6128644,1745474727674,,,,,,,,,,,,,,,,,,,,,,,,,,,,,,,,,,0,0,0,0,0,0,0,0,0,0,0,0,0,0,0,0,,,,,,,,,,,,,
6128664,1745474727694,0.0,130,,-0.32,-1.29,0.97,-66,0,2,1.65,1.84,90,8854,9.1,2.34,,7.33,1.036,86.2,,43.8,5,,,,,,,,,,,,0,0,0,0,0,0,0,0,0,0,0,0,0,0,0,0,,,,,,0.0,,,,,,,
6128684,1745474727714,,,,,,,,,,,,,,,,,,,,,,,24,26,28,27,7.9,73.0,0.0,0.0,2.27,,,0,0,0,0,0,0,0,0,0,0,0,0,0,0,0,0,,0,,,,,38.994095,-76.939484,39.46,26.1,30,3,0.8
6128704,1745474727734,0.0,130,,-0.31,-1.52,0.92,-67,1,1,1.81,1.84,98,8879,9.6,2.31,,7.58,1.044,86.2,,44.5,5,,,,,,,,,,,,0,0,0,0,0,0,0,0,0,0,0,0,0,0,0,0,,,,,,0.0,,,,,,,
6128724,1745474727754,,,,,,,,,,,,,,,,,,,,,,,,,,,,,,,,,,0,0,0,0,0,0,0,0,0,0,0,0,0,0,0,0,,,,,,,,,,,,,
