"Interval"|"ms"|0|0|1,"Utc"|"ms"|0|0|1,"FrontBP"|"psi"|-5.0|5.0|25,"SteerAng"|"Degrees"|-145|145|25,"Battery"|"Volts"|-5.0|20.0|1,"AccelX"|"G"|-3.0|3.0|25,"AccelY"|"G"|-3.0|3.0|25,"AccelZ"|"G"|-3.0|3.0|25,"Yaw"|"Deg/Sec"|-120|120|25,"Pitch"|"Deg/Sec"|-120|120|25,"Roll"|"Deg/Sec"|-120|120|25,"Gsum"|"G"|0.0|3.0|25,"GsumMax"|"G"|0.0|3.0|25,"GsumPct"|"%"|0|100|25,"RPM"|""|0|10000|25,"TPS"|"%"|0.0|100.0|25,"InjectorPW"|"ms"|0.0|100.0|25,"Baro"|"kPa"|0|105|1,"MAP"|"Psi"|0.0|255.0|25,"Lambda"|""|-2.0|2.0|25,"IAT"|"C"|0.0|200.0|25,"EngineTemp"|"C"|0|200|1,"EOP"|"PSI"|0.0|152.0|25,"EOT"|"F"|0|250|25,"WSFR"|"MPH"|0|150|10,"WSFL"|"MPH"|0|100|10,"WSRR"|"MPH"|0|100|10,"WSRL"|""|0|100|10,"TCSet"|"%"|0.0|100.0|10,"TCSlip"|"%"|0.0|100.0|10,"TCComp"|"deg"|0.0|50.0|10,"TCCut"|"%"|0.0|100.0|10,"Analog8"|""|0.0|5.0|10,"OilTemp"|"F"|0|300|1,"AA_On"|""|0.0|1.0|1,"ThermLF1"|"C"|0|400|50,"ThermLF2"|"C"|0|400|50,"ThermRR1"|"C"|0|400|50,"ThermRR2"|"C"|0|400|50,"ThermLF3"|"C"|0|400|50,"ThermLF4"|"C"|0|400|50,"ThermLF5"|"C"|0|400|50,"ThermLF6"|"C"|0|400|50,"ThermLF7"|"C"|0|400|50,"ThermLF8"|"C"|0|400|50,"ThermRR3"|"C"|0|400|50,"ThermRR4"|"C"|0|400|50,"ThermRR5"|"C"|0|400|50,"ThermRR6"|"C"|0|400|50,"ThermRR7"|"C"|0|400|50,"ThermRR8"|"C"|0|400|50,"AA_LowDrag"|""|0|1|1,"Gear"|""|1|6|10,"AA_On"|""|0.0|1.0|1,"AA_LowDrag"|""|0|1|1,"Fuel_Mix"|""|-10|10|1,"AA_Packages"|""|0.0|1000.0|25,"Latitude"|"Degrees"|-180.0|180.0|10,"Longitude"|"Degrees"|-180.0|180.0|10,"Speed"|"kph"|0.0|150.0|10,"Altitude"|"m"|0.0|4000.0|10,"GPSSats"|""|0|20|10,"GPSQual"|""|0|5|10,"GPSDOP"|""|0.0|20.0|10
5608604,1745474207639,,,,,,,,,,,,,,,,,,,,,,,,,,,,,,,,,,0,0,0,0,0,0,0,0,0,0,0,0,0,0,0,0,,,,,,,,,,,,,
5608624,1745474207659,0.0,131,,-0.06,-0.74,1.04,4,-0,-2,1.28,1.28,100,8873,16.0,2.21,,6.8,1.25,93.4,,47.0,5,,,,,,,,,,,,0,0,0,0,0,0,0,0,0,0,0,0,0,0,0,0,,,,,,0.0,,,,,,,
5608644,1745474207679,,,,,,,,,,,,,,,,,,,,,,,,,,,,,,,,,,0,0,0,0,0,0,0,0,0,0,0,0,0,0,0,0,,,,,,,,,,,,,
5608664,1745474207699,0.0,131,,-0.05,-1.03,1.03,5,-0,-2,1.46,1.46,100,9005,31.2,3.24,,9.01,1.25,93.4,,46.8,5,,,,,,,,,,,,0,0,0,0,0,0,0,0,0,0,0,0,0,0,0,0,,,,,,0.0,,,,,,,
5608684,1745474207717,,,,,,,,,,,,,,,,,,,,,,,0,0,0,0,0.0,0.0,0.0,0.0,2.26,,,0,0,0,0,0,0,0,0,0,0,0,0,0,0,0,0,,0,,,,,38.994099,-76.939652,0.18,27.6,31,3,0.8
5608704,1745474207737,0.0,132,,-0.04,-0.77,1.07,3,-0,-2,1.32,1.46,90,9503,37.2,4.16,,10.85,1.25,93.4,,46.8,5,,,,,,,,,,,,0,0,0,0,0,0,0,0,0,0,0,0,0,0,0,0,,,,,,0.0,,,,,,,
5608724,1745474207757,,,,,,,,,,,,,,,,,,,,,,,,,,,,,,,,,,0,0,0,0,0,0,0,0,0,0,0,0,0,0,0,0,,,,,,,,,,,,,
5608744,1745474207777,0.0,131,,-0.04,-0.72,1.1,3,-0,-2,1.32,1.46,90,10194,36.6,5.42,,11.17,1.225,93.4,,46.8,5,,,,,,,,,,,,0,0,0,0,0,0,0,0,0,0,0,0,0,0,0,0,,,,,,0.0,,,,,,,
5608764,1745474207797,,,,,,,,,,,,,,,,,,,,,,,,,,,,,,,,,,0,0,0,0,0,0,0,0,0,0,0,0,0,0,0,0,,,,,,,,,,,,,
5608784,1745474207817,0.0,132,,-0.02,-0.42,1.11,3,-0,-2,1.19,1.46,81,11320,11.2,2.98,,11.17,1.225,93.4,,48.6,5,0,0,0,0,0.0,0.0,0.0,0.0,2.26,,,0,0,0,0,0,0,0,0,0,0,0,0,0,0,0,0,,0,,,,0.0,38.994099,-76.939652,0.15,27.6,31,3,0.8
5608804,1745474207837,,,,,,,,,,,,,,,,,,,,,,,,,,,,,,,,,,0,0,0,0,0,0,0,0,0,0,0,0,0,0,0,0,,,,,,,,,,,,,
5608824,1745474207857,0.0,131,,-0.01,-0.42,1.08,3,-0,-2,1.16,1.46,79,11320,11.2,2.98,,9.31,1.084,91.6,,48.6,5,,,,,,,,,,,,0,0,0,0,0,0,0,0,0,0,0,0,0,0,0,0,,,,,,0.0,,,,,,,
5608844,1745474207877,,,,,,,,,,,,,,,,,,,,,,,,,,,,,,,,,,0,0,0,0,0,0,0,0,0,0,0,0,0,0,0,0,,,,,,,,,,,,,
5608864,1745474207897,0.0,131,,-0.03,-0.4,1.05,4,-0,-1,1.12,1.46,77,11926,3.6,1.99,,7.26,0.865,91.6,,51.6,5,,,,,,,,,,,,0,0,0,0,0,0,0,0,0,0,0,0,0,0,0,0,,,,,,0.0,,,,,,,
5608884,1745474207917,,,,,,,,,,,,,,,,,,,,,,,0,0,0,0,0.0,0.0,0.0,0.0,2.27,,,0,0,0,0,0,0,0,0,0,0,0,0,0,0,0,0,,0,,,,,38.994099,-76.939652,0.18,27.6,31,3,0.8
5608904,1745474207937,0.0,131,,-0.03,-0.44,0.96,4,-0,-1,1.06,1.46,73,11737,0.6,1.4,,5.96,0.863,91.6,,51.6,5,,,,,,,,,,,,0,0,0,0,0,0,0,0,0,0,0,0,0,0,0,0,,,,,,0.0,,,,,,,
5608924,1745474207957,,,,,,,,,,,,,,,,,,,,,,,,,,,,,,,,,,0,0,0,0,0,0,0,0,0,0,0,0,0,0,0,0,,,,,,,,,,,,,
5608944,1745474207977,0.0,131,,-0.04,-0.34,0.94,4,-0,-1,1.0,1.46,68,11135,0.4,1.4,,5.52,0.961,91.6,,51.6,5,,,,,,,,,,,,0,0,0,0,0,0,0,0,0,0,0,0,0,0,0,0,,,,,,0.0,,,,,,,
5608964,1745474207997,,,,,,,,,,,,,,,,,,,,,,,,,,,,,,,,,,0,0,0,0,0,0,0,0,0,0,0,0,0,0,0,0,,,,,,,,,,,,,
5608984,1745474208009,0.0,131,,-0.05,-0.34,0.93,4,-0,-1,0.99,1.46,68,10570,0.4,1.4,,5.52,0.961,91.6,,51.0,5,0,0,0,0,0.0,0.0,0.0,0.0,2.27,,,0,0,0,0,0,0,0,0,0,0,0,0,0,0,0,0,,0,,,,0.0,38.994099,-76.939652,0.07,27.6,32,3,0.8
5609004,1745474208029,,,,,,,,,,,,,,,,,,,,,,,,,,,,,,,,,,0,0,0,0,0,0,0,0,0,0,0,0,0,0,0,0,,,,,,,,,,,,,
5609024,1745474208049,0.0,131,,-0.07,-0.46,0.93,4,-0,-1,1.04,1.46,71,10570,0.4,1.4,,5.07,1.248,91.6,,51.0,5,,,,,,,,,,,,0,0,0,0,0,0,0,0,0,0,0,0,0,0,0,0,,,,,,0.0,,,,,,,
5609044,1745474208069,,,,,,,,,,,,,,,,,,,,,,,,,,,,,,,,,,0,0,0,0,0,0,0,0,0,0,0,0,0,0,0,0,,,,,,,,,,,,,
5609064,1745474208089,0.0,132,,-0.08,-0.35,0.93,3,-0,-1,1.0,1.46,68,10006,0.4,1.4,,5.03,1.249,91.6,,48.1,5,,,,,,,,,,,,0,0,0,0,0,0,0,0,0,0,0,0,0,0,0,0,,,,,,0.0,,,,,,,
5609084,1745474208117,,,,,,,,,,,,,,,,,,,,,,,0,0,0,0,0.0,0.0,0.0,0.0,2.26,,,0,0,0,0,0,0,0,0,0,0,0,0,0,0,0,0,,0,,,,,38.994099,-76.939652,0.08,27.6,32,3,0.8
5609104,1745474208137,0.0,131,,-0.08,-0.03,0.89,2,-0,-0,0.89,1.46,61,9449,2.7,1.4,,5.12,1.251,91.6,,48.1,5,,,,,,,,,,,,0,0,0,0,0,0,0,0,0,0,0,0,0,0,0,0,,,,,,0.0,,,,,,,
5609124,1745474208157,,,,,,,,,,,,,,,,,,,,,,,,,,,,,,,,,,0,0,0,0,0,0,0,0,0,0,0,0,0,0,0,0,,,,,,,,,,,,,
5609144,1745474208177,0.0,131,,-0.1,-0.08,0.83,0,-0,-0,0.84,1.46,58,8909,4.2,1.4,,5.4,1.251,91.6,,48.1,5,,,,,,,,,,,,0,0,0,0,0,0,0,0,0,0,0,0,0,0,0,0,,,,,,0.0,,,,,,,
5609164,1745474208197,,,,,,,,,,,,,,,,,,,,,,,,,,,,,,,,,,0,0,0,0,0,0,0,0,0,0,0,0,0,0,0,0,,,,,,,,,,,,,
5609184,1745474208215,0.0,131,,-0.09,-0.18,0.84,-0,-0,-0,0.86,1.46,59,8337,4.6,1.6,,5.4,1.251,91.6,,46.8,5,0,0,0,0,0.0,0.0,0.0,0.0,2.26,,,0,0,0,0,0,0,0,0,0,0,0,0,0,0,0,0,,0,,,,0.0,38.994099,-76.939652,0.15,27.6,32,3,0.8
5609204,1745474208235,,,,,,,,,,,,,,,,,,,,,,,,,,,,,,,,,,0,0,0,0,0,0,0,0,0,0,0,0,0,0,0,0,,,,,,,,,,,,,
5609224,1745474208255,0.0,130,,-0.1,-0.05,0.91,0,-0,-0,0.92,1.46,63,8337,4.6,1.6,,5.7,1.251,91.6,,46.8,5,,,,,,,,,,,,0,0,0,0,0,0,0,0,0,0,0,0,0,0,0,0,,,,,,0.0,,,,,,,
5609244,1745474208275,,,,,,,,,,,,,,,,,,,,,,,,,,,,,,,,,,0,0,0,0,0,0,0,0,0,0,0,0,0,0,0,0,,,,,,,,,,,,,
5609264,1745474208295,0.0,131,,-0.12,0.01,0.92,0,-0,-0,0.93,1.46,64,7784,4.6,1.8,,6.0,1.249,91.6,,46.6,5,,,,,,,,,,,,0,0,0,0,0,0,0,0,0,0,0,0,0,0,0,0,,,,,,0.0,,,,,,,
5609284,1745474208318,,,,,,,,,,,,,,,,,,,,,,,0,0,0,0,0.0,0.0,0.0,0.0,2.26,,,0,0,0,0,0,0,0,0,0,0,0,0,0,0,0,0,,0,,,,,38.994099,-76.939652,0.05,27.6,32,3,0.8
5609304,1745474208338,0.0,131,,-0.11,0.08,0.96,0,-0,0,0.97,1.46,66,7371,9.4,2.21,,6.71,1.248,91.6,,46.6,5,,,,,,,,,,,,0,0,0,0,0,0,0,0,0,0,0,0,0,0,0,0,,,,,,0.0,,,,,,,
5609324,1745474208358,,,,,,,,,,,,,,,,,,,,,,,,,,,,,,,,,,0,0,0,0,0,0,0,0,0,0,0,0,0,0,0,0,,,,,,,,,,,,,
5609344,1745474208378,0.0,131,,-0.09,0.03,0.94,-0,-0,0,0.95,1.46,65,7085,13.0,2.73,,7.9,1.248,91.6,,46.6,5,,,,,,,,,,,,0,0,0,0,0,0,0,0,0,0,0,0,0,0,0,0,,,,,,0.0,,,,,,,
5609364,1745474208398,,,,,,,,,,,,,,,,,,,,,,,,,,,,,,,,,,0,0,0,0,0,0,0,0,0,0,0,0,0,0,0,0,,,,,,,,,,,,,
5609384,1745474208419,0.0,131,13.09,-0.07,0.06,0.98,0,-0,-0,0.98,1.46,67,7048,12.9,3.11,15,7.9,1.248,91.6,167,46.3,5,0,0,0,0,0.0,0.0,0.0,0.0,2.27,0,1.0,0,0,0,0,0,0,0,0,0,0,0,0,0,0,0,0,0,0,1.0,0,0,0.0,38.994099,-76.939652,0.08,27.6,32,3,0.8
5609404,1745474208439,,,,,,,,,,,,,,,,,,,,,,,,,,,,,,,,,,0,0,0,0,0,0,0,0,0,0,0,0,0,0,0,0,,,,,,,,,,,,,
5609424,1745474208459,0.0,131,,-0.12,0.04,0.98,-0,-0,0,0.99,1.46,68,7048,12.9,3.11,,8.78,1.248,91.6,,46.3,5,,,,,,,,,,,,0,0,0,0,0,0,0,0,0,0,0,0,0,0,0,0,,,,,,0.0,,,,,,,
5609444,1745474208479,,,,,,,,,,,,,,,,,,,,,,,,,,,,,,,,,,0,0,0,0,0,0,0,0,0,0,0,0,0,0,0,0,,,,,,,,,,,,,
5609464,1745474208499,0.0,131,,-0.08,-0.04,0.96,-1,-0,0,0.97,1.46,66,6986,11.1,3.24,,9.06,1.248,91.6,,45.7,5,,,,,,,,,,,,0,0,0,0,0,0,0,0,0,0,0,0,0,0,0,0,,,,,,0.0,,,,,,,
5609484,1745474208518,,,,,,,,,,,,,,,,,,,,,,,0,0,0,0,0.0,0.0,0.0,0.0,2.27,,,0,0,0,0,0,0,0,0,0,0,0,0,0,0,0,0,,0,,,,,38.994099,-76.939652,0.15,27.6,32,3,0.8
5609504,1745474208538,0.0,131,,-0.05,-0.05,0.97,-0,-0,0,0.98,1.46,67,6955,8.4,3.09,,8.99,1.119,91.6,,45.7,5,,,,,,,,,,,,0,0,0,0,0,0,0,0,0,0,0,0,0,0,0,0,,,,,,0.0,,,,,,,
5609524,1745474208558,,,,,,,,,,,,,,,,,,,,,,,,,,,,,,,,,,0,0,0,0,0,0,0,0,0,0,0,0,0,0,0,0,,,,,,,,,,,,,
5609544,1745474208578,0.0,130,,-0.09,-0.05,1.01,-1,-0,0,1.01,1.46,69,6950,8.0,3.06,,8.9,1.121,91.6,,45.7,5,,,,,,,,,,,,0,0,0,0,0,0,0,0,0,0,0,0,0,0,0,0,,,,,,0.0,,,,,,,
5609564,1745474208598,,,,,,,,,,,,,,,,,,,,,,,,,,,,,,,,,,0,0,0,0,0,0,0,0,0,0,0,0,0,0,0,0,,,,,,,,,,,,,
5609584,1745474208618,0.0,131,,-0.09,-0.06,0.97,-1,-0,0,0.97,1.46,67,6944,8.7,3.08,,8.9,1.121,91.6,,45.4,5,0,0,0,0,0.0,0.0,0.0,0.0,2.26,,,0,0,0,0,0,0,0,0,0,0,0,0,0,0,0,0,,0,,,,0.0,38.994099,-76.939652,0.11,27.6,32,3,0.8
5609604,1745474208638,,,,,,,,,,,,,,,,,,,,,,,,,,,,,,,,,,0,0,0,0,0,0,0,0,0,0,0,0,0,0,0,0,,,,,,,,,,,,,
5609624,1745474208658,0.0,131,,-0.06,-0.07,0.94,-0,-0,0,0.95,1.46,65,6944,8.7,3.08,,9.05,1.12,91.6,,45.4,5,,,,,,,,,,,,0,0,0,0,0,0,0,0,0,0,0,0,0,0,0,0,,,,,,0.0,,,,,,,
5609644,1745474208678,,,,,,,,,,,,,,,,,,,,,,,,,,,,,,,,,,0,0,0,0,0,0,0,0,0,0,0,0,0,0,0,0,,,,,,,,,,,,,
5609664,1745474208698,0.0,130,,-0.07,0.07,0.99,-1,-0,0,0.99,1.46,68,7009,10.4,3.21,,9.19,1.141,91.6,,45.8,5,,,,,,,,,,,,0,0,0,0,0,0,0,0,0,0,0,0,0,0,0,0,,,,,,0.0,,,,,,,
5609684,1745474208718,,,,,,,,,,,,,,,,,,,,,,,0,0,0,0,0.0,0.0,0.0,0.0,2.26,,,0,0,0,0,0,0,0,0,0,0,0,0,0,0,0,0,,0,,,,,38.994099,-76.939652,0.43,27.6,32,3,0.8
5609704,1745474208738,0.0,131,,-0.08,0.03,0.96,-1,-0,0,0.97,1.46,66,7051,10.7,3.32,,9.37,1.13,91.6,,45.8,5,,,,,,,,,,,,0,0,0,0,0,0,0,0,0,0,0,0,0,0,0,0,,,,,,0.0,,,,,,,
5609724,1745474208758,,,,,,,,,,,,,,,,,,,,,,,,,,,,,,,,,,0,0,0,0,0,0,0,0,0,0,0,0,0,0,0,0,,,,,,,,,,,,,
5609744,1745474208778,0.0,131,,-0.06,0.11,1.0,-0,-0,0,1.01,1.46,69,7147,10.8,3.25,,9.37,1.145,91.6,,45.8,5,,,,,,,,,,,,0,0,0,0,0,0,0,0,0,0,0,0,0,0,0,0,,,,,,0.0,,,,,,,
5609764,1745474208798,,,,,,,,,,,,,,,,,,,,,,,,,,,,,,,,,,0,0,0,0,0,0,0,0,0,0,0,0,0,0,0,0,,,,,,,,,,,,,
5609784,1745474208818,0.0,131,,-0.07,0.02,0.98,-0,-0,0,0.98,1.46,67,7301,10.8,3.23,,9.37,1.145,91.6,,45.9,5,0,0,0,0,0.0,0.0,0.0,0.0,2.26,,,0,0,0,0,0,0,0,0,0,0,0,0,0,0,0,0,,0,,,,0.0,38.994099,-76.939652,0.31,27.6,32,3,0.8
5609804,1745474208838,,,,,,,,,,,,,,,,,,,,,,,,,,,,,,,,,,0,0,0,0,0,0,0,0,0,0,0,0,0,0,0,0,,,,,,,,,,,,,
5609824,1745474208858,0.0,131,,-0.06,-0.07,0.94,-1,-0,0,0.94,1.46,65,7301,10.8,3.23,,9.26,1.136,91.6,,45.9,5,,,,,,,,,,,,0,0,0,0,0,0,0,0,0,0,0,0,0,0,0,0,,,,,,0.0,,,,,,,
5609844,1745474208878,,,,,,,,,,,,,,,,,,,,,,,,,,,,,,,,,,0,0,0,0,0,0,0,0,0,0,0,0,0,0,0,0,,,,,,,,,,,,,
5609864,1745474208898,0.0,131,,-0.1,-0.07,0.91,-1,-0,0,0.91,1.46,63,7440,10.6,3.18,,9.13,1.143,91.6,,45.8,5,,,,,,,,,,,,0,0,0,0,0,0,0,0,0,0,0,0,0,0,0,0,,,,,,0.0,,,,,,,
5609884,1745474208918,,,,,,,,,,,,,,,,,,,,,,,0,0,0,0,0.0,0.0,0.0,0.0,2.27,,,0,0,0,0,0,0,0,0,0,0,0,0,0,0,0,0,,0,,,,,38.994099,-76.939652,0.04,27.6,32,3,0.8
5609904,1745474208938,0.0,131,,-0.1,0.05,0.91,-0,-0,1,0.92,1.46,63,7392,10.5,3.16,,9.11,1.155,91.6,,45.8,5,,,,,,,,,,,,0,0,0,0,0,0,0,0,0,0,0,0,0,0,0,0,,,,,,0.0,,,,,,,
5609924,1745474208958,,,,,,,,,,,,,,,,,,,,,,,,,,,,,,,,,,0,0,0,0,0,0,0,0,0,0,0,0,0,0,0,0,,,,,,,,,,,,,
5609944,1745474208978,0.0,130,,-0.09,0.12,0.95,0,-0,1,0.96,1.46,66,7460,10.5,3.1,,9.03,1.208,91.6,,45.8,5,,,,,,,,,,,,0,0,0,0,0,0,0,0,0,0,0,0,0,0,0,0,,,,,,0.0,,,,,,,
5609964,1745474208998,,,,,,,,,,,,,,,,,,,,,,,,,,,,,,,,,,0,0,0,0,0,0,0,0,0,0,0,0,0,0,0,0,,,,,,,,,,,,,
5609984,1745474209010,0.0,131,,-0.1,0.19,0.97,1,-0,1,1.0,1.46,68,7565,10.5,3.01,,9.03,1.208,91.6,,45.8,5,0,0,0,0,0.0,0.0,0.0,0.0,2.27,,,0,0,0,0,0,0,0,0,0,0,0,0,0,0,0,0,,0,,,,0.0,38.994099,-76.939652,0.04,27.6,32,3,0.8
5610004,1745474209030,,,,,,,,,,,,,,,,,,,,,,,,,,,,,,,,,,0,0,0,0,0,0,0,0,0,0,0,0,0,0,0,0,,,,,,,,,,,,,
5610024,1745474209050,0.0,131,,-0.1,0.22,0.93,1,-0,1,0.96,1.46,65,7565,10.5,3.01,,9.01,1.189,91.6,,45.8,5,,,,,,,,,,,,0,0,0,0,0,0,0,0,0,0,0,0,0,0,0,0,,,,,,0.0,,,,,,,
5610044,1745474209070,,,,,,,,,,,,,,,,,,,,,,,,,,,,,,,,,,0,0,0,0,0,0,0,0,0,0,0,0,0,0,0,0,,,,,,,,,,,,,
5610064,1745474209090,0.0,131,,-0.08,0.07,0.9,1,-0,1,0.9,1.46,62,7611,10.5,3.03,,8.77,1.176,91.6,,46.1,5,,,,,,,,,,,,0,0,0,0,0,0,0,0,0,0,0,0,0,0,0,0,,,,,,0.0,,,,,,,
5610084,1745474209115,,,,,,,,,,,,,,,,,,,,,,,0,0,0,0,0.0,0.0,0.0,0.0,2.26,,,0,0,0,0,0,0,0,0,0,0,0,0,0,0,0,0,,0,,,,,38.994099,-76.939652,0.18,27.6,32,3,0.8
5610104,1745474209135,0.0,131,,-0.06,0.08,0.95,1,-0,1,0.96,1.46,66,7701,10.7,2.97,,8.75,1.173,91.6,,46.1,5,,,,,,,,,,,,0,0,0,0,0,0,0,0,0,0,0,0,0,0,0,0,,,,,,0.0,,,,,,,
5610124,1745474209155,,,,,,,,,,,,,,,,,,,,,,,,,,,,,,,,,,0,0,0,0,0,0,0,0,0,0,0,0,0,0,0,0,,,,,,,,,,,,,
5610144,1745474209175,0.0,131,,-0.07,0.18,0.93,0,-0,0,0.95,1.46,65,7832,10.8,2.9,,8.62,1.177,91.6,,46.1,5,,,,,,,,,,,,0,0,0,0,0,0,0,0,0,0,0,0,0,0,0,0,,,,,,0.0,,,,,,,
5610164,1745474209195,,,,,,,,,,,,,,,,,,,,,,,,,,,,,,,,,,0,0,0,0,0,0,0,0,0,0,0,0,0,0,0,0,,,,,,,,,,,,,
5610224,1745474209256,0.0,131,,-0.09,0.11,0.9,1,-0,0,0.91,1.46,62,7932,10.7,2.91,,8.71,1.192,91.6,,45.9,5,,,,,,,,,,,,0,0,0,0,0,0,0,0,0,0,0,0,0,0,0,0,,,,,,0.0,,,,,,,
5610284,1745474209320,,,,,,,,,,,,,,,,,,,,,,,0,0,0,0,0.0,0.0,0.0,0.0,2.27,,,0,0,0,0,0,0,0,0,0,0,0,0,0,0,0,0,,0,,,,,38.994099,-76.939652,0.0,27.6,32,3,0.8
5610364,1745474209400,,,,,,,,,,,,,,,,,,,,,,,,,,,,,,,,,,0,0,0,0,0,0,0,0,0,0,0,0,0,0,0,0,,,,,,,,,,,,,
5610484,1745474209519,,,,,,,,,,,,,,,,,,,,,,,0,0,0,0,0.0,0.0,0.0,0.0,2.26,,,0,0,0,0,0,0,0,0,0,0,0,0,0,0,0,0,,0,,,,,38.994099,-76.939652,0.05,27.6,32,3,0.8
5611084,1745474210119,,,,,,,,,,,,,,,,,,,,,,,0,0,29,27,0.0,0.0,0.0,0.0,2.26,,,0,0,0,0,0,0,0,0,0,0,0,0,0,0,0,0,,0,,,,,38.994099,-76.939652,0.6,27.6,32,3,0.8
5611104,1745474210139,0.0,130,,0.23,-0.27,0.99,0,0,-0,1.05,1.46,72,9324,99.4,5.97,,13.79,1.047,89.8,,46.3,5,,,,,,,,,,,,0,0,0,0,0,0,0,0,0,0,0,0,0,0,0,0,,,,,,0.0,,,,,,,
5611124,1745474210159,,,,,,,,,,,,,,,,,,,,,,,,,,,,,,,,,,0,0,0,0,0,0,0,0,0,0,0,0,0,0,0,0,,,,,,,,,,,,,
5611144,1745474210179,0.0,130,,0.29,-0.25,1.05,1,0,-0,1.12,1.46,77,9780,99.4,6.05,,13.75,1.041,89.8,,46.3,5,,,,,,,,,,,,0,0,0,0,0,0,0,0,0,0,0,0,0,0,0,0,,,,,,0.0,,,,,,,
5611164,1745474210199,,,,,,,,,,,,,,,,,,,,,,,,,,,,,,,,,,0,0,0,0,0,0,0,0,0,0,0,0,0,0,0,0,,,,,,,,,,,,,
5611184,1745474210217,0.0,131,,0.3,-0.27,1.06,0,-0,1,1.13,1.46,77,10543,99.4,5.82,,13.75,1.041,89.8,,48.1,5,3,0,31,31,0.0,0.0,0.0,0.0,2.26,,,0,0,0,0,0,0,0,0,0,0,0,0,0,0,0,0,,0,,,,0.0,38.994099,-76.939652,3.12,27.6,32,3,0.8
5611204,1745474210237,,,,,,,,,,,,,,,,,,,,,,,,,,,,,,,,,,0,0,0,0,0,0,0,0,0,0,0,0,0,0,0,0,,,,,,,,,,,,,
5611224,1745474210257,0.0,131,,0.34,-0.3,1.02,-0,0,0,1.12,1.46,77,10543,99.4,5.82,,13.6,1.023,89.8,,48.1,5,,,,,,,,,,,,0,0,0,0,0,0,0,0,0,0,0,0,0,0,0,0,,,,,,0.0,,,,,,,
5611244,1745474210277,,,,,,,,,,,,,,,,,,,,,,,,,,,,,,,,,,0,0,0,0,0,0,0,0,0,0,0,0,0,0,0,0,,,,,,,,,,,,,
5611264,1745474210301,0.0,130,,0.39,-0.2,0.97,1,0,1,1.07,1.46,73,11034,99.4,5.54,,13.64,0.956,89.8,,55.2,5,,,,,,,,,,,,0,0,0,0,0,0,0,0,0,0,0,0,0,0,0,0,,,,,,0.0,,,,,,,
5611284,1745474210321,,,,,,,,,,,,,,,,,,,,,,,5,0,34,35,0.0,0.0,0.0,0.0,2.27,,,0,0,0,0,0,0,0,0,0,0,0,0,0,0,0,0,,0,,,,,38.994099,-76.939652,6.47,27.6,32,3,0.8
5611304,1745474210341,0.0,130,,0.4,-0.25,0.95,1,0,1,1.06,1.46,73,11241,99.4,5.44,,13.68,0.945,89.8,,55.2,5,,,,,,,,,,,,0,0,0,0,0,0,0,0,0,0,0,0,0,0,0,0,,,,,,0.0,,,,,,,
5611324,1745474210361,,,,,,,,,,,,,,,,,,,,,,,,,,,,,,,,,,0,0,0,0,0,0,0,0,0,0,0,0,0,0,0,0,,,,,,,,,,,,,
5611344,1745474210381,0.0,130,,0.44,-0.33,1.04,0,-0,1,1.18,1.46,81,11559,99.4,5.37,,13.53,0.943,89.8,,55.2,5,,,,,,,,,,,,0,0,0,0,0,0,0,0,0,0,0,0,0,0,0,0,,,,,,0.0,,,,,,,
5611364,1745474210401,,,,,,,,,,,,,,,,,,,,,,,,,,,,,,,,,,0,0,0,0,0,0,0,0,0,0,0,0,0,0,0,0,,,,,,,,,,,,,
5611384,1745474210419,0.0,131,13.08,0.48,-0.18,1.09,1,-0,1,1.21,1.46,83,11901,99.4,5.22,15,13.53,0.943,89.8,169,56.0,5,6,0,35,36,0.0,0.0,0.0,0.0,2.27,0,1.0,0,0,0,0,0,0,0,0,0,0,0,0,0,0,0,0,0,1,1.0,0,-0,0.0,38.994099,-76.939652,9.68,27.6,32,3,0.8
5611404,1745474210439,,,,,,,,,,,,,,,,,,,,,,,,,,,,,,,,,,0,0,0,0,0,0,0,0,0,0,0,0,0,0,0,0,,,,,,,,,,,,,
5611424,1745474210459,0.0,130,,0.56,0.08,1.11,2,-0,1,1.24,1.46,85,11901,99.4,5.22,,13.39,0.959,89.8,,56.0,5,,,,,,,,,,,,0,0,0,0,0,0,0,0,0,0,0,0,0,0,0,0,,,,,,0.0,,,,,,,
5611444,1745474210479,,,,,,,,,,,,,,,,,,,,,,,,,,,,,,,,,,0,0,0,0,0,0,0,0,0,0,0,0,0,0,0,0,,,,,,,,,,,,,
5611464,1745474210499,0.0,130,,0.56,0.11,1.21,3,0,0,1.33,1.46,91,12106,99.4,5.13,,13.29,0.96,89.8,,58.9,5,,,,,,,,,,,,0,0,0,0,0,0,0,0,0,0,0,0,0,0,0,0,,,,,,0.0,,,,,,,
5611484,1745474210518,,,,,,,,,,,,,,,,,,,,,,,8,0,37,38,0.0,70.0,0.0,0.0,2.26,,,0,0,0,0,0,0,0,0,0,0,0,0,0,0,0,0,,1,,,,,38.994099,-76.939652,11.82,27.6,32,3,0.8
5611504,1745474210538,0.0,131,,0.6,0.29,1.23,4,-0,0,1.4,1.46,96,11926,99.4,5.19,,13.33,0.993,89.8,,58.9,5,,,,,,,,,,,,0,0,0,0,0,0,0,0,0,0,0,0,0,0,0,0,,,,,,0.0,,,,,,,
5611524,1745474210558,,,,,,,,,,,,,,,,,,,,,,,,,,,,,,,,,,0,0,0,0,0,0,0,0,0,0,0,0,0,0,0,0,,,,,,,,,,,,,
5611544,1745474210578,0.0,130,,0.66,0.32,1.21,4,0,0,1.42,1.46,97,11835,99.4,5.18,,13.32,1.003,89.8,,58.9,5,,,,,,,,,,,,0,0,0,0,0,0,0,0,0,0,0,0,0,0,0,0,,,,,,0.0,,,,,,,
5611564,1745474210598,,,,,,,,,,,,,,,,,,,,,,,,,,,,,,,,,,0,0,0,0,0,0,0,0,0,0,0,0,0,0,0,0,,,,,,,,,,,,,
5611584,1745474210618,0.0,131,,0.73,0.42,1.15,5,-0,0,1.42,1.46,97,11804,99.4,5.24,,13.32,1.003,89.8,,58.0,5,10,0,34,36,0.0,205.0,0.0,0.0,2.26,,,0,0,0,0,0,0,0,0,0,0,0,0,0,0,0,0,,0,,,,0.0,38.994099,-76.939644,14.99,27.5,32,3,0.8
5611604,1745474210638,,,,,,,,,,,,,,,,,,,,,,,,,,,,,,,,,,0,0,0,0,0,0,0,0,0,0,0,0,0,0,0,0,,,,,,,,,,,,,
5611624,1745474210658,0.0,130,,0.76,0.32,1.08,7,-0,-0,1.35,1.46,93,11804,99.4,5.24,,13.47,1.013,89.8,,58.0,5,,,,,,,,,,,,0,0,0,0,0,0,0,0,0,0,0,0,0,0,0,0,,,,,,0.0,,,,,,,
5611644,1745474210678,,,,,,,,,,,,,,,,,,,,,,,,,,,,,,,,,,0,0,0,0,0,0,0,0,0,0,0,0,0,0,0,0,,,,,,,,,,,,,
5611664,1745474210698,0.0,130,,0.81,0.08,1.11,9,0,-0,1.37,1.46,94,11817,99.4,5.23,,13.39,1.032,89.8,,57.9,5,,,,,,,,,,,,0,0,0,0,0,0,0,0,0,0,0,0,0,0,0,0,,,,,,0.0,,,,,,,
5611684,1745474210719,,,,,,,,,,,,,,,,,,,,,,,12,0,36,37,0.0,172.0,0.0,0.0,2.26,,,0,0,0,0,0,0,0,0,0,0,0,0,0,0,0,0,,1,,,,,38.994099,-76.939636,17.89,27.5,32,3,0.8
5611704,1745474210739,0.0,130,,0.83,0.08,1.09,8,-0,0,1.37,1.46,94,11651,99.4,5.29,,13.44,0.988,89.8,,57.9,5,,,,,,,,,,,,0,0,0,0,0,0,0,0,0,0,0,0,0,0,0,0,,,,,,0.0,,,,,,,
5611724,1745474210759,,,,,,,,,,,,,,,,,,,,,,,,,,,,,,,,,,0,0,0,0,0,0,0,0,0,0,0,0,0,0,0,0,,,,,,,,,,,,,
5611744,1745474210779,0.0,130,,0.8,0.02,1.06,8,-1,-0,1.33,1.46,91,11485,99.4,5.35,,13.45,0.984,89.8,,57.9,5,,,,,,,,,,,,0,0,0,0,0,0,0,0,0,0,0,0,0,0,0,0,,,,,,0.0,,,,,,,
5611764,1745474210799,,,,,,,,,,,,,,,,,,,,,,,,,,,,,,,,,,0,0,0,0,0,0,0,0,0,0,0,0,0,0,0,0,,,,,,,,,,,,,
5611784,1745474210818,0.0,130,,0.75,0.0,1.05,7,-1,-1,1.29,1.46,89,11453,99.5,5.37,,13.45,0.984,89.8,,57.7,5,14,0,34,34,0.0,64.0,0.0,0.0,2.27,,,0,0,0,0,0,0,0,0,0,0,0,0,0,0,0,0,,0,,,,0.0,38.994099,-76.939629,21.14,27.5,32,3,0.8
5611804,1745474210838,,,,,,,,,,,,,,,,,,,,,,,,,,,,,,,,,,0,0,0,0,0,0,0,0,0,0,0,0,0,0,0,0,,,,,,,,,,,,,
5611824,1745474210858,0.0,130,,0.74,-0.16,0.98,5,-1,-1,1.23,1.46,85,11453,99.5,5.37,,13.59,0.978,89.8,,57.7,5,,,,,,,,,,,,0,0,0,0,0,0,0,0,0,0,0,0,0,0,0,0,,,,,,0.0,,,,,,,
5611844,1745474210878,,,,,,,,,,,,,,,,,,,,,,,,,,,,,,,,,,0,0,0,0,0,0,0,0,0,0,0,0,0,0,0,0,,,,,,,,,,,,,
5611864,1745474210898,0.0,130,,0.75,0.02,1.1,5,0,-0,1.33,1.46,91,11526,99.5,5.35,,13.39,0.976,89.8,,57.4,5,,,,,,,,,,,,0,0,0,0,0,0,0,0,0,0,0,0,0,0,0,0,,,,,,0.0,,,,,,,
5611884,1745474210918,,,,,,,,,,,,,,,,,,,,,,,16,0,35,37,0.0,13.0,0.0,0.0,2.26,,,0,0,0,0,0,0,0,0,0,0,0,0,0,0,0,0,,0,,,,,38.994099,-76.939621,24.29,27.5,32,3,0.8
5611904,1745474210938,0.0,130,,0.78,0.04,1.05,4,0,-0,1.31,1.46,90,11532,99.5,5.34,,13.65,0.956,89.8,,57.4,5,,,,,,,,,,,,0,0,0,0,0,0,0,0,0,0,0,0,0,0,0,0,,,,,,0.0,,,,,,,
5611924,1745474210958,,,,,,,,,,,,,,,,,,,,,,,,,,,,,,,,,,0,0,0,0,0,0,0,0,0,0,0,0,0,0,0,0,,,,,,,,,,,,,
5611944,1745474210978,0.0,130,,0.82,-0.09,0.95,4,0,0,1.26,1.46,86,11233,99.5,5.43,,13.37,0.96,89.8,,57.4,5,,,,,,,,,,,,0,0,0,0,0,0,0,0,0,0,0,0,0,0,0,0,,,,,,0.0,,,,,,,
5611964,1745474210998,,,,,,,,,,,,,,,,,,,,,,,,,,,,,,,,,,0,0,0,0,0,0,0,0,0,0,0,0,0,0,0,0,,,,,,,,,,,,,
5611984,1745474211008,0.0,130,,0.82,-0.15,0.96,4,-0,1,1.28,1.46,87,11089,99.5,5.5,,13.37,0.96,89.8,,57.1,5,18,0,35,33,0.0,228.0,0.0,0.0,2.26,,,0,0,0,0,0,0,0,0,0,0,0,0,0,0,0,0,,0,,,,0.0,38.994099,-76.939613,27.35,27.5,31,3,0.8
5612004,1745474211028,,,,,,,,,,,,,,,,,,,,,,,,,,,,,,,,,,0,0,0,0,0,0,0,0,0,0,0,0,0,0,0,0,,,,,,,,,,,,,
5612024,1745474211048,0.0,130,,0.81,-0.01,1.02,3,-0,0,1.3,1.46,89,11089,99.5,5.5,,13.61,0.984,89.8,,57.1,5,,,,,,,,,,,,0,0,0,0,0,0,0,0,0,0,0,0,0,0,0,0,,,,,,0.0,,,,,,,
5612044,1745474211068,,,,,,,,,,,,,,,,,,,,,,,,,,,,,,,,,,0,0,0,0,0,0,0,0,0,0,0,0,0,0,0,0,,,,,,,,,,,,,
5612064,1745474211088,0.0,130,,0.84,-0.06,1.02,3,0,1,1.32,1.46,91,11124,99.5,5.48,,13.65,0.965,89.8,,59.5,5,,,,,,,,,,,,0,0,0,0,0,0,0,0,0,0,0,0,0,0,0,0,,,,,,0.0,,,,,,,
5612084,1745474211114,,,,,,,,,,,,,,,,,,,,,,,21,0,33,33,0.0,48.0,0.0,0.0,2.26,,,0,0,0,0,0,0,0,0,0,0,0,0,0,0,0,0,,1,,,,,38.994099,-76.939606,30.87,27.5,31,3,0.8
5612104,1745474211134,0.0,130,,0.86,-0.04,1.01,3,-0,1,1.32,1.46,91,11194,99.5,5.46,,13.76,0.96,89.8,,59.5,5,,,,,,,,,,,,0,0,0,0,0,0,0,0,0,0,0,0,0,0,0,0,,,,,,0.0,,,,,,,
5612124,1745474211154,,,,,,,,,,,,,,,,,,,,,,,,,,,,,,,,,,0,0,0,0,0,0,0,0,0,0,0,0,0,0,0,0,,,,,,,,,,,,,
5612144,1745474211174,0.0,130,,0.82,-0.03,0.99,2,-1,1,1.28,1.46,88,11182,99.6,5.46,,13.56,0.942,89.8,,59.5,5,,,,,,,,,,,,0,0,0,0,0,0,0,0,0,0,0,0,0,0,0,0,,,,,,0.0,,,,,,,
5612164,1745474211194,,,,,,,,,,,,,,,,,,,,,,,,,,,,,,,,,,0,0,0,0,0,0,0,0,0,0,0,0,0,0,0,0,,,,,,,,,,,,,
5612184,1745474211212,0.0,130,,0.84,-0.02,1.03,2,-1,1,1.33,1.46,91,11141,99.6,5.46,,13.56,0.942,89.8,,60.2,5,22,0,34,34,0.0,17.0,0.0,0.0,2.27,,,0,0,0,0,0,0,0,0,0,0,0,0,0,0,0,0,,1,,,,0.0,38.994099,-76.939598,34.42,27.4,31,3,0.8
5612204,1745474211232,,,,,,,,,,,,,,,,,,,,,,,,,,,,,,,,,,0,0,0,0,0,0,0,0,0,0,0,0,0,0,0,0,,,,,,,,,,,,,
5612224,1745474211252,0.0,130,,0.84,-0.12,0.95,2,-1,0,1.27,1.46,87,11141,99.6,5.46,,13.75,0.939,89.8,,60.2,5,,,,,,,,,,,,0,0,0,0,0,0,0,0,0,0,0,0,0,0,0,0,,,,,,0.0,,,,,,,
5612244,1745474211272,,,,,,,,,,,,,,,,,,,,,,,,,,,,,,,,,,0,0,0,0,0,0,0,0,0,0,0,0,0,0,0,0,,,,,,,,,,,,,
5612264,1745474211292,0.0,130,,0.8,-0.05,0.94,1,-1,1,1.24,1.46,85,11130,99.5,5.48,,13.4,0.955,89.8,,59.2,5,,,,,,,,,,,,0,0,0,0,0,0,0,0,0,0,0,0,0,0,0,0,,,,,,0.0,,,,,,,
5612284,1745474211318,,,,,,,,,,,,,,,,,,,,,,,24,0,35,35,0.0,255.0,0.0,0.0,2.27,,,0,0,0,0,0,0,0,0,0,0,0,0,0,0,0,0,,1,,,,,38.994099,-76.939583,37.43,27.4,31,3,0.8
5612304,1745474211338,0.0,130,,0.79,-0.25,0.91,-1,-0,1,1.23,1.46,84,11372,99.5,5.41,,13.51,0.949,89.8,,59.2,5,,,,,,,,,,,,0,0,0,0,0,0,0,0,0,0,0,0,0,0,0,0,,,,,,0.0,,,,,,,
5612324,1745474211358,,,,,,,,,,,,,,,,,,,,,,,,,,,,,,,,,,0,0,0,0,0,0,0,0,0,0,0,0,0,0,0,0,,,,,,,,,,,,,
5612344,1745474211378,0.0,129,,0.86,-0.33,0.91,-4,0,0,1.3,1.46,89,11252,99.5,5.42,,13.48,0.936,89.8,,59.2,5,,,,,,,,,,,,0,0,0,0,0,0,0,0,0,0,0,0,0,0,0,0,,,,,,0.0,,,,,,,
5612364,1745474211398,,,,,,,,,,,,,,,,,,,,,,,,,,,,,,,,,,0,0,0,0,0,0,0,0,0,0,0,0,0,0,0,0,,,,,,,,,,,,,
5612384,1745474211418,0.0,129,13.11,0.88,-0.33,0.88,-6,1,1,1.29,1.46,88,10691,99.5,5.68,15,13.48,0.936,89.8,169,59.4,5,26,0,33,31,0.0,56.0,0.0,0.0,2.26,0,1.0,0,0,0,0,0,0,0,0,0,0,0,0,0,0,0,0,0,0,1.0,0,0,0.0,38.994102,-76.939575,40.37,27.4,31,3,0.8
5612404,1745474211438,,,,,,,,,,,,,,,,,,,,,,,,,,,,,,,,,,0,0,0,0,0,0,0,0,0,0,0,0,0,0,0,0,,,,,,,,,,,,,
5612424,1745474211458,0.0,129,,0.9,-0.33,0.91,-9,1,1,1.32,1.46,90,10691,99.5,5.68,,13.61,0.931,89.8,,59.4,5,,,,,,,,,,,,0,0,0,0,0,0,0,0,0,0,0,0,0,0,0,0,,,,,,0.0,,,,,,,
5612444,1745474211478,,,,,,,,,,,,,,,,,,,,,,,,,,,,,,,,,,0,0,0,0,0,0,0,0,0,0,0,0,0,0,0,0,,,,,,,,,,,,,
5612464,1745474211498,0.0,129,,0.93,-0.33,0.97,-10,0,2,1.38,1.46,95,10491,67.3,5.26,,13.44,0.953,89.8,,57.9,5,,,,,,,,,,,,0,0,0,0,0,0,0,0,0,0,0,0,0,0,0,0,,,,,,0.0,,,,,,,
5612484,1745474211519,,,,,,,,,,,,,,,,,,,,,,,27,31,32,31,0.0,104.0,0.0,0.0,2.26,,,0,0,0,0,0,0,0,0,0,0,0,0,0,0,0,0,,1,,,,,38.994102,-76.93956,44.36,27.4,31,3,0.8
5612504,1745474211539,0.0,129,,0.84,-0.3,0.94,-13,-1,2,1.3,1.46,89,10285,18.3,5.0,,11.3,0.933,89.8,,57.9,5,,,,,,,,,,,,0,0,0,0,0,0,0,0,0,0,0,0,0,0,0,0,,,,,,0.0,,,,,,,
5612524,1745474211559,,,,,,,,,,,,,,,,,,,,,,,,,,,,,,,,,,0,0,0,0,0,0,0,0,0,0,0,0,0,0,0,0,,,,,,,,,,,,,
5612544,1745474211579,0.0,129,,0.74,-0.68,0.97,-17,-2,2,1.4,1.46,96,10114,4.8,2.41,,9.09,0.916,89.8,,57.9,5,,,,,,,,,,,,0,0,0,0,0,0,0,0,0,0,0,0,0,0,0,0,,,,,,0.0,,,,,,,
5612564,1745474211599,,,,,,,,,,,,,,,,,,,,,,,,,,,,,,,,,,0,0,0,0,0,0,0,0,0,0,0,0,0,0,0,0,,,,,,,,,,,,,
5612584,1745474211617,0.0,129,,0.67,-0.39,0.94,-20,-2,2,1.21,1.46,83,10148,2.9,1.43,,9.09,0.916,89.8,,52.4,5,29,32,30,33,0.0,103.0,0.0,0.0,2.26,,,0,0,0,0,0,0,0,0,0,0,0,0,0,0,0,0,,0,,,,0.0,38.994102,-76.939545,48.54,27.4,31,3,0.8
5612604,1745474211637,,,,,,,,,,,,,,,,,,,,,,,,,,,,,,,,,,0,0,0,0,0,0,0,0,0,0,0,0,0,0,0,0,,,,,,,,,,,,,
5612624,1745474211657,0.0,128,,0.57,-0.59,1.0,-22,-2,2,1.3,1.46,89,10148,2.9,1.43,,7.7,0.844,89.8,,52.4,5,,,,,,,,,,,,0,0,0,0,0,0,0,0,0,0,0,0,0,0,0,0,,,,,,0.0,,,,,,,
5612644,1745474211677,,,,,,,,,,,,,,,,,,,,,,,,,,,,,,,,,,0,0,0,0,0,0,0,0,0,0,0,0,0,0,0,0,,,,,,,,,,,,,
5612664,1745474211697,0.0,128,,0.46,-0.63,1.01,-25,-2,1,1.28,1.28,100,9951,1.9,1.4,,6.63,0.89,89.8,,47.9,5,,,,,,,,,,,,0,0,0,0,0,0,0,0,0,0,0,0,0,0,0,0,,,,,,0.0,,,,,,,
5612684,1745474211719,,,,,,,,,,,,,,,,,,,,,,,28,41,29,31,0.0,90.0,0.0,0.0,2.27,,,0,0,0,0,0,0,0,0,0,0,0,0,0,0,0,0,,0,,,,,38.994102,-76.939529,48.1,27.3,31,3,0.8
5612704,1745474211739,0.0,128,,0.39,-0.75,0.98,-26,-2,1,1.29,1.29,100,9771,0.8,1.4,,5.99,0.998,89.8,,47.9,5,,,,,,,,,,,,0,0,0,0,0,0,0,0,0,0,0,0,0,0,0,0,,,,,,0.0,,,,,,,
5612724,1745474211759,,,,,,,,,,,,,,,,,,,,,,,,,,,,,,,,,,0,0,0,0,0,0,0,0,0,0,0,0,0,0,0,0,,,,,,,,,,,,,
5612744,1745474211779,0.0,127,,0.27,-0.99,0.94,-30,-2,1,1.39,1.39,100,9671,0.6,1.4,,5.83,1.106,89.8,,47.9,5,,,,,,,,,,,,0,0,0,0,0,0,0,0,0,0,0,0,0,0,0,0,,,,,,0.0,,,,,,,
5612764,1745474211799,,,,,,,,,,,,,,,,,,,,,,,,,,,,,,,,,,0,0,0,0,0,0,0,0,0,0,0,0,0,0,0,0,,,,,,,,,,,,,
5612784,1745474211817,0.0,128,,0.18,-0.85,0.96,-32,-1,1,1.3,1.39,93,9539,0.5,1.4,,5.83,1.106,89.8,,48.3,5,29,15,28,31,0.0,99.0,0.0,0.0,2.27,,,0,0,0,0,0,0,0,0,0,0,0,0,0,0,0,0,,0,,,,0.0,38.994099,-76.939514,47.53,27.3,31,3,0.8
5612804,1745474211837,,,,,,,,,,,,,,,,,,,,,,,,,,,,,,,,,,0,0,0,0,0,0,0,0,0,0,0,0,0,0,0,0,,,,,,,,,,,,,
5612824,1745474211857,0.0,128,,0.08,-0.79,0.97,-34,-0,1,1.25,1.39,90,9539,0.5,1.4,,5.55,1.124,86.2,,48.3,5,,,,,,,,,,,,0,0,0,0,0,0,0,0,0,0,0,0,0,0,0,0,,,,,,0.0,,,,,,,
5612844,1745474211877,,,,,,,,,,,,,,,,,,,,,,,,,,,,,,,,,,0,0,0,0,0,0,0,0,0,0,0,0,0,0,0,0,,,,,,,,,,,,,
5612864,1745474211897,0.0,128,,-0.0,-0.9,0.96,-35,-1,2,1.32,1.39,94,9361,0.5,1.4,,5.34,1.104,86.2,,47.8,5,,,,,,,,,,,,0,0,0,0,0,0,0,0,0,0,0,0,0,0,0,0,,,,,,0.0,,,,,,,
5612884,1745474211917,,,,,,,,,,,,,,,,,,,,,,,27,30,27,31,0.0,229.0,0.0,0.0,2.27,,,0,0,0,0,0,0,0,0,0,0,0,0,0,0,0,0,,0,,,,,38.994095,-76.939499,46.25,27.3,31,3,0.8
5612904,1745474211937,0.0,128,,-0.08,-0.88,1.03,-37,-2,2,1.36,1.39,97,9445,0.7,1.4,,5.2,1.128,86.2,,47.8,5,,,,,,,,,,,,0,0,0,0,0,0,0,0,0,0,0,0,0,0,0,0,,,,,,0.0,,,,,,,
5612924,1745474211957,,,,,,,,,,,,,,,,,,,,,,,,,,,,,,,,,,0,0,0,0,0,0,0,0,0,0,0,0,0,0,0,0,,,,,,,,,,,,,
5612944,1745474211977,0.0,128,,-0.16,-1.07,0.99,-41,-2,2,1.47,1.47,100,9402,1.0,1.4,,5.04,1.157,86.2,,47.8,5,,,,,,,,,,,,0,0,0,0,0,0,0,0,0,0,0,0,0,0,0,0,,,,,,0.0,,,,,,,
5612964,1745474211997,,,,,,,,,,,,,,,,,,,,,,,,,,,,,,,,,,0,0,0,0,0,0,0,0,0,0,0,0,0,0,0,0,,,,,,,,,,,,,
5612984,1745474212009,0.0,128,,-0.23,-1.07,0.99,-44,-1,2,1.48,1.48,100,9209,1.1,1.4,,5.04,1.157,86.2,,47.6,5,26,30,26,29,0.0,243.0,0.0,0.0,2.26,,,0,0,0,0,0,0,0,0,0,0,0,0,0,0,0,0,,0,,,,0.0,38.994095,-76.939484,45.93,27.3,31,3,0.8
5613004,1745474212029,,,,,,,,,,,,,,,,,,,,,,,,,,,,,,,,,,0,0,0,0,0,0,0,0,0,0,0,0,0,0,0,0,,,,,,,,,,,,,
5613024,1745474212049,0.0,128,,-0.25,-0.8,1.04,-47,-0,1,1.34,1.48,90,9209,1.1,1.4,,4.96,1.154,86.2,,47.6,5,,,,,,,,,,,,0,0,0,0,0,0,0,0,0,0,0,0,0,0,0,0,,,,,,0.0,,,,,,,
5613044,1745474212069,,,,,,,,,,,,,,,,,,,,,,,,,,,,,,,,,,0,0,0,0,0,0,0,0,0,0,0,0,0,0,0,0,,,,,,,,,,,,,
5613064,1745474212089,0.0,126,,-0.31,-0.88,1.01,-51,-0,2,1.37,1.48,93,8998,1.1,1.4,,4.96,1.233,86.2,,47.7,5,,,,,,,,,,,,0,0,0,0,0,0,0,0,0,0,0,0,0,0,0,0,,,,,,0.0,,,,,,,
5613084,1745474212115,,,,,,,,,,,,,,,,,,,,,,,25,30,24,29,0.0,58.0,0.0,0.0,2.27,,,0,0,0,0,0,0,0,0,0,0,0,0,0,0,0,0,,0,,,,,38.994091,-76.939468,43.33,27.2,31,3,0.8
5613104,1745474212135,0.0,120,,-0.37,-1.12,0.98,-52,-1,1,1.53,1.53,100,8820,0.9,1.4,,4.96,1.25,86.2,,47.7,5,,,,,,,,,,,,0,0,0,0,0,0,0,0,0,0,0,0,0,0,0,0,,,,,,0.0,,,,,,,
5613124,1745474212155,,,,,,,,,,,,,,,,,,,,,,,,,,,,,,,,,,0,0,0,0,0,0,0,0,0,0,0,0,0,0,0,0,,,,,,,,,,,,,
5613144,1745474212175,0.0,127,,-0.43,-1.01,1.0,-54,-1,2,1.48,1.53,97,8623,6.2,1.56,,5.43,1.251,86.2,,47.7,5,,,,,,,,,,,,0,0,0,0,0,0,0,0,0,0,0,0,0,0,0,0,,,,,,0.0,,,,,,,
5613164,1745474212195,,,,,,,,,,,,,,,,,,,,,,,,,,,,,,,,,,0,0,0,0,0,0,0,0,0,0,0,0,0,0,0,0,,,,,,,,,,,,,
5613184,1745474212217,0.0,128,,-0.46,-1.14,0.99,-58,0,1,1.58,1.58,100,8345,11.4,1.96,,5.43,1.251,86.2,,47.4,5,24,27,23,28,0.0,203.0,0.0,0.0,2.27,,,0,0,0,0,0,0,0,0,0,0,0,0,0,0,0,0,,0,,,,0.0,38.994083,-76.939453,42.73,27.2,32,3,0.8
5613204,1745474212237,,,,,,,,,,,,,,,,,,,,,,,,,,,,,,,,,,0,0,0,0,0,0,0,0,0,0,0,0,0,0,0,0,,,,,,,,,,,,,
5613224,1745474212257,0.0,127,,-0.5,-1.18,1.0,-60,0,0,1.63,1.63,100,8345,11.4,1.96,,6.22,1.251,86.2,,47.4,5,,,,,,,,,,,,0,0,0,0,0,0,0,0,0,0,0,0,0,0,0,0,,,,,,0.0,,,,,,,
5613244,1745474212277,,,,,,,,,,,,,,,,,,,,,,,,,,,,,,,,,,0,0,0,0,0,0,0,0,0,0,0,0,0,0,0,0,,,,,,,,,,,,,
5613264,1745474212297,0.0,125,,-0.54,-1.26,0.96,-63,1,1,1.67,1.67,100,8350,14.0,2.33,,7.34,1.25,86.2,,47.8,5,,,,,,,,,,,,0,0,0,0,0,0,0,0,0,0,0,0,0,0,0,0,,,,,,0.0,,,,,,,
5613284,1745474212316,,,,,,,,,,,,,,,,,,,,,,,23,30,23,26,0.0,176.0,0.0,0.0,2.27,,,0,0,0,0,0,0,0,0,0,0,0,0,0,0,0,0,,0,,,,,38.994076,-76.939453,41.07,27.1,32,3,0.8
5613304,1745474212336,0.0,128,,-0.54,-1.33,1.03,-65,1,1,1.77,1.77,100,8501,14.8,2.59,,7.9,1.251,86.2,,47.8,5,,,,,,,,,,,,0,0,0,0,0,0,0,0,0,0,0,0,0,0,0,0,,,,,,0.0,,,,,,,
5613324,1745474212356,,,,,,,,,,,,,,,,,,,,,,,,,,,,,,,,,,0,0,0,0,0,0,0,0,0,0,0,0,0,0,0,0,,,,,,,,,,,,,
5613344,1745474212376,0.0,128,,-0.56,-1.47,0.97,-67,1,-0,1.85,1.85,100,8710,15.6,2.69,,8.35,1.221,86.2,,47.8,5,,,,,,,,,,,,0,0,0,0,0,0,0,0,0,0,0,0,0,0,0,0,,,,,,0.0,,,,,,,
5613364,1745474212396,,,,,,,,,,,,,,,,,,,,,,,,,,,,,,,,,,0,0,0,0,0,0,0,0,0,0,0,0,0,0,0,0,,,,,,,,,,,,,
5613384,1745474212419,0.0,128,13.22,-0.54,-1.35,0.95,-68,1,-0,1.73,1.85,94,8948,19.0,2.93,15,8.35,1.221,86.2,169,48.0,5,22,25,24,26,0.0,246.0,0.0,0.0,2.26,0,1.0,0,0,0,0,0,0,0,0,0,0,0,0,0,0,0,0,0,1,1.0,0,-0,0.0,38.994072,-76.939438,39.58,27.1,32,3,0.8
5613404,1745474212439,,,,,,,,,,,,,,,,,,,,,,,,,,,,,,,,,,0,0,0,0,0,0,0,0,0,0,0,0,0,0,0,0,,,,,,,,,,,,,
5613424,1745474212459,0.0,127,,-0.51,-1.27,0.89,-68,1,0,1.63,1.85,88,8948,19.0,2.93,,8.87,1.108,86.2,,48.0,5,,,,,,,,,,,,0,0,0,0,0,0,0,0,0,0,0,0,0,0,0,0,,,,,,0.0,,,,,,,
5613444,1745474212479,,,,,,,,,,,,,,,,,,,,,,,,,,,,,,,,,,0,0,0,0,0,0,0,0,0,0,0,0,0,0,0,0,,,,,,,,,,,,,
5613464,1745474212499,0.0,128,,-0.46,-1.37,0.92,-68,2,0,1.71,1.71,100,9263,20.9,3.19,,9.07,1.074,86.2,,48.0,5,,,,,,,,,,,,0,0,0,0,0,0,0,0,0,0,0,0,0,0,0,0,,,,,,0.0,,,,,,,
5613484,1745474212516,,,,,,,,,,,,,,,,,,,,,,,23,25,28,27,0.0,135.0,0.0,0.0,2.27,,,0,0,0,0,0,0,0,0,0,0,0,0,0,0,0,0,,0,,,,,38.994064,-76.93943,38.53,27.1,32,3,0.8
5613504,1745474212536,0.0,128,,-0.42,-1.18,0.9,-68,2,1,1.55,1.71,91,9359,21.6,3.27,,9.31,1.07,86.2,,48.0,5,,,,,,,,,,,,0,0,0,0,0,0,0,0,0,0,0,0,0,0,0,0,,,,,,0.0,,,,,,,
5613524,1745474212556,,,,,,,,,,,,,,,,,,,,,,,,,,,,,,,,,,0,0,0,0,0,0,0,0,0,0,0,0,0,0,0,0,,,,,,,,,,,,,
5613544,1745474212576,0.0,128,,-0.39,-1.27,0.93,-67,2,1,1.62,1.71,95,9332,21.5,3.3,,9.52,1.073,86.2,,48.0,5,,,,,,,,,,,,0,0,0,0,0,0,0,0,0,0,0,0,0,0,0,0,,,,,,0.0,,,,,,,
5613564,1745474212596,,,,,,,,,,,,,,,,,,,,,,,,,,,,,,,,,,0,0,0,0,0,0,0,0,0,0,0,0,0,0,0,0,,,,,,,,,,,,,
5613584,1745474212618,0.0,127,,-0.34,-1.16,0.92,-66,2,1,1.52,1.71,89,9367,21.4,3.33,,9.52,1.073,86.2,,48.8,5,23,26,28,28,0.0,78.0,0.0,0.0,2.27,,,0,0,0,0,0,0,0,0,0,0,0,0,0,0,0,0,,1,,,,0.0,38.994057,-76.939423,38.85,27.1,32,3,0.8
5613604,1745474212638,,,,,,,,,,,,,,,,,,,,,,,,,,,,,,,,,,0,0,0,0,0,0,0,0,0,0,0,0,0,0,0,0,,,,,,,,,,,,,
5613624,1745474212658,0.0,128,,-0.36,-1.04,0.92,-66,2,0,1.44,1.71,84,9367,21.4,3.33,,9.64,1.081,86.2,,48.8,5,,,,,,,,,,,,0,0,0,0,0,0,0,0,0,0,0,0,0,0,0,0,,,,,,0.0,,,,,,,
5613644,1745474212678,,,,,,,,,,,,,,,,,,,,,,,,,,,,,,,,,,0,0,0,0,0,0,0,0,0,0,0,0,0,0,0,0,,,,,,,,,,,,,
5613664,1745474212698,0.0,128,,-0.3,-1.11,0.9,-66,3,0,1.46,1.71,85,9396,21.4,3.36,,9.6,1.078,86.2,,48.3,5,,,,,,,,,,,,0,0,0,0,0,0,0,0,0,0,0,0,0,0,0,0,,,,,,0.0,,,,,,,
5613684,1745474212718,,,,,,,,,,,,,,,,,,,,,,,22,25,30,28,0.0,73.0,0.0,0.0,2.27,,,0,0,0,0,0,0,0,0,0,0,0,0,0,0,0,0,,1,,,,,38.994045,-76.939415,39.66,27.1,32,3,0.8
5613704,1745474212738,0.0,128,,-0.26,-1.1,0.95,-65,2,1,1.48,1.71,86,9418,21.0,3.35,,9.62,1.072,86.2,,48.3,5,,,,,,,,,,,,0,0,0,0,0,0,0,0,0,0,0,0,0,0,0,0,,,,,,0.0,,,,,,,
5613724,1745474212758,,,,,,,,,,,,,,,,,,,,,,,,,,,,,,,,,,0,0,0,0,0,0,0,0,0,0,0,0,0,0,0,0,,,,,,,,,,,,,
5613744,1745474212778,0.0,128,,-0.21,-1.2,0.89,-63,1,1,1.51,1.71,88,9380,19.1,3.33,,9.39,1.064,86.2,,48.3,5,,,,,,,,,,,,0,0,0,0,0,0,0,0,0,0,0,0,0,0,0,0,,,,,,0.0,,,,,,,
5613764,1745474212798,,,,,,,,,,,,,,,,,,,,,,,,,,,,,,,,,,0,0,0,0,0,0,0,0,0,0,0,0,0,0,0,0,,,,,,,,,,,,,
5613784,1745474212818,0.0,128,,-0.28,-1.2,0.95,-63,1,2,1.55,1.71,91,9400,17.1,3.18,,9.39,1.064,86.2,,47.7,5,23,25,30,29,0.0,129.0,0.0,0.0,2.26,,,0,0,0,0,0,0,0,0,0,0,0,0,0,0,0,0,,1,,,,0.0,38.994034,-76.939415,40.25,27.0,32,3,0.8
5613804,1745474212838,,,,,,,,,,,,,,,,,,,,,,,,,,,,,,,,,,0,0,0,0,0,0,0,0,0,0,0,0,0,0,0,0,,,,,,,,,,,,,
5613824,1745474212858,0.0,127,,-0.32,-1.26,0.97,-64,1,1,1.62,1.71,95,9400,17.1,3.18,,9.21,1.047,88.0,,47.7,5,,,,,,,,,,,,0,0,0,0,0,0,0,0,0,0,0,0,0,0,0,0,,,,,,0.0,,,,,,,
5613844,1745474212878,,,,,,,,,,,,,,,,,,,,,,,,,,,,,,,,,,0,0,0,0,0,0,0,0,0,0,0,0,0,0,0,0,,,,,,,,,,,,,
5613864,1745474212898,0.0,128,,-0.31,-1.19,1.03,-63,2,1,1.61,1.71,94,9642,17.3,3.11,,8.91,1.023,88.0,,48.4,5,,,,,,,,,,,,0,0,0,0,0,0,0,0,0,0,0,0,0,0,0,0,,,,,,0.0,,,,,,,
5613884,1745474212918,,,,,,,,,,,,,,,,,,,,,,,24,27,32,28,0.0,150.0,0.0,0.0,2.26,,,0,0,0,0,0,0,0,0,0,0,0,0,0,0,0,0,,1,,,,,38.994026,-76.939415,40.72,27.1,32,3,0.8
5613904,1745474212938,0.0,127,,-0.28,-1.28,0.96,-64,2,1,1.63,1.71,95,9725,17.3,3.09,,8.85,1.022,88.0,,48.4,5,,,,,,,,,,,,0,0,0,0,0,0,0,0,0,0,0,0,0,0,0,0,,,,,,0.0,,,,,,,
5613924,1745474212958,,,,,,,,,,,,,,,,,,,,,,,,,,,,,,,,,,0,0,0,0,0,0,0,0,0,0,0,0,0,0,0,0,,,,,,,,,,,,,
5613944,1745474212978,0.0,128,,-0.24,-1.27,0.97,-63,1,2,1.62,1.71,95,9560,14.8,2.81,,8.45,1.009,88.0,,48.4,5,,,,,,,,,,,,0,0,0,0,0,0,0,0,0,0,0,0,0,0,0,0,,,,,,0.0,,,,,,,
5613964,1745474212998,,,,,,,,,,,,,,,,,,,,,,,,,,,,,,,,,,0,0,0,0,0,0,0,0,0,0,0,0,0,0,0,0,,,,,,,,,,,,,
5613984,1745474213010,0.0,128,,-0.27,-1.26,1.03,-62,0,1,1.65,1.71,97,9491,12.2,2.56,,8.45,1.009,88.0,,48.3,5,24,26,30,28,0.0,170.0,0.0,0.0,2.27,,,0,0,0,0,0,0,0,0,0,0,0,0,0,0,0,0,,1,,,,0.0,38.994015,-76.939415,40.03,27.0,32,3,0.8
5614004,1745474213030,,,,,,,,,,,,,,,,,,,,,,,,,,,,,,,,,,0,0,0,0,0,0,0,0,0,0,0,0,0,0,0,0,,,,,,,,,,,,,
5614024,1745474213050,0.0,128,,-0.27,-1.22,1.02,-63,0,0,1.62,1.71,95,9491,12.2,2.56,,8.26,0.996,88.0,,48.3,5,,,,,,,,,,,,0,0,0,0,0,0,0,0,0,0,0,0,0,0,0,0,,,,,,0.0,,,,,,,
5614044,1745474213070,,,,,,,,,,,,,,,,,,,,,,,,,,,,,,,,,,0,0,0,0,0,0,0,0,0,0,0,0,0,0,0,0,,,,,,,,,,,,,
5614064,1745474213090,0.0,127,,-0.26,-1.23,1.06,-62,0,0,1.65,1.71,96,9515,12.7,2.53,,8.01,0.997,88.0,,48.4,5,,,,,,,,,,,,0,0,0,0,0,0,0,0,0,0,0,0,0,0,0,0,,,,,,0.0,,,,,,,
5614084,1745474213120,,,,,,,,,,,,,,,,,,,,,,,24,28,27,28,0.0,184.0,0.0,0.0,2.27,,,0,0,0,0,0,0,0,0,0,0,0,0,0,0,0,0,,1,,,,,38.994007,-76.939415,41.62,27.0,32,3,0.8
5614104,1745474213140,0.0,128,,-0.26,-1.22,1.08,-61,0,2,1.65,1.71,96,9371,12.7,2.52,,7.95,1.018,88.0,,48.4,5,,,,,,,,,,,,0,0,0,0,0,0,0,0,0,0,0,0,0,0,0,0,,,,,,0.0,,,,,,,
5614124,1745474213160,,,,,,,,,,,,,,,,,,,,,,,,,,,,,,,,,,0,0,0,0,0,0,0,0,0,0,0,0,0,0,0,0,,,,,,,,,,,,,
5614144,1745474213180,0.0,128,,-0.26,-1.17,1.06,-61,-0,2,1.6,1.71,94,9166,11.1,2.43,,7.9,1.032,88.0,,48.4,5,,,,,,,,,,,,0,0,0,0,0,0,0,0,0,0,0,0,0,0,0,0,,,,,,0.0,,,,,,,
5614164,1745474213200,,,,,,,,,,,,,,,,,,,,,,,,,,,,,,,,,,0,0,0,0,0,0,0,0,0,0,0,0,0,0,0,0,,,,,,,,,,,,,
5614184,1745474213218,0.0,128,,-0.28,-0.99,1.02,-61,-0,1,1.45,1.71,85,9137,10.7,2.39,,7.9,1.032,88.0,,47.8,5,23,26,26,28,0.0,48.0,0.0,0.0,2.27,,,0,0,0,0,0,0,0,0,0,0,0,0,0,0,0,0,,0,,,,0.0,38.993996,-76.939415,40.93,27.0,32,3,0.8
5614204,1745474213238,,,,,,,,,,,,,,,,,,,,,,,,,,,,,,,,,,0,0,0,0,0,0,0,0,0,0,0,0,0,0,0,0,,,,,,,,,,,,,
5614224,1745474213258,0.0,128,,-0.28,-0.93,0.99,-61,-0,1,1.39,1.71,81,9137,10.7,2.39,,7.69,1.04,88.0,,47.8,5,,,,,,,,,,,,0,0,0,0,0,0,0,0,0,0,0,0,0,0,0,0,,,,,,0.0,,,,,,,
5614244,1745474213278,,,,,,,,,,,,,,,,,,,,,,,,,,,,,,,,,,0,0,0,0,0,0,0,0,0,0,0,0,0,0,0,0,,,,,,,,,,,,,
5614264,1745474213298,0.0,128,,-0.3,-0.83,0.96,-60,-0,1,1.3,1.71,76,9016,10.2,2.39,,7.51,1.038,88.0,,47.5,5,,,,,,,,,,,,0,0,0,0,0,0,0,0,0,0,0,0,0,0,0,0,,,,,,0.0,,,,,,,
5614284,1745474213319,,,,,,,,,,,,,,,,,,,,,,,23,26,26,27,0.0,254.0,0.0,0.0,2.26,,,0,0,0,0,0,0,0,0,0,0,0,0,0,0,0,0,,1,,,,,38.993988,-76.939415,41.22,27.0,32,3,0.8
5614304,1745474213339,0.0,128,,-0.35,-0.67,0.94,-59,-1,1,1.21,1.71,71,8896,8.0,2.25,,7.29,1.03,88.0,,47.5,5,,,,,,,,,,,,0,0,0,0,0,0,0,0,0,0,0,0,0,0,0,0,,,,,,0.0,,,,,,,
5614324,1745474213359,,,,,,,,,,,,,,,,,,,,,,,,,,,,,,,,,,0,0,0,0,0,0,0,0,0,0,0,0,0,0,0,0,,,,,,,,,,,,,
5614344,1745474213379,0.0,128,,-0.38,-0.58,0.98,-58,-1,1,1.2,1.71,70,8809,6.2,2.09,,7.12,1.024,88.0,,47.5,5,,,,,,,,,,,,0,0,0,0,0,0,0,0,0,0,0,0,0,0,0,0,,,,,,0.0,,,,,,,
5614364,1745474213399,,,,,,,,,,,,,,,,,,,,,,,,,,,,,,,,,,0,0,0,0,0,0,0,0,0,0,0,0,0,0,0,0,,,,,,,,,,,,,
5614384,1745474213420,0.0,128,13.26,-0.42,-0.82,0.99,-57,-1,1,1.35,1.35,100,8719,6.6,2.05,15,7.12,1.024,88.0,169,48.1,5,23,25,27,28,0.0,27.0,0.0,0.0,2.27,0,1.0,0,0,0,0,0,0,0,0,0,0,0,0,0,0,0,0,0,1,1.0,0,-0,0.0,38.993977,-76.939415,40.45,27.0,32,3,0.8
5614404,1745474213440,,,,,,,,,,,,,,,,,,,,,,,,,,,,,,,,,,0,0,0,0,0,0,0,0,0,0,0,0,0,0,0,0,,,,,,,,,,,,,
5614424,1745474213460,0.0,127,,-0.45,-0.88,1.0,-57,-1,1,1.41,1.41,100,8719,6.6,2.05,,6.96,1.018,88.0,,48.1,5,,,,,,,,,,,,0,0,0,0,0,0,0,0,0,0,0,0,0,0,0,0,,,,,,0.0,,,,,,,
5614444,1745474213480,,,,,,,,,,,,,,,,,,,,,,,,,,,,,,,,,,0,0,0,0,0,0,0,0,0,0,0,0,0,0,0,0,,,,,,,,,,,,,
5614464,1745474213500,0.0,127,,-0.48,-0.95,0.96,-59,-1,2,1.44,1.44,100,8582,6.1,2.04,,6.71,1.031,88.0,,47.4,5,,,,,,,,,,,,0,0,0,0,0,0,0,0,0,0,0,0,0,0,0,0,,,,,,0.0,,,,,,,
5614484,1745474213519,,,,,,,,,,,,,,,,,,,,,,,23,27,25,28,0.0,0.0,0.0,0.0,2.27,,,0,0,0,0,0,0,0,0,0,0,0,0,0,0,0,0,,0,,,,,38.993969,-76.939423,39.49,26.9,32,3,0.8
5614504,1745474213539,0.0,126,,-0.51,-1.04,0.94,-60,-1,2,1.49,1.49,100,8438,5.7,2.0,,6.7,1.055,88.0,,47.4,5,,,,,,,,,,,,0,0,0,0,0,0,0,0,0,0,0,0,0,0,0,0,,,,,,0.0,,,,,,,
5614524,1745474213559,,,,,,,,,,,,,,,,,,,,,,,,,,,,,,,,,,0,0,0,0,0,0,0,0,0,0,0,0,0,0,0,0,,,,,,,,,,,,,
5614544,1745474213579,0.0,127,,-0.51,-1.08,0.96,-61,-0,2,1.54,1.54,100,8330,5.4,1.93,,6.68,1.073,88.0,,47.4,5,,,,,,,,,,,,0,0,0,0,0,0,0,0,0,0,0,0,0,0,0,0,,,,,,0.0,,,,,,,
5614564,1745474213599,,,,,,,,,,,,,,,,,,,,,,,,,,,,,,,,,,0,0,0,0,0,0,0,0,0,0,0,0,0,0,0,0,,,,,,,,,,,,,
5614584,1745474213619,0.0,128,,-0.5,-1.06,0.98,-63,0,3,1.53,1.54,100,8223,5.5,2.0,,6.68,1.073,88.0,,46.7,5,22,25,23,25,0.0,10.0,0.0,0.0,2.27,,,0,0,0,0,0,0,0,0,0,0,0,0,0,0,0,0,,0,,,,0.0,38.993958,-76.93943,39.15,26.9,32,3,0.8
5614604,1745474213639,,,,,,,,,,,,,,,,,,,,,,,,,,,,,,,,,,0,0,0,0,0,0,0,0,0,0,0,0,0,0,0,0,,,,,,,,,,,,,
5614624,1745474213659,0.0,127,,-0.52,-1.09,1.01,-64,0,2,1.57,1.57,100,8223,5.5,2.0,,6.75,1.078,88.0,,46.7,5,,,,,,,,,,,,0,0,0,0,0,0,0,0,0,0,0,0,0,0,0,0,,,,,,0.0,,,,,,,
5614644,1745474213679,,,,,,,,,,,,,,,,,,,,,,,,,,,,,,,,,,0,0,0,0,0,0,0,0,0,0,0,0,0,0,0,0,,,,,,,,,,,,,
5614664,1745474213699,0.0,127,,-0.54,-1.08,0.99,-64,0,2,1.56,1.57,99,8094,6.8,2.13,,7.07,1.094,88.0,,46.3,5,,,,,,,,,,,,0,0,0,0,0,0,0,0,0,0,0,0,0,0,0,0,,,,,,0.0,,,,,,,
5614684,1745474213717,,,,,,,,,,,,,,,,,,,,,,,22,25,22,25,0.0,27.0,0.0,0.0,2.27,,,0,0,0,0,0,0,0,0,0,0,0,0,0,0,0,0,,1,,,,,38.993954,-76.939438,37.31,26.9,32,3,0.8
5614704,1745474213737,0.0,128,,-0.51,-1.11,0.99,-65,-0,2,1.58,1.58,100,8009,9.3,2.44,,7.51,1.102,88.0,,46.3,5,,,,,,,,,,,,0,0,0,0,0,0,0,0,0,0,0,0,0,0,0,0,,,,,,0.0,,,,,,,
5614724,1745474213757,,,,,,,,,,,,,,,,,,,,,,,,,,,,,,,,,,0,0,0,0,0,0,0,0,0,0,0,0,0,0,0,0,,,,,,,,,,,,,
5614744,1745474213777,0.0,127,,-0.53,-1.16,0.98,-64,0,1,1.61,1.61,100,7964,10.9,2.6,,7.94,1.104,88.0,,46.3,5,,,,,,,,,,,,0,0,0,0,0,0,0,0,0,0,0,0,0,0,0,0,,,,,,0.0,,,,,,,
5614764,1745474213797,,,,,,,,,,,,,,,,,,,,,,,,,,,,,,,,,,0,0,0,0,0,0,0,0,0,0,0,0,0,0,0,0,,,,,,,,,,,,,
5614784,1745474213819,0.0,128,,-0.53,-1.16,1.01,-64,0,1,1.63,1.63,100,7883,12.0,2.72,,7.94,1.104,88.0,,46.4,5,22,24,23,27,0.0,103.0,0.0,0.0,2.27,,,0,0,0,0,0,0,0,0,0,0,0,0,0,0,0,0,,0,,,,0.0,38.993946,-76.939446,36.98,26.9,32,3,0.8
5614804,1745474213839,,,,,,,,,,,,,,,,,,,,,,,,,,,,,,,,,,0,0,0,0,0,0,0,0,0,0,0,0,0,0,0,0,,,,,,,,,,,,,
5614824,1745474213859,0.0,127,,-0.52,-1.29,1.0,-65,0,1,1.71,1.71,100,7883,12.0,2.72,,8.37,1.068,86.2,,46.4,5,,,,,,,,,,,,0,0,0,0,0,0,0,0,0,0,0,0,0,0,0,0,,,,,,0.0,,,,,,,
5614844,1745474213879,,,,,,,,,,,,,,,,,,,,,,,,,,,,,,,,,,0,0,0,0,0,0,0,0,0,0,0,0,0,0,0,0,,,,,,,,,,,,,
5614864,1745474213899,0.0,127,,-0.54,-1.27,0.97,-65,1,1,1.68,1.71,98,7897,12.8,2.87,,8.67,1.058,86.2,,46.3,5,,,,,,,,,,,,0,0,0,0,0,0,0,0,0,0,0,0,0,0,0,0,,,,,,0.0,,,,,,,
5614884,1745474213919,,,,,,,,,,,,,,,,,,,,,,,21,26,23,24,0.0,69.0,0.0,0.0,2.27,,,0,0,0,0,0,0,0,0,0,0,0,0,0,0,0,0,,0,,,,,38.993938,-76.939453,36.17,26.9,32,3,0.8
5614904,1745474213939,0.0,127,,-0.55,-1.3,0.98,-65,1,1,1.71,1.71,100,7932,14.0,2.96,,8.94,1.057,86.2,,46.3,5,,,,,,,,,,,,0,0,0,0,0,0,0,0,0,0,0,0,0,0,0,0,,,,,,0.0,,,,,,,
5614924,1745474213959,,,,,,,,,,,,,,,,,,,,,,,,,,,,,,,,,,0,0,0,0,0,0,0,0,0,0,0,0,0,0,0,0,,,,,,,,,,,,,
5614944,1745474213979,0.0,128,,-0.52,-1.2,0.99,-66,2,1,1.64,1.71,96,8089,14.3,3.05,,9.1,1.049,86.2,,46.3,5,,,,,,,,,,,,0,0,0,0,0,0,0,0,0,0,0,0,0,0,0,0,,,,,,0.0,,,,,,,
5614964,1745474213999,,,,,,,,,,,,,,,,,,,,,,,,,,,,,,,,,,0,0,0,0,0,0,0,0,0,0,0,0,0,0,0,0,,,,,,,,,,,,,
5614984,1745474214011,0.0,128,,-0.48,-1.25,1.01,-66,2,1,1.67,1.71,98,8184,14.5,3.09,,9.1,1.049,86.2,,46.3,5,20,24,23,25,0.0,16.0,0.0,0.0,2.27,,,0,0,0,0,0,0,0,0,0,0,0,0,0,0,0,0,,1,,,,0.0,38.993935,-76.939461,34.92,26.9,28,3,0.9
5615004,1745474214031,,,,,,,,,,,,,,,,,,,,,,,,,,,,,,,,,,0,0,0,0,0,0,0,0,0,0,0,0,0,0,0,0,,,,,,,,,,,,,
5615024,1745474214051,0.0,128,,-0.46,-1.27,0.96,-65,1,1,1.66,1.71,97,8184,14.5,3.09,,9.27,1.037,86.2,,46.3,5,,,,,,,,,,,,0,0,0,0,0,0,0,0,0,0,0,0,0,0,0,0,,,,,,0.0,,,,,,,
5615044,1745474214071,,,,,,,,,,,,,,,,,,,,,,,,,,,,,,,,,,0,0,0,0,0,0,0,0,0,0,0,0,0,0,0,0,,,,,,,,,,,,,
5615064,1745474214091,0.0,127,,-0.44,-1.43,0.98,-65,0,2,1.79,1.79,100,8181,14.5,3.1,,9.35,1.029,86.2,,46.5,5,,,,,,,,,,,,0,0,0,0,0,0,0,0,0,0,0,0,0,0,0,0,,,,,,0.0,,,,,,,
5615084,1745474214117,,,,,,,,,,,,,,,,,,,,,,,21,25,27,23,0.0,93.0,0.0,0.0,2.27,,,0,0,0,0,0,0,0,0,0,0,0,0,0,0,0,0,,0,,,,,38.993931,-76.939476,35.36,26.9,28,3,0.9
5615104,1745474214137,0.0,128,,-0.43,-1.31,0.98,-66,1,1,1.69,1.79,94,8180,14.6,3.12,,9.48,1.018,86.2,,46.5,5,,,,,,,,,,,,0,0,0,0,0,0,0,0,0,0,0,0,0,0,0,0,,,,,,0.0,,,,,,,
5615124,1745474214157,,,,,,,,,,,,,,,,,,,,,,,,,,,,,,,,,,0,0,0,0,0,0,0,0,0,0,0,0,0,0,0,0,,,,,,,,,,,,,
5615144,1745474214177,0.0,128,,-0.39,-1.28,1.01,-67,1,1,1.67,1.79,93,8319,17.0,3.26,,9.62,1.016,86.2,,46.5,5,,,,,,,,,,,,0,0,0,0,0,0,0,0,0,0,0,0,0,0,0,0,,,,,,0.0,,,,,,,
5615164,1745474214197,,,,,,,,,,,,,,,,,,,,,,,,,,,,,,,,,,0,0,0,0,0,0,0,0,0,0,0,0,0,0,0,0,,,,,,,,,,,,,
5615184,1745474214219,0.0,127,,-0.35,-1.32,0.99,-69,1,1,1.69,1.79,94,8457,17.5,3.35,,9.62,1.016,86.2,,45.6,5,20,24,24,23,0.0,62.0,0.0,0.0,2.27,,,0,0,0,0,0,0,0,0,0,0,0,0,0,0,0,0,,0,,,,0.0,38.993927,-76.939491,35.56,26.9,28,3,0.9
5615204,1745474214239,,,,,,,,,,,,,,,,,,,,,,,,,,,,,,,,,,0,0,0,0,0,0,0,0,0,0,0,0,0,0,0,0,,,,,,,,,,,,,
5615224,1745474214259,0.0,128,,-0.33,-1.27,1.01,-68,0,1,1.66,1.79,93,8457,17.5,3.35,,9.78,1.015,86.2,,45.6,5,,,,,,,,,,,,0,0,0,0,0,0,0,0,0,0,0,0,0,0,0,0,,,,,,0.0,,,,,,,
5615244,1745474214279,,,,,,,,,,,,,,,,,,,,,,,,,,,,,,,,,,0,0,0,0,0,0,0,0,0,0,0,0,0,0,0,0,,,,,,,,,,,,,
5615264,1745474214299,0.0,128,,-0.34,-1.38,1.0,-69,-1,2,1.74,1.79,97,8367,17.3,3.4,,9.77,1.006,86.2,,45.7,5,,,,,,,,,,,,0,0,0,0,0,0,0,0,0,0,0,0,0,0,0,0,,,,,,0.0,,,,,,,
5615284,1745474214319,,,,,,,,,,,,,,,,,,,,,,,20,24,27,26,0.0,122.0,0.0,0.0,2.27,,,0,0,0,0,0,0,0,0,0,0,0,0,0,0,0,0,,0,,,,,38.993927,-76.939499,34.68,26.9,28,3,0.9
5615304,1745474214339,0.0,128,,-0.34,-1.36,0.98,-69,-1,1,1.72,1.79,96,8403,17.3,3.36,,9.85,0.993,86.2,,45.7,5,,,,,,,,,,,,0,0,0,0,0,0,0,0,0,0,0,0,0,0,0,0,,,,,,0.0,,,,,,,
5615324,1745474214359,,,,,,,,,,,,,,,,,,,,,,,,,,,,,,,,,,0,0,0,0,0,0,0,0,0,0,0,0,0,0,0,0,,,,,,,,,,,,,
5615344,1745474214379,0.0,128,,-0.29,-1.33,1.09,-71,0,0,1.74,1.74,100,8595,17.8,3.41,,9.81,0.988,86.2,,45.7,5,,,,,,,,,,,,0,0,0,0,0,0,0,0,0,0,0,0,0,0,0,0,,,,,,0.0,,,,,,,
5615364,1745474214399,,,,,,,,,,,,,,,,,,,,,,,,,,,,,,,,,,0,0,0,0,0,0,0,0,0,0,0,0,0,0,0,0,,,,,,,,,,,,,
5615384,1745474214417,0.0,128,13.23,-0.3,-1.44,1.04,-73,1,1,1.8,1.8,100,8744,17.7,3.34,15,9.81,0.988,86.2,169,46.0,5,20,26,26,26,0.0,107.0,0.0,0.0,2.27,0,1.0,0,0,0,0,0,0,0,0,0,0,0,0,0,0,0,0,0,1,1.0,0,-0,0.0,38.993927,-76.939506,35.75,27.0,28,3,0.9
5615404,1745474214437,,,,,,,,,,,,,,,,,,,,,,,,,,,,,,,,,,0,0,0,0,0,0,0,0,0,0,0,0,0,0,0,0,,,,,,,,,,,,,
5615424,1745474214457,0.0,128,,-0.3,-1.29,1.01,-74,1,1,1.66,1.8,92,8744,17.7,3.34,,9.65,0.987,86.2,,46.0,5,,,,,,,,,,,,0,0,0,0,0,0,0,0,0,0,0,0,0,0,0,0,,,,,,0.0,,,,,,,
5615444,1745474214477,,,,,,,,,,,,,,,,,,,,,,,,,,,,,,,,,,0,0,0,0,0,0,0,0,0,0,0,0,0,0,0,0,,,,,,,,,,,,,
5615464,1745474214497,0.0,128,,-0.3,-1.34,1.04,-75,1,0,1.73,1.8,96,8710,17.3,3.27,,9.68,0.982,86.2,,45.4,5,,,,,,,,,,,,0,0,0,0,0,0,0,0,0,0,0,0,0,0,0,0,,,,,,0.0,,,,,,,
5615484,1745474214518,,,,,,,,,,,,,,,,,,,,,,,20,54,26,27,0.0,24.0,0.0,0.0,2.27,,,0,0,0,0,0,0,0,0,0,0,0,0,0,0,0,0,,1,,,,,38.993927,-76.939522,35.41,27.0,28,3,0.9
5615504,1745474214538,0.0,128,,-0.28,-1.37,1.05,-75,2,-1,1.75,1.8,97,8690,16.6,3.22,,9.52,0.988,86.2,,45.4,5,,,,,,,,,,,,0,0,0,0,0,0,0,0,0,0,0,0,0,0,0,0,,,,,,0.0,,,,,,,
5615524,1745474214558,,,,,,,,,,,,,,,,,,,,,,,,,,,,,,,,,,0,0,0,0,0,0,0,0,0,0,0,0,0,0,0,0,,,,,,,,,,,,,
5615544,1745474214578,0.0,128,,-0.21,-1.17,1.07,-74,2,-0,1.6,1.8,89,8816,17.4,3.24,,9.53,0.989,86.2,,45.4,5,,,,,,,,,,,,0,0,0,0,0,0,0,0,0,0,0,0,0,0,0,0,,,,,,0.0,,,,,,,
5615564,1745474214598,,,,,,,,,,,,,,,,,,,,,,,,,,,,,,,,,,0,0,0,0,0,0,0,0,0,0,0,0,0,0,0,0,,,,,,,,,,,,,
5615584,1745474214618,0.0,129,,-0.14,-1.08,1.07,-70,2,0,1.53,1.8,85,8640,17.7,3.34,,9.53,0.989,86.2,,45.3,5,22,54,27,29,0.0,42.0,0.0,0.0,2.27,,,0,0,0,0,0,0,0,0,0,0,0,0,0,0,0,0,,1,,,,0.0,38.993927,-76.939537,36.45,27.0,28,3,0.9
5615604,1745474214638,,,,,,,,,,,,,,,,,,,,,,,,,,,,,,,,,,0,0,0,0,0,0,0,0,0,0,0,0,0,0,0,0,,,,,,,,,,,,,
5615624,1745474214658,0.0,129,,-0.13,-1.05,1.09,-66,1,1,1.52,1.8,84,8640,17.7,3.34,,9.66,0.994,86.2,,45.3,5,,,,,,,,,,,,0,0,0,0,0,0,0,0,0,0,0,0,0,0,0,0,,,,,,0.0,,,,,,,
5615644,1745474214678,,,,,,,,,,,,,,,,,,,,,,,,,,,,,,,,,,0,0,0,0,0,0,0,0,0,0,0,0,0,0,0,0,,,,,,,,,,,,,
5615664,1745474214698,0.0,128,,-0.11,-1.05,1.12,-62,1,1,1.54,1.8,85,8600,17.2,3.31,,9.65,0.998,86.2,,45.4,5,,,,,,,,,,,,0,0,0,0,0,0,0,0,0,0,0,0,0,0,0,0,,,,,,0.0,,,,,,,
5615684,1745474214720,,,,,,,,,,,,,,,,,,,,,,,23,54,27,25,0.0,239.0,0.0,0.0,2.27,,,0,0,0,0,0,0,0,0,0,0,0,0,0,0,0,0,,0,,,,,38.993931,-76.939537,38.03,27.0,28,3,0.9
5615704,1745474214740,0.0,129,,-0.07,-0.98,1.09,-58,0,-0,1.47,1.8,81,8620,17.0,3.33,,9.72,0.989,86.2,,45.4,5,,,,,,,,,,,,0,0,0,0,0,0,0,0,0,0,0,0,0,0,0,0,,,,,,0.0,,,,,,,
5615724,1745474214760,,,,,,,,,,,,,,,,,,,,,,,,,,,,,,,,,,0,0,0,0,0,0,0,0,0,0,0,0,0,0,0,0,,,,,,,,,,,,,
5615744,1745474214780,0.0,129,,-0.06,-1.08,1.04,-55,-0,0,1.5,1.8,83,8482,17.3,3.34,,9.86,0.983,86.2,,45.4,5,,,,,,,,,,,,0,0,0,0,0,0,0,0,0,0,0,0,0,0,0,0,,,,,,0.0,,,,,,,
5615764,1745474214800,,,,,,,,,,,,,,,,,,,,,,,,,,,,,,,,,,0,0,0,0,0,0,0,0,0,0,0,0,0,0,0,0,,,,,,,,,,,,,
5615784,1745474214818,0.0,129,,-0.08,-1.09,1.02,-52,0,0,1.5,1.8,83,8367,18.0,3.44,,9.86,0.983,86.2,,45.1,5,24,26,26,26,0.0,123.0,0.0,0.0,2.27,,,0,0,0,0,0,0,0,0,0,0,0,0,0,0,0,0,,1,,,,0.0,38.993935,-76.939552,38.86,27.1,28,3,0.9
5615804,1745474214838,,,,,,,,,,,,,,,,,,,,,,,,,,,,,,,,,,0,0,0,0,0,0,0,0,0,0,0,0,0,0,0,0,,,,,,,,,,,,,
5615824,1745474214858,0.0,128,,-0.09,-1.13,1.01,-49,1,1,1.52,1.8,84,8367,18.0,3.44,,9.88,0.987,86.2,,45.1,5,,,,,,,,,,,,0,0,0,0,0,0,0,0,0,0,0,0,0,0,0,0,,,,,,0.0,,,,,,,
5615844,1745474214878,,,,,,,,,,,,,,,,,,,,,,,,,,,,,,,,,,0,0,0,0,0,0,0,0,0,0,0,0,0,0,0,0,,,,,,,,,,,,,
5615864,1745474214898,0.0,128,,-0.12,-1.02,1.04,-48,2,0,1.46,1.8,81,8558,18.0,3.45,,9.89,0.983,86.2,,45.8,5,,,,,,,,,,,,0,0,0,0,0,0,0,0,0,0,0,0,0,0,0,0,,,,,,0.0,,,,,,,
5615884,1745474214918,,,,,,,,,,,,,,,,,,,,,,,24,28,25,27,0.0,31.0,0.0,0.0,2.27,,,0,0,0,0,0,0,0,0,0,0,0,0,0,0,0,0,,1,,,,,38.993935,-76.939568,39.02,27.1,28,3,0.9
5615904,1745474214938,0.0,128,,-0.14,-0.81,1.09,-48,2,1,1.37,1.8,76,8783,17.7,3.38,,9.82,0.972,86.2,,45.8,5,,,,,,,,,,,,0,0,0,0,0,0,0,0,0,0,0,0,0,0,0,0,,,,,,0.0,,,,,,,
5615924,1745474214958,,,,,,,,,,,,,,,,,,,,,,,,,,,,,,,,,,0,0,0,0,0,0,0,0,0,0,0,0,0,0,0,0,,,,,,,,,,,,,
5615944,1745474214978,0.0,128,,-0.12,-0.95,1.07,-47,2,1,1.43,1.8,79,8813,17.5,3.28,,9.56,0.967,86.2,,45.8,5,,,,,,,,,,,,0,0,0,0,0,0,0,0,0,0,0,0,0,0,0,0,,,,,,0.0,,,,,,,
5615964,1745474214998,,,,,,,,,,,,,,,,,,,,,,,,,,,,,,,,,,0,0,0,0,0,0,0,0,0,0,0,0,0,0,0,0,,,,,,,,,,,,,
5615984,1745474215008,0.0,128,,-0.12,-1.15,1.0,-47,1,1,1.53,1.8,85,8820,17.2,3.22,,9.56,0.967,86.2,,43.6,5,25,25,29,28,0.0,123.0,0.0,0.0,2.27,,,0,0,0,0,0,0,0,0,0,0,0,0,0,0,0,0,,1,,,,0.0,38.993942,-76.939575,39.84,27.1,26,3,1.0
5616004,1745474215028,,,,,,,,,,,,,,,,,,,,,,,,,,,,,,,,,,0,0,0,0,0,0,0,0,0,0,0,0,0,0,0,0,,,,,,,,,,,,,
5616024,1745474215048,0.0,128,,-0.11,-1.2,0.96,-48,1,1,1.54,1.8,85,8820,17.2,3.22,,9.5,0.974,86.2,,43.6,5,,,,,,,,,,,,0,0,0,0,0,0,0,0,0,0,0,0,0,0,0,0,,,,,,0.0,,,,,,,
5616044,1745474215068,,,,,,,,,,,,,,,,,,,,,,,,,,,,,,,,,,0,0,0,0,0,0,0,0,0,0,0,0,0,0,0,0,,,,,,,,,,,,,
5616064,1745474215088,0.0,128,,-0.13,-1.3,0.99,-48,0,1,1.64,1.8,91,9153,16.5,3.11,,9.29,0.985,86.2,,44.9,5,,,,,,,,,,,,0,0,0,0,0,0,0,0,0,0,0,0,0,0,0,0,,,,,,0.0,,,,,,,
5616084,1745474215118,,,,,,,,,,,,,,,,,,,,,,,24,27,28,28,0.0,206.0,0.0,0.0,2.27,,,0,0,0,0,0,0,0,0,0,0,0,0,0,0,0,0,,1,,,,,38.99395,-76.939583,40.51,27.1,26,3,1.0
5616104,1745474215138,0.0,128,,-0.15,-1.27,0.99,-51,0,1,1.61,1.8,89,9332,15.5,3.03,,8.97,0.989,86.2,,44.9,5,,,,,,,,,,,,0,0,0,0,0,0,0,0,0,0,0,0,0,0,0,0,,,,,,0.0,,,,,,,
5616124,1745474215158,,,,,,,,,,,,,,,,,,,,,,,,,,,,,,,,,,0,0,0,0,0,0,0,0,0,0,0,0,0,0,0,0,,,,,,,,,,,,,
5616144,1745474215178,0.0,127,,-0.15,-1.28,0.98,-52,0,1,1.62,1.8,90,9326,11.2,2.73,,8.58,1.01,86.2,,44.9,5,,,,,,,,,,,,0,0,0,0,0,0,0,0,0,0,0,0,0,0,0,0,,,,,,0.0,,,,,,,
5616164,1745474215198,,,,,,,,,,,,,,,,,,,,,,,,,,,,,,,,,,0,0,0,0,0,0,0,0,0,0,0,0,0,0,0,0,,,,,,,,,,,,,
5616184,1745474215216,0.0,128,,-0.14,-1.26,1.0,-54,0,1,1.61,1.8,89,9276,9.9,2.47,,8.58,1.01,86.2,,44.1,5,25,28,28,29,0.0,242.0,0.0,0.0,2.25,,,0,0,0,0,0,0,0,0,0,0,0,0,0,0,0,0,,1,,,,0.0,38.993958,-76.939598,40.32,27.2,28,3,1.0
5616204,1745474215236,,,,,,,,,,,,,,,,,,,,,,,,,,,,,,,,,,0,0,0,0,0,0,0,0,0,0,0,0,0,0,0,0,,,,,,,,,,,,,
5616224,1745474215256,0.0,129,,-0.14,-1.09,0.98,-56,0,1,1.48,1.8,82,9276,9.9,2.47,,8.21,1.013,86.2,,44.1,5,,,,,,,,,,,,0,0,0,0,0,0,0,0,0,0,0,0,0,0,0,0,,,,,,0.0,,,,,,,
5616244,1745474215276,,,,,,,,,,,,,,,,,,,,,,,,,,,,,,,,,,0,0,0,0,0,0,0,0,0,0,0,0,0,0,0,0,,,,,,,,,,,,,
5616264,1745474215296,0.0,127,,-0.17,-1.19,0.97,-57,-0,1,1.55,1.8,86,9232,9.4,2.41,,7.89,1.008,86.2,,43.6,5,,,,,,,,,,,,0,0,0,0,0,0,0,0,0,0,0,0,0,0,0,0,,,,,,0.0,,,,,,,
5616284,1745474215320,,,,,,,,,,,,,,,,,,,,,,,22,27,29,28,0.0,22.0,0.0,0.0,2.26,,,0,0,0,0,0,0,0,0,0,0,0,0,0,0,0,0,,0,,,,,38.993961,-76.939606,40.02,27.2,28,3,1.0
5616304,1745474215340,0.0,128,,-0.22,-1.4,1.0,-59,0,0,1.73,1.73,100,9206,9.2,2.33,,7.62,1.016,86.2,,43.6,5,,,,,,,,,,,,0,0,0,0,0,0,0,0,0,0,0,0,0,0,0,0,,,,,,0.0,,,,,,,
5616324,1745474215360,,,,,,,,,,,,,,,,,,,,,,,,,,,,,,,,,,0,0,0,0,0,0,0,0,0,0,0,0,0,0,0,0,,,,,,,,,,,,,
5616344,1745474215380,0.0,128,,-0.26,-1.34,0.98,-62,1,1,1.68,1.73,97,9166,9.1,2.31,,7.38,1.021,86.2,,43.6,5,,,,,,,,,,,,0,0,0,0,0,0,0,0,0,0,0,0,0,0,0,0,,,,,,0.0,,,,,,,
5616364,1745474215400,,,,,,,,,,,,,,,,,,,,,,,,,,,,,,,,,,0,0,0,0,0,0,0,0,0,0,0,0,0,0,0,0,,,,,,,,,,,,,
5616384,1745474215420,0.0,128,13.25,-0.31,-1.07,1.0,-65,1,1,1.49,1.73,86,9047,9.3,2.31,15,7.38,1.021,86.2,169,42.6,5,22,26,27,28,0.0,17.0,0.0,0.0,2.27,0,1.0,0,0,0,0,0,0,0,0,0,0,0,0,0,0,0,0,0,1,1.0,0,-0,0.0,38.993969,-76.939613,39.77,27.2,28,3,1.0
5616404,1745474215440,,,,,,,,,,,,,,,,,,,,,,,,,,,,,,,,,,0,0,0,0,0,0,0,0,0,0,0,0,0,0,0,0,,,,,,,,,,,,,
5616424,1745474215460,0.0,128,,-0.35,-0.83,0.97,-66,1,1,1.32,1.73,76,9047,9.3,2.31,,7.43,1.026,86.2,,42.6,5,,,,,,,,,,,,0,0,0,0,0,0,0,0,0,0,0,0,0,0,0,0,,,,,,0.0,,,,,,,
5616444,1745474215480,,,,,,,,,,,,,,,,,,,,,,,,,,,,,,,,,,0,0,0,0,0,0,0,0,0,0,0,0,0,0,0,0,,,,,,,,,,,,,
5616464,1745474215500,0.0,128,,-0.35,-0.65,1.0,-68,1,1,1.24,1.73,72,8930,9.0,2.32,,7.39,1.04,86.2,,42.4,5,,,,,,,,,,,,0,0,0,0,0,0,0,0,0,0,0,0,0,0,0,0,,,,,,0.0,,,,,,,
5616484,1745474215518,,,,,,,,,,,,,,,,,,,,,,,22,25,28,27,0.0,23.0,0.0,0.0,2.27,,,0,0,0,0,0,0,0,0,0,0,0,0,0,0,0,0,,0,,,,,38.993977,-76.939621,37.87,27.3,28,3,1.0
5616504,1745474215538,0.0,128,,-0.38,-0.54,1.03,-69,1,1,1.22,1.73,70,8923,8.9,2.3,,7.39,1.044,86.2,,42.4,5,,,,,,,,,,,,0,0,0,0,0,0,0,0,0,0,0,0,0,0,0,0,,,,,,0.0,,,,,,,
5616524,1745474215558,,,,,,,,,,,,,,,,,,,,,,,,,,,,,,,,,,0,0,0,0,0,0,0,0,0,0,0,0,0,0,0,0,,,,,,,,,,,,,
5616544,1745474215578,0.0,128,,-0.39,-0.65,1.07,-71,1,1,1.31,1.73,76,8872,9.4,2.34,,7.38,1.036,86.2,,42.4,5,,,,,,,,,,,,0,0,0,0,0,0,0,0,0,0,0,0,0,0,0,0,,,,,,0.0,,,,,,,
5616564,1745474215598,,,,,,,,,,,,,,,,,,,,,,,,,,,,,,,,,,0,0,0,0,0,0,0,0,0,0,0,0,0,0,0,0,,,,,,,,,,,,,
5616584,1745474215619,0.0,128,,-0.4,-0.89,1.07,-71,0,1,1.45,1.73,83,8778,9.3,2.31,,7.38,1.036,86.2,,42.1,5,20,25,26,26,0.0,82.0,0.0,0.0,2.27,,,0,0,0,0,0,0,0,0,0,0,0,0,0,0,0,0,,1,,,,0.0,38.993984,-76.939629,37.55,27.3,28,3,1.0
5616604,1745474215639,,,,,,,,,,,,,,,,,,,,,,,,,,,,,,,,,,0,0,0,0,0,0,0,0,0,0,0,0,0,0,0,0,,,,,,,,,,,,,
5616624,1745474215659,0.0,128,,-0.42,-0.93,1.05,-71,0,1,1.47,1.73,85,8778,9.3,2.31,,7.39,1.029,86.2,,42.1,5,,,,,,,,,,,,0,0,0,0,0,0,0,0,0,0,0,0,0,0,0,0,,,,,,0.0,,,,,,,
5616644,1745474215679,,,,,,,,,,,,,,,,,,,,,,,,,,,,,,,,,,0,0,0,0,0,0,0,0,0,0,0,0,0,0,0,0,,,,,,,,,,,,,
5616664,1745474215699,0.0,128,,-0.4,-1.0,1.02,-72,0,1,1.48,1.73,85,8657,9.0,2.38,,7.47,1.032,86.2,,41.5,5,,,,,,,,,,,,0,0,0,0,0,0,0,0,0,0,0,0,0,0,0,0,,,,,,0.0,,,,,,,
5616684,1745474215719,,,,,,,,,,,,,,,,,,,,,,,20,25,27,27,0.0,32.0,0.0,0.0,2.27,,,0,0,0,0,0,0,0,0,0,0,0,0,0,0,0,0,,1,,,,,38.993996,-76.939629,37.85,27.3,28,3,1.0
5616704,1745474215739,0.0,128,,-0.42,-1.07,0.99,-73,1,1,1.52,1.73,87,8586,9.4,2.41,,7.54,1.032,86.2,,41.5,5,,,,,,,,,,,,0,0,0,0,0,0,0,0,0,0,0,0,0,0,0,0,,,,,,0.0,,,,,,,
5616724,1745474215759,,,,,,,,,,,,,,,,,,,,,,,,,,,,,,,,,,0,0,0,0,0,0,0,0,0,0,0,0,0,0,0,0,,,,,,,,,,,,,
5616744,1745474215779,0.0,128,,-0.41,-1.11,0.98,-74,1,1,1.54,1.73,89,8505,9.6,2.46,,7.59,1.033,86.2,,41.5,5,,,,,,,,,,,,0,0,0,0,0,0,0,0,0,0,0,0,0,0,0,0,,,,,,0.0,,,,,,,
5616764,1745474215799,,,,,,,,,,,,,,,,,,,,,,,,,,,,,,,,,,0,0,0,0,0,0,0,0,0,0,0,0,0,0,0,0,,,,,,,,,,,,,
5616784,1745474215819,0.0,128,,-0.39,-1.19,1.0,-75,1,1,1.6,1.73,93,8436,10.1,2.54,,7.59,1.033,86.2,,41.4,5,20,26,24,25,0.0,129.0,0.0,0.0,2.27,,,0,0,0,0,0,0,0,0,0,0,0,0,0,0,0,0,,0,,,,0.0,38.994003,-76.939636,35.99,27.3,28,3,1.0
5616804,1745474215839,,,,,,,,,,,,,,,,,,,,,,,,,,,,,,,,,,0,0,0,0,0,0,0,0,0,0,0,0,0,0,0,0,,,,,,,,,,,,,
5616824,1745474215859,0.0,128,,-0.39,-1.23,0.97,-76,1,1,1.62,1.73,93,8436,10.1,2.54,,7.82,1.04,86.2,,41.4,5,,,,,,,,,,,,0,0,0,0,0,0,0,0,0,0,0,0,0,0,0,0,,,,,,0.0,,,,,,,
5616844,1745474215879,,,,,,,,,,,,,,,,,,,,,,,,,,,,,,,,,,0,0,0,0,0,0,0,0,0,0,0,0,0,0,0,0,,,,,,,,,,,,,
5616864,1745474215899,0.0,128,,-0.39,-1.22,0.98,-76,1,1,1.61,1.73,93,8339,10.7,2.58,,8.02,1.033,86.2,,41.9,5,,,,,,,,,,,,0,0,0,0,0,0,0,0,0,0,0,0,0,0,0,0,,,,,,0.0,,,,,,,
5616884,1745474215919,,,,,,,,,,,,,,,,,,,,,,,19,22,25,25,0.0,104.0,0.0,0.0,2.26,,,0,0,0,0,0,0,0,0,0,0,0,0,0,0,0,0,,1,,,,,38.994011,-76.939636,35.39,27.3,28,3,1.0
5616904,1745474215939,0.0,128,,-0.38,-1.23,0.96,-76,1,1,1.61,1.73,93,8291,10.8,2.65,,8.26,1.025,86.2,,41.9,5,,,,,,,,,,,,0,0,0,0,0,0,0,0,0,0,0,0,0,0,0,0,,,,,,0.0,,,,,,,
5616924,1745474215959,,,,,,,,,,,,,,,,,,,,,,,,,,,,,,,,,,0,0,0,0,0,0,0,0,0,0,0,0,0,0,0,0,,,,,,,,,,,,,
5616944,1745474215979,0.0,128,,-0.36,-1.21,0.98,-75,1,0,1.6,1.73,92,8208,11.1,2.72,,8.43,1.022,86.2,,41.9,5,,,,,,,,,,,,0,0,0,0,0,0,0,0,0,0,0,0,0,0,0,0,,,,,,0.0,,,,,,,
5616964,1745474215999,,,,,,,,,,,,,,,,,,,,,,,,,,,,,,,,,,0,0,0,0,0,0,0,0,0,0,0,0,0,0,0,0,,,,,,,,,,,,,
5616984,1745474216009,0.0,128,,-0.35,-1.28,0.97,-74,1,0,1.65,1.73,95,8116,12.0,2.79,,8.43,1.022,86.2,,42.2,5,19,24,24,25,0.0,16.0,0.0,0.0,2.27,,,0,0,0,0,0,0,0,0,0,0,0,0,0,0,0,0,,1,,,,0.0,38.994019,-76.939636,34.23,27.4,28,3,0.9
5617004,1745474216029,,,,,,,,,,,,,,,,,,,,,,,,,,,,,,,,,,0,0,0,0,0,0,0,0,0,0,0,0,0,0,0,0,,,,,,,,,,,,,
5617024,1745474216049,0.0,129,,-0.34,-1.27,0.93,-73,1,0,1.61,1.73,93,8116,12.0,2.79,,8.58,1.021,86.2,,42.2,5,,,,,,,,,,,,0,0,0,0,0,0,0,0,0,0,0,0,0,0,0,0,,,,,,0.0,,,,,,,
5617044,1745474216069,,,,,,,,,,,,,,,,,,,,,,,,,,,,,,,,,,0,0,0,0,0,0,0,0,0,0,0,0,0,0,0,0,,,,,,,,,,,,,
5617064,1745474216089,0.0,129,,-0.33,-1.2,0.96,-70,1,0,1.57,1.73,91,7971,12.9,2.9,,8.93,1.015,86.2,,42.5,5,,,,,,,,,,,,0,0,0,0,0,0,0,0,0,0,0,0,0,0,0,0,,,,,,0.0,,,,,,,
5617084,1745474216119,,,,,,,,,,,,,,,,,,,,,,,20,24,25,22,0.0,228.0,0.0,0.0,2.27,,,0,0,0,0,0,0,0,0,0,0,0,0,0,0,0,0,,0,,,,,38.99403,-76.939629,34.42,27.4,28,3,0.9
5617104,1745474216139,0.0,128,,-0.31,-1.27,0.94,-70,1,-0,1.61,1.73,93,7893,13.4,3.09,,9.21,1.019,86.2,,42.5,5,,,,,,,,,,,,0,0,0,0,0,0,0,0,0,0,0,0,0,0,0,0,,,,,,0.0,,,,,,,
5617124,1745474216159,,,,,,,,,,,,,,,,,,,,,,,,,,,,,,,,,,0,0,0,0,0,0,0,0,0,0,0,0,0,0,0,0,,,,,,,,,,,,,
5617144,1745474216179,0.0,129,,-0.28,-1.24,1.0,-68,1,0,1.62,1.73,93,7880,14.1,3.1,,9.39,1.025,86.2,,42.5,5,,,,,,,,,,,,0,0,0,0,0,0,0,0,0,0,0,0,0,0,0,0,,,,,,0.0,,,,,,,
5617164,1745474216199,,,,,,,,,,,,,,,,,,,,,,,,,,,,,,,,,,0,0,0,0,0,0,0,0,0,0,0,0,0,0,0,0,,,,,,,,,,,,,
5617184,1745474216219,0.0,128,,-0.29,-1.31,0.95,-67,0,0,1.65,1.73,95,7865,14.8,3.22,,9.39,1.025,86.2,,42.8,5,20,16,23,22,0.0,254.0,0.0,0.0,2.27,,,0,0,0,0,0,0,0,0,0,0,0,0,0,0,0,0,,0,,,,0.0,38.994034,-76.939629,33.87,27.4,28,3,0.9
5617204,1745474216239,,,,,,,,,,,,,,,,,,,,,,,,,,,,,,,,,,0,0,0,0,0,0,0,0,0,0,0,0,0,0,0,0,,,,,,,,,,,,,
5617224,1745474216259,0.0,129,,-0.26,-1.26,0.99,-64,0,0,1.62,1.73,93,7865,14.8,3.22,,9.68,1.022,86.2,,42.8,5,,,,,,,,,,,,0,0,0,0,0,0,0,0,0,0,0,0,0,0,0,0,,,,,,0.0,,,,,,,
5617244,1745474216279,,,,,,,,,,,,,,,,,,,,,,,,,,,,,,,,,,0,0,0,0,0,0,0,0,0,0,0,0,0,0,0,0,,,,,,,,,,,,,
5617264,1745474216299,0.0,128,,-0.2,-1.3,0.96,-62,1,-0,1.63,1.63,100,7874,15.5,3.28,,9.72,1.027,86.2,,43.7,5,,,,,,,,,,,,0,0,0,0,0,0,0,0,0,0,0,0,0,0,0,0,,,,,,0.0,,,,,,,
5617284,1745474216320,,,,,,,,,,,,,,,,,,,,,,,21,16,23,23,0.0,170.0,0.0,0.0,2.27,,,0,0,0,0,0,0,0,0,0,0,0,0,0,0,0,0,,0,,,,,38.994045,-76.939621,34.63,27.4,28,3,0.9
5617304,1745474216340,0.0,130,,-0.13,-1.14,0.97,-59,1,-0,1.5,1.63,92,7891,17.2,3.53,,10.0,1.019,86.2,,43.7,5,,,,,,,,,,,,0,0,0,0,0,0,0,0,0,0,0,0,0,0,0,0,,,,,,0.0,,,,,,,
5617324,1745474216360,,,,,,,,,,,,,,,,,,,,,,,,,,,,,,,,,,0,0,0,0,0,0,0,0,0,0,0,0,0,0,0,0,,,,,,,,,,,,,
5617344,1745474216380,0.0,129,,-0.1,-1.26,0.91,-56,1,-0,1.55,1.63,95,7856,17.7,3.73,,10.18,1.009,86.2,,43.7,5,,,,,,,,,,,,0,0,0,0,0,0,0,0,0,0,0,0,0,0,0,0,,,,,,0.0,,,,,,,
5617364,1745474216400,,,,,,,,,,,,,,,,,,,,,,,,,,,,,,,,,,0,0,0,0,0,0,0,0,0,0,0,0,0,0,0,0,,,,,,,,,,,,,
5617384,1745474216419,0.0,129,13.25,-0.07,-1.08,0.94,-52,1,1,1.44,1.63,88,7800,18.1,3.81,15,10.18,1.009,86.2,169,42.8,5,21,16,23,22,0.0,158.0,0.0,0.0,2.27,0,1.0,0,0,0,0,0,0,0,0,0,0,0,0,0,0,0,0,0,0,1.0,0,-0,0.0,38.994053,-76.939613,35.15,27.4,28,3,0.9
5617404,1745474216439,,,,,,,,,,,,,,,,,,,,,,,,,,,,,,,,,,0,0,0,0,0,0,0,0,0,0,0,0,0,0,0,0,,,,,,,,,,,,,
5617424,1745474216459,0.0,129,,-0.1,-1.14,0.91,-51,1,1,1.46,1.63,90,7800,18.1,3.81,,10.42,0.999,86.2,,42.8,5,,,,,,,,,,,,0,0,0,0,0,0,0,0,0,0,0,0,0,0,0,0,,,,,,0.0,,,,,,,
