"Interval"|"ms"|0|0|1,"Utc"|"ms"|0|0|1,"FrontBP"|"psi"|-5.0|5.0|25,"SteerAng"|"Degrees"|-145|145|25,"Battery"|"Volts"|-5.0|20.0|1,"AccelX"|"G"|-3.0|3.0|25,"AccelY"|"G"|-3.0|3.0|25,"AccelZ"|"G"|-3.0|3.0|25,"Yaw"|"Deg/Sec"|-120|120|25,"Pitch"|"Deg/Sec"|-120|120|25,"Roll"|"Deg/Sec"|-120|120|25,"Gsum"|"G"|0.0|3.0|25,"GsumMax"|"G"|0.0|3.0|25,"GsumPct"|"%"|0|100|25,"RPM"|""|0|10000|25,"TPS"|"%"|0.0|100.0|25,"InjectorPW"|"ms"|0.0|100.0|25,"Baro"|"kPa"|0|105|1,"MAP"|"Psi"|0.0|255.0|25,"Lambda"|""|-2.0|2.0|25,"IAT"|"C"|0.0|200.0|25,"EngineTemp"|"C"|0|200|1,"EOP"|"PSI"|0.0|152.0|25,"EOT"|"F"|0|250|25,"WSFR"|"MPH"|0|150|10,"WSFL"|"MPH"|0|100|10,"WSRR"|"MPH"|0|100|10,"WSRL"|""|0|100|10,"TCSet"|"%"|0.0|100.0|10,"TCSlip"|"%"|0.0|100.0|10,"TCComp"|"deg"|0.0|50.0|10,"TCCut"|"%"|0.0|100.0|10,"Analog8"|""|0.0|5.0|10,"OilTemp"|"F"|0|300|1,"AA_On"|""|0.0|1.0|1,"ThermLF1"|"C"|0|400|50,"ThermLF2"|"C"|0|400|50,"ThermRR1"|"C"|0|400|50,"ThermRR2"|"C"|0|400|50,"ThermLF3"|"C"|0|400|50,"ThermLF4"|"C"|0|400|50,"ThermLF5"|"C"|0|400|50,"ThermLF6"|"C"|0|400|50,"ThermLF7"|"C"|0|400|50,"ThermLF8"|"C"|0|400|50,"ThermRR3"|"C"|0|400|50,"ThermRR4"|"C"|0|400|50,"ThermRR5"|"C"|0|400|50,"ThermRR6"|"C"|0|400|50,"ThermRR7"|"C"|0|400|50,"ThermRR8"|"C"|0|400|50,"AA_LowDrag"|""|0|1|1,"Gear"|""|1|6|10,"AA_On"|""|0.0|1.0|1,"AA_LowDrag"|""|0|1|1,"Fuel_Mix"|""|-10|10|1,"AA_Packages"|""|0.0|1000.0|25,"Latitude"|"Degrees"|-180.0|180.0|10,"Longitude"|"Degrees"|-180.0|180.0|10,"Speed"|"kph"|0.0|150.0|10,"Altitude"|"m"|0.0|4000.0|10,"GPSSats"|""|0|20|10,"GPSQual"|""|0|5|10,"GPSDOP"|""|0.0|20.0|10
6623304,1745475222338,0.0,91,,-0.21,0.27,0.96,-0,-0,1,1.02,1.02,100,6779,0.1,1.4,,6.42,1.25,100.6,,46.2,5,,,,,,,,,,,,0,0,0,0,0,0,0,0,0,0,0,0,0,0,0,0,,,,,,0.0,,,,,,,
6623324,1745475222358,,,,,,,,,,,,,,,,,,,,,,,,,,,,,,,,,,0,0,0,0,0,0,0,0,0,0,0,0,0,0,0,0,,,,,,,,,,,,,
6623344,1745475222378,0.0,119,,-0.17,0.17,0.89,-0,-0,0,0.92,1.02,90,6373,7.4,1.4,,6.42,1.25,100.6,,45.7,5,,,,,,,,,,,,0,0,0,0,0,0,0,0,0,0,0,0,0,0,0,0,,,,,,0.0,,,,,,,
6623364,1745475222398,,,,,,,,,,,,,,,,,,,,,,,,,,,,,,,,,,0,0,0,0,0,0,0,0,0,0,0,0,0,0,0,0,,,,,,,,,,,,,
6623384,1745475222418,0.0,105,12.95,-0.08,0.1,0.92,1,-0,0,0.93,1.02,91,6373,7.4,1.4,15,7.11,1.248,100.6,164,45.7,5,0,0,0,0,0.0,0.0,0.0,0.0,2.26,0,1.0,0,0,0,0,0,0,0,0,0,0,0,0,0,0,0,0,0,0,1.0,0,0,0.0,38.994099,-76.939659,0.13,26.1,33,3,0.8
6623404,1745475222438,,,,,,,,,,,,,,,,,,,,,,,,,,,,,,,,,,0,0,0,0,0,0,0,0,0,0,0,0,0,0,0,0,,,,,,,,,,,,,
6623424,1745475222458,0.0,95,,-0.03,-0.01,0.85,1,-0,-0,0.85,1.02,83,5953,32.3,3.12,,10.33,1.248,100.6,,44.1,5,,,,,,,,,,,,0,0,0,0,0,0,0,0,0,0,0,0,0,0,0,0,,,,,,0.0,,,,,,,
6623444,1745475222478,,,,,,,,,,,,,,,,,,,,,,,,,,,,,,,,,,0,0,0,0,0,0,0,0,0,0,0,0,0,0,0,0,,,,,,,,,,,,,
6623464,1745475222497,0.0,102,,-0.08,-0.09,0.83,0,-0,-0,0.84,1.02,82,5681,57.4,5.69,,13.86,1.248,100.6,,44.1,5,,,,,,,,,,,,0,0,0,0,0,0,0,0,0,0,0,0,0,0,0,0,,,,,,0.0,,,,,,,
6623484,1745475222517,,,,,,,,,,,,,,,,,,,,,,,0,0,0,0,0.0,0.0,0.0,0.0,2.27,,,0,0,0,0,0,0,0,0,0,0,0,0,0,0,0,0,,0,,,,,38.994099,-76.939659,0.05,26.1,33,3,0.8
6623504,1745475222537,0.0,78,,-0.11,0.08,1.01,2,-0,0,1.02,1.02,100,5844,63.5,5.48,,14.3,1.248,100.6,,44.1,5,,,,,,,,,,,,0,0,0,0,0,0,0,0,0,0,0,0,0,0,0,0,,,,,,0.0,,,,,,,
6623524,1745475222557,,,,,,,,,,,,,,,,,,,,,,,,,,,,,,,,,,0,0,0,0,0,0,0,0,0,0,0,0,0,0,0,0,,,,,,,,,,,,,
6623544,1745475222577,0.0,95,,-0.15,0.22,1.09,4,-0,0,1.12,1.12,100,6236,63.6,5.12,,14.3,1.248,100.6,,43.4,5,,,,,,,,,,,,0,0,0,0,0,0,0,0,0,0,0,0,0,0,0,0,,,,,,0.0,,,,,,,
6623564,1745475222597,,,,,,,,,,,,,,,,,,,,,,,,,,,,,,,,,,0,0,0,0,0,0,0,0,0,0,0,0,0,0,0,0,,,,,,,,,,,,,
6623584,1745475222617,0.0,91,,-0.16,0.19,1.07,3,-0,0,1.09,1.12,97,6236,63.6,5.12,,14.27,1.249,98.8,,43.4,5,0,0,0,0,0.0,0.0,0.0,0.0,2.27,,,0,0,0,0,0,0,0,0,0,0,0,0,0,0,0,0,,0,,,,0.0,38.994099,-76.939659,0.08,26.1,33,3,0.8
6623604,1745475222637,,,,,,,,,,,,,,,,,,,,,,,,,,,,,,,,,,0,0,0,0,0,0,0,0,0,0,0,0,0,0,0,0,,,,,,,,,,,,,
6623624,1745475222657,0.0,91,,-0.09,0.1,1.05,3,-0,0,1.06,1.12,94,6831,33.9,5.43,,13.59,1.25,98.8,,45.4,5,,,,,,,,,,,,0,0,0,0,0,0,0,0,0,0,0,0,0,0,0,0,,,,,,0.0,,,,,,,
6623644,1745475222677,,,,,,,,,,,,,,,,,,,,,,,,,,,,,,,,,,0,0,0,0,0,0,0,0,0,0,0,0,0,0,0,0,,,,,,,,,,,,,
6623664,1745475222699,0.0,98,,-0.11,0.24,1.04,3,-0,0,1.07,1.12,95,7694,13.9,5.17,,11.71,1.24,98.8,,45.4,5,,,,,,,,,,,,0,0,0,0,0,0,0,0,0,0,0,0,0,0,0,0,,,,,,0.0,,,,,,,
6623684,1745475222719,,,,,,,,,,,,,,,,,,,,,,,0,0,0,0,0.0,0.0,0.0,0.0,2.26,,,0,0,0,0,0,0,0,0,0,0,0,0,0,0,0,0,,0,,,,,38.994099,-76.939659,0.1,26.1,33,3,0.8
6623704,1745475222739,0.0,74,,-0.09,0.15,1.01,3,-0,-0,1.03,1.12,92,8373,3.3,3.03,,9.82,1.1,98.8,,45.4,5,,,,,,,,,,,,0,0,0,0,0,0,0,0,0,0,0,0,0,0,0,0,,,,,,0.0,,,,,,,
6623724,1745475222759,,,,,,,,,,,,,,,,,,,,,,,,,,,,,,,,,,0,0,0,0,0,0,0,0,0,0,0,0,0,0,0,0,,,,,,,,,,,,,
6623744,1745475222779,0.0,102,,-0.08,0.25,1.0,2,-0,-0,1.03,1.12,92,8682,0.3,1.4,,9.82,1.1,98.8,,46.5,5,,,,,,,,,,,,0,0,0,0,0,0,0,0,0,0,0,0,0,0,0,0,,,,,,0.0,,,,,,,
6623764,1745475222797,,,,,,,,,,,,,,,,,,,,,,,,,,,,,,,,,,0,0,0,0,0,0,0,0,0,0,0,0,0,0,0,0,,,,,,,,,,,,,
6623784,1745475222817,0.0,108,,-0.06,0.31,1.01,2,-0,-0,1.05,1.12,94,8682,0.3,1.4,,8.02,0.927,98.8,,46.5,5,0,0,0,0,0.0,0.0,0.0,0.0,2.26,,,0,0,0,0,0,0,0,0,0,0,0,0,0,0,0,0,,0,,,,0.0,38.994099,-76.939659,0.05,26.1,33,3,0.8
6623804,1745475222837,,,,,,,,,,,,,,,,,,,,,,,,,,,,,,,,,,0,0,0,0,0,0,0,0,0,0,0,0,0,0,0,0,,,,,,,,,,,,,
6623824,1745475222857,0.0,98,,-0.08,0.16,0.97,1,-0,-0,0.99,1.12,88,8143,0.3,1.4,,7.07,0.949,98.8,,46.9,5,,,,,,,,,,,,0,0,0,0,0,0,0,0,0,0,0,0,0,0,0,0,,,,,,0.0,,,,,,,
6623844,1745475222877,,,,,,,,,,,,,,,,,,,,,,,,,,,,,,,,,,0,0,0,0,0,0,0,0,0,0,0,0,0,0,0,0,,,,,,,,,,,,,
6623864,1745475222899,0.0,98,,-0.06,0.01,0.98,1,-0,-0,0.98,1.12,87,7564,0.1,1.4,,6.67,1.213,98.8,,46.9,5,,,,,,,,,,,,0,0,0,0,0,0,0,0,0,0,0,0,0,0,0,0,,,,,,0.0,,,,,,,
6623884,1745475222919,,,,,,,,,,,,,,,,,,,,,,,0,0,0,0,0.0,0.0,0.0,0.0,2.26,,,0,0,0,0,0,0,0,0,0,0,0,0,0,0,0,0,,0,,,,,38.994099,-76.939659,0.18,26.1,33,3,0.8
6623904,1745475222939,0.0,85,,-0.08,0.05,1.0,1,-0,-0,1.0,1.12,89,7056,0.0,1.4,,6.58,1.248,98.8,,46.9,5,,,,,,,,,,,,0,0,0,0,0,0,0,0,0,0,0,0,0,0,0,0,,,,,,0.0,,,,,,,
6623924,1745475222959,,,,,,,,,,,,,,,,,,,,,,,,,,,,,,,,,,0,0,0,0,0,0,0,0,0,0,0,0,0,0,0,0,,,,,,,,,,,,,
6623944,1745475222979,0.0,88,,-0.05,0.04,0.99,1,-0,-0,0.99,1.12,88,6631,0.0,1.4,,6.58,1.248,98.8,,46.8,5,,,,,,,,,,,,0,0,0,0,0,0,0,0,0,0,0,0,0,0,0,0,,,,,,0.0,,,,,,,
6623964,1745475222999,,,,,,,,,,,,,,,,,,,,,,,,,,,,,,,,,,0,0,0,0,0,0,0,0,0,0,0,0,0,0,0,0,,,,,,,,,,,,,
6623984,1745475223009,0.0,91,,-0.08,0.08,1.02,1,-0,-0,1.02,1.12,91,6631,0.0,1.4,,6.75,1.248,98.8,,46.8,5,0,0,0,0,0.0,0.0,0.0,0.0,2.27,,,0,0,0,0,0,0,0,0,0,0,0,0,0,0,0,0,,0,,,,0.0,38.994099,-76.939659,0.09,26.1,33,3,0.8
6624004,1745475223029,,,,,,,,,,,,,,,,,,,,,,,,,,,,,,,,,,0,0,0,0,0,0,0,0,0,0,0,0,0,0,0,0,,,,,,,,,,,,,
6624024,1745475223049,0.0,95,,-0.13,0.16,1.11,0,-0,0,1.13,1.13,100,6117,0.0,1.4,,6.98,1.249,98.8,,45.2,5,,,,,,,,,,,,0,0,0,0,0,0,0,0,0,0,0,0,0,0,0,0,,,,,,0.0,,,,,,,
6624044,1745475223069,,,,,,,,,,,,,,,,,,,,,,,,,,,,,,,,,,0,0,0,0,0,0,0,0,0,0,0,0,0,0,0,0,,,,,,,,,,,,,
6624064,1745475223097,0.0,102,,-0.11,0.15,1.1,1,-0,0,1.11,1.13,99,5663,12.7,2.39,,8.25,1.251,98.8,,45.2,5,,,,,,,,,,,,0,0,0,0,0,0,0,0,0,0,0,0,0,0,0,0,,,,,,0.0,,,,,,,
6624084,1745475223117,,,,,,,,,,,,,,,,,,,,,,,0,0,0,0,0.0,0.0,0.0,0.0,2.26,,,0,0,0,0,0,0,0,0,0,0,0,0,0,0,0,0,,0,,,,,38.994099,-76.939659,0.27,26.1,33,3,0.8
6624104,1745475223137,0.0,98,,-0.11,0.11,1.07,1,-0,0,1.08,1.13,96,5314,38.2,3.85,,11.89,1.251,98.8,,45.2,5,,,,,,,,,,,,0,0,0,0,0,0,0,0,0,0,0,0,0,0,0,0,,,,,,0.0,,,,,,,
6624124,1745475223157,,,,,,,,,,,,,,,,,,,,,,,,,,,,,,,,,,0,0,0,0,0,0,0,0,0,0,0,0,0,0,0,0,,,,,,,,,,,,,
6624144,1745475223177,0.0,102,,-0.11,0.07,1.06,0,-0,0,1.07,1.13,95,5052,53.8,5.62,,11.89,1.251,98.8,,42.5,5,,,,,,,,,,,,0,0,0,0,0,0,0,0,0,0,0,0,0,0,0,0,,,,,,0.0,,,,,,,
6624164,1745475223193,,,,,,,,,,,,,,,,,,,,,,,,,,,,,,,,,,0,0,0,0,0,0,0,0,0,0,0,0,0,0,0,0,,,,,,,,,,,,,
6624184,1745475223213,0.0,95,,-0.1,0.05,1.05,0,-0,0,1.05,1.13,93,5052,53.8,5.62,,14.12,1.251,98.8,,42.5,5,0,0,0,0,0.0,0.0,0.0,0.0,2.26,,,0,0,0,0,0,0,0,0,0,0,0,0,0,0,0,0,,0,,,,0.0,38.994099,-76.939659,0.22,26.1,33,3,0.8
6624204,1745475223233,,,,,,,,,,,,,,,,,,,,,,,,,,,,,,,,,,0,0,0,0,0,0,0,0,0,0,0,0,0,0,0,0,,,,,,,,,,,,,
6624224,1745475223253,0.0,95,,-0.1,0.04,1.08,1,-0,0,1.09,1.13,97,5406,58.2,5.38,,14.3,1.25,98.8,,43.3,5,,,,,,,,,,,,0,0,0,0,0,0,0,0,0,0,0,0,0,0,0,0,,,,,,0.0,,,,,,,
6624244,1745475223273,,,,,,,,,,,,,,,,,,,,,,,,,,,,,,,,,,0,0,0,0,0,0,0,0,0,0,0,0,0,0,0,0,,,,,,,,,,,,,
6624264,1745475223299,0.0,85,,-0.09,0.03,0.98,0,-0,0,0.98,1.13,87,5660,53.8,5.11,,14.15,1.249,98.8,,43.3,5,,,,,,,,,,,,0,0,0,0,0,0,0,0,0,0,0,0,0,0,0,0,,,,,,0.0,,,,,,,
6624284,1745475223319,,,,,,,,,,,,,,,,,,,,,,,0,0,0,0,0.0,0.0,0.0,0.0,2.26,,,0,0,0,0,0,0,0,0,0,0,0,0,0,0,0,0,,0,,,,,38.994099,-76.939659,0.04,26.1,33,3,0.8
6624304,1745475223339,0.0,78,,-0.1,-0.0,0.91,-0,-0,-0,0.91,1.13,81,5972,24.3,4.97,,13.39,1.248,98.8,,43.3,5,,,,,,,,,,,,0,0,0,0,0,0,0,0,0,0,0,0,0,0,0,0,,,,,,0.0,,,,,,,
6624324,1745475223359,,,,,,,,,,,,,,,,,,,,,,,,,,,,,,,,,,0,0,0,0,0,0,0,0,0,0,0,0,0,0,0,0,,,,,,,,,,,,,
6624344,1745475223379,0.0,95,,-0.08,0.01,0.92,-0,-1,0,0.93,1.13,82,6561,12.6,4.75,,13.39,1.248,98.8,,44.8,5,,,,,,,,,,,,0,0,0,0,0,0,0,0,0,0,0,0,0,0,0,0,,,,,,0.0,,,,,,,
6624364,1745475223397,,,,,,,,,,,,,,,,,,,,,,,,,,,,,,,,,,0,0,0,0,0,0,0,0,0,0,0,0,0,0,0,0,,,,,,,,,,,,,
6624384,1745475223417,0.0,78,12.95,-0.08,0.06,0.95,-0,-0,0,0.96,1.13,85,6561,12.6,4.75,15,12.11,1.248,98.8,167,44.8,5,0,0,0,0,0.0,0.0,0.0,0.0,2.27,0,1.0,0,0,0,0,0,0,0,0,0,0,0,0,0,0,0,0,0,0,1.0,0,-0,0.0,38.994099,-76.939659,0.05,26.1,33,3,0.8
6624404,1745475223437,,,,,,,,,,,,,,,,,,,,,,,,,,,,,,,,,,0,0,0,0,0,0,0,0,0,0,0,0,0,0,0,0,,,,,,,,,,,,,
6624424,1745475223457,0.0,95,,-0.1,0.05,0.97,-1,-0,0,0.98,1.13,87,6702,8.4,4.59,,11.08,1.236,98.8,,45.8,5,,,,,,,,,,,,0,0,0,0,0,0,0,0,0,0,0,0,0,0,0,0,,,,,,0.0,,,,,,,
6624444,1745475223477,,,,,,,,,,,,,,,,,,,,,,,,,,,,,,,,,,0,0,0,0,0,0,0,0,0,0,0,0,0,0,0,0,,,,,,,,,,,,,
6624464,1745475223498,0.0,105,,-0.11,0.04,0.95,-0,-0,0,0.96,1.13,85,6688,8.1,3.42,,10.6,1.186,98.8,,45.8,5,,,,,,,,,,,,0,0,0,0,0,0,0,0,0,0,0,0,0,0,0,0,,,,,,0.0,,,,,,,
6624484,1745475223518,,,,,,,,,,,,,,,,,,,,,,,0,0,0,0,0.0,0.0,0.0,0.0,2.26,,,0,0,0,0,0,0,0,0,0,0,0,0,0,0,0,0,,0,,,,,38.994095,-76.939659,0.04,26.1,33,3,0.8
6624504,1745475223538,0.0,95,,-0.13,0.05,0.92,-0,-1,-0,0.94,1.13,83,6859,8.2,3.43,,10.08,1.142,98.8,,45.8,5,,,,,,,,,,,,0,0,0,0,0,0,0,0,0,0,0,0,0,0,0,0,,,,,,0.0,,,,,,,
6624524,1745475223558,,,,,,,,,,,,,,,,,,,,,,,,,,,,,,,,,,0,0,0,0,0,0,0,0,0,0,0,0,0,0,0,0,,,,,,,,,,,,,
6624544,1745475223578,0.0,91,,-0.12,0.11,0.97,0,-0,-0,0.98,1.13,87,7285,8.3,3.33,,10.08,1.142,98.8,,46.5,5,,,,,,,,,,,,0,0,0,0,0,0,0,0,0,0,0,0,0,0,0,0,,,,,,0.0,,,,,,,
6624564,1745475223596,,,,,,,,,,,,,,,,,,,,,,,,,,,,,,,,,,0,0,0,0,0,0,0,0,0,0,0,0,0,0,0,0,,,,,,,,,,,,,
6624584,1745475223616,0.0,81,,-0.11,0.25,0.96,1,-1,0,1.0,1.13,88,7285,8.3,3.33,,9.68,1.095,97.0,,46.5,5,0,0,0,0,0.0,0.0,0.0,0.0,2.26,,,0,0,0,0,0,0,0,0,0,0,0,0,0,0,0,0,,0,,,,0.0,38.994095,-76.939659,0.1,26.1,33,3,0.8
6624604,1745475223636,,,,,,,,,,,,,,,,,,,,,,,,,,,,,,,,,,0,0,0,0,0,0,0,0,0,0,0,0,0,0,0,0,,,,,,,,,,,,,
6624624,1745475223656,0.0,98,,-0.09,0.16,0.94,1,-1,0,0.96,1.13,86,7826,8.5,3.15,,9.27,0.986,97.0,,47.3,5,,,,,,,,,,,,0,0,0,0,0,0,0,0,0,0,0,0,0,0,0,0,,,,,,0.0,,,,,,,
6624644,1745475223676,,,,,,,,,,,,,,,,,,,,,,,,,,,,,,,,,,0,0,0,0,0,0,0,0,0,0,0,0,0,0,0,0,,,,,,,,,,,,,
6624664,1745475223698,0.0,95,,-0.08,0.15,0.99,0,-0,0,1.01,1.13,89,8137,8.9,2.95,,8.77,0.955,97.0,,47.3,5,,,,,,,,,,,,0,0,0,0,0,0,0,0,0,0,0,0,0,0,0,0,,,,,,0.0,,,,,,,
6624684,1745475223718,,,,,,,,,,,,,,,,,,,,,,,0,0,0,0,0.0,0.0,0.0,0.0,2.26,,,0,0,0,0,0,0,0,0,0,0,0,0,0,0,0,0,,0,,,,,38.994095,-76.939659,0.11,26.1,33,3,0.8
6624704,1745475223738,0.0,91,,-0.09,-0.04,0.94,0,-0,-0,0.95,1.13,84,8704,30.6,3.51,,10.09,1.0,97.0,,47.3,5,,,,,,,,,,,,0,0,0,0,0,0,0,0,0,0,0,0,0,0,0,0,,,,,,0.0,,,,,,,
6624724,1745475223758,,,,,,,,,,,,,,,,,,,,,,,,,,,,,,,,,,0,0,0,0,0,0,0,0,0,0,0,0,0,0,0,0,,,,,,,,,,,,,
6624744,1745475223778,0.0,102,,-0.1,-0.31,0.98,0,-0,-0,1.03,1.13,91,9232,60.0,5.47,,10.09,1.0,97.0,,48.0,5,,,,,,,,,,,,0,0,0,0,0,0,0,0,0,0,0,0,0,0,0,0,,,,,,0.0,,,,,,,
6624764,1745475223798,,,,,,,,,,,,,,,,,,,,,,,,,,,,,,,,,,0,0,0,0,0,0,0,0,0,0,0,0,0,0,0,0,,,,,,,,,,,,,
6624784,1745475223818,0.0,91,,-0.08,-0.28,1.02,0,-1,1,1.06,1.13,94,9232,60.0,5.47,,12.27,0.976,97.0,,48.0,5,0,0,0,0,0.0,0.0,0.0,0.0,2.26,,,0,0,0,0,0,0,0,0,0,0,0,0,0,0,0,0,,0,,,,0.0,38.994095,-76.939659,0.09,26.1,33,3,0.8
6624804,1745475223838,,,,,,,,,,,,,,,,,,,,,,,,,,,,,,,,,,0,0,0,0,0,0,0,0,0,0,0,0,0,0,0,0,,,,,,,,,,,,,
6624824,1745475223858,0.0,88,,-0.07,-0.53,1.03,1,-0,0,1.16,1.16,100,9717,88.4,6.17,,13.59,1.087,97.0,,48.1,5,,,,,,,,,,,,0,0,0,0,0,0,0,0,0,0,0,0,0,0,0,0,,,,,,0.0,,,,,,,
6624844,1745475223878,,,,,,,,,,,,,,,,,,,,,,,,,,,,,,,,,,0,0,0,0,0,0,0,0,0,0,0,0,0,0,0,0,,,,,,,,,,,,,
6624864,1745475223898,0.0,125,,-0.1,-0.4,1.08,1,-0,-0,1.16,1.16,100,11169,99.3,5.52,,13.53,1.247,97.0,,48.1,5,,,,,,,,,,,,0,0,0,0,0,0,0,0,0,0,0,0,0,0,0,0,,,,,,0.0,,,,,,,
6624884,1745475223918,,,,,,,,,,,,,,,,,,,,,,,0,0,0,0,0.0,0.0,0.0,0.0,2.26,,,0,0,0,0,0,0,0,0,0,0,0,0,0,0,0,0,,0,,,,,38.994095,-76.939659,0.12,26.1,33,3,0.8
6624904,1745475223938,0.0,98,,-0.12,-0.39,1.04,1,-0,-1,1.12,1.16,96,12676,99.4,4.98,,13.24,1.028,97.0,,48.1,5,,,,,,,,,,,,0,0,0,0,0,0,0,0,0,0,0,0,0,0,0,0,,,,,,0.0,,,,,,,
6624924,1745475223958,,,,,,,,,,,,,,,,,,,,,,,,,,,,,,,,,,0,0,0,0,0,0,0,0,0,0,0,0,0,0,0,0,,,,,,,,,,,,,
6624944,1745475223978,0.0,119,,-0.13,-0.34,1.01,3,-0,-1,1.08,1.16,93,13803,99.4,4.56,,13.24,1.028,97.0,,61.6,5,,,,,,,,,,,,0,0,0,0,0,0,0,0,0,0,0,0,0,0,0,0,,,,,,0.0,,,,,,,
6624964,1745475223998,,,,,,,,,,,,,,,,,,,,,,,,,,,,,,,,,,0,0,0,0,0,0,0,0,0,0,0,0,0,0,0,0,,,,,,,,,,,,,
6624984,1745475224010,0.0,91,,-0.11,-0.18,0.93,-1,-1,-5,0.96,1.16,83,13803,99.4,4.56,,13.19,1.001,97.0,,61.6,5,0,0,0,0,0.0,0.0,0.0,0.0,2.27,,,0,0,0,0,0,0,0,0,0,0,0,0,0,0,0,0,,0,,,,0.0,38.994095,-76.939659,0.04,26.1,33,3,0.8
6625004,1745475224030,,,,,,,,,,,,,,,,,,,,,,,,,,,,,,,,,,0,0,0,0,0,0,0,0,0,0,0,0,0,0,0,0,,,,,,,,,,,,,
6625024,1745475224050,0.0,95,,-0.11,-0.2,0.96,-1,-1,-4,0.98,1.16,85,13440,99.4,4.58,,12.99,1.027,97.0,,62.5,5,,,,,,,,,,,,0,0,0,0,0,0,0,0,0,0,0,0,0,0,0,0,,,,,,0.0,,,,,,,
6625044,1745475224070,,,,,,,,,,,,,,,,,,,,,,,,,,,,,,,,,,0,0,0,0,0,0,0,0,0,0,0,0,0,0,0,0,,,,,,,,,,,,,
6625064,1745475224092,0.0,98,,-0.13,-0.36,0.94,0,-1,-4,1.01,1.16,87,13274,99.4,4.68,,13.05,1.249,97.0,,62.5,5,,,,,,,,,,,,0,0,0,0,0,0,0,0,0,0,0,0,0,0,0,0,,,,,,0.0,,,,,,,
6625084,1745475224112,,,,,,,,,,,,,,,,,,,,,,,0,0,0,0,0.0,0.0,0.0,0.0,2.26,,,0,0,0,0,0,0,0,0,0,0,0,0,0,0,0,0,,0,,,,,38.994095,-76.939659,0.08,26.1,33,3,0.8
6625104,1745475224132,0.0,78,,-0.13,-0.02,0.86,-2,-1,-6,0.87,1.16,75,13923,99.4,4.67,,12.72,1.253,97.0,,62.5,5,,,,,,,,,,,,0,0,0,0,0,0,0,0,0,0,0,0,0,0,0,0,,,,,,0.0,,,,,,,
6625124,1745475224152,,,,,,,,,,,,,,,,,,,,,,,,,,,,,,,,,,0,0,0,0,0,0,0,0,0,0,0,0,0,0,0,0,,,,,,,,,,,,,
6625144,1745475224172,0.0,95,,-0.03,0.0,0.86,-2,-1,-5,0.86,1.16,74,11879,99.4,5.08,,12.72,1.253,97.0,,65.5,5,,,,,,,,,,,,0,0,0,0,0,0,0,0,0,0,0,0,0,0,0,0,,,,,,0.0,,,,,,,
6625164,1745475224196,,,,,,,,,,,,,,,,,,,,,,,,,,,,,,,,,,0,0,0,0,0,0,0,0,0,0,0,0,0,0,0,0,,,,,,,,,,,,,
6625184,1745475224216,0.0,91,,0.06,0.03,0.85,-2,-0,-4,0.86,1.16,74,11879,99.4,5.08,,13.17,1.243,97.0,,65.5,5,0,0,0,11,0.0,0.0,0.0,0.0,2.26,,,0,0,0,0,0,0,0,0,0,0,0,0,0,0,0,0,,0,,,,0.0,38.994095,-76.939659,0.05,26.1,33,3,0.8
6625204,1745475224236,,,,,,,,,,,,,,,,,,,,,,,,,,,,,,,,,,0,0,0,0,0,0,0,0,0,0,0,0,0,0,0,0,,,,,,,,,,,,,
6625224,1745475224256,0.0,95,,0.13,0.24,0.88,-3,-0,-4,0.92,1.16,80,10450,99.4,5.8,,13.57,1.248,97.0,,54.1,5,,,,,,,,,,,,0,0,0,0,0,0,0,0,0,0,0,0,0,0,0,0,,,,,,0.0,,,,,,,
6625244,1745475224276,,,,,,,,,,,,,,,,,,,,,,,,,,,,,,,,,,0,0,0,0,0,0,0,0,0,0,0,0,0,0,0,0,,,,,,,,,,,,,
6625264,1745475224298,0.0,102,,0.12,0.35,0.93,-2,-1,-3,1.0,1.16,86,10361,99.4,5.96,,13.65,1.249,97.0,,54.1,5,,,,,,,,,,,,0,0,0,0,0,0,0,0,0,0,0,0,0,0,0,0,,,,,,0.0,,,,,,,
6625284,1745475224318,,,,,,,,,,,,,,,,,,,,,,,0,0,28,29,0.0,0.0,0.0,0.0,2.26,,,0,0,0,0,0,0,0,0,0,0,0,0,0,0,0,0,,0,,,,,38.994095,-76.939659,1.41,26.1,33,3,0.8
6625304,1745475224338,0.0,85,,0.19,0.3,0.91,-0,-1,-3,0.98,1.16,85,10964,99.4,5.61,,13.55,1.116,97.0,,54.1,5,,,,,,,,,,,,0,0,0,0,0,0,0,0,0,0,0,0,0,0,0,0,,,,,,0.0,,,,,,,
6625324,1745475224358,,,,,,,,,,,,,,,,,,,,,,,,,,,,,,,,,,0,0,0,0,0,0,0,0,0,0,0,0,0,0,0,0,,,,,,,,,,,,,
6625344,1745475224378,0.0,105,,0.22,0.39,0.98,1,-0,-2,1.08,1.16,93,11506,99.4,5.36,,13.55,1.116,97.0,,57.4,5,,,,,,,,,,,,0,0,0,0,0,0,0,0,0,0,0,0,0,0,0,0,,,,,,0.0,,,,,,,
6625364,1745475224398,,,,,,,,,,,,,,,,,,,,,,,,,,,,,,,,,,0,0,0,0,0,0,0,0,0,0,0,0,0,0,0,0,,,,,,,,,,,,,
6625384,1745475224418,0.0,98,12.89,0.26,0.29,0.99,0,0,-2,1.06,1.16,92,11506,99.4,5.36,15,13.52,1.035,97.0,171,57.4,5,2,0,36,35,0.0,0.0,0.0,0.0,2.27,0,1.0,0,0,0,0,0,0,0,0,0,0,0,0,0,0,0,0,0,1,1.0,0,-0,0.0,38.994095,-76.939652,3.59,26.1,33,3,0.8
6625404,1745475224438,,,,,,,,,,,,,,,,,,,,,,,,,,,,,,,,,,0,0,0,0,0,0,0,0,0,0,0,0,0,0,0,0,,,,,,,,,,,,,
6625424,1745475224458,0.0,85,,0.27,0.16,0.97,2,-0,-1,1.02,1.16,88,11556,99.4,5.33,,13.44,1.019,97.0,,61.1,5,,,,,,,,,,,,0,0,0,0,0,0,0,0,0,0,0,0,0,0,0,0,,,,,,0.0,,,,,,,
6625444,1745475224478,,,,,,,,,,,,,,,,,,,,,,,,,,,,,,,,,,0,0,0,0,0,0,0,0,0,0,0,0,0,0,0,0,,,,,,,,,,,,,
6625464,1745475224495,0.0,95,,0.28,0.07,1.16,3,-0,-0,1.19,1.19,100,11703,99.4,5.29,,13.37,1.018,97.0,,61.1,5,,,,,,,,,,,,0,0,0,0,0,0,0,0,0,0,0,0,0,0,0,0,,,,,,0.0,,,,,,,
6625484,1745475224515,,,,,,,,,,,,,,,,,,,,,,,4,0,36,38,0.0,0.0,0.0,0.0,2.27,,,0,0,0,0,0,0,0,0,0,0,0,0,0,0,0,0,,0,,,,,38.994095,-76.939652,7.03,26.1,33,3,0.8
6625504,1745475224535,0.0,81,,0.32,0.29,1.23,3,-0,-0,1.3,1.3,100,11895,99.4,5.21,,13.32,1.028,97.0,,61.1,5,,,,,,,,,,,,0,0,0,0,0,0,0,0,0,0,0,0,0,0,0,0,,,,,,0.0,,,,,,,
6625524,1745475224555,,,,,,,,,,,,,,,,,,,,,,,,,,,,,,,,,,0,0,0,0,0,0,0,0,0,0,0,0,0,0,0,0,,,,,,,,,,,,,
6625544,1745475224575,0.0,85,,0.35,0.24,1.28,5,0,-1,1.35,1.35,100,12038,99.4,5.15,,13.32,1.028,97.0,,59.6,5,,,,,,,,,,,,0,0,0,0,0,0,0,0,0,0,0,0,0,0,0,0,,,,,,0.0,,,,,,,
6625564,1745475224597,,,,,,,,,,,,,,,,,,,,,,,,,,,,,,,,,,0,0,0,0,0,0,0,0,0,0,0,0,0,0,0,0,,,,,,,,,,,,,
6625584,1745475224617,0.0,91,,0.35,0.35,1.36,5,0,0,1.45,1.45,100,12038,99.4,5.15,,13.25,1.031,95.2,,59.6,5,6,0,37,37,0.0,0.0,0.0,0.0,2.26,,,0,0,0,0,0,0,0,0,0,0,0,0,0,0,0,0,,0,,,,0.0,38.994095,-76.939652,9.62,26.0,33,3,0.8
6625604,1745475224637,,,,,,,,,,,,,,,,,,,,,,,,,,,,,,,,,,0,0,0,0,0,0,0,0,0,0,0,0,0,0,0,0,,,,,,,,,,,,,
6625624,1745475224657,0.0,88,,0.39,0.37,1.46,6,0,0,1.56,1.56,100,11936,99.4,5.17,,13.21,1.043,95.2,,61.7,5,,,,,,,,,,,,0,0,0,0,0,0,0,0,0,0,0,0,0,0,0,0,,,,,,0.0,,,,,,,
6625644,1745475224677,,,,,,,,,,,,,,,,,,,,,,,,,,,,,,,,,,0,0,0,0,0,0,0,0,0,0,0,0,0,0,0,0,,,,,,,,,,,,,
6625664,1745475224697,0.0,95,,0.52,0.5,1.4,6,-0,0,1.58,1.58,100,11807,99.5,5.24,,13.37,1.054,95.2,,61.7,5,,,,,,,,,,,,0,0,0,0,0,0,0,0,0,0,0,0,0,0,0,0,,,,,,0.0,,,,,,,
6625684,1745475224717,,,,,,,,,,,,,,,,,,,,,,,8,0,38,39,0.0,173.0,0.0,0.0,2.26,,,0,0,0,0,0,0,0,0,0,0,0,0,0,0,0,0,,0,,,,,38.994095,-76.939652,12.0,26.0,33,3,0.8
6625704,1745475224737,0.0,98,,0.56,0.32,1.3,6,-0,-0,1.45,1.58,92,11630,99.4,5.24,,13.25,1.039,95.2,,61.7,5,,,,,,,,,,,,0,0,0,0,0,0,0,0,0,0,0,0,0,0,0,0,,,,,,0.0,,,,,,,
6625724,1745475224757,,,,,,,,,,,,,,,,,,,,,,,,,,,,,,,,,,0,0,0,0,0,0,0,0,0,0,0,0,0,0,0,0,,,,,,,,,,,,,
6625744,1745475224777,0.0,85,,0.59,0.13,1.28,6,-0,-0,1.41,1.58,89,11673,99.5,5.29,,13.25,1.039,95.2,,55.9,5,,,,,,,,,,,,0,0,0,0,0,0,0,0,0,0,0,0,0,0,0,0,,,,,,0.0,,,,,,,
6625764,1745475224797,,,,,,,,,,,,,,,,,,,,,,,,,,,,,,,,,,0,0,0,0,0,0,0,0,0,0,0,0,0,0,0,0,,,,,,,,,,,,,
6625784,1745475224817,0.0,98,,0.58,0.02,1.17,7,-0,-0,1.31,1.58,83,11673,99.5,5.29,,13.31,1.069,95.2,,55.9,5,9,0,35,38,0.0,87.0,0.0,0.0,2.26,,,0,0,0,0,0,0,0,0,0,0,0,0,0,0,0,0,,0,,,,0.0,38.994095,-76.939652,15.49,26.0,33,3,0.8
6625804,1745475224837,,,,,,,,,,,,,,,,,,,,,,,,,,,,,,,,,,0,0,0,0,0,0,0,0,0,0,0,0,0,0,0,0,,,,,,,,,,,,,
6625824,1745475224857,0.0,105,,0.59,0.29,1.15,8,0,1,1.33,1.58,84,11621,99.5,5.29,,13.35,1.025,95.2,,58.7,5,,,,,,,,,,,,0,0,0,0,0,0,0,0,0,0,0,0,0,0,0,0,,,,,,0.0,,,,,,,
6625844,1745475224877,,,,,,,,,,,,,,,,,,,,,,,,,,,,,,,,,,0,0,0,0,0,0,0,0,0,0,0,0,0,0,0,0,,,,,,,,,,,,,
6625864,1745475224897,0.0,102,,0.6,0.25,1.15,6,-0,0,1.32,1.58,84,11386,99.4,5.38,,13.4,1.009,95.2,,58.7,5,,,,,,,,,,,,0,0,0,0,0,0,0,0,0,0,0,0,0,0,0,0,,,,,,0.0,,,,,,,
6625884,1745475224917,,,,,,,,,,,,,,,,,,,,,,,12,9,36,37,0.0,203.0,0.0,0.0,2.27,,,0,0,0,0,0,0,0,0,0,0,0,0,0,0,0,0,,0,,,,,38.994099,-76.939644,18.31,26.0,33,3,0.8
6625904,1745475224937,0.0,98,,0.63,0.34,1.16,5,-0,1,1.36,1.58,86,11202,99.4,5.44,,13.61,0.997,95.2,,58.7,5,,,,,,,,,,,,0,0,0,0,0,0,0,0,0,0,0,0,0,0,0,0,,,,,,0.0,,,,,,,
6625924,1745475224957,,,,,,,,,,,,,,,,,,,,,,,,,,,,,,,,,,0,0,0,0,0,0,0,0,0,0,0,0,0,0,0,0,,,,,,,,,,,,,
6625944,1745475224977,0.0,88,,0.67,0.25,1.15,5,-0,1,1.36,1.58,86,11180,99.4,5.46,,13.61,0.997,95.2,,60.8,5,,,,,,,,,,,,0,0,0,0,0,0,0,0,0,0,0,0,0,0,0,0,,,,,,0.0,,,,,,,
6625964,1745475224997,,,,,,,,,,,,,,,,,,,,,,,,,,,,,,,,,,0,0,0,0,0,0,0,0,0,0,0,0,0,0,0,0,,,,,,,,,,,,,
6625984,1745475225009,0.0,95,,0.65,0.37,1.14,7,-0,1,1.36,1.58,86,11180,99.4,5.46,,13.75,0.982,95.2,,60.8,5,14,9,34,34,0.0,237.0,0.0,0.0,2.26,,,0,0,0,0,0,0,0,0,0,0,0,0,0,0,0,0,,1,,,,0.0,38.994099,-76.939636,21.78,26.0,32,3,0.8
6626004,1745475225029,,,,,,,,,,,,,,,,,,,,,,,,,,,,,,,,,,0,0,0,0,0,0,0,0,0,0,0,0,0,0,0,0,,,,,,,,,,,,,
6626024,1745475225049,0.0,112,,0.66,0.24,1.14,7,0,1,1.34,1.58,85,11160,99.4,5.46,,13.51,0.979,95.2,,60.9,5,,,,,,,,,,,,0,0,0,0,0,0,0,0,0,0,0,0,0,0,0,0,,,,,,0.0,,,,,,,
6626044,1745475225069,,,,,,,,,,,,,,,,,,,,,,,,,,,,,,,,,,0,0,0,0,0,0,0,0,0,0,0,0,0,0,0,0,,,,,,,,,,,,,
6626064,1745475225092,0.0,108,,0.72,0.17,1.14,8,0,1,1.36,1.58,86,11067,99.4,5.46,,13.61,0.977,95.2,,60.9,5,,,,,,,,,,,,0,0,0,0,0,0,0,0,0,0,0,0,0,0,0,0,,,,,,0.0,,,,,,,
6626084,1745475225112,,,,,,,,,,,,,,,,,,,,,,,16,9,33,36,0.0,141.0,0.0,0.0,2.26,,,0,0,0,0,0,0,0,0,0,0,0,0,0,0,0,0,,0,,,,,38.994099,-76.939629,25.64,26.0,32,3,0.8
6626104,1745475225132,0.0,102,,0.72,0.24,1.13,8,0,1,1.36,1.58,86,10830,99.5,5.59,,13.77,0.969,95.2,,60.9,5,,,,,,,,,,,,0,0,0,0,0,0,0,0,0,0,0,0,0,0,0,0,,,,,,0.0,,,,,,,
6626124,1745475225152,,,,,,,,,,,,,,,,,,,,,,,,,,,,,,,,,,0,0,0,0,0,0,0,0,0,0,0,0,0,0,0,0,,,,,,,,,,,,,
6626144,1745475225172,0.0,102,,0.78,0.36,1.04,6,-0,1,1.35,1.58,86,10489,99.5,5.81,,13.77,0.969,95.2,,60.5,5,,,,,,,,,,,,0,0,0,0,0,0,0,0,0,0,0,0,0,0,0,0,,,,,,0.0,,,,,,,
6626164,1745475225195,,,,,,,,,,,,,,,,,,,,,,,,,,,,,,,,,,0,0,0,0,0,0,0,0,0,0,0,0,0,0,0,0,,,,,,,,,,,,,
6626184,1745475225215,0.0,112,,0.77,0.71,1.04,4,0,1,1.48,1.58,93,10489,99.5,5.81,,13.73,0.961,95.2,,60.5,5,19,9,34,33,0.0,10.0,0.0,0.0,2.26,,,0,0,0,0,0,0,0,0,0,0,0,0,0,0,0,0,,0,,,,0.0,38.994099,-76.939613,28.92,26.0,32,3,0.8
6626204,1745475225235,,,,,,,,,,,,,,,,,,,,,,,,,,,,,,,,,,0,0,0,0,0,0,0,0,0,0,0,0,0,0,0,0,,,,,,,,,,,,,
6626224,1745475225255,0.0,125,,0.75,0.77,1.09,2,-0,1,1.53,1.58,97,10373,99.4,5.87,,13.72,0.978,95.2,,57.8,5,,,,,,,,,,,,0,0,0,0,0,0,0,0,0,0,0,0,0,0,0,0,,,,,,0.0,,,,,,,
6626244,1745475225275,,,,,,,,,,,,,,,,,,,,,,,,,,,,,,,,,,0,0,0,0,0,0,0,0,0,0,0,0,0,0,0,0,,,,,,,,,,,,,
6626264,1745475225297,0.0,119,,0.72,0.55,1.12,1,-0,2,1.44,1.58,91,10387,99.5,5.87,,13.77,0.953,95.2,,57.8,5,,,,,,,,,,,,0,0,0,0,0,0,0,0,0,0,0,0,0,0,0,0,,,,,,0.0,,,,,,,
6626284,1745475225317,,,,,,,,,,,,,,,,,,,,,,,20,9,33,31,0.0,4.0,0.0,0.0,2.27,,,0,0,0,0,0,0,0,0,0,0,0,0,0,0,0,0,,1,,,,,38.994099,-76.939613,33.42,26.0,32,3,0.8
6626304,1745475225337,0.0,125,,0.73,0.13,1.12,1,-0,2,1.35,1.58,85,10366,99.4,5.89,,13.73,0.938,95.2,,57.8,5,,,,,,,,,,,,0,0,0,0,0,0,0,0,0,0,0,0,0,0,0,0,,,,,,0.0,,,,,,,
6626324,1745475225357,,,,,,,,,,,,,,,,,,,,,,,,,,,,,,,,,,0,0,0,0,0,0,0,0,0,0,0,0,0,0,0,0,,,,,,,,,,,,,
6626344,1745475225377,0.0,132,,0.81,0.24,1.0,-2,-0,2,1.31,1.58,83,10148,99.4,6.01,,13.73,0.938,95.2,,60.1,5,,,,,,,,,,,,0,0,0,0,0,0,0,0,0,0,0,0,0,0,0,0,,,,,,0.0,,,,,,,
6626364,1745475225397,,,,,,,,,,,,,,,,,,,,,,,,,,,,,,,,,,0,0,0,0,0,0,0,0,0,0,0,0,0,0,0,0,,,,,,,,,,,,,
6626384,1745475225417,0.0,132,12.92,0.81,0.11,0.98,-3,-0,3,1.28,1.58,81,10148,99.4,6.01,15,13.63,0.936,95.2,173,60.1,5,23,30,32,29,0.0,228.0,0.0,0.0,2.26,0,1.0,0,0,0,0,0,0,0,0,0,0,0,0,0,0,0,0,0,0,1.0,0,-0,0.0,38.994099,-76.939598,36.52,25.9,32,3,0.8
6626404,1745475225437,,,,,,,,,,,,,,,,,,,,,,,,,,,,,,,,,,0,0,0,0,0,0,0,0,0,0,0,0,0,0,0,0,,,,,,,,,,,,,
6626424,1745475225457,0.0,129,,0.78,0.2,0.97,-6,-0,2,1.26,1.58,80,10067,99.5,6.07,,13.72,0.936,95.2,,58.8,5,,,,,,,,,,,,0,0,0,0,0,0,0,0,0,0,0,0,0,0,0,0,,,,,,0.0,,,,,,,
6626444,1745475225477,,,,,,,,,,,,,,,,,,,,,,,,,,,,,,,,,,0,0,0,0,0,0,0,0,0,0,0,0,0,0,0,0,,,,,,,,,,,,,
6626464,1745475225496,0.0,135,,0.76,-0.08,0.97,-9,0,3,1.24,1.58,79,10250,99.2,5.96,,13.73,0.923,95.2,,58.8,5,,,,,,,,,,,,0,0,0,0,0,0,0,0,0,0,0,0,0,0,0,0,,,,,,0.0,,,,,,,
6626484,1745475225516,,,,,,,,,,,,,,,,,,,,,,,24,25,29,30,0.0,34.0,0.0,0.0,2.26,,,0,0,0,0,0,0,0,0,0,0,0,0,0,0,0,0,,1,,,,,38.994102,-76.939583,40.77,25.9,32,3,0.8
6626504,1745475225536,0.0,122,,0.82,-0.04,0.99,-11,1,2,1.29,1.58,82,10192,64.1,5.48,,13.28,0.909,95.2,,58.8,5,,,,,,,,,,,,0,0,0,0,0,0,0,0,0,0,0,0,0,0,0,0,,,,,,0.0,,,,,,,
6626524,1745475225556,,,,,,,,,,,,,,,,,,,,,,,,,,,,,,,,,,0,0,0,0,0,0,0,0,0,0,0,0,0,0,0,0,,,,,,,,,,,,,
6626544,1745475225576,0.0,134,,0.78,-0.06,1.08,-12,1,4,1.33,1.58,84,9874,30.7,5.25,,13.28,0.909,95.2,,58.6,5,,,,,,,,,,,,0,0,0,0,0,0,0,0,0,0,0,0,0,0,0,0,,,,,,0.0,,,,,,,
6626564,1745475225598,,,,,,,,,,,,,,,,,,,,,,,,,,,,,,,,,,0,0,0,0,0,0,0,0,0,0,0,0,0,0,0,0,,,,,,,,,,,,,
6626584,1745475225618,0.0,134,,0.73,-0.08,1.12,-14,1,3,1.34,1.58,85,9874,30.7,5.25,,12.03,0.914,93.4,,58.6,5,26,27,31,31,0.0,57.0,0.0,0.0,2.26,,,0,0,0,0,0,0,0,0,0,0,0,0,0,0,0,0,,1,,,,0.0,38.994102,-76.939575,43.5,25.9,32,3,0.8
6626604,1745475225638,,,,,,,,,,,,,,,,,,,,,,,,,,,,,,,,,,0,0,0,0,0,0,0,0,0,0,0,0,0,0,0,0,,,,,,,,,,,,,
6626624,1745475225658,0.0,134,,0.65,0.0,1.1,-15,-0,4,1.28,1.58,81,9890,22.3,4.92,,10.69,0.905,93.4,,58.0,5,,,,,,,,,,,,0,0,0,0,0,0,0,0,0,0,0,0,0,0,0,0,,,,,,0.0,,,,,,,
6626644,1745475225678,,,,,,,,,,,,,,,,,,,,,,,,,,,,,,,,,,0,0,0,0,0,0,0,0,0,0,0,0,0,0,0,0,,,,,,,,,,,,,
6626664,1745475225696,0.0,134,,0.57,-0.25,1.08,-17,-2,4,1.25,1.58,79,10033,19.4,3.63,,10.02,0.854,93.4,,58.0,5,,,,,,,,,,,,0,0,0,0,0,0,0,0,0,0,0,0,0,0,0,0,,,,,,0.0,,,,,,,
6626684,1745475225716,,,,,,,,,,,,,,,,,,,,,,,27,30,30,31,0.0,73.0,0.0,0.0,2.26,,,0,0,0,0,0,0,0,0,0,0,0,0,0,0,0,0,,1,,,,,38.994102,-76.93956,47.46,25.9,32,3,0.8
6626704,1745475225736,0.0,134,,0.45,-0.11,1.06,-21,-2,4,1.16,1.58,73,10190,11.9,2.66,,8.98,0.827,93.4,,58.0,5,,,,,,,,,,,,0,0,0,0,0,0,0,0,0,0,0,0,0,0,0,0,,,,,,0.0,,,,,,,
6626724,1745475225756,,,,,,,,,,,,,,,,,,,,,,,,,,,,,,,,,,0,0,0,0,0,0,0,0,0,0,0,0,0,0,0,0,,,,,,,,,,,,,
6626744,1745475225776,0.0,135,,0.39,-0.13,1.02,-25,-1,3,1.1,1.58,70,10445,9.4,2.27,,8.98,0.827,93.4,,53.5,5,,,,,,,,,,,,0,0,0,0,0,0,0,0,0,0,0,0,0,0,0,0,,,,,,0.0,,,,,,,
6626764,1745475225798,,,,,,,,,,,,,,,,,,,,,,,,,,,,,,,,,,0,0,0,0,0,0,0,0,0,0,0,0,0,0,0,0,,,,,,,,,,,,,
6626784,1745475225818,0.0,134,,0.35,-0.31,1.04,-26,-1,3,1.14,1.58,72,10445,9.4,2.27,,8.09,0.84,93.4,,53.5,5,28,106,31,32,0.0,24.0,0.0,0.0,2.27,,,0,0,0,0,0,0,0,0,0,0,0,0,0,0,0,0,,1,,,,0.0,38.994102,-76.939537,48.16,25.8,32,3,0.8
6626804,1745475225838,,,,,,,,,,,,,,,,,,,,,,,,,,,,,,,,,,0,0,0,0,0,0,0,0,0,0,0,0,0,0,0,0,,,,,,,,,,,,,
6626824,1745475225858,0.0,134,,0.34,-0.7,1.09,-26,-1,2,1.34,1.34,100,10325,4.3,1.89,,7.11,0.862,93.4,,58.1,5,,,,,,,,,,,,0,0,0,0,0,0,0,0,0,0,0,0,0,0,0,0,,,,,,0.0,,,,,,,
6626844,1745475225878,,,,,,,,,,,,,,,,,,,,,,,,,,,,,,,,,,0,0,0,0,0,0,0,0,0,0,0,0,0,0,0,0,,,,,,,,,,,,,
6626864,1745475225896,0.0,134,,0.2,-0.71,1.11,-28,-2,2,1.33,1.34,100,10040,2.0,1.4,,6.38,0.892,93.4,,58.1,5,,,,,,,,,,,,0,0,0,0,0,0,0,0,0,0,0,0,0,0,0,0,,,,,,0.0,,,,,,,
6626884,1745475225916,,,,,,,,,,,,,,,,,,,,,,,29,31,29,32,0.0,12.0,0.0,0.0,2.27,,,0,0,0,0,0,0,0,0,0,0,0,0,0,0,0,0,,0,,,,,38.994102,-76.939529,47.95,25.8,32,3,0.8
6626904,1745475225936,0.0,134,,0.12,-0.68,1.04,-30,-1,2,1.25,1.34,93,9866,1.1,1.4,,5.86,0.919,93.4,,58.1,5,,,,,,,,,,,,0,0,0,0,0,0,0,0,0,0,0,0,0,0,0,0,,,,,,0.0,,,,,,,
6626924,1745475225956,,,,,,,,,,,,,,,,,,,,,,,,,,,,,,,,,,0,0,0,0,0,0,0,0,0,0,0,0,0,0,0,0,,,,,,,,,,,,,
6626944,1745475225976,0.0,135,,0.06,-0.58,1.1,-33,-0,2,1.25,1.34,94,9731,1.2,1.4,,5.86,0.919,93.4,,50.6,5,,,,,,,,,,,,0,0,0,0,0,0,0,0,0,0,0,0,0,0,0,0,,,,,,0.0,,,,,,,
6626964,1745475225996,,,,,,,,,,,,,,,,,,,,,,,,,,,,,,,,,,0,0,0,0,0,0,0,0,0,0,0,0,0,0,0,0,,,,,,,,,,,,,
6626984,1745475226010,0.0,134,,-0.01,-0.65,1.08,-37,0,2,1.26,1.34,94,9731,1.2,1.4,,5.68,0.981,93.4,,50.6,5,28,33,29,33,0.0,2.0,0.0,0.0,2.26,,,0,0,0,0,0,0,0,0,0,0,0,0,0,0,0,0,,0,,,,0.0,38.994099,-76.939506,48.51,25.8,30,3,0.8
6627004,1745475226030,,,,,,,,,,,,,,,,,,,,,,,,,,,,,,,,,,0,0,0,0,0,0,0,0,0,0,0,0,0,0,0,0,,,,,,,,,,,,,
6627024,1745475226050,0.0,134,,-0.07,-0.68,1.08,-39,-1,2,1.28,1.34,96,9562,1.5,1.4,,5.4,1.04,93.4,,50.5,5,,,,,,,,,,,,0,0,0,0,0,0,0,0,0,0,0,0,0,0,0,0,,,,,,0.0,,,,,,,
6627044,1745475226070,,,,,,,,,,,,,,,,,,,,,,,,,,,,,,,,,,0,0,0,0,0,0,0,0,0,0,0,0,0,0,0,0,,,,,,,,,,,,,
6627064,1745475226096,0.0,134,,-0.18,-0.87,1.07,-42,-2,2,1.39,1.39,100,9437,1.4,1.4,,5.15,1.071,93.4,,50.5,5,,,,,,,,,,,,0,0,0,0,0,0,0,0,0,0,0,0,0,0,0,0,,,,,,0.0,,,,,,,
6627084,1745475226116,,,,,,,,,,,,,,,,,,,,,,,27,31,28,32,0.0,18.0,0.0,0.0,2.27,,,0,0,0,0,0,0,0,0,0,0,0,0,0,0,0,0,,0,,,,,38.994095,-76.939499,46.9,25.8,30,3,0.8
6627104,1745475226136,0.0,134,,-0.26,-1.02,1.02,-46,-2,2,1.47,1.47,100,9400,1.2,1.4,,5.07,1.123,93.4,,50.5,5,,,,,,,,,,,,0,0,0,0,0,0,0,0,0,0,0,0,0,0,0,0,,,,,,0.0,,,,,,,
6627124,1745475226156,,,,,,,,,,,,,,,,,,,,,,,,,,,,,,,,,,0,0,0,0,0,0,0,0,0,0,0,0,0,0,0,0,,,,,,,,,,,,,
6627144,1745475226176,0.0,135,,-0.3,-0.91,1.04,-48,-1,2,1.41,1.47,96,9178,1.6,1.4,,5.07,1.123,93.4,,49.8,5,,,,,,,,,,,,0,0,0,0,0,0,0,0,0,0,0,0,0,0,0,0,,,,,,0.0,,,,,,,
6627164,1745475226198,,,,,,,,,,,,,,,,,,,,,,,,,,,,,,,,,,0,0,0,0,0,0,0,0,0,0,0,0,0,0,0,0,,,,,,,,,,,,,
6627184,1745475226218,0.0,134,,-0.32,-0.8,1.09,-51,-0,2,1.38,1.47,94,9178,1.6,1.4,,5.12,1.206,93.4,,49.8,5,27,31,25,30,0.0,39.0,0.0,0.0,2.27,,,0,0,0,0,0,0,0,0,0,0,0,0,0,0,0,0,,0,,,,0.0,38.994095,-76.939484,46.21,25.7,31,3,0.8
6627204,1745475226238,,,,,,,,,,,,,,,,,,,,,,,,,,,,,,,,,,0,0,0,0,0,0,0,0,0,0,0,0,0,0,0,0,,,,,,,,,,,,,
6627224,1745475226258,0.0,135,,-0.37,-0.65,1.11,-52,-0,2,1.34,1.47,91,9005,9.0,1.66,,5.68,1.25,93.4,,49.7,5,,,,,,,,,,,,0,0,0,0,0,0,0,0,0,0,0,0,0,0,0,0,,,,,,0.0,,,,,,,
6627244,1745475226278,,,,,,,,,,,,,,,,,,,,,,,,,,,,,,,,,,0,0,0,0,0,0,0,0,0,0,0,0,0,0,0,0,,,,,,,,,,,,,
6627264,1745475226298,0.0,133,,-0.42,-0.66,1.11,-52,-1,2,1.36,1.47,92,8946,11.9,2.01,,6.44,1.25,93.4,,49.7,5,,,,,,,,,,,,0,0,0,0,0,0,0,0,0,0,0,0,0,0,0,0,,,,,,0.0,,,,,,,
6627284,1745475226318,,,,,,,,,,,,,,,,,,,,,,,28,30,25,29,0.0,223.0,0.0,0.0,2.27,,,0,0,0,0,0,0,0,0,0,0,0,0,0,0,0,0,,0,,,,,38.994087,-76.939468,43.47,25.6,31,3,0.8
6627304,1745475226338,0.0,133,,-0.44,-0.69,1.14,-53,-0,1,1.4,1.47,95,9041,12.7,2.19,,7.06,1.252,93.4,,49.7,5,,,,,,,,,,,,0,0,0,0,0,0,0,0,0,0,0,0,0,0,0,0,,,,,,0.0,,,,,,,
6627324,1745475226358,,,,,,,,,,,,,,,,,,,,,,,,,,,,,,,,,,0,0,0,0,0,0,0,0,0,0,0,0,0,0,0,0,,,,,,,,,,,,,
6627344,1745475226378,0.0,134,,-0.45,-0.58,1.08,-54,0,1,1.31,1.47,89,9157,13.3,2.37,,7.06,1.252,93.4,,50.4,5,,,,,,,,,,,,0,0,0,0,0,0,0,0,0,0,0,0,0,0,0,0,,,,,,0.0,,,,,,,
6627364,1745475226398,,,,,,,,,,,,,,,,,,,,,,,,,,,,,,,,,,0,0,0,0,0,0,0,0,0,0,0,0,0,0,0,0,,,,,,,,,,,,,
6627384,1745475226418,0.0,133,13.05,-0.43,-0.77,1.04,-56,1,1,1.36,1.47,93,9157,13.3,2.37,15,7.45,1.252,93.4,173,50.4,5,26,28,25,29,0.0,226.0,0.0,0.0,2.26,0,1.0,0,0,0,0,0,0,0,0,0,0,0,0,0,0,0,0,0,0,1.0,0,-0,0.0,38.99408,-76.939453,42.81,25.6,31,3,0.8
6627404,1745475226438,,,,,,,,,,,,,,,,,,,,,,,,,,,,,,,,,,0,0,0,0,0,0,0,0,0,0,0,0,0,0,0,0,,,,,,,,,,,,,
6627424,1745475226458,0.0,134,,-0.48,-0.79,1.05,-55,1,1,1.4,1.47,95,9289,13.8,2.48,,7.67,1.222,93.4,,50.5,5,,,,,,,,,,,,0,0,0,0,0,0,0,0,0,0,0,0,0,0,0,0,,,,,,0.0,,,,,,,
6627444,1745475226478,,,,,,,,,,,,,,,,,,,,,,,,,,,,,,,,,,0,0,0,0,0,0,0,0,0,0,0,0,0,0,0,0,,,,,,,,,,,,,
6627464,1745475226497,0.0,134,,-0.47,-0.87,1.03,-55,1,1,1.43,1.47,97,9412,13.9,2.47,,7.81,1.142,93.4,,50.5,5,,,,,,,,,,,,0,0,0,0,0,0,0,0,0,0,0,0,0,0,0,0,,,,,,0.0,,,,,,,
6627484,1745475226517,,,,,,,,,,,,,,,,,,,,,,,24,28,25,29,0.0,242.0,0.0,0.0,2.26,,,0,0,0,0,0,0,0,0,0,0,0,0,0,0,0,0,,0,,,,,38.994076,-76.939446,41.57,25.6,31,3,0.8
6627504,1745475226537,0.0,133,,-0.42,-0.87,1.05,-55,2,-0,1.43,1.47,97,9324,13.9,2.51,,7.82,1.118,93.4,,50.5,5,,,,,,,,,,,,0,0,0,0,0,0,0,0,0,0,0,0,0,0,0,0,,,,,,0.0,,,,,,,
6627524,1745475226557,,,,,,,,,,,,,,,,,,,,,,,,,,,,,,,,,,0,0,0,0,0,0,0,0,0,0,0,0,0,0,0,0,,,,,,,,,,,,,
6627544,1745475226577,0.0,133,,-0.35,-0.63,1.03,-55,2,0,1.26,1.47,85,9146,13.8,2.55,,7.82,1.118,93.4,,50.6,5,,,,,,,,,,,,0,0,0,0,0,0,0,0,0,0,0,0,0,0,0,0,,,,,,0.0,,,,,,,
6627564,1745475226597,,,,,,,,,,,,,,,,,,,,,,,,,,,,,,,,,,0,0,0,0,0,0,0,0,0,0,0,0,0,0,0,0,,,,,,,,,,,,,
6627584,1745475226617,0.0,133,,-0.36,-0.68,1.01,-52,1,1,1.27,1.27,100,9146,13.8,2.55,,7.95,1.118,91.6,,50.6,5,24,27,27,28,0.0,105.0,0.0,0.0,2.27,,,0,0,0,0,0,0,0,0,0,0,0,0,0,0,0,0,,1,,,,0.0,38.994068,-76.939438,41.24,25.6,31,3,0.8
6627604,1745475226637,,,,,,,,,,,,,,,,,,,,,,,,,,,,,,,,,,0,0,0,0,0,0,0,0,0,0,0,0,0,0,0,0,,,,,,,,,,,,,
6627624,1745475226657,0.0,133,,-0.37,-0.76,0.99,-52,1,-0,1.3,1.3,100,9028,13.5,2.6,,8.01,1.117,91.6,,50.4,5,,,,,,,,,,,,0,0,0,0,0,0,0,0,0,0,0,0,0,0,0,0,,,,,,0.0,,,,,,,
6627644,1745475226677,,,,,,,,,,,,,,,,,,,,,,,,,,,,,,,,,,0,0,0,0,0,0,0,0,0,0,0,0,0,0,0,0,,,,,,,,,,,,,
6627664,1745475226699,0.0,133,,-0.35,-0.97,0.99,-52,1,1,1.43,1.43,100,8992,13.6,2.61,,8.18,1.103,91.6,,50.4,5,,,,,,,,,,,,0,0,0,0,0,0,0,0,0,0,0,0,0,0,0,0,,,,,,0.0,,,,,,,
6627684,1745475226719,,,,,,,,,,,,,,,,,,,,,,,24,27,26,29,0.0,244.0,0.0,0.0,2.27,,,0,0,0,0,0,0,0,0,0,0,0,0,0,0,0,0,,0,,,,,38.994057,-76.93943,41.48,25.6,31,3,0.8
6627704,1745475226739,0.0,133,,-0.38,-0.94,0.92,-53,1,2,1.36,1.43,96,8965,13.6,2.63,,8.25,1.091,91.6,,50.4,5,,,,,,,,,,,,0,0,0,0,0,0,0,0,0,0,0,0,0,0,0,0,,,,,,0.0,,,,,,,
6627724,1745475226759,,,,,,,,,,,,,,,,,,,,,,,,,,,,,,,,,,0,0,0,0,0,0,0,0,0,0,0,0,0,0,0,0,,,,,,,,,,,,,
6627744,1745475226779,0.0,133,,-0.37,-0.89,0.86,-54,1,1,1.29,1.43,91,8998,11.0,2.52,,8.25,1.091,91.6,,50.0,5,,,,,,,,,,,,0,0,0,0,0,0,0,0,0,0,0,0,0,0,0,0,,,,,,0.0,,,,,,,
6627764,1745475226799,,,,,,,,,,,,,,,,,,,,,,,,,,,,,,,,,,0,0,0,0,0,0,0,0,0,0,0,0,0,0,0,0,,,,,,,,,,,,,
6627784,1745475226819,0.0,133,,-0.33,-0.85,0.82,-55,2,1,1.23,1.43,86,8998,11.0,2.52,,8.07,1.083,91.6,,50.0,5,25,26,26,28,0.0,252.0,0.0,0.0,2.27,,,0,0,0,0,0,0,0,0,0,0,0,0,0,0,0,0,,1,,,,0.0,38.994053,-76.939423,40.4,25.6,31,3,0.8
6627804,1745475226839,,,,,,,,,,,,,,,,,,,,,,,,,,,,,,,,,,0,0,0,0,0,0,0,0,0,0,0,0,0,0,0,0,,,,,,,,,,,,,
6627824,1745475226859,0.0,133,,-0.31,-0.7,0.8,-55,2,2,1.11,1.43,78,9050,7.5,2.34,,7.43,1.081,91.6,,49.9,5,,,,,,,,,,,,0,0,0,0,0,0,0,0,0,0,0,0,0,0,0,0,,,,,,0.0,,,,,,,
6627844,1745475226879,,,,,,,,,,,,,,,,,,,,,,,,,,,,,,,,,,0,0,0,0,0,0,0,0,0,0,0,0,0,0,0,0,,,,,,,,,,,,,
6627864,1745475226899,0.0,133,,-0.28,-0.68,0.83,-54,1,1,1.11,1.43,78,8816,3.2,1.5,,6.83,1.072,91.6,,49.9,5,,,,,,,,,,,,0,0,0,0,0,0,0,0,0,0,0,0,0,0,0,0,,,,,,0.0,,,,,,,
6627884,1745475226919,,,,,,,,,,,,,,,,,,,,,,,23,30,26,26,0.0,237.0,0.0,0.0,2.27,,,0,0,0,0,0,0,0,0,0,0,0,0,0,0,0,0,,1,,,,,38.994041,-76.939415,39.95,25.5,31,3,0.8
6627904,1745475226939,0.0,133,,-0.32,-0.8,0.8,-53,0,1,1.18,1.43,82,8234,0.5,1.4,,6.35,1.059,91.6,,49.9,5,,,,,,,,,,,,0,0,0,0,0,0,0,0,0,0,0,0,0,0,0,0,,,,,,0.0,,,,,,,
6627924,1745475226959,,,,,,,,,,,,,,,,,,,,,,,,,,,,,,,,,,0,0,0,0,0,0,0,0,0,0,0,0,0,0,0,0,,,,,,,,,,,,,
6627944,1745475226979,0.0,133,,-0.38,-0.81,0.88,-54,0,2,1.26,1.43,88,7709,0.2,1.4,,6.35,1.059,91.6,,49.8,5,,,,,,,,,,,,0,0,0,0,0,0,0,0,0,0,0,0,0,0,0,0,,,,,,0.0,,,,,,,
6627964,1745475226991,,,,,,,,,,,,,,,,,,,,,,,,,,,,,,,,,,0,0,0,0,0,0,0,0,0,0,0,0,0,0,0,0,,,,,,,,,,,,,
6627984,1745475227011,0.0,133,,-0.46,-0.72,0.92,-55,1,0,1.26,1.43,88,7709,0.2,1.4,,6.07,1.084,91.6,,49.8,5,23,27,24,27,0.0,41.0,0.0,0.0,2.27,,,0,0,0,0,0,0,0,0,0,0,0,0,0,0,0,0,,0,,,,0.0,38.994034,-76.939415,40.81,25.5,30,3,0.8
6628004,1745475227031,,,,,,,,,,,,,,,,,,,,,,,,,,,,,,,,,,0,0,0,0,0,0,0,0,0,0,0,0,0,0,0,0,,,,,,,,,,,,,
6628024,1745475227051,0.0,133,,-0.5,-0.71,0.92,-57,1,1,1.27,1.43,89,7395,0.0,1.4,,6.08,1.231,91.6,,49.2,5,,,,,,,,,,,,0,0,0,0,0,0,0,0,0,0,0,0,0,0,0,0,,,,,,0.0,,,,,,,
6628044,1745475227071,,,,,,,,,,,,,,,,,,,,,,,,,,,,,,,,,,0,0,0,0,0,0,0,0,0,0,0,0,0,0,0,0,,,,,,,,,,,,,
6628064,1745475227099,0.0,132,,-0.54,-0.77,0.93,-58,0,1,1.33,1.43,93,7391,0.0,1.4,,6.1,1.25,91.6,,49.2,5,,,,,,,,,,,,0,0,0,0,0,0,0,0,0,0,0,0,0,0,0,0,,,,,,0.0,,,,,,,
6628084,1745475227119,,,,,,,,,,,,,,,,,,,,,,,23,25,20,24,0.0,43.0,0.0,0.0,2.26,,,0,0,0,0,0,0,0,0,0,0,0,0,0,0,0,0,,0,,,,,38.994022,-76.939407,37.72,25.5,30,3,0.8
6628104,1745475227139,0.0,132,,-0.56,-0.94,0.92,-59,-1,1,1.43,1.43,100,7379,0.0,1.4,,6.12,1.251,91.6,,49.2,5,,,,,,,,,,,,0,0,0,0,0,0,0,0,0,0,0,0,0,0,0,0,,,,,,0.0,,,,,,,
6628124,1745475227159,,,,,,,,,,,,,,,,,,,,,,,,,,,,,,,,,,0,0,0,0,0,0,0,0,0,0,0,0,0,0,0,0,,,,,,,,,,,,,
6628144,1745475227179,0.0,132,,-0.64,-0.91,0.89,-60,-0,1,1.42,1.43,100,7162,0.0,1.4,,6.12,1.251,91.6,,49.2,5,,,,,,,,,,,,0,0,0,0,0,0,0,0,0,0,0,0,0,0,0,0,,,,,,0.0,,,,,,,
6628164,1745475227199,,,,,,,,,,,,,,,,,,,,,,,,,,,,,,,,,,0,0,0,0,0,0,0,0,0,0,0,0,0,0,0,0,,,,,,,,,,,,,
6628184,1745475227219,0.0,133,,-0.61,-0.93,0.91,-63,0,0,1.43,1.43,100,7162,0.0,1.4,,6.04,1.25,91.6,,49.2,5,20,25,17,25,0.0,34.0,0.0,0.0,2.27,,,0,0,0,0,0,0,0,0,0,0,0,0,0,0,0,0,,0,,,,0.0,38.994015,-76.939407,36.46,25.5,32,3,0.8
6628204,1745475227239,,,,,,,,,,,,,,,,,,,,,,,,,,,,,,,,,,0,0,0,0,0,0,0,0,0,0,0,0,0,0,0,0,,,,,,,,,,,,,
6628224,1745475227259,0.0,133,,-0.64,-0.91,0.92,-63,0,-0,1.44,1.44,100,6764,0.0,1.4,,6.39,1.251,91.6,,48.1,5,,,,,,,,,,,,0,0,0,0,0,0,0,0,0,0,0,0,0,0,0,0,,,,,,0.0,,,,,,,
6628244,1745475227279,,,,,,,,,,,,,,,,,,,,,,,,,,,,,,,,,,0,0,0,0,0,0,0,0,0,0,0,0,0,0,0,0,,,,,,,,,,,,,
6628264,1745475227299,0.0,129,,-0.68,-0.95,0.91,-63,-0,0,1.48,1.48,100,6584,0.0,1.4,,6.59,1.252,91.6,,48.1,5,,,,,,,,,,,,0,0,0,0,0,0,0,0,0,0,0,0,0,0,0,0,,,,,,0.0,,,,,,,
6628284,1745475227319,,,,,,,,,,,,,,,,,,,,,,,20,21,17,22,0.0,195.0,0.0,0.0,2.27,,,0,0,0,0,0,0,0,0,0,0,0,0,0,0,0,0,,0,,,,,38.994007,-76.939407,33.68,25.5,32,3,0.8
6628304,1745475227339,0.0,132,,-0.72,-0.97,0.88,-63,-0,0,1.49,1.49,100,6462,1.4,1.4,,6.96,1.253,91.6,,48.1,5,,,,,,,,,,,,0,0,0,0,0,0,0,0,0,0,0,0,0,0,0,0,,,,,,0.0,,,,,,,
6628324,1745475227359,,,,,,,,,,,,,,,,,,,,,,,,,,,,,,,,,,0,0,0,0,0,0,0,0,0,0,0,0,0,0,0,0,,,,,,,,,,,,,
6628344,1745475227379,0.0,132,,-0.68,-1.08,0.89,-64,-0,0,1.55,1.55,100,6236,4.8,2.06,,6.96,1.253,91.6,,47.8,5,,,,,,,,,,,,0,0,0,0,0,0,0,0,0,0,0,0,0,0,0,0,,,,,,0.0,,,,,,,
6628364,1745475227399,,,,,,,,,,,,,,,,,,,,,,,,,,,,,,,,,,0,0,0,0,0,0,0,0,0,0,0,0,0,0,0,0,,,,,,,,,,,,,
6628384,1745475227419,0.0,132,13.11,-0.73,-1.02,1.0,-65,0,-0,1.6,1.6,100,6236,4.8,2.06,15,7.57,1.253,91.6,173,47.8,5,18,22,16,23,0.0,200.0,0.0,0.0,2.27,0,1.0,0,0,0,0,0,0,0,0,0,0,0,0,0,0,0,0,0,0,1.0,0,-0,0.0,38.993996,-76.939407,32.32,25.5,32,3,0.8
6628404,1745475227439,,,,,,,,,,,,,,,,,,,,,,,,,,,,,,,,,,0,0,0,0,0,0,0,0,0,0,0,0,0,0,0,0,,,,,,,,,,,,,
6628424,1745475227459,0.0,133,,-0.77,-1.03,0.99,-66,0,0,1.62,1.62,100,6150,8.5,2.35,,8.43,1.252,91.6,,47.3,5,,,,,,,,,,,,0,0,0,0,0,0,0,0,0,0,0,0,0,0,0,0,,,,,,0.0,,,,,,,
6628444,1745475227479,,,,,,,,,,,,,,,,,,,,,,,,,,,,,,,,,,0,0,0,0,0,0,0,0,0,0,0,0,0,0,0,0,,,,,,,,,,,,,
6628464,1745475227500,0.0,132,,-0.74,-1.03,0.89,-67,0,0,1.55,1.62,96,6194,10.8,2.74,,9.42,1.251,91.6,,47.3,5,,,,,,,,,,,,0,0,0,0,0,0,0,0,0,0,0,0,0,0,0,0,,,,,,0.0,,,,,,,
6628484,1745475227520,,,,,,,,,,,,,,,,,,,,,,,18,22,17,22,0.0,65.0,0.0,0.0,2.27,,,0,0,0,0,0,0,0,0,0,0,0,0,0,0,0,0,,0,,,,,38.993992,-76.939407,30.66,25.5,32,3,0.8
6628504,1745475227540,0.0,132,,-0.71,-1.02,0.86,-67,0,-0,1.51,1.62,93,6287,12.0,3.09,,10.02,1.251,91.6,,47.3,5,,,,,,,,,,,,0,0,0,0,0,0,0,0,0,0,0,0,0,0,0,0,,,,,,0.0,,,,,,,
6628524,1745475227560,,,,,,,,,,,,,,,,,,,,,,,,,,,,,,,,,,0,0,0,0,0,0,0,0,0,0,0,0,0,0,0,0,,,,,,,,,,,,,
6628544,1745475227580,0.0,133,,-0.72,-1.07,0.93,-67,0,-0,1.59,1.59,100,6298,12.5,3.26,,10.02,1.251,91.6,,47.0,5,,,,,,,,,,,,0,0,0,0,0,0,0,0,0,0,0,0,0,0,0,0,,,,,,0.0,,,,,,,
6628564,1745475227600,,,,,,,,,,,,,,,,,,,,,,,,,,,,,,,,,,0,0,0,0,0,0,0,0,0,0,0,0,0,0,0,0,,,,,,,,,,,,,
6628584,1745475227620,0.0,132,,-0.69,-1.08,0.9,-67,0,-1,1.56,1.59,98,6298,12.5,3.26,,10.48,1.251,91.6,,47.0,5,18,21,17,21,0.0,247.0,0.0,0.0,2.27,,,0,0,0,0,0,0,0,0,0,0,0,0,0,0,0,0,,0,,,,0.0,38.99398,-76.939415,29.51,25.5,32,3,0.8
6628604,1745475227640,,,,,,,,,,,,,,,,,,,,,,,,,,,,,,,,,,0,0,0,0,0,0,0,0,0,0,0,0,0,0,0,0,,,,,,,,,,,,,
6628624,1745475227660,0.0,133,,-0.68,-1.02,0.98,-66,0,-0,1.56,1.59,98,6349,13.0,3.35,,10.65,1.226,91.6,,47.2,5,,,,,,,,,,,,0,0,0,0,0,0,0,0,0,0,0,0,0,0,0,0,,,,,,0.0,,,,,,,
6628644,1745475227680,,,,,,,,,,,,,,,,,,,,,,,,,,,,,,,,,,0,0,0,0,0,0,0,0,0,0,0,0,0,0,0,0,,,,,,,,,,,,,
6628664,1745475227700,0.0,132,,-0.63,-1.12,0.97,-66,0,-1,1.61,1.61,100,6412,13.4,3.48,,10.73,1.223,91.6,,47.2,5,,,,,,,,,,,,0,0,0,0,0,0,0,0,0,0,0,0,0,0,0,0,,,,,,0.0,,,,,,,
6628684,1745475227720,,,,,,,,,,,,,,,,,,,,,,,17,20,17,20,0.0,253.0,0.0,0.0,2.27,,,0,0,0,0,0,0,0,0,0,0,0,0,0,0,0,0,,0,,,,,38.993977,-76.939415,29.0,25.5,32,3,0.8
6628704,1745475227740,0.0,133,,-0.62,-1.0,0.98,-65,-0,-1,1.53,1.61,95,6469,14.9,4.43,,11.09,1.231,91.6,,47.2,5,,,,,,,,,,,,0,0,0,0,0,0,0,0,0,0,0,0,0,0,0,0,,,,,,0.0,,,,,,,
6628724,1745475227760,,,,,,,,,,,,,,,,,,,,,,,,,,,,,,,,,,0,0,0,0,0,0,0,0,0,0,0,0,0,0,0,0,,,,,,,,,,,,,
6628744,1745475227780,0.0,133,,-0.52,-0.93,0.98,-62,0,-2,1.45,1.61,90,6518,15.7,4.64,,11.09,1.231,91.6,,46.6,5,,,,,,,,,,,,0,0,0,0,0,0,0,0,0,0,0,0,0,0,0,0,,,,,,0.0,,,,,,,
6628764,1745475227798,,,,,,,,,,,,,,,,,,,,,,,,,,,,,,,,,,0,0,0,0,0,0,0,0,0,0,0,0,0,0,0,0,,,,,,,,,,,,,
6628784,1745475227818,0.0,134,,-0.45,-0.84,0.98,-58,0,-1,1.36,1.61,85,6518,15.7,4.64,,11.17,1.195,91.6,,46.6,5,18,21,18,20,0.0,237.0,0.0,0.0,2.27,,,0,0,0,0,0,0,0,0,0,0,0,0,0,0,0,0,,1,,,,0.0,38.993969,-76.939415,29.26,25.5,32,3,0.8
6628804,1745475227838,,,,,,,,,,,,,,,,,,,,,,,,,,,,,,,,,,0,0,0,0,0,0,0,0,0,0,0,0,0,0,0,0,,,,,,,,,,,,,
6628824,1745475227858,0.0,134,,-0.41,-0.88,0.95,-55,1,-1,1.36,1.61,84,6529,16.6,4.78,,11.25,1.159,91.6,,46.5,5,,,,,,,,,,,,0,0,0,0,0,0,0,0,0,0,0,0,0,0,0,0,,,,,,0.0,,,,,,,
6628844,1745475227878,,,,,,,,,,,,,,,,,,,,,,,,,,,,,,,,,,0,0,0,0,0,0,0,0,0,0,0,0,0,0,0,0,,,,,,,,,,,,,
6628864,1745475227900,0.0,133,,-0.37,-0.93,0.88,-54,1,-1,1.33,1.61,83,6263,17.0,4.48,,11.52,1.064,91.6,,46.5,5,,,,,,,,,,,,0,0,0,0,0,0,0,0,0,0,0,0,0,0,0,0,,,,,,0.0,,,,,,,
6628884,1745475227920,,,,,,,,,,,,,,,,,,,,,,,18,21,19,20,0.0,217.0,0.0,0.0,2.27,,,0,0,0,0,0,0,0,0,0,0,0,0,0,0,0,0,,0,,,,,38.993965,-76.939423,29.24,25.5,32,3,0.8
6628904,1745475227940,0.0,133,,-0.36,-0.77,0.94,-50,1,0,1.27,1.61,79,6205,17.2,4.36,,11.76,1.002,91.6,,46.5,5,,,,,,,,,,,,0,0,0,0,0,0,0,0,0,0,0,0,0,0,0,0,,,,,,0.0,,,,,,,
6628924,1745475227960,,,,,,,,,,,,,,,,,,,,,,,,,,,,,,,,,,0,0,0,0,0,0,0,0,0,0,0,0,0,0,0,0,,,,,,,,,,,,,
6628944,1745475227980,0.0,134,,-0.4,-0.71,0.98,-50,1,1,1.27,1.61,79,6337,18.1,4.56,,11.76,1.002,91.6,,45.4,5,,,,,,,,,,,,0,0,0,0,0,0,0,0,0,0,0,0,0,0,0,0,,,,,,0.0,,,,,,,
6628964,1745475228000,,,,,,,,,,,,,,,,,,,,,,,,,,,,,,,,,,0,0,0,0,0,0,0,0,0,0,0,0,0,0,0,0,,,,,,,,,,,,,
6628984,1745475228010,0.0,133,,-0.38,-0.78,0.98,-50,1,1,1.31,1.61,81,6337,18.1,4.56,,11.91,1.004,91.6,,45.4,5,18,19,18,21,0.0,250.0,0.0,0.0,2.27,,,0,0,0,0,0,0,0,0,0,0,0,0,0,0,0,0,,0,,,,0.0,38.993958,-76.93943,30.13,25.5,30,3,0.8
6629004,1745475228030,,,,,,,,,,,,,,,,,,,,,,,,,,,,,,,,,,0,0,0,0,0,0,0,0,0,0,0,0,0,0,0,0,,,,,,,,,,,,,
6629024,1745475228050,0.0,133,,-0.4,-0.72,0.94,-49,1,2,1.25,1.61,78,6458,19.4,4.81,,11.96,1.0,91.6,,45.2,5,,,,,,,,,,,,0,0,0,0,0,0,0,0,0,0,0,0,0,0,0,0,,,,,,0.0,,,,,,,
6629044,1745475228070,,,,,,,,,,,,,,,,,,,,,,,,,,,,,,,,,,0,0,0,0,0,0,0,0,0,0,0,0,0,0,0,0,,,,,,,,,,,,,
6629064,1745475228098,0.0,133,,-0.34,-0.81,0.94,-49,2,1,1.28,1.61,80,6596,20.5,5.07,,11.93,1.018,91.6,,45.2,5,,,,,,,,,,,,0,0,0,0,0,0,0,0,0,0,0,0,0,0,0,0,,,,,,0.0,,,,,,,
6629084,1745475228118,,,,,,,,,,,,,,,,,,,,,,,17,21,19,21,0.0,16.0,0.0,0.0,2.27,,,0,0,0,0,0,0,0,0,0,0,0,0,0,0,0,0,,0,,,,,38.993954,-76.939438,29.55,25.5,30,3,0.8
6629104,1745475228138,0.0,134,,-0.28,-0.73,0.96,-49,1,1,1.24,1.61,77,6595,21.3,5.07,,12.08,1.013,91.6,,45.2,5,,,,,,,,,,,,0,0,0,0,0,0,0,0,0,0,0,0,0,0,0,0,,,,,,0.0,,,,,,,
6629124,1745475228158,,,,,,,,,,,,,,,,,,,,,,,,,,,,,,,,,,0,0,0,0,0,0,0,0,0,0,0,0,0,0,0,0,,,,,,,,,,,,,
6629144,1745475228178,0.0,134,,-0.23,-0.69,0.97,-49,1,1,1.21,1.61,75,6748,21.5,5.21,,12.08,1.013,91.6,,44.9,5,,,,,,,,,,,,0,0,0,0,0,0,0,0,0,0,0,0,0,0,0,0,,,,,,0.0,,,,,,,
6629164,1745475228196,,,,,,,,,,,,,,,,,,,,,,,,,,,,,,,,,,0,0,0,0,0,0,0,0,0,0,0,0,0,0,0,0,,,,,,,,,,,,,
6629184,1745475228216,0.0,134,,-0.18,-0.69,0.99,-47,1,0,1.22,1.61,75,6748,21.5,5.21,,12.01,0.994,91.6,,44.9,5,19,19,19,20,0.0,240.0,0.0,0.0,2.27,,,0,0,0,0,0,0,0,0,0,0,0,0,0,0,0,0,,1,,,,0.0,38.99395,-76.939453,29.93,25.5,30,3,0.8
6629204,1745475228236,,,,,,,,,,,,,,,,,,,,,,,,,,,,,,,,,,0,0,0,0,0,0,0,0,0,0,0,0,0,0,0,0,,,,,,,,,,,,,
6629224,1745475228256,0.0,134,,-0.1,-0.66,0.96,-46,1,0,1.17,1.61,73,6855,21.7,5.35,,11.97,0.916,91.6,,44.7,5,,,,,,,,,,,,0,0,0,0,0,0,0,0,0,0,0,0,0,0,0,0,,,,,,0.0,,,,,,,
6629244,1745475228276,,,,,,,,,,,,,,,,,,,,,,,,,,,,,,,,,,0,0,0,0,0,0,0,0,0,0,0,0,0,0,0,0,,,,,,,,,,,,,
6629264,1745475228299,0.0,134,,-0.04,-0.54,0.97,-43,1,0,1.11,1.61,69,7065,21.7,5.58,,11.91,0.853,91.6,,44.7,5,,,,,,,,,,,,0,0,0,0,0,0,0,0,0,0,0,0,0,0,0,0,,,,,,0.0,,,,,,,
6629284,1745475228319,,,,,,,,,,,,,,,,,,,,,,,19,19,20,21,0.0,90.0,0.0,0.0,2.27,,,0,0,0,0,0,0,0,0,0,0,0,0,0,0,0,0,,1,,,,,38.993946,-76.939453,31.85,25.5,30,3,0.8
6629304,1745475228339,0.0,133,,-0.02,-0.6,0.94,-41,1,0,1.12,1.61,69,7185,21.8,5.54,,11.72,0.817,91.6,,44.7,5,,,,,,,,,,,,0,0,0,0,0,0,0,0,0,0,0,0,0,0,0,0,,,,,,0.0,,,,,,,
6629324,1745475228359,,,,,,,,,,,,,,,,,,,,,,,,,,,,,,,,,,0,0,0,0,0,0,0,0,0,0,0,0,0,0,0,0,,,,,,,,,,,,,
6629344,1745475228379,0.0,134,,-0.02,-0.68,0.89,-42,1,0,1.12,1.61,70,7312,22.1,5.46,,11.72,0.817,91.6,,44.1,5,,,,,,,,,,,,0,0,0,0,0,0,0,0,0,0,0,0,0,0,0,0,,,,,,0.0,,,,,,,
6629364,1745475228398,,,,,,,,,,,,,,,,,,,,,,,,,,,,,,,,,,0,0,0,0,0,0,0,0,0,0,0,0,0,0,0,0,,,,,,,,,,,,,
6629384,1745475228418,0.0,133,13.13,-0.03,-0.6,0.91,-43,2,1,1.08,1.61,67,7312,22.1,5.46,15,11.8,0.782,91.6,173,44.1,5,20,22,23,23,0.0,25.0,0.0,0.0,2.27,0,1.0,0,0,0,0,0,0,0,0,0,0,0,0,0,0,0,0,0,1,1.0,0,-0,0.0,38.993938,-76.939461,33.5,25.5,30,3,0.8
6629404,1745475228438,,,,,,,,,,,,,,,,,,,,,,,,,,,,,,,,,,0,0,0,0,0,0,0,0,0,0,0,0,0,0,0,0,,,,,,,,,,,,,
6629424,1745475228458,0.0,133,,-0.04,-0.5,0.9,-43,2,1,1.03,1.61,64,7490,22.0,5.42,,11.57,0.764,91.6,,44.8,5,,,,,,,,,,,,0,0,0,0,0,0,0,0,0,0,0,0,0,0,0,0,,,,,,0.0,,,,,,,
6629444,1745475228478,,,,,,,,,,,,,,,,,,,,,,,,,,,,,,,,,,0,0,0,0,0,0,0,0,0,0,0,0,0,0,0,0,,,,,,,,,,,,,
6629464,1745475228499,0.0,133,,-0.02,-0.65,0.91,-42,2,1,1.12,1.61,69,7697,21.5,5.36,,11.45,0.754,91.6,,44.8,5,,,,,,,,,,,,0,0,0,0,0,0,0,0,0,0,0,0,0,0,0,0,,,,,,0.0,,,,,,,
6629484,1745475228519,,,,,,,,,,,,,,,,,,,,,,,20,23,23,25,0.0,54.0,0.0,0.0,2.27,,,0,0,0,0,0,0,0,0,0,0,0,0,0,0,0,0,,0,,,,,38.993935,-76.939476,33.41,25.5,30,3,0.8
6629504,1745475228539,0.0,133,,0.0,-0.56,0.93,-42,1,1,1.09,1.61,68,7816,16.8,4.94,,11.13,0.748,91.6,,44.8,5,,,,,,,,,,,,0,0,0,0,0,0,0,0,0,0,0,0,0,0,0,0,,,,,,0.0,,,,,,,
6629524,1745475228559,,,,,,,,,,,,,,,,,,,,,,,,,,,,,,,,,,0,0,0,0,0,0,0,0,0,0,0,0,0,0,0,0,,,,,,,,,,,,,
6629544,1745475228579,0.0,133,,-0.06,-0.69,0.88,-44,0,1,1.12,1.61,69,7801,11.2,3.58,,11.13,0.748,91.6,,44.4,5,,,,,,,,,,,,0,0,0,0,0,0,0,0,0,0,0,0,0,0,0,0,,,,,,0.0,,,,,,,
6629564,1745475228599,,,,,,,,,,,,,,,,,,,,,,,,,,,,,,,,,,0,0,0,0,0,0,0,0,0,0,0,0,0,0,0,0,,,,,,,,,,,,,
6629584,1745475228619,0.0,133,,-0.09,-0.81,0.92,-46,-0,1,1.23,1.61,76,7801,11.2,3.58,,10.32,0.74,89.8,,44.4,5,21,22,25,23,0.0,223.0,0.0,0.0,2.27,,,0,0,0,0,0,0,0,0,0,0,0,0,0,0,0,0,,1,,,,0.0,38.993935,-76.939484,35.39,25.5,30,3,0.8
6629604,1745475228639,,,,,,,,,,,,,,,,,,,,,,,,,,,,,,,,,,0,0,0,0,0,0,0,0,0,0,0,0,0,0,0,0,,,,,,,,,,,,,
6629624,1745475228659,0.0,133,,-0.1,-0.75,0.94,-48,-0,1,1.21,1.61,75,8052,10.5,3.29,,9.82,0.73,89.8,,47.0,5,,,,,,,,,,,,0,0,0,0,0,0,0,0,0,0,0,0,0,0,0,0,,,,,,0.0,,,,,,,
6629644,1745475228679,,,,,,,,,,,,,,,,,,,,,,,,,,,,,,,,,,0,0,0,0,0,0,0,0,0,0,0,0,0,0,0,0,,,,,,,,,,,,,
6629664,1745475228699,0.0,133,,-0.08,-0.81,0.92,-51,-0,2,1.23,1.61,76,8354,9.6,3.01,,9.14,0.747,89.8,,47.0,5,,,,,,,,,,,,0,0,0,0,0,0,0,0,0,0,0,0,0,0,0,0,,,,,,0.0,,,,,,,
6629684,1745475228719,,,,,,,,,,,,,,,,,,,,,,,21,23,25,24,0.0,33.0,0.0,0.0,2.27,,,0,0,0,0,0,0,0,0,0,0,0,0,0,0,0,0,,1,,,,,38.993931,-76.939499,36.01,25.5,30,3,0.8
6629704,1745475228739,0.0,131,,-0.08,-0.83,0.97,-51,-0,2,1.28,1.28,100,8208,7.5,2.77,,8.62,0.78,89.8,,47.0,5,,,,,,,,,,,,0,0,0,0,0,0,0,0,0,0,0,0,0,0,0,0,,,,,,0.0,,,,,,,
6629724,1745475228759,,,,,,,,,,,,,,,,,,,,,,,,,,,,,,,,,,0,0,0,0,0,0,0,0,0,0,0,0,0,0,0,0,,,,,,,,,,,,,
6629744,1745475228779,0.0,133,,-0.11,-0.89,0.95,-52,-0,2,1.31,1.31,100,8174,5.3,2.48,,8.62,0.78,89.8,,46.0,5,,,,,,,,,,,,0,0,0,0,0,0,0,0,0,0,0,0,0,0,0,0,,,,,,0.0,,,,,,,
6629764,1745475228799,,,,,,,,,,,,,,,,,,,,,,,,,,,,,,,,,,0,0,0,0,0,0,0,0,0,0,0,0,0,0,0,0,,,,,,,,,,,,,
6629784,1745475228819,0.0,133,,-0.1,-0.92,1.03,-53,-0,1,1.38,1.38,100,8174,5.3,2.48,,8.15,0.819,89.8,,46.0,5,21,24,24,25,0.0,219.0,0.0,0.0,2.27,,,0,0,0,0,0,0,0,0,0,0,0,0,0,0,0,0,,1,,,,0.0,38.993931,-76.939506,35.37,25.5,30,3,0.8
6629804,1745475228839,,,,,,,,,,,,,,,,,,,,,,,,,,,,,,,,,,0,0,0,0,0,0,0,0,0,0,0,0,0,0,0,0,,,,,,,,,,,,,
6629824,1745475228859,0.0,133,,-0.12,-0.91,0.98,-55,0,1,1.34,1.38,97,8240,8.3,2.45,,8.13,0.838,89.8,,45.8,5,,,,,,,,,,,,0,0,0,0,0,0,0,0,0,0,0,0,0,0,0,0,,,,,,0.0,,,,,,,
6629844,1745475228879,,,,,,,,,,,,,,,,,,,,,,,,,,,,,,,,,,0,0,0,0,0,0,0,0,0,0,0,0,0,0,0,0,,,,,,,,,,,,,
6629864,1745475228899,0.0,132,,-0.11,-0.89,0.98,-55,0,1,1.33,1.38,96,8187,16.3,2.86,,8.75,0.874,89.8,,45.8,5,,,,,,,,,,,,0,0,0,0,0,0,0,0,0,0,0,0,0,0,0,0,,,,,,0.0,,,,,,,
6629884,1745475228919,,,,,,,,,,,,,,,,,,,,,,,21,24,25,25,0.0,65.0,0.0,0.0,2.27,,,0,0,0,0,0,0,0,0,0,0,0,0,0,0,0,0,,1,,,,,38.993927,-76.939522,36.21,25.5,30,3,0.8
6629904,1745475228939,0.0,132,,-0.08,-0.97,0.96,-54,1,2,1.37,1.38,99,8106,16.4,3.14,,9.35,0.925,89.8,,45.8,5,,,,,,,,,,,,0,0,0,0,0,0,0,0,0,0,0,0,0,0,0,0,,,,,,0.0,,,,,,,
6629924,1745475228959,,,,,,,,,,,,,,,,,,,,,,,,,,,,,,,,,,0,0,0,0,0,0,0,0,0,0,0,0,0,0,0,0,,,,,,,,,,,,,
6629944,1745475228979,0.0,133,,-0.1,-0.88,1.01,-54,1,1,1.34,1.38,97,7953,16.4,3.39,,9.35,0.925,89.8,,44.0,5,,,,,,,,,,,,0,0,0,0,0,0,0,0,0,0,0,0,0,0,0,0,,,,,,0.0,,,,,,,
6629964,1745475228991,,,,,,,,,,,,,,,,,,,,,,,,,,,,,,,,,,0,0,0,0,0,0,0,0,0,0,0,0,0,0,0,0,,,,,,,,,,,,,
6629984,1745475229011,0.0,133,,-0.11,-0.93,0.99,-53,1,1,1.36,1.38,99,7953,16.4,3.39,,9.7,0.968,89.8,,44.0,5,22,25,26,24,0.0,248.0,0.0,0.0,2.27,,,0,0,0,0,0,0,0,0,0,0,0,0,0,0,0,0,,1,,,,0.0,38.993927,-76.939529,36.4,25.5,29,3,0.8
6630004,1745475229031,,,,,,,,,,,,,,,,,,,,,,,,,,,,,,,,,,0,0,0,0,0,0,0,0,0,0,0,0,0,0,0,0,,,,,,,,,,,,,
6630024,1745475229051,0.0,132,,-0.12,-1.0,0.98,-53,1,1,1.4,1.4,100,8080,14.7,3.28,,9.64,0.98,89.8,,44.3,5,,,,,,,,,,,,0,0,0,0,0,0,0,0,0,0,0,0,0,0,0,0,,,,,,0.0,,,,,,,
6630044,1745475229071,,,,,,,,,,,,,,,,,,,,,,,,,,,,,,,,,,0,0,0,0,0,0,0,0,0,0,0,0,0,0,0,0,,,,,,,,,,,,,
6630064,1745475229095,0.0,132,,-0.13,-1.05,1.01,-54,1,2,1.46,1.46,100,8074,10.8,3.11,,9.3,0.983,89.8,,44.3,5,,,,,,,,,,,,0,0,0,0,0,0,0,0,0,0,0,0,0,0,0,0,,,,,,0.0,,,,,,,
6630084,1745475229115,,,,,,,,,,,,,,,,,,,,,,,22,26,24,25,0.0,128.0,0.0,0.0,2.27,,,0,0,0,0,0,0,0,0,0,0,0,0,0,0,0,0,,0,,,,,38.993931,-76.939537,36.72,25.5,29,3,0.8
6630104,1745475229135,0.0,132,,-0.16,-1.1,1.02,-54,0,2,1.51,1.51,100,8213,7.4,2.9,,8.7,0.977,89.8,,44.3,5,,,,,,,,,,,,0,0,0,0,0,0,0,0,0,0,0,0,0,0,0,0,,,,,,0.0,,,,,,,
6630124,1745475229155,,,,,,,,,,,,,,,,,,,,,,,,,,,,,,,,,,0,0,0,0,0,0,0,0,0,0,0,0,0,0,0,0,,,,,,,,,,,,,
6630144,1745475229175,0.0,132,,-0.22,-1.16,0.96,-55,-0,1,1.52,1.52,100,8364,6.2,2.53,,8.7,0.977,89.8,,45.5,5,,,,,,,,,,,,0,0,0,0,0,0,0,0,0,0,0,0,0,0,0,0,,,,,,0.0,,,,,,,
6630164,1745475229195,,,,,,,,,,,,,,,,,,,,,,,,,,,,,,,,,,0,0,0,0,0,0,0,0,0,0,0,0,0,0,0,0,,,,,,,,,,,,,
6630184,1745475229215,0.0,132,,-0.23,-1.06,0.99,-56,-1,2,1.47,1.52,96,8364,6.2,2.53,,8.21,0.964,89.8,,45.5,5,22,24,25,27,0.0,92.0,0.0,0.0,2.27,,,0,0,0,0,0,0,0,0,0,0,0,0,0,0,0,0,,0,,,,0.0,38.993931,-76.939552,38.18,25.6,31,3,0.8
6630204,1745475229235,,,,,,,,,,,,,,,,,,,,,,,,,,,,,,,,,,0,0,0,0,0,0,0,0,0,0,0,0,0,0,0,0,,,,,,,,,,,,,
6630224,1745475229255,0.0,132,,-0.26,-1.08,0.97,-56,-0,2,1.47,1.52,97,8269,5.8,2.34,,7.87,0.941,89.8,,44.6,5,,,,,,,,,,,,0,0,0,0,0,0,0,0,0,0,0,0,0,0,0,0,,,,,,0.0,,,,,,,
6630244,1745475229275,,,,,,,,,,,,,,,,,,,,,,,,,,,,,,,,,,0,0,0,0,0,0,0,0,0,0,0,0,0,0,0,0,,,,,,,,,,,,,
6630264,1745475229297,0.0,133,,-0.28,-1.06,0.95,-59,1,3,1.45,1.52,95,8122,6.1,2.33,,7.71,0.964,89.8,,44.6,5,,,,,,,,,,,,0,0,0,0,0,0,0,0,0,0,0,0,0,0,0,0,,,,,,0.0,,,,,,,
6630284,1745475229317,,,,,,,,,,,,,,,,,,,,,,,21,25,25,28,0.0,53.0,0.0,0.0,2.27,,,0,0,0,0,0,0,0,0,0,0,0,0,0,0,0,0,,0,,,,,38.993935,-76.939568,36.85,25.6,31,3,0.8
6630304,1745475229337,0.0,133,,-0.27,-1.07,1.03,-61,2,2,1.51,1.52,99,8063,6.1,2.35,,7.57,0.991,89.8,,44.6,5,,,,,,,,,,,,0,0,0,0,0,0,0,0,0,0,0,0,0,0,0,0,,,,,,0.0,,,,,,,
6630324,1745475229357,,,,,,,,,,,,,,,,,,,,,,,,,,,,,,,,,,0,0,0,0,0,0,0,0,0,0,0,0,0,0,0,0,,,,,,,,,,,,,
6630344,1745475229377,0.0,132,,-0.27,-1.2,1.02,-61,2,1,1.6,1.6,100,7937,6.6,2.42,,7.57,0.991,89.8,,43.3,5,,,,,,,,,,,,0,0,0,0,0,0,0,0,0,0,0,0,0,0,0,0,,,,,,0.0,,,,,,,
6630364,1745475229399,,,,,,,,,,,,,,,,,,,,,,,,,,,,,,,,,,0,0,0,0,0,0,0,0,0,0,0,0,0,0,0,0,,,,,,,,,,,,,
6630384,1745475229419,0.0,133,13.11,-0.26,-1.1,0.98,-60,2,2,1.5,1.6,94,7937,6.6,2.42,15,7.75,1.016,89.8,173,43.3,5,21,26,22,28,0.0,213.0,0.0,0.0,2.27,0,1.0,0,0,0,0,0,0,0,0,0,0,0,0,0,0,0,0,0,0,1.0,0,-0,0.0,38.993935,-76.939575,35.65,25.6,31,3,0.8
6630404,1745475229439,,,,,,,,,,,,,,,,,,,,,,,,,,,,,,,,,,0,0,0,0,0,0,0,0,0,0,0,0,0,0,0,0,,,,,,,,,,,,,
6630424,1745475229459,0.0,132,,-0.27,-1.21,0.98,-60,2,2,1.58,1.6,99,7813,8.2,2.64,,7.9,1.031,89.8,,43.2,5,,,,,,,,,,,,0,0,0,0,0,0,0,0,0,0,0,0,0,0,0,0,,,,,,0.0,,,,,,,
6630444,1745475229479,,,,,,,,,,,,,,,,,,,,,,,,,,,,,,,,,,0,0,0,0,0,0,0,0,0,0,0,0,0,0,0,0,,,,,,,,,,,,,
6630464,1745475229498,0.0,133,,-0.28,-1.17,0.98,-60,1,1,1.55,1.6,97,7753,10.4,2.76,,8.21,1.039,89.8,,43.2,5,,,,,,,,,,,,0,0,0,0,0,0,0,0,0,0,0,0,0,0,0,0,,,,,,0.0,,,,,,,
6630484,1745475229518,,,,,,,,,,,,,,,,,,,,,,,21,25,22,25,0.0,19.0,0.0,0.0,2.27,,,0,0,0,0,0,0,0,0,0,0,0,0,0,0,0,0,,0,,,,,38.993942,-76.939583,36.12,25.6,31,3,0.8
6630504,1745475229538,0.0,133,,-0.28,-1.15,0.97,-60,1,1,1.53,1.6,96,7730,14.1,2.89,,8.75,1.036,89.8,,43.2,5,,,,,,,,,,,,0,0,0,0,0,0,0,0,0,0,0,0,0,0,0,0,,,,,,0.0,,,,,,,
6630524,1745475229558,,,,,,,,,,,,,,,,,,,,,,,,,,,,,,,,,,0,0,0,0,0,0,0,0,0,0,0,0,0,0,0,0,,,,,,,,,,,,,
6630544,1745475229578,0.0,133,,-0.31,-1.2,0.98,-59,1,1,1.58,1.6,99,7749,16.3,3.28,,8.75,1.036,89.8,,43.8,5,,,,,,,,,,,,0,0,0,0,0,0,0,0,0,0,0,0,0,0,0,0,,,,,,0.0,,,,,,,
6630564,1745475229598,,,,,,,,,,,,,,,,,,,,,,,,,,,,,,,,,,0,0,0,0,0,0,0,0,0,0,0,0,0,0,0,0,,,,,,,,,,,,,
6630584,1745475229618,0.0,133,,-0.29,-1.22,0.99,-58,0,1,1.6,1.6,100,7749,16.3,3.28,,9.42,1.039,89.8,,43.8,5,22,26,22,24,0.0,5.0,0.0,0.0,2.27,,,0,0,0,0,0,0,0,0,0,0,0,0,0,0,0,0,,0,,,,0.0,38.993946,-76.939598,36.37,25.6,31,3,0.8
6630604,1745475229638,,,,,,,,,,,,,,,,,,,,,,,,,,,,,,,,,,0,0,0,0,0,0,0,0,0,0,0,0,0,0,0,0,,,,,,,,,,,,,
6630624,1745475229658,0.0,133,,-0.29,-1.07,0.96,-58,0,1,1.47,1.6,92,7798,17.6,3.46,,9.88,1.056,89.8,,44.8,5,,,,,,,,,,,,0,0,0,0,0,0,0,0,0,0,0,0,0,0,0,0,,,,,,0.0,,,,,,,
6630644,1745475229678,,,,,,,,,,,,,,,,,,,,,,,,,,,,,,,,,,0,0,0,0,0,0,0,0,0,0,0,0,0,0,0,0,,,,,,,,,,,,,
6630664,1745475229698,0.0,133,,-0.27,-1.11,0.98,-57,1,1,1.5,1.6,94,7900,17.8,3.64,,10.14,1.05,89.8,,44.8,5,,,,,,,,,,,,0,0,0,0,0,0,0,0,0,0,0,0,0,0,0,0,,,,,,0.0,,,,,,,
6630684,1745475229718,,,,,,,,,,,,,,,,,,,,,,,21,24,23,25,0.0,5.0,0.0,0.0,2.27,,,0,0,0,0,0,0,0,0,0,0,0,0,0,0,0,0,,0,,,,,38.993954,-76.939606,35.68,25.7,31,3,0.8
6630704,1745475229738,0.0,133,,-0.26,-1.08,0.97,-56,1,1,1.47,1.47,100,7973,17.9,3.71,,10.34,1.024,89.8,,44.8,5,,,,,,,,,,,,0,0,0,0,0,0,0,0,0,0,0,0,0,0,0,0,,,,,,0.0,,,,,,,
6630724,1745475229758,,,,,,,,,,,,,,,,,,,,,,,,,,,,,,,,,,0,0,0,0,0,0,0,0,0,0,0,0,0,0,0,0,,,,,,,,,,,,,
6630744,1745475229778,0.0,132,,-0.28,-1.03,0.97,-55,0,2,1.44,1.47,98,8143,18.0,3.68,,10.34,1.024,89.8,,45.4,5,,,,,,,,,,,,0,0,0,0,0,0,0,0,0,0,0,0,0,0,0,0,,,,,,0.0,,,,,,,
6630764,1745475229798,,,,,,,,,,,,,,,,,,,,,,,,,,,,,,,,,,0,0,0,0,0,0,0,0,0,0,0,0,0,0,0,0,,,,,,,,,,,,,
6630784,1745475229818,0.0,132,,-0.24,-1.09,0.98,-55,0,2,1.49,1.49,100,8143,18.0,3.68,,10.24,0.992,89.8,,45.4,5,21,22,24,24,0.0,53.0,0.0,0.0,2.27,,,0,0,0,0,0,0,0,0,0,0,0,0,0,0,0,0,,1,,,,0.0,38.993958,-76.939613,36.01,25.7,31,3,0.8
6630804,1745475229838,,,,,,,,,,,,,,,,,,,,,,,,,,,,,,,,,,0,0,0,0,0,0,0,0,0,0,0,0,0,0,0,0,,,,,,,,,,,,,
6630824,1745475229858,0.0,133,,-0.22,-0.99,0.99,-56,1,1,1.42,1.49,96,8412,15.5,3.35,,9.98,0.971,89.8,,46.5,5,,,,,,,,,,,,0,0,0,0,0,0,0,0,0,0,0,0,0,0,0,0,,,,,,0.0,,,,,,,
6630844,1745475229878,,,,,,,,,,,,,,,,,,,,,,,,,,,,,,,,,,0,0,0,0,0,0,0,0,0,0,0,0,0,0,0,0,,,,,,,,,,,,,
6630864,1745475229898,0.0,133,,-0.19,-1.05,0.98,-57,1,1,1.45,1.49,97,8558,11.0,3.12,,9.3,0.962,89.8,,46.5,5,,,,,,,,,,,,0,0,0,0,0,0,0,0,0,0,0,0,0,0,0,0,,,,,,0.0,,,,,,,
6630884,1745475229918,,,,,,,,,,,,,,,,,,,,,,,21,24,26,26,0.0,33.0,0.0,0.0,2.27,,,0,0,0,0,0,0,0,0,0,0,0,0,0,0,0,0,,1,,,,,38.993969,-76.939613,35.9,25.7,31,3,0.8
6630904,1745475229938,0.0,133,,-0.19,-1.05,0.94,-58,1,1,1.42,1.49,95,8463,7.1,2.88,,8.73,0.968,89.8,,46.5,5,,,,,,,,,,,,0,0,0,0,0,0,0,0,0,0,0,0,0,0,0,0,,,,,,0.0,,,,,,,
6630924,1745475229958,,,,,,,,,,,,,,,,,,,,,,,,,,,,,,,,,,0,0,0,0,0,0,0,0,0,0,0,0,0,0,0,0,,,,,,,,,,,,,
6630944,1745475229978,0.0,133,,-0.2,-0.97,0.96,-58,1,1,1.38,1.49,93,8383,5.7,2.5,,8.73,0.968,89.8,,45.5,5,,,,,,,,,,,,0,0,0,0,0,0,0,0,0,0,0,0,0,0,0,0,,,,,,0.0,,,,,,,
6630964,1745475229998,,,,,,,,,,,,,,,,,,,,,,,,,,,,,,,,,,0,0,0,0,0,0,0,0,0,0,0,0,0,0,0,0,,,,,,,,,,,,,
6630984,1745475230010,0.0,132,,-0.2,-1.03,0.95,-58,1,0,1.41,1.49,95,8383,5.7,2.5,,8.1,0.969,89.8,,45.5,5,21,25,25,24,0.0,172.0,0.0,0.0,2.27,,,0,0,0,0,0,0,0,0,0,0,0,0,0,0,0,0,,1,,,,0.0,38.993977,-76.939621,36.22,25.7,30,3,0.9
6631004,1745475230030,,,,,,,,,,,,,,,,,,,,,,,,,,,,,,,,,,0,0,0,0,0,0,0,0,0,0,0,0,0,0,0,0,,,,,,,,,,,,,
6631024,1745475230050,0.0,133,,-0.22,-1.02,0.92,-59,1,0,1.39,1.49,94,8241,5.6,2.38,,7.77,0.967,89.8,,44.2,5,,,,,,,,,,,,0,0,0,0,0,0,0,0,0,0,0,0,0,0,0,0,,,,,,0.0,,,,,,,
6631044,1745475230070,,,,,,,,,,,,,,,,,,,,,,,,,,,,,,,,,,0,0,0,0,0,0,0,0,0,0,0,0,0,0,0,0,,,,,,,,,,,,,
6631064,1745475230096,0.0,132,,-0.25,-1.01,0.9,-60,0,0,1.38,1.49,93,8172,5.7,2.3,,7.75,0.991,89.8,,44.2,5,,,,,,,,,,,,0,0,0,0,0,0,0,0,0,0,0,0,0,0,0,0,,,,,,0.0,,,,,,,
6631084,1745475230116,,,,,,,,,,,,,,,,,,,,,,,21,26,25,26,0.0,20.0,0.0,0.0,2.27,,,0,0,0,0,0,0,0,0,0,0,0,0,0,0,0,0,,0,,,,,38.993984,-76.939629,37.23,25.8,30,3,0.9
6631104,1745475230136,0.0,133,,-0.26,-1.03,0.89,-60,0,1,1.39,1.49,93,8073,5.8,2.29,,7.63,1.012,89.8,,44.2,5,,,,,,,,,,,,0,0,0,0,0,0,0,0,0,0,0,0,0,0,0,0,,,,,,0.0,,,,,,,
6631124,1745475230156,,,,,,,,,,,,,,,,,,,,,,,,,,,,,,,,,,0,0,0,0,0,0,0,0,0,0,0,0,0,0,0,0,,,,,,,,,,,,,
6631144,1745475230176,0.0,133,,-0.28,-1.02,0.89,-60,0,1,1.38,1.49,93,7994,5.8,2.32,,7.63,1.012,89.8,,43.6,5,,,,,,,,,,,,0,0,0,0,0,0,0,0,0,0,0,0,0,0,0,0,,,,,,0.0,,,,,,,
6631164,1745475230198,,,,,,,,,,,,,,,,,,,,,,,,,,,,,,,,,,0,0,0,0,0,0,0,0,0,0,0,0,0,0,0,0,,,,,,,,,,,,,
6631184,1745475230218,0.0,133,,-0.33,-0.95,0.89,-61,0,0,1.35,1.49,91,7994,5.8,2.32,,7.59,1.027,89.8,,43.6,5,21,24,24,26,0.0,89.0,0.0,0.0,2.27,,,0,0,0,0,0,0,0,0,0,0,0,0,0,0,0,0,,0,,,,0.0,38.993992,-76.939636,36.27,25.8,31,3,0.9
6631204,1745475230238,,,,,,,,,,,,,,,,,,,,,,,,,,,,,,,,,,0,0,0,0,0,0,0,0,0,0,0,0,0,0,0,0,,,,,,,,,,,,,
6631224,1745475230258,0.0,133,,-0.31,-1.01,0.96,-61,0,1,1.43,1.49,96,7860,6.1,2.38,,7.65,1.041,89.8,,43.2,5,,,,,,,,,,,,0,0,0,0,0,0,0,0,0,0,0,0,0,0,0,0,,,,,,0.0,,,,,,,
6631244,1745475230278,,,,,,,,,,,,,,,,,,,,,,,,,,,,,,,,,,0,0,0,0,0,0,0,0,0,0,0,0,0,0,0,0,,,,,,,,,,,,,
6631264,1745475230298,0.0,133,,-0.33,-0.94,1.02,-61,1,1,1.43,1.49,96,7778,9.2,2.59,,7.83,1.049,89.8,,43.2,5,,,,,,,,,,,,0,0,0,0,0,0,0,0,0,0,0,0,0,0,0,0,,,,,,0.0,,,,,,,
6631284,1745475230318,,,,,,,,,,,,,,,,,,,,,,,20,24,22,25,0.0,223.0,0.0,0.0,2.27,,,0,0,0,0,0,0,0,0,0,0,0,0,0,0,0,0,,0,,,,,38.994,-76.939636,35.12,25.8,31,3,0.9
6631304,1745475230338,0.0,133,,-0.34,-0.84,0.98,-62,1,1,1.33,1.49,90,7629,12.3,2.76,,8.41,1.061,89.8,,43.2,5,,,,,,,,,,,,0,0,0,0,0,0,0,0,0,0,0,0,0,0,0,0,,,,,,0.0,,,,,,,
