"Interval"|"ms"|0|0|1,"Utc"|"ms"|0|0|1,"FrontBP"|"psi"|-5.0|5.0|25,"SteerAng"|"Degrees"|-145|145|25,"Battery"|"Volts"|-5.0|20.0|1,"AccelX"|"G"|-3.0|3.0|25,"AccelY"|"G"|-3.0|3.0|25,"AccelZ"|"G"|-3.0|3.0|25,"Yaw"|"Deg/Sec"|-120|120|25,"Pitch"|"Deg/Sec"|-120|120|25,"Roll"|"Deg/Sec"|-120|120|25,"Gsum"|"G"|0.0|3.0|25,"GsumMax"|"G"|0.0|3.0|25,"GsumPct"|"%"|0|100|25,"RPM"|""|0|10000|25,"TPS"|"%"|0.0|100.0|25,"InjectorPW"|"ms"|0.0|100.0|25,"Baro"|"kPa"|0|105|1,"MAP"|"Psi"|0.0|255.0|25,"Lambda"|""|-2.0|2.0|25,"IAT"|"C"|0.0|200.0|25,"EngineTemp"|"C"|0|200|1,"EOP"|"PSI"|0.0|152.0|25,"EOT"|"F"|0|250|25,"WSFR"|"MPH"|0|150|10,"WSFL"|"MPH"|0|100|10,"WSRR"|"MPH"|0|100|10,"WSRL"|""|0|100|10,"TCSet"|"%"|0.0|100.0|10,"TCSlip"|"%"|0.0|100.0|10,"TCComp"|"deg"|0.0|50.0|10,"TCCut"|"%"|0.0|100.0|10,"Analog8"|""|0.0|5.0|10,"OilTemp"|"F"|0|300|1,"AA_On"|""|0.0|1.0|1,"ThermLF1"|"C"|0|400|50,"ThermLF2"|"C"|0|400|50,"ThermRR1"|"C"|0|400|50,"ThermRR2"|"C"|0|400|50,"ThermLF3"|"C"|0|400|50,"ThermLF4"|"C"|0|400|50,"ThermLF5"|"C"|0|400|50,"ThermLF6"|"C"|0|400|50,"ThermLF7"|"C"|0|400|50,"ThermLF8"|"C"|0|400|50,"ThermRR3"|"C"|0|400|50,"ThermRR4"|"C"|0|400|50,"ThermRR5"|"C"|0|400|50,"ThermRR6"|"C"|0|400|50,"ThermRR7"|"C"|0|400|50,"ThermRR8"|"C"|0|400|50,"AA_LowDrag"|""|0|1|1,"Gear"|""|1|6|10,"AA_On"|""|0.0|1.0|1,"AA_LowDrag"|""|0|1|1,"Fuel_Mix"|""|-10|10|1,"AA_Packages"|""|0.0|1000.0|25,"Latitude"|"Degrees"|-180.0|180.0|10,"Longitude"|"Degrees"|-180.0|180.0|10,"Speed"|"kph"|0.0|150.0|10,"Altitude"|"m"|0.0|4000.0|10,"GPSSats"|""|0|20|10,"GPSQual"|""|0|5|10,"GPSDOP"|""|0.0|20.0|10
6827404,1745475426442,,,,,,,,,,,,,,,,,,,,,,,,,,,,,,,,,,0,0,0,0,0,0,0,0,0,0,0,0,0,0,0,0,,,,,,,,,,,,,
6827424,1745475426462,117.65,74,,-0.11,0.15,0.92,-2,-0,1,0.94,0.94,100,13089,11.7,2.13,,7.61,0.955,89.8,,57.8,5,,,,,,,,,,,,0,0,0,0,0,0,0,0,0,0,0,0,0,0,0,0,,,,,,0.0,,,,,,,
6827444,1745475426482,,,,,,,,,,,,,,,,,,,,,,,,,,,,,,,,,,0,0,0,0,0,0,0,0,0,0,0,0,0,0,0,0,,,,,,,,,,,,,
6827464,1745475426500,117.65,95,,-0.09,0.09,0.99,-0,-0,0,1.0,1.0,100,13089,11.7,2.13,,6.75,0.977,89.8,,57.8,5,,,,,,,,,,,,0,0,0,0,0,0,0,0,0,0,0,0,0,0,0,0,,,,,,0.0,,,,,,,
6827484,1745475426520,,,,,,,,,,,,,,,,,,,,,,,0,0,0,0,0.0,0.0,0.0,0.0,2.2,,,0,0,0,0,0,0,0,0,0,0,0,0,0,0,0,0,,0,,,,,38.994099,-76.939652,0.04,26.5,33,3,0.8
6827504,1745475426540,117.02,81,,-0.08,-0.01,0.94,-1,-0,-0,0.94,1.0,94,12934,22.5,1.91,,7.2,0.989,89.8,,55.4,5,,,,,,,,,,,,0,0,0,0,0,0,0,0,0,0,0,0,0,0,0,0,,,,,,0.0,,,,,,,
6827524,1745475426560,,,,,,,,,,,,,,,,,,,,,,,,,,,,,,,,,,0,0,0,0,0,0,0,0,0,0,0,0,0,0,0,0,,,,,,,,,,,,,
6827544,1745475426580,117.65,78,,-0.1,-0.17,0.98,-1,-0,0,1.0,1.0,100,12261,42.1,2.72,,9.25,1.053,89.8,,55.4,5,,,,,,,,,,,,0,0,0,0,0,0,0,0,0,0,0,0,0,0,0,0,,,,,,0.0,,,,,,,
6827564,1745475426600,,,,,,,,,,,,,,,,,,,,,,,,,,,,,,,,,,0,0,0,0,0,0,0,0,0,0,0,0,0,0,0,0,,,,,,,,,,,,,
6827584,1745475426620,118.28,78,,-0.1,-0.2,0.93,-2,-0,-0,0.96,1.0,96,11715,47.1,2.97,,10.96,1.247,89.8,,55.4,5,0,0,0,0,0.0,0.0,0.0,0.0,2.21,,,0,0,0,0,0,0,0,0,0,0,0,0,0,0,0,0,,0,,,,0.0,38.994099,-76.939652,0.13,26.5,33,3,0.8
6827604,1745475426640,,,,,,,,,,,,,,,,,,,,,,,,,,,,,,,,,,0,0,0,0,0,0,0,0,0,0,0,0,0,0,0,0,,,,,,,,,,,,,
6827624,1745475426660,117.02,78,,-0.09,-0.2,1.0,-3,-0,-0,1.03,1.03,100,11264,30.7,4.07,,10.96,1.247,89.8,,53.6,5,,,,,,,,,,,,0,0,0,0,0,0,0,0,0,0,0,0,0,0,0,0,,,,,,0.0,,,,,,,
6827644,1745475426680,,,,,,,,,,,,,,,,,,,,,,,,,,,,,,,,,,0,0,0,0,0,0,0,0,0,0,0,0,0,0,0,0,,,,,,,,,,,,,
6827664,1745475426702,117.02,71,,-0.1,-0.2,0.96,-2,-0,0,0.99,1.03,96,11264,30.7,4.07,,10.78,1.248,89.8,,53.6,5,,,,,,,,,,,,0,0,0,0,0,0,0,0,0,0,0,0,0,0,0,0,,,,,,0.0,,,,,,,
6827684,1745475426722,,,,,,,,,,,,,,,,,,,,,,,0,0,0,0,0.0,0.0,0.0,0.0,2.21,,,0,0,0,0,0,0,0,0,0,0,0,0,0,0,0,0,,0,,,,,38.994099,-76.939652,0.15,26.5,33,3,0.8
6827704,1745475426742,115.76,71,,-0.05,-0.12,0.88,-1,-0,0,0.89,1.03,87,12048,7.4,2.55,,8.55,1.25,89.8,,60.0,5,,,,,,,,,,,,0,0,0,0,0,0,0,0,0,0,0,0,0,0,0,0,,,,,,0.0,,,,,,,
6827724,1745475426762,,,,,,,,,,,,,,,,,,,,,,,,,,,,,,,,,,0,0,0,0,0,0,0,0,0,0,0,0,0,0,0,0,,,,,,,,,,,,,
6827744,1745475426782,118.9,81,,0.0,-0.13,0.93,0,-0,0,0.94,1.03,92,12214,2.1,1.4,,6.71,1.133,89.8,,60.0,5,,,,,,,,,,,,0,0,0,0,0,0,0,0,0,0,0,0,0,0,0,0,,,,,,0.0,,,,,,,
6827764,1745475426801,,,,,,,,,,,,,,,,,,,,,,,,,,,,,,,,,,0,0,0,0,0,0,0,0,0,0,0,0,0,0,0,0,,,,,,,,,,,,,
6827784,1745475426821,118.28,95,,-0.03,-0.12,1.04,1,-0,0,1.04,1.04,100,11603,0.9,1.4,,5.76,1.051,89.8,,60.0,5,0,0,0,0,0.0,0.0,0.0,0.0,2.21,,,0,0,0,0,0,0,0,0,0,0,0,0,0,0,0,0,,0,,,,0.0,38.994099,-76.939652,0.08,26.5,33,3,0.8
6827804,1745475426841,,,,,,,,,,,,,,,,,,,,,,,,,,,,,,,,,,0,0,0,0,0,0,0,0,0,0,0,0,0,0,0,0,,,,,,,,,,,,,
6827824,1745475426861,118.28,95,,-0.03,-0.17,1.02,1,-0,0,1.03,1.04,99,10964,5.3,1.4,,5.76,1.051,89.8,,56.1,5,,,,,,,,,,,,0,0,0,0,0,0,0,0,0,0,0,0,0,0,0,0,,,,,,0.0,,,,,,,
6827844,1745475426881,,,,,,,,,,,,,,,,,,,,,,,,,,,,,,,,,,0,0,0,0,0,0,0,0,0,0,0,0,0,0,0,0,,,,,,,,,,,,,
6827864,1745475426901,117.65,91,,-0.06,-0.21,1.1,1,-0,-1,1.12,1.12,100,10964,5.3,1.4,,5.67,1.235,89.8,,56.1,5,,,,,,,,,,,,0,0,0,0,0,0,0,0,0,0,0,0,0,0,0,0,,,,,,0.0,,,,,,,
6827884,1745475426921,,,,,,,,,,,,,,,,,,,,,,,0,0,0,0,0.0,0.0,0.0,0.0,2.21,,,0,0,0,0,0,0,0,0,0,0,0,0,0,0,0,0,,0,,,,,38.994099,-76.939652,0.13,26.5,33,3,0.8
6827904,1745475426941,116.39,78,,-0.06,-0.22,1.09,1,-0,-0,1.11,1.12,99,10356,24.0,2.48,,7.3,1.25,89.8,,52.7,5,,,,,,,,,,,,0,0,0,0,0,0,0,0,0,0,0,0,0,0,0,0,,,,,,0.0,,,,,,,
6827924,1745475426961,,,,,,,,,,,,,,,,,,,,,,,,,,,,,,,,,,0,0,0,0,0,0,0,0,0,0,0,0,0,0,0,0,,,,,,,,,,,,,
6827944,1745475426981,115.13,71,,-0.04,-0.15,1.05,1,-0,0,1.06,1.12,94,10098,30.1,3.06,,9.1,1.249,89.8,,52.7,5,,,,,,,,,,,,0,0,0,0,0,0,0,0,0,0,0,0,0,0,0,0,,,,,,0.0,,,,,,,
6827964,1745475426993,,,,,,,,,,,,,,,,,,,,,,,,,,,,,,,,,,0,0,0,0,0,0,0,0,0,0,0,0,0,0,0,0,,,,,,,,,,,,,
6827984,1745475427013,113.25,85,,-0.06,-0.02,0.97,2,-0,-0,0.97,1.12,87,9977,29.2,3.5,,9.76,1.248,89.8,,52.7,5,0,0,0,0,0.0,0.0,0.0,0.0,2.21,,,0,0,0,0,0,0,0,0,0,0,0,0,0,0,0,0,,0,,,,0.0,38.994099,-76.939652,0.12,26.4,33,3,0.8
6828004,1745475427033,,,,,,,,,,,,,,,,,,,,,,,,,,,,,,,,,,0,0,0,0,0,0,0,0,0,0,0,0,0,0,0,0,,,,,,,,,,,,,
6828024,1745475427053,111.99,85,,-0.07,-0.12,0.94,1,-0,-0,0.95,1.12,85,10402,17.9,3.48,,9.76,1.248,89.8,,49.8,5,,,,,,,,,,,,0,0,0,0,0,0,0,0,0,0,0,0,0,0,0,0,,,,,,0.0,,,,,,,
6828044,1745475427073,,,,,,,,,,,,,,,,,,,,,,,,,,,,,,,,,,0,0,0,0,0,0,0,0,0,0,0,0,0,0,0,0,,,,,,,,,,,,,
6828064,1745475427097,110.11,78,,-0.05,-0.04,0.88,1,-0,-0,0.88,1.12,79,10402,17.9,3.48,,9.22,1.248,89.8,,49.8,5,,,,,,,,,,,,0,0,0,0,0,0,0,0,0,0,0,0,0,0,0,0,,,,,,0.0,,,,,,,
6828084,1745475427117,,,,,,,,,,,,,,,,,,,,,,,0,0,0,0,0.0,0.0,0.0,0.0,2.21,,,0,0,0,0,0,0,0,0,0,0,0,0,0,0,0,0,,0,,,,,38.994099,-76.939652,0.08,26.4,33,3,0.8
6828104,1745475427137,110.73,85,,-0.05,0.01,1.0,1,-0,0,1.0,1.12,89,10997,13.2,2.68,,8.31,1.248,89.8,,54.9,5,,,,,,,,,,,,0,0,0,0,0,0,0,0,0,0,0,0,0,0,0,0,,,,,,0.0,,,,,,,
6828124,1745475427157,,,,,,,,,,,,,,,,,,,,,,,,,,,,,,,,,,0,0,0,0,0,0,0,0,0,0,0,0,0,0,0,0,,,,,,,,,,,,,
6828144,1745475427177,108.22,95,,-0.04,-0.08,0.97,1,-0,-1,0.98,1.12,87,11312,12.1,2.23,,7.54,1.095,89.8,,54.9,5,,,,,,,,,,,,0,0,0,0,0,0,0,0,0,0,0,0,0,0,0,0,,,,,,0.0,,,,,,,
6828164,1745475427199,,,,,,,,,,,,,,,,,,,,,,,,,,,,,,,,,,0,0,0,0,0,0,0,0,0,0,0,0,0,0,0,0,,,,,,,,,,,,,
6828184,1745475427219,102.56,95,,-0.05,-0.07,0.95,1,-0,-1,0.95,1.12,85,11144,12.8,2.14,,7.25,1.062,89.8,,54.9,5,0,0,0,0,0.0,0.0,0.0,0.0,2.21,,,0,0,0,0,0,0,0,0,0,0,0,0,0,0,0,0,,0,,,,0.0,38.994099,-76.939652,0.12,26.4,33,3,0.8
6828204,1745475427239,,,,,,,,,,,,,,,,,,,,,,,,,,,,,,,,,,0,0,0,0,0,0,0,0,0,0,0,0,0,0,0,0,,,,,,,,,,,,,
6828224,1745475427259,98.79,95,,-0.09,-0.23,0.97,0,-0,-1,1.0,1.12,89,10951,18.3,2.55,,7.25,1.062,89.8,,55.4,5,,,,,,,,,,,,0,0,0,0,0,0,0,0,0,0,0,0,0,0,0,0,,,,,,0.0,,,,,,,
6828244,1745475427279,,,,,,,,,,,,,,,,,,,,,,,,,,,,,,,,,,0,0,0,0,0,0,0,0,0,0,0,0,0,0,0,0,,,,,,,,,,,,,
6828264,1745475427301,89.99,102,,-0.09,-0.09,1.02,0,-0,-0,1.03,1.12,91,10951,18.3,2.55,,7.58,1.156,89.8,,55.4,5,,,,,,,,,,,,0,0,0,0,0,0,0,0,0,0,0,0,0,0,0,0,,,,,,0.0,,,,,,,
6828284,1745475427321,,,,,,,,,,,,,,,,,,,,,,,0,0,0,0,0.0,0.0,0.0,0.0,2.21,,,0,0,0,0,0,0,0,0,0,0,0,0,0,0,0,0,,0,,,,,38.994099,-76.939652,0.05,26.4,33,3,0.8
6828304,1745475427341,79.94,102,,-0.11,-0.11,0.98,1,-0,-0,0.99,1.12,88,11146,20.4,2.8,,8.14,1.241,89.8,,52.2,5,,,,,,,,,,,,0,0,0,0,0,0,0,0,0,0,0,0,0,0,0,0,,,,,,0.0,,,,,,,
6828324,1745475427361,,,,,,,,,,,,,,,,,,,,,,,,,,,,,,,,,,0,0,0,0,0,0,0,0,0,0,0,0,0,0,0,0,,,,,,,,,,,,,
6828344,1745475427381,68.0,98,,-0.09,-0.03,1.02,2,-0,-1,1.03,1.12,92,11380,21.3,2.94,,8.39,1.159,88.0,,52.2,5,,,,,,,,,,,,0,0,0,0,0,0,0,0,0,0,0,0,0,0,0,0,,,,,,0.0,,,,,,,
6828364,1745475427403,,,,,,,,,,,,,,,,,,,,,,,,,,,,,,,,,,0,0,0,0,0,0,0,0,0,0,0,0,0,0,0,0,,,,,,,,,,,,,
6828384,1745475427423,53.54,112,12.65,-0.07,-0.08,0.92,0,0,-1,0.93,1.12,83,11580,21.4,2.94,15,8.63,1.113,88.0,182,52.2,5,0,0,0,0,0.0,0.0,0.0,0.0,2.21,0,1.0,0,0,0,0,0,0,0,0,0,0,0,0,0,0,0,0,0,0,1.0,0,0,0.0,38.994099,-76.939652,0.08,26.4,33,3,0.8
6828404,1745475427443,,,,,,,,,,,,,,,,,,,,,,,,,,,,,,,,,,0,0,0,0,0,0,0,0,0,0,0,0,0,0,0,0,,,,,,,,,,,,,
6828424,1745475427463,40.98,125,,-0.15,0.07,0.9,-1,-0,-1,0.91,1.12,81,11898,21.4,2.89,,8.63,1.113,88.0,,52.2,5,,,,,,,,,,,,0,0,0,0,0,0,0,0,0,0,0,0,0,0,0,0,,,,,,0.0,,,,,,,
6828444,1745475427483,,,,,,,,,,,,,,,,,,,,,,,,,,,,,,,,,,0,0,0,0,0,0,0,0,0,0,0,0,0,0,0,0,,,,,,,,,,,,,
6828464,1745475427502,30.29,112,,-0.16,0.23,0.97,-1,-0,-1,1.02,1.12,90,11898,21.4,2.89,,8.49,1.102,88.0,,52.2,5,,,,,,,,,,,,0,0,0,0,0,0,0,0,0,0,0,0,0,0,0,0,,,,,,0.0,,,,,,,
6828484,1745475427522,,,,,,,,,,,,,,,,,,,,,,,0,0,0,0,0.0,0.0,0.0,0.0,2.2,,,0,0,0,0,0,0,0,0,0,0,0,0,0,0,0,0,,0,,,,,38.994099,-76.939652,0.07,26.4,33,3,0.8
6828504,1745475427542,22.12,112,,-0.16,0.35,1.1,-2,-0,-0,1.17,1.17,100,11936,21.3,2.86,,8.37,1.076,88.0,,56.3,5,,,,,,,,,,,,0,0,0,0,0,0,0,0,0,0,0,0,0,0,0,0,,,,,,0.0,,,,,,,
6828524,1745475427562,,,,,,,,,,,,,,,,,,,,,,,,,,,,,,,,,,0,0,0,0,0,0,0,0,0,0,0,0,0,0,0,0,,,,,,,,,,,,,
6828544,1745475427582,13.95,108,,-0.23,0.42,1.09,-3,-0,-0,1.19,1.19,100,12057,21.1,2.77,,8.31,1.123,88.0,,56.3,5,,,,,,,,,,,,0,0,0,0,0,0,0,0,0,0,0,0,0,0,0,0,,,,,,0.0,,,,,,,
6828564,1745475427603,,,,,,,,,,,,,,,,,,,,,,,,,,,,,,,,,,0,0,0,0,0,0,0,0,0,0,0,0,0,0,0,0,,,,,,,,,,,,,
6828584,1745475427623,6.41,122,,-0.22,0.48,0.97,-4,-0,0,1.1,1.19,93,12100,21.0,2.71,,8.23,1.128,88.0,,56.3,5,0,0,0,0,0.0,0.0,0.0,0.0,2.21,,,0,0,0,0,0,0,0,0,0,0,0,0,0,0,0,0,,0,,,,0.0,38.994099,-76.939652,0.1,26.4,33,3,0.8
6828604,1745475427643,,,,,,,,,,,,,,,,,,,,,,,,,,,,,,,,,,0,0,0,0,0,0,0,0,0,0,0,0,0,0,0,0,,,,,,,,,,,,,
6828624,1745475427663,2.64,112,,-0.17,0.42,0.89,-4,-0,-0,0.99,1.19,83,12093,19.7,2.58,,8.23,1.128,88.0,,52.8,5,,,,,,,,,,,,0,0,0,0,0,0,0,0,0,0,0,0,0,0,0,0,,,,,,0.0,,,,,,,
6828644,1745475427683,,,,,,,,,,,,,,,,,,,,,,,,,,,,,,,,,,0,0,0,0,0,0,0,0,0,0,0,0,0,0,0,0,,,,,,,,,,,,,
6828664,1745475427702,0.0,119,,-0.14,0.23,0.81,-2,-0,-1,0.85,1.19,72,12093,19.7,2.58,,8.02,1.146,88.0,,52.8,5,,,,,,,,,,,,0,0,0,0,0,0,0,0,0,0,0,0,0,0,0,0,,,,,,0.0,,,,,,,
6828684,1745475427722,,,,,,,,,,,,,,,,,,,,,,,0,0,0,0,0.0,0.0,0.0,0.0,2.21,,,0,0,0,0,0,0,0,0,0,0,0,0,0,0,0,0,,0,,,,,38.994099,-76.939652,0.04,26.4,33,3,0.8
6828704,1745475427742,0.0,115,,-0.13,-0.03,0.78,-2,-0,-1,0.79,1.19,66,12057,16.1,2.33,,7.65,1.165,88.0,,56.4,5,,,,,,,,,,,,0,0,0,0,0,0,0,0,0,0,0,0,0,0,0,0,,,,,,0.0,,,,,,,
6828724,1745475427762,,,,,,,,,,,,,,,,,,,,,,,,,,,,,,,,,,0,0,0,0,0,0,0,0,0,0,0,0,0,0,0,0,,,,,,,,,,,,,
6828744,1745475427782,0.0,119,,-0.14,-0.11,0.74,-3,-0,-1,0.76,1.19,63,11914,13.0,2.16,,7.12,1.178,88.0,,56.4,5,,,,,,,,,,,,0,0,0,0,0,0,0,0,0,0,0,0,0,0,0,0,,,,,,0.0,,,,,,,
6828764,1745475427802,,,,,,,,,,,,,,,,,,,,,,,,,,,,,,,,,,0,0,0,0,0,0,0,0,0,0,0,0,0,0,0,0,,,,,,,,,,,,,
6828784,1745475427822,0.0,135,,-0.15,-0.14,0.65,-4,-0,-0,0.68,1.19,57,11795,10.5,1.96,,6.52,1.192,88.0,,56.4,5,0,0,0,0,0.0,0.0,0.0,0.0,2.2,,,0,0,0,0,0,0,0,0,0,0,0,0,0,0,0,0,,0,,,,0.0,38.994099,-76.939652,0.07,26.4,33,3,0.8
6828804,1745475427842,,,,,,,,,,,,,,,,,,,,,,,,,,,,,,,,,,0,0,0,0,0,0,0,0,0,0,0,0,0,0,0,0,,,,,,,,,,,,,
6828824,1745475427862,0.0,135,,-0.1,0.03,0.78,-3,-0,0,0.79,1.19,66,11438,10.5,1.8,,6.52,1.192,88.0,,50.9,5,,,,,,,,,,,,0,0,0,0,0,0,0,0,0,0,0,0,0,0,0,0,,,,,,0.0,,,,,,,
6828844,1745475427882,,,,,,,,,,,,,,,,,,,,,,,,,,,,,,,,,,0,0,0,0,0,0,0,0,0,0,0,0,0,0,0,0,,,,,,,,,,,,,
6828864,1745475427902,0.0,135,,-0.13,-0.01,0.82,-3,-0,-0,0.83,1.19,69,11438,10.5,1.8,,6.36,1.181,88.0,,50.9,5,,,,,,,,,,,,0,0,0,0,0,0,0,0,0,0,0,0,0,0,0,0,,,,,,0.0,,,,,,,
6828884,1745475427922,,,,,,,,,,,,,,,,,,,,,,,0,0,0,0,0.0,0.0,0.0,0.0,2.21,,,0,0,0,0,0,0,0,0,0,0,0,0,0,0,0,0,,0,,,,,38.994099,-76.939652,0.05,26.4,33,3,0.8
6828904,1745475427942,0.0,135,,-0.11,-0.11,0.83,-2,-0,-1,0.84,1.19,71,11026,10.5,1.72,,6.35,1.25,88.0,,53.0,5,,,,,,,,,,,,0,0,0,0,0,0,0,0,0,0,0,0,0,0,0,0,,,,,,0.0,,,,,,,
6828924,1745475427962,,,,,,,,,,,,,,,,,,,,,,,,,,,,,,,,,,0,0,0,0,0,0,0,0,0,0,0,0,0,0,0,0,,,,,,,,,,,,,
6828944,1745475427982,0.0,135,,-0.12,-0.26,0.94,-2,-0,-0,0.99,1.19,83,10514,11.4,1.76,,6.34,1.249,88.0,,53.0,5,,,,,,,,,,,,0,0,0,0,0,0,0,0,0,0,0,0,0,0,0,0,,,,,,0.0,,,,,,,
6828964,1745475427994,,,,,,,,,,,,,,,,,,,,,,,,,,,,,,,,,,0,0,0,0,0,0,0,0,0,0,0,0,0,0,0,0,,,,,,,,,,,,,
6828984,1745475428014,0.0,135,,-0.11,-0.02,0.9,-2,-0,0,0.91,1.19,76,10046,14.2,2.21,,6.8,1.248,88.0,,53.0,5,0,0,0,0,0.0,0.0,0.0,0.0,2.21,,,0,0,0,0,0,0,0,0,0,0,0,0,0,0,0,0,,0,,,,0.0,38.994099,-76.939652,0.08,26.5,33,3,0.8
6829004,1745475428034,,,,,,,,,,,,,,,,,,,,,,,,,,,,,,,,,,0,0,0,0,0,0,0,0,0,0,0,0,0,0,0,0,,,,,,,,,,,,,
6829024,1745475428054,0.0,135,,-0.1,-0.07,0.92,-2,-0,0,0.93,1.19,78,9823,17.0,2.58,,6.8,1.248,88.0,,49.6,5,,,,,,,,,,,,0,0,0,0,0,0,0,0,0,0,0,0,0,0,0,0,,,,,,0.0,,,,,,,
6829044,1745475428074,,,,,,,,,,,,,,,,,,,,,,,,,,,,,,,,,,0,0,0,0,0,0,0,0,0,0,0,0,0,0,0,0,,,,,,,,,,,,,
6829064,1745475428100,0.0,135,,-0.11,-0.1,0.98,-1,-0,0,0.99,1.19,83,9823,17.0,2.58,,7.39,1.248,88.0,,49.6,5,,,,,,,,,,,,0,0,0,0,0,0,0,0,0,0,0,0,0,0,0,0,,,,,,0.0,,,,,,,
6829084,1745475428120,,,,,,,,,,,,,,,,,,,,,,,0,0,0,0,0.0,0.0,0.0,0.0,2.22,,,0,0,0,0,0,0,0,0,0,0,0,0,0,0,0,0,,0,,,,,38.994099,-76.939652,0.05,26.5,33,3,0.8
6829104,1745475428140,0.0,135,,-0.12,-0.19,1.03,-0,-0,-0,1.06,1.19,89,9960,23.4,2.88,,8.31,1.248,88.0,,48.2,5,,,,,,,,,,,,0,0,0,0,0,0,0,0,0,0,0,0,0,0,0,0,,,,,,0.0,,,,,,,
6829124,1745475428160,,,,,,,,,,,,,,,,,,,,,,,,,,,,,,,,,,0,0,0,0,0,0,0,0,0,0,0,0,0,0,0,0,,,,,,,,,,,,,
6829144,1745475428180,0.0,135,,-0.08,-0.02,1.04,-0,-0,0,1.04,1.19,87,10067,36.7,3.52,,10.01,1.248,88.0,,48.2,5,,,,,,,,,,,,0,0,0,0,0,0,0,0,0,0,0,0,0,0,0,0,,,,,,0.0,,,,,,,
6829164,1745475428200,,,,,,,,,,,,,,,,,,,,,,,,,,,,,,,,,,0,0,0,0,0,0,0,0,0,0,0,0,0,0,0,0,,,,,,,,,,,,,
6829184,1745475428220,0.0,135,,-0.1,-0.2,1.12,0,-0,0,1.14,1.19,95,10116,53.6,5.04,,11.81,1.249,88.0,,48.2,5,0,0,0,0,0.0,0.0,0.0,0.0,2.22,,,0,0,0,0,0,0,0,0,0,0,0,0,0,0,0,0,,0,,,,0.0,38.994099,-76.939652,0.05,26.5,33,3,0.8
6829204,1745475428240,,,,,,,,,,,,,,,,,,,,,,,,,,,,,,,,,,0,0,0,0,0,0,0,0,0,0,0,0,0,0,0,0,,,,,,,,,,,,,
6829224,1745475428260,0.0,135,,-0.09,0.01,1.01,-1,-0,0,1.02,1.19,85,10187,62.5,5.44,,11.81,1.249,88.0,,47.8,5,,,,,,,,,,,,0,0,0,0,0,0,0,0,0,0,0,0,0,0,0,0,,,,,,0.0,,,,,,,
6829244,1745475428280,,,,,,,,,,,,,,,,,,,,,,,,,,,,,,,,,,0,0,0,0,0,0,0,0,0,0,0,0,0,0,0,0,,,,,,,,,,,,,
6829264,1745475428302,0.0,135,,-0.09,-0.15,1.0,-1,-0,-0,1.02,1.19,85,10187,62.5,5.44,,13.01,1.25,88.0,,47.8,5,,,,,,,,,,,,0,0,0,0,0,0,0,0,0,0,0,0,0,0,0,0,,,,,,0.0,,,,,,,
6829284,1745475428322,,,,,,,,,,,,,,,,,,,,,,,0,0,0,0,0.0,0.0,0.0,0.0,2.21,,,0,0,0,0,0,0,0,0,0,0,0,0,0,0,0,0,,0,,,,,38.994099,-76.939652,0.11,26.4,33,3,0.8
6829304,1745475428342,0.0,135,,-0.04,-0.1,0.98,-1,-0,-0,0.98,1.19,82,11658,66.1,4.42,,13.21,1.251,88.0,,60.0,5,,,,,,,,,,,,0,0,0,0,0,0,0,0,0,0,0,0,0,0,0,0,,,,,,0.0,,,,,,,
6829324,1745475428362,,,,,,,,,,,,,,,,,,,,,,,,,,,,,,,,,,0,0,0,0,0,0,0,0,0,0,0,0,0,0,0,0,,,,,,,,,,,,,
6829344,1745475428382,0.0,134,,-0.06,-0.05,1.05,0,-0,-0,1.05,1.19,88,12489,69.6,4.98,,12.99,1.137,88.0,,60.0,5,,,,,,,,,,,,0,0,0,0,0,0,0,0,0,0,0,0,0,0,0,0,,,,,,0.0,,,,,,,
6829364,1745475428402,,,,,,,,,,,,,,,,,,,,,,,,,,,,,,,,,,0,0,0,0,0,0,0,0,0,0,0,0,0,0,0,0,,,,,,,,,,,,,
6829384,1745475428422,0.0,135,12.71,-0.07,-0.16,1.06,2,0,0,1.07,1.19,90,13321,83.8,4.72,15,12.88,1.143,88.0,182,60.0,5,0,0,0,0,0.0,0.0,0.0,0.0,2.2,0,1.0,0,0,0,0,0,0,0,0,0,0,0,0,0,0,0,0,0,0,1.0,0,0,0.0,38.994099,-76.939652,0.07,26.4,33,3,0.8
6829404,1745475428442,,,,,,,,,,,,,,,,,,,,,,,,,,,,,,,,,,0,0,0,0,0,0,0,0,0,0,0,0,0,0,0,0,,,,,,,,,,,,,
6829424,1745475428462,0.0,135,,-0.12,-0.12,1.06,4,1,-0,1.07,1.19,90,14005,99.3,3.95,,12.88,1.143,88.0,,64.2,5,,,,,,,,,,,,0,0,0,0,0,0,0,0,0,0,0,0,0,0,0,0,,,,,,0.0,,,,,,,
6829444,1745475428482,,,,,,,,,,,,,,,,,,,,,,,,,,,,,,,,,,0,0,0,0,0,0,0,0,0,0,0,0,0,0,0,0,,,,,,,,,,,,,
6829464,1745475428502,0.0,135,,-0.09,-0.04,0.98,5,1,1,0.99,1.19,83,14005,99.3,3.95,,12.73,1.111,88.0,,64.2,5,,,,,,,,,,,,0,0,0,0,0,0,0,0,0,0,0,0,0,0,0,0,,,,,,0.0,,,,,,,
6829484,1745475428522,,,,,,,,,,,,,,,,,,,,,,,0,0,0,0,0.0,0.0,0.0,0.0,2.2,,,0,0,0,0,0,0,0,0,0,0,0,0,0,0,0,0,,0,,,,,38.994099,-76.939652,0.07,26.4,33,3,0.8
6829504,1745475428542,0.0,134,,0.05,-0.04,0.98,3,2,2,0.98,1.19,82,12897,99.5,4.7,,13.15,1.16,88.0,,62.6,5,,,,,,,,,,,,0,0,0,0,0,0,0,0,0,0,0,0,0,0,0,0,,,,,,0.0,,,,,,,
6829524,1745475428562,,,,,,,,,,,,,,,,,,,,,,,,,,,,,,,,,,0,0,0,0,0,0,0,0,0,0,0,0,0,0,0,0,,,,,,,,,,,,,
6829544,1745475428582,0.0,135,,0.16,-0.12,0.98,3,2,2,1.0,1.19,83,11550,99.4,5.26,,13.29,1.248,88.0,,62.6,5,,,,,,,,,,,,0,0,0,0,0,0,0,0,0,0,0,0,0,0,0,0,,,,,,0.0,,,,,,,
6829564,1745475428602,,,,,,,,,,,,,,,,,,,,,,,,,,,,,,,,,,0,0,0,0,0,0,0,0,0,0,0,0,0,0,0,0,,,,,,,,,,,,,
6829584,1745475428622,0.0,135,,0.21,-0.05,0.95,2,2,2,0.97,1.19,81,10101,99.4,5.95,,13.65,1.247,88.0,,62.6,5,0,0,5,0,0.0,0.0,0.0,0.0,2.2,,,0,0,0,0,0,0,0,0,0,0,0,0,0,0,0,0,,0,,,,0.0,38.994099,-76.939652,0.38,26.4,33,3,0.8
6829604,1745475428642,,,,,,,,,,,,,,,,,,,,,,,,,,,,,,,,,,0,0,0,0,0,0,0,0,0,0,0,0,0,0,0,0,,,,,,,,,,,,,
6829624,1745475428662,0.0,135,,0.23,0.11,0.94,1,1,2,0.97,1.19,81,10049,99.4,6.1,,13.65,1.247,88.0,,52.4,5,,,,,,,,,,,,0,0,0,0,0,0,0,0,0,0,0,0,0,0,0,0,,,,,,0.0,,,,,,,
6829644,1745475428682,,,,,,,,,,,,,,,,,,,,,,,,,,,,,,,,,,0,0,0,0,0,0,0,0,0,0,0,0,0,0,0,0,,,,,,,,,,,,,
6829664,1745475428701,0.0,132,,0.25,0.16,0.91,2,1,1,0.96,1.19,80,10049,99.4,6.1,,13.76,1.199,88.0,,52.4,5,,,,,,,,,,,,0,0,0,0,0,0,0,0,0,0,0,0,0,0,0,0,,,,,,0.0,,,,,,,
6829684,1745475428721,,,,,,,,,,,,,,,,,,,,,,,2,0,28,30,0.0,0.0,0.0,0.0,2.21,,,0,0,0,0,0,0,0,0,0,0,0,0,0,0,0,0,,1,,,,,38.994099,-76.939652,3.22,26.4,33,3,0.8
6829704,1745475428741,0.0,135,,0.3,0.01,0.93,3,1,0,0.98,1.19,82,10799,99.4,5.72,,13.61,1.081,88.0,,56.9,5,,,,,,,,,,,,0,0,0,0,0,0,0,0,0,0,0,0,0,0,0,0,,,,,,0.0,,,,,,,
6829724,1745475428761,,,,,,,,,,,,,,,,,,,,,,,,,,,,,,,,,,0,0,0,0,0,0,0,0,0,0,0,0,0,0,0,0,,,,,,,,,,,,,
6829744,1745475428781,0.0,122,,0.32,0.05,0.93,3,1,0,0.98,1.19,82,11292,99.5,5.46,,13.43,1.015,88.0,,56.9,5,,,,,,,,,,,,0,0,0,0,0,0,0,0,0,0,0,0,0,0,0,0,,,,,,0.0,,,,,,,
6829764,1745475428801,,,,,,,,,,,,,,,,,,,,,,,,,,,,,,,,,,0,0,0,0,0,0,0,0,0,0,0,0,0,0,0,0,,,,,,,,,,,,,
6829784,1745475428821,0.0,135,,0.37,0.11,1.03,2,1,0,1.1,1.19,92,11459,99.5,5.39,,13.63,0.997,88.0,,56.9,5,3,0,34,33,0.0,0.0,0.0,0.0,2.2,,,0,0,0,0,0,0,0,0,0,0,0,0,0,0,0,0,,0,,,,0.0,38.994099,-76.939652,6.27,26.4,33,3,0.8
6829804,1745475428841,,,,,,,,,,,,,,,,,,,,,,,,,,,,,,,,,,0,0,0,0,0,0,0,0,0,0,0,0,0,0,0,0,,,,,,,,,,,,,
6829824,1745475428861,0.0,134,,0.44,-0.02,0.97,5,1,-0,1.06,1.19,89,11673,99.4,5.33,,13.63,0.997,88.0,,61.6,5,,,,,,,,,,,,0,0,0,0,0,0,0,0,0,0,0,0,0,0,0,0,,,,,,0.0,,,,,,,
6829844,1745475428881,,,,,,,,,,,,,,,,,,,,,,,,,,,,,,,,,,0,0,0,0,0,0,0,0,0,0,0,0,0,0,0,0,,,,,,,,,,,,,
6829864,1745475428901,0.0,135,,0.47,-0.14,1.05,5,0,1,1.15,1.19,97,11673,99.4,5.33,,13.52,0.977,88.0,,61.6,5,,,,,,,,,,,,0,0,0,0,0,0,0,0,0,0,0,0,0,0,0,0,,,,,,0.0,,,,,,,
6829884,1745475428921,,,,,,,,,,,,,,,,,,,,,,,5,0,37,36,0.0,0.0,0.0,0.0,2.2,,,0,0,0,0,0,0,0,0,0,0,0,0,0,0,0,0,,0,,,,,38.994099,-76.939652,8.78,26.4,33,3,0.8
6829904,1745475428941,0.0,135,,0.52,0.13,1.09,6,0,1,1.22,1.22,100,11758,99.5,5.28,,13.45,0.994,88.0,,61.6,5,,,,,,,,,,,,0,0,0,0,0,0,0,0,0,0,0,0,0,0,0,0,,,,,,0.0,,,,,,,
6829924,1745475428961,,,,,,,,,,,,,,,,,,,,,,,,,,,,,,,,,,0,0,0,0,0,0,0,0,0,0,0,0,0,0,0,0,,,,,,,,,,,,,
6829944,1745475428981,0.0,135,,0.55,0.35,1.0,5,1,1,1.19,1.22,98,11867,99.5,5.23,,13.39,1.007,88.0,,61.6,5,,,,,,,,,,,,0,0,0,0,0,0,0,0,0,0,0,0,0,0,0,0,,,,,,0.0,,,,,,,
6829964,1745475428993,,,,,,,,,,,,,,,,,,,,,,,,,,,,,,,,,,0,0,0,0,0,0,0,0,0,0,0,0,0,0,0,0,,,,,,,,,,,,,
6829984,1745475429013,0.0,135,,0.51,0.04,0.97,3,0,-1,1.1,1.22,90,11633,99.4,5.29,,13.36,0.998,88.0,,61.6,5,7,0,36,36,0.0,0.0,0.0,0.0,2.2,,,0,0,0,0,0,0,0,0,0,0,0,0,0,0,0,0,,0,,,,0.0,38.994099,-76.939644,11.53,26.4,33,3,0.8
6830004,1745475429033,,,,,,,,,,,,,,,,,,,,,,,,,,,,,,,,,,0,0,0,0,0,0,0,0,0,0,0,0,0,0,0,0,,,,,,,,,,,,,
6830024,1745475429053,0.0,135,,0.51,0.06,0.91,4,0,-1,1.05,1.22,86,11421,99.4,5.38,,13.36,0.998,88.0,,58.3,5,,,,,,,,,,,,0,0,0,0,0,0,0,0,0,0,0,0,0,0,0,0,,,,,,0.0,,,,,,,
6830044,1745475429073,,,,,,,,,,,,,,,,,,,,,,,,,,,,,,,,,,0,0,0,0,0,0,0,0,0,0,0,0,0,0,0,0,,,,,,,,,,,,,
6830064,1745475429101,0.0,122,,0.53,0.13,0.98,5,-0,-0,1.12,1.22,92,11421,99.4,5.38,,13.41,1.039,88.0,,58.3,5,,,,,,,,,,,,0,0,0,0,0,0,0,0,0,0,0,0,0,0,0,0,,,,,,0.0,,,,,,,
6830084,1745475429121,,,,,,,,,,,,,,,,,,,,,,,9,0,35,34,0.0,9.0,0.0,0.0,2.2,,,0,0,0,0,0,0,0,0,0,0,0,0,0,0,0,0,,1,,,,,38.994099,-76.939644,14.63,26.4,33,3,0.8
6830104,1745475429141,0.0,135,,0.57,0.06,1.02,6,-0,0,1.17,1.22,96,11427,99.4,5.37,,13.69,1.016,88.0,,58.1,5,,,,,,,,,,,,0,0,0,0,0,0,0,0,0,0,0,0,0,0,0,0,,,,,,0.0,,,,,,,
6830124,1745475429161,,,,,,,,,,,,,,,,,,,,,,,,,,,,,,,,,,0,0,0,0,0,0,0,0,0,0,0,0,0,0,0,0,,,,,,,,,,,,,
6830144,1745475429181,0.0,135,,0.62,-0.04,0.99,6,-0,1,1.17,1.22,96,11357,99.4,5.4,,13.6,0.983,88.0,,58.1,5,,,,,,,,,,,,0,0,0,0,0,0,0,0,0,0,0,0,0,0,0,0,,,,,,0.0,,,,,,,
6830164,1745475429199,,,,,,,,,,,,,,,,,,,,,,,,,,,,,,,,,,0,0,0,0,0,0,0,0,0,0,0,0,0,0,0,0,,,,,,,,,,,,,
6830184,1745475429219,0.0,134,,0.64,0.04,0.95,6,-0,1,1.15,1.22,94,11083,99.4,5.47,,13.6,0.977,88.0,,58.1,5,11,0,34,34,0.0,48.0,0.0,0.0,2.2,,,0,0,0,0,0,0,0,0,0,0,0,0,0,0,0,0,,1,,,,0.0,38.994099,-76.939636,18.34,26.4,33,3,0.8
6830204,1745475429239,,,,,,,,,,,,,,,,,,,,,,,,,,,,,,,,,,0,0,0,0,0,0,0,0,0,0,0,0,0,0,0,0,,,,,,,,,,,,,
6830224,1745475429259,0.0,134,,0.67,0.07,0.99,4,-0,1,1.2,1.22,99,10827,99.4,5.6,,13.6,0.977,88.0,,60.4,5,,,,,,,,,,,,0,0,0,0,0,0,0,0,0,0,0,0,0,0,0,0,,,,,,0.0,,,,,,,
6830244,1745475429279,,,,,,,,,,,,,,,,,,,,,,,,,,,,,,,,,,0,0,0,0,0,0,0,0,0,0,0,0,0,0,0,0,,,,,,,,,,,,,
6830264,1745475429301,0.0,135,,0.7,0.02,0.99,2,-0,0,1.21,1.22,100,10827,99.4,5.6,,13.39,0.992,88.0,,60.4,5,,,,,,,,,,,,0,0,0,0,0,0,0,0,0,0,0,0,0,0,0,0,,,,,,0.0,,,,,,,
6830284,1745475429321,,,,,,,,,,,,,,,,,,,,,,,13,16,32,32,0.0,251.0,0.0,0.0,2.2,,,0,0,0,0,0,0,0,0,0,0,0,0,0,0,0,0,,1,,,,,38.994099,-76.939629,21.54,26.4,33,3,0.8
6830304,1745475429341,0.0,134,,0.72,0.06,1.02,-0,-0,0,1.25,1.25,100,10737,99.4,5.67,,13.82,0.992,88.0,,60.9,5,,,,,,,,,,,,0,0,0,0,0,0,0,0,0,0,0,0,0,0,0,0,,,,,,0.0,,,,,,,
6830324,1745475429361,,,,,,,,,,,,,,,,,,,,,,,,,,,,,,,,,,0,0,0,0,0,0,0,0,0,0,0,0,0,0,0,0,,,,,,,,,,,,,
6830344,1745475429381,0.0,115,,0.8,0.1,1.01,1,0,1,1.3,1.3,100,10721,99.5,5.7,,13.57,0.983,88.0,,60.9,5,,,,,,,,,,,,0,0,0,0,0,0,0,0,0,0,0,0,0,0,0,0,,,,,,0.0,,,,,,,
6830364,1745475429401,,,,,,,,,,,,,,,,,,,,,,,,,,,,,,,,,,0,0,0,0,0,0,0,0,0,0,0,0,0,0,0,0,,,,,,,,,,,,,
6830384,1745475429421,0.0,135,12.72,0.88,-0.23,0.94,5,0,-0,1.31,1.31,100,10528,99.4,5.76,15,13.57,0.975,88.0,182,60.9,5,16,4,32,33,0.0,123.0,0.0,0.0,2.2,0,1.0,0,0,0,0,0,0,0,0,0,0,0,0,0,0,0,0,0,0,1.0,0,0,0.0,38.994099,-76.939621,25.51,26.4,33,3,0.8
6830404,1745475429441,,,,,,,,,,,,,,,,,,,,,,,,,,,,,,,,,,0,0,0,0,0,0,0,0,0,0,0,0,0,0,0,0,,,,,,,,,,,,,
6830424,1745475429461,0.0,132,,0.91,0.08,0.94,5,0,0,1.31,1.31,100,10169,99.4,6.0,,13.57,0.975,88.0,,54.2,5,,,,,,,,,,,,0,0,0,0,0,0,0,0,0,0,0,0,0,0,0,0,,,,,,0.0,,,,,,,
6830444,1745475429481,,,,,,,,,,,,,,,,,,,,,,,,,,,,,,,,,,0,0,0,0,0,0,0,0,0,0,0,0,0,0,0,0,,,,,,,,,,,,,
6830464,1745475429501,0.0,135,,0.92,-0.0,0.99,5,0,-0,1.36,1.36,100,10169,99.4,6.0,,13.73,0.968,88.0,,54.2,5,,,,,,,,,,,,0,0,0,0,0,0,0,0,0,0,0,0,0,0,0,0,,,,,,0.0,,,,,,,
6830484,1745475429521,,,,,,,,,,,,,,,,,,,,,,,18,4,31,33,0.0,5.0,0.0,0.0,2.26,,,0,0,0,0,0,0,0,0,0,0,0,0,0,0,0,0,,0,,,,,38.994099,-76.939613,29.32,26.3,33,3,0.8
6830504,1745475429541,0.0,135,,0.96,-0.18,0.98,5,-0,-0,1.38,1.38,100,9938,99.4,6.1,,13.65,0.965,88.0,,54.8,5,,,,,,,,,,,,0,0,0,0,0,0,0,0,0,0,0,0,0,0,0,0,,,,,,0.0,,,,,,,
6830524,1745475429561,,,,,,,,,,,,,,,,,,,,,,,,,,,,,,,,,,0,0,0,0,0,0,0,0,0,0,0,0,0,0,0,0,,,,,,,,,,,,,
6830544,1745475429581,0.0,135,,0.94,0.1,1.0,5,-0,-0,1.38,1.38,99,9944,99.5,6.09,,13.64,0.946,88.0,,54.8,5,,,,,,,,,,,,0,0,0,0,0,0,0,0,0,0,0,0,0,0,0,0,,,,,,0.0,,,,,,,
6830564,1745475429601,,,,,,,,,,,,,,,,,,,,,,,,,,,,,,,,,,0,0,0,0,0,0,0,0,0,0,0,0,0,0,0,0,,,,,,,,,,,,,
6830584,1745475429621,0.0,134,,0.94,0.19,0.99,3,-0,-1,1.38,1.38,100,9918,99.5,6.09,,13.73,0.931,88.0,,54.8,5,21,4,29,28,0.0,58.0,0.0,0.0,2.27,,,0,0,0,0,0,0,0,0,0,0,0,0,0,0,0,0,,0,,,,0.0,38.994099,-76.939606,33.89,26.3,33,3,0.8
6830604,1745475429641,,,,,,,,,,,,,,,,,,,,,,,,,,,,,,,,,,0,0,0,0,0,0,0,0,0,0,0,0,0,0,0,0,,,,,,,,,,,,,
6830624,1745475429661,0.0,135,,0.95,0.05,0.93,1,-1,-0,1.33,1.38,96,9759,87.2,5.88,,13.73,0.931,88.0,,57.5,5,,,,,,,,,,,,0,0,0,0,0,0,0,0,0,0,0,0,0,0,0,0,,,,,,0.0,,,,,,,
6830644,1745475429681,,,,,,,,,,,,,,,,,,,,,,,,,,,,,,,,,,0,0,0,0,0,0,0,0,0,0,0,0,0,0,0,0,,,,,,,,,,,,,
6830664,1745475429700,0.0,135,,0.96,0.08,0.98,0,-1,-0,1.37,1.38,99,9759,87.2,5.88,,13.69,0.917,88.0,,57.5,5,,,,,,,,,,,,0,0,0,0,0,0,0,0,0,0,0,0,0,0,0,0,,,,,,0.0,,,,,,,
6830684,1745475429720,,,,,,,,,,,,,,,,,,,,,,,23,4,29,27,0.0,226.0,0.0,0.0,2.27,,,0,0,0,0,0,0,0,0,0,0,0,0,0,0,0,0,,0,,,,,38.994099,-76.93959,37.21,26.3,33,3,0.8
6830704,1745475429740,0.0,135,,0.95,-0.02,0.99,-1,-1,0,1.37,1.38,99,9580,53.8,5.26,,13.21,0.911,88.0,,55.5,5,,,,,,,,,,,,0,0,0,0,0,0,0,0,0,0,0,0,0,0,0,0,,,,,,0.0,,,,,,,
6830724,1745475429760,,,,,,,,,,,,,,,,,,,,,,,,,,,,,,,,,,0,0,0,0,0,0,0,0,0,0,0,0,0,0,0,0,,,,,,,,,,,,,
6830744,1745475429780,0.0,134,,0.9,-0.13,0.97,-3,-0,1,1.33,1.38,96,9621,34.0,5.22,,12.25,0.907,88.0,,55.5,5,,,,,,,,,,,,0,0,0,0,0,0,0,0,0,0,0,0,0,0,0,0,,,,,,0.0,,,,,,,
6830764,1745475429798,,,,,,,,,,,,,,,,,,,,,,,,,,,,,,,,,,0,0,0,0,0,0,0,0,0,0,0,0,0,0,0,0,,,,,,,,,,,,,
6830784,1745475429818,0.0,134,,0.92,0.08,0.95,-5,-0,1,1.33,1.38,96,9560,17.0,5.0,,10.74,0.904,88.0,,55.5,5,24,4,29,29,0.0,27.0,0.0,0.0,2.27,,,0,0,0,0,0,0,0,0,0,0,0,0,0,0,0,0,,1,,,,0.0,38.994102,-76.939575,41.35,26.3,33,3,0.8
6830804,1745475429838,,,,,,,,,,,,,,,,,,,,,,,,,,,,,,,,,,0,0,0,0,0,0,0,0,0,0,0,0,0,0,0,0,,,,,,,,,,,,,
6830824,1745475429858,0.0,133,,0.82,-0.2,0.93,-5,-0,1,1.26,1.38,91,9100,10.8,3.07,,10.74,0.904,88.0,,54.0,5,,,,,,,,,,,,0,0,0,0,0,0,0,0,0,0,0,0,0,0,0,0,,,,,,0.0,,,,,,,
6830844,1745475429878,,,,,,,,,,,,,,,,,,,,,,,,,,,,,,,,,,0,0,0,0,0,0,0,0,0,0,0,0,0,0,0,0,,,,,,,,,,,,,
6830864,1745475429901,0.0,134,,0.72,-0.48,0.93,-7,-1,0,1.28,1.38,92,9100,10.8,3.07,,9.45,0.856,88.0,,54.0,5,,,,,,,,,,,,0,0,0,0,0,0,0,0,0,0,0,0,0,0,0,0,,,,,,0.0,,,,,,,
6830884,1745475429921,,,,,,,,,,,,,,,,,,,,,,,28,28,29,28,0.0,175.0,0.0,0.0,2.26,,,0,0,0,0,0,0,0,0,0,0,0,0,0,0,0,0,,1,,,,,38.994102,-76.939568,43.74,26.3,33,3,0.8
6830904,1745475429941,0.0,134,,0.62,-0.4,0.98,-10,-2,1,1.23,1.38,89,9200,9.0,2.64,,8.45,0.812,88.0,,49.1,5,,,,,,,,,,,,0,0,0,0,0,0,0,0,0,0,0,0,0,0,0,0,,,,,,0.0,,,,,,,
6830924,1745475429961,,,,,,,,,,,,,,,,,,,,,,,,,,,,,,,,,,0,0,0,0,0,0,0,0,0,0,0,0,0,0,0,0,,,,,,,,,,,,,
6830944,1745475429981,0.0,134,,0.52,-0.54,0.97,-13,-2,1,1.22,1.38,88,9497,8.6,2.35,,7.9,0.812,88.0,,49.1,5,,,,,,,,,,,,0,0,0,0,0,0,0,0,0,0,0,0,0,0,0,0,,,,,,0.0,,,,,,,
6830964,1745475430001,,,,,,,,,,,,,,,,,,,,,,,,,,,,,,,,,,0,0,0,0,0,0,0,0,0,0,0,0,0,0,0,0,,,,,,,,,,,,,
6830984,1745475430010,0.0,134,,0.44,-0.52,0.97,-16,-2,2,1.18,1.38,86,9535,6.4,2.06,,7.26,0.827,88.0,,49.1,5,27,29,28,28,0.0,29.0,0.0,0.0,2.27,,,0,0,0,0,0,0,0,0,0,0,0,0,0,0,0,0,,1,,,,0.0,38.994102,-76.939552,45.7,26.2,33,3,0.8
6831004,1745475430030,,,,,,,,,,,,,,,,,,,,,,,,,,,,,,,,,,0,0,0,0,0,0,0,0,0,0,0,0,0,0,0,0,,,,,,,,,,,,,
6831024,1745475430050,0.0,134,,0.36,-0.47,0.99,-19,-2,2,1.15,1.38,83,9515,4.4,1.8,,7.26,0.827,88.0,,47.5,5,,,,,,,,,,,,0,0,0,0,0,0,0,0,0,0,0,0,0,0,0,0,,,,,,0.0,,,,,,,
6831044,1745475430070,,,,,,,,,,,,,,,,,,,,,,,,,,,,,,,,,,0,0,0,0,0,0,0,0,0,0,0,0,0,0,0,0,,,,,,,,,,,,,
6831064,1745475430098,0.0,133,,0.29,-0.71,0.95,-21,-2,2,1.22,1.38,88,9515,4.4,1.8,,6.6,0.854,88.0,,47.5,5,,,,,,,,,,,,0,0,0,0,0,0,0,0,0,0,0,0,0,0,0,0,,,,,,0.0,,,,,,,
6831084,1745475430118,,,,,,,,,,,,,,,,,,,,,,,27,31,28,28,0.0,254.0,0.0,0.0,2.27,,,0,0,0,0,0,0,0,0,0,0,0,0,0,0,0,0,,1,,,,,38.994102,-76.939537,44.64,26.2,33,3,0.8
6831104,1745475430138,0.0,133,,0.24,-0.47,1.03,-23,-2,2,1.15,1.15,100,9455,4.0,1.7,,6.32,0.884,88.0,,46.7,5,,,,,,,,,,,,0,0,0,0,0,0,0,0,0,0,0,0,0,0,0,0,,,,,,0.0,,,,,,,
6831124,1745475430158,,,,,,,,,,,,,,,,,,,,,,,,,,,,,,,,,,0,0,0,0,0,0,0,0,0,0,0,0,0,0,0,0,,,,,,,,,,,,,
6831144,1745475430178,0.0,133,,0.13,-0.78,1.05,-25,-2,2,1.32,1.32,100,9341,4.4,1.64,,6.23,0.93,88.0,,46.7,5,,,,,,,,,,,,0,0,0,0,0,0,0,0,0,0,0,0,0,0,0,0,,,,,,0.0,,,,,,,
6831164,1745475430200,,,,,,,,,,,,,,,,,,,,,,,,,,,,,,,,,,0,0,0,0,0,0,0,0,0,0,0,0,0,0,0,0,,,,,,,,,,,,,
6831184,1745475430220,0.0,133,,0.01,-0.57,1.04,-30,-1,2,1.19,1.32,90,9183,5.2,1.7,,6.12,0.984,88.0,,46.7,5,27,29,29,28,0.0,6.0,0.0,0.0,2.27,,,0,0,0,0,0,0,0,0,0,0,0,0,0,0,0,0,,1,,,,0.0,38.994102,-76.939522,44.87,26.2,33,3,0.8
6831204,1745475430240,,,,,,,,,,,,,,,,,,,,,,,,,,,,,,,,,,0,0,0,0,0,0,0,0,0,0,0,0,0,0,0,0,,,,,,,,,,,,,
6831224,1745475430260,0.0,131,,-0.1,-0.42,1.0,-34,-1,3,1.09,1.32,82,9111,5.4,1.72,,6.12,0.984,88.0,,46.2,5,,,,,,,,,,,,0,0,0,0,0,0,0,0,0,0,0,0,0,0,0,0,,,,,,0.0,,,,,,,
6831244,1745475430280,,,,,,,,,,,,,,,,,,,,,,,,,,,,,,,,,,0,0,0,0,0,0,0,0,0,0,0,0,0,0,0,0,,,,,,,,,,,,,
6831264,1745475430300,0.0,133,,-0.17,-0.45,0.93,-39,0,3,1.04,1.32,79,9111,5.4,1.72,,6.28,1.029,88.0,,46.2,5,,,,,,,,,,,,0,0,0,0,0,0,0,0,0,0,0,0,0,0,0,0,,,,,,0.0,,,,,,,
6831284,1745475430320,,,,,,,,,,,,,,,,,,,,,,,28,30,27,31,0.0,35.0,0.0,0.0,2.27,,,0,0,0,0,0,0,0,0,0,0,0,0,0,0,0,0,,0,,,,,38.994099,-76.939506,44.37,26.2,33,3,0.8
6831304,1745475430340,0.0,133,,-0.2,-0.55,0.87,-43,0,3,1.05,1.32,80,9010,5.3,1.72,,6.18,1.073,88.0,,46.8,5,,,,,,,,,,,,0,0,0,0,0,0,0,0,0,0,0,0,0,0,0,0,,,,,,0.0,,,,,,,
6831324,1745475430360,,,,,,,,,,,,,,,,,,,,,,,,,,,,,,,,,,0,0,0,0,0,0,0,0,0,0,0,0,0,0,0,0,,,,,,,,,,,,,
6831344,1745475430380,0.0,134,,-0.25,-0.6,0.83,-46,-1,3,1.06,1.32,80,8925,5.5,1.72,,6.18,1.111,86.2,,46.8,5,,,,,,,,,,,,0,0,0,0,0,0,0,0,0,0,0,0,0,0,0,0,,,,,,0.0,,,,,,,
6831364,1745475430400,,,,,,,,,,,,,,,,,,,,,,,,,,,,,,,,,,0,0,0,0,0,0,0,0,0,0,0,0,0,0,0,0,,,,,,,,,,,,,
6831384,1745475430420,0.0,133,12.81,-0.34,-0.39,0.91,-48,-1,2,1.05,1.32,79,8917,5.9,1.75,15,6.26,1.131,86.2,182,46.8,5,26,30,27,30,0.0,254.0,0.0,0.0,2.26,0,1.0,0,0,0,0,0,0,0,0,0,0,0,0,0,0,0,0,0,0,1.0,0,-0,0.0,38.994095,-76.939499,42.99,26.1,33,3,0.8
6831404,1745475430440,,,,,,,,,,,,,,,,,,,,,,,,,,,,,,,,,,0,0,0,0,0,0,0,0,0,0,0,0,0,0,0,0,,,,,,,,,,,,,
6831424,1745475430460,0.0,133,,-0.36,-0.33,0.99,-50,-1,1,1.11,1.32,84,8868,10.8,2.05,,6.26,1.131,86.2,,45.7,5,,,,,,,,,,,,0,0,0,0,0,0,0,0,0,0,0,0,0,0,0,0,,,,,,0.0,,,,,,,
6831444,1745475430480,,,,,,,,,,,,,,,,,,,,,,,,,,,,,,,,,,0,0,0,0,0,0,0,0,0,0,0,0,0,0,0,0,,,,,,,,,,,,,
6831464,1745475430500,0.0,133,,-0.35,-0.43,1.02,-49,-1,2,1.17,1.32,89,8868,10.8,2.05,,6.68,1.136,86.2,,45.7,5,,,,,,,,,,,,0,0,0,0,0,0,0,0,0,0,0,0,0,0,0,0,,,,,,0.0,,,,,,,
6831484,1745475430520,,,,,,,,,,,,,,,,,,,,,,,27,72,24,28,0.0,160.0,0.0,0.0,2.27,,,0,0,0,0,0,0,0,0,0,0,0,0,0,0,0,0,,0,,,,,38.994095,-76.939484,43.16,26.1,33,3,0.8
6831504,1745475430540,0.0,133,,-0.37,-0.58,1.07,-48,-0,1,1.27,1.32,96,8930,11.8,2.29,,7.18,1.185,86.2,,46.5,5,,,,,,,,,,,,0,0,0,0,0,0,0,0,0,0,0,0,0,0,0,0,,,,,,0.0,,,,,,,
6831524,1745475430560,,,,,,,,,,,,,,,,,,,,,,,,,,,,,,,,,,0,0,0,0,0,0,0,0,0,0,0,0,0,0,0,0,,,,,,,,,,,,,
6831544,1745475430580,0.0,133,,-0.38,-0.84,1.11,-48,0,1,1.45,1.45,100,9014,11.9,2.34,,7.41,1.174,86.2,,46.5,5,,,,,,,,,,,,0,0,0,0,0,0,0,0,0,0,0,0,0,0,0,0,,,,,,0.0,,,,,,,
6831564,1745475430600,,,,,,,,,,,,,,,,,,,,,,,,,,,,,,,,,,0,0,0,0,0,0,0,0,0,0,0,0,0,0,0,0,,,,,,,,,,,,,
6831584,1745475430620,0.0,133,,-0.4,-0.8,1.09,-49,0,1,1.41,1.45,98,9137,11.8,2.36,,7.51,1.122,86.2,,46.5,5,25,28,25,27,0.0,217.0,0.0,0.0,2.27,,,0,0,0,0,0,0,0,0,0,0,0,0,0,0,0,0,,1,,,,0.0,38.994091,-76.939468,41.3,26.1,33,3,0.8
6831604,1745475430640,,,,,,,,,,,,,,,,,,,,,,,,,,,,,,,,,,0,0,0,0,0,0,0,0,0,0,0,0,0,0,0,0,,,,,,,,,,,,,
6831624,1745475430660,0.0,133,,-0.45,-0.68,1.06,-51,-0,2,1.33,1.45,92,9255,11.7,2.35,,7.51,1.122,86.2,,48.0,5,,,,,,,,,,,,0,0,0,0,0,0,0,0,0,0,0,0,0,0,0,0,,,,,,0.0,,,,,,,
6831644,1745475430680,,,,,,,,,,,,,,,,,,,,,,,,,,,,,,,,,,0,0,0,0,0,0,0,0,0,0,0,0,0,0,0,0,,,,,,,,,,,,,
6831664,1745475430701,0.0,132,,-0.47,-0.89,1.02,-53,0,2,1.43,1.45,99,9255,11.7,2.35,,7.58,1.099,86.2,,48.0,5,,,,,,,,,,,,0,0,0,0,0,0,0,0,0,0,0,0,0,0,0,0,,,,,,0.0,,,,,,,
6831684,1745475430721,,,,,,,,,,,,,,,,,,,,,,,23,28,25,28,0.0,42.0,0.0,0.0,2.27,,,0,0,0,0,0,0,0,0,0,0,0,0,0,0,0,0,,1,,,,,38.994083,-76.939453,41.13,26.1,33,3,0.8
6831704,1745475430741,0.0,132,,-0.44,-1.1,1.06,-56,1,1,1.59,1.59,100,9172,11.4,2.32,,7.46,1.102,86.2,,46.3,5,,,,,,,,,,,,0,0,0,0,0,0,0,0,0,0,0,0,0,0,0,0,,,,,,0.0,,,,,,,
6831724,1745475430761,,,,,,,,,,,,,,,,,,,,,,,,,,,,,,,,,,0,0,0,0,0,0,0,0,0,0,0,0,0,0,0,0,,,,,,,,,,,,,
6831744,1745475430781,0.0,131,,-0.44,-1.28,1.0,-55,1,0,1.68,1.68,100,8978,11.3,2.34,,7.5,1.105,86.2,,46.3,5,,,,,,,,,,,,0,0,0,0,0,0,0,0,0,0,0,0,0,0,0,0,,,,,,0.0,,,,,,,
6831764,1745475430799,,,,,,,,,,,,,,,,,,,,,,,,,,,,,,,,,,0,0,0,0,0,0,0,0,0,0,0,0,0,0,0,0,,,,,,,,,,,,,
6831784,1745475430819,0.0,132,,-0.42,-1.48,0.95,-56,1,0,1.81,1.81,100,8844,11.5,2.37,,7.67,1.107,86.2,,46.3,5,24,29,27,28,0.0,244.0,0.0,0.0,2.27,,,0,0,0,0,0,0,0,0,0,0,0,0,0,0,0,0,,0,,,,0.0,38.994076,-76.939453,40.64,26.0,33,3,0.8
6831804,1745475430839,,,,,,,,,,,,,,,,,,,,,,,,,,,,,,,,,,0,0,0,0,0,0,0,0,0,0,0,0,0,0,0,0,,,,,,,,,,,,,
6831824,1745475430859,0.0,132,,-0.44,-1.39,0.92,-57,1,0,1.73,1.81,96,8687,13.3,2.52,,7.67,1.107,86.2,,45.6,5,,,,,,,,,,,,0,0,0,0,0,0,0,0,0,0,0,0,0,0,0,0,,,,,,0.0,,,,,,,
6831844,1745475430879,,,,,,,,,,,,,,,,,,,,,,,,,,,,,,,,,,0,0,0,0,0,0,0,0,0,0,0,0,0,0,0,0,,,,,,,,,,,,,
6831864,1745475430899,0.0,132,,-0.46,-1.45,0.97,-58,1,-0,1.8,1.81,100,8687,13.3,2.52,,8.05,1.091,86.2,,45.6,5,,,,,,,,,,,,0,0,0,0,0,0,0,0,0,0,0,0,0,0,0,0,,,,,,0.0,,,,,,,
6831884,1745475430919,,,,,,,,,,,,,,,,,,,,,,,24,28,26,27,0.0,200.0,0.0,0.0,2.27,,,0,0,0,0,0,0,0,0,0,0,0,0,0,0,0,0,,0,,,,,38.994072,-76.939438,40.64,26.0,33,3,0.8
6831904,1745475430939,0.0,132,,-0.45,-1.45,0.9,-57,1,0,1.77,1.81,98,8678,15.6,2.75,,8.5,1.083,86.2,,44.6,5,,,,,,,,,,,,0,0,0,0,0,0,0,0,0,0,0,0,0,0,0,0,,,,,,0.0,,,,,,,
6831924,1745475430959,,,,,,,,,,,,,,,,,,,,,,,,,,,,,,,,,,0,0,0,0,0,0,0,0,0,0,0,0,0,0,0,0,,,,,,,,,,,,,
6831944,1745475430979,0.0,132,,-0.43,-1.28,0.97,-56,1,0,1.66,1.81,92,8731,16.1,2.88,,8.59,1.083,86.2,,44.6,5,,,,,,,,,,,,0,0,0,0,0,0,0,0,0,0,0,0,0,0,0,0,,,,,,0.0,,,,,,,
6831964,1745475430991,,,,,,,,,,,,,,,,,,,,,,,,,,,,,,,,,,0,0,0,0,0,0,0,0,0,0,0,0,0,0,0,0,,,,,,,,,,,,,
6831984,1745475431011,0.0,131,,-0.43,-1.35,1.01,-56,1,-1,1.74,1.74,100,8811,16.2,2.88,,8.78,1.078,86.2,,44.6,5,23,28,25,29,0.0,10.0,0.0,0.0,2.26,,,0,0,0,0,0,0,0,0,0,0,0,0,0,0,0,0,,0,,,,0.0,38.99406,-76.93943,39.77,26.0,33,3,0.8
6832004,1745475431031,,,,,,,,,,,,,,,,,,,,,,,,,,,,,,,,,,0,0,0,0,0,0,0,0,0,0,0,0,0,0,0,0,,,,,,,,,,,,,
6832024,1745475431051,0.0,131,,-0.44,-1.49,0.96,-57,1,0,1.83,1.83,100,8948,16.1,2.94,,8.78,1.078,86.2,,45.5,5,,,,,,,,,,,,0,0,0,0,0,0,0,0,0,0,0,0,0,0,0,0,,,,,,0.0,,,,,,,
6832044,1745475431071,,,,,,,,,,,,,,,,,,,,,,,,,,,,,,,,,,0,0,0,0,0,0,0,0,0,0,0,0,0,0,0,0,,,,,,,,,,,,,
6832064,1745475431099,0.0,131,,-0.44,-1.71,0.87,-59,1,0,1.96,1.96,100,8948,16.1,2.94,,8.87,1.073,86.2,,45.5,5,,,,,,,,,,,,0,0,0,0,0,0,0,0,0,0,0,0,0,0,0,0,,,,,,0.0,,,,,,,
6832084,1745475431119,,,,,,,,,,,,,,,,,,,,,,,24,28,27,28,0.0,67.0,0.0,0.0,2.27,,,0,0,0,0,0,0,0,0,0,0,0,0,0,0,0,0,,1,,,,,38.994057,-76.939423,40.21,26.0,33,3,0.8
6832104,1745475431139,0.0,131,,-0.46,-1.79,0.91,-60,1,-1,2.06,2.06,100,9087,13.7,2.88,,8.61,1.063,86.2,,46.3,5,,,,,,,,,,,,0,0,0,0,0,0,0,0,0,0,0,0,0,0,0,0,,,,,,0.0,,,,,,,
6832124,1745475431159,,,,,,,,,,,,,,,,,,,,,,,,,,,,,,,,,,0,0,0,0,0,0,0,0,0,0,0,0,0,0,0,0,,,,,,,,,,,,,
6832144,1745475431179,0.0,131,,-0.41,-1.78,0.92,-60,2,-1,2.04,2.06,99,9157,10.9,2.55,,8.14,1.063,86.2,,46.3,5,,,,,,,,,,,,0,0,0,0,0,0,0,0,0,0,0,0,0,0,0,0,,,,,,0.0,,,,,,,
6832164,1745475431197,,,,,,,,,,,,,,,,,,,,,,,,,,,,,,,,,,0,0,0,0,0,0,0,0,0,0,0,0,0,0,0,0,,,,,,,,,,,,,
6832184,1745475431217,0.0,131,,-0.38,-1.64,1.0,-59,2,-1,1.96,2.06,95,8951,10.0,2.44,,7.83,1.063,86.2,,46.3,5,22,25,28,26,0.0,52.0,0.0,0.0,2.27,,,0,0,0,0,0,0,0,0,0,0,0,0,0,0,0,0,,1,,,,0.0,38.994045,-76.939415,38.03,25.9,33,3,0.8
6832204,1745475431237,,,,,,,,,,,,,,,,,,,,,,,,,,,,,,,,,,0,0,0,0,0,0,0,0,0,0,0,0,0,0,0,0,,,,,,,,,,,,,
6832224,1745475431257,0.0,131,,-0.37,-1.56,1.01,-56,1,-1,1.89,2.06,92,8577,8.9,2.41,,7.83,1.063,86.2,,44.5,5,,,,,,,,,,,,0,0,0,0,0,0,0,0,0,0,0,0,0,0,0,0,,,,,,0.0,,,,,,,
6832244,1745475431277,,,,,,,,,,,,,,,,,,,,,,,,,,,,,,,,,,0,0,0,0,0,0,0,0,0,0,0,0,0,0,0,0,,,,,,,,,,,,,
6832264,1745475431299,0.0,131,,-0.42,-1.52,0.92,-54,0,0,1.83,2.06,89,8577,8.9,2.41,,7.7,1.06,86.2,,44.5,5,,,,,,,,,,,,0,0,0,0,0,0,0,0,0,0,0,0,0,0,0,0,,,,,,0.0,,,,,,,
6832284,1745475431319,,,,,,,,,,,,,,,,,,,,,,,22,27,29,26,0.0,16.0,0.0,0.0,2.27,,,0,0,0,0,0,0,0,0,0,0,0,0,0,0,0,0,,1,,,,,38.994034,-76.939415,39.27,25.9,33,3,0.8
6832304,1745475431339,0.0,132,,-0.44,-1.45,1.04,-53,0,-0,1.84,2.06,90,8434,10.0,2.51,,7.79,1.056,86.2,,43.5,5,,,,,,,,,,,,0,0,0,0,0,0,0,0,0,0,0,0,0,0,0,0,,,,,,0.0,,,,,,,
6832324,1745475431359,,,,,,,,,,,,,,,,,,,,,,,,,,,,,,,,,,0,0,0,0,0,0,0,0,0,0,0,0,0,0,0,0,,,,,,,,,,,,,
6832344,1745475431379,0.0,132,,-0.46,-1.4,0.99,-55,1,-0,1.78,2.06,86,8463,16.6,2.86,,8.51,1.044,86.2,,43.5,5,,,,,,,,,,,,0,0,0,0,0,0,0,0,0,0,0,0,0,0,0,0,,,,,,0.0,,,,,,,
6832364,1745475431399,,,,,,,,,,,,,,,,,,,,,,,,,,,,,,,,,,0,0,0,0,0,0,0,0,0,0,0,0,0,0,0,0,,,,,,,,,,,,,
6832384,1745475431419,0.0,131,12.88,-0.43,-1.23,1.11,-56,2,-0,1.71,2.06,83,8637,19.7,3.36,15,9.26,1.048,86.2,182,43.5,5,23,26,26,26,0.0,237.0,0.0,0.0,2.27,0,1.0,0,0,0,0,0,0,0,0,0,0,0,0,0,0,0,0,0,1,1.0,0,-0,0.0,38.994026,-76.939415,39.07,25.9,33,3,0.8
6832404,1745475431439,,,,,,,,,,,,,,,,,,,,,,,,,,,,,,,,,,0,0,0,0,0,0,0,0,0,0,0,0,0,0,0,0,,,,,,,,,,,,,
6832424,1745475431459,0.0,131,,-0.43,-1.37,1.05,-55,1,0,1.78,2.06,86,8835,14.5,3.18,,9.26,1.048,86.2,,45.0,5,,,,,,,,,,,,0,0,0,0,0,0,0,0,0,0,0,0,0,0,0,0,,,,,,0.0,,,,,,,
6832444,1745475431479,,,,,,,,,,,,,,,,,,,,,,,,,,,,,,,,,,0,0,0,0,0,0,0,0,0,0,0,0,0,0,0,0,,,,,,,,,,,,,
6832464,1745475431501,0.0,131,,-0.43,-1.27,1.01,-55,0,0,1.68,2.06,82,8835,14.5,3.18,,9.19,1.056,86.2,,45.0,5,,,,,,,,,,,,0,0,0,0,0,0,0,0,0,0,0,0,0,0,0,0,,,,,,0.0,,,,,,,
6832484,1745475431521,,,,,,,,,,,,,,,,,,,,,,,21,26,24,26,0.0,155.0,0.0,0.0,2.27,,,0,0,0,0,0,0,0,0,0,0,0,0,0,0,0,0,,1,,,,,38.994019,-76.939407,37.32,25.9,33,3,0.8
6832504,1745475431541,0.0,131,,-0.44,-1.1,1.05,-55,0,-0,1.58,2.06,77,8707,3.4,2.42,,8.11,1.027,86.2,,45.5,5,,,,,,,,,,,,0,0,0,0,0,0,0,0,0,0,0,0,0,0,0,0,,,,,,0.0,,,,,,,
6832524,1745475431561,,,,,,,,,,,,,,,,,,,,,,,,,,,,,,,,,,0,0,0,0,0,0,0,0,0,0,0,0,0,0,0,0,,,,,,,,,,,,,
6832544,1745475431581,0.0,131,,-0.46,-1.07,1.03,-54,0,-0,1.56,2.06,76,8359,0.0,1.4,,7.02,1.0,86.2,,45.5,5,,,,,,,,,,,,0,0,0,0,0,0,0,0,0,0,0,0,0,0,0,0,,,,,,0.0,,,,,,,
6832564,1745475431601,,,,,,,,,,,,,,,,,,,,,,,,,,,,,,,,,,0,0,0,0,0,0,0,0,0,0,0,0,0,0,0,0,,,,,,,,,,,,,
6832584,1745475431621,0.0,131,,-0.45,-1.23,1.02,-54,-0,0,1.66,2.06,81,7651,0.0,1.4,,6.67,1.0,86.2,,45.5,5,21,23,26,25,0.0,140.0,0.0,0.0,2.27,,,0,0,0,0,0,0,0,0,0,0,0,0,0,0,0,0,,0,,,,0.0,38.994011,-76.939407,38.09,25.9,33,3,0.8
6832604,1745475431641,,,,,,,,,,,,,,,,,,,,,,,,,,,,,,,,,,0,0,0,0,0,0,0,0,0,0,0,0,0,0,0,0,,,,,,,,,,,,,
6832624,1745475431661,0.0,131,,-0.53,-1.22,0.98,-55,-1,1,1.66,2.06,81,7171,0.0,1.4,,6.67,1.0,86.2,,43.3,5,,,,,,,,,,,,0,0,0,0,0,0,0,0,0,0,0,0,0,0,0,0,,,,,,0.0,,,,,,,
6832644,1745475431681,,,,,,,,,,,,,,,,,,,,,,,,,,,,,,,,,,0,0,0,0,0,0,0,0,0,0,0,0,0,0,0,0,,,,,,,,,,,,,
6832664,1745475431700,0.0,131,,-0.57,-1.23,0.98,-54,-1,0,1.67,2.06,81,7171,0.0,1.4,,6.56,1.157,86.2,,43.3,5,,,,,,,,,,,,0,0,0,0,0,0,0,0,0,0,0,0,0,0,0,0,,,,,,0.0,,,,,,,
6832684,1745475431720,,,,,,,,,,,,,,,,,,,,,,,21,25,23,24,0.0,22.0,0.0,0.0,2.27,,,0,0,0,0,0,0,0,0,0,0,0,0,0,0,0,0,,0,,,,,38.994,-76.939407,37.04,25.9,33,3,0.8
6832704,1745475431740,0.0,131,,-0.6,-1.27,0.96,-55,-1,-0,1.7,2.06,83,6831,0.0,1.4,,6.6,1.251,86.2,,44.3,5,,,,,,,,,,,,0,0,0,0,0,0,0,0,0,0,0,0,0,0,0,0,,,,,,0.0,,,,,,,
6832724,1745475431760,,,,,,,,,,,,,,,,,,,,,,,,,,,,,,,,,,0,0,0,0,0,0,0,0,0,0,0,0,0,0,0,0,,,,,,,,,,,,,
6832744,1745475431780,0.0,131,,-0.66,-1.19,0.93,-55,-1,-0,1.65,2.06,80,6734,0.0,1.4,,6.82,1.251,86.2,,44.3,5,,,,,,,,,,,,0,0,0,0,0,0,0,0,0,0,0,0,0,0,0,0,,,,,,0.0,,,,,,,
6832764,1745475431798,,,,,,,,,,,,,,,,,,,,,,,,,,,,,,,,,,0,0,0,0,0,0,0,0,0,0,0,0,0,0,0,0,,,,,,,,,,,,,
6832784,1745475431818,0.0,131,,-0.7,-1.17,0.99,-57,-1,-0,1.69,2.06,82,6621,0.0,1.4,,6.94,1.252,86.2,,44.3,5,20,23,16,24,0.0,45.0,0.0,0.0,2.27,,,0,0,0,0,0,0,0,0,0,0,0,0,0,0,0,0,,0,,,,0.0,38.993992,-76.939407,35.04,25.9,33,3,0.8
6832804,1745475431838,,,,,,,,,,,,,,,,,,,,,,,,,,,,,,,,,,0,0,0,0,0,0,0,0,0,0,0,0,0,0,0,0,,,,,,,,,,,,,
6832824,1745475431858,0.0,130,,-0.7,-1.22,0.91,-58,-1,-1,1.67,2.06,81,6460,0.0,1.4,,6.94,1.252,86.2,,44.8,5,,,,,,,,,,,,0,0,0,0,0,0,0,0,0,0,0,0,0,0,0,0,,,,,,0.0,,,,,,,
6832844,1745475431878,,,,,,,,,,,,,,,,,,,,,,,,,,,,,,,,,,0,0,0,0,0,0,0,0,0,0,0,0,0,0,0,0,,,,,,,,,,,,,
6832864,1745475431900,0.0,131,,-0.76,-1.16,0.95,-60,-1,-1,1.68,2.06,82,6460,0.0,1.4,,7.14,1.255,86.2,,44.8,5,,,,,,,,,,,,0,0,0,0,0,0,0,0,0,0,0,0,0,0,0,0,,,,,,0.0,,,,,,,
6832884,1745475431920,,,,,,,,,,,,,,,,,,,,,,,18,21,17,22,0.0,40.0,0.0,0.0,2.27,,,0,0,0,0,0,0,0,0,0,0,0,0,0,0,0,0,,0,,,,,38.99398,-76.939415,32.72,25.9,33,3,0.8
6832904,1745475431940,0.0,131,,-0.79,-1.11,0.91,-62,-1,-0,1.64,1.64,100,6268,0.0,1.4,,7.38,1.253,86.2,,44.7,5,,,,,,,,,,,,0,0,0,0,0,0,0,0,0,0,0,0,0,0,0,0,,,,,,0.0,,,,,,,
6832924,1745475431960,,,,,,,,,,,,,,,,,,,,,,,,,,,,,,,,,,0,0,0,0,0,0,0,0,0,0,0,0,0,0,0,0,,,,,,,,,,,,,
6832944,1745475431980,0.0,130,,-0.76,-1.19,0.87,-64,-1,-1,1.66,1.66,100,6099,3.5,1.96,,7.78,1.252,86.2,,44.7,5,,,,,,,,,,,,0,0,0,0,0,0,0,0,0,0,0,0,0,0,0,0,,,,,,0.0,,,,,,,
6832964,1745475432000,,,,,,,,,,,,,,,,,,,,,,,,,,,,,,,,,,0,0,0,0,0,0,0,0,0,0,0,0,0,0,0,0,,,,,,,,,,,,,
6832984,1745475432010,0.0,129,,-0.74,-1.38,0.77,-66,-1,-1,1.74,1.74,100,5969,8.0,2.42,,8.62,1.251,86.2,,44.7,5,18,20,16,21,0.0,234.0,0.0,0.0,2.27,,,0,0,0,0,0,0,0,0,0,0,0,0,0,0,0,0,,0,,,,0.0,38.993977,-76.939415,30.26,25.9,32,3,0.8
6833004,1745475432030,,,,,,,,,,,,,,,,,,,,,,,,,,,,,,,,,,0,0,0,0,0,0,0,0,0,0,0,0,0,0,0,0,,,,,,,,,,,,,
6833024,1745475432050,0.0,130,,-0.75,-1.5,0.71,-69,-1,-1,1.82,1.82,100,5898,11.5,2.77,,8.62,1.251,86.2,,43.9,5,,,,,,,,,,,,0,0,0,0,0,0,0,0,0,0,0,0,0,0,0,0,,,,,,0.0,,,,,,,
6833044,1745475432070,,,,,,,,,,,,,,,,,,,,,,,,,,,,,,,,,,0,0,0,0,0,0,0,0,0,0,0,0,0,0,0,0,,,,,,,,,,,,,
6833064,1745475432094,0.0,131,,-0.78,-1.42,0.76,-71,-1,-1,1.79,1.82,98,5898,11.5,2.77,,9.66,1.251,86.2,,43.9,5,,,,,,,,,,,,0,0,0,0,0,0,0,0,0,0,0,0,0,0,0,0,,,,,,0.0,,,,,,,
6833084,1745475432114,,,,,,,,,,,,,,,,,,,,,,,16,21,15,20,0.0,57.0,0.0,0.0,2.27,,,0,0,0,0,0,0,0,0,0,0,0,0,0,0,0,0,,0,,,,,38.993969,-76.939415,28.9,25.9,32,3,0.8
6833104,1745475432134,0.0,131,,-0.79,-1.32,0.87,-72,-0,-1,1.76,1.82,97,5801,15.8,3.1,,10.82,1.251,86.2,,42.7,5,,,,,,,,,,,,0,0,0,0,0,0,0,0,0,0,0,0,0,0,0,0,,,,,,0.0,,,,,,,
6833124,1745475432154,,,,,,,,,,,,,,,,,,,,,,,,,,,,,,,,,,0,0,0,0,0,0,0,0,0,0,0,0,0,0,0,0,,,,,,,,,,,,,
6833144,1745475432174,0.0,131,,-0.7,-1.33,0.78,-72,0,-1,1.7,1.82,93,5774,20.7,4.08,,11.93,1.251,86.2,,42.7,5,,,,,,,,,,,,0,0,0,0,0,0,0,0,0,0,0,0,0,0,0,0,,,,,,0.0,,,,,,,
6833164,1745475432200,,,,,,,,,,,,,,,,,,,,,,,,,,,,,,,,,,0,0,0,0,0,0,0,0,0,0,0,0,0,0,0,0,,,,,,,,,,,,,
6833184,1745475432220,0.0,132,,-0.57,-1.28,0.71,-71,1,-2,1.57,1.82,86,6052,23.6,4.26,,12.31,1.251,86.2,,42.7,5,16,21,15,20,0.0,0.0,0.0,0.0,2.27,,,0,0,0,0,0,0,0,0,0,0,0,0,0,0,0,0,,0,,,,0.0,38.993961,-76.939423,27.15,25.9,32,3,0.8
6833204,1745475432240,,,,,,,,,,,,,,,,,,,,,,,,,,,,,,,,,,0,0,0,0,0,0,0,0,0,0,0,0,0,0,0,0,,,,,,,,,,,,,
6833224,1745475432260,0.0,133,,-0.5,-1.15,0.77,-67,2,-2,1.47,1.82,81,6290,28.3,5.05,,12.31,1.251,86.2,,43.5,5,,,,,,,,,,,,0,0,0,0,0,0,0,0,0,0,0,0,0,0,0,0,,,,,,0.0,,,,,,,
6833244,1745475432280,,,,,,,,,,,,,,,,,,,,,,,,,,,,,,,,,,0,0,0,0,0,0,0,0,0,0,0,0,0,0,0,0,,,,,,,,,,,,,
6833264,1745475432300,0.0,133,,-0.42,-1.06,0.79,-63,2,-2,1.39,1.82,76,6290,28.3,5.05,,12.75,1.205,86.2,,43.5,5,,,,,,,,,,,,0,0,0,0,0,0,0,0,0,0,0,0,0,0,0,0,,,,,,0.0,,,,,,,
6833284,1745475432320,,,,,,,,,,,,,,,,,,,,,,,17,20,16,18,0.0,201.0,0.0,0.0,2.27,,,0,0,0,0,0,0,0,0,0,0,0,0,0,0,0,0,,0,,,,,38.993958,-76.93943,26.39,25.8,32,3,0.8
6833304,1745475432340,0.0,133,,-0.28,-0.93,0.83,-58,3,-2,1.28,1.82,70,6616,31.7,5.08,,13.03,1.179,86.2,,43.7,5,,,,,,,,,,,,0,0,0,0,0,0,0,0,0,0,0,0,0,0,0,0,,,,,,0.0,,,,,,,
6833324,1745475432360,,,,,,,,,,,,,,,,,,,,,,,,,,,,,,,,,,0,0,0,0,0,0,0,0,0,0,0,0,0,0,0,0,,,,,,,,,,,,,
6833344,1745475432380,0.0,133,,-0.19,-0.76,0.92,-52,3,-1,1.21,1.82,66,6419,34.2,5.13,,13.19,1.181,86.2,,43.7,5,,,,,,,,,,,,0,0,0,0,0,0,0,0,0,0,0,0,0,0,0,0,,,,,,0.0,,,,,,,
6833364,1745475432400,,,,,,,,,,,,,,,,,,,,,,,,,,,,,,,,,,0,0,0,0,0,0,0,0,0,0,0,0,0,0,0,0,,,,,,,,,,,,,
6833384,1745475432420,0.0,133,12.92,-0.19,-0.71,0.92,-48,2,-1,1.18,1.82,65,6210,35.0,5.13,15,13.33,1.098,86.2,180,43.7,5,18,20,20,19,0.0,232.0,0.0,0.0,2.27,0,1.0,0,0,0,0,0,0,0,0,0,0,0,0,0,0,0,0,0,1,1.0,0,-0,0.0,38.993954,-76.939438,28.01,25.8,32,3,0.8
6833404,1745475432440,,,,,,,,,,,,,,,,,,,,,,,,,,,,,,,,,,0,0,0,0,0,0,0,0,0,0,0,0,0,0,0,0,,,,,,,,,,,,,
6833424,1745475432460,0.0,132,,-0.15,-0.75,0.96,-47,1,-0,1.23,1.82,67,6568,35.0,5.16,,13.33,1.098,86.2,,43.6,5,,,,,,,,,,,,0,0,0,0,0,0,0,0,0,0,0,0,0,0,0,0,,,,,,0.0,,,,,,,
6833444,1745475432480,,,,,,,,,,,,,,,,,,,,,,,,,,,,,,,,,,0,0,0,0,0,0,0,0,0,0,0,0,0,0,0,0,,,,,,,,,,,,,
6833464,1745475432500,0.0,132,,-0.13,-0.79,0.93,-45,1,0,1.23,1.82,67,6568,35.0,5.16,,13.33,1.055,86.2,,43.6,5,,,,,,,,,,,,0,0,0,0,0,0,0,0,0,0,0,0,0,0,0,0,,,,,,0.0,,,,,,,
6833484,1745475432520,,,,,,,,,,,,,,,,,,,,,,,18,20,19,19,0.0,62.0,0.0,0.0,2.28,,,0,0,0,0,0,0,0,0,0,0,0,0,0,0,0,0,,1,,,,,38.99395,-76.939446,30.99,25.8,32,3,0.8
6833504,1745475432540,0.0,132,,-0.13,-0.68,1.0,-47,1,1,1.22,1.82,67,7047,35.1,5.22,,13.12,1.016,86.2,,45.0,5,,,,,,,,,,,,0,0,0,0,0,0,0,0,0,0,0,0,0,0,0,0,,,,,,0.0,,,,,,,
6833524,1745475432560,,,,,,,,,,,,,,,,,,,,,,,,,,,,,,,,,,0,0,0,0,0,0,0,0,0,0,0,0,0,0,0,0,,,,,,,,,,,,,
6833544,1745475432580,0.0,133,,-0.07,-0.52,0.98,-47,1,1,1.11,1.82,61,7502,35.1,4.99,,12.88,0.993,86.2,,45.0,5,,,,,,,,,,,,0,0,0,0,0,0,0,0,0,0,0,0,0,0,0,0,,,,,,0.0,,,,,,,
6833564,1745475432600,,,,,,,,,,,,,,,,,,,,,,,,,,,,,,,,,,0,0,0,0,0,0,0,0,0,0,0,0,0,0,0,0,,,,,,,,,,,,,
6833584,1745475432620,0.0,133,,-0.06,-0.57,0.96,-49,1,1,1.12,1.82,61,7641,32.3,4.89,,12.67,0.936,86.2,,45.0,5,19,20,23,21,0.0,63.0,0.0,0.0,2.28,,,0,0,0,0,0,0,0,0,0,0,0,0,0,0,0,0,,0,,,,0.0,38.993946,-76.939453,31.02,25.8,32,3,0.8
6833604,1745475432640,,,,,,,,,,,,,,,,,,,,,,,,,,,,,,,,,,0,0,0,0,0,0,0,0,0,0,0,0,0,0,0,0,,,,,,,,,,,,,
6833624,1745475432660,0.0,132,,-0.02,-0.78,0.89,-50,1,0,1.18,1.82,65,7792,28.1,5.33,,12.67,0.936,86.2,,44.3,5,,,,,,,,,,,,0,0,0,0,0,0,0,0,0,0,0,0,0,0,0,0,,,,,,0.0,,,,,,,
6833644,1745475432680,,,,,,,,,,,,,,,,,,,,,,,,,,,,,,,,,,0,0,0,0,0,0,0,0,0,0,0,0,0,0,0,0,,,,,,,,,,,,,
6833664,1745475432699,0.0,133,,-0.04,-0.73,0.92,-51,2,1,1.17,1.82,64,7792,28.1,5.33,,12.39,0.914,86.2,,44.3,5,,,,,,,,,,,,0,0,0,0,0,0,0,0,0,0,0,0,0,0,0,0,,,,,,0.0,,,,,,,
6833684,1745475432719,,,,,,,,,,,,,,,,,,,,,,,19,23,23,25,0.0,167.0,0.0,0.0,2.29,,,0,0,0,0,0,0,0,0,0,0,0,0,0,0,0,0,,0,,,,,38.993938,-76.939461,33.58,25.8,32,3,0.8
6833704,1745475432739,0.0,132,,0.01,-0.7,0.91,-53,3,1,1.15,1.82,63,8018,28.4,5.24,,12.23,0.893,86.2,,45.7,5,,,,,,,,,,,,0,0,0,0,0,0,0,0,0,0,0,0,0,0,0,0,,,,,,0.0,,,,,,,
6833724,1745475432759,,,,,,,,,,,,,,,,,,,,,,,,,,,,,,,,,,0,0,0,0,0,0,0,0,0,0,0,0,0,0,0,0,,,,,,,,,,,,,
6833744,1745475432779,0.0,133,,0.08,-0.81,0.94,-54,3,1,1.24,1.82,68,8313,25.3,5.03,,11.73,0.86,86.2,,45.7,5,,,,,,,,,,,,0,0,0,0,0,0,0,0,0,0,0,0,0,0,0,0,,,,,,0.0,,,,,,,
6833764,1745475432799,,,,,,,,,,,,,,,,,,,,,,,,,,,,,,,,,,0,0,0,0,0,0,0,0,0,0,0,0,0,0,0,0,,,,,,,,,,,,,
6833784,1745475432819,0.0,132,,0.11,-0.86,0.96,-53,2,1,1.29,1.82,71,8361,17.2,5.16,,11.05,0.834,86.2,,45.7,5,20,33,25,24,0.0,213.0,0.0,0.0,2.28,,,0,0,0,0,0,0,0,0,0,0,0,0,0,0,0,0,,0,,,,0.0,38.993935,-76.939468,34.74,25.8,32,3,0.8
6833804,1745475432839,,,,,,,,,,,,,,,,,,,,,,,,,,,,,,,,,,0,0,0,0,0,0,0,0,0,0,0,0,0,0,0,0,,,,,,,,,,,,,
6833824,1745475432859,0.0,132,,0.1,-0.95,0.93,-53,1,1,1.33,1.82,73,8288,9.0,3.35,,11.05,0.834,86.2,,46.0,5,,,,,,,,,,,,0,0,0,0,0,0,0,0,0,0,0,0,0,0,0,0,,,,,,0.0,,,,,,,
6833844,1745475432879,,,,,,,,,,,,,,,,,,,,,,,,,,,,,,,,,,0,0,0,0,0,0,0,0,0,0,0,0,0,0,0,0,,,,,,,,,,,,,
6833864,1745475432899,0.0,132,,0.06,-0.92,0.92,-53,-0,1,1.3,1.82,71,8288,9.0,3.35,,10.0,0.818,86.2,,46.0,5,,,,,,,,,,,,0,0,0,0,0,0,0,0,0,0,0,0,0,0,0,0,,,,,,0.0,,,,,,,
6833884,1745475432919,,,,,,,,,,,,,,,,,,,,,,,21,23,25,27,0.0,19.0,0.0,0.0,2.28,,,0,0,0,0,0,0,0,0,0,0,0,0,0,0,0,0,,0,,,,,38.993935,-76.939484,37.69,25.8,32,3,0.8
6833904,1745475432939,0.0,132,,0.06,-0.87,1.01,-53,-0,0,1.33,1.82,73,8256,9.5,3.09,,9.38,0.784,86.2,,46.3,5,,,,,,,,,,,,0,0,0,0,0,0,0,0,0,0,0,0,0,0,0,0,,,,,,0.0,,,,,,,
6833924,1745475432959,,,,,,,,,,,,,,,,,,,,,,,,,,,,,,,,,,0,0,0,0,0,0,0,0,0,0,0,0,0,0,0,0,,,,,,,,,,,,,
6833944,1745475432979,0.0,133,,0.05,-0.86,0.99,-53,0,1,1.31,1.82,72,8537,9.9,2.92,,8.73,0.795,86.2,,46.3,5,,,,,,,,,,,,0,0,0,0,0,0,0,0,0,0,0,0,0,0,0,0,,,,,,0.0,,,,,,,
6833964,1745475432991,,,,,,,,,,,,,,,,,,,,,,,,,,,,,,,,,,0,0,0,0,0,0,0,0,0,0,0,0,0,0,0,0,,,,,,,,,,,,,
6833984,1745475433011,0.0,133,,0.01,-1.05,0.92,-52,-0,2,1.4,1.82,77,8508,10.0,2.78,,8.31,0.833,86.2,,46.3,5,23,21,24,26,0.0,233.0,0.0,0.0,2.28,,,0,0,0,0,0,0,0,0,0,0,0,0,0,0,0,0,,1,,,,0.0,38.993931,-76.939499,38.41,25.8,32,3,0.8
6834004,1745475433031,,,,,,,,,,,,,,,,,,,,,,,,,,,,,,,,,,0,0,0,0,0,0,0,0,0,0,0,0,0,0,0,0,,,,,,,,,,,,,
6834024,1745475433051,0.0,132,,-0.03,-1.06,0.97,-53,-1,3,1.44,1.82,79,8468,9.4,2.67,,8.31,0.833,86.2,,45.1,5,,,,,,,,,,,,0,0,0,0,0,0,0,0,0,0,0,0,0,0,0,0,,,,,,0.0,,,,,,,
6834044,1745475433071,,,,,,,,,,,,,,,,,,,,,,,,,,,,,,,,,,0,0,0,0,0,0,0,0,0,0,0,0,0,0,0,0,,,,,,,,,,,,,
6834064,1745475433095,0.0,133,,-0.07,-0.94,1.01,-53,-1,2,1.38,1.38,100,8468,9.4,2.67,,8.09,0.865,86.2,,45.1,5,,,,,,,,,,,,0,0,0,0,0,0,0,0,0,0,0,0,0,0,0,0,,,,,,0.0,,,,,,,
6834084,1745475433115,,,,,,,,,,,,,,,,,,,,,,,22,26,25,25,0.0,50.0,0.0,0.0,2.28,,,0,0,0,0,0,0,0,0,0,0,0,0,0,0,0,0,,1,,,,,38.993931,-76.939506,38.03,25.9,32,3,0.8
6834104,1745475433135,0.0,132,,-0.07,-0.92,1.02,-55,-1,2,1.37,1.38,99,8632,9.1,2.55,,7.82,0.898,86.2,,45.5,5,,,,,,,,,,,,0,0,0,0,0,0,0,0,0,0,0,0,0,0,0,0,,,,,,0.0,,,,,,,
6834124,1745475433155,,,,,,,,,,,,,,,,,,,,,,,,,,,,,,,,,,0,0,0,0,0,0,0,0,0,0,0,0,0,0,0,0,,,,,,,,,,,,,
6834144,1745475433175,0.0,132,,-0.12,-1.05,0.95,-57,-0,3,1.42,1.42,100,8663,9.8,2.45,,7.83,0.913,86.2,,45.5,5,,,,,,,,,,,,0,0,0,0,0,0,0,0,0,0,0,0,0,0,0,0,,,,,,0.0,,,,,,,
6834164,1745475433199,,,,,,,,,,,,,,,,,,,,,,,,,,,,,,,,,,0,0,0,0,0,0,0,0,0,0,0,0,0,0,0,0,,,,,,,,,,,,,
6834184,1745475433219,0.0,131,,-0.14,-0.97,0.98,-58,0,2,1.38,1.42,98,8517,10.2,2.57,,7.91,0.932,86.2,,45.5,5,22,24,27,26,0.0,79.0,0.0,0.0,2.29,,,0,0,0,0,0,0,0,0,0,0,0,0,0,0,0,0,,1,,,,0.0,38.993931,-76.939514,38.31,25.9,32,3,0.8
6834204,1745475433239,,,,,,,,,,,,,,,,,,,,,,,,,,,,,,,,,,0,0,0,0,0,0,0,0,0,0,0,0,0,0,0,0,,,,,,,,,,,,,
6834224,1745475433259,0.0,132,,-0.15,-0.97,1.02,-59,1,2,1.41,1.42,100,8341,10.5,2.61,,7.91,0.932,86.2,,43.3,5,,,,,,,,,,,,0,0,0,0,0,0,0,0,0,0,0,0,0,0,0,0,,,,,,0.0,,,,,,,
6834244,1745475433279,,,,,,,,,,,,,,,,,,,,,,,,,,,,,,,,,,0,0,0,0,0,0,0,0,0,0,0,0,0,0,0,0,,,,,,,,,,,,,
6834264,1745475433299,0.0,132,,-0.21,-1.03,0.97,-60,1,2,1.43,1.43,100,8341,10.5,2.61,,8.1,0.97,86.2,,43.3,5,,,,,,,,,,,,0,0,0,0,0,0,0,0,0,0,0,0,0,0,0,0,,,,,,0.0,,,,,,,
6834284,1745475433319,,,,,,,,,,,,,,,,,,,,,,,22,25,25,24,0.0,221.0,0.0,0.0,2.27,,,0,0,0,0,0,0,0,0,0,0,0,0,0,0,0,0,,1,,,,,38.993931,-76.939529,37.35,25.9,32,3,0.8
6834304,1745475433339,0.0,132,,-0.25,-1.01,0.91,-60,1,1,1.38,1.43,96,8288,16.1,2.9,,8.7,0.993,86.2,,43.1,5,,,,,,,,,,,,0,0,0,0,0,0,0,0,0,0,0,0,0,0,0,0,,,,,,0.0,,,,,,,
6834324,1745475433359,,,,,,,,,,,,,,,,,,,,,,,,,,,,,,,,,,0,0,0,0,0,0,0,0,0,0,0,0,0,0,0,0,,,,,,,,,,,,,
6834344,1745475433379,0.0,133,,-0.25,-1.03,0.91,-61,1,1,1.4,1.43,98,8311,22.4,3.48,,9.73,1.016,84.4,,43.1,5,,,,,,,,,,,,0,0,0,0,0,0,0,0,0,0,0,0,0,0,0,0,,,,,,0.0,,,,,,,
6834364,1745475433399,,,,,,,,,,,,,,,,,,,,,,,,,,,,,,,,,,0,0,0,0,0,0,0,0,0,0,0,0,0,0,0,0,,,,,,,,,,,,,
6834384,1745475433419,0.0,132,12.94,-0.24,-1.16,0.92,-60,0,1,1.5,1.5,100,8607,25.1,3.57,15,10.41,1.019,84.4,183,43.1,5,22,21,24,27,0.0,107.0,0.0,0.0,2.27,0,1.0,0,0,0,0,0,0,0,0,0,0,0,0,0,0,0,0,0,0,1.0,0,-0,0.0,38.993931,-76.939537,37.5,25.9,32,3,0.8
6834404,1745475433439,,,,,,,,,,,,,,,,,,,,,,,,,,,,,,,,,,0,0,0,0,0,0,0,0,0,0,0,0,0,0,0,0,,,,,,,,,,,,,
6834424,1745475433459,0.0,130,,-0.23,-1.12,0.85,-59,-1,0,1.42,1.5,95,8835,25.5,3.58,,10.41,1.019,84.4,,45.2,5,,,,,,,,,,,,0,0,0,0,0,0,0,0,0,0,0,0,0,0,0,0,,,,,,0.0,,,,,,,
6834444,1745475433479,,,,,,,,,,,,,,,,,,,,,,,,,,,,,,,,,,0,0,0,0,0,0,0,0,0,0,0,0,0,0,0,0,,,,,,,,,,,,,
6834464,1745475433499,0.0,132,,-0.24,-0.97,0.89,-60,-1,2,1.34,1.5,89,8835,25.5,3.58,,10.62,1.011,84.4,,45.2,5,,,,,,,,,,,,0,0,0,0,0,0,0,0,0,0,0,0,0,0,0,0,,,,,,0.0,,,,,,,
6834484,1745475433519,,,,,,,,,,,,,,,,,,,,,,,22,25,28,25,0.0,249.0,0.0,0.0,2.27,,,0,0,0,0,0,0,0,0,0,0,0,0,0,0,0,0,,1,,,,,38.993935,-76.939552,37.96,25.9,32,3,0.8
6834504,1745475433539,0.0,132,,-0.23,-0.76,0.92,-61,0,3,1.22,1.5,81,8856,25.8,3.56,,10.81,1.035,84.4,,44.9,5,,,,,,,,,,,,0,0,0,0,0,0,0,0,0,0,0,0,0,0,0,0,,,,,,0.0,,,,,,,
6834524,1745475433559,,,,,,,,,,,,,,,,,,,,,,,,,,,,,,,,,,0,0,0,0,0,0,0,0,0,0,0,0,0,0,0,0,,,,,,,,,,,,,
6834544,1745475433579,0.0,132,,-0.18,-0.51,0.99,-63,2,3,1.13,1.5,75,9065,13.4,3.23,,9.73,1.061,84.4,,44.9,5,,,,,,,,,,,,0,0,0,0,0,0,0,0,0,0,0,0,0,0,0,0,,,,,,0.0,,,,,,,
6834564,1745475433597,,,,,,,,,,,,,,,,,,,,,,,,,,,,,,,,,,0,0,0,0,0,0,0,0,0,0,0,0,0,0,0,0,,,,,,,,,,,,,
6834584,1745475433617,0.0,131,,-0.11,-0.44,0.99,-63,2,2,1.09,1.5,72,9116,9.0,2.78,,8.65,1.041,84.4,,44.9,5,22,26,27,26,0.0,33.0,0.0,0.0,2.27,,,0,0,0,0,0,0,0,0,0,0,0,0,0,0,0,0,,0,,,,0.0,38.993935,-76.939568,37.81,25.9,32,3,0.8
6834604,1745475433637,,,,,,,,,,,,,,,,,,,,,,,,,,,,,,,,,,0,0,0,0,0,0,0,0,0,0,0,0,0,0,0,0,,,,,,,,,,,,,
6834624,1745475433657,0.0,131,,-0.08,-0.43,0.93,-63,2,2,1.03,1.5,68,8821,5.4,2.29,,8.65,1.041,84.4,,44.8,5,,,,,,,,,,,,0,0,0,0,0,0,0,0,0,0,0,0,0,0,0,0,,,,,,0.0,,,,,,,
6834644,1745475433677,,,,,,,,,,,,,,,,,,,,,,,,,,,,,,,,,,0,0,0,0,0,0,0,0,0,0,0,0,0,0,0,0,,,,,,,,,,,,,
6834664,1745475433698,0.0,132,,-0.09,-0.49,0.94,-61,2,2,1.06,1.5,71,8821,5.4,2.29,,7.93,1.01,84.4,,44.8,5,,,,,,,,,,,,0,0,0,0,0,0,0,0,0,0,0,0,0,0,0,0,,,,,,0.0,,,,,,,
6834684,1745475433718,,,,,,,,,,,,,,,,,,,,,,,22,26,27,27,0.0,55.0,0.0,0.0,2.27,,,0,0,0,0,0,0,0,0,0,0,0,0,0,0,0,0,,0,,,,,38.993942,-76.939575,38.01,26.0,32,3,0.8
6834704,1745475433738,0.0,132,,-0.17,-0.61,0.93,-59,1,1,1.13,1.5,75,8455,2.7,1.4,,7.27,1.002,84.4,,42.7,5,,,,,,,,,,,,0,0,0,0,0,0,0,0,0,0,0,0,0,0,0,0,,,,,,0.0,,,,,,,
6834724,1745475433758,,,,,,,,,,,,,,,,,,,,,,,,,,,,,,,,,,0,0,0,0,0,0,0,0,0,0,0,0,0,0,0,0,,,,,,,,,,,,,
6834744,1745475433778,0.0,132,,-0.16,-0.6,0.98,-58,1,1,1.16,1.5,77,7897,12.7,2.56,,7.69,1.004,84.4,,42.7,5,,,,,,,,,,,,0,0,0,0,0,0,0,0,0,0,0,0,0,0,0,0,,,,,,0.0,,,,,,,
6834764,1745475433798,,,,,,,,,,,,,,,,,,,,,,,,,,,,,,,,,,0,0,0,0,0,0,0,0,0,0,0,0,0,0,0,0,,,,,,,,,,,,,
6834784,1745475433818,0.0,132,,-0.2,-0.74,0.98,-57,0,1,1.24,1.5,83,7803,25.7,3.37,,9.7,1.139,84.4,,42.7,5,23,22,25,24,0.0,237.0,0.0,0.0,2.27,,,0,0,0,0,0,0,0,0,0,0,0,0,0,0,0,0,,0,,,,0.0,38.993946,-76.939583,39.89,26.0,32,3,0.8
6834804,1745475433838,,,,,,,,,,,,,,,,,,,,,,,,,,,,,,,,,,0,0,0,0,0,0,0,0,0,0,0,0,0,0,0,0,,,,,,,,,,,,,
6834824,1745475433858,0.0,132,,-0.25,-0.9,0.92,-57,-0,1,1.31,1.5,87,8249,30.0,3.82,,9.7,1.139,84.4,,44.5,5,,,,,,,,,,,,0,0,0,0,0,0,0,0,0,0,0,0,0,0,0,0,,,,,,0.0,,,,,,,
6834844,1745475433878,,,,,,,,,,,,,,,,,,,,,,,,,,,,,,,,,,0,0,0,0,0,0,0,0,0,0,0,0,0,0,0,0,,,,,,,,,,,,,
6834864,1745475433900,0.0,132,,-0.25,-0.72,0.96,-57,-1,2,1.22,1.5,81,8249,30.0,3.82,,10.97,1.247,84.4,,44.5,5,,,,,,,,,,,,0,0,0,0,0,0,0,0,0,0,0,0,0,0,0,0,,,,,,0.0,,,,,,,
6834884,1745475433920,,,,,,,,,,,,,,,,,,,,,,,22,25,23,25,0.0,220.0,0.0,0.0,2.27,,,0,0,0,0,0,0,0,0,0,0,0,0,0,0,0,0,,1,,,,,38.993954,-76.939598,37.81,26.0,32,3,0.8
6834904,1745475433940,0.0,132,,-0.21,-0.71,0.93,-58,-0,2,1.19,1.5,79,9007,30.4,4.74,,11.29,1.096,84.4,,45.9,5,,,,,,,,,,,,0,0,0,0,0,0,0,0,0,0,0,0,0,0,0,0,,,,,,0.0,,,,,,,
6834924,1745475433960,,,,,,,,,,,,,,,,,,,,,,,,,,,,,,,,,,0,0,0,0,0,0,0,0,0,0,0,0,0,0,0,0,,,,,,,,,,,,,
6834944,1745475433980,0.0,132,,-0.19,-0.74,0.94,-59,1,1,1.21,1.5,80,9513,30.6,4.84,,11.21,1.022,84.4,,45.9,5,,,,,,,,,,,,0,0,0,0,0,0,0,0,0,0,0,0,0,0,0,0,,,,,,0.0,,,,,,,
6834964,1745475434000,,,,,,,,,,,,,,,,,,,,,,,,,,,,,,,,,,0,0,0,0,0,0,0,0,0,0,0,0,0,0,0,0,,,,,,,,,,,,,
6834984,1745475434010,0.0,132,,-0.15,-0.79,0.95,-61,1,1,1.24,1.24,100,9685,30.4,4.88,,11.12,0.971,84.4,,45.9,5,22,26,28,27,0.0,217.0,0.0,0.0,2.27,,,0,0,0,0,0,0,0,0,0,0,0,0,0,0,0,0,,0,,,,0.0,38.993958,-76.939606,36.84,26.0,32,3,0.8
6835004,1745475434030,,,,,,,,,,,,,,,,,,,,,,,,,,,,,,,,,,0,0,0,0,0,0,0,0,0,0,0,0,0,0,0,0,,,,,,,,,,,,,
6835024,1745475434050,0.0,132,,-0.16,-0.74,0.95,-64,1,2,1.21,1.24,98,9784,28.5,4.89,,11.12,0.971,84.4,,51.2,5,,,,,,,,,,,,0,0,0,0,0,0,0,0,0,0,0,0,0,0,0,0,,,,,,0.0,,,,,,,
6835044,1745475434070,,,,,,,,,,,,,,,,,,,,,,,,,,,,,,,,,,0,0,0,0,0,0,0,0,0,0,0,0,0,0,0,0,,,,,,,,,,,,,
6835064,1745475434100,0.0,131,,-0.12,-0.86,0.93,-66,1,2,1.27,1.27,100,9784,28.5,4.89,,10.8,0.924,84.4,,51.2,5,,,,,,,,,,,,0,0,0,0,0,0,0,0,0,0,0,0,0,0,0,0,,,,,,0.0,,,,,,,
6835084,1745475434120,,,,,,,,,,,,,,,,,,,,,,,22,26,29,30,0.0,210.0,0.0,0.0,2.27,,,0,0,0,0,0,0,0,0,0,0,0,0,0,0,0,0,,1,,,,,38.993969,-76.939613,38.37,26.1,32,3,0.8
6835104,1745475434140,0.0,131,,-0.12,-1.07,0.96,-68,1,2,1.44,1.44,100,9991,21.0,3.72,,10.36,0.886,84.4,,49.9,5,,,,,,,,,,,,0,0,0,0,0,0,0,0,0,0,0,0,0,0,0,0,,,,,,0.0,,,,,,,
6835124,1745475434160,,,,,,,,,,,,,,,,,,,,,,,,,,,,,,,,,,0,0,0,0,0,0,0,0,0,0,0,0,0,0,0,0,,,,,,,,,,,,,
6835144,1745475434180,0.0,132,,-0.11,-0.77,0.93,-72,1,3,1.22,1.44,84,10085,9.8,2.64,,8.83,0.875,84.4,,49.9,5,,,,,,,,,,,,0,0,0,0,0,0,0,0,0,0,0,0,0,0,0,0,,,,,,0.0,,,,,,,
6835164,1745475434200,,,,,,,,,,,,,,,,,,,,,,,,,,,,,,,,,,0,0,0,0,0,0,0,0,0,0,0,0,0,0,0,0,,,,,,,,,,,,,
6835184,1745475434220,0.0,132,,-0.12,-0.85,0.95,-73,1,3,1.29,1.44,89,9887,3.2,2.01,,7.69,0.88,84.4,,49.9,5,21,28,30,31,0.0,181.0,0.0,0.0,2.27,,,0,0,0,0,0,0,0,0,0,0,0,0,0,0,0,0,,0,,,,0.0,38.993977,-76.939613,39.35,26.1,32,3,0.8
6835204,1745475434240,,,,,,,,,,,,,,,,,,,,,,,,,,,,,,,,,,0,0,0,0,0,0,0,0,0,0,0,0,0,0,0,0,,,,,,,,,,,,,
6835224,1745475434260,0.0,132,,-0.16,-0.98,1.01,-75,1,2,1.42,1.44,98,9412,1.5,1.4,,7.69,0.88,84.4,,45.3,5,,,,,,,,,,,,0,0,0,0,0,0,0,0,0,0,0,0,0,0,0,0,,,,,,0.0,,,,,,,
6835244,1745475434280,,,,,,,,,,,,,,,,,,,,,,,,,,,,,,,,,,0,0,0,0,0,0,0,0,0,0,0,0,0,0,0,0,,,,,,,,,,,,,
6835264,1745475434300,0.0,132,,-0.19,-0.87,1.03,-77,0,1,1.36,1.44,94,9412,1.5,1.4,,6.82,0.912,84.4,,45.3,5,,,,,,,,,,,,0,0,0,0,0,0,0,0,0,0,0,0,0,0,0,0,,,,,,0.0,,,,,,,
6835284,1745475434320,,,,,,,,,,,,,,,,,,,,,,,21,25,28,30,0.0,229.0,0.0,0.0,2.27,,,0,0,0,0,0,0,0,0,0,0,0,0,0,0,0,0,,0,,,,,38.993984,-76.939621,39.76,26.1,32,3,0.8
6835304,1745475434340,0.0,132,,-0.27,-0.92,1.03,-78,-0,2,1.4,1.44,97,8667,1.4,1.4,,6.26,0.99,84.4,,42.8,5,,,,,,,,,,,,0,0,0,0,0,0,0,0,0,0,0,0,0,0,0,0,,,,,,0.0,,,,,,,
6835324,1745475434360,,,,,,,,,,,,,,,,,,,,,,,,,,,,,,,,,,0,0,0,0,0,0,0,0,0,0,0,0,0,0,0,0,,,,,,,,,,,,,
6835344,1745475434380,0.0,132,,-0.29,-0.99,1.07,-79,0,2,1.48,1.48,100,8178,1.8,1.4,,6.19,1.197,82.6,,42.8,5,,,,,,,,,,,,0,0,0,0,0,0,0,0,0,0,0,0,0,0,0,0,,,,,,0.0,,,,,,,
6835364,1745475434400,,,,,,,,,,,,,,,,,,,,,,,,,,,,,,,,,,0,0,0,0,0,0,0,0,0,0,0,0,0,0,0,0,,,,,,,,,,,,,
6835384,1745475434420,0.0,133,12.95,-0.34,-0.99,1.02,-79,1,1,1.46,1.48,98,7763,6.1,1.86,15,6.62,1.254,82.6,183,42.8,5,21,22,24,26,0.0,228.0,0.0,0.0,2.27,0,1.0,0,0,0,0,0,0,0,0,0,0,0,0,0,0,0,0,0,0,1.0,0,-0,0.0,38.993996,-76.939629,38.1,26.1,32,3,0.8
