"Interval"|"ms"|0|0|1,"Utc"|"ms"|0|0|1,"FrontBP"|"psi"|-5.0|5.0|25,"SteerAng"|"Degrees"|-145|145|25,"Battery"|"Volts"|-5.0|20.0|1,"AccelX"|"G"|-3.0|3.0|25,"AccelY"|"G"|-3.0|3.0|25,"AccelZ"|"G"|-3.0|3.0|25,"Yaw"|"Deg/Sec"|-120|120|25,"Pitch"|"Deg/Sec"|-120|120|25,"Roll"|"Deg/Sec"|-120|120|25,"Gsum"|"G"|0.0|3.0|25,"GsumMax"|"G"|0.0|3.0|25,"GsumPct"|"%"|0|100|25,"RPM"|""|0|10000|25,"TPS"|"%"|0.0|100.0|25,"InjectorPW"|"ms"|0.0|100.0|25,"Baro"|"kPa"|0|105|1,"MAP"|"Psi"|0.0|255.0|25,"Lambda"|""|-2.0|2.0|25,"IAT"|"C"|0.0|200.0|25,"EngineTemp"|"C"|0|200|1,"EOP"|"PSI"|0.0|152.0|25,"EOT"|"F"|0|250|25,"WSFR"|"MPH"|0|150|10,"WSFL"|"MPH"|0|100|10,"WSRR"|"MPH"|0|100|10,"WSRL"|""|0|100|10,"TCSet"|"%"|0.0|100.0|10,"TCSlip"|"%"|0.0|100.0|10,"TCComp"|"deg"|0.0|50.0|10,"TCCut"|"%"|0.0|100.0|10,"Analog8"|""|0.0|5.0|10,"OilTemp"|"F"|0|300|1,"AA_On"|""|0.0|1.0|1,"ThermLF1"|"C"|0|400|50,"ThermLF2"|"C"|0|400|50,"ThermRR1"|"C"|0|400|50,"ThermRR2"|"C"|0|400|50,"ThermLF3"|"C"|0|400|50,"ThermLF4"|"C"|0|400|50,"ThermLF5"|"C"|0|400|50,"ThermLF6"|"C"|0|400|50,"ThermLF7"|"C"|0|400|50,"ThermLF8"|"C"|0|400|50,"ThermRR3"|"C"|0|400|50,"ThermRR4"|"C"|0|400|50,"ThermRR5"|"C"|0|400|50,"ThermRR6"|"C"|0|400|50,"ThermRR7"|"C"|0|400|50,"ThermRR8"|"C"|0|400|50,"AA_LowDrag"|""|0|1|1,"Gear"|""|1|6|10,"AA_On"|""|0.0|1.0|1,"AA_LowDrag"|""|0|1|1,"Fuel_Mix"|""|-10|10|1,"AA_Packages"|""|0.0|1000.0|25,"Latitude"|"Degrees"|-180.0|180.0|10,"Longitude"|"Degrees"|-180.0|180.0|10,"Speed"|"kph"|0.0|150.0|10,"Altitude"|"m"|0.0|4000.0|10,"GPSSats"|""|0|20|10,"GPSQual"|""|0|5|10,"GPSDOP"|""|0.0|20.0|10
129041,1745477437387,,,,,,,,,,,,,,,,,,,,,,,,,,,,,,,,,,0,0,0,0,0,0,0,0,0,0,0,0,0,0,0,0,,,,,,,,,,,,,
129061,1745477437406,0.0,-51,,-0.14,-0.52,0.94,2,-1,-1,1.08,1.08,100,9874,21.0,4.96,,10.65,1.249,88.0,,49.4,5,,,,,,,,,,,,0,0,0,0,0,0,0,0,0,0,0,0,0,0,0,0,,,,,,0.0,,,,,,,
129081,1745477437426,,,,,,,,,,,,,,,,,,,,,,,,,,,,,,,,,,0,0,0,0,0,0,0,0,0,0,0,0,0,0,0,0,,,,,,,,,,,,,
129101,1745477437446,0.0,-14,,-0.13,-0.37,0.96,1,-0,-1,1.03,1.08,95,11018,7.8,2.46,,8.93,1.164,88.0,,49.4,5,,,,,,,,,,,,0,0,0,0,0,0,0,0,0,0,0,0,0,0,0,0,,,,,,0.0,,,,,,,
129121,1745477437466,,,,,,,,,,,,,,,,,,,,,,,0,0,0,0,0.0,0.0,0.0,0.0,2.25,,,0,0,0,0,0,0,0,0,0,0,0,0,0,0,0,0,,0,,,,,38.99411,-76.939652,0.11,32.3,26,2,1.0
129141,1745477437486,0.0,-7,,-0.1,-0.27,0.99,1,-0,-1,1.03,1.08,95,11459,4.4,2.15,,7.3,0.957,88.0,,49.4,5,,,,,,,,,,,,0,0,0,0,0,0,0,0,0,0,0,0,0,0,0,0,,,,,,0.0,,,,,,,
129161,1745477437506,,,,,,,,,,,,,,,,,,,,,,,,,,,,,,,,,,0,0,0,0,0,0,0,0,0,0,0,0,0,0,0,0,,,,,,,,,,,,,
129181,1745477437526,0.0,-7,,-0.07,-0.12,0.96,1,-1,-1,0.97,1.08,90,11383,2.3,1.4,,7.3,0.957,88.0,,51.0,5,,,,,,,,,,,,0,0,0,0,0,0,0,0,0,0,0,0,0,0,0,0,,,,,,0.0,,,,,,,
129201,1745477437546,,,,,,,,,,,,,,,,,,,,,,,,,,,,,,,,,,0,0,0,0,0,0,0,0,0,0,0,0,0,0,0,0,,,,,,,,,,,,,
129221,1745477437566,0.0,-4,,-0.09,-0.29,0.97,3,-1,-1,1.01,1.08,93,10791,2.0,1.4,,6.3,0.981,86.2,,51.0,5,0,0,0,0,0.0,0.0,0.0,0.0,2.26,,,0,0,0,0,0,0,0,0,0,0,0,0,0,0,0,0,,0,,,,0.0,38.99411,-76.939652,0.11,32.3,26,2,1.0
129241,1745477437586,,,,,,,,,,,,,,,,,,,,,,,,,,,,,,,,,,0,0,0,0,0,0,0,0,0,0,0,0,0,0,0,0,,,,,,,,,,,,,
129261,1745477437608,0.0,-17,,-0.12,0.05,0.95,1,-1,-1,0.96,1.08,88,10791,2.0,1.4,,5.87,1.054,86.2,,50.7,5,,,,,,,,,,,,0,0,0,0,0,0,0,0,0,0,0,0,0,0,0,0,,,,,,0.0,,,,,,,
129281,1745477437628,,,,,,,,,,,,,,,,,,,,,,,,,,,,,,,,,,0,0,0,0,0,0,0,0,0,0,0,0,0,0,0,0,,,,,,,,,,,,,
129301,1745477437648,0.0,-14,,-0.14,0.09,0.93,2,-1,-1,0.95,1.08,87,10299,1.8,1.4,,5.58,1.249,86.2,,50.7,5,,,,,,,,,,,,0,0,0,0,0,0,0,0,0,0,0,0,0,0,0,0,,,,,,0.0,,,,,,,
129321,1745477437668,,,,,,,,,,,,,,,,,,,,,,,0,0,0,0,0.0,0.0,0.0,0.0,2.26,,,0,0,0,0,0,0,0,0,0,0,0,0,0,0,0,0,,0,,,,,38.99411,-76.939652,0.0,32.3,26,2,1.0
129341,1745477437688,0.0,-7,,-0.12,-0.03,0.91,2,-1,-1,0.92,1.08,85,9725,1.8,1.4,,5.47,1.249,86.2,,50.7,5,,,,,,,,,,,,0,0,0,0,0,0,0,0,0,0,0,0,0,0,0,0,,,,,,0.0,,,,,,,
129361,1745477437708,,,,,,,,,,,,,,,,,,,,,,,,,,,,,,,,,,0,0,0,0,0,0,0,0,0,0,0,0,0,0,0,0,,,,,,,,,,,,,
129381,1745477437728,0.0,-17,,-0.13,-0.12,0.96,3,-1,-1,0.97,1.08,90,9131,1.9,1.4,,5.54,1.249,86.2,,49.2,5,,,,,,,,,,,,0,0,0,0,0,0,0,0,0,0,0,0,0,0,0,0,,,,,,0.0,,,,,,,
129401,1745477437748,,,,,,,,,,,,,,,,,,,,,,,,,,,,,,,,,,0,0,0,0,0,0,0,0,0,0,0,0,0,0,0,0,,,,,,,,,,,,,
129421,1745477437768,0.0,-0,13.03,-0.12,-0.26,0.97,3,-0,-1,1.01,1.08,93,8573,2.2,1.4,15,5.54,1.249,86.2,155,49.2,5,0,0,0,0,0.0,0.0,0.0,0.0,2.27,0,1.0,0,0,0,0,0,0,0,0,0,0,0,0,0,0,0,0,0,0,1.0,0,-0,0.0,38.99411,-76.939652,0.04,32.3,26,2,1.0
129441,1745477437788,,,,,,,,,,,,,,,,,,,,,,,,,,,,,,,,,,0,0,0,0,0,0,0,0,0,0,0,0,0,0,0,0,,,,,,,,,,,,,
129461,1745477437808,0.0,-21,,-0.12,-0.21,0.94,2,-0,-1,0.97,1.08,90,8573,2.2,1.4,,5.68,1.249,86.2,,48.5,5,,,,,,,,,,,,0,0,0,0,0,0,0,0,0,0,0,0,0,0,0,0,,,,,,0.0,,,,,,,
129481,1745477437828,,,,,,,,,,,,,,,,,,,,,,,,,,,,,,,,,,0,0,0,0,0,0,0,0,0,0,0,0,0,0,0,0,,,,,,,,,,,,,
129501,1745477437848,0.0,-7,,-0.09,-0.14,0.97,2,-0,-1,0.98,1.08,91,7991,2.5,1.4,,5.83,1.25,86.2,,48.5,5,,,,,,,,,,,,0,0,0,0,0,0,0,0,0,0,0,0,0,0,0,0,,,,,,0.0,,,,,,,
129521,1745477437868,,,,,,,,,,,,,,,,,,,,,,,0,0,0,0,0.0,0.0,0.0,0.0,2.26,,,0,0,0,0,0,0,0,0,0,0,0,0,0,0,0,0,,0,,,,,38.99411,-76.939652,0.07,32.3,26,2,1.0
129541,1745477437888,0.0,-14,,-0.07,-0.11,0.96,2,-0,-1,0.97,1.08,90,7460,3.2,1.4,,6.18,1.251,86.2,,48.5,5,,,,,,,,,,,,0,0,0,0,0,0,0,0,0,0,0,0,0,0,0,0,,,,,,0.0,,,,,,,
129561,1745477437906,,,,,,,,,,,,,,,,,,,,,,,,,,,,,,,,,,0,0,0,0,0,0,0,0,0,0,0,0,0,0,0,0,,,,,,,,,,,,,
129581,1745477437926,0.0,-10,,-0.08,-0.12,0.99,1,-0,-1,1.0,1.08,93,6917,4.4,1.69,,6.67,1.251,86.2,,48.1,5,,,,,,,,,,,,0,0,0,0,0,0,0,0,0,0,0,0,0,0,0,0,,,,,,0.0,,,,,,,
129601,1745477437946,,,,,,,,,,,,,,,,,,,,,,,,,,,,,,,,,,0,0,0,0,0,0,0,0,0,0,0,0,0,0,0,0,,,,,,,,,,,,,
129621,1745477437966,0.0,-21,,-0.07,-0.13,0.96,1,-0,-1,0.97,1.08,90,6917,4.4,1.69,,6.67,1.251,86.2,,48.1,5,0,0,0,0,0.0,0.0,0.0,0.0,2.26,,,0,0,0,0,0,0,0,0,0,0,0,0,0,0,0,0,,0,,,,0.0,38.99411,-76.939652,0.05,32.3,26,2,1.0
129641,1745477437986,,,,,,,,,,,,,,,,,,,,,,,,,,,,,,,,,,0,0,0,0,0,0,0,0,0,0,0,0,0,0,0,0,,,,,,,,,,,,,
129661,1745477438006,0.0,-31,,-0.1,-0.05,1.08,1,-0,-1,1.09,1.09,100,6414,9.1,2.37,,7.78,1.251,86.2,,47.5,5,,,,,,,,,,,,0,0,0,0,0,0,0,0,0,0,0,0,0,0,0,0,,,,,,0.0,,,,,,,
129681,1745477438020,,,,,,,,,,,,,,,,,,,,,,,,,,,,,,,,,,0,0,0,0,0,0,0,0,0,0,0,0,0,0,0,0,,,,,,,,,,,,,
129701,1745477438040,0.0,-17,,-0.15,0.07,1.15,3,-0,-0,1.16,1.16,100,6139,13.8,2.71,,9.18,1.249,86.2,,47.5,5,,,,,,,,,,,,0,0,0,0,0,0,0,0,0,0,0,0,0,0,0,0,,,,,,0.0,,,,,,,
129721,1745477438060,,,,,,,,,,,,,,,,,,,,,,,0,0,0,0,0.0,0.0,0.0,0.0,2.26,,,0,0,0,0,0,0,0,0,0,0,0,0,0,0,0,0,,0,,,,,38.99411,-76.939652,0.07,32.3,28,2,0.8
129741,1745477438080,0.0,-10,,-0.18,0.2,1.26,5,-0,1,1.29,1.29,100,5904,14.3,2.99,,10.17,1.247,86.2,,47.5,5,,,,,,,,,,,,0,0,0,0,0,0,0,0,0,0,0,0,0,0,0,0,,,,,,0.0,,,,,,,
129761,1745477438106,,,,,,,,,,,,,,,,,,,,,,,,,,,,,,,,,,0,0,0,0,0,0,0,0,0,0,0,0,0,0,0,0,,,,,,,,,,,,,
129781,1745477438126,0.0,-14,,-0.15,0.23,1.29,5,-0,0,1.32,1.32,100,5698,12.8,3.28,,10.17,1.247,86.2,,46.4,5,,,,,,,,,,,,0,0,0,0,0,0,0,0,0,0,0,0,0,0,0,0,,,,,,0.0,,,,,,,
129801,1745477438146,,,,,,,,,,,,,,,,,,,,,,,,,,,,,,,,,,0,0,0,0,0,0,0,0,0,0,0,0,0,0,0,0,,,,,,,,,,,,,
129821,1745477438166,0.0,-7,,-0.16,0.16,1.25,4,-0,0,1.27,1.32,96,5512,10.0,3.88,,10.89,1.247,86.2,,46.4,5,0,0,0,0,0.0,0.0,0.0,0.0,2.27,,,0,0,0,0,0,0,0,0,0,0,0,0,0,0,0,0,,0,,,,0.0,38.99411,-76.939652,0.05,32.3,28,2,0.8
129841,1745477438186,,,,,,,,,,,,,,,,,,,,,,,,,,,,,,,,,,0,0,0,0,0,0,0,0,0,0,0,0,0,0,0,0,,,,,,,,,,,,,
129861,1745477438204,0.0,-14,,-0.14,0.16,1.18,3,-0,0,1.2,1.32,91,5512,10.0,3.88,,11.16,1.248,86.2,,45.4,5,,,,,,,,,,,,0,0,0,0,0,0,0,0,0,0,0,0,0,0,0,0,,,,,,0.0,,,,,,,
129881,1745477438224,,,,,,,,,,,,,,,,,,,,,,,,,,,,,,,,,,0,0,0,0,0,0,0,0,0,0,0,0,0,0,0,0,,,,,,,,,,,,,
129901,1745477438244,0.0,-7,,-0.12,0.18,1.19,3,-0,0,1.21,1.32,92,5558,8.2,3.75,,11.08,1.249,86.2,,45.4,5,,,,,,,,,,,,0,0,0,0,0,0,0,0,0,0,0,0,0,0,0,0,,,,,,0.0,,,,,,,
129921,1745477438264,,,,,,,,,,,,,,,,,,,,,,,0,0,0,0,0.0,0.0,0.0,0.0,2.27,,,0,0,0,0,0,0,0,0,0,0,0,0,0,0,0,0,,0,,,,,38.99411,-76.939652,0.04,32.3,28,2,0.8
129941,1745477438284,0.0,-10,,-0.1,0.11,1.08,2,-0,0,1.09,1.32,83,5564,8.0,3.74,,11.13,1.251,86.2,,45.4,5,,,,,,,,,,,,0,0,0,0,0,0,0,0,0,0,0,0,0,0,0,0,,,,,,0.0,,,,,,,
129961,1745477438306,,,,,,,,,,,,,,,,,,,,,,,,,,,,,,,,,,0,0,0,0,0,0,0,0,0,0,0,0,0,0,0,0,,,,,,,,,,,,,
129981,1745477438326,0.0,-24,,-0.1,0.18,1.17,2,-0,0,1.19,1.32,90,5624,8.2,3.78,,11.17,1.243,86.2,,45.5,5,,,,,,,,,,,,0,0,0,0,0,0,0,0,0,0,0,0,0,0,0,0,,,,,,0.0,,,,,,,
130001,1745477438346,,,,,,,,,,,,,,,,,,,,,,,,,,,,,,,,,,0,0,0,0,0,0,0,0,0,0,0,0,0,0,0,0,,,,,,,,,,,,,
130021,1745477438366,0.0,-14,,-0.1,0.07,1.08,1,-0,0,1.09,1.32,83,5647,9.0,3.84,,11.17,1.243,86.2,,45.5,5,0,0,0,0,0.0,0.0,0.0,0.0,2.26,,,0,0,0,0,0,0,0,0,0,0,0,0,0,0,0,0,,0,,,,0.0,38.99411,-76.939652,0.04,32.3,28,2,0.8
130041,1745477438386,,,,,,,,,,,,,,,,,,,,,,,,,,,,,,,,,,0,0,0,0,0,0,0,0,0,0,0,0,0,0,0,0,,,,,,,,,,,,,
130061,1745477438407,0.0,-24,,-0.1,0.16,1.15,2,-0,0,1.16,1.32,88,5647,9.0,3.84,,11.1,1.211,86.2,,45.6,5,,,,,,,,,,,,0,0,0,0,0,0,0,0,0,0,0,0,0,0,0,0,,,,,,0.0,,,,,,,
130081,1745477438427,,,,,,,,,,,,,,,,,,,,,,,,,,,,,,,,,,0,0,0,0,0,0,0,0,0,0,0,0,0,0,0,0,,,,,,,,,,,,,
130101,1745477438447,0.0,-34,,-0.07,0.05,1.05,2,-0,0,1.05,1.32,80,0,9.2,4.19,,11.1,1.154,86.2,,45.6,5,,,,,,,,,,,,0,0,0,0,0,0,0,0,0,0,0,0,0,0,0,0,,,,,,0.0,,,,,,,
130121,1745477438467,,,,,,,,,,,,,,,,,,,,,,,0,0,0,0,0.0,0.0,0.0,0.0,2.26,,,0,0,0,0,0,0,0,0,0,0,0,0,0,0,0,0,,0,,,,,38.99411,-76.939652,0.15,32.3,28,2,0.8
130141,1745477438487,0.0,-14,,-0.09,-0.04,0.97,1,-0,0,0.98,1.32,74,5832,9.2,3.97,,11.09,1.205,86.2,,45.6,5,,,,,,,,,,,,0,0,0,0,0,0,0,0,0,0,0,0,0,0,0,0,,,,,,0.0,,,,,,,
130161,1745477438507,,,,,,,,,,,,,,,,,,,,,,,,,,,,,,,,,,0,0,0,0,0,0,0,0,0,0,0,0,0,0,0,0,,,,,,,,,,,,,
130181,1745477438527,0.0,-21,,-0.09,-0.02,1.02,1,-0,0,1.02,1.32,78,5642,9.2,3.87,,11.1,1.124,86.2,,46.0,5,,,,,,,,,,,,0,0,0,0,0,0,0,0,0,0,0,0,0,0,0,0,,,,,,0.0,,,,,,,
130201,1745477438547,,,,,,,,,,,,,,,,,,,,,,,,,,,,,,,,,,0,0,0,0,0,0,0,0,0,0,0,0,0,0,0,0,,,,,,,,,,,,,
130221,1745477438567,0.0,-21,,-0.09,-0.04,1.02,1,-0,0,1.02,1.32,78,5403,9.0,3.74,,11.1,1.124,86.2,,46.0,5,0,0,0,0,0.0,0.0,0.0,0.0,2.26,,,0,0,0,0,0,0,0,0,0,0,0,0,0,0,0,0,,0,,,,0.0,38.99411,-76.939652,0.05,32.3,28,2,0.8
130241,1745477438587,,,,,,,,,,,,,,,,,,,,,,,,,,,,,,,,,,0,0,0,0,0,0,0,0,0,0,0,0,0,0,0,0,,,,,,,,,,,,,
130261,1745477438607,0.0,-17,,-0.08,-0.08,0.95,1,-0,-0,0.96,1.32,73,5403,9.0,3.74,,11.22,1.091,86.2,,45.0,5,,,,,,,,,,,,0,0,0,0,0,0,0,0,0,0,0,0,0,0,0,0,,,,,,0.0,,,,,,,
130281,1745477438627,,,,,,,,,,,,,,,,,,,,,,,,,,,,,,,,,,0,0,0,0,0,0,0,0,0,0,0,0,0,0,0,0,,,,,,,,,,,,,
130301,1745477438647,0.0,-31,,-0.12,0.02,1.05,1,-0,0,1.06,1.32,80,5617,8.7,3.83,,11.41,1.189,86.2,,45.0,5,,,,,,,,,,,,0,0,0,0,0,0,0,0,0,0,0,0,0,0,0,0,,,,,,0.0,,,,,,,
130321,1745477438667,,,,,,,,,,,,,,,,,,,,,,,0,0,0,0,0.0,0.0,0.0,0.0,2.27,,,0,0,0,0,0,0,0,0,0,0,0,0,0,0,0,0,,0,,,,,38.99411,-76.939652,0.04,32.3,28,2,0.8
130341,1745477438687,0.0,-27,,-0.09,-0.03,1.02,0,-0,-0,1.02,1.32,78,5669,8.7,3.86,,11.34,1.096,86.2,,45.0,5,,,,,,,,,,,,0,0,0,0,0,0,0,0,0,0,0,0,0,0,0,0,,,,,,0.0,,,,,,,
130361,1745477438707,,,,,,,,,,,,,,,,,,,,,,,,,,,,,,,,,,0,0,0,0,0,0,0,0,0,0,0,0,0,0,0,0,,,,,,,,,,,,,
130381,1745477438727,0.0,-31,,-0.12,-0.0,1.03,0,-0,0,1.04,1.32,79,5725,8.7,3.87,,11.18,1.043,86.2,,45.4,5,,,,,,,,,,,,0,0,0,0,0,0,0,0,0,0,0,0,0,0,0,0,,,,,,0.0,,,,,,,
130401,1745477438747,,,,,,,,,,,,,,,,,,,,,,,,,,,,,,,,,,0,0,0,0,0,0,0,0,0,0,0,0,0,0,0,0,,,,,,,,,,,,,
130421,1745477438767,0.0,-24,13.0,-0.1,0.09,1.11,2,-0,0,1.12,1.32,85,5725,8.7,3.87,15,11.18,1.043,86.2,155,45.4,5,0,0,0,0,0.0,0.0,0.0,0.0,2.27,0,1.0,0,0,0,0,0,0,0,0,0,0,0,0,0,0,0,0,0,0,1.0,0,-0,0.0,38.99411,-76.939652,0.04,32.3,28,2,0.8
130441,1745477438787,,,,,,,,,,,,,,,,,,,,,,,,,,,,,,,,,,0,0,0,0,0,0,0,0,0,0,0,0,0,0,0,0,,,,,,,,,,,,,
130461,1745477438807,0.0,-24,,-0.07,0.03,1.02,1,-0,0,1.02,1.32,77,5792,8.6,3.9,,11.13,1.103,86.2,,45.8,5,,,,,,,,,,,,0,0,0,0,0,0,0,0,0,0,0,0,0,0,0,0,,,,,,0.0,,,,,,,
130481,1745477438827,,,,,,,,,,,,,,,,,,,,,,,,,,,,,,,,,,0,0,0,0,0,0,0,0,0,0,0,0,0,0,0,0,,,,,,,,,,,,,
130501,1745477438847,0.0,-27,,-0.1,-0.08,0.95,-0,-0,0,0.96,1.32,73,5837,8.9,3.91,,11.06,1.169,86.2,,45.8,5,,,,,,,,,,,,0,0,0,0,0,0,0,0,0,0,0,0,0,0,0,0,,,,,,0.0,,,,,,,
130521,1745477438867,,,,,,,,,,,,,,,,,,,,,,,0,0,0,0,0.0,0.0,0.0,0.0,2.26,,,0,0,0,0,0,0,0,0,0,0,0,0,0,0,0,0,,0,,,,,38.99411,-76.939652,0.07,32.3,28,2,0.8
130541,1745477438887,0.0,-4,,-0.13,-0.11,0.94,-1,-0,1,0.96,1.32,73,5965,9.0,3.99,,11.01,1.171,86.2,,45.8,5,,,,,,,,,,,,0,0,0,0,0,0,0,0,0,0,0,0,0,0,0,0,,,,,,0.0,,,,,,,
130561,1745477438907,,,,,,,,,,,,,,,,,,,,,,,,,,,,,,,,,,0,0,0,0,0,0,0,0,0,0,0,0,0,0,0,0,,,,,,,,,,,,,
130581,1745477438927,0.0,-17,,-0.15,-0.22,0.88,-2,-0,1,0.92,1.32,70,6145,9.0,3.62,,10.81,1.096,86.2,,45.7,5,,,,,,,,,,,,0,0,0,0,0,0,0,0,0,0,0,0,0,0,0,0,,,,,,0.0,,,,,,,
130601,1745477438947,,,,,,,,,,,,,,,,,,,,,,,,,,,,,,,,,,0,0,0,0,0,0,0,0,0,0,0,0,0,0,0,0,,,,,,,,,,,,,
130621,1745477438967,0.0,-31,,-0.12,-0.14,0.91,-2,-0,0,0.93,1.32,70,6355,8.5,3.28,,10.81,1.096,86.2,,45.7,5,0,0,0,0,0.0,0.0,0.0,0.0,2.26,,,0,0,0,0,0,0,0,0,0,0,0,0,0,0,0,0,,0,,,,0.0,38.99411,-76.939652,0.13,32.3,28,2,0.8
130641,1745477438987,,,,,,,,,,,,,,,,,,,,,,,,,,,,,,,,,,0,0,0,0,0,0,0,0,0,0,0,0,0,0,0,0,,,,,,,,,,,,,
130661,1745477439001,0.0,-31,,-0.15,-0.16,0.92,-1,-0,1,0.94,1.32,71,6355,8.5,3.28,,10.58,1.081,86.2,,46.1,5,,,,,,,,,,,,0,0,0,0,0,0,0,0,0,0,0,0,0,0,0,0,,,,,,0.0,,,,,,,
130681,1745477439021,,,,,,,,,,,,,,,,,,,,,,,,,,,,,,,,,,0,0,0,0,0,0,0,0,0,0,0,0,0,0,0,0,,,,,,,,,,,,,
130701,1745477439041,0.0,-38,,-0.15,-0.13,0.96,-1,-0,0,0.98,1.32,75,6470,7.8,3.27,,10.37,1.081,86.2,,46.1,5,,,,,,,,,,,,0,0,0,0,0,0,0,0,0,0,0,0,0,0,0,0,,,,,,0.0,,,,,,,
130721,1745477439061,,,,,,,,,,,,,,,,,,,,,,,0,0,0,0,0.0,0.0,0.0,0.0,2.26,,,0,0,0,0,0,0,0,0,0,0,0,0,0,0,0,0,,0,,,,,38.99411,-76.939652,0.08,32.3,26,2,1.0
130741,1745477439081,0.0,-21,,-0.14,-0.16,0.96,-1,-0,0,0.99,1.32,75,6726,7.3,3.24,,10.13,1.105,86.2,,46.1,5,,,,,,,,,,,,0,0,0,0,0,0,0,0,0,0,0,0,0,0,0,0,,,,,,0.0,,,,,,,
130761,1745477439107,,,,,,,,,,,,,,,,,,,,,,,,,,,,,,,,,,0,0,0,0,0,0,0,0,0,0,0,0,0,0,0,0,,,,,,,,,,,,,
130781,1745477439127,0.0,-27,,-0.11,-0.13,0.95,-0,-0,0,0.97,1.32,73,7056,7.1,3.28,,10.13,1.105,86.2,,46.8,5,,,,,,,,,,,,0,0,0,0,0,0,0,0,0,0,0,0,0,0,0,0,,,,,,0.0,,,,,,,
130801,1745477439147,,,,,,,,,,,,,,,,,,,,,,,,,,,,,,,,,,0,0,0,0,0,0,0,0,0,0,0,0,0,0,0,0,,,,,,,,,,,,,
130821,1745477439167,0.0,-24,,-0.12,-0.2,0.97,-1,-0,-0,1.0,1.32,76,7056,7.1,3.28,,9.74,1.084,86.2,,46.8,5,0,0,0,0,0.0,0.0,0.0,0.0,2.27,,,0,0,0,0,0,0,0,0,0,0,0,0,0,0,0,0,,0,,,,0.0,38.99411,-76.939652,0.04,32.3,26,2,1.0
130841,1745477439187,,,,,,,,,,,,,,,,,,,,,,,,,,,,,,,,,,0,0,0,0,0,0,0,0,0,0,0,0,0,0,0,0,,,,,,,,,,,,,
130861,1745477439205,0.0,-31,,-0.1,-0.19,1.01,-0,-0,-0,1.04,1.32,79,7570,6.8,3.05,,9.19,1.04,86.2,,47.6,5,,,,,,,,,,,,0,0,0,0,0,0,0,0,0,0,0,0,0,0,0,0,,,,,,0.0,,,,,,,
130881,1745477439225,,,,,,,,,,,,,,,,,,,,,,,,,,,,,,,,,,0,0,0,0,0,0,0,0,0,0,0,0,0,0,0,0,,,,,,,,,,,,,
130901,1745477439245,0.0,-31,,-0.1,-0.16,0.99,-1,-0,-0,1.01,1.32,77,8021,6.4,2.87,,8.78,1.009,86.2,,47.6,5,,,,,,,,,,,,0,0,0,0,0,0,0,0,0,0,0,0,0,0,0,0,,,,,,0.0,,,,,,,
130921,1745477439265,,,,,,,,,,,,,,,,,,,,,,,0,0,0,0,0.0,0.0,0.0,0.0,2.27,,,0,0,0,0,0,0,0,0,0,0,0,0,0,0,0,0,,0,,,,,38.99411,-76.939652,0.04,32.3,26,2,1.0
130941,1745477439285,0.0,-17,,-0.09,-0.21,0.97,-0,-0,-0,1.0,1.32,76,8542,4.9,2.4,,8.05,0.988,86.2,,47.6,5,,,,,,,,,,,,0,0,0,0,0,0,0,0,0,0,0,0,0,0,0,0,,,,,,0.0,,,,,,,
130961,1745477439307,,,,,,,,,,,,,,,,,,,,,,,,,,,,,,,,,,0,0,0,0,0,0,0,0,0,0,0,0,0,0,0,0,,,,,,,,,,,,,
130981,1745477439327,0.0,-34,,-0.09,0.05,0.97,-0,-0,0,0.98,1.32,74,8840,3.8,1.9,,7.38,0.969,86.2,,48.2,5,,,,,,,,,,,,0,0,0,0,0,0,0,0,0,0,0,0,0,0,0,0,,,,,,0.0,,,,,,,
131001,1745477439347,,,,,,,,,,,,,,,,,,,,,,,,,,,,,,,,,,0,0,0,0,0,0,0,0,0,0,0,0,0,0,0,0,,,,,,,,,,,,,
131021,1745477439367,0.0,-27,,-0.05,0.15,0.98,0,-0,-0,0.99,1.32,75,8821,3.8,1.78,,7.38,0.969,86.2,,48.2,5,0,0,0,0,0.0,0.0,0.0,0.0,2.26,,,0,0,0,0,0,0,0,0,0,0,0,0,0,0,0,0,,0,,,,0.0,38.99411,-76.939652,0.08,32.3,26,2,1.0
131041,1745477439387,,,,,,,,,,,,,,,,,,,,,,,,,,,,,,,,,,0,0,0,0,0,0,0,0,0,0,0,0,0,0,0,0,,,,,,,,,,,,,
131061,1745477439406,0.0,-38,,-0.03,0.0,0.98,-0,-0,0,0.98,1.32,75,8821,3.8,1.78,,6.91,0.98,86.2,,47.3,5,,,,,,,,,,,,0,0,0,0,0,0,0,0,0,0,0,0,0,0,0,0,,,,,,0.0,,,,,,,
131081,1745477439426,,,,,,,,,,,,,,,,,,,,,,,,,,,,,,,,,,0,0,0,0,0,0,0,0,0,0,0,0,0,0,0,0,,,,,,,,,,,,,
131101,1745477439446,0.0,-34,,-0.05,0.1,0.99,0,-0,0,1.0,1.32,76,8498,3.8,1.7,,6.51,1.051,86.2,,47.3,5,,,,,,,,,,,,0,0,0,0,0,0,0,0,0,0,0,0,0,0,0,0,,,,,,0.0,,,,,,,
131121,1745477439466,,,,,,,,,,,,,,,,,,,,,,,0,0,0,0,0.0,0.0,0.0,0.0,2.26,,,0,0,0,0,0,0,0,0,0,0,0,0,0,0,0,0,,0,,,,,38.99411,-76.939652,0.13,32.3,26,2,1.0
131141,1745477439486,0.0,-21,,-0.06,0.3,1.01,0,-0,0,1.06,1.32,80,8012,3.3,1.46,,6.34,1.191,86.2,,47.3,5,,,,,,,,,,,,0,0,0,0,0,0,0,0,0,0,0,0,0,0,0,0,,,,,,0.0,,,,,,,
131161,1745477439506,,,,,,,,,,,,,,,,,,,,,,,,,,,,,,,,,,0,0,0,0,0,0,0,0,0,0,0,0,0,0,0,0,,,,,,,,,,,,,
131181,1745477439526,0.0,-24,,-0.09,0.24,0.98,-0,-0,0,1.01,1.32,77,7563,2.7,1.4,,6.3,1.249,86.2,,46.8,5,,,,,,,,,,,,0,0,0,0,0,0,0,0,0,0,0,0,0,0,0,0,,,,,,0.0,,,,,,,
131201,1745477439546,,,,,,,,,,,,,,,,,,,,,,,,,,,,,,,,,,0,0,0,0,0,0,0,0,0,0,0,0,0,0,0,0,,,,,,,,,,,,,
131221,1745477439566,0.0,-17,,-0.09,0.24,0.94,0,-0,0,0.98,1.32,74,7072,2.4,1.4,,6.3,1.249,84.4,,46.8,5,0,0,0,0,0.0,0.0,0.0,0.0,2.26,,,0,0,0,0,0,0,0,0,0,0,0,0,0,0,0,0,,0,,,,0.0,38.99411,-76.939652,0.05,32.3,26,2,1.0
131241,1745477439586,,,,,,,,,,,,,,,,,,,,,,,,,,,,,,,,,,0,0,0,0,0,0,0,0,0,0,0,0,0,0,0,0,,,,,,,,,,,,,
131261,1745477439608,0.0,-17,,-0.06,0.12,0.96,0,-0,0,0.97,1.32,73,7072,2.4,1.4,,6.46,1.25,84.4,,47.0,5,,,,,,,,,,,,0,0,0,0,0,0,0,0,0,0,0,0,0,0,0,0,,,,,,0.0,,,,,,,
131281,1745477439628,,,,,,,,,,,,,,,,,,,,,,,,,,,,,,,,,,0,0,0,0,0,0,0,0,0,0,0,0,0,0,0,0,,,,,,,,,,,,,
131301,1745477439648,0.0,-34,,-0.1,0.09,1.0,0,-0,0,1.01,1.32,77,6551,2.0,1.4,,6.79,1.249,84.4,,47.0,5,,,,,,,,,,,,0,0,0,0,0,0,0,0,0,0,0,0,0,0,0,0,,,,,,0.0,,,,,,,
131321,1745477439668,,,,,,,,,,,,,,,,,,,,,,,0,0,0,0,0.0,0.0,0.0,0.0,2.27,,,0,0,0,0,0,0,0,0,0,0,0,0,0,0,0,0,,0,,,,,38.99411,-76.939652,0.04,32.3,26,2,1.0
131341,1745477439688,0.0,-21,,-0.13,0.07,0.9,-1,-0,0,0.91,1.32,69,6112,1.8,1.4,,7.22,1.25,84.4,,47.0,5,,,,,,,,,,,,0,0,0,0,0,0,0,0,0,0,0,0,0,0,0,0,,,,,,0.0,,,,,,,
131361,1745477439708,,,,,,,,,,,,,,,,,,,,,,,,,,,,,,,,,,0,0,0,0,0,0,0,0,0,0,0,0,0,0,0,0,,,,,,,,,,,,,
131381,1745477439728,0.0,-24,,-0.13,0.02,0.9,-1,-0,0,0.91,1.32,69,5647,1.9,1.48,,7.74,1.251,84.4,,45.8,5,,,,,,,,,,,,0,0,0,0,0,0,0,0,0,0,0,0,0,0,0,0,,,,,,0.0,,,,,,,
131401,1745477439748,,,,,,,,,,,,,,,,,,,,,,,,,,,,,,,,,,0,0,0,0,0,0,0,0,0,0,0,0,0,0,0,0,,,,,,,,,,,,,
131421,1745477439768,0.0,-34,13.03,-0.12,0.0,0.92,-0,-0,0,0.92,1.32,70,5264,1.9,1.64,15,7.74,1.251,84.4,155,45.8,5,0,0,0,0,0.0,0.0,0.0,0.0,2.27,0,1.0,0,0,0,0,0,0,0,0,0,0,0,0,0,0,0,0,0,0,1.0,0,-0,0.0,38.99411,-76.939652,0.05,32.3,26,2,1.0
131441,1745477439788,,,,,,,,,,,,,,,,,,,,,,,,,,,,,,,,,,0,0,0,0,0,0,0,0,0,0,0,0,0,0,0,0,,,,,,,,,,,,,
131461,1745477439808,0.0,-24,,-0.1,-0.04,0.89,-0,-0,0,0.89,1.32,68,5264,1.9,1.64,,8.3,1.252,84.4,,44.1,5,,,,,,,,,,,,0,0,0,0,0,0,0,0,0,0,0,0,0,0,0,0,,,,,,0.0,,,,,,,
131481,1745477439828,,,,,,,,,,,,,,,,,,,,,,,,,,,,,,,,,,0,0,0,0,0,0,0,0,0,0,0,0,0,0,0,0,,,,,,,,,,,,,
131501,1745477439848,0.0,-24,,-0.11,0.07,0.98,1,-0,0,0.98,1.32,75,4876,2.2,1.83,,8.81,1.253,84.4,,44.1,5,,,,,,,,,,,,0,0,0,0,0,0,0,0,0,0,0,0,0,0,0,0,,,,,,0.0,,,,,,,
131521,1745477439868,,,,,,,,,,,,,,,,,,,,,,,0,0,0,0,0.0,0.0,0.0,0.0,2.26,,,0,0,0,0,0,0,0,0,0,0,0,0,0,0,0,0,,0,,,,,38.99411,-76.939652,0.21,32.3,26,2,1.0
131541,1745477439888,0.0,-10,,-0.11,0.16,1.02,3,-0,0,1.04,1.32,79,4477,2.2,1.94,,9.26,1.251,84.4,,44.1,5,,,,,,,,,,,,0,0,0,0,0,0,0,0,0,0,0,0,0,0,0,0,,,,,,0.0,,,,,,,
131561,1745477439906,,,,,,,,,,,,,,,,,,,,,,,,,,,,,,,,,,0,0,0,0,0,0,0,0,0,0,0,0,0,0,0,0,,,,,,,,,,,,,
131581,1745477439926,0.0,-17,,-0.09,0.06,0.95,1,-0,0,0.96,1.32,73,4080,2.0,2.09,,9.76,1.252,84.4,,42.2,5,,,,,,,,,,,,0,0,0,0,0,0,0,0,0,0,0,0,0,0,0,0,,,,,,0.0,,,,,,,
131601,1745477439946,,,,,,,,,,,,,,,,,,,,,,,,,,,,,,,,,,0,0,0,0,0,0,0,0,0,0,0,0,0,0,0,0,,,,,,,,,,,,,
131621,1745477439966,0.0,-14,,-0.1,0.09,0.95,2,-0,0,0.96,1.32,73,3779,1.6,2.1,,9.76,1.252,84.4,,42.2,5,0,0,0,0,0.0,0.0,0.0,0.0,2.26,,,0,0,0,0,0,0,0,0,0,0,0,0,0,0,0,0,,0,,,,0.0,38.99411,-76.939652,0.11,32.3,26,2,1.0
131641,1745477439986,,,,,,,,,,,,,,,,,,,,,,,,,,,,,,,,,,0,0,0,0,0,0,0,0,0,0,0,0,0,0,0,0,,,,,,,,,,,,,
131661,1745477440006,0.0,-34,,-0.09,0.05,1.0,0,-0,0,1.01,1.32,76,3779,1.6,2.1,,10.2,1.249,84.4,,35.7,5,,,,,,,,,,,,0,0,0,0,0,0,0,0,0,0,0,0,0,0,0,0,,,,,,0.0,,,,,,,
131681,1745477440020,,,,,,,,,,,,,,,,,,,,,,,,,,,,,,,,,,0,0,0,0,0,0,0,0,0,0,0,0,0,0,0,0,,,,,,,,,,,,,
131701,1745477440040,0.0,-27,,-0.09,0.14,0.94,2,-0,0,0.95,1.32,72,3444,1.3,2.16,,10.73,1.251,84.4,,35.7,5,,,,,,,,,,,,0,0,0,0,0,0,0,0,0,0,0,0,0,0,0,0,,,,,,0.0,,,,,,,
131721,1745477440060,,,,,,,,,,,,,,,,,,,,,,,0,0,0,0,0.0,0.0,0.0,0.0,2.27,,,0,0,0,0,0,0,0,0,0,0,0,0,0,0,0,0,,0,,,,,38.99411,-76.939652,0.11,32.3,27,2,0.9
131741,1745477440080,0.0,-14,,-0.06,0.16,0.98,1,-0,0,1.0,1.32,76,3220,1.0,2.68,,11.2,1.249,84.4,,35.7,5,,,,,,,,,,,,0,0,0,0,0,0,0,0,0,0,0,0,0,0,0,0,,,,,,0.0,,,,,,,
131761,1745477440104,,,,,,,,,,,,,,,,,,,,,,,,,,,,,,,,,,0,0,0,0,0,0,0,0,0,0,0,0,0,0,0,0,,,,,,,,,,,,,
131781,1745477440124,0.0,-34,,-0.04,0.16,0.97,1,-0,1,0.98,1.32,75,2904,5.0,3.29,,11.91,1.25,84.4,,28.4,5,,,,,,,,,,,,0,0,0,0,0,0,0,0,0,0,0,0,0,0,0,0,,,,,,0.0,,,,,,,
131801,1745477440144,,,,,,,,,,,,,,,,,,,,,,,,,,,,,,,,,,0,0,0,0,0,0,0,0,0,0,0,0,0,0,0,0,,,,,,,,,,,,,
131821,1745477440164,0.0,-17,,-0.04,0.15,0.96,1,-0,0,0.97,1.32,74,2765,9.5,3.8,,11.91,1.25,84.4,,28.4,5,0,0,0,0,0.0,0.0,0.0,0.0,2.27,,,0,0,0,0,0,0,0,0,0,0,0,0,0,0,0,0,,0,,,,0.0,38.99411,-76.939652,0.11,32.3,27,2,0.9
131841,1745477440184,,,,,,,,,,,,,,,,,,,,,,,,,,,,,,,,,,0,0,0,0,0,0,0,0,0,0,0,0,0,0,0,0,,,,,,,,,,,,,
131861,1745477440204,0.0,-24,,-0.04,0.14,0.99,1,-0,0,1.0,1.32,76,2765,9.5,3.8,,12.8,1.25,84.4,,24.8,5,,,,,,,,,,,,0,0,0,0,0,0,0,0,0,0,0,0,0,0,0,0,,,,,,0.0,,,,,,,
131881,1745477440218,,,,,,,,,,,,,,,,,,,,,,,,,,,,,,,,,,0,0,0,0,0,0,0,0,0,0,0,0,0,0,0,0,,,,,,,,,,,,,
131901,1745477440238,0.0,-21,,-0.06,0.11,0.99,1,-0,0,1.0,1.32,76,2638,10.8,3.88,,13.48,1.252,84.4,,24.8,5,,,,,,,,,,,,0,0,0,0,0,0,0,0,0,0,0,0,0,0,0,0,,,,,,0.0,,,,,,,
131921,1745477440258,,,,,,,,,,,,,,,,,,,,,,,0,0,0,0,0.0,0.0,0.0,0.0,2.27,,,0,0,0,0,0,0,0,0,0,0,0,0,0,0,0,0,,0,,,,,38.99411,-76.939652,0.07,32.3,27,2,0.9
131941,1745477440278,0.0,-10,,-0.05,0.1,0.98,1,-0,0,0.99,1.32,75,2581,12.2,3.86,,13.8,1.253,84.4,,24.8,5,,,,,,,,,,,,0,0,0,0,0,0,0,0,0,0,0,0,0,0,0,0,,,,,,0.0,,,,,,,
131961,1745477440306,,,,,,,,,,,,,,,,,,,,,,,,,,,,,,,,,,0,0,0,0,0,0,0,0,0,0,0,0,0,0,0,0,,,,,,,,,,,,,
131981,1745477440326,0.0,-31,,-0.05,0.09,1.0,1,-0,0,1.0,1.32,76,2487,13.8,4.12,,14.02,1.252,84.4,,23.8,5,,,,,,,,,,,,0,0,0,0,0,0,0,0,0,0,0,0,0,0,0,0,,,,,,0.0,,,,,,,
132001,1745477440346,,,,,,,,,,,,,,,,,,,,,,,,,,,,,,,,,,0,0,0,0,0,0,0,0,0,0,0,0,0,0,0,0,,,,,,,,,,,,,
132021,1745477440366,0.0,-31,,-0.05,0.08,1.0,1,-0,0,1.0,1.32,76,2465,14.4,4.2,,14.02,1.252,84.4,,23.8,5,0,0,0,0,0.0,0.0,0.0,0.0,2.26,,,0,0,0,0,0,0,0,0,0,0,0,0,0,0,0,0,,0,,,,0.0,38.99411,-76.939652,0.04,32.3,27,2,0.9
132041,1745477440386,,,,,,,,,,,,,,,,,,,,,,,,,,,,,,,,,,0,0,0,0,0,0,0,0,0,0,0,0,0,0,0,0,,,,,,,,,,,,,
132061,1745477440405,0.0,-27,,-0.06,0.07,1.01,1,-0,0,1.01,1.32,77,2465,14.4,4.2,,14.16,1.252,84.4,,23.7,5,,,,,,,,,,,,0,0,0,0,0,0,0,0,0,0,0,0,0,0,0,0,,,,,,0.0,,,,,,,
132081,1745477440425,,,,,,,,,,,,,,,,,,,,,,,,,,,,,,,,,,0,0,0,0,0,0,0,0,0,0,0,0,0,0,0,0,,,,,,,,,,,,,
132101,1745477440445,0.0,-38,,-0.06,0.05,1.01,1,-0,0,1.02,1.32,77,2470,18.4,4.46,,14.28,1.25,84.4,,23.7,5,,,,,,,,,,,,0,0,0,0,0,0,0,0,0,0,0,0,0,0,0,0,,,,,,0.0,,,,,,,
132121,1745477440465,,,,,,,,,,,,,,,,,,,,,,,0,0,0,0,0.0,0.0,0.0,0.0,2.26,,,0,0,0,0,0,0,0,0,0,0,0,0,0,0,0,0,,0,,,,,38.99411,-76.939652,0.1,32.3,27,2,0.9
132141,1745477440485,0.0,-21,,-0.07,0.08,0.98,1,-0,0,0.99,1.32,75,2528,19.3,4.53,,14.31,1.249,84.4,,23.7,5,,,,,,,,,,,,0,0,0,0,0,0,0,0,0,0,0,0,0,0,0,0,,,,,,0.0,,,,,,,
132161,1745477440507,,,,,,,,,,,,,,,,,,,,,,,,,,,,,,,,,,0,0,0,0,0,0,0,0,0,0,0,0,0,0,0,0,,,,,,,,,,,,,
132181,1745477440527,0.0,-31,,-0.08,0.06,1.02,0,-0,0,1.02,1.32,78,2600,19.4,4.54,,14.31,1.249,84.4,,24.3,5,,,,,,,,,,,,0,0,0,0,0,0,0,0,0,0,0,0,0,0,0,0,,,,,,0.0,,,,,,,
132201,1745477440547,,,,,,,,,,,,,,,,,,,,,,,,,,,,,,,,,,0,0,0,0,0,0,0,0,0,0,0,0,0,0,0,0,,,,,,,,,,,,,
132221,1745477440567,0.0,-24,,-0.07,0.07,1.01,0,-0,0,1.01,1.32,77,2662,19.4,4.52,,14.32,1.249,84.4,,24.3,5,0,0,0,0,0.0,0.0,0.0,0.0,2.27,,,0,0,0,0,0,0,0,0,0,0,0,0,0,0,0,0,,0,,,,0.0,38.99411,-76.939652,0.2,32.3,27,2,0.9
132241,1745477440587,,,,,,,,,,,,,,,,,,,,,,,,,,,,,,,,,,0,0,0,0,0,0,0,0,0,0,0,0,0,0,0,0,,,,,,,,,,,,,
132261,1745477440605,0.0,-21,,-0.07,0.07,0.95,1,-0,0,0.95,1.32,72,2662,19.4,4.52,,14.28,1.248,84.4,,25.5,5,,,,,,,,,,,,0,0,0,0,0,0,0,0,0,0,0,0,0,0,0,0,,,,,,0.0,,,,,,,
132281,1745477440625,,,,,,,,,,,,,,,,,,,,,,,,,,,,,,,,,,0,0,0,0,0,0,0,0,0,0,0,0,0,0,0,0,,,,,,,,,,,,,
132301,1745477440645,0.0,-38,,-0.07,0.04,0.88,2,-0,-0,0.88,1.32,67,2970,19.5,4.51,,14.18,1.249,84.4,,25.5,5,,,,,,,,,,,,0,0,0,0,0,0,0,0,0,0,0,0,0,0,0,0,,,,,,0.0,,,,,,,
132321,1745477440665,,,,,,,,,,,,,,,,,,,,,,,0,0,0,0,0.0,0.0,0.0,0.0,2.27,,,0,0,0,0,0,0,0,0,0,0,0,0,0,0,0,0,,0,,,,,38.99411,-76.939652,0.15,32.3,27,2,0.9
132341,1745477440685,0.0,-21,,-0.06,0.04,0.81,3,-1,-0,0.81,1.32,62,3092,19.5,4.48,,14.11,1.251,84.4,,25.5,5,,,,,,,,,,,,0,0,0,0,0,0,0,0,0,0,0,0,0,0,0,0,,,,,,0.0,,,,,,,
132361,1745477440707,,,,,,,,,,,,,,,,,,,,,,,,,,,,,,,,,,0,0,0,0,0,0,0,0,0,0,0,0,0,0,0,0,,,,,,,,,,,,,
132381,1745477440727,0.0,-38,,-0.03,0.1,0.86,3,-1,0,0.86,1.32,66,3122,19.9,4.42,,14.1,1.252,84.4,,28.7,5,,,,,,,,,,,,0,0,0,0,0,0,0,0,0,0,0,0,0,0,0,0,,,,,,0.0,,,,,,,
132401,1745477440747,,,,,,,,,,,,,,,,,,,,,,,,,,,,,,,,,,0,0,0,0,0,0,0,0,0,0,0,0,0,0,0,0,,,,,,,,,,,,,
132421,1745477440767,0.0,-27,13.05,-0.04,0.02,0.92,1,-0,-0,0.92,1.32,70,3401,20.5,4.41,15,14.1,1.252,84.4,155,28.7,5,0,0,0,0,0.0,0.0,0.0,0.0,2.27,0,1.0,0,0,0,0,0,0,0,0,0,0,0,0,0,0,0,0,0,0,1.0,0,-0,0.0,38.99411,-76.939652,0.18,32.3,27,2,0.9
132441,1745477440787,,,,,,,,,,,,,,,,,,,,,,,,,,,,,,,,,,0,0,0,0,0,0,0,0,0,0,0,0,0,0,0,0,,,,,,,,,,,,,
132461,1745477440807,0.0,-41,,-0.03,0.12,0.93,2,-0,0,0.94,1.32,71,3401,20.5,4.41,,14.1,1.253,84.4,,31.5,5,,,,,,,,,,,,0,0,0,0,0,0,0,0,0,0,0,0,0,0,0,0,,,,,,0.0,,,,,,,
132481,1745477440827,,,,,,,,,,,,,,,,,,,,,,,,,,,,,,,,,,0,0,0,0,0,0,0,0,0,0,0,0,0,0,0,0,,,,,,,,,,,,,
132501,1745477440847,0.0,-24,,-0.05,0.12,0.91,3,-0,-0,0.92,1.32,70,3518,20.6,4.36,,13.96,1.253,84.4,,31.5,5,,,,,,,,,,,,0,0,0,0,0,0,0,0,0,0,0,0,0,0,0,0,,,,,,0.0,,,,,,,
132521,1745477440867,,,,,,,,,,,,,,,,,,,,,,,0,0,0,0,0.0,0.0,0.0,0.0,2.26,,,0,0,0,0,0,0,0,0,0,0,0,0,0,0,0,0,,0,,,,,38.99411,-76.939652,0.16,32.3,27,2,0.9
132541,1745477440887,0.0,-4,,-0.08,0.1,0.92,2,-0,-0,0.93,1.32,70,3719,20.9,4.35,,13.9,1.251,84.4,,31.5,5,,,,,,,,,,,,0,0,0,0,0,0,0,0,0,0,0,0,0,0,0,0,,,,,,0.0,,,,,,,
132561,1745477440907,,,,,,,,,,,,,,,,,,,,,,,,,,,,,,,,,,0,0,0,0,0,0,0,0,0,0,0,0,0,0,0,0,,,,,,,,,,,,,
132581,1745477440927,0.0,-31,,-0.08,0.12,0.99,2,-0,0,1.0,1.32,76,3856,21.0,4.29,,13.9,1.251,84.4,,35.4,5,,,,,,,,,,,,0,0,0,0,0,0,0,0,0,0,0,0,0,0,0,0,,,,,,0.0,,,,,,,
132601,1745477440947,,,,,,,,,,,,,,,,,,,,,,,,,,,,,,,,,,0,0,0,0,0,0,0,0,0,0,0,0,0,0,0,0,,,,,,,,,,,,,
132621,1745477440967,0.0,-21,,-0.08,0.04,0.97,-1,-0,0,0.98,1.32,74,4100,20.9,4.29,,13.86,1.249,84.4,,35.4,5,0,0,0,0,0.0,0.0,0.0,0.0,2.26,,,0,0,0,0,0,0,0,0,0,0,0,0,0,0,0,0,,0,,,,0.0,38.99411,-76.939652,0.16,32.3,27,2,0.9
132641,1745477440987,,,,,,,,,,,,,,,,,,,,,,,,,,,,,,,,,,0,0,0,0,0,0,0,0,0,0,0,0,0,0,0,0,,,,,,,,,,,,,
132661,1745477441007,0.0,-38,,-0.09,0.09,0.97,1,-0,0,0.98,1.32,75,4100,20.9,4.29,,13.73,1.25,84.4,,39.4,5,,,,,,,,,,,,0,0,0,0,0,0,0,0,0,0,0,0,0,0,0,0,,,,,,0.0,,,,,,,
132681,1745477441019,,,,,,,,,,,,,,,,,,,,,,,,,,,,,,,,,,0,0,0,0,0,0,0,0,0,0,0,0,0,0,0,0,,,,,,,,,,,,,
132701,1745477441039,0.0,-41,,-0.09,0.01,1.0,-2,-0,0,1.0,1.32,76,4137,20.4,4.23,,13.72,1.25,84.4,,39.4,5,,,,,,,,,,,,0,0,0,0,0,0,0,0,0,0,0,0,0,0,0,0,,,,,,0.0,,,,,,,
132721,1745477441059,,,,,,,,,,,,,,,,,,,,,,,0,0,0,0,0.0,0.0,0.0,0.0,2.26,,,0,0,0,0,0,0,0,0,0,0,0,0,0,0,0,0,,0,,,,,38.99411,-76.939652,0.04,32.3,26,2,1.0
132741,1745477441079,0.0,-31,,-0.11,0.05,0.99,1,-0,0,0.99,1.32,75,4107,19.3,4.18,,13.63,1.249,84.4,,39.4,5,,,,,,,,,,,,0,0,0,0,0,0,0,0,0,0,0,0,0,0,0,0,,,,,,0.0,,,,,,,
132761,1745477441101,,,,,,,,,,,,,,,,,,,,,,,,,,,,,,,,,,0,0,0,0,0,0,0,0,0,0,0,0,0,0,0,0,,,,,,,,,,,,,
132781,1745477441121,0.0,-38,,-0.1,-0.02,0.97,-2,-0,0,0.98,1.32,74,4113,19.1,4.16,,13.55,1.249,84.4,,39.9,5,,,,,,,,,,,,0,0,0,0,0,0,0,0,0,0,0,0,0,0,0,0,,,,,,0.0,,,,,,,
132801,1745477441141,,,,,,,,,,,,,,,,,,,,,,,,,,,,,,,,,,0,0,0,0,0,0,0,0,0,0,0,0,0,0,0,0,,,,,,,,,,,,,
132821,1745477441161,0.0,-24,,-0.1,0.08,1.02,2,-0,0,1.03,1.32,78,4181,19.1,4.15,,13.55,1.249,84.4,,39.9,5,0,0,0,0,0.0,0.0,0.0,0.0,2.27,,,0,0,0,0,0,0,0,0,0,0,0,0,0,0,0,0,,0,,,,0.0,38.99411,-76.939652,0.05,32.3,26,2,1.0
132841,1745477441181,,,,,,,,,,,,,,,,,,,,,,,,,,,,,,,,,,0,0,0,0,0,0,0,0,0,0,0,0,0,0,0,0,,,,,,,,,,,,,
132861,1745477441207,0.0,-21,,-0.08,-0.01,0.95,-1,-0,-0,0.96,1.32,73,4181,19.1,4.15,,13.59,1.252,84.4,,41.3,5,,,,,,,,,,,,0,0,0,0,0,0,0,0,0,0,0,0,0,0,0,0,,,,,,0.0,,,,,,,
132881,1745477441227,,,,,,,,,,,,,,,,,,,,,,,,,,,,,,,,,,0,0,0,0,0,0,0,0,0,0,0,0,0,0,0,0,,,,,,,,,,,,,
132901,1745477441247,0.0,-24,,-0.1,0.06,1.06,0,-0,0,1.06,1.32,81,4256,19.0,4.16,,13.6,1.253,84.4,,41.3,5,,,,,,,,,,,,0,0,0,0,0,0,0,0,0,0,0,0,0,0,0,0,,,,,,0.0,,,,,,,
132921,1745477441267,,,,,,,,,,,,,,,,,,,,,,,0,0,0,0,0.0,0.0,0.0,0.0,2.26,,,0,0,0,0,0,0,0,0,0,0,0,0,0,0,0,0,,0,,,,,38.99411,-76.939652,0.08,32.3,27,2,1.0
132941,1745477441287,0.0,-21,,-0.1,0.1,1.06,1,-0,0,1.07,1.32,81,4288,19.0,4.16,,13.55,1.252,84.4,,41.3,5,,,,,,,,,,,,0,0,0,0,0,0,0,0,0,0,0,0,0,0,0,0,,,,,,0.0,,,,,,,
132961,1745477441307,,,,,,,,,,,,,,,,,,,,,,,,,,,,,,,,,,0,0,0,0,0,0,0,0,0,0,0,0,0,0,0,0,,,,,,,,,,,,,
132981,1745477441327,0.0,-34,,-0.08,-0.03,0.97,0,-0,-0,0.98,1.32,74,4274,19.0,4.16,,13.49,1.251,84.4,,41.0,5,,,,,,,,,,,,0,0,0,0,0,0,0,0,0,0,0,0,0,0,0,0,,,,,,0.0,,,,,,,
133001,1745477441347,,,,,,,,,,,,,,,,,,,,,,,,,,,,,,,,,,0,0,0,0,0,0,0,0,0,0,0,0,0,0,0,0,,,,,,,,,,,,,
133021,1745477441367,0.0,-31,,-0.09,-0.03,1.0,-1,-0,0,1.0,1.32,76,4370,19.1,4.15,,13.49,1.251,84.4,,41.0,5,0,0,0,0,0.0,0.0,0.0,0.0,2.26,,,0,0,0,0,0,0,0,0,0,0,0,0,0,0,0,0,,0,,,,0.0,38.99411,-76.939652,0.13,32.3,27,2,1.0
133041,1745477441387,,,,,,,,,,,,,,,,,,,,,,,,,,,,,,,,,,0,0,0,0,0,0,0,0,0,0,0,0,0,0,0,0,,,,,,,,,,,,,
133061,1745477441406,0.0,-34,,-0.11,0.04,1.09,-1,-0,0,1.1,1.32,83,4370,19.1,4.15,,13.45,1.251,84.4,,41.9,5,,,,,,,,,,,,0,0,0,0,0,0,0,0,0,0,0,0,0,0,0,0,,,,,,0.0,,,,,,,
133081,1745477441426,,,,,,,,,,,,,,,,,,,,,,,,,,,,,,,,,,0,0,0,0,0,0,0,0,0,0,0,0,0,0,0,0,,,,,,,,,,,,,
133101,1745477441446,0.0,-27,,-0.1,0.12,1.13,2,-0,0,1.14,1.32,87,4407,19.1,4.16,,13.53,1.25,84.4,,41.9,5,,,,,,,,,,,,0,0,0,0,0,0,0,0,0,0,0,0,0,0,0,0,,,,,,0.0,,,,,,,
133121,1745477441466,,,,,,,,,,,,,,,,,,,,,,,0,0,0,0,0.0,0.0,0.0,0.0,2.26,,,0,0,0,0,0,0,0,0,0,0,0,0,0,0,0,0,,0,,,,,38.99411,-76.939652,0.09,32.3,27,2,1.0
133141,1745477441486,0.0,-38,,-0.08,0.13,1.11,3,-0,0,1.12,1.32,85,4447,18.8,4.15,,13.48,1.25,84.4,,41.9,5,,,,,,,,,,,,0,0,0,0,0,0,0,0,0,0,0,0,0,0,0,0,,,,,,0.0,,,,,,,
133161,1745477441506,,,,,,,,,,,,,,,,,,,,,,,,,,,,,,,,,,0,0,0,0,0,0,0,0,0,0,0,0,0,0,0,0,,,,,,,,,,,,,
133181,1745477441526,0.0,-34,,-0.07,0.11,1.07,4,-0,0,1.08,1.32,82,4442,18.7,4.16,,13.43,1.249,84.4,,42.1,5,,,,,,,,,,,,0,0,0,0,0,0,0,0,0,0,0,0,0,0,0,0,,,,,,0.0,,,,,,,
133201,1745477441546,,,,,,,,,,,,,,,,,,,,,,,,,,,,,,,,,,0,0,0,0,0,0,0,0,0,0,0,0,0,0,0,0,,,,,,,,,,,,,
133221,1745477441566,0.0,-17,,-0.05,0.08,1.0,4,-0,-0,1.0,1.32,76,4475,18.8,4.16,,13.43,1.249,84.4,,42.1,5,0,0,0,0,0.0,0.0,0.0,0.0,2.27,,,0,0,0,0,0,0,0,0,0,0,0,0,0,0,0,0,,0,,,,0.0,38.99411,-76.939652,0.16,32.3,27,2,1.0
133241,1745477441586,,,,,,,,,,,,,,,,,,,,,,,,,,,,,,,,,,0,0,0,0,0,0,0,0,0,0,0,0,0,0,0,0,,,,,,,,,,,,,
133261,1745477441608,0.0,-34,,-0.04,0.06,0.95,5,-0,-0,0.95,1.32,72,4475,18.8,4.16,,13.44,1.25,84.4,,42.2,5,,,,,,,,,,,,0,0,0,0,0,0,0,0,0,0,0,0,0,0,0,0,,,,,,0.0,,,,,,,
133281,1745477441628,,,,,,,,,,,,,,,,,,,,,,,,,,,,,,,,,,0,0,0,0,0,0,0,0,0,0,0,0,0,0,0,0,,,,,,,,,,,,,
133301,1745477441648,0.0,-31,,-0.03,0.08,0.95,6,-0,-0,0.95,1.32,72,4534,18.8,4.16,,13.39,1.25,84.4,,42.2,5,,,,,,,,,,,,0,0,0,0,0,0,0,0,0,0,0,0,0,0,0,0,,,,,,0.0,,,,,,,
133321,1745477441668,,,,,,,,,,,,,,,,,,,,,,,0,0,0,0,0.0,0.0,0.0,0.0,2.27,,,0,0,0,0,0,0,0,0,0,0,0,0,0,0,0,0,,0,,,,,38.99411,-76.939652,0.11,32.3,27,2,1.0
133341,1745477441688,0.0,-27,,-0.03,0.12,1.01,7,-0,-0,1.02,1.32,78,4592,18.7,4.16,,13.39,1.252,84.4,,42.2,5,,,,,,,,,,,,0,0,0,0,0,0,0,0,0,0,0,0,0,0,0,0,,,,,,0.0,,,,,,,
133361,1745477441706,,,,,,,,,,,,,,,,,,,,,,,,,,,,,,,,,,0,0,0,0,0,0,0,0,0,0,0,0,0,0,0,0,,,,,,,,,,,,,
133381,1745477441726,0.0,-34,,-0.06,0.19,1.1,7,-0,0,1.11,1.32,84,4648,18.7,4.16,,13.43,1.252,84.4,,42.2,5,,,,,,,,,,,,0,0,0,0,0,0,0,0,0,0,0,0,0,0,0,0,,,,,,0.0,,,,,,,
133401,1745477441746,,,,,,,,,,,,,,,,,,,,,,,,,,,,,,,,,,0,0,0,0,0,0,0,0,0,0,0,0,0,0,0,0,,,,,,,,,,,,,
133421,1745477441766,0.0,-34,13.11,-0.07,0.06,1.07,5,-0,0,1.07,1.32,81,4690,18.8,4.15,15,13.43,1.252,84.4,155,42.2,5,0,0,0,0,0.0,0.0,0.0,0.0,2.26,0,1.0,0,0,0,0,0,0,0,0,0,0,0,0,0,0,0,0,0,0,1.0,0,0,0.0,38.99411,-76.939652,0.08,32.3,27,2,1.0
133441,1745477441786,,,,,,,,,,,,,,,,,,,,,,,,,,,,,,,,,,0,0,0,0,0,0,0,0,0,0,0,0,0,0,0,0,,,,,,,,,,,,,
133461,1745477441808,0.0,-38,,-0.06,-0.0,1.01,4,-0,-0,1.01,1.32,77,4690,18.8,4.15,,13.39,1.251,84.4,,42.4,5,,,,,,,,,,,,0,0,0,0,0,0,0,0,0,0,0,0,0,0,0,0,,,,,,0.0,,,,,,,
133481,1745477441828,,,,,,,,,,,,,,,,,,,,,,,,,,,,,,,,,,0,0,0,0,0,0,0,0,0,0,0,0,0,0,0,0,,,,,,,,,,,,,
133501,1745477441848,0.0,-34,,-0.06,0.05,1.05,5,-0,-0,1.06,1.32,80,4728,19.0,4.15,,13.27,1.252,84.4,,42.4,5,,,,,,,,,,,,0,0,0,0,0,0,0,0,0,0,0,0,0,0,0,0,,,,,,0.0,,,,,,,
133521,1745477441868,,,,,,,,,,,,,,,,,,,,,,,0,0,0,0,0.0,0.0,0.0,0.0,2.26,,,0,0,0,0,0,0,0,0,0,0,0,0,0,0,0,0,,0,,,,,38.99411,-76.939652,0.15,32.3,27,2,1.0
133541,1745477441888,0.0,-27,,-0.08,0.04,1.06,3,-0,0,1.06,1.32,81,4753,19.0,4.16,,13.32,1.251,84.4,,42.4,5,,,,,,,,,,,,0,0,0,0,0,0,0,0,0,0,0,0,0,0,0,0,,,,,,0.0,,,,,,,
133561,1745477441908,,,,,,,,,,,,,,,,,,,,,,,,,,,,,,,,,,0,0,0,0,0,0,0,0,0,0,0,0,0,0,0,0,,,,,,,,,,,,,
133581,1745477441928,0.0,-27,,-0.07,0.01,1.03,3,-0,0,1.03,1.32,79,4866,18.9,4.16,,13.27,1.25,84.4,,43.1,5,,,,,,,,,,,,0,0,0,0,0,0,0,0,0,0,0,0,0,0,0,0,,,,,,0.0,,,,,,,
133601,1745477441948,,,,,,,,,,,,,,,,,,,,,,,,,,,,,,,,,,0,0,0,0,0,0,0,0,0,0,0,0,0,0,0,0,,,,,,,,,,,,,
133621,1745477441968,0.0,-27,,-0.08,0.05,1.05,3,-0,0,1.05,1.32,80,4930,18.7,4.16,,13.27,1.25,84.4,,43.1,5,0,0,0,0,0.0,0.0,0.0,0.0,2.26,,,0,0,0,0,0,0,0,0,0,0,0,0,0,0,0,0,,0,,,,0.0,38.99411,-76.939652,0.18,32.3,27,2,1.0
133641,1745477441988,,,,,,,,,,,,,,,,,,,,,,,,,,,,,,,,,,0,0,0,0,0,0,0,0,0,0,0,0,0,0,0,0,,,,,,,,,,,,,
133661,1745477442008,0.0,-38,,-0.07,0.05,1.05,3,-0,0,1.06,1.32,80,4930,18.7,4.16,,13.13,1.249,84.4,,42.8,5,,,,,,,,,,,,0,0,0,0,0,0,0,0,0,0,0,0,0,0,0,0,,,,,,0.0,,,,,,,
133681,1745477442019,,,,,,,,,,,,,,,,,,,,,,,,,,,,,,,,,,0,0,0,0,0,0,0,0,0,0,0,0,0,0,0,0,,,,,,,,,,,,,
133701,1745477442039,0.0,-31,,-0.09,0.06,1.03,2,-0,0,1.04,1.32,79,4952,18.7,4.16,,13.16,1.25,84.4,,42.8,5,,,,,,,,,,,,0,0,0,0,0,0,0,0,0,0,0,0,0,0,0,0,,,,,,0.0,,,,,,,
133721,1745477442059,,,,,,,,,,,,,,,,,,,,,,,0,0,0,0,0.0,0.0,0.0,0.0,2.27,,,0,0,0,0,0,0,0,0,0,0,0,0,0,0,0,0,,0,,,,,38.99411,-76.939652,0.11,32.3,27,2,0.9
133741,1745477442079,0.0,-34,,-0.1,0.08,1.04,2,-0,0,1.05,1.32,79,4993,19.0,4.16,,13.11,1.249,84.4,,42.8,5,,,,,,,,,,,,0,0,0,0,0,0,0,0,0,0,0,0,0,0,0,0,,,,,,0.0,,,,,,,
133761,1745477442106,,,,,,,,,,,,,,,,,,,,,,,,,,,,,,,,,,0,0,0,0,0,0,0,0,0,0,0,0,0,0,0,0,,,,,,,,,,,,,
133781,1745477442126,0.0,-44,,-0.08,0.07,1.04,2,-0,0,1.05,1.32,80,5040,18.9,4.16,,13.01,1.251,84.4,,43.1,5,,,,,,,,,,,,0,0,0,0,0,0,0,0,0,0,0,0,0,0,0,0,,,,,,0.0,,,,,,,
133801,1745477442146,,,,,,,,,,,,,,,,,,,,,,,,,,,,,,,,,,0,0,0,0,0,0,0,0,0,0,0,0,0,0,0,0,,,,,,,,,,,,,
133821,1745477442166,0.0,-34,,-0.08,0.04,1.02,1,-0,0,1.02,1.32,78,5098,18.8,4.16,,13.01,1.251,84.4,,43.1,5,0,0,0,0,0.0,0.0,0.0,0.0,2.26,,,0,0,0,0,0,0,0,0,0,0,0,0,0,0,0,0,,0,,,,0.0,38.99411,-76.939652,0.31,32.3,27,2,0.9
133841,1745477442186,,,,,,,,,,,,,,,,,,,,,,,,,,,,,,,,,,0,0,0,0,0,0,0,0,0,0,0,0,0,0,0,0,,,,,,,,,,,,,
133861,1745477442206,0.0,-41,,-0.07,0.02,1.01,1,-0,0,1.01,1.32,77,5098,18.8,4.16,,12.97,1.253,84.4,,43.4,5,,,,,,,,,,,,0,0,0,0,0,0,0,0,0,0,0,0,0,0,0,0,,,,,,0.0,,,,,,,
133881,1745477442226,,,,,,,,,,,,,,,,,,,,,,,,,,,,,,,,,,0,0,0,0,0,0,0,0,0,0,0,0,0,0,0,0,,,,,,,,,,,,,
133901,1745477442246,0.0,-31,,-0.07,0.04,1.01,1,-0,0,1.01,1.32,77,5188,18.7,4.15,,12.91,1.254,84.4,,43.4,5,,,,,,,,,,,,0,0,0,0,0,0,0,0,0,0,0,0,0,0,0,0,,,,,,0.0,,,,,,,
133921,1745477442266,,,,,,,,,,,,,,,,,,,,,,,0,0,0,0,0.0,0.0,0.0,0.0,2.26,,,0,0,0,0,0,0,0,0,0,0,0,0,0,0,0,0,,0,,,,,38.99411,-76.939652,0.04,32.3,27,2,0.9
133941,1745477442286,0.0,-14,,-0.08,0.05,1.02,1,-0,0,1.02,1.32,78,5282,18.4,4.16,,12.72,1.253,84.4,,43.4,5,,,,,,,,,,,,0,0,0,0,0,0,0,0,0,0,0,0,0,0,0,0,,,,,,0.0,,,,,,,
133961,1745477442306,,,,,,,,,,,,,,,,,,,,,,,,,,,,,,,,,,0,0,0,0,0,0,0,0,0,0,0,0,0,0,0,0,,,,,,,,,,,,,
133981,1745477442326,0.0,-34,,-0.09,0.04,1.03,1,-0,0,1.03,1.32,78,5350,17.8,4.15,,12.67,1.252,84.4,,43.8,5,,,,,,,,,,,,0,0,0,0,0,0,0,0,0,0,0,0,0,0,0,0,,,,,,0.0,,,,,,,
134001,1745477442346,,,,,,,,,,,,,,,,,,,,,,,,,,,,,,,,,,0,0,0,0,0,0,0,0,0,0,0,0,0,0,0,0,,,,,,,,,,,,,
134021,1745477442366,0.0,-41,,-0.08,0.02,1.02,1,-0,0,1.02,1.32,78,5396,14.9,4.11,,12.67,1.252,84.4,,43.8,5,0,0,0,0,0.0,0.0,0.0,0.0,2.26,,,0,0,0,0,0,0,0,0,0,0,0,0,0,0,0,0,,0,,,,0.0,38.99411,-76.939652,0.22,32.3,27,2,0.9
134041,1745477442386,,,,,,,,,,,,,,,,,,,,,,,,,,,,,,,,,,0,0,0,0,0,0,0,0,0,0,0,0,0,0,0,0,,,,,,,,,,,,,
134061,1745477442405,0.0,-31,,-0.06,-0.0,0.93,-0,-0,0,0.93,1.32,71,5396,14.9,4.11,,12.49,1.252,84.4,,43.8,5,,,,,,,,,,,,0,0,0,0,0,0,0,0,0,0,0,0,0,0,0,0,,,,,,0.0,,,,,,,
134081,1745477442425,,,,,,,,,,,,,,,,,,,,,,,,,,,,,,,,,,0,0,0,0,0,0,0,0,0,0,0,0,0,0,0,0,,,,,,,,,,,,,
134101,1745477442445,0.0,-44,,-0.09,0.05,1.02,0,-0,0,1.02,1.32,78,5558,13.2,4.1,,12.25,1.243,84.4,,43.8,5,,,,,,,,,,,,0,0,0,0,0,0,0,0,0,0,0,0,0,0,0,0,,,,,,0.0,,,,,,,
134121,1745477442465,,,,,,,,,,,,,,,,,,,,,,,0,0,0,0,0.0,0.0,0.0,0.0,2.26,,,0,0,0,0,0,0,0,0,0,0,0,0,0,0,0,0,,0,,,,,38.99411,-76.939652,0.16,32.2,27,2,0.9
134141,1745477442485,0.0,-34,,-0.08,-0.02,0.95,-0,-0,-0,0.95,1.32,72,5602,11.6,4.02,,12.03,1.095,84.4,,43.8,5,,,,,,,,,,,,0,0,0,0,0,0,0,0,0,0,0,0,0,0,0,0,,,,,,0.0,,,,,,,
134161,1745477442505,,,,,,,,,,,,,,,,,,,,,,,,,,,,,,,,,,0,0,0,0,0,0,0,0,0,0,0,0,0,0,0,0,,,,,,,,,,,,,
134181,1745477442525,0.0,-41,,-0.1,0.05,1.05,0,-0,0,1.05,1.32,80,5758,10.7,3.99,,11.71,1.018,84.4,,44.3,5,,,,,,,,,,,,0,0,0,0,0,0,0,0,0,0,0,0,0,0,0,0,,,,,,0.0,,,,,,,
134201,1745477442545,,,,,,,,,,,,,,,,,,,,,,,,,,,,,,,,,,0,0,0,0,0,0,0,0,0,0,0,0,0,0,0,0,,,,,,,,,,,,,
134221,1745477442565,0.0,-34,,-0.07,0.13,1.16,2,-0,1,1.17,1.32,89,5991,10.4,4.08,,11.71,1.018,82.6,,44.3,5,0,0,0,0,0.0,0.0,0.0,0.0,2.27,,,0,0,0,0,0,0,0,0,0,0,0,0,0,0,0,0,,0,,,,0.0,38.99411,-76.939652,0.19,32.2,27,2,0.9
134241,1745477442585,,,,,,,,,,,,,,,,,,,,,,,,,,,,,,,,,,0,0,0,0,0,0,0,0,0,0,0,0,0,0,0,0,,,,,,,,,,,,,
134261,1745477442607,0.0,-31,,-0.06,0.22,1.27,4,-0,1,1.29,1.32,98,5991,10.4,4.08,,11.36,1.029,82.6,,44.8,5,,,,,,,,,,,,0,0,0,0,0,0,0,0,0,0,0,0,0,0,0,0,,,,,,0.0,,,,,,,
134281,1745477442627,,,,,,,,,,,,,,,,,,,,,,,,,,,,,,,,,,0,0,0,0,0,0,0,0,0,0,0,0,0,0,0,0,,,,,,,,,,,,,
134301,1745477442647,0.0,-31,,-0.09,0.18,1.25,3,-0,1,1.27,1.32,96,6255,10.2,4.2,,11.25,1.03,82.6,,44.8,5,,,,,,,,,,,,0,0,0,0,0,0,0,0,0,0,0,0,0,0,0,0,,,,,,0.0,,,,,,,
134321,1745477442667,,,,,,,,,,,,,,,,,,,,,,,0,0,0,0,0.0,0.0,0.0,0.0,2.27,,,0,0,0,0,0,0,0,0,0,0,0,0,0,0,0,0,,0,,,,,38.99411,-76.939652,0.2,32.2,27,2,0.9
134341,1745477442687,0.0,-31,,-0.1,0.18,1.22,3,-0,1,1.24,1.32,94,6719,9.9,3.75,,10.65,0.988,82.6,,44.8,5,,,,,,,,,,,,0,0,0,0,0,0,0,0,0,0,0,0,0,0,0,0,,,,,,0.0,,,,,,,
134361,1745477442703,,,,,,,,,,,,,,,,,,,,,,,,,,,,,,,,,,0,0,0,0,0,0,0,0,0,0,0,0,0,0,0,0,,,,,,,,,,,,,
134381,1745477442723,0.0,-38,,-0.08,-0.05,1.2,3,-0,1,1.2,1.32,91,7366,9.8,3.52,,10.65,0.988,82.6,,46.2,5,,,,,,,,,,,,0,0,0,0,0,0,0,0,0,0,0,0,0,0,0,0,,,,,,0.0,,,,,,,
134401,1745477442743,,,,,,,,,,,,,,,,,,,,,,,,,,,,,,,,,,0,0,0,0,0,0,0,0,0,0,0,0,0,0,0,0,,,,,,,,,,,,,
134421,1745477442763,0.0,-38,13.07,-0.07,0.01,1.22,3,-0,1,1.22,1.32,93,8068,9.9,3.2,15,10.01,0.882,82.6,155,46.2,5,0,0,0,0,0.0,0.0,0.0,0.0,2.26,0,1.0,0,0,0,0,0,0,0,0,0,0,0,0,0,0,0,0,0,0,1.0,0,-0,0.0,38.99411,-76.939652,0.05,32.2,27,2,0.9
134441,1745477442783,,,,,,,,,,,,,,,,,,,,,,,,,,,,,,,,,,0,0,0,0,0,0,0,0,0,0,0,0,0,0,0,0,,,,,,,,,,,,,
134461,1745477442805,0.0,-41,,-0.08,-0.04,1.15,2,-0,1,1.15,1.32,88,8068,9.9,3.2,,9.49,0.854,82.6,,47.0,5,,,,,,,,,,,,0,0,0,0,0,0,0,0,0,0,0,0,0,0,0,0,,,,,,0.0,,,,,,,
134481,1745477442825,,,,,,,,,,,,,,,,,,,,,,,,,,,,,,,,,,0,0,0,0,0,0,0,0,0,0,0,0,0,0,0,0,,,,,,,,,,,,,
134501,1745477442845,0.0,-41,,-0.09,0.08,1.08,1,-0,1,1.09,1.32,83,8830,9.6,2.81,,8.73,0.841,82.6,,47.0,5,,,,,,,,,,,,0,0,0,0,0,0,0,0,0,0,0,0,0,0,0,0,,,,,,0.0,,,,,,,
134521,1745477442865,,,,,,,,,,,,,,,,,,,,,,,0,0,0,0,0.0,0.0,0.0,0.0,2.25,,,0,0,0,0,0,0,0,0,0,0,0,0,0,0,0,0,,0,,,,,38.99411,-76.939652,0.18,32.2,27,2,0.9
134541,1745477442885,0.0,-27,,-0.08,0.13,1.11,1,-0,1,1.12,1.32,85,9533,9.5,2.48,,8.03,0.835,82.6,,47.0,5,,,,,,,,,,,,0,0,0,0,0,0,0,0,0,0,0,0,0,0,0,0,,,,,,0.0,,,,,,,
134561,1745477442905,,,,,,,,,,,,,,,,,,,,,,,,,,,,,,,,,,0,0,0,0,0,0,0,0,0,0,0,0,0,0,0,0,,,,,,,,,,,,,
134581,1745477442925,0.0,-27,,-0.07,0.13,1.11,1,-0,1,1.12,1.32,85,10013,9.2,2.16,,8.03,0.835,82.6,,46.5,5,,,,,,,,,,,,0,0,0,0,0,0,0,0,0,0,0,0,0,0,0,0,,,,,,0.0,,,,,,,
134601,1745477442945,,,,,,,,,,,,,,,,,,,,,,,,,,,,,,,,,,0,0,0,0,0,0,0,0,0,0,0,0,0,0,0,0,,,,,,,,,,,,,
134621,1745477442965,0.0,-21,,-0.12,0.23,1.13,0,-0,1,1.16,1.32,88,10332,6.4,2.0,,7.62,0.863,82.6,,46.5,5,0,0,0,0,0.0,0.0,0.0,0.0,2.27,,,0,0,0,0,0,0,0,0,0,0,0,0,0,0,0,0,,0,,,,0.0,38.99411,-76.939652,0.18,32.2,27,2,0.9
134641,1745477442985,,,,,,,,,,,,,,,,,,,,,,,,,,,,,,,,,,0,0,0,0,0,0,0,0,0,0,0,0,0,0,0,0,,,,,,,,,,,,,
134661,1745477443005,0.0,-24,,-0.11,-0.06,1.13,1,-0,1,1.14,1.32,87,10332,6.4,2.0,,6.91,0.919,82.6,,48.9,5,,,,,,,,,,,,0,0,0,0,0,0,0,0,0,0,0,0,0,0,0,0,,,,,,0.0,,,,,,,
134681,1745477443017,,,,,,,,,,,,,,,,,,,,,,,,,,,,,,,,,,0,0,0,0,0,0,0,0,0,0,0,0,0,0,0,0,,,,,,,,,,,,,
134701,1745477443037,0.0,-38,,-0.11,-0.3,1.2,2,-0,1,1.24,1.32,94,10474,5.1,1.67,,6.32,0.971,82.6,,48.9,5,,,,,,,,,,,,0,0,0,0,0,0,0,0,0,0,0,0,0,0,0,0,,,,,,0.0,,,,,,,
134721,1745477443057,,,,,,,,,,,,,,,,,,,,,,,0,0,0,0,0.0,0.0,0.0,0.0,2.27,,,0,0,0,0,0,0,0,0,0,0,0,0,0,0,0,0,,0,,,,,38.99411,-76.939652,0.09,32.2,27,2,0.9
134741,1745477443077,0.0,-24,,-0.11,-0.44,1.19,2,-0,1,1.28,1.32,97,10380,4.8,1.6,,6.06,0.998,82.6,,48.9,5,,,,,,,,,,,,0,0,0,0,0,0,0,0,0,0,0,0,0,0,0,0,,,,,,0.0,,,,,,,
134761,1745477443105,,,,,,,,,,,,,,,,,,,,,,,,,,,,,,,,,,0,0,0,0,0,0,0,0,0,0,0,0,0,0,0,0,,,,,,,,,,,,,
134781,1745477443125,0.0,-34,,-0.09,-0.32,1.1,1,-0,1,1.14,1.32,87,10180,4.5,1.54,,5.92,1.04,82.6,,48.3,5,,,,,,,,,,,,0,0,0,0,0,0,0,0,0,0,0,0,0,0,0,0,,,,,,0.0,,,,,,,
134801,1745477443145,,,,,,,,,,,,,,,,,,,,,,,,,,,,,,,,,,0,0,0,0,0,0,0,0,0,0,0,0,0,0,0,0,,,,,,,,,,,,,
134821,1745477443165,0.0,-17,,-0.1,-0.33,1.04,1,-0,0,1.09,1.32,83,10180,4.5,1.54,,5.92,1.04,82.6,,48.3,5,0,0,0,0,0.0,0.0,0.0,0.0,2.27,,,0,0,0,0,0,0,0,0,0,0,0,0,0,0,0,0,,0,,,,0.0,38.99411,-76.939652,0.11,32.2,27,2,0.9
134841,1745477443185,,,,,,,,,,,,,,,,,,,,,,,,,,,,,,,,,,0,0,0,0,0,0,0,0,0,0,0,0,0,0,0,0,,,,,,,,,,,,,
134861,1745477443207,0.0,-34,,-0.08,-0.22,1.03,2,-0,0,1.05,1.32,80,9778,4.3,1.46,,5.79,1.114,82.6,,47.3,5,,,,,,,,,,,,0,0,0,0,0,0,0,0,0,0,0,0,0,0,0,0,,,,,,0.0,,,,,,,
134881,1745477443227,,,,,,,,,,,,,,,,,,,,,,,,,,,,,,,,,,0,0,0,0,0,0,0,0,0,0,0,0,0,0,0,0,,,,,,,,,,,,,
134901,1745477443247,0.0,-27,,-0.1,-0.09,1.01,1,-0,1,1.02,1.32,77,9268,4.0,1.46,,5.63,1.216,82.6,,47.3,5,,,,,,,,,,,,0,0,0,0,0,0,0,0,0,0,0,0,0,0,0,0,,,,,,0.0,,,,,,,
134921,1745477443267,,,,,,,,,,,,,,,,,,,,,,,0,0,0,0,0.0,0.0,0.0,0.0,2.26,,,0,0,0,0,0,0,0,0,0,0,0,0,0,0,0,0,,0,,,,,38.99411,-76.939652,0.23,32.2,28,2,0.9
134941,1745477443287,0.0,-21,,-0.1,0.06,1.01,2,-0,1,1.01,1.32,77,8797,3.9,1.47,,5.71,1.252,82.6,,47.3,5,,,,,,,,,,,,0,0,0,0,0,0,0,0,0,0,0,0,0,0,0,0,,,,,,0.0,,,,,,,
134961,1745477443307,,,,,,,,,,,,,,,,,,,,,,,,,,,,,,,,,,0,0,0,0,0,0,0,0,0,0,0,0,0,0,0,0,,,,,,,,,,,,,
134981,1745477443327,0.0,-17,,-0.09,-0.03,1.02,1,-0,0,1.03,1.32,78,8276,3.8,1.4,,5.7,1.251,82.6,,45.7,5,,,,,,,,,,,,0,0,0,0,0,0,0,0,0,0,0,0,0,0,0,0,,,,,,0.0,,,,,,,
135001,1745477443347,,,,,,,,,,,,,,,,,,,,,,,,,,,,,,,,,,0,0,0,0,0,0,0,0,0,0,0,0,0,0,0,0,,,,,,,,,,,,,
135021,1745477443367,0.0,-24,,-0.07,-0.16,1.05,1,-0,0,1.06,1.32,81,7720,3.4,1.41,,5.7,1.251,82.6,,45.7,5,0,0,0,0,0.0,0.0,0.0,0.0,2.27,,,0,0,0,0,0,0,0,0,0,0,0,0,0,0,0,0,,0,,,,0.0,38.99411,-76.939652,0.0,32.2,28,2,0.9
135041,1745477443387,,,,,,,,,,,,,,,,,,,,,,,,,,,,,,,,,,0,0,0,0,0,0,0,0,0,0,0,0,0,0,0,0,,,,,,,,,,,,,
135061,1745477443406,0.0,-21,,-0.07,-0.21,1.04,1,-0,0,1.07,1.32,81,7720,3.4,1.41,,5.87,1.25,82.6,,46.4,5,,,,,,,,,,,,0,0,0,0,0,0,0,0,0,0,0,0,0,0,0,0,,,,,,0.0,,,,,,,
135081,1745477443426,,,,,,,,,,,,,,,,,,,,,,,,,,,,,,,,,,0,0,0,0,0,0,0,0,0,0,0,0,0,0,0,0,,,,,,,,,,,,,
135101,1745477443446,0.0,-41,,-0.08,-0.21,1.06,1,-0,0,1.09,1.32,82,7220,3.2,1.42,,6.14,1.25,82.6,,46.4,5,,,,,,,,,,,,0,0,0,0,0,0,0,0,0,0,0,0,0,0,0,0,,,,,,0.0,,,,,,,
135121,1745477443466,,,,,,,,,,,,,,,,,,,,,,,0,0,0,0,0.0,0.0,0.0,0.0,2.27,,,0,0,0,0,0,0,0,0,0,0,0,0,0,0,0,0,,0,,,,,38.99411,-76.939652,0.0,32.2,28,2,0.9
135141,1745477443486,0.0,-17,,-0.06,-0.1,1.08,0,-0,0,1.09,1.32,83,6720,3.1,1.49,,6.55,1.249,82.6,,46.4,5,,,,,,,,,,,,0,0,0,0,0,0,0,0,0,0,0,0,0,0,0,0,,,,,,0.0,,,,,,,
135161,1745477443506,,,,,,,,,,,,,,,,,,,,,,,,,,,,,,,,,,0,0,0,0,0,0,0,0,0,0,0,0,0,0,0,0,,,,,,,,,,,,,
135181,1745477443526,0.0,-21,,-0.11,-0.09,1.03,0,-0,0,1.04,1.32,79,6301,3.1,1.69,,7.06,1.25,82.6,,46.0,5,,,,,,,,,,,,0,0,0,0,0,0,0,0,0,0,0,0,0,0,0,0,,,,,,0.0,,,,,,,
135201,1745477443546,,,,,,,,,,,,,,,,,,,,,,,,,,,,,,,,,,0,0,0,0,0,0,0,0,0,0,0,0,0,0,0,0,,,,,,,,,,,,,
135221,1745477443566,0.0,-31,,-0.12,-0.2,0.9,-1,-0,-0,0.93,1.32,71,5905,3.2,1.77,,7.06,1.25,82.6,,46.0,5,0,0,0,0,0.0,0.0,0.0,0.0,2.27,,,0,0,0,0,0,0,0,0,0,0,0,0,0,0,0,0,,0,,,,0.0,38.99411,-76.939652,0.04,32.2,28,2,0.9
135241,1745477443586,,,,,,,,,,,,,,,,,,,,,,,,,,,,,,,,,,0,0,0,0,0,0,0,0,0,0,0,0,0,0,0,0,,,,,,,,,,,,,
135261,1745477443606,0.0,-14,,-0.15,-0.15,0.94,-1,-0,0,0.96,1.32,73,5905,3.2,1.77,,7.58,1.25,82.6,,45.2,5,,,,,,,,,,,,0,0,0,0,0,0,0,0,0,0,0,0,0,0,0,0,,,,,,0.0,,,,,,,
135281,1745477443626,,,,,,,,,,,,,,,,,,,,,,,,,,,,,,,,,,0,0,0,0,0,0,0,0,0,0,0,0,0,0,0,0,,,,,,,,,,,,,
135301,1745477443646,0.0,-17,,-0.15,-0.1,0.93,-0,-0,0,0.95,1.32,72,5512,3.3,1.99,,8.25,1.251,82.6,,45.2,5,,,,,,,,,,,,0,0,0,0,0,0,0,0,0,0,0,0,0,0,0,0,,,,,,0.0,,,,,,,
135321,1745477443666,,,,,,,,,,,,,,,,,,,,,,,0,0,0,0,0.0,0.0,0.0,0.0,2.27,,,0,0,0,0,0,0,0,0,0,0,0,0,0,0,0,0,,0,,,,,38.99411,-76.939652,0.0,32.2,28,2,0.9
135341,1745477443686,0.0,-4,,-0.15,-0.08,0.96,-0,-0,0,0.98,1.32,74,5253,3.5,2.14,,8.94,1.254,82.6,,45.2,5,,,,,,,,,,,,0,0,0,0,0,0,0,0,0,0,0,0,0,0,0,0,,,,,,0.0,,,,,,,
135361,1745477443706,,,,,,,,,,,,,,,,,,,,,,,,,,,,,,,,,,0,0,0,0,0,0,0,0,0,0,0,0,0,0,0,0,,,,,,,,,,,,,
135381,1745477443726,0.0,-27,,-0.13,-0.09,0.96,0,-0,0,0.98,1.32,74,5022,3.7,2.3,,9.46,1.254,82.6,,43.8,5,,,,,,,,,,,,0,0,0,0,0,0,0,0,0,0,0,0,0,0,0,0,,,,,,0.0,,,,,,,
135401,1745477443746,,,,,,,,,,,,,,,,,,,,,,,,,,,,,,,,,,0,0,0,0,0,0,0,0,0,0,0,0,0,0,0,0,,,,,,,,,,,,,
135421,1745477443766,0.0,-24,13.11,-0.15,-0.05,0.98,-0,-0,0,0.99,1.32,75,4806,3.8,2.41,15,9.46,1.254,82.6,155,43.8,5,0,0,0,0,0.0,0.0,0.0,0.0,2.26,0,1.0,0,0,0,0,0,0,0,0,0,0,0,0,0,0,0,0,0,0,1.0,0,-0,0.0,38.99411,-76.939652,0.05,32.2,28,2,0.9
135441,1745477443786,,,,,,,,,,,,,,,,,,,,,,,,,,,,,,,,,,0,0,0,0,0,0,0,0,0,0,0,0,0,0,0,0,,,,,,,,,,,,,
135461,1745477443806,0.0,-10,,-0.12,-0.12,0.9,-2,-0,0,0.91,1.32,69,4806,3.8,2.41,,9.93,1.252,82.6,,42.8,5,,,,,,,,,,,,0,0,0,0,0,0,0,0,0,0,0,0,0,0,0,0,,,,,,0.0,,,,,,,
135481,1745477443826,,,,,,,,,,,,,,,,,,,,,,,,,,,,,,,,,,0,0,0,0,0,0,0,0,0,0,0,0,0,0,0,0,,,,,,,,,,,,,
135501,1745477443846,0.0,-38,,-0.11,-0.16,0.86,-3,-0,0,0.88,1.32,67,4575,4.7,2.65,,10.32,1.251,82.6,,42.8,5,,,,,,,,,,,,0,0,0,0,0,0,0,0,0,0,0,0,0,0,0,0,,,,,,0.0,,,,,,,
135521,1745477443866,,,,,,,,,,,,,,,,,,,,,,,0,0,0,0,0.0,0.0,0.0,0.0,2.26,,,0,0,0,0,0,0,0,0,0,0,0,0,0,0,0,0,,0,,,,,38.99411,-76.939652,0.06,32.2,28,2,0.9
135541,1745477443886,0.0,-21,,-0.1,-0.19,0.87,-5,-0,0,0.89,1.32,68,4309,7.7,2.83,,10.97,1.25,82.6,,42.8,5,,,,,,,,,,,,0,0,0,0,0,0,0,0,0,0,0,0,0,0,0,0,,,,,,0.0,,,,,,,
135561,1745477443906,,,,,,,,,,,,,,,,,,,,,,,,,,,,,,,,,,0,0,0,0,0,0,0,0,0,0,0,0,0,0,0,0,,,,,,,,,,,,,
135581,1745477443926,0.0,-21,,-0.11,-0.09,0.94,-2,-0,0,0.95,1.32,72,4150,9.4,3.71,,11.57,1.251,82.6,,41.1,5,,,,,,,,,,,,0,0,0,0,0,0,0,0,0,0,0,0,0,0,0,0,,,,,,0.0,,,,,,,
135601,1745477443946,,,,,,,,,,,,,,,,,,,,,,,,,,,,,,,,,,0,0,0,0,0,0,0,0,0,0,0,0,0,0,0,0,,,,,,,,,,,,,
135621,1745477443966,0.0,-21,,-0.11,-0.16,0.93,-4,-0,0,0.95,1.32,72,4020,10.7,3.84,,11.57,1.251,82.6,,41.1,5,0,0,0,0,0.0,0.0,0.0,0.0,2.26,,,0,0,0,0,0,0,0,0,0,0,0,0,0,0,0,0,,0,,,,0.0,38.99411,-76.939652,0.18,32.2,28,2,0.9
135641,1745477443986,,,,,,,,,,,,,,,,,,,,,,,,,,,,,,,,,,0,0,0,0,0,0,0,0,0,0,0,0,0,0,0,0,,,,,,,,,,,,,
135661,1745477444006,0.0,-17,,-0.12,-0.14,0.88,-4,-0,0,0.9,1.32,68,4020,10.7,3.84,,12.16,1.25,82.6,,38.3,5,,,,,,,,,,,,0,0,0,0,0,0,0,0,0,0,0,0,0,0,0,0,,,,,,0.0,,,,,,,
135681,1745477444018,,,,,,,,,,,,,,,,,,,,,,,,,,,,,,,,,,0,0,0,0,0,0,0,0,0,0,0,0,0,0,0,0,,,,,,,,,,,,,
135701,1745477444038,0.0,-27,,-0.13,-0.07,0.91,-2,-0,0,0.92,1.32,70,3941,11.0,3.89,,12.57,1.252,82.6,,38.3,5,,,,,,,,,,,,0,0,0,0,0,0,0,0,0,0,0,0,0,0,0,0,,,,,,0.0,,,,,,,
135721,1745477444058,,,,,,,,,,,,,,,,,,,,,,,0,0,0,0,0.0,0.0,0.0,0.0,2.27,,,0,0,0,0,0,0,0,0,0,0,0,0,0,0,0,0,,0,,,,,38.99411,-76.939652,0.15,32.2,29,2,0.8
135741,1745477444078,0.0,-17,,-0.12,-0.06,0.97,-2,-0,0,0.98,1.32,74,3891,11.1,3.92,,12.73,1.251,82.6,,38.3,5,,,,,,,,,,,,0,0,0,0,0,0,0,0,0,0,0,0,0,0,0,0,,,,,,0.0,,,,,,,
135761,1745477444106,,,,,,,,,,,,,,,,,,,,,,,,,,,,,,,,,,0,0,0,0,0,0,0,0,0,0,0,0,0,0,0,0,,,,,,,,,,,,,
135781,1745477444126,0.0,-31,,-0.11,-0.08,1.0,-2,-0,0,1.01,1.32,77,3807,11.4,3.93,,12.92,1.252,82.6,,36.7,5,,,,,,,,,,,,0,0,0,0,0,0,0,0,0,0,0,0,0,0,0,0,,,,,,0.0,,,,,,,
135801,1745477444146,,,,,,,,,,,,,,,,,,,,,,,,,,,,,,,,,,0,0,0,0,0,0,0,0,0,0,0,0,0,0,0,0,,,,,,,,,,,,,
135821,1745477444166,0.0,-34,,-0.1,-0.05,1.01,-2,-0,0,1.02,1.32,77,3807,11.4,3.93,,12.92,1.252,82.6,,36.7,5,0,0,0,0,0.0,0.0,0.0,0.0,2.27,,,0,0,0,0,0,0,0,0,0,0,0,0,0,0,0,0,,0,,,,0.0,38.99411,-76.939652,0.07,32.2,29,2,0.8
135841,1745477444186,,,,,,,,,,,,,,,,,,,,,,,,,,,,,,,,,,0,0,0,0,0,0,0,0,0,0,0,0,0,0,0,0,,,,,,,,,,,,,
135861,1745477444204,0.0,-24,,-0.08,-0.05,1.01,-2,-0,0,1.01,1.32,77,3758,11.6,3.96,,13.01,1.254,82.6,,35.7,5,,,,,,,,,,,,0,0,0,0,0,0,0,0,0,0,0,0,0,0,0,0,,,,,,0.0,,,,,,,
135881,1745477444224,,,,,,,,,,,,,,,,,,,,,,,,,,,,,,,,,,0,0,0,0,0,0,0,0,0,0,0,0,0,0,0,0,,,,,,,,,,,,,
135901,1745477444244,0.0,-38,,-0.09,-0.07,0.99,-2,-0,0,1.0,1.32,76,3831,11.9,3.98,,13.11,1.253,82.6,,35.7,5,,,,,,,,,,,,0,0,0,0,0,0,0,0,0,0,0,0,0,0,0,0,,,,,,0.0,,,,,,,
135921,1745477444264,,,,,,,,,,,,,,,,,,,,,,,0,0,0,0,0.0,0.0,0.0,0.0,2.26,,,0,0,0,0,0,0,0,0,0,0,0,0,0,0,0,0,,0,,,,,38.99411,-76.939652,0.14,32.2,29,2,0.8
135941,1745477444284,0.0,-24,,-0.11,-0.06,0.98,-3,-0,0,0.99,1.32,75,3770,12.2,3.97,,13.17,1.252,82.6,,35.7,5,,,,,,,,,,,,0,0,0,0,0,0,0,0,0,0,0,0,0,0,0,0,,,,,,0.0,,,,,,,
135961,1745477444306,,,,,,,,,,,,,,,,,,,,,,,,,,,,,,,,,,0,0,0,0,0,0,0,0,0,0,0,0,0,0,0,0,,,,,,,,,,,,,
135981,1745477444326,0.0,-17,,-0.1,-0.08,0.98,-3,-0,0,0.99,1.32,75,3834,12.2,3.98,,13.16,1.25,82.6,,35.9,5,,,,,,,,,,,,0,0,0,0,0,0,0,0,0,0,0,0,0,0,0,0,,,,,,0.0,,,,,,,
136001,1745477444346,,,,,,,,,,,,,,,,,,,,,,,,,,,,,,,,,,0,0,0,0,0,0,0,0,0,0,0,0,0,0,0,0,,,,,,,,,,,,,
136021,1745477444366,0.0,-24,,-0.1,-0.05,0.97,-2,-0,0,0.97,1.32,74,3862,12.2,3.98,,13.16,1.25,82.6,,35.9,5,0,0,0,0,0.0,0.0,0.0,0.0,2.27,,,0,0,0,0,0,0,0,0,0,0,0,0,0,0,0,0,,0,,,,0.0,38.99411,-76.939652,0.09,32.2,29,2,0.8
136041,1745477444386,,,,,,,,,,,,,,,,,,,,,,,,,,,,,,,,,,0,0,0,0,0,0,0,0,0,0,0,0,0,0,0,0,,,,,,,,,,,,,
136061,1745477444405,0.0,-27,,-0.09,0.03,0.99,-0,-0,0,0.99,1.32,75,3862,12.2,3.98,,13.13,1.25,82.6,,36.8,5,,,,,,,,,,,,0,0,0,0,0,0,0,0,0,0,0,0,0,0,0,0,,,,,,0.0,,,,,,,
136081,1745477444425,,,,,,,,,,,,,,,,,,,,,,,,,,,,,,,,,,0,0,0,0,0,0,0,0,0,0,0,0,0,0,0,0,,,,,,,,,,,,,
136101,1745477444445,0.0,-31,,-0.07,0.05,1.03,0,-0,0,1.03,1.32,78,3902,11.9,3.98,,13.19,1.251,82.6,,36.8,5,,,,,,,,,,,,0,0,0,0,0,0,0,0,0,0,0,0,0,0,0,0,,,,,,0.0,,,,,,,
136121,1745477444465,,,,,,,,,,,,,,,,,,,,,,,0,0,0,0,0.0,0.0,0.0,0.0,2.27,,,0,0,0,0,0,0,0,0,0,0,0,0,0,0,0,0,,0,,,,,38.99411,-76.939652,0.07,32.2,29,2,0.8
136141,1745477444485,0.0,-31,,-0.06,-0.0,0.99,-1,-0,0,1.0,1.32,76,3958,12.0,3.98,,13.17,1.25,82.6,,36.8,5,,,,,,,,,,,,0,0,0,0,0,0,0,0,0,0,0,0,0,0,0,0,,,,,,0.0,,,,,,,
136161,1745477444505,,,,,,,,,,,,,,,,,,,,,,,,,,,,,,,,,,0,0,0,0,0,0,0,0,0,0,0,0,0,0,0,0,,,,,,,,,,,,,
136181,1745477444525,0.0,-34,,-0.07,-0.03,0.93,-1,-0,-0,0.94,1.32,71,3935,12.0,3.98,,13.19,1.25,82.6,,37.8,5,,,,,,,,,,,,0,0,0,0,0,0,0,0,0,0,0,0,0,0,0,0,,,,,,0.0,,,,,,,
136201,1745477444545,,,,,,,,,,,,,,,,,,,,,,,,,,,,,,,,,,0,0,0,0,0,0,0,0,0,0,0,0,0,0,0,0,,,,,,,,,,,,,
136221,1745477444565,0.0,-14,,-0.06,-0.02,0.95,1,-0,-0,0.95,1.32,72,3952,12.0,3.98,,13.19,1.25,82.6,,37.8,5,0,0,0,0,0.0,0.0,0.0,0.0,2.27,,,0,0,0,0,0,0,0,0,0,0,0,0,0,0,0,0,,0,,,,0.0,38.99411,-76.939652,0.06,32.2,30,2,0.8
136241,1745477444585,,,,,,,,,,,,,,,,,,,,,,,,,,,,,,,,,,0,0,0,0,0,0,0,0,0,0,0,0,0,0,0,0,,,,,,,,,,,,,
136261,1745477444605,0.0,-17,,-0.07,-0.01,1.0,1,-0,-0,1.0,1.32,76,3952,12.0,3.98,,13.13,1.251,82.6,,37.5,5,,,,,,,,,,,,0,0,0,0,0,0,0,0,0,0,0,0,0,0,0,0,,,,,,0.0,,,,,,,
136281,1745477444625,,,,,,,,,,,,,,,,,,,,,,,,,,,,,,,,,,0,0,0,0,0,0,0,0,0,0,0,0,0,0,0,0,,,,,,,,,,,,,
136301,1745477444645,0.0,-21,,-0.08,-0.06,0.94,-1,-0,-0,0.95,1.32,72,4011,12.0,3.98,,13.15,1.252,82.6,,37.5,5,,,,,,,,,,,,0,0,0,0,0,0,0,0,0,0,0,0,0,0,0,0,,,,,,0.0,,,,,,,
136321,1745477444665,,,,,,,,,,,,,,,,,,,,,,,0,0,0,0,0.0,0.0,0.0,0.0,2.26,,,0,0,0,0,0,0,0,0,0,0,0,0,0,0,0,0,,0,,,,,38.99411,-76.939652,0.11,32.2,30,2,0.8
136341,1745477444685,0.0,-21,,-0.09,-0.03,0.91,-0,-0,-0,0.91,1.32,69,3932,12.1,3.98,,13.2,1.253,82.6,,37.5,5,,,,,,,,,,,,0,0,0,0,0,0,0,0,0,0,0,0,0,0,0,0,,,,,,0.0,,,,,,,
136361,1745477444707,,,,,,,,,,,,,,,,,,,,,,,,,,,,,,,,,,0,0,0,0,0,0,0,0,0,0,0,0,0,0,0,0,,,,,,,,,,,,,
136381,1745477444727,0.0,-27,,-0.11,0.05,0.97,1,-0,-0,0.98,1.32,74,3972,12.2,3.98,,13.15,1.253,82.6,,37.2,5,,,,,,,,,,,,0,0,0,0,0,0,0,0,0,0,0,0,0,0,0,0,,,,,,0.0,,,,,,,
136401,1745477444747,,,,,,,,,,,,,,,,,,,,,,,,,,,,,,,,,,0,0,0,0,0,0,0,0,0,0,0,0,0,0,0,0,,,,,,,,,,,,,
136421,1745477444767,0.0,-27,13.11,-0.1,-0.02,0.99,-1,-0,0,1.0,1.32,76,3979,12.4,3.98,15,13.15,1.253,82.6,155,37.2,5,0,0,0,0,0.0,0.0,0.0,0.0,2.27,0,1.0,0,0,0,0,0,0,0,0,0,0,0,0,0,0,0,0,0,0,1.0,0,-0,0.0,38.99411,-76.939652,0.07,32.2,30,2,0.8
136441,1745477444787,,,,,,,,,,,,,,,,,,,,,,,,,,,,,,,,,,0,0,0,0,0,0,0,0,0,0,0,0,0,0,0,0,,,,,,,,,,,,,
136461,1745477444805,0.0,-31,,-0.12,-0.07,0.93,-2,-0,-0,0.94,1.32,72,3979,12.4,3.98,,13.17,1.252,82.6,,37.4,5,,,,,,,,,,,,0,0,0,0,0,0,0,0,0,0,0,0,0,0,0,0,,,,,,0.0,,,,,,,
136481,1745477444825,,,,,,,,,,,,,,,,,,,,,,,,,,,,,,,,,,0,0,0,0,0,0,0,0,0,0,0,0,0,0,0,0,,,,,,,,,,,,,
136501,1745477444845,0.0,-27,,-0.13,0.01,0.93,0,-0,-0,0.94,1.32,71,3926,12.3,3.98,,13.24,1.25,82.6,,37.4,5,,,,,,,,,,,,0,0,0,0,0,0,0,0,0,0,0,0,0,0,0,0,,,,,,0.0,,,,,,,
136521,1745477444865,,,,,,,,,,,,,,,,,,,,,,,0,0,0,0,0.0,0.0,0.0,0.0,2.27,,,0,0,0,0,0,0,0,0,0,0,0,0,0,0,0,0,,0,,,,,38.99411,-76.939652,0.05,32.2,30,2,0.8
136541,1745477444885,0.0,-34,,-0.13,-0.01,1.0,-0,-0,0,1.01,1.32,77,4051,12.1,3.98,,13.05,1.249,82.6,,37.4,5,,,,,,,,,,,,0,0,0,0,0,0,0,0,0,0,0,0,0,0,0,0,,,,,,0.0,,,,,,,
136561,1745477444905,,,,,,,,,,,,,,,,,,,,,,,,,,,,,,,,,,0,0,0,0,0,0,0,0,0,0,0,0,0,0,0,0,,,,,,,,,,,,,
136581,1745477444925,0.0,-31,,-0.14,-0.06,0.91,-2,-0,-0,0.92,1.32,70,4086,12.0,3.96,,13.15,1.25,82.6,,38.5,5,,,,,,,,,,,,0,0,0,0,0,0,0,0,0,0,0,0,0,0,0,0,,,,,,0.0,,,,,,,
136601,1745477444945,,,,,,,,,,,,,,,,,,,,,,,,,,,,,,,,,,0,0,0,0,0,0,0,0,0,0,0,0,0,0,0,0,,,,,,,,,,,,,
136621,1745477444965,0.0,-10,,-0.15,0.03,0.99,0,-0,0,1.0,1.32,76,4030,12.0,3.95,,13.15,1.25,82.6,,38.5,5,0,0,0,0,0.0,0.0,0.0,0.0,2.27,,,0,0,0,0,0,0,0,0,0,0,0,0,0,0,0,0,,0,,,,0.0,38.99411,-76.939652,0.05,32.3,30,2,0.8
136641,1745477444985,,,,,,,,,,,,,,,,,,,,,,,,,,,,,,,,,,0,0,0,0,0,0,0,0,0,0,0,0,0,0,0,0,,,,,,,,,,,,,
136661,1745477445005,0.0,-21,,-0.15,-0.04,0.94,-2,-0,0,0.95,1.32,72,4030,12.0,3.95,,13.13,1.25,82.6,,38.4,5,,,,,,,,,,,,0,0,0,0,0,0,0,0,0,0,0,0,0,0,0,0,,,,,,0.0,,,,,,,
136681,1745477445017,,,,,,,,,,,,,,,,,,,,,,,,,,,,,,,,,,0,0,0,0,0,0,0,0,0,0,0,0,0,0,0,0,,,,,,,,,,,,,
136701,1745477445037,0.0,-24,,-0.15,0.01,0.95,-1,-0,-0,0.96,1.32,73,4067,12.0,3.97,,13.04,1.25,82.6,,38.4,5,,,,,,,,,,,,0,0,0,0,0,0,0,0,0,0,0,0,0,0,0,0,,,,,,0.0,,,,,,,
136721,1745477445057,,,,,,,,,,,,,,,,,,,,,,,0,0,0,0,0.0,0.0,0.0,0.0,2.27,,,0,0,0,0,0,0,0,0,0,0,0,0,0,0,0,0,,0,,,,,38.99411,-76.939652,0.05,32.3,30,2,0.8
136741,1745477445077,0.0,-31,,-0.15,-0.01,1.0,-1,-0,0,1.01,1.32,77,4063,12.0,3.96,,13.07,1.252,82.6,,38.4,5,,,,,,,,,,,,0,0,0,0,0,0,0,0,0,0,0,0,0,0,0,0,,,,,,0.0,,,,,,,
136761,1745477445105,,,,,,,,,,,,,,,,,,,,,,,,,,,,,,,,,,0,0,0,0,0,0,0,0,0,0,0,0,0,0,0,0,,,,,,,,,,,,,
136781,1745477445125,0.0,-27,,-0.15,-0.06,0.92,-2,-0,-0,0.93,1.32,71,4017,12.0,3.96,,13.09,1.253,82.6,,38.8,5,,,,,,,,,,,,0,0,0,0,0,0,0,0,0,0,0,0,0,0,0,0,,,,,,0.0,,,,,,,
136801,1745477445145,,,,,,,,,,,,,,,,,,,,,,,,,,,,,,,,,,0,0,0,0,0,0,0,0,0,0,0,0,0,0,0,0,,,,,,,,,,,,,
136821,1745477445165,0.0,-14,,-0.14,0.01,0.98,1,-0,-0,0.99,1.32,75,4052,12.2,3.98,,13.09,1.253,82.6,,38.8,5,0,0,0,0,0.0,0.0,0.0,0.0,2.27,,,0,0,0,0,0,0,0,0,0,0,0,0,0,0,0,0,,0,,,,0.0,38.99411,-76.939652,0.04,32.3,30,2,0.8
136841,1745477445185,,,,,,,,,,,,,,,,,,,,,,,,,,,,,,,,,,0,0,0,0,0,0,0,0,0,0,0,0,0,0,0,0,,,,,,,,,,,,,
136861,1745477445201,0.0,-21,,-0.13,-0.07,0.95,-1,-0,-0,0.96,1.32,73,4052,12.2,3.98,,13.13,1.254,82.6,,38.3,5,,,,,,,,,,,,0,0,0,0,0,0,0,0,0,0,0,0,0,0,0,0,,,,,,0.0,,,,,,,
136881,1745477445221,,,,,,,,,,,,,,,,,,,,,,,,,,,,,,,,,,0,0,0,0,0,0,0,0,0,0,0,0,0,0,0,0,,,,,,,,,,,,,
136901,1745477445241,0.0,-24,,-0.12,0.0,0.95,1,-0,-0,0.96,1.32,73,4089,12.6,3.96,,13.13,1.253,82.6,,38.3,5,,,,,,,,,,,,0,0,0,0,0,0,0,0,0,0,0,0,0,0,0,0,,,,,,0.0,,,,,,,
136921,1745477445261,,,,,,,,,,,,,,,,,,,,,,,0,0,0,0,0.0,0.0,0.0,0.0,2.26,,,0,0,0,0,0,0,0,0,0,0,0,0,0,0,0,0,,0,,,,,38.99411,-76.939652,0.05,32.3,30,2,0.8
136941,1745477445281,0.0,-14,,-0.11,-0.05,0.97,0,-0,-0,0.98,1.32,74,4105,12.8,3.95,,13.09,1.252,82.6,,38.3,5,,,,,,,,,,,,0,0,0,0,0,0,0,0,0,0,0,0,0,0,0,0,,,,,,0.0,,,,,,,
136961,1745477445305,,,,,,,,,,,,,,,,,,,,,,,,,,,,,,,,,,0,0,0,0,0,0,0,0,0,0,0,0,0,0,0,0,,,,,,,,,,,,,
136981,1745477445325,0.0,-14,,-0.1,0.03,0.96,1,-0,-0,0.97,1.32,73,4121,12.9,3.95,,12.99,1.25,82.6,,39.2,5,,,,,,,,,,,,0,0,0,0,0,0,0,0,0,0,0,0,0,0,0,0,,,,,,0.0,,,,,,,
137001,1745477445345,,,,,,,,,,,,,,,,,,,,,,,,,,,,,,,,,,0,0,0,0,0,0,0,0,0,0,0,0,0,0,0,0,,,,,,,,,,,,,
137021,1745477445365,0.0,-10,,-0.08,-0.03,0.96,-0,-0,-0,0.96,1.32,73,4166,12.8,3.96,,12.99,1.25,82.6,,39.2,5,0,0,0,0,0.0,0.0,0.0,0.0,2.26,,,0,0,0,0,0,0,0,0,0,0,0,0,0,0,0,0,,0,,,,0.0,38.99411,-76.939652,0.0,32.3,30,2,0.8
137041,1745477445385,,,,,,,,,,,,,,,,,,,,,,,,,,,,,,,,,,0,0,0,0,0,0,0,0,0,0,0,0,0,0,0,0,,,,,,,,,,,,,
137061,1745477445404,0.0,-14,,-0.1,0.04,0.98,1,-0,-0,0.99,1.32,75,4166,12.8,3.96,,12.97,1.25,82.6,,39.6,5,,,,,,,,,,,,0,0,0,0,0,0,0,0,0,0,0,0,0,0,0,0,,,,,,0.0,,,,,,,
137081,1745477445424,,,,,,,,,,,,,,,,,,,,,,,,,,,,,,,,,,0,0,0,0,0,0,0,0,0,0,0,0,0,0,0,0,,,,,,,,,,,,,
137101,1745477445444,0.0,-27,,-0.1,-0.05,0.94,-1,-0,0,0.95,1.32,72,4157,12.6,3.96,,13.05,1.25,82.6,,39.6,5,,,,,,,,,,,,0,0,0,0,0,0,0,0,0,0,0,0,0,0,0,0,,,,,,0.0,,,,,,,
137121,1745477445464,,,,,,,,,,,,,,,,,,,,,,,0,0,0,0,0.0,0.0,0.0,0.0,2.27,,,0,0,0,0,0,0,0,0,0,0,0,0,0,0,0,0,,0,,,,,38.99411,-76.939652,0.08,32.3,30,2,0.8
137141,1745477445484,0.0,-27,,-0.12,0.03,1.01,1,-0,-0,1.02,1.32,78,4158,12.6,3.94,,12.99,1.25,82.6,,39.6,5,,,,,,,,,,,,0,0,0,0,0,0,0,0,0,0,0,0,0,0,0,0,,,,,,0.0,,,,,,,
137161,1745477445504,,,,,,,,,,,,,,,,,,,,,,,,,,,,,,,,,,0,0,0,0,0,0,0,0,0,0,0,0,0,0,0,0,,,,,,,,,,,,,
137181,1745477445524,0.0,-24,,-0.09,-0.07,0.92,-1,-0,-0,0.92,1.32,70,4199,12.5,3.94,,12.95,1.251,82.6,,39.8,5,,,,,,,,,,,,0,0,0,0,0,0,0,0,0,0,0,0,0,0,0,0,,,,,,0.0,,,,,,,
