"Interval"|"ms"|0|0|1,"Utc"|"ms"|0|0|1,"FrontBP"|"psi"|-5.0|5.0|25,"SteerAng"|"Degrees"|-145|145|25,"Battery"|"Volts"|-5.0|20.0|1,"AccelX"|"G"|-3.0|3.0|25,"AccelY"|"G"|-3.0|3.0|25,"AccelZ"|"G"|-3.0|3.0|25,"Yaw"|"Deg/Sec"|-120|120|25,"Pitch"|"Deg/Sec"|-120|120|25,"Roll"|"Deg/Sec"|-120|120|25,"Gsum"|"G"|0.0|3.0|25,"GsumMax"|"G"|0.0|3.0|25,"GsumPct"|"%"|0|100|25,"RPM"|""|0|10000|25,"TPS"|"%"|0.0|100.0|25,"InjectorPW"|"ms"|0.0|100.0|25,"Baro"|"kPa"|0|105|1,"MAP"|"Psi"|0.0|255.0|25,"Lambda"|""|-2.0|2.0|25,"IAT"|"C"|0.0|200.0|25,"EngineTemp"|"C"|0|200|1,"EOP"|"PSI"|0.0|152.0|25,"EOT"|"F"|0|250|25,"WSFR"|"MPH"|0|150|10,"WSFL"|"MPH"|0|100|10,"WSRR"|"MPH"|0|100|10,"WSRL"|""|0|100|10,"TCSet"|"%"|0.0|100.0|10,"TCSlip"|"%"|0.0|100.0|10,"TCComp"|"deg"|0.0|50.0|10,"TCCut"|"%"|0.0|100.0|10,"Analog8"|""|0.0|5.0|10,"OilTemp"|"F"|0|300|1,"AA_On"|""|0.0|1.0|1,"ThermLF1"|"C"|0|400|50,"ThermLF2"|"C"|0|400|50,"ThermRR1"|"C"|0|400|50,"ThermRR2"|"C"|0|400|50,"ThermLF3"|"C"|0|400|50,"ThermLF4"|"C"|0|400|50,"ThermLF5"|"C"|0|400|50,"ThermLF6"|"C"|0|400|50,"ThermLF7"|"C"|0|400|50,"ThermLF8"|"C"|0|400|50,"ThermRR3"|"C"|0|400|50,"ThermRR4"|"C"|0|400|50,"ThermRR5"|"C"|0|400|50,"ThermRR6"|"C"|0|400|50,"ThermRR7"|"C"|0|400|50,"ThermRR8"|"C"|0|400|50,"AA_LowDrag"|""|0|1|1,"Gear"|""|1|6|10,"AA_On"|""|0.0|1.0|1,"AA_LowDrag"|""|0|1|1,"Fuel_Mix"|""|-10|10|1,"AA_Packages"|""|0.0|1000.0|25,"Latitude"|"Degrees"|-180.0|180.0|10,"Longitude"|"Degrees"|-180.0|180.0|10,"Speed"|"kph"|0.0|150.0|10,"Altitude"|"m"|0.0|4000.0|10,"GPSSats"|""|0|20|10,"GPSQual"|""|0|5|10,"GPSDOP"|""|0.0|20.0|10
22973,1745476678936,0.0,122,,-0.1,-0.0,0.8,1,-0,-1,0.81,0.81,100,12794,16.3,1.88,,6.67,1.051,91.6,,66.7,5,,,,,,,,,,,,0,0,0,0,0,0,0,0,0,0,0,0,0,0,0,0,,,,,,0.0,,,,,,,
22993,1745476678956,,,,,,,,,,,,,,,,,,,,,,,,,,,,,,,,,,0,0,0,0,0,0,0,0,0,0,0,0,0,0,0,0,,,,,,,,,,,,,
23013,1745476678976,0.0,135,,-0.05,0.02,0.79,3,-0,-1,0.79,0.81,98,12569,15.2,1.9,,6.59,1.089,91.6,,61.5,5,,,,,,,,,,,,0,0,0,0,0,0,0,0,0,0,0,0,0,0,0,0,,,,,,0.0,,,,,,,
23033,1745476678996,,,,,,,,,,,,,,,,,,,,,,,,,,,,,,,,,,0,0,0,0,0,0,0,0,0,0,0,0,0,0,0,0,,,,,,,,,,,,,
23053,1745476679010,0.0,105,,0.02,0.03,0.7,4,-0,-1,0.7,0.81,86,12342,13.8,1.94,,6.38,1.12,91.6,,61.5,5,0,0,0,0,0.0,0.0,0.0,0.0,2.25,,,0,0,0,0,0,0,0,0,0,0,0,0,0,0,0,0,,0,,,,0.0,38.994095,-76.939652,0.4,32.7,19,2,1.4
23073,1745476679030,,,,,,,,,,,,,,,,,,,,,,,,,,,,,,,,,,0,0,0,0,0,0,0,0,0,0,0,0,0,0,0,0,,,,,,,,,,,,,
23093,1745476679050,0.0,132,,0.05,0.17,0.83,4,-0,-1,0.85,0.85,100,12139,11.7,1.92,,6.2,1.152,91.6,,61.5,5,,,,,,,,,,,,0,0,0,0,0,0,0,0,0,0,0,0,0,0,0,0,,,,,,0.0,,,,,,,
23113,1745476679070,,,,,,,,,,,,,,,,,,,,,,,,,,,,,,,,,,0,0,0,0,0,0,0,0,0,0,0,0,0,0,0,0,,,,,,,,,,,,,
23133,1745476679090,0.0,132,,0.08,0.27,0.98,3,-0,-0,1.02,1.02,100,11914,10.3,1.78,,6.2,1.152,91.6,,63.6,5,,,,,,,,,,,,0,0,0,0,0,0,0,0,0,0,0,0,0,0,0,0,,,,,,0.0,,,,,,,
23153,1745476679116,,,,,,,,,,,,,,,,,,,,,,,0,0,0,0,0.0,0.0,0.0,0.0,2.27,,,0,0,0,0,0,0,0,0,0,0,0,0,0,0,0,0,,0,,,,,38.994095,-76.939652,0.39,32.7,19,2,1.4
23173,1745476679136,0.0,125,,0.08,0.34,1.02,2,-0,-0,1.07,1.07,100,11914,10.3,1.78,,5.94,1.134,91.6,,63.6,5,,,,,,,,,,,,0,0,0,0,0,0,0,0,0,0,0,0,0,0,0,0,,,,,,0.0,,,,,,,
23193,1745476679156,,,,,,,,,,,,,,,,,,,,,,,,,,,,,,,,,,0,0,0,0,0,0,0,0,0,0,0,0,0,0,0,0,,,,,,,,,,,,,
23213,1745476679176,0.0,132,,0.11,0.24,1.04,2,0,-1,1.07,1.07,100,11685,10.1,1.68,,5.87,1.094,91.6,,55.7,5,,,,,,,,,,,,0,0,0,0,0,0,0,0,0,0,0,0,0,0,0,0,,,,,,0.0,,,,,,,
23233,1745476679196,,,,,,,,,,,,,,,,,,,,,,,,,,,,,,,,,,0,0,0,0,0,0,0,0,0,0,0,0,0,0,0,0,,,,,,,,,,,,,
23253,1745476679216,0.0,135,,0.08,0.2,0.96,3,0,-1,0.98,1.07,91,11380,10.6,1.66,,5.95,1.092,89.8,,55.7,5,0,0,0,0,0.0,0.0,0.0,0.0,2.27,,,0,0,0,0,0,0,0,0,0,0,0,0,0,0,0,0,,0,,,,0.0,38.994095,-76.939652,0.04,32.6,19,2,1.4
23273,1745476679236,,,,,,,,,,,,,,,,,,,,,,,,,,,,,,,,,,0,0,0,0,0,0,0,0,0,0,0,0,0,0,0,0,,,,,,,,,,,,,
23293,1745476679256,0.0,122,,0.05,0.29,0.97,2,0,-1,1.01,1.07,94,11037,10.8,1.71,,6.1,1.148,89.8,,55.7,5,,,,,,,,,,,,0,0,0,0,0,0,0,0,0,0,0,0,0,0,0,0,,,,,,0.0,,,,,,,
23313,1745476679276,,,,,,,,,,,,,,,,,,,,,,,,,,,,,,,,,,0,0,0,0,0,0,0,0,0,0,0,0,0,0,0,0,,,,,,,,,,,,,
23333,1745476679296,0.0,135,,0.01,0.02,1.04,3,0,-1,1.04,1.07,97,10701,11.6,1.77,,6.1,1.148,89.8,,56.3,5,,,,,,,,,,,,0,0,0,0,0,0,0,0,0,0,0,0,0,0,0,0,,,,,,0.0,,,,,,,
23353,1745476679315,,,,,,,,,,,,,,,,,,,,,,,0,0,0,0,0.0,0.0,0.0,0.0,2.26,,,0,0,0,0,0,0,0,0,0,0,0,0,0,0,0,0,,0,,,,,38.994095,-76.939652,0.04,32.6,19,2,1.4
23373,1745476679335,0.0,132,,-0.05,0.46,0.95,2,-0,-1,1.06,1.07,98,10701,11.6,1.77,,6.31,1.225,89.8,,56.3,5,,,,,,,,,,,,0,0,0,0,0,0,0,0,0,0,0,0,0,0,0,0,,,,,,0.0,,,,,,,
23393,1745476679355,,,,,,,,,,,,,,,,,,,,,,,,,,,,,,,,,,0,0,0,0,0,0,0,0,0,0,0,0,0,0,0,0,,,,,,,,,,,,,
23413,1745476679375,0.0,135,,-0.09,0.8,1.01,1,0,1,1.3,1.3,100,10411,11.9,1.88,,6.63,1.251,89.8,,55.9,5,,,,,,,,,,,,0,0,0,0,0,0,0,0,0,0,0,0,0,0,0,0,,,,,,0.0,,,,,,,
23433,1745476679395,,,,,,,,,,,,,,,,,,,,,,,,,,,,,,,,,,0,0,0,0,0,0,0,0,0,0,0,0,0,0,0,0,,,,,,,,,,,,,
23453,1745476679417,0.0,134,14.35,-0.06,0.48,0.95,2,-0,-0,1.06,1.3,82,10217,12.1,1.98,15,6.74,1.251,89.8,149,55.9,5,0,0,0,0,0.0,0.0,0.0,0.0,2.26,0,1.0,0,0,0,0,0,0,0,0,0,0,0,0,0,0,0,0,0,0,1.0,0,0,0.0,38.994095,-76.939652,0.09,32.6,19,2,1.4
23473,1745476679437,,,,,,,,,,,,,,,,,,,,,,,,,,,,,,,,,,0,0,0,0,0,0,0,0,0,0,0,0,0,0,0,0,,,,,,,,,,,,,
23493,1745476679457,0.0,135,,-0.08,0.39,0.92,1,-0,-0,1.0,1.3,77,10087,12.2,2.0,,6.88,1.251,89.8,,55.9,5,,,,,,,,,,,,0,0,0,0,0,0,0,0,0,0,0,0,0,0,0,0,,,,,,0.0,,,,,,,
23513,1745476679477,,,,,,,,,,,,,,,,,,,,,,,,,,,,,,,,,,0,0,0,0,0,0,0,0,0,0,0,0,0,0,0,0,,,,,,,,,,,,,
23533,1745476679497,0.0,135,,-0.05,0.33,0.93,2,-0,-0,0.99,1.3,77,9968,12.2,2.03,,6.88,1.251,89.8,,52.9,5,,,,,,,,,,,,0,0,0,0,0,0,0,0,0,0,0,0,0,0,0,0,,,,,,0.0,,,,,,,
23553,1745476679515,,,,,,,,,,,,,,,,,,,,,,,0,0,0,0,0.0,0.0,0.0,0.0,2.26,,,0,0,0,0,0,0,0,0,0,0,0,0,0,0,0,0,,0,,,,,38.994095,-76.939652,0.13,32.6,19,2,1.4
23573,1745476679535,0.0,132,,-0.08,0.35,0.9,1,-0,-0,0.97,1.3,75,9968,12.2,2.03,,6.83,1.25,89.8,,52.9,5,,,,,,,,,,,,0,0,0,0,0,0,0,0,0,0,0,0,0,0,0,0,,,,,,0.0,,,,,,,
23593,1745476679555,,,,,,,,,,,,,,,,,,,,,,,,,,,,,,,,,,0,0,0,0,0,0,0,0,0,0,0,0,0,0,0,0,,,,,,,,,,,,,
23613,1745476679575,0.0,129,,-0.06,0.26,0.89,1,-0,-1,0.93,1.3,71,9868,12.2,2.07,,6.82,1.248,89.8,,52.6,5,,,,,,,,,,,,0,0,0,0,0,0,0,0,0,0,0,0,0,0,0,0,,,,,,0.0,,,,,,,
23633,1745476679595,,,,,,,,,,,,,,,,,,,,,,,,,,,,,,,,,,0,0,0,0,0,0,0,0,0,0,0,0,0,0,0,0,,,,,,,,,,,,,
23653,1745476679617,0.0,135,,-0.08,0.15,0.88,1,-0,-0,0.9,1.3,69,9840,11.9,2.05,,6.88,1.245,89.8,,52.6,5,0,0,0,0,0.0,0.0,0.0,0.0,2.26,,,0,0,0,0,0,0,0,0,0,0,0,0,0,0,0,0,,0,,,,0.0,38.994095,-76.939652,0.08,32.5,19,2,1.4
23673,1745476679637,,,,,,,,,,,,,,,,,,,,,,,,,,,,,,,,,,0,0,0,0,0,0,0,0,0,0,0,0,0,0,0,0,,,,,,,,,,,,,
23693,1745476679657,0.0,129,,-0.1,0.15,0.87,1,-0,-0,0.89,1.3,69,9795,11.7,2.07,,6.91,1.226,89.8,,52.6,5,,,,,,,,,,,,0,0,0,0,0,0,0,0,0,0,0,0,0,0,0,0,,,,,,0.0,,,,,,,
23713,1745476679677,,,,,,,,,,,,,,,,,,,,,,,,,,,,,,,,,,0,0,0,0,0,0,0,0,0,0,0,0,0,0,0,0,,,,,,,,,,,,,
23733,1745476679697,0.0,135,,-0.1,0.2,0.88,1,-0,-0,0.91,1.3,70,9755,11.6,2.03,,6.91,1.226,89.8,,51.3,5,,,,,,,,,,,,0,0,0,0,0,0,0,0,0,0,0,0,0,0,0,0,,,,,,0.0,,,,,,,
23753,1745476679717,,,,,,,,,,,,,,,,,,,,,,,0,0,0,0,0.0,0.0,0.0,0.0,2.27,,,0,0,0,0,0,0,0,0,0,0,0,0,0,0,0,0,,0,,,,,38.994095,-76.939652,0.07,32.4,19,2,1.4
23773,1745476679737,0.0,135,,-0.1,0.16,0.89,1,-0,-1,0.91,1.3,70,9755,11.6,2.03,,6.87,1.224,89.8,,51.3,5,,,,,,,,,,,,0,0,0,0,0,0,0,0,0,0,0,0,0,0,0,0,,,,,,0.0,,,,,,,
23793,1745476679757,,,,,,,,,,,,,,,,,,,,,,,,,,,,,,,,,,0,0,0,0,0,0,0,0,0,0,0,0,0,0,0,0,,,,,,,,,,,,,
23813,1745476679777,0.0,135,,-0.14,0.12,0.91,0,-0,-0,0.92,1.3,71,9615,11.6,2.09,,6.88,1.211,89.8,,51.7,5,,,,,,,,,,,,0,0,0,0,0,0,0,0,0,0,0,0,0,0,0,0,,,,,,0.0,,,,,,,
23833,1745476679797,,,,,,,,,,,,,,,,,,,,,,,,,,,,,,,,,,0,0,0,0,0,0,0,0,0,0,0,0,0,0,0,0,,,,,,,,,,,,,
23853,1745476679817,0.0,129,,-0.13,0.2,0.97,1,-0,0,1.0,1.3,77,9642,11.6,2.1,,6.95,1.25,89.8,,51.7,5,0,0,0,0,0.0,0.0,0.0,0.0,2.26,,,0,0,0,0,0,0,0,0,0,0,0,0,0,0,0,0,,0,,,,0.0,38.994095,-76.939652,0.04,32.4,19,2,1.4
23873,1745476679837,,,,,,,,,,,,,,,,,,,,,,,,,,,,,,,,,,0,0,0,0,0,0,0,0,0,0,0,0,0,0,0,0,,,,,,,,,,,,,
23893,1745476679857,0.0,132,,-0.12,0.25,0.92,1,-0,-0,0.96,1.3,74,9625,11.6,2.11,,7.0,1.204,89.8,,51.7,5,,,,,,,,,,,,0,0,0,0,0,0,0,0,0,0,0,0,0,0,0,0,,,,,,0.0,,,,,,,
23913,1745476679877,,,,,,,,,,,,,,,,,,,,,,,,,,,,,,,,,,0,0,0,0,0,0,0,0,0,0,0,0,0,0,0,0,,,,,,,,,,,,,
23933,1745476679897,0.0,122,,-0.12,0.17,0.97,1,-0,0,0.99,1.3,76,9625,11.7,2.12,,7.0,1.204,89.8,,51.2,5,,,,,,,,,,,,0,0,0,0,0,0,0,0,0,0,0,0,0,0,0,0,,,,,,0.0,,,,,,,
23953,1745476679917,,,,,,,,,,,,,,,,,,,,,,,0,0,0,0,0.0,0.0,0.0,0.0,2.26,,,0,0,0,0,0,0,0,0,0,0,0,0,0,0,0,0,,0,,,,,38.994095,-76.939652,0.12,32.3,19,2,1.4
23973,1745476679937,0.0,122,,-0.12,0.14,1.0,1,-0,0,1.02,1.3,78,9625,11.7,2.12,,7.0,1.168,89.8,,51.2,5,,,,,,,,,,,,0,0,0,0,0,0,0,0,0,0,0,0,0,0,0,0,,,,,,0.0,,,,,,,
23993,1745476679957,,,,,,,,,,,,,,,,,,,,,,,,,,,,,,,,,,0,0,0,0,0,0,0,0,0,0,0,0,0,0,0,0,,,,,,,,,,,,,
24013,1745476679977,0.0,135,,-0.12,0.1,1.0,1,-0,0,1.01,1.3,78,9550,11.8,2.12,,6.98,1.175,89.8,,51.5,5,,,,,,,,,,,,0,0,0,0,0,0,0,0,0,0,0,0,0,0,0,0,,,,,,0.0,,,,,,,
24033,1745476679997,,,,,,,,,,,,,,,,,,,,,,,,,,,,,,,,,,0,0,0,0,0,0,0,0,0,0,0,0,0,0,0,0,,,,,,,,,,,,,
24053,1745476680009,0.0,135,,-0.09,0.16,1.03,1,-0,-0,1.04,1.3,81,9511,11.7,2.13,,6.95,1.188,89.8,,51.5,5,0,0,0,0,0.0,0.0,0.0,0.0,2.26,,,0,0,0,0,0,0,0,0,0,0,0,0,0,0,0,0,,0,,,,0.0,38.994095,-76.939652,0.08,32.3,19,2,1.4
24073,1745476680029,,,,,,,,,,,,,,,,,,,,,,,,,,,,,,,,,,0,0,0,0,0,0,0,0,0,0,0,0,0,0,0,0,,,,,,,,,,,,,
24093,1745476680049,0.0,135,,-0.09,0.02,1.03,0,-0,-0,1.03,1.3,80,9485,11.4,2.08,,6.83,1.171,89.8,,51.5,5,,,,,,,,,,,,0,0,0,0,0,0,0,0,0,0,0,0,0,0,0,0,,,,,,0.0,,,,,,,
24113,1745476680069,,,,,,,,,,,,,,,,,,,,,,,,,,,,,,,,,,0,0,0,0,0,0,0,0,0,0,0,0,0,0,0,0,,,,,,,,,,,,,
24133,1745476680089,0.0,132,,-0.11,0.16,0.95,-1,-0,-0,0.97,1.3,75,9485,11.4,2.08,,6.83,1.171,89.8,,50.8,5,,,,,,,,,,,,0,0,0,0,0,0,0,0,0,0,0,0,0,0,0,0,,,,,,0.0,,,,,,,
24153,1745476680117,,,,,,,,,,,,,,,,,,,,,,,0,0,0,0,0.0,0.0,0.0,0.0,2.26,,,0,0,0,0,0,0,0,0,0,0,0,0,0,0,0,0,,0,,,,,38.994095,-76.939652,0.05,32.2,19,2,1.4
24173,1745476680137,0.0,115,,-0.1,0.13,1.02,-1,-0,-0,1.04,1.3,80,9357,10.5,2.06,,6.68,1.182,89.8,,50.8,5,,,,,,,,,,,,0,0,0,0,0,0,0,0,0,0,0,0,0,0,0,0,,,,,,0.0,,,,,,,
24193,1745476680157,,,,,,,,,,,,,,,,,,,,,,,,,,,,,,,,,,0,0,0,0,0,0,0,0,0,0,0,0,0,0,0,0,,,,,,,,,,,,,
24213,1745476680177,0.0,122,,-0.07,0.33,1.0,-0,-0,-0,1.05,1.3,81,9297,9.7,2.04,,6.63,1.247,89.8,,50.5,5,,,,,,,,,,,,0,0,0,0,0,0,0,0,0,0,0,0,0,0,0,0,,,,,,0.0,,,,,,,
24233,1745476680197,,,,,,,,,,,,,,,,,,,,,,,,,,,,,,,,,,0,0,0,0,0,0,0,0,0,0,0,0,0,0,0,0,,,,,,,,,,,,,
24253,1745476680213,0.0,115,,-0.09,0.23,0.97,-0,-0,0,1.0,1.3,77,9085,8.5,1.99,,6.47,1.249,88.0,,50.5,5,0,0,0,0,0.0,0.0,0.0,0.0,2.26,,,0,0,0,0,0,0,0,0,0,0,0,0,0,0,0,0,,0,,,,0.0,38.994095,-76.939652,0.04,32.2,19,2,1.4
24273,1745476680233,,,,,,,,,,,,,,,,,,,,,,,,,,,,,,,,,,0,0,0,0,0,0,0,0,0,0,0,0,0,0,0,0,,,,,,,,,,,,,
24293,1745476680253,0.0,125,,-0.12,0.13,0.93,-0,-0,0,0.94,1.3,73,8946,7.9,1.98,,6.4,1.249,88.0,,50.5,5,,,,,,,,,,,,0,0,0,0,0,0,0,0,0,0,0,0,0,0,0,0,,,,,,0.0,,,,,,,
24313,1745476680273,,,,,,,,,,,,,,,,,,,,,,,,,,,,,,,,,,0,0,0,0,0,0,0,0,0,0,0,0,0,0,0,0,,,,,,,,,,,,,
24333,1745476680293,0.0,122,,-0.09,0.23,0.92,1,-0,0,0.96,1.3,74,8799,7.0,1.94,,6.4,1.249,88.0,,49.9,5,,,,,,,,,,,,0,0,0,0,0,0,0,0,0,0,0,0,0,0,0,0,,,,,,0.0,,,,,,,
24353,1745476680316,,,,,,,,,,,,,,,,,,,,,,,0,0,0,0,0.0,0.0,0.0,0.0,2.26,,,0,0,0,0,0,0,0,0,0,0,0,0,0,0,0,0,,0,,,,,38.994095,-76.939652,0.04,32.2,19,2,1.4
24373,1745476680336,0.0,135,,-0.05,0.23,0.96,1,-0,0,0.99,1.3,76,8799,7.0,1.94,,6.4,1.238,88.0,,49.9,5,,,,,,,,,,,,0,0,0,0,0,0,0,0,0,0,0,0,0,0,0,0,,,,,,0.0,,,,,,,
24393,1745476680356,,,,,,,,,,,,,,,,,,,,,,,,,,,,,,,,,,0,0,0,0,0,0,0,0,0,0,0,0,0,0,0,0,,,,,,,,,,,,,
24413,1745476680376,0.0,129,,-0.09,0.17,0.95,0,-0,0,0.97,1.3,75,8695,6.5,1.87,,6.3,1.225,88.0,,49.5,5,,,,,,,,,,,,0,0,0,0,0,0,0,0,0,0,0,0,0,0,0,0,,,,,,0.0,,,,,,,
24433,1745476680396,,,,,,,,,,,,,,,,,,,,,,,,,,,,,,,,,,0,0,0,0,0,0,0,0,0,0,0,0,0,0,0,0,,,,,,,,,,,,,
24453,1745476680416,0.0,132,13.53,-0.07,0.13,0.97,0,-0,0,0.99,1.3,76,8487,6.4,1.91,15,6.26,1.175,88.0,149,49.5,5,0,0,0,0,0.0,0.0,0.0,0.0,2.26,0,1.0,0,0,0,0,0,0,0,0,0,0,0,0,0,0,0,0,0,0,1.0,0,0,0.0,38.994095,-76.939652,0.11,32.1,19,2,1.4
24473,1745476680436,,,,,,,,,,,,,,,,,,,,,,,,,,,,,,,,,,0,0,0,0,0,0,0,0,0,0,0,0,0,0,0,0,,,,,,,,,,,,,
24493,1745476680456,0.0,132,,-0.07,0.03,0.99,1,-0,0,0.99,1.3,76,8272,5.6,1.85,,6.26,1.175,88.0,,49.5,5,,,,,,,,,,,,0,0,0,0,0,0,0,0,0,0,0,0,0,0,0,0,,,,,,0.0,,,,,,,
24513,1745476680476,,,,,,,,,,,,,,,,,,,,,,,,,,,,,,,,,,0,0,0,0,0,0,0,0,0,0,0,0,0,0,0,0,,,,,,,,,,,,,
24533,1745476680496,0.0,122,,-0.09,-0.02,0.98,1,-0,0,0.99,1.3,76,8001,5.3,1.9,,6.38,1.163,88.0,,49.0,5,,,,,,,,,,,,0,0,0,0,0,0,0,0,0,0,0,0,0,0,0,0,,,,,,0.0,,,,,,,
24553,1745476680516,,,,,,,,,,,,,,,,,,,,,,,0,0,0,0,0.0,0.0,0.0,0.0,2.26,,,0,0,0,0,0,0,0,0,0,0,0,0,0,0,0,0,,0,,,,,38.994095,-76.939652,0.04,32.1,19,2,1.4
24573,1745476680536,0.0,122,,-0.07,-0.03,1.05,0,-0,0,1.05,1.3,81,8001,5.3,1.9,,6.43,1.223,88.0,,49.0,5,,,,,,,,,,,,0,0,0,0,0,0,0,0,0,0,0,0,0,0,0,0,,,,,,0.0,,,,,,,
24593,1745476680556,,,,,,,,,,,,,,,,,,,,,,,,,,,,,,,,,,0,0,0,0,0,0,0,0,0,0,0,0,0,0,0,0,,,,,,,,,,,,,
24613,1745476680576,0.0,108,,-0.06,0.1,1.06,1,-0,0,1.06,1.3,82,7767,5.0,1.93,,6.44,1.25,88.0,,49.6,5,,,,,,,,,,,,0,0,0,0,0,0,0,0,0,0,0,0,0,0,0,0,,,,,,0.0,,,,,,,
24633,1745476680596,,,,,,,,,,,,,,,,,,,,,,,,,,,,,,,,,,0,0,0,0,0,0,0,0,0,0,0,0,0,0,0,0,,,,,,,,,,,,,
24653,1745476680616,0.0,125,,-0.08,0.21,1.07,1,-0,0,1.1,1.3,85,7502,5.0,1.95,,6.59,1.249,88.0,,49.6,5,0,0,0,0,0.0,0.0,0.0,0.0,2.26,,,0,0,0,0,0,0,0,0,0,0,0,0,0,0,0,0,,0,,,,0.0,38.994095,-76.939652,0.04,32.1,19,2,1.4
24673,1745476680636,,,,,,,,,,,,,,,,,,,,,,,,,,,,,,,,,,0,0,0,0,0,0,0,0,0,0,0,0,0,0,0,0,,,,,,,,,,,,,
24693,1745476680656,0.0,132,,-0.06,0.3,1.07,2,-0,0,1.11,1.3,86,7317,4.8,2.01,,6.66,1.248,88.0,,49.6,5,,,,,,,,,,,,0,0,0,0,0,0,0,0,0,0,0,0,0,0,0,0,,,,,,0.0,,,,,,,
24713,1745476680676,,,,,,,,,,,,,,,,,,,,,,,,,,,,,,,,,,0,0,0,0,0,0,0,0,0,0,0,0,0,0,0,0,,,,,,,,,,,,,
24733,1745476680696,0.0,125,,-0.04,0.16,1.04,1,-0,0,1.06,1.3,81,7175,4.5,2.08,,6.66,1.248,88.0,,48.8,5,,,,,,,,,,,,0,0,0,0,0,0,0,0,0,0,0,0,0,0,0,0,,,,,,0.0,,,,,,,
24753,1745476680716,,,,,,,,,,,,,,,,,,,,,,,0,0,0,0,0.0,0.0,0.0,0.0,2.26,,,0,0,0,0,0,0,0,0,0,0,0,0,0,0,0,0,,0,,,,,38.994095,-76.939652,0.07,32.1,19,2,1.4
24773,1745476680736,0.0,125,,-0.07,0.18,1.05,1,-0,-0,1.07,1.3,82,7175,4.5,2.08,,6.86,1.248,88.0,,48.8,5,,,,,,,,,,,,0,0,0,0,0,0,0,0,0,0,0,0,0,0,0,0,,,,,,0.0,,,,,,,
24793,1745476680756,,,,,,,,,,,,,,,,,,,,,,,,,,,,,,,,,,0,0,0,0,0,0,0,0,0,0,0,0,0,0,0,0,,,,,,,,,,,,,
24813,1745476680776,0.0,105,,-0.07,0.02,1.02,0,-0,-0,1.02,1.3,79,7045,4.4,2.1,,7.07,1.248,88.0,,49.5,5,,,,,,,,,,,,0,0,0,0,0,0,0,0,0,0,0,0,0,0,0,0,,,,,,0.0,,,,,,,
24833,1745476680796,,,,,,,,,,,,,,,,,,,,,,,,,,,,,,,,,,0,0,0,0,0,0,0,0,0,0,0,0,0,0,0,0,,,,,,,,,,,,,
24853,1745476680816,0.0,112,,-0.06,0.02,1.0,0,-0,-0,1.0,1.3,77,6971,4.4,2.14,,7.23,1.189,88.0,,49.5,5,0,0,0,0,0.0,0.0,0.0,0.0,2.27,,,0,0,0,0,0,0,0,0,0,0,0,0,0,0,0,0,,0,,,,0.0,38.994095,-76.939652,0.07,32.1,19,2,1.4
24873,1745476680836,,,,,,,,,,,,,,,,,,,,,,,,,,,,,,,,,,0,0,0,0,0,0,0,0,0,0,0,0,0,0,0,0,,,,,,,,,,,,,
24893,1745476680856,0.0,119,,-0.05,0.05,1.02,1,-0,-0,1.03,1.3,79,6935,4.4,2.18,,7.33,1.122,88.0,,49.5,5,,,,,,,,,,,,0,0,0,0,0,0,0,0,0,0,0,0,0,0,0,0,,,,,,0.0,,,,,,,
24913,1745476680876,,,,,,,,,,,,,,,,,,,,,,,,,,,,,,,,,,0,0,0,0,0,0,0,0,0,0,0,0,0,0,0,0,,,,,,,,,,,,,
24933,1745476680896,0.0,115,,-0.05,0.03,1.04,0,-0,-0,1.04,1.3,80,6902,6.7,2.34,,7.33,1.122,88.0,,48.8,5,,,,,,,,,,,,0,0,0,0,0,0,0,0,0,0,0,0,0,0,0,0,,,,,,0.0,,,,,,,
24953,1745476680916,,,,,,,,,,,,,,,,,,,,,,,0,0,0,0,0.0,0.0,0.0,0.0,2.26,,,0,0,0,0,0,0,0,0,0,0,0,0,0,0,0,0,,0,,,,,38.994095,-76.939652,0.08,32.1,19,2,1.4
24973,1745476680936,0.0,119,,-0.04,-0.02,1.02,0,-0,0,1.02,1.3,79,6902,6.7,2.34,,7.82,1.098,88.0,,48.8,5,,,,,,,,,,,,0,0,0,0,0,0,0,0,0,0,0,0,0,0,0,0,,,,,,0.0,,,,,,,
24993,1745476680956,,,,,,,,,,,,,,,,,,,,,,,,,,,,,,,,,,0,0,0,0,0,0,0,0,0,0,0,0,0,0,0,0,,,,,,,,,,,,,
25013,1745476680976,0.0,129,,-0.05,-0.07,0.99,0,-0,-0,0.99,1.3,77,6943,7.5,2.62,,8.1,1.079,88.0,,48.6,5,,,,,,,,,,,,0,0,0,0,0,0,0,0,0,0,0,0,0,0,0,0,,,,,,0.0,,,,,,,
25033,1745476680996,,,,,,,,,,,,,,,,,,,,,,,,,,,,,,,,,,0,0,0,0,0,0,0,0,0,0,0,0,0,0,0,0,,,,,,,,,,,,,
25053,1745476681010,0.0,125,,-0.06,0.01,1.02,-0,-0,-0,1.02,1.3,78,7021,7.7,2.8,,8.38,1.072,88.0,,48.6,5,0,0,0,0,0.0,0.0,0.0,0.0,2.26,,,0,0,0,0,0,0,0,0,0,0,0,0,0,0,0,0,,0,,,,0.0,38.994095,-76.939652,0.1,32.1,19,2,1.4
25073,1745476681030,,,,,,,,,,,,,,,,,,,,,,,,,,,,,,,,,,0,0,0,0,0,0,0,0,0,0,0,0,0,0,0,0,,,,,,,,,,,,,
25093,1745476681050,0.0,115,,-0.06,-0.14,0.99,-1,-0,0,1.0,1.3,77,7064,7.7,2.86,,8.47,1.064,88.0,,48.6,5,,,,,,,,,,,,0,0,0,0,0,0,0,0,0,0,0,0,0,0,0,0,,,,,,0.0,,,,,,,
25113,1745476681070,,,,,,,,,,,,,,,,,,,,,,,,,,,,,,,,,,0,0,0,0,0,0,0,0,0,0,0,0,0,0,0,0,,,,,,,,,,,,,
25133,1745476681090,0.0,122,,-0.07,-0.05,1.02,0,-0,0,1.02,1.3,79,7233,7.7,2.84,,8.47,1.064,88.0,,49.0,5,,,,,,,,,,,,0,0,0,0,0,0,0,0,0,0,0,0,0,0,0,0,,,,,,0.0,,,,,,,
25153,1745476681112,,,,,,,,,,,,,,,,,,,,,,,0,0,0,0,0.0,0.0,0.0,0.0,2.26,,,0,0,0,0,0,0,0,0,0,0,0,0,0,0,0,0,,0,,,,,38.994095,-76.939652,0.17,32.1,19,2,1.4
25173,1745476681132,0.0,115,,-0.03,-0.1,1.01,-0,-0,-0,1.02,1.3,79,7233,7.7,2.84,,8.51,1.051,88.0,,49.0,5,,,,,,,,,,,,0,0,0,0,0,0,0,0,0,0,0,0,0,0,0,0,,,,,,0.0,,,,,,,
25193,1745476681152,,,,,,,,,,,,,,,,,,,,,,,,,,,,,,,,,,0,0,0,0,0,0,0,0,0,0,0,0,0,0,0,0,,,,,,,,,,,,,
25213,1745476681172,0.0,102,,-0.03,-0.16,1.0,-0,-0,-0,1.02,1.3,78,7391,7.6,2.86,,8.43,1.045,88.0,,49.5,5,,,,,,,,,,,,0,0,0,0,0,0,0,0,0,0,0,0,0,0,0,0,,,,,,0.0,,,,,,,
25233,1745476681192,,,,,,,,,,,,,,,,,,,,,,,,,,,,,,,,,,0,0,0,0,0,0,0,0,0,0,0,0,0,0,0,0,,,,,,,,,,,,,
25253,1745476681214,0.0,119,,-0.01,-0.22,1.03,-1,-0,-0,1.05,1.3,81,7568,7.4,2.78,,8.19,1.041,88.0,,49.5,5,0,0,0,0,0.0,0.0,0.0,0.0,2.27,,,0,0,0,0,0,0,0,0,0,0,0,0,0,0,0,0,,0,,,,0.0,38.994095,-76.939652,0.11,32.1,19,2,1.4
25273,1745476681234,,,,,,,,,,,,,,,,,,,,,,,,,,,,,,,,,,0,0,0,0,0,0,0,0,0,0,0,0,0,0,0,0,,,,,,,,,,,,,
25293,1745476681254,0.0,119,,-0.01,-0.18,1.05,-0,-0,-0,1.06,1.3,82,7784,7.0,2.71,,8.09,1.039,88.0,,49.5,5,,,,,,,,,,,,0,0,0,0,0,0,0,0,0,0,0,0,0,0,0,0,,,,,,0.0,,,,,,,
25313,1745476681274,,,,,,,,,,,,,,,,,,,,,,,,,,,,,,,,,,0,0,0,0,0,0,0,0,0,0,0,0,0,0,0,0,,,,,,,,,,,,,
25333,1745476681294,0.0,119,,0.0,-0.32,1.03,-0,-0,-0,1.08,1.3,83,7956,5.3,2.43,,8.09,1.039,88.0,,48.3,5,,,,,,,,,,,,0,0,0,0,0,0,0,0,0,0,0,0,0,0,0,0,,,,,,0.0,,,,,,,
25353,1745476681318,,,,,,,,,,,,,,,,,,,,,,,0,0,0,0,0.0,0.0,0.0,0.0,2.27,,,0,0,0,0,0,0,0,0,0,0,0,0,0,0,0,0,,0,,,,,38.994095,-76.939652,0.06,32.1,19,2,1.4
25373,1745476681338,0.0,119,,0.0,-0.3,1.02,-0,-0,0,1.06,1.3,82,7956,5.3,2.43,,7.75,1.035,88.0,,48.3,5,,,,,,,,,,,,0,0,0,0,0,0,0,0,0,0,0,0,0,0,0,0,,,,,,0.0,,,,,,,
25393,1745476681358,,,,,,,,,,,,,,,,,,,,,,,,,,,,,,,,,,0,0,0,0,0,0,0,0,0,0,0,0,0,0,0,0,,,,,,,,,,,,,
25413,1745476681378,0.0,105,,-0.01,-0.22,1.05,1,-0,0,1.08,1.3,83,8038,3.8,1.97,,7.37,1.031,88.0,,48.5,5,,,,,,,,,,,,0,0,0,0,0,0,0,0,0,0,0,0,0,0,0,0,,,,,,0.0,,,,,,,
25433,1745476681398,,,,,,,,,,,,,,,,,,,,,,,,,,,,,,,,,,0,0,0,0,0,0,0,0,0,0,0,0,0,0,0,0,,,,,,,,,,,,,
25453,1745476681417,0.0,115,13.5,-0.02,-0.37,1.04,-0,-0,0,1.1,1.3,85,7947,3.0,1.56,15,7.08,1.034,88.0,151,48.5,5,0,0,0,0,0.0,0.0,0.0,0.0,2.26,0,1.0,0,0,0,0,0,0,0,0,0,0,0,0,0,0,0,0,0,0,1.0,0,0,0.0,38.994095,-76.939652,0.08,32.1,19,2,1.4
25473,1745476681437,,,,,,,,,,,,,,,,,,,,,,,,,,,,,,,,,,0,0,0,0,0,0,0,0,0,0,0,0,0,0,0,0,,,,,,,,,,,,,
25493,1745476681457,0.0,108,,-0.01,-0.26,1.03,-0,-0,0,1.06,1.3,82,7561,2.7,1.4,,6.79,1.059,88.0,,48.5,5,,,,,,,,,,,,0,0,0,0,0,0,0,0,0,0,0,0,0,0,0,0,,,,,,0.0,,,,,,,
25513,1745476681477,,,,,,,,,,,,,,,,,,,,,,,,,,,,,,,,,,0,0,0,0,0,0,0,0,0,0,0,0,0,0,0,0,,,,,,,,,,,,,
25533,1745476681497,0.0,105,,-0.01,-0.36,1.01,-1,-0,0,1.07,1.3,83,7103,2.8,1.4,,6.79,1.059,88.0,,49.1,5,,,,,,,,,,,,0,0,0,0,0,0,0,0,0,0,0,0,0,0,0,0,,,,,,0.0,,,,,,,
25553,1745476681513,,,,,,,,,,,,,,,,,,,,,,,0,0,0,0,0.0,0.0,0.0,0.0,2.26,,,0,0,0,0,0,0,0,0,0,0,0,0,0,0,0,0,,0,,,,,38.994095,-76.939652,0.08,32.1,19,2,1.4
25573,1745476681533,0.0,112,,-0.04,-0.33,0.99,-1,-0,0,1.04,1.3,80,7103,2.8,1.4,,6.66,1.14,88.0,,49.1,5,,,,,,,,,,,,0,0,0,0,0,0,0,0,0,0,0,0,0,0,0,0,,,,,,0.0,,,,,,,
25593,1745476681553,,,,,,,,,,,,,,,,,,,,,,,,,,,,,,,,,,0,0,0,0,0,0,0,0,0,0,0,0,0,0,0,0,,,,,,,,,,,,,
25613,1745476681573,0.0,108,,-0.05,-0.25,1.04,-1,-0,0,1.07,1.3,83,6620,2.8,1.46,,6.95,1.251,88.0,,48.4,5,,,,,,,,,,,,0,0,0,0,0,0,0,0,0,0,0,0,0,0,0,0,,,,,,0.0,,,,,,,
25633,1745476681593,,,,,,,,,,,,,,,,,,,,,,,,,,,,,,,,,,0,0,0,0,0,0,0,0,0,0,0,0,0,0,0,0,,,,,,,,,,,,,
25653,1745476681613,0.0,119,,-0.08,-0.13,1.02,-1,-0,0,1.03,1.3,79,6200,2.9,1.62,,7.31,1.25,88.0,,48.4,5,0,0,0,0,0.0,0.0,0.0,0.0,2.26,,,0,0,0,0,0,0,0,0,0,0,0,0,0,0,0,0,,0,,,,0.0,38.994095,-76.939652,0.16,32.1,19,2,1.4
25673,1745476681633,,,,,,,,,,,,,,,,,,,,,,,,,,,,,,,,,,0,0,0,0,0,0,0,0,0,0,0,0,0,0,0,0,,,,,,,,,,,,,
25693,1745476681653,0.0,112,,-0.15,0.08,1.05,-1,-0,0,1.07,1.3,82,5781,2.8,1.72,,7.69,1.249,88.0,,48.4,5,,,,,,,,,,,,0,0,0,0,0,0,0,0,0,0,0,0,0,0,0,0,,,,,,0.0,,,,,,,
25713,1745476681673,,,,,,,,,,,,,,,,,,,,,,,,,,,,,,,,,,0,0,0,0,0,0,0,0,0,0,0,0,0,0,0,0,,,,,,,,,,,,,
25733,1745476681693,0.0,119,,-0.1,-0.09,1.02,-2,-0,-0,1.03,1.3,79,5452,2.6,1.9,,7.69,1.249,88.0,,46.9,5,,,,,,,,,,,,0,0,0,0,0,0,0,0,0,0,0,0,0,0,0,0,,,,,,0.0,,,,,,,
25753,1745476681715,,,,,,,,,,,,,,,,,,,,,,,0,0,0,0,0.0,0.0,0.0,0.0,2.26,,,0,0,0,0,0,0,0,0,0,0,0,0,0,0,0,0,,0,,,,,38.994095,-76.939652,0.07,32.1,19,2,1.4
25773,1745476681735,0.0,115,,-0.11,-0.09,1.04,-1,-0,-0,1.05,1.3,81,5452,2.6,1.9,,8.19,1.248,88.0,,46.9,5,,,,,,,,,,,,0,0,0,0,0,0,0,0,0,0,0,0,0,0,0,0,,,,,,0.0,,,,,,,
25793,1745476681755,,,,,,,,,,,,,,,,,,,,,,,,,,,,,,,,,,0,0,0,0,0,0,0,0,0,0,0,0,0,0,0,0,,,,,,,,,,,,,
25813,1745476681775,0.0,95,,-0.11,-0.04,1.07,-1,-0,-0,1.07,1.3,83,5040,2.5,1.94,,8.63,1.249,88.0,,44.8,5,,,,,,,,,,,,0,0,0,0,0,0,0,0,0,0,0,0,0,0,0,0,,,,,,0.0,,,,,,,
25833,1745476681795,,,,,,,,,,,,,,,,,,,,,,,,,,,,,,,,,,0,0,0,0,0,0,0,0,0,0,0,0,0,0,0,0,,,,,,,,,,,,,
25853,1745476681813,0.0,108,,-0.12,0.06,1.11,-0,-0,0,1.12,1.3,86,4753,2.5,2.05,,9.13,1.249,88.0,,44.8,5,0,0,0,0,0.0,0.0,0.0,0.0,2.27,,,0,0,0,0,0,0,0,0,0,0,0,0,0,0,0,0,,0,,,,0.0,38.994099,-76.939652,0.04,32.1,19,2,1.4
25873,1745476681833,,,,,,,,,,,,,,,,,,,,,,,,,,,,,,,,,,0,0,0,0,0,0,0,0,0,0,0,0,0,0,0,0,,,,,,,,,,,,,
25893,1745476681853,0.0,102,,-0.14,0.07,1.14,0,-0,1,1.15,1.3,89,4521,2.7,2.19,,9.54,1.25,88.0,,44.8,5,,,,,,,,,,,,0,0,0,0,0,0,0,0,0,0,0,0,0,0,0,0,,,,,,0.0,,,,,,,
25913,1745476681873,,,,,,,,,,,,,,,,,,,,,,,,,,,,,,,,,,0,0,0,0,0,0,0,0,0,0,0,0,0,0,0,0,,,,,,,,,,,,,
25933,1745476681893,0.0,115,,-0.14,0.14,1.21,3,-0,1,1.22,1.3,94,4262,3.6,2.44,,9.54,1.25,88.0,,40.2,5,,,,,,,,,,,,0,0,0,0,0,0,0,0,0,0,0,0,0,0,0,0,,,,,,0.0,,,,,,,
25953,1745476681917,,,,,,,,,,,,,,,,,,,,,,,0,0,0,0,0.0,0.0,0.0,0.0,2.26,,,0,0,0,0,0,0,0,0,0,0,0,0,0,0,0,0,,0,,,,,38.994099,-76.939652,0.05,32.2,19,2,1.4
25973,1745476681937,0.0,115,,-0.12,0.03,1.12,0,-0,1,1.13,1.3,87,4262,3.6,2.44,,10.14,1.252,88.0,,40.2,5,,,,,,,,,,,,0,0,0,0,0,0,0,0,0,0,0,0,0,0,0,0,,,,,,0.0,,,,,,,
25993,1745476681957,,,,,,,,,,,,,,,,,,,,,,,,,,,,,,,,,,0,0,0,0,0,0,0,0,0,0,0,0,0,0,0,0,,,,,,,,,,,,,
26013,1745476681977,0.0,108,,-0.12,0.09,1.12,1,-0,1,1.13,1.3,87,4020,5.1,2.67,,10.69,1.252,88.0,,34.6,5,,,,,,,,,,,,0,0,0,0,0,0,0,0,0,0,0,0,0,0,0,0,,,,,,0.0,,,,,,,
26033,1745476681997,,,,,,,,,,,,,,,,,,,,,,,,,,,,,,,,,,0,0,0,0,0,0,0,0,0,0,0,0,0,0,0,0,,,,,,,,,,,,,
26053,1745476682009,0.0,119,,-0.1,0.1,1.1,1,-0,1,1.11,1.3,86,3767,6.2,3.62,,11.28,1.252,88.0,,34.6,5,0,0,0,0,0.0,0.0,0.0,0.0,2.26,,,0,0,0,0,0,0,0,0,0,0,0,0,0,0,0,0,,0,,,,0.0,38.994099,-76.939652,0.0,32.2,19,2,1.4
26073,1745476682029,,,,,,,,,,,,,,,,,,,,,,,,,,,,,,,,,,0,0,0,0,0,0,0,0,0,0,0,0,0,0,0,0,,,,,,,,,,,,,
26093,1745476682049,0.0,112,,-0.1,0.06,1.06,1,-0,0,1.07,1.3,82,3712,7.2,3.7,,11.81,1.252,88.0,,34.6,5,,,,,,,,,,,,0,0,0,0,0,0,0,0,0,0,0,0,0,0,0,0,,,,,,0.0,,,,,,,
26113,1745476682069,,,,,,,,,,,,,,,,,,,,,,,,,,,,,,,,,,0,0,0,0,0,0,0,0,0,0,0,0,0,0,0,0,,,,,,,,,,,,,
26133,1745476682089,0.0,102,,-0.1,0.05,1.09,-1,-0,1,1.09,1.3,84,3602,7.8,3.77,,11.81,1.252,88.0,,32.3,5,,,,,,,,,,,,0,0,0,0,0,0,0,0,0,0,0,0,0,0,0,0,,,,,,0.0,,,,,,,
26153,1745476682115,,,,,,,,,,,,,,,,,,,,,,,0,0,0,0,0.0,0.0,0.0,0.0,2.26,,,0,0,0,0,0,0,0,0,0,0,0,0,0,0,0,0,,0,,,,,38.994099,-76.939652,0.04,32.2,19,2,1.4
26173,1745476682135,0.0,102,,-0.08,0.04,1.1,-0,-0,1,1.11,1.3,86,3602,7.8,3.77,,12.28,1.252,88.0,,32.3,5,,,,,,,,,,,,0,0,0,0,0,0,0,0,0,0,0,0,0,0,0,0,,,,,,0.0,,,,,,,
26193,1745476682155,,,,,,,,,,,,,,,,,,,,,,,,,,,,,,,,,,0,0,0,0,0,0,0,0,0,0,0,0,0,0,0,0,,,,,,,,,,,,,
26213,1745476682175,0.0,91,,-0.07,0.12,1.08,2,-0,1,1.09,1.3,84,3570,7.8,3.81,,12.61,1.25,88.0,,30.9,5,,,,,,,,,,,,0,0,0,0,0,0,0,0,0,0,0,0,0,0,0,0,,,,,,0.0,,,,,,,
26233,1745476682195,,,,,,,,,,,,,,,,,,,,,,,,,,,,,,,,,,0,0,0,0,0,0,0,0,0,0,0,0,0,0,0,0,,,,,,,,,,,,,
26253,1745476682217,0.0,115,,-0.1,0.12,1.04,1,-0,0,1.06,1.3,81,3526,7.6,3.8,,12.8,1.249,88.0,,30.9,5,0,0,0,0,0.0,0.0,0.0,0.0,2.26,,,0,0,0,0,0,0,0,0,0,0,0,0,0,0,0,0,,0,,,,0.0,38.994099,-76.939652,0.09,32.2,19,2,1.4
26273,1745476682237,,,,,,,,,,,,,,,,,,,,,,,,,,,,,,,,,,0,0,0,0,0,0,0,0,0,0,0,0,0,0,0,0,,,,,,,,,,,,,
26293,1745476682257,0.0,105,,-0.09,0.1,1.11,-1,-0,1,1.12,1.3,86,3465,7.3,3.8,,13.0,1.25,88.0,,30.9,5,,,,,,,,,,,,0,0,0,0,0,0,0,0,0,0,0,0,0,0,0,0,,,,,,0.0,,,,,,,
26313,1745476682277,,,,,,,,,,,,,,,,,,,,,,,,,,,,,,,,,,0,0,0,0,0,0,0,0,0,0,0,0,0,0,0,0,,,,,,,,,,,,,
26333,1745476682297,0.0,112,,-0.08,0.19,1.05,1,-0,0,1.07,1.3,82,3467,6.5,3.78,,13.0,1.25,88.0,,29.8,5,,,,,,,,,,,,0,0,0,0,0,0,0,0,0,0,0,0,0,0,0,0,,,,,,0.0,,,,,,,
26353,1745476682317,,,,,,,,,,,,,,,,,,,,,,,0,0,0,0,0.0,0.0,0.0,0.0,2.27,,,0,0,0,0,0,0,0,0,0,0,0,0,0,0,0,0,,0,,,,,38.994099,-76.939652,0.13,32.3,19,2,1.4
26373,1745476682337,0.0,119,,-0.11,0.13,1.06,-1,-0,0,1.07,1.3,83,3467,6.5,3.78,,13.04,1.249,88.0,,29.8,5,,,,,,,,,,,,0,0,0,0,0,0,0,0,0,0,0,0,0,0,0,0,,,,,,0.0,,,,,,,
26393,1745476682357,,,,,,,,,,,,,,,,,,,,,,,,,,,,,,,,,,0,0,0,0,0,0,0,0,0,0,0,0,0,0,0,0,,,,,,,,,,,,,
26413,1745476682377,0.0,98,,-0.08,0.17,1.07,0,-0,0,1.09,1.3,84,3422,5.9,3.69,,13.12,1.249,88.0,,29.3,5,,,,,,,,,,,,0,0,0,0,0,0,0,0,0,0,0,0,0,0,0,0,,,,,,0.0,,,,,,,
26433,1745476682397,,,,,,,,,,,,,,,,,,,,,,,,,,,,,,,,,,0,0,0,0,0,0,0,0,0,0,0,0,0,0,0,0,,,,,,,,,,,,,
26453,1745476682416,0.0,115,13.43,-0.12,0.11,1.04,-1,-0,0,1.05,1.3,81,3427,5.5,3.63,15,13.11,1.25,88.0,151,29.3,5,0,0,0,0,0.0,0.0,0.0,0.0,2.26,0,1.0,0,0,0,0,0,0,0,0,0,0,0,0,0,0,0,0,0,0,1.0,0,-0,0.0,38.994099,-76.939652,0.0,32.3,19,2,1.4
26473,1745476682436,,,,,,,,,,,,,,,,,,,,,,,,,,,,,,,,,,0,0,0,0,0,0,0,0,0,0,0,0,0,0,0,0,,,,,,,,,,,,,
26493,1745476682456,0.0,95,,-0.08,0.12,1.07,-0,-0,0,1.08,1.3,83,3364,5.4,3.63,,13.13,1.252,88.0,,29.3,5,,,,,,,,,,,,0,0,0,0,0,0,0,0,0,0,0,0,0,0,0,0,,,,,,0.0,,,,,,,
26513,1745476682476,,,,,,,,,,,,,,,,,,,,,,,,,,,,,,,,,,0,0,0,0,0,0,0,0,0,0,0,0,0,0,0,0,,,,,,,,,,,,,
26533,1745476682496,0.0,102,,-0.1,0.08,1.02,-0,-0,0,1.03,1.3,80,3343,5.6,3.64,,13.13,1.252,88.0,,29.2,5,,,,,,,,,,,,0,0,0,0,0,0,0,0,0,0,0,0,0,0,0,0,,,,,,0.0,,,,,,,
26553,1745476682514,,,,,,,,,,,,,,,,,,,,,,,0,0,0,0,0.0,0.0,0.0,0.0,2.26,,,0,0,0,0,0,0,0,0,0,0,0,0,0,0,0,0,,0,,,,,38.994099,-76.939644,0.08,32.3,19,2,1.4
26573,1745476682534,0.0,122,,-0.08,0.13,1.04,1,-0,0,1.05,1.3,81,3343,5.6,3.64,,13.2,1.252,88.0,,29.2,5,,,,,,,,,,,,0,0,0,0,0,0,0,0,0,0,0,0,0,0,0,0,,,,,,0.0,,,,,,,
26593,1745476682554,,,,,,,,,,,,,,,,,,,,,,,,,,,,,,,,,,0,0,0,0,0,0,0,0,0,0,0,0,0,0,0,0,,,,,,,,,,,,,
26613,1745476682574,0.0,108,,-0.08,0.04,1.07,-1,-0,0,1.08,1.3,83,3315,5.8,3.61,,13.2,1.251,88.0,,28.6,5,,,,,,,,,,,,0,0,0,0,0,0,0,0,0,0,0,0,0,0,0,0,,,,,,0.0,,,,,,,
26633,1745476682594,,,,,,,,,,,,,,,,,,,,,,,,,,,,,,,,,,0,0,0,0,0,0,0,0,0,0,0,0,0,0,0,0,,,,,,,,,,,,,
26653,1745476682614,0.0,105,,-0.1,0.05,0.98,0,-0,-0,0.99,1.3,76,3246,5.8,3.63,,13.28,1.251,88.0,,28.6,5,0,0,0,0,0.0,0.0,0.0,0.0,2.26,,,0,0,0,0,0,0,0,0,0,0,0,0,0,0,0,0,,0,,,,0.0,38.994099,-76.939644,0.12,32.4,19,2,1.4
26673,1745476682634,,,,,,,,,,,,,,,,,,,,,,,,,,,,,,,,,,0,0,0,0,0,0,0,0,0,0,0,0,0,0,0,0,,,,,,,,,,,,,
26693,1745476682654,0.0,98,,-0.06,0.08,1.01,1,-0,0,1.02,1.3,79,3252,5.8,3.64,,13.24,1.25,88.0,,28.6,5,,,,,,,,,,,,0,0,0,0,0,0,0,0,0,0,0,0,0,0,0,0,,,,,,0.0,,,,,,,
26713,1745476682674,,,,,,,,,,,,,,,,,,,,,,,,,,,,,,,,,,0,0,0,0,0,0,0,0,0,0,0,0,0,0,0,0,,,,,,,,,,,,,
26733,1745476682694,0.0,95,,-0.06,0.03,1.08,-1,-0,0,1.08,1.3,83,3192,5.7,3.63,,13.24,1.25,88.0,,28.0,5,,,,,,,,,,,,0,0,0,0,0,0,0,0,0,0,0,0,0,0,0,0,,,,,,0.0,,,,,,,
26753,1745476682714,,,,,,,,,,,,,,,,,,,,,,,0,0,0,0,0.0,0.0,0.0,0.0,2.26,,,0,0,0,0,0,0,0,0,0,0,0,0,0,0,0,0,,0,,,,,38.994099,-76.939644,0.13,32.4,19,2,1.4
26773,1745476682734,0.0,102,,-0.1,-0.01,1.01,-1,-0,-0,1.02,1.3,79,3192,5.7,3.63,,13.24,1.249,88.0,,28.0,5,,,,,,,,,,,,0,0,0,0,0,0,0,0,0,0,0,0,0,0,0,0,,,,,,0.0,,,,,,,
26793,1745476682754,,,,,,,,,,,,,,,,,,,,,,,,,,,,,,,,,,0,0,0,0,0,0,0,0,0,0,0,0,0,0,0,0,,,,,,,,,,,,,
26813,1745476682774,0.0,88,,-0.09,0.06,0.96,2,-0,-0,0.96,1.3,74,3186,5.5,3.64,,13.28,1.249,88.0,,27.5,5,,,,,,,,,,,,0,0,0,0,0,0,0,0,0,0,0,0,0,0,0,0,,,,,,0.0,,,,,,,
26833,1745476682794,,,,,,,,,,,,,,,,,,,,,,,,,,,,,,,,,,0,0,0,0,0,0,0,0,0,0,0,0,0,0,0,0,,,,,,,,,,,,,
26853,1745476682814,0.0,85,,-0.05,0.05,1.04,1,-0,0,1.04,1.3,81,3198,5.4,3.64,,13.29,1.249,88.0,,27.5,5,0,0,0,0,0.0,0.0,0.0,0.0,2.27,,,0,0,0,0,0,0,0,0,0,0,0,0,0,0,0,0,,0,,,,0.0,38.994099,-76.939644,0.13,32.4,19,2,1.4
26873,1745476682834,,,,,,,,,,,,,,,,,,,,,,,,,,,,,,,,,,0,0,0,0,0,0,0,0,0,0,0,0,0,0,0,0,,,,,,,,,,,,,
26893,1745476682854,0.0,91,,-0.06,0.0,1.08,-2,-0,0,1.08,1.3,84,3191,5.4,3.65,,13.32,1.249,88.0,,27.5,5,,,,,,,,,,,,0,0,0,0,0,0,0,0,0,0,0,0,0,0,0,0,,,,,,0.0,,,,,,,
26913,1745476682874,,,,,,,,,,,,,,,,,,,,,,,,,,,,,,,,,,0,0,0,0,0,0,0,0,0,0,0,0,0,0,0,0,,,,,,,,,,,,,
26933,1745476682894,0.0,108,,-0.11,-0.05,1.05,-2,-0,0,1.06,1.3,81,3121,5.5,3.61,,13.32,1.249,88.0,,27.5,5,,,,,,,,,,,,0,0,0,0,0,0,0,0,0,0,0,0,0,0,0,0,,,,,,0.0,,,,,,,
26953,1745476682916,,,,,,,,,,,,,,,,,,,,,,,0,0,0,0,0.0,0.0,0.0,0.0,2.27,,,0,0,0,0,0,0,0,0,0,0,0,0,0,0,0,0,,0,,,,,38.994099,-76.939644,0.1,32.4,19,2,1.4
26973,1745476682936,0.0,115,,-0.12,0.0,0.95,0,-0,-0,0.96,1.3,74,3121,5.5,3.61,,13.35,1.25,88.0,,27.5,5,,,,,,,,,,,,0,0,0,0,0,0,0,0,0,0,0,0,0,0,0,0,,,,,,0.0,,,,,,,
26993,1745476682956,,,,,,,,,,,,,,,,,,,,,,,,,,,,,,,,,,0,0,0,0,0,0,0,0,0,0,0,0,0,0,0,0,,,,,,,,,,,,,
27013,1745476682976,0.0,105,,-0.08,0.04,0.96,2,-0,-0,0.97,1.3,75,3175,5.5,3.61,,13.36,1.252,88.0,,26.9,5,,,,,,,,,,,,0,0,0,0,0,0,0,0,0,0,0,0,0,0,0,0,,,,,,0.0,,,,,,,
27033,1745476682996,,,,,,,,,,,,,,,,,,,,,,,,,,,,,,,,,,0,0,0,0,0,0,0,0,0,0,0,0,0,0,0,0,,,,,,,,,,,,,
27053,1745476683010,0.0,98,,-0.03,0.04,1.03,0,-0,0,1.03,1.3,80,3165,5.8,3.62,,13.36,1.252,88.0,,26.9,5,0,0,0,0,0.0,0.0,0.0,0.0,2.26,,,0,0,0,0,0,0,0,0,0,0,0,0,0,0,0,0,,0,,,,0.0,38.994099,-76.939644,0.15,32.4,19,2,1.4
27073,1745476683030,,,,,,,,,,,,,,,,,,,,,,,,,,,,,,,,,,0,0,0,0,0,0,0,0,0,0,0,0,0,0,0,0,,,,,,,,,,,,,
27093,1745476683050,0.0,98,,-0.05,-0.02,1.07,-2,-0,0,1.07,1.3,83,3157,6.2,3.65,,13.4,1.251,88.0,,26.9,5,,,,,,,,,,,,0,0,0,0,0,0,0,0,0,0,0,0,0,0,0,0,,,,,,0.0,,,,,,,
27113,1745476683070,,,,,,,,,,,,,,,,,,,,,,,,,,,,,,,,,,0,0,0,0,0,0,0,0,0,0,0,0,0,0,0,0,,,,,,,,,,,,,
27133,1745476683090,0.0,95,,-0.09,-0.01,1.01,-1,-0,-0,1.01,1.3,78,3199,6.5,3.72,,13.4,1.251,88.0,,27.2,5,,,,,,,,,,,,0,0,0,0,0,0,0,0,0,0,0,0,0,0,0,0,,,,,,0.0,,,,,,,
27153,1745476683116,,,,,,,,,,,,,,,,,,,,,,,0,0,0,0,0.0,0.0,0.0,0.0,2.26,,,0,0,0,0,0,0,0,0,0,0,0,0,0,0,0,0,,0,,,,,38.994099,-76.939644,0.04,32.5,19,2,1.4
27173,1745476683136,0.0,105,,-0.08,0.05,0.97,2,-0,-0,0.98,1.3,75,3199,6.5,3.72,,13.39,1.252,88.0,,27.2,5,,,,,,,,,,,,0,0,0,0,0,0,0,0,0,0,0,0,0,0,0,0,,,,,,0.0,,,,,,,
27193,1745476683156,,,,,,,,,,,,,,,,,,,,,,,,,,,,,,,,,,0,0,0,0,0,0,0,0,0,0,0,0,0,0,0,0,,,,,,,,,,,,,
27213,1745476683176,0.0,88,,-0.05,0.03,1.04,1,-0,0,1.04,1.3,80,3220,6.5,3.67,,13.39,1.25,88.0,,27.7,5,,,,,,,,,,,,0,0,0,0,0,0,0,0,0,0,0,0,0,0,0,0,,,,,,0.0,,,,,,,
27233,1745476683196,,,,,,,,,,,,,,,,,,,,,,,,,,,,,,,,,,0,0,0,0,0,0,0,0,0,0,0,0,0,0,0,0,,,,,,,,,,,,,
27253,1745476683216,0.0,102,,-0.05,-0.0,1.09,-1,-0,0,1.09,1.3,84,3137,6.6,3.72,,13.41,1.249,88.0,,27.7,5,0,0,0,0,0.0,0.0,0.0,0.0,2.25,,,0,0,0,0,0,0,0,0,0,0,0,0,0,0,0,0,,0,,,,0.0,38.994099,-76.939644,0.04,32.5,19,2,1.4
27273,1745476683236,,,,,,,,,,,,,,,,,,,,,,,,,,,,,,,,,,0,0,0,0,0,0,0,0,0,0,0,0,0,0,0,0,,,,,,,,,,,,,
27293,1745476683256,0.0,108,,-0.1,-0.03,1.02,-1,-0,-0,1.03,1.3,79,3231,6.5,3.73,,13.41,1.25,88.0,,27.7,5,,,,,,,,,,,,0,0,0,0,0,0,0,0,0,0,0,0,0,0,0,0,,,,,,0.0,,,,,,,
27313,1745476683276,,,,,,,,,,,,,,,,,,,,,,,,,,,,,,,,,,0,0,0,0,0,0,0,0,0,0,0,0,0,0,0,0,,,,,,,,,,,,,
27333,1745476683296,0.0,102,,-0.08,0.04,0.97,1,-0,-0,0.97,1.3,75,3231,6.3,3.72,,13.41,1.25,88.0,,27.5,5,,,,,,,,,,,,0,0,0,0,0,0,0,0,0,0,0,0,0,0,0,0,,,,,,0.0,,,,,,,
27353,1745476683318,,,,,,,,,,,,,,,,,,,,,,,0,0,0,0,0.0,0.0,0.0,0.0,2.27,,,0,0,0,0,0,0,0,0,0,0,0,0,0,0,0,0,,0,,,,,38.994099,-76.939644,0.0,32.5,19,2,1.4
27373,1745476683338,0.0,115,,-0.04,0.01,1.05,0,-0,0,1.05,1.3,81,3231,6.3,3.72,,13.41,1.249,88.0,,27.5,5,,,,,,,,,,,,0,0,0,0,0,0,0,0,0,0,0,0,0,0,0,0,,,,,,0.0,,,,,,,
27393,1745476683358,,,,,,,,,,,,,,,,,,,,,,,,,,,,,,,,,,0,0,0,0,0,0,0,0,0,0,0,0,0,0,0,0,,,,,,,,,,,,,
27413,1745476683378,0.0,95,,-0.08,-0.03,1.06,-2,-0,0,1.06,1.3,82,3200,6.2,3.72,,13.44,1.25,88.0,,27.9,5,,,,,,,,,,,,0,0,0,0,0,0,0,0,0,0,0,0,0,0,0,0,,,,,,0.0,,,,,,,
27433,1745476683398,,,,,,,,,,,,,,,,,,,,,,,,,,,,,,,,,,0,0,0,0,0,0,0,0,0,0,0,0,0,0,0,0,,,,,,,,,,,,,
27453,1745476683417,0.0,98,13.38,-0.1,0.03,0.97,1,-0,-0,0.98,1.3,75,3252,6.2,3.7,15,13.43,1.25,88.0,153,27.9,5,0,0,0,0,0.0,0.0,0.0,0.0,2.27,0,1.0,0,0,0,0,0,0,0,0,0,0,0,0,0,0,0,0,0,0,1.0,0,-0,0.0,38.994099,-76.939644,0.1,32.5,19,2,1.4
27473,1745476683437,,,,,,,,,,,,,,,,,,,,,,,,,,,,,,,,,,0,0,0,0,0,0,0,0,0,0,0,0,0,0,0,0,,,,,,,,,,,,,
27493,1745476683457,0.0,98,,-0.06,0.04,1.04,1,-0,0,1.04,1.3,80,3256,6.2,3.73,,13.43,1.252,88.0,,27.9,5,,,,,,,,,,,,0,0,0,0,0,0,0,0,0,0,0,0,0,0,0,0,,,,,,0.0,,,,,,,
27513,1745476683477,,,,,,,,,,,,,,,,,,,,,,,,,,,,,,,,,,0,0,0,0,0,0,0,0,0,0,0,0,0,0,0,0,,,,,,,,,,,,,
27533,1745476683497,0.0,95,,-0.09,-0.01,1.05,-2,-0,0,1.06,1.3,82,3234,6.3,3.7,,13.43,1.252,88.0,,28.3,5,,,,,,,,,,,,0,0,0,0,0,0,0,0,0,0,0,0,0,0,0,0,,,,,,0.0,,,,,,,
27553,1745476683513,,,,,,,,,,,,,,,,,,,,,,,0,0,0,0,0.0,0.0,0.0,0.0,2.26,,,0,0,0,0,0,0,0,0,0,0,0,0,0,0,0,0,,0,,,,,38.994099,-76.939644,0.13,32.5,19,2,1.4
27573,1745476683533,0.0,115,,-0.1,0.02,0.98,1,-0,-0,0.98,1.3,76,3234,6.3,3.7,,13.49,1.253,88.0,,28.3,5,,,,,,,,,,,,0,0,0,0,0,0,0,0,0,0,0,0,0,0,0,0,,,,,,0.0,,,,,,,
27593,1745476683553,,,,,,,,,,,,,,,,,,,,,,,,,,,,,,,,,,0,0,0,0,0,0,0,0,0,0,0,0,0,0,0,0,,,,,,,,,,,,,
27613,1745476683573,0.0,88,,-0.06,0.02,1.05,0,-0,0,1.05,1.3,81,3299,6.4,3.7,,13.43,1.252,88.0,,28.2,5,,,,,,,,,,,,0,0,0,0,0,0,0,0,0,0,0,0,0,0,0,0,,,,,,0.0,,,,,,,
27633,1745476683593,,,,,,,,,,,,,,,,,,,,,,,,,,,,,,,,,,0,0,0,0,0,0,0,0,0,0,0,0,0,0,0,0,,,,,,,,,,,,,
27653,1745476683615,0.0,105,,-0.09,-0.02,1.02,-1,-0,0,1.02,1.3,79,3247,6.6,3.75,,13.47,1.252,88.0,,28.2,5,0,0,0,0,0.0,0.0,0.0,0.0,2.26,,,0,0,0,0,0,0,0,0,0,0,0,0,0,0,0,0,,0,,,,0.0,38.994099,-76.939644,0.08,32.5,19,2,1.4
27673,1745476683635,,,,,,,,,,,,,,,,,,,,,,,,,,,,,,,,,,0,0,0,0,0,0,0,0,0,0,0,0,0,0,0,0,,,,,,,,,,,,,
27693,1745476683655,0.0,105,,-0.09,0.03,0.98,1,-0,-0,0.98,1.3,76,3220,6.8,3.75,,13.51,1.251,88.0,,28.2,5,,,,,,,,,,,,0,0,0,0,0,0,0,0,0,0,0,0,0,0,0,0,,,,,,0.0,,,,,,,
27713,1745476683675,,,,,,,,,,,,,,,,,,,,,,,,,,,,,,,,,,0,0,0,0,0,0,0,0,0,0,0,0,0,0,0,0,,,,,,,,,,,,,
27733,1745476683695,0.0,88,,-0.06,0.02,1.06,-0,-0,0,1.06,1.3,82,3292,6.8,3.77,,13.51,1.251,88.0,,27.8,5,,,,,,,,,,,,0,0,0,0,0,0,0,0,0,0,0,0,0,0,0,0,,,,,,0.0,,,,,,,
27753,1745476683715,,,,,,,,,,,,,,,,,,,,,,,0,0,0,0,0.0,0.0,0.0,0.0,2.26,,,0,0,0,0,0,0,0,0,0,0,0,0,0,0,0,0,,0,,,,,38.994099,-76.939644,0.08,32.5,19,2,1.4
27773,1745476683735,0.0,108,,-0.09,-0.02,1.0,-1,-0,0,1.0,1.3,77,3292,6.8,3.77,,13.47,1.25,88.0,,27.8,5,,,,,,,,,,,,0,0,0,0,0,0,0,0,0,0,0,0,0,0,0,0,,,,,,0.0,,,,,,,
27793,1745476683755,,,,,,,,,,,,,,,,,,,,,,,,,,,,,,,,,,0,0,0,0,0,0,0,0,0,0,0,0,0,0,0,0,,,,,,,,,,,,,
27813,1745476683775,0.0,95,,-0.06,0.03,1.0,1,-0,0,1.01,1.3,78,3306,6.7,3.77,,13.45,1.249,88.0,,28.8,5,,,,,,,,,,,,0,0,0,0,0,0,0,0,0,0,0,0,0,0,0,0,,,,,,0.0,,,,,,,
27833,1745476683795,,,,,,,,,,,,,,,,,,,,,,,,,,,,,,,,,,0,0,0,0,0,0,0,0,0,0,0,0,0,0,0,0,,,,,,,,,,,,,
27853,1745476683815,0.0,98,,-0.08,-0.03,1.03,-1,-0,0,1.03,1.3,80,3369,6.6,3.75,,13.48,1.249,88.0,,28.8,5,0,0,0,0,0.0,0.0,0.0,0.0,2.26,,,0,0,0,0,0,0,0,0,0,0,0,0,0,0,0,0,,0,,,,0.0,38.994099,-76.939644,0.04,32.5,19,2,1.4
27873,1745476683835,,,,,,,,,,,,,,,,,,,,,,,,,,,,,,,,,,0,0,0,0,0,0,0,0,0,0,0,0,0,0,0,0,,,,,,,,,,,,,
27893,1745476683855,0.0,95,,-0.07,0.08,0.98,1,-0,-0,0.98,1.3,76,3349,6.4,3.77,,13.43,1.248,88.0,,28.8,5,,,,,,,,,,,,0,0,0,0,0,0,0,0,0,0,0,0,0,0,0,0,,,,,,0.0,,,,,,,
27913,1745476683875,,,,,,,,,,,,,,,,,,,,,,,,,,,,,,,,,,0,0,0,0,0,0,0,0,0,0,0,0,0,0,0,0,,,,,,,,,,,,,
27933,1745476683895,0.0,102,,-0.08,0.01,1.02,-1,-0,0,1.03,1.3,79,3330,6.4,3.76,,13.43,1.248,88.0,,29.3,5,,,,,,,,,,,,0,0,0,0,0,0,0,0,0,0,0,0,0,0,0,0,,,,,,0.0,,,,,,,
27953,1745476683917,,,,,,,,,,,,,,,,,,,,,,,0,0,0,0,0.0,0.0,0.0,0.0,2.27,,,0,0,0,0,0,0,0,0,0,0,0,0,0,0,0,0,,0,,,,,38.994099,-76.939644,0.08,32.5,19,2,1.4
27973,1745476683937,0.0,108,,-0.08,0.06,0.96,1,-0,0,0.97,1.3,75,3330,6.4,3.76,,13.44,1.249,88.0,,29.3,5,,,,,,,,,,,,0,0,0,0,0,0,0,0,0,0,0,0,0,0,0,0,,,,,,0.0,,,,,,,
27993,1745476683957,,,,,,,,,,,,,,,,,,,,,,,,,,,,,,,,,,0,0,0,0,0,0,0,0,0,0,0,0,0,0,0,0,,,,,,,,,,,,,
28013,1745476683977,0.0,98,,-0.07,-0.01,1.02,-1,-0,0,1.02,1.3,79,3394,6.4,3.74,,13.43,1.25,88.0,,29.1,5,,,,,,,,,,,,0,0,0,0,0,0,0,0,0,0,0,0,0,0,0,0,,,,,,0.0,,,,,,,
28033,1745476683997,,,,,,,,,,,,,,,,,,,,,,,,,,,,,,,,,,0,0,0,0,0,0,0,0,0,0,0,0,0,0,0,0,,,,,,,,,,,,,
28053,1745476684011,0.0,88,,-0.08,0.05,0.97,1,-0,0,0.98,1.3,75,3342,6.4,3.73,,13.39,1.252,88.0,,29.1,5,0,0,0,0,0.0,0.0,0.0,0.0,2.26,,,0,0,0,0,0,0,0,0,0,0,0,0,0,0,0,0,,0,,,,0.0,38.994099,-76.939644,0.05,32.5,20,2,1.4
28073,1745476684031,,,,,,,,,,,,,,,,,,,,,,,,,,,,,,,,,,0,0,0,0,0,0,0,0,0,0,0,0,0,0,0,0,,,,,,,,,,,,,
28093,1745476684051,0.0,95,,-0.08,-0.0,1.04,-2,-0,0,1.05,1.3,81,3361,6.6,3.75,,13.4,1.251,88.0,,29.1,5,,,,,,,,,,,,0,0,0,0,0,0,0,0,0,0,0,0,0,0,0,0,,,,,,0.0,,,,,,,
28113,1745476684071,,,,,,,,,,,,,,,,,,,,,,,,,,,,,,,,,,0,0,0,0,0,0,0,0,0,0,0,0,0,0,0,0,,,,,,,,,,,,,
28133,1745476684091,0.0,95,,-0.08,0.05,0.96,1,-0,0,0.97,1.3,75,3386,6.7,3.73,,13.4,1.251,88.0,,28.7,5,,,,,,,,,,,,0,0,0,0,0,0,0,0,0,0,0,0,0,0,0,0,,,,,,0.0,,,,,,,
28153,1745476684115,,,,,,,,,,,,,,,,,,,,,,,0,0,0,0,0.0,0.0,0.0,0.0,2.26,,,0,0,0,0,0,0,0,0,0,0,0,0,0,0,0,0,,0,,,,,38.994099,-76.939644,0.09,32.5,20,2,1.4
28173,1745476684135,0.0,105,,-0.06,0.01,1.06,-1,-0,0,1.06,1.3,82,3386,6.7,3.73,,13.39,1.251,88.0,,28.7,5,,,,,,,,,,,,0,0,0,0,0,0,0,0,0,0,0,0,0,0,0,0,,,,,,0.0,,,,,,,
28193,1745476684155,,,,,,,,,,,,,,,,,,,,,,,,,,,,,,,,,,0,0,0,0,0,0,0,0,0,0,0,0,0,0,0,0,,,,,,,,,,,,,
28213,1745476684175,0.0,108,,-0.08,0.03,0.97,1,-0,0,0.97,1.3,75,3314,6.8,3.75,,13.44,1.251,88.0,,28.9,5,,,,,,,,,,,,0,0,0,0,0,0,0,0,0,0,0,0,0,0,0,0,,,,,,0.0,,,,,,,
28233,1745476684195,,,,,,,,,,,,,,,,,,,,,,,,,,,,,,,,,,0,0,0,0,0,0,0,0,0,0,0,0,0,0,0,0,,,,,,,,,,,,,
28253,1745476684215,0.0,98,,-0.08,-0.04,1.03,-2,-0,0,1.03,1.3,80,3436,6.9,3.76,,13.41,1.25,88.0,,28.9,5,0,0,0,0,0.0,0.0,0.0,0.0,2.26,,,0,0,0,0,0,0,0,0,0,0,0,0,0,0,0,0,,0,,,,0.0,38.994099,-76.939644,0.1,32.5,20,2,1.4
28273,1745476684235,,,,,,,,,,,,,,,,,,,,,,,,,,,,,,,,,,0,0,0,0,0,0,0,0,0,0,0,0,0,0,0,0,,,,,,,,,,,,,
28293,1745476684255,0.0,102,,-0.06,0.08,1.01,1,-0,0,1.01,1.3,78,3412,6.9,3.78,,13.35,1.249,88.0,,28.9,5,,,,,,,,,,,,0,0,0,0,0,0,0,0,0,0,0,0,0,0,0,0,,,,,,0.0,,,,,,,
28313,1745476684275,,,,,,,,,,,,,,,,,,,,,,,,,,,,,,,,,,0,0,0,0,0,0,0,0,0,0,0,0,0,0,0,0,,,,,,,,,,,,,
28333,1745476684295,0.0,102,,-0.08,-0.02,1.01,-1,-0,-0,1.01,1.3,78,3448,6.7,3.76,,13.35,1.249,88.0,,29.7,5,,,,,,,,,,,,0,0,0,0,0,0,0,0,0,0,0,0,0,0,0,0,,,,,,0.0,,,,,,,
28353,1745476684316,,,,,,,,,,,,,,,,,,,,,,,0,0,0,0,0.0,0.0,0.0,0.0,2.26,,,0,0,0,0,0,0,0,0,0,0,0,0,0,0,0,0,,0,,,,,38.994099,-76.939644,0.11,32.5,20,2,1.4
28373,1745476684336,0.0,95,,-0.07,-0.01,1.04,-0,-0,0,1.04,1.3,80,3448,6.7,3.76,,13.36,1.249,88.0,,29.7,5,,,,,,,,,,,,0,0,0,0,0,0,0,0,0,0,0,0,0,0,0,0,,,,,,0.0,,,,,,,
28393,1745476684356,,,,,,,,,,,,,,,,,,,,,,,,,,,,,,,,,,0,0,0,0,0,0,0,0,0,0,0,0,0,0,0,0,,,,,,,,,,,,,
28413,1745476684376,0.0,105,,-0.08,-0.04,0.97,1,-0,-0,0.97,1.3,75,3461,6.5,3.75,,13.32,1.249,88.0,,30.2,5,,,,,,,,,,,,0,0,0,0,0,0,0,0,0,0,0,0,0,0,0,0,,,,,,0.0,,,,,,,
28433,1745476684396,,,,,,,,,,,,,,,,,,,,,,,,,,,,,,,,,,0,0,0,0,0,0,0,0,0,0,0,0,0,0,0,0,,,,,,,,,,,,,
28453,1745476684416,0.0,88,13.42,-0.08,-0.1,1.05,-1,-0,0,1.06,1.3,82,3437,6.5,3.76,15,13.32,1.249,88.0,153,30.2,5,0,0,0,0,0.0,0.0,0.0,0.0,2.26,0,1.0,0,0,0,0,0,0,0,0,0,0,0,0,0,0,0,0,0,0,1.0,0,-0,0.0,38.994099,-76.939644,0.04,32.5,20,2,1.4
28473,1745476684436,,,,,,,,,,,,,,,,,,,,,,,,,,,,,,,,,,0,0,0,0,0,0,0,0,0,0,0,0,0,0,0,0,,,,,,,,,,,,,
28493,1745476684456,0.0,85,,-0.06,-0.0,1.02,1,-0,0,1.02,1.3,79,3498,6.6,3.77,,13.25,1.25,88.0,,30.2,5,,,,,,,,,,,,0,0,0,0,0,0,0,0,0,0,0,0,0,0,0,0,,,,,,0.0,,,,,,,
28513,1745476684476,,,,,,,,,,,,,,,,,,,,,,,,,,,,,,,,,,0,0,0,0,0,0,0,0,0,0,0,0,0,0,0,0,,,,,,,,,,,,,
28533,1745476684496,0.0,112,,-0.09,-0.01,0.98,-0,-0,-0,0.99,1.3,76,3494,6.5,3.74,,13.25,1.25,88.0,,30.6,5,,,,,,,,,,,,0,0,0,0,0,0,0,0,0,0,0,0,0,0,0,0,,,,,,0.0,,,,,,,
28553,1745476684514,,,,,,,,,,,,,,,,,,,,,,,0,0,0,0,0.0,0.0,0.0,0.0,2.27,,,0,0,0,0,0,0,0,0,0,0,0,0,0,0,0,0,,0,,,,,38.994099,-76.939644,0.12,32.4,20,2,1.4
28573,1745476684534,0.0,102,,-0.08,-0.03,1.03,-2,-0,0,1.03,1.3,79,3494,6.5,3.74,,13.27,1.252,88.0,,30.6,5,,,,,,,,,,,,0,0,0,0,0,0,0,0,0,0,0,0,0,0,0,0,,,,,,0.0,,,,,,,
28593,1745476684554,,,,,,,,,,,,,,,,,,,,,,,,,,,,,,,,,,0,0,0,0,0,0,0,0,0,0,0,0,0,0,0,0,,,,,,,,,,,,,
28613,1745476684574,0.0,85,,-0.08,0.01,1.04,-1,-0,1,1.04,1.3,80,3534,6.6,3.74,,13.27,1.252,88.0,,30.9,5,,,,,,,,,,,,0,0,0,0,0,0,0,0,0,0,0,0,0,0,0,0,,,,,,0.0,,,,,,,
28633,1745476684594,,,,,,,,,,,,,,,,,,,,,,,,,,,,,,,,,,0,0,0,0,0,0,0,0,0,0,0,0,0,0,0,0,,,,,,,,,,,,,
28653,1745476684614,0.0,108,,-0.08,0.01,0.99,1,-0,0,1.0,1.3,77,3551,6.7,3.75,,13.21,1.253,88.0,,30.9,5,0,0,0,0,0.0,0.0,0.0,0.0,2.26,,,0,0,0,0,0,0,0,0,0,0,0,0,0,0,0,0,,0,,,,0.0,38.994099,-76.939644,0.04,32.4,20,2,1.4
28673,1745476684634,,,,,,,,,,,,,,,,,,,,,,,,,,,,,,,,,,0,0,0,0,0,0,0,0,0,0,0,0,0,0,0,0,,,,,,,,,,,,,
28693,1745476684654,0.0,108,,-0.11,0.02,0.96,0,-0,0,0.97,1.3,75,3655,6.9,3.75,,13.13,1.253,88.0,,30.9,5,,,,,,,,,,,,0,0,0,0,0,0,0,0,0,0,0,0,0,0,0,0,,,,,,0.0,,,,,,,
28713,1745476684674,,,,,,,,,,,,,,,,,,,,,,,,,,,,,,,,,,0,0,0,0,0,0,0,0,0,0,0,0,0,0,0,0,,,,,,,,,,,,,
28733,1745476684694,0.0,95,,-0.11,-0.03,0.97,-1,-0,0,0.98,1.3,76,3631,6.7,3.76,,13.13,1.253,88.0,,32.1,5,,,,,,,,,,,,0,0,0,0,0,0,0,0,0,0,0,0,0,0,0,0,,,,,,0.0,,,,,,,
28753,1745476684714,,,,,,,,,,,,,,,,,,,,,,,0,0,0,0,0.0,0.0,0.0,0.0,2.26,,,0,0,0,0,0,0,0,0,0,0,0,0,0,0,0,0,,0,,,,,38.994099,-76.939644,0.0,32.4,20,2,1.4
28773,1745476684734,0.0,95,,-0.09,-0.04,0.97,-2,-0,0,0.98,1.3,76,3631,6.7,3.76,,13.11,1.251,88.0,,32.1,5,,,,,,,,,,,,0,0,0,0,0,0,0,0,0,0,0,0,0,0,0,0,,,,,,0.0,,,,,,,
28793,1745476684754,,,,,,,,,,,,,,,,,,,,,,,,,,,,,,,,,,0,0,0,0,0,0,0,0,0,0,0,0,0,0,0,0,,,,,,,,,,,,,
28813,1745476684774,0.0,81,,-0.11,-0.03,1.0,-2,-0,0,1.0,1.3,77,3670,6.6,3.75,,13.05,1.25,88.0,,32.1,5,,,,,,,,,,,,0,0,0,0,0,0,0,0,0,0,0,0,0,0,0,0,,,,,,0.0,,,,,,,
28833,1745476684794,,,,,,,,,,,,,,,,,,,,,,,,,,,,,,,,,,0,0,0,0,0,0,0,0,0,0,0,0,0,0,0,0,,,,,,,,,,,,,
28853,1745476684814,0.0,98,,-0.09,0.0,1.03,-1,-0,1,1.03,1.3,79,3641,6.6,3.75,,13.08,1.248,88.0,,32.1,5,0,0,0,0,0.0,0.0,0.0,0.0,2.26,,,0,0,0,0,0,0,0,0,0,0,0,0,0,0,0,0,,0,,,,0.0,38.994099,-76.939644,0.08,32.4,20,2,1.4
28873,1745476684834,,,,,,,,,,,,,,,,,,,,,,,,,,,,,,,,,,0,0,0,0,0,0,0,0,0,0,0,0,0,0,0,0,,,,,,,,,,,,,
28893,1745476684854,0.0,98,,-0.08,0.05,1.02,-0,-0,0,1.03,1.3,79,3728,6.4,3.74,,12.99,1.249,88.0,,32.1,5,,,,,,,,,,,,0,0,0,0,0,0,0,0,0,0,0,0,0,0,0,0,,,,,,0.0,,,,,,,
28913,1745476684874,,,,,,,,,,,,,,,,,,,,,,,,,,,,,,,,,,0,0,0,0,0,0,0,0,0,0,0,0,0,0,0,0,,,,,,,,,,,,,
28933,1745476684894,0.0,88,,-0.07,0.06,1.03,0,-0,0,1.03,1.3,80,3682,6.2,3.76,,12.99,1.249,88.0,,32.7,5,,,,,,,,,,,,0,0,0,0,0,0,0,0,0,0,0,0,0,0,0,0,,,,,,0.0,,,,,,,
28953,1745476684916,,,,,,,,,,,,,,,,,,,,,,,0,0,0,0,0.0,0.0,0.0,0.0,2.27,,,0,0,0,0,0,0,0,0,0,0,0,0,0,0,0,0,,0,,,,,38.994099,-76.939644,0.13,32.4,20,2,1.4
28973,1745476684936,0.0,102,,-0.08,0.07,1.05,1,-0,0,1.05,1.3,81,3682,6.2,3.76,,12.93,1.249,88.0,,32.7,5,,,,,,,,,,,,0,0,0,0,0,0,0,0,0,0,0,0,0,0,0,0,,,,,,0.0,,,,,,,
28993,1745476684956,,,,,,,,,,,,,,,,,,,,,,,,,,,,,,,,,,0,0,0,0,0,0,0,0,0,0,0,0,0,0,0,0,,,,,,,,,,,,,
29013,1745476684976,0.0,81,,-0.06,0.05,1.03,1,-0,0,1.03,1.3,80,3721,6.2,3.73,,12.95,1.249,88.0,,33.0,5,,,,,,,,,,,,0,0,0,0,0,0,0,0,0,0,0,0,0,0,0,0,,,,,,0.0,,,,,,,
29033,1745476684996,,,,,,,,,,,,,,,,,,,,,,,,,,,,,,,,,,0,0,0,0,0,0,0,0,0,0,0,0,0,0,0,0,,,,,,,,,,,,,
29053,1745476685008,0.0,88,,-0.06,0.02,1.02,1,-0,0,1.02,1.3,79,3776,6.2,3.72,,12.92,1.246,88.0,,33.0,5,0,0,0,0,0.0,0.0,0.0,0.0,2.27,,,0,0,0,0,0,0,0,0,0,0,0,0,0,0,0,0,,0,,,,0.0,38.994099,-76.939644,0.08,32.4,20,2,1.4
29073,1745476685028,,,,,,,,,,,,,,,,,,,,,,,,,,,,,,,,,,0,0,0,0,0,0,0,0,0,0,0,0,0,0,0,0,,,,,,,,,,,,,
29093,1745476685048,0.0,91,,-0.06,0.01,1.02,1,-0,0,1.02,1.3,79,3755,6.2,3.73,,12.91,1.248,88.0,,33.0,5,,,,,,,,,,,,0,0,0,0,0,0,0,0,0,0,0,0,0,0,0,0,,,,,,0.0,,,,,,,
29113,1745476685068,,,,,,,,,,,,,,,,,,,,,,,,,,,,,,,,,,0,0,0,0,0,0,0,0,0,0,0,0,0,0,0,0,,,,,,,,,,,,,
29133,1745476685088,0.0,85,,-0.07,0.01,1.04,0,-0,0,1.04,1.3,80,3799,6.3,3.73,,12.91,1.248,88.0,,33.2,5,,,,,,,,,,,,0,0,0,0,0,0,0,0,0,0,0,0,0,0,0,0,,,,,,0.0,,,,,,,
29153,1745476685114,,,,,,,,,,,,,,,,,,,,,,,0,0,0,0,0.0,0.0,0.0,0.0,2.26,,,0,0,0,0,0,0,0,0,0,0,0,0,0,0,0,0,,0,,,,,38.994099,-76.939644,0.08,32.4,20,2,1.4
29173,1745476685134,0.0,102,,-0.06,-0.01,1.03,-0,-0,0,1.03,1.3,79,3799,6.3,3.73,,12.92,1.25,88.0,,33.2,5,,,,,,,,,,,,0,0,0,0,0,0,0,0,0,0,0,0,0,0,0,0,,,,,,0.0,,,,,,,
29193,1745476685154,,,,,,,,,,,,,,,,,,,,,,,,,,,,,,,,,,0,0,0,0,0,0,0,0,0,0,0,0,0,0,0,0,,,,,,,,,,,,,
29213,1745476685174,0.0,95,,-0.05,0.0,1.01,-0,-0,0,1.01,1.3,78,3766,6.5,3.73,,12.84,1.244,88.0,,33.1,5,,,,,,,,,,,,0,0,0,0,0,0,0,0,0,0,0,0,0,0,0,0,,,,,,0.0,,,,,,,
29233,1745476685194,,,,,,,,,,,,,,,,,,,,,,,,,,,,,,,,,,0,0,0,0,0,0,0,0,0,0,0,0,0,0,0,0,,,,,,,,,,,,,
29253,1745476685214,0.0,95,,-0.06,0.0,0.98,-0,-0,0,0.99,1.3,76,3811,6.5,3.73,,12.8,1.251,88.0,,33.1,5,0,0,0,0,0.0,0.0,0.0,0.0,2.26,,,0,0,0,0,0,0,0,0,0,0,0,0,0,0,0,0,,0,,,,0.0,38.994099,-76.939644,0.05,32.4,20,2,1.4
29273,1745476685234,,,,,,,,,,,,,,,,,,,,,,,,,,,,,,,,,,0,0,0,0,0,0,0,0,0,0,0,0,0,0,0,0,,,,,,,,,,,,,
29293,1745476685254,0.0,108,,-0.09,0.02,0.98,-1,-0,0,0.98,1.3,76,3756,6.6,3.72,,12.83,1.25,88.0,,33.1,5,,,,,,,,,,,,0,0,0,0,0,0,0,0,0,0,0,0,0,0,0,0,,,,,,0.0,,,,,,,
29313,1745476685274,,,,,,,,,,,,,,,,,,,,,,,,,,,,,,,,,,0,0,0,0,0,0,0,0,0,0,0,0,0,0,0,0,,,,,,,,,,,,,
29333,1745476685294,0.0,91,,-0.08,0.0,1.0,-1,-0,0,1.0,1.3,77,3748,6.5,3.75,,12.83,1.25,88.0,,33.8,5,,,,,,,,,,,,0,0,0,0,0,0,0,0,0,0,0,0,0,0,0,0,,,,,,0.0,,,,,,,
29353,1745476685318,,,,,,,,,,,,,,,,,,,,,,,0,0,0,0,0.0,0.0,0.0,0.0,2.26,,,0,0,0,0,0,0,0,0,0,0,0,0,0,0,0,0,,0,,,,,38.994099,-76.939644,0.0,32.3,20,2,1.4
29373,1745476685338,0.0,98,,-0.08,-0.01,0.99,-1,-0,0,0.99,1.3,76,3748,6.5,3.75,,12.75,1.247,88.0,,33.8,5,,,,,,,,,,,,0,0,0,0,0,0,0,0,0,0,0,0,0,0,0,0,,,,,,0.0,,,,,,,
29393,1745476685358,,,,,,,,,,,,,,,,,,,,,,,,,,,,,,,,,,0,0,0,0,0,0,0,0,0,0,0,0,0,0,0,0,,,,,,,,,,,,,
29413,1745476685378,0.0,91,,-0.07,-0.03,0.97,-0,-0,0,0.98,1.3,75,3812,6.1,3.73,,12.81,1.247,88.0,,33.6,5,,,,,,,,,,,,0,0,0,0,0,0,0,0,0,0,0,0,0,0,0,0,,,,,,0.0,,,,,,,
29433,1745476685398,,,,,,,,,,,,,,,,,,,,,,,,,,,,,,,,,,0,0,0,0,0,0,0,0,0,0,0,0,0,0,0,0,,,,,,,,,,,,,
29453,1745476685417,0.0,88,13.43,-0.08,-0.06,0.96,-0,-0,-0,0.97,1.3,75,3730,6.0,3.72,15,12.77,1.246,88.0,153,33.6,5,0,0,0,0,0.0,0.0,0.0,0.0,2.27,0,1.0,0,0,0,0,0,0,0,0,0,0,0,0,0,0,0,0,0,0,1.0,0,-0,0.0,38.994099,-76.939644,0.11,32.3,20,2,1.4
29473,1745476685437,,,,,,,,,,,,,,,,,,,,,,,,,,,,,,,,,,0,0,0,0,0,0,0,0,0,0,0,0,0,0,0,0,,,,,,,,,,,,,
29493,1745476685457,0.0,102,,-0.08,-0.07,0.99,-1,-0,-0,1.0,1.3,77,3772,6.0,3.71,,12.73,1.244,88.0,,33.6,5,,,,,,,,,,,,0,0,0,0,0,0,0,0,0,0,0,0,0,0,0,0,,,,,,0.0,,,,,,,
29513,1745476685477,,,,,,,,,,,,,,,,,,,,,,,,,,,,,,,,,,0,0,0,0,0,0,0,0,0,0,0,0,0,0,0,0,,,,,,,,,,,,,
29533,1745476685497,0.0,91,,-0.08,-0.06,0.98,-0,-0,-0,0.99,1.3,76,3749,5.7,3.7,,12.73,1.244,88.0,,33.3,5,,,,,,,,,,,,0,0,0,0,0,0,0,0,0,0,0,0,0,0,0,0,,,,,,0.0,,,,,,,
29553,1745476685513,,,,,,,,,,,,,,,,,,,,,,,0,0,0,0,0.0,0.0,0.0,0.0,2.27,,,0,0,0,0,0,0,0,0,0,0,0,0,0,0,0,0,,0,,,,,38.994099,-76.939644,0.04,32.3,20,2,1.4
29573,1745476685533,0.0,102,,-0.07,-0.06,0.96,0,-0,-0,0.97,1.3,75,3749,5.7,3.7,,12.75,1.245,88.0,,33.3,5,,,,,,,,,,,,0,0,0,0,0,0,0,0,0,0,0,0,0,0,0,0,,,,,,0.0,,,,,,,
29593,1745476685553,,,,,,,,,,,,,,,,,,,,,,,,,,,,,,,,,,0,0,0,0,0,0,0,0,0,0,0,0,0,0,0,0,,,,,,,,,,,,,
29613,1745476685573,0.0,98,,-0.07,-0.07,0.95,1,-0,-0,0.96,1.3,74,3821,5.7,3.7,,12.71,1.244,88.0,,33.2,5,,,,,,,,,,,,0,0,0,0,0,0,0,0,0,0,0,0,0,0,0,0,,,,,,0.0,,,,,,,
29633,1745476685593,,,,,,,,,,,,,,,,,,,,,,,,,,,,,,,,,,0,0,0,0,0,0,0,0,0,0,0,0,0,0,0,0,,,,,,,,,,,,,
29653,1745476685613,0.0,91,,-0.08,-0.05,0.97,1,-0,-0,0.98,1.3,75,3815,5.8,3.69,,12.76,1.211,88.0,,33.2,5,0,0,0,0,0.0,0.0,0.0,0.0,2.26,,,0,0,0,0,0,0,0,0,0,0,0,0,0,0,0,0,,0,,,,0.0,38.994099,-76.939644,0.04,32.3,20,2,1.4
29673,1745476685633,,,,,,,,,,,,,,,,,,,,,,,,,,,,,,,,,,0,0,0,0,0,0,0,0,0,0,0,0,0,0,0,0,,,,,,,,,,,,,
29693,1745476685653,0.0,95,,-0.09,-0.03,0.99,1,-0,-0,1.0,1.3,77,3773,6.0,3.71,,12.73,1.207,88.0,,33.2,5,,,,,,,,,,,,0,0,0,0,0,0,0,0,0,0,0,0,0,0,0,0,,,,,,0.0,,,,,,,
29713,1745476685673,,,,,,,,,,,,,,,,,,,,,,,,,,,,,,,,,,0,0,0,0,0,0,0,0,0,0,0,0,0,0,0,0,,,,,,,,,,,,,
29733,1745476685693,0.0,74,,-0.08,-0.01,1.02,1,-0,-0,1.02,1.3,79,3826,6.1,3.69,,12.73,1.207,88.0,,33.2,5,,,,,,,,,,,,0,0,0,0,0,0,0,0,0,0,0,0,0,0,0,0,,,,,,0.0,,,,,,,
29753,1745476685713,,,,,,,,,,,,,,,,,,,,,,,0,0,0,0,0.0,0.0,0.0,0.0,2.26,,,0,0,0,0,0,0,0,0,0,0,0,0,0,0,0,0,,0,,,,,38.994099,-76.939644,0.0,32.3,20,2,1.4
29773,1745476685733,0.0,78,,-0.06,-0.0,1.01,1,-0,-0,1.01,1.3,78,3826,6.1,3.69,,12.71,1.2,88.0,,33.2,5,,,,,,,,,,,,0,0,0,0,0,0,0,0,0,0,0,0,0,0,0,0,,,,,,0.0,,,,,,,
29793,1745476685753,,,,,,,,,,,,,,,,,,,,,,,,,,,,,,,,,,0,0,0,0,0,0,0,0,0,0,0,0,0,0,0,0,,,,,,,,,,,,,
29813,1745476685773,0.0,98,,-0.06,-0.05,1.02,1,-0,0,1.02,1.3,79,3811,6.3,3.72,,12.72,1.216,88.0,,33.4,5,,,,,,,,,,,,0,0,0,0,0,0,0,0,0,0,0,0,0,0,0,0,,,,,,0.0,,,,,,,
29833,1745476685793,,,,,,,,,,,,,,,,,,,,,,,,,,,,,,,,,,0,0,0,0,0,0,0,0,0,0,0,0,0,0,0,0,,,,,,,,,,,,,
29853,1745476685813,0.0,71,,-0.07,-0.07,1.02,0,-0,0,1.02,1.3,79,3848,6.2,3.72,,12.72,1.24,88.0,,33.4,5,0,0,0,0,0.0,0.0,0.0,0.0,2.26,,,0,0,0,0,0,0,0,0,0,0,0,0,0,0,0,0,,0,,,,0.0,38.994099,-76.939644,0.0,32.3,20,2,1.4
29873,1745476685833,,,,,,,,,,,,,,,,,,,,,,,,,,,,,,,,,,0,0,0,0,0,0,0,0,0,0,0,0,0,0,0,0,,,,,,,,,,,,,
29893,1745476685853,0.0,74,,-0.09,-0.09,1.01,-1,-0,0,1.02,1.3,78,3804,6.1,3.72,,12.79,1.221,88.0,,33.4,5,,,,,,,,,,,,0,0,0,0,0,0,0,0,0,0,0,0,0,0,0,0,,,,,,0.0,,,,,,,
29913,1745476685873,,,,,,,,,,,,,,,,,,,,,,,,,,,,,,,,,,0,0,0,0,0,0,0,0,0,0,0,0,0,0,0,0,,,,,,,,,,,,,
29933,1745476685893,0.0,74,,-0.09,-0.11,1.01,-2,-0,0,1.02,1.3,79,3797,6.0,3.72,,12.79,1.221,88.0,,33.5,5,,,,,,,,,,,,0,0,0,0,0,0,0,0,0,0,0,0,0,0,0,0,,,,,,0.0,,,,,,,
29953,1745476685915,,,,,,,,,,,,,,,,,,,,,,,0,0,0,0,0.0,0.0,0.0,0.0,2.27,,,0,0,0,0,0,0,0,0,0,0,0,0,0,0,0,0,,0,,,,,38.994099,-76.939644,0.04,32.3,20,2,1.4
29973,1745476685935,0.0,68,,-0.09,-0.09,1.0,-2,-0,0,1.0,1.3,78,3797,6.0,3.72,,12.71,1.219,88.0,,33.5,5,,,,,,,,,,,,0,0,0,0,0,0,0,0,0,0,0,0,0,0,0,0,,,,,,0.0,,,,,,,
29993,1745476685955,,,,,,,,,,,,,,,,,,,,,,,,,,,,,,,,,,0,0,0,0,0,0,0,0,0,0,0,0,0,0,0,0,,,,,,,,,,,,,
30013,1745476685975,0.0,71,,-0.08,-0.09,0.97,-2,-0,-0,0.98,1.3,75,3828,5.9,3.71,,12.69,1.215,88.0,,34.1,5,,,,,,,,,,,,0,0,0,0,0,0,0,0,0,0,0,0,0,0,0,0,,,,,,0.0,,,,,,,
30033,1745476685995,,,,,,,,,,,,,,,,,,,,,,,,,,,,,,,,,,0,0,0,0,0,0,0,0,0,0,0,0,0,0,0,0,,,,,,,,,,,,,
30053,1745476686009,0.0,64,,-0.09,-0.13,0.95,-1,-0,-0,0.97,1.3,75,3786,5.9,3.72,,12.75,1.218,88.0,,34.1,5,0,0,0,0,0.0,0.0,0.0,0.0,2.27,,,0,0,0,0,0,0,0,0,0,0,0,0,0,0,0,0,,0,,,,0.0,38.994099,-76.939644,0.11,32.3,20,2,1.4
30073,1745476686029,,,,,,,,,,,,,,,,,,,,,,,,,,,,,,,,,,0,0,0,0,0,0,0,0,0,0,0,0,0,0,0,0,,,,,,,,,,,,,
30093,1745476686049,0.0,64,,-0.09,-0.09,0.97,-1,-0,-0,0.98,1.3,76,3828,5.9,3.7,,12.72,1.216,88.0,,34.1,5,,,,,,,,,,,,0,0,0,0,0,0,0,0,0,0,0,0,0,0,0,0,,,,,,0.0,,,,,,,
30113,1745476686069,,,,,,,,,,,,,,,,,,,,,,,,,,,,,,,,,,0,0,0,0,0,0,0,0,0,0,0,0,0,0,0,0,,,,,,,,,,,,,
30133,1745476686089,0.0,71,,-0.09,-0.07,0.98,-0,-0,-0,0.99,1.3,76,3752,5.8,3.7,,12.72,1.216,88.0,,33.7,5,,,,,,,,,,,,0,0,0,0,0,0,0,0,0,0,0,0,0,0,0,0,,,,,,0.0,,,,,,,
30153,1745476686115,,,,,,,,,,,,,,,,,,,,,,,0,0,0,0,0.0,0.0,0.0,0.0,2.26,,,0,0,0,0,0,0,0,0,0,0,0,0,0,0,0,0,,0,,,,,38.994099,-76.939644,0.11,32.3,20,2,1.4
30173,1745476686135,0.0,95,,-0.07,-0.02,0.98,-0,-0,-0,0.98,1.3,76,3752,5.8,3.7,,12.73,1.218,88.0,,33.7,5,,,,,,,,,,,,0,0,0,0,0,0,0,0,0,0,0,0,0,0,0,0,,,,,,0.0,,,,,,,
30193,1745476686155,,,,,,,,,,,,,,,,,,,,,,,,,,,,,,,,,,0,0,0,0,0,0,0,0,0,0,0,0,0,0,0,0,,,,,,,,,,,,,
30213,1745476686175,0.0,88,,-0.07,-0.01,0.97,1,-0,-0,0.98,1.3,75,3779,6.0,3.69,,12.8,1.209,88.0,,33.0,5,,,,,,,,,,,,0,0,0,0,0,0,0,0,0,0,0,0,0,0,0,0,,,,,,0.0,,,,,,,
30233,1745476686195,,,,,,,,,,,,,,,,,,,,,,,,,,,,,,,,,,0,0,0,0,0,0,0,0,0,0,0,0,0,0,0,0,,,,,,,,,,,,,
30253,1745476686215,0.0,74,,-0.09,0.03,0.98,1,-0,-0,0.99,1.3,76,3779,6.2,3.72,,12.8,1.213,88.0,,33.0,5,0,0,0,0,0.0,0.0,0.0,0.0,2.26,,,0,0,0,0,0,0,0,0,0,0,0,0,0,0,0,0,,0,,,,0.0,38.994099,-76.939644,0.12,32.2,20,2,1.4
30273,1745476686235,,,,,,,,,,,,,,,,,,,,,,,,,,,,,,,,,,0,0,0,0,0,0,0,0,0,0,0,0,0,0,0,0,,,,,,,,,,,,,
30293,1745476686255,0.0,71,,-0.09,0.04,0.99,0,-0,-0,1.0,1.3,77,3720,6.4,3.73,,12.8,1.203,88.0,,33.0,5,,,,,,,,,,,,0,0,0,0,0,0,0,0,0,0,0,0,0,0,0,0,,,,,,0.0,,,,,,,
30313,1745476686275,,,,,,,,,,,,,,,,,,,,,,,,,,,,,,,,,,0,0,0,0,0,0,0,0,0,0,0,0,0,0,0,0,,,,,,,,,,,,,
30333,1745476686295,0.0,64,,-0.08,0.05,1.0,0,-0,0,1.0,1.3,77,3793,6.4,3.73,,12.8,1.203,88.0,,32.8,5,,,,,,,,,,,,0,0,0,0,0,0,0,0,0,0,0,0,0,0,0,0,,,,,,0.0,,,,,,,
30353,1745476686315,,,,,,,,,,,,,,,,,,,,,,,0,0,0,0,0.0,0.0,0.0,0.0,2.26,,,0,0,0,0,0,0,0,0,0,0,0,0,0,0,0,0,,0,,,,,38.994099,-76.939644,0.04,32.2,20,2,1.4
30373,1745476686335,0.0,81,,-0.07,0.06,0.99,1,-0,-0,0.99,1.3,77,3793,6.4,3.73,,12.85,1.209,88.0,,32.8,5,,,,,,,,,,,,0,0,0,0,0,0,0,0,0,0,0,0,0,0,0,0,,,,,,0.0,,,,,,,
30393,1745476686355,,,,,,,,,,,,,,,,,,,,,,,,,,,,,,,,,,0,0,0,0,0,0,0,0,0,0,0,0,0,0,0,0,,,,,,,,,,,,,
30413,1745476686375,0.0,71,,-0.09,0.07,0.99,1,-0,0,1.0,1.3,77,3773,6.4,3.74,,12.83,1.223,88.0,,32.9,5,,,,,,,,,,,,0,0,0,0,0,0,0,0,0,0,0,0,0,0,0,0,,,,,,0.0,,,,,,,
30433,1745476686395,,,,,,,,,,,,,,,,,,,,,,,,,,,,,,,,,,0,0,0,0,0,0,0,0,0,0,0,0,0,0,0,0,,,,,,,,,,,,,
30453,1745476686414,0.0,64,13.33,-0.09,0.06,1.03,1,-0,0,1.04,1.3,80,3831,6.6,3.75,15,12.81,1.229,88.0,155,32.9,5,0,0,0,0,0.0,0.0,0.0,0.0,2.27,0,1.0,0,0,0,0,0,0,0,0,0,0,0,0,0,0,0,0,0,0,1.0,0,-0,0.0,38.994099,-76.939644,0.18,32.2,20,2,1.4
30473,1745476686434,,,,,,,,,,,,,,,,,,,,,,,,,,,,,,,,,,0,0,0,0,0,0,0,0,0,0,0,0,0,0,0,0,,,,,,,,,,,,,
30493,1745476686454,0.0,68,,-0.09,0.03,1.05,-0,-0,0,1.06,1.3,82,3846,7.4,3.81,,12.89,1.219,88.0,,32.9,5,,,,,,,,,,,,0,0,0,0,0,0,0,0,0,0,0,0,0,0,0,0,,,,,,0.0,,,,,,,
30513,1745476686474,,,,,,,,,,,,,,,,,,,,,,,,,,,,,,,,,,0,0,0,0,0,0,0,0,0,0,0,0,0,0,0,0,,,,,,,,,,,,,
30533,1745476686494,0.0,64,,-0.08,0.01,1.02,-1,-0,0,1.03,1.3,79,3820,7.1,3.78,,12.89,1.219,88.0,,33.4,5,,,,,,,,,,,,0,0,0,0,0,0,0,0,0,0,0,0,0,0,0,0,,,,,,0.0,,,,,,,
30553,1745476686516,,,,,,,,,,,,,,,,,,,,,,,0,0,0,0,0.0,0.0,0.0,0.0,2.27,,,0,0,0,0,0,0,0,0,0,0,0,0,0,0,0,0,,0,,,,,38.994099,-76.939644,0.23,32.2,20,2,1.4
30573,1745476686536,0.0,81,,-0.08,-0.04,0.99,-2,-0,0,1.0,1.3,77,3820,7.1,3.78,,12.84,1.231,88.0,,33.4,5,,,,,,,,,,,,0,0,0,0,0,0,0,0,0,0,0,0,0,0,0,0,,,,,,0.0,,,,,,,
30593,1745476686556,,,,,,,,,,,,,,,,,,,,,,,,,,,,,,,,,,0,0,0,0,0,0,0,0,0,0,0,0,0,0,0,0,,,,,,,,,,,,,
30613,1745476686576,0.0,54,,-0.08,-0.05,0.97,-2,-0,0,0.97,1.3,75,3860,7.1,3.78,,12.88,1.218,88.0,,33.6,5,,,,,,,,,,,,0,0,0,0,0,0,0,0,0,0,0,0,0,0,0,0,,,,,,0.0,,,,,,,
30633,1745476686596,,,,,,,,,,,,,,,,,,,,,,,,,,,,,,,,,,0,0,0,0,0,0,0,0,0,0,0,0,0,0,0,0,,,,,,,,,,,,,
30653,1745476686614,0.0,61,,-0.09,-0.06,0.96,-0,-0,-0,0.96,1.3,74,3790,7.0,3.78,,12.89,1.223,88.0,,33.6,5,0,0,0,0,0.0,0.0,0.0,0.0,2.27,,,0,0,0,0,0,0,0,0,0,0,0,0,0,0,0,0,,0,,,,0.0,38.994099,-76.939644,0.13,32.2,20,2,1.4
30673,1745476686634,,,,,,,,,,,,,,,,,,,,,,,,,,,,,,,,,,0,0,0,0,0,0,0,0,0,0,0,0,0,0,0,0,,,,,,,,,,,,,
30693,1745476686654,0.0,41,,-0.1,-0.12,0.98,1,-0,-0,1.0,1.3,77,3881,6.7,3.76,,12.83,1.217,88.0,,33.6,5,,,,,,,,,,,,0,0,0,0,0,0,0,0,0,0,0,0,0,0,0,0,,,,,,0.0,,,,,,,
30713,1745476686674,,,,,,,,,,,,,,,,,,,,,,,,,,,,,,,,,,0,0,0,0,0,0,0,0,0,0,0,0,0,0,0,0,,,,,,,,,,,,,
30733,1745476686694,0.0,61,,-0.1,-0.09,1.04,1,-0,0,1.05,1.3,81,3855,6.0,3.72,,12.83,1.217,88.0,,33.7,5,,,,,,,,,,,,0,0,0,0,0,0,0,0,0,0,0,0,0,0,0,0,,,,,,0.0,,,,,,,
30753,1745476686716,,,,,,,,,,,,,,,,,,,,,,,0,0,0,0,0.0,0.0,0.0,0.0,2.26,,,0,0,0,0,0,0,0,0,0,0,0,0,0,0,0,0,,0,,,,,38.994099,-76.939644,0.05,32.2,20,2,1.4
30773,1745476686736,0.0,57,,-0.09,-0.09,1.06,1,-0,0,1.06,1.3,82,3855,6.0,3.72,,12.75,1.22,88.0,,33.7,5,,,,,,,,,,,,0,0,0,0,0,0,0,0,0,0,0,0,0,0,0,0,,,,,,0.0,,,,,,,
30793,1745476686756,,,,,,,,,,,,,,,,,,,,,,,,,,,,,,,,,,0,0,0,0,0,0,0,0,0,0,0,0,0,0,0,0,,,,,,,,,,,,,
30813,1745476686776,0.0,54,,-0.07,-0.07,1.03,0,-0,0,1.03,1.3,80,3839,5.4,3.69,,12.65,1.217,88.0,,33.6,5,,,,,,,,,,,,0,0,0,0,0,0,0,0,0,0,0,0,0,0,0,0,,,,,,0.0,,,,,,,
30833,1745476686796,,,,,,,,,,,,,,,,,,,,,,,,,,,,,,,,,,0,0,0,0,0,0,0,0,0,0,0,0,0,0,0,0,,,,,,,,,,,,,
30853,1745476686816,0.0,54,,-0.07,-0.07,0.99,-1,-0,0,1.0,1.3,77,3886,5.2,3.65,,12.65,1.203,88.0,,33.6,5,0,0,0,0,0.0,0.0,0.0,0.0,2.26,,,0,0,0,0,0,0,0,0,0,0,0,0,0,0,0,0,,0,,,,0.0,38.994099,-76.939644,0.18,32.2,20,2,1.4
30873,1745476686836,,,,,,,,,,,,,,,,,,,,,,,,,,,,,,,,,,0,0,0,0,0,0,0,0,0,0,0,0,0,0,0,0,,,,,,,,,,,,,
30893,1745476686856,0.0,54,,-0.07,-0.08,0.97,-1,-0,0,0.98,1.3,75,3804,5.2,3.66,,12.61,1.205,88.0,,33.6,5,,,,,,,,,,,,0,0,0,0,0,0,0,0,0,0,0,0,0,0,0,0,,,,,,0.0,,,,,,,
30913,1745476686876,,,,,,,,,,,,,,,,,,,,,,,,,,,,,,,,,,0,0,0,0,0,0,0,0,0,0,0,0,0,0,0,0,,,,,,,,,,,,,
30933,1745476686896,0.0,51,,-0.08,-0.09,0.97,-1,-0,-0,0.98,1.3,76,3807,5.0,3.64,,12.61,1.205,88.0,,33.2,5,,,,,,,,,,,,0,0,0,0,0,0,0,0,0,0,0,0,0,0,0,0,,,,,,0.0,,,,,,,
30953,1745476686916,,,,,,,,,,,,,,,,,,,,,,,0,0,0,0,0.0,0.0,0.0,0.0,2.26,,,0,0,0,0,0,0,0,0,0,0,0,0,0,0,0,0,,0,,,,,38.994099,-76.939644,0.18,32.2,20,2,1.4
30973,1745476686936,0.0,57,,-0.09,-0.09,1.0,-2,-0,0,1.01,1.3,78,3807,5.0,3.64,,12.51,1.21,88.0,,33.2,5,,,,,,,,,,,,0,0,0,0,0,0,0,0,0,0,0,0,0,0,0,0,,,,,,0.0,,,,,,,
30993,1745476686956,,,,,,,,,,,,,,,,,,,,,,,,,,,,,,,,,,0,0,0,0,0,0,0,0,0,0,0,0,0,0,0,0,,,,,,,,,,,,,
31013,1745476686976,0.0,47,,-0.08,-0.04,1.0,-1,-0,-0,1.0,1.3,77,3727,4.8,3.64,,12.59,1.215,88.0,,32.5,5,,,,,,,,,,,,0,0,0,0,0,0,0,0,0,0,0,0,0,0,0,0,,,,,,0.0,,,,,,,
31033,1745476686996,,,,,,,,,,,,,,,,,,,,,,,,,,,,,,,,,,0,0,0,0,0,0,0,0,0,0,0,0,0,0,0,0,,,,,,,,,,,,,
31053,1745476687008,0.0,44,,-0.08,-0.05,0.98,-1,-0,-0,0.98,1.3,76,3776,4.6,3.62,,12.56,1.198,88.0,,32.5,5,0,0,0,0,0.0,0.0,0.0,0.0,2.27,,,0,0,0,0,0,0,0,0,0,0,0,0,0,0,0,0,,0,,,,0.0,38.994099,-76.939644,0.08,32.2,20,2,1.4
31073,1745476687028,,,,,,,,,,,,,,,,,,,,,,,,,,,,,,,,,,0,0,0,0,0,0,0,0,0,0,0,0,0,0,0,0,,,,,,,,,,,,,
31093,1745476687048,0.0,34,,-0.09,-0.07,0.97,-1,-0,-0,0.98,1.3,76,3739,4.6,3.6,,12.64,1.216,88.0,,32.5,5,,,,,,,,,,,,0,0,0,0,0,0,0,0,0,0,0,0,0,0,0,0,,,,,,0.0,,,,,,,
31113,1745476687068,,,,,,,,,,,,,,,,,,,,,,,,,,,,,,,,,,0,0,0,0,0,0,0,0,0,0,0,0,0,0,0,0,,,,,,,,,,,,,
31133,1745476687088,0.0,44,,-0.09,-0.08,1.02,-1,-0,-0,1.03,1.3,79,3674,4.6,3.6,,12.64,1.216,88.0,,32.4,5,,,,,,,,,,,,0,0,0,0,0,0,0,0,0,0,0,0,0,0,0,0,,,,,,0.0,,,,,,,
31153,1745476687110,,,,,,,,,,,,,,,,,,,,,,,0,0,0,0,0.0,0.0,0.0,0.0,2.27,,,0,0,0,0,0,0,0,0,0,0,0,0,0,0,0,0,,0,,,,,38.994099,-76.939644,0.0,32.2,20,2,1.4
31173,1745476687130,0.0,68,,-0.08,-0.06,1.04,-1,-0,0,1.04,1.3,81,3674,4.6,3.6,,12.55,1.204,88.0,,32.4,5,,,,,,,,,,,,0,0,0,0,0,0,0,0,0,0,0,0,0,0,0,0,,,,,,0.0,,,,,,,
31193,1745476687150,,,,,,,,,,,,,,,,,,,,,,,,,,,,,,,,,,0,0,0,0,0,0,0,0,0,0,0,0,0,0,0,0,,,,,,,,,,,,,
