"Interval"|"ms"|0|0|1,"Utc"|"ms"|0|0|1,"FrontBP"|"psi"|-5.0|5.0|25,"SteerAng"|"Degrees"|-145|145|25,"Battery"|"Volts"|-5.0|20.0|1,"AccelX"|"G"|-3.0|3.0|25,"AccelY"|"G"|-3.0|3.0|25,"AccelZ"|"G"|-3.0|3.0|25,"Yaw"|"Deg/Sec"|-120|120|25,"Pitch"|"Deg/Sec"|-120|120|25,"Roll"|"Deg/Sec"|-120|120|25,"Gsum"|"G"|0.0|3.0|25,"GsumMax"|"G"|0.0|3.0|25,"GsumPct"|"%"|0|100|25,"RPM"|""|0|10000|25,"TPS"|"%"|0.0|100.0|25,"InjectorPW"|"ms"|0.0|100.0|25,"Baro"|"kPa"|0|105|1,"MAP"|"Psi"|0.0|255.0|25,"Lambda"|""|-2.0|2.0|25,"IAT"|"C"|0.0|200.0|25,"EngineTemp"|"C"|0|200|1,"EOP"|"PSI"|0.0|152.0|25,"EOT"|"F"|0|250|25,"WSFR"|"MPH"|0|150|10,"WSFL"|"MPH"|0|100|10,"WSRR"|"MPH"|0|100|10,"WSRL"|""|0|100|10,"TCSet"|"%"|0.0|100.0|10,"TCSlip"|"%"|0.0|100.0|10,"TCComp"|"deg"|0.0|50.0|10,"TCCut"|"%"|0.0|100.0|10,"Analog8"|""|0.0|5.0|10,"OilTemp"|"F"|0|300|1,"AA_On"|""|0.0|1.0|1,"ThermLF1"|"C"|0|400|50,"ThermLF2"|"C"|0|400|50,"ThermRR1"|"C"|0|400|50,"ThermRR2"|"C"|0|400|50,"ThermLF3"|"C"|0|400|50,"ThermLF4"|"C"|0|400|50,"ThermLF5"|"C"|0|400|50,"ThermLF6"|"C"|0|400|50,"ThermLF7"|"C"|0|400|50,"ThermLF8"|"C"|0|400|50,"ThermRR3"|"C"|0|400|50,"ThermRR4"|"C"|0|400|50,"ThermRR5"|"C"|0|400|50,"ThermRR6"|"C"|0|400|50,"ThermRR7"|"C"|0|400|50,"ThermRR8"|"C"|0|400|50,"AA_LowDrag"|""|0|1|1,"Gear"|""|1|6|10,"AA_On"|""|0.0|1.0|1,"AA_LowDrag"|""|0|1|1,"Fuel_Mix"|""|-10|10|1,"AA_Packages"|""|0.0|1000.0|25,"Latitude"|"Degrees"|-180.0|180.0|10,"Longitude"|"Degrees"|-180.0|180.0|10,"Speed"|"kph"|0.0|150.0|10,"Altitude"|"m"|0.0|4000.0|10,"GPSSats"|""|0|20|10,"GPSQual"|""|0|5|10,"GPSDOP"|""|0.0|20.0|10
708004,1745469304971,,,,,,,,,,,,,,,,,,,,,,,,,,,,,,,,,,0,0,0,0,0,0,0,0,0,0,0,0,0,0,0,0,,,,,,,,,,,,,
708024,1745469304991,0.0,-41,,0.02,0.01,0.97,2,-0,0,0.97,0.97,100,4677,10.4,3.71,,12.47,1.025,100.6,,49.0,5,,,,,,,,,,,,0,0,0,0,0,0,0,0,0,0,0,0,0,0,0,0,,,,,,0.0,,,,,,,
708044,1745469304999,,,,,,,,,,,,,,,,,,,,,,,,,,,,,,,,,,0,0,0,0,0,0,0,0,0,0,0,0,0,0,0,0,,,,,,,,,,,,,
708064,1745469305019,0.0,-34,,0.05,-0.05,0.91,1,-0,-0,0.91,0.97,94,4390,10.5,3.75,,12.59,1.013,100.6,,49.0,5,,,,,,,,,,,,0,0,0,0,0,0,0,0,0,0,0,0,0,0,0,0,,,,,,0.0,,,,,,,
708084,1745469305039,,,,,,,,,,,,,,,,,,,,,,,0,22,0,0,0.0,24.0,0.0,0.0,2.26,,,0,0,0,0,0,0,0,0,0,0,0,0,0,0,0,0,,0,,,,,38.9907,-76.93985,0.26,31.4,24,2,1.0
708104,1745469305059,0.0,-24,,0.04,-0.04,0.93,-1,-0,0,0.93,0.97,96,4325,10.5,3.81,,12.69,1.003,100.6,,49.0,5,,,,,,,,,,,,0,0,0,0,0,0,0,0,0,0,0,0,0,0,0,0,,,,,,0.0,,,,,,,
708124,1745469305079,,,,,,,,,,,,,,,,,,,,,,,,,,,,,,,,,,0,0,0,0,0,0,0,0,0,0,0,0,0,0,0,0,,,,,,,,,,,,,
708144,1745469305110,0.0,-24,,0.03,0.01,0.96,1,-0,-0,0.96,0.97,99,4199,10.4,3.84,,12.69,1.003,100.6,,45.7,5,,,,,,,,,,,,0,0,0,0,0,0,0,0,0,0,0,0,0,0,0,0,,,,,,0.0,,,,,,,
708164,1745469305130,,,,,,,,,,,,,,,,,,,,,,,,,,,,,,,,,,0,0,0,0,0,0,0,0,0,0,0,0,0,0,0,0,,,,,,,,,,,,,
708184,1745469305150,0.0,-17,,0.03,-0.05,0.94,-1,-0,0,0.95,0.97,98,4199,10.4,3.84,,12.71,1.004,100.6,,45.7,5,0,0,0,0,0.0,0.0,0.0,0.0,2.27,,,0,0,0,0,0,0,0,0,0,0,0,0,0,0,0,0,,0,,,,0.0,38.9907,-76.93985,0.75,31.4,24,2,1.0
708204,1745469305170,,,,,,,,,,,,,,,,,,,,,,,,,,,,,,,,,,0,0,0,0,0,0,0,0,0,0,0,0,0,0,0,0,,,,,,,,,,,,,
708224,1745469305190,0.0,-24,,0.02,-0.05,0.94,-2,-0,0,0.94,0.97,97,3992,10.5,3.9,,12.87,1.004,100.6,,44.8,5,,,,,,,,,,,,0,0,0,0,0,0,0,0,0,0,0,0,0,0,0,0,,,,,,0.0,,,,,,,
708244,1745469305209,,,,,,,,,,,,,,,,,,,,,,,,,,,,,,,,,,0,0,0,0,0,0,0,0,0,0,0,0,0,0,0,0,,,,,,,,,,,,,
708264,1745469305229,0.0,-27,,0.02,-0.03,0.95,-2,-0,0,0.95,0.97,99,3691,12.0,3.97,,13.17,1.008,100.6,,44.8,5,,,,,,,,,,,,0,0,0,0,0,0,0,0,0,0,0,0,0,0,0,0,,,,,,0.0,,,,,,,
708284,1745469305249,,,,,,,,,,,,,,,,,,,,,,,1,19,1,0,0.0,28.0,0.0,0.0,2.27,,,0,0,0,0,0,0,0,0,0,0,0,0,0,0,0,0,,0,,,,,38.9907,-76.93985,1.07,31.4,24,2,1.0
708304,1745469305269,0.0,-21,,0.03,-0.12,0.99,-6,-0,0,1.0,1.0,100,3708,14.2,4.02,,13.44,1.023,100.6,,44.8,5,,,,,,,,,,,,0,0,0,0,0,0,0,0,0,0,0,0,0,0,0,0,,,,,,0.0,,,,,,,
708324,1745469305291,,,,,,,,,,,,,,,,,,,,,,,,,,,,,,,,,,0,0,0,0,0,0,0,0,0,0,0,0,0,0,0,0,,,,,,,,,,,,,
708344,1745469305311,0.0,-31,,0.03,-0.1,0.99,-5,-0,0,1.0,1.0,100,3714,15.5,4.07,,13.44,1.023,100.6,,41.8,5,,,,,,,,,,,,0,0,0,0,0,0,0,0,0,0,0,0,0,0,0,0,,,,,,0.0,,,,,,,
708364,1745469305331,,,,,,,,,,,,,,,,,,,,,,,,,,,,,,,,,,0,0,0,0,0,0,0,0,0,0,0,0,0,0,0,0,,,,,,,,,,,,,
708384,1745469305351,0.0,-41,13.75,0.03,-0.07,0.99,-3,-0,0,0.99,1.0,100,3714,15.5,4.07,15,13.56,1.073,100.6,167,41.8,5,1,18,1,1,0.0,77.0,0.0,0.0,2.27,0,1.0,0,0,0,0,0,0,0,0,0,0,0,0,0,0,0,0,0,0,1.0,0,-0,0.0,38.9907,-76.93985,1.39,31.4,24,2,1.0
708404,1745469305371,,,,,,,,,,,,,,,,,,,,,,,,,,,,,,,,,,0,0,0,0,0,0,0,0,0,0,0,0,0,0,0,0,,,,,,,,,,,,,
708424,1745469305391,0.0,-31,,0.02,-0.11,0.96,-3,-0,-0,0.96,1.0,97,3617,16.2,4.11,,13.69,1.044,100.6,,39.1,5,,,,,,,,,,,,0,0,0,0,0,0,0,0,0,0,0,0,0,0,0,0,,,,,,0.0,,,,,,,
708444,1745469305411,,,,,,,,,,,,,,,,,,,,,,,,,,,,,,,,,,0,0,0,0,0,0,0,0,0,0,0,0,0,0,0,0,,,,,,,,,,,,,
708464,1745469305431,0.0,-34,,0.06,-0.03,0.94,-2,-0,0,0.94,1.0,95,3307,16.6,4.16,,13.92,1.014,100.6,,39.1,5,,,,,,,,,,,,0,0,0,0,0,0,0,0,0,0,0,0,0,0,0,0,,,,,,0.0,,,,,,,
708484,1745469305451,,,,,,,,,,,,,,,,,,,,,,,1,2,1,1,0.0,0.0,0.0,0.0,2.26,,,0,0,0,0,0,0,0,0,0,0,0,0,0,0,0,0,,0,,,,,38.9907,-76.93985,1.78,31.4,24,2,1.0
708504,1745469305471,0.0,-21,,0.08,-0.08,1.05,-4,-0,1,1.05,1.05,100,3116,16.6,4.27,,13.96,1.026,100.6,,39.1,5,,,,,,,,,,,,0,0,0,0,0,0,0,0,0,0,0,0,0,0,0,0,,,,,,0.0,,,,,,,
708524,1745469305491,,,,,,,,,,,,,,,,,,,,,,,,,,,,,,,,,,0,0,0,0,0,0,0,0,0,0,0,0,0,0,0,0,,,,,,,,,,,,,
708544,1745469305511,0.0,-14,,0.02,-0.13,1.05,-4,0,0,1.05,1.05,100,3324,16.7,4.25,,13.96,1.026,100.6,,34.2,5,,,,,,,,,,,,0,0,0,0,0,0,0,0,0,0,0,0,0,0,0,0,,,,,,0.0,,,,,,,
708564,1745469305531,,,,,,,,,,,,,,,,,,,,,,,,,,,,,,,,,,0,0,0,0,0,0,0,0,0,0,0,0,0,0,0,0,,,,,,,,,,,,,
708584,1745469305551,0.0,-27,,0.06,-0.09,1.06,-3,0,1,1.06,1.06,100,3324,16.7,4.25,,13.95,1.083,100.6,,34.2,5,2,2,2,2,0.0,0.0,0.0,0.0,2.26,,,0,0,0,0,0,0,0,0,0,0,0,0,0,0,0,0,,0,,,,0.0,38.9907,-76.93985,2.36,31.4,24,2,1.0
708604,1745469305571,,,,,,,,,,,,,,,,,,,,,,,,,,,,,,,,,,0,0,0,0,0,0,0,0,0,0,0,0,0,0,0,0,,,,,,,,,,,,,
708624,1745469305592,0.0,-10,,0.03,-0.1,0.99,-2,0,0,0.99,1.06,93,3414,16.8,4.2,,13.92,1.107,100.6,,37.8,5,,,,,,,,,,,,0,0,0,0,0,0,0,0,0,0,0,0,0,0,0,0,,,,,,0.0,,,,,,,
708644,1745469305612,,,,,,,,,,,,,,,,,,,,,,,,,,,,,,,,,,0,0,0,0,0,0,0,0,0,0,0,0,0,0,0,0,,,,,,,,,,,,,
708664,1745469305632,0.0,-41,,0.08,-0.05,1.02,-2,-0,1,1.03,1.06,97,3384,16.5,4.21,,13.92,1.038,100.6,,37.8,5,,,,,,,,,,,,0,0,0,0,0,0,0,0,0,0,0,0,0,0,0,0,,,,,,0.0,,,,,,,
708684,1745469305652,,,,,,,,,,,,,,,,,,,,,,,2,2,2,2,0.0,0.0,0.0,0.0,2.27,,,0,0,0,0,0,0,0,0,0,0,0,0,0,0,0,0,,0,,,,,38.9907,-76.93985,3.09,31.4,24,2,1.0
708704,1745469305672,0.0,-21,,0.07,-0.11,1.1,-4,0,1,1.11,1.11,100,3114,16.4,4.23,,13.91,1.039,100.6,,37.8,5,,,,,,,,,,,,0,0,0,0,0,0,0,0,0,0,0,0,0,0,0,0,,,,,,0.0,,,,,,,
708724,1745469305692,,,,,,,,,,,,,,,,,,,,,,,,,,,,,,,,,,0,0,0,0,0,0,0,0,0,0,0,0,0,0,0,0,,,,,,,,,,,,,
708744,1745469305712,0.0,-27,,0.04,-0.15,1.16,-5,0,1,1.17,1.17,100,3020,16.2,4.28,,13.91,1.039,100.6,,34.0,5,,,,,,,,,,,,0,0,0,0,0,0,0,0,0,0,0,0,0,0,0,0,,,,,,0.0,,,,,,,
708764,1745469305732,,,,,,,,,,,,,,,,,,,,,,,,,,,,,,,,,,0,0,0,0,0,0,0,0,0,0,0,0,0,0,0,0,,,,,,,,,,,,,
708784,1745469305752,0.0,-27,,0.02,-0.14,1.2,-4,0,1,1.21,1.21,100,3020,16.2,4.28,,14.0,1.053,100.6,,34.0,5,2,2,2,2,0.0,0.0,0.0,0.0,2.27,,,0,0,0,0,0,0,0,0,0,0,0,0,0,0,0,0,,0,,,,0.0,38.9907,-76.93985,3.29,31.4,24,2,1.0
708804,1745469305772,,,,,,,,,,,,,,,,,,,,,,,,,,,,,,,,,,0,0,0,0,0,0,0,0,0,0,0,0,0,0,0,0,,,,,,,,,,,,,
708824,1745469305792,0.0,-7,,0.02,-0.17,1.25,-4,0,1,1.26,1.26,100,2992,16.4,4.31,,14.02,1.054,100.6,,31.6,5,,,,,,,,,,,,0,0,0,0,0,0,0,0,0,0,0,0,0,0,0,0,,,,,,0.0,,,,,,,
708844,1745469305810,,,,,,,,,,,,,,,,,,,,,,,,,,,,,,,,,,0,0,0,0,0,0,0,0,0,0,0,0,0,0,0,0,,,,,,,,,,,,,
708864,1745469305830,0.0,-7,,0.03,-0.14,1.23,-5,0,1,1.24,1.26,98,2926,16.3,4.34,,14.1,1.077,100.6,,31.6,5,,,,,,,,,,,,0,0,0,0,0,0,0,0,0,0,0,0,0,0,0,0,,,,,,0.0,,,,,,,
708884,1745469305850,,,,,,,,,,,,,,,,,,,,,,,2,2,3,3,0.0,0.0,0.0,0.0,2.27,,,0,0,0,0,0,0,0,0,0,0,0,0,0,0,0,0,,0,,,,,38.9907,-76.939858,3.99,31.4,24,2,1.0
708904,1745469305870,0.0,-0,,0.05,-0.13,1.17,-5,0,1,1.18,1.26,94,2851,16.7,4.35,,14.11,1.108,100.6,,31.6,5,,,,,,,,,,,,0,0,0,0,0,0,0,0,0,0,0,0,0,0,0,0,,,,,,0.0,,,,,,,
708924,1745469305892,,,,,,,,,,,,,,,,,,,,,,,,,,,,,,,,,,0,0,0,0,0,0,0,0,0,0,0,0,0,0,0,0,,,,,,,,,,,,,
708944,1745469305912,0.0,-14,,0.04,-0.13,1.14,-4,0,0,1.14,1.26,91,2849,16.9,4.36,,14.11,1.108,100.6,,29.7,5,,,,,,,,,,,,0,0,0,0,0,0,0,0,0,0,0,0,0,0,0,0,,,,,,0.0,,,,,,,
708964,1745469305932,,,,,,,,,,,,,,,,,,,,,,,,,,,,,,,,,,0,0,0,0,0,0,0,0,0,0,0,0,0,0,0,0,,,,,,,,,,,,,
708984,1745469305952,0.0,-0,,0.01,-0.14,1.11,-3,0,-0,1.12,1.26,89,2849,16.9,4.36,,14.18,1.131,100.6,,29.7,5,3,3,3,3,0.0,0.0,0.0,0.0,2.27,,,0,0,0,0,0,0,0,0,0,0,0,0,0,0,0,0,,0,,,,0.0,38.9907,-76.939858,4.29,31.4,24,2,1.0
709004,1745469305972,,,,,,,,,,,,,,,,,,,,,,,,,,,,,,,,,,0,0,0,0,0,0,0,0,0,0,0,0,0,0,0,0,,,,,,,,,,,,,
709024,1745469305992,0.0,-0,,0.01,-0.09,1.01,-1,0,-0,1.01,1.26,81,2973,16.9,4.31,,14.08,1.166,100.6,,33.0,5,,,,,,,,,,,,0,0,0,0,0,0,0,0,0,0,0,0,0,0,0,0,,,,,,0.0,,,,,,,
709044,1745469306000,,,,,,,,,,,,,,,,,,,,,,,,,,,,,,,,,,0,0,0,0,0,0,0,0,0,0,0,0,0,0,0,0,,,,,,,,,,,,,
709064,1745469306020,0.0,-17,,0.05,-0.03,1.03,-2,0,0,1.03,1.26,82,3287,17.2,4.31,,14.0,1.08,100.6,,33.0,5,,,,,,,,,,,,0,0,0,0,0,0,0,0,0,0,0,0,0,0,0,0,,,,,,0.0,,,,,,,
709084,1745469306040,,,,,,,,,,,,,,,,,,,,,,,3,3,3,3,0.0,0.0,0.0,0.0,2.26,,,0,0,0,0,0,0,0,0,0,0,0,0,0,0,0,0,,0,,,,,38.9907,-76.939858,5.03,31.4,22,2,1.1
709104,1745469306060,0.0,-4,,0.02,-0.12,1.06,-4,0,0,1.07,1.26,85,3257,17.3,4.24,,13.96,1.012,100.6,,33.0,5,,,,,,,,,,,,0,0,0,0,0,0,0,0,0,0,0,0,0,0,0,0,,,,,,0.0,,,,,,,
709124,1745469306080,,,,,,,,,,,,,,,,,,,,,,,,,,,,,,,,,,0,0,0,0,0,0,0,0,0,0,0,0,0,0,0,0,,,,,,,,,,,,,
709144,1745469306110,0.0,-7,,0.02,-0.06,0.97,-2,0,-0,0.97,1.26,77,3156,17.2,4.27,,13.96,1.012,100.6,,36.0,5,,,,,,,,,,,,0,0,0,0,0,0,0,0,0,0,0,0,0,0,0,0,,,,,,0.0,,,,,,,
709164,1745469306130,,,,,,,,,,,,,,,,,,,,,,,,,,,,,,,,,,0,0,0,0,0,0,0,0,0,0,0,0,0,0,0,0,,,,,,,,,,,,,
709184,1745469306150,0.0,3,,0.06,-0.03,0.98,-3,0,0,0.99,1.26,78,3156,17.2,4.27,,14.03,1.006,100.6,,36.0,5,3,4,3,4,0.0,0.0,0.0,0.0,2.27,,,0,0,0,0,0,0,0,0,0,0,0,0,0,0,0,0,,0,,,,0.0,38.990704,-76.939858,5.03,31.4,22,2,1.1
709204,1745469306170,,,,,,,,,,,,,,,,,,,,,,,,,,,,,,,,,,0,0,0,0,0,0,0,0,0,0,0,0,0,0,0,0,,,,,,,,,,,,,
709224,1745469306190,0.0,17,,0.04,-0.09,1.03,-6,1,0,1.03,1.26,82,3371,17.2,4.3,,13.98,1.035,100.6,,35.7,5,,,,,,,,,,,,0,0,0,0,0,0,0,0,0,0,0,0,0,0,0,0,,,,,,0.0,,,,,,,
709244,1745469306210,,,,,,,,,,,,,,,,,,,,,,,,,,,,,,,,,,0,0,0,0,0,0,0,0,0,0,0,0,0,0,0,0,,,,,,,,,,,,,
709264,1745469306230,0.0,7,,0.06,0.0,0.96,-4,0,-0,0.96,1.26,76,3285,17.1,4.28,,14.02,1.035,100.6,,35.7,5,,,,,,,,,,,,0,0,0,0,0,0,0,0,0,0,0,0,0,0,0,0,,,,,,0.0,,,,,,,
709284,1745469306250,,,,,,,,,,,,,,,,,,,,,,,4,4,4,4,0.0,0.0,0.0,0.0,2.27,,,0,0,0,0,0,0,0,0,0,0,0,0,0,0,0,0,,0,,,,,38.990704,-76.939858,6.0,31.4,22,2,1.1
709304,1745469306270,0.0,13,,0.08,0.02,0.98,-5,0,0,0.99,1.26,79,3303,17.2,4.26,,14.0,1.038,100.6,,35.7,5,,,,,,,,,,,,0,0,0,0,0,0,0,0,0,0,0,0,0,0,0,0,,,,,,0.0,,,,,,,
709324,1745469306292,,,,,,,,,,,,,,,,,,,,,,,,,,,,,,,,,,0,0,0,0,0,0,0,0,0,0,0,0,0,0,0,0,,,,,,,,,,,,,
709344,1745469306312,0.0,-7,,0.04,-0.03,1.02,-6,0,-0,1.02,1.26,81,3198,17.1,4.31,,14.0,1.038,100.6,,35.1,5,,,,,,,,,,,,0,0,0,0,0,0,0,0,0,0,0,0,0,0,0,0,,,,,,0.0,,,,,,,
709364,1745469306332,,,,,,,,,,,,,,,,,,,,,,,,,,,,,,,,,,0,0,0,0,0,0,0,0,0,0,0,0,0,0,0,0,,,,,,,,,,,,,
709384,1745469306352,0.0,-0,13.8,0.01,-0.04,1.02,-5,1,-0,1.02,1.26,81,3198,17.1,4.31,15,14.02,1.049,100.6,167,35.1,5,4,5,4,5,0.0,0.0,0.0,0.0,2.27,0,1.0,0,0,0,0,0,0,0,0,0,0,0,0,0,0,0,0,0,0,1.0,0,-0,0.0,38.990704,-76.939858,6.09,31.4,22,2,1.1
709404,1745469306372,,,,,,,,,,,,,,,,,,,,,,,,,,,,,,,,,,0,0,0,0,0,0,0,0,0,0,0,0,0,0,0,0,,,,,,,,,,,,,
709424,1745469306392,0.0,7,,-0.01,-0.05,1.05,-5,1,-0,1.05,1.26,83,2928,17.5,4.34,,14.07,1.053,100.6,,32.3,5,,,,,,,,,,,,0,0,0,0,0,0,0,0,0,0,0,0,0,0,0,0,,,,,,0.0,,,,,,,
709444,1745469306412,,,,,,,,,,,,,,,,,,,,,,,,,,,,,,,,,,0,0,0,0,0,0,0,0,0,0,0,0,0,0,0,0,,,,,,,,,,,,,
709464,1745469306432,0.0,7,,-0.01,-0.07,1.09,-7,1,-0,1.09,1.26,87,2852,17.6,4.34,,14.16,1.051,100.6,,32.3,5,,,,,,,,,,,,0,0,0,0,0,0,0,0,0,0,0,0,0,0,0,0,,,,,,0.0,,,,,,,
709484,1745469306452,,,,,,,,,,,,,,,,,,,,,,,4,5,4,5,0.0,0.0,0.0,0.0,2.26,,,0,0,0,0,0,0,0,0,0,0,0,0,0,0,0,0,,0,,,,,38.990707,-76.939858,7.29,31.4,22,2,1.1
709504,1745469306472,0.0,24,,0.01,-0.05,1.07,-8,1,-0,1.07,1.26,85,2735,17.7,4.36,,14.22,1.067,100.6,,32.3,5,,,,,,,,,,,,0,0,0,0,0,0,0,0,0,0,0,0,0,0,0,0,,,,,,0.0,,,,,,,
709524,1745469306491,,,,,,,,,,,,,,,,,,,,,,,,,,,,,,,,,,0,0,0,0,0,0,0,0,0,0,0,0,0,0,0,0,,,,,,,,,,,,,
709544,1745469306511,0.0,10,,0.03,-0.07,1.1,-9,1,0,1.1,1.26,87,2568,17.7,4.48,,14.22,1.067,100.6,,28.5,5,,,,,,,,,,,,0,0,0,0,0,0,0,0,0,0,0,0,0,0,0,0,,,,,,0.0,,,,,,,
709564,1745469306531,,,,,,,,,,,,,,,,,,,,,,,,,,,,,,,,,,0,0,0,0,0,0,0,0,0,0,0,0,0,0,0,0,,,,,,,,,,,,,
709584,1745469306551,0.0,24,,0.03,-0.09,1.09,-10,1,0,1.09,1.26,87,2568,17.7,4.48,,14.27,1.088,100.6,,28.5,5,5,5,5,6,0.0,0.0,0.0,0.0,2.26,,,0,0,0,0,0,0,0,0,0,0,0,0,0,0,0,0,,0,,,,0.0,38.990707,-76.939858,7.25,31.4,22,2,1.1
709604,1745469306571,,,,,,,,,,,,,,,,,,,,,,,,,,,,,,,,,,0,0,0,0,0,0,0,0,0,0,0,0,0,0,0,0,,,,,,,,,,,,,
709624,1745469306591,0.0,27,,0.03,-0.08,1.06,-11,1,0,1.07,1.26,85,2358,17.7,4.46,,14.34,1.102,100.6,,24.4,5,,,,,,,,,,,,0,0,0,0,0,0,0,0,0,0,0,0,0,0,0,0,,,,,,0.0,,,,,,,
709644,1745469306611,,,,,,,,,,,,,,,,,,,,,,,,,,,,,,,,,,0,0,0,0,0,0,0,0,0,0,0,0,0,0,0,0,,,,,,,,,,,,,
709664,1745469306631,0.0,20,,0.03,-0.09,1.03,-12,1,0,1.03,1.26,82,2124,17.5,4.52,,14.51,1.112,100.6,,24.4,5,,,,,,,,,,,,0,0,0,0,0,0,0,0,0,0,0,0,0,0,0,0,,,,,,0.0,,,,,,,
709684,1745469306651,,,,,,,,,,,,,,,,,,,,,,,5,6,5,6,0.0,0.0,0.0,0.0,2.27,,,0,0,0,0,0,0,0,0,0,0,0,0,0,0,0,0,,0,,,,,38.990711,-76.939858,7.99,31.4,22,2,1.1
709704,1745469306671,0.0,20,,0.02,-0.1,1.03,-13,1,0,1.03,1.26,82,1905,17.2,4.59,,14.51,1.127,100.6,,24.4,5,,,,,,,,,,,,0,0,0,0,0,0,0,0,0,0,0,0,0,0,0,0,,,,,,0.0,,,,,,,
709724,1745469306693,,,,,,,,,,,,,,,,,,,,,,,,,,,,,,,,,,0,0,0,0,0,0,0,0,0,0,0,0,0,0,0,0,,,,,,,,,,,,,
709744,1745469306713,0.0,-0,,-0.0,-0.1,1.01,-14,1,0,1.01,1.26,81,1923,17.3,4.55,,14.51,1.127,100.6,,20.9,5,,,,,,,,,,,,0,0,0,0,0,0,0,0,0,0,0,0,0,0,0,0,,,,,,0.0,,,,,,,
709764,1745469306733,,,,,,,,,,,,,,,,,,,,,,,,,,,,,,,,,,0,0,0,0,0,0,0,0,0,0,0,0,0,0,0,0,,,,,,,,,,,,,
709784,1745469306753,0.0,10,,-0.02,-0.1,0.99,-14,1,0,1.0,1.26,79,1923,17.3,4.55,,14.44,1.133,100.6,,20.9,5,5,6,5,6,0.0,0.0,0.0,0.0,2.27,,,0,0,0,0,0,0,0,0,0,0,0,0,0,0,0,0,,0,,,,0.0,38.990711,-76.939858,9.1,31.4,22,2,1.1
709804,1745469306773,,,,,,,,,,,,,,,,,,,,,,,,,,,,,,,,,,0,0,0,0,0,0,0,0,0,0,0,0,0,0,0,0,,,,,,,,,,,,,
709824,1745469306791,0.0,34,,-0.01,-0.11,1.01,-15,1,-0,1.02,1.26,81,1776,17.2,4.47,,14.5,1.138,100.6,,19.0,5,,,,,,,,,,,,0,0,0,0,0,0,0,0,0,0,0,0,0,0,0,0,,,,,,0.0,,,,,,,
709844,1745469306811,,,,,,,,,,,,,,,,,,,,,,,,,,,,,,,,,,0,0,0,0,0,0,0,0,0,0,0,0,0,0,0,0,,,,,,,,,,,,,
709864,1745469306831,0.0,20,,-0.03,-0.12,1.01,-15,1,-0,1.02,1.26,81,1736,17.4,4.46,,14.54,1.156,100.6,,19.0,5,,,,,,,,,,,,0,0,0,0,0,0,0,0,0,0,0,0,0,0,0,0,,,,,,0.0,,,,,,,
709884,1745469306851,,,,,,,,,,,,,,,,,,,,,,,5,6,5,6,0.0,96.0,0.0,0.0,2.27,,,0,0,0,0,0,0,0,0,0,0,0,0,0,0,0,0,,0,,,,,38.990715,-76.939865,9.12,31.4,22,2,1.1
709904,1745469306871,0.0,30,,-0.03,-0.1,1.0,-15,1,0,1.01,1.26,80,1847,17.5,4.52,,14.48,1.136,100.6,,19.0,5,,,,,,,,,,,,0,0,0,0,0,0,0,0,0,0,0,0,0,0,0,0,,,,,,0.0,,,,,,,
709924,1745469306893,,,,,,,,,,,,,,,,,,,,,,,,,,,,,,,,,,0,0,0,0,0,0,0,0,0,0,0,0,0,0,0,0,,,,,,,,,,,,,
709944,1745469306913,0.0,20,,-0.04,-0.11,0.97,-16,1,-0,0.98,1.26,78,1924,17.7,4.57,,14.48,1.136,100.6,,20.5,5,,,,,,,,,,,,0,0,0,0,0,0,0,0,0,0,0,0,0,0,0,0,,,,,,0.0,,,,,,,
709964,1745469306933,,,,,,,,,,,,,,,,,,,,,,,,,,,,,,,,,,0,0,0,0,0,0,0,0,0,0,0,0,0,0,0,0,,,,,,,,,,,,,
709984,1745469306953,0.0,20,,-0.04,-0.08,0.98,-16,1,-0,0.98,1.26,78,1924,17.7,4.57,,14.44,1.103,100.6,,20.5,5,5,8,5,6,0.0,35.0,0.0,0.0,2.26,,,0,0,0,0,0,0,0,0,0,0,0,0,0,0,0,0,,0,,,,0.0,38.990719,-76.939865,8.74,31.4,22,2,1.1
710004,1745469306973,,,,,,,,,,,,,,,,,,,,,,,,,,,,,,,,,,0,0,0,0,0,0,0,0,0,0,0,0,0,0,0,0,,,,,,,,,,,,,
710024,1745469306993,0.0,20,,-0.05,-0.08,0.99,-17,1,-0,0.99,1.26,79,2013,17.6,4.55,,14.47,1.09,100.6,,21.0,5,,,,,,,,,,,,0,0,0,0,0,0,0,0,0,0,0,0,0,0,0,0,,,,,,0.0,,,,,,,
710044,1745469307001,,,,,,,,,,,,,,,,,,,,,,,,,,,,,,,,,,0,0,0,0,0,0,0,0,0,0,0,0,0,0,0,0,,,,,,,,,,,,,
710064,1745469307021,0.0,20,,-0.05,-0.08,0.96,-17,1,-0,0.96,1.26,77,2023,17.7,4.61,,14.42,1.064,100.6,,21.0,5,,,,,,,,,,,,0,0,0,0,0,0,0,0,0,0,0,0,0,0,0,0,,,,,,0.0,,,,,,,
710084,1745469307041,,,,,,,,,,,,,,,,,,,,,,,5,6,5,6,0.0,0.0,0.0,0.0,2.27,,,0,0,0,0,0,0,0,0,0,0,0,0,0,0,0,0,,0,,,,,38.990719,-76.939865,8.82,31.4,25,2,1.0
710104,1745469307061,0.0,17,,-0.04,-0.09,0.96,-17,1,-0,0.97,1.26,77,1997,17.7,4.59,,14.43,1.06,100.6,,21.0,5,,,,,,,,,,,,0,0,0,0,0,0,0,0,0,0,0,0,0,0,0,0,,,,,,0.0,,,,,,,
710124,1745469307091,,,,,,,,,,,,,,,,,,,,,,,,,,,,,,,,,,0,0,0,0,0,0,0,0,0,0,0,0,0,0,0,0,,,,,,,,,,,,,
710144,1745469307111,0.0,10,,-0.02,-0.11,0.96,-18,1,-0,0.97,1.26,77,1882,17.4,4.62,,14.43,1.06,100.6,,21.2,5,,,,,,,,,,,,0,0,0,0,0,0,0,0,0,0,0,0,0,0,0,0,,,,,,0.0,,,,,,,
710164,1745469307131,,,,,,,,,,,,,,,,,,,,,,,,,,,,,,,,,,0,0,0,0,0,0,0,0,0,0,0,0,0,0,0,0,,,,,,,,,,,,,
710184,1745469307151,0.0,27,,-0.03,-0.12,0.97,-18,1,-0,0.98,1.26,78,1882,17.4,4.62,,14.55,1.076,100.6,,21.2,5,5,6,5,6,0.0,0.0,0.0,0.0,2.27,,,0,0,0,0,0,0,0,0,0,0,0,0,0,0,0,0,,0,,,,0.0,38.990719,-76.939865,8.85,31.4,25,2,1.0
710204,1745469307171,,,,,,,,,,,,,,,,,,,,,,,,,,,,,,,,,,0,0,0,0,0,0,0,0,0,0,0,0,0,0,0,0,,,,,,,,,,,,,
710224,1745469307191,0.0,41,,-0.03,-0.1,0.96,-18,1,-0,0.96,1.26,77,1822,17.2,4.57,,14.5,1.077,100.6,,19.7,5,,,,,,,,,,,,0,0,0,0,0,0,0,0,0,0,0,0,0,0,0,0,,,,,,0.0,,,,,,,
710244,1745469307211,,,,,,,,,,,,,,,,,,,,,,,,,,,,,,,,,,0,0,0,0,0,0,0,0,0,0,0,0,0,0,0,0,,,,,,,,,,,,,
710264,1745469307231,0.0,27,,-0.01,-0.1,0.98,-18,1,0,0.98,1.26,78,1822,17.2,4.5,,14.51,1.091,100.6,,19.7,5,,,,,,,,,,,,0,0,0,0,0,0,0,0,0,0,0,0,0,0,0,0,,,,,,0.0,,,,,,,
710284,1745469307251,,,,,,,,,,,,,,,,,,,,,,,5,5,5,6,0.0,0.0,0.0,0.0,2.28,,,0,0,0,0,0,0,0,0,0,0,0,0,0,0,0,0,,0,,,,,38.990719,-76.939865,8.72,31.4,25,2,1.0
710304,1745469307271,0.0,37,,-0.03,-0.09,0.99,-18,1,-0,0.99,1.26,79,1789,17.2,4.45,,14.54,1.1,100.6,,19.7,5,,,,,,,,,,,,0,0,0,0,0,0,0,0,0,0,0,0,0,0,0,0,,,,,,0.0,,,,,,,
710324,1745469307291,,,,,,,,,,,,,,,,,,,,,,,,,,,,,,,,,,0,0,0,0,0,0,0,0,0,0,0,0,0,0,0,0,,,,,,,,,,,,,
710344,1745469307311,0.0,20,,-0.04,-0.08,0.99,-19,0,-0,1.0,1.26,79,1761,17.4,4.48,,14.54,1.1,100.6,,19.3,5,,,,,,,,,,,,0,0,0,0,0,0,0,0,0,0,0,0,0,0,0,0,,,,,,0.0,,,,,,,
710364,1745469307331,,,,,,,,,,,,,,,,,,,,,,,,,,,,,,,,,,0,0,0,0,0,0,0,0,0,0,0,0,0,0,0,0,,,,,,,,,,,,,
710384,1745469307351,0.0,17,13.75,-0.06,-0.07,1.0,-18,1,-0,1.0,1.26,80,1761,17.4,4.48,15,14.56,1.116,100.6,167,19.3,5,5,7,5,6,0.0,0.0,0.0,0.0,2.27,0,1.0,0,0,0,0,0,0,0,0,0,0,0,0,0,0,0,0,0,0,1.0,0,-0,0.0,38.990723,-76.939873,8.88,31.4,25,2,1.0
710404,1745469307371,,,,,,,,,,,,,,,,,,,,,,,,,,,,,,,,,,0,0,0,0,0,0,0,0,0,0,0,0,0,0,0,0,,,,,,,,,,,,,
710424,1745469307391,0.0,17,,-0.08,-0.08,0.99,-18,1,-0,0.99,1.26,79,1851,17.6,4.52,,14.55,1.109,100.6,,20.4,5,,,,,,,,,,,,0,0,0,0,0,0,0,0,0,0,0,0,0,0,0,0,,,,,,0.0,,,,,,,
710444,1745469307411,,,,,,,,,,,,,,,,,,,,,,,,,,,,,,,,,,0,0,0,0,0,0,0,0,0,0,0,0,0,0,0,0,,,,,,,,,,,,,
710464,1745469307431,0.0,17,,-0.09,-0.08,0.96,-18,1,-0,0.96,1.26,77,1967,17.7,4.52,,14.47,1.086,100.6,,20.4,5,,,,,,,,,,,,0,0,0,0,0,0,0,0,0,0,0,0,0,0,0,0,,,,,,0.0,,,,,,,
710484,1745469307451,,,,,,,,,,,,,,,,,,,,,,,5,6,5,6,0.0,0.0,0.0,0.0,2.26,,,0,0,0,0,0,0,0,0,0,0,0,0,0,0,0,0,,0,,,,,38.990726,-76.939873,8.22,31.4,25,2,1.0
710504,1745469307471,0.0,34,,-0.08,-0.09,0.99,-18,1,-0,0.99,1.26,79,1975,17.8,4.57,,14.42,1.073,100.6,,20.4,5,,,,,,,,,,,,0,0,0,0,0,0,0,0,0,0,0,0,0,0,0,0,,,,,,0.0,,,,,,,
710524,1745469307493,,,,,,,,,,,,,,,,,,,,,,,,,,,,,,,,,,0,0,0,0,0,0,0,0,0,0,0,0,0,0,0,0,,,,,,,,,,,,,
710544,1745469307513,0.0,37,,-0.07,-0.08,0.99,-18,1,-0,1.0,1.26,79,2051,17.7,4.57,,14.42,1.073,100.6,,20.8,5,,,,,,,,,,,,0,0,0,0,0,0,0,0,0,0,0,0,0,0,0,0,,,,,,0.0,,,,,,,
710564,1745469307533,,,,,,,,,,,,,,,,,,,,,,,,,,,,,,,,,,0,0,0,0,0,0,0,0,0,0,0,0,0,0,0,0,,,,,,,,,,,,,
710584,1745469307553,0.0,34,,-0.09,-0.08,1.01,-18,1,0,1.02,1.26,81,2051,17.7,4.57,,14.47,1.07,100.6,,20.8,5,5,7,5,6,0.0,0.0,0.0,0.0,2.27,,,0,0,0,0,0,0,0,0,0,0,0,0,0,0,0,0,,1,,,,0.0,38.990726,-76.939873,8.72,31.4,25,2,1.0
710604,1745469307573,,,,,,,,,,,,,,,,,,,,,,,,,,,,,,,,,,0,0,0,0,0,0,0,0,0,0,0,0,0,0,0,0,,,,,,,,,,,,,
710624,1745469307592,0.0,41,,-0.09,-0.09,0.99,-18,1,0,1.0,1.26,79,1919,17.7,4.6,,14.54,1.053,100.6,,20.7,5,,,,,,,,,,,,0,0,0,0,0,0,0,0,0,0,0,0,0,0,0,0,,,,,,0.0,,,,,,,
710644,1745469307612,,,,,,,,,,,,,,,,,,,,,,,,,,,,,,,,,,0,0,0,0,0,0,0,0,0,0,0,0,0,0,0,0,,,,,,,,,,,,,
710664,1745469307632,0.0,30,,-0.07,-0.08,0.99,-18,1,0,1.0,1.26,79,1730,17.6,4.52,,14.56,1.081,100.6,,20.7,5,,,,,,,,,,,,0,0,0,0,0,0,0,0,0,0,0,0,0,0,0,0,,,,,,0.0,,,,,,,
710684,1745469307652,,,,,,,,,,,,,,,,,,,,,,,5,6,5,6,0.0,0.0,0.0,0.0,2.28,,,0,0,0,0,0,0,0,0,0,0,0,0,0,0,0,0,,0,,,,,38.99073,-76.939873,8.34,31.4,25,2,1.0
710704,1745469307672,0.0,30,,-0.08,-0.07,0.99,-18,1,0,1.0,1.26,79,1833,17.3,4.45,,14.52,1.088,100.6,,20.7,5,,,,,,,,,,,,0,0,0,0,0,0,0,0,0,0,0,0,0,0,0,0,,,,,,0.0,,,,,,,
710724,1745469307692,,,,,,,,,,,,,,,,,,,,,,,,,,,,,,,,,,0,0,0,0,0,0,0,0,0,0,0,0,0,0,0,0,,,,,,,,,,,,,
710744,1745469307712,0.0,27,,-0.09,-0.08,0.98,-18,1,0,0.99,1.26,79,1755,17.3,4.44,,14.52,1.088,100.6,,19.0,5,,,,,,,,,,,,0,0,0,0,0,0,0,0,0,0,0,0,0,0,0,0,,,,,,0.0,,,,,,,
710764,1745469307732,,,,,,,,,,,,,,,,,,,,,,,,,,,,,,,,,,0,0,0,0,0,0,0,0,0,0,0,0,0,0,0,0,,,,,,,,,,,,,
710784,1745469307752,0.0,20,,-0.09,-0.08,1.0,-18,0,0,1.01,1.26,80,1755,17.3,4.44,,14.52,1.067,100.6,,19.0,5,5,3,5,6,0.0,0.0,0.0,0.0,2.28,,,0,0,0,0,0,0,0,0,0,0,0,0,0,0,0,0,,0,,,,0.0,38.990734,-76.939873,9.07,31.5,25,2,1.0
710804,1745469307772,,,,,,,,,,,,,,,,,,,,,,,,,,,,,,,,,,0,0,0,0,0,0,0,0,0,0,0,0,0,0,0,0,,,,,,,,,,,,,
710824,1745469307792,0.0,30,,-0.09,-0.07,0.99,-18,0,0,1.0,1.26,79,1753,17.3,4.46,,14.58,1.075,100.6,,20.1,5,,,,,,,,,,,,0,0,0,0,0,0,0,0,0,0,0,0,0,0,0,0,,,,,,0.0,,,,,,,
710844,1745469307812,,,,,,,,,,,,,,,,,,,,,,,,,,,,,,,,,,0,0,0,0,0,0,0,0,0,0,0,0,0,0,0,0,,,,,,,,,,,,,
710864,1745469307832,0.0,30,,-0.1,-0.05,1.02,-18,0,0,1.02,1.26,81,1856,17.4,4.53,,14.5,1.065,100.6,,20.1,5,,,,,,,,,,,,0,0,0,0,0,0,0,0,0,0,0,0,0,0,0,0,,,,,,0.0,,,,,,,
710884,1745469307852,,,,,,,,,,,,,,,,,,,,,,,5,6,5,6,0.0,131.0,0.0,0.0,2.27,,,0,0,0,0,0,0,0,0,0,0,0,0,0,0,0,0,,0,,,,,38.990734,-76.939873,8.7,31.5,25,2,1.0
710904,1745469307872,0.0,47,,-0.09,-0.05,1.01,-18,0,0,1.02,1.26,81,1916,17.6,4.52,,14.5,1.066,100.6,,20.1,5,,,,,,,,,,,,0,0,0,0,0,0,0,0,0,0,0,0,0,0,0,0,,,,,,0.0,,,,,,,
710924,1745469307892,,,,,,,,,,,,,,,,,,,,,,,,,,,,,,,,,,0,0,0,0,0,0,0,0,0,0,0,0,0,0,0,0,,,,,,,,,,,,,
710944,1745469307910,0.0,44,,-0.09,-0.05,0.99,-18,0,0,0.99,1.26,79,2034,18.1,4.55,,14.5,1.066,100.6,,20.3,5,,,,,,,,,,,,0,0,0,0,0,0,0,0,0,0,0,0,0,0,0,0,,,,,,0.0,,,,,,,
710964,1745469307930,,,,,,,,,,,,,,,,,,,,,,,,,,,,,,,,,,0,0,0,0,0,0,0,0,0,0,0,0,0,0,0,0,,,,,,,,,,,,,
710984,1745469307950,0.0,34,,-0.08,-0.05,0.98,-17,0,-0,0.99,1.26,78,2034,18.1,4.55,,14.42,1.057,100.6,,20.3,5,5,7,5,6,0.0,0.0,0.0,0.0,2.27,,,0,0,0,0,0,0,0,0,0,0,0,0,0,0,0,0,,0,,,,0.0,38.990738,-76.939873,8.54,31.5,25,2,1.0
711004,1745469307970,,,,,,,,,,,,,,,,,,,,,,,,,,,,,,,,,,0,0,0,0,0,0,0,0,0,0,0,0,0,0,0,0,,,,,,,,,,,,,
711024,1745469307990,0.0,30,,-0.07,-0.04,0.96,-18,0,0,0.96,1.26,77,1954,18.3,4.62,,14.46,1.042,100.6,,20.6,5,,,,,,,,,,,,0,0,0,0,0,0,0,0,0,0,0,0,0,0,0,0,,,,,,0.0,,,,,,,
711044,1745469308002,,,,,,,,,,,,,,,,,,,,,,,,,,,,,,,,,,0,0,0,0,0,0,0,0,0,0,0,0,0,0,0,0,,,,,,,,,,,,,
711064,1745469308022,0.0,20,,-0.06,-0.04,0.99,-18,0,0,0.99,1.26,79,1797,18.4,4.6,,14.55,1.065,100.6,,20.6,5,,,,,,,,,,,,0,0,0,0,0,0,0,0,0,0,0,0,0,0,0,0,,,,,,0.0,,,,,,,
711084,1745469308042,,,,,,,,,,,,,,,,,,,,,,,5,7,5,6,0.0,118.0,0.0,0.0,2.26,,,0,0,0,0,0,0,0,0,0,0,0,0,0,0,0,0,,0,,,,,38.990738,-76.939873,8.65,31.5,23,2,1.2
711104,1745469308062,0.0,34,,-0.08,-0.06,1.01,-18,0,0,1.02,1.26,81,1766,18.6,4.59,,14.5,1.081,100.6,,20.6,5,,,,,,,,,,,,0,0,0,0,0,0,0,0,0,0,0,0,0,0,0,0,,,,,,0.0,,,,,,,
711124,1745469308092,,,,,,,,,,,,,,,,,,,,,,,,,,,,,,,,,,0,0,0,0,0,0,0,0,0,0,0,0,0,0,0,0,,,,,,,,,,,,,
711144,1745469308112,0.0,30,,-0.07,-0.06,1.0,-18,0,0,1.0,1.26,80,1764,20.5,4.5,,14.5,1.081,100.6,,19.1,5,,,,,,,,,,,,0,0,0,0,0,0,0,0,0,0,0,0,0,0,0,0,,,,,,0.0,,,,,,,
711164,1745469308132,,,,,,,,,,,,,,,,,,,,,,,,,,,,,,,,,,0,0,0,0,0,0,0,0,0,0,0,0,0,0,0,0,,,,,,,,,,,,,
711184,1745469308152,0.0,37,,-0.07,-0.05,1.0,-18,1,0,1.0,1.26,79,1764,20.5,4.5,,14.52,1.088,100.6,,19.1,5,5,6,5,6,0.0,0.0,0.0,0.0,2.27,,,0,0,0,0,0,0,0,0,0,0,0,0,0,0,0,0,,0,,,,0.0,38.990738,-76.939873,8.88,31.5,23,2,1.2
711204,1745469308172,,,,,,,,,,,,,,,,,,,,,,,,,,,,,,,,,,0,0,0,0,0,0,0,0,0,0,0,0,0,0,0,0,,,,,,,,,,,,,
711224,1745469308192,0.0,41,,-0.08,-0.05,0.98,-18,1,0,0.99,1.26,79,1822,20.8,4.46,,14.54,1.108,100.6,,19.6,5,,,,,,,,,,,,0,0,0,0,0,0,0,0,0,0,0,0,0,0,0,0,,,,,,0.0,,,,,,,
711244,1745469308212,,,,,,,,,,,,,,,,,,,,,,,,,,,,,,,,,,0,0,0,0,0,0,0,0,0,0,0,0,0,0,0,0,,,,,,,,,,,,,
711264,1745469308232,0.0,37,,-0.08,-0.03,0.99,-18,0,0,1.0,1.26,79,1792,23.0,4.49,,14.56,1.087,100.6,,19.6,5,,,,,,,,,,,,0,0,0,0,0,0,0,0,0,0,0,0,0,0,0,0,,,,,,0.0,,,,,,,
711284,1745469308252,,,,,,,,,,,,,,,,,,,,,,,5,7,5,6,0.0,0.0,0.0,0.0,2.28,,,0,0,0,0,0,0,0,0,0,0,0,0,0,0,0,0,,0,,,,,38.990742,-76.939873,8.91,31.5,23,2,1.2
711304,1745469308272,0.0,44,,-0.09,-0.02,1.0,-18,0,0,1.0,1.26,80,1856,29.6,4.65,,14.63,1.097,100.6,,19.6,5,,,,,,,,,,,,0,0,0,0,0,0,0,0,0,0,0,0,0,0,0,0,,,,,,0.0,,,,,,,
711324,1745469308293,,,,,,,,,,,,,,,,,,,,,,,,,,,,,,,,,,0,0,0,0,0,0,0,0,0,0,0,0,0,0,0,0,,,,,,,,,,,,,
711344,1745469308313,0.0,37,,-0.09,-0.01,1.02,-17,1,1,1.02,1.26,81,2025,31.8,4.54,,14.63,1.097,100.6,,20.7,5,,,,,,,,,,,,0,0,0,0,0,0,0,0,0,0,0,0,0,0,0,0,,,,,,0.0,,,,,,,
711364,1745469308333,,,,,,,,,,,,,,,,,,,,,,,,,,,,,,,,,,0,0,0,0,0,0,0,0,0,0,0,0,0,0,0,0,,,,,,,,,,,,,
711384,1745469308353,0.0,17,13.8,-0.08,-0.02,1.0,-17,1,1,1.01,1.26,80,2025,31.8,4.54,15,14.59,1.1,100.6,167,20.7,5,5,6,5,6,0.0,0.0,0.0,0.0,2.27,0,1.0,0,0,0,0,0,0,0,0,0,0,0,0,0,0,0,0,0,0,1.0,0,-0,0.0,38.990746,-76.939873,8.64,31.5,23,2,1.2
711404,1745469308373,,,,,,,,,,,,,,,,,,,,,,,,,,,,,,,,,,0,0,0,0,0,0,0,0,0,0,0,0,0,0,0,0,,,,,,,,,,,,,
711424,1745469308392,0.0,30,,-0.06,-0.03,0.99,-17,1,1,0.99,1.26,79,2068,32.5,4.73,,14.54,1.071,100.6,,21.0,5,,,,,,,,,,,,0,0,0,0,0,0,0,0,0,0,0,0,0,0,0,0,,,,,,0.0,,,,,,,
711444,1745469308412,,,,,,,,,,,,,,,,,,,,,,,,,,,,,,,,,,0,0,0,0,0,0,0,0,0,0,0,0,0,0,0,0,,,,,,,,,,,,,
711464,1745469308432,0.0,20,,-0.06,-0.04,1.03,-17,1,1,1.03,1.26,82,2082,32.7,4.66,,14.6,1.061,100.6,,21.0,5,,,,,,,,,,,,0,0,0,0,0,0,0,0,0,0,0,0,0,0,0,0,,,,,,0.0,,,,,,,
711484,1745469308452,,,,,,,,,,,,,,,,,,,,,,,5,6,5,6,0.0,0.0,0.0,0.0,2.27,,,0,0,0,0,0,0,0,0,0,0,0,0,0,0,0,0,,1,,,,,38.990746,-76.939873,8.93,31.5,23,2,1.2
711504,1745469308472,0.0,34,,-0.06,-0.04,1.03,-17,0,1,1.03,1.26,82,1839,32.7,4.71,,14.67,1.06,100.6,,21.0,5,,,,,,,,,,,,0,0,0,0,0,0,0,0,0,0,0,0,0,0,0,0,,,,,,0.0,,,,,,,
711524,1745469308492,,,,,,,,,,,,,,,,,,,,,,,,,,,,,,,,,,0,0,0,0,0,0,0,0,0,0,0,0,0,0,0,0,,,,,,,,,,,,,
711544,1745469308512,0.0,37,,-0.04,-0.07,1.02,-17,0,1,1.03,1.26,82,1810,32.8,4.46,,14.67,1.06,100.6,,20.8,5,,,,,,,,,,,,0,0,0,0,0,0,0,0,0,0,0,0,0,0,0,0,,,,,,0.0,,,,,,,
711564,1745469308532,,,,,,,,,,,,,,,,,,,,,,,,,,,,,,,,,,0,0,0,0,0,0,0,0,0,0,0,0,0,0,0,0,,,,,,,,,,,,,
711584,1745469308552,0.0,30,,-0.05,-0.06,1.01,-17,1,1,1.01,1.26,80,1810,32.8,4.46,,14.68,1.081,100.6,,20.8,5,6,7,5,6,0.0,0.0,0.0,0.0,2.27,,,0,0,0,0,0,0,0,0,0,0,0,0,0,0,0,0,,0,,,,0.0,38.990749,-76.93988,9.15,31.5,23,2,1.2
711604,1745469308572,,,,,,,,,,,,,,,,,,,,,,,,,,,,,,,,,,0,0,0,0,0,0,0,0,0,0,0,0,0,0,0,0,,,,,,,,,,,,,
711624,1745469308591,0.0,34,,-0.05,-0.05,0.98,-16,1,0,0.98,1.26,78,1877,32.7,4.32,,14.63,1.111,100.6,,20.0,5,,,,,,,,,,,,0,0,0,0,0,0,0,0,0,0,0,0,0,0,0,0,,,,,,0.0,,,,,,,
711644,1745469308611,,,,,,,,,,,,,,,,,,,,,,,,,,,,,,,,,,0,0,0,0,0,0,0,0,0,0,0,0,0,0,0,0,,,,,,,,,,,,,
711664,1745469308631,0.0,27,,-0.03,-0.08,0.98,-16,1,0,0.98,1.26,78,2006,32.6,4.35,,14.54,1.138,100.6,,20.0,5,,,,,,,,,,,,0,0,0,0,0,0,0,0,0,0,0,0,0,0,0,0,,,,,,0.0,,,,,,,
711684,1745469308651,,,,,,,,,,,,,,,,,,,,,,,6,6,6,7,0.0,151.0,0.0,0.0,2.28,,,0,0,0,0,0,0,0,0,0,0,0,0,0,0,0,0,,0,,,,,38.990753,-76.93988,9.43,31.4,23,2,1.2
711704,1745469308671,0.0,20,,-0.02,-0.05,0.99,-16,1,0,0.99,1.26,79,2303,32.6,4.71,,14.54,1.165,100.6,,20.0,5,,,,,,,,,,,,0,0,0,0,0,0,0,0,0,0,0,0,0,0,0,0,,,,,,0.0,,,,,,,
711724,1745469308691,,,,,,,,,,,,,,,,,,,,,,,,,,,,,,,,,,0,0,0,0,0,0,0,0,0,0,0,0,0,0,0,0,,,,,,,,,,,,,
711744,1745469308711,0.0,24,,0.0,-0.07,0.99,-16,0,0,0.99,1.26,79,2169,32.6,4.65,,14.54,1.165,100.6,,22.1,5,,,,,,,,,,,,0,0,0,0,0,0,0,0,0,0,0,0,0,0,0,0,,,,,,0.0,,,,,,,
711764,1745469308731,,,,,,,,,,,,,,,,,,,,,,,,,,,,,,,,,,0,0,0,0,0,0,0,0,0,0,0,0,0,0,0,0,,,,,,,,,,,,,
711784,1745469308751,0.0,13,,-0.02,-0.04,0.98,-15,0,0,0.98,1.26,78,2169,32.6,4.65,,14.58,1.216,100.6,,22.1,5,6,6,6,6,0.0,0.0,0.0,0.0,2.28,,,0,0,0,0,0,0,0,0,0,0,0,0,0,0,0,0,,0,,,,0.0,38.990757,-76.93988,9.13,31.4,23,2,1.2
711804,1745469308771,,,,,,,,,,,,,,,,,,,,,,,,,,,,,,,,,,0,0,0,0,0,0,0,0,0,0,0,0,0,0,0,0,,,,,,,,,,,,,
711824,1745469308791,0.0,13,,-0.03,-0.06,0.99,-16,0,0,1.0,1.26,79,1939,32.6,4.65,,14.64,1.148,100.6,,22.1,5,,,,,,,,,,,,0,0,0,0,0,0,0,0,0,0,0,0,0,0,0,0,,,,,,0.0,,,,,,,
711844,1745469308811,,,,,,,,,,,,,,,,,,,,,,,,,,,,,,,,,,0,0,0,0,0,0,0,0,0,0,0,0,0,0,0,0,,,,,,,,,,,,,
711864,1745469308831,0.0,20,,-0.04,-0.07,1.0,-16,-0,0,1.0,1.26,80,2017,32.9,4.65,,14.62,1.057,100.6,,22.1,5,,,,,,,,,,,,0,0,0,0,0,0,0,0,0,0,0,0,0,0,0,0,,,,,,0.0,,,,,,,
711884,1745469308851,,,,,,,,,,,,,,,,,,,,,,,6,7,6,7,0.0,164.0,0.0,0.0,2.27,,,0,0,0,0,0,0,0,0,0,0,0,0,0,0,0,0,,0,,,,,38.990757,-76.93988,9.96,31.4,23,2,1.2
711904,1745469308871,0.0,24,,-0.05,-0.07,0.99,-15,-0,0,0.99,1.26,79,2106,32.9,4.71,,14.64,1.044,100.6,,22.1,5,,,,,,,,,,,,0,0,0,0,0,0,0,0,0,0,0,0,0,0,0,0,,,,,,0.0,,,,,,,
711924,1745469308891,,,,,,,,,,,,,,,,,,,,,,,,,,,,,,,,,,0,0,0,0,0,0,0,0,0,0,0,0,0,0,0,0,,,,,,,,,,,,,
711944,1745469308911,0.0,27,,-0.04,-0.05,0.97,-15,-1,0,0.98,1.26,78,2234,33.0,4.68,,14.64,1.044,100.6,,23.8,5,,,,,,,,,,,,0,0,0,0,0,0,0,0,0,0,0,0,0,0,0,0,,,,,,0.0,,,,,,,
711964,1745469308931,,,,,,,,,,,,,,,,,,,,,,,,,,,,,,,,,,0,0,0,0,0,0,0,0,0,0,0,0,0,0,0,0,,,,,,,,,,,,,
711984,1745469308951,0.0,20,,-0.01,-0.07,0.99,-15,-1,0,0.99,1.26,79,2234,33.0,4.68,,14.62,1.053,98.8,,23.8,5,6,2,6,7,0.0,152.0,0.0,0.0,2.26,,,0,0,0,0,0,0,0,0,0,0,0,0,0,0,0,0,,0,,,,0.0,38.990757,-76.939873,10.0,31.4,23,2,1.2
712004,1745469308971,,,,,,,,,,,,,,,,,,,,,,,,,,,,,,,,,,0,0,0,0,0,0,0,0,0,0,0,0,0,0,0,0,,,,,,,,,,,,,
712024,1745469308991,0.0,13,,0.01,-0.09,1.0,-15,-1,0,1.0,1.26,80,2258,33.0,4.71,,14.6,1.068,98.8,,24.9,5,,,,,,,,,,,,0,0,0,0,0,0,0,0,0,0,0,0,0,0,0,0,,,,,,0.0,,,,,,,
712044,1745469308999,,,,,,,,,,,,,,,,,,,,,,,,,,,,,,,,,,0,0,0,0,0,0,0,0,0,0,0,0,0,0,0,0,,,,,,,,,,,,,
712064,1745469309019,0.0,3,,-0.01,-0.07,0.99,-15,-1,0,0.99,1.26,79,2323,28.1,4.73,,14.56,1.109,98.8,,24.9,5,,,,,,,,,,,,0,0,0,0,0,0,0,0,0,0,0,0,0,0,0,0,,,,,,0.0,,,,,,,
712084,1745469309039,,,,,,,,,,,,,,,,,,,,,,,6,7,7,7,0.0,38.0,0.0,0.0,2.27,,,0,0,0,0,0,0,0,0,0,0,0,0,0,0,0,0,,0,,,,,38.990761,-76.939873,10.4,31.4,23,2,1.2
712104,1745469309059,0.0,3,,-0.01,-0.08,0.97,-15,-1,-0,0.97,1.26,77,2251,27.2,4.8,,14.52,1.12,98.8,,24.9,5,,,,,,,,,,,,0,0,0,0,0,0,0,0,0,0,0,0,0,0,0,0,,,,,,0.0,,,,,,,
712124,1745469309093,,,,,,,,,,,,,,,,,,,,,,,,,,,,,,,,,,0,0,0,0,0,0,0,0,0,0,0,0,0,0,0,0,,,,,,,,,,,,,
712144,1745469309113,0.0,10,,-0.01,-0.06,0.98,-15,-1,-0,0.98,1.26,78,2390,26.4,4.74,,14.52,1.12,98.8,,24.3,5,,,,,,,,,,,,0,0,0,0,0,0,0,0,0,0,0,0,0,0,0,0,,,,,,0.0,,,,,,,
712164,1745469309133,,,,,,,,,,,,,,,,,,,,,,,,,,,,,,,,,,0,0,0,0,0,0,0,0,0,0,0,0,0,0,0,0,,,,,,,,,,,,,
712184,1745469309153,0.0,17,,-0.01,-0.01,0.99,-14,-1,-0,0.99,1.26,79,2390,26.4,4.74,,14.52,1.122,98.8,,24.3,5,7,8,7,7,0.0,68.0,0.0,0.0,2.28,,,0,0,0,0,0,0,0,0,0,0,0,0,0,0,0,0,,1,,,,0.0,38.990765,-76.939873,11.09,31.4,23,2,1.2
712204,1745469309173,,,,,,,,,,,,,,,,,,,,,,,,,,,,,,,,,,0,0,0,0,0,0,0,0,0,0,0,0,0,0,0,0,,,,,,,,,,,,,
712224,1745469309191,0.0,24,,-0.0,-0.02,1.0,-14,-1,-0,1.0,1.26,79,2462,18.4,4.55,,14.42,1.128,98.8,,25.5,5,,,,,,,,,,,,0,0,0,0,0,0,0,0,0,0,0,0,0,0,0,0,,,,,,0.0,,,,,,,
712244,1745469309211,,,,,,,,,,,,,,,,,,,,,,,,,,,,,,,,,,0,0,0,0,0,0,0,0,0,0,0,0,0,0,0,0,,,,,,,,,,,,,
712264,1745469309231,0.0,10,,0.0,-0.05,1.01,-14,-1,-0,1.01,1.26,81,2433,11.8,4.2,,14.32,1.114,98.8,,25.5,5,,,,,,,,,,,,0,0,0,0,0,0,0,0,0,0,0,0,0,0,0,0,,,,,,0.0,,,,,,,
712284,1745469309251,,,,,,,,,,,,,,,,,,,,,,,7,8,7,7,0.0,152.0,0.0,0.0,2.28,,,0,0,0,0,0,0,0,0,0,0,0,0,0,0,0,0,,1,,,,,38.990768,-76.939873,11.24,31.4,23,2,1.2
712304,1745469309271,0.0,17,,-0.01,-0.04,1.02,-14,-1,-0,1.02,1.26,81,2413,8.3,3.82,,14.18,1.111,98.8,,25.5,5,,,,,,,,,,,,0,0,0,0,0,0,0,0,0,0,0,0,0,0,0,0,,,,,,0.0,,,,,,,
712324,1745469309291,,,,,,,,,,,,,,,,,,,,,,,,,,,,,,,,,,0,0,0,0,0,0,0,0,0,0,0,0,0,0,0,0,,,,,,,,,,,,,
712344,1745469309311,0.0,20,,-0.01,-0.01,1.01,-13,-1,-0,1.01,1.26,80,2400,7.7,3.77,,14.18,1.111,98.8,,25.1,5,,,,,,,,,,,,0,0,0,0,0,0,0,0,0,0,0,0,0,0,0,0,,,,,,0.0,,,,,,,
712364,1745469309331,,,,,,,,,,,,,,,,,,,,,,,,,,,,,,,,,,0,0,0,0,0,0,0,0,0,0,0,0,0,0,0,0,,,,,,,,,,,,,
712384,1745469309351,0.0,-10,13.85,0.0,-0.04,1.02,-13,-1,-0,1.02,1.26,81,2400,7.7,3.77,15,14.02,1.115,98.8,167,25.1,5,7,7,7,8,0.0,97.0,0.0,0.0,2.27,0,1.0,0,0,0,0,0,0,0,0,0,0,0,0,0,0,0,0,0,0,1.0,0,-0,0.0,38.990772,-76.939873,11.4,31.4,23,2,1.2
712404,1745469309371,,,,,,,,,,,,,,,,,,,,,,,,,,,,,,,,,,0,0,0,0,0,0,0,0,0,0,0,0,0,0,0,0,,,,,,,,,,,,,
712424,1745469309391,0.0,-17,,-0.01,-0.02,1.02,-13,-1,-0,1.02,1.26,81,2623,7.4,3.82,,13.94,1.193,98.8,,27.3,5,,,,,,,,,,,,0,0,0,0,0,0,0,0,0,0,0,0,0,0,0,0,,,,,,0.0,,,,,,,
712444,1745469309411,,,,,,,,,,,,,,,,,,,,,,,,,,,,,,,,,,0,0,0,0,0,0,0,0,0,0,0,0,0,0,0,0,,,,,,,,,,,,,
712464,1745469309431,0.0,-7,,-0.04,-0.02,1.01,-13,-1,-1,1.01,1.26,81,2263,5.7,3.79,,13.98,1.15,98.8,,27.3,5,,,,,,,,,,,,0,0,0,0,0,0,0,0,0,0,0,0,0,0,0,0,,,,,,0.0,,,,,,,
712484,1745469309451,,,,,,,,,,,,,,,,,,,,,,,7,39,7,8,0.0,17.0,0.0,0.0,2.26,,,0,0,0,0,0,0,0,0,0,0,0,0,0,0,0,0,,0,,,,,38.990772,-76.939873,11.61,31.4,23,2,1.2
712504,1745469309471,0.0,-14,,-0.04,-0.02,1.0,-13,-1,-1,1.0,1.26,80,2355,5.4,3.78,,13.94,1.075,98.8,,27.3,5,,,,,,,,,,,,0,0,0,0,0,0,0,0,0,0,0,0,0,0,0,0,,,,,,0.0,,,,,,,
712524,1745469309491,,,,,,,,,,,,,,,,,,,,,,,,,,,,,,,,,,0,0,0,0,0,0,0,0,0,0,0,0,0,0,0,0,,,,,,,,,,,,,
712544,1745469309511,0.0,-0,,-0.05,-0.02,1.0,-12,-1,-1,1.0,1.26,80,2327,5.3,3.79,,13.94,1.075,98.8,,24.9,5,,,,,,,,,,,,0,0,0,0,0,0,0,0,0,0,0,0,0,0,0,0,,,,,,0.0,,,,,,,
712564,1745469309531,,,,,,,,,,,,,,,,,,,,,,,,,,,,,,,,,,0,0,0,0,0,0,0,0,0,0,0,0,0,0,0,0,,,,,,,,,,,,,
712584,1745469309551,2.01,-7,,-0.07,0.01,1.0,-12,-1,-1,1.01,1.26,80,2327,5.3,3.79,,13.95,1.006,98.8,,24.9,5,7,39,7,7,0.0,230.0,0.0,0.0,2.27,,,0,0,0,0,0,0,0,0,0,0,0,0,0,0,0,0,,0,,,,0.0,38.990776,-76.939873,12.21,31.4,23,2,1.2
712604,1745469309571,,,,,,,,,,,,,,,,,,,,,,,,,,,,,,,,,,0,0,0,0,0,0,0,0,0,0,0,0,0,0,0,0,,,,,,,,,,,,,
712624,1745469309591,4.52,-7,,-0.07,0.01,1.02,-11,-1,-1,1.02,1.26,81,2375,5.2,3.79,,13.92,0.993,98.8,,25.8,5,,,,,,,,,,,,0,0,0,0,0,0,0,0,0,0,0,0,0,0,0,0,,,,,,0.0,,,,,,,
712644,1745469309610,,,,,,,,,,,,,,,,,,,,,,,,,,,,,,,,,,0,0,0,0,0,0,0,0,0,0,0,0,0,0,0,0,,,,,,,,,,,,,
712664,1745469309630,5.15,-14,,-0.09,0.01,1.03,-11,-1,-1,1.04,1.26,83,2441,5.0,3.78,,13.9,1.011,98.8,,25.8,5,,,,,,,,,,,,0,0,0,0,0,0,0,0,0,0,0,0,0,0,0,0,,,,,,0.0,,,,,,,
712684,1745469309650,,,,,,,,,,,,,,,,,,,,,,,7,39,7,7,0.0,218.0,0.0,0.0,2.27,,,0,0,0,0,0,0,0,0,0,0,0,0,0,0,0,0,,1,,,,,38.99078,-76.939873,11.76,31.4,23,2,1.2
712704,1745469309670,7.04,-17,,-0.09,0.03,1.01,-10,-1,-0,1.02,1.26,81,2477,4.8,3.78,,13.84,1.046,98.8,,25.8,5,,,,,,,,,,,,0,0,0,0,0,0,0,0,0,0,0,0,0,0,0,0,,,,,,0.0,,,,,,,
712724,1745469309690,,,,,,,,,,,,,,,,,,,,,,,,,,,,,,,,,,0,0,0,0,0,0,0,0,0,0,0,0,0,0,0,0,,,,,,,,,,,,,
712744,1745469309710,9.55,-17,,-0.1,0.04,1.02,-10,-1,-0,1.02,1.26,81,2499,4.8,3.79,,13.84,1.046,98.8,,26.7,5,,,,,,,,,,,,0,0,0,0,0,0,0,0,0,0,0,0,0,0,0,0,,,,,,0.0,,,,,,,
712764,1745469309730,,,,,,,,,,,,,,,,,,,,,,,,,,,,,,,,,,0,0,0,0,0,0,0,0,0,0,0,0,0,0,0,0,,,,,,,,,,,,,
712784,1745469309750,11.44,-27,,-0.09,0.05,1.0,-9,-1,-0,1.01,1.26,80,2499,4.8,3.79,,13.8,1.068,98.8,,26.7,5,7,39,7,7,0.0,204.0,0.0,0.0,2.28,,,0,0,0,0,0,0,0,0,0,0,0,0,0,0,0,0,,1,,,,0.0,38.99078,-76.939873,11.83,31.4,23,2,1.2
712804,1745469309770,,,,,,,,,,,,,,,,,,,,,,,,,,,,,,,,,,0,0,0,0,0,0,0,0,0,0,0,0,0,0,0,0,,,,,,,,,,,,,
712824,1745469309790,11.44,-31,,-0.08,0.04,1.01,-8,-0,-0,1.02,1.26,81,2540,4.7,3.79,,13.8,1.073,98.8,,27.6,5,,,,,,,,,,,,0,0,0,0,0,0,0,0,0,0,0,0,0,0,0,0,,,,,,0.0,,,,,,,
712844,1745469309810,,,,,,,,,,,,,,,,,,,,,,,,,,,,,,,,,,0,0,0,0,0,0,0,0,0,0,0,0,0,0,0,0,,,,,,,,,,,,,
712864,1745469309830,10.18,-24,,-0.06,0.03,1.02,-7,-0,-0,1.03,1.03,100,2495,5.1,3.79,,13.87,1.07,98.8,,27.6,5,,,,,,,,,,,,0,0,0,0,0,0,0,0,0,0,0,0,0,0,0,0,,,,,,0.0,,,,,,,
712884,1745469309850,,,,,,,,,,,,,,,,,,,,,,,7,39,7,7,0.0,208.0,0.0,0.0,2.27,,,0,0,0,0,0,0,0,0,0,0,0,0,0,0,0,0,,0,,,,,38.990784,-76.939873,11.37,31.4,23,2,1.2
712904,1745469309870,9.55,-21,,-0.07,0.06,1.02,-6,-0,-0,1.03,1.03,100,2384,5.2,3.79,,13.88,1.075,98.8,,27.6,5,,,,,,,,,,,,0,0,0,0,0,0,0,0,0,0,0,0,0,0,0,0,,,,,,0.0,,,,,,,
712924,1745469309892,,,,,,,,,,,,,,,,,,,,,,,,,,,,,,,,,,0,0,0,0,0,0,0,0,0,0,0,0,0,0,0,0,,,,,,,,,,,,,
712944,1745469309912,10.18,-14,,-0.07,0.08,1.03,-5,-0,-0,1.03,1.03,100,2232,5.2,3.78,,13.88,1.075,98.8,,25.9,5,,,,,,,,,,,,0,0,0,0,0,0,0,0,0,0,0,0,0,0,0,0,,,,,,0.0,,,,,,,
712964,1745469309932,,,,,,,,,,,,,,,,,,,,,,,,,,,,,,,,,,0,0,0,0,0,0,0,0,0,0,0,0,0,0,0,0,,,,,,,,,,,,,
712984,1745469309952,8.92,-31,,-0.06,0.07,1.03,-4,-0,-0,1.03,1.03,100,2232,5.2,3.78,,13.99,1.091,98.8,,25.9,5,7,39,7,7,0.0,210.0,0.0,0.0,2.26,,,0,0,0,0,0,0,0,0,0,0,0,0,0,0,0,0,,0,,,,0.0,38.990788,-76.939865,11.31,31.4,23,2,1.2
713004,1745469309972,,,,,,,,,,,,,,,,,,,,,,,,,,,,,,,,,,0,0,0,0,0,0,0,0,0,0,0,0,0,0,0,0,,,,,,,,,,,,,
713024,1745469309992,7.67,-34,,-0.06,0.09,1.03,-3,-0,-0,1.04,1.04,100,2184,5.4,3.77,,13.96,1.122,98.8,,24.3,5,,,,,,,,,,,,0,0,0,0,0,0,0,0,0,0,0,0,0,0,0,0,,,,,,0.0,,,,,,,
713044,1745469310000,,,,,,,,,,,,,,,,,,,,,,,,,,,,,,,,,,0,0,0,0,0,0,0,0,0,0,0,0,0,0,0,0,,,,,,,,,,,,,
713064,1745469310020,6.41,-48,,-0.08,0.11,1.04,-2,-0,-0,1.05,1.05,100,2285,5.3,3.78,,13.96,1.14,98.8,,24.3,5,,,,,,,,,,,,0,0,0,0,0,0,0,0,0,0,0,0,0,0,0,0,,,,,,0.0,,,,,,,
713084,1745469310040,,,,,,,,,,,,,,,,,,,,,,,7,39,7,7,0.0,210.0,0.0,0.0,2.27,,,0,0,0,0,0,0,0,0,0,0,0,0,0,0,0,0,,0,,,,,38.990791,-76.939865,11.7,31.4,23,2,1.2
713104,1745469310060,5.15,-38,,-0.08,0.11,1.04,-1,-0,-0,1.04,1.05,99,2312,5.2,3.78,,13.96,1.13,98.8,,24.3,5,,,,,,,,,,,,0,0,0,0,0,0,0,0,0,0,0,0,0,0,0,0,,,,,,0.0,,,,,,,
713124,1745469310080,,,,,,,,,,,,,,,,,,,,,,,,,,,,,,,,,,0,0,0,0,0,0,0,0,0,0,0,0,0,0,0,0,,,,,,,,,,,,,
713144,1745469310106,3.9,-44,,-0.09,0.13,1.04,0,-0,-0,1.05,1.05,100,2357,4.9,3.77,,13.96,1.13,98.8,,24.9,5,,,,,,,,,,,,0,0,0,0,0,0,0,0,0,0,0,0,0,0,0,0,,,,,,0.0,,,,,,,
713164,1745469310126,,,,,,,,,,,,,,,,,,,,,,,,,,,,,,,,,,0,0,0,0,0,0,0,0,0,0,0,0,0,0,0,0,,,,,,,,,,,,,
713184,1745469310146,2.01,-34,,-0.09,0.13,1.04,1,-0,-0,1.06,1.06,100,2357,4.9,3.77,,13.96,1.128,98.8,,24.9,5,7,39,7,7,0.0,206.0,0.0,0.0,2.27,,,0,0,0,0,0,0,0,0,0,0,0,0,0,0,0,0,,1,,,,0.0,38.990795,-76.939865,11.05,31.4,23,2,1.2
713204,1745469310166,,,,,,,,,,,,,,,,,,,,,,,,,,,,,,,,,,0,0,0,0,0,0,0,0,0,0,0,0,0,0,0,0,,,,,,,,,,,,,
713224,1745469310186,0.13,-34,,-0.09,0.12,1.03,2,-0,-0,1.05,1.06,99,2401,4.9,3.78,,13.94,1.138,98.8,,25.2,5,,,,,,,,,,,,0,0,0,0,0,0,0,0,0,0,0,0,0,0,0,0,,,,,,0.0,,,,,,,
713244,1745469310210,,,,,,,,,,,,,,,,,,,,,,,,,,,,,,,,,,0,0,0,0,0,0,0,0,0,0,0,0,0,0,0,0,,,,,,,,,,,,,
713264,1745469310230,0.0,-34,,-0.09,0.11,1.05,3,-0,-0,1.06,1.06,100,2430,4.8,3.78,,13.94,1.152,98.8,,25.2,5,,,,,,,,,,,,0,0,0,0,0,0,0,0,0,0,0,0,0,0,0,0,,,,,,0.0,,,,,,,
713284,1745469310250,,,,,,,,,,,,,,,,,,,,,,,7,39,7,7,0.0,208.0,0.0,0.0,2.27,,,0,0,0,0,0,0,0,0,0,0,0,0,0,0,0,0,,0,,,,,38.990799,-76.939865,11.39,31.5,24,2,1.2
713304,1745469310270,0.0,-31,,-0.08,0.1,1.04,4,-1,-0,1.04,1.06,98,2388,4.9,3.78,,13.94,1.152,98.8,,25.2,5,,,,,,,,,,,,0,0,0,0,0,0,0,0,0,0,0,0,0,0,0,0,,,,,,0.0,,,,,,,
713324,1745469310290,,,,,,,,,,,,,,,,,,,,,,,,,,,,,,,,,,0,0,0,0,0,0,0,0,0,0,0,0,0,0,0,0,,,,,,,,,,,,,
713344,1745469310310,0.0,-34,,-0.05,0.1,1.02,5,-1,-0,1.02,1.06,96,2298,5.0,3.78,,13.94,1.152,98.8,,24.7,5,,,,,,,,,,,,0,0,0,0,0,0,0,0,0,0,0,0,0,0,0,0,,,,,,0.0,,,,,,,
713364,1745469310330,,,,,,,,,,,,,,,,,,,,,,,,,,,,,,,,,,0,0,0,0,0,0,0,0,0,0,0,0,0,0,0,0,,,,,,,,,,,,,
713384,1745469310350,0.0,-55,13.85,-0.04,0.1,1.02,5,-0,-0,1.02,1.06,96,2298,5.0,3.78,15,13.98,1.154,98.8,167,24.7,5,7,39,7,7,0.0,206.0,0.0,0.0,2.27,0,1.0,0,0,0,0,0,0,0,0,0,0,0,0,0,0,0,0,0,1,1.0,0,-0,0.0,38.990799,-76.939865,11.04,31.5,24,2,1.2
713404,1745469310370,,,,,,,,,,,,,,,,,,,,,,,,,,,,,,,,,,0,0,0,0,0,0,0,0,0,0,0,0,0,0,0,0,,,,,,,,,,,,,
713424,1745469310390,0.0,-71,,-0.04,0.11,1.01,6,-1,-0,1.02,1.06,96,2258,5.4,3.79,,13.99,1.154,98.8,,25.6,5,,,,,,,,,,,,0,0,0,0,0,0,0,0,0,0,0,0,0,0,0,0,,,,,,0.0,,,,,,,
713444,1745469310410,,,,,,,,,,,,,,,,,,,,,,,,,,,,,,,,,,0,0,0,0,0,0,0,0,0,0,0,0,0,0,0,0,,,,,,,,,,,,,
713464,1745469310430,0.0,-61,,-0.02,0.1,1.0,7,-1,-0,1.0,1.06,95,2541,5.5,3.79,,13.9,1.165,98.8,,25.6,5,,,,,,,,,,,,0,0,0,0,0,0,0,0,0,0,0,0,0,0,0,0,,,,,,0.0,,,,,,,
713484,1745469310450,,,,,,,,,,,,,,,,,,,,,,,7,39,7,7,0.0,206.0,0.0,0.0,2.26,,,0,0,0,0,0,0,0,0,0,0,0,0,0,0,0,0,,0,,,,,38.990799,-76.939865,10.84,31.5,24,2,1.2
713504,1745469310470,0.0,-65,,-0.02,0.12,1.0,9,-1,-0,1.01,1.06,95,2482,5.7,3.79,,13.92,1.184,98.8,,25.6,5,,,,,,,,,,,,0,0,0,0,0,0,0,0,0,0,0,0,0,0,0,0,,,,,,0.0,,,,,,,
713524,1745469310490,,,,,,,,,,,,,,,,,,,,,,,,,,,,,,,,,,0,0,0,0,0,0,0,0,0,0,0,0,0,0,0,0,,,,,,,,,,,,,
713544,1745469310509,0.0,-44,,-0.02,0.16,1.0,10,-1,-0,1.01,1.06,95,2295,5.8,3.77,,13.92,1.184,98.8,,24.9,5,,,,,,,,,,,,0,0,0,0,0,0,0,0,0,0,0,0,0,0,0,0,,,,,,0.0,,,,,,,
713564,1745469310529,,,,,,,,,,,,,,,,,,,,,,,,,,,,,,,,,,0,0,0,0,0,0,0,0,0,0,0,0,0,0,0,0,,,,,,,,,,,,,
713584,1745469310549,0.0,-55,,-0.02,0.17,1.0,11,-1,-1,1.01,1.06,95,2295,5.8,3.77,,13.95,1.139,98.8,,24.9,5,7,39,8,7,0.0,215.0,0.0,0.0,2.27,,,0,0,0,0,0,0,0,0,0,0,0,0,0,0,0,0,,1,,,,0.0,38.990803,-76.939865,11.08,31.5,24,2,1.2
713604,1745469310569,,,,,,,,,,,,,,,,,,,,,,,,,,,,,,,,,,0,0,0,0,0,0,0,0,0,0,0,0,0,0,0,0,,,,,,,,,,,,,
713624,1745469310591,0.0,-61,,-0.03,0.16,1.0,13,-1,-1,1.01,1.06,95,2272,5.8,3.75,,14.06,1.117,98.8,,23.9,5,,,,,,,,,,,,0,0,0,0,0,0,0,0,0,0,0,0,0,0,0,0,,,,,,0.0,,,,,,,
713644,1745469310611,,,,,,,,,,,,,,,,,,,,,,,,,,,,,,,,,,0,0,0,0,0,0,0,0,0,0,0,0,0,0,0,0,,,,,,,,,,,,,
713664,1745469310631,0.0,-65,,-0.05,0.2,1.0,14,-1,-0,1.02,1.06,96,2317,5.5,3.77,,14.07,1.09,98.8,,23.9,5,,,,,,,,,,,,0,0,0,0,0,0,0,0,0,0,0,0,0,0,0,0,,,,,,0.0,,,,,,,
713684,1745469310651,,,,,,,,,,,,,,,,,,,,,,,8,39,8,7,0.0,217.0,0.0,0.0,2.27,,,0,0,0,0,0,0,0,0,0,0,0,0,0,0,0,0,,0,,,,,38.990807,-76.939865,11.69,31.4,24,2,1.2
713704,1745469310671,0.0,-71,,-0.05,0.2,0.99,15,-1,-1,1.01,1.06,95,2415,5.5,3.78,,14.04,1.056,98.8,,23.9,5,,,,,,,,,,,,0,0,0,0,0,0,0,0,0,0,0,0,0,0,0,0,,,,,,0.0,,,,,,,
713724,1745469310693,,,,,,,,,,,,,,,,,,,,,,,,,,,,,,,,,,0,0,0,0,0,0,0,0,0,0,0,0,0,0,0,0,,,,,,,,,,,,,
713744,1745469310713,0.0,-78,,-0.05,0.22,0.98,16,-1,-1,1.01,1.06,95,2526,5.7,3.79,,14.04,1.056,98.8,,25.4,5,,,,,,,,,,,,0,0,0,0,0,0,0,0,0,0,0,0,0,0,0,0,,,,,,0.0,,,,,,,
713764,1745469310733,,,,,,,,,,,,,,,,,,,,,,,,,,,,,,,,,,0,0,0,0,0,0,0,0,0,0,0,0,0,0,0,0,,,,,,,,,,,,,
713784,1745469310753,0.0,-82,,-0.05,0.21,0.97,16,-1,-1,0.99,1.06,93,2526,5.7,3.79,,14.02,1.06,98.8,,25.4,5,8,39,8,7,0.0,211.0,0.0,0.0,2.28,,,0,0,0,0,0,0,0,0,0,0,0,0,0,0,0,0,,0,,,,0.0,38.99081,-76.939865,11.24,31.4,24,2,1.2
713804,1745469310773,,,,,,,,,,,,,,,,,,,,,,,,,,,,,,,,,,0,0,0,0,0,0,0,0,0,0,0,0,0,0,0,0,,,,,,,,,,,,,
713824,1745469310791,0.0,-85,,-0.05,0.25,0.96,17,-1,-1,1.0,1.06,94,2454,6.7,3.8,,14.11,1.08,98.8,,25.3,5,,,,,,,,,,,,0,0,0,0,0,0,0,0,0,0,0,0,0,0,0,0,,,,,,0.0,,,,,,,
713844,1745469310811,,,,,,,,,,,,,,,,,,,,,,,,,,,,,,,,,,0,0,0,0,0,0,0,0,0,0,0,0,0,0,0,0,,,,,,,,,,,,,
713864,1745469310831,0.0,-75,,-0.04,0.21,0.97,17,-0,-1,1.0,1.06,94,2431,7.3,3.78,,14.1,1.115,98.8,,25.3,5,,,,,,,,,,,,0,0,0,0,0,0,0,0,0,0,0,0,0,0,0,0,,,,,,0.0,,,,,,,
713884,1745469310851,,,,,,,,,,,,,,,,,,,,,,,8,14,8,7,0.0,65.0,0.0,0.0,2.27,,,0,0,0,0,0,0,0,0,0,0,0,0,0,0,0,0,,0,,,,,38.990814,-76.939865,11.22,31.4,24,2,1.2
713904,1745469310871,0.0,-71,,-0.01,0.22,0.97,18,-0,-1,0.99,1.06,94,2680,8.4,3.82,,13.99,1.166,98.8,,25.3,5,,,,,,,,,,,,0,0,0,0,0,0,0,0,0,0,0,0,0,0,0,0,,,,,,0.0,,,,,,,
713924,1745469310891,,,,,,,,,,,,,,,,,,,,,,,,,,,,,,,,,,0,0,0,0,0,0,0,0,0,0,0,0,0,0,0,0,,,,,,,,,,,,,
713944,1745469310911,0.0,-61,,0.02,0.16,0.99,18,0,-1,1.0,1.06,95,2610,8.8,3.83,,13.99,1.166,98.8,,27.9,5,,,,,,,,,,,,0,0,0,0,0,0,0,0,0,0,0,0,0,0,0,0,,,,,,0.0,,,,,,,
713964,1745469310931,,,,,,,,,,,,,,,,,,,,,,,,,,,,,,,,,,0,0,0,0,0,0,0,0,0,0,0,0,0,0,0,0,,,,,,,,,,,,,
713984,1745469310951,0.0,-68,,0.0,0.2,1.01,18,-0,-1,1.03,1.06,97,2610,8.8,3.83,,14.04,1.193,98.8,,27.9,5,8,14,8,7,0.0,100.0,0.0,0.0,2.27,,,0,0,0,0,0,0,0,0,0,0,0,0,0,0,0,0,,0,,,,0.0,38.990818,-76.939865,11.23,31.4,24,2,1.2
714004,1745469310971,,,,,,,,,,,,,,,,,,,,,,,,,,,,,,,,,,0,0,0,0,0,0,0,0,0,0,0,0,0,0,0,0,,,,,,,,,,,,,
714024,1745469310991,0.0,-68,,-0.02,0.19,0.97,18,-0,-0,0.99,1.06,94,2433,8.8,3.79,,14.07,1.111,98.8,,25.3,5,,,,,,,,,,,,0,0,0,0,0,0,0,0,0,0,0,0,0,0,0,0,,,,,,0.0,,,,,,,
714044,1745469311001,,,,,,,,,,,,,,,,,,,,,,,,,,,,,,,,,,0,0,0,0,0,0,0,0,0,0,0,0,0,0,0,0,,,,,,,,,,,,,
714064,1745469311021,0.0,-82,,-0.02,0.15,0.95,17,0,-0,0.96,1.06,90,2424,8.7,3.77,,14.08,1.07,98.8,,25.3,5,,,,,,,,,,,,0,0,0,0,0,0,0,0,0,0,0,0,0,0,0,0,,,,,,0.0,,,,,,,
714084,1745469311041,,,,,,,,,,,,,,,,,,,,,,,8,14,8,8,0.0,100.0,0.0,0.0,2.27,,,0,0,0,0,0,0,0,0,0,0,0,0,0,0,0,0,,0,,,,,38.990818,-76.939865,12.21,31.4,23,2,1.2
714104,1745469311061,0.0,-88,,-0.03,0.14,0.97,17,1,-0,0.98,1.06,93,2523,9.1,3.79,,14.04,1.073,98.8,,25.3,5,,,,,,,,,,,,0,0,0,0,0,0,0,0,0,0,0,0,0,0,0,0,,,,,,0.0,,,,,,,
714124,1745469311091,,,,,,,,,,,,,,,,,,,,,,,,,,,,,,,,,,0,0,0,0,0,0,0,0,0,0,0,0,0,0,0,0,,,,,,,,,,,,,
714144,1745469311111,0.0,-78,,-0.04,0.14,0.96,17,0,-0,0.97,1.06,92,2600,8.8,3.83,,14.04,1.073,98.8,,27.0,5,,,,,,,,,,,,0,0,0,0,0,0,0,0,0,0,0,0,0,0,0,0,,,,,,0.0,,,,,,,
714164,1745469311131,,,,,,,,,,,,,,,,,,,,,,,,,,,,,,,,,,0,0,0,0,0,0,0,0,0,0,0,0,0,0,0,0,,,,,,,,,,,,,
714184,1745469311151,0.0,-75,,-0.04,0.15,1.01,17,0,-0,1.02,1.06,96,2600,8.8,3.83,,13.99,1.088,98.8,,27.0,5,8,14,8,7,0.0,100.0,0.0,0.0,2.27,,,0,0,0,0,0,0,0,0,0,0,0,0,0,0,0,0,,0,,,,0.0,38.990822,-76.939865,12.31,31.4,23,2,1.2
714204,1745469311171,,,,,,,,,,,,,,,,,,,,,,,,,,,,,,,,,,0,0,0,0,0,0,0,0,0,0,0,0,0,0,0,0,,,,,,,,,,,,,
714224,1745469311191,0.0,-75,,-0.03,0.15,0.98,17,1,-0,0.99,1.06,93,2660,8.8,3.85,,13.95,1.09,98.8,,28.6,5,,,,,,,,,,,,0,0,0,0,0,0,0,0,0,0,0,0,0,0,0,0,,,,,,0.0,,,,,,,
714244,1745469311209,,,,,,,,,,,,,,,,,,,,,,,,,,,,,,,,,,0,0,0,0,0,0,0,0,0,0,0,0,0,0,0,0,,,,,,,,,,,,,
714264,1745469311229,0.0,-82,,-0.02,0.12,1.01,17,0,-0,1.02,1.06,96,2603,8.9,3.87,,13.96,1.098,98.8,,28.6,5,,,,,,,,,,,,0,0,0,0,0,0,0,0,0,0,0,0,0,0,0,0,,,,,,0.0,,,,,,,
714284,1745469311249,,,,,,,,,,,,,,,,,,,,,,,8,14,8,7,0.0,110.0,0.0,0.0,2.27,,,0,0,0,0,0,0,0,0,0,0,0,0,0,0,0,0,,0,,,,,38.990822,-76.939865,12.01,31.4,23,2,1.2
714304,1745469311269,0.0,-88,,-0.01,0.12,0.98,18,0,-0,0.99,1.06,93,2569,8.9,3.85,,13.99,1.123,98.8,,28.6,5,,,,,,,,,,,,0,0,0,0,0,0,0,0,0,0,0,0,0,0,0,0,,,,,,0.0,,,,,,,
714324,1745469311291,,,,,,,,,,,,,,,,,,,,,,,,,,,,,,,,,,0,0,0,0,0,0,0,0,0,0,0,0,0,0,0,0,,,,,,,,,,,,,
714344,1745469311311,0.0,-65,,-0.0,0.14,0.98,18,0,-0,0.99,1.06,94,2486,9.1,3.85,,13.99,1.123,98.8,,28.2,5,,,,,,,,,,,,0,0,0,0,0,0,0,0,0,0,0,0,0,0,0,0,,,,,,0.0,,,,,,,
714364,1745469311331,,,,,,,,,,,,,,,,,,,,,,,,,,,,,,,,,,0,0,0,0,0,0,0,0,0,0,0,0,0,0,0,0,,,,,,,,,,,,,
714384,1745469311351,0.0,-88,13.88,-0.0,0.13,1.0,19,0,-1,1.01,1.06,95,2486,9.1,3.85,15,14.03,1.158,98.8,167,28.2,5,8,14,8,7,0.0,110.0,0.0,0.0,2.27,0,1.0,0,0,0,0,0,0,0,0,0,0,0,0,0,0,0,0,0,1,1.0,0,-0,0.0,38.990826,-76.939865,12.03,31.4,23,2,1.2
714404,1745469311371,,,,,,,,,,,,,,,,,,,,,,,,,,,,,,,,,,0,0,0,0,0,0,0,0,0,0,0,0,0,0,0,0,,,,,,,,,,,,,
714424,1745469311391,0.0,-85,,-0.02,0.17,0.99,19,0,-1,1.0,1.06,95,2493,9.4,3.84,,14.06,1.194,98.8,,27.3,5,,,,,,,,,,,,0,0,0,0,0,0,0,0,0,0,0,0,0,0,0,0,,,,,,0.0,,,,,,,
714444,1745469311411,,,,,,,,,,,,,,,,,,,,,,,,,,,,,,,,,,0,0,0,0,0,0,0,0,0,0,0,0,0,0,0,0,,,,,,,,,,,,,
714464,1745469311431,0.0,-88,,-0.02,0.21,1.02,21,-0,-0,1.04,1.06,98,2477,9.4,3.84,,14.08,1.203,98.8,,27.3,5,,,,,,,,,,,,0,0,0,0,0,0,0,0,0,0,0,0,0,0,0,0,,,,,,0.0,,,,,,,
714484,1745469311451,,,,,,,,,,,,,,,,,,,,,,,8,14,8,7,0.0,105.0,0.0,0.0,2.26,,,0,0,0,0,0,0,0,0,0,0,0,0,0,0,0,0,,0,,,,,38.990829,-76.939865,11.93,31.4,23,2,1.2
714504,1745469311471,0.0,-85,,-0.02,0.22,1.01,21,-0,-1,1.04,1.06,98,2486,9.3,3.84,,14.11,1.2,98.8,,27.3,5,,,,,,,,,,,,0,0,0,0,0,0,0,0,0,0,0,0,0,0,0,0,,,,,,0.0,,,,,,,
714524,1745469311491,,,,,,,,,,,,,,,,,,,,,,,,,,,,,,,,,,0,0,0,0,0,0,0,0,0,0,0,0,0,0,0,0,,,,,,,,,,,,,
714544,1745469311511,0.0,-78,,-0.03,0.23,0.98,22,-1,-1,1.01,1.06,95,2448,9.3,3.83,,14.11,1.2,98.8,,27.0,5,,,,,,,,,,,,0,0,0,0,0,0,0,0,0,0,0,0,0,0,0,0,,,,,,0.0,,,,,,,
714564,1745469311531,,,,,,,,,,,,,,,,,,,,,,,,,,,,,,,,,,0,0,0,0,0,0,0,0,0,0,0,0,0,0,0,0,,,,,,,,,,,,,
714584,1745469311551,0.0,-88,,-0.03,0.21,1.0,22,-1,-1,1.03,1.06,97,2448,9.3,3.83,,14.1,1.189,98.8,,27.0,5,8,13,8,7,0.0,176.0,0.0,0.0,2.27,,,0,0,0,0,0,0,0,0,0,0,0,0,0,0,0,0,,0,,,,0.0,38.990833,-76.939865,12.45,31.4,23,2,1.2
714604,1745469311571,,,,,,,,,,,,,,,,,,,,,,,,,,,,,,,,,,0,0,0,0,0,0,0,0,0,0,0,0,0,0,0,0,,,,,,,,,,,,,
714624,1745469311591,0.0,-92,,-0.03,0.24,0.98,23,-1,-1,1.01,1.06,95,2531,9.2,3.85,,14.0,1.186,98.8,,27.2,5,,,,,,,,,,,,0,0,0,0,0,0,0,0,0,0,0,0,0,0,0,0,,,,,,0.0,,,,,,,
714644,1745469311610,,,,,,,,,,,,,,,,,,,,,,,,,,,,,,,,,,0,0,0,0,0,0,0,0,0,0,0,0,0,0,0,0,,,,,,,,,,,,,
714664,1745469311630,0.0,-88,,-0.03,0.22,0.98,23,-1,-1,1.01,1.06,95,2575,9.0,3.83,,14.0,1.166,98.8,,27.2,5,,,,,,,,,,,,0,0,0,0,0,0,0,0,0,0,0,0,0,0,0,0,,,,,,0.0,,,,,,,
714684,1745469311650,,,,,,,,,,,,,,,,,,,,,,,8,2,8,7,0.0,240.0,0.0,0.0,2.27,,,0,0,0,0,0,0,0,0,0,0,0,0,0,0,0,0,,0,,,,,38.990837,-76.939865,12.03,31.5,23,2,1.2
714704,1745469311670,0.0,-112,,-0.01,0.2,0.99,24,-1,-1,1.01,1.06,95,2579,8.9,3.83,,14.02,1.171,98.8,,27.2,5,,,,,,,,,,,,0,0,0,0,0,0,0,0,0,0,0,0,0,0,0,0,,,,,,0.0,,,,,,,
714724,1745469311690,,,,,,,,,,,,,,,,,,,,,,,,,,,,,,,,,,0,0,0,0,0,0,0,0,0,0,0,0,0,0,0,0,,,,,,,,,,,,,
714744,1745469311710,0.0,-102,,-0.02,0.21,0.97,24,-1,-1,1.0,1.06,94,2604,8.8,3.83,,14.02,1.171,98.8,,27.0,5,,,,,,,,,,,,0,0,0,0,0,0,0,0,0,0,0,0,0,0,0,0,,,,,,0.0,,,,,,,
714764,1745469311730,,,,,,,,,,,,,,,,,,,,,,,,,,,,,,,,,,0,0,0,0,0,0,0,0,0,0,0,0,0,0,0,0,,,,,,,,,,,,,
714784,1745469311750,0.0,-109,,-0.01,0.19,1.0,25,-2,-1,1.02,1.06,96,2604,8.8,3.83,,13.98,1.204,98.8,,27.0,5,8,7,8,7,0.0,216.0,0.0,0.0,2.28,,,0,0,0,0,0,0,0,0,0,0,0,0,0,0,0,0,,0,,,,0.0,38.990837,-76.939873,12.35,31.5,23,2,1.2
714804,1745469311770,,,,,,,,,,,,,,,,,,,,,,,,,,,,,,,,,,0,0,0,0,0,0,0,0,0,0,0,0,0,0,0,0,,,,,,,,,,,,,
714824,1745469311790,0.0,-102,,-0.02,0.21,0.97,26,-1,-1,0.99,1.06,94,2630,9.0,3.84,,13.96,1.198,98.8,,27.2,5,,,,,,,,,,,,0,0,0,0,0,0,0,0,0,0,0,0,0,0,0,0,,,,,,0.0,,,,,,,
714844,1745469311810,,,,,,,,,,,,,,,,,,,,,,,,,,,,,,,,,,0,0,0,0,0,0,0,0,0,0,0,0,0,0,0,0,,,,,,,,,,,,,
714864,1745469311830,0.0,-102,,-0.01,0.19,0.96,26,-1,-1,0.98,1.06,93,2592,9.2,3.84,,14.0,1.176,98.8,,27.2,5,,,,,,,,,,,,0,0,0,0,0,0,0,0,0,0,0,0,0,0,0,0,,,,,,0.0,,,,,,,
714884,1745469311850,,,,,,,,,,,,,,,,,,,,,,,9,3,8,7,0.0,248.0,0.0,0.0,2.27,,,0,0,0,0,0,0,0,0,0,0,0,0,0,0,0,0,,0,,,,,38.990841,-76.939873,12.14,31.5,23,2,1.2
714904,1745469311870,0.0,-109,,-0.03,0.2,0.99,26,-1,-0,1.01,1.06,95,2487,9.4,3.81,,14.06,1.18,98.8,,27.2,5,,,,,,,,,,,,0,0,0,0,0,0,0,0,0,0,0,0,0,0,0,0,,,,,,0.0,,,,,,,
714924,1745469311890,,,,,,,,,,,,,,,,,,,,,,,,,,,,,,,,,,0,0,0,0,0,0,0,0,0,0,0,0,0,0,0,0,,,,,,,,,,,,,
714944,1745469311908,0.0,-95,,-0.03,0.21,0.99,27,-1,-0,1.01,1.06,95,2495,9.3,3.8,,14.06,1.18,98.8,,26.1,5,,,,,,,,,,,,0,0,0,0,0,0,0,0,0,0,0,0,0,0,0,0,,,,,,0.0,,,,,,,
714964,1745469311928,,,,,,,,,,,,,,,,,,,,,,,,,,,,,,,,,,0,0,0,0,0,0,0,0,0,0,0,0,0,0,0,0,,,,,,,,,,,,,
714984,1745469311948,0.0,-102,,-0.04,0.19,1.01,28,-1,-0,1.02,1.06,96,2495,9.3,3.8,,14.1,1.195,98.8,,26.1,5,8,8,8,7,0.0,225.0,0.0,0.0,2.26,,,0,0,0,0,0,0,0,0,0,0,0,0,0,0,0,0,,0,,,,0.0,38.990845,-76.939873,12.15,31.5,23,2,1.2
715004,1745469311968,,,,,,,,,,,,,,,,,,,,,,,,,,,,,,,,,,0,0,0,0,0,0,0,0,0,0,0,0,0,0,0,0,,,,,,,,,,,,,
715024,1745469311988,0.0,-105,,-0.04,0.21,1.02,28,-2,-0,1.04,1.06,98,2496,9.3,3.81,,14.1,1.2,98.8,,26.4,5,,,,,,,,,,,,0,0,0,0,0,0,0,0,0,0,0,0,0,0,0,0,,,,,,0.0,,,,,,,
715044,1745469312000,,,,,,,,,,,,,,,,,,,,,,,,,,,,,,,,,,0,0,0,0,0,0,0,0,0,0,0,0,0,0,0,0,,,,,,,,,,,,,
715064,1745469312020,0.0,-116,,-0.04,0.2,1.04,29,-2,-0,1.06,1.06,100,2510,9.3,3.81,,14.07,1.195,98.8,,26.4,5,,,,,,,,,,,,0,0,0,0,0,0,0,0,0,0,0,0,0,0,0,0,,,,,,0.0,,,,,,,
715084,1745469312040,,,,,,,,,,,,,,,,,,,,,,,8,7,8,7,0.0,200.0,0.0,0.0,2.27,,,0,0,0,0,0,0,0,0,0,0,0,0,0,0,0,0,,0,,,,,38.990849,-76.939873,12.1,31.6,24,2,1.2
715104,1745469312060,0.0,-126,,-0.05,0.22,1.01,29,-2,-0,1.04,1.06,98,2544,9.2,3.83,,14.02,1.187,98.8,,26.4,5,,,,,,,,,,,,0,0,0,0,0,0,0,0,0,0,0,0,0,0,0,0,,,,,,0.0,,,,,,,
715124,1745469312080,,,,,,,,,,,,,,,,,,,,,,,,,,,,,,,,,,0,0,0,0,0,0,0,0,0,0,0,0,0,0,0,0,,,,,,,,,,,,,
715144,1745469312110,0.0,-105,,-0.07,0.23,1.0,29,-2,-1,1.03,1.06,97,2540,8.9,3.83,,14.02,1.187,98.8,,27.1,5,,,,,,,,,,,,0,0,0,0,0,0,0,0,0,0,0,0,0,0,0,0,,,,,,0.0,,,,,,,
715164,1745469312130,,,,,,,,,,,,,,,,,,,,,,,,,,,,,,,,,,0,0,0,0,0,0,0,0,0,0,0,0,0,0,0,0,,,,,,,,,,,,,
715184,1745469312150,0.0,-105,,-0.04,0.21,0.98,30,-2,-1,1.0,1.06,95,2540,8.9,3.83,,14.03,1.173,98.8,,27.1,5,9,1,9,6,0.0,224.0,0.0,0.0,2.27,,,0,0,0,0,0,0,0,0,0,0,0,0,0,0,0,0,,0,,,,0.0,38.990849,-76.93988,12.53,31.6,24,2,1.2
715204,1745469312170,,,,,,,,,,,,,,,,,,,,,,,,,,,,,,,,,,0,0,0,0,0,0,0,0,0,0,0,0,0,0,0,0,,,,,,,,,,,,,
715224,1745469312190,0.0,-105,,-0.04,0.22,0.99,29,-2,-1,1.01,1.06,95,2487,8.8,3.83,,14.04,1.166,98.8,,27.5,5,,,,,,,,,,,,0,0,0,0,0,0,0,0,0,0,0,0,0,0,0,0,,,,,,0.0,,,,,,,
715244,1745469312209,,,,,,,,,,,,,,,,,,,,,,,,,,,,,,,,,,0,0,0,0,0,0,0,0,0,0,0,0,0,0,0,0,,,,,,,,,,,,,
715264,1745469312229,0.0,-112,,-0.03,0.23,1.0,30,-2,-1,1.03,1.06,97,2494,8.8,3.85,,14.1,1.17,98.8,,27.5,5,,,,,,,,,,,,0,0,0,0,0,0,0,0,0,0,0,0,0,0,0,0,,,,,,0.0,,,,,,,
715284,1745469312249,,,,,,,,,,,,,,,,,,,,,,,8,8,8,7,0.0,232.0,0.0,0.0,2.28,,,0,0,0,0,0,0,0,0,0,0,0,0,0,0,0,0,,0,,,,,38.990852,-76.93988,11.98,31.6,24,2,1.2
715304,1745469312269,0.0,-116,,-0.03,0.22,1.01,30,-2,-1,1.03,1.06,97,2404,9.0,3.83,,14.15,1.182,98.8,,27.5,5,,,,,,,,,,,,0,0,0,0,0,0,0,0,0,0,0,0,0,0,0,0,,,,,,0.0,,,,,,,
715324,1745469312292,,,,,,,,,,,,,,,,,,,,,,,,,,,,,,,,,,0,0,0,0,0,0,0,0,0,0,0,0,0,0,0,0,,,,,,,,,,,,,
715344,1745469312312,0.0,-105,,-0.04,0.25,1.0,30,-2,-0,1.03,1.06,97,2354,9.4,3.81,,14.15,1.182,98.8,,26.5,5,,,,,,,,,,,,0,0,0,0,0,0,0,0,0,0,0,0,0,0,0,0,,,,,,0.0,,,,,,,
715364,1745469312332,,,,,,,,,,,,,,,,,,,,,,,,,,,,,,,,,,0,0,0,0,0,0,0,0,0,0,0,0,0,0,0,0,,,,,,,,,,,,,
715384,1745469312352,0.0,-119,13.84,-0.03,0.22,1.02,31,-2,-0,1.05,1.06,98,2354,9.4,3.81,15,14.16,1.18,98.8,169,26.5,5,8,7,8,7,0.0,240.0,0.0,0.0,2.27,0,1.0,0,0,0,0,0,0,0,0,0,0,0,0,0,0,0,0,0,0,1.0,0,-0,0.0,38.990856,-76.939888,11.8,31.6,24,2,1.2
715404,1745469312372,,,,,,,,,,,,,,,,,,,,,,,,,,,,,,,,,,0,0,0,0,0,0,0,0,0,0,0,0,0,0,0,0,,,,,,,,,,,,,
715424,1745469312392,0.0,-129,,-0.03,0.22,1.02,31,-2,-1,1.04,1.06,98,2329,9.5,3.8,,14.19,1.188,98.8,,25.7,5,,,,,,,,,,,,0,0,0,0,0,0,0,0,0,0,0,0,0,0,0,0,,,,,,0.0,,,,,,,
715444,1745469312410,,,,,,,,,,,,,,,,,,,,,,,,,,,,,,,,,,0,0,0,0,0,0,0,0,0,0,0,0,0,0,0,0,,,,,,,,,,,,,
715464,1745469312430,0.0,-126,,-0.03,0.21,1.04,31,-2,-1,1.07,1.07,100,2360,9.4,3.82,,14.2,1.187,98.8,,25.7,5,,,,,,,,,,,,0,0,0,0,0,0,0,0,0,0,0,0,0,0,0,0,,,,,,0.0,,,,,,,
715484,1745469312450,,,,,,,,,,,,,,,,,,,,,,,9,1,8,7,0.0,16.0,0.0,0.0,2.26,,,0,0,0,0,0,0,0,0,0,0,0,0,0,0,0,0,,0,,,,,38.990856,-76.939888,11.8,31.6,24,2,1.2
715504,1745469312470,0.0,-133,,-0.05,0.21,1.04,31,-1,-1,1.06,1.07,100,2416,9.6,3.84,,14.2,1.191,98.8,,25.7,5,,,,,,,,,,,,0,0,0,0,0,0,0,0,0,0,0,0,0,0,0,0,,,,,,0.0,,,,,,,
715524,1745469312490,,,,,,,,,,,,,,,,,,,,,,,,,,,,,,,,,,0,0,0,0,0,0,0,0,0,0,0,0,0,0,0,0,,,,,,,,,,,,,
715544,1745469312510,0.0,-109,,-0.04,0.21,1.03,32,-1,-0,1.05,1.07,99,2430,9.6,3.84,,14.2,1.191,98.8,,26.6,5,,,,,,,,,,,,0,0,0,0,0,0,0,0,0,0,0,0,0,0,0,0,,,,,,0.0,,,,,,,
715564,1745469312530,,,,,,,,,,,,,,,,,,,,,,,,,,,,,,,,,,0,0,0,0,0,0,0,0,0,0,0,0,0,0,0,0,,,,,,,,,,,,,
715584,1745469312550,0.0,-112,,-0.04,0.21,1.02,31,-1,0,1.04,1.07,98,2430,9.6,3.84,,14.18,1.189,98.8,,26.6,5,8,7,8,7,0.0,200.0,0.0,0.0,2.27,,,0,0,0,0,0,0,0,0,0,0,0,0,0,0,0,0,,0,,,,0.0,38.990856,-76.939888,11.77,31.6,24,2,1.2
715604,1745469312570,,,,,,,,,,,,,,,,,,,,,,,,,,,,,,,,,,0,0,0,0,0,0,0,0,0,0,0,0,0,0,0,0,,,,,,,,,,,,,
715624,1745469312590,0.0,-126,,-0.04,0.18,1.04,31,-1,-1,1.06,1.07,99,2452,9.8,3.85,,14.16,1.18,98.8,,27.4,5,,,,,,,,,,,,0,0,0,0,0,0,0,0,0,0,0,0,0,0,0,0,,,,,,0.0,,,,,,,
715644,1745469312609,,,,,,,,,,,,,,,,,,,,,,,,,,,,,,,,,,0,0,0,0,0,0,0,0,0,0,0,0,0,0,0,0,,,,,,,,,,,,,
715664,1745469312629,0.0,-119,,-0.03,0.18,1.01,31,-2,-1,1.03,1.07,96,2443,11.2,3.88,,14.19,1.175,98.8,,27.4,5,,,,,,,,,,,,0,0,0,0,0,0,0,0,0,0,0,0,0,0,0,0,,,,,,0.0,,,,,,,
715684,1745469312649,,,,,,,,,,,,,,,,,,,,,,,8,7,8,7,0.0,231.0,0.0,0.0,2.27,,,0,0,0,0,0,0,0,0,0,0,0,0,0,0,0,0,,0,,,,,38.99086,-76.939896,11.37,31.6,24,2,1.2
715704,1745469312669,0.0,-126,,-0.02,0.21,0.99,31,-2,-2,1.01,1.07,95,2371,14.7,4.28,,14.3,1.177,98.8,,27.4,5,,,,,,,,,,,,0,0,0,0,0,0,0,0,0,0,0,0,0,0,0,0,,,,,,0.0,,,,,,,
715724,1745469312689,,,,,,,,,,,,,,,,,,,,,,,,,,,,,,,,,,0,0,0,0,0,0,0,0,0,0,0,0,0,0,0,0,,,,,,,,,,,,,
715744,1745469312709,0.0,-119,,-0.02,0.19,0.99,31,-1,-1,1.01,1.07,95,2258,15.3,4.38,,14.3,1.177,98.8,,26.0,5,,,,,,,,,,,,0,0,0,0,0,0,0,0,0,0,0,0,0,0,0,0,,,,,,0.0,,,,,,,
715764,1745469312729,,,,,,,,,,,,,,,,,,,,,,,,,,,,,,,,,,0,0,0,0,0,0,0,0,0,0,0,0,0,0,0,0,,,,,,,,,,,,,
715784,1745469312749,0.0,-122,,-0.0,0.19,1.02,30,-1,-1,1.04,1.07,97,2258,15.3,4.38,,14.36,1.192,98.8,,26.0,5,8,7,8,7,0.0,240.0,0.0,0.0,2.28,,,0,0,0,0,0,0,0,0,0,0,0,0,0,0,0,0,,1,,,,0.0,38.99086,-76.939896,11.56,31.6,24,2,1.2
715804,1745469312769,,,,,,,,,,,,,,,,,,,,,,,,,,,,,,,,,,0,0,0,0,0,0,0,0,0,0,0,0,0,0,0,0,,,,,,,,,,,,,
715824,1745469312789,0.0,-133,,-0.0,0.22,1.02,30,-1,-1,1.04,1.07,98,2655,15.7,4.39,,14.31,1.196,98.8,,27.6,5,,,,,,,,,,,,0,0,0,0,0,0,0,0,0,0,0,0,0,0,0,0,,,,,,0.0,,,,,,,
715844,1745469312809,,,,,,,,,,,,,,,,,,,,,,,,,,,,,,,,,,0,0,0,0,0,0,0,0,0,0,0,0,0,0,0,0,,,,,,,,,,,,,
715864,1745469312829,0.0,-116,,0.01,0.15,1.0,29,-2,-1,1.01,1.07,95,2385,16.3,4.38,,14.35,1.25,98.8,,27.6,5,,,,,,,,,,,,0,0,0,0,0,0,0,0,0,0,0,0,0,0,0,0,,,,,,0.0,,,,,,,
715884,1745469312849,,,,,,,,,,,,,,,,,,,,,,,8,2,8,7,0.0,35.0,0.0,0.0,2.27,,,0,0,0,0,0,0,0,0,0,0,0,0,0,0,0,0,,1,,,,,38.990864,-76.939896,11.22,31.7,24,2,1.2
715904,1745469312869,0.0,-116,,0.02,0.16,1.01,30,-2,-1,1.02,1.02,100,2317,16.6,4.44,,14.35,1.228,98.8,,27.6,5,,,,,,,,,,,,0,0,0,0,0,0,0,0,0,0,0,0,0,0,0,0,,,,,,0.0,,,,,,,
715924,1745469312889,,,,,,,,,,,,,,,,,,,,,,,,,,,,,,,,,,0,0,0,0,0,0,0,0,0,0,0,0,0,0,0,0,,,,,,,,,,,,,
715944,1745469312909,0.0,-105,,0.01,0.12,1.03,29,-2,-1,1.04,1.04,100,2362,16.6,4.46,,14.35,1.228,98.8,,26.3,5,,,,,,,,,,,,0,0,0,0,0,0,0,0,0,0,0,0,0,0,0,0,,,,,,0.0,,,,,,,
715964,1745469312929,,,,,,,,,,,,,,,,,,,,,,,,,,,,,,,,,,0,0,0,0,0,0,0,0,0,0,0,0,0,0,0,0,,,,,,,,,,,,,
715984,1745469312949,0.0,-112,,-0.0,0.11,1.03,29,-2,-2,1.03,1.04,99,2362,16.6,4.46,,14.32,1.13,97.0,,26.3,5,8,224,8,7,0.0,64.0,0.0,0.0,2.26,,,0,0,0,0,0,0,0,0,0,0,0,0,0,0,0,0,,1,,,,0.0,38.990864,-76.939896,12.36,31.7,24,2,1.2
716004,1745469312969,,,,,,,,,,,,,,,,,,,,,,,,,,,,,,,,,,0,0,0,0,0,0,0,0,0,0,0,0,0,0,0,0,,,,,,,,,,,,,
716024,1745469312989,0.0,-105,,-0.0,0.08,1.03,29,-2,-2,1.03,1.04,99,2454,16.6,4.43,,14.35,1.1,97.0,,27.3,5,,,,,,,,,,,,0,0,0,0,0,0,0,0,0,0,0,0,0,0,0,0,,,,,,0.0,,,,,,,
716044,1745469312999,,,,,,,,,,,,,,,,,,,,,,,,,,,,,,,,,,0,0,0,0,0,0,0,0,0,0,0,0,0,0,0,0,,,,,,,,,,,,,
716064,1745469313019,0.0,-129,,0.01,0.1,1.03,29,-2,-2,1.04,1.04,100,2471,16.6,4.43,,14.36,1.108,97.0,,27.3,5,,,,,,,,,,,,0,0,0,0,0,0,0,0,0,0,0,0,0,0,0,0,,,,,,0.0,,,,,,,
