"Interval"|"ms"|0|0|1,"Utc"|"ms"|0|0|1,"FrontBP"|"psi"|-5.0|5.0|25,"SteerAng"|"Degrees"|-145|145|25,"Battery"|"Volts"|-5.0|20.0|1,"AccelX"|"G"|-3.0|3.0|25,"AccelY"|"G"|-3.0|3.0|25,"AccelZ"|"G"|-3.0|3.0|25,"Yaw"|"Deg/Sec"|-120|120|25,"Pitch"|"Deg/Sec"|-120|120|25,"Roll"|"Deg/Sec"|-120|120|25,"Gsum"|"G"|0.0|3.0|25,"GsumMax"|"G"|0.0|3.0|25,"GsumPct"|"%"|0|100|25,"RPM"|""|0|10000|25,"TPS"|"%"|0.0|100.0|25,"InjectorPW"|"ms"|0.0|100.0|25,"Baro"|"kPa"|0|105|1,"MAP"|"Psi"|0.0|255.0|25,"Lambda"|""|-2.0|2.0|25,"IAT"|"C"|0.0|200.0|25,"EngineTemp"|"C"|0|200|1,"EOP"|"PSI"|0.0|152.0|25,"EOT"|"F"|0|250|25,"WSFR"|"MPH"|0|150|10,"WSFL"|"MPH"|0|100|10,"WSRR"|"MPH"|0|100|10,"WSRL"|""|0|100|10,"TCSet"|"%"|0.0|100.0|10,"TCSlip"|"%"|0.0|100.0|10,"TCComp"|"deg"|0.0|50.0|10,"TCCut"|"%"|0.0|100.0|10,"Analog8"|""|0.0|5.0|10,"OilTemp"|"F"|0|300|1,"AA_On"|""|0.0|1.0|1,"ThermLF1"|"C"|0|400|50,"ThermLF2"|"C"|0|400|50,"ThermRR1"|"C"|0|400|50,"ThermRR2"|"C"|0|400|50,"ThermLF3"|"C"|0|400|50,"ThermLF4"|"C"|0|400|50,"ThermLF5"|"C"|0|400|50,"ThermLF6"|"C"|0|400|50,"ThermLF7"|"C"|0|400|50,"ThermLF8"|"C"|0|400|50,"ThermRR3"|"C"|0|400|50,"ThermRR4"|"C"|0|400|50,"ThermRR5"|"C"|0|400|50,"ThermRR6"|"C"|0|400|50,"ThermRR7"|"C"|0|400|50,"ThermRR8"|"C"|0|400|50,"AA_LowDrag"|""|0|1|1,"Gear"|""|1|6|10,"AA_On"|""|0.0|1.0|1,"AA_LowDrag"|""|0|1|1,"Fuel_Mix"|""|-10|10|1,"AA_Packages"|""|0.0|1000.0|25,"Latitude"|"Degrees"|-180.0|180.0|10,"Longitude"|"Degrees"|-180.0|180.0|10,"Speed"|"kph"|0.0|150.0|10,"Altitude"|"m"|0.0|4000.0|10,"GPSSats"|""|0|20|10,"GPSQual"|""|0|5|10,"GPSDOP"|""|0.0|20.0|10
391522,1745478663599,99.42,129,,-0.06,0.03,1.03,3,-0,-0,1.03,1.03,100,4445,0.0,1.92,,10.52,1.249,93.4,,37.4,5,,,,,,,,,,,,0,0,0,0,0,0,0,0,0,0,0,0,0,0,0,0,,,,,,0.0,,,,,,,
391542,1745478663619,,,,,,,,,,,,,,,,,,,,,,,,,,,,,,,,,,0,0,0,0,0,0,0,0,0,0,0,0,0,0,0,0,,,,,,,,,,,,,
391562,1745478663639,100.05,122,,-0.06,-0.07,0.92,1,-0,-1,0.93,1.03,90,4226,7.8,3.0,,10.52,1.249,93.4,,33.8,5,,,,,,,,,,,,0,0,0,0,0,0,0,0,0,0,0,0,0,0,0,0,,,,,,0.0,,,,,,,
391582,1745478663659,,,,,,,,,,,,,,,,,,,,,,,,,,,,,,,,,,0,0,0,0,0,0,0,0,0,0,0,0,0,0,0,0,,,,,,,,,,,,,
391602,1745478663679,100.05,129,,-0.07,0.04,0.99,3,-0,-0,1.0,1.03,97,4226,7.8,3.0,,11.01,1.248,93.4,,33.8,5,0,0,0,0,0.0,0.0,0.0,0.0,2.26,,,0,0,0,0,0,0,0,0,0,0,0,0,0,0,0,0,,0,,,,0.0,38.994114,-76.939697,0.04,30.8,29,3,0.8
391622,1745478663699,,,,,,,,,,,,,,,,,,,,,,,,,,,,,,,,,,0,0,0,0,0,0,0,0,0,0,0,0,0,0,0,0,,,,,,,,,,,,,
391642,1745478663719,100.05,112,,-0.07,-0.06,0.95,0,-0,-0,0.95,1.03,92,3975,19.7,4.22,,12.61,1.248,93.4,,30.0,5,,,,,,,,,,,,0,0,0,0,0,0,0,0,0,0,0,0,0,0,0,0,,,,,,0.0,,,,,,,
391662,1745478663739,,,,,,,,,,,,,,,,,,,,,,,,,,,,,,,,,,0,0,0,0,0,0,0,0,0,0,0,0,0,0,0,0,,,,,,,,,,,,,
391682,1745478663759,100.68,108,,-0.09,-0.0,0.92,2,-0,-1,0.92,1.03,90,4044,23.3,4.69,,13.47,1.25,93.4,,30.0,5,,,,,,,,,,,,0,0,0,0,0,0,0,0,0,0,0,0,0,0,0,0,,,,,,0.0,,,,,,,
391702,1745478663779,,,,,,,,,,,,,,,,,,,,,,,0,0,0,0,0.0,0.0,0.0,0.0,2.27,,,0,0,0,0,0,0,0,0,0,0,0,0,0,0,0,0,,0,,,,,38.994114,-76.939697,0.07,30.8,29,3,0.8
391722,1745478663799,100.05,129,,-0.09,-0.09,0.87,-0,-0,-0,0.88,1.03,85,4250,23.5,4.57,,13.64,1.251,93.4,,30.0,5,,,,,,,,,,,,0,0,0,0,0,0,0,0,0,0,0,0,0,0,0,0,,,,,,0.0,,,,,,,
391742,1745478663819,,,,,,,,,,,,,,,,,,,,,,,,,,,,,,,,,,0,0,0,0,0,0,0,0,0,0,0,0,0,0,0,0,,,,,,,,,,,,,
391762,1745478663839,100.05,132,,-0.1,0.02,1.0,2,-0,-0,1.01,1.03,98,4285,7.3,4.03,,13.64,1.251,93.4,,32.1,5,,,,,,,,,,,,0,0,0,0,0,0,0,0,0,0,0,0,0,0,0,0,,,,,,0.0,,,,,,,
391782,1745478663859,,,,,,,,,,,,,,,,,,,,,,,,,,,,,,,,,,0,0,0,0,0,0,0,0,0,0,0,0,0,0,0,0,,,,,,,,,,,,,
391802,1745478663879,100.05,132,,-0.09,0.01,0.94,2,-0,-0,0.95,1.03,92,4285,7.3,4.03,,13.05,1.25,93.4,,32.1,5,0,0,0,0,0.0,0.0,0.0,0.0,2.25,,,0,0,0,0,0,0,0,0,0,0,0,0,0,0,0,0,,0,,,,0.0,38.994114,-76.939697,0.04,30.8,29,3,0.8
391822,1745478663899,,,,,,,,,,,,,,,,,,,,,,,,,,,,,,,,,,0,0,0,0,0,0,0,0,0,0,0,0,0,0,0,0,,,,,,,,,,,,,
391842,1745478663919,100.05,125,,-0.08,-0.09,0.86,-0,-0,-0,0.87,1.03,84,4281,0.0,2.59,,12.33,1.251,93.4,,32.7,5,,,,,,,,,,,,0,0,0,0,0,0,0,0,0,0,0,0,0,0,0,0,,,,,,0.0,,,,,,,
391862,1745478663939,,,,,,,,,,,,,,,,,,,,,,,,,,,,,,,,,,0,0,0,0,0,0,0,0,0,0,0,0,0,0,0,0,,,,,,,,,,,,,
391882,1745478663959,101.31,125,,-0.09,-0.01,0.95,1,-0,-0,0.96,1.03,93,4228,0.0,2.56,,11.79,1.251,93.4,,32.7,5,,,,,,,,,,,,0,0,0,0,0,0,0,0,0,0,0,0,0,0,0,0,,,,,,0.0,,,,,,,
391902,1745478663979,,,,,,,,,,,,,,,,,,,,,,,0,0,0,0,0.0,0.0,0.0,0.0,2.26,,,0,0,0,0,0,0,0,0,0,0,0,0,0,0,0,0,,0,,,,,38.994114,-76.939697,0.04,30.8,29,3,0.8
391922,1745478663993,101.31,108,,-0.08,-0.06,0.89,0,-0,-0,0.9,1.03,87,4186,0.0,2.55,,11.45,1.249,93.4,,32.7,5,,,,,,,,,,,,0,0,0,0,0,0,0,0,0,0,0,0,0,0,0,0,,,,,,0.0,,,,,,,
391942,1745478664013,,,,,,,,,,,,,,,,,,,,,,,,,,,,,,,,,,0,0,0,0,0,0,0,0,0,0,0,0,0,0,0,0,,,,,,,,,,,,,
391962,1745478664033,100.68,132,,-0.07,0.02,1.0,2,-0,0,1.0,1.03,97,4037,0.0,2.54,,11.45,1.249,93.4,,31.2,5,,,,,,,,,,,,0,0,0,0,0,0,0,0,0,0,0,0,0,0,0,0,,,,,,0.0,,,,,,,
391982,1745478664053,,,,,,,,,,,,,,,,,,,,,,,,,,,,,,,,,,0,0,0,0,0,0,0,0,0,0,0,0,0,0,0,0,,,,,,,,,,,,,
392002,1745478664073,100.05,132,,-0.06,-0.05,0.98,-0,-0,0,0.98,1.03,95,4037,0.0,2.54,,11.3,1.248,93.4,,31.2,5,0,0,0,0,0.0,0.0,0.0,0.0,2.26,,,0,0,0,0,0,0,0,0,0,0,0,0,0,0,0,0,,0,,,,0.0,38.994114,-76.939697,0.05,30.8,29,3,0.8
392022,1745478664095,,,,,,,,,,,,,,,,,,,,,,,,,,,,,,,,,,0,0,0,0,0,0,0,0,0,0,0,0,0,0,0,0,,,,,,,,,,,,,
392042,1745478664115,100.05,132,,-0.07,-0.04,0.97,-1,-0,-0,0.97,1.03,94,3861,4.9,3.27,,11.56,1.248,93.4,,29.1,5,,,,,,,,,,,,0,0,0,0,0,0,0,0,0,0,0,0,0,0,0,0,,,,,,0.0,,,,,,,
392062,1745478664135,,,,,,,,,,,,,,,,,,,,,,,,,,,,,,,,,,0,0,0,0,0,0,0,0,0,0,0,0,0,0,0,0,,,,,,,,,,,,,
392082,1745478664155,98.79,135,,-0.06,-0.03,0.95,-1,-0,-0,0.95,1.03,92,3814,10.5,3.99,,12.29,1.248,91.6,,29.1,5,,,,,,,,,,,,0,0,0,0,0,0,0,0,0,0,0,0,0,0,0,0,,,,,,0.0,,,,,,,
392102,1745478664175,,,,,,,,,,,,,,,,,,,,,,,0,0,0,0,0.0,0.0,0.0,0.0,2.27,,,0,0,0,0,0,0,0,0,0,0,0,0,0,0,0,0,,0,,,,,38.994114,-76.939697,0.05,30.8,29,3,0.8
392122,1745478664199,98.16,135,,-0.07,-0.05,0.94,-0,-0,-0,0.94,1.03,91,3786,11.6,4.07,,12.87,1.248,91.6,,29.1,5,,,,,,,,,,,,0,0,0,0,0,0,0,0,0,0,0,0,0,0,0,0,,,,,,0.0,,,,,,,
392142,1745478664219,,,,,,,,,,,,,,,,,,,,,,,,,,,,,,,,,,0,0,0,0,0,0,0,0,0,0,0,0,0,0,0,0,,,,,,,,,,,,,
392162,1745478664239,99.42,135,,-0.07,-0.05,0.95,0,-0,-0,0.96,1.03,93,3820,11.7,4.01,,12.87,1.248,91.6,,28.3,5,,,,,,,,,,,,0,0,0,0,0,0,0,0,0,0,0,0,0,0,0,0,,,,,,0.0,,,,,,,
392182,1745478664259,,,,,,,,,,,,,,,,,,,,,,,,,,,,,,,,,,0,0,0,0,0,0,0,0,0,0,0,0,0,0,0,0,,,,,,,,,,,,,
392202,1745478664279,98.79,135,,-0.07,-0.02,0.97,1,-0,-0,0.97,1.03,94,3820,11.7,4.01,,13.05,1.249,91.6,,28.3,5,0,0,0,0,0.0,0.0,0.0,0.0,2.26,,,0,0,0,0,0,0,0,0,0,0,0,0,0,0,0,0,,0,,,,0.0,38.994114,-76.939697,0.0,30.8,29,3,0.8
392222,1745478664299,,,,,,,,,,,,,,,,,,,,,,,,,,,,,,,,,,0,0,0,0,0,0,0,0,0,0,0,0,0,0,0,0,,,,,,,,,,,,,
392242,1745478664319,96.91,135,,-0.07,-0.04,0.98,0,-0,-0,0.98,1.03,95,3773,11.6,4.0,,13.17,1.251,91.6,,27.6,5,,,,,,,,,,,,0,0,0,0,0,0,0,0,0,0,0,0,0,0,0,0,,,,,,0.0,,,,,,,
392262,1745478664339,,,,,,,,,,,,,,,,,,,,,,,,,,,,,,,,,,0,0,0,0,0,0,0,0,0,0,0,0,0,0,0,0,,,,,,,,,,,,,
392282,1745478664359,96.91,125,,-0.06,0.0,0.99,1,-0,-0,0.99,1.03,96,3766,11.8,3.99,,13.27,1.251,91.6,,27.6,5,,,,,,,,,,,,0,0,0,0,0,0,0,0,0,0,0,0,0,0,0,0,,,,,,0.0,,,,,,,
392302,1745478664379,,,,,,,,,,,,,,,,,,,,,,,0,0,0,0,0.0,0.0,0.0,0.0,2.26,,,0,0,0,0,0,0,0,0,0,0,0,0,0,0,0,0,,0,,,,,38.994114,-76.939697,0.04,30.8,29,3,0.8
392322,1745478664398,96.28,135,,-0.07,0.04,1.0,2,-0,-0,1.0,1.03,97,3904,11.9,3.98,,13.24,1.251,91.6,,27.6,5,,,,,,,,,,,,0,0,0,0,0,0,0,0,0,0,0,0,0,0,0,0,,,,,,0.0,,,,,,,
392342,1745478664418,,,,,,,,,,,,,,,,,,,,,,,,,,,,,,,,,,0,0,0,0,0,0,0,0,0,0,0,0,0,0,0,0,,,,,,,,,,,,,
392362,1745478664438,94.39,132,,-0.06,0.02,1.01,1,-0,0,1.01,1.03,98,3888,11.9,3.97,,13.24,1.251,91.6,,29.2,5,,,,,,,,,,,,0,0,0,0,0,0,0,0,0,0,0,0,0,0,0,0,,,,,,0.0,,,,,,,
392382,1745478664458,,,,,,,,,,,,,,,,,,,,,,,,,,,,,,,,,,0,0,0,0,0,0,0,0,0,0,0,0,0,0,0,0,,,,,,,,,,,,,
392402,1745478664478,93.77,135,13.26,-0.07,0.02,1.02,0,-0,0,1.02,1.03,99,3888,11.9,3.97,15,13.25,1.251,91.6,169,29.2,5,0,0,0,0,0.0,0.0,0.0,0.0,2.26,0,1.0,0,0,0,0,0,0,0,0,0,0,0,0,0,0,0,0,0,0,1.0,0,0,0.0,38.994114,-76.939697,0.07,30.8,29,3,0.8
392422,1745478664498,,,,,,,,,,,,,,,,,,,,,,,,,,,,,,,,,,0,0,0,0,0,0,0,0,0,0,0,0,0,0,0,0,,,,,,,,,,,,,
392442,1745478664518,93.14,132,,-0.08,-0.0,1.0,-1,-0,0,1.01,1.03,98,3734,11.9,3.98,,13.28,1.25,91.6,,28.8,5,,,,,,,,,,,,0,0,0,0,0,0,0,0,0,0,0,0,0,0,0,0,,,,,,0.0,,,,,,,
392462,1745478664538,,,,,,,,,,,,,,,,,,,,,,,,,,,,,,,,,,0,0,0,0,0,0,0,0,0,0,0,0,0,0,0,0,,,,,,,,,,,,,
392482,1745478664558,92.51,132,,-0.08,-0.02,1.0,-1,-0,-0,1.0,1.03,97,3865,11.9,3.99,,13.24,1.248,91.6,,28.8,5,,,,,,,,,,,,0,0,0,0,0,0,0,0,0,0,0,0,0,0,0,0,,,,,,0.0,,,,,,,
392502,1745478664578,,,,,,,,,,,,,,,,,,,,,,,0,0,0,0,0.0,0.0,0.0,0.0,2.26,,,0,0,0,0,0,0,0,0,0,0,0,0,0,0,0,0,,0,,,,,38.994114,-76.939697,0.0,30.8,29,3,0.8
392522,1745478664596,89.37,135,,-0.08,-0.02,1.0,-1,-0,-0,1.0,1.03,97,3707,11.8,3.98,,13.33,1.248,91.6,,28.8,5,,,,,,,,,,,,0,0,0,0,0,0,0,0,0,0,0,0,0,0,0,0,,,,,,0.0,,,,,,,
392542,1745478664616,,,,,,,,,,,,,,,,,,,,,,,,,,,,,,,,,,0,0,0,0,0,0,0,0,0,0,0,0,0,0,0,0,,,,,,,,,,,,,
392562,1745478664636,83.71,135,,-0.08,0.0,0.99,-1,-0,0,1.0,1.03,97,3746,11.6,3.99,,13.33,1.248,91.6,,27.7,5,,,,,,,,,,,,0,0,0,0,0,0,0,0,0,0,0,0,0,0,0,0,,,,,,0.0,,,,,,,
392582,1745478664656,,,,,,,,,,,,,,,,,,,,,,,,,,,,,,,,,,0,0,0,0,0,0,0,0,0,0,0,0,0,0,0,0,,,,,,,,,,,,,
392602,1745478664676,81.2,135,,-0.08,-0.01,1.01,-0,-0,0,1.01,1.03,98,3746,11.6,3.99,,13.36,1.248,91.6,,27.7,5,0,0,0,0,0.0,0.0,0.0,0.0,2.26,,,0,0,0,0,0,0,0,0,0,0,0,0,0,0,0,0,,0,,,,0.0,38.994114,-76.939697,0.0,30.8,29,3,0.8
392622,1745478664698,,,,,,,,,,,,,,,,,,,,,,,,,,,,,,,,,,0,0,0,0,0,0,0,0,0,0,0,0,0,0,0,0,,,,,,,,,,,,,
392642,1745478664718,81.2,125,,-0.07,0.02,1.01,0,-0,0,1.02,1.03,99,3679,11.7,3.98,,13.37,1.248,91.6,,27.2,5,,,,,,,,,,,,0,0,0,0,0,0,0,0,0,0,0,0,0,0,0,0,,,,,,0.0,,,,,,,
392662,1745478664738,,,,,,,,,,,,,,,,,,,,,,,,,,,,,,,,,,0,0,0,0,0,0,0,0,0,0,0,0,0,0,0,0,,,,,,,,,,,,,
392682,1745478664758,84.97,122,,-0.07,0.02,0.97,2,-0,-0,0.98,1.03,95,3630,11.7,3.98,,13.36,1.249,91.6,,27.2,5,,,,,,,,,,,,0,0,0,0,0,0,0,0,0,0,0,0,0,0,0,0,,,,,,0.0,,,,,,,
392702,1745478664778,,,,,,,,,,,,,,,,,,,,,,,0,0,0,0,0.0,0.0,0.0,0.0,2.26,,,0,0,0,0,0,0,0,0,0,0,0,0,0,0,0,0,,0,,,,,38.994114,-76.939697,0.08,30.8,29,3,0.8
392722,1745478664799,86.85,135,,-0.09,-0.05,0.97,0,-0,-0,0.97,1.03,95,3470,11.7,3.98,,13.43,1.251,91.6,,27.2,5,,,,,,,,,,,,0,0,0,0,0,0,0,0,0,0,0,0,0,0,0,0,,,,,,0.0,,,,,,,
392742,1745478664819,,,,,,,,,,,,,,,,,,,,,,,,,,,,,,,,,,0,0,0,0,0,0,0,0,0,0,0,0,0,0,0,0,,,,,,,,,,,,,
392762,1745478664839,89.37,129,,-0.07,-0.01,1.0,0,-0,0,1.0,1.03,97,3430,11.8,3.99,,13.43,1.251,91.6,,25.4,5,,,,,,,,,,,,0,0,0,0,0,0,0,0,0,0,0,0,0,0,0,0,,,,,,0.0,,,,,,,
392782,1745478664859,,,,,,,,,,,,,,,,,,,,,,,,,,,,,,,,,,0,0,0,0,0,0,0,0,0,0,0,0,0,0,0,0,,,,,,,,,,,,,
392802,1745478664879,91.25,135,,-0.11,0.01,0.96,0,-0,-0,0.96,1.03,94,3430,11.8,3.99,,13.55,1.251,91.6,,25.4,5,0,0,0,0,0.0,0.0,0.0,0.0,2.26,,,0,0,0,0,0,0,0,0,0,0,0,0,0,0,0,0,,0,,,,0.0,38.994114,-76.939697,0.0,30.8,29,3,0.8
392822,1745478664898,,,,,,,,,,,,,,,,,,,,,,,,,,,,,,,,,,0,0,0,0,0,0,0,0,0,0,0,0,0,0,0,0,,,,,,,,,,,,,
392842,1745478664918,89.99,135,,-0.08,-0.04,1.02,-1,-0,-0,1.02,1.03,99,3284,11.9,4.01,,13.55,1.251,91.6,,24.4,5,,,,,,,,,,,,0,0,0,0,0,0,0,0,0,0,0,0,0,0,0,0,,,,,,0.0,,,,,,,
392862,1745478664938,,,,,,,,,,,,,,,,,,,,,,,,,,,,,,,,,,0,0,0,0,0,0,0,0,0,0,0,0,0,0,0,0,,,,,,,,,,,,,
392882,1745478664958,90.62,135,,-0.1,-0.12,1.03,-2,-0,-0,1.04,1.04,100,3235,11.9,4.0,,13.64,1.251,91.6,,24.4,5,,,,,,,,,,,,0,0,0,0,0,0,0,0,0,0,0,0,0,0,0,0,,,,,,0.0,,,,,,,
392902,1745478664978,,,,,,,,,,,,,,,,,,,,,,,0,0,0,0,0.0,0.0,0.0,0.0,2.26,,,0,0,0,0,0,0,0,0,0,0,0,0,0,0,0,0,,0,,,,,38.994114,-76.939697,0.0,30.8,29,3,0.8
392922,1745478664998,91.25,132,,-0.08,-0.1,1.08,-2,-0,0,1.09,1.09,100,3533,11.9,4.01,,13.55,1.25,91.6,,24.4,5,,,,,,,,,,,,0,0,0,0,0,0,0,0,0,0,0,0,0,0,0,0,,,,,,0.0,,,,,,,
392942,1745478665010,,,,,,,,,,,,,,,,,,,,,,,,,,,,,,,,,,0,0,0,0,0,0,0,0,0,0,0,0,0,0,0,0,,,,,,,,,,,,,
392962,1745478665030,90.62,132,,-0.1,-0.07,0.99,-0,-0,-0,1.0,1.09,92,3395,11.9,4.0,,13.55,1.25,91.6,,25.9,5,,,,,,,,,,,,0,0,0,0,0,0,0,0,0,0,0,0,0,0,0,0,,,,,,0.0,,,,,,,
392982,1745478665050,,,,,,,,,,,,,,,,,,,,,,,,,,,,,,,,,,0,0,0,0,0,0,0,0,0,0,0,0,0,0,0,0,,,,,,,,,,,,,
393002,1745478665070,91.25,132,,-0.09,-0.14,1.0,-1,-0,-0,1.02,1.09,94,3395,11.9,4.0,,13.55,1.248,91.6,,25.9,5,0,0,0,0,0.0,0.0,0.0,0.0,2.26,,,0,0,0,0,0,0,0,0,0,0,0,0,0,0,0,0,,0,,,,0.0,38.994114,-76.939697,0.6,30.8,29,3,0.8
393022,1745478665096,,,,,,,,,,,,,,,,,,,,,,,,,,,,,,,,,,0,0,0,0,0,0,0,0,0,0,0,0,0,0,0,0,,,,,,,,,,,,,
393042,1745478665116,91.25,135,,-0.08,-0.12,0.99,-1,-0,-0,1.01,1.09,93,3700,11.8,4.01,,13.43,1.248,91.6,,28.0,5,,,,,,,,,,,,0,0,0,0,0,0,0,0,0,0,0,0,0,0,0,0,,,,,,0.0,,,,,,,
393062,1745478665136,,,,,,,,,,,,,,,,,,,,,,,,,,,,,,,,,,0,0,0,0,0,0,0,0,0,0,0,0,0,0,0,0,,,,,,,,,,,,,
393082,1745478665156,91.25,135,,-0.09,-0.07,0.99,0,-0,-0,1.0,1.09,92,3799,19.5,4.19,,13.68,1.249,91.6,,28.0,5,,,,,,,,,,,,0,0,0,0,0,0,0,0,0,0,0,0,0,0,0,0,,,,,,0.0,,,,,,,
393102,1745478665176,,,,,,,,,,,,,,,,,,,,,,,0,0,0,0,0.0,0.0,0.0,0.0,2.27,,,0,0,0,0,0,0,0,0,0,0,0,0,0,0,0,0,,0,,,,,38.994114,-76.939697,0.19,30.8,29,3,0.8
393122,1745478665198,92.51,135,,-0.08,-0.08,1.03,-0,-0,0,1.04,1.09,96,3967,21.9,4.43,,13.82,1.248,91.6,,28.0,5,,,,,,,,,,,,0,0,0,0,0,0,0,0,0,0,0,0,0,0,0,0,,,,,,0.0,,,,,,,
393142,1745478665218,,,,,,,,,,,,,,,,,,,,,,,,,,,,,,,,,,0,0,0,0,0,0,0,0,0,0,0,0,0,0,0,0,,,,,,,,,,,,,
393162,1745478665238,91.88,135,,-0.09,-0.13,0.93,-2,-0,-0,0.94,1.09,87,4097,22.1,4.35,,13.82,1.248,91.6,,29.5,5,,,,,,,,,,,,0,0,0,0,0,0,0,0,0,0,0,0,0,0,0,0,,,,,,0.0,,,,,,,
393182,1745478665258,,,,,,,,,,,,,,,,,,,,,,,,,,,,,,,,,,0,0,0,0,0,0,0,0,0,0,0,0,0,0,0,0,,,,,,,,,,,,,
393202,1745478665278,91.25,135,,-0.11,-0.04,1.04,0,-0,0,1.04,1.09,96,4097,22.1,4.35,,13.8,1.249,91.6,,29.5,5,0,0,0,0,0.0,0.0,0.0,0.0,2.26,,,0,0,0,0,0,0,0,0,0,0,0,0,0,0,0,0,,0,,,,0.0,38.994114,-76.939697,0.04,30.8,29,3,0.8
393222,1745478665298,,,,,,,,,,,,,,,,,,,,,,,,,,,,,,,,,,0,0,0,0,0,0,0,0,0,0,0,0,0,0,0,0,,,,,,,,,,,,,
393242,1745478665318,89.99,135,,-0.11,0.03,1.06,2,-0,-0,1.07,1.09,98,4336,22.1,4.32,,13.71,1.251,91.6,,32.9,5,,,,,,,,,,,,0,0,0,0,0,0,0,0,0,0,0,0,0,0,0,0,,,,,,0.0,,,,,,,
393262,1745478665338,,,,,,,,,,,,,,,,,,,,,,,,,,,,,,,,,,0,0,0,0,0,0,0,0,0,0,0,0,0,0,0,0,,,,,,,,,,,,,
393282,1745478665358,86.85,132,,-0.08,0.02,1.05,3,-0,-0,1.06,1.09,97,4395,19.8,4.23,,13.52,1.251,91.6,,32.9,5,,,,,,,,,,,,0,0,0,0,0,0,0,0,0,0,0,0,0,0,0,0,,,,,,0.0,,,,,,,
393302,1745478665378,,,,,,,,,,,,,,,,,,,,,,,0,0,0,0,0.0,0.0,0.0,0.0,2.26,,,0,0,0,0,0,0,0,0,0,0,0,0,0,0,0,0,,0,,,,,38.994114,-76.939697,0.04,30.8,29,3,0.8
393322,1745478665397,83.71,135,,-0.07,0.09,1.07,4,-0,-0,1.08,1.09,100,4513,16.2,4.11,,13.33,1.251,91.6,,32.9,5,,,,,,,,,,,,0,0,0,0,0,0,0,0,0,0,0,0,0,0,0,0,,,,,,0.0,,,,,,,
393342,1745478665417,,,,,,,,,,,,,,,,,,,,,,,,,,,,,,,,,,0,0,0,0,0,0,0,0,0,0,0,0,0,0,0,0,,,,,,,,,,,,,
393362,1745478665437,79.94,135,,-0.07,0.15,1.17,5,-0,-0,1.18,1.18,100,4587,13.1,3.96,,13.33,1.251,91.6,,34.5,5,,,,,,,,,,,,0,0,0,0,0,0,0,0,0,0,0,0,0,0,0,0,,,,,,0.0,,,,,,,
393382,1745478665457,,,,,,,,,,,,,,,,,,,,,,,,,,,,,,,,,,0,0,0,0,0,0,0,0,0,0,0,0,0,0,0,0,,,,,,,,,,,,,
393402,1745478665477,74.28,135,13.32,-0.1,0.24,1.22,6,-0,-0,1.25,1.25,100,4587,13.1,3.96,15,13.09,1.251,91.6,169,34.5,5,0,0,0,0,0.0,0.0,0.0,0.0,2.26,0,1.0,0,0,0,0,0,0,0,0,0,0,0,0,0,0,0,0,0,0,1.0,0,0,0.0,38.994114,-76.939697,0.18,30.8,29,3,0.8
393422,1745478665499,,,,,,,,,,,,,,,,,,,,,,,,,,,,,,,,,,0,0,0,0,0,0,0,0,0,0,0,0,0,0,0,0,,,,,,,,,,,,,
393442,1745478665519,69.26,135,,-0.11,0.16,1.17,4,-0,0,1.19,1.25,95,4621,11.1,3.79,,12.75,1.25,91.6,,35.6,5,,,,,,,,,,,,0,0,0,0,0,0,0,0,0,0,0,0,0,0,0,0,,,,,,0.0,,,,,,,
393462,1745478665539,,,,,,,,,,,,,,,,,,,,,,,,,,,,,,,,,,0,0,0,0,0,0,0,0,0,0,0,0,0,0,0,0,,,,,,,,,,,,,
393482,1745478665559,63.6,135,,-0.09,0.11,1.05,1,-0,0,1.06,1.25,85,4611,10.8,3.75,,12.63,1.248,91.6,,35.6,5,,,,,,,,,,,,0,0,0,0,0,0,0,0,0,0,0,0,0,0,0,0,,,,,,0.0,,,,,,,
393502,1745478665579,,,,,,,,,,,,,,,,,,,,,,,0,0,0,0,0.0,0.0,0.0,0.0,2.26,,,0,0,0,0,0,0,0,0,0,0,0,0,0,0,0,0,,0,,,,,38.994114,-76.939697,0.06,30.8,29,3,0.8
393522,1745478665598,59.83,134,,-0.08,0.1,0.99,1,-0,-0,1.0,1.25,80,4655,10.6,3.76,,12.63,1.248,91.6,,35.6,5,,,,,,,,,,,,0,0,0,0,0,0,0,0,0,0,0,0,0,0,0,0,,,,,,0.0,,,,,,,
393542,1745478665618,,,,,,,,,,,,,,,,,,,,,,,,,,,,,,,,,,0,0,0,0,0,0,0,0,0,0,0,0,0,0,0,0,,,,,,,,,,,,,
393562,1745478665638,57.94,135,,-0.07,0.12,1.03,2,-0,-0,1.04,1.25,83,4631,10.5,3.76,,12.63,1.248,91.6,,35.1,5,,,,,,,,,,,,0,0,0,0,0,0,0,0,0,0,0,0,0,0,0,0,,,,,,0.0,,,,,,,
393582,1745478665658,,,,,,,,,,,,,,,,,,,,,,,,,,,,,,,,,,0,0,0,0,0,0,0,0,0,0,0,0,0,0,0,0,,,,,,,,,,,,,
393602,1745478665678,54.17,135,,-0.07,0.18,1.13,4,-0,-0,1.15,1.25,92,4631,10.5,3.76,,12.55,1.248,91.6,,35.1,5,0,0,0,0,0.0,0.0,0.0,0.0,2.26,,,0,0,0,0,0,0,0,0,0,0,0,0,0,0,0,0,,0,,,,0.0,38.994114,-76.939697,0.04,30.8,29,3,0.8
393622,1745478665697,,,,,,,,,,,,,,,,,,,,,,,,,,,,,,,,,,0,0,0,0,0,0,0,0,0,0,0,0,0,0,0,0,,,,,,,,,,,,,
393642,1745478665717,52.92,135,,-0.1,0.2,1.2,5,-0,-0,1.22,1.25,98,4609,10.4,3.75,,12.45,1.248,91.6,,35.3,5,,,,,,,,,,,,0,0,0,0,0,0,0,0,0,0,0,0,0,0,0,0,,,,,,0.0,,,,,,,
393662,1745478665737,,,,,,,,,,,,,,,,,,,,,,,,,,,,,,,,,,0,0,0,0,0,0,0,0,0,0,0,0,0,0,0,0,,,,,,,,,,,,,
393682,1745478665757,51.66,135,,-0.11,0.18,1.22,4,-0,0,1.24,1.25,99,4596,10.4,3.75,,12.56,1.244,91.6,,35.3,5,,,,,,,,,,,,0,0,0,0,0,0,0,0,0,0,0,0,0,0,0,0,,,,,,0.0,,,,,,,
393702,1745478665777,,,,,,,,,,,,,,,,,,,,,,,0,0,0,0,0.0,0.0,0.0,0.0,2.26,,,0,0,0,0,0,0,0,0,0,0,0,0,0,0,0,0,,0,,,,,38.994114,-76.939697,0.09,30.8,29,3,0.8
393722,1745478665797,49.77,135,,-0.12,0.12,1.17,3,-0,0,1.18,1.25,95,4599,12.9,3.75,,12.67,1.251,91.6,,35.3,5,,,,,,,,,,,,0,0,0,0,0,0,0,0,0,0,0,0,0,0,0,0,,,,,,0.0,,,,,,,
393742,1745478665817,,,,,,,,,,,,,,,,,,,,,,,,,,,,,,,,,,0,0,0,0,0,0,0,0,0,0,0,0,0,0,0,0,,,,,,,,,,,,,
393762,1745478665837,47.89,134,,-0.12,-0.0,1.07,1,-0,0,1.08,1.25,87,4634,21.1,4.35,,12.67,1.251,91.6,,35.1,5,,,,,,,,,,,,0,0,0,0,0,0,0,0,0,0,0,0,0,0,0,0,,,,,,0.0,,,,,,,
393782,1745478665857,,,,,,,,,,,,,,,,,,,,,,,,,,,,,,,,,,0,0,0,0,0,0,0,0,0,0,0,0,0,0,0,0,,,,,,,,,,,,,
393802,1745478665877,47.26,134,,-0.09,-0.04,0.98,-1,-0,0,0.98,1.25,79,4634,21.1,4.35,,13.17,1.251,91.6,,35.1,5,0,0,0,0,0.0,0.0,0.0,0.0,2.26,,,0,0,0,0,0,0,0,0,0,0,0,0,0,0,0,0,,0,,,,0.0,38.994114,-76.939697,0.15,30.8,29,3,0.8
393822,1745478665897,,,,,,,,,,,,,,,,,,,,,,,,,,,,,,,,,,0,0,0,0,0,0,0,0,0,0,0,0,0,0,0,0,,,,,,,,,,,,,
393842,1745478665917,47.89,134,,-0.09,-0.09,0.97,-0,-0,0,0.98,1.25,79,4597,21.6,4.25,,13.52,1.251,91.6,,35.9,5,,,,,,,,,,,,0,0,0,0,0,0,0,0,0,0,0,0,0,0,0,0,,,,,,0.0,,,,,,,
393862,1745478665937,,,,,,,,,,,,,,,,,,,,,,,,,,,,,,,,,,0,0,0,0,0,0,0,0,0,0,0,0,0,0,0,0,,,,,,,,,,,,,
393882,1745478665957,47.26,135,,-0.1,-0.1,1.01,-0,-0,0,1.02,1.25,82,4742,21.8,4.25,,13.44,1.251,91.6,,35.9,5,,,,,,,,,,,,0,0,0,0,0,0,0,0,0,0,0,0,0,0,0,0,,,,,,0.0,,,,,,,
393902,1745478665977,,,,,,,,,,,,,,,,,,,,,,,0,0,0,0,0.0,0.0,0.0,0.0,2.26,,,0,0,0,0,0,0,0,0,0,0,0,0,0,0,0,0,,0,,,,,38.994114,-76.939697,0.04,30.8,29,3,0.8
393922,1745478665997,46.63,134,,-0.09,-0.04,1.0,0,-0,0,1.01,1.25,81,4993,21.3,4.23,,13.31,1.249,91.6,,35.9,5,,,,,,,,,,,,0,0,0,0,0,0,0,0,0,0,0,0,0,0,0,0,,,,,,0.0,,,,,,,
393942,1745478666009,,,,,,,,,,,,,,,,,,,,,,,,,,,,,,,,,,0,0,0,0,0,0,0,0,0,0,0,0,0,0,0,0,,,,,,,,,,,,,
393962,1745478666029,46.63,134,,-0.09,-0.08,0.99,-1,-0,0,0.99,1.25,80,5073,20.3,4.18,,13.31,1.249,91.6,,38.7,5,,,,,,,,,,,,0,0,0,0,0,0,0,0,0,0,0,0,0,0,0,0,,,,,,0.0,,,,,,,
393982,1745478666049,,,,,,,,,,,,,,,,,,,,,,,,,,,,,,,,,,0,0,0,0,0,0,0,0,0,0,0,0,0,0,0,0,,,,,,,,,,,,,
394002,1745478666069,44.75,134,,-0.1,-0.06,0.99,-1,-0,0,1.0,1.25,80,5073,20.3,4.18,,13.12,1.248,91.6,,38.7,5,0,0,0,0,0.0,0.0,0.0,0.0,2.26,,,0,0,0,0,0,0,0,0,0,0,0,0,0,0,0,0,,0,,,,0.0,38.994114,-76.939697,0.45,30.8,29,3,0.8
394022,1745478666097,,,,,,,,,,,,,,,,,,,,,,,,,,,,,,,,,,0,0,0,0,0,0,0,0,0,0,0,0,0,0,0,0,,,,,,,,,,,,,
394042,1745478666117,44.75,135,,-0.1,-0.08,1.0,-0,-0,0,1.01,1.25,81,5205,20.0,4.17,,13.03,1.248,91.6,,40.3,5,,,,,,,,,,,,0,0,0,0,0,0,0,0,0,0,0,0,0,0,0,0,,,,,,0.0,,,,,,,
394062,1745478666137,,,,,,,,,,,,,,,,,,,,,,,,,,,,,,,,,,0,0,0,0,0,0,0,0,0,0,0,0,0,0,0,0,,,,,,,,,,,,,
394082,1745478666157,44.12,135,,-0.09,-0.03,1.03,0,-0,-0,1.03,1.25,83,5369,19.9,4.16,,12.92,1.248,89.8,,40.3,5,,,,,,,,,,,,0,0,0,0,0,0,0,0,0,0,0,0,0,0,0,0,,,,,,0.0,,,,,,,
394102,1745478666177,,,,,,,,,,,,,,,,,,,,,,,0,0,0,0,0.0,0.0,0.0,0.0,2.26,,,0,0,0,0,0,0,0,0,0,0,0,0,0,0,0,0,,0,,,,,38.994114,-76.939697,0.4,30.8,29,3,0.8
394122,1745478666197,42.86,134,,-0.11,-0.01,1.03,0,-0,0,1.03,1.25,83,5471,19.8,4.16,,12.81,1.248,89.8,,40.3,5,,,,,,,,,,,,0,0,0,0,0,0,0,0,0,0,0,0,0,0,0,0,,,,,,0.0,,,,,,,
394142,1745478666217,,,,,,,,,,,,,,,,,,,,,,,,,,,,,,,,,,0,0,0,0,0,0,0,0,0,0,0,0,0,0,0,0,,,,,,,,,,,,,
394162,1745478666237,40.98,134,,-0.1,-0.03,0.98,-0,-0,-0,0.98,1.25,79,5600,19.7,4.15,,12.81,1.248,89.8,,40.1,5,,,,,,,,,,,,0,0,0,0,0,0,0,0,0,0,0,0,0,0,0,0,,,,,,0.0,,,,,,,
394182,1745478666257,,,,,,,,,,,,,,,,,,,,,,,,,,,,,,,,,,0,0,0,0,0,0,0,0,0,0,0,0,0,0,0,0,,,,,,,,,,,,,
394202,1745478666277,35.95,134,,-0.12,0.02,1.05,1,-0,0,1.06,1.25,85,5600,19.7,4.15,,12.71,1.249,89.8,,40.1,5,0,0,0,0,0.0,0.0,0.0,0.0,2.26,,,0,0,0,0,0,0,0,0,0,0,0,0,0,0,0,0,,0,,,,0.0,38.994114,-76.939697,0.04,30.8,29,3,0.8
394222,1745478666299,,,,,,,,,,,,,,,,,,,,,,,,,,,,,,,,,,0,0,0,0,0,0,0,0,0,0,0,0,0,0,0,0,,,,,,,,,,,,,
394242,1745478666319,28.41,134,,-0.09,0.02,1.04,0,-0,0,1.05,1.25,84,5728,19.6,4.15,,12.57,1.251,89.8,,40.4,5,,,,,,,,,,,,0,0,0,0,0,0,0,0,0,0,0,0,0,0,0,0,,,,,,0.0,,,,,,,
394262,1745478666339,,,,,,,,,,,,,,,,,,,,,,,,,,,,,,,,,,0,0,0,0,0,0,0,0,0,0,0,0,0,0,0,0,,,,,,,,,,,,,
394282,1745478666359,21.49,135,,-0.09,-0.09,0.94,-0,-0,-0,0.95,1.25,76,5802,19.6,4.16,,12.43,1.251,89.8,,40.4,5,,,,,,,,,,,,0,0,0,0,0,0,0,0,0,0,0,0,0,0,0,0,,,,,,0.0,,,,,,,
394302,1745478666379,,,,,,,,,,,,,,,,,,,,,,,0,0,0,0,0.0,0.0,0.0,0.0,2.26,,,0,0,0,0,0,0,0,0,0,0,0,0,0,0,0,0,,0,,,,,38.994114,-76.939697,0.29,30.8,29,3,0.8
394322,1745478666398,15.21,134,,-0.1,-0.19,0.88,-2,-0,0,0.91,1.25,73,5980,19.7,4.16,,12.4,1.251,89.8,,40.4,5,,,,,,,,,,,,0,0,0,0,0,0,0,0,0,0,0,0,0,0,0,0,,,,,,0.0,,,,,,,
394342,1745478666418,,,,,,,,,,,,,,,,,,,,,,,,,,,,,,,,,,0,0,0,0,0,0,0,0,0,0,0,0,0,0,0,0,,,,,,,,,,,,,
394362,1745478666438,10.18,134,,-0.11,-0.28,0.82,-3,-0,0,0.87,1.25,70,6075,19.7,4.31,,12.4,1.251,89.8,,41.4,5,,,,,,,,,,,,0,0,0,0,0,0,0,0,0,0,0,0,0,0,0,0,,,,,,0.0,,,,,,,
394382,1745478666458,,,,,,,,,,,,,,,,,,,,,,,,,,,,,,,,,,0,0,0,0,0,0,0,0,0,0,0,0,0,0,0,0,,,,,,,,,,,,,
394402,1745478666478,5.78,134,13.32,-0.09,-0.28,0.79,-3,-0,-0,0.84,1.25,68,6075,19.7,4.31,15,12.25,1.251,89.8,171,41.4,5,0,0,0,0,0.0,0.0,0.0,0.0,2.26,0,1.0,0,0,0,0,0,0,0,0,0,0,0,0,0,0,0,0,0,0,1.0,0,0,0.0,38.994114,-76.939697,0.37,30.8,29,3,0.8
394422,1745478666498,,,,,,,,,,,,,,,,,,,,,,,,,,,,,,,,,,0,0,0,0,0,0,0,0,0,0,0,0,0,0,0,0,,,,,,,,,,,,,
394442,1745478666518,2.64,134,,-0.1,-0.19,0.86,-2,-0,-0,0.89,1.25,71,6250,19.7,4.43,,12.32,1.248,89.8,,41.8,5,,,,,,,,,,,,0,0,0,0,0,0,0,0,0,0,0,0,0,0,0,0,,,,,,0.0,,,,,,,
394462,1745478666538,,,,,,,,,,,,,,,,,,,,,,,,,,,,,,,,,,0,0,0,0,0,0,0,0,0,0,0,0,0,0,0,0,,,,,,,,,,,,,
394482,1745478666558,0.0,134,,-0.1,-0.22,0.89,-2,-0,-0,0.92,1.25,74,6481,19.6,4.85,,12.17,1.213,89.8,,41.8,5,,,,,,,,,,,,0,0,0,0,0,0,0,0,0,0,0,0,0,0,0,0,,,,,,0.0,,,,,,,
394502,1745478666578,,,,,,,,,,,,,,,,,,,,,,,0,0,0,0,0.0,0.0,0.0,0.0,2.26,,,0,0,0,0,0,0,0,0,0,0,0,0,0,0,0,0,,0,,,,,38.994114,-76.939697,0.04,30.8,29,3,0.8
394522,1745478666598,0.0,134,,-0.11,-0.18,0.86,-1,-0,-0,0.89,1.25,71,6591,19.6,5.17,,11.95,1.106,89.8,,41.8,5,,,,,,,,,,,,0,0,0,0,0,0,0,0,0,0,0,0,0,0,0,0,,,,,,0.0,,,,,,,
394542,1745478666618,,,,,,,,,,,,,,,,,,,,,,,,,,,,,,,,,,0,0,0,0,0,0,0,0,0,0,0,0,0,0,0,0,,,,,,,,,,,,,
394562,1745478666638,0.0,134,,-0.1,-0.09,0.88,-1,-0,-0,0.89,1.25,71,6975,19.5,5.6,,11.95,1.106,89.8,,42.0,5,,,,,,,,,,,,0,0,0,0,0,0,0,0,0,0,0,0,0,0,0,0,,,,,,0.0,,,,,,,
394582,1745478666658,,,,,,,,,,,,,,,,,,,,,,,,,,,,,,,,,,0,0,0,0,0,0,0,0,0,0,0,0,0,0,0,0,,,,,,,,,,,,,
394602,1745478666678,0.0,134,,-0.08,-0.27,0.92,-1,-0,-0,0.96,1.25,77,6975,19.5,5.6,,11.77,1.058,89.8,,42.0,5,0,0,0,0,0.0,0.0,0.0,0.0,2.26,,,0,0,0,0,0,0,0,0,0,0,0,0,0,0,0,0,,0,,,,0.0,38.994114,-76.939697,0.04,30.8,29,3,0.8
394622,1745478666696,,,,,,,,,,,,,,,,,,,,,,,,,,,,,,,,,,0,0,0,0,0,0,0,0,0,0,0,0,0,0,0,0,,,,,,,,,,,,,
394642,1745478666716,0.0,134,,-0.12,-0.29,0.94,-1,-0,0,0.99,1.25,80,7417,19.5,5.58,,11.38,0.909,89.8,,43.6,5,,,,,,,,,,,,0,0,0,0,0,0,0,0,0,0,0,0,0,0,0,0,,,,,,0.0,,,,,,,
394662,1745478666736,,,,,,,,,,,,,,,,,,,,,,,,,,,,,,,,,,0,0,0,0,0,0,0,0,0,0,0,0,0,0,0,0,,,,,,,,,,,,,
394682,1745478666756,0.0,134,,-0.09,-0.37,0.99,-1,-0,-0,1.06,1.25,85,7720,19.5,5.45,,11.05,0.842,89.8,,43.6,5,,,,,,,,,,,,0,0,0,0,0,0,0,0,0,0,0,0,0,0,0,0,,,,,,0.0,,,,,,,
394702,1745478666776,,,,,,,,,,,,,,,,,,,,,,,0,0,0,0,0.0,0.0,0.0,0.0,2.27,,,0,0,0,0,0,0,0,0,0,0,0,0,0,0,0,0,,0,,,,,38.994114,-76.939697,0.04,30.8,29,3,0.8
394722,1745478666798,0.0,134,,-0.07,-0.38,0.97,-1,-0,0,1.04,1.25,84,8037,19.2,4.52,,10.8,0.802,89.8,,43.6,5,,,,,,,,,,,,0,0,0,0,0,0,0,0,0,0,0,0,0,0,0,0,,,,,,0.0,,,,,,,
394742,1745478666818,,,,,,,,,,,,,,,,,,,,,,,,,,,,,,,,,,0,0,0,0,0,0,0,0,0,0,0,0,0,0,0,0,,,,,,,,,,,,,
394762,1745478666838,0.0,134,,-0.08,-0.13,0.97,-1,-0,0,0.99,1.25,79,8826,19.4,3.71,,10.8,0.802,89.8,,43.5,5,,,,,,,,,,,,0,0,0,0,0,0,0,0,0,0,0,0,0,0,0,0,,,,,,0.0,,,,,,,
394782,1745478666858,,,,,,,,,,,,,,,,,,,,,,,,,,,,,,,,,,0,0,0,0,0,0,0,0,0,0,0,0,0,0,0,0,,,,,,,,,,,,,
394802,1745478666878,0.0,133,,-0.07,0.02,0.99,-2,-0,0,0.99,1.25,80,8826,19.4,3.71,,10.28,0.801,89.8,,43.5,5,0,0,0,0,0.0,0.0,0.0,0.0,2.26,,,0,0,0,0,0,0,0,0,0,0,0,0,0,0,0,0,,0,,,,0.0,38.994114,-76.939697,0.05,30.8,29,3,0.8
394822,1745478666896,,,,,,,,,,,,,,,,,,,,,,,,,,,,,,,,,,0,0,0,0,0,0,0,0,0,0,0,0,0,0,0,0,,,,,,,,,,,,,
394842,1745478666916,0.0,134,,-0.09,0.22,0.93,-3,-0,0,0.96,1.25,77,10011,19.8,3.56,,9.58,0.802,89.8,,44.7,5,,,,,,,,,,,,0,0,0,0,0,0,0,0,0,0,0,0,0,0,0,0,,,,,,0.0,,,,,,,
394862,1745478666936,,,,,,,,,,,,,,,,,,,,,,,,,,,,,,,,,,0,0,0,0,0,0,0,0,0,0,0,0,0,0,0,0,,,,,,,,,,,,,
394882,1745478666956,0.0,134,,-0.05,0.27,0.97,-2,-0,0,1.01,1.25,81,11015,20.3,3.32,,9.44,0.825,89.8,,44.7,5,,,,,,,,,,,,0,0,0,0,0,0,0,0,0,0,0,0,0,0,0,0,,,,,,0.0,,,,,,,
394902,1745478666976,,,,,,,,,,,,,,,,,,,,,,,0,0,0,0,0.0,0.0,0.0,0.0,2.26,,,0,0,0,0,0,0,0,0,0,0,0,0,0,0,0,0,,0,,,,,38.994114,-76.939697,0.04,30.8,29,3,0.8
394922,1745478666996,0.0,133,,-0.04,0.16,1.02,-1,-0,0,1.03,1.25,83,11767,21.4,3.12,,9.09,0.846,89.8,,44.7,5,,,,,,,,,,,,0,0,0,0,0,0,0,0,0,0,0,0,0,0,0,0,,,,,,0.0,,,,,,,
394942,1745478667010,,,,,,,,,,,,,,,,,,,,,,,,,,,,,,,,,,0,0,0,0,0,0,0,0,0,0,0,0,0,0,0,0,,,,,,,,,,,,,
394962,1745478667030,0.0,134,,-0.02,0.13,1.02,-2,-0,-0,1.02,1.25,82,12389,21.5,2.75,,9.09,0.846,89.8,,48.6,5,,,,,,,,,,,,0,0,0,0,0,0,0,0,0,0,0,0,0,0,0,0,,,,,,0.0,,,,,,,
394982,1745478667050,,,,,,,,,,,,,,,,,,,,,,,,,,,,,,,,,,0,0,0,0,0,0,0,0,0,0,0,0,0,0,0,0,,,,,,,,,,,,,
395002,1745478667070,0.0,133,,-0.02,0.09,1.06,-2,-0,0,1.06,1.25,85,12389,21.5,2.75,,8.73,0.849,89.8,,48.6,5,0,0,0,0,0.0,0.0,0.0,0.0,2.26,,,0,0,0,0,0,0,0,0,0,0,0,0,0,0,0,0,,0,,,,0.0,38.994114,-76.939697,0.05,30.8,29,3,0.8
395022,1745478667094,,,,,,,,,,,,,,,,,,,,,,,,,,,,,,,,,,0,0,0,0,0,0,0,0,0,0,0,0,0,0,0,0,,,,,,,,,,,,,
395042,1745478667114,0.0,134,,-0.01,0.08,1.08,-3,-0,1,1.08,1.25,87,12776,21.6,2.38,,8.46,0.907,89.8,,51.4,5,,,,,,,,,,,,0,0,0,0,0,0,0,0,0,0,0,0,0,0,0,0,,,,,,0.0,,,,,,,
395062,1745478667134,,,,,,,,,,,,,,,,,,,,,,,,,,,,,,,,,,0,0,0,0,0,0,0,0,0,0,0,0,0,0,0,0,,,,,,,,,,,,,
395082,1745478667154,0.0,134,,0.02,0.02,1.08,-4,-0,1,1.08,1.25,86,12820,21.9,2.33,,8.27,0.981,88.0,,51.4,5,,,,,,,,,,,,0,0,0,0,0,0,0,0,0,0,0,0,0,0,0,0,,,,,,0.0,,,,,,,
395102,1745478667174,,,,,,,,,,,,,,,,,,,,,,,0,0,0,0,0.0,0.0,0.0,0.0,2.27,,,0,0,0,0,0,0,0,0,0,0,0,0,0,0,0,0,,0,,,,,38.994114,-76.939697,0.04,30.8,29,3,0.8
395122,1745478667198,0.0,133,,0.06,-0.08,1.11,-3,0,-0,1.11,1.25,89,12451,22.1,2.49,,8.3,1.055,88.0,,51.4,5,,,,,,,,,,,,0,0,0,0,0,0,0,0,0,0,0,0,0,0,0,0,,,,,,0.0,,,,,,,
395142,1745478667218,,,,,,,,,,,,,,,,,,,,,,,,,,,,,,,,,,0,0,0,0,0,0,0,0,0,0,0,0,0,0,0,0,,,,,,,,,,,,,
395162,1745478667238,0.0,133,,0.09,-0.03,1.13,-2,0,-0,1.13,1.25,91,11961,22.2,2.9,,8.3,1.055,88.0,,53.9,5,,,,,,,,,,,,0,0,0,0,0,0,0,0,0,0,0,0,0,0,0,0,,,,,,0.0,,,,,,,
395182,1745478667258,,,,,,,,,,,,,,,,,,,,,,,,,,,,,,,,,,0,0,0,0,0,0,0,0,0,0,0,0,0,0,0,0,,,,,,,,,,,,,
395202,1745478667278,0.0,133,,0.12,0.03,1.14,-1,0,-0,1.15,1.25,92,11961,22.2,2.9,,8.5,1.134,88.0,,53.9,5,0,0,0,0,0.0,0.0,0.0,0.0,2.26,,,0,0,0,0,0,0,0,0,0,0,0,0,0,0,0,0,,0,,,,0.0,38.994114,-76.939697,0.0,30.8,29,3,0.8
395222,1745478667298,,,,,,,,,,,,,,,,,,,,,,,,,,,,,,,,,,0,0,0,0,0,0,0,0,0,0,0,0,0,0,0,0,,,,,,,,,,,,,
395242,1745478667318,0.0,133,,0.11,-0.11,1.08,-0,0,-0,1.09,1.25,87,11571,22.4,3.03,,8.66,1.134,88.0,,51.7,5,,,,,,,,,,,,0,0,0,0,0,0,0,0,0,0,0,0,0,0,0,0,,,,,,0.0,,,,,,,
395262,1745478667338,,,,,,,,,,,,,,,,,,,,,,,,,,,,,,,,,,0,0,0,0,0,0,0,0,0,0,0,0,0,0,0,0,,,,,,,,,,,,,
395282,1745478667358,0.0,133,,0.17,-0.14,1.06,-1,0,-0,1.08,1.25,87,11250,24.0,3.33,,9.1,1.099,88.0,,51.7,5,,,,,,,,,,,,0,0,0,0,0,0,0,0,0,0,0,0,0,0,0,0,,,,,,0.0,,,,,,,
395302,1745478667378,,,,,,,,,,,,,,,,,,,,,,,0,0,0,0,0.0,0.0,0.0,0.0,2.26,,,0,0,0,0,0,0,0,0,0,0,0,0,0,0,0,0,,0,,,,,38.994114,-76.939697,0.86,30.8,29,3,0.8
395322,1745478667397,0.0,133,,0.19,0.05,1.05,-1,0,0,1.06,1.25,85,10980,28.1,3.04,,9.88,1.034,88.0,,51.7,5,,,,,,,,,,,,0,0,0,0,0,0,0,0,0,0,0,0,0,0,0,0,,,,,,0.0,,,,,,,
395342,1745478667417,,,,,,,,,,,,,,,,,,,,,,,,,,,,,,,,,,0,0,0,0,0,0,0,0,0,0,0,0,0,0,0,0,,,,,,,,,,,,,
395362,1745478667437,0.0,133,,0.22,-0.13,1.06,0,0,0,1.09,1.25,87,10528,32.2,3.21,,9.88,1.034,88.0,,51.5,5,,,,,,,,,,,,0,0,0,0,0,0,0,0,0,0,0,0,0,0,0,0,,,,,,0.0,,,,,,,
395382,1745478667457,,,,,,,,,,,,,,,,,,,,,,,,,,,,,,,,,,0,0,0,0,0,0,0,0,0,0,0,0,0,0,0,0,,,,,,,,,,,,,
395402,1745478667477,0.0,133,13.3,0.25,-0.1,1.05,0,-0,-0,1.09,1.25,87,10528,32.2,3.21,15,10.54,1.018,88.0,171,51.5,5,2,0,2,2,0.0,0.0,0.0,0.0,2.26,0,1.0,0,0,0,0,0,0,0,0,0,0,0,0,0,0,0,0,0,0,1.0,0,0,0.0,38.994114,-76.939697,2.05,30.8,29,3,0.8
395422,1745478667497,,,,,,,,,,,,,,,,,,,,,,,,,,,,,,,,,,0,0,0,0,0,0,0,0,0,0,0,0,0,0,0,0,,,,,,,,,,,,,
395442,1745478667517,0.0,133,,0.26,-0.07,1.03,-0,0,0,1.06,1.25,85,9740,37.2,4.79,,11.4,1.088,88.0,,45.8,5,,,,,,,,,,,,0,0,0,0,0,0,0,0,0,0,0,0,0,0,0,0,,,,,,0.0,,,,,,,
395462,1745478667537,,,,,,,,,,,,,,,,,,,,,,,,,,,,,,,,,,0,0,0,0,0,0,0,0,0,0,0,0,0,0,0,0,,,,,,,,,,,,,
395482,1745478667557,0.0,133,,0.28,-0.25,1.05,0,-0,-0,1.12,1.25,90,9931,44.2,5.04,,12.12,1.245,88.0,,45.8,5,,,,,,,,,,,,0,0,0,0,0,0,0,0,0,0,0,0,0,0,0,0,,,,,,0.0,,,,,,,
395502,1745478667577,,,,,,,,,,,,,,,,,,,,,,,3,0,3,4,0.0,0.0,0.0,0.0,2.26,,,0,0,0,0,0,0,0,0,0,0,0,0,0,0,0,0,,0,,,,,38.994114,-76.939697,4.85,30.8,29,3,0.8
395522,1745478667597,0.0,133,,0.35,-0.06,0.97,-0,-0,-1,1.04,1.25,83,10344,48.9,4.77,,12.59,1.081,88.0,,45.8,5,,,,,,,,,,,,0,0,0,0,0,0,0,0,0,0,0,0,0,0,0,0,,,,,,0.0,,,,,,,
395542,1745478667617,,,,,,,,,,,,,,,,,,,,,,,,,,,,,,,,,,0,0,0,0,0,0,0,0,0,0,0,0,0,0,0,0,,,,,,,,,,,,,
395562,1745478667637,0.0,133,,0.41,-0.05,0.91,-1,-0,-0,1.0,1.25,80,10623,52.9,4.53,,12.59,1.081,88.0,,46.7,5,,,,,,,,,,,,0,0,0,0,0,0,0,0,0,0,0,0,0,0,0,0,,,,,,0.0,,,,,,,
395582,1745478667657,,,,,,,,,,,,,,,,,,,,,,,,,,,,,,,,,,0,0,0,0,0,0,0,0,0,0,0,0,0,0,0,0,,,,,,,,,,,,,
395602,1745478667677,0.0,133,,0.44,-0.11,0.96,-1,-0,-1,1.06,1.25,85,10623,52.9,4.53,,12.84,1.018,88.0,,46.7,5,4,0,5,5,0.0,0.0,0.0,0.0,2.27,,,0,0,0,0,0,0,0,0,0,0,0,0,0,0,0,0,,0,,,,0.0,38.994114,-76.939697,6.58,30.8,29,3,0.8
395622,1745478667697,,,,,,,,,,,,,,,,,,,,,,,,,,,,,,,,,,0,0,0,0,0,0,0,0,0,0,0,0,0,0,0,0,,,,,,,,,,,,,
395642,1745478667717,0.0,133,,0.45,-0.2,0.95,-1,-0,-1,1.07,1.25,86,10783,60.5,4.65,,13.04,1.036,88.0,,49.8,5,,,,,,,,,,,,0,0,0,0,0,0,0,0,0,0,0,0,0,0,0,0,,,,,,0.0,,,,,,,
395662,1745478667737,,,,,,,,,,,,,,,,,,,,,,,,,,,,,,,,,,0,0,0,0,0,0,0,0,0,0,0,0,0,0,0,0,,,,,,,,,,,,,
395682,1745478667757,0.0,133,,0.46,-0.18,0.96,-0,-0,-1,1.08,1.25,87,10914,65.6,4.81,,13.32,1.065,88.0,,49.8,5,,,,,,,,,,,,0,0,0,0,0,0,0,0,0,0,0,0,0,0,0,0,,,,,,0.0,,,,,,,
395702,1745478667777,,,,,,,,,,,,,,,,,,,,,,,6,0,6,6,0.0,0.0,0.0,0.0,2.26,,,0,0,0,0,0,0,0,0,0,0,0,0,0,0,0,0,,0,,,,,38.994114,-76.939697,8.89,30.8,29,3,0.8
395722,1745478667797,0.0,133,,0.49,-0.11,0.97,-1,-0,-0,1.09,1.25,88,11029,67.6,4.68,,13.32,1.074,88.0,,49.8,5,,,,,,,,,,,,0,0,0,0,0,0,0,0,0,0,0,0,0,0,0,0,,,,,,0.0,,,,,,,
395742,1745478667817,,,,,,,,,,,,,,,,,,,,,,,,,,,,,,,,,,0,0,0,0,0,0,0,0,0,0,0,0,0,0,0,0,,,,,,,,,,,,,
395762,1745478667837,0.0,133,,0.5,-0.17,0.95,-1,-0,-0,1.09,1.25,87,10954,69.1,4.61,,13.32,1.074,88.0,,50.7,5,,,,,,,,,,,,0,0,0,0,0,0,0,0,0,0,0,0,0,0,0,0,,,,,,0.0,,,,,,,
395782,1745478667857,,,,,,,,,,,,,,,,,,,,,,,,,,,,,,,,,,0,0,0,0,0,0,0,0,0,0,0,0,0,0,0,0,,,,,,,,,,,,,
395802,1745478667877,0.0,132,,0.54,-0.26,0.97,-1,0,-0,1.14,1.25,92,10954,69.1,4.61,,13.48,1.066,88.0,,50.7,5,7,0,8,8,0.0,65.0,0.0,0.0,2.26,,,0,0,0,0,0,0,0,0,0,0,0,0,0,0,0,0,,0,,,,0.0,38.99411,-76.939697,11.03,30.8,29,3,0.8
395822,1745478667897,,,,,,,,,,,,,,,,,,,,,,,,,,,,,,,,,,0,0,0,0,0,0,0,0,0,0,0,0,0,0,0,0,,,,,,,,,,,,,
395842,1745478667917,0.0,132,,0.53,-0.21,0.94,-1,-0,0,1.1,1.25,88,10861,70.5,4.6,,13.43,1.09,88.0,,49.0,5,,,,,,,,,,,,0,0,0,0,0,0,0,0,0,0,0,0,0,0,0,0,,,,,,0.0,,,,,,,
395862,1745478667937,,,,,,,,,,,,,,,,,,,,,,,,,,,,,,,,,,0,0,0,0,0,0,0,0,0,0,0,0,0,0,0,0,,,,,,,,,,,,,
395882,1745478667957,0.0,133,,0.55,-0.12,0.92,-2,-0,1,1.08,1.25,86,10781,70.7,4.73,,13.32,1.1,88.0,,49.0,5,,,,,,,,,,,,0,0,0,0,0,0,0,0,0,0,0,0,0,0,0,0,,,,,,0.0,,,,,,,
395902,1745478667977,,,,,,,,,,,,,,,,,,,,,,,9,0,10,10,0.0,117.0,0.0,0.0,2.25,,,0,0,0,0,0,0,0,0,0,0,0,0,0,0,0,0,,0,,,,,38.994106,-76.939697,13.66,30.8,29,3,0.8
395922,1745478667997,0.0,133,,0.54,-0.23,0.97,-2,-0,1,1.14,1.25,91,10783,70.7,4.73,,13.43,1.114,88.0,,49.0,5,,,,,,,,,,,,0,0,0,0,0,0,0,0,0,0,0,0,0,0,0,0,,,,,,0.0,,,,,,,
395942,1745478668009,,,,,,,,,,,,,,,,,,,,,,,,,,,,,,,,,,0,0,0,0,0,0,0,0,0,0,0,0,0,0,0,0,,,,,,,,,,,,,
395962,1745478668029,0.0,133,,0.54,-0.1,0.96,-2,0,1,1.11,1.25,89,10845,71.2,4.63,,13.43,1.114,88.0,,47.5,5,,,,,,,,,,,,0,0,0,0,0,0,0,0,0,0,0,0,0,0,0,0,,,,,,0.0,,,,,,,
395982,1745478668049,,,,,,,,,,,,,,,,,,,,,,,,,,,,,,,,,,0,0,0,0,0,0,0,0,0,0,0,0,0,0,0,0,,,,,,,,,,,,,
396002,1745478668069,0.0,133,,0.6,-0.24,0.97,-2,0,1,1.17,1.25,94,10845,71.2,4.63,,13.36,1.101,88.0,,47.5,5,11,0,12,12,0.0,83.0,0.0,0.0,2.26,,,0,0,0,0,0,0,0,0,0,0,0,0,0,0,0,0,,0,,,,0.0,38.994102,-76.939697,16.13,30.8,29,3,0.8
396022,1745478668097,,,,,,,,,,,,,,,,,,,,,,,,,,,,,,,,,,0,0,0,0,0,0,0,0,0,0,0,0,0,0,0,0,,,,,,,,,,,,,
396042,1745478668117,0.0,132,,0.6,-0.32,0.99,-2,0,1,1.2,1.25,96,10727,71.5,4.72,,13.49,1.089,88.0,,47.1,5,,,,,,,,,,,,0,0,0,0,0,0,0,0,0,0,0,0,0,0,0,0,,,,,,0.0,,,,,,,
396062,1745478668137,,,,,,,,,,,,,,,,,,,,,,,,,,,,,,,,,,0,0,0,0,0,0,0,0,0,0,0,0,0,0,0,0,,,,,,,,,,,,,
396082,1745478668157,0.0,133,,0.59,-0.13,1.0,-2,-0,0,1.17,1.25,94,10673,71.5,4.83,,13.6,1.116,88.0,,47.1,5,,,,,,,,,,,,0,0,0,0,0,0,0,0,0,0,0,0,0,0,0,0,,,,,,0.0,,,,,,,
396102,1745478668177,,,,,,,,,,,,,,,,,,,,,,,13,0,13,13,0.0,68.0,0.0,0.0,2.26,,,0,0,0,0,0,0,0,0,0,0,0,0,0,0,0,0,,0,,,,,38.994099,-76.93969,18.59,30.8,29,3,0.8
396122,1745478668195,0.0,132,,0.62,0.02,0.97,-3,-0,1,1.15,1.25,93,10660,71.5,4.88,,13.52,1.115,88.0,,47.1,5,,,,,,,,,,,,0,0,0,0,0,0,0,0,0,0,0,0,0,0,0,0,,,,,,0.0,,,,,,,
396142,1745478668215,,,,,,,,,,,,,,,,,,,,,,,,,,,,,,,,,,0,0,0,0,0,0,0,0,0,0,0,0,0,0,0,0,,,,,,,,,,,,,
396162,1745478668235,0.0,132,,0.62,0.12,0.99,-3,-0,1,1.18,1.25,94,10560,71.5,5.0,,13.52,1.115,88.0,,47.0,5,,,,,,,,,,,,0,0,0,0,0,0,0,0,0,0,0,0,0,0,0,0,,,,,,0.0,,,,,,,
396182,1745478668255,,,,,,,,,,,,,,,,,,,,,,,,,,,,,,,,,,0,0,0,0,0,0,0,0,0,0,0,0,0,0,0,0,,,,,,,,,,,,,
396202,1745478668275,0.0,132,,0.64,-0.0,1.05,-3,-0,1,1.23,1.25,99,10560,71.5,5.0,,13.45,1.1,88.0,,47.0,5,14,0,15,16,0.0,98.0,0.0,0.0,2.26,,,0,0,0,0,0,0,0,0,0,0,0,0,0,0,0,0,,0,,,,0.0,38.994095,-76.93969,21.31,30.7,29,3,0.8
396222,1745478668295,,,,,,,,,,,,,,,,,,,,,,,,,,,,,,,,,,0,0,0,0,0,0,0,0,0,0,0,0,0,0,0,0,,,,,,,,,,,,,
396242,1745478668315,0.0,132,,0.65,-0.23,1.06,-2,-1,1,1.26,1.26,100,10541,71.5,5.03,,13.49,1.094,88.0,,45.7,5,,,,,,,,,,,,0,0,0,0,0,0,0,0,0,0,0,0,0,0,0,0,,,,,,0.0,,,,,,,
396262,1745478668335,,,,,,,,,,,,,,,,,,,,,,,,,,,,,,,,,,0,0,0,0,0,0,0,0,0,0,0,0,0,0,0,0,,,,,,,,,,,,,
396282,1745478668355,0.0,133,,0.68,-0.31,1.08,-1,-1,1,1.31,1.31,100,10673,68.3,4.89,,13.61,1.07,88.0,,45.7,5,,,,,,,,,,,,0,0,0,0,0,0,0,0,0,0,0,0,0,0,0,0,,,,,,0.0,,,,,,,
396302,1745478668375,,,,,,,,,,,,,,,,,,,,,,,16,0,17,18,0.0,93.0,0.0,0.0,2.26,,,0,0,0,0,0,0,0,0,0,0,0,0,0,0,0,0,,0,,,,,38.994091,-76.939682,23.63,30.7,29,3,0.8
396322,1745478668396,0.0,132,,0.7,-0.28,1.02,-1,-1,1,1.26,1.31,96,10768,40.3,4.32,,12.4,1.052,88.0,,45.7,5,,,,,,,,,,,,0,0,0,0,0,0,0,0,0,0,0,0,0,0,0,0,,,,,,0.0,,,,,,,
396342,1745478668416,,,,,,,,,,,,,,,,,,,,,,,,,,,,,,,,,,0,0,0,0,0,0,0,0,0,0,0,0,0,0,0,0,,,,,,,,,,,,,
396362,1745478668436,0.0,132,,0.71,-0.35,1.01,-1,-0,0,1.28,1.31,97,10676,13.6,4.85,,12.4,1.052,88.0,,49.6,5,,,,,,,,,,,,0,0,0,0,0,0,0,0,0,0,0,0,0,0,0,0,,,,,,0.0,,,,,,,
396382,1745478668456,,,,,,,,,,,,,,,,,,,,,,,,,,,,,,,,,,0,0,0,0,0,0,0,0,0,0,0,0,0,0,0,0,,,,,,,,,,,,,
396402,1745478668476,0.0,132,13.33,0.68,-0.24,1.09,-1,-0,0,1.31,1.31,100,10676,13.6,4.85,15,10.12,1.029,88.0,171,49.6,5,18,0,19,19,0.0,46.0,0.0,0.0,2.26,0,1.0,0,0,0,0,0,0,0,0,0,0,0,0,0,0,0,0,0,0,1.0,0,0,0.0,38.994087,-76.939674,26.67,30.7,29,3,0.8
396422,1745478668492,,,,,,,,,,,,,,,,,,,,,,,,,,,,,,,,,,0,0,0,0,0,0,0,0,0,0,0,0,0,0,0,0,,,,,,,,,,,,,
396442,1745478668512,0.0,132,,0.66,-0.15,1.13,-1,-0,-0,1.32,1.32,100,10224,0.6,1.4,,7.97,0.919,88.0,,47.5,5,,,,,,,,,,,,0,0,0,0,0,0,0,0,0,0,0,0,0,0,0,0,,,,,,0.0,,,,,,,
396462,1745478668532,,,,,,,,,,,,,,,,,,,,,,,,,,,,,,,,,,0,0,0,0,0,0,0,0,0,0,0,0,0,0,0,0,,,,,,,,,,,,,
396482,1745478668552,0.0,132,,0.65,-0.17,1.12,-2,-0,-0,1.3,1.32,99,8967,0.0,1.4,,6.95,0.852,88.0,,47.5,5,,,,,,,,,,,,0,0,0,0,0,0,0,0,0,0,0,0,0,0,0,0,,,,,,0.0,,,,,,,
396502,1745478668572,,,,,,,,,,,,,,,,,,,,,,,19,0,23,23,0.0,203.0,0.0,0.0,2.27,,,0,0,0,0,0,0,0,0,0,0,0,0,0,0,0,0,,0,,,,,38.99408,-76.939674,29.11,30.7,29,3,0.8
396522,1745478668594,0.0,132,,0.64,-0.15,1.1,-1,-0,-0,1.29,1.32,97,7645,0.0,1.4,,6.74,0.955,88.0,,47.5,5,,,,,,,,,,,,0,0,0,0,0,0,0,0,0,0,0,0,0,0,0,0,,,,,,0.0,,,,,,,
396542,1745478668614,,,,,,,,,,,,,,,,,,,,,,,,,,,,,,,,,,0,0,0,0,0,0,0,0,0,0,0,0,0,0,0,0,,,,,,,,,,,,,
396562,1745478668634,0.0,133,,0.62,-0.06,1.1,-2,-1,0,1.26,1.32,96,6679,0.0,1.4,,6.74,0.955,88.0,,43.6,5,,,,,,,,,,,,0,0,0,0,0,0,0,0,0,0,0,0,0,0,0,0,,,,,,0.0,,,,,,,
396582,1745478668654,,,,,,,,,,,,,,,,,,,,,,,,,,,,,,,,,,0,0,0,0,0,0,0,0,0,0,0,0,0,0,0,0,,,,,,,,,,,,,
396602,1745478668674,0.0,132,,0.49,-0.0,1.14,-2,-2,0,1.24,1.32,94,6679,0.0,1.4,,6.83,1.093,88.0,,43.6,5,21,0,21,21,0.0,78.0,0.0,0.0,2.27,,,0,0,0,0,0,0,0,0,0,0,0,0,0,0,0,0,,1,,,,0.0,38.994076,-76.939667,31.93,30.7,29,3,0.8
396622,1745478668694,,,,,,,,,,,,,,,,,,,,,,,,,,,,,,,,,,0,0,0,0,0,0,0,0,0,0,0,0,0,0,0,0,,,,,,,,,,,,,
396642,1745478668714,0.0,132,,0.37,0.12,1.12,-3,-2,1,1.18,1.32,90,6119,0.0,1.4,,7.11,1.121,88.0,,43.2,5,,,,,,,,,,,,0,0,0,0,0,0,0,0,0,0,0,0,0,0,0,0,,,,,,0.0,,,,,,,
396662,1745478668734,,,,,,,,,,,,,,,,,,,,,,,,,,,,,,,,,,0,0,0,0,0,0,0,0,0,0,0,0,0,0,0,0,,,,,,,,,,,,,
396682,1745478668754,0.0,132,,0.18,0.13,1.11,-4,-2,1,1.13,1.32,86,5968,0.0,1.4,,7.61,1.112,88.0,,43.2,5,,,,,,,,,,,,0,0,0,0,0,0,0,0,0,0,0,0,0,0,0,0,,,,,,0.0,,,,,,,
396702,1745478668774,,,,,,,,,,,,,,,,,,,,,,,21,0,20,20,0.0,26.0,0.0,0.0,2.27,,,0,0,0,0,0,0,0,0,0,0,0,0,0,0,0,0,,0,,,,,38.994068,-76.939659,34.06,30.6,29,3,0.8
396722,1745478668794,0.0,132,,0.09,0.02,1.02,-6,-2,1,1.03,1.32,78,6238,0.0,1.4,,7.71,1.097,88.0,,43.2,5,,,,,,,,,,,,0,0,0,0,0,0,0,0,0,0,0,0,0,0,0,0,,,,,,0.0,,,,,,,
396742,1745478668814,,,,,,,,,,,,,,,,,,,,,,,,,,,,,,,,,,0,0,0,0,0,0,0,0,0,0,0,0,0,0,0,0,,,,,,,,,,,,,
396762,1745478668834,0.0,132,,0.02,-0.02,1.04,-6,-2,0,1.05,1.32,79,6429,0.0,1.4,,7.71,1.097,88.0,,43.4,5,,,,,,,,,,,,0,0,0,0,0,0,0,0,0,0,0,0,0,0,0,0,,,,,,0.0,,,,,,,
396782,1745478668854,,,,,,,,,,,,,,,,,,,,,,,,,,,,,,,,,,0,0,0,0,0,0,0,0,0,0,0,0,0,0,0,0,,,,,,,,,,,,,
396802,1745478668874,0.0,131,,-0.0,-0.01,0.98,-6,-2,0,0.98,1.32,74,6429,0.0,1.4,,7.63,1.094,88.0,,43.4,5,20,0,19,18,0.0,190.0,0.0,0.0,2.27,,,0,0,0,0,0,0,0,0,0,0,0,0,0,0,0,0,,0,,,,0.0,38.994057,-76.939652,32.98,30.6,29,3,0.8
396822,1745478668898,,,,,,,,,,,,,,,,,,,,,,,,,,,,,,,,,,0,0,0,0,0,0,0,0,0,0,0,0,0,0,0,0,,,,,,,,,,,,,
396842,1745478668918,0.0,131,,-0.06,-0.12,1.04,-7,-2,-0,1.05,1.32,79,6404,0.0,1.4,,7.59,1.147,88.0,,43.5,5,,,,,,,,,,,,0,0,0,0,0,0,0,0,0,0,0,0,0,0,0,0,,,,,,0.0,,,,,,,
396862,1745478668938,,,,,,,,,,,,,,,,,,,,,,,,,,,,,,,,,,0,0,0,0,0,0,0,0,0,0,0,0,0,0,0,0,,,,,,,,,,,,,
396882,1745478668958,0.0,132,,-0.09,-0.14,0.96,-7,-2,-0,0.97,1.32,74,6322,0.0,1.4,,7.57,1.251,88.0,,43.5,5,,,,,,,,,,,,0,0,0,0,0,0,0,0,0,0,0,0,0,0,0,0,,,,,,0.0,,,,,,,
396902,1745478668978,,,,,,,,,,,,,,,,,,,,,,,19,0,19,19,0.0,10.0,0.0,0.0,2.26,,,0,0,0,0,0,0,0,0,0,0,0,0,0,0,0,0,,1,,,,,38.994053,-76.939652,31.53,30.6,29,3,0.8
396922,1745478668998,0.0,131,,-0.09,-0.21,0.97,-7,-1,-1,1.0,1.32,75,6177,0.0,1.4,,7.5,1.251,88.0,,43.5,5,,,,,,,,,,,,0,0,0,0,0,0,0,0,0,0,0,0,0,0,0,0,,,,,,0.0,,,,,,,
396942,1745478669008,,,,,,,,,,,,,,,,,,,,,,,,,,,,,,,,,,0,0,0,0,0,0,0,0,0,0,0,0,0,0,0,0,,,,,,,,,,,,,
396962,1745478669028,0.0,132,,-0.12,-0.2,1.1,-6,-1,-1,1.12,1.32,85,6056,0.0,1.4,,7.5,1.251,88.0,,43.0,5,,,,,,,,,,,,0,0,0,0,0,0,0,0,0,0,0,0,0,0,0,0,,,,,,0.0,,,,,,,
396982,1745478669048,,,,,,,,,,,,,,,,,,,,,,,,,,,,,,,,,,0,0,0,0,0,0,0,0,0,0,0,0,0,0,0,0,,,,,,,,,,,,,
397002,1745478669068,0.0,132,,-0.19,-0.14,1.2,-5,-1,-0,1.22,1.32,92,6056,0.0,1.4,,7.61,1.25,88.0,,43.0,5,19,0,18,18,0.0,246.0,0.0,0.0,2.27,,,0,0,0,0,0,0,0,0,0,0,0,0,0,0,0,0,,1,,,,0.0,38.994045,-76.939652,29.86,30.6,29,3,0.8
397022,1745478669092,,,,,,,,,,,,,,,,,,,,,,,,,,,,,,,,,,0,0,0,0,0,0,0,0,0,0,0,0,0,0,0,0,,,,,,,,,,,,,
397042,1745478669112,0.0,131,,-0.22,-0.16,1.3,-4,-1,-1,1.33,1.33,100,5990,0.0,1.4,,7.74,1.25,88.0,,43.0,5,,,,,,,,,,,,0,0,0,0,0,0,0,0,0,0,0,0,0,0,0,0,,,,,,0.0,,,,,,,
397062,1745478669132,,,,,,,,,,,,,,,,,,,,,,,,,,,,,,,,,,0,0,0,0,0,0,0,0,0,0,0,0,0,0,0,0,,,,,,,,,,,,,
397082,1745478669152,0.0,132,,-0.19,-0.13,1.34,-3,-1,-1,1.36,1.36,100,5883,0.0,1.4,,7.85,1.251,86.2,,43.0,5,,,,,,,,,,,,0,0,0,0,0,0,0,0,0,0,0,0,0,0,0,0,,,,,,0.0,,,,,,,
397102,1745478669172,,,,,,,,,,,,,,,,,,,,,,,18,0,18,18,0.0,54.0,0.0,0.0,2.27,,,0,0,0,0,0,0,0,0,0,0,0,0,0,0,0,0,,1,,,,,38.994038,-76.939644,28.66,30.5,29,3,0.8
397122,1745478669192,0.0,132,,-0.21,-0.16,1.22,-5,-0,-1,1.24,1.36,92,5759,0.0,1.4,,8.05,1.249,86.2,,43.0,5,,,,,,,,,,,,0,0,0,0,0,0,0,0,0,0,0,0,0,0,0,0,,,,,,0.0,,,,,,,
397142,1745478669212,,,,,,,,,,,,,,,,,,,,,,,,,,,,,,,,,,0,0,0,0,0,0,0,0,0,0,0,0,0,0,0,0,,,,,,,,,,,,,
397162,1745478669232,0.0,131,,-0.28,-0.06,1.21,-6,-0,-1,1.24,1.36,92,5688,0.0,1.4,,8.05,1.249,86.2,,42.1,5,,,,,,,,,,,,0,0,0,0,0,0,0,0,0,0,0,0,0,0,0,0,,,,,,0.0,,,,,,,
397182,1745478669252,,,,,,,,,,,,,,,,,,,,,,,,,,,,,,,,,,0,0,0,0,0,0,0,0,0,0,0,0,0,0,0,0,,,,,,,,,,,,,
397202,1745478669272,0.0,131,,-0.26,-0.15,1.18,-7,-0,-1,1.21,1.36,89,5688,0.0,1.4,,8.17,1.251,86.2,,42.1,5,17,0,17,17,0.0,61.0,0.0,0.0,2.27,,,0,0,0,0,0,0,0,0,0,0,0,0,0,0,0,0,,1,,,,0.0,38.994034,-76.939636,27.85,30.5,29,3,0.8
397222,1745478669298,,,,,,,,,,,,,,,,,,,,,,,,,,,,,,,,,,0,0,0,0,0,0,0,0,0,0,0,0,0,0,0,0,,,,,,,,,,,,,
397242,1745478669318,0.0,131,,-0.3,-0.09,1.18,-7,0,-1,1.22,1.36,90,5587,0.0,1.4,,8.3,1.253,86.2,,41.4,5,,,,,,,,,,,,0,0,0,0,0,0,0,0,0,0,0,0,0,0,0,0,,,,,,0.0,,,,,,,
397262,1745478669338,,,,,,,,,,,,,,,,,,,,,,,,,,,,,,,,,,0,0,0,0,0,0,0,0,0,0,0,0,0,0,0,0,,,,,,,,,,,,,
397282,1745478669358,0.0,132,,-0.32,-0.11,1.14,-9,0,-1,1.18,1.36,87,5461,0.0,1.4,,8.45,1.254,86.2,,41.4,5,,,,,,,,,,,,0,0,0,0,0,0,0,0,0,0,0,0,0,0,0,0,,,,,,0.0,,,,,,,
397302,1745478669378,,,,,,,,,,,,,,,,,,,,,,,16,0,16,17,0.0,8.0,0.0,0.0,2.27,,,0,0,0,0,0,0,0,0,0,0,0,0,0,0,0,0,,0,,,,,38.994026,-76.939636,26.91,30.5,29,3,0.8
397322,1745478669395,0.0,131,,-0.33,-0.05,1.13,-10,0,-0,1.18,1.36,87,5384,0.0,1.4,,8.62,1.253,86.2,,41.4,5,,,,,,,,,,,,0,0,0,0,0,0,0,0,0,0,0,0,0,0,0,0,,,,,,0.0,,,,,,,
397342,1745478669415,,,,,,,,,,,,,,,,,,,,,,,,,,,,,,,,,,0,0,0,0,0,0,0,0,0,0,0,0,0,0,0,0,,,,,,,,,,,,,
397362,1745478669435,0.0,131,,-0.34,-0.13,1.14,-10,0,-0,1.19,1.36,88,5291,0.0,1.4,,8.62,1.253,86.2,,40.9,5,,,,,,,,,,,,0,0,0,0,0,0,0,0,0,0,0,0,0,0,0,0,,,,,,0.0,,,,,,,
397382,1745478669455,,,,,,,,,,,,,,,,,,,,,,,,,,,,,,,,,,0,0,0,0,0,0,0,0,0,0,0,0,0,0,0,0,,,,,,,,,,,,,
397402,1745478669475,0.0,131,13.41,-0.35,-0.1,1.13,-11,0,-0,1.19,1.36,88,5291,0.0,1.4,15,8.78,1.252,86.2,171,40.9,5,16,0,16,16,0.0,0.0,0.0,0.0,2.26,0,1.0,0,0,0,0,0,0,0,0,0,0,0,0,0,0,0,0,0,1,1.0,0,-0,0.0,38.994019,-76.939629,25.93,30.5,29,3,0.8
397422,1745478669493,,,,,,,,,,,,,,,,,,,,,,,,,,,,,,,,,,0,0,0,0,0,0,0,0,0,0,0,0,0,0,0,0,,,,,,,,,,,,,
397442,1745478669513,0.0,131,,-0.36,-0.11,1.13,-11,1,-0,1.19,1.36,87,5186,0.0,1.4,,8.9,1.251,86.2,,39.0,5,,,,,,,,,,,,0,0,0,0,0,0,0,0,0,0,0,0,0,0,0,0,,,,,,0.0,,,,,,,
397462,1745478669533,,,,,,,,,,,,,,,,,,,,,,,,,,,,,,,,,,0,0,0,0,0,0,0,0,0,0,0,0,0,0,0,0,,,,,,,,,,,,,
397482,1745478669553,0.0,131,,-0.36,-0.1,1.14,-11,1,-0,1.2,1.36,88,5104,0.0,1.47,,9.06,1.251,86.2,,39.0,5,,,,,,,,,,,,0,0,0,0,0,0,0,0,0,0,0,0,0,0,0,0,,,,,,0.0,,,,,,,
397502,1745478669573,,,,,,,,,,,,,,,,,,,,,,,15,0,15,16,0.0,58.0,0.0,0.0,2.27,,,0,0,0,0,0,0,0,0,0,0,0,0,0,0,0,0,,0,,,,,38.994015,-76.939629,25.07,30.5,29,3,0.8
397522,1745478669594,0.0,131,,-0.35,-0.13,1.1,-12,1,-0,1.16,1.36,85,5032,0.0,1.52,,9.19,1.251,86.2,,39.0,5,,,,,,,,,,,,0,0,0,0,0,0,0,0,0,0,0,0,0,0,0,0,,,,,,0.0,,,,,,,
397542,1745478669614,,,,,,,,,,,,,,,,,,,,,,,,,,,,,,,,,,0,0,0,0,0,0,0,0,0,0,0,0,0,0,0,0,,,,,,,,,,,,,
397562,1745478669634,0.0,131,,-0.39,-0.09,1.09,-13,0,-0,1.17,1.36,86,4897,0.0,1.58,,9.19,1.251,86.2,,37.7,5,,,,,,,,,,,,0,0,0,0,0,0,0,0,0,0,0,0,0,0,0,0,,,,,,0.0,,,,,,,
397582,1745478669654,,,,,,,,,,,,,,,,,,,,,,,,,,,,,,,,,,0,0,0,0,0,0,0,0,0,0,0,0,0,0,0,0,,,,,,,,,,,,,
397602,1745478669674,0.0,131,,-0.37,-0.09,1.05,-14,0,0,1.11,1.36,82,4897,0.0,1.58,,9.37,1.251,86.2,,37.7,5,15,0,14,15,0.0,67.0,0.0,0.0,2.27,,,0,0,0,0,0,0,0,0,0,0,0,0,0,0,0,0,,1,,,,0.0,38.994007,-76.939621,23.82,30.4,29,3,0.8
397622,1745478669693,,,,,,,,,,,,,,,,,,,,,,,,,,,,,,,,,,0,0,0,0,0,0,0,0,0,0,0,0,0,0,0,0,,,,,,,,,,,,,
397642,1745478669713,0.0,131,,-0.4,-0.0,1.11,-13,0,0,1.18,1.36,87,4795,0.0,1.62,,9.44,1.25,86.2,,35.7,5,,,,,,,,,,,,0,0,0,0,0,0,0,0,0,0,0,0,0,0,0,0,,,,,,0.0,,,,,,,
397662,1745478669733,,,,,,,,,,,,,,,,,,,,,,,,,,,,,,,,,,0,0,0,0,0,0,0,0,0,0,0,0,0,0,0,0,,,,,,,,,,,,,
397682,1745478669753,0.0,131,,-0.4,-0.09,1.08,-15,0,0,1.16,1.36,85,4723,0.0,1.63,,9.58,1.251,86.2,,35.7,5,,,,,,,,,,,,0,0,0,0,0,0,0,0,0,0,0,0,0,0,0,0,,,,,,0.0,,,,,,,
397702,1745478669773,,,,,,,,,,,,,,,,,,,,,,,14,0,14,15,0.0,69.0,0.0,0.0,2.27,,,0,0,0,0,0,0,0,0,0,0,0,0,0,0,0,0,,1,,,,,38.994003,-76.939621,23.31,30.4,29,3,0.8
397722,1745478669795,0.0,131,,-0.37,-0.23,0.99,-17,0,-0,1.08,1.36,79,4646,0.0,1.66,,9.73,1.253,86.2,,35.7,5,,,,,,,,,,,,0,0,0,0,0,0,0,0,0,0,0,0,0,0,0,0,,,,,,0.0,,,,,,,
397742,1745478669815,,,,,,,,,,,,,,,,,,,,,,,,,,,,,,,,,,0,0,0,0,0,0,0,0,0,0,0,0,0,0,0,0,,,,,,,,,,,,,
397762,1745478669835,0.0,131,,-0.36,-0.22,0.88,-18,0,-1,0.98,1.36,72,4528,0.0,1.69,,9.73,1.253,86.2,,33.9,5,,,,,,,,,,,,0,0,0,0,0,0,0,0,0,0,0,0,0,0,0,0,,,,,,0.0,,,,,,,
397782,1745478669855,,,,,,,,,,,,,,,,,,,,,,,,,,,,,,,,,,0,0,0,0,0,0,0,0,0,0,0,0,0,0,0,0,,,,,,,,,,,,,
397802,1745478669875,0.0,130,,-0.36,-0.22,0.81,-19,0,-1,0.91,1.36,67,4528,0.0,1.69,,9.76,1.254,86.2,,33.9,5,13,0,13,14,0.0,66.0,0.0,0.0,2.26,,,0,0,0,0,0,0,0,0,0,0,0,0,0,0,0,0,,0,,,,0.0,38.993996,-76.939621,22.24,30.4,29,3,0.8
397822,1745478669897,,,,,,,,,,,,,,,,,,,,,,,,,,,,,,,,,,0,0,0,0,0,0,0,0,0,0,0,0,0,0,0,0,,,,,,,,,,,,,
397842,1745478669917,0.0,131,,-0.36,-0.24,0.77,-20,0,-1,0.88,1.36,65,4424,0.0,1.73,,9.93,1.253,86.2,,31.8,5,,,,,,,,,,,,0,0,0,0,0,0,0,0,0,0,0,0,0,0,0,0,,,,,,0.0,,,,,,,
397862,1745478669937,,,,,,,,,,,,,,,,,,,,,,,,,,,,,,,,,,0,0,0,0,0,0,0,0,0,0,0,0,0,0,0,0,,,,,,,,,,,,,
397882,1745478669957,0.0,131,,-0.37,-0.24,0.83,-20,0,0,0.94,1.36,69,4325,0.0,1.75,,10.01,1.252,86.2,,31.8,5,,,,,,,,,,,,0,0,0,0,0,0,0,0,0,0,0,0,0,0,0,0,,,,,,0.0,,,,,,,
397902,1745478669977,,,,,,,,,,,,,,,,,,,,,,,13,0,13,13,0.0,231.0,0.0,0.0,2.26,,,0,0,0,0,0,0,0,0,0,0,0,0,0,0,0,0,,1,,,,,38.993992,-76.939613,21.35,30.4,29,3,0.8
397922,1745478669997,0.0,131,,-0.4,-0.11,0.96,-17,0,0,1.04,1.36,77,4264,0.0,1.76,,10.13,1.251,86.2,,31.8,5,,,,,,,,,,,,0,0,0,0,0,0,0,0,0,0,0,0,0,0,0,0,,,,,,0.0,,,,,,,
397942,1745478670009,,,,,,,,,,,,,,,,,,,,,,,,,,,,,,,,,,0,0,0,0,0,0,0,0,0,0,0,0,0,0,0,0,,,,,,,,,,,,,
397962,1745478670029,0.0,131,,-0.4,-0.09,0.82,-19,0,-0,0.92,1.36,67,4178,0.0,1.79,,10.13,1.251,86.2,,31.0,5,,,,,,,,,,,,0,0,0,0,0,0,0,0,0,0,0,0,0,0,0,0,,,,,,0.0,,,,,,,
397982,1745478670049,,,,,,,,,,,,,,,,,,,,,,,,,,,,,,,,,,0,0,0,0,0,0,0,0,0,0,0,0,0,0,0,0,,,,,,,,,,,,,
398002,1745478670069,0.0,131,,-0.39,-0.04,0.9,-17,0,-0,0.98,1.36,72,4178,0.0,1.79,,10.17,1.251,86.2,,31.0,5,12,0,13,13,0.0,48.0,0.0,0.0,2.27,,,0,0,0,0,0,0,0,0,0,0,0,0,0,0,0,0,,1,,,,0.0,38.993988,-76.939613,20.5,30.4,29,3,0.8
398022,1745478670091,,,,,,,,,,,,,,,,,,,,,,,,,,,,,,,,,,0,0,0,0,0,0,0,0,0,0,0,0,0,0,0,0,,,,,,,,,,,,,
398042,1745478670111,0.0,131,,-0.37,-0.16,0.84,-19,0,-0,0.93,1.36,68,4096,0.0,1.8,,10.29,1.251,86.2,,29.3,5,,,,,,,,,,,,0,0,0,0,0,0,0,0,0,0,0,0,0,0,0,0,,,,,,0.0,,,,,,,
398062,1745478670131,,,,,,,,,,,,,,,,,,,,,,,,,,,,,,,,,,0,0,0,0,0,0,0,0,0,0,0,0,0,0,0,0,,,,,,,,,,,,,
398082,1745478670151,0.0,131,,-0.37,-0.06,0.84,-17,1,-1,0.92,1.36,68,4002,0.0,1.82,,10.36,1.251,86.2,,29.3,5,,,,,,,,,,,,0,0,0,0,0,0,0,0,0,0,0,0,0,0,0,0,,,,,,0.0,,,,,,,
398102,1745478670171,,,,,,,,,,,,,,,,,,,,,,,12,0,12,12,0.0,17.0,0.0,0.0,2.27,,,0,0,0,0,0,0,0,0,0,0,0,0,0,0,0,0,,1,,,,,38.99398,-76.939613,19.6,30.3,29,3,0.8
398122,1745478670195,0.0,130,,-0.36,-0.03,0.89,-16,1,-0,0.96,1.36,71,3891,0.0,1.87,,10.46,1.252,86.2,,29.3,5,,,,,,,,,,,,0,0,0,0,0,0,0,0,0,0,0,0,0,0,0,0,,,,,,0.0,,,,,,,
398142,1745478670215,,,,,,,,,,,,,,,,,,,,,,,,,,,,,,,,,,0,0,0,0,0,0,0,0,0,0,0,0,0,0,0,0,,,,,,,,,,,,,
398162,1745478670235,0.0,131,,-0.34,-0.11,0.9,-15,0,-0,0.97,1.36,72,3826,0.0,1.88,,10.46,1.252,86.2,,27.9,5,,,,,,,,,,,,0,0,0,0,0,0,0,0,0,0,0,0,0,0,0,0,,,,,,0.0,,,,,,,
398182,1745478670255,,,,,,,,,,,,,,,,,,,,,,,,,,,,,,,,,,0,0,0,0,0,0,0,0,0,0,0,0,0,0,0,0,,,,,,,,,,,,,
398202,1745478670275,0.0,131,,-0.34,-0.08,0.9,-15,0,-0,0.96,1.36,71,3826,0.0,1.88,,10.61,1.251,86.2,,27.9,5,12,0,11,12,0.0,35.0,0.0,0.0,2.27,,,0,0,0,0,0,0,0,0,0,0,0,0,0,0,0,0,,1,,,,0.0,38.993977,-76.939613,18.75,30.3,29,3,0.8
398222,1745478670297,,,,,,,,,,,,,,,,,,,,,,,,,,,,,,,,,,0,0,0,0,0,0,0,0,0,0,0,0,0,0,0,0,,,,,,,,,,,,,
398242,1745478670317,0.0,131,,-0.34,-0.08,0.93,-15,0,-0,0.99,1.36,73,3737,0.0,1.91,,10.77,1.253,86.2,,26.7,5,,,,,,,,,,,,0,0,0,0,0,0,0,0,0,0,0,0,0,0,0,0,,,,,,0.0,,,,,,,
398262,1745478670337,,,,,,,,,,,,,,,,,,,,,,,,,,,,,,,,,,0,0,0,0,0,0,0,0,0,0,0,0,0,0,0,0,,,,,,,,,,,,,
398282,1745478670357,0.0,131,,-0.35,-0.02,0.91,-14,0,-0,0.97,1.36,71,3663,0.0,2.13,,10.89,1.254,86.2,,26.7,5,,,,,,,,,,,,0,0,0,0,0,0,0,0,0,0,0,0,0,0,0,0,,,,,,0.0,,,,,,,
398302,1745478670377,,,,,,,,,,,,,,,,,,,,,,,11,0,11,11,0.0,49.0,0.0,0.0,2.27,,,0,0,0,0,0,0,0,0,0,0,0,0,0,0,0,0,,1,,,,,38.993973,-76.939613,18.01,30.3,29,3,0.8
398322,1745478670398,0.0,131,,-0.34,-0.06,0.94,-14,0,-1,1.0,1.36,74,3584,0.0,2.36,,11.05,1.254,86.2,,26.7,5,,,,,,,,,,,,0,0,0,0,0,0,0,0,0,0,0,0,0,0,0,0,,,,,,0.0,,,,,,,
398402,1745478670478,0.0,131,13.41,-0.31,0.06,0.96,-12,-0,-0,1.01,1.36,74,3507,0.0,2.53,15,11.18,1.252,86.2,171,25.6,5,10,0,10,11,0.0,238.0,0.0,0.0,2.27,0,1.0,0,0,0,0,0,0,0,0,0,0,0,0,0,0,0,0,0,1,1.0,0,-0,0.0,38.993969,-76.939613,17.57,30.3,29,3,0.8
398502,1745478670572,,,,,,,,,,,,,,,,,,,,,,,10,0,10,11,0.0,55.0,0.0,0.0,2.27,,,0,0,0,0,0,0,0,0,0,0,0,0,0,0,0,0,,1,,,,,38.993965,-76.939613,16.87,30.3,29,3,0.8
398722,1745478670792,0.0,132,,-0.29,-0.02,1.01,-11,-0,-0,1.05,1.36,77,3220,0.0,2.61,,11.89,1.253,86.2,,23.2,5,,,,,,,,,,,,0,0,0,0,0,0,0,0,0,0,0,0,0,0,0,0,,,,,,0.0,,,,,,,
398742,1745478670812,,,,,,,,,,,,,,,,,,,,,,,,,,,,,,,,,,0,0,0,0,0,0,0,0,0,0,0,0,0,0,0,0,,,,,,,,,,,,,
398762,1745478670832,0.0,132,,-0.27,0.02,0.93,-9,-0,-1,0.97,1.36,71,3161,0.0,2.62,,11.89,1.253,86.2,,23.2,5,,,,,,,,,,,,0,0,0,0,0,0,0,0,0,0,0,0,0,0,0,0,,,,,,0.0,,,,,,,
398902,1745478670978,,,,,,,,,,,,,,,,,,,,,,,9,0,9,9,0.0,59.0,0.0,0.0,2.27,,,0,0,0,0,0,0,0,0,0,0,0,0,0,0,0,0,,1,,,,,38.99395,-76.939613,14.99,30.2,29,3,0.8
398922,1745478670998,0.0,132,,-0.14,0.1,1.04,-6,-0,1,1.05,1.05,100,3049,0.0,2.64,,12.17,1.251,86.2,,21.8,5,,,,,,,,,,,,0,0,0,0,0,0,0,0,0,0,0,0,0,0,0,0,,,,,,0.0,,,,,,,
398942,1745478671008,,,,,,,,,,,,,,,,,,,,,,,,,,,,,,,,,,0,0,0,0,0,0,0,0,0,0,0,0,0,0,0,0,,,,,,,,,,,,,
398962,1745478671028,0.0,132,,-0.11,0.12,1.06,-7,-0,1,1.07,1.07,100,2977,0.0,2.66,,12.17,1.251,86.2,,21.9,5,,,,,,,,,,,,0,0,0,0,0,0,0,0,0,0,0,0,0,0,0,0,,,,,,0.0,,,,,,,
398982,1745478671048,,,,,,,,,,,,,,,,,,,,,,,,,,,,,,,,,,0,0,0,0,0,0,0,0,0,0,0,0,0,0,0,0,,,,,,,,,,,,,
399002,1745478671068,0.0,131,,-0.09,0.14,1.08,-7,-0,1,1.1,1.1,100,2977,0.0,2.66,,12.25,1.251,86.2,,21.9,5,9,0,9,9,0.0,23.0,0.0,0.0,2.27,,,0,0,0,0,0,0,0,0,0,0,0,0,0,0,0,0,,1,,,,0.0,38.993942,-76.939613,14.53,30.2,29,3,0.8
399022,1745478671094,,,,,,,,,,,,,,,,,,,,,,,,,,,,,,,,,,0,0,0,0,0,0,0,0,0,0,0,0,0,0,0,0,,,,,,,,,,,,,
399042,1745478671114,0.0,131,,-0.09,0.15,1.06,-5,-0,1,1.07,1.1,98,2914,0.0,2.69,,12.32,1.251,86.2,,20.8,5,,,,,,,,,,,,0,0,0,0,0,0,0,0,0,0,0,0,0,0,0,0,,,,,,0.0,,,,,,,
399062,1745478671134,,,,,,,,,,,,,,,,,,,,,,,,,,,,,,,,,,0,0,0,0,0,0,0,0,0,0,0,0,0,0,0,0,,,,,,,,,,,,,
399082,1745478671154,0.0,132,,-0.1,0.12,1.0,-4,-0,0,1.01,1.1,93,2909,0.0,2.75,,12.36,1.251,86.2,,20.8,5,,,,,,,,,,,,0,0,0,0,0,0,0,0,0,0,0,0,0,0,0,0,,,,,,0.0,,,,,,,
399102,1745478671174,,,,,,,,,,,,,,,,,,,,,,,9,0,9,9,0.0,0.0,0.0,0.0,2.27,,,0,0,0,0,0,0,0,0,0,0,0,0,0,0,0,0,,1,,,,,38.993938,-76.939613,14.03,30.2,29,3,0.8
399122,1745478671196,0.0,131,,-0.14,0.09,1.01,-4,-0,0,1.02,1.1,93,2854,0.0,2.74,,12.44,1.252,86.2,,20.8,5,,,,,,,,,,,,0,0,0,0,0,0,0,0,0,0,0,0,0,0,0,0,,,,,,0.0,,,,,,,
399142,1745478671216,,,,,,,,,,,,,,,,,,,,,,,,,,,,,,,,,,0,0,0,0,0,0,0,0,0,0,0,0,0,0,0,0,,,,,,,,,,,,,
399162,1745478671236,0.0,131,,-0.15,0.07,1.03,-4,-0,0,1.04,1.1,95,2764,0.0,2.77,,12.44,1.252,86.2,,20.5,5,,,,,,,,,,,,0,0,0,0,0,0,0,0,0,0,0,0,0,0,0,0,,,,,,0.0,,,,,,,
399182,1745478671256,,,,,,,,,,,,,,,,,,,,,,,,,,,,,,,,,,0,0,0,0,0,0,0,0,0,0,0,0,0,0,0,0,,,,,,,,,,,,,
399202,1745478671276,0.0,132,,-0.14,0.09,1.0,-4,-0,0,1.02,1.1,93,2764,0.0,2.77,,12.51,1.251,86.2,,20.5,5,9,0,8,8,0.0,32.0,0.0,0.0,2.27,,,0,0,0,0,0,0,0,0,0,0,0,0,0,0,0,0,,1,,,,0.0,38.993935,-76.939613,13.68,30.2,29,3,0.8
399222,1745478671298,,,,,,,,,,,,,,,,,,,,,,,,,,,,,,,,,,0,0,0,0,0,0,0,0,0,0,0,0,0,0,0,0,,,,,,,,,,,,,
399242,1745478671318,0.0,131,,-0.14,0.09,0.98,-3,-0,0,0.99,1.1,90,2787,0.0,2.79,,12.57,1.253,86.2,,19.9,5,,,,,,,,,,,,0,0,0,0,0,0,0,0,0,0,0,0,0,0,0,0,,,,,,0.0,,,,,,,
399262,1745478671338,,,,,,,,,,,,,,,,,,,,,,,,,,,,,,,,,,0,0,0,0,0,0,0,0,0,0,0,0,0,0,0,0,,,,,,,,,,,,,
399282,1745478671358,0.0,132,,-0.16,0.07,1.02,-3,-0,0,1.04,1.1,95,2749,0.0,2.78,,12.64,1.254,86.2,,19.9,5,,,,,,,,,,,,0,0,0,0,0,0,0,0,0,0,0,0,0,0,0,0,,,,,,0.0,,,,,,,
399302,1745478671378,,,,,,,,,,,,,,,,,,,,,,,8,0,8,8,0.0,33.0,0.0,0.0,2.26,,,0,0,0,0,0,0,0,0,0,0,0,0,0,0,0,0,,1,,,,,38.993935,-76.939613,13.56,30.2,29,3,0.8
399322,1745478671397,0.0,132,,-0.15,0.09,1.01,-2,-0,0,1.03,1.1,94,2774,0.0,2.86,,12.69,1.254,86.2,,19.9,5,,,,,,,,,,,,0,0,0,0,0,0,0,0,0,0,0,0,0,0,0,0,,,,,,0.0,,,,,,,
399342,1745478671417,,,,,,,,,,,,,,,,,,,,,,,,,,,,,,,,,,0,0,0,0,0,0,0,0,0,0,0,0,0,0,0,0,,,,,,,,,,,,,
399362,1745478671437,0.0,132,,-0.17,0.09,1.02,-2,-0,0,1.04,1.1,95,2655,0.0,2.86,,12.69,1.254,86.2,,19.4,5,,,,,,,,,,,,0,0,0,0,0,0,0,0,0,0,0,0,0,0,0,0,,,,,,0.0,,,,,,,
399382,1745478671457,,,,,,,,,,,,,,,,,,,,,,,,,,,,,,,,,,0,0,0,0,0,0,0,0,0,0,0,0,0,0,0,0,,,,,,,,,,,,,
399402,1745478671477,0.0,132,13.43,-0.15,0.09,1.0,-2,0,0,1.02,1.1,93,2655,0.0,2.86,15,12.77,1.252,86.2,171,19.4,5,8,0,8,8,0.0,25.0,0.0,0.0,2.26,0,1.0,0,0,0,0,0,0,0,0,0,0,0,0,0,0,0,0,0,1,1.0,0,-0,0.0,38.993931,-76.939613,12.84,30.2,29,3,0.8
399422,1745478671493,,,,,,,,,,,,,,,,,,,,,,,,,,,,,,,,,,0,0,0,0,0,0,0,0,0,0,0,0,0,0,0,0,,,,,,,,,,,,,
399442,1745478671513,0.0,132,,-0.17,0.08,1.01,-2,0,0,1.03,1.1,94,2696,0.0,2.92,,12.79,1.251,86.2,,19.5,5,,,,,,,,,,,,0,0,0,0,0,0,0,0,0,0,0,0,0,0,0,0,,,,,,0.0,,,,,,,
399462,1745478671533,,,,,,,,,,,,,,,,,,,,,,,,,,,,,,,,,,0,0,0,0,0,0,0,0,0,0,0,0,0,0,0,0,,,,,,,,,,,,,
399482,1745478671553,0.0,131,,-0.16,0.11,1.0,-2,0,0,1.02,1.1,93,2653,0.0,2.89,,12.85,1.251,86.2,,19.5,5,,,,,,,,,,,,0,0,0,0,0,0,0,0,0,0,0,0,0,0,0,0,,,,,,0.0,,,,,,,
399502,1745478671573,,,,,,,,,,,,,,,,,,,,,,,8,0,8,8,0.0,17.0,0.0,0.0,2.27,,,0,0,0,0,0,0,0,0,0,0,0,0,0,0,0,0,,1,,,,,38.993927,-76.939613,12.75,30.2,29,3,0.8
399522,1745478671593,0.0,131,,-0.16,0.11,1.01,-1,0,0,1.03,1.1,94,2624,0.0,2.92,,12.88,1.251,86.2,,19.5,5,,,,,,,,,,,,0,0,0,0,0,0,0,0,0,0,0,0,0,0,0,0,,,,,,0.0,,,,,,,
399542,1745478671613,,,,,,,,,,,,,,,,,,,,,,,,,,,,,,,,,,0,0,0,0,0,0,0,0,0,0,0,0,0,0,0,0,,,,,,,,,,,,,
399562,1745478671633,0.0,131,,-0.17,0.11,1.0,-1,0,0,1.02,1.1,93,2503,0.0,2.97,,12.88,1.251,86.2,,18.8,5,,,,,,,,,,,,0,0,0,0,0,0,0,0,0,0,0,0,0,0,0,0,,,,,,0.0,,,,,,,
399582,1745478671653,,,,,,,,,,,,,,,,,,,,,,,,,,,,,,,,,,0,0,0,0,0,0,0,0,0,0,0,0,0,0,0,0,,,,,,,,,,,,,
399602,1745478671673,0.0,132,,-0.18,0.1,1.02,-1,0,0,1.04,1.1,95,2503,0.0,2.97,,12.97,1.252,86.2,,18.8,5,8,0,7,8,0.0,45.0,0.0,0.0,2.27,,,0,0,0,0,0,0,0,0,0,0,0,0,0,0,0,0,,0,,,,0.0,38.993923,-76.939613,12.21,30.1,29,3,0.8
399622,1745478671691,,,,,,,,,,,,,,,,,,,,,,,,,,,,,,,,,,0,0,0,0,0,0,0,0,0,0,0,0,0,0,0,0,,,,,,,,,,,,,
399642,1745478671711,0.0,132,,-0.17,0.09,1.0,-1,0,0,1.02,1.1,93,2546,0.0,2.93,,13.01,1.251,86.2,,18.3,5,,,,,,,,,,,,0,0,0,0,0,0,0,0,0,0,0,0,0,0,0,0,,,,,,0.0,,,,,,,
399662,1745478671731,,,,,,,,,,,,,,,,,,,,,,,,,,,,,,,,,,0,0,0,0,0,0,0,0,0,0,0,0,0,0,0,0,,,,,,,,,,,,,
399682,1745478671751,0.0,132,,-0.17,0.07,0.99,-1,0,0,1.0,1.1,91,2433,0.0,2.97,,13.12,1.251,86.2,,18.3,5,,,,,,,,,,,,0,0,0,0,0,0,0,0,0,0,0,0,0,0,0,0,,,,,,0.0,,,,,,,
399702,1745478671771,,,,,,,,,,,,,,,,,,,,,,,7,0,8,7,0.0,221.0,0.0,0.0,2.27,,,0,0,0,0,0,0,0,0,0,0,0,0,0,0,0,0,,1,,,,,38.993919,-76.939613,12.11,30.1,29,3,0.8
399722,1745478671793,0.0,132,,-0.15,0.07,1.02,-1,0,0,1.03,1.1,94,2469,0.0,2.97,,13.15,1.253,86.2,,18.3,5,,,,,,,,,,,,0,0,0,0,0,0,0,0,0,0,0,0,0,0,0,0,,,,,,0.0,,,,,,,
399742,1745478671813,,,,,,,,,,,,,,,,,,,,,,,,,,,,,,,,,,0,0,0,0,0,0,0,0,0,0,0,0,0,0,0,0,,,,,,,,,,,,,
399762,1745478671833,0.0,132,,-0.16,0.07,1.01,-1,1,0,1.03,1.1,94,2403,0.0,3.0,,13.15,1.253,86.2,,18.2,5,,,,,,,,,,,,0,0,0,0,0,0,0,0,0,0,0,0,0,0,0,0,,,,,,0.0,,,,,,,
399782,1745478671853,,,,,,,,,,,,,,,,,,,,,,,,,,,,,,,,,,0,0,0,0,0,0,0,0,0,0,0,0,0,0,0,0,,,,,,,,,,,,,
399802,1745478671873,0.0,132,,-0.16,0.07,1.02,-0,1,0,1.03,1.1,94,2403,0.0,3.0,,13.21,1.254,86.2,,18.2,5,7,0,7,7,0.0,0.0,0.0,0.0,2.27,,,0,0,0,0,0,0,0,0,0,0,0,0,0,0,0,0,,1,,,,0.0,38.993916,-76.939613,11.81,30.1,29,3,0.8
399822,1745478671897,,,,,,,,,,,,,,,,,,,,,,,,,,,,,,,,,,0,0,0,0,0,0,0,0,0,0,0,0,0,0,0,0,,,,,,,,,,,,,
399842,1745478671917,0.0,131,,-0.16,0.02,1.02,-0,1,-0,1.03,1.1,94,2383,0.0,3.03,,13.27,1.254,86.2,,17.6,5,,,,,,,,,,,,0,0,0,0,0,0,0,0,0,0,0,0,0,0,0,0,,,,,,0.0,,,,,,,
399862,1745478671937,,,,,,,,,,,,,,,,,,,,,,,,,,,,,,,,,,0,0,0,0,0,0,0,0,0,0,0,0,0,0,0,0,,,,,,,,,,,,,
399882,1745478671957,0.0,132,,-0.17,0.05,1.01,-0,0,0,1.02,1.1,93,2349,0.0,3.04,,13.32,1.253,86.2,,17.6,5,,,,,,,,,,,,0,0,0,0,0,0,0,0,0,0,0,0,0,0,0,0,,,,,,0.0,,,,,,,
399902,1745478671977,,,,,,,,,,,,,,,,,,,,,,,7,0,7,7,0.0,9.0,0.0,0.0,2.26,,,0,0,0,0,0,0,0,0,0,0,0,0,0,0,0,0,,1,,,,,38.993916,-76.939613,11.51,30.1,29,3,0.8
399922,1745478671997,0.0,132,,-0.16,0.02,1.03,-1,0,0,1.04,1.1,95,2379,0.0,3.04,,13.33,1.251,86.2,,17.6,5,,,,,,,,,,,,0,0,0,0,0,0,0,0,0,0,0,0,0,0,0,0,,,,,,0.0,,,,,,,
399942,1745478672010,,,,,,,,,,,,,,,,,,,,,,,,,,,,,,,,,,0,0,0,0,0,0,0,0,0,0,0,0,0,0,0,0,,,,,,,,,,,,,
399962,1745478672030,0.0,132,,-0.17,0.03,1.03,-0,0,0,1.05,1.1,96,2261,0.0,3.08,,13.33,1.251,86.2,,17.5,5,,,,,,,,,,,,0,0,0,0,0,0,0,0,0,0,0,0,0,0,0,0,,,,,,0.0,,,,,,,
399982,1745478672050,,,,,,,,,,,,,,,,,,,,,,,,,,,,,,,,,,0,0,0,0,0,0,0,0,0,0,0,0,0,0,0,0,,,,,,,,,,,,,
400002,1745478672070,0.0,132,,-0.15,0.01,1.03,-0,1,0,1.04,1.1,95,2261,0.0,3.08,,13.49,1.251,86.2,,17.5,5,7,0,7,7,0.0,0.0,0.0,0.0,2.26,,,0,0,0,0,0,0,0,0,0,0,0,0,0,0,0,0,,1,,,,0.0,38.993912,-76.939613,11.22,30.1,28,3,0.9
400022,1745478672093,,,,,,,,,,,,,,,,,,,,,,,,,,,,,,,,,,0,0,0,0,0,0,0,0,0,0,0,0,0,0,0,0,,,,,,,,,,,,,
