"Interval"|"ms"|0|0|1,"Utc"|"ms"|0|0|1,"FrontBP"|"psi"|-5.0|5.0|25,"SteerAng"|"Degrees"|-145|145|25,"Battery"|"Volts"|-5.0|20.0|1,"AccelX"|"G"|-3.0|3.0|25,"AccelY"|"G"|-3.0|3.0|25,"AccelZ"|"G"|-3.0|3.0|25,"Yaw"|"Deg/Sec"|-120|120|25,"Pitch"|"Deg/Sec"|-120|120|25,"Roll"|"Deg/Sec"|-120|120|25,"Gsum"|"G"|0.0|3.0|25,"GsumMax"|"G"|0.0|3.0|25,"GsumPct"|"%"|0|100|25,"RPM"|""|0|10000|25,"TPS"|"%"|0.0|100.0|25,"InjectorPW"|"ms"|0.0|100.0|25,"Baro"|"kPa"|0|105|1,"MAP"|"Psi"|0.0|255.0|25,"Lambda"|""|-2.0|2.0|25,"IAT"|"C"|0.0|200.0|25,"EngineTemp"|"C"|0|200|1,"EOP"|"PSI"|0.0|152.0|25,"EOT"|"F"|0|250|25,"WSFR"|"MPH"|0|150|10,"WSFL"|"MPH"|0|100|10,"WSRR"|"MPH"|0|100|10,"WSRL"|""|0|100|10,"TCSet"|"%"|0.0|100.0|10,"TCSlip"|"%"|0.0|100.0|10,"TCComp"|"deg"|0.0|50.0|10,"TCCut"|"%"|0.0|100.0|10,"Analog8"|""|0.0|5.0|10,"OilTemp"|"F"|0|300|1,"AA_On"|""|0.0|1.0|1,"ThermLF1"|"C"|0|400|50,"ThermLF2"|"C"|0|400|50,"ThermRR1"|"C"|0|400|50,"ThermRR2"|"C"|0|400|50,"ThermLF3"|"C"|0|400|50,"ThermLF4"|"C"|0|400|50,"ThermLF5"|"C"|0|400|50,"ThermLF6"|"C"|0|400|50,"ThermLF7"|"C"|0|400|50,"ThermLF8"|"C"|0|400|50,"ThermRR3"|"C"|0|400|50,"ThermRR4"|"C"|0|400|50,"ThermRR5"|"C"|0|400|50,"ThermRR6"|"C"|0|400|50,"ThermRR7"|"C"|0|400|50,"ThermRR8"|"C"|0|400|50,"AA_LowDrag"|""|0|1|1,"Gear"|""|1|6|10,"AA_On"|""|0.0|1.0|1,"AA_LowDrag"|""|0|1|1,"Fuel_Mix"|""|-10|10|1,"AA_Packages"|""|0.0|1000.0|25,"Latitude"|"Degrees"|-180.0|180.0|10,"Longitude"|"Degrees"|-180.0|180.0|10,"Speed"|"kph"|0.0|150.0|10,"Altitude"|"m"|0.0|4000.0|10,"GPSSats"|""|0|20|10,"GPSQual"|""|0|5|10,"GPSDOP"|""|0.0|20.0|10
738204,1745469335169,,,,,,,,,,,,,,,,,,,,,,,,,,,,,,,,,,0,0,0,0,0,0,0,0,0,0,0,0,0,0,0,0,,,,,,,,,,,,,
738224,1745469335189,0.0,13,,0.01,0.5,1.0,0,-0,1,1.12,1.12,100,10155,14.5,2.96,,8.98,0.77,91.6,,61.2,5,,,,,,,,,,,,0,0,0,0,0,0,0,0,0,0,0,0,0,0,0,0,,,,,,0.0,,,,,,,
738244,1745469335203,,,,,,,,,,,,,,,,,,,,,,,,,,,,,,,,,,0,0,0,0,0,0,0,0,0,0,0,0,0,0,0,0,,,,,,,,,,,,,
738264,1745469335223,0.0,7,,0.03,0.58,0.95,0,-0,1,1.11,1.12,99,10683,14.6,2.79,,8.53,0.811,91.6,,61.2,5,,,,,,,,,,,,0,0,0,0,0,0,0,0,0,0,0,0,0,0,0,0,,,,,,0.0,,,,,,,
738284,1745469335243,,,,,,,,,,,,,,,,,,,,,,,0,0,0,0,0.0,0.0,0.0,0.0,2.27,,,0,0,0,0,0,0,0,0,0,0,0,0,0,0,0,0,,0,,,,,38.990864,-76.94059,0.18,32.6,22,2,1.1
738304,1745469335263,0.0,17,,0.08,0.43,0.95,-0,-0,1,1.05,1.12,94,10861,15.5,2.78,,8.3,0.835,91.6,,61.2,5,,,,,,,,,,,,0,0,0,0,0,0,0,0,0,0,0,0,0,0,0,0,,,,,,0.0,,,,,,,
738324,1745469335291,,,,,,,,,,,,,,,,,,,,,,,,,,,,,,,,,,0,0,0,0,0,0,0,0,0,0,0,0,0,0,0,0,,,,,,,,,,,,,
738344,1745469335311,0.0,27,,0.13,0.47,0.94,-0,0,2,1.06,1.12,95,10613,16.2,2.84,,8.3,0.835,91.6,,59.2,5,,,,,,,,,,,,0,0,0,0,0,0,0,0,0,0,0,0,0,0,0,0,,,,,,0.0,,,,,,,
738364,1745469335331,,,,,,,,,,,,,,,,,,,,,,,,,,,,,,,,,,0,0,0,0,0,0,0,0,0,0,0,0,0,0,0,0,,,,,,,,,,,,,
738384,1745469335351,0.0,30,13.72,0.14,0.56,0.93,-1,0,1,1.09,1.12,98,10613,16.2,2.84,15,8.37,0.846,91.6,169,59.2,5,0,0,0,0,0.0,0.0,0.0,0.0,2.28,0,1.0,0,0,0,0,0,0,0,0,0,0,0,0,0,0,0,0,0,0,1.0,0,-0,0.0,38.990864,-76.94059,0.47,32.6,22,2,1.1
738404,1745469335371,,,,,,,,,,,,,,,,,,,,,,,,,,,,,,,,,,0,0,0,0,0,0,0,0,0,0,0,0,0,0,0,0,,,,,,,,,,,,,
738424,1745469335391,0.0,44,,0.19,0.35,0.91,-1,0,1,0.99,1.12,89,10190,16.1,2.9,,8.49,0.859,91.6,,57.1,5,,,,,,,,,,,,0,0,0,0,0,0,0,0,0,0,0,0,0,0,0,0,,,,,,0.0,,,,,,,
738444,1745469335411,,,,,,,,,,,,,,,,,,,,,,,,,,,,,,,,,,0,0,0,0,0,0,0,0,0,0,0,0,0,0,0,0,,,,,,,,,,,,,
738464,1745469335431,0.0,27,,0.22,0.32,0.93,-2,-0,0,1.01,1.12,90,9842,16.6,2.93,,8.59,0.866,91.6,,57.1,5,,,,,,,,,,,,0,0,0,0,0,0,0,0,0,0,0,0,0,0,0,0,,,,,,0.0,,,,,,,
738484,1745469335451,,,,,,,,,,,,,,,,,,,,,,,0,1,0,0,0.0,0.0,0.0,0.0,2.27,,,0,0,0,0,0,0,0,0,0,0,0,0,0,0,0,0,,0,,,,,38.990864,-76.94059,2.09,32.6,22,2,1.1
738504,1745469335471,0.0,27,,0.2,0.18,0.97,-2,-1,0,1.01,1.12,90,9855,23.0,3.21,,9.26,0.87,91.6,,57.1,5,,,,,,,,,,,,0,0,0,0,0,0,0,0,0,0,0,0,0,0,0,0,,,,,,0.0,,,,,,,
738524,1745469335491,,,,,,,,,,,,,,,,,,,,,,,,,,,,,,,,,,0,0,0,0,0,0,0,0,0,0,0,0,0,0,0,0,,,,,,,,,,,,,
738544,1745469335511,0.0,27,,0.17,0.4,0.91,-3,-1,1,1.01,1.12,91,10290,37.7,3.63,,9.26,0.87,91.6,,58.8,5,,,,,,,,,,,,0,0,0,0,0,0,0,0,0,0,0,0,0,0,0,0,,,,,,0.0,,,,,,,
738564,1745469335531,,,,,,,,,,,,,,,,,,,,,,,,,,,,,,,,,,0,0,0,0,0,0,0,0,0,0,0,0,0,0,0,0,,,,,,,,,,,,,
738584,1745469335551,0.0,-0,,0.17,0.45,0.92,-4,-1,0,1.04,1.12,93,10290,37.7,3.63,,10.78,0.891,91.6,,58.8,5,2,2,2,3,0.0,0.0,0.0,0.0,2.27,,,0,0,0,0,0,0,0,0,0,0,0,0,0,0,0,0,,0,,,,0.0,38.990864,-76.94059,4.69,32.6,22,2,1.1
738604,1745469335571,,,,,,,,,,,,,,,,,,,,,,,,,,,,,,,,,,0,0,0,0,0,0,0,0,0,0,0,0,0,0,0,0,,,,,,,,,,,,,
738624,1745469335591,0.0,30,,0.12,0.41,0.86,-3,-1,0,0.96,1.12,86,11018,47.5,4.01,,11.99,0.968,91.6,,61.3,5,,,,,,,,,,,,0,0,0,0,0,0,0,0,0,0,0,0,0,0,0,0,,,,,,0.0,,,,,,,
738644,1745469335608,,,,,,,,,,,,,,,,,,,,,,,,,,,,,,,,,,0,0,0,0,0,0,0,0,0,0,0,0,0,0,0,0,,,,,,,,,,,,,
738664,1745469335628,0.0,17,,0.06,0.38,0.85,-2,-1,-0,0.94,1.12,84,12077,54.7,3.75,,12.45,0.975,91.6,,61.3,5,,,,,,,,,,,,0,0,0,0,0,0,0,0,0,0,0,0,0,0,0,0,,,,,,0.0,,,,,,,
738684,1745469335648,,,,,,,,,,,,,,,,,,,,,,,2,3,2,3,0.0,0.0,0.0,0.0,2.26,,,0,0,0,0,0,0,0,0,0,0,0,0,0,0,0,0,,0,,,,,38.990864,-76.940598,4.17,32.6,22,2,1.1
738704,1745469335668,0.0,34,,0.03,0.38,0.9,-2,-1,-0,0.98,1.12,88,12765,57.9,4.49,,12.52,1.001,91.6,,61.3,5,,,,,,,,,,,,0,0,0,0,0,0,0,0,0,0,0,0,0,0,0,0,,,,,,0.0,,,,,,,
738724,1745469335688,,,,,,,,,,,,,,,,,,,,,,,,,,,,,,,,,,0,0,0,0,0,0,0,0,0,0,0,0,0,0,0,0,,,,,,,,,,,,,
738744,1745469335710,0.0,37,,0.02,0.51,0.91,-4,-1,1,1.04,1.12,93,13786,58.1,4.16,,12.52,1.001,91.6,,62.9,5,,,,,,,,,,,,0,0,0,0,0,0,0,0,0,0,0,0,0,0,0,0,,,,,,0.0,,,,,,,
738764,1745469335730,,,,,,,,,,,,,,,,,,,,,,,,,,,,,,,,,,0,0,0,0,0,0,0,0,0,0,0,0,0,0,0,0,,,,,,,,,,,,,
738784,1745469335750,0.0,24,,0.03,0.39,1.0,-1,-1,1,1.07,1.12,96,13786,58.1,4.16,,12.33,0.989,91.6,,62.9,5,3,3,3,3,0.0,0.0,0.0,0.0,2.27,,,0,0,0,0,0,0,0,0,0,0,0,0,0,0,0,0,,0,,,,0.0,38.990864,-76.940598,4.24,32.6,22,2,1.1
738804,1745469335770,,,,,,,,,,,,,,,,,,,,,,,,,,,,,,,,,,0,0,0,0,0,0,0,0,0,0,0,0,0,0,0,0,,,,,,,,,,,,,
738824,1745469335790,0.0,30,,0.02,0.39,1.0,-4,-1,1,1.08,1.12,96,13353,58.5,4.26,,12.69,0.947,91.6,,71.2,5,,,,,,,,,,,,0,0,0,0,0,0,0,0,0,0,0,0,0,0,0,0,,,,,,0.0,,,,,,,
738844,1745469335809,,,,,,,,,,,,,,,,,,,,,,,,,,,,,,,,,,0,0,0,0,0,0,0,0,0,0,0,0,0,0,0,0,,,,,,,,,,,,,
738864,1745469335829,0.0,30,,0.02,0.31,0.97,-5,-0,2,1.01,1.12,91,13412,58.3,4.29,,12.51,1.24,91.6,,71.2,5,,,,,,,,,,,,0,0,0,0,0,0,0,0,0,0,0,0,0,0,0,0,,,,,,0.0,,,,,,,
738884,1745469335849,,,,,,,,,,,,,,,,,,,,,,,3,3,2,3,0.0,0.0,0.0,0.0,2.27,,,0,0,0,0,0,0,0,0,0,0,0,0,0,0,0,0,,0,,,,,38.990864,-76.940598,4.03,32.6,22,2,1.1
738904,1745469335869,0.0,34,,0.1,0.31,0.99,-5,0,3,1.04,1.12,93,13837,56.7,4.06,,12.53,1.227,91.6,,71.2,5,,,,,,,,,,,,0,0,0,0,0,0,0,0,0,0,0,0,0,0,0,0,,,,,,0.0,,,,,,,
738924,1745469335889,,,,,,,,,,,,,,,,,,,,,,,,,,,,,,,,,,0,0,0,0,0,0,0,0,0,0,0,0,0,0,0,0,,,,,,,,,,,,,
738944,1745469335910,0.0,37,,0.1,0.26,0.93,-5,0,2,0.97,1.12,87,12322,44.0,4.47,,12.53,1.227,91.6,,69.6,5,,,,,,,,,,,,0,0,0,0,0,0,0,0,0,0,0,0,0,0,0,0,,,,,,0.0,,,,,,,
738964,1745469335930,,,,,,,,,,,,,,,,,,,,,,,,,,,,,,,,,,0,0,0,0,0,0,0,0,0,0,0,0,0,0,0,0,,,,,,,,,,,,,
738984,1745469335950,0.0,34,,0.15,0.36,0.9,-5,0,3,0.98,1.12,88,12322,44.0,4.47,,11.95,1.074,89.8,,69.6,5,3,3,6,4,0.0,0.0,0.0,0.0,2.27,,,0,0,0,0,0,0,0,0,0,0,0,0,0,0,0,0,,0,,,,0.0,38.990864,-76.940598,4.26,32.6,22,2,1.1
739004,1745469335970,,,,,,,,,,,,,,,,,,,,,,,,,,,,,,,,,,0,0,0,0,0,0,0,0,0,0,0,0,0,0,0,0,,,,,,,,,,,,,
739024,1745469335990,0.0,51,,0.12,0.35,0.86,-5,0,3,0.94,1.12,84,11971,36.1,3.91,,11.45,1.25,89.8,,63.0,5,,,,,,,,,,,,0,0,0,0,0,0,0,0,0,0,0,0,0,0,0,0,,,,,,0.0,,,,,,,
739044,1745469335998,,,,,,,,,,,,,,,,,,,,,,,,,,,,,,,,,,0,0,0,0,0,0,0,0,0,0,0,0,0,0,0,0,,,,,,,,,,,,,
739064,1745469336018,0.0,51,,0.13,0.43,0.91,-4,0,3,1.01,1.12,91,11544,34.9,3.85,,11.25,1.045,89.8,,63.0,5,,,,,,,,,,,,0,0,0,0,0,0,0,0,0,0,0,0,0,0,0,0,,,,,,0.0,,,,,,,
739084,1745469336038,,,,,,,,,,,,,,,,,,,,,,,4,4,22,22,0.0,0.0,0.0,0.0,2.27,,,0,0,0,0,0,0,0,0,0,0,0,0,0,0,0,0,,0,,,,,38.990868,-76.940598,5.32,32.6,22,2,1.1
739104,1745469336058,0.0,51,,0.15,0.32,0.89,-6,0,3,0.96,1.12,85,11174,35.1,3.86,,11.33,0.982,89.8,,63.0,5,,,,,,,,,,,,0,0,0,0,0,0,0,0,0,0,0,0,0,0,0,0,,,,,,0.0,,,,,,,
739124,1745469336078,,,,,,,,,,,,,,,,,,,,,,,,,,,,,,,,,,0,0,0,0,0,0,0,0,0,0,0,0,0,0,0,0,,,,,,,,,,,,,
739144,1745469336108,0.0,61,,0.17,0.18,0.94,-8,-0,3,0.98,1.12,87,10956,35.2,3.91,,11.21,0.989,89.8,,60.7,5,,,,,,,,,,,,0,0,0,0,0,0,0,0,0,0,0,0,0,0,0,0,,,,,,0.0,,,,,,,
739164,1745469336128,,,,,,,,,,,,,,,,,,,,,,,,,,,,,,,,,,0,0,0,0,0,0,0,0,0,0,0,0,0,0,0,0,,,,,,,,,,,,,
739184,1745469336148,0.0,51,,0.18,0.15,0.93,-10,-0,3,0.96,1.12,86,11037,36.1,3.85,,11.21,0.989,89.8,,60.7,5,5,6,33,34,0.0,0.0,0.0,0.0,2.26,,,0,0,0,0,0,0,0,0,0,0,0,0,0,0,0,0,,0,,,,0.0,38.990868,-76.940605,7.37,32.6,22,2,1.1
739204,1745469336168,,,,,,,,,,,,,,,,,,,,,,,,,,,,,,,,,,0,0,0,0,0,0,0,0,0,0,0,0,0,0,0,0,,,,,,,,,,,,,
739224,1745469336188,0.0,54,,0.2,0.01,0.96,-13,-0,2,0.98,1.12,88,11037,36.1,3.85,,11.13,1.023,89.8,,60.9,5,,,,,,,,,,,,0,0,0,0,0,0,0,0,0,0,0,0,0,0,0,0,,,,,,0.0,,,,,,,
739244,1745469336206,,,,,,,,,,,,,,,,,,,,,,,,,,,,,,,,,,0,0,0,0,0,0,0,0,0,0,0,0,0,0,0,0,,,,,,,,,,,,,
739264,1745469336226,0.0,51,,0.23,0.1,1.03,-15,0,3,1.06,1.12,95,11070,38.1,4.16,,11.44,1.023,89.8,,60.9,5,,,,,,,,,,,,0,0,0,0,0,0,0,0,0,0,0,0,0,0,0,0,,,,,,0.0,,,,,,,
739284,1745469336246,,,,,,,,,,,,,,,,,,,,,,,6,7,35,33,0.0,33.0,0.0,0.0,2.27,,,0,0,0,0,0,0,0,0,0,0,0,0,0,0,0,0,,1,,,,,38.990868,-76.940605,10.08,32.6,22,2,1.1
739304,1745469336266,0.0,54,,0.24,-0.05,1.0,-17,0,2,1.03,1.12,92,11199,40.5,4.4,,11.79,1.021,89.8,,60.9,5,,,,,,,,,,,,0,0,0,0,0,0,0,0,0,0,0,0,0,0,0,0,,,,,,0.0,,,,,,,
739324,1745469336291,,,,,,,,,,,,,,,,,,,,,,,,,,,,,,,,,,0,0,0,0,0,0,0,0,0,0,0,0,0,0,0,0,,,,,,,,,,,,,
739344,1745469336311,0.0,64,,0.22,0.01,1.01,-19,0,2,1.03,1.12,92,11326,42.5,4.37,,12.09,0.976,89.8,,60.8,5,,,,,,,,,,,,0,0,0,0,0,0,0,0,0,0,0,0,0,0,0,0,,,,,,0.0,,,,,,,
739364,1745469336331,,,,,,,,,,,,,,,,,,,,,,,,,,,,,,,,,,0,0,0,0,0,0,0,0,0,0,0,0,0,0,0,0,,,,,,,,,,,,,
739384,1745469336351,0.0,57,13.71,0.24,-0.09,1.01,-24,0,2,1.04,1.12,93,11326,42.5,4.37,15,12.09,0.976,89.8,171,60.8,5,7,4,35,34,0.0,68.0,0.0,0.0,2.27,0,1.0,0,0,0,0,0,0,0,0,0,0,0,0,0,0,0,0,0,1,1.0,0,-0,0.0,38.990868,-76.940605,11.37,32.6,22,2,1.1
739404,1745469336371,,,,,,,,,,,,,,,,,,,,,,,,,,,,,,,,,,0,0,0,0,0,0,0,0,0,0,0,0,0,0,0,0,,,,,,,,,,,,,
739424,1745469336391,0.0,71,,0.24,-0.17,1.1,-28,0,3,1.14,1.14,100,11467,43.1,4.43,,12.09,0.934,89.8,,61.8,5,,,,,,,,,,,,0,0,0,0,0,0,0,0,0,0,0,0,0,0,0,0,,,,,,0.0,,,,,,,
739444,1745469336409,,,,,,,,,,,,,,,,,,,,,,,,,,,,,,,,,,0,0,0,0,0,0,0,0,0,0,0,0,0,0,0,0,,,,,,,,,,,,,
739464,1745469336429,0.0,61,,0.27,-0.05,1.09,-31,1,3,1.13,1.14,99,11580,43.5,4.47,,12.21,0.918,89.8,,61.8,5,,,,,,,,,,,,0,0,0,0,0,0,0,0,0,0,0,0,0,0,0,0,,,,,,0.0,,,,,,,
739484,1745469336449,,,,,,,,,,,,,,,,,,,,,,,8,11,36,34,0.0,172.0,0.0,0.0,2.27,,,0,0,0,0,0,0,0,0,0,0,0,0,0,0,0,0,,1,,,,,38.990868,-76.940605,13.75,32.6,22,2,1.1
739504,1745469336469,0.0,74,,0.33,-0.32,1.02,-36,0,1,1.12,1.14,99,11670,43.5,4.53,,12.19,0.898,89.8,,61.8,5,,,,,,,,,,,,0,0,0,0,0,0,0,0,0,0,0,0,0,0,0,0,,,,,,0.0,,,,,,,
739524,1745469336489,,,,,,,,,,,,,,,,,,,,,,,,,,,,,,,,,,0,0,0,0,0,0,0,0,0,0,0,0,0,0,0,0,,,,,,,,,,,,,
739544,1745469336510,0.0,57,,0.4,-0.4,1.04,-40,0,0,1.18,1.18,100,11767,43.2,4.58,,12.19,0.898,89.8,,63.5,5,,,,,,,,,,,,0,0,0,0,0,0,0,0,0,0,0,0,0,0,0,0,,,,,,0.0,,,,,,,
739564,1745469336530,,,,,,,,,,,,,,,,,,,,,,,,,,,,,,,,,,0,0,0,0,0,0,0,0,0,0,0,0,0,0,0,0,,,,,,,,,,,,,
739584,1745469336550,0.0,41,,0.4,-0.37,0.98,-42,0,-0,1.12,1.18,95,11767,43.2,4.58,,12.07,0.88,89.8,,63.5,5,9,12,35,34,0.0,126.0,0.0,0.0,2.27,,,0,0,0,0,0,0,0,0,0,0,0,0,0,0,0,0,,0,,,,0.0,38.990871,-76.940613,15.69,32.6,22,2,1.1
739604,1745469336570,,,,,,,,,,,,,,,,,,,,,,,,,,,,,,,,,,0,0,0,0,0,0,0,0,0,0,0,0,0,0,0,0,,,,,,,,,,,,,
739624,1745469336590,0.0,37,,0.41,-0.43,0.92,-41,1,-1,1.09,1.18,93,11835,32.7,3.82,,11.29,0.866,89.8,,65.7,5,,,,,,,,,,,,0,0,0,0,0,0,0,0,0,0,0,0,0,0,0,0,,,,,,0.0,,,,,,,
739644,1745469336609,,,,,,,,,,,,,,,,,,,,,,,,,,,,,,,,,,0,0,0,0,0,0,0,0,0,0,0,0,0,0,0,0,,,,,,,,,,,,,
739664,1745469336629,0.0,24,,0.41,-0.23,0.95,-42,1,-0,1.06,1.18,90,11676,23.3,3.77,,10.24,0.849,89.8,,65.7,5,,,,,,,,,,,,0,0,0,0,0,0,0,0,0,0,0,0,0,0,0,0,,,,,,0.0,,,,,,,
739684,1745469336649,,,,,,,,,,,,,,,,,,,,,,,10,9,34,37,0.0,213.0,0.0,0.0,2.26,,,0,0,0,0,0,0,0,0,0,0,0,0,0,0,0,0,,0,,,,,38.990871,-76.94062,18.13,32.6,22,2,1.1
739704,1745469336669,0.0,27,,0.42,-0.35,0.95,-43,1,-0,1.1,1.18,93,11401,21.0,3.33,,9.52,0.821,89.8,,65.7,5,,,,,,,,,,,,0,0,0,0,0,0,0,0,0,0,0,0,0,0,0,0,,,,,,0.0,,,,,,,
739724,1745469336689,,,,,,,,,,,,,,,,,,,,,,,,,,,,,,,,,,0,0,0,0,0,0,0,0,0,0,0,0,0,0,0,0,,,,,,,,,,,,,
739744,1745469336709,0.0,57,,0.42,-0.31,0.97,-43,1,1,1.11,1.18,94,10983,13.9,2.89,,8.78,0.803,89.8,,63.6,5,,,,,,,,,,,,0,0,0,0,0,0,0,0,0,0,0,0,0,0,0,0,,,,,,0.0,,,,,,,
739764,1745469336729,,,,,,,,,,,,,,,,,,,,,,,,,,,,,,,,,,0,0,0,0,0,0,0,0,0,0,0,0,0,0,0,0,,,,,,,,,,,,,
739784,1745469336749,0.0,54,,0.47,-0.28,0.93,-43,1,1,1.08,1.18,92,10395,11.5,2.36,,8.78,0.803,89.8,,63.6,5,12,9,33,32,0.0,103.0,0.0,0.0,2.27,,,0,0,0,0,0,0,0,0,0,0,0,0,0,0,0,0,,1,,,,0.0,38.990875,-76.940628,20.08,32.6,22,2,1.1
739804,1745469336769,,,,,,,,,,,,,,,,,,,,,,,,,,,,,,,,,,0,0,0,0,0,0,0,0,0,0,0,0,0,0,0,0,,,,,,,,,,,,,
739824,1745469336789,0.0,71,,0.43,-0.21,0.94,-45,1,2,1.05,1.18,89,10395,11.5,2.36,,8.05,0.83,89.8,,59.4,5,,,,,,,,,,,,0,0,0,0,0,0,0,0,0,0,0,0,0,0,0,0,,,,,,0.0,,,,,,,
739844,1745469336809,,,,,,,,,,,,,,,,,,,,,,,,,,,,,,,,,,0,0,0,0,0,0,0,0,0,0,0,0,0,0,0,0,,,,,,,,,,,,,
739864,1745469336829,0.0,74,,0.45,-0.09,0.94,-47,2,2,1.05,1.18,89,9631,10.7,2.32,,7.77,0.861,89.8,,59.4,5,,,,,,,,,,,,0,0,0,0,0,0,0,0,0,0,0,0,0,0,0,0,,,,,,0.0,,,,,,,
739884,1745469336849,,,,,,,,,,,,,,,,,,,,,,,12,17,29,27,0.0,223.0,0.0,0.0,2.28,,,0,0,0,0,0,0,0,0,0,0,0,0,0,0,0,0,,0,,,,,38.990875,-76.940636,22.79,32.6,22,2,1.1
739904,1745469336869,0.0,68,,0.43,0.02,0.9,-49,2,3,1.0,1.18,85,8964,8.6,2.37,,7.51,0.895,89.8,,59.4,5,,,,,,,,,,,,0,0,0,0,0,0,0,0,0,0,0,0,0,0,0,0,,,,,,0.0,,,,,,,
739924,1745469336889,,,,,,,,,,,,,,,,,,,,,,,,,,,,,,,,,,0,0,0,0,0,0,0,0,0,0,0,0,0,0,0,0,,,,,,,,,,,,,
739944,1745469336909,0.0,81,,0.4,-0.13,0.94,-51,2,3,1.03,1.18,87,8367,8.4,2.41,,7.51,0.895,89.8,,53.6,5,,,,,,,,,,,,0,0,0,0,0,0,0,0,0,0,0,0,0,0,0,0,,,,,,0.0,,,,,,,
739964,1745469336929,,,,,,,,,,,,,,,,,,,,,,,,,,,,,,,,,,0,0,0,0,0,0,0,0,0,0,0,0,0,0,0,0,,,,,,,,,,,,,
739984,1745469336949,0.0,78,,0.37,-0.32,0.96,-54,2,3,1.08,1.18,92,7698,8.4,2.58,,7.69,0.901,89.8,,53.6,5,14,16,24,24,0.0,20.0,0.0,0.0,2.28,,,0,0,0,0,0,0,0,0,0,0,0,0,0,0,0,0,,0,,,,0.0,38.990879,-76.940643,25.23,32.6,22,2,1.1
740004,1745469336969,,,,,,,,,,,,,,,,,,,,,,,,,,,,,,,,,,0,0,0,0,0,0,0,0,0,0,0,0,0,0,0,0,,,,,,,,,,,,,
740024,1745469336989,0.0,102,,0.38,-0.42,0.93,-57,2,4,1.09,1.18,92,7698,8.4,2.58,,7.83,0.882,89.8,,51.9,5,,,,,,,,,,,,0,0,0,0,0,0,0,0,0,0,0,0,0,0,0,0,,,,,,0.0,,,,,,,
740044,1745469336999,,,,,,,,,,,,,,,,,,,,,,,,,,,,,,,,,,0,0,0,0,0,0,0,0,0,0,0,0,0,0,0,0,,,,,,,,,,,,,
740064,1745469337019,0.0,91,,0.34,-0.55,0.94,-60,2,4,1.14,1.18,97,7018,8.7,2.75,,8.06,0.867,89.8,,51.9,5,,,,,,,,,,,,0,0,0,0,0,0,0,0,0,0,0,0,0,0,0,0,,,,,,0.0,,,,,,,
740084,1745469337039,,,,,,,,,,,,,,,,,,,,,,,14,17,22,21,0.0,214.0,0.0,0.0,2.27,,,0,0,0,0,0,0,0,0,0,0,0,0,0,0,0,0,,1,,,,,38.990883,-76.940651,25.74,32.6,23,2,1.1
740104,1745469337059,0.0,81,,0.25,-0.58,0.97,-59,2,4,1.16,1.18,98,6521,8.9,2.68,,8.58,0.872,89.8,,51.9,5,,,,,,,,,,,,0,0,0,0,0,0,0,0,0,0,0,0,0,0,0,0,,,,,,0.0,,,,,,,
740124,1745469337079,,,,,,,,,,,,,,,,,,,,,,,,,,,,,,,,,,0,0,0,0,0,0,0,0,0,0,0,0,0,0,0,0,,,,,,,,,,,,,
740144,1745469337104,0.0,91,,0.24,-0.73,0.86,-59,2,4,1.15,1.18,97,6139,8.5,2.7,,8.58,0.872,89.8,,51.1,5,,,,,,,,,,,,0,0,0,0,0,0,0,0,0,0,0,0,0,0,0,0,,,,,,0.0,,,,,,,
740324,1745469337291,,,,,,,,,,,,,,,,,,,,,,,,,,,,,,,,,,0,0,0,0,0,0,0,0,0,0,0,0,0,0,0,0,,,,,,,,,,,,,
740504,1745469337468,0.0,91,,-0.19,-0.71,0.93,-46,0,2,1.19,1.25,95,5196,4.8,3.67,,11.0,0.89,89.8,,51.1,5,,,,,,,,,,,,0,0,0,0,0,0,0,0,0,0,0,0,0,0,0,0,,,,,,0.0,,,,,,,
740524,1745469337488,,,,,,,,,,,,,,,,,,,,,,,,,,,,,,,,,,0,0,0,0,0,0,0,0,0,0,0,0,0,0,0,0,,,,,,,,,,,,,
740544,1745469337509,0.0,71,,-0.2,-0.62,0.96,-46,1,2,1.16,1.25,92,5196,4.6,3.7,,11.06,0.881,89.8,,51.7,5,,,,,,,,,,,,0,0,0,0,0,0,0,0,0,0,0,0,0,0,0,0,,,,,,0.0,,,,,,,
740564,1745469337529,,,,,,,,,,,,,,,,,,,,,,,,,,,,,,,,,,0,0,0,0,0,0,0,0,0,0,0,0,0,0,0,0,,,,,,,,,,,,,
740584,1745469337549,0.0,81,,-0.2,-0.59,0.96,-46,1,2,1.15,1.25,91,5213,4.2,3.64,,11.06,0.881,89.8,,51.7,5,15,18,15,18,0.0,49.0,0.0,0.0,2.27,,,0,0,0,0,0,0,0,0,0,0,0,0,0,0,0,0,,1,,,,0.0,38.99091,-76.940666,24.81,32.6,23,2,1.1
740604,1745469337569,,,,,,,,,,,,,,,,,,,,,,,,,,,,,,,,,,0,0,0,0,0,0,0,0,0,0,0,0,0,0,0,0,,,,,,,,,,,,,
740624,1745469337589,0.0,61,,-0.21,-0.62,0.98,-46,1,1,1.18,1.25,94,5213,4.2,3.64,,11.05,0.849,89.8,,51.1,5,,,,,,,,,,,,0,0,0,0,0,0,0,0,0,0,0,0,0,0,0,0,,,,,,0.0,,,,,,,
740644,1745469337610,,,,,,,,,,,,,,,,,,,,,,,,,,,,,,,,,,0,0,0,0,0,0,0,0,0,0,0,0,0,0,0,0,,,,,,,,,,,,,
740664,1745469337630,0.0,74,,-0.2,-0.59,0.97,-44,1,1,1.15,1.25,92,5212,3.4,3.48,,11.08,0.811,89.8,,51.1,5,,,,,,,,,,,,0,0,0,0,0,0,0,0,0,0,0,0,0,0,0,0,,,,,,0.0,,,,,,,
740684,1745469337650,,,,,,,,,,,,,,,,,,,,,,,15,25,15,16,0.0,76.0,0.0,0.0,2.27,,,0,0,0,0,0,0,0,0,0,0,0,0,0,0,0,0,,1,,,,,38.990917,-76.940666,24.6,32.6,23,2,1.1
740704,1745469337670,0.0,88,,-0.19,-0.57,0.98,-42,1,0,1.15,1.25,92,5192,2.5,3.26,,11.01,0.789,89.8,,51.1,5,,,,,,,,,,,,0,0,0,0,0,0,0,0,0,0,0,0,0,0,0,0,,,,,,0.0,,,,,,,
740724,1745469337690,,,,,,,,,,,,,,,,,,,,,,,,,,,,,,,,,,0,0,0,0,0,0,0,0,0,0,0,0,0,0,0,0,,,,,,,,,,,,,
740744,1745469337710,0.0,81,,-0.17,-0.54,0.99,-40,1,0,1.14,1.25,91,5241,2.5,3.21,,10.78,0.774,89.8,,51.6,5,,,,,,,,,,,,0,0,0,0,0,0,0,0,0,0,0,0,0,0,0,0,,,,,,0.0,,,,,,,
740764,1745469337730,,,,,,,,,,,,,,,,,,,,,,,,,,,,,,,,,,0,0,0,0,0,0,0,0,0,0,0,0,0,0,0,0,,,,,,,,,,,,,
740784,1745469337750,0.0,81,,-0.16,-0.51,1.0,-38,1,0,1.14,1.14,100,5276,1.9,2.37,,10.78,0.774,89.8,,51.6,5,16,259,15,16,0.0,105.0,0.0,0.0,2.27,,,0,0,0,0,0,0,0,0,0,0,0,0,0,0,0,0,,1,,,,0.0,38.990921,-76.940666,24.34,32.6,23,2,1.1
740804,1745469337770,,,,,,,,,,,,,,,,,,,,,,,,,,,,,,,,,,0,0,0,0,0,0,0,0,0,0,0,0,0,0,0,0,,,,,,,,,,,,,
740824,1745469337790,0.0,71,,-0.15,-0.51,0.97,-36,1,-0,1.11,1.14,98,5276,1.9,2.37,,10.78,0.773,89.8,,52.4,5,,,,,,,,,,,,0,0,0,0,0,0,0,0,0,0,0,0,0,0,0,0,,,,,,0.0,,,,,,,
740844,1745469337809,,,,,,,,,,,,,,,,,,,,,,,,,,,,,,,,,,0,0,0,0,0,0,0,0,0,0,0,0,0,0,0,0,,,,,,,,,,,,,
740864,1745469337829,0.0,88,,-0.12,-0.53,0.93,-34,1,-0,1.08,1.14,95,5199,0.6,2.41,,10.68,0.789,89.8,,52.4,5,,,,,,,,,,,,0,0,0,0,0,0,0,0,0,0,0,0,0,0,0,0,,,,,,0.0,,,,,,,
740884,1745469337849,,,,,,,,,,,,,,,,,,,,,,,15,259,15,16,0.0,106.0,0.0,0.0,2.28,,,0,0,0,0,0,0,0,0,0,0,0,0,0,0,0,0,,0,,,,,38.990929,-76.940666,24.28,32.6,23,2,1.1
740904,1745469337869,0.0,68,,-0.13,-0.48,0.93,-32,1,-0,1.06,1.14,93,5048,0.0,1.88,,10.7,0.814,89.8,,52.4,5,,,,,,,,,,,,0,0,0,0,0,0,0,0,0,0,0,0,0,0,0,0,,,,,,0.0,,,,,,,
740924,1745469337889,,,,,,,,,,,,,,,,,,,,,,,,,,,,,,,,,,0,0,0,0,0,0,0,0,0,0,0,0,0,0,0,0,,,,,,,,,,,,,
740944,1745469337910,0.0,54,,-0.11,-0.45,0.95,-29,0,-0,1.06,1.14,93,4863,0.0,1.82,,10.66,0.87,89.8,,48.9,5,,,,,,,,,,,,0,0,0,0,0,0,0,0,0,0,0,0,0,0,0,0,,,,,,0.0,,,,,,,
740964,1745469337930,,,,,,,,,,,,,,,,,,,,,,,,,,,,,,,,,,0,0,0,0,0,0,0,0,0,0,0,0,0,0,0,0,,,,,,,,,,,,,
740984,1745469337950,0.0,57,,-0.16,-0.28,1.03,-27,-0,0,1.08,1.14,95,4671,0.1,1.83,,10.66,0.87,89.8,,48.9,5,15,259,15,16,0.0,100.0,0.0,0.0,2.28,,,0,0,0,0,0,0,0,0,0,0,0,0,0,0,0,0,,0,,,,0.0,38.990936,-76.940666,24.28,32.6,23,2,1.1
741004,1745469337970,,,,,,,,,,,,,,,,,,,,,,,,,,,,,,,,,,0,0,0,0,0,0,0,0,0,0,0,0,0,0,0,0,,,,,,,,,,,,,
741024,1745469337990,0.0,64,,-0.2,-0.25,1.07,-26,-0,0,1.11,1.14,98,4671,0.1,1.83,,10.65,0.928,89.8,,46.5,5,,,,,,,,,,,,0,0,0,0,0,0,0,0,0,0,0,0,0,0,0,0,,,,,,0.0,,,,,,,
741044,1745469337998,,,,,,,,,,,,,,,,,,,,,,,,,,,,,,,,,,0,0,0,0,0,0,0,0,0,0,0,0,0,0,0,0,,,,,,,,,,,,,
741064,1745469338018,0.0,71,,-0.24,-0.31,1.04,-25,-0,-0,1.12,1.14,98,4486,0.3,1.85,,10.68,0.995,89.8,,46.5,5,,,,,,,,,,,,0,0,0,0,0,0,0,0,0,0,0,0,0,0,0,0,,,,,,0.0,,,,,,,
741084,1745469338038,,,,,,,,,,,,,,,,,,,,,,,14,259,15,15,0.0,98.0,0.0,0.0,2.27,,,0,0,0,0,0,0,0,0,0,0,0,0,0,0,0,0,,0,,,,,38.99094,-76.940666,24.14,32.6,22,2,1.1
741104,1745469338058,0.0,57,,-0.26,-0.39,0.94,-25,-0,-1,1.05,1.14,92,4671,0.7,1.89,,10.64,1.036,89.8,,46.5,5,,,,,,,,,,,,0,0,0,0,0,0,0,0,0,0,0,0,0,0,0,0,,,,,,0.0,,,,,,,
741124,1745469338078,,,,,,,,,,,,,,,,,,,,,,,,,,,,,,,,,,0,0,0,0,0,0,0,0,0,0,0,0,0,0,0,0,,,,,,,,,,,,,
741144,1745469338110,1.38,71,,-0.25,-0.29,0.94,-22,-0,-1,1.01,1.14,89,4726,0.6,1.94,,10.64,1.036,89.8,,49.7,5,,,,,,,,,,,,0,0,0,0,0,0,0,0,0,0,0,0,0,0,0,0,,,,,,0.0,,,,,,,
741164,1745469338130,,,,,,,,,,,,,,,,,,,,,,,,,,,,,,,,,,0,0,0,0,0,0,0,0,0,0,0,0,0,0,0,0,,,,,,,,,,,,,
741184,1745469338150,7.04,57,,-0.27,-0.14,1.07,-18,-0,-0,1.11,1.14,98,4597,0.6,1.98,,10.61,1.088,89.8,,49.7,5,14,259,14,14,0.0,92.0,0.0,0.0,2.27,,,0,0,0,0,0,0,0,0,0,0,0,0,0,0,0,0,,1,,,,0.0,38.990948,-76.940666,23.33,32.6,22,2,1.1
741204,1745469338170,,,,,,,,,,,,,,,,,,,,,,,,,,,,,,,,,,0,0,0,0,0,0,0,0,0,0,0,0,0,0,0,0,,,,,,,,,,,,,
741224,1745469338190,11.44,54,,-0.31,-0.01,1.14,-15,-0,-0,1.19,1.19,100,4597,0.6,1.98,,10.6,1.213,89.8,,47.9,5,,,,,,,,,,,,0,0,0,0,0,0,0,0,0,0,0,0,0,0,0,0,,,,,,0.0,,,,,,,
741244,1745469338210,,,,,,,,,,,,,,,,,,,,,,,,,,,,,,,,,,0,0,0,0,0,0,0,0,0,0,0,0,0,0,0,0,,,,,,,,,,,,,
741264,1745469338230,13.32,54,,-0.33,0.15,1.21,-11,-1,0,1.26,1.26,100,4474,0.6,2.01,,10.68,1.248,89.8,,47.9,5,,,,,,,,,,,,0,0,0,0,0,0,0,0,0,0,0,0,0,0,0,0,,,,,,0.0,,,,,,,
741284,1745469338250,,,,,,,,,,,,,,,,,,,,,,,13,259,14,13,0.0,91.0,0.0,0.0,2.27,,,0,0,0,0,0,0,0,0,0,0,0,0,0,0,0,0,,1,,,,,38.990952,-76.940666,22.33,32.6,22,2,1.1
741304,1745469338270,15.21,44,,-0.33,0.23,1.2,-8,-1,0,1.27,1.27,100,4368,0.3,2.02,,10.66,1.248,89.8,,47.9,5,,,,,,,,,,,,0,0,0,0,0,0,0,0,0,0,0,0,0,0,0,0,,,,,,0.0,,,,,,,
741324,1745469338290,,,,,,,,,,,,,,,,,,,,,,,,,,,,,,,,,,0,0,0,0,0,0,0,0,0,0,0,0,0,0,0,0,,,,,,,,,,,,,
741344,1745469338310,19.61,34,,-0.33,0.22,1.1,-8,-1,0,1.16,1.27,92,4277,0.0,1.93,,10.68,1.248,89.8,,45.3,5,,,,,,,,,,,,0,0,0,0,0,0,0,0,0,0,0,0,0,0,0,0,,,,,,0.0,,,,,,,
741364,1745469338330,,,,,,,,,,,,,,,,,,,,,,,,,,,,,,,,,,0,0,0,0,0,0,0,0,0,0,0,0,0,0,0,0,,,,,,,,,,,,,
741384,1745469338350,22.12,51,13.74,-0.33,0.25,1.13,-8,-0,0,1.2,1.27,95,4173,0.0,2.11,15,10.68,1.248,89.8,169,45.3,5,13,259,13,13,0.0,92.0,0.0,0.0,2.28,0,1.0,0,0,0,0,0,0,0,0,0,0,0,0,0,0,0,0,0,1,1.0,0,-0,0.0,38.990955,-76.940666,21.37,32.6,22,2,1.1
741404,1745469338370,,,,,,,,,,,,,,,,,,,,,,,,,,,,,,,,,,0,0,0,0,0,0,0,0,0,0,0,0,0,0,0,0,,,,,,,,,,,,,
741424,1745469338390,23.38,51,,-0.31,0.17,1.11,-7,-0,-0,1.16,1.27,92,4173,0.0,2.11,,10.82,1.249,89.8,,42.6,5,,,,,,,,,,,,0,0,0,0,0,0,0,0,0,0,0,0,0,0,0,0,,,,,,0.0,,,,,,,
741444,1745469338410,,,,,,,,,,,,,,,,,,,,,,,,,,,,,,,,,,0,0,0,0,0,0,0,0,0,0,0,0,0,0,0,0,,,,,,,,,,,,,
741464,1745469338430,22.75,47,,-0.31,0.21,1.14,-6,-0,0,1.2,1.27,94,4078,0.0,2.19,,10.89,1.25,89.8,,42.6,5,,,,,,,,,,,,0,0,0,0,0,0,0,0,0,0,0,0,0,0,0,0,,,,,,0.0,,,,,,,
741484,1745469338450,,,,,,,,,,,,,,,,,,,,,,,12,259,12,12,0.0,86.0,0.0,0.0,2.28,,,0,0,0,0,0,0,0,0,0,0,0,0,0,0,0,0,,1,,,,,38.990963,-76.940666,19.51,32.6,22,2,1.1
741504,1745469338470,21.49,44,,-0.3,0.15,1.07,-7,0,-0,1.12,1.27,89,4022,0.1,2.23,,10.9,1.251,89.8,,42.6,5,,,,,,,,,,,,0,0,0,0,0,0,0,0,0,0,0,0,0,0,0,0,,,,,,0.0,,,,,,,
741524,1745469338490,,,,,,,,,,,,,,,,,,,,,,,,,,,,,,,,,,0,0,0,0,0,0,0,0,0,0,0,0,0,0,0,0,,,,,,,,,,,,,
741544,1745469338508,22.75,24,,-0.31,0.17,1.07,-5,-0,-0,1.12,1.27,89,3990,0.5,2.49,,11.09,1.251,89.8,,40.7,5,,,,,,,,,,,,0,0,0,0,0,0,0,0,0,0,0,0,0,0,0,0,,,,,,0.0,,,,,,,
741564,1745469338528,,,,,,,,,,,,,,,,,,,,,,,,,,,,,,,,,,0,0,0,0,0,0,0,0,0,0,0,0,0,0,0,0,,,,,,,,,,,,,
741584,1745469338548,25.26,30,,-0.29,0.18,1.09,-3,-0,-0,1.14,1.27,90,3863,1.8,2.74,,11.09,1.251,89.8,,40.7,5,12,259,12,12,0.0,83.0,0.0,0.0,2.27,,,0,0,0,0,0,0,0,0,0,0,0,0,0,0,0,0,,1,,,,0.0,38.990967,-76.940666,18.86,32.6,22,2,1.1
741604,1745469338568,,,,,,,,,,,,,,,,,,,,,,,,,,,,,,,,,,0,0,0,0,0,0,0,0,0,0,0,0,0,0,0,0,,,,,,,,,,,,,
741624,1745469338588,24.64,27,,-0.27,0.14,1.1,-3,-0,0,1.15,1.27,90,3863,1.8,2.74,,11.34,1.25,89.8,,38.4,5,,,,,,,,,,,,0,0,0,0,0,0,0,0,0,0,0,0,0,0,0,0,,,,,,0.0,,,,,,,
741644,1745469338609,,,,,,,,,,,,,,,,,,,,,,,,,,,,,,,,,,0,0,0,0,0,0,0,0,0,0,0,0,0,0,0,0,,,,,,,,,,,,,
741664,1745469338629,24.01,30,,-0.27,0.16,1.07,-1,-0,-0,1.11,1.27,88,3773,2.0,3.08,,11.5,1.25,89.8,,38.4,5,,,,,,,,,,,,0,0,0,0,0,0,0,0,0,0,0,0,0,0,0,0,,,,,,0.0,,,,,,,
741684,1745469338649,,,,,,,,,,,,,,,,,,,,,,,12,259,11,12,0.0,81.0,0.0,0.0,2.27,,,0,0,0,0,0,0,0,0,0,0,0,0,0,0,0,0,,1,,,,,38.990974,-76.940666,18.44,32.6,22,2,1.1
741704,1745469338669,21.49,37,,-0.25,0.13,1.09,-0,-0,-0,1.12,1.27,89,3777,1.9,3.11,,11.71,1.248,89.8,,38.4,5,,,,,,,,,,,,0,0,0,0,0,0,0,0,0,0,0,0,0,0,0,0,,,,,,0.0,,,,,,,
741724,1745469338691,,,,,,,,,,,,,,,,,,,,,,,,,,,,,,,,,,0,0,0,0,0,0,0,0,0,0,0,0,0,0,0,0,,,,,,,,,,,,,
741744,1745469338711,16.47,44,,-0.23,0.11,1.09,-0,0,-0,1.12,1.27,88,3821,1.9,3.09,,11.79,1.248,89.8,,38.4,5,,,,,,,,,,,,0,0,0,0,0,0,0,0,0,0,0,0,0,0,0,0,,,,,,0.0,,,,,,,
741764,1745469338731,,,,,,,,,,,,,,,,,,,,,,,,,,,,,,,,,,0,0,0,0,0,0,0,0,0,0,0,0,0,0,0,0,,,,,,,,,,,,,
741784,1745469338751,12.69,34,,-0.22,0.14,1.09,-0,0,0,1.13,1.27,89,3703,1.6,3.12,,11.79,1.248,89.8,,38.4,5,11,259,11,10,0.0,79.0,0.0,0.0,2.27,,,0,0,0,0,0,0,0,0,0,0,0,0,0,0,0,0,,0,,,,0.0,38.990978,-76.940666,17.74,32.6,22,2,1.1
741804,1745469338771,,,,,,,,,,,,,,,,,,,,,,,,,,,,,,,,,,0,0,0,0,0,0,0,0,0,0,0,0,0,0,0,0,,,,,,,,,,,,,
741824,1745469338791,10.18,41,,-0.22,0.19,1.02,2,-0,-0,1.06,1.27,84,3703,1.6,3.12,,11.87,1.248,89.8,,36.5,5,,,,,,,,,,,,0,0,0,0,0,0,0,0,0,0,0,0,0,0,0,0,,,,,,0.0,,,,,,,
741844,1745469338811,,,,,,,,,,,,,,,,,,,,,,,,,,,,,,,,,,0,0,0,0,0,0,0,0,0,0,0,0,0,0,0,0,,,,,,,,,,,,,
741864,1745469338831,8.3,47,,-0.24,0.08,1.04,-0,0,0,1.07,1.27,84,3518,1.3,3.13,,12.04,1.248,89.8,,36.5,5,,,,,,,,,,,,0,0,0,0,0,0,0,0,0,0,0,0,0,0,0,0,,,,,,0.0,,,,,,,
741884,1745469338851,,,,,,,,,,,,,,,,,,,,,,,11,259,11,11,0.0,78.0,0.0,0.0,2.28,,,0,0,0,0,0,0,0,0,0,0,0,0,0,0,0,0,,0,,,,,38.990982,-76.940666,17.3,32.7,22,2,1.1
741904,1745469338871,5.78,20,,-0.21,0.1,1.03,1,0,0,1.06,1.27,84,3423,1.4,3.14,,12.25,1.2,89.8,,36.5,5,,,,,,,,,,,,0,0,0,0,0,0,0,0,0,0,0,0,0,0,0,0,,,,,,0.0,,,,,,,
741924,1745469338891,,,,,,,,,,,,,,,,,,,,,,,,,,,,,,,,,,0,0,0,0,0,0,0,0,0,0,0,0,0,0,0,0,,,,,,,,,,,,,
741944,1745469338909,3.9,17,,-0.27,0.04,1.02,1,-0,-0,1.05,1.27,83,3376,1.4,3.09,,12.32,1.192,89.8,,33.6,5,,,,,,,,,,,,0,0,0,0,0,0,0,0,0,0,0,0,0,0,0,0,,,,,,0.0,,,,,,,
741964,1745469338929,,,,,,,,,,,,,,,,,,,,,,,,,,,,,,,,,,0,0,0,0,0,0,0,0,0,0,0,0,0,0,0,0,,,,,,,,,,,,,
741984,1745469338949,0.75,10,,-0.22,0.01,1.05,0,-0,0,1.07,1.27,85,3491,1.6,3.12,,12.32,1.192,89.8,,33.6,5,11,259,10,10,0.0,76.0,0.0,0.0,2.28,,,0,0,0,0,0,0,0,0,0,0,0,0,0,0,0,0,,1,,,,0.0,38.990986,-76.940666,17.14,32.6,22,2,1.1
742004,1745469338969,,,,,,,,,,,,,,,,,,,,,,,,,,,,,,,,,,0,0,0,0,0,0,0,0,0,0,0,0,0,0,0,0,,,,,,,,,,,,,
742024,1745469338989,0.0,37,,-0.22,0.02,1.0,4,0,-0,1.02,1.27,81,3491,1.6,3.12,,12.37,1.215,89.8,,34.0,5,,,,,,,,,,,,0,0,0,0,0,0,0,0,0,0,0,0,0,0,0,0,,,,,,0.0,,,,,,,
742044,1745469338999,,,,,,,,,,,,,,,,,,,,,,,,,,,,,,,,,,0,0,0,0,0,0,0,0,0,0,0,0,0,0,0,0,,,,,,,,,,,,,
742064,1745469339019,0.0,47,,-0.23,-0.09,1.03,0,1,0,1.06,1.27,83,3473,1.9,3.13,,12.43,1.221,89.8,,34.0,5,,,,,,,,,,,,0,0,0,0,0,0,0,0,0,0,0,0,0,0,0,0,,,,,,0.0,,,,,,,
742084,1745469339039,,,,,,,,,,,,,,,,,,,,,,,10,259,10,10,0.0,75.0,0.0,0.0,2.27,,,0,0,0,0,0,0,0,0,0,0,0,0,0,0,0,0,,1,,,,,38.99099,-76.940666,16.23,32.7,23,2,1.1
742104,1745469339059,0.0,54,,-0.21,0.01,0.97,3,0,0,0.99,1.27,78,3362,2.1,3.13,,12.52,1.214,89.8,,34.0,5,,,,,,,,,,,,0,0,0,0,0,0,0,0,0,0,0,0,0,0,0,0,,,,,,0.0,,,,,,,
742124,1745469339091,,,,,,,,,,,,,,,,,,,,,,,,,,,,,,,,,,0,0,0,0,0,0,0,0,0,0,0,0,0,0,0,0,,,,,,,,,,,,,
742144,1745469339111,0.0,30,,-0.17,-0.04,1.05,0,0,0,1.07,1.27,84,3282,3.4,3.5,,12.52,1.214,89.8,,32.7,5,,,,,,,,,,,,0,0,0,0,0,0,0,0,0,0,0,0,0,0,0,0,,,,,,0.0,,,,,,,
742164,1745469339131,,,,,,,,,,,,,,,,,,,,,,,,,,,,,,,,,,0,0,0,0,0,0,0,0,0,0,0,0,0,0,0,0,,,,,,,,,,,,,
742184,1745469339151,0.0,44,,-0.22,-0.1,1.06,-0,0,-0,1.08,1.27,86,3192,4.2,3.71,,12.69,1.207,89.8,,32.7,5,10,259,10,9,0.0,74.0,0.0,0.0,2.27,,,0,0,0,0,0,0,0,0,0,0,0,0,0,0,0,0,,1,,,,0.0,38.990994,-76.940666,16.05,32.6,23,2,1.1
742204,1745469339171,,,,,,,,,,,,,,,,,,,,,,,,,,,,,,,,,,0,0,0,0,0,0,0,0,0,0,0,0,0,0,0,0,,,,,,,,,,,,,
742224,1745469339191,0.0,30,,-0.22,0.0,0.95,3,0,-1,0.97,1.27,77,3192,4.2,3.71,,12.81,1.213,89.8,,31.3,5,,,,,,,,,,,,0,0,0,0,0,0,0,0,0,0,0,0,0,0,0,0,,,,,,0.0,,,,,,,
742244,1745469339209,,,,,,,,,,,,,,,,,,,,,,,,,,,,,,,,,,0,0,0,0,0,0,0,0,0,0,0,0,0,0,0,0,,,,,,,,,,,,,
742264,1745469339229,0.0,30,,-0.17,-0.04,1.02,1,0,-0,1.03,1.27,81,3206,5.7,3.74,,13.0,1.198,89.8,,31.3,5,,,,,,,,,,,,0,0,0,0,0,0,0,0,0,0,0,0,0,0,0,0,,,,,,0.0,,,,,,,
742284,1745469339249,,,,,,,,,,,,,,,,,,,,,,,10,259,10,10,0.0,74.0,0.0,0.0,2.27,,,0,0,0,0,0,0,0,0,0,0,0,0,0,0,0,0,,1,,,,,38.990997,-76.940666,15.54,32.6,23,2,1.1
742304,1745469339269,0.0,7,,-0.22,-0.06,1.01,0,0,-0,1.03,1.27,82,3293,8.0,3.87,,13.23,1.19,89.8,,31.3,5,,,,,,,,,,,,0,0,0,0,0,0,0,0,0,0,0,0,0,0,0,0,,,,,,0.0,,,,,,,
742324,1745469339291,,,,,,,,,,,,,,,,,,,,,,,,,,,,,,,,,,0,0,0,0,0,0,0,0,0,0,0,0,0,0,0,0,,,,,,,,,,,,,
742344,1745469339311,0.0,27,,-0.19,0.03,0.95,3,0,-0,0.97,1.27,77,3225,8.9,3.92,,13.37,1.173,89.8,,32.1,5,,,,,,,,,,,,0,0,0,0,0,0,0,0,0,0,0,0,0,0,0,0,,,,,,0.0,,,,,,,
742364,1745469339331,,,,,,,,,,,,,,,,,,,,,,,,,,,,,,,,,,0,0,0,0,0,0,0,0,0,0,0,0,0,0,0,0,,,,,,,,,,,,,
742384,1745469339351,0.0,34,13.7,-0.16,-0.03,1.01,-1,0,0,1.02,1.27,81,3225,8.9,3.92,15,13.37,1.173,89.8,169,32.1,5,10,259,10,10,0.0,73.0,0.0,0.0,2.28,0,1.0,0,0,0,0,0,0,0,0,0,0,0,0,0,0,0,0,0,1,1.0,0,-0,0.0,38.991001,-76.940666,15.33,32.6,23,2,1.1
742404,1745469339371,,,,,,,,,,,,,,,,,,,,,,,,,,,,,,,,,,0,0,0,0,0,0,0,0,0,0,0,0,0,0,0,0,,,,,,,,,,,,,
742424,1745469339391,0.0,41,,-0.19,0.02,0.94,1,-0,-0,0.96,1.27,76,3311,9.5,3.93,,13.47,1.169,89.8,,32.0,5,,,,,,,,,,,,0,0,0,0,0,0,0,0,0,0,0,0,0,0,0,0,,,,,,0.0,,,,,,,
742444,1745469339409,,,,,,,,,,,,,,,,,,,,,,,,,,,,,,,,,,0,0,0,0,0,0,0,0,0,0,0,0,0,0,0,0,,,,,,,,,,,,,
742464,1745469339429,0.0,44,,-0.15,0.07,0.98,2,-0,0,0.99,1.27,78,3317,9.6,3.95,,13.52,1.159,89.8,,32.0,5,,,,,,,,,,,,0,0,0,0,0,0,0,0,0,0,0,0,0,0,0,0,,,,,,0.0,,,,,,,
742484,1745469339449,,,,,,,,,,,,,,,,,,,,,,,10,259,9,9,0.0,73.0,0.0,0.0,2.28,,,0,0,0,0,0,0,0,0,0,0,0,0,0,0,0,0,,0,,,,,38.991005,-76.940666,15.03,32.6,23,2,1.1
742504,1745469339469,0.0,41,,-0.17,0.01,0.96,0,-0,-1,0.97,1.27,77,3330,9.8,3.93,,13.55,1.157,89.8,,32.0,5,,,,,,,,,,,,0,0,0,0,0,0,0,0,0,0,0,0,0,0,0,0,,,,,,0.0,,,,,,,
742524,1745469339491,,,,,,,,,,,,,,,,,,,,,,,,,,,,,,,,,,0,0,0,0,0,0,0,0,0,0,0,0,0,0,0,0,,,,,,,,,,,,,
742544,1745469339511,0.0,37,,-0.11,0.09,0.96,2,-0,-0,0.97,1.27,77,3393,10.1,3.93,,13.56,1.163,89.8,,32.9,5,,,,,,,,,,,,0,0,0,0,0,0,0,0,0,0,0,0,0,0,0,0,,,,,,0.0,,,,,,,
742564,1745469339531,,,,,,,,,,,,,,,,,,,,,,,,,,,,,,,,,,0,0,0,0,0,0,0,0,0,0,0,0,0,0,0,0,,,,,,,,,,,,,
742584,1745469339551,0.0,20,,-0.12,0.03,1.01,-0,0,-0,1.02,1.27,80,3198,10.2,3.96,,13.56,1.163,89.8,,32.9,5,10,259,9,9,0.0,70.0,0.0,0.0,2.27,,,0,0,0,0,0,0,0,0,0,0,0,0,0,0,0,0,,0,,,,0.0,38.991009,-76.940666,14.9,32.6,23,2,1.1
742604,1745469339571,,,,,,,,,,,,,,,,,,,,,,,,,,,,,,,,,,0,0,0,0,0,0,0,0,0,0,0,0,0,0,0,0,,,,,,,,,,,,,
742624,1745469339591,0.0,27,,-0.16,0.06,0.97,2,0,-1,0.99,1.27,78,3198,10.2,3.96,,13.6,1.151,89.8,,31.3,5,,,,,,,,,,,,0,0,0,0,0,0,0,0,0,0,0,0,0,0,0,0,,,,,,0.0,,,,,,,
742644,1745469339610,,,,,,,,,,,,,,,,,,,,,,,,,,,,,,,,,,0,0,0,0,0,0,0,0,0,0,0,0,0,0,0,0,,,,,,,,,,,,,
742664,1745469339630,0.0,27,,-0.17,0.06,0.95,3,-0,-1,0.96,0.96,100,2998,10.3,3.96,,13.75,1.167,89.8,,31.3,5,,,,,,,,,,,,0,0,0,0,0,0,0,0,0,0,0,0,0,0,0,0,,,,,,0.0,,,,,,,
742684,1745469339650,,,,,,,,,,,,,,,,,,,,,,,9,259,9,9,0.0,71.0,0.0,0.0,2.27,,,0,0,0,0,0,0,0,0,0,0,0,0,0,0,0,0,,0,,,,,38.991013,-76.940666,14.57,32.7,23,2,1.1
742704,1745469339670,0.0,20,,-0.18,0.08,0.92,5,-0,-1,0.94,0.96,98,3026,10.5,3.98,,13.76,1.17,89.8,,31.3,5,,,,,,,,,,,,0,0,0,0,0,0,0,0,0,0,0,0,0,0,0,0,,,,,,0.0,,,,,,,
742724,1745469339690,,,,,,,,,,,,,,,,,,,,,,,,,,,,,,,,,,0,0,0,0,0,0,0,0,0,0,0,0,0,0,0,0,,,,,,,,,,,,,
742744,1745469339710,0.0,27,,-0.2,0.08,0.91,7,-0,-1,0.94,0.96,97,3092,10.4,3.98,,13.72,1.145,89.8,,29.3,5,,,,,,,,,,,,0,0,0,0,0,0,0,0,0,0,0,0,0,0,0,0,,,,,,0.0,,,,,,,
742764,1745469339730,,,,,,,,,,,,,,,,,,,,,,,,,,,,,,,,,,0,0,0,0,0,0,0,0,0,0,0,0,0,0,0,0,,,,,,,,,,,,,
742784,1745469339750,0.0,27,,-0.19,0.11,0.83,9,-0,-1,0.85,0.96,89,3121,10.2,3.98,,13.72,1.145,89.8,,29.3,5,10,0,9,9,0.0,28.0,0.0,0.0,2.28,,,0,0,0,0,0,0,0,0,0,0,0,0,0,0,0,0,,1,,,,0.0,38.991016,-76.940666,15.09,32.7,23,2,1.1
742804,1745469339770,,,,,,,,,,,,,,,,,,,,,,,,,,,,,,,,,,0,0,0,0,0,0,0,0,0,0,0,0,0,0,0,0,,,,,,,,,,,,,
742824,1745469339790,0.0,34,,-0.12,0.08,0.85,6,-0,-1,0.87,0.96,90,3121,10.2,3.98,,13.69,1.138,89.8,,31.4,5,,,,,,,,,,,,0,0,0,0,0,0,0,0,0,0,0,0,0,0,0,0,,,,,,0.0,,,,,,,
742844,1745469339810,,,,,,,,,,,,,,,,,,,,,,,,,,,,,,,,,,0,0,0,0,0,0,0,0,0,0,0,0,0,0,0,0,,,,,,,,,,,,,
742864,1745469339830,0.0,44,,-0.13,-0.03,0.92,5,-0,-1,0.93,0.96,96,3343,10.0,3.96,,13.64,1.133,89.8,,31.4,5,,,,,,,,,,,,0,0,0,0,0,0,0,0,0,0,0,0,0,0,0,0,,,,,,0.0,,,,,,,
742884,1745469339850,,,,,,,,,,,,,,,,,,,,,,,9,0,9,9,0.0,221.0,0.0,0.0,2.28,,,0,0,0,0,0,0,0,0,0,0,0,0,0,0,0,0,,0,,,,,38.99102,-76.940666,14.55,32.7,23,2,1.1
742904,1745469339870,0.0,20,,-0.13,0.01,0.87,7,-0,-1,0.88,0.96,91,3245,10.1,3.97,,13.64,1.147,89.8,,31.4,5,,,,,,,,,,,,0,0,0,0,0,0,0,0,0,0,0,0,0,0,0,0,,,,,,0.0,,,,,,,
742924,1745469339890,,,,,,,,,,,,,,,,,,,,,,,,,,,,,,,,,,0,0,0,0,0,0,0,0,0,0,0,0,0,0,0,0,,,,,,,,,,,,,
742944,1745469339910,0.0,24,,-0.13,0.04,0.8,8,-0,-1,0.81,0.96,84,2985,10.1,3.97,,13.75,1.156,89.8,,30.7,5,,,,,,,,,,,,0,0,0,0,0,0,0,0,0,0,0,0,0,0,0,0,,,,,,0.0,,,,,,,
742964,1745469339930,,,,,,,,,,,,,,,,,,,,,,,,,,,,,,,,,,0,0,0,0,0,0,0,0,0,0,0,0,0,0,0,0,,,,,,,,,,,,,
742984,1745469339950,0.0,20,,-0.09,0.06,0.76,8,-1,-1,0.77,0.96,79,3052,10.4,3.98,,13.75,1.156,89.8,,30.7,5,9,0,9,10,0.0,0.0,0.0,0.0,2.27,,,0,0,0,0,0,0,0,0,0,0,0,0,0,0,0,0,,0,,,,0.0,38.991024,-76.940666,14.7,32.7,23,2,1.1
743004,1745469339970,,,,,,,,,,,,,,,,,,,,,,,,,,,,,,,,,,0,0,0,0,0,0,0,0,0,0,0,0,0,0,0,0,,,,,,,,,,,,,
743024,1745469339990,0.0,17,,-0.04,0.09,0.81,5,-0,-0,0.82,0.96,85,3052,10.4,3.98,,13.75,1.155,89.8,,30.7,5,,,,,,,,,,,,0,0,0,0,0,0,0,0,0,0,0,0,0,0,0,0,,,,,,0.0,,,,,,,
743044,1745469339996,,,,,,,,,,,,,,,,,,,,,,,,,,,,,,,,,,0,0,0,0,0,0,0,0,0,0,0,0,0,0,0,0,,,,,,,,,,,,,
743064,1745469340016,0.0,20,,-0.04,0.0,0.9,2,-0,0,0.91,0.96,94,3228,10.6,3.96,,13.71,1.144,89.8,,30.7,5,,,,,,,,,,,,0,0,0,0,0,0,0,0,0,0,0,0,0,0,0,0,,,,,,0.0,,,,,,,
743084,1745469340036,,,,,,,,,,,,,,,,,,,,,,,9,0,10,10,0.0,29.0,0.0,0.0,2.26,,,0,0,0,0,0,0,0,0,0,0,0,0,0,0,0,0,,1,,,,,38.991028,-76.940666,14.8,32.7,24,2,1.0
743104,1745469340056,0.0,34,,-0.1,-0.05,0.91,4,-0,-0,0.92,0.96,95,3130,10.7,3.98,,13.69,1.131,89.8,,30.7,5,,,,,,,,,,,,0,0,0,0,0,0,0,0,0,0,0,0,0,0,0,0,,,,,,0.0,,,,,,,
743124,1745469340076,,,,,,,,,,,,,,,,,,,,,,,,,,,,,,,,,,0,0,0,0,0,0,0,0,0,0,0,0,0,0,0,0,,,,,,,,,,,,,
743144,1745469340110,0.0,34,,-0.1,0.01,0.85,6,-1,-1,0.86,0.96,89,3097,11.3,3.98,,13.73,1.13,89.8,,31.0,5,,,,,,,,,,,,0,0,0,0,0,0,0,0,0,0,0,0,0,0,0,0,,,,,,0.0,,,,,,,
743164,1745469340130,,,,,,,,,,,,,,,,,,,,,,,,,,,,,,,,,,0,0,0,0,0,0,0,0,0,0,0,0,0,0,0,0,,,,,,,,,,,,,
743184,1745469340150,0.0,34,,-0.06,0.06,0.83,6,-1,-0,0.83,0.96,86,3199,11.8,4.01,,13.73,1.13,89.8,,31.0,5,10,0,9,10,0.0,52.0,0.0,0.0,2.26,,,0,0,0,0,0,0,0,0,0,0,0,0,0,0,0,0,,0,,,,0.0,38.991032,-76.940666,14.99,32.7,24,2,1.0
743204,1745469340170,,,,,,,,,,,,,,,,,,,,,,,,,,,,,,,,,,0,0,0,0,0,0,0,0,0,0,0,0,0,0,0,0,,,,,,,,,,,,,
743224,1745469340190,0.0,27,,-0.05,-0.03,0.89,2,-0,-0,0.89,0.96,92,3199,11.8,4.01,,13.76,1.135,89.8,,32.5,5,,,,,,,,,,,,0,0,0,0,0,0,0,0,0,0,0,0,0,0,0,0,,,,,,0.0,,,,,,,
743244,1745469340210,,,,,,,,,,,,,,,,,,,,,,,,,,,,,,,,,,0,0,0,0,0,0,0,0,0,0,0,0,0,0,0,0,,,,,,,,,,,,,
743264,1745469340230,0.0,27,,-0.05,0.04,0.83,4,-0,-0,0.83,0.96,87,3313,11.8,4.02,,13.77,1.151,89.8,,32.5,5,,,,,,,,,,,,0,0,0,0,0,0,0,0,0,0,0,0,0,0,0,0,,,,,,0.0,,,,,,,
743284,1745469340250,,,,,,,,,,,,,,,,,,,,,,,10,0,10,10,0.0,243.0,0.0,0.0,2.28,,,0,0,0,0,0,0,0,0,0,0,0,0,0,0,0,0,,1,,,,,38.991035,-76.940666,15.01,32.7,24,2,1.0
743304,1745469340270,0.0,17,,-0.03,0.06,0.8,4,-1,-0,0.8,0.96,83,3108,11.7,4.02,,13.84,1.14,89.8,,32.5,5,,,,,,,,,,,,0,0,0,0,0,0,0,0,0,0,0,0,0,0,0,0,,,,,,0.0,,,,,,,
743324,1745469340291,,,,,,,,,,,,,,,,,,,,,,,,,,,,,,,,,,0,0,0,0,0,0,0,0,0,0,0,0,0,0,0,0,,,,,,,,,,,,,
743344,1745469340311,0.0,24,,0.02,0.09,0.84,2,-1,0,0.84,0.96,88,3146,11.9,4.04,,13.83,1.103,89.8,,30.2,5,,,,,,,,,,,,0,0,0,0,0,0,0,0,0,0,0,0,0,0,0,0,,,,,,0.0,,,,,,,
743364,1745469340331,,,,,,,,,,,,,,,,,,,,,,,,,,,,,,,,,,0,0,0,0,0,0,0,0,0,0,0,0,0,0,0,0,,,,,,,,,,,,,
743384,1745469340351,0.0,27,13.74,0.01,0.01,0.95,-1,-1,1,0.95,0.96,98,3214,12.9,4.07,15,13.83,1.103,89.8,171,30.2,5,9,0,10,9,0.0,203.0,0.0,0.0,2.28,0,1.0,0,0,0,0,0,0,0,0,0,0,0,0,0,0,0,0,0,1,1.0,0,-0,0.0,38.991039,-76.940666,15.29,32.7,24,2,1.0
743404,1745469340371,,,,,,,,,,,,,,,,,,,,,,,,,,,,,,,,,,0,0,0,0,0,0,0,0,0,0,0,0,0,0,0,0,,,,,,,,,,,,,
743424,1745469340391,0.0,37,,-0.04,0.0,0.9,2,-1,-0,0.9,0.96,93,3214,12.9,4.07,,13.8,1.088,89.8,,31.9,5,,,,,,,,,,,,0,0,0,0,0,0,0,0,0,0,0,0,0,0,0,0,,,,,,0.0,,,,,,,
743444,1745469340410,,,,,,,,,,,,,,,,,,,,,,,,,,,,,,,,,,0,0,0,0,0,0,0,0,0,0,0,0,0,0,0,0,,,,,,,,,,,,,
743464,1745469340430,0.0,37,,0.01,-0.02,0.95,0,-1,0,0.95,0.96,99,3295,13.3,4.09,,13.86,1.073,89.8,,31.9,5,,,,,,,,,,,,0,0,0,0,0,0,0,0,0,0,0,0,0,0,0,0,,,,,,0.0,,,,,,,
743484,1745469340450,,,,,,,,,,,,,,,,,,,,,,,9,0,10,10,0.0,0.0,0.0,0.0,2.27,,,0,0,0,0,0,0,0,0,0,0,0,0,0,0,0,0,,1,,,,,38.991043,-76.940666,15.31,32.7,24,2,1.0
743504,1745469340470,0.0,34,,-0.04,-0.04,0.94,1,-1,-0,0.94,0.96,98,3370,13.6,4.08,,13.82,1.082,89.8,,31.9,5,,,,,,,,,,,,0,0,0,0,0,0,0,0,0,0,0,0,0,0,0,0,,,,,,0.0,,,,,,,
743524,1745469340490,,,,,,,,,,,,,,,,,,,,,,,,,,,,,,,,,,0,0,0,0,0,0,0,0,0,0,0,0,0,0,0,0,,,,,,,,,,,,,
743544,1745469340510,0.0,41,,-0.01,0.02,0.91,2,-1,0,0.91,0.96,94,3180,13.8,4.08,,13.86,1.102,89.8,,32.1,5,,,,,,,,,,,,0,0,0,0,0,0,0,0,0,0,0,0,0,0,0,0,,,,,,0.0,,,,,,,
743564,1745469340530,,,,,,,,,,,,,,,,,,,,,,,,,,,,,,,,,,0,0,0,0,0,0,0,0,0,0,0,0,0,0,0,0,,,,,,,,,,,,,
743584,1745469340550,0.0,17,,0.0,-0.02,0.98,-1,-1,0,0.98,0.98,100,3180,13.8,4.08,,13.86,1.102,89.8,,32.1,5,10,0,10,10,0.0,14.0,0.0,0.0,2.27,,,0,0,0,0,0,0,0,0,0,0,0,0,0,0,0,0,,1,,,,0.0,38.991047,-76.940666,15.57,32.7,24,2,1.0
743604,1745469340570,,,,,,,,,,,,,,,,,,,,,,,,,,,,,,,,,,0,0,0,0,0,0,0,0,0,0,0,0,0,0,0,0,,,,,,,,,,,,,
743624,1745469340590,0.0,27,,-0.03,-0.07,0.96,0,-1,-0,0.96,0.98,98,3304,13.8,4.11,,13.86,1.113,89.8,,31.4,5,,,,,,,,,,,,0,0,0,0,0,0,0,0,0,0,0,0,0,0,0,0,,,,,,0.0,,,,,,,
743644,1745469340609,,,,,,,,,,,,,,,,,,,,,,,,,,,,,,,,,,0,0,0,0,0,0,0,0,0,0,0,0,0,0,0,0,,,,,,,,,,,,,
743664,1745469340629,0.0,17,,-0.0,-0.01,0.94,2,-1,0,0.94,0.98,96,3313,13.8,4.09,,13.84,1.119,89.8,,31.4,5,,,,,,,,,,,,0,0,0,0,0,0,0,0,0,0,0,0,0,0,0,0,,,,,,0.0,,,,,,,
743684,1745469340649,,,,,,,,,,,,,,,,,,,,,,,10,0,10,10,0.0,243.0,0.0,0.0,2.27,,,0,0,0,0,0,0,0,0,0,0,0,0,0,0,0,0,,1,,,,,38.991051,-76.940666,15.67,32.7,24,2,1.0
743704,1745469340669,0.0,20,,-0.0,-0.11,1.02,-1,-1,-0,1.03,1.03,100,3250,13.8,4.1,,13.87,1.114,89.8,,31.4,5,,,,,,,,,,,,0,0,0,0,0,0,0,0,0,0,0,0,0,0,0,0,,,,,,0.0,,,,,,,
743724,1745469340689,,,,,,,,,,,,,,,,,,,,,,,,,,,,,,,,,,0,0,0,0,0,0,0,0,0,0,0,0,0,0,0,0,,,,,,,,,,,,,
743744,1745469340709,0.0,27,,-0.01,-0.04,0.94,2,-1,-0,0.94,1.03,92,3356,13.6,4.11,,13.86,1.13,89.8,,32.2,5,,,,,,,,,,,,0,0,0,0,0,0,0,0,0,0,0,0,0,0,0,0,,,,,,0.0,,,,,,,
743764,1745469340729,,,,,,,,,,,,,,,,,,,,,,,,,,,,,,,,,,0,0,0,0,0,0,0,0,0,0,0,0,0,0,0,0,,,,,,,,,,,,,
743784,1745469340749,0.0,27,,-0.0,-0.09,0.99,-1,-1,-0,0.99,1.03,97,3487,13.4,4.07,,13.86,1.13,89.8,,32.2,5,9,0,10,10,0.0,27.0,0.0,0.0,2.28,,,0,0,0,0,0,0,0,0,0,0,0,0,0,0,0,0,,1,,,,0.0,38.991055,-76.940666,15.34,32.7,24,2,1.0
743804,1745469340769,,,,,,,,,,,,,,,,,,,,,,,,,,,,,,,,,,0,0,0,0,0,0,0,0,0,0,0,0,0,0,0,0,,,,,,,,,,,,,
743824,1745469340789,0.0,34,,0.04,0.07,0.95,1,-1,-0,0.95,1.03,92,3487,13.4,4.07,,13.76,1.15,89.8,,34.1,5,,,,,,,,,,,,0,0,0,0,0,0,0,0,0,0,0,0,0,0,0,0,,,,,,0.0,,,,,,,
743844,1745469340809,,,,,,,,,,,,,,,,,,,,,,,,,,,,,,,,,,0,0,0,0,0,0,0,0,0,0,0,0,0,0,0,0,,,,,,,,,,,,,
743864,1745469340829,0.0,41,,0.0,-0.01,1.03,-2,-1,-0,1.03,1.03,100,3304,13.3,4.08,,13.87,1.119,89.8,,34.1,5,,,,,,,,,,,,0,0,0,0,0,0,0,0,0,0,0,0,0,0,0,0,,,,,,0.0,,,,,,,
743884,1745469340849,,,,,,,,,,,,,,,,,,,,,,,11,0,10,10,0.0,6.0,0.0,0.0,2.28,,,0,0,0,0,0,0,0,0,0,0,0,0,0,0,0,0,,0,,,,,38.991058,-76.940666,15.9,32.7,24,2,1.0
743904,1745469340869,0.0,20,,-0.02,0.04,0.95,1,-1,-1,0.95,1.03,93,3270,13.4,4.09,,13.86,1.055,89.8,,34.1,5,,,,,,,,,,,,0,0,0,0,0,0,0,0,0,0,0,0,0,0,0,0,,,,,,0.0,,,,,,,
743924,1745469340889,,,,,,,,,,,,,,,,,,,,,,,,,,,,,,,,,,0,0,0,0,0,0,0,0,0,0,0,0,0,0,0,0,,,,,,,,,,,,,
743944,1745469340909,0.0,13,,-0.02,-0.03,0.99,-1,-1,-0,0.99,1.03,96,3478,13.3,4.07,,13.82,0.992,89.8,,32.8,5,,,,,,,,,,,,0,0,0,0,0,0,0,0,0,0,0,0,0,0,0,0,,,,,,0.0,,,,,,,
743964,1745469340929,,,,,,,,,,,,,,,,,,,,,,,,,,,,,,,,,,0,0,0,0,0,0,0,0,0,0,0,0,0,0,0,0,,,,,,,,,,,,,
743984,1745469340949,0.0,17,,0.01,0.04,1.01,-0,-1,0,1.01,1.03,98,3567,13.6,4.05,,13.82,0.992,89.8,,32.8,5,10,0,10,11,0.0,19.0,0.0,0.0,2.27,,,0,0,0,0,0,0,0,0,0,0,0,0,0,0,0,0,,0,,,,0.0,38.991062,-76.940666,16.15,32.7,24,2,1.0
744004,1745469340969,,,,,,,,,,,,,,,,,,,,,,,,,,,,,,,,,,0,0,0,0,0,0,0,0,0,0,0,0,0,0,0,0,,,,,,,,,,,,,
744024,1745469340989,0.0,13,,-0.03,0.08,0.94,2,-1,-0,0.94,1.03,92,3567,13.6,4.05,,13.76,0.96,89.8,,33.9,5,,,,,,,,,,,,0,0,0,0,0,0,0,0,0,0,0,0,0,0,0,0,,,,,,0.0,,,,,,,
744044,1745469340999,,,,,,,,,,,,,,,,,,,,,,,,,,,,,,,,,,0,0,0,0,0,0,0,0,0,0,0,0,0,0,0,0,,,,,,,,,,,,,
744064,1745469341019,0.0,37,,-0.0,0.03,1.02,-1,-1,0,1.02,1.03,99,3402,13.8,4.06,,13.82,0.944,89.8,,33.9,5,,,,,,,,,,,,0,0,0,0,0,0,0,0,0,0,0,0,0,0,0,0,,,,,,0.0,,,,,,,
744084,1745469341039,,,,,,,,,,,,,,,,,,,,,,,10,0,10,10,0.0,33.0,0.0,0.0,2.27,,,0,0,0,0,0,0,0,0,0,0,0,0,0,0,0,0,,1,,,,,38.991066,-76.940666,16.19,32.7,24,2,1.0
744104,1745469341059,0.0,27,,-0.03,0.09,0.95,2,-1,-0,0.95,1.03,93,3416,13.8,4.08,,13.75,0.931,89.8,,33.9,5,,,,,,,,,,,,0,0,0,0,0,0,0,0,0,0,0,0,0,0,0,0,,,,,,0.0,,,,,,,
744124,1745469341091,,,,,,,,,,,,,,,,,,,,,,,,,,,,,,,,,,0,0,0,0,0,0,0,0,0,0,0,0,0,0,0,0,,,,,,,,,,,,,
744144,1745469341111,0.0,24,,-0.05,0.01,1.0,-1,-0,-0,1.0,1.03,97,3434,13.8,4.08,,13.79,0.989,89.8,,33.1,5,,,,,,,,,,,,0,0,0,0,0,0,0,0,0,0,0,0,0,0,0,0,,,,,,0.0,,,,,,,
744164,1745469341131,,,,,,,,,,,,,,,,,,,,,,,,,,,,,,,,,,0,0,0,0,0,0,0,0,0,0,0,0,0,0,0,0,,,,,,,,,,,,,
744184,1745469341151,0.0,20,,-0.03,0.06,1.0,-0,-1,0,1.0,1.03,98,3434,13.8,4.08,,13.79,0.989,89.8,,33.1,5,10,0,10,11,0.0,244.0,0.0,0.0,2.27,,,0,0,0,0,0,0,0,0,0,0,0,0,0,0,0,0,,0,,,,0.0,38.99107,-76.940666,16.39,32.7,24,2,1.0
744204,1745469341171,,,,,,,,,,,,,,,,,,,,,,,,,,,,,,,,,,0,0,0,0,0,0,0,0,0,0,0,0,0,0,0,0,,,,,,,,,,,,,
744224,1745469341191,0.0,24,,-0.04,0.09,0.97,2,-0,-0,0.97,1.03,95,3536,13.8,4.07,,13.73,1.057,89.8,,34.3,5,,,,,,,,,,,,0,0,0,0,0,0,0,0,0,0,0,0,0,0,0,0,,,,,,0.0,,,,,,,
744244,1745469341205,,,,,,,,,,,,,,,,,,,,,,,,,,,,,,,,,,0,0,0,0,0,0,0,0,0,0,0,0,0,0,0,0,,,,,,,,,,,,,
744264,1745469341225,0.0,20,,-0.05,0.03,1.01,-2,-0,-0,1.01,1.03,98,3527,13.6,4.07,,13.76,1.082,89.8,,34.3,5,,,,,,,,,,,,0,0,0,0,0,0,0,0,0,0,0,0,0,0,0,0,,,,,,0.0,,,,,,,
744284,1745469341245,,,,,,,,,,,,,,,,,,,,,,,10,0,10,11,0.0,13.0,0.0,0.0,2.28,,,0,0,0,0,0,0,0,0,0,0,0,0,0,0,0,0,,1,,,,,38.991077,-76.940666,16.18,32.7,24,2,1.0
744304,1745469341265,0.0,10,,-0.03,0.16,1.0,1,-0,0,1.01,1.03,99,3411,13.3,4.08,,13.76,1.102,89.8,,34.3,5,,,,,,,,,,,,0,0,0,0,0,0,0,0,0,0,0,0,0,0,0,0,,,,,,0.0,,,,,,,
744324,1745469341291,,,,,,,,,,,,,,,,,,,,,,,,,,,,,,,,,,0,0,0,0,0,0,0,0,0,0,0,0,0,0,0,0,,,,,,,,,,,,,
744344,1745469341311,0.0,13,,-0.07,0.18,0.99,1,-0,-0,1.01,1.03,99,3478,13.3,4.07,,13.75,1.115,89.8,,33.9,5,,,,,,,,,,,,0,0,0,0,0,0,0,0,0,0,0,0,0,0,0,0,,,,,,0.0,,,,,,,
744364,1745469341331,,,,,,,,,,,,,,,,,,,,,,,,,,,,,,,,,,0,0,0,0,0,0,0,0,0,0,0,0,0,0,0,0,,,,,,,,,,,,,
744384,1745469341351,0.0,7,13.75,-0.04,0.12,1.05,-1,0,0,1.06,1.06,100,3433,13.3,4.06,15,13.75,1.115,89.8,171,33.9,5,10,0,11,10,0.0,250.0,0.0,0.0,2.28,0,1.0,0,0,0,0,0,0,0,0,0,0,0,0,0,0,0,0,0,0,1.0,0,-0,0.0,38.991077,-76.940666,16.33,32.7,24,2,1.0
744404,1745469341371,,,,,,,,,,,,,,,,,,,,,,,,,,,,,,,,,,0,0,0,0,0,0,0,0,0,0,0,0,0,0,0,0,,,,,,,,,,,,,
744424,1745469341391,0.0,20,,-0.05,0.15,1.0,2,-0,-0,1.01,1.06,95,3433,13.3,4.06,,13.79,1.109,89.8,,33.6,5,,,,,,,,,,,,0,0,0,0,0,0,0,0,0,0,0,0,0,0,0,0,,,,,,0.0,,,,,,,
744444,1745469341411,,,,,,,,,,,,,,,,,,,,,,,,,,,,,,,,,,0,0,0,0,0,0,0,0,0,0,0,0,0,0,0,0,,,,,,,,,,,,,
744464,1745469341431,0.0,30,,-0.07,0.05,1.01,-1,0,0,1.02,1.06,96,3486,13.3,4.06,,13.76,1.108,89.8,,33.6,5,,,,,,,,,,,,0,0,0,0,0,0,0,0,0,0,0,0,0,0,0,0,,,,,,0.0,,,,,,,
744484,1745469341451,,,,,,,,,,,,,,,,,,,,,,,11,0,11,10,0.0,13.0,0.0,0.0,2.27,,,0,0,0,0,0,0,0,0,0,0,0,0,0,0,0,0,,1,,,,,38.991081,-76.940666,16.25,32.7,24,2,1.0
744504,1745469341471,0.0,7,,-0.04,0.11,1.04,1,-0,1,1.05,1.06,99,3428,13.5,4.06,,13.77,1.095,89.8,,33.6,5,,,,,,,,,,,,0,0,0,0,0,0,0,0,0,0,0,0,0,0,0,0,,,,,,0.0,,,,,,,
744524,1745469341491,,,,,,,,,,,,,,,,,,,,,,,,,,,,,,,,,,0,0,0,0,0,0,0,0,0,0,0,0,0,0,0,0,,,,,,,,,,,,,
744544,1745469341511,0.0,24,,-0.09,0.09,0.98,0,-0,0,0.99,1.06,93,3441,13.7,4.06,,13.76,1.088,89.8,,33.7,5,,,,,,,,,,,,0,0,0,0,0,0,0,0,0,0,0,0,0,0,0,0,,,,,,0.0,,,,,,,
744564,1745469341531,,,,,,,,,,,,,,,,,,,,,,,,,,,,,,,,,,0,0,0,0,0,0,0,0,0,0,0,0,0,0,0,0,,,,,,,,,,,,,
744584,1745469341551,0.0,13,,-0.06,0.02,1.02,-2,-0,0,1.02,1.06,96,3543,13.3,4.05,,13.76,1.088,89.8,,33.7,5,10,0,10,11,0.0,13.0,0.0,0.0,2.27,,,0,0,0,0,0,0,0,0,0,0,0,0,0,0,0,0,,0,,,,0.0,38.991089,-76.940666,16.41,32.7,24,2,1.0
744604,1745469341571,,,,,,,,,,,,,,,,,,,,,,,,,,,,,,,,,,0,0,0,0,0,0,0,0,0,0,0,0,0,0,0,0,,,,,,,,,,,,,
744624,1745469341591,0.0,10,,-0.03,0.12,1.04,-1,0,1,1.05,1.06,99,3543,13.3,4.05,,13.67,1.138,89.8,,34.8,5,,,,,,,,,,,,0,0,0,0,0,0,0,0,0,0,0,0,0,0,0,0,,,,,,0.0,,,,,,,
744644,1745469341610,,,,,,,,,,,,,,,,,,,,,,,,,,,,,,,,,,0,0,0,0,0,0,0,0,0,0,0,0,0,0,0,0,,,,,,,,,,,,,
744664,1745469341630,0.0,17,,-0.01,0.13,1.03,1,0,0,1.04,1.06,98,3647,11.7,4.0,,13.6,1.124,89.8,,34.8,5,,,,,,,,,,,,0,0,0,0,0,0,0,0,0,0,0,0,0,0,0,0,,,,,,0.0,,,,,,,
744684,1745469341650,,,,,,,,,,,,,,,,,,,,,,,11,0,11,11,0.0,33.0,0.0,0.0,2.26,,,0,0,0,0,0,0,0,0,0,0,0,0,0,0,0,0,,1,,,,,38.991093,-76.940666,16.29,32.7,24,2,1.0
744704,1745469341670,0.0,20,,-0.04,0.1,1.0,0,-0,-0,1.01,1.06,95,3489,10.3,3.96,,13.52,1.045,89.8,,34.8,5,,,,,,,,,,,,0,0,0,0,0,0,0,0,0,0,0,0,0,0,0,0,,,,,,0.0,,,,,,,
744724,1745469341690,,,,,,,,,,,,,,,,,,,,,,,,,,,,,,,,,,0,0,0,0,0,0,0,0,0,0,0,0,0,0,0,0,,,,,,,,,,,,,
744744,1745469341708,0.0,24,,-0.04,0.06,1.05,-1,-1,0,1.05,1.06,99,3424,9.1,3.93,,13.55,0.993,89.8,,34.5,5,,,,,,,,,,,,0,0,0,0,0,0,0,0,0,0,0,0,0,0,0,0,,,,,,0.0,,,,,,,
744764,1745469341728,,,,,,,,,,,,,,,,,,,,,,,,,,,,,,,,,,0,0,0,0,0,0,0,0,0,0,0,0,0,0,0,0,,,,,,,,,,,,,
744784,1745469341748,0.0,24,,-0.06,0.07,0.98,1,-1,-0,0.98,1.06,93,3440,9.6,3.95,,13.55,0.993,89.8,,34.5,5,11,0,11,11,0.0,32.0,0.0,0.0,2.28,,,0,0,0,0,0,0,0,0,0,0,0,0,0,0,0,0,,0,,,,0.0,38.991096,-76.940666,16.84,32.7,24,2,1.0
744804,1745469341768,,,,,,,,,,,,,,,,,,,,,,,,,,,,,,,,,,0,0,0,0,0,0,0,0,0,0,0,0,0,0,0,0,,,,,,,,,,,,,
744824,1745469341788,0.0,20,,-0.07,-0.03,1.03,-2,-0,0,1.03,1.06,97,3440,9.6,3.95,,13.49,0.983,89.8,,33.6,5,,,,,,,,,,,,0,0,0,0,0,0,0,0,0,0,0,0,0,0,0,0,,,,,,0.0,,,,,,,
744844,1745469341810,,,,,,,,,,,,,,,,,,,,,,,,,,,,,,,,,,0,0,0,0,0,0,0,0,0,0,0,0,0,0,0,0,,,,,,,,,,,,,
744864,1745469341830,0.0,20,,-0.05,0.07,1.01,1,-0,0,1.02,1.06,96,3451,9.5,3.94,,13.48,0.994,89.8,,33.6,5,,,,,,,,,,,,0,0,0,0,0,0,0,0,0,0,0,0,0,0,0,0,,,,,,0.0,,,,,,,
744884,1745469341850,,,,,,,,,,,,,,,,,,,,,,,11,0,11,10,0.0,18.0,0.0,0.0,2.28,,,0,0,0,0,0,0,0,0,0,0,0,0,0,0,0,0,,1,,,,,38.991096,-76.940666,17.17,32.7,24,2,1.0
744904,1745469341870,0.0,10,,-0.09,0.09,0.99,0,-1,0,1.0,1.06,95,3478,9.6,3.93,,13.49,1.0,89.8,,33.6,5,,,,,,,,,,,,0,0,0,0,0,0,0,0,0,0,0,0,0,0,0,0,,,,,,0.0,,,,,,,
744924,1745469341890,,,,,,,,,,,,,,,,,,,,,,,,,,,,,,,,,,0,0,0,0,0,0,0,0,0,0,0,0,0,0,0,0,,,,,,,,,,,,,
744944,1745469341910,0.0,7,,-0.08,0.08,1.04,-2,-1,1,1.04,1.04,100,3438,9.6,3.93,,13.49,1.027,89.8,,33.8,5,,,,,,,,,,,,0,0,0,0,0,0,0,0,0,0,0,0,0,0,0,0,,,,,,0.0,,,,,,,
744964,1745469341930,,,,,,,,,,,,,,,,,,,,,,,,,,,,,,,,,,0,0,0,0,0,0,0,0,0,0,0,0,0,0,0,0,,,,,,,,,,,,,
744984,1745469341950,0.0,13,,-0.08,0.14,1.01,1,-1,0,1.03,1.04,98,3458,9.9,3.93,,13.49,1.027,88.0,,33.8,5,11,0,10,10,0.0,38.0,0.0,0.0,2.27,,,0,0,0,0,0,0,0,0,0,0,0,0,0,0,0,0,,1,,,,0.0,38.991104,-76.940666,16.71,32.7,24,2,1.0
745004,1745469341970,,,,,,,,,,,,,,,,,,,,,,,,,,,,,,,,,,0,0,0,0,0,0,0,0,0,0,0,0,0,0,0,0,,,,,,,,,,,,,
745024,1745469341990,0.0,-0,,-0.11,0.02,1.02,-1,-0,-0,1.02,1.04,98,3458,9.9,3.93,,13.51,1.05,88.0,,33.8,5,,,,,,,,,,,,0,0,0,0,0,0,0,0,0,0,0,0,0,0,0,0,,,,,,0.0,,,,,,,
745044,1745469342000,,,,,,,,,,,,,,,,,,,,,,,,,,,,,,,,,,0,0,0,0,0,0,0,0,0,0,0,0,0,0,0,0,,,,,,,,,,,,,
745064,1745469342020,0.0,20,,-0.08,0.05,1.03,1,-1,0,1.04,1.04,99,3430,10.0,3.93,,13.47,1.069,88.0,,33.8,5,,,,,,,,,,,,0,0,0,0,0,0,0,0,0,0,0,0,0,0,0,0,,,,,,0.0,,,,,,,
745084,1745469342040,,,,,,,,,,,,,,,,,,,,,,,10,0,10,10,0.0,53.0,0.0,0.0,2.27,,,0,0,0,0,0,0,0,0,0,0,0,0,0,0,0,0,,1,,,,,38.991108,-76.940666,16.47,32.7,24,2,1.0
745104,1745469342060,0.13,17,,-0.13,0.04,1.01,-0,-1,-0,1.02,1.04,98,3416,10.0,3.94,,13.51,1.071,88.0,,33.8,5,,,,,,,,,,,,0,0,0,0,0,0,0,0,0,0,0,0,0,0,0,0,,,,,,0.0,,,,,,,
745124,1745469342080,,,,,,,,,,,,,,,,,,,,,,,,,,,,,,,,,,0,0,0,0,0,0,0,0,0,0,0,0,0,0,0,0,,,,,,,,,,,,,
745144,1745469342102,1.38,17,,-0.09,0.02,1.03,-0,-1,0,1.03,1.04,99,3422,10.0,3.93,,13.52,1.073,88.0,,33.1,5,,,,,,,,,,,,0,0,0,0,0,0,0,0,0,0,0,0,0,0,0,0,,,,,,0.0,,,,,,,
745164,1745469342122,,,,,,,,,,,,,,,,,,,,,,,,,,,,,,,,,,0,0,0,0,0,0,0,0,0,0,0,0,0,0,0,0,,,,,,,,,,,,,
745184,1745469342142,2.01,20,,-0.13,0.06,0.97,1,-1,-0,0.98,1.04,94,3415,10.0,3.94,,13.52,1.073,88.0,,33.1,5,10,0,10,10,0.0,0.0,0.0,0.0,2.27,,,0,0,0,0,0,0,0,0,0,0,0,0,0,0,0,0,,1,,,,0.0,38.991112,-76.940666,16.36,32.7,24,2,1.0
745204,1745469342162,,,,,,,,,,,,,,,,,,,,,,,,,,,,,,,,,,0,0,0,0,0,0,0,0,0,0,0,0,0,0,0,0,,,,,,,,,,,,,
745224,1745469342182,3.27,3,,-0.08,0.01,1.04,-2,-1,0,1.05,1.05,100,3415,10.0,3.94,,13.49,1.067,88.0,,33.3,5,,,,,,,,,,,,0,0,0,0,0,0,0,0,0,0,0,0,0,0,0,0,,,,,,0.0,,,,,,,
745244,1745469342209,,,,,,,,,,,,,,,,,,,,,,,,,,,,,,,,,,0,0,0,0,0,0,0,0,0,0,0,0,0,0,0,0,,,,,,,,,,,,,
745264,1745469342229,4.52,13,,-0.09,0.04,0.97,1,-1,-0,0.98,1.05,93,3397,9.7,3.95,,13.48,1.062,88.0,,33.3,5,,,,,,,,,,,,0,0,0,0,0,0,0,0,0,0,0,0,0,0,0,0,,,,,,0.0,,,,,,,
745284,1745469342249,,,,,,,,,,,,,,,,,,,,,,,10,0,10,10,0.0,0.0,0.0,0.0,2.28,,,0,0,0,0,0,0,0,0,0,0,0,0,0,0,0,0,,1,,,,,38.991116,-76.940666,15.65,32.7,24,2,1.0
745304,1745469342269,7.67,10,,-0.07,0.09,0.94,0,-1,0,0.95,1.05,91,3228,9.5,3.96,,13.53,1.06,88.0,,33.3,5,,,,,,,,,,,,0,0,0,0,0,0,0,0,0,0,0,0,0,0,0,0,,,,,,0.0,,,,,,,
745324,1745469342289,,,,,,,,,,,,,,,,,,,,,,,,,,,,,,,,,,0,0,0,0,0,0,0,0,0,0,0,0,0,0,0,0,,,,,,,,,,,,,
745344,1745469342310,9.55,3,,-0.06,0.02,1.01,-2,-1,0,1.01,1.05,97,3177,9.5,3.95,,13.63,1.066,88.0,,31.4,5,,,,,,,,,,,,0,0,0,0,0,0,0,0,0,0,0,0,0,0,0,0,,,,,,0.0,,,,,,,
745364,1745469342330,,,,,,,,,,,,,,,,,,,,,,,,,,,,,,,,,,0,0,0,0,0,0,0,0,0,0,0,0,0,0,0,0,,,,,,,,,,,,,
745384,1745469342350,10.81,10,13.76,-0.11,-0.05,1.07,-3,-1,-0,1.07,1.07,100,3186,9.5,3.95,15,13.63,1.066,88.0,171,31.4,5,10,0,10,10,0.0,229.0,0.0,0.0,2.28,0,1.0,0,0,0,0,0,0,0,0,0,0,0,0,0,0,0,0,0,0,1.0,0,-0,0.0,38.991119,-76.940666,15.64,32.7,24,2,1.0
745404,1745469342370,,,,,,,,,,,,,,,,,,,,,,,,,,,,,,,,,,0,0,0,0,0,0,0,0,0,0,0,0,0,0,0,0,,,,,,,,,,,,,
745424,1745469342390,10.18,13,,-0.15,-0.02,1.01,0,-1,-1,1.02,1.07,95,3186,9.5,3.95,,13.56,1.065,88.0,,30.5,5,,,,,,,,,,,,0,0,0,0,0,0,0,0,0,0,0,0,0,0,0,0,,,,,,0.0,,,,,,,
745444,1745469342410,,,,,,,,,,,,,,,,,,,,,,,,,,,,,,,,,,0,0,0,0,0,0,0,0,0,0,0,0,0,0,0,0,,,,,,,,,,,,,
745464,1745469342430,8.92,27,,-0.1,0.06,0.97,-0,-1,-0,0.98,1.07,91,3192,9.6,3.95,,13.63,1.054,88.0,,30.5,5,,,,,,,,,,,,0,0,0,0,0,0,0,0,0,0,0,0,0,0,0,0,,,,,,0.0,,,,,,,
745484,1745469342450,,,,,,,,,,,,,,,,,,,,,,,10,0,9,9,0.0,51.0,0.0,0.0,2.27,,,0,0,0,0,0,0,0,0,0,0,0,0,0,0,0,0,,1,,,,,38.991123,-76.940666,15.5,32.7,24,2,1.0
745504,1745469342470,7.67,17,,-0.1,-0.05,1.05,-2,-0,-0,1.06,1.07,98,3307,9.8,3.95,,13.59,1.068,88.0,,30.5,5,,,,,,,,,,,,0,0,0,0,0,0,0,0,0,0,0,0,0,0,0,0,,,,,,0.0,,,,,,,
745524,1745469342490,,,,,,,,,,,,,,,,,,,,,,,,,,,,,,,,,,0,0,0,0,0,0,0,0,0,0,0,0,0,0,0,0,,,,,,,,,,,,,
745544,1745469342509,9.55,20,,-0.14,-0.03,1.01,-0,-1,-1,1.02,1.07,95,3248,10.0,3.95,,13.57,1.087,88.0,,31.4,5,,,,,,,,,,,,0,0,0,0,0,0,0,0,0,0,0,0,0,0,0,0,,,,,,0.0,,,,,,,
745564,1745469342529,,,,,,,,,,,,,,,,,,,,,,,,,,,,,,,,,,0,0,0,0,0,0,0,0,0,0,0,0,0,0,0,0,,,,,,,,,,,,,
745584,1745469342549,10.18,7,,-0.13,-0.0,0.94,1,-1,-1,0.95,1.07,89,3039,9.9,3.95,,13.57,1.087,88.0,,31.4,5,10,0,9,10,0.0,0.0,0.0,0.0,2.27,,,0,0,0,0,0,0,0,0,0,0,0,0,0,0,0,0,,1,,,,0.0,38.991127,-76.940666,15.0,32.7,24,2,1.0
745604,1745469342569,,,,,,,,,,,,,,,,,,,,,,,,,,,,,,,,,,0,0,0,0,0,0,0,0,0,0,0,0,0,0,0,0,,,,,,,,,,,,,
745624,1745469342589,11.44,-0,,-0.09,0.05,0.88,2,-1,-0,0.89,1.07,83,3039,9.9,3.95,,13.68,1.086,88.0,,30.1,5,,,,,,,,,,,,0,0,0,0,0,0,0,0,0,0,0,0,0,0,0,0,,,,,,0.0,,,,,,,
745644,1745469342609,,,,,,,,,,,,,,,,,,,,,,,,,,,,,,,,,,0,0,0,0,0,0,0,0,0,0,0,0,0,0,0,0,,,,,,,,,,,,,
745664,1745469342629,11.44,13,,-0.07,0.06,0.92,-1,-1,0,0.93,1.07,86,3077,10.0,3.95,,13.69,1.084,88.0,,30.1,5,,,,,,,,,,,,0,0,0,0,0,0,0,0,0,0,0,0,0,0,0,0,,,,,,0.0,,,,,,,
745684,1745469342649,,,,,,,,,,,,,,,,,,,,,,,10,0,9,10,0.0,208.0,0.0,0.0,2.27,,,0,0,0,0,0,0,0,0,0,0,0,0,0,0,0,0,,0,,,,,38.991131,-76.940666,14.85,32.7,24,2,1.0
745704,1745469342669,11.44,-0,,-0.07,-0.01,1.0,-3,-1,0,1.0,1.07,93,3194,9.9,3.96,,13.63,1.075,88.0,,30.1,5,,,,,,,,,,,,0,0,0,0,0,0,0,0,0,0,0,0,0,0,0,0,,,,,,0.0,,,,,,,
745724,1745469342691,,,,,,,,,,,,,,,,,,,,,,,,,,,,,,,,,,0,0,0,0,0,0,0,0,0,0,0,0,0,0,0,0,,,,,,,,,,,,,
745744,1745469342711,9.55,24,,-0.11,-0.04,1.01,-2,-0,-0,1.02,1.07,95,3135,9.7,3.95,,13.61,1.065,88.0,,30.6,5,,,,,,,,,,,,0,0,0,0,0,0,0,0,0,0,0,0,0,0,0,0,,,,,,0.0,,,,,,,
745764,1745469342731,,,,,,,,,,,,,,,,,,,,,,,,,,,,,,,,,,0,0,0,0,0,0,0,0,0,0,0,0,0,0,0,0,,,,,,,,,,,,,
745784,1745469342751,8.92,24,,-0.13,-0.0,0.97,1,-0,-1,0.98,1.07,91,3057,9.4,3.96,,13.61,1.065,88.0,,30.6,5,9,0,9,9,0.0,0.0,0.0,0.0,2.28,,,0,0,0,0,0,0,0,0,0,0,0,0,0,0,0,0,,1,,,,0.0,38.991135,-76.940666,14.83,32.7,24,2,1.0
745804,1745469342771,,,,,,,,,,,,,,,,,,,,,,,,,,,,,,,,,,0,0,0,0,0,0,0,0,0,0,0,0,0,0,0,0,,,,,,,,,,,,,
745824,1745469342791,8.92,13,,-0.13,0.05,0.91,2,-0,-1,0.92,1.07,85,3057,9.4,3.96,,13.67,1.074,88.0,,29.7,5,,,,,,,,,,,,0,0,0,0,0,0,0,0,0,0,0,0,0,0,0,0,,,,,,0.0,,,,,,,
745844,1745469342809,,,,,,,,,,,,,,,,,,,,,,,,,,,,,,,,,,0,0,0,0,0,0,0,0,0,0,0,0,0,0,0,0,,,,,,,,,,,,,
745864,1745469342829,9.55,17,,-0.13,0.1,0.84,3,-0,-1,0.85,1.07,79,3025,9.4,3.96,,13.71,1.079,88.0,,29.7,5,,,,,,,,,,,,0,0,0,0,0,0,0,0,0,0,0,0,0,0,0,0,,,,,,0.0,,,,,,,
745884,1745469342849,,,,,,,,,,,,,,,,,,,,,,,9,0,9,10,0.0,37.0,0.0,0.0,2.28,,,0,0,0,0,0,0,0,0,0,0,0,0,0,0,0,0,,0,,,,,38.991138,-76.940666,14.66,32.7,24,2,1.0
745904,1745469342869,8.3,17,,-0.06,0.15,0.84,2,-0,-0,0.86,1.07,80,3121,9.4,3.97,,13.71,1.092,88.0,,29.7,5,,,,,,,,,,,,0,0,0,0,0,0,0,0,0,0,0,0,0,0,0,0,,,,,,0.0,,,,,,,
745924,1745469342889,,,,,,,,,,,,,,,,,,,,,,,,,,,,,,,,,,0,0,0,0,0,0,0,0,0,0,0,0,0,0,0,0,,,,,,,,,,,,,
745944,1745469342909,4.52,10,,-0.05,0.01,0.9,0,0,-0,0.9,1.07,84,3303,9.6,3.94,,13.67,1.113,88.0,,31.4,5,,,,,,,,,,,,0,0,0,0,0,0,0,0,0,0,0,0,0,0,0,0,,,,,,0.0,,,,,,,
745964,1745469342929,,,,,,,,,,,,,,,,,,,,,,,,,,,,,,,,,,0,0,0,0,0,0,0,0,0,0,0,0,0,0,0,0,,,,,,,,,,,,,
745984,1745469342949,0.0,13,,-0.06,0.03,0.85,3,0,-1,0.86,1.07,80,3141,9.7,3.95,,13.67,1.113,88.0,,31.4,5,10,0,9,9,0.0,7.0,0.0,0.0,2.27,,,0,0,0,0,0,0,0,0,0,0,0,0,0,0,0,0,,0,,,,0.0,38.991142,-76.940674,14.3,32.7,24,2,1.0
746004,1745469342969,,,,,,,,,,,,,,,,,,,,,,,,,,,,,,,,,,0,0,0,0,0,0,0,0,0,0,0,0,0,0,0,0,,,,,,,,,,,,,
746024,1745469342989,0.0,3,,-0.07,0.08,0.8,5,-0,-1,0.81,1.07,75,3141,9.7,3.95,,13.68,1.045,88.0,,29.4,5,,,,,,,,,,,,0,0,0,0,0,0,0,0,0,0,0,0,0,0,0,0,,,,,,0.0,,,,,,,
746044,1745469342999,,,,,,,,,,,,,,,,,,,,,,,,,,,,,,,,,,0,0,0,0,0,0,0,0,0,0,0,0,0,0,0,0,,,,,,,,,,,,,
746064,1745469343019,0.0,24,,-0.06,0.14,0.75,6,-1,-1,0.76,1.07,71,3007,9.1,3.95,,13.73,0.977,88.0,,29.4,5,,,,,,,,,,,,0,0,0,0,0,0,0,0,0,0,0,0,0,0,0,0,,,,,,0.0,,,,,,,
746084,1745469343039,,,,,,,,,,,,,,,,,,,,,,,10,0,9,9,0.0,49.0,0.0,0.0,2.27,,,0,0,0,0,0,0,0,0,0,0,0,0,0,0,0,0,,0,,,,,38.991146,-76.940674,14.97,32.7,24,2,1.0
746104,1745469343059,0.0,17,,-0.03,0.18,0.71,7,-0,-1,0.73,1.07,68,3038,9.5,3.95,,13.76,0.975,88.0,,29.4,5,,,,,,,,,,,,0,0,0,0,0,0,0,0,0,0,0,0,0,0,0,0,,,,,,0.0,,,,,,,
746124,1745469343079,,,,,,,,,,,,,,,,,,,,,,,,,,,,,,,,,,0,0,0,0,0,0,0,0,0,0,0,0,0,0,0,0,,,,,,,,,,,,,
746144,1745469343109,0.0,13,,-0.0,0.17,0.71,5,-0,-0,0.73,1.07,68,3075,9.9,3.96,,13.76,0.969,88.0,,29.7,5,,,,,,,,,,,,0,0,0,0,0,0,0,0,0,0,0,0,0,0,0,0,,,,,,0.0,,,,,,,
746164,1745469343129,,,,,,,,,,,,,,,,,,,,,,,,,,,,,,,,,,0,0,0,0,0,0,0,0,0,0,0,0,0,0,0,0,,,,,,,,,,,,,
746184,1745469343149,0.0,20,,-0.01,0.07,0.82,2,-1,0,0.82,1.07,77,3278,9.7,3.97,,13.76,0.969,88.0,,29.7,5,10,0,10,9,0.0,7.0,0.0,0.0,2.27,,,0,0,0,0,0,0,0,0,0,0,0,0,0,0,0,0,,1,,,,0.0,38.99115,-76.940674,15.24,32.7,24,2,1.0
746204,1745469343169,,,,,,,,,,,,,,,,,,,,,,,,,,,,,,,,,,0,0,0,0,0,0,0,0,0,0,0,0,0,0,0,0,,,,,,,,,,,,,
746224,1745469343189,0.0,20,,-0.05,0.08,0.81,4,-1,-0,0.81,1.07,76,3278,9.7,3.97,,13.6,0.976,88.0,,31.7,5,,,,,,,,,,,,0,0,0,0,0,0,0,0,0,0,0,0,0,0,0,0,,,,,,0.0,,,,,,,
746244,1745469343209,,,,,,,,,,,,,,,,,,,,,,,,,,,,,,,,,,0,0,0,0,0,0,0,0,0,0,0,0,0,0,0,0,,,,,,,,,,,,,
746264,1745469343229,0.0,13,,-0.0,0.07,0.88,2,-0,0,0.88,1.07,82,3307,9.5,3.95,,13.57,1.01,88.0,,31.7,5,,,,,,,,,,,,0,0,0,0,0,0,0,0,0,0,0,0,0,0,0,0,,,,,,0.0,,,,,,,
746284,1745469343249,,,,,,,,,,,,,,,,,,,,,,,10,0,9,10,0.0,21.0,0.0,0.0,2.28,,,0,0,0,0,0,0,0,0,0,0,0,0,0,0,0,0,,1,,,,,38.991154,-76.940674,15.01,32.7,24,2,1.0
746304,1745469343269,0.0,7,,-0.04,0.02,0.92,1,-0,-0,0.92,1.07,86,3273,9.2,3.93,,13.59,1.047,88.0,,31.7,5,,,,,,,,,,,,0,0,0,0,0,0,0,0,0,0,0,0,0,0,0,0,,,,,,0.0,,,,,,,
746324,1745469343291,,,,,,,,,,,,,,,,,,,,,,,,,,,,,,,,,,0,0,0,0,0,0,0,0,0,0,0,0,0,0,0,0,,,,,,,,,,,,,
746344,1745469343311,0.0,7,,-0.08,0.03,0.88,3,-0,-0,0.89,1.07,83,3161,9.2,3.95,,13.61,1.073,88.0,,31.0,5,,,,,,,,,,,,0,0,0,0,0,0,0,0,0,0,0,0,0,0,0,0,,,,,,0.0,,,,,,,
746364,1745469343331,,,,,,,,,,,,,,,,,,,,,,,,,,,,,,,,,,0,0,0,0,0,0,0,0,0,0,0,0,0,0,0,0,,,,,,,,,,,,,
746384,1745469343351,0.0,7,13.82,-0.07,0.11,0.81,6,-1,-1,0.82,1.07,77,3086,9.3,3.95,15,13.61,1.073,88.0,173,31.0,5,10,0,10,10,0.0,7.0,0.0,0.0,2.28,0,1.0,0,0,0,0,0,0,0,0,0,0,0,0,0,0,0,0,0,1,1.0,0,-0,0.0,38.991158,-76.940674,14.46,32.7,24,2,1.0
746404,1745469343371,,,,,,,,,,,,,,,,,,,,,,,,,,,,,,,,,,0,0,0,0,0,0,0,0,0,0,0,0,0,0,0,0,,,,,,,,,,,,,
746424,1745469343391,0.0,17,,-0.02,0.15,0.81,5,-0,-0,0.82,1.07,77,3086,9.3,3.95,,13.63,1.067,88.0,,30.5,5,,,,,,,,,,,,0,0,0,0,0,0,0,0,0,0,0,0,0,0,0,0,,,,,,0.0,,,,,,,
746444,1745469343409,,,,,,,,,,,,,,,,,,,,,,,,,,,,,,,,,,0,0,0,0,0,0,0,0,0,0,0,0,0,0,0,0,,,,,,,,,,,,,
746464,1745469343429,0.0,27,,-0.03,0.08,0.89,2,-0,0,0.89,1.07,83,3179,9.5,3.95,,13.63,1.067,88.0,,30.5,5,,,,,,,,,,,,0,0,0,0,0,0,0,0,0,0,0,0,0,0,0,0,,,,,,0.0,,,,,,,
746484,1745469343449,,,,,,,,,,,,,,,,,,,,,,,10,0,9,10,0.0,0.0,0.0,0.0,2.27,,,0,0,0,0,0,0,0,0,0,0,0,0,0,0,0,0,,1,,,,,38.991161,-76.940674,15.08,32.7,24,2,1.0
746504,1745469343469,0.0,20,,-0.07,0.08,0.84,3,-0,-0,0.85,1.07,79,3280,9.8,3.94,,13.57,1.078,88.0,,30.5,5,,,,,,,,,,,,0,0,0,0,0,0,0,0,0,0,0,0,0,0,0,0,,,,,,0.0,,,,,,,
746524,1745469343489,,,,,,,,,,,,,,,,,,,,,,,,,,,,,,,,,,0,0,0,0,0,0,0,0,0,0,0,0,0,0,0,0,,,,,,,,,,,,,
746544,1745469343510,0.0,17,,-0.05,0.12,0.8,5,-1,0,0.81,1.07,76,3126,9.8,3.94,,13.63,1.082,88.0,,31.0,5,,,,,,,,,,,,0,0,0,0,0,0,0,0,0,0,0,0,0,0,0,0,,,,,,0.0,,,,,,,
746564,1745469343530,,,,,,,,,,,,,,,,,,,,,,,,,,,,,,,,,,0,0,0,0,0,0,0,0,0,0,0,0,0,0,0,0,,,,,,,,,,,,,
746584,1745469343550,0.0,10,,-0.02,0.17,0.84,4,-1,0,0.86,1.07,80,3090,9.8,3.94,,13.63,1.082,88.0,,31.0,5,10,0,10,9,0.0,249.0,0.0,0.0,2.27,,,0,0,0,0,0,0,0,0,0,0,0,0,0,0,0,0,,1,,,,0.0,38.991165,-76.940674,15.07,32.7,24,2,1.0
746604,1745469343570,,,,,,,,,,,,,,,,,,,,,,,,,,,,,,,,,,0,0,0,0,0,0,0,0,0,0,0,0,0,0,0,0,,,,,,,,,,,,,
