"Interval"|"ms"|0|0|1,"Utc"|"ms"|0|0|1,"FrontBP"|"psi"|-5.0|5.0|25,"SteerAng"|"Degrees"|-145|145|25,"Battery"|"Volts"|-5.0|20.0|1,"AccelX"|"G"|-3.0|3.0|25,"AccelY"|"G"|-3.0|3.0|25,"AccelZ"|"G"|-3.0|3.0|25,"Yaw"|"Deg/Sec"|-120|120|25,"Pitch"|"Deg/Sec"|-120|120|25,"Roll"|"Deg/Sec"|-120|120|25,"Gsum"|"G"|0.0|3.0|25,"GsumMax"|"G"|0.0|3.0|25,"GsumPct"|"%"|0|100|25,"RPM"|""|0|10000|25,"TPS"|"%"|0.0|100.0|25,"InjectorPW"|"ms"|0.0|100.0|25,"Baro"|"kPa"|0|105|1,"MAP"|"Psi"|0.0|255.0|25,"Lambda"|""|-2.0|2.0|25,"IAT"|"C"|0.0|200.0|25,"EngineTemp"|"C"|0|200|1,"EOP"|"PSI"|0.0|152.0|25,"EOT"|"F"|0|250|25,"WSFR"|"MPH"|0|150|10,"WSFL"|"MPH"|0|100|10,"WSRR"|"MPH"|0|100|10,"WSRL"|""|0|100|10,"TCSet"|"%"|0.0|100.0|10,"TCSlip"|"%"|0.0|100.0|10,"TCComp"|"deg"|0.0|50.0|10,"TCCut"|"%"|0.0|100.0|10,"Analog8"|""|0.0|5.0|10,"OilTemp"|"F"|0|300|1,"AA_On"|""|0.0|1.0|1,"ThermLF1"|"C"|0|400|50,"ThermLF2"|"C"|0|400|50,"ThermRR1"|"C"|0|400|50,"ThermRR2"|"C"|0|400|50,"ThermLF3"|"C"|0|400|50,"ThermLF4"|"C"|0|400|50,"ThermLF5"|"C"|0|400|50,"ThermLF6"|"C"|0|400|50,"ThermLF7"|"C"|0|400|50,"ThermLF8"|"C"|0|400|50,"ThermRR3"|"C"|0|400|50,"ThermRR4"|"C"|0|400|50,"ThermRR5"|"C"|0|400|50,"ThermRR6"|"C"|0|400|50,"ThermRR7"|"C"|0|400|50,"ThermRR8"|"C"|0|400|50,"AA_LowDrag"|""|0|1|1,"Gear"|""|1|6|10,"AA_On"|""|0.0|1.0|1,"AA_LowDrag"|""|0|1|1,"Fuel_Mix"|""|-10|10|1,"AA_Packages"|""|0.0|1000.0|25,"Latitude"|"Degrees"|-180.0|180.0|10,"Longitude"|"Degrees"|-180.0|180.0|10,"Speed"|"kph"|0.0|150.0|10,"Altitude"|"m"|0.0|4000.0|10,"GPSSats"|""|0|20|10,"GPSQual"|""|0|5|10,"GPSDOP"|""|0.0|20.0|10
1605504,1745470202486,0.0,91,,-0.0,-0.13,0.96,1,-0,-0,0.97,0.97,100,6124,22.0,3.23,,10.82,1.251,88.0,,52.1,5,,,,,,,,,,,,0,0,0,0,0,0,0,0,0,0,0,0,0,0,0,0,,,,,,0.0,,,,,,,
1605524,1745470202506,,,,,,,,,,,,,,,,,,,,,,,,,,,,,,,,,,0,0,0,0,0,0,0,0,0,0,0,0,0,0,0,0,,,,,,,,,,,,,
1605544,1745470202526,0.0,91,,-0.06,-0.11,1.02,1,-0,0,1.02,1.02,100,6140,22.5,4.31,,11.73,1.249,88.0,,52.1,5,,,,,,,,,,,,0,0,0,0,0,0,0,0,0,0,0,0,0,0,0,0,,,,,,0.0,,,,,,,
1605564,1745470202546,,,,,,,,,,,,,,,,,,,,,,,,,,,,,,,,,,0,0,0,0,0,0,0,0,0,0,0,0,0,0,0,0,,,,,,,,,,,,,
1605584,1745470202566,0.0,105,,-0.07,-0.08,1.02,1,-0,0,1.03,1.03,100,6465,22.5,4.74,,11.73,1.249,88.0,,52.4,5,0,0,0,0,0.0,0.0,0.0,0.0,2.27,,,0,0,0,0,0,0,0,0,0,0,0,0,0,0,0,0,,0,,,,0.0,38.99379,-76.938782,0.04,25.5,30,3,0.9
1605604,1745470202586,,,,,,,,,,,,,,,,,,,,,,,,,,,,,,,,,,0,0,0,0,0,0,0,0,0,0,0,0,0,0,0,0,,,,,,,,,,,,,
1605624,1745470202608,0.0,98,,-0.09,-0.07,1.05,1,-0,0,1.05,1.05,100,6465,22.5,4.74,,12.0,1.204,88.0,,52.4,5,,,,,,,,,,,,0,0,0,0,0,0,0,0,0,0,0,0,0,0,0,0,,,,,,0.0,,,,,,,
1605644,1745470202628,,,,,,,,,,,,,,,,,,,,,,,,,,,,,,,,,,0,0,0,0,0,0,0,0,0,0,0,0,0,0,0,0,,,,,,,,,,,,,
1605664,1745470202648,0.0,102,,-0.08,-0.15,1.01,0,-0,0,1.02,1.05,97,6839,18.8,5.42,,11.71,1.1,88.0,,54.4,5,,,,,,,,,,,,0,0,0,0,0,0,0,0,0,0,0,0,0,0,0,0,,,,,,0.0,,,,,,,
1605684,1745470202668,,,,,,,,,,,,,,,,,,,,,,,0,0,0,0,0.0,0.0,0.0,0.0,2.28,,,0,0,0,0,0,0,0,0,0,0,0,0,0,0,0,0,,0,,,,,38.99379,-76.938782,0.05,25.5,30,3,0.9
1605704,1745470202688,0.0,95,,-0.07,-0.09,1.06,0,-0,0,1.06,1.06,100,7727,13.7,4.8,,10.88,1.07,88.0,,54.4,5,,,,,,,,,,,,0,0,0,0,0,0,0,0,0,0,0,0,0,0,0,0,,,,,,0.0,,,,,,,
1605724,1745470202708,,,,,,,,,,,,,,,,,,,,,,,,,,,,,,,,,,0,0,0,0,0,0,0,0,0,0,0,0,0,0,0,0,,,,,,,,,,,,,
1605744,1745470202728,0.0,102,,-0.07,-0.09,1.02,1,-0,0,1.02,1.06,96,8330,7.2,3.33,,9.62,0.856,88.0,,54.4,5,,,,,,,,,,,,0,0,0,0,0,0,0,0,0,0,0,0,0,0,0,0,,,,,,0.0,,,,,,,
1605764,1745470202748,,,,,,,,,,,,,,,,,,,,,,,,,,,,,,,,,,0,0,0,0,0,0,0,0,0,0,0,0,0,0,0,0,,,,,,,,,,,,,
1605784,1745470202768,0.0,88,,-0.05,0.11,1.01,1,-0,1,1.02,1.06,96,9118,3.9,2.18,,9.62,0.856,88.0,,55.9,5,0,0,0,0,0.0,0.0,0.0,0.0,2.28,,,0,0,0,0,0,0,0,0,0,0,0,0,0,0,0,0,,0,,,,0.0,38.99379,-76.938782,0.0,25.5,30,3,0.9
1605804,1745470202788,,,,,,,,,,,,,,,,,,,,,,,,,,,,,,,,,,0,0,0,0,0,0,0,0,0,0,0,0,0,0,0,0,,,,,,,,,,,,,
1605824,1745470202808,0.0,78,,-0.07,-0.02,1.02,2,-0,0,1.02,1.06,96,9118,3.9,2.18,,8.25,0.769,88.0,,55.9,5,,,,,,,,,,,,0,0,0,0,0,0,0,0,0,0,0,0,0,0,0,0,,,,,,0.0,,,,,,,
1605844,1745470202828,,,,,,,,,,,,,,,,,,,,,,,,,,,,,,,,,,0,0,0,0,0,0,0,0,0,0,0,0,0,0,0,0,,,,,,,,,,,,,
1605864,1745470202848,0.0,85,,-0.05,0.02,0.99,1,-0,0,0.99,1.06,93,9621,3.9,1.81,,7.27,0.776,88.0,,55.8,5,,,,,,,,,,,,0,0,0,0,0,0,0,0,0,0,0,0,0,0,0,0,,,,,,0.0,,,,,,,
1605884,1745470202868,,,,,,,,,,,,,,,,,,,,,,,0,0,0,0,0.0,0.0,0.0,0.0,2.27,,,0,0,0,0,0,0,0,0,0,0,0,0,0,0,0,0,,0,,,,,38.99379,-76.938782,0.04,25.5,30,3,0.9
1605904,1745470202888,0.0,81,,-0.05,0.15,0.95,1,-0,-1,0.96,1.06,90,9825,4.2,1.72,,6.59,0.838,88.0,,55.8,5,,,,,,,,,,,,0,0,0,0,0,0,0,0,0,0,0,0,0,0,0,0,,,,,,0.0,,,,,,,
1605924,1745470202908,,,,,,,,,,,,,,,,,,,,,,,,,,,,,,,,,,0,0,0,0,0,0,0,0,0,0,0,0,0,0,0,0,,,,,,,,,,,,,
1605944,1745470202928,0.0,102,,-0.01,0.13,0.92,1,-0,-1,0.92,1.06,87,9840,4.3,1.59,,6.22,0.929,88.0,,55.8,5,,,,,,,,,,,,0,0,0,0,0,0,0,0,0,0,0,0,0,0,0,0,,,,,,0.0,,,,,,,
1605964,1745470202948,,,,,,,,,,,,,,,,,,,,,,,,,,,,,,,,,,0,0,0,0,0,0,0,0,0,0,0,0,0,0,0,0,,,,,,,,,,,,,
1605984,1745470202968,0.0,102,,-0.03,0.08,0.92,0,-0,-0,0.92,1.06,87,9757,3.2,1.4,,6.22,0.929,88.0,,55.9,5,0,0,0,0,0.0,0.0,0.0,0.0,2.27,,,0,0,0,0,0,0,0,0,0,0,0,0,0,0,0,0,,0,,,,0.0,38.99379,-76.938782,0.05,25.5,30,3,0.9
1606004,1745470202988,,,,,,,,,,,,,,,,,,,,,,,,,,,,,,,,,,0,0,0,0,0,0,0,0,0,0,0,0,0,0,0,0,,,,,,,,,,,,,
1606024,1745470203008,0.0,95,,-0.03,-0.09,0.95,0,-0,-1,0.96,1.06,90,9757,3.2,1.4,,5.87,0.992,88.0,,55.9,5,,,,,,,,,,,,0,0,0,0,0,0,0,0,0,0,0,0,0,0,0,0,,,,,,0.0,,,,,,,
1606044,1745470203020,,,,,,,,,,,,,,,,,,,,,,,,,,,,,,,,,,0,0,0,0,0,0,0,0,0,0,0,0,0,0,0,0,,,,,,,,,,,,,
1606064,1745470203040,0.0,95,,0.0,-0.16,0.99,1,-0,-1,1.0,1.06,94,9305,2.4,1.4,,5.38,1.034,88.0,,52.9,5,,,,,,,,,,,,0,0,0,0,0,0,0,0,0,0,0,0,0,0,0,0,,,,,,0.0,,,,,,,
1606084,1745470203060,,,,,,,,,,,,,,,,,,,,,,,0,0,0,0,0.0,0.0,0.0,0.0,2.27,,,0,0,0,0,0,0,0,0,0,0,0,0,0,0,0,0,,0,,,,,38.99379,-76.938782,0.04,25.5,30,3,0.9
1606104,1745470203080,0.0,85,,-0.01,-0.19,1.01,1,-0,-1,1.03,1.06,97,8849,1.0,1.4,,5.31,1.145,88.0,,52.9,5,,,,,,,,,,,,0,0,0,0,0,0,0,0,0,0,0,0,0,0,0,0,,,,,,0.0,,,,,,,
1606124,1745470203108,,,,,,,,,,,,,,,,,,,,,,,,,,,,,,,,,,0,0,0,0,0,0,0,0,0,0,0,0,0,0,0,0,,,,,,,,,,,,,
1606144,1745470203128,0.0,91,,-0.03,-0.16,1.02,0,-0,-1,1.04,1.06,97,8545,0.4,1.4,,5.24,1.248,88.0,,52.9,5,,,,,,,,,,,,0,0,0,0,0,0,0,0,0,0,0,0,0,0,0,0,,,,,,0.0,,,,,,,
1606164,1745470203148,,,,,,,,,,,,,,,,,,,,,,,,,,,,,,,,,,0,0,0,0,0,0,0,0,0,0,0,0,0,0,0,0,,,,,,,,,,,,,
1606184,1745470203168,0.0,88,,-0.03,-0.14,1.03,0,-0,-1,1.04,1.06,98,8225,0.1,1.4,,5.24,1.248,88.0,,53.1,5,0,0,0,0,0.0,0.0,0.0,0.0,2.28,,,0,0,0,0,0,0,0,0,0,0,0,0,0,0,0,0,,0,,,,0.0,38.99379,-76.938782,0.05,25.5,30,3,0.9
1606204,1745470203188,,,,,,,,,,,,,,,,,,,,,,,,,,,,,,,,,,0,0,0,0,0,0,0,0,0,0,0,0,0,0,0,0,,,,,,,,,,,,,
1606224,1745470203206,0.0,85,,-0.05,-0.14,0.99,-0,-1,-1,1.0,1.06,94,8225,0.1,1.4,,5.23,1.249,88.0,,53.1,5,,,,,,,,,,,,0,0,0,0,0,0,0,0,0,0,0,0,0,0,0,0,,,,,,0.0,,,,,,,
1606244,1745470203226,,,,,,,,,,,,,,,,,,,,,,,,,,,,,,,,,,0,0,0,0,0,0,0,0,0,0,0,0,0,0,0,0,,,,,,,,,,,,,
1606264,1745470203246,0.0,98,,-0.04,-0.03,1.05,0,-0,-0,1.05,1.06,99,7936,0.1,1.4,,5.39,1.25,88.0,,52.8,5,,,,,,,,,,,,0,0,0,0,0,0,0,0,0,0,0,0,0,0,0,0,,,,,,0.0,,,,,,,
1606284,1745470203266,,,,,,,,,,,,,,,,,,,,,,,0,0,0,0,0.0,0.0,0.0,0.0,2.28,,,0,0,0,0,0,0,0,0,0,0,0,0,0,0,0,0,,0,,,,,38.99379,-76.938782,0.08,25.5,30,3,0.9
1606304,1745470203286,0.0,91,,-0.03,0.06,1.08,1,-0,-0,1.08,1.08,100,7557,0.1,1.4,,5.54,1.25,88.0,,52.8,5,,,,,,,,,,,,0,0,0,0,0,0,0,0,0,0,0,0,0,0,0,0,,,,,,0.0,,,,,,,
1606324,1745470203308,,,,,,,,,,,,,,,,,,,,,,,,,,,,,,,,,,0,0,0,0,0,0,0,0,0,0,0,0,0,0,0,0,,,,,,,,,,,,,
1606344,1745470203328,0.0,102,,-0.01,-0.01,1.06,1,-0,-0,1.06,1.08,98,7204,0.4,1.4,,5.78,1.251,88.0,,52.8,5,,,,,,,,,,,,0,0,0,0,0,0,0,0,0,0,0,0,0,0,0,0,,,,,,0.0,,,,,,,
1606364,1745470203348,,,,,,,,,,,,,,,,,,,,,,,,,,,,,,,,,,0,0,0,0,0,0,0,0,0,0,0,0,0,0,0,0,,,,,,,,,,,,,
1606384,1745470203368,0.0,98,13.59,-0.02,-0.04,1.03,1,-0,-0,1.03,1.08,95,6783,0.6,1.4,15,5.78,1.251,88.0,169,51.2,5,0,0,0,0,0.0,0.0,0.0,0.0,2.27,0,1.0,0,0,0,0,0,0,0,0,0,0,0,0,0,0,0,0,0,0,1.0,0,-0,0.0,38.99379,-76.938782,0.0,25.5,30,3,0.9
1606404,1745470203388,,,,,,,,,,,,,,,,,,,,,,,,,,,,,,,,,,0,0,0,0,0,0,0,0,0,0,0,0,0,0,0,0,,,,,,,,,,,,,
1606424,1745470203405,0.0,98,,-0.04,-0.04,1.04,0,-0,-0,1.04,1.08,96,6783,0.6,1.4,,6.08,1.251,88.0,,51.2,5,,,,,,,,,,,,0,0,0,0,0,0,0,0,0,0,0,0,0,0,0,0,,,,,,0.0,,,,,,,
1606444,1745470203425,,,,,,,,,,,,,,,,,,,,,,,,,,,,,,,,,,0,0,0,0,0,0,0,0,0,0,0,0,0,0,0,0,,,,,,,,,,,,,
1606464,1745470203445,0.0,95,,0.01,-0.02,0.95,-0,-0,-0,0.95,1.08,88,6418,0.6,1.4,,6.39,1.251,88.0,,51.5,5,,,,,,,,,,,,0,0,0,0,0,0,0,0,0,0,0,0,0,0,0,0,,,,,,0.0,,,,,,,
1606484,1745470203465,,,,,,,,,,,,,,,,,,,,,,,0,0,0,0,0.0,0.0,0.0,0.0,2.27,,,0,0,0,0,0,0,0,0,0,0,0,0,0,0,0,0,,0,,,,,38.99379,-76.938782,0.15,25.5,30,3,0.9
1606504,1745470203485,0.0,74,,0.04,-0.03,0.84,-1,-0,-0,0.84,1.08,78,6019,0.6,1.4,,6.8,1.25,88.0,,51.5,5,,,,,,,,,,,,0,0,0,0,0,0,0,0,0,0,0,0,0,0,0,0,,,,,,0.0,,,,,,,
1606524,1745470203508,,,,,,,,,,,,,,,,,,,,,,,,,,,,,,,,,,0,0,0,0,0,0,0,0,0,0,0,0,0,0,0,0,,,,,,,,,,,,,
1606544,1745470203528,0.0,81,,0.01,0.05,0.91,-1,-0,-0,0.92,1.08,85,5603,0.6,1.4,,7.25,1.249,88.0,,51.5,5,,,,,,,,,,,,0,0,0,0,0,0,0,0,0,0,0,0,0,0,0,0,,,,,,0.0,,,,,,,
1606564,1745470203548,,,,,,,,,,,,,,,,,,,,,,,,,,,,,,,,,,0,0,0,0,0,0,0,0,0,0,0,0,0,0,0,0,,,,,,,,,,,,,
1606584,1745470203568,0.0,95,,-0.0,-0.0,0.87,-1,-0,0,0.87,1.08,81,5258,0.4,1.4,,7.25,1.249,88.0,,50.8,5,0,0,0,0,0.0,0.0,0.0,0.0,2.28,,,0,0,0,0,0,0,0,0,0,0,0,0,0,0,0,0,,0,,,,0.0,38.99379,-76.938782,0.08,25.5,30,3,0.9
1606604,1745470203588,,,,,,,,,,,,,,,,,,,,,,,,,,,,,,,,,,0,0,0,0,0,0,0,0,0,0,0,0,0,0,0,0,,,,,,,,,,,,,
1606624,1745470203607,0.0,95,,-0.01,-0.01,0.87,-2,-1,0,0.87,1.08,80,5258,0.4,1.4,,7.77,1.249,88.0,,50.8,5,,,,,,,,,,,,0,0,0,0,0,0,0,0,0,0,0,0,0,0,0,0,,,,,,0.0,,,,,,,
1606644,1745470203627,,,,,,,,,,,,,,,,,,,,,,,,,,,,,,,,,,0,0,0,0,0,0,0,0,0,0,0,0,0,0,0,0,,,,,,,,,,,,,
1606664,1745470203647,0.0,95,,0.01,-0.04,0.82,-2,-0,-0,0.82,1.08,76,4836,0.1,1.4,,8.19,1.249,88.0,,48.3,5,,,,,,,,,,,,0,0,0,0,0,0,0,0,0,0,0,0,0,0,0,0,,,,,,0.0,,,,,,,
1606684,1745470203667,,,,,,,,,,,,,,,,,,,,,,,0,0,0,0,0.0,0.0,0.0,0.0,2.28,,,0,0,0,0,0,0,0,0,0,0,0,0,0,0,0,0,,0,,,,,38.99379,-76.938782,0.05,25.5,30,3,0.9
1606704,1745470203687,0.0,91,,0.03,-0.12,0.76,-4,-0,-0,0.77,1.08,71,4548,0.1,1.51,,8.57,1.248,88.0,,48.3,5,,,,,,,,,,,,0,0,0,0,0,0,0,0,0,0,0,0,0,0,0,0,,,,,,0.0,,,,,,,
1606724,1745470203707,,,,,,,,,,,,,,,,,,,,,,,,,,,,,,,,,,0,0,0,0,0,0,0,0,0,0,0,0,0,0,0,0,,,,,,,,,,,,,
1606744,1745470203727,0.0,88,,0.01,-0.01,0.89,-2,-0,-0,0.89,1.08,82,4131,0.1,1.57,,9.03,1.25,88.0,,48.3,5,,,,,,,,,,,,0,0,0,0,0,0,0,0,0,0,0,0,0,0,0,0,,,,,,0.0,,,,,,,
1606764,1745470203747,,,,,,,,,,,,,,,,,,,,,,,,,,,,,,,,,,0,0,0,0,0,0,0,0,0,0,0,0,0,0,0,0,,,,,,,,,,,,,
1606784,1745470203767,0.0,81,,0.03,-0.02,0.9,-2,-0,-0,0.9,1.08,83,3798,0.5,1.75,,9.03,1.25,88.0,,40.7,5,0,0,0,0,0.0,0.0,0.0,0.0,2.27,,,0,0,0,0,0,0,0,0,0,0,0,0,0,0,0,0,,0,,,,0.0,38.99379,-76.938782,0.28,25.5,30,3,0.9
1606804,1745470203787,,,,,,,,,,,,,,,,,,,,,,,,,,,,,,,,,,0,0,0,0,0,0,0,0,0,0,0,0,0,0,0,0,,,,,,,,,,,,,
1606824,1745470203807,0.0,85,,-0.01,-0.02,0.86,-1,-0,-0,0.86,1.08,79,3798,0.5,1.75,,9.62,1.251,88.0,,40.7,5,,,,,,,,,,,,0,0,0,0,0,0,0,0,0,0,0,0,0,0,0,0,,,,,,0.0,,,,,,,
1606844,1745470203827,,,,,,,,,,,,,,,,,,,,,,,,,,,,,,,,,,0,0,0,0,0,0,0,0,0,0,0,0,0,0,0,0,,,,,,,,,,,,,
1606864,1745470203847,0.0,85,,0.02,-0.0,0.93,-4,-0,0,0.93,1.08,85,3450,1.5,2.1,,10.3,1.252,88.0,,32.5,5,,,,,,,,,,,,0,0,0,0,0,0,0,0,0,0,0,0,0,0,0,0,,,,,,0.0,,,,,,,
1606884,1745470203867,,,,,,,,,,,,,,,,,,,,,,,0,0,0,0,0.0,0.0,0.0,0.0,2.27,,,0,0,0,0,0,0,0,0,0,0,0,0,0,0,0,0,,0,,,,,38.99379,-76.938782,0.36,25.4,30,3,0.9
1606904,1745470203887,0.0,78,,-0.0,-0.04,1.0,-4,-0,0,1.0,1.08,92,3178,1.9,2.85,,11.0,1.252,88.0,,32.5,5,,,,,,,,,,,,0,0,0,0,0,0,0,0,0,0,0,0,0,0,0,0,,,,,,0.0,,,,,,,
1606924,1745470203907,,,,,,,,,,,,,,,,,,,,,,,,,,,,,,,,,,0,0,0,0,0,0,0,0,0,0,0,0,0,0,0,0,,,,,,,,,,,,,
1606944,1745470203927,0.0,78,,-0.01,-0.06,1.03,-4,-0,0,1.04,1.08,96,2985,2.0,3.17,,11.54,1.251,88.0,,32.5,5,,,,,,,,,,,,0,0,0,0,0,0,0,0,0,0,0,0,0,0,0,0,,,,,,0.0,,,,,,,
1606964,1745470203947,,,,,,,,,,,,,,,,,,,,,,,,,,,,,,,,,,0,0,0,0,0,0,0,0,0,0,0,0,0,0,0,0,,,,,,,,,,,,,
1606984,1745470203967,0.0,98,,-0.01,-0.02,1.04,-4,-0,0,1.04,1.08,96,2878,2.5,3.24,,11.54,1.251,88.0,,27.7,5,0,0,0,0,0.0,0.0,0.0,0.0,2.27,,,0,0,0,0,0,0,0,0,0,0,0,0,0,0,0,0,,0,,,,0.0,38.99379,-76.938782,0.05,25.4,30,3,0.9
1607004,1745470203987,,,,,,,,,,,,,,,,,,,,,,,,,,,,,,,,,,0,0,0,0,0,0,0,0,0,0,0,0,0,0,0,0,,,,,,,,,,,,,
1607024,1745470204007,0.0,91,,-0.01,-0.03,1.02,-3,-0,0,1.03,1.08,95,2878,2.5,3.24,,12.04,1.25,88.0,,27.7,5,,,,,,,,,,,,0,0,0,0,0,0,0,0,0,0,0,0,0,0,0,0,,,,,,0.0,,,,,,,
1607044,1745470204019,,,,,,,,,,,,,,,,,,,,,,,,,,,,,,,,,,0,0,0,0,0,0,0,0,0,0,0,0,0,0,0,0,,,,,,,,,,,,,
1607064,1745470204039,0.0,98,,-0.01,-0.03,1.04,-3,-0,0,1.04,1.08,96,2619,6.0,3.72,,12.73,1.249,88.0,,25.3,5,,,,,,,,,,,,0,0,0,0,0,0,0,0,0,0,0,0,0,0,0,0,,,,,,0.0,,,,,,,
1607084,1745470204059,,,,,,,,,,,,,,,,,,,,,,,0,0,0,0,0.0,0.0,0.0,0.0,2.28,,,0,0,0,0,0,0,0,0,0,0,0,0,0,0,0,0,,0,,,,,38.99379,-76.938782,0.58,25.4,30,3,0.9
1607104,1745470204079,0.0,85,,-0.02,-0.02,1.02,-2,-0,0,1.02,1.08,95,2597,7.6,3.77,,13.25,1.249,88.0,,25.3,5,,,,,,,,,,,,0,0,0,0,0,0,0,0,0,0,0,0,0,0,0,0,,,,,,0.0,,,,,,,
1607124,1745470204107,,,,,,,,,,,,,,,,,,,,,,,,,,,,,,,,,,0,0,0,0,0,0,0,0,0,0,0,0,0,0,0,0,,,,,,,,,,,,,
1607144,1745470204127,0.0,78,,-0.02,-0.02,1.03,-3,-0,0,1.03,1.08,95,2552,8.3,3.82,,13.61,1.25,88.0,,25.3,5,,,,,,,,,,,,0,0,0,0,0,0,0,0,0,0,0,0,0,0,0,0,,,,,,0.0,,,,,,,
1607164,1745470204147,,,,,,,,,,,,,,,,,,,,,,,,,,,,,,,,,,0,0,0,0,0,0,0,0,0,0,0,0,0,0,0,0,,,,,,,,,,,,,
1607184,1745470204167,0.0,78,,-0.04,-0.01,1.03,-2,-0,0,1.03,1.08,95,2583,8.6,3.83,,13.61,1.25,88.0,,25.0,5,0,0,0,0,0.0,0.0,0.0,0.0,2.27,,,0,0,0,0,0,0,0,0,0,0,0,0,0,0,0,0,,0,,,,0.0,38.99379,-76.938782,0.26,25.4,30,3,0.9
1607204,1745470204187,,,,,,,,,,,,,,,,,,,,,,,,,,,,,,,,,,0,0,0,0,0,0,0,0,0,0,0,0,0,0,0,0,,,,,,,,,,,,,
1607224,1745470204207,0.0,74,,-0.03,-0.01,1.01,-2,-0,0,1.01,1.08,93,2583,8.6,3.83,,13.8,1.25,88.0,,25.0,5,,,,,,,,,,,,0,0,0,0,0,0,0,0,0,0,0,0,0,0,0,0,,,,,,0.0,,,,,,,
1607244,1745470204227,,,,,,,,,,,,,,,,,,,,,,,,,,,,,,,,,,0,0,0,0,0,0,0,0,0,0,0,0,0,0,0,0,,,,,,,,,,,,,
1607264,1745470204247,0.0,81,,-0.04,-0.01,1.01,-1,-0,0,1.01,1.08,93,2542,8.8,3.84,,13.86,1.252,88.0,,24.6,5,,,,,,,,,,,,0,0,0,0,0,0,0,0,0,0,0,0,0,0,0,0,,,,,,0.0,,,,,,,
1607284,1745470204267,,,,,,,,,,,,,,,,,,,,,,,0,0,0,0,0.0,0.0,0.0,0.0,2.27,,,0,0,0,0,0,0,0,0,0,0,0,0,0,0,0,0,,0,,,,,38.99379,-76.938782,0.04,25.4,30,3,0.9
1607304,1745470204287,0.0,81,,-0.05,-0.01,1.01,-1,-0,0,1.02,1.08,94,2687,9.0,3.85,,13.84,1.252,89.8,,24.6,5,,,,,,,,,,,,0,0,0,0,0,0,0,0,0,0,0,0,0,0,0,0,,,,,,0.0,,,,,,,
1607324,1745470204308,,,,,,,,,,,,,,,,,,,,,,,,,,,,,,,,,,0,0,0,0,0,0,0,0,0,0,0,0,0,0,0,0,,,,,,,,,,,,,
1607344,1745470204328,0.0,81,,-0.05,-0.02,0.99,-1,-0,0,0.99,1.08,91,2752,9.3,3.85,,13.83,1.252,89.8,,24.6,5,,,,,,,,,,,,0,0,0,0,0,0,0,0,0,0,0,0,0,0,0,0,,,,,,0.0,,,,,,,
1607364,1745470204348,,,,,,,,,,,,,,,,,,,,,,,,,,,,,,,,,,0,0,0,0,0,0,0,0,0,0,0,0,0,0,0,0,,,,,,,,,,,,,
1607384,1745470204368,0.0,91,13.61,-0.06,-0.04,1.01,-1,-0,-0,1.02,1.08,94,2781,7.8,3.84,15,13.83,1.252,89.8,169,25.5,5,0,0,0,0,0.0,0.0,0.0,0.0,2.27,0,1.0,0,0,0,0,0,0,0,0,0,0,0,0,0,0,0,0,0,0,1.0,0,-0,0.0,38.99379,-76.938782,0.62,25.4,30,3,0.9
1607404,1745470204388,,,,,,,,,,,,,,,,,,,,,,,,,,,,,,,,,,0,0,0,0,0,0,0,0,0,0,0,0,0,0,0,0,,,,,,,,,,,,,
1607424,1745470204406,0.0,91,,-0.05,-0.02,1.02,-1,-0,0,1.02,1.08,95,2781,7.8,3.84,,13.75,1.252,89.8,,25.5,5,,,,,,,,,,,,0,0,0,0,0,0,0,0,0,0,0,0,0,0,0,0,,,,,,0.0,,,,,,,
1607444,1745470204426,,,,,,,,,,,,,,,,,,,,,,,,,,,,,,,,,,0,0,0,0,0,0,0,0,0,0,0,0,0,0,0,0,,,,,,,,,,,,,
1607464,1745470204446,0.0,78,,-0.04,-0.02,0.98,-1,-0,0,0.98,1.08,91,2795,7.2,3.83,,13.65,1.25,89.8,,26.8,5,,,,,,,,,,,,0,0,0,0,0,0,0,0,0,0,0,0,0,0,0,0,,,,,,0.0,,,,,,,
1607484,1745470204466,,,,,,,,,,,,,,,,,,,,,,,0,0,0,0,0.0,0.0,0.0,0.0,2.27,,,0,0,0,0,0,0,0,0,0,0,0,0,0,0,0,0,,0,,,,,38.99379,-76.938782,0.32,25.4,30,3,0.9
1607504,1745470204486,0.0,71,,-0.06,-0.01,0.95,0,-0,-0,0.95,1.08,88,2805,7.1,3.85,,13.63,1.249,89.8,,26.8,5,,,,,,,,,,,,0,0,0,0,0,0,0,0,0,0,0,0,0,0,0,0,,,,,,0.0,,,,,,,
1607524,1745470204506,,,,,,,,,,,,,,,,,,,,,,,,,,,,,,,,,,0,0,0,0,0,0,0,0,0,0,0,0,0,0,0,0,,,,,,,,,,,,,
1607544,1745470204526,0.0,64,,-0.08,-0.04,0.97,1,-0,-0,0.98,1.08,90,2836,6.7,3.85,,13.59,1.249,89.8,,26.8,5,,,,,,,,,,,,0,0,0,0,0,0,0,0,0,0,0,0,0,0,0,0,,,,,,0.0,,,,,,,
1607564,1745470204546,,,,,,,,,,,,,,,,,,,,,,,,,,,,,,,,,,0,0,0,0,0,0,0,0,0,0,0,0,0,0,0,0,,,,,,,,,,,,,
1607584,1745470204566,0.0,74,,-0.08,-0.02,0.99,0,-0,-0,0.99,1.08,92,2935,6.4,3.83,,13.59,1.249,89.8,,27.4,5,0,0,0,0,0.0,0.0,0.0,0.0,2.28,,,0,0,0,0,0,0,0,0,0,0,0,0,0,0,0,0,,0,,,,0.0,38.99379,-76.938782,0.04,25.4,30,3,0.9
1607604,1745470204586,,,,,,,,,,,,,,,,,,,,,,,,,,,,,,,,,,0,0,0,0,0,0,0,0,0,0,0,0,0,0,0,0,,,,,,,,,,,,,
1607624,1745470204606,0.0,78,,-0.07,-0.02,1.04,-1,-0,0,1.04,1.08,96,2935,6.4,3.83,,13.53,1.249,89.8,,27.4,5,,,,,,,,,,,,0,0,0,0,0,0,0,0,0,0,0,0,0,0,0,0,,,,,,0.0,,,,,,,
1607644,1745470204626,,,,,,,,,,,,,,,,,,,,,,,,,,,,,,,,,,0,0,0,0,0,0,0,0,0,0,0,0,0,0,0,0,,,,,,,,,,,,,
1607664,1745470204646,0.0,91,,-0.05,-0.02,1.09,-3,-0,0,1.09,1.09,100,2962,6.4,3.84,,13.49,1.249,89.8,,28.4,5,,,,,,,,,,,,0,0,0,0,0,0,0,0,0,0,0,0,0,0,0,0,,,,,,0.0,,,,,,,
1607684,1745470204666,,,,,,,,,,,,,,,,,,,,,,,0,0,0,0,0.0,0.0,0.0,0.0,2.28,,,0,0,0,0,0,0,0,0,0,0,0,0,0,0,0,0,,0,,,,,38.99379,-76.938782,0.81,25.4,30,3,0.9
1607704,1745470204686,0.0,78,,-0.04,-0.05,1.13,-4,-0,1,1.13,1.13,100,3009,6.3,3.83,,13.44,1.243,89.8,,28.4,5,,,,,,,,,,,,0,0,0,0,0,0,0,0,0,0,0,0,0,0,0,0,,,,,,0.0,,,,,,,
1607724,1745470204706,,,,,,,,,,,,,,,,,,,,,,,,,,,,,,,,,,0,0,0,0,0,0,0,0,0,0,0,0,0,0,0,0,,,,,,,,,,,,,
1607744,1745470204726,0.0,91,,-0.06,-0.08,1.15,-4,-0,0,1.15,1.15,100,3077,6.0,3.83,,13.36,1.244,89.8,,28.4,5,,,,,,,,,,,,0,0,0,0,0,0,0,0,0,0,0,0,0,0,0,0,,,,,,0.0,,,,,,,
1607764,1745470204746,,,,,,,,,,,,,,,,,,,,,,,,,,,,,,,,,,0,0,0,0,0,0,0,0,0,0,0,0,0,0,0,0,,,,,,,,,,,,,
1607784,1745470204766,0.0,95,,-0.1,-0.06,1.08,-2,-0,0,1.09,1.15,95,3205,4.7,3.78,,13.36,1.244,89.8,,29.9,5,0,0,0,0,0.0,0.0,0.0,0.0,2.27,,,0,0,0,0,0,0,0,0,0,0,0,0,0,0,0,0,,0,,,,0.0,38.99379,-76.938782,0.23,25.4,30,3,0.9
1607804,1745470204786,,,,,,,,,,,,,,,,,,,,,,,,,,,,,,,,,,0,0,0,0,0,0,0,0,0,0,0,0,0,0,0,0,,,,,,,,,,,,,
1607824,1745470204808,0.0,78,,-0.07,0.0,1.02,-1,-0,0,1.03,1.15,89,3205,4.7,3.78,,13.21,1.233,89.8,,29.9,5,,,,,,,,,,,,0,0,0,0,0,0,0,0,0,0,0,0,0,0,0,0,,,,,,0.0,,,,,,,
1607844,1745470204828,,,,,,,,,,,,,,,,,,,,,,,,,,,,,,,,,,0,0,0,0,0,0,0,0,0,0,0,0,0,0,0,0,,,,,,,,,,,,,
1607864,1745470204848,0.0,78,,-0.03,-0.03,1.1,-3,-0,1,1.1,1.15,95,3234,3.2,3.66,,13.08,1.231,89.8,,30.8,5,,,,,,,,,,,,0,0,0,0,0,0,0,0,0,0,0,0,0,0,0,0,,,,,,0.0,,,,,,,
1607884,1745470204868,,,,,,,,,,,,,,,,,,,,,,,0,0,0,0,0.0,0.0,0.0,0.0,2.27,,,0,0,0,0,0,0,0,0,0,0,0,0,0,0,0,0,,0,,,,,38.99379,-76.938782,0.0,25.4,30,3,0.9
1607904,1745470204888,0.0,81,,-0.07,-0.07,1.12,-3,-0,0,1.12,1.15,98,3173,1.5,3.21,,12.88,1.217,89.8,,30.8,5,,,,,,,,,,,,0,0,0,0,0,0,0,0,0,0,0,0,0,0,0,0,,,,,,0.0,,,,,,,
1607924,1745470204908,,,,,,,,,,,,,,,,,,,,,,,,,,,,,,,,,,0,0,0,0,0,0,0,0,0,0,0,0,0,0,0,0,,,,,,,,,,,,,
1607944,1745470204928,0.0,71,,-0.11,-0.04,1.06,-1,-0,-0,1.07,1.15,93,3167,0.2,2.96,,12.69,1.22,89.8,,30.8,5,,,,,,,,,,,,0,0,0,0,0,0,0,0,0,0,0,0,0,0,0,0,,,,,,0.0,,,,,,,
1607964,1745470204948,,,,,,,,,,,,,,,,,,,,,,,,,,,,,,,,,,0,0,0,0,0,0,0,0,0,0,0,0,0,0,0,0,,,,,,,,,,,,,
1607984,1745470204968,0.0,91,,-0.11,0.01,0.98,1,-0,-0,0.99,1.15,86,3083,0.0,2.93,,12.69,1.22,89.8,,29.5,5,0,0,0,0,0.0,0.0,0.0,0.0,2.27,,,0,0,0,0,0,0,0,0,0,0,0,0,0,0,0,0,,0,,,,0.0,38.99379,-76.938782,0.09,25.4,30,3,0.9
1608004,1745470204988,,,,,,,,,,,,,,,,,,,,,,,,,,,,,,,,,,0,0,0,0,0,0,0,0,0,0,0,0,0,0,0,0,,,,,,,,,,,,,
1608024,1745470205008,0.0,88,,-0.1,0.01,0.91,2,-0,-0,0.92,1.15,80,3083,0.0,2.93,,12.57,1.217,89.8,,29.5,5,,,,,,,,,,,,0,0,0,0,0,0,0,0,0,0,0,0,0,0,0,0,,,,,,0.0,,,,,,,
1608044,1745470205020,,,,,,,,,,,,,,,,,,,,,,,,,,,,,,,,,,0,0,0,0,0,0,0,0,0,0,0,0,0,0,0,0,,,,,,,,,,,,,
1608064,1745470205040,0.0,88,,-0.1,0.01,0.86,3,-0,-1,0.87,1.15,76,2984,0.0,2.95,,12.55,1.229,89.8,,28.3,5,,,,,,,,,,,,0,0,0,0,0,0,0,0,0,0,0,0,0,0,0,0,,,,,,0.0,,,,,,,
1608084,1745470205060,,,,,,,,,,,,,,,,,,,,,,,0,0,0,0,0.0,0.0,0.0,0.0,2.28,,,0,0,0,0,0,0,0,0,0,0,0,0,0,0,0,0,,0,,,,,38.99379,-76.938782,0.04,25.4,30,3,0.9
1608104,1745470205080,0.0,74,,-0.13,0.01,0.88,3,-0,-1,0.89,1.15,77,2887,0.0,2.97,,12.65,1.246,89.8,,28.3,5,,,,,,,,,,,,0,0,0,0,0,0,0,0,0,0,0,0,0,0,0,0,,,,,,0.0,,,,,,,
1608124,1745470205103,,,,,,,,,,,,,,,,,,,,,,,,,,,,,,,,,,0,0,0,0,0,0,0,0,0,0,0,0,0,0,0,0,,,,,,,,,,,,,
1608144,1745470205123,0.0,71,,-0.12,-0.01,0.91,2,-0,-1,0.92,1.15,80,2808,0.0,3.05,,12.68,1.249,89.8,,28.3,5,,,,,,,,,,,,0,0,0,0,0,0,0,0,0,0,0,0,0,0,0,0,,,,,,0.0,,,,,,,
1608164,1745470205143,,,,,,,,,,,,,,,,,,,,,,,,,,,,,,,,,,0,0,0,0,0,0,0,0,0,0,0,0,0,0,0,0,,,,,,,,,,,,,
1608184,1745470205163,0.0,88,,-0.12,0.01,0.91,2,-0,-0,0.91,1.15,80,2747,0.0,3.08,,12.68,1.249,89.8,,26.1,5,0,0,0,0,0.0,0.0,0.0,0.0,2.28,,,0,0,0,0,0,0,0,0,0,0,0,0,0,0,0,0,,0,,,,0.0,38.99379,-76.938782,0.0,25.4,30,3,0.9
1608204,1745470205183,,,,,,,,,,,,,,,,,,,,,,,,,,,,,,,,,,0,0,0,0,0,0,0,0,0,0,0,0,0,0,0,0,,,,,,,,,,,,,
1608224,1745470205202,0.0,74,,-0.12,-0.01,0.93,2,-0,-1,0.94,1.15,82,2747,0.0,3.08,,12.75,1.251,89.8,,26.1,5,,,,,,,,,,,,0,0,0,0,0,0,0,0,0,0,0,0,0,0,0,0,,,,,,0.0,,,,,,,
1608244,1745470205222,,,,,,,,,,,,,,,,,,,,,,,,,,,,,,,,,,0,0,0,0,0,0,0,0,0,0,0,0,0,0,0,0,,,,,,,,,,,,,
1608264,1745470205242,0.0,81,,-0.1,-0.01,0.92,2,-0,-0,0.93,1.15,81,2666,0.0,3.11,,12.84,1.251,89.8,,24.9,5,,,,,,,,,,,,0,0,0,0,0,0,0,0,0,0,0,0,0,0,0,0,,,,,,0.0,,,,,,,
1608284,1745470205262,,,,,,,,,,,,,,,,,,,,,,,0,0,0,0,0.0,0.0,0.0,0.0,2.27,,,0,0,0,0,0,0,0,0,0,0,0,0,0,0,0,0,,0,,,,,38.99379,-76.938782,0.0,25.4,30,3,0.9
1608304,1745470205282,0.0,74,,-0.09,-0.01,0.96,1,-0,-0,0.96,1.15,84,2577,0.0,3.15,,12.97,1.252,89.8,,24.9,5,,,,,,,,,,,,0,0,0,0,0,0,0,0,0,0,0,0,0,0,0,0,,,,,,0.0,,,,,,,
1608324,1745470205308,,,,,,,,,,,,,,,,,,,,,,,,,,,,,,,,,,0,0,0,0,0,0,0,0,0,0,0,0,0,0,0,0,,,,,,,,,,,,,
1608344,1745470205328,0.0,78,,-0.1,-0.02,0.97,1,-0,-0,0.97,1.15,84,2513,0.0,3.2,,13.11,1.252,89.8,,24.9,5,,,,,,,,,,,,0,0,0,0,0,0,0,0,0,0,0,0,0,0,0,0,,,,,,0.0,,,,,,,
1608364,1745470205348,,,,,,,,,,,,,,,,,,,,,,,,,,,,,,,,,,0,0,0,0,0,0,0,0,0,0,0,0,0,0,0,0,,,,,,,,,,,,,
1608384,1745470205368,0.0,91,13.62,-0.1,0.01,0.98,1,-0,-0,0.98,1.15,85,2452,0.0,3.23,15,13.11,1.252,89.8,169,23.5,5,0,0,0,0,0.0,0.0,0.0,0.0,2.27,0,1.0,0,0,0,0,0,0,0,0,0,0,0,0,0,0,0,0,0,0,1.0,0,-0,0.0,38.99379,-76.938782,0.05,25.4,30,3,0.9
1608404,1745470205388,,,,,,,,,,,,,,,,,,,,,,,,,,,,,,,,,,0,0,0,0,0,0,0,0,0,0,0,0,0,0,0,0,,,,,,,,,,,,,
1608424,1745470205406,0.0,81,,-0.09,-0.02,0.98,1,-0,-0,0.98,1.15,85,2452,0.0,3.23,,13.19,1.252,89.8,,23.5,5,,,,,,,,,,,,0,0,0,0,0,0,0,0,0,0,0,0,0,0,0,0,,,,,,0.0,,,,,,,
1608444,1745470205426,,,,,,,,,,,,,,,,,,,,,,,,,,,,,,,,,,0,0,0,0,0,0,0,0,0,0,0,0,0,0,0,0,,,,,,,,,,,,,
1608464,1745470205446,0.0,95,,-0.08,-0.04,0.96,1,-0,-0,0.97,1.15,84,2384,0.0,3.26,,13.28,1.251,89.8,,22.3,5,,,,,,,,,,,,0,0,0,0,0,0,0,0,0,0,0,0,0,0,0,0,,,,,,0.0,,,,,,,
1608484,1745470205466,,,,,,,,,,,,,,,,,,,,,,,0,0,0,0,0.0,0.0,0.0,0.0,2.27,,,0,0,0,0,0,0,0,0,0,0,0,0,0,0,0,0,,0,,,,,38.99379,-76.938782,0.04,25.4,30,3,0.9
1608504,1745470205486,0.0,68,,-0.07,-0.06,0.95,1,-0,-0,0.96,1.15,83,2334,0.0,3.29,,13.35,1.249,89.8,,22.3,5,,,,,,,,,,,,0,0,0,0,0,0,0,0,0,0,0,0,0,0,0,0,,,,,,0.0,,,,,,,
1608524,1745470205507,,,,,,,,,,,,,,,,,,,,,,,,,,,,,,,,,,0,0,0,0,0,0,0,0,0,0,0,0,0,0,0,0,,,,,,,,,,,,,
1608544,1745470205527,0.0,78,,-0.08,-0.05,0.95,0,-0,-0,0.96,1.15,83,2273,0.0,3.33,,13.4,1.249,89.8,,22.3,5,,,,,,,,,,,,0,0,0,0,0,0,0,0,0,0,0,0,0,0,0,0,,,,,,0.0,,,,,,,
1608564,1745470205547,,,,,,,,,,,,,,,,,,,,,,,,,,,,,,,,,,0,0,0,0,0,0,0,0,0,0,0,0,0,0,0,0,,,,,,,,,,,,,
1608584,1745470205567,0.0,81,,-0.08,-0.05,0.96,0,-0,-0,0.96,1.15,84,2218,0.0,3.35,,13.4,1.249,89.8,,21.4,5,0,0,0,0,0.0,0.0,0.0,0.0,2.28,,,0,0,0,0,0,0,0,0,0,0,0,0,0,0,0,0,,0,,,,0.0,38.99379,-76.938782,0.0,25.4,30,3,0.9
1608604,1745470205587,,,,,,,,,,,,,,,,,,,,,,,,,,,,,,,,,,0,0,0,0,0,0,0,0,0,0,0,0,0,0,0,0,,,,,,,,,,,,,
1608624,1745470205607,0.0,71,,-0.07,-0.05,0.96,0,-0,-0,0.97,1.15,84,2218,0.0,3.35,,13.51,1.249,89.8,,21.4,5,,,,,,,,,,,,0,0,0,0,0,0,0,0,0,0,0,0,0,0,0,0,,,,,,0.0,,,,,,,
1608644,1745470205627,,,,,,,,,,,,,,,,,,,,,,,,,,,,,,,,,,0,0,0,0,0,0,0,0,0,0,0,0,0,0,0,0,,,,,,,,,,,,,
1608664,1745470205647,0.0,91,,-0.06,-0.04,0.95,-0,-0,-0,0.96,1.15,83,2145,0.0,3.4,,13.59,1.237,89.8,,20.2,5,,,,,,,,,,,,0,0,0,0,0,0,0,0,0,0,0,0,0,0,0,0,,,,,,0.0,,,,,,,
1608684,1745470205667,,,,,,,,,,,,,,,,,,,,,,,0,0,0,0,0.0,0.0,0.0,0.0,2.28,,,0,0,0,0,0,0,0,0,0,0,0,0,0,0,0,0,,0,,,,,38.99379,-76.938782,0.04,25.4,30,3,0.9
1608704,1745470205687,0.0,85,,-0.05,-0.05,0.96,-0,-0,-0,0.96,1.15,84,2071,0.0,3.39,,13.67,1.227,89.8,,20.2,5,,,,,,,,,,,,0,0,0,0,0,0,0,0,0,0,0,0,0,0,0,0,,,,,,0.0,,,,,,,
1608724,1745470205707,,,,,,,,,,,,,,,,,,,,,,,,,,,,,,,,,,0,0,0,0,0,0,0,0,0,0,0,0,0,0,0,0,,,,,,,,,,,,,
1608744,1745470205727,0.0,91,,-0.05,-0.02,0.96,0,-0,-0,0.96,1.15,84,2022,0.0,3.4,,13.68,1.237,89.8,,20.2,5,,,,,,,,,,,,0,0,0,0,0,0,0,0,0,0,0,0,0,0,0,0,,,,,,0.0,,,,,,,
1608764,1745470205747,,,,,,,,,,,,,,,,,,,,,,,,,,,,,,,,,,0,0,0,0,0,0,0,0,0,0,0,0,0,0,0,0,,,,,,,,,,,,,
1608784,1745470205767,0.0,95,,-0.04,-0.02,0.97,1,-0,-0,0.97,1.15,85,1996,0.0,3.41,,13.68,1.237,89.8,,19.7,5,0,0,0,0,0.0,0.0,0.0,0.0,2.26,,,0,0,0,0,0,0,0,0,0,0,0,0,0,0,0,0,,0,,,,0.0,38.99379,-76.938782,0.05,25.4,30,3,0.9
1608804,1745470205787,,,,,,,,,,,,,,,,,,,,,,,,,,,,,,,,,,0,0,0,0,0,0,0,0,0,0,0,0,0,0,0,0,,,,,,,,,,,,,
1608824,1745470205807,0.0,78,,-0.04,-0.02,0.97,0,-0,-0,0.97,1.15,84,1996,0.0,3.41,,13.76,1.25,89.8,,19.7,5,,,,,,,,,,,,0,0,0,0,0,0,0,0,0,0,0,0,0,0,0,0,,,,,,0.0,,,,,,,
1608844,1745470205827,,,,,,,,,,,,,,,,,,,,,,,,,,,,,,,,,,0,0,0,0,0,0,0,0,0,0,0,0,0,0,0,0,,,,,,,,,,,,,
1608864,1745470205847,0.0,78,,-0.04,-0.02,0.98,0,-0,-0,0.98,1.15,85,1970,0.0,3.45,,13.79,1.253,89.8,,18.8,5,,,,,,,,,,,,0,0,0,0,0,0,0,0,0,0,0,0,0,0,0,0,,,,,,0.0,,,,,,,
1608884,1745470205867,,,,,,,,,,,,,,,,,,,,,,,0,0,0,0,0.0,0.0,0.0,0.0,2.27,,,0,0,0,0,0,0,0,0,0,0,0,0,0,0,0,0,,0,,,,,38.99379,-76.938782,0.05,25.4,30,3,0.9
1608904,1745470205887,0.0,74,,-0.04,-0.02,0.97,0,-0,-0,0.97,1.15,84,1941,0.0,3.47,,13.8,1.251,89.8,,18.8,5,,,,,,,,,,,,0,0,0,0,0,0,0,0,0,0,0,0,0,0,0,0,,,,,,0.0,,,,,,,
1608924,1745470205907,,,,,,,,,,,,,,,,,,,,,,,,,,,,,,,,,,0,0,0,0,0,0,0,0,0,0,0,0,0,0,0,0,,,,,,,,,,,,,
1608944,1745470205927,0.0,74,,-0.04,-0.01,0.99,0,-0,-0,0.99,1.15,86,1847,0.0,3.46,,13.86,1.249,89.8,,18.8,5,,,,,,,,,,,,0,0,0,0,0,0,0,0,0,0,0,0,0,0,0,0,,,,,,0.0,,,,,,,
1608964,1745470205947,,,,,,,,,,,,,,,,,,,,,,,,,,,,,,,,,,0,0,0,0,0,0,0,0,0,0,0,0,0,0,0,0,,,,,,,,,,,,,
1608984,1745470205967,0.0,81,,-0.06,-0.01,0.98,1,-0,-0,0.98,1.15,85,1754,0.0,3.48,,13.86,1.249,89.8,,17.7,5,0,0,0,0,0.0,0.0,0.0,0.0,2.28,,,0,0,0,0,0,0,0,0,0,0,0,0,0,0,0,0,,0,,,,0.0,38.99379,-76.938782,0.08,25.4,30,3,0.9
1609004,1745470205987,,,,,,,,,,,,,,,,,,,,,,,,,,,,,,,,,,0,0,0,0,0,0,0,0,0,0,0,0,0,0,0,0,,,,,,,,,,,,,
1609024,1745470206007,0.0,78,,-0.06,0.0,0.97,1,-0,-0,0.97,1.15,84,1754,0.0,3.48,,13.92,1.249,89.8,,17.7,5,,,,,,,,,,,,0,0,0,0,0,0,0,0,0,0,0,0,0,0,0,0,,,,,,0.0,,,,,,,
1609044,1745470206019,,,,,,,,,,,,,,,,,,,,,,,,,,,,,,,,,,0,0,0,0,0,0,0,0,0,0,0,0,0,0,0,0,,,,,,,,,,,,,
1609064,1745470206039,0.0,88,,-0.03,0.01,0.97,1,-0,-0,0.97,1.15,84,1819,0.0,3.49,,13.96,1.249,89.8,,16.9,5,,,,,,,,,,,,0,0,0,0,0,0,0,0,0,0,0,0,0,0,0,0,,,,,,0.0,,,,,,,
1609084,1745470206059,,,,,,,,,,,,,,,,,,,,,,,0,0,0,0,0.0,0.0,0.0,0.0,2.28,,,0,0,0,0,0,0,0,0,0,0,0,0,0,0,0,0,,0,,,,,38.99379,-76.938782,0.07,25.4,30,3,0.9
1609104,1745470206079,0.0,85,,-0.05,-0.0,0.99,1,-0,-0,0.99,1.15,86,1716,0.0,3.5,,14.08,1.249,89.8,,16.9,5,,,,,,,,,,,,0,0,0,0,0,0,0,0,0,0,0,0,0,0,0,0,,,,,,0.0,,,,,,,
1609124,1745470206099,,,,,,,,,,,,,,,,,,,,,,,,,,,,,,,,,,0,0,0,0,0,0,0,0,0,0,0,0,0,0,0,0,,,,,,,,,,,,,
1609144,1745470206115,0.0,81,,-0.08,-0.0,0.98,1,-0,-0,0.98,1.15,86,1598,0.0,3.49,,14.11,1.25,89.8,,16.9,5,,,,,,,,,,,,0,0,0,0,0,0,0,0,0,0,0,0,0,0,0,0,,,,,,0.0,,,,,,,
1609164,1745470206135,,,,,,,,,,,,,,,,,,,,,,,,,,,,,,,,,,0,0,0,0,0,0,0,0,0,0,0,0,0,0,0,0,,,,,,,,,,,,,
1609184,1745470206155,0.0,85,,-0.08,0.0,0.97,1,-0,-0,0.97,1.15,84,1623,0.0,3.51,,14.11,1.25,89.8,,16.4,5,0,0,0,0,0.0,0.0,0.0,0.0,2.28,,,0,0,0,0,0,0,0,0,0,0,0,0,0,0,0,0,,0,,,,0.0,38.99379,-76.938782,0.0,25.4,30,3,0.9
1609204,1745470206175,,,,,,,,,,,,,,,,,,,,,,,,,,,,,,,,,,0,0,0,0,0,0,0,0,0,0,0,0,0,0,0,0,,,,,,,,,,,,,
1609224,1745470206207,0.0,74,,-0.1,0.01,0.95,1,-0,-0,0.95,1.15,83,1623,0.0,3.51,,14.08,1.252,89.8,,16.4,5,,,,,,,,,,,,0,0,0,0,0,0,0,0,0,0,0,0,0,0,0,0,,,,,,0.0,,,,,,,
1609244,1745470206227,,,,,,,,,,,,,,,,,,,,,,,,,,,,,,,,,,0,0,0,0,0,0,0,0,0,0,0,0,0,0,0,0,,,,,,,,,,,,,
1609264,1745470206247,0.0,81,,-0.09,0.01,0.94,1,-0,-0,0.95,1.15,82,1543,0.0,3.52,,14.2,1.252,89.8,,15.1,5,,,,,,,,,,,,0,0,0,0,0,0,0,0,0,0,0,0,0,0,0,0,,,,,,0.0,,,,,,,
1609284,1745470206267,,,,,,,,,,,,,,,,,,,,,,,0,0,0,0,0.0,0.0,0.0,0.0,2.27,,,0,0,0,0,0,0,0,0,0,0,0,0,0,0,0,0,,0,,,,,38.99379,-76.938782,0.05,25.4,30,3,0.9
1609304,1745470206287,0.0,74,,-0.11,0.0,0.95,1,-0,-0,0.96,1.15,83,1431,0.0,3.52,,14.23,1.252,89.8,,15.1,5,,,,,,,,,,,,0,0,0,0,0,0,0,0,0,0,0,0,0,0,0,0,,,,,,0.0,,,,,,,
1609324,1745470206307,,,,,,,,,,,,,,,,,,,,,,,,,,,,,,,,,,0,0,0,0,0,0,0,0,0,0,0,0,0,0,0,0,,,,,,,,,,,,,
1609344,1745470206327,0.0,91,,-0.12,-0.0,0.96,1,-0,-0,0.97,1.15,84,1461,0.0,3.53,,14.16,1.251,89.8,,15.1,5,,,,,,,,,,,,0,0,0,0,0,0,0,0,0,0,0,0,0,0,0,0,,,,,,0.0,,,,,,,
1609364,1745470206347,,,,,,,,,,,,,,,,,,,,,,,,,,,,,,,,,,0,0,0,0,0,0,0,0,0,0,0,0,0,0,0,0,,,,,,,,,,,,,
1609384,1745470206367,0.0,91,13.61,-0.09,-0.02,0.96,1,-0,-0,0.97,1.15,84,1333,0.0,3.54,15,14.16,1.251,89.8,169,14.1,5,0,0,0,0,0.0,0.0,0.0,0.0,2.27,0,1.0,0,0,0,0,0,0,0,0,0,0,0,0,0,0,0,0,0,0,1.0,0,-0,0.0,38.99379,-76.938782,0.08,25.4,30,3,0.9
1609404,1745470206387,,,,,,,,,,,,,,,,,,,,,,,,,,,,,,,,,,0,0,0,0,0,0,0,0,0,0,0,0,0,0,0,0,,,,,,,,,,,,,
1609424,1745470206406,0.0,64,,-0.08,-0.02,0.97,0,-0,-0,0.97,1.15,84,1333,0.0,3.54,,14.31,1.243,89.8,,14.1,5,,,,,,,,,,,,0,0,0,0,0,0,0,0,0,0,0,0,0,0,0,0,,,,,,0.0,,,,,,,
1609444,1745470206426,,,,,,,,,,,,,,,,,,,,,,,,,,,,,,,,,,0,0,0,0,0,0,0,0,0,0,0,0,0,0,0,0,,,,,,,,,,,,,
1609464,1745470206446,0.0,91,,-0.07,-0.02,0.95,0,-0,-0,0.96,1.15,83,1424,0.0,3.55,,14.31,1.237,89.8,,14.1,5,,,,,,,,,,,,0,0,0,0,0,0,0,0,0,0,0,0,0,0,0,0,,,,,,0.0,,,,,,,
1609484,1745470206466,,,,,,,,,,,,,,,,,,,,,,,0,0,0,0,0.0,0.0,0.0,0.0,2.28,,,0,0,0,0,0,0,0,0,0,0,0,0,0,0,0,0,,0,,,,,38.99379,-76.938782,0.16,25.4,30,3,0.9
1609504,1745470206486,0.0,74,,-0.06,-0.02,0.94,-0,-0,-0,0.95,1.15,82,1311,6.1,3.54,,14.31,1.236,89.8,,14.1,5,,,,,,,,,,,,0,0,0,0,0,0,0,0,0,0,0,0,0,0,0,0,,,,,,0.0,,,,,,,
1609524,1745470206506,,,,,,,,,,,,,,,,,,,,,,,,,,,,,,,,,,0,0,0,0,0,0,0,0,0,0,0,0,0,0,0,0,,,,,,,,,,,,,
1609544,1745470206526,0.0,78,,-0.05,-0.02,0.96,-0,-0,-0,0.96,1.15,83,1311,11.6,3.93,,14.5,1.245,89.8,,14.1,5,,,,,,,,,,,,0,0,0,0,0,0,0,0,0,0,0,0,0,0,0,0,,,,,,0.0,,,,,,,
1609564,1745470206546,,,,,,,,,,,,,,,,,,,,,,,,,,,,,,,,,,0,0,0,0,0,0,0,0,0,0,0,0,0,0,0,0,,,,,,,,,,,,,
1609584,1745470206566,0.0,81,,-0.07,-0.0,0.99,-0,-0,0,0.99,1.15,86,1387,11.8,3.99,,14.5,1.245,89.8,,13.9,5,0,0,0,0,0.0,0.0,0.0,0.0,2.28,,,0,0,0,0,0,0,0,0,0,0,0,0,0,0,0,0,,0,,,,0.0,38.99379,-76.938782,0.04,25.4,30,3,0.9
1609604,1745470206586,,,,,,,,,,,,,,,,,,,,,,,,,,,,,,,,,,0,0,0,0,0,0,0,0,0,0,0,0,0,0,0,0,,,,,,,,,,,,,
1609624,1745470206608,0.0,71,,-0.07,-0.02,0.99,-0,-0,-0,0.99,1.15,86,1387,11.8,3.99,,14.58,1.245,89.8,,13.9,5,,,,,,,,,,,,0,0,0,0,0,0,0,0,0,0,0,0,0,0,0,0,,,,,,0.0,,,,,,,
1609644,1745470206628,,,,,,,,,,,,,,,,,,,,,,,,,,,,,,,,,,0,0,0,0,0,0,0,0,0,0,0,0,0,0,0,0,,,,,,,,,,,,,
1609664,1745470206648,0.0,78,,-0.04,-0.01,0.99,0,-0,-0,0.99,1.15,86,1309,11.9,3.96,,14.54,1.25,89.8,,15.2,5,,,,,,,,,,,,0,0,0,0,0,0,0,0,0,0,0,0,0,0,0,0,,,,,,0.0,,,,,,,
1609684,1745470206668,,,,,,,,,,,,,,,,,,,,,,,0,0,0,0,0.0,0.0,0.0,0.0,2.28,,,0,0,0,0,0,0,0,0,0,0,0,0,0,0,0,0,,0,,,,,38.99379,-76.938782,0.04,25.4,30,3,0.9
1609704,1745470206688,0.0,85,,-0.03,-0.01,1.0,0,-0,-0,1.0,1.15,87,1581,11.9,4.01,,14.51,1.222,89.8,,15.2,5,,,,,,,,,,,,0,0,0,0,0,0,0,0,0,0,0,0,0,0,0,0,,,,,,0.0,,,,,,,
1609724,1745470206708,,,,,,,,,,,,,,,,,,,,,,,,,,,,,,,,,,0,0,0,0,0,0,0,0,0,0,0,0,0,0,0,0,,,,,,,,,,,,,
1609744,1745470206728,0.0,88,,-0.05,0.01,1.02,0,-0,-0,1.02,1.15,89,1616,5.8,3.8,,14.42,1.202,89.8,,15.2,5,,,,,,,,,,,,0,0,0,0,0,0,0,0,0,0,0,0,0,0,0,0,,,,,,0.0,,,,,,,
1609764,1745470206748,,,,,,,,,,,,,,,,,,,,,,,,,,,,,,,,,,0,0,0,0,0,0,0,0,0,0,0,0,0,0,0,0,,,,,,,,,,,,,
1609784,1745470206768,0.0,85,,-0.09,0.02,1.01,0,-0,-0,1.01,1.15,88,1583,4.4,3.82,,14.42,1.202,89.8,,15.9,5,0,0,0,0,0.0,0.0,0.0,0.0,2.27,,,0,0,0,0,0,0,0,0,0,0,0,0,0,0,0,0,,0,,,,0.0,38.99379,-76.938782,0.08,25.4,30,3,0.9
1609804,1745470206788,,,,,,,,,,,,,,,,,,,,,,,,,,,,,,,,,,0,0,0,0,0,0,0,0,0,0,0,0,0,0,0,0,,,,,,,,,,,,,
1609824,1745470206808,0.0,95,,-0.1,0.01,0.98,-0,-0,-0,0.99,1.15,86,1583,4.4,3.82,,14.4,1.229,89.8,,15.9,5,,,,,,,,,,,,0,0,0,0,0,0,0,0,0,0,0,0,0,0,0,0,,,,,,0.0,,,,,,,
1609844,1745470206828,,,,,,,,,,,,,,,,,,,,,,,,,,,,,,,,,,0,0,0,0,0,0,0,0,0,0,0,0,0,0,0,0,,,,,,,,,,,,,
1609864,1745470206848,0.0,81,,-0.08,0.02,1.0,1,-0,-0,1.0,1.15,87,1727,4.2,3.84,,14.32,1.23,89.8,,16.6,5,,,,,,,,,,,,0,0,0,0,0,0,0,0,0,0,0,0,0,0,0,0,,,,,,0.0,,,,,,,
1609884,1745470206868,,,,,,,,,,,,,,,,,,,,,,,0,0,0,0,0.0,0.0,0.0,0.0,2.27,,,0,0,0,0,0,0,0,0,0,0,0,0,0,0,0,0,,0,,,,,38.99379,-76.938782,0.0,25.4,30,3,0.9
1609904,1745470206888,0.0,74,,-0.09,0.01,1.01,1,-0,-0,1.02,1.15,88,1763,4.0,3.83,,14.34,1.226,89.8,,16.6,5,,,,,,,,,,,,0,0,0,0,0,0,0,0,0,0,0,0,0,0,0,0,,,,,,0.0,,,,,,,
1609924,1745470206908,,,,,,,,,,,,,,,,,,,,,,,,,,,,,,,,,,0,0,0,0,0,0,0,0,0,0,0,0,0,0,0,0,,,,,,,,,,,,,
1609944,1745470206928,0.0,78,,-0.1,0.03,0.98,1,-0,-0,0.99,1.15,86,1706,4.0,3.8,,14.36,1.249,89.8,,16.6,5,,,,,,,,,,,,0,0,0,0,0,0,0,0,0,0,0,0,0,0,0,0,,,,,,0.0,,,,,,,
1609964,1745470206948,,,,,,,,,,,,,,,,,,,,,,,,,,,,,,,,,,0,0,0,0,0,0,0,0,0,0,0,0,0,0,0,0,,,,,,,,,,,,,
1609984,1745470206968,0.0,81,,-0.09,0.04,0.98,1,-0,-0,0.98,1.15,85,1705,3.7,3.81,,14.36,1.249,89.8,,17.6,5,0,0,0,0,0.0,0.0,0.0,0.0,2.28,,,0,0,0,0,0,0,0,0,0,0,0,0,0,0,0,0,,0,,,,0.0,38.99379,-76.938782,0.0,25.4,30,3,0.9
1610004,1745470206988,,,,,,,,,,,,,,,,,,,,,,,,,,,,,,,,,,0,0,0,0,0,0,0,0,0,0,0,0,0,0,0,0,,,,,,,,,,,,,
1610024,1745470207008,0.0,88,,-0.1,0.04,0.99,1,-0,-0,0.99,1.15,86,1705,3.7,3.81,,14.28,1.242,89.8,,17.6,5,,,,,,,,,,,,0,0,0,0,0,0,0,0,0,0,0,0,0,0,0,0,,,,,,0.0,,,,,,,
1610044,1745470207018,,,,,,,,,,,,,,,,,,,,,,,,,,,,,,,,,,0,0,0,0,0,0,0,0,0,0,0,0,0,0,0,0,,,,,,,,,,,,,
1610064,1745470207038,0.0,88,,-0.07,0.02,0.98,1,-0,-0,0.98,1.15,86,1806,3.4,3.83,,14.27,1.239,89.8,,19.5,5,,,,,,,,,,,,0,0,0,0,0,0,0,0,0,0,0,0,0,0,0,0,,,,,,0.0,,,,,,,
1610084,1745470207058,,,,,,,,,,,,,,,,,,,,,,,0,0,0,0,0.0,0.0,0.0,0.0,2.28,,,0,0,0,0,0,0,0,0,0,0,0,0,0,0,0,0,,0,,,,,38.99379,-76.938782,0.0,25.4,30,3,0.9
1610104,1745470207078,0.0,81,,-0.06,0.03,0.99,1,-0,0,0.99,1.15,86,2190,3.4,3.81,,14.06,1.249,89.8,,19.5,5,,,,,,,,,,,,0,0,0,0,0,0,0,0,0,0,0,0,0,0,0,0,,,,,,0.0,,,,,,,
1610124,1745470207106,,,,,,,,,,,,,,,,,,,,,,,,,,,,,,,,,,0,0,0,0,0,0,0,0,0,0,0,0,0,0,0,0,,,,,,,,,,,,,
1610144,1745470207126,0.0,88,,-0.05,0.02,1.0,1,-0,0,1.0,1.15,87,2306,3.4,3.75,,13.95,1.251,89.8,,19.5,5,,,,,,,,,,,,0,0,0,0,0,0,0,0,0,0,0,0,0,0,0,0,,,,,,0.0,,,,,,,
1610164,1745470207146,,,,,,,,,,,,,,,,,,,,,,,,,,,,,,,,,,0,0,0,0,0,0,0,0,0,0,0,0,0,0,0,0,,,,,,,,,,,,,
1610184,1745470207166,0.0,71,,-0.05,-0.0,0.99,1,-0,-0,0.99,1.15,86,2396,3.4,3.72,,13.95,1.251,89.8,,21.2,5,0,0,0,0,0.0,0.0,0.0,0.0,2.27,,,0,0,0,0,0,0,0,0,0,0,0,0,0,0,0,0,,0,,,,0.0,38.99379,-76.938782,0.0,25.4,30,3,0.9
1610204,1745470207186,,,,,,,,,,,,,,,,,,,,,,,,,,,,,,,,,,0,0,0,0,0,0,0,0,0,0,0,0,0,0,0,0,,,,,,,,,,,,,
1610224,1745470207206,0.0,64,,-0.04,0.0,0.99,1,-0,0,1.0,1.15,87,2396,3.4,3.72,,13.9,1.233,89.8,,21.2,5,,,,,,,,,,,,0,0,0,0,0,0,0,0,0,0,0,0,0,0,0,0,,,,,,0.0,,,,,,,
1610244,1745470207226,,,,,,,,,,,,,,,,,,,,,,,,,,,,,,,,,,0,0,0,0,0,0,0,0,0,0,0,0,0,0,0,0,,,,,,,,,,,,,
1610264,1745470207246,0.0,68,,-0.05,-0.02,1.01,1,-0,-0,1.01,1.15,88,2468,3.6,3.71,,13.83,1.167,89.8,,22.8,5,,,,,,,,,,,,0,0,0,0,0,0,0,0,0,0,0,0,0,0,0,0,,,,,,0.0,,,,,,,
1610284,1745470207266,,,,,,,,,,,,,,,,,,,,,,,0,0,0,0,0.0,0.0,0.0,0.0,2.27,,,0,0,0,0,0,0,0,0,0,0,0,0,0,0,0,0,,0,,,,,38.99379,-76.938782,0.07,25.4,30,3,0.9
1610304,1745470207286,0.0,64,,-0.05,-0.01,1.0,1,-0,-0,1.0,1.15,87,2480,3.8,3.7,,13.8,1.147,89.8,,22.8,5,,,,,,,,,,,,0,0,0,0,0,0,0,0,0,0,0,0,0,0,0,0,,,,,,0.0,,,,,,,
1610324,1745470207308,,,,,,,,,,,,,,,,,,,,,,,,,,,,,,,,,,0,0,0,0,0,0,0,0,0,0,0,0,0,0,0,0,,,,,,,,,,,,,
1610344,1745470207328,0.0,74,,-0.05,-0.02,0.99,1,-0,-0,0.99,1.15,86,2501,3.8,3.72,,13.73,1.142,89.8,,22.8,5,,,,,,,,,,,,0,0,0,0,0,0,0,0,0,0,0,0,0,0,0,0,,,,,,0.0,,,,,,,
1610364,1745470207348,,,,,,,,,,,,,,,,,,,,,,,,,,,,,,,,,,0,0,0,0,0,0,0,0,0,0,0,0,0,0,0,0,,,,,,,,,,,,,
1610384,1745470207368,0.0,91,13.7,-0.05,-0.03,0.99,1,-0,-0,0.99,1.15,86,2563,3.7,3.68,15,13.73,1.142,89.8,171,23.6,5,0,0,0,0,0.0,0.0,0.0,0.0,2.27,0,1.0,0,0,0,0,0,0,0,0,0,0,0,0,0,0,0,0,0,0,1.0,0,-0,0.0,38.99379,-76.938782,0.11,25.4,30,3,0.9
1610404,1745470207388,,,,,,,,,,,,,,,,,,,,,,,,,,,,,,,,,,0,0,0,0,0,0,0,0,0,0,0,0,0,0,0,0,,,,,,,,,,,,,
1610424,1745470207408,0.0,88,,-0.06,-0.01,0.98,1,-0,-0,0.98,1.15,86,2563,3.7,3.68,,13.71,1.151,89.8,,23.6,5,,,,,,,,,,,,0,0,0,0,0,0,0,0,0,0,0,0,0,0,0,0,,,,,,0.0,,,,,,,
1610444,1745470207428,,,,,,,,,,,,,,,,,,,,,,,,,,,,,,,,,,0,0,0,0,0,0,0,0,0,0,0,0,0,0,0,0,,,,,,,,,,,,,
1610464,1745470207448,0.0,88,,-0.06,-0.04,1.02,1,-0,-0,1.02,1.15,89,2596,3.5,3.7,,13.64,1.172,89.8,,24.7,5,,,,,,,,,,,,0,0,0,0,0,0,0,0,0,0,0,0,0,0,0,0,,,,,,0.0,,,,,,,
1610484,1745470207468,,,,,,,,,,,,,,,,,,,,,,,0,0,0,0,0.0,0.0,0.0,0.0,2.28,,,0,0,0,0,0,0,0,0,0,0,0,0,0,0,0,0,,0,,,,,38.99379,-76.938782,0.0,25.4,30,3,0.9
1610504,1745470207488,0.0,81,,-0.05,-0.02,0.98,1,-0,-0,0.99,1.15,86,2643,3.1,3.72,,13.56,1.19,89.8,,24.7,5,,,,,,,,,,,,0,0,0,0,0,0,0,0,0,0,0,0,0,0,0,0,,,,,,0.0,,,,,,,
1610524,1745470207508,,,,,,,,,,,,,,,,,,,,,,,,,,,,,,,,,,0,0,0,0,0,0,0,0,0,0,0,0,0,0,0,0,,,,,,,,,,,,,
1610544,1745470207528,0.0,64,,-0.06,-0.05,1.01,1,-0,-0,1.02,1.15,88,2630,2.4,3.52,,13.53,1.199,89.8,,24.7,5,,,,,,,,,,,,0,0,0,0,0,0,0,0,0,0,0,0,0,0,0,0,,,,,,0.0,,,,,,,
1610564,1745470207548,,,,,,,,,,,,,,,,,,,,,,,,,,,,,,,,,,0,0,0,0,0,0,0,0,0,0,0,0,0,0,0,0,,,,,,,,,,,,,
1610584,1745470207568,0.0,78,,-0.05,-0.03,0.99,1,-0,0,0.99,1.15,86,2657,1.8,3.48,,13.53,1.199,89.8,,25.7,5,0,0,0,0,0.0,0.0,0.0,0.0,2.28,,,0,0,0,0,0,0,0,0,0,0,0,0,0,0,0,0,,0,,,,0.0,38.99379,-76.938782,0.0,25.4,30,3,0.9
1610604,1745470207588,,,,,,,,,,,,,,,,,,,,,,,,,,,,,,,,,,0,0,0,0,0,0,0,0,0,0,0,0,0,0,0,0,,,,,,,,,,,,,
1610624,1745470207607,0.0,71,,-0.07,-0.01,0.99,1,-0,0,1.0,1.15,87,2657,1.8,3.48,,13.45,1.203,89.8,,25.7,5,,,,,,,,,,,,0,0,0,0,0,0,0,0,0,0,0,0,0,0,0,0,,,,,,0.0,,,,,,,
1610644,1745470207627,,,,,,,,,,,,,,,,,,,,,,,,,,,,,,,,,,0,0,0,0,0,0,0,0,0,0,0,0,0,0,0,0,,,,,,,,,,,,,
1610664,1745470207647,0.0,74,,-0.07,-0.0,1.0,1,-0,0,1.0,1.15,87,2652,0.1,3.2,,13.41,1.206,89.8,,25.0,5,,,,,,,,,,,,0,0,0,0,0,0,0,0,0,0,0,0,0,0,0,0,,,,,,0.0,,,,,,,
1610684,1745470207667,,,,,,,,,,,,,,,,,,,,,,,0,0,0,0,0.0,0.0,0.0,0.0,2.27,,,0,0,0,0,0,0,0,0,0,0,0,0,0,0,0,0,,0,,,,,38.99379,-76.938782,0.0,25.4,30,3,0.9
1610704,1745470207687,0.0,78,,-0.06,0.0,1.0,1,-0,0,1.01,1.15,87,2628,0.0,3.14,,13.33,1.206,89.8,,25.0,5,,,,,,,,,,,,0,0,0,0,0,0,0,0,0,0,0,0,0,0,0,0,,,,,,0.0,,,,,,,
1610724,1745470207707,,,,,,,,,,,,,,,,,,,,,,,,,,,,,,,,,,0,0,0,0,0,0,0,0,0,0,0,0,0,0,0,0,,,,,,,,,,,,,
1610744,1745470207727,0.0,74,,-0.05,-0.0,1.01,1,-0,0,1.01,1.15,88,2575,0.0,3.15,,13.24,1.22,89.8,,25.0,5,,,,,,,,,,,,0,0,0,0,0,0,0,0,0,0,0,0,0,0,0,0,,,,,,0.0,,,,,,,
1610764,1745470207747,,,,,,,,,,,,,,,,,,,,,,,,,,,,,,,,,,0,0,0,0,0,0,0,0,0,0,0,0,0,0,0,0,,,,,,,,,,,,,
1610784,1745470207767,0.0,95,,-0.06,-0.01,1.01,1,-0,0,1.01,1.15,88,2599,0.0,3.17,,13.24,1.22,89.8,,24.5,5,0,0,0,0,0.0,0.0,0.0,0.0,2.27,,,0,0,0,0,0,0,0,0,0,0,0,0,0,0,0,0,,0,,,,0.0,38.99379,-76.938782,0.04,25.4,30,3,0.9
1610804,1745470207787,,,,,,,,,,,,,,,,,,,,,,,,,,,,,,,,,,0,0,0,0,0,0,0,0,0,0,0,0,0,0,0,0,,,,,,,,,,,,,
1610824,1745470207807,0.0,78,,-0.05,-0.01,0.98,1,-0,0,0.99,1.15,86,2599,0.0,3.17,,13.23,1.21,89.8,,24.5,5,,,,,,,,,,,,0,0,0,0,0,0,0,0,0,0,0,0,0,0,0,0,,,,,,0.0,,,,,,,
1610844,1745470207827,,,,,,,,,,,,,,,,,,,,,,,,,,,,,,,,,,0,0,0,0,0,0,0,0,0,0,0,0,0,0,0,0,,,,,,,,,,,,,
1610864,1745470207847,0.0,78,,-0.05,0.0,1.0,0,-0,0,1.0,1.15,87,2536,0.0,3.2,,13.24,1.214,89.8,,23.7,5,,,,,,,,,,,,0,0,0,0,0,0,0,0,0,0,0,0,0,0,0,0,,,,,,0.0,,,,,,,
1610884,1745470207867,,,,,,,,,,,,,,,,,,,,,,,0,0,0,0,0.0,0.0,0.0,0.0,2.27,,,0,0,0,0,0,0,0,0,0,0,0,0,0,0,0,0,,0,,,,,38.99379,-76.938782,0.08,25.4,30,3,0.9
1610904,1745470207887,0.0,78,,-0.05,-0.02,1.0,0,-0,0,1.01,1.15,87,2504,0.0,3.21,,13.28,1.238,89.8,,23.7,5,,,,,,,,,,,,0,0,0,0,0,0,0,0,0,0,0,0,0,0,0,0,,,,,,0.0,,,,,,,
1610924,1745470207907,,,,,,,,,,,,,,,,,,,,,,,,,,,,,,,,,,0,0,0,0,0,0,0,0,0,0,0,0,0,0,0,0,,,,,,,,,,,,,
1610944,1745470207927,0.0,71,,-0.06,0.01,1.0,0,-0,0,1.0,1.15,87,2451,0.0,3.24,,13.29,1.242,89.8,,23.7,5,,,,,,,,,,,,0,0,0,0,0,0,0,0,0,0,0,0,0,0,0,0,,,,,,0.0,,,,,,,
1610964,1745470207947,,,,,,,,,,,,,,,,,,,,,,,,,,,,,,,,,,0,0,0,0,0,0,0,0,0,0,0,0,0,0,0,0,,,,,,,,,,,,,
1610984,1745470207967,0.0,78,,-0.06,0.0,1.01,0,-0,0,1.01,1.15,88,2384,0.0,3.27,,13.29,1.242,89.8,,22.7,5,0,0,0,0,0.0,0.0,0.0,0.0,2.28,,,0,0,0,0,0,0,0,0,0,0,0,0,0,0,0,0,,0,,,,0.0,38.99379,-76.938782,0.0,25.4,30,3,0.9
1611004,1745470207987,,,,,,,,,,,,,,,,,,,,,,,,,,,,,,,,,,0,0,0,0,0,0,0,0,0,0,0,0,0,0,0,0,,,,,,,,,,,,,
1611024,1745470208007,0.0,74,,-0.05,-0.02,0.99,1,-0,0,0.99,1.15,86,2384,0.0,3.27,,13.37,1.249,89.8,,22.7,5,,,,,,,,,,,,0,0,0,0,0,0,0,0,0,0,0,0,0,0,0,0,,,,,,0.0,,,,,,,
1611044,1745470208019,,,,,,,,,,,,,,,,,,,,,,,,,,,,,,,,,,0,0,0,0,0,0,0,0,0,0,0,0,0,0,0,0,,,,,,,,,,,,,
1611064,1745470208039,0.0,85,,-0.05,-0.04,0.98,0,-0,0,0.98,1.15,85,2358,0.0,3.3,,13.43,1.249,89.8,,22.0,5,,,,,,,,,,,,0,0,0,0,0,0,0,0,0,0,0,0,0,0,0,0,,,,,,0.0,,,,,,,
1611084,1745470208059,,,,,,,,,,,,,,,,,,,,,,,0,0,0,0,0.0,0.0,0.0,0.0,2.28,,,0,0,0,0,0,0,0,0,0,0,0,0,0,0,0,0,,0,,,,,38.99379,-76.938782,0.04,25.4,30,3,0.9
1611104,1745470208079,0.0,85,,-0.07,-0.02,0.98,0,-0,0,0.98,1.15,85,2301,0.0,3.31,,13.49,1.25,89.8,,22.0,5,,,,,,,,,,,,0,0,0,0,0,0,0,0,0,0,0,0,0,0,0,0,,,,,,0.0,,,,,,,
1611124,1745470208107,,,,,,,,,,,,,,,,,,,,,,,,,,,,,,,,,,0,0,0,0,0,0,0,0,0,0,0,0,0,0,0,0,,,,,,,,,,,,,
1611144,1745470208127,0.0,85,,-0.07,-0.02,0.97,-0,-0,0,0.98,1.15,85,2213,0.0,3.3,,13.52,1.249,89.8,,22.0,5,,,,,,,,,,,,0,0,0,0,0,0,0,0,0,0,0,0,0,0,0,0,,,,,,0.0,,,,,,,
1611164,1745470208147,,,,,,,,,,,,,,,,,,,,,,,,,,,,,,,,,,0,0,0,0,0,0,0,0,0,0,0,0,0,0,0,0,,,,,,,,,,,,,
1611184,1745470208167,0.0,95,,-0.05,-0.03,0.98,-0,-0,-0,0.98,1.15,86,2151,0.0,3.34,,13.52,1.249,89.8,,20.7,5,0,0,0,0,0.0,0.0,0.0,0.0,2.27,,,0,0,0,0,0,0,0,0,0,0,0,0,0,0,0,0,,0,,,,0.0,38.99379,-76.938782,0.11,25.4,30,3,0.9
1611204,1745470208187,,,,,,,,,,,,,,,,,,,,,,,,,,,,,,,,,,0,0,0,0,0,0,0,0,0,0,0,0,0,0,0,0,,,,,,,,,,,,,
1611224,1745470208207,0.0,71,,-0.04,-0.01,0.99,-0,-0,-0,0.99,1.15,86,2151,0.0,3.34,,13.67,1.249,89.8,,20.7,5,,,,,,,,,,,,0,0,0,0,0,0,0,0,0,0,0,0,0,0,0,0,,,,,,0.0,,,,,,,
1611244,1745470208227,,,,,,,,,,,,,,,,,,,,,,,,,,,,,,,,,,0,0,0,0,0,0,0,0,0,0,0,0,0,0,0,0,,,,,,,,,,,,,
1611264,1745470208247,0.0,85,,-0.04,-0.02,0.98,-0,-0,-0,0.98,1.15,85,2060,0.0,3.37,,13.65,1.25,89.8,,20.3,5,,,,,,,,,,,,0,0,0,0,0,0,0,0,0,0,0,0,0,0,0,0,,,,,,0.0,,,,,,,
1611284,1745470208267,,,,,,,,,,,,,,,,,,,,,,,0,0,0,0,0.0,0.0,0.0,0.0,2.27,,,0,0,0,0,0,0,0,0,0,0,0,0,0,0,0,0,,0,,,,,38.99379,-76.938782,0.04,25.4,30,3,0.9
1611304,1745470208287,0.0,85,,-0.04,-0.01,0.97,-0,-0,-0,0.97,1.15,85,2023,0.0,3.41,,13.75,1.248,89.8,,20.3,5,,,,,,,,,,,,0,0,0,0,0,0,0,0,0,0,0,0,0,0,0,0,,,,,,0.0,,,,,,,
1611324,1745470208307,,,,,,,,,,,,,,,,,,,,,,,,,,,,,,,,,,0,0,0,0,0,0,0,0,0,0,0,0,0,0,0,0,,,,,,,,,,,,,
1611344,1745470208327,0.0,74,,-0.02,-0.01,0.98,-0,-0,-0,0.98,1.15,86,2072,0.0,3.44,,13.71,1.25,89.8,,20.3,5,,,,,,,,,,,,0,0,0,0,0,0,0,0,0,0,0,0,0,0,0,0,,,,,,0.0,,,,,,,
1611364,1745470208347,,,,,,,,,,,,,,,,,,,,,,,,,,,,,,,,,,0,0,0,0,0,0,0,0,0,0,0,0,0,0,0,0,,,,,,,,,,,,,
1611384,1745470208367,0.0,95,13.68,-0.03,-0.01,0.98,-0,-0,-0,0.98,1.15,85,2007,0.0,3.46,15,13.71,1.25,89.8,171,19.3,5,0,0,0,0,0.0,0.0,0.0,0.0,2.27,0,1.0,0,0,0,0,0,0,0,0,0,0,0,0,0,0,0,0,0,0,1.0,0,-0,0.0,38.99379,-76.938782,0.04,25.4,30,3,0.9
1611404,1745470208387,,,,,,,,,,,,,,,,,,,,,,,,,,,,,,,,,,0,0,0,0,0,0,0,0,0,0,0,0,0,0,0,0,,,,,,,,,,,,,
1611424,1745470208406,0.0,85,,-0.03,0.01,0.98,0,-0,-0,0.98,1.15,85,2007,0.0,3.46,,13.77,1.249,89.8,,19.3,5,,,,,,,,,,,,0,0,0,0,0,0,0,0,0,0,0,0,0,0,0,0,,,,,,0.0,,,,,,,
1611444,1745470208426,,,,,,,,,,,,,,,,,,,,,,,,,,,,,,,,,,0,0,0,0,0,0,0,0,0,0,0,0,0,0,0,0,,,,,,,,,,,,,
1611464,1745470208446,0.0,98,,-0.03,0.01,0.97,0,-0,-0,0.98,1.15,85,1978,0.0,3.46,,13.88,1.249,89.8,,19.0,5,,,,,,,,,,,,0,0,0,0,0,0,0,0,0,0,0,0,0,0,0,0,,,,,,0.0,,,,,,,
1611484,1745470208466,,,,,,,,,,,,,,,,,,,,,,,0,0,0,0,0.0,0.0,0.0,0.0,2.28,,,0,0,0,0,0,0,0,0,0,0,0,0,0,0,0,0,,0,,,,,38.99379,-76.938782,0.06,25.4,30,3,0.9
1611504,1745470208486,0.0,88,,-0.03,0.0,0.97,0,-0,-0,0.97,1.15,84,1904,0.0,3.46,,13.95,1.249,89.8,,19.0,5,,,,,,,,,,,,0,0,0,0,0,0,0,0,0,0,0,0,0,0,0,0,,,,,,0.0,,,,,,,
1611524,1745470208508,,,,,,,,,,,,,,,,,,,,,,,,,,,,,,,,,,0,0,0,0,0,0,0,0,0,0,0,0,0,0,0,0,,,,,,,,,,,,,
1611544,1745470208528,0.0,74,,-0.03,-0.0,0.97,-0,-0,-0,0.98,1.15,85,1828,0.0,3.48,,13.95,1.249,89.8,,19.0,5,,,,,,,,,,,,0,0,0,0,0,0,0,0,0,0,0,0,0,0,0,0,,,,,,0.0,,,,,,,
1611564,1745470208548,,,,,,,,,,,,,,,,,,,,,,,,,,,,,,,,,,0,0,0,0,0,0,0,0,0,0,0,0,0,0,0,0,,,,,,,,,,,,,
1611584,1745470208568,0.0,81,,-0.05,-0.01,0.99,0,-0,-0,0.99,1.15,86,1888,0.0,3.48,,13.95,1.249,89.8,,18.4,5,0,0,0,0,0.0,0.0,0.0,0.0,2.28,,,0,0,0,0,0,0,0,0,0,0,0,0,0,0,0,0,,0,,,,0.0,38.99379,-76.938782,0.16,25.4,30,3,0.9
1611604,1745470208588,,,,,,,,,,,,,,,,,,,,,,,,,,,,,,,,,,0,0,0,0,0,0,0,0,0,0,0,0,0,0,0,0,,,,,,,,,,,,,
1611624,1745470208606,0.0,68,,-0.06,0.02,0.98,0,-0,0,0.98,1.15,85,1888,0.0,3.48,,13.95,1.25,89.8,,18.4,5,,,,,,,,,,,,0,0,0,0,0,0,0,0,0,0,0,0,0,0,0,0,,,,,,0.0,,,,,,,
1611644,1745470208626,,,,,,,,,,,,,,,,,,,,,,,,,,,,,,,,,,0,0,0,0,0,0,0,0,0,0,0,0,0,0,0,0,,,,,,,,,,,,,
1611664,1745470208646,0.0,74,,-0.04,0.03,0.98,1,-0,0,0.98,1.15,85,1767,0.0,3.49,,14.04,1.252,89.8,,16.5,5,,,,,,,,,,,,0,0,0,0,0,0,0,0,0,0,0,0,0,0,0,0,,,,,,0.0,,,,,,,
1611684,1745470208666,,,,,,,,,,,,,,,,,,,,,,,0,0,0,0,0.0,0.0,0.0,0.0,2.27,,,0,0,0,0,0,0,0,0,0,0,0,0,0,0,0,0,,0,,,,,38.99379,-76.938782,0.46,25.4,30,3,0.9
1611704,1745470208686,0.0,71,,-0.03,0.01,1.0,0,-0,0,1.0,1.15,87,1673,0.0,3.49,,14.18,1.251,89.8,,16.5,5,,,,,,,,,,,,0,0,0,0,0,0,0,0,0,0,0,0,0,0,0,0,,,,,,0.0,,,,,,,
1611724,1745470208708,,,,,,,,,,,,,,,,,,,,,,,,,,,,,,,,,,0,0,0,0,0,0,0,0,0,0,0,0,0,0,0,0,,,,,,,,,,,,,
1611744,1745470208728,0.0,88,,-0.06,-0.0,0.99,0,-0,-0,0.99,1.15,86,1605,0.0,3.5,,14.03,1.251,89.8,,16.5,5,,,,,,,,,,,,0,0,0,0,0,0,0,0,0,0,0,0,0,0,0,0,,,,,,0.0,,,,,,,
1611764,1745470208748,,,,,,,,,,,,,,,,,,,,,,,,,,,,,,,,,,0,0,0,0,0,0,0,0,0,0,0,0,0,0,0,0,,,,,,,,,,,,,
1611784,1745470208768,0.0,95,,-0.09,-0.01,0.98,0,-0,-0,0.98,1.15,85,1572,0.0,3.51,,14.03,1.251,89.8,,15.7,5,0,0,0,0,0.0,0.0,0.0,0.0,2.27,,,0,0,0,0,0,0,0,0,0,0,0,0,0,0,0,0,,0,,,,0.0,38.99379,-76.938782,0.04,25.4,30,3,0.9
1611804,1745470208788,,,,,,,,,,,,,,,,,,,,,,,,,,,,,,,,,,0,0,0,0,0,0,0,0,0,0,0,0,0,0,0,0,,,,,,,,,,,,,
1611824,1745470208806,0.0,88,,-0.12,0.02,0.96,0,-0,-0,0.96,1.15,84,1572,0.0,3.51,,14.12,1.233,89.8,,15.7,5,,,,,,,,,,,,0,0,0,0,0,0,0,0,0,0,0,0,0,0,0,0,,,,,,0.0,,,,,,,
1611844,1745470208826,,,,,,,,,,,,,,,,,,,,,,,,,,,,,,,,,,0,0,0,0,0,0,0,0,0,0,0,0,0,0,0,0,,,,,,,,,,,,,
1611864,1745470208846,0.0,91,,-0.11,0.02,0.94,-0,-0,-0,0.94,1.15,82,1512,0.0,3.52,,14.22,1.231,89.8,,16.3,5,,,,,,,,,,,,0,0,0,0,0,0,0,0,0,0,0,0,0,0,0,0,,,,,,0.0,,,,,,,
1611884,1745470208866,,,,,,,,,,,,,,,,,,,,,,,0,0,0,0,0.0,0.0,0.0,0.0,2.27,,,0,0,0,0,0,0,0,0,0,0,0,0,0,0,0,0,,0,,,,,38.99379,-76.938782,0.41,25.4,30,3,0.9
1611904,1745470208886,0.0,85,,-0.1,0.01,0.91,-0,-0,-0,0.92,1.15,80,1676,0.0,3.52,,14.08,1.243,89.8,,16.3,5,,,,,,,,,,,,0,0,0,0,0,0,0,0,0,0,0,0,0,0,0,0,,,,,,0.0,,,,,,,
1611924,1745470208906,,,,,,,,,,,,,,,,,,,,,,,,,,,,,,,,,,0,0,0,0,0,0,0,0,0,0,0,0,0,0,0,0,,,,,,,,,,,,,
1611944,1745470208926,0.0,71,,-0.07,0.02,0.94,-1,-1,0,0.94,1.15,82,1516,0.0,3.52,,14.22,1.224,89.8,,16.3,5,,,,,,,,,,,,0,0,0,0,0,0,0,0,0,0,0,0,0,0,0,0,,,,,,0.0,,,,,,,
1611964,1745470208946,,,,,,,,,,,,,,,,,,,,,,,,,,,,,,,,,,0,0,0,0,0,0,0,0,0,0,0,0,0,0,0,0,,,,,,,,,,,,,
1611984,1745470208966,0.0,85,,-0.06,0.01,0.95,-1,-0,0,0.96,1.15,83,1742,0.0,3.52,,14.22,1.224,89.8,,16.8,5,0,0,0,0,0.0,0.0,0.0,0.0,2.28,,,0,0,0,0,0,0,0,0,0,0,0,0,0,0,0,0,,0,,,,0.0,38.99379,-76.938782,0.32,25.4,30,3,0.9
1612004,1745470208986,,,,,,,,,,,,,,,,,,,,,,,,,,,,,,,,,,0,0,0,0,0,0,0,0,0,0,0,0,0,0,0,0,,,,,,,,,,,,,
1612024,1745470209006,0.0,74,,-0.04,0.03,0.97,-0,-0,0,0.97,1.15,84,1742,0.0,3.52,,14.1,1.234,89.8,,16.8,5,,,,,,,,,,,,0,0,0,0,0,0,0,0,0,0,0,0,0,0,0,0,,,,,,0.0,,,,,,,
1612044,1745470209020,,,,,,,,,,,,,,,,,,,,,,,,,,,,,,,,,,0,0,0,0,0,0,0,0,0,0,0,0,0,0,0,0,,,,,,,,,,,,,
1612064,1745470209040,0.0,85,,-0.04,0.01,0.96,-0,-0,-0,0.96,1.15,84,1930,0.0,3.47,,13.94,1.185,89.8,,20.1,5,,,,,,,,,,,,0,0,0,0,0,0,0,0,0,0,0,0,0,0,0,0,,,,,,0.0,,,,,,,
1612084,1745470209060,,,,,,,,,,,,,,,,,,,,,,,0,0,0,0,0.0,0.0,0.0,0.0,2.28,,,0,0,0,0,0,0,0,0,0,0,0,0,0,0,0,0,,0,,,,,38.99379,-76.938782,0.08,25.4,30,3,0.9
1612104,1745470209080,0.0,102,,-0.04,0.03,0.97,-0,-0,0,0.97,1.15,84,2193,0.0,3.41,,13.84,1.076,89.8,,20.1,5,,,,,,,,,,,,0,0,0,0,0,0,0,0,0,0,0,0,0,0,0,0,,,,,,0.0,,,,,,,
1612124,1745470209107,,,,,,,,,,,,,,,,,,,,,,,,,,,,,,,,,,0,0,0,0,0,0,0,0,0,0,0,0,0,0,0,0,,,,,,,,,,,,,
1612144,1745470209127,0.0,88,,-0.06,0.05,0.97,-0,-0,0,0.97,1.15,85,2220,0.0,3.32,,13.79,0.997,89.8,,20.1,5,,,,,,,,,,,,0,0,0,0,0,0,0,0,0,0,0,0,0,0,0,0,,,,,,0.0,,,,,,,
1612164,1745470209147,,,,,,,,,,,,,,,,,,,,,,,,,,,,,,,,,,0,0,0,0,0,0,0,0,0,0,0,0,0,0,0,0,,,,,,,,,,,,,
1612184,1745470209167,0.0,95,,-0.06,0.05,0.96,-0,-0,-0,0.96,1.15,84,2237,0.0,3.31,,13.79,0.997,89.8,,21.7,5,0,0,0,0,0.0,0.0,0.0,0.0,2.27,,,0,0,0,0,0,0,0,0,0,0,0,0,0,0,0,0,,0,,,,0.0,38.99379,-76.938782,0.3,25.4,30,3,0.9
1612204,1745470209187,,,,,,,,,,,,,,,,,,,,,,,,,,,,,,,,,,0,0,0,0,0,0,0,0,0,0,0,0,0,0,0,0,,,,,,,,,,,,,
1612224,1745470209204,0.0,81,,-0.06,0.08,0.96,0,-0,0,0.97,1.15,84,2237,0.0,3.31,,13.73,0.966,89.8,,21.7,5,,,,,,,,,,,,0,0,0,0,0,0,0,0,0,0,0,0,0,0,0,0,,,,,,0.0,,,,,,,
1612244,1745470209224,,,,,,,,,,,,,,,,,,,,,,,,,,,,,,,,,,0,0,0,0,0,0,0,0,0,0,0,0,0,0,0,0,,,,,,,,,,,,,
1612264,1745470209244,0.0,81,,-0.06,0.07,0.97,0,-0,0,0.98,1.15,85,2409,0.0,3.31,,13.67,0.972,89.8,,24.1,5,,,,,,,,,,,,0,0,0,0,0,0,0,0,0,0,0,0,0,0,0,0,,,,,,0.0,,,,,,,
1612284,1745470209264,,,,,,,,,,,,,,,,,,,,,,,0,0,0,0,0.0,0.0,0.0,0.0,2.27,,,0,0,0,0,0,0,0,0,0,0,0,0,0,0,0,0,,0,,,,,38.99379,-76.938782,0.28,25.4,30,3,0.9
1612304,1745470209284,0.0,78,,-0.06,0.06,0.96,0,-0,0,0.96,1.15,84,2590,0.0,3.19,,13.47,0.995,89.8,,24.1,5,,,,,,,,,,,,0,0,0,0,0,0,0,0,0,0,0,0,0,0,0,0,,,,,,0.0,,,,,,,
1612324,1745470209306,,,,,,,,,,,,,,,,,,,,,,,,,,,,,,,,,,0,0,0,0,0,0,0,0,0,0,0,0,0,0,0,0,,,,,,,,,,,,,
1612344,1745470209326,0.0,74,,-0.06,0.05,0.98,0,-0,0,0.98,1.15,86,2611,0.0,3.14,,13.33,1.027,89.8,,24.1,5,,,,,,,,,,,,0,0,0,0,0,0,0,0,0,0,0,0,0,0,0,0,,,,,,0.0,,,,,,,
1612364,1745470209346,,,,,,,,,,,,,,,,,,,,,,,,,,,,,,,,,,0,0,0,0,0,0,0,0,0,0,0,0,0,0,0,0,,,,,,,,,,,,,
1612384,1745470209366,0.0,81,13.68,-0.07,0.05,0.99,1,-0,0,0.99,1.15,86,2563,0.0,3.15,15,13.33,1.027,89.8,171,25.0,5,0,0,0,0,0.0,0.0,0.0,0.0,2.28,0,1.0,0,0,0,0,0,0,0,0,0,0,0,0,0,0,0,0,0,0,1.0,0,-0,0.0,38.99379,-76.938782,0.15,25.4,30,3,0.9
1612404,1745470209386,,,,,,,,,,,,,,,,,,,,,,,,,,,,,,,,,,0,0,0,0,0,0,0,0,0,0,0,0,0,0,0,0,,,,,,,,,,,,,
1612424,1745470209407,0.0,81,,-0.06,0.05,0.97,0,-0,0,0.98,1.15,85,2563,0.0,3.15,,13.32,1.066,89.8,,25.0,5,,,,,,,,,,,,0,0,0,0,0,0,0,0,0,0,0,0,0,0,0,0,,,,,,0.0,,,,,,,
1612444,1745470209427,,,,,,,,,,,,,,,,,,,,,,,,,,,,,,,,,,0,0,0,0,0,0,0,0,0,0,0,0,0,0,0,0,,,,,,,,,,,,,
1612464,1745470209447,0.0,88,,-0.07,0.04,0.99,0,-0,0,1.0,1.15,87,2527,0.0,3.17,,13.33,1.114,89.8,,24.1,5,,,,,,,,,,,,0,0,0,0,0,0,0,0,0,0,0,0,0,0,0,0,,,,,,0.0,,,,,,,
1612484,1745470209467,,,,,,,,,,,,,,,,,,,,,,,0,0,0,0,0.0,0.0,0.0,0.0,2.28,,,0,0,0,0,0,0,0,0,0,0,0,0,0,0,0,0,,0,,,,,38.99379,-76.938782,0.05,25.4,30,3,0.9
1612504,1745470209487,0.0,98,,-0.07,0.04,0.99,0,-0,0,0.99,1.15,86,2490,0.0,3.19,,13.32,1.144,89.8,,24.1,5,,,,,,,,,,,,0,0,0,0,0,0,0,0,0,0,0,0,0,0,0,0,,,,,,0.0,,,,,,,
1612524,1745470209507,,,,,,,,,,,,,,,,,,,,,,,,,,,,,,,,,,0,0,0,0,0,0,0,0,0,0,0,0,0,0,0,0,,,,,,,,,,,,,
1612544,1745470209527,0.0,91,,-0.08,0.04,1.0,0,-0,0,1.01,1.15,88,2408,0.0,3.22,,13.37,1.155,89.8,,24.1,5,,,,,,,,,,,,0,0,0,0,0,0,0,0,0,0,0,0,0,0,0,0,,,,,,0.0,,,,,,,
1612564,1745470209547,,,,,,,,,,,,,,,,,,,,,,,,,,,,,,,,,,0,0,0,0,0,0,0,0,0,0,0,0,0,0,0,0,,,,,,,,,,,,,
1612584,1745470209567,0.0,81,,-0.07,0.03,0.98,0,-0,0,0.99,1.15,86,2371,0.0,3.24,,13.37,1.155,89.8,,22.8,5,0,0,0,0,0.0,0.0,0.0,0.0,2.27,,,0,0,0,0,0,0,0,0,0,0,0,0,0,0,0,0,,0,,,,0.0,38.99379,-76.938782,0.12,25.4,30,3,0.9
1612604,1745470209587,,,,,,,,,,,,,,,,,,,,,,,,,,,,,,,,,,0,0,0,0,0,0,0,0,0,0,0,0,0,0,0,0,,,,,,,,,,,,,
1612624,1745470209607,0.0,78,,-0.08,0.04,1.0,0,-0,0,1.0,1.15,87,2371,0.0,3.24,,13.41,1.165,89.8,,22.8,5,,,,,,,,,,,,0,0,0,0,0,0,0,0,0,0,0,0,0,0,0,0,,,,,,0.0,,,,,,,
1612644,1745470209627,,,,,,,,,,,,,,,,,,,,,,,,,,,,,,,,,,0,0,0,0,0,0,0,0,0,0,0,0,0,0,0,0,,,,,,,,,,,,,
1612664,1745470209647,0.0,85,,-0.09,0.03,1.02,0,-0,0,1.02,1.15,89,2341,0.0,3.26,,13.47,1.204,89.8,,22.0,5,,,,,,,,,,,,0,0,0,0,0,0,0,0,0,0,0,0,0,0,0,0,,,,,,0.0,,,,,,,
1612684,1745470209667,,,,,,,,,,,,,,,,,,,,,,,0,0,0,0,0.0,0.0,0.0,0.0,2.26,,,0,0,0,0,0,0,0,0,0,0,0,0,0,0,0,0,,0,,,,,38.99379,-76.938782,0.04,25.4,30,3,0.9
1612704,1745470209687,0.0,78,,-0.08,0.02,1.02,0,-0,0,1.02,1.15,89,2293,0.0,3.27,,13.56,1.233,89.8,,22.0,5,,,,,,,,,,,,0,0,0,0,0,0,0,0,0,0,0,0,0,0,0,0,,,,,,0.0,,,,,,,
1612724,1745470209707,,,,,,,,,,,,,,,,,,,,,,,,,,,,,,,,,,0,0,0,0,0,0,0,0,0,0,0,0,0,0,0,0,,,,,,,,,,,,,
1612744,1745470209727,0.0,95,,-0.06,-0.0,1.01,-0,-0,0,1.02,1.15,88,2252,0.0,3.29,,13.6,1.247,89.8,,22.0,5,,,,,,,,,,,,0,0,0,0,0,0,0,0,0,0,0,0,0,0,0,0,,,,,,0.0,,,,,,,
1612764,1745470209747,,,,,,,,,,,,,,,,,,,,,,,,,,,,,,,,,,0,0,0,0,0,0,0,0,0,0,0,0,0,0,0,0,,,,,,,,,,,,,
1612784,1745470209767,0.0,98,,-0.06,-0.03,1.01,-0,-0,0,1.01,1.15,88,2238,0.0,3.31,,13.6,1.247,89.8,,21.9,5,0,0,0,0,0.0,0.0,0.0,0.0,2.26,,,0,0,0,0,0,0,0,0,0,0,0,0,0,0,0,0,,0,,,,0.0,38.99379,-76.938782,0.04,25.4,30,3,0.9
1612804,1745470209787,,,,,,,,,,,,,,,,,,,,,,,,,,,,,,,,,,0,0,0,0,0,0,0,0,0,0,0,0,0,0,0,0,,,,,,,,,,,,,
1612824,1745470209807,0.0,91,,-0.05,-0.05,0.99,-0,-0,0,1.0,1.15,87,2238,0.0,3.31,,13.59,1.244,89.8,,21.9,5,,,,,,,,,,,,0,0,0,0,0,0,0,0,0,0,0,0,0,0,0,0,,,,,,0.0,,,,,,,
1612844,1745470209827,,,,,,,,,,,,,,,,,,,,,,,,,,,,,,,,,,0,0,0,0,0,0,0,0,0,0,0,0,0,0,0,0,,,,,,,,,,,,,
1612864,1745470209847,0.0,95,,-0.04,-0.07,0.98,-0,-0,0,0.99,1.15,86,2243,0.0,3.3,,13.57,1.245,89.8,,21.6,5,,,,,,,,,,,,0,0,0,0,0,0,0,0,0,0,0,0,0,0,0,0,,,,,,0.0,,,,,,,
1612884,1745470209867,,,,,,,,,,,,,,,,,,,,,,,0,0,0,0,0.0,0.0,0.0,0.0,2.28,,,0,0,0,0,0,0,0,0,0,0,0,0,0,0,0,0,,0,,,,,38.99379,-76.938782,0.05,25.4,30,3,0.9
1612904,1745470209887,0.0,88,,-0.03,-0.08,1.0,-0,-0,0,1.0,1.15,87,2146,0.0,3.34,,13.65,1.247,89.8,,21.6,5,,,,,,,,,,,,0,0,0,0,0,0,0,0,0,0,0,0,0,0,0,0,,,,,,0.0,,,,,,,
1612924,1745470209908,,,,,,,,,,,,,,,,,,,,,,,,,,,,,,,,,,0,0,0,0,0,0,0,0,0,0,0,0,0,0,0,0,,,,,,,,,,,,,
1612944,1745470209928,0.0,81,,-0.06,-0.05,1.0,-0,-0,0,1.0,1.15,87,2123,0.0,3.37,,13.65,1.249,89.8,,21.6,5,,,,,,,,,,,,0,0,0,0,0,0,0,0,0,0,0,0,0,0,0,0,,,,,,0.0,,,,,,,
1612964,1745470209948,,,,,,,,,,,,,,,,,,,,,,,,,,,,,,,,,,0,0,0,0,0,0,0,0,0,0,0,0,0,0,0,0,,,,,,,,,,,,,
1612984,1745470209968,0.0,78,,-0.07,-0.05,1.01,-0,-0,0,1.02,1.15,88,2139,0.0,3.41,,13.65,1.249,89.8,,20.9,5,0,0,0,0,0.0,0.0,0.0,0.0,2.28,,,0,0,0,0,0,0,0,0,0,0,0,0,0,0,0,0,,0,,,,0.0,38.99379,-76.938782,0.11,25.4,30,3,0.9
1613004,1745470209988,,,,,,,,,,,,,,,,,,,,,,,,,,,,,,,,,,0,0,0,0,0,0,0,0,0,0,0,0,0,0,0,0,,,,,,,,,,,,,
1613024,1745470210001,0.0,81,,-0.07,-0.04,1.02,-0,-0,0,1.03,1.15,89,2139,0.0,3.41,,13.71,1.249,89.8,,20.9,5,,,,,,,,,,,,0,0,0,0,0,0,0,0,0,0,0,0,0,0,0,0,,,,,,0.0,,,,,,,
1613044,1745470210021,,,,,,,,,,,,,,,,,,,,,,,,,,,,,,,,,,0,0,0,0,0,0,0,0,0,0,0,0,0,0,0,0,,,,,,,,,,,,,
1613064,1745470210041,0.0,85,,-0.07,-0.04,1.01,-0,-0,0,1.01,1.15,88,2086,0.0,3.42,,13.72,1.25,89.8,,19.3,5,,,,,,,,,,,,0,0,0,0,0,0,0,0,0,0,0,0,0,0,0,0,,,,,,0.0,,,,,,,
1613084,1745470210061,,,,,,,,,,,,,,,,,,,,,,,0,0,0,0,0.0,0.0,0.0,0.0,2.27,,,0,0,0,0,0,0,0,0,0,0,0,0,0,0,0,0,,0,,,,,38.99379,-76.938782,0.07,25.4,30,3,0.9
1613104,1745470210081,0.0,91,,-0.09,-0.04,1.0,-1,-0,0,1.01,1.15,88,2078,0.0,3.45,,13.8,1.251,89.8,,19.3,5,,,,,,,,,,,,0,0,0,0,0,0,0,0,0,0,0,0,0,0,0,0,,,,,,0.0,,,,,,,
1613124,1745470210103,,,,,,,,,,,,,,,,,,,,,,,,,,,,,,,,,,0,0,0,0,0,0,0,0,0,0,0,0,0,0,0,0,,,,,,,,,,,,,
1613144,1745470210123,0.0,81,,-0.08,-0.05,0.99,-1,-0,-0,0.99,1.15,86,2400,0.0,3.35,,13.69,1.251,89.8,,19.3,5,,,,,,,,,,,,0,0,0,0,0,0,0,0,0,0,0,0,0,0,0,0,,,,,,0.0,,,,,,,
1613164,1745470210143,,,,,,,,,,,,,,,,,,,,,,,,,,,,,,,,,,0,0,0,0,0,0,0,0,0,0,0,0,0,0,0,0,,,,,,,,,,,,,
1613184,1745470210163,0.0,88,,-0.07,-0.05,0.99,-0,-0,0,0.99,1.15,86,2580,0.0,3.27,,13.69,1.251,89.8,,22.6,5,0,0,0,0,0.0,0.0,0.0,0.0,2.27,,,0,0,0,0,0,0,0,0,0,0,0,0,0,0,0,0,,0,,,,0.0,38.99379,-76.938782,0.0,25.4,30,3,0.9
1613204,1745470210183,,,,,,,,,,,,,,,,,,,,,,,,,,,,,,,,,,0,0,0,0,0,0,0,0,0,0,0,0,0,0,0,0,,,,,,,,,,,,,
1613224,1745470210203,0.0,88,,-0.07,-0.03,1.0,-0,-0,0,1.01,1.15,88,2580,0.0,3.27,,13.52,1.252,89.8,,22.6,5,,,,,,,,,,,,0,0,0,0,0,0,0,0,0,0,0,0,0,0,0,0,,,,,,0.0,,,,,,,
1613244,1745470210223,,,,,,,,,,,,,,,,,,,,,,,,,,,,,,,,,,0,0,0,0,0,0,0,0,0,0,0,0,0,0,0,0,,,,,,,,,,,,,
1613264,1745470210243,0.0,81,,-0.08,-0.01,0.99,0,-0,0,1.0,1.15,87,2548,0.0,3.2,,13.4,1.227,89.8,,23.8,5,,,,,,,,,,,,0,0,0,0,0,0,0,0,0,0,0,0,0,0,0,0,,,,,,0.0,,,,,,,
1613284,1745470210263,,,,,,,,,,,,,,,,,,,,,,,0,0,0,0,0.0,0.0,0.0,0.0,2.27,,,0,0,0,0,0,0,0,0,0,0,0,0,0,0,0,0,,0,,,,,38.99379,-76.938782,0.05,25.4,30,3,0.9
1613304,1745470210283,0.0,85,,-0.07,-0.01,0.98,0,-0,0,0.98,1.15,85,2534,0.0,3.22,,13.36,1.185,89.8,,23.8,5,,,,,,,,,,,,0,0,0,0,0,0,0,0,0,0,0,0,0,0,0,0,,,,,,0.0,,,,,,,
1613324,1745470210307,,,,,,,,,,,,,,,,,,,,,,,,,,,,,,,,,,0,0,0,0,0,0,0,0,0,0,0,0,0,0,0,0,,,,,,,,,,,,,
1613344,1745470210327,0.0,74,,-0.08,0.01,0.99,-0,-0,0,1.0,1.15,87,2504,0.0,3.24,,13.37,1.169,89.8,,23.8,5,,,,,,,,,,,,0,0,0,0,0,0,0,0,0,0,0,0,0,0,0,0,,,,,,0.0,,,,,,,
1613364,1745470210347,,,,,,,,,,,,,,,,,,,,,,,,,,,,,,,,,,0,0,0,0,0,0,0,0,0,0,0,0,0,0,0,0,,,,,,,,,,,,,
1613384,1745470210367,0.0,85,13.74,-0.07,-0.02,0.99,-0,-0,0,0.99,1.15,86,2501,0.0,3.23,15,13.37,1.169,89.8,171,23.7,5,0,0,0,0,0.0,0.0,0.0,0.0,2.27,0,1.0,0,0,0,0,0,0,0,0,0,0,0,0,0,0,0,0,0,0,1.0,0,-0,0.0,38.99379,-76.938782,0.05,25.4,30,3,0.9
1613404,1745470210387,,,,,,,,,,,,,,,,,,,,,,,,,,,,,,,,,,0,0,0,0,0,0,0,0,0,0,0,0,0,0,0,0,,,,,,,,,,,,,
1613424,1745470210406,0.0,91,,-0.08,-0.0,1.0,-0,-0,0,1.0,1.15,87,2501,0.0,3.23,,13.37,1.172,89.8,,23.7,5,,,,,,,,,,,,0,0,0,0,0,0,0,0,0,0,0,0,0,0,0,0,,,,,,0.0,,,,,,,
1613444,1745470210426,,,,,,,,,,,,,,,,,,,,,,,,,,,,,,,,,,0,0,0,0,0,0,0,0,0,0,0,0,0,0,0,0,,,,,,,,,,,,,
1613464,1745470210446,0.0,98,,-0.08,-0.02,0.98,-0,-0,0,0.98,1.15,85,2461,0.0,3.25,,13.41,1.16,89.8,,23.0,5,,,,,,,,,,,,0,0,0,0,0,0,0,0,0,0,0,0,0,0,0,0,,,,,,0.0,,,,,,,
1613484,1745470210466,,,,,,,,,,,,,,,,,,,,,,,0,0,0,0,0.0,0.0,0.0,0.0,2.28,,,0,0,0,0,0,0,0,0,0,0,0,0,0,0,0,0,,0,,,,,38.99379,-76.938782,0.05,25.4,30,3,0.9
1613504,1745470210486,0.0,95,,-0.08,-0.01,1.0,-0,-0,0,1.0,1.15,87,2439,0.0,3.26,,13.44,1.163,89.8,,23.0,5,,,,,,,,,,,,0,0,0,0,0,0,0,0,0,0,0,0,0,0,0,0,,,,,,0.0,,,,,,,
1613524,1745470210506,,,,,,,,,,,,,,,,,,,,,,,,,,,,,,,,,,0,0,0,0,0,0,0,0,0,0,0,0,0,0,0,0,,,,,,,,,,,,,
1613544,1745470210526,0.0,91,,-0.08,-0.02,1.01,-0,-0,0,1.02,1.15,88,2409,0.0,3.27,,13.47,1.181,89.8,,23.0,5,,,,,,,,,,,,0,0,0,0,0,0,0,0,0,0,0,0,0,0,0,0,,,,,,0.0,,,,,,,
1613564,1745470210546,,,,,,,,,,,,,,,,,,,,,,,,,,,,,,,,,,0,0,0,0,0,0,0,0,0,0,0,0,0,0,0,0,,,,,,,,,,,,,
1613584,1745470210566,0.0,85,,-0.07,-0.04,1.0,-0,-0,0,1.0,1.15,87,2394,0.0,3.29,,13.47,1.181,89.8,,22.3,5,0,0,0,0,0.0,0.0,0.0,0.0,2.27,,,0,0,0,0,0,0,0,0,0,0,0,0,0,0,0,0,,0,,,,0.0,38.99379,-76.938782,0.13,25.4,30,3,0.9
1613604,1745470210586,,,,,,,,,,,,,,,,,,,,,,,,,,,,,,,,,,0,0,0,0,0,0,0,0,0,0,0,0,0,0,0,0,,,,,,,,,,,,,
