"Interval"|"ms"|0|0|1,"Utc"|"ms"|0|0|1,"FrontBP"|"psi"|-5.0|5.0|25,"SteerAng"|"Degrees"|-145|145|25,"Battery"|"Volts"|-5.0|20.0|1,"AccelX"|"G"|-3.0|3.0|25,"AccelY"|"G"|-3.0|3.0|25,"AccelZ"|"G"|-3.0|3.0|25,"Yaw"|"Deg/Sec"|-120|120|25,"Pitch"|"Deg/Sec"|-120|120|25,"Roll"|"Deg/Sec"|-120|120|25,"Gsum"|"G"|0.0|3.0|25,"GsumMax"|"G"|0.0|3.0|25,"GsumPct"|"%"|0|100|25,"RPM"|""|0|10000|25,"TPS"|"%"|0.0|100.0|25,"InjectorPW"|"ms"|0.0|100.0|25,"Baro"|"kPa"|0|105|1,"MAP"|"Psi"|0.0|255.0|25,"Lambda"|""|-2.0|2.0|25,"IAT"|"C"|0.0|200.0|25,"EngineTemp"|"C"|0|200|1,"EOP"|"PSI"|0.0|152.0|25,"EOT"|"F"|0|250|25,"WSFR"|"MPH"|0|150|10,"WSFL"|"MPH"|0|100|10,"WSRR"|"MPH"|0|100|10,"WSRL"|""|0|100|10,"TCSet"|"%"|0.0|100.0|10,"TCSlip"|"%"|0.0|100.0|10,"TCComp"|"deg"|0.0|50.0|10,"TCCut"|"%"|0.0|100.0|10,"Analog8"|""|0.0|5.0|10,"OilTemp"|"F"|0|300|1,"AA_On"|""|0.0|1.0|1,"ThermLF1"|"C"|0|400|50,"ThermLF2"|"C"|0|400|50,"ThermRR1"|"C"|0|400|50,"ThermRR2"|"C"|0|400|50,"ThermLF3"|"C"|0|400|50,"ThermLF4"|"C"|0|400|50,"ThermLF5"|"C"|0|400|50,"ThermLF6"|"C"|0|400|50,"ThermLF7"|"C"|0|400|50,"ThermLF8"|"C"|0|400|50,"ThermRR3"|"C"|0|400|50,"ThermRR4"|"C"|0|400|50,"ThermRR5"|"C"|0|400|50,"ThermRR6"|"C"|0|400|50,"ThermRR7"|"C"|0|400|50,"ThermRR8"|"C"|0|400|50,"AA_LowDrag"|""|0|1|1,"Gear"|""|1|6|10,"AA_On"|""|0.0|1.0|1,"AA_LowDrag"|""|0|1|1,"Fuel_Mix"|""|-10|10|1,"AA_Packages"|""|0.0|1000.0|25,"Latitude"|"Degrees"|-180.0|180.0|10,"Longitude"|"Degrees"|-180.0|180.0|10,"Speed"|"kph"|0.0|150.0|10,"Altitude"|"m"|0.0|4000.0|10,"GPSSats"|""|0|20|10,"GPSQual"|""|0|5|10,"GPSDOP"|""|0.0|20.0|10
2113404,1745470710389,,,,,,,,,,,,,,,,,,,,,,,,,,,,,,,,,,0,0,0,0,0,0,0,0,0,0,0,0,0,0,0,0,,,,,,,,,,,,,
2113424,1745470710409,0.0,51,,-0.03,-0.28,0.87,1,-0,0,0.92,0.92,100,9550,0.2,1.4,,6.79,0.844,86.2,,56.9,5,,,,,,,,,,,,0,0,0,0,0,0,0,0,0,0,0,0,0,0,0,0,,,,,,0.0,,,,,,,
2113444,1745470710429,,,,,,,,,,,,,,,,,,,,,,,,,,,,,,,,,,0,0,0,0,0,0,0,0,0,0,0,0,0,0,0,0,,,,,,,,,,,,,
2113464,1745470710449,0.0,57,,-0.05,-0.28,0.84,-0,-0,-0,0.89,0.92,96,9580,0.2,1.4,,6.79,0.844,86.2,,56.9,5,,,,,,,,,,,,0,0,0,0,0,0,0,0,0,0,0,0,0,0,0,0,,,,,,0.0,,,,,,,
2113484,1745470710469,,,,,,,,,,,,,,,,,,,,,,,0,0,0,0,0.0,0.0,0.0,0.0,2.27,,,0,0,0,0,0,0,0,0,0,0,0,0,0,0,0,0,,0,,,,,38.993794,-76.938789,0.0,25.5,30,3,0.1
2113504,1745470710489,0.0,68,,-0.02,-0.16,0.86,-0,-0,-1,0.87,0.92,95,9580,0.2,1.4,,6.18,0.946,86.2,,53.6,5,,,,,,,,,,,,0,0,0,0,0,0,0,0,0,0,0,0,0,0,0,0,,,,,,0.0,,,,,,,
2113524,1745470710511,,,,,,,,,,,,,,,,,,,,,,,,,,,,,,,,,,0,0,0,0,0,0,0,0,0,0,0,0,0,0,0,0,,,,,,,,,,,,,
2113544,1745470710531,0.0,47,,-0.03,-0.14,0.9,0,-0,-0,0.91,0.92,99,9521,0.0,1.4,,5.76,0.997,86.2,,53.6,5,,,,,,,,,,,,0,0,0,0,0,0,0,0,0,0,0,0,0,0,0,0,,,,,,0.0,,,,,,,
2113564,1745470710551,,,,,,,,,,,,,,,,,,,,,,,,,,,,,,,,,,0,0,0,0,0,0,0,0,0,0,0,0,0,0,0,0,,,,,,,,,,,,,
2113584,1745470710571,0.0,47,,-0.04,-0.14,0.88,-0,-0,0,0.89,0.92,97,9461,6.4,1.67,,5.96,1.011,86.2,,53.6,5,0,0,0,0,0.0,0.0,0.0,0.0,2.27,,,0,0,0,0,0,0,0,0,0,0,0,0,0,0,0,0,,0,,,,0.0,38.993794,-76.938789,0.0,25.5,30,3,0.1
2113604,1745470710591,,,,,,,,,,,,,,,,,,,,,,,,,,,,,,,,,,0,0,0,0,0,0,0,0,0,0,0,0,0,0,0,0,,,,,,,,,,,,,
2113624,1745470710609,0.0,54,,-0.02,-0.12,0.9,0,-0,0,0.91,0.92,99,9623,44.3,3.25,,9.33,1.014,86.2,,53.6,5,,,,,,,,,,,,0,0,0,0,0,0,0,0,0,0,0,0,0,0,0,0,,,,,,0.0,,,,,,,
2113644,1745470710629,,,,,,,,,,,,,,,,,,,,,,,,,,,,,,,,,,0,0,0,0,0,0,0,0,0,0,0,0,0,0,0,0,,,,,,,,,,,,,
2113664,1745470710649,0.0,57,,-0.03,-0.07,0.89,0,-0,0,0.89,0.92,97,10153,60.7,4.63,,9.33,1.014,84.4,,53.6,5,,,,,,,,,,,,0,0,0,0,0,0,0,0,0,0,0,0,0,0,0,0,,,,,,0.0,,,,,,,
2113684,1745470710669,,,,,,,,,,,,,,,,,,,,,,,0,0,0,0,0.0,0.0,0.0,0.0,2.27,,,0,0,0,0,0,0,0,0,0,0,0,0,0,0,0,0,,0,,,,,38.993794,-76.938789,0.0,25.5,30,3,0.1
2113704,1745470710689,0.0,57,,-0.07,-0.36,0.97,1,-1,1,1.03,1.03,100,10153,60.7,4.63,,11.61,1.037,84.4,,54.9,5,,,,,,,,,,,,0,0,0,0,0,0,0,0,0,0,0,0,0,0,0,0,,,,,,0.0,,,,,,,
2113724,1745470710711,,,,,,,,,,,,,,,,,,,,,,,,,,,,,,,,,,0,0,0,0,0,0,0,0,0,0,0,0,0,0,0,0,,,,,,,,,,,,,
2113744,1745470710731,0.0,64,,-0.04,-0.39,1.03,2,0,1,1.1,1.1,100,11317,64.1,4.55,,12.88,1.078,84.4,,54.9,5,,,,,,,,,,,,0,0,0,0,0,0,0,0,0,0,0,0,0,0,0,0,,,,,,0.0,,,,,,,
2113764,1745470710751,,,,,,,,,,,,,,,,,,,,,,,,,,,,,,,,,,0,0,0,0,0,0,0,0,0,0,0,0,0,0,0,0,,,,,,,,,,,,,
2113784,1745470710771,0.0,91,,-0.03,-0.29,0.97,1,0,1,1.01,1.1,92,12701,40.7,4.14,,11.83,0.957,84.4,,54.9,5,0,0,0,0,0.0,0.0,0.0,0.0,2.26,,,0,0,0,0,0,0,0,0,0,0,0,0,0,0,0,0,,0,,,,0.0,38.993794,-76.938789,0.0,25.5,30,3,0.1
2113804,1745470710791,,,,,,,,,,,,,,,,,,,,,,,,,,,,,,,,,,0,0,0,0,0,0,0,0,0,0,0,0,0,0,0,0,,,,,,,,,,,,,
2113824,1745470710811,0.0,64,,-0.07,-0.46,0.96,1,0,1,1.06,1.1,97,13595,6.8,2.48,,11.83,0.957,84.4,,62.8,5,,,,,,,,,,,,0,0,0,0,0,0,0,0,0,0,0,0,0,0,0,0,,,,,,0.0,,,,,,,
2113844,1745470710831,,,,,,,,,,,,,,,,,,,,,,,,,,,,,,,,,,0,0,0,0,0,0,0,0,0,0,0,0,0,0,0,0,,,,,,,,,,,,,
2113864,1745470710851,0.0,57,,-0.11,-0.15,0.95,-1,-0,-0,0.97,1.1,88,13723,0.6,1.4,,9.01,0.944,84.4,,62.8,5,,,,,,,,,,,,0,0,0,0,0,0,0,0,0,0,0,0,0,0,0,0,,,,,,0.0,,,,,,,
2113884,1745470710871,,,,,,,,,,,,,,,,,,,,,,,0,0,0,0,0.0,0.0,0.0,0.0,2.27,,,0,0,0,0,0,0,0,0,0,0,0,0,0,0,0,0,,0,,,,,38.993794,-76.938789,0.0,25.5,30,3,0.1
2113904,1745470710891,0.0,61,,-0.1,0.03,0.85,-2,-0,-1,0.85,1.1,78,13723,0.6,1.4,,6.83,0.856,84.4,,68.6,5,,,,,,,,,,,,0,0,0,0,0,0,0,0,0,0,0,0,0,0,0,0,,,,,,0.0,,,,,,,
2113924,1745470710911,,,,,,,,,,,,,,,,,,,,,,,,,,,,,,,,,,0,0,0,0,0,0,0,0,0,0,0,0,0,0,0,0,,,,,,,,,,,,,
2113944,1745470710931,0.0,54,,-0.07,0.15,0.85,-1,-0,-0,0.86,1.1,79,13333,0.4,1.4,,5.78,0.86,84.4,,68.6,5,,,,,,,,,,,,0,0,0,0,0,0,0,0,0,0,0,0,0,0,0,0,,,,,,0.0,,,,,,,
2113964,1745470710951,,,,,,,,,,,,,,,,,,,,,,,,,,,,,,,,,,0,0,0,0,0,0,0,0,0,0,0,0,0,0,0,0,,,,,,,,,,,,,
2113984,1745470710971,0.0,51,,-0.07,0.11,0.83,-4,-1,0,0.84,1.1,77,12893,0.0,1.4,,5.14,0.99,84.4,,68.6,5,0,0,0,0,0.0,0.0,0.0,0.0,2.27,,,0,0,0,0,0,0,0,0,0,0,0,0,0,0,0,0,,0,,,,0.0,38.993794,-76.938789,0.05,25.5,30,3,0.1
2114004,1745470710991,,,,,,,,,,,,,,,,,,,,,,,,,,,,,,,,,,0,0,0,0,0,0,0,0,0,0,0,0,0,0,0,0,,,,,,,,,,,,,
2114024,1745470711011,0.0,71,,-0.1,0.01,0.84,-3,-1,0,0.85,1.1,77,12465,0.0,1.4,,4.73,1.056,84.4,,67.4,5,,,,,,,,,,,,0,0,0,0,0,0,0,0,0,0,0,0,0,0,0,0,,,,,,0.0,,,,,,,
2114044,1745470711020,,,,,,,,,,,,,,,,,,,,,,,,,,,,,,,,,,0,0,0,0,0,0,0,0,0,0,0,0,0,0,0,0,,,,,,,,,,,,,
2114064,1745470711040,0.0,68,,-0.09,-0.04,0.78,-3,-1,-0,0.78,1.1,71,12083,0.0,1.4,,4.73,1.056,84.4,,67.4,5,,,,,,,,,,,,0,0,0,0,0,0,0,0,0,0,0,0,0,0,0,0,,,,,,0.0,,,,,,,
2114084,1745470711060,,,,,,,,,,,,,,,,,,,,,,,0,0,0,0,0.0,0.0,0.0,0.0,2.27,,,0,0,0,0,0,0,0,0,0,0,0,0,0,0,0,0,,0,,,,,38.993794,-76.938789,0.07,25.5,31,3,0.9
2114104,1745470711080,0.0,64,,-0.02,-0.15,0.74,0,-1,-1,0.76,1.1,69,12083,0.0,1.4,,4.49,1.04,84.4,,60.1,5,,,,,,,,,,,,0,0,0,0,0,0,0,0,0,0,0,0,0,0,0,0,,,,,,0.0,,,,,,,
2114124,1745470711108,,,,,,,,,,,,,,,,,,,,,,,,,,,,,,,,,,0,0,0,0,0,0,0,0,0,0,0,0,0,0,0,0,,,,,,,,,,,,,
2114144,1745470711128,0.0,71,,-0.04,0.05,0.85,0,-1,-1,0.86,1.1,78,11691,0.1,1.4,,4.47,0.994,84.4,,60.1,5,,,,,,,,,,,,0,0,0,0,0,0,0,0,0,0,0,0,0,0,0,0,,,,,,0.0,,,,,,,
2114164,1745470711148,,,,,,,,,,,,,,,,,,,,,,,,,,,,,,,,,,0,0,0,0,0,0,0,0,0,0,0,0,0,0,0,0,,,,,,,,,,,,,
2114184,1745470711168,0.0,47,,-0.06,0.08,0.82,-1,-1,-0,0.83,1.1,75,11337,0.4,1.4,,4.52,0.983,84.4,,60.1,5,0,0,0,0,0.0,0.0,0.0,0.0,2.27,,,0,0,0,0,0,0,0,0,0,0,0,0,0,0,0,0,,0,,,,0.0,38.993794,-76.938789,0.05,25.5,31,3,0.9
2114204,1745470711188,,,,,,,,,,,,,,,,,,,,,,,,,,,,,,,,,,0,0,0,0,0,0,0,0,0,0,0,0,0,0,0,0,,,,,,,,,,,,,
2114224,1745470711204,0.0,54,,-0.05,-0.09,0.91,0,-1,-1,0.91,1.1,83,10927,0.4,1.4,,4.35,0.993,84.4,,57.9,5,,,,,,,,,,,,0,0,0,0,0,0,0,0,0,0,0,0,0,0,0,0,,,,,,0.0,,,,,,,
2114244,1745470711224,,,,,,,,,,,,,,,,,,,,,,,,,,,,,,,,,,0,0,0,0,0,0,0,0,0,0,0,0,0,0,0,0,,,,,,,,,,,,,
2114264,1745470711244,0.0,61,,-0.07,0.27,0.87,-1,-1,-0,0.91,1.1,83,10575,0.4,1.4,,4.35,0.993,84.4,,57.9,5,,,,,,,,,,,,0,0,0,0,0,0,0,0,0,0,0,0,0,0,0,0,,,,,,0.0,,,,,,,
2114284,1745470711264,,,,,,,,,,,,,,,,,,,,,,,0,0,0,0,0.0,0.0,0.0,0.0,2.26,,,0,0,0,0,0,0,0,0,0,0,0,0,0,0,0,0,,0,,,,,38.993794,-76.938789,0.0,25.5,31,3,0.9
2114304,1745470711284,0.0,51,,-0.1,0.65,0.88,-1,-1,-0,1.1,1.1,100,10575,0.4,1.4,,4.48,1.019,84.4,,56.3,5,,,,,,,,,,,,0,0,0,0,0,0,0,0,0,0,0,0,0,0,0,0,,,,,,0.0,,,,,,,
2114324,1745470711310,,,,,,,,,,,,,,,,,,,,,,,,,,,,,,,,,,0,0,0,0,0,0,0,0,0,0,0,0,0,0,0,0,,,,,,,,,,,,,
2114344,1745470711330,0.0,68,,-0.11,0.47,0.86,-2,-1,-1,0.98,1.1,89,10276,0.4,1.4,,4.47,1.03,84.4,,56.3,5,,,,,,,,,,,,0,0,0,0,0,0,0,0,0,0,0,0,0,0,0,0,,,,,,0.0,,,,,,,
2114364,1745470711350,,,,,,,,,,,,,,,,,,,,,,,,,,,,,,,,,,0,0,0,0,0,0,0,0,0,0,0,0,0,0,0,0,,,,,,,,,,,,,
2114384,1745470711370,0.0,64,13.84,-0.14,0.49,0.86,-1,-1,-0,1.0,1.1,91,9935,0.5,1.4,15,4.49,1.042,84.4,182,56.3,5,0,0,0,0,0.0,0.0,0.0,0.0,2.27,0,1.0,0,0,0,0,0,0,0,0,0,0,0,0,0,0,0,0,0,0,1.0,0,-0,0.0,38.993794,-76.938789,0.08,25.5,31,3,0.9
2114404,1745470711390,,,,,,,,,,,,,,,,,,,,,,,,,,,,,,,,,,0,0,0,0,0,0,0,0,0,0,0,0,0,0,0,0,,,,,,,,,,,,,
2114424,1745470711408,0.0,71,,-0.13,0.42,0.85,-2,-1,-1,0.96,1.1,87,9607,0.5,1.4,,4.67,1.054,84.4,,54.7,5,,,,,,,,,,,,0,0,0,0,0,0,0,0,0,0,0,0,0,0,0,0,,,,,,0.0,,,,,,,
2114444,1745470711428,,,,,,,,,,,,,,,,,,,,,,,,,,,,,,,,,,0,0,0,0,0,0,0,0,0,0,0,0,0,0,0,0,,,,,,,,,,,,,
2114464,1745470711448,0.0,61,,-0.12,0.58,0.92,-1,-1,-1,1.1,1.1,100,9191,13.0,1.73,,4.67,1.054,84.4,,54.7,5,,,,,,,,,,,,0,0,0,0,0,0,0,0,0,0,0,0,0,0,0,0,,,,,,0.0,,,,,,,
2114484,1745470711468,,,,,,,,,,,,,,,,,,,,,,,0,0,0,0,0.0,0.0,0.0,0.0,2.27,,,0,0,0,0,0,0,0,0,0,0,0,0,0,0,0,0,,0,,,,,38.993794,-76.938789,0.08,25.5,31,3,0.9
2114504,1745470711488,0.0,61,,-0.1,0.78,0.92,0,-1,-0,1.21,1.21,100,9191,13.0,1.73,,5.58,1.098,84.4,,51.7,5,,,,,,,,,,,,0,0,0,0,0,0,0,0,0,0,0,0,0,0,0,0,,,,,,0.0,,,,,,,
2114524,1745470711510,,,,,,,,,,,,,,,,,,,,,,,,,,,,,,,,,,0,0,0,0,0,0,0,0,0,0,0,0,0,0,0,0,,,,,,,,,,,,,
2114544,1745470711530,0.0,54,,-0.09,0.94,0.94,1,-1,0,1.33,1.33,100,8937,28.0,2.53,,7.93,1.209,84.4,,51.7,5,,,,,,,,,,,,0,0,0,0,0,0,0,0,0,0,0,0,0,0,0,0,,,,,,0.0,,,,,,,
2114564,1745470711550,,,,,,,,,,,,,,,,,,,,,,,,,,,,,,,,,,0,0,0,0,0,0,0,0,0,0,0,0,0,0,0,0,,,,,,,,,,,,,
2114584,1745470711570,0.0,61,,-0.06,1.1,0.94,1,-1,0,1.45,1.45,100,8996,31.6,3.17,,9.92,1.249,84.4,,51.7,5,0,0,0,0,0.0,0.0,0.0,0.0,2.27,,,0,0,0,0,0,0,0,0,0,0,0,0,0,0,0,0,,0,,,,0.0,38.993794,-76.938789,0.0,25.5,31,3,0.9
2114604,1745470711590,,,,,,,,,,,,,,,,,,,,,,,,,,,,,,,,,,0,0,0,0,0,0,0,0,0,0,0,0,0,0,0,0,,,,,,,,,,,,,
2114624,1745470711608,0.0,44,,-0.09,0.9,0.97,2,-1,0,1.33,1.45,92,9433,32.4,3.65,,10.81,1.25,84.4,,53.6,5,,,,,,,,,,,,0,0,0,0,0,0,0,0,0,0,0,0,0,0,0,0,,,,,,0.0,,,,,,,
2114644,1745470711628,,,,,,,,,,,,,,,,,,,,,,,,,,,,,,,,,,0,0,0,0,0,0,0,0,0,0,0,0,0,0,0,0,,,,,,,,,,,,,
2114664,1745470711648,0.0,68,,-0.09,1.0,0.95,1,-1,1,1.38,1.45,96,10160,29.9,4.15,,10.81,1.25,84.4,,53.6,5,,,,,,,,,,,,0,0,0,0,0,0,0,0,0,0,0,0,0,0,0,0,,,,,,0.0,,,,,,,
2114684,1745470711668,,,,,,,,,,,,,,,,,,,,,,,0,0,0,0,0.0,0.0,0.0,0.0,2.27,,,0,0,0,0,0,0,0,0,0,0,0,0,0,0,0,0,,0,,,,,38.993794,-76.938789,0.64,25.5,31,3,0.9
2114704,1745470711688,0.0,74,,-0.1,1.24,0.98,-0,-1,2,1.58,1.58,100,10160,29.9,4.15,,10.65,1.235,84.4,,57.1,5,,,,,,,,,,,,0,0,0,0,0,0,0,0,0,0,0,0,0,0,0,0,,,,,,0.0,,,,,,,
2114724,1745470711710,,,,,,,,,,,,,,,,,,,,,,,,,,,,,,,,,,0,0,0,0,0,0,0,0,0,0,0,0,0,0,0,0,,,,,,,,,,,,,
2114744,1745470711730,0.0,115,,-0.08,0.92,1.0,-1,-0,1,1.37,1.58,86,11250,13.0,2.84,,9.29,1.121,84.4,,57.1,5,,,,,,,,,,,,0,0,0,0,0,0,0,0,0,0,0,0,0,0,0,0,,,,,,0.0,,,,,,,
2114764,1745470711750,,,,,,,,,,,,,,,,,,,,,,,,,,,,,,,,,,0,0,0,0,0,0,0,0,0,0,0,0,0,0,0,0,,,,,,,,,,,,,
2114784,1745470711770,0.0,134,,-0.05,1.01,0.98,-1,-1,1,1.4,1.58,89,11706,6.1,2.15,,7.5,0.931,84.4,,57.1,5,0,0,0,0,0.0,0.0,0.0,0.0,2.26,,,0,0,0,0,0,0,0,0,0,0,0,0,0,0,0,0,,0,,,,0.0,38.993794,-76.938789,0.22,25.5,31,3,0.9
2114804,1745470711790,,,,,,,,,,,,,,,,,,,,,,,,,,,,,,,,,,0,0,0,0,0,0,0,0,0,0,0,0,0,0,0,0,,,,,,,,,,,,,
2114824,1745470711808,0.0,115,,-0.06,0.82,0.9,1,-1,-0,1.22,1.58,77,11914,2.6,1.4,,6.4,0.897,84.4,,58.3,5,,,,,,,,,,,,0,0,0,0,0,0,0,0,0,0,0,0,0,0,0,0,,,,,,0.0,,,,,,,
2114844,1745470711828,,,,,,,,,,,,,,,,,,,,,,,,,,,,,,,,,,0,0,0,0,0,0,0,0,0,0,0,0,0,0,0,0,,,,,,,,,,,,,
2114864,1745470711848,0.0,115,,-0.08,0.53,0.86,1,-1,-1,1.02,1.58,65,11523,0.9,1.4,,6.4,0.897,84.4,,58.3,5,,,,,,,,,,,,0,0,0,0,0,0,0,0,0,0,0,0,0,0,0,0,,,,,,0.0,,,,,,,
2114884,1745470711868,,,,,,,,,,,,,,,,,,,,,,,0,0,0,0,0.0,0.0,0.0,0.0,2.27,,,0,0,0,0,0,0,0,0,0,0,0,0,0,0,0,0,,0,,,,,38.993794,-76.938789,0.04,25.5,31,3,0.9
2114904,1745470711888,0.0,108,,-0.08,0.49,0.87,1,-1,-0,1.01,1.58,64,11523,0.9,1.4,,5.55,0.913,84.4,,55.6,5,,,,,,,,,,,,0,0,0,0,0,0,0,0,0,0,0,0,0,0,0,0,,,,,,0.0,,,,,,,
2114924,1745470711910,,,,,,,,,,,,,,,,,,,,,,,,,,,,,,,,,,0,0,0,0,0,0,0,0,0,0,0,0,0,0,0,0,,,,,,,,,,,,,
2114944,1745470711930,0.0,132,,-0.09,0.63,0.89,-0,-0,0,1.1,1.58,69,11111,0.7,1.4,,5.15,1.046,84.4,,55.6,5,,,,,,,,,,,,0,0,0,0,0,0,0,0,0,0,0,0,0,0,0,0,,,,,,0.0,,,,,,,
2114964,1745470711950,,,,,,,,,,,,,,,,,,,,,,,,,,,,,,,,,,0,0,0,0,0,0,0,0,0,0,0,0,0,0,0,0,,,,,,,,,,,,,
2114984,1745470711970,0.0,134,,-0.05,0.25,0.87,-0,-0,0,0.91,1.58,57,10693,0.4,1.4,,5.03,1.248,84.4,,55.6,5,0,0,0,0,0.0,0.0,0.0,0.0,2.27,,,0,0,0,0,0,0,0,0,0,0,0,0,0,0,0,0,,0,,,,0.0,38.993794,-76.938789,0.45,25.5,31,3,0.9
2115004,1745470711990,,,,,,,,,,,,,,,,,,,,,,,,,,,,,,,,,,0,0,0,0,0,0,0,0,0,0,0,0,0,0,0,0,,,,,,,,,,,,,
2115024,1745470712010,0.0,78,,-0.04,0.07,0.87,-1,-0,0,0.87,1.58,55,10302,0.3,1.4,,4.77,1.249,84.4,,55.6,5,,,,,,,,,,,,0,0,0,0,0,0,0,0,0,0,0,0,0,0,0,0,,,,,,0.0,,,,,,,
2115044,1745470712019,,,,,,,,,,,,,,,,,,,,,,,,,,,,,,,,,,0,0,0,0,0,0,0,0,0,0,0,0,0,0,0,0,,,,,,,,,,,,,
2115064,1745470712039,0.0,85,,-0.03,-0.03,0.81,-2,-1,0,0.82,1.58,52,10302,0.3,1.4,,4.77,1.249,84.4,,55.6,5,,,,,,,,,,,,0,0,0,0,0,0,0,0,0,0,0,0,0,0,0,0,,,,,,0.0,,,,,,,
2115084,1745470712059,,,,,,,,,,,,,,,,,,,,,,,0,0,0,0,0.0,0.0,0.0,0.0,2.27,,,0,0,0,0,0,0,0,0,0,0,0,0,0,0,0,0,,0,,,,,38.993794,-76.938789,0.36,25.5,31,3,0.9
2115104,1745470712079,0.0,95,,-0.0,0.07,0.84,-1,-1,1,0.85,1.58,54,9890,0.2,1.4,,4.79,1.25,84.4,,53.8,5,,,,,,,,,,,,0,0,0,0,0,0,0,0,0,0,0,0,0,0,0,0,,,,,,0.0,,,,,,,
2115124,1745470712103,,,,,,,,,,,,,,,,,,,,,,,,,,,,,,,,,,0,0,0,0,0,0,0,0,0,0,0,0,0,0,0,0,,,,,,,,,,,,,
2115144,1745470712123,0.0,91,,-0.0,0.12,0.92,-1,-1,1,0.92,1.58,59,9525,0.3,1.4,,4.73,1.251,84.4,,53.8,5,,,,,,,,,,,,0,0,0,0,0,0,0,0,0,0,0,0,0,0,0,0,,,,,,0.0,,,,,,,
2115164,1745470712143,,,,,,,,,,,,,,,,,,,,,,,,,,,,,,,,,,0,0,0,0,0,0,0,0,0,0,0,0,0,0,0,0,,,,,,,,,,,,,
2115184,1745470712163,0.0,68,,-0.02,0.43,0.91,-2,-0,1,1.0,1.58,64,9122,0.5,1.4,,4.67,1.251,84.4,,53.8,5,0,0,0,0,0.0,0.0,0.0,0.0,2.27,,,0,0,0,0,0,0,0,0,0,0,0,0,0,0,0,0,,0,,,,0.0,38.993794,-76.938789,0.11,25.5,31,3,0.9
2115204,1745470712183,,,,,,,,,,,,,,,,,,,,,,,,,,,,,,,,,,0,0,0,0,0,0,0,0,0,0,0,0,0,0,0,0,,,,,,,,,,,,,
2115224,1745470712201,0.0,71,,-0.02,0.55,0.92,-2,-0,1,1.07,1.58,68,8789,0.8,1.4,,4.67,1.251,84.4,,52.4,5,,,,,,,,,,,,0,0,0,0,0,0,0,0,0,0,0,0,0,0,0,0,,,,,,0.0,,,,,,,
2115244,1745470712221,,,,,,,,,,,,,,,,,,,,,,,,,,,,,,,,,,0,0,0,0,0,0,0,0,0,0,0,0,0,0,0,0,,,,,,,,,,,,,
2115264,1745470712241,0.0,71,,-0.02,0.43,0.92,-3,-0,1,1.01,1.58,64,8789,0.8,1.4,,4.8,1.251,84.4,,52.4,5,,,,,,,,,,,,0,0,0,0,0,0,0,0,0,0,0,0,0,0,0,0,,,,,,0.0,,,,,,,
2115284,1745470712261,,,,,,,,,,,,,,,,,,,,,,,0,0,0,0,0.0,0.0,0.0,0.0,2.26,,,0,0,0,0,0,0,0,0,0,0,0,0,0,0,0,0,,0,,,,,38.993794,-76.938789,0.0,25.5,31,3,0.9
2115304,1745470712281,0.0,78,,-0.03,0.4,0.91,-2,-0,1,1.0,1.58,63,8426,0.9,1.4,,4.96,1.252,84.4,,51.3,5,,,,,,,,,,,,0,0,0,0,0,0,0,0,0,0,0,0,0,0,0,0,,,,,,0.0,,,,,,,
2115324,1745470712309,,,,,,,,,,,,,,,,,,,,,,,,,,,,,,,,,,0,0,0,0,0,0,0,0,0,0,0,0,0,0,0,0,,,,,,,,,,,,,
2115344,1745470712329,0.0,134,,-0.0,0.39,0.96,-2,-0,1,1.03,1.58,66,8040,6.0,1.68,,5.59,1.249,84.4,,51.3,5,,,,,,,,,,,,0,0,0,0,0,0,0,0,0,0,0,0,0,0,0,0,,,,,,0.0,,,,,,,
2115364,1745470712349,,,,,,,,,,,,,,,,,,,,,,,,,,,,,,,,,,0,0,0,0,0,0,0,0,0,0,0,0,0,0,0,0,,,,,,,,,,,,,
2115384,1745470712369,0.0,71,13.85,-0.02,0.39,0.99,-2,-0,1,1.07,1.58,67,7673,8.3,2.1,15,6.28,1.248,84.4,182,51.3,5,0,0,0,0,0.0,0.0,0.0,0.0,2.26,0,1.0,0,0,0,0,0,0,0,0,0,0,0,0,0,0,0,0,0,0,1.0,0,0,0.0,38.993794,-76.938789,0.12,25.5,31,3,0.9
2115404,1745470712389,,,,,,,,,,,,,,,,,,,,,,,,,,,,,,,,,,0,0,0,0,0,0,0,0,0,0,0,0,0,0,0,0,,,,,,,,,,,,,
2115424,1745470712409,0.0,81,,-0.05,0.42,0.97,-2,-1,1,1.06,1.58,67,7589,9.1,2.36,,6.28,1.248,84.4,,51.7,5,,,,,,,,,,,,0,0,0,0,0,0,0,0,0,0,0,0,0,0,0,0,,,,,,0.0,,,,,,,
2115444,1745470712429,,,,,,,,,,,,,,,,,,,,,,,,,,,,,,,,,,0,0,0,0,0,0,0,0,0,0,0,0,0,0,0,0,,,,,,,,,,,,,
2115464,1745470712449,0.0,81,,-0.08,0.29,0.94,-2,-1,1,0.99,1.58,62,7589,9.1,2.36,,7.15,1.247,84.4,,51.7,5,,,,,,,,,,,,0,0,0,0,0,0,0,0,0,0,0,0,0,0,0,0,,,,,,0.0,,,,,,,
2115484,1745470712469,,,,,,,,,,,,,,,,,,,,,,,0,0,0,0,0.0,0.0,0.0,0.0,2.27,,,0,0,0,0,0,0,0,0,0,0,0,0,0,0,0,0,,0,,,,,38.993794,-76.938789,0.05,25.5,31,3,0.9
2115504,1745470712489,0.0,135,,-0.06,0.08,0.93,-2,-0,0,0.94,1.58,60,7584,9.4,2.53,,7.62,1.248,84.4,,52.2,5,,,,,,,,,,,,0,0,0,0,0,0,0,0,0,0,0,0,0,0,0,0,,,,,,0.0,,,,,,,
2115524,1745470712509,,,,,,,,,,,,,,,,,,,,,,,,,,,,,,,,,,0,0,0,0,0,0,0,0,0,0,0,0,0,0,0,0,,,,,,,,,,,,,
2115544,1745470712529,0.0,74,,-0.05,0.18,0.98,-1,-0,0,1.0,1.58,63,7747,9.4,2.7,,8.11,1.161,84.4,,52.2,5,,,,,,,,,,,,0,0,0,0,0,0,0,0,0,0,0,0,0,0,0,0,,,,,,0.0,,,,,,,
2115564,1745470712549,,,,,,,,,,,,,,,,,,,,,,,,,,,,,,,,,,0,0,0,0,0,0,0,0,0,0,0,0,0,0,0,0,,,,,,,,,,,,,
2115584,1745470712569,0.0,71,,-0.06,0.13,0.93,-1,-0,0,0.94,1.58,59,7861,9.4,2.76,,8.31,1.057,84.4,,52.2,5,0,0,0,0,0.0,0.0,0.0,0.0,2.27,,,0,0,0,0,0,0,0,0,0,0,0,0,0,0,0,0,,0,,,,0.0,38.993794,-76.938789,0.05,25.5,31,3,0.9
2115604,1745470712589,,,,,,,,,,,,,,,,,,,,,,,,,,,,,,,,,,0,0,0,0,0,0,0,0,0,0,0,0,0,0,0,0,,,,,,,,,,,,,
2115624,1745470712609,0.0,57,,-0.06,0.17,0.96,-1,-0,0,0.98,1.58,62,8093,9.4,2.8,,8.31,1.057,84.4,,52.0,5,,,,,,,,,,,,0,0,0,0,0,0,0,0,0,0,0,0,0,0,0,0,,,,,,0.0,,,,,,,
2115644,1745470712629,,,,,,,,,,,,,,,,,,,,,,,,,,,,,,,,,,0,0,0,0,0,0,0,0,0,0,0,0,0,0,0,0,,,,,,,,,,,,,
2115664,1745470712649,0.0,133,,-0.07,0.18,0.96,-0,-0,0,0.98,1.58,62,8093,9.4,2.8,,8.38,1.023,84.4,,52.0,5,,,,,,,,,,,,0,0,0,0,0,0,0,0,0,0,0,0,0,0,0,0,,,,,,0.0,,,,,,,
2115684,1745470712669,,,,,,,,,,,,,,,,,,,,,,,0,0,0,0,0.0,0.0,0.0,0.0,2.28,,,0,0,0,0,0,0,0,0,0,0,0,0,0,0,0,0,,0,,,,,38.993794,-76.938789,0.04,25.5,31,3,0.9
2115704,1745470712689,0.0,85,,-0.04,0.07,0.96,-1,-0,0,0.96,1.58,61,8452,9.9,2.73,,8.33,1.007,84.4,,54.1,5,,,,,,,,,,,,0,0,0,0,0,0,0,0,0,0,0,0,0,0,0,0,,,,,,0.0,,,,,,,
2115724,1745470712711,,,,,,,,,,,,,,,,,,,,,,,,,,,,,,,,,,0,0,0,0,0,0,0,0,0,0,0,0,0,0,0,0,,,,,,,,,,,,,
2115744,1745470712731,0.0,81,,-0.06,-0.12,0.92,-1,-0,-0,0.93,1.58,59,8813,9.9,2.57,,8.13,0.992,84.4,,54.1,5,,,,,,,,,,,,0,0,0,0,0,0,0,0,0,0,0,0,0,0,0,0,,,,,,0.0,,,,,,,
2115764,1745470712751,,,,,,,,,,,,,,,,,,,,,,,,,,,,,,,,,,0,0,0,0,0,0,0,0,0,0,0,0,0,0,0,0,,,,,,,,,,,,,
2115784,1745470712771,0.0,135,,-0.07,-0.4,0.92,0,-1,-1,1.01,1.58,64,9133,7.6,2.4,,7.5,0.98,84.4,,54.1,5,0,0,0,0,0.0,0.0,0.0,0.0,2.26,,,0,0,0,0,0,0,0,0,0,0,0,0,0,0,0,0,,0,,,,0.0,38.993794,-76.938789,0.16,25.5,32,3,0.9
2115804,1745470712791,,,,,,,,,,,,,,,,,,,,,,,,,,,,,,,,,,0,0,0,0,0,0,0,0,0,0,0,0,0,0,0,0,,,,,,,,,,,,,
2115824,1745470712809,0.0,51,,-0.06,-0.35,0.94,-0,-1,-1,1.01,1.58,64,9392,4.6,1.87,,7.5,0.98,84.4,,55.2,5,,,,,,,,,,,,0,0,0,0,0,0,0,0,0,0,0,0,0,0,0,0,,,,,,0.0,,,,,,,
2115844,1745470712829,,,,,,,,,,,,,,,,,,,,,,,,,,,,,,,,,,0,0,0,0,0,0,0,0,0,0,0,0,0,0,0,0,,,,,,,,,,,,,
2115864,1745470712849,0.0,54,,-0.07,-0.3,0.9,-1,-0,-0,0.95,1.58,60,9392,4.6,1.87,,6.82,0.984,84.4,,55.2,5,,,,,,,,,,,,0,0,0,0,0,0,0,0,0,0,0,0,0,0,0,0,,,,,,0.0,,,,,,,
2115884,1745470712869,,,,,,,,,,,,,,,,,,,,,,,0,0,0,0,0.0,0.0,0.0,0.0,2.27,,,0,0,0,0,0,0,0,0,0,0,0,0,0,0,0,0,,0,,,,,38.993794,-76.938789,0.08,25.5,32,3,0.9
2115904,1745470712889,0.0,57,,-0.03,-0.3,0.94,-0,-1,-0,0.99,1.58,63,9341,3.3,1.4,,6.3,0.992,84.4,,55.2,5,,,,,,,,,,,,0,0,0,0,0,0,0,0,0,0,0,0,0,0,0,0,,,,,,0.0,,,,,,,
2115924,1745470712910,,,,,,,,,,,,,,,,,,,,,,,,,,,,,,,,,,0,0,0,0,0,0,0,0,0,0,0,0,0,0,0,0,,,,,,,,,,,,,
2115944,1745470712930,0.0,54,,0.0,-0.1,1.0,0,-1,0,1.01,1.58,64,8925,2.7,1.4,,5.86,1.038,84.4,,54.2,5,,,,,,,,,,,,0,0,0,0,0,0,0,0,0,0,0,0,0,0,0,0,,,,,,0.0,,,,,,,
2115964,1745470712950,,,,,,,,,,,,,,,,,,,,,,,,,,,,,,,,,,0,0,0,0,0,0,0,0,0,0,0,0,0,0,0,0,,,,,,,,,,,,,
2115984,1745470712970,0.0,61,,-0.05,0.01,0.98,-0,-1,0,0.98,1.58,62,8417,2.2,1.4,,5.86,1.038,84.4,,54.2,5,0,0,0,0,0.0,0.0,0.0,0.0,2.27,,,0,0,0,0,0,0,0,0,0,0,0,0,0,0,0,0,,0,,,,0.0,38.993794,-76.938789,0.07,25.5,32,3,0.9
2116004,1745470712990,,,,,,,,,,,,,,,,,,,,,,,,,,,,,,,,,,0,0,0,0,0,0,0,0,0,0,0,0,0,0,0,0,,,,,,,,,,,,,
2116024,1745470713002,0.0,61,,-0.04,-0.01,1.01,1,-1,0,1.01,1.58,64,8417,2.2,1.4,,5.76,1.148,84.4,,49.9,5,,,,,,,,,,,,0,0,0,0,0,0,0,0,0,0,0,0,0,0,0,0,,,,,,0.0,,,,,,,
2116044,1745470713022,,,,,,,,,,,,,,,,,,,,,,,,,,,,,,,,,,0,0,0,0,0,0,0,0,0,0,0,0,0,0,0,0,,,,,,,,,,,,,
2116064,1745470713042,0.0,54,,-0.06,0.1,1.0,1,-1,1,1.0,1.58,63,7923,1.5,1.4,,5.84,1.25,84.4,,49.9,5,,,,,,,,,,,,0,0,0,0,0,0,0,0,0,0,0,0,0,0,0,0,,,,,,0.0,,,,,,,
2116084,1745470713062,,,,,,,,,,,,,,,,,,,,,,,0,0,0,0,0.0,0.0,0.0,0.0,2.28,,,0,0,0,0,0,0,0,0,0,0,0,0,0,0,0,0,,0,,,,,38.993794,-76.938789,0.04,25.5,32,3,0.9
2116104,1745470713082,0.0,68,,-0.08,0.13,1.03,2,-1,0,1.04,1.58,66,7501,1.4,1.4,,5.92,1.252,84.4,,49.9,5,,,,,,,,,,,,0,0,0,0,0,0,0,0,0,0,0,0,0,0,0,0,,,,,,0.0,,,,,,,
2116124,1745470713102,,,,,,,,,,,,,,,,,,,,,,,,,,,,,,,,,,0,0,0,0,0,0,0,0,0,0,0,0,0,0,0,0,,,,,,,,,,,,,
2116144,1745470713119,0.0,54,,-0.07,0.1,0.99,1,-1,0,1.0,1.58,63,7102,1.6,1.4,,6.22,1.251,84.4,,50.7,5,,,,,,,,,,,,0,0,0,0,0,0,0,0,0,0,0,0,0,0,0,0,,,,,,0.0,,,,,,,
2116164,1745470713139,,,,,,,,,,,,,,,,,,,,,,,,,,,,,,,,,,0,0,0,0,0,0,0,0,0,0,0,0,0,0,0,0,,,,,,,,,,,,,
2116184,1745470713159,0.0,44,,-0.06,0.09,1.01,1,-1,0,1.02,1.58,64,6676,1.8,1.4,,6.22,1.251,84.4,,50.7,5,0,0,0,0,0.0,0.0,0.0,0.0,2.26,,,0,0,0,0,0,0,0,0,0,0,0,0,0,0,0,0,,0,,,,0.0,38.993794,-76.938789,0.09,25.5,32,3,0.9
2116204,1745470713179,,,,,,,,,,,,,,,,,,,,,,,,,,,,,,,,,,0,0,0,0,0,0,0,0,0,0,0,0,0,0,0,0,,,,,,,,,,,,,
2116224,1745470713210,0.0,47,,-0.05,0.08,1.04,1,-0,0,1.05,1.58,66,6676,1.8,1.4,,6.51,1.251,84.4,,49.3,5,,,,,,,,,,,,0,0,0,0,0,0,0,0,0,0,0,0,0,0,0,0,,,,,,0.0,,,,,,,
2116244,1745470713230,,,,,,,,,,,,,,,,,,,,,,,,,,,,,,,,,,0,0,0,0,0,0,0,0,0,0,0,0,0,0,0,0,,,,,,,,,,,,,
2116264,1745470713250,0.0,47,,-0.06,0.13,1.15,2,-0,0,1.16,1.58,73,6302,1.8,1.4,,6.99,1.251,84.4,,49.3,5,,,,,,,,,,,,0,0,0,0,0,0,0,0,0,0,0,0,0,0,0,0,,,,,,0.0,,,,,,,
2116284,1745470713270,,,,,,,,,,,,,,,,,,,,,,,0,0,0,0,0.0,0.0,0.0,0.0,2.27,,,0,0,0,0,0,0,0,0,0,0,0,0,0,0,0,0,,0,,,,,38.993794,-76.938789,0.05,25.5,32,3,0.9
2116304,1745470713290,0.0,61,,-0.03,0.13,1.16,2,-0,0,1.16,1.58,74,5904,1.8,1.4,,7.35,1.25,84.4,,49.3,5,,,,,,,,,,,,0,0,0,0,0,0,0,0,0,0,0,0,0,0,0,0,,,,,,0.0,,,,,,,
2116324,1745470713308,,,,,,,,,,,,,,,,,,,,,,,,,,,,,,,,,,0,0,0,0,0,0,0,0,0,0,0,0,0,0,0,0,,,,,,,,,,,,,
2116344,1745470713328,0.0,64,,-0.05,0.11,1.13,1,-0,0,1.13,1.58,72,5493,1.7,1.49,,7.9,1.248,84.4,,49.6,5,,,,,,,,,,,,0,0,0,0,0,0,0,0,0,0,0,0,0,0,0,0,,,,,,0.0,,,,,,,
2116364,1745470713348,,,,,,,,,,,,,,,,,,,,,,,,,,,,,,,,,,0,0,0,0,0,0,0,0,0,0,0,0,0,0,0,0,,,,,,,,,,,,,
2116384,1745470713368,0.0,57,13.89,-0.04,0.03,1.08,1,-0,0,1.08,1.58,68,5168,1.5,1.68,15,7.9,1.248,84.4,182,49.6,5,0,0,0,0,0.0,0.0,0.0,0.0,2.27,0,1.0,0,0,0,0,0,0,0,0,0,0,0,0,0,0,0,0,0,0,1.0,0,-0,0.0,38.993794,-76.938789,0.04,25.5,32,3,0.9
2116404,1745470713388,,,,,,,,,,,,,,,,,,,,,,,,,,,,,,,,,,0,0,0,0,0,0,0,0,0,0,0,0,0,0,0,0,,,,,,,,,,,,,
2116424,1745470713410,0.0,57,,-0.07,0.08,1.11,1,-0,0,1.12,1.58,71,5168,1.5,1.68,,8.42,1.249,84.4,,45.9,5,,,,,,,,,,,,0,0,0,0,0,0,0,0,0,0,0,0,0,0,0,0,,,,,,0.0,,,,,,,
2116444,1745470713430,,,,,,,,,,,,,,,,,,,,,,,,,,,,,,,,,,0,0,0,0,0,0,0,0,0,0,0,0,0,0,0,0,,,,,,,,,,,,,
2116464,1745470713450,0.0,44,,-0.05,-0.01,1.05,-0,-0,0,1.06,1.58,67,4835,1.2,1.86,,8.87,1.249,84.4,,45.9,5,,,,,,,,,,,,0,0,0,0,0,0,0,0,0,0,0,0,0,0,0,0,,,,,,0.0,,,,,,,
2116484,1745470713470,,,,,,,,,,,,,,,,,,,,,,,0,0,0,0,0.0,0.0,0.0,0.0,2.28,,,0,0,0,0,0,0,0,0,0,0,0,0,0,0,0,0,,0,,,,,38.993794,-76.938789,0.11,25.5,32,3,0.9
2116504,1745470713490,0.0,44,,-0.03,-0.12,1.01,-3,-0,1,1.02,1.58,64,4548,1.2,1.89,,9.23,1.249,84.4,,45.9,5,,,,,,,,,,,,0,0,0,0,0,0,0,0,0,0,0,0,0,0,0,0,,,,,,0.0,,,,,,,
2116524,1745470713508,,,,,,,,,,,,,,,,,,,,,,,,,,,,,,,,,,0,0,0,0,0,0,0,0,0,0,0,0,0,0,0,0,,,,,,,,,,,,,
2116544,1745470713528,0.0,47,,-0.06,-0.02,1.09,-0,-0,1,1.09,1.58,69,4211,1.2,1.89,,9.62,1.251,84.4,,38.7,5,,,,,,,,,,,,0,0,0,0,0,0,0,0,0,0,0,0,0,0,0,0,,,,,,0.0,,,,,,,
2116564,1745470713548,,,,,,,,,,,,,,,,,,,,,,,,,,,,,,,,,,0,0,0,0,0,0,0,0,0,0,0,0,0,0,0,0,,,,,,,,,,,,,
2116584,1745470713568,0.0,37,,-0.05,-0.08,1.05,-2,-0,1,1.05,1.58,67,3959,1.1,1.94,,9.62,1.251,84.4,,38.7,5,0,0,0,0,0.0,0.0,0.0,0.0,2.27,,,0,0,0,0,0,0,0,0,0,0,0,0,0,0,0,0,,0,,,,0.0,38.993794,-76.938789,0.1,25.5,32,3,0.9
2116604,1745470713588,,,,,,,,,,,,,,,,,,,,,,,,,,,,,,,,,,0,0,0,0,0,0,0,0,0,0,0,0,0,0,0,0,,,,,,,,,,,,,
2116624,1745470713610,0.0,51,,-0.06,-0.05,1.05,-2,-0,1,1.05,1.58,66,3959,1.1,1.94,,9.98,1.251,84.4,,32.9,5,,,,,,,,,,,,0,0,0,0,0,0,0,0,0,0,0,0,0,0,0,0,,,,,,0.0,,,,,,,
2116644,1745470713630,,,,,,,,,,,,,,,,,,,,,,,,,,,,,,,,,,0,0,0,0,0,0,0,0,0,0,0,0,0,0,0,0,,,,,,,,,,,,,
2116664,1745470713650,0.0,51,,-0.05,-0.01,1.02,0,-0,1,1.02,1.58,64,3720,2.2,2.06,,10.53,1.251,84.4,,32.9,5,,,,,,,,,,,,0,0,0,0,0,0,0,0,0,0,0,0,0,0,0,0,,,,,,0.0,,,,,,,
2116684,1745470713670,,,,,,,,,,,,,,,,,,,,,,,0,0,0,0,0.0,0.0,0.0,0.0,2.26,,,0,0,0,0,0,0,0,0,0,0,0,0,0,0,0,0,,0,,,,,38.993794,-76.938789,0.1,25.5,32,3,0.9
2116704,1745470713690,0.0,54,,-0.09,-0.09,1.04,-2,-0,0,1.05,1.58,66,3439,4.5,3.22,,11.25,1.251,84.4,,32.9,5,,,,,,,,,,,,0,0,0,0,0,0,0,0,0,0,0,0,0,0,0,0,,,,,,0.0,,,,,,,
2116724,1745470713710,,,,,,,,,,,,,,,,,,,,,,,,,,,,,,,,,,0,0,0,0,0,0,0,0,0,0,0,0,0,0,0,0,,,,,,,,,,,,,
2116744,1745470713730,0.0,57,,-0.06,-0.0,0.96,1,-0,0,0.96,1.58,61,3343,5.1,3.48,,11.91,1.249,84.4,,27.7,5,,,,,,,,,,,,0,0,0,0,0,0,0,0,0,0,0,0,0,0,0,0,,,,,,0.0,,,,,,,
2116764,1745470713750,,,,,,,,,,,,,,,,,,,,,,,,,,,,,,,,,,0,0,0,0,0,0,0,0,0,0,0,0,0,0,0,0,,,,,,,,,,,,,
2116784,1745470713770,0.0,37,,-0.04,-0.03,1.04,-2,-0,1,1.04,1.58,66,3144,5.3,3.52,,11.91,1.249,84.4,,27.7,5,0,0,0,0,0.0,0.0,0.0,0.0,2.27,,,0,0,0,0,0,0,0,0,0,0,0,0,0,0,0,0,,0,,,,0.0,38.993794,-76.938789,0.04,25.5,32,3,0.9
2116804,1745470713790,,,,,,,,,,,,,,,,,,,,,,,,,,,,,,,,,,0,0,0,0,0,0,0,0,0,0,0,0,0,0,0,0,,,,,,,,,,,,,
2116824,1745470713808,0.0,27,,-0.05,-0.06,1.09,-3,-0,1,1.1,1.58,69,3144,5.3,3.52,,12.39,1.248,84.4,,26.5,5,,,,,,,,,,,,0,0,0,0,0,0,0,0,0,0,0,0,0,0,0,0,,,,,,0.0,,,,,,,
2116844,1745470713828,,,,,,,,,,,,,,,,,,,,,,,,,,,,,,,,,,0,0,0,0,0,0,0,0,0,0,0,0,0,0,0,0,,,,,,,,,,,,,
2116864,1745470713848,0.0,24,,-0.08,-0.08,1.12,-3,-0,1,1.13,1.58,71,3081,5.2,3.57,,12.76,1.249,84.4,,26.5,5,,,,,,,,,,,,0,0,0,0,0,0,0,0,0,0,0,0,0,0,0,0,,,,,,0.0,,,,,,,
2116884,1745470713868,,,,,,,,,,,,,,,,,,,,,,,0,0,0,0,0.0,0.0,0.0,0.0,2.28,,,0,0,0,0,0,0,0,0,0,0,0,0,0,0,0,0,,0,,,,,38.993794,-76.938789,0.0,25.5,32,3,0.9
2116904,1745470713888,0.0,20,,-0.12,-0.07,1.14,-3,-0,0,1.15,1.58,73,3053,5.2,3.62,,13.03,1.249,84.4,,26.5,5,,,,,,,,,,,,0,0,0,0,0,0,0,0,0,0,0,0,0,0,0,0,,,,,,0.0,,,,,,,
2116924,1745470713910,,,,,,,,,,,,,,,,,,,,,,,,,,,,,,,,,,0,0,0,0,0,0,0,0,0,0,0,0,0,0,0,0,,,,,,,,,,,,,
2116944,1745470713930,0.0,47,,-0.14,-0.09,1.17,-3,-0,0,1.18,1.58,75,2986,5.2,3.59,,13.17,1.25,84.4,,25.2,5,,,,,,,,,,,,0,0,0,0,0,0,0,0,0,0,0,0,0,0,0,0,,,,,,0.0,,,,,,,
2116964,1745470713950,,,,,,,,,,,,,,,,,,,,,,,,,,,,,,,,,,0,0,0,0,0,0,0,0,0,0,0,0,0,0,0,0,,,,,,,,,,,,,
2116984,1745470713970,0.0,47,,-0.13,-0.1,1.19,-4,-0,0,1.2,1.58,76,2986,5.2,3.59,,13.17,1.25,84.4,,25.2,5,0,0,0,0,0.0,0.0,0.0,0.0,2.28,,,0,0,0,0,0,0,0,0,0,0,0,0,0,0,0,0,,0,,,,0.0,38.993794,-76.938789,0.11,25.5,32,3,0.9
2117004,1745470713990,,,,,,,,,,,,,,,,,,,,,,,,,,,,,,,,,,0,0,0,0,0,0,0,0,0,0,0,0,0,0,0,0,,,,,,,,,,,,,
2117024,1745470714001,0.0,47,,-0.11,-0.08,1.21,-4,-0,1,1.21,1.58,77,2872,5.3,3.53,,13.31,1.228,84.4,,24.3,5,,,,,,,,,,,,0,0,0,0,0,0,0,0,0,0,0,0,0,0,0,0,,,,,,0.0,,,,,,,
2117044,1745470714021,,,,,,,,,,,,,,,,,,,,,,,,,,,,,,,,,,0,0,0,0,0,0,0,0,0,0,0,0,0,0,0,0,,,,,,,,,,,,,
2117064,1745470714041,0.0,47,,-0.09,-0.05,1.18,-4,-0,1,1.18,1.58,75,2876,5.5,3.55,,13.41,1.083,84.4,,24.3,5,,,,,,,,,,,,0,0,0,0,0,0,0,0,0,0,0,0,0,0,0,0,,,,,,0.0,,,,,,,
2117084,1745470714061,,,,,,,,,,,,,,,,,,,,,,,0,0,0,0,0.0,0.0,0.0,0.0,2.27,,,0,0,0,0,0,0,0,0,0,0,0,0,0,0,0,0,,0,,,,,38.993794,-76.938789,0.08,25.5,32,3,0.9
2117104,1745470714081,0.0,27,,-0.06,-0.06,1.12,-3,-0,1,1.12,1.58,71,2863,5.7,3.59,,13.48,1.002,84.4,,24.3,5,,,,,,,,,,,,0,0,0,0,0,0,0,0,0,0,0,0,0,0,0,0,,,,,,0.0,,,,,,,
2117124,1745470714109,,,,,,,,,,,,,,,,,,,,,,,,,,,,,,,,,,0,0,0,0,0,0,0,0,0,0,0,0,0,0,0,0,,,,,,,,,,,,,
2117144,1745470714129,0.0,37,,-0.08,-0.06,1.09,-2,-0,0,1.1,1.58,70,2860,5.7,3.56,,13.47,0.969,84.4,,23.2,5,,,,,,,,,,,,0,0,0,0,0,0,0,0,0,0,0,0,0,0,0,0,,,,,,0.0,,,,,,,
2117164,1745470714149,,,,,,,,,,,,,,,,,,,,,,,,,,,,,,,,,,0,0,0,0,0,0,0,0,0,0,0,0,0,0,0,0,,,,,,,,,,,,,
2117184,1745470714169,0.0,30,,-0.09,-0.06,1.11,-2,-0,0,1.12,1.58,71,2840,5.7,3.53,,13.47,0.969,84.4,,23.2,5,0,0,0,0,0.0,0.0,0.0,0.0,2.27,,,0,0,0,0,0,0,0,0,0,0,0,0,0,0,0,0,,0,,,,0.0,38.993794,-76.938789,0.11,25.5,32,3,0.9
2117204,1745470714189,,,,,,,,,,,,,,,,,,,,,,,,,,,,,,,,,,0,0,0,0,0,0,0,0,0,0,0,0,0,0,0,0,,,,,,,,,,,,,
2117224,1745470714209,0.0,30,,-0.08,-0.02,1.11,-2,-0,1,1.11,1.58,70,2840,5.7,3.53,,13.48,1.009,84.4,,23.5,5,,,,,,,,,,,,0,0,0,0,0,0,0,0,0,0,0,0,0,0,0,0,,,,,,0.0,,,,,,,
2117244,1745470714229,,,,,,,,,,,,,,,,,,,,,,,,,,,,,,,,,,0,0,0,0,0,0,0,0,0,0,0,0,0,0,0,0,,,,,,,,,,,,,
2117264,1745470714249,0.0,44,,-0.06,-0.03,1.05,-2,-0,0,1.05,1.58,67,2795,5.7,3.59,,13.52,1.082,84.4,,23.5,5,,,,,,,,,,,,0,0,0,0,0,0,0,0,0,0,0,0,0,0,0,0,,,,,,0.0,,,,,,,
2117284,1745470714269,,,,,,,,,,,,,,,,,,,,,,,0,0,0,0,0.0,0.0,0.0,0.0,2.27,,,0,0,0,0,0,0,0,0,0,0,0,0,0,0,0,0,,0,,,,,38.993794,-76.938789,0.08,25.5,32,3,0.9
2117304,1745470714289,0.0,27,,-0.08,-0.03,1.04,-1,-0,0,1.04,1.58,66,2796,5.5,3.61,,13.56,1.128,84.4,,23.5,5,,,,,,,,,,,,0,0,0,0,0,0,0,0,0,0,0,0,0,0,0,0,,,,,,0.0,,,,,,,
2117324,1745470714309,,,,,,,,,,,,,,,,,,,,,,,,,,,,,,,,,,0,0,0,0,0,0,0,0,0,0,0,0,0,0,0,0,,,,,,,,,,,,,
2117344,1745470714329,0.0,44,,-0.09,-0.05,1.08,-1,-0,0,1.08,1.58,69,2802,5.3,3.6,,13.56,1.136,84.4,,23.6,5,,,,,,,,,,,,0,0,0,0,0,0,0,0,0,0,0,0,0,0,0,0,,,,,,0.0,,,,,,,
2117364,1745470714349,,,,,,,,,,,,,,,,,,,,,,,,,,,,,,,,,,0,0,0,0,0,0,0,0,0,0,0,0,0,0,0,0,,,,,,,,,,,,,
2117384,1745470714369,0.0,44,13.9,-0.08,-0.03,1.11,-2,-0,0,1.12,1.58,71,2920,5.2,3.58,15,13.56,1.136,84.4,182,23.6,5,0,0,0,0,0.0,0.0,0.0,0.0,2.28,0,1.0,0,0,0,0,0,0,0,0,0,0,0,0,0,0,0,0,0,0,1.0,0,-0,0.0,38.993794,-76.938789,0.07,25.5,32,3,0.9
2117404,1745470714389,,,,,,,,,,,,,,,,,,,,,,,,,,,,,,,,,,0,0,0,0,0,0,0,0,0,0,0,0,0,0,0,0,,,,,,,,,,,,,
2117424,1745470714409,0.0,30,,-0.08,-0.0,1.07,-1,-0,0,1.08,1.58,68,2920,5.2,3.58,,13.51,1.165,84.4,,24.0,5,,,,,,,,,,,,0,0,0,0,0,0,0,0,0,0,0,0,0,0,0,0,,,,,,0.0,,,,,,,
2117444,1745470714429,,,,,,,,,,,,,,,,,,,,,,,,,,,,,,,,,,0,0,0,0,0,0,0,0,0,0,0,0,0,0,0,0,,,,,,,,,,,,,
2117464,1745470714449,0.0,27,,-0.05,0.0,1.06,-2,-0,1,1.06,1.58,67,2956,5.2,3.59,,13.48,1.177,84.4,,24.0,5,,,,,,,,,,,,0,0,0,0,0,0,0,0,0,0,0,0,0,0,0,0,,,,,,0.0,,,,,,,
2117484,1745470714469,,,,,,,,,,,,,,,,,,,,,,,0,0,0,0,0.0,0.0,0.0,0.0,2.28,,,0,0,0,0,0,0,0,0,0,0,0,0,0,0,0,0,,0,,,,,38.993794,-76.938789,0.05,25.5,32,3,0.9
2117504,1745470714489,0.0,27,,-0.03,0.01,1.01,-2,-0,1,1.01,1.58,64,2909,5.3,3.55,,13.47,1.202,84.4,,24.0,5,,,,,,,,,,,,0,0,0,0,0,0,0,0,0,0,0,0,0,0,0,0,,,,,,0.0,,,,,,,
2117524,1745470714509,,,,,,,,,,,,,,,,,,,,,,,,,,,,,,,,,,0,0,0,0,0,0,0,0,0,0,0,0,0,0,0,0,,,,,,,,,,,,,
2117544,1745470714529,0.0,30,,-0.01,-0.01,0.97,-2,-0,1,0.97,1.58,61,2946,5.5,3.56,,13.51,1.214,84.4,,24.8,5,,,,,,,,,,,,0,0,0,0,0,0,0,0,0,0,0,0,0,0,0,0,,,,,,0.0,,,,,,,
2117564,1745470714549,,,,,,,,,,,,,,,,,,,,,,,,,,,,,,,,,,0,0,0,0,0,0,0,0,0,0,0,0,0,0,0,0,,,,,,,,,,,,,
2117584,1745470714569,0.0,27,,0.01,-0.0,0.92,-1,-0,1,0.92,1.58,58,3004,5.7,3.6,,13.51,1.214,84.4,,24.8,5,0,0,0,0,0.0,0.0,0.0,0.0,2.27,,,0,0,0,0,0,0,0,0,0,0,0,0,0,0,0,0,,0,,,,0.0,38.993794,-76.938789,0.07,25.5,32,3,0.9
2117604,1745470714589,,,,,,,,,,,,,,,,,,,,,,,,,,,,,,,,,,0,0,0,0,0,0,0,0,0,0,0,0,0,0,0,0,,,,,,,,,,,,,
2117624,1745470714609,0.0,37,,0.02,-0.0,0.88,-0,-1,0,0.88,1.58,55,3004,5.7,3.6,,13.45,1.219,84.4,,24.4,5,,,,,,,,,,,,0,0,0,0,0,0,0,0,0,0,0,0,0,0,0,0,,,,,,0.0,,,,,,,
2117644,1745470714629,,,,,,,,,,,,,,,,,,,,,,,,,,,,,,,,,,0,0,0,0,0,0,0,0,0,0,0,0,0,0,0,0,,,,,,,,,,,,,
2117664,1745470714649,0.0,41,,0.03,0.01,0.84,-0,-1,1,0.84,1.58,53,3025,5.9,3.55,,13.45,1.225,86.2,,24.4,5,,,,,,,,,,,,0,0,0,0,0,0,0,0,0,0,0,0,0,0,0,0,,,,,,0.0,,,,,,,
2117684,1745470714669,,,,,,,,,,,,,,,,,,,,,,,0,0,0,0,0.0,0.0,0.0,0.0,2.27,,,0,0,0,0,0,0,0,0,0,0,0,0,0,0,0,0,,0,,,,,38.993794,-76.938789,0.04,25.5,32,3,0.9
2117704,1745470714689,0.0,37,,0.04,0.02,0.85,-1,-1,1,0.85,1.58,54,3027,5.8,3.62,,13.37,1.211,86.2,,24.4,5,,,,,,,,,,,,0,0,0,0,0,0,0,0,0,0,0,0,0,0,0,0,,,,,,0.0,,,,,,,
2117724,1745470714709,,,,,,,,,,,,,,,,,,,,,,,,,,,,,,,,,,0,0,0,0,0,0,0,0,0,0,0,0,0,0,0,0,,,,,,,,,,,,,
2117744,1745470714729,0.0,44,,0.06,0.0,0.91,-3,-1,1,0.92,1.58,58,3092,5.9,3.57,,13.39,1.206,86.2,,26.0,5,,,,,,,,,,,,0,0,0,0,0,0,0,0,0,0,0,0,0,0,0,0,,,,,,0.0,,,,,,,
2117764,1745470714749,,,,,,,,,,,,,,,,,,,,,,,,,,,,,,,,,,0,0,0,0,0,0,0,0,0,0,0,0,0,0,0,0,,,,,,,,,,,,,
2117784,1745470714769,0.0,20,,0.04,-0.04,0.98,-4,-0,1,0.99,1.58,62,3173,5.7,3.62,,13.39,1.206,86.2,,26.0,5,0,0,0,0,0.0,0.0,0.0,0.0,2.27,,,0,0,0,0,0,0,0,0,0,0,0,0,0,0,0,0,,0,,,,0.0,38.993794,-76.938789,0.07,25.5,32,3,0.9
2117804,1745470714789,,,,,,,,,,,,,,,,,,,,,,,,,,,,,,,,,,0,0,0,0,0,0,0,0,0,0,0,0,0,0,0,0,,,,,,,,,,,,,
2117824,1745470714809,0.0,24,,-0.01,-0.05,0.97,-2,-0,0,0.97,1.58,61,3173,5.7,3.62,,13.29,1.21,86.2,,26.4,5,,,,,,,,,,,,0,0,0,0,0,0,0,0,0,0,0,0,0,0,0,0,,,,,,0.0,,,,,,,
2117844,1745470714829,,,,,,,,,,,,,,,,,,,,,,,,,,,,,,,,,,0,0,0,0,0,0,0,0,0,0,0,0,0,0,0,0,,,,,,,,,,,,,
2117864,1745470714849,0.0,27,,-0.01,0.02,0.9,0,-1,0,0.9,1.58,57,3192,5.5,3.61,,13.28,1.216,86.2,,26.4,5,,,,,,,,,,,,0,0,0,0,0,0,0,0,0,0,0,0,0,0,0,0,,,,,,0.0,,,,,,,
2117884,1745470714869,,,,,,,,,,,,,,,,,,,,,,,0,0,0,0,0.0,0.0,0.0,0.0,2.28,,,0,0,0,0,0,0,0,0,0,0,0,0,0,0,0,0,,0,,,,,38.993794,-76.938789,0.07,25.5,32,3,0.9
2117904,1745470714889,0.0,20,,0.03,-0.0,0.95,-2,-0,1,0.95,1.58,60,0,5.3,3.68,,13.2,1.225,86.2,,26.4,5,,,,,,,,,,,,0,0,0,0,0,0,0,0,0,0,0,0,0,0,0,0,,,,,,0.0,,,,,,,
2117924,1745470714909,,,,,,,,,,,,,,,,,,,,,,,,,,,,,,,,,,0,0,0,0,0,0,0,0,0,0,0,0,0,0,0,0,,,,,,,,,,,,,
2117944,1745470714929,0.0,41,,0.02,-0.05,1.02,-3,-0,0,1.02,1.58,65,3155,5.1,3.57,,13.19,1.246,86.2,,26.5,5,,,,,,,,,,,,0,0,0,0,0,0,0,0,0,0,0,0,0,0,0,0,,,,,,0.0,,,,,,,
2117964,1745470714949,,,,,,,,,,,,,,,,,,,,,,,,,,,,,,,,,,0,0,0,0,0,0,0,0,0,0,0,0,0,0,0,0,,,,,,,,,,,,,
2117984,1745470714969,0.0,37,,-0.04,-0.04,1.0,-1,-0,0,1.0,1.58,63,3146,4.8,3.52,,13.19,1.246,86.2,,26.5,5,0,0,0,0,0.0,0.0,0.0,0.0,2.28,,,0,0,0,0,0,0,0,0,0,0,0,0,0,0,0,0,,0,,,,0.0,38.993794,-76.938789,0.07,25.5,32,3,0.9
2118004,1745470714989,,,,,,,,,,,,,,,,,,,,,,,,,,,,,,,,,,0,0,0,0,0,0,0,0,0,0,0,0,0,0,0,0,,,,,,,,,,,,,
2118024,1745470715009,0.0,34,,-0.04,0.02,0.92,1,-0,-0,0.92,1.58,58,3146,4.8,3.52,,13.19,1.25,86.2,,26.6,5,,,,,,,,,,,,0,0,0,0,0,0,0,0,0,0,0,0,0,0,0,0,,,,,,0.0,,,,,,,
2118044,1745470715020,,,,,,,,,,,,,,,,,,,,,,,,,,,,,,,,,,0,0,0,0,0,0,0,0,0,0,0,0,0,0,0,0,,,,,,,,,,,,,
2118064,1745470715040,0.0,30,,-0.01,0.04,0.91,1,-1,0,0.92,1.58,58,3141,4.7,3.51,,13.21,1.238,86.2,,26.6,5,,,,,,,,,,,,0,0,0,0,0,0,0,0,0,0,0,0,0,0,0,0,,,,,,0.0,,,,,,,
2118084,1745470715060,,,,,,,,,,,,,,,,,,,,,,,0,0,0,0,0.0,0.0,0.0,0.0,2.27,,,0,0,0,0,0,0,0,0,0,0,0,0,0,0,0,0,,0,,,,,38.993794,-76.938789,0.04,25.5,32,3,0.9
2118104,1745470715080,0.0,20,,0.01,0.01,0.99,-1,-0,1,0.99,1.58,63,3144,4.9,3.48,,13.19,1.229,86.2,,26.6,5,,,,,,,,,,,,0,0,0,0,0,0,0,0,0,0,0,0,0,0,0,0,,,,,,0.0,,,,,,,
2118124,1745470715110,,,,,,,,,,,,,,,,,,,,,,,,,,,,,,,,,,0,0,0,0,0,0,0,0,0,0,0,0,0,0,0,0,,,,,,,,,,,,,
2118144,1745470715130,0.0,30,,-0.01,-0.04,1.05,-2,-0,0,1.05,1.58,66,3162,5.0,3.48,,13.13,1.209,86.2,,26.1,5,,,,,,,,,,,,0,0,0,0,0,0,0,0,0,0,0,0,0,0,0,0,,,,,,0.0,,,,,,,
2118164,1745470715150,,,,,,,,,,,,,,,,,,,,,,,,,,,,,,,,,,0,0,0,0,0,0,0,0,0,0,0,0,0,0,0,0,,,,,,,,,,,,,
2118184,1745470715170,0.0,27,,-0.06,-0.02,1.0,-0,-0,0,1.01,1.58,64,3172,5.1,3.52,,13.13,1.209,86.2,,26.1,5,0,0,0,0,0.0,0.0,0.0,0.0,2.27,,,0,0,0,0,0,0,0,0,0,0,0,0,0,0,0,0,,0,,,,0.0,38.993794,-76.938789,0.04,25.5,32,3,0.9
2118204,1745470715190,,,,,,,,,,,,,,,,,,,,,,,,,,,,,,,,,,0,0,0,0,0,0,0,0,0,0,0,0,0,0,0,0,,,,,,,,,,,,,
2118224,1745470715210,0.0,20,,-0.04,0.02,0.93,1,-1,-0,0.93,1.58,59,3172,5.1,3.52,,13.17,1.227,86.2,,26.7,5,,,,,,,,,,,,0,0,0,0,0,0,0,0,0,0,0,0,0,0,0,0,,,,,,0.0,,,,,,,
2118244,1745470715230,,,,,,,,,,,,,,,,,,,,,,,,,,,,,,,,,,0,0,0,0,0,0,0,0,0,0,0,0,0,0,0,0,,,,,,,,,,,,,
2118264,1745470715250,0.0,34,,-0.01,0.02,0.99,-1,-1,0,0.99,1.58,63,3220,5.0,3.54,,13.15,1.213,86.2,,26.7,5,,,,,,,,,,,,0,0,0,0,0,0,0,0,0,0,0,0,0,0,0,0,,,,,,0.0,,,,,,,
2118284,1745470715270,,,,,,,,,,,,,,,,,,,,,,,0,0,0,0,0.0,0.0,0.0,0.0,2.26,,,0,0,0,0,0,0,0,0,0,0,0,0,0,0,0,0,,0,,,,,38.993794,-76.938789,0.08,25.5,32,3,0.9
2118304,1745470715290,0.0,41,,-0.03,-0.02,1.04,-2,-0,0,1.05,1.58,66,3216,5.0,3.51,,13.12,1.182,86.2,,26.7,5,,,,,,,,,,,,0,0,0,0,0,0,0,0,0,0,0,0,0,0,0,0,,,,,,0.0,,,,,,,
2118324,1745470715310,,,,,,,,,,,,,,,,,,,,,,,,,,,,,,,,,,0,0,0,0,0,0,0,0,0,0,0,0,0,0,0,0,,,,,,,,,,,,,
2118344,1745470715330,0.0,41,,-0.07,0.01,0.99,0,-0,-0,0.99,1.58,63,3159,4.7,3.55,,13.11,1.187,86.2,,27.1,5,,,,,,,,,,,,0,0,0,0,0,0,0,0,0,0,0,0,0,0,0,0,,,,,,0.0,,,,,,,
2118364,1745470715350,,,,,,,,,,,,,,,,,,,,,,,,,,,,,,,,,,0,0,0,0,0,0,0,0,0,0,0,0,0,0,0,0,,,,,,,,,,,,,
2118384,1745470715370,0.0,37,13.91,-0.06,0.06,0.94,2,-0,-0,0.94,1.58,60,3169,4.5,3.48,15,13.11,1.187,86.2,183,27.1,5,0,0,0,0,0.0,0.0,0.0,0.0,2.28,0,1.0,0,0,0,0,0,0,0,0,0,0,0,0,0,0,0,0,0,0,1.0,0,-0,0.0,38.993794,-76.938789,0.0,25.5,32,3,0.9
2118404,1745470715390,,,,,,,,,,,,,,,,,,,,,,,,,,,,,,,,,,0,0,0,0,0,0,0,0,0,0,0,0,0,0,0,0,,,,,,,,,,,,,
2118424,1745470715408,0.0,27,,-0.05,0.07,0.89,2,-1,-0,0.89,1.58,56,3169,4.5,3.48,,13.11,1.201,86.2,,26.3,5,,,,,,,,,,,,0,0,0,0,0,0,0,0,0,0,0,0,0,0,0,0,,,,,,0.0,,,,,,,
2118444,1745470715428,,,,,,,,,,,,,,,,,,,,,,,,,,,,,,,,,,0,0,0,0,0,0,0,0,0,0,0,0,0,0,0,0,,,,,,,,,,,,,
2118464,1745470715448,0.0,27,,-0.05,0.02,0.97,0,-0,0,0.97,1.58,61,3186,4.5,3.55,,13.12,1.202,86.2,,26.3,5,,,,,,,,,,,,0,0,0,0,0,0,0,0,0,0,0,0,0,0,0,0,,,,,,0.0,,,,,,,
2118484,1745470715468,,,,,,,,,,,,,,,,,,,,,,,0,0,0,0,0.0,0.0,0.0,0.0,2.28,,,0,0,0,0,0,0,0,0,0,0,0,0,0,0,0,0,,0,,,,,38.993794,-76.938789,0.08,25.5,32,3,0.9
2118504,1745470715488,0.0,20,,-0.09,-0.01,0.97,1,-0,-0,0.97,1.58,61,3145,4.5,3.49,,13.12,1.199,86.2,,26.3,5,,,,,,,,,,,,0,0,0,0,0,0,0,0,0,0,0,0,0,0,0,0,,,,,,0.0,,,,,,,
2118524,1745470715510,,,,,,,,,,,,,,,,,,,,,,,,,,,,,,,,,,0,0,0,0,0,0,0,0,0,0,0,0,0,0,0,0,,,,,,,,,,,,,
2118544,1745470715530,0.0,34,,-0.1,0.05,0.89,3,-1,-1,0.9,1.58,57,3207,4.4,3.46,,13.13,1.206,86.2,,26.5,5,,,,,,,,,,,,0,0,0,0,0,0,0,0,0,0,0,0,0,0,0,0,,,,,,0.0,,,,,,,
2118564,1745470715550,,,,,,,,,,,,,,,,,,,,,,,,,,,,,,,,,,0,0,0,0,0,0,0,0,0,0,0,0,0,0,0,0,,,,,,,,,,,,,
2118584,1745470715570,0.0,41,,-0.05,0.06,0.92,2,-1,-0,0.92,1.58,58,3235,4.4,3.48,,13.13,1.206,86.2,,26.5,5,0,0,0,0,0.0,0.0,0.0,0.0,2.27,,,0,0,0,0,0,0,0,0,0,0,0,0,0,0,0,0,,0,,,,0.0,38.993794,-76.938789,0.0,25.5,32,3,0.9
2118604,1745470715590,,,,,,,,,,,,,,,,,,,,,,,,,,,,,,,,,,0,0,0,0,0,0,0,0,0,0,0,0,0,0,0,0,,,,,,,,,,,,,
2118624,1745470715610,0.0,34,,-0.05,-0.01,1.0,-0,-0,0,1.0,1.58,63,3235,4.4,3.48,,13.07,1.193,86.2,,27.1,5,,,,,,,,,,,,0,0,0,0,0,0,0,0,0,0,0,0,0,0,0,0,,,,,,0.0,,,,,,,
2118644,1745470715630,,,,,,,,,,,,,,,,,,,,,,,,,,,,,,,,,,0,0,0,0,0,0,0,0,0,0,0,0,0,0,0,0,,,,,,,,,,,,,
2118664,1745470715650,0.0,34,,-0.09,0.0,0.97,1,-0,-0,0.97,1.58,61,3191,4.3,3.46,,13.07,1.176,86.2,,27.1,5,,,,,,,,,,,,0,0,0,0,0,0,0,0,0,0,0,0,0,0,0,0,,,,,,0.0,,,,,,,
2118684,1745470715670,,,,,,,,,,,,,,,,,,,,,,,0,0,0,0,0.0,0.0,0.0,0.0,2.27,,,0,0,0,0,0,0,0,0,0,0,0,0,0,0,0,0,,0,,,,,38.993794,-76.938789,0.0,25.5,32,3,0.9
2118704,1745470715690,0.0,34,,-0.07,0.06,0.92,2,-1,-0,0.92,1.58,58,3248,4.2,3.45,,13.05,1.192,86.2,,27.1,5,,,,,,,,,,,,0,0,0,0,0,0,0,0,0,0,0,0,0,0,0,0,,,,,,0.0,,,,,,,
2118724,1745470715710,,,,,,,,,,,,,,,,,,,,,,,,,,,,,,,,,,0,0,0,0,0,0,0,0,0,0,0,0,0,0,0,0,,,,,,,,,,,,,
2118744,1745470715730,0.0,30,,-0.05,0.01,1.0,-0,-0,0,1.01,1.58,64,3249,3.9,3.32,,12.97,1.208,86.2,,26.7,5,,,,,,,,,,,,0,0,0,0,0,0,0,0,0,0,0,0,0,0,0,0,,,,,,0.0,,,,,,,
2118764,1745470715750,,,,,,,,,,,,,,,,,,,,,,,,,,,,,,,,,,0,0,0,0,0,0,0,0,0,0,0,0,0,0,0,0,,,,,,,,,,,,,
2118784,1745470715770,0.0,17,,-0.09,-0.01,1.02,-0,-0,-0,1.02,1.58,65,3145,3.8,3.4,,12.97,1.208,86.2,,26.7,5,0,0,0,0,0.0,0.0,0.0,0.0,2.27,,,0,0,0,0,0,0,0,0,0,0,0,0,0,0,0,0,,0,,,,0.0,38.993794,-76.938789,0.05,25.5,32,3,0.9
2118804,1745470715790,,,,,,,,,,,,,,,,,,,,,,,,,,,,,,,,,,0,0,0,0,0,0,0,0,0,0,0,0,0,0,0,0,,,,,,,,,,,,,
2118824,1745470715808,0.0,20,,-0.1,0.03,0.93,2,-0,-0,0.94,1.58,60,3145,3.8,3.4,,13.0,1.206,86.2,,26.7,5,,,,,,,,,,,,0,0,0,0,0,0,0,0,0,0,0,0,0,0,0,0,,,,,,0.0,,,,,,,
2118844,1745470715828,,,,,,,,,,,,,,,,,,,,,,,,,,,,,,,,,,0,0,0,0,0,0,0,0,0,0,0,0,0,0,0,0,,,,,,,,,,,,,
2118864,1745470715848,0.0,27,,-0.06,0.06,0.93,2,-1,-0,0.93,1.58,59,3202,3.5,3.32,,12.97,1.199,86.2,,26.7,5,,,,,,,,,,,,0,0,0,0,0,0,0,0,0,0,0,0,0,0,0,0,,,,,,0.0,,,,,,,
2118884,1745470715868,,,,,,,,,,,,,,,,,,,,,,,0,0,0,0,0.0,0.0,0.0,0.0,2.27,,,0,0,0,0,0,0,0,0,0,0,0,0,0,0,0,0,,0,,,,,38.993794,-76.938789,0.07,25.5,32,3,0.9
2118904,1745470715888,0.0,34,,-0.03,0.02,1.0,0,-0,0,1.0,1.58,63,3175,3.1,3.32,,12.95,1.184,86.2,,26.7,5,,,,,,,,,,,,0,0,0,0,0,0,0,0,0,0,0,0,0,0,0,0,,,,,,0.0,,,,,,,
2118924,1745470715910,,,,,,,,,,,,,,,,,,,,,,,,,,,,,,,,,,0,0,0,0,0,0,0,0,0,0,0,0,0,0,0,0,,,,,,,,,,,,,
2118944,1745470715930,0.0,37,,-0.03,-0.02,1.05,-2,-0,0,1.05,1.58,67,3079,2.9,3.26,,12.93,1.192,86.2,,26.6,5,,,,,,,,,,,,0,0,0,0,0,0,0,0,0,0,0,0,0,0,0,0,,,,,,0.0,,,,,,,
2118964,1745470715950,,,,,,,,,,,,,,,,,,,,,,,,,,,,,,,,,,0,0,0,0,0,0,0,0,0,0,0,0,0,0,0,0,,,,,,,,,,,,,
2118984,1745470715970,0.0,37,,-0.07,-0.05,1.07,-2,-0,0,1.07,1.58,68,3094,2.7,3.24,,12.93,1.192,86.2,,26.6,5,0,0,0,0,0.0,0.0,0.0,0.0,2.28,,,0,0,0,0,0,0,0,0,0,0,0,0,0,0,0,0,,0,,,,0.0,38.993794,-76.938789,0.11,25.5,32,3,0.9
2119004,1745470715990,,,,,,,,,,,,,,,,,,,,,,,,,,,,,,,,,,0,0,0,0,0,0,0,0,0,0,0,0,0,0,0,0,,,,,,,,,,,,,
2119024,1745470716010,0.0,34,,-0.11,-0.02,1.03,-0,-0,-0,1.04,1.58,66,3094,2.7,3.24,,13.01,1.199,86.2,,25.5,5,,,,,,,,,,,,0,0,0,0,0,0,0,0,0,0,0,0,0,0,0,0,,,,,,0.0,,,,,,,
2119044,1745470716019,,,,,,,,,,,,,,,,,,,,,,,,,,,,,,,,,,0,0,0,0,0,0,0,0,0,0,0,0,0,0,0,0,,,,,,,,,,,,,
2119064,1745470716039,0.0,20,,-0.12,0.03,0.95,2,-0,-1,0.96,1.58,61,3099,2.7,3.14,,12.97,1.204,86.2,,25.5,5,,,,,,,,,,,,0,0,0,0,0,0,0,0,0,0,0,0,0,0,0,0,,,,,,0.0,,,,,,,
2119084,1745470716059,,,,,,,,,,,,,,,,,,,,,,,0,0,0,0,0.0,0.0,0.0,0.0,2.28,,,0,0,0,0,0,0,0,0,0,0,0,0,0,0,0,0,,0,,,,,38.993794,-76.938789,0.0,25.5,32,3,0.9
2119104,1745470716079,0.0,10,,-0.12,0.06,0.89,3,-0,-1,0.89,1.58,57,3031,2.6,3.14,,13.0,1.209,86.2,,25.5,5,,,,,,,,,,,,0,0,0,0,0,0,0,0,0,0,0,0,0,0,0,0,,,,,,0.0,,,,,,,
2119124,1745470716109,,,,,,,,,,,,,,,,,,,,,,,,,,,,,,,,,,0,0,0,0,0,0,0,0,0,0,0,0,0,0,0,0,,,,,,,,,,,,,
2119144,1745470716129,0.0,24,,-0.1,0.06,0.84,4,-1,-1,0.84,1.58,53,3003,2.8,3.11,,13.05,1.206,86.2,,25.5,5,,,,,,,,,,,,0,0,0,0,0,0,0,0,0,0,0,0,0,0,0,0,,,,,,0.0,,,,,,,
2119164,1745470716149,,,,,,,,,,,,,,,,,,,,,,,,,,,,,,,,,,0,0,0,0,0,0,0,0,0,0,0,0,0,0,0,0,,,,,,,,,,,,,
2119184,1745470716169,0.0,17,,-0.06,0.07,0.83,4,-1,-1,0.84,1.58,53,3239,3.0,3.13,,13.05,1.206,86.2,,25.5,5,0,0,0,0,0.0,0.0,0.0,0.0,2.27,,,0,0,0,0,0,0,0,0,0,0,0,0,0,0,0,0,,0,,,,0.0,38.993794,-76.938789,0.07,25.5,32,3,0.9
2119204,1745470716189,,,,,,,,,,,,,,,,,,,,,,,,,,,,,,,,,,0,0,0,0,0,0,0,0,0,0,0,0,0,0,0,0,,,,,,,,,,,,,
2119224,1745470716207,0.0,24,,-0.06,0.01,0.92,1,-0,-0,0.93,1.58,59,3239,3.0,3.13,,13.01,1.245,86.2,,26.5,5,,,,,,,,,,,,0,0,0,0,0,0,0,0,0,0,0,0,0,0,0,0,,,,,,0.0,,,,,,,
2119244,1745470716227,,,,,,,,,,,,,,,,,,,,,,,,,,,,,,,,,,0,0,0,0,0,0,0,0,0,0,0,0,0,0,0,0,,,,,,,,,,,,,
2119264,1745470716247,0.0,34,,-0.1,-0.01,0.92,2,-0,-0,0.93,1.58,59,3246,2.9,3.1,,12.93,1.252,86.2,,26.5,5,,,,,,,,,,,,0,0,0,0,0,0,0,0,0,0,0,0,0,0,0,0,,,,,,0.0,,,,,,,
2119284,1745470716267,,,,,,,,,,,,,,,,,,,,,,,0,0,0,0,0.0,0.0,0.0,0.0,2.27,,,0,0,0,0,0,0,0,0,0,0,0,0,0,0,0,0,,0,,,,,38.993794,-76.938789,0.04,25.5,32,3,0.9
2119304,1745470716287,0.0,34,,-0.1,0.05,0.85,3,-0,-1,0.86,1.58,54,3155,2.7,3.16,,12.91,1.222,86.2,,26.5,5,,,,,,,,,,,,0,0,0,0,0,0,0,0,0,0,0,0,0,0,0,0,,,,,,0.0,,,,,,,
2119324,1745470716309,,,,,,,,,,,,,,,,,,,,,,,,,,,,,,,,,,0,0,0,0,0,0,0,0,0,0,0,0,0,0,0,0,,,,,,,,,,,,,
2119344,1745470716329,0.0,37,,-0.07,0.06,0.85,3,-1,-0,0.86,1.58,54,3147,2.5,3.08,,12.87,1.19,86.2,,26.4,5,,,,,,,,,,,,0,0,0,0,0,0,0,0,0,0,0,0,0,0,0,0,,,,,,0.0,,,,,,,
2119364,1745470716349,,,,,,,,,,,,,,,,,,,,,,,,,,,,,,,,,,0,0,0,0,0,0,0,0,0,0,0,0,0,0,0,0,,,,,,,,,,,,,
2119384,1745470716369,0.0,20,13.9,-0.03,0.05,0.88,1,-1,0,0.88,1.58,56,3121,2.2,3.1,15,12.87,1.19,86.2,183,26.4,5,0,0,0,0,0.0,0.0,0.0,0.0,2.27,0,1.0,0,0,0,0,0,0,0,0,0,0,0,0,0,0,0,0,0,0,1.0,0,-0,0.0,38.993794,-76.938789,0.13,25.5,32,3,0.9
2119404,1745470716389,,,,,,,,,,,,,,,,,,,,,,,,,,,,,,,,,,0,0,0,0,0,0,0,0,0,0,0,0,0,0,0,0,,,,,,,,,,,,,
2119424,1745470716409,0.0,20,,-0.0,0.04,0.94,-0,-0,0,0.94,1.58,60,3121,2.2,3.1,,12.87,1.177,86.2,,26.1,5,,,,,,,,,,,,0,0,0,0,0,0,0,0,0,0,0,0,0,0,0,0,,,,,,0.0,,,,,,,
2119444,1745470716429,,,,,,,,,,,,,,,,,,,,,,,,,,,,,,,,,,0,0,0,0,0,0,0,0,0,0,0,0,0,0,0,0,,,,,,,,,,,,,
2119464,1745470716449,0.0,17,,0.02,0.02,1.0,-2,-0,0,1.0,1.58,64,3031,1.9,3.1,,12.93,1.19,86.2,,26.1,5,,,,,,,,,,,,0,0,0,0,0,0,0,0,0,0,0,0,0,0,0,0,,,,,,0.0,,,,,,,
2119484,1745470716469,,,,,,,,,,,,,,,,,,,,,,,0,0,0,0,0.0,0.0,0.0,0.0,2.28,,,0,0,0,0,0,0,0,0,0,0,0,0,0,0,0,0,,0,,,,,38.993794,-76.938789,0.0,25.5,32,3,0.9
2119504,1745470716489,0.0,17,,0.03,0.01,1.05,-3,-0,1,1.05,1.58,66,3003,1.9,3.11,,12.97,1.216,86.2,,26.1,5,,,,,,,,,,,,0,0,0,0,0,0,0,0,0,0,0,0,0,0,0,0,,,,,,0.0,,,,,,,
2119524,1745470716507,,,,,,,,,,,,,,,,,,,,,,,,,,,,,,,,,,0,0,0,0,0,0,0,0,0,0,0,0,0,0,0,0,,,,,,,,,,,,,
2119544,1745470716527,0.0,37,,0.04,0.0,1.08,-3,-0,1,1.08,1.58,68,2990,1.9,3.02,,13.0,1.246,86.2,,24.9,5,,,,,,,,,,,,0,0,0,0,0,0,0,0,0,0,0,0,0,0,0,0,,,,,,0.0,,,,,,,
2119564,1745470716547,,,,,,,,,,,,,,,,,,,,,,,,,,,,,,,,,,0,0,0,0,0,0,0,0,0,0,0,0,0,0,0,0,,,,,,,,,,,,,
2119584,1745470716567,0.0,30,,0.05,0.03,1.09,-4,-0,1,1.09,1.58,69,2935,1.9,3.1,,13.0,1.246,86.2,,24.9,5,0,0,0,0,0.0,0.0,0.0,0.0,2.28,,,0,0,0,0,0,0,0,0,0,0,0,0,0,0,0,0,,0,,,,0.0,38.993794,-76.938789,0.11,25.5,32,3,0.9
2119604,1745470716587,,,,,,,,,,,,,,,,,,,,,,,,,,,,,,,,,,0,0,0,0,0,0,0,0,0,0,0,0,0,0,0,0,,,,,,,,,,,,,
2119624,1745470716609,0.0,27,,0.07,0.01,1.05,-4,-0,1,1.05,1.58,66,2935,1.9,3.1,,13.07,1.246,86.2,,24.3,5,,,,,,,,,,,,0,0,0,0,0,0,0,0,0,0,0,0,0,0,0,0,,,,,,0.0,,,,,,,
2119644,1745470716629,,,,,,,,,,,,,,,,,,,,,,,,,,,,,,,,,,0,0,0,0,0,0,0,0,0,0,0,0,0,0,0,0,,,,,,,,,,,,,
2119664,1745470716649,0.0,27,,0.05,0.02,1.0,-2,-0,1,1.0,1.58,63,2820,2.1,3.08,,13.11,1.244,84.4,,24.3,5,,,,,,,,,,,,0,0,0,0,0,0,0,0,0,0,0,0,0,0,0,0,,,,,,0.0,,,,,,,
2119684,1745470716669,,,,,,,,,,,,,,,,,,,,,,,0,0,0,0,0.0,0.0,0.0,0.0,2.27,,,0,0,0,0,0,0,0,0,0,0,0,0,0,0,0,0,,0,,,,,38.993794,-76.938789,0.04,25.5,32,3,0.9
2119704,1745470716689,0.0,13,,0.02,-0.0,1.03,-2,-0,0,1.03,1.58,65,2771,2.3,3.07,,13.19,1.245,84.4,,24.3,5,,,,,,,,,,,,0,0,0,0,0,0,0,0,0,0,0,0,0,0,0,0,,,,,,0.0,,,,,,,
2119724,1745470716709,,,,,,,,,,,,,,,,,,,,,,,,,,,,,,,,,,0,0,0,0,0,0,0,0,0,0,0,0,0,0,0,0,,,,,,,,,,,,,
2119744,1745470716729,0.0,24,,0.01,0.03,1.04,-2,-0,1,1.04,1.58,66,2752,2.2,3.08,,13.24,1.251,84.4,,23.5,5,,,,,,,,,,,,0,0,0,0,0,0,0,0,0,0,0,0,0,0,0,0,,,,,,0.0,,,,,,,
2119764,1745470716749,,,,,,,,,,,,,,,,,,,,,,,,,,,,,,,,,,0,0,0,0,0,0,0,0,0,0,0,0,0,0,0,0,,,,,,,,,,,,,
2119784,1745470716769,0.0,24,,0.0,0.03,1.02,-2,-0,1,1.02,1.58,64,2746,2.1,3.13,,13.24,1.251,84.4,,23.5,5,0,0,0,0,0.0,0.0,0.0,0.0,2.27,,,0,0,0,0,0,0,0,0,0,0,0,0,0,0,0,0,,0,,,,0.0,38.993794,-76.938789,0.54,25.5,32,3,0.9
2119804,1745470716789,,,,,,,,,,,,,,,,,,,,,,,,,,,,,,,,,,0,0,0,0,0,0,0,0,0,0,0,0,0,0,0,0,,,,,,,,,,,,,
2119824,1745470716807,0.0,27,,0.0,-0.01,1.04,-2,-0,0,1.04,1.58,66,2746,2.1,3.13,,13.25,1.246,84.4,,22.3,5,,,,,,,,,,,,0,0,0,0,0,0,0,0,0,0,0,0,0,0,0,0,,,,,,0.0,,,,,,,
2119844,1745470716827,,,,,,,,,,,,,,,,,,,,,,,,,,,,,,,,,,0,0,0,0,0,0,0,0,0,0,0,0,0,0,0,0,,,,,,,,,,,,,
2119864,1745470716847,0.0,30,,0.0,-0.01,1.01,-2,-0,0,1.01,1.58,64,2722,2.0,3.15,,13.29,1.245,84.4,,22.3,5,,,,,,,,,,,,0,0,0,0,0,0,0,0,0,0,0,0,0,0,0,0,,,,,,0.0,,,,,,,
2119884,1745470716867,,,,,,,,,,,,,,,,,,,,,,,0,0,0,0,0.0,0.0,0.0,0.0,2.27,,,0,0,0,0,0,0,0,0,0,0,0,0,0,0,0,0,,0,,,,,38.993794,-76.938789,0.13,25.5,32,3,0.9
2119904,1745470716887,0.0,30,,-0.01,-0.0,1.02,-1,-0,0,1.02,1.58,65,2693,1.7,3.16,,13.27,1.249,84.4,,22.3,5,,,,,,,,,,,,0,0,0,0,0,0,0,0,0,0,0,0,0,0,0,0,,,,,,0.0,,,,,,,
2119924,1745470716910,,,,,,,,,,,,,,,,,,,,,,,,,,,,,,,,,,0,0,0,0,0,0,0,0,0,0,0,0,0,0,0,0,,,,,,,,,,,,,
2119944,1745470716930,0.0,37,,-0.01,0.0,1.02,-1,-0,0,1.02,1.58,64,2650,1.5,3.15,,13.31,1.248,84.4,,22.2,5,,,,,,,,,,,,0,0,0,0,0,0,0,0,0,0,0,0,0,0,0,0,,,,,,0.0,,,,,,,
2119964,1745470716950,,,,,,,,,,,,,,,,,,,,,,,,,,,,,,,,,,0,0,0,0,0,0,0,0,0,0,0,0,0,0,0,0,,,,,,,,,,,,,
2119984,1745470716970,0.0,34,,-0.02,-0.0,1.02,-1,-0,0,1.02,1.58,65,2597,1.4,3.16,,13.31,1.248,84.4,,22.2,5,0,0,0,0,0.0,0.0,0.0,0.0,2.28,,,0,0,0,0,0,0,0,0,0,0,0,0,0,0,0,0,,0,,,,0.0,38.993794,-76.938789,0.15,25.5,32,3,0.9
2120004,1745470716990,,,,,,,,,,,,,,,,,,,,,,,,,,,,,,,,,,0,0,0,0,0,0,0,0,0,0,0,0,0,0,0,0,,,,,,,,,,,,,
2120024,1745470717010,0.0,20,,-0.02,0.01,1.01,-1,-0,0,1.01,1.58,64,2597,1.4,3.16,,13.36,1.249,84.4,,21.9,5,,,,,,,,,,,,0,0,0,0,0,0,0,0,0,0,0,0,0,0,0,0,,,,,,0.0,,,,,,,
2120044,1745470717020,,,,,,,,,,,,,,,,,,,,,,,,,,,,,,,,,,0,0,0,0,0,0,0,0,0,0,0,0,0,0,0,0,,,,,,,,,,,,,
2120064,1745470717040,0.0,24,,-0.03,0.02,1.03,-0,-0,0,1.03,1.58,65,2617,1.4,3.17,,13.36,1.251,84.4,,21.9,5,,,,,,,,,,,,0,0,0,0,0,0,0,0,0,0,0,0,0,0,0,0,,,,,,0.0,,,,,,,
2120084,1745470717060,,,,,,,,,,,,,,,,,,,,,,,0,0,0,0,0.0,0.0,0.0,0.0,2.28,,,0,0,0,0,0,0,0,0,0,0,0,0,0,0,0,0,,0,,,,,38.993794,-76.938789,0.19,25.5,32,3,0.9
2120104,1745470717080,0.0,7,,-0.04,0.04,1.02,0,-0,0,1.02,1.58,65,2507,1.5,3.12,,13.43,1.251,84.4,,21.9,5,,,,,,,,,,,,0,0,0,0,0,0,0,0,0,0,0,0,0,0,0,0,,,,,,0.0,,,,,,,
2120124,1745470717105,,,,,,,,,,,,,,,,,,,,,,,,,,,,,,,,,,0,0,0,0,0,0,0,0,0,0,0,0,0,0,0,0,,,,,,,,,,,,,
2120144,1745470717125,0.0,24,,-0.04,0.06,1.01,-0,-0,0,1.01,1.58,64,2512,1.5,3.11,,13.48,1.252,84.4,,21.6,5,,,,,,,,,,,,0,0,0,0,0,0,0,0,0,0,0,0,0,0,0,0,,,,,,0.0,,,,,,,
2120164,1745470717145,,,,,,,,,,,,,,,,,,,,,,,,,,,,,,,,,,0,0,0,0,0,0,0,0,0,0,0,0,0,0,0,0,,,,,,,,,,,,,
2120184,1745470717165,0.0,20,,-0.05,0.04,1.03,0,-0,0,1.03,1.58,65,2471,1.8,3.11,,13.48,1.252,84.4,,21.6,5,0,0,0,0,0.0,0.0,0.0,0.0,2.27,,,0,0,0,0,0,0,0,0,0,0,0,0,0,0,0,0,,0,,,,0.0,38.993794,-76.938789,0.22,25.5,32,3,0.9
2120204,1745470717185,,,,,,,,,,,,,,,,,,,,,,,,,,,,,,,,,,0,0,0,0,0,0,0,0,0,0,0,0,0,0,0,0,,,,,,,,,,,,,
2120224,1745470717206,0.0,27,,-0.06,0.05,1.01,0,-0,0,1.01,1.58,64,2471,1.8,3.11,,13.51,1.253,84.4,,21.0,5,,,,,,,,,,,,0,0,0,0,0,0,0,0,0,0,0,0,0,0,0,0,,,,,,0.0,,,,,,,
2120244,1745470717226,,,,,,,,,,,,,,,,,,,,,,,,,,,,,,,,,,0,0,0,0,0,0,0,0,0,0,0,0,0,0,0,0,,,,,,,,,,,,,
2120264,1745470717246,0.0,24,,-0.06,0.04,1.01,0,-0,0,1.02,1.58,64,2418,2.0,3.15,,13.56,1.253,84.4,,21.0,5,,,,,,,,,,,,0,0,0,0,0,0,0,0,0,0,0,0,0,0,0,0,,,,,,0.0,,,,,,,
2120284,1745470717266,,,,,,,,,,,,,,,,,,,,,,,0,0,0,0,0.0,0.0,0.0,0.0,2.27,,,0,0,0,0,0,0,0,0,0,0,0,0,0,0,0,0,,0,,,,,38.993794,-76.938789,0.15,25.5,32,3,0.9
2120304,1745470717286,0.0,24,,-0.06,0.04,1.0,0,-0,0,1.01,1.58,64,2411,1.9,3.18,,13.59,1.246,84.4,,21.0,5,,,,,,,,,,,,0,0,0,0,0,0,0,0,0,0,0,0,0,0,0,0,,,,,,0.0,,,,,,,
2120324,1745470717310,,,,,,,,,,,,,,,,,,,,,,,,,,,,,,,,,,0,0,0,0,0,0,0,0,0,0,0,0,0,0,0,0,,,,,,,,,,,,,
2120344,1745470717330,0.0,24,,-0.06,0.02,1.02,0,-0,0,1.02,1.58,65,2376,1.9,3.2,,13.6,1.249,84.4,,20.5,5,,,,,,,,,,,,0,0,0,0,0,0,0,0,0,0,0,0,0,0,0,0,,,,,,0.0,,,,,,,
2120364,1745470717350,,,,,,,,,,,,,,,,,,,,,,,,,,,,,,,,,,0,0,0,0,0,0,0,0,0,0,0,0,0,0,0,0,,,,,,,,,,,,,
2120384,1745470717370,0.0,17,13.58,-0.05,0.01,1.01,1,-0,-0,1.01,1.58,64,2320,1.7,3.21,15,13.6,1.249,84.4,183,20.5,5,0,0,0,0,0.0,0.0,0.0,0.0,2.27,0,1.0,0,0,0,0,0,0,0,0,0,0,0,0,0,0,0,0,0,0,1.0,0,-0,0.0,38.993794,-76.938789,0.04,25.5,32,3,0.9
2120404,1745470717390,,,,,,,,,,,,,,,,,,,,,,,,,,,,,,,,,,0,0,0,0,0,0,0,0,0,0,0,0,0,0,0,0,,,,,,,,,,,,,
2120424,1745470717410,0.0,13,,-0.05,-0.01,1.0,0,-0,-0,1.0,1.58,64,2320,1.7,3.21,,13.65,1.25,84.4,,20.2,5,,,,,,,,,,,,0,0,0,0,0,0,0,0,0,0,0,0,0,0,0,0,,,,,,0.0,,,,,,,
2120444,1745470717430,,,,,,,,,,,,,,,,,,,,,,,,,,,,,,,,,,0,0,0,0,0,0,0,0,0,0,0,0,0,0,0,0,,,,,,,,,,,,,
2120464,1745470717450,0.0,7,,-0.07,-0.0,1.01,1,-0,-0,1.01,1.58,64,2295,1.5,3.22,,13.68,1.243,84.4,,20.2,5,,,,,,,,,,,,0,0,0,0,0,0,0,0,0,0,0,0,0,0,0,0,,,,,,0.0,,,,,,,
2120484,1745470717470,,,,,,,,,,,,,,,,,,,,,,,0,0,0,0,0.0,0.0,0.0,0.0,2.28,,,0,0,0,0,0,0,0,0,0,0,0,0,0,0,0,0,,0,,,,,38.993794,-76.938789,0.05,25.5,32,3,0.9
2120504,1745470717490,0.0,7,,-0.08,0.01,1.0,0,-0,-0,1.01,1.58,64,2289,1.3,3.22,,13.71,1.23,84.4,,20.2,5,,,,,,,,,,,,0,0,0,0,0,0,0,0,0,0,0,0,0,0,0,0,,,,,,0.0,,,,,,,
2120524,1745470717510,,,,,,,,,,,,,,,,,,,,,,,,,,,,,,,,,,0,0,0,0,0,0,0,0,0,0,0,0,0,0,0,0,,,,,,,,,,,,,
2120544,1745470717530,0.0,34,,-0.07,0.03,1.0,0,-0,0,1.0,1.58,63,2275,1.2,3.2,,13.69,1.234,84.4,,19.9,5,,,,,,,,,,,,0,0,0,0,0,0,0,0,0,0,0,0,0,0,0,0,,,,,,0.0,,,,,,,
2120564,1745470717550,,,,,,,,,,,,,,,,,,,,,,,,,,,,,,,,,,0,0,0,0,0,0,0,0,0,0,0,0,0,0,0,0,,,,,,,,,,,,,
2120584,1745470717570,0.0,27,,-0.06,-0.0,0.99,0,-0,0,0.99,1.58,63,2302,1.3,3.2,,13.69,1.234,84.4,,19.9,5,0,0,0,0,0.0,0.0,0.0,0.0,2.28,,,0,0,0,0,0,0,0,0,0,0,0,0,0,0,0,0,,0,,,,0.0,38.993794,-76.938789,0.05,25.5,32,3,0.9
2120604,1745470717590,,,,,,,,,,,,,,,,,,,,,,,,,,,,,,,,,,0,0,0,0,0,0,0,0,0,0,0,0,0,0,0,0,,,,,,,,,,,,,
2120624,1745470717610,0.0,24,,-0.06,-0.0,0.98,0,-0,-0,0.98,1.58,62,2302,1.3,3.2,,13.68,1.247,84.4,,19.8,5,,,,,,,,,,,,0,0,0,0,0,0,0,0,0,0,0,0,0,0,0,0,,,,,,0.0,,,,,,,
2120644,1745470717630,,,,,,,,,,,,,,,,,,,,,,,,,,,,,,,,,,0,0,0,0,0,0,0,0,0,0,0,0,0,0,0,0,,,,,,,,,,,,,
2120664,1745470717650,0.0,-7,,-0.06,0.0,0.96,-0,-0,-0,0.96,1.58,61,2329,1.3,3.26,,13.68,1.252,84.4,,19.8,5,,,,,,,,,,,,0,0,0,0,0,0,0,0,0,0,0,0,0,0,0,0,,,,,,0.0,,,,,,,
2120684,1745470717670,,,,,,,,,,,,,,,,,,,,,,,0,0,0,0,0.0,0.0,0.0,0.0,2.27,,,0,0,0,0,0,0,0,0,0,0,0,0,0,0,0,0,,0,,,,,38.993794,-76.938789,0.0,25.5,32,3,0.9
2120704,1745470717690,0.0,10,,-0.07,0.02,0.96,-0,-0,-0,0.97,1.58,61,2314,1.5,3.25,,13.72,1.252,84.4,,19.8,5,,,,,,,,,,,,0,0,0,0,0,0,0,0,0,0,0,0,0,0,0,0,,,,,,0.0,,,,,,,
2120724,1745470717710,,,,,,,,,,,,,,,,,,,,,,,,,,,,,,,,,,0,0,0,0,0,0,0,0,0,0,0,0,0,0,0,0,,,,,,,,,,,,,
2120744,1745470717730,0.0,24,,-0.09,0.04,0.97,-0,-0,-0,0.97,1.58,61,2301,1.8,3.24,,13.76,1.251,84.4,,19.4,5,,,,,,,,,,,,0,0,0,0,0,0,0,0,0,0,0,0,0,0,0,0,,,,,,0.0,,,,,,,
2120764,1745470717750,,,,,,,,,,,,,,,,,,,,,,,,,,,,,,,,,,0,0,0,0,0,0,0,0,0,0,0,0,0,0,0,0,,,,,,,,,,,,,
2120784,1745470717770,0.0,17,,-0.1,0.06,0.97,0,-0,-0,0.98,1.58,62,2315,1.7,3.26,,13.76,1.251,84.4,,19.4,5,0,0,0,0,0.0,0.0,0.0,0.0,2.27,,,0,0,0,0,0,0,0,0,0,0,0,0,0,0,0,0,,0,,,,0.0,38.993794,-76.938789,0.06,25.5,32,3,0.9
2120804,1745470717790,,,,,,,,,,,,,,,,,,,,,,,,,,,,,,,,,,0,0,0,0,0,0,0,0,0,0,0,0,0,0,0,0,,,,,,,,,,,,,
2120824,1745470717810,0.0,17,,-0.09,0.09,0.98,0,-0,-0,0.99,1.58,62,2315,1.7,3.26,,13.76,1.252,84.4,,19.3,5,,,,,,,,,,,,0,0,0,0,0,0,0,0,0,0,0,0,0,0,0,0,,,,,,0.0,,,,,,,
2120844,1745470717830,,,,,,,,,,,,,,,,,,,,,,,,,,,,,,,,,,0,0,0,0,0,0,0,0,0,0,0,0,0,0,0,0,,,,,,,,,,,,,
2120864,1745470717850,0.0,24,,-0.1,0.12,1.0,1,-0,0,1.01,1.58,64,2307,1.7,3.24,,13.72,1.25,84.4,,19.3,5,,,,,,,,,,,,0,0,0,0,0,0,0,0,0,0,0,0,0,0,0,0,,,,,,0.0,,,,,,,
2120884,1745470717870,,,,,,,,,,,,,,,,,,,,,,,0,0,0,0,0.0,0.0,0.0,0.0,2.27,,,0,0,0,0,0,0,0,0,0,0,0,0,0,0,0,0,,0,,,,,38.993794,-76.938789,0.05,25.5,32,3,0.9
2120904,1745470717890,0.0,20,,-0.12,0.12,1.01,1,-0,0,1.03,1.58,65,2276,1.7,3.29,,13.73,1.249,84.4,,19.3,5,,,,,,,,,,,,0,0,0,0,0,0,0,0,0,0,0,0,0,0,0,0,,,,,,0.0,,,,,,,
2120924,1745470717910,,,,,,,,,,,,,,,,,,,,,,,,,,,,,,,,,,0,0,0,0,0,0,0,0,0,0,0,0,0,0,0,0,,,,,,,,,,,,,
2120944,1745470717930,0.0,24,,-0.12,0.12,1.01,1,-1,0,1.03,1.58,65,2306,1.5,3.28,,13.77,1.249,84.4,,19.2,5,,,,,,,,,,,,0,0,0,0,0,0,0,0,0,0,0,0,0,0,0,0,,,,,,0.0,,,,,,,
2120964,1745470717950,,,,,,,,,,,,,,,,,,,,,,,,,,,,,,,,,,0,0,0,0,0,0,0,0,0,0,0,0,0,0,0,0,,,,,,,,,,,,,
2120984,1745470717970,0.0,30,,-0.11,0.11,1.02,1,-0,0,1.03,1.58,65,2306,1.5,3.28,,13.77,1.249,84.4,,19.2,5,0,0,0,0,0.0,0.0,0.0,0.0,2.28,,,0,0,0,0,0,0,0,0,0,0,0,0,0,0,0,0,,0,,,,0.0,38.993794,-76.938789,0.0,25.5,32,3,0.9
2121004,1745470717990,,,,,,,,,,,,,,,,,,,,,,,,,,,,,,,,,,0,0,0,0,0,0,0,0,0,0,0,0,0,0,0,0,,,,,,,,,,,,,
2121024,1745470718001,0.0,13,,-0.12,0.14,1.03,1,-1,0,1.04,1.58,66,2259,1.3,3.28,,13.8,1.249,84.4,,18.6,5,,,,,,,,,,,,0,0,0,0,0,0,0,0,0,0,0,0,0,0,0,0,,,,,,0.0,,,,,,,
2121044,1745470718021,,,,,,,,,,,,,,,,,,,,,,,,,,,,,,,,,,0,0,0,0,0,0,0,0,0,0,0,0,0,0,0,0,,,,,,,,,,,,,
2121064,1745470718041,0.0,10,,-0.13,0.13,1.03,1,-0,0,1.04,1.58,66,2239,1.3,3.28,,13.79,1.249,84.4,,18.6,5,,,,,,,,,,,,0,0,0,0,0,0,0,0,0,0,0,0,0,0,0,0,,,,,,0.0,,,,,,,
2121084,1745470718061,,,,,,,,,,,,,,,,,,,,,,,0,0,0,0,0.0,0.0,0.0,0.0,2.28,,,0,0,0,0,0,0,0,0,0,0,0,0,0,0,0,0,,0,,,,,38.993794,-76.938789,0.0,25.5,32,3,0.9
2121104,1745470718081,0.0,10,,-0.13,0.12,1.02,1,-0,0,1.03,1.58,65,2220,1.2,3.27,,13.86,1.25,84.4,,18.6,5,,,,,,,,,,,,0,0,0,0,0,0,0,0,0,0,0,0,0,0,0,0,,,,,,0.0,,,,,,,
2121124,1745470718101,,,,,,,,,,,,,,,,,,,,,,,,,,,,,,,,,,0,0,0,0,0,0,0,0,0,0,0,0,0,0,0,0,,,,,,,,,,,,,
2121144,1745470718115,0.0,24,,-0.1,0.09,1.01,0,-0,0,1.02,1.58,64,2147,1.2,3.28,,13.86,1.25,84.4,,18.5,5,,,,,,,,,,,,0,0,0,0,0,0,0,0,0,0,0,0,0,0,0,0,,,,,,0.0,,,,,,,
2121164,1745470718135,,,,,,,,,,,,,,,,,,,,,,,,,,,,,,,,,,0,0,0,0,0,0,0,0,0,0,0,0,0,0,0,0,,,,,,,,,,,,,
2121184,1745470718155,0.0,30,,-0.08,0.07,1.03,1,-0,0,1.03,1.58,65,2147,1.2,3.28,,13.88,1.251,84.4,,18.5,5,0,0,0,0,0.0,0.0,0.0,0.0,2.27,,,0,0,0,0,0,0,0,0,0,0,0,0,0,0,0,0,,0,,,,0.0,38.993794,-76.938789,0.04,25.5,32,3,0.9
2121204,1745470718175,,,,,,,,,,,,,,,,,,,,,,,,,,,,,,,,,,0,0,0,0,0,0,0,0,0,0,0,0,0,0,0,0,,,,,,,,,,,,,
2121224,1745470718209,0.0,24,,-0.08,0.07,1.02,1,-0,0,1.03,1.58,65,2113,1.5,3.27,,13.86,1.252,84.4,,18.2,5,,,,,,,,,,,,0,0,0,0,0,0,0,0,0,0,0,0,0,0,0,0,,,,,,0.0,,,,,,,
2121244,1745470718229,,,,,,,,,,,,,,,,,,,,,,,,,,,,,,,,,,0,0,0,0,0,0,0,0,0,0,0,0,0,0,0,0,,,,,,,,,,,,,
2121264,1745470718249,0.0,27,,-0.08,0.05,1.02,0,-0,0,1.02,1.58,65,2088,1.7,3.29,,13.91,1.252,84.4,,18.2,5,,,,,,,,,,,,0,0,0,0,0,0,0,0,0,0,0,0,0,0,0,0,,,,,,0.0,,,,,,,
2121284,1745470718269,,,,,,,,,,,,,,,,,,,,,,,0,0,0,0,0.0,0.0,0.0,0.0,2.27,,,0,0,0,0,0,0,0,0,0,0,0,0,0,0,0,0,,0,,,,,38.993794,-76.938789,0.05,25.5,32,3,0.9
2121304,1745470718289,0.0,27,,-0.09,0.07,1.02,0,-0,0,1.03,1.58,65,2072,1.9,3.31,,13.84,1.252,84.4,,18.2,5,,,,,,,,,,,,0,0,0,0,0,0,0,0,0,0,0,0,0,0,0,0,,,,,,0.0,,,,,,,
2121324,1745470718309,,,,,,,,,,,,,,,,,,,,,,,,,,,,,,,,,,0,0,0,0,0,0,0,0,0,0,0,0,0,0,0,0,,,,,,,,,,,,,
2121344,1745470718329,0.0,20,,-0.11,0.05,1.02,0,-0,0,1.02,1.58,65,2103,1.9,3.32,,13.84,1.252,84.4,,17.9,5,,,,,,,,,,,,0,0,0,0,0,0,0,0,0,0,0,0,0,0,0,0,,,,,,0.0,,,,,,,
2121364,1745470718349,,,,,,,,,,,,,,,,,,,,,,,,,,,,,,,,,,0,0,0,0,0,0,0,0,0,0,0,0,0,0,0,0,,,,,,,,,,,,,
2121384,1745470718369,0.0,13,13.72,-0.1,0.04,1.03,0,-0,0,1.04,1.58,66,2103,1.9,3.32,15,13.92,1.251,84.4,183,17.9,5,0,0,0,0,0.0,0.0,0.0,0.0,2.27,0,1.0,0,0,0,0,0,0,0,0,0,0,0,0,0,0,0,0,0,0,1.0,0,-0,0.0,38.993794,-76.938789,0.0,25.5,32,3,0.9
2121404,1745470718389,,,,,,,,,,,,,,,,,,,,,,,,,,,,,,,,,,0,0,0,0,0,0,0,0,0,0,0,0,0,0,0,0,,,,,,,,,,,,,
2121424,1745470718409,0.0,10,,-0.1,0.03,1.02,-0,-0,0,1.03,1.58,65,2112,1.9,3.35,,13.91,1.249,84.4,,17.2,5,,,,,,,,,,,,0,0,0,0,0,0,0,0,0,0,0,0,0,0,0,0,,,,,,0.0,,,,,,,
2121444,1745470718429,,,,,,,,,,,,,,,,,,,,,,,,,,,,,,,,,,0,0,0,0,0,0,0,0,0,0,0,0,0,0,0,0,,,,,,,,,,,,,
2121464,1745470718449,0.0,17,,-0.1,0.04,1.02,0,-0,0,1.03,1.58,65,2058,1.7,3.36,,13.96,1.25,84.4,,17.2,5,,,,,,,,,,,,0,0,0,0,0,0,0,0,0,0,0,0,0,0,0,0,,,,,,0.0,,,,,,,
2121484,1745470718469,,,,,,,,,,,,,,,,,,,,,,,0,0,0,0,0.0,0.0,0.0,0.0,2.27,,,0,0,0,0,0,0,0,0,0,0,0,0,0,0,0,0,,0,,,,,38.993794,-76.938789,0.07,25.5,32,3,0.9
2121504,1745470718489,0.0,20,,-0.1,0.02,1.04,-0,-0,0,1.05,1.58,66,1995,1.4,3.35,,14.04,1.25,84.4,,17.2,5,,,,,,,,,,,,0,0,0,0,0,0,0,0,0,0,0,0,0,0,0,0,,,,,,0.0,,,,,,,
2121524,1745470718509,,,,,,,,,,,,,,,,,,,,,,,,,,,,,,,,,,0,0,0,0,0,0,0,0,0,0,0,0,0,0,0,0,,,,,,,,,,,,,
