"Interval"|"ms"|0|0|1,"Utc"|"ms"|0|0|1,"FrontBP"|"psi"|-5.0|5.0|25,"SteerAng"|"Degrees"|-145|145|25,"Battery"|"Volts"|-5.0|20.0|1,"AccelX"|"G"|-3.0|3.0|25,"AccelY"|"G"|-3.0|3.0|25,"AccelZ"|"G"|-3.0|3.0|25,"Yaw"|"Deg/Sec"|-120|120|25,"Pitch"|"Deg/Sec"|-120|120|25,"Roll"|"Deg/Sec"|-120|120|25,"Gsum"|"G"|0.0|3.0|25,"GsumMax"|"G"|0.0|3.0|25,"GsumPct"|"%"|0|100|25,"RPM"|""|0|10000|25,"TPS"|"%"|0.0|100.0|25,"InjectorPW"|"ms"|0.0|100.0|25,"Baro"|"kPa"|0|105|1,"MAP"|"Psi"|0.0|255.0|25,"Lambda"|""|-2.0|2.0|25,"IAT"|"C"|0.0|200.0|25,"EngineTemp"|"C"|0|200|1,"EOP"|"PSI"|0.0|152.0|25,"EOT"|"F"|0|250|25,"WSFR"|"MPH"|0|150|10,"WSFL"|"MPH"|0|100|10,"WSRR"|"MPH"|0|100|10,"WSRL"|""|0|100|10,"TCSet"|"%"|0.0|100.0|10,"TCSlip"|"%"|0.0|100.0|10,"TCComp"|"deg"|0.0|50.0|10,"TCCut"|"%"|0.0|100.0|10,"Analog8"|""|0.0|5.0|10,"OilTemp"|"F"|0|300|1,"AA_On"|""|0.0|1.0|1,"ThermLF1"|"C"|0|400|50,"ThermLF2"|"C"|0|400|50,"ThermRR1"|"C"|0|400|50,"ThermRR2"|"C"|0|400|50,"ThermLF3"|"C"|0|400|50,"ThermLF4"|"C"|0|400|50,"ThermLF5"|"C"|0|400|50,"ThermLF6"|"C"|0|400|50,"ThermLF7"|"C"|0|400|50,"ThermLF8"|"C"|0|400|50,"ThermRR3"|"C"|0|400|50,"ThermRR4"|"C"|0|400|50,"ThermRR5"|"C"|0|400|50,"ThermRR6"|"C"|0|400|50,"ThermRR7"|"C"|0|400|50,"ThermRR8"|"C"|0|400|50,"AA_LowDrag"|""|0|1|1,"Gear"|""|1|6|10,"AA_On"|""|0.0|1.0|1,"AA_LowDrag"|""|0|1|1,"Fuel_Mix"|""|-10|10|1,"AA_Packages"|""|0.0|1000.0|25,"Latitude"|"Degrees"|-180.0|180.0|10,"Longitude"|"Degrees"|-180.0|180.0|10,"Speed"|"kph"|0.0|150.0|10,"Altitude"|"m"|0.0|4000.0|10,"GPSSats"|""|0|20|10,"GPSQual"|""|0|5|10,"GPSDOP"|""|0.0|20.0|10
2382804,1745470979794,,,,,,,,,,,,,,,,,,,,,,,,,,,,,,,,,,0,0,0,0,0,0,0,0,0,0,0,0,0,0,0,0,,,,,,,,,,,,,
2382824,1745470979812,0.0,20,,-0.14,0.5,1.55,-3,-0,3,1.63,1.63,100,4457,11.3,3.82,,12.71,1.225,91.6,,38.9,5,,,,,,,,,,,,0,0,0,0,0,0,0,0,0,0,0,0,0,0,0,0,,,,,,0.0,,,,,,,
2382844,1745470979832,,,,,,,,,,,,,,,,,,,,,,,,,,,,,,,,,,0,0,0,0,0,0,0,0,0,0,0,0,0,0,0,0,,,,,,,,,,,,,
2382864,1745470979852,0.0,20,,-0.14,0.54,1.58,-1,-1,3,1.68,1.68,100,4475,11.2,3.84,,12.72,1.238,91.6,,38.9,5,,,,,,,,,,,,0,0,0,0,0,0,0,0,0,0,0,0,0,0,0,0,,,,,,0.0,,,,,,,
2382884,1745470979872,,,,,,,,,,,,,,,,,,,,,,,0,0,0,0,0.0,0.0,0.0,0.0,2.27,,,0,0,0,0,0,0,0,0,0,0,0,0,0,0,0,0,,0,,,,,38.993782,-76.938782,0.04,26.0,34,3,0.9
2382904,1745470979892,0.0,27,,-0.12,0.57,1.59,1,-0,2,1.7,1.7,100,4474,11.2,3.84,,12.75,1.215,91.6,,38.6,5,,,,,,,,,,,,0,0,0,0,0,0,0,0,0,0,0,0,0,0,0,0,,,,,,0.0,,,,,,,
2382924,1745470979912,,,,,,,,,,,,,,,,,,,,,,,,,,,,,,,,,,0,0,0,0,0,0,0,0,0,0,0,0,0,0,0,0,,,,,,,,,,,,,
2382944,1745470979932,0.0,24,,-0.11,0.59,1.55,3,-1,2,1.66,1.7,98,4467,11.1,3.83,,12.75,1.215,91.6,,38.6,5,,,,,,,,,,,,0,0,0,0,0,0,0,0,0,0,0,0,0,0,0,0,,,,,,0.0,,,,,,,
2382964,1745470979952,,,,,,,,,,,,,,,,,,,,,,,,,,,,,,,,,,0,0,0,0,0,0,0,0,0,0,0,0,0,0,0,0,,,,,,,,,,,,,
2382984,1745470979972,0.0,27,,-0.08,0.56,1.48,5,-1,2,1.59,1.7,93,4467,11.1,3.83,,12.76,1.221,91.6,,38.8,5,0,0,0,0,0.0,0.0,0.0,0.0,2.27,,,0,0,0,0,0,0,0,0,0,0,0,0,0,0,0,0,,0,,,,0.0,38.993782,-76.938782,0.15,26.0,34,3,0.9
2383004,1745470979992,,,,,,,,,,,,,,,,,,,,,,,,,,,,,,,,,,0,0,0,0,0,0,0,0,0,0,0,0,0,0,0,0,,,,,,,,,,,,,
2383024,1745470980004,0.0,37,,-0.07,0.51,1.37,6,-1,1,1.46,1.7,86,4476,11.2,3.83,,12.73,1.225,91.6,,38.8,5,,,,,,,,,,,,0,0,0,0,0,0,0,0,0,0,0,0,0,0,0,0,,,,,,0.0,,,,,,,
2383044,1745470980024,,,,,,,,,,,,,,,,,,,,,,,,,,,,,,,,,,0,0,0,0,0,0,0,0,0,0,0,0,0,0,0,0,,,,,,,,,,,,,
2383064,1745470980044,0.0,24,,-0.06,0.4,1.27,7,-1,1,1.34,1.7,79,4439,11.5,3.82,,12.79,1.209,91.6,,38.8,5,,,,,,,,,,,,0,0,0,0,0,0,0,0,0,0,0,0,0,0,0,0,,,,,,0.0,,,,,,,
2383084,1745470980064,,,,,,,,,,,,,,,,,,,,,,,0,0,0,0,0.0,0.0,0.0,0.0,2.26,,,0,0,0,0,0,0,0,0,0,0,0,0,0,0,0,0,,0,,,,,38.993782,-76.938782,0.08,26.0,33,3,0.9
2383104,1745470980084,0.0,20,,-0.05,0.32,1.14,8,-1,0,1.19,1.7,70,4430,11.6,3.84,,12.73,1.231,91.6,,38.4,5,,,,,,,,,,,,0,0,0,0,0,0,0,0,0,0,0,0,0,0,0,0,,,,,,0.0,,,,,,,
2383124,1745470980106,,,,,,,,,,,,,,,,,,,,,,,,,,,,,,,,,,0,0,0,0,0,0,0,0,0,0,0,0,0,0,0,0,,,,,,,,,,,,,
2383144,1745470980126,0.0,13,,-0.04,0.19,1.04,7,-1,-0,1.06,1.7,62,4447,11.6,3.84,,12.73,1.231,91.6,,38.4,5,,,,,,,,,,,,0,0,0,0,0,0,0,0,0,0,0,0,0,0,0,0,,,,,,0.0,,,,,,,
2383164,1745470980146,,,,,,,,,,,,,,,,,,,,,,,,,,,,,,,,,,0,0,0,0,0,0,0,0,0,0,0,0,0,0,0,0,,,,,,,,,,,,,
2383184,1745470980166,0.0,13,,-0.04,0.11,0.93,6,-1,-1,0.93,1.7,55,4447,11.6,3.84,,12.75,1.209,91.6,,38.5,5,0,0,0,0,0.0,0.0,0.0,0.0,2.26,,,0,0,0,0,0,0,0,0,0,0,0,0,0,0,0,0,,0,,,,0.0,38.993782,-76.938782,0.07,26.0,33,3,0.9
2383204,1745470980186,,,,,,,,,,,,,,,,,,,,,,,,,,,,,,,,,,0,0,0,0,0,0,0,0,0,0,0,0,0,0,0,0,,,,,,,,,,,,,
2383224,1745470980213,0.0,27,,-0.04,-0.0,0.86,5,-0,-1,0.86,1.7,51,4403,11.6,3.85,,12.72,1.2,91.6,,38.5,5,,,,,,,,,,,,0,0,0,0,0,0,0,0,0,0,0,0,0,0,0,0,,,,,,0.0,,,,,,,
2383244,1745470980233,,,,,,,,,,,,,,,,,,,,,,,,,,,,,,,,,,0,0,0,0,0,0,0,0,0,0,0,0,0,0,0,0,,,,,,,,,,,,,
2383264,1745470980253,0.0,20,,-0.04,-0.08,0.8,2,-0,-1,0.81,1.7,48,4475,11.6,3.84,,12.75,1.217,91.6,,38.5,5,,,,,,,,,,,,0,0,0,0,0,0,0,0,0,0,0,0,0,0,0,0,,,,,,0.0,,,,,,,
2383284,1745470980273,,,,,,,,,,,,,,,,,,,,,,,0,0,0,0,0.0,0.0,0.0,0.0,2.27,,,0,0,0,0,0,0,0,0,0,0,0,0,0,0,0,0,,0,,,,,38.993782,-76.938782,0.11,26.0,33,3,0.9
2383304,1745470980293,0.0,37,,-0.05,-0.15,0.78,-0,-0,-1,0.79,1.7,47,4483,11.4,3.84,,12.76,1.216,91.6,,38.7,5,,,,,,,,,,,,0,0,0,0,0,0,0,0,0,0,0,0,0,0,0,0,,,,,,0.0,,,,,,,
2383324,1745470980313,,,,,,,,,,,,,,,,,,,,,,,,,,,,,,,,,,0,0,0,0,0,0,0,0,0,0,0,0,0,0,0,0,,,,,,,,,,,,,
2383344,1745470980333,0.0,24,,-0.06,-0.23,0.74,-3,-0,-1,0.78,1.7,46,4529,11.2,3.82,,12.76,1.216,91.6,,38.7,5,,,,,,,,,,,,0,0,0,0,0,0,0,0,0,0,0,0,0,0,0,0,,,,,,0.0,,,,,,,
2383364,1745470980353,,,,,,,,,,,,,,,,,,,,,,,,,,,,,,,,,,0,0,0,0,0,0,0,0,0,0,0,0,0,0,0,0,,,,,,,,,,,,,
2383384,1745470980373,0.0,20,13.58,-0.06,-0.28,0.72,-4,-0,-1,0.77,1.7,46,4529,11.2,3.82,15,12.75,1.205,91.6,174,39.2,5,0,0,0,0,0.0,0.0,0.0,0.0,2.28,0,1.0,0,0,0,0,0,0,0,0,0,0,0,0,0,0,0,0,0,0,1.0,0,-0,0.0,38.993782,-76.938782,0.04,26.0,33,3,0.9
2383404,1745470980393,,,,,,,,,,,,,,,,,,,,,,,,,,,,,,,,,,0,0,0,0,0,0,0,0,0,0,0,0,0,0,0,0,,,,,,,,,,,,,
2383424,1745470980409,0.0,24,,-0.06,-0.34,0.67,-6,-0,-1,0.75,1.7,44,4486,11.1,3.81,,12.75,1.22,91.6,,39.2,5,,,,,,,,,,,,0,0,0,0,0,0,0,0,0,0,0,0,0,0,0,0,,,,,,0.0,,,,,,,
2383444,1745470980429,,,,,,,,,,,,,,,,,,,,,,,,,,,,,,,,,,0,0,0,0,0,0,0,0,0,0,0,0,0,0,0,0,,,,,,,,,,,,,
2383464,1745470980449,0.0,13,,-0.05,-0.41,0.63,-6,-0,-1,0.75,1.7,44,4501,11.1,3.81,,12.76,1.182,91.6,,39.2,5,,,,,,,,,,,,0,0,0,0,0,0,0,0,0,0,0,0,0,0,0,0,,,,,,0.0,,,,,,,
2383484,1745470980469,,,,,,,,,,,,,,,,,,,,,,,0,0,0,0,0.0,0.0,0.0,0.0,2.27,,,0,0,0,0,0,0,0,0,0,0,0,0,0,0,0,0,,0,,,,,38.993782,-76.938782,0.0,26.0,33,3,0.9
2383504,1745470980489,0.0,17,,-0.05,-0.4,0.57,-6,-0,-1,0.7,1.7,41,4521,11.1,3.8,,12.64,1.19,91.6,,39.1,5,,,,,,,,,,,,0,0,0,0,0,0,0,0,0,0,0,0,0,0,0,0,,,,,,0.0,,,,,,,
2383524,1745470980511,,,,,,,,,,,,,,,,,,,,,,,,,,,,,,,,,,0,0,0,0,0,0,0,0,0,0,0,0,0,0,0,0,,,,,,,,,,,,,
2383544,1745470980531,0.0,7,,-0.02,-0.41,0.56,-5,-0,-1,0.7,1.7,41,4645,11.3,3.8,,12.64,1.19,91.6,,39.1,5,,,,,,,,,,,,0,0,0,0,0,0,0,0,0,0,0,0,0,0,0,0,,,,,,0.0,,,,,,,
2383564,1745470980551,,,,,,,,,,,,,,,,,,,,,,,,,,,,,,,,,,0,0,0,0,0,0,0,0,0,0,0,0,0,0,0,0,,,,,,,,,,,,,
2383584,1745470980571,0.0,20,,-0.03,-0.28,0.68,-2,-0,-1,0.73,1.7,43,4645,11.3,3.8,,12.75,1.213,91.6,,40.2,5,0,0,0,0,0.0,0.0,0.0,0.0,2.26,,,0,0,0,0,0,0,0,0,0,0,0,0,0,0,0,0,,0,,,,0.0,38.993782,-76.938782,0.0,26.0,33,3,0.9
2383604,1745470980591,,,,,,,,,,,,,,,,,,,,,,,,,,,,,,,,,,0,0,0,0,0,0,0,0,0,0,0,0,0,0,0,0,,,,,,,,,,,,,
2383624,1745470980611,0.0,34,,-0.04,-0.15,0.79,-1,-0,-1,0.81,1.7,48,4631,11.5,3.79,,12.72,1.192,91.6,,40.2,5,,,,,,,,,,,,0,0,0,0,0,0,0,0,0,0,0,0,0,0,0,0,,,,,,0.0,,,,,,,
2383644,1745470980631,,,,,,,,,,,,,,,,,,,,,,,,,,,,,,,,,,0,0,0,0,0,0,0,0,0,0,0,0,0,0,0,0,,,,,,,,,,,,,
2383664,1745470980651,0.0,20,,-0.06,-0.16,0.83,-3,-0,-0,0.85,1.7,50,4594,11.5,3.8,,12.68,1.11,91.6,,40.2,5,,,,,,,,,,,,0,0,0,0,0,0,0,0,0,0,0,0,0,0,0,0,,,,,,0.0,,,,,,,
2383684,1745470980671,,,,,,,,,,,,,,,,,,,,,,,0,0,0,0,0.0,0.0,0.0,0.0,2.27,,,0,0,0,0,0,0,0,0,0,0,0,0,0,0,0,0,,0,,,,,38.993782,-76.938782,0.13,26.0,33,3,0.9
2383704,1745470980691,0.0,34,,-0.07,-0.22,0.81,-4,-0,-0,0.84,1.7,49,4605,11.6,3.81,,12.69,1.093,91.6,,40.0,5,,,,,,,,,,,,0,0,0,0,0,0,0,0,0,0,0,0,0,0,0,0,,,,,,0.0,,,,,,,
2383724,1745470980711,,,,,,,,,,,,,,,,,,,,,,,,,,,,,,,,,,0,0,0,0,0,0,0,0,0,0,0,0,0,0,0,0,,,,,,,,,,,,,
2383744,1745470980731,0.0,13,,-0.06,-0.28,0.77,-6,-0,-0,0.82,1.7,48,4573,11.7,3.82,,12.69,1.093,91.6,,40.0,5,,,,,,,,,,,,0,0,0,0,0,0,0,0,0,0,0,0,0,0,0,0,,,,,,0.0,,,,,,,
2383764,1745470980751,,,,,,,,,,,,,,,,,,,,,,,,,,,,,,,,,,0,0,0,0,0,0,0,0,0,0,0,0,0,0,0,0,,,,,,,,,,,,,
2383784,1745470980771,0.0,10,,-0.05,-0.32,0.7,-7,-0,-0,0.77,1.7,46,4573,11.7,3.82,,12.68,1.154,91.6,,39.9,5,0,0,0,0,0.0,0.0,0.0,0.0,2.27,,,0,0,0,0,0,0,0,0,0,0,0,0,0,0,0,0,,0,,,,0.0,38.993782,-76.938782,0.04,26.0,33,3,0.9
2383804,1745470980791,,,,,,,,,,,,,,,,,,,,,,,,,,,,,,,,,,0,0,0,0,0,0,0,0,0,0,0,0,0,0,0,0,,,,,,,,,,,,,
2383824,1745470980809,0.0,20,,-0.04,-0.3,0.67,-5,-0,-1,0.74,1.7,44,4613,11.5,3.81,,12.72,1.176,91.6,,39.9,5,,,,,,,,,,,,0,0,0,0,0,0,0,0,0,0,0,0,0,0,0,0,,,,,,0.0,,,,,,,
2383844,1745470980829,,,,,,,,,,,,,,,,,,,,,,,,,,,,,,,,,,0,0,0,0,0,0,0,0,0,0,0,0,0,0,0,0,,,,,,,,,,,,,
2383864,1745470980849,0.0,13,,-0.04,-0.24,0.76,-2,-0,-1,0.8,1.7,47,4647,11.3,3.8,,12.68,1.189,91.6,,39.9,5,,,,,,,,,,,,0,0,0,0,0,0,0,0,0,0,0,0,0,0,0,0,,,,,,0.0,,,,,,,
2383884,1745470980869,,,,,,,,,,,,,,,,,,,,,,,0,0,0,0,0.0,0.0,0.0,0.0,2.28,,,0,0,0,0,0,0,0,0,0,0,0,0,0,0,0,0,,0,,,,,38.993782,-76.938782,0.04,26.0,33,3,0.9
2383904,1745470980889,0.0,17,,-0.05,-0.12,0.88,-0,-0,-1,0.89,1.7,52,4650,11.1,3.78,,12.67,1.197,91.6,,40.4,5,,,,,,,,,,,,0,0,0,0,0,0,0,0,0,0,0,0,0,0,0,0,,,,,,0.0,,,,,,,
2383924,1745470980911,,,,,,,,,,,,,,,,,,,,,,,,,,,,,,,,,,0,0,0,0,0,0,0,0,0,0,0,0,0,0,0,0,,,,,,,,,,,,,
2383944,1745470980931,0.0,13,,-0.06,-0.1,0.91,-1,-0,-0,0.92,1.7,54,4634,11.3,3.79,,12.67,1.197,91.6,,40.4,5,,,,,,,,,,,,0,0,0,0,0,0,0,0,0,0,0,0,0,0,0,0,,,,,,0.0,,,,,,,
2383964,1745470980951,,,,,,,,,,,,,,,,,,,,,,,,,,,,,,,,,,0,0,0,0,0,0,0,0,0,0,0,0,0,0,0,0,,,,,,,,,,,,,
2383984,1745470980971,0.0,27,,-0.06,-0.15,0.87,-3,-0,-0,0.89,1.7,52,4634,11.3,3.79,,12.65,1.198,91.6,,40.4,5,0,0,0,0,0.0,0.0,0.0,0.0,2.27,,,0,0,0,0,0,0,0,0,0,0,0,0,0,0,0,0,,0,,,,0.0,38.993782,-76.938782,0.0,26.0,33,3,0.9
2384004,1745470980991,,,,,,,,,,,,,,,,,,,,,,,,,,,,,,,,,,0,0,0,0,0,0,0,0,0,0,0,0,0,0,0,0,,,,,,,,,,,,,
2384024,1745470981001,0.0,30,,-0.06,-0.13,0.88,-1,-0,-1,0.89,1.7,52,4743,11.2,3.76,,12.64,1.232,91.6,,40.4,5,,,,,,,,,,,,0,0,0,0,0,0,0,0,0,0,0,0,0,0,0,0,,,,,,0.0,,,,,,,
2384044,1745470981021,,,,,,,,,,,,,,,,,,,,,,,,,,,,,,,,,,0,0,0,0,0,0,0,0,0,0,0,0,0,0,0,0,,,,,,,,,,,,,
2384064,1745470981041,0.0,17,,-0.06,-0.03,0.98,1,-0,-0,0.99,1.7,58,4669,11.2,3.77,,12.68,1.069,91.6,,40.4,5,,,,,,,,,,,,0,0,0,0,0,0,0,0,0,0,0,0,0,0,0,0,,,,,,0.0,,,,,,,
2384084,1745470981061,,,,,,,,,,,,,,,,,,,,,,,0,0,0,0,0.0,0.0,0.0,0.0,2.27,,,0,0,0,0,0,0,0,0,0,0,0,0,0,0,0,0,,0,,,,,38.993782,-76.938782,0.08,26.0,33,3,0.9
2384104,1745470981081,0.0,10,,-0.03,-0.08,0.99,-0,-0,-0,1.0,1.7,59,0,11.5,3.77,,12.68,1.039,91.6,,40.5,5,,,,,,,,,,,,0,0,0,0,0,0,0,0,0,0,0,0,0,0,0,0,,,,,,0.0,,,,,,,
2384124,1745470981112,,,,,,,,,,,,,,,,,,,,,,,,,,,,,,,,,,0,0,0,0,0,0,0,0,0,0,0,0,0,0,0,0,,,,,,,,,,,,,
2384144,1745470981132,0.0,7,,-0.03,-0.18,0.91,-2,-0,-0,0.93,1.7,55,4624,11.7,3.77,,12.68,1.039,91.6,,40.5,5,,,,,,,,,,,,0,0,0,0,0,0,0,0,0,0,0,0,0,0,0,0,,,,,,0.0,,,,,,,
2384164,1745470981152,,,,,,,,,,,,,,,,,,,,,,,,,,,,,,,,,,0,0,0,0,0,0,0,0,0,0,0,0,0,0,0,0,,,,,,,,,,,,,
2384184,1745470981172,0.0,13,,-0.03,-0.2,0.85,-2,-1,-0,0.87,1.7,51,4624,11.7,3.77,,12.67,1.093,91.6,,39.9,5,0,0,0,0,0.0,0.0,0.0,0.0,2.26,,,0,0,0,0,0,0,0,0,0,0,0,0,0,0,0,0,,0,,,,0.0,38.993782,-76.938782,0.04,26.0,33,3,0.9
2384204,1745470981192,,,,,,,,,,,,,,,,,,,,,,,,,,,,,,,,,,0,0,0,0,0,0,0,0,0,0,0,0,0,0,0,0,,,,,,,,,,,,,
2384224,1745470981213,0.0,37,,-0.0,-0.25,0.77,-3,-0,-1,0.81,1.7,48,4514,11.6,3.81,,12.63,1.14,91.6,,39.9,5,,,,,,,,,,,,0,0,0,0,0,0,0,0,0,0,0,0,0,0,0,0,,,,,,0.0,,,,,,,
2384244,1745470981233,,,,,,,,,,,,,,,,,,,,,,,,,,,,,,,,,,0,0,0,0,0,0,0,0,0,0,0,0,0,0,0,0,,,,,,,,,,,,,
2384264,1745470981253,0.0,20,,0.01,-0.31,0.72,-4,-0,-1,0.79,1.7,46,4423,11.6,3.83,,12.72,1.169,91.6,,39.9,5,,,,,,,,,,,,0,0,0,0,0,0,0,0,0,0,0,0,0,0,0,0,,,,,,0.0,,,,,,,
2384284,1745470981273,,,,,,,,,,,,,,,,,,,,,,,0,0,0,0,0.0,0.0,0.0,0.0,2.27,,,0,0,0,0,0,0,0,0,0,0,0,0,0,0,0,0,,0,,,,,38.993782,-76.938782,0.23,26.0,33,3,0.9
2384304,1745470981293,0.0,30,,-0.01,-0.37,0.68,-7,-0,-1,0.77,1.7,45,4433,11.7,3.86,,12.71,1.173,91.6,,37.9,5,,,,,,,,,,,,0,0,0,0,0,0,0,0,0,0,0,0,0,0,0,0,,,,,,0.0,,,,,,,
2384324,1745470981312,,,,,,,,,,,,,,,,,,,,,,,,,,,,,,,,,,0,0,0,0,0,0,0,0,0,0,0,0,0,0,0,0,,,,,,,,,,,,,
2384344,1745470981332,0.0,30,,-0.02,-0.37,0.71,-8,-0,-0,0.81,1.7,48,4463,11.4,3.85,,12.71,1.173,91.6,,37.9,5,,,,,,,,,,,,0,0,0,0,0,0,0,0,0,0,0,0,0,0,0,0,,,,,,0.0,,,,,,,
2384364,1745470981352,,,,,,,,,,,,,,,,,,,,,,,,,,,,,,,,,,0,0,0,0,0,0,0,0,0,0,0,0,0,0,0,0,,,,,,,,,,,,,
2384384,1745470981372,0.0,13,13.63,-0.04,-0.37,0.77,-8,-0,0,0.86,1.7,51,4463,11.4,3.85,15,12.75,1.191,91.6,174,38.6,5,0,0,0,0,0.0,0.0,0.0,0.0,2.28,0,1.0,0,0,0,0,0,0,0,0,0,0,0,0,0,0,0,0,0,0,1.0,0,-0,0.0,38.993782,-76.938782,0.04,26.0,33,3,0.9
2384404,1745470981392,,,,,,,,,,,,,,,,,,,,,,,,,,,,,,,,,,0,0,0,0,0,0,0,0,0,0,0,0,0,0,0,0,,,,,,,,,,,,,
2384424,1745470981412,0.0,20,,-0.06,-0.32,0.86,-7,-0,1,0.92,1.7,54,4481,11.2,3.82,,12.77,1.178,91.6,,38.6,5,,,,,,,,,,,,0,0,0,0,0,0,0,0,0,0,0,0,0,0,0,0,,,,,,0.0,,,,,,,
2384444,1745470981432,,,,,,,,,,,,,,,,,,,,,,,,,,,,,,,,,,0,0,0,0,0,0,0,0,0,0,0,0,0,0,0,0,,,,,,,,,,,,,
2384464,1745470981452,0.0,10,,-0.07,-0.21,0.97,-5,-0,1,0.99,1.7,58,4468,11.1,3.83,,12.73,1.169,91.6,,38.6,5,,,,,,,,,,,,0,0,0,0,0,0,0,0,0,0,0,0,0,0,0,0,,,,,,0.0,,,,,,,
2384484,1745470981472,,,,,,,,,,,,,,,,,,,,,,,0,0,0,0,0.0,0.0,0.0,0.0,2.27,,,0,0,0,0,0,0,0,0,0,0,0,0,0,0,0,0,,0,,,,,38.993782,-76.938782,0.11,26.0,33,3,0.9
2384504,1745470981492,0.0,10,,-0.09,-0.1,1.07,-3,-0,1,1.08,1.7,64,4450,11.2,3.82,,12.76,1.175,91.6,,38.3,5,,,,,,,,,,,,0,0,0,0,0,0,0,0,0,0,0,0,0,0,0,0,,,,,,0.0,,,,,,,
2384524,1745470981512,,,,,,,,,,,,,,,,,,,,,,,,,,,,,,,,,,0,0,0,0,0,0,0,0,0,0,0,0,0,0,0,0,,,,,,,,,,,,,
2384544,1745470981532,0.0,20,,-0.09,0.02,1.17,0,-0,1,1.17,1.7,69,4447,11.1,3.81,,12.76,1.175,91.6,,38.3,5,,,,,,,,,,,,0,0,0,0,0,0,0,0,0,0,0,0,0,0,0,0,,,,,,0.0,,,,,,,
2384564,1745470981552,,,,,,,,,,,,,,,,,,,,,,,,,,,,,,,,,,0,0,0,0,0,0,0,0,0,0,0,0,0,0,0,0,,,,,,,,,,,,,
2384584,1745470981572,0.0,20,,-0.1,0.09,1.19,2,-0,1,1.2,1.7,71,4447,11.1,3.81,,12.75,1.176,91.6,,38.3,5,0,0,0,0,0.0,0.0,0.0,0.0,2.27,,,0,0,0,0,0,0,0,0,0,0,0,0,0,0,0,0,,0,,,,0.0,38.993782,-76.938789,0.05,26.0,33,3,0.9
2384604,1745470981592,,,,,,,,,,,,,,,,,,,,,,,,,,,,,,,,,,0,0,0,0,0,0,0,0,0,0,0,0,0,0,0,0,,,,,,,,,,,,,
2384624,1745470981612,0.0,27,,-0.08,0.12,1.15,4,-0,1,1.16,1.7,68,4438,11.4,3.83,,12.72,1.168,91.6,,38.3,5,,,,,,,,,,,,0,0,0,0,0,0,0,0,0,0,0,0,0,0,0,0,,,,,,0.0,,,,,,,
2384644,1745470981632,,,,,,,,,,,,,,,,,,,,,,,,,,,,,,,,,,0,0,0,0,0,0,0,0,0,0,0,0,0,0,0,0,,,,,,,,,,,,,
2384664,1745470981652,0.0,24,,-0.06,0.12,1.08,5,-1,1,1.09,1.7,64,4473,11.6,3.82,,12.79,1.173,91.6,,38.3,5,,,,,,,,,,,,0,0,0,0,0,0,0,0,0,0,0,0,0,0,0,0,,,,,,0.0,,,,,,,
2384684,1745470981672,,,,,,,,,,,,,,,,,,,,,,,0,0,0,0,0.0,0.0,0.0,0.0,2.27,,,0,0,0,0,0,0,0,0,0,0,0,0,0,0,0,0,,0,,,,,38.993782,-76.938789,0.07,26.0,33,3,0.9
2384704,1745470981692,0.0,13,,-0.04,0.06,1.01,5,-0,0,1.01,1.7,60,4488,11.6,3.85,,12.75,1.174,91.6,,38.7,5,,,,,,,,,,,,0,0,0,0,0,0,0,0,0,0,0,0,0,0,0,0,,,,,,0.0,,,,,,,
2384724,1745470981712,,,,,,,,,,,,,,,,,,,,,,,,,,,,,,,,,,0,0,0,0,0,0,0,0,0,0,0,0,0,0,0,0,,,,,,,,,,,,,
2384744,1745470981732,0.0,7,,-0.03,0.04,0.92,5,-1,-0,0.92,1.7,54,4491,11.6,3.84,,12.75,1.174,91.6,,38.7,5,,,,,,,,,,,,0,0,0,0,0,0,0,0,0,0,0,0,0,0,0,0,,,,,,0.0,,,,,,,
2384764,1745470981752,,,,,,,,,,,,,,,,,,,,,,,,,,,,,,,,,,0,0,0,0,0,0,0,0,0,0,0,0,0,0,0,0,,,,,,,,,,,,,
2384784,1745470981772,0.0,7,,-0.01,-0.05,0.85,5,-0,-1,0.85,1.7,50,4491,11.6,3.84,,12.79,1.167,91.6,,38.7,5,0,0,0,0,0.0,0.0,0.0,0.0,2.26,,,0,0,0,0,0,0,0,0,0,0,0,0,0,0,0,0,,0,,,,0.0,38.993782,-76.938789,0.05,26.0,33,3,0.9
2384804,1745470981792,,,,,,,,,,,,,,,,,,,,,,,,,,,,,,,,,,0,0,0,0,0,0,0,0,0,0,0,0,0,0,0,0,,,,,,,,,,,,,
2384824,1745470981812,0.0,24,,0.01,-0.1,0.76,3,-0,-1,0.77,1.7,45,4482,11.7,3.85,,12.73,1.178,89.8,,38.7,5,,,,,,,,,,,,0,0,0,0,0,0,0,0,0,0,0,0,0,0,0,0,,,,,,0.0,,,,,,,
2384844,1745470981832,,,,,,,,,,,,,,,,,,,,,,,,,,,,,,,,,,0,0,0,0,0,0,0,0,0,0,0,0,0,0,0,0,,,,,,,,,,,,,
2384864,1745470981852,0.0,24,,0.02,-0.21,0.71,1,-0,-1,0.74,1.7,44,4418,11.6,3.85,,12.73,1.174,89.8,,38.7,5,,,,,,,,,,,,0,0,0,0,0,0,0,0,0,0,0,0,0,0,0,0,,,,,,0.0,,,,,,,
2384884,1745470981872,,,,,,,,,,,,,,,,,,,,,,,0,0,0,0,0.0,0.0,0.0,0.0,2.28,,,0,0,0,0,0,0,0,0,0,0,0,0,0,0,0,0,,0,,,,,38.993782,-76.938789,0.1,26.0,33,3,0.9
2384904,1745470981892,0.0,3,,0.03,-0.28,0.65,-1,-0,-1,0.71,1.7,42,4452,11.4,3.83,,12.65,1.19,89.8,,38.2,5,,,,,,,,,,,,0,0,0,0,0,0,0,0,0,0,0,0,0,0,0,0,,,,,,0.0,,,,,,,
2384924,1745470981914,,,,,,,,,,,,,,,,,,,,,,,,,,,,,,,,,,0,0,0,0,0,0,0,0,0,0,0,0,0,0,0,0,,,,,,,,,,,,,
2384944,1745470981934,0.0,17,,0.03,-0.35,0.62,-3,-0,-1,0.71,1.7,42,4450,11.3,3.82,,12.65,1.19,89.8,,38.2,5,,,,,,,,,,,,0,0,0,0,0,0,0,0,0,0,0,0,0,0,0,0,,,,,,0.0,,,,,,,
2384964,1745470981954,,,,,,,,,,,,,,,,,,,,,,,,,,,,,,,,,,0,0,0,0,0,0,0,0,0,0,0,0,0,0,0,0,,,,,,,,,,,,,
2384984,1745470981974,0.0,20,,0.03,-0.42,0.6,-4,-0,-1,0.74,1.7,43,4450,11.3,3.82,,12.75,1.179,89.8,,38.7,5,0,0,0,0,0.0,0.0,0.0,0.0,2.28,,,0,0,0,0,0,0,0,0,0,0,0,0,0,0,0,0,,0,,,,0.0,38.993782,-76.938789,0.0,26.0,33,3,0.9
2385004,1745470981994,,,,,,,,,,,,,,,,,,,,,,,,,,,,,,,,,,0,0,0,0,0,0,0,0,0,0,0,0,0,0,0,0,,,,,,,,,,,,,
2385024,1745470982004,0.0,20,,0.03,-0.46,0.59,-6,-0,-1,0.75,1.7,44,4496,11.2,3.83,,12.75,1.171,89.8,,38.7,5,,,,,,,,,,,,0,0,0,0,0,0,0,0,0,0,0,0,0,0,0,0,,,,,,0.0,,,,,,,
2385044,1745470982024,,,,,,,,,,,,,,,,,,,,,,,,,,,,,,,,,,0,0,0,0,0,0,0,0,0,0,0,0,0,0,0,0,,,,,,,,,,,,,
2385064,1745470982044,0.0,17,,0.02,-0.49,0.58,-7,-0,-1,0.76,1.7,45,4484,11.2,3.83,,12.72,1.166,89.8,,38.7,5,,,,,,,,,,,,0,0,0,0,0,0,0,0,0,0,0,0,0,0,0,0,,,,,,0.0,,,,,,,
2385084,1745470982064,,,,,,,,,,,,,,,,,,,,,,,0,0,0,0,0.0,0.0,0.0,0.0,2.27,,,0,0,0,0,0,0,0,0,0,0,0,0,0,0,0,0,,0,,,,,38.993782,-76.938789,0.07,26.0,34,3,0.9
2385104,1745470982084,0.0,-0,,0.04,-0.51,0.55,-6,-0,-2,0.75,1.7,44,4644,11.3,3.8,,12.76,1.228,89.8,,39.7,5,,,,,,,,,,,,0,0,0,0,0,0,0,0,0,0,0,0,0,0,0,0,,,,,,0.0,,,,,,,
2385124,1745470982112,,,,,,,,,,,,,,,,,,,,,,,,,,,,,,,,,,0,0,0,0,0,0,0,0,0,0,0,0,0,0,0,0,,,,,,,,,,,,,
2385144,1745470982132,0.0,-0,,0.04,-0.45,0.6,-4,-0,-2,0.75,1.7,44,4653,11.5,3.8,,12.76,1.228,89.8,,39.7,5,,,,,,,,,,,,0,0,0,0,0,0,0,0,0,0,0,0,0,0,0,0,,,,,,0.0,,,,,,,
2385164,1745470982152,,,,,,,,,,,,,,,,,,,,,,,,,,,,,,,,,,0,0,0,0,0,0,0,0,0,0,0,0,0,0,0,0,,,,,,,,,,,,,
2385184,1745470982172,0.0,17,,0.03,-0.29,0.75,-2,-0,-1,0.8,1.7,47,4653,11.5,3.8,,12.79,1.168,89.8,,40.4,5,0,0,0,0,0.0,0.0,0.0,0.0,2.27,,,0,0,0,0,0,0,0,0,0,0,0,0,0,0,0,0,,0,,,,0.0,38.993782,-76.938789,0.04,26.0,34,3,0.9
2385204,1745470982192,,,,,,,,,,,,,,,,,,,,,,,,,,,,,,,,,,0,0,0,0,0,0,0,0,0,0,0,0,0,0,0,0,,,,,,,,,,,,,
2385224,1745470982211,0.0,27,,-0.03,-0.19,0.85,-1,-0,-1,0.87,1.7,51,4617,11.6,3.8,,12.73,1.098,89.8,,40.4,5,,,,,,,,,,,,0,0,0,0,0,0,0,0,0,0,0,0,0,0,0,0,,,,,,0.0,,,,,,,
2385244,1745470982231,,,,,,,,,,,,,,,,,,,,,,,,,,,,,,,,,,0,0,0,0,0,0,0,0,0,0,0,0,0,0,0,0,,,,,,,,,,,,,
2385264,1745470982251,0.0,24,,-0.05,-0.18,0.89,-2,-0,-0,0.9,1.7,53,4605,11.7,3.83,,12.69,1.086,89.8,,40.4,5,,,,,,,,,,,,0,0,0,0,0,0,0,0,0,0,0,0,0,0,0,0,,,,,,0.0,,,,,,,
2385284,1745470982271,,,,,,,,,,,,,,,,,,,,,,,0,0,0,0,0.0,0.0,0.0,0.0,2.27,,,0,0,0,0,0,0,0,0,0,0,0,0,0,0,0,0,,0,,,,,38.993782,-76.938789,0.0,26.0,34,3,0.9
2385304,1745470982291,0.0,10,,-0.06,-0.2,0.88,-4,-0,-0,0.91,1.7,53,4547,11.7,3.82,,12.71,1.124,89.8,,39.6,5,,,,,,,,,,,,0,0,0,0,0,0,0,0,0,0,0,0,0,0,0,0,,,,,,0.0,,,,,,,
2385324,1745470982311,,,,,,,,,,,,,,,,,,,,,,,,,,,,,,,,,,0,0,0,0,0,0,0,0,0,0,0,0,0,0,0,0,,,,,,,,,,,,,
2385344,1745470982331,0.0,13,,-0.06,-0.29,0.85,-5,-0,-0,0.9,1.7,53,4504,11.6,3.82,,12.71,1.124,89.8,,39.6,5,,,,,,,,,,,,0,0,0,0,0,0,0,0,0,0,0,0,0,0,0,0,,,,,,0.0,,,,,,,
2385364,1745470982351,,,,,,,,,,,,,,,,,,,,,,,,,,,,,,,,,,0,0,0,0,0,0,0,0,0,0,0,0,0,0,0,0,,,,,,,,,,,,,
2385384,1745470982371,0.0,-0,13.66,-0.05,-0.34,0.82,-6,-0,-0,0.89,1.7,52,4504,11.6,3.82,15,12.68,1.142,89.8,174,38.8,5,0,0,0,0,0.0,0.0,0.0,0.0,2.27,0,1.0,0,0,0,0,0,0,0,0,0,0,0,0,0,0,0,0,0,0,1.0,0,-0,0.0,38.993782,-76.938789,0.0,26.0,34,3,0.9
2385404,1745470982391,,,,,,,,,,,,,,,,,,,,,,,,,,,,,,,,,,0,0,0,0,0,0,0,0,0,0,0,0,0,0,0,0,,,,,,,,,,,,,
2385424,1745470982413,0.0,3,,-0.05,-0.41,0.77,-8,-0,-0,0.87,1.7,51,4490,11.5,3.82,,12.75,1.152,89.8,,38.8,5,,,,,,,,,,,,0,0,0,0,0,0,0,0,0,0,0,0,0,0,0,0,,,,,,0.0,,,,,,,
2385444,1745470982433,,,,,,,,,,,,,,,,,,,,,,,,,,,,,,,,,,0,0,0,0,0,0,0,0,0,0,0,0,0,0,0,0,,,,,,,,,,,,,
2385464,1745470982453,0.0,17,,-0.04,-0.45,0.75,-9,-0,-0,0.88,1.7,52,4465,11.3,3.81,,12.71,1.161,89.8,,38.8,5,,,,,,,,,,,,0,0,0,0,0,0,0,0,0,0,0,0,0,0,0,0,,,,,,0.0,,,,,,,
2385484,1745470982473,,,,,,,,,,,,,,,,,,,,,,,0,0,0,0,0.0,0.0,0.0,0.0,2.28,,,0,0,0,0,0,0,0,0,0,0,0,0,0,0,0,0,,0,,,,,38.993782,-76.938789,0.0,26.0,34,3,0.9
2385504,1745470982493,0.0,3,,-0.05,-0.5,0.74,-10,-0,-0,0.89,1.7,53,4481,11.2,3.84,,12.71,1.153,89.8,,38.4,5,,,,,,,,,,,,0,0,0,0,0,0,0,0,0,0,0,0,0,0,0,0,,,,,,0.0,,,,,,,
2385524,1745470982513,,,,,,,,,,,,,,,,,,,,,,,,,,,,,,,,,,0,0,0,0,0,0,0,0,0,0,0,0,0,0,0,0,,,,,,,,,,,,,
2385544,1745470982533,0.0,20,,-0.06,-0.5,0.76,-10,-0,-0,0.91,1.7,53,4491,11.3,3.84,,12.71,1.153,89.8,,38.4,5,,,,,,,,,,,,0,0,0,0,0,0,0,0,0,0,0,0,0,0,0,0,,,,,,0.0,,,,,,,
2385564,1745470982553,,,,,,,,,,,,,,,,,,,,,,,,,,,,,,,,,,0,0,0,0,0,0,0,0,0,0,0,0,0,0,0,0,,,,,,,,,,,,,
2385584,1745470982573,0.0,13,,-0.07,-0.49,0.8,-11,-0,0,0.94,1.7,55,4491,11.3,3.84,,12.79,1.166,89.8,,38.7,5,0,0,0,0,0.0,0.0,0.0,0.0,2.28,,,0,0,0,0,0,0,0,0,0,0,0,0,0,0,0,0,,0,,,,0.0,38.993782,-76.938789,0.05,26.0,34,3,0.9
2385604,1745470982593,,,,,,,,,,,,,,,,,,,,,,,,,,,,,,,,,,0,0,0,0,0,0,0,0,0,0,0,0,0,0,0,0,,,,,,,,,,,,,
2385624,1745470982613,0.0,17,,-0.09,-0.43,0.87,-10,-0,1,0.97,1.7,57,4465,11.3,3.83,,12.84,1.163,89.8,,38.7,5,,,,,,,,,,,,0,0,0,0,0,0,0,0,0,0,0,0,0,0,0,0,,,,,,0.0,,,,,,,
2385644,1745470982633,,,,,,,,,,,,,,,,,,,,,,,,,,,,,,,,,,0,0,0,0,0,0,0,0,0,0,0,0,0,0,0,0,,,,,,,,,,,,,
2385664,1745470982653,0.0,24,,-0.11,-0.34,0.95,-9,-0,1,1.01,1.7,60,4504,11.4,3.84,,12.76,1.162,89.8,,38.7,5,,,,,,,,,,,,0,0,0,0,0,0,0,0,0,0,0,0,0,0,0,0,,,,,,0.0,,,,,,,
2385684,1745470982673,,,,,,,,,,,,,,,,,,,,,,,0,0,0,0,0.0,0.0,0.0,0.0,2.27,,,0,0,0,0,0,0,0,0,0,0,0,0,0,0,0,0,,0,,,,,38.993782,-76.938789,0.04,26.0,34,3,0.9
2385704,1745470982693,0.0,3,,-0.13,-0.24,1.03,-7,-0,1,1.07,1.7,63,4428,11.7,3.82,,12.81,1.175,89.8,,38.3,5,,,,,,,,,,,,0,0,0,0,0,0,0,0,0,0,0,0,0,0,0,0,,,,,,0.0,,,,,,,
2385724,1745470982714,,,,,,,,,,,,,,,,,,,,,,,,,,,,,,,,,,0,0,0,0,0,0,0,0,0,0,0,0,0,0,0,0,,,,,,,,,,,,,
2385744,1745470982734,0.0,7,,-0.15,-0.12,1.14,-5,-0,2,1.16,1.7,68,4442,11.8,3.85,,12.81,1.175,89.8,,38.3,5,,,,,,,,,,,,0,0,0,0,0,0,0,0,0,0,0,0,0,0,0,0,,,,,,0.0,,,,,,,
2385764,1745470982754,,,,,,,,,,,,,,,,,,,,,,,,,,,,,,,,,,0,0,0,0,0,0,0,0,0,0,0,0,0,0,0,0,,,,,,,,,,,,,
2385784,1745470982774,0.0,13,,-0.16,0.01,1.23,-3,-0,2,1.24,1.7,73,4442,11.8,3.85,,12.75,1.161,89.8,,38.2,5,0,0,0,0,0.0,0.0,0.0,0.0,2.26,,,0,0,0,0,0,0,0,0,0,0,0,0,0,0,0,0,,0,,,,0.0,38.993782,-76.938789,0.08,26.0,34,3,0.9
2385804,1745470982794,,,,,,,,,,,,,,,,,,,,,,,,,,,,,,,,,,0,0,0,0,0,0,0,0,0,0,0,0,0,0,0,0,,,,,,,,,,,,,
2385824,1745470982813,0.0,3,,-0.16,0.13,1.31,-0,-0,2,1.33,1.7,78,4460,12.0,3.86,,12.83,1.162,89.8,,38.2,5,,,,,,,,,,,,0,0,0,0,0,0,0,0,0,0,0,0,0,0,0,0,,,,,,0.0,,,,,,,
2385844,1745470982833,,,,,,,,,,,,,,,,,,,,,,,,,,,,,,,,,,0,0,0,0,0,0,0,0,0,0,0,0,0,0,0,0,,,,,,,,,,,,,
2385864,1745470982853,0.0,24,,-0.17,0.24,1.36,2,-1,2,1.4,1.7,82,4506,12.3,3.87,,12.87,1.168,89.8,,38.2,5,,,,,,,,,,,,0,0,0,0,0,0,0,0,0,0,0,0,0,0,0,0,,,,,,0.0,,,,,,,
2385884,1745470982873,,,,,,,,,,,,,,,,,,,,,,,0,0,0,0,0.0,0.0,0.0,0.0,2.27,,,0,0,0,0,0,0,0,0,0,0,0,0,0,0,0,0,,0,,,,,38.993782,-76.938789,0.05,26.0,34,3,0.9
2385904,1745470982893,0.0,17,,-0.16,0.31,1.39,4,-0,2,1.43,1.7,84,4479,12.7,3.9,,12.92,1.158,89.8,,38.6,5,,,,,,,,,,,,0,0,0,0,0,0,0,0,0,0,0,0,0,0,0,0,,,,,,0.0,,,,,,,
2385924,1745470982913,,,,,,,,,,,,,,,,,,,,,,,,,,,,,,,,,,0,0,0,0,0,0,0,0,0,0,0,0,0,0,0,0,,,,,,,,,,,,,
2385944,1745470982933,0.0,13,,-0.15,0.36,1.37,6,-1,1,1.43,1.7,84,4495,13.8,3.95,,12.92,1.158,89.8,,38.6,5,,,,,,,,,,,,0,0,0,0,0,0,0,0,0,0,0,0,0,0,0,0,,,,,,0.0,,,,,,,
2385964,1745470982953,,,,,,,,,,,,,,,,,,,,,,,,,,,,,,,,,,0,0,0,0,0,0,0,0,0,0,0,0,0,0,0,0,,,,,,,,,,,,,
2385984,1745470982973,0.0,7,,-0.13,0.39,1.36,7,-1,1,1.42,1.7,84,4495,13.8,3.95,,13.09,1.155,89.8,,38.8,5,0,0,0,0,0.0,0.0,0.0,0.0,2.28,,,0,0,0,0,0,0,0,0,0,0,0,0,0,0,0,0,,0,,,,0.0,38.993782,-76.938789,0.04,26.1,34,3,0.9
2386004,1745470982993,,,,,,,,,,,,,,,,,,,,,,,,,,,,,,,,,,0,0,0,0,0,0,0,0,0,0,0,0,0,0,0,0,,,,,,,,,,,,,
2386024,1745470983005,0.0,7,,-0.12,0.43,1.34,8,-1,1,1.41,1.7,83,4528,14.7,4.0,,13.09,1.147,89.8,,38.8,5,,,,,,,,,,,,0,0,0,0,0,0,0,0,0,0,0,0,0,0,0,0,,,,,,0.0,,,,,,,
2386044,1745470983025,,,,,,,,,,,,,,,,,,,,,,,,,,,,,,,,,,0,0,0,0,0,0,0,0,0,0,0,0,0,0,0,0,,,,,,,,,,,,,
2386064,1745470983045,0.0,7,,-0.11,0.47,1.37,9,-1,1,1.45,1.7,86,4479,15.4,4.05,,13.15,1.164,89.8,,38.8,5,,,,,,,,,,,,0,0,0,0,0,0,0,0,0,0,0,0,0,0,0,0,,,,,,0.0,,,,,,,
2386084,1745470983065,,,,,,,,,,,,,,,,,,,,,,,0,0,0,0,0.0,0.0,0.0,0.0,2.28,,,0,0,0,0,0,0,0,0,0,0,0,0,0,0,0,0,,0,,,,,38.993782,-76.938789,0.09,26.1,33,3,0.9
2386104,1745470983085,0.0,-0,,-0.13,0.55,1.42,10,-1,1,1.53,1.7,90,4549,15.5,4.07,,13.2,1.207,89.8,,39.3,5,,,,,,,,,,,,0,0,0,0,0,0,0,0,0,0,0,0,0,0,0,0,,,,,,0.0,,,,,,,
2386124,1745470983111,,,,,,,,,,,,,,,,,,,,,,,,,,,,,,,,,,0,0,0,0,0,0,0,0,0,0,0,0,0,0,0,0,,,,,,,,,,,,,
2386144,1745470983131,0.0,3,,-0.14,0.56,1.43,9,-1,1,1.55,1.7,91,4582,15.7,4.08,,13.2,1.207,89.8,,39.3,5,,,,,,,,,,,,0,0,0,0,0,0,0,0,0,0,0,0,0,0,0,0,,,,,,0.0,,,,,,,
2386164,1745470983151,,,,,,,,,,,,,,,,,,,,,,,,,,,,,,,,,,0,0,0,0,0,0,0,0,0,0,0,0,0,0,0,0,,,,,,,,,,,,,
2386184,1745470983171,0.0,13,,-0.15,0.45,1.37,7,-1,1,1.45,1.7,85,4582,15.7,4.08,,13.19,1.185,89.8,,39.4,5,0,0,0,0,0.0,0.0,0.0,0.0,2.26,,,0,0,0,0,0,0,0,0,0,0,0,0,0,0,0,0,,0,,,,0.0,38.993782,-76.938789,0.09,26.1,32,3,0.9
2386204,1745470983191,,,,,,,,,,,,,,,,,,,,,,,,,,,,,,,,,,0,0,0,0,0,0,0,0,0,0,0,0,0,0,0,0,,,,,,,,,,,,,
2386224,1745470983206,0.0,20,,-0.13,0.28,1.25,4,-1,1,1.29,1.7,76,4618,16.0,4.1,,13.2,1.188,89.8,,39.4,5,,,,,,,,,,,,0,0,0,0,0,0,0,0,0,0,0,0,0,0,0,0,,,,,,0.0,,,,,,,
2386244,1745470983226,,,,,,,,,,,,,,,,,,,,,,,,,,,,,,,,,,0,0,0,0,0,0,0,0,0,0,0,0,0,0,0,0,,,,,,,,,,,,,
2386264,1745470983246,0.0,13,,-0.11,0.25,1.21,4,-1,1,1.24,1.7,73,4670,16.4,4.11,,13.2,1.191,89.8,,39.4,5,,,,,,,,,,,,0,0,0,0,0,0,0,0,0,0,0,0,0,0,0,0,,,,,,0.0,,,,,,,
2386284,1745470983266,,,,,,,,,,,,,,,,,,,,,,,0,0,0,0,0.0,0.0,0.0,0.0,2.26,,,0,0,0,0,0,0,0,0,0,0,0,0,0,0,0,0,,0,,,,,38.993782,-76.938789,0.18,26.1,32,3,0.9
2386304,1745470983286,0.0,17,,-0.12,0.33,1.24,5,-1,1,1.29,1.7,76,4763,16.4,4.13,,13.19,1.184,89.8,,40.5,5,,,,,,,,,,,,0,0,0,0,0,0,0,0,0,0,0,0,0,0,0,0,,,,,,0.0,,,,,,,
2386324,1745470983310,,,,,,,,,,,,,,,,,,,,,,,,,,,,,,,,,,0,0,0,0,0,0,0,0,0,0,0,0,0,0,0,0,,,,,,,,,,,,,
2386344,1745470983330,0.0,-4,,-0.11,0.2,1.16,3,-0,1,1.18,1.7,70,4790,16.4,4.14,,13.19,1.184,89.8,,40.5,5,,,,,,,,,,,,0,0,0,0,0,0,0,0,0,0,0,0,0,0,0,0,,,,,,0.0,,,,,,,
2386364,1745470983350,,,,,,,,,,,,,,,,,,,,,,,,,,,,,,,,,,0,0,0,0,0,0,0,0,0,0,0,0,0,0,0,0,,,,,,,,,,,,,
2386384,1745470983370,0.0,-0,13.67,-0.1,0.22,1.19,4,-0,1,1.22,1.7,72,4790,16.4,4.14,15,13.13,1.192,89.8,174,41.5,5,0,0,0,0,0.0,0.0,0.0,0.0,2.27,0,1.0,0,0,0,0,0,0,0,0,0,0,0,0,0,0,0,0,0,0,1.0,0,0,0.0,38.993782,-76.938789,0.04,26.1,32,3,0.9
2386404,1745470983390,,,,,,,,,,,,,,,,,,,,,,,,,,,,,,,,,,0,0,0,0,0,0,0,0,0,0,0,0,0,0,0,0,,,,,,,,,,,,,
2386424,1745470983412,0.0,-0,,-0.11,0.18,1.15,3,-1,1,1.17,1.7,69,4757,16.5,4.13,,13.13,1.183,89.8,,41.5,5,,,,,,,,,,,,0,0,0,0,0,0,0,0,0,0,0,0,0,0,0,0,,,,,,0.0,,,,,,,
2386444,1745470983432,,,,,,,,,,,,,,,,,,,,,,,,,,,,,,,,,,0,0,0,0,0,0,0,0,0,0,0,0,0,0,0,0,,,,,,,,,,,,,
2386464,1745470983452,0.0,20,,-0.09,0.13,1.14,3,-0,0,1.15,1.7,68,4795,16.2,4.14,,13.11,1.18,89.8,,41.5,5,,,,,,,,,,,,0,0,0,0,0,0,0,0,0,0,0,0,0,0,0,0,,,,,,0.0,,,,,,,
2386484,1745470983472,,,,,,,,,,,,,,,,,,,,,,,0,0,0,0,0.0,0.0,0.0,0.0,2.28,,,0,0,0,0,0,0,0,0,0,0,0,0,0,0,0,0,,0,,,,,38.993782,-76.938789,0.12,26.1,32,3,0.9
2386504,1745470983492,0.0,20,,-0.1,0.13,1.13,3,-0,1,1.14,1.7,67,4832,16.0,4.14,,13.15,1.17,89.8,,42.0,5,,,,,,,,,,,,0,0,0,0,0,0,0,0,0,0,0,0,0,0,0,0,,,,,,0.0,,,,,,,
2386524,1745470983512,,,,,,,,,,,,,,,,,,,,,,,,,,,,,,,,,,0,0,0,0,0,0,0,0,0,0,0,0,0,0,0,0,,,,,,,,,,,,,
2386544,1745470983532,0.0,27,,-0.08,0.09,1.1,1,-0,0,1.1,1.7,65,4814,16.1,4.13,,13.15,1.17,89.8,,42.0,5,,,,,,,,,,,,0,0,0,0,0,0,0,0,0,0,0,0,0,0,0,0,,,,,,0.0,,,,,,,
2386564,1745470983552,,,,,,,,,,,,,,,,,,,,,,,,,,,,,,,,,,0,0,0,0,0,0,0,0,0,0,0,0,0,0,0,0,,,,,,,,,,,,,
2386584,1745470983572,0.0,17,,-0.1,0.14,1.16,3,-0,1,1.17,1.7,69,4814,16.1,4.13,,13.15,1.166,89.8,,41.7,5,0,0,0,0,0.0,0.0,0.0,0.0,2.27,,,0,0,0,0,0,0,0,0,0,0,0,0,0,0,0,0,,0,,,,0.0,38.993782,-76.938789,0.04,26.1,32,3,0.9
2386604,1745470983592,,,,,,,,,,,,,,,,,,,,,,,,,,,,,,,,,,0,0,0,0,0,0,0,0,0,0,0,0,0,0,0,0,,,,,,,,,,,,,
2386624,1745470983612,0.0,17,,-0.09,0.01,1.09,1,-0,1,1.1,1.7,65,4758,15.9,4.12,,13.16,1.16,89.8,,41.7,5,,,,,,,,,,,,0,0,0,0,0,0,0,0,0,0,0,0,0,0,0,0,,,,,,0.0,,,,,,,
2386644,1745470983632,,,,,,,,,,,,,,,,,,,,,,,,,,,,,,,,,,0,0,0,0,0,0,0,0,0,0,0,0,0,0,0,0,,,,,,,,,,,,,
2386664,1745470983652,0.0,7,,-0.09,0.08,1.13,2,-0,0,1.14,1.7,67,4772,16.1,4.13,,13.17,1.153,89.8,,41.7,5,,,,,,,,,,,,0,0,0,0,0,0,0,0,0,0,0,0,0,0,0,0,,,,,,0.0,,,,,,,
2386684,1745470983672,,,,,,,,,,,,,,,,,,,,,,,0,0,0,0,0.0,0.0,0.0,0.0,2.27,,,0,0,0,0,0,0,0,0,0,0,0,0,0,0,0,0,,0,,,,,38.993782,-76.938789,0.57,26.1,32,3,0.9
2386704,1745470983692,0.0,10,,-0.11,0.13,1.17,2,-0,1,1.18,1.7,69,4752,16.3,4.13,,13.19,1.145,89.8,,41.4,5,,,,,,,,,,,,0,0,0,0,0,0,0,0,0,0,0,0,0,0,0,0,,,,,,0.0,,,,,,,
2386724,1745470983712,,,,,,,,,,,,,,,,,,,,,,,,,,,,,,,,,,0,0,0,0,0,0,0,0,0,0,0,0,0,0,0,0,,,,,,,,,,,,,
2386744,1745470983732,0.0,10,,-0.09,0.03,1.09,0,-0,0,1.09,1.7,64,4701,16.4,4.12,,13.19,1.145,89.8,,41.4,5,,,,,,,,,,,,0,0,0,0,0,0,0,0,0,0,0,0,0,0,0,0,,,,,,0.0,,,,,,,
2386764,1745470983752,,,,,,,,,,,,,,,,,,,,,,,,,,,,,,,,,,0,0,0,0,0,0,0,0,0,0,0,0,0,0,0,0,,,,,,,,,,,,,
2386784,1745470983772,0.0,-0,,-0.06,-0.01,1.0,0,-0,0,1.0,1.7,59,4701,16.4,4.12,,13.2,1.158,89.8,,40.5,5,0,0,0,0,0.0,0.0,0.0,0.0,2.27,,,0,0,0,0,0,0,0,0,0,0,0,0,0,0,0,0,,0,,,,0.0,38.993782,-76.938789,0.13,26.1,32,3,0.9
2386804,1745470983792,,,,,,,,,,,,,,,,,,,,,,,,,,,,,,,,,,0,0,0,0,0,0,0,0,0,0,0,0,0,0,0,0,,,,,,,,,,,,,
2386824,1745470983812,0.0,24,,-0.04,0.05,1.05,3,-0,0,1.05,1.7,62,4654,16.6,4.13,,13.17,1.148,89.8,,40.5,5,,,,,,,,,,,,0,0,0,0,0,0,0,0,0,0,0,0,0,0,0,0,,,,,,0.0,,,,,,,
2386844,1745470983832,,,,,,,,,,,,,,,,,,,,,,,,,,,,,,,,,,0,0,0,0,0,0,0,0,0,0,0,0,0,0,0,0,,,,,,,,,,,,,
2386864,1745470983852,0.0,24,,-0.06,0.13,1.14,3,-0,0,1.15,1.7,68,4626,16.6,4.12,,13.19,1.154,89.8,,40.5,5,,,,,,,,,,,,0,0,0,0,0,0,0,0,0,0,0,0,0,0,0,0,,,,,,0.0,,,,,,,
2386884,1745470983872,,,,,,,,,,,,,,,,,,,,,,,0,0,0,0,0.0,0.0,0.0,0.0,2.27,,,0,0,0,0,0,0,0,0,0,0,0,0,0,0,0,0,,0,,,,,38.993782,-76.938789,0.18,26.1,32,3,0.9
2386904,1745470983892,0.0,24,,-0.07,0.18,1.2,2,-0,1,1.22,1.7,72,4583,16.6,4.1,,13.29,1.131,89.8,,39.7,5,,,,,,,,,,,,0,0,0,0,0,0,0,0,0,0,0,0,0,0,0,0,,,,,,0.0,,,,,,,
2386924,1745470983912,,,,,,,,,,,,,,,,,,,,,,,,,,,,,,,,,,0,0,0,0,0,0,0,0,0,0,0,0,0,0,0,0,,,,,,,,,,,,,
2386944,1745470983932,0.0,24,,-0.08,0.19,1.25,1,-0,1,1.27,1.7,75,4488,16.5,4.1,,13.29,1.131,89.8,,39.7,5,,,,,,,,,,,,0,0,0,0,0,0,0,0,0,0,0,0,0,0,0,0,,,,,,0.0,,,,,,,
2386964,1745470983952,,,,,,,,,,,,,,,,,,,,,,,,,,,,,,,,,,0,0,0,0,0,0,0,0,0,0,0,0,0,0,0,0,,,,,,,,,,,,,
2386984,1745470983972,0.0,-0,,-0.08,0.25,1.34,2,-0,1,1.36,1.7,80,4488,16.5,4.1,,13.33,1.129,89.8,,38.3,5,0,0,0,0,0.0,0.0,0.0,0.0,2.28,,,0,0,0,0,0,0,0,0,0,0,0,0,0,0,0,0,,0,,,,0.0,38.993782,-76.938789,0.32,26.1,32,3,0.9
2387004,1745470983992,,,,,,,,,,,,,,,,,,,,,,,,,,,,,,,,,,0,0,0,0,0,0,0,0,0,0,0,0,0,0,0,0,,,,,,,,,,,,,
2387024,1745470984004,0.0,3,,-0.08,0.3,1.36,4,-1,1,1.4,1.7,82,4450,16.3,4.07,,13.39,1.131,89.8,,38.3,5,,,,,,,,,,,,0,0,0,0,0,0,0,0,0,0,0,0,0,0,0,0,,,,,,0.0,,,,,,,
2387044,1745470984024,,,,,,,,,,,,,,,,,,,,,,,,,,,,,,,,,,0,0,0,0,0,0,0,0,0,0,0,0,0,0,0,0,,,,,,,,,,,,,
2387064,1745470984044,0.0,17,,-0.05,0.29,1.26,6,-1,1,1.3,1.7,76,4343,16.6,4.11,,13.45,1.139,89.8,,38.3,5,,,,,,,,,,,,0,0,0,0,0,0,0,0,0,0,0,0,0,0,0,0,,,,,,0.0,,,,,,,
2387084,1745470984064,,,,,,,,,,,,,,,,,,,,,,,0,0,0,0,0.0,0.0,0.0,0.0,2.28,,,0,0,0,0,0,0,0,0,0,0,0,0,0,0,0,0,,0,,,,,38.993782,-76.938789,0.44,26.1,32,3,0.9
2387104,1745470984084,0.0,7,,-0.05,0.22,1.17,3,-0,1,1.19,1.7,70,4258,17.3,4.1,,13.4,1.157,89.8,,37.0,5,,,,,,,,,,,,0,0,0,0,0,0,0,0,0,0,0,0,0,0,0,0,,,,,,0.0,,,,,,,
2387124,1745470984110,,,,,,,,,,,,,,,,,,,,,,,,,,,,,,,,,,0,0,0,0,0,0,0,0,0,0,0,0,0,0,0,0,,,,,,,,,,,,,
2387144,1745470984130,0.0,20,,-0.06,0.21,1.23,3,-0,1,1.25,1.7,74,4248,17.6,4.09,,13.4,1.157,89.8,,37.0,5,,,,,,,,,,,,0,0,0,0,0,0,0,0,0,0,0,0,0,0,0,0,,,,,,0.0,,,,,,,
2387164,1745470984150,,,,,,,,,,,,,,,,,,,,,,,,,,,,,,,,,,0,0,0,0,0,0,0,0,0,0,0,0,0,0,0,0,,,,,,,,,,,,,
2387184,1745470984170,0.0,20,,-0.04,0.07,1.12,2,-0,0,1.13,1.7,66,4248,17.6,4.09,,13.49,1.151,89.8,,35.4,5,0,0,0,0,0.0,0.0,0.0,0.0,2.27,,,0,0,0,0,0,0,0,0,0,0,0,0,0,0,0,0,,0,,,,0.0,38.993782,-76.938789,0.52,26.1,32,3,0.9
2387204,1745470984190,,,,,,,,,,,,,,,,,,,,,,,,,,,,,,,,,,0,0,0,0,0,0,0,0,0,0,0,0,0,0,0,0,,,,,,,,,,,,,
2387224,1745470984203,0.0,20,,-0.03,0.14,1.18,4,-0,1,1.19,1.7,70,4147,21.0,4.26,,13.68,1.149,89.8,,35.4,5,,,,,,,,,,,,0,0,0,0,0,0,0,0,0,0,0,0,0,0,0,0,,,,,,0.0,,,,,,,
2387244,1745470984223,,,,,,,,,,,,,,,,,,,,,,,,,,,,,,,,,,0,0,0,0,0,0,0,0,0,0,0,0,0,0,0,0,,,,,,,,,,,,,
2387264,1745470984243,0.0,27,,-0.01,0.03,1.09,2,-0,0,1.09,1.7,64,4047,22.7,4.33,,13.87,1.158,89.8,,35.4,5,,,,,,,,,,,,0,0,0,0,0,0,0,0,0,0,0,0,0,0,0,0,,,,,,0.0,,,,,,,
2387284,1745470984263,,,,,,,,,,,,,,,,,,,,,,,0,0,0,0,0.0,0.0,0.0,0.0,2.26,,,0,0,0,0,0,0,0,0,0,0,0,0,0,0,0,0,,0,,,,,38.993782,-76.938789,0.7,26.1,33,3,0.9
2387304,1745470984283,0.0,3,,-0.01,0.1,1.13,4,-0,0,1.13,1.7,67,4014,23.7,4.44,,13.87,1.181,89.8,,33.8,5,,,,,,,,,,,,0,0,0,0,0,0,0,0,0,0,0,0,0,0,0,0,,,,,,0.0,,,,,,,
2387324,1745470984313,,,,,,,,,,,,,,,,,,,,,,,,,,,,,,,,,,0,0,0,0,0,0,0,0,0,0,0,0,0,0,0,0,,,,,,,,,,,,,
2387344,1745470984333,0.0,10,,0.02,0.04,1.12,2,-0,0,1.12,1.7,66,4078,24.1,4.45,,13.87,1.181,89.8,,33.8,5,,,,,,,,,,,,0,0,0,0,0,0,0,0,0,0,0,0,0,0,0,0,,,,,,0.0,,,,,,,
2387364,1745470984353,,,,,,,,,,,,,,,,,,,,,,,,,,,,,,,,,,0,0,0,0,0,0,0,0,0,0,0,0,0,0,0,0,,,,,,,,,,,,,
2387384,1745470984373,0.0,10,13.67,0.03,0.0,1.07,2,-0,0,1.07,1.7,63,4078,24.1,4.45,15,13.95,1.175,89.8,174,34.2,5,0,0,0,0,0.0,0.0,0.0,0.0,2.27,0,1.0,0,0,0,0,0,0,0,0,0,0,0,0,0,0,0,0,0,0,1.0,0,-0,0.0,38.993782,-76.938782,1.08,26.1,33,3,0.9
2387404,1745470984393,,,,,,,,,,,,,,,,,,,,,,,,,,,,,,,,,,0,0,0,0,0,0,0,0,0,0,0,0,0,0,0,0,,,,,,,,,,,,,
2387424,1745470984411,0.0,20,,0.05,0.1,1.11,4,-0,0,1.11,1.7,65,3952,25.9,4.46,,14.0,1.152,89.8,,34.2,5,,,,,,,,,,,,0,0,0,0,0,0,0,0,0,0,0,0,0,0,0,0,,,,,,0.0,,,,,,,
2387444,1745470984431,,,,,,,,,,,,,,,,,,,,,,,,,,,,,,,,,,0,0,0,0,0,0,0,0,0,0,0,0,0,0,0,0,,,,,,,,,,,,,
2387464,1745470984451,0.0,20,,0.08,0.08,1.1,3,-0,0,1.11,1.7,65,3846,28.6,4.49,,14.12,1.157,89.8,,34.2,5,,,,,,,,,,,,0,0,0,0,0,0,0,0,0,0,0,0,0,0,0,0,,,,,,0.0,,,,,,,
2387484,1745470984471,,,,,,,,,,,,,,,,,,,,,,,1,0,1,0,0.0,0.0,0.0,0.0,2.27,,,0,0,0,0,0,0,0,0,0,0,0,0,0,0,0,0,,0,,,,,38.993782,-76.938782,1.39,26.1,33,3,0.9
2387504,1745470984491,0.0,24,,0.09,0.02,1.1,3,-0,0,1.1,1.7,65,3851,29.4,4.55,,14.26,1.144,89.8,,32.6,5,,,,,,,,,,,,0,0,0,0,0,0,0,0,0,0,0,0,0,0,0,0,,,,,,0.0,,,,,,,
2387524,1745470984511,,,,,,,,,,,,,,,,,,,,,,,,,,,,,,,,,,0,0,0,0,0,0,0,0,0,0,0,0,0,0,0,0,,,,,,,,,,,,,
2387544,1745470984531,0.0,30,,0.11,0.01,1.11,3,-0,0,1.11,1.7,65,3672,29.5,4.57,,14.26,1.144,89.8,,32.6,5,,,,,,,,,,,,0,0,0,0,0,0,0,0,0,0,0,0,0,0,0,0,,,,,,0.0,,,,,,,
2387564,1745470984551,,,,,,,,,,,,,,,,,,,,,,,,,,,,,,,,,,0,0,0,0,0,0,0,0,0,0,0,0,0,0,0,0,,,,,,,,,,,,,
2387584,1745470984571,0.0,20,,0.12,0.03,1.06,3,-0,0,1.06,1.7,63,3672,29.5,4.57,,14.22,1.134,89.8,,31.0,5,1,0,1,1,0.0,0.0,0.0,0.0,2.28,,,0,0,0,0,0,0,0,0,0,0,0,0,0,0,0,0,,0,,,,0.0,38.993782,-76.938782,2.03,26.1,33,3,0.9
2387604,1745470984591,,,,,,,,,,,,,,,,,,,,,,,,,,,,,,,,,,0,0,0,0,0,0,0,0,0,0,0,0,0,0,0,0,,,,,,,,,,,,,
2387624,1745470984611,0.0,24,,0.13,-0.07,1.09,1,-0,0,1.1,1.7,65,3638,30.9,4.73,,14.28,1.127,89.8,,31.0,5,,,,,,,,,,,,0,0,0,0,0,0,0,0,0,0,0,0,0,0,0,0,,,,,,0.0,,,,,,,
2387644,1745470984631,,,,,,,,,,,,,,,,,,,,,,,,,,,,,,,,,,0,0,0,0,0,0,0,0,0,0,0,0,0,0,0,0,,,,,,,,,,,,,
2387664,1745470984651,0.0,17,,0.15,-0.0,1.0,3,-0,-0,1.01,1.7,59,3272,31.7,4.84,,14.38,1.134,89.8,,31.0,5,,,,,,,,,,,,0,0,0,0,0,0,0,0,0,0,0,0,0,0,0,0,,,,,,0.0,,,,,,,
2387684,1745470984671,,,,,,,,,,,,,,,,,,,,,,,2,0,2,2,0.0,0.0,0.0,0.0,2.28,,,0,0,0,0,0,0,0,0,0,0,0,0,0,0,0,0,,0,,,,,38.993782,-76.938782,2.87,26.1,33,3,0.9
2387704,1745470984691,0.0,17,,0.18,0.02,0.95,2,-0,-0,0.96,1.7,57,3077,43.8,4.63,,14.62,1.135,89.8,,27.4,5,,,,,,,,,,,,0,0,0,0,0,0,0,0,0,0,0,0,0,0,0,0,,,,,,0.0,,,,,,,
2387724,1745470984713,,,,,,,,,,,,,,,,,,,,,,,,,,,,,,,,,,0,0,0,0,0,0,0,0,0,0,0,0,0,0,0,0,,,,,,,,,,,,,
2387744,1745470984733,0.0,13,,0.2,0.01,0.91,2,-0,-0,0.93,1.7,55,2870,55.2,4.62,,14.62,1.135,89.8,,27.4,5,,,,,,,,,,,,0,0,0,0,0,0,0,0,0,0,0,0,0,0,0,0,,,,,,0.0,,,,,,,
2387764,1745470984753,,,,,,,,,,,,,,,,,,,,,,,,,,,,,,,,,,0,0,0,0,0,0,0,0,0,0,0,0,0,0,0,0,,,,,,,,,,,,,
2387784,1745470984773,0.0,68,,0.21,-0.01,0.93,1,-0,-0,0.96,1.7,56,2870,55.2,4.62,,14.62,1.121,89.8,,21.7,5,2,0,3,2,0.0,0.0,0.0,0.0,2.26,,,0,0,0,0,0,0,0,0,0,0,0,0,0,0,0,0,,0,,,,0.0,38.993786,-76.938782,3.93,26.1,33,3,0.9
2387804,1745470984793,,,,,,,,,,,,,,,,,,,,,,,,,,,,,,,,,,0,0,0,0,0,0,0,0,0,0,0,0,0,0,0,0,,,,,,,,,,,,,
2387824,1745470984811,0.0,47,,0.21,-0.04,0.95,1,-1,-0,0.97,1.7,57,2616,58.9,4.71,,14.62,1.12,89.8,,21.7,5,,,,,,,,,,,,0,0,0,0,0,0,0,0,0,0,0,0,0,0,0,0,,,,,,0.0,,,,,,,
2387844,1745470984831,,,,,,,,,,,,,,,,,,,,,,,,,,,,,,,,,,0,0,0,0,0,0,0,0,0,0,0,0,0,0,0,0,,,,,,,,,,,,,
2387864,1745470984851,0.0,95,,0.19,-0.04,0.94,1,-1,-0,0.96,1.7,56,2371,58.9,4.54,,14.68,1.111,89.8,,21.7,5,,,,,,,,,,,,0,0,0,0,0,0,0,0,0,0,0,0,0,0,0,0,,,,,,0.0,,,,,,,
2387884,1745470984871,,,,,,,,,,,,,,,,,,,,,,,3,0,3,4,0.0,0.0,0.0,0.0,2.27,,,0,0,0,0,0,0,0,0,0,0,0,0,0,0,0,0,,0,,,,,38.993786,-76.938782,5.1,26.1,33,3,0.9
2387904,1745470984891,0.0,85,,0.2,-0.04,0.95,1,-1,-0,0.98,1.7,57,2076,58.8,4.54,,14.71,1.12,89.8,,18.0,5,,,,,,,,,,,,0,0,0,0,0,0,0,0,0,0,0,0,0,0,0,0,,,,,,0.0,,,,,,,
2387924,1745470984913,,,,,,,,,,,,,,,,,,,,,,,,,,,,,,,,,,0,0,0,0,0,0,0,0,0,0,0,0,0,0,0,0,,,,,,,,,,,,,
2387944,1745470984933,0.0,81,,0.19,-0.03,0.96,1,-1,-0,0.98,1.7,58,1669,58.9,4.61,,14.71,1.12,89.8,,18.0,5,,,,,,,,,,,,0,0,0,0,0,0,0,0,0,0,0,0,0,0,0,0,,,,,,0.0,,,,,,,
2387964,1745470984953,,,,,,,,,,,,,,,,,,,,,,,,,,,,,,,,,,0,0,0,0,0,0,0,0,0,0,0,0,0,0,0,0,,,,,,,,,,,,,
2387984,1745470984973,0.0,64,,0.16,-0.03,0.96,1,-1,-0,0.97,1.7,57,1669,58.9,4.61,,14.79,1.151,89.8,,14.8,5,4,0,4,4,0.0,0.0,0.0,0.0,2.28,,,0,0,0,0,0,0,0,0,0,0,0,0,0,0,0,0,,0,,,,0.0,38.993786,-76.938782,6.64,26.1,33,3,0.9
2388004,1745470984993,,,,,,,,,,,,,,,,,,,,,,,,,,,,,,,,,,0,0,0,0,0,0,0,0,0,0,0,0,0,0,0,0,,,,,,,,,,,,,
2388024,1745470985003,0.0,37,,0.13,-0.03,0.96,1,-1,-0,0.97,1.7,57,1546,58.9,4.43,,14.7,1.157,89.8,,14.8,5,,,,,,,,,,,,0,0,0,0,0,0,0,0,0,0,0,0,0,0,0,0,,,,,,0.0,,,,,,,
2388044,1745470985023,,,,,,,,,,,,,,,,,,,,,,,,,,,,,,,,,,0,0,0,0,0,0,0,0,0,0,0,0,0,0,0,0,,,,,,,,,,,,,
2388064,1745470985043,0.0,47,,0.12,-0.03,0.95,0,-1,-0,0.96,1.7,56,1154,58.8,4.35,,14.72,1.157,89.8,,14.8,5,,,,,,,,,,,,0,0,0,0,0,0,0,0,0,0,0,0,0,0,0,0,,,,,,0.0,,,,,,,
2388084,1745470985063,,,,,,,,,,,,,,,,,,,,,,,4,0,5,5,0.0,0.0,0.0,0.0,2.28,,,0,0,0,0,0,0,0,0,0,0,0,0,0,0,0,0,,0,,,,,38.993786,-76.938782,7.88,26.1,34,3,0.8
2388104,1745470985083,0.0,44,,0.1,-0.02,0.95,0,-1,-0,0.96,1.7,56,1361,58.7,4.13,,14.67,1.178,89.8,,13.6,5,,,,,,,,,,,,0,0,0,0,0,0,0,0,0,0,0,0,0,0,0,0,,,,,,0.0,,,,,,,
2388124,1745470985103,,,,,,,,,,,,,,,,,,,,,,,,,,,,,,,,,,0,0,0,0,0,0,0,0,0,0,0,0,0,0,0,0,,,,,,,,,,,,,
2388144,1745470985117,0.0,134,,0.06,-0.0,0.97,0,-1,-0,0.97,1.7,57,1380,58.8,4.25,,14.67,1.178,89.8,,13.6,5,,,,,,,,,,,,0,0,0,0,0,0,0,0,0,0,0,0,0,0,0,0,,,,,,0.0,,,,,,,
2388164,1745470985137,,,,,,,,,,,,,,,,,,,,,,,,,,,,,,,,,,0,0,0,0,0,0,0,0,0,0,0,0,0,0,0,0,,,,,,,,,,,,,
2388184,1745470985157,0.0,41,,-0.02,0.0,0.97,-0,-1,-0,0.97,1.7,57,1380,58.8,4.25,,14.67,1.194,89.8,,11.0,5,5,0,5,5,0.0,0.0,0.0,0.0,2.27,,,0,0,0,0,0,0,0,0,0,0,0,0,0,0,0,0,,0,,,,0.0,38.993786,-76.938782,7.73,26.1,34,3,0.8
2388204,1745470985177,,,,,,,,,,,,,,,,,,,,,,,,,,,,,,,,,,0,0,0,0,0,0,0,0,0,0,0,0,0,0,0,0,,,,,,,,,,,,,
2388224,1745470985213,0.0,51,,-0.06,0.0,0.97,0,-2,-0,0.97,1.7,57,995,58.6,4.26,,14.74,1.185,89.8,,11.0,5,,,,,,,,,,,,0,0,0,0,0,0,0,0,0,0,0,0,0,0,0,0,,,,,,0.0,,,,,,,
2388244,1745470985233,,,,,,,,,,,,,,,,,,,,,,,,,,,,,,,,,,0,0,0,0,0,0,0,0,0,0,0,0,0,0,0,0,,,,,,,,,,,,,
2388264,1745470985253,0.0,44,,-0.11,0.01,0.96,0,-1,-0,0.97,1.7,57,977,58.7,4.03,,14.74,1.188,89.8,,11.0,5,,,,,,,,,,,,0,0,0,0,0,0,0,0,0,0,0,0,0,0,0,0,,,,,,0.0,,,,,,,
2388284,1745470985273,,,,,,,,,,,,,,,,,,,,,,,5,0,4,4,0.0,0.0,0.0,0.0,2.26,,,0,0,0,0,0,0,0,0,0,0,0,0,0,0,0,0,,0,,,,,38.993786,-76.938774,7.3,26.1,34,3,0.8
2388304,1745470985293,0.0,30,,-0.14,0.02,0.96,0,-1,-0,0.97,1.7,57,1098,58.8,4.02,,14.64,1.198,89.8,,11.4,5,,,,,,,,,,,,0,0,0,0,0,0,0,0,0,0,0,0,0,0,0,0,,,,,,0.0,,,,,,,
2388324,1745470985312,,,,,,,,,,,,,,,,,,,,,,,,,,,,,,,,,,0,0,0,0,0,0,0,0,0,0,0,0,0,0,0,0,,,,,,,,,,,,,
2388344,1745470985332,0.0,47,,-0.15,0.02,0.97,0,-1,-0,0.99,1.7,58,1207,58.9,4.09,,14.64,1.198,89.8,,11.4,5,,,,,,,,,,,,0,0,0,0,0,0,0,0,0,0,0,0,0,0,0,0,,,,,,0.0,,,,,,,
2388364,1745470985352,,,,,,,,,,,,,,,,,,,,,,,,,,,,,,,,,,0,0,0,0,0,0,0,0,0,0,0,0,0,0,0,0,,,,,,,,,,,,,
2388384,1745470985372,0.0,20,13.49,-0.16,0.02,0.98,0,-1,-0,1.0,1.7,59,1207,58.9,4.09,15,14.64,1.218,89.8,174,11.8,5,4,0,4,3,0.0,0.0,0.0,0.0,2.26,0,1.0,0,0,0,0,0,0,0,0,0,0,0,0,0,0,0,0,0,0,1.0,0,-0,0.0,38.993786,-76.938774,6.15,26.1,34,3,0.8
2388404,1745470985392,,,,,,,,,,,,,,,,,,,,,,,,,,,,,,,,,,0,0,0,0,0,0,0,0,0,0,0,0,0,0,0,0,,,,,,,,,,,,,
2388424,1745470985412,0.0,51,,-0.18,0.03,0.98,0,-1,-0,1.0,1.7,59,1207,58.8,4.09,,14.63,1.226,89.8,,11.8,5,,,,,,,,,,,,0,0,0,0,0,0,0,0,0,0,0,0,0,0,0,0,,,,,,0.0,,,,,,,
2388444,1745470985432,,,,,,,,,,,,,,,,,,,,,,,,,,,,,,,,,,0,0,0,0,0,0,0,0,0,0,0,0,0,0,0,0,,,,,,,,,,,,,
2388464,1745470985452,0.0,54,,-0.2,0.03,0.99,0,-1,-0,1.01,1.7,59,1057,59.0,4.15,,14.78,1.217,89.8,,11.8,5,,,,,,,,,,,,0,0,0,0,0,0,0,0,0,0,0,0,0,0,0,0,,,,,,0.0,,,,,,,
2388484,1745470985472,,,,,,,,,,,,,,,,,,,,,,,3,0,3,3,0.0,0.0,0.0,0.0,2.27,,,0,0,0,0,0,0,0,0,0,0,0,0,0,0,0,0,,0,,,,,38.993786,-76.938774,4.82,26.1,34,3,0.8
2388504,1745470985492,0.0,74,,-0.21,0.03,0.98,0,-1,-0,1.01,1.7,59,802,53.2,4.04,,14.72,1.215,89.8,,10.0,5,,,,,,,,,,,,0,0,0,0,0,0,0,0,0,0,0,0,0,0,0,0,,,,,,0.0,,,,,,,
2388524,1745470985510,,,,,,,,,,,,,,,,,,,,,,,,,,,,,,,,,,0,0,0,0,0,0,0,0,0,0,0,0,0,0,0,0,,,,,,,,,,,,,
2388544,1745470985530,0.0,57,,-0.22,0.03,0.98,0,-1,0,1.01,1.7,59,802,52.2,4.04,,14.72,1.215,89.8,,10.0,5,,,,,,,,,,,,0,0,0,0,0,0,0,0,0,0,0,0,0,0,0,0,,,,,,0.0,,,,,,,
2388564,1745470985550,,,,,,,,,,,,,,,,,,,,,,,,,,,,,,,,,,0,0,0,0,0,0,0,0,0,0,0,0,0,0,0,0,,,,,,,,,,,,,
2388584,1745470985570,0.0,41,,-0.23,0.03,0.98,0,-1,0,1.01,1.7,60,802,52.2,4.04,,14.67,1.216,89.8,,10.1,5,3,0,3,3,0.0,0.0,0.0,0.0,2.28,,,0,0,0,0,0,0,0,0,0,0,0,0,0,0,0,0,,0,,,,0.0,38.993786,-76.938774,3.95,26.1,34,3,0.8
2388604,1745470985590,,,,,,,,,,,,,,,,,,,,,,,,,,,,,,,,,,0,0,0,0,0,0,0,0,0,0,0,0,0,0,0,0,,,,,,,,,,,,,
2388624,1745470985612,0.0,47,,-0.25,0.04,0.99,0,-1,0,1.02,1.7,60,760,52.2,3.55,,14.68,1.221,89.8,,10.1,5,,,,,,,,,,,,0,0,0,0,0,0,0,0,0,0,0,0,0,0,0,0,,,,,,0.0,,,,,,,
2388644,1745470985632,,,,,,,,,,,,,,,,,,,,,,,,,,,,,,,,,,0,0,0,0,0,0,0,0,0,0,0,0,0,0,0,0,,,,,,,,,,,,,
2388664,1745470985652,0.0,131,,-0.26,0.04,0.99,0,-1,0,1.02,1.7,60,760,52.0,3.55,,14.72,1.233,89.8,,10.1,5,,,,,,,,,,,,0,0,0,0,0,0,0,0,0,0,0,0,0,0,0,0,,,,,,0.0,,,,,,,
2388684,1745470985672,,,,,,,,,,,,,,,,,,,,,,,2,0,2,2,0.0,0.0,0.0,0.0,2.28,,,0,0,0,0,0,0,0,0,0,0,0,0,0,0,0,0,,0,,,,,38.993786,-76.938766,2.43,26.1,34,3,0.8
2388704,1745470985692,0.0,44,,-0.29,0.04,0.99,0,-1,0,1.03,1.7,61,522,52.2,3.59,,14.72,1.243,89.8,,8.3,5,,,,,,,,,,,,0,0,0,0,0,0,0,0,0,0,0,0,0,0,0,0,,,,,,0.0,,,,,,,
2388724,1745470985712,,,,,,,,,,,,,,,,,,,,,,,,,,,,,,,,,,0,0,0,0,0,0,0,0,0,0,0,0,0,0,0,0,,,,,,,,,,,,,
2388744,1745470985732,0.0,51,,-0.32,0.05,0.99,0,-1,0,1.04,1.7,61,522,52.0,3.59,,14.72,1.243,89.8,,8.3,5,,,,,,,,,,,,0,0,0,0,0,0,0,0,0,0,0,0,0,0,0,0,,,,,,0.0,,,,,,,
2388764,1745470985752,,,,,,,,,,,,,,,,,,,,,,,,,,,,,,,,,,0,0,0,0,0,0,0,0,0,0,0,0,0,0,0,0,,,,,,,,,,,,,
2388784,1745470985772,0.0,41,,-0.34,0.05,0.99,0,-1,0,1.04,1.7,62,522,52.0,3.59,,14.74,1.251,89.8,,7.3,5,2,0,2,2,0.0,0.0,0.0,0.0,2.27,,,0,0,0,0,0,0,0,0,0,0,0,0,0,0,0,0,,0,,,,0.0,38.993786,-76.938766,1.99,26.1,34,3,0.8
2388804,1745470985792,,,,,,,,,,,,,,,,,,,,,,,,,,,,,,,,,,0,0,0,0,0,0,0,0,0,0,0,0,0,0,0,0,,,,,,,,,,,,,
2388824,1745470985810,0.0,37,,-0.35,0.05,0.99,0,-1,0,1.05,1.7,62,522,52.2,3.59,,14.74,1.25,88.0,,7.3,5,,,,,,,,,,,,0,0,0,0,0,0,0,0,0,0,0,0,0,0,0,0,,,,,,0.0,,,,,,,
2388844,1745470985830,,,,,,,,,,,,,,,,,,,,,,,,,,,,,,,,,,0,0,0,0,0,0,0,0,0,0,0,0,0,0,0,0,,,,,,,,,,,,,
2388864,1745470985850,0.0,47,,-0.34,0.04,0.99,0,-1,0,1.05,1.7,62,522,52.3,3.59,,14.74,1.251,88.0,,7.3,5,,,,,,,,,,,,0,0,0,0,0,0,0,0,0,0,0,0,0,0,0,0,,,,,,0.0,,,,,,,
2388884,1745470985870,,,,,,,,,,,,,,,,,,,,,,,2,0,1,2,0.0,0.0,0.0,0.0,2.27,,,0,0,0,0,0,0,0,0,0,0,0,0,0,0,0,0,,0,,,,,38.993786,-76.938766,0.87,26.1,34,3,0.8
2388904,1745470985890,0.0,30,,-0.31,0.04,0.99,0,-1,0,1.04,1.7,61,522,52.5,3.59,,14.72,1.252,88.0,,7.6,5,,,,,,,,,,,,0,0,0,0,0,0,0,0,0,0,0,0,0,0,0,0,,,,,,0.0,,,,,,,
2388924,1745470985913,,,,,,,,,,,,,,,,,,,,,,,,,,,,,,,,,,0,0,0,0,0,0,0,0,0,0,0,0,0,0,0,0,,,,,,,,,,,,,
2388944,1745470985933,0.0,27,,-0.28,0.04,0.99,-0,-0,0,1.03,1.7,61,522,52.4,3.59,,14.72,1.252,88.0,,7.6,5,,,,,,,,,,,,0,0,0,0,0,0,0,0,0,0,0,0,0,0,0,0,,,,,,0.0,,,,,,,
2388964,1745470985953,,,,,,,,,,,,,,,,,,,,,,,,,,,,,,,,,,0,0,0,0,0,0,0,0,0,0,0,0,0,0,0,0,,,,,,,,,,,,,
2388984,1745470985973,0.0,34,,-0.25,0.03,0.99,0,-0,0,1.02,1.7,60,522,52.4,3.59,,14.74,1.252,88.0,,7.6,5,1,0,1,2,0.0,0.0,0.0,0.0,2.27,,,0,0,0,0,0,0,0,0,0,0,0,0,0,0,0,0,,0,,,,0.0,38.993786,-76.938766,0.47,26.1,34,3,0.8
2389004,1745470985993,,,,,,,,,,,,,,,,,,,,,,,,,,,,,,,,,,0,0,0,0,0,0,0,0,0,0,0,0,0,0,0,0,,,,,,,,,,,,,
2389024,1745470986004,0.0,24,,-0.23,0.03,0.99,0,-0,0,1.02,1.7,60,522,52.4,3.59,,14.74,1.25,88.0,,7.6,5,,,,,,,,,,,,0,0,0,0,0,0,0,0,0,0,0,0,0,0,0,0,,,,,,0.0,,,,,,,
2389044,1745470986024,,,,,,,,,,,,,,,,,,,,,,,,,,,,,,,,,,0,0,0,0,0,0,0,0,0,0,0,0,0,0,0,0,,,,,,,,,,,,,
2389064,1745470986044,0.0,37,,-0.2,0.02,0.99,0,-0,0,1.02,1.7,60,522,52.3,3.59,,14.74,1.251,88.0,,7.6,5,,,,,,,,,,,,0,0,0,0,0,0,0,0,0,0,0,0,0,0,0,0,,,,,,0.0,,,,,,,
2389084,1745470986064,,,,,,,,,,,,,,,,,,,,,,,1,0,1,0,0.0,0.0,0.0,0.0,2.28,,,0,0,0,0,0,0,0,0,0,0,0,0,0,0,0,0,,0,,,,,38.993786,-76.938766,0.8,26.1,33,3,0.9
2389104,1745470986084,0.0,41,,-0.18,0.02,0.99,0,-0,0,1.01,1.7,60,522,52.2,3.59,,14.74,1.25,88.0,,7.7,5,,,,,,,,,,,,0,0,0,0,0,0,0,0,0,0,0,0,0,0,0,0,,,,,,0.0,,,,,,,
2389124,1745470986112,,,,,,,,,,,,,,,,,,,,,,,,,,,,,,,,,,0,0,0,0,0,0,0,0,0,0,0,0,0,0,0,0,,,,,,,,,,,,,
2389144,1745470986132,0.0,44,,-0.16,0.02,0.99,0,-0,0,1.01,1.7,59,522,52.0,3.59,,14.74,1.25,88.0,,7.7,5,,,,,,,,,,,,0,0,0,0,0,0,0,0,0,0,0,0,0,0,0,0,,,,,,0.0,,,,,,,
2389164,1745470986152,,,,,,,,,,,,,,,,,,,,,,,,,,,,,,,,,,0,0,0,0,0,0,0,0,0,0,0,0,0,0,0,0,,,,,,,,,,,,,
2389184,1745470986172,0.0,34,,-0.14,0.01,0.99,0,-0,0,1.0,1.7,59,522,52.0,3.59,,14.74,1.251,88.0,,7.8,5,1,0,1,0,0.0,0.0,0.0,0.0,2.28,,,0,0,0,0,0,0,0,0,0,0,0,0,0,0,0,0,,0,,,,0.0,38.993786,-76.938766,0.63,26.1,33,3,0.9
2389204,1745470986192,,,,,,,,,,,,,,,,,,,,,,,,,,,,,,,,,,0,0,0,0,0,0,0,0,0,0,0,0,0,0,0,0,,,,,,,,,,,,,
2389224,1745470986212,0.0,20,,-0.13,0.01,1.0,0,-0,0,1.0,1.7,59,522,46.8,3.59,,14.74,1.251,88.0,,7.8,5,,,,,,,,,,,,0,0,0,0,0,0,0,0,0,0,0,0,0,0,0,0,,,,,,0.0,,,,,,,
2389244,1745470986232,,,,,,,,,,,,,,,,,,,,,,,,,,,,,,,,,,0,0,0,0,0,0,0,0,0,0,0,0,0,0,0,0,,,,,,,,,,,,,
2389264,1745470986252,0.0,34,,-0.11,0.01,1.0,0,-0,0,1.0,1.7,59,522,45.2,3.59,,14.74,1.252,88.0,,7.8,5,,,,,,,,,,,,0,0,0,0,0,0,0,0,0,0,0,0,0,0,0,0,,,,,,0.0,,,,,,,
2389284,1745470986272,,,,,,,,,,,,,,,,,,,,,,,1,0,1,0,0.0,0.0,0.0,0.0,2.27,,,0,0,0,0,0,0,0,0,0,0,0,0,0,0,0,0,,0,,,,,38.993786,-76.938766,0.39,26.1,33,3,0.9
2389304,1745470986292,0.0,24,,-0.1,0.01,1.0,0,-0,0,1.0,1.7,59,522,45.0,3.59,,14.74,1.253,88.0,,7.5,5,,,,,,,,,,,,0,0,0,0,0,0,0,0,0,0,0,0,0,0,0,0,,,,,,0.0,,,,,,,
2389324,1745470986311,,,,,,,,,,,,,,,,,,,,,,,,,,,,,,,,,,0,0,0,0,0,0,0,0,0,0,0,0,0,0,0,0,,,,,,,,,,,,,
2389344,1745470986331,0.0,27,,-0.09,0.0,1.0,0,-0,0,1.0,1.7,59,522,40.5,3.59,,14.74,1.253,88.0,,7.5,5,,,,,,,,,,,,0,0,0,0,0,0,0,0,0,0,0,0,0,0,0,0,,,,,,0.0,,,,,,,
2389364,1745470986351,,,,,,,,,,,,,,,,,,,,,,,,,,,,,,,,,,0,0,0,0,0,0,0,0,0,0,0,0,0,0,0,0,,,,,,,,,,,,,
2389384,1745470986371,0.0,20,13.27,-0.08,0.0,1.0,0,-0,0,1.0,1.7,59,522,40.5,3.59,15,14.74,1.253,88.0,174,7.7,5,1,0,1,0,0.0,0.0,0.0,0.0,2.27,0,1.0,0,0,0,0,0,0,0,0,0,0,0,0,0,0,0,0,0,0,1.0,0,-0,0.0,38.993786,-76.938766,0.27,26.1,33,3,0.9
2389404,1745470986391,,,,,,,,,,,,,,,,,,,,,,,,,,,,,,,,,,0,0,0,0,0,0,0,0,0,0,0,0,0,0,0,0,,,,,,,,,,,,,
2389424,1745470986413,0.0,27,,-0.08,0.0,1.0,0,-0,0,1.0,1.7,59,522,40.1,3.59,,14.74,1.253,88.0,,7.7,5,,,,,,,,,,,,0,0,0,0,0,0,0,0,0,0,0,0,0,0,0,0,,,,,,0.0,,,,,,,
2389444,1745470986433,,,,,,,,,,,,,,,,,,,,,,,,,,,,,,,,,,0,0,0,0,0,0,0,0,0,0,0,0,0,0,0,0,,,,,,,,,,,,,
2389464,1745470986453,0.0,41,,-0.08,0.0,1.0,0,-0,0,1.0,1.7,59,522,40.1,3.59,,14.74,1.252,88.0,,7.7,5,,,,,,,,,,,,0,0,0,0,0,0,0,0,0,0,0,0,0,0,0,0,,,,,,0.0,,,,,,,
2389484,1745470986473,,,,,,,,,,,,,,,,,,,,,,,1,0,1,0,0.0,0.0,0.0,0.0,2.27,,,0,0,0,0,0,0,0,0,0,0,0,0,0,0,0,0,,0,,,,,38.993786,-76.938766,0.04,26.1,33,3,0.9
2389504,1745470986493,0.0,37,,-0.08,0.0,1.0,0,-0,0,1.0,1.7,59,522,40.0,3.59,,14.74,1.25,88.0,,7.7,5,,,,,,,,,,,,0,0,0,0,0,0,0,0,0,0,0,0,0,0,0,0,,,,,,0.0,,,,,,,
2389524,1745470986511,,,,,,,,,,,,,,,,,,,,,,,,,,,,,,,,,,0,0,0,0,0,0,0,0,0,0,0,0,0,0,0,0,,,,,,,,,,,,,
2389544,1745470986531,0.0,27,,-0.08,0.0,1.0,0,-0,0,1.0,1.7,59,522,40.0,3.59,,14.74,1.25,88.0,,7.7,5,,,,,,,,,,,,0,0,0,0,0,0,0,0,0,0,0,0,0,0,0,0,,,,,,0.0,,,,,,,
2389564,1745470986551,,,,,,,,,,,,,,,,,,,,,,,,,,,,,,,,,,0,0,0,0,0,0,0,0,0,0,0,0,0,0,0,0,,,,,,,,,,,,,
2389584,1745470986571,0.0,27,,-0.08,0.0,1.0,0,-0,0,1.0,1.7,59,522,40.0,3.59,,14.74,1.249,88.0,,7.7,5,1,0,1,0,0.0,0.0,0.0,0.0,2.28,,,0,0,0,0,0,0,0,0,0,0,0,0,0,0,0,0,,0,,,,0.0,38.993786,-76.938766,0.11,26.1,32,3,0.9
2389604,1745470986591,,,,,,,,,,,,,,,,,,,,,,,,,,,,,,,,,,0,0,0,0,0,0,0,0,0,0,0,0,0,0,0,0,,,,,,,,,,,,,
2389624,1745470986615,0.0,13,,-0.08,0.0,1.0,0,-0,0,1.0,1.7,59,522,39.2,3.59,,14.74,1.249,88.0,,7.7,5,,,,,,,,,,,,0,0,0,0,0,0,0,0,0,0,0,0,0,0,0,0,,,,,,0.0,,,,,,,
2389644,1745470986635,,,,,,,,,,,,,,,,,,,,,,,,,,,,,,,,,,0,0,0,0,0,0,0,0,0,0,0,0,0,0,0,0,,,,,,,,,,,,,
2389664,1745470986655,0.0,30,,-0.08,0.0,1.0,0,-0,0,1.0,1.7,59,522,37.4,3.59,,14.74,1.249,88.0,,7.7,5,,,,,,,,,,,,0,0,0,0,0,0,0,0,0,0,0,0,0,0,0,0,,,,,,0.0,,,,,,,
2389684,1745470986675,,,,,,,,,,,,,,,,,,,,,,,0,0,0,0,0.0,0.0,0.0,0.0,2.28,,,0,0,0,0,0,0,0,0,0,0,0,0,0,0,0,0,,0,,,,,38.993786,-76.938766,0.07,26.1,32,3,0.9
2389704,1745470986695,0.0,24,,-0.08,0.0,1.0,0,-0,0,1.0,1.7,59,522,36.5,3.59,,14.74,1.249,88.0,,7.7,5,,,,,,,,,,,,0,0,0,0,0,0,0,0,0,0,0,0,0,0,0,0,,,,,,0.0,,,,,,,
2389724,1745470986715,,,,,,,,,,,,,,,,,,,,,,,,,,,,,,,,,,0,0,0,0,0,0,0,0,0,0,0,0,0,0,0,0,,,,,,,,,,,,,
2389744,1745470986735,0.0,41,,-0.08,0.0,1.0,0,-0,0,1.0,1.7,59,522,36.3,3.59,,14.74,1.249,88.0,,7.7,5,,,,,,,,,,,,0,0,0,0,0,0,0,0,0,0,0,0,0,0,0,0,,,,,,0.0,,,,,,,
2389764,1745470986755,,,,,,,,,,,,,,,,,,,,,,,,,,,,,,,,,,0,0,0,0,0,0,0,0,0,0,0,0,0,0,0,0,,,,,,,,,,,,,
2389784,1745470986775,0.0,34,,-0.08,0.0,1.0,0,-0,0,1.0,1.7,59,522,36.3,3.59,,14.74,1.251,88.0,,7.5,5,0,0,0,0,0.0,0.0,0.0,0.0,2.28,,,0,0,0,0,0,0,0,0,0,0,0,0,0,0,0,0,,0,,,,0.0,38.993786,-76.938766,0.08,26.1,32,3,0.9
2389804,1745470986795,,,,,,,,,,,,,,,,,,,,,,,,,,,,,,,,,,0,0,0,0,0,0,0,0,0,0,0,0,0,0,0,0,,,,,,,,,,,,,
2389824,1745470986815,0.0,20,,-0.08,0.0,1.0,0,-0,0,1.0,1.7,59,522,36.4,3.59,,14.74,1.252,88.0,,7.5,5,,,,,,,,,,,,0,0,0,0,0,0,0,0,0,0,0,0,0,0,0,0,,,,,,0.0,,,,,,,
2389844,1745470986835,,,,,,,,,,,,,,,,,,,,,,,,,,,,,,,,,,0,0,0,0,0,0,0,0,0,0,0,0,0,0,0,0,,,,,,,,,,,,,
2389864,1745470986855,0.0,30,,-0.08,0.0,1.0,0,-0,0,1.0,1.7,59,522,36.5,3.59,,14.74,1.253,88.0,,7.5,5,,,,,,,,,,,,0,0,0,0,0,0,0,0,0,0,0,0,0,0,0,0,,,,,,0.0,,,,,,,
2389884,1745470986875,,,,,,,,,,,,,,,,,,,,,,,0,0,0,0,0.0,0.0,0.0,0.0,2.26,,,0,0,0,0,0,0,0,0,0,0,0,0,0,0,0,0,,0,,,,,38.993786,-76.938766,0.08,26.1,32,3,0.9
2389904,1745470986895,0.0,24,,-0.08,0.0,1.0,0,-0,0,1.0,1.7,59,522,36.6,3.59,,14.74,1.253,88.0,,7.2,5,,,,,,,,,,,,0,0,0,0,0,0,0,0,0,0,0,0,0,0,0,0,,,,,,0.0,,,,,,,
2389924,1745470986913,,,,,,,,,,,,,,,,,,,,,,,,,,,,,,,,,,0,0,0,0,0,0,0,0,0,0,0,0,0,0,0,0,,,,,,,,,,,,,
2389944,1745470986933,0.0,27,,-0.08,0.0,1.0,0,-0,0,1.0,1.7,59,522,36.8,3.59,,14.74,1.253,88.0,,7.2,5,,,,,,,,,,,,0,0,0,0,0,0,0,0,0,0,0,0,0,0,0,0,,,,,,0.0,,,,,,,
2389964,1745470986953,,,,,,,,,,,,,,,,,,,,,,,,,,,,,,,,,,0,0,0,0,0,0,0,0,0,0,0,0,0,0,0,0,,,,,,,,,,,,,
2389984,1745470986973,0.0,20,,-0.08,0.0,1.0,0,-0,0,1.0,1.7,59,522,36.8,3.59,,14.74,1.253,88.0,,7.5,5,0,0,0,0,0.0,0.0,0.0,0.0,2.27,,,0,0,0,0,0,0,0,0,0,0,0,0,0,0,0,0,,0,,,,0.0,38.993786,-76.938766,0.13,26.1,32,3,0.9
2390004,1745470986993,,,,,,,,,,,,,,,,,,,,,,,,,,,,,,,,,,0,0,0,0,0,0,0,0,0,0,0,0,0,0,0,0,,,,,,,,,,,,,
2390024,1745470987003,0.0,24,,-0.08,0.0,1.0,0,-0,0,1.0,1.7,59,522,36.7,3.59,,14.74,1.252,88.0,,7.5,5,,,,,,,,,,,,0,0,0,0,0,0,0,0,0,0,0,0,0,0,0,0,,,,,,0.0,,,,,,,
2390044,1745470987023,,,,,,,,,,,,,,,,,,,,,,,,,,,,,,,,,,0,0,0,0,0,0,0,0,0,0,0,0,0,0,0,0,,,,,,,,,,,,,
2390064,1745470987043,0.0,37,,-0.08,0.0,1.0,0,-0,0,1.0,1.7,59,522,36.7,3.59,,14.74,1.25,88.0,,7.5,5,,,,,,,,,,,,0,0,0,0,0,0,0,0,0,0,0,0,0,0,0,0,,,,,,0.0,,,,,,,
2390084,1745470987063,,,,,,,,,,,,,,,,,,,,,,,0,0,0,0,0.0,0.0,0.0,0.0,2.28,,,0,0,0,0,0,0,0,0,0,0,0,0,0,0,0,0,,0,,,,,38.993786,-76.938766,0.0,26.1,33,3,0.8
2390104,1745470987083,0.0,37,,-0.08,0.0,1.0,0,-0,0,1.0,1.7,59,522,36.6,3.59,,14.74,1.25,88.0,,7.7,5,,,,,,,,,,,,0,0,0,0,0,0,0,0,0,0,0,0,0,0,0,0,,,,,,0.0,,,,,,,
2390124,1745470987113,,,,,,,,,,,,,,,,,,,,,,,,,,,,,,,,,,0,0,0,0,0,0,0,0,0,0,0,0,0,0,0,0,,,,,,,,,,,,,
2390144,1745470987133,0.0,37,,-0.08,0.0,1.0,0,-0,0,1.0,1.7,59,522,36.4,3.59,,14.74,1.25,88.0,,7.7,5,,,,,,,,,,,,0,0,0,0,0,0,0,0,0,0,0,0,0,0,0,0,,,,,,0.0,,,,,,,
2390164,1745470987153,,,,,,,,,,,,,,,,,,,,,,,,,,,,,,,,,,0,0,0,0,0,0,0,0,0,0,0,0,0,0,0,0,,,,,,,,,,,,,
2390184,1745470987173,0.0,20,,-0.08,0.0,1.0,0,-0,0,1.0,1.7,59,522,36.4,3.59,,14.74,1.251,88.0,,7.7,5,0,0,0,0,0.0,0.0,0.0,0.0,2.28,,,0,0,0,0,0,0,0,0,0,0,0,0,0,0,0,0,,0,,,,0.0,38.993786,-76.938766,0.04,26.1,33,3,0.8
2390204,1745470987193,,,,,,,,,,,,,,,,,,,,,,,,,,,,,,,,,,0,0,0,0,0,0,0,0,0,0,0,0,0,0,0,0,,,,,,,,,,,,,
2390224,1745470987213,0.0,20,,-0.08,0.0,1.0,0,-0,0,1.0,1.7,59,522,36.3,3.59,,14.74,1.251,88.0,,7.7,5,,,,,,,,,,,,0,0,0,0,0,0,0,0,0,0,0,0,0,0,0,0,,,,,,0.0,,,,,,,
2390244,1745470987233,,,,,,,,,,,,,,,,,,,,,,,,,,,,,,,,,,0,0,0,0,0,0,0,0,0,0,0,0,0,0,0,0,,,,,,,,,,,,,
2390264,1745470987253,0.0,24,,-0.07,0.0,1.0,0,-0,0,1.0,1.7,59,522,36.3,3.59,,14.74,1.251,88.0,,7.7,5,,,,,,,,,,,,0,0,0,0,0,0,0,0,0,0,0,0,0,0,0,0,,,,,,0.0,,,,,,,
2390284,1745470987273,,,,,,,,,,,,,,,,,,,,,,,0,0,0,0,0.0,0.0,0.0,0.0,2.28,,,0,0,0,0,0,0,0,0,0,0,0,0,0,0,0,0,,0,,,,,38.993786,-76.938766,0.09,26.1,33,3,0.8
2390304,1745470987293,0.0,24,,-0.07,0.0,1.0,0,-0,0,1.0,1.7,59,522,34.2,3.59,,14.74,1.252,88.0,,7.7,5,,,,,,,,,,,,0,0,0,0,0,0,0,0,0,0,0,0,0,0,0,0,,,,,,0.0,,,,,,,
2390324,1745470987312,,,,,,,,,,,,,,,,,,,,,,,,,,,,,,,,,,0,0,0,0,0,0,0,0,0,0,0,0,0,0,0,0,,,,,,,,,,,,,
2390344,1745470987332,0.0,20,,-0.07,0.0,1.0,0,-0,0,1.0,1.7,59,522,32.4,3.59,,14.74,1.252,88.0,,7.7,5,,,,,,,,,,,,0,0,0,0,0,0,0,0,0,0,0,0,0,0,0,0,,,,,,0.0,,,,,,,
2390364,1745470987352,,,,,,,,,,,,,,,,,,,,,,,,,,,,,,,,,,0,0,0,0,0,0,0,0,0,0,0,0,0,0,0,0,,,,,,,,,,,,,
2390384,1745470987372,0.0,27,13.27,-0.07,0.0,1.0,0,-0,0,1.0,1.7,59,522,32.4,3.59,15,14.74,1.253,88.0,174,7.5,5,0,0,0,0,0.0,0.0,0.0,0.0,2.27,0,1.0,0,0,0,0,0,0,0,0,0,0,0,0,0,0,0,0,0,0,1.0,0,-0,0.0,38.993786,-76.938766,0.0,26.1,33,3,0.8
2390404,1745470987392,,,,,,,,,,,,,,,,,,,,,,,,,,,,,,,,,,0,0,0,0,0,0,0,0,0,0,0,0,0,0,0,0,,,,,,,,,,,,,
2390424,1745470987412,0.0,27,,-0.07,0.0,1.0,0,-0,0,1.0,1.7,59,522,31.6,3.59,,14.74,1.253,88.0,,7.5,5,,,,,,,,,,,,0,0,0,0,0,0,0,0,0,0,0,0,0,0,0,0,,,,,,0.0,,,,,,,
2390444,1745470987432,,,,,,,,,,,,,,,,,,,,,,,,,,,,,,,,,,0,0,0,0,0,0,0,0,0,0,0,0,0,0,0,0,,,,,,,,,,,,,
2390464,1745470987452,0.0,41,,-0.07,0.0,1.0,0,-0,0,1.0,1.7,59,522,31.0,3.59,,14.74,1.253,88.0,,7.5,5,,,,,,,,,,,,0,0,0,0,0,0,0,0,0,0,0,0,0,0,0,0,,,,,,0.0,,,,,,,
2390484,1745470987472,,,,,,,,,,,,,,,,,,,,,,,0,0,0,0,0.0,0.0,0.0,0.0,2.27,,,0,0,0,0,0,0,0,0,0,0,0,0,0,0,0,0,,0,,,,,38.993786,-76.938766,0.0,26.1,33,3,0.8
2390504,1745470987492,0.0,24,,-0.07,0.0,1.0,0,-0,0,1.0,1.7,59,0,30.8,2.63,,14.74,1.252,88.0,,7.6,5,,,,,,,,,,,,0,0,0,0,0,0,0,0,0,0,0,0,0,0,0,0,,,,,,0.0,,,,,,,
2390524,1745470987515,,,,,,,,,,,,,,,,,,,,,,,,,,,,,,,,,,0,0,0,0,0,0,0,0,0,0,0,0,0,0,0,0,,,,,,,,,,,,,
2390544,1745470987535,0.0,17,,-0.07,0.0,1.0,0,-0,0,1.0,1.7,59,0,30.8,2.63,,14.74,1.252,88.0,,7.6,5,,,,,,,,,,,,0,0,0,0,0,0,0,0,0,0,0,0,0,0,0,0,,,,,,0.0,,,,,,,
2390564,1745470987555,,,,,,,,,,,,,,,,,,,,,,,,,,,,,,,,,,0,0,0,0,0,0,0,0,0,0,0,0,0,0,0,0,,,,,,,,,,,,,
2390584,1745470987575,0.0,17,,-0.07,0.0,1.0,0,-0,0,1.0,1.7,59,0,30.8,2.63,,14.74,1.251,88.0,,7.7,5,0,0,0,0,0.0,0.0,0.0,0.0,2.27,,,0,0,0,0,0,0,0,0,0,0,0,0,0,0,0,0,,0,,,,0.0,38.993786,-76.938766,0.04,26.1,34,3,0.8
2390604,1745470987595,,,,,,,,,,,,,,,,,,,,,,,,,,,,,,,,,,0,0,0,0,0,0,0,0,0,0,0,0,0,0,0,0,,,,,,,,,,,,,
2390624,1745470987614,0.0,13,,-0.07,0.0,1.0,0,-0,0,1.0,1.7,59,0,30.7,2.63,,14.74,1.249,88.0,,7.7,5,,,,,,,,,,,,0,0,0,0,0,0,0,0,0,0,0,0,0,0,0,0,,,,,,0.0,,,,,,,
2390644,1745470987634,,,,,,,,,,,,,,,,,,,,,,,,,,,,,,,,,,0,0,0,0,0,0,0,0,0,0,0,0,0,0,0,0,,,,,,,,,,,,,
2390664,1745470987654,0.0,30,,-0.07,0.01,1.0,0,-0,0,1.0,1.7,59,0,30.6,2.63,,14.74,1.249,88.0,,7.7,5,,,,,,,,,,,,0,0,0,0,0,0,0,0,0,0,0,0,0,0,0,0,,,,,,0.0,,,,,,,
2390684,1745470987674,,,,,,,,,,,,,,,,,,,,,,,0,0,0,0,0.0,0.0,0.0,0.0,2.28,,,0,0,0,0,0,0,0,0,0,0,0,0,0,0,0,0,,0,,,,,38.993786,-76.938766,0.04,26.1,33,3,0.8
2390704,1745470987694,0.0,37,,-0.07,0.01,1.0,0,-0,0,1.0,1.7,59,0,30.4,2.63,,14.74,1.249,88.0,,7.7,5,,,,,,,,,,,,0,0,0,0,0,0,0,0,0,0,0,0,0,0,0,0,,,,,,0.0,,,,,,,
2390724,1745470987712,,,,,,,,,,,,,,,,,,,,,,,,,,,,,,,,,,0,0,0,0,0,0,0,0,0,0,0,0,0,0,0,0,,,,,,,,,,,,,
2390744,1745470987732,0.0,41,,-0.07,0.01,1.0,0,-0,0,1.0,1.7,59,0,30.3,2.63,,14.74,1.249,88.0,,7.7,5,,,,,,,,,,,,0,0,0,0,0,0,0,0,0,0,0,0,0,0,0,0,,,,,,0.0,,,,,,,
2390764,1745470987752,,,,,,,,,,,,,,,,,,,,,,,,,,,,,,,,,,0,0,0,0,0,0,0,0,0,0,0,0,0,0,0,0,,,,,,,,,,,,,
2390784,1745470987772,0.0,34,,-0.07,0.0,1.0,0,-0,0,1.0,1.7,59,0,30.3,2.63,,14.74,1.249,88.0,,7.6,5,0,0,0,0,0.0,0.0,0.0,0.0,2.28,,,0,0,0,0,0,0,0,0,0,0,0,0,0,0,0,0,,0,,,,0.0,38.993786,-76.938766,0.07,26.1,33,3,0.8
2390804,1745470987792,,,,,,,,,,,,,,,,,,,,,,,,,,,,,,,,,,0,0,0,0,0,0,0,0,0,0,0,0,0,0,0,0,,,,,,,,,,,,,
2390824,1745470987812,0.0,20,,-0.07,0.0,1.0,0,-0,0,1.0,1.7,59,0,29.4,2.63,,14.74,1.251,88.0,,7.6,5,,,,,,,,,,,,0,0,0,0,0,0,0,0,0,0,0,0,0,0,0,0,,,,,,0.0,,,,,,,
2390844,1745470987832,,,,,,,,,,,,,,,,,,,,,,,,,,,,,,,,,,0,0,0,0,0,0,0,0,0,0,0,0,0,0,0,0,,,,,,,,,,,,,
2390864,1745470987852,0.0,27,,-0.07,0.0,1.0,0,-0,0,1.0,1.7,59,0,27.9,2.6,,14.74,1.252,88.0,,7.6,5,,,,,,,,,,,,0,0,0,0,0,0,0,0,0,0,0,0,0,0,0,0,,,,,,0.0,,,,,,,
2390884,1745470987872,,,,,,,,,,,,,,,,,,,,,,,0,0,0,0,0.0,0.0,0.0,0.0,2.27,,,0,0,0,0,0,0,0,0,0,0,0,0,0,0,0,0,,0,,,,,38.993786,-76.938766,0.08,26.1,33,3,0.8
2390904,1745470987892,0.0,24,,-0.07,0.0,1.0,0,-0,0,1.0,1.7,59,0,26.2,2.6,,14.74,1.253,88.0,,7.3,5,,,,,,,,,,,,0,0,0,0,0,0,0,0,0,0,0,0,0,0,0,0,,,,,,0.0,,,,,,,
2390924,1745470987912,,,,,,,,,,,,,,,,,,,,,,,,,,,,,,,,,,0,0,0,0,0,0,0,0,0,0,0,0,0,0,0,0,,,,,,,,,,,,,
2390944,1745470987932,0.0,24,,-0.07,0.0,1.0,0,-0,0,1.0,1.7,59,0,25.9,2.6,,14.74,1.253,88.0,,7.3,5,,,,,,,,,,,,0,0,0,0,0,0,0,0,0,0,0,0,0,0,0,0,,,,,,0.0,,,,,,,
