"Interval"|"ms"|0|0|1,"Utc"|"ms"|0|0|1,"FrontBP"|"psi"|-5.0|5.0|25,"SteerAng"|"Degrees"|-145|145|25,"Battery"|"Volts"|-5.0|20.0|1,"AccelX"|"G"|-3.0|3.0|25,"AccelY"|"G"|-3.0|3.0|25,"AccelZ"|"G"|-3.0|3.0|25,"Yaw"|"Deg/Sec"|-120|120|25,"Pitch"|"Deg/Sec"|-120|120|25,"Roll"|"Deg/Sec"|-120|120|25,"Gsum"|"G"|0.0|3.0|25,"GsumMax"|"G"|0.0|3.0|25,"GsumPct"|"%"|0|100|25,"RPM"|""|0|10000|25,"TPS"|"%"|0.0|100.0|25,"InjectorPW"|"ms"|0.0|100.0|25,"Baro"|"kPa"|0|105|1,"MAP"|"Psi"|0.0|255.0|25,"Lambda"|""|-2.0|2.0|25,"IAT"|"C"|0.0|200.0|25,"EngineTemp"|"C"|0|200|1,"EOP"|"PSI"|0.0|152.0|25,"EOT"|"F"|0|250|25,"WSFR"|"MPH"|0|150|10,"WSFL"|"MPH"|0|100|10,"WSRR"|"MPH"|0|100|10,"WSRL"|""|0|100|10,"TCSet"|"%"|0.0|100.0|10,"TCSlip"|"%"|0.0|100.0|10,"TCComp"|"deg"|0.0|50.0|10,"TCCut"|"%"|0.0|100.0|10,"Analog8"|""|0.0|5.0|10,"OilTemp"|"F"|0|300|1,"AA_On"|""|0.0|1.0|1,"ThermLF1"|"C"|0|400|50,"ThermLF2"|"C"|0|400|50,"ThermRR1"|"C"|0|400|50,"ThermRR2"|"C"|0|400|50,"ThermLF3"|"C"|0|400|50,"ThermLF4"|"C"|0|400|50,"ThermLF5"|"C"|0|400|50,"ThermLF6"|"C"|0|400|50,"ThermLF7"|"C"|0|400|50,"ThermLF8"|"C"|0|400|50,"ThermRR3"|"C"|0|400|50,"ThermRR4"|"C"|0|400|50,"ThermRR5"|"C"|0|400|50,"ThermRR6"|"C"|0|400|50,"ThermRR7"|"C"|0|400|50,"ThermRR8"|"C"|0|400|50,"AA_LowDrag"|""|0|1|1,"Gear"|""|1|6|10,"AA_On"|""|0.0|1.0|1,"AA_LowDrag"|""|0|1|1,"Fuel_Mix"|""|-10|10|1,"AA_Packages"|""|0.0|1000.0|25,"Latitude"|"Degrees"|-180.0|180.0|10,"Longitude"|"Degrees"|-180.0|180.0|10,"Speed"|"kph"|0.0|150.0|10,"Altitude"|"m"|0.0|4000.0|10,"GPSSats"|""|0|20|10,"GPSQual"|""|0|5|10,"GPSDOP"|""|0.0|20.0|10
2398104,1745470995083,0.0,20,,0.33,-0.24,0.98,0,0,2,1.06,1.06,100,11141,58.7,4.23,,12.89,0.995,88.0,,64.4,5,,,,,,,,,,,,0,0,0,0,0,0,0,0,0,0,0,0,0,0,0,0,,,,,,0.0,,,,,,,
2398124,1745470995103,,,,,,,,,,,,,,,,,,,,,,,,,,,,,,,,,,0,0,0,0,0,0,0,0,0,0,0,0,0,0,0,0,,,,,,,,,,,,,
2398144,1745470995123,0.0,7,,0.36,-0.29,0.95,2,-0,2,1.06,1.06,100,11363,67.2,4.53,,12.89,0.995,88.0,,64.4,5,,,,,,,,,,,,0,0,0,0,0,0,0,0,0,0,0,0,0,0,0,0,,,,,,0.0,,,,,,,
2398164,1745470995143,,,,,,,,,,,,,,,,,,,,,,,,,,,,,,,,,,0,0,0,0,0,0,0,0,0,0,0,0,0,0,0,0,,,,,,,,,,,,,
2398184,1745470995163,0.0,20,,0.36,-0.19,0.89,3,0,2,0.98,1.06,92,11363,67.2,4.53,,13.15,1.07,88.0,,61.0,5,3,0,36,36,0.0,0.0,0.0,0.0,2.27,,,0,0,0,0,0,0,0,0,0,0,0,0,0,0,0,0,,0,,,,0.0,38.993786,-76.938766,6.02,26.1,31,3,0.9
2398204,1745470995183,,,,,,,,,,,,,,,,,,,,,,,,,,,,,,,,,,0,0,0,0,0,0,0,0,0,0,0,0,0,0,0,0,,,,,,,,,,,,,
2398224,1745470995206,0.0,7,,0.37,-0.05,0.86,5,0,1,0.94,1.06,89,11511,75.7,4.5,,13.63,1.118,88.0,,61.0,5,,,,,,,,,,,,0,0,0,0,0,0,0,0,0,0,0,0,0,0,0,0,,,,,,0.0,,,,,,,
2398244,1745470995226,,,,,,,,,,,,,,,,,,,,,,,,,,,,,,,,,,0,0,0,0,0,0,0,0,0,0,0,0,0,0,0,0,,,,,,,,,,,,,
2398264,1745470995246,0.0,3,,0.37,-0.13,0.84,6,-0,0,0.93,1.06,87,11500,81.2,4.46,,13.65,1.106,88.0,,61.0,5,,,,,,,,,,,,0,0,0,0,0,0,0,0,0,0,0,0,0,0,0,0,,,,,,0.0,,,,,,,
2398284,1745470995266,,,,,,,,,,,,,,,,,,,,,,,4,0,36,35,0.0,0.0,0.0,0.0,2.26,,,0,0,0,0,0,0,0,0,0,0,0,0,0,0,0,0,,1,,,,,38.993786,-76.938766,7.65,26.1,31,3,0.9
2398304,1745470995286,0.0,-0,,0.39,-0.07,0.9,5,-1,0,0.98,1.06,93,11688,86.8,5.26,,13.56,1.124,88.0,,57.8,5,,,,,,,,,,,,0,0,0,0,0,0,0,0,0,0,0,0,0,0,0,0,,,,,,0.0,,,,,,,
2398324,1745470995312,,,,,,,,,,,,,,,,,,,,,,,,,,,,,,,,,,0,0,0,0,0,0,0,0,0,0,0,0,0,0,0,0,,,,,,,,,,,,,
2398344,1745470995332,0.0,-0,,0.44,0.01,0.87,7,-1,1,0.97,1.06,92,12208,93.7,5.3,,13.56,1.124,88.0,,57.8,5,,,,,,,,,,,,0,0,0,0,0,0,0,0,0,0,0,0,0,0,0,0,,,,,,0.0,,,,,,,
2398364,1745470995352,,,,,,,,,,,,,,,,,,,,,,,,,,,,,,,,,,0,0,0,0,0,0,0,0,0,0,0,0,0,0,0,0,,,,,,,,,,,,,
2398384,1745470995372,0.0,3,13.42,0.42,-0.03,0.88,8,-1,0,0.98,1.06,93,12208,93.7,5.3,15,13.41,1.078,88.0,176,65.9,5,6,0,34,34,0.0,18.0,0.0,0.0,2.26,0,1.0,0,0,0,0,0,0,0,0,0,0,0,0,0,0,0,0,0,0,1.0,0,-0,0.0,38.993786,-76.938759,9.41,26.1,31,3,0.9
2398404,1745470995392,,,,,,,,,,,,,,,,,,,,,,,,,,,,,,,,,,0,0,0,0,0,0,0,0,0,0,0,0,0,0,0,0,,,,,,,,,,,,,
2398424,1745470995410,0.0,-4,,0.4,0.02,0.92,11,-1,1,1.0,1.06,94,12622,97.8,4.96,,13.29,0.964,88.0,,65.9,5,,,,,,,,,,,,0,0,0,0,0,0,0,0,0,0,0,0,0,0,0,0,,,,,,0.0,,,,,,,
2398444,1745470995430,,,,,,,,,,,,,,,,,,,,,,,,,,,,,,,,,,0,0,0,0,0,0,0,0,0,0,0,0,0,0,0,0,,,,,,,,,,,,,
2398464,1745470995450,0.0,-0,,0.44,-0.0,0.9,15,-1,-0,1.0,1.06,94,12853,99.3,4.82,,13.28,0.946,88.0,,65.9,5,,,,,,,,,,,,0,0,0,0,0,0,0,0,0,0,0,0,0,0,0,0,,,,,,0.0,,,,,,,
2398484,1745470995470,,,,,,,,,,,,,,,,,,,,,,,8,0,37,37,0.0,71.0,0.0,0.0,2.27,,,0,0,0,0,0,0,0,0,0,0,0,0,0,0,0,0,,1,,,,,38.993786,-76.938759,11.5,26.1,31,3,0.9
2398504,1745470995490,0.0,-4,,0.48,-0.0,0.88,19,-1,-1,1.0,1.06,95,13104,99.2,4.71,,13.12,0.957,88.0,,71.6,5,,,,,,,,,,,,0,0,0,0,0,0,0,0,0,0,0,0,0,0,0,0,,,,,,0.0,,,,,,,
2398524,1745470995512,,,,,,,,,,,,,,,,,,,,,,,,,,,,,,,,,,0,0,0,0,0,0,0,0,0,0,0,0,0,0,0,0,,,,,,,,,,,,,
2398544,1745470995532,0.0,-0,,0.55,0.11,0.85,23,-1,-0,1.02,1.06,96,13181,99.2,4.68,,13.12,0.957,88.0,,71.6,5,,,,,,,,,,,,0,0,0,0,0,0,0,0,0,0,0,0,0,0,0,0,,,,,,0.0,,,,,,,
2398564,1745470995552,,,,,,,,,,,,,,,,,,,,,,,,,,,,,,,,,,0,0,0,0,0,0,0,0,0,0,0,0,0,0,0,0,,,,,,,,,,,,,
2398584,1745470995572,0.0,-4,,0.61,0.26,0.83,29,-1,-0,1.06,1.06,100,13181,99.2,4.68,,13.33,0.96,88.0,,72.2,5,10,15,39,39,0.0,164.0,0.0,0.0,2.28,,,0,0,0,0,0,0,0,0,0,0,0,0,0,0,0,0,,1,,,,0.0,38.993786,-76.938751,13.69,26.1,31,3,0.9
2398604,1745470995592,,,,,,,,,,,,,,,,,,,,,,,,,,,,,,,,,,0,0,0,0,0,0,0,0,0,0,0,0,0,0,0,0,,,,,,,,,,,,,
2398624,1745470995610,0.0,-17,,0.63,0.27,0.88,31,-2,-0,1.11,1.11,100,13123,99.2,4.7,,13.05,0.981,88.0,,72.2,5,,,,,,,,,,,,0,0,0,0,0,0,0,0,0,0,0,0,0,0,0,0,,,,,,0.0,,,,,,,
2398644,1745470995630,,,,,,,,,,,,,,,,,,,,,,,,,,,,,,,,,,0,0,0,0,0,0,0,0,0,0,0,0,0,0,0,0,,,,,,,,,,,,,
2398664,1745470995650,0.0,13,,0.61,0.26,0.92,38,-2,-2,1.14,1.14,100,13142,99.3,4.7,,13.13,1.016,88.0,,72.2,5,,,,,,,,,,,,0,0,0,0,0,0,0,0,0,0,0,0,0,0,0,0,,,,,,0.0,,,,,,,
2398684,1745470995670,,,,,,,,,,,,,,,,,,,,,,,11,7,40,41,0.0,177.0,0.0,0.0,2.27,,,0,0,0,0,0,0,0,0,0,0,0,0,0,0,0,0,,0,,,,,38.993786,-76.938751,16.07,26.1,31,3,0.9
2398704,1745470995690,0.0,-0,,0.63,0.28,0.99,45,-2,-1,1.2,1.2,100,13196,86.7,4.74,,13.07,1.003,88.0,,72.4,5,,,,,,,,,,,,0,0,0,0,0,0,0,0,0,0,0,0,0,0,0,0,,,,,,0.0,,,,,,,
2398724,1745470995712,,,,,,,,,,,,,,,,,,,,,,,,,,,,,,,,,,0,0,0,0,0,0,0,0,0,0,0,0,0,0,0,0,,,,,,,,,,,,,
2398744,1745470995732,0.0,7,,0.58,0.33,1.01,48,-2,-1,1.21,1.21,100,13208,68.8,4.61,,13.07,1.003,88.0,,72.4,5,,,,,,,,,,,,0,0,0,0,0,0,0,0,0,0,0,0,0,0,0,0,,,,,,0.0,,,,,,,
2398764,1745470995752,,,,,,,,,,,,,,,,,,,,,,,,,,,,,,,,,,0,0,0,0,0,0,0,0,0,0,0,0,0,0,0,0,,,,,,,,,,,,,
2398784,1745470995772,0.0,24,,0.55,0.37,1.04,56,-2,-1,1.23,1.23,100,13208,68.8,4.61,,12.88,0.995,88.0,,74.2,5,13,26,40,41,0.0,37.0,0.0,0.0,2.27,,,0,0,0,0,0,0,0,0,0,0,0,0,0,0,0,0,,1,,,,0.0,38.99379,-76.938744,18.7,26.1,31,3,0.9
2398804,1745470995792,,,,,,,,,,,,,,,,,,,,,,,,,,,,,,,,,,0,0,0,0,0,0,0,0,0,0,0,0,0,0,0,0,,,,,,,,,,,,,
2398824,1745470995812,0.0,37,,0.56,0.19,1.07,57,-2,-1,1.22,1.23,99,13204,40.0,3.68,,11.77,0.996,88.0,,74.2,5,,,,,,,,,,,,0,0,0,0,0,0,0,0,0,0,0,0,0,0,0,0,,,,,,0.0,,,,,,,
2398844,1745470995832,,,,,,,,,,,,,,,,,,,,,,,,,,,,,,,,,,0,0,0,0,0,0,0,0,0,0,0,0,0,0,0,0,,,,,,,,,,,,,
2398864,1745470995852,0.0,61,,0.52,0.1,1.05,59,-3,-3,1.17,1.23,95,12923,23.7,2.88,,9.94,0.971,88.0,,74.2,5,,,,,,,,,,,,0,0,0,0,0,0,0,0,0,0,0,0,0,0,0,0,,,,,,0.0,,,,,,,
2398884,1745470995872,,,,,,,,,,,,,,,,,,,,,,,14,149,40,43,0.0,27.0,0.0,0.0,2.27,,,0,0,0,0,0,0,0,0,0,0,0,0,0,0,0,0,,0,,,,,38.99379,-76.938744,21.07,26.1,31,3,0.9
2398904,1745470995892,0.0,54,,0.49,-0.02,1.06,60,-3,-3,1.17,1.23,95,12261,15.8,2.59,,8.58,0.939,88.0,,71.4,5,,,,,,,,,,,,0,0,0,0,0,0,0,0,0,0,0,0,0,0,0,0,,,,,,0.0,,,,,,,
2398924,1745470995912,,,,,,,,,,,,,,,,,,,,,,,,,,,,,,,,,,0,0,0,0,0,0,0,0,0,0,0,0,0,0,0,0,,,,,,,,,,,,,
2398944,1745470995932,0.0,51,,0.54,0.08,1.04,58,-3,-3,1.17,1.23,95,11550,13.6,2.42,,8.58,0.939,88.0,,71.4,5,,,,,,,,,,,,0,0,0,0,0,0,0,0,0,0,0,0,0,0,0,0,,,,,,0.0,,,,,,,
2398964,1745470995952,,,,,,,,,,,,,,,,,,,,,,,,,,,,,,,,,,0,0,0,0,0,0,0,0,0,0,0,0,0,0,0,0,,,,,,,,,,,,,
2398984,1745470995972,0.0,68,,0.54,0.28,1.05,59,-3,-4,1.21,1.23,99,11550,13.6,2.42,,7.85,0.99,88.0,,62.9,5,15,11,39,36,0.0,60.0,0.0,0.0,2.27,,,0,0,0,0,0,0,0,0,0,0,0,0,0,0,0,0,,0,,,,0.0,38.993794,-76.938736,23.16,26.1,31,3,0.9
2399004,1745470995992,,,,,,,,,,,,,,,,,,,,,,,,,,,,,,,,,,0,0,0,0,0,0,0,0,0,0,0,0,0,0,0,0,,,,,,,,,,,,,
2399024,1745470996002,0.0,51,,0.56,0.41,1.04,57,-3,-4,1.25,1.25,100,10830,13.2,2.32,,7.41,1.005,88.0,,62.9,5,,,,,,,,,,,,0,0,0,0,0,0,0,0,0,0,0,0,0,0,0,0,,,,,,0.0,,,,,,,
2399044,1745470996022,,,,,,,,,,,,,,,,,,,,,,,,,,,,,,,,,,0,0,0,0,0,0,0,0,0,0,0,0,0,0,0,0,,,,,,,,,,,,,
2399064,1745470996042,0.0,74,,0.62,0.4,1.01,57,-3,-4,1.25,1.25,100,9968,12.7,2.3,,7.47,0.96,88.0,,62.9,5,,,,,,,,,,,,0,0,0,0,0,0,0,0,0,0,0,0,0,0,0,0,,,,,,0.0,,,,,,,
2399084,1745470996062,,,,,,,,,,,,,,,,,,,,,,,17,3,32,34,0.0,69.0,0.0,0.0,2.28,,,0,0,0,0,0,0,0,0,0,0,0,0,0,0,0,0,,0,,,,,38.993797,-76.938728,24.94,26.1,32,3,0.9
2399104,1745470996082,0.0,68,,0.62,0.36,0.97,57,-3,-4,1.2,1.25,96,9274,12.3,2.35,,7.66,0.961,88.0,,55.5,5,,,,,,,,,,,,0,0,0,0,0,0,0,0,0,0,0,0,0,0,0,0,,,,,,0.0,,,,,,,
2399124,1745470996104,,,,,,,,,,,,,,,,,,,,,,,,,,,,,,,,,,0,0,0,0,0,0,0,0,0,0,0,0,0,0,0,0,,,,,,,,,,,,,
2399144,1745470996124,0.0,71,,0.62,0.26,0.93,57,-3,-4,1.14,1.25,91,8690,12.0,2.48,,7.66,0.961,88.0,,55.5,5,,,,,,,,,,,,0,0,0,0,0,0,0,0,0,0,0,0,0,0,0,0,,,,,,0.0,,,,,,,
2399164,1745470996144,,,,,,,,,,,,,,,,,,,,,,,,,,,,,,,,,,0,0,0,0,0,0,0,0,0,0,0,0,0,0,0,0,,,,,,,,,,,,,
2399184,1745470996164,0.0,88,,0.62,0.32,0.94,57,-3,-3,1.17,1.25,93,8690,12.0,2.48,,7.91,0.974,88.0,,51.2,5,18,8,30,30,0.0,188.0,0.0,0.0,2.28,,,0,0,0,0,0,0,0,0,0,0,0,0,0,0,0,0,,0,,,,0.0,38.993797,-76.938721,27.12,26.1,32,3,0.9
2399204,1745470996184,,,,,,,,,,,,,,,,,,,,,,,,,,,,,,,,,,0,0,0,0,0,0,0,0,0,0,0,0,0,0,0,0,,,,,,,,,,,,,
2399224,1745470996211,0.0,68,,0.61,0.29,0.95,55,-3,-3,1.17,1.25,93,8108,11.8,2.65,,8.18,0.969,88.0,,51.2,5,,,,,,,,,,,,0,0,0,0,0,0,0,0,0,0,0,0,0,0,0,0,,,,,,0.0,,,,,,,
2399244,1745470996231,,,,,,,,,,,,,,,,,,,,,,,,,,,,,,,,,,0,0,0,0,0,0,0,0,0,0,0,0,0,0,0,0,,,,,,,,,,,,,
2399264,1745470996251,0.0,74,,0.57,0.29,0.96,51,-4,-3,1.15,1.25,92,7483,14.5,3.01,,8.89,0.94,88.0,,51.2,5,,,,,,,,,,,,0,0,0,0,0,0,0,0,0,0,0,0,0,0,0,0,,,,,,0.0,,,,,,,
2399284,1745470996271,,,,,,,,,,,,,,,,,,,,,,,18,3,26,23,0.0,202.0,0.0,0.0,2.27,,,0,0,0,0,0,0,0,0,0,0,0,0,0,0,0,0,,0,,,,,38.993801,-76.938705,28.35,26.0,32,3,0.9
2399304,1745470996291,0.0,68,,0.53,0.36,0.94,48,-3,-3,1.13,1.25,90,7008,17.2,3.63,,9.86,0.956,88.0,,50.1,5,,,,,,,,,,,,0,0,0,0,0,0,0,0,0,0,0,0,0,0,0,0,,,,,,0.0,,,,,,,
2399324,1745470996312,,,,,,,,,,,,,,,,,,,,,,,,,,,,,,,,,,0,0,0,0,0,0,0,0,0,0,0,0,0,0,0,0,,,,,,,,,,,,,
2399344,1745470996332,0.0,71,,0.51,0.34,0.95,43,-3,-3,1.13,1.25,90,6740,29.8,5.25,,9.86,0.956,88.0,,50.1,5,,,,,,,,,,,,0,0,0,0,0,0,0,0,0,0,0,0,0,0,0,0,,,,,,0.0,,,,,,,
2399364,1745470996352,,,,,,,,,,,,,,,,,,,,,,,,,,,,,,,,,,0,0,0,0,0,0,0,0,0,0,0,0,0,0,0,0,,,,,,,,,,,,,
2399384,1745470996372,0.0,85,13.55,0.55,0.44,0.94,38,-2,-2,1.17,1.25,94,6740,29.8,5.25,15,11.56,0.978,88.0,176,50.4,5,18,2,21,21,0.0,169.0,0.0,0.0,2.27,0,1.0,0,0,0,0,0,0,0,0,0,0,0,0,0,0,0,0,0,0,1.0,0,-0,0.0,38.993809,-76.938705,29.1,26.0,32,3,0.9
2399404,1745470996392,,,,,,,,,,,,,,,,,,,,,,,,,,,,,,,,,,0,0,0,0,0,0,0,0,0,0,0,0,0,0,0,0,,,,,,,,,,,,,
2399424,1745470996411,0.0,71,,0.57,0.53,0.98,32,-1,-1,1.25,1.25,100,6912,35.2,5.28,,12.65,0.978,88.0,,50.4,5,,,,,,,,,,,,0,0,0,0,0,0,0,0,0,0,0,0,0,0,0,0,,,,,,0.0,,,,,,,
2399444,1745470996431,,,,,,,,,,,,,,,,,,,,,,,,,,,,,,,,,,0,0,0,0,0,0,0,0,0,0,0,0,0,0,0,0,,,,,,,,,,,,,
2399464,1745470996451,0.0,64,,0.6,0.52,0.96,27,-1,-1,1.25,1.25,100,6989,36.5,5.39,,13.04,0.967,88.0,,50.4,5,,,,,,,,,,,,0,0,0,0,0,0,0,0,0,0,0,0,0,0,0,0,,,,,,0.0,,,,,,,
2399484,1745470996471,,,,,,,,,,,,,,,,,,,,,,,18,139,20,21,0.0,173.0,0.0,0.0,2.27,,,0,0,0,0,0,0,0,0,0,0,0,0,0,0,0,0,,1,,,,,38.993816,-76.938705,28.82,26.0,32,3,0.9
2399504,1745470996491,0.0,68,,0.67,0.58,0.95,24,-0,-1,1.3,1.3,100,6971,36.6,5.3,,13.24,0.924,88.0,,51.1,5,,,,,,,,,,,,0,0,0,0,0,0,0,0,0,0,0,0,0,0,0,0,,,,,,0.0,,,,,,,
2399524,1745470996511,,,,,,,,,,,,,,,,,,,,,,,,,,,,,,,,,,0,0,0,0,0,0,0,0,0,0,0,0,0,0,0,0,,,,,,,,,,,,,
2399544,1745470996531,0.0,47,,0.68,0.58,0.96,22,-0,-1,1.31,1.31,100,7091,34.9,5.19,,13.24,0.924,88.0,,51.1,5,,,,,,,,,,,,0,0,0,0,0,0,0,0,0,0,0,0,0,0,0,0,,,,,,0.0,,,,,,,
2399564,1745470996551,,,,,,,,,,,,,,,,,,,,,,,,,,,,,,,,,,0,0,0,0,0,0,0,0,0,0,0,0,0,0,0,0,,,,,,,,,,,,,
2399584,1745470996571,0.0,47,,0.68,0.69,0.98,22,0,-0,1.38,1.38,100,7091,34.9,5.19,,13.23,0.892,88.0,,52.7,5,19,139,21,20,0.0,187.0,0.0,0.0,2.28,,,0,0,0,0,0,0,0,0,0,0,0,0,0,0,0,0,,0,,,,0.0,38.99382,-76.938698,31.27,26.0,32,3,0.9
2399604,1745470996591,,,,,,,,,,,,,,,,,,,,,,,,,,,,,,,,,,0,0,0,0,0,0,0,0,0,0,0,0,0,0,0,0,,,,,,,,,,,,,
2399624,1745470996611,0.0,41,,0.68,0.73,1.03,23,0,-0,1.43,1.43,100,7468,35.9,5.03,,13.08,0.882,88.0,,52.7,5,,,,,,,,,,,,0,0,0,0,0,0,0,0,0,0,0,0,0,0,0,0,,,,,,0.0,,,,,,,
2399644,1745470996631,,,,,,,,,,,,,,,,,,,,,,,,,,,,,,,,,,0,0,0,0,0,0,0,0,0,0,0,0,0,0,0,0,,,,,,,,,,,,,
2399664,1745470996651,0.0,68,,0.67,0.64,1.0,23,-0,-1,1.37,1.43,95,7872,36.3,4.75,,13.08,0.876,88.0,,52.7,5,,,,,,,,,,,,0,0,0,0,0,0,0,0,0,0,0,0,0,0,0,0,,,,,,0.0,,,,,,,
2399684,1745470996671,,,,,,,,,,,,,,,,,,,,,,,22,139,22,23,0.0,196.0,0.0,0.0,2.28,,,0,0,0,0,0,0,0,0,0,0,0,0,0,0,0,0,,0,,,,,38.993828,-76.93869,33.98,26.1,32,3,0.9
2399704,1745470996691,0.0,112,,0.66,0.55,1.0,24,-1,-1,1.32,1.43,92,8022,34.4,4.74,,12.8,0.868,88.0,,53.5,5,,,,,,,,,,,,0,0,0,0,0,0,0,0,0,0,0,0,0,0,0,0,,,,,,0.0,,,,,,,
2399724,1745470996711,,,,,,,,,,,,,,,,,,,,,,,,,,,,,,,,,,0,0,0,0,0,0,0,0,0,0,0,0,0,0,0,0,,,,,,,,,,,,,
2399744,1745470996731,0.0,132,,0.63,0.55,1.01,23,-1,-1,1.31,1.43,91,8121,26.3,5.19,,12.8,0.868,88.0,,53.5,5,,,,,,,,,,,,0,0,0,0,0,0,0,0,0,0,0,0,0,0,0,0,,,,,,0.0,,,,,,,
2399764,1745470996751,,,,,,,,,,,,,,,,,,,,,,,,,,,,,,,,,,0,0,0,0,0,0,0,0,0,0,0,0,0,0,0,0,,,,,,,,,,,,,
2399784,1745470996771,0.0,132,,0.6,0.52,1.01,23,-1,-1,1.28,1.43,90,8121,26.3,5.19,,12.33,0.879,88.0,,53.4,5,24,139,24,25,0.0,208.0,0.0,0.0,2.28,,,0,0,0,0,0,0,0,0,0,0,0,0,0,0,0,0,,0,,,,0.0,38.993835,-76.93869,36.26,26.1,32,3,0.9
2399804,1745470996791,,,,,,,,,,,,,,,,,,,,,,,,,,,,,,,,,,0,0,0,0,0,0,0,0,0,0,0,0,0,0,0,0,,,,,,,,,,,,,
2399824,1745470996811,0.0,134,,0.61,0.42,1.02,23,-0,-1,1.27,1.27,100,8387,25.0,5.0,,11.81,0.877,86.2,,53.4,5,,,,,,,,,,,,0,0,0,0,0,0,0,0,0,0,0,0,0,0,0,0,,,,,,0.0,,,,,,,
2399844,1745470996831,,,,,,,,,,,,,,,,,,,,,,,,,,,,,,,,,,0,0,0,0,0,0,0,0,0,0,0,0,0,0,0,0,,,,,,,,,,,,,
2399864,1745470996851,0.0,115,,0.61,0.5,0.96,21,-0,-1,1.24,1.27,98,8672,25.3,4.78,,11.38,0.834,86.2,,53.4,5,,,,,,,,,,,,0,0,0,0,0,0,0,0,0,0,0,0,0,0,0,0,,,,,,0.0,,,,,,,
2399884,1745470996871,,,,,,,,,,,,,,,,,,,,,,,25,0,26,24,0.0,176.0,0.0,0.0,2.26,,,0,0,0,0,0,0,0,0,0,0,0,0,0,0,0,0,,0,,,,,38.993843,-76.938683,38.51,26.1,32,3,0.9
2399904,1745470996891,0.0,132,,0.6,0.56,0.96,21,-1,-1,1.26,1.27,100,8835,25.3,4.65,,11.09,0.81,86.2,,55.3,5,,,,,,,,,,,,0,0,0,0,0,0,0,0,0,0,0,0,0,0,0,0,,,,,,0.0,,,,,,,
2399924,1745470996911,,,,,,,,,,,,,,,,,,,,,,,,,,,,,,,,,,0,0,0,0,0,0,0,0,0,0,0,0,0,0,0,0,,,,,,,,,,,,,
2399944,1745470996931,0.0,81,,0.61,0.49,1.03,20,-1,-1,1.29,1.29,100,8896,25.2,4.46,,10.92,0.809,86.2,,55.3,5,,,,,,,,,,,,0,0,0,0,0,0,0,0,0,0,0,0,0,0,0,0,,,,,,0.0,,,,,,,
2399964,1745470996951,,,,,,,,,,,,,,,,,,,,,,,,,,,,,,,,,,0,0,0,0,0,0,0,0,0,0,0,0,0,0,0,0,,,,,,,,,,,,,
2399984,1745470996971,0.0,88,,0.58,0.43,1.14,20,-2,0,1.35,1.35,100,9114,25.0,3.92,,10.92,0.809,86.2,,54.8,5,26,56,27,28,0.0,27.0,0.0,0.0,2.27,,,0,0,0,0,0,0,0,0,0,0,0,0,0,0,0,0,,0,,,,0.0,38.993854,-76.938675,40.22,26.1,32,3,0.9
2400004,1745470996991,,,,,,,,,,,,,,,,,,,,,,,,,,,,,,,,,,0,0,0,0,0,0,0,0,0,0,0,0,0,0,0,0,,,,,,,,,,,,,
2400024,1745470997003,0.0,95,,0.56,0.67,1.17,18,-2,-1,1.46,1.46,100,9114,25.0,3.92,,10.7,0.81,86.2,,54.8,5,,,,,,,,,,,,0,0,0,0,0,0,0,0,0,0,0,0,0,0,0,0,,,,,,0.0,,,,,,,
2400044,1745470997023,,,,,,,,,,,,,,,,,,,,,,,,,,,,,,,,,,0,0,0,0,0,0,0,0,0,0,0,0,0,0,0,0,,,,,,,,,,,,,
2400064,1745470997043,0.0,95,,0.56,0.6,1.13,19,-2,-1,1.4,1.46,96,9404,25.0,3.55,,10.57,0.826,86.2,,56.1,5,,,,,,,,,,,,0,0,0,0,0,0,0,0,0,0,0,0,0,0,0,0,,,,,,0.0,,,,,,,
2400084,1745470997063,,,,,,,,,,,,,,,,,,,,,,,27,11,28,28,0.0,4.0,0.0,0.0,2.28,,,0,0,0,0,0,0,0,0,0,0,0,0,0,0,0,0,,1,,,,,38.993862,-76.938675,42.77,26.1,31,3,0.9
2400104,1745470997083,0.0,88,,0.56,0.58,1.13,20,-3,0,1.38,1.46,95,9489,25.2,3.57,,10.53,0.876,86.2,,56.1,5,,,,,,,,,,,,0,0,0,0,0,0,0,0,0,0,0,0,0,0,0,0,,,,,,0.0,,,,,,,
2400124,1745470997112,,,,,,,,,,,,,,,,,,,,,,,,,,,,,,,,,,0,0,0,0,0,0,0,0,0,0,0,0,0,0,0,0,,,,,,,,,,,,,
2400144,1745470997132,0.0,85,,0.57,0.44,1.08,19,-2,-1,1.3,1.46,89,9788,25.3,3.61,,10.44,0.876,86.2,,56.1,5,,,,,,,,,,,,0,0,0,0,0,0,0,0,0,0,0,0,0,0,0,0,,,,,,0.0,,,,,,,
2400164,1745470997152,,,,,,,,,,,,,,,,,,,,,,,,,,,,,,,,,,0,0,0,0,0,0,0,0,0,0,0,0,0,0,0,0,,,,,,,,,,,,,
2400184,1745470997172,0.0,91,,0.5,0.5,1.07,19,-3,-1,1.28,1.46,88,8905,25.1,3.32,,10.44,0.948,86.2,,55.5,5,28,11,29,30,0.0,232.0,0.0,0.0,2.28,,,0,0,0,0,0,0,0,0,0,0,0,0,0,0,0,0,,0,,,,0.0,38.993877,-76.938667,44.34,26.1,31,3,0.9
2400204,1745470997192,,,,,,,,,,,,,,,,,,,,,,,,,,,,,,,,,,0,0,0,0,0,0,0,0,0,0,0,0,0,0,0,0,,,,,,,,,,,,,
2400224,1745470997211,0.0,74,,0.45,0.22,1.05,20,-3,-2,1.17,1.46,80,8905,25.1,3.32,,10.28,0.974,86.2,,55.5,5,,,,,,,,,,,,0,0,0,0,0,0,0,0,0,0,0,0,0,0,0,0,,,,,,0.0,,,,,,,
2400244,1745470997231,,,,,,,,,,,,,,,,,,,,,,,,,,,,,,,,,,0,0,0,0,0,0,0,0,0,0,0,0,0,0,0,0,,,,,,,,,,,,,
2400264,1745470997251,0.0,57,,0.42,0.44,1.0,19,-3,-1,1.17,1.46,80,8647,25.1,3.63,,10.53,1.121,86.2,,55.5,5,,,,,,,,,,,,0,0,0,0,0,0,0,0,0,0,0,0,0,0,0,0,,,,,,0.0,,,,,,,
2400284,1745470997271,,,,,,,,,,,,,,,,,,,,,,,29,11,29,29,0.0,59.0,0.0,0.0,2.28,,,0,0,0,0,0,0,0,0,0,0,0,0,0,0,0,0,,0,,,,,38.993885,-76.938667,45.48,26.1,32,3,0.9
2400304,1745470997291,0.0,57,,0.48,0.38,1.01,19,-2,-0,1.18,1.46,81,8612,25.5,3.55,,10.81,1.25,86.2,,53.6,5,,,,,,,,,,,,0,0,0,0,0,0,0,0,0,0,0,0,0,0,0,0,,,,,,0.0,,,,,,,
2400324,1745470997310,,,,,,,,,,,,,,,,,,,,,,,,,,,,,,,,,,0,0,0,0,0,0,0,0,0,0,0,0,0,0,0,0,,,,,,,,,,,,,
2400344,1745470997330,0.0,68,,0.47,0.51,1.02,19,-2,-1,1.23,1.46,85,7944,24.2,4.91,,10.81,1.25,86.2,,53.6,5,,,,,,,,,,,,0,0,0,0,0,0,0,0,0,0,0,0,0,0,0,0,,,,,,0.0,,,,,,,
2400364,1745470997350,,,,,,,,,,,,,,,,,,,,,,,,,,,,,,,,,,0,0,0,0,0,0,0,0,0,0,0,0,0,0,0,0,,,,,,,,,,,,,
2400384,1745470997370,0.0,81,13.58,0.44,0.6,1.04,19,-2,-1,1.28,1.46,88,7234,21.6,5.48,15,11.16,1.078,86.2,176,48.6,5,30,11,37,40,0.0,14.0,0.0,0.0,2.27,0,1.0,0,0,0,0,0,0,0,0,0,0,0,0,0,0,0,0,0,3,1.0,0,-0,0.0,38.993896,-76.93866,45.34,26.2,32,3,0.9
2400404,1745470997390,,,,,,,,,,,,,,,,,,,,,,,,,,,,,,,,,,0,0,0,0,0,0,0,0,0,0,0,0,0,0,0,0,,,,,,,,,,,,,
2400424,1745470997412,0.0,71,,0.43,0.69,1.0,19,-2,-1,1.29,1.46,88,7234,21.6,5.48,,11.36,0.942,86.2,,48.6,5,,,,,,,,,,,,0,0,0,0,0,0,0,0,0,0,0,0,0,0,0,0,,,,,,0.0,,,,,,,
2400444,1745470997432,,,,,,,,,,,,,,,,,,,,,,,,,,,,,,,,,,0,0,0,0,0,0,0,0,0,0,0,0,0,0,0,0,,,,,,,,,,,,,
2400464,1745470997452,0.0,61,,0.42,0.7,1.04,18,-2,0,1.32,1.46,90,7480,21.2,5.54,,11.38,0.837,86.2,,52.1,5,,,,,,,,,,,,0,0,0,0,0,0,0,0,0,0,0,0,0,0,0,0,,,,,,0.0,,,,,,,
2400484,1745470997472,,,,,,,,,,,,,,,,,,,,,,,30,11,32,31,0.0,14.0,0.0,0.0,2.27,,,0,0,0,0,0,0,0,0,0,0,0,0,0,0,0,0,,2,,,,,38.993908,-76.93866,48.08,26.2,32,3,0.9
2400504,1745470997492,0.0,44,,0.4,0.8,1.05,18,-1,0,1.38,1.46,94,7619,21.8,5.36,,11.36,0.774,86.2,,52.1,5,,,,,,,,,,,,0,0,0,0,0,0,0,0,0,0,0,0,0,0,0,0,,,,,,0.0,,,,,,,
2400524,1745470997510,,,,,,,,,,,,,,,,,,,,,,,,,,,,,,,,,,0,0,0,0,0,0,0,0,0,0,0,0,0,0,0,0,,,,,,,,,,,,,
2400544,1745470997530,0.0,81,,0.37,0.76,1.02,17,-2,0,1.33,1.46,91,7541,21.6,5.42,,11.32,0.741,86.2,,52.1,5,,,,,,,,,,,,0,0,0,0,0,0,0,0,0,0,0,0,0,0,0,0,,,,,,0.0,,,,,,,
2400564,1745470997550,,,,,,,,,,,,,,,,,,,,,,,,,,,,,,,,,,0,0,0,0,0,0,0,0,0,0,0,0,0,0,0,0,,,,,,,,,,,,,
2400584,1745470997570,0.0,122,,0.32,0.71,1.03,15,-3,0,1.28,1.46,88,7541,21.6,5.42,,11.32,0.741,86.2,,52.5,5,31,11,31,32,0.0,34.0,0.0,0.0,2.27,,,0,0,0,0,0,0,0,0,0,0,0,0,0,0,0,0,,2,,,,0.0,38.993919,-76.93866,48.78,26.2,32,3,0.9
2400604,1745470997590,,,,,,,,,,,,,,,,,,,,,,,,,,,,,,,,,,0,0,0,0,0,0,0,0,0,0,0,0,0,0,0,0,,,,,,,,,,,,,
2400624,1745470997612,0.0,131,,0.3,0.54,1.01,15,-3,-0,1.18,1.18,100,7658,21.8,5.36,,11.33,0.73,86.2,,52.5,5,,,,,,,,,,,,0,0,0,0,0,0,0,0,0,0,0,0,0,0,0,0,,,,,,0.0,,,,,,,
2400644,1745470997632,,,,,,,,,,,,,,,,,,,,,,,,,,,,,,,,,,0,0,0,0,0,0,0,0,0,0,0,0,0,0,0,0,,,,,,,,,,,,,
2400664,1745470997652,0.0,108,,0.31,0.54,1.04,14,-3,0,1.21,1.21,100,7778,21.6,5.34,,11.36,0.726,86.2,,52.9,5,,,,,,,,,,,,0,0,0,0,0,0,0,0,0,0,0,0,0,0,0,0,,,,,,0.0,,,,,,,
2400684,1745470997672,,,,,,,,,,,,,,,,,,,,,,,31,11,32,33,0.0,242.0,0.0,0.0,2.28,,,0,0,0,0,0,0,0,0,0,0,0,0,0,0,0,0,,2,,,,,38.993935,-76.93866,49.96,26.2,32,3,0.9
2400704,1745470997692,0.0,134,,0.26,0.48,1.03,13,-3,0,1.16,1.21,96,7835,21.4,5.35,,11.17,0.721,86.2,,52.9,5,,,,,,,,,,,,0,0,0,0,0,0,0,0,0,0,0,0,0,0,0,0,,,,,,0.0,,,,,,,
2400724,1745470997712,,,,,,,,,,,,,,,,,,,,,,,,,,,,,,,,,,0,0,0,0,0,0,0,0,0,0,0,0,0,0,0,0,,,,,,,,,,,,,
2400744,1745470997732,0.0,131,,0.28,0.37,1.08,12,-3,0,1.17,1.21,97,7801,21.5,5.35,,11.22,0.717,86.2,,52.9,5,,,,,,,,,,,,0,0,0,0,0,0,0,0,0,0,0,0,0,0,0,0,,,,,,0.0,,,,,,,
2400764,1745470997752,,,,,,,,,,,,,,,,,,,,,,,,,,,,,,,,,,0,0,0,0,0,0,0,0,0,0,0,0,0,0,0,0,,,,,,,,,,,,,
2400784,1745470997772,0.0,115,,0.26,0.41,1.01,12,-3,0,1.12,1.21,93,7801,21.5,5.35,,11.22,0.717,86.2,,52.5,5,33,11,33,33,0.0,14.0,0.0,0.0,2.28,,,0,0,0,0,0,0,0,0,0,0,0,0,0,0,0,0,,2,,,,0.0,38.993946,-76.93866,50.48,26.2,32,3,1.1
2400804,1745470997792,,,,,,,,,,,,,,,,,,,,,,,,,,,,,,,,,,0,0,0,0,0,0,0,0,0,0,0,0,0,0,0,0,,,,,,,,,,,,,
2400824,1745470997812,0.0,95,,0.25,0.35,1.03,12,-2,1,1.11,1.21,92,7897,21.5,5.33,,11.29,0.717,86.2,,52.5,5,,,,,,,,,,,,0,0,0,0,0,0,0,0,0,0,0,0,0,0,0,0,,,,,,0.0,,,,,,,
2400844,1745470997832,,,,,,,,,,,,,,,,,,,,,,,,,,,,,,,,,,0,0,0,0,0,0,0,0,0,0,0,0,0,0,0,0,,,,,,,,,,,,,
2400864,1745470997852,0.0,81,,0.24,0.23,1.05,10,-2,0,1.1,1.21,91,8008,21.6,5.29,,11.14,0.714,86.2,,53.8,5,,,,,,,,,,,,0,0,0,0,0,0,0,0,0,0,0,0,0,0,0,0,,,,,,0.0,,,,,,,
2400884,1745470997872,,,,,,,,,,,,,,,,,,,,,,,33,11,33,33,0.0,36.0,0.0,0.0,2.27,,,0,0,0,0,0,0,0,0,0,0,0,0,0,0,0,0,,2,,,,,38.993958,-76.93866,51.36,26.2,32,3,1.1
2400904,1745470997892,0.0,74,,0.23,0.31,1.03,9,-2,1,1.1,1.21,91,8040,22.0,5.23,,11.24,0.711,86.2,,53.8,5,,,,,,,,,,,,0,0,0,0,0,0,0,0,0,0,0,0,0,0,0,0,,,,,,0.0,,,,,,,
2400924,1745470997912,,,,,,,,,,,,,,,,,,,,,,,,,,,,,,,,,,0,0,0,0,0,0,0,0,0,0,0,0,0,0,0,0,,,,,,,,,,,,,
2400944,1745470997932,0.0,57,,0.22,0.25,1.03,8,-2,1,1.08,1.21,90,8143,22.6,5.14,,11.13,0.707,86.2,,53.8,5,,,,,,,,,,,,0,0,0,0,0,0,0,0,0,0,0,0,0,0,0,0,,,,,,0.0,,,,,,,
2400964,1745470997952,,,,,,,,,,,,,,,,,,,,,,,,,,,,,,,,,,0,0,0,0,0,0,0,0,0,0,0,0,0,0,0,0,,,,,,,,,,,,,
2400984,1745470997972,0.0,68,,0.26,0.17,1.03,8,-2,1,1.07,1.21,89,8143,22.6,5.14,,11.13,0.707,86.2,,54.2,5,34,11,34,35,0.0,57.0,0.0,0.0,2.27,,,0,0,0,0,0,0,0,0,0,0,0,0,0,0,0,0,,2,,,,0.0,38.993973,-76.93866,51.81,26.2,32,3,1.1
2401004,1745470997992,,,,,,,,,,,,,,,,,,,,,,,,,,,,,,,,,,0,0,0,0,0,0,0,0,0,0,0,0,0,0,0,0,,,,,,,,,,,,,
2401024,1745470998004,0.0,91,,0.29,0.22,1.05,8,-2,1,1.11,1.21,92,8225,23.0,5.07,,11.13,0.707,86.2,,54.2,5,,,,,,,,,,,,0,0,0,0,0,0,0,0,0,0,0,0,0,0,0,0,,,,,,0.0,,,,,,,
2401044,1745470998024,,,,,,,,,,,,,,,,,,,,,,,,,,,,,,,,,,0,0,0,0,0,0,0,0,0,0,0,0,0,0,0,0,,,,,,,,,,,,,
2401064,1745470998044,0.0,88,,0.28,0.26,1.07,6,-2,1,1.13,1.21,94,8319,22.9,5.01,,11.02,0.709,86.2,,54.2,5,,,,,,,,,,,,0,0,0,0,0,0,0,0,0,0,0,0,0,0,0,0,,,,,,0.0,,,,,,,
2401084,1745470998064,,,,,,,,,,,,,,,,,,,,,,,34,11,34,36,0.0,27.0,0.0,0.0,2.27,,,0,0,0,0,0,0,0,0,0,0,0,0,0,0,0,0,,0,,,,,38.993984,-76.93866,52.52,26.2,34,3,0.8
2401104,1745470998084,0.0,85,,0.25,0.15,1.08,7,-3,0,1.12,1.21,92,7918,22.9,5.12,,10.97,0.715,86.2,,54.6,5,,,,,,,,,,,,0,0,0,0,0,0,0,0,0,0,0,0,0,0,0,0,,,,,,0.0,,,,,,,
2401124,1745470998110,,,,,,,,,,,,,,,,,,,,,,,,,,,,,,,,,,0,0,0,0,0,0,0,0,0,0,0,0,0,0,0,0,,,,,,,,,,,,,
2401144,1745470998130,0.0,74,,0.24,0.2,1.08,7,-2,1,1.12,1.21,93,7384,22.6,5.29,,10.97,0.715,86.2,,54.6,5,,,,,,,,,,,,0,0,0,0,0,0,0,0,0,0,0,0,0,0,0,0,,,,,,0.0,,,,,,,
2401164,1745470998150,,,,,,,,,,,,,,,,,,,,,,,,,,,,,,,,,,0,0,0,0,0,0,0,0,0,0,0,0,0,0,0,0,,,,,,,,,,,,,
2401184,1745470998170,0.0,64,,0.23,0.24,1.12,7,-1,0,1.17,1.21,97,7905,22.3,5.3,,11.17,0.727,86.2,,47.8,5,34,11,34,34,0.0,19.0,0.0,0.0,2.28,,,0,0,0,0,0,0,0,0,0,0,0,0,0,0,0,0,,3,,,,0.0,38.993996,-76.93866,53.66,26.2,34,3,0.8
2401204,1745470998190,,,,,,,,,,,,,,,,,,,,,,,,,,,,,,,,,,0,0,0,0,0,0,0,0,0,0,0,0,0,0,0,0,,,,,,,,,,,,,
2401224,1745470998210,0.0,71,,0.31,0.22,1.02,7,-0,1,1.09,1.21,90,7905,22.3,5.3,,11.37,0.888,86.2,,47.8,5,,,,,,,,,,,,0,0,0,0,0,0,0,0,0,0,0,0,0,0,0,0,,,,,,0.0,,,,,,,
2401244,1745470998230,,,,,,,,,,,,,,,,,,,,,,,,,,,,,,,,,,0,0,0,0,0,0,0,0,0,0,0,0,0,0,0,0,,,,,,,,,,,,,
2401264,1745470998250,0.0,51,,0.26,0.28,1.03,7,-0,1,1.1,1.21,91,7166,21.2,5.47,,11.22,0.862,86.2,,47.0,5,,,,,,,,,,,,0,0,0,0,0,0,0,0,0,0,0,0,0,0,0,0,,,,,,0.0,,,,,,,
2401284,1745470998270,,,,,,,,,,,,,,,,,,,,,,,60,11,63,34,0.0,9.0,0.0,0.0,2.28,,,0,0,0,0,0,0,0,0,0,0,0,0,0,0,0,0,,3,,,,,38.994011,-76.93866,53.97,26.2,34,3,0.8
2401304,1745470998290,0.0,57,,0.21,0.26,1.05,6,-1,1,1.1,1.21,91,6532,7.9,3.34,,10.56,0.747,86.2,,47.0,5,,,,,,,,,,,,0,0,0,0,0,0,0,0,0,0,0,0,0,0,0,0,,,,,,0.0,,,,,,,
2401324,1745470998309,,,,,,,,,,,,,,,,,,,,,,,,,,,,,,,,,,0,0,0,0,0,0,0,0,0,0,0,0,0,0,0,0,,,,,,,,,,,,,
2401344,1745470998329,0.0,61,,0.16,0.21,1.06,5,-2,1,1.1,1.1,100,6849,7.3,3.27,,10.13,0.727,86.2,,47.0,5,,,,,,,,,,,,0,0,0,0,0,0,0,0,0,0,0,0,0,0,0,0,,,,,,0.0,,,,,,,
2401364,1745470998349,,,,,,,,,,,,,,,,,,,,,,,,,,,,,,,,,,0,0,0,0,0,0,0,0,0,0,0,0,0,0,0,0,,,,,,,,,,,,,
2401384,1745470998369,0.0,68,13.66,0.15,0.31,1.08,4,-1,2,1.14,1.14,100,7412,7.7,3.28,15,10.13,0.727,86.2,176,52.5,5,35,11,36,36,0.0,36.0,0.0,0.0,2.27,0,1.0,0,0,0,0,0,0,0,0,0,0,0,0,0,0,0,0,0,3,1.0,0,-0,0.0,38.994026,-76.93866,54.27,26.2,34,3,0.8
2401404,1745470998389,,,,,,,,,,,,,,,,,,,,,,,,,,,,,,,,,,0,0,0,0,0,0,0,0,0,0,0,0,0,0,0,0,,,,,,,,,,,,,
2401424,1745470998411,0.0,81,,0.2,0.25,1.07,5,0,1,1.12,1.14,98,7412,7.7,3.28,,9.6,0.73,86.2,,52.5,5,,,,,,,,,,,,0,0,0,0,0,0,0,0,0,0,0,0,0,0,0,0,,,,,,0.0,,,,,,,
2401444,1745470998431,,,,,,,,,,,,,,,,,,,,,,,,,,,,,,,,,,0,0,0,0,0,0,0,0,0,0,0,0,0,0,0,0,,,,,,,,,,,,,
2401464,1745470998451,0.0,57,,0.2,0.22,1.06,4,1,1,1.1,1.14,97,7304,8.1,3.15,,9.21,0.755,86.2,,48.8,5,,,,,,,,,,,,0,0,0,0,0,0,0,0,0,0,0,0,0,0,0,0,,,,,,0.0,,,,,,,
2401484,1745470998471,,,,,,,,,,,,,,,,,,,,,,,35,11,35,35,0.0,27.0,0.0,0.0,2.27,,,0,0,0,0,0,0,0,0,0,0,0,0,0,0,0,0,,3,,,,,38.994038,-76.93866,55.12,26.2,34,3,0.8
2401504,1745470998491,0.0,68,,0.13,0.25,1.07,3,-0,1,1.11,1.14,97,6749,8.9,3.08,,9.35,0.771,86.2,,48.8,5,,,,,,,,,,,,0,0,0,0,0,0,0,0,0,0,0,0,0,0,0,0,,,,,,0.0,,,,,,,
2401524,1745470998511,,,,,,,,,,,,,,,,,,,,,,,,,,,,,,,,,,0,0,0,0,0,0,0,0,0,0,0,0,0,0,0,0,,,,,,,,,,,,,
2401544,1745470998531,0.0,51,,0.11,0.17,1.05,1,-1,1,1.07,1.14,94,7042,8.8,3.2,,9.37,0.782,86.2,,48.8,5,,,,,,,,,,,,0,0,0,0,0,0,0,0,0,0,0,0,0,0,0,0,,,,,,0.0,,,,,,,
2401564,1745470998551,,,,,,,,,,,,,,,,,,,,,,,,,,,,,,,,,,0,0,0,0,0,0,0,0,0,0,0,0,0,0,0,0,,,,,,,,,,,,,
2401584,1745470998571,0.0,51,,0.09,0.1,1.07,1,-1,0,1.08,1.14,95,7392,8.9,3.14,,9.37,0.782,86.2,,51.5,5,36,11,35,35,0.0,9.0,0.0,0.0,2.27,,,0,0,0,0,0,0,0,0,0,0,0,0,0,0,0,0,,3,,,,0.0,38.994053,-76.93866,54.84,26.2,34,3,0.8
2401604,1745470998591,,,,,,,,,,,,,,,,,,,,,,,,,,,,,,,,,,0,0,0,0,0,0,0,0,0,0,0,0,0,0,0,0,,,,,,,,,,,,,
2401624,1745470998611,0.0,61,,0.08,0.17,1.04,2,0,-0,1.06,1.14,93,7392,8.9,3.14,,9.02,0.795,86.2,,51.5,5,,,,,,,,,,,,0,0,0,0,0,0,0,0,0,0,0,0,0,0,0,0,,,,,,0.0,,,,,,,
2401644,1745470998631,,,,,,,,,,,,,,,,,,,,,,,,,,,,,,,,,,0,0,0,0,0,0,0,0,0,0,0,0,0,0,0,0,,,,,,,,,,,,,
2401664,1745470998651,0.0,68,,0.04,0.1,1.04,2,-0,0,1.05,1.14,92,6962,7.6,3.03,,8.91,0.814,86.2,,50.0,5,,,,,,,,,,,,0,0,0,0,0,0,0,0,0,0,0,0,0,0,0,0,,,,,,0.0,,,,,,,
2401684,1745470998671,,,,,,,,,,,,,,,,,,,,,,,34,11,35,34,0.0,230.0,0.0,0.0,2.28,,,0,0,0,0,0,0,0,0,0,0,0,0,0,0,0,0,,3,,,,,38.994068,-76.93866,55.6,26.2,34,3,0.8
2401704,1745470998691,0.0,78,,0.05,0.06,1.03,1,-0,-0,1.03,1.14,91,7093,4.8,2.6,,8.63,0.826,86.2,,50.0,5,,,,,,,,,,,,0,0,0,0,0,0,0,0,0,0,0,0,0,0,0,0,,,,,,0.0,,,,,,,
2401724,1745470998713,,,,,,,,,,,,,,,,,,,,,,,,,,,,,,,,,,0,0,0,0,0,0,0,0,0,0,0,0,0,0,0,0,,,,,,,,,,,,,
2401744,1745470998733,0.0,64,,0.03,0.03,0.99,1,-0,0,0.99,1.14,87,7175,3.9,2.37,,8.29,0.828,86.2,,50.0,5,,,,,,,,,,,,0,0,0,0,0,0,0,0,0,0,0,0,0,0,0,0,,,,,,0.0,,,,,,,
2401764,1745470998753,,,,,,,,,,,,,,,,,,,,,,,,,,,,,,,,,,0,0,0,0,0,0,0,0,0,0,0,0,0,0,0,0,,,,,,,,,,,,,
2401784,1745470998773,0.0,68,,0.02,0.03,0.98,1,0,-0,0.98,1.14,86,7175,3.9,2.37,,8.29,0.828,86.2,,50.9,5,35,11,35,35,0.0,240.0,0.0,0.0,2.29,,,0,0,0,0,0,0,0,0,0,0,0,0,0,0,0,0,,3,,,,0.0,38.99408,-76.93866,55.42,26.2,34,3,0.8
2401804,1745470998793,,,,,,,,,,,,,,,,,,,,,,,,,,,,,,,,,,0,0,0,0,0,0,0,0,0,0,0,0,0,0,0,0,,,,,,,,,,,,,
2401824,1745470998811,0.0,64,,0.0,-0.09,0.99,0,-0,-0,0.99,1.14,88,7027,2.7,1.61,,7.86,0.829,86.2,,50.9,5,,,,,,,,,,,,0,0,0,0,0,0,0,0,0,0,0,0,0,0,0,0,,,,,,0.0,,,,,,,
2401844,1745470998831,,,,,,,,,,,,,,,,,,,,,,,,,,,,,,,,,,0,0,0,0,0,0,0,0,0,0,0,0,0,0,0,0,,,,,,,,,,,,,
2401864,1745470998851,0.0,51,,-0.04,-0.14,0.99,-0,-1,-0,1.0,1.14,88,6948,1.8,1.4,,7.69,0.841,86.2,,49.6,5,,,,,,,,,,,,0,0,0,0,0,0,0,0,0,0,0,0,0,0,0,0,,,,,,0.0,,,,,,,
2401884,1745470998871,,,,,,,,,,,,,,,,,,,,,,,35,11,36,36,0.0,15.0,0.0,0.0,2.28,,,0,0,0,0,0,0,0,0,0,0,0,0,0,0,0,0,,3,,,,,38.994095,-76.93866,55.48,26.2,34,3,0.8
2401904,1745470998891,0.0,57,,-0.04,-0.08,1.01,-0,-1,-0,1.01,1.14,89,6732,0.8,1.4,,7.73,0.867,86.2,,49.6,5,,,,,,,,,,,,0,0,0,0,0,0,0,0,0,0,0,0,0,0,0,0,,,,,,0.0,,,,,,,
2401924,1745470998913,,,,,,,,,,,,,,,,,,,,,,,,,,,,,,,,,,0,0,0,0,0,0,0,0,0,0,0,0,0,0,0,0,,,,,,,,,,,,,
2401944,1745470998933,0.0,41,,-0.04,-0.11,0.98,-1,-1,0,0.99,1.14,87,6499,0.3,1.4,,7.74,0.942,86.2,,49.6,5,,,,,,,,,,,,0,0,0,0,0,0,0,0,0,0,0,0,0,0,0,0,,,,,,0.0,,,,,,,
2401964,1745470998953,,,,,,,,,,,,,,,,,,,,,,,,,,,,,,,,,,0,0,0,0,0,0,0,0,0,0,0,0,0,0,0,0,,,,,,,,,,,,,
2401984,1745470998973,0.0,64,,-0.11,-0.13,0.99,-1,-1,1,1.0,1.0,100,6855,0.5,1.4,,7.74,0.942,86.2,,48.9,5,35,11,35,35,0.0,235.0,0.0,0.0,2.27,,,0,0,0,0,0,0,0,0,0,0,0,0,0,0,0,0,,4,,,,0.0,38.99411,-76.93866,55.7,26.2,34,3,0.8
2402004,1745470998993,,,,,,,,,,,,,,,,,,,,,,,,,,,,,,,,,,0,0,0,0,0,0,0,0,0,0,0,0,0,0,0,0,,,,,,,,,,,,,
2402024,1745470999003,0.0,64,,-0.15,-0.18,1.0,0,-0,0,1.03,1.03,100,6855,0.5,1.4,,7.66,1.026,86.2,,48.9,5,,,,,,,,,,,,0,0,0,0,0,0,0,0,0,0,0,0,0,0,0,0,,,,,,0.0,,,,,,,
2402044,1745470999023,,,,,,,,,,,,,,,,,,,,,,,,,,,,,,,,,,0,0,0,0,0,0,0,0,0,0,0,0,0,0,0,0,,,,,,,,,,,,,
2402064,1745470999043,0.0,57,,-0.18,-0.08,0.98,-0,-0,1,1.0,1.03,97,6828,0.8,1.4,,7.49,1.133,86.2,,50.1,5,,,,,,,,,,,,0,0,0,0,0,0,0,0,0,0,0,0,0,0,0,0,,,,,,0.0,,,,,,,
2402084,1745470999063,,,,,,,,,,,,,,,,,,,,,,,35,0,34,35,0.0,2.0,0.0,0.0,2.27,,,0,0,0,0,0,0,0,0,0,0,0,0,0,0,0,0,,3,,,,,38.994122,-76.93866,55.23,26.2,34,3,0.8
2402104,1745470999083,0.0,54,,-0.19,-0.08,0.94,-0,0,1,0.97,1.03,94,6746,0.9,1.4,,7.43,1.25,86.2,,50.1,5,,,,,,,,,,,,0,0,0,0,0,0,0,0,0,0,0,0,0,0,0,0,,,,,,0.0,,,,,,,
2402124,1745470999111,,,,,,,,,,,,,,,,,,,,,,,,,,,,,,,,,,0,0,0,0,0,0,0,0,0,0,0,0,0,0,0,0,,,,,,,,,,,,,
2402144,1745470999131,0.0,44,,-0.21,-0.14,1.0,-1,0,1,1.04,1.04,100,6693,0.7,1.4,,7.41,1.248,86.2,,50.1,5,,,,,,,,,,,,0,0,0,0,0,0,0,0,0,0,0,0,0,0,0,0,,,,,,0.0,,,,,,,
2402164,1745470999151,,,,,,,,,,,,,,,,,,,,,,,,,,,,,,,,,,0,0,0,0,0,0,0,0,0,0,0,0,0,0,0,0,,,,,,,,,,,,,
2402184,1745470999171,0.0,51,,-0.26,0.03,0.97,-1,0,0,1.01,1.04,98,6693,0.7,1.4,,7.41,1.248,86.2,,49.9,5,34,0,34,33,0.0,217.0,0.0,0.0,2.28,,,0,0,0,0,0,0,0,0,0,0,0,0,0,0,0,0,,3,,,,0.0,38.994133,-76.93866,53.87,26.2,34,3,0.8
2402204,1745470999191,,,,,,,,,,,,,,,,,,,,,,,,,,,,,,,,,,0,0,0,0,0,0,0,0,0,0,0,0,0,0,0,0,,,,,,,,,,,,,
2402224,1745470999205,0.0,51,,-0.28,0.03,1.04,-1,-1,0,1.07,1.07,100,6546,0.6,1.4,,7.42,1.25,86.2,,49.9,5,,,,,,,,,,,,0,0,0,0,0,0,0,0,0,0,0,0,0,0,0,0,,,,,,0.0,,,,,,,
2402244,1745470999225,,,,,,,,,,,,,,,,,,,,,,,,,,,,,,,,,,0,0,0,0,0,0,0,0,0,0,0,0,0,0,0,0,,,,,,,,,,,,,
2402264,1745470999245,0.0,54,,-0.27,0.0,1.02,-1,-1,0,1.06,1.07,99,6546,0.0,1.4,,7.42,1.249,86.2,,48.9,5,,,,,,,,,,,,0,0,0,0,0,0,0,0,0,0,0,0,0,0,0,0,,,,,,0.0,,,,,,,
2402284,1745470999265,,,,,,,,,,,,,,,,,,,,,,,33,0,33,34,0.0,244.0,0.0,0.0,2.29,,,0,0,0,0,0,0,0,0,0,0,0,0,0,0,0,0,,3,,,,,38.994148,-76.93866,52.79,26.2,34,3,0.8
2402304,1745470999285,0.0,54,,-0.31,0.03,0.98,-1,-1,-0,1.02,1.07,95,6362,0.0,1.4,,7.46,1.25,86.2,,48.9,5,,,,,,,,,,,,0,0,0,0,0,0,0,0,0,0,0,0,0,0,0,0,,,,,,0.0,,,,,,,
2402324,1745470999312,,,,,,,,,,,,,,,,,,,,,,,,,,,,,,,,,,0,0,0,0,0,0,0,0,0,0,0,0,0,0,0,0,,,,,,,,,,,,,
2402344,1745470999332,0.0,51,,-0.33,0.03,1.04,-1,-0,-0,1.09,1.09,100,6410,0.0,1.4,,7.61,1.25,86.2,,48.9,5,,,,,,,,,,,,0,0,0,0,0,0,0,0,0,0,0,0,0,0,0,0,,,,,,0.0,,,,,,,
2402364,1745470999352,,,,,,,,,,,,,,,,,,,,,,,,,,,,,,,,,,0,0,0,0,0,0,0,0,0,0,0,0,0,0,0,0,,,,,,,,,,,,,
2402384,1745470999372,0.75,61,13.68,-0.35,-0.05,0.98,-2,0,-0,1.04,1.09,95,6351,0.1,1.4,15,7.61,1.25,86.2,176,48.8,5,32,0,32,32,0.0,6.0,0.0,0.0,2.29,0,1.0,0,0,0,0,0,0,0,0,0,0,0,0,0,0,0,0,0,3,1.0,0,-0,0.0,38.99416,-76.93866,51.55,26.3,34,3,0.8
2402404,1745470999392,,,,,,,,,,,,,,,,,,,,,,,,,,,,,,,,,,0,0,0,0,0,0,0,0,0,0,0,0,0,0,0,0,,,,,,,,,,,,,
2402424,1745470999412,2.01,37,,-0.36,-0.01,1.0,-2,1,-1,1.07,1.09,97,6351,0.1,1.4,,7.66,1.252,86.2,,48.8,5,,,,,,,,,,,,0,0,0,0,0,0,0,0,0,0,0,0,0,0,0,0,,,,,,0.0,,,,,,,
2402444,1745470999432,,,,,,,,,,,,,,,,,,,,,,,,,,,,,,,,,,0,0,0,0,0,0,0,0,0,0,0,0,0,0,0,0,,,,,,,,,,,,,
2402464,1745470999452,4.52,41,,-0.44,0.28,1.06,-2,1,-1,1.18,1.18,100,6274,0.2,1.4,,7.67,1.252,86.2,,48.3,5,,,,,,,,,,,,0,0,0,0,0,0,0,0,0,0,0,0,0,0,0,0,,,,,,0.0,,,,,,,
2402484,1745470999472,,,,,,,,,,,,,,,,,,,,,,,33,0,32,32,0.0,13.0,0.0,0.0,2.27,,,0,0,0,0,0,0,0,0,0,0,0,0,0,0,0,0,,3,,,,,38.994175,-76.938652,50.04,26.3,34,3,0.8
2402504,1745470999492,6.41,37,,-0.4,0.21,0.93,-2,-0,-0,1.03,1.18,87,6211,0.4,1.4,,7.79,1.253,86.2,,48.3,5,,,,,,,,,,,,0,0,0,0,0,0,0,0,0,0,0,0,0,0,0,0,,,,,,0.0,,,,,,,
2402524,1745470999512,,,,,,,,,,,,,,,,,,,,,,,,,,,,,,,,,,0,0,0,0,0,0,0,0,0,0,0,0,0,0,0,0,,,,,,,,,,,,,
2402544,1745470999532,10.81,41,,-0.33,0.02,0.81,-2,-0,-2,0.88,1.18,75,6065,0.5,1.4,,7.79,1.253,86.2,,48.3,5,,,,,,,,,,,,0,0,0,0,0,0,0,0,0,0,0,0,0,0,0,0,,,,,,0.0,,,,,,,
2402564,1745470999552,,,,,,,,,,,,,,,,,,,,,,,,,,,,,,,,,,0,0,0,0,0,0,0,0,0,0,0,0,0,0,0,0,,,,,,,,,,,,,
2402584,1745470999572,13.32,41,,-0.26,-0.07,0.77,-3,-1,-2,0.81,1.18,69,6065,0.5,1.4,,7.93,1.252,86.2,,48.2,5,32,0,31,31,0.0,228.0,0.0,0.0,2.27,,,0,0,0,0,0,0,0,0,0,0,0,0,0,0,0,0,,3,,,,0.0,38.994186,-76.938652,49.0,26.3,34,3,0.8
2402604,1745470999592,,,,,,,,,,,,,,,,,,,,,,,,,,,,,,,,,,0,0,0,0,0,0,0,0,0,0,0,0,0,0,0,0,,,,,,,,,,,,,
2402624,1745470999612,16.47,54,,-0.19,-0.19,0.73,-3,-0,-2,0.78,1.18,66,6016,0.5,1.4,,7.91,1.251,86.2,,48.2,5,,,,,,,,,,,,0,0,0,0,0,0,0,0,0,0,0,0,0,0,0,0,,,,,,0.0,,,,,,,
2402644,1745470999632,,,,,,,,,,,,,,,,,,,,,,,,,,,,,,,,,,0,0,0,0,0,0,0,0,0,0,0,0,0,0,0,0,,,,,,,,,,,,,
2402664,1745470999652,18.35,54,,-0.14,-0.29,0.68,-4,-1,-2,0.75,0.75,100,5965,0.7,1.4,,8.02,1.25,86.2,,48.2,5,,,,,,,,,,,,0,0,0,0,0,0,0,0,0,0,0,0,0,0,0,0,,,,,,0.0,,,,,,,
2402684,1745470999672,,,,,,,,,,,,,,,,,,,,,,,31,0,30,30,0.0,2.0,0.0,0.0,2.28,,,0,0,0,0,0,0,0,0,0,0,0,0,0,0,0,0,,3,,,,,38.994198,-76.938652,48.24,26.3,34,3,0.8
2402704,1745470999692,19.61,44,,-0.11,-0.45,0.57,-4,-1,-3,0.73,0.75,97,5871,0.4,1.4,,8.09,1.25,86.2,,47.9,5,,,,,,,,,,,,0,0,0,0,0,0,0,0,0,0,0,0,0,0,0,0,,,,,,0.0,,,,,,,
2402724,1745470999712,,,,,,,,,,,,,,,,,,,,,,,,,,,,,,,,,,0,0,0,0,0,0,0,0,0,0,0,0,0,0,0,0,,,,,,,,,,,,,
2402744,1745470999732,24.01,27,,-0.18,-0.37,0.56,-4,-2,-2,0.7,0.75,93,5805,0.0,1.4,,8.33,1.251,86.2,,47.9,5,,,,,,,,,,,,0,0,0,0,0,0,0,0,0,0,0,0,0,0,0,0,,,,,,0.0,,,,,,,
2402764,1745470999752,,,,,,,,,,,,,,,,,,,,,,,,,,,,,,,,,,0,0,0,0,0,0,0,0,0,0,0,0,0,0,0,0,,,,,,,,,,,,,
2402784,1745470999772,24.64,20,,-0.22,-0.19,0.72,-1,-2,-2,0.77,0.77,100,5747,0.0,1.4,,8.33,1.251,86.2,,47.7,5,30,0,29,28,0.0,229.0,0.0,0.0,2.29,,,0,0,0,0,0,0,0,0,0,0,0,0,0,0,0,0,,3,,,,0.0,38.994213,-76.938652,47.34,26.3,34,3,0.8
2402804,1745470999792,,,,,,,,,,,,,,,,,,,,,,,,,,,,,,,,,,0,0,0,0,0,0,0,0,0,0,0,0,0,0,0,0,,,,,,,,,,,,,
2402824,1745470999812,30.29,27,,-0.22,-0.24,0.74,-2,-1,-2,0.81,0.81,100,5747,0.0,1.4,,8.33,1.249,86.2,,47.7,5,,,,,,,,,,,,0,0,0,0,0,0,0,0,0,0,0,0,0,0,0,0,,,,,,0.0,,,,,,,
2402844,1745470999832,,,,,,,,,,,,,,,,,,,,,,,,,,,,,,,,,,0,0,0,0,0,0,0,0,0,0,0,0,0,0,0,0,,,,,,,,,,,,,
2402864,1745470999852,29.03,30,,-0.26,-0.16,0.77,-2,-1,-1,0.83,0.83,100,5651,0.0,1.4,,8.58,1.251,86.2,,47.5,5,,,,,,,,,,,,0,0,0,0,0,0,0,0,0,0,0,0,0,0,0,0,,,,,,0.0,,,,,,,
2402884,1745470999872,,,,,,,,,,,,,,,,,,,,,,,29,0,29,28,0.0,245.0,0.0,0.0,2.29,,,0,0,0,0,0,0,0,0,0,0,0,0,0,0,0,0,,3,,,,,38.994221,-76.938652,46.54,26.3,33,3,0.8
2402904,1745470999892,27.15,30,,-0.23,-0.08,0.79,-1,-0,-1,0.82,0.83,99,5619,0.1,1.4,,8.63,1.251,86.2,,47.5,5,,,,,,,,,,,,0,0,0,0,0,0,0,0,0,0,0,0,0,0,0,0,,,,,,0.0,,,,,,,
2402924,1745470999912,,,,,,,,,,,,,,,,,,,,,,,,,,,,,,,,,,0,0,0,0,0,0,0,0,0,0,0,0,0,0,0,0,,,,,,,,,,,,,
2402944,1745470999932,27.15,34,,-0.29,0.03,0.88,-1,-0,-0,0.92,0.92,100,5585,0.0,1.4,,8.81,1.252,86.2,,47.5,5,,,,,,,,,,,,0,0,0,0,0,0,0,0,0,0,0,0,0,0,0,0,,,,,,0.0,,,,,,,
2402964,1745470999952,,,,,,,,,,,,,,,,,,,,,,,,,,,,,,,,,,0,0,0,0,0,0,0,0,0,0,0,0,0,0,0,0,,,,,,,,,,,,,
2402984,1745470999972,25.26,47,,-0.27,-0.07,0.83,-1,-1,-1,0.87,0.92,95,5495,0.2,1.4,,8.81,1.252,86.2,,46.5,5,28,0,28,27,0.0,225.0,0.0,0.0,2.28,,,0,0,0,0,0,0,0,0,0,0,0,0,0,0,0,0,,3,,,,0.0,38.994232,-76.938652,44.98,26.3,33,3,0.8
2403004,1745470999992,,,,,,,,,,,,,,,,,,,,,,,,,,,,,,,,,,0,0,0,0,0,0,0,0,0,0,0,0,0,0,0,0,,,,,,,,,,,,,
2403024,1745471000002,25.89,47,,-0.25,-0.05,0.89,-1,-1,-0,0.93,0.93,100,5495,0.2,1.4,,8.91,1.254,86.2,,46.5,5,,,,,,,,,,,,0,0,0,0,0,0,0,0,0,0,0,0,0,0,0,0,,,,,,0.0,,,,,,,
2403044,1745471000022,,,,,,,,,,,,,,,,,,,,,,,,,,,,,,,,,,0,0,0,0,0,0,0,0,0,0,0,0,0,0,0,0,,,,,,,,,,,,,
2403064,1745471000042,24.01,41,,-0.26,-0.07,0.92,-0,-1,-0,0.96,0.96,100,5411,0.0,1.4,,9.06,1.253,86.2,,45.2,5,,,,,,,,,,,,0,0,0,0,0,0,0,0,0,0,0,0,0,0,0,0,,,,,,0.0,,,,,,,
2403084,1745471000062,,,,,,,,,,,,,,,,,,,,,,,28,0,28,30,0.0,40.0,0.0,0.0,2.27,,,0,0,0,0,0,0,0,0,0,0,0,0,0,0,0,0,,4,,,,,38.994244,-76.938652,43.64,26.3,34,3,0.8
2403104,1745471000082,23.38,37,,-0.27,-0.09,0.93,-0,0,-1,0.97,0.97,100,5360,0.6,1.48,,9.09,1.253,86.2,,45.2,5,,,,,,,,,,,,0,0,0,0,0,0,0,0,0,0,0,0,0,0,0,0,,,,,,0.0,,,,,,,
2403124,1745471000110,,,,,,,,,,,,,,,,,,,,,,,,,,,,,,,,,,0,0,0,0,0,0,0,0,0,0,0,0,0,0,0,0,,,,,,,,,,,,,
2403144,1745471000130,24.01,20,,-0.26,-0.14,0.94,-0,1,0,0.99,0.99,100,5282,0.6,1.47,,9.26,1.251,86.2,,45.2,5,,,,,,,,,,,,0,0,0,0,0,0,0,0,0,0,0,0,0,0,0,0,,,,,,0.0,,,,,,,
2403164,1745471000150,,,,,,,,,,,,,,,,,,,,,,,,,,,,,,,,,,0,0,0,0,0,0,0,0,0,0,0,0,0,0,0,0,,,,,,,,,,,,,
2403184,1745471000170,23.38,30,,-0.28,-0.16,0.95,0,1,-0,1.0,1.0,100,5255,0.5,1.58,,9.26,1.251,86.2,,43.9,5,27,0,27,26,0.0,241.0,0.0,0.0,2.27,,,0,0,0,0,0,0,0,0,0,0,0,0,0,0,0,0,,3,,,,0.0,38.994255,-76.938652,42.54,26.3,34,3,0.8
2403204,1745471000190,,,,,,,,,,,,,,,,,,,,,,,,,,,,,,,,,,0,0,0,0,0,0,0,0,0,0,0,0,0,0,0,0,,,,,,,,,,,,,
2403224,1745471000204,24.01,27,,-0.26,-0.21,0.95,0,1,-1,1.0,1.0,100,5255,0.5,1.58,,9.3,1.25,86.2,,43.9,5,,,,,,,,,,,,0,0,0,0,0,0,0,0,0,0,0,0,0,0,0,0,,,,,,0.0,,,,,,,
2403244,1745471000224,,,,,,,,,,,,,,,,,,,,,,,,,,,,,,,,,,0,0,0,0,0,0,0,0,0,0,0,0,0,0,0,0,,,,,,,,,,,,,
2403264,1745471000244,23.38,20,,-0.27,-0.24,0.97,0,0,-1,1.03,1.03,100,5172,0.3,1.55,,9.45,1.25,86.2,,43.9,5,,,,,,,,,,,,0,0,0,0,0,0,0,0,0,0,0,0,0,0,0,0,,,,,,0.0,,,,,,,
2403284,1745471000264,,,,,,,,,,,,,,,,,,,,,,,26,0,26,26,0.0,26.0,0.0,0.0,2.29,,,0,0,0,0,0,0,0,0,0,0,0,0,0,0,0,0,,3,,,,,38.994266,-76.938652,41.0,26.3,34,3,0.8
2403304,1745471000284,22.12,34,,-0.3,-0.19,0.92,-0,-0,-1,0.98,1.03,95,5070,0.0,1.68,,9.52,1.249,86.2,,42.8,5,,,,,,,,,,,,0,0,0,0,0,0,0,0,0,0,0,0,0,0,0,0,,,,,,0.0,,,,,,,
2403324,1745471000312,,,,,,,,,,,,,,,,,,,,,,,,,,,,,,,,,,0,0,0,0,0,0,0,0,0,0,0,0,0,0,0,0,,,,,,,,,,,,,
2403344,1745471000332,20.86,30,,-0.32,-0.08,0.97,1,-0,-0,1.03,1.03,99,5027,0.0,1.62,,9.62,1.251,86.2,,42.8,5,,,,,,,,,,,,0,0,0,0,0,0,0,0,0,0,0,0,0,0,0,0,,,,,,0.0,,,,,,,
2403364,1745471000352,,,,,,,,,,,,,,,,,,,,,,,,,,,,,,,,,,0,0,0,0,0,0,0,0,0,0,0,0,0,0,0,0,,,,,,,,,,,,,
2403384,1745471000372,22.75,34,13.69,-0.29,-0.18,0.99,1,-0,-0,1.05,1.05,100,5027,0.0,1.62,15,9.62,1.251,86.2,178,41.7,5,26,0,25,25,0.0,42.0,0.0,0.0,2.29,0,1.0,0,0,0,0,0,0,0,0,0,0,0,0,0,0,0,0,0,3,1.0,0,-0,0.0,38.994274,-76.938652,40.62,26.3,34,3,0.8
2403404,1745471000392,,,,,,,,,,,,,,,,,,,,,,,,,,,,,,,,,,0,0,0,0,0,0,0,0,0,0,0,0,0,0,0,0,,,,,,,,,,,,,
2403424,1745471000411,22.12,24,,-0.33,-0.13,0.99,0,-0,0,1.05,1.05,100,4929,0.0,1.65,,9.69,1.251,86.2,,41.7,5,,,,,,,,,,,,0,0,0,0,0,0,0,0,0,0,0,0,0,0,0,0,,,,,,0.0,,,,,,,
2403444,1745471000431,,,,,,,,,,,,,,,,,,,,,,,,,,,,,,,,,,0,0,0,0,0,0,0,0,0,0,0,0,0,0,0,0,,,,,,,,,,,,,
2403464,1745471000451,24.01,17,,-0.32,-0.06,0.95,1,0,-0,1.01,1.05,96,4870,0.0,1.68,,9.8,1.25,86.2,,40.4,5,,,,,,,,,,,,0,0,0,0,0,0,0,0,0,0,0,0,0,0,0,0,,,,,,0.0,,,,,,,
2403484,1745471000471,,,,,,,,,,,,,,,,,,,,,,,26,0,25,24,0.0,251.0,0.0,0.0,2.28,,,0,0,0,0,0,0,0,0,0,0,0,0,0,0,0,0,,3,,,,,38.994286,-76.938644,39.88,26.3,34,3,0.8
2403504,1745471000491,25.89,24,,-0.32,-0.01,1.03,1,-0,0,1.08,1.08,100,4844,0.0,1.69,,9.86,1.253,86.2,,40.4,5,,,,,,,,,,,,0,0,0,0,0,0,0,0,0,0,0,0,0,0,0,0,,,,,,0.0,,,,,,,
2403524,1745471000511,,,,,,,,,,,,,,,,,,,,,,,,,,,,,,,,,,0,0,0,0,0,0,0,0,0,0,0,0,0,0,0,0,,,,,,,,,,,,,
2403544,1745471000531,26.52,7,,-0.3,-0.11,0.93,-1,-0,-1,0.98,1.08,91,4726,0.3,1.78,,9.96,1.252,86.2,,40.4,5,,,,,,,,,,,,0,0,0,0,0,0,0,0,0,0,0,0,0,0,0,0,,,,,,0.0,,,,,,,
2403564,1745471000551,,,,,,,,,,,,,,,,,,,,,,,,,,,,,,,,,,0,0,0,0,0,0,0,0,0,0,0,0,0,0,0,0,,,,,,,,,,,,,
2403584,1745471000571,30.29,13,,-0.31,-0.04,0.97,-0,-0,-1,1.02,1.08,95,4726,0.3,1.78,,9.96,1.252,86.2,,38.8,5,25,0,25,24,0.0,115.0,0.0,0.0,2.27,,,0,0,0,0,0,0,0,0,0,0,0,0,0,0,0,0,,3,,,,0.0,38.994297,-76.938644,38.67,26.4,34,3,0.8
2403604,1745471000591,,,,,,,,,,,,,,,,,,,,,,,,,,,,,,,,,,0,0,0,0,0,0,0,0,0,0,0,0,0,0,0,0,,,,,,,,,,,,,
2403624,1745471000611,32.81,41,,-0.33,0.1,1.0,1,-1,-0,1.06,1.08,98,4697,0.5,1.84,,9.96,1.252,86.2,,38.8,5,,,,,,,,,,,,0,0,0,0,0,0,0,0,0,0,0,0,0,0,0,0,,,,,,0.0,,,,,,,
2403644,1745471000631,,,,,,,,,,,,,,,,,,,,,,,,,,,,,,,,,,0,0,0,0,0,0,0,0,0,0,0,0,0,0,0,0,,,,,,,,,,,,,
2403664,1745471000651,18.98,81,,-0.34,0.09,1.06,1,-0,0,1.12,1.12,100,4649,44.4,4.44,,12.76,1.252,86.2,,36.9,5,,,,,,,,,,,,0,0,0,0,0,0,0,0,0,0,0,0,0,0,0,0,,,,,,0.0,,,,,,,
2403684,1745471000671,,,,,,,,,,,,,,,,,,,,,,,23,0,23,23,0.0,216.0,0.0,0.0,2.27,,,0,0,0,0,0,0,0,0,0,0,0,0,0,0,0,0,,3,,,,,38.994305,-76.938644,37.76,26.4,34,3,0.8
2403704,1745471000691,0.0,102,,-0.33,-0.04,1.06,1,-0,1,1.11,1.12,100,4524,97.6,5.68,,14.52,1.25,86.2,,36.9,5,,,,,,,,,,,,0,0,0,0,0,0,0,0,0,0,0,0,0,0,0,0,,,,,,0.0,,,,,,,
2403724,1745471000711,,,,,,,,,,,,,,,,,,,,,,,,,,,,,,,,,,0,0,0,0,0,0,0,0,0,0,0,0,0,0,0,0,,,,,,,,,,,,,
2403744,1745471000731,0.0,61,,-0.32,-0.19,1.04,-1,-0,-0,1.1,1.12,99,4752,73.1,5.26,,14.43,1.249,86.2,,36.9,5,,,,,,,,,,,,0,0,0,0,0,0,0,0,0,0,0,0,0,0,0,0,,,,,,0.0,,,,,,,
2403764,1745471000751,,,,,,,,,,,,,,,,,,,,,,,,,,,,,,,,,,0,0,0,0,0,0,0,0,0,0,0,0,0,0,0,0,,,,,,,,,,,,,
2403784,1745471000771,0.0,115,,-0.32,-0.15,1.01,-1,0,1,1.07,1.12,96,4987,11.5,4.33,,14.43,1.249,86.2,,38.7,5,23,0,23,24,0.0,36.0,0.0,0.0,2.28,,,0,0,0,0,0,0,0,0,0,0,0,0,0,0,0,0,,3,,,,0.0,38.994312,-76.938644,36.06,26.4,34,3,0.8
2403804,1745471000791,,,,,,,,,,,,,,,,,,,,,,,,,,,,,,,,,,0,0,0,0,0,0,0,0,0,0,0,0,0,0,0,0,,,,,,,,,,,,,
2403824,1745471000811,0.0,132,,-0.23,-0.12,0.99,-1,1,0,1.02,1.12,92,4987,11.5,4.33,,13.64,1.251,86.2,,38.7,5,,,,,,,,,,,,0,0,0,0,0,0,0,0,0,0,0,0,0,0,0,0,,,,,,0.0,,,,,,,
2403844,1745471000831,,,,,,,,,,,,,,,,,,,,,,,,,,,,,,,,,,0,0,0,0,0,0,0,0,0,0,0,0,0,0,0,0,,,,,,,,,,,,,
2403864,1745471000851,0.0,57,,-0.22,-0.14,0.92,-2,1,0,0.96,1.12,86,4623,0.1,2.63,,12.45,1.25,86.2,,34.2,5,,,,,,,,,,,,0,0,0,0,0,0,0,0,0,0,0,0,0,0,0,0,,,,,,0.0,,,,,,,
2403884,1745471000871,,,,,,,,,,,,,,,,,,,,,,,23,0,22,22,0.0,9.0,0.0,0.0,2.28,,,0,0,0,0,0,0,0,0,0,0,0,0,0,0,0,0,,3,,,,,38.994324,-76.938644,34.96,26.4,34,3,0.8
2403904,1745471000891,0.0,64,,-0.24,-0.0,1.0,1,0,0,1.03,1.12,92,3996,0.0,2.51,,11.95,1.25,86.2,,34.2,5,,,,,,,,,,,,0,0,0,0,0,0,0,0,0,0,0,0,0,0,0,0,,,,,,0.0,,,,,,,
2403924,1745471000911,,,,,,,,,,,,,,,,,,,,,,,,,,,,,,,,,,0,0,0,0,0,0,0,0,0,0,0,0,0,0,0,0,,,,,,,,,,,,,
2403944,1745471000931,0.0,64,,-0.28,0.0,1.01,1,-0,0,1.05,1.12,94,3904,0.0,2.51,,11.95,1.25,86.2,,34.2,5,,,,,,,,,,,,0,0,0,0,0,0,0,0,0,0,0,0,0,0,0,0,,,,,,0.0,,,,,,,
2403964,1745471000951,,,,,,,,,,,,,,,,,,,,,,,,,,,,,,,,,,0,0,0,0,0,0,0,0,0,0,0,0,0,0,0,0,,,,,,,,,,,,,
2403984,1745471000971,0.0,51,,-0.28,-0.04,0.89,1,-1,-0,0.93,1.12,84,4314,0.0,2.48,,11.72,1.209,86.2,,31.8,5,22,0,22,22,0.0,228.0,0.0,0.0,2.28,,,0,0,0,0,0,0,0,0,0,0,0,0,0,0,0,0,,4,,,,0.0,38.994331,-76.938644,35.11,26.4,34,3,0.8
2404004,1745471000991,,,,,,,,,,,,,,,,,,,,,,,,,,,,,,,,,,0,0,0,0,0,0,0,0,0,0,0,0,0,0,0,0,,,,,,,,,,,,,
2404024,1745471001003,0.0,57,,-0.26,-0.12,0.78,-0,-0,-1,0.83,1.12,74,4314,0.0,2.48,,11.44,1.202,86.2,,31.8,5,,,,,,,,,,,,0,0,0,0,0,0,0,0,0,0,0,0,0,0,0,0,,,,,,0.0,,,,,,,
2404044,1745471001023,,,,,,,,,,,,,,,,,,,,,,,,,,,,,,,,,,0,0,0,0,0,0,0,0,0,0,0,0,0,0,0,0,,,,,,,,,,,,,
2404064,1745471001043,2.01,51,,-0.26,-0.04,0.92,-1,0,0,0.96,1.12,86,4321,0.0,2.45,,11.25,1.252,86.2,,33.8,5,,,,,,,,,,,,0,0,0,0,0,0,0,0,0,0,0,0,0,0,0,0,,,,,,0.0,,,,,,,
2404084,1745471001063,,,,,,,,,,,,,,,,,,,,,,,21,0,21,21,0.0,35.0,0.0,0.0,2.27,,,0,0,0,0,0,0,0,0,0,0,0,0,0,0,0,0,,3,,,,,38.994343,-76.938644,34.77,26.4,34,3,0.8
2404104,1745471001083,0.0,44,,-0.29,-0.01,0.93,-0,-0,-0,0.98,1.12,88,4114,0.0,2.46,,11.12,1.254,86.2,,33.8,5,,,,,,,,,,,,0,0,0,0,0,0,0,0,0,0,0,0,0,0,0,0,,,,,,0.0,,,,,,,
2404124,1745471001103,,,,,,,,,,,,,,,,,,,,,,,,,,,,,,,,,,0,0,0,0,0,0,0,0,0,0,0,0,0,0,0,0,,,,,,,,,,,,,
2404144,1745471001119,0.0,41,,-0.3,0.01,0.95,1,-1,-0,1.0,1.12,90,4627,0.0,2.43,,11.02,1.252,86.2,,33.8,5,,,,,,,,,,,,0,0,0,0,0,0,0,0,0,0,0,0,0,0,0,0,,,,,,0.0,,,,,,,
2404164,1745471001139,,,,,,,,,,,,,,,,,,,,,,,,,,,,,,,,,,0,0,0,0,0,0,0,0,0,0,0,0,0,0,0,0,,,,,,,,,,,,,
2404184,1745471001159,0.0,68,,-0.31,0.06,0.97,1,-1,-0,1.02,1.12,91,4858,0.0,2.18,,11.02,1.252,86.2,,37.7,5,21,0,21,21,0.0,214.0,0.0,0.0,2.27,,,0,0,0,0,0,0,0,0,0,0,0,0,0,0,0,0,,0,,,,0.0,38.99435,-76.938644,33.41,26.4,34,3,0.8
2404204,1745471001179,,,,,,,,,,,,,,,,,,,,,,,,,,,,,,,,,,0,0,0,0,0,0,0,0,0,0,0,0,0,0,0,0,,,,,,,,,,,,,
2404224,1745471001211,0.0,47,,-0.27,0.0,0.93,1,-1,0,0.96,1.12,86,4858,0.0,2.18,,10.84,1.25,86.2,,37.7,5,,,,,,,,,,,,0,0,0,0,0,0,0,0,0,0,0,0,0,0,0,0,,,,,,0.0,,,,,,,
2404244,1745471001231,,,,,,,,,,,,,,,,,,,,,,,,,,,,,,,,,,0,0,0,0,0,0,0,0,0,0,0,0,0,0,0,0,,,,,,,,,,,,,
2404264,1745471001251,0.0,57,,-0.28,0.14,1.02,2,-1,0,1.06,1.12,95,4781,0.0,1.9,,10.66,1.249,86.2,,38.1,5,,,,,,,,,,,,0,0,0,0,0,0,0,0,0,0,0,0,0,0,0,0,,,,,,0.0,,,,,,,
2404284,1745471001271,,,,,,,,,,,,,,,,,,,,,,,20,0,20,19,0.0,253.0,0.0,0.0,2.28,,,0,0,0,0,0,0,0,0,0,0,0,0,0,0,0,0,,2,,,,,38.994358,-76.938644,32.3,26.4,34,3,0.8
2404304,1745471001291,0.0,57,,-0.3,0.17,1.07,1,-0,1,1.13,1.13,100,4669,0.0,1.83,,10.61,1.25,86.2,,38.1,5,,,,,,,,,,,,0,0,0,0,0,0,0,0,0,0,0,0,0,0,0,0,,,,,,0.0,,,,,,,
2404324,1745471001310,,,,,,,,,,,,,,,,,,,,,,,,,,,,,,,,,,0,0,0,0,0,0,0,0,0,0,0,0,0,0,0,0,,,,,,,,,,,,,
2404344,1745471001330,0.0,54,,-0.31,0.1,1.07,-1,-1,1,1.12,1.13,99,4598,0.0,1.83,,10.49,1.249,86.2,,38.1,5,,,,,,,,,,,,0,0,0,0,0,0,0,0,0,0,0,0,0,0,0,0,,,,,,0.0,,,,,,,
2404364,1745471001350,,,,,,,,,,,,,,,,,,,,,,,,,,,,,,,,,,0,0,0,0,0,0,0,0,0,0,0,0,0,0,0,0,,,,,,,,,,,,,
2404384,1745471001370,0.0,44,13.71,-0.28,-0.06,0.97,-3,-1,0,1.01,1.13,89,4587,0.0,1.82,15,10.49,1.249,86.2,178,37.1,5,19,0,19,19,0.0,21.0,0.0,0.0,2.29,0,1.0,0,0,0,0,0,0,0,0,0,0,0,0,0,0,0,0,0,2,1.0,0,-0,0.0,38.994366,-76.938644,30.62,26.4,34,3,0.8
2404404,1745471001390,,,,,,,,,,,,,,,,,,,,,,,,,,,,,,,,,,0,0,0,0,0,0,0,0,0,0,0,0,0,0,0,0,,,,,,,,,,,,,
2404424,1745471001412,0.0,44,,-0.25,-0.12,0.89,-4,-0,0,0.93,1.13,82,4587,0.0,1.82,,10.52,1.25,86.2,,37.1,5,,,,,,,,,,,,0,0,0,0,0,0,0,0,0,0,0,0,0,0,0,0,,,,,,0.0,,,,,,,
2404444,1745471001432,,,,,,,,,,,,,,,,,,,,,,,,,,,,,,,,,,0,0,0,0,0,0,0,0,0,0,0,0,0,0,0,0,,,,,,,,,,,,,
2404464,1745471001452,0.0,41,,-0.24,-0.18,0.8,-5,0,-0,0.86,1.13,76,4495,0.0,1.82,,10.49,1.251,86.2,,35.9,5,,,,,,,,,,,,0,0,0,0,0,0,0,0,0,0,0,0,0,0,0,0,,,,,,0.0,,,,,,,
2404484,1745471001472,,,,,,,,,,,,,,,,,,,,,,,19,0,19,19,0.0,0.0,0.0,0.0,2.28,,,0,0,0,0,0,0,0,0,0,0,0,0,0,0,0,0,,2,,,,,38.994373,-76.938644,30.14,26.4,34,3,0.8
2404504,1745471001492,0.0,44,,-0.22,-0.28,0.76,-6,0,-1,0.84,1.13,75,4445,0.0,1.82,,10.5,1.251,86.2,,35.9,5,,,,,,,,,,,,0,0,0,0,0,0,0,0,0,0,0,0,0,0,0,0,,,,,,0.0,,,,,,,
2404524,1745471001510,,,,,,,,,,,,,,,,,,,,,,,,,,,,,,,,,,0,0,0,0,0,0,0,0,0,0,0,0,0,0,0,0,,,,,,,,,,,,,
2404544,1745471001530,0.0,41,,-0.2,-0.35,0.79,-8,-0,-0,0.88,0.88,100,4394,0.0,1.82,,10.46,1.252,86.2,,35.9,5,,,,,,,,,,,,0,0,0,0,0,0,0,0,0,0,0,0,0,0,0,0,,,,,,0.0,,,,,,,
2404564,1745471001550,,,,,,,,,,,,,,,,,,,,,,,,,,,,,,,,,,0,0,0,0,0,0,0,0,0,0,0,0,0,0,0,0,,,,,,,,,,,,,
2404584,1745471001570,0.0,135,,-0.23,-0.26,0.91,-7,-1,-0,0.97,0.97,100,4295,0.0,1.83,,10.46,1.252,86.2,,34.8,5,19,0,18,19,0.0,14.0,0.0,0.0,2.27,,,0,0,0,0,0,0,0,0,0,0,0,0,0,0,0,0,,2,,,,0.0,38.994381,-76.938644,29.09,26.4,34,3,0.8
2404604,1745471001590,,,,,,,,,,,,,,,,,,,,,,,,,,,,,,,,,,0,0,0,0,0,0,0,0,0,0,0,0,0,0,0,0,,,,,,,,,,,,,
2404624,1745471001612,0.0,57,,-0.24,-0.17,0.91,-5,-1,0,0.96,0.97,98,4295,0.0,1.83,,10.48,1.252,86.2,,34.8,5,,,,,,,,,,,,0,0,0,0,0,0,0,0,0,0,0,0,0,0,0,0,,,,,,0.0,,,,,,,
2404644,1745471001632,,,,,,,,,,,,,,,,,,,,,,,,,,,,,,,,,,0,0,0,0,0,0,0,0,0,0,0,0,0,0,0,0,,,,,,,,,,,,,
2404664,1745471001652,0.0,51,,-0.23,-0.2,0.83,-7,-1,-0,0.89,0.97,91,4263,0.0,1.85,,10.53,1.253,86.2,,33.6,5,,,,,,,,,,,,0,0,0,0,0,0,0,0,0,0,0,0,0,0,0,0,,,,,,0.0,,,,,,,
2404684,1745471001672,,,,,,,,,,,,,,,,,,,,,,,19,0,18,18,0.0,245.0,0.0,0.0,2.27,,,0,0,0,0,0,0,0,0,0,0,0,0,0,0,0,0,,2,,,,,38.994389,-76.938644,29.01,26.4,34,3,0.8
2404704,1745471001692,0.0,41,,-0.23,-0.12,0.9,-7,-1,0,0.94,0.97,97,4228,0.2,1.89,,10.52,1.252,86.2,,33.6,5,,,,,,,,,,,,0,0,0,0,0,0,0,0,0,0,0,0,0,0,0,0,,,,,,0.0,,,,,,,
2404724,1745471001712,,,,,,,,,,,,,,,,,,,,,,,,,,,,,,,,,,0,0,0,0,0,0,0,0,0,0,0,0,0,0,0,0,,,,,,,,,,,,,
2404744,1745471001732,0.0,34,,-0.23,-0.08,0.88,-5,-1,0,0.92,0.97,94,4139,0.0,1.86,,10.52,1.25,86.2,,33.6,5,,,,,,,,,,,,0,0,0,0,0,0,0,0,0,0,0,0,0,0,0,0,,,,,,0.0,,,,,,,
2404764,1745471001752,,,,,,,,,,,,,,,,,,,,,,,,,,,,,,,,,,0,0,0,0,0,0,0,0,0,0,0,0,0,0,0,0,,,,,,,,,,,,,
2404784,1745471001772,0.0,27,,-0.23,-0.06,0.96,-5,-0,0,0.99,0.99,100,4073,0.0,1.86,,10.52,1.25,86.2,,32.7,5,18,0,17,18,0.0,252.0,0.0,0.0,2.28,,,0,0,0,0,0,0,0,0,0,0,0,0,0,0,0,0,,2,,,,0.0,38.994392,-76.938637,28.12,26.5,34,3,0.8
2404804,1745471001792,,,,,,,,,,,,,,,,,,,,,,,,,,,,,,,,,,0,0,0,0,0,0,0,0,0,0,0,0,0,0,0,0,,,,,,,,,,,,,
2404824,1745471001812,0.0,37,,-0.23,-0.09,0.9,-6,-1,-0,0.93,0.99,94,4073,0.0,1.86,,10.54,1.249,86.2,,32.7,5,,,,,,,,,,,,0,0,0,0,0,0,0,0,0,0,0,0,0,0,0,0,,,,,,0.0,,,,,,,
2404844,1745471001832,,,,,,,,,,,,,,,,,,,,,,,,,,,,,,,,,,0,0,0,0,0,0,0,0,0,0,0,0,0,0,0,0,,,,,,,,,,,,,
2404864,1745471001852,0.0,34,,-0.23,-0.02,0.95,-3,-1,0,0.97,0.99,98,4049,0.0,1.87,,10.57,1.25,86.2,,32.3,5,,,,,,,,,,,,0,0,0,0,0,0,0,0,0,0,0,0,0,0,0,0,,,,,,0.0,,,,,,,
2404884,1745471001872,,,,,,,,,,,,,,,,,,,,,,,17,0,17,17,0.0,225.0,0.0,0.0,2.29,,,0,0,0,0,0,0,0,0,0,0,0,0,0,0,0,0,,2,,,,,38.994404,-76.938637,27.35,26.5,34,3,0.8
2404904,1745471001892,0.0,51,,-0.22,-0.0,0.95,-4,-0,0,0.98,0.99,98,3984,0.0,1.88,,10.65,1.252,86.2,,32.3,5,,,,,,,,,,,,0,0,0,0,0,0,0,0,0,0,0,0,0,0,0,0,,,,,,0.0,,,,,,,
2404924,1745471001913,,,,,,,,,,,,,,,,,,,,,,,,,,,,,,,,,,0,0,0,0,0,0,0,0,0,0,0,0,0,0,0,0,,,,,,,,,,,,,
2404944,1745471001933,0.0,41,,-0.22,-0.07,0.91,-5,-0,0,0.94,0.99,95,3912,0.0,1.9,,10.73,1.25,86.2,,32.3,5,,,,,,,,,,,,0,0,0,0,0,0,0,0,0,0,0,0,0,0,0,0,,,,,,0.0,,,,,,,
2404964,1745471001953,,,,,,,,,,,,,,,,,,,,,,,,,,,,,,,,,,0,0,0,0,0,0,0,0,0,0,0,0,0,0,0,0,,,,,,,,,,,,,
2404984,1745471001973,0.0,34,,-0.22,-0.06,0.93,-3,-1,-0,0.96,0.99,96,3864,0.0,2.11,,10.73,1.25,86.2,,30.5,5,16,0,16,16,0.0,240.0,0.0,0.0,2.29,,,0,0,0,0,0,0,0,0,0,0,0,0,0,0,0,0,,2,,,,0.0,38.994411,-76.938637,26.52,26.5,34,3,0.8
2405004,1745471001993,,,,,,,,,,,,,,,,,,,,,,,,,,,,,,,,,,0,0,0,0,0,0,0,0,0,0,0,0,0,0,0,0,,,,,,,,,,,,,
2405024,1745471002004,0.0,41,,-0.24,-0.03,0.93,-2,-0,-0,0.96,0.99,96,3864,0.0,2.11,,10.84,1.251,86.2,,30.5,5,,,,,,,,,,,,0,0,0,0,0,0,0,0,0,0,0,0,0,0,0,0,,,,,,0.0,,,,,,,
2405044,1745471002024,,,,,,,,,,,,,,,,,,,,,,,,,,,,,,,,,,0,0,0,0,0,0,0,0,0,0,0,0,0,0,0,0,,,,,,,,,,,,,
2405064,1745471002044,0.0,37,,-0.25,0.03,0.94,-1,-0,-0,0.97,0.99,98,3793,77.4,5.45,,14.55,1.252,86.2,,29.3,5,,,,,,,,,,,,0,0,0,0,0,0,0,0,0,0,0,0,0,0,0,0,,,,,,0.0,,,,,,,
2405084,1745471002064,,,,,,,,,,,,,,,,,,,,,,,17,0,16,15,0.0,227.0,0.0,0.0,2.27,,,0,0,0,0,0,0,0,0,0,0,0,0,0,0,0,0,,2,,,,,38.994415,-76.938637,25.8,26.5,34,3,0.8
2405104,1745471002084,0.0,34,,-0.24,0.06,1.0,-1,0,0,1.03,1.03,100,3874,99.4,4.8,,14.58,1.253,86.2,,29.3,5,,,,,,,,,,,,0,0,0,0,0,0,0,0,0,0,0,0,0,0,0,0,,,,,,0.0,,,,,,,
2405124,1745471002112,,,,,,,,,,,,,,,,,,,,,,,,,,,,,,,,,,0,0,0,0,0,0,0,0,0,0,0,0,0,0,0,0,,,,,,,,,,,,,
2405144,1745471002132,0.0,27,,-0.24,-0.02,0.92,-4,-0,-0,0.95,1.03,92,4222,79.6,4.47,,14.59,1.254,86.2,,29.3,5,,,,,,,,,,,,0,0,0,0,0,0,0,0,0,0,0,0,0,0,0,0,,,,,,0.0,,,,,,,
2405164,1745471002152,,,,,,,,,,,,,,,,,,,,,,,,,,,,,,,,,,0,0,0,0,0,0,0,0,0,0,0,0,0,0,0,0,,,,,,,,,,,,,
2405184,1745471002172,0.0,24,,-0.21,-0.09,0.91,-4,-0,0,0.94,1.03,91,4405,11.0,4.26,,14.59,1.254,86.2,,33.0,5,15,0,16,16,0.0,0.0,0.0,0.0,2.27,,,0,0,0,0,0,0,0,0,0,0,0,0,0,0,0,0,,0,,,,0.0,38.994423,-76.938637,25.09,26.5,34,3,0.8
2405204,1745471002192,,,,,,,,,,,,,,,,,,,,,,,,,,,,,,,,,,0,0,0,0,0,0,0,0,0,0,0,0,0,0,0,0,,,,,,,,,,,,,
2405224,1745471002211,0.0,41,,-0.11,-0.05,0.95,-3,0,0,0.95,1.03,92,4405,11.0,4.26,,13.83,1.252,86.2,,33.0,5,,,,,,,,,,,,0,0,0,0,0,0,0,0,0,0,0,0,0,0,0,0,,,,,,0.0,,,,,,,
2405244,1745471002231,,,,,,,,,,,,,,,,,,,,,,,,,,,,,,,,,,0,0,0,0,0,0,0,0,0,0,0,0,0,0,0,0,,,,,,,,,,,,,
2405264,1745471002251,0.0,47,,-0.11,-0.05,0.93,-2,0,-0,0.93,1.03,90,3704,0.4,2.67,,12.79,1.251,86.2,,28.4,5,,,,,,,,,,,,0,0,0,0,0,0,0,0,0,0,0,0,0,0,0,0,,,,,,0.0,,,,,,,
2405284,1745471002271,,,,,,,,,,,,,,,,,,,,,,,16,0,16,16,0.0,248.0,0.0,0.0,2.27,,,0,0,0,0,0,0,0,0,0,0,0,0,0,0,0,0,,2,,,,,38.994431,-76.938637,24.58,26.5,34,3,0.8
2405304,1745471002291,0.0,47,,-0.09,-0.06,0.99,-5,-1,0,1.0,1.03,97,3412,0.0,2.65,,12.57,1.25,86.2,,28.4,5,,,,,,,,,,,,0,0,0,0,0,0,0,0,0,0,0,0,0,0,0,0,,,,,,0.0,,,,,,,
2405324,1745471002311,,,,,,,,,,,,,,,,,,,,,,,,,,,,,,,,,,0,0,0,0,0,0,0,0,0,0,0,0,0,0,0,0,,,,,,,,,,,,,
2405344,1745471002331,0.0,27,,-0.14,-0.06,0.98,-3,-1,-0,1.0,1.03,96,3314,0.0,2.64,,12.47,1.249,86.2,,28.4,5,,,,,,,,,,,,0,0,0,0,0,0,0,0,0,0,0,0,0,0,0,0,,,,,,0.0,,,,,,,
2405364,1745471002351,,,,,,,,,,,,,,,,,,,,,,,,,,,,,,,,,,0,0,0,0,0,0,0,0,0,0,0,0,0,0,0,0,,,,,,,,,,,,,
2405384,1745471002371,0.0,13,13.71,-0.13,-0.08,1.01,-4,-2,0,1.02,1.03,99,3488,0.0,2.63,15,12.47,1.249,86.2,180,25.9,5,16,0,16,15,0.0,235.0,0.0,0.0,2.29,0,1.0,0,0,0,0,0,0,0,0,0,0,0,0,0,0,0,0,0,0,1.0,0,-0,0.0,38.994434,-76.938637,25.18,26.5,34,3,0.8
2405404,1745471002391,,,,,,,,,,,,,,,,,,,,,,,,,,,,,,,,,,0,0,0,0,0,0,0,0,0,0,0,0,0,0,0,0,,,,,,,,,,,,,
2405424,1745471002413,0.0,37,,-0.14,-0.1,0.99,-3,-1,-0,1.0,1.03,97,3488,0.0,2.63,,12.27,1.249,86.2,,25.9,5,,,,,,,,,,,,0,0,0,0,0,0,0,0,0,0,0,0,0,0,0,0,,,,,,0.0,,,,,,,
2405444,1745471002433,,,,,,,,,,,,,,,,,,,,,,,,,,,,,,,,,,0,0,0,0,0,0,0,0,0,0,0,0,0,0,0,0,,,,,,,,,,,,,
2405464,1745471002453,0.0,34,,-0.15,-0.07,0.99,-3,-1,0,1.0,1.03,97,3809,0.0,2.56,,12.08,1.25,86.2,,29.9,5,,,,,,,,,,,,0,0,0,0,0,0,0,0,0,0,0,0,0,0,0,0,,,,,,0.0,,,,,,,
2405484,1745471002473,,,,,,,,,,,,,,,,,,,,,,,15,0,14,14,0.0,239.0,0.0,0.0,2.29,,,0,0,0,0,0,0,0,0,0,0,0,0,0,0,0,0,,0,,,,,38.994442,-76.938637,25.27,26.5,34,3,0.8
2405504,1745471002493,0.0,27,,-0.14,-0.02,0.97,-2,-1,0,0.98,1.03,95,3737,0.0,2.54,,11.89,1.25,86.2,,29.9,5,,,,,,,,,,,,0,0,0,0,0,0,0,0,0,0,0,0,0,0,0,0,,,,,,0.0,,,,,,,
2405524,1745471002511,,,,,,,,,,,,,,,,,,,,,,,,,,,,,,,,,,0,0,0,0,0,0,0,0,0,0,0,0,0,0,0,0,,,,,,,,,,,,,
2405544,1745471002531,0.0,41,,-0.16,0.03,0.92,-0,-2,-0,0.93,1.03,90,3581,0.0,2.56,,11.84,1.252,86.2,,29.9,5,,,,,,,,,,,,0,0,0,0,0,0,0,0,0,0,0,0,0,0,0,0,,,,,,0.0,,,,,,,
2405564,1745471002551,,,,,,,,,,,,,,,,,,,,,,,,,,,,,,,,,,0,0,0,0,0,0,0,0,0,0,0,0,0,0,0,0,,,,,,,,,,,,,
2405584,1745471002571,0.0,41,,-0.18,-0.0,0.95,-2,-1,0,0.97,1.03,94,3528,0.0,2.56,,11.84,1.252,86.2,,27.8,5,15,0,15,15,0.0,252.0,0.0,0.0,2.28,,,0,0,0,0,0,0,0,0,0,0,0,0,0,0,0,0,,2,,,,0.0,38.99445,-76.938637,24.12,26.5,34,3,0.8
2405604,1745471002591,,,,,,,,,,,,,,,,,,,,,,,,,,,,,,,,,,0,0,0,0,0,0,0,0,0,0,0,0,0,0,0,0,,,,,,,,,,,,,
2405624,1745471002611,0.0,44,,-0.17,-0.05,0.99,-3,-1,0,1.0,1.03,97,3528,0.0,2.56,,11.87,1.253,86.2,,27.8,5,,,,,,,,,,,,0,0,0,0,0,0,0,0,0,0,0,0,0,0,0,0,,,,,,0.0,,,,,,,
2405644,1745471002631,,,,,,,,,,,,,,,,,,,,,,,,,,,,,,,,,,0,0,0,0,0,0,0,0,0,0,0,0,0,0,0,0,,,,,,,,,,,,,
2405664,1745471002651,0.0,13,,-0.17,0.09,0.97,-0,-1,0,0.99,1.03,96,3578,0.0,2.57,,11.91,1.253,86.2,,28.1,5,,,,,,,,,,,,0,0,0,0,0,0,0,0,0,0,0,0,0,0,0,0,,,,,,0.0,,,,,,,
2405684,1745471002671,,,,,,,,,,,,,,,,,,,,,,,16,0,14,14,0.0,14.0,0.0,0.0,2.27,,,0,0,0,0,0,0,0,0,0,0,0,0,0,0,0,0,,0,,,,,38.994453,-76.938637,23.94,26.5,34,3,0.8
2405704,1745471002691,0.0,37,,-0.17,0.17,0.93,2,-1,0,0.96,1.03,93,3537,0.0,2.56,,11.92,1.252,86.2,,28.1,5,,,,,,,,,,,,0,0,0,0,0,0,0,0,0,0,0,0,0,0,0,0,,,,,,0.0,,,,,,,
2405724,1745471002712,,,,,,,,,,,,,,,,,,,,,,,,,,,,,,,,,,0,0,0,0,0,0,0,0,0,0,0,0,0,0,0,0,,,,,,,,,,,,,
2405744,1745471002732,0.0,20,,-0.19,0.12,0.99,-0,-1,0,1.02,1.03,98,3490,0.0,2.58,,11.91,1.251,86.2,,28.1,5,,,,,,,,,,,,0,0,0,0,0,0,0,0,0,0,0,0,0,0,0,0,,,,,,0.0,,,,,,,
2405764,1745471002752,,,,,,,,,,,,,,,,,,,,,,,,,,,,,,,,,,0,0,0,0,0,0,0,0,0,0,0,0,0,0,0,0,,,,,,,,,,,,,
2405784,1745471002772,0.0,17,,-0.16,0.21,0.97,2,-0,0,1.01,1.03,98,3405,0.0,2.59,,11.91,1.251,86.2,,27.3,5,15,0,15,14,0.0,224.0,0.0,0.0,2.27,,,0,0,0,0,0,0,0,0,0,0,0,0,0,0,0,0,,2,,,,0.0,38.994457,-76.938637,23.2,26.5,34,3,0.8
2405804,1745471002792,,,,,,,,,,,,,,,,,,,,,,,,,,,,,,,,,,0,0,0,0,0,0,0,0,0,0,0,0,0,0,0,0,,,,,,,,,,,,,
2405824,1745471002811,0.0,27,,-0.21,0.2,0.97,2,0,-0,1.02,1.03,98,3405,0.0,2.59,,11.91,1.25,86.2,,27.3,5,,,,,,,,,,,,0,0,0,0,0,0,0,0,0,0,0,0,0,0,0,0,,,,,,0.0,,,,,,,
2405844,1745471002831,,,,,,,,,,,,,,,,,,,,,,,,,,,,,,,,,,0,0,0,0,0,0,0,0,0,0,0,0,0,0,0,0,,,,,,,,,,,,,
2405864,1745471002851,0.0,20,,-0.16,0.15,1.03,3,0,0,1.06,1.06,100,3443,0.0,2.59,,11.97,1.25,86.2,,27.3,5,,,,,,,,,,,,0,0,0,0,0,0,0,0,0,0,0,0,0,0,0,0,,,,,,0.0,,,,,,,
2405884,1745471002871,,,,,,,,,,,,,,,,,,,,,,,14,0,14,14,0.0,233.0,0.0,0.0,2.28,,,0,0,0,0,0,0,0,0,0,0,0,0,0,0,0,0,,2,,,,,38.994465,-76.938637,22.85,26.5,34,3,0.8
2405904,1745471002891,0.0,41,,-0.2,0.18,0.95,5,-0,-0,0.99,1.06,94,3390,0.0,2.59,,12.01,1.25,86.2,,26.7,5,,,,,,,,,,,,0,0,0,0,0,0,0,0,0,0,0,0,0,0,0,0,,,,,,0.0,,,,,,,
2405924,1745471002913,,,,,,,,,,,,,,,,,,,,,,,,,,,,,,,,,,0,0,0,0,0,0,0,0,0,0,0,0,0,0,0,0,,,,,,,,,,,,,
2405944,1745471002933,0.0,24,,-0.17,0.2,1.0,4,-1,0,1.03,1.03,100,3333,0.0,2.6,,12.05,1.251,86.2,,26.7,5,,,,,,,,,,,,0,0,0,0,0,0,0,0,0,0,0,0,0,0,0,0,,,,,,0.0,,,,,,,
2405964,1745471002953,,,,,,,,,,,,,,,,,,,,,,,,,,,,,,,,,,0,0,0,0,0,0,0,0,0,0,0,0,0,0,0,0,,,,,,,,,,,,,
2405984,1745471002973,0.0,13,,-0.21,0.12,0.98,5,-0,-0,1.01,1.03,98,3291,0.0,2.61,,12.05,1.251,86.2,,25.7,5,14,0,14,14,0.0,209.0,0.0,0.0,2.29,,,0,0,0,0,0,0,0,0,0,0,0,0,0,0,0,0,,2,,,,0.0,38.994472,-76.938637,22.21,26.5,34,3,0.8
2406004,1745471002993,,,,,,,,,,,,,,,,,,,,,,,,,,,,,,,,,,0,0,0,0,0,0,0,0,0,0,0,0,0,0,0,0,,,,,,,,,,,,,
2406024,1745471003003,0.0,17,,-0.17,0.2,0.95,8,-0,-0,0.98,1.03,95,3291,0.0,2.61,,12.11,1.251,86.2,,25.7,5,,,,,,,,,,,,0,0,0,0,0,0,0,0,0,0,0,0,0,0,0,0,,,,,,0.0,,,,,,,
2406044,1745471003023,,,,,,,,,,,,,,,,,,,,,,,,,,,,,,,,,,0,0,0,0,0,0,0,0,0,0,0,0,0,0,0,0,,,,,,,,,,,,,
2406064,1745471003043,0.0,3,,-0.18,0.13,1.01,5,-1,-0,1.03,1.03,100,3261,0.0,2.61,,12.09,1.252,86.2,,25.7,5,,,,,,,,,,,,0,0,0,0,0,0,0,0,0,0,0,0,0,0,0,0,,,,,,0.0,,,,,,,
2406084,1745471003063,,,,,,,,,,,,,,,,,,,,,,,14,0,14,13,0.0,208.0,0.0,0.0,2.28,,,0,0,0,0,0,0,0,0,0,0,0,0,0,0,0,0,,2,,,,,38.994476,-76.938637,22.0,26.5,34,3,0.8
2406104,1745471003083,0.0,20,,-0.23,0.14,0.99,8,-1,-1,1.03,1.03,99,3257,0.0,2.63,,12.21,1.253,86.2,,25.2,5,,,,,,,,,,,,0,0,0,0,0,0,0,0,0,0,0,0,0,0,0,0,,,,,,0.0,,,,,,,
2406124,1745471003111,,,,,,,,,,,,,,,,,,,,,,,,,,,,,,,,,,0,0,0,0,0,0,0,0,0,0,0,0,0,0,0,0,,,,,,,,,,,,,
