"Interval"|"ms"|0|0|1,"Utc"|"ms"|0|0|1,"FrontBP"|"psi"|-5.0|5.0|25,"SteerAng"|"Degrees"|-145|145|25,"Battery"|"Volts"|-5.0|20.0|1,"AccelX"|"G"|-3.0|3.0|25,"AccelY"|"G"|-3.0|3.0|25,"AccelZ"|"G"|-3.0|3.0|25,"Yaw"|"Deg/Sec"|-120|120|25,"Pitch"|"Deg/Sec"|-120|120|25,"Roll"|"Deg/Sec"|-120|120|25,"Gsum"|"G"|0.0|3.0|25,"GsumMax"|"G"|0.0|3.0|25,"GsumPct"|"%"|0|100|25,"RPM"|""|0|10000|25,"TPS"|"%"|0.0|100.0|25,"InjectorPW"|"ms"|0.0|100.0|25,"Baro"|"kPa"|0|105|1,"MAP"|"Psi"|0.0|255.0|25,"Lambda"|""|-2.0|2.0|25,"IAT"|"C"|0.0|200.0|25,"EngineTemp"|"C"|0|200|1,"EOP"|"PSI"|0.0|152.0|25,"EOT"|"F"|0|250|25,"WSFR"|"MPH"|0|150|10,"WSFL"|"MPH"|0|100|10,"WSRR"|"MPH"|0|100|10,"WSRL"|""|0|100|10,"TCSet"|"%"|0.0|100.0|10,"TCSlip"|"%"|0.0|100.0|10,"TCComp"|"deg"|0.0|50.0|10,"TCCut"|"%"|0.0|100.0|10,"Analog8"|""|0.0|5.0|10,"OilTemp"|"F"|0|300|1,"AA_On"|""|0.0|1.0|1,"ThermLF1"|"C"|0|400|50,"ThermLF2"|"C"|0|400|50,"ThermRR1"|"C"|0|400|50,"ThermRR2"|"C"|0|400|50,"ThermLF3"|"C"|0|400|50,"ThermLF4"|"C"|0|400|50,"ThermLF5"|"C"|0|400|50,"ThermLF6"|"C"|0|400|50,"ThermLF7"|"C"|0|400|50,"ThermLF8"|"C"|0|400|50,"ThermRR3"|"C"|0|400|50,"ThermRR4"|"C"|0|400|50,"ThermRR5"|"C"|0|400|50,"ThermRR6"|"C"|0|400|50,"ThermRR7"|"C"|0|400|50,"ThermRR8"|"C"|0|400|50,"AA_LowDrag"|""|0|1|1,"Gear"|""|1|6|10,"AA_On"|""|0.0|1.0|1,"AA_LowDrag"|""|0|1|1,"Fuel_Mix"|""|-10|10|1,"AA_Packages"|""|0.0|1000.0|25,"Latitude"|"Degrees"|-180.0|180.0|10,"Longitude"|"Degrees"|-180.0|180.0|10,"Speed"|"kph"|0.0|150.0|10,"Altitude"|"m"|0.0|4000.0|10,"GPSSats"|""|0|20|10,"GPSQual"|""|0|5|10,"GPSDOP"|""|0.0|20.0|10
2920904,1745471517896,0.0,-82,,-0.03,0.01,1.15,0,-0,-0,1.15,1.15,100,7486,1.4,1.4,,11.12,1.102,86.2,,50.0,5,,,,,,,,,,,,0,0,0,0,0,0,0,0,0,0,0,0,0,0,0,0,,,,,,0.0,,,,,,,
2920924,1745471517916,,,,,,,,,,,,,,,,,,,,,,,,,,,,,,,,,,0,0,0,0,0,0,0,0,0,0,0,0,0,0,0,0,,,,,,,,,,,,,
2920944,1745471517936,0.0,-102,,-0.03,-0.04,1.14,-0,-0,-0,1.14,1.15,99,7486,1.4,1.4,,9.58,1.069,86.2,,52.8,5,,,,,,,,,,,,0,0,0,0,0,0,0,0,0,0,0,0,0,0,0,0,,,,,,0.0,,,,,,,
2920964,1745471517956,,,,,,,,,,,,,,,,,,,,,,,,,,,,,,,,,,0,0,0,0,0,0,0,0,0,0,0,0,0,0,0,0,,,,,,,,,,,,,
2920984,1745471517976,0.0,-82,,-0.07,-0.1,1.12,-1,-0,0,1.12,1.15,98,7362,1.3,1.4,,8.45,0.986,86.2,,52.8,5,0,0,0,0,0.0,0.0,0.0,0.0,2.29,,,0,0,0,0,0,0,0,0,0,0,0,0,0,0,0,0,,0,,,,0.0,38.993835,-76.938782,0.0,25.4,33,3,0.8
2921004,1745471517996,,,,,,,,,,,,,,,,,,,,,,,,,,,,,,,,,,0,0,0,0,0,0,0,0,0,0,0,0,0,0,0,0,,,,,,,,,,,,,
2921024,1745471518004,0.0,-68,,-0.06,-0.06,1.08,-0,-0,-0,1.08,1.15,94,6982,1.1,1.4,,7.79,0.956,86.2,,52.8,5,,,,,,,,,,,,0,0,0,0,0,0,0,0,0,0,0,0,0,0,0,0,,,,,,0.0,,,,,,,
2921044,1745471518024,,,,,,,,,,,,,,,,,,,,,,,,,,,,,,,,,,0,0,0,0,0,0,0,0,0,0,0,0,0,0,0,0,,,,,,,,,,,,,
2921064,1745471518044,0.0,-78,,-0.06,-0.04,1.04,-0,-0,-0,1.05,1.15,91,6644,1.1,1.4,,7.74,1.068,86.2,,52.0,5,,,,,,,,,,,,0,0,0,0,0,0,0,0,0,0,0,0,0,0,0,0,,,,,,0.0,,,,,,,
2921084,1745471518064,,,,,,,,,,,,,,,,,,,,,,,0,0,0,0,0.0,0.0,0.0,0.0,2.29,,,0,0,0,0,0,0,0,0,0,0,0,0,0,0,0,0,,0,,,,,38.993835,-76.938782,0.04,25.4,33,3,0.8
2921104,1745471518084,0.0,-61,,-0.03,-0.06,1.05,-0,-0,-0,1.06,1.15,92,6644,1.1,1.4,,7.74,1.068,84.4,,52.0,5,,,,,,,,,,,,0,0,0,0,0,0,0,0,0,0,0,0,0,0,0,0,,,,,,0.0,,,,,,,
2921124,1745471518104,,,,,,,,,,,,,,,,,,,,,,,,,,,,,,,,,,0,0,0,0,0,0,0,0,0,0,0,0,0,0,0,0,,,,,,,,,,,,,
2921144,1745471518124,0.0,-78,,-0.05,0.05,1.14,1,-0,-0,1.14,1.15,99,6247,16.5,2.93,,9.17,1.247,84.4,,51.3,5,,,,,,,,,,,,0,0,0,0,0,0,0,0,0,0,0,0,0,0,0,0,,,,,,0.0,,,,,,,
2921164,1745471518144,,,,,,,,,,,,,,,,,,,,,,,,,,,,,,,,,,0,0,0,0,0,0,0,0,0,0,0,0,0,0,0,0,,,,,,,,,,,,,
2921184,1745471518164,0.0,-85,,-0.07,0.06,1.12,1,-0,0,1.13,1.15,98,6201,24.4,3.66,,11.0,1.252,84.4,,51.3,5,0,0,0,0,0.0,0.0,0.0,0.0,2.3,,,0,0,0,0,0,0,0,0,0,0,0,0,0,0,0,0,,0,,,,0.0,38.993835,-76.938782,0.04,25.4,33,3,0.8
2921204,1745471518184,,,,,,,,,,,,,,,,,,,,,,,,,,,,,,,,,,0,0,0,0,0,0,0,0,0,0,0,0,0,0,0,0,,,,,,,,,,,,,
2921224,1745471518214,0.0,-71,,-0.07,0.03,1.11,0,-0,0,1.11,1.15,96,6342,27.1,5.02,,12.05,1.252,84.4,,51.3,5,,,,,,,,,,,,0,0,0,0,0,0,0,0,0,0,0,0,0,0,0,0,,,,,,0.0,,,,,,,
2921244,1745471518234,,,,,,,,,,,,,,,,,,,,,,,,,,,,,,,,,,0,0,0,0,0,0,0,0,0,0,0,0,0,0,0,0,,,,,,,,,,,,,
2921264,1745471518254,0.0,-92,,-0.08,0.03,1.09,0,-0,0,1.09,1.15,95,6915,25.0,5.2,,12.29,1.252,84.4,,51.1,5,,,,,,,,,,,,0,0,0,0,0,0,0,0,0,0,0,0,0,0,0,0,,,,,,0.0,,,,,,,
2921284,1745471518274,,,,,,,,,,,,,,,,,,,,,,,0,0,0,0,0.0,0.0,0.0,0.0,2.29,,,0,0,0,0,0,0,0,0,0,0,0,0,0,0,0,0,,0,,,,,38.993835,-76.938782,0.05,25.4,33,3,0.8
2921304,1745471518294,0.0,-71,,-0.05,0.18,1.06,1,-0,-0,1.08,1.15,94,7480,11.9,4.81,,12.29,1.252,84.4,,51.1,5,,,,,,,,,,,,0,0,0,0,0,0,0,0,0,0,0,0,0,0,0,0,,,,,,0.0,,,,,,,
2921324,1745471518314,,,,,,,,,,,,,,,,,,,,,,,,,,,,,,,,,,0,0,0,0,0,0,0,0,0,0,0,0,0,0,0,0,,,,,,,,,,,,,
2921344,1745471518334,0.0,-85,,-0.05,0.25,1.07,1,-0,0,1.1,1.15,96,7480,11.9,4.81,,10.97,1.233,84.4,,53.2,5,,,,,,,,,,,,0,0,0,0,0,0,0,0,0,0,0,0,0,0,0,0,,,,,,0.0,,,,,,,
2921364,1745471518354,,,,,,,,,,,,,,,,,,,,,,,,,,,,,,,,,,0,0,0,0,0,0,0,0,0,0,0,0,0,0,0,0,,,,,,,,,,,,,
2921384,1745471518374,0.0,-85,13.49,-0.05,0.14,1.07,1,-0,0,1.08,1.15,94,7792,6.1,3.3,15,9.66,1.043,84.4,165,53.2,5,0,0,0,0,0.0,0.0,0.0,0.0,2.29,0,1.0,0,0,0,0,0,0,0,0,0,0,0,0,0,0,0,0,0,0,1.0,0,-0,0.0,38.993835,-76.938782,0.0,25.4,33,3,0.8
2921404,1745471518394,,,,,,,,,,,,,,,,,,,,,,,,,,,,,,,,,,0,0,0,0,0,0,0,0,0,0,0,0,0,0,0,0,,,,,,,,,,,,,
2921424,1745471518414,0.0,-68,,-0.05,0.24,1.06,1,-0,0,1.09,1.15,95,8347,4.8,2.49,,8.53,0.917,84.4,,53.2,5,,,,,,,,,,,,0,0,0,0,0,0,0,0,0,0,0,0,0,0,0,0,,,,,,0.0,,,,,,,
2921444,1745471518434,,,,,,,,,,,,,,,,,,,,,,,,,,,,,,,,,,0,0,0,0,0,0,0,0,0,0,0,0,0,0,0,0,,,,,,,,,,,,,
2921464,1745471518454,0.0,-65,,-0.02,0.13,1.11,2,-0,-1,1.12,1.15,98,8902,4.6,2.18,,8.53,0.917,84.4,,53.5,5,,,,,,,,,,,,0,0,0,0,0,0,0,0,0,0,0,0,0,0,0,0,,,,,,0.0,,,,,,,
2921484,1745471518474,,,,,,,,,,,,,,,,,,,,,,,0,0,0,0,0.0,0.0,0.0,0.0,2.29,,,0,0,0,0,0,0,0,0,0,0,0,0,0,0,0,0,,0,,,,,38.993835,-76.938782,0.11,25.4,33,3,0.8
2921504,1745471518494,0.0,-82,,-0.01,0.14,1.16,2,-0,-1,1.16,1.16,100,9261,10.0,2.28,,7.61,0.901,84.4,,53.5,5,,,,,,,,,,,,0,0,0,0,0,0,0,0,0,0,0,0,0,0,0,0,,,,,,0.0,,,,,,,
2921524,1745471518516,,,,,,,,,,,,,,,,,,,,,,,,,,,,,,,,,,0,0,0,0,0,0,0,0,0,0,0,0,0,0,0,0,,,,,,,,,,,,,
2921544,1745471518536,0.0,-85,,-0.01,0.38,1.13,2,-0,-0,1.19,1.19,100,9261,10.0,2.28,,7.22,0.876,84.4,,54.0,5,,,,,,,,,,,,0,0,0,0,0,0,0,0,0,0,0,0,0,0,0,0,,,,,,0.0,,,,,,,
2921564,1745471518556,,,,,,,,,,,,,,,,,,,,,,,,,,,,,,,,,,0,0,0,0,0,0,0,0,0,0,0,0,0,0,0,0,,,,,,,,,,,,,
2921584,1745471518576,0.0,-71,,-0.05,0.38,1.13,2,-0,-0,1.19,1.19,100,9529,15.3,2.56,,7.77,0.896,84.4,,54.0,5,0,0,0,0,0.0,0.0,0.0,0.0,2.29,,,0,0,0,0,0,0,0,0,0,0,0,0,0,0,0,0,,0,,,,0.0,38.993835,-76.938782,0.04,25.4,33,3,0.8
2921604,1745471518596,,,,,,,,,,,,,,,,,,,,,,,,,,,,,,,,,,0,0,0,0,0,0,0,0,0,0,0,0,0,0,0,0,,,,,,,,,,,,,
2921624,1745471518614,0.0,-71,,-0.01,0.33,1.11,1,-0,-1,1.16,1.19,97,9960,12.0,2.27,,7.59,0.953,84.4,,54.0,5,,,,,,,,,,,,0,0,0,0,0,0,0,0,0,0,0,0,0,0,0,0,,,,,,0.0,,,,,,,
2921644,1745471518634,,,,,,,,,,,,,,,,,,,,,,,,,,,,,,,,,,0,0,0,0,0,0,0,0,0,0,0,0,0,0,0,0,,,,,,,,,,,,,
2921664,1745471518654,0.0,-78,,-0.03,0.22,1.14,0,-0,-0,1.16,1.19,97,10234,5.7,1.81,,6.74,0.985,84.4,,55.4,5,,,,,,,,,,,,0,0,0,0,0,0,0,0,0,0,0,0,0,0,0,0,,,,,,0.0,,,,,,,
2921684,1745471518674,,,,,,,,,,,,,,,,,,,,,,,0,0,0,0,0.0,0.0,0.0,0.0,2.29,,,0,0,0,0,0,0,0,0,0,0,0,0,0,0,0,0,,0,,,,,38.993835,-76.938782,0.0,25.4,33,3,0.8
2921704,1745471518694,0.0,-71,,-0.02,0.05,1.09,1,-1,-0,1.09,1.19,91,10174,1.6,1.4,,6.74,0.985,84.4,,55.4,5,,,,,,,,,,,,0,0,0,0,0,0,0,0,0,0,0,0,0,0,0,0,,,,,,0.0,,,,,,,
2921724,1745471518717,,,,,,,,,,,,,,,,,,,,,,,,,,,,,,,,,,0,0,0,0,0,0,0,0,0,0,0,0,0,0,0,0,,,,,,,,,,,,,
2921744,1745471518737,0.0,-78,,-0.02,0.05,1.07,1,-0,-0,1.07,1.19,90,10174,1.6,1.4,,5.84,0.99,84.4,,54.8,5,,,,,,,,,,,,0,0,0,0,0,0,0,0,0,0,0,0,0,0,0,0,,,,,,0.0,,,,,,,
2921764,1745471518757,,,,,,,,,,,,,,,,,,,,,,,,,,,,,,,,,,0,0,0,0,0,0,0,0,0,0,0,0,0,0,0,0,,,,,,,,,,,,,
2921784,1745471518777,0.0,-65,,-0.05,0.01,1.05,0,-0,-1,1.05,1.19,88,9727,1.5,1.4,,5.51,1.014,84.4,,54.8,5,0,0,0,0,0.0,0.0,0.0,0.0,2.29,,,0,0,0,0,0,0,0,0,0,0,0,0,0,0,0,0,,0,,,,0.0,38.993835,-76.938782,0.0,25.4,33,3,0.8
2921804,1745471518797,,,,,,,,,,,,,,,,,,,,,,,,,,,,,,,,,,0,0,0,0,0,0,0,0,0,0,0,0,0,0,0,0,,,,,,,,,,,,,
2921824,1745471518815,0.0,-68,,-0.01,0.02,1.08,2,-0,-0,1.08,1.19,90,9245,1.6,1.4,,5.22,1.111,84.4,,54.8,5,,,,,,,,,,,,0,0,0,0,0,0,0,0,0,0,0,0,0,0,0,0,,,,,,0.0,,,,,,,
2921844,1745471518835,,,,,,,,,,,,,,,,,,,,,,,,,,,,,,,,,,0,0,0,0,0,0,0,0,0,0,0,0,0,0,0,0,,,,,,,,,,,,,
2921864,1745471518855,0.0,-75,,0.01,0.1,1.11,2,-0,-0,1.11,1.19,93,8804,1.8,1.4,,5.15,1.251,84.4,,53.3,5,,,,,,,,,,,,0,0,0,0,0,0,0,0,0,0,0,0,0,0,0,0,,,,,,0.0,,,,,,,
2921884,1745471518875,,,,,,,,,,,,,,,,,,,,,,,0,0,0,0,0.0,0.0,0.0,0.0,2.29,,,0,0,0,0,0,0,0,0,0,0,0,0,0,0,0,0,,0,,,,,38.993835,-76.938782,0.04,25.4,33,3,0.8
2921904,1745471518895,0.0,-65,,-0.0,0.14,1.07,1,-1,-0,1.07,1.19,90,8364,3.5,1.4,,5.15,1.251,84.4,,53.3,5,,,,,,,,,,,,0,0,0,0,0,0,0,0,0,0,0,0,0,0,0,0,,,,,,0.0,,,,,,,
2921924,1745471518915,,,,,,,,,,,,,,,,,,,,,,,,,,,,,,,,,,0,0,0,0,0,0,0,0,0,0,0,0,0,0,0,0,,,,,,,,,,,,,
2921944,1745471518935,0.0,-78,,-0.0,0.04,1.06,1,-0,0,1.06,1.19,89,8364,3.5,1.4,,5.35,1.252,84.4,,53.3,5,,,,,,,,,,,,0,0,0,0,0,0,0,0,0,0,0,0,0,0,0,0,,,,,,0.0,,,,,,,
2921964,1745471518955,,,,,,,,,,,,,,,,,,,,,,,,,,,,,,,,,,0,0,0,0,0,0,0,0,0,0,0,0,0,0,0,0,,,,,,,,,,,,,
2921984,1745471518975,0.0,-82,,-0.0,0.14,1.03,1,-1,0,1.04,1.19,88,7849,6.2,1.66,,5.76,1.252,84.4,,53.3,5,0,0,0,0,0.0,0.0,0.0,0.0,2.29,,,0,0,0,0,0,0,0,0,0,0,0,0,0,0,0,0,,0,,,,0.0,38.993835,-76.938782,0.04,25.4,33,3,0.8
2922004,1745471518995,,,,,,,,,,,,,,,,,,,,,,,,,,,,,,,,,,0,0,0,0,0,0,0,0,0,0,0,0,0,0,0,0,,,,,,,,,,,,,
2922024,1745471519007,0.0,-68,,-0.02,0.19,1.04,2,-1,0,1.06,1.19,89,7462,15.2,2.26,,7.03,1.253,84.4,,53.3,5,,,,,,,,,,,,0,0,0,0,0,0,0,0,0,0,0,0,0,0,0,0,,,,,,0.0,,,,,,,
2922044,1745471519027,,,,,,,,,,,,,,,,,,,,,,,,,,,,,,,,,,0,0,0,0,0,0,0,0,0,0,0,0,0,0,0,0,,,,,,,,,,,,,
2922064,1745471519047,0.0,-71,,0.02,0.26,1.04,2,-1,0,1.07,1.19,90,7332,27.2,3.31,,9.52,1.253,84.4,,53.3,5,,,,,,,,,,,,0,0,0,0,0,0,0,0,0,0,0,0,0,0,0,0,,,,,,0.0,,,,,,,
2922084,1745471519067,,,,,,,,,,,,,,,,,,,,,,,0,0,0,0,0.0,0.0,0.0,0.0,2.29,,,0,0,0,0,0,0,0,0,0,0,0,0,0,0,0,0,,0,,,,,38.993835,-76.938782,0.0,25.4,33,3,0.8
2922104,1745471519087,0.0,-58,,0.01,0.25,1.06,2,-1,0,1.09,1.19,92,7726,30.7,4.01,,9.52,1.253,84.4,,53.3,5,,,,,,,,,,,,0,0,0,0,0,0,0,0,0,0,0,0,0,0,0,0,,,,,,0.0,,,,,,,
2922124,1745471519115,,,,,,,,,,,,,,,,,,,,,,,,,,,,,,,,,,0,0,0,0,0,0,0,0,0,0,0,0,0,0,0,0,,,,,,,,,,,,,
2922144,1745471519135,0.0,-82,,0.01,0.18,1.05,1,-1,0,1.06,1.19,89,7726,30.7,4.01,,11.14,1.253,84.4,,53.4,5,,,,,,,,,,,,0,0,0,0,0,0,0,0,0,0,0,0,0,0,0,0,,,,,,0.0,,,,,,,
2922164,1745471519155,,,,,,,,,,,,,,,,,,,,,,,,,,,,,,,,,,0,0,0,0,0,0,0,0,0,0,0,0,0,0,0,0,,,,,,,,,,,,,
2922184,1745471519175,0.0,-68,,-0.0,0.19,1.01,1,-1,0,1.03,1.19,86,8252,32.4,4.76,,11.69,1.252,84.4,,53.4,5,0,0,0,0,0.0,0.0,0.0,0.0,2.29,,,0,0,0,0,0,0,0,0,0,0,0,0,0,0,0,0,,0,,,,0.0,38.993835,-76.938782,0.07,25.4,33,3,0.8
2922204,1745471519195,,,,,,,,,,,,,,,,,,,,,,,,,,,,,,,,,,0,0,0,0,0,0,0,0,0,0,0,0,0,0,0,0,,,,,,,,,,,,,
2922224,1745471519215,0.0,-68,,-0.02,0.02,0.97,0,-1,-0,0.97,1.19,81,9588,32.6,4.94,,11.29,1.152,84.4,,53.4,5,,,,,,,,,,,,0,0,0,0,0,0,0,0,0,0,0,0,0,0,0,0,,,,,,0.0,,,,,,,
2922244,1745471519235,,,,,,,,,,,,,,,,,,,,,,,,,,,,,,,,,,0,0,0,0,0,0,0,0,0,0,0,0,0,0,0,0,,,,,,,,,,,,,
2922264,1745471519255,0.0,-82,,-0.01,0.29,0.97,-1,-0,1,1.01,1.19,85,10872,32.6,3.98,,11.01,1.041,84.4,,55.0,5,,,,,,,,,,,,0,0,0,0,0,0,0,0,0,0,0,0,0,0,0,0,,,,,,0.0,,,,,,,
2922284,1745471519275,,,,,,,,,,,,,,,,,,,,,,,0,0,0,0,0.0,0.0,0.0,0.0,2.29,,,0,0,0,0,0,0,0,0,0,0,0,0,0,0,0,0,,0,,,,,38.993835,-76.938782,0.04,25.4,33,3,0.8
2922304,1745471519295,0.0,-71,,0.02,0.14,0.91,0,-0,1,0.92,1.19,77,11583,32.7,2.94,,11.01,1.041,84.4,,55.0,5,,,,,,,,,,,,0,0,0,0,0,0,0,0,0,0,0,0,0,0,0,0,,,,,,0.0,,,,,,,
2922324,1745471519315,,,,,,,,,,,,,,,,,,,,,,,,,,,,,,,,,,0,0,0,0,0,0,0,0,0,0,0,0,0,0,0,0,,,,,,,,,,,,,
2922344,1745471519335,0.0,-82,,0.06,0.18,0.95,1,0,1,0.97,1.19,82,11583,32.7,2.94,,10.82,0.947,84.4,,57.7,5,,,,,,,,,,,,0,0,0,0,0,0,0,0,0,0,0,0,0,0,0,0,,,,,,0.0,,,,,,,
2922364,1745471519355,,,,,,,,,,,,,,,,,,,,,,,,,,,,,,,,,,0,0,0,0,0,0,0,0,0,0,0,0,0,0,0,0,,,,,,,,,,,,,
2922384,1745471519375,0.0,-78,13.45,0.11,-0.1,1.02,0,1,1,1.03,1.19,86,10744,32.6,3.0,15,10.54,0.934,84.4,165,57.7,5,0,0,0,0,0.0,0.0,0.0,0.0,2.29,0,1.0,0,0,0,0,0,0,0,0,0,0,0,0,0,0,0,0,0,0,1.0,0,-0,0.0,38.993835,-76.938782,0.05,25.4,33,3,0.8
2922404,1745471519395,,,,,,,,,,,,,,,,,,,,,,,,,,,,,,,,,,0,0,0,0,0,0,0,0,0,0,0,0,0,0,0,0,,,,,,,,,,,,,
2922424,1745471519415,0.0,-68,,0.2,-0.11,1.04,-0,1,0,1.06,1.19,89,9032,28.4,3.81,,10.77,1.047,84.4,,57.7,5,,,,,,,,,,,,0,0,0,0,0,0,0,0,0,0,0,0,0,0,0,0,,,,,,0.0,,,,,,,
2922444,1745471519435,,,,,,,,,,,,,,,,,,,,,,,,,,,,,,,,,,0,0,0,0,0,0,0,0,0,0,0,0,0,0,0,0,,,,,,,,,,,,,
2922464,1745471519455,0.0,-65,,0.22,-0.04,1.09,-0,1,0,1.11,1.19,93,7147,28.3,5.27,,11.54,1.228,84.4,,50.5,5,,,,,,,,,,,,0,0,0,0,0,0,0,0,0,0,0,0,0,0,0,0,,,,,,0.0,,,,,,,
2922484,1745471519475,,,,,,,,,,,,,,,,,,,,,,,0,0,24,23,0.0,0.0,0.0,0.0,2.29,,,0,0,0,0,0,0,0,0,0,0,0,0,0,0,0,0,,0,,,,,38.993835,-76.938782,0.8,25.4,33,3,0.8
2922504,1745471519495,0.0,-65,,0.26,-0.08,1.03,-1,-0,-0,1.07,1.19,89,6067,32.0,5.1,,11.54,1.228,84.4,,50.5,5,,,,,,,,,,,,0,0,0,0,0,0,0,0,0,0,0,0,0,0,0,0,,,,,,0.0,,,,,,,
2922524,1745471519517,,,,,,,,,,,,,,,,,,,,,,,,,,,,,,,,,,0,0,0,0,0,0,0,0,0,0,0,0,0,0,0,0,,,,,,,,,,,,,
2922544,1745471519537,0.0,-82,,0.31,-0.08,1.04,-2,-0,-0,1.08,1.19,91,6067,32.0,5.1,,12.64,1.253,84.4,,50.0,5,,,,,,,,,,,,0,0,0,0,0,0,0,0,0,0,0,0,0,0,0,0,,,,,,0.0,,,,,,,
2922564,1745471519557,,,,,,,,,,,,,,,,,,,,,,,,,,,,,,,,,,0,0,0,0,0,0,0,0,0,0,0,0,0,0,0,0,,,,,,,,,,,,,
2922584,1745471519577,0.0,-85,,0.4,-0.01,1.07,-2,0,0,1.15,1.19,96,6056,35.5,5.18,,13.35,1.252,84.4,,50.0,5,3,0,16,15,0.0,0.0,0.0,0.0,2.3,,,0,0,0,0,0,0,0,0,0,0,0,0,0,0,0,0,,0,,,,0.0,38.993835,-76.938782,3.44,25.4,33,3,0.8
2922604,1745471519597,,,,,,,,,,,,,,,,,,,,,,,,,,,,,,,,,,0,0,0,0,0,0,0,0,0,0,0,0,0,0,0,0,,,,,,,,,,,,,
2922624,1745471519617,0.0,-92,,0.46,-0.06,1.02,-2,1,-0,1.12,1.19,94,5755,36.4,5.02,,13.57,1.254,84.4,,50.0,5,,,,,,,,,,,,0,0,0,0,0,0,0,0,0,0,0,0,0,0,0,0,,,,,,0.0,,,,,,,
2922644,1745471519637,,,,,,,,,,,,,,,,,,,,,,,,,,,,,,,,,,0,0,0,0,0,0,0,0,0,0,0,0,0,0,0,0,,,,,,,,,,,,,
2922664,1745471519657,0.0,-102,,0.47,0.02,1.03,-2,0,0,1.13,1.19,95,5104,44.4,5.23,,14.08,1.145,84.4,,48.6,5,,,,,,,,,,,,0,0,0,0,0,0,0,0,0,0,0,0,0,0,0,0,,,,,,0.0,,,,,,,
2922684,1745471519677,,,,,,,,,,,,,,,,,,,,,,,5,0,17,17,0.0,0.0,0.0,0.0,2.29,,,0,0,0,0,0,0,0,0,0,0,0,0,0,0,0,0,,0,,,,,38.993835,-76.938789,6.15,25.4,33,3,0.8
2922704,1745471519697,0.0,-95,,0.46,-0.07,1.02,-2,-0,-0,1.12,1.19,94,4550,52.6,5.35,,14.08,1.145,84.4,,48.6,5,,,,,,,,,,,,0,0,0,0,0,0,0,0,0,0,0,0,0,0,0,0,,,,,,0.0,,,,,,,
2922724,1745471519717,,,,,,,,,,,,,,,,,,,,,,,,,,,,,,,,,,0,0,0,0,0,0,0,0,0,0,0,0,0,0,0,0,,,,,,,,,,,,,
2922744,1745471519737,0.0,-102,,0.48,-0.14,1.01,-3,-0,0,1.12,1.19,94,4550,52.6,5.35,,14.42,1.094,84.4,,40.9,5,,,,,,,,,,,,0,0,0,0,0,0,0,0,0,0,0,0,0,0,0,0,,,,,,0.0,,,,,,,
2922764,1745471519757,,,,,,,,,,,,,,,,,,,,,,,,,,,,,,,,,,0,0,0,0,0,0,0,0,0,0,0,0,0,0,0,0,,,,,,,,,,,,,
2922784,1745471519777,0.0,-75,,0.51,-0.14,1.0,-1,-0,-0,1.13,1.19,95,4336,69.7,5.11,,14.56,1.096,84.4,,40.9,5,6,0,13,13,0.0,0.0,0.0,0.0,2.29,,,0,0,0,0,0,0,0,0,0,0,0,0,0,0,0,0,,1,,,,0.0,38.993835,-76.938789,8.73,25.4,33,3,0.8
2922804,1745471519797,,,,,,,,,,,,,,,,,,,,,,,,,,,,,,,,,,0,0,0,0,0,0,0,0,0,0,0,0,0,0,0,0,,,,,,,,,,,,,
2922824,1745471519816,0.0,-92,,0.51,-0.16,1.02,-1,-0,0,1.15,1.19,97,3681,77.5,4.71,,14.63,1.126,84.4,,40.9,5,,,,,,,,,,,,0,0,0,0,0,0,0,0,0,0,0,0,0,0,0,0,,,,,,0.0,,,,,,,
2922844,1745471519836,,,,,,,,,,,,,,,,,,,,,,,,,,,,,,,,,,0,0,0,0,0,0,0,0,0,0,0,0,0,0,0,0,,,,,,,,,,,,,
2922864,1745471519856,0.0,-99,,0.51,-0.12,1.03,1,-0,0,1.15,1.19,97,3041,77.8,4.41,,14.67,1.18,84.4,,29.0,5,,,,,,,,,,,,0,0,0,0,0,0,0,0,0,0,0,0,0,0,0,0,,,,,,0.0,,,,,,,
2922884,1745471519876,,,,,,,,,,,,,,,,,,,,,,,8,0,9,8,0.0,241.0,0.0,0.0,2.27,,,0,0,0,0,0,0,0,0,0,0,0,0,0,0,0,0,,0,,,,,38.993835,-76.938789,10.92,25.4,33,3,0.8
2922904,1745471519896,0.0,-92,,0.48,-0.14,1.03,3,-1,-0,1.15,1.19,96,2670,78.0,4.54,,14.67,1.18,84.4,,29.0,5,,,,,,,,,,,,0,0,0,0,0,0,0,0,0,0,0,0,0,0,0,0,,,,,,0.0,,,,,,,
2922924,1745471519916,,,,,,,,,,,,,,,,,,,,,,,,,,,,,,,,,,0,0,0,0,0,0,0,0,0,0,0,0,0,0,0,0,,,,,,,,,,,,,
2922944,1745471519936,0.0,-99,,0.41,-0.11,0.99,4,-2,-0,1.08,1.19,91,2670,78.0,4.54,,14.74,1.165,84.4,,23.7,5,,,,,,,,,,,,0,0,0,0,0,0,0,0,0,0,0,0,0,0,0,0,,,,,,0.0,,,,,,,
2922964,1745471519956,,,,,,,,,,,,,,,,,,,,,,,,,,,,,,,,,,0,0,0,0,0,0,0,0,0,0,0,0,0,0,0,0,,,,,,,,,,,,,
2922984,1745471519976,0.0,-88,,0.36,-0.06,0.93,6,-2,-1,1.0,1.19,84,2852,78.1,4.51,,14.64,1.152,84.4,,23.7,5,9,0,9,9,0.0,30.0,0.0,0.0,2.27,,,0,0,0,0,0,0,0,0,0,0,0,0,0,0,0,0,,1,,,,0.0,38.993835,-76.938797,14.05,25.4,33,3,0.8
2923004,1745471519996,,,,,,,,,,,,,,,,,,,,,,,,,,,,,,,,,,0,0,0,0,0,0,0,0,0,0,0,0,0,0,0,0,,,,,,,,,,,,,
2923024,1745471520006,0.0,-85,,0.35,-0.01,0.84,8,-1,-1,0.91,1.19,76,3037,78.0,4.42,,14.64,1.08,84.4,,23.7,5,,,,,,,,,,,,0,0,0,0,0,0,0,0,0,0,0,0,0,0,0,0,,,,,,0.0,,,,,,,
2923044,1745471520026,,,,,,,,,,,,,,,,,,,,,,,,,,,,,,,,,,0,0,0,0,0,0,0,0,0,0,0,0,0,0,0,0,,,,,,,,,,,,,
2923064,1745471520046,0.0,-75,,0.31,-0.01,0.81,8,-1,-1,0.86,1.19,72,3161,78.0,4.41,,14.62,1.049,84.4,,26.5,5,,,,,,,,,,,,0,0,0,0,0,0,0,0,0,0,0,0,0,0,0,0,,,,,,0.0,,,,,,,
2923084,1745471520066,,,,,,,,,,,,,,,,,,,,,,,9,0,9,9,0.0,21.0,0.0,0.0,2.28,,,0,0,0,0,0,0,0,0,0,0,0,0,0,0,0,0,,0,,,,,38.993835,-76.938805,15.19,25.4,34,3,0.8
2923104,1745471520086,0.0,-65,,0.29,0.0,0.84,7,-2,-0,0.89,1.19,75,3186,78.0,4.42,,14.62,1.049,84.4,,26.5,5,,,,,,,,,,,,0,0,0,0,0,0,0,0,0,0,0,0,0,0,0,0,,,,,,0.0,,,,,,,
2923124,1745471520116,,,,,,,,,,,,,,,,,,,,,,,,,,,,,,,,,,0,0,0,0,0,0,0,0,0,0,0,0,0,0,0,0,,,,,,,,,,,,,
2923144,1745471520136,0.0,-82,,0.28,-0.05,0.96,5,-2,-0,1.0,1.19,84,3186,78.0,4.42,,14.66,1.068,84.4,,27.7,5,,,,,,,,,,,,0,0,0,0,0,0,0,0,0,0,0,0,0,0,0,0,,,,,,0.0,,,,,,,
2923164,1745471520156,,,,,,,,,,,,,,,,,,,,,,,,,,,,,,,,,,0,0,0,0,0,0,0,0,0,0,0,0,0,0,0,0,,,,,,,,,,,,,
2923184,1745471520176,0.0,-92,,0.21,-0.04,0.93,5,-1,-1,0.96,1.19,80,3143,78.0,4.43,,14.64,1.101,84.4,,27.7,5,9,0,10,10,0.0,236.0,0.0,0.0,2.29,,,0,0,0,0,0,0,0,0,0,0,0,0,0,0,0,0,,1,,,,0.0,38.993835,-76.938805,14.82,25.4,34,3,0.8
2923204,1745471520196,,,,,,,,,,,,,,,,,,,,,,,,,,,,,,,,,,0,0,0,0,0,0,0,0,0,0,0,0,0,0,0,0,,,,,,,,,,,,,
2923224,1745471520216,0.0,-75,,0.22,0.01,0.91,6,-1,-0,0.93,1.19,78,3344,78.1,4.42,,14.6,1.152,84.4,,27.7,5,,,,,,,,,,,,0,0,0,0,0,0,0,0,0,0,0,0,0,0,0,0,,,,,,0.0,,,,,,,
2923244,1745471520236,,,,,,,,,,,,,,,,,,,,,,,,,,,,,,,,,,0,0,0,0,0,0,0,0,0,0,0,0,0,0,0,0,,,,,,,,,,,,,
2923264,1745471520256,0.0,-82,,0.17,-0.03,0.96,3,-1,0,0.98,1.19,82,3288,78.1,4.44,,14.66,1.196,84.4,,28.2,5,,,,,,,,,,,,0,0,0,0,0,0,0,0,0,0,0,0,0,0,0,0,,,,,,0.0,,,,,,,
2923284,1745471520276,,,,,,,,,,,,,,,,,,,,,,,10,0,10,10,0.0,35.0,0.0,0.0,2.28,,,0,0,0,0,0,0,0,0,0,0,0,0,0,0,0,0,,1,,,,,38.993832,-76.938812,15.21,25.4,34,3,0.8
2923304,1745471520296,0.0,-68,,0.19,0.0,0.92,6,-1,-0,0.94,1.19,79,3315,78.2,4.43,,14.66,1.196,84.4,,28.2,5,,,,,,,,,,,,0,0,0,0,0,0,0,0,0,0,0,0,0,0,0,0,,,,,,0.0,,,,,,,
2923324,1745471520317,,,,,,,,,,,,,,,,,,,,,,,,,,,,,,,,,,0,0,0,0,0,0,0,0,0,0,0,0,0,0,0,0,,,,,,,,,,,,,
2923344,1745471520337,0.0,-95,,0.16,-0.11,0.95,2,-0,-0,0.97,1.19,82,3315,78.2,4.43,,14.63,1.228,84.4,,28.8,5,,,,,,,,,,,,0,0,0,0,0,0,0,0,0,0,0,0,0,0,0,0,,,,,,0.0,,,,,,,
2923364,1745471520357,,,,,,,,,,,,,,,,,,,,,,,,,,,,,,,,,,0,0,0,0,0,0,0,0,0,0,0,0,0,0,0,0,,,,,,,,,,,,,
2923384,1745471520377,0.0,-68,13.48,0.17,-0.07,0.98,2,-0,0,0.99,1.19,83,3495,78.3,4.43,15,14.64,1.247,84.4,167,28.8,5,10,0,10,10,0.0,74.0,0.0,0.0,2.28,0,1.0,0,0,0,0,0,0,0,0,0,0,0,0,0,0,0,0,0,1,1.0,0,-0,0.0,38.993832,-76.93882,15.54,25.4,34,3,0.8
2923404,1745471520397,,,,,,,,,,,,,,,,,,,,,,,,,,,,,,,,,,0,0,0,0,0,0,0,0,0,0,0,0,0,0,0,0,,,,,,,,,,,,,
2923424,1745471520416,0.0,-58,,0.13,-0.05,0.93,2,-0,0,0.94,1.19,79,3392,78.3,4.43,,14.62,1.242,84.4,,28.8,5,,,,,,,,,,,,0,0,0,0,0,0,0,0,0,0,0,0,0,0,0,0,,,,,,0.0,,,,,,,
2923444,1745471520436,,,,,,,,,,,,,,,,,,,,,,,,,,,,,,,,,,0,0,0,0,0,0,0,0,0,0,0,0,0,0,0,0,,,,,,,,,,,,,
2923464,1745471520456,0.0,-58,,0.13,-0.07,0.93,-1,-0,0,0.94,1.19,79,3613,78.3,4.44,,14.58,1.237,84.4,,29.8,5,,,,,,,,,,,,0,0,0,0,0,0,0,0,0,0,0,0,0,0,0,0,,,,,,0.0,,,,,,,
2923484,1745471520476,,,,,,,,,,,,,,,,,,,,,,,11,0,11,11,0.0,53.0,0.0,0.0,2.28,,,0,0,0,0,0,0,0,0,0,0,0,0,0,0,0,0,,1,,,,,38.993832,-76.93882,15.97,25.4,34,3,0.8
2923504,1745471520496,0.0,-61,,0.16,-0.12,0.94,-2,0,0,0.97,1.19,81,3755,73.4,4.47,,14.58,1.237,84.4,,29.8,5,,,,,,,,,,,,0,0,0,0,0,0,0,0,0,0,0,0,0,0,0,0,,,,,,0.0,,,,,,,
2923524,1745471520516,,,,,,,,,,,,,,,,,,,,,,,,,,,,,,,,,,0,0,0,0,0,0,0,0,0,0,0,0,0,0,0,0,,,,,,,,,,,,,
2923544,1745471520536,0.0,-71,,0.18,-0.12,0.97,-2,0,0,1.0,1.19,84,3755,73.4,4.47,,14.62,1.251,84.4,,32.4,5,,,,,,,,,,,,0,0,0,0,0,0,0,0,0,0,0,0,0,0,0,0,,,,,,0.0,,,,,,,
2923564,1745471520556,,,,,,,,,,,,,,,,,,,,,,,,,,,,,,,,,,0,0,0,0,0,0,0,0,0,0,0,0,0,0,0,0,,,,,,,,,,,,,
2923584,1745471520576,0.0,-68,,0.14,-0.15,1.0,-3,-0,0,1.02,1.19,86,3688,61.2,4.45,,14.6,1.243,84.4,,32.4,5,10,0,11,12,0.0,17.0,0.0,0.0,2.28,,,0,0,0,0,0,0,0,0,0,0,0,0,0,0,0,0,,0,,,,0.0,38.993828,-76.93882,16.63,25.4,34,3,0.8
2923604,1745471520596,,,,,,,,,,,,,,,,,,,,,,,,,,,,,,,,,,0,0,0,0,0,0,0,0,0,0,0,0,0,0,0,0,,,,,,,,,,,,,
2923624,1745471520616,0.0,-61,,0.14,-0.12,1.01,-3,-1,0,1.02,1.19,86,3566,58.8,4.26,,14.52,1.2,84.4,,32.4,5,,,,,,,,,,,,0,0,0,0,0,0,0,0,0,0,0,0,0,0,0,0,,,,,,0.0,,,,,,,
2923644,1745471520636,,,,,,,,,,,,,,,,,,,,,,,,,,,,,,,,,,0,0,0,0,0,0,0,0,0,0,0,0,0,0,0,0,,,,,,,,,,,,,
2923664,1745471520656,0.0,-71,,0.14,-0.11,0.96,-4,-0,0,0.98,1.19,82,3889,58.6,4.24,,14.6,1.191,84.4,,32.2,5,,,,,,,,,,,,0,0,0,0,0,0,0,0,0,0,0,0,0,0,0,0,,,,,,0.0,,,,,,,
2923684,1745471520676,,,,,,,,,,,,,,,,,,,,,,,11,0,12,12,0.0,50.0,0.0,0.0,2.29,,,0,0,0,0,0,0,0,0,0,0,0,0,0,0,0,0,,1,,,,,38.993828,-76.938828,17.46,25.4,34,3,0.8
2923704,1745471520696,0.0,-58,,0.14,-0.09,0.95,-4,-0,-0,0.97,1.19,81,3978,58.6,4.21,,14.6,1.191,84.4,,32.2,5,,,,,,,,,,,,0,0,0,0,0,0,0,0,0,0,0,0,0,0,0,0,,,,,,0.0,,,,,,,
2923724,1745471520716,,,,,,,,,,,,,,,,,,,,,,,,,,,,,,,,,,0,0,0,0,0,0,0,0,0,0,0,0,0,0,0,0,,,,,,,,,,,,,
2923744,1745471520736,0.0,-61,,0.17,-0.09,0.98,-3,0,-0,1.0,1.19,84,3978,58.6,4.21,,14.56,1.198,84.4,,35.1,5,,,,,,,,,,,,0,0,0,0,0,0,0,0,0,0,0,0,0,0,0,0,,,,,,0.0,,,,,,,
2923764,1745471520756,,,,,,,,,,,,,,,,,,,,,,,,,,,,,,,,,,0,0,0,0,0,0,0,0,0,0,0,0,0,0,0,0,,,,,,,,,,,,,
2923784,1745471520776,0.0,-48,,0.17,-0.14,1.0,-5,-0,0,1.02,1.19,86,3977,58.6,4.29,,14.56,1.25,84.4,,35.1,5,11,0,12,12,0.0,73.0,0.0,0.0,2.28,,,0,0,0,0,0,0,0,0,0,0,0,0,0,0,0,0,,0,,,,0.0,38.993824,-76.938835,18.12,25.4,34,3,0.8
2923804,1745471520796,,,,,,,,,,,,,,,,,,,,,,,,,,,,,,,,,,0,0,0,0,0,0,0,0,0,0,0,0,0,0,0,0,,,,,,,,,,,,,
2923824,1745471520815,0.0,-58,,0.13,-0.19,0.96,-6,-0,-0,0.99,1.19,83,3920,58.0,4.23,,14.55,1.253,84.4,,35.1,5,,,,,,,,,,,,0,0,0,0,0,0,0,0,0,0,0,0,0,0,0,0,,,,,,0.0,,,,,,,
2923844,1745471520835,,,,,,,,,,,,,,,,,,,,,,,,,,,,,,,,,,0,0,0,0,0,0,0,0,0,0,0,0,0,0,0,0,,,,,,,,,,,,,
2923864,1745471520855,0.0,-68,,0.12,-0.17,0.96,-5,-0,-0,0.98,1.19,82,4076,57.8,4.23,,14.58,1.234,84.4,,34.0,5,,,,,,,,,,,,0,0,0,0,0,0,0,0,0,0,0,0,0,0,0,0,,,,,,0.0,,,,,,,
2923884,1745471520875,,,,,,,,,,,,,,,,,,,,,,,12,0,12,12,0.0,46.0,0.0,0.0,2.28,,,0,0,0,0,0,0,0,0,0,0,0,0,0,0,0,0,,1,,,,,38.993824,-76.938843,18.4,25.5,34,3,0.8
2923904,1745471520895,0.0,-65,,0.08,-0.11,0.96,-7,0,-0,0.97,1.19,82,4118,57.6,4.38,,14.58,1.234,84.4,,34.0,5,,,,,,,,,,,,0,0,0,0,0,0,0,0,0,0,0,0,0,0,0,0,,,,,,0.0,,,,,,,
2923924,1745471520915,,,,,,,,,,,,,,,,,,,,,,,,,,,,,,,,,,0,0,0,0,0,0,0,0,0,0,0,0,0,0,0,0,,,,,,,,,,,,,
2923944,1745471520935,0.0,-71,,0.08,-0.1,0.96,-5,0,-0,0.97,1.19,81,4118,57.6,4.38,,14.55,1.232,84.4,,36.3,5,,,,,,,,,,,,0,0,0,0,0,0,0,0,0,0,0,0,0,0,0,0,,,,,,0.0,,,,,,,
2923964,1745471520955,,,,,,,,,,,,,,,,,,,,,,,,,,,,,,,,,,0,0,0,0,0,0,0,0,0,0,0,0,0,0,0,0,,,,,,,,,,,,,
2923984,1745471520975,0.0,-65,,0.1,-0.16,0.97,-7,1,0,0.99,1.19,83,4090,57.2,4.41,,14.51,1.251,84.4,,36.3,5,12,0,12,13,0.0,34.0,0.0,0.0,2.28,,,0,0,0,0,0,0,0,0,0,0,0,0,0,0,0,0,,0,,,,0.0,38.993824,-76.93885,19.06,25.5,34,3,0.8
2924004,1745471520995,,,,,,,,,,,,,,,,,,,,,,,,,,,,,,,,,,0,0,0,0,0,0,0,0,0,0,0,0,0,0,0,0,,,,,,,,,,,,,
2924024,1745471521001,0.0,-71,,0.07,-0.1,0.95,-6,0,0,0.96,1.19,80,4129,55.1,4.35,,14.54,1.252,84.4,,36.3,5,,,,,,,,,,,,0,0,0,0,0,0,0,0,0,0,0,0,0,0,0,0,,,,,,0.0,,,,,,,
2924044,1745471521021,,,,,,,,,,,,,,,,,,,,,,,,,,,,,,,,,,0,0,0,0,0,0,0,0,0,0,0,0,0,0,0,0,,,,,,,,,,,,,
2924064,1745471521041,0.0,-41,,0.08,-0.14,0.98,-7,1,0,1.0,1.19,84,4160,54.3,4.72,,14.55,1.252,84.4,,36.7,5,,,,,,,,,,,,0,0,0,0,0,0,0,0,0,0,0,0,0,0,0,0,,,,,,0.0,,,,,,,
2924084,1745471521061,,,,,,,,,,,,,,,,,,,,,,,12,0,12,13,0.0,33.0,0.0,0.0,2.29,,,0,0,0,0,0,0,0,0,0,0,0,0,0,0,0,0,,0,,,,,38.99382,-76.938858,19.34,25.5,34,3,0.8
2924104,1745471521081,0.0,-51,,0.07,-0.15,1.03,-7,1,1,1.04,1.19,87,4215,51.7,5.21,,14.55,1.252,84.4,,36.7,5,,,,,,,,,,,,0,0,0,0,0,0,0,0,0,0,0,0,0,0,0,0,,,,,,0.0,,,,,,,
2924124,1745471521115,,,,,,,,,,,,,,,,,,,,,,,,,,,,,,,,,,0,0,0,0,0,0,0,0,0,0,0,0,0,0,0,0,,,,,,,,,,,,,
2924144,1745471521135,0.0,-55,,0.08,-0.19,0.98,-7,2,0,1.0,1.19,84,4215,51.7,5.21,,14.54,1.251,84.4,,37.5,5,,,,,,,,,,,,0,0,0,0,0,0,0,0,0,0,0,0,0,0,0,0,,,,,,0.0,,,,,,,
2924164,1745471521155,,,,,,,,,,,,,,,,,,,,,,,,,,,,,,,,,,0,0,0,0,0,0,0,0,0,0,0,0,0,0,0,0,,,,,,,,,,,,,
2924184,1745471521175,0.0,-65,,0.07,-0.24,0.89,-9,2,-0,0.92,1.19,77,4293,49.3,5.36,,14.39,1.251,84.4,,37.5,5,13,0,13,13,0.0,39.0,0.0,0.0,2.29,,,0,0,0,0,0,0,0,0,0,0,0,0,0,0,0,0,,1,,,,0.0,38.99382,-76.938858,19.53,25.5,34,3,0.8
2924204,1745471521195,,,,,,,,,,,,,,,,,,,,,,,,,,,,,,,,,,0,0,0,0,0,0,0,0,0,0,0,0,0,0,0,0,,,,,,,,,,,,,
2924224,1745471521209,0.0,-48,,0.02,-0.26,0.87,-12,2,-0,0.9,1.19,76,4368,47.3,5.39,,14.42,1.252,84.4,,37.5,5,,,,,,,,,,,,0,0,0,0,0,0,0,0,0,0,0,0,0,0,0,0,,,,,,0.0,,,,,,,
2924244,1745471521229,,,,,,,,,,,,,,,,,,,,,,,,,,,,,,,,,,0,0,0,0,0,0,0,0,0,0,0,0,0,0,0,0,,,,,,,,,,,,,
2924264,1745471521249,0.0,-55,,0.02,-0.26,0.92,-12,2,-0,0.96,1.19,80,4419,44.9,4.82,,14.43,1.253,84.4,,38.4,5,,,,,,,,,,,,0,0,0,0,0,0,0,0,0,0,0,0,0,0,0,0,,,,,,0.0,,,,,,,
2924284,1745471521269,,,,,,,,,,,,,,,,,,,,,,,13,0,13,13,0.0,0.0,0.0,0.0,2.28,,,0,0,0,0,0,0,0,0,0,0,0,0,0,0,0,0,,1,,,,,38.99382,-76.938866,19.64,25.5,34,3,0.8
2924304,1745471521289,0.0,-51,,0.04,-0.18,1.0,-11,2,-0,1.02,1.19,85,4500,44.1,4.67,,14.43,1.253,84.4,,38.4,5,,,,,,,,,,,,0,0,0,0,0,0,0,0,0,0,0,0,0,0,0,0,,,,,,0.0,,,,,,,
2924324,1745471521315,,,,,,,,,,,,,,,,,,,,,,,,,,,,,,,,,,0,0,0,0,0,0,0,0,0,0,0,0,0,0,0,0,,,,,,,,,,,,,
2924344,1745471521335,0.0,-61,,0.05,-0.02,1.08,-9,1,0,1.08,1.19,91,4500,44.1,4.67,,14.39,1.231,84.4,,39.8,5,,,,,,,,,,,,0,0,0,0,0,0,0,0,0,0,0,0,0,0,0,0,,,,,,0.0,,,,,,,
2924364,1745471521355,,,,,,,,,,,,,,,,,,,,,,,,,,,,,,,,,,0,0,0,0,0,0,0,0,0,0,0,0,0,0,0,0,,,,,,,,,,,,,
2924384,1745471521375,0.0,-58,13.53,0.05,0.11,1.12,-7,-0,0,1.13,1.19,95,4420,44.1,4.74,15,14.39,1.187,84.4,167,39.8,5,13,0,13,14,0.0,53.0,0.0,0.0,2.28,0,1.0,0,0,0,0,0,0,0,0,0,0,0,0,0,0,0,0,0,0,1.0,0,-0,0.0,38.993816,-76.938873,20.48,25.5,34,3,0.8
2924404,1745471521395,,,,,,,,,,,,,,,,,,,,,,,,,,,,,,,,,,0,0,0,0,0,0,0,0,0,0,0,0,0,0,0,0,,,,,,,,,,,,,
2924424,1745471521415,0.0,-48,,0.04,0.18,1.14,-5,-1,0,1.16,1.19,97,4406,44.1,4.71,,14.44,1.186,84.4,,39.8,5,,,,,,,,,,,,0,0,0,0,0,0,0,0,0,0,0,0,0,0,0,0,,,,,,0.0,,,,,,,
2924444,1745471521435,,,,,,,,,,,,,,,,,,,,,,,,,,,,,,,,,,0,0,0,0,0,0,0,0,0,0,0,0,0,0,0,0,,,,,,,,,,,,,
2924464,1745471521455,0.0,-38,,0.05,0.25,1.17,-3,-1,-0,1.2,1.2,100,4474,40.2,4.34,,14.28,1.204,84.4,,39.7,5,,,,,,,,,,,,0,0,0,0,0,0,0,0,0,0,0,0,0,0,0,0,,,,,,0.0,,,,,,,
2924484,1745471521475,,,,,,,,,,,,,,,,,,,,,,,13,0,14,14,0.0,131.0,0.0,0.0,2.28,,,0,0,0,0,0,0,0,0,0,0,0,0,0,0,0,0,,0,,,,,38.993816,-76.938881,21.11,25.5,34,3,0.8
2924504,1745471521495,0.0,-58,,0.06,0.27,1.22,-2,-1,-0,1.25,1.25,100,4558,38.7,4.44,,14.28,1.204,84.4,,39.7,5,,,,,,,,,,,,0,0,0,0,0,0,0,0,0,0,0,0,0,0,0,0,,,,,,0.0,,,,,,,
2924524,1745471521515,,,,,,,,,,,,,,,,,,,,,,,,,,,,,,,,,,0,0,0,0,0,0,0,0,0,0,0,0,0,0,0,0,,,,,,,,,,,,,
2924544,1745471521535,0.0,-65,,0.06,0.26,1.28,-2,-1,0,1.31,1.31,100,4558,38.7,4.44,,14.3,1.204,84.4,,41.0,5,,,,,,,,,,,,0,0,0,0,0,0,0,0,0,0,0,0,0,0,0,0,,,,,,0.0,,,,,,,
2924564,1745471521555,,,,,,,,,,,,,,,,,,,,,,,,,,,,,,,,,,0,0,0,0,0,0,0,0,0,0,0,0,0,0,0,0,,,,,,,,,,,,,
2924584,1745471521575,0.0,-61,,0.08,0.18,1.3,-2,-1,0,1.31,1.31,100,4648,37.3,4.46,,14.26,1.215,84.4,,41.0,5,13,0,13,14,0.0,60.0,0.0,0.0,2.29,,,0,0,0,0,0,0,0,0,0,0,0,0,0,0,0,0,,1,,,,0.0,38.993816,-76.938889,21.66,25.5,34,3,0.8
2924604,1745471521595,,,,,,,,,,,,,,,,,,,,,,,,,,,,,,,,,,0,0,0,0,0,0,0,0,0,0,0,0,0,0,0,0,,,,,,,,,,,,,
2924624,1745471521615,0.0,-58,,0.06,-0.02,1.19,-5,-1,-0,1.19,1.31,91,4666,33.7,4.69,,14.16,1.231,84.4,,41.0,5,,,,,,,,,,,,0,0,0,0,0,0,0,0,0,0,0,0,0,0,0,0,,,,,,0.0,,,,,,,
2924644,1745471521635,,,,,,,,,,,,,,,,,,,,,,,,,,,,,,,,,,0,0,0,0,0,0,0,0,0,0,0,0,0,0,0,0,,,,,,,,,,,,,
2924664,1745471521655,0.0,-58,,0.08,0.01,1.2,-5,-1,0,1.21,1.31,92,4884,29.5,4.97,,13.87,1.252,84.4,,41.7,5,,,,,,,,,,,,0,0,0,0,0,0,0,0,0,0,0,0,0,0,0,0,,,,,,0.0,,,,,,,
2924684,1745471521675,,,,,,,,,,,,,,,,,,,,,,,14,0,14,16,0.0,98.0,0.0,0.0,2.29,,,0,0,0,0,0,0,0,0,0,0,0,0,0,0,0,0,,0,,,,,38.993816,-76.938896,21.63,25.5,34,3,0.8
2924704,1745471521695,0.0,-58,,0.11,-0.05,1.14,-6,-1,-0,1.14,1.31,87,5021,22.0,4.39,,13.87,1.252,84.4,,41.7,5,,,,,,,,,,,,0,0,0,0,0,0,0,0,0,0,0,0,0,0,0,0,,,,,,0.0,,,,,,,
2924724,1745471521717,,,,,,,,,,,,,,,,,,,,,,,,,,,,,,,,,,0,0,0,0,0,0,0,0,0,0,0,0,0,0,0,0,,,,,,,,,,,,,
2924744,1745471521737,0.0,-51,,0.12,0.05,1.17,-5,-1,0,1.18,1.31,90,5021,22.0,4.39,,13.63,1.252,84.4,,44.4,5,,,,,,,,,,,,0,0,0,0,0,0,0,0,0,0,0,0,0,0,0,0,,,,,,0.0,,,,,,,
2924764,1745471521757,,,,,,,,,,,,,,,,,,,,,,,,,,,,,,,,,,0,0,0,0,0,0,0,0,0,0,0,0,0,0,0,0,,,,,,,,,,,,,
2924784,1745471521777,0.0,-48,,0.09,0.02,1.19,-5,-1,0,1.19,1.19,100,4761,15.7,4.14,,13.33,1.182,84.4,,44.4,5,15,0,15,15,0.0,88.0,0.0,0.0,2.28,,,0,0,0,0,0,0,0,0,0,0,0,0,0,0,0,0,,1,,,,0.0,38.993816,-76.938904,22.05,25.6,34,3,0.8
2924804,1745471521797,,,,,,,,,,,,,,,,,,,,,,,,,,,,,,,,,,0,0,0,0,0,0,0,0,0,0,0,0,0,0,0,0,,,,,,,,,,,,,
2924824,1745471521814,0.0,-58,,0.06,-0.02,1.18,-6,-1,0,1.18,1.19,99,4589,15.3,4.04,,13.24,1.037,84.4,,44.4,5,,,,,,,,,,,,0,0,0,0,0,0,0,0,0,0,0,0,0,0,0,0,,,,,,0.0,,,,,,,
2924844,1745471521834,,,,,,,,,,,,,,,,,,,,,,,,,,,,,,,,,,0,0,0,0,0,0,0,0,0,0,0,0,0,0,0,0,,,,,,,,,,,,,
2924864,1745471521854,0.0,-65,,0.05,-0.09,1.13,-7,-0,0,1.13,1.19,95,4614,15.8,4.05,,13.12,1.007,84.4,,41.1,5,,,,,,,,,,,,0,0,0,0,0,0,0,0,0,0,0,0,0,0,0,0,,,,,,0.0,,,,,,,
2924884,1745471521874,,,,,,,,,,,,,,,,,,,,,,,15,0,14,15,0.0,216.0,0.0,0.0,2.28,,,0,0,0,0,0,0,0,0,0,0,0,0,0,0,0,0,,0,,,,,38.993816,-76.938904,23.07,25.6,34,3,0.8
2924904,1745471521894,0.0,-65,,0.05,-0.25,1.04,-8,0,-1,1.07,1.19,90,4692,16.0,4.07,,13.12,1.007,84.4,,41.1,5,,,,,,,,,,,,0,0,0,0,0,0,0,0,0,0,0,0,0,0,0,0,,,,,,0.0,,,,,,,
2924924,1745471521917,,,,,,,,,,,,,,,,,,,,,,,,,,,,,,,,,,0,0,0,0,0,0,0,0,0,0,0,0,0,0,0,0,,,,,,,,,,,,,
2924944,1745471521937,0.0,-58,,0.04,-0.21,1.06,-7,1,-1,1.08,1.19,90,4692,16.0,4.07,,13.04,1.027,84.4,,42.5,5,,,,,,,,,,,,0,0,0,0,0,0,0,0,0,0,0,0,0,0,0,0,,,,,,0.0,,,,,,,
2924964,1745471521957,,,,,,,,,,,,,,,,,,,,,,,,,,,,,,,,,,0,0,0,0,0,0,0,0,0,0,0,0,0,0,0,0,,,,,,,,,,,,,
2924984,1745471521977,0.0,-65,,-0.0,-0.08,1.1,-6,0,-0,1.1,1.19,92,4727,15.7,4.08,,13.13,1.062,84.4,,42.5,5,14,0,14,15,0.0,27.0,0.0,0.0,2.28,,,0,0,0,0,0,0,0,0,0,0,0,0,0,0,0,0,,0,,,,0.0,38.993816,-76.938911,23.32,25.6,34,3,0.8
2925004,1745471521997,,,,,,,,,,,,,,,,,,,,,,,,,,,,,,,,,,0,0,0,0,0,0,0,0,0,0,0,0,0,0,0,0,,,,,,,,,,,,,
2925024,1745471522002,0.0,-58,,0.0,-0.16,1.03,-7,0,-1,1.04,1.19,87,4783,15.4,4.06,,12.93,1.107,84.4,,42.5,5,,,,,,,,,,,,0,0,0,0,0,0,0,0,0,0,0,0,0,0,0,0,,,,,,0.0,,,,,,,
2925044,1745471522022,,,,,,,,,,,,,,,,,,,,,,,,,,,,,,,,,,0,0,0,0,0,0,0,0,0,0,0,0,0,0,0,0,,,,,,,,,,,,,
2925064,1745471522042,0.0,-58,,-0.01,-0.07,1.07,-6,0,-1,1.07,1.19,89,4816,15.4,4.07,,12.89,1.124,84.4,,43.3,5,,,,,,,,,,,,0,0,0,0,0,0,0,0,0,0,0,0,0,0,0,0,,,,,,0.0,,,,,,,
2925084,1745471522062,,,,,,,,,,,,,,,,,,,,,,,13,0,14,14,0.0,19.0,0.0,0.0,2.29,,,0,0,0,0,0,0,0,0,0,0,0,0,0,0,0,0,,1,,,,,38.993816,-76.938919,22.68,25.6,34,3,0.8
2925104,1745471522082,0.0,-48,,-0.03,-0.1,1.04,-7,0,-0,1.04,1.19,87,4873,15.4,4.06,,12.89,1.124,82.6,,43.3,5,,,,,,,,,,,,0,0,0,0,0,0,0,0,0,0,0,0,0,0,0,0,,,,,,0.0,,,,,,,
2925124,1745471522108,,,,,,,,,,,,,,,,,,,,,,,,,,,,,,,,,,0,0,0,0,0,0,0,0,0,0,0,0,0,0,0,0,,,,,,,,,,,,,
2925144,1745471522128,0.0,-55,,-0.05,-0.06,1.09,-5,0,-0,1.09,1.19,91,4873,15.4,4.06,,12.88,1.139,82.6,,44.4,5,,,,,,,,,,,,0,0,0,0,0,0,0,0,0,0,0,0,0,0,0,0,,,,,,0.0,,,,,,,
2925164,1745471522148,,,,,,,,,,,,,,,,,,,,,,,,,,,,,,,,,,0,0,0,0,0,0,0,0,0,0,0,0,0,0,0,0,,,,,,,,,,,,,
2925184,1745471522168,0.0,-68,,-0.04,-0.14,1.04,-6,0,-1,1.05,1.19,88,4948,15.4,4.06,,12.91,1.146,82.6,,44.4,5,14,0,14,15,0.0,0.0,0.0,0.0,2.29,,,0,0,0,0,0,0,0,0,0,0,0,0,0,0,0,0,,1,,,,0.0,38.993816,-76.938934,22.76,25.6,34,3,0.8
2925204,1745471522188,,,,,,,,,,,,,,,,,,,,,,,,,,,,,,,,,,0,0,0,0,0,0,0,0,0,0,0,0,0,0,0,0,,,,,,,,,,,,,
2925224,1745471522210,0.0,-71,,-0.05,-0.09,1.06,-5,0,-0,1.07,1.19,89,5031,15.4,4.09,,12.8,1.152,82.6,,44.4,5,,,,,,,,,,,,0,0,0,0,0,0,0,0,0,0,0,0,0,0,0,0,,,,,,0.0,,,,,,,
2925244,1745471522230,,,,,,,,,,,,,,,,,,,,,,,,,,,,,,,,,,0,0,0,0,0,0,0,0,0,0,0,0,0,0,0,0,,,,,,,,,,,,,
2925264,1745471522250,0.0,-68,,-0.03,-0.14,1.02,-5,0,-1,1.03,1.19,86,4935,15.3,4.08,,12.83,1.167,82.6,,45.4,5,,,,,,,,,,,,0,0,0,0,0,0,0,0,0,0,0,0,0,0,0,0,,,,,,0.0,,,,,,,
2925284,1745471522270,,,,,,,,,,,,,,,,,,,,,,,14,0,14,14,0.0,233.0,0.0,0.0,2.28,,,0,0,0,0,0,0,0,0,0,0,0,0,0,0,0,0,,1,,,,,38.993816,-76.938942,22.27,25.6,34,3,0.8
2925304,1745471522290,0.0,-61,,-0.04,-0.05,1.1,-4,1,-1,1.1,1.19,92,4681,15.5,4.05,,12.83,1.167,82.6,,45.4,5,,,,,,,,,,,,0,0,0,0,0,0,0,0,0,0,0,0,0,0,0,0,,,,,,0.0,,,,,,,
2925324,1745471522314,,,,,,,,,,,,,,,,,,,,,,,,,,,,,,,,,,0,0,0,0,0,0,0,0,0,0,0,0,0,0,0,0,,,,,,,,,,,,,
2925344,1745471522334,0.0,-58,,-0.07,0.07,1.21,-3,0,-0,1.22,1.22,100,4681,15.5,4.05,,12.96,1.159,82.6,,41.3,5,,,,,,,,,,,,0,0,0,0,0,0,0,0,0,0,0,0,0,0,0,0,,,,,,0.0,,,,,,,
2925364,1745471522354,,,,,,,,,,,,,,,,,,,,,,,,,,,,,,,,,,0,0,0,0,0,0,0,0,0,0,0,0,0,0,0,0,,,,,,,,,,,,,
2925384,1745471522374,0.0,-71,13.58,-0.09,0.18,1.28,-0,-0,-0,1.3,1.3,100,4504,15.7,4.02,15,13.01,1.138,82.6,167,41.3,5,14,0,14,15,0.0,75.0,0.0,0.0,2.28,0,1.0,0,0,0,0,0,0,0,0,0,0,0,0,0,0,0,0,0,0,1.0,0,-0,0.0,38.993816,-76.938942,22.17,25.6,34,3,0.8
2925404,1745471522394,,,,,,,,,,,,,,,,,,,,,,,,,,,,,,,,,,0,0,0,0,0,0,0,0,0,0,0,0,0,0,0,0,,,,,,,,,,,,,
2925424,1745471522414,0.0,-51,,-0.11,0.26,1.39,1,-0,0,1.41,1.41,100,4499,15.9,4.04,,13.08,1.118,82.6,,41.3,5,,,,,,,,,,,,0,0,0,0,0,0,0,0,0,0,0,0,0,0,0,0,,,,,,0.0,,,,,,,
2925444,1745471522434,,,,,,,,,,,,,,,,,,,,,,,,,,,,,,,,,,0,0,0,0,0,0,0,0,0,0,0,0,0,0,0,0,,,,,,,,,,,,,
2925464,1745471522454,0.0,-61,,-0.14,0.36,1.43,2,-0,1,1.48,1.48,100,4485,15.6,4.06,,13.08,1.094,82.6,,40.3,5,,,,,,,,,,,,0,0,0,0,0,0,0,0,0,0,0,0,0,0,0,0,,,,,,0.0,,,,,,,
2925484,1745471522474,,,,,,,,,,,,,,,,,,,,,,,14,0,14,14,0.0,19.0,0.0,0.0,2.28,,,0,0,0,0,0,0,0,0,0,0,0,0,0,0,0,0,,0,,,,,38.993816,-76.93895,22.38,25.7,34,3,0.8
2925504,1745471522494,0.0,-65,,-0.16,0.42,1.49,3,-0,1,1.56,1.56,100,4517,15.3,4.06,,13.08,1.094,82.6,,40.3,5,,,,,,,,,,,,0,0,0,0,0,0,0,0,0,0,0,0,0,0,0,0,,,,,,0.0,,,,,,,
2925524,1745471522514,,,,,,,,,,,,,,,,,,,,,,,,,,,,,,,,,,0,0,0,0,0,0,0,0,0,0,0,0,0,0,0,0,,,,,,,,,,,,,
2925544,1745471522534,0.0,-65,,-0.17,0.33,1.46,2,-0,1,1.51,1.56,97,4517,15.3,4.06,,13.09,1.098,82.6,,40.8,5,,,,,,,,,,,,0,0,0,0,0,0,0,0,0,0,0,0,0,0,0,0,,,,,,0.0,,,,,,,
2925564,1745471522554,,,,,,,,,,,,,,,,,,,,,,,,,,,,,,,,,,0,0,0,0,0,0,0,0,0,0,0,0,0,0,0,0,,,,,,,,,,,,,
2925584,1745471522574,0.0,-71,,-0.15,0.19,1.36,1,-0,1,1.38,1.56,89,4723,15.3,4.07,,13.12,1.113,82.6,,40.8,5,13,0,13,14,0.0,14.0,0.0,0.0,2.29,,,0,0,0,0,0,0,0,0,0,0,0,0,0,0,0,0,,1,,,,0.0,38.993816,-76.938957,22.13,25.7,34,3,0.8
2925604,1745471522594,,,,,,,,,,,,,,,,,,,,,,,,,,,,,,,,,,0,0,0,0,0,0,0,0,0,0,0,0,0,0,0,0,,,,,,,,,,,,,
2925624,1745471522614,0.0,-71,,-0.13,0.21,1.32,1,-1,1,1.35,1.56,86,4762,15.3,4.07,,13.04,1.175,82.6,,40.8,5,,,,,,,,,,,,0,0,0,0,0,0,0,0,0,0,0,0,0,0,0,0,,,,,,0.0,,,,,,,
2925644,1745471522634,,,,,,,,,,,,,,,,,,,,,,,,,,,,,,,,,,0,0,0,0,0,0,0,0,0,0,0,0,0,0,0,0,,,,,,,,,,,,,
2925664,1745471522654,0.0,-71,,-0.14,0.26,1.36,2,-0,1,1.39,1.56,89,4658,15.3,4.05,,13.03,1.127,82.6,,42.4,5,,,,,,,,,,,,0,0,0,0,0,0,0,0,0,0,0,0,0,0,0,0,,,,,,0.0,,,,,,,
2925684,1745471522674,,,,,,,,,,,,,,,,,,,,,,,14,0,14,14,0.0,247.0,0.0,0.0,2.29,,,0,0,0,0,0,0,0,0,0,0,0,0,0,0,0,0,,1,,,,,38.993816,-76.938965,21.84,25.7,34,3,0.8
2925704,1745471522694,0.0,-65,,-0.13,0.17,1.35,2,-0,1,1.37,1.56,88,4544,15.3,4.04,,13.03,1.127,82.6,,42.4,5,,,,,,,,,,,,0,0,0,0,0,0,0,0,0,0,0,0,0,0,0,0,,,,,,0.0,,,,,,,
2925724,1745471522715,,,,,,,,,,,,,,,,,,,,,,,,,,,,,,,,,,0,0,0,0,0,0,0,0,0,0,0,0,0,0,0,0,,,,,,,,,,,,,
2925744,1745471522735,0.0,-68,,-0.1,0.01,1.29,0,-0,1,1.29,1.56,83,4544,15.3,4.04,,13.0,1.098,82.6,,40.4,5,,,,,,,,,,,,0,0,0,0,0,0,0,0,0,0,0,0,0,0,0,0,,,,,,0.0,,,,,,,
2925764,1745471522755,,,,,,,,,,,,,,,,,,,,,,,,,,,,,,,,,,0,0,0,0,0,0,0,0,0,0,0,0,0,0,0,0,,,,,,,,,,,,,
2925784,1745471522775,0.0,-61,,-0.08,-0.09,1.27,-0,-0,2,1.28,1.56,82,4518,15.3,4.04,,13.08,1.117,82.6,,40.4,5,14,0,14,14,0.0,77.0,0.0,0.0,2.28,,,0,0,0,0,0,0,0,0,0,0,0,0,0,0,0,0,,0,,,,0.0,38.993816,-76.938972,21.57,25.7,34,3,0.8
2925804,1745471522795,,,,,,,,,,,,,,,,,,,,,,,,,,,,,,,,,,0,0,0,0,0,0,0,0,0,0,0,0,0,0,0,0,,,,,,,,,,,,,
2925824,1745471522815,0.0,-55,,-0.08,-0.12,1.29,-0,-1,2,1.3,1.56,83,4468,15.6,4.02,,13.09,1.133,82.6,,40.4,5,,,,,,,,,,,,0,0,0,0,0,0,0,0,0,0,0,0,0,0,0,0,,,,,,0.0,,,,,,,
2925844,1745471522835,,,,,,,,,,,,,,,,,,,,,,,,,,,,,,,,,,0,0,0,0,0,0,0,0,0,0,0,0,0,0,0,0,,,,,,,,,,,,,
2925864,1745471522855,0.0,-71,,-0.08,-0.08,1.33,1,-1,2,1.34,1.56,86,4470,15.9,4.03,,13.11,1.131,82.6,,39.7,5,,,,,,,,,,,,0,0,0,0,0,0,0,0,0,0,0,0,0,0,0,0,,,,,,0.0,,,,,,,
2925884,1745471522875,,,,,,,,,,,,,,,,,,,,,,,14,0,13,13,0.0,9.0,0.0,0.0,2.28,,,0,0,0,0,0,0,0,0,0,0,0,0,0,0,0,0,,1,,,,,38.993816,-76.93898,21.52,25.7,34,3,0.8
2925904,1745471522895,0.0,-68,,-0.1,0.04,1.4,3,-1,2,1.4,1.56,90,4502,15.8,4.05,,13.11,1.131,82.6,,39.7,5,,,,,,,,,,,,0,0,0,0,0,0,0,0,0,0,0,0,0,0,0,0,,,,,,0.0,,,,,,,
2925924,1745471522915,,,,,,,,,,,,,,,,,,,,,,,,,,,,,,,,,,0,0,0,0,0,0,0,0,0,0,0,0,0,0,0,0,,,,,,,,,,,,,
2925944,1745471522935,0.0,-75,,-0.13,0.21,1.44,4,-1,2,1.46,1.56,93,4502,15.8,4.05,,13.13,1.143,82.6,,40.3,5,,,,,,,,,,,,0,0,0,0,0,0,0,0,0,0,0,0,0,0,0,0,,,,,,0.0,,,,,,,
2925964,1745471522955,,,,,,,,,,,,,,,,,,,,,,,,,,,,,,,,,,0,0,0,0,0,0,0,0,0,0,0,0,0,0,0,0,,,,,,,,,,,,,
2925984,1745471522975,0.0,-75,,-0.14,0.4,1.45,6,-0,3,1.51,1.56,97,4486,15.5,4.05,,13.13,1.145,82.6,,40.3,5,13,0,13,13,0.0,50.0,0.0,0.0,2.29,,,0,0,0,0,0,0,0,0,0,0,0,0,0,0,0,0,,1,,,,0.0,38.993816,-76.93898,21.56,25.7,34,3,0.8
2926004,1745471522995,,,,,,,,,,,,,,,,,,,,,,,,,,,,,,,,,,0,0,0,0,0,0,0,0,0,0,0,0,0,0,0,0,,,,,,,,,,,,,
2926024,1745471523003,0.0,-85,,-0.16,0.48,1.45,8,-0,3,1.54,1.56,99,4416,15.3,4.05,,13.13,1.164,82.6,,40.3,5,,,,,,,,,,,,0,0,0,0,0,0,0,0,0,0,0,0,0,0,0,0,,,,,,0.0,,,,,,,
2926044,1745471523023,,,,,,,,,,,,,,,,,,,,,,,,,,,,,,,,,,0,0,0,0,0,0,0,0,0,0,0,0,0,0,0,0,,,,,,,,,,,,,
2926064,1745471523043,0.0,-78,,-0.16,0.53,1.38,8,-1,3,1.49,1.56,96,4400,15.3,4.03,,13.08,1.169,82.6,,39.3,5,,,,,,,,,,,,0,0,0,0,0,0,0,0,0,0,0,0,0,0,0,0,,,,,,0.0,,,,,,,
2926084,1745471523063,,,,,,,,,,,,,,,,,,,,,,,13,0,13,13,0.0,36.0,0.0,0.0,2.29,,,0,0,0,0,0,0,0,0,0,0,0,0,0,0,0,0,,1,,,,,38.993816,-76.938988,21.08,25.8,34,3,0.8
2926104,1745471523083,0.0,-65,,-0.16,0.47,1.27,8,-1,2,1.36,1.56,87,4471,15.3,4.04,,13.08,1.169,82.6,,39.3,5,,,,,,,,,,,,0,0,0,0,0,0,0,0,0,0,0,0,0,0,0,0,,,,,,0.0,,,,,,,
2926124,1745471523103,,,,,,,,,,,,,,,,,,,,,,,,,,,,,,,,,,0,0,0,0,0,0,0,0,0,0,0,0,0,0,0,0,,,,,,,,,,,,,
2926144,1745471523123,0.0,-58,,-0.14,0.32,1.15,7,-1,1,1.2,1.56,77,4471,15.3,4.04,,13.11,1.158,82.6,,39.3,5,,,,,,,,,,,,0,0,0,0,0,0,0,0,0,0,0,0,0,0,0,0,,,,,,0.0,,,,,,,
2926164,1745471523143,,,,,,,,,,,,,,,,,,,,,,,,,,,,,,,,,,0,0,0,0,0,0,0,0,0,0,0,0,0,0,0,0,,,,,,,,,,,,,
2926184,1745471523163,0.0,-78,,-0.12,0.14,1.05,4,-1,1,1.07,1.56,69,4400,15.4,4.02,,13.2,1.165,82.6,,39.3,5,14,0,13,14,0.0,73.0,0.0,0.0,2.29,,,0,0,0,0,0,0,0,0,0,0,0,0,0,0,0,0,,1,,,,0.0,38.993816,-76.938995,21.12,25.8,34,3,0.8
2926204,1745471523183,,,,,,,,,,,,,,,,,,,,,,,,,,,,,,,,,,0,0,0,0,0,0,0,0,0,0,0,0,0,0,0,0,,,,,,,,,,,,,
2926224,1745471523211,0.0,-71,,-0.12,0.01,1.03,1,-1,0,1.04,1.56,67,4410,15.4,4.02,,13.16,1.171,82.6,,39.3,5,,,,,,,,,,,,0,0,0,0,0,0,0,0,0,0,0,0,0,0,0,0,,,,,,0.0,,,,,,,
2926244,1745471523231,,,,,,,,,,,,,,,,,,,,,,,,,,,,,,,,,,0,0,0,0,0,0,0,0,0,0,0,0,0,0,0,0,,,,,,,,,,,,,
2926264,1745471523251,0.0,-82,,-0.12,0.01,1.08,-1,-1,0,1.09,1.56,70,4403,15.5,4.04,,13.24,1.164,82.6,,39.5,5,,,,,,,,,,,,0,0,0,0,0,0,0,0,0,0,0,0,0,0,0,0,,,,,,0.0,,,,,,,
2926284,1745471523271,,,,,,,,,,,,,,,,,,,,,,,13,0,13,13,0.0,251.0,0.0,0.0,2.29,,,0,0,0,0,0,0,0,0,0,0,0,0,0,0,0,0,,1,,,,,38.993816,-76.939011,20.94,25.8,34,3,0.8
2926304,1745471523291,0.0,-71,,-0.12,0.1,1.21,1,-2,1,1.22,1.56,78,4334,15.7,4.03,,13.24,1.164,82.6,,39.5,5,,,,,,,,,,,,0,0,0,0,0,0,0,0,0,0,0,0,0,0,0,0,,,,,,0.0,,,,,,,
2926324,1745471523315,,,,,,,,,,,,,,,,,,,,,,,,,,,,,,,,,,0,0,0,0,0,0,0,0,0,0,0,0,0,0,0,0,,,,,,,,,,,,,
2926344,1745471523335,0.0,-71,,-0.14,0.19,1.19,3,-2,1,1.21,1.56,78,4334,15.7,4.03,,13.23,1.159,82.6,,38.3,5,,,,,,,,,,,,0,0,0,0,0,0,0,0,0,0,0,0,0,0,0,0,,,,,,0.0,,,,,,,
2926364,1745471523355,,,,,,,,,,,,,,,,,,,,,,,,,,,,,,,,,,0,0,0,0,0,0,0,0,0,0,0,0,0,0,0,0,,,,,,,,,,,,,
2926384,1745471523375,0.0,-82,13.62,-0.13,0.12,1.08,2,-1,1,1.09,1.56,70,4327,15.9,4.03,15,13.19,1.169,82.6,167,38.3,5,13,0,13,13,0.0,31.0,0.0,0.0,2.29,0,1.0,0,0,0,0,0,0,0,0,0,0,0,0,0,0,0,0,0,1,1.0,0,-0,0.0,38.993816,-76.939018,21.06,25.8,34,3,0.8
2926404,1745471523395,,,,,,,,,,,,,,,,,,,,,,,,,,,,,,,,,,0,0,0,0,0,0,0,0,0,0,0,0,0,0,0,0,,,,,,,,,,,,,
2926424,1745471523413,0.0,-75,,-0.12,0.0,1.0,-0,-1,0,1.0,1.0,100,4373,15.7,4.03,,13.16,1.159,82.6,,38.3,5,,,,,,,,,,,,0,0,0,0,0,0,0,0,0,0,0,0,0,0,0,0,,,,,,0.0,,,,,,,
2926444,1745471523433,,,,,,,,,,,,,,,,,,,,,,,,,,,,,,,,,,0,0,0,0,0,0,0,0,0,0,0,0,0,0,0,0,,,,,,,,,,,,,
2926464,1745471523453,0.0,-75,,-0.11,-0.03,1.0,-2,-1,0,1.0,1.0,100,4404,15.5,4.03,,13.21,1.16,82.6,,38.9,5,,,,,,,,,,,,0,0,0,0,0,0,0,0,0,0,0,0,0,0,0,0,,,,,,0.0,,,,,,,
2926484,1745471523473,,,,,,,,,,,,,,,,,,,,,,,13,0,13,13,0.0,216.0,0.0,0.0,2.29,,,0,0,0,0,0,0,0,0,0,0,0,0,0,0,0,0,,1,,,,,38.993816,-76.939018,20.81,25.8,34,3,0.8
2926504,1745471523493,0.0,-71,,-0.11,0.07,1.1,-1,-1,1,1.11,1.11,100,4328,15.5,4.02,,13.21,1.16,82.6,,38.9,5,,,,,,,,,,,,0,0,0,0,0,0,0,0,0,0,0,0,0,0,0,0,,,,,,0.0,,,,,,,
2926524,1745471523515,,,,,,,,,,,,,,,,,,,,,,,,,,,,,,,,,,0,0,0,0,0,0,0,0,0,0,0,0,0,0,0,0,,,,,,,,,,,,,
2926544,1745471523535,0.0,-75,,-0.13,0.14,1.09,1,-1,1,1.11,1.11,100,4328,15.5,4.02,,13.23,1.171,82.6,,38.3,5,,,,,,,,,,,,0,0,0,0,0,0,0,0,0,0,0,0,0,0,0,0,,,,,,0.0,,,,,,,
2926564,1745471523555,,,,,,,,,,,,,,,,,,,,,,,,,,,,,,,,,,0,0,0,0,0,0,0,0,0,0,0,0,0,0,0,0,,,,,,,,,,,,,
2926584,1745471523575,0.0,-82,,-0.12,0.07,0.98,0,-1,1,0.99,1.11,89,4304,15.4,4.03,,13.2,1.17,82.6,,38.3,5,13,0,13,13,0.0,26.0,0.0,0.0,2.3,,,0,0,0,0,0,0,0,0,0,0,0,0,0,0,0,0,,1,,,,0.0,38.993816,-76.939026,20.56,25.8,34,3,0.8
2926604,1745471523595,,,,,,,,,,,,,,,,,,,,,,,,,,,,,,,,,,0,0,0,0,0,0,0,0,0,0,0,0,0,0,0,0,,,,,,,,,,,,,
2926624,1745471523615,0.0,-85,,-0.1,-0.04,0.98,-2,-1,1,0.99,1.11,89,4310,15.4,4.03,,13.16,1.174,82.6,,38.3,5,,,,,,,,,,,,0,0,0,0,0,0,0,0,0,0,0,0,0,0,0,0,,,,,,0.0,,,,,,,
2926644,1745471523635,,,,,,,,,,,,,,,,,,,,,,,,,,,,,,,,,,0,0,0,0,0,0,0,0,0,0,0,0,0,0,0,0,,,,,,,,,,,,,
2926664,1745471523655,0.0,-82,,-0.11,-0.07,1.08,-2,-1,1,1.09,1.11,98,4329,15.5,4.02,,13.2,1.184,82.6,,38.1,5,,,,,,,,,,,,0,0,0,0,0,0,0,0,0,0,0,0,0,0,0,0,,,,,,0.0,,,,,,,
2926684,1745471523675,,,,,,,,,,,,,,,,,,,,,,,13,0,13,13,0.0,21.0,0.0,0.0,2.29,,,0,0,0,0,0,0,0,0,0,0,0,0,0,0,0,0,,1,,,,,38.993816,-76.939034,20.54,25.8,34,3,0.8
2926704,1745471523695,0.0,-75,,-0.11,0.0,1.1,0,-1,1,1.11,1.11,100,4343,15.5,4.02,,13.2,1.184,82.6,,38.1,5,,,,,,,,,,,,0,0,0,0,0,0,0,0,0,0,0,0,0,0,0,0,,,,,,0.0,,,,,,,
2926724,1745471523715,,,,,,,,,,,,,,,,,,,,,,,,,,,,,,,,,,0,0,0,0,0,0,0,0,0,0,0,0,0,0,0,0,,,,,,,,,,,,,
2926744,1745471523735,0.0,-78,,-0.1,-0.03,1.03,-0,-1,1,1.03,1.11,93,4343,15.5,4.02,,13.24,1.182,82.6,,38.3,5,,,,,,,,,,,,0,0,0,0,0,0,0,0,0,0,0,0,0,0,0,0,,,,,,0.0,,,,,,,
2926764,1745471523755,,,,,,,,,,,,,,,,,,,,,,,,,,,,,,,,,,0,0,0,0,0,0,0,0,0,0,0,0,0,0,0,0,,,,,,,,,,,,,
2926784,1745471523775,0.0,-61,,-0.09,-0.14,0.97,-3,-1,1,0.99,1.11,89,4330,15.5,4.02,,13.27,1.173,82.6,,38.3,5,13,0,13,14,0.0,0.0,0.0,0.0,2.29,,,0,0,0,0,0,0,0,0,0,0,0,0,0,0,0,0,,0,,,,0.0,38.993816,-76.939041,20.55,25.8,34,3,0.8
2926804,1745471523795,,,,,,,,,,,,,,,,,,,,,,,,,,,,,,,,,,0,0,0,0,0,0,0,0,0,0,0,0,0,0,0,0,,,,,,,,,,,,,
2926824,1745471523814,0.0,-75,,-0.09,-0.08,1.06,-1,-1,1,1.07,1.11,96,4247,15.6,4.02,,13.24,1.169,82.6,,38.3,5,,,,,,,,,,,,0,0,0,0,0,0,0,0,0,0,0,0,0,0,0,0,,,,,,0.0,,,,,,,
2926844,1745471523834,,,,,,,,,,,,,,,,,,,,,,,,,,,,,,,,,,0,0,0,0,0,0,0,0,0,0,0,0,0,0,0,0,,,,,,,,,,,,,
2926864,1745471523854,0.0,-85,,-0.1,0.0,1.03,0,-1,1,1.03,1.11,93,4247,15.9,4.02,,13.19,1.173,82.6,,37.6,5,,,,,,,,,,,,0,0,0,0,0,0,0,0,0,0,0,0,0,0,0,0,,,,,,0.0,,,,,,,
2926884,1745471523874,,,,,,,,,,,,,,,,,,,,,,,13,0,13,13,0.0,10.0,0.0,0.0,2.29,,,0,0,0,0,0,0,0,0,0,0,0,0,0,0,0,0,,1,,,,,38.993816,-76.939049,20.37,25.8,34,3,0.8
2926904,1745471523894,0.0,-68,,-0.08,-0.12,0.94,-2,-1,1,0.95,1.11,86,4300,15.6,4.02,,13.19,1.173,82.6,,37.6,5,,,,,,,,,,,,0,0,0,0,0,0,0,0,0,0,0,0,0,0,0,0,,,,,,0.0,,,,,,,
2926924,1745471523916,,,,,,,,,,,,,,,,,,,,,,,,,,,,,,,,,,0,0,0,0,0,0,0,0,0,0,0,0,0,0,0,0,,,,,,,,,,,,,
2926944,1745471523936,0.0,-75,,-0.1,-0.1,1.0,-2,-1,2,1.01,1.11,91,4300,15.6,4.02,,13.17,1.17,82.6,,38.2,5,,,,,,,,,,,,0,0,0,0,0,0,0,0,0,0,0,0,0,0,0,0,,,,,,0.0,,,,,,,
2926964,1745471523956,,,,,,,,,,,,,,,,,,,,,,,,,,,,,,,,,,0,0,0,0,0,0,0,0,0,0,0,0,0,0,0,0,,,,,,,,,,,,,
2926984,1745471523976,0.0,-82,,-0.11,0.01,0.99,-0,-1,2,1.0,1.11,90,4258,15.4,4.01,,13.23,1.17,82.6,,38.2,5,13,0,13,13,0.0,216.0,0.0,0.0,2.29,,,0,0,0,0,0,0,0,0,0,0,0,0,0,0,0,0,,1,,,,0.0,38.993816,-76.939056,20.33,25.9,34,3,0.8
2927004,1745471523996,,,,,,,,,,,,,,,,,,,,,,,,,,,,,,,,,,0,0,0,0,0,0,0,0,0,0,0,0,0,0,0,0,,,,,,,,,,,,,
2927024,1745471524006,0.0,-85,,-0.09,-0.09,0.92,-2,-1,1,0.93,1.11,83,4244,15.4,4.03,,13.27,1.191,82.6,,38.2,5,,,,,,,,,,,,0,0,0,0,0,0,0,0,0,0,0,0,0,0,0,0,,,,,,0.0,,,,,,,
2927044,1745471524026,,,,,,,,,,,,,,,,,,,,,,,,,,,,,,,,,,0,0,0,0,0,0,0,0,0,0,0,0,0,0,0,0,,,,,,,,,,,,,
2927064,1745471524046,0.0,-75,,-0.09,-0.12,0.97,-4,-0,1,0.98,1.11,89,4236,15.3,4.03,,13.21,1.19,82.6,,37.4,5,,,,,,,,,,,,0,0,0,0,0,0,0,0,0,0,0,0,0,0,0,0,,,,,,0.0,,,,,,,
2927084,1745471524066,,,,,,,,,,,,,,,,,,,,,,,12,0,13,13,0.0,241.0,0.0,0.0,2.3,,,0,0,0,0,0,0,0,0,0,0,0,0,0,0,0,0,,1,,,,,38.993816,-76.939056,20.27,25.9,34,3,0.8
2927104,1745471524086,0.0,-71,,-0.11,-0.07,1.03,-3,-0,1,1.04,1.11,94,4277,15.2,4.01,,13.21,1.19,82.6,,37.4,5,,,,,,,,,,,,0,0,0,0,0,0,0,0,0,0,0,0,0,0,0,0,,,,,,0.0,,,,,,,
2927124,1745471524112,,,,,,,,,,,,,,,,,,,,,,,,,,,,,,,,,,0,0,0,0,0,0,0,0,0,0,0,0,0,0,0,0,,,,,,,,,,,,,
2927144,1745471524132,0.0,-51,,-0.11,-0.16,0.95,-4,-0,1,0.97,1.11,87,4277,15.2,4.01,,13.24,1.202,82.6,,37.2,5,,,,,,,,,,,,0,0,0,0,0,0,0,0,0,0,0,0,0,0,0,0,,,,,,0.0,,,,,,,
2927164,1745471524152,,,,,,,,,,,,,,,,,,,,,,,,,,,,,,,,,,0,0,0,0,0,0,0,0,0,0,0,0,0,0,0,0,,,,,,,,,,,,,
2927184,1745471524172,0.0,-65,,-0.1,-0.13,1.01,-4,-1,1,1.03,1.11,92,4265,15.1,4.0,,13.23,1.2,82.6,,37.2,5,13,0,13,13,0.0,5.0,0.0,0.0,2.29,,,0,0,0,0,0,0,0,0,0,0,0,0,0,0,0,0,,0,,,,0.0,38.993816,-76.939064,20.09,25.9,34,3,0.8
2927204,1745471524192,,,,,,,,,,,,,,,,,,,,,,,,,,,,,,,,,,0,0,0,0,0,0,0,0,0,0,0,0,0,0,0,0,,,,,,,,,,,,,
2927224,1745471524214,0.0,-75,,-0.12,-0.05,0.99,-4,-1,1,1.0,1.11,90,4159,14.9,4.0,,13.27,1.197,82.6,,37.2,5,,,,,,,,,,,,0,0,0,0,0,0,0,0,0,0,0,0,0,0,0,0,,,,,,0.0,,,,,,,
2927244,1745471524234,,,,,,,,,,,,,,,,,,,,,,,,,,,,,,,,,,0,0,0,0,0,0,0,0,0,0,0,0,0,0,0,0,,,,,,,,,,,,,
2927264,1745471524254,0.0,-75,,-0.13,-0.15,1.01,-7,-1,1,1.03,1.11,93,4134,14.7,3.99,,13.31,1.188,82.6,,36.6,5,,,,,,,,,,,,0,0,0,0,0,0,0,0,0,0,0,0,0,0,0,0,,,,,,0.0,,,,,,,
2927284,1745471524274,,,,,,,,,,,,,,,,,,,,,,,13,0,13,13,0.0,61.0,0.0,0.0,2.29,,,0,0,0,0,0,0,0,0,0,0,0,0,0,0,0,0,,1,,,,,38.993816,-76.939072,20.09,25.9,34,3,0.8
2927304,1745471524294,0.0,-65,,-0.13,-0.12,1.05,-6,-1,1,1.06,1.11,96,4220,15.0,3.99,,13.31,1.188,82.6,,36.6,5,,,,,,,,,,,,0,0,0,0,0,0,0,0,0,0,0,0,0,0,0,0,,,,,,0.0,,,,,,,
2927324,1745471524316,,,,,,,,,,,,,,,,,,,,,,,,,,,,,,,,,,0,0,0,0,0,0,0,0,0,0,0,0,0,0,0,0,,,,,,,,,,,,,
2927344,1745471524336,0.0,-55,,-0.11,-0.24,0.95,-8,-1,1,0.99,1.11,89,4220,15.0,3.99,,13.21,1.187,82.6,,37.0,5,,,,,,,,,,,,0,0,0,0,0,0,0,0,0,0,0,0,0,0,0,0,,,,,,0.0,,,,,,,
2927364,1745471524356,,,,,,,,,,,,,,,,,,,,,,,,,,,,,,,,,,0,0,0,0,0,0,0,0,0,0,0,0,0,0,0,0,,,,,,,,,,,,,
2927384,1745471524376,0.0,-61,13.59,-0.09,-0.17,1.04,-7,-1,1,1.06,1.11,96,4236,15.3,3.99,15,13.23,1.197,82.6,167,37.0,5,12,0,12,13,0.0,246.0,0.0,0.0,2.29,0,1.0,0,0,0,0,0,0,0,0,0,0,0,0,0,0,0,0,0,1,1.0,0,-0,0.0,38.993816,-76.939079,19.96,25.9,34,3,0.8
2927404,1745471524396,,,,,,,,,,,,,,,,,,,,,,,,,,,,,,,,,,0,0,0,0,0,0,0,0,0,0,0,0,0,0,0,0,,,,,,,,,,,,,
2927424,1745471524416,0.0,-55,,-0.11,-0.18,0.98,-9,-1,1,1.0,1.11,90,4154,15.0,4.0,,13.27,1.197,82.6,,37.0,5,,,,,,,,,,,,0,0,0,0,0,0,0,0,0,0,0,0,0,0,0,0,,,,,,0.0,,,,,,,
2927444,1745471524436,,,,,,,,,,,,,,,,,,,,,,,,,,,,,,,,,,0,0,0,0,0,0,0,0,0,0,0,0,0,0,0,0,,,,,,,,,,,,,
2927464,1745471524456,0.0,-48,,-0.09,-0.25,1.02,-11,-1,1,1.06,1.11,95,4126,14.8,3.99,,13.16,1.189,82.6,,36.6,5,,,,,,,,,,,,0,0,0,0,0,0,0,0,0,0,0,0,0,0,0,0,,,,,,0.0,,,,,,,
2927484,1745471524476,,,,,,,,,,,,,,,,,,,,,,,12,0,12,14,0.0,0.0,0.0,0.0,2.29,,,0,0,0,0,0,0,0,0,0,0,0,0,0,0,0,0,,0,,,,,38.993816,-76.939087,19.76,25.9,34,3,0.8
2927504,1745471524496,0.0,-48,,-0.12,-0.23,0.98,-12,-1,1,1.02,1.11,92,4121,14.6,3.99,,13.16,1.189,82.6,,36.6,5,,,,,,,,,,,,0,0,0,0,0,0,0,0,0,0,0,0,0,0,0,0,,,,,,0.0,,,,,,,
2927524,1745471524516,,,,,,,,,,,,,,,,,,,,,,,,,,,,,,,,,,0,0,0,0,0,0,0,0,0,0,0,0,0,0,0,0,,,,,,,,,,,,,
2927544,1745471524536,0.0,-41,,-0.13,-0.24,1.02,-13,-1,1,1.05,1.11,95,4121,14.6,3.99,,13.2,1.197,82.6,,35.7,5,,,,,,,,,,,,0,0,0,0,0,0,0,0,0,0,0,0,0,0,0,0,,,,,,0.0,,,,,,,
2927564,1745471524556,,,,,,,,,,,,,,,,,,,,,,,,,,,,,,,,,,0,0,0,0,0,0,0,0,0,0,0,0,0,0,0,0,,,,,,,,,,,,,
2927584,1745471524576,0.0,-55,,-0.15,-0.23,0.95,-13,-1,1,0.99,1.11,89,4145,14.4,3.98,,13.2,1.203,82.6,,35.7,5,12,13,12,13,0.0,59.0,0.0,0.0,2.3,,,0,0,0,0,0,0,0,0,0,0,0,0,0,0,0,0,,0,,,,0.0,38.993816,-76.939095,19.68,25.9,34,3,0.8
2927604,1745471524596,,,,,,,,,,,,,,,,,,,,,,,,,,,,,,,,,,0,0,0,0,0,0,0,0,0,0,0,0,0,0,0,0,,,,,,,,,,,,,
2927624,1745471524616,0.0,-51,,-0.12,-0.26,0.99,-14,-1,1,1.03,1.11,93,4113,14.6,3.99,,13.23,1.2,82.6,,35.7,5,,,,,,,,,,,,0,0,0,0,0,0,0,0,0,0,0,0,0,0,0,0,,,,,,0.0,,,,,,,
2927644,1745471524636,,,,,,,,,,,,,,,,,,,,,,,,,,,,,,,,,,0,0,0,0,0,0,0,0,0,0,0,0,0,0,0,0,,,,,,,,,,,,,
2927664,1745471524656,0.0,-55,,-0.12,-0.23,0.94,-14,-1,0,0.97,1.11,87,4096,14.7,3.99,,13.13,1.203,82.6,,36.1,5,,,,,,,,,,,,0,0,0,0,0,0,0,0,0,0,0,0,0,0,0,0,,,,,,0.0,,,,,,,
2927684,1745471524676,,,,,,,,,,,,,,,,,,,,,,,12,13,12,13,0.0,216.0,0.0,0.0,2.29,,,0,0,0,0,0,0,0,0,0,0,0,0,0,0,0,0,,0,,,,,38.993816,-76.939102,19.59,25.9,34,3,0.8
2927704,1745471524696,0.0,-44,,-0.12,-0.24,1.01,-15,-1,1,1.04,1.11,94,4120,14.6,3.98,,13.13,1.203,82.6,,36.1,5,,,,,,,,,,,,0,0,0,0,0,0,0,0,0,0,0,0,0,0,0,0,,,,,,0.0,,,,,,,
2927724,1745471524716,,,,,,,,,,,,,,,,,,,,,,,,,,,,,,,,,,0,0,0,0,0,0,0,0,0,0,0,0,0,0,0,0,,,,,,,,,,,,,
2927744,1745471524736,0.0,-38,,-0.13,-0.26,0.97,-17,-0,1,1.02,1.11,91,4120,14.6,3.98,,13.21,1.204,82.6,,36.0,5,,,,,,,,,,,,0,0,0,0,0,0,0,0,0,0,0,0,0,0,0,0,,,,,,0.0,,,,,,,
2927764,1745471524756,,,,,,,,,,,,,,,,,,,,,,,,,,,,,,,,,,0,0,0,0,0,0,0,0,0,0,0,0,0,0,0,0,,,,,,,,,,,,,
2927784,1745471524776,0.0,-34,,-0.13,-0.2,1.06,-17,-0,1,1.09,1.11,98,4076,14.5,3.98,,13.28,1.206,82.6,,36.0,5,12,12,12,13,0.0,174.0,0.0,0.0,2.29,,,0,0,0,0,0,0,0,0,0,0,0,0,0,0,0,0,,0,,,,0.0,38.993816,-76.939102,19.38,25.9,34,3,0.8
2927804,1745471524796,,,,,,,,,,,,,,,,,,,,,,,,,,,,,,,,,,0,0,0,0,0,0,0,0,0,0,0,0,0,0,0,0,,,,,,,,,,,,,
2927824,1745471524817,0.0,-38,,-0.15,-0.27,0.97,-20,0,1,1.02,1.11,92,4076,14.8,3.98,,13.19,1.202,82.6,,36.0,5,,,,,,,,,,,,0,0,0,0,0,0,0,0,0,0,0,0,0,0,0,0,,,,,,0.0,,,,,,,
2927844,1745471524837,,,,,,,,,,,,,,,,,,,,,,,,,,,,,,,,,,0,0,0,0,0,0,0,0,0,0,0,0,0,0,0,0,,,,,,,,,,,,,
2927864,1745471524857,0.0,-41,,-0.15,-0.18,1.04,-18,-0,1,1.07,1.11,96,4100,15.1,3.99,,13.2,1.192,82.6,,35.3,5,,,,,,,,,,,,0,0,0,0,0,0,0,0,0,0,0,0,0,0,0,0,,,,,,0.0,,,,,,,
2927884,1745471524877,,,,,,,,,,,,,,,,,,,,,,,12,13,12,13,0.0,50.0,0.0,0.0,2.29,,,0,0,0,0,0,0,0,0,0,0,0,0,0,0,0,0,,0,,,,,38.99382,-76.93911,19.38,25.9,34,3,0.8
2927904,1745471524897,0.0,-44,,-0.16,-0.25,0.97,-21,0,1,1.02,1.11,91,4105,14.9,3.98,,13.2,1.192,82.6,,35.3,5,,,,,,,,,,,,0,0,0,0,0,0,0,0,0,0,0,0,0,0,0,0,,,,,,0.0,,,,,,,
2927924,1745471524917,,,,,,,,,,,,,,,,,,,,,,,,,,,,,,,,,,0,0,0,0,0,0,0,0,0,0,0,0,0,0,0,0,,,,,,,,,,,,,
2927944,1745471524937,0.0,-27,,-0.15,-0.25,1.0,-20,0,1,1.04,1.11,94,4105,14.9,3.98,,13.27,1.189,82.6,,35.6,5,,,,,,,,,,,,0,0,0,0,0,0,0,0,0,0,0,0,0,0,0,0,,,,,,0.0,,,,,,,
2927964,1745471524957,,,,,,,,,,,,,,,,,,,,,,,,,,,,,,,,,,0,0,0,0,0,0,0,0,0,0,0,0,0,0,0,0,,,,,,,,,,,,,
2927984,1745471524977,0.0,-48,,-0.15,-0.27,1.02,-21,0,1,1.06,1.11,96,4026,14.6,3.98,,13.32,1.187,82.6,,35.6,5,12,13,12,13,0.0,29.0,0.0,0.0,2.29,,,0,0,0,0,0,0,0,0,0,0,0,0,0,0,0,0,,0,,,,0.0,38.99382,-76.939117,19.14,26.0,34,3,0.8
2928004,1745471524997,,,,,,,,,,,,,,,,,,,,,,,,,,,,,,,,,,0,0,0,0,0,0,0,0,0,0,0,0,0,0,0,0,,,,,,,,,,,,,
2928024,1745471525009,0.0,-38,,-0.17,-0.32,0.95,-22,-0,1,1.02,1.11,92,4067,14.5,3.99,,13.28,1.185,82.6,,35.6,5,,,,,,,,,,,,0,0,0,0,0,0,0,0,0,0,0,0,0,0,0,0,,,,,,0.0,,,,,,,
2928044,1745471525029,,,,,,,,,,,,,,,,,,,,,,,,,,,,,,,,,,0,0,0,0,0,0,0,0,0,0,0,0,0,0,0,0,,,,,,,,,,,,,
2928064,1745471525049,0.0,-34,,-0.16,-0.31,0.96,-20,-0,1,1.02,1.11,92,4066,14.6,3.99,,13.29,1.199,82.6,,35.2,5,,,,,,,,,,,,0,0,0,0,0,0,0,0,0,0,0,0,0,0,0,0,,,,,,0.0,,,,,,,
2928084,1745471525069,,,,,,,,,,,,,,,,,,,,,,,12,15,12,13,0.0,39.0,0.0,0.0,2.3,,,0,0,0,0,0,0,0,0,0,0,0,0,0,0,0,0,,1,,,,,38.99382,-76.939117,19.15,26.0,34,3,0.8
2928104,1745471525089,0.0,-41,,-0.16,-0.33,0.95,-22,-0,0,1.02,1.11,91,4003,14.7,3.99,,13.29,1.199,80.8,,35.2,5,,,,,,,,,,,,0,0,0,0,0,0,0,0,0,0,0,0,0,0,0,0,,,,,,0.0,,,,,,,
2928124,1745471525118,,,,,,,,,,,,,,,,,,,,,,,,,,,,,,,,,,0,0,0,0,0,0,0,0,0,0,0,0,0,0,0,0,,,,,,,,,,,,,
2928144,1745471525138,0.0,-31,,-0.17,-0.36,0.87,-22,0,0,0.96,1.11,86,4003,14.7,3.99,,13.29,1.195,80.8,,34.6,5,,,,,,,,,,,,0,0,0,0,0,0,0,0,0,0,0,0,0,0,0,0,,,,,,0.0,,,,,,,
2928164,1745471525158,,,,,,,,,,,,,,,,,,,,,,,,,,,,,,,,,,0,0,0,0,0,0,0,0,0,0,0,0,0,0,0,0,,,,,,,,,,,,,
2928184,1745471525178,0.0,-38,,-0.15,-0.31,0.95,-21,0,1,1.01,1.11,91,4046,14.7,3.99,,13.36,1.176,80.8,,34.6,5,11,13,12,13,0.0,219.0,0.0,0.0,2.29,,,0,0,0,0,0,0,0,0,0,0,0,0,0,0,0,0,,0,,,,0.0,38.993824,-76.939125,19.17,26.0,34,3,0.8
2928204,1745471525198,,,,,,,,,,,,,,,,,,,,,,,,,,,,,,,,,,0,0,0,0,0,0,0,0,0,0,0,0,0,0,0,0,,,,,,,,,,,,,
2928224,1745471525217,0.0,-44,,-0.14,-0.37,0.95,-23,1,1,1.03,1.03,100,4034,14.8,3.99,,13.29,1.167,80.8,,34.6,5,,,,,,,,,,,,0,0,0,0,0,0,0,0,0,0,0,0,0,0,0,0,,,,,,0.0,,,,,,,
2928244,1745471525237,,,,,,,,,,,,,,,,,,,,,,,,,,,,,,,,,,0,0,0,0,0,0,0,0,0,0,0,0,0,0,0,0,,,,,,,,,,,,,
2928264,1745471525257,0.0,-44,,-0.16,-0.35,0.91,-21,1,1,0.99,1.03,96,3978,14.8,3.99,,13.37,1.172,80.8,,34.7,5,,,,,,,,,,,,0,0,0,0,0,0,0,0,0,0,0,0,0,0,0,0,,,,,,0.0,,,,,,,
2928284,1745471525277,,,,,,,,,,,,,,,,,,,,,,,11,12,12,12,0.0,144.0,0.0,0.0,2.29,,,0,0,0,0,0,0,0,0,0,0,0,0,0,0,0,0,,0,,,,,38.993828,-76.939133,18.91,26.0,34,3,0.8
2928304,1745471525297,0.0,-38,,-0.15,-0.32,0.96,-21,1,1,1.03,1.03,100,3995,15.0,3.99,,13.37,1.172,80.8,,34.7,5,,,,,,,,,,,,0,0,0,0,0,0,0,0,0,0,0,0,0,0,0,0,,,,,,0.0,,,,,,,
2928324,1745471525317,,,,,,,,,,,,,,,,,,,,,,,,,,,,,,,,,,0,0,0,0,0,0,0,0,0,0,0,0,0,0,0,0,,,,,,,,,,,,,
2928344,1745471525337,0.0,-41,,-0.15,-0.38,0.96,-22,1,1,1.04,1.04,100,3995,15.0,3.99,,13.4,1.176,80.8,,34.3,5,,,,,,,,,,,,0,0,0,0,0,0,0,0,0,0,0,0,0,0,0,0,,,,,,0.0,,,,,,,
2928364,1745471525357,,,,,,,,,,,,,,,,,,,,,,,,,,,,,,,,,,0,0,0,0,0,0,0,0,0,0,0,0,0,0,0,0,,,,,,,,,,,,,
2928384,1745471525377,0.0,-38,13.64,-0.17,-0.34,0.89,-23,1,0,0.97,1.04,93,3990,15.0,4.0,15,13.39,1.182,80.8,167,34.3,5,12,14,11,13,0.0,216.0,0.0,0.0,2.29,0,1.0,0,0,0,0,0,0,0,0,0,0,0,0,0,0,0,0,0,0,1.0,0,-0,0.0,38.993828,-76.93914,18.65,26.0,34,3,0.8
2928404,1745471525397,,,,,,,,,,,,,,,,,,,,,,,,,,,,,,,,,,0,0,0,0,0,0,0,0,0,0,0,0,0,0,0,0,,,,,,,,,,,,,
2928424,1745471525417,0.0,-38,,-0.16,-0.26,0.92,-21,1,0,0.97,1.04,93,3959,14.8,3.98,,13.35,1.174,80.8,,34.3,5,,,,,,,,,,,,0,0,0,0,0,0,0,0,0,0,0,0,0,0,0,0,,,,,,0.0,,,,,,,
2928444,1745471525437,,,,,,,,,,,,,,,,,,,,,,,,,,,,,,,,,,0,0,0,0,0,0,0,0,0,0,0,0,0,0,0,0,,,,,,,,,,,,,
2928464,1745471525457,0.0,-21,,-0.16,-0.25,0.96,-22,1,0,1.0,1.04,96,3989,14.6,3.99,,13.37,1.16,80.8,,34.0,5,,,,,,,,,,,,0,0,0,0,0,0,0,0,0,0,0,0,0,0,0,0,,,,,,0.0,,,,,,,
2928484,1745471525477,,,,,,,,,,,,,,,,,,,,,,,11,13,11,12,0.0,185.0,0.0,0.0,2.29,,,0,0,0,0,0,0,0,0,0,0,0,0,0,0,0,0,,1,,,,,38.993832,-76.93914,18.39,26.0,34,3,0.8
2928504,1745471525497,0.0,-24,,-0.17,-0.31,0.93,-24,0,0,0.99,1.04,95,3936,14.6,4.01,,13.37,1.16,80.8,,34.0,5,,,,,,,,,,,,0,0,0,0,0,0,0,0,0,0,0,0,0,0,0,0,,,,,,0.0,,,,,,,
2928524,1745471525515,,,,,,,,,,,,,,,,,,,,,,,,,,,,,,,,,,0,0,0,0,0,0,0,0,0,0,0,0,0,0,0,0,,,,,,,,,,,,,
2928544,1745471525535,0.0,-27,,-0.19,-0.3,0.9,-24,0,-0,0.97,1.04,93,3936,14.6,4.01,,13.4,1.153,80.8,,33.7,5,,,,,,,,,,,,0,0,0,0,0,0,0,0,0,0,0,0,0,0,0,0,,,,,,0.0,,,,,,,
2928564,1745471525555,,,,,,,,,,,,,,,,,,,,,,,,,,,,,,,,,,0,0,0,0,0,0,0,0,0,0,0,0,0,0,0,0,,,,,,,,,,,,,
2928584,1745471525575,0.0,-31,,-0.18,-0.26,0.93,-23,0,0,0.98,1.04,94,3893,14.6,4.0,,13.47,1.161,80.8,,33.7,5,11,16,11,12,0.0,101.0,0.0,0.0,2.3,,,0,0,0,0,0,0,0,0,0,0,0,0,0,0,0,0,,0,,,,0.0,38.993835,-76.939148,18.72,26.0,34,3,0.8
2928604,1745471525595,,,,,,,,,,,,,,,,,,,,,,,,,,,,,,,,,,0,0,0,0,0,0,0,0,0,0,0,0,0,0,0,0,,,,,,,,,,,,,
2928624,1745471525617,0.0,-38,,-0.17,-0.26,1.0,-24,0,0,1.05,1.05,100,3953,14.7,4.02,,13.39,1.157,80.8,,33.7,5,,,,,,,,,,,,0,0,0,0,0,0,0,0,0,0,0,0,0,0,0,0,,,,,,0.0,,,,,,,
2928644,1745471525637,,,,,,,,,,,,,,,,,,,,,,,,,,,,,,,,,,0,0,0,0,0,0,0,0,0,0,0,0,0,0,0,0,,,,,,,,,,,,,
2928664,1745471525657,0.0,-34,,-0.17,-0.28,1.03,-25,0,1,1.08,1.08,100,3861,14.6,4.01,,13.41,1.163,80.8,,33.8,5,,,,,,,,,,,,0,0,0,0,0,0,0,0,0,0,0,0,0,0,0,0,,,,,,0.0,,,,,,,
2928684,1745471525677,,,,,,,,,,,,,,,,,,,,,,,11,14,11,12,0.0,240.0,0.0,0.0,2.29,,,0,0,0,0,0,0,0,0,0,0,0,0,0,0,0,0,,0,,,,,38.993835,-76.939148,18.35,26.0,34,3,0.8
2928704,1745471525697,0.0,-41,,-0.17,-0.27,0.99,-26,0,1,1.04,1.08,96,3875,14.7,4.0,,13.41,1.163,80.8,,33.8,5,,,,,,,,,,,,0,0,0,0,0,0,0,0,0,0,0,0,0,0,0,0,,,,,,0.0,,,,,,,
2928724,1745471525717,,,,,,,,,,,,,,,,,,,,,,,,,,,,,,,,,,0,0,0,0,0,0,0,0,0,0,0,0,0,0,0,0,,,,,,,,,,,,,
2928744,1745471525737,0.0,-27,,-0.18,-0.3,0.96,-26,0,0,1.03,1.08,95,3875,14.7,4.0,,13.44,1.165,80.8,,33.3,5,,,,,,,,,,,,0,0,0,0,0,0,0,0,0,0,0,0,0,0,0,0,,,,,,0.0,,,,,,,
2928764,1745471525757,,,,,,,,,,,,,,,,,,,,,,,,,,,,,,,,,,0,0,0,0,0,0,0,0,0,0,0,0,0,0,0,0,,,,,,,,,,,,,
2928784,1745471525777,0.0,-21,,-0.16,-0.26,0.97,-25,0,0,1.02,1.08,94,3937,14.8,4.01,,13.43,1.153,80.8,,33.3,5,11,14,11,12,0.0,251.0,0.0,0.0,2.29,,,0,0,0,0,0,0,0,0,0,0,0,0,0,0,0,0,,1,,,,0.0,38.993835,-76.939156,18.46,26.0,34,3,0.8
2928804,1745471525797,,,,,,,,,,,,,,,,,,,,,,,,,,,,,,,,,,0,0,0,0,0,0,0,0,0,0,0,0,0,0,0,0,,,,,,,,,,,,,
2928824,1745471525816,0.0,-17,,-0.14,-0.21,0.98,-25,1,0,1.01,1.08,93,3851,15.0,4.01,,13.45,1.145,80.8,,33.3,5,,,,,,,,,,,,0,0,0,0,0,0,0,0,0,0,0,0,0,0,0,0,,,,,,0.0,,,,,,,
2928844,1745471525836,,,,,,,,,,,,,,,,,,,,,,,,,,,,,,,,,,0,0,0,0,0,0,0,0,0,0,0,0,0,0,0,0,,,,,,,,,,,,,
2928864,1745471525856,0.0,-27,,-0.14,-0.23,1.0,-25,1,0,1.03,1.08,96,3894,15.0,4.02,,13.41,1.145,80.8,,33.0,5,,,,,,,,,,,,0,0,0,0,0,0,0,0,0,0,0,0,0,0,0,0,,,,,,0.0,,,,,,,
2928884,1745471525876,,,,,,,,,,,,,,,,,,,,,,,11,13,11,13,0.0,93.0,0.0,0.0,2.29,,,0,0,0,0,0,0,0,0,0,0,0,0,0,0,0,0,,0,,,,,38.993839,-76.939163,18.05,26.0,34,3,0.8
