"Interval"|"ms"|0|0|1,"Utc"|"ms"|0|0|1,"FrontBP"|"psi"|-5.0|5.0|25,"SteerAng"|"Degrees"|-145|145|25,"Battery"|"Volts"|-5.0|20.0|1,"AccelX"|"G"|-3.0|3.0|25,"AccelY"|"G"|-3.0|3.0|25,"AccelZ"|"G"|-3.0|3.0|25,"Yaw"|"Deg/Sec"|-120|120|25,"Pitch"|"Deg/Sec"|-120|120|25,"Roll"|"Deg/Sec"|-120|120|25,"Gsum"|"G"|0.0|3.0|25,"GsumMax"|"G"|0.0|3.0|25,"GsumPct"|"%"|0|100|25,"RPM"|""|0|10000|25,"TPS"|"%"|0.0|100.0|25,"InjectorPW"|"ms"|0.0|100.0|25,"Baro"|"kPa"|0|105|1,"MAP"|"Psi"|0.0|255.0|25,"Lambda"|""|-2.0|2.0|25,"IAT"|"C"|0.0|200.0|25,"EngineTemp"|"C"|0|200|1,"EOP"|"PSI"|0.0|152.0|25,"EOT"|"F"|0|250|25,"WSFR"|"MPH"|0|150|10,"WSFL"|"MPH"|0|100|10,"WSRR"|"MPH"|0|100|10,"WSRL"|""|0|100|10,"TCSet"|"%"|0.0|100.0|10,"TCSlip"|"%"|0.0|100.0|10,"TCComp"|"deg"|0.0|50.0|10,"TCCut"|"%"|0.0|100.0|10,"Analog8"|""|0.0|5.0|10,"OilTemp"|"F"|0|300|1,"AA_On"|""|0.0|1.0|1,"ThermLF1"|"C"|0|400|50,"ThermLF2"|"C"|0|400|50,"ThermRR1"|"C"|0|400|50,"ThermRR2"|"C"|0|400|50,"ThermLF3"|"C"|0|400|50,"ThermLF4"|"C"|0|400|50,"ThermLF5"|"C"|0|400|50,"ThermLF6"|"C"|0|400|50,"ThermLF7"|"C"|0|400|50,"ThermLF8"|"C"|0|400|50,"ThermRR3"|"C"|0|400|50,"ThermRR4"|"C"|0|400|50,"ThermRR5"|"C"|0|400|50,"ThermRR6"|"C"|0|400|50,"ThermRR7"|"C"|0|400|50,"ThermRR8"|"C"|0|400|50,"AA_LowDrag"|""|0|1|1,"Gear"|""|1|6|10,"AA_On"|""|0.0|1.0|1,"AA_LowDrag"|""|0|1|1,"Fuel_Mix"|""|-10|10|1,"AA_Packages"|""|0.0|1000.0|25,"Latitude"|"Degrees"|-180.0|180.0|10,"Longitude"|"Degrees"|-180.0|180.0|10,"Speed"|"kph"|0.0|150.0|10,"Altitude"|"m"|0.0|4000.0|10,"GPSSats"|""|0|20|10,"GPSQual"|""|0|5|10,"GPSDOP"|""|0.0|20.0|10
3300304,1745471897301,0.0,30,,-0.11,0.17,1.21,0,-0,1,1.22,1.22,100,4617,29.8,5.58,,13.65,1.249,88.0,,43.3,5,,,,,,,,,,,,0,0,0,0,0,0,0,0,0,0,0,0,0,0,0,0,,,,,,0.0,,,,,,,
3300324,1745471897321,,,,,,,,,,,,,,,,,,,,,,,,,,,,,,,,,,0,0,0,0,0,0,0,0,0,0,0,0,0,0,0,0,,,,,,,,,,,,,
3300344,1745471897341,0.0,47,,-0.1,0.1,1.17,1,-0,1,1.18,1.22,96,4906,16.4,4.72,,13.65,1.249,88.0,,46.7,5,,,,,,,,,,,,0,0,0,0,0,0,0,0,0,0,0,0,0,0,0,0,,,,,,0.0,,,,,,,
3300364,1745471897361,,,,,,,,,,,,,,,,,,,,,,,,,,,,,,,,,,0,0,0,0,0,0,0,0,0,0,0,0,0,0,0,0,,,,,,,,,,,,,
3300384,1745471897381,0.0,34,13.41,-0.11,0.11,1.14,1,-0,0,1.15,1.22,94,4906,16.4,4.72,15,13.25,1.249,88.0,153,46.7,5,0,0,0,0,0.0,0.0,0.0,0.0,2.28,0,1.0,0,0,0,0,0,0,0,0,0,0,0,0,0,0,0,0,0,0,1.0,0,-0,0.0,38.994099,-76.939652,0.04,27.1,33,3,0.9
3300404,1745471897401,,,,,,,,,,,,,,,,,,,,,,,,,,,,,,,,,,0,0,0,0,0,0,0,0,0,0,0,0,0,0,0,0,,,,,,,,,,,,,
3300424,1745471897421,0.0,37,,-0.11,0.15,1.1,1,-0,0,1.11,1.22,91,5196,3.5,3.99,,12.12,1.248,88.0,,48.1,5,,,,,,,,,,,,0,0,0,0,0,0,0,0,0,0,0,0,0,0,0,0,,,,,,0.0,,,,,,,
3300444,1745471897441,,,,,,,,,,,,,,,,,,,,,,,,,,,,,,,,,,0,0,0,0,0,0,0,0,0,0,0,0,0,0,0,0,,,,,,,,,,,,,
3300464,1745471897461,0.0,41,,-0.1,0.14,1.07,0,-0,0,1.08,1.22,88,5291,0.0,2.4,,11.22,1.25,88.0,,48.1,5,,,,,,,,,,,,0,0,0,0,0,0,0,0,0,0,0,0,0,0,0,0,,,,,,0.0,,,,,,,
3300484,1745471897481,,,,,,,,,,,,,,,,,,,,,,,0,0,0,0,0.0,0.0,0.0,0.0,2.28,,,0,0,0,0,0,0,0,0,0,0,0,0,0,0,0,0,,0,,,,,38.994099,-76.939652,0.11,27.1,33,3,0.9
3300504,1745471897501,0.0,37,,-0.11,0.16,1.04,0,-0,0,1.05,1.22,86,5155,0.0,1.83,,10.69,1.183,88.0,,48.1,5,,,,,,,,,,,,0,0,0,0,0,0,0,0,0,0,0,0,0,0,0,0,,,,,,0.0,,,,,,,
3300524,1745471897521,,,,,,,,,,,,,,,,,,,,,,,,,,,,,,,,,,0,0,0,0,0,0,0,0,0,0,0,0,0,0,0,0,,,,,,,,,,,,,
3300544,1745471897541,0.0,41,,-0.12,0.12,1.04,-0,-0,0,1.05,1.22,86,0,0.0,1.62,,10.69,1.183,88.0,,47.6,5,,,,,,,,,,,,0,0,0,0,0,0,0,0,0,0,0,0,0,0,0,0,,,,,,0.0,,,,,,,
3300564,1745471897561,,,,,,,,,,,,,,,,,,,,,,,,,,,,,,,,,,0,0,0,0,0,0,0,0,0,0,0,0,0,0,0,0,,,,,,,,,,,,,
3300584,1745471897581,0.0,24,,-0.09,0.09,1.04,0,-0,0,1.04,1.22,85,0,0.0,1.62,,10.36,1.172,88.0,,47.6,5,0,0,0,0,0.0,0.0,0.0,0.0,2.27,,,0,0,0,0,0,0,0,0,0,0,0,0,0,0,0,0,,0,,,,0.0,38.994099,-76.939652,0.1,27.1,33,3,0.9
3300604,1745471897601,,,,,,,,,,,,,,,,,,,,,,,,,,,,,,,,,,0,0,0,0,0,0,0,0,0,0,0,0,0,0,0,0,,,,,,,,,,,,,
3300624,1745471897621,0.0,24,,-0.11,0.14,1.1,-0,-0,0,1.12,1.22,91,4843,0.3,2.04,,10.32,1.246,88.0,,46.5,5,,,,,,,,,,,,0,0,0,0,0,0,0,0,0,0,0,0,0,0,0,0,,,,,,0.0,,,,,,,
3300644,1745471897641,,,,,,,,,,,,,,,,,,,,,,,,,,,,,,,,,,0,0,0,0,0,0,0,0,0,0,0,0,0,0,0,0,,,,,,,,,,,,,
3300664,1745471897661,0.0,20,,-0.14,0.15,1.15,-1,-0,1,1.17,1.22,96,4559,0.3,2.15,,10.25,1.251,88.0,,46.5,5,,,,,,,,,,,,0,0,0,0,0,0,0,0,0,0,0,0,0,0,0,0,,,,,,0.0,,,,,,,
3300684,1745471897681,,,,,,,,,,,,,,,,,,,,,,,0,0,0,0,0.0,0.0,0.0,0.0,2.27,,,0,0,0,0,0,0,0,0,0,0,0,0,0,0,0,0,,0,,,,,38.994099,-76.939652,0.07,27.1,33,3,0.9
3300704,1745471897701,0.0,27,,-0.14,0.2,1.18,-0,-0,1,1.21,1.22,99,4318,0.3,2.16,,10.36,1.25,88.0,,46.5,5,,,,,,,,,,,,0,0,0,0,0,0,0,0,0,0,0,0,0,0,0,0,,,,,,0.0,,,,,,,
3300724,1745471897721,,,,,,,,,,,,,,,,,,,,,,,,,,,,,,,,,,0,0,0,0,0,0,0,0,0,0,0,0,0,0,0,0,,,,,,,,,,,,,
3300744,1745471897741,0.0,41,,-0.13,0.12,1.17,-1,-0,1,1.18,1.22,97,4020,0.2,2.19,,10.36,1.25,88.0,,41.4,5,,,,,,,,,,,,0,0,0,0,0,0,0,0,0,0,0,0,0,0,0,0,,,,,,0.0,,,,,,,
3300764,1745471897761,,,,,,,,,,,,,,,,,,,,,,,,,,,,,,,,,,0,0,0,0,0,0,0,0,0,0,0,0,0,0,0,0,,,,,,,,,,,,,
3300784,1745471897781,0.0,41,,-0.13,0.1,1.14,-1,-0,1,1.15,1.22,94,4020,0.2,2.19,,10.46,1.249,88.0,,41.4,5,0,0,0,0,0.0,0.0,0.0,0.0,2.27,,,0,0,0,0,0,0,0,0,0,0,0,0,0,0,0,0,,0,,,,0.0,38.994099,-76.939652,0.04,27.1,33,3,0.9
3300804,1745471897801,,,,,,,,,,,,,,,,,,,,,,,,,,,,,,,,,,0,0,0,0,0,0,0,0,0,0,0,0,0,0,0,0,,,,,,,,,,,,,
3300824,1745471897821,0.0,44,,-0.12,0.09,1.15,-1,-0,1,1.16,1.22,95,3753,2.1,2.22,,10.81,1.248,88.0,,35.3,5,,,,,,,,,,,,0,0,0,0,0,0,0,0,0,0,0,0,0,0,0,0,,,,,,0.0,,,,,,,
3300844,1745471897841,,,,,,,,,,,,,,,,,,,,,,,,,,,,,,,,,,0,0,0,0,0,0,0,0,0,0,0,0,0,0,0,0,,,,,,,,,,,,,
3300864,1745471897861,0.0,41,,-0.1,0.11,1.09,0,-0,1,1.1,1.22,90,3552,16.4,4.7,,12.15,1.249,88.0,,35.3,5,,,,,,,,,,,,0,0,0,0,0,0,0,0,0,0,0,0,0,0,0,0,,,,,,0.0,,,,,,,
3300884,1745471897881,,,,,,,,,,,,,,,,,,,,,,,0,0,0,0,0.0,0.0,0.0,0.0,2.28,,,0,0,0,0,0,0,0,0,0,0,0,0,0,0,0,0,,0,,,,,38.994099,-76.939652,0.07,27.1,33,3,0.9
3300904,1745471897902,0.0,30,,-0.1,0.09,1.06,0,-0,0,1.07,1.22,87,3587,22.6,5.2,,13.41,1.249,88.0,,35.3,5,,,,,,,,,,,,0,0,0,0,0,0,0,0,0,0,0,0,0,0,0,0,,,,,,0.0,,,,,,,
3300924,1745471897922,,,,,,,,,,,,,,,,,,,,,,,,,,,,,,,,,,0,0,0,0,0,0,0,0,0,0,0,0,0,0,0,0,,,,,,,,,,,,,
3300944,1745471897942,0.0,30,,-0.09,0.1,1.06,0,-0,0,1.07,1.22,88,3845,23.1,5.07,,13.41,1.249,88.0,,34.6,5,,,,,,,,,,,,0,0,0,0,0,0,0,0,0,0,0,0,0,0,0,0,,,,,,0.0,,,,,,,
3300964,1745471897962,,,,,,,,,,,,,,,,,,,,,,,,,,,,,,,,,,0,0,0,0,0,0,0,0,0,0,0,0,0,0,0,0,,,,,,,,,,,,,
3300984,1745471897982,0.0,30,,-0.09,0.07,1.07,-0,-0,0,1.07,1.22,88,3845,23.1,5.07,,13.79,1.25,88.0,,34.6,5,0,0,0,0,0.0,0.0,0.0,0.0,2.28,,,0,0,0,0,0,0,0,0,0,0,0,0,0,0,0,0,,0,,,,0.0,38.994099,-76.939652,0.06,27.1,33,3,0.9
3301004,1745471898002,,,,,,,,,,,,,,,,,,,,,,,,,,,,,,,,,,0,0,0,0,0,0,0,0,0,0,0,0,0,0,0,0,,,,,,,,,,,,,
3301024,1745471898013,0.0,24,,-0.08,0.05,1.0,0,-0,0,1.01,1.22,83,3972,14.9,4.73,,13.6,1.251,88.0,,38.9,5,,,,,,,,,,,,0,0,0,0,0,0,0,0,0,0,0,0,0,0,0,0,,,,,,0.0,,,,,,,
3301044,1745471898033,,,,,,,,,,,,,,,,,,,,,,,,,,,,,,,,,,0,0,0,0,0,0,0,0,0,0,0,0,0,0,0,0,,,,,,,,,,,,,
3301064,1745471898053,0.0,24,,-0.08,0.01,1.02,-0,-0,0,1.02,1.22,84,4161,5.1,4.34,,12.87,1.251,86.2,,38.9,5,,,,,,,,,,,,0,0,0,0,0,0,0,0,0,0,0,0,0,0,0,0,,,,,,0.0,,,,,,,
3301084,1745471898073,,,,,,,,,,,,,,,,,,,,,,,0,0,0,0,0.0,0.0,0.0,0.0,2.27,,,0,0,0,0,0,0,0,0,0,0,0,0,0,0,0,0,,0,,,,,38.994099,-76.939652,0.04,27.1,32,3,0.9
3301104,1745471898101,0.0,27,,-0.08,0.11,1.11,0,-0,0,1.12,1.22,91,4267,1.6,3.54,,12.23,1.214,86.2,,38.9,5,,,,,,,,,,,,0,0,0,0,0,0,0,0,0,0,0,0,0,0,0,0,,,,,,0.0,,,,,,,
3301124,1745471898121,,,,,,,,,,,,,,,,,,,,,,,,,,,,,,,,,,0,0,0,0,0,0,0,0,0,0,0,0,0,0,0,0,,,,,,,,,,,,,
3301144,1745471898141,0.0,47,,-0.07,0.0,0.98,-1,-0,0,0.98,1.22,80,4202,0.1,2.88,,12.23,1.214,86.2,,41.2,5,,,,,,,,,,,,0,0,0,0,0,0,0,0,0,0,0,0,0,0,0,0,,,,,,0.0,,,,,,,
3301164,1745471898161,,,,,,,,,,,,,,,,,,,,,,,,,,,,,,,,,,0,0,0,0,0,0,0,0,0,0,0,0,0,0,0,0,,,,,,,,,,,,,
3301184,1745471898181,0.0,47,,-0.09,0.1,1.06,1,-0,0,1.07,1.22,87,4202,0.1,2.88,,11.72,1.19,86.2,,41.2,5,0,0,0,0,0.0,0.0,0.0,0.0,2.27,,,0,0,0,0,0,0,0,0,0,0,0,0,0,0,0,0,,0,,,,0.0,38.994099,-76.939652,0.0,27.1,32,3,0.9
3301204,1745471898201,,,,,,,,,,,,,,,,,,,,,,,,,,,,,,,,,,0,0,0,0,0,0,0,0,0,0,0,0,0,0,0,0,,,,,,,,,,,,,
3301224,1745471898220,0.0,41,,-0.08,-0.01,0.98,-1,-0,0,0.98,1.22,80,4048,0.1,2.9,,11.41,1.185,86.2,,38.9,5,,,,,,,,,,,,0,0,0,0,0,0,0,0,0,0,0,0,0,0,0,0,,,,,,0.0,,,,,,,
3301244,1745471898240,,,,,,,,,,,,,,,,,,,,,,,,,,,,,,,,,,0,0,0,0,0,0,0,0,0,0,0,0,0,0,0,0,,,,,,,,,,,,,
3301264,1745471898260,0.0,27,,-0.09,-0.03,0.95,-1,-0,-0,0.95,1.22,78,3902,0.0,2.88,,11.33,1.205,86.2,,38.9,5,,,,,,,,,,,,0,0,0,0,0,0,0,0,0,0,0,0,0,0,0,0,,,,,,0.0,,,,,,,
3301284,1745471898280,,,,,,,,,,,,,,,,,,,,,,,0,0,0,0,0.0,0.0,0.0,0.0,2.27,,,0,0,0,0,0,0,0,0,0,0,0,0,0,0,0,0,,0,,,,,38.994099,-76.939652,0.05,27.1,32,3,0.9
3301304,1745471898300,0.0,24,,-0.09,-0.01,0.97,-0,-0,-0,0.98,1.22,80,3826,0.0,2.9,,11.3,1.235,86.2,,38.9,5,,,,,,,,,,,,0,0,0,0,0,0,0,0,0,0,0,0,0,0,0,0,,,,,,0.0,,,,,,,
3301324,1745471898320,,,,,,,,,,,,,,,,,,,,,,,,,,,,,,,,,,0,0,0,0,0,0,0,0,0,0,0,0,0,0,0,0,,,,,,,,,,,,,
3301344,1745471898340,0.0,30,,-0.1,-0.02,0.99,-1,-0,-0,1.0,1.22,81,3657,0.0,2.9,,11.3,1.235,86.2,,36.2,5,,,,,,,,,,,,0,0,0,0,0,0,0,0,0,0,0,0,0,0,0,0,,,,,,0.0,,,,,,,
3301364,1745471898360,,,,,,,,,,,,,,,,,,,,,,,,,,,,,,,,,,0,0,0,0,0,0,0,0,0,0,0,0,0,0,0,0,,,,,,,,,,,,,
3301384,1745471898380,0.0,37,13.43,-0.09,-0.03,1.02,-0,-0,0,1.03,1.22,84,3657,0.0,2.9,15,11.36,1.248,86.2,155,36.2,5,0,0,0,0,0.0,0.0,0.0,0.0,2.28,0,1.0,0,0,0,0,0,0,0,0,0,0,0,0,0,0,0,0,0,0,1.0,0,-0,0.0,38.994099,-76.939652,0.04,27.1,32,3,0.9
3301404,1745471898402,,,,,,,,,,,,,,,,,,,,,,,,,,,,,,,,,,0,0,0,0,0,0,0,0,0,0,0,0,0,0,0,0,,,,,,,,,,,,,
3301424,1745471898422,0.0,20,,-0.08,0.05,1.03,0,-0,0,1.04,1.22,85,3575,0.0,2.94,,11.46,1.25,86.2,,34.7,5,,,,,,,,,,,,0,0,0,0,0,0,0,0,0,0,0,0,0,0,0,0,,,,,,0.0,,,,,,,
3301444,1745471898442,,,,,,,,,,,,,,,,,,,,,,,,,,,,,,,,,,0,0,0,0,0,0,0,0,0,0,0,0,0,0,0,0,,,,,,,,,,,,,
3301464,1745471898462,0.0,37,,-0.08,0.09,0.99,1,-0,0,1.0,1.22,82,3577,0.0,2.92,,11.44,1.251,86.2,,34.7,5,,,,,,,,,,,,0,0,0,0,0,0,0,0,0,0,0,0,0,0,0,0,,,,,,0.0,,,,,,,
3301484,1745471898482,,,,,,,,,,,,,,,,,,,,,,,0,0,0,0,0.0,0.0,0.0,0.0,2.28,,,0,0,0,0,0,0,0,0,0,0,0,0,0,0,0,0,,0,,,,,38.994099,-76.939652,0.04,27.1,32,3,0.9
3301504,1745471898502,0.0,34,,-0.09,-0.04,1.02,-0,-0,0,1.02,1.22,84,3466,0.0,2.95,,11.6,1.251,86.2,,34.7,5,,,,,,,,,,,,0,0,0,0,0,0,0,0,0,0,0,0,0,0,0,0,,,,,,0.0,,,,,,,
3301524,1745471898522,,,,,,,,,,,,,,,,,,,,,,,,,,,,,,,,,,0,0,0,0,0,0,0,0,0,0,0,0,0,0,0,0,,,,,,,,,,,,,
3301544,1745471898542,0.0,41,,-0.08,0.02,0.98,1,-0,0,0.99,1.22,81,3378,0.0,2.97,,11.6,1.251,86.2,,31.9,5,,,,,,,,,,,,0,0,0,0,0,0,0,0,0,0,0,0,0,0,0,0,,,,,,0.0,,,,,,,
3301564,1745471898562,,,,,,,,,,,,,,,,,,,,,,,,,,,,,,,,,,0,0,0,0,0,0,0,0,0,0,0,0,0,0,0,0,,,,,,,,,,,,,
3301584,1745471898582,0.0,41,,-0.07,-0.03,1.07,0,-0,0,1.07,1.22,88,3378,0.0,2.97,,11.72,1.251,86.2,,31.9,5,0,0,0,0,0.0,0.0,0.0,0.0,2.27,,,0,0,0,0,0,0,0,0,0,0,0,0,0,0,0,0,,0,,,,0.0,38.994099,-76.939652,0.08,27.1,32,3,0.9
3301604,1745471898602,,,,,,,,,,,,,,,,,,,,,,,,,,,,,,,,,,0,0,0,0,0,0,0,0,0,0,0,0,0,0,0,0,,,,,,,,,,,,,
3301624,1745471898622,0.0,20,,-0.1,-0.05,1.1,-1,-0,0,1.11,1.22,91,3147,0.0,3.01,,11.88,1.249,86.2,,29.2,5,,,,,,,,,,,,0,0,0,0,0,0,0,0,0,0,0,0,0,0,0,0,,,,,,0.0,,,,,,,
3301644,1745471898642,,,,,,,,,,,,,,,,,,,,,,,,,,,,,,,,,,0,0,0,0,0,0,0,0,0,0,0,0,0,0,0,0,,,,,,,,,,,,,
3301664,1745471898662,0.0,17,,-0.12,-0.05,1.12,-1,-0,0,1.13,1.22,92,3035,0.0,3.04,,12.0,1.238,86.2,,29.2,5,,,,,,,,,,,,0,0,0,0,0,0,0,0,0,0,0,0,0,0,0,0,,,,,,0.0,,,,,,,
3301684,1745471898682,,,,,,,,,,,,,,,,,,,,,,,0,0,0,0,0.0,0.0,0.0,0.0,2.27,,,0,0,0,0,0,0,0,0,0,0,0,0,0,0,0,0,,0,,,,,38.994099,-76.939652,0.04,27.1,32,3,0.9
3301704,1745471898703,0.0,27,,-0.12,-0.04,1.14,-1,-0,0,1.15,1.22,94,2910,0.0,3.1,,12.11,1.246,86.2,,29.2,5,,,,,,,,,,,,0,0,0,0,0,0,0,0,0,0,0,0,0,0,0,0,,,,,,0.0,,,,,,,
3301724,1745471898723,,,,,,,,,,,,,,,,,,,,,,,,,,,,,,,,,,0,0,0,0,0,0,0,0,0,0,0,0,0,0,0,0,,,,,,,,,,,,,
3301744,1745471898743,0.0,27,,-0.12,-0.04,1.12,-1,-0,0,1.13,1.22,92,2836,0.0,3.18,,12.11,1.246,86.2,,26.7,5,,,,,,,,,,,,0,0,0,0,0,0,0,0,0,0,0,0,0,0,0,0,,,,,,0.0,,,,,,,
3301764,1745471898763,,,,,,,,,,,,,,,,,,,,,,,,,,,,,,,,,,0,0,0,0,0,0,0,0,0,0,0,0,0,0,0,0,,,,,,,,,,,,,
3301784,1745471898783,0.0,41,,-0.12,-0.04,1.09,-1,-0,0,1.09,1.22,89,2836,0.0,3.18,,12.23,1.246,86.2,,26.7,5,0,0,0,0,0.0,0.0,0.0,0.0,2.28,,,0,0,0,0,0,0,0,0,0,0,0,0,0,0,0,0,,0,,,,0.0,38.994099,-76.939652,0.04,27.1,32,3,0.9
3301804,1745471898802,,,,,,,,,,,,,,,,,,,,,,,,,,,,,,,,,,0,0,0,0,0,0,0,0,0,0,0,0,0,0,0,0,,,,,,,,,,,,,
3301824,1745471898822,0.0,30,,-0.11,-0.04,1.09,-1,-0,0,1.09,1.22,89,2652,0.0,3.23,,12.43,1.249,86.2,,24.8,5,,,,,,,,,,,,0,0,0,0,0,0,0,0,0,0,0,0,0,0,0,0,,,,,,0.0,,,,,,,
3301844,1745471898842,,,,,,,,,,,,,,,,,,,,,,,,,,,,,,,,,,0,0,0,0,0,0,0,0,0,0,0,0,0,0,0,0,,,,,,,,,,,,,
3301864,1745471898862,0.0,44,,-0.11,-0.03,1.08,-1,-0,0,1.09,1.22,89,2534,0.0,3.31,,12.61,1.249,86.2,,24.8,5,,,,,,,,,,,,0,0,0,0,0,0,0,0,0,0,0,0,0,0,0,0,,,,,,0.0,,,,,,,
3301884,1745471898882,,,,,,,,,,,,,,,,,,,,,,,0,0,0,0,0.0,0.0,0.0,0.0,2.28,,,0,0,0,0,0,0,0,0,0,0,0,0,0,0,0,0,,0,,,,,38.994099,-76.939652,0.04,27.1,32,3,0.9
3301904,1745471898902,0.0,17,,-0.11,-0.02,1.06,-0,-0,0,1.07,1.22,87,2429,0.0,3.39,,12.84,1.25,86.2,,24.8,5,,,,,,,,,,,,0,0,0,0,0,0,0,0,0,0,0,0,0,0,0,0,,,,,,0.0,,,,,,,
3301924,1745471898922,,,,,,,,,,,,,,,,,,,,,,,,,,,,,,,,,,0,0,0,0,0,0,0,0,0,0,0,0,0,0,0,0,,,,,,,,,,,,,
3301944,1745471898942,0.0,30,,-0.1,-0.01,1.04,-0,-0,0,1.04,1.22,85,2358,0.0,3.42,,12.84,1.25,86.2,,22.8,5,,,,,,,,,,,,0,0,0,0,0,0,0,0,0,0,0,0,0,0,0,0,,,,,,0.0,,,,,,,
3301964,1745471898962,,,,,,,,,,,,,,,,,,,,,,,,,,,,,,,,,,0,0,0,0,0,0,0,0,0,0,0,0,0,0,0,0,,,,,,,,,,,,,
3301984,1745471898982,0.0,24,,-0.1,-0.01,1.03,-0,-0,0,1.04,1.22,85,2358,0.0,3.42,,13.05,1.252,86.2,,22.8,5,0,0,0,0,0.0,0.0,0.0,0.0,2.27,,,0,0,0,0,0,0,0,0,0,0,0,0,0,0,0,0,,0,,,,0.0,38.994099,-76.939652,0.04,27.1,32,3,0.9
3302004,1745471899002,,,,,,,,,,,,,,,,,,,,,,,,,,,,,,,,,,0,0,0,0,0,0,0,0,0,0,0,0,0,0,0,0,,,,,,,,,,,,,
3302024,1745471899014,0.0,24,,-0.1,0.01,1.04,-0,-0,0,1.05,1.22,86,2334,0.0,3.46,,13.19,1.252,86.2,,22.0,5,,,,,,,,,,,,0,0,0,0,0,0,0,0,0,0,0,0,0,0,0,0,,,,,,0.0,,,,,,,
3302044,1745471899034,,,,,,,,,,,,,,,,,,,,,,,,,,,,,,,,,,0,0,0,0,0,0,0,0,0,0,0,0,0,0,0,0,,,,,,,,,,,,,
3302064,1745471899054,0.0,27,,-0.09,-0.01,1.04,-0,-0,0,1.05,1.22,86,2314,0.0,3.46,,13.27,1.252,86.2,,22.0,5,,,,,,,,,,,,0,0,0,0,0,0,0,0,0,0,0,0,0,0,0,0,,,,,,0.0,,,,,,,
3302084,1745471899074,,,,,,,,,,,,,,,,,,,,,,,0,0,0,0,0.0,0.0,0.0,0.0,2.27,,,0,0,0,0,0,0,0,0,0,0,0,0,0,0,0,0,,0,,,,,38.994099,-76.939652,0.04,27.1,32,3,0.9
3302104,1745471899094,0.0,17,,-0.09,-0.01,1.05,-0,-0,0,1.06,1.22,86,2298,0.0,3.47,,13.33,1.252,86.2,,22.0,5,,,,,,,,,,,,0,0,0,0,0,0,0,0,0,0,0,0,0,0,0,0,,,,,,0.0,,,,,,,
3302124,1745471899119,,,,,,,,,,,,,,,,,,,,,,,,,,,,,,,,,,0,0,0,0,0,0,0,0,0,0,0,0,0,0,0,0,,,,,,,,,,,,,
3302144,1745471899139,0.0,37,,-0.07,0.01,1.02,0,-0,0,1.03,1.22,84,2641,0.0,3.46,,13.33,1.252,86.2,,22.0,5,,,,,,,,,,,,0,0,0,0,0,0,0,0,0,0,0,0,0,0,0,0,,,,,,0.0,,,,,,,
3302164,1745471899159,,,,,,,,,,,,,,,,,,,,,,,,,,,,,,,,,,0,0,0,0,0,0,0,0,0,0,0,0,0,0,0,0,,,,,,,,,,,,,
3302184,1745471899179,0.0,44,,-0.07,0.01,1.04,0,-0,0,1.04,1.22,85,2641,0.0,3.46,,13.23,1.249,86.2,,22.0,5,0,0,0,0,0.0,0.0,0.0,0.0,2.27,,,0,0,0,0,0,0,0,0,0,0,0,0,0,0,0,0,,0,,,,0.0,38.994099,-76.939652,0.07,27.1,32,3,0.9
3302204,1745471899201,,,,,,,,,,,,,,,,,,,,,,,,,,,,,,,,,,0,0,0,0,0,0,0,0,0,0,0,0,0,0,0,0,,,,,,,,,,,,,
3302224,1745471899221,0.0,37,,-0.07,0.01,1.02,0,-0,0,1.02,1.22,84,2604,0.0,3.27,,13.15,1.249,86.2,,24.3,5,,,,,,,,,,,,0,0,0,0,0,0,0,0,0,0,0,0,0,0,0,0,,,,,,0.0,,,,,,,
3302244,1745471899241,,,,,,,,,,,,,,,,,,,,,,,,,,,,,,,,,,0,0,0,0,0,0,0,0,0,0,0,0,0,0,0,0,,,,,,,,,,,,,
3302264,1745471899261,0.0,37,,-0.08,0.02,1.04,0,-0,0,1.04,1.22,85,2551,0.0,3.29,,13.17,1.249,86.2,,24.3,5,,,,,,,,,,,,0,0,0,0,0,0,0,0,0,0,0,0,0,0,0,0,,,,,,0.0,,,,,,,
3302284,1745471899281,,,,,,,,,,,,,,,,,,,,,,,0,0,0,0,0.0,0.0,0.0,0.0,2.28,,,0,0,0,0,0,0,0,0,0,0,0,0,0,0,0,0,,0,,,,,38.994099,-76.939652,0.05,27.1,32,3,0.9
3302304,1745471899301,0.0,20,,-0.08,0.03,1.03,0,-0,0,1.03,1.22,85,2491,0.4,3.38,,13.28,1.249,86.2,,24.3,5,,,,,,,,,,,,0,0,0,0,0,0,0,0,0,0,0,0,0,0,0,0,,,,,,0.0,,,,,,,
3302324,1745471899321,,,,,,,,,,,,,,,,,,,,,,,,,,,,,,,,,,0,0,0,0,0,0,0,0,0,0,0,0,0,0,0,0,,,,,,,,,,,,,
3302344,1745471899341,0.0,30,,-0.08,0.04,1.01,0,-0,0,1.01,1.22,83,2479,0.8,3.47,,13.28,1.249,86.2,,23.4,5,,,,,,,,,,,,0,0,0,0,0,0,0,0,0,0,0,0,0,0,0,0,,,,,,0.0,,,,,,,
3302364,1745471899361,,,,,,,,,,,,,,,,,,,,,,,,,,,,,,,,,,0,0,0,0,0,0,0,0,0,0,0,0,0,0,0,0,,,,,,,,,,,,,
3302384,1745471899381,0.0,30,13.48,-0.08,0.05,0.99,0,-0,0,0.99,1.22,81,2479,0.8,3.47,15,13.33,1.236,86.2,156,23.4,5,0,0,0,0,0.0,0.0,0.0,0.0,2.28,0,1.0,0,0,0,0,0,0,0,0,0,0,0,0,0,0,0,0,0,0,1.0,0,-0,0.0,38.994099,-76.939652,0.1,27.1,32,3,0.9
3302404,1745471899403,,,,,,,,,,,,,,,,,,,,,,,,,,,,,,,,,,0,0,0,0,0,0,0,0,0,0,0,0,0,0,0,0,,,,,,,,,,,,,
3302424,1745471899423,0.0,27,,-0.08,0.04,0.99,0,-0,0,1.0,1.22,82,2378,1.0,3.51,,13.41,1.246,86.2,,22.5,5,,,,,,,,,,,,0,0,0,0,0,0,0,0,0,0,0,0,0,0,0,0,,,,,,0.0,,,,,,,
3302444,1745471899443,,,,,,,,,,,,,,,,,,,,,,,,,,,,,,,,,,0,0,0,0,0,0,0,0,0,0,0,0,0,0,0,0,,,,,,,,,,,,,
3302464,1745471899463,0.0,30,,-0.08,0.03,0.99,0,-0,0,0.99,1.22,81,2413,1.1,3.48,,13.44,1.251,86.2,,22.5,5,,,,,,,,,,,,0,0,0,0,0,0,0,0,0,0,0,0,0,0,0,0,,,,,,0.0,,,,,,,
3302484,1745471899483,,,,,,,,,,,,,,,,,,,,,,,0,0,0,0,0.0,0.0,0.0,0.0,2.27,,,0,0,0,0,0,0,0,0,0,0,0,0,0,0,0,0,,0,,,,,38.994099,-76.939652,0.04,27.1,32,3,0.9
3302504,1745471899503,0.0,41,,-0.08,0.02,1.0,0,-0,0,1.0,1.22,82,2451,1.4,3.44,,13.44,1.251,86.2,,22.5,5,,,,,,,,,,,,0,0,0,0,0,0,0,0,0,0,0,0,0,0,0,0,,,,,,0.0,,,,,,,
3302524,1745471899523,,,,,,,,,,,,,,,,,,,,,,,,,,,,,,,,,,0,0,0,0,0,0,0,0,0,0,0,0,0,0,0,0,,,,,,,,,,,,,
3302544,1745471899543,0.0,47,,-0.08,-0.01,1.01,-0,-0,0,1.01,1.22,83,2514,0.9,3.43,,13.44,1.251,86.2,,22.8,5,,,,,,,,,,,,0,0,0,0,0,0,0,0,0,0,0,0,0,0,0,0,,,,,,0.0,,,,,,,
3302564,1745471899563,,,,,,,,,,,,,,,,,,,,,,,,,,,,,,,,,,0,0,0,0,0,0,0,0,0,0,0,0,0,0,0,0,,,,,,,,,,,,,
3302584,1745471899583,0.0,44,,-0.09,0.01,1.02,-0,-0,0,1.02,1.22,84,2514,0.9,3.43,,13.37,1.252,86.2,,22.8,5,0,0,0,0,0.0,0.0,0.0,0.0,2.27,,,0,0,0,0,0,0,0,0,0,0,0,0,0,0,0,0,,0,,,,0.0,38.994099,-76.939652,0.07,27.1,32,3,0.9
3302604,1745471899601,,,,,,,,,,,,,,,,,,,,,,,,,,,,,,,,,,0,0,0,0,0,0,0,0,0,0,0,0,0,0,0,0,,,,,,,,,,,,,
3302624,1745471899621,0.0,24,,-0.08,0.0,1.0,0,-0,-0,1.01,1.22,82,2526,0.6,3.41,,13.4,1.252,86.2,,22.8,5,,,,,,,,,,,,0,0,0,0,0,0,0,0,0,0,0,0,0,0,0,0,,,,,,0.0,,,,,,,
3302644,1745471899641,,,,,,,,,,,,,,,,,,,,,,,,,,,,,,,,,,0,0,0,0,0,0,0,0,0,0,0,0,0,0,0,0,,,,,,,,,,,,,
3302664,1745471899661,0.0,37,,-0.09,0.02,1.0,0,-0,0,1.0,1.22,82,2534,0.6,3.35,,13.31,1.25,86.2,,22.8,5,,,,,,,,,,,,0,0,0,0,0,0,0,0,0,0,0,0,0,0,0,0,,,,,,0.0,,,,,,,
3302684,1745471899681,,,,,,,,,,,,,,,,,,,,,,,0,0,0,0,0.0,0.0,0.0,0.0,2.27,,,0,0,0,0,0,0,0,0,0,0,0,0,0,0,0,0,,0,,,,,38.994099,-76.939652,0.05,27.1,32,3,0.9
3302704,1745471899703,0.0,27,,-0.08,0.04,0.98,0,-0,0,0.99,1.22,81,2514,0.5,3.36,,13.32,1.249,86.2,,22.8,5,,,,,,,,,,,,0,0,0,0,0,0,0,0,0,0,0,0,0,0,0,0,,,,,,0.0,,,,,,,
3302724,1745471899723,,,,,,,,,,,,,,,,,,,,,,,,,,,,,,,,,,0,0,0,0,0,0,0,0,0,0,0,0,0,0,0,0,,,,,,,,,,,,,
3302744,1745471899743,0.0,37,,-0.08,0.03,0.99,0,-0,0,1.0,1.22,81,2505,0.2,3.36,,13.32,1.249,86.2,,22.7,5,,,,,,,,,,,,0,0,0,0,0,0,0,0,0,0,0,0,0,0,0,0,,,,,,0.0,,,,,,,
3302764,1745471899763,,,,,,,,,,,,,,,,,,,,,,,,,,,,,,,,,,0,0,0,0,0,0,0,0,0,0,0,0,0,0,0,0,,,,,,,,,,,,,
3302784,1745471899783,0.0,37,,-0.08,0.05,0.99,0,-0,0,1.0,1.22,82,2505,0.2,3.36,,13.32,1.249,86.2,,22.7,5,0,0,0,0,0.0,0.0,0.0,0.0,2.28,,,0,0,0,0,0,0,0,0,0,0,0,0,0,0,0,0,,0,,,,0.0,38.994099,-76.939652,0.07,27.1,32,3,0.9
3302804,1745471899803,,,,,,,,,,,,,,,,,,,,,,,,,,,,,,,,,,0,0,0,0,0,0,0,0,0,0,0,0,0,0,0,0,,,,,,,,,,,,,
3302824,1745471899823,0.0,37,,-0.07,0.03,0.99,0,-0,0,1.0,1.22,81,2453,0.0,3.36,,13.33,1.248,86.2,,22.3,5,,,,,,,,,,,,0,0,0,0,0,0,0,0,0,0,0,0,0,0,0,0,,,,,,0.0,,,,,,,
3302844,1745471899843,,,,,,,,,,,,,,,,,,,,,,,,,,,,,,,,,,0,0,0,0,0,0,0,0,0,0,0,0,0,0,0,0,,,,,,,,,,,,,
3302864,1745471899863,0.0,44,,-0.07,0.02,1.0,0,-0,0,1.0,1.22,82,2456,0.0,3.33,,13.35,1.25,86.2,,22.3,5,,,,,,,,,,,,0,0,0,0,0,0,0,0,0,0,0,0,0,0,0,0,,,,,,0.0,,,,,,,
3302884,1745471899883,,,,,,,,,,,,,,,,,,,,,,,0,0,0,0,0.0,0.0,0.0,0.0,2.28,,,0,0,0,0,0,0,0,0,0,0,0,0,0,0,0,0,,0,,,,,38.994099,-76.939652,0.08,27.1,32,3,0.9
3302904,1745471899901,0.0,34,,-0.07,0.02,1.0,0,-0,0,1.0,1.22,82,2442,0.0,3.32,,13.37,1.252,86.2,,22.3,5,,,,,,,,,,,,0,0,0,0,0,0,0,0,0,0,0,0,0,0,0,0,,,,,,0.0,,,,,,,
3302924,1745471899921,,,,,,,,,,,,,,,,,,,,,,,,,,,,,,,,,,0,0,0,0,0,0,0,0,0,0,0,0,0,0,0,0,,,,,,,,,,,,,
3302944,1745471899941,0.0,44,,-0.07,0.0,0.99,0,-0,0,0.99,1.22,81,2451,0.1,3.3,,13.37,1.252,86.2,,21.9,5,,,,,,,,,,,,0,0,0,0,0,0,0,0,0,0,0,0,0,0,0,0,,,,,,0.0,,,,,,,
3302964,1745471899961,,,,,,,,,,,,,,,,,,,,,,,,,,,,,,,,,,0,0,0,0,0,0,0,0,0,0,0,0,0,0,0,0,,,,,,,,,,,,,
3302984,1745471899981,0.0,34,,-0.07,-0.01,1.0,-0,-0,0,1.0,1.22,82,2451,0.1,3.3,,13.39,1.253,86.2,,21.9,5,0,0,0,0,0.0,0.0,0.0,0.0,2.27,,,0,0,0,0,0,0,0,0,0,0,0,0,0,0,0,0,,0,,,,0.0,38.994099,-76.939652,0.06,27.1,32,3,0.9
3303004,1745471900001,,,,,,,,,,,,,,,,,,,,,,,,,,,,,,,,,,0,0,0,0,0,0,0,0,0,0,0,0,0,0,0,0,,,,,,,,,,,,,
3303024,1745471900013,0.0,30,,-0.07,-0.04,1.02,-0,-0,0,1.02,1.22,84,2429,0.5,3.3,,13.4,1.251,86.2,,21.8,5,,,,,,,,,,,,0,0,0,0,0,0,0,0,0,0,0,0,0,0,0,0,,,,,,0.0,,,,,,,
3303044,1745471900033,,,,,,,,,,,,,,,,,,,,,,,,,,,,,,,,,,0,0,0,0,0,0,0,0,0,0,0,0,0,0,0,0,,,,,,,,,,,,,
3303064,1745471900053,0.0,30,,-0.07,-0.05,1.01,-0,-0,0,1.02,1.22,83,2453,0.7,3.3,,13.39,1.251,86.2,,21.8,5,,,,,,,,,,,,0,0,0,0,0,0,0,0,0,0,0,0,0,0,0,0,,,,,,0.0,,,,,,,
3303084,1745471900073,,,,,,,,,,,,,,,,,,,,,,,0,0,0,0,0.0,0.0,0.0,0.0,2.27,,,0,0,0,0,0,0,0,0,0,0,0,0,0,0,0,0,,0,,,,,38.994099,-76.939652,0.0,27.1,32,3,0.9
3303104,1745471900101,0.0,27,,-0.07,-0.04,1.01,-0,-0,0,1.01,1.22,83,2424,0.6,3.31,,13.4,1.25,86.2,,21.8,5,,,,,,,,,,,,0,0,0,0,0,0,0,0,0,0,0,0,0,0,0,0,,,,,,0.0,,,,,,,
3303124,1745471900121,,,,,,,,,,,,,,,,,,,,,,,,,,,,,,,,,,0,0,0,0,0,0,0,0,0,0,0,0,0,0,0,0,,,,,,,,,,,,,
3303144,1745471900141,0.0,44,,-0.08,-0.06,1.01,-0,-0,-0,1.01,1.22,83,2397,0.6,3.33,,13.4,1.25,86.2,,21.8,5,,,,,,,,,,,,0,0,0,0,0,0,0,0,0,0,0,0,0,0,0,0,,,,,,0.0,,,,,,,
3303164,1745471900161,,,,,,,,,,,,,,,,,,,,,,,,,,,,,,,,,,0,0,0,0,0,0,0,0,0,0,0,0,0,0,0,0,,,,,,,,,,,,,
3303184,1745471900181,0.0,51,,-0.07,-0.04,1.0,-0,-0,0,1.0,1.22,82,2397,0.6,3.33,,13.41,1.249,86.2,,21.8,5,0,0,0,0,0.0,0.0,0.0,0.0,2.27,,,0,0,0,0,0,0,0,0,0,0,0,0,0,0,0,0,,0,,,,0.0,38.994099,-76.939652,0.21,27.1,32,3,0.9
3303204,1745471900201,,,,,,,,,,,,,,,,,,,,,,,,,,,,,,,,,,0,0,0,0,0,0,0,0,0,0,0,0,0,0,0,0,,,,,,,,,,,,,
3303224,1745471900218,0.0,41,,-0.08,-0.03,1.01,-0,-0,0,1.01,1.22,83,2378,0.3,3.36,,13.45,1.249,86.2,,21.4,5,,,,,,,,,,,,0,0,0,0,0,0,0,0,0,0,0,0,0,0,0,0,,,,,,0.0,,,,,,,
3303244,1745471900238,,,,,,,,,,,,,,,,,,,,,,,,,,,,,,,,,,0,0,0,0,0,0,0,0,0,0,0,0,0,0,0,0,,,,,,,,,,,,,
3303264,1745471900258,0.0,41,,-0.09,-0.04,1.02,-0,-0,0,1.02,1.22,84,2380,0.0,3.36,,13.47,1.249,86.2,,21.4,5,,,,,,,,,,,,0,0,0,0,0,0,0,0,0,0,0,0,0,0,0,0,,,,,,0.0,,,,,,,
3303284,1745471900278,,,,,,,,,,,,,,,,,,,,,,,0,0,0,0,0.0,0.0,0.0,0.0,2.28,,,0,0,0,0,0,0,0,0,0,0,0,0,0,0,0,0,,0,,,,,38.994099,-76.939652,0.18,27.1,32,3,0.9
3303304,1745471900302,0.0,37,,-0.08,-0.03,1.01,-0,-0,0,1.01,1.22,83,2373,0.0,3.32,,13.47,1.248,86.2,,21.4,5,,,,,,,,,,,,0,0,0,0,0,0,0,0,0,0,0,0,0,0,0,0,,,,,,0.0,,,,,,,
3303324,1745471900322,,,,,,,,,,,,,,,,,,,,,,,,,,,,,,,,,,0,0,0,0,0,0,0,0,0,0,0,0,0,0,0,0,,,,,,,,,,,,,
3303344,1745471900342,0.0,41,,-0.08,-0.01,1.01,-0,-0,0,1.01,1.22,83,2346,0.0,3.31,,13.47,1.248,86.2,,20.9,5,,,,,,,,,,,,0,0,0,0,0,0,0,0,0,0,0,0,0,0,0,0,,,,,,0.0,,,,,,,
3303364,1745471900362,,,,,,,,,,,,,,,,,,,,,,,,,,,,,,,,,,0,0,0,0,0,0,0,0,0,0,0,0,0,0,0,0,,,,,,,,,,,,,
3303384,1745471900382,0.0,27,13.51,-0.09,-0.01,1.02,-0,-0,0,1.02,1.22,83,2346,0.0,3.31,15,13.49,1.25,86.2,158,20.9,5,0,0,0,0,0.0,0.0,0.0,0.0,2.28,0,1.0,0,0,0,0,0,0,0,0,0,0,0,0,0,0,0,0,0,0,1.0,0,-0,0.0,38.994099,-76.939652,0.26,27.1,32,3,0.9
3303404,1745471900402,,,,,,,,,,,,,,,,,,,,,,,,,,,,,,,,,,0,0,0,0,0,0,0,0,0,0,0,0,0,0,0,0,,,,,,,,,,,,,
3303424,1745471900422,0.0,27,,-0.08,-0.0,1.01,-0,-0,-0,1.01,1.22,83,2397,0.0,3.28,,13.48,1.251,86.2,,21.4,5,,,,,,,,,,,,0,0,0,0,0,0,0,0,0,0,0,0,0,0,0,0,,,,,,0.0,,,,,,,
3303444,1745471900442,,,,,,,,,,,,,,,,,,,,,,,,,,,,,,,,,,0,0,0,0,0,0,0,0,0,0,0,0,0,0,0,0,,,,,,,,,,,,,
3303464,1745471900462,0.0,37,,-0.08,-0.0,1.01,-0,-0,0,1.01,1.22,83,2331,0.2,3.27,,13.48,1.251,86.2,,21.4,5,,,,,,,,,,,,0,0,0,0,0,0,0,0,0,0,0,0,0,0,0,0,,,,,,0.0,,,,,,,
3303484,1745471900482,,,,,,,,,,,,,,,,,,,,,,,0,0,0,0,0.0,0.0,0.0,0.0,2.27,,,0,0,0,0,0,0,0,0,0,0,0,0,0,0,0,0,,0,,,,,38.994099,-76.939652,0.04,27.1,32,3,0.9
3303504,1745471900502,0.0,41,,-0.08,-0.03,1.01,-0,-0,-0,1.01,1.22,83,2252,0.5,3.23,,13.49,1.251,86.2,,21.4,5,,,,,,,,,,,,0,0,0,0,0,0,0,0,0,0,0,0,0,0,0,0,,,,,,0.0,,,,,,,
3303524,1745471900522,,,,,,,,,,,,,,,,,,,,,,,,,,,,,,,,,,0,0,0,0,0,0,0,0,0,0,0,0,0,0,0,0,,,,,,,,,,,,,
3303544,1745471900542,0.0,51,,-0.07,-0.03,1.0,-0,-0,0,1.01,1.22,82,2290,0.5,3.2,,13.49,1.251,86.2,,21.3,5,,,,,,,,,,,,0,0,0,0,0,0,0,0,0,0,0,0,0,0,0,0,,,,,,0.0,,,,,,,
3303564,1745471900562,,,,,,,,,,,,,,,,,,,,,,,,,,,,,,,,,,0,0,0,0,0,0,0,0,0,0,0,0,0,0,0,0,,,,,,,,,,,,,
3303584,1745471900582,0.0,51,,-0.07,-0.02,1.0,-0,-0,0,1.0,1.22,82,2290,0.5,3.2,,13.52,1.251,86.2,,21.3,5,0,0,0,0,0.0,0.0,0.0,0.0,2.27,,,0,0,0,0,0,0,0,0,0,0,0,0,0,0,0,0,,0,,,,0.0,38.994099,-76.939652,0.04,27.1,32,3,0.9
3303604,1745471900602,,,,,,,,,,,,,,,,,,,,,,,,,,,,,,,,,,0,0,0,0,0,0,0,0,0,0,0,0,0,0,0,0,,,,,,,,,,,,,
3303624,1745471900622,0.0,44,,-0.07,-0.02,1.0,-0,-0,0,1.01,1.22,82,2267,0.5,3.21,,13.59,1.25,86.2,,20.9,5,,,,,,,,,,,,0,0,0,0,0,0,0,0,0,0,0,0,0,0,0,0,,,,,,0.0,,,,,,,
3303644,1745471900642,,,,,,,,,,,,,,,,,,,,,,,,,,,,,,,,,,0,0,0,0,0,0,0,0,0,0,0,0,0,0,0,0,,,,,,,,,,,,,
3303664,1745471900662,0.0,34,,-0.08,-0.0,1.01,-0,-0,0,1.01,1.22,83,2183,0.5,3.22,,13.61,1.249,86.2,,20.9,5,,,,,,,,,,,,0,0,0,0,0,0,0,0,0,0,0,0,0,0,0,0,,,,,,0.0,,,,,,,
3303684,1745471900682,,,,,,,,,,,,,,,,,,,,,,,0,0,0,0,0.0,0.0,0.0,0.0,2.27,,,0,0,0,0,0,0,0,0,0,0,0,0,0,0,0,0,,0,,,,,38.994099,-76.939652,0.04,27.1,32,3,0.9
3303704,1745471900702,0.0,34,,-0.08,-0.0,1.0,-0,-0,0,1.0,1.22,82,2255,0.2,3.25,,13.56,1.249,86.2,,20.9,5,,,,,,,,,,,,0,0,0,0,0,0,0,0,0,0,0,0,0,0,0,0,,,,,,0.0,,,,,,,
3303724,1745471900722,,,,,,,,,,,,,,,,,,,,,,,,,,,,,,,,,,0,0,0,0,0,0,0,0,0,0,0,0,0,0,0,0,,,,,,,,,,,,,
3303744,1745471900742,0.0,47,,-0.08,-0.0,1.01,-0,-0,0,1.01,1.22,83,2264,0.0,3.22,,13.56,1.249,86.2,,21.5,5,,,,,,,,,,,,0,0,0,0,0,0,0,0,0,0,0,0,0,0,0,0,,,,,,0.0,,,,,,,
3303764,1745471900762,,,,,,,,,,,,,,,,,,,,,,,,,,,,,,,,,,0,0,0,0,0,0,0,0,0,0,0,0,0,0,0,0,,,,,,,,,,,,,
3303784,1745471900782,0.0,41,,-0.1,-0.0,1.01,-0,-0,0,1.01,1.22,83,2264,0.0,3.22,,13.55,1.249,86.2,,21.5,5,0,0,0,0,0.0,0.0,0.0,0.0,2.28,,,0,0,0,0,0,0,0,0,0,0,0,0,0,0,0,0,,0,,,,0.0,38.994099,-76.939652,0.04,27.1,32,3,0.9
3303804,1745471900802,,,,,,,,,,,,,,,,,,,,,,,,,,,,,,,,,,0,0,0,0,0,0,0,0,0,0,0,0,0,0,0,0,,,,,,,,,,,,,
3303824,1745471900820,0.0,44,,-0.09,-0.02,1.01,-0,-0,0,1.01,1.22,83,2224,0.0,3.18,,13.57,1.249,86.2,,21.4,5,,,,,,,,,,,,0,0,0,0,0,0,0,0,0,0,0,0,0,0,0,0,,,,,,0.0,,,,,,,
3303844,1745471900840,,,,,,,,,,,,,,,,,,,,,,,,,,,,,,,,,,0,0,0,0,0,0,0,0,0,0,0,0,0,0,0,0,,,,,,,,,,,,,
3303864,1745471900860,0.0,47,,-0.08,-0.03,1.01,-0,-0,0,1.02,1.22,83,2248,0.0,3.17,,13.59,1.25,86.2,,21.4,5,,,,,,,,,,,,0,0,0,0,0,0,0,0,0,0,0,0,0,0,0,0,,,,,,0.0,,,,,,,
3303884,1745471900880,,,,,,,,,,,,,,,,,,,,,,,0,0,0,0,0.0,0.0,0.0,0.0,2.28,,,0,0,0,0,0,0,0,0,0,0,0,0,0,0,0,0,,0,,,,,38.994099,-76.939652,0.04,27.1,32,3,0.9
3303904,1745471900902,0.0,41,,-0.09,-0.02,1.02,-0,-0,0,1.02,1.22,84,2235,0.0,3.15,,13.59,1.251,86.2,,21.4,5,,,,,,,,,,,,0,0,0,0,0,0,0,0,0,0,0,0,0,0,0,0,,,,,,0.0,,,,,,,
3303924,1745471900922,,,,,,,,,,,,,,,,,,,,,,,,,,,,,,,,,,0,0,0,0,0,0,0,0,0,0,0,0,0,0,0,0,,,,,,,,,,,,,
3303944,1745471900942,0.0,44,,-0.1,-0.02,1.01,0,-0,0,1.01,1.22,83,2269,0.2,3.25,,13.59,1.251,86.2,,20.8,5,,,,,,,,,,,,0,0,0,0,0,0,0,0,0,0,0,0,0,0,0,0,,,,,,0.0,,,,,,,
3303964,1745471900962,,,,,,,,,,,,,,,,,,,,,,,,,,,,,,,,,,0,0,0,0,0,0,0,0,0,0,0,0,0,0,0,0,,,,,,,,,,,,,
3303984,1745471900982,0.0,44,,-0.1,-0.02,0.99,0,-0,0,1.0,1.22,82,2269,0.2,3.25,,13.57,1.251,86.2,,20.8,5,0,0,0,0,0.0,0.0,0.0,0.0,2.27,,,0,0,0,0,0,0,0,0,0,0,0,0,0,0,0,0,,0,,,,0.0,38.994099,-76.939652,0.0,27.1,32,3,0.9
3304004,1745471901002,,,,,,,,,,,,,,,,,,,,,,,,,,,,,,,,,,0,0,0,0,0,0,0,0,0,0,0,0,0,0,0,0,,,,,,,,,,,,,
3304024,1745471901010,0.0,30,,-0.09,-0.02,0.99,0,-0,0,0.99,1.22,81,2260,0.5,3.24,,13.6,1.252,86.2,,20.5,5,,,,,,,,,,,,0,0,0,0,0,0,0,0,0,0,0,0,0,0,0,0,,,,,,0.0,,,,,,,
3304044,1745471901030,,,,,,,,,,,,,,,,,,,,,,,,,,,,,,,,,,0,0,0,0,0,0,0,0,0,0,0,0,0,0,0,0,,,,,,,,,,,,,
3304064,1745471901050,0.0,44,,-0.09,-0.02,0.99,-0,-0,0,1.0,1.22,82,2248,0.5,3.23,,13.63,1.252,86.2,,20.5,5,,,,,,,,,,,,0,0,0,0,0,0,0,0,0,0,0,0,0,0,0,0,,,,,,0.0,,,,,,,
3304084,1745471901070,,,,,,,,,,,,,,,,,,,,,,,0,0,0,0,0.0,0.0,0.0,0.0,2.27,,,0,0,0,0,0,0,0,0,0,0,0,0,0,0,0,0,,0,,,,,38.994099,-76.939652,0.07,27.1,32,3,0.9
3304104,1745471901090,0.0,34,,-0.1,-0.02,1.0,-0,-0,0,1.0,1.22,82,2249,0.5,3.21,,13.59,1.249,86.2,,20.5,5,,,,,,,,,,,,0,0,0,0,0,0,0,0,0,0,0,0,0,0,0,0,,,,,,0.0,,,,,,,
3304124,1745471901114,,,,,,,,,,,,,,,,,,,,,,,,,,,,,,,,,,0,0,0,0,0,0,0,0,0,0,0,0,0,0,0,0,,,,,,,,,,,,,
3304144,1745471901134,0.0,27,,-0.1,-0.0,1.0,-0,-0,0,1.01,1.22,82,2264,0.5,3.23,,13.59,1.249,86.2,,20.3,5,,,,,,,,,,,,0,0,0,0,0,0,0,0,0,0,0,0,0,0,0,0,,,,,,0.0,,,,,,,
3304164,1745471901154,,,,,,,,,,,,,,,,,,,,,,,,,,,,,,,,,,0,0,0,0,0,0,0,0,0,0,0,0,0,0,0,0,,,,,,,,,,,,,
3304184,1745471901174,0.0,51,,-0.09,0.0,1.0,-0,-0,0,1.0,1.22,82,2264,0.5,3.23,,13.59,1.248,86.2,,20.3,5,0,0,0,0,0.0,0.0,0.0,0.0,2.27,,,0,0,0,0,0,0,0,0,0,0,0,0,0,0,0,0,,0,,,,0.0,38.994099,-76.939652,0.06,27.1,32,3,0.9
3304204,1745471901194,,,,,,,,,,,,,,,,,,,,,,,,,,,,,,,,,,0,0,0,0,0,0,0,0,0,0,0,0,0,0,0,0,,,,,,,,,,,,,
3304224,1745471901215,0.0,51,,-0.08,-0.0,0.99,-0,-0,0,1.0,1.22,81,2268,0.2,3.23,,13.65,1.249,86.2,,20.4,5,,,,,,,,,,,,0,0,0,0,0,0,0,0,0,0,0,0,0,0,0,0,,,,,,0.0,,,,,,,
3304244,1745471901235,,,,,,,,,,,,,,,,,,,,,,,,,,,,,,,,,,0,0,0,0,0,0,0,0,0,0,0,0,0,0,0,0,,,,,,,,,,,,,
3304264,1745471901255,0.0,57,,-0.09,-0.0,1.0,-0,-0,0,1.0,1.22,82,2287,0.0,3.2,,13.63,1.249,86.2,,20.4,5,,,,,,,,,,,,0,0,0,0,0,0,0,0,0,0,0,0,0,0,0,0,,,,,,0.0,,,,,,,
3304284,1745471901275,,,,,,,,,,,,,,,,,,,,,,,0,0,0,0,0.0,0.0,0.0,0.0,2.28,,,0,0,0,0,0,0,0,0,0,0,0,0,0,0,0,0,,0,,,,,38.994099,-76.939652,0.05,27.1,32,3,0.9
3304304,1745471901301,0.0,47,,-0.08,0.0,1.0,-0,-0,0,1.01,1.22,82,2219,0.0,3.17,,13.6,1.249,86.2,,20.4,5,,,,,,,,,,,,0,0,0,0,0,0,0,0,0,0,0,0,0,0,0,0,,,,,,0.0,,,,,,,
3304324,1745471901321,,,,,,,,,,,,,,,,,,,,,,,,,,,,,,,,,,0,0,0,0,0,0,0,0,0,0,0,0,0,0,0,0,,,,,,,,,,,,,
3304344,1745471901341,0.0,30,,-0.08,-0.01,0.99,0,-0,-0,0.99,1.22,81,2125,0.0,3.2,,13.6,1.249,86.2,,20.1,5,,,,,,,,,,,,0,0,0,0,0,0,0,0,0,0,0,0,0,0,0,0,,,,,,0.0,,,,,,,
3304364,1745471901361,,,,,,,,,,,,,,,,,,,,,,,,,,,,,,,,,,0,0,0,0,0,0,0,0,0,0,0,0,0,0,0,0,,,,,,,,,,,,,
3304384,1745471901381,0.0,37,13.51,-0.08,-0.0,0.98,0,-0,-0,0.99,1.22,81,2125,0.0,3.2,15,13.71,1.251,86.2,160,20.1,5,0,0,0,0,0.0,0.0,0.0,0.0,2.28,0,1.0,0,0,0,0,0,0,0,0,0,0,0,0,0,0,0,0,0,0,1.0,0,-0,0.0,38.994099,-76.939652,0.11,27.1,32,3,0.9
3304404,1745471901401,,,,,,,,,,,,,,,,,,,,,,,,,,,,,,,,,,0,0,0,0,0,0,0,0,0,0,0,0,0,0,0,0,,,,,,,,,,,,,
3304424,1745471901419,0.0,37,,-0.07,-0.02,1.0,0,-0,0,1.0,1.22,82,2181,0.0,3.17,,13.69,1.251,86.2,,20.4,5,,,,,,,,,,,,0,0,0,0,0,0,0,0,0,0,0,0,0,0,0,0,,,,,,0.0,,,,,,,
3304444,1745471901439,,,,,,,,,,,,,,,,,,,,,,,,,,,,,,,,,,0,0,0,0,0,0,0,0,0,0,0,0,0,0,0,0,,,,,,,,,,,,,
3304464,1745471901459,0.0,41,,-0.08,-0.01,1.01,-0,-0,0,1.01,1.22,83,2166,0.3,3.15,,13.65,1.252,86.2,,20.4,5,,,,,,,,,,,,0,0,0,0,0,0,0,0,0,0,0,0,0,0,0,0,,,,,,0.0,,,,,,,
3304484,1745471901479,,,,,,,,,,,,,,,,,,,,,,,0,0,0,0,0.0,0.0,0.0,0.0,2.27,,,0,0,0,0,0,0,0,0,0,0,0,0,0,0,0,0,,0,,,,,38.994099,-76.939652,0.08,27.1,32,3,0.9
3304504,1745471901501,0.0,44,,-0.09,0.01,1.0,0,-0,0,1.01,1.22,82,2235,0.5,3.13,,13.61,1.253,86.2,,20.4,5,,,,,,,,,,,,0,0,0,0,0,0,0,0,0,0,0,0,0,0,0,0,,,,,,0.0,,,,,,,
3304524,1745471901521,,,,,,,,,,,,,,,,,,,,,,,,,,,,,,,,,,0,0,0,0,0,0,0,0,0,0,0,0,0,0,0,0,,,,,,,,,,,,,
3304544,1745471901541,0.0,44,,-0.08,0.01,0.99,-0,-0,0,0.99,1.22,81,2195,0.6,3.14,,13.61,1.253,86.2,,20.9,5,,,,,,,,,,,,0,0,0,0,0,0,0,0,0,0,0,0,0,0,0,0,,,,,,0.0,,,,,,,
3304564,1745471901561,,,,,,,,,,,,,,,,,,,,,,,,,,,,,,,,,,0,0,0,0,0,0,0,0,0,0,0,0,0,0,0,0,,,,,,,,,,,,,
3304584,1745471901581,0.0,51,,-0.08,0.0,1.0,-0,-0,0,1.0,1.22,82,2195,0.6,3.14,,13.67,1.252,86.2,,20.9,5,0,0,0,0,0.0,0.0,0.0,0.0,2.27,,,0,0,0,0,0,0,0,0,0,0,0,0,0,0,0,0,,0,,,,0.0,38.994099,-76.939652,0.04,27.1,32,3,0.9
3304604,1745471901601,,,,,,,,,,,,,,,,,,,,,,,,,,,,,,,,,,0,0,0,0,0,0,0,0,0,0,0,0,0,0,0,0,,,,,,,,,,,,,
3304624,1745471901621,0.0,47,,-0.09,0.01,1.01,-0,-0,0,1.01,1.22,83,2227,0.6,3.17,,13.61,1.25,86.2,,21.3,5,,,,,,,,,,,,0,0,0,0,0,0,0,0,0,0,0,0,0,0,0,0,,,,,,0.0,,,,,,,
3304644,1745471901641,,,,,,,,,,,,,,,,,,,,,,,,,,,,,,,,,,0,0,0,0,0,0,0,0,0,0,0,0,0,0,0,0,,,,,,,,,,,,,
3304664,1745471901661,0.0,44,,-0.1,0.02,1.0,-0,-0,0,1.01,1.22,82,2303,0.4,3.17,,13.57,1.25,86.2,,21.3,5,,,,,,,,,,,,0,0,0,0,0,0,0,0,0,0,0,0,0,0,0,0,,,,,,0.0,,,,,,,
3304684,1745471901681,,,,,,,,,,,,,,,,,,,,,,,0,0,0,0,0.0,0.0,0.0,0.0,2.27,,,0,0,0,0,0,0,0,0,0,0,0,0,0,0,0,0,,0,,,,,38.994099,-76.939652,0.04,27.1,32,3,0.9
3304704,1745471901701,0.0,41,,-0.09,0.02,0.99,-0,-0,0,1.0,1.22,82,2271,0.1,3.21,,13.59,1.249,86.2,,21.3,5,,,,,,,,,,,,0,0,0,0,0,0,0,0,0,0,0,0,0,0,0,0,,,,,,0.0,,,,,,,
3304724,1745471901721,,,,,,,,,,,,,,,,,,,,,,,,,,,,,,,,,,0,0,0,0,0,0,0,0,0,0,0,0,0,0,0,0,,,,,,,,,,,,,
3304744,1745471901741,0.0,34,,-0.08,0.01,0.99,-0,-0,0,0.99,1.22,81,2251,0.0,3.23,,13.59,1.249,86.2,,20.6,5,,,,,,,,,,,,0,0,0,0,0,0,0,0,0,0,0,0,0,0,0,0,,,,,,0.0,,,,,,,
3304764,1745471901761,,,,,,,,,,,,,,,,,,,,,,,,,,,,,,,,,,0,0,0,0,0,0,0,0,0,0,0,0,0,0,0,0,,,,,,,,,,,,,
3304784,1745471901781,0.0,47,,-0.09,0.02,1.0,0,-0,0,1.0,1.22,82,2251,0.0,3.23,,13.64,1.248,86.2,,20.6,5,0,0,0,0,0.0,0.0,0.0,0.0,2.28,,,0,0,0,0,0,0,0,0,0,0,0,0,0,0,0,0,,0,,,,0.0,38.994099,-76.939652,0.08,27.1,32,3,0.9
3304804,1745471901801,,,,,,,,,,,,,,,,,,,,,,,,,,,,,,,,,,0,0,0,0,0,0,0,0,0,0,0,0,0,0,0,0,,,,,,,,,,,,,
3304824,1745471901821,0.0,34,,-0.08,0.02,1.02,-0,-0,0,1.02,1.22,83,2239,0.0,3.23,,13.6,1.25,86.2,,19.9,5,,,,,,,,,,,,0,0,0,0,0,0,0,0,0,0,0,0,0,0,0,0,,,,,,0.0,,,,,,,
3304844,1745471901841,,,,,,,,,,,,,,,,,,,,,,,,,,,,,,,,,,0,0,0,0,0,0,0,0,0,0,0,0,0,0,0,0,,,,,,,,,,,,,
3304864,1745471901861,0.0,57,,-0.09,0.03,1.02,0,-0,0,1.02,1.22,83,2225,0.0,3.22,,13.64,1.252,86.2,,19.9,5,,,,,,,,,,,,0,0,0,0,0,0,0,0,0,0,0,0,0,0,0,0,,,,,,0.0,,,,,,,
3304884,1745471901881,,,,,,,,,,,,,,,,,,,,,,,0,0,0,0,0.0,0.0,0.0,0.0,2.28,,,0,0,0,0,0,0,0,0,0,0,0,0,0,0,0,0,,0,,,,,38.994099,-76.939652,0.04,27.1,32,3,0.9
3304904,1745471901901,0.0,44,,-0.08,0.03,1.0,0,-0,0,1.0,1.22,82,2244,0.2,3.23,,13.68,1.252,86.2,,19.9,5,,,,,,,,,,,,0,0,0,0,0,0,0,0,0,0,0,0,0,0,0,0,,,,,,0.0,,,,,,,
3304924,1745471901921,,,,,,,,,,,,,,,,,,,,,,,,,,,,,,,,,,0,0,0,0,0,0,0,0,0,0,0,0,0,0,0,0,,,,,,,,,,,,,
3304944,1745471901941,0.0,41,,-0.08,0.02,1.0,0,-0,0,1.0,1.22,82,2254,0.5,3.23,,13.68,1.252,86.2,,20.0,5,,,,,,,,,,,,0,0,0,0,0,0,0,0,0,0,0,0,0,0,0,0,,,,,,0.0,,,,,,,
3304964,1745471901961,,,,,,,,,,,,,,,,,,,,,,,,,,,,,,,,,,0,0,0,0,0,0,0,0,0,0,0,0,0,0,0,0,,,,,,,,,,,,,
3304984,1745471901981,0.0,64,,-0.09,0.04,1.01,0,-0,0,1.01,1.22,83,2254,0.5,3.23,,13.65,1.251,86.2,,20.0,5,0,0,0,0,0.0,0.0,0.0,0.0,2.27,,,0,0,0,0,0,0,0,0,0,0,0,0,0,0,0,0,,0,,,,0.0,38.994099,-76.939652,0.04,27.1,32,3,0.9
3305004,1745471902001,,,,,,,,,,,,,,,,,,,,,,,,,,,,,,,,,,0,0,0,0,0,0,0,0,0,0,0,0,0,0,0,0,,,,,,,,,,,,,
3305024,1745471902011,0.0,41,,-0.1,0.04,1.01,0,-0,0,1.01,1.22,83,2149,0.6,3.16,,13.69,1.251,86.2,,20.4,5,,,,,,,,,,,,0,0,0,0,0,0,0,0,0,0,0,0,0,0,0,0,,,,,,0.0,,,,,,,
3305044,1745471902031,,,,,,,,,,,,,,,,,,,,,,,,,,,,,,,,,,0,0,0,0,0,0,0,0,0,0,0,0,0,0,0,0,,,,,,,,,,,,,
3305064,1745471902051,0.0,44,,-0.1,0.04,1.01,0,-0,0,1.02,1.22,83,2179,0.6,3.17,,13.69,1.25,86.2,,20.4,5,,,,,,,,,,,,0,0,0,0,0,0,0,0,0,0,0,0,0,0,0,0,,,,,,0.0,,,,,,,
3305084,1745471902071,,,,,,,,,,,,,,,,,,,,,,,0,0,0,0,0.0,0.0,0.0,0.0,2.27,,,0,0,0,0,0,0,0,0,0,0,0,0,0,0,0,0,,0,,,,,38.994099,-76.939652,0.1,27.1,32,3,0.9
3305104,1745471902091,0.0,34,,-0.09,0.04,1.01,0,-0,0,1.01,1.22,83,2105,0.5,3.21,,13.65,1.248,86.2,,20.4,5,,,,,,,,,,,,0,0,0,0,0,0,0,0,0,0,0,0,0,0,0,0,,,,,,0.0,,,,,,,
3305124,1745471902109,,,,,,,,,,,,,,,,,,,,,,,,,,,,,,,,,,0,0,0,0,0,0,0,0,0,0,0,0,0,0,0,0,,,,,,,,,,,,,
3305144,1745471902129,0.0,20,,-0.08,0.04,1.0,0,-0,0,1.01,1.22,82,2157,0.2,3.21,,13.65,1.248,86.2,,20.5,5,,,,,,,,,,,,0,0,0,0,0,0,0,0,0,0,0,0,0,0,0,0,,,,,,0.0,,,,,,,
3305164,1745471902149,,,,,,,,,,,,,,,,,,,,,,,,,,,,,,,,,,0,0,0,0,0,0,0,0,0,0,0,0,0,0,0,0,,,,,,,,,,,,,
3305184,1745471902169,0.0,61,,-0.08,0.04,1.02,0,-0,0,1.02,1.22,84,2157,0.2,3.21,,13.71,1.249,86.2,,20.5,5,0,0,0,0,0.0,0.0,0.0,0.0,2.28,,,0,0,0,0,0,0,0,0,0,0,0,0,0,0,0,0,,0,,,,0.0,38.994099,-76.939652,0.1,27.1,32,3,0.9
3305204,1745471902189,,,,,,,,,,,,,,,,,,,,,,,,,,,,,,,,,,0,0,0,0,0,0,0,0,0,0,0,0,0,0,0,0,,,,,,,,,,,,,
3305224,1745471902220,0.0,57,,-0.08,0.03,1.01,0,-0,0,1.02,1.22,83,2062,0.0,3.21,,13.69,1.249,86.2,,20.2,5,,,,,,,,,,,,0,0,0,0,0,0,0,0,0,0,0,0,0,0,0,0,,,,,,0.0,,,,,,,
3305244,1745471902240,,,,,,,,,,,,,,,,,,,,,,,,,,,,,,,,,,0,0,0,0,0,0,0,0,0,0,0,0,0,0,0,0,,,,,,,,,,,,,
3305264,1745471902260,0.0,64,,-0.08,0.04,1.02,0,-0,0,1.03,1.22,84,2169,0.0,3.29,,13.71,1.249,86.2,,20.2,5,,,,,,,,,,,,0,0,0,0,0,0,0,0,0,0,0,0,0,0,0,0,,,,,,0.0,,,,,,,
3305284,1745471902280,,,,,,,,,,,,,,,,,,,,,,,0,0,0,0,0.0,0.0,0.0,0.0,2.28,,,0,0,0,0,0,0,0,0,0,0,0,0,0,0,0,0,,0,,,,,38.994099,-76.939652,0.04,27.1,32,3,0.9
3305304,1745471902302,0.0,44,,-0.1,0.04,1.01,0,-0,0,1.01,1.22,83,2148,0.0,3.28,,13.71,1.25,86.2,,20.2,5,,,,,,,,,,,,0,0,0,0,0,0,0,0,0,0,0,0,0,0,0,0,,,,,,0.0,,,,,,,
3305324,1745471902322,,,,,,,,,,,,,,,,,,,,,,,,,,,,,,,,,,0,0,0,0,0,0,0,0,0,0,0,0,0,0,0,0,,,,,,,,,,,,,
3305344,1745471902342,0.0,41,,-0.1,0.04,1.01,0,-0,0,1.02,1.22,83,2150,0.0,3.27,,13.71,1.25,86.2,,19.0,5,,,,,,,,,,,,0,0,0,0,0,0,0,0,0,0,0,0,0,0,0,0,,,,,,0.0,,,,,,,
3305364,1745471902362,,,,,,,,,,,,,,,,,,,,,,,,,,,,,,,,,,0,0,0,0,0,0,0,0,0,0,0,0,0,0,0,0,,,,,,,,,,,,,
3305384,1745471902382,0.0,41,13.6,-0.09,0.04,1.01,0,-0,0,1.02,1.22,83,2150,0.0,3.27,15,13.73,1.252,86.2,160,19.0,5,0,0,0,0,0.0,0.0,0.0,0.0,2.28,0,1.0,0,0,0,0,0,0,0,0,0,0,0,0,0,0,0,0,0,0,1.0,0,-0,0.0,38.994099,-76.939652,0.0,27.1,32,3,0.9
3305404,1745471902402,,,,,,,,,,,,,,,,,,,,,,,,,,,,,,,,,,0,0,0,0,0,0,0,0,0,0,0,0,0,0,0,0,,,,,,,,,,,,,
3305424,1745471902420,0.0,44,,-0.1,0.03,1.01,0,-0,-0,1.01,1.22,83,2036,0.2,3.25,,13.73,1.251,86.2,,17.5,5,,,,,,,,,,,,0,0,0,0,0,0,0,0,0,0,0,0,0,0,0,0,,,,,,0.0,,,,,,,
3305444,1745471902440,,,,,,,,,,,,,,,,,,,,,,,,,,,,,,,,,,0,0,0,0,0,0,0,0,0,0,0,0,0,0,0,0,,,,,,,,,,,,,
3305464,1745471902460,0.0,44,,-0.1,0.03,1.01,0,-0,0,1.01,1.22,83,1761,0.5,3.31,,13.88,1.251,86.2,,17.5,5,,,,,,,,,,,,0,0,0,0,0,0,0,0,0,0,0,0,0,0,0,0,,,,,,0.0,,,,,,,
3305484,1745471902480,,,,,,,,,,,,,,,,,,,,,,,0,0,0,0,0.0,0.0,0.0,0.0,2.27,,,0,0,0,0,0,0,0,0,0,0,0,0,0,0,0,0,,0,,,,,38.994099,-76.939652,0.0,27.1,32,3,0.9
3305504,1745471902502,0.0,54,,-0.1,0.02,1.0,0,-0,-0,1.0,1.22,82,2023,0.5,3.29,,13.9,1.252,86.2,,17.5,5,,,,,,,,,,,,0,0,0,0,0,0,0,0,0,0,0,0,0,0,0,0,,,,,,0.0,,,,,,,
3305524,1745471902522,,,,,,,,,,,,,,,,,,,,,,,,,,,,,,,,,,0,0,0,0,0,0,0,0,0,0,0,0,0,0,0,0,,,,,,,,,,,,,
3305544,1745471902542,0.0,51,,-0.11,0.03,0.99,0,-0,-0,1.0,1.22,82,2073,0.5,3.3,,13.9,1.252,86.2,,19.1,5,,,,,,,,,,,,0,0,0,0,0,0,0,0,0,0,0,0,0,0,0,0,,,,,,0.0,,,,,,,
3305564,1745471902562,,,,,,,,,,,,,,,,,,,,,,,,,,,,,,,,,,0,0,0,0,0,0,0,0,0,0,0,0,0,0,0,0,,,,,,,,,,,,,
3305584,1745471902582,0.0,54,,-0.1,0.04,1.0,-0,-0,0,1.01,1.22,83,2073,0.5,3.3,,13.79,1.25,86.2,,19.1,5,0,0,0,0,0.0,0.0,0.0,0.0,2.27,,,0,0,0,0,0,0,0,0,0,0,0,0,0,0,0,0,,0,,,,0.0,38.994099,-76.939652,0.0,27.1,32,3,0.9
3305604,1745471902602,,,,,,,,,,,,,,,,,,,,,,,,,,,,,,,,,,0,0,0,0,0,0,0,0,0,0,0,0,0,0,0,0,,,,,,,,,,,,,
3305624,1745471902622,0.0,51,,-0.1,0.04,1.0,0,-0,0,1.0,1.22,82,2054,0.5,3.32,,13.82,1.249,86.2,,18.4,5,,,,,,,,,,,,0,0,0,0,0,0,0,0,0,0,0,0,0,0,0,0,,,,,,0.0,,,,,,,
3305644,1745471902642,,,,,,,,,,,,,,,,,,,,,,,,,,,,,,,,,,0,0,0,0,0,0,0,0,0,0,0,0,0,0,0,0,,,,,,,,,,,,,
3305664,1745471902662,0.0,57,,-0.11,0.05,1.0,0,-0,0,1.0,1.22,82,2012,0.2,3.33,,13.88,1.249,86.2,,18.4,5,,,,,,,,,,,,0,0,0,0,0,0,0,0,0,0,0,0,0,0,0,0,,,,,,0.0,,,,,,,
3305684,1745471902682,,,,,,,,,,,,,,,,,,,,,,,0,0,0,0,0.0,0.0,0.0,0.0,2.28,,,0,0,0,0,0,0,0,0,0,0,0,0,0,0,0,0,,0,,,,,38.994099,-76.939652,0.09,27.1,32,3,0.9
3305704,1745471902704,0.0,37,,-0.11,0.03,1.0,-0,-0,0,1.01,1.22,82,1916,0.0,3.31,,13.87,1.249,86.2,,18.4,5,,,,,,,,,,,,0,0,0,0,0,0,0,0,0,0,0,0,0,0,0,0,,,,,,0.0,,,,,,,
3305724,1745471902724,,,,,,,,,,,,,,,,,,,,,,,,,,,,,,,,,,0,0,0,0,0,0,0,0,0,0,0,0,0,0,0,0,,,,,,,,,,,,,
3305744,1745471902744,0.0,41,,-0.11,0.01,0.98,-0,-0,0,0.99,1.22,81,1959,0.0,3.32,,13.87,1.249,86.2,,18.8,5,,,,,,,,,,,,0,0,0,0,0,0,0,0,0,0,0,0,0,0,0,0,,,,,,0.0,,,,,,,
3305764,1745471902764,,,,,,,,,,,,,,,,,,,,,,,,,,,,,,,,,,0,0,0,0,0,0,0,0,0,0,0,0,0,0,0,0,,,,,,,,,,,,,
3305784,1745471902784,0.0,44,,-0.11,-0.01,0.99,-0,-0,-0,1.0,1.22,81,1959,0.0,3.32,,13.87,1.249,86.2,,18.8,5,0,0,0,0,0.0,0.0,0.0,0.0,2.28,,,0,0,0,0,0,0,0,0,0,0,0,0,0,0,0,0,,0,,,,0.0,38.994099,-76.939652,0.04,27.1,32,3,0.9
3305804,1745471902802,,,,,,,,,,,,,,,,,,,,,,,,,,,,,,,,,,0,0,0,0,0,0,0,0,0,0,0,0,0,0,0,0,,,,,,,,,,,,,
3305824,1745471902822,0.0,44,,-0.12,-0.0,1.0,-0,-0,-0,1.01,1.22,82,1911,0.0,3.31,,13.92,1.25,86.2,,18.4,5,,,,,,,,,,,,0,0,0,0,0,0,0,0,0,0,0,0,0,0,0,0,,,,,,0.0,,,,,,,
3305844,1745471902842,,,,,,,,,,,,,,,,,,,,,,,,,,,,,,,,,,0,0,0,0,0,0,0,0,0,0,0,0,0,0,0,0,,,,,,,,,,,,,
3305864,1745471902862,0.0,57,,-0.12,0.01,0.98,-0,-0,-0,0.99,1.22,81,2020,0.0,3.33,,13.87,1.252,86.2,,18.4,5,,,,,,,,,,,,0,0,0,0,0,0,0,0,0,0,0,0,0,0,0,0,,,,,,0.0,,,,,,,
3305884,1745471902882,,,,,,,,,,,,,,,,,,,,,,,0,0,0,0,0.0,0.0,0.0,0.0,2.27,,,0,0,0,0,0,0,0,0,0,0,0,0,0,0,0,0,,0,,,,,38.994099,-76.939652,0.04,27.1,32,3,0.9
3305904,1745471902904,0.0,47,,-0.12,0.0,1.01,-0,-0,0,1.01,1.22,83,1967,0.2,3.32,,13.86,1.252,86.2,,18.4,5,,,,,,,,,,,,0,0,0,0,0,0,0,0,0,0,0,0,0,0,0,0,,,,,,0.0,,,,,,,
3305924,1745471902924,,,,,,,,,,,,,,,,,,,,,,,,,,,,,,,,,,0,0,0,0,0,0,0,0,0,0,0,0,0,0,0,0,,,,,,,,,,,,,
3305944,1745471902944,0.0,54,,-0.12,0.01,0.99,-0,-0,0,1.0,1.22,82,1943,0.5,3.34,,13.86,1.252,86.2,,17.4,5,,,,,,,,,,,,0,0,0,0,0,0,0,0,0,0,0,0,0,0,0,0,,,,,,0.0,,,,,,,
3305964,1745471902964,,,,,,,,,,,,,,,,,,,,,,,,,,,,,,,,,,0,0,0,0,0,0,0,0,0,0,0,0,0,0,0,0,,,,,,,,,,,,,
3305984,1745471902984,0.0,57,,-0.1,-0.0,1.0,-0,-0,0,1.01,1.22,82,1943,0.5,3.34,,13.94,1.252,86.2,,17.4,5,0,0,0,0,0.0,0.0,0.0,0.0,2.27,,,0,0,0,0,0,0,0,0,0,0,0,0,0,0,0,0,,0,,,,0.0,38.994099,-76.939652,0.0,27.1,32,3,0.9
3306004,1745471903004,,,,,,,,,,,,,,,,,,,,,,,,,,,,,,,,,,0,0,0,0,0,0,0,0,0,0,0,0,0,0,0,0,,,,,,,,,,,,,
3306024,1745471903016,0.0,47,,-0.1,-0.0,0.99,0,-0,0,1.0,1.22,82,1842,0.5,3.32,,13.99,1.251,86.2,,18.2,5,,,,,,,,,,,,0,0,0,0,0,0,0,0,0,0,0,0,0,0,0,0,,,,,,0.0,,,,,,,
3306044,1745471903036,,,,,,,,,,,,,,,,,,,,,,,,,,,,,,,,,,0,0,0,0,0,0,0,0,0,0,0,0,0,0,0,0,,,,,,,,,,,,,
3306064,1745471903056,0.0,51,,-0.09,-0.01,1.0,-0,-0,0,1.0,1.22,82,1890,0.5,3.33,,13.99,1.25,86.2,,18.2,5,,,,,,,,,,,,0,0,0,0,0,0,0,0,0,0,0,0,0,0,0,0,,,,,,0.0,,,,,,,
3306084,1745471903076,,,,,,,,,,,,,,,,,,,,,,,0,0,0,0,0.0,0.0,0.0,0.0,2.27,,,0,0,0,0,0,0,0,0,0,0,0,0,0,0,0,0,,0,,,,,38.994099,-76.939652,0.05,27.1,32,3,0.9
3306104,1745471903102,0.0,41,,-0.08,0.0,0.99,0,-0,0,1.0,1.22,82,1944,0.5,3.32,,13.94,1.249,86.2,,18.2,5,,,,,,,,,,,,0,0,0,0,0,0,0,0,0,0,0,0,0,0,0,0,,,,,,0.0,,,,,,,
3306124,1745471903122,,,,,,,,,,,,,,,,,,,,,,,,,,,,,,,,,,0,0,0,0,0,0,0,0,0,0,0,0,0,0,0,0,,,,,,,,,,,,,
3306144,1745471903142,0.0,44,,-0.08,0.01,0.99,0,-0,-0,0.99,1.22,81,2004,0.2,3.34,,13.94,1.249,86.2,,17.9,5,,,,,,,,,,,,0,0,0,0,0,0,0,0,0,0,0,0,0,0,0,0,,,,,,0.0,,,,,,,
3306164,1745471903162,,,,,,,,,,,,,,,,,,,,,,,,,,,,,,,,,,0,0,0,0,0,0,0,0,0,0,0,0,0,0,0,0,,,,,,,,,,,,,
3306184,1745471903182,0.0,57,,-0.07,0.01,0.99,0,-0,-0,0.99,1.22,81,2004,0.2,3.34,,13.87,1.249,86.2,,17.9,5,0,0,0,0,0.0,0.0,0.0,0.0,2.28,,,0,0,0,0,0,0,0,0,0,0,0,0,0,0,0,0,,0,,,,0.0,38.994099,-76.939652,0.04,27.1,32,3,0.9
3306204,1745471903201,,,,,,,,,,,,,,,,,,,,,,,,,,,,,,,,,,0,0,0,0,0,0,0,0,0,0,0,0,0,0,0,0,,,,,,,,,,,,,
3306224,1745471903221,0.0,51,,-0.08,-0.0,0.97,0,-0,-0,0.97,1.22,79,1981,0.0,3.33,,13.91,1.249,86.2,,18.0,5,,,,,,,,,,,,0,0,0,0,0,0,0,0,0,0,0,0,0,0,0,0,,,,,,0.0,,,,,,,
3306244,1745471903241,,,,,,,,,,,,,,,,,,,,,,,,,,,,,,,,,,0,0,0,0,0,0,0,0,0,0,0,0,0,0,0,0,,,,,,,,,,,,,
3306264,1745471903261,0.0,57,,-0.08,0.01,0.97,-0,-0,-0,0.98,1.22,80,1895,0.4,3.33,,14.02,1.25,86.2,,18.0,5,,,,,,,,,,,,0,0,0,0,0,0,0,0,0,0,0,0,0,0,0,0,,,,,,0.0,,,,,,,
3306284,1745471903281,,,,,,,,,,,,,,,,,,,,,,,0,0,0,0,0.0,0.0,0.0,0.0,2.27,,,0,0,0,0,0,0,0,0,0,0,0,0,0,0,0,0,,0,,,,,38.994099,-76.939652,0.04,27.1,32,3,0.9
3306304,1745471903303,0.0,51,,-0.08,0.01,0.99,0,-0,-0,0.99,1.22,81,1943,4.9,3.46,,14.12,1.252,86.2,,18.0,5,,,,,,,,,,,,0,0,0,0,0,0,0,0,0,0,0,0,0,0,0,0,,,,,,0.0,,,,,,,
3306324,1745471903323,,,,,,,,,,,,,,,,,,,,,,,,,,,,,,,,,,0,0,0,0,0,0,0,0,0,0,0,0,0,0,0,0,,,,,,,,,,,,,
3306344,1745471903343,0.0,61,,-0.08,0.02,0.97,0,-0,-0,0.97,1.22,80,2011,8.1,3.64,,14.12,1.252,86.2,,18.4,5,,,,,,,,,,,,0,0,0,0,0,0,0,0,0,0,0,0,0,0,0,0,,,,,,0.0,,,,,,,
3306364,1745471903363,,,,,,,,,,,,,,,,,,,,,,,,,,,,,,,,,,0,0,0,0,0,0,0,0,0,0,0,0,0,0,0,0,,,,,,,,,,,,,
3306384,1745471903383,0.0,44,13.55,-0.09,0.02,0.99,0,-0,0,0.99,1.22,81,2011,8.1,3.64,15,14.16,1.253,86.2,160,18.4,5,0,0,0,0,0.0,0.0,0.0,0.0,2.27,0,1.0,0,0,0,0,0,0,0,0,0,0,0,0,0,0,0,0,0,0,1.0,0,-0,0.0,38.994099,-76.939652,0.0,27.1,32,3,0.9
3306404,1745471903403,,,,,,,,,,,,,,,,,,,,,,,,,,,,,,,,,,0,0,0,0,0,0,0,0,0,0,0,0,0,0,0,0,,,,,,,,,,,,,
3306424,1745471903423,0.0,37,,-0.09,0.03,0.98,0,-0,0,0.99,1.22,81,2003,10.5,3.73,,14.3,1.252,86.2,,17.6,5,,,,,,,,,,,,0,0,0,0,0,0,0,0,0,0,0,0,0,0,0,0,,,,,,0.0,,,,,,,
3306444,1745471903443,,,,,,,,,,,,,,,,,,,,,,,,,,,,,,,,,,0,0,0,0,0,0,0,0,0,0,0,0,0,0,0,0,,,,,,,,,,,,,
3306464,1745471903463,0.0,47,,-0.07,0.03,0.99,0,-0,0,1.0,1.22,81,1852,11.3,3.78,,14.39,1.252,86.2,,17.6,5,,,,,,,,,,,,0,0,0,0,0,0,0,0,0,0,0,0,0,0,0,0,,,,,,0.0,,,,,,,
3306484,1745471903483,,,,,,,,,,,,,,,,,,,,,,,0,0,0,0,0.0,0.0,0.0,0.0,2.27,,,0,0,0,0,0,0,0,0,0,0,0,0,0,0,0,0,,0,,,,,38.994099,-76.939652,0.04,27.1,32,3,0.9
3306504,1745471903503,0.0,44,,-0.07,0.02,1.0,0,-0,0,1.0,1.22,82,1628,11.5,3.78,,14.46,1.25,86.2,,17.6,5,,,,,,,,,,,,0,0,0,0,0,0,0,0,0,0,0,0,0,0,0,0,,,,,,0.0,,,,,,,
3306524,1745471903523,,,,,,,,,,,,,,,,,,,,,,,,,,,,,,,,,,0,0,0,0,0,0,0,0,0,0,0,0,0,0,0,0,,,,,,,,,,,,,
3306544,1745471903543,0.0,51,,-0.06,0.01,1.0,0,-0,0,1.01,1.22,82,1930,11.6,3.78,,14.46,1.25,86.2,,17.9,5,,,,,,,,,,,,0,0,0,0,0,0,0,0,0,0,0,0,0,0,0,0,,,,,,0.0,,,,,,,
3306564,1745471903563,,,,,,,,,,,,,,,,,,,,,,,,,,,,,,,,,,0,0,0,0,0,0,0,0,0,0,0,0,0,0,0,0,,,,,,,,,,,,,
3306584,1745471903583,0.0,64,,-0.06,-0.0,1.0,0,-0,0,1.0,1.22,82,1930,11.6,3.78,,14.42,1.249,86.2,,17.9,5,0,0,0,0,0.0,0.0,0.0,0.0,2.27,,,0,0,0,0,0,0,0,0,0,0,0,0,0,0,0,0,,0,,,,0.0,38.994099,-76.939652,0.0,27.1,32,3,0.9
3306604,1745471903603,,,,,,,,,,,,,,,,,,,,,,,,,,,,,,,,,,0,0,0,0,0,0,0,0,0,0,0,0,0,0,0,0,,,,,,,,,,,,,
3306624,1745471903623,0.0,44,,-0.06,0.0,1.0,-0,-0,0,1.0,1.22,82,2099,11.3,3.77,,14.27,1.249,86.2,,19.4,5,,,,,,,,,,,,0,0,0,0,0,0,0,0,0,0,0,0,0,0,0,0,,,,,,0.0,,,,,,,
3306644,1745471903643,,,,,,,,,,,,,,,,,,,,,,,,,,,,,,,,,,0,0,0,0,0,0,0,0,0,0,0,0,0,0,0,0,,,,,,,,,,,,,
3306664,1745471903663,0.0,64,,-0.06,0.02,1.01,0,-0,0,1.01,1.22,83,2191,11.1,3.78,,14.3,1.249,86.2,,19.4,5,,,,,,,,,,,,0,0,0,0,0,0,0,0,0,0,0,0,0,0,0,0,,,,,,0.0,,,,,,,
3306684,1745471903683,,,,,,,,,,,,,,,,,,,,,,,0,0,0,0,0.0,0.0,0.0,0.0,2.28,,,0,0,0,0,0,0,0,0,0,0,0,0,0,0,0,0,,0,,,,,38.994099,-76.939652,0.04,27.1,32,3,0.9
3306704,1745471903701,0.0,37,,-0.08,0.02,1.01,-0,-0,0,1.01,1.22,83,2245,11.0,3.79,,14.26,1.248,86.2,,19.4,5,,,,,,,,,,,,0,0,0,0,0,0,0,0,0,0,0,0,0,0,0,0,,,,,,0.0,,,,,,,
3306724,1745471903721,,,,,,,,,,,,,,,,,,,,,,,,,,,,,,,,,,0,0,0,0,0,0,0,0,0,0,0,0,0,0,0,0,,,,,,,,,,,,,
3306744,1745471903741,0.0,44,,-0.08,0.02,1.01,-0,-0,0,1.01,1.22,83,2328,15.8,4.32,,14.26,1.248,86.2,,20.0,5,,,,,,,,,,,,0,0,0,0,0,0,0,0,0,0,0,0,0,0,0,0,,,,,,0.0,,,,,,,
3306764,1745471903761,,,,,,,,,,,,,,,,,,,,,,,,,,,,,,,,,,0,0,0,0,0,0,0,0,0,0,0,0,0,0,0,0,,,,,,,,,,,,,
3306784,1745471903781,0.0,54,,-0.08,-0.0,1.01,-0,-0,-0,1.02,1.22,83,2328,15.8,4.32,,14.28,1.25,86.2,,20.0,5,0,0,0,0,0.0,0.0,0.0,0.0,2.28,,,0,0,0,0,0,0,0,0,0,0,0,0,0,0,0,0,,0,,,,0.0,38.994099,-76.939652,0.05,27.1,32,3,0.9
3306804,1745471903803,,,,,,,,,,,,,,,,,,,,,,,,,,,,,,,,,,0,0,0,0,0,0,0,0,0,0,0,0,0,0,0,0,,,,,,,,,,,,,
3306824,1745471903823,0.0,41,,-0.09,0.02,1.01,0,-0,-0,1.01,1.22,83,2437,20.1,4.67,,14.35,1.251,86.2,,21.6,5,,,,,,,,,,,,0,0,0,0,0,0,0,0,0,0,0,0,0,0,0,0,,,,,,0.0,,,,,,,
3306844,1745471903843,,,,,,,,,,,,,,,,,,,,,,,,,,,,,,,,,,0,0,0,0,0,0,0,0,0,0,0,0,0,0,0,0,,,,,,,,,,,,,
3306864,1745471903863,0.0,57,,-0.07,0.01,1.04,-0,-0,0,1.04,1.22,85,2600,21.5,4.63,,14.32,1.251,86.2,,21.6,5,,,,,,,,,,,,0,0,0,0,0,0,0,0,0,0,0,0,0,0,0,0,,,,,,0.0,,,,,,,
3306884,1745471903883,,,,,,,,,,,,,,,,,,,,,,,0,0,0,0,0.0,0.0,0.0,0.0,2.27,,,0,0,0,0,0,0,0,0,0,0,0,0,0,0,0,0,,0,,,,,38.994099,-76.939652,0.05,27.1,32,3,0.9
3306904,1745471903901,0.0,54,,-0.07,0.04,1.0,0,-0,0,1.0,1.22,82,2792,21.9,4.54,,14.26,1.251,86.2,,21.6,5,,,,,,,,,,,,0,0,0,0,0,0,0,0,0,0,0,0,0,0,0,0,,,,,,0.0,,,,,,,
3306924,1745471903921,,,,,,,,,,,,,,,,,,,,,,,,,,,,,,,,,,0,0,0,0,0,0,0,0,0,0,0,0,0,0,0,0,,,,,,,,,,,,,
3306944,1745471903941,0.0,64,,-0.05,0.08,0.96,1,-1,0,0.96,1.22,79,2927,20.6,4.47,,14.26,1.251,86.2,,26.1,5,,,,,,,,,,,,0,0,0,0,0,0,0,0,0,0,0,0,0,0,0,0,,,,,,0.0,,,,,,,
3306964,1745471903961,,,,,,,,,,,,,,,,,,,,,,,,,,,,,,,,,,0,0,0,0,0,0,0,0,0,0,0,0,0,0,0,0,,,,,,,,,,,,,
3306984,1745471903981,0.0,57,,-0.01,0.15,1.0,1,-1,1,1.01,1.22,82,2927,20.6,4.47,,14.23,1.251,86.2,,26.1,5,0,0,0,0,0.0,0.0,0.0,0.0,2.27,,,0,0,0,0,0,0,0,0,0,0,0,0,0,0,0,0,,0,,,,0.0,38.994099,-76.939652,0.05,27.1,32,3,0.9
3307004,1745471904001,,,,,,,,,,,,,,,,,,,,,,,,,,,,,,,,,,0,0,0,0,0,0,0,0,0,0,0,0,0,0,0,0,,,,,,,,,,,,,
3307024,1745471904015,0.0,54,,-0.02,0.08,1.05,-0,-0,0,1.05,1.22,86,3282,11.2,4.02,,13.92,1.25,86.2,,29.5,5,,,,,,,,,,,,0,0,0,0,0,0,0,0,0,0,0,0,0,0,0,0,,,,,,0.0,,,,,,,
3307044,1745471904035,,,,,,,,,,,,,,,,,,,,,,,,,,,,,,,,,,0,0,0,0,0,0,0,0,0,0,0,0,0,0,0,0,,,,,,,,,,,,,
3307064,1745471904055,0.0,44,,-0.03,0.12,0.97,1,-1,0,0.98,1.22,80,3324,6.0,3.83,,13.53,1.249,86.2,,29.5,5,,,,,,,,,,,,0,0,0,0,0,0,0,0,0,0,0,0,0,0,0,0,,,,,,0.0,,,,,,,
3307084,1745471904075,,,,,,,,,,,,,,,,,,,,,,,0,0,0,0,0.0,0.0,0.0,0.0,2.27,,,0,0,0,0,0,0,0,0,0,0,0,0,0,0,0,0,,0,,,,,38.994099,-76.939652,0.0,27.1,32,3,0.9
3307104,1745471904101,0.0,44,,-0.03,0.05,1.04,-0,-0,0,1.05,1.22,86,3356,4.7,3.6,,13.29,1.249,86.2,,29.5,5,,,,,,,,,,,,0,0,0,0,0,0,0,0,0,0,0,0,0,0,0,0,,,,,,0.0,,,,,,,
3307124,1745471904121,,,,,,,,,,,,,,,,,,,,,,,,,,,,,,,,,,0,0,0,0,0,0,0,0,0,0,0,0,0,0,0,0,,,,,,,,,,,,,
3307144,1745471904141,0.0,44,,-0.04,0.11,0.98,1,-1,0,0.98,1.22,80,3431,4.3,3.58,,13.29,1.249,86.2,,30.9,5,,,,,,,,,,,,0,0,0,0,0,0,0,0,0,0,0,0,0,0,0,0,,,,,,0.0,,,,,,,
3307164,1745471904161,,,,,,,,,,,,,,,,,,,,,,,,,,,,,,,,,,0,0,0,0,0,0,0,0,0,0,0,0,0,0,0,0,,,,,,,,,,,,,
3307184,1745471904181,0.0,54,,-0.05,-0.04,1.03,-0,-0,0,1.03,1.22,84,3431,4.3,3.58,,13.15,1.249,86.2,,30.9,5,0,0,0,0,0.0,0.0,0.0,0.0,2.28,,,0,0,0,0,0,0,0,0,0,0,0,0,0,0,0,0,,0,,,,0.0,38.994099,-76.939652,0.04,27.1,32,3,0.9
3307204,1745471904202,,,,,,,,,,,,,,,,,,,,,,,,,,,,,,,,,,0,0,0,0,0,0,0,0,0,0,0,0,0,0,0,0,,,,,,,,,,,,,
3307224,1745471904222,0.0,47,,-0.04,0.07,0.98,1,-0,0,0.99,1.22,81,3398,4.1,3.54,,13.0,1.249,86.2,,31.5,5,,,,,,,,,,,,0,0,0,0,0,0,0,0,0,0,0,0,0,0,0,0,,,,,,0.0,,,,,,,
3307244,1745471904242,,,,,,,,,,,,,,,,,,,,,,,,,,,,,,,,,,0,0,0,0,0,0,0,0,0,0,0,0,0,0,0,0,,,,,,,,,,,,,
3307264,1745471904262,0.0,61,,-0.07,0.02,1.01,-0,-0,0,1.01,1.22,83,3440,4.1,3.48,,12.97,1.249,86.2,,31.5,5,,,,,,,,,,,,0,0,0,0,0,0,0,0,0,0,0,0,0,0,0,0,,,,,,0.0,,,,,,,
3307284,1745471904282,,,,,,,,,,,,,,,,,,,,,,,0,0,0,0,0.0,0.0,0.0,0.0,2.28,,,0,0,0,0,0,0,0,0,0,0,0,0,0,0,0,0,,0,,,,,38.994099,-76.939652,0.04,27.1,32,3,0.9
3307304,1745471904303,0.0,54,,-0.05,0.08,1.02,0,-0,1,1.02,1.22,83,3406,7.1,3.56,,13.13,1.251,86.2,,31.5,5,,,,,,,,,,,,0,0,0,0,0,0,0,0,0,0,0,0,0,0,0,0,,,,,,0.0,,,,,,,
3307324,1745471904323,,,,,,,,,,,,,,,,,,,,,,,,,,,,,,,,,,0,0,0,0,0,0,0,0,0,0,0,0,0,0,0,0,,,,,,,,,,,,,
3307344,1745471904343,0.0,54,,-0.07,0.0,1.01,0,-0,0,1.01,1.22,83,3333,12.8,4.03,,13.13,1.251,86.2,,31.0,5,,,,,,,,,,,,0,0,0,0,0,0,0,0,0,0,0,0,0,0,0,0,,,,,,0.0,,,,,,,
3307364,1745471904363,,,,,,,,,,,,,,,,,,,,,,,,,,,,,,,,,,0,0,0,0,0,0,0,0,0,0,0,0,0,0,0,0,,,,,,,,,,,,,
3307384,1745471904383,0.0,44,13.61,-0.06,0.02,1.04,0,-0,1,1.04,1.22,85,3333,12.8,4.03,15,13.45,1.251,86.2,160,31.0,5,0,0,0,0,0.0,0.0,0.0,0.0,2.27,0,1.0,0,0,0,0,0,0,0,0,0,0,0,0,0,0,0,0,0,0,1.0,0,-0,0.0,38.994099,-76.939652,0.0,27.1,32,3,0.9
3307404,1745471904402,,,,,,,,,,,,,,,,,,,,,,,,,,,,,,,,,,0,0,0,0,0,0,0,0,0,0,0,0,0,0,0,0,,,,,,,,,,,,,
3307424,1745471904422,0.0,41,,-0.08,0.05,0.97,1,-0,-0,0.98,1.22,80,3469,14.5,4.08,,13.68,1.251,86.2,,32.1,5,,,,,,,,,,,,0,0,0,0,0,0,0,0,0,0,0,0,0,0,0,0,,,,,,0.0,,,,,,,
3307444,1745471904442,,,,,,,,,,,,,,,,,,,,,,,,,,,,,,,,,,0,0,0,0,0,0,0,0,0,0,0,0,0,0,0,0,,,,,,,,,,,,,
3307464,1745471904462,0.0,54,,-0.08,-0.02,1.01,-1,-0,0,1.01,1.22,83,3491,15.1,4.1,,13.71,1.251,86.2,,32.1,5,,,,,,,,,,,,0,0,0,0,0,0,0,0,0,0,0,0,0,0,0,0,,,,,,0.0,,,,,,,
3307484,1745471904482,,,,,,,,,,,,,,,,,,,,,,,0,0,0,0,0.0,0.0,0.0,0.0,2.27,,,0,0,0,0,0,0,0,0,0,0,0,0,0,0,0,0,,0,,,,,38.994099,-76.939652,0.04,27.1,32,3,0.9
3307504,1745471904502,0.0,34,,-0.07,-0.04,1.02,-1,-0,0,1.03,1.22,84,3680,15.3,4.1,,13.64,1.25,86.2,,32.1,5,,,,,,,,,,,,0,0,0,0,0,0,0,0,0,0,0,0,0,0,0,0,,,,,,0.0,,,,,,,
3307524,1745471904522,,,,,,,,,,,,,,,,,,,,,,,,,,,,,,,,,,0,0,0,0,0,0,0,0,0,0,0,0,0,0,0,0,,,,,,,,,,,,,
3307544,1745471904542,0.0,51,,-0.07,-0.01,0.98,-1,-0,0,0.98,1.22,80,3742,15.5,4.06,,13.64,1.25,86.2,,34.5,5,,,,,,,,,,,,0,0,0,0,0,0,0,0,0,0,0,0,0,0,0,0,,,,,,0.0,,,,,,,
3307564,1745471904562,,,,,,,,,,,,,,,,,,,,,,,,,,,,,,,,,,0,0,0,0,0,0,0,0,0,0,0,0,0,0,0,0,,,,,,,,,,,,,
3307584,1745471904582,0.0,61,,-0.08,0.0,0.96,0,-0,-0,0.97,1.22,79,3742,15.5,4.06,,13.64,1.248,86.2,,34.5,5,0,0,0,0,0.0,0.0,0.0,0.0,2.27,,,0,0,0,0,0,0,0,0,0,0,0,0,0,0,0,0,,0,,,,0.0,38.994099,-76.939652,0.1,27.1,32,3,0.9
3307604,1745471904602,,,,,,,,,,,,,,,,,,,,,,,,,,,,,,,,,,0,0,0,0,0,0,0,0,0,0,0,0,0,0,0,0,,,,,,,,,,,,,
3307624,1745471904622,0.0,51,,-0.08,0.06,1.02,1,-0,0,1.03,1.22,84,3919,15.4,4.04,,13.51,1.249,86.2,,37.3,5,,,,,,,,,,,,0,0,0,0,0,0,0,0,0,0,0,0,0,0,0,0,,,,,,0.0,,,,,,,
3307644,1745471904642,,,,,,,,,,,,,,,,,,,,,,,,,,,,,,,,,,0,0,0,0,0,0,0,0,0,0,0,0,0,0,0,0,,,,,,,,,,,,,
3307664,1745471904662,0.0,54,,-0.08,-0.05,0.96,-1,-0,0,0.97,1.22,79,4034,15.1,4.01,,13.48,1.249,86.2,,37.3,5,,,,,,,,,,,,0,0,0,0,0,0,0,0,0,0,0,0,0,0,0,0,,,,,,0.0,,,,,,,
3307684,1745471904682,,,,,,,,,,,,,,,,,,,,,,,0,0,0,0,0.0,0.0,0.0,0.0,2.28,,,0,0,0,0,0,0,0,0,0,0,0,0,0,0,0,0,,0,,,,,38.994099,-76.939652,0.08,27.1,32,3,0.9
3307704,1745471904702,0.0,47,,-0.1,0.02,0.97,0,-0,0,0.97,1.22,80,4039,15.2,4.01,,13.37,1.248,86.2,,37.3,5,,,,,,,,,,,,0,0,0,0,0,0,0,0,0,0,0,0,0,0,0,0,,,,,,0.0,,,,,,,
3307724,1745471904722,,,,,,,,,,,,,,,,,,,,,,,,,,,,,,,,,,0,0,0,0,0,0,0,0,0,0,0,0,0,0,0,0,,,,,,,,,,,,,
3307744,1745471904742,0.0,37,,-0.09,-0.04,0.95,-1,-0,0,0.95,1.22,78,4138,15.3,4.01,,13.37,1.248,86.2,,38.7,5,,,,,,,,,,,,0,0,0,0,0,0,0,0,0,0,0,0,0,0,0,0,,,,,,0.0,,,,,,,
3307764,1745471904762,,,,,,,,,,,,,,,,,,,,,,,,,,,,,,,,,,0,0,0,0,0,0,0,0,0,0,0,0,0,0,0,0,,,,,,,,,,,,,
3307784,1745471904782,0.0,47,,-0.09,0.04,0.99,1,-0,-0,1.0,1.22,82,4138,15.3,4.01,,13.35,1.25,86.2,,38.7,5,0,0,0,0,0.0,0.0,0.0,0.0,2.28,,,0,0,0,0,0,0,0,0,0,0,0,0,0,0,0,0,,0,,,,0.0,38.994099,-76.939652,0.1,27.0,32,3,0.9
3307804,1745471904802,,,,,,,,,,,,,,,,,,,,,,,,,,,,,,,,,,0,0,0,0,0,0,0,0,0,0,0,0,0,0,0,0,,,,,,,,,,,,,
3307824,1745471904822,0.0,34,,-0.06,-0.06,0.91,-0,-0,-0,0.91,1.22,75,4240,15.3,3.99,,13.29,1.251,86.2,,40.6,5,,,,,,,,,,,,0,0,0,0,0,0,0,0,0,0,0,0,0,0,0,0,,,,,,0.0,,,,,,,
3307844,1745471904842,,,,,,,,,,,,,,,,,,,,,,,,,,,,,,,,,,0,0,0,0,0,0,0,0,0,0,0,0,0,0,0,0,,,,,,,,,,,,,
3307864,1745471904862,0.0,44,,-0.08,-0.08,0.9,-1,-0,0,0.91,1.22,74,4335,15.6,4.03,,13.28,1.251,86.2,,40.6,5,,,,,,,,,,,,0,0,0,0,0,0,0,0,0,0,0,0,0,0,0,0,,,,,,0.0,,,,,,,
3307884,1745471904882,,,,,,,,,,,,,,,,,,,,,,,0,0,0,0,0.0,0.0,0.0,0.0,2.27,,,0,0,0,0,0,0,0,0,0,0,0,0,0,0,0,0,,0,,,,,38.994099,-76.939652,0.05,27.0,32,3,0.9
3307904,1745471904902,0.0,47,,-0.1,-0.01,1.0,-0,-0,0,1.0,1.22,82,4271,15.8,4.02,,13.29,1.252,86.2,,40.6,5,,,,,,,,,,,,0,0,0,0,0,0,0,0,0,0,0,0,0,0,0,0,,,,,,0.0,,,,,,,
3307924,1745471904922,,,,,,,,,,,,,,,,,,,,,,,,,,,,,,,,,,0,0,0,0,0,0,0,0,0,0,0,0,0,0,0,0,,,,,,,,,,,,,
3307944,1745471904942,0.0,51,,-0.1,0.07,1.1,1,-0,0,1.1,1.22,90,4391,15.8,4.04,,13.29,1.252,86.2,,41.9,5,,,,,,,,,,,,0,0,0,0,0,0,0,0,0,0,0,0,0,0,0,0,,,,,,0.0,,,,,,,
3307964,1745471904962,,,,,,,,,,,,,,,,,,,,,,,,,,,,,,,,,,0,0,0,0,0,0,0,0,0,0,0,0,0,0,0,0,,,,,,,,,,,,,
3307984,1745471904982,0.0,64,,-0.1,0.12,1.16,2,-0,0,1.17,1.22,95,4391,15.8,4.04,,13.23,1.251,86.2,,41.9,5,0,0,0,0,0.0,0.0,0.0,0.0,2.27,,,0,0,0,0,0,0,0,0,0,0,0,0,0,0,0,0,,0,,,,0.0,38.994099,-76.939652,0.0,27.0,32,3,0.9
3308004,1745471905002,,,,,,,,,,,,,,,,,,,,,,,,,,,,,,,,,,0,0,0,0,0,0,0,0,0,0,0,0,0,0,0,0,,,,,,,,,,,,,
3308024,1745471905016,0.0,44,,-0.09,0.17,1.19,4,-0,0,1.2,1.22,98,4447,15.8,4.06,,13.16,1.25,86.2,,42.9,5,,,,,,,,,,,,0,0,0,0,0,0,0,0,0,0,0,0,0,0,0,0,,,,,,0.0,,,,,,,
3308044,1745471905036,,,,,,,,,,,,,,,,,,,,,,,,,,,,,,,,,,0,0,0,0,0,0,0,0,0,0,0,0,0,0,0,0,,,,,,,,,,,,,
3308064,1745471905056,0.0,44,,-0.08,0.19,1.2,5,-1,0,1.21,1.22,99,4486,15.7,4.06,,13.23,1.249,84.4,,42.9,5,,,,,,,,,,,,0,0,0,0,0,0,0,0,0,0,0,0,0,0,0,0,,,,,,0.0,,,,,,,
3308084,1745471905076,,,,,,,,,,,,,,,,,,,,,,,0,0,0,0,0.0,0.0,0.0,0.0,2.27,,,0,0,0,0,0,0,0,0,0,0,0,0,0,0,0,0,,0,,,,,38.994099,-76.939652,0.0,27.0,32,3,0.9
3308104,1745471905103,0.0,44,,-0.07,0.24,1.23,6,-0,0,1.25,1.25,100,4530,15.5,4.06,,13.16,1.249,84.4,,42.9,5,,,,,,,,,,,,0,0,0,0,0,0,0,0,0,0,0,0,0,0,0,0,,,,,,0.0,,,,,,,
3308124,1745471905123,,,,,,,,,,,,,,,,,,,,,,,,,,,,,,,,,,0,0,0,0,0,0,0,0,0,0,0,0,0,0,0,0,,,,,,,,,,,,,
3308144,1745471905143,0.0,41,,-0.06,0.29,1.27,7,-1,0,1.3,1.3,100,4534,15.3,4.07,,13.16,1.249,84.4,,43.9,5,,,,,,,,,,,,0,0,0,0,0,0,0,0,0,0,0,0,0,0,0,0,,,,,,0.0,,,,,,,
3308164,1745471905163,,,,,,,,,,,,,,,,,,,,,,,,,,,,,,,,,,0,0,0,0,0,0,0,0,0,0,0,0,0,0,0,0,,,,,,,,,,,,,
3308184,1745471905183,0.0,37,,-0.06,0.35,1.32,8,-1,0,1.37,1.37,100,4534,15.3,4.07,,13.16,1.25,84.4,,43.9,5,0,0,0,0,0.0,0.0,0.0,0.0,2.28,,,0,0,0,0,0,0,0,0,0,0,0,0,0,0,0,0,,0,,,,0.0,38.994099,-76.939652,0.04,27.0,32,3,0.9
3308204,1745471905203,,,,,,,,,,,,,,,,,,,,,,,,,,,,,,,,,,0,0,0,0,0,0,0,0,0,0,0,0,0,0,0,0,,,,,,,,,,,,,
3308224,1745471905217,0.0,47,,-0.08,0.39,1.37,9,-1,0,1.42,1.42,100,4565,15.3,4.04,,13.16,1.25,84.4,,44.1,5,,,,,,,,,,,,0,0,0,0,0,0,0,0,0,0,0,0,0,0,0,0,,,,,,0.0,,,,,,,
3308244,1745471905237,,,,,,,,,,,,,,,,,,,,,,,,,,,,,,,,,,0,0,0,0,0,0,0,0,0,0,0,0,0,0,0,0,,,,,,,,,,,,,
3308264,1745471905257,0.0,51,,-0.1,0.4,1.4,8,-1,1,1.45,1.45,100,4607,15.4,4.05,,13.17,1.251,84.4,,44.1,5,,,,,,,,,,,,0,0,0,0,0,0,0,0,0,0,0,0,0,0,0,0,,,,,,0.0,,,,,,,
3308284,1745471905277,,,,,,,,,,,,,,,,,,,,,,,0,0,0,0,0.0,0.0,0.0,0.0,2.28,,,0,0,0,0,0,0,0,0,0,0,0,0,0,0,0,0,,0,,,,,38.994099,-76.939652,0.0,27.0,32,3,0.9
3308304,1745471905303,0.0,54,,-0.12,0.29,1.34,7,-1,1,1.37,1.45,94,4582,15.4,4.04,,13.17,1.24,84.4,,44.1,5,,,,,,,,,,,,0,0,0,0,0,0,0,0,0,0,0,0,0,0,0,0,,,,,,0.0,,,,,,,
3308324,1745471905323,,,,,,,,,,,,,,,,,,,,,,,,,,,,,,,,,,0,0,0,0,0,0,0,0,0,0,0,0,0,0,0,0,,,,,,,,,,,,,
3308344,1745471905343,0.0,37,,-0.11,0.15,1.23,4,-0,1,1.24,1.45,86,4648,15.7,4.05,,13.17,1.24,84.4,,45.2,5,,,,,,,,,,,,0,0,0,0,0,0,0,0,0,0,0,0,0,0,0,0,,,,,,0.0,,,,,,,
3308364,1745471905363,,,,,,,,,,,,,,,,,,,,,,,,,,,,,,,,,,0,0,0,0,0,0,0,0,0,0,0,0,0,0,0,0,,,,,,,,,,,,,
3308384,1745471905383,0.0,47,13.67,-0.08,0.14,1.17,4,-0,0,1.18,1.45,81,4648,15.7,4.05,15,13.09,1.252,84.4,160,45.2,5,0,0,0,0,0.0,0.0,0.0,0.0,2.27,0,1.0,0,0,0,0,0,0,0,0,0,0,0,0,0,0,0,0,0,0,1.0,0,-0,0.0,38.994099,-76.939652,0.04,27.0,32,3,0.9
3308404,1745471905403,,,,,,,,,,,,,,,,,,,,,,,,,,,,,,,,,,0,0,0,0,0,0,0,0,0,0,0,0,0,0,0,0,,,,,,,,,,,,,
