"Interval"|"ms"|0|0|1,"Utc"|"ms"|0|0|1,"FrontBP"|"psi"|-5.0|5.0|25,"SteerAng"|"Degrees"|-145.0|145.0|25,"Battery"|"Volts"|-5.0|20.0|1,"AccelX"|"G"|-3.0|3.0|25,"AccelY"|"G"|-3.0|3.0|25,"AccelZ"|"G"|-3.0|3.0|25,"Yaw"|"Deg/Sec"|-120|120|25,"Pitch"|"Deg/Sec"|-120|120|25,"Roll"|"Deg/Sec"|-120|120|25,"Gsum"|"G"|0.0|3.0|25,"GsumMax"|"G"|0.0|3.0|25,"GsumPct"|"%"|0|100|25,"RPM"|""|0|10000|25,"TPS"|"%"|0.0|100.0|25,"InjectorPW"|"ms"|0.0|100.0|25,"Baro"|"kPa"|0|105|1,"MAP"|"Psi"|0.0|255.0|25,"Lambda"|""|-2.0|2.0|25,"IAT"|"C"|0.0|200.0|25,"EngineTemp"|"C"|0|200|1,"EOP"|"PSI"|0.0|152.0|25,"EOT"|"F"|0|250|25,"WSFR"|"MPH"|0|150|10,"WSFL"|"MPH"|0|100|10,"WSRR"|"MPH"|0|100|10,"WSRL"|""|0|100|10,"TCSet"|"%"|0.0|100.0|10,"TCSlip"|"%"|0.0|100.0|10,"TCComp"|"deg"|0.0|50.0|10,"TCCut"|"%"|0.0|100.0|10,"Analog8"|""|0.0|5.0|10,"OilTemp"|"F"|0|300|1,"AA_On"|""|0.0|1.0|1,"ThermLF1"|"C"|0|400|50,"ThermLF2"|"C"|0|400|50,"ThermRR1"|"C"|0|400|50,"ThermRR2"|"C"|0|400|50,"ThermLF3"|"C"|0|400|50,"ThermLF4"|"C"|0|400|50,"ThermLF5"|"C"|0|400|50,"ThermLF6"|"C"|0|400|50,"ThermLF7"|"C"|0|400|50,"ThermLF8"|"C"|0|400|50,"ThermRR3"|"C"|0|400|50,"ThermRR4"|"C"|0|400|50,"ThermRR5"|"C"|0|400|50,"ThermRR6"|"C"|0|400|50,"ThermRR7"|"C"|0|400|50,"ThermRR8"|"C"|0|400|50,"Gear"|""|1|6|10,"AA_On"|""|0.0|1.0|1,"AA_LowDrag"|""|0|1|1,"Fuel_Mix"|""|-10|10|1,"AA_Packages"|""|0.0|1000.0|25,"Latitude"|"Degrees"|-180.0|180.0|10,"Longitude"|"Degrees"|-180.0|180.0|10,"Speed"|"kph"|0.0|150.0|10,"GPSSats"|""|0|20|10,"GPSQual"|""|0|5|10,"GPSDOP"|""|0.0|20.0|10
3176765,0,0.0,183.01,,-0.06,0.05,1.01,0,-0,-0,1.01,1.01,100,5412,14.5,4.11,,11.96,0.866,86.2,,61.7,5,,,,,,,,,,,,0,0,0,0,0,0,0,0,0,0,0,0,0,0,0,0,,,,,0.0,,,,,,
3176785,0,,,,,,,,,,,,,,,,,,,,,,,,,,,,,,,,,,0,0,0,0,0,0,0,0,0,0,0,0,0,0,0,0,,,,,,,,,,,
3176805,0,0.0,183.26,,-0.09,0.11,1.06,-0,-0,0,1.07,1.07,100,5601,14.7,4.19,,11.96,0.866,86.2,,62.4,5,,,,,,,,,,,,0,0,0,0,0,0,0,0,0,0,0,0,0,0,0,0,,,,,0.0,,,,,,
3176825,0,,,,,,,,,,,,,,,,,,,,,,,,,,,,,,,,,,0,0,0,0,0,0,0,0,0,0,0,0,0,0,0,0,,,,,,,,,,,
3176845,0,0.0,183.26,13.94,-0.04,-0.01,1.02,1,-0,-0,1.02,1.07,95,5601,14.7,4.19,15,12.2,0.843,86.2,153,62.4,5,0,0,0,0,0.0,0.0,0.0,0.0,2.26,0,1.0,0,0,0,0,0,0,0,0,0,0,0,0,0,0,0,0,0,0.0,0,0,0.0,0.0,0.0,0.0,0,0,0.0
3176865,0,,,,,,,,,,,,,,,,,,,,,,,,,,,,,,,,,,0,0,0,0,0,0,0,0,0,0,0,0,0,0,0,0,,,,,,,,,,,
3176885,0,0.0,183.26,,-0.02,-0.09,0.99,1,-0,-0,0.99,1.07,93,5953,9.7,3.55,,11.68,0.817,86.2,,66.8,5,,,,,,,,,,,,0,0,0,0,0,0,0,0,0,0,0,0,0,0,0,0,,,,,0.0,,,,,,
3176905,0,,,,,,,,,,,,,,,,,,,,,,,,,,,,,,,,,,0,0,0,0,0,0,0,0,0,0,0,0,0,0,0,0,,,,,,,,,,,
3176925,0,0.0,183.13,,-0.05,-0.1,0.98,1,-0,-0,0.99,1.07,92,6338,5.2,3.5,,10.73,0.818,86.2,,66.8,5,,,,,,,,,,,,0,0,0,0,0,0,0,0,0,0,0,0,0,0,0,0,,,,,0.0,,,,,,
3176945,0,,,,,,,,,,,,,,,,,,,,,,,0,0,0,0,0.0,0.0,0.0,0.0,2.26,,,0,0,0,0,0,0,0,0,0,0,0,0,0,0,0,0,0,,,,,0.0,0.0,0.0,0,0,0.0
3176965,0,0.0,183.26,,-0.05,-0.11,1.0,1,-0,-0,1.01,1.07,94,6657,2.9,2.13,,9.88,0.839,86.2,,66.8,5,,,,,,,,,,,,0,0,0,0,0,0,0,0,0,0,0,0,0,0,0,0,,,,,0.0,,,,,,
3176985,0,,,,,,,,,,,,,,,,,,,,,,,,,,,,,,,,,,0,0,0,0,0,0,0,0,0,0,0,0,0,0,0,0,,,,,,,,,,,
3177005,0,0.0,183.26,,-0.06,-0.09,0.99,2,-0,-0,1.0,1.07,93,6871,2.2,1.4,,9.88,0.839,86.2,,65.5,5,,,,,,,,,,,,0,0,0,0,0,0,0,0,0,0,0,0,0,0,0,0,,,,,0.0,,,,,,
3177025,0,,,,,,,,,,,,,,,,,,,,,,,,,,,,,,,,,,0,0,0,0,0,0,0,0,0,0,0,0,0,0,0,0,,,,,,,,,,,
3177045,0,0.0,183.26,,-0.05,-0.1,0.99,2,-0,-0,0.99,1.07,93,6871,2.2,1.4,,9.1,0.84,86.2,,65.5,5,0,0,0,0,0.0,0.0,0.0,0.0,2.27,,,0,0,0,0,0,0,0,0,0,0,0,0,0,0,0,0,0,,,,0.0,0.0,0.0,0.0,0,0,0.0
3177065,0,,,,,,,,,,,,,,,,,,,,,,,,,,,,,,,,,,0,0,0,0,0,0,0,0,0,0,0,0,0,0,0,0,,,,,,,,,,,
3177085,0,0.0,183.13,,-0.05,-0.07,0.98,1,-0,-0,0.98,1.07,92,6750,1.9,1.4,,8.63,0.869,86.2,,63.8,5,,,,,,,,,,,,0,0,0,0,0,0,0,0,0,0,0,0,0,0,0,0,,,,,0.0,,,,,,
3177105,0,,,,,,,,,,,,,,,,,,,,,,,,,,,,,,,,,,0,0,0,0,0,0,0,0,0,0,0,0,0,0,0,0,,,,,,,,,,,
3177125,0,0.0,183.13,,-0.06,-0.06,1.0,1,-0,0,1.0,1.07,94,6653,1.6,1.41,,8.38,0.943,86.2,,63.8,5,,,,,,,,,,,,0,0,0,0,0,0,0,0,0,0,0,0,0,0,0,0,,,,,0.0,,,,,,
3177145,0,,,,,,,,,,,,,,,,,,,,,,,0,0,0,0,0.0,0.0,0.0,0.0,2.27,,,0,0,0,0,0,0,0,0,0,0,0,0,0,0,0,0,0,,,,,0.0,0.0,0.0,0,0,0.0
3177165,0,0.0,183.13,,-0.05,-0.12,1.02,0,-0,-0,1.03,1.07,96,6423,1.6,1.4,,8.29,1.001,86.2,,63.8,5,,,,,,,,,,,,0,0,0,0,0,0,0,0,0,0,0,0,0,0,0,0,,,,,0.0,,,,,,
3177185,0,,,,,,,,,,,,,,,,,,,,,,,,,,,,,,,,,,0,0,0,0,0,0,0,0,0,0,0,0,0,0,0,0,,,,,,,,,,,
3177205,0,0.0,183.13,,-0.1,0.03,1.06,1,-0,-0,1.06,1.07,99,6203,1.6,1.4,,8.29,1.001,86.2,,60.8,5,,,,,,,,,,,,0,0,0,0,0,0,0,0,0,0,0,0,0,0,0,0,,,,,0.0,,,,,,
3177225,0,,,,,,,,,,,,,,,,,,,,,,,,,,,,,,,,,,0,0,0,0,0,0,0,0,0,0,0,0,0,0,0,0,,,,,,,,,,,
3177245,0,0.0,183.13,,-0.15,0.25,1.02,-1,-0,1,1.06,1.07,99,6203,1.6,1.4,,8.43,1.052,86.2,,60.8,5,0,0,0,0,0.0,0.0,0.0,0.0,2.27,,,0,0,0,0,0,0,0,0,0,0,0,0,0,0,0,0,0,,,,0.0,0.0,0.0,0.0,0,0,0.0
3177265,0,,,,,,,,,,,,,,,,,,,,,,,,,,,,,,,,,,0,0,0,0,0,0,0,0,0,0,0,0,0,0,0,0,,,,,,,,,,,
3177285,0,0.0,183.13,,-0.19,0.44,1.09,-2,-0,2,1.19,1.19,100,5936,1.9,1.65,,8.59,1.104,86.2,,55.5,5,,,,,,,,,,,,0,0,0,0,0,0,0,0,0,0,0,0,0,0,0,0,,,,,0.0,,,,,,
3177305,0,,,,,,,,,,,,,,,,,,,,,,,,,,,,,,,,,,0,0,0,0,0,0,0,0,0,0,0,0,0,0,0,0,,,,,,,,,,,
3177325,0,0.0,183.01,,-0.14,0.25,1.08,-0,-0,1,1.12,1.19,94,5663,2.9,2.1,,9.06,1.139,86.2,,55.5,5,,,,,,,,,,,,0,0,0,0,0,0,0,0,0,0,0,0,0,0,0,0,,,,,0.0,,,,,,
3177345,0,,,,,,,,,,,,,,,,,,,,,,,0,0,0,0,0.0,0.0,0.0,0.0,2.26,,,0,0,0,0,0,0,0,0,0,0,0,0,0,0,0,0,0,,,,,0.0,0.0,0.0,0,0,0.0
3177365,0,0.0,183.01,,-0.14,0.28,1.12,-1,-0,1,1.16,1.19,98,5474,7.5,2.62,,9.8,1.154,86.2,,55.5,5,,,,,,,,,,,,0,0,0,0,0,0,0,0,0,0,0,0,0,0,0,0,,,,,0.0,,,,,,
3177385,0,,,,,,,,,,,,,,,,,,,,,,,,,,,,,,,,,,0,0,0,0,0,0,0,0,0,0,0,0,0,0,0,0,,,,,,,,,,,
3177405,0,0.0,183.01,,-0.15,0.22,1.1,-1,-0,1,1.13,1.19,95,5360,10.6,2.92,,9.8,1.154,86.2,,55.7,5,,,,,,,,,,,,0,0,0,0,0,0,0,0,0,0,0,0,0,0,0,0,,,,,0.0,,,,,,
3177425,0,,,,,,,,,,,,,,,,,,,,,,,,,,,,,,,,,,0,0,0,0,0,0,0,0,0,0,0,0,0,0,0,0,,,,,,,,,,,
3177445,0,0.0,183.01,,-0.14,0.22,1.09,-1,-0,1,1.12,1.19,94,5360,10.6,2.92,,10.72,1.17,86.2,,55.7,5,0,0,0,0,0.0,0.0,0.0,0.0,2.26,,,0,0,0,0,0,0,0,0,0,0,0,0,0,0,0,0,0,,,,0.0,0.0,0.0,0.0,0,0,0.0
3177465,0,,,,,,,,,,,,,,,,,,,,,,,,,,,,,,,,,,0,0,0,0,0,0,0,0,0,0,0,0,0,0,0,0,,,,,,,,,,,
3177485,0,0.0,183.13,,-0.13,0.24,1.04,-1,-0,1,1.07,1.19,90,5302,11.6,3.92,,11.33,1.008,86.2,,56.0,5,,,,,,,,,,,,0,0,0,0,0,0,0,0,0,0,0,0,0,0,0,0,,,,,0.0,,,,,,
3177505,0,,,,,,,,,,,,,,,,,,,,,,,,,,,,,,,,,,0,0,0,0,0,0,0,0,0,0,0,0,0,0,0,0,,,,,,,,,,,
3177525,0,0.0,183.01,,-0.11,0.13,1.01,0,-0,0,1.03,1.19,86,5376,9.8,3.26,,11.57,0.906,86.2,,56.0,5,,,,,,,,,,,,0,0,0,0,0,0,0,0,0,0,0,0,0,0,0,0,,,,,0.0,,,,,,
3177545,0,,,,,,,,,,,,,,,,,,,,,,,0,0,0,0,0.0,0.0,0.0,0.0,2.27,,,0,0,0,0,0,0,0,0,0,0,0,0,0,0,0,0,0,,,,,0.0,0.0,0.0,0,0,0.0
3177565,0,0.0,183.13,,-0.09,0.2,1.08,-0,-0,1,1.1,1.19,92,5462,6.4,3.25,,11.44,0.88,86.2,,56.0,5,,,,,,,,,,,,0,0,0,0,0,0,0,0,0,0,0,0,0,0,0,0,,,,,0.0,,,,,,
3177585,0,,,,,,,,,,,,,,,,,,,,,,,,,,,,,,,,,,0,0,0,0,0,0,0,0,0,0,0,0,0,0,0,0,,,,,,,,,,,
3177605,0,0.0,183.13,,-0.12,0.15,1.06,-1,-0,1,1.07,1.19,90,5537,3.9,3.23,,11.44,0.88,86.2,,59.9,5,,,,,,,,,,,,0,0,0,0,0,0,0,0,0,0,0,0,0,0,0,0,,,,,0.0,,,,,,
3177625,0,,,,,,,,,,,,,,,,,,,,,,,,,,,,,,,,,,0,0,0,0,0,0,0,0,0,0,0,0,0,0,0,0,,,,,,,,,,,
3177645,0,0.0,183.13,,-0.08,0.06,1.03,0,-0,0,1.04,1.19,87,5537,3.9,3.23,,11.17,0.858,86.2,,59.9,5,0,0,0,0,0.0,0.0,0.0,0.0,2.27,,,0,0,0,0,0,0,0,0,0,0,0,0,0,0,0,0,0,,,,0.0,0.0,0.0,0.0,0,0,0.0
3177665,0,,,,,,,,,,,,,,,,,,,,,,,,,,,,,,,,,,0,0,0,0,0,0,0,0,0,0,0,0,0,0,0,0,,,,,,,,,,,
3177685,0,0.0,183.13,,-0.06,-0.1,0.93,0,-0,-0,0.94,1.19,79,5683,2.9,2.41,,10.7,0.864,86.2,,63.4,5,,,,,,,,,,,,0,0,0,0,0,0,0,0,0,0,0,0,0,0,0,0,,,,,0.0,,,,,,
3177705,0,,,,,,,,,,,,,,,,,,,,,,,,,,,,,,,,,,0,0,0,0,0,0,0,0,0,0,0,0,0,0,0,0,,,,,,,,,,,
3177725,0,0.0,183.01,,-0.03,-0.01,1.02,1,-0,-0,1.02,1.19,86,5742,2.3,1.89,,10.44,0.862,86.2,,63.4,5,,,,,,,,,,,,0,0,0,0,0,0,0,0,0,0,0,0,0,0,0,0,,,,,0.0,,,,,,
3177745,0,,,,,,,,,,,,,,,,,,,,,,,0,0,0,0,0.0,0.0,0.0,0.0,2.27,,,0,0,0,0,0,0,0,0,0,0,0,0,0,0,0,0,0,,,,,0.0,0.0,0.0,0,0,0.0
3177765,0,0.0,183.01,,-0.0,-0.19,0.91,1,-0,-1,0.93,1.19,78,5678,2.4,2.03,,10.26,0.858,86.2,,63.4,5,,,,,,,,,,,,0,0,0,0,0,0,0,0,0,0,0,0,0,0,0,0,,,,,0.0,,,,,,
3177785,0,,,,,,,,,,,,,,,,,,,,,,,,,,,,,,,,,,0,0,0,0,0,0,0,0,0,0,0,0,0,0,0,0,,,,,,,,,,,
3177805,0,0.0,183.01,,-0.04,-0.02,0.98,1,-0,-0,0.98,1.19,82,5678,2.4,2.03,,10.26,0.858,86.2,,61.2,5,,,,,,,,,,,,0,0,0,0,0,0,0,0,0,0,0,0,0,0,0,0,,,,,0.0,,,,,,
3177825,0,,,,,,,,,,,,,,,,,,,,,,,,,,,,,,,,,,0,0,0,0,0,0,0,0,0,0,0,0,0,0,0,0,,,,,,,,,,,
3177845,0,0.0,183.01,13.93,-0.04,-0.12,0.93,1,-0,-1,0.94,1.19,79,5599,2.5,2.16,15,10.18,0.894,86.2,153,61.2,5,0,0,0,0,0.0,0.0,0.0,0.0,2.27,0,1.0,0,0,0,0,0,0,0,0,0,0,0,0,0,0,0,0,0,0.0,0,-0,0.0,0.0,0.0,0.0,0,0,0.0
3177865,0,,,,,,,,,,,,,,,,,,,,,,,,,,,,,,,,,,0,0,0,0,0,0,0,0,0,0,0,0,0,0,0,0,,,,,,,,,,,
3177885,0,0.0,183.01,,-0.02,-0.09,0.97,1,-0,-1,0.98,1.19,82,5491,2.5,2.19,,10.16,0.934,86.2,,59.0,5,,,,,,,,,,,,0,0,0,0,0,0,0,0,0,0,0,0,0,0,0,0,,,,,0.0,,,,,,
3177905,0,,,,,,,,,,,,,,,,,,,,,,,,,,,,,,,,,,0,0,0,0,0,0,0,0,0,0,0,0,0,0,0,0,,,,,,,,,,,
3177925,0,0.0,183.01,,-0.03,-0.05,0.99,1,-0,-0,0.99,1.19,83,5391,2.6,2.26,,10.3,0.951,86.2,,59.0,5,,,,,,,,,,,,0,0,0,0,0,0,0,0,0,0,0,0,0,0,0,0,,,,,0.0,,,,,,
3177945,0,,,,,,,,,,,,,,,,,,,,,,,0,0,0,0,0.0,0.0,0.0,0.0,2.26,,,0,0,0,0,0,0,0,0,0,0,0,0,0,0,0,0,0,,,,,0.0,0.0,0.0,0,0,0.0
3177965,0,0.0,183.01,,-0.03,-0.08,0.98,1,-0,-0,0.98,1.19,82,5264,5.2,2.53,,10.3,0.951,86.2,,59.0,5,,,,,,,,,,,,0,0,0,0,0,0,0,0,0,0,0,0,0,0,0,0,,,,,0.0,,,,,,
3177985,0,,,,,,,,,,,,,,,,,,,,,,,,,,,,,,,,,,0,0,0,0,0,0,0,0,0,0,0,0,0,0,0,0,,,,,,,,,,,
3178005,0,0.0,183.01,,-0.03,-0.12,0.97,1,-0,-0,0.97,1.19,82,5264,5.2,2.53,,10.64,0.959,86.2,,58.4,5,,,,,,,,,,,,0,0,0,0,0,0,0,0,0,0,0,0,0,0,0,0,,,,,0.0,,,,,,
3178025,0,,,,,,,,,,,,,,,,,,,,,,,,,,,,,,,,,,0,0,0,0,0,0,0,0,0,0,0,0,0,0,0,0,,,,,,,,,,,
3178045,0,0.0,183.01,,-0.04,-0.12,0.95,1,-0,-0,0.96,1.19,81,5195,7.6,2.95,,11.18,0.956,86.2,,58.4,5,0,0,0,0,0.0,0.0,0.0,0.0,2.27,,,0,0,0,0,0,0,0,0,0,0,0,0,0,0,0,0,0,,,,0.0,0.0,0.0,0.0,0,0,0.0
3178065,0,,,,,,,,,,,,,,,,,,,,,,,,,,,,,,,,,,0,0,0,0,0,0,0,0,0,0,0,0,0,0,0,0,,,,,,,,,,,
3178085,0,0.0,183.01,,-0.06,-0.08,0.95,1,-0,-0,0.96,1.19,80,5161,8.9,3.26,,11.52,0.953,86.2,,58.4,5,,,,,,,,,,,,0,0,0,0,0,0,0,0,0,0,0,0,0,0,0,0,,,,,0.0,,,,,,
3178105,0,,,,,,,,,,,,,,,,,,,,,,,,,,,,,,,,,,0,0,0,0,0,0,0,0,0,0,0,0,0,0,0,0,,,,,,,,,,,
3178125,0,0.0,183.01,,-0.05,-0.09,0.96,0,-0,-0,0.96,1.19,81,5161,10.9,3.33,,11.96,0.941,86.2,,57.6,5,,,,,,,,,,,,0,0,0,0,0,0,0,0,0,0,0,0,0,0,0,0,,,,,0.0,,,,,,
3178145,0,,,,,,,,,,,,,,,,,,,,,,,0,0,0,0,0.0,0.0,0.0,0.0,2.27,,,0,0,0,0,0,0,0,0,0,0,0,0,0,0,0,0,0,,,,,0.0,0.0,0.0,0,0,0.0
3178165,0,0.0,183.01,,-0.05,-0.13,0.96,0,-0,-0,0.97,1.19,81,5214,13.1,3.51,,11.96,0.941,86.2,,57.6,5,,,,,,,,,,,,0,0,0,0,0,0,0,0,0,0,0,0,0,0,0,0,,,,,0.0,,,,,,
3178185,0,,,,,,,,,,,,,,,,,,,,,,,,,,,,,,,,,,0,0,0,0,0,0,0,0,0,0,0,0,0,0,0,0,,,,,,,,,,,
3178205,0,0.0,183.01,,-0.05,-0.15,0.97,0,-0,-0,0.98,1.19,82,5214,13.1,3.51,,12.28,0.918,86.2,,60.4,5,,,,,,,,,,,,0,0,0,0,0,0,0,0,0,0,0,0,0,0,0,0,,,,,0.0,,,,,,
3178225,0,,,,,,,,,,,,,,,,,,,,,,,,,,,,,,,,,,0,0,0,0,0,0,0,0,0,0,0,0,0,0,0,0,,,,,,,,,,,
3178245,0,0.0,183.01,,-0.04,-0.19,0.96,1,-0,-0,0.98,1.19,82,5326,13.0,3.34,,12.45,0.902,86.2,,60.4,5,0,0,0,0,0.0,0.0,0.0,0.0,2.26,,,0,0,0,0,0,0,0,0,0,0,0,0,0,0,0,0,0,,,,0.0,0.0,0.0,0.0,0,0,0.0
3178265,0,,,,,,,,,,,,,,,,,,,,,,,,,,,,,,,,,,0,0,0,0,0,0,0,0,0,0,0,0,0,0,0,0,,,,,,,,,,,
3178285,0,0.0,183.13,,-0.04,-0.06,1.01,1,-0,-0,1.02,1.19,85,5396,10.8,3.28,,12.36,0.906,86.2,,60.4,5,,,,,,,,,,,,0,0,0,0,0,0,0,0,0,0,0,0,0,0,0,0,,,,,0.0,,,,,,
3178305,0,,,,,,,,,,,,,,,,,,,,,,,,,,,,,,,,,,0,0,0,0,0,0,0,0,0,0,0,0,0,0,0,0,,,,,,,,,,,
3178325,0,0.0,183.01,,-0.06,-0.1,0.94,-0,-0,0,0.95,1.19,79,5552,7.2,3.22,,11.96,0.925,86.2,,61.2,5,,,,,,,,,,,,0,0,0,0,0,0,0,0,0,0,0,0,0,0,0,0,,,,,0.0,,,,,,
3178345,0,,,,,,,,,,,,,,,,,,,,,,,0,0,0,0,0.0,0.0,0.0,0.0,2.26,,,0,0,0,0,0,0,0,0,0,0,0,0,0,0,0,0,0,,,,,0.0,0.0,0.0,0,0,0.0
3178365,0,0.0,183.13,,-0.04,0.02,1.04,1,-0,-0,1.04,1.19,87,5692,5.2,3.24,,11.96,0.925,86.2,,61.2,5,,,,,,,,,,,,0,0,0,0,0,0,0,0,0,0,0,0,0,0,0,0,,,,,0.0,,,,,,
3178385,0,,,,,,,,,,,,,,,,,,,,,,,,,,,,,,,,,,0,0,0,0,0,0,0,0,0,0,0,0,0,0,0,0,,,,,,,,,,,
3178405,0,0.0,183.01,,-0.04,-0.15,0.94,1,-0,-1,0.95,1.19,80,5692,5.2,3.24,,11.57,0.959,86.2,,63.1,5,,,,,,,,,,,,0,0,0,0,0,0,0,0,0,0,0,0,0,0,0,0,,,,,0.0,,,,,,
3178425,0,,,,,,,,,,,,,,,,,,,,,,,,,,,,,,,,,,0,0,0,0,0,0,0,0,0,0,0,0,0,0,0,0,,,,,,,,,,,
3178445,0,0.0,183.01,,-0.1,-0.19,0.88,-1,-0,0,0.9,1.19,76,5813,3.7,3.17,,11.0,0.954,86.2,,63.1,5,0,0,0,0,0.0,0.0,0.0,0.0,2.27,,,0,0,0,0,0,0,0,0,0,0,0,0,0,0,0,0,0,,,,0.0,0.0,0.0,0.0,0,0,0.0
3178465,0,,,,,,,,,,,,,,,,,,,,,,,,,,,,,,,,,,0,0,0,0,0,0,0,0,0,0,0,0,0,0,0,0,,,,,,,,,,,
3178485,0,0.0,183.01,,-0.13,-0.24,0.82,-1,-0,1,0.87,1.19,73,6006,3.2,2.55,,10.44,0.925,86.2,,63.1,5,,,,,,,,,,,,0,0,0,0,0,0,0,0,0,0,0,0,0,0,0,0,,,,,0.0,,,,,,
3178505,0,,,,,,,,,,,,,,,,,,,,,,,,,,,,,,,,,,0,0,0,0,0,0,0,0,0,0,0,0,0,0,0,0,,,,,,,,,,,
3178525,0,0.0,183.01,,-0.13,-0.29,0.76,-1,-0,0,0.82,1.19,69,6152,2.9,2.5,,10.01,0.909,86.2,,64.1,5,,,,,,,,,,,,0,0,0,0,0,0,0,0,0,0,0,0,0,0,0,0,,,,,0.0,,,,,,
3178545,0,,,,,,,,,,,,,,,,,,,,,,,0,0,0,0,0.0,0.0,0.0,0.0,2.27,,,0,0,0,0,0,0,0,0,0,0,0,0,0,0,0,0,0,,,,,0.0,0.0,0.0,0,0,0.0
3178565,0,0.0,183.01,,-0.11,-0.38,0.76,-1,-0,-0,0.86,1.19,72,6203,3.0,2.15,,10.01,0.909,86.2,,64.1,5,,,,,,,,,,,,0,0,0,0,0,0,0,0,0,0,0,0,0,0,0,0,,,,,0.0,,,,,,
3178585,0,,,,,,,,,,,,,,,,,,,,,,,,,,,,,,,,,,0,0,0,0,0,0,0,0,0,0,0,0,0,0,0,0,,,,,,,,,,,
3178605,0,0.0,183.01,,-0.09,-0.36,0.89,0,-0,-0,0.97,1.19,81,6203,3.0,2.15,,9.76,0.907,86.2,,62.9,5,,,,,,,,,,,,0,0,0,0,0,0,0,0,0,0,0,0,0,0,0,0,,,,,0.0,,,,,,
3178625,0,,,,,,,,,,,,,,,,,,,,,,,,,,,,,,,,,,0,0,0,0,0,0,0,0,0,0,0,0,0,0,0,0,,,,,,,,,,,
3178645,0,0.0,183.01,,-0.12,-0.17,0.96,-0,-0,0,0.98,1.19,83,6181,3.0,2.17,,9.6,0.946,86.2,,62.9,5,0,0,0,0,0.0,0.0,0.0,0.0,2.27,,,0,0,0,0,0,0,0,0,0,0,0,0,0,0,0,0,0,,,,0.0,0.0,0.0,0.0,0,0,0.0
3178665,0,,,,,,,,,,,,,,,,,,,,,,,,,,,,,,,,,,0,0,0,0,0,0,0,0,0,0,0,0,0,0,0,0,,,,,,,,,,,
3178685,0,0.0,183.01,,-0.13,-0.13,0.91,-1,-0,0,0.93,1.19,78,6143,3.3,2.13,,9.54,0.968,86.2,,62.9,5,,,,,,,,,,,,0,0,0,0,0,0,0,0,0,0,0,0,0,0,0,0,,,,,0.0,,,,,,
3178705,0,,,,,,,,,,,,,,,,,,,,,,,,,,,,,,,,,,0,0,0,0,0,0,0,0,0,0,0,0,0,0,0,0,,,,,,,,,,,
3178725,0,0.0,183.01,,-0.11,-0.18,0.79,-1,-0,-0,0.82,1.19,69,6125,3.5,2.33,,9.54,0.968,86.2,,61.6,5,,,,,,,,,,,,0,0,0,0,0,0,0,0,0,0,0,0,0,0,0,0,,,,,0.0,,,,,,
3178745,0,,,,,,,,,,,,,,,,,,,,,,,0,0,0,0,0.0,0.0,0.0,0.0,2.27,,,0,0,0,0,0,0,0,0,0,0,0,0,0,0,0,0,0,,,,,0.0,0.0,0.0,0,0,0.0
3178765,0,0.0,183.01,,-0.05,-0.33,0.77,-0,-0,-1,0.83,1.19,70,6125,3.5,2.33,,9.45,0.975,86.2,,61.6,5,,,,,,,,,,,,0,0,0,0,0,0,0,0,0,0,0,0,0,0,0,0,,,,,0.0,,,,,,
3178785,0,,,,,,,,,,,,,,,,,,,,,,,,,,,,,,,,,,0,0,0,0,0,0,0,0,0,0,0,0,0,0,0,0,,,,,,,,,,,
3178805,0,0.0,183.01,,0.03,-0.47,0.82,1,-0,-1,0.95,1.19,79,6090,3.5,2.28,,9.37,0.977,86.2,,62.1,5,,,,,,,,,,,,0,0,0,0,0,0,0,0,0,0,0,0,0,0,0,0,,,,,0.0,,,,,,
3178825,0,,,,,,,,,,,,,,,,,,,,,,,,,,,,,,,,,,0,0,0,0,0,0,0,0,0,0,0,0,0,0,0,0,,,,,,,,,,,
3178845,0,0.0,182.88,13.97,0.07,-0.61,0.91,3,-0,-2,1.1,1.19,92,6023,3.5,2.29,15,9.33,0.98,86.2,153,62.1,5,0,0,0,0,0.0,0.0,0.0,0.0,2.27,0,1.0,0,0,0,0,0,0,0,0,0,0,0,0,0,0,0,0,0,0.0,0,-0,0.0,0.0,0.0,0.0,0,0,0.0
3178865,0,,,,,,,,,,,,,,,,,,,,,,,,,,,,,,,,,,0,0,0,0,0,0,0,0,0,0,0,0,0,0,0,0,,,,,,,,,,,
3178885,0,0.0,183.01,,0.1,-0.69,1.02,4,-0,-2,1.23,1.23,100,6014,3.3,2.31,,9.39,0.979,86.2,,62.1,5,,,,,,,,,,,,0,0,0,0,0,0,0,0,0,0,0,0,0,0,0,0,,,,,0.0,,,,,,
3178905,0,,,,,,,,,,,,,,,,,,,,,,,,,,,,,,,,,,0,0,0,0,0,0,0,0,0,0,0,0,0,0,0,0,,,,,,,,,,,
3178925,0,0.0,182.88,,0.16,-0.78,1.05,5,-0,-2,1.32,1.32,100,5921,3.0,2.29,,9.39,0.979,86.2,,60.7,5,,,,,,,,,,,,0,0,0,0,0,0,0,0,0,0,0,0,0,0,0,0,,,,,0.0,,,,,,
3178945,0,,,,,,,,,,,,,,,,,,,,,,,0,0,0,0,0.0,0.0,0.0,0.0,2.27,,,0,0,0,0,0,0,0,0,0,0,0,0,0,0,0,0,0,,,,,0.0,0.0,0.0,0,0,0.0
3178965,0,0.0,183.01,,0.21,-0.89,0.99,6,-0,-3,1.35,1.35,100,5921,3.0,2.29,,9.41,0.982,86.2,,60.7,5,,,,,,,,,,,,0,0,0,0,0,0,0,0,0,0,0,0,0,0,0,0,,,,,0.0,,,,,,
3178985,0,,,,,,,,,,,,,,,,,,,,,,,,,,,,,,,,,,0,0,0,0,0,0,0,0,0,0,0,0,0,0,0,0,,,,,,,,,,,
3179005,0,0.0,183.01,,0.17,-0.91,0.85,5,-0,-3,1.25,1.35,93,5854,3.0,2.25,,9.49,0.981,86.2,,60.6,5,,,,,,,,,,,,0,0,0,0,0,0,0,0,0,0,0,0,0,0,0,0,,,,,0.0,,,,,,
3179025,0,,,,,,,,,,,,,,,,,,,,,,,,,,,,,,,,,,0,0,0,0,0,0,0,0,0,0,0,0,0,0,0,0,,,,,,,,,,,
3179045,0,0.0,182.88,,0.09,-0.59,0.93,2,-0,-2,1.1,1.35,82,5771,3.0,2.16,,9.7,0.974,86.2,,60.6,5,0,0,0,0,0.0,0.0,0.0,0.0,2.28,,,0,0,0,0,0,0,0,0,0,0,0,0,0,0,0,0,0,,,,0.0,0.0,0.0,0.0,0,0,0.0
3179065,0,,,,,,,,,,,,,,,,,,,,,,,,,,,,,,,,,,0,0,0,0,0,0,0,0,0,0,0,0,0,0,0,0,,,,,,,,,,,
3179085,0,0.0,182.88,,0.12,-0.59,0.97,4,-0,-2,1.14,1.35,85,5671,3.3,2.32,,9.89,0.973,86.2,,60.6,5,,,,,,,,,,,,0,0,0,0,0,0,0,0,0,0,0,0,0,0,0,0,,,,,0.0,,,,,,
3179105,0,,,,,,,,,,,,,,,,,,,,,,,,,,,,,,,,,,0,0,0,0,0,0,0,0,0,0,0,0,0,0,0,0,,,,,,,,,,,
3179125,0,0.0,182.88,,0.05,-0.51,0.99,3,-0,-2,1.11,1.35,83,5585,3.5,2.18,,9.89,0.973,86.2,,60.4,5,,,,,,,,,,,,0,0,0,0,0,0,0,0,0,0,0,0,0,0,0,0,,,,,0.0,,,,,,
3179145,0,,,,,,,,,,,,,,,,,,,,,,,0,0,0,0,0.0,0.0,0.0,0.0,2.26,,,0,0,0,0,0,0,0,0,0,0,0,0,0,0,0,0,0,,,,,0.0,0.0,0.0,0,0,0.0
3179165,0,0.0,182.88,,0.07,-0.45,0.98,3,-0,-1,1.08,1.35,80,5585,3.5,2.18,,9.97,0.961,86.2,,60.4,5,,,,,,,,,,,,0,0,0,0,0,0,0,0,0,0,0,0,0,0,0,0,,,,,0.0,,,,,,
3179185,0,,,,,,,,,,,,,,,,,,,,,,,,,,,,,,,,,,0,0,0,0,0,0,0,0,0,0,0,0,0,0,0,0,,,,,,,,,,,
3179205,0,0.0,182.88,,0.06,-0.38,1.0,2,-0,-1,1.07,1.35,80,5473,3.5,2.33,,10.14,0.95,86.2,,59.2,5,,,,,,,,,,,,0,0,0,0,0,0,0,0,0,0,0,0,0,0,0,0,,,,,0.0,,,,,,
3179225,0,,,,,,,,,,,,,,,,,,,,,,,,,,,,,,,,,,0,0,0,0,0,0,0,0,0,0,0,0,0,0,0,0,,,,,,,,,,,
3179245,0,0.0,182.88,,0.05,-0.35,1.01,2,-0,-1,1.07,1.35,79,5400,3.5,2.41,,10.28,0.939,86.2,,59.2,5,0,0,0,0,0.0,0.0,0.0,0.0,2.26,,,0,0,0,0,0,0,0,0,0,0,0,0,0,0,0,0,0,,,,0.0,0.0,0.0,0.0,0,0,0.0
3179265,0,,,,,,,,,,,,,,,,,,,,,,,,,,,,,,,,,,0,0,0,0,0,0,0,0,0,0,0,0,0,0,0,0,,,,,,,,,,,
3179285,0,0.0,182.88,,0.04,-0.35,1.0,2,-0,-1,1.06,1.35,79,5279,3.5,2.46,,10.48,0.942,86.2,,59.2,5,,,,,,,,,,,,0,0,0,0,0,0,0,0,0,0,0,0,0,0,0,0,,,,,0.0,,,,,,
3179305,0,,,,,,,,,,,,,,,,,,,,,,,,,,,,,,,,,,0,0,0,0,0,0,0,0,0,0,0,0,0,0,0,0,,,,,,,,,,,
3179325,0,0.0,182.88,,0.04,-0.36,0.97,2,-0,-1,1.03,1.35,77,5138,3.7,2.58,,10.48,0.942,86.2,,57.8,5,,,,,,,,,,,,0,0,0,0,0,0,0,0,0,0,0,0,0,0,0,0,,,,,0.0,,,,,,
3179345,0,,,,,,,,,,,,,,,,,,,,,,,0,0,0,0,0.0,0.0,0.0,0.0,2.27,,,0,0,0,0,0,0,0,0,0,0,0,0,0,0,0,0,0,,,,,0.0,0.0,0.0,0,0,0.0
3179365,0,0.0,182.88,,0.01,-0.32,0.95,1,-0,-1,1.0,1.35,75,5138,3.7,2.58,,10.65,0.947,86.2,,57.8,5,,,,,,,,,,,,0,0,0,0,0,0,0,0,0,0,0,0,0,0,0,0,,,,,0.0,,,,,,
3179385,0,,,,,,,,,,,,,,,,,,,,,,,,,,,,,,,,,,0,0,0,0,0,0,0,0,0,0,0,0,0,0,0,0,,,,,,,,,,,
3179405,0,0.0,182.88,,-0.0,-0.2,0.99,1,-0,-1,1.01,1.35,75,5039,4.0,2.58,,10.77,0.954,86.2,,57.2,5,,,,,,,,,,,,0,0,0,0,0,0,0,0,0,0,0,0,0,0,0,0,,,,,0.0,,,,,,
3179425,0,,,,,,,,,,,,,,,,,,,,,,,,,,,,,,,,,,0,0,0,0,0,0,0,0,0,0,0,0,0,0,0,0,,,,,,,,,,,
3179445,0,0.0,182.88,,0.01,-0.27,0.97,1,-0,-1,1.01,1.35,75,4956,4.1,3.11,,10.96,0.96,86.2,,57.2,5,0,0,0,0,0.0,0.0,0.0,0.0,2.28,,,0,0,0,0,0,0,0,0,0,0,0,0,0,0,0,0,0,,,,0.0,0.0,0.0,0.0,0,0,0.0
3179465,0,,,,,,,,,,,,,,,,,,,,,,,,,,,,,,,,,,0,0,0,0,0,0,0,0,0,0,0,0,0,0,0,0,,,,,,,,,,,
3179485,0,0.0,182.88,,-0.02,-0.21,0.99,1,-0,-0,1.02,1.35,75,4934,4.1,3.18,,11.05,0.958,86.2,,57.2,5,,,,,,,,,,,,0,0,0,0,0,0,0,0,0,0,0,0,0,0,0,0,,,,,0.0,,,,,,
3179505,0,,,,,,,,,,,,,,,,,,,,,,,,,,,,,,,,,,0,0,0,0,0,0,0,0,0,0,0,0,0,0,0,0,,,,,,,,,,,
3179525,0,0.0,182.88,,-0.02,-0.2,1.0,1,-0,-1,1.02,1.35,76,4916,4.1,3.21,,11.05,0.958,86.2,,56.9,5,,,,,,,,,,,,0,0,0,0,0,0,0,0,0,0,0,0,0,0,0,0,,,,,0.0,,,,,,
3179545,0,,,,,,,,,,,,,,,,,,,,,,,0,0,0,0,0.0,0.0,0.0,0.0,2.28,,,0,0,0,0,0,0,0,0,0,0,0,0,0,0,0,0,0,,,,,0.0,0.0,0.0,0,0,0.0
3179565,0,0.0,182.88,,-0.03,-0.14,0.98,0,-0,-0,0.99,1.35,74,4916,4.1,3.21,,11.17,0.937,86.2,,56.9,5,,,,,,,,,,,,0,0,0,0,0,0,0,0,0,0,0,0,0,0,0,0,,,,,0.0,,,,,,
3179585,0,,,,,,,,,,,,,,,,,,,,,,,,,,,,,,,,,,0,0,0,0,0,0,0,0,0,0,0,0,0,0,0,0,,,,,,,,,,,
3179605,0,0.0,183.01,,-0.02,-0.17,0.98,1,-0,-0,0.99,1.35,74,4841,4.3,3.2,,11.24,0.909,86.2,,56.6,5,,,,,,,,,,,,0,0,0,0,0,0,0,0,0,0,0,0,0,0,0,0,,,,,0.0,,,,,,
3179625,0,,,,,,,,,,,,,,,,,,,,,,,,,,,,,,,,,,0,0,0,0,0,0,0,0,0,0,0,0,0,0,0,0,,,,,,,,,,,
3179645,0,0.0,183.01,,-0.03,-0.06,0.99,0,-0,0,0.99,1.35,74,4822,4.6,3.17,,11.3,0.896,86.2,,56.6,5,0,0,0,0,0.0,0.0,0.0,0.0,2.27,,,0,0,0,0,0,0,0,0,0,0,0,0,0,0,0,0,0,,,,0.0,0.0,0.0,0.0,0,0,0.0
3179665,0,,,,,,,,,,,,,,,,,,,,,,,,,,,,,,,,,,0,0,0,0,0,0,0,0,0,0,0,0,0,0,0,0,,,,,,,,,,,
3179685,0,0.0,183.01,,-0.04,-0.17,0.93,0,-0,0,0.94,1.35,70,4804,4.7,3.18,,11.41,0.874,86.2,,56.6,5,,,,,,,,,,,,0,0,0,0,0,0,0,0,0,0,0,0,0,0,0,0,,,,,0.0,,,,,,
3179705,0,,,,,,,,,,,,,,,,,,,,,,,,,,,,,,,,,,0,0,0,0,0,0,0,0,0,0,0,0,0,0,0,0,,,,,,,,,,,
3179725,0,0.0,182.88,,-0.04,-0.0,1.0,-1,-0,0,1.0,1.35,75,4800,4.7,3.18,,11.41,0.874,86.2,,56.7,5,,,,,,,,,,,,0,0,0,0,0,0,0,0,0,0,0,0,0,0,0,0,,,,,0.0,,,,,,
3179745,0,,,,,,,,,,,,,,,,,,,,,,,0,0,0,0,0.0,0.0,0.0,0.0,2.26,,,0,0,0,0,0,0,0,0,0,0,0,0,0,0,0,0,0,,,,,0.0,0.0,0.0,0,0,0.0
3179765,0,0.0,182.88,,-0.03,-0.08,0.94,-1,-0,0,0.95,1.35,70,4800,4.7,3.18,,11.45,0.861,86.2,,56.7,5,,,,,,,,,,,,0,0,0,0,0,0,0,0,0,0,0,0,0,0,0,0,,,,,0.0,,,,,,
3179785,0,,,,,,,,,,,,,,,,,,,,,,,,,,,,,,,,,,0,0,0,0,0,0,0,0,0,0,0,0,0,0,0,0,,,,,,,,,,,
3179805,0,0.0,182.88,,-0.02,0.01,1.0,-0,-0,0,1.0,1.35,74,4791,4.3,3.19,,11.45,0.854,86.2,,56.7,5,,,,,,,,,,,,0,0,0,0,0,0,0,0,0,0,0,0,0,0,0,0,,,,,0.0,,,,,,
3179825,0,,,,,,,,,,,,,,,,,,,,,,,,,,,,,,,,,,0,0,0,0,0,0,0,0,0,0,0,0,0,0,0,0,,,,,,,,,,,
3179845,0,0.0,182.88,13.95,-0.03,0.06,0.99,-1,-0,1,0.99,1.35,73,4791,4.1,3.25,15,11.48,0.857,86.2,153,56.3,5,0,0,0,0,0.0,0.0,0.0,0.0,2.27,0,1.0,0,0,0,0,0,0,0,0,0,0,0,0,0,0,0,0,0,0.0,0,-0,0.0,0.0,0.0,0.0,0,0,0.0
3179865,0,,,,,,,,,,,,,,,,,,,,,,,,,,,,,,,,,,0,0,0,0,0,0,0,0,0,0,0,0,0,0,0,0,,,,,,,,,,,
3179885,0,0.0,183.01,,-0.01,-0.05,0.92,-0,-0,0,0.92,1.35,69,4709,4.0,3.24,,11.48,0.857,86.2,,56.3,5,,,,,,,,,,,,0,0,0,0,0,0,0,0,0,0,0,0,0,0,0,0,,,,,0.0,,,,,,
3179905,0,,,,,,,,,,,,,,,,,,,,,,,,,,,,,,,,,,0,0,0,0,0,0,0,0,0,0,0,0,0,0,0,0,,,,,,,,,,,
3179925,0,0.0,182.88,,0.01,0.08,1.02,-0,-0,0,1.02,1.35,76,4709,4.0,3.24,,11.48,0.856,86.2,,55.5,5,,,,,,,,,,,,0,0,0,0,0,0,0,0,0,0,0,0,0,0,0,0,,,,,0.0,,,,,,
3179945,0,,,,,,,,,,,,,,,,,,,,,,,0,0,0,0,0.0,0.0,0.0,0.0,2.28,,,0,0,0,0,0,0,0,0,0,0,0,0,0,0,0,0,0,,,,,0.0,0.0,0.0,0,0,0.0
3179965,0,0.0,183.01,,-0.02,0.08,1.02,-1,-0,1,1.02,1.35,76,4700,4.1,3.24,,11.52,0.853,86.2,,55.5,5,,,,,,,,,,,,0,0,0,0,0,0,0,0,0,0,0,0,0,0,0,0,,,,,0.0,,,,,,
3179985,0,,,,,,,,,,,,,,,,,,,,,,,,,,,,,,,,,,0,0,0,0,0,0,0,0,0,0,0,0,0,0,0,0,,,,,,,,,,,
3180005,0,0.0,183.01,,-0.04,-0.07,0.94,-1,-0,0,0.94,1.35,70,4702,4.3,3.24,,11.54,0.869,86.2,,55.5,5,,,,,,,,,,,,0,0,0,0,0,0,0,0,0,0,0,0,0,0,0,0,,,,,0.0,,,,,,
3180025,0,,,,,,,,,,,,,,,,,,,,,,,,,,,,,,,,,,0,0,0,0,0,0,0,0,0,0,0,0,0,0,0,0,,,,,,,,,,,
3180045,0,0.0,182.88,,-0.01,-0.06,0.94,0,-0,-0,0.94,1.35,70,4687,4.5,3.23,,11.57,0.866,86.2,,55.3,5,0,0,0,0,0.0,0.0,0.0,0.0,2.27,,,0,0,0,0,0,0,0,0,0,0,0,0,0,0,0,0,0,,,,0.0,0.0,0.0,0.0,0,0,0.0
3180065,0,,,,,,,,,,,,,,,,,,,,,,,,,,,,,,,,,,0,0,0,0,0,0,0,0,0,0,0,0,0,0,0,0,,,,,,,,,,,
3180085,0,0.0,182.88,,-0.01,0.09,1.04,0,-0,0,1.04,1.35,77,4679,4.6,3.22,,11.57,0.866,86.2,,55.3,5,,,,,,,,,,,,0,0,0,0,0,0,0,0,0,0,0,0,0,0,0,0,,,,,0.0,,,,,,
3180105,0,,,,,,,,,,,,,,,,,,,,,,,,,,,,,,,,,,0,0,0,0,0,0,0,0,0,0,0,0,0,0,0,0,,,,,,,,,,,
3180125,0,0.0,182.88,,-0.04,0.13,1.03,-1,-0,1,1.04,1.35,77,4679,4.6,3.22,,11.53,0.859,86.2,,55.5,5,,,,,,,,,,,,0,0,0,0,0,0,0,0,0,0,0,0,0,0,0,0,,,,,0.0,,,,,,
3180145,0,,,,,,,,,,,,,,,,,,,,,,,0,0,0,0,0.0,0.0,0.0,0.0,2.27,,,0,0,0,0,0,0,0,0,0,0,0,0,0,0,0,0,0,,,,,0.0,0.0,0.0,0,0,0.0
3180165,0,0.0,183.01,,-0.04,0.03,0.95,-1,-0,0,0.95,1.35,70,4690,4.6,3.25,,11.54,0.859,86.2,,55.5,5,,,,,,,,,,,,0,0,0,0,0,0,0,0,0,0,0,0,0,0,0,0,,,,,0.0,,,,,,
3180185,0,,,,,,,,,,,,,,,,,,,,,,,,,,,,,,,,,,0,0,0,0,0,0,0,0,0,0,0,0,0,0,0,0,,,,,,,,,,,
3180205,0,0.0,183.01,,-0.02,0.07,0.99,0,-0,-0,0.99,1.35,74,4725,4.5,3.24,,11.61,0.861,86.2,,55.5,5,,,,,,,,,,,,0,0,0,0,0,0,0,0,0,0,0,0,0,0,0,0,,,,,0.0,,,,,,
3180225,0,,,,,,,,,,,,,,,,,,,,,,,,,,,,,,,,,,0,0,0,0,0,0,0,0,0,0,0,0,0,0,0,0,,,,,,,,,,,
3180245,0,0.0,183.01,,-0.04,0.16,1.04,-0,-0,0,1.05,1.35,78,4697,4.5,3.24,,11.58,0.856,86.2,,55.7,5,0,0,0,0,0.0,0.0,0.0,0.0,2.27,,,0,0,0,0,0,0,0,0,0,0,0,0,0,0,0,0,0,,,,0.0,0.0,0.0,0.0,0,0,0.0
3180265,0,,,,,,,,,,,,,,,,,,,,,,,,,,,,,,,,,,0,0,0,0,0,0,0,0,0,0,0,0,0,0,0,0,,,,,,,,,,,
3180285,0,0.0,183.01,,-0.04,0.03,0.97,-0,-0,0,0.97,1.35,72,4730,4.2,3.26,,11.58,0.856,86.2,,55.7,5,,,,,,,,,,,,0,0,0,0,0,0,0,0,0,0,0,0,0,0,0,0,,,,,0.0,,,,,,
3180305,0,,,,,,,,,,,,,,,,,,,,,,,,,,,,,,,,,,0,0,0,0,0,0,0,0,0,0,0,0,0,0,0,0,,,,,,,,,,,
3180325,0,0.0,183.01,,-0.02,-0.01,0.98,0,-0,0,0.98,1.35,73,4730,4.2,3.26,,11.58,0.854,86.2,,56.9,5,,,,,,,,,,,,0,0,0,0,0,0,0,0,0,0,0,0,0,0,0,0,,,,,0.0,,,,,,
3180345,0,,,,,,,,,,,,,,,,,,,,,,,0,0,0,0,0.0,0.0,0.0,0.0,2.28,,,0,0,0,0,0,0,0,0,0,0,0,0,0,0,0,0,0,,,,,0.0,0.0,0.0,0,0,0.0
3180365,0,0.0,183.01,,-0.03,0.1,1.04,-1,-0,1,1.05,1.35,78,4751,4.0,3.25,,11.57,0.85,86.2,,56.9,5,,,,,,,,,,,,0,0,0,0,0,0,0,0,0,0,0,0,0,0,0,0,,,,,0.0,,,,,,
3180385,0,,,,,,,,,,,,,,,,,,,,,,,,,,,,,,,,,,0,0,0,0,0,0,0,0,0,0,0,0,0,0,0,0,,,,,,,,,,,
3180405,0,0.0,183.01,,-0.04,-0.02,0.99,-0,-0,0,0.99,1.35,73,4775,4.0,3.17,,11.57,0.846,86.2,,56.9,5,,,,,,,,,,,,0,0,0,0,0,0,0,0,0,0,0,0,0,0,0,0,,,,,0.0,,,,,,
3180425,0,,,,,,,,,,,,,,,,,,,,,,,,,,,,,,,,,,0,0,0,0,0,0,0,0,0,0,0,0,0,0,0,0,,,,,,,,,,,
3180445,0,0.0,183.01,,-0.03,0.1,1.07,-1,-0,1,1.07,1.35,80,4812,3.9,3.18,,11.58,0.843,86.2,,57.4,5,0,0,0,0,0.0,0.0,0.0,0.0,2.28,,,0,0,0,0,0,0,0,0,0,0,0,0,0,0,0,0,0,,,,0.0,0.0,0.0,0.0,0,0,0.0
3180465,0,,,,,,,,,,,,,,,,,,,,,,,,,,,,,,,,,,0,0,0,0,0,0,0,0,0,0,0,0,0,0,0,0,,,,,,,,,,,
3180485,0,0.0,183.01,,-0.05,0.03,1.01,-1,-0,1,1.01,1.35,75,4810,4.2,3.18,,11.58,0.843,86.2,,57.4,5,,,,,,,,,,,,0,0,0,0,0,0,0,0,0,0,0,0,0,0,0,0,,,,,0.0,,,,,,
3180505,0,,,,,,,,,,,,,,,,,,,,,,,,,,,,,,,,,,0,0,0,0,0,0,0,0,0,0,0,0,0,0,0,0,,,,,,,,,,,
3180525,0,0.0,182.88,,-0.03,0.04,1.04,-0,-0,0,1.04,1.35,77,4810,4.2,3.18,,11.54,0.84,86.2,,57.2,5,,,,,,,,,,,,0,0,0,0,0,0,0,0,0,0,0,0,0,0,0,0,,,,,0.0,,,,,,
3180545,0,,,,,,,,,,,,,,,,,,,,,,,0,0,0,0,0.0,0.0,0.0,0.0,2.26,,,0,0,0,0,0,0,0,0,0,0,0,0,0,0,0,0,0,,,,,0.0,0.0,0.0,0,0,0.0
3180565,0,0.0,183.01,,-0.04,0.07,1.04,-1,-0,1,1.04,1.35,77,4840,4.4,3.18,,11.58,0.84,86.2,,57.2,5,,,,,,,,,,,,0,0,0,0,0,0,0,0,0,0,0,0,0,0,0,0,,,,,0.0,,,,,,
3180585,0,,,,,,,,,,,,,,,,,,,,,,,,,,,,,,,,,,0,0,0,0,0,0,0,0,0,0,0,0,0,0,0,0,,,,,,,,,,,
3180605,0,0.0,183.01,,-0.03,0.03,1.03,0,-0,0,1.03,1.35,76,4845,4.6,3.17,,11.53,0.836,86.2,,57.2,5,,,,,,,,,,,,0,0,0,0,0,0,0,0,0,0,0,0,0,0,0,0,,,,,0.0,,,,,,
3180625,0,,,,,,,,,,,,,,,,,,,,,,,,,,,,,,,,,,0,0,0,0,0,0,0,0,0,0,0,0,0,0,0,0,,,,,,,,,,,
3180645,0,0.0,182.88,,-0.04,0.12,1.06,-1,-0,1,1.07,1.35,79,4823,4.6,3.06,,11.52,0.836,86.2,,57.5,5,0,0,0,0,0.0,0.0,0.0,0.0,2.26,,,0,0,0,0,0,0,0,0,0,0,0,0,0,0,0,0,0,,,,0.0,0.0,0.0,0.0,0,0,0.0
3180665,0,,,,,,,,,,,,,,,,,,,,,,,,,,,,,,,,,,0,0,0,0,0,0,0,0,0,0,0,0,0,0,0,0,,,,,,,,,,,
3180685,0,0.0,183.01,,-0.04,-0.03,0.98,-0,-0,0,0.98,1.35,73,4823,4.6,3.06,,11.52,0.836,86.2,,57.5,5,,,,,,,,,,,,0,0,0,0,0,0,0,0,0,0,0,0,0,0,0,0,,,,,0.0,,,,,,
3180705,0,,,,,,,,,,,,,,,,,,,,,,,,,,,,,,,,,,0,0,0,0,0,0,0,0,0,0,0,0,0,0,0,0,,,,,,,,,,,
3180725,0,0.0,182.88,,-0.05,0.07,1.03,-1,-0,1,1.04,1.35,77,4843,4.6,3.04,,11.53,0.841,86.2,,57.5,5,,,,,,,,,,,,0,0,0,0,0,0,0,0,0,0,0,0,0,0,0,0,,,,,0.0,,,,,,
3180745,0,,,,,,,,,,,,,,,,,,,,,,,0,0,0,0,0.0,0.0,0.0,0.0,2.27,,,0,0,0,0,0,0,0,0,0,0,0,0,0,0,0,0,0,,,,,0.0,0.0,0.0,0,0,0.0
3180765,0,0.0,182.88,,-0.05,-0.06,0.96,-0,-0,0,0.96,1.35,71,4826,4.6,3.04,,11.52,0.844,86.2,,57.5,5,,,,,,,,,,,,0,0,0,0,0,0,0,0,0,0,0,0,0,0,0,0,,,,,0.0,,,,,,
3180785,0,,,,,,,,,,,,,,,,,,,,,,,,,,,,,,,,,,0,0,0,0,0,0,0,0,0,0,0,0,0,0,0,0,,,,,,,,,,,
3180805,0,0.0,182.88,,-0.04,0.03,1.03,-0,-0,0,1.03,1.35,77,4811,4.3,3.07,,11.5,0.848,86.2,,57.5,5,,,,,,,,,,,,0,0,0,0,0,0,0,0,0,0,0,0,0,0,0,0,,,,,0.0,,,,,,
3180825,0,,,,,,,,,,,,,,,,,,,,,,,,,,,,,,,,,,0,0,0,0,0,0,0,0,0,0,0,0,0,0,0,0,,,,,,,,,,,
3180845,0,0.0,182.88,13.97,-0.06,-0.0,0.98,-1,-0,1,0.98,1.35,73,4847,4.1,3.09,15,11.52,0.846,86.2,153,56.3,5,0,0,0,0,0.0,0.0,0.0,0.0,2.28,0,1.0,0,0,0,0,0,0,0,0,0,0,0,0,0,0,0,0,0,0.0,0,-0,0.0,0.0,0.0,0.0,0,0,0.0
3180865,0,,,,,,,,,,,,,,,,,,,,,,,,,,,,,,,,,,0,0,0,0,0,0,0,0,0,0,0,0,0,0,0,0,,,,,,,,,,,
3180885,0,0.0,182.88,,-0.03,-0.04,0.97,-0,-0,0,0.97,1.35,72,4847,4.1,3.09,,11.52,0.846,86.2,,56.3,5,,,,,,,,,,,,0,0,0,0,0,0,0,0,0,0,0,0,0,0,0,0,,,,,0.0,,,,,,
3180905,0,,,,,,,,,,,,,,,,,,,,,,,,,,,,,,,,,,0,0,0,0,0,0,0,0,0,0,0,0,0,0,0,0,,,,,,,,,,,
3180925,0,0.0,182.76,,-0.04,0.02,0.98,-1,-0,1,0.99,1.35,73,4831,4.1,3.09,,11.48,0.849,86.2,,56.6,5,,,,,,,,,,,,0,0,0,0,0,0,0,0,0,0,0,0,0,0,0,0,,,,,0.0,,,,,,
3180945,0,,,,,,,,,,,,,,,,,,,,,,,0,0,0,0,0.0,0.0,0.0,0.0,2.28,,,0,0,0,0,0,0,0,0,0,0,0,0,0,0,0,0,0,,,,,0.0,0.0,0.0,0,0,0.0
3180965,0,0.0,182.88,,-0.03,-0.08,0.92,-1,-0,0,0.93,1.35,69,4846,6.4,3.0,,11.65,0.86,86.2,,56.6,5,,,,,,,,,,,,0,0,0,0,0,0,0,0,0,0,0,0,0,0,0,0,,,,,0.0,,,,,,
3180985,0,,,,,,,,,,,,,,,,,,,,,,,,,,,,,,,,,,0,0,0,0,0,0,0,0,0,0,0,0,0,0,0,0,,,,,,,,,,,
3181005,0,0.0,182.88,,-0.04,0.06,0.98,-1,-0,1,0.99,1.35,73,4860,9.2,2.99,,11.95,0.872,86.2,,56.6,5,,,,,,,,,,,,0,0,0,0,0,0,0,0,0,0,0,0,0,0,0,0,,,,,0.0,,,,,,
3181025,0,,,,,,,,,,,,,,,,,,,,,,,,,,,,,,,,,,0,0,0,0,0,0,0,0,0,0,0,0,0,0,0,0,,,,,,,,,,,
3181045,0,0.0,182.76,,-0.04,-0.06,0.93,-1,-0,0,0.93,1.35,69,4854,9.6,3.02,,12.17,0.866,86.2,,56.8,5,0,0,0,0,0.0,0.0,0.0,0.0,2.26,,,0,0,0,0,0,0,0,0,0,0,0,0,0,0,0,0,0,,,,0.0,0.0,0.0,0.0,0,0,0.0
3181065,0,,,,,,,,,,,,,,,,,,,,,,,,,,,,,,,,,,0,0,0,0,0,0,0,0,0,0,0,0,0,0,0,0,,,,,,,,,,,
3181085,0,0.0,182.76,,-0.04,-0.0,1.01,-1,-0,0,1.01,1.35,75,4803,5.7,2.91,,12.17,0.866,86.2,,56.8,5,,,,,,,,,,,,0,0,0,0,0,0,0,0,0,0,0,0,0,0,0,0,,,,,0.0,,,,,,
3181105,0,,,,,,,,,,,,,,,,,,,,,,,,,,,,,,,,,,0,0,0,0,0,0,0,0,0,0,0,0,0,0,0,0,,,,,,,,,,,
3181125,0,0.0,182.76,,-0.05,-0.07,0.96,-1,-0,0,0.97,1.35,72,4803,5.7,2.91,,12.08,0.871,86.2,,56.4,5,,,,,,,,,,,,0,0,0,0,0,0,0,0,0,0,0,0,0,0,0,0,,,,,0.0,,,,,,
3181145,0,,,,,,,,,,,,,,,,,,,,,,,0,0,0,0,0.0,0.0,0.0,0.0,2.26,,,0,0,0,0,0,0,0,0,0,0,0,0,0,0,0,0,0,,,,,0.0,0.0,0.0,0,0,0.0
3181165,0,0.0,182.88,,-0.04,-0.06,0.99,-0,-0,0,1.0,1.35,74,4820,2.0,2.44,,11.75,0.897,86.2,,56.4,5,,,,,,,,,,,,0,0,0,0,0,0,0,0,0,0,0,0,0,0,0,0,,,,,0.0,,,,,,
3181185,0,,,,,,,,,,,,,,,,,,,,,,,,,,,,,,,,,,0,0,0,0,0,0,0,0,0,0,0,0,0,0,0,0,,,,,,,,,,,
3181205,0,0.0,182.88,,-0.04,0.02,1.02,-1,-0,1,1.02,1.35,76,4785,1.0,2.18,,11.42,0.922,86.2,,56.4,5,,,,,,,,,,,,0,0,0,0,0,0,0,0,0,0,0,0,0,0,0,0,,,,,0.0,,,,,,
3181225,0,,,,,,,,,,,,,,,,,,,,,,,,,,,,,,,,,,0,0,0,0,0,0,0,0,0,0,0,0,0,0,0,0,,,,,,,,,,,
3181245,0,0.0,182.88,,-0.06,-0.11,0.96,-1,-0,1,0.97,1.35,72,4627,1.1,2.19,,11.26,0.926,86.2,,56.1,5,0,0,0,0,0.0,0.0,0.0,0.0,2.27,,,0,0,0,0,0,0,0,0,0,0,0,0,0,0,0,0,0,,,,0.0,0.0,0.0,0.0,0,0,0.0
3181265,0,,,,,,,,,,,,,,,,,,,,,,,,,,,,,,,,,,0,0,0,0,0,0,0,0,0,0,0,0,0,0,0,0,,,,,,,,,,,
3181285,0,0.0,182.76,,-0.07,-0.26,0.87,-1,-0,0,0.91,1.35,67,4521,3.7,2.64,,11.26,0.926,86.2,,56.1,5,,,,,,,,,,,,0,0,0,0,0,0,0,0,0,0,0,0,0,0,0,0,,,,,0.0,,,,,,
3181305,0,,,,,,,,,,,,,,,,,,,,,,,,,,,,,,,,,,0,0,0,0,0,0,0,0,0,0,0,0,0,0,0,0,,,,,,,,,,,
3181325,0,0.0,182.88,,-0.11,-0.36,0.81,-1,-0,-0,0.9,1.35,66,4521,3.7,2.64,,11.34,0.925,86.2,,52.1,5,,,,,,,,,,,,0,0,0,0,0,0,0,0,0,0,0,0,0,0,0,0,,,,,0.0,,,,,,
3181345,0,,,,,,,,,,,,,,,,,,,,,,,0,0,0,0,0.0,0.0,0.0,0.0,2.27,,,0,0,0,0,0,0,0,0,0,0,0,0,0,0,0,0,0,,,,,0.0,0.0,0.0,0,0,0.0
3181365,0,0.0,182.76,,-0.14,-0.34,0.86,-2,-0,0,0.93,1.35,69,4374,11.5,3.04,,11.97,0.972,86.2,,52.1,5,,,,,,,,,,,,0,0,0,0,0,0,0,0,0,0,0,0,0,0,0,0,,,,,0.0,,,,,,
3181385,0,,,,,,,,,,,,,,,,,,,,,,,,,,,,,,,,,,0,0,0,0,0,0,0,0,0,0,0,0,0,0,0,0,,,,,,,,,,,
3181405,0,0.0,182.76,,-0.14,-0.21,0.98,-2,-0,1,1.01,1.35,75,4348,15.8,3.19,,12.71,1.028,86.2,,52.1,5,,,,,,,,,,,,0,0,0,0,0,0,0,0,0,0,0,0,0,0,0,0,,,,,0.0,,,,,,
3181425,0,,,,,,,,,,,,,,,,,,,,,,,,,,,,,,,,,,0,0,0,0,0,0,0,0,0,0,0,0,0,0,0,0,,,,,,,,,,,
3181445,0,0.0,182.76,,-0.08,-0.16,0.96,-2,-0,0,0.98,1.35,73,4271,16.2,3.18,,13.11,1.063,86.2,,49.9,5,0,0,0,0,0.0,0.0,0.0,0.0,2.27,,,0,0,0,0,0,0,0,0,0,0,0,0,0,0,0,0,0,,,,0.0,0.0,0.0,0.0,0,0,0.0
3181465,0,,,,,,,,,,,,,,,,,,,,,,,,,,,,,,,,,,0,0,0,0,0,0,0,0,0,0,0,0,0,0,0,0,,,,,,,,,,,
3181485,0,0.0,182.88,,-0.1,-0.2,0.92,-2,-0,1,0.95,1.35,70,4129,14.3,3.14,,13.11,1.063,86.2,,49.9,5,,,,,,,,,,,,0,0,0,0,0,0,0,0,0,0,0,0,0,0,0,0,,,,,0.0,,,,,,
3181505,0,,,,,,,,,,,,,,,,,,,,,,,,,,,,,,,,,,0,0,0,0,0,0,0,0,0,0,0,0,0,0,0,0,,,,,,,,,,,
3181525,0,0.0,182.76,,-0.07,-0.14,0.94,-1,-0,0,0.96,1.35,71,4129,14.3,3.14,,13.19,1.058,86.2,,51.0,5,,,,,,,,,,,,0,0,0,0,0,0,0,0,0,0,0,0,0,0,0,0,,,,,0.0,,,,,,
3181545,0,,,,,,,,,,,,,,,,,,,,,,,0,0,0,0,0.0,0.0,0.0,0.0,2.26,,,0,0,0,0,0,0,0,0,0,0,0,0,0,0,0,0,0,,,,,0.0,0.0,0.0,0,0,0.0
3181565,0,0.0,182.76,,-0.06,-0.05,1.02,-1,-0,1,1.02,1.35,76,3961,9.8,3.07,,13.08,1.084,86.2,,51.0,5,,,,,,,,,,,,0,0,0,0,0,0,0,0,0,0,0,0,0,0,0,0,,,,,0.0,,,,,,
3181585,0,,,,,,,,,,,,,,,,,,,,,,,,,,,,,,,,,,0,0,0,0,0,0,0,0,0,0,0,0,0,0,0,0,,,,,,,,,,,
3181605,0,0.0,182.76,,-0.05,-0.08,1.01,-2,-0,1,1.01,1.35,75,3923,7.0,2.99,,12.92,1.171,86.2,,51.0,5,,,,,,,,,,,,0,0,0,0,0,0,0,0,0,0,0,0,0,0,0,0,,,,,0.0,,,,,,
3181625,0,,,,,,,,,,,,,,,,,,,,,,,,,,,,,,,,,,0,0,0,0,0,0,0,0,0,0,0,0,0,0,0,0,,,,,,,,,,,
3181645,0,0.0,182.88,,-0.06,-0.09,0.98,-1,-0,0,0.99,1.35,73,3816,5.9,3.22,,12.75,1.249,86.2,,51.1,5,0,0,0,0,0.0,0.0,0.0,0.0,2.26,,,0,0,0,0,0,0,0,0,0,0,0,0,0,0,0,0,0,,,,0.0,0.0,0.0,0.0,0,0,0.0
3181665,0,,,,,,,,,,,,,,,,,,,,,,,,,,,,,,,,,,0,0,0,0,0,0,0,0,0,0,0,0,0,0,0,0,,,,,,,,,,,
3181685,0,0.0,182.88,,-0.07,-0.1,0.97,-1,-0,0,0.98,1.35,73,3816,5.9,3.22,,12.75,1.249,86.2,,51.1,5,,,,,,,,,,,,0,0,0,0,0,0,0,0,0,0,0,0,0,0,0,0,,,,,0.0,,,,,,
3181705,0,,,,,,,,,,,,,,,,,,,,,,,,,,,,,,,,,,0,0,0,0,0,0,0,0,0,0,0,0,0,0,0,0,,,,,,,,,,,
3181725,0,0.0,182.88,,-0.08,-0.05,0.99,-1,-0,0,1.0,1.35,74,3761,6.6,3.25,,12.73,1.229,86.2,,50.5,5,,,,,,,,,,,,0,0,0,0,0,0,0,0,0,0,0,0,0,0,0,0,,,,,0.0,,,,,,
3181745,0,,,,,,,,,,,,,,,,,,,,,,,0,0,0,0,0.0,0.0,0.0,0.0,2.27,,,0,0,0,0,0,0,0,0,0,0,0,0,0,0,0,0,0,,,,,0.0,0.0,0.0,0,0,0.0
3181765,0,0.0,182.76,,-0.06,-0.01,0.96,-1,-0,0,0.97,1.35,72,3597,13.0,3.47,,13.08,1.226,86.2,,50.5,5,,,,,,,,,,,,0,0,0,0,0,0,0,0,0,0,0,0,0,0,0,0,,,,,0.0,,,,,,
3181785,0,,,,,,,,,,,,,,,,,,,,,,,,,,,,,,,,,,0,0,0,0,0,0,0,0,0,0,0,0,0,0,0,0,,,,,,,,,,,
3181805,0,0.0,182.76,,-0.08,-0.14,0.97,-0,-0,-0,0.98,1.35,73,3489,17.7,3.63,,13.67,1.205,86.2,,50.5,5,,,,,,,,,,,,0,0,0,0,0,0,0,0,0,0,0,0,0,0,0,0,,,,,0.0,,,,,,
3181825,0,,,,,,,,,,,,,,,,,,,,,,,,,,,,,,,,,,0,0,0,0,0,0,0,0,0,0,0,0,0,0,0,0,,,,,,,,,,,
3181845,0,0.0,182.76,13.9,-0.08,-0.1,1.0,-1,-0,0,1.01,1.35,75,3461,19.0,3.76,15,13.88,1.215,86.2,155,48.9,5,0,0,0,0,0.0,0.0,0.0,0.0,2.28,0,1.0,0,0,0,0,0,0,0,0,0,0,0,0,0,0,0,0,0,0.0,0,-0,0.0,0.0,0.0,0.0,0,0,0.0
3181865,0,,,,,,,,,,,,,,,,,,,,,,,,,,,,,,,,,,0,0,0,0,0,0,0,0,0,0,0,0,0,0,0,0,,,,,,,,,,,
3181885,0,0.0,182.76,,-0.07,-0.1,0.99,-1,-0,0,0.99,1.35,74,3461,19.0,3.76,,13.88,1.215,86.2,,48.9,5,,,,,,,,,,,,0,0,0,0,0,0,0,0,0,0,0,0,0,0,0,0,,,,,0.0,,,,,,
3181905,0,,,,,,,,,,,,,,,,,,,,,,,,,,,,,,,,,,0,0,0,0,0,0,0,0,0,0,0,0,0,0,0,0,,,,,,,,,,,
3181925,0,0.0,182.76,,-0.08,-0.06,1.01,-1,-0,0,1.01,1.35,75,3747,18.9,4.0,,13.88,1.248,86.2,,51.4,5,,,,,,,,,,,,0,0,0,0,0,0,0,0,0,0,0,0,0,0,0,0,,,,,0.0,,,,,,
3181945,0,,,,,,,,,,,,,,,,,,,,,,,0,0,0,0,0.0,0.0,0.0,0.0,2.28,,,0,0,0,0,0,0,0,0,0,0,0,0,0,0,0,0,0,,,,,0.0,0.0,0.0,0,0,0.0
3181965,0,0.0,182.88,,-0.06,-0.02,1.01,-1,-0,0,1.01,1.35,75,3662,16.1,3.86,,13.67,1.251,86.2,,51.4,5,,,,,,,,,,,,0,0,0,0,0,0,0,0,0,0,0,0,0,0,0,0,,,,,0.0,,,,,,
3181985,0,,,,,,,,,,,,,,,,,,,,,,,,,,,,,,,,,,0,0,0,0,0,0,0,0,0,0,0,0,0,0,0,0,,,,,,,,,,,
3182005,0,0.0,182.76,,-0.04,-0.02,1.0,-0,-0,0,1.0,1.35,74,3712,12.4,3.79,,13.53,1.194,86.2,,51.4,5,,,,,,,,,,,,0,0,0,0,0,0,0,0,0,0,0,0,0,0,0,0,,,,,0.0,,,,,,
3182025,0,,,,,,,,,,,,,,,,,,,,,,,,,,,,,,,,,,0,0,0,0,0,0,0,0,0,0,0,0,0,0,0,0,,,,,,,,,,,
3182045,0,0.0,182.76,,-0.05,-0.02,1.02,-0,-0,0,1.02,1.35,76,3755,9.3,3.69,,13.45,1.168,86.2,,51.3,5,0,0,0,0,0.0,0.0,0.0,0.0,2.27,,,0,0,0,0,0,0,0,0,0,0,0,0,0,0,0,0,0,,,,0.0,0.0,0.0,0.0,0,0,0.0
3182065,0,,,,,,,,,,,,,,,,,,,,,,,,,,,,,,,,,,0,0,0,0,0,0,0,0,0,0,0,0,0,0,0,0,,,,,,,,,,,
3182085,0,0.0,182.88,,-0.05,-0.03,1.03,-0,-0,0,1.03,1.35,76,3760,6.8,3.59,,13.45,1.168,86.2,,51.3,5,,,,,,,,,,,,0,0,0,0,0,0,0,0,0,0,0,0,0,0,0,0,,,,,0.0,,,,,,
3182105,0,,,,,,,,,,,,,,,,,,,,,,,,,,,,,,,,,,0,0,0,0,0,0,0,0,0,0,0,0,0,0,0,0,,,,,,,,,,,
3182125,0,0.0,182.76,,-0.05,-0.03,0.99,0,-0,-0,0.99,1.35,74,3760,6.8,3.59,,13.12,1.166,86.2,,52.3,5,,,,,,,,,,,,0,0,0,0,0,0,0,0,0,0,0,0,0,0,0,0,,,,,0.0,,,,,,
3182145,0,,,,,,,,,,,,,,,,,,,,,,,0,0,0,0,0.0,0.0,0.0,0.0,2.26,,,0,0,0,0,0,0,0,0,0,0,0,0,0,0,0,0,0,,,,,0.0,0.0,0.0,0,0,0.0
3182165,0,0.0,182.88,,-0.07,-0.06,0.98,1,-0,-0,0.99,1.35,73,3655,6.6,3.57,,12.97,1.107,86.2,,52.3,5,,,,,,,,,,,,0,0,0,0,0,0,0,0,0,0,0,0,0,0,0,0,,,,,0.0,,,,,,
3182185,0,,,,,,,,,,,,,,,,,,,,,,,,,,,,,,,,,,0,0,0,0,0,0,0,0,0,0,0,0,0,0,0,0,,,,,,,,,,,
3182205,0,0.0,182.88,,-0.07,-0.08,1.02,0,-0,-0,1.03,1.35,76,3601,9.3,3.34,,13.09,1.106,86.2,,52.3,5,,,,,,,,,,,,0,0,0,0,0,0,0,0,0,0,0,0,0,0,0,0,,,,,0.0,,,,,,
3182225,0,,,,,,,,,,,,,,,,,,,,,,,,,,,,,,,,,,0,0,0,0,0,0,0,0,0,0,0,0,0,0,0,0,,,,,,,,,,,
3182245,0,0.0,182.88,,-0.03,0.02,1.01,-0,-0,0,1.01,1.35,75,3478,15.6,3.52,,13.49,1.119,86.2,,49.9,5,0,0,0,0,0.0,0.0,0.0,0.0,2.27,,,0,0,0,0,0,0,0,0,0,0,0,0,0,0,0,0,0,,,,0.0,0.0,0.0,0.0,0,0,0.0
3182265,0,,,,,,,,,,,,,,,,,,,,,,,,,,,,,,,,,,0,0,0,0,0,0,0,0,0,0,0,0,0,0,0,0,,,,,,,,,,,
3182285,0,0.0,182.88,,-0.04,-0.06,0.97,0,-0,-0,0.98,1.35,73,3496,18.8,3.67,,13.49,1.119,86.2,,49.9,5,,,,,,,,,,,,0,0,0,0,0,0,0,0,0,0,0,0,0,0,0,0,,,,,0.0,,,,,,
3182305,0,,,,,,,,,,,,,,,,,,,,,,,,,,,,,,,,,,0,0,0,0,0,0,0,0,0,0,0,0,0,0,0,0,,,,,,,,,,,
3182325,0,0.0,182.88,,-0.05,-0.11,1.02,-0,-0,0,1.03,1.35,76,3496,18.8,3.67,,13.86,1.146,86.2,,47.9,5,,,,,,,,,,,,0,0,0,0,0,0,0,0,0,0,0,0,0,0,0,0,,,,,0.0,,,,,,
3182345,0,,,,,,,,,,,,,,,,,,,,,,,0,0,0,0,0.0,0.0,0.0,0.0,2.28,,,0,0,0,0,0,0,0,0,0,0,0,0,0,0,0,0,0,,,,,0.0,0.0,0.0,0,0,0.0
3182365,0,0.0,182.88,,-0.03,-0.06,0.96,-0,-0,0,0.96,1.35,71,3410,19.4,3.67,,13.92,1.151,86.2,,47.9,5,,,,,,,,,,,,0,0,0,0,0,0,0,0,0,0,0,0,0,0,0,0,,,,,0.0,,,,,,
3182385,0,,,,,,,,,,,,,,,,,,,,,,,,,,,,,,,,,,0,0,0,0,0,0,0,0,0,0,0,0,0,0,0,0,,,,,,,,,,,
3182405,0,0.0,182.88,,-0.07,-0.13,1.0,0,-0,-0,1.01,1.35,75,3466,18.1,3.63,,13.95,1.176,86.2,,47.9,5,,,,,,,,,,,,0,0,0,0,0,0,0,0,0,0,0,0,0,0,0,0,,,,,0.0,,,,,,
3182425,0,,,,,,,,,,,,,,,,,,,,,,,,,,,,,,,,,,0,0,0,0,0,0,0,0,0,0,0,0,0,0,0,0,,,,,,,,,,,
3182445,0,0.0,182.88,,-0.04,-0.0,0.98,-0,-0,0,0.98,1.35,73,3460,15.4,3.55,,13.87,1.215,86.2,,47.5,5,0,0,0,0,0.0,0.0,0.0,0.0,2.27,,,0,0,0,0,0,0,0,0,0,0,0,0,0,0,0,0,0,,,,0.0,0.0,0.0,0.0,0,0,0.0
3182465,0,,,,,,,,,,,,,,,,,,,,,,,,,,,,,,,,,,0,0,0,0,0,0,0,0,0,0,0,0,0,0,0,0,,,,,,,,,,,
3182485,0,0.0,182.88,,-0.06,-0.12,0.97,1,-0,-0,0.98,1.35,73,3387,10.6,3.67,,13.87,1.215,86.2,,47.5,5,,,,,,,,,,,,0,0,0,0,0,0,0,0,0,0,0,0,0,0,0,0,,,,,0.0,,,,,,
3182505,0,,,,,,,,,,,,,,,,,,,,,,,,,,,,,,,,,,0,0,0,0,0,0,0,0,0,0,0,0,0,0,0,0,,,,,,,,,,,
3182525,0,0.0,182.88,,-0.04,-0.08,0.99,-0,-0,0,1.0,1.35,74,3387,10.6,3.67,,13.67,1.246,86.2,,47.2,5,,,,,,,,,,,,0,0,0,0,0,0,0,0,0,0,0,0,0,0,0,0,,,,,0.0,,,,,,
3182545,0,,,,,,,,,,,,,,,,,,,,,,,0,0,0,0,0.0,0.0,0.0,0.0,2.27,,,0,0,0,0,0,0,0,0,0,0,0,0,0,0,0,0,0,,,,,0.0,0.0,0.0,0,0,0.0
3182565,0,0.0,182.88,,-0.06,-0.1,0.96,1,-0,-0,0.97,1.35,72,3407,7.6,3.54,,13.47,1.252,86.2,,47.2,5,,,,,,,,,,,,0,0,0,0,0,0,0,0,0,0,0,0,0,0,0,0,,,,,0.0,,,,,,
3182585,0,,,,,,,,,,,,,,,,,,,,,,,,,,,,,,,,,,0,0,0,0,0,0,0,0,0,0,0,0,0,0,0,0,,,,,,,,,,,
3182605,0,0.0,182.88,,-0.05,-0.04,0.96,0,-0,0,0.96,1.35,71,3288,7.2,3.53,,13.4,1.252,86.2,,47.2,5,,,,,,,,,,,,0,0,0,0,0,0,0,0,0,0,0,0,0,0,0,0,,,,,0.0,,,,,,
3182625,0,,,,,,,,,,,,,,,,,,,,,,,,,,,,,,,,,,0,0,0,0,0,0,0,0,0,0,0,0,0,0,0,0,,,,,,,,,,,
3182645,0,0.0,182.88,,-0.08,-0.12,1.02,0,-0,-0,1.03,1.35,76,3265,7.9,3.55,,13.41,1.251,86.2,,45.6,5,0,0,0,0,0.0,0.0,0.0,0.0,2.26,,,0,0,0,0,0,0,0,0,0,0,0,0,0,0,0,0,0,,,,0.0,0.0,0.0,0.0,0,0,0.0
3182665,0,,,,,,,,,,,,,,,,,,,,,,,,,,,,,,,,,,0,0,0,0,0,0,0,0,0,0,0,0,0,0,0,0,,,,,,,,,,,
3182685,0,0.0,182.88,,-0.05,-0.06,0.95,0,-0,0,0.96,1.35,71,3354,13.3,3.72,,13.41,1.251,86.2,,45.6,5,,,,,,,,,,,,0,0,0,0,0,0,0,0,0,0,0,0,0,0,0,0,,,,,0.0,,,,,,
3182705,0,,,,,,,,,,,,,,,,,,,,,,,,,,,,,,,,,,0,0,0,0,0,0,0,0,0,0,0,0,0,0,0,0,,,,,,,,,,,
3182725,0,0.0,182.88,,-0.07,-0.13,0.94,1,-0,-0,0.95,1.35,70,3354,13.3,3.72,,13.67,1.221,86.2,,48.9,5,,,,,,,,,,,,0,0,0,0,0,0,0,0,0,0,0,0,0,0,0,0,,,,,0.0,,,,,,
3182745,0,,,,,,,,,,,,,,,,,,,,,,,0,0,0,0,0.0,0.0,0.0,0.0,2.27,,,0,0,0,0,0,0,0,0,0,0,0,0,0,0,0,0,0,,,,,0.0,0.0,0.0,0,0,0.0
3182765,0,0.0,182.88,,-0.09,-0.11,0.93,1,-0,-0,0.94,1.35,70,3646,17.6,3.83,,13.79,1.143,86.2,,48.9,5,,,,,,,,,,,,0,0,0,0,0,0,0,0,0,0,0,0,0,0,0,0,,,,,0.0,,,,,,
3182785,0,,,,,,,,,,,,,,,,,,,,,,,,,,,,,,,,,,0,0,0,0,0,0,0,0,0,0,0,0,0,0,0,0,,,,,,,,,,,
3182805,0,0.0,183.01,,-0.05,-0.04,0.98,-0,-0,0,0.98,1.35,73,3748,18.9,4.02,,13.77,1.046,86.2,,48.9,5,,,,,,,,,,,,0,0,0,0,0,0,0,0,0,0,0,0,0,0,0,0,,,,,0.0,,,,,,
3182825,0,,,,,,,,,,,,,,,,,,,,,,,,,,,,,,,,,,0,0,0,0,0,0,0,0,0,0,0,0,0,0,0,0,,,,,,,,,,,
3182845,0,0.0,183.01,13.96,-0.04,0.01,1.02,-1,-0,1,1.02,1.35,76,3934,17.8,3.93,15,13.77,1.046,86.2,155,54.0,5,0,0,0,0,0.0,0.0,0.0,0.0,2.28,0,1.0,0,0,0,0,0,0,0,0,0,0,0,0,0,0,0,0,0,0.0,0,-0,0.0,0.0,0.0,0.0,0,0,0.0
3182865,0,,,,,,,,,,,,,,,,,,,,,,,,,,,,,,,,,,0,0,0,0,0,0,0,0,0,0,0,0,0,0,0,0,,,,,,,,,,,
3182885,0,0.0,183.01,,-0.05,-0.1,0.94,-0,-0,-0,0.95,1.35,70,4061,14.2,3.82,,13.71,1.007,86.2,,54.0,5,,,,,,,,,,,,0,0,0,0,0,0,0,0,0,0,0,0,0,0,0,0,,,,,0.0,,,,,,
3182905,0,,,,,,,,,,,,,,,,,,,,,,,,,,,,,,,,,,0,0,0,0,0,0,0,0,0,0,0,0,0,0,0,0,,,,,,,,,,,
3182925,0,0.0,183.01,,-0.03,0.06,1.05,-1,-0,1,1.05,1.35,78,4061,14.2,3.82,,13.59,1.06,86.2,,58.7,5,,,,,,,,,,,,0,0,0,0,0,0,0,0,0,0,0,0,0,0,0,0,,,,,0.0,,,,,,
3182945,0,,,,,,,,,,,,,,,,,,,,,,,0,0,0,0,0.0,0.0,0.0,0.0,2.28,,,0,0,0,0,0,0,0,0,0,0,0,0,0,0,0,0,0,,,,,0.0,0.0,0.0,0,0,0.0
3182965,0,0.0,183.01,,-0.03,-0.03,0.99,0,-0,0,0.99,1.35,73,4186,10.7,3.68,,13.2,1.054,86.2,,58.7,5,,,,,,,,,,,,0,0,0,0,0,0,0,0,0,0,0,0,0,0,0,0,,,,,0.0,,,,,,
3182985,0,,,,,,,,,,,,,,,,,,,,,,,,,,,,,,,,,,0,0,0,0,0,0,0,0,0,0,0,0,0,0,0,0,,,,,,,,,,,
3183005,0,0.0,183.01,,-0.05,0.07,1.07,-1,-0,1,1.08,1.35,80,4156,9.1,3.65,,13.03,1.064,86.2,,58.7,5,,,,,,,,,,,,0,0,0,0,0,0,0,0,0,0,0,0,0,0,0,0,,,,,0.0,,,,,,
3183025,0,,,,,,,,,,,,,,,,,,,,,,,,,,,,,,,,,,0,0,0,0,0,0,0,0,0,0,0,0,0,0,0,0,,,,,,,,,,,
3183045,0,0.0,183.01,,-0.05,-0.03,0.98,-0,-0,0,0.98,1.35,73,4063,7.5,3.6,,12.81,1.082,86.2,,56.9,5,0,0,0,0,0.0,0.0,0.0,0.0,2.27,,,0,0,0,0,0,0,0,0,0,0,0,0,0,0,0,0,0,,,,0.0,0.0,0.0,0.0,0,0,0.0
3183065,0,,,,,,,,,,,,,,,,,,,,,,,,,,,,,,,,,,0,0,0,0,0,0,0,0,0,0,0,0,0,0,0,0,,,,,,,,,,,
3183085,0,0.0,182.88,,-0.05,0.1,1.03,-0,-0,0,1.03,1.35,77,3980,5.1,3.45,,12.81,1.082,86.2,,56.9,5,,,,,,,,,,,,0,0,0,0,0,0,0,0,0,0,0,0,0,0,0,0,,,,,0.0,,,,,,
3183105,0,,,,,,,,,,,,,,,,,,,,,,,,,,,,,,,,,,0,0,0,0,0,0,0,0,0,0,0,0,0,0,0,0,,,,,,,,,,,
3183125,0,0.0,182.88,,-0.07,0.06,1.04,-1,-0,1,1.05,1.35,78,3980,5.1,3.45,,12.56,1.124,86.2,,53.6,5,,,,,,,,,,,,0,0,0,0,0,0,0,0,0,0,0,0,0,0,0,0,,,,,0.0,,,,,,
3183145,0,,,,,,,,,,,,,,,,,,,,,,,0,0,0,0,0.0,0.0,0.0,0.0,2.27,,,0,0,0,0,0,0,0,0,0,0,0,0,0,0,0,0,0,,,,,0.0,0.0,0.0,0,0,0.0
3183165,0,0.0,182.88,,-0.06,-0.03,0.95,0,-0,0,0.95,1.35,71,4042,4.8,3.41,,12.51,1.15,86.2,,53.6,5,,,,,,,,,,,,0,0,0,0,0,0,0,0,0,0,0,0,0,0,0,0,,,,,0.0,,,,,,
3183185,0,,,,,,,,,,,,,,,,,,,,,,,,,,,,,,,,,,0,0,0,0,0,0,0,0,0,0,0,0,0,0,0,0,,,,,,,,,,,
3183205,0,0.0,182.88,,-0.06,0.1,1.05,-1,-0,1,1.05,1.35,78,4122,5.1,3.44,,12.39,1.144,86.2,,53.6,5,,,,,,,,,,,,0,0,0,0,0,0,0,0,0,0,0,0,0,0,0,0,,,,,0.0,,,,,,
3183225,0,,,,,,,,,,,,,,,,,,,,,,,,,,,,,,,,,,0,0,0,0,0,0,0,0,0,0,0,0,0,0,0,0,,,,,,,,,,,
3183245,0,0.0,182.88,,-0.04,-0.0,0.94,0,-0,-0,0.94,1.35,70,4215,11.3,3.61,,12.63,1.061,86.2,,55.8,5,0,0,0,0,0.0,0.0,0.0,0.0,2.27,,,0,0,0,0,0,0,0,0,0,0,0,0,0,0,0,0,0,,,,0.0,0.0,0.0,0.0,0,0,0.0
3183265,0,,,,,,,,,,,,,,,,,,,,,,,,,,,,,,,,,,0,0,0,0,0,0,0,0,0,0,0,0,0,0,0,0,,,,,,,,,,,
3183285,0,0.0,182.88,,-0.07,-0.07,0.91,0,-0,-0,0.92,1.35,68,4215,11.3,3.61,,12.63,1.061,86.2,,55.8,5,,,,,,,,,,,,0,0,0,0,0,0,0,0,0,0,0,0,0,0,0,0,,,,,0.0,,,,,,
3183305,0,,,,,,,,,,,,,,,,,,,,,,,,,,,,,,,,,,0,0,0,0,0,0,0,0,0,0,0,0,0,0,0,0,,,,,,,,,,,
3183325,0,0.0,182.88,,-0.1,-0.11,0.94,-1,-0,0,0.95,1.35,71,4366,17.5,3.82,,13.25,0.901,86.2,,58.4,5,,,,,,,,,,,,0,0,0,0,0,0,0,0,0,0,0,0,0,0,0,0,,,,,0.0,,,,,,
3183345,0,,,,,,,,,,,,,,,,,,,,,,,0,0,0,0,0.0,0.0,0.0,0.0,2.27,,,0,0,0,0,0,0,0,0,0,0,0,0,0,0,0,0,0,,,,,0.0,0.0,0.0,0,0,0.0
3183365,0,0.0,182.88,,-0.13,-0.2,0.92,-2,-0,1,0.95,1.35,71,4577,20.0,3.53,,13.52,0.882,86.2,,58.4,5,,,,,,,,,,,,0,0,0,0,0,0,0,0,0,0,0,0,0,0,0,0,,,,,0.0,,,,,,
3183385,0,,,,,,,,,,,,,,,,,,,,,,,,,,,,,,,,,,0,0,0,0,0,0,0,0,0,0,0,0,0,0,0,0,,,,,,,,,,,
3183405,0,0.0,183.01,,-0.14,-0.34,0.85,-1,-0,0,0.92,1.35,68,4661,19.3,3.54,,13.47,0.916,86.2,,58.4,5,,,,,,,,,,,,0,0,0,0,0,0,0,0,0,0,0,0,0,0,0,0,,,,,0.0,,,,,,
3183425,0,,,,,,,,,,,,,,,,,,,,,,,,,,,,,,,,,,0,0,0,0,0,0,0,0,0,0,0,0,0,0,0,0,,,,,,,,,,,
3183445,0,0.0,183.01,,-0.11,-0.33,0.87,0,-0,-0,0.94,1.35,70,4658,11.6,3.24,,13.47,0.916,86.2,,58.0,5,0,0,0,0,0.0,0.0,0.0,0.0,2.27,,,0,0,0,0,0,0,0,0,0,0,0,0,0,0,0,0,0,,,,0.0,0.0,0.0,0.0,0,0,0.0
3183465,0,,,,,,,,,,,,,,,,,,,,,,,,,,,,,,,,,,0,0,0,0,0,0,0,0,0,0,0,0,0,0,0,0,,,,,,,,,,,
3183485,0,0.0,183.01,,-0.09,-0.13,0.97,0,-0,-0,0.99,1.35,73,4658,11.6,3.24,,13.12,0.936,86.2,,58.0,5,,,,,,,,,,,,0,0,0,0,0,0,0,0,0,0,0,0,0,0,0,0,,,,,0.0,,,,,,
3183505,0,,,,,,,,,,,,,,,,,,,,,,,,,,,,,,,,,,0,0,0,0,0,0,0,0,0,0,0,0,0,0,0,0,,,,,,,,,,,
3183525,0,0.0,183.01,,-0.09,0.04,1.09,-0,-0,0,1.1,1.35,81,4623,7.5,3.08,,12.8,0.965,86.2,,56.2,5,,,,,,,,,,,,0,0,0,0,0,0,0,0,0,0,0,0,0,0,0,0,,,,,0.0,,,,,,
3183545,0,,,,,,,,,,,,,,,,,,,,,,,0,0,0,0,0.0,0.0,0.0,0.0,2.26,,,0,0,0,0,0,0,0,0,0,0,0,0,0,0,0,0,0,,,,,0.0,0.0,0.0,0,0,0.0
3183565,0,0.0,183.01,,-0.07,0.24,1.19,-1,-0,1,1.22,1.35,91,4495,5.8,3.12,,12.45,1.069,86.2,,56.2,5,,,,,,,,,,,,0,0,0,0,0,0,0,0,0,0,0,0,0,0,0,0,,,,,0.0,,,,,,
3183585,0,,,,,,,,,,,,,,,,,,,,,,,,,,,,,,,,,,0,0,0,0,0,0,0,0,0,0,0,0,0,0,0,0,,,,,,,,,,,
3183605,0,0.0,183.01,,-0.05,0.32,1.27,-1,-0,1,1.31,1.35,97,4438,5.1,3.26,,12.32,1.156,86.2,,56.2,5,,,,,,,,,,,,0,0,0,0,0,0,0,0,0,0,0,0,0,0,0,0,,,,,0.0,,,,,,
3183625,0,,,,,,,,,,,,,,,,,,,,,,,,,,,,,,,,,,0,0,0,0,0,0,0,0,0,0,0,0,0,0,0,0,,,,,,,,,,,
3183645,0,0.0,183.01,,-0.01,0.3,1.18,1,-0,0,1.22,1.35,90,4311,5.7,3.25,,12.32,1.156,86.2,,54.5,5,0,0,0,0,0.0,0.0,0.0,0.0,2.27,,,0,0,0,0,0,0,0,0,0,0,0,0,0,0,0,0,0,,,,0.0,0.0,0.0,0.0,0,0,0.0
3183665,0,,,,,,,,,,,,,,,,,,,,,,,,,,,,,,,,,,0,0,0,0,0,0,0,0,0,0,0,0,0,0,0,0,,,,,,,,,,,
3183685,0,0.0,183.01,,-0.03,0.18,1.09,0,-0,0,1.1,1.35,82,4311,5.7,3.25,,12.29,1.047,86.2,,54.5,5,,,,,,,,,,,,0,0,0,0,0,0,0,0,0,0,0,0,0,0,0,0,,,,,0.0,,,,,,
3183705,0,,,,,,,,,,,,,,,,,,,,,,,,,,,,,,,,,,0,0,0,0,0,0,0,0,0,0,0,0,0,0,0,0,,,,,,,,,,,
3183725,0,0.0,183.01,,-0.03,0.28,1.18,-0,-0,1,1.22,1.35,90,4237,12.0,3.4,,12.52,0.926,86.2,,54.5,5,,,,,,,,,,,,0,0,0,0,0,0,0,0,0,0,0,0,0,0,0,0,,,,,0.0,,,,,,
3183745,0,,,,,,,,,,,,,,,,,,,,,,,0,0,0,0,0.0,0.0,0.0,0.0,2.28,,,0,0,0,0,0,0,0,0,0,0,0,0,0,0,0,0,0,,,,,0.0,0.0,0.0,0,0,0.0
3183765,0,0.0,183.01,,-0.0,0.37,1.26,-0,-0,1,1.31,1.35,97,4417,18.0,3.64,,13.17,0.921,86.2,,52.2,5,,,,,,,,,,,,0,0,0,0,0,0,0,0,0,0,0,0,0,0,0,0,,,,,0.0,,,,,,
3183785,0,,,,,,,,,,,,,,,,,,,,,,,,,,,,,,,,,,0,0,0,0,0,0,0,0,0,0,0,0,0,0,0,0,,,,,,,,,,,
3183805,0,0.0,183.01,,-0.0,0.5,1.32,-1,-0,1,1.41,1.41,100,4657,20.4,3.71,,13.57,0.974,86.2,,52.2,5,,,,,,,,,,,,0,0,0,0,0,0,0,0,0,0,0,0,0,0,0,0,,,,,0.0,,,,,,
3183825,0,,,,,,,,,,,,,,,,,,,,,,,,,,,,,,,,,,0,0,0,0,0,0,0,0,0,0,0,0,0,0,0,0,,,,,,,,,,,
3183845,0,0.0,183.01,13.92,-0.01,0.38,1.23,-1,-0,1,1.29,1.41,91,4920,20.8,3.73,15,13.57,0.974,86.2,155,58.6,5,0,0,0,0,0.0,0.0,0.0,0.0,2.27,0,1.0,0,0,0,0,0,0,0,0,0,0,0,0,0,0,0,0,0,0.0,0,-0,0.0,0.0,0.0,0.0,0,0,0.0
3183865,0,,,,,,,,,,,,,,,,,,,,,,,,,,,,,,,,,,0,0,0,0,0,0,0,0,0,0,0,0,0,0,0,0,,,,,,,,,,,
3183885,0,0.0,183.01,,-0.01,0.36,1.22,-1,-0,1,1.28,1.41,90,4920,20.8,3.73,,13.73,0.973,86.2,,58.6,5,,,,,,,,,,,,0,0,0,0,0,0,0,0,0,0,0,0,0,0,0,0,,,,,0.0,,,,,,
3183905,0,,,,,,,,,,,,,,,,,,,,,,,,,,,,,,,,,,0,0,0,0,0,0,0,0,0,0,0,0,0,0,0,0,,,,,,,,,,,
3183925,0,0.0,183.13,,-0.03,0.36,1.22,-1,-0,1,1.27,1.41,90,5100,15.9,3.29,,13.31,0.946,86.2,,60.7,5,,,,,,,,,,,,0,0,0,0,0,0,0,0,0,0,0,0,0,0,0,0,,,,,0.0,,,,,,
3183945,0,,,,,,,,,,,,,,,,,,,,,,,0,0,0,0,0.0,0.0,0.0,0.0,2.27,,,0,0,0,0,0,0,0,0,0,0,0,0,0,0,0,0,0,,,,,0.0,0.0,0.0,0,0,0.0
3183965,0,0.0,183.13,,-0.05,0.4,1.2,-1,-0,1,1.26,1.41,90,5239,10.8,3.03,,12.92,0.942,86.2,,60.7,5,,,,,,,,,,,,0,0,0,0,0,0,0,0,0,0,0,0,0,0,0,0,,,,,0.0,,,,,,
3183985,0,,,,,,,,,,,,,,,,,,,,,,,,,,,,,,,,,,0,0,0,0,0,0,0,0,0,0,0,0,0,0,0,0,,,,,,,,,,,
3184005,0,0.0,183.13,,-0.05,0.32,1.13,-1,-0,1,1.17,1.41,83,5415,8.3,2.97,,12.51,0.95,86.2,,60.7,5,,,,,,,,,,,,0,0,0,0,0,0,0,0,0,0,0,0,0,0,0,0,,,,,0.0,,,,,,
3184025,0,,,,,,,,,,,,,,,,,,,,,,,,,,,,,,,,,,0,0,0,0,0,0,0,0,0,0,0,0,0,0,0,0,,,,,,,,,,,
3184045,0,0.0,183.13,,-0.02,0.27,1.14,-0,-0,1,1.17,1.41,83,5415,8.3,2.97,,12.51,0.95,86.2,,61.5,5,0,0,0,0,0.0,0.0,0.0,0.0,2.27,,,0,0,0,0,0,0,0,0,0,0,0,0,0,0,0,0,0,,,,0.0,0.0,0.0,0.0,0,0,0.0
3184065,0,,,,,,,,,,,,,,,,,,,,,,,,,,,,,,,,,,0,0,0,0,0,0,0,0,0,0,0,0,0,0,0,0,,,,,,,,,,,
3184085,0,0.0,183.13,,-0.05,0.25,1.09,-1,-0,1,1.12,1.41,79,5516,6.5,2.99,,12.15,0.938,86.2,,61.5,5,,,,,,,,,,,,0,0,0,0,0,0,0,0,0,0,0,0,0,0,0,0,,,,,0.0,,,,,,
3184105,0,,,,,,,,,,,,,,,,,,,,,,,,,,,,,,,,,,0,0,0,0,0,0,0,0,0,0,0,0,0,0,0,0,,,,,,,,,,,
3184125,0,0.0,183.13,,-0.03,0.23,1.16,-0,-0,1,1.18,1.41,83,5638,6.0,3.01,,11.76,0.931,86.2,,62.4,5,,,,,,,,,,,,0,0,0,0,0,0,0,0,0,0,0,0,0,0,0,0,,,,,0.0,,,,,,
3184145,0,,,,,,,,,,,,,,,,,,,,,,,0,0,0,0,0.0,0.0,0.0,0.0,2.27,,,0,0,0,0,0,0,0,0,0,0,0,0,0,0,0,0,0,,,,,0.0,0.0,0.0,0,0,0.0
3184165,0,0.0,183.13,,-0.03,0.01,1.04,1,-0,-0,1.04,1.41,73,5794,5.6,3.35,,11.28,0.916,86.2,,62.4,5,,,,,,,,,,,,0,0,0,0,0,0,0,0,0,0,0,0,0,0,0,0,,,,,0.0,,,,,,
3184185,0,,,,,,,,,,,,,,,,,,,,,,,,,,,,,,,,,,0,0,0,0,0,0,0,0,0,0,0,0,0,0,0,0,,,,,,,,,,,
3184205,0,0.0,183.26,,-0.07,-0.09,0.95,1,-0,-1,0.95,1.41,67,6007,4.9,3.36,,10.88,0.89,86.2,,62.4,5,,,,,,,,,,,,0,0,0,0,0,0,0,0,0,0,0,0,0,0,0,0,,,,,0.0,,,,,,
3184225,0,,,,,,,,,,,,,,,,,,,,,,,,,,,,,,,,,,0,0,0,0,0,0,0,0,0,0,0,0,0,0,0,0,,,,,,,,,,,
3184245,0,0.0,183.13,,-0.07,-0.19,0.88,1,-0,-1,0.91,1.41,64,6166,4.7,2.61,,10.88,0.89,86.2,,62.5,5,0,0,0,0,0.0,0.0,0.0,0.0,2.28,,,0,0,0,0,0,0,0,0,0,0,0,0,0,0,0,0,0,,,,0.0,0.0,0.0,0.0,0,0,0.0
3184265,0,,,,,,,,,,,,,,,,,,,,,,,,,,,,,,,,,,0,0,0,0,0,0,0,0,0,0,0,0,0,0,0,0,,,,,,,,,,,
3184285,0,0.0,183.13,,-0.07,-0.22,0.97,1,-0,-1,1.0,1.41,71,6166,4.7,2.61,,10.46,0.867,86.2,,62.5,5,,,,,,,,,,,,0,0,0,0,0,0,0,0,0,0,0,0,0,0,0,0,,,,,0.0,,,,,,
3184305,0,,,,,,,,,,,,,,,,,,,,,,,,,,,,,,,,,,0,0,0,0,0,0,0,0,0,0,0,0,0,0,0,0,,,,,,,,,,,
3184325,0,0.0,183.13,,-0.07,-0.05,0.91,1,-0,-1,0.92,1.41,65,6353,6.0,2.62,,10.13,0.848,86.2,,62.5,5,,,,,,,,,,,,0,0,0,0,0,0,0,0,0,0,0,0,0,0,0,0,,,,,0.0,,,,,,
3184345,0,,,,,,,,,,,,,,,,,,,,,,,0,0,0,0,0.0,0.0,0.0,0.0,2.28,,,0,0,0,0,0,0,0,0,0,0,0,0,0,0,0,0,0,,,,,0.0,0.0,0.0,0,0,0.0
3184365,0,0.0,183.13,,-0.07,-0.13,0.98,1,-0,-1,0.99,1.41,70,6436,11.7,3.14,,10.49,0.858,86.2,,64.1,5,,,,,,,,,,,,0,0,0,0,0,0,0,0,0,0,0,0,0,0,0,0,,,,,0.0,,,,,,
3184385,0,,,,,,,,,,,,,,,,,,,,,,,,,,,,,,,,,,0,0,0,0,0,0,0,0,0,0,0,0,0,0,0,0,,,,,,,,,,,
3184405,0,0.0,183.26,,-0.04,-0.09,0.94,-0,-0,-1,0.95,1.41,67,6560,16.7,4.15,,10.98,0.907,86.2,,64.1,5,,,,,,,,,,,,0,0,0,0,0,0,0,0,0,0,0,0,0,0,0,0,,,,,0.0,,,,,,
3184425,0,,,,,,,,,,,,,,,,,,,,,,,,,,,,,,,,,,0,0,0,0,0,0,0,0,0,0,0,0,0,0,0,0,,,,,,,,,,,
3184445,0,0.0,183.26,,-0.03,-0.02,0.95,-0,-0,-0,0.96,1.41,68,6899,19.0,4.98,,10.98,0.907,86.2,,64.4,5,0,0,0,0,0.0,0.0,0.0,0.0,2.27,,,0,0,0,0,0,0,0,0,0,0,0,0,0,0,0,0,0,,,,0.0,0.0,0.0,0.0,0,0,0.0
3184465,0,,,,,,,,,,,,,,,,,,,,,,,,,,,,,,,,,,0,0,0,0,0,0,0,0,0,0,0,0,0,0,0,0,,,,,,,,,,,
3184485,0,0.0,183.13,,-0.05,-0.09,0.93,2,-0,-1,0.94,1.41,66,6899,19.0,4.98,,11.33,0.953,86.2,,64.4,5,,,,,,,,,,,,0,0,0,0,0,0,0,0,0,0,0,0,0,0,0,0,,,,,0.0,,,,,,
3184505,0,,,,,,,,,,,,,,,,,,,,,,,,,,,,,,,,,,0,0,0,0,0,0,0,0,0,0,0,0,0,0,0,0,,,,,,,,,,,
3184525,0,0.0,183.13,,-0.06,-0.24,0.92,4,-0,-1,0.96,1.41,68,7521,16.3,4.67,,10.9,0.924,86.2,,67.5,5,,,,,,,,,,,,0,0,0,0,0,0,0,0,0,0,0,0,0,0,0,0,,,,,0.0,,,,,,
3184545,0,,,,,,,,,,,,,,,,,,,,,,,0,0,0,0,0.0,0.0,0.0,0.0,2.26,,,0,0,0,0,0,0,0,0,0,0,0,0,0,0,0,0,0,,,,,0.0,0.0,0.0,0,0,0.0
3184565,0,0.0,183.26,,-0.09,-0.26,0.95,3,-0,-1,0.99,1.41,70,7957,7.1,3.02,,9.76,0.857,86.2,,67.5,5,,,,,,,,,,,,0,0,0,0,0,0,0,0,0,0,0,0,0,0,0,0,,,,,0.0,,,,,,
3184585,0,,,,,,,,,,,,,,,,,,,,,,,,,,,,,,,,,,0,0,0,0,0,0,0,0,0,0,0,0,0,0,0,0,,,,,,,,,,,
3184605,0,0.0,183.26,,-0.05,-0.2,0.95,3,-0,-1,0.98,1.41,69,8412,1.1,1.4,,8.45,0.776,86.2,,67.5,5,,,,,,,,,,,,0,0,0,0,0,0,0,0,0,0,0,0,0,0,0,0,,,,,0.0,,,,,,
3184625,0,,,,,,,,,,,,,,,,,,,,,,,,,,,,,,,,,,0,0,0,0,0,0,0,0,0,0,0,0,0,0,0,0,,,,,,,,,,,
3184645,0,0.0,183.26,,-0.08,-0.19,0.92,2,-0,-0,0.94,1.41,66,8683,0.1,1.4,,8.45,0.776,86.2,,69.2,5,0,0,0,0,0.0,0.0,0.0,0.0,2.27,,,0,0,0,0,0,0,0,0,0,0,0,0,0,0,0,0,0,,,,0.0,0.0,0.0,0.0,0,0,0.0
3184665,0,,,,,,,,,,,,,,,,,,,,,,,,,,,,,,,,,,0,0,0,0,0,0,0,0,0,0,0,0,0,0,0,0,,,,,,,,,,,
3184685,0,0.0,183.13,,-0.08,-0.09,0.94,1,-0,-0,0.94,1.41,67,8683,0.1,1.4,,7.33,0.744,86.2,,69.2,5,,,,,,,,,,,,0,0,0,0,0,0,0,0,0,0,0,0,0,0,0,0,,,,,0.0,,,,,,
3184705,0,,,,,,,,,,,,,,,,,,,,,,,,,,,,,,,,,,0,0,0,0,0,0,0,0,0,0,0,0,0,0,0,0,,,,,,,,,,,
3184725,0,0.0,183.26,,-0.08,-0.16,1.0,2,-0,-1,1.01,1.41,72,8756,0.0,1.4,,6.55,0.788,86.2,,69.2,5,,,,,,,,,,,,0,0,0,0,0,0,0,0,0,0,0,0,0,0,0,0,,,,,0.0,,,,,,
3184745,0,,,,,,,,,,,,,,,,,,,,,,,0,0,0,0,0.0,0.0,0.0,0.0,2.27,,,0,0,0,0,0,0,0,0,0,0,0,0,0,0,0,0,0,,,,,0.0,0.0,0.0,0,0,0.0
3184765,0,0.0,183.13,,-0.1,-0.16,0.94,1,-0,-1,0.95,1.41,67,8770,0.0,1.4,,6.11,0.866,86.2,,66.3,5,,,,,,,,,,,,0,0,0,0,0,0,0,0,0,0,0,0,0,0,0,0,,,,,0.0,,,,,,
3184785,0,,,,,,,,,,,,,,,,,,,,,,,,,,,,,,,,,,0,0,0,0,0,0,0,0,0,0,0,0,0,0,0,0,,,,,,,,,,,
3184805,0,0.0,183.26,,-0.08,-0.12,0.96,2,-0,-1,0.97,1.41,69,8702,0.0,1.4,,5.94,0.905,86.2,,66.3,5,,,,,,,,,,,,0,0,0,0,0,0,0,0,0,0,0,0,0,0,0,0,,,,,0.0,,,,,,
3184825,0,,,,,,,,,,,,,,,,,,,,,,,,,,,,,,,,,,0,0,0,0,0,0,0,0,0,0,0,0,0,0,0,0,,,,,,,,,,,
3184845,0,0.0,183.26,13.95,-0.05,-0.17,0.99,0,-0,-0,1.01,1.41,71,8591,5.3,1.56,15,5.94,0.905,86.2,155,65.2,5,0,0,0,0,0.0,0.0,0.0,0.0,2.27,0,1.0,0,0,0,0,0,0,0,0,0,0,0,0,0,0,0,0,0,0.0,0,-0,0.0,0.0,0.0,0.0,0,0,0.0
3184865,0,,,,,,,,,,,,,,,,,,,,,,,,,,,,,,,,,,0,0,0,0,0,0,0,0,0,0,0,0,0,0,0,0,,,,,,,,,,,
3184885,0,0.0,183.26,,-0.07,-0.11,0.97,2,-0,-1,0.98,1.41,69,8591,5.3,1.56,,6.2,0.911,86.2,,65.2,5,,,,,,,,,,,,0,0,0,0,0,0,0,0,0,0,0,0,0,0,0,0,,,,,0.0,,,,,,
3184905,0,,,,,,,,,,,,,,,,,,,,,,,,,,,,,,,,,,0,0,0,0,0,0,0,0,0,0,0,0,0,0,0,0,,,,,,,,,,,
3184925,0,0.0,183.26,,-0.08,-0.05,0.96,0,-0,-0,0.97,1.41,69,8508,11.9,1.99,,6.94,0.918,86.2,,63.6,5,,,,,,,,,,,,0,0,0,0,0,0,0,0,0,0,0,0,0,0,0,0,,,,,0.0,,,,,,
3184945,0,,,,,,,,,,,,,,,,,,,,,,,0,0,0,0,0.0,0.0,0.0,0.0,2.27,,,0,0,0,0,0,0,0,0,0,0,0,0,0,0,0,0,0,,,,,0.0,0.0,0.0,0,0,0.0
3184965,0,0.0,183.26,,-0.07,-0.09,0.96,1,-0,-1,0.97,1.41,69,8527,14.7,2.37,,7.79,0.964,86.2,,63.6,5,,,,,,,,,,,,0,0,0,0,0,0,0,0,0,0,0,0,0,0,0,0,,,,,0.0,,,,,,
3184985,0,,,,,,,,,,,,,,,,,,,,,,,,,,,,,,,,,,0,0,0,0,0,0,0,0,0,0,0,0,0,0,0,0,,,,,,,,,,,
3185005,0,0.0,183.13,,-0.09,0.05,0.95,1,-0,-1,0.96,1.41,68,8632,13.3,2.47,,8.06,0.992,77.2,,63.6,5,,,,,,,,,,,,0,0,0,0,0,0,0,0,0,0,0,0,0,0,0,0,,,,,0.0,,,,,,
3185025,0,,,,,,,,,,,,,,,,,,,,,,,,,,,,,,,,,,0,0,0,0,0,0,0,0,0,0,0,0,0,0,0,0,,,,,,,,,,,
3185045,0,0.0,183.13,,-0.08,-0.08,1.02,1,-0,-1,1.03,1.41,73,8802,5.3,1.99,,8.06,0.992,77.2,,65.5,5,0,0,0,0,0.0,0.0,0.0,0.0,2.27,,,0,0,0,0,0,0,0,0,0,0,0,0,0,0,0,0,0,,,,0.0,0.0,0.0,0.0,0,0,0.0
3185065,0,,,,,,,,,,,,,,,,,,,,,,,,,,,,,,,,,,0,0,0,0,0,0,0,0,0,0,0,0,0,0,0,0,,,,,,,,,,,
3185085,0,0.0,183.13,,-0.09,-0.13,1.0,1,-0,-1,1.01,1.41,72,8802,5.3,1.99,,7.46,0.991,77.2,,65.5,5,,,,,,,,,,,,0,0,0,0,0,0,0,0,0,0,0,0,0,0,0,0,,,,,0.0,,,,,,
3185105,0,,,,,,,,,,,,,,,,,,,,,,,,,,,,,,,,,,0,0,0,0,0,0,0,0,0,0,0,0,0,0,0,0,,,,,,,,,,,
3185125,0,0.0,183.13,,-0.08,-0.08,0.95,1,-0,-1,0.96,1.41,68,8832,2.1,1.4,,6.74,0.97,77.2,,62.6,5,,,,,,,,,,,,0,0,0,0,0,0,0,0,0,0,0,0,0,0,0,0,,,,,0.0,,,,,,
3185145,0,,,,,,,,,,,,,,,,,,,,,,,0,0,0,0,0.0,0.0,0.0,0.0,2.27,,,0,0,0,0,0,0,0,0,0,0,0,0,0,0,0,0,0,,,,,0.0,0.0,0.0,0,0,0.0
3185165,0,0.0,183.13,,-0.06,-0.05,0.95,-0,-0,-0,0.95,1.41,67,8411,0.8,1.4,,6.19,0.953,77.2,,62.6,5,,,,,,,,,,,,0,0,0,0,0,0,0,0,0,0,0,0,0,0,0,0,,,,,0.0,,,,,,
3185185,0,,,,,,,,,,,,,,,,,,,,,,,,,,,,,,,,,,0,0,0,0,0,0,0,0,0,0,0,0,0,0,0,0,,,,,,,,,,,
3185205,0,0.0,183.13,,-0.06,-0.05,0.98,0,-0,-1,0.99,1.41,70,8128,0.3,1.4,,6.0,1.029,77.2,,62.6,5,,,,,,,,,,,,0,0,0,0,0,0,0,0,0,0,0,0,0,0,0,0,,,,,0.0,,,,,,
3185225,0,,,,,,,,,,,,,,,,,,,,,,,,,,,,,,,,,,0,0,0,0,0,0,0,0,0,0,0,0,0,0,0,0,,,,,,,,,,,
3185245,0,0.0,183.13,,-0.06,-0.19,0.98,-1,-0,-0,1.0,1.41,71,7845,0.0,1.4,,6.0,1.029,77.2,,59.5,5,0,0,0,0,0.0,0.0,0.0,0.0,2.28,,,0,0,0,0,0,0,0,0,0,0,0,0,0,0,0,0,0,,,,0.0,0.0,0.0,0.0,0,0,0.0
3185265,0,,,,,,,,,,,,,,,,,,,,,,,,,,,,,,,,,,0,0,0,0,0,0,0,0,0,0,0,0,0,0,0,0,,,,,,,,,,,
3185285,0,0.0,183.13,,-0.05,-0.08,1.02,1,-0,-0,1.03,1.41,73,7845,0.0,1.4,,5.92,1.246,77.2,,59.5,5,,,,,,,,,,,,0,0,0,0,0,0,0,0,0,0,0,0,0,0,0,0,,,,,0.0,,,,,,
3185305,0,,,,,,,,,,,,,,,,,,,,,,,,,,,,,,,,,,0,0,0,0,0,0,0,0,0,0,0,0,0,0,0,0,,,,,,,,,,,
3185325,0,0.0,183.13,,-0.0,-0.0,1.05,2,-0,-1,1.05,1.41,74,7551,0.0,1.4,,6.11,1.249,77.2,,57.3,5,,,,,,,,,,,,0,0,0,0,0,0,0,0,0,0,0,0,0,0,0,0,,,,,0.0,,,,,,
3185345,0,,,,,,,,,,,,,,,,,,,,,,,0,0,0,0,0.0,0.0,0.0,0.0,2.28,,,0,0,0,0,0,0,0,0,0,0,0,0,0,0,0,0,0,,,,,0.0,0.0,0.0,0,0,0.0
3185365,0,0.0,183.13,,-0.02,-0.09,1.01,2,-0,-1,1.02,1.41,72,7190,5.2,1.89,,6.58,1.25,77.2,,57.3,5,,,,,,,,,,,,0,0,0,0,0,0,0,0,0,0,0,0,0,0,0,0,,,,,0.0,,,,,,
3185385,0,,,,,,,,,,,,,,,,,,,,,,,,,,,,,,,,,,0,0,0,0,0,0,0,0,0,0,0,0,0,0,0,0,,,,,,,,,,,
3185405,0,0.0,183.13,,-0.02,-0.05,0.98,3,-0,-1,0.98,1.41,70,6890,9.4,2.3,,7.73,1.251,77.2,,57.3,5,,,,,,,,,,,,0,0,0,0,0,0,0,0,0,0,0,0,0,0,0,0,,,,,0.0,,,,,,
3185425,0,,,,,,,,,,,,,,,,,,,,,,,,,,,,,,,,,,0,0,0,0,0,0,0,0,0,0,0,0,0,0,0,0,,,,,,,,,,,
3185445,0,0.0,183.13,,-0.01,-0.03,1.0,2,-0,-1,1.0,1.41,71,6723,11.2,2.6,,7.73,1.251,77.2,,55.3,5,0,0,0,0,0.0,0.0,0.0,0.0,2.27,,,0,0,0,0,0,0,0,0,0,0,0,0,0,0,0,0,0,,,,0.0,0.0,0.0,0.0,0,0,0.0
3185465,0,,,,,,,,,,,,,,,,,,,,,,,,,,,,,,,,,,0,0,0,0,0,0,0,0,0,0,0,0,0,0,0,0,,,,,,,,,,,
3185485,0,0.0,183.13,,-0.05,-0.05,0.99,2,-0,-1,0.99,1.41,70,6723,11.2,2.6,,8.75,1.252,77.2,,55.3,5,,,,,,,,,,,,0,0,0,0,0,0,0,0,0,0,0,0,0,0,0,0,,,,,0.0,,,,,,
3185505,0,,,,,,,,,,,,,,,,,,,,,,,,,,,,,,,,,,0,0,0,0,0,0,0,0,0,0,0,0,0,0,0,0,,,,,,,,,,,
3185525,0,0.0,183.13,,-0.04,-0.08,1.02,2,-0,-1,1.02,1.41,72,6632,11.7,2.74,,9.29,1.164,77.2,,56.1,5,,,,,,,,,,,,0,0,0,0,0,0,0,0,0,0,0,0,0,0,0,0,,,,,0.0,,,,,,
3185545,0,,,,,,,,,,,,,,,,,,,,,,,0,0,0,0,0.0,0.0,0.0,0.0,2.27,,,0,0,0,0,0,0,0,0,0,0,0,0,0,0,0,0,0,,,,,0.0,0.0,0.0,0,0,0.0
3185565,0,0.0,183.13,,-0.01,-0.07,1.0,1,-0,-0,1.0,1.41,71,6554,11.1,2.77,,9.68,1.049,77.2,,56.1,5,,,,,,,,,,,,0,0,0,0,0,0,0,0,0,0,0,0,0,0,0,0,,,,,0.0,,,,,,
3185585,0,,,,,,,,,,,,,,,,,,,,,,,,,,,,,,,,,,0,0,0,0,0,0,0,0,0,0,0,0,0,0,0,0,,,,,,,,,,,
3185605,0,0.0,183.26,,-0.06,-0.05,0.95,1,-0,-0,0.96,1.41,68,6497,8.3,2.67,,9.54,1.027,77.2,,56.1,5,,,,,,,,,,,,0,0,0,0,0,0,0,0,0,0,0,0,0,0,0,0,,,,,0.0,,,,,,
3185625,0,,,,,,,,,,,,,,,,,,,,,,,,,,,,,,,,,,0,0,0,0,0,0,0,0,0,0,0,0,0,0,0,0,,,,,,,,,,,
3185645,0,0.0,183.26,,-0.03,-0.02,0.99,1,-0,-0,0.99,1.41,70,6441,5.9,2.52,,9.54,1.027,77.2,,57.9,5,0,0,0,0,0.0,0.0,0.0,0.0,2.27,,,0,0,0,0,0,0,0,0,0,0,0,0,0,0,0,0,0,,,,0.0,0.0,0.0,0.0,0,0,0.0
3185665,0,,,,,,,,,,,,,,,,,,,,,,,,,,,,,,,,,,0,0,0,0,0,0,0,0,0,0,0,0,0,0,0,0,,,,,,,,,,,
3185685,0,0.0,183.26,,-0.08,-0.01,0.98,1,-0,0,0.98,1.41,70,6441,5.9,2.52,,9.53,1.025,77.2,,57.9,5,,,,,,,,,,,,0,0,0,0,0,0,0,0,0,0,0,0,0,0,0,0,,,,,0.0,,,,,,
3185705,0,,,,,,,,,,,,,,,,,,,,,,,,,,,,,,,,,,0,0,0,0,0,0,0,0,0,0,0,0,0,0,0,0,,,,,,,,,,,
3185725,0,0.0,183.26,,-0.08,-0.06,1.05,1,-0,-0,1.06,1.41,75,6394,4.4,2.35,,9.26,1.022,77.2,,58.2,5,,,,,,,,,,,,0,0,0,0,0,0,0,0,0,0,0,0,0,0,0,0,,,,,0.0,,,,,,
3185745,0,,,,,,,,,,,,,,,,,,,,,,,0,0,0,0,0.0,0.0,0.0,0.0,2.28,,,0,0,0,0,0,0,0,0,0,0,0,0,0,0,0,0,0,,,,,0.0,0.0,0.0,0,0,0.0
3185765,0,0.0,183.26,,-0.1,0.1,1.0,0,-0,0,1.0,1.41,71,6336,4.0,2.32,,9.11,1.042,77.2,,58.2,5,,,,,,,,,,,,0,0,0,0,0,0,0,0,0,0,0,0,0,0,0,0,,,,,0.0,,,,,,
3185785,0,,,,,,,,,,,,,,,,,,,,,,,,,,,,,,,,,,0,0,0,0,0,0,0,0,0,0,0,0,0,0,0,0,,,,,,,,,,,
3185805,0,0.0,183.26,,-0.03,-0.04,0.96,0,-0,-0,0.96,1.41,68,6236,4.2,2.32,,9.15,1.035,77.2,,58.2,5,,,,,,,,,,,,0,0,0,0,0,0,0,0,0,0,0,0,0,0,0,0,,,,,0.0,,,,,,
3185825,0,,,,,,,,,,,,,,,,,,,,,,,,,,,,,,,,,,0,0,0,0,0,0,0,0,0,0,0,0,0,0,0,0,,,,,,,,,,,
