"Interval"|"ms"|0|0|1,"Utc"|"ms"|0|0|1,"ElapsedTime"|"Min"|0.0|0.0|10,"FrontBP"|"psi"|-5.0|5.0|25,"SteerAng"|"Degrees"|-145|145|25,"Battery"|"Volts"|-5.0|20.0|1,"AccelX"|"G"|-3.0|3.0|25,"AccelY"|"G"|-3.0|3.0|25,"AccelZ"|"G"|-3.0|3.0|25,"Yaw"|"Deg/Sec"|-120|120|25,"Pitch"|"Deg/Sec"|-120|120|25,"Roll"|"Deg/Sec"|-120|120|25,"Gsum"|"G"|0.0|3.0|25,"GsumMax"|"G"|0.0|3.0|25,"GsumPct"|"%"|0|100|25,"RPM"|""|0|10000|25,"TPS"|"%"|0.0|100.0|25,"InjectorPW"|"ms"|0.0|100.0|25,"Baro"|"kPa"|0|105|1,"MAP"|"Psi"|0.0|255.0|25,"Lambda"|""|-2.0|2.0|25,"IAT"|"C"|0.0|200.0|25,"EngineTemp"|"C"|0|200|1,"EOP"|"PSI"|0.0|152.0|25,"EOT"|"F"|0|250|25,"WSFR"|"MPH"|0|150|10,"WSFL"|"MPH"|0|100|10,"WSRR"|"MPH"|0|100|10,"WSRL"|""|0|100|10,"TCSet"|"%"|0.0|100.0|10,"TCSlip"|"%"|0.0|100.0|10,"TCComp"|"deg"|0.0|50.0|10,"TCCut"|"%"|0.0|100.0|10,"Analog8"|""|0.0|5.0|10,"OilTemp"|"F"|0|300|1,"AA_On"|""|0.0|1.0|1,"ThermLF1"|"C"|0|400|50,"ThermLF2"|"C"|0|400|50,"ThermRR1"|"C"|0|400|50,"ThermRR2"|"C"|0|400|50,"ThermLF3"|"C"|0|400|50,"ThermLF4"|"C"|0|400|50,"ThermLF5"|"C"|0|400|50,"ThermLF6"|"C"|0|400|50,"ThermLF7"|"C"|0|400|50,"ThermLF8"|"C"|0|400|50,"ThermRR3"|"C"|0|400|50,"ThermRR4"|"C"|0|400|50,"ThermRR5"|"C"|0|400|50,"ThermRR6"|"C"|0|400|50,"ThermRR7"|"C"|0|400|50,"ThermRR8"|"C"|0|400|50,"AA_LowDrag"|""|0|1|1,"Gear"|""|1|6|10,"AA_On"|""|0.0|1.0|1,"AA_LowDrag"|""|0|1|1,"Fuel_Mix"|""|-10|10|1,"AA_Packages"|""|0.0|1000.0|25,"Latitude"|"Degrees"|-180.0|180.0|10,"Longitude"|"Degrees"|-180.0|180.0|10,"Speed"|"kph"|0.0|150.0|10,"Altitude"|"m"|0.0|4000.0|10,"GPSSats"|""|0|20|10,"GPSQual"|""|0|5|10,"GPSDOP"|""|0.0|20.0|10,"LapCount"|""|0|0|10,"LapTime"|"Min"|0.0|0.0|10,"Sector"|""|0|0|10,"SectorTime"|"Min"|0.0|0.0|10,"PredTime"|"Min"|0.0|0.0|5,"CurrentLap"|""|0|0|10,"Distance"|"mi"|0.0|0.0|10,"SessionTime"|"Min"|0.0|0.0|10
3466323,1745297718494,0.0003,0.0,-83,,-0.13,0.02,1.02,-1,-0,0,1.03,1.03,100,5744,0.9,1.89,,10.05,1.111,88.0,,54.2,5,,,,,,,,,,,,0,0,0,0,0,0,0,0,0,0,0,0,0,0,0,0,,,,,,0.0,,,,,,,,,,,,,,,
3466343,1745297718514,0.0006,,,,,,,,,,,,,,,,,,,,,,,,,,,,,,,,,,0,0,0,0,0,0,0,0,0,0,0,0,0,0,0,0,,,,,,,,,,,,,,,,,,,,,
3466363,1745297718534,0.001,0.0,-83,,-0.12,-0.06,0.96,-1,-0,0,0.96,1.03,94,4952,9.4,3.08,,10.86,1.084,88.0,,48.5,5,,,,,,,,,,,,0,0,0,0,0,0,0,0,0,0,0,0,0,0,0,0,,,,,,0.0,,,,,,,,,,,,,,,
3466383,1745297718554,0.0013,,,,,,,,,,,,,,,,,,,,,,,,,,,,,,,,,,0,0,0,0,0,0,0,0,0,0,0,0,0,0,0,0,,,,,,,,,,,,,,,,,,,,,
3466403,1745297718574,0.0016,0.0,-83,13.37,-0.09,-0.08,0.99,-0,-0,-0,1.0,1.03,97,4678,11.1,4.3,15,10.86,1.084,88.0,162,48.5,5,0,0,0,0,0.0,0.0,0.0,0.0,2.26,0,1.0,0,0,0,0,0,0,0,0,0,0,0,0,0,0,0,0,0,0,1.0,0,0,0.0,38.986023,-76.95002,0.0,48.6,33,3,0.8,0,0.0,-1,0.0,0.0,0,0.0,0.0016
3466423,1745297718594,0.002,,,,,,,,,,,,,,,,,,,,,,,,,,,,,,,,,,0,0,0,0,0,0,0,0,0,0,0,0,0,0,0,0,,,,,,,,,,,,,,,,,,,,,
3466443,1745297718614,0.0023,0.0,-72,,-0.1,0.0,1.09,-1,-0,0,1.09,1.09,100,4678,11.1,4.3,,11.75,1.206,88.0,,42.0,5,,,,,,,,,,,,0,0,0,0,0,0,0,0,0,0,0,0,0,0,0,0,,,,,,0.0,,,,,,,,,,,,,,,
3466463,1745297718634,0.0026,,,,,,,,,,,,,,,,,,,,,,,,,,,,,,,,,,0,0,0,0,0,0,0,0,0,0,0,0,0,0,0,0,,,,,,,,,,,,,,,,,,,,,
3466483,1745297718654,0.003,0.0,-64,,-0.15,0.04,1.12,-2,-0,1,1.13,1.13,100,4629,11.5,4.29,,12.09,1.249,88.0,,42.0,5,,,,,,,,,,,,0,0,0,0,0,0,0,0,0,0,0,0,0,0,0,0,,,,,,0.0,,,,,,,,,,,,,,,
3466503,1745297718674,0.0033,,,,,,,,,,,,,,,,,,,,,,,0,0,0,0,0.0,0.0,0.0,0.0,2.26,,,0,0,0,0,0,0,0,0,0,0,0,0,0,0,0,0,,0,,,,,38.986023,-76.95002,0.04,48.6,33,3,0.8,0,0.0,-1,0.0,,0,0.0,0.0033
3466523,1745297718694,0.0036,0.0,-80,,-0.17,-0.07,1.02,-1,-0,0,1.04,1.13,92,4701,1.3,3.28,,11.99,1.221,88.0,,42.0,5,,,,,,,,,,,,0,0,0,0,0,0,0,0,0,0,0,0,0,0,0,0,,,,,,0.0,,,,,,,,,,,,,,,
3466543,1745297718714,0.004,,,,,,,,,,,,,,,,,,,,,,,,,,,,,,,,,,0,0,0,0,0,0,0,0,0,0,0,0,0,0,0,0,,,,,,,,,,,,,,,,,,,,,
3466563,1745297718734,0.0043,0.0,-72,,-0.12,-0.12,0.96,-1,-0,0,0.98,1.13,87,4732,0.0,2.77,,11.38,1.1,88.0,,42.1,5,,,,,,,,,,,,0,0,0,0,0,0,0,0,0,0,0,0,0,0,0,0,,,,,,0.0,,,,,,,,,,,,,,,
3466583,1745297718754,0.0046,,,,,,,,,,,,,,,,,,,,,,,,,,,,,,,,,,0,0,0,0,0,0,0,0,0,0,0,0,0,0,0,0,,,,,,,,,,,,,,,,,,,,,
3466603,1745297718774,0.005,0.0,-64,,-0.07,-0.07,1.01,-1,-0,0,1.01,1.13,90,4711,0.0,2.76,,11.38,1.1,88.0,,42.1,5,0,0,0,0,0.0,0.0,0.0,0.0,2.26,,,0,0,0,0,0,0,0,0,0,0,0,0,0,0,0,0,,0,,,,0.0,38.986023,-76.95002,0.04,48.6,33,3,0.8,0,0.0,-1,0.0,0.0,0,0.0,0.005
3466623,1745297718794,0.0053,,,,,,,,,,,,,,,,,,,,,,,,,,,,,,,,,,0,0,0,0,0,0,0,0,0,0,0,0,0,0,0,0,,,,,,,,,,,,,,,,,,,,,
3466643,1745297718814,0.0056,0.0,-83,,-0.11,0.02,1.08,-1,-0,1,1.08,1.13,96,4711,0.0,2.76,,10.9,0.992,88.0,,42.3,5,,,,,,,,,,,,0,0,0,0,0,0,0,0,0,0,0,0,0,0,0,0,,,,,,0.0,,,,,,,,,,,,,,,
3466663,1745297718834,0.006,,,,,,,,,,,,,,,,,,,,,,,,,,,,,,,,,,0,0,0,0,0,0,0,0,0,0,0,0,0,0,0,0,,,,,,,,,,,,,,,,,,,,,
3466683,1745297718854,0.0063,0.0,-68,,-0.16,-0.07,1.05,-1,-0,0,1.06,1.13,94,4665,0.0,2.18,,10.58,0.99,88.0,,42.3,5,,,,,,,,,,,,0,0,0,0,0,0,0,0,0,0,0,0,0,0,0,0,,,,,,0.0,,,,,,,,,,,,,,,
3466703,1745297718874,0.0066,,,,,,,,,,,,,,,,,,,,,,,0,0,0,0,0.0,0.0,0.0,0.0,2.26,,,0,0,0,0,0,0,0,0,0,0,0,0,0,0,0,0,,0,,,,,38.986023,-76.95002,0.04,48.6,33,3,0.8,0,0.0,-1,0.0,,0,0.0,0.0066
3466723,1745297718894,0.007,0.0,-64,,-0.17,-0.15,0.97,0,-0,-0,0.99,1.13,88,4613,0.0,2.09,,10.41,1.04,88.0,,42.3,5,,,,,,,,,,,,0,0,0,0,0,0,0,0,0,0,0,0,0,0,0,0,,,,,,0.0,,,,,,,,,,,,,,,
3466743,1745297718914,0.0073,,,,,,,,,,,,,,,,,,,,,,,,,,,,,,,,,,0,0,0,0,0,0,0,0,0,0,0,0,0,0,0,0,,,,,,,,,,,,,,,,,,,,,
3466763,1745297718934,0.0076,0.0,-68,,-0.18,-0.21,0.94,1,-0,-0,0.98,1.13,87,4427,0.0,2.07,,10.38,1.037,88.0,,40.4,5,,,,,,,,,,,,0,0,0,0,0,0,0,0,0,0,0,0,0,0,0,0,,,,,,0.0,,,,,,,,,,,,,,,
3466783,1745297718954,0.008,,,,,,,,,,,,,,,,,,,,,,,,,,,,,,,,,,0,0,0,0,0,0,0,0,0,0,0,0,0,0,0,0,,,,,,,,,,,,,,,,,,,,,
3466803,1745297718974,0.0083,0.0,-87,,-0.2,-0.1,1.03,-0,-0,0,1.05,1.13,93,4240,0.0,2.07,,10.38,1.037,88.0,,40.4,5,0,0,0,0,0.0,0.0,0.0,0.0,2.25,,,0,0,0,0,0,0,0,0,0,0,0,0,0,0,0,0,,0,,,,0.0,38.986023,-76.95002,0.05,48.6,33,3,0.8,0,0.0,-1,0.0,0.0,0,0.0,0.0083
3466823,1745297718994,0.0086,,,,,,,,,,,,,,,,,,,,,,,,,,,,,,,,,,0,0,0,0,0,0,0,0,0,0,0,0,0,0,0,0,,,,,,,,,,,,,,,,,,,,,
3466843,1745297719006,0.009,0.0,-76,,-0.18,-0.17,0.94,1,-0,-1,0.98,1.13,87,4240,0.0,2.07,,10.36,1.033,88.0,,36.9,5,,,,,,,,,,,,0,0,0,0,0,0,0,0,0,0,0,0,0,0,0,0,,,,,,0.0,,,,,,,,,,,,,,,
3466863,1745297719026,0.0093,,,,,,,,,,,,,,,,,,,,,,,,,,,,,,,,,,0,0,0,0,0,0,0,0,0,0,0,0,0,0,0,0,,,,,,,,,,,,,,,,,,,,,
3466883,1745297719046,0.0096,0.0,-61,,-0.15,-0.07,0.97,0,-0,-0,0.99,1.13,87,4058,0.0,2.08,,10.41,1.075,88.0,,36.9,5,,,,,,,,,,,,0,0,0,0,0,0,0,0,0,0,0,0,0,0,0,0,,,,,,0.0,,,,,,,,,,,,,,,
3466903,1745297719066,0.01,,,,,,,,,,,,,,,,,,,,,,,0,0,0,0,0.0,0.0,0.0,0.0,2.26,,,0,0,0,0,0,0,0,0,0,0,0,0,0,0,0,0,,0,,,,,38.986023,-76.95002,0.04,48.6,33,3,0.8,0,0.0,-1,0.0,,0,0.0,0.01
3466923,1745297719086,0.0103,0.0,-95,,-0.15,-0.07,0.95,0,-0,-0,0.96,1.13,85,3801,0.1,2.17,,10.68,1.097,88.0,,36.9,5,,,,,,,,,,,,0,0,0,0,0,0,0,0,0,0,0,0,0,0,0,0,,,,,,0.0,,,,,,,,,,,,,,,
3466943,1745297719106,0.0106,,,,,,,,,,,,,,,,,,,,,,,,,,,,,,,,,,0,0,0,0,0,0,0,0,0,0,0,0,0,0,0,0,,,,,,,,,,,,,,,,,,,,,
3466963,1745297719126,0.011,0.0,-72,,-0.16,-0.07,1.0,0,-0,-0,1.02,1.13,90,3580,1.2,3.35,,11.12,1.147,88.0,,31.5,5,,,,,,,,,,,,0,0,0,0,0,0,0,0,0,0,0,0,0,0,0,0,,,,,,0.0,,,,,,,,,,,,,,,
3466983,1745297719146,0.0113,,,,,,,,,,,,,,,,,,,,,,,,,,,,,,,,,,0,0,0,0,0,0,0,0,0,0,0,0,0,0,0,0,,,,,,,,,,,,,,,,,,,,,
3467003,1745297719166,0.0116,0.0,-80,,-0.13,0.08,0.98,-0,-0,0,1.0,1.13,88,3378,1.4,3.45,,11.12,1.147,86.2,,31.5,5,0,0,0,0,0.0,0.0,0.0,0.0,2.26,,,0,0,0,0,0,0,0,0,0,0,0,0,0,0,0,0,,0,,,,0.0,38.986023,-76.95002,0.04,48.6,33,3,0.8,0,0.0,-1,0.0,0.0,0,0.0,0.0116
3467023,1745297719192,0.012,,,,,,,,,,,,,,,,,,,,,,,,,,,,,,,,,,0,0,0,0,0,0,0,0,0,0,0,0,0,0,0,0,,,,,,,,,,,,,,,,,,,,,
3467043,1745297719212,0.0123,0.0,-80,,-0.14,-0.03,1.03,-0,-0,-0,1.04,1.13,92,3378,1.4,3.45,,11.53,1.225,86.2,,28.7,5,,,,,,,,,,,,0,0,0,0,0,0,0,0,0,0,0,0,0,0,0,0,,,,,,0.0,,,,,,,,,,,,,,,
3467063,1745297719232,0.0126,,,,,,,,,,,,,,,,,,,,,,,,,,,,,,,,,,0,0,0,0,0,0,0,0,0,0,0,0,0,0,0,0,,,,,,,,,,,,,,,,,,,,,
3467083,1745297719252,0.013,0.0,-68,,-0.15,0.0,0.95,0,-0,-0,0.96,1.13,85,3275,0.0,3.17,,11.58,1.252,86.2,,28.7,5,,,,,,,,,,,,0,0,0,0,0,0,0,0,0,0,0,0,0,0,0,0,,,,,,0.0,,,,,,,,,,,,,,,
3467103,1745297719272,0.0133,,,,,,,,,,,,,,,,,,,,,,,0,0,0,0,0.0,0.0,0.0,0.0,2.26,,,0,0,0,0,0,0,0,0,0,0,0,0,0,0,0,0,,0,,,,,38.986023,-76.95002,0.08,48.6,33,3,0.8,0,0.0,-1,0.0,,0,0.0,0.0133
3467123,1745297719294,0.0136,0.0,-83,,-0.12,0.06,0.91,0,-0,-0,0.92,1.13,82,3185,0.0,3.24,,11.68,1.252,86.2,,28.7,5,,,,,,,,,,,,0,0,0,0,0,0,0,0,0,0,0,0,0,0,0,0,,,,,,0.0,,,,,,,,,,,,,,,
3467143,1745297719314,0.014,,,,,,,,,,,,,,,,,,,,,,,,,,,,,,,,,,0,0,0,0,0,0,0,0,0,0,0,0,0,0,0,0,,,,,,,,,,,,,,,,,,,,,
3467163,1745297719334,0.0143,0.0,-68,,-0.1,0.09,0.88,0,-0,0,0.89,1.13,79,2997,0.0,3.28,,11.83,1.252,86.2,,26.3,5,,,,,,,,,,,,0,0,0,0,0,0,0,0,0,0,0,0,0,0,0,0,,,,,,0.0,,,,,,,,,,,,,,,
3467183,1745297719354,0.0146,,,,,,,,,,,,,,,,,,,,,,,,,,,,,,,,,,0,0,0,0,0,0,0,0,0,0,0,0,0,0,0,0,,,,,,,,,,,,,,,,,,,,,
3467203,1745297719374,0.015,0.0,-68,,-0.09,0.09,0.84,0,-0,-0,0.85,1.13,76,2894,0.0,3.33,,11.83,1.252,86.2,,26.3,5,0,0,0,0,0.0,0.0,0.0,0.0,2.25,,,0,0,0,0,0,0,0,0,0,0,0,0,0,0,0,0,,0,,,,0.0,38.986023,-76.95002,0.05,48.6,33,3,0.8,0,0.0,-1,0.0,0.0,0,0.0,0.015
3467223,1745297719395,0.0153,,,,,,,,,,,,,,,,,,,,,,,,,,,,,,,,,,0,0,0,0,0,0,0,0,0,0,0,0,0,0,0,0,,,,,,,,,,,,,,,,,,,,,
3467243,1745297719415,0.0156,0.0,-72,,-0.11,0.04,0.87,1,-0,-0,0.88,1.13,78,2894,0.0,3.33,,11.97,1.252,86.2,,23.9,5,,,,,,,,,,,,0,0,0,0,0,0,0,0,0,0,0,0,0,0,0,0,,,,,,0.0,,,,,,,,,,,,,,,
3467263,1745297719435,0.016,,,,,,,,,,,,,,,,,,,,,,,,,,,,,,,,,,0,0,0,0,0,0,0,0,0,0,0,0,0,0,0,0,,,,,,,,,,,,,,,,,,,,,
3467283,1745297719455,0.0163,0.0,-68,,-0.11,0.04,0.91,0,-0,-0,0.92,1.13,82,2777,10.4,4.58,,12.68,1.231,86.2,,23.9,5,,,,,,,,,,,,0,0,0,0,0,0,0,0,0,0,0,0,0,0,0,0,,,,,,0.0,,,,,,,,,,,,,,,
3467303,1745297719475,0.0166,,,,,,,,,,,,,,,,,,,,,,,0,0,0,0,0.0,0.0,0.0,0.0,2.26,,,0,0,0,0,0,0,0,0,0,0,0,0,0,0,0,0,,0,,,,,38.986023,-76.95002,0.0,48.6,33,3,0.8,0,0.0,-1,0.0,,0,0.0,0.0166
3467323,1745297719493,0.017,0.0,-83,,-0.11,0.05,0.89,1,-0,-0,0.9,1.13,80,2743,19.3,5.25,,13.65,1.182,86.2,,23.9,5,,,,,,,,,,,,0,0,0,0,0,0,0,0,0,0,0,0,0,0,0,0,,,,,,0.0,,,,,,,,,,,,,,,
3467343,1745297719513,0.0173,,,,,,,,,,,,,,,,,,,,,,,,,,,,,,,,,,0,0,0,0,0,0,0,0,0,0,0,0,0,0,0,0,,,,,,,,,,,,,,,,,,,,,
3467363,1745297719533,0.0176,0.0,-72,,-0.12,0.02,0.9,1,-0,-0,0.91,1.13,80,2811,22.7,5.32,,14.07,1.169,86.2,,22.4,5,,,,,,,,,,,,0,0,0,0,0,0,0,0,0,0,0,0,0,0,0,0,,,,,,0.0,,,,,,,,,,,,,,,
3467383,1745297719553,0.018,,,,,,,,,,,,,,,,,,,,,,,,,,,,,,,,,,0,0,0,0,0,0,0,0,0,0,0,0,0,0,0,0,,,,,,,,,,,,,,,,,,,,,
3467403,1745297719573,0.0183,0.0,-80,13.43,-0.15,-0.02,0.87,1,-0,-1,0.88,1.13,78,3054,22.8,5.07,15,14.07,1.169,86.2,164,22.4,5,0,0,0,0,0.0,0.0,0.0,0.0,2.26,0,1.0,0,0,0,0,0,0,0,0,0,0,0,0,0,0,0,0,0,0,1.0,0,0,0.0,38.986023,-76.95002,0.04,48.6,33,3,0.8,0,0.0,-1,0.0,0.0,0,0.0,0.0183
3467423,1745297719595,0.0187,,,,,,,,,,,,,,,,,,,,,,,,,,,,,,,,,,0,0,0,0,0,0,0,0,0,0,0,0,0,0,0,0,,,,,,,,,,,,,,,,,,,,,
3467443,1745297719615,0.019,0.0,-83,,-0.12,0.07,0.87,1,-0,-0,0.88,1.13,78,3054,22.8,5.07,,14.04,1.15,86.2,,27.2,5,,,,,,,,,,,,0,0,0,0,0,0,0,0,0,0,0,0,0,0,0,0,,,,,,0.0,,,,,,,,,,,,,,,
3467463,1745297719635,0.0193,,,,,,,,,,,,,,,,,,,,,,,,,,,,,,,,,,0,0,0,0,0,0,0,0,0,0,0,0,0,0,0,0,,,,,,,,,,,,,,,,,,,,,
3467483,1745297719655,0.0196,0.0,-64,,-0.11,-0.04,0.88,1,-0,-1,0.89,1.13,79,3421,22.8,5.04,,13.99,1.126,86.2,,27.2,5,,,,,,,,,,,,0,0,0,0,0,0,0,0,0,0,0,0,0,0,0,0,,,,,,0.0,,,,,,,,,,,,,,,
3467503,1745297719675,0.02,,,,,,,,,,,,,,,,,,,,,,,0,0,0,0,0.0,0.0,0.0,0.0,2.25,,,0,0,0,0,0,0,0,0,0,0,0,0,0,0,0,0,,0,,,,,38.986023,-76.95002,0.04,48.6,33,3,0.8,0,0.0,-1,0.0,,0,0.0,0.02
3467523,1745297719693,0.0203,0.0,-83,,-0.11,-0.1,0.87,1,-0,-1,0.88,1.13,78,3578,22.9,5.03,,13.95,1.134,86.2,,27.2,5,,,,,,,,,,,,0,0,0,0,0,0,0,0,0,0,0,0,0,0,0,0,,,,,,0.0,,,,,,,,,,,,,,,
3467543,1745297719713,0.0206,,,,,,,,,,,,,,,,,,,,,,,,,,,,,,,,,,0,0,0,0,0,0,0,0,0,0,0,0,0,0,0,0,,,,,,,,,,,,,,,,,,,,,
3467563,1745297719733,0.021,0.0,-64,,-0.11,0.01,0.95,0,-0,-0,0.96,1.13,85,4004,22.8,4.98,,13.77,1.142,86.2,,31.8,5,,,,,,,,,,,,0,0,0,0,0,0,0,0,0,0,0,0,0,0,0,0,,,,,,0.0,,,,,,,,,,,,,,,
3467583,1745297719753,0.0213,,,,,,,,,,,,,,,,,,,,,,,,,,,,,,,,,,0,0,0,0,0,0,0,0,0,0,0,0,0,0,0,0,,,,,,,,,,,,,,,,,,,,,
3467603,1745297719773,0.0216,0.0,-72,,-0.14,-0.15,0.84,1,-0,-1,0.86,1.13,77,4114,19.4,4.88,,13.77,1.142,86.2,,31.8,5,0,0,0,0,0.0,0.0,0.0,0.0,2.26,,,0,0,0,0,0,0,0,0,0,0,0,0,0,0,0,0,,0,,,,0.0,38.986023,-76.95002,0.08,48.6,33,3,0.8,0,0.0,-1,0.0,0.0,0,0.0,0.0216
3467623,1745297719795,0.022,,,,,,,,,,,,,,,,,,,,,,,,,,,,,,,,,,0,0,0,0,0,0,0,0,0,0,0,0,0,0,0,0,,,,,,,,,,,,,,,,,,,,,
3467643,1745297719815,0.0223,0.0,-76,,-0.17,-0.05,0.92,-0,-0,-0,0.93,1.13,83,4114,19.4,4.88,,13.65,1.152,86.2,,36.5,5,,,,,,,,,,,,0,0,0,0,0,0,0,0,0,0,0,0,0,0,0,0,,,,,,0.0,,,,,,,,,,,,,,,
3467663,1745297719835,0.0226,,,,,,,,,,,,,,,,,,,,,,,,,,,,,,,,,,0,0,0,0,0,0,0,0,0,0,0,0,0,0,0,0,,,,,,,,,,,,,,,,,,,,,
3467683,1745297719855,0.023,0.0,-68,,-0.16,0.05,1.05,-1,-0,0,1.06,1.13,94,4358,6.1,4.22,,12.93,1.11,86.2,,36.5,5,,,,,,,,,,,,0,0,0,0,0,0,0,0,0,0,0,0,0,0,0,0,,,,,,0.0,,,,,,,,,,,,,,,
3467703,1745297719875,0.0233,,,,,,,,,,,,,,,,,,,,,,,0,0,0,0,0.0,0.0,0.0,0.0,2.25,,,0,0,0,0,0,0,0,0,0,0,0,0,0,0,0,0,,0,,,,,38.986023,-76.95002,0.0,48.7,33,3,0.8,0,0.0,-1,0.0,,0,0.0,0.0233
3467723,1745297719893,0.0236,0.0,-72,,-0.13,0.07,1.05,-0,-0,0,1.06,1.13,94,4379,0.0,2.82,,12.16,1.091,86.2,,36.5,5,,,,,,,,,,,,0,0,0,0,0,0,0,0,0,0,0,0,0,0,0,0,,,,,,0.0,,,,,,,,,,,,,,,
3467743,1745297719913,0.024,,,,,,,,,,,,,,,,,,,,,,,,,,,,,,,,,,0,0,0,0,0,0,0,0,0,0,0,0,0,0,0,0,,,,,,,,,,,,,,,,,,,,,
3467763,1745297719933,0.0243,0.0,-61,,-0.1,-0.05,0.94,0,-0,-0,0.95,1.13,84,4307,0.0,2.78,,11.67,1.088,86.2,,37.5,5,,,,,,,,,,,,0,0,0,0,0,0,0,0,0,0,0,0,0,0,0,0,,,,,,0.0,,,,,,,,,,,,,,,
3467783,1745297719953,0.0246,,,,,,,,,,,,,,,,,,,,,,,,,,,,,,,,,,0,0,0,0,0,0,0,0,0,0,0,0,0,0,0,0,,,,,,,,,,,,,,,,,,,,,
3467803,1745297719973,0.025,0.0,-64,,-0.12,0.06,1.04,-1,-0,0,1.05,1.13,93,4191,0.0,2.75,,11.67,1.088,86.2,,37.5,5,0,0,0,0,0.0,0.0,0.0,0.0,2.25,,,0,0,0,0,0,0,0,0,0,0,0,0,0,0,0,0,,0,,,,0.0,38.986023,-76.95002,0.21,48.7,33,3,0.8,0,0.0,-1,0.0,0.0,0,0.0,0.025
3467823,1745297719993,0.0253,,,,,,,,,,,,,,,,,,,,,,,,,,,,,,,,,,0,0,0,0,0,0,0,0,0,0,0,0,0,0,0,0,,,,,,,,,,,,,,,,,,,,,
3467843,1745297720007,0.0256,0.0,-64,,-0.09,-0.02,0.99,0,-0,-0,1.0,1.13,88,4191,0.0,2.75,,11.38,1.066,86.2,,36.0,5,,,,,,,,,,,,0,0,0,0,0,0,0,0,0,0,0,0,0,0,0,0,,,,,,0.0,,,,,,,,,,,,,,,
3467863,1745297720027,0.026,,,,,,,,,,,,,,,,,,,,,,,,,,,,,,,,,,0,0,0,0,0,0,0,0,0,0,0,0,0,0,0,0,,,,,,,,,,,,,,,,,,,,,
3467883,1745297720047,0.0263,0.0,-61,,-0.09,0.07,1.09,-1,-0,0,1.1,1.13,97,4063,0.0,2.74,,11.17,1.089,86.2,,36.0,5,,,,,,,,,,,,0,0,0,0,0,0,0,0,0,0,0,0,0,0,0,0,,,,,,0.0,,,,,,,,,,,,,,,
3467903,1745297720067,0.0266,,,,,,,,,,,,,,,,,,,,,,,0,0,0,0,0.0,0.0,0.0,0.0,2.26,,,0,0,0,0,0,0,0,0,0,0,0,0,0,0,0,0,,0,,,,,38.986023,-76.95002,0.16,48.7,33,3,0.8,0,0.0,-1,0.0,,0,0.0,0.0266
3467923,1745297720087,0.027,0.0,-72,,-0.11,-0.08,1.0,0,-0,-0,1.0,1.13,89,4124,0.0,2.75,,10.98,1.15,86.2,,36.0,5,,,,,,,,,,,,0,0,0,0,0,0,0,0,0,0,0,0,0,0,0,0,,,,,,0.0,,,,,,,,,,,,,,,
3467943,1745297720109,0.0273,,,,,,,,,,,,,,,,,,,,,,,,,,,,,,,,,,0,0,0,0,0,0,0,0,0,0,0,0,0,0,0,0,,,,,,,,,,,,,,,,,,,,,
3467963,1745297720129,0.0276,0.0,-57,,-0.1,-0.02,1.01,1,-0,-0,1.02,1.13,90,3962,0.0,2.66,,10.9,1.221,86.2,,35.0,5,,,,,,,,,,,,0,0,0,0,0,0,0,0,0,0,0,0,0,0,0,0,,,,,,0.0,,,,,,,,,,,,,,,
3467983,1745297720149,0.028,,,,,,,,,,,,,,,,,,,,,,,,,,,,,,,,,,0,0,0,0,0,0,0,0,0,0,0,0,0,0,0,0,,,,,,,,,,,,,,,,,,,,,
3468003,1745297720169,0.0283,0.0,-68,,-0.1,0.04,1.08,-0,-0,0,1.09,1.13,97,3926,0.0,2.74,,10.9,1.221,86.2,,35.0,5,0,0,0,0,0.0,0.0,0.0,0.0,2.26,,,0,0,0,0,0,0,0,0,0,0,0,0,0,0,0,0,,0,,,,0.0,38.986023,-76.95002,0.0,48.7,33,3,0.8,0,0.0,-1,0.0,0.0,0,0.0,0.0283
3468023,1745297720207,0.0286,,,,,,,,,,,,,,,,,,,,,,,,,,,,,,,,,,0,0,0,0,0,0,0,0,0,0,0,0,0,0,0,0,,,,,,,,,,,,,,,,,,,,,
3468043,1745297720299,0.029,0.0,-53,,-0.12,-0.0,1.1,-0,-0,0,1.11,1.13,98,3742,0.0,2.81,,11.06,1.171,86.2,,31.4,5,,,,,,,,,,,,0,0,0,0,0,0,0,0,0,0,0,0,0,0,0,0,,,,,,0.0,,,,,,,,,,,,,,,
3468063,1745297720319,0.0293,,,,,,,,,,,,,,,,,,,,,,,,,,,,,,,,,,0,0,0,0,0,0,0,0,0,0,0,0,0,0,0,0,,,,,,,,,,,,,,,,,,,,,
3468083,1745297720339,0.0296,0.0,-68,,-0.11,0.0,1.11,-1,-0,0,1.12,1.13,99,3669,3.3,3.59,,11.52,1.109,86.2,,31.4,5,,,,,,,,,,,,0,0,0,0,0,0,0,0,0,0,0,0,0,0,0,0,,,,,,0.0,,,,,,,,,,,,,,,
3468103,1745297720359,0.03,,,,,,,,,,,,,,,,,,,,,,,0,0,0,0,0.0,0.0,0.0,0.0,2.26,,,0,0,0,0,0,0,0,0,0,0,0,0,0,0,0,0,,0,,,,,38.986023,-76.95002,0.26,48.7,33,3,0.8,0,0.0,-1,0.0,,0,0.0,0.03
3468123,1745297720379,0.0303,0.0,-68,,-0.11,0.03,1.09,-1,-0,1,1.1,1.13,98,3661,4.8,3.98,,11.97,1.097,86.2,,31.4,5,,,,,,,,,,,,0,0,0,0,0,0,0,0,0,0,0,0,0,0,0,0,,,,,,0.0,,,,,,,,,,,,,,,
3468143,1745297720398,0.0306,,,,,,,,,,,,,,,,,,,,,,,,,,,,,,,,,,0,0,0,0,0,0,0,0,0,0,0,0,0,0,0,0,,,,,,,,,,,,,,,,,,,,,
3468163,1745297720418,0.031,0.0,-68,,-0.1,0.02,1.09,-1,-0,1,1.1,1.13,97,3774,5.5,4.01,,11.97,1.097,86.2,,31.5,5,,,,,,,,,,,,0,0,0,0,0,0,0,0,0,0,0,0,0,0,0,0,,,,,,0.0,,,,,,,,,,,,,,,
3468183,1745297720438,0.0313,,,,,,,,,,,,,,,,,,,,,,,,,,,,,,,,,,0,0,0,0,0,0,0,0,0,0,0,0,0,0,0,0,,,,,,,,,,,,,,,,,,,,,
3468203,1745297720458,0.0316,0.0,-53,,-0.09,0.03,1.08,-0,-0,1,1.08,1.13,96,3774,5.5,4.01,,12.19,1.192,86.2,,31.5,5,0,0,0,0,0.0,0.0,0.0,0.0,2.26,,,0,0,0,0,0,0,0,0,0,0,0,0,0,0,0,0,,0,,,,0.0,38.986023,-76.95002,0.04,48.7,33,3,0.8,0,0.0,-1,0.0,0.0,0,0.0,0.0316
3468223,1745297720478,0.032,,,,,,,,,,,,,,,,,,,,,,,,,,,,,,,,,,0,0,0,0,0,0,0,0,0,0,0,0,0,0,0,0,,,,,,,,,,,,,,,,,,,,,
3468243,1745297720498,0.0323,0.0,-57,,-0.08,0.03,1.07,-0,-0,1,1.07,1.13,95,3716,4.4,3.99,,12.28,1.118,86.2,,31.0,5,,,,,,,,,,,,0,0,0,0,0,0,0,0,0,0,0,0,0,0,0,0,,,,,,0.0,,,,,,,,,,,,,,,
3468263,1745297720518,0.0326,,,,,,,,,,,,,,,,,,,,,,,,,,,,,,,,,,0,0,0,0,0,0,0,0,0,0,0,0,0,0,0,0,,,,,,,,,,,,,,,,,,,,,
3468283,1745297720538,0.033,0.0,-61,,-0.07,0.05,1.06,-0,-0,0,1.06,1.13,94,3634,0.0,2.87,,11.91,0.989,86.2,,31.0,5,,,,,,,,,,,,0,0,0,0,0,0,0,0,0,0,0,0,0,0,0,0,,,,,,0.0,,,,,,,,,,,,,,,
3468303,1745297720558,0.0333,,,,,,,,,,,,,,,,,,,,,,,0,0,0,0,0.0,0.0,0.0,0.0,2.26,,,0,0,0,0,0,0,0,0,0,0,0,0,0,0,0,0,,0,,,,,38.986023,-76.95002,0.31,48.7,33,3,0.8,0,0.0,-1,0.0,,0,0.0,0.0333
3468323,1745297720578,0.0336,0.0,-68,,-0.08,-0.04,1.01,0,-0,-0,1.01,1.13,90,3545,0.0,2.9,,11.76,0.974,86.2,,31.0,5,,,,,,,,,,,,0,0,0,0,0,0,0,0,0,0,0,0,0,0,0,0,,,,,,0.0,,,,,,,,,,,,,,,
3468343,1745297720598,0.034,,,,,,,,,,,,,,,,,,,,,,,,,,,,,,,,,,0,0,0,0,0,0,0,0,0,0,0,0,0,0,0,0,,,,,,,,,,,,,,,,,,,,,
3468363,1745297720618,0.0343,0.0,-57,,-0.08,-0.08,1.08,0,-0,0,1.08,1.13,96,3450,0.0,2.92,,11.76,0.974,86.2,,29.6,5,,,,,,,,,,,,0,0,0,0,0,0,0,0,0,0,0,0,0,0,0,0,,,,,,0.0,,,,,,,,,,,,,,,
3468383,1745297720638,0.0347,,,,,,,,,,,,,,,,,,,,,,,,,,,,,,,,,,0,0,0,0,0,0,0,0,0,0,0,0,0,0,0,0,,,,,,,,,,,,,,,,,,,,,
3468403,1745297720658,0.035,0.0,-38,13.48,-0.08,-0.1,0.99,0,-0,-0,1.0,1.13,89,3450,0.0,2.92,15,11.73,1.011,86.2,165,29.6,5,0,0,0,0,0.0,0.0,0.0,0.0,2.26,0,1.0,0,0,0,0,0,0,0,0,0,0,0,0,0,0,0,0,0,0,1.0,0,0,0.0,38.986023,-76.95002,0.31,48.7,33,3,0.8,0,0.0,-1,0.0,0.0,0,0.0,0.035
3468423,1745297720678,0.0353,,,,,,,,,,,,,,,,,,,,,,,,,,,,,,,,,,0,0,0,0,0,0,0,0,0,0,0,0,0,0,0,0,,,,,,,,,,,,,,,,,,,,,
3468443,1745297720698,0.0356,0.0,-46,,-0.06,-0.05,1.02,-0,-0,0,1.02,1.13,90,3288,0.0,2.98,,11.79,1.061,86.2,,27.2,5,,,,,,,,,,,,0,0,0,0,0,0,0,0,0,0,0,0,0,0,0,0,,,,,,0.0,,,,,,,,,,,,,,,
3468463,1745297720718,0.036,,,,,,,,,,,,,,,,,,,,,,,,,,,,,,,,,,0,0,0,0,0,0,0,0,0,0,0,0,0,0,0,0,,,,,,,,,,,,,,,,,,,,,
3468483,1745297720738,0.0363,0.0,-53,,-0.06,-0.12,1.09,-0,-0,0,1.1,1.13,97,3186,0.0,3.05,,11.81,1.108,86.2,,27.2,5,,,,,,,,,,,,0,0,0,0,0,0,0,0,0,0,0,0,0,0,0,0,,,,,,0.0,,,,,,,,,,,,,,,
3468503,1745297720758,0.0366,,,,,,,,,,,,,,,,,,,,,,,0,0,0,0,0.0,0.0,0.0,0.0,2.26,,,0,0,0,0,0,0,0,0,0,0,0,0,0,0,0,0,,0,,,,,38.986023,-76.95002,0.12,48.7,33,3,0.8,0,0.0,-1,0.0,,0,0.0,0.0366
3468523,1745297720778,0.037,0.0,-46,,-0.07,-0.15,1.13,-0,-0,0,1.15,1.15,100,3088,0.0,3.08,,11.95,1.133,86.2,,27.2,5,,,,,,,,,,,,0,0,0,0,0,0,0,0,0,0,0,0,0,0,0,0,,,,,,0.0,,,,,,,,,,,,,,,
3468543,1745297720798,0.0373,,,,,,,,,,,,,,,,,,,,,,,,,,,,,,,,,,0,0,0,0,0,0,0,0,0,0,0,0,0,0,0,0,,,,,,,,,,,,,,,,,,,,,
3468563,1745297720818,0.0376,0.0,-57,,-0.07,-0.15,1.17,-0,-0,0,1.18,1.18,100,2900,0.5,3.13,,11.95,1.133,86.2,,25.1,5,,,,,,,,,,,,0,0,0,0,0,0,0,0,0,0,0,0,0,0,0,0,,,,,,0.0,,,,,,,,,,,,,,,
3468583,1745297720838,0.038,,,,,,,,,,,,,,,,,,,,,,,,,,,,,,,,,,0,0,0,0,0,0,0,0,0,0,0,0,0,0,0,0,,,,,,,,,,,,,,,,,,,,,
3468603,1745297720858,0.0383,0.0,-57,,-0.06,-0.14,1.17,-0,-0,1,1.18,1.18,99,2900,0.5,3.13,,12.28,1.157,86.2,,25.1,5,0,0,0,0,0.0,0.0,0.0,0.0,2.26,,,0,0,0,0,0,0,0,0,0,0,0,0,0,0,0,0,,0,,,,0.0,38.986023,-76.95002,0.18,48.7,33,3,0.8,0,0.0,-1,0.0,0.0,0,0.0,0.0383
3468623,1745297720878,0.0386,,,,,,,,,,,,,,,,,,,,,,,,,,,,,,,,,,0,0,0,0,0,0,0,0,0,0,0,0,0,0,0,0,,,,,,,,,,,,,,,,,,,,,
3468643,1745297720898,0.039,0.0,-46,,-0.04,-0.09,1.11,-0,-0,1,1.12,1.18,94,2818,2.3,3.53,,12.63,1.155,86.2,,23.4,5,,,,,,,,,,,,0,0,0,0,0,0,0,0,0,0,0,0,0,0,0,0,,,,,,0.0,,,,,,,,,,,,,,,
3468663,1745297720918,0.0393,,,,,,,,,,,,,,,,,,,,,,,,,,,,,,,,,,0,0,0,0,0,0,0,0,0,0,0,0,0,0,0,0,,,,,,,,,,,,,,,,,,,,,
3468683,1745297720938,0.0396,0.0,-46,,-0.05,-0.1,1.09,-0,-0,0,1.09,1.18,92,2770,3.0,3.71,,12.88,1.173,86.2,,23.4,5,,,,,,,,,,,,0,0,0,0,0,0,0,0,0,0,0,0,0,0,0,0,,,,,,0.0,,,,,,,,,,,,,,,
3468703,1745297720958,0.04,,,,,,,,,,,,,,,,,,,,,,,0,0,0,0,0.0,0.0,0.0,0.0,2.26,,,0,0,0,0,0,0,0,0,0,0,0,0,0,0,0,0,,0,,,,,38.986023,-76.95002,0.1,48.7,33,3,0.8,0,0.0,-1,0.0,,0,0.0,0.04
3468723,1745297720978,0.0403,0.0,-53,,-0.05,-0.09,1.09,-0,-0,0,1.09,1.18,92,2722,7.5,4.01,,13.23,1.172,86.2,,23.4,5,,,,,,,,,,,,0,0,0,0,0,0,0,0,0,0,0,0,0,0,0,0,,,,,,0.0,,,,,,,,,,,,,,,
3468743,1745297720998,0.0406,,,,,,,,,,,,,,,,,,,,,,,,,,,,,,,,,,0,0,0,0,0,0,0,0,0,0,0,0,0,0,0,0,,,,,,,,,,,,,,,,,,,,,
3468763,1745297721010,0.041,0.0,-57,,-0.04,-0.06,1.03,-0,-0,0,1.04,1.18,88,2782,9.4,4.07,,13.23,1.172,86.2,,22.3,5,,,,,,,,,,,,0,0,0,0,0,0,0,0,0,0,0,0,0,0,0,0,,,,,,0.0,,,,,,,,,,,,,,,
3468783,1745297721030,0.0413,,,,,,,,,,,,,,,,,,,,,,,,,,,,,,,,,,0,0,0,0,0,0,0,0,0,0,0,0,0,0,0,0,,,,,,,,,,,,,,,,,,,,,
3468803,1745297721050,0.0416,0.0,-46,,-0.06,-0.09,1.06,-0,-0,0,1.07,1.18,90,2782,9.4,4.07,,13.51,1.165,86.2,,22.3,5,0,0,0,0,0.0,0.0,0.0,0.0,2.26,,,0,0,0,0,0,0,0,0,0,0,0,0,0,0,0,0,,0,,,,0.0,38.986023,-76.95002,0.04,48.7,33,3,0.8,0,0.0,-1,0.0,0.0,0,0.0,0.0416
3468823,1745297721070,0.042,,,,,,,,,,,,,,,,,,,,,,,,,,,,,,,,,,0,0,0,0,0,0,0,0,0,0,0,0,0,0,0,0,,,,,,,,,,,,,,,,,,,,,
3468843,1745297721096,0.0423,0.0,-49,,-0.07,-0.11,1.11,-0,-0,0,1.12,1.18,95,2824,11.7,4.14,,13.68,1.176,86.2,,24.0,5,,,,,,,,,,,,0,0,0,0,0,0,0,0,0,0,0,0,0,0,0,0,,,,,,0.0,,,,,,,,,,,,,,,
3468863,1745297721116,0.0426,,,,,,,,,,,,,,,,,,,,,,,,,,,,,,,,,,0,0,0,0,0,0,0,0,0,0,0,0,0,0,0,0,,,,,,,,,,,,,,,,,,,,,
3468883,1745297721136,0.043,0.0,-57,,-0.08,-0.14,1.16,0,-0,0,1.17,1.18,99,0,12.2,4.22,,13.67,1.164,86.2,,24.0,5,,,,,,,,,,,,0,0,0,0,0,0,0,0,0,0,0,0,0,0,0,0,,,,,,0.0,,,,,,,,,,,,,,,
3468903,1745297721156,0.0433,,,,,,,,,,,,,,,,,,,,,,,0,0,0,0,0.0,0.0,0.0,0.0,2.26,,,0,0,0,0,0,0,0,0,0,0,0,0,0,0,0,0,,0,,,,,38.986023,-76.95002,0.08,48.7,33,3,0.8,0,0.0,-1,0.0,,0,0.0,0.0433
3468923,1745297721176,0.0436,0.0,-46,,-0.07,-0.14,1.19,0,-0,0,1.2,1.2,100,2930,0.0,3.94,,13.29,1.17,86.2,,24.0,5,,,,,,,,,,,,0,0,0,0,0,0,0,0,0,0,0,0,0,0,0,0,,,,,,0.0,,,,,,,,,,,,,,,
3468943,1745297721198,0.044,,,,,,,,,,,,,,,,,,,,,,,,,,,,,,,,,,0,0,0,0,0,0,0,0,0,0,0,0,0,0,0,0,,,,,,,,,,,,,,,,,,,,,
3468963,1745297721218,0.0443,0.0,-57,,-0.05,-0.17,1.21,-0,-0,0,1.23,1.23,100,3044,0.0,3.43,,13.29,1.17,86.2,,24.5,5,,,,,,,,,,,,0,0,0,0,0,0,0,0,0,0,0,0,0,0,0,0,,,,,,0.0,,,,,,,,,,,,,,,
3468983,1745297721238,0.0446,,,,,,,,,,,,,,,,,,,,,,,,,,,,,,,,,,0,0,0,0,0,0,0,0,0,0,0,0,0,0,0,0,,,,,,,,,,,,,,,,,,,,,
3469003,1745297721258,0.045,0.0,-68,,-0.04,-0.18,1.23,-0,-0,1,1.24,1.24,100,3044,0.0,3.43,,12.91,1.207,86.2,,24.5,5,0,0,0,0,0.0,0.0,0.0,0.0,2.26,,,0,0,0,0,0,0,0,0,0,0,0,0,0,0,0,0,,0,,,,0.0,38.986023,-76.95002,0.05,48.7,33,3,0.8,0,0.0,-1,0.0,0.0,0,0.0,0.045
3469023,1745297721278,0.0453,,,,,,,,,,,,,,,,,,,,,,,,,,,,,,,,,,0,0,0,0,0,0,0,0,0,0,0,0,0,0,0,0,,,,,,,,,,,,,,,,,,,,,
3469043,1745297721300,0.0457,0.0,-53,,-0.02,-0.17,1.22,-0,-0,1,1.24,1.24,99,3003,0.0,3.4,,12.73,1.225,86.2,,24.5,5,,,,,,,,,,,,0,0,0,0,0,0,0,0,0,0,0,0,0,0,0,0,,,,,,0.0,,,,,,,,,,,,,,,
3469063,1745297721320,0.046,,,,,,,,,,,,,,,,,,,,,,,,,,,,,,,,,,0,0,0,0,0,0,0,0,0,0,0,0,0,0,0,0,,,,,,,,,,,,,,,,,,,,,
3469083,1745297721340,0.0463,0.0,-64,,-0.01,-0.12,1.2,-1,-0,1,1.21,1.24,97,2923,2.6,3.62,,12.81,1.243,86.2,,24.5,5,,,,,,,,,,,,0,0,0,0,0,0,0,0,0,0,0,0,0,0,0,0,,,,,,0.0,,,,,,,,,,,,,,,
3469103,1745297721360,0.0466,,,,,,,,,,,,,,,,,,,,,,,0,0,0,0,0.0,0.0,0.0,0.0,2.26,,,0,0,0,0,0,0,0,0,0,0,0,0,0,0,0,0,,0,,,,,38.986023,-76.95002,0.11,48.7,33,3,0.8,0,0.0,-1,0.0,,0,0.0,0.0466
3469123,1745297721380,0.047,0.0,-57,,0.02,-0.06,1.14,-1,-0,1,1.14,1.24,92,2892,9.0,4.43,,13.29,1.252,86.2,,24.5,5,,,,,,,,,,,,0,0,0,0,0,0,0,0,0,0,0,0,0,0,0,0,,,,,,0.0,,,,,,,,,,,,,,,
3469143,1745297721399,0.0473,,,,,,,,,,,,,,,,,,,,,,,,,,,,,,,,,,0,0,0,0,0,0,0,0,0,0,0,0,0,0,0,0,,,,,,,,,,,,,,,,,,,,,
3469163,1745297721419,0.0476,0.0,-61,,0.02,-0.03,1.04,-0,-0,1,1.04,1.24,84,2988,12.8,4.63,,13.29,1.252,86.2,,23.8,5,,,,,,,,,,,,0,0,0,0,0,0,0,0,0,0,0,0,0,0,0,0,,,,,,0.0,,,,,,,,,,,,,,,
3469183,1745297721439,0.048,,,,,,,,,,,,,,,,,,,,,,,,,,,,,,,,,,0,0,0,0,0,0,0,0,0,0,0,0,0,0,0,0,,,,,,,,,,,,,,,,,,,,,
3469203,1745297721459,0.0483,0.0,-53,,0.01,0.01,0.97,-0,-0,1,0.97,1.24,78,2988,12.8,4.63,,13.63,1.249,86.2,,23.8,5,0,0,0,0,0.0,0.0,0.0,0.0,2.25,,,0,0,0,0,0,0,0,0,0,0,0,0,0,0,0,0,,0,,,,0.0,38.986023,-76.95002,0.07,48.7,33,3,0.8,0,0.0,-1,0.0,0.0,0,0.0,0.0483
3469223,1745297721479,0.0486,,,,,,,,,,,,,,,,,,,,,,,,,,,,,,,,,,0,0,0,0,0,0,0,0,0,0,0,0,0,0,0,0,,,,,,,,,,,,,,,,,,,,,
3469243,1745297721499,0.049,0.0,-46,,-0.0,0.05,1.0,-1,-0,1,1.01,1.24,81,3140,13.7,4.67,,13.67,1.216,86.2,,26.4,5,,,,,,,,,,,,0,0,0,0,0,0,0,0,0,0,0,0,0,0,0,0,,,,,,0.0,,,,,,,,,,,,,,,
3469263,1745297721519,0.0493,,,,,,,,,,,,,,,,,,,,,,,,,,,,,,,,,,0,0,0,0,0,0,0,0,0,0,0,0,0,0,0,0,,,,,,,,,,,,,,,,,,,,,
3469283,1745297721539,0.0496,0.0,-61,,-0.01,0.01,0.97,-0,-0,0,0.97,1.24,78,3341,13.3,4.64,,13.63,1.179,86.2,,26.4,5,,,,,,,,,,,,0,0,0,0,0,0,0,0,0,0,0,0,0,0,0,0,,,,,,0.0,,,,,,,,,,,,,,,
3469303,1745297721559,0.05,,,,,,,,,,,,,,,,,,,,,,,0,0,0,0,0.0,0.0,0.0,0.0,2.26,,,0,0,0,0,0,0,0,0,0,0,0,0,0,0,0,0,,0,,,,,38.986023,-76.95002,0.04,48.7,33,3,0.8,0,0.0,-1,0.0,,0,0.0,0.05
3469323,1745297721579,0.0503,0.0,-49,,-0.03,-0.02,1.03,-0,-0,1,1.03,1.24,83,3534,0.0,3.49,,13.07,1.149,86.2,,26.4,5,,,,,,,,,,,,0,0,0,0,0,0,0,0,0,0,0,0,0,0,0,0,,,,,,0.0,,,,,,,,,,,,,,,
3469343,1745297721599,0.0506,,,,,,,,,,,,,,,,,,,,,,,,,,,,,,,,,,0,0,0,0,0,0,0,0,0,0,0,0,0,0,0,0,,,,,,,,,,,,,,,,,,,,,
3469363,1745297721619,0.051,0.0,-76,,-0.02,0.02,0.99,-0,-0,1,1.0,1.24,80,3474,0.0,3.13,,13.07,1.149,86.2,,29.4,5,,,,,,,,,,,,0,0,0,0,0,0,0,0,0,0,0,0,0,0,0,0,,,,,,0.0,,,,,,,,,,,,,,,
3469383,1745297721639,0.0513,,,,,,,,,,,,,,,,,,,,,,,,,,,,,,,,,,0,0,0,0,0,0,0,0,0,0,0,0,0,0,0,0,,,,,,,,,,,,,,,,,,,,,
3469403,1745297721659,0.0516,0.0,-57,13.54,-0.04,-0.05,0.98,0,-0,0,0.98,1.24,79,3474,0.0,3.13,15,12.53,1.131,86.2,167,29.4,5,0,0,0,0,0.0,0.0,0.0,0.0,2.26,0,1.0,0,0,0,0,0,0,0,0,0,0,0,0,0,0,0,0,0,0,1.0,0,0,0.0,38.986023,-76.95002,0.04,48.7,33,3,0.8,0,0.0,-1,0.0,0.0,0,0.0,0.0516
3469423,1745297721679,0.052,,,,,,,,,,,,,,,,,,,,,,,,,,,,,,,,,,0,0,0,0,0,0,0,0,0,0,0,0,0,0,0,0,,,,,,,,,,,,,,,,,,,,,
3469443,1745297721699,0.0523,0.0,-68,,-0.04,-0.04,1.02,-0,-0,1,1.02,1.24,82,3445,0.0,3.15,,12.32,1.124,86.2,,28.4,5,,,,,,,,,,,,0,0,0,0,0,0,0,0,0,0,0,0,0,0,0,0,,,,,,0.0,,,,,,,,,,,,,,,
3469463,1745297721719,0.0526,,,,,,,,,,,,,,,,,,,,,,,,,,,,,,,,,,0,0,0,0,0,0,0,0,0,0,0,0,0,0,0,0,,,,,,,,,,,,,,,,,,,,,
3469483,1745297721739,0.053,0.0,-53,,-0.05,-0.1,0.98,0,-0,0,0.99,1.24,79,3393,0.0,3.17,,12.21,1.106,86.2,,28.4,5,,,,,,,,,,,,0,0,0,0,0,0,0,0,0,0,0,0,0,0,0,0,,,,,,0.0,,,,,,,,,,,,,,,
3469503,1745297721759,0.0533,,,,,,,,,,,,,,,,,,,,,,,0,0,0,0,0.0,0.0,0.0,0.0,2.26,,,0,0,0,0,0,0,0,0,0,0,0,0,0,0,0,0,,0,,,,,38.986023,-76.95002,0.05,48.7,33,3,0.8,0,0.0,-1,0.0,,0,0.0,0.0533
3469523,1745297721779,0.0536,0.0,-57,,-0.04,-0.02,0.96,-0,-0,1,0.96,1.24,77,3235,0.0,3.21,,12.16,1.111,86.2,,28.4,5,,,,,,,,,,,,0,0,0,0,0,0,0,0,0,0,0,0,0,0,0,0,,,,,,0.0,,,,,,,,,,,,,,,
3469543,1745297721799,0.054,,,,,,,,,,,,,,,,,,,,,,,,,,,,,,,,,,0,0,0,0,0,0,0,0,0,0,0,0,0,0,0,0,,,,,,,,,,,,,,,,,,,,,
3469563,1745297721819,0.0543,0.0,-57,,-0.04,-0.07,1.03,-0,-0,1,1.03,1.24,83,3194,0.0,3.25,,12.16,1.111,86.2,,26.7,5,,,,,,,,,,,,0,0,0,0,0,0,0,0,0,0,0,0,0,0,0,0,,,,,,0.0,,,,,,,,,,,,,,,
3469583,1745297721839,0.0546,,,,,,,,,,,,,,,,,,,,,,,,,,,,,,,,,,0,0,0,0,0,0,0,0,0,0,0,0,0,0,0,0,,,,,,,,,,,,,,,,,,,,,
3469603,1745297721859,0.055,0.0,-53,,-0.06,-0.12,1.07,-0,-0,0,1.08,1.24,87,3194,0.0,3.25,,12.15,1.119,86.2,,26.7,5,0,0,0,0,0.0,0.0,0.0,0.0,2.26,,,0,0,0,0,0,0,0,0,0,0,0,0,0,0,0,0,,0,,,,0.0,38.986023,-76.95002,0.0,48.7,33,3,0.8,0,0.0,-1,0.0,0.0,0,0.0,0.055
3469623,1745297721879,0.0553,,,,,,,,,,,,,,,,,,,,,,,,,,,,,,,,,,0,0,0,0,0,0,0,0,0,0,0,0,0,0,0,0,,,,,,,,,,,,,,,,,,,,,
3469643,1745297721899,0.0556,0.0,-53,,-0.08,-0.12,1.08,-0,-0,0,1.09,1.24,88,3133,0.0,3.29,,12.15,1.136,86.2,,25.5,5,,,,,,,,,,,,0,0,0,0,0,0,0,0,0,0,0,0,0,0,0,0,,,,,,0.0,,,,,,,,,,,,,,,
3469663,1745297721919,0.056,,,,,,,,,,,,,,,,,,,,,,,,,,,,,,,,,,0,0,0,0,0,0,0,0,0,0,0,0,0,0,0,0,,,,,,,,,,,,,,,,,,,,,
3469683,1745297721939,0.0563,0.0,-68,,-0.1,-0.12,1.12,-0,-0,0,1.13,1.24,91,2956,0.0,3.33,,12.27,1.123,86.2,,25.5,5,,,,,,,,,,,,0,0,0,0,0,0,0,0,0,0,0,0,0,0,0,0,,,,,,0.0,,,,,,,,,,,,,,,
3469703,1745297721959,0.0566,,,,,,,,,,,,,,,,,,,,,,,0,0,0,0,0.0,0.0,0.0,0.0,2.26,,,0,0,0,0,0,0,0,0,0,0,0,0,0,0,0,0,,0,,,,,38.986023,-76.95002,0.04,48.7,33,3,0.8,0,0.0,-1,0.0,,0,0.0,0.0566
3469723,1745297721979,0.057,0.0,-64,,-0.1,-0.13,1.16,-0,-0,0,1.17,1.24,94,2863,0.0,3.38,,12.52,1.121,86.2,,25.5,5,,,,,,,,,,,,0,0,0,0,0,0,0,0,0,0,0,0,0,0,0,0,,,,,,0.0,,,,,,,,,,,,,,,
3469743,1745297721999,0.0573,,,,,,,,,,,,,,,,,,,,,,,,,,,,,,,,,,0,0,0,0,0,0,0,0,0,0,0,0,0,0,0,0,,,,,,,,,,,,,,,,,,,,,
3469763,1745297722009,0.0576,0.0,-57,,-0.09,-0.09,1.13,-0,-0,1,1.13,1.24,91,2809,0.3,3.53,,12.52,1.121,86.2,,23.6,5,,,,,,,,,,,,0,0,0,0,0,0,0,0,0,0,0,0,0,0,0,0,,,,,,0.0,,,,,,,,,,,,,,,
3469783,1745297722029,0.058,,,,,,,,,,,,,,,,,,,,,,,,,,,,,,,,,,0,0,0,0,0,0,0,0,0,0,0,0,0,0,0,0,,,,,,,,,,,,,,,,,,,,,
3469803,1745297722049,0.0583,0.0,-49,,-0.08,-0.07,1.08,-0,-0,0,1.09,1.24,88,2809,0.3,3.53,,12.65,1.118,86.2,,23.6,5,0,0,0,0,0.0,0.0,0.0,0.0,2.26,,,0,0,0,0,0,0,0,0,0,0,0,0,0,0,0,0,,0,,,,0.0,38.986019,-76.95002,0.0,48.7,33,3,0.8,0,0.0,-1,0.0,0.0,0,0.0,0.0583
3469823,1745297722069,0.0586,,,,,,,,,,,,,,,,,,,,,,,,,,,,,,,,,,0,0,0,0,0,0,0,0,0,0,0,0,0,0,0,0,,,,,,,,,,,,,,,,,,,,,
3469843,1745297722097,0.059,0.0,-46,,-0.08,-0.09,1.1,-0,-0,0,1.1,1.24,89,2763,0.7,3.59,,12.8,1.115,86.2,,22.3,5,,,,,,,,,,,,0,0,0,0,0,0,0,0,0,0,0,0,0,0,0,0,,,,,,0.0,,,,,,,,,,,,,,,
3469863,1745297722117,0.0593,,,,,,,,,,,,,,,,,,,,,,,,,,,,,,,,,,0,0,0,0,0,0,0,0,0,0,0,0,0,0,0,0,,,,,,,,,,,,,,,,,,,,,
3469883,1745297722137,0.0596,0.0,-61,,-0.07,-0.07,1.05,-0,-0,0,1.06,1.24,85,2695,0.7,3.62,,12.95,1.118,86.2,,22.3,5,,,,,,,,,,,,0,0,0,0,0,0,0,0,0,0,0,0,0,0,0,0,,,,,,0.0,,,,,,,,,,,,,,,
3469903,1745297722157,0.06,,,,,,,,,,,,,,,,,,,,,,,0,0,0,0,0.0,0.0,0.0,0.0,2.26,,,0,0,0,0,0,0,0,0,0,0,0,0,0,0,0,0,,0,,,,,38.986019,-76.95002,0.09,48.7,33,3,0.8,0,0.0,-1,0.0,,0,0.0,0.06
3469923,1745297722177,0.0603,0.0,-42,,-0.08,-0.07,1.07,0,-0,0,1.08,1.24,87,2681,0.8,3.68,,12.97,1.12,86.2,,22.3,5,,,,,,,,,,,,0,0,0,0,0,0,0,0,0,0,0,0,0,0,0,0,,,,,,0.0,,,,,,,,,,,,,,,
3469943,1745297722195,0.0606,,,,,,,,,,,,,,,,,,,,,,,,,,,,,,,,,,0,0,0,0,0,0,0,0,0,0,0,0,0,0,0,0,,,,,,,,,,,,,,,,,,,,,
3469963,1745297722215,0.061,0.0,-68,,-0.08,-0.05,1.05,-0,-0,0,1.05,1.24,85,2635,0.7,3.68,,12.97,1.12,86.2,,22.1,5,,,,,,,,,,,,0,0,0,0,0,0,0,0,0,0,0,0,0,0,0,0,,,,,,0.0,,,,,,,,,,,,,,,
3469983,1745297722235,0.0613,,,,,,,,,,,,,,,,,,,,,,,,,,,,,,,,,,0,0,0,0,0,0,0,0,0,0,0,0,0,0,0,0,,,,,,,,,,,,,,,,,,,,,
3470003,1745297722255,0.0616,0.0,-72,,-0.08,-0.05,1.05,-0,-0,0,1.06,1.24,85,2635,0.7,3.68,,13.05,1.12,86.2,,22.1,5,0,0,0,0,0.0,0.0,0.0,0.0,2.26,,,0,0,0,0,0,0,0,0,0,0,0,0,0,0,0,0,,0,,,,0.0,38.986019,-76.95002,0.04,48.7,33,3,0.8,0,0.0,-1,0.0,0.0,0,0.0,0.0616
3470023,1745297722275,0.062,,,,,,,,,,,,,,,,,,,,,,,,,,,,,,,,,,0,0,0,0,0,0,0,0,0,0,0,0,0,0,0,0,,,,,,,,,,,,,,,,,,,,,
3470043,1745297722299,0.0623,0.0,-57,,-0.08,-0.04,1.04,-0,-0,0,1.04,1.24,84,2611,6.5,4.32,,13.37,1.137,86.2,,22.4,5,,,,,,,,,,,,0,0,0,0,0,0,0,0,0,0,0,0,0,0,0,0,,,,,,0.0,,,,,,,,,,,,,,,
3470063,1745297722319,0.0626,,,,,,,,,,,,,,,,,,,,,,,,,,,,,,,,,,0,0,0,0,0,0,0,0,0,0,0,0,0,0,0,0,,,,,,,,,,,,,,,,,,,,,
3470083,1745297722339,0.063,0.0,-61,,-0.09,-0.05,1.02,0,-0,0,1.02,1.24,82,2634,10.9,4.41,,13.67,1.135,86.2,,22.4,5,,,,,,,,,,,,0,0,0,0,0,0,0,0,0,0,0,0,0,0,0,0,,,,,,0.0,,,,,,,,,,,,,,,
3470103,1745297722359,0.0633,,,,,,,,,,,,,,,,,,,,,,,0,0,0,0,0.0,0.0,0.0,0.0,2.26,,,0,0,0,0,0,0,0,0,0,0,0,0,0,0,0,0,,0,,,,,38.986019,-76.95002,0.05,48.7,33,3,0.8,0,0.0,-1,0.0,,0,0.0,0.0633
3470123,1745297722379,0.0636,0.0,-53,,-0.09,-0.07,1.07,0,-0,0,1.08,1.24,87,2724,18.2,5.02,,14.03,1.124,86.2,,22.4,5,,,,,,,,,,,,0,0,0,0,0,0,0,0,0,0,0,0,0,0,0,0,,,,,,0.0,,,,,,,,,,,,,,,
3470143,1745297722398,0.064,,,,,,,,,,,,,,,,,,,,,,,,,,,,,,,,,,0,0,0,0,0,0,0,0,0,0,0,0,0,0,0,0,,,,,,,,,,,,,,,,,,,,,
3470163,1745297722418,0.0643,0.0,-64,,-0.09,-0.1,1.12,-0,-0,0,1.12,1.24,90,3062,18.5,4.99,,14.03,1.124,86.2,,23.5,5,,,,,,,,,,,,0,0,0,0,0,0,0,0,0,0,0,0,0,0,0,0,,,,,,0.0,,,,,,,,,,,,,,,
3470183,1745297722438,0.0646,,,,,,,,,,,,,,,,,,,,,,,,,,,,,,,,,,0,0,0,0,0,0,0,0,0,0,0,0,0,0,0,0,,,,,,,,,,,,,,,,,,,,,
3470203,1745297722458,0.065,0.0,-64,,-0.09,-0.16,1.15,0,-0,0,1.16,1.24,93,3062,18.5,4.99,,13.96,1.119,86.2,,23.5,5,0,0,0,0,0.0,0.0,0.0,0.0,2.26,,,0,0,0,0,0,0,0,0,0,0,0,0,0,0,0,0,,0,,,,0.0,38.986019,-76.95002,0.0,48.7,33,3,0.8,0,0.0,-1,0.0,0.0,0,0.0,0.065
3470223,1745297722478,0.0653,,,,,,,,,,,,,,,,,,,,,,,,,,,,,,,,,,0,0,0,0,0,0,0,0,0,0,0,0,0,0,0,0,,,,,,,,,,,,,,,,,,,,,
3470243,1745297722498,0.0656,0.0,-49,,-0.07,-0.05,1.1,-0,-0,0,1.1,1.24,89,3304,18.8,4.88,,13.9,1.112,86.2,,28.5,5,,,,,,,,,,,,0,0,0,0,0,0,0,0,0,0,0,0,0,0,0,0,,,,,,0.0,,,,,,,,,,,,,,,
3470263,1745297722518,0.066,,,,,,,,,,,,,,,,,,,,,,,,,,,,,,,,,,0,0,0,0,0,0,0,0,0,0,0,0,0,0,0,0,,,,,,,,,,,,,,,,,,,,,
3470283,1745297722538,0.0663,0.0,-61,,-0.07,-0.04,1.05,-0,-0,0,1.05,1.24,85,3514,7.9,4.65,,13.53,1.114,86.2,,28.5,5,,,,,,,,,,,,0,0,0,0,0,0,0,0,0,0,0,0,0,0,0,0,,,,,,0.0,,,,,,,,,,,,,,,
3470303,1745297722558,0.0667,,,,,,,,,,,,,,,,,,,,,,,0,0,0,0,0.0,0.0,0.0,0.0,2.25,,,0,0,0,0,0,0,0,0,0,0,0,0,0,0,0,0,,0,,,,,38.986019,-76.95002,0.07,48.7,33,3,0.8,0,0.0,-1,0.0,,0,0.0,0.0667
3470323,1745297722578,0.067,0.0,-53,,-0.08,-0.03,1.04,0,-0,0,1.04,1.24,84,3708,0.0,2.99,,12.77,1.106,86.2,,28.5,5,,,,,,,,,,,,0,0,0,0,0,0,0,0,0,0,0,0,0,0,0,0,,,,,,0.0,,,,,,,,,,,,,,,
3470343,1745297722598,0.0673,,,,,,,,,,,,,,,,,,,,,,,,,,,,,,,,,,0,0,0,0,0,0,0,0,0,0,0,0,0,0,0,0,,,,,,,,,,,,,,,,,,,,,
3470363,1745297722618,0.0676,0.0,-64,,-0.08,-0.02,1.03,0,-0,0,1.03,1.24,83,3726,0.0,2.96,,12.77,1.106,86.2,,31.4,5,,,,,,,,,,,,0,0,0,0,0,0,0,0,0,0,0,0,0,0,0,0,,,,,,0.0,,,,,,,,,,,,,,,
3470383,1745297722638,0.068,,,,,,,,,,,,,,,,,,,,,,,,,,,,,,,,,,0,0,0,0,0,0,0,0,0,0,0,0,0,0,0,0,,,,,,,,,,,,,,,,,,,,,
3470403,1745297722658,0.0683,0.0,-80,13.56,-0.09,-0.05,1.0,1,-0,-0,1.01,1.24,81,3726,0.0,2.96,15,12.2,1.089,86.2,167,31.4,5,0,0,0,0,0.0,0.0,0.0,0.0,2.25,0,1.0,0,0,0,0,0,0,0,0,0,0,0,0,0,0,0,0,0,0,1.0,0,0,0.0,38.986019,-76.95002,0.04,48.7,33,3,0.8,0,0.0,-1,0.0,0.0,0,0.0,0.0683
3470423,1745297722678,0.0686,,,,,,,,,,,,,,,,,,,,,,,,,,,,,,,,,,0,0,0,0,0,0,0,0,0,0,0,0,0,0,0,0,,,,,,,,,,,,,,,,,,,,,
3470443,1745297722698,0.069,0.0,-42,,-0.1,-0.13,1.04,0,-0,-0,1.06,1.24,85,3613,0.0,2.94,,11.91,1.078,86.2,,30.5,5,,,,,,,,,,,,0,0,0,0,0,0,0,0,0,0,0,0,0,0,0,0,,,,,,0.0,,,,,,,,,,,,,,,
3470463,1745297722718,0.0693,,,,,,,,,,,,,,,,,,,,,,,,,,,,,,,,,,0,0,0,0,0,0,0,0,0,0,0,0,0,0,0,0,,,,,,,,,,,,,,,,,,,,,
3470483,1745297722738,0.0696,0.0,-53,,-0.09,-0.02,1.05,0,-0,0,1.05,1.24,85,3536,0.0,2.99,,11.87,1.092,86.2,,30.5,5,,,,,,,,,,,,0,0,0,0,0,0,0,0,0,0,0,0,0,0,0,0,,,,,,0.0,,,,,,,,,,,,,,,
3470503,1745297722758,0.07,,,,,,,,,,,,,,,,,,,,,,,0,0,0,0,0.0,0.0,0.0,0.0,2.26,,,0,0,0,0,0,0,0,0,0,0,0,0,0,0,0,0,,0,,,,,38.986019,-76.95002,0.04,48.7,33,3,0.8,0,0.0,-1,0.0,,0,0.0,0.07
3470523,1745297722778,0.0703,0.0,-49,,-0.1,-0.04,1.0,1,-0,-0,1.0,1.24,81,3386,0.0,3.04,,11.93,1.132,86.2,,30.5,5,,,,,,,,,,,,0,0,0,0,0,0,0,0,0,0,0,0,0,0,0,0,,,,,,0.0,,,,,,,,,,,,,,,
3470543,1745297722798,0.0706,,,,,,,,,,,,,,,,,,,,,,,,,,,,,,,,,,0,0,0,0,0,0,0,0,0,0,0,0,0,0,0,0,,,,,,,,,,,,,,,,,,,,,
3470563,1745297722818,0.071,0.0,-57,,-0.08,0.03,1.04,-0,-0,0,1.04,1.24,84,3284,1.6,3.34,,11.93,1.132,86.2,,28.5,5,,,,,,,,,,,,0,0,0,0,0,0,0,0,0,0,0,0,0,0,0,0,,,,,,0.0,,,,,,,,,,,,,,,
3470583,1745297722838,0.0713,,,,,,,,,,,,,,,,,,,,,,,,,,,,,,,,,,0,0,0,0,0,0,0,0,0,0,0,0,0,0,0,0,,,,,,,,,,,,,,,,,,,,,
3470603,1745297722858,0.0716,0.0,-64,,-0.1,-0.08,1.04,0,-0,-0,1.05,1.24,84,3284,1.6,3.34,,12.19,1.176,86.2,,28.5,5,0,0,0,0,0.0,0.0,0.0,0.0,2.26,,,0,0,0,0,0,0,0,0,0,0,0,0,0,0,0,0,,0,,,,0.0,38.986019,-76.95002,0.0,48.7,33,3,0.8,0,0.0,-1,0.0,0.0,0,0.0,0.0716
3470623,1745297722878,0.072,,,,,,,,,,,,,,,,,,,,,,,,,,,,,,,,,,0,0,0,0,0,0,0,0,0,0,0,0,0,0,0,0,,,,,,,,,,,,,,,,,,,,,
3470643,1745297722898,0.0723,0.0,-53,,-0.08,0.01,1.03,-0,-0,0,1.04,1.24,83,3436,2.6,3.73,,12.39,1.213,86.2,,28.0,5,,,,,,,,,,,,0,0,0,0,0,0,0,0,0,0,0,0,0,0,0,0,,,,,,0.0,,,,,,,,,,,,,,,
3470663,1745297722918,0.0726,,,,,,,,,,,,,,,,,,,,,,,,,,,,,,,,,,0,0,0,0,0,0,0,0,0,0,0,0,0,0,0,0,,,,,,,,,,,,,,,,,,,,,
3470683,1745297722938,0.073,0.0,-61,,-0.09,-0.06,1.06,-0,-0,0,1.07,1.24,86,3289,2.7,3.72,,12.51,1.228,86.2,,28.0,5,,,,,,,,,,,,0,0,0,0,0,0,0,0,0,0,0,0,0,0,0,0,,,,,,0.0,,,,,,,,,,,,,,,
3470703,1745297722958,0.0733,,,,,,,,,,,,,,,,,,,,,,,0,0,0,0,0.0,0.0,0.0,0.0,2.26,,,0,0,0,0,0,0,0,0,0,0,0,0,0,0,0,0,,0,,,,,38.986019,-76.95002,0.0,48.7,33,3,0.8,0,0.0,-1,0.0,,0,0.0,0.0733
3470723,1745297722978,0.0736,0.0,-46,,-0.09,-0.01,0.98,0,-0,0,0.98,1.24,79,3286,3.7,3.97,,12.68,1.118,86.2,,28.0,5,,,,,,,,,,,,0,0,0,0,0,0,0,0,0,0,0,0,0,0,0,0,,,,,,0.0,,,,,,,,,,,,,,,
3470743,1745297722998,0.074,,,,,,,,,,,,,,,,,,,,,,,,,,,,,,,,,,0,0,0,0,0,0,0,0,0,0,0,0,0,0,0,0,,,,,,,,,,,,,,,,,,,,,
3470763,1745297723010,0.0743,0.0,-61,,-0.06,0.01,1.05,-0,-0,0,1.05,1.24,84,3275,4.2,4.03,,12.68,1.118,86.2,,27.0,5,,,,,,,,,,,,0,0,0,0,0,0,0,0,0,0,0,0,0,0,0,0,,,,,,0.0,,,,,,,,,,,,,,,
3470783,1745297723030,0.0746,,,,,,,,,,,,,,,,,,,,,,,,,,,,,,,,,,0,0,0,0,0,0,0,0,0,0,0,0,0,0,0,0,,,,,,,,,,,,,,,,,,,,,
3470803,1745297723050,0.075,0.0,-57,,-0.09,-0.06,1.07,0,-0,0,1.08,1.24,87,3275,4.2,4.03,,12.76,1.084,86.2,,27.0,5,0,0,0,0,0.0,0.0,0.0,0.0,2.25,,,0,0,0,0,0,0,0,0,0,0,0,0,0,0,0,0,,0,,,,0.0,38.986019,-76.95002,0.05,48.7,33,3,0.8,0,0.0,-1,0.0,0.0,0,0.0,0.075
3470823,1745297723070,0.0753,,,,,,,,,,,,,,,,,,,,,,,,,,,,,,,,,,0,0,0,0,0,0,0,0,0,0,0,0,0,0,0,0,,,,,,,,,,,,,,,,,,,,,
3470843,1745297723098,0.0756,0.0,-38,,-0.1,-0.04,0.99,0,-0,-0,0.99,1.24,80,3204,4.3,4.01,,12.87,1.057,86.2,,26.8,5,,,,,,,,,,,,0,0,0,0,0,0,0,0,0,0,0,0,0,0,0,0,,,,,,0.0,,,,,,,,,,,,,,,
3470863,1745297723118,0.076,,,,,,,,,,,,,,,,,,,,,,,,,,,,,,,,,,0,0,0,0,0,0,0,0,0,0,0,0,0,0,0,0,,,,,,,,,,,,,,,,,,,,,
3470883,1745297723138,0.0763,0.0,-38,,-0.08,0.01,0.99,-0,-0,0,0.99,1.24,80,3237,0.0,3.14,,12.57,1.065,86.2,,26.8,5,,,,,,,,,,,,0,0,0,0,0,0,0,0,0,0,0,0,0,0,0,0,,,,,,0.0,,,,,,,,,,,,,,,
3470903,1745297723158,0.0766,,,,,,,,,,,,,,,,,,,,,,,0,0,0,0,0.0,0.0,0.0,0.0,2.25,,,0,0,0,0,0,0,0,0,0,0,0,0,0,0,0,0,,0,,,,,38.986019,-76.95002,0.05,48.7,33,3,0.8,0,0.0,-1,0.0,,0,0.0,0.0766
3470923,1745297723178,0.077,0.0,-53,,-0.07,-0.02,1.07,-0,-0,0,1.07,1.24,86,3214,0.0,3.11,,12.35,1.069,86.2,,26.8,5,,,,,,,,,,,,0,0,0,0,0,0,0,0,0,0,0,0,0,0,0,0,,,,,,0.0,,,,,,,,,,,,,,,
3470943,1745297723192,0.0773,,,,,,,,,,,,,,,,,,,,,,,,,,,,,,,,,,0,0,0,0,0,0,0,0,0,0,0,0,0,0,0,0,,,,,,,,,,,,,,,,,,,,,
3470963,1745297723212,0.0777,0.0,-57,,-0.09,-0.07,1.13,-0,-0,0,1.13,1.24,91,3090,0.0,3.11,,12.35,1.069,86.2,,26.6,5,,,,,,,,,,,,0,0,0,0,0,0,0,0,0,0,0,0,0,0,0,0,,,,,,0.0,,,,,,,,,,,,,,,
3470983,1745297723232,0.078,,,,,,,,,,,,,,,,,,,,,,,,,,,,,,,,,,0,0,0,0,0,0,0,0,0,0,0,0,0,0,0,0,,,,,,,,,,,,,,,,,,,,,
3471003,1745297723252,0.0783,0.0,-57,,-0.11,-0.1,1.12,0,-0,-0,1.13,1.24,91,3090,0.0,3.11,,12.28,1.073,86.2,,26.6,5,0,0,0,0,0.0,0.0,0.0,0.0,2.26,,,0,0,0,0,0,0,0,0,0,0,0,0,0,0,0,0,,0,,,,0.0,38.986019,-76.95002,0.0,48.7,33,3,0.8,0,0.0,-1,0.0,0.0,0,0.0,0.0783
3471023,1745297723272,0.0786,,,,,,,,,,,,,,,,,,,,,,,,,,,,,,,,,,0,0,0,0,0,0,0,0,0,0,0,0,0,0,0,0,,,,,,,,,,,,,,,,,,,,,
3471043,1745297723298,0.079,0.0,-53,,-0.14,-0.09,1.1,-0,-0,-0,1.11,1.24,89,3062,0.0,3.1,,12.25,1.087,86.2,,25.1,5,,,,,,,,,,,,0,0,0,0,0,0,0,0,0,0,0,0,0,0,0,0,,,,,,0.0,,,,,,,,,,,,,,,
3471063,1745297723318,0.0793,,,,,,,,,,,,,,,,,,,,,,,,,,,,,,,,,,0,0,0,0,0,0,0,0,0,0,0,0,0,0,0,0,,,,,,,,,,,,,,,,,,,,,
3471083,1745297723338,0.0796,0.0,-53,,-0.16,-0.09,1.1,0,-0,-0,1.11,1.24,89,2993,1.6,3.27,,12.47,1.107,86.2,,25.1,5,,,,,,,,,,,,0,0,0,0,0,0,0,0,0,0,0,0,0,0,0,0,,,,,,0.0,,,,,,,,,,,,,,,
3471103,1745297723358,0.08,,,,,,,,,,,,,,,,,,,,,,,0,0,0,0,0.0,0.0,0.0,0.0,2.26,,,0,0,0,0,0,0,0,0,0,0,0,0,0,0,0,0,,0,,,,,38.986019,-76.95002,0.05,48.7,33,3,0.8,0,0.0,-1,0.0,,0,0.0,0.08
3471123,1745297723378,0.0803,0.0,-53,,-0.18,-0.11,1.13,-0,-0,-0,1.15,1.24,93,2928,6.6,4.05,,12.91,1.128,86.2,,25.1,5,,,,,,,,,,,,0,0,0,0,0,0,0,0,0,0,0,0,0,0,0,0,,,,,,0.0,,,,,,,,,,,,,,,
3471143,1745297723399,0.0806,,,,,,,,,,,,,,,,,,,,,,,,,,,,,,,,,,0,0,0,0,0,0,0,0,0,0,0,0,0,0,0,0,,,,,,,,,,,,,,,,,,,,,
3471163,1745297723419,0.081,0.0,-53,,-0.17,-0.12,1.18,-0,-0,-0,1.2,1.24,97,2893,7.8,4.13,,12.91,1.128,86.2,,24.1,5,,,,,,,,,,,,0,0,0,0,0,0,0,0,0,0,0,0,0,0,0,0,,,,,,0.0,,,,,,,,,,,,,,,
3471183,1745297723439,0.0813,,,,,,,,,,,,,,,,,,,,,,,,,,,,,,,,,,0,0,0,0,0,0,0,0,0,0,0,0,0,0,0,0,,,,,,,,,,,,,,,,,,,,,
3471203,1745297723459,0.0816,0.0,-34,,-0.15,-0.14,1.21,-0,-0,0,1.23,1.24,99,2893,7.8,4.13,,13.25,1.143,86.2,,24.1,5,0,0,0,0,0.0,0.0,0.0,0.0,2.27,,,0,0,0,0,0,0,0,0,0,0,0,0,0,0,0,0,,0,,,,0.0,38.986019,-76.95002,0.08,48.7,33,3,0.8,0,0.0,-1,0.0,0.0,0,0.0,0.0816
3471223,1745297723479,0.082,,,,,,,,,,,,,,,,,,,,,,,,,,,,,,,,,,0,0,0,0,0,0,0,0,0,0,0,0,0,0,0,0,,,,,,,,,,,,,,,,,,,,,
3471243,1745297723497,0.0823,0.0,-46,,-0.12,-0.15,1.23,-0,-0,0,1.25,1.25,100,2929,8.0,4.14,,13.41,1.153,86.2,,24.7,5,,,,,,,,,,,,0,0,0,0,0,0,0,0,0,0,0,0,0,0,0,0,,,,,,0.0,,,,,,,,,,,,,,,
3471263,1745297723517,0.0826,,,,,,,,,,,,,,,,,,,,,,,,,,,,,,,,,,0,0,0,0,0,0,0,0,0,0,0,0,0,0,0,0,,,,,,,,,,,,,,,,,,,,,
3471283,1745297723537,0.083,0.0,-53,,-0.11,-0.21,1.27,-0,-0,0,1.29,1.29,100,3097,8.1,4.13,,13.39,1.147,86.2,,24.7,5,,,,,,,,,,,,0,0,0,0,0,0,0,0,0,0,0,0,0,0,0,0,,,,,,0.0,,,,,,,,,,,,,,,
3471303,1745297723557,0.0833,,,,,,,,,,,,,,,,,,,,,,,0,0,0,0,0.0,0.0,0.0,0.0,2.26,,,0,0,0,0,0,0,0,0,0,0,0,0,0,0,0,0,,0,,,,,38.986019,-76.95002,0.04,48.7,33,3,0.8,0,0.0,-1,0.0,,0,0.0,0.0833
3471323,1745297723577,0.0836,0.0,-46,,-0.13,-0.23,1.23,0,-0,-0,1.26,1.29,97,3201,8.3,4.13,,13.36,1.138,86.2,,24.7,5,,,,,,,,,,,,0,0,0,0,0,0,0,0,0,0,0,0,0,0,0,0,,,,,,0.0,,,,,,,,,,,,,,,
3471343,1745297723599,0.084,,,,,,,,,,,,,,,,,,,,,,,,,,,,,,,,,,0,0,0,0,0,0,0,0,0,0,0,0,0,0,0,0,,,,,,,,,,,,,,,,,,,,,
3471363,1745297723619,0.0843,0.0,-8,,-0.1,-0.09,1.14,-0,-0,0,1.14,1.29,88,3257,8.3,4.1,,13.36,1.138,86.2,,26.8,5,,,,,,,,,,,,0,0,0,0,0,0,0,0,0,0,0,0,0,0,0,0,,,,,,0.0,,,,,,,,,,,,,,,
3471383,1745297723639,0.0846,,,,,,,,,,,,,,,,,,,,,,,,,,,,,,,,,,0,0,0,0,0,0,0,0,0,0,0,0,0,0,0,0,,,,,,,,,,,,,,,,,,,,,
3471403,1745297723659,0.085,0.0,-46,13.62,-0.11,-0.19,1.19,0,-0,0,1.21,1.29,93,3257,8.3,4.1,15,13.33,1.121,86.2,167,26.8,5,0,0,0,0,0.0,0.0,0.0,0.0,2.26,0,1.0,0,0,0,0,0,0,0,0,0,0,0,0,0,0,0,0,0,0,1.0,0,0,0.0,38.986019,-76.95002,0.0,48.7,33,3,0.8,0,0.0,-1,0.0,0.0,0,0.0,0.085
3471423,1745297723679,0.0853,,,,,,,,,,,,,,,,,,,,,,,,,,,,,,,,,,0,0,0,0,0,0,0,0,0,0,0,0,0,0,0,0,,,,,,,,,,,,,,,,,,,,,
3471443,1745297723699,0.0856,0.0,-34,,-0.1,-0.08,1.12,0,-0,0,1.13,1.29,87,3407,8.4,4.09,,13.28,1.129,86.2,,28.3,5,,,,,,,,,,,,0,0,0,0,0,0,0,0,0,0,0,0,0,0,0,0,,,,,,0.0,,,,,,,,,,,,,,,
3471463,1745297723719,0.086,,,,,,,,,,,,,,,,,,,,,,,,,,,,,,,,,,0,0,0,0,0,0,0,0,0,0,0,0,0,0,0,0,,,,,,,,,,,,,,,,,,,,,
3471483,1745297723739,0.0863,0.0,-46,,-0.1,-0.19,1.13,0,-0,-0,1.15,1.29,89,3383,8.4,4.06,,13.27,1.126,86.2,,28.3,5,,,,,,,,,,,,0,0,0,0,0,0,0,0,0,0,0,0,0,0,0,0,,,,,,0.0,,,,,,,,,,,,,,,
3471503,1745297723759,0.0866,,,,,,,,,,,,,,,,,,,,,,,0,0,0,0,0.0,0.0,0.0,0.0,2.26,,,0,0,0,0,0,0,0,0,0,0,0,0,0,0,0,0,,0,,,,,38.986019,-76.95002,0.04,48.7,33,3,0.8,0,0.0,-1,0.0,,0,0.0,0.0866
3471523,1745297723779,0.087,0.0,-53,,-0.09,-0.08,1.13,-0,-0,0,1.14,1.29,88,3502,8.4,4.07,,13.24,1.126,86.2,,28.3,5,,,,,,,,,,,,0,0,0,0,0,0,0,0,0,0,0,0,0,0,0,0,,,,,,0.0,,,,,,,,,,,,,,,
3471543,1745297723799,0.0873,,,,,,,,,,,,,,,,,,,,,,,,,,,,,,,,,,0,0,0,0,0,0,0,0,0,0,0,0,0,0,0,0,,,,,,,,,,,,,,,,,,,,,
3471563,1745297723819,0.0876,0.0,-49,,-0.08,-0.02,1.06,0,-0,0,1.06,1.29,82,3520,8.3,4.03,,13.24,1.126,86.2,,29.2,5,,,,,,,,,,,,0,0,0,0,0,0,0,0,0,0,0,0,0,0,0,0,,,,,,0.0,,,,,,,,,,,,,,,
3471583,1745297723839,0.088,,,,,,,,,,,,,,,,,,,,,,,,,,,,,,,,,,0,0,0,0,0,0,0,0,0,0,0,0,0,0,0,0,,,,,,,,,,,,,,,,,,,,,
3471603,1745297723859,0.0883,0.0,-42,,-0.11,-0.03,1.08,0,-0,-0,1.08,1.29,84,3520,8.3,4.03,,13.11,1.117,86.2,,29.2,5,0,0,0,0,0.0,0.0,0.0,0.0,2.26,,,0,0,0,0,0,0,0,0,0,0,0,0,0,0,0,0,,0,,,,0.0,38.986019,-76.95002,0.08,48.7,33,3,0.8,0,0.0,-1,0.0,0.0,0,0.0,0.0883
3471623,1745297723879,0.0887,,,,,,,,,,,,,,,,,,,,,,,,,,,,,,,,,,0,0,0,0,0,0,0,0,0,0,0,0,0,0,0,0,,,,,,,,,,,,,,,,,,,,,
3471643,1745297723899,0.089,0.0,-49,,-0.11,-0.02,1.1,-1,-0,0,1.1,1.29,85,3547,3.0,3.6,,12.96,1.108,86.2,,29.4,5,,,,,,,,,,,,0,0,0,0,0,0,0,0,0,0,0,0,0,0,0,0,,,,,,0.0,,,,,,,,,,,,,,,
3471663,1745297723919,0.0893,,,,,,,,,,,,,,,,,,,,,,,,,,,,,,,,,,0,0,0,0,0,0,0,0,0,0,0,0,0,0,0,0,,,,,,,,,,,,,,,,,,,,,
3471683,1745297723939,0.0896,0.0,-53,,-0.08,0.0,1.07,-0,-0,0,1.07,1.29,83,3519,0.0,2.82,,12.48,1.113,86.2,,29.4,5,,,,,,,,,,,,0,0,0,0,0,0,0,0,0,0,0,0,0,0,0,0,,,,,,0.0,,,,,,,,,,,,,,,
3471703,1745297723959,0.09,,,,,,,,,,,,,,,,,,,,,,,0,0,0,0,0.0,0.0,0.0,0.0,2.26,,,0,0,0,0,0,0,0,0,0,0,0,0,0,0,0,0,,0,,,,,38.986019,-76.95002,0.04,48.7,33,3,0.8,0,0.0,-1,0.0,,0,0.0,0.09
3471723,1745297723979,0.0903,0.0,-34,,-0.09,-0.14,1.03,0,-0,-0,1.05,1.29,81,3452,0.0,2.83,,12.28,1.107,86.2,,29.4,5,,,,,,,,,,,,0,0,0,0,0,0,0,0,0,0,0,0,0,0,0,0,,,,,,0.0,,,,,,,,,,,,,,,
3471743,1745297723991,0.0906,,,,,,,,,,,,,,,,,,,,,,,,,,,,,,,,,,0,0,0,0,0,0,0,0,0,0,0,0,0,0,0,0,,,,,,,,,,,,,,,,,,,,,
3471763,1745297724011,0.091,0.0,-57,,-0.07,-0.09,1.04,-0,-0,0,1.04,1.29,81,3373,0.0,2.86,,12.28,1.107,86.2,,28.4,5,,,,,,,,,,,,0,0,0,0,0,0,0,0,0,0,0,0,0,0,0,0,,,,,,0.0,,,,,,,,,,,,,,,
3471783,1745297724031,0.0913,,,,,,,,,,,,,,,,,,,,,,,,,,,,,,,,,,0,0,0,0,0,0,0,0,0,0,0,0,0,0,0,0,,,,,,,,,,,,,,,,,,,,,
3471803,1745297724051,0.0916,0.0,-57,,-0.09,-0.16,1.07,0,-0,-0,1.09,1.29,84,3373,0.0,2.86,,12.16,1.099,86.2,,28.4,5,0,0,0,0,0.0,0.0,0.0,0.0,2.26,,,0,0,0,0,0,0,0,0,0,0,0,0,0,0,0,0,,0,,,,0.0,38.986019,-76.95002,0.04,48.7,33,3,0.8,0,0.0,-1,0.0,0.0,0,0.0,0.0916
3471823,1745297724071,0.092,,,,,,,,,,,,,,,,,,,,,,,,,,,,,,,,,,0,0,0,0,0,0,0,0,0,0,0,0,0,0,0,0,,,,,,,,,,,,,,,,,,,,,
3471843,1745297724091,0.0923,0.0,-46,,-0.1,-0.12,0.98,1,-0,-0,0.99,1.29,77,3244,0.0,2.88,,12.19,1.121,86.2,,26.8,5,,,,,,,,,,,,0,0,0,0,0,0,0,0,0,0,0,0,0,0,0,0,,,,,,0.0,,,,,,,,,,,,,,,
3471863,1745297724109,0.0926,,,,,,,,,,,,,,,,,,,,,,,,,,,,,,,,,,0,0,0,0,0,0,0,0,0,0,0,0,0,0,0,0,,,,,,,,,,,,,,,,,,,,,
3471883,1745297724129,0.093,0.0,-64,,-0.08,-0.04,0.95,0,-0,-0,0.95,1.29,73,3177,2.3,3.42,,12.4,1.155,86.2,,26.8,5,,,,,,,,,,,,0,0,0,0,0,0,0,0,0,0,0,0,0,0,0,0,,,,,,0.0,,,,,,,,,,,,,,,
3471903,1745297724149,0.0933,,,,,,,,,,,,,,,,,,,,,,,0,0,0,0,0.0,0.0,0.0,0.0,2.26,,,0,0,0,0,0,0,0,0,0,0,0,0,0,0,0,0,,0,,,,,38.986019,-76.95002,0.0,48.7,33,3,0.8,0,0.0,-1,0.0,,0,0.0,0.0933
3471923,1745297724169,0.0936,0.0,-53,,-0.06,-0.01,0.98,-0,-0,0,0.98,1.29,76,3115,3.9,3.6,,12.68,1.17,86.2,,26.8,5,,,,,,,,,,,,0,0,0,0,0,0,0,0,0,0,0,0,0,0,0,0,,,,,,0.0,,,,,,,,,,,,,,,
3471943,1745297724195,0.094,,,,,,,,,,,,,,,,,,,,,,,,,,,,,,,,,,0,0,0,0,0,0,0,0,0,0,0,0,0,0,0,0,,,,,,,,,,,,,,,,,,,,,
3471963,1745297724215,0.0943,0.0,-68,,-0.05,-0.03,1.04,1,-0,0,1.05,1.29,81,3053,4.4,3.79,,12.68,1.17,86.2,,25.6,5,,,,,,,,,,,,0,0,0,0,0,0,0,0,0,0,0,0,0,0,0,0,,,,,,0.0,,,,,,,,,,,,,,,
3471983,1745297724235,0.0946,,,,,,,,,,,,,,,,,,,,,,,,,,,,,,,,,,0,0,0,0,0,0,0,0,0,0,0,0,0,0,0,0,,,,,,,,,,,,,,,,,,,,,
3472003,1745297724255,0.095,0.0,-64,,-0.04,-0.14,1.09,0,-0,0,1.1,1.29,85,3053,4.4,3.79,,12.89,1.186,86.2,,25.6,5,0,0,0,0,0.0,0.0,0.0,0.0,2.26,,,0,0,0,0,0,0,0,0,0,0,0,0,0,0,0,0,,0,,,,0.0,38.986019,-76.95002,0.0,48.7,33,3,0.8,0,0.0,-1,0.0,0.0,0,0.0,0.095
3472023,1745297724275,0.0953,,,,,,,,,,,,,,,,,,,,,,,,,,,,,,,,,,0,0,0,0,0,0,0,0,0,0,0,0,0,0,0,0,,,,,,,,,,,,,,,,,,,,,
3472043,1745297724299,0.0956,0.0,-57,,-0.04,0.0,1.02,1,-0,0,1.02,1.29,79,3394,4.8,3.79,,12.93,1.201,86.2,,27.6,5,,,,,,,,,,,,0,0,0,0,0,0,0,0,0,0,0,0,0,0,0,0,,,,,,0.0,,,,,,,,,,,,,,,
3472063,1745297724319,0.096,,,,,,,,,,,,,,,,,,,,,,,,,,,,,,,,,,0,0,0,0,0,0,0,0,0,0,0,0,0,0,0,0,,,,,,,,,,,,,,,,,,,,,
3472083,1745297724339,0.0963,0.0,-53,,-0.04,-0.13,1.06,-0,-0,-0,1.07,1.29,82,3415,5.0,3.78,,12.89,1.225,86.2,,27.6,5,,,,,,,,,,,,0,0,0,0,0,0,0,0,0,0,0,0,0,0,0,0,,,,,,0.0,,,,,,,,,,,,,,,
3472103,1745297724359,0.0966,,,,,,,,,,,,,,,,,,,,,,,0,0,0,0,0.0,0.0,0.0,0.0,2.26,,,0,0,0,0,0,0,0,0,0,0,0,0,0,0,0,0,,0,,,,,38.986019,-76.95002,0.04,48.7,33,3,0.8,0,0.0,-1,0.0,,0,0.0,0.0966
3472123,1745297724379,0.097,0.0,-46,,-0.05,0.04,1.04,1,-0,0,1.04,1.29,81,3383,5.1,3.77,,12.93,1.163,86.2,,27.6,5,,,,,,,,,,,,0,0,0,0,0,0,0,0,0,0,0,0,0,0,0,0,,,,,,0.0,,,,,,,,,,,,,,,
3472143,1745297724398,0.0973,,,,,,,,,,,,,,,,,,,,,,,,,,,,,,,,,,0,0,0,0,0,0,0,0,0,0,0,0,0,0,0,0,,,,,,,,,,,,,,,,,,,,,
3472163,1745297724418,0.0976,0.0,-61,,-0.05,-0.13,1.04,-0,-0,-0,1.05,1.29,81,3423,8.0,3.87,,12.93,1.163,86.2,,28.0,5,,,,,,,,,,,,0,0,0,0,0,0,0,0,0,0,0,0,0,0,0,0,,,,,,0.0,,,,,,,,,,,,,,,
3472183,1745297724438,0.098,,,,,,,,,,,,,,,,,,,,,,,,,,,,,,,,,,0,0,0,0,0,0,0,0,0,0,0,0,0,0,0,0,,,,,,,,,,,,,,,,,,,,,
3472203,1745297724458,0.0983,0.0,-61,,-0.06,-0.01,1.03,1,-0,0,1.03,1.29,80,3423,8.0,3.87,,13.09,1.121,86.2,,28.0,5,0,0,0,0,0.0,0.0,0.0,0.0,2.26,,,0,0,0,0,0,0,0,0,0,0,0,0,0,0,0,0,,0,,,,0.0,38.986019,-76.95002,0.0,48.7,33,3,0.8,0,0.0,-1,0.0,0.0,0,0.0,0.0983
3472223,1745297724478,0.0986,,,,,,,,,,,,,,,,,,,,,,,,,,,,,,,,,,0,0,0,0,0,0,0,0,0,0,0,0,0,0,0,0,,,,,,,,,,,,,,,,,,,,,
3472243,1745297724498,0.099,0.0,-46,,-0.06,-0.04,1.01,-0,-0,-0,1.02,1.29,79,3392,9.2,3.91,,13.24,1.094,86.2,,28.5,5,,,,,,,,,,,,0,0,0,0,0,0,0,0,0,0,0,0,0,0,0,0,,,,,,0.0,,,,,,,,,,,,,,,
3472263,1745297724518,0.0993,,,,,,,,,,,,,,,,,,,,,,,,,,,,,,,,,,0,0,0,0,0,0,0,0,0,0,0,0,0,0,0,0,,,,,,,,,,,,,,,,,,,,,
3472283,1745297724538,0.0996,0.0,-53,,-0.07,-0.08,1.06,1,-0,0,1.06,1.29,82,3437,9.5,3.92,,13.32,1.098,86.2,,28.5,5,,,,,,,,,,,,0,0,0,0,0,0,0,0,0,0,0,0,0,0,0,0,,,,,,0.0,,,,,,,,,,,,,,,
3472303,1745297724558,0.1,,,,,,,,,,,,,,,,,,,,,,,0,0,0,0,0.0,0.0,0.0,0.0,2.26,,,0,0,0,0,0,0,0,0,0,0,0,0,0,0,0,0,,0,,,,,38.986019,-76.95002,0.05,48.7,33,3,0.8,0,0.0,-1,0.0,,0,0.0,0.1
3472323,1745297724578,0.1003,0.0,-42,,-0.07,-0.03,0.98,0,-0,-0,0.98,1.29,76,3440,9.8,3.93,,13.32,1.109,86.2,,28.5,5,,,,,,,,,,,,0,0,0,0,0,0,0,0,0,0,0,0,0,0,0,0,,,,,,0.0,,,,,,,,,,,,,,,
3472343,1745297724598,0.1006,,,,,,,,,,,,,,,,,,,,,,,,,,,,,,,,,,0,0,0,0,0,0,0,0,0,0,0,0,0,0,0,0,,,,,,,,,,,,,,,,,,,,,
3472363,1745297724618,0.101,0.0,-64,,-0.06,-0.06,1.01,-0,-0,-0,1.02,1.29,79,3568,10.1,3.93,,13.32,1.109,86.2,,28.9,5,,,,,,,,,,,,0,0,0,0,0,0,0,0,0,0,0,0,0,0,0,0,,,,,,0.0,,,,,,,,,,,,,,,
3472383,1745297724638,0.1013,,,,,,,,,,,,,,,,,,,,,,,,,,,,,,,,,,0,0,0,0,0,0,0,0,0,0,0,0,0,0,0,0,,,,,,,,,,,,,,,,,,,,,
3472403,1745297724658,0.1016,0.0,-64,13.65,-0.09,0.06,1.04,0,-0,0,1.04,1.29,81,3568,10.1,3.93,15,13.33,1.121,86.2,167,28.9,5,0,0,0,0,0.0,0.0,0.0,0.0,2.25,0,1.0,0,0,0,0,0,0,0,0,0,0,0,0,0,0,0,0,0,0,1.0,0,0,0.0,38.986019,-76.95002,0.04,48.7,33,3,0.8,0,0.0,-1,0.0,0.0,0,0.0,0.1016
3472423,1745297724678,0.102,,,,,,,,,,,,,,,,,,,,,,,,,,,,,,,,,,0,0,0,0,0,0,0,0,0,0,0,0,0,0,0,0,,,,,,,,,,,,,,,,,,,,,
3472443,1745297724698,0.1023,0.0,-49,,-0.08,0.09,1.02,1,-0,1,1.03,1.29,79,3593,10.2,3.92,,13.29,1.128,86.2,,30.0,5,,,,,,,,,,,,0,0,0,0,0,0,0,0,0,0,0,0,0,0,0,0,,,,,,0.0,,,,,,,,,,,,,,,
3472463,1745297724718,0.1026,,,,,,,,,,,,,,,,,,,,,,,,,,,,,,,,,,0,0,0,0,0,0,0,0,0,0,0,0,0,0,0,0,,,,,,,,,,,,,,,,,,,,,
3472483,1745297724738,0.103,0.0,-49,,-0.08,0.05,0.98,-0,-0,0,0.99,1.29,76,3651,10.2,3.92,,13.28,1.138,86.2,,30.0,5,,,,,,,,,,,,0,0,0,0,0,0,0,0,0,0,0,0,0,0,0,0,,,,,,0.0,,,,,,,,,,,,,,,
3472503,1745297724758,0.1033,,,,,,,,,,,,,,,,,,,,,,,0,0,0,0,0.0,0.0,0.0,0.0,2.26,,,0,0,0,0,0,0,0,0,0,0,0,0,0,0,0,0,,0,,,,,38.986019,-76.95002,0.04,48.7,33,3,0.8,0,0.0,-1,0.0,,0,0.0,0.1033
3472523,1745297724778,0.1036,0.0,-53,,-0.09,0.03,0.98,-0,-0,0,0.99,1.29,76,3684,9.9,3.91,,13.19,1.154,86.2,,30.0,5,,,,,,,,,,,,0,0,0,0,0,0,0,0,0,0,0,0,0,0,0,0,,,,,,0.0,,,,,,,,,,,,,,,
3472543,1745297724798,0.104,,,,,,,,,,,,,,,,,,,,,,,,,,,,,,,,,,0,0,0,0,0,0,0,0,0,0,0,0,0,0,0,0,,,,,,,,,,,,,,,,,,,,,
3472563,1745297724818,0.1043,0.0,-42,,-0.08,0.05,0.99,-1,-0,0,0.99,1.29,77,3743,9.9,3.91,,13.19,1.154,86.2,,30.9,5,,,,,,,,,,,,0,0,0,0,0,0,0,0,0,0,0,0,0,0,0,0,,,,,,0.0,,,,,,,,,,,,,,,
3472583,1745297724838,0.1046,,,,,,,,,,,,,,,,,,,,,,,,,,,,,,,,,,0,0,0,0,0,0,0,0,0,0,0,0,0,0,0,0,,,,,,,,,,,,,,,,,,,,,
3472603,1745297724858,0.105,0.0,-64,,-0.08,0.04,0.97,-1,-0,0,0.98,1.29,76,3743,9.9,3.91,,13.09,1.165,86.2,,30.9,5,0,0,0,0,0.0,0.0,0.0,0.0,2.26,,,0,0,0,0,0,0,0,0,0,0,0,0,0,0,0,0,,0,,,,0.0,38.986019,-76.95002,0.08,48.7,33,3,0.8,0,0.0,-1,0.0,0.0,0,0.0,0.105
3472623,1745297724878,0.1053,,,,,,,,,,,,,,,,,,,,,,,,,,,,,,,,,,0,0,0,0,0,0,0,0,0,0,0,0,0,0,0,0,,,,,,,,,,,,,,,,,,,,,
3472643,1745297724898,0.1056,0.0,-57,,-0.08,0.07,0.97,-1,-0,-0,0.97,1.29,75,3738,9.7,3.91,,13.11,1.152,86.2,,32.0,5,,,,,,,,,,,,0,0,0,0,0,0,0,0,0,0,0,0,0,0,0,0,,,,,,0.0,,,,,,,,,,,,,,,
3472663,1745297724918,0.106,,,,,,,,,,,,,,,,,,,,,,,,,,,,,,,,,,0,0,0,0,0,0,0,0,0,0,0,0,0,0,0,0,,,,,,,,,,,,,,,,,,,,,
3472683,1745297724938,0.1063,0.0,-49,,-0.08,0.08,1.01,-1,-0,0,1.02,1.29,79,3845,9.7,3.9,,13.03,1.154,86.2,,32.0,5,,,,,,,,,,,,0,0,0,0,0,0,0,0,0,0,0,0,0,0,0,0,,,,,,0.0,,,,,,,,,,,,,,,
3472703,1745297724958,0.1066,,,,,,,,,,,,,,,,,,,,,,,0,0,0,0,0.0,0.0,0.0,0.0,2.26,,,0,0,0,0,0,0,0,0,0,0,0,0,0,0,0,0,,0,,,,,38.986019,-76.95002,0.08,48.7,33,3,0.8,0,0.0,-1,0.0,,0,0.0,0.1066
3472723,1745297724978,0.107,0.0,-53,,-0.1,0.03,1.05,-2,-0,1,1.05,1.29,81,3875,9.7,3.9,,13.03,1.159,86.2,,32.0,5,,,,,,,,,,,,0,0,0,0,0,0,0,0,0,0,0,0,0,0,0,0,,,,,,0.0,,,,,,,,,,,,,,,
3472743,1745297724998,0.1073,,,,,,,,,,,,,,,,,,,,,,,,,,,,,,,,,,0,0,0,0,0,0,0,0,0,0,0,0,0,0,0,0,,,,,,,,,,,,,,,,,,,,,
3472763,1745297725010,0.1076,0.0,-64,,-0.11,-0.03,1.0,-2,-0,0,1.01,1.29,78,3953,9.7,3.9,,13.03,1.159,86.2,,32.8,5,,,,,,,,,,,,0,0,0,0,0,0,0,0,0,0,0,0,0,0,0,0,,,,,,0.0,,,,,,,,,,,,,,,
3472783,1745297725030,0.108,,,,,,,,,,,,,,,,,,,,,,,,,,,,,,,,,,0,0,0,0,0,0,0,0,0,0,0,0,0,0,0,0,,,,,,,,,,,,,,,,,,,,,
3472803,1745297725050,0.1083,0.0,-38,,-0.1,0.02,1.0,-0,-0,0,1.0,1.29,77,3953,9.7,3.9,,12.96,1.151,86.2,,32.8,5,0,0,0,0,0.0,0.0,0.0,0.0,2.26,,,0,0,0,0,0,0,0,0,0,0,0,0,0,0,0,0,,0,,,,0.0,38.986019,-76.95002,0.51,48.7,33,3,0.8,0,0.0,-1,0.0,0.0,0,0.0,0.1083
3472823,1745297725070,0.1086,,,,,,,,,,,,,,,,,,,,,,,,,,,,,,,,,,0,0,0,0,0,0,0,0,0,0,0,0,0,0,0,0,,,,,,,,,,,,,,,,,,,,,
3472843,1745297725096,0.109,0.0,-53,,-0.08,0.08,1.06,1,-0,0,1.07,1.29,83,3982,9.7,3.88,,12.91,1.145,86.2,,33.0,5,,,,,,,,,,,,0,0,0,0,0,0,0,0,0,0,0,0,0,0,0,0,,,,,,0.0,,,,,,,,,,,,,,,
3472863,1745297725116,0.1093,,,,,,,,,,,,,,,,,,,,,,,,,,,,,,,,,,0,0,0,0,0,0,0,0,0,0,0,0,0,0,0,0,,,,,,,,,,,,,,,,,,,,,
3472883,1745297725136,0.1096,0.0,-68,,-0.08,-0.03,1.02,1,-0,1,1.03,1.29,79,3968,7.6,3.85,,12.87,1.14,86.2,,33.0,5,,,,,,,,,,,,0,0,0,0,0,0,0,0,0,0,0,0,0,0,0,0,,,,,,0.0,,,,,,,,,,,,,,,
3472903,1745297725156,0.11,,,,,,,,,,,,,,,,,,,,,,,0,0,0,0,0.0,0.0,0.0,0.0,2.26,,,0,0,0,0,0,0,0,0,0,0,0,0,0,0,0,0,,0,,,,,38.986019,-76.95002,0.29,48.7,33,3,0.8,0,0.0,-1,0.0,,0,0.0,0.11
3472923,1745297725176,0.1103,0.0,-64,,-0.06,-0.02,0.99,0,-0,0,0.99,1.29,76,4013,2.0,3.56,,12.53,1.14,86.2,,33.0,5,,,,,,,,,,,,0,0,0,0,0,0,0,0,0,0,0,0,0,0,0,0,,,,,,0.0,,,,,,,,,,,,,,,
3472943,1745297725196,0.1106,,,,,,,,,,,,,,,,,,,,,,,,,,,,,,,,,,0,0,0,0,0,0,0,0,0,0,0,0,0,0,0,0,,,,,,,,,,,,,,,,,,,,,
3472963,1745297725216,0.111,0.0,-64,,-0.06,0.06,1.04,1,-0,1,1.04,1.29,80,3939,1.5,2.95,,12.53,1.14,86.2,,33.7,5,,,,,,,,,,,,0,0,0,0,0,0,0,0,0,0,0,0,0,0,0,0,,,,,,0.0,,,,,,,,,,,,,,,
3472983,1745297725236,0.1113,,,,,,,,,,,,,,,,,,,,,,,,,,,,,,,,,,0,0,0,0,0,0,0,0,0,0,0,0,0,0,0,0,,,,,,,,,,,,,,,,,,,,,
3473003,1745297725256,0.1116,0.0,-49,,-0.06,0.06,1.04,2,-0,1,1.05,1.29,81,3939,1.5,2.95,,12.2,1.144,86.2,,33.7,5,0,0,0,0,0.0,0.0,0.0,0.0,2.26,,,0,0,0,0,0,0,0,0,0,0,0,0,0,0,0,0,,0,,,,0.0,38.986019,-76.95002,0.11,48.7,33,3,0.8,0,0.0,-1,0.0,0.0,0,0.0,0.1116
3473023,1745297725276,0.112,,,,,,,,,,,,,,,,,,,,,,,,,,,,,,,,,,0,0,0,0,0,0,0,0,0,0,0,0,0,0,0,0,,,,,,,,,,,,,,,,,,,,,
3473043,1745297725300,0.1123,0.0,-53,,-0.05,0.02,1.02,2,-0,1,1.02,1.29,79,3839,1.5,2.94,,12.08,1.147,86.2,,32.2,5,,,,,,,,,,,,0,0,0,0,0,0,0,0,0,0,0,0,0,0,0,0,,,,,,0.0,,,,,,,,,,,,,,,
3473063,1745297725320,0.1126,,,,,,,,,,,,,,,,,,,,,,,,,,,,,,,,,,0,0,0,0,0,0,0,0,0,0,0,0,0,0,0,0,,,,,,,,,,,,,,,,,,,,,
3473083,1745297725340,0.113,0.0,-34,,-0.06,0.03,1.01,2,-0,1,1.01,1.29,78,3767,7.9,3.73,,12.24,1.138,86.2,,32.2,5,,,,,,,,,,,,0,0,0,0,0,0,0,0,0,0,0,0,0,0,0,0,,,,,,0.0,,,,,,,,,,,,,,,
3473103,1745297725360,0.1133,,,,,,,,,,,,,,,,,,,,,,,0,0,0,0,0.0,0.0,0.0,0.0,2.26,,,0,0,0,0,0,0,0,0,0,0,0,0,0,0,0,0,,0,,,,,38.986019,-76.95002,0.08,48.7,33,3,0.8,0,0.0,-1,0.0,,0,0.0,0.1133
3473123,1745297725380,0.1136,0.0,-72,,-0.06,-0.0,1.03,2,-0,0,1.03,1.29,79,3687,22.7,4.4,,13.35,1.151,86.2,,32.2,5,,,,,,,,,,,,0,0,0,0,0,0,0,0,0,0,0,0,0,0,0,0,,,,,,0.0,,,,,,,,,,,,,,,
3473143,1745297725399,0.114,,,,,,,,,,,,,,,,,,,,,,,,,,,,,,,,,,0,0,0,0,0,0,0,0,0,0,0,0,0,0,0,0,,,,,,,,,,,,,,,,,,,,,
3473163,1745297725419,0.1143,0.0,-64,,-0.06,0.01,1.05,2,-0,0,1.05,1.29,81,3879,39.6,4.38,,13.35,1.151,86.2,,31.4,5,,,,,,,,,,,,0,0,0,0,0,0,0,0,0,0,0,0,0,0,0,0,,,,,,0.0,,,,,,,,,,,,,,,
3473183,1745297725439,0.1146,,,,,,,,,,,,,,,,,,,,,,,,,,,,,,,,,,0,0,0,0,0,0,0,0,0,0,0,0,0,0,0,0,,,,,,,,,,,,,,,,,,,,,
3473203,1745297725459,0.115,0.0,-61,,-0.04,-0.1,0.93,1,-0,-0,0.94,1.29,72,3879,39.6,4.38,,14.18,1.183,86.2,,31.4,5,0,0,0,0,0.0,0.0,0.0,0.0,2.26,,,0,0,0,0,0,0,0,0,0,0,0,0,0,0,0,0,,0,,,,0.0,38.986019,-76.95002,0.1,48.7,33,3,0.8,0,0.0,-1,0.0,0.0,0,0.0,0.115
3473223,1745297725479,0.1153,,,,,,,,,,,,,,,,,,,,,,,,,,,,,,,,,,0,0,0,0,0,0,0,0,0,0,0,0,0,0,0,0,,,,,,,,,,,,,,,,,,,,,
3473243,1745297725499,0.1156,0.0,-46,,-0.06,-0.14,0.9,0,-0,-0,0.91,1.29,70,4320,53.1,5.57,,14.35,1.217,86.2,,37.2,5,,,,,,,,,,,,0,0,0,0,0,0,0,0,0,0,0,0,0,0,0,0,,,,,,0.0,,,,,,,,,,,,,,,
3473263,1745297725519,0.116,,,,,,,,,,,,,,,,,,,,,,,,,,,,,,,,,,0,0,0,0,0,0,0,0,0,0,0,0,0,0,0,0,,,,,,,,,,,,,,,,,,,,,
3473283,1745297725539,0.1163,0.0,-53,,-0.05,-0.13,0.92,1,-0,-0,0.93,1.29,72,4863,61.8,4.96,,14.39,1.174,86.2,,37.2,5,,,,,,,,,,,,0,0,0,0,0,0,0,0,0,0,0,0,0,0,0,0,,,,,,0.0,,,,,,,,,,,,,,,
3473303,1745297725559,0.1166,,,,,,,,,,,,,,,,,,,,,,,0,0,0,0,0.0,0.0,0.0,0.0,2.26,,,0,0,0,0,0,0,0,0,0,0,0,0,0,0,0,0,,0,,,,,38.986019,-76.95002,0.04,48.7,33,3,0.8,0,0.0,-1,0.0,,0,0.0,0.1166
3473323,1745297725579,0.117,0.0,-53,,-0.06,-0.17,0.87,0,-0,-0,0.89,1.29,69,5467,65.7,5.39,,14.32,1.149,86.2,,37.2,5,,,,,,,,,,,,0,0,0,0,0,0,0,0,0,0,0,0,0,0,0,0,,,,,,0.0,,,,,,,,,,,,,,,
3473343,1745297725597,0.1173,,,,,,,,,,,,,,,,,,,,,,,,,,,,,,,,,,0,0,0,0,0,0,0,0,0,0,0,0,0,0,0,0,,,,,,,,,,,,,,,,,,,,,
3473363,1745297725617,0.1176,0.0,-53,,-0.07,-0.16,0.81,-0,-0,-0,0.83,1.29,64,6214,66.9,5.59,,14.32,1.149,86.2,,49.6,5,,,,,,,,,,,,0,0,0,0,0,0,0,0,0,0,0,0,0,0,0,0,,,,,,0.0,,,,,,,,,,,,,,,
3473383,1745297725637,0.118,,,,,,,,,,,,,,,,,,,,,,,,,,,,,,,,,,0,0,0,0,0,0,0,0,0,0,0,0,0,0,0,0,,,,,,,,,,,,,,,,,,,,,
3473403,1745297725657,0.1183,0.0,-53,13.69,-0.07,-0.08,0.87,-1,-0,0,0.88,1.29,68,6214,66.9,5.59,15,14.27,1.118,86.2,167,49.6,5,0,0,0,0,0.0,0.0,0.0,0.0,2.26,0,1.0,0,0,0,0,0,0,0,0,0,0,0,0,0,0,0,0,0,0,1.0,0,0,0.0,38.986019,-76.95002,0.04,48.7,33,3,0.8,0,0.0,-1,0.0,0.0,0,0.0,0.1183
3473423,1745297725677,0.1186,,,,,,,,,,,,,,,,,,,,,,,,,,,,,,,,,,0,0,0,0,0,0,0,0,0,0,0,0,0,0,0,0,,,,,,,,,,,,,,,,,,,,,
