"Interval"|"ms"|0|0|1,"Utc"|"ms"|0|0|1,"FrontBP"|"psi"|-5.0|5.0|25,"SteerAng"|"Degrees"|-145|145|25,"Battery"|"Volts"|-5.0|20.0|1,"AccelX"|"G"|-3.0|3.0|25,"AccelY"|"G"|-3.0|3.0|25,"AccelZ"|"G"|-3.0|3.0|25,"Yaw"|"Deg/Sec"|-120|120|25,"Pitch"|"Deg/Sec"|-120|120|25,"Roll"|"Deg/Sec"|-120|120|25,"Gsum"|"G"|0.0|3.0|25,"GsumMax"|"G"|0.0|3.0|25,"GsumPct"|"%"|0|100|25,"RPM"|""|0|10000|25,"TPS"|"%"|0.0|100.0|25,"InjectorPW"|"ms"|0.0|100.0|25,"Baro"|"kPa"|0|105|1,"MAP"|"Psi"|0.0|255.0|25,"Lambda"|""|-2.0|2.0|25,"IAT"|"C"|0.0|200.0|25,"EngineTemp"|"C"|0|200|1,"EOP"|"PSI"|0.0|152.0|25,"EOT"|"F"|0|250|25,"WSFR"|"MPH"|0|150|10,"WSFL"|"MPH"|0|100|10,"WSRR"|"MPH"|0|100|10,"WSRL"|""|0|100|10,"TCSet"|"%"|0.0|100.0|10,"TCSlip"|"%"|0.0|100.0|10,"TCComp"|"deg"|0.0|50.0|10,"TCCut"|"%"|0.0|100.0|10,"Analog8"|""|0.0|5.0|10,"OilTemp"|"F"|0|300|1,"AA_On"|""|0.0|1.0|1,"ThermLF1"|"C"|0|400|50,"ThermLF2"|"C"|0|400|50,"ThermRR1"|"C"|0|400|50,"ThermRR2"|"C"|0|400|50,"ThermLF3"|"C"|0|400|50,"ThermLF4"|"C"|0|400|50,"ThermLF5"|"C"|0|400|50,"ThermLF6"|"C"|0|400|50,"ThermLF7"|"C"|0|400|50,"ThermLF8"|"C"|0|400|50,"ThermRR3"|"C"|0|400|50,"ThermRR4"|"C"|0|400|50,"ThermRR5"|"C"|0|400|50,"ThermRR6"|"C"|0|400|50,"ThermRR7"|"C"|0|400|50,"ThermRR8"|"C"|0|400|50,"AA_LowDrag"|""|0|1|1,"Gear"|""|1|6|10,"AA_On"|""|0.0|1.0|1,"AA_LowDrag"|""|0|1|1,"Fuel_Mix"|""|-10|10|1,"AA_Packages"|""|0.0|1000.0|25,"Latitude"|"Degrees"|-180.0|180.0|10,"Longitude"|"Degrees"|-180.0|180.0|10,"Speed"|"kph"|0.0|150.0|10,"Altitude"|"m"|0.0|4000.0|10,"GPSSats"|""|0|20|10,"GPSQual"|""|0|5|10,"GPSDOP"|""|0.0|20.0|10
502094,1745298966914,0.0,-19,,-0.08,-0.05,0.96,1,-0,0,0.97,0.97,100,4847,47.3,6.38,,14.22,1.249,97.0,,34.4,5,,,,,,,,,,,,0,0,0,0,0,0,0,0,0,0,0,0,0,0,0,0,,,,,,0.0,,,,,,,
502114,1745298966934,,,,,,,,,,,,,,,,,,,,,,,,,,,,,,,,,,0,0,0,0,0,0,0,0,0,0,0,0,0,0,0,0,,,,,,,,,,,,,
502134,1745298966954,0.0,-38,,-0.06,-0.05,0.98,1,-0,-0,0.98,0.98,100,5309,37.6,5.71,,13.91,1.249,97.0,,34.4,5,,,,,,,,,,,,0,0,0,0,0,0,0,0,0,0,0,0,0,0,0,0,,,,,,0.0,,,,,,,
502154,1745298966974,,,,,,,,,,,,,,,,,,,,,,,,,,,,,,,,,,0,0,0,0,0,0,0,0,0,0,0,0,0,0,0,0,,,,,,,,,,,,,
502174,1745298966994,0.0,-15,,-0.06,-0.24,0.87,-1,-0,-1,0.9,0.98,92,6122,0.0,1.58,,13.91,1.249,97.0,,43.3,5,0,22,0,0,0.0,24.0,0.0,0.0,2.26,,,0,0,0,0,0,0,0,0,0,0,0,0,0,0,0,0,,0,,,,0.0,38.986019,-76.95002,0.0,50.3,35,3,0.7
502194,1745298967004,,,,,,,,,,,,,,,,,,,,,,,,,,,,,,,,,,0,0,0,0,0,0,0,0,0,0,0,0,0,0,0,0,,,,,,,,,,,,,
502214,1745298967024,0.0,-12,,-0.03,-0.26,0.94,-1,-0,-1,0.98,0.98,99,6122,0.0,1.58,,11.96,1.199,97.0,,43.3,5,,,,,,,,,,,,0,0,0,0,0,0,0,0,0,0,0,0,0,0,0,0,,,,,,0.0,,,,,,,
502234,1745298967044,,,,,,,,,,,,,,,,,,,,,,,,,,,,,,,,,,0,0,0,0,0,0,0,0,0,0,0,0,0,0,0,0,,,,,,,,,,,,,
502254,1745298967064,0.0,-8,,-0.08,-0.04,1.04,0,-0,-0,1.04,1.04,100,6237,0.0,1.4,,10.61,1.067,97.0,,50.6,5,,,,,,,,,,,,0,0,0,0,0,0,0,0,0,0,0,0,0,0,0,0,,,,,,0.0,,,,,,,
502274,1745298967084,,,,,,,,,,,,,,,,,,,,,,,0,22,0,0,0.0,24.0,0.0,0.0,2.26,,,0,0,0,0,0,0,0,0,0,0,0,0,0,0,0,0,,0,,,,,38.986019,-76.95002,0.0,50.3,35,3,0.7
502294,1745298967109,0.0,-19,,-0.1,0.08,1.14,2,-0,0,1.15,1.15,100,5881,0.0,1.4,,9.93,1.006,97.0,,50.6,5,,,,,,,,,,,,0,0,0,0,0,0,0,0,0,0,0,0,0,0,0,0,,,,,,0.0,,,,,,,
502314,1745298967129,,,,,,,,,,,,,,,,,,,,,,,,,,,,,,,,,,0,0,0,0,0,0,0,0,0,0,0,0,0,0,0,0,,,,,,,,,,,,,
502334,1745298967149,0.0,-34,,-0.1,-0.02,1.09,1,-0,-0,1.09,1.15,95,5463,0.0,1.4,,9.58,1.131,97.0,,50.6,5,,,,,,,,,,,,0,0,0,0,0,0,0,0,0,0,0,0,0,0,0,0,,,,,,0.0,,,,,,,
502354,1745298967169,,,,,,,,,,,,,,,,,,,,,,,,,,,,,,,,,,0,0,0,0,0,0,0,0,0,0,0,0,0,0,0,0,,,,,,,,,,,,,
502374,1745298967189,0.0,-12,,-0.11,0.03,1.11,1,-0,0,1.11,1.15,97,5106,0.0,1.61,,9.58,1.131,97.0,,43.6,5,0,22,0,0,0.0,24.0,0.0,0.0,2.25,,,0,0,0,0,0,0,0,0,0,0,0,0,0,0,0,0,,0,,,,0.0,38.986019,-76.95002,0.04,50.3,35,3,0.7
502394,1745298967207,,,,,,,,,,,,,,,,,,,,,,,,,,,,,,,,,,0,0,0,0,0,0,0,0,0,0,0,0,0,0,0,0,,,,,,,,,,,,,
502414,1745298967227,0.0,-19,,-0.11,-0.05,1.04,0,-0,-0,1.05,1.15,91,5106,0.0,1.61,,9.52,1.251,97.0,,43.6,5,,,,,,,,,,,,0,0,0,0,0,0,0,0,0,0,0,0,0,0,0,0,,,,,,0.0,,,,,,,
502434,1745298967247,,,,,,,,,,,,,,,,,,,,,,,,,,,,,,,,,,0,0,0,0,0,0,0,0,0,0,0,0,0,0,0,0,,,,,,,,,,,,,
502454,1745298967267,0.0,-19,,-0.07,-0.15,0.95,0,-0,-0,0.96,1.15,84,4735,0.0,1.78,,9.66,1.252,97.0,,36.3,5,,,,,,,,,,,,0,0,0,0,0,0,0,0,0,0,0,0,0,0,0,0,,,,,,0.0,,,,,,,
502474,1745298967287,,,,,,,,,,,,,,,,,,,,,,,0,22,0,0,0.0,24.0,0.0,0.0,2.26,,,0,0,0,0,0,0,0,0,0,0,0,0,0,0,0,0,,0,,,,,38.986019,-76.95002,0.04,50.3,35,3,0.7
502494,1745298967313,0.0,-23,,-0.06,-0.26,0.9,-1,-0,-0,0.94,1.15,82,4353,0.0,1.83,,9.82,1.25,97.0,,36.3,5,,,,,,,,,,,,0,0,0,0,0,0,0,0,0,0,0,0,0,0,0,0,,,,,,0.0,,,,,,,
502514,1745298967333,,,,,,,,,,,,,,,,,,,,,,,,,,,,,,,,,,0,0,0,0,0,0,0,0,0,0,0,0,0,0,0,0,,,,,,,,,,,,,
502534,1745298967353,0.0,-19,,-0.08,-0.08,0.95,1,-0,-0,0.96,1.15,83,4065,1.6,1.86,,10.2,1.249,97.0,,36.3,5,,,,,,,,,,,,0,0,0,0,0,0,0,0,0,0,0,0,0,0,0,0,,,,,,0.0,,,,,,,
502554,1745298967373,,,,,,,,,,,,,,,,,,,,,,,,,,,,,,,,,,0,0,0,0,0,0,0,0,0,0,0,0,0,0,0,0,,,,,,,,,,,,,
502574,1745298967393,0.0,-12,13.17,-0.08,-0.1,0.96,0,-0,-0,0.97,1.15,84,3750,21.4,4.65,15,10.2,1.249,97.0,167,30.0,5,0,22,0,0,0.0,24.0,0.0,0.0,2.26,0,1.0,0,0,0,0,0,0,0,0,0,0,0,0,0,0,0,0,0,0,1.0,0,0,0.0,38.986019,-76.95002,0.04,50.3,35,3,0.7
502594,1745298967413,,,,,,,,,,,,,,,,,,,,,,,,,,,,,,,,,,0,0,0,0,0,0,0,0,0,0,0,0,0,0,0,0,,,,,,,,,,,,,
502614,1745298967433,0.0,-0,,-0.09,-0.14,0.95,0,-0,-0,0.97,1.15,84,3750,21.4,4.65,,12.21,1.248,97.0,,30.0,5,,,,,,,,,,,,0,0,0,0,0,0,0,0,0,0,0,0,0,0,0,0,,,,,,0.0,,,,,,,
502634,1745298967453,,,,,,,,,,,,,,,,,,,,,,,,,,,,,,,,,,0,0,0,0,0,0,0,0,0,0,0,0,0,0,0,0,,,,,,,,,,,,,
502654,1745298967473,0.0,-23,,-0.09,-0.26,0.97,-1,-0,-0,1.01,1.15,88,3620,25.7,4.94,,13.68,1.249,97.0,,26.6,5,,,,,,,,,,,,0,0,0,0,0,0,0,0,0,0,0,0,0,0,0,0,,,,,,0.0,,,,,,,
502674,1745298967493,,,,,,,,,,,,,,,,,,,,,,,0,22,0,0,0.0,24.0,0.0,0.0,2.26,,,0,0,0,0,0,0,0,0,0,0,0,0,0,0,0,0,,0,,,,,38.986019,-76.95002,0.05,50.3,35,3,0.7
502694,1745298967513,0.0,-12,,-0.07,-0.25,0.97,-2,-0,-0,1.0,1.15,87,3561,25.9,4.97,,13.87,1.249,97.0,,26.6,5,,,,,,,,,,,,0,0,0,0,0,0,0,0,0,0,0,0,0,0,0,0,,,,,,0.0,,,,,,,
502714,1745298967533,,,,,,,,,,,,,,,,,,,,,,,,,,,,,,,,,,0,0,0,0,0,0,0,0,0,0,0,0,0,0,0,0,,,,,,,,,,,,,
502734,1745298967553,0.0,-15,,-0.08,-0.14,0.98,0,-0,-0,0.99,1.15,86,3970,0.0,2.72,,12.97,1.25,97.0,,26.6,5,,,,,,,,,,,,0,0,0,0,0,0,0,0,0,0,0,0,0,0,0,0,,,,,,0.0,,,,,,,
502754,1745298967573,,,,,,,,,,,,,,,,,,,,,,,,,,,,,,,,,,0,0,0,0,0,0,0,0,0,0,0,0,0,0,0,0,,,,,,,,,,,,,
502774,1745298967593,0.0,-8,,-0.05,-0.11,1.04,-0,-0,0,1.05,1.15,91,3964,0.0,2.66,,12.97,1.25,97.0,,30.1,5,0,22,0,0,0.0,24.0,0.0,0.0,2.26,,,0,0,0,0,0,0,0,0,0,0,0,0,0,0,0,0,,0,,,,0.0,38.986019,-76.95002,0.05,50.3,35,3,0.7
502794,1745298967613,,,,,,,,,,,,,,,,,,,,,,,,,,,,,,,,,,0,0,0,0,0,0,0,0,0,0,0,0,0,0,0,0,,,,,,,,,,,,,
502814,1745298967633,0.0,-4,,-0.04,-0.14,1.03,-2,-0,0,1.04,1.15,91,3964,0.0,2.66,,12.25,1.252,97.0,,30.1,5,,,,,,,,,,,,0,0,0,0,0,0,0,0,0,0,0,0,0,0,0,0,,,,,,0.0,,,,,,,
502834,1745298967653,,,,,,,,,,,,,,,,,,,,,,,,,,,,,,,,,,0,0,0,0,0,0,0,0,0,0,0,0,0,0,0,0,,,,,,,,,,,,,
502854,1745298967673,0.0,-8,,-0.05,-0.1,1.01,-2,-0,0,1.02,1.15,89,3870,0.0,2.67,,11.81,1.252,97.0,,28.3,5,,,,,,,,,,,,0,0,0,0,0,0,0,0,0,0,0,0,0,0,0,0,,,,,,0.0,,,,,,,
502874,1745298967693,,,,,,,,,,,,,,,,,,,,,,,0,22,0,0,0.0,24.0,0.0,0.0,2.26,,,0,0,0,0,0,0,0,0,0,0,0,0,0,0,0,0,,0,,,,,38.986019,-76.95002,0.0,50.3,35,3,0.7
502894,1745298967715,0.0,-15,,-0.05,-0.07,1.01,-2,-0,0,1.01,1.15,88,3777,0.0,2.72,,11.61,1.252,97.0,,28.3,5,,,,,,,,,,,,0,0,0,0,0,0,0,0,0,0,0,0,0,0,0,0,,,,,,0.0,,,,,,,
502914,1745298967735,,,,,,,,,,,,,,,,,,,,,,,,,,,,,,,,,,0,0,0,0,0,0,0,0,0,0,0,0,0,0,0,0,,,,,,,,,,,,,
502934,1745298967755,0.0,-23,,-0.05,-0.04,1.02,0,-0,0,1.02,1.15,89,3608,0.0,2.73,,11.54,1.251,97.0,,28.3,5,,,,,,,,,,,,0,0,0,0,0,0,0,0,0,0,0,0,0,0,0,0,,,,,,0.0,,,,,,,
502954,1745298967775,,,,,,,,,,,,,,,,,,,,,,,,,,,,,,,,,,0,0,0,0,0,0,0,0,0,0,0,0,0,0,0,0,,,,,,,,,,,,,
502974,1745298967795,0.0,-8,,-0.07,-0.04,0.96,1,-0,-0,0.97,1.15,84,3524,3.6,3.41,,11.54,1.251,97.0,,26.6,5,0,22,0,0,0.0,24.0,0.0,0.0,2.26,,,0,0,0,0,0,0,0,0,0,0,0,0,0,0,0,0,,0,,,,0.0,38.986019,-76.95002,0.0,50.3,35,3,0.7
502994,1745298967813,,,,,,,,,,,,,,,,,,,,,,,,,,,,,,,,,,0,0,0,0,0,0,0,0,0,0,0,0,0,0,0,0,,,,,,,,,,,,,
503014,1745298967833,0.0,-23,,-0.06,-0.06,1.05,-1,-0,0,1.05,1.15,91,3524,3.6,3.41,,11.84,1.25,97.0,,26.6,5,,,,,,,,,,,,0,0,0,0,0,0,0,0,0,0,0,0,0,0,0,0,,,,,,0.0,,,,,,,
503034,1745298967853,,,,,,,,,,,,,,,,,,,,,,,,,,,,,,,,,,0,0,0,0,0,0,0,0,0,0,0,0,0,0,0,0,,,,,,,,,,,,,
503054,1745298967873,0.0,-15,,-0.07,-0.07,0.95,1,-0,-0,0.95,1.15,83,3370,14.2,4.13,,12.73,1.249,97.0,,25.7,5,,,,,,,,,,,,0,0,0,0,0,0,0,0,0,0,0,0,0,0,0,0,,,,,,0.0,,,,,,,
503074,1745298967893,,,,,,,,,,,,,,,,,,,,,,,0,22,0,0,0.0,24.0,0.0,0.0,2.26,,,0,0,0,0,0,0,0,0,0,0,0,0,0,0,0,0,,0,,,,,38.986019,-76.95002,0.0,50.3,35,3,0.7
503094,1745298967915,0.0,-8,,-0.07,-0.09,1.02,-1,-0,0,1.03,1.15,89,3441,17.2,4.44,,13.49,1.249,97.0,,25.7,5,,,,,,,,,,,,0,0,0,0,0,0,0,0,0,0,0,0,0,0,0,0,,,,,,0.0,,,,,,,
503114,1745298967935,,,,,,,,,,,,,,,,,,,,,,,,,,,,,,,,,,0,0,0,0,0,0,0,0,0,0,0,0,0,0,0,0,,,,,,,,,,,,,
503134,1745298967955,0.0,-19,,-0.06,0.04,1.02,0,-0,1,1.02,1.15,89,3494,17.2,4.32,,13.61,1.249,97.0,,25.7,5,,,,,,,,,,,,0,0,0,0,0,0,0,0,0,0,0,0,0,0,0,0,,,,,,0.0,,,,,,,
503154,1745298967975,,,,,,,,,,,,,,,,,,,,,,,,,,,,,,,,,,0,0,0,0,0,0,0,0,0,0,0,0,0,0,0,0,,,,,,,,,,,,,
503174,1745298967995,0.0,-0,,-0.06,0.13,1.01,1,-0,0,1.02,1.15,89,3667,0.0,2.83,,13.61,1.249,97.0,,26.3,5,0,22,0,0,0.0,24.0,0.0,0.0,2.26,,,0,0,0,0,0,0,0,0,0,0,0,0,0,0,0,0,,0,,,,0.0,38.986019,-76.95002,0.0,50.3,35,3,0.7
503194,1745298968006,,,,,,,,,,,,,,,,,,,,,,,,,,,,,,,,,,0,0,0,0,0,0,0,0,0,0,0,0,0,0,0,0,,,,,,,,,,,,,
503214,1745298968026,0.0,3,,-0.06,0.08,0.98,2,-0,0,0.99,1.15,86,3667,0.0,2.83,,12.96,1.249,97.0,,26.3,5,,,,,,,,,,,,0,0,0,0,0,0,0,0,0,0,0,0,0,0,0,0,,,,,,0.0,,,,,,,
503234,1745298968046,,,,,,,,,,,,,,,,,,,,,,,,,,,,,,,,,,0,0,0,0,0,0,0,0,0,0,0,0,0,0,0,0,,,,,,,,,,,,,
503254,1745298968066,0.0,3,,-0.09,0.08,0.97,1,-0,-0,0.97,1.15,84,3658,0.0,2.71,,12.4,1.213,97.0,,27.5,5,,,,,,,,,,,,0,0,0,0,0,0,0,0,0,0,0,0,0,0,0,0,,,,,,0.0,,,,,,,
503274,1745298968086,,,,,,,,,,,,,,,,,,,,,,,0,22,0,0,0.0,24.0,0.0,0.0,2.26,,,0,0,0,0,0,0,0,0,0,0,0,0,0,0,0,0,,0,,,,,38.986019,-76.95002,0.07,50.3,35,3,0.7
503294,1745298968104,0.0,-23,,-0.1,-0.02,1.02,-0,-0,0,1.02,1.15,89,3605,0.0,2.72,,12.11,1.194,97.0,,27.5,5,,,,,,,,,,,,0,0,0,0,0,0,0,0,0,0,0,0,0,0,0,0,,,,,,0.0,,,,,,,
503314,1745298968124,,,,,,,,,,,,,,,,,,,,,,,,,,,,,,,,,,0,0,0,0,0,0,0,0,0,0,0,0,0,0,0,0,,,,,,,,,,,,,
503334,1745298968144,0.0,-19,,-0.07,0.14,1.03,0,-0,0,1.04,1.15,91,3477,0.0,2.73,,11.92,1.209,97.0,,27.5,5,,,,,,,,,,,,0,0,0,0,0,0,0,0,0,0,0,0,0,0,0,0,,,,,,0.0,,,,,,,
503354,1745298968164,,,,,,,,,,,,,,,,,,,,,,,,,,,,,,,,,,0,0,0,0,0,0,0,0,0,0,0,0,0,0,0,0,,,,,,,,,,,,,
503374,1745298968184,0.0,-8,,-0.09,0.13,0.98,1,-0,-0,0.99,1.15,86,3396,6.8,3.93,,11.92,1.209,97.0,,25.7,5,0,22,0,0,0.0,24.0,0.0,0.0,2.25,,,0,0,0,0,0,0,0,0,0,0,0,0,0,0,0,0,,0,,,,0.0,38.986019,-76.95002,0.08,50.3,35,3,0.7
503394,1745298968214,,,,,,,,,,,,,,,,,,,,,,,,,,,,,,,,,,0,0,0,0,0,0,0,0,0,0,0,0,0,0,0,0,,,,,,,,,,,,,
503414,1745298968234,0.0,-8,,-0.07,0.14,1.01,0,-0,0,1.02,1.15,89,3396,6.8,3.93,,12.32,1.25,97.0,,25.7,5,,,,,,,,,,,,0,0,0,0,0,0,0,0,0,0,0,0,0,0,0,0,,,,,,0.0,,,,,,,
503434,1745298968254,,,,,,,,,,,,,,,,,,,,,,,,,,,,,,,,,,0,0,0,0,0,0,0,0,0,0,0,0,0,0,0,0,,,,,,,,,,,,,
503454,1745298968274,0.0,-15,,-0.1,0.07,1.0,-0,-0,-0,1.0,1.15,87,3327,9.1,3.99,,12.85,1.252,97.0,,25.1,5,,,,,,,,,,,,0,0,0,0,0,0,0,0,0,0,0,0,0,0,0,0,,,,,,0.0,,,,,,,
503474,1745298968294,,,,,,,,,,,,,,,,,,,,,,,0,0,0,0,0.0,0.0,0.0,0.0,2.25,,,0,0,0,0,0,0,0,0,0,0,0,0,0,0,0,0,,0,,,,,38.986019,-76.95002,0.06,50.3,35,3,0.7
503494,1745298968314,0.0,-0,,-0.06,0.1,1.0,0,-0,0,1.01,1.15,88,3357,11.5,4.08,,13.25,1.251,97.0,,25.1,5,,,,,,,,,,,,0,0,0,0,0,0,0,0,0,0,0,0,0,0,0,0,,,,,,0.0,,,,,,,
503514,1745298968334,,,,,,,,,,,,,,,,,,,,,,,,,,,,,,,,,,0,0,0,0,0,0,0,0,0,0,0,0,0,0,0,0,,,,,,,,,,,,,
503534,1745298968354,0.0,-27,,-0.09,0.12,0.97,1,-0,-0,0.98,1.15,85,3475,11.6,3.98,,13.29,1.249,97.0,,25.1,5,,,,,,,,,,,,0,0,0,0,0,0,0,0,0,0,0,0,0,0,0,0,,,,,,0.0,,,,,,,
503554,1745298968374,,,,,,,,,,,,,,,,,,,,,,,,,,,,,,,,,,0,0,0,0,0,0,0,0,0,0,0,0,0,0,0,0,,,,,,,,,,,,,
503574,1745298968394,0.0,-15,13.23,-0.1,0.1,1.03,-1,-0,0,1.03,1.15,90,3517,0.0,2.76,15,13.29,1.249,97.0,171,26.2,5,0,0,0,0,0.0,0.0,0.0,0.0,2.26,0,1.0,0,0,0,0,0,0,0,0,0,0,0,0,0,0,0,0,0,0,1.0,0,0,0.0,38.986019,-76.95002,0.05,50.3,35,3,0.7
503594,1745298968414,,,,,,,,,,,,,,,,,,,,,,,,,,,,,,,,,,0,0,0,0,0,0,0,0,0,0,0,0,0,0,0,0,,,,,,,,,,,,,
503614,1745298968434,0.0,-8,,-0.07,0.19,1.02,0,-0,0,1.04,1.15,91,3517,0.0,2.76,,12.81,1.248,97.0,,26.2,5,,,,,,,,,,,,0,0,0,0,0,0,0,0,0,0,0,0,0,0,0,0,,,,,,0.0,,,,,,,
503634,1745298968454,,,,,,,,,,,,,,,,,,,,,,,,,,,,,,,,,,0,0,0,0,0,0,0,0,0,0,0,0,0,0,0,0,,,,,,,,,,,,,
503654,1745298968474,0.0,-15,,-0.09,0.15,0.97,1,-0,-0,0.99,1.15,86,3499,0.0,2.74,,12.41,1.223,97.0,,25.8,5,,,,,,,,,,,,0,0,0,0,0,0,0,0,0,0,0,0,0,0,0,0,,,,,,0.0,,,,,,,
503674,1745298968494,,,,,,,,,,,,,,,,,,,,,,,0,0,0,0,0.0,0.0,0.0,0.0,2.26,,,0,0,0,0,0,0,0,0,0,0,0,0,0,0,0,0,,0,,,,,38.986019,-76.95002,0.04,50.3,35,3,0.7
503694,1745298968514,0.0,-12,,-0.06,0.15,1.01,0,-0,0,1.02,1.15,89,3338,0.0,2.77,,12.24,1.207,97.0,,25.8,5,,,,,,,,,,,,0,0,0,0,0,0,0,0,0,0,0,0,0,0,0,0,,,,,,0.0,,,,,,,
503714,1745298968534,,,,,,,,,,,,,,,,,,,,,,,,,,,,,,,,,,0,0,0,0,0,0,0,0,0,0,0,0,0,0,0,0,,,,,,,,,,,,,
503734,1745298968554,0.0,-27,,-0.08,0.08,1.06,-1,-0,0,1.07,1.15,93,3226,8.1,3.49,,12.64,1.219,97.0,,25.8,5,,,,,,,,,,,,0,0,0,0,0,0,0,0,0,0,0,0,0,0,0,0,,,,,,0.0,,,,,,,
503754,1745298968574,,,,,,,,,,,,,,,,,,,,,,,,,,,,,,,,,,0,0,0,0,0,0,0,0,0,0,0,0,0,0,0,0,,,,,,,,,,,,,
503774,1745298968594,0.0,-27,,-0.11,0.11,0.98,0,-0,-0,0.99,1.15,86,3217,11.3,4.05,,12.64,1.219,97.0,,23.3,5,0,0,0,0,0.0,0.0,0.0,0.0,2.26,,,0,0,0,0,0,0,0,0,0,0,0,0,0,0,0,0,,0,,,,0.0,38.986019,-76.95002,0.05,50.3,35,3,0.7
503794,1745298968614,,,,,,,,,,,,,,,,,,,,,,,,,,,,,,,,,,0,0,0,0,0,0,0,0,0,0,0,0,0,0,0,0,,,,,,,,,,,,,
503814,1745298968634,0.0,-19,,-0.08,0.16,0.96,1,-0,0,0.98,1.15,85,3217,11.3,4.05,,13.17,1.251,97.0,,23.3,5,,,,,,,,,,,,0,0,0,0,0,0,0,0,0,0,0,0,0,0,0,0,,,,,,0.0,,,,,,,
503834,1745298968654,,,,,,,,,,,,,,,,,,,,,,,,,,,,,,,,,,0,0,0,0,0,0,0,0,0,0,0,0,0,0,0,0,,,,,,,,,,,,,
503854,1745298968674,0.0,-4,,-0.1,0.01,1.01,-1,-0,-0,1.02,1.15,88,3265,12.3,4.1,,13.45,1.252,97.0,,25.0,5,,,,,,,,,,,,0,0,0,0,0,0,0,0,0,0,0,0,0,0,0,0,,,,,,0.0,,,,,,,
503874,1745298968694,,,,,,,,,,,,,,,,,,,,,,,0,0,0,0,0.0,0.0,0.0,0.0,2.25,,,0,0,0,0,0,0,0,0,0,0,0,0,0,0,0,0,,0,,,,,38.986019,-76.95002,0.05,50.3,35,3,0.7
503894,1745298968714,0.0,-15,,-0.08,0.11,1.0,0,-0,0,1.01,1.15,88,3472,0.0,2.84,,13.16,1.252,97.0,,25.0,5,,,,,,,,,,,,0,0,0,0,0,0,0,0,0,0,0,0,0,0,0,0,,,,,,0.0,,,,,,,
503914,1745298968734,,,,,,,,,,,,,,,,,,,,,,,,,,,,,,,,,,0,0,0,0,0,0,0,0,0,0,0,0,0,0,0,0,,,,,,,,,,,,,
503934,1745298968754,0.0,-27,,-0.09,0.08,0.95,1,-0,-0,0.95,1.15,83,3480,0.0,2.75,,12.64,1.252,97.0,,25.0,5,,,,,,,,,,,,0,0,0,0,0,0,0,0,0,0,0,0,0,0,0,0,,,,,,0.0,,,,,,,
503954,1745298968774,,,,,,,,,,,,,,,,,,,,,,,,,,,,,,,,,,0,0,0,0,0,0,0,0,0,0,0,0,0,0,0,0,,,,,,,,,,,,,
503974,1745298968794,0.0,-38,,-0.08,0.04,1.03,-1,-0,0,1.03,1.15,90,3394,0.0,2.76,,12.64,1.252,97.0,,25.8,5,0,0,0,0,0.0,0.0,0.0,0.0,2.25,,,0,0,0,0,0,0,0,0,0,0,0,0,0,0,0,0,,0,,,,0.0,38.986019,-76.95002,0.11,50.3,35,3,0.7
503994,1745298968812,,,,,,,,,,,,,,,,,,,,,,,,,,,,,,,,,,0,0,0,0,0,0,0,0,0,0,0,0,0,0,0,0,,,,,,,,,,,,,
504014,1745298968832,0.0,3,,-0.11,0.02,0.98,1,-0,-0,0.99,1.15,86,3394,0.0,2.76,,12.44,1.25,97.0,,25.8,5,,,,,,,,,,,,0,0,0,0,0,0,0,0,0,0,0,0,0,0,0,0,,,,,,0.0,,,,,,,
504034,1745298968852,,,,,,,,,,,,,,,,,,,,,,,,,,,,,,,,,,0,0,0,0,0,0,0,0,0,0,0,0,0,0,0,0,,,,,,,,,,,,,
504054,1745298968872,0.0,-15,,-0.08,0.11,0.98,1,-0,0,0.99,1.15,86,3313,0.0,2.81,,12.2,1.249,97.0,,24.7,5,,,,,,,,,,,,0,0,0,0,0,0,0,0,0,0,0,0,0,0,0,0,,,,,,0.0,,,,,,,
504074,1745298968892,,,,,,,,,,,,,,,,,,,,,,,0,0,0,0,0.0,0.0,0.0,0.0,2.25,,,0,0,0,0,0,0,0,0,0,0,0,0,0,0,0,0,,0,,,,,38.986019,-76.95002,0.05,50.3,35,3,0.7
504094,1745298968914,0.0,-0,,-0.06,0.01,1.06,-1,-0,0,1.07,1.15,93,3168,0.0,2.84,,12.13,1.249,97.0,,24.7,5,,,,,,,,,,,,0,0,0,0,0,0,0,0,0,0,0,0,0,0,0,0,,,,,,0.0,,,,,,,
504114,1745298968934,,,,,,,,,,,,,,,,,,,,,,,,,,,,,,,,,,0,0,0,0,0,0,0,0,0,0,0,0,0,0,0,0,,,,,,,,,,,,,
504134,1745298968954,0.0,-38,,-0.07,-0.02,1.11,-1,-0,0,1.11,1.15,97,3089,0.0,2.87,,12.2,1.249,97.0,,24.7,5,,,,,,,,,,,,0,0,0,0,0,0,0,0,0,0,0,0,0,0,0,0,,,,,,0.0,,,,,,,
504154,1745298968974,,,,,,,,,,,,,,,,,,,,,,,,,,,,,,,,,,0,0,0,0,0,0,0,0,0,0,0,0,0,0,0,0,,,,,,,,,,,,,
504174,1745298968994,0.0,-27,,-0.08,-0.05,1.15,-2,-0,0,1.15,1.15,100,3021,0.0,2.93,,12.2,1.249,97.0,,22.3,5,0,0,0,0,0.0,0.0,0.0,0.0,2.26,,,0,0,0,0,0,0,0,0,0,0,0,0,0,0,0,0,,0,,,,0.0,38.986019,-76.95002,0.07,50.3,35,3,0.7
504194,1745298969004,,,,,,,,,,,,,,,,,,,,,,,,,,,,,,,,,,0,0,0,0,0,0,0,0,0,0,0,0,0,0,0,0,,,,,,,,,,,,,
504214,1745298969024,0.0,-19,,-0.08,-0.06,1.18,-2,-0,0,1.18,1.18,100,3021,0.0,2.93,,12.23,1.249,97.0,,22.3,5,,,,,,,,,,,,0,0,0,0,0,0,0,0,0,0,0,0,0,0,0,0,,,,,,0.0,,,,,,,
504294,1745298969111,0.0,3,,-0.03,-0.05,1.14,-3,-0,1,1.14,1.19,96,2819,5.0,3.74,,12.92,1.252,97.0,,21.3,5,,,,,,,,,,,,0,0,0,0,0,0,0,0,0,0,0,0,0,0,0,0,,,,,,0.0,,,,,,,
504374,1745298969191,0.0,-83,,-0.03,-0.01,0.98,0,-0,0,0.98,1.19,82,2989,0.0,3.02,,13.07,1.252,97.0,,21.6,5,0,0,0,0,0.0,0.0,0.0,0.0,2.25,,,0,0,0,0,0,0,0,0,0,0,0,0,0,0,0,0,,0,,,,0.0,38.986019,-76.95002,0.04,50.3,35,3,0.7
504474,1745298969293,,,,,,,,,,,,,,,,,,,,,,,0,0,0,0,0.0,0.0,0.0,0.0,2.26,,,0,0,0,0,0,0,0,0,0,0,0,0,0,0,0,0,,0,,,,,38.986019,-76.95002,0.11,50.3,35,3,0.7
504554,1745298969375,,,,,,,,,,,,,,,,,,,,,,,,,,,,,,,,,,0,0,0,0,0,0,0,0,0,0,0,0,0,0,0,0,,,,,,,,,,,,,
504654,1745298969475,0.0,-83,,-0.08,-0.05,0.96,0,-0,-0,0.96,1.19,81,2632,10.7,3.86,,13.59,1.248,97.0,,20.2,5,,,,,,,,,,,,0,0,0,0,0,0,0,0,0,0,0,0,0,0,0,0,,,,,,0.0,,,,,,,
504674,1745298969495,,,,,,,,,,,,,,,,,,,,,,,0,0,0,0,0.0,0.0,0.0,0.0,2.25,,,0,0,0,0,0,0,0,0,0,0,0,0,0,0,0,0,,0,,,,,38.986019,-76.95002,0.05,50.3,35,3,0.7
504694,1745298969515,0.0,-15,,-0.09,-0.05,1.01,0,-0,-0,1.01,1.19,85,2695,12.1,3.95,,13.79,1.25,97.0,,20.2,5,,,,,,,,,,,,0,0,0,0,0,0,0,0,0,0,0,0,0,0,0,0,,,,,,0.0,,,,,,,
504734,1745298969555,0.0,-27,,-0.08,-0.06,1.03,-1,-0,0,1.03,1.19,86,2875,0.0,3.79,,13.49,1.251,97.0,,20.2,5,,,,,,,,,,,,0,0,0,0,0,0,0,0,0,0,0,0,0,0,0,0,,,,,,0.0,,,,,,,
504754,1745298969575,,,,,,,,,,,,,,,,,,,,,,,,,,,,,,,,,,0,0,0,0,0,0,0,0,0,0,0,0,0,0,0,0,,,,,,,,,,,,,
504774,1745298969595,0.0,-15,,-0.06,-0.02,1.03,-1,-0,0,1.03,1.19,87,2952,0.0,3.07,,13.49,1.251,97.0,,20.9,5,0,0,0,0,0.0,0.0,0.0,0.0,2.26,,,0,0,0,0,0,0,0,0,0,0,0,0,0,0,0,0,,0,,,,0.0,38.986019,-76.95002,0.21,50.3,35,3,0.7
504794,1745298969615,,,,,,,,,,,,,,,,,,,,,,,,,,,,,,,,,,0,0,0,0,0,0,0,0,0,0,0,0,0,0,0,0,,,,,,,,,,,,,
504814,1745298969635,0.0,-4,,-0.02,0.02,1.02,-0,-0,1,1.03,1.19,86,2952,0.0,3.07,,13.09,1.252,97.0,,20.9,5,,,,,,,,,,,,0,0,0,0,0,0,0,0,0,0,0,0,0,0,0,0,,,,,,0.0,,,,,,,
504834,1745298969655,,,,,,,,,,,,,,,,,,,,,,,,,,,,,,,,,,0,0,0,0,0,0,0,0,0,0,0,0,0,0,0,0,,,,,,,,,,,,,
504854,1745298969675,0.0,-15,,0.01,0.05,0.99,0,-0,1,0.99,1.19,83,2947,0.0,2.97,,12.89,1.252,97.0,,21.8,5,,,,,,,,,,,,0,0,0,0,0,0,0,0,0,0,0,0,0,0,0,0,,,,,,0.0,,,,,,,
504874,1745298969695,,,,,,,,,,,,,,,,,,,,,,,0,0,0,0,0.0,0.0,0.0,0.0,2.26,,,0,0,0,0,0,0,0,0,0,0,0,0,0,0,0,0,,0,,,,,38.986019,-76.95002,0.43,50.3,35,3,0.7
504894,1745298969715,0.0,-8,,0.01,0.07,0.92,1,-0,0,0.93,1.19,78,2878,6.7,3.83,,13.04,1.252,97.0,,21.8,5,,,,,,,,,,,,0,0,0,0,0,0,0,0,0,0,0,0,0,0,0,0,,,,,,0.0,,,,,,,
504914,1745298969735,,,,,,,,,,,,,,,,,,,,,,,,,,,,,,,,,,0,0,0,0,0,0,0,0,0,0,0,0,0,0,0,0,,,,,,,,,,,,,
504934,1745298969755,0.0,-27,,-0.03,0.06,0.88,2,-0,0,0.88,1.19,74,2971,13.4,4.24,,13.56,1.251,97.0,,21.8,5,,,,,,,,,,,,0,0,0,0,0,0,0,0,0,0,0,0,0,0,0,0,,,,,,0.0,,,,,,,
504954,1745298969775,,,,,,,,,,,,,,,,,,,,,,,,,,,,,,,,,,0,0,0,0,0,0,0,0,0,0,0,0,0,0,0,0,,,,,,,,,,,,,
504974,1745298969795,0.0,-8,,-0.06,0.07,0.82,3,-0,-0,0.82,1.19,69,3091,14.2,4.3,,13.56,1.251,97.0,,21.6,5,0,0,0,0,0.0,0.0,0.0,0.0,2.26,,,0,0,0,0,0,0,0,0,0,0,0,0,0,0,0,0,,0,,,,0.0,38.986019,-76.95002,0.31,50.3,35,3,0.7
504994,1745298969815,,,,,,,,,,,,,,,,,,,,,,,,,,,,,,,,,,0,0,0,0,0,0,0,0,0,0,0,0,0,0,0,0,,,,,,,,,,,,,
505014,1745298969835,0.0,-8,,-0.06,0.13,0.78,3,-0,-0,0.79,1.19,66,3091,14.2,4.3,,13.68,1.249,97.0,,21.6,5,,,,,,,,,,,,0,0,0,0,0,0,0,0,0,0,0,0,0,0,0,0,,,,,,0.0,,,,,,,
505034,1745298969855,,,,,,,,,,,,,,,,,,,,,,,,,,,,,,,,,,0,0,0,0,0,0,0,0,0,0,0,0,0,0,0,0,,,,,,,,,,,,,
505054,1745298969875,0.0,-8,,-0.06,0.03,0.89,1,-0,0,0.89,1.19,75,3238,13.3,4.12,,13.61,1.248,97.0,,24.7,5,,,,,,,,,,,,0,0,0,0,0,0,0,0,0,0,0,0,0,0,0,0,,,,,,0.0,,,,,,,
505074,1745298969895,,,,,,,,,,,,,,,,,,,,,,,0,0,0,0,0.0,0.0,0.0,0.0,2.26,,,0,0,0,0,0,0,0,0,0,0,0,0,0,0,0,0,,0,,,,,38.986019,-76.95002,0.25,50.3,35,3,0.7
505094,1745298969915,0.0,-8,,-0.05,0.07,0.85,3,-0,-0,0.85,1.19,71,3495,0.0,2.84,,12.99,1.249,97.0,,24.7,5,,,,,,,,,,,,0,0,0,0,0,0,0,0,0,0,0,0,0,0,0,0,,,,,,0.0,,,,,,,
505114,1745298969935,,,,,,,,,,,,,,,,,,,,,,,,,,,,,,,,,,0,0,0,0,0,0,0,0,0,0,0,0,0,0,0,0,,,,,,,,,,,,,
505134,1745298969955,0.0,-12,,-0.08,-0.06,0.85,2,-0,-1,0.86,1.19,72,3459,0.0,2.75,,12.61,1.25,97.0,,24.7,5,,,,,,,,,,,,0,0,0,0,0,0,0,0,0,0,0,0,0,0,0,0,,,,,,0.0,,,,,,,
505154,1745298969975,,,,,,,,,,,,,,,,,,,,,,,,,,,,,,,,,,0,0,0,0,0,0,0,0,0,0,0,0,0,0,0,0,,,,,,,,,,,,,
505174,1745298969995,0.0,-8,,-0.06,-0.1,0.92,1,-0,-0,0.93,1.19,78,3410,0.0,2.75,,12.61,1.25,97.0,,25.7,5,0,0,0,0,0.0,0.0,0.0,0.0,2.26,,,0,0,0,0,0,0,0,0,0,0,0,0,0,0,0,0,,0,,,,0.0,38.986019,-76.95002,0.21,50.3,35,3,0.7
505194,1745298970006,,,,,,,,,,,,,,,,,,,,,,,,,,,,,,,,,,0,0,0,0,0,0,0,0,0,0,0,0,0,0,0,0,,,,,,,,,,,,,
505214,1745298970026,0.0,3,,-0.08,-0.11,0.88,2,-0,-1,0.89,1.19,74,3410,0.0,2.75,,12.39,1.246,97.0,,25.7,5,,,,,,,,,,,,0,0,0,0,0,0,0,0,0,0,0,0,0,0,0,0,,,,,,0.0,,,,,,,
505234,1745298970046,,,,,,,,,,,,,,,,,,,,,,,,,,,,,,,,,,0,0,0,0,0,0,0,0,0,0,0,0,0,0,0,0,,,,,,,,,,,,,
505254,1745298970066,0.0,-12,,-0.05,-0.03,0.91,2,-0,-0,0.91,1.19,76,3358,0.0,2.81,,12.32,1.242,97.0,,24.6,5,,,,,,,,,,,,0,0,0,0,0,0,0,0,0,0,0,0,0,0,0,0,,,,,,0.0,,,,,,,
505274,1745298970086,,,,,,,,,,,,,,,,,,,,,,,0,0,0,0,0.0,0.0,0.0,0.0,2.26,,,0,0,0,0,0,0,0,0,0,0,0,0,0,0,0,0,,0,,,,,38.986019,-76.95002,0.05,50.3,35,3,0.7
505294,1745298970114,0.0,-15,,-0.06,-0.12,0.99,0,-0,-0,1.0,1.19,84,3215,6.0,3.88,,12.69,1.251,97.0,,24.6,5,,,,,,,,,,,,0,0,0,0,0,0,0,0,0,0,0,0,0,0,0,0,,,,,,0.0,,,,,,,
505314,1745298970134,,,,,,,,,,,,,,,,,,,,,,,,,,,,,,,,,,0,0,0,0,0,0,0,0,0,0,0,0,0,0,0,0,,,,,,,,,,,,,
505334,1745298970154,0.0,-12,,-0.09,-0.1,0.95,1,-0,-0,0.96,1.19,80,3236,6.3,3.8,,12.92,1.252,97.0,,24.6,5,,,,,,,,,,,,0,0,0,0,0,0,0,0,0,0,0,0,0,0,0,0,,,,,,0.0,,,,,,,
505354,1745298970174,,,,,,,,,,,,,,,,,,,,,,,,,,,,,,,,,,0,0,0,0,0,0,0,0,0,0,0,0,0,0,0,0,,,,,,,,,,,,,
505374,1745298970194,0.0,-23,,-0.07,-0.01,0.91,2,-0,-0,0.91,1.19,76,3292,0.0,3.79,,12.92,1.252,97.0,,23.5,5,0,0,0,0,0.0,0.0,0.0,0.0,2.26,,,0,0,0,0,0,0,0,0,0,0,0,0,0,0,0,0,,0,,,,0.0,38.986019,-76.95002,0.0,50.3,35,3,0.7
505394,1745298970212,,,,,,,,,,,,,,,,,,,,,,,,,,,,,,,,,,0,0,0,0,0,0,0,0,0,0,0,0,0,0,0,0,,,,,,,,,,,,,
505414,1745298970232,0.0,-8,,-0.07,-0.11,1.0,-0,-0,-0,1.01,1.19,84,3292,0.0,3.79,,12.81,1.252,97.0,,23.5,5,,,,,,,,,,,,0,0,0,0,0,0,0,0,0,0,0,0,0,0,0,0,,,,,,0.0,,,,,,,
505434,1745298970252,,,,,,,,,,,,,,,,,,,,,,,,,,,,,,,,,,0,0,0,0,0,0,0,0,0,0,0,0,0,0,0,0,,,,,,,,,,,,,
505454,1745298970272,0.0,-0,,-0.09,-0.08,0.91,2,-0,-0,0.92,1.19,77,3298,0.0,2.82,,12.59,1.25,97.0,,24.0,5,,,,,,,,,,,,0,0,0,0,0,0,0,0,0,0,0,0,0,0,0,0,,,,,,0.0,,,,,,,
505474,1745298970292,,,,,,,,,,,,,,,,,,,,,,,0,0,0,0,0.0,0.0,0.0,0.0,2.25,,,0,0,0,0,0,0,0,0,0,0,0,0,0,0,0,0,,0,,,,,38.986019,-76.95002,0.16,50.3,35,3,0.7
505494,1745298970314,0.0,-0,,-0.06,-0.03,0.92,2,-0,-0,0.93,1.19,78,3247,0.0,2.86,,12.36,1.25,97.0,,24.0,5,,,,,,,,,,,,0,0,0,0,0,0,0,0,0,0,0,0,0,0,0,0,,,,,,0.0,,,,,,,
505514,1745298970334,,,,,,,,,,,,,,,,,,,,,,,,,,,,,,,,,,0,0,0,0,0,0,0,0,0,0,0,0,0,0,0,0,,,,,,,,,,,,,
505534,1745298970354,0.0,-15,,-0.05,-0.11,1.01,-0,-0,0,1.02,1.19,85,3171,0.0,2.87,,12.27,1.249,97.0,,24.0,5,,,,,,,,,,,,0,0,0,0,0,0,0,0,0,0,0,0,0,0,0,0,,,,,,0.0,,,,,,,
505554,1745298970374,,,,,,,,,,,,,,,,,,,,,,,,,,,,,,,,,,0,0,0,0,0,0,0,0,0,0,0,0,0,0,0,0,,,,,,,,,,,,,
505574,1745298970394,0.0,-0,13.31,-0.05,-0.14,1.07,-1,-0,0,1.08,1.19,91,3027,0.0,2.9,15,12.27,1.249,97.0,176,23.1,5,0,0,0,0,0.0,0.0,0.0,0.0,2.26,0,1.0,0,0,0,0,0,0,0,0,0,0,0,0,0,0,0,0,0,0,1.0,0,0,0.0,38.986019,-76.95002,0.04,50.3,35,3,0.7
505594,1745298970414,,,,,,,,,,,,,,,,,,,,,,,,,,,,,,,,,,0,0,0,0,0,0,0,0,0,0,0,0,0,0,0,0,,,,,,,,,,,,,
505614,1745298970434,0.0,-12,,-0.05,-0.15,1.11,-2,-0,0,1.13,1.19,94,3027,0.0,2.9,,12.28,1.249,97.0,,23.1,5,,,,,,,,,,,,0,0,0,0,0,0,0,0,0,0,0,0,0,0,0,0,,,,,,0.0,,,,,,,
505634,1745298970454,,,,,,,,,,,,,,,,,,,,,,,,,,,,,,,,,,0,0,0,0,0,0,0,0,0,0,0,0,0,0,0,0,,,,,,,,,,,,,
505654,1745298970474,0.0,-8,,-0.04,-0.17,1.13,-2,-0,0,1.14,1.19,96,2957,3.0,3.32,,12.64,1.249,97.0,,21.5,5,,,,,,,,,,,,0,0,0,0,0,0,0,0,0,0,0,0,0,0,0,0,,,,,,0.0,,,,,,,
505674,1745298970494,,,,,,,,,,,,,,,,,,,,,,,0,0,0,0,0.0,0.0,0.0,0.0,2.26,,,0,0,0,0,0,0,0,0,0,0,0,0,0,0,0,0,,0,,,,,38.986019,-76.95002,0.05,50.3,35,3,0.7
505694,1745298970514,0.0,-4,,-0.02,-0.14,1.11,-2,-0,1,1.12,1.19,93,2890,5.6,3.76,,12.95,1.25,97.0,,21.5,5,,,,,,,,,,,,0,0,0,0,0,0,0,0,0,0,0,0,0,0,0,0,,,,,,0.0,,,,,,,
505714,1745298970534,,,,,,,,,,,,,,,,,,,,,,,,,,,,,,,,,,0,0,0,0,0,0,0,0,0,0,0,0,0,0,0,0,,,,,,,,,,,,,
505734,1745298970554,0.0,-15,,0.01,-0.08,1.07,-1,-0,1,1.07,1.19,90,2931,9.5,3.88,,13.29,1.251,97.0,,21.5,5,,,,,,,,,,,,0,0,0,0,0,0,0,0,0,0,0,0,0,0,0,0,,,,,,0.0,,,,,,,
505754,1745298970574,,,,,,,,,,,,,,,,,,,,,,,,,,,,,,,,,,0,0,0,0,0,0,0,0,0,0,0,0,0,0,0,0,,,,,,,,,,,,,
505774,1745298970594,0.0,-4,,0.02,-0.03,1.01,0,-0,0,1.01,1.19,84,3002,10.0,3.95,,13.29,1.251,97.0,,22.0,5,0,0,0,0,0.0,0.0,0.0,0.0,2.26,,,0,0,0,0,0,0,0,0,0,0,0,0,0,0,0,0,,0,,,,0.0,38.986019,-76.95002,0.05,50.3,35,3,0.7
505794,1745298970614,,,,,,,,,,,,,,,,,,,,,,,,,,,,,,,,,,0,0,0,0,0,0,0,0,0,0,0,0,0,0,0,0,,,,,,,,,,,,,
505814,1745298970634,0.0,-4,,0.03,0.02,0.99,1,-0,0,0.99,1.19,83,3002,10.0,3.95,,13.47,1.252,97.0,,22.0,5,,,,,,,,,,,,0,0,0,0,0,0,0,0,0,0,0,0,0,0,0,0,,,,,,0.0,,,,,,,
505834,1745298970654,,,,,,,,,,,,,,,,,,,,,,,,,,,,,,,,,,0,0,0,0,0,0,0,0,0,0,0,0,0,0,0,0,,,,,,,,,,,,,
505854,1745298970674,0.0,-15,,0.04,-0.03,1.07,0,-0,1,1.07,1.19,90,3059,10.0,3.95,,13.47,1.252,97.0,,23.4,5,,,,,,,,,,,,0,0,0,0,0,0,0,0,0,0,0,0,0,0,0,0,,,,,,0.0,,,,,,,
505874,1745298970694,,,,,,,,,,,,,,,,,,,,,,,0,0,0,0,0.0,0.0,0.0,0.0,2.25,,,0,0,0,0,0,0,0,0,0,0,0,0,0,0,0,0,,0,,,,,38.986019,-76.95002,0.0,50.3,35,3,0.7
505894,1745298970714,0.0,3,,-0.01,-0.09,1.07,-0,-0,0,1.08,1.19,90,3266,0.0,2.93,,12.95,1.251,97.0,,23.4,5,,,,,,,,,,,,0,0,0,0,0,0,0,0,0,0,0,0,0,0,0,0,,,,,,0.0,,,,,,,
505914,1745298970734,,,,,,,,,,,,,,,,,,,,,,,,,,,,,,,,,,0,0,0,0,0,0,0,0,0,0,0,0,0,0,0,0,,,,,,,,,,,,,
505934,1745298970754,0.0,-12,,-0.02,0.01,0.97,1,-0,0,0.97,1.19,81,3195,0.0,2.86,,12.61,1.248,97.0,,23.4,5,,,,,,,,,,,,0,0,0,0,0,0,0,0,0,0,0,0,0,0,0,0,,,,,,0.0,,,,,,,
505954,1745298970774,,,,,,,,,,,,,,,,,,,,,,,,,,,,,,,,,,0,0,0,0,0,0,0,0,0,0,0,0,0,0,0,0,,,,,,,,,,,,,
505974,1745298970794,0.0,-12,,-0.01,0.08,0.91,2,-0,0,0.92,1.19,77,3101,0.0,2.88,,12.61,1.248,97.0,,23.7,5,0,0,0,0,0.0,0.0,0.0,0.0,2.26,,,0,0,0,0,0,0,0,0,0,0,0,0,0,0,0,0,,0,,,,0.0,38.986019,-76.95002,0.04,50.3,35,3,0.7
505994,1745298970814,,,,,,,,,,,,,,,,,,,,,,,,,,,,,,,,,,0,0,0,0,0,0,0,0,0,0,0,0,0,0,0,0,,,,,,,,,,,,,
506014,1745298970834,0.0,5,,0.02,0.09,0.96,1,-0,1,0.96,1.19,80,3101,0.0,2.88,,12.45,1.248,95.2,,23.7,5,,,,,,,,,,,,0,0,0,0,0,0,0,0,0,0,0,0,0,0,0,0,,,,,,0.0,,,,,,,
506034,1745298970854,,,,,,,,,,,,,,,,,,,,,,,,,,,,,,,,,,0,0,0,0,0,0,0,0,0,0,0,0,0,0,0,0,,,,,,,,,,,,,
506054,1745298970874,0.0,-4,,0.04,0.05,1.01,-0,-0,1,1.01,1.19,85,3065,0.0,2.9,,12.35,1.249,95.2,,22.1,5,,,,,,,,,,,,0,0,0,0,0,0,0,0,0,0,0,0,0,0,0,0,,,,,,0.0,,,,,,,
506074,1745298970894,,,,,,,,,,,,,,,,,,,,,,,0,0,0,0,0.0,0.0,0.0,0.0,2.26,,,0,0,0,0,0,0,0,0,0,0,0,0,0,0,0,0,,0,,,,,38.986019,-76.95002,0.0,50.3,35,3,0.7
506094,1745298970914,0.0,3,,0.05,-0.03,1.09,-1,-0,1,1.09,1.19,91,3058,0.0,2.96,,12.33,1.249,95.2,,22.1,5,,,,,,,,,,,,0,0,0,0,0,0,0,0,0,0,0,0,0,0,0,0,,,,,,0.0,,,,,,,
506114,1745298970934,,,,,,,,,,,,,,,,,,,,,,,,,,,,,,,,,,0,0,0,0,0,0,0,0,0,0,0,0,0,0,0,0,,,,,,,,,,,,,
506134,1745298970954,0.0,-4,,0.01,-0.08,1.1,-1,-0,0,1.1,1.19,92,3135,0.0,2.86,,12.27,1.25,95.2,,22.1,5,,,,,,,,,,,,0,0,0,0,0,0,0,0,0,0,0,0,0,0,0,0,,,,,,0.0,,,,,,,
506154,1745298970974,,,,,,,,,,,,,,,,,,,,,,,,,,,,,,,,,,0,0,0,0,0,0,0,0,0,0,0,0,0,0,0,0,,,,,,,,,,,,,
506174,1745298970994,0.0,-0,,-0.02,-0.03,1.01,1,-0,0,1.01,1.19,84,3114,2.4,3.37,,12.27,1.25,95.2,,23.1,5,0,0,0,0,0.0,0.0,0.0,0.0,2.25,,,0,0,0,0,0,0,0,0,0,0,0,0,0,0,0,0,,0,,,,0.0,38.986019,-76.95002,0.11,50.3,35,3,0.7
506194,1745298971006,,,,,,,,,,,,,,,,,,,,,,,,,,,,,,,,,,0,0,0,0,0,0,0,0,0,0,0,0,0,0,0,0,,,,,,,,,,,,,
506214,1745298971026,0.0,5,,-0.03,0.01,0.94,2,-0,0,0.94,1.19,78,3114,2.4,3.37,,12.51,1.25,95.2,,23.1,5,,,,,,,,,,,,0,0,0,0,0,0,0,0,0,0,0,0,0,0,0,0,,,,,,0.0,,,,,,,
506234,1745298971046,,,,,,,,,,,,,,,,,,,,,,,,,,,,,,,,,,0,0,0,0,0,0,0,0,0,0,0,0,0,0,0,0,,,,,,,,,,,,,
506254,1745298971066,0.0,-0,,-0.01,0.06,0.94,1,-0,0,0.94,1.19,78,3158,4.0,3.64,,12.71,1.251,95.2,,22.9,5,,,,,,,,,,,,0,0,0,0,0,0,0,0,0,0,0,0,0,0,0,0,,,,,,0.0,,,,,,,
506274,1745298971086,,,,,,,,,,,,,,,,,,,,,,,0,0,0,0,0.0,0.0,0.0,0.0,2.26,,,0,0,0,0,0,0,0,0,0,0,0,0,0,0,0,0,,0,,,,,38.986019,-76.95002,0.0,50.3,35,3,0.7
506294,1745298971109,0.0,3,,0.0,0.04,0.99,0,-0,1,1.0,1.19,83,3063,4.7,3.73,,12.88,1.252,95.2,,22.9,5,,,,,,,,,,,,0,0,0,0,0,0,0,0,0,0,0,0,0,0,0,0,,,,,,0.0,,,,,,,
506314,1745298971129,,,,,,,,,,,,,,,,,,,,,,,,,,,,,,,,,,0,0,0,0,0,0,0,0,0,0,0,0,0,0,0,0,,,,,,,,,,,,,
506334,1745298971149,0.0,-12,,-0.01,-0.05,1.06,-1,-0,0,1.07,1.19,89,3120,0.0,3.74,,12.85,1.252,95.2,,22.9,5,,,,,,,,,,,,0,0,0,0,0,0,0,0,0,0,0,0,0,0,0,0,,,,,,0.0,,,,,,,
506354,1745298971169,,,,,,,,,,,,,,,,,,,,,,,,,,,,,,,,,,0,0,0,0,0,0,0,0,0,0,0,0,0,0,0,0,,,,,,,,,,,,,
506374,1745298971189,0.0,-8,,-0.05,-0.05,1.04,0,-0,0,1.05,1.19,88,3185,0.0,2.9,,12.85,1.252,95.2,,23.0,5,0,0,0,0,0.0,0.0,0.0,0.0,2.25,,,0,0,0,0,0,0,0,0,0,0,0,0,0,0,0,0,,0,,,,0.0,38.986019,-76.95002,0.04,50.3,35,3,0.7
506394,1745298971215,,,,,,,,,,,,,,,,,,,,,,,,,,,,,,,,,,0,0,0,0,0,0,0,0,0,0,0,0,0,0,0,0,,,,,,,,,,,,,
506414,1745298971235,0.0,3,,-0.06,-0.02,0.95,1,-0,0,0.95,1.19,79,3185,0.0,2.9,,12.52,1.248,95.2,,23.0,5,,,,,,,,,,,,0,0,0,0,0,0,0,0,0,0,0,0,0,0,0,0,,,,,,0.0,,,,,,,
506434,1745298971255,,,,,,,,,,,,,,,,,,,,,,,,,,,,,,,,,,0,0,0,0,0,0,0,0,0,0,0,0,0,0,0,0,,,,,,,,,,,,,
506454,1745298971275,0.0,-8,,-0.05,0.03,0.89,1,-0,0,0.89,1.19,75,3095,0.0,2.88,,12.4,1.228,95.2,,23.1,5,,,,,,,,,,,,0,0,0,0,0,0,0,0,0,0,0,0,0,0,0,0,,,,,,0.0,,,,,,,
506474,1745298971295,,,,,,,,,,,,,,,,,,,,,,,0,0,0,0,0.0,0.0,0.0,0.0,2.26,,,0,0,0,0,0,0,0,0,0,0,0,0,0,0,0,0,,0,,,,,38.986019,-76.95002,0.0,50.3,35,3,0.7
506494,1745298971313,0.0,8,,-0.04,0.07,0.89,1,-0,0,0.89,1.19,74,3061,0.0,2.89,,12.36,1.242,95.2,,23.1,5,,,,,,,,,,,,0,0,0,0,0,0,0,0,0,0,0,0,0,0,0,0,,,,,,0.0,,,,,,,
506514,1745298971333,,,,,,,,,,,,,,,,,,,,,,,,,,,,,,,,,,0,0,0,0,0,0,0,0,0,0,0,0,0,0,0,0,,,,,,,,,,,,,
506534,1745298971353,0.0,-12,,-0.03,0.11,0.89,2,-0,0,0.9,1.19,75,3001,0.0,2.95,,12.32,1.249,95.2,,23.1,5,,,,,,,,,,,,0,0,0,0,0,0,0,0,0,0,0,0,0,0,0,0,,,,,,0.0,,,,,,,
506554,1745298971373,,,,,,,,,,,,,,,,,,,,,,,,,,,,,,,,,,0,0,0,0,0,0,0,0,0,0,0,0,0,0,0,0,,,,,,,,,,,,,
506574,1745298971393,0.0,3,13.35,-0.02,0.13,0.85,2,-0,0,0.86,1.19,72,2939,0.0,2.98,15,12.32,1.249,95.2,178,21.2,5,0,0,0,0,0.0,0.0,0.0,0.0,2.26,0,1.0,0,0,0,0,0,0,0,0,0,0,0,0,0,0,0,0,0,0,1.0,0,0,0.0,38.986019,-76.95002,0.05,50.3,35,3,0.7
506594,1745298971415,,,,,,,,,,,,,,,,,,,,,,,,,,,,,,,,,,0,0,0,0,0,0,0,0,0,0,0,0,0,0,0,0,,,,,,,,,,,,,
506614,1745298971435,0.0,5,,-0.03,0.11,0.82,3,-0,-0,0.83,1.19,69,2939,0.0,2.98,,12.36,1.249,95.2,,21.2,5,,,,,,,,,,,,0,0,0,0,0,0,0,0,0,0,0,0,0,0,0,0,,,,,,0.0,,,,,,,
506634,1745298971455,,,,,,,,,,,,,,,,,,,,,,,,,,,,,,,,,,0,0,0,0,0,0,0,0,0,0,0,0,0,0,0,0,,,,,,,,,,,,,
506654,1745298971475,0.0,-0,,-0.06,0.06,0.87,3,-0,-0,0.87,1.19,73,2874,0.0,3.01,,12.43,1.25,95.2,,21.1,5,,,,,,,,,,,,0,0,0,0,0,0,0,0,0,0,0,0,0,0,0,0,,,,,,0.0,,,,,,,
506674,1745298971495,,,,,,,,,,,,,,,,,,,,,,,0,0,0,0,0.0,0.0,0.0,0.0,2.25,,,0,0,0,0,0,0,0,0,0,0,0,0,0,0,0,0,,0,,,,,38.986019,-76.95002,0.04,50.3,35,3,0.7
506694,1745298971513,0.0,5,,-0.07,0.06,0.9,2,-0,-0,0.9,1.19,76,2762,0.0,3.03,,12.63,1.251,95.2,,21.1,5,,,,,,,,,,,,0,0,0,0,0,0,0,0,0,0,0,0,0,0,0,0,,,,,,0.0,,,,,,,
506714,1745298971533,,,,,,,,,,,,,,,,,,,,,,,,,,,,,,,,,,0,0,0,0,0,0,0,0,0,0,0,0,0,0,0,0,,,,,,,,,,,,,
506734,1745298971553,0.0,-12,,-0.07,0.08,0.88,2,-0,-0,0.89,1.19,74,2691,0.2,3.08,,12.83,1.252,95.2,,21.1,5,,,,,,,,,,,,0,0,0,0,0,0,0,0,0,0,0,0,0,0,0,0,,,,,,0.0,,,,,,,
506754,1745298971573,,,,,,,,,,,,,,,,,,,,,,,,,,,,,,,,,,0,0,0,0,0,0,0,0,0,0,0,0,0,0,0,0,,,,,,,,,,,,,
506774,1745298971593,0.0,-4,,-0.06,0.03,0.93,2,-0,0,0.93,1.19,78,2643,0.4,3.16,,12.83,1.252,95.2,,20.1,5,0,0,0,0,0.0,0.0,0.0,0.0,2.26,,,0,0,0,0,0,0,0,0,0,0,0,0,0,0,0,0,,0,,,,0.0,38.986019,-76.95002,0.13,50.3,35,3,0.7
506794,1745298971615,,,,,,,,,,,,,,,,,,,,,,,,,,,,,,,,,,0,0,0,0,0,0,0,0,0,0,0,0,0,0,0,0,,,,,,,,,,,,,
506814,1745298971635,0.0,3,,-0.06,0.03,0.9,1,-0,-0,0.91,1.19,76,2643,0.4,3.16,,12.96,1.252,95.2,,20.1,5,,,,,,,,,,,,0,0,0,0,0,0,0,0,0,0,0,0,0,0,0,0,,,,,,0.0,,,,,,,
506834,1745298971655,,,,,,,,,,,,,,,,,,,,,,,,,,,,,,,,,,0,0,0,0,0,0,0,0,0,0,0,0,0,0,0,0,,,,,,,,,,,,,
506854,1745298971675,0.0,-0,,-0.07,0.02,0.93,1,-0,-0,0.93,1.19,78,2578,0.0,3.13,,12.91,1.252,95.2,,19.4,5,,,,,,,,,,,,0,0,0,0,0,0,0,0,0,0,0,0,0,0,0,0,,,,,,0.0,,,,,,,
506874,1745298971695,,,,,,,,,,,,,,,,,,,,,,,0,0,0,0,0.0,0.0,0.0,0.0,2.26,,,0,0,0,0,0,0,0,0,0,0,0,0,0,0,0,0,,0,,,,,38.986019,-76.95002,0.0,50.3,35,3,0.7
506894,1745298971715,0.0,-4,,-0.08,0.03,0.92,1,-0,-0,0.93,1.19,78,2628,0.0,3.15,,12.91,1.252,95.2,,19.4,5,,,,,,,,,,,,0,0,0,0,0,0,0,0,0,0,0,0,0,0,0,0,,,,,,0.0,,,,,,,
506914,1745298971735,,,,,,,,,,,,,,,,,,,,,,,,,,,,,,,,,,0,0,0,0,0,0,0,0,0,0,0,0,0,0,0,0,,,,,,,,,,,,,
506934,1745298971755,0.0,-23,,-0.08,0.02,0.94,1,-0,-0,0.95,1.19,79,2575,0.0,3.16,,12.96,1.251,95.2,,19.4,5,,,,,,,,,,,,0,0,0,0,0,0,0,0,0,0,0,0,0,0,0,0,,,,,,0.0,,,,,,,
506954,1745298971775,,,,,,,,,,,,,,,,,,,,,,,,,,,,,,,,,,0,0,0,0,0,0,0,0,0,0,0,0,0,0,0,0,,,,,,,,,,,,,
506974,1745298971795,0.0,-15,,-0.08,0.0,0.95,1,-0,-0,0.95,1.19,80,2514,0.4,3.2,,12.96,1.251,95.2,,18.7,5,0,0,0,0,0.0,0.0,0.0,0.0,2.26,,,0,0,0,0,0,0,0,0,0,0,0,0,0,0,0,0,,0,,,,0.0,38.986019,-76.95002,0.04,50.3,35,3,0.7
506994,1745298971815,,,,,,,,,,,,,,,,,,,,,,,,,,,,,,,,,,0,0,0,0,0,0,0,0,0,0,0,0,0,0,0,0,,,,,,,,,,,,,
507014,1745298971835,0.0,-8,,-0.09,0.01,0.94,1,-0,-0,0.94,1.19,79,2514,0.4,3.2,,13.05,1.249,95.2,,18.7,5,,,,,,,,,,,,0,0,0,0,0,0,0,0,0,0,0,0,0,0,0,0,,,,,,0.0,,,,,,,
507034,1745298971855,,,,,,,,,,,,,,,,,,,,,,,,,,,,,,,,,,0,0,0,0,0,0,0,0,0,0,0,0,0,0,0,0,,,,,,,,,,,,,
507054,1745298971875,0.0,5,,-0.07,0.01,0.93,1,-0,-0,0.94,1.19,78,2459,3.9,3.67,,13.37,1.249,95.2,,17.9,5,,,,,,,,,,,,0,0,0,0,0,0,0,0,0,0,0,0,0,0,0,0,,,,,,0.0,,,,,,,
507074,1745298971895,,,,,,,,,,,,,,,,,,,,,,,0,0,0,0,0.0,0.0,0.0,0.0,2.26,,,0,0,0,0,0,0,0,0,0,0,0,0,0,0,0,0,,0,,,,,38.986019,-76.95002,0.0,50.2,35,3,0.7
507094,1745298971914,0.0,-8,,-0.08,0.02,0.94,1,-0,-0,0.94,1.19,79,2444,6.7,3.74,,13.65,1.249,95.2,,17.9,5,,,,,,,,,,,,0,0,0,0,0,0,0,0,0,0,0,0,0,0,0,0,,,,,,0.0,,,,,,,
507114,1745298971934,,,,,,,,,,,,,,,,,,,,,,,,,,,,,,,,,,0,0,0,0,0,0,0,0,0,0,0,0,0,0,0,0,,,,,,,,,,,,,
507134,1745298971954,0.0,-12,,-0.08,0.0,0.93,0,-0,-0,0.93,1.19,78,2489,7.2,3.76,,13.76,1.25,95.2,,17.9,5,,,,,,,,,,,,0,0,0,0,0,0,0,0,0,0,0,0,0,0,0,0,,,,,,0.0,,,,,,,
507154,1745298971974,,,,,,,,,,,,,,,,,,,,,,,,,,,,,,,,,,0,0,0,0,0,0,0,0,0,0,0,0,0,0,0,0,,,,,,,,,,,,,
507174,1745298971994,0.0,-8,,-0.08,0.01,0.93,1,-0,-0,0.93,1.19,78,2552,7.1,3.77,,13.76,1.25,95.2,,18.3,5,0,0,0,0,0.0,0.0,0.0,0.0,2.26,,,0,0,0,0,0,0,0,0,0,0,0,0,0,0,0,0,,0,,,,0.0,38.986019,-76.95002,0.0,50.2,35,3,0.7
507194,1745298972005,,,,,,,,,,,,,,,,,,,,,,,,,,,,,,,,,,0,0,0,0,0,0,0,0,0,0,0,0,0,0,0,0,,,,,,,,,,,,,
507214,1745298972025,0.0,3,,-0.09,0.02,0.97,0,-0,0,0.97,1.19,81,2552,7.1,3.77,,13.75,1.251,95.2,,18.3,5,,,,,,,,,,,,0,0,0,0,0,0,0,0,0,0,0,0,0,0,0,0,,,,,,0.0,,,,,,,
507234,1745298972045,,,,,,,,,,,,,,,,,,,,,,,,,,,,,,,,,,0,0,0,0,0,0,0,0,0,0,0,0,0,0,0,0,,,,,,,,,,,,,
507254,1745298972065,0.0,3,,-0.09,0.01,0.95,1,-0,-0,0.96,1.19,80,2609,0.0,3.23,,13.44,1.251,95.2,,19.2,5,,,,,,,,,,,,0,0,0,0,0,0,0,0,0,0,0,0,0,0,0,0,,,,,,0.0,,,,,,,
507274,1745298972085,,,,,,,,,,,,,,,,,,,,,,,0,0,0,0,0.0,0.0,0.0,0.0,2.26,,,0,0,0,0,0,0,0,0,0,0,0,0,0,0,0,0,,0,,,,,38.986019,-76.95002,0.04,50.2,35,3,0.7
507294,1745298972114,0.0,-4,,-0.08,0.03,0.96,0,-0,0,0.96,1.19,80,2608,0.0,3.19,,13.24,1.25,95.2,,19.2,5,,,,,,,,,,,,0,0,0,0,0,0,0,0,0,0,0,0,0,0,0,0,,,,,,0.0,,,,,,,
507314,1745298972134,,,,,,,,,,,,,,,,,,,,,,,,,,,,,,,,,,0,0,0,0,0,0,0,0,0,0,0,0,0,0,0,0,,,,,,,,,,,,,
507334,1745298972154,0.0,-12,,-0.09,-0.0,0.97,0,-0,0,0.97,1.19,82,2597,0.0,3.18,,13.13,1.251,95.2,,19.2,5,,,,,,,,,,,,0,0,0,0,0,0,0,0,0,0,0,0,0,0,0,0,,,,,,0.0,,,,,,,
507354,1745298972174,,,,,,,,,,,,,,,,,,,,,,,,,,,,,,,,,,0,0,0,0,0,0,0,0,0,0,0,0,0,0,0,0,,,,,,,,,,,,,
507374,1745298972194,0.0,-4,,-0.08,0.02,0.97,1,-0,0,0.97,1.19,81,2505,0.0,3.18,,13.13,1.251,95.2,,19.2,5,0,0,0,0,0.0,0.0,0.0,0.0,2.26,,,0,0,0,0,0,0,0,0,0,0,0,0,0,0,0,0,,0,,,,0.0,38.986019,-76.95002,0.04,50.2,35,3,0.7
507394,1745298972206,,,,,,,,,,,,,,,,,,,,,,,,,,,,,,,,,,0,0,0,0,0,0,0,0,0,0,0,0,0,0,0,0,,,,,,,,,,,,,
507414,1745298972226,0.0,-4,,-0.09,0.01,0.98,1,-0,0,0.99,1.19,83,2505,0.0,3.18,,13.13,1.252,95.2,,19.2,5,,,,,,,,,,,,0,0,0,0,0,0,0,0,0,0,0,0,0,0,0,0,,,,,,0.0,,,,,,,
507434,1745298972246,,,,,,,,,,,,,,,,,,,,,,,,,,,,,,,,,,0,0,0,0,0,0,0,0,0,0,0,0,0,0,0,0,,,,,,,,,,,,,
507454,1745298972266,0.0,8,,-0.08,0.01,0.98,1,-0,0,0.98,1.19,82,2465,0.0,3.18,,13.13,1.251,95.2,,19.0,5,,,,,,,,,,,,0,0,0,0,0,0,0,0,0,0,0,0,0,0,0,0,,,,,,0.0,,,,,,,
507474,1745298972286,,,,,,,,,,,,,,,,,,,,,,,0,0,0,0,0.0,0.0,0.0,0.0,2.25,,,0,0,0,0,0,0,0,0,0,0,0,0,0,0,0,0,,0,,,,,38.986019,-76.95002,0.0,50.2,35,3,0.7
507494,1745298972314,0.0,-4,,-0.08,0.02,0.96,0,-0,0,0.96,1.19,81,2448,0.0,3.2,,13.17,1.249,95.2,,19.0,5,,,,,,,,,,,,0,0,0,0,0,0,0,0,0,0,0,0,0,0,0,0,,,,,,0.0,,,,,,,
507514,1745298972334,,,,,,,,,,,,,,,,,,,,,,,,,,,,,,,,,,0,0,0,0,0,0,0,0,0,0,0,0,0,0,0,0,,,,,,,,,,,,,
507534,1745298972354,0.0,-19,,-0.08,0.01,0.96,0,-0,0,0.96,1.19,81,2422,0.0,3.2,,13.2,1.25,95.2,,19.0,5,,,,,,,,,,,,0,0,0,0,0,0,0,0,0,0,0,0,0,0,0,0,,,,,,0.0,,,,,,,
507554,1745298972374,,,,,,,,,,,,,,,,,,,,,,,,,,,,,,,,,,0,0,0,0,0,0,0,0,0,0,0,0,0,0,0,0,,,,,,,,,,,,,
507574,1745298972394,0.0,-23,13.39,-0.09,0.01,0.98,0,-0,0,0.98,1.19,82,2369,0.0,3.23,15,13.2,1.25,95.2,178,18.5,5,0,0,0,0,0.0,0.0,0.0,0.0,2.26,0,1.0,0,0,0,0,0,0,0,0,0,0,0,0,0,0,0,0,0,0,1.0,0,0,0.0,38.986019,-76.95002,0.05,50.2,35,3,0.7
507594,1745298972414,,,,,,,,,,,,,,,,,,,,,,,,,,,,,,,,,,0,0,0,0,0,0,0,0,0,0,0,0,0,0,0,0,,,,,,,,,,,,,
507614,1745298972434,0.0,-0,,-0.08,-0.0,0.98,-0,-0,0,0.98,1.19,82,2369,0.0,3.23,,13.23,1.249,95.2,,18.5,5,,,,,,,,,,,,0,0,0,0,0,0,0,0,0,0,0,0,0,0,0,0,,,,,,0.0,,,,,,,
507634,1745298972454,,,,,,,,,,,,,,,,,,,,,,,,,,,,,,,,,,0,0,0,0,0,0,0,0,0,0,0,0,0,0,0,0,,,,,,,,,,,,,
507654,1745298972474,0.0,-8,,-0.09,0.01,0.98,0,-0,0,0.99,1.19,83,2307,2.2,3.27,,13.4,1.249,95.2,,18.1,5,,,,,,,,,,,,0,0,0,0,0,0,0,0,0,0,0,0,0,0,0,0,,,,,,0.0,,,,,,,
507674,1745298972494,,,,,,,,,,,,,,,,,,,,,,,0,0,0,0,0.0,0.0,0.0,0.0,2.26,,,0,0,0,0,0,0,0,0,0,0,0,0,0,0,0,0,,0,,,,,38.986019,-76.95002,0.04,50.2,35,3,0.7
507694,1745298972514,0.0,-8,,-0.1,0.02,1.0,0,-0,0,1.01,1.19,84,2305,7.7,3.79,,13.73,1.25,95.2,,18.1,5,,,,,,,,,,,,0,0,0,0,0,0,0,0,0,0,0,0,0,0,0,0,,,,,,0.0,,,,,,,
507714,1745298972534,,,,,,,,,,,,,,,,,,,,,,,,,,,,,,,,,,0,0,0,0,0,0,0,0,0,0,0,0,0,0,0,0,,,,,,,,,,,,,
507734,1745298972554,0.0,-12,,-0.08,0.02,0.98,0,-0,0,0.99,1.19,83,2303,12.7,4.01,,14.04,1.252,95.2,,18.1,5,,,,,,,,,,,,0,0,0,0,0,0,0,0,0,0,0,0,0,0,0,0,,,,,,0.0,,,,,,,
507754,1745298972574,,,,,,,,,,,,,,,,,,,,,,,,,,,,,,,,,,0,0,0,0,0,0,0,0,0,0,0,0,0,0,0,0,,,,,,,,,,,,,
507774,1745298972594,0.0,-8,,-0.09,0.02,0.98,0,-0,0,0.98,1.19,82,2436,13.8,4.12,,14.04,1.252,95.2,,18.1,5,0,0,0,0,0.0,0.0,0.0,0.0,2.26,,,0,0,0,0,0,0,0,0,0,0,0,0,0,0,0,0,,0,,,,0.0,38.986019,-76.95002,0.0,50.2,35,3,0.7
507794,1745298972612,,,,,,,,,,,,,,,,,,,,,,,,,,,,,,,,,,0,0,0,0,0,0,0,0,0,0,0,0,0,0,0,0,,,,,,,,,,,,,
507814,1745298972632,0.0,5,,-0.08,-0.01,0.97,0,-0,-0,0.97,1.19,82,2436,13.8,4.12,,14.14,1.252,95.2,,18.1,5,,,,,,,,,,,,0,0,0,0,0,0,0,0,0,0,0,0,0,0,0,0,,,,,,0.0,,,,,,,
507834,1745298972652,,,,,,,,,,,,,,,,,,,,,,,,,,,,,,,,,,0,0,0,0,0,0,0,0,0,0,0,0,0,0,0,0,,,,,,,,,,,,,
507854,1745298972672,0.0,11,,-0.08,-0.01,0.99,-0,-0,0,0.99,1.19,83,2515,14.1,4.13,,14.1,1.252,95.2,,19.6,5,,,,,,,,,,,,0,0,0,0,0,0,0,0,0,0,0,0,0,0,0,0,,,,,,0.0,,,,,,,
507874,1745298972692,,,,,,,,,,,,,,,,,,,,,,,0,0,0,0,0.0,0.0,0.0,0.0,2.25,,,0,0,0,0,0,0,0,0,0,0,0,0,0,0,0,0,,0,,,,,38.986019,-76.95002,0.04,50.2,35,3,0.7
507894,1745298972712,0.0,3,,-0.08,-0.0,0.94,1,-0,-0,0.94,1.19,79,2680,3.5,3.85,,13.84,1.252,95.2,,19.6,5,,,,,,,,,,,,0,0,0,0,0,0,0,0,0,0,0,0,0,0,0,0,,,,,,0.0,,,,,,,
507914,1745298972732,,,,,,,,,,,,,,,,,,,,,,,,,,,,,,,,,,0,0,0,0,0,0,0,0,0,0,0,0,0,0,0,0,,,,,,,,,,,,,
507934,1745298972752,0.0,-4,,-0.1,-0.04,0.95,1,-0,-0,0.96,1.19,80,2812,0.0,3.09,,13.32,1.25,95.2,,19.6,5,,,,,,,,,,,,0,0,0,0,0,0,0,0,0,0,0,0,0,0,0,0,,,,,,0.0,,,,,,,
507954,1745298972772,,,,,,,,,,,,,,,,,,,,,,,,,,,,,,,,,,0,0,0,0,0,0,0,0,0,0,0,0,0,0,0,0,,,,,,,,,,,,,
507974,1745298972792,0.0,-23,,-0.12,-0.06,1.01,-0,-0,-0,1.02,1.19,85,2934,0.0,3.04,,13.32,1.25,95.2,,21.3,5,0,0,0,0,0.0,0.0,0.0,0.0,2.26,,,0,0,0,0,0,0,0,0,0,0,0,0,0,0,0,0,,0,,,,0.0,38.986019,-76.95002,0.05,50.2,35,3,0.7
507994,1745298972812,,,,,,,,,,,,,,,,,,,,,,,,,,,,,,,,,,0,0,0,0,0,0,0,0,0,0,0,0,0,0,0,0,,,,,,,,,,,,,
508014,1745298972832,0.0,3,,-0.1,-0.06,1.04,-1,-0,0,1.04,1.19,87,2934,0.0,3.04,,13.0,1.247,95.2,,21.3,5,,,,,,,,,,,,0,0,0,0,0,0,0,0,0,0,0,0,0,0,0,0,,,,,,0.0,,,,,,,
508034,1745298972852,,,,,,,,,,,,,,,,,,,,,,,,,,,,,,,,,,0,0,0,0,0,0,0,0,0,0,0,0,0,0,0,0,,,,,,,,,,,,,
508054,1745298972872,0.0,-8,,-0.07,-0.03,1.0,-0,-0,0,1.0,1.19,84,2863,0.0,3.05,,12.85,1.246,95.2,,21.1,5,,,,,,,,,,,,0,0,0,0,0,0,0,0,0,0,0,0,0,0,0,0,,,,,,0.0,,,,,,,
508074,1745298972892,,,,,,,,,,,,,,,,,,,,,,,0,0,0,0,0.0,0.0,0.0,0.0,2.26,,,0,0,0,0,0,0,0,0,0,0,0,0,0,0,0,0,,0,,,,,38.986019,-76.95002,0.04,50.2,35,3,0.7
508094,1745298972912,0.0,3,,-0.09,-0.05,0.97,1,-0,-0,0.98,1.19,82,2767,0.0,3.04,,12.79,1.238,95.2,,21.1,5,,,,,,,,,,,,0,0,0,0,0,0,0,0,0,0,0,0,0,0,0,0,,,,,,0.0,,,,,,,
508114,1745298972932,,,,,,,,,,,,,,,,,,,,,,,,,,,,,,,,,,0,0,0,0,0,0,0,0,0,0,0,0,0,0,0,0,,,,,,,,,,,,,
508134,1745298972952,0.0,3,,-0.09,-0.08,1.0,0,-0,-0,1.01,1.19,84,2802,0.0,3.03,,12.75,1.249,95.2,,21.1,5,,,,,,,,,,,,0,0,0,0,0,0,0,0,0,0,0,0,0,0,0,0,,,,,,0.0,,,,,,,
508154,1745298972972,,,,,,,,,,,,,,,,,,,,,,,,,,,,,,,,,,0,0,0,0,0,0,0,0,0,0,0,0,0,0,0,0,,,,,,,,,,,,,
508174,1745298972992,0.0,-8,,-0.08,-0.03,0.99,-0,-0,0,0.99,1.19,83,2697,0.0,3.05,,12.75,1.249,95.2,,20.1,5,0,0,0,0,0.0,0.0,0.0,0.0,2.26,,,0,0,0,0,0,0,0,0,0,0,0,0,0,0,0,0,,0,,,,0.0,38.986019,-76.95002,0.04,50.2,35,3,0.7
508194,1745298973004,,,,,,,,,,,,,,,,,,,,,,,,,,,,,,,,,,0,0,0,0,0,0,0,0,0,0,0,0,0,0,0,0,,,,,,,,,,,,,
508214,1745298973024,0.0,8,,-0.09,-0.02,0.97,0,-0,0,0.98,1.19,82,2697,0.0,3.05,,12.83,1.249,95.2,,20.1,5,,,,,,,,,,,,0,0,0,0,0,0,0,0,0,0,0,0,0,0,0,0,,,,,,0.0,,,,,,,
508234,1745298973044,,,,,,,,,,,,,,,,,,,,,,,,,,,,,,,,,,0,0,0,0,0,0,0,0,0,0,0,0,0,0,0,0,,,,,,,,,,,,,
508254,1745298973064,0.0,3,,-0.1,-0.03,1.0,-0,-0,0,1.01,1.19,84,2709,0.0,3.07,,12.8,1.252,95.2,,19.9,5,,,,,,,,,,,,0,0,0,0,0,0,0,0,0,0,0,0,0,0,0,0,,,,,,0.0,,,,,,,
508274,1745298973084,,,,,,,,,,,,,,,,,,,,,,,0,0,0,0,0.0,0.0,0.0,0.0,2.26,,,0,0,0,0,0,0,0,0,0,0,0,0,0,0,0,0,,0,,,,,38.986019,-76.95002,0.04,50.2,35,3,0.7
508294,1745298973101,0.0,-8,,-0.09,-0.02,0.99,-0,-0,0,0.99,1.19,83,2631,0.0,3.12,,12.85,1.252,95.2,,19.9,5,,,,,,,,,,,,0,0,0,0,0,0,0,0,0,0,0,0,0,0,0,0,,,,,,0.0,,,,,,,
508314,1745298973121,,,,,,,,,,,,,,,,,,,,,,,,,,,,,,,,,,0,0,0,0,0,0,0,0,0,0,0,0,0,0,0,0,,,,,,,,,,,,,
508334,1745298973141,0.0,-15,,-0.1,-0.03,1.0,-0,-0,0,1.0,1.19,84,2566,1.0,3.26,,13.11,1.252,95.2,,19.9,5,,,,,,,,,,,,0,0,0,0,0,0,0,0,0,0,0,0,0,0,0,0,,,,,,0.0,,,,,,,
508354,1745298973161,,,,,,,,,,,,,,,,,,,,,,,,,,,,,,,,,,0,0,0,0,0,0,0,0,0,0,0,0,0,0,0,0,,,,,,,,,,,,,
508374,1745298973181,0.0,-12,,-0.09,-0.03,0.99,0,-0,-0,1.0,1.19,83,2558,2.0,3.44,,13.11,1.252,95.2,,18.4,5,0,0,0,0,0.0,0.0,0.0,0.0,2.26,,,0,0,0,0,0,0,0,0,0,0,0,0,0,0,0,0,,0,,,,0.0,38.986019,-76.95002,0.04,50.2,35,3,0.7
508394,1745298973213,,,,,,,,,,,,,,,,,,,,,,,,,,,,,,,,,,0,0,0,0,0,0,0,0,0,0,0,0,0,0,0,0,,,,,,,,,,,,,
508414,1745298973233,0.0,5,,-0.09,-0.02,0.96,-0,-0,0,0.97,1.19,81,2558,2.0,3.44,,13.27,1.252,95.2,,18.4,5,,,,,,,,,,,,0,0,0,0,0,0,0,0,0,0,0,0,0,0,0,0,,,,,,0.0,,,,,,,
508434,1745298973253,,,,,,,,,,,,,,,,,,,,,,,,,,,,,,,,,,0,0,0,0,0,0,0,0,0,0,0,0,0,0,0,0,,,,,,,,,,,,,
508454,1745298973273,0.0,5,,-0.09,-0.01,0.97,-0,-0,0,0.98,1.19,82,2525,2.6,3.56,,13.41,1.25,95.2,,18.4,5,,,,,,,,,,,,0,0,0,0,0,0,0,0,0,0,0,0,0,0,0,0,,,,,,0.0,,,,,,,
508474,1745298973293,,,,,,,,,,,,,,,,,,,,,,,0,0,0,0,0.0,0.0,0.0,0.0,2.26,,,0,0,0,0,0,0,0,0,0,0,0,0,0,0,0,0,,0,,,,,38.986019,-76.95002,0.0,50.2,35,3,0.7
508494,1745298973313,0.0,5,,-0.09,-0.03,0.99,-0,-0,0,0.99,1.19,83,2502,0.3,3.6,,13.43,1.249,95.2,,18.4,5,,,,,,,,,,,,0,0,0,0,0,0,0,0,0,0,0,0,0,0,0,0,,,,,,0.0,,,,,,,
508514,1745298973333,,,,,,,,,,,,,,,,,,,,,,,,,,,,,,,,,,0,0,0,0,0,0,0,0,0,0,0,0,0,0,0,0,,,,,,,,,,,,,
508534,1745298973353,0.0,-19,,-0.09,-0.01,0.99,-0,-0,0,1.0,1.19,83,2519,0.0,3.24,,13.31,1.249,95.2,,18.4,5,,,,,,,,,,,,0,0,0,0,0,0,0,0,0,0,0,0,0,0,0,0,,,,,,0.0,,,,,,,
508554,1745298973373,,,,,,,,,,,,,,,,,,,,,,,,,,,,,,,,,,0,0,0,0,0,0,0,0,0,0,0,0,0,0,0,0,,,,,,,,,,,,,
508574,1745298973393,0.0,-0,13.41,-0.1,-0.01,0.99,-0,-0,0,1.0,1.19,83,2480,0.0,3.22,15,13.31,1.249,95.2,178,18.6,5,0,0,0,0,0.0,0.0,0.0,0.0,2.27,0,1.0,0,0,0,0,0,0,0,0,0,0,0,0,0,0,0,0,0,0,1.0,0,-0,0.0,38.986019,-76.95002,0.05,50.2,35,3,0.7
508594,1745298973413,,,,,,,,,,,,,,,,,,,,,,,,,,,,,,,,,,0,0,0,0,0,0,0,0,0,0,0,0,0,0,0,0,,,,,,,,,,,,,
508614,1745298973433,0.0,-0,,-0.08,-0.04,1.0,-0,-0,-0,1.0,1.19,84,2480,0.0,3.22,,13.27,1.249,95.2,,18.6,5,,,,,,,,,,,,0,0,0,0,0,0,0,0,0,0,0,0,0,0,0,0,,,,,,0.0,,,,,,,
508634,1745298973453,,,,,,,,,,,,,,,,,,,,,,,,,,,,,,,,,,0,0,0,0,0,0,0,0,0,0,0,0,0,0,0,0,,,,,,,,,,,,,
508654,1745298973473,0.0,-0,,-0.09,-0.02,1.01,0,-0,-0,1.01,1.19,85,2468,0.0,3.25,,13.23,1.249,95.2,,18.2,5,,,,,,,,,,,,0,0,0,0,0,0,0,0,0,0,0,0,0,0,0,0,,,,,,0.0,,,,,,,
508674,1745298973493,,,,,,,,,,,,,,,,,,,,,,,0,0,0,0,0.0,0.0,0.0,0.0,2.26,,,0,0,0,0,0,0,0,0,0,0,0,0,0,0,0,0,,0,,,,,38.986019,-76.95002,0.0,50.2,35,3,0.7
508694,1745298973513,0.0,3,,-0.09,-0.02,0.99,0,-0,-0,1.0,1.19,84,2485,0.0,3.24,,13.23,1.25,95.2,,18.2,5,,,,,,,,,,,,0,0,0,0,0,0,0,0,0,0,0,0,0,0,0,0,,,,,,0.0,,,,,,,
508714,1745298973533,,,,,,,,,,,,,,,,,,,,,,,,,,,,,,,,,,0,0,0,0,0,0,0,0,0,0,0,0,0,0,0,0,,,,,,,,,,,,,
508734,1745298973553,0.0,5,,-0.08,-0.03,0.98,0,-0,-0,0.99,1.19,83,2437,1.3,3.24,,13.32,1.252,95.2,,18.2,5,,,,,,,,,,,,0,0,0,0,0,0,0,0,0,0,0,0,0,0,0,0,,,,,,0.0,,,,,,,
508754,1745298973573,,,,,,,,,,,,,,,,,,,,,,,,,,,,,,,,,,0,0,0,0,0,0,0,0,0,0,0,0,0,0,0,0,,,,,,,,,,,,,
508774,1745298973593,0.0,-15,,-0.08,-0.02,0.98,0,-0,-0,0.99,1.19,83,2342,11.0,3.9,,13.32,1.252,95.2,,17.9,5,0,0,0,0,0.0,0.0,0.0,0.0,2.26,,,0,0,0,0,0,0,0,0,0,0,0,0,0,0,0,0,,0,,,,0.0,38.986019,-76.95002,0.05,50.2,35,3,0.7
508794,1745298973611,,,,,,,,,,,,,,,,,,,,,,,,,,,,,,,,,,0,0,0,0,0,0,0,0,0,0,0,0,0,0,0,0,,,,,,,,,,,,,
508814,1745298973631,0.0,8,,-0.07,-0.03,1.0,0,-0,0,1.0,1.19,84,2342,11.0,3.9,,13.84,1.252,95.2,,17.9,5,,,,,,,,,,,,0,0,0,0,0,0,0,0,0,0,0,0,0,0,0,0,,,,,,0.0,,,,,,,
508834,1745298973651,,,,,,,,,,,,,,,,,,,,,,,,,,,,,,,,,,0,0,0,0,0,0,0,0,0,0,0,0,0,0,0,0,,,,,,,,,,,,,
508854,1745298973671,0.0,5,,-0.09,-0.02,1.02,0,-0,-0,1.02,1.19,85,2419,13.1,4.06,,14.06,1.247,95.2,,18.1,5,,,,,,,,,,,,0,0,0,0,0,0,0,0,0,0,0,0,0,0,0,0,,,,,,0.0,,,,,,,
508874,1745298973691,,,,,,,,,,,,,,,,,,,,,,,0,0,0,0,0.0,0.0,0.0,0.0,2.26,,,0,0,0,0,0,0,0,0,0,0,0,0,0,0,0,0,,0,,,,,38.986019,-76.95002,0.05,50.2,35,3,0.7
508894,1745298973713,0.0,-8,,-0.07,-0.0,0.99,1,-0,-0,1.0,1.19,83,2534,13.5,4.03,,14.07,1.237,95.2,,18.1,5,,,,,,,,,,,,0,0,0,0,0,0,0,0,0,0,0,0,0,0,0,0,,,,,,0.0,,,,,,,
508914,1745298973733,,,,,,,,,,,,,,,,,,,,,,,,,,,,,,,,,,0,0,0,0,0,0,0,0,0,0,0,0,0,0,0,0,,,,,,,,,,,,,
508934,1745298973753,0.0,3,,-0.08,-0.02,1.01,1,-0,-0,1.02,1.19,85,2633,13.6,4.07,,14.0,1.235,95.2,,18.1,5,,,,,,,,,,,,0,0,0,0,0,0,0,0,0,0,0,0,0,0,0,0,,,,,,0.0,,,,,,,
508954,1745298973773,,,,,,,,,,,,,,,,,,,,,,,,,,,,,,,,,,0,0,0,0,0,0,0,0,0,0,0,0,0,0,0,0,,,,,,,,,,,,,
508974,1745298973793,0.0,-12,,-0.07,-0.03,1.01,-0,-0,0,1.02,1.19,85,2768,0.0,3.7,,14.0,1.235,95.2,,20.1,5,0,0,0,0,0.0,0.0,0.0,0.0,2.25,,,0,0,0,0,0,0,0,0,0,0,0,0,0,0,0,0,,0,,,,0.0,38.986019,-76.95002,0.04,50.2,35,3,0.7
508994,1745298973811,,,,,,,,,,,,,,,,,,,,,,,,,,,,,,,,,,0,0,0,0,0,0,0,0,0,0,0,0,0,0,0,0,,,,,,,,,,,,,
509014,1745298973831,0.0,3,,-0.05,0.02,1.0,0,-0,0,1.0,1.19,84,2768,0.0,3.7,,13.67,1.243,95.2,,20.1,5,,,,,,,,,,,,0,0,0,0,0,0,0,0,0,0,0,0,0,0,0,0,,,,,,0.0,,,,,,,
509034,1745298973851,,,,,,,,,,,,,,,,,,,,,,,,,,,,,,,,,,0,0,0,0,0,0,0,0,0,0,0,0,0,0,0,0,,,,,,,,,,,,,
509054,1745298973871,0.0,5,,-0.03,0.07,0.97,1,-0,0,0.98,1.19,82,2908,0.0,3.04,,13.23,1.242,95.2,,21.9,5,,,,,,,,,,,,0,0,0,0,0,0,0,0,0,0,0,0,0,0,0,0,,,,,,0.0,,,,,,,
509074,1745298973891,,,,,,,,,,,,,,,,,,,,,,,0,0,0,0,0.0,0.0,0.0,0.0,2.26,,,0,0,0,0,0,0,0,0,0,0,0,0,0,0,0,0,,0,,,,,38.986019,-76.95002,0.0,50.2,35,3,0.7
509094,1745298973913,0.0,-8,,-0.01,0.1,0.95,1,-0,0,0.95,1.19,80,3008,0.0,2.99,,12.92,1.234,95.2,,21.9,5,,,,,,,,,,,,0,0,0,0,0,0,0,0,0,0,0,0,0,0,0,0,,,,,,0.0,,,,,,,
509114,1745298973933,,,,,,,,,,,,,,,,,,,,,,,,,,,,,,,,,,0,0,0,0,0,0,0,0,0,0,0,0,0,0,0,0,,,,,,,,,,,,,
509134,1745298973953,0.0,-4,,-0.02,0.11,0.9,2,-0,0,0.91,1.19,76,2964,0.0,3.0,,12.79,1.236,95.2,,21.9,5,,,,,,,,,,,,0,0,0,0,0,0,0,0,0,0,0,0,0,0,0,0,,,,,,0.0,,,,,,,
509154,1745298973973,,,,,,,,,,,,,,,,,,,,,,,,,,,,,,,,,,0,0,0,0,0,0,0,0,0,0,0,0,0,0,0,0,,,,,,,,,,,,,
509174,1745298973993,0.0,-8,,-0.04,0.11,0.86,3,-0,-0,0.87,1.19,73,2842,0.0,3.0,,12.79,1.236,95.2,,21.3,5,0,0,0,0,0.0,0.0,0.0,0.0,2.26,,,0,0,0,0,0,0,0,0,0,0,0,0,0,0,0,0,,0,,,,0.0,38.986019,-76.95002,0.0,50.2,35,3,0.7
509194,1745298974003,,,,,,,,,,,,,,,,,,,,,,,,,,,,,,,,,,0,0,0,0,0,0,0,0,0,0,0,0,0,0,0,0,,,,,,,,,,,,,
509214,1745298974023,0.0,14,,-0.08,0.06,0.9,2,-0,-0,0.9,1.19,76,2842,0.0,3.0,,12.68,1.238,95.2,,21.3,5,,,,,,,,,,,,0,0,0,0,0,0,0,0,0,0,0,0,0,0,0,0,,,,,,0.0,,,,,,,
509234,1745298974043,,,,,,,,,,,,,,,,,,,,,,,,,,,,,,,,,,0,0,0,0,0,0,0,0,0,0,0,0,0,0,0,0,,,,,,,,,,,,,
509254,1745298974063,0.0,8,,-0.08,0.02,0.94,1,-0,-0,0.95,1.19,79,2791,0.0,3.02,,12.71,1.252,95.2,,20.7,5,,,,,,,,,,,,0,0,0,0,0,0,0,0,0,0,0,0,0,0,0,0,,,,,,0.0,,,,,,,
509274,1745298974083,,,,,,,,,,,,,,,,,,,,,,,0,0,0,0,0.0,0.0,0.0,0.0,2.26,,,0,0,0,0,0,0,0,0,0,0,0,0,0,0,0,0,,0,,,,,38.986019,-76.95002,0.0,50.2,35,3,0.7
509294,1745298974106,0.0,-8,,-0.07,0.04,0.92,1,-0,-0,0.93,1.19,78,2758,5.1,3.42,,13.04,1.252,95.2,,20.7,5,,,,,,,,,,,,0,0,0,0,0,0,0,0,0,0,0,0,0,0,0,0,,,,,,0.0,,,,,,,
509314,1745298974126,,,,,,,,,,,,,,,,,,,,,,,,,,,,,,,,,,0,0,0,0,0,0,0,0,0,0,0,0,0,0,0,0,,,,,,,,,,,,,
509334,1745298974146,0.0,5,,-0.08,0.02,0.94,2,-0,-0,0.94,1.19,79,2703,7.6,3.82,,13.4,1.252,95.2,,20.7,5,,,,,,,,,,,,0,0,0,0,0,0,0,0,0,0,0,0,0,0,0,0,,,,,,0.0,,,,,,,
509354,1745298974166,,,,,,,,,,,,,,,,,,,,,,,,,,,,,,,,,,0,0,0,0,0,0,0,0,0,0,0,0,0,0,0,0,,,,,,,,,,,,,
509374,1745298974186,0.0,-15,,-0.08,0.01,0.99,1,-0,-0,0.99,1.19,83,2826,8.1,3.84,,13.4,1.252,95.2,,20.0,5,0,0,0,0,0.0,0.0,0.0,0.0,2.25,,,0,0,0,0,0,0,0,0,0,0,0,0,0,0,0,0,,0,,,,0.0,38.986019,-76.95002,0.04,50.2,35,3,0.7
509394,1745298974212,,,,,,,,,,,,,,,,,,,,,,,,,,,,,,,,,,0,0,0,0,0,0,0,0,0,0,0,0,0,0,0,0,,,,,,,,,,,,,
509414,1745298974232,0.0,-0,,-0.06,0.01,0.99,0,-0,0,0.99,1.19,83,2826,8.1,3.84,,13.52,1.252,95.2,,20.0,5,,,,,,,,,,,,0,0,0,0,0,0,0,0,0,0,0,0,0,0,0,0,,,,,,0.0,,,,,,,
509434,1745298974252,,,,,,,,,,,,,,,,,,,,,,,,,,,,,,,,,,0,0,0,0,0,0,0,0,0,0,0,0,0,0,0,0,,,,,,,,,,,,,
509454,1745298974272,0.0,3,,-0.04,0.05,0.97,1,-0,0,0.97,1.19,82,2898,7.2,3.86,,13.51,1.25,95.2,,21.3,5,,,,,,,,,,,,0,0,0,0,0,0,0,0,0,0,0,0,0,0,0,0,,,,,,0.0,,,,,,,
509474,1745298974292,,,,,,,,,,,,,,,,,,,,,,,0,0,0,0,0.0,0.0,0.0,0.0,2.26,,,0,0,0,0,0,0,0,0,0,0,0,0,0,0,0,0,,0,,,,,38.986019,-76.95002,0.07,50.2,35,3,0.7
509494,1745298974314,0.0,-8,,-0.03,0.09,0.93,2,-0,0,0.93,1.19,78,2923,0.0,3.02,,13.11,1.25,95.2,,21.3,5,,,,,,,,,,,,0,0,0,0,0,0,0,0,0,0,0,0,0,0,0,0,,,,,,0.0,,,,,,,
509514,1745298974334,,,,,,,,,,,,,,,,,,,,,,,,,,,,,,,,,,0,0,0,0,0,0,0,0,0,0,0,0,0,0,0,0,,,,,,,,,,,,,
509534,1745298974354,0.0,11,,-0.04,0.09,0.86,3,-0,-0,0.86,1.19,72,2905,0.0,2.99,,12.92,1.249,95.2,,21.3,5,,,,,,,,,,,,0,0,0,0,0,0,0,0,0,0,0,0,0,0,0,0,,,,,,0.0,,,,,,,
509554,1745298974374,,,,,,,,,,,,,,,,,,,,,,,,,,,,,,,,,,0,0,0,0,0,0,0,0,0,0,0,0,0,0,0,0,,,,,,,,,,,,,
509574,1745298974394,0.0,-15,13.43,-0.07,0.04,0.85,2,-0,-0,0.86,1.19,72,2858,0.0,3.01,15,12.92,1.249,95.2,178,21.3,5,0,0,0,0,0.0,0.0,0.0,0.0,2.26,0,1.0,0,0,0,0,0,0,0,0,0,0,0,0,0,0,0,0,0,0,1.0,0,0,0.0,38.986019,-76.95002,0.05,50.2,35,3,0.7
509594,1745298974412,,,,,,,,,,,,,,,,,,,,,,,,,,,,,,,,,,0,0,0,0,0,0,0,0,0,0,0,0,0,0,0,0,,,,,,,,,,,,,
509614,1745298974432,0.0,-0,,-0.09,0.0,0.91,1,-0,-0,0.91,1.19,76,2858,0.0,3.01,,12.79,1.25,95.2,,21.3,5,,,,,,,,,,,,0,0,0,0,0,0,0,0,0,0,0,0,0,0,0,0,,,,,,0.0,,,,,,,
509634,1745298974452,,,,,,,,,,,,,,,,,,,,,,,,,,,,,,,,,,0,0,0,0,0,0,0,0,0,0,0,0,0,0,0,0,,,,,,,,,,,,,
509654,1745298974472,0.0,3,,-0.08,0.02,0.92,1,-0,-0,0.93,1.19,78,2821,0.0,3.05,,12.72,1.249,95.2,,20.3,5,,,,,,,,,,,,0,0,0,0,0,0,0,0,0,0,0,0,0,0,0,0,,,,,,0.0,,,,,,,
509674,1745298974492,,,,,,,,,,,,,,,,,,,,,,,0,0,0,0,0.0,0.0,0.0,0.0,2.26,,,0,0,0,0,0,0,0,0,0,0,0,0,0,0,0,0,,0,,,,,38.986019,-76.95002,0.0,50.2,35,3,0.7
509694,1745298974514,0.0,-0,,-0.08,0.03,0.91,1,-0,-0,0.91,1.19,76,2776,0.0,3.06,,12.76,1.251,95.2,,20.3,5,,,,,,,,,,,,0,0,0,0,0,0,0,0,0,0,0,0,0,0,0,0,,,,,,0.0,,,,,,,
509714,1745298974534,,,,,,,,,,,,,,,,,,,,,,,,,,,,,,,,,,0,0,0,0,0,0,0,0,0,0,0,0,0,0,0,0,,,,,,,,,,,,,
509734,1745298974554,0.0,-0,,-0.09,0.01,0.94,1,-0,-0,0.94,1.19,79,2718,5.7,3.65,,13.15,1.252,95.2,,20.3,5,,,,,,,,,,,,0,0,0,0,0,0,0,0,0,0,0,0,0,0,0,0,,,,,,0.0,,,,,,,
509754,1745298974574,,,,,,,,,,,,,,,,,,,,,,,,,,,,,,,,,,0,0,0,0,0,0,0,0,0,0,0,0,0,0,0,0,,,,,,,,,,,,,
509774,1745298974594,0.0,-8,,-0.08,0.01,0.93,0,-0,-0,0.93,1.19,78,2615,8.0,3.84,,13.15,1.252,95.2,,19.6,5,0,0,0,0,0.0,0.0,0.0,0.0,2.26,,,0,0,0,0,0,0,0,0,0,0,0,0,0,0,0,0,,0,,,,0.0,38.986019,-76.95002,0.15,50.2,35,3,0.7
509794,1745298974614,,,,,,,,,,,,,,,,,,,,,,,,,,,,,,,,,,0,0,0,0,0,0,0,0,0,0,0,0,0,0,0,0,,,,,,,,,,,,,
509814,1745298974634,0.0,5,,-0.09,-0.02,0.96,1,-0,-0,0.96,1.19,81,2615,8.0,3.84,,13.51,1.253,95.2,,19.6,5,,,,,,,,,,,,0,0,0,0,0,0,0,0,0,0,0,0,0,0,0,0,,,,,,0.0,,,,,,,
509834,1745298974654,,,,,,,,,,,,,,,,,,,,,,,,,,,,,,,,,,0,0,0,0,0,0,0,0,0,0,0,0,0,0,0,0,,,,,,,,,,,,,
509854,1745298974674,0.0,5,,-0.08,-0.01,0.95,0,-0,0,0.96,1.19,80,2637,8.3,3.83,,13.68,1.253,95.2,,20.3,5,,,,,,,,,,,,0,0,0,0,0,0,0,0,0,0,0,0,0,0,0,0,,,,,,0.0,,,,,,,
509874,1745298974694,,,,,,,,,,,,,,,,,,,,,,,0,0,0,0,0.0,0.0,0.0,0.0,2.25,,,0,0,0,0,0,0,0,0,0,0,0,0,0,0,0,0,,0,,,,,38.986019,-76.95002,0.0,50.2,35,3,0.7
509894,1745298974714,0.0,5,,-0.08,-0.02,0.92,1,-0,-0,0.92,1.19,77,2728,8.4,3.85,,13.71,1.252,95.2,,20.3,5,,,,,,,,,,,,0,0,0,0,0,0,0,0,0,0,0,0,0,0,0,0,,,,,,0.0,,,,,,,
509914,1745298974734,,,,,,,,,,,,,,,,,,,,,,,,,,,,,,,,,,0,0,0,0,0,0,0,0,0,0,0,0,0,0,0,0,,,,,,,,,,,,,
509934,1745298974754,0.0,11,,-0.1,-0.06,0.98,1,-0,-0,0.98,1.19,82,2764,0.0,3.11,,13.33,1.25,95.2,,20.3,5,,,,,,,,,,,,0,0,0,0,0,0,0,0,0,0,0,0,0,0,0,0,,,,,,0.0,,,,,,,
509954,1745298974774,,,,,,,,,,,,,,,,,,,,,,,,,,,,,,,,,,0,0,0,0,0,0,0,0,0,0,0,0,0,0,0,0,,,,,,,,,,,,,
509974,1745298974794,0.0,-4,,-0.09,-0.07,1.0,-1,-0,0,1.01,1.19,84,2846,0.0,3.07,,13.33,1.25,95.2,,20.5,5,0,0,0,0,0.0,0.0,0.0,0.0,2.26,,,0,0,0,0,0,0,0,0,0,0,0,0,0,0,0,0,,0,,,,0.0,38.986019,-76.95002,0.08,50.2,35,3,0.7
509994,1745298974814,,,,,,,,,,,,,,,,,,,,,,,,,,,,,,,,,,0,0,0,0,0,0,0,0,0,0,0,0,0,0,0,0,,,,,,,,,,,,,
510014,1745298974834,0.0,-8,,-0.07,-0.04,0.96,0,-0,0,0.96,1.19,80,2846,0.0,3.07,,13.05,1.244,95.2,,20.5,5,,,,,,,,,,,,0,0,0,0,0,0,0,0,0,0,0,0,0,0,0,0,,,,,,0.0,,,,,,,
510034,1745298974854,,,,,,,,,,,,,,,,,,,,,,,,,,,,,,,,,,0,0,0,0,0,0,0,0,0,0,0,0,0,0,0,0,,,,,,,,,,,,,
510054,1745298974874,0.0,5,,-0.09,-0.07,0.96,1,-0,-0,0.96,1.19,81,2851,0.0,3.08,,12.88,1.248,95.2,,20.5,5,,,,,,,,,,,,0,0,0,0,0,0,0,0,0,0,0,0,0,0,0,0,,,,,,0.0,,,,,,,
510074,1745298974894,,,,,,,,,,,,,,,,,,,,,,,0,0,0,0,0.0,0.0,0.0,0.0,2.26,,,0,0,0,0,0,0,0,0,0,0,0,0,0,0,0,0,,0,,,,,38.986019,-76.95002,0.08,50.2,35,3,0.7
510094,1745298974914,0.0,3,,-0.08,-0.09,0.99,0,-0,-0,1.0,1.19,84,2778,0.0,3.06,,12.83,1.25,95.2,,20.5,5,,,,,,,,,,,,0,0,0,0,0,0,0,0,0,0,0,0,0,0,0,0,,,,,,0.0,,,,,,,
510114,1745298974934,,,,,,,,,,,,,,,,,,,,,,,,,,,,,,,,,,0,0,0,0,0,0,0,0,0,0,0,0,0,0,0,0,,,,,,,,,,,,,
510134,1745298974954,0.0,-0,,-0.07,-0.06,0.97,0,-0,-0,0.97,1.19,81,2706,0.0,3.08,,12.81,1.248,95.2,,20.5,5,,,,,,,,,,,,0,0,0,0,0,0,0,0,0,0,0,0,0,0,0,0,,,,,,0.0,,,,,,,
510154,1745298974974,,,,,,,,,,,,,,,,,,,,,,,,,,,,,,,,,,0,0,0,0,0,0,0,0,0,0,0,0,0,0,0,0,,,,,,,,,,,,,
510174,1745298974994,0.0,-0,,-0.09,-0.06,0.99,1,-0,-0,1.0,1.19,84,2655,0.0,3.1,,12.81,1.248,95.2,,20.1,5,0,0,0,0,0.0,0.0,0.0,0.0,2.26,,,0,0,0,0,0,0,0,0,0,0,0,0,0,0,0,0,,0,,,,0.0,38.986019,-76.95002,0.45,50.2,35,3,0.7
510194,1745298975006,,,,,,,,,,,,,,,,,,,,,,,,,,,,,,,,,,0,0,0,0,0,0,0,0,0,0,0,0,0,0,0,0,,,,,,,,,,,,,
510214,1745298975026,0.0,-8,,-0.08,-0.04,0.99,0,-0,0,1.0,1.19,84,2655,0.0,3.1,,12.83,1.251,95.2,,20.1,5,,,,,,,,,,,,0,0,0,0,0,0,0,0,0,0,0,0,0,0,0,0,,,,,,0.0,,,,,,,
510234,1745298975046,,,,,,,,,,,,,,,,,,,,,,,,,,,,,,,,,,0,0,0,0,0,0,0,0,0,0,0,0,0,0,0,0,,,,,,,,,,,,,
510254,1745298975066,0.0,8,,-0.08,-0.06,0.99,1,-0,-0,0.99,1.19,83,2621,0.0,3.1,,12.95,1.253,95.2,,19.2,5,,,,,,,,,,,,0,0,0,0,0,0,0,0,0,0,0,0,0,0,0,0,,,,,,0.0,,,,,,,
510274,1745298975086,,,,,,,,,,,,,,,,,,,,,,,0,0,0,0,0.0,0.0,0.0,0.0,2.25,,,0,0,0,0,0,0,0,0,0,0,0,0,0,0,0,0,,0,,,,,38.986019,-76.95002,0.49,50.2,35,3,0.7
510294,1745298975115,0.0,-0,,-0.08,-0.05,0.99,-0,-0,-0,0.99,1.19,83,2599,4.3,3.52,,13.23,1.253,95.2,,19.2,5,,,,,,,,,,,,0,0,0,0,0,0,0,0,0,0,0,0,0,0,0,0,,,,,,0.0,,,,,,,
510314,1745298975135,,,,,,,,,,,,,,,,,,,,,,,,,,,,,,,,,,0,0,0,0,0,0,0,0,0,0,0,0,0,0,0,0,,,,,,,,,,,,,
510334,1745298975155,0.0,-4,,-0.08,-0.06,1.0,0,-0,-0,1.01,1.19,84,2554,5.5,3.77,,13.44,1.253,95.2,,19.2,5,,,,,,,,,,,,0,0,0,0,0,0,0,0,0,0,0,0,0,0,0,0,,,,,,0.0,,,,,,,
510354,1745298975175,,,,,,,,,,,,,,,,,,,,,,,,,,,,,,,,,,0,0,0,0,0,0,0,0,0,0,0,0,0,0,0,0,,,,,,,,,,,,,
510374,1745298975195,0.0,-12,,-0.07,-0.03,0.99,-0,-0,0,0.99,1.19,83,2700,5.8,3.8,,13.44,1.253,95.2,,19.2,5,0,0,0,0,0.0,0.0,0.0,0.0,2.26,,,0,0,0,0,0,0,0,0,0,0,0,0,0,0,0,0,,0,,,,0.0,38.986019,-76.95002,0.11,50.2,35,3,0.7
510394,1745298975213,,,,,,,,,,,,,,,,,,,,,,,,,,,,,,,,,,0,0,0,0,0,0,0,0,0,0,0,0,0,0,0,0,,,,,,,,,,,,,
510414,1745298975233,0.0,-15,,-0.09,-0.02,0.98,0,-0,-0,0.99,1.19,83,2700,5.8,3.8,,13.52,1.252,95.2,,19.2,5,,,,,,,,,,,,0,0,0,0,0,0,0,0,0,0,0,0,0,0,0,0,,,,,,0.0,,,,,,,
510434,1745298975253,,,,,,,,,,,,,,,,,,,,,,,,,,,,,,,,,,0,0,0,0,0,0,0,0,0,0,0,0,0,0,0,0,,,,,,,,,,,,,
510454,1745298975273,0.0,8,,-0.09,-0.06,1.03,-0,-0,-0,1.03,1.19,86,2764,5.5,3.81,,13.47,1.25,95.2,,20.2,5,,,,,,,,,,,,0,0,0,0,0,0,0,0,0,0,0,0,0,0,0,0,,,,,,0.0,,,,,,,
510474,1745298975293,,,,,,,,,,,,,,,,,,,,,,,0,0,0,0,0.0,0.0,0.0,0.0,2.26,,,0,0,0,0,0,0,0,0,0,0,0,0,0,0,0,0,,0,,,,,38.986019,-76.95002,0.09,50.2,35,3,0.7
510494,1745298975315,0.0,-4,,-0.07,-0.06,1.05,-1,-0,0,1.05,1.19,88,2869,0.0,3.11,,13.13,1.249,95.2,,20.2,5,,,,,,,,,,,,0,0,0,0,0,0,0,0,0,0,0,0,0,0,0,0,,,,,,0.0,,,,,,,
510514,1745298975335,,,,,,,,,,,,,,,,,,,,,,,,,,,,,,,,,,0,0,0,0,0,0,0,0,0,0,0,0,0,0,0,0,,,,,,,,,,,,,
510534,1745298975355,0.0,5,,-0.05,-0.03,1.01,-0,-0,0,1.01,1.19,85,2809,0.0,3.04,,12.91,1.25,95.2,,20.2,5,,,,,,,,,,,,0,0,0,0,0,0,0,0,0,0,0,0,0,0,0,0,,,,,,0.0,,,,,,,
510554,1745298975375,,,,,,,,,,,,,,,,,,,,,,,,,,,,,,,,,,0,0,0,0,0,0,0,0,0,0,0,0,0,0,0,0,,,,,,,,,,,,,
510574,1745298975395,0.0,-0,13.45,-0.05,-0.02,0.98,0,-0,0,0.98,1.19,82,2781,0.0,3.04,15,12.91,1.25,95.2,178,20.7,5,0,0,0,0,0.0,0.0,0.0,0.0,2.26,0,1.0,0,0,0,0,0,0,0,0,0,0,0,0,0,0,0,0,0,0,1.0,0,0,0.0,38.986019,-76.95002,0.08,50.2,35,3,0.7
