"Interval"|"ms"|0|0|1,"Utc"|"ms"|0|0|1,"ElapsedTime"|"Min"|0.0|0.0|10,"FrontBP"|"psi"|-5.0|5.0|25,"SteerAng"|"Degrees"|-145|145|25,"Battery"|"Volts"|-5.0|20.0|1,"AccelX"|"G"|-3.0|3.0|25,"AccelY"|"G"|-3.0|3.0|25,"AccelZ"|"G"|-3.0|3.0|25,"Yaw"|"Deg/Sec"|-120|120|25,"Pitch"|"Deg/Sec"|-120|120|25,"Roll"|"Deg/Sec"|-120|120|25,"Gsum"|"G"|0.0|3.0|25,"GsumMax"|"G"|0.0|3.0|25,"GsumPct"|"%"|0|100|25,"RPM"|""|0|10000|25,"TPS"|"%"|0.0|100.0|25,"InjectorPW"|"ms"|0.0|100.0|25,"Baro"|"kPa"|0|105|1,"MAP"|"Psi"|0.0|255.0|25,"Lambda"|""|-2.0|2.0|25,"IAT"|"C"|0.0|200.0|25,"EngineTemp"|"C"|0|200|1,"EOP"|"PSI"|0.0|152.0|25,"EOT"|"F"|0|250|25,"WSFR"|"MPH"|0|150|10,"WSFL"|"MPH"|0|100|10,"WSRR"|"MPH"|0|100|10,"WSRL"|""|0|100|10,"TCSet"|"%"|0.0|100.0|10,"TCSlip"|"%"|0.0|100.0|10,"TCComp"|"deg"|0.0|50.0|10,"TCCut"|"%"|0.0|100.0|10,"Analog8"|""|0.0|5.0|10,"OilTemp"|"F"|0|300|1,"AA_On"|""|0.0|1.0|1,"ThermLF1"|"C"|0|400|50,"ThermLF2"|"C"|0|400|50,"ThermRR1"|"C"|0|400|50,"ThermRR2"|"C"|0|400|50,"ThermLF3"|"C"|0|400|50,"ThermLF4"|"C"|0|400|50,"ThermLF5"|"C"|0|400|50,"ThermLF6"|"C"|0|400|50,"ThermLF7"|"C"|0|400|50,"ThermLF8"|"C"|0|400|50,"ThermRR3"|"C"|0|400|50,"ThermRR4"|"C"|0|400|50,"ThermRR5"|"C"|0|400|50,"ThermRR6"|"C"|0|400|50,"ThermRR7"|"C"|0|400|50,"ThermRR8"|"C"|0|400|50,"AA_LowDrag"|""|0|1|1,"Gear"|""|1|6|10,"AA_On"|""|0.0|1.0|1,"AA_LowDrag"|""|0|1|1,"Fuel_Mix"|""|-10|10|1,"AA_Packages"|""|0.0|1000.0|25,"Latitude"|"Degrees"|-180.0|180.0|10,"Longitude"|"Degrees"|-180.0|180.0|10,"Speed"|"kph"|0.0|150.0|10,"Altitude"|"m"|0.0|4000.0|10,"GPSSats"|""|0|20|10,"GPSQual"|""|0|5|10,"GPSDOP"|""|0.0|20.0|10,"LapCount"|""|0|0|10,"LapTime"|"Min"|0.0|0.0|10,"Sector"|""|0|0|10,"SectorTime"|"Min"|0.0|0.0|10,"PredTime"|"Min"|0.0|0.0|5,"CurrentLap"|""|0|0|10,"Distance"|"mi"|0.0|0.0|10,"SessionTime"|"Min"|0.0|0.0|10
1156923,1745295398615,0.0003,0.0,-83,,-0.11,0.06,1.09,-1,-0,1,1.1,1.1,100,4058,11.4,3.97,,12.17,1.045,82.6,,31.4,5,,,,,,,,,,,,0,0,0,0,0,0,0,0,0,0,0,0,0,0,0,0,,,,,,0.0,,,,,,,,,,,,,,,
1156943,1745295398635,0.0006,,,,,,,,,,,,,,,,,,,,,,,,,,,,,,,,,,0,0,0,0,0,0,0,0,0,0,0,0,0,0,0,0,,,,,,,,,,,,,,,,,,,,,
1156963,1745295398655,0.001,0.0,-76,,-0.12,-0.09,0.98,0,-0,-0,0.99,1.1,90,4007,17.7,4.63,,12.99,1.084,82.6,,31.4,5,,,,,,,,,,,,0,0,0,0,0,0,0,0,0,0,0,0,0,0,0,0,,,,,,0.0,,,,,,,,,,,,,,,
1156983,1745295398675,0.0013,,,,,,,,,,,,,,,,,,,,,,,,,,,,,,,,,,0,0,0,0,0,0,0,0,0,0,0,0,0,0,0,0,,,,,,,,,,,,,,,,,,,,,
1157003,1745295398695,0.0016,0.0,-102,,-0.13,0.03,1.08,-1,-0,0,1.08,1.1,99,4157,21.2,4.66,,13.47,1.14,82.6,,31.4,5,0,0,0,0,0.0,0.0,0.0,0.0,2.26,,,0,0,0,0,0,0,0,0,0,0,0,0,0,0,0,0,,0,,,,0.0,38.985771,-76.950226,0.08,47.9,34,3,0.8,0,0.0,-1,0.0,0.0,0,0.0,0.0016
1157023,1745295398715,0.002,,,,,,,,,,,,,,,,,,,,,,,,,,,,,,,,,,0,0,0,0,0,0,0,0,0,0,0,0,0,0,0,0,,,,,,,,,,,,,,,,,,,,,
1157043,1745295398735,0.0023,0.0,-98,,-0.08,0.08,1.12,-1,-0,0,1.12,1.12,100,4363,21.5,4.39,,13.51,1.176,82.6,,32.9,5,,,,,,,,,,,,0,0,0,0,0,0,0,0,0,0,0,0,0,0,0,0,,,,,,0.0,,,,,,,,,,,,,,,
1157063,1745295398755,0.0026,,,,,,,,,,,,,,,,,,,,,,,,,,,,,,,,,,0,0,0,0,0,0,0,0,0,0,0,0,0,0,0,0,,,,,,,,,,,,,,,,,,,,,
1157083,1745295398775,0.003,0.0,-98,,-0.03,0.09,1.12,-1,-0,0,1.12,1.12,100,4523,1.1,3.05,,13.51,1.176,82.6,,32.9,5,,,,,,,,,,,,0,0,0,0,0,0,0,0,0,0,0,0,0,0,0,0,,,,,,0.0,,,,,,,,,,,,,,,
1157103,1745295398795,0.0033,,,,,,,,,,,,,,,,,,,,,,,0,0,0,0,0.0,0.0,0.0,0.0,2.26,,,0,0,0,0,0,0,0,0,0,0,0,0,0,0,0,0,,0,,,,,38.985771,-76.950226,0.04,47.9,34,3,0.8,0,0.0,-1,0.0,,0,0.0,0.0033
1157123,1745295398815,0.0036,0.0,-98,,0.01,0.13,1.13,-0,-0,0,1.13,1.13,100,4523,1.1,3.05,,12.87,1.147,82.6,,35.8,5,,,,,,,,,,,,0,0,0,0,0,0,0,0,0,0,0,0,0,0,0,0,,,,,,0.0,,,,,,,,,,,,,,,
1157143,1745295398835,0.004,,,,,,,,,,,,,,,,,,,,,,,,,,,,,,,,,,0,0,0,0,0,0,0,0,0,0,0,0,0,0,0,0,,,,,,,,,,,,,,,,,,,,,
1157163,1745295398855,0.0043,0.0,-95,,0.05,0.11,1.08,-0,-0,0,1.08,1.13,96,4504,0.0,2.66,,12.09,1.146,82.6,,35.8,5,,,,,,,,,,,,0,0,0,0,0,0,0,0,0,0,0,0,0,0,0,0,,,,,,0.0,,,,,,,,,,,,,,,
1157183,1745295398875,0.0046,,,,,,,,,,,,,,,,,,,,,,,,,,,,,,,,,,0,0,0,0,0,0,0,0,0,0,0,0,0,0,0,0,,,,,,,,,,,,,,,,,,,,,
1157203,1745295398895,0.005,0.0,-95,,0.06,0.01,0.99,1,-0,-0,0.99,1.13,87,4407,0.0,2.63,,11.49,1.133,82.6,,35.8,5,0,0,0,0,0.0,0.0,0.0,0.0,2.26,,,0,0,0,0,0,0,0,0,0,0,0,0,0,0,0,0,,0,,,,0.0,38.985771,-76.950226,0.0,47.9,34,3,0.8,0,0.0,-1,0.0,0.0,0,0.0,0.005
1157223,1745295398917,0.0053,,,,,,,,,,,,,,,,,,,,,,,,,,,,,,,,,,0,0,0,0,0,0,0,0,0,0,0,0,0,0,0,0,,,,,,,,,,,,,,,,,,,,,
1157243,1745295398937,0.0056,0.0,-95,,0.02,-0.03,0.92,1,-0,-1,0.92,1.13,82,4361,0.0,2.61,,11.2,1.155,82.6,,34.3,5,,,,,,,,,,,,0,0,0,0,0,0,0,0,0,0,0,0,0,0,0,0,,,,,,0.0,,,,,,,,,,,,,,,
1157263,1745295398957,0.006,,,,,,,,,,,,,,,,,,,,,,,,,,,,,,,,,,0,0,0,0,0,0,0,0,0,0,0,0,0,0,0,0,,,,,,,,,,,,,,,,,,,,,
1157283,1745295398977,0.0063,0.0,-102,,-0.04,-0.01,0.94,1,-0,-0,0.95,1.13,83,4348,0.4,2.71,,11.2,1.155,82.6,,34.3,5,,,,,,,,,,,,0,0,0,0,0,0,0,0,0,0,0,0,0,0,0,0,,,,,,0.0,,,,,,,,,,,,,,,
1157303,1745295398997,0.0066,,,,,,,,,,,,,,,,,,,,,,,0,0,0,0,0.0,0.0,0.0,0.0,2.26,,,0,0,0,0,0,0,0,0,0,0,0,0,0,0,0,0,,0,,,,,38.985771,-76.950226,0.1,47.9,34,3,0.8,0,0.0,-1,0.0,,0,0.0,0.0066
1157323,1745295399004,0.007,0.0,-87,,-0.04,0.09,1.04,0,-0,0,1.05,1.13,92,4348,0.4,2.71,,11.21,1.231,82.6,,33.8,5,,,,,,,,,,,,0,0,0,0,0,0,0,0,0,0,0,0,0,0,0,0,,,,,,0.0,,,,,,,,,,,,,,,
1157343,1745295399024,0.0073,,,,,,,,,,,,,,,,,,,,,,,,,,,,,,,,,,0,0,0,0,0,0,0,0,0,0,0,0,0,0,0,0,,,,,,,,,,,,,,,,,,,,,
1157363,1745295399044,0.0076,0.0,-106,,-0.01,-0.03,0.97,1,-0,-0,0.97,1.13,85,4276,2.6,3.24,,11.22,1.185,82.6,,33.8,5,,,,,,,,,,,,0,0,0,0,0,0,0,0,0,0,0,0,0,0,0,0,,,,,,0.0,,,,,,,,,,,,,,,
1157383,1745295399064,0.008,,,,,,,,,,,,,,,,,,,,,,,,,,,,,,,,,,0,0,0,0,0,0,0,0,0,0,0,0,0,0,0,0,,,,,,,,,,,,,,,,,,,,,
1157403,1745295399084,0.0083,0.0,-106,13.66,-0.04,0.04,1.04,-1,-0,0,1.04,1.13,92,4160,2.9,3.51,15,11.42,1.146,82.6,178,33.8,5,0,0,0,0,0.0,0.0,0.0,0.0,2.26,0,1.0,0,0,0,0,0,0,0,0,0,0,0,0,0,0,0,0,0,0,1.0,0,0,0.0,38.985771,-76.950226,0.0,47.9,34,3,0.8,0,0.0,-1,0.0,0.0,0,0.0,0.0083
1157423,1745295399112,0.0086,,,,,,,,,,,,,,,,,,,,,,,,,,,,,,,,,,0,0,0,0,0,0,0,0,0,0,0,0,0,0,0,0,,,,,,,,,,,,,,,,,,,,,
1157443,1745295399132,0.009,0.0,-91,,-0.03,0.02,1.01,0,-0,-0,1.01,1.13,89,4179,0.0,2.57,,11.18,1.15,82.6,,32.8,5,,,,,,,,,,,,0,0,0,0,0,0,0,0,0,0,0,0,0,0,0,0,,,,,,0.0,,,,,,,,,,,,,,,
1157463,1745295399152,0.0093,,,,,,,,,,,,,,,,,,,,,,,,,,,,,,,,,,0,0,0,0,0,0,0,0,0,0,0,0,0,0,0,0,,,,,,,,,,,,,,,,,,,,,
1157483,1745295399172,0.0096,0.0,-91,,-0.05,0.02,1.03,-0,-0,0,1.03,1.13,91,4034,0.0,2.47,,11.18,1.15,80.8,,32.8,5,,,,,,,,,,,,0,0,0,0,0,0,0,0,0,0,0,0,0,0,0,0,,,,,,0.0,,,,,,,,,,,,,,,
1157503,1745295399192,0.01,,,,,,,,,,,,,,,,,,,,,,,0,0,0,0,0.0,0.0,0.0,0.0,2.26,,,0,0,0,0,0,0,0,0,0,0,0,0,0,0,0,0,,0,,,,,38.985771,-76.950226,0.0,47.9,34,3,0.8,0,0.0,-1,0.0,,0,0.0,0.01
1157523,1745295399212,0.0103,0.0,-91,,-0.06,-0.07,0.96,0,-0,-0,0.97,1.13,85,4034,0.0,2.47,,11.0,1.121,80.8,,31.6,5,,,,,,,,,,,,0,0,0,0,0,0,0,0,0,0,0,0,0,0,0,0,,,,,,0.0,,,,,,,,,,,,,,,
1157543,1745295399232,0.0106,,,,,,,,,,,,,,,,,,,,,,,,,,,,,,,,,,0,0,0,0,0,0,0,0,0,0,0,0,0,0,0,0,,,,,,,,,,,,,,,,,,,,,
1157563,1745295399252,0.011,0.0,-83,,-0.07,-0.07,0.95,1,-0,-0,0.95,1.13,84,3901,0.0,2.33,,10.94,1.095,80.8,,31.6,5,,,,,,,,,,,,0,0,0,0,0,0,0,0,0,0,0,0,0,0,0,0,,,,,,0.0,,,,,,,,,,,,,,,
1157583,1745295399272,0.0113,,,,,,,,,,,,,,,,,,,,,,,,,,,,,,,,,,0,0,0,0,0,0,0,0,0,0,0,0,0,0,0,0,,,,,,,,,,,,,,,,,,,,,
1157603,1745295399292,0.0116,0.0,-95,,-0.07,-0.09,1.0,0,-0,-0,1.0,1.13,89,3725,10.8,3.73,,11.77,1.095,80.8,,31.6,5,0,0,0,0,0.0,0.0,0.0,0.0,2.26,,,0,0,0,0,0,0,0,0,0,0,0,0,0,0,0,0,,0,,,,0.0,38.985771,-76.950226,0.12,47.9,34,3,0.8,0,0.0,-1,0.0,0.0,0,0.0,0.0116
1157623,1745295399316,0.012,,,,,,,,,,,,,,,,,,,,,,,,,,,,,,,,,,0,0,0,0,0,0,0,0,0,0,0,0,0,0,0,0,,,,,,,,,,,,,,,,,,,,,
1157643,1745295399336,0.0123,0.0,-76,,-0.07,-0.07,1.01,0,-0,-0,1.01,1.13,89,3710,18.7,4.5,,12.97,1.142,80.8,,28.8,5,,,,,,,,,,,,0,0,0,0,0,0,0,0,0,0,0,0,0,0,0,0,,,,,,0.0,,,,,,,,,,,,,,,
1157663,1745295399356,0.0126,,,,,,,,,,,,,,,,,,,,,,,,,,,,,,,,,,0,0,0,0,0,0,0,0,0,0,0,0,0,0,0,0,,,,,,,,,,,,,,,,,,,,,
1157683,1745295399376,0.013,0.0,-80,,-0.07,-0.04,0.99,0,-0,-0,0.99,1.13,87,3693,22.2,4.56,,12.97,1.142,80.8,,28.8,5,,,,,,,,,,,,0,0,0,0,0,0,0,0,0,0,0,0,0,0,0,0,,,,,,0.0,,,,,,,,,,,,,,,
1157703,1745295399396,0.0133,,,,,,,,,,,,,,,,,,,,,,,0,0,0,0,0.0,0.0,0.0,0.0,2.25,,,0,0,0,0,0,0,0,0,0,0,0,0,0,0,0,0,,0,,,,,38.985771,-76.950226,0.08,47.9,34,3,0.8,0,0.0,-1,0.0,,0,0.0,0.0133
1157723,1745295399416,0.0136,0.0,-76,,-0.08,-0.07,0.93,1,-0,-1,0.93,1.13,82,3693,22.2,4.56,,13.59,1.197,80.8,,29.4,5,,,,,,,,,,,,0,0,0,0,0,0,0,0,0,0,0,0,0,0,0,0,,,,,,0.0,,,,,,,,,,,,,,,
1157743,1745295399436,0.014,,,,,,,,,,,,,,,,,,,,,,,,,,,,,,,,,,0,0,0,0,0,0,0,0,0,0,0,0,0,0,0,0,,,,,,,,,,,,,,,,,,,,,
1157763,1745295399456,0.0143,0.0,-76,,-0.1,0.03,1.03,-0,-0,0,1.04,1.13,92,3971,23.5,4.51,,13.73,1.201,80.8,,29.4,5,,,,,,,,,,,,0,0,0,0,0,0,0,0,0,0,0,0,0,0,0,0,,,,,,0.0,,,,,,,,,,,,,,,
1157783,1745295399476,0.0146,,,,,,,,,,,,,,,,,,,,,,,,,,,,,,,,,,0,0,0,0,0,0,0,0,0,0,0,0,0,0,0,0,,,,,,,,,,,,,,,,,,,,,
1157803,1745295399496,0.015,0.0,-87,,-0.06,0.02,1.01,1,-0,-0,1.01,1.13,89,4283,6.2,3.72,,13.21,1.184,80.8,,29.4,5,0,0,0,0,0.0,0.0,0.0,0.0,2.25,,,0,0,0,0,0,0,0,0,0,0,0,0,0,0,0,0,,0,,,,0.0,38.985771,-76.950226,0.04,47.9,34,3,0.8,0,0.0,-1,0.0,0.0,0,0.0,0.015
1157823,1745295399516,0.0153,,,,,,,,,,,,,,,,,,,,,,,,,,,,,,,,,,0,0,0,0,0,0,0,0,0,0,0,0,0,0,0,0,,,,,,,,,,,,,,,,,,,,,
1157843,1745295399536,0.0156,0.0,-72,,-0.04,-0.08,0.92,1,-0,-1,0.92,1.13,82,4347,0.0,2.55,,12.29,1.153,80.8,,34.0,5,,,,,,,,,,,,0,0,0,0,0,0,0,0,0,0,0,0,0,0,0,0,,,,,,0.0,,,,,,,,,,,,,,,
1157863,1745295399556,0.016,,,,,,,,,,,,,,,,,,,,,,,,,,,,,,,,,,0,0,0,0,0,0,0,0,0,0,0,0,0,0,0,0,,,,,,,,,,,,,,,,,,,,,
1157883,1745295399576,0.0163,0.0,-72,,-0.09,-0.05,0.96,-0,-0,-0,0.96,1.13,85,4212,0.0,2.53,,12.29,1.153,80.8,,34.0,5,,,,,,,,,,,,0,0,0,0,0,0,0,0,0,0,0,0,0,0,0,0,,,,,,0.0,,,,,,,,,,,,,,,
1157903,1745295399596,0.0166,,,,,,,,,,,,,,,,,,,,,,,0,0,0,0,0.0,0.0,0.0,0.0,2.25,,,0,0,0,0,0,0,0,0,0,0,0,0,0,0,0,0,,0,,,,,38.985771,-76.950226,0.23,47.9,34,3,0.8,0,0.0,-1,0.0,,0,0.0,0.0166
1157923,1745295399616,0.017,0.0,-68,,-0.07,-0.02,0.95,1,-0,-1,0.96,1.13,84,4212,0.0,2.53,,11.71,1.148,80.8,,33.1,5,,,,,,,,,,,,0,0,0,0,0,0,0,0,0,0,0,0,0,0,0,0,,,,,,0.0,,,,,,,,,,,,,,,
1157943,1745295399636,0.0173,,,,,,,,,,,,,,,,,,,,,,,,,,,,,,,,,,0,0,0,0,0,0,0,0,0,0,0,0,0,0,0,0,,,,,,,,,,,,,,,,,,,,,
1157963,1745295399656,0.0176,0.0,-83,,-0.09,-0.05,0.96,0,-0,-0,0.97,1.13,85,4064,1.1,2.84,,11.46,1.151,80.8,,33.1,5,,,,,,,,,,,,0,0,0,0,0,0,0,0,0,0,0,0,0,0,0,0,,,,,,0.0,,,,,,,,,,,,,,,
1157983,1745295399676,0.018,,,,,,,,,,,,,,,,,,,,,,,,,,,,,,,,,,0,0,0,0,0,0,0,0,0,0,0,0,0,0,0,0,,,,,,,,,,,,,,,,,,,,,
1158003,1745295399696,0.0183,0.0,-91,,-0.08,-0.14,0.88,1,-0,-1,0.9,1.13,79,4007,9.4,3.57,,11.96,1.207,80.8,,33.1,5,0,0,0,0,0.0,0.0,0.0,0.0,2.26,,,0,0,0,0,0,0,0,0,0,0,0,0,0,0,0,0,,0,,,,0.0,38.985771,-76.950226,0.27,47.9,34,3,0.8,0,0.0,-1,0.0,0.0,0,0.0,0.0183
1158023,1745295399716,0.0187,,,,,,,,,,,,,,,,,,,,,,,,,,,,,,,,,,0,0,0,0,0,0,0,0,0,0,0,0,0,0,0,0,,,,,,,,,,,,,,,,,,,,,
1158043,1745295399736,0.019,0.0,-68,,-0.06,-0.03,0.93,1,-0,-1,0.93,1.13,82,3970,12.5,3.65,,12.53,1.248,80.8,,31.2,5,,,,,,,,,,,,0,0,0,0,0,0,0,0,0,0,0,0,0,0,0,0,,,,,,0.0,,,,,,,,,,,,,,,
1158063,1745295399756,0.0193,,,,,,,,,,,,,,,,,,,,,,,,,,,,,,,,,,0,0,0,0,0,0,0,0,0,0,0,0,0,0,0,0,,,,,,,,,,,,,,,,,,,,,
1158083,1745295399776,0.0196,0.0,-91,,-0.09,-0.06,0.94,-0,-0,-0,0.95,1.13,84,4073,13.2,3.77,,12.53,1.248,80.8,,31.2,5,,,,,,,,,,,,0,0,0,0,0,0,0,0,0,0,0,0,0,0,0,0,,,,,,0.0,,,,,,,,,,,,,,,
1158103,1745295399796,0.02,,,,,,,,,,,,,,,,,,,,,,,0,0,0,0,0.0,0.0,0.0,0.0,2.25,,,0,0,0,0,0,0,0,0,0,0,0,0,0,0,0,0,,0,,,,,38.985771,-76.950226,0.0,47.9,34,3,0.8,0,0.0,-1,0.0,,0,0.0,0.02
1158123,1745295399816,0.0203,0.0,-72,,-0.06,-0.08,0.89,1,-0,-1,0.9,1.13,79,4073,13.2,3.77,,12.93,1.251,80.8,,31.8,5,,,,,,,,,,,,0,0,0,0,0,0,0,0,0,0,0,0,0,0,0,0,,,,,,0.0,,,,,,,,,,,,,,,
1158143,1745295399836,0.0206,,,,,,,,,,,,,,,,,,,,,,,,,,,,,,,,,,0,0,0,0,0,0,0,0,0,0,0,0,0,0,0,0,,,,,,,,,,,,,,,,,,,,,
1158163,1745295399856,0.021,0.0,-83,,-0.07,-0.02,0.96,0,-0,-0,0.96,1.13,85,4116,0.0,3.69,,12.51,1.25,80.8,,31.8,5,,,,,,,,,,,,0,0,0,0,0,0,0,0,0,0,0,0,0,0,0,0,,,,,,0.0,,,,,,,,,,,,,,,
1158183,1745295399876,0.0213,,,,,,,,,,,,,,,,,,,,,,,,,,,,,,,,,,0,0,0,0,0,0,0,0,0,0,0,0,0,0,0,0,,,,,,,,,,,,,,,,,,,,,
1158203,1745295399896,0.0216,0.0,-76,,-0.06,-0.09,0.89,1,-0,-1,0.89,1.13,79,4069,0.0,2.51,,11.87,1.224,80.8,,31.8,5,0,0,0,0,0.0,0.0,0.0,0.0,2.25,,,0,0,0,0,0,0,0,0,0,0,0,0,0,0,0,0,,0,,,,0.0,38.985771,-76.950226,0.47,47.9,34,3,0.8,0,0.0,-1,0.0,0.0,0,0.0,0.0216
1158223,1745295399916,0.022,,,,,,,,,,,,,,,,,,,,,,,,,,,,,,,,,,0,0,0,0,0,0,0,0,0,0,0,0,0,0,0,0,,,,,,,,,,,,,,,,,,,,,
1158243,1745295399936,0.0223,0.0,-61,,-0.04,0.02,0.92,1,-0,-1,0.92,1.13,81,3959,0.0,2.48,,11.46,1.15,80.8,,31.3,5,,,,,,,,,,,,0,0,0,0,0,0,0,0,0,0,0,0,0,0,0,0,,,,,,0.0,,,,,,,,,,,,,,,
1158263,1745295399956,0.0226,,,,,,,,,,,,,,,,,,,,,,,,,,,,,,,,,,0,0,0,0,0,0,0,0,0,0,0,0,0,0,0,0,,,,,,,,,,,,,,,,,,,,,
1158283,1745295399976,0.023,0.0,-68,,-0.03,0.04,0.92,1,-0,-0,0.92,1.13,81,3832,2.2,2.78,,11.46,1.15,80.8,,31.3,5,,,,,,,,,,,,0,0,0,0,0,0,0,0,0,0,0,0,0,0,0,0,,,,,,0.0,,,,,,,,,,,,,,,
1158303,1745295399996,0.0233,,,,,,,,,,,,,,,,,,,,,,,0,0,0,0,0.0,0.0,0.0,0.0,2.25,,,0,0,0,0,0,0,0,0,0,0,0,0,0,0,0,0,,0,,,,,38.985771,-76.950226,0.32,47.9,34,3,0.8,0,0.0,-1,0.0,,0,0.0,0.0233
1158323,1745295400005,0.0236,0.0,-72,,-0.05,0.05,0.89,1,-0,-0,0.9,1.13,79,3832,2.2,2.78,,11.53,1.176,80.8,,29.3,5,,,,,,,,,,,,0,0,0,0,0,0,0,0,0,0,0,0,0,0,0,0,,,,,,0.0,,,,,,,,,,,,,,,
1158343,1745295400025,0.024,,,,,,,,,,,,,,,,,,,,,,,,,,,,,,,,,,0,0,0,0,0,0,0,0,0,0,0,0,0,0,0,0,,,,,,,,,,,,,,,,,,,,,
1158363,1745295400045,0.0243,0.0,-80,,-0.06,0.0,0.9,1,-0,-1,0.9,1.13,79,3659,10.4,3.67,,12.19,1.209,80.8,,29.3,5,,,,,,,,,,,,0,0,0,0,0,0,0,0,0,0,0,0,0,0,0,0,,,,,,0.0,,,,,,,,,,,,,,,
1158383,1745295400065,0.0246,,,,,,,,,,,,,,,,,,,,,,,,,,,,,,,,,,0,0,0,0,0,0,0,0,0,0,0,0,0,0,0,0,,,,,,,,,,,,,,,,,,,,,
1158403,1745295400085,0.025,0.0,-80,13.69,-0.06,-0.01,0.9,1,-0,-0,0.9,1.13,80,3704,14.6,4.2,15,12.96,1.247,80.8,178,29.3,5,0,0,0,0,0.0,0.0,0.0,0.0,2.26,0,1.0,0,0,0,0,0,0,0,0,0,0,0,0,0,0,0,0,0,0,1.0,0,0,0.0,38.985771,-76.950226,0.0,47.9,34,3,0.8,0,0.0,-1,0.0,0.0,0,0.0,0.025
1158423,1745295400109,0.0253,,,,,,,,,,,,,,,,,,,,,,,,,,,,,,,,,,0,0,0,0,0,0,0,0,0,0,0,0,0,0,0,0,,,,,,,,,,,,,,,,,,,,,
1158443,1745295400129,0.0256,0.0,-72,,-0.06,-0.06,0.9,1,-0,-0,0.9,1.13,80,3690,14.9,4.21,,13.31,1.248,80.8,,28.5,5,,,,,,,,,,,,0,0,0,0,0,0,0,0,0,0,0,0,0,0,0,0,,,,,,0.0,,,,,,,,,,,,,,,
1158463,1745295400149,0.026,,,,,,,,,,,,,,,,,,,,,,,,,,,,,,,,,,0,0,0,0,0,0,0,0,0,0,0,0,0,0,0,0,,,,,,,,,,,,,,,,,,,,,
1158483,1745295400169,0.0263,0.0,-68,,-0.06,-0.07,0.92,1,-0,-0,0.92,1.13,81,3790,14.8,4.22,,13.31,1.248,82.6,,28.5,5,,,,,,,,,,,,0,0,0,0,0,0,0,0,0,0,0,0,0,0,0,0,,,,,,0.0,,,,,,,,,,,,,,,
1158503,1745295400189,0.0266,,,,,,,,,,,,,,,,,,,,,,,0,0,0,0,0.0,0.0,0.0,0.0,2.26,,,0,0,0,0,0,0,0,0,0,0,0,0,0,0,0,0,,0,,,,,38.985771,-76.950226,0.34,47.9,34,3,0.8,0,0.0,-1,0.0,,0,0.0,0.0266
1158523,1745295400213,0.027,0.0,-72,,-0.06,0.02,0.97,1,-0,-0,0.97,1.13,85,3790,14.8,4.22,,13.27,1.241,82.6,,29.6,5,,,,,,,,,,,,0,0,0,0,0,0,0,0,0,0,0,0,0,0,0,0,,,,,,0.0,,,,,,,,,,,,,,,
1158543,1745295400233,0.0273,,,,,,,,,,,,,,,,,,,,,,,,,,,,,,,,,,0,0,0,0,0,0,0,0,0,0,0,0,0,0,0,0,,,,,,,,,,,,,,,,,,,,,
1158563,1745295400253,0.0276,0.0,-72,,-0.06,0.09,1.06,-0,-0,0,1.07,1.13,94,3906,0.0,2.63,,12.6,1.194,82.6,,29.6,5,,,,,,,,,,,,0,0,0,0,0,0,0,0,0,0,0,0,0,0,0,0,,,,,,0.0,,,,,,,,,,,,,,,
1158583,1745295400273,0.028,,,,,,,,,,,,,,,,,,,,,,,,,,,,,,,,,,0,0,0,0,0,0,0,0,0,0,0,0,0,0,0,0,,,,,,,,,,,,,,,,,,,,,
1158603,1745295400293,0.0283,0.0,-95,,-0.05,0.1,1.06,-0,-0,1,1.07,1.13,94,3848,0.0,2.58,,12.05,1.173,82.6,,29.6,5,0,0,0,0,0.0,0.0,0.0,0.0,2.25,,,0,0,0,0,0,0,0,0,0,0,0,0,0,0,0,0,,0,,,,0.0,38.985771,-76.950226,0.33,47.9,34,3,0.8,0,0.0,-1,0.0,0.0,0,0.0,0.0283
1158623,1745295400313,0.0286,,,,,,,,,,,,,,,,,,,,,,,,,,,,,,,,,,0,0,0,0,0,0,0,0,0,0,0,0,0,0,0,0,,,,,,,,,,,,,,,,,,,,,
1158643,1745295400333,0.029,0.0,-68,,-0.05,0.08,1.04,-0,-0,0,1.04,1.13,92,3785,12.2,3.87,,12.41,1.155,82.6,,29.9,5,,,,,,,,,,,,0,0,0,0,0,0,0,0,0,0,0,0,0,0,0,0,,,,,,0.0,,,,,,,,,,,,,,,
1158663,1745295400353,0.0293,,,,,,,,,,,,,,,,,,,,,,,,,,,,,,,,,,0,0,0,0,0,0,0,0,0,0,0,0,0,0,0,0,,,,,,,,,,,,,,,,,,,,,
1158683,1745295400373,0.0296,0.0,-80,,-0.05,0.05,1.05,-0,-0,0,1.06,1.13,93,3751,18.7,4.58,,12.41,1.155,82.6,,29.9,5,,,,,,,,,,,,0,0,0,0,0,0,0,0,0,0,0,0,0,0,0,0,,,,,,0.0,,,,,,,,,,,,,,,
1158703,1745295400393,0.03,,,,,,,,,,,,,,,,,,,,,,,0,0,0,0,0.0,0.0,0.0,0.0,2.26,,,0,0,0,0,0,0,0,0,0,0,0,0,0,0,0,0,,0,,,,,38.985771,-76.950226,0.08,47.9,34,3,0.8,0,0.0,-1,0.0,,0,0.0,0.03
1158723,1745295400415,0.0303,0.0,-72,,-0.08,-0.03,1.05,0,-0,0,1.05,1.13,93,3751,18.7,4.58,,13.27,1.15,82.6,,29.8,5,,,,,,,,,,,,0,0,0,0,0,0,0,0,0,0,0,0,0,0,0,0,,,,,,0.0,,,,,,,,,,,,,,,
1158743,1745295400435,0.0306,,,,,,,,,,,,,,,,,,,,,,,,,,,,,,,,,,0,0,0,0,0,0,0,0,0,0,0,0,0,0,0,0,,,,,,,,,,,,,,,,,,,,,
1158763,1745295400455,0.031,0.0,-98,,-0.06,-0.06,1.02,-0,-0,-0,1.03,1.13,91,3959,20.6,4.35,,13.56,1.177,82.6,,29.8,5,,,,,,,,,,,,0,0,0,0,0,0,0,0,0,0,0,0,0,0,0,0,,,,,,0.0,,,,,,,,,,,,,,,
1158783,1745295400475,0.0313,,,,,,,,,,,,,,,,,,,,,,,,,,,,,,,,,,0,0,0,0,0,0,0,0,0,0,0,0,0,0,0,0,,,,,,,,,,,,,,,,,,,,,
1158803,1745295400495,0.0316,0.0,-87,,-0.08,0.03,1.12,0,-0,0,1.12,1.13,99,4092,20.9,4.3,,13.65,1.205,82.6,,29.8,5,0,0,0,0,0.0,0.0,0.0,0.0,2.25,,,0,0,0,0,0,0,0,0,0,0,0,0,0,0,0,0,,0,,,,0.0,38.985771,-76.950226,0.08,47.9,34,3,0.8,0,0.0,-1,0.0,0.0,0,0.0,0.0316
1158823,1745295400515,0.032,,,,,,,,,,,,,,,,,,,,,,,,,,,,,,,,,,0,0,0,0,0,0,0,0,0,0,0,0,0,0,0,0,,,,,,,,,,,,,,,,,,,,,
1158843,1745295400535,0.0323,0.0,-72,,-0.1,-0.09,1.02,3,-0,-1,1.03,1.13,91,4138,2.5,3.69,,12.95,1.166,82.6,,31.6,5,,,,,,,,,,,,0,0,0,0,0,0,0,0,0,0,0,0,0,0,0,0,,,,,,0.0,,,,,,,,,,,,,,,
1158863,1745295400555,0.0326,,,,,,,,,,,,,,,,,,,,,,,,,,,,,,,,,,0,0,0,0,0,0,0,0,0,0,0,0,0,0,0,0,,,,,,,,,,,,,,,,,,,,,
1158883,1745295400575,0.033,0.0,-80,,-0.14,-0.07,1.04,3,-0,-0,1.05,1.13,93,4152,0.0,2.53,,12.95,1.166,82.6,,31.6,5,,,,,,,,,,,,0,0,0,0,0,0,0,0,0,0,0,0,0,0,0,0,,,,,,0.0,,,,,,,,,,,,,,,
1158903,1745295400595,0.0333,,,,,,,,,,,,,,,,,,,,,,,0,0,0,0,0.0,0.0,0.0,0.0,2.25,,,0,0,0,0,0,0,0,0,0,0,0,0,0,0,0,0,,0,,,,,38.985771,-76.950226,0.04,47.9,34,3,0.8,0,0.0,-1,0.0,,0,0.0,0.0333
1158923,1745295400615,0.0336,0.0,-76,,-0.11,-0.09,0.98,2,-0,-1,0.99,1.13,88,4152,0.0,2.53,,12.21,1.148,82.6,,32.1,5,,,,,,,,,,,,0,0,0,0,0,0,0,0,0,0,0,0,0,0,0,0,,,,,,0.0,,,,,,,,,,,,,,,
1158943,1745295400635,0.034,,,,,,,,,,,,,,,,,,,,,,,,,,,,,,,,,,0,0,0,0,0,0,0,0,0,0,0,0,0,0,0,0,,,,,,,,,,,,,,,,,,,,,
1158963,1745295400655,0.0343,0.0,-91,,-0.12,-0.0,1.03,3,-0,-0,1.04,1.13,92,4056,0.0,2.5,,11.75,1.147,82.6,,32.1,5,,,,,,,,,,,,0,0,0,0,0,0,0,0,0,0,0,0,0,0,0,0,,,,,,0.0,,,,,,,,,,,,,,,
1158983,1745295400675,0.0347,,,,,,,,,,,,,,,,,,,,,,,,,,,,,,,,,,0,0,0,0,0,0,0,0,0,0,0,0,0,0,0,0,,,,,,,,,,,,,,,,,,,,,
1159003,1745295400695,0.035,0.0,-95,,-0.11,-0.09,1.0,3,-0,-0,1.01,1.13,89,3971,5.7,3.99,,11.81,1.183,82.6,,32.1,5,0,0,0,0,0.0,0.0,0.0,0.0,2.26,,,0,0,0,0,0,0,0,0,0,0,0,0,0,0,0,0,,0,,,,0.0,38.985771,-76.950226,0.04,47.9,34,3,0.8,0,0.0,-1,0.0,0.0,0,0.0,0.035
1159023,1745295400715,0.0353,,,,,,,,,,,,,,,,,,,,,,,,,,,,,,,,,,0,0,0,0,0,0,0,0,0,0,0,0,0,0,0,0,,,,,,,,,,,,,,,,,,,,,
1159043,1745295400735,0.0356,0.0,-91,,-0.1,-0.15,0.95,2,-0,-1,0.97,1.13,85,3864,8.9,3.63,,12.31,1.177,82.6,,30.6,5,,,,,,,,,,,,0,0,0,0,0,0,0,0,0,0,0,0,0,0,0,0,,,,,,0.0,,,,,,,,,,,,,,,
1159063,1745295400755,0.036,,,,,,,,,,,,,,,,,,,,,,,,,,,,,,,,,,0,0,0,0,0,0,0,0,0,0,0,0,0,0,0,0,,,,,,,,,,,,,,,,,,,,,
1159083,1745295400775,0.0363,0.0,-95,,-0.1,-0.13,0.92,1,-0,-1,0.93,1.13,82,3899,11.3,3.76,,12.31,1.177,82.6,,30.6,5,,,,,,,,,,,,0,0,0,0,0,0,0,0,0,0,0,0,0,0,0,0,,,,,,0.0,,,,,,,,,,,,,,,
1159103,1745295400795,0.0366,,,,,,,,,,,,,,,,,,,,,,,0,0,0,0,0.0,0.0,0.0,0.0,2.26,,,0,0,0,0,0,0,0,0,0,0,0,0,0,0,0,0,,0,,,,,38.985771,-76.950226,0.11,47.9,34,3,0.8,0,0.0,-1,0.0,,0,0.0,0.0366
1159123,1745295400815,0.037,0.0,-83,,-0.09,-0.08,0.95,0,-0,-1,0.96,1.13,85,3899,11.3,3.76,,12.67,1.148,82.6,,30.0,5,,,,,,,,,,,,0,0,0,0,0,0,0,0,0,0,0,0,0,0,0,0,,,,,,0.0,,,,,,,,,,,,,,,
1159143,1745295400835,0.0373,,,,,,,,,,,,,,,,,,,,,,,,,,,,,,,,,,0,0,0,0,0,0,0,0,0,0,0,0,0,0,0,0,,,,,,,,,,,,,,,,,,,,,
1159163,1745295400855,0.0376,0.0,-83,,-0.09,-0.05,1.01,-0,-0,-0,1.01,1.13,89,3866,1.7,3.61,,12.64,1.132,82.6,,30.0,5,,,,,,,,,,,,0,0,0,0,0,0,0,0,0,0,0,0,0,0,0,0,,,,,,0.0,,,,,,,,,,,,,,,
1159183,1745295400875,0.038,,,,,,,,,,,,,,,,,,,,,,,,,,,,,,,,,,0,0,0,0,0,0,0,0,0,0,0,0,0,0,0,0,,,,,,,,,,,,,,,,,,,,,
1159203,1745295400895,0.0383,0.0,-95,,-0.09,-0.08,1.04,-0,-0,-0,1.05,1.13,93,3881,0.0,2.61,,12.03,1.134,82.6,,30.0,5,0,0,0,0,0.0,0.0,0.0,0.0,2.26,,,0,0,0,0,0,0,0,0,0,0,0,0,0,0,0,0,,0,,,,0.0,38.985771,-76.950226,0.08,47.8,34,3,0.8,0,0.0,-1,0.0,0.0,0,0.0,0.0383
1159223,1745295400917,0.0386,,,,,,,,,,,,,,,,,,,,,,,,,,,,,,,,,,0,0,0,0,0,0,0,0,0,0,0,0,0,0,0,0,,,,,,,,,,,,,,,,,,,,,
1159243,1745295400937,0.039,0.0,-76,,-0.08,-0.07,1.03,-0,-0,0,1.04,1.13,92,3753,0.0,2.68,,11.85,1.149,82.6,,29.8,5,,,,,,,,,,,,0,0,0,0,0,0,0,0,0,0,0,0,0,0,0,0,,,,,,0.0,,,,,,,,,,,,,,,
1159263,1745295400957,0.0393,,,,,,,,,,,,,,,,,,,,,,,,,,,,,,,,,,0,0,0,0,0,0,0,0,0,0,0,0,0,0,0,0,,,,,,,,,,,,,,,,,,,,,
1159283,1745295400977,0.0396,0.0,-87,,-0.07,-0.06,0.98,-0,-0,-0,0.99,1.13,87,3600,6.3,3.84,,11.85,1.149,82.6,,29.8,5,,,,,,,,,,,,0,0,0,0,0,0,0,0,0,0,0,0,0,0,0,0,,,,,,0.0,,,,,,,,,,,,,,,
1159303,1745295400997,0.04,,,,,,,,,,,,,,,,,,,,,,,0,0,0,0,0.0,0.0,0.0,0.0,2.25,,,0,0,0,0,0,0,0,0,0,0,0,0,0,0,0,0,,0,,,,,38.985771,-76.950226,0.08,47.8,34,3,0.8,0,0.0,-1,0.0,,0,0.0,0.04
1159323,1745295401004,0.0403,0.0,-102,,-0.09,-0.11,0.98,0,-0,-0,0.99,1.13,87,3600,6.3,3.84,,12.11,1.169,82.6,,28.1,5,,,,,,,,,,,,0,0,0,0,0,0,0,0,0,0,0,0,0,0,0,0,,,,,,0.0,,,,,,,,,,,,,,,
1159343,1745295401024,0.0406,,,,,,,,,,,,,,,,,,,,,,,,,,,,,,,,,,0,0,0,0,0,0,0,0,0,0,0,0,0,0,0,0,,,,,,,,,,,,,,,,,,,,,
1159363,1745295401044,0.041,0.0,-87,,-0.1,-0.15,0.99,0,-0,-0,1.01,1.13,89,3593,15.5,4.35,,12.95,1.22,82.6,,28.1,5,,,,,,,,,,,,0,0,0,0,0,0,0,0,0,0,0,0,0,0,0,0,,,,,,0.0,,,,,,,,,,,,,,,
1159383,1745295401064,0.0413,,,,,,,,,,,,,,,,,,,,,,,,,,,,,,,,,,0,0,0,0,0,0,0,0,0,0,0,0,0,0,0,0,,,,,,,,,,,,,,,,,,,,,
1159403,1745295401084,0.0416,0.0,-91,13.73,-0.11,-0.1,0.99,-1,-0,0,1.0,1.13,88,3593,18.2,4.5,15,13.49,1.248,82.6,180,28.1,5,0,0,0,0,0.0,0.0,0.0,0.0,2.26,0,1.0,0,0,0,0,0,0,0,0,0,0,0,0,0,0,0,0,0,0,1.0,0,0,0.0,38.985771,-76.950226,0.0,47.8,34,3,0.8,0,0.0,-1,0.0,0.0,0,0.0,0.0416
1159423,1745295401112,0.042,,,,,,,,,,,,,,,,,,,,,,,,,,,,,,,,,,0,0,0,0,0,0,0,0,0,0,0,0,0,0,0,0,,,,,,,,,,,,,,,,,,,,,
1159443,1745295401132,0.0423,0.0,-87,,-0.09,-0.14,0.98,-1,-0,0,0.99,1.13,87,3817,22.7,4.52,,13.77,1.232,82.6,,28.3,5,,,,,,,,,,,,0,0,0,0,0,0,0,0,0,0,0,0,0,0,0,0,,,,,,0.0,,,,,,,,,,,,,,,
1159463,1745295401152,0.0426,,,,,,,,,,,,,,,,,,,,,,,,,,,,,,,,,,0,0,0,0,0,0,0,0,0,0,0,0,0,0,0,0,,,,,,,,,,,,,,,,,,,,,
1159483,1745295401172,0.043,0.0,-91,,-0.09,-0.05,1.0,1,-0,-0,1.01,1.13,89,3968,26.7,4.63,,13.77,1.232,80.8,,28.3,5,,,,,,,,,,,,0,0,0,0,0,0,0,0,0,0,0,0,0,0,0,0,,,,,,0.0,,,,,,,,,,,,,,,
1159503,1745295401192,0.0433,,,,,,,,,,,,,,,,,,,,,,,0,0,0,0,0.0,0.0,0.0,0.0,2.26,,,0,0,0,0,0,0,0,0,0,0,0,0,0,0,0,0,,0,,,,,38.985771,-76.950226,0.07,47.8,34,3,0.8,0,0.0,-1,0.0,,0,0.0,0.0433
1159523,1745295401212,0.0436,0.0,-98,,-0.08,-0.14,1.0,-1,-0,0,1.01,1.13,89,3968,26.7,4.63,,13.87,1.203,80.8,,31.7,5,,,,,,,,,,,,0,0,0,0,0,0,0,0,0,0,0,0,0,0,0,0,,,,,,0.0,,,,,,,,,,,,,,,
1159543,1745295401232,0.044,,,,,,,,,,,,,,,,,,,,,,,,,,,,,,,,,,0,0,0,0,0,0,0,0,0,0,0,0,0,0,0,0,,,,,,,,,,,,,,,,,,,,,
1159563,1745295401252,0.0443,0.0,-91,,-0.12,-0.08,1.05,-1,-0,0,1.06,1.13,94,4250,27.2,4.63,,13.82,1.188,80.8,,31.7,5,,,,,,,,,,,,0,0,0,0,0,0,0,0,0,0,0,0,0,0,0,0,,,,,,0.0,,,,,,,,,,,,,,,
1159583,1745295401272,0.0446,,,,,,,,,,,,,,,,,,,,,,,,,,,,,,,,,,0,0,0,0,0,0,0,0,0,0,0,0,0,0,0,0,,,,,,,,,,,,,,,,,,,,,
1159603,1745295401292,0.045,0.0,-95,,-0.12,-0.14,0.99,-1,-0,0,1.01,1.13,89,4675,27.2,4.66,,13.92,1.18,80.8,,31.7,5,0,0,0,0,0.0,0.0,0.0,0.0,2.25,,,0,0,0,0,0,0,0,0,0,0,0,0,0,0,0,0,,0,,,,0.0,38.985771,-76.950226,0.04,47.8,34,3,0.8,0,0.0,-1,0.0,0.0,0,0.0,0.045
1159623,1745295401314,0.0453,,,,,,,,,,,,,,,,,,,,,,,,,,,,,,,,,,0,0,0,0,0,0,0,0,0,0,0,0,0,0,0,0,,,,,,,,,,,,,,,,,,,,,
1159643,1745295401334,0.0457,0.0,-87,,-0.11,-0.17,0.99,-1,-0,0,1.01,1.13,89,5030,23.5,4.73,,13.63,1.102,80.8,,37.6,5,,,,,,,,,,,,0,0,0,0,0,0,0,0,0,0,0,0,0,0,0,0,,,,,,0.0,,,,,,,,,,,,,,,
1159663,1745295401354,0.046,,,,,,,,,,,,,,,,,,,,,,,,,,,,,,,,,,0,0,0,0,0,0,0,0,0,0,0,0,0,0,0,0,,,,,,,,,,,,,,,,,,,,,
1159683,1745295401374,0.0463,0.0,-102,,-0.1,-0.15,0.99,-1,-0,0,1.0,1.13,89,5378,0.0,2.34,,13.63,1.102,80.8,,37.6,5,,,,,,,,,,,,0,0,0,0,0,0,0,0,0,0,0,0,0,0,0,0,,,,,,0.0,,,,,,,,,,,,,,,
1159703,1745295401394,0.0466,,,,,,,,,,,,,,,,,,,,,,,0,0,0,0,0.0,0.0,0.0,0.0,2.26,,,0,0,0,0,0,0,0,0,0,0,0,0,0,0,0,0,,0,,,,,38.985771,-76.950226,0.07,47.8,34,3,0.8,0,0.0,-1,0.0,,0,0.0,0.0466
1159723,1745295401414,0.047,0.0,-95,,-0.08,-0.16,1.03,0,-0,-0,1.04,1.13,92,5378,0.0,2.34,,12.52,0.967,80.8,,43.5,5,,,,,,,,,,,,0,0,0,0,0,0,0,0,0,0,0,0,0,0,0,0,,,,,,0.0,,,,,,,,,,,,,,,
1159743,1745295401434,0.0473,,,,,,,,,,,,,,,,,,,,,,,,,,,,,,,,,,0,0,0,0,0,0,0,0,0,0,0,0,0,0,0,0,,,,,,,,,,,,,,,,,,,,,
1159763,1745295401454,0.0476,0.0,-95,,-0.09,-0.16,1.0,-0,-0,0,1.02,1.13,90,5553,0.0,2.14,,11.44,0.894,80.8,,43.5,5,,,,,,,,,,,,0,0,0,0,0,0,0,0,0,0,0,0,0,0,0,0,,,,,,0.0,,,,,,,,,,,,,,,
1159783,1745295401474,0.048,,,,,,,,,,,,,,,,,,,,,,,,,,,,,,,,,,0,0,0,0,0,0,0,0,0,0,0,0,0,0,0,0,,,,,,,,,,,,,,,,,,,,,
1159803,1745295401494,0.0483,0.0,-102,,-0.07,-0.16,0.97,1,-0,-0,0.98,1.13,87,5487,0.0,2.08,,10.9,0.893,80.8,,43.5,5,0,0,0,0,0.0,0.0,0.0,0.0,2.25,,,0,0,0,0,0,0,0,0,0,0,0,0,0,0,0,0,,0,,,,0.0,38.985771,-76.950226,0.04,47.8,34,3,0.8,0,0.0,-1,0.0,0.0,0,0.0,0.0483
1159823,1745295401514,0.0486,,,,,,,,,,,,,,,,,,,,,,,,,,,,,,,,,,0,0,0,0,0,0,0,0,0,0,0,0,0,0,0,0,,,,,,,,,,,,,,,,,,,,,
1159843,1745295401534,0.049,0.0,-95,,-0.06,-0.06,1.01,-0,-0,0,1.02,1.13,90,5475,0.0,1.61,,10.5,1.009,80.8,,44.8,5,,,,,,,,,,,,0,0,0,0,0,0,0,0,0,0,0,0,0,0,0,0,,,,,,0.0,,,,,,,,,,,,,,,
1159863,1745295401554,0.0493,,,,,,,,,,,,,,,,,,,,,,,,,,,,,,,,,,0,0,0,0,0,0,0,0,0,0,0,0,0,0,0,0,,,,,,,,,,,,,,,,,,,,,
1159883,1745295401574,0.0496,0.0,-98,,-0.06,-0.1,1.0,-0,-0,0,1.01,1.13,89,5290,1.4,2.01,,10.5,1.009,80.8,,44.8,5,,,,,,,,,,,,0,0,0,0,0,0,0,0,0,0,0,0,0,0,0,0,,,,,,0.0,,,,,,,,,,,,,,,
1159903,1745295401594,0.05,,,,,,,,,,,,,,,,,,,,,,,0,0,0,0,0.0,0.0,0.0,0.0,2.25,,,0,0,0,0,0,0,0,0,0,0,0,0,0,0,0,0,,0,,,,,38.985771,-76.950226,0.0,47.8,34,3,0.8,0,0.0,-1,0.0,,0,0.0,0.05
1159923,1745295401616,0.0503,0.0,-91,,-0.06,-0.12,0.95,-0,-0,-0,0.96,1.13,85,5290,1.4,2.01,,10.34,1.018,80.8,,42.8,5,,,,,,,,,,,,0,0,0,0,0,0,0,0,0,0,0,0,0,0,0,0,,,,,,0.0,,,,,,,,,,,,,,,
1159943,1745295401636,0.0506,,,,,,,,,,,,,,,,,,,,,,,,,,,,,,,,,,0,0,0,0,0,0,0,0,0,0,0,0,0,0,0,0,,,,,,,,,,,,,,,,,,,,,
1159963,1745295401656,0.051,0.0,-83,,-0.07,-0.1,0.98,-0,-0,0,0.99,1.13,87,5051,3.9,2.4,,10.72,1.03,80.8,,42.8,5,,,,,,,,,,,,0,0,0,0,0,0,0,0,0,0,0,0,0,0,0,0,,,,,,0.0,,,,,,,,,,,,,,,
1159983,1745295401676,0.0513,,,,,,,,,,,,,,,,,,,,,,,,,,,,,,,,,,0,0,0,0,0,0,0,0,0,0,0,0,0,0,0,0,,,,,,,,,,,,,,,,,,,,,
1160003,1745295401696,0.0516,0.0,-95,,-0.05,-0.07,1.02,-0,-0,0,1.02,1.13,90,4992,4.7,3.01,,11.06,1.117,80.8,,42.8,5,0,0,0,0,0.0,0.0,0.0,0.0,2.26,,,0,0,0,0,0,0,0,0,0,0,0,0,0,0,0,0,,0,,,,0.0,38.985771,-76.950226,0.05,47.8,34,3,0.8,0,0.0,-1,0.0,0.0,0,0.0,0.0516
1160023,1745295401716,0.052,,,,,,,,,,,,,,,,,,,,,,,,,,,,,,,,,,0,0,0,0,0,0,0,0,0,0,0,0,0,0,0,0,,,,,,,,,,,,,,,,,,,,,
1160043,1745295401736,0.0523,0.0,-87,,-0.06,-0.08,0.96,0,-0,-0,0.96,1.13,85,4965,4.8,3.15,,11.24,1.184,80.8,,40.1,5,,,,,,,,,,,,0,0,0,0,0,0,0,0,0,0,0,0,0,0,0,0,,,,,,0.0,,,,,,,,,,,,,,,
1160063,1745295401756,0.0526,,,,,,,,,,,,,,,,,,,,,,,,,,,,,,,,,,0,0,0,0,0,0,0,0,0,0,0,0,0,0,0,0,,,,,,,,,,,,,,,,,,,,,
1160083,1745295401776,0.053,0.0,-91,,-0.07,-0.06,1.02,-0,-0,0,1.02,1.13,90,4934,11.7,3.36,,11.24,1.184,80.8,,40.1,5,,,,,,,,,,,,0,0,0,0,0,0,0,0,0,0,0,0,0,0,0,0,,,,,,0.0,,,,,,,,,,,,,,,
1160103,1745295401796,0.0533,,,,,,,,,,,,,,,,,,,,,,,0,0,0,0,0.0,0.0,0.0,0.0,2.26,,,0,0,0,0,0,0,0,0,0,0,0,0,0,0,0,0,,0,,,,,38.985771,-76.950226,0.04,47.8,34,3,0.8,0,0.0,-1,0.0,,0,0.0,0.0533
1160123,1745295401816,0.0536,0.0,-83,,-0.06,-0.09,0.95,1,-0,-0,0.96,1.13,84,4934,11.7,3.36,,11.81,1.151,80.8,,39.2,5,,,,,,,,,,,,0,0,0,0,0,0,0,0,0,0,0,0,0,0,0,0,,,,,,0.0,,,,,,,,,,,,,,,
1160143,1745295401836,0.054,,,,,,,,,,,,,,,,,,,,,,,,,,,,,,,,,,0,0,0,0,0,0,0,0,0,0,0,0,0,0,0,0,,,,,,,,,,,,,,,,,,,,,
1160163,1745295401856,0.0543,0.0,-87,,-0.05,-0.03,1.03,1,-0,-0,1.03,1.13,91,4844,17.6,3.64,,12.61,1.057,80.8,,39.2,5,,,,,,,,,,,,0,0,0,0,0,0,0,0,0,0,0,0,0,0,0,0,,,,,,0.0,,,,,,,,,,,,,,,
1160183,1745295401876,0.0546,,,,,,,,,,,,,,,,,,,,,,,,,,,,,,,,,,0,0,0,0,0,0,0,0,0,0,0,0,0,0,0,0,,,,,,,,,,,,,,,,,,,,,
1160203,1745295401896,0.055,0.0,-83,,-0.07,-0.05,0.98,0,-0,-0,0.98,1.13,86,4859,20.9,3.74,,13.16,1.052,80.8,,39.2,5,0,0,0,0,0.0,0.0,0.0,0.0,2.26,,,0,0,0,0,0,0,0,0,0,0,0,0,0,0,0,0,,0,,,,0.0,38.985771,-76.950226,0.05,47.8,34,3,0.8,0,0.0,-1,0.0,0.0,0,0.0,0.055
1160223,1745295401916,0.0553,,,,,,,,,,,,,,,,,,,,,,,,,,,,,,,,,,0,0,0,0,0,0,0,0,0,0,0,0,0,0,0,0,,,,,,,,,,,,,,,,,,,,,
1160243,1745295401936,0.0556,0.0,-83,,-0.06,-0.0,1.04,0,-0,0,1.04,1.13,92,4930,21.3,3.72,,13.37,1.039,80.8,,38.8,5,,,,,,,,,,,,0,0,0,0,0,0,0,0,0,0,0,0,0,0,0,0,,,,,,0.0,,,,,,,,,,,,,,,
1160263,1745295401956,0.056,,,,,,,,,,,,,,,,,,,,,,,,,,,,,,,,,,0,0,0,0,0,0,0,0,0,0,0,0,0,0,0,0,,,,,,,,,,,,,,,,,,,,,
1160283,1745295401976,0.0563,0.0,-83,,-0.06,-0.06,0.97,0,-0,-0,0.97,1.13,86,4933,9.7,3.22,,13.37,1.039,80.8,,38.8,5,,,,,,,,,,,,0,0,0,0,0,0,0,0,0,0,0,0,0,0,0,0,,,,,,0.0,,,,,,,,,,,,,,,
1160303,1745295401996,0.0566,,,,,,,,,,,,,,,,,,,,,,,0,0,0,0,0.0,0.0,0.0,0.0,2.26,,,0,0,0,0,0,0,0,0,0,0,0,0,0,0,0,0,,0,,,,,38.985771,-76.950226,0.04,47.8,34,3,0.8,0,0.0,-1,0.0,,0,0.0,0.0566
1160323,1745295402003,0.057,0.0,-83,,-0.08,-0.02,1.0,-0,-0,0,1.0,1.13,88,4933,9.7,3.22,,12.85,1.085,80.8,,39.6,5,,,,,,,,,,,,0,0,0,0,0,0,0,0,0,0,0,0,0,0,0,0,,,,,,0.0,,,,,,,,,,,,,,,
1160343,1745295402023,0.0573,,,,,,,,,,,,,,,,,,,,,,,,,,,,,,,,,,0,0,0,0,0,0,0,0,0,0,0,0,0,0,0,0,,,,,,,,,,,,,,,,,,,,,
1160363,1745295402043,0.0576,0.0,-95,,-0.05,-0.02,0.97,1,-0,-0,0.98,1.13,86,4912,6.6,3.13,,12.29,1.139,80.8,,39.6,5,,,,,,,,,,,,0,0,0,0,0,0,0,0,0,0,0,0,0,0,0,0,,,,,,0.0,,,,,,,,,,,,,,,
1160383,1745295402063,0.058,,,,,,,,,,,,,,,,,,,,,,,,,,,,,,,,,,0,0,0,0,0,0,0,0,0,0,0,0,0,0,0,0,,,,,,,,,,,,,,,,,,,,,
1160403,1745295402083,0.0583,0.0,-91,13.85,-0.08,-0.03,0.97,0,-0,0,0.97,1.13,86,5373,6.0,3.14,15,12.13,1.141,80.8,180,39.6,5,0,0,0,0,0.0,0.0,0.0,0.0,2.25,0,1.0,0,0,0,0,0,0,0,0,0,0,0,0,0,0,0,0,0,0,1.0,0,0,0.0,38.985771,-76.950226,0.04,47.8,34,3,0.8,0,0.0,-1,0.0,0.0,0,0.0,0.0583
1160423,1745295402111,0.0586,,,,,,,,,,,,,,,,,,,,,,,,,,,,,,,,,,0,0,0,0,0,0,0,0,0,0,0,0,0,0,0,0,,,,,,,,,,,,,,,,,,,,,
1160443,1745295402131,0.059,0.0,-91,,-0.05,0.02,1.02,0,-0,0,1.02,1.13,90,4991,5.5,3.12,,11.99,1.119,80.8,,39.5,5,,,,,,,,,,,,0,0,0,0,0,0,0,0,0,0,0,0,0,0,0,0,,,,,,0.0,,,,,,,,,,,,,,,
1160463,1745295402151,0.0593,,,,,,,,,,,,,,,,,,,,,,,,,,,,,,,,,,0,0,0,0,0,0,0,0,0,0,0,0,0,0,0,0,,,,,,,,,,,,,,,,,,,,,
1160483,1745295402171,0.0596,0.0,-76,,-0.08,-0.01,0.99,0,-0,0,0.99,1.13,87,4826,9.6,3.15,,11.99,1.119,80.8,,39.5,5,,,,,,,,,,,,0,0,0,0,0,0,0,0,0,0,0,0,0,0,0,0,,,,,,0.0,,,,,,,,,,,,,,,
1160503,1745295402191,0.06,,,,,,,,,,,,,,,,,,,,,,,0,0,0,0,0.0,0.0,0.0,0.0,2.26,,,0,0,0,0,0,0,0,0,0,0,0,0,0,0,0,0,,0,,,,,38.985771,-76.950226,0.05,47.8,34,3,0.8,0,0.0,-1,0.0,,0,0.0,0.06
1160523,1745295402209,0.0603,0.0,-76,,-0.06,-0.08,0.92,1,-0,-0,0.92,1.13,81,4826,9.6,3.15,,12.03,1.11,80.8,,37.9,5,,,,,,,,,,,,0,0,0,0,0,0,0,0,0,0,0,0,0,0,0,0,,,,,,0.0,,,,,,,,,,,,,,,
1160543,1745295402229,0.0606,,,,,,,,,,,,,,,,,,,,,,,,,,,,,,,,,,0,0,0,0,0,0,0,0,0,0,0,0,0,0,0,0,,,,,,,,,,,,,,,,,,,,,
1160563,1745295402249,0.061,0.0,-76,,-0.01,-0.08,0.94,1,-0,-1,0.94,1.13,83,4681,10.5,3.38,,12.37,1.041,80.8,,37.9,5,,,,,,,,,,,,0,0,0,0,0,0,0,0,0,0,0,0,0,0,0,0,,,,,,0.0,,,,,,,,,,,,,,,
1160583,1745295402269,0.0613,,,,,,,,,,,,,,,,,,,,,,,,,,,,,,,,,,0,0,0,0,0,0,0,0,0,0,0,0,0,0,0,0,,,,,,,,,,,,,,,,,,,,,
1160603,1745295402289,0.0616,0.0,-87,,0.03,-0.03,0.98,2,-0,-1,0.98,1.13,87,4568,10.6,3.4,,12.47,1.036,80.8,,37.9,5,0,0,0,0,0.0,0.0,0.0,0.0,2.26,,,0,0,0,0,0,0,0,0,0,0,0,0,0,0,0,0,,0,,,,0.0,38.985771,-76.950226,0.1,47.8,34,3,0.8,0,0.0,-1,0.0,0.0,0,0.0,0.0616
1160623,1745295402313,0.062,,,,,,,,,,,,,,,,,,,,,,,,,,,,,,,,,,0,0,0,0,0,0,0,0,0,0,0,0,0,0,0,0,,,,,,,,,,,,,,,,,,,,,
1160643,1745295402333,0.0623,0.0,-98,,0.06,0.02,1.02,2,-0,-1,1.02,1.13,90,4508,10.6,3.41,,12.63,1.103,80.8,,35.8,5,,,,,,,,,,,,0,0,0,0,0,0,0,0,0,0,0,0,0,0,0,0,,,,,,0.0,,,,,,,,,,,,,,,
1160663,1745295402353,0.0626,,,,,,,,,,,,,,,,,,,,,,,,,,,,,,,,,,0,0,0,0,0,0,0,0,0,0,0,0,0,0,0,0,,,,,,,,,,,,,,,,,,,,,
1160683,1745295402373,0.063,0.0,-76,,0.08,-0.02,0.97,2,-0,-1,0.97,1.13,86,4454,10.7,3.43,,12.63,1.103,80.8,,35.8,5,,,,,,,,,,,,0,0,0,0,0,0,0,0,0,0,0,0,0,0,0,0,,,,,,0.0,,,,,,,,,,,,,,,
1160703,1745295402393,0.0633,,,,,,,,,,,,,,,,,,,,,,,0,0,0,0,0.0,0.0,0.0,0.0,2.26,,,0,0,0,0,0,0,0,0,0,0,0,0,0,0,0,0,,0,,,,,38.985771,-76.950226,0.0,47.8,34,3,0.8,0,0.0,-1,0.0,,0,0.0,0.0633
1160723,1745295402413,0.0636,0.0,-72,,0.09,-0.08,0.89,2,-0,-1,0.9,1.13,79,4454,10.7,3.43,,12.65,1.173,80.8,,34.6,5,,,,,,,,,,,,0,0,0,0,0,0,0,0,0,0,0,0,0,0,0,0,,,,,,0.0,,,,,,,,,,,,,,,
1160743,1745295402433,0.064,,,,,,,,,,,,,,,,,,,,,,,,,,,,,,,,,,0,0,0,0,0,0,0,0,0,0,0,0,0,0,0,0,,,,,,,,,,,,,,,,,,,,,
1160763,1745295402453,0.0643,0.0,-80,,0.04,-0.14,0.82,3,-0,-2,0.84,1.13,74,4398,14.3,3.7,,12.87,1.216,80.8,,34.6,5,,,,,,,,,,,,0,0,0,0,0,0,0,0,0,0,0,0,0,0,0,0,,,,,,0.0,,,,,,,,,,,,,,,
1160783,1745295402473,0.0646,,,,,,,,,,,,,,,,,,,,,,,,,,,,,,,,,,0,0,0,0,0,0,0,0,0,0,0,0,0,0,0,0,,,,,,,,,,,,,,,,,,,,,
1160803,1745295402493,0.065,0.0,-83,,-0.02,-0.14,0.84,3,-0,-1,0.85,1.13,75,4404,15.1,3.81,,13.07,1.246,80.8,,34.6,5,0,0,0,0,0.0,0.0,0.0,0.0,2.26,,,0,0,0,0,0,0,0,0,0,0,0,0,0,0,0,0,,0,,,,0.0,38.985771,-76.950226,0.08,47.8,34,3,0.8,0,0.0,-1,0.0,0.0,0,0.0,0.065
1160823,1745295402515,0.0653,,,,,,,,,,,,,,,,,,,,,,,,,,,,,,,,,,0,0,0,0,0,0,0,0,0,0,0,0,0,0,0,0,,,,,,,,,,,,,,,,,,,,,
1160843,1745295402535,0.0656,0.0,-91,,-0.08,-0.1,0.89,2,-0,-1,0.9,1.13,79,4435,15.1,3.81,,13.09,1.25,80.8,,34.4,5,,,,,,,,,,,,0,0,0,0,0,0,0,0,0,0,0,0,0,0,0,0,,,,,,0.0,,,,,,,,,,,,,,,
1160863,1745295402555,0.066,,,,,,,,,,,,,,,,,,,,,,,,,,,,,,,,,,0,0,0,0,0,0,0,0,0,0,0,0,0,0,0,0,,,,,,,,,,,,,,,,,,,,,
1160883,1745295402575,0.0663,0.0,-68,,-0.13,-0.05,0.95,1,-0,-1,0.96,1.13,84,4515,11.1,3.49,,13.09,1.25,80.8,,34.4,5,,,,,,,,,,,,0,0,0,0,0,0,0,0,0,0,0,0,0,0,0,0,,,,,,0.0,,,,,,,,,,,,,,,
1160903,1745295402595,0.0667,,,,,,,,,,,,,,,,,,,,,,,0,0,0,0,0.0,0.0,0.0,0.0,2.25,,,0,0,0,0,0,0,0,0,0,0,0,0,0,0,0,0,,0,,,,,38.985771,-76.950226,0.05,47.8,34,3,0.8,0,0.0,-1,0.0,,0,0.0,0.0667
1160923,1745295402613,0.067,0.0,-72,,-0.16,0.0,1.01,1,-0,-0,1.02,1.13,90,4515,11.1,3.49,,12.92,1.249,80.8,,35.3,5,,,,,,,,,,,,0,0,0,0,0,0,0,0,0,0,0,0,0,0,0,0,,,,,,0.0,,,,,,,,,,,,,,,
1160943,1745295402633,0.0673,,,,,,,,,,,,,,,,,,,,,,,,,,,,,,,,,,0,0,0,0,0,0,0,0,0,0,0,0,0,0,0,0,,,,,,,,,,,,,,,,,,,,,
1160963,1745295402653,0.0676,0.0,-87,,-0.18,0.06,1.08,0,-0,0,1.1,1.13,97,4505,10.8,3.45,,12.77,1.245,80.8,,35.3,5,,,,,,,,,,,,0,0,0,0,0,0,0,0,0,0,0,0,0,0,0,0,,,,,,0.0,,,,,,,,,,,,,,,
1160983,1745295402673,0.068,,,,,,,,,,,,,,,,,,,,,,,,,,,,,,,,,,0,0,0,0,0,0,0,0,0,0,0,0,0,0,0,0,,,,,,,,,,,,,,,,,,,,,
1161003,1745295402693,0.0683,0.0,-83,,-0.17,0.14,1.19,-1,-0,1,1.21,1.21,100,4467,12.2,3.54,,12.89,1.237,80.8,,35.3,5,0,0,0,0,0.0,0.0,0.0,0.0,2.25,,,0,0,0,0,0,0,0,0,0,0,0,0,0,0,0,0,,0,,,,0.0,38.985771,-76.950226,0.04,47.8,34,3,0.8,0,0.0,-1,0.0,0.0,0,0.0,0.0683
1161023,1745295402715,0.0686,,,,,,,,,,,,,,,,,,,,,,,,,,,,,,,,,,0,0,0,0,0,0,0,0,0,0,0,0,0,0,0,0,,,,,,,,,,,,,,,,,,,,,
1161043,1745295402735,0.069,0.0,-87,,-0.17,0.17,1.25,-2,-0,1,1.27,1.27,100,4562,41.6,4.66,,14.08,1.203,80.8,,35.0,5,,,,,,,,,,,,0,0,0,0,0,0,0,0,0,0,0,0,0,0,0,0,,,,,,0.0,,,,,,,,,,,,,,,
1161063,1745295402755,0.0693,,,,,,,,,,,,,,,,,,,,,,,,,,,,,,,,,,0,0,0,0,0,0,0,0,0,0,0,0,0,0,0,0,,,,,,,,,,,,,,,,,,,,,
1161083,1745295402775,0.0696,0.0,-80,,-0.16,0.09,1.17,-1,-0,1,1.19,1.27,93,4998,71.1,6.06,,14.08,1.203,80.8,,35.0,5,,,,,,,,,,,,0,0,0,0,0,0,0,0,0,0,0,0,0,0,0,0,,,,,,0.0,,,,,,,,,,,,,,,
1161103,1745295402795,0.07,,,,,,,,,,,,,,,,,,,,,,,0,0,0,0,0.0,0.0,0.0,0.0,2.26,,,0,0,0,0,0,0,0,0,0,0,0,0,0,0,0,0,,0,,,,,38.985771,-76.950226,0.05,47.8,34,3,0.8,0,0.0,-1,0.0,,0,0.0,0.07
1161123,1745295402815,0.0703,0.0,-72,,-0.14,0.15,1.21,-2,-0,1,1.23,1.27,97,4998,71.1,6.06,,14.43,1.241,80.8,,40.6,5,,,,,,,,,,,,0,0,0,0,0,0,0,0,0,0,0,0,0,0,0,0,,,,,,0.0,,,,,,,,,,,,,,,
1161143,1745295402835,0.0706,,,,,,,,,,,,,,,,,,,,,,,,,,,,,,,,,,0,0,0,0,0,0,0,0,0,0,0,0,0,0,0,0,,,,,,,,,,,,,,,,,,,,,
1161163,1745295402855,0.071,0.0,-68,,-0.09,0.22,1.27,-3,-0,2,1.29,1.29,100,5676,84.2,6.12,,14.4,1.231,80.8,,40.6,5,,,,,,,,,,,,0,0,0,0,0,0,0,0,0,0,0,0,0,0,0,0,,,,,,0.0,,,,,,,,,,,,,,,
1161183,1745295402875,0.0713,,,,,,,,,,,,,,,,,,,,,,,,,,,,,,,,,,0,0,0,0,0,0,0,0,0,0,0,0,0,0,0,0,,,,,,,,,,,,,,,,,,,,,
1161203,1745295402895,0.0716,0.0,-87,,-0.1,0.2,1.23,-2,-0,2,1.25,1.29,97,6948,97.1,5.73,,14.24,1.124,80.8,,40.6,5,0,0,0,0,0.0,0.0,0.0,0.0,2.25,,,0,0,0,0,0,0,0,0,0,0,0,0,0,0,0,0,,0,,,,0.0,38.985771,-76.950226,0.04,47.8,34,3,0.8,0,0.0,-1,0.0,0.0,0,0.0,0.0716
1161223,1745295402915,0.072,,,,,,,,,,,,,,,,,,,,,,,,,,,,,,,,,,0,0,0,0,0,0,0,0,0,0,0,0,0,0,0,0,,,,,,,,,,,,,,,,,,,,,
1161243,1745295402935,0.0723,0.0,-83,,-0.1,0.18,1.2,-2,-0,1,1.22,1.29,95,8015,99.3,6.01,,14.15,1.018,80.8,,55.9,5,,,,,,,,,,,,0,0,0,0,0,0,0,0,0,0,0,0,0,0,0,0,,,,,,0.0,,,,,,,,,,,,,,,
1161263,1745295402955,0.0726,,,,,,,,,,,,,,,,,,,,,,,,,,,,,,,,,,0,0,0,0,0,0,0,0,0,0,0,0,0,0,0,0,,,,,,,,,,,,,,,,,,,,,
1161283,1745295402975,0.073,0.0,-98,,-0.11,0.15,1.23,-2,-0,1,1.24,1.29,96,9660,99.3,6.02,,14.15,1.018,80.8,,55.9,5,,,,,,,,,,,,0,0,0,0,0,0,0,0,0,0,0,0,0,0,0,0,,,,,,0.0,,,,,,,,,,,,,,,
1161303,1745295402995,0.0733,,,,,,,,,,,,,,,,,,,,,,,0,0,0,0,0.0,0.0,0.0,0.0,2.25,,,0,0,0,0,0,0,0,0,0,0,0,0,0,0,0,0,,0,,,,,38.985771,-76.950226,0.04,47.8,34,3,0.8,0,0.0,-1,0.0,,0,0.0,0.0733
1161323,1745295403002,0.0736,0.0,-72,,-0.1,0.0,1.15,-1,-0,1,1.15,1.29,90,9660,99.3,6.02,,14.06,0.976,80.8,,58.9,5,,,,,,,,,,,,0,0,0,0,0,0,0,0,0,0,0,0,0,0,0,0,,,,,,0.0,,,,,,,,,,,,,,,
1161343,1745295403022,0.074,,,,,,,,,,,,,,,,,,,,,,,,,,,,,,,,,,0,0,0,0,0,0,0,0,0,0,0,0,0,0,0,0,,,,,,,,,,,,,,,,,,,,,
1161363,1745295403042,0.0743,0.0,-34,,-0.1,0.07,1.15,-2,-0,1,1.15,1.29,90,11801,99.4,5.44,,13.9,0.888,80.8,,58.9,5,,,,,,,,,,,,0,0,0,0,0,0,0,0,0,0,0,0,0,0,0,0,,,,,,0.0,,,,,,,,,,,,,,,
1161383,1745295403062,0.0746,,,,,,,,,,,,,,,,,,,,,,,,,,,,,,,,,,0,0,0,0,0,0,0,0,0,0,0,0,0,0,0,0,,,,,,,,,,,,,,,,,,,,,
1161403,1745295403082,0.075,0.0,-23,13.74,-0.1,-0.2,1.2,0,-0,-1,1.22,1.29,95,13365,99.3,4.71,15,13.59,0.831,80.8,180,58.9,5,0,0,0,0,0.0,0.0,0.0,0.0,2.25,0,1.0,0,0,0,0,0,0,0,0,0,0,0,0,0,0,0,0,0,0,1.0,0,0,0.0,38.985771,-76.950226,0.05,47.8,34,3,0.8,0,0.0,-1,0.0,0.0,0,0.0,0.075
1161423,1745295403112,0.0753,,,,,,,,,,,,,,,,,,,,,,,,,,,,,,,,,,0,0,0,0,0,0,0,0,0,0,0,0,0,0,0,0,,,,,,,,,,,,,,,,,,,,,
1161443,1745295403132,0.0756,0.0,-68,,-0.08,-0.02,1.11,-2,0,0,1.11,1.29,86,13723,99.4,4.55,,13.15,0.845,80.8,,70.0,5,,,,,,,,,,,,0,0,0,0,0,0,0,0,0,0,0,0,0,0,0,0,,,,,,0.0,,,,,,,,,,,,,,,
1161463,1745295403152,0.076,,,,,,,,,,,,,,,,,,,,,,,,,,,,,,,,,,0,0,0,0,0,0,0,0,0,0,0,0,0,0,0,0,,,,,,,,,,,,,,,,,,,,,
1161483,1745295403172,0.0763,0.0,-57,,-0.12,0.12,1.04,-2,0,1,1.05,1.29,82,13188,99.4,4.63,,13.15,0.845,80.8,,70.0,5,,,,,,,,,,,,0,0,0,0,0,0,0,0,0,0,0,0,0,0,0,0,,,,,,0.0,,,,,,,,,,,,,,,
1161503,1745295403192,0.0766,,,,,,,,,,,,,,,,,,,,,,,0,0,0,0,0.0,0.0,0.0,0.0,2.25,,,0,0,0,0,0,0,0,0,0,0,0,0,0,0,0,0,,0,,,,,38.985771,-76.950226,0.13,47.8,34,3,0.8,0,0.0,-1,0.0,,0,0.0,0.0766
1161523,1745295403214,0.077,0.0,-53,,-0.16,0.15,1.03,-4,-0,-0,1.05,1.29,82,13188,99.4,4.63,,11.8,1.099,80.8,,70.3,5,,,,,,,,,,,,0,0,0,0,0,0,0,0,0,0,0,0,0,0,0,0,,,,,,0.0,,,,,,,,,,,,,,,
1161543,1745295403234,0.0773,,,,,,,,,,,,,,,,,,,,,,,,,,,,,,,,,,0,0,0,0,0,0,0,0,0,0,0,0,0,0,0,0,,,,,,,,,,,,,,,,,,,,,
1161563,1745295403254,0.0777,0.0,-68,,-0.13,0.29,0.98,-7,-0,0,1.03,1.29,80,13914,99.3,4.7,,10.98,1.249,80.8,,70.3,5,,,,,,,,,,,,0,0,0,0,0,0,0,0,0,0,0,0,0,0,0,0,,,,,,0.0,,,,,,,,,,,,,,,
1161583,1745295403274,0.078,,,,,,,,,,,,,,,,,,,,,,,,,,,,,,,,,,0,0,0,0,0,0,0,0,0,0,0,0,0,0,0,0,,,,,,,,,,,,,,,,,,,,,
1161603,1745295403294,0.0783,0.0,-68,,-0.14,0.37,0.89,-7,-0,0,0.98,1.29,76,13211,99.4,3.44,,10.72,1.013,80.8,,70.3,5,0,0,0,0,0.0,0.0,0.0,0.0,2.25,,,0,0,0,0,0,0,0,0,0,0,0,0,0,0,0,0,,0,,,,0.0,38.985771,-76.950226,0.13,47.8,34,3,0.8,0,0.0,-1,0.0,0.0,0,0.0,0.0783
1161623,1745295403314,0.0786,,,,,,,,,,,,,,,,,,,,,,,,,,,,,,,,,,0,0,0,0,0,0,0,0,0,0,0,0,0,0,0,0,,,,,,,,,,,,,,,,,,,,,
1161643,1745295403334,0.079,0.0,-64,,-0.11,0.41,0.86,-7,-0,2,0.96,1.29,75,13953,99.4,3.44,,10.62,1.249,80.8,,75.9,5,,,,,,,,,,,,0,0,0,0,0,0,0,0,0,0,0,0,0,0,0,0,,,,,,0.0,,,,,,,,,,,,,,,
1161663,1745295403354,0.0793,,,,,,,,,,,,,,,,,,,,,,,,,,,,,,,,,,0,0,0,0,0,0,0,0,0,0,0,0,0,0,0,0,,,,,,,,,,,,,,,,,,,,,
1161683,1745295403374,0.0796,0.0,-76,,-0.05,0.25,0.94,-5,-0,3,0.97,1.29,76,13119,99.4,3.42,,10.62,1.249,80.8,,75.9,5,,,,,,,,,,,,0,0,0,0,0,0,0,0,0,0,0,0,0,0,0,0,,,,,,0.0,,,,,,,,,,,,,,,
1161703,1745295403394,0.08,,,,,,,,,,,,,,,,,,,,,,,0,0,0,0,0.0,0.0,0.0,0.0,2.26,,,0,0,0,0,0,0,0,0,0,0,0,0,0,0,0,0,,0,,,,,38.985771,-76.950226,0.1,47.8,34,3,0.8,0,0.0,-1,0.0,,0,0.0,0.08
1161723,1745295403414,0.0803,0.0,-57,,-0.1,0.33,0.95,-5,-0,3,1.01,1.29,79,13119,99.4,3.42,,10.42,1.086,80.8,,76.6,5,,,,,,,,,,,,0,0,0,0,0,0,0,0,0,0,0,0,0,0,0,0,,,,,,0.0,,,,,,,,,,,,,,,
1161743,1745295403434,0.0806,,,,,,,,,,,,,,,,,,,,,,,,,,,,,,,,,,0,0,0,0,0,0,0,0,0,0,0,0,0,0,0,0,,,,,,,,,,,,,,,,,,,,,
1161763,1745295403454,0.081,0.0,-46,,-0.08,0.43,0.88,-6,0,3,0.98,1.29,76,13408,99.5,3.29,,10.44,1.25,80.8,,76.6,5,,,,,,,,,,,,0,0,0,0,0,0,0,0,0,0,0,0,0,0,0,0,,,,,,0.0,,,,,,,,,,,,,,,
1161783,1745295403474,0.0813,,,,,,,,,,,,,,,,,,,,,,,,,,,,,,,,,,0,0,0,0,0,0,0,0,0,0,0,0,0,0,0,0,,,,,,,,,,,,,,,,,,,,,
1161803,1745295403494,0.0816,0.0,-57,,-0.01,0.52,0.89,-7,0,5,1.03,1.29,80,13829,99.5,3.32,,10.16,1.225,80.8,,76.6,5,0,0,0,0,0.0,0.0,0.0,0.0,2.25,,,0,0,0,0,0,0,0,0,0,0,0,0,0,0,0,0,,0,,,,0.0,38.985771,-76.950226,0.0,47.8,34,3,0.8,0,0.0,-1,0.0,0.0,0,0.0,0.0816
1161823,1745295403514,0.082,,,,,,,,,,,,,,,,,,,,,,,,,,,,,,,,,,0,0,0,0,0,0,0,0,0,0,0,0,0,0,0,0,,,,,,,,,,,,,,,,,,,,,
1161843,1745295403534,0.0823,0.0,-42,,-0.01,0.42,0.88,-5,0,5,0.97,1.29,76,12983,99.5,3.37,,10.33,1.08,80.8,,76.4,5,,,,,,,,,,,,0,0,0,0,0,0,0,0,0,0,0,0,0,0,0,0,,,,,,0.0,,,,,,,,,,,,,,,
1161863,1745295403554,0.0826,,,,,,,,,,,,,,,,,,,,,,,,,,,,,,,,,,0,0,0,0,0,0,0,0,0,0,0,0,0,0,0,0,,,,,,,,,,,,,,,,,,,,,
1161883,1745295403574,0.083,0.0,-49,,-0.02,0.17,0.96,-3,-0,3,0.98,1.29,76,13333,99.5,3.34,,10.33,1.08,80.8,,76.4,5,,,,,,,,,,,,0,0,0,0,0,0,0,0,0,0,0,0,0,0,0,0,,,,,,0.0,,,,,,,,,,,,,,,
1161903,1745295403594,0.0833,,,,,,,,,,,,,,,,,,,,,,,0,0,0,0,0.0,0.0,0.0,0.0,2.26,,,0,0,0,0,0,0,0,0,0,0,0,0,0,0,0,0,,0,,,,,38.985771,-76.950226,0.04,47.8,34,3,0.8,0,0.0,-1,0.0,,0,0.0,0.0833
1161923,1745295403614,0.0836,0.0,-42,,0.0,-0.05,0.95,-0,-0,2,0.95,1.29,74,13333,99.5,3.34,,10.3,1.249,80.8,,77.0,5,,,,,,,,,,,,0,0,0,0,0,0,0,0,0,0,0,0,0,0,0,0,,,,,,0.0,,,,,,,,,,,,,,,
1161943,1745295403634,0.084,,,,,,,,,,,,,,,,,,,,,,,,,,,,,,,,,,0,0,0,0,0,0,0,0,0,0,0,0,0,0,0,0,,,,,,,,,,,,,,,,,,,,,
1161963,1745295403654,0.0843,0.0,5,,-0.02,-0.01,0.95,1,-0,1,0.95,1.29,74,13803,99.5,3.21,,10.37,1.213,80.8,,77.0,5,,,,,,,,,,,,0,0,0,0,0,0,0,0,0,0,0,0,0,0,0,0,,,,,,0.0,,,,,,,,,,,,,,,
1161983,1745295403674,0.0846,,,,,,,,,,,,,,,,,,,,,,,,,,,,,,,,,,0,0,0,0,0,0,0,0,0,0,0,0,0,0,0,0,,,,,,,,,,,,,,,,,,,,,
1162003,1745295403694,0.085,0.0,-61,,-0.04,-0.04,0.96,1,-0,1,0.96,1.29,74,13092,99.6,3.35,,10.17,1.055,80.8,,77.0,5,0,0,0,0,0.0,0.0,0.0,0.0,2.25,,,0,0,0,0,0,0,0,0,0,0,0,0,0,0,0,0,,0,,,,0.0,38.985771,-76.950226,0.09,47.8,34,3,0.8,0,0.0,-1,0.0,0.0,0,0.0,0.085
1162023,1745295403714,0.0853,,,,,,,,,,,,,,,,,,,,,,,,,,,,,,,,,,0,0,0,0,0,0,0,0,0,0,0,0,0,0,0,0,,,,,,,,,,,,,,,,,,,,,
1162043,1745295403734,0.0856,0.0,-68,,0.01,-0.09,0.99,2,-0,0,1.0,1.29,77,12794,99.5,3.48,,10.42,1.244,80.8,,75.7,5,,,,,,,,,,,,0,0,0,0,0,0,0,0,0,0,0,0,0,0,0,0,,,,,,0.0,,,,,,,,,,,,,,,
1162063,1745295403754,0.086,,,,,,,,,,,,,,,,,,,,,,,,,,,,,,,,,,0,0,0,0,0,0,0,0,0,0,0,0,0,0,0,0,,,,,,,,,,,,,,,,,,,,,
1162083,1745295403774,0.0863,0.0,-46,,0.04,0.04,1.04,1,0,0,1.04,1.29,81,12315,99.6,3.6,,10.42,1.244,80.8,,75.7,5,,,,,,,,,,,,0,0,0,0,0,0,0,0,0,0,0,0,0,0,0,0,,,,,,0.0,,,,,,,,,,,,,,,
1162103,1745295403794,0.0866,,,,,,,,,,,,,,,,,,,,,,,0,0,0,0,0.0,0.0,0.0,0.0,2.26,,,0,0,0,0,0,0,0,0,0,0,0,0,0,0,0,0,,0,,,,,38.985771,-76.950226,0.13,47.8,34,3,0.8,0,0.0,-1,0.0,,0,0.0,0.0866
1162123,1745295403814,0.087,0.0,-53,,0.09,0.09,1.08,0,1,1,1.09,1.29,85,12315,99.6,3.6,,10.49,1.247,80.8,,69.1,5,,,,,,,,,,,,0,0,0,0,0,0,0,0,0,0,0,0,0,0,0,0,,,,,,0.0,,,,,,,,,,,,,,,
1162143,1745295403834,0.0873,,,,,,,,,,,,,,,,,,,,,,,,,,,,,,,,,,0,0,0,0,0,0,0,0,0,0,0,0,0,0,0,0,,,,,,,,,,,,,,,,,,,,,
1162163,1745295403854,0.0876,0.0,-19,,0.2,0.03,1.1,2,1,0,1.12,1.29,87,11375,99.7,3.91,,10.66,1.096,80.8,,69.1,5,,,,,,,,,,,,0,0,0,0,0,0,0,0,0,0,0,0,0,0,0,0,,,,,,0.0,,,,,,,,,,,,,,,
1162183,1745295403874,0.088,,,,,,,,,,,,,,,,,,,,,,,,,,,,,,,,,,0,0,0,0,0,0,0,0,0,0,0,0,0,0,0,0,,,,,,,,,,,,,,,,,,,,,
1162203,1745295403894,0.0883,0.0,-38,,0.26,0.02,1.14,2,0,0,1.17,1.29,90,10812,99.7,4.53,,10.8,1.039,80.8,,69.1,5,0,0,0,0,0.0,0.0,0.0,0.0,2.25,,,0,0,0,0,0,0,0,0,0,0,0,0,0,0,0,0,,0,,,,0.0,38.985771,-76.950226,0.52,47.8,34,3,0.8,0,0.0,-1,0.0,0.0,0,0.0,0.0883
1162223,1745295403916,0.0887,,,,,,,,,,,,,,,,,,,,,,,,,,,,,,,,,,0,0,0,0,0,0,0,0,0,0,0,0,0,0,0,0,,,,,,,,,,,,,,,,,,,,,
1162243,1745295403936,0.089,0.0,-38,,0.26,-0.07,1.12,2,0,1,1.16,1.29,90,10330,99.7,5.29,,11.01,0.938,80.8,,61.3,5,,,,,,,,,,,,0,0,0,0,0,0,0,0,0,0,0,0,0,0,0,0,,,,,,0.0,,,,,,,,,,,,,,,
1162263,1745295403956,0.0893,,,,,,,,,,,,,,,,,,,,,,,,,,,,,,,,,,0,0,0,0,0,0,0,0,0,0,0,0,0,0,0,0,,,,,,,,,,,,,,,,,,,,,
1162283,1745295403976,0.0896,0.0,-31,,0.29,0.06,1.12,1,0,1,1.15,1.29,90,9986,99.7,5.82,,11.01,0.938,80.8,,61.3,5,,,,,,,,,,,,0,0,0,0,0,0,0,0,0,0,0,0,0,0,0,0,,,,,,0.0,,,,,,,,,,,,,,,
1162303,1745295403996,0.09,,,,,,,,,,,,,,,,,,,,,,,2,0,2,2,0.0,0.0,0.0,0.0,2.25,,,0,0,0,0,0,0,0,0,0,0,0,0,0,0,0,0,,0,,,,,38.985771,-76.950226,2.45,47.8,34,3,0.8,0,0.0,-1,0.0,,0,0.0,0.09
1162323,1745295404001,0.0903,0.0,-38,,0.34,0.1,1.08,0,0,1,1.14,1.29,88,9986,99.7,5.82,,11.28,0.895,80.8,,59.9,5,,,,,,,,,,,,0,0,0,0,0,0,0,0,0,0,0,0,0,0,0,0,,,,,,0.0,,,,,,,,,,,,,,,
1162343,1745295404021,0.0906,,,,,,,,,,,,,,,,,,,,,,,,,,,,,,,,,,0,0,0,0,0,0,0,0,0,0,0,0,0,0,0,0,,,,,,,,,,,,,,,,,,,,,
1162363,1745295404041,0.091,0.0,-27,,0.35,0.14,1.11,0,0,1,1.17,1.29,91,9717,99.7,5.79,,11.42,0.81,80.8,,59.9,5,,,,,,,,,,,,0,0,0,0,0,0,0,0,0,0,0,0,0,0,0,0,,,,,,0.0,,,,,,,,,,,,,,,
1162383,1745295404061,0.0913,,,,,,,,,,,,,,,,,,,,,,,,,,,,,,,,,,0,0,0,0,0,0,0,0,0,0,0,0,0,0,0,0,,,,,,,,,,,,,,,,,,,,,
1162403,1745295404081,0.0916,0.0,-27,13.72,0.37,-0.04,1.06,0,0,1,1.12,1.29,87,9447,99.7,5.75,15,11.52,0.767,80.8,180,59.9,5,4,0,4,4,0.0,0.0,0.0,0.0,2.25,0,1.0,0,0,0,0,0,0,0,0,0,0,0,0,0,0,0,0,0,0,1.0,0,0,0.0,38.985771,-76.950226,6.12,47.8,34,3,0.8,0,0.0,-1,0.0,0.0,0,0.0001,0.0916
1162423,1745295404103,0.092,,,,,,,,,,,,,,,,,,,,,,,,,,,,,,,,,,0,0,0,0,0,0,0,0,0,0,0,0,0,0,0,0,,,,,,,,,,,,,,,,,,,,,
1162443,1745295404123,0.0923,0.0,-42,,0.42,-0.04,1.06,1,0,1,1.14,1.29,89,9286,99.7,5.72,,11.6,0.75,80.8,,65.0,5,,,,,,,,,,,,0,0,0,0,0,0,0,0,0,0,0,0,0,0,0,0,,,,,,0.0,,,,,,,,,,,,,,,
1162463,1745295404143,0.0926,,,,,,,,,,,,,,,,,,,,,,,,,,,,,,,,,,0,0,0,0,0,0,0,0,0,0,0,0,0,0,0,0,,,,,,,,,,,,,,,,,,,,,
1162483,1745295404163,0.093,0.0,-23,,0.46,0.12,1.08,1,-0,1,1.18,1.29,92,9127,99.7,5.71,,11.6,0.75,80.8,,65.0,5,,,,,,,,,,,,0,0,0,0,0,0,0,0,0,0,0,0,0,0,0,0,,,,,,0.0,,,,,,,,,,,,,,,
1162503,1745295404183,0.0933,,,,,,,,,,,,,,,,,,,,,,,6,0,6,6,0.0,0.0,0.0,0.0,2.25,,,0,0,0,0,0,0,0,0,0,0,0,0,0,0,0,0,,0,,,,,38.985771,-76.950233,8.81,47.8,34,3,0.8,0,0.0,-1,0.0,,0,0.0003,0.0933
1162523,1745295404209,0.0936,0.0,-31,,0.51,0.15,1.04,1,-0,1,1.17,1.29,91,9127,99.7,5.71,,11.69,0.75,80.8,,59.8,5,,,,,,,,,,,,0,0,0,0,0,0,0,0,0,0,0,0,0,0,0,0,,,,,,0.0,,,,,,,,,,,,,,,
1162543,1745295404229,0.094,,,,,,,,,,,,,,,,,,,,,,,,,,,,,,,,,,0,0,0,0,0,0,0,0,0,0,0,0,0,0,0,0,,,,,,,,,,,,,,,,,,,,,
1162563,1745295404249,0.0943,0.0,-27,,0.54,0.22,1.02,1,-0,0,1.17,1.29,91,8957,99.7,5.69,,11.77,0.747,80.8,,59.8,5,,,,,,,,,,,,0,0,0,0,0,0,0,0,0,0,0,0,0,0,0,0,,,,,,0.0,,,,,,,,,,,,,,,
1162583,1745295404269,0.0946,,,,,,,,,,,,,,,,,,,,,,,,,,,,,,,,,,0,0,0,0,0,0,0,0,0,0,0,0,0,0,0,0,,,,,,,,,,,,,,,,,,,,,
1162603,1745295404289,0.095,0.0,-23,,0.58,0.22,1.09,1,-0,1,1.25,1.29,97,8818,99.7,5.74,,11.84,0.745,80.8,,59.8,5,7,0,8,8,0.0,29.0,0.0,0.0,2.25,,,0,0,0,0,0,0,0,0,0,0,0,0,0,0,0,0,,0,,,,0.0,38.985771,-76.950233,11.26,47.8,34,3,0.8,0,0.0,-1,0.0,0.0,0,0.0005,0.095
1162623,1745295404311,0.0953,,,,,,,,,,,,,,,,,,,,,,,,,,,,,,,,,,0,0,0,0,0,0,0,0,0,0,0,0,0,0,0,0,,,,,,,,,,,,,,,,,,,,,
1162643,1745295404331,0.0956,0.0,-31,,0.58,0.12,1.04,1,-0,1,1.2,1.29,93,8662,99.6,5.79,,11.96,0.74,80.8,,58.0,5,,,,,,,,,,,,0,0,0,0,0,0,0,0,0,0,0,0,0,0,0,0,,,,,,0.0,,,,,,,,,,,,,,,
1162663,1745295404351,0.096,,,,,,,,,,,,,,,,,,,,,,,,,,,,,,,,,,0,0,0,0,0,0,0,0,0,0,0,0,0,0,0,0,,,,,,,,,,,,,,,,,,,,,
1162683,1745295404371,0.0963,0.0,-19,,0.56,0.02,1.07,1,-1,0,1.21,1.29,94,8411,99.7,5.87,,11.96,0.74,80.8,,58.0,5,,,,,,,,,,,,0,0,0,0,0,0,0,0,0,0,0,0,0,0,0,0,,,,,,0.0,,,,,,,,,,,,,,,
1162703,1745295404391,0.0966,,,,,,,,,,,,,,,,,,,,,,,9,0,10,9,0.0,98.0,0.0,0.0,2.25,,,0,0,0,0,0,0,0,0,0,0,0,0,0,0,0,0,,0,,,,,38.985771,-76.950241,13.5,47.8,34,3,0.8,0,0.0,-1,0.0,,0,0.0007,0.0966
1162723,1745295404413,0.097,0.0,-34,,0.6,0.05,1.02,1,-0,0,1.19,1.29,92,8411,99.7,5.87,,12.11,0.736,80.8,,56.7,5,,,,,,,,,,,,0,0,0,0,0,0,0,0,0,0,0,0,0,0,0,0,,,,,,0.0,,,,,,,,,,,,,,,
1162743,1745295404433,0.0973,,,,,,,,,,,,,,,,,,,,,,,,,,,,,,,,,,0,0,0,0,0,0,0,0,0,0,0,0,0,0,0,0,,,,,,,,,,,,,,,,,,,,,
1162763,1745295404453,0.0976,0.0,-12,,0.63,-0.05,1.06,2,-0,-0,1.23,1.29,96,7956,99.7,5.99,,12.48,0.73,80.8,,56.7,5,,,,,,,,,,,,0,0,0,0,0,0,0,0,0,0,0,0,0,0,0,0,,,,,,0.0,,,,,,,,,,,,,,,
1162783,1745295404473,0.098,,,,,,,,,,,,,,,,,,,,,,,,,,,,,,,,,,0,0,0,0,0,0,0,0,0,0,0,0,0,0,0,0,,,,,,,,,,,,,,,,,,,,,
1162803,1745295404493,0.0983,0.0,-27,,0.61,-0.09,1.04,-0,-0,0,1.21,1.29,94,7337,99.6,5.47,,12.72,0.727,80.8,,56.7,5,10,0,11,11,0.0,20.0,0.0,0.0,2.25,,,0,0,0,0,0,0,0,0,0,0,0,0,0,0,0,0,,0,,,,0.0,38.985771,-76.950241,15.96,47.8,34,3,0.8,0,0.0,-1,0.0,0.0,0,0.001,0.0983
1162823,1745295404513,0.0986,,,,,,,,,,,,,,,,,,,,,,,,,,,,,,,,,,0,0,0,0,0,0,0,0,0,0,0,0,0,0,0,0,,,,,,,,,,,,,,,,,,,,,
1162843,1745295404533,0.099,0.0,-27,,0.63,-0.1,1.05,-1,-0,0,1.23,1.29,95,6816,99.6,5.1,,12.88,0.733,80.8,,52.4,5,,,,,,,,,,,,0,0,0,0,0,0,0,0,0,0,0,0,0,0,0,0,,,,,,0.0,,,,,,,,,,,,,,,
1162863,1745295404553,0.0993,,,,,,,,,,,,,,,,,,,,,,,,,,,,,,,,,,0,0,0,0,0,0,0,0,0,0,0,0,0,0,0,0,,,,,,,,,,,,,,,,,,,,,
1162883,1745295404573,0.0996,0.0,-19,,0.66,-0.18,1.01,1,-0,-0,1.22,1.29,95,6190,99.7,5.14,,12.88,0.733,80.8,,52.4,5,,,,,,,,,,,,0,0,0,0,0,0,0,0,0,0,0,0,0,0,0,0,,,,,,0.0,,,,,,,,,,,,,,,
1162903,1745295404593,0.1,,,,,,,,,,,,,,,,,,,,,,,12,0,13,13,0.0,39.0,0.0,0.0,2.25,,,0,0,0,0,0,0,0,0,0,0,0,0,0,0,0,0,,0,,,,,38.985771,-76.950249,18.84,47.8,34,3,0.8,0,0.0,-1,0.0,,0,0.0013,0.1
1162923,1745295404613,0.1003,0.0,-38,,0.69,-0.13,1.09,-0,-0,0,1.29,1.29,100,6190,99.7,5.14,,13.15,0.749,80.8,,45.8,5,,,,,,,,,,,,0,0,0,0,0,0,0,0,0,0,0,0,0,0,0,0,,,,,,0.0,,,,,,,,,,,,,,,
1162943,1745295404633,0.1006,,,,,,,,,,,,,,,,,,,,,,,,,,,,,,,,,,0,0,0,0,0,0,0,0,0,0,0,0,0,0,0,0,,,,,,,,,,,,,,,,,,,,,
1162963,1745295404653,0.101,0.0,-31,,0.7,-0.18,1.02,0,-1,-0,1.25,1.29,96,5489,99.7,4.77,,13.56,0.783,80.8,,45.8,5,,,,,,,,,,,,0,0,0,0,0,0,0,0,0,0,0,0,0,0,0,0,,,,,,0.0,,,,,,,,,,,,,,,
1162983,1745295404673,0.1013,,,,,,,,,,,,,,,,,,,,,,,,,,,,,,,,,,0,0,0,0,0,0,0,0,0,0,0,0,0,0,0,0,,,,,,,,,,,,,,,,,,,,,
1163003,1745295404693,0.1016,0.0,-38,,0.68,-0.29,0.99,1,-1,-1,1.24,1.29,96,4613,99.7,4.21,,14.0,0.812,80.8,,45.8,5,15,0,15,15,0.0,79.0,0.0,0.0,2.26,,,0,0,0,0,0,0,0,0,0,0,0,0,0,0,0,0,,0,,,,0.0,38.985771,-76.950256,21.62,47.8,34,3,0.8,0,0.0,-1,0.0,0.0,0,0.0017,0.1016
1163023,1745295404713,0.102,,,,,,,,,,,,,,,,,,,,,,,,,,,,,,,,,,0,0,0,0,0,0,0,0,0,0,0,0,0,0,0,0,,,,,,,,,,,,,,,,,,,,,
1163043,1745295404733,0.1023,0.0,-38,,0.64,-0.22,1.01,0,-1,-1,1.22,1.29,94,3766,99.7,4.83,,14.2,0.803,80.8,,32.0,5,,,,,,,,,,,,0,0,0,0,0,0,0,0,0,0,0,0,0,0,0,0,,,,,,0.0,,,,,,,,,,,,,,,
1163063,1745295404753,0.1026,,,,,,,,,,,,,,,,,,,,,,,,,,,,,,,,,,0,0,0,0,0,0,0,0,0,0,0,0,0,0,0,0,,,,,,,,,,,,,,,,,,,,,
1163083,1745295404773,0.103,0.0,-19,,0.61,-0.19,0.99,-0,-1,-1,1.18,1.29,91,4054,99.7,4.81,,14.2,0.803,80.8,,32.0,5,,,,,,,,,,,,0,0,0,0,0,0,0,0,0,0,0,0,0,0,0,0,,,,,,0.0,,,,,,,,,,,,,,,
1163103,1745295404793,0.1033,,,,,,,,,,,,,,,,,,,,,,,16,0,16,16,0.0,42.0,0.0,0.0,2.26,,,0,0,0,0,0,0,0,0,0,0,0,0,0,0,0,0,,2,,,,,38.985771,-76.950256,24.89,47.8,34,3,0.8,0,0.0,-1,0.0,,0,0.0021,0.1033
1163123,1745295404813,0.1036,0.0,-46,,0.55,-0.15,1.0,-1,-1,-0,1.15,1.29,89,4054,99.7,4.81,,14.1,0.773,80.8,,31.0,5,,,,,,,,,,,,0,0,0,0,0,0,0,0,0,0,0,0,0,0,0,0,,,,,,0.0,,,,,,,,,,,,,,,
1163143,1745295404833,0.104,,,,,,,,,,,,,,,,,,,,,,,,,,,,,,,,,,0,0,0,0,0,0,0,0,0,0,0,0,0,0,0,0,,,,,,,,,,,,,,,,,,,,,
1163163,1745295404853,0.1043,0.0,-15,,0.55,-0.06,1.0,-1,-1,-0,1.14,1.29,88,4123,99.7,4.74,,14.19,0.774,80.8,,31.0,5,,,,,,,,,,,,0,0,0,0,0,0,0,0,0,0,0,0,0,0,0,0,,,,,,0.0,,,,,,,,,,,,,,,
1163183,1745295404873,0.1046,,,,,,,,,,,,,,,,,,,,,,,,,,,,,,,,,,0,0,0,0,0,0,0,0,0,0,0,0,0,0,0,0,,,,,,,,,,,,,,,,,,,,,
1163203,1745295404893,0.105,0.0,-31,,0.48,-0.11,1.02,-1,-1,-1,1.13,1.29,88,4088,99.7,4.78,,14.16,0.78,80.8,,31.0,5,17,0,17,17,0.0,59.0,0.0,0.0,2.26,,,0,0,0,0,0,0,0,0,0,0,0,0,0,0,0,0,,2,,,,0.0,38.985771,-76.950272,27.1,47.8,34,3,0.8,0,0.0,-1,0.0,0.0,0,0.0025,0.105
1163223,1745295404913,0.1053,,,,,,,,,,,,,,,,,,,,,,,,,,,,,,,,,,0,0,0,0,0,0,0,0,0,0,0,0,0,0,0,0,,,,,,,,,,,,,,,,,,,,,
1163243,1745295404933,0.1056,0.0,-46,,0.49,-0.08,1.13,-1,-1,0,1.23,1.29,95,4291,99.7,4.68,,14.19,0.785,80.8,,31.2,5,,,,,,,,,,,,0,0,0,0,0,0,0,0,0,0,0,0,0,0,0,0,,,,,,0.0,,,,,,,,,,,,,,,
1163263,1745295404953,0.106,,,,,,,,,,,,,,,,,,,,,,,,,,,,,,,,,,0,0,0,0,0,0,0,0,0,0,0,0,0,0,0,0,,,,,,,,,,,,,,,,,,,,,
1163283,1745295404973,0.1063,0.0,-38,,0.51,-0.03,1.07,-1,-1,0,1.19,1.29,92,4316,99.6,4.61,,14.19,0.785,80.8,,31.2,5,,,,,,,,,,,,0,0,0,0,0,0,0,0,0,0,0,0,0,0,0,0,,,,,,0.0,,,,,,,,,,,,,,,
1163303,1745295404993,0.1066,,,,,,,,,,,,,,,,,,,,,,,17,0,17,18,0.0,3.0,0.0,0.0,2.26,,,0,0,0,0,0,0,0,0,0,0,0,0,0,0,0,0,,2,,,,,38.985771,-76.950279,27.3,47.8,34,3,0.8,0,0.0,-1,0.0,,0,0.003,0.1066
1163323,1745295405013,0.107,0.0,-53,,0.46,-0.04,1.0,-1,-1,-0,1.1,1.29,85,4316,99.6,4.61,,14.11,0.813,80.8,,33.2,5,,,,,,,,,,,,0,0,0,0,0,0,0,0,0,0,0,0,0,0,0,0,,,,,,0.0,,,,,,,,,,,,,,,
1163343,1745295405020,0.1073,,,,,,,,,,,,,,,,,,,,,,,,,,,,,,,,,,0,0,0,0,0,0,0,0,0,0,0,0,0,0,0,0,,,,,,,,,,,,,,,,,,,,,
1163363,1745295405040,0.1076,0.0,-27,,0.37,-0.11,0.94,-0,-1,-1,1.01,1.29,78,4336,99.7,4.63,,14.16,0.86,80.8,,33.2,5,,,,,,,,,,,,0,0,0,0,0,0,0,0,0,0,0,0,0,0,0,0,,,,,,0.0,,,,,,,,,,,,,,,
1163383,1745295405060,0.108,,,,,,,,,,,,,,,,,,,,,,,,,,,,,,,,,,0,0,0,0,0,0,0,0,0,0,0,0,0,0,0,0,,,,,,,,,,,,,,,,,,,,,
1163403,1745295405080,0.1083,0.0,-31,13.79,0.31,-0.19,0.92,0,-1,-1,1.0,1.29,77,4463,99.7,4.54,15,14.12,0.887,80.8,180,33.2,5,18,0,18,18,0.0,242.0,0.0,0.0,2.25,0,1.0,0,0,0,0,0,0,0,0,0,0,0,0,0,0,0,0,0,2,1.0,0,0,0.0,38.985771,-76.950294,28.22,47.8,34,3,0.8,0,0.0,-1,0.0,0.0,0,0.0035,0.1083
1163423,1745295405110,0.1086,,,,,,,,,,,,,,,,,,,,,,,,,,,,,,,,,,0,0,0,0,0,0,0,0,0,0,0,0,0,0,0,0,,,,,,,,,,,,,,,,,,,,,
1163443,1745295405130,0.109,0.0,-49,,0.23,-0.28,0.89,1,-1,-1,0.96,1.29,74,4479,99.7,4.52,,14.14,0.907,80.8,,33.9,5,,,,,,,,,,,,0,0,0,0,0,0,0,0,0,0,0,0,0,0,0,0,,,,,,0.0,,,,,,,,,,,,,,,
1163463,1745295405150,0.1093,,,,,,,,,,,,,,,,,,,,,,,,,,,,,,,,,,0,0,0,0,0,0,0,0,0,0,0,0,0,0,0,0,,,,,,,,,,,,,,,,,,,,,
1163483,1745295405170,0.1096,0.0,-31,,0.18,-0.32,0.87,2,-1,-1,0.95,1.29,73,4532,99.7,4.47,,14.14,0.907,80.8,,33.9,5,,,,,,,,,,,,0,0,0,0,0,0,0,0,0,0,0,0,0,0,0,0,,,,,,0.0,,,,,,,,,,,,,,,
1163503,1745295405190,0.11,,,,,,,,,,,,,,,,,,,,,,,19,0,19,19,0.0,22.0,0.0,0.0,2.26,,,0,0,0,0,0,0,0,0,0,0,0,0,0,0,0,0,,2,,,,,38.985771,-76.950302,28.71,47.8,34,3,0.8,0,0.0,-1,0.0,,0,0.004,0.11
1163523,1745295405212,0.1103,0.0,-38,,0.11,-0.42,0.86,2,-1,-2,0.96,1.29,74,4532,99.7,4.47,,14.14,0.911,80.8,,34.3,5,,,,,,,,,,,,0,0,0,0,0,0,0,0,0,0,0,0,0,0,0,0,,,,,,0.0,,,,,,,,,,,,,,,
1163543,1745295405232,0.1106,,,,,,,,,,,,,,,,,,,,,,,,,,,,,,,,,,0,0,0,0,0,0,0,0,0,0,0,0,0,0,0,0,,,,,,,,,,,,,,,,,,,,,
1163563,1745295405252,0.111,0.0,-31,,0.07,-0.43,0.82,3,-1,-2,0.93,1.29,72,4562,99.7,4.54,,14.08,0.913,80.8,,34.3,5,,,,,,,,,,,,0,0,0,0,0,0,0,0,0,0,0,0,0,0,0,0,,,,,,0.0,,,,,,,,,,,,,,,
1163583,1745295405272,0.1113,,,,,,,,,,,,,,,,,,,,,,,,,,,,,,,,,,0,0,0,0,0,0,0,0,0,0,0,0,0,0,0,0,,,,,,,,,,,,,,,,,,,,,
1163603,1745295405292,0.1116,0.0,-23,,0.04,-0.53,0.74,4,-0,-2,0.91,1.29,70,4636,99.7,4.43,,14.11,0.942,80.8,,34.3,5,19,0,19,19,0.0,22.0,0.0,0.0,2.26,,,0,0,0,0,0,0,0,0,0,0,0,0,0,0,0,0,,2,,,,0.0,38.985771,-76.950302,29.27,47.7,34,3,0.8,0,0.0,-1,0.0,0.0,0,0.0045,0.1116
1163623,1745295405314,0.112,,,,,,,,,,,,,,,,,,,,,,,,,,,,,,,,,,0,0,0,0,0,0,0,0,0,0,0,0,0,0,0,0,,,,,,,,,,,,,,,,,,,,,
1163643,1745295405334,0.1123,0.0,5,,0.04,-0.49,0.71,5,-0,-3,0.87,1.29,67,4635,99.7,4.44,,14.18,1.017,80.8,,36.1,5,,,,,,,,,,,,0,0,0,0,0,0,0,0,0,0,0,0,0,0,0,0,,,,,,0.0,,,,,,,,,,,,,,,
1163663,1745295405354,0.1126,,,,,,,,,,,,,,,,,,,,,,,,,,,,,,,,,,0,0,0,0,0,0,0,0,0,0,0,0,0,0,0,0,,,,,,,,,,,,,,,,,,,,,
1163683,1745295405374,0.113,0.0,82,,0.07,-0.32,0.74,4,-0,-2,0.81,1.29,62,4641,99.7,4.43,,14.18,1.017,80.8,,36.1,5,,,,,,,,,,,,0,0,0,0,0,0,0,0,0,0,0,0,0,0,0,0,,,,,,0.0,,,,,,,,,,,,,,,
1163703,1745295405394,0.1133,,,,,,,,,,,,,,,,,,,,,,,20,0,19,20,0.0,3.0,0.0,0.0,2.27,,,0,0,0,0,0,0,0,0,0,0,0,0,0,0,0,0,,2,,,,,38.985771,-76.950317,29.84,47.7,34,3,0.8,0,0.0,-1,0.0,,0,0.005,0.1133
1163723,1745295405414,0.1136,0.0,-15,,0.07,-0.14,0.86,3,-0,-1,0.87,1.29,67,4641,99.7,4.43,,14.14,1.053,80.8,,35.8,5,,,,,,,,,,,,0,0,0,0,0,0,0,0,0,0,0,0,0,0,0,0,,,,,,0.0,,,,,,,,,,,,,,,
1163743,1745295405434,0.114,,,,,,,,,,,,,,,,,,,,,,,,,,,,,,,,,,0,0,0,0,0,0,0,0,0,0,0,0,0,0,0,0,,,,,,,,,,,,,,,,,,,,,
1163763,1745295405454,0.1143,0.0,11,,0.06,-0.16,0.89,3,-0,-1,0.91,1.29,70,4610,99.7,4.39,,14.15,1.067,80.8,,35.8,5,,,,,,,,,,,,0,0,0,0,0,0,0,0,0,0,0,0,0,0,0,0,,,,,,0.0,,,,,,,,,,,,,,,
1163783,1745295405474,0.1146,,,,,,,,,,,,,,,,,,,,,,,,,,,,,,,,,,0,0,0,0,0,0,0,0,0,0,0,0,0,0,0,0,,,,,,,,,,,,,,,,,,,,,
1163803,1745295405494,0.115,0.0,17,,0.04,-0.27,0.81,3,0,-2,0.85,1.29,66,4748,99.7,4.23,,14.1,1.095,80.8,,35.8,5,19,0,19,20,0.0,22.0,0.0,0.0,2.26,,,0,0,0,0,0,0,0,0,0,0,0,0,0,0,0,0,,2,,,,0.0,38.985771,-76.950325,30.07,47.7,34,3,0.8,0,0.0,-1,0.0,0.0,0,0.0055,0.115
1163823,1745295405514,0.1153,,,,,,,,,,,,,,,,,,,,,,,,,,,,,,,,,,0,0,0,0,0,0,0,0,0,0,0,0,0,0,0,0,,,,,,,,,,,,,,,,,,,,,
1163843,1745295405534,0.1156,0.0,134,,0.04,-0.32,0.75,4,-0,-2,0.82,1.29,63,4529,99.7,4.42,,14.14,1.064,80.8,,36.6,5,,,,,,,,,,,,0,0,0,0,0,0,0,0,0,0,0,0,0,0,0,0,,,,,,0.0,,,,,,,,,,,,,,,
1163863,1745295405554,0.116,,,,,,,,,,,,,,,,,,,,,,,,,,,,,,,,,,0,0,0,0,0,0,0,0,0,0,0,0,0,0,0,0,,,,,,,,,,,,,,,,,,,,,
1163883,1745295405574,0.1163,0.0,5,,0.06,-0.18,0.84,4,-0,-2,0.86,1.29,66,4669,99.7,4.36,,14.14,1.064,80.8,,36.6,5,,,,,,,,,,,,0,0,0,0,0,0,0,0,0,0,0,0,0,0,0,0,,,,,,0.0,,,,,,,,,,,,,,,
1163903,1745295405594,0.1166,,,,,,,,,,,,,,,,,,,,,,,20,0,19,19,0.0,246.0,0.0,0.0,2.27,,,0,0,0,0,0,0,0,0,0,0,0,0,0,0,0,0,,2,,,,,38.985775,-76.95034,30.3,47.7,34,3,0.8,0,0.0,-1,0.0,,0,0.0061,0.1166
1163923,1745295405614,0.117,0.0,-19,,0.03,-0.11,0.89,3,-0,-2,0.89,1.29,69,4669,99.7,4.36,,14.06,1.007,80.8,,36.5,5,,,,,,,,,,,,0,0,0,0,0,0,0,0,0,0,0,0,0,0,0,0,,,,,,0.0,,,,,,,,,,,,,,,
1163943,1745295405634,0.1173,,,,,,,,,,,,,,,,,,,,,,,,,,,,,,,,,,0,0,0,0,0,0,0,0,0,0,0,0,0,0,0,0,,,,,,,,,,,,,,,,,,,,,
1163963,1745295405654,0.1176,0.0,-12,,0.02,-0.23,0.82,4,0,-2,0.85,0.85,100,4760,99.7,4.27,,14.06,1.033,80.8,,36.5,5,,,,,,,,,,,,0,0,0,0,0,0,0,0,0,0,0,0,0,0,0,0,,,,,,0.0,,,,,,,,,,,,,,,
1163983,1745295405674,0.118,,,,,,,,,,,,,,,,,,,,,,,,,,,,,,,,,,0,0,0,0,0,0,0,0,0,0,0,0,0,0,0,0,,,,,,,,,,,,,,,,,,,,,
1164003,1745295405694,0.1183,0.0,-19,,0.05,-0.14,0.94,3,0,-1,0.96,0.96,100,4889,99.7,4.27,,14.07,1.08,80.8,,36.5,5,19,0,20,19,0.0,6.0,0.0,0.0,2.25,,,0,0,0,0,0,0,0,0,0,0,0,0,0,0,0,0,,2,,,,0.0,38.985775,-76.95034,30.75,47.7,34,3,0.8,0,0.0,-1,0.0,0.0,0,0.0066,0.1183
