"Interval"|"ms"|0|0|1,"Utc"|"ms"|0|0|1,"ElapsedTime"|"Min"|0.0|0.0|10,"FrontBP"|"psi"|-5.0|5.0|25,"SteerAng"|"Degrees"|-145|145|25,"Battery"|"Volts"|-5.0|20.0|1,"AccelX"|"G"|-3.0|3.0|25,"AccelY"|"G"|-3.0|3.0|25,"AccelZ"|"G"|-3.0|3.0|25,"Yaw"|"Deg/Sec"|-120|120|25,"Pitch"|"Deg/Sec"|-120|120|25,"Roll"|"Deg/Sec"|-120|120|25,"Gsum"|"G"|0.0|3.0|25,"GsumMax"|"G"|0.0|3.0|25,"GsumPct"|"%"|0|100|25,"RPM"|""|0|10000|25,"TPS"|"%"|0.0|100.0|25,"InjectorPW"|"ms"|0.0|100.0|25,"Baro"|"kPa"|0|105|1,"MAP"|"Psi"|0.0|255.0|25,"Lambda"|""|-2.0|2.0|25,"IAT"|"C"|0.0|200.0|25,"EngineTemp"|"C"|0|200|1,"EOP"|"PSI"|0.0|152.0|25,"EOT"|"F"|0|250|25,"WSFR"|"MPH"|0|150|10,"WSFL"|"MPH"|0|100|10,"WSRR"|"MPH"|0|100|10,"WSRL"|""|0|100|10,"TCSet"|"%"|0.0|100.0|10,"TCSlip"|"%"|0.0|100.0|10,"TCComp"|"deg"|0.0|50.0|10,"TCCut"|"%"|0.0|100.0|10,"Analog8"|""|0.0|5.0|10,"OilTemp"|"F"|0|300|1,"AA_On"|""|0.0|1.0|1,"ThermLF1"|"C"|0|400|50,"ThermLF2"|"C"|0|400|50,"ThermRR1"|"C"|0|400|50,"ThermRR2"|"C"|0|400|50,"ThermLF3"|"C"|0|400|50,"ThermLF4"|"C"|0|400|50,"ThermLF5"|"C"|0|400|50,"ThermLF6"|"C"|0|400|50,"ThermLF7"|"C"|0|400|50,"ThermLF8"|"C"|0|400|50,"ThermRR3"|"C"|0|400|50,"ThermRR4"|"C"|0|400|50,"ThermRR5"|"C"|0|400|50,"ThermRR6"|"C"|0|400|50,"ThermRR7"|"C"|0|400|50,"ThermRR8"|"C"|0|400|50,"AA_LowDrag"|""|0|1|1,"Gear"|""|1|6|10,"AA_On"|""|0.0|1.0|1,"AA_LowDrag"|""|0|1|1,"Fuel_Mix"|""|-10|10|1,"AA_Packages"|""|0.0|1000.0|25,"Latitude"|"Degrees"|-180.0|180.0|10,"Longitude"|"Degrees"|-180.0|180.0|10,"Speed"|"kph"|0.0|150.0|10,"Altitude"|"m"|0.0|4000.0|10,"GPSSats"|""|0|20|10,"GPSQual"|""|0|5|10,"GPSDOP"|""|0.0|20.0|10,"LapCount"|""|0|0|10,"LapTime"|"Min"|0.0|0.0|10,"Sector"|""|0|0|10,"SectorTime"|"Min"|0.0|0.0|10,"PredTime"|"Min"|0.0|0.0|5,"CurrentLap"|""|0|0|10,"Distance"|"mi"|0.0|0.0|10,"SessionTime"|"Min"|0.0|0.0|10
3288023,1745297533212,0.0003,,,,,,,,,,,,,,,,,,,,,,,,,,,,,,,,,,0,0,0,0,0,0,0,0,0,0,0,0,0,0,0,0,,,,,,,,,,,,,,,,,,,,,
3288043,1745297533232,0.0006,0.0,-42,,-0.06,0.01,1.11,0,-0,0,1.11,1.11,100,3857,11.7,4.32,,12.76,1.252,89.8,,38.6,5,,,,,,,,,,,,0,0,0,0,0,0,0,0,0,0,0,0,0,0,0,0,,,,,,0.0,,,,,,,,,,,,,,,
3288063,1745297533252,0.001,,,,,,,,,,,,,,,,,,,,,,,,,,,,,,,,,,0,0,0,0,0,0,0,0,0,0,0,0,0,0,0,0,,,,,,,,,,,,,,,,,,,,,
3288083,1745297533272,0.0013,0.0,-46,,-0.04,0.05,1.1,0,-0,0,1.11,1.11,100,3803,0.0,2.82,,12.76,1.252,89.8,,38.6,5,,,,,,,,,,,,0,0,0,0,0,0,0,0,0,0,0,0,0,0,0,0,,,,,,0.0,,,,,,,,,,,,,,,
3288103,1745297533296,0.0016,,,,,,,,,,,,,,,,,,,,,,,0,0,0,0,0.0,0.0,0.0,0.0,2.26,,,0,0,0,0,0,0,0,0,0,0,0,0,0,0,0,0,,0,,,,,38.986023,-76.95002,0.0,48.1,33,3,0.8,0,0.0,-1,0.0,,0,0.0,0.0016
3288123,1745297533316,0.002,0.0,-64,,-0.04,0.03,1.07,0,-0,-0,1.07,1.11,96,3803,0.0,2.82,,12.23,1.253,89.8,,38.9,5,,,,,,,,,,,,0,0,0,0,0,0,0,0,0,0,0,0,0,0,0,0,,,,,,0.0,,,,,,,,,,,,,,,
3288143,1745297533336,0.0023,,,,,,,,,,,,,,,,,,,,,,,,,,,,,,,,,,0,0,0,0,0,0,0,0,0,0,0,0,0,0,0,0,,,,,,,,,,,,,,,,,,,,,
3288163,1745297533356,0.0026,0.0,-76,,-0.07,0.0,1.06,1,-0,-0,1.07,1.11,96,3730,0.0,2.82,,11.79,1.252,89.8,,38.9,5,,,,,,,,,,,,0,0,0,0,0,0,0,0,0,0,0,0,0,0,0,0,,,,,,0.0,,,,,,,,,,,,,,,
3288183,1745297533376,0.003,,,,,,,,,,,,,,,,,,,,,,,,,,,,,,,,,,0,0,0,0,0,0,0,0,0,0,0,0,0,0,0,0,,,,,,,,,,,,,,,,,,,,,
3288203,1745297533396,0.0033,0.0,-72,,-0.08,-0.05,1.1,-0,-0,0,1.1,1.11,99,3579,0.0,2.88,,11.61,1.253,89.8,,38.9,5,0,0,0,0,0.0,0.0,0.0,0.0,2.26,,,0,0,0,0,0,0,0,0,0,0,0,0,0,0,0,0,,0,,,,0.0,38.986023,-76.95002,0.0,48.1,33,3,0.8,0,0.0,-1,0.0,0.0,0,0.0,0.0033
3288223,1745297533416,0.0036,,,,,,,,,,,,,,,,,,,,,,,,,,,,,,,,,,0,0,0,0,0,0,0,0,0,0,0,0,0,0,0,0,,,,,,,,,,,,,,,,,,,,,
3288243,1745297533436,0.004,0.0,-57,,-0.07,0.03,1.1,-0,-0,1,1.1,1.11,99,3595,0.0,2.86,,11.58,1.252,89.8,,36.8,5,,,,,,,,,,,,0,0,0,0,0,0,0,0,0,0,0,0,0,0,0,0,,,,,,0.0,,,,,,,,,,,,,,,
3288263,1745297533456,0.0043,,,,,,,,,,,,,,,,,,,,,,,,,,,,,,,,,,0,0,0,0,0,0,0,0,0,0,0,0,0,0,0,0,,,,,,,,,,,,,,,,,,,,,
3288283,1745297533476,0.0046,0.0,-53,,-0.05,0.08,1.08,-0,-0,1,1.09,1.11,98,3568,0.0,2.87,,11.58,1.252,89.8,,36.8,5,,,,,,,,,,,,0,0,0,0,0,0,0,0,0,0,0,0,0,0,0,0,,,,,,0.0,,,,,,,,,,,,,,,
3288303,1745297533496,0.005,,,,,,,,,,,,,,,,,,,,,,,0,0,0,0,0.0,0.0,0.0,0.0,2.27,,,0,0,0,0,0,0,0,0,0,0,0,0,0,0,0,0,,0,,,,,38.986023,-76.95002,0.04,48.1,33,3,0.8,0,0.0,-1,0.0,,0,0.0,0.005
3288323,1745297533516,0.0053,0.0,-72,,-0.06,-0.04,1.03,0,-0,-0,1.03,1.11,93,3568,0.0,2.87,,11.57,1.252,89.8,,36.0,5,,,,,,,,,,,,0,0,0,0,0,0,0,0,0,0,0,0,0,0,0,0,,,,,,0.0,,,,,,,,,,,,,,,
3288343,1745297533536,0.0056,,,,,,,,,,,,,,,,,,,,,,,,,,,,,,,,,,0,0,0,0,0,0,0,0,0,0,0,0,0,0,0,0,,,,,,,,,,,,,,,,,,,,,
3288363,1745297533556,0.006,0.0,-64,,-0.04,-0.03,1.05,-0,-0,0,1.05,1.11,95,3496,0.0,2.89,,11.61,1.253,89.8,,36.0,5,,,,,,,,,,,,0,0,0,0,0,0,0,0,0,0,0,0,0,0,0,0,,,,,,0.0,,,,,,,,,,,,,,,
3288383,1745297533576,0.0063,,,,,,,,,,,,,,,,,,,,,,,,,,,,,,,,,,0,0,0,0,0,0,0,0,0,0,0,0,0,0,0,0,,,,,,,,,,,,,,,,,,,,,
3288403,1745297533596,0.0066,0.0,-64,13.39,-0.08,-0.1,1.1,-0,-0,0,1.1,1.11,100,3268,0.0,2.95,15,11.77,1.252,89.8,146,36.0,5,0,0,0,0,0.0,0.0,0.0,0.0,2.27,0,1.0,0,0,0,0,0,0,0,0,0,0,0,0,0,0,0,0,0,0,1.0,0,-0,0.0,38.986023,-76.95002,0.05,48.1,33,3,0.8,0,0.0,-1,0.0,0.0,0,0.0,0.0066
3288423,1745297533616,0.007,,,,,,,,,,,,,,,,,,,,,,,,,,,,,,,,,,0,0,0,0,0,0,0,0,0,0,0,0,0,0,0,0,,,,,,,,,,,,,,,,,,,,,
3288443,1745297533636,0.0073,0.0,-53,,-0.11,-0.1,1.08,0,-0,-0,1.09,1.11,98,3146,0.0,3.04,,11.93,1.253,89.8,,32.4,5,,,,,,,,,,,,0,0,0,0,0,0,0,0,0,0,0,0,0,0,0,0,,,,,,0.0,,,,,,,,,,,,,,,
3288463,1745297533656,0.0076,,,,,,,,,,,,,,,,,,,,,,,,,,,,,,,,,,0,0,0,0,0,0,0,0,0,0,0,0,0,0,0,0,,,,,,,,,,,,,,,,,,,,,
3288483,1745297533676,0.008,0.0,-49,,-0.13,-0.13,1.07,0,-0,-0,1.09,1.11,98,3020,0.0,3.13,,11.93,1.253,89.8,,32.4,5,,,,,,,,,,,,0,0,0,0,0,0,0,0,0,0,0,0,0,0,0,0,,,,,,0.0,,,,,,,,,,,,,,,
3288503,1745297533696,0.0083,,,,,,,,,,,,,,,,,,,,,,,0,0,0,0,0.0,0.0,0.0,0.0,2.26,,,0,0,0,0,0,0,0,0,0,0,0,0,0,0,0,0,,0,,,,,38.986023,-76.95002,0.05,48.1,33,3,0.8,0,0.0,-1,0.0,,0,0.0,0.0083
3288523,1745297533716,0.0086,0.0,-61,,-0.14,-0.16,1.1,0,-0,-1,1.13,1.13,100,3020,0.0,3.13,,12.07,1.255,89.8,,29.6,5,,,,,,,,,,,,0,0,0,0,0,0,0,0,0,0,0,0,0,0,0,0,,,,,,0.0,,,,,,,,,,,,,,,
3288543,1745297533736,0.009,,,,,,,,,,,,,,,,,,,,,,,,,,,,,,,,,,0,0,0,0,0,0,0,0,0,0,0,0,0,0,0,0,,,,,,,,,,,,,,,,,,,,,
3288563,1745297533756,0.0093,0.0,-68,,-0.13,-0.19,1.12,0,-0,-0,1.15,1.15,100,2834,0.0,3.13,,12.13,1.255,89.8,,29.6,5,,,,,,,,,,,,0,0,0,0,0,0,0,0,0,0,0,0,0,0,0,0,,,,,,0.0,,,,,,,,,,,,,,,
3288583,1745297533776,0.0096,,,,,,,,,,,,,,,,,,,,,,,,,,,,,,,,,,0,0,0,0,0,0,0,0,0,0,0,0,0,0,0,0,,,,,,,,,,,,,,,,,,,,,
3288603,1745297533796,0.01,0.0,-68,,-0.12,-0.16,1.07,0,-0,-0,1.09,1.15,95,2782,0.0,3.17,,12.25,1.254,89.8,,29.6,5,0,0,0,0,0.0,0.0,0.0,0.0,2.26,,,0,0,0,0,0,0,0,0,0,0,0,0,0,0,0,0,,0,,,,0.0,38.986023,-76.95002,0.05,48.1,33,3,0.8,0,0.0,-1,0.0,0.0,0,0.0,0.01
3288623,1745297533816,0.0103,,,,,,,,,,,,,,,,,,,,,,,,,,,,,,,,,,0,0,0,0,0,0,0,0,0,0,0,0,0,0,0,0,,,,,,,,,,,,,,,,,,,,,
3288643,1745297533836,0.0106,0.0,-64,,-0.12,-0.18,1.1,0,-0,-0,1.12,1.15,97,2625,0.0,3.22,,12.37,1.252,89.8,,26.9,5,,,,,,,,,,,,0,0,0,0,0,0,0,0,0,0,0,0,0,0,0,0,,,,,,0.0,,,,,,,,,,,,,,,
3288663,1745297533856,0.011,,,,,,,,,,,,,,,,,,,,,,,,,,,,,,,,,,0,0,0,0,0,0,0,0,0,0,0,0,0,0,0,0,,,,,,,,,,,,,,,,,,,,,
3288683,1745297533876,0.0113,0.0,-61,,-0.11,-0.15,1.06,0,-0,-0,1.07,1.15,94,2613,0.0,3.25,,12.37,1.252,89.8,,26.9,5,,,,,,,,,,,,0,0,0,0,0,0,0,0,0,0,0,0,0,0,0,0,,,,,,0.0,,,,,,,,,,,,,,,
3288703,1745297533896,0.0116,,,,,,,,,,,,,,,,,,,,,,,0,0,0,0,0.0,0.0,0.0,0.0,2.26,,,0,0,0,0,0,0,0,0,0,0,0,0,0,0,0,0,,0,,,,,38.986023,-76.95002,0.08,48.1,33,3,0.8,0,0.0,-1,0.0,,0,0.0,0.0116
3288723,1745297533916,0.012,0.0,-61,,-0.1,-0.11,1.05,0,-0,-0,1.06,1.15,92,2613,0.0,3.25,,12.49,1.252,89.8,,24.7,5,,,,,,,,,,,,0,0,0,0,0,0,0,0,0,0,0,0,0,0,0,0,,,,,,0.0,,,,,,,,,,,,,,,
3288743,1745297533936,0.0123,,,,,,,,,,,,,,,,,,,,,,,,,,,,,,,,,,0,0,0,0,0,0,0,0,0,0,0,0,0,0,0,0,,,,,,,,,,,,,,,,,,,,,
3288763,1745297533956,0.0126,0.0,-68,,-0.11,-0.12,1.05,0,-0,-0,1.06,1.15,92,2446,4.0,3.67,,12.99,1.253,89.8,,24.7,5,,,,,,,,,,,,0,0,0,0,0,0,0,0,0,0,0,0,0,0,0,0,,,,,,0.0,,,,,,,,,,,,,,,
3288783,1745297533976,0.013,,,,,,,,,,,,,,,,,,,,,,,,,,,,,,,,,,0,0,0,0,0,0,0,0,0,0,0,0,0,0,0,0,,,,,,,,,,,,,,,,,,,,,
3288803,1745297533996,0.0133,0.0,-46,,-0.1,-0.11,1.05,0,-0,-0,1.06,1.15,92,2435,6.6,3.92,,13.39,1.253,89.8,,24.7,5,0,0,0,0,0.0,0.0,0.0,0.0,2.27,,,0,0,0,0,0,0,0,0,0,0,0,0,0,0,0,0,,0,,,,0.0,38.986023,-76.95002,0.08,48.1,33,3,0.8,0,0.0,-1,0.0,0.0,0,0.0,0.0133
3288823,1745297534008,0.0136,,,,,,,,,,,,,,,,,,,,,,,,,,,,,,,,,,0,0,0,0,0,0,0,0,0,0,0,0,0,0,0,0,,,,,,,,,,,,,,,,,,,,,
3288843,1745297534028,0.014,0.0,-61,,-0.1,-0.09,1.04,0,-0,0,1.05,1.15,91,2369,7.7,3.9,,13.64,1.253,89.8,,23.3,5,,,,,,,,,,,,0,0,0,0,0,0,0,0,0,0,0,0,0,0,0,0,,,,,,0.0,,,,,,,,,,,,,,,
3288863,1745297534048,0.0143,,,,,,,,,,,,,,,,,,,,,,,,,,,,,,,,,,0,0,0,0,0,0,0,0,0,0,0,0,0,0,0,0,,,,,,,,,,,,,,,,,,,,,
3288883,1745297534068,0.0146,0.0,-64,,-0.09,-0.1,1.05,0,-0,0,1.06,1.15,92,2521,0.0,3.38,,13.64,1.253,89.8,,23.3,5,,,,,,,,,,,,0,0,0,0,0,0,0,0,0,0,0,0,0,0,0,0,,,,,,0.0,,,,,,,,,,,,,,,
3288903,1745297534506,0.015,,,,,,,,,,,,,,,,,,,,,,,0,0,0,0,0.0,0.0,0.0,0.0,2.27,,,0,0,0,0,0,0,0,0,0,0,0,0,0,0,0,0,,0,,,,,38.986023,-76.95002,0.0,48.1,33,3,0.8,0,0.0,-1,0.0,,0,0.0,0.015
3288923,1745297534526,0.0153,0.0,-53,,-0.12,-0.11,1.06,0,-0,-0,1.07,1.15,93,3632,0.0,2.65,,11.89,1.249,89.8,,23.3,5,,,,,,,,,,,,0,0,0,0,0,0,0,0,0,0,0,0,0,0,0,0,,,,,,0.0,,,,,,,,,,,,,,,
3288943,1745297534607,0.0156,,,,,,,,,,,,,,,,,,,,,,,,,,,,,,,,,,0,0,0,0,0,0,0,0,0,0,0,0,0,0,0,0,,,,,,,,,,,,,,,,,,,,,
3288963,1745297534627,0.016,0.0,-57,,-0.11,-0.1,1.1,-0,-0,0,1.11,1.15,97,3482,0.0,2.69,,11.89,1.249,89.8,,37.0,5,,,,,,,,,,,,0,0,0,0,0,0,0,0,0,0,0,0,0,0,0,0,,,,,,0.0,,,,,,,,,,,,,,,
3288983,1745297534647,0.0163,,,,,,,,,,,,,,,,,,,,,,,,,,,,,,,,,,0,0,0,0,0,0,0,0,0,0,0,0,0,0,0,0,,,,,,,,,,,,,,,,,,,,,
3289003,1745297534667,0.0166,0.0,-61,,-0.09,-0.1,0.99,0,-0,-0,1.0,1.15,87,3482,0.0,2.69,,11.83,1.237,89.8,,37.0,5,0,0,0,0,0.0,0.0,0.0,0.0,2.27,,,0,0,0,0,0,0,0,0,0,0,0,0,0,0,0,0,,0,,,,0.0,38.986023,-76.95002,0.05,48.1,33,3,0.8,0,0.0,-1,0.0,0.0,0,0.0,0.0166
3289023,1745297534687,0.017,,,,,,,,,,,,,,,,,,,,,,,,,,,,,,,,,,0,0,0,0,0,0,0,0,0,0,0,0,0,0,0,0,,,,,,,,,,,,,,,,,,,,,
3289043,1745297534707,0.0173,0.0,-53,,-0.08,-0.11,1.06,-0,-0,0,1.07,1.15,93,3339,0.0,2.77,,11.93,1.249,89.8,,33.1,5,,,,,,,,,,,,0,0,0,0,0,0,0,0,0,0,0,0,0,0,0,0,,,,,,0.0,,,,,,,,,,,,,,,
3289063,1745297534727,0.0176,,,,,,,,,,,,,,,,,,,,,,,,,,,,,,,,,,0,0,0,0,0,0,0,0,0,0,0,0,0,0,0,0,,,,,,,,,,,,,,,,,,,,,
3289083,1745297534747,0.018,0.0,-64,,-0.11,-0.18,1.07,-0,-0,0,1.09,1.15,95,3266,0.0,2.81,,11.96,1.255,89.8,,33.1,5,,,,,,,,,,,,0,0,0,0,0,0,0,0,0,0,0,0,0,0,0,0,,,,,,0.0,,,,,,,,,,,,,,,
3289103,1745297534767,0.0183,,,,,,,,,,,,,,,,,,,,,,,0,0,0,0,0.0,0.0,0.0,0.0,2.26,,,0,0,0,0,0,0,0,0,0,0,0,0,0,0,0,0,,0,,,,,38.986023,-76.95002,0.05,48.1,33,3,0.8,0,0.0,-1,0.0,,0,0.0,0.0183
3289123,1745297534787,0.0187,0.0,-57,,-0.13,-0.18,1.02,0,-0,-0,1.04,1.15,91,3103,0.0,2.85,,12.09,1.255,89.8,,33.1,5,,,,,,,,,,,,0,0,0,0,0,0,0,0,0,0,0,0,0,0,0,0,,,,,,0.0,,,,,,,,,,,,,,,
3289143,1745297534807,0.019,,,,,,,,,,,,,,,,,,,,,,,,,,,,,,,,,,0,0,0,0,0,0,0,0,0,0,0,0,0,0,0,0,,,,,,,,,,,,,,,,,,,,,
3289163,1745297534827,0.0193,0.0,-49,,-0.13,-0.15,0.95,1,-0,-1,0.97,1.15,84,2995,0.0,2.9,,12.09,1.255,89.8,,31.1,5,,,,,,,,,,,,0,0,0,0,0,0,0,0,0,0,0,0,0,0,0,0,,,,,,0.0,,,,,,,,,,,,,,,
3289183,1745297534847,0.0196,,,,,,,,,,,,,,,,,,,,,,,,,,,,,,,,,,0,0,0,0,0,0,0,0,0,0,0,0,0,0,0,0,,,,,,,,,,,,,,,,,,,,,
3289203,1745297534867,0.02,0.0,-53,,-0.14,-0.14,0.93,1,-0,-1,0.96,1.15,83,2995,0.0,2.9,,12.21,1.255,89.8,,31.1,5,0,0,0,0,0.0,0.0,0.0,0.0,2.26,,,0,0,0,0,0,0,0,0,0,0,0,0,0,0,0,0,,0,,,,0.0,38.986023,-76.95002,0.0,48.1,33,3,0.8,0,0.0,-1,0.0,0.0,0,0.0,0.02
3289223,1745297534887,0.0203,,,,,,,,,,,,,,,,,,,,,,,,,,,,,,,,,,0,0,0,0,0,0,0,0,0,0,0,0,0,0,0,0,,,,,,,,,,,,,,,,,,,,,
3289243,1745297534909,0.0206,0.0,-49,,-0.15,-0.17,0.98,1,-0,-1,1.01,1.15,88,2936,0.0,2.97,,12.25,1.254,89.8,,28.4,5,,,,,,,,,,,,0,0,0,0,0,0,0,0,0,0,0,0,0,0,0,0,,,,,,0.0,,,,,,,,,,,,,,,
3289263,1745297534929,0.021,,,,,,,,,,,,,,,,,,,,,,,,,,,,,,,,,,0,0,0,0,0,0,0,0,0,0,0,0,0,0,0,0,,,,,,,,,,,,,,,,,,,,,
3289283,1745297534949,0.0213,0.0,-68,,-0.14,-0.16,1.0,1,-0,-1,1.02,1.15,89,2833,0.0,3.01,,12.29,1.254,89.8,,28.4,5,,,,,,,,,,,,0,0,0,0,0,0,0,0,0,0,0,0,0,0,0,0,,,,,,0.0,,,,,,,,,,,,,,,
3289303,1745297534969,0.0216,,,,,,,,,,,,,,,,,,,,,,,0,0,0,0,0.0,0.0,0.0,0.0,2.27,,,0,0,0,0,0,0,0,0,0,0,0,0,0,0,0,0,,0,,,,,38.986023,-76.95002,0.04,48.1,33,3,0.8,0,0.0,-1,0.0,,0,0.0,0.0216
3289323,1745297534989,0.022,0.0,-53,,-0.11,-0.1,0.95,1,-0,-0,0.96,1.15,84,2738,0.0,3.06,,12.37,1.254,89.8,,28.4,5,,,,,,,,,,,,0,0,0,0,0,0,0,0,0,0,0,0,0,0,0,0,,,,,,0.0,,,,,,,,,,,,,,,
3289343,1745297534999,0.0223,,,,,,,,,,,,,,,,,,,,,,,,,,,,,,,,,,0,0,0,0,0,0,0,0,0,0,0,0,0,0,0,0,,,,,,,,,,,,,,,,,,,,,
3289363,1745297535019,0.0226,0.0,-53,,-0.11,-0.09,0.96,1,-0,-0,0.97,1.15,85,2731,0.0,3.03,,12.37,1.254,89.8,,28.4,5,,,,,,,,,,,,0,0,0,0,0,0,0,0,0,0,0,0,0,0,0,0,,,,,,0.0,,,,,,,,,,,,,,,
3289383,1745297535039,0.023,,,,,,,,,,,,,,,,,,,,,,,,,,,,,,,,,,0,0,0,0,0,0,0,0,0,0,0,0,0,0,0,0,,,,,,,,,,,,,,,,,,,,,
3289403,1745297535059,0.0233,0.0,-53,13.42,-0.1,-0.09,0.97,0,-0,-0,0.98,1.15,86,2731,0.0,3.03,15,12.45,1.253,89.8,146,28.4,5,0,0,0,0,0.0,0.0,0.0,0.0,2.27,0,1.0,0,0,0,0,0,0,0,0,0,0,0,0,0,0,0,0,0,0,1.0,0,-0,0.0,38.986023,-76.95002,0.04,48.1,33,3,0.8,0,0.0,-1,0.0,0.0,0,0.0,0.0233
3289423,1745297535079,0.0236,,,,,,,,,,,,,,,,,,,,,,,,,,,,,,,,,,0,0,0,0,0,0,0,0,0,0,0,0,0,0,0,0,,,,,,,,,,,,,,,,,,,,,
3289443,1745297535109,0.024,0.0,-53,,-0.09,-0.07,0.96,0,-0,-0,0.96,1.15,84,2606,2.8,3.39,,12.76,1.252,89.8,,26.2,5,,,,,,,,,,,,0,0,0,0,0,0,0,0,0,0,0,0,0,0,0,0,,,,,,0.0,,,,,,,,,,,,,,,
3289463,1745297535129,0.0243,,,,,,,,,,,,,,,,,,,,,,,,,,,,,,,,,,0,0,0,0,0,0,0,0,0,0,0,0,0,0,0,0,,,,,,,,,,,,,,,,,,,,,
3289483,1745297535149,0.0246,0.0,-61,,-0.09,-0.07,0.97,0,-0,-0,0.98,1.15,85,2555,9.8,3.87,,13.35,1.252,88.0,,26.2,5,,,,,,,,,,,,0,0,0,0,0,0,0,0,0,0,0,0,0,0,0,0,,,,,,0.0,,,,,,,,,,,,,,,
3289503,1745297535169,0.025,,,,,,,,,,,,,,,,,,,,,,,0,0,0,0,0.0,0.0,0.0,0.0,2.26,,,0,0,0,0,0,0,0,0,0,0,0,0,0,0,0,0,,0,,,,,38.986023,-76.95002,0.08,48.1,33,3,0.8,0,0.0,-1,0.0,,0,0.0,0.025
3289523,1745297535189,0.0253,0.0,-53,,-0.08,-0.08,1.0,0,-0,-0,1.01,1.15,88,2456,10.6,3.92,,13.76,1.253,88.0,,26.2,5,,,,,,,,,,,,0,0,0,0,0,0,0,0,0,0,0,0,0,0,0,0,,,,,,0.0,,,,,,,,,,,,,,,
3289543,1745297535206,0.0256,,,,,,,,,,,,,,,,,,,,,,,,,,,,,,,,,,0,0,0,0,0,0,0,0,0,0,0,0,0,0,0,0,,,,,,,,,,,,,,,,,,,,,
3289563,1745297535226,0.026,0.0,-53,,-0.08,-0.05,0.98,0,-0,-0,0.98,1.15,86,2536,10.9,3.87,,13.76,1.253,88.0,,25.1,5,,,,,,,,,,,,0,0,0,0,0,0,0,0,0,0,0,0,0,0,0,0,,,,,,0.0,,,,,,,,,,,,,,,
3289583,1745297535246,0.0263,,,,,,,,,,,,,,,,,,,,,,,,,,,,,,,,,,0,0,0,0,0,0,0,0,0,0,0,0,0,0,0,0,,,,,,,,,,,,,,,,,,,,,
3289603,1745297535266,0.0266,0.0,-53,,-0.08,-0.06,1.0,0,-0,-0,1.01,1.15,88,2536,10.9,3.87,,13.87,1.255,88.0,,25.1,5,0,0,0,0,0.0,0.0,0.0,0.0,2.26,,,0,0,0,0,0,0,0,0,0,0,0,0,0,0,0,0,,0,,,,0.0,38.986023,-76.95002,0.04,48.1,33,3,0.8,0,0.0,-1,0.0,0.0,0,0.0,0.0266
3289623,1745297535286,0.027,,,,,,,,,,,,,,,,,,,,,,,,,,,,,,,,,,0,0,0,0,0,0,0,0,0,0,0,0,0,0,0,0,,,,,,,,,,,,,,,,,,,,,
3289643,1745297535308,0.0273,0.0,-53,,-0.08,-0.04,0.97,0,-0,-0,0.97,1.15,85,2569,0.0,3.81,,13.53,1.256,88.0,,25.9,5,,,,,,,,,,,,0,0,0,0,0,0,0,0,0,0,0,0,0,0,0,0,,,,,,0.0,,,,,,,,,,,,,,,
3289663,1745297535328,0.0276,,,,,,,,,,,,,,,,,,,,,,,,,,,,,,,,,,0,0,0,0,0,0,0,0,0,0,0,0,0,0,0,0,,,,,,,,,,,,,,,,,,,,,
3289683,1745297535348,0.028,0.0,-61,,-0.09,-0.05,1.0,0,-0,-0,1.01,1.15,88,2709,0.0,3.16,,13.17,1.256,88.0,,25.9,5,,,,,,,,,,,,0,0,0,0,0,0,0,0,0,0,0,0,0,0,0,0,,,,,,0.0,,,,,,,,,,,,,,,
3289703,1745297535368,0.0283,,,,,,,,,,,,,,,,,,,,,,,0,0,0,0,0.0,0.0,0.0,0.0,2.26,,,0,0,0,0,0,0,0,0,0,0,0,0,0,0,0,0,,0,,,,,38.986023,-76.95002,0.04,48.1,33,3,0.8,0,0.0,-1,0.0,,0,0.0,0.0283
3289723,1745297535388,0.0286,0.0,-53,,-0.08,-0.03,0.98,0,-0,-0,0.99,1.15,86,2660,0.0,3.14,,12.97,1.254,88.0,,25.9,5,,,,,,,,,,,,0,0,0,0,0,0,0,0,0,0,0,0,0,0,0,0,,,,,,0.0,,,,,,,,,,,,,,,
3289743,1745297535408,0.029,,,,,,,,,,,,,,,,,,,,,,,,,,,,,,,,,,0,0,0,0,0,0,0,0,0,0,0,0,0,0,0,0,,,,,,,,,,,,,,,,,,,,,
3289763,1745297535428,0.0293,0.0,-49,,-0.09,-0.06,1.01,0,-0,-0,1.02,1.15,89,2619,7.7,3.94,,12.97,1.254,88.0,,25.4,5,,,,,,,,,,,,0,0,0,0,0,0,0,0,0,0,0,0,0,0,0,0,,,,,,0.0,,,,,,,,,,,,,,,
3289783,1745297535448,0.0296,,,,,,,,,,,,,,,,,,,,,,,,,,,,,,,,,,0,0,0,0,0,0,0,0,0,0,0,0,0,0,0,0,,,,,,,,,,,,,,,,,,,,,
3289803,1745297535468,0.03,0.0,-61,,-0.08,-0.05,1.0,0,-0,-0,1.01,1.15,88,2619,7.7,3.94,,13.2,1.253,88.0,,25.4,5,0,0,0,0,0.0,0.0,0.0,0.0,2.27,,,0,0,0,0,0,0,0,0,0,0,0,0,0,0,0,0,,0,,,,0.0,38.986023,-76.95002,0.06,48.1,33,3,0.8,0,0.0,-1,0.0,0.0,0,0.0,0.03
3289823,1745297535488,0.0303,,,,,,,,,,,,,,,,,,,,,,,,,,,,,,,,,,0,0,0,0,0,0,0,0,0,0,0,0,0,0,0,0,,,,,,,,,,,,,,,,,,,,,
3289843,1745297535508,0.0306,0.0,-57,,-0.09,-0.04,0.99,0,-0,-0,1.0,1.15,87,2503,14.5,4.09,,13.83,1.254,88.0,,24.3,5,,,,,,,,,,,,0,0,0,0,0,0,0,0,0,0,0,0,0,0,0,0,,,,,,0.0,,,,,,,,,,,,,,,
3289863,1745297535528,0.031,,,,,,,,,,,,,,,,,,,,,,,,,,,,,,,,,,0,0,0,0,0,0,0,0,0,0,0,0,0,0,0,0,,,,,,,,,,,,,,,,,,,,,
3289883,1745297535548,0.0313,0.0,-64,,-0.08,-0.02,0.97,0,-0,0,0.97,1.15,85,2475,22.2,4.78,,14.22,1.254,88.0,,24.3,5,,,,,,,,,,,,0,0,0,0,0,0,0,0,0,0,0,0,0,0,0,0,,,,,,0.0,,,,,,,,,,,,,,,
3289903,1745297535568,0.0316,,,,,,,,,,,,,,,,,,,,,,,0,0,0,0,0.0,0.0,0.0,0.0,2.27,,,0,0,0,0,0,0,0,0,0,0,0,0,0,0,0,0,,0,,,,,38.986023,-76.95002,0.13,48.1,33,3,0.8,0,0.0,-1,0.0,,0,0.0,0.0316
3289923,1745297535588,0.032,0.0,-53,,-0.08,-0.03,0.98,0,-0,0,0.98,1.15,85,2583,23.2,4.73,,14.19,1.254,88.0,,24.3,5,,,,,,,,,,,,0,0,0,0,0,0,0,0,0,0,0,0,0,0,0,0,,,,,,0.0,,,,,,,,,,,,,,,
3289943,1745297535608,0.0323,,,,,,,,,,,,,,,,,,,,,,,,,,,,,,,,,,0,0,0,0,0,0,0,0,0,0,0,0,0,0,0,0,,,,,,,,,,,,,,,,,,,,,
3289963,1745297535628,0.0326,0.0,-61,,-0.1,-0.07,1.04,-0,-0,0,1.04,1.15,91,2871,23.4,4.46,,14.19,1.254,88.0,,27.3,5,,,,,,,,,,,,0,0,0,0,0,0,0,0,0,0,0,0,0,0,0,0,,,,,,0.0,,,,,,,,,,,,,,,
3289983,1745297535648,0.033,,,,,,,,,,,,,,,,,,,,,,,,,,,,,,,,,,0,0,0,0,0,0,0,0,0,0,0,0,0,0,0,0,,,,,,,,,,,,,,,,,,,,,
3290003,1745297535668,0.0333,0.0,-61,,-0.13,-0.13,1.06,0,-0,-0,1.08,1.15,94,2871,23.4,4.46,,14.11,1.253,88.0,,27.3,5,0,0,0,0,0.0,0.0,0.0,0.0,2.27,,,0,0,0,0,0,0,0,0,0,0,0,0,0,0,0,0,,0,,,,0.0,38.986023,-76.95002,0.04,48.1,33,3,0.8,0,0.0,-1,0.0,0.0,0,0.0,0.0333
3290023,1745297535688,0.0336,,,,,,,,,,,,,,,,,,,,,,,,,,,,,,,,,,0,0,0,0,0,0,0,0,0,0,0,0,0,0,0,0,,,,,,,,,,,,,,,,,,,,,
3290043,1745297535708,0.034,0.0,-57,,-0.13,-0.1,0.98,1,-0,-1,0.99,1.15,87,3078,10.7,4.45,,13.83,1.252,88.0,,32.2,5,,,,,,,,,,,,0,0,0,0,0,0,0,0,0,0,0,0,0,0,0,0,,,,,,0.0,,,,,,,,,,,,,,,
3290063,1745297535728,0.0343,,,,,,,,,,,,,,,,,,,,,,,,,,,,,,,,,,0,0,0,0,0,0,0,0,0,0,0,0,0,0,0,0,,,,,,,,,,,,,,,,,,,,,
3290083,1745297535748,0.0347,0.0,-61,,-0.12,-0.07,1.02,0,-0,0,1.03,1.15,90,3360,0.0,2.9,,13.16,1.254,88.0,,32.2,5,,,,,,,,,,,,0,0,0,0,0,0,0,0,0,0,0,0,0,0,0,0,,,,,,0.0,,,,,,,,,,,,,,,
3290103,1745297535768,0.035,,,,,,,,,,,,,,,,,,,,,,,0,0,0,0,0.0,0.0,0.0,0.0,2.27,,,0,0,0,0,0,0,0,0,0,0,0,0,0,0,0,0,,0,,,,,38.986023,-76.95002,0.04,48.1,33,3,0.8,0,0.0,-1,0.0,,0,0.0,0.035
3290123,1745297535788,0.0353,0.0,-42,,-0.12,-0.09,0.95,1,-0,-0,0.96,1.15,84,3376,0.0,2.8,,12.73,1.255,88.0,,32.2,5,,,,,,,,,,,,0,0,0,0,0,0,0,0,0,0,0,0,0,0,0,0,,,,,,0.0,,,,,,,,,,,,,,,
3290143,1745297535808,0.0356,,,,,,,,,,,,,,,,,,,,,,,,,,,,,,,,,,0,0,0,0,0,0,0,0,0,0,0,0,0,0,0,0,,,,,,,,,,,,,,,,,,,,,
3290163,1745297535828,0.036,0.0,-42,,-0.1,-0.04,1.0,-0,-0,0,1.01,1.15,88,3326,0.0,2.82,,12.73,1.255,88.0,,33.9,5,,,,,,,,,,,,0,0,0,0,0,0,0,0,0,0,0,0,0,0,0,0,,,,,,0.0,,,,,,,,,,,,,,,
3290183,1745297535848,0.0363,,,,,,,,,,,,,,,,,,,,,,,,,,,,,,,,,,0,0,0,0,0,0,0,0,0,0,0,0,0,0,0,0,,,,,,,,,,,,,,,,,,,,,
3290203,1745297535868,0.0366,0.0,-68,,-0.12,-0.1,1.02,0,-0,-0,1.03,1.15,90,3326,0.0,2.82,,12.48,1.255,88.0,,33.9,5,0,0,0,0,0.0,0.0,0.0,0.0,2.26,,,0,0,0,0,0,0,0,0,0,0,0,0,0,0,0,0,,0,,,,0.0,38.986023,-76.95002,0.04,48.1,33,3,0.8,0,0.0,-1,0.0,0.0,0,0.0,0.0366
3290223,1745297535888,0.037,,,,,,,,,,,,,,,,,,,,,,,,,,,,,,,,,,0,0,0,0,0,0,0,0,0,0,0,0,0,0,0,0,,,,,,,,,,,,,,,,,,,,,
3290243,1745297535906,0.0373,0.0,-64,,-0.11,-0.09,0.99,0,-0,-0,1.0,1.15,87,3246,0.0,2.85,,12.4,1.255,88.0,,31.9,5,,,,,,,,,,,,0,0,0,0,0,0,0,0,0,0,0,0,0,0,0,0,,,,,,0.0,,,,,,,,,,,,,,,
3290263,1745297535926,0.0376,,,,,,,,,,,,,,,,,,,,,,,,,,,,,,,,,,0,0,0,0,0,0,0,0,0,0,0,0,0,0,0,0,,,,,,,,,,,,,,,,,,,,,
3290283,1745297535946,0.038,0.0,-61,,-0.09,-0.05,0.9,1,-0,-0,0.9,1.15,79,3071,3.5,3.43,,12.64,1.253,88.0,,31.9,5,,,,,,,,,,,,0,0,0,0,0,0,0,0,0,0,0,0,0,0,0,0,,,,,,0.0,,,,,,,,,,,,,,,
3290303,1745297535966,0.0383,,,,,,,,,,,,,,,,,,,,,,,0,0,0,0,0.0,0.0,0.0,0.0,2.27,,,0,0,0,0,0,0,0,0,0,0,0,0,0,0,0,0,,0,,,,,38.986023,-76.95002,0.05,48.1,33,3,0.8,0,0.0,-1,0.0,,0,0.0,0.0383
3290323,1745297535986,0.0386,0.0,-61,,-0.07,0.02,0.85,2,-0,-0,0.85,1.15,74,3037,6.0,3.75,,12.95,1.254,88.0,,31.9,5,,,,,,,,,,,,0,0,0,0,0,0,0,0,0,0,0,0,0,0,0,0,,,,,,0.0,,,,,,,,,,,,,,,
3290343,1745297536000,0.039,,,,,,,,,,,,,,,,,,,,,,,,,,,,,,,,,,0,0,0,0,0,0,0,0,0,0,0,0,0,0,0,0,,,,,,,,,,,,,,,,,,,,,
3290363,1745297536020,0.0393,0.0,-57,,-0.06,0.09,0.82,3,-0,0,0.82,1.15,72,3053,6.3,3.81,,12.95,1.254,88.0,,29.7,5,,,,,,,,,,,,0,0,0,0,0,0,0,0,0,0,0,0,0,0,0,0,,,,,,0.0,,,,,,,,,,,,,,,
3290383,1745297536040,0.0396,,,,,,,,,,,,,,,,,,,,,,,,,,,,,,,,,,0,0,0,0,0,0,0,0,0,0,0,0,0,0,0,0,,,,,,,,,,,,,,,,,,,,,
3290403,1745297536060,0.04,0.0,-61,13.48,-0.04,0.19,0.81,5,-1,0,0.83,1.15,73,3053,6.3,3.81,15,13.08,1.254,88.0,151,29.7,5,0,0,0,0,0.0,0.0,0.0,0.0,2.27,0,1.0,0,0,0,0,0,0,0,0,0,0,0,0,0,0,0,0,0,0,1.0,0,-0,0.0,38.986023,-76.95002,0.05,48.1,33,3,0.8,0,0.0,-1,0.0,0.0,0,0.0,0.04
3290423,1745297536080,0.0403,,,,,,,,,,,,,,,,,,,,,,,,,,,,,,,,,,0,0,0,0,0,0,0,0,0,0,0,0,0,0,0,0,,,,,,,,,,,,,,,,,,,,,
3290443,1745297536106,0.0406,0.0,-57,,-0.03,0.06,0.91,4,-0,0,0.92,1.15,80,3177,6.5,3.83,,13.16,1.254,88.0,,33.8,5,,,,,,,,,,,,0,0,0,0,0,0,0,0,0,0,0,0,0,0,0,0,,,,,,0.0,,,,,,,,,,,,,,,
3290463,1745297536126,0.041,,,,,,,,,,,,,,,,,,,,,,,,,,,,,,,,,,0,0,0,0,0,0,0,0,0,0,0,0,0,0,0,0,,,,,,,,,,,,,,,,,,,,,
3290483,1745297536146,0.0413,0.0,-61,,-0.04,0.14,0.84,4,-0,0,0.85,1.15,74,3345,6.4,3.82,,13.11,1.255,88.0,,33.8,5,,,,,,,,,,,,0,0,0,0,0,0,0,0,0,0,0,0,0,0,0,0,,,,,,0.0,,,,,,,,,,,,,,,
3290503,1745297536166,0.0416,,,,,,,,,,,,,,,,,,,,,,,0,0,0,0,0.0,0.0,0.0,0.0,2.26,,,0,0,0,0,0,0,0,0,0,0,0,0,0,0,0,0,,0,,,,,38.986023,-76.95002,0.08,48.1,33,3,0.8,0,0.0,-1,0.0,,0,0.0,0.0416
3290523,1745297536186,0.042,0.0,-53,,-0.05,-0.04,0.9,4,-0,-0,0.9,1.15,79,3404,6.4,3.81,,13.05,1.254,88.0,,33.8,5,,,,,,,,,,,,0,0,0,0,0,0,0,0,0,0,0,0,0,0,0,0,,,,,,0.0,,,,,,,,,,,,,,,
3290543,1745297536205,0.0423,,,,,,,,,,,,,,,,,,,,,,,,,,,,,,,,,,0,0,0,0,0,0,0,0,0,0,0,0,0,0,0,0,,,,,,,,,,,,,,,,,,,,,
3290563,1745297536225,0.0426,0.0,-49,,-0.04,0.06,0.86,4,-0,0,0.87,1.15,76,3362,6.4,3.8,,13.05,1.254,88.0,,34.6,5,,,,,,,,,,,,0,0,0,0,0,0,0,0,0,0,0,0,0,0,0,0,,,,,,0.0,,,,,,,,,,,,,,,
3290583,1745297536245,0.043,,,,,,,,,,,,,,,,,,,,,,,,,,,,,,,,,,0,0,0,0,0,0,0,0,0,0,0,0,0,0,0,0,,,,,,,,,,,,,,,,,,,,,
3290603,1745297536265,0.0433,0.0,-68,,-0.03,-0.09,0.92,2,-0,-0,0.93,1.15,81,3362,6.4,3.8,,13.08,1.255,88.0,,34.6,5,0,0,0,0,0.0,0.0,0.0,0.0,2.26,,,0,0,0,0,0,0,0,0,0,0,0,0,0,0,0,0,,0,,,,0.0,38.986023,-76.95002,0.05,48.1,33,3,0.8,0,0.0,-1,0.0,0.0,0,0.0,0.0433
3290623,1745297536285,0.0436,,,,,,,,,,,,,,,,,,,,,,,,,,,,,,,,,,0,0,0,0,0,0,0,0,0,0,0,0,0,0,0,0,,,,,,,,,,,,,,,,,,,,,
3290643,1745297536307,0.044,0.0,-57,,-0.06,0.07,0.92,4,-0,0,0.92,1.15,80,3403,6.5,3.8,,13.03,1.247,88.0,,34.3,5,,,,,,,,,,,,0,0,0,0,0,0,0,0,0,0,0,0,0,0,0,0,,,,,,0.0,,,,,,,,,,,,,,,
3290663,1745297536327,0.0443,,,,,,,,,,,,,,,,,,,,,,,,,,,,,,,,,,0,0,0,0,0,0,0,0,0,0,0,0,0,0,0,0,,,,,,,,,,,,,,,,,,,,,
3290683,1745297536347,0.0446,0.0,-76,,-0.05,-0.07,0.95,2,-0,-0,0.95,1.15,83,3359,6.4,3.8,,13.03,1.226,88.0,,34.3,5,,,,,,,,,,,,0,0,0,0,0,0,0,0,0,0,0,0,0,0,0,0,,,,,,0.0,,,,,,,,,,,,,,,
3290703,1745297536367,0.045,,,,,,,,,,,,,,,,,,,,,,,0,0,0,0,0.0,0.0,0.0,0.0,2.27,,,0,0,0,0,0,0,0,0,0,0,0,0,0,0,0,0,,0,,,,,38.986023,-76.95002,0.07,48.1,33,3,0.8,0,0.0,-1,0.0,,0,0.0,0.045
3290723,1745297536387,0.0453,0.0,-53,,-0.06,0.07,0.91,4,-0,0,0.91,1.15,79,3354,6.5,3.8,,13.04,1.22,88.0,,34.3,5,,,,,,,,,,,,0,0,0,0,0,0,0,0,0,0,0,0,0,0,0,0,,,,,,0.0,,,,,,,,,,,,,,,
3290743,1745297536407,0.0457,,,,,,,,,,,,,,,,,,,,,,,,,,,,,,,,,,0,0,0,0,0,0,0,0,0,0,0,0,0,0,0,0,,,,,,,,,,,,,,,,,,,,,
3290763,1745297536427,0.046,0.0,-49,,-0.05,-0.1,0.97,1,-0,-0,0.97,1.15,85,3378,6.6,3.8,,13.04,1.22,88.0,,33.2,5,,,,,,,,,,,,0,0,0,0,0,0,0,0,0,0,0,0,0,0,0,0,,,,,,0.0,,,,,,,,,,,,,,,
3290783,1745297536447,0.0463,,,,,,,,,,,,,,,,,,,,,,,,,,,,,,,,,,0,0,0,0,0,0,0,0,0,0,0,0,0,0,0,0,,,,,,,,,,,,,,,,,,,,,
3290803,1745297536467,0.0466,0.0,-61,,-0.07,0.03,0.89,3,-0,0,0.89,1.15,78,3378,6.6,3.8,,13.03,1.229,88.0,,33.2,5,0,0,0,0,0.0,0.0,0.0,0.0,2.27,,,0,0,0,0,0,0,0,0,0,0,0,0,0,0,0,0,,0,,,,0.0,38.986023,-76.95002,0.07,48.1,33,3,0.8,0,0.0,-1,0.0,0.0,0,0.0,0.0466
3290823,1745297536487,0.047,,,,,,,,,,,,,,,,,,,,,,,,,,,,,,,,,,0,0,0,0,0,0,0,0,0,0,0,0,0,0,0,0,,,,,,,,,,,,,,,,,,,,,
3290843,1745297536507,0.0473,0.0,-61,,-0.06,-0.04,0.98,1,-0,0,0.99,1.15,86,3316,6.6,3.8,,13.07,1.241,88.0,,33.4,5,,,,,,,,,,,,0,0,0,0,0,0,0,0,0,0,0,0,0,0,0,0,,,,,,0.0,,,,,,,,,,,,,,,
3290863,1745297536527,0.0476,,,,,,,,,,,,,,,,,,,,,,,,,,,,,,,,,,0,0,0,0,0,0,0,0,0,0,0,0,0,0,0,0,,,,,,,,,,,,,,,,,,,,,
3290883,1745297536547,0.048,0.0,-72,,-0.08,0.0,0.88,1,-0,-0,0.89,1.15,77,3369,0.0,2.84,,12.71,1.234,88.0,,33.4,5,,,,,,,,,,,,0,0,0,0,0,0,0,0,0,0,0,0,0,0,0,0,,,,,,0.0,,,,,,,,,,,,,,,
3290903,1745297536567,0.0483,,,,,,,,,,,,,,,,,,,,,,,0,0,0,0,0.0,0.0,0.0,0.0,2.27,,,0,0,0,0,0,0,0,0,0,0,0,0,0,0,0,0,,0,,,,,38.986023,-76.95002,0.15,48.1,33,3,0.8,0,0.0,-1,0.0,,0,0.0,0.0483
3290923,1745297536587,0.0486,0.0,-53,,-0.06,-0.04,0.97,2,-0,0,0.97,1.15,84,3276,0.0,2.81,,12.45,1.233,88.0,,33.4,5,,,,,,,,,,,,0,0,0,0,0,0,0,0,0,0,0,0,0,0,0,0,,,,,,0.0,,,,,,,,,,,,,,,
3290943,1745297536607,0.049,,,,,,,,,,,,,,,,,,,,,,,,,,,,,,,,,,0,0,0,0,0,0,0,0,0,0,0,0,0,0,0,0,,,,,,,,,,,,,,,,,,,,,
3290963,1745297536627,0.0493,0.0,-57,,-0.06,-0.12,0.99,-1,-0,-0,1.0,1.15,87,3208,0.0,2.84,,12.45,1.233,88.0,,32.9,5,,,,,,,,,,,,0,0,0,0,0,0,0,0,0,0,0,0,0,0,0,0,,,,,,0.0,,,,,,,,,,,,,,,
3290983,1745297536647,0.0496,,,,,,,,,,,,,,,,,,,,,,,,,,,,,,,,,,0,0,0,0,0,0,0,0,0,0,0,0,0,0,0,0,,,,,,,,,,,,,,,,,,,,,
3291003,1745297536667,0.05,0.0,-68,,-0.09,-0.12,0.95,-2,-0,-0,0.96,1.15,84,3208,0.0,2.84,,12.36,1.225,88.0,,32.9,5,0,0,0,0,0.0,0.0,0.0,0.0,2.27,,,0,0,0,0,0,0,0,0,0,0,0,0,0,0,0,0,,0,,,,0.0,38.986023,-76.95002,0.04,48.1,33,3,0.8,0,0.0,-1,0.0,0.0,0,0.0,0.05
3291023,1745297536687,0.0503,,,,,,,,,,,,,,,,,,,,,,,,,,,,,,,,,,0,0,0,0,0,0,0,0,0,0,0,0,0,0,0,0,,,,,,,,,,,,,,,,,,,,,
3291043,1745297536707,0.0506,0.0,-68,,-0.11,-0.06,0.88,-2,-0,-1,0.89,1.15,78,3094,0.0,2.92,,12.29,1.233,88.0,,30.4,5,,,,,,,,,,,,0,0,0,0,0,0,0,0,0,0,0,0,0,0,0,0,,,,,,0.0,,,,,,,,,,,,,,,
3291063,1745297536727,0.051,,,,,,,,,,,,,,,,,,,,,,,,,,,,,,,,,,0,0,0,0,0,0,0,0,0,0,0,0,0,0,0,0,,,,,,,,,,,,,,,,,,,,,
3291083,1745297536747,0.0513,0.0,-68,,-0.13,-0.06,0.86,-2,-0,-1,0.88,1.15,76,3027,0.0,2.93,,12.35,1.248,88.0,,30.4,5,,,,,,,,,,,,0,0,0,0,0,0,0,0,0,0,0,0,0,0,0,0,,,,,,0.0,,,,,,,,,,,,,,,
3291103,1745297536767,0.0516,,,,,,,,,,,,,,,,,,,,,,,0,0,0,0,0.0,0.0,0.0,0.0,2.27,,,0,0,0,0,0,0,0,0,0,0,0,0,0,0,0,0,,0,,,,,38.986023,-76.95002,0.04,48.2,33,3,0.8,0,0.0,-1,0.0,,0,0.0,0.0516
3291123,1745297536787,0.052,0.0,-61,,-0.14,-0.07,0.9,-3,-0,-1,0.91,1.15,79,2877,0.9,3.07,,12.53,1.254,88.0,,30.4,5,,,,,,,,,,,,0,0,0,0,0,0,0,0,0,0,0,0,0,0,0,0,,,,,,0.0,,,,,,,,,,,,,,,
3291143,1745297536807,0.0523,,,,,,,,,,,,,,,,,,,,,,,,,,,,,,,,,,0,0,0,0,0,0,0,0,0,0,0,0,0,0,0,0,,,,,,,,,,,,,,,,,,,,,
3291163,1745297536827,0.0526,0.0,-64,,-0.11,-0.11,0.96,-3,-0,-1,0.97,1.15,84,2774,2.2,3.36,,12.53,1.254,88.0,,28.5,5,,,,,,,,,,,,0,0,0,0,0,0,0,0,0,0,0,0,0,0,0,0,,,,,,0.0,,,,,,,,,,,,,,,
3291183,1745297536847,0.053,,,,,,,,,,,,,,,,,,,,,,,,,,,,,,,,,,0,0,0,0,0,0,0,0,0,0,0,0,0,0,0,0,,,,,,,,,,,,,,,,,,,,,
3291203,1745297536867,0.0533,0.0,-64,,-0.11,-0.09,0.93,-2,-0,-0,0.94,1.15,82,2774,2.2,3.36,,12.79,1.253,88.0,,28.5,5,0,0,0,0,0.0,0.0,0.0,0.0,2.27,,,0,0,0,0,0,0,0,0,0,0,0,0,0,0,0,0,,0,,,,0.0,38.986023,-76.95002,0.18,48.2,33,3,0.8,0,0.0,-1,0.0,0.0,0,0.0,0.0533
3291223,1745297536887,0.0536,,,,,,,,,,,,,,,,,,,,,,,,,,,,,,,,,,0,0,0,0,0,0,0,0,0,0,0,0,0,0,0,0,,,,,,,,,,,,,,,,,,,,,
3291243,1745297536908,0.054,0.0,-57,,-0.1,-0.07,0.94,-2,-0,-0,0.95,1.15,83,2749,4.6,3.56,,13.03,1.256,88.0,,27.7,5,,,,,,,,,,,,0,0,0,0,0,0,0,0,0,0,0,0,0,0,0,0,,,,,,0.0,,,,,,,,,,,,,,,
3291263,1745297536928,0.0543,,,,,,,,,,,,,,,,,,,,,,,,,,,,,,,,,,0,0,0,0,0,0,0,0,0,0,0,0,0,0,0,0,,,,,,,,,,,,,,,,,,,,,
3291283,1745297536948,0.0546,0.0,-72,,-0.1,-0.02,0.88,-2,-0,-0,0.89,1.15,77,3016,7.5,3.82,,13.25,1.256,88.0,,27.7,5,,,,,,,,,,,,0,0,0,0,0,0,0,0,0,0,0,0,0,0,0,0,,,,,,0.0,,,,,,,,,,,,,,,
3291303,1745297536968,0.055,,,,,,,,,,,,,,,,,,,,,,,0,0,0,0,0.0,0.0,0.0,0.0,2.27,,,0,0,0,0,0,0,0,0,0,0,0,0,0,0,0,0,,0,,,,,38.986023,-76.95002,0.12,48.2,33,3,0.8,0,0.0,-1,0.0,,0,0.0,0.055
3291323,1745297536988,0.0553,0.0,-61,,-0.09,0.02,0.81,-0,-0,-1,0.82,1.15,71,3103,11.2,3.95,,13.45,1.254,88.0,,27.7,5,,,,,,,,,,,,0,0,0,0,0,0,0,0,0,0,0,0,0,0,0,0,,,,,,0.0,,,,,,,,,,,,,,,
3291343,1745297537001,0.0556,,,,,,,,,,,,,,,,,,,,,,,,,,,,,,,,,,0,0,0,0,0,0,0,0,0,0,0,0,0,0,0,0,,,,,,,,,,,,,,,,,,,,,
3291363,1745297537021,0.056,0.0,-53,,-0.06,0.12,0.85,2,-0,-0,0.86,1.15,75,3125,12.0,4.0,,13.45,1.254,88.0,,31.2,5,,,,,,,,,,,,0,0,0,0,0,0,0,0,0,0,0,0,0,0,0,0,,,,,,0.0,,,,,,,,,,,,,,,
3291383,1745297537041,0.0563,,,,,,,,,,,,,,,,,,,,,,,,,,,,,,,,,,0,0,0,0,0,0,0,0,0,0,0,0,0,0,0,0,,,,,,,,,,,,,,,,,,,,,
3291403,1745297537061,0.0566,0.0,-61,13.49,-0.04,-0.0,0.95,1,-0,-0,0.95,1.15,83,3125,12.0,4.0,15,13.56,1.255,88.0,153,31.2,5,0,0,0,0,0.0,0.0,0.0,0.0,2.27,0,1.0,0,0,0,0,0,0,0,0,0,0,0,0,0,0,0,0,0,0,1.0,0,-0,0.0,38.986023,-76.95002,0.11,48.2,33,3,0.8,0,0.0,-1,0.0,0.0,0,0.0,0.0566
3291423,1745297537081,0.057,,,,,,,,,,,,,,,,,,,,,,,,,,,,,,,,,,0,0,0,0,0,0,0,0,0,0,0,0,0,0,0,0,,,,,,,,,,,,,,,,,,,,,
3291443,1745297537103,0.0573,0.0,-57,,-0.07,0.04,0.88,-0,-0,-0,0.89,1.15,77,3296,12.0,4.01,,13.49,1.254,88.0,,32.7,5,,,,,,,,,,,,0,0,0,0,0,0,0,0,0,0,0,0,0,0,0,0,,,,,,0.0,,,,,,,,,,,,,,,
3291463,1745297537123,0.0576,,,,,,,,,,,,,,,,,,,,,,,,,,,,,,,,,,0,0,0,0,0,0,0,0,0,0,0,0,0,0,0,0,,,,,,,,,,,,,,,,,,,,,
3291483,1745297537143,0.058,0.0,-72,,-0.05,0.03,0.96,2,-0,0,0.96,1.15,84,3328,0.0,2.84,,13.04,1.252,88.0,,32.7,5,,,,,,,,,,,,0,0,0,0,0,0,0,0,0,0,0,0,0,0,0,0,,,,,,0.0,,,,,,,,,,,,,,,
3291503,1745297537163,0.0583,,,,,,,,,,,,,,,,,,,,,,,0,0,0,0,0.0,0.0,0.0,0.0,2.27,,,0,0,0,0,0,0,0,0,0,0,0,0,0,0,0,0,,0,,,,,38.986023,-76.95002,0.06,48.2,33,3,0.8,0,0.0,-1,0.0,,0,0.0,0.0583
3291523,1745297537183,0.0586,0.0,-61,,-0.07,0.02,0.91,-1,-0,-0,0.91,1.15,80,3318,0.0,2.82,,12.69,1.242,88.0,,32.7,5,,,,,,,,,,,,0,0,0,0,0,0,0,0,0,0,0,0,0,0,0,0,,,,,,0.0,,,,,,,,,,,,,,,
3291543,1745297537206,0.059,,,,,,,,,,,,,,,,,,,,,,,,,,,,,,,,,,0,0,0,0,0,0,0,0,0,0,0,0,0,0,0,0,,,,,,,,,,,,,,,,,,,,,
3291563,1745297537226,0.0593,0.0,-53,,-0.07,0.1,0.88,2,-0,-0,0.89,1.15,78,3249,0.0,2.85,,12.69,1.242,88.0,,32.7,5,,,,,,,,,,,,0,0,0,0,0,0,0,0,0,0,0,0,0,0,0,0,,,,,,0.0,,,,,,,,,,,,,,,
3291583,1745297537246,0.0596,,,,,,,,,,,,,,,,,,,,,,,,,,,,,,,,,,0,0,0,0,0,0,0,0,0,0,0,0,0,0,0,0,,,,,,,,,,,,,,,,,,,,,
3291603,1745297537266,0.06,0.0,-61,,-0.04,0.09,0.96,3,-0,0,0.97,1.15,84,3249,0.0,2.85,,12.43,1.243,88.0,,32.7,5,0,0,0,0,0.0,0.0,0.0,0.0,2.27,,,0,0,0,0,0,0,0,0,0,0,0,0,0,0,0,0,,0,,,,0.0,38.986023,-76.95002,0.11,48.2,33,3,0.8,0,0.0,-1,0.0,0.0,0,0.0,0.06
3291623,1745297537286,0.0603,,,,,,,,,,,,,,,,,,,,,,,,,,,,,,,,,,0,0,0,0,0,0,0,0,0,0,0,0,0,0,0,0,,,,,,,,,,,,,,,,,,,,,
3291643,1745297537306,0.0606,0.0,-61,,-0.02,0.0,1.03,2,-0,0,1.03,1.15,90,3081,0.0,2.88,,12.33,1.255,88.0,,30.4,5,,,,,,,,,,,,0,0,0,0,0,0,0,0,0,0,0,0,0,0,0,0,,,,,,0.0,,,,,,,,,,,,,,,
3291663,1745297537326,0.061,,,,,,,,,,,,,,,,,,,,,,,,,,,,,,,,,,0,0,0,0,0,0,0,0,0,0,0,0,0,0,0,0,,,,,,,,,,,,,,,,,,,,,
3291683,1745297537346,0.0613,0.0,-68,,-0.01,-0.09,1.07,2,-0,0,1.07,1.15,94,2976,0.0,2.92,,12.4,1.255,88.0,,30.4,5,,,,,,,,,,,,0,0,0,0,0,0,0,0,0,0,0,0,0,0,0,0,,,,,,0.0,,,,,,,,,,,,,,,
3291703,1745297537366,0.0616,,,,,,,,,,,,,,,,,,,,,,,0,0,0,0,0.0,0.0,0.0,0.0,2.27,,,0,0,0,0,0,0,0,0,0,0,0,0,0,0,0,0,,0,,,,,38.986023,-76.95002,0.0,48.2,33,3,0.8,0,0.0,-1,0.0,,0,0.0,0.0616
3291723,1745297537386,0.062,0.0,-31,,-0.01,-0.08,1.07,3,-0,1,1.08,1.15,94,2907,0.0,2.97,,12.41,1.256,88.0,,30.4,5,,,,,,,,,,,,0,0,0,0,0,0,0,0,0,0,0,0,0,0,0,0,,,,,,0.0,,,,,,,,,,,,,,,
3291743,1745297537408,0.0623,,,,,,,,,,,,,,,,,,,,,,,,,,,,,,,,,,0,0,0,0,0,0,0,0,0,0,0,0,0,0,0,0,,,,,,,,,,,,,,,,,,,,,
3291763,1745297537428,0.0626,0.0,-53,,-0.02,-0.03,1.02,4,-0,1,1.02,1.15,89,2852,0.0,3.02,,12.41,1.256,88.0,,27.8,5,,,,,,,,,,,,0,0,0,0,0,0,0,0,0,0,0,0,0,0,0,0,,,,,,0.0,,,,,,,,,,,,,,,
3291783,1745297537448,0.063,,,,,,,,,,,,,,,,,,,,,,,,,,,,,,,,,,0,0,0,0,0,0,0,0,0,0,0,0,0,0,0,0,,,,,,,,,,,,,,,,,,,,,
3291803,1745297537468,0.0633,0.0,-68,,-0.04,-0.01,1.01,2,-0,0,1.02,1.15,89,2852,0.0,3.02,,12.41,1.256,88.0,,27.8,5,0,0,0,0,0.0,0.0,0.0,0.0,2.27,,,0,0,0,0,0,0,0,0,0,0,0,0,0,0,0,0,,0,,,,0.0,38.986023,-76.95002,0.08,48.2,33,3,0.8,0,0.0,-1,0.0,0.0,0,0.0,0.0633
3291823,1745297537488,0.0636,,,,,,,,,,,,,,,,,,,,,,,,,,,,,,,,,,0,0,0,0,0,0,0,0,0,0,0,0,0,0,0,0,,,,,,,,,,,,,,,,,,,,,
3291843,1745297537506,0.064,0.0,-61,,-0.03,-0.03,1.03,3,-0,0,1.03,1.15,90,2743,0.0,3.04,,12.51,1.255,88.0,,26.7,5,,,,,,,,,,,,0,0,0,0,0,0,0,0,0,0,0,0,0,0,0,0,,,,,,0.0,,,,,,,,,,,,,,,
3291863,1745297537526,0.0643,,,,,,,,,,,,,,,,,,,,,,,,,,,,,,,,,,0,0,0,0,0,0,0,0,0,0,0,0,0,0,0,0,,,,,,,,,,,,,,,,,,,,,
3291883,1745297537546,0.0646,0.0,-61,,-0.04,-0.02,1.0,2,-0,0,1.0,1.15,87,2738,0.2,3.1,,12.61,1.255,88.0,,26.7,5,,,,,,,,,,,,0,0,0,0,0,0,0,0,0,0,0,0,0,0,0,0,,,,,,0.0,,,,,,,,,,,,,,,
3291903,1745297537566,0.065,,,,,,,,,,,,,,,,,,,,,,,0,0,0,0,0.0,0.0,0.0,0.0,2.26,,,0,0,0,0,0,0,0,0,0,0,0,0,0,0,0,0,,0,,,,,38.986023,-76.95002,0.07,48.2,33,3,0.8,0,0.0,-1,0.0,,0,0.0,0.065
3291923,1745297537586,0.0653,0.0,-72,,-0.04,-0.02,1.0,2,-0,0,1.01,1.15,88,2537,3.2,3.61,,12.96,1.254,88.0,,26.7,5,,,,,,,,,,,,0,0,0,0,0,0,0,0,0,0,0,0,0,0,0,0,,,,,,0.0,,,,,,,,,,,,,,,
3291943,1745297537606,0.0656,,,,,,,,,,,,,,,,,,,,,,,,,,,,,,,,,,0,0,0,0,0,0,0,0,0,0,0,0,0,0,0,0,,,,,,,,,,,,,,,,,,,,,
3291963,1745297537626,0.066,0.0,-53,,-0.05,-0.04,1.01,2,-0,0,1.01,1.15,88,2484,5.9,3.76,,12.96,1.254,88.0,,25.4,5,,,,,,,,,,,,0,0,0,0,0,0,0,0,0,0,0,0,0,0,0,0,,,,,,0.0,,,,,,,,,,,,,,,
3291983,1745297537646,0.0663,,,,,,,,,,,,,,,,,,,,,,,,,,,,,,,,,,0,0,0,0,0,0,0,0,0,0,0,0,0,0,0,0,,,,,,,,,,,,,,,,,,,,,
3292003,1745297537666,0.0667,0.0,-61,,-0.05,-0.04,1.01,2,-0,0,1.01,1.15,88,2484,5.9,3.76,,13.39,1.255,88.0,,25.4,5,0,0,0,0,0.0,0.0,0.0,0.0,2.27,,,0,0,0,0,0,0,0,0,0,0,0,0,0,0,0,0,,0,,,,0.0,38.986023,-76.95002,0.19,48.2,33,3,0.8,0,0.0,-1,0.0,0.0,0,0.0,0.0667
3292023,1745297537686,0.067,,,,,,,,,,,,,,,,,,,,,,,,,,,,,,,,,,0,0,0,0,0,0,0,0,0,0,0,0,0,0,0,0,,,,,,,,,,,,,,,,,,,,,
3292043,1745297537708,0.0673,0.0,-68,,-0.05,-0.05,1.02,1,-0,0,1.02,1.15,89,2527,6.6,3.78,,13.61,1.255,88.0,,25.8,5,,,,,,,,,,,,0,0,0,0,0,0,0,0,0,0,0,0,0,0,0,0,,,,,,0.0,,,,,,,,,,,,,,,
3292063,1745297537728,0.0676,,,,,,,,,,,,,,,,,,,,,,,,,,,,,,,,,,0,0,0,0,0,0,0,0,0,0,0,0,0,0,0,0,,,,,,,,,,,,,,,,,,,,,
3292083,1745297537748,0.068,0.0,-68,,-0.05,-0.04,0.99,2,-0,0,0.99,1.15,86,2587,6.6,3.8,,13.67,1.254,88.0,,25.8,5,,,,,,,,,,,,0,0,0,0,0,0,0,0,0,0,0,0,0,0,0,0,,,,,,0.0,,,,,,,,,,,,,,,
3292103,1745297537768,0.0683,,,,,,,,,,,,,,,,,,,,,,,0,0,0,0,0.0,0.0,0.0,0.0,2.27,,,0,0,0,0,0,0,0,0,0,0,0,0,0,0,0,0,,0,,,,,38.986023,-76.95002,0.11,48.2,33,3,0.8,0,0.0,-1,0.0,,0,0.0,0.0683
3292123,1745297537788,0.0686,0.0,-57,,-0.06,-0.1,1.03,0,-0,0,1.03,1.15,90,2618,6.6,3.81,,13.71,1.254,88.0,,25.8,5,,,,,,,,,,,,0,0,0,0,0,0,0,0,0,0,0,0,0,0,0,0,,,,,,0.0,,,,,,,,,,,,,,,
3292143,1745297537808,0.069,,,,,,,,,,,,,,,,,,,,,,,,,,,,,,,,,,0,0,0,0,0,0,0,0,0,0,0,0,0,0,0,0,,,,,,,,,,,,,,,,,,,,,
3292163,1745297537828,0.0693,0.0,-57,,-0.06,-0.05,0.98,1,-0,0,0.99,1.15,86,2632,3.2,3.8,,13.71,1.254,88.0,,25.9,5,,,,,,,,,,,,0,0,0,0,0,0,0,0,0,0,0,0,0,0,0,0,,,,,,0.0,,,,,,,,,,,,,,,
3292183,1745297537848,0.0696,,,,,,,,,,,,,,,,,,,,,,,,,,,,,,,,,,0,0,0,0,0,0,0,0,0,0,0,0,0,0,0,0,,,,,,,,,,,,,,,,,,,,,
3292203,1745297537868,0.07,0.0,-68,,-0.07,-0.05,1.02,-0,-0,0,1.02,1.15,89,2632,3.2,3.8,,13.52,1.255,88.0,,25.9,5,0,0,0,0,0.0,0.0,0.0,0.0,2.26,,,0,0,0,0,0,0,0,0,0,0,0,0,0,0,0,0,,0,,,,0.0,38.986023,-76.95002,0.05,48.2,33,3,0.8,0,0.0,-1,0.0,0.0,0,0.0,0.07
3292223,1745297537888,0.0703,,,,,,,,,,,,,,,,,,,,,,,,,,,,,,,,,,0,0,0,0,0,0,0,0,0,0,0,0,0,0,0,0,,,,,,,,,,,,,,,,,,,,,
3292243,1745297537907,0.0706,0.0,-57,,-0.06,-0.03,1.01,0,-0,0,1.01,1.15,88,2731,1.1,3.33,,13.25,1.254,88.0,,26.1,5,,,,,,,,,,,,0,0,0,0,0,0,0,0,0,0,0,0,0,0,0,0,,,,,,0.0,,,,,,,,,,,,,,,
3292263,1745297537927,0.071,,,,,,,,,,,,,,,,,,,,,,,,,,,,,,,,,,0,0,0,0,0,0,0,0,0,0,0,0,0,0,0,0,,,,,,,,,,,,,,,,,,,,,
3292283,1745297537947,0.0713,0.0,-64,,-0.07,-0.05,0.99,0,-0,0,1.0,1.15,87,2694,0.9,3.26,,13.11,1.255,88.0,,26.1,5,,,,,,,,,,,,0,0,0,0,0,0,0,0,0,0,0,0,0,0,0,0,,,,,,0.0,,,,,,,,,,,,,,,
3292303,1745297537967,0.0716,,,,,,,,,,,,,,,,,,,,,,,0,0,0,0,0.0,0.0,0.0,0.0,2.26,,,0,0,0,0,0,0,0,0,0,0,0,0,0,0,0,0,,0,,,,,38.986023,-76.95002,0.05,48.2,33,3,0.8,0,0.0,-1,0.0,,0,0.0,0.0716
3292323,1745297537987,0.072,0.0,-83,,-0.07,-0.06,1.02,-0,-0,0,1.02,1.15,89,2699,5.8,3.76,,13.25,1.256,88.0,,26.1,5,,,,,,,,,,,,0,0,0,0,0,0,0,0,0,0,0,0,0,0,0,0,,,,,,0.0,,,,,,,,,,,,,,,
3292343,1745297538000,0.0723,,,,,,,,,,,,,,,,,,,,,,,,,,,,,,,,,,0,0,0,0,0,0,0,0,0,0,0,0,0,0,0,0,,,,,,,,,,,,,,,,,,,,,
3292363,1745297538020,0.0726,0.0,-53,,-0.07,-0.03,1.0,0,-0,0,1.0,1.15,87,2644,13.9,3.93,,13.25,1.256,88.0,,25.9,5,,,,,,,,,,,,0,0,0,0,0,0,0,0,0,0,0,0,0,0,0,0,,,,,,0.0,,,,,,,,,,,,,,,
3292383,1745297538040,0.073,,,,,,,,,,,,,,,,,,,,,,,,,,,,,,,,,,0,0,0,0,0,0,0,0,0,0,0,0,0,0,0,0,,,,,,,,,,,,,,,,,,,,,
3292403,1745297538060,0.0733,0.0,-83,13.55,-0.07,-0.05,1.03,-0,-0,0,1.03,1.15,90,2644,13.9,3.93,15,13.71,1.255,88.0,153,25.9,5,0,0,0,0,0.0,0.0,0.0,0.0,2.27,0,1.0,0,0,0,0,0,0,0,0,0,0,0,0,0,0,0,0,0,0,1.0,0,-0,0.0,38.986023,-76.95002,0.0,48.2,33,3,0.8,0,0.0,-1,0.0,0.0,0,0.0,0.0733
3292423,1745297538080,0.0736,,,,,,,,,,,,,,,,,,,,,,,,,,,,,,,,,,0,0,0,0,0,0,0,0,0,0,0,0,0,0,0,0,,,,,,,,,,,,,,,,,,,,,
3292443,1745297538108,0.074,0.0,-61,,-0.07,-0.02,0.97,1,-0,0,0.97,1.15,85,2666,19.6,4.5,,14.03,1.255,88.0,,27.3,5,,,,,,,,,,,,0,0,0,0,0,0,0,0,0,0,0,0,0,0,0,0,,,,,,0.0,,,,,,,,,,,,,,,
3292463,1745297538128,0.0743,,,,,,,,,,,,,,,,,,,,,,,,,,,,,,,,,,0,0,0,0,0,0,0,0,0,0,0,0,0,0,0,0,,,,,,,,,,,,,,,,,,,,,
3292483,1745297538148,0.0746,0.0,-68,,-0.08,-0.02,0.96,-0,-0,0,0.96,1.15,84,2752,24.7,4.49,,14.18,1.256,88.0,,27.3,5,,,,,,,,,,,,0,0,0,0,0,0,0,0,0,0,0,0,0,0,0,0,,,,,,0.0,,,,,,,,,,,,,,,
3292503,1745297538168,0.075,,,,,,,,,,,,,,,,,,,,,,,0,0,0,0,0.0,0.0,0.0,0.0,2.26,,,0,0,0,0,0,0,0,0,0,0,0,0,0,0,0,0,,0,,,,,38.986023,-76.95002,0.04,48.2,33,3,0.8,0,0.0,-1,0.0,,0,0.0,0.075
3292523,1745297538188,0.0753,0.0,-64,,-0.1,-0.08,0.97,-2,-0,-0,0.98,1.15,85,2865,27.3,4.42,,14.24,1.255,88.0,,27.3,5,,,,,,,,,,,,0,0,0,0,0,0,0,0,0,0,0,0,0,0,0,0,,,,,,0.0,,,,,,,,,,,,,,,
3292543,1745297538205,0.0756,,,,,,,,,,,,,,,,,,,,,,,,,,,,,,,,,,0,0,0,0,0,0,0,0,0,0,0,0,0,0,0,0,,,,,,,,,,,,,,,,,,,,,
3292563,1745297538225,0.076,0.0,-57,,-0.11,-0.06,0.89,-1,-0,-0,0.9,1.15,78,3253,28.3,4.32,,14.24,1.255,88.0,,29.9,5,,,,,,,,,,,,0,0,0,0,0,0,0,0,0,0,0,0,0,0,0,0,,,,,,0.0,,,,,,,,,,,,,,,
3292583,1745297538245,0.0763,,,,,,,,,,,,,,,,,,,,,,,,,,,,,,,,,,0,0,0,0,0,0,0,0,0,0,0,0,0,0,0,0,,,,,,,,,,,,,,,,,,,,,
3292603,1745297538265,0.0766,0.0,-72,,-0.08,-0.03,0.97,-1,-0,0,0.97,1.15,85,3253,28.3,4.32,,14.18,1.255,88.0,,29.9,5,0,0,0,0,0.0,0.0,0.0,0.0,2.26,,,0,0,0,0,0,0,0,0,0,0,0,0,0,0,0,0,,0,,,,0.0,38.986023,-76.95002,0.07,48.2,33,3,0.8,0,0.0,-1,0.0,0.0,0,0.0,0.0766
3292623,1745297538285,0.077,,,,,,,,,,,,,,,,,,,,,,,,,,,,,,,,,,0,0,0,0,0,0,0,0,0,0,0,0,0,0,0,0,,,,,,,,,,,,,,,,,,,,,
3292643,1745297538307,0.0773,0.0,-61,,-0.08,0.01,0.94,-0,-0,-0,0.94,1.15,82,3408,28.2,4.35,,14.14,1.254,88.0,,35.8,5,,,,,,,,,,,,0,0,0,0,0,0,0,0,0,0,0,0,0,0,0,0,,,,,,0.0,,,,,,,,,,,,,,,
3292663,1745297538327,0.0777,,,,,,,,,,,,,,,,,,,,,,,,,,,,,,,,,,0,0,0,0,0,0,0,0,0,0,0,0,0,0,0,0,,,,,,,,,,,,,,,,,,,,,
3292683,1745297538347,0.078,0.0,-76,,-0.08,-0.02,0.97,-0,-0,0,0.98,1.15,85,3744,15.6,4.22,,13.73,1.255,88.0,,35.8,5,,,,,,,,,,,,0,0,0,0,0,0,0,0,0,0,0,0,0,0,0,0,,,,,,0.0,,,,,,,,,,,,,,,
3292703,1745297538367,0.0783,,,,,,,,,,,,,,,,,,,,,,,0,0,0,0,0.0,0.0,0.0,0.0,2.26,,,0,0,0,0,0,0,0,0,0,0,0,0,0,0,0,0,,0,,,,,38.986023,-76.95002,0.0,48.2,33,3,0.8,0,0.0,-1,0.0,,0,0.0,0.0783
3292723,1745297538387,0.0786,0.0,-61,,-0.09,-0.05,1.01,-0,-0,0,1.02,1.15,89,3875,6.3,3.85,,13.25,1.255,88.0,,35.8,5,,,,,,,,,,,,0,0,0,0,0,0,0,0,0,0,0,0,0,0,0,0,,,,,,0.0,,,,,,,,,,,,,,,
3292743,1745297538405,0.079,,,,,,,,,,,,,,,,,,,,,,,,,,,,,,,,,,0,0,0,0,0,0,0,0,0,0,0,0,0,0,0,0,,,,,,,,,,,,,,,,,,,,,
3292763,1745297538425,0.0793,0.0,-53,,-0.09,-0.11,0.96,-0,-0,-0,0.97,1.15,84,3922,0.7,3.01,,13.25,1.255,88.0,,39.4,5,,,,,,,,,,,,0,0,0,0,0,0,0,0,0,0,0,0,0,0,0,0,,,,,,0.0,,,,,,,,,,,,,,,
3292783,1745297538445,0.0796,,,,,,,,,,,,,,,,,,,,,,,,,,,,,,,,,,0,0,0,0,0,0,0,0,0,0,0,0,0,0,0,0,,,,,,,,,,,,,,,,,,,,,
3292803,1745297538465,0.08,0.0,-64,,-0.09,-0.08,0.97,0,-0,-0,0.98,1.15,85,3922,0.7,3.01,,12.61,1.254,88.0,,39.4,5,0,0,0,0,0.0,0.0,0.0,0.0,2.27,,,0,0,0,0,0,0,0,0,0,0,0,0,0,0,0,0,,0,,,,0.0,38.986023,-76.95002,0.05,48.2,33,3,0.8,0,0.0,-1,0.0,0.0,0,0.0,0.08
3292823,1745297538485,0.0803,,,,,,,,,,,,,,,,,,,,,,,,,,,,,,,,,,0,0,0,0,0,0,0,0,0,0,0,0,0,0,0,0,,,,,,,,,,,,,,,,,,,,,
3292843,1745297538507,0.0806,0.0,-53,,-0.08,-0.07,0.98,1,-0,-0,0.98,1.15,86,3852,0.0,2.57,,12.16,1.256,88.0,,39.1,5,,,,,,,,,,,,0,0,0,0,0,0,0,0,0,0,0,0,0,0,0,0,,,,,,0.0,,,,,,,,,,,,,,,
3292863,1745297538527,0.081,,,,,,,,,,,,,,,,,,,,,,,,,,,,,,,,,,0,0,0,0,0,0,0,0,0,0,0,0,0,0,0,0,,,,,,,,,,,,,,,,,,,,,
3292883,1745297538547,0.0813,0.0,-83,,-0.08,-0.14,0.97,-0,-0,-0,0.99,1.15,86,3696,0.0,2.61,,11.88,1.256,88.0,,39.1,5,,,,,,,,,,,,0,0,0,0,0,0,0,0,0,0,0,0,0,0,0,0,,,,,,0.0,,,,,,,,,,,,,,,
3292903,1745297538567,0.0816,,,,,,,,,,,,,,,,,,,,,,,0,0,0,0,0.0,0.0,0.0,0.0,2.26,,,0,0,0,0,0,0,0,0,0,0,0,0,0,0,0,0,,0,,,,,38.986023,-76.95002,0.0,48.2,33,3,0.8,0,0.0,-1,0.0,,0,0.0,0.0816
3292923,1745297538587,0.082,0.0,-57,,-0.07,-0.07,1.02,-1,-0,0,1.03,1.15,90,3603,0.0,2.68,,11.81,1.255,88.0,,39.1,5,,,,,,,,,,,,0,0,0,0,0,0,0,0,0,0,0,0,0,0,0,0,,,,,,0.0,,,,,,,,,,,,,,,
3292943,1745297538605,0.0823,,,,,,,,,,,,,,,,,,,,,,,,,,,,,,,,,,0,0,0,0,0,0,0,0,0,0,0,0,0,0,0,0,,,,,,,,,,,,,,,,,,,,,
3292963,1745297538625,0.0826,0.0,-57,,-0.06,-0.01,0.97,1,-0,0,0.97,1.15,85,3444,0.0,2.7,,11.81,1.255,88.0,,36.3,5,,,,,,,,,,,,0,0,0,0,0,0,0,0,0,0,0,0,0,0,0,0,,,,,,0.0,,,,,,,,,,,,,,,
3292983,1745297538645,0.083,,,,,,,,,,,,,,,,,,,,,,,,,,,,,,,,,,0,0,0,0,0,0,0,0,0,0,0,0,0,0,0,0,,,,,,,,,,,,,,,,,,,,,
3293003,1745297538665,0.0833,0.0,-76,,-0.09,-0.12,0.98,0,-0,-0,1.0,1.15,87,3444,0.0,2.7,,11.89,1.255,88.0,,36.3,5,0,0,0,0,0.0,0.0,0.0,0.0,2.27,,,0,0,0,0,0,0,0,0,0,0,0,0,0,0,0,0,,0,,,,0.0,38.986023,-76.95002,0.05,48.2,33,3,0.8,0,0.0,-1,0.0,0.0,0,0.0,0.0833
3293023,1745297538685,0.0836,,,,,,,,,,,,,,,,,,,,,,,,,,,,,,,,,,0,0,0,0,0,0,0,0,0,0,0,0,0,0,0,0,,,,,,,,,,,,,,,,,,,,,
3293043,1745297538707,0.084,0.0,-57,,-0.1,-0.13,1.02,-0,-0,0,1.03,1.15,90,3493,33.2,4.59,,13.75,1.255,88.0,,34.4,5,,,,,,,,,,,,0,0,0,0,0,0,0,0,0,0,0,0,0,0,0,0,,,,,,0.0,,,,,,,,,,,,,,,
3293063,1745297538727,0.0843,,,,,,,,,,,,,,,,,,,,,,,,,,,,,,,,,,0,0,0,0,0,0,0,0,0,0,0,0,0,0,0,0,,,,,,,,,,,,,,,,,,,,,
3293083,1745297538747,0.0846,0.0,-68,,-0.11,-0.13,1.02,-0,-0,0,1.03,1.15,90,3618,64.4,4.93,,14.46,1.254,88.0,,34.4,5,,,,,,,,,,,,0,0,0,0,0,0,0,0,0,0,0,0,0,0,0,0,,,,,,0.0,,,,,,,,,,,,,,,
3293103,1745297538767,0.085,,,,,,,,,,,,,,,,,,,,,,,0,0,0,0,0.0,0.0,0.0,0.0,2.27,,,0,0,0,0,0,0,0,0,0,0,0,0,0,0,0,0,,0,,,,,38.986023,-76.95002,0.04,48.2,33,3,0.8,0,0.0,-1,0.0,,0,0.0,0.085
3293123,1745297538787,0.0853,0.0,-53,,-0.1,-0.18,0.95,0,-0,-0,0.97,1.15,85,4006,75.7,4.91,,14.43,1.254,88.0,,34.4,5,,,,,,,,,,,,0,0,0,0,0,0,0,0,0,0,0,0,0,0,0,0,,,,,,0.0,,,,,,,,,,,,,,,
3293143,1745297538807,0.0856,,,,,,,,,,,,,,,,,,,,,,,,,,,,,,,,,,0,0,0,0,0,0,0,0,0,0,0,0,0,0,0,0,,,,,,,,,,,,,,,,,,,,,
3293163,1745297538827,0.086,0.0,-53,,-0.15,-0.11,1.03,-1,-0,0,1.05,1.15,91,4347,77.3,4.69,,14.43,1.254,88.0,,41.7,5,,,,,,,,,,,,0,0,0,0,0,0,0,0,0,0,0,0,0,0,0,0,,,,,,0.0,,,,,,,,,,,,,,,
3293183,1745297538847,0.0863,,,,,,,,,,,,,,,,,,,,,,,,,,,,,,,,,,0,0,0,0,0,0,0,0,0,0,0,0,0,0,0,0,,,,,,,,,,,,,,,,,,,,,
3293203,1745297538867,0.0866,0.0,-64,,-0.18,-0.12,1.04,-1,-0,1,1.06,1.15,92,4347,77.3,4.69,,14.4,1.255,88.0,,41.7,5,0,0,0,0,0.0,0.0,0.0,0.0,2.27,,,0,0,0,0,0,0,0,0,0,0,0,0,0,0,0,0,,0,,,,0.0,38.986023,-76.95002,0.1,48.2,33,3,0.8,0,0.0,-1,0.0,0.0,0,0.0,0.0866
3293223,1745297538887,0.087,,,,,,,,,,,,,,,,,,,,,,,,,,,,,,,,,,0,0,0,0,0,0,0,0,0,0,0,0,0,0,0,0,,,,,,,,,,,,,,,,,,,,,
3293243,1745297538906,0.0873,0.0,-53,,-0.17,-0.2,0.98,-0,-0,0,1.02,1.15,89,4619,77.3,5.19,,14.43,1.255,88.0,,50.4,5,,,,,,,,,,,,0,0,0,0,0,0,0,0,0,0,0,0,0,0,0,0,,,,,,0.0,,,,,,,,,,,,,,,
3293263,1745297538926,0.0876,,,,,,,,,,,,,,,,,,,,,,,,,,,,,,,,,,0,0,0,0,0,0,0,0,0,0,0,0,0,0,0,0,,,,,,,,,,,,,,,,,,,,,
3293283,1745297538946,0.088,0.0,-72,,-0.18,-0.17,1.01,-0,-0,0,1.04,1.15,90,4849,77.2,5.48,,14.4,1.256,88.0,,50.4,5,,,,,,,,,,,,0,0,0,0,0,0,0,0,0,0,0,0,0,0,0,0,,,,,,0.0,,,,,,,,,,,,,,,
3293303,1745297538966,0.0883,,,,,,,,,,,,,,,,,,,,,,,0,0,0,0,0.0,0.0,0.0,0.0,2.27,,,0,0,0,0,0,0,0,0,0,0,0,0,0,0,0,0,,0,,,,,38.986023,-76.95002,0.05,48.2,33,3,0.8,0,0.0,-1,0.0,,0,0.0,0.0883
3293323,1745297538986,0.0887,0.0,-57,,-0.15,-0.2,0.99,-0,-0,0,1.03,1.15,89,5157,77.3,5.65,,14.35,1.255,88.0,,50.4,5,,,,,,,,,,,,0,0,0,0,0,0,0,0,0,0,0,0,0,0,0,0,,,,,,0.0,,,,,,,,,,,,,,,
3293343,1745297538999,0.089,,,,,,,,,,,,,,,,,,,,,,,,,,,,,,,,,,0,0,0,0,0,0,0,0,0,0,0,0,0,0,0,0,,,,,,,,,,,,,,,,,,,,,
3293363,1745297539019,0.0893,0.0,-42,,-0.16,-0.13,1.05,-1,-0,1,1.07,1.15,93,5755,77.4,5.72,,14.35,1.255,88.0,,57.9,5,,,,,,,,,,,,0,0,0,0,0,0,0,0,0,0,0,0,0,0,0,0,,,,,,0.0,,,,,,,,,,,,,,,
3293383,1745297539039,0.0896,,,,,,,,,,,,,,,,,,,,,,,,,,,,,,,,,,0,0,0,0,0,0,0,0,0,0,0,0,0,0,0,0,,,,,,,,,,,,,,,,,,,,,
3293403,1745297539059,0.09,0.0,-57,13.54,-0.16,-0.14,1.08,-1,-0,0,1.1,1.15,96,5755,77.4,5.72,15,14.32,1.255,88.0,153,57.9,5,0,0,0,0,0.0,0.0,0.0,0.0,2.27,0,1.0,0,0,0,0,0,0,0,0,0,0,0,0,0,0,0,0,0,0,1.0,0,-0,0.0,38.986023,-76.95002,0.04,48.2,33,3,0.8,0,0.0,-1,0.0,0.0,0,0.0,0.09
3293423,1745297539079,0.0903,,,,,,,,,,,,,,,,,,,,,,,,,,,,,,,,,,0,0,0,0,0,0,0,0,0,0,0,0,0,0,0,0,,,,,,,,,,,,,,,,,,,,,
3293443,1745297539106,0.0906,0.0,-49,,-0.13,-0.15,1.06,0,-0,0,1.08,1.15,94,6451,77.4,5.8,,14.35,1.254,88.0,,60.9,5,,,,,,,,,,,,0,0,0,0,0,0,0,0,0,0,0,0,0,0,0,0,,,,,,0.0,,,,,,,,,,,,,,,
3293463,1745297539126,0.091,,,,,,,,,,,,,,,,,,,,,,,,,,,,,,,,,,0,0,0,0,0,0,0,0,0,0,0,0,0,0,0,0,,,,,,,,,,,,,,,,,,,,,
3293483,1745297539146,0.0913,0.0,-57,,-0.13,-0.18,1.05,-1,-0,0,1.08,1.15,94,7516,86.2,6.17,,14.32,1.237,88.0,,60.9,5,,,,,,,,,,,,0,0,0,0,0,0,0,0,0,0,0,0,0,0,0,0,,,,,,0.0,,,,,,,,,,,,,,,
3293503,1745297539166,0.0916,,,,,,,,,,,,,,,,,,,,,,,0,0,0,0,0.0,0.0,0.0,0.0,2.26,,,0,0,0,0,0,0,0,0,0,0,0,0,0,0,0,0,,0,,,,,38.986023,-76.95002,0.07,48.2,33,3,0.8,0,0.0,-1,0.0,,0,0.0,0.0916
3293523,1745297539186,0.092,0.0,-53,,-0.13,-0.14,0.98,-0,-0,0,1.0,1.15,87,9562,93.6,6.15,,13.92,1.057,88.0,,60.9,5,,,,,,,,,,,,0,0,0,0,0,0,0,0,0,0,0,0,0,0,0,0,,,,,,0.0,,,,,,,,,,,,,,,
3293543,1745297539208,0.0923,,,,,,,,,,,,,,,,,,,,,,,,,,,,,,,,,,0,0,0,0,0,0,0,0,0,0,0,0,0,0,0,0,,,,,,,,,,,,,,,,,,,,,
3293563,1745297539228,0.0926,0.0,-8,,-0.16,-0.19,0.93,1,-0,-0,0.97,1.15,84,11383,99.5,5.7,,13.92,1.057,88.0,,65.9,5,,,,,,,,,,,,0,0,0,0,0,0,0,0,0,0,0,0,0,0,0,0,,,,,,0.0,,,,,,,,,,,,,,,
3293583,1745297539248,0.093,,,,,,,,,,,,,,,,,,,,,,,,,,,,,,,,,,0,0,0,0,0,0,0,0,0,0,0,0,0,0,0,0,,,,,,,,,,,,,,,,,,,,,
3293603,1745297539268,0.0933,0.0,-38,,-0.14,-0.26,0.98,1,0,-0,1.03,1.15,90,11383,99.5,5.7,,13.71,0.921,88.0,,65.9,5,0,0,0,0,0.0,0.0,0.0,0.0,2.26,,,0,0,0,0,0,0,0,0,0,0,0,0,0,0,0,0,,0,,,,0.0,38.986023,-76.95002,0.04,48.2,33,3,0.8,0,0.0,-1,0.0,0.0,0,0.0,0.0933
3293623,1745297539288,0.0936,,,,,,,,,,,,,,,,,,,,,,,,,,,,,,,,,,0,0,0,0,0,0,0,0,0,0,0,0,0,0,0,0,,,,,,,,,,,,,,,,,,,,,
3293643,1745297539308,0.094,0.0,-27,,-0.11,-0.32,1.05,3,-0,-0,1.1,1.15,96,13239,99.4,4.76,,13.36,0.865,88.0,,69.4,5,,,,,,,,,,,,0,0,0,0,0,0,0,0,0,0,0,0,0,0,0,0,,,,,,0.0,,,,,,,,,,,,,,,
3293663,1745297539328,0.0943,,,,,,,,,,,,,,,,,,,,,,,,,,,,,,,,,,0,0,0,0,0,0,0,0,0,0,0,0,0,0,0,0,,,,,,,,,,,,,,,,,,,,,
3293683,1745297539348,0.0946,0.0,-72,,-0.14,-0.15,0.94,2,-0,-0,0.96,1.15,84,13833,99.4,4.75,,13.44,0.865,88.0,,69.4,5,,,,,,,,,,,,0,0,0,0,0,0,0,0,0,0,0,0,0,0,0,0,,,,,,0.0,,,,,,,,,,,,,,,
3293703,1745297539368,0.095,,,,,,,,,,,,,,,,,,,,,,,0,0,0,0,0.0,0.0,0.0,0.0,2.26,,,0,0,0,0,0,0,0,0,0,0,0,0,0,0,0,0,,0,,,,,38.986023,-76.95002,0.04,48.2,33,3,0.8,0,0.0,-1,0.0,,0,0.0,0.095
3293723,1745297539388,0.0953,0.0,-31,,-0.14,-0.0,1.0,3,-0,-1,1.01,1.15,88,13035,99.5,4.73,,13.65,1.095,88.0,,69.4,5,,,,,,,,,,,,0,0,0,0,0,0,0,0,0,0,0,0,0,0,0,0,,,,,,0.0,,,,,,,,,,,,,,,
3293743,1745297539408,0.0956,,,,,,,,,,,,,,,,,,,,,,,,,,,,,,,,,,0,0,0,0,0,0,0,0,0,0,0,0,0,0,0,0,,,,,,,,,,,,,,,,,,,,,
3293763,1745297539428,0.096,0.0,3,,-0.19,-0.17,0.95,4,-1,-2,0.98,1.15,86,13957,99.4,4.67,,13.65,1.095,88.0,,78.6,5,,,,,,,,,,,,0,0,0,0,0,0,0,0,0,0,0,0,0,0,0,0,,,,,,0.0,,,,,,,,,,,,,,,
3293783,1745297539448,0.0963,,,,,,,,,,,,,,,,,,,,,,,,,,,,,,,,,,0,0,0,0,0,0,0,0,0,0,0,0,0,0,0,0,,,,,,,,,,,,,,,,,,,,,
3293803,1745297539468,0.0966,0.0,-31,,-0.17,0.08,0.9,2,-1,-2,0.92,1.15,80,13957,99.4,4.67,,13.08,1.254,88.0,,78.6,5,0,0,0,0,0.0,0.0,0.0,0.0,2.26,,,0,0,0,0,0,0,0,0,0,0,0,0,0,0,0,0,,0,,,,0.0,38.986023,-76.95002,0.0,48.2,33,3,0.8,0,0.0,-1,0.0,0.0,0,0.0,0.0966
3293823,1745297539488,0.097,,,,,,,,,,,,,,,,,,,,,,,,,,,,,,,,,,0,0,0,0,0,0,0,0,0,0,0,0,0,0,0,0,,,,,,,,,,,,,,,,,,,,,
3293843,1745297539508,0.0973,0.0,-27,,-0.18,0.05,0.89,3,-1,-2,0.91,1.15,79,13200,99.5,4.68,,13.36,1.238,88.0,,81.7,5,,,,,,,,,,,,0,0,0,0,0,0,0,0,0,0,0,0,0,0,0,0,,,,,,0.0,,,,,,,,,,,,,,,
3293863,1745297539528,0.0976,,,,,,,,,,,,,,,,,,,,,,,,,,,,,,,,,,0,0,0,0,0,0,0,0,0,0,0,0,0,0,0,0,,,,,,,,,,,,,,,,,,,,,
3293883,1745297539548,0.098,0.0,-31,,-0.17,-0.09,0.92,5,-1,-1,0.94,1.15,82,13513,99.4,4.65,,13.31,1.254,88.0,,81.7,5,,,,,,,,,,,,0,0,0,0,0,0,0,0,0,0,0,0,0,0,0,0,,,,,,0.0,,,,,,,,,,,,,,,
3293903,1745297539568,0.0983,,,,,,,,,,,,,,,,,,,,,,,0,0,0,0,0.0,0.0,0.0,0.0,2.26,,,0,0,0,0,0,0,0,0,0,0,0,0,0,0,0,0,,0,,,,,38.986023,-76.95002,0.0,48.2,33,3,0.8,0,0.0,-1,0.0,,0,0.0,0.0983
3293923,1745297539588,0.0986,0.0,-38,,-0.17,0.01,0.91,6,-1,-2,0.93,1.15,81,13603,99.5,4.57,,13.35,1.256,88.0,,81.7,5,,,,,,,,,,,,0,0,0,0,0,0,0,0,0,0,0,0,0,0,0,0,,,,,,0.0,,,,,,,,,,,,,,,
3293943,1745297539608,0.099,,,,,,,,,,,,,,,,,,,,,,,,,,,,,,,,,,0,0,0,0,0,0,0,0,0,0,0,0,0,0,0,0,,,,,,,,,,,,,,,,,,,,,
3293963,1745297539628,0.0993,0.0,-0,,-0.05,-0.01,0.94,5,-0,-2,0.94,1.15,82,12417,99.4,5.03,,13.35,1.256,88.0,,81.4,5,,,,,,,,,,,,0,0,0,0,0,0,0,0,0,0,0,0,0,0,0,0,,,,,,0.0,,,,,,,,,,,,,,,
3293983,1745297539648,0.0996,,,,,,,,,,,,,,,,,,,,,,,,,,,,,,,,,,0,0,0,0,0,0,0,0,0,0,0,0,0,0,0,0,,,,,,,,,,,,,,,,,,,,,
3294003,1745297539668,0.1,0.0,-15,,0.07,-0.15,0.9,6,0,-2,0.91,1.15,80,12417,99.4,5.03,,13.47,1.248,88.0,,81.4,5,0,0,0,0,0.0,0.0,0.0,0.0,2.25,,,0,0,0,0,0,0,0,0,0,0,0,0,0,0,0,0,,0,,,,0.0,38.986023,-76.95002,0.0,48.2,33,3,0.8,0,0.0,-1,0.0,0.0,0,0.0,0.1
3294023,1745297539688,0.1003,,,,,,,,,,,,,,,,,,,,,,,,,,,,,,,,,,0,0,0,0,0,0,0,0,0,0,0,0,0,0,0,0,,,,,,,,,,,,,,,,,,,,,
3294043,1745297539708,0.1006,0.0,-8,,0.13,-0.42,0.92,5,0,-2,1.02,1.15,89,11882,99.6,5.22,,13.59,1.252,88.0,,74.7,5,,,,,,,,,,,,0,0,0,0,0,0,0,0,0,0,0,0,0,0,0,0,,,,,,0.0,,,,,,,,,,,,,,,
3294063,1745297539728,0.101,,,,,,,,,,,,,,,,,,,,,,,,,,,,,,,,,,0,0,0,0,0,0,0,0,0,0,0,0,0,0,0,0,,,,,,,,,,,,,,,,,,,,,
3294083,1745297539748,0.1013,0.0,-23,,0.16,-0.3,0.89,2,0,-2,0.95,1.15,83,11715,99.5,5.3,,13.68,1.25,88.0,,74.7,5,,,,,,,,,,,,0,0,0,0,0,0,0,0,0,0,0,0,0,0,0,0,,,,,,0.0,,,,,,,,,,,,,,,
3294103,1745297539768,0.1016,,,,,,,,,,,,,,,,,,,,,,,0,0,0,0,0.0,0.0,0.0,0.0,2.26,,,0,0,0,0,0,0,0,0,0,0,0,0,0,0,0,0,,0,,,,,38.986023,-76.95002,0.94,48.2,33,3,0.8,0,0.0,-1,0.0,,0,0.0,0.1016
3294123,1745297539788,0.102,0.0,-12,,0.18,-0.22,0.95,3,0,-2,0.99,1.15,86,11360,99.6,5.42,,13.76,1.123,88.0,,74.7,5,,,,,,,,,,,,0,0,0,0,0,0,0,0,0,0,0,0,0,0,0,0,,,,,,0.0,,,,,,,,,,,,,,,
3294143,1745297539806,0.1023,,,,,,,,,,,,,,,,,,,,,,,,,,,,,,,,,,0,0,0,0,0,0,0,0,0,0,0,0,0,0,0,0,,,,,,,,,,,,,,,,,,,,,
3294163,1745297539826,0.1026,0.0,-12,,0.19,-0.36,1.02,2,0,-2,1.1,1.15,96,11127,99.5,5.53,,13.76,1.123,88.0,,70.7,5,,,,,,,,,,,,0,0,0,0,0,0,0,0,0,0,0,0,0,0,0,0,,,,,,0.0,,,,,,,,,,,,,,,
3294183,1745297539846,0.103,,,,,,,,,,,,,,,,,,,,,,,,,,,,,,,,,,0,0,0,0,0,0,0,0,0,0,0,0,0,0,0,0,,,,,,,,,,,,,,,,,,,,,
3294203,1745297539866,0.1033,0.0,-12,,0.25,-0.21,1.01,4,0,-2,1.06,1.15,92,11127,99.5,5.53,,13.69,1.088,88.0,,70.7,5,3,0,25,22,0.0,0.0,0.0,0.0,2.26,,,0,0,0,0,0,0,0,0,0,0,0,0,0,0,0,0,,0,,,,0.0,38.986023,-76.95002,3.52,48.2,33,3,0.8,0,0.0,-1,0.0,0.0,0,0.0,0.1033
3294223,1745297539886,0.1036,,,,,,,,,,,,,,,,,,,,,,,,,,,,,,,,,,0,0,0,0,0,0,0,0,0,0,0,0,0,0,0,0,,,,,,,,,,,,,,,,,,,,,
3294243,1745297539908,0.104,0.0,-12,,0.26,-0.19,0.89,2,0,-1,0.95,1.15,83,11207,99.6,5.49,,13.92,1.024,88.0,,70.5,5,,,,,,,,,,,,0,0,0,0,0,0,0,0,0,0,0,0,0,0,0,0,,,,,,0.0,,,,,,,,,,,,,,,
3294263,1745297539928,0.1043,,,,,,,,,,,,,,,,,,,,,,,,,,,,,,,,,,0,0,0,0,0,0,0,0,0,0,0,0,0,0,0,0,,,,,,,,,,,,,,,,,,,,,
3294283,1745297539948,0.1046,0.0,-8,,0.29,-0.16,0.84,2,0,-1,0.91,1.15,79,11820,99.6,5.28,,13.68,0.994,88.0,,70.5,5,,,,,,,,,,,,0,0,0,0,0,0,0,0,0,0,0,0,0,0,0,0,,,,,,0.0,,,,,,,,,,,,,,,
3294303,1745297539968,0.105,,,,,,,,,,,,,,,,,,,,,,,4,0,38,36,0.0,0.0,0.0,0.0,2.26,,,0,0,0,0,0,0,0,0,0,0,0,0,0,0,0,0,,1,,,,,38.986027,-76.95002,6.94,48.2,33,3,0.8,0,0.0,-1,0.0,,0,0.0001,0.105
3294323,1745297539988,0.1053,0.0,-19,,0.3,-0.21,0.87,2,0,-1,0.94,1.15,82,12393,99.5,5.08,,13.69,0.99,88.0,,70.5,5,,,,,,,,,,,,0,0,0,0,0,0,0,0,0,0,0,0,0,0,0,0,,,,,,0.0,,,,,,,,,,,,,,,
3294343,1745297539998,0.1056,,,,,,,,,,,,,,,,,,,,,,,,,,,,,,,,,,0,0,0,0,0,0,0,0,0,0,0,0,0,0,0,0,,,,,,,,,,,,,,,,,,,,,
3294363,1745297540018,0.106,0.0,-8,,0.34,-0.23,0.88,2,0,-1,0.97,1.15,85,12733,99.6,4.86,,13.69,0.99,88.0,,76.1,5,,,,,,,,,,,,0,0,0,0,0,0,0,0,0,0,0,0,0,0,0,0,,,,,,0.0,,,,,,,,,,,,,,,
3294383,1745297540038,0.1063,,,,,,,,,,,,,,,,,,,,,,,,,,,,,,,,,,0,0,0,0,0,0,0,0,0,0,0,0,0,0,0,0,,,,,,,,,,,,,,,,,,,,,
3294403,1745297540058,0.1066,0.0,-0,13.52,0.33,-0.23,0.89,2,0,-0,0.98,1.15,85,12733,99.6,4.86,15,13.48,0.998,88.0,153,76.1,5,6,0,37,36,0.0,0.0,0.0,0.0,2.27,0,1.0,0,0,0,0,0,0,0,0,0,0,0,0,0,0,0,0,0,0,1.0,0,-0,0.0,38.986027,-76.95002,8.58,48.2,33,3,0.8,0,0.0,-1,0.0,0.0,0,0.0003,0.1066
3294423,1745297540078,0.107,,,,,,,,,,,,,,,,,,,,,,,,,,,,,,,,,,0,0,0,0,0,0,0,0,0,0,0,0,0,0,0,0,,,,,,,,,,,,,,,,,,,,,
3294443,1745297540106,0.1073,0.0,-8,,0.36,-0.19,0.88,3,0,0,0.97,1.15,84,13058,99.5,4.74,,13.29,1.02,88.0,,76.7,5,,,,,,,,,,,,0,0,0,0,0,0,0,0,0,0,0,0,0,0,0,0,,,,,,0.0,,,,,,,,,,,,,,,
3294463,1745297540126,0.1076,,,,,,,,,,,,,,,,,,,,,,,,,,,,,,,,,,0,0,0,0,0,0,0,0,0,0,0,0,0,0,0,0,,,,,,,,,,,,,,,,,,,,,
3294483,1745297540146,0.108,0.0,-4,,0.36,-0.11,0.86,0,0,1,0.94,1.15,82,13270,99.6,4.67,,13.4,1.009,86.2,,76.7,5,,,,,,,,,,,,0,0,0,0,0,0,0,0,0,0,0,0,0,0,0,0,,,,,,0.0,,,,,,,,,,,,,,,
3294503,1745297540166,0.1083,,,,,,,,,,,,,,,,,,,,,,,7,0,39,40,0.0,0.0,0.0,0.0,2.27,,,0,0,0,0,0,0,0,0,0,0,0,0,0,0,0,0,,1,,,,,38.986027,-76.950027,10.38,48.2,33,3,0.8,0,0.0,-1,0.0,,0,0.0004,0.1083
3294523,1745297540186,0.1086,0.0,-0,,0.36,-0.07,0.86,-1,0,1,0.94,1.15,82,13497,99.5,4.61,,13.43,1.031,86.2,,76.7,5,,,,,,,,,,,,0,0,0,0,0,0,0,0,0,0,0,0,0,0,0,0,,,,,,0.0,,,,,,,,,,,,,,,
3294543,1745297540203,0.109,,,,,,,,,,,,,,,,,,,,,,,,,,,,,,,,,,0,0,0,0,0,0,0,0,0,0,0,0,0,0,0,0,,,,,,,,,,,,,,,,,,,,,
3294563,1745297540223,0.1093,0.0,3,,0.37,-0.0,0.86,-1,0,1,0.93,1.15,81,13546,99.7,4.59,,13.43,1.031,86.2,,78.7,5,,,,,,,,,,,,0,0,0,0,0,0,0,0,0,0,0,0,0,0,0,0,,,,,,0.0,,,,,,,,,,,,,,,
3294583,1745297540243,0.1096,,,,,,,,,,,,,,,,,,,,,,,,,,,,,,,,,,0,0,0,0,0,0,0,0,0,0,0,0,0,0,0,0,,,,,,,,,,,,,,,,,,,,,
3294603,1745297540263,0.11,0.0,3,,0.36,-0.02,0.86,-1,0,1,0.93,1.15,82,13546,99.7,4.59,,13.17,1.029,86.2,,78.7,5,8,0,41,40,0.0,183.0,0.0,0.0,2.26,,,0,0,0,0,0,0,0,0,0,0,0,0,0,0,0,0,,1,,,,0.0,38.986031,-76.950027,12.44,48.2,33,3,0.8,0,0.0,-1,0.0,0.0,0,0.0007,0.11
3294623,1745297540283,0.1103,,,,,,,,,,,,,,,,,,,,,,,,,,,,,,,,,,0,0,0,0,0,0,0,0,0,0,0,0,0,0,0,0,,,,,,,,,,,,,,,,,,,,,
3294643,1745297540307,0.1106,0.0,5,,0.4,0.12,0.85,-2,0,2,0.95,1.15,82,13690,99.4,4.58,,13.07,1.026,86.2,,79.5,5,,,,,,,,,,,,0,0,0,0,0,0,0,0,0,0,0,0,0,0,0,0,,,,,,0.0,,,,,,,,,,,,,,,
3294663,1745297540327,0.111,,,,,,,,,,,,,,,,,,,,,,,,,,,,,,,,,,0,0,0,0,0,0,0,0,0,0,0,0,0,0,0,0,,,,,,,,,,,,,,,,,,,,,
3294683,1745297540347,0.1113,0.0,3,,0.47,0.05,0.93,1,0,1,1.05,1.15,91,13732,99.6,4.56,,13.23,1.014,86.2,,79.5,5,,,,,,,,,,,,0,0,0,0,0,0,0,0,0,0,0,0,0,0,0,0,,,,,,0.0,,,,,,,,,,,,,,,
3294703,1745297540367,0.1116,,,,,,,,,,,,,,,,,,,,,,,10,0,41,40,0.0,157.0,0.0,0.0,2.26,,,0,0,0,0,0,0,0,0,0,0,0,0,0,0,0,0,,1,,,,,38.986031,-76.950035,14.57,48.2,33,3,0.8,0,0.0,-1,0.0,,0,0.0009,0.1116
3294723,1745297540387,0.112,0.0,5,,0.53,-0.08,0.95,3,-0,0,1.09,1.15,95,13628,99.6,4.58,,12.91,1.019,86.2,,79.5,5,,,,,,,,,,,,0,0,0,0,0,0,0,0,0,0,0,0,0,0,0,0,,,,,,0.0,,,,,,,,,,,,,,,
3294743,1745297540407,0.1123,,,,,,,,,,,,,,,,,,,,,,,,,,,,,,,,,,0,0,0,0,0,0,0,0,0,0,0,0,0,0,0,0,,,,,,,,,,,,,,,,,,,,,
3294763,1745297540427,0.1126,0.0,-0,,0.55,0.02,0.96,3,-0,1,1.11,1.15,96,13595,99.5,4.57,,12.91,1.019,86.2,,80.6,5,,,,,,,,,,,,0,0,0,0,0,0,0,0,0,0,0,0,0,0,0,0,,,,,,0.0,,,,,,,,,,,,,,,
3294783,1745297540447,0.113,,,,,,,,,,,,,,,,,,,,,,,,,,,,,,,,,,0,0,0,0,0,0,0,0,0,0,0,0,0,0,0,0,,,,,,,,,,,,,,,,,,,,,
3294803,1745297540467,0.1133,0.0,-34,,0.56,0.08,0.98,4,-0,1,1.13,1.15,99,13595,99.5,4.57,,13.04,1.03,86.2,,80.6,5,11,0,41,41,0.0,79.0,0.0,0.0,2.26,,,0,0,0,0,0,0,0,0,0,0,0,0,0,0,0,0,,1,,,,0.0,38.986031,-76.950043,16.66,48.2,33,3,0.8,0,0.0,-1,0.0,0.0,0,0.0012,0.1133
3294823,1745297540487,0.1136,,,,,,,,,,,,,,,,,,,,,,,,,,,,,,,,,,0,0,0,0,0,0,0,0,0,0,0,0,0,0,0,0,,,,,,,,,,,,,,,,,,,,,
3294843,1745297540507,0.114,0.0,-8,,0.57,0.14,0.95,5,-0,0,1.12,1.15,97,13570,99.7,4.56,,13.07,1.034,86.2,,81.2,5,,,,,,,,,,,,0,0,0,0,0,0,0,0,0,0,0,0,0,0,0,0,,,,,,0.0,,,,,,,,,,,,,,,
3294863,1745297540527,0.1143,,,,,,,,,,,,,,,,,,,,,,,,,,,,,,,,,,0,0,0,0,0,0,0,0,0,0,0,0,0,0,0,0,,,,,,,,,,,,,,,,,,,,,
3294883,1745297540547,0.1146,0.0,-15,,0.57,0.13,0.95,7,-0,0,1.11,1.15,97,13493,99.4,4.62,,12.95,1.043,86.2,,81.2,5,,,,,,,,,,,,0,0,0,0,0,0,0,0,0,0,0,0,0,0,0,0,,,,,,0.0,,,,,,,,,,,,,,,
3294903,1745297540567,0.115,,,,,,,,,,,,,,,,,,,,,,,13,0,40,41,0.0,77.0,0.0,0.0,2.26,,,0,0,0,0,0,0,0,0,0,0,0,0,0,0,0,0,,1,,,,,38.986031,-76.95005,19.6,48.2,33,3,0.8,0,0.0,-1,0.0,,0,0.0015,0.115
3294923,1745297540587,0.1153,0.0,17,,0.57,0.11,0.92,10,-0,0,1.09,1.15,95,13301,99.7,4.67,,13.04,1.03,86.2,,81.2,5,,,,,,,,,,,,0,0,0,0,0,0,0,0,0,0,0,0,0,0,0,0,,,,,,0.0,,,,,,,,,,,,,,,
3294943,1745297540607,0.1156,,,,,,,,,,,,,,,,,,,,,,,,,,,,,,,,,,0,0,0,0,0,0,0,0,0,0,0,0,0,0,0,0,,,,,,,,,,,,,,,,,,,,,
3294963,1745297540627,0.116,0.0,11,,0.57,-0.0,1.0,13,-0,-1,1.16,1.16,100,13227,99.6,4.66,,13.04,1.03,86.2,,80.3,5,,,,,,,,,,,,0,0,0,0,0,0,0,0,0,0,0,0,0,0,0,0,,,,,,0.0,,,,,,,,,,,,,,,
3294983,1745297540647,0.1163,,,,,,,,,,,,,,,,,,,,,,,,,,,,,,,,,,0,0,0,0,0,0,0,0,0,0,0,0,0,0,0,0,,,,,,,,,,,,,,,,,,,,,
3295003,1745297540667,0.1166,0.0,14,,0.56,0.1,1.01,14,-0,-0,1.16,1.16,100,13227,99.6,4.66,,13.19,1.045,86.2,,80.3,5,15,0,40,41,0.0,112.0,0.0,0.0,2.26,,,0,0,0,0,0,0,0,0,0,0,0,0,0,0,0,0,,1,,,,0.0,38.986031,-76.950058,21.71,48.1,33,3,0.8,0,0.0,-1,0.0,0.0,0,0.0019,0.1166
3295023,1745297540687,0.117,,,,,,,,,,,,,,,,,,,,,,,,,,,,,,,,,,0,0,0,0,0,0,0,0,0,0,0,0,0,0,0,0,,,,,,,,,,,,,,,,,,,,,
3295043,1745297540705,0.1173,0.0,17,,0.58,0.07,0.98,13,0,-1,1.14,1.16,98,13254,99.5,4.66,,13.16,1.042,86.2,,80.1,5,,,,,,,,,,,,0,0,0,0,0,0,0,0,0,0,0,0,0,0,0,0,,,,,,0.0,,,,,,,,,,,,,,,
3295063,1745297540725,0.1176,,,,,,,,,,,,,,,,,,,,,,,,,,,,,,,,,,0,0,0,0,0,0,0,0,0,0,0,0,0,0,0,0,,,,,,,,,,,,,,,,,,,,,
3295083,1745297540745,0.118,0.0,8,,0.67,0.03,0.99,14,0,-1,1.2,1.2,100,13096,99.7,4.71,,13.21,1.034,86.2,,80.1,5,,,,,,,,,,,,0,0,0,0,0,0,0,0,0,0,0,0,0,0,0,0,,,,,,0.0,,,,,,,,,,,,,,,
3295103,1745297540765,0.1183,,,,,,,,,,,,,,,,,,,,,,,16,19,41,40,0.0,111.0,0.0,0.0,2.26,,,0,0,0,0,0,0,0,0,0,0,0,0,0,0,0,0,,1,,,,,38.986034,-76.950058,24.47,48.1,33,3,0.8,0,0.0,-1,0.0,,0,0.0023,0.1183
3295123,1745297540785,0.1186,0.0,11,,0.67,-0.04,0.98,13,0,-1,1.18,1.2,99,12908,99.5,4.77,,13.11,1.025,86.2,,80.1,5,,,,,,,,,,,,0,0,0,0,0,0,0,0,0,0,0,0,0,0,0,0,,,,,,0.0,,,,,,,,,,,,,,,
