"Interval"|"ms"|0|0|1,"Utc"|"ms"|0|0|1,"FrontBP"|"psi"|-5.0|5.0|25,"SteerAng"|"Degrees"|-145|145|25,"Battery"|"Volts"|-5.0|20.0|1,"AccelX"|"G"|-3.0|3.0|25,"AccelY"|"G"|-3.0|3.0|25,"AccelZ"|"G"|-3.0|3.0|25,"Yaw"|"Deg/Sec"|-120|120|25,"Pitch"|"Deg/Sec"|-120|120|25,"Roll"|"Deg/Sec"|-120|120|25,"Gsum"|"G"|0.0|3.0|25,"GsumMax"|"G"|0.0|3.0|25,"GsumPct"|"%"|0|100|25,"RPM"|""|0|10000|25,"TPS"|"%"|0.0|100.0|25,"InjectorPW"|"ms"|0.0|100.0|25,"Baro"|"kPa"|0|105|1,"MAP"|"Psi"|0.0|255.0|25,"Lambda"|""|-2.0|2.0|25,"IAT"|"C"|0.0|200.0|25,"EngineTemp"|"C"|0|200|1,"EOP"|"PSI"|0.0|152.0|25,"EOT"|"F"|0|250|25,"WSFR"|"MPH"|0|150|10,"WSFL"|"MPH"|0|100|10,"WSRR"|"MPH"|0|100|10,"WSRL"|""|0|100|10,"TCSet"|"%"|0.0|100.0|10,"TCSlip"|"%"|0.0|100.0|10,"TCComp"|"deg"|0.0|50.0|10,"TCCut"|"%"|0.0|100.0|10,"Analog8"|""|0.0|5.0|10,"OilTemp"|"F"|0|300|1,"AA_On"|""|0.0|1.0|1,"ThermLF1"|"C"|0|400|50,"ThermLF2"|"C"|0|400|50,"ThermRR1"|"C"|0|400|50,"ThermRR2"|"C"|0|400|50,"ThermLF3"|"C"|0|400|50,"ThermLF4"|"C"|0|400|50,"ThermLF5"|"C"|0|400|50,"ThermLF6"|"C"|0|400|50,"ThermLF7"|"C"|0|400|50,"ThermLF8"|"C"|0|400|50,"ThermRR3"|"C"|0|400|50,"ThermRR4"|"C"|0|400|50,"ThermRR5"|"C"|0|400|50,"ThermRR6"|"C"|0|400|50,"ThermRR7"|"C"|0|400|50,"ThermRR8"|"C"|0|400|50,"AA_LowDrag"|""|0|1|1,"Gear"|""|1|6|10,"AA_On"|""|0.0|1.0|1,"AA_LowDrag"|""|0|1|1,"Fuel_Mix"|""|-10|10|1,"AA_Packages"|""|0.0|1000.0|25,"Latitude"|"Degrees"|-180.0|180.0|10,"Longitude"|"Degrees"|-180.0|180.0|10,"Speed"|"kph"|0.0|150.0|10,"Altitude"|"m"|0.0|4000.0|10,"GPSSats"|""|0|20|10,"GPSQual"|""|0|5|10,"GPSDOP"|""|0.0|20.0|10
238994,1745298699252,,,,,,,,,,,,,,,,,,,,,,,,,,,,,,,,,,0,0,0,0,0,0,0,0,0,0,0,0,0,0,0,0,,,,,,,,,,,,,
239014,1745298699272,0.0,-135,,-0.07,-0.11,0.88,2,-0,-1,0.89,0.89,100,4296,0.0,2.03,,10.37,1.253,106.0,,39.1,5,,,,,,,,,,,,0,0,0,0,0,0,0,0,0,0,0,0,0,0,0,0,,,,,,0.0,,,,,,,
239034,1745298699292,,,,,,,,,,,,,,,,,,,,,,,,,,,,,,,,,,0,0,0,0,0,0,0,0,0,0,0,0,0,0,0,0,,,,,,,,,,,,,
239054,1745298699312,0.0,-135,,-0.09,-0.18,0.91,2,-0,-1,0.93,0.93,100,4074,0.0,2.0,,10.28,1.254,106.0,,36.7,5,,,,,,,,,,,,0,0,0,0,0,0,0,0,0,0,0,0,0,0,0,0,,,,,,0.0,,,,,,,
239074,1745298699332,,,,,,,,,,,,,,,,,,,,,,,0,0,0,0,0.0,0.0,0.0,0.0,2.26,,,0,0,0,0,0,0,0,0,0,0,0,0,0,0,0,0,,0,,,,,38.986019,-76.95002,0.06,50.7,36,3,0.7
239094,1745298699352,0.0,-113,,-0.09,-0.14,0.92,2,-0,-1,0.93,0.93,100,3807,0.0,2.05,,10.28,1.254,106.0,,36.7,5,,,,,,,,,,,,0,0,0,0,0,0,0,0,0,0,0,0,0,0,0,0,,,,,,0.0,,,,,,,
239114,1745298699372,,,,,,,,,,,,,,,,,,,,,,,,,,,,,,,,,,0,0,0,0,0,0,0,0,0,0,0,0,0,0,0,0,,,,,,,,,,,,,
239134,1745298699392,0.0,-129,,-0.07,-0.09,0.93,1,-0,-0,0.94,0.94,100,3807,0.0,2.05,,10.46,1.255,106.0,,30.8,5,,,,,,,,,,,,0,0,0,0,0,0,0,0,0,0,0,0,0,0,0,0,,,,,,0.0,,,,,,,
239154,1745298699412,,,,,,,,,,,,,,,,,,,,,,,,,,,,,,,,,,0,0,0,0,0,0,0,0,0,0,0,0,0,0,0,0,,,,,,,,,,,,,
239174,1745298699432,0.0,-113,,-0.09,-0.14,0.91,1,-0,-1,0.93,0.94,99,3540,0.0,2.17,,10.72,1.253,106.0,,30.8,5,0,0,0,0,0.0,0.0,0.0,0.0,2.26,,,0,0,0,0,0,0,0,0,0,0,0,0,0,0,0,0,,0,,,,0.0,38.986019,-76.95002,0.04,50.7,36,3,0.7
239194,1745298699452,,,,,,,,,,,,,,,,,,,,,,,,,,,,,,,,,,0,0,0,0,0,0,0,0,0,0,0,0,0,0,0,0,,,,,,,,,,,,,
239214,1745298699472,0.0,-121,,-0.06,-0.02,0.89,1,-0,-0,0.89,0.94,95,3295,3.2,3.38,,11.29,1.252,106.0,,30.8,5,,,,,,,,,,,,0,0,0,0,0,0,0,0,0,0,0,0,0,0,0,0,,,,,,0.0,,,,,,,
239234,1745298699492,,,,,,,,,,,,,,,,,,,,,,,,,,,,,,,,,,0,0,0,0,0,0,0,0,0,0,0,0,0,0,0,0,,,,,,,,,,,,,
239254,1745298699514,0.0,-117,,-0.03,0.0,0.96,0,-0,0,0.96,0.96,100,3037,15.9,4.49,,12.63,1.252,106.0,,27.0,5,,,,,,,,,,,,0,0,0,0,0,0,0,0,0,0,0,0,0,0,0,0,,,,,,0.0,,,,,,,
239274,1745298699534,,,,,,,,,,,,,,,,,,,,,,,0,0,0,0,0.0,0.0,0.0,0.0,2.25,,,0,0,0,0,0,0,0,0,0,0,0,0,0,0,0,0,,0,,,,,38.986019,-76.95002,0.0,50.7,36,3,0.7
239294,1745298699554,0.0,-113,,-0.04,-0.08,1.03,0,-0,0,1.04,1.04,100,3105,20.4,4.93,,12.63,1.252,106.0,,27.0,5,,,,,,,,,,,,0,0,0,0,0,0,0,0,0,0,0,0,0,0,0,0,,,,,,0.0,,,,,,,
239314,1745298699574,,,,,,,,,,,,,,,,,,,,,,,,,,,,,,,,,,0,0,0,0,0,0,0,0,0,0,0,0,0,0,0,0,,,,,,,,,,,,,
239334,1745298699594,0.0,-113,,-0.06,-0.13,1.03,1,-0,-0,1.04,1.04,100,3105,20.4,4.93,,13.6,1.251,106.0,,26.3,5,,,,,,,,,,,,0,0,0,0,0,0,0,0,0,0,0,0,0,0,0,0,,,,,,0.0,,,,,,,
239354,1745298699614,,,,,,,,,,,,,,,,,,,,,,,,,,,,,,,,,,0,0,0,0,0,0,0,0,0,0,0,0,0,0,0,0,,,,,,,,,,,,,
239374,1745298699634,0.0,-121,,-0.06,-0.04,0.95,1,-0,-0,0.95,1.04,91,3225,20.8,4.79,,13.83,1.252,106.0,,26.3,5,0,0,0,0,0.0,0.0,0.0,0.0,2.26,,,0,0,0,0,0,0,0,0,0,0,0,0,0,0,0,0,,0,,,,0.0,38.986019,-76.95002,0.0,50.7,36,3,0.7
239394,1745298699654,,,,,,,,,,,,,,,,,,,,,,,,,,,,,,,,,,0,0,0,0,0,0,0,0,0,0,0,0,0,0,0,0,,,,,,,,,,,,,
239414,1745298699674,0.0,-121,,-0.08,-0.11,0.99,1,-0,-0,1.0,1.04,96,3392,0.0,4.21,,13.39,1.252,106.0,,26.3,5,,,,,,,,,,,,0,0,0,0,0,0,0,0,0,0,0,0,0,0,0,0,,,,,,0.0,,,,,,,
239434,1745298699694,,,,,,,,,,,,,,,,,,,,,,,,,,,,,,,,,,0,0,0,0,0,0,0,0,0,0,0,0,0,0,0,0,,,,,,,,,,,,,
239454,1745298699712,0.0,-132,,-0.07,-0.0,1.0,0,-0,0,1.0,1.04,96,3556,0.0,3.0,,12.72,1.252,106.0,,29.0,5,,,,,,,,,,,,0,0,0,0,0,0,0,0,0,0,0,0,0,0,0,0,,,,,,0.0,,,,,,,
239474,1745298699732,,,,,,,,,,,,,,,,,,,,,,,0,0,0,0,0.0,0.0,0.0,0.0,2.26,,,0,0,0,0,0,0,0,0,0,0,0,0,0,0,0,0,,0,,,,,38.986019,-76.95002,0.04,50.7,36,3,0.7
239494,1745298699752,0.0,-106,,-0.07,0.04,0.94,0,-0,-0,0.94,1.04,91,3463,0.0,2.93,,12.72,1.252,106.0,,29.0,5,,,,,,,,,,,,0,0,0,0,0,0,0,0,0,0,0,0,0,0,0,0,,,,,,0.0,,,,,,,
239514,1745298699772,,,,,,,,,,,,,,,,,,,,,,,,,,,,,,,,,,0,0,0,0,0,0,0,0,0,0,0,0,0,0,0,0,,,,,,,,,,,,,
239534,1745298699792,0.0,-117,,-0.09,0.03,1.02,-0,-0,0,1.02,1.04,98,3463,0.0,2.93,,12.33,1.253,106.0,,28.9,5,,,,,,,,,,,,0,0,0,0,0,0,0,0,0,0,0,0,0,0,0,0,,,,,,0.0,,,,,,,
239554,1745298699815,,,,,,,,,,,,,,,,,,,,,,,,,,,,,,,,,,0,0,0,0,0,0,0,0,0,0,0,0,0,0,0,0,,,,,,,,,,,,,
239574,1745298699835,0.0,-113,13.17,-0.07,0.09,0.93,0,-0,-0,0.94,1.04,90,3391,0.0,2.97,15,12.23,1.239,104.2,165,28.9,5,0,0,0,0,0.0,0.0,0.0,0.0,2.26,0,1.0,0,0,0,0,0,0,0,0,0,0,0,0,0,0,0,0,0,0,1.0,0,0,0.0,38.986019,-76.95002,0.05,50.7,36,3,0.7
239594,1745298699855,,,,,,,,,,,,,,,,,,,,,,,,,,,,,,,,,,0,0,0,0,0,0,0,0,0,0,0,0,0,0,0,0,,,,,,,,,,,,,
239614,1745298699875,0.0,-129,,-0.08,0.02,1.02,0,-0,0,1.02,1.04,98,3350,5.3,3.01,,12.37,1.243,104.2,,28.9,5,,,,,,,,,,,,0,0,0,0,0,0,0,0,0,0,0,0,0,0,0,0,,,,,,0.0,,,,,,,
239634,1745298699895,,,,,,,,,,,,,,,,,,,,,,,,,,,,,,,,,,0,0,0,0,0,0,0,0,0,0,0,0,0,0,0,0,,,,,,,,,,,,,
239654,1745298699915,0.0,-113,,-0.09,-0.0,0.95,1,-0,-0,0.95,1.04,92,3234,14.9,4.49,,13.19,1.25,104.2,,27.7,5,,,,,,,,,,,,0,0,0,0,0,0,0,0,0,0,0,0,0,0,0,0,,,,,,0.0,,,,,,,
239674,1745298699935,,,,,,,,,,,,,,,,,,,,,,,0,0,0,0,0.0,0.0,0.0,0.0,2.26,,,0,0,0,0,0,0,0,0,0,0,0,0,0,0,0,0,,0,,,,,38.986019,-76.95002,0.0,50.7,36,3,0.7
239694,1745298699955,0.0,-117,,-0.09,0.04,0.99,-0,-0,0,1.0,1.04,96,3435,16.2,4.61,,13.19,1.25,104.2,,27.7,5,,,,,,,,,,,,0,0,0,0,0,0,0,0,0,0,0,0,0,0,0,0,,,,,,0.0,,,,,,,
239714,1745298699975,,,,,,,,,,,,,,,,,,,,,,,,,,,,,,,,,,0,0,0,0,0,0,0,0,0,0,0,0,0,0,0,0,,,,,,,,,,,,,
239734,1745298699995,0.0,-129,,-0.08,0.05,0.95,0,-0,-0,0.95,1.04,91,3435,16.2,4.61,,13.57,1.251,104.2,,28.9,5,,,,,,,,,,,,0,0,0,0,0,0,0,0,0,0,0,0,0,0,0,0,,,,,,0.0,,,,,,,
239754,1745298700003,,,,,,,,,,,,,,,,,,,,,,,,,,,,,,,,,,0,0,0,0,0,0,0,0,0,0,0,0,0,0,0,0,,,,,,,,,,,,,
239774,1745298700023,0.0,-110,,-0.08,0.02,0.96,0,-0,-0,0.97,1.04,93,3511,16.4,4.42,,13.67,1.251,104.2,,28.9,5,0,0,0,0,0.0,0.0,0.0,0.0,2.26,,,0,0,0,0,0,0,0,0,0,0,0,0,0,0,0,0,,0,,,,0.0,38.986019,-76.95002,0.08,50.7,36,3,0.7
239794,1745298700043,,,,,,,,,,,,,,,,,,,,,,,,,,,,,,,,,,0,0,0,0,0,0,0,0,0,0,0,0,0,0,0,0,,,,,,,,,,,,,
239814,1745298700063,0.0,-129,,-0.09,-0.02,1.0,0,-0,-0,1.0,1.04,97,3680,0.0,2.9,,12.96,1.249,104.2,,28.9,5,,,,,,,,,,,,0,0,0,0,0,0,0,0,0,0,0,0,0,0,0,0,,,,,,0.0,,,,,,,
239834,1745298700083,,,,,,,,,,,,,,,,,,,,,,,,,,,,,,,,,,0,0,0,0,0,0,0,0,0,0,0,0,0,0,0,0,,,,,,,,,,,,,
239854,1745298700113,0.0,-117,,-0.09,0.01,0.99,-0,-0,0,1.0,1.04,96,3659,0.0,2.82,,12.45,1.208,104.2,,30.8,5,,,,,,,,,,,,0,0,0,0,0,0,0,0,0,0,0,0,0,0,0,0,,,,,,0.0,,,,,,,
239874,1745298700133,,,,,,,,,,,,,,,,,,,,,,,0,0,0,0,0.0,0.0,0.0,0.0,2.27,,,0,0,0,0,0,0,0,0,0,0,0,0,0,0,0,0,,0,,,,,38.986019,-76.95002,0.0,50.7,36,3,0.7
239894,1745298700153,0.0,-117,,-0.09,0.1,1.02,-1,-0,0,1.03,1.04,99,3587,0.0,2.82,,12.45,1.208,104.2,,30.8,5,,,,,,,,,,,,0,0,0,0,0,0,0,0,0,0,0,0,0,0,0,0,,,,,,0.0,,,,,,,
239914,1745298700173,,,,,,,,,,,,,,,,,,,,,,,,,,,,,,,,,,0,0,0,0,0,0,0,0,0,0,0,0,0,0,0,0,,,,,,,,,,,,,
239934,1745298700193,0.0,-110,,-0.06,0.13,0.98,-1,-0,0,0.99,1.04,95,3587,0.0,2.82,,12.09,1.192,104.2,,29.9,5,,,,,,,,,,,,0,0,0,0,0,0,0,0,0,0,0,0,0,0,0,0,,,,,,0.0,,,,,,,
239954,1745298700205,,,,,,,,,,,,,,,,,,,,,,,,,,,,,,,,,,0,0,0,0,0,0,0,0,0,0,0,0,0,0,0,0,,,,,,,,,,,,,
239974,1745298700225,0.0,-117,,-0.08,0.0,1.01,-1,-0,0,1.02,1.04,98,3471,0.0,2.83,,11.96,1.209,104.2,,29.9,5,0,0,0,0,0.0,0.0,0.0,0.0,2.27,,,0,0,0,0,0,0,0,0,0,0,0,0,0,0,0,0,,0,,,,0.0,38.986019,-76.95002,0.04,50.7,36,3,0.7
239994,1745298700245,,,,,,,,,,,,,,,,,,,,,,,,,,,,,,,,,,0,0,0,0,0,0,0,0,0,0,0,0,0,0,0,0,,,,,,,,,,,,,
240014,1745298700265,0.0,-121,,-0.06,0.11,0.97,-1,-0,0,0.98,1.04,94,3396,0.0,2.88,,12.04,1.239,104.2,,29.9,5,,,,,,,,,,,,0,0,0,0,0,0,0,0,0,0,0,0,0,0,0,0,,,,,,0.0,,,,,,,
240034,1745298700285,,,,,,,,,,,,,,,,,,,,,,,,,,,,,,,,,,0,0,0,0,0,0,0,0,0,0,0,0,0,0,0,0,,,,,,,,,,,,,
240054,1745298700313,0.0,-117,,-0.08,0.01,1.05,-1,-0,0,1.06,1.06,100,3305,0.2,2.92,,12.16,1.254,104.2,,27.7,5,,,,,,,,,,,,0,0,0,0,0,0,0,0,0,0,0,0,0,0,0,0,,,,,,0.0,,,,,,,
240074,1745298700333,,,,,,,,,,,,,,,,,,,,,,,0,0,0,0,0.0,0.0,0.0,0.0,2.26,,,0,0,0,0,0,0,0,0,0,0,0,0,0,0,0,0,,0,,,,,38.986019,-76.95002,0.0,50.7,36,3,0.7
240094,1745298700353,0.0,-121,,-0.1,-0.02,1.01,-0,-0,-0,1.01,1.06,96,3147,1.6,3.25,,12.16,1.254,104.2,,27.7,5,,,,,,,,,,,,0,0,0,0,0,0,0,0,0,0,0,0,0,0,0,0,,,,,,0.0,,,,,,,
240114,1745298700373,,,,,,,,,,,,,,,,,,,,,,,,,,,,,,,,,,0,0,0,0,0,0,0,0,0,0,0,0,0,0,0,0,,,,,,,,,,,,,
240134,1745298700393,0.0,-113,,-0.1,0.0,0.91,0,-0,-0,0.91,1.06,87,3147,1.6,3.25,,12.35,1.253,104.2,,26.0,5,,,,,,,,,,,,0,0,0,0,0,0,0,0,0,0,0,0,0,0,0,0,,,,,,0.0,,,,,,,
240154,1745298700413,,,,,,,,,,,,,,,,,,,,,,,,,,,,,,,,,,0,0,0,0,0,0,0,0,0,0,0,0,0,0,0,0,,,,,,,,,,,,,
240174,1745298700433,0.0,-102,,-0.09,0.04,0.84,1,-0,-0,0.85,1.06,80,3090,1.5,3.32,,12.47,1.252,104.2,,26.0,5,0,0,0,0,0.0,0.0,0.0,0.0,2.26,,,0,0,0,0,0,0,0,0,0,0,0,0,0,0,0,0,,0,,,,0.0,38.986019,-76.95002,0.04,50.7,36,3,0.7
240194,1745298700453,,,,,,,,,,,,,,,,,,,,,,,,,,,,,,,,,,0,0,0,0,0,0,0,0,0,0,0,0,0,0,0,0,,,,,,,,,,,,,
240214,1745298700473,0.0,-117,,-0.07,0.08,0.79,1,-0,-1,0.8,1.06,76,3031,0.0,3.04,,12.37,1.251,104.2,,26.0,5,,,,,,,,,,,,0,0,0,0,0,0,0,0,0,0,0,0,0,0,0,0,,,,,,0.0,,,,,,,
240234,1745298700493,,,,,,,,,,,,,,,,,,,,,,,,,,,,,,,,,,0,0,0,0,0,0,0,0,0,0,0,0,0,0,0,0,,,,,,,,,,,,,
240254,1745298700515,0.0,-132,,-0.07,0.06,0.75,1,-0,-1,0.76,1.06,72,2894,0.0,3.04,,12.35,1.251,104.2,,24.9,5,,,,,,,,,,,,0,0,0,0,0,0,0,0,0,0,0,0,0,0,0,0,,,,,,0.0,,,,,,,
240274,1745298700535,,,,,,,,,,,,,,,,,,,,,,,0,0,0,0,0.0,0.0,0.0,0.0,2.26,,,0,0,0,0,0,0,0,0,0,0,0,0,0,0,0,0,,0,,,,,38.986019,-76.95002,0.05,50.7,36,3,0.7
240294,1745298700555,0.0,-125,,-0.08,0.02,0.77,1,-0,-1,0.78,1.06,74,2838,0.0,3.07,,12.35,1.251,104.2,,24.9,5,,,,,,,,,,,,0,0,0,0,0,0,0,0,0,0,0,0,0,0,0,0,,,,,,0.0,,,,,,,
240314,1745298700575,,,,,,,,,,,,,,,,,,,,,,,,,,,,,,,,,,0,0,0,0,0,0,0,0,0,0,0,0,0,0,0,0,,,,,,,,,,,,,
240334,1745298700595,0.0,-135,,-0.08,-0.01,0.84,1,-0,-1,0.84,1.06,80,2838,0.0,3.07,,12.39,1.25,104.2,,23.3,5,,,,,,,,,,,,0,0,0,0,0,0,0,0,0,0,0,0,0,0,0,0,,,,,,0.0,,,,,,,
240354,1745298700615,,,,,,,,,,,,,,,,,,,,,,,,,,,,,,,,,,0,0,0,0,0,0,0,0,0,0,0,0,0,0,0,0,,,,,,,,,,,,,
240374,1745298700635,0.0,-106,,-0.08,-0.0,0.84,1,-0,-1,0.84,1.06,80,2760,0.0,3.08,,12.47,1.25,104.2,,23.3,5,0,0,0,0,0.0,0.0,0.0,0.0,2.26,,,0,0,0,0,0,0,0,0,0,0,0,0,0,0,0,0,,0,,,,0.0,38.986019,-76.95002,0.08,50.7,36,3,0.7
240394,1745298700655,,,,,,,,,,,,,,,,,,,,,,,,,,,,,,,,,,0,0,0,0,0,0,0,0,0,0,0,0,0,0,0,0,,,,,,,,,,,,,
240414,1745298700675,0.0,-117,,-0.09,-0.01,0.87,1,-0,-1,0.88,1.06,83,2650,11.6,3.79,,13.07,1.251,104.2,,23.3,5,,,,,,,,,,,,0,0,0,0,0,0,0,0,0,0,0,0,0,0,0,0,,,,,,0.0,,,,,,,
240434,1745298700695,,,,,,,,,,,,,,,,,,,,,,,,,,,,,,,,,,0,0,0,0,0,0,0,0,0,0,0,0,0,0,0,0,,,,,,,,,,,,,
240454,1745298700714,0.0,-117,,-0.09,0.0,0.87,1,-0,-0,0.88,1.06,83,2696,24.0,4.75,,14.03,1.251,104.2,,21.4,5,,,,,,,,,,,,0,0,0,0,0,0,0,0,0,0,0,0,0,0,0,0,,,,,,0.0,,,,,,,
240474,1745298700734,,,,,,,,,,,,,,,,,,,,,,,0,0,0,0,0.0,0.0,0.0,0.0,2.27,,,0,0,0,0,0,0,0,0,0,0,0,0,0,0,0,0,,0,,,,,38.986019,-76.95002,0.04,50.7,36,3,0.7
240494,1745298700754,0.0,-102,,-0.1,-0.0,0.85,1,-0,-1,0.86,1.06,81,2847,28.2,4.74,,14.03,1.251,104.2,,21.4,5,,,,,,,,,,,,0,0,0,0,0,0,0,0,0,0,0,0,0,0,0,0,,,,,,0.0,,,,,,,
240514,1745298700774,,,,,,,,,,,,,,,,,,,,,,,,,,,,,,,,,,0,0,0,0,0,0,0,0,0,0,0,0,0,0,0,0,,,,,,,,,,,,,
240534,1745298700794,0.0,-121,,-0.12,-0.03,0.84,1,-0,-1,0.85,1.06,81,2847,28.2,4.74,,14.2,1.253,104.2,,23.5,5,,,,,,,,,,,,0,0,0,0,0,0,0,0,0,0,0,0,0,0,0,0,,,,,,0.0,,,,,,,
240554,1745298700814,,,,,,,,,,,,,,,,,,,,,,,,,,,,,,,,,,0,0,0,0,0,0,0,0,0,0,0,0,0,0,0,0,,,,,,,,,,,,,
240574,1745298700834,0.0,-102,13.22,-0.11,0.06,0.79,1,-0,-1,0.79,1.06,75,3067,29.2,4.52,15,14.23,1.253,104.2,167,23.5,5,0,0,0,0,0.0,0.0,0.0,0.0,2.26,0,1.0,0,0,0,0,0,0,0,0,0,0,0,0,0,0,0,0,0,0,1.0,0,0,0.0,38.986019,-76.95002,0.0,50.7,36,3,0.7
240594,1745298700854,,,,,,,,,,,,,,,,,,,,,,,,,,,,,,,,,,0,0,0,0,0,0,0,0,0,0,0,0,0,0,0,0,,,,,,,,,,,,,
240614,1745298700874,0.0,-135,,-0.11,-0.05,0.85,1,-0,-1,0.86,1.06,82,3350,11.9,4.4,,13.88,1.253,104.2,,23.5,5,,,,,,,,,,,,0,0,0,0,0,0,0,0,0,0,0,0,0,0,0,0,,,,,,0.0,,,,,,,
240634,1745298700894,,,,,,,,,,,,,,,,,,,,,,,,,,,,,,,,,,0,0,0,0,0,0,0,0,0,0,0,0,0,0,0,0,,,,,,,,,,,,,
240654,1745298700914,0.0,-125,,-0.11,-0.02,0.88,0,-0,-0,0.89,1.06,84,3636,0.0,2.78,,12.95,1.252,104.2,,28.8,5,,,,,,,,,,,,0,0,0,0,0,0,0,0,0,0,0,0,0,0,0,0,,,,,,0.0,,,,,,,
240674,1745298700934,,,,,,,,,,,,,,,,,,,,,,,0,0,0,0,0.0,0.0,0.0,0.0,2.26,,,0,0,0,0,0,0,0,0,0,0,0,0,0,0,0,0,,0,,,,,38.986019,-76.95002,0.04,50.7,36,3,0.7
240694,1745298700954,0.0,-102,,-0.1,0.02,0.9,0,-0,-0,0.91,1.06,86,3623,0.0,2.71,,12.95,1.252,104.2,,28.8,5,,,,,,,,,,,,0,0,0,0,0,0,0,0,0,0,0,0,0,0,0,0,,,,,,0.0,,,,,,,
240714,1745298700974,,,,,,,,,,,,,,,,,,,,,,,,,,,,,,,,,,0,0,0,0,0,0,0,0,0,0,0,0,0,0,0,0,,,,,,,,,,,,,
240734,1745298700994,0.0,-106,,-0.08,0.06,0.9,0,-0,-0,0.9,1.06,85,3623,0.0,2.71,,12.45,1.251,104.2,,29.5,5,,,,,,,,,,,,0,0,0,0,0,0,0,0,0,0,0,0,0,0,0,0,,,,,,0.0,,,,,,,
240754,1745298701006,,,,,,,,,,,,,,,,,,,,,,,,,,,,,,,,,,0,0,0,0,0,0,0,0,0,0,0,0,0,0,0,0,,,,,,,,,,,,,
240774,1745298701026,0.0,-113,,-0.09,-0.07,0.88,1,-0,-1,0.89,1.06,84,3558,0.0,2.71,,12.17,1.25,104.2,,29.5,5,0,0,0,0,0.0,0.0,0.0,0.0,2.26,,,0,0,0,0,0,0,0,0,0,0,0,0,0,0,0,0,,0,,,,0.0,38.986019,-76.95002,0.0,50.7,36,3,0.7
240794,1745298701046,,,,,,,,,,,,,,,,,,,,,,,,,,,,,,,,,,0,0,0,0,0,0,0,0,0,0,0,0,0,0,0,0,,,,,,,,,,,,,
240814,1745298701066,0.0,-113,,-0.07,-0.04,0.91,0,-0,-0,0.92,1.06,87,3414,0.0,2.73,,12.12,1.251,104.2,,29.5,5,,,,,,,,,,,,0,0,0,0,0,0,0,0,0,0,0,0,0,0,0,0,,,,,,0.0,,,,,,,
240834,1745298701086,,,,,,,,,,,,,,,,,,,,,,,,,,,,,,,,,,0,0,0,0,0,0,0,0,0,0,0,0,0,0,0,0,,,,,,,,,,,,,
240854,1745298701104,0.0,-110,,-0.09,-0.15,0.98,1,-0,-1,1.0,1.06,95,3342,0.0,2.79,,12.16,1.251,104.2,,27.9,5,,,,,,,,,,,,0,0,0,0,0,0,0,0,0,0,0,0,0,0,0,0,,,,,,0.0,,,,,,,
240874,1745298701124,,,,,,,,,,,,,,,,,,,,,,,0,0,0,0,0.0,0.0,0.0,0.0,2.26,,,0,0,0,0,0,0,0,0,0,0,0,0,0,0,0,0,,0,,,,,38.986019,-76.95002,0.04,50.7,36,3,0.7
240894,1745298701144,0.0,-95,,-0.09,-0.08,0.89,1,-0,-1,0.89,1.06,85,3284,0.0,2.83,,12.16,1.251,104.2,,27.9,5,,,,,,,,,,,,0,0,0,0,0,0,0,0,0,0,0,0,0,0,0,0,,,,,,0.0,,,,,,,
240914,1745298701164,,,,,,,,,,,,,,,,,,,,,,,,,,,,,,,,,,0,0,0,0,0,0,0,0,0,0,0,0,0,0,0,0,,,,,,,,,,,,,
240934,1745298701184,0.0,-106,,-0.08,-0.06,0.98,0,-0,-0,0.98,1.06,93,3284,0.0,2.83,,12.17,1.251,104.2,,27.7,5,,,,,,,,,,,,0,0,0,0,0,0,0,0,0,0,0,0,0,0,0,0,,,,,,0.0,,,,,,,
240954,1745298701214,,,,,,,,,,,,,,,,,,,,,,,,,,,,,,,,,,0,0,0,0,0,0,0,0,0,0,0,0,0,0,0,0,,,,,,,,,,,,,
240974,1745298701234,0.0,-117,,-0.11,-0.13,0.98,1,-0,-1,1.0,1.06,95,3278,0.0,2.78,,12.15,1.252,104.2,,27.7,5,0,0,0,0,0.0,0.0,0.0,0.0,2.26,,,0,0,0,0,0,0,0,0,0,0,0,0,0,0,0,0,,0,,,,0.0,38.986019,-76.95002,0.04,50.7,36,3,0.7
240994,1745298701254,,,,,,,,,,,,,,,,,,,,,,,,,,,,,,,,,,0,0,0,0,0,0,0,0,0,0,0,0,0,0,0,0,,,,,,,,,,,,,
241014,1745298701274,0.0,-132,,-0.1,-0.05,0.88,1,-0,-1,0.89,1.06,84,3203,0.0,2.85,,12.07,1.253,104.2,,27.7,5,,,,,,,,,,,,0,0,0,0,0,0,0,0,0,0,0,0,0,0,0,0,,,,,,0.0,,,,,,,
241034,1745298701294,,,,,,,,,,,,,,,,,,,,,,,,,,,,,,,,,,0,0,0,0,0,0,0,0,0,0,0,0,0,0,0,0,,,,,,,,,,,,,
241054,1745298701314,0.0,-125,,-0.08,-0.0,0.83,1,-0,-0,0.83,1.06,79,3045,0.0,2.88,,12.13,1.253,104.2,,26.0,5,,,,,,,,,,,,0,0,0,0,0,0,0,0,0,0,0,0,0,0,0,0,,,,,,0.0,,,,,,,
241074,1745298701334,,,,,,,,,,,,,,,,,,,,,,,0,0,0,0,0.0,0.0,0.0,0.0,2.26,,,0,0,0,0,0,0,0,0,0,0,0,0,0,0,0,0,,0,,,,,38.986019,-76.95002,0.0,50.7,36,3,0.7
241094,1745298701354,0.0,-117,,-0.06,0.03,0.81,1,-0,-0,0.81,1.06,77,2976,0.0,2.91,,12.13,1.253,104.2,,26.0,5,,,,,,,,,,,,0,0,0,0,0,0,0,0,0,0,0,0,0,0,0,0,,,,,,0.0,,,,,,,
241114,1745298701374,,,,,,,,,,,,,,,,,,,,,,,,,,,,,,,,,,0,0,0,0,0,0,0,0,0,0,0,0,0,0,0,0,,,,,,,,,,,,,
241134,1745298701394,0.0,-102,,-0.04,0.05,0.79,1,-0,-0,0.79,1.06,75,2976,0.0,2.91,,12.19,1.253,104.2,,24.5,5,,,,,,,,,,,,0,0,0,0,0,0,0,0,0,0,0,0,0,0,0,0,,,,,,0.0,,,,,,,
241154,1745298701414,,,,,,,,,,,,,,,,,,,,,,,,,,,,,,,,,,0,0,0,0,0,0,0,0,0,0,0,0,0,0,0,0,,,,,,,,,,,,,
241174,1745298701434,0.0,-102,,-0.06,0.01,0.81,1,-0,-1,0.81,1.06,77,2859,0.0,2.98,,12.28,1.252,104.2,,24.5,5,0,0,0,0,0.0,0.0,0.0,0.0,2.26,,,0,0,0,0,0,0,0,0,0,0,0,0,0,0,0,0,,0,,,,0.0,38.986019,-76.95002,0.0,50.7,36,3,0.7
241194,1745298701454,,,,,,,,,,,,,,,,,,,,,,,,,,,,,,,,,,0,0,0,0,0,0,0,0,0,0,0,0,0,0,0,0,,,,,,,,,,,,,
241214,1745298701474,0.0,-121,,-0.06,-0.02,0.87,1,-0,-1,0.87,1.06,83,2848,2.7,3.04,,12.45,1.251,104.2,,24.5,5,,,,,,,,,,,,0,0,0,0,0,0,0,0,0,0,0,0,0,0,0,0,,,,,,0.0,,,,,,,
241234,1745298701494,,,,,,,,,,,,,,,,,,,,,,,,,,,,,,,,,,0,0,0,0,0,0,0,0,0,0,0,0,0,0,0,0,,,,,,,,,,,,,
241254,1745298701514,0.0,-117,,-0.06,-0.01,0.87,1,-0,-0,0.87,1.06,82,2719,10.9,3.89,,13.23,1.251,104.2,,22.7,5,,,,,,,,,,,,0,0,0,0,0,0,0,0,0,0,0,0,0,0,0,0,,,,,,0.0,,,,,,,
241274,1745298701534,,,,,,,,,,,,,,,,,,,,,,,0,0,0,0,0.0,0.0,0.0,0.0,2.26,,,0,0,0,0,0,0,0,0,0,0,0,0,0,0,0,0,,0,,,,,38.986019,-76.95002,0.04,50.7,36,3,0.7
241294,1745298701554,0.0,-110,,-0.07,-0.01,0.89,1,-0,-1,0.89,1.06,85,2743,18.0,4.45,,13.23,1.251,104.2,,22.7,5,,,,,,,,,,,,0,0,0,0,0,0,0,0,0,0,0,0,0,0,0,0,,,,,,0.0,,,,,,,
241314,1745298701574,,,,,,,,,,,,,,,,,,,,,,,,,,,,,,,,,,0,0,0,0,0,0,0,0,0,0,0,0,0,0,0,0,,,,,,,,,,,,,
241334,1745298701594,0.0,-102,,-0.07,-0.05,0.95,1,-0,-0,0.95,1.06,90,2743,18.0,4.45,,13.83,1.25,104.2,,22.8,5,,,,,,,,,,,,0,0,0,0,0,0,0,0,0,0,0,0,0,0,0,0,,,,,,0.0,,,,,,,
241354,1745298701614,,,,,,,,,,,,,,,,,,,,,,,,,,,,,,,,,,0,0,0,0,0,0,0,0,0,0,0,0,0,0,0,0,,,,,,,,,,,,,
241374,1745298701634,0.0,-113,,-0.06,-0.02,0.97,0,-0,0,0.97,1.06,92,2800,19.2,4.46,,14.06,1.251,104.2,,22.8,5,0,0,0,0,0.0,0.0,0.0,0.0,2.26,,,0,0,0,0,0,0,0,0,0,0,0,0,0,0,0,0,,0,,,,0.0,38.986019,-76.95002,0.05,50.7,36,3,0.7
241394,1745298701654,,,,,,,,,,,,,,,,,,,,,,,,,,,,,,,,,,0,0,0,0,0,0,0,0,0,0,0,0,0,0,0,0,,,,,,,,,,,,,
241414,1745298701674,0.0,-132,,-0.06,-0.05,1.07,-1,-0,1,1.08,1.08,100,2960,19.4,4.46,,13.98,1.25,104.2,,22.8,5,,,,,,,,,,,,0,0,0,0,0,0,0,0,0,0,0,0,0,0,0,0,,,,,,0.0,,,,,,,
241434,1745298701694,,,,,,,,,,,,,,,,,,,,,,,,,,,,,,,,,,0,0,0,0,0,0,0,0,0,0,0,0,0,0,0,0,,,,,,,,,,,,,
241454,1745298701714,0.0,-121,,-0.05,-0.04,1.03,-1,-0,0,1.03,1.08,96,3601,7.1,4.03,,13.61,1.252,104.2,,26.2,5,,,,,,,,,,,,0,0,0,0,0,0,0,0,0,0,0,0,0,0,0,0,,,,,,0.0,,,,,,,
241474,1745298701734,,,,,,,,,,,,,,,,,,,,,,,0,0,0,0,0.0,0.0,0.0,0.0,2.26,,,0,0,0,0,0,0,0,0,0,0,0,0,0,0,0,0,,0,,,,,38.986019,-76.95002,0.08,50.7,36,3,0.7
241494,1745298701754,0.0,-95,,-0.04,-0.05,1.04,-1,-0,0,1.04,1.08,96,3713,0.0,2.68,,13.61,1.252,104.2,,26.2,5,,,,,,,,,,,,0,0,0,0,0,0,0,0,0,0,0,0,0,0,0,0,,,,,,0.0,,,,,,,
241514,1745298701774,,,,,,,,,,,,,,,,,,,,,,,,,,,,,,,,,,0,0,0,0,0,0,0,0,0,0,0,0,0,0,0,0,,,,,,,,,,,,,
241534,1745298701794,0.0,-106,,-0.04,-0.07,1.04,-0,-0,0,1.04,1.08,97,3713,0.0,2.68,,12.77,1.253,104.2,,30.8,5,,,,,,,,,,,,0,0,0,0,0,0,0,0,0,0,0,0,0,0,0,0,,,,,,0.0,,,,,,,
241554,1745298701813,,,,,,,,,,,,,,,,,,,,,,,,,,,,,,,,,,0,0,0,0,0,0,0,0,0,0,0,0,0,0,0,0,,,,,,,,,,,,,
241574,1745298701833,0.0,-98,13.27,-0.04,-0.06,1.0,-0,-0,0,1.0,1.08,93,3737,0.0,2.65,15,12.25,1.24,104.2,167,30.8,5,0,0,0,0,0.0,0.0,0.0,0.0,2.26,0,1.0,0,0,0,0,0,0,0,0,0,0,0,0,0,0,0,0,0,0,1.0,0,0,0.0,38.986019,-76.95002,0.07,50.7,36,3,0.7
241594,1745298701853,,,,,,,,,,,,,,,,,,,,,,,,,,,,,,,,,,0,0,0,0,0,0,0,0,0,0,0,0,0,0,0,0,,,,,,,,,,,,,
241614,1745298701873,0.0,-121,,-0.06,-0.09,1.01,-0,-0,-0,1.02,1.08,95,3608,0.0,2.65,,12.03,1.212,104.2,,30.8,5,,,,,,,,,,,,0,0,0,0,0,0,0,0,0,0,0,0,0,0,0,0,,,,,,0.0,,,,,,,
241634,1745298701893,,,,,,,,,,,,,,,,,,,,,,,,,,,,,,,,,,0,0,0,0,0,0,0,0,0,0,0,0,0,0,0,0,,,,,,,,,,,,,
241654,1745298701913,0.0,-121,,-0.05,-0.07,1.06,-1,-0,0,1.06,1.08,99,3505,0.0,2.72,,11.92,1.233,104.2,,29.3,5,,,,,,,,,,,,0,0,0,0,0,0,0,0,0,0,0,0,0,0,0,0,,,,,,0.0,,,,,,,
241674,1745298701933,,,,,,,,,,,,,,,,,,,,,,,0,0,0,0,0.0,0.0,0.0,0.0,2.26,,,0,0,0,0,0,0,0,0,0,0,0,0,0,0,0,0,,0,,,,,38.986019,-76.95002,0.07,50.7,36,3,0.7
241694,1745298701953,0.0,-113,,-0.05,-0.08,0.96,0,-0,-0,0.97,1.08,90,3376,0.0,2.74,,11.92,1.233,104.2,,29.3,5,,,,,,,,,,,,0,0,0,0,0,0,0,0,0,0,0,0,0,0,0,0,,,,,,0.0,,,,,,,
241714,1745298701973,,,,,,,,,,,,,,,,,,,,,,,,,,,,,,,,,,0,0,0,0,0,0,0,0,0,0,0,0,0,0,0,0,,,,,,,,,,,,,
241734,1745298701993,0.0,-121,,-0.06,-0.01,0.94,-0,-0,-0,0.94,1.08,87,3376,0.0,2.74,,11.95,1.251,104.2,,27.3,5,,,,,,,,,,,,0,0,0,0,0,0,0,0,0,0,0,0,0,0,0,0,,,,,,0.0,,,,,,,
241754,1745298702003,,,,,,,,,,,,,,,,,,,,,,,,,,,,,,,,,,0,0,0,0,0,0,0,0,0,0,0,0,0,0,0,0,,,,,,,,,,,,,
241774,1745298702023,0.0,-121,,-0.07,-0.1,1.0,0,-0,-0,1.0,1.08,93,3240,0.1,2.81,,12.07,1.25,104.2,,27.3,5,0,0,0,0,0.0,0.0,0.0,0.0,2.26,,,0,0,0,0,0,0,0,0,0,0,0,0,0,0,0,0,,0,,,,0.0,38.986019,-76.95002,0.04,50.7,36,3,0.7
241794,1745298702043,,,,,,,,,,,,,,,,,,,,,,,,,,,,,,,,,,0,0,0,0,0,0,0,0,0,0,0,0,0,0,0,0,,,,,,,,,,,,,
241814,1745298702063,0.0,-110,,-0.1,-0.11,0.99,0,-0,-1,1.0,1.08,93,3160,3.4,3.48,,12.43,1.251,104.2,,27.3,5,,,,,,,,,,,,0,0,0,0,0,0,0,0,0,0,0,0,0,0,0,0,,,,,,0.0,,,,,,,
241834,1745298702083,,,,,,,,,,,,,,,,,,,,,,,,,,,,,,,,,,0,0,0,0,0,0,0,0,0,0,0,0,0,0,0,0,,,,,,,,,,,,,
241854,1745298702107,0.0,-106,,-0.12,-0.11,0.95,1,-0,-1,0.96,1.08,90,3034,3.9,3.69,,12.72,1.251,104.2,,25.7,5,,,,,,,,,,,,0,0,0,0,0,0,0,0,0,0,0,0,0,0,0,0,,,,,,0.0,,,,,,,
241874,1745298702127,,,,,,,,,,,,,,,,,,,,,,,0,0,0,0,0.0,0.0,0.0,0.0,2.26,,,0,0,0,0,0,0,0,0,0,0,0,0,0,0,0,0,,0,,,,,38.986019,-76.95002,0.08,50.7,36,3,0.7
241894,1745298702147,0.0,-98,,-0.14,-0.09,0.9,1,-0,-1,0.91,1.08,85,3047,4.1,3.74,,12.72,1.251,104.2,,25.7,5,,,,,,,,,,,,0,0,0,0,0,0,0,0,0,0,0,0,0,0,0,0,,,,,,0.0,,,,,,,
241914,1745298702167,,,,,,,,,,,,,,,,,,,,,,,,,,,,,,,,,,0,0,0,0,0,0,0,0,0,0,0,0,0,0,0,0,,,,,,,,,,,,,
241934,1745298702187,0.0,-113,,-0.15,-0.07,0.83,1,-0,-1,0.85,1.08,79,3047,4.1,3.74,,12.92,1.251,104.2,,24.6,5,,,,,,,,,,,,0,0,0,0,0,0,0,0,0,0,0,0,0,0,0,0,,,,,,0.0,,,,,,,
241954,1745298702213,,,,,,,,,,,,,,,,,,,,,,,,,,,,,,,,,,0,0,0,0,0,0,0,0,0,0,0,0,0,0,0,0,,,,,,,,,,,,,
241974,1745298702233,0.0,-113,,-0.15,-0.05,0.76,1,-0,-1,0.78,1.08,72,3054,0.0,3.54,,12.84,1.252,104.2,,24.6,5,0,0,0,0,0.0,0.0,0.0,0.0,2.26,,,0,0,0,0,0,0,0,0,0,0,0,0,0,0,0,0,,0,,,,0.0,38.986019,-76.95002,0.0,50.7,36,3,0.7
241994,1745298702253,,,,,,,,,,,,,,,,,,,,,,,,,,,,,,,,,,0,0,0,0,0,0,0,0,0,0,0,0,0,0,0,0,,,,,,,,,,,,,
242014,1745298702273,0.0,-113,,-0.13,-0.01,0.71,2,-0,-1,0.72,1.08,67,3032,0.0,2.94,,12.64,1.253,104.2,,24.6,5,,,,,,,,,,,,0,0,0,0,0,0,0,0,0,0,0,0,0,0,0,0,,,,,,0.0,,,,,,,
242034,1745298702293,,,,,,,,,,,,,,,,,,,,,,,,,,,,,,,,,,0,0,0,0,0,0,0,0,0,0,0,0,0,0,0,0,,,,,,,,,,,,,
242054,1745298702311,0.0,-129,,-0.12,0.01,0.68,2,-0,-1,0.69,1.08,64,2971,0.0,2.93,,12.52,1.253,104.2,,25.0,5,,,,,,,,,,,,0,0,0,0,0,0,0,0,0,0,0,0,0,0,0,0,,,,,,0.0,,,,,,,
242074,1745298702331,,,,,,,,,,,,,,,,,,,,,,,0,0,0,0,0.0,0.0,0.0,0.0,2.26,,,0,0,0,0,0,0,0,0,0,0,0,0,0,0,0,0,,0,,,,,38.986019,-76.95002,0.07,50.7,36,3,0.7
242094,1745298702351,0.0,-106,,-0.12,-0.01,0.67,2,-0,-1,0.68,1.08,63,2901,0.0,2.97,,12.52,1.253,104.2,,25.0,5,,,,,,,,,,,,0,0,0,0,0,0,0,0,0,0,0,0,0,0,0,0,,,,,,0.0,,,,,,,
242114,1745298702371,,,,,,,,,,,,,,,,,,,,,,,,,,,,,,,,,,0,0,0,0,0,0,0,0,0,0,0,0,0,0,0,0,,,,,,,,,,,,,
242134,1745298702391,0.0,-98,,-0.14,-0.05,0.73,2,-0,-1,0.74,1.08,69,2901,0.0,2.97,,12.49,1.253,104.2,,23.1,5,,,,,,,,,,,,0,0,0,0,0,0,0,0,0,0,0,0,0,0,0,0,,,,,,0.0,,,,,,,
242154,1745298702413,,,,,,,,,,,,,,,,,,,,,,,,,,,,,,,,,,0,0,0,0,0,0,0,0,0,0,0,0,0,0,0,0,,,,,,,,,,,,,
242174,1745298702433,0.0,-98,,-0.12,-0.05,0.79,2,-0,-1,0.8,1.08,75,2810,0.0,3.03,,12.49,1.252,104.2,,23.1,5,0,0,0,0,0.0,0.0,0.0,0.0,2.26,,,0,0,0,0,0,0,0,0,0,0,0,0,0,0,0,0,,0,,,,0.0,38.986019,-76.95002,0.04,50.7,36,3,0.7
242194,1745298702453,,,,,,,,,,,,,,,,,,,,,,,,,,,,,,,,,,0,0,0,0,0,0,0,0,0,0,0,0,0,0,0,0,,,,,,,,,,,,,
242214,1745298702473,0.0,-106,,-0.12,-0.03,0.78,1,-0,-1,0.79,1.08,74,2775,0.6,3.06,,12.64,1.251,104.2,,23.1,5,,,,,,,,,,,,0,0,0,0,0,0,0,0,0,0,0,0,0,0,0,0,,,,,,0.0,,,,,,,
242234,1745298702493,,,,,,,,,,,,,,,,,,,,,,,,,,,,,,,,,,0,0,0,0,0,0,0,0,0,0,0,0,0,0,0,0,,,,,,,,,,,,,
242254,1745298702511,0.0,-113,,-0.12,-0.04,0.83,1,-0,-1,0.84,1.08,78,2725,4.7,3.68,,13.0,1.25,104.2,,22.4,5,,,,,,,,,,,,0,0,0,0,0,0,0,0,0,0,0,0,0,0,0,0,,,,,,0.0,,,,,,,
242274,1745298702531,,,,,,,,,,,,,,,,,,,,,,,0,0,0,0,0.0,0.0,0.0,0.0,2.26,,,0,0,0,0,0,0,0,0,0,0,0,0,0,0,0,0,,0,,,,,38.986019,-76.95002,0.05,50.7,36,3,0.7
242294,1745298702551,0.0,-98,,-0.12,-0.03,0.84,1,-0,-1,0.84,1.08,79,2609,5.9,3.78,,13.0,1.25,104.2,,22.4,5,,,,,,,,,,,,0,0,0,0,0,0,0,0,0,0,0,0,0,0,0,0,,,,,,0.0,,,,,,,
242314,1745298702571,,,,,,,,,,,,,,,,,,,,,,,,,,,,,,,,,,0,0,0,0,0,0,0,0,0,0,0,0,0,0,0,0,,,,,,,,,,,,,
242334,1745298702591,0.0,-117,,-0.11,-0.03,0.86,1,-0,-1,0.87,1.08,80,2609,5.9,3.78,,13.31,1.25,104.2,,22.1,5,,,,,,,,,,,,0,0,0,0,0,0,0,0,0,0,0,0,0,0,0,0,,,,,,0.0,,,,,,,
242354,1745298702613,,,,,,,,,,,,,,,,,,,,,,,,,,,,,,,,,,0,0,0,0,0,0,0,0,0,0,0,0,0,0,0,0,,,,,,,,,,,,,
242374,1745298702633,0.0,-110,,-0.11,-0.04,0.9,1,-0,-1,0.9,1.08,84,2662,6.0,3.8,,13.43,1.25,104.2,,22.1,5,0,0,0,0,0.0,0.0,0.0,0.0,2.26,,,0,0,0,0,0,0,0,0,0,0,0,0,0,0,0,0,,0,,,,0.0,38.986019,-76.95002,0.04,50.7,36,3,0.7
242394,1745298702653,,,,,,,,,,,,,,,,,,,,,,,,,,,,,,,,,,0,0,0,0,0,0,0,0,0,0,0,0,0,0,0,0,,,,,,,,,,,,,
242414,1745298702673,0.0,-121,,-0.09,0.01,0.86,1,-0,-0,0.86,1.08,80,2739,0.0,3.1,,13.12,1.25,104.2,,22.1,5,,,,,,,,,,,,0,0,0,0,0,0,0,0,0,0,0,0,0,0,0,0,,,,,,0.0,,,,,,,
242434,1745298702693,,,,,,,,,,,,,,,,,,,,,,,,,,,,,,,,,,0,0,0,0,0,0,0,0,0,0,0,0,0,0,0,0,,,,,,,,,,,,,
242454,1745298702711,0.0,-113,,-0.1,-0.02,0.89,1,-0,-1,0.9,1.08,83,2760,0.0,3.07,,12.91,1.252,104.2,,22.4,5,,,,,,,,,,,,0,0,0,0,0,0,0,0,0,0,0,0,0,0,0,0,,,,,,0.0,,,,,,,
242474,1745298702731,,,,,,,,,,,,,,,,,,,,,,,0,0,0,0,0.0,0.0,0.0,0.0,2.26,,,0,0,0,0,0,0,0,0,0,0,0,0,0,0,0,0,,0,,,,,38.986019,-76.95002,0.06,50.7,36,3,0.7
242494,1745298702751,0.0,-102,,-0.09,-0.03,0.93,1,-0,-0,0.93,1.08,87,2757,0.0,3.1,,12.91,1.252,104.2,,22.4,5,,,,,,,,,,,,0,0,0,0,0,0,0,0,0,0,0,0,0,0,0,0,,,,,,0.0,,,,,,,
242514,1745298702771,,,,,,,,,,,,,,,,,,,,,,,,,,,,,,,,,,0,0,0,0,0,0,0,0,0,0,0,0,0,0,0,0,,,,,,,,,,,,,
242534,1745298702791,0.0,-106,,-0.09,-0.01,0.9,1,-0,-0,0.91,1.08,84,2757,0.0,3.1,,12.84,1.253,104.2,,21.9,5,,,,,,,,,,,,0,0,0,0,0,0,0,0,0,0,0,0,0,0,0,0,,,,,,0.0,,,,,,,
242554,1745298702812,,,,,,,,,,,,,,,,,,,,,,,,,,,,,,,,,,0,0,0,0,0,0,0,0,0,0,0,0,0,0,0,0,,,,,,,,,,,,,
242574,1745298702832,0.0,-102,13.28,-0.08,-0.03,0.94,0,-0,-0,0.95,1.08,88,2687,3.7,3.37,15,12.95,1.253,102.4,167,21.9,5,0,0,0,0,0.0,0.0,0.0,0.0,2.26,0,1.0,0,0,0,0,0,0,0,0,0,0,0,0,0,0,0,0,0,0,1.0,0,0,0.0,38.986019,-76.95002,0.13,50.7,36,3,0.7
242594,1745298702852,,,,,,,,,,,,,,,,,,,,,,,,,,,,,,,,,,0,0,0,0,0,0,0,0,0,0,0,0,0,0,0,0,,,,,,,,,,,,,
242614,1745298702872,0.0,-113,,-0.09,-0.05,0.93,1,-0,-0,0.93,1.08,87,2635,10.8,3.89,,13.49,1.252,102.4,,21.9,5,,,,,,,,,,,,0,0,0,0,0,0,0,0,0,0,0,0,0,0,0,0,,,,,,0.0,,,,,,,
242634,1745298702892,,,,,,,,,,,,,,,,,,,,,,,,,,,,,,,,,,0,0,0,0,0,0,0,0,0,0,0,0,0,0,0,0,,,,,,,,,,,,,
242654,1745298702912,0.0,-113,,-0.09,-0.05,0.97,0,-0,-0,0.97,1.08,91,2680,12.7,3.96,,13.8,1.251,102.4,,21.1,5,,,,,,,,,,,,0,0,0,0,0,0,0,0,0,0,0,0,0,0,0,0,,,,,,0.0,,,,,,,
242674,1745298702932,,,,,,,,,,,,,,,,,,,,,,,0,0,0,0,0.0,0.0,0.0,0.0,2.26,,,0,0,0,0,0,0,0,0,0,0,0,0,0,0,0,0,,0,,,,,38.986019,-76.95002,0.09,50.7,36,3,0.7
242694,1745298702952,0.0,-106,,-0.08,-0.04,0.95,0,-0,-0,0.95,1.08,89,2739,13.0,4.05,,13.8,1.251,102.4,,21.1,5,,,,,,,,,,,,0,0,0,0,0,0,0,0,0,0,0,0,0,0,0,0,,,,,,0.0,,,,,,,
242714,1745298702972,,,,,,,,,,,,,,,,,,,,,,,,,,,,,,,,,,0,0,0,0,0,0,0,0,0,0,0,0,0,0,0,0,,,,,,,,,,,,,
242734,1745298702992,0.0,-117,,-0.07,-0.02,0.95,0,-0,-0,0.95,1.08,88,2739,13.0,4.05,,13.83,1.25,102.4,,23.1,5,,,,,,,,,,,,0,0,0,0,0,0,0,0,0,0,0,0,0,0,0,0,,,,,,0.0,,,,,,,
242754,1745298703002,,,,,,,,,,,,,,,,,,,,,,,,,,,,,,,,,,0,0,0,0,0,0,0,0,0,0,0,0,0,0,0,0,,,,,,,,,,,,,
242774,1745298703022,0.0,-121,,-0.09,-0.03,0.93,0,-0,-0,0.93,1.08,86,2832,0.0,3.07,,13.37,1.25,102.4,,23.1,5,0,0,0,0,0.0,0.0,0.0,0.0,2.26,,,0,0,0,0,0,0,0,0,0,0,0,0,0,0,0,0,,0,,,,0.0,38.986019,-76.95002,0.04,50.7,36,3,0.7
242794,1745298703042,,,,,,,,,,,,,,,,,,,,,,,,,,,,,,,,,,0,0,0,0,0,0,0,0,0,0,0,0,0,0,0,0,,,,,,,,,,,,,
242814,1745298703062,0.0,-102,,-0.1,-0.07,0.96,0,-0,-0,0.97,1.08,90,2904,0.0,3.02,,13.05,1.25,102.4,,23.1,5,,,,,,,,,,,,0,0,0,0,0,0,0,0,0,0,0,0,0,0,0,0,,,,,,0.0,,,,,,,
242834,1745298703082,,,,,,,,,,,,,,,,,,,,,,,,,,,,,,,,,,0,0,0,0,0,0,0,0,0,0,0,0,0,0,0,0,,,,,,,,,,,,,
242854,1745298703114,0.0,-113,,-0.1,-0.11,1.0,0,-0,-0,1.01,1.08,94,2892,0.0,3.05,,12.85,1.25,102.4,,23.1,5,,,,,,,,,,,,0,0,0,0,0,0,0,0,0,0,0,0,0,0,0,0,,,,,,0.0,,,,,,,
242874,1745298703134,,,,,,,,,,,,,,,,,,,,,,,0,0,0,0,0.0,0.0,0.0,0.0,2.26,,,0,0,0,0,0,0,0,0,0,0,0,0,0,0,0,0,,0,,,,,38.986019,-76.95002,0.05,50.7,36,3,0.7
242894,1745298703154,0.0,-106,,-0.1,-0.1,0.99,-0,-0,-0,1.0,1.08,93,2807,0.0,3.04,,12.85,1.25,102.4,,23.1,5,,,,,,,,,,,,0,0,0,0,0,0,0,0,0,0,0,0,0,0,0,0,,,,,,0.0,,,,,,,
242914,1745298703174,,,,,,,,,,,,,,,,,,,,,,,,,,,,,,,,,,0,0,0,0,0,0,0,0,0,0,0,0,0,0,0,0,,,,,,,,,,,,,
242934,1745298703194,0.0,-106,,-0.11,-0.09,0.98,0,-0,-0,0.99,1.08,92,2807,0.0,3.04,,12.76,1.251,102.4,,22.5,5,,,,,,,,,,,,0,0,0,0,0,0,0,0,0,0,0,0,0,0,0,0,,,,,,0.0,,,,,,,
242954,1745298703210,,,,,,,,,,,,,,,,,,,,,,,,,,,,,,,,,,0,0,0,0,0,0,0,0,0,0,0,0,0,0,0,0,,,,,,,,,,,,,
242974,1745298703230,0.0,-106,,-0.1,-0.11,1.01,0,-0,-0,1.02,1.08,95,2769,0.0,3.09,,12.72,1.252,102.4,,22.5,5,0,0,0,0,0.0,0.0,0.0,0.0,2.26,,,0,0,0,0,0,0,0,0,0,0,0,0,0,0,0,0,,0,,,,0.0,38.986019,-76.95002,0.05,50.7,36,3,0.7
242994,1745298703250,,,,,,,,,,,,,,,,,,,,,,,,,,,,,,,,,,0,0,0,0,0,0,0,0,0,0,0,0,0,0,0,0,,,,,,,,,,,,,
243014,1745298703270,0.0,-110,,-0.1,-0.09,0.97,0,-0,-0,0.98,1.08,91,2671,0.0,3.07,,12.8,1.252,102.4,,22.5,5,,,,,,,,,,,,0,0,0,0,0,0,0,0,0,0,0,0,0,0,0,0,,,,,,0.0,,,,,,,
243034,1745298703290,,,,,,,,,,,,,,,,,,,,,,,,,,,,,,,,,,0,0,0,0,0,0,0,0,0,0,0,0,0,0,0,0,,,,,,,,,,,,,
243054,1745298703312,0.0,-113,,-0.09,-0.08,1.01,-0,-0,0,1.01,1.08,94,2543,0.0,3.12,,12.91,1.253,102.4,,21.8,5,,,,,,,,,,,,0,0,0,0,0,0,0,0,0,0,0,0,0,0,0,0,,,,,,0.0,,,,,,,
243074,1745298703332,,,,,,,,,,,,,,,,,,,,,,,0,0,0,0,0.0,0.0,0.0,0.0,2.26,,,0,0,0,0,0,0,0,0,0,0,0,0,0,0,0,0,,0,,,,,38.986019,-76.95002,0.09,50.7,36,3,0.7
243094,1745298703352,0.0,-95,,-0.1,-0.07,0.99,0,-0,-0,1.0,1.08,93,2575,0.0,3.14,,12.91,1.253,102.4,,21.8,5,,,,,,,,,,,,0,0,0,0,0,0,0,0,0,0,0,0,0,0,0,0,,,,,,0.0,,,,,,,
243114,1745298703372,,,,,,,,,,,,,,,,,,,,,,,,,,,,,,,,,,0,0,0,0,0,0,0,0,0,0,0,0,0,0,0,0,,,,,,,,,,,,,
243134,1745298703392,0.0,-102,,-0.09,-0.08,1.0,0,-0,-0,1.01,1.08,93,2575,0.0,3.14,,12.91,1.252,102.4,,20.8,5,,,,,,,,,,,,0,0,0,0,0,0,0,0,0,0,0,0,0,0,0,0,,,,,,0.0,,,,,,,
243154,1745298703412,,,,,,,,,,,,,,,,,,,,,,,,,,,,,,,,,,0,0,0,0,0,0,0,0,0,0,0,0,0,0,0,0,,,,,,,,,,,,,
243174,1745298703432,0.0,-98,,-0.08,-0.08,0.98,0,-0,-0,0.99,1.08,92,2490,0.0,3.16,,12.93,1.251,102.4,,20.8,5,0,0,0,0,0.0,0.0,0.0,0.0,2.26,,,0,0,0,0,0,0,0,0,0,0,0,0,0,0,0,0,,0,,,,0.0,38.986019,-76.95002,0.05,50.7,36,3,0.7
243194,1745298703452,,,,,,,,,,,,,,,,,,,,,,,,,,,,,,,,,,0,0,0,0,0,0,0,0,0,0,0,0,0,0,0,0,,,,,,,,,,,,,
243214,1745298703472,0.0,-102,,-0.09,-0.06,0.98,-0,-0,0,0.99,1.08,92,2497,0.0,3.16,,13.04,1.25,102.4,,20.8,5,,,,,,,,,,,,0,0,0,0,0,0,0,0,0,0,0,0,0,0,0,0,,,,,,0.0,,,,,,,
243234,1745298703492,,,,,,,,,,,,,,,,,,,,,,,,,,,,,,,,,,0,0,0,0,0,0,0,0,0,0,0,0,0,0,0,0,,,,,,,,,,,,,
243254,1745298703512,0.0,-117,,-0.08,-0.06,0.98,0,-0,0,0.98,1.08,91,2416,4.8,3.6,,13.37,1.249,102.4,,20.1,5,,,,,,,,,,,,0,0,0,0,0,0,0,0,0,0,0,0,0,0,0,0,,,,,,0.0,,,,,,,
243274,1745298703532,,,,,,,,,,,,,,,,,,,,,,,0,0,0,0,0.0,0.0,0.0,0.0,2.26,,,0,0,0,0,0,0,0,0,0,0,0,0,0,0,0,0,,0,,,,,38.986019,-76.95002,0.06,50.7,36,3,0.7
243294,1745298703552,0.0,-102,,-0.08,-0.08,1.0,-0,-0,0,1.0,1.08,93,2395,6.6,3.8,,13.37,1.249,102.4,,20.1,5,,,,,,,,,,,,0,0,0,0,0,0,0,0,0,0,0,0,0,0,0,0,,,,,,0.0,,,,,,,
243314,1745298703572,,,,,,,,,,,,,,,,,,,,,,,,,,,,,,,,,,0,0,0,0,0,0,0,0,0,0,0,0,0,0,0,0,,,,,,,,,,,,,
243334,1745298703592,0.0,-102,,-0.09,-0.09,1.01,0,-0,0,1.02,1.08,95,2395,6.6,3.8,,13.68,1.249,102.4,,20.0,5,,,,,,,,,,,,0,0,0,0,0,0,0,0,0,0,0,0,0,0,0,0,,,,,,0.0,,,,,,,
243354,1745298703612,,,,,,,,,,,,,,,,,,,,,,,,,,,,,,,,,,0,0,0,0,0,0,0,0,0,0,0,0,0,0,0,0,,,,,,,,,,,,,
243374,1745298703632,0.0,-113,,-0.08,-0.08,1.01,-0,-0,0,1.01,1.08,94,2443,7.4,3.81,,13.83,1.25,102.4,,20.0,5,0,0,0,0,0.0,0.0,0.0,0.0,2.26,,,0,0,0,0,0,0,0,0,0,0,0,0,0,0,0,0,,0,,,,0.0,38.986019,-76.95002,0.13,50.7,36,3,0.7
243394,1745298703652,,,,,,,,,,,,,,,,,,,,,,,,,,,,,,,,,,0,0,0,0,0,0,0,0,0,0,0,0,0,0,0,0,,,,,,,,,,,,,
243414,1745298703672,0.0,-98,,-0.09,-0.08,1.02,-0,-0,-0,1.02,1.08,95,2498,0.4,3.8,,13.63,1.251,102.4,,20.0,5,,,,,,,,,,,,0,0,0,0,0,0,0,0,0,0,0,0,0,0,0,0,,,,,,0.0,,,,,,,
243434,1745298703692,,,,,,,,,,,,,,,,,,,,,,,,,,,,,,,,,,0,0,0,0,0,0,0,0,0,0,0,0,0,0,0,0,,,,,,,,,,,,,
243454,1745298703714,0.0,-125,,-0.08,-0.05,1.01,-0,-0,0,1.01,1.08,94,2702,0.0,3.17,,13.25,1.253,102.4,,21.0,5,,,,,,,,,,,,0,0,0,0,0,0,0,0,0,0,0,0,0,0,0,0,,,,,,0.0,,,,,,,
243474,1745298703734,,,,,,,,,,,,,,,,,,,,,,,0,0,0,0,0.0,0.0,0.0,0.0,2.26,,,0,0,0,0,0,0,0,0,0,0,0,0,0,0,0,0,,0,,,,,38.986019,-76.95002,0.13,50.7,36,3,0.7
243494,1745298703754,0.0,-91,,-0.09,-0.05,1.0,0,-0,-0,1.0,1.08,93,2716,0.0,3.13,,13.25,1.253,102.4,,21.0,5,,,,,,,,,,,,0,0,0,0,0,0,0,0,0,0,0,0,0,0,0,0,,,,,,0.0,,,,,,,
243514,1745298703774,,,,,,,,,,,,,,,,,,,,,,,,,,,,,,,,,,0,0,0,0,0,0,0,0,0,0,0,0,0,0,0,0,,,,,,,,,,,,,
243534,1745298703794,0.0,-95,,-0.08,-0.06,1.0,0,-0,0,1.0,1.08,93,2716,0.0,3.13,,13.01,1.253,102.4,,21.1,5,,,,,,,,,,,,0,0,0,0,0,0,0,0,0,0,0,0,0,0,0,0,,,,,,0.0,,,,,,,
243554,1745298703813,,,,,,,,,,,,,,,,,,,,,,,,,,,,,,,,,,0,0,0,0,0,0,0,0,0,0,0,0,0,0,0,0,,,,,,,,,,,,,
243574,1745298703833,0.0,-110,13.28,-0.09,-0.06,1.0,0,-0,-0,1.01,1.08,94,2645,1.3,3.14,15,13.03,1.253,102.4,165,21.1,5,0,0,0,0,0.0,0.0,0.0,0.0,2.25,0,1.0,0,0,0,0,0,0,0,0,0,0,0,0,0,0,0,0,0,0,1.0,0,0,0.0,38.986019,-76.95002,0.08,50.7,36,3,0.7
243594,1745298703853,,,,,,,,,,,,,,,,,,,,,,,,,,,,,,,,,,0,0,0,0,0,0,0,0,0,0,0,0,0,0,0,0,,,,,,,,,,,,,
243614,1745298703873,0.0,-98,,-0.08,-0.05,0.99,0,-0,0,0.99,1.08,92,2610,9.3,3.86,,13.52,1.252,102.4,,21.1,5,,,,,,,,,,,,0,0,0,0,0,0,0,0,0,0,0,0,0,0,0,0,,,,,,0.0,,,,,,,
243634,1745298703893,,,,,,,,,,,,,,,,,,,,,,,,,,,,,,,,,,0,0,0,0,0,0,0,0,0,0,0,0,0,0,0,0,,,,,,,,,,,,,
243654,1745298703913,0.0,-117,,-0.08,-0.04,0.99,0,-0,0,0.99,1.08,92,2654,10.6,3.93,,13.71,1.25,102.4,,21.0,5,,,,,,,,,,,,0,0,0,0,0,0,0,0,0,0,0,0,0,0,0,0,,,,,,0.0,,,,,,,
243674,1745298703933,,,,,,,,,,,,,,,,,,,,,,,0,0,0,0,0.0,0.0,0.0,0.0,2.26,,,0,0,0,0,0,0,0,0,0,0,0,0,0,0,0,0,,0,,,,,38.986019,-76.95002,0.33,50.7,36,3,0.7
243694,1745298703953,0.0,-102,,-0.08,-0.06,1.01,0,-0,0,1.02,1.08,94,2694,10.9,4.0,,13.71,1.25,102.4,,21.0,5,,,,,,,,,,,,0,0,0,0,0,0,0,0,0,0,0,0,0,0,0,0,,,,,,0.0,,,,,,,
243714,1745298703973,,,,,,,,,,,,,,,,,,,,,,,,,,,,,,,,,,0,0,0,0,0,0,0,0,0,0,0,0,0,0,0,0,,,,,,,,,,,,,
243734,1745298703993,0.0,-106,,-0.08,-0.05,1.0,0,-0,0,1.0,1.08,93,2694,10.9,4.0,,13.8,1.249,102.4,,22.7,5,,,,,,,,,,,,0,0,0,0,0,0,0,0,0,0,0,0,0,0,0,0,,,,,,0.0,,,,,,,
243754,1745298704003,,,,,,,,,,,,,,,,,,,,,,,,,,,,,,,,,,0,0,0,0,0,0,0,0,0,0,0,0,0,0,0,0,,,,,,,,,,,,,
243774,1745298704023,0.0,-106,,-0.09,-0.04,0.95,0,-0,-0,0.96,1.08,89,2781,0.0,3.09,,13.41,1.25,102.4,,22.7,5,0,0,0,0,0.0,0.0,0.0,0.0,2.26,,,0,0,0,0,0,0,0,0,0,0,0,0,0,0,0,0,,0,,,,0.0,38.986019,-76.95002,0.64,50.7,36,3,0.7
243794,1745298704043,,,,,,,,,,,,,,,,,,,,,,,,,,,,,,,,,,0,0,0,0,0,0,0,0,0,0,0,0,0,0,0,0,,,,,,,,,,,,,
243814,1745298704063,0.0,-83,,-0.09,-0.08,1.0,0,-0,-0,1.0,1.08,93,2825,0.0,3.05,,13.11,1.25,102.4,,22.7,5,,,,,,,,,,,,0,0,0,0,0,0,0,0,0,0,0,0,0,0,0,0,,,,,,0.0,,,,,,,
243834,1745298704083,,,,,,,,,,,,,,,,,,,,,,,,,,,,,,,,,,0,0,0,0,0,0,0,0,0,0,0,0,0,0,0,0,,,,,,,,,,,,,
243854,1745298704111,0.0,-102,,-0.09,-0.08,1.02,0,-0,-0,1.02,1.08,95,2820,0.0,3.09,,12.91,1.25,102.4,,22.6,5,,,,,,,,,,,,0,0,0,0,0,0,0,0,0,0,0,0,0,0,0,0,,,,,,0.0,,,,,,,
243874,1745298704131,,,,,,,,,,,,,,,,,,,,,,,0,0,0,0,0.0,0.0,0.0,0.0,2.26,,,0,0,0,0,0,0,0,0,0,0,0,0,0,0,0,0,,0,,,,,38.986019,-76.95002,0.08,50.7,36,3,0.7
243894,1745298704151,0.0,-95,,-0.07,-0.04,0.96,0,-0,-0,0.97,1.08,90,2775,0.0,3.08,,12.91,1.25,102.4,,22.6,5,,,,,,,,,,,,0,0,0,0,0,0,0,0,0,0,0,0,0,0,0,0,,,,,,0.0,,,,,,,
243914,1745298704171,,,,,,,,,,,,,,,,,,,,,,,,,,,,,,,,,,0,0,0,0,0,0,0,0,0,0,0,0,0,0,0,0,,,,,,,,,,,,,
243934,1745298704191,0.0,-102,,-0.08,-0.07,1.0,0,-0,-0,1.01,1.08,93,2775,0.0,3.08,,12.88,1.252,102.4,,22.0,5,,,,,,,,,,,,0,0,0,0,0,0,0,0,0,0,0,0,0,0,0,0,,,,,,0.0,,,,,,,
243954,1745298704213,,,,,,,,,,,,,,,,,,,,,,,,,,,,,,,,,,0,0,0,0,0,0,0,0,0,0,0,0,0,0,0,0,,,,,,,,,,,,,
243974,1745298704233,0.0,-102,,-0.08,-0.04,0.98,-0,-0,0,0.99,1.08,92,2727,7.6,3.89,,13.28,1.253,102.4,,22.0,5,0,0,0,0,0.0,0.0,0.0,0.0,2.26,,,0,0,0,0,0,0,0,0,0,0,0,0,0,0,0,0,,0,,,,0.0,38.986019,-76.95002,0.0,50.7,36,3,0.7
243994,1745298704253,,,,,,,,,,,,,,,,,,,,,,,,,,,,,,,,,,0,0,0,0,0,0,0,0,0,0,0,0,0,0,0,0,,,,,,,,,,,,,
244014,1745298704273,0.0,-95,,-0.08,-0.03,0.97,0,-0,-0,0.97,1.08,90,2711,9.4,3.94,,13.56,1.253,102.4,,22.0,5,,,,,,,,,,,,0,0,0,0,0,0,0,0,0,0,0,0,0,0,0,0,,,,,,0.0,,,,,,,
244034,1745298704293,,,,,,,,,,,,,,,,,,,,,,,,,,,,,,,,,,0,0,0,0,0,0,0,0,0,0,0,0,0,0,0,0,,,,,,,,,,,,,
244054,1745298704313,0.0,-110,,-0.09,-0.07,1.01,0,-0,-0,1.02,1.08,94,2779,10.2,3.9,,13.69,1.253,102.4,,22.4,5,,,,,,,,,,,,0,0,0,0,0,0,0,0,0,0,0,0,0,0,0,0,,,,,,0.0,,,,,,,
244074,1745298704333,,,,,,,,,,,,,,,,,,,,,,,0,0,0,0,0.0,0.0,0.0,0.0,2.25,,,0,0,0,0,0,0,0,0,0,0,0,0,0,0,0,0,,0,,,,,38.986019,-76.95002,0.04,50.7,36,3,0.7
244094,1745298704353,0.0,-110,,-0.09,-0.09,1.06,0,-0,-0,1.07,1.08,99,2859,9.0,3.93,,13.69,1.253,102.4,,22.4,5,,,,,,,,,,,,0,0,0,0,0,0,0,0,0,0,0,0,0,0,0,0,,,,,,0.0,,,,,,,
244114,1745298704373,,,,,,,,,,,,,,,,,,,,,,,,,,,,,,,,,,0,0,0,0,0,0,0,0,0,0,0,0,0,0,0,0,,,,,,,,,,,,,
244134,1745298704393,0.0,-106,,-0.08,-0.13,1.1,-0,-0,0,1.12,1.12,100,2859,9.0,3.93,,13.68,1.252,102.4,,23.8,5,,,,,,,,,,,,0,0,0,0,0,0,0,0,0,0,0,0,0,0,0,0,,,,,,0.0,,,,,,,
244154,1745298704413,,,,,,,,,,,,,,,,,,,,,,,,,,,,,,,,,,0,0,0,0,0,0,0,0,0,0,0,0,0,0,0,0,,,,,,,,,,,,,
244174,1745298704433,0.0,-98,,-0.09,-0.19,1.16,-0,-0,0,1.18,1.18,100,3061,0.0,3.02,,13.16,1.251,102.4,,23.8,5,0,0,0,0,0.0,0.0,0.0,0.0,2.26,,,0,0,0,0,0,0,0,0,0,0,0,0,0,0,0,0,,0,,,,0.0,38.986019,-76.95002,0.04,50.7,36,3,0.7
244194,1745298704453,,,,,,,,,,,,,,,,,,,,,,,,,,,,,,,,,,0,0,0,0,0,0,0,0,0,0,0,0,0,0,0,0,,,,,,,,,,,,,
244214,1745298704473,0.0,-102,,-0.09,-0.22,1.2,-0,-0,0,1.22,1.22,100,3064,0.0,2.97,,12.83,1.25,102.4,,23.8,5,,,,,,,,,,,,0,0,0,0,0,0,0,0,0,0,0,0,0,0,0,0,,,,,,0.0,,,,,,,
244234,1745298704493,,,,,,,,,,,,,,,,,,,,,,,,,,,,,,,,,,0,0,0,0,0,0,0,0,0,0,0,0,0,0,0,0,,,,,,,,,,,,,
244254,1745298704513,0.0,-110,,-0.09,-0.25,1.23,-0,-0,0,1.26,1.26,100,2987,0.0,2.95,,12.69,1.25,102.4,,24.8,5,,,,,,,,,,,,0,0,0,0,0,0,0,0,0,0,0,0,0,0,0,0,,,,,,0.0,,,,,,,
244274,1745298704533,,,,,,,,,,,,,,,,,,,,,,,0,0,0,0,0.0,0.0,0.0,0.0,2.26,,,0,0,0,0,0,0,0,0,0,0,0,0,0,0,0,0,,0,,,,,38.986019,-76.95002,0.06,50.7,36,3,0.7
244294,1745298704553,0.0,-113,,-0.08,-0.25,1.25,-0,-0,1,1.28,1.28,100,2929,3.4,3.25,,12.69,1.25,102.4,,24.8,5,,,,,,,,,,,,0,0,0,0,0,0,0,0,0,0,0,0,0,0,0,0,,,,,,0.0,,,,,,,
244314,1745298704573,,,,,,,,,,,,,,,,,,,,,,,,,,,,,,,,,,0,0,0,0,0,0,0,0,0,0,0,0,0,0,0,0,,,,,,,,,,,,,
244334,1745298704593,0.0,-110,,-0.07,-0.2,1.21,-0,-0,1,1.23,1.28,96,2929,3.4,3.25,,12.88,1.25,102.4,,23.2,5,,,,,,,,,,,,0,0,0,0,0,0,0,0,0,0,0,0,0,0,0,0,,,,,,0.0,,,,,,,
244354,1745298704613,,,,,,,,,,,,,,,,,,,,,,,,,,,,,,,,,,0,0,0,0,0,0,0,0,0,0,0,0,0,0,0,0,,,,,,,,,,,,,
244374,1745298704633,0.0,-98,,-0.05,-0.15,1.14,-0,-0,1,1.15,1.28,90,2863,5.0,3.78,,13.13,1.25,102.4,,23.2,5,0,0,0,0,0.0,0.0,0.0,0.0,2.26,,,0,0,0,0,0,0,0,0,0,0,0,0,0,0,0,0,,0,,,,0.0,38.986019,-76.95002,0.07,50.7,36,3,0.7
244394,1745298704653,,,,,,,,,,,,,,,,,,,,,,,,,,,,,,,,,,0,0,0,0,0,0,0,0,0,0,0,0,0,0,0,0,,,,,,,,,,,,,
244414,1745298704673,0.0,-113,,-0.05,-0.14,1.08,0,-0,0,1.09,1.28,85,2891,5.3,3.77,,13.23,1.251,102.4,,23.2,5,,,,,,,,,,,,0,0,0,0,0,0,0,0,0,0,0,0,0,0,0,0,,,,,,0.0,,,,,,,
244434,1745298704693,,,,,,,,,,,,,,,,,,,,,,,,,,,,,,,,,,0,0,0,0,0,0,0,0,0,0,0,0,0,0,0,0,,,,,,,,,,,,,
244454,1745298704713,0.0,-106,,-0.07,-0.14,1.05,0,-0,-0,1.06,1.28,83,2951,0.0,3.75,,13.04,1.253,102.4,,23.2,5,,,,,,,,,,,,0,0,0,0,0,0,0,0,0,0,0,0,0,0,0,0,,,,,,0.0,,,,,,,
244474,1745298704733,,,,,,,,,,,,,,,,,,,,,,,0,0,0,0,0.0,0.0,0.0,0.0,2.26,,,0,0,0,0,0,0,0,0,0,0,0,0,0,0,0,0,,0,,,,,38.986019,-76.95002,0.0,50.7,36,3,0.7
244494,1745298704753,0.0,-113,,-0.09,-0.15,1.04,0,-0,-0,1.05,1.28,82,2937,0.0,2.98,,13.04,1.253,102.4,,23.2,5,,,,,,,,,,,,0,0,0,0,0,0,0,0,0,0,0,0,0,0,0,0,,,,,,0.0,,,,,,,
244514,1745298704773,,,,,,,,,,,,,,,,,,,,,,,,,,,,,,,,,,0,0,0,0,0,0,0,0,0,0,0,0,0,0,0,0,,,,,,,,,,,,,
244534,1745298704793,0.0,-98,,-0.11,-0.16,1.06,0,-0,-0,1.08,1.28,84,2937,0.0,2.98,,12.87,1.252,102.4,,24.0,5,,,,,,,,,,,,0,0,0,0,0,0,0,0,0,0,0,0,0,0,0,0,,,,,,0.0,,,,,,,
244554,1745298704810,,,,,,,,,,,,,,,,,,,,,,,,,,,,,,,,,,0,0,0,0,0,0,0,0,0,0,0,0,0,0,0,0,,,,,,,,,,,,,
244574,1745298704830,0.0,-102,13.35,-0.13,-0.16,1.1,0,-0,-0,1.11,1.28,87,2919,0.0,2.98,15,12.75,1.253,102.4,164,24.0,5,0,0,0,0,0.0,0.0,0.0,0.0,2.26,0,1.0,0,0,0,0,0,0,0,0,0,0,0,0,0,0,0,0,0,0,1.0,0,0,0.0,38.986019,-76.95002,0.07,50.7,36,3,0.7
244594,1745298704850,,,,,,,,,,,,,,,,,,,,,,,,,,,,,,,,,,0,0,0,0,0,0,0,0,0,0,0,0,0,0,0,0,,,,,,,,,,,,,
244614,1745298704870,0.0,-87,,-0.13,-0.15,1.1,0,-0,-0,1.12,1.28,88,2884,0.0,3.02,,12.63,1.252,102.4,,24.0,5,,,,,,,,,,,,0,0,0,0,0,0,0,0,0,0,0,0,0,0,0,0,,,,,,0.0,,,,,,,
244634,1745298704890,,,,,,,,,,,,,,,,,,,,,,,,,,,,,,,,,,0,0,0,0,0,0,0,0,0,0,0,0,0,0,0,0,,,,,,,,,,,,,
244654,1745298704912,0.0,-117,,-0.12,-0.09,1.07,-0,-0,0,1.08,1.28,85,2830,0.5,3.04,,12.67,1.25,102.4,,22.8,5,,,,,,,,,,,,0,0,0,0,0,0,0,0,0,0,0,0,0,0,0,0,,,,,,0.0,,,,,,,
244674,1745298704932,,,,,,,,,,,,,,,,,,,,,,,0,0,0,0,0.0,0.0,0.0,0.0,2.26,,,0,0,0,0,0,0,0,0,0,0,0,0,0,0,0,0,,0,,,,,38.986019,-76.95002,0.0,50.7,36,3,0.7
244694,1745298704952,0.0,-106,,-0.13,-0.08,1.04,0,-0,-0,1.05,1.28,82,2808,6.5,3.62,,12.67,1.25,102.4,,22.8,5,,,,,,,,,,,,0,0,0,0,0,0,0,0,0,0,0,0,0,0,0,0,,,,,,0.0,,,,,,,
244714,1745298704972,,,,,,,,,,,,,,,,,,,,,,,,,,,,,,,,,,0,0,0,0,0,0,0,0,0,0,0,0,0,0,0,0,,,,,,,,,,,,,
244734,1745298704992,0.0,-106,,-0.13,-0.1,1.06,0,-0,-0,1.07,1.28,84,2808,6.5,3.62,,13.05,1.25,102.4,,22.8,5,,,,,,,,,,,,0,0,0,0,0,0,0,0,0,0,0,0,0,0,0,0,,,,,,0.0,,,,,,,
244754,1745298705002,,,,,,,,,,,,,,,,,,,,,,,,,,,,,,,,,,0,0,0,0,0,0,0,0,0,0,0,0,0,0,0,0,,,,,,,,,,,,,
244774,1745298705022,0.0,-110,,-0.11,-0.07,1.06,-0,-0,0,1.07,1.28,84,2760,9.7,3.91,,13.51,1.251,102.4,,22.8,5,0,0,0,0,0.0,0.0,0.0,0.0,2.26,,,0,0,0,0,0,0,0,0,0,0,0,0,0,0,0,0,,0,,,,0.0,38.986019,-76.95002,0.04,50.7,36,3,0.7
244794,1745298705042,,,,,,,,,,,,,,,,,,,,,,,,,,,,,,,,,,0,0,0,0,0,0,0,0,0,0,0,0,0,0,0,0,,,,,,,,,,,,,
244814,1745298705062,0.0,-110,,-0.09,-0.01,1.01,-0,-0,0,1.01,1.28,79,2824,10.2,3.95,,13.65,1.251,102.4,,22.8,5,,,,,,,,,,,,0,0,0,0,0,0,0,0,0,0,0,0,0,0,0,0,,,,,,0.0,,,,,,,
244834,1745298705082,,,,,,,,,,,,,,,,,,,,,,,,,,,,,,,,,,0,0,0,0,0,0,0,0,0,0,0,0,0,0,0,0,,,,,,,,,,,,,
244854,1745298705112,0.0,-110,,-0.07,0.01,0.94,0,-0,-0,0.94,1.28,73,2980,10.2,3.93,,13.65,1.251,102.4,,23.2,5,,,,,,,,,,,,0,0,0,0,0,0,0,0,0,0,0,0,0,0,0,0,,,,,,0.0,,,,,,,
244874,1745298705132,,,,,,,,,,,,,,,,,,,,,,,0,0,0,0,0.0,0.0,0.0,0.0,2.25,,,0,0,0,0,0,0,0,0,0,0,0,0,0,0,0,0,,0,,,,,38.986019,-76.95002,0.05,50.7,36,3,0.7
244894,1745298705152,0.0,-113,,-0.07,0.02,0.85,1,-0,-0,0.86,1.28,67,3067,10.2,3.96,,13.65,1.251,102.4,,23.2,5,,,,,,,,,,,,0,0,0,0,0,0,0,0,0,0,0,0,0,0,0,0,,,,,,0.0,,,,,,,
244914,1745298705172,,,,,,,,,,,,,,,,,,,,,,,,,,,,,,,,,,0,0,0,0,0,0,0,0,0,0,0,0,0,0,0,0,,,,,,,,,,,,,
244934,1745298705192,0.0,-91,,-0.05,0.04,0.82,1,-0,-0,0.82,1.28,64,3067,10.2,3.96,,13.6,1.252,102.4,,24.9,5,,,,,,,,,,,,0,0,0,0,0,0,0,0,0,0,0,0,0,0,0,0,,,,,,0.0,,,,,,,
244954,1745298705204,,,,,,,,,,,,,,,,,,,,,,,,,,,,,,,,,,0,0,0,0,0,0,0,0,0,0,0,0,0,0,0,0,,,,,,,,,,,,,
244974,1745298705224,0.0,-113,,-0.03,0.02,0.92,0,-0,0,0.92,1.28,72,3186,8.9,3.92,,13.48,1.253,102.4,,24.9,5,0,0,0,0,0.0,0.0,0.0,0.0,2.25,,,0,0,0,0,0,0,0,0,0,0,0,0,0,0,0,0,,0,,,,0.0,38.986019,-76.95002,0.04,50.7,36,3,0.7
244994,1745298705244,,,,,,,,,,,,,,,,,,,,,,,,,,,,,,,,,,0,0,0,0,0,0,0,0,0,0,0,0,0,0,0,0,,,,,,,,,,,,,
245014,1745298705264,0.0,-102,,-0.05,-0.02,0.89,1,-0,-0,0.89,1.28,70,3275,0.0,3.29,,13.05,1.253,102.4,,24.9,5,,,,,,,,,,,,0,0,0,0,0,0,0,0,0,0,0,0,0,0,0,0,,,,,,0.0,,,,,,,
245034,1745298705284,,,,,,,,,,,,,,,,,,,,,,,,,,,,,,,,,,0,0,0,0,0,0,0,0,0,0,0,0,0,0,0,0,,,,,,,,,,,,,
245054,1745298705314,0.0,-117,,-0.04,0.03,0.95,-0,-0,0,0.95,1.28,75,3387,0.0,2.82,,12.64,1.253,102.4,,27.1,5,,,,,,,,,,,,0,0,0,0,0,0,0,0,0,0,0,0,0,0,0,0,,,,,,0.0,,,,,,,
245074,1745298705334,,,,,,,,,,,,,,,,,,,,,,,0,0,0,0,0.0,0.0,0.0,0.0,2.26,,,0,0,0,0,0,0,0,0,0,0,0,0,0,0,0,0,,0,,,,,38.986019,-76.95002,0.05,50.7,36,3,0.7
245094,1745298705354,0.0,-102,,-0.07,-0.05,0.96,1,-0,-0,0.97,1.28,76,3271,0.0,2.81,,12.64,1.253,102.4,,27.1,5,,,,,,,,,,,,0,0,0,0,0,0,0,0,0,0,0,0,0,0,0,0,,,,,,0.0,,,,,,,
245114,1745298705374,,,,,,,,,,,,,,,,,,,,,,,,,,,,,,,,,,0,0,0,0,0,0,0,0,0,0,0,0,0,0,0,0,,,,,,,,,,,,,
245134,1745298705394,0.0,-87,,-0.05,0.04,0.87,1,-0,-0,0.88,1.28,69,3271,0.0,2.81,,12.49,1.251,102.4,,26.1,5,,,,,,,,,,,,0,0,0,0,0,0,0,0,0,0,0,0,0,0,0,0,,,,,,0.0,,,,,,,
245154,1745298705414,,,,,,,,,,,,,,,,,,,,,,,,,,,,,,,,,,0,0,0,0,0,0,0,0,0,0,0,0,0,0,0,0,,,,,,,,,,,,,
245174,1745298705434,0.0,-83,,-0.03,0.04,0.94,-0,-0,0,0.94,1.28,74,3206,2.0,3.28,,12.52,1.25,102.4,,26.1,5,0,0,0,0,0.0,0.0,0.0,0.0,2.26,,,0,0,0,0,0,0,0,0,0,0,0,0,0,0,0,0,,0,,,,0.0,38.986019,-76.95002,0.0,50.7,36,3,0.7
245194,1745298705454,,,,,,,,,,,,,,,,,,,,,,,,,,,,,,,,,,0,0,0,0,0,0,0,0,0,0,0,0,0,0,0,0,,,,,,,,,,,,,
245214,1745298705474,0.0,-87,,-0.03,-0.04,1.02,0,-0,0,1.02,1.28,80,3150,3.8,3.58,,12.69,1.249,102.4,,26.1,5,,,,,,,,,,,,0,0,0,0,0,0,0,0,0,0,0,0,0,0,0,0,,,,,,0.0,,,,,,,
245234,1745298705494,,,,,,,,,,,,,,,,,,,,,,,,,,,,,,,,,,0,0,0,0,0,0,0,0,0,0,0,0,0,0,0,0,,,,,,,,,,,,,
245254,1745298705514,0.0,-98,,-0.05,-0.09,1.07,0,-0,0,1.08,1.28,84,3073,4.1,3.72,,12.85,1.249,102.4,,25.5,5,,,,,,,,,,,,0,0,0,0,0,0,0,0,0,0,0,0,0,0,0,0,,,,,,0.0,,,,,,,
245274,1745298705534,,,,,,,,,,,,,,,,,,,,,,,0,0,0,0,0.0,0.0,0.0,0.0,2.26,,,0,0,0,0,0,0,0,0,0,0,0,0,0,0,0,0,,0,,,,,38.986019,-76.95002,0.05,50.7,36,3,0.7
245294,1745298705554,0.0,-95,,-0.08,-0.11,1.08,0,-0,-0,1.09,1.28,86,3051,4.2,3.73,,12.85,1.249,102.4,,25.5,5,,,,,,,,,,,,0,0,0,0,0,0,0,0,0,0,0,0,0,0,0,0,,,,,,0.0,,,,,,,
245314,1745298705574,,,,,,,,,,,,,,,,,,,,,,,,,,,,,,,,,,0,0,0,0,0,0,0,0,0,0,0,0,0,0,0,0,,,,,,,,,,,,,
245334,1745298705594,0.0,-83,,-0.11,-0.11,1.03,1,-0,-0,1.04,1.28,82,3051,4.2,3.73,,13.0,1.25,102.4,,24.8,5,,,,,,,,,,,,0,0,0,0,0,0,0,0,0,0,0,0,0,0,0,0,,,,,,0.0,,,,,,,
245354,1745298705614,,,,,,,,,,,,,,,,,,,,,,,,,,,,,,,,,,0,0,0,0,0,0,0,0,0,0,0,0,0,0,0,0,,,,,,,,,,,,,
245374,1745298705634,0.0,-98,,-0.11,-0.05,0.94,1,-0,-0,0.94,1.28,74,3123,0.0,3.02,,12.8,1.251,102.4,,24.8,5,0,0,0,0,0.0,0.0,0.0,0.0,2.26,,,0,0,0,0,0,0,0,0,0,0,0,0,0,0,0,0,,0,,,,0.0,38.986019,-76.95002,0.06,50.7,36,3,0.7
245394,1745298705654,,,,,,,,,,,,,,,,,,,,,,,,,,,,,,,,,,0,0,0,0,0,0,0,0,0,0,0,0,0,0,0,0,,,,,,,,,,,,,
245414,1745298705674,0.0,-98,,-0.09,0.01,0.88,1,-0,-0,0.89,1.28,69,3069,0.0,2.91,,12.59,1.252,102.4,,24.8,5,,,,,,,,,,,,0,0,0,0,0,0,0,0,0,0,0,0,0,0,0,0,,,,,,0.0,,,,,,,
245434,1745298705694,,,,,,,,,,,,,,,,,,,,,,,,,,,,,,,,,,0,0,0,0,0,0,0,0,0,0,0,0,0,0,0,0,,,,,,,,,,,,,
245454,1745298705716,0.0,-106,,-0.07,0.06,0.86,1,-0,-0,0.87,1.28,68,3011,0.0,2.92,,12.59,1.252,102.4,,25.0,5,,,,,,,,,,,,0,0,0,0,0,0,0,0,0,0,0,0,0,0,0,0,,,,,,0.0,,,,,,,
245474,1745298705736,,,,,,,,,,,,,,,,,,,,,,,0,0,0,0,0.0,0.0,0.0,0.0,2.25,,,0,0,0,0,0,0,0,0,0,0,0,0,0,0,0,0,,0,,,,,38.986019,-76.95002,0.07,50.7,36,3,0.7
245494,1745298705756,0.0,-91,,-0.05,0.09,0.83,1,-0,-0,0.84,1.28,66,2963,3.5,3.64,,12.59,1.252,102.4,,25.0,5,,,,,,,,,,,,0,0,0,0,0,0,0,0,0,0,0,0,0,0,0,0,,,,,,0.0,,,,,,,
245514,1745298705776,,,,,,,,,,,,,,,,,,,,,,,,,,,,,,,,,,0,0,0,0,0,0,0,0,0,0,0,0,0,0,0,0,,,,,,,,,,,,,
245534,1745298705796,0.0,-98,,-0.04,0.09,0.79,1,-0,-0,0.79,1.28,62,2963,3.5,3.64,,12.77,1.252,102.4,,23.3,5,,,,,,,,,,,,0,0,0,0,0,0,0,0,0,0,0,0,0,0,0,0,,,,,,0.0,,,,,,,
245554,1745298705813,,,,,,,,,,,,,,,,,,,,,,,,,,,,,,,,,,0,0,0,0,0,0,0,0,0,0,0,0,0,0,0,0,,,,,,,,,,,,,
245574,1745298705833,0.0,-91,13.35,-0.06,0.04,0.77,1,-0,-1,0.77,1.28,60,2950,8.0,3.83,15,13.12,1.252,100.6,164,23.3,5,0,0,0,0,0.0,0.0,0.0,0.0,2.26,0,1.0,0,0,0,0,0,0,0,0,0,0,0,0,0,0,0,0,0,0,1.0,0,0,0.0,38.986019,-76.95002,0.04,50.7,36,3,0.7
245594,1745298705853,,,,,,,,,,,,,,,,,,,,,,,,,,,,,,,,,,0,0,0,0,0,0,0,0,0,0,0,0,0,0,0,0,,,,,,,,,,,,,
245614,1745298705873,0.0,-83,,-0.08,0.01,0.75,1,-0,-1,0.75,1.28,59,2958,9.8,3.91,,13.44,1.251,100.6,,23.3,5,,,,,,,,,,,,0,0,0,0,0,0,0,0,0,0,0,0,0,0,0,0,,,,,,0.0,,,,,,,
245634,1745298705893,,,,,,,,,,,,,,,,,,,,,,,,,,,,,,,,,,0,0,0,0,0,0,0,0,0,0,0,0,0,0,0,0,,,,,,,,,,,,,
245654,1745298705913,0.0,-102,,-0.09,0.03,0.69,2,-0,-1,0.7,1.28,55,3033,10.1,3.95,,13.49,1.249,100.6,,24.6,5,,,,,,,,,,,,0,0,0,0,0,0,0,0,0,0,0,0,0,0,0,0,,,,,,0.0,,,,,,,
245674,1745298705933,,,,,,,,,,,,,,,,,,,,,,,0,0,0,0,0.0,0.0,0.0,0.0,2.26,,,0,0,0,0,0,0,0,0,0,0,0,0,0,0,0,0,,0,,,,,38.986019,-76.95002,0.07,50.7,36,3,0.7
245694,1745298705953,0.0,-98,,-0.07,0.12,0.69,1,-0,-1,0.71,1.28,55,3208,9.5,3.94,,13.49,1.249,100.6,,24.6,5,,,,,,,,,,,,0,0,0,0,0,0,0,0,0,0,0,0,0,0,0,0,,,,,,0.0,,,,,,,
245714,1745298705973,,,,,,,,,,,,,,,,,,,,,,,,,,,,,,,,,,0,0,0,0,0,0,0,0,0,0,0,0,0,0,0,0,,,,,,,,,,,,,
245734,1745298705993,0.0,-98,,-0.07,0.07,0.82,0,-0,0,0.83,1.28,65,3208,9.5,3.94,,13.48,1.249,100.6,,25.7,5,,,,,,,,,,,,0,0,0,0,0,0,0,0,0,0,0,0,0,0,0,0,,,,,,0.0,,,,,,,
245754,1745298706005,,,,,,,,,,,,,,,,,,,,,,,,,,,,,,,,,,0,0,0,0,0,0,0,0,0,0,0,0,0,0,0,0,,,,,,,,,,,,,
245774,1745298706025,0.0,-106,,-0.08,0.05,0.8,1,-0,-1,0.8,1.28,63,3293,0.0,3.25,,12.99,1.25,100.6,,25.7,5,0,0,0,0,0.0,0.0,0.0,0.0,2.26,,,0,0,0,0,0,0,0,0,0,0,0,0,0,0,0,0,,0,,,,0.0,38.986019,-76.95002,0.07,50.7,36,3,0.7
245794,1745298706045,,,,,,,,,,,,,,,,,,,,,,,,,,,,,,,,,,0,0,0,0,0,0,0,0,0,0,0,0,0,0,0,0,,,,,,,,,,,,,
245814,1745298706065,0.0,-87,,-0.07,0.13,0.78,0,-0,-0,0.79,1.28,62,3265,0.0,2.84,,12.67,1.249,100.6,,25.7,5,,,,,,,,,,,,0,0,0,0,0,0,0,0,0,0,0,0,0,0,0,0,,,,,,0.0,,,,,,,
245834,1745298706085,,,,,,,,,,,,,,,,,,,,,,,,,,,,,,,,,,0,0,0,0,0,0,0,0,0,0,0,0,0,0,0,0,,,,,,,,,,,,,
245854,1745298706107,0.0,-110,,-0.06,0.02,0.91,0,-0,0,0.91,1.28,71,3244,0.0,2.87,,12.45,1.251,100.6,,26.1,5,,,,,,,,,,,,0,0,0,0,0,0,0,0,0,0,0,0,0,0,0,0,,,,,,0.0,,,,,,,
245874,1745298706127,,,,,,,,,,,,,,,,,,,,,,,0,0,0,0,0.0,0.0,0.0,0.0,2.26,,,0,0,0,0,0,0,0,0,0,0,0,0,0,0,0,0,,0,,,,,38.986019,-76.95002,0.08,50.7,36,3,0.7
245894,1745298706147,0.0,-102,,-0.09,-0.01,0.92,0,-0,-0,0.92,1.28,72,3200,0.0,2.87,,12.45,1.251,100.6,,26.1,5,,,,,,,,,,,,0,0,0,0,0,0,0,0,0,0,0,0,0,0,0,0,,,,,,0.0,,,,,,,
245914,1745298706167,,,,,,,,,,,,,,,,,,,,,,,,,,,,,,,,,,0,0,0,0,0,0,0,0,0,0,0,0,0,0,0,0,,,,,,,,,,,,,
245934,1745298706187,0.0,-98,,-0.1,0.01,0.85,1,-0,-0,0.86,1.28,67,3200,0.0,2.87,,12.33,1.252,100.6,,25.6,5,,,,,,,,,,,,0,0,0,0,0,0,0,0,0,0,0,0,0,0,0,0,,,,,,0.0,,,,,,,
245954,1745298706211,,,,,,,,,,,,,,,,,,,,,,,,,,,,,,,,,,0,0,0,0,0,0,0,0,0,0,0,0,0,0,0,0,,,,,,,,,,,,,
245974,1745298706231,0.0,-98,,-0.1,0.04,0.79,1,-0,-1,0.79,1.28,62,3091,0.0,2.88,,12.33,1.252,100.6,,25.6,5,0,0,0,0,0.0,0.0,0.0,0.0,2.26,,,0,0,0,0,0,0,0,0,0,0,0,0,0,0,0,0,,0,,,,0.0,38.986019,-76.95002,0.05,50.7,36,3,0.7
245994,1745298706251,,,,,,,,,,,,,,,,,,,,,,,,,,,,,,,,,,0,0,0,0,0,0,0,0,0,0,0,0,0,0,0,0,,,,,,,,,,,,,
246014,1745298706271,0.0,-91,,-0.08,0.06,0.74,1,-0,-1,0.75,1.28,59,3043,1.2,3.18,,12.52,1.252,100.6,,25.6,5,,,,,,,,,,,,0,0,0,0,0,0,0,0,0,0,0,0,0,0,0,0,,,,,,0.0,,,,,,,
246034,1745298706291,,,,,,,,,,,,,,,,,,,,,,,,,,,,,,,,,,0,0,0,0,0,0,0,0,0,0,0,0,0,0,0,0,,,,,,,,,,,,,
246054,1745298706315,0.0,-110,,-0.09,0.05,0.73,2,-0,-1,0.73,1.28,57,2944,1.9,3.29,,12.69,1.251,100.6,,24.0,5,,,,,,,,,,,,0,0,0,0,0,0,0,0,0,0,0,0,0,0,0,0,,,,,,0.0,,,,,,,
246074,1745298706335,,,,,,,,,,,,,,,,,,,,,,,0,0,0,0,0.0,0.0,0.0,0.0,2.26,,,0,0,0,0,0,0,0,0,0,0,0,0,0,0,0,0,,0,,,,,38.986019,-76.95002,0.0,50.7,36,3,0.7
246094,1745298706355,0.0,-106,,-0.11,0.02,0.75,2,-0,-1,0.76,1.28,59,2925,2.1,3.36,,12.69,1.251,100.6,,24.0,5,,,,,,,,,,,,0,0,0,0,0,0,0,0,0,0,0,0,0,0,0,0,,,,,,0.0,,,,,,,
246114,1745298706375,,,,,,,,,,,,,,,,,,,,,,,,,,,,,,,,,,0,0,0,0,0,0,0,0,0,0,0,0,0,0,0,0,,,,,,,,,,,,,
246134,1745298706395,0.0,-91,,-0.12,-0.03,0.81,1,-0,-1,0.81,1.28,64,2925,2.1,3.36,,12.8,1.25,100.6,,23.7,5,,,,,,,,,,,,0,0,0,0,0,0,0,0,0,0,0,0,0,0,0,0,,,,,,0.0,,,,,,,
246154,1745298706415,,,,,,,,,,,,,,,,,,,,,,,,,,,,,,,,,,0,0,0,0,0,0,0,0,0,0,0,0,0,0,0,0,,,,,,,,,,,,,
246174,1745298706435,0.0,-102,,-0.14,-0.05,0.88,1,-0,-1,0.89,1.28,70,2880,0.0,3.01,,12.73,1.249,100.6,,23.7,5,0,0,0,0,0.0,0.0,0.0,0.0,2.26,,,0,0,0,0,0,0,0,0,0,0,0,0,0,0,0,0,,0,,,,0.0,38.986019,-76.95002,0.05,50.7,36,3,0.7
246194,1745298706455,,,,,,,,,,,,,,,,,,,,,,,,,,,,,,,,,,0,0,0,0,0,0,0,0,0,0,0,0,0,0,0,0,,,,,,,,,,,,,
246214,1745298706475,0.0,-91,,-0.14,-0.08,0.92,1,-0,-1,0.93,1.28,73,2889,0.0,2.98,,12.67,1.249,100.6,,23.7,5,,,,,,,,,,,,0,0,0,0,0,0,0,0,0,0,0,0,0,0,0,0,,,,,,0.0,,,,,,,
246234,1745298706495,,,,,,,,,,,,,,,,,,,,,,,,,,,,,,,,,,0,0,0,0,0,0,0,0,0,0,0,0,0,0,0,0,,,,,,,,,,,,,
246254,1745298706515,0.0,-95,,-0.12,-0.05,0.9,1,-0,-0,0.91,1.28,71,2822,0.0,3.04,,12.6,1.25,100.6,,22.8,5,,,,,,,,,,,,0,0,0,0,0,0,0,0,0,0,0,0,0,0,0,0,,,,,,0.0,,,,,,,
246274,1745298706535,,,,,,,,,,,,,,,,,,,,,,,0,0,0,0,0.0,0.0,0.0,0.0,2.26,,,0,0,0,0,0,0,0,0,0,0,0,0,0,0,0,0,,0,,,,,38.986019,-76.95002,0.04,50.7,36,3,0.7
246294,1745298706555,0.0,-106,,-0.13,-0.05,0.9,1,-0,-1,0.91,1.28,71,2742,0.0,3.07,,12.6,1.25,100.6,,22.8,5,,,,,,,,,,,,0,0,0,0,0,0,0,0,0,0,0,0,0,0,0,0,,,,,,0.0,,,,,,,
246314,1745298706575,,,,,,,,,,,,,,,,,,,,,,,,,,,,,,,,,,0,0,0,0,0,0,0,0,0,0,0,0,0,0,0,0,,,,,,,,,,,,,
246334,1745298706595,0.0,-95,,-0.12,-0.05,0.93,1,-0,-0,0.94,1.28,74,2742,0.0,3.07,,12.6,1.25,100.6,,21.7,5,,,,,,,,,,,,0,0,0,0,0,0,0,0,0,0,0,0,0,0,0,0,,,,,,0.0,,,,,,,
246354,1745298706615,,,,,,,,,,,,,,,,,,,,,,,,,,,,,,,,,,0,0,0,0,0,0,0,0,0,0,0,0,0,0,0,0,,,,,,,,,,,,,
246374,1745298706635,0.0,-117,,-0.11,-0.05,0.93,1,-0,-0,0.94,1.28,73,2691,1.5,3.2,,12.83,1.25,100.6,,21.7,5,0,0,0,0,0.0,0.0,0.0,0.0,2.27,,,0,0,0,0,0,0,0,0,0,0,0,0,0,0,0,0,,0,,,,0.0,38.986019,-76.95002,0.0,50.7,36,3,0.7
246394,1745298706655,,,,,,,,,,,,,,,,,,,,,,,,,,,,,,,,,,0,0,0,0,0,0,0,0,0,0,0,0,0,0,0,0,,,,,,,,,,,,,
246414,1745298706675,0.0,-87,,-0.1,-0.05,0.94,1,-0,-0,0.94,1.28,74,2610,6.7,3.74,,13.27,1.252,100.6,,21.7,5,,,,,,,,,,,,0,0,0,0,0,0,0,0,0,0,0,0,0,0,0,0,,,,,,0.0,,,,,,,
246434,1745298706695,,,,,,,,,,,,,,,,,,,,,,,,,,,,,,,,,,0,0,0,0,0,0,0,0,0,0,0,0,0,0,0,0,,,,,,,,,,,,,
246454,1745298706715,0.0,-113,,-0.1,-0.07,0.94,0,-0,-0,0.95,1.28,74,2613,9.6,3.81,,13.59,1.252,100.6,,20.7,5,,,,,,,,,,,,0,0,0,0,0,0,0,0,0,0,0,0,0,0,0,0,,,,,,0.0,,,,,,,
246474,1745298706735,,,,,,,,,,,,,,,,,,,,,,,0,0,0,0,0.0,0.0,0.0,0.0,2.26,,,0,0,0,0,0,0,0,0,0,0,0,0,0,0,0,0,,0,,,,,38.986019,-76.95002,0.08,50.7,36,3,0.7
246494,1745298706755,0.0,-110,,-0.1,-0.07,0.96,0,-0,-0,0.96,1.28,75,2571,10.8,3.88,,13.59,1.252,100.6,,20.7,5,,,,,,,,,,,,0,0,0,0,0,0,0,0,0,0,0,0,0,0,0,0,,,,,,0.0,,,,,,,
246514,1745298706775,,,,,,,,,,,,,,,,,,,,,,,,,,,,,,,,,,0,0,0,0,0,0,0,0,0,0,0,0,0,0,0,0,,,,,,,,,,,,,
246534,1745298706795,0.0,-129,,-0.09,-0.06,0.94,0,-0,-0,0.94,1.28,74,2571,10.8,3.88,,13.8,1.252,100.6,,21.5,5,,,,,,,,,,,,0,0,0,0,0,0,0,0,0,0,0,0,0,0,0,0,,,,,,0.0,,,,,,,
246554,1745298706814,,,,,,,,,,,,,,,,,,,,,,,,,,,,,,,,,,0,0,0,0,0,0,0,0,0,0,0,0,0,0,0,0,,,,,,,,,,,,,
246574,1745298706834,0.0,-110,13.4,-0.09,-0.07,1.0,0,-0,-0,1.0,1.28,79,2667,11.6,3.92,15,13.84,1.252,100.6,162,21.5,5,0,0,0,0,0.0,0.0,0.0,0.0,2.26,0,1.0,0,0,0,0,0,0,0,0,0,0,0,0,0,0,0,0,0,0,1.0,0,0,0.0,38.986019,-76.95002,0.0,50.7,36,3,0.7
246594,1745298706854,,,,,,,,,,,,,,,,,,,,,,,,,,,,,,,,,,0,0,0,0,0,0,0,0,0,0,0,0,0,0,0,0,,,,,,,,,,,,,
246614,1745298706874,0.0,-87,,-0.09,-0.04,1.01,-0,-0,0,1.01,1.28,79,2783,11.9,3.96,,13.86,1.251,100.6,,21.5,5,,,,,,,,,,,,0,0,0,0,0,0,0,0,0,0,0,0,0,0,0,0,,,,,,0.0,,,,,,,
246634,1745298706894,,,,,,,,,,,,,,,,,,,,,,,,,,,,,,,,,,0,0,0,0,0,0,0,0,0,0,0,0,0,0,0,0,,,,,,,,,,,,,
246654,1745298706914,0.0,-95,,-0.06,0.02,0.99,-0,-0,0,1.0,1.28,78,3014,12.0,3.98,,13.76,1.25,100.6,,23.0,5,,,,,,,,,,,,0,0,0,0,0,0,0,0,0,0,0,0,0,0,0,0,,,,,,0.0,,,,,,,
246674,1745298706934,,,,,,,,,,,,,,,,,,,,,,,0,0,0,0,0.0,0.0,0.0,0.0,2.26,,,0,0,0,0,0,0,0,0,0,0,0,0,0,0,0,0,,0,,,,,38.986019,-76.95002,0.0,50.7,36,3,0.7
246694,1745298706954,0.0,-98,,-0.03,0.04,1.05,-1,-0,1,1.05,1.28,83,3145,11.8,4.02,,13.76,1.25,100.6,,23.0,5,,,,,,,,,,,,0,0,0,0,0,0,0,0,0,0,0,0,0,0,0,0,,,,,,0.0,,,,,,,
246714,1745298706974,,,,,,,,,,,,,,,,,,,,,,,,,,,,,,,,,,0,0,0,0,0,0,0,0,0,0,0,0,0,0,0,0,,,,,,,,,,,,,
246734,1745298706994,0.0,-91,,-0.05,-0.08,1.11,-1,-0,1,1.11,1.28,87,3145,11.8,4.02,,13.67,1.249,100.6,,26.1,5,,,,,,,,,,,,0,0,0,0,0,0,0,0,0,0,0,0,0,0,0,0,,,,,,0.0,,,,,,,
246754,1745298707004,,,,,,,,,,,,,,,,,,,,,,,,,,,,,,,,,,0,0,0,0,0,0,0,0,0,0,0,0,0,0,0,0,,,,,,,,,,,,,
246774,1745298707024,0.0,-121,,-0.03,0.03,1.02,-1,-0,0,1.02,1.28,80,3283,11.8,4.01,,13.61,1.25,100.6,,26.1,5,0,0,0,0,0.0,0.0,0.0,0.0,2.26,,,0,0,0,0,0,0,0,0,0,0,0,0,0,0,0,0,,0,,,,0.0,38.986019,-76.95002,0.08,50.7,36,3,0.7
246794,1745298707044,,,,,,,,,,,,,,,,,,,,,,,,,,,,,,,,,,0,0,0,0,0,0,0,0,0,0,0,0,0,0,0,0,,,,,,,,,,,,,
246814,1745298707064,0.0,-87,,-0.05,-0.11,1.03,-1,-0,0,1.04,1.28,81,3494,11.9,4.01,,13.57,1.25,100.6,,26.1,5,,,,,,,,,,,,0,0,0,0,0,0,0,0,0,0,0,0,0,0,0,0,,,,,,0.0,,,,,,,
246834,1745298707084,,,,,,,,,,,,,,,,,,,,,,,,,,,,,,,,,,0,0,0,0,0,0,0,0,0,0,0,0,0,0,0,0,,,,,,,,,,,,,
246854,1745298707104,0.0,-102,,-0.06,-0.12,1.05,-1,-0,1,1.06,1.28,83,3523,4.6,3.84,,13.24,1.25,100.6,,28.1,5,,,,,,,,,,,,0,0,0,0,0,0,0,0,0,0,0,0,0,0,0,0,,,,,,0.0,,,,,,,
246874,1745298707120,,,,,,,,,,,,,,,,,,,,,,,0,0,0,0,0.0,0.0,0.0,0.0,2.26,,,0,0,0,0,0,0,0,0,0,0,0,0,0,0,0,0,,0,,,,,38.986019,-76.95002,0.04,50.7,36,3,0.7
246894,1745298707140,0.0,-98,,-0.06,-0.09,1.06,-1,-0,1,1.06,1.28,83,3642,0.0,2.73,,13.24,1.25,100.6,,28.1,5,,,,,,,,,,,,0,0,0,0,0,0,0,0,0,0,0,0,0,0,0,0,,,,,,0.0,,,,,,,
246914,1745298707160,,,,,,,,,,,,,,,,,,,,,,,,,,,,,,,,,,0,0,0,0,0,0,0,0,0,0,0,0,0,0,0,0,,,,,,,,,,,,,
246934,1745298707180,0.0,-76,,-0.05,-0.08,1.02,-1,-0,1,1.02,1.28,80,3642,0.0,2.73,,12.73,1.252,100.6,,29.4,5,,,,,,,,,,,,0,0,0,0,0,0,0,0,0,0,0,0,0,0,0,0,,,,,,0.0,,,,,,,
246954,1745298707214,,,,,,,,,,,,,,,,,,,,,,,,,,,,,,,,,,0,0,0,0,0,0,0,0,0,0,0,0,0,0,0,0,,,,,,,,,,,,,
246974,1745298707234,0.0,-98,,-0.07,-0.12,1.03,-0,-0,0,1.04,1.28,81,3569,0.0,2.69,,12.27,1.252,100.6,,29.4,5,0,0,0,0,0.0,0.0,0.0,0.0,2.25,,,0,0,0,0,0,0,0,0,0,0,0,0,0,0,0,0,,0,,,,0.0,38.986019,-76.95002,0.0,50.7,36,3,0.7
246994,1745298707254,,,,,,,,,,,,,,,,,,,,,,,,,,,,,,,,,,0,0,0,0,0,0,0,0,0,0,0,0,0,0,0,0,,,,,,,,,,,,,
247014,1745298707274,0.0,-87,,-0.07,-0.11,1.07,-0,-0,1,1.08,1.28,85,3499,0.0,2.72,,12.15,1.247,100.6,,29.4,5,,,,,,,,,,,,0,0,0,0,0,0,0,0,0,0,0,0,0,0,0,0,,,,,,0.0,,,,,,,
247034,1745298707294,,,,,,,,,,,,,,,,,,,,,,,,,,,,,,,,,,0,0,0,0,0,0,0,0,0,0,0,0,0,0,0,0,,,,,,,,,,,,,
247054,1745298707312,0.0,-102,,-0.07,-0.12,0.98,0,-0,-0,0.99,1.28,77,3358,0.0,2.75,,12.11,1.248,100.6,,27.8,5,,,,,,,,,,,,0,0,0,0,0,0,0,0,0,0,0,0,0,0,0,0,,,,,,0.0,,,,,,,
