"Interval"|"ms"|0|0|1,"Utc"|"ms"|0|0|1,"ElapsedTime"|"Min"|0.0|0.0|10,"FrontBP"|"psi"|-5.0|5.0|25,"SteerAng"|"Degrees"|-145|145|25,"Battery"|"Volts"|-5.0|20.0|1,"AccelX"|"G"|-3.0|3.0|25,"AccelY"|"G"|-3.0|3.0|25,"AccelZ"|"G"|-3.0|3.0|25,"Yaw"|"Deg/Sec"|-120|120|25,"Pitch"|"Deg/Sec"|-120|120|25,"Roll"|"Deg/Sec"|-120|120|25,"Gsum"|"G"|0.0|3.0|25,"GsumMax"|"G"|0.0|3.0|25,"GsumPct"|"%"|0|100|25,"RPM"|""|0|10000|25,"TPS"|"%"|0.0|100.0|25,"InjectorPW"|"ms"|0.0|100.0|25,"Baro"|"kPa"|0|105|1,"MAP"|"Psi"|0.0|255.0|25,"Lambda"|""|-2.0|2.0|25,"IAT"|"C"|0.0|200.0|25,"EngineTemp"|"C"|0|200|1,"EOP"|"PSI"|0.0|152.0|25,"EOT"|"F"|0|250|25,"WSFR"|"MPH"|0|150|10,"WSFL"|"MPH"|0|100|10,"WSRR"|"MPH"|0|100|10,"WSRL"|""|0|100|10,"TCSet"|"%"|0.0|100.0|10,"TCSlip"|"%"|0.0|100.0|10,"TCComp"|"deg"|0.0|50.0|10,"TCCut"|"%"|0.0|100.0|10,"Analog8"|""|0.0|5.0|10,"OilTemp"|"F"|0|300|1,"AA_On"|""|0.0|1.0|1,"ThermLF1"|"C"|0|400|50,"ThermLF2"|"C"|0|400|50,"ThermRR1"|"C"|0|400|50,"ThermRR2"|"C"|0|400|50,"ThermLF3"|"C"|0|400|50,"ThermLF4"|"C"|0|400|50,"ThermLF5"|"C"|0|400|50,"ThermLF6"|"C"|0|400|50,"ThermLF7"|"C"|0|400|50,"ThermLF8"|"C"|0|400|50,"ThermRR3"|"C"|0|400|50,"ThermRR4"|"C"|0|400|50,"ThermRR5"|"C"|0|400|50,"ThermRR6"|"C"|0|400|50,"ThermRR7"|"C"|0|400|50,"ThermRR8"|"C"|0|400|50,"AA_LowDrag"|""|0|1|1,"Gear"|""|1|6|10,"AA_On"|""|0.0|1.0|1,"AA_LowDrag"|""|0|1|1,"Fuel_Mix"|""|-10|10|1,"AA_Packages"|""|0.0|1000.0|25,"Latitude"|"Degrees"|-180.0|180.0|10,"Longitude"|"Degrees"|-180.0|180.0|10,"Speed"|"kph"|0.0|150.0|10,"Altitude"|"m"|0.0|4000.0|10,"GPSSats"|""|0|20|10,"GPSQual"|""|0|5|10,"GPSDOP"|""|0.0|20.0|10,"LapCount"|""|0|0|10,"LapTime"|"Min"|0.0|0.0|10,"Sector"|""|0|0|10,"SectorTime"|"Min"|0.0|0.0|10,"PredTime"|"Min"|0.0|0.0|5,"CurrentLap"|""|0|0|10,"Distance"|"mi"|0.0|0.0|10,"SessionTime"|"Min"|0.0|0.0|10
2383923,1745296629116,0.0136,0.0,-134,,0.03,0.01,0.94,1,-0,-0,0.94,1.07,88,4435,17.7,4.3,,13.33,1.198,102.4,,39.4,5,,,,,,,,,,,,0,0,0,0,0,0,0,0,0,0,0,0,0,0,0,0,,,,,,0.0,,,,,,,,,,,,,,,
2383763,1745296628958,0.011,0.0,-134,,-0.04,-0.05,0.91,1,-0,-0,0.91,1.02,90,4090,17.2,4.3,,13.49,1.146,102.4,,37.4,5,,,,,,,,,,,,0,0,0,0,0,0,0,0,0,0,0,0,0,0,0,0,,,,,,0.0,,,,,,,,,,,,,,,
2383783,1745296628978,0.0113,,,,,,,,,,,,,,,,,,,,,,,,,,,,,,,,,,0,0,0,0,0,0,0,0,0,0,0,0,0,0,0,0,,,,,,,,,,,,,,,,,,,,,
2383803,1745296628998,0.0116,0.0,-135,,-0.07,0.02,0.99,0,-0,0,1.0,1.02,98,4207,17.5,4.32,,13.4,1.161,102.4,,37.4,5,0,0,0,0,0.0,0.0,0.0,0.0,2.26,,,0,0,0,0,0,0,0,0,0,0,0,0,0,0,0,0,,0,,,,0.0,38.985775,-76.950661,0.0,48.0,31,3,0.9,0,0.0,-1,0.0,0.0,0,0.0,0.0116
2383823,1745296629010,0.012,,,,,,,,,,,,,,,,,,,,,,,,,,,,,,,,,,0,0,0,0,0,0,0,0,0,0,0,0,0,0,0,0,,,,,,,,,,,,,,,,,,,,,
2383843,1745296629030,0.0123,0.0,-134,,-0.05,0.11,1.06,-0,-0,0,1.07,1.07,100,4317,17.7,4.31,,13.35,1.169,102.4,,37.4,5,,,,,,,,,,,,0,0,0,0,0,0,0,0,0,0,0,0,0,0,0,0,,,,,,0.0,,,,,,,,,,,,,,,
2383863,1745296629050,0.0126,,,,,,,,,,,,,,,,,,,,,,,,,,,,,,,,,,0,0,0,0,0,0,0,0,0,0,0,0,0,0,0,0,,,,,,,,,,,,,,,,,,,,,
2383883,1745296629070,0.013,0.0,-134,,-0.01,0.08,1.02,0,-0,0,1.02,1.07,96,4435,17.7,4.3,,13.35,1.169,102.4,,39.4,5,,,,,,,,,,,,0,0,0,0,0,0,0,0,0,0,0,0,0,0,0,0,,,,,,0.0,,,,,,,,,,,,,,,
2383903,1745296629090,0.0133,,,,,,,,,,,,,,,,,,,,,,,0,0,0,0,0.0,0.0,0.0,0.0,2.26,,,0,0,0,0,0,0,0,0,0,0,0,0,0,0,0,0,,0,,,,,38.985775,-76.950661,0.0,48.0,31,3,0.9,0,0.0,-1,0.0,,0,0.0,0.0133
2383923,1745296629116,0.0136,0.0,-134,,0.03,0.01,0.94,1,-0,-0,0.94,1.07,88,4435,17.7,4.3,,13.33,1.198,102.4,,39.4,5,,,,,,,,,,,,0,0,0,0,0,0,0,0,0,0,0,0,0,0,0,0,,,,,,0.0,,,,,,,,,,,,,,,
2383943,1745296629136,0.014,,,,,,,,,,,,,,,,,,,,,,,,,,,,,,,,,,0,0,0,0,0,0,0,0,0,0,0,0,0,0,0,0,,,,,,,,,,,,,,,,,,,,,
2383963,1745296629156,0.0143,0.0,-135,,0.05,0.03,0.96,1,-0,-0,0.96,1.07,90,4469,17.9,4.3,,13.36,1.219,102.4,,41.5,5,,,,,,,,,,,,0,0,0,0,0,0,0,0,0,0,0,0,0,0,0,0,,,,,,0.0,,,,,,,,,,,,,,,
2383983,1745296629176,0.0146,,,,,,,,,,,,,,,,,,,,,,,,,,,,,,,,,,0,0,0,0,0,0,0,0,0,0,0,0,0,0,0,0,,,,,,,,,,,,,,,,,,,,,
2384003,1745296629196,0.015,0.0,-135,,0.08,0.07,1.0,1,-0,-0,1.0,1.07,94,4547,18.1,4.3,,13.31,1.225,102.4,,41.5,5,0,0,0,0,0.0,0.0,0.0,0.0,2.25,,,0,0,0,0,0,0,0,0,0,0,0,0,0,0,0,0,,0,,,,0.0,38.985775,-76.950661,0.04,48.0,31,3,0.9,0,0.0,-1,0.0,0.0,0,0.0,0.015
2384023,1745296629212,0.0153,,,,,,,,,,,,,,,,,,,,,,,,,,,,,,,,,,0,0,0,0,0,0,0,0,0,0,0,0,0,0,0,0,,,,,,,,,,,,,,,,,,,,,
2384043,1745296629232,0.0156,0.0,-135,,0.05,0.18,1.08,-0,-0,0,1.09,1.09,100,4635,20.3,4.31,,13.33,1.243,102.4,,41.5,5,,,,,,,,,,,,0,0,0,0,0,0,0,0,0,0,0,0,0,0,0,0,,,,,,0.0,,,,,,,,,,,,,,,
2384063,1745296629252,0.016,,,,,,,,,,,,,,,,,,,,,,,,,,,,,,,,,,0,0,0,0,0,0,0,0,0,0,0,0,0,0,0,0,,,,,,,,,,,,,,,,,,,,,
2384083,1745296629272,0.0163,0.0,-135,,0.01,0.15,1.05,-0,-0,0,1.06,1.09,97,4715,23.3,4.53,,13.33,1.243,102.4,,43.1,5,,,,,,,,,,,,0,0,0,0,0,0,0,0,0,0,0,0,0,0,0,0,,,,,,0.0,,,,,,,,,,,,,,,
2384103,1745296629292,0.0166,,,,,,,,,,,,,,,,,,,,,,,0,0,0,0,0.0,0.0,0.0,0.0,2.26,,,0,0,0,0,0,0,0,0,0,0,0,0,0,0,0,0,,0,,,,,38.985775,-76.950661,0.04,48.0,31,3,0.9,0,0.0,-1,0.0,,0,0.0,0.0166
2384123,1745296629317,0.017,0.0,-135,,0.03,0.17,1.04,-0,-0,0,1.05,1.09,96,4715,23.3,4.53,,13.44,1.216,102.4,,43.1,5,,,,,,,,,,,,0,0,0,0,0,0,0,0,0,0,0,0,0,0,0,0,,,,,,0.0,,,,,,,,,,,,,,,
2384143,1745296629337,0.0173,,,,,,,,,,,,,,,,,,,,,,,,,,,,,,,,,,0,0,0,0,0,0,0,0,0,0,0,0,0,0,0,0,,,,,,,,,,,,,,,,,,,,,
2384163,1745296629357,0.0176,0.0,-135,,0.03,0.11,1.02,-0,-0,0,1.03,1.09,94,4936,24.3,4.56,,13.48,1.236,102.4,,47.1,5,,,,,,,,,,,,0,0,0,0,0,0,0,0,0,0,0,0,0,0,0,0,,,,,,0.0,,,,,,,,,,,,,,,
2384183,1745296629377,0.018,,,,,,,,,,,,,,,,,,,,,,,,,,,,,,,,,,0,0,0,0,0,0,0,0,0,0,0,0,0,0,0,0,,,,,,,,,,,,,,,,,,,,,
2384203,1745296629397,0.0183,0.0,-121,,0.01,0.11,1.04,-1,-0,0,1.04,1.09,95,5159,24.5,4.52,,13.37,1.212,102.4,,47.1,5,0,0,0,0,0.0,0.0,0.0,0.0,2.26,,,0,0,0,0,0,0,0,0,0,0,0,0,0,0,0,0,,0,,,,0.0,38.985775,-76.950661,0.11,48.0,31,3,0.9,0,0.0,-1,0.0,0.0,0,0.0,0.0183
2384223,1745296629417,0.0187,,,,,,,,,,,,,,,,,,,,,,,,,,,,,,,,,,0,0,0,0,0,0,0,0,0,0,0,0,0,0,0,0,,,,,,,,,,,,,,,,,,,,,
2384243,1745296629437,0.019,0.0,-129,,-0.03,0.03,1.01,-0,-0,0,1.01,1.09,93,5490,24.4,4.51,,13.25,1.238,102.4,,47.1,5,,,,,,,,,,,,0,0,0,0,0,0,0,0,0,0,0,0,0,0,0,0,,,,,,0.0,,,,,,,,,,,,,,,
2384263,1745296629457,0.0193,,,,,,,,,,,,,,,,,,,,,,,,,,,,,,,,,,0,0,0,0,0,0,0,0,0,0,0,0,0,0,0,0,,,,,,,,,,,,,,,,,,,,,
2384283,1745296629477,0.0196,0.0,-129,,-0.02,0.04,1.09,-1,-0,0,1.09,1.09,100,5812,24.4,4.49,,13.25,1.238,102.4,,53.7,5,,,,,,,,,,,,0,0,0,0,0,0,0,0,0,0,0,0,0,0,0,0,,,,,,0.0,,,,,,,,,,,,,,,
2384303,1745296629497,0.02,,,,,,,,,,,,,,,,,,,,,,,0,0,0,0,0.0,0.0,0.0,0.0,2.25,,,0,0,0,0,0,0,0,0,0,0,0,0,0,0,0,0,,0,,,,,38.985775,-76.950661,0.12,48.0,31,3,0.9,0,0.0,-1,0.0,,0,0.0,0.02
2384323,1745296629517,0.0203,0.0,-135,,0.01,-0.03,1.15,-0,-0,0,1.15,1.15,100,5812,24.4,4.49,,13.03,1.248,102.4,,53.7,5,,,,,,,,,,,,0,0,0,0,0,0,0,0,0,0,0,0,0,0,0,0,,,,,,0.0,,,,,,,,,,,,,,,
2384343,1745296629537,0.0206,,,,,,,,,,,,,,,,,,,,,,,,,,,,,,,,,,0,0,0,0,0,0,0,0,0,0,0,0,0,0,0,0,,,,,,,,,,,,,,,,,,,,,
2384363,1745296629557,0.021,0.0,-135,,0.0,-0.05,1.2,-1,-0,1,1.2,1.2,100,6099,24.4,4.48,,12.87,1.226,102.4,,58.2,5,,,,,,,,,,,,0,0,0,0,0,0,0,0,0,0,0,0,0,0,0,0,,,,,,0.0,,,,,,,,,,,,,,,
2384383,1745296629577,0.0213,,,,,,,,,,,,,,,,,,,,,,,,,,,,,,,,,,0,0,0,0,0,0,0,0,0,0,0,0,0,0,0,0,,,,,,,,,,,,,,,,,,,,,
2384403,1745296629597,0.0216,0.0,-135,13.49,-0.02,-0.15,1.15,0,-0,0,1.16,1.2,97,6275,24.3,4.74,15,12.79,1.246,102.4,178,58.2,5,0,0,0,0,0.0,0.0,0.0,0.0,2.26,0,1.0,0,0,0,0,0,0,0,0,0,0,0,0,0,0,0,0,0,0,1.0,0,0,0.0,38.985775,-76.950661,0.08,48.0,31,3,0.9,0,0.0,-1,0.0,0.0,0,0.0,0.0216
2384423,1745296629617,0.022,,,,,,,,,,,,,,,,,,,,,,,,,,,,,,,,,,0,0,0,0,0,0,0,0,0,0,0,0,0,0,0,0,,,,,,,,,,,,,,,,,,,,,
2384443,1745296629637,0.0223,0.0,-121,,-0.04,-0.07,1.14,-1,-0,1,1.14,1.2,96,6561,24.3,4.9,,12.67,1.25,102.4,,58.2,5,,,,,,,,,,,,0,0,0,0,0,0,0,0,0,0,0,0,0,0,0,0,,,,,,0.0,,,,,,,,,,,,,,,
2384463,1745296629657,0.0226,,,,,,,,,,,,,,,,,,,,,,,,,,,,,,,,,,0,0,0,0,0,0,0,0,0,0,0,0,0,0,0,0,,,,,,,,,,,,,,,,,,,,,
2384483,1745296629677,0.023,0.0,-135,,-0.05,-0.03,1.15,-0,-0,0,1.15,1.2,96,7129,24.4,5.43,,12.67,1.25,102.4,,58.9,5,,,,,,,,,,,,0,0,0,0,0,0,0,0,0,0,0,0,0,0,0,0,,,,,,0.0,,,,,,,,,,,,,,,
2384503,1745296629697,0.0233,,,,,,,,,,,,,,,,,,,,,,,0,0,0,0,0.0,0.0,0.0,0.0,2.25,,,0,0,0,0,0,0,0,0,0,0,0,0,0,0,0,0,,0,,,,,38.985775,-76.950661,0.04,48.0,31,3,0.9,0,0.0,-1,0.0,,0,0.0,0.0233
2384523,1745296629719,0.0236,0.0,-135,,-0.06,-0.02,1.13,1,-0,0,1.13,1.2,94,7129,24.4,5.43,,12.37,1.206,102.4,,58.9,5,,,,,,,,,,,,0,0,0,0,0,0,0,0,0,0,0,0,0,0,0,0,,,,,,0.0,,,,,,,,,,,,,,,
2384543,1745296629739,0.024,,,,,,,,,,,,,,,,,,,,,,,,,,,,,,,,,,0,0,0,0,0,0,0,0,0,0,0,0,0,0,0,0,,,,,,,,,,,,,,,,,,,,,
2384563,1745296629759,0.0243,0.0,-135,,-0.05,-0.09,1.11,1,-0,0,1.11,1.2,93,7832,24.5,5.28,,11.91,1.018,102.4,,64.3,5,,,,,,,,,,,,0,0,0,0,0,0,0,0,0,0,0,0,0,0,0,0,,,,,,0.0,,,,,,,,,,,,,,,
2384583,1745296629779,0.0246,,,,,,,,,,,,,,,,,,,,,,,,,,,,,,,,,,0,0,0,0,0,0,0,0,0,0,0,0,0,0,0,0,,,,,,,,,,,,,,,,,,,,,
2384603,1745296629799,0.025,0.0,-125,,-0.06,-0.08,1.11,2,-0,-0,1.11,1.2,93,8960,25.6,4.77,,11.48,0.922,102.4,,64.3,5,0,0,0,0,0.0,0.0,0.0,0.0,2.26,,,0,0,0,0,0,0,0,0,0,0,0,0,0,0,0,0,,0,,,,0.0,38.985775,-76.950661,0.04,48.0,31,3,0.9,0,0.0,-1,0.0,0.0,0,0.0,0.025
2384623,1745296629819,0.0253,,,,,,,,,,,,,,,,,,,,,,,,,,,,,,,,,,0,0,0,0,0,0,0,0,0,0,0,0,0,0,0,0,,,,,,,,,,,,,,,,,,,,,
2384643,1745296629839,0.0256,0.0,-132,,-0.04,-0.24,1.12,2,-0,-1,1.14,1.2,96,10285,25.5,4.07,,10.68,0.828,102.4,,64.3,5,,,,,,,,,,,,0,0,0,0,0,0,0,0,0,0,0,0,0,0,0,0,,,,,,0.0,,,,,,,,,,,,,,,
2384663,1745296629859,0.026,,,,,,,,,,,,,,,,,,,,,,,,,,,,,,,,,,0,0,0,0,0,0,0,0,0,0,0,0,0,0,0,0,,,,,,,,,,,,,,,,,,,,,
2384683,1745296629879,0.0263,0.0,-132,,0.01,-0.23,1.1,2,-0,-1,1.12,1.2,94,11269,25.6,3.63,,10.68,0.828,102.4,,66.3,5,,,,,,,,,,,,0,0,0,0,0,0,0,0,0,0,0,0,0,0,0,0,,,,,,0.0,,,,,,,,,,,,,,,
2384703,1745296629899,0.0266,,,,,,,,,,,,,,,,,,,,,,,0,0,0,0,0.0,0.0,0.0,0.0,2.25,,,0,0,0,0,0,0,0,0,0,0,0,0,0,0,0,0,,0,,,,,38.985775,-76.950661,0.0,48.0,31,3,0.9,0,0.0,-1,0.0,,0,0.0,0.0266
2384723,1745296629919,0.027,0.0,-135,,0.02,-0.17,0.99,1,-1,-1,1.01,1.2,84,11269,25.6,3.63,,10.3,0.813,102.4,,66.3,5,,,,,,,,,,,,0,0,0,0,0,0,0,0,0,0,0,0,0,0,0,0,,,,,,0.0,,,,,,,,,,,,,,,
2384743,1745296629939,0.0273,,,,,,,,,,,,,,,,,,,,,,,,,,,,,,,,,,0,0,0,0,0,0,0,0,0,0,0,0,0,0,0,0,,,,,,,,,,,,,,,,,,,,,
2384763,1745296629959,0.0276,0.0,-129,,0.01,-0.08,0.91,-0,-0,-1,0.92,1.2,77,12025,24.8,3.48,,9.76,0.811,102.4,,65.2,5,,,,,,,,,,,,0,0,0,0,0,0,0,0,0,0,0,0,0,0,0,0,,,,,,0.0,,,,,,,,,,,,,,,
2384783,1745296629979,0.028,,,,,,,,,,,,,,,,,,,,,,,,,,,,,,,,,,0,0,0,0,0,0,0,0,0,0,0,0,0,0,0,0,,,,,,,,,,,,,,,,,,,,,
2384803,1745296629999,0.0283,0.0,-68,,0.06,-0.1,0.94,0,-0,-2,0.94,1.2,79,12503,22.9,2.84,,9.15,0.841,102.4,,65.2,5,0,0,0,0,0.0,0.0,0.0,0.0,2.26,,,0,0,0,0,0,0,0,0,0,0,0,0,0,0,0,0,,0,,,,0.0,38.985775,-76.950661,0.12,48.0,31,3,0.9,0,0.0,-1,0.0,0.0,0,0.0,0.0283
2384823,1745296630011,0.0286,,,,,,,,,,,,,,,,,,,,,,,,,,,,,,,,,,0,0,0,0,0,0,0,0,0,0,0,0,0,0,0,0,,,,,,,,,,,,,,,,,,,,,
2384843,1745296630031,0.029,0.0,-121,,0.07,-0.07,0.97,1,-0,-1,0.98,1.2,82,12708,22.6,2.56,,8.75,0.886,102.4,,65.2,5,,,,,,,,,,,,0,0,0,0,0,0,0,0,0,0,0,0,0,0,0,0,,,,,,0.0,,,,,,,,,,,,,,,
2384863,1745296630051,0.0293,,,,,,,,,,,,,,,,,,,,,,,,,,,,,,,,,,0,0,0,0,0,0,0,0,0,0,0,0,0,0,0,0,,,,,,,,,,,,,,,,,,,,,
2384883,1745296630071,0.0296,0.0,-117,,0.05,-0.06,0.94,-0,-0,-1,0.94,1.2,79,12573,21.9,2.51,,8.75,0.886,102.4,,66.3,5,,,,,,,,,,,,0,0,0,0,0,0,0,0,0,0,0,0,0,0,0,0,,,,,,0.0,,,,,,,,,,,,,,,
2384903,1745296630091,0.03,,,,,,,,,,,,,,,,,,,,,,,0,0,0,0,0.0,0.0,0.0,0.0,2.26,,,0,0,0,0,0,0,0,0,0,0,0,0,0,0,0,0,,0,,,,,38.985775,-76.950661,0.21,48.0,31,3,0.9,0,0.0,-1,0.0,,0,0.0,0.03
2384923,1745296630113,0.0303,0.0,-132,,0.02,-0.12,0.94,-0,-0,-1,0.94,1.2,79,12573,21.9,2.51,,8.5,0.957,102.4,,66.3,5,,,,,,,,,,,,0,0,0,0,0,0,0,0,0,0,0,0,0,0,0,0,,,,,,0.0,,,,,,,,,,,,,,,
2384943,1745296630133,0.0306,,,,,,,,,,,,,,,,,,,,,,,,,,,,,,,,,,0,0,0,0,0,0,0,0,0,0,0,0,0,0,0,0,,,,,,,,,,,,,,,,,,,,,
2384963,1745296630153,0.031,0.0,-135,,0.05,-0.11,0.91,0,-0,-1,0.92,1.2,77,12285,21.4,2.59,,8.45,1.034,102.4,,65.9,5,,,,,,,,,,,,0,0,0,0,0,0,0,0,0,0,0,0,0,0,0,0,,,,,,0.0,,,,,,,,,,,,,,,
2384983,1745296630173,0.0313,,,,,,,,,,,,,,,,,,,,,,,,,,,,,,,,,,0,0,0,0,0,0,0,0,0,0,0,0,0,0,0,0,,,,,,,,,,,,,,,,,,,,,
2385003,1745296630193,0.0316,0.0,-117,,0.04,-0.06,0.97,1,-0,-2,0.97,1.2,81,12074,21.0,2.72,,8.25,1.104,102.4,,65.9,5,0,0,0,0,0.0,0.0,0.0,0.0,2.25,,,0,0,0,0,0,0,0,0,0,0,0,0,0,0,0,0,,0,,,,0.0,38.985775,-76.950661,0.36,48.0,31,3,0.9,0,0.0,-1,0.0,0.0,0,0.0,0.0316
2385023,1745296630216,0.032,,,,,,,,,,,,,,,,,,,,,,,,,,,,,,,,,,0,0,0,0,0,0,0,0,0,0,0,0,0,0,0,0,,,,,,,,,,,,,,,,,,,,,
2385043,1745296630236,0.0323,0.0,-121,,0.08,0.06,0.97,2,-0,-2,0.98,1.2,82,11901,20.8,2.75,,8.25,1.095,102.4,,65.9,5,,,,,,,,,,,,0,0,0,0,0,0,0,0,0,0,0,0,0,0,0,0,,,,,,0.0,,,,,,,,,,,,,,,
2385063,1745296630256,0.0326,,,,,,,,,,,,,,,,,,,,,,,,,,,,,,,,,,0,0,0,0,0,0,0,0,0,0,0,0,0,0,0,0,,,,,,,,,,,,,,,,,,,,,
2385083,1745296630276,0.033,0.0,-129,,0.07,0.04,0.95,4,-0,-2,0.95,1.2,79,11792,20.5,2.73,,8.25,1.095,102.4,,65.5,5,,,,,,,,,,,,0,0,0,0,0,0,0,0,0,0,0,0,0,0,0,0,,,,,,0.0,,,,,,,,,,,,,,,
2385103,1745296630296,0.0333,,,,,,,,,,,,,,,,,,,,,,,0,0,0,0,0.0,0.0,0.0,0.0,2.25,,,0,0,0,0,0,0,0,0,0,0,0,0,0,0,0,0,,0,,,,,38.985775,-76.950661,0.58,47.9,31,3,0.9,0,0.0,-1,0.0,,0,0.0,0.0333
2385123,1745296630316,0.0336,0.0,-83,,0.02,-0.08,0.9,5,-0,-2,0.91,1.2,76,11792,20.5,2.73,,8.22,1.059,100.6,,65.5,5,,,,,,,,,,,,0,0,0,0,0,0,0,0,0,0,0,0,0,0,0,0,,,,,,0.0,,,,,,,,,,,,,,,
2385143,1745296630336,0.034,,,,,,,,,,,,,,,,,,,,,,,,,,,,,,,,,,0,0,0,0,0,0,0,0,0,0,0,0,0,0,0,0,,,,,,,,,,,,,,,,,,,,,
2385163,1745296630356,0.0343,0.0,-125,,-0.02,-0.15,0.94,3,-0,-2,0.95,1.2,79,11648,20.5,2.75,,8.25,1.044,100.6,,65.8,5,,,,,,,,,,,,0,0,0,0,0,0,0,0,0,0,0,0,0,0,0,0,,,,,,0.0,,,,,,,,,,,,,,,
2385183,1745296630376,0.0347,,,,,,,,,,,,,,,,,,,,,,,,,,,,,,,,,,0,0,0,0,0,0,0,0,0,0,0,0,0,0,0,0,,,,,,,,,,,,,,,,,,,,,
2385203,1745296630396,0.035,0.0,-110,,-0.02,-0.03,0.9,1,-0,-2,0.9,1.2,75,11688,20.3,2.79,,8.29,1.027,100.6,,65.8,5,0,0,1,0,0.0,0.0,0.0,0.0,2.25,,,0,0,0,0,0,0,0,0,0,0,0,0,0,0,0,0,,0,,,,0.0,38.985775,-76.950661,0.95,47.9,31,3,0.9,0,0.0,-1,0.0,0.0,0,0.0,0.035
2385223,1745296630416,0.0353,,,,,,,,,,,,,,,,,,,,,,,,,,,,,,,,,,0,0,0,0,0,0,0,0,0,0,0,0,0,0,0,0,,,,,,,,,,,,,,,,,,,,,
2385243,1745296630436,0.0356,0.0,-110,,0.02,0.02,1.05,1,-0,-1,1.05,1.2,88,11718,20.2,2.78,,8.3,1.006,100.6,,65.8,5,,,,,,,,,,,,0,0,0,0,0,0,0,0,0,0,0,0,0,0,0,0,,,,,,0.0,,,,,,,,,,,,,,,
2385263,1745296630456,0.036,,,,,,,,,,,,,,,,,,,,,,,,,,,,,,,,,,0,0,0,0,0,0,0,0,0,0,0,0,0,0,0,0,,,,,,,,,,,,,,,,,,,,,
2385283,1745296630476,0.0363,0.0,-117,,0.04,0.11,1.1,2,-0,-1,1.1,1.2,92,11676,20.1,2.76,,8.3,1.006,100.6,,65.5,5,,,,,,,,,,,,0,0,0,0,0,0,0,0,0,0,0,0,0,0,0,0,,,,,,0.0,,,,,,,,,,,,,,,
2385303,1745296630496,0.0366,,,,,,,,,,,,,,,,,,,,,,,1,0,1,1,0.0,0.0,0.0,0.0,2.26,,,0,0,0,0,0,0,0,0,0,0,0,0,0,0,0,0,,0,,,,,38.985775,-76.950661,1.35,47.9,31,3,0.9,0,0.0,-1,0.0,,0,0.0,0.0366
2385323,1745296630518,0.037,0.0,-129,,0.07,-0.02,1.03,3,-0,-1,1.03,1.2,86,11676,20.1,2.76,,8.33,1.009,100.6,,65.5,5,,,,,,,,,,,,0,0,0,0,0,0,0,0,0,0,0,0,0,0,0,0,,,,,,0.0,,,,,,,,,,,,,,,
2385343,1745296630538,0.0373,,,,,,,,,,,,,,,,,,,,,,,,,,,,,,,,,,0,0,0,0,0,0,0,0,0,0,0,0,0,0,0,0,,,,,,,,,,,,,,,,,,,,,
2385363,1745296630558,0.0376,0.0,-117,,0.09,-0.09,1.06,2,-0,-1,1.06,1.2,89,11706,20.0,2.76,,8.33,1.023,100.6,,65.4,5,,,,,,,,,,,,0,0,0,0,0,0,0,0,0,0,0,0,0,0,0,0,,,,,,0.0,,,,,,,,,,,,,,,
2385383,1745296630578,0.038,,,,,,,,,,,,,,,,,,,,,,,,,,,,,,,,,,0,0,0,0,0,0,0,0,0,0,0,0,0,0,0,0,,,,,,,,,,,,,,,,,,,,,
2385403,1745296630598,0.0383,0.0,-117,13.51,0.05,-0.06,0.94,1,-0,-1,0.94,1.2,79,11651,20.1,2.78,15,8.38,1.013,100.6,176,65.4,5,1,0,1,1,0.0,0.0,0.0,0.0,2.26,0,1.0,0,0,0,0,0,0,0,0,0,0,0,0,0,0,0,0,0,0,1.0,0,0,0.0,38.985775,-76.950661,1.73,48.0,31,3,0.9,0,0.0,-1,0.0,0.0,0,0.0,0.0383
2385423,1745296630618,0.0386,,,,,,,,,,,,,,,,,,,,,,,,,,,,,,,,,,0,0,0,0,0,0,0,0,0,0,0,0,0,0,0,0,,,,,,,,,,,,,,,,,,,,,
2385443,1745296630638,0.039,0.0,-121,,0.09,0.07,0.94,1,-0,-1,0.95,1.2,80,11609,20.1,2.77,,8.45,1.02,100.6,,65.4,5,,,,,,,,,,,,0,0,0,0,0,0,0,0,0,0,0,0,0,0,0,0,,,,,,0.0,,,,,,,,,,,,,,,
2385463,1745296630658,0.0393,,,,,,,,,,,,,,,,,,,,,,,,,,,,,,,,,,0,0,0,0,0,0,0,0,0,0,0,0,0,0,0,0,,,,,,,,,,,,,,,,,,,,,
2385483,1745296630678,0.0396,0.0,-113,,0.08,-0.12,0.88,2,-0,-2,0.89,1.2,75,11459,20.2,2.81,,8.45,1.02,100.6,,65.0,5,,,,,,,,,,,,0,0,0,0,0,0,0,0,0,0,0,0,0,0,0,0,,,,,,0.0,,,,,,,,,,,,,,,
2385503,1745296630698,0.04,,,,,,,,,,,,,,,,,,,,,,,1,0,1,1,0.0,0.0,0.0,0.0,2.25,,,0,0,0,0,0,0,0,0,0,0,0,0,0,0,0,0,,0,,,,,38.985775,-76.950661,2.04,48.0,31,3,0.9,0,0.0,-1,0.0,,0,0.0,0.04
2385523,1745296630718,0.0403,0.0,-113,,0.1,-0.0,0.97,1,-0,-1,0.97,1.2,81,11459,20.2,2.81,,8.37,1.024,100.6,,65.0,5,,,,,,,,,,,,0,0,0,0,0,0,0,0,0,0,0,0,0,0,0,0,,,,,,0.0,,,,,,,,,,,,,,,
2385543,1745296630738,0.0406,,,,,,,,,,,,,,,,,,,,,,,,,,,,,,,,,,0,0,0,0,0,0,0,0,0,0,0,0,0,0,0,0,,,,,,,,,,,,,,,,,,,,,
2385563,1745296630758,0.041,0.0,-121,,0.15,0.07,0.98,2,-0,-1,0.99,1.2,83,11264,17.3,2.79,,8.11,1.033,100.6,,64.9,5,,,,,,,,,,,,0,0,0,0,0,0,0,0,0,0,0,0,0,0,0,0,,,,,,0.0,,,,,,,,,,,,,,,
2385583,1745296630778,0.0413,,,,,,,,,,,,,,,,,,,,,,,,,,,,,,,,,,0,0,0,0,0,0,0,0,0,0,0,0,0,0,0,0,,,,,,,,,,,,,,,,,,,,,
2385603,1745296630798,0.0416,0.0,-113,,0.19,-0.01,0.99,1,0,-1,1.01,1.2,85,10914,14.5,2.53,,7.87,1.019,100.6,,64.9,5,2,0,2,2,0.0,0.0,0.0,0.0,2.25,,,0,0,0,0,0,0,0,0,0,0,0,0,0,0,0,0,,0,,,,0.0,38.985775,-76.950661,2.42,48.0,31,3,0.9,0,0.0,-1,0.0,0.0,0,0.0001,0.0416
2385623,1745296630818,0.042,,,,,,,,,,,,,,,,,,,,,,,,,,,,,,,,,,0,0,0,0,0,0,0,0,0,0,0,0,0,0,0,0,,,,,,,,,,,,,,,,,,,,,
2385643,1745296630838,0.0423,0.0,-113,,0.18,-0.05,1.02,1,0,-1,1.04,1.2,87,10479,13.5,2.37,,7.57,0.993,100.6,,64.9,5,,,,,,,,,,,,0,0,0,0,0,0,0,0,0,0,0,0,0,0,0,0,,,,,,0.0,,,,,,,,,,,,,,,
2385663,1745296630858,0.0426,,,,,,,,,,,,,,,,,,,,,,,,,,,,,,,,,,0,0,0,0,0,0,0,0,0,0,0,0,0,0,0,0,,,,,,,,,,,,,,,,,,,,,
2385683,1745296630878,0.043,0.0,-121,,0.18,-0.16,0.95,2,-0,-1,0.98,1.2,82,9955,13.0,2.36,,7.57,0.993,100.6,,62.9,5,,,,,,,,,,,,0,0,0,0,0,0,0,0,0,0,0,0,0,0,0,0,,,,,,0.0,,,,,,,,,,,,,,,
2385703,1745296630898,0.0433,,,,,,,,,,,,,,,,,,,,,,,3,0,3,2,0.0,0.0,0.0,0.0,2.26,,,0,0,0,0,0,0,0,0,0,0,0,0,0,0,0,0,,0,,,,,38.985775,-76.950661,3.04,48.0,31,3,0.9,0,0.0,-1,0.0,,0,0.0001,0.0433
2385723,1745296630918,0.0436,0.0,-102,,0.23,-0.09,0.92,1,-0,-1,0.95,1.2,80,9955,13.0,2.36,,7.47,0.995,100.6,,62.9,5,,,,,,,,,,,,0,0,0,0,0,0,0,0,0,0,0,0,0,0,0,0,,,,,,0.0,,,,,,,,,,,,,,,
2385743,1745296630938,0.044,,,,,,,,,,,,,,,,,,,,,,,,,,,,,,,,,,0,0,0,0,0,0,0,0,0,0,0,0,0,0,0,0,,,,,,,,,,,,,,,,,,,,,
2385763,1745296630958,0.0443,0.0,-113,,0.2,-0.25,0.98,2,-0,-1,1.03,1.2,86,9467,13.4,2.38,,7.65,1.02,100.6,,60.0,5,,,,,,,,,,,,0,0,0,0,0,0,0,0,0,0,0,0,0,0,0,0,,,,,,0.0,,,,,,,,,,,,,,,
2385783,1745296630978,0.0446,,,,,,,,,,,,,,,,,,,,,,,,,,,,,,,,,,0,0,0,0,0,0,0,0,0,0,0,0,0,0,0,0,,,,,,,,,,,,,,,,,,,,,
2385803,1745296630998,0.045,0.0,-102,,0.19,-0.35,1.01,3,-0,-1,1.08,1.2,91,8978,13.4,2.49,,7.79,1.047,100.6,,60.0,5,3,0,4,3,0.0,0.0,0.0,0.0,2.26,,,0,0,0,0,0,0,0,0,0,0,0,0,0,0,0,0,,0,,,,0.0,38.985775,-76.950661,4.18,48.0,31,3,0.9,0,0.0,-1,0.0,0.0,0,0.0002,0.045
2385823,1745296631008,0.0453,,,,,,,,,,,,,,,,,,,,,,,,,,,,,,,,,,0,0,0,0,0,0,0,0,0,0,0,0,0,0,0,0,,,,,,,,,,,,,,,,,,,,,
2385843,1745296631028,0.0457,0.0,-106,,0.2,-0.24,1.02,2,-0,-1,1.07,1.2,89,8542,13.7,2.65,,8.17,1.04,100.6,,60.0,5,,,,,,,,,,,,0,0,0,0,0,0,0,0,0,0,0,0,0,0,0,0,,,,,,0.0,,,,,,,,,,,,,,,
2385863,1745296631048,0.046,,,,,,,,,,,,,,,,,,,,,,,,,,,,,,,,,,0,0,0,0,0,0,0,0,0,0,0,0,0,0,0,0,,,,,,,,,,,,,,,,,,,,,
2385883,1745296631068,0.0463,0.0,-95,,0.21,-0.19,1.04,3,-0,-1,1.07,1.2,90,8058,14.3,2.87,,8.17,1.04,100.6,,57.9,5,,,,,,,,,,,,0,0,0,0,0,0,0,0,0,0,0,0,0,0,0,0,,,,,,0.0,,,,,,,,,,,,,,,
2385903,1745296631088,0.0466,,,,,,,,,,,,,,,,,,,,,,,4,0,4,4,0.0,0.0,0.0,0.0,2.26,,,0,0,0,0,0,0,0,0,0,0,0,0,0,0,0,0,,0,,,,,38.985775,-76.950661,5.26,48.0,31,3,0.9,0,0.0,-1,0.0,,0,0.0003,0.0466
2385923,1745296631116,0.047,0.0,-95,,0.22,-0.12,1.0,1,-0,0,1.03,1.2,86,8058,14.3,2.87,,8.79,1.017,100.6,,57.9,5,,,,,,,,,,,,0,0,0,0,0,0,0,0,0,0,0,0,0,0,0,0,,,,,,0.0,,,,,,,,,,,,,,,
2385943,1745296631136,0.0473,,,,,,,,,,,,,,,,,,,,,,,,,,,,,,,,,,0,0,0,0,0,0,0,0,0,0,0,0,0,0,0,0,,,,,,,,,,,,,,,,,,,,,
2385963,1745296631156,0.0476,0.0,-121,,0.21,-0.01,0.98,-1,-0,0,1.0,1.2,84,7642,15.1,3.1,,9.29,1.005,100.6,,55.6,5,,,,,,,,,,,,0,0,0,0,0,0,0,0,0,0,0,0,0,0,0,0,,,,,,0.0,,,,,,,,,,,,,,,
2385983,1745296631176,0.048,,,,,,,,,,,,,,,,,,,,,,,,,,,,,,,,,,0,0,0,0,0,0,0,0,0,0,0,0,0,0,0,0,,,,,,,,,,,,,,,,,,,,,
2386003,1745296631196,0.0483,0.0,-98,,0.21,-0.06,0.96,1,-0,0,0.99,1.2,83,7040,15.8,3.49,,9.94,1.008,100.6,,55.6,5,5,0,5,5,0.0,0.0,0.0,0.0,2.25,,,0,0,0,0,0,0,0,0,0,0,0,0,0,0,0,0,,0,,,,0.0,38.985775,-76.950661,6.73,48.0,31,3,0.9,0,0.0,-1,0.0,0.0,0,0.0004,0.0483
2386023,1745296631215,0.0486,,,,,,,,,,,,,,,,,,,,,,,,,,,,,,,,,,0,0,0,0,0,0,0,0,0,0,0,0,0,0,0,0,,,,,,,,,,,,,,,,,,,,,
2386043,1745296631235,0.049,0.0,-98,,0.22,0.01,0.96,0,-0,0,0.99,1.2,82,6661,16.2,3.62,,10.52,1.032,100.6,,55.6,5,,,,,,,,,,,,0,0,0,0,0,0,0,0,0,0,0,0,0,0,0,0,,,,,,0.0,,,,,,,,,,,,,,,
2386063,1745296631255,0.0493,,,,,,,,,,,,,,,,,,,,,,,,,,,,,,,,,,0,0,0,0,0,0,0,0,0,0,0,0,0,0,0,0,,,,,,,,,,,,,,,,,,,,,
2386083,1745296631275,0.0496,0.0,-110,,0.23,-0.09,0.91,2,-0,-0,0.95,1.2,79,6240,17.0,3.78,,10.52,1.032,100.6,,53.7,5,,,,,,,,,,,,0,0,0,0,0,0,0,0,0,0,0,0,0,0,0,0,,,,,,0.0,,,,,,,,,,,,,,,
2386103,1745296631295,0.05,,,,,,,,,,,,,,,,,,,,,,,5,0,5,5,0.0,0.0,0.0,0.0,2.26,,,0,0,0,0,0,0,0,0,0,0,0,0,0,0,0,0,,0,,,,,38.985779,-76.950661,7.78,48.0,31,3,0.9,0,0.0,-1,0.0,,0,0.0005,0.05
2386123,1745296631317,0.0503,0.0,-110,,0.25,-0.09,0.92,4,-0,-1,0.96,1.2,80,6240,17.0,3.78,,11.09,1.022,100.6,,53.7,5,,,,,,,,,,,,0,0,0,0,0,0,0,0,0,0,0,0,0,0,0,0,,,,,,0.0,,,,,,,,,,,,,,,
2386143,1745296631337,0.0506,,,,,,,,,,,,,,,,,,,,,,,,,,,,,,,,,,0,0,0,0,0,0,0,0,0,0,0,0,0,0,0,0,,,,,,,,,,,,,,,,,,,,,
2386163,1745296631357,0.051,0.0,-117,,0.22,-0.09,0.92,5,-1,-1,0.95,1.2,79,5895,17.8,4.12,,11.6,1.012,100.6,,51.7,5,,,,,,,,,,,,0,0,0,0,0,0,0,0,0,0,0,0,0,0,0,0,,,,,,0.0,,,,,,,,,,,,,,,
2386183,1745296631377,0.0513,,,,,,,,,,,,,,,,,,,,,,,,,,,,,,,,,,0,0,0,0,0,0,0,0,0,0,0,0,0,0,0,0,,,,,,,,,,,,,,,,,,,,,
2386203,1745296631397,0.0516,0.0,-102,,0.23,-0.05,0.95,5,-1,-0,0.97,1.2,81,5276,19.1,4.11,,12.37,1.023,100.6,,51.7,5,6,0,6,6,0.0,0.0,0.0,0.0,2.26,,,0,0,0,0,0,0,0,0,0,0,0,0,0,0,0,0,,0,,,,0.0,38.985779,-76.950668,8.69,48.0,31,3,0.9,0,0.0,-1,0.0,0.0,0,0.0007,0.0516
2386223,1745296631417,0.052,,,,,,,,,,,,,,,,,,,,,,,,,,,,,,,,,,0,0,0,0,0,0,0,0,0,0,0,0,0,0,0,0,,,,,,,,,,,,,,,,,,,,,
2386243,1745296631437,0.0523,0.0,-113,,0.24,0.05,1.02,4,-1,0,1.05,1.2,88,4631,22.8,4.28,,13.15,1.028,100.6,,51.7,5,,,,,,,,,,,,0,0,0,0,0,0,0,0,0,0,0,0,0,0,0,0,,,,,,0.0,,,,,,,,,,,,,,,
2386263,1745296631457,0.0526,,,,,,,,,,,,,,,,,,,,,,,,,,,,,,,,,,0,0,0,0,0,0,0,0,0,0,0,0,0,0,0,0,,,,,,,,,,,,,,,,,,,,,
2386283,1745296631477,0.053,0.0,-113,,0.22,0.11,1.1,4,-1,0,1.13,1.2,94,4274,26.6,4.46,,13.15,1.028,100.6,,40.2,5,,,,,,,,,,,,0,0,0,0,0,0,0,0,0,0,0,0,0,0,0,0,,,,,,0.0,,,,,,,,,,,,,,,
2386303,1745296631497,0.0533,,,,,,,,,,,,,,,,,,,,,,,7,0,7,7,0.0,0.0,0.0,0.0,2.26,,,0,0,0,0,0,0,0,0,0,0,0,0,0,0,0,0,,0,,,,,38.985779,-76.950668,9.31,48.0,31,3,0.9,0,0.0,-1,0.0,,0,0.0008,0.0533
2386323,1745296631517,0.0536,0.0,-129,,0.22,-0.01,1.02,5,-1,-0,1.04,1.2,87,4274,26.6,4.46,,13.63,0.995,100.6,,40.2,5,,,,,,,,,,,,0,0,0,0,0,0,0,0,0,0,0,0,0,0,0,0,,,,,,0.0,,,,,,,,,,,,,,,
2386343,1745296631537,0.054,,,,,,,,,,,,,,,,,,,,,,,,,,,,,,,,,,0,0,0,0,0,0,0,0,0,0,0,0,0,0,0,0,,,,,,,,,,,,,,,,,,,,,
2386363,1745296631557,0.0543,0.0,-117,,0.21,-0.03,1.0,5,-1,-0,1.02,1.2,85,3952,31.9,4.88,,14.08,1.039,100.6,,31.9,5,,,,,,,,,,,,0,0,0,0,0,0,0,0,0,0,0,0,0,0,0,0,,,,,,0.0,,,,,,,,,,,,,,,
2386383,1745296631577,0.0546,,,,,,,,,,,,,,,,,,,,,,,,,,,,,,,,,,0,0,0,0,0,0,0,0,0,0,0,0,0,0,0,0,,,,,,,,,,,,,,,,,,,,,
2386403,1745296631597,0.055,0.0,-129,13.54,0.2,0.08,1.03,5,-1,0,1.05,1.2,88,3524,34.7,4.42,15,14.27,1.081,100.6,173,31.9,5,7,0,7,7,0.0,49.0,0.0,0.0,2.26,0,1.0,0,0,0,0,0,0,0,0,0,0,0,0,0,0,0,0,0,0,1.0,0,0,0.0,38.985779,-76.950676,10.16,48.0,31,3,0.9,0,0.0,-1,0.0,0.0,0,0.001,0.055
2386423,1745296631617,0.0553,,,,,,,,,,,,,,,,,,,,,,,,,,,,,,,,,,0,0,0,0,0,0,0,0,0,0,0,0,0,0,0,0,,,,,,,,,,,,,,,,,,,,,
2386443,1745296631637,0.0556,0.0,-110,,0.18,0.07,1.0,6,-1,-0,1.01,1.2,85,3318,35.2,4.36,,14.28,1.081,100.6,,31.9,5,,,,,,,,,,,,0,0,0,0,0,0,0,0,0,0,0,0,0,0,0,0,,,,,,0.0,,,,,,,,,,,,,,,
2386463,1745296631657,0.056,,,,,,,,,,,,,,,,,,,,,,,,,,,,,,,,,,0,0,0,0,0,0,0,0,0,0,0,0,0,0,0,0,,,,,,,,,,,,,,,,,,,,,
2386483,1745296631677,0.0563,0.0,-113,,0.18,0.09,0.92,6,-1,-0,0.94,1.2,79,3116,35.5,4.51,,14.28,1.081,100.6,,26.4,5,,,,,,,,,,,,0,0,0,0,0,0,0,0,0,0,0,0,0,0,0,0,,,,,,0.0,,,,,,,,,,,,,,,
2386503,1745296631697,0.0566,,,,,,,,,,,,,,,,,,,,,,,8,0,8,8,0.0,9.0,0.0,0.0,2.26,,,0,0,0,0,0,0,0,0,0,0,0,0,0,0,0,0,,0,,,,,38.985779,-76.950676,11.14,48.0,31,3,0.9,0,0.0,-1,0.0,,0,0.0012,0.0566
2386523,1745296631717,0.057,0.0,-113,,0.16,0.1,0.88,7,-1,-0,0.9,1.2,75,3116,35.5,4.51,,14.31,1.093,100.6,,26.4,5,,,,,,,,,,,,0,0,0,0,0,0,0,0,0,0,0,0,0,0,0,0,,,,,,0.0,,,,,,,,,,,,,,,
2386543,1745296631737,0.0573,,,,,,,,,,,,,,,,,,,,,,,,,,,,,,,,,,0,0,0,0,0,0,0,0,0,0,0,0,0,0,0,0,,,,,,,,,,,,,,,,,,,,,
2386563,1745296631757,0.0576,0.0,-121,,0.16,0.08,0.91,7,-1,-0,0.92,1.2,77,2904,35.6,4.51,,14.35,1.119,100.6,,22.6,5,,,,,,,,,,,,0,0,0,0,0,0,0,0,0,0,0,0,0,0,0,0,,,,,,0.0,,,,,,,,,,,,,,,
2386583,1745296631777,0.058,,,,,,,,,,,,,,,,,,,,,,,,,,,,,,,,,,0,0,0,0,0,0,0,0,0,0,0,0,0,0,0,0,,,,,,,,,,,,,,,,,,,,,
2386603,1745296631797,0.0583,0.0,-117,,0.15,0.06,0.92,7,-1,-0,0.94,1.2,78,2684,35.8,4.45,,14.4,1.151,100.6,,22.6,5,8,0,8,8,0.0,240.0,0.0,0.0,2.25,,,0,0,0,0,0,0,0,0,0,0,0,0,0,0,0,0,,1,,,,0.0,38.985779,-76.950684,11.9,48.0,31,3,0.9,0,0.0,-1,0.0,0.0,0,0.0014,0.0583
2386623,1745296631818,0.0586,,,,,,,,,,,,,,,,,,,,,,,,,,,,,,,,,,0,0,0,0,0,0,0,0,0,0,0,0,0,0,0,0,,,,,,,,,,,,,,,,,,,,,
2386643,1745296631838,0.059,0.0,-129,,0.16,0.03,0.96,7,-1,-0,0.97,1.2,81,2456,35.8,4.4,,14.43,1.177,100.6,,22.6,5,,,,,,,,,,,,0,0,0,0,0,0,0,0,0,0,0,0,0,0,0,0,,,,,,0.0,,,,,,,,,,,,,,,
2386663,1745296631858,0.0593,,,,,,,,,,,,,,,,,,,,,,,,,,,,,,,,,,0,0,0,0,0,0,0,0,0,0,0,0,0,0,0,0,,,,,,,,,,,,,,,,,,,,,
2386683,1745296631878,0.0596,0.0,-121,,0.16,0.05,0.96,7,-1,-0,0.98,1.2,82,2256,35.8,4.36,,14.43,1.177,100.6,,18.6,5,,,,,,,,,,,,0,0,0,0,0,0,0,0,0,0,0,0,0,0,0,0,,,,,,0.0,,,,,,,,,,,,,,,
2386703,1745296631898,0.06,,,,,,,,,,,,,,,,,,,,,,,9,0,9,8,0.0,241.0,0.0,0.0,2.26,,,0,0,0,0,0,0,0,0,0,0,0,0,0,0,0,0,,0,,,,,38.985779,-76.950684,12.82,48.0,31,3,0.9,0,0.0,-1,0.0,,0,0.0016,0.06
2386723,1745296631919,0.0603,0.0,-113,,0.14,0.02,0.95,8,-1,-0,0.96,1.2,80,2256,35.8,4.36,,14.47,1.202,100.6,,18.6,5,,,,,,,,,,,,0,0,0,0,0,0,0,0,0,0,0,0,0,0,0,0,,,,,,0.0,,,,,,,,,,,,,,,
2386743,1745296631939,0.0606,,,,,,,,,,,,,,,,,,,,,,,,,,,,,,,,,,0,0,0,0,0,0,0,0,0,0,0,0,0,0,0,0,,,,,,,,,,,,,,,,,,,,,
2386763,1745296631959,0.061,0.0,-129,,0.12,0.03,0.96,8,-2,-0,0.97,1.2,81,2148,35.8,4.28,,14.42,1.223,100.6,,17.1,5,,,,,,,,,,,,0,0,0,0,0,0,0,0,0,0,0,0,0,0,0,0,,,,,,0.0,,,,,,,,,,,,,,,
2386783,1745296631979,0.0613,,,,,,,,,,,,,,,,,,,,,,,,,,,,,,,,,,0,0,0,0,0,0,0,0,0,0,0,0,0,0,0,0,,,,,,,,,,,,,,,,,,,,,
2386803,1745296631999,0.0616,0.0,-117,,0.11,0.02,0.98,8,-2,-0,0.98,1.2,82,2141,34.6,4.42,,14.42,1.209,100.6,,17.1,5,9,0,9,8,0.0,249.0,0.0,0.0,2.26,,,0,0,0,0,0,0,0,0,0,0,0,0,0,0,0,0,,2,,,,0.0,38.985779,-76.950691,13.39,48.0,31,3,0.9,0,0.0,-1,0.0,0.0,0,0.0019,0.0616
2386823,1745296632009,0.062,,,,,,,,,,,,,,,,,,,,,,,,,,,,,,,,,,0,0,0,0,0,0,0,0,0,0,0,0,0,0,0,0,,,,,,,,,,,,,,,,,,,,,
2386843,1745296632029,0.0623,0.0,-125,,0.1,0.05,0.99,8,-2,-0,1.0,1.2,83,2045,34.5,4.45,,14.44,1.208,100.6,,17.1,5,,,,,,,,,,,,0,0,0,0,0,0,0,0,0,0,0,0,0,0,0,0,,,,,,0.0,,,,,,,,,,,,,,,
2386863,1745296632049,0.0626,,,,,,,,,,,,,,,,,,,,,,,,,,,,,,,,,,0,0,0,0,0,0,0,0,0,0,0,0,0,0,0,0,,,,,,,,,,,,,,,,,,,,,
2386883,1745296632069,0.063,0.0,-129,,0.09,0.03,1.0,8,-2,0,1.0,1.2,84,2086,34.4,4.48,,14.44,1.208,100.6,,18.3,5,,,,,,,,,,,,0,0,0,0,0,0,0,0,0,0,0,0,0,0,0,0,,,,,,0.0,,,,,,,,,,,,,,,
2386903,1745296632089,0.0633,,,,,,,,,,,,,,,,,,,,,,,9,0,9,8,0.0,249.0,0.0,0.0,2.26,,,0,0,0,0,0,0,0,0,0,0,0,0,0,0,0,0,,2,,,,,38.985779,-76.950699,13.81,48.0,31,3,0.9,0,0.0,-1,0.0,,0,0.0021,0.0633
2386923,1745296632115,0.0636,0.0,-129,,0.07,0.04,0.98,8,-1,0,0.99,1.2,83,2086,34.4,4.48,,14.5,1.188,100.6,,18.3,5,,,,,,,,,,,,0,0,0,0,0,0,0,0,0,0,0,0,0,0,0,0,,,,,,0.0,,,,,,,,,,,,,,,
2386943,1745296632135,0.064,,,,,,,,,,,,,,,,,,,,,,,,,,,,,,,,,,0,0,0,0,0,0,0,0,0,0,0,0,0,0,0,0,,,,,,,,,,,,,,,,,,,,,
2386963,1745296632155,0.0643,0.0,-121,,0.05,0.05,0.98,8,-1,0,0.98,1.2,82,2076,34.3,4.51,,14.46,1.179,100.6,,18.7,5,,,,,,,,,,,,0,0,0,0,0,0,0,0,0,0,0,0,0,0,0,0,,,,,,0.0,,,,,,,,,,,,,,,
2386983,1745296632175,0.0646,,,,,,,,,,,,,,,,,,,,,,,,,,,,,,,,,,0,0,0,0,0,0,0,0,0,0,0,0,0,0,0,0,,,,,,,,,,,,,,,,,,,,,
2387003,1745296632195,0.065,0.0,-117,,0.08,0.05,0.99,8,-1,0,1.0,1.2,83,2080,34.3,4.51,,14.51,1.191,100.6,,18.7,5,9,0,9,9,0.0,22.0,0.0,0.0,2.26,,,0,0,0,0,0,0,0,0,0,0,0,0,0,0,0,0,,0,,,,0.0,38.985779,-76.950699,13.96,48.0,31,3,0.9,0,0.0,-1,0.0,0.0,0,0.0023,0.065
2387023,1745296632219,0.0653,,,,,,,,,,,,,,,,,,,,,,,,,,,,,,,,,,0,0,0,0,0,0,0,0,0,0,0,0,0,0,0,0,,,,,,,,,,,,,,,,,,,,,
2387043,1745296632239,0.0656,0.0,-125,,0.08,0.04,1.01,8,-1,0,1.01,1.2,84,2126,34.3,4.53,,14.46,1.187,100.6,,18.7,5,,,,,,,,,,,,0,0,0,0,0,0,0,0,0,0,0,0,0,0,0,0,,,,,,0.0,,,,,,,,,,,,,,,
2387063,1745296632259,0.066,,,,,,,,,,,,,,,,,,,,,,,,,,,,,,,,,,0,0,0,0,0,0,0,0,0,0,0,0,0,0,0,0,,,,,,,,,,,,,,,,,,,,,
2387083,1745296632279,0.0663,0.0,-129,,0.07,0.04,1.01,9,-1,0,1.01,1.2,85,2274,34.3,4.48,,14.46,1.187,100.6,,18.5,5,,,,,,,,,,,,0,0,0,0,0,0,0,0,0,0,0,0,0,0,0,0,,,,,,0.0,,,,,,,,,,,,,,,
2387103,1745296632299,0.0667,,,,,,,,,,,,,,,,,,,,,,,9,0,9,9,0.0,228.0,0.0,0.0,2.25,,,0,0,0,0,0,0,0,0,0,0,0,0,0,0,0,0,,2,,,,,38.985779,-76.950699,14.16,47.9,31,3,0.9,0,0.0,-1,0.0,,0,0.0026,0.0667
2387123,1745296632316,0.067,0.0,-121,,0.07,0.02,1.01,9,-1,0,1.01,1.2,85,2274,34.3,4.48,,14.42,1.189,100.6,,18.5,5,,,,,,,,,,,,0,0,0,0,0,0,0,0,0,0,0,0,0,0,0,0,,,,,,0.0,,,,,,,,,,,,,,,
2387143,1745296632336,0.0673,,,,,,,,,,,,,,,,,,,,,,,,,,,,,,,,,,0,0,0,0,0,0,0,0,0,0,0,0,0,0,0,0,,,,,,,,,,,,,,,,,,,,,
2387163,1745296632356,0.0676,0.0,-135,,0.05,0.02,1.0,9,-1,0,1.0,1.2,83,2334,34.4,4.52,,14.46,1.183,100.6,,18.3,5,,,,,,,,,,,,0,0,0,0,0,0,0,0,0,0,0,0,0,0,0,0,,,,,,0.0,,,,,,,,,,,,,,,
2387183,1745296632376,0.068,,,,,,,,,,,,,,,,,,,,,,,,,,,,,,,,,,0,0,0,0,0,0,0,0,0,0,0,0,0,0,0,0,,,,,,,,,,,,,,,,,,,,,
2387203,1745296632396,0.0683,0.0,-132,,0.04,0.03,1.0,9,-1,0,1.0,1.2,83,2303,34.4,4.5,,14.44,1.172,100.6,,18.3,5,10,0,10,9,0.0,21.0,0.0,0.0,2.26,,,0,0,0,0,0,0,0,0,0,0,0,0,0,0,0,0,,2,,,,0.0,38.985779,-76.950706,14.35,47.9,31,3,0.9,0,0.0,-1,0.0,0.0,0,0.0028,0.0683
2387223,1745296632418,0.0686,,,,,,,,,,,,,,,,,,,,,,,,,,,,,,,,,,0,0,0,0,0,0,0,0,0,0,0,0,0,0,0,0,,,,,,,,,,,,,,,,,,,,,
2387243,1745296632438,0.069,0.0,-121,,0.04,0.01,0.99,9,-1,-0,0.99,1.2,83,2339,31.7,4.78,,14.4,1.179,100.6,,18.3,5,,,,,,,,,,,,0,0,0,0,0,0,0,0,0,0,0,0,0,0,0,0,,,,,,0.0,,,,,,,,,,,,,,,
2387263,1745296632458,0.0693,,,,,,,,,,,,,,,,,,,,,,,,,,,,,,,,,,0,0,0,0,0,0,0,0,0,0,0,0,0,0,0,0,,,,,,,,,,,,,,,,,,,,,
2387283,1745296632478,0.0696,0.0,-129,,0.04,0.02,0.99,9,-1,-0,0.99,1.2,83,2386,30.2,4.78,,14.4,1.179,100.6,,18.4,5,,,,,,,,,,,,0,0,0,0,0,0,0,0,0,0,0,0,0,0,0,0,,,,,,0.0,,,,,,,,,,,,,,,
2387303,1745296632498,0.07,,,,,,,,,,,,,,,,,,,,,,,10,0,10,9,0.0,236.0,0.0,0.0,2.26,,,0,0,0,0,0,0,0,0,0,0,0,0,0,0,0,0,,0,,,,,38.985779,-76.950714,14.67,47.9,31,3,0.9,0,0.0,-1,0.0,,0,0.0031,0.07
2387323,1745296632518,0.0703,0.0,-121,,0.06,0.03,1.0,9,-0,-0,1.0,1.2,84,2386,30.2,4.78,,14.39,1.172,100.6,,18.4,5,,,,,,,,,,,,0,0,0,0,0,0,0,0,0,0,0,0,0,0,0,0,,,,,,0.0,,,,,,,,,,,,,,,
2387343,1745296632538,0.0706,,,,,,,,,,,,,,,,,,,,,,,,,,,,,,,,,,0,0,0,0,0,0,0,0,0,0,0,0,0,0,0,0,,,,,,,,,,,,,,,,,,,,,
2387363,1745296632558,0.071,0.0,-125,,0.06,0.05,1.01,9,-1,-0,1.01,1.2,85,2372,27.0,4.77,,14.35,1.168,100.6,,18.7,5,,,,,,,,,,,,0,0,0,0,0,0,0,0,0,0,0,0,0,0,0,0,,,,,,0.0,,,,,,,,,,,,,,,
2387383,1745296632578,0.0713,,,,,,,,,,,,,,,,,,,,,,,,,,,,,,,,,,0,0,0,0,0,0,0,0,0,0,0,0,0,0,0,0,,,,,,,,,,,,,,,,,,,,,
2387403,1745296632598,0.0716,0.0,-132,13.59,0.03,0.07,1.01,9,-1,0,1.01,1.2,84,2402,25.3,4.61,15,14.34,1.172,100.6,173,18.7,5,10,0,10,9,0.0,13.0,0.0,0.0,2.26,0,1.0,0,0,0,0,0,0,0,0,0,0,0,0,0,0,0,0,0,2,1.0,0,0,0.0,38.985779,-76.950714,14.93,47.9,31,3,0.9,0,0.0,-1,0.0,0.0,0,0.0033,0.0716
2387423,1745296632616,0.072,,,,,,,,,,,,,,,,,,,,,,,,,,,,,,,,,,0,0,0,0,0,0,0,0,0,0,0,0,0,0,0,0,,,,,,,,,,,,,,,,,,,,,
2387443,1745296632636,0.0723,0.0,-121,,0.03,0.08,0.99,9,-1,-0,0.99,1.2,83,2418,25.0,4.57,,14.35,1.163,100.6,,18.7,5,,,,,,,,,,,,0,0,0,0,0,0,0,0,0,0,0,0,0,0,0,0,,,,,,0.0,,,,,,,,,,,,,,,
2387463,1745296632656,0.0726,,,,,,,,,,,,,,,,,,,,,,,,,,,,,,,,,,0,0,0,0,0,0,0,0,0,0,0,0,0,0,0,0,,,,,,,,,,,,,,,,,,,,,
2387483,1745296632676,0.073,0.0,-113,,0.02,0.1,1.0,9,-0,0,1.0,1.2,84,2410,24.7,4.56,,14.35,1.163,100.6,,19.2,5,,,,,,,,,,,,0,0,0,0,0,0,0,0,0,0,0,0,0,0,0,0,,,,,,0.0,,,,,,,,,,,,,,,
2387503,1745296632696,0.0733,,,,,,,,,,,,,,,,,,,,,,,10,0,10,10,0.0,35.0,0.0,0.0,2.26,,,0,0,0,0,0,0,0,0,0,0,0,0,0,0,0,0,,2,,,,,38.985779,-76.950722,15.21,47.9,31,3,0.9,0,0.0,-1,0.0,,0,0.0036,0.0733
2387523,1745296632718,0.0736,0.0,-135,,0.03,0.11,0.99,9,-0,-0,1.0,1.2,83,2410,24.7,4.56,,14.34,1.15,100.6,,19.2,5,,,,,,,,,,,,0,0,0,0,0,0,0,0,0,0,0,0,0,0,0,0,,,,,,0.0,,,,,,,,,,,,,,,
2387543,1745296632738,0.074,,,,,,,,,,,,,,,,,,,,,,,,,,,,,,,,,,0,0,0,0,0,0,0,0,0,0,0,0,0,0,0,0,,,,,,,,,,,,,,,,,,,,,
2387563,1745296632758,0.0743,0.0,-132,,0.01,0.16,0.96,9,-0,-0,0.97,1.2,81,2446,24.6,4.55,,14.36,1.131,100.6,,19.5,5,,,,,,,,,,,,0,0,0,0,0,0,0,0,0,0,0,0,0,0,0,0,,,,,,0.0,,,,,,,,,,,,,,,
2387583,1745296632778,0.0746,,,,,,,,,,,,,,,,,,,,,,,,,,,,,,,,,,0,0,0,0,0,0,0,0,0,0,0,0,0,0,0,0,,,,,,,,,,,,,,,,,,,,,
2387603,1745296632798,0.075,0.0,-135,,0.02,0.16,0.97,9,-0,-0,0.98,1.2,82,2487,24.6,4.53,,14.34,1.102,100.6,,19.5,5,10,0,10,10,0.0,230.0,0.0,0.0,2.26,,,0,0,0,0,0,0,0,0,0,0,0,0,0,0,0,0,,0,,,,0.0,38.985779,-76.950729,15.35,47.9,31,3,0.9,0,0.0,-1,0.0,0.0,0,0.0039,0.075
2387623,1745296632818,0.0753,,,,,,,,,,,,,,,,,,,,,,,,,,,,,,,,,,0,0,0,0,0,0,0,0,0,0,0,0,0,0,0,0,,,,,,,,,,,,,,,,,,,,,
2387643,1745296632838,0.0756,0.0,-135,,0.02,0.15,0.98,9,-0,-0,0.99,1.2,83,2447,24.6,4.53,,14.35,1.104,100.6,,19.5,5,,,,,,,,,,,,0,0,0,0,0,0,0,0,0,0,0,0,0,0,0,0,,,,,,0.0,,,,,,,,,,,,,,,
2387663,1745296632858,0.076,,,,,,,,,,,,,,,,,,,,,,,,,,,,,,,,,,0,0,0,0,0,0,0,0,0,0,0,0,0,0,0,0,,,,,,,,,,,,,,,,,,,,,
2387683,1745296632878,0.0763,0.0,-129,,0.02,0.16,0.97,9,-0,-0,0.98,1.2,82,2499,21.1,4.59,,14.35,1.104,100.6,,19.6,5,,,,,,,,,,,,0,0,0,0,0,0,0,0,0,0,0,0,0,0,0,0,,,,,,0.0,,,,,,,,,,,,,,,
2387703,1745296632898,0.0766,,,,,,,,,,,,,,,,,,,,,,,10,0,11,9,0.0,0.0,0.0,0.0,2.26,,,0,0,0,0,0,0,0,0,0,0,0,0,0,0,0,0,,0,,,,,38.985779,-76.950737,15.61,47.9,31,3,0.9,0,0.0,-1,0.0,,0,0.0041,0.0766
2387723,1745296632918,0.077,0.0,-121,,0.01,0.14,0.94,10,-0,-0,0.95,1.2,80,2499,21.1,4.59,,14.27,1.113,100.6,,19.6,5,,,,,,,,,,,,0,0,0,0,0,0,0,0,0,0,0,0,0,0,0,0,,,,,,0.0,,,,,,,,,,,,,,,
2387743,1745296632938,0.0773,,,,,,,,,,,,,,,,,,,,,,,,,,,,,,,,,,0,0,0,0,0,0,0,0,0,0,0,0,0,0,0,0,,,,,,,,,,,,,,,,,,,,,
2387763,1745296632958,0.0777,0.0,-121,,0.0,0.14,0.93,10,-0,-0,0.94,1.2,78,2483,20.7,4.59,,14.28,1.128,100.6,,19.8,5,,,,,,,,,,,,0,0,0,0,0,0,0,0,0,0,0,0,0,0,0,0,,,,,,0.0,,,,,,,,,,,,,,,
2387783,1745296632978,0.078,,,,,,,,,,,,,,,,,,,,,,,,,,,,,,,,,,0,0,0,0,0,0,0,0,0,0,0,0,0,0,0,0,,,,,,,,,,,,,,,,,,,,,
2387803,1745296632998,0.0783,0.0,-121,,-0.01,0.15,0.95,10,-0,-0,0.96,1.2,80,2488,20.5,4.59,,14.26,1.13,100.6,,19.8,5,10,0,10,10,0.0,237.0,0.0,0.0,2.26,,,0,0,0,0,0,0,0,0,0,0,0,0,0,0,0,0,,2,,,,0.0,38.985779,-76.950737,15.92,47.9,31,3,0.9,0,0.0,-1,0.0,0.0,0,0.0044,0.0783
2387823,1745296633010,0.0786,,,,,,,,,,,,,,,,,,,,,,,,,,,,,,,,,,0,0,0,0,0,0,0,0,0,0,0,0,0,0,0,0,,,,,,,,,,,,,,,,,,,,,
2387843,1745296633030,0.079,0.0,-117,,0.0,0.16,0.95,10,-0,-0,0.97,1.2,81,2491,19.4,4.6,,14.24,1.112,100.6,,19.8,5,,,,,,,,,,,,0,0,0,0,0,0,0,0,0,0,0,0,0,0,0,0,,,,,,0.0,,,,,,,,,,,,,,,
2387863,1745296633050,0.0793,,,,,,,,,,,,,,,,,,,,,,,,,,,,,,,,,,0,0,0,0,0,0,0,0,0,0,0,0,0,0,0,0,,,,,,,,,,,,,,,,,,,,,
2387883,1745296633070,0.0796,0.0,-129,,-0.01,0.18,0.94,10,-0,0,0.95,1.2,80,2495,18.4,4.55,,14.24,1.112,100.6,,20.2,5,,,,,,,,,,,,0,0,0,0,0,0,0,0,0,0,0,0,0,0,0,0,,,,,,0.0,,,,,,,,,,,,,,,
2387903,1745296633090,0.08,,,,,,,,,,,,,,,,,,,,,,,11,0,10,10,0.0,243.0,0.0,0.0,2.26,,,0,0,0,0,0,0,0,0,0,0,0,0,0,0,0,0,,2,,,,,38.985779,-76.950737,15.98,47.9,31,3,0.9,0,0.0,-1,0.0,,0,0.0047,0.08
2387923,1745296633116,0.0803,0.0,-129,,-0.01,0.18,0.98,10,-0,0,0.99,1.2,83,2495,18.4,4.55,,14.22,1.091,100.6,,20.2,5,,,,,,,,,,,,0,0,0,0,0,0,0,0,0,0,0,0,0,0,0,0,,,,,,0.0,,,,,,,,,,,,,,,
2387943,1745296633136,0.0806,,,,,,,,,,,,,,,,,,,,,,,,,,,,,,,,,,0,0,0,0,0,0,0,0,0,0,0,0,0,0,0,0,,,,,,,,,,,,,,,,,,,,,
2387963,1745296633156,0.081,0.0,-117,,-0.01,0.16,0.99,11,0,0,1.0,1.2,84,2530,18.2,4.53,,14.2,1.091,100.6,,20.5,5,,,,,,,,,,,,0,0,0,0,0,0,0,0,0,0,0,0,0,0,0,0,,,,,,0.0,,,,,,,,,,,,,,,
2387983,1745296633176,0.0813,,,,,,,,,,,,,,,,,,,,,,,,,,,,,,,,,,0,0,0,0,0,0,0,0,0,0,0,0,0,0,0,0,,,,,,,,,,,,,,,,,,,,,
2388003,1745296633196,0.0816,0.0,-135,,-0.03,0.18,0.98,11,0,0,1.0,1.2,84,2513,18.1,4.53,,14.23,1.083,100.6,,20.5,5,11,0,10,10,0.0,0.0,0.0,0.0,2.25,,,0,0,0,0,0,0,0,0,0,0,0,0,0,0,0,0,,2,,,,0.0,38.985775,-76.950745,16.11,47.9,31,3,0.9,0,0.0,-1,0.0,0.0,0,0.005,0.0816
2388023,1745296633216,0.082,,,,,,,,,,,,,,,,,,,,,,,,,,,,,,,,,,0,0,0,0,0,0,0,0,0,0,0,0,0,0,0,0,,,,,,,,,,,,,,,,,,,,,
2388043,1745296633236,0.0823,0.0,-125,,-0.03,0.15,0.99,11,0,0,1.01,1.2,84,2561,17.8,4.52,,14.22,1.087,100.6,,20.5,5,,,,,,,,,,,,0,0,0,0,0,0,0,0,0,0,0,0,0,0,0,0,,,,,,0.0,,,,,,,,,,,,,,,
2388063,1745296633256,0.0826,,,,,,,,,,,,,,,,,,,,,,,,,,,,,,,,,,0,0,0,0,0,0,0,0,0,0,0,0,0,0,0,0,,,,,,,,,,,,,,,,,,,,,
2388083,1745296633276,0.083,0.0,-113,,-0.02,0.15,1.0,12,-0,-0,1.02,1.2,85,2540,17.9,4.5,,14.22,1.087,100.6,,20.6,5,,,,,,,,,,,,0,0,0,0,0,0,0,0,0,0,0,0,0,0,0,0,,,,,,0.0,,,,,,,,,,,,,,,
2388103,1745296633296,0.0833,,,,,,,,,,,,,,,,,,,,,,,11,0,11,10,0.0,237.0,0.0,0.0,2.26,,,0,0,0,0,0,0,0,0,0,0,0,0,0,0,0,0,,2,,,,,38.985775,-76.950752,16.17,47.9,31,3,0.9,0,0.0,-1,0.0,,0,0.0052,0.0833
2388123,1745296633317,0.0836,0.0,-121,,-0.01,0.14,0.98,12,-0,-0,0.99,1.2,83,2540,17.9,4.5,,14.23,1.096,100.6,,20.6,5,,,,,,,,,,,,0,0,0,0,0,0,0,0,0,0,0,0,0,0,0,0,,,,,,0.0,,,,,,,,,,,,,,,
2388143,1745296633337,0.084,,,,,,,,,,,,,,,,,,,,,,,,,,,,,,,,,,0,0,0,0,0,0,0,0,0,0,0,0,0,0,0,0,,,,,,,,,,,,,,,,,,,,,
2388163,1745296633357,0.0843,0.0,-117,,-0.01,0.17,1.0,12,-0,0,1.02,1.2,85,2550,17.9,4.51,,14.19,1.101,100.6,,21.0,5,,,,,,,,,,,,0,0,0,0,0,0,0,0,0,0,0,0,0,0,0,0,,,,,,0.0,,,,,,,,,,,,,,,
2388183,1745296633377,0.0846,,,,,,,,,,,,,,,,,,,,,,,,,,,,,,,,,,0,0,0,0,0,0,0,0,0,0,0,0,0,0,0,0,,,,,,,,,,,,,,,,,,,,,
2388203,1745296633397,0.085,0.0,-135,,-0.01,0.15,1.02,13,-1,-0,1.03,1.2,86,2556,17.9,4.5,,14.19,1.102,100.6,,21.0,5,11,0,11,10,0.0,250.0,0.0,0.0,2.26,,,0,0,0,0,0,0,0,0,0,0,0,0,0,0,0,0,,2,,,,0.0,38.985775,-76.95076,16.33,47.9,31,3,0.9,0,0.0,-1,0.0,0.0,0,0.0055,0.085
2388223,1745296633417,0.0853,,,,,,,,,,,,,,,,,,,,,,,,,,,,,,,,,,0,0,0,0,0,0,0,0,0,0,0,0,0,0,0,0,,,,,,,,,,,,,,,,,,,,,
2388243,1745296633437,0.0856,0.0,-125,,-0.02,0.15,1.0,13,-1,-0,1.01,1.2,85,2503,17.8,4.47,,14.22,1.094,100.6,,21.0,5,,,,,,,,,,,,0,0,0,0,0,0,0,0,0,0,0,0,0,0,0,0,,,,,,0.0,,,,,,,,,,,,,,,
2388263,1745296633457,0.086,,,,,,,,,,,,,,,,,,,,,,,,,,,,,,,,,,0,0,0,0,0,0,0,0,0,0,0,0,0,0,0,0,,,,,,,,,,,,,,,,,,,,,
2388283,1745296633477,0.0863,0.0,-132,,-0.02,0.22,1.02,14,-1,0,1.04,1.2,87,2495,17.8,4.46,,14.22,1.094,100.6,,21.5,5,,,,,,,,,,,,0,0,0,0,0,0,0,0,0,0,0,0,0,0,0,0,,,,,,0.0,,,,,,,,,,,,,,,
2388303,1745296633497,0.0866,,,,,,,,,,,,,,,,,,,,,,,11,0,11,10,0.0,244.0,0.0,0.0,2.26,,,0,0,0,0,0,0,0,0,0,0,0,0,0,0,0,0,,2,,,,,38.985775,-76.950768,16.57,47.9,31,3,0.9,0,0.0,-1,0.0,,0,0.0058,0.0866
2388323,1745296633517,0.087,0.0,-125,,-0.02,0.22,1.01,14,-1,0,1.03,1.2,86,2495,17.8,4.46,,14.24,1.084,100.6,,21.5,5,,,,,,,,,,,,0,0,0,0,0,0,0,0,0,0,0,0,0,0,0,0,,,,,,0.0,,,,,,,,,,,,,,,
2388343,1745296633537,0.0873,,,,,,,,,,,,,,,,,,,,,,,,,,,,,,,,,,0,0,0,0,0,0,0,0,0,0,0,0,0,0,0,0,,,,,,,,,,,,,,,,,,,,,
2388363,1745296633557,0.0876,0.0,-125,,-0.01,0.17,1.05,14,-1,0,1.06,1.2,89,2487,17.7,4.47,,14.24,1.085,100.6,,21.7,5,,,,,,,,,,,,0,0,0,0,0,0,0,0,0,0,0,0,0,0,0,0,,,,,,0.0,,,,,,,,,,,,,,,
2388383,1745296633577,0.088,,,,,,,,,,,,,,,,,,,,,,,,,,,,,,,,,,0,0,0,0,0,0,0,0,0,0,0,0,0,0,0,0,,,,,,,,,,,,,,,,,,,,,
2388403,1745296633597,0.0883,0.0,-129,13.63,-0.02,0.18,1.05,15,-1,-0,1.07,1.2,89,2512,17.7,4.46,15,14.23,1.108,100.6,171,21.7,5,11,0,11,10,0.0,31.0,0.0,0.0,2.26,0,1.0,0,0,0,0,0,0,0,0,0,0,0,0,0,0,0,0,0,2,1.0,0,0,0.0,38.985775,-76.950768,16.74,47.9,31,3,0.9,0,0.0,-1,0.0,0.0,0,0.0061,0.0883
2388423,1745296633619,0.0887,,,,,,,,,,,,,,,,,,,,,,,,,,,,,,,,,,0,0,0,0,0,0,0,0,0,0,0,0,0,0,0,0,,,,,,,,,,,,,,,,,,,,,
2388443,1745296633639,0.089,0.0,-117,,-0.02,0.17,1.0,15,-1,-0,1.01,1.2,85,2512,17.6,4.47,,14.22,1.115,100.6,,21.7,5,,,,,,,,,,,,0,0,0,0,0,0,0,0,0,0,0,0,0,0,0,0,,,,,,0.0,,,,,,,,,,,,,,,
2388463,1745296633659,0.0893,,,,,,,,,,,,,,,,,,,,,,,,,,,,,,,,,,0,0,0,0,0,0,0,0,0,0,0,0,0,0,0,0,,,,,,,,,,,,,,,,,,,,,
2388483,1745296633679,0.0896,0.0,-129,,-0.02,0.11,1.03,16,-1,-1,1.03,1.03,100,2564,16.3,4.45,,14.22,1.115,100.6,,21.9,5,,,,,,,,,,,,0,0,0,0,0,0,0,0,0,0,0,0,0,0,0,0,,,,,,0.0,,,,,,,,,,,,,,,
2388503,1745296633699,0.09,,,,,,,,,,,,,,,,,,,,,,,11,0,11,10,0.0,226.0,0.0,0.0,2.26,,,0,0,0,0,0,0,0,0,0,0,0,0,0,0,0,0,,2,,,,,38.985775,-76.950775,16.98,47.9,31,3,0.9,0,0.0,-1,0.0,,0,0.0064,0.09
2388523,1745296633717,0.0903,0.0,-129,,-0.01,0.12,1.01,16,-1,-1,1.01,1.03,98,2564,16.3,4.45,,14.2,1.106,100.6,,21.9,5,,,,,,,,,,,,0,0,0,0,0,0,0,0,0,0,0,0,0,0,0,0,,,,,,0.0,,,,,,,,,,,,,,,
2388543,1745296633737,0.0906,,,,,,,,,,,,,,,,,,,,,,,,,,,,,,,,,,0,0,0,0,0,0,0,0,0,0,0,0,0,0,0,0,,,,,,,,,,,,,,,,,,,,,
2388563,1745296633757,0.091,0.0,-132,,-0.01,0.15,1.02,17,-1,-1,1.04,1.04,100,2579,14.7,4.33,,14.11,1.102,100.6,,21.5,5,,,,,,,,,,,,0,0,0,0,0,0,0,0,0,0,0,0,0,0,0,0,,,,,,0.0,,,,,,,,,,,,,,,
2388583,1745296633777,0.0913,,,,,,,,,,,,,,,,,,,,,,,,,,,,,,,,,,0,0,0,0,0,0,0,0,0,0,0,0,0,0,0,0,,,,,,,,,,,,,,,,,,,,,
2388603,1745296633797,0.0916,0.0,-135,,-0.01,0.17,1.02,17,-1,-1,1.04,1.04,100,2639,13.2,4.06,,14.07,1.102,100.6,,21.5,5,11,0,11,10,0.0,239.0,0.0,0.0,2.26,,,0,0,0,0,0,0,0,0,0,0,0,0,0,0,0,0,,2,,,,0.0,38.985775,-76.950775,16.97,47.9,31,3,0.9,0,0.0,-1,0.0,0.0,0,0.0067,0.0916
2388623,1745296633817,0.092,,,,,,,,,,,,,,,,,,,,,,,,,,,,,,,,,,0,0,0,0,0,0,0,0,0,0,0,0,0,0,0,0,,,,,,,,,,,,,,,,,,,,,
2388643,1745296633837,0.0923,0.0,-135,,-0.02,0.18,1.05,17,-1,-1,1.06,1.06,100,2613,11.9,3.91,,14.02,1.115,100.6,,21.5,5,,,,,,,,,,,,0,0,0,0,0,0,0,0,0,0,0,0,0,0,0,0,,,,,,0.0,,,,,,,,,,,,,,,
2388663,1745296633857,0.0926,,,,,,,,,,,,,,,,,,,,,,,,,,,,,,,,,,0,0,0,0,0,0,0,0,0,0,0,0,0,0,0,0,,,,,,,,,,,,,,,,,,,,,
2388683,1745296633877,0.093,0.0,-135,,-0.01,0.18,1.0,18,-1,-0,1.02,1.06,95,2669,11.8,3.9,,14.02,1.115,100.6,,21.3,5,,,,,,,,,,,,0,0,0,0,0,0,0,0,0,0,0,0,0,0,0,0,,,,,,0.0,,,,,,,,,,,,,,,
2388703,1745296633897,0.0933,,,,,,,,,,,,,,,,,,,,,,,12,0,12,10,0.0,211.0,0.0,0.0,2.26,,,0,0,0,0,0,0,0,0,0,0,0,0,0,0,0,0,,2,,,,,38.985771,-76.950783,17.07,47.9,31,3,0.9,0,0.0,-1,0.0,,0,0.007,0.0933
2388723,1745296633917,0.0936,0.0,-125,,-0.01,0.2,1.03,18,-1,-0,1.05,1.06,99,2669,11.8,3.9,,13.95,1.111,100.6,,21.3,5,,,,,,,,,,,,0,0,0,0,0,0,0,0,0,0,0,0,0,0,0,0,,,,,,0.0,,,,,,,,,,,,,,,
2388743,1745296633937,0.094,,,,,,,,,,,,,,,,,,,,,,,,,,,,,,,,,,0,0,0,0,0,0,0,0,0,0,0,0,0,0,0,0,,,,,,,,,,,,,,,,,,,,,
2388763,1745296633957,0.0943,0.0,-125,,-0.0,0.21,1.01,19,-1,-0,1.03,1.06,97,2668,11.7,3.92,,13.98,1.114,100.6,,21.9,5,,,,,,,,,,,,0,0,0,0,0,0,0,0,0,0,0,0,0,0,0,0,,,,,,0.0,,,,,,,,,,,,,,,
2388783,1745296633977,0.0946,,,,,,,,,,,,,,,,,,,,,,,,,,,,,,,,,,0,0,0,0,0,0,0,0,0,0,0,0,0,0,0,0,,,,,,,,,,,,,,,,,,,,,
2388803,1745296633997,0.095,0.0,-121,,0.01,0.19,1.03,19,-1,-0,1.05,1.06,99,2692,11.8,3.92,,13.96,1.111,100.6,,21.9,5,11,0,11,11,0.0,239.0,0.0,0.0,2.26,,,0,0,0,0,0,0,0,0,0,0,0,0,0,0,0,0,,2,,,,0.0,38.985771,-76.95079,17.29,47.9,31,3,0.9,0,0.0,-1,0.0,0.0,0,0.0073,0.095
2388823,1745296634009,0.0953,,,,,,,,,,,,,,,,,,,,,,,,,,,,,,,,,,0,0,0,0,0,0,0,0,0,0,0,0,0,0,0,0,,,,,,,,,,,,,,,,,,,,,
2388843,1745296634029,0.0956,0.0,-135,,0.01,0.2,1.01,20,-1,-0,1.03,1.06,97,2612,11.7,3.94,,13.96,1.131,100.6,,21.9,5,,,,,,,,,,,,0,0,0,0,0,0,0,0,0,0,0,0,0,0,0,0,,,,,,0.0,,,,,,,,,,,,,,,
2388863,1745296634049,0.096,,,,,,,,,,,,,,,,,,,,,,,,,,,,,,,,,,0,0,0,0,0,0,0,0,0,0,0,0,0,0,0,0,,,,,,,,,,,,,,,,,,,,,
2388883,1745296634069,0.0963,0.0,-125,,-0.0,0.22,1.03,20,-1,-0,1.05,1.06,99,2577,11.6,3.94,,13.96,1.131,100.6,,22.4,5,,,,,,,,,,,,0,0,0,0,0,0,0,0,0,0,0,0,0,0,0,0,,,,,,0.0,,,,,,,,,,,,,,,
2388903,1745296634089,0.0966,,,,,,,,,,,,,,,,,,,,,,,12,0,11,10,0.0,11.0,0.0,0.0,2.26,,,0,0,0,0,0,0,0,0,0,0,0,0,0,0,0,0,,2,,,,,38.985767,-76.95079,17.2,47.9,32,3,0.9,0,0.0,-1,0.0,,0,0.0076,0.0966
2388923,1745296634115,0.097,0.0,-132,,-0.0,0.27,1.02,21,-1,0,1.06,1.06,99,2577,11.6,3.94,,14.0,1.153,100.6,,22.4,5,,,,,,,,,,,,0,0,0,0,0,0,0,0,0,0,0,0,0,0,0,0,,,,,,0.0,,,,,,,,,,,,,,,
2388943,1745296634135,0.0973,,,,,,,,,,,,,,,,,,,,,,,,,,,,,,,,,,0,0,0,0,0,0,0,0,0,0,0,0,0,0,0,0,,,,,,,,,,,,,,,,,,,,,
2388963,1745296634155,0.0976,0.0,-132,,-0.01,0.21,1.05,21,-1,-0,1.07,1.07,100,2589,11.6,3.93,,14.02,1.171,100.6,,22.4,5,,,,,,,,,,,,0,0,0,0,0,0,0,0,0,0,0,0,0,0,0,0,,,,,,0.0,,,,,,,,,,,,,,,
2388983,1745296634175,0.098,,,,,,,,,,,,,,,,,,,,,,,,,,,,,,,,,,0,0,0,0,0,0,0,0,0,0,0,0,0,0,0,0,,,,,,,,,,,,,,,,,,,,,
2389003,1745296634195,0.0983,0.0,-129,,-0.01,0.23,1.02,22,-1,0,1.05,1.07,97,2578,11.5,3.93,,14.03,1.178,100.6,,22.4,5,12,0,12,11,0.0,245.0,0.0,0.0,2.26,,,0,0,0,0,0,0,0,0,0,0,0,0,0,0,0,0,,2,,,,0.0,38.985767,-76.950798,17.42,47.9,32,3,0.9,0,0.0,-1,0.0,0.0,0,0.0079,0.0983
2389023,1745296634214,0.0986,,,,,,,,,,,,,,,,,,,,,,,,,,,,,,,,,,0,0,0,0,0,0,0,0,0,0,0,0,0,0,0,0,,,,,,,,,,,,,,,,,,,,,
2389043,1745296634234,0.099,0.0,-132,,-0.02,0.2,1.03,23,-2,-0,1.05,1.07,98,2622,11.6,3.94,,14.03,1.183,100.6,,22.4,5,,,,,,,,,,,,0,0,0,0,0,0,0,0,0,0,0,0,0,0,0,0,,,,,,0.0,,,,,,,,,,,,,,,
2389063,1745296634254,0.0993,,,,,,,,,,,,,,,,,,,,,,,,,,,,,,,,,,0,0,0,0,0,0,0,0,0,0,0,0,0,0,0,0,,,,,,,,,,,,,,,,,,,,,
2389083,1745296634274,0.0996,0.0,-135,,-0.03,0.21,1.01,23,-1,-0,1.03,1.07,96,2695,11.5,3.92,,14.03,1.183,100.6,,22.0,5,,,,,,,,,,,,0,0,0,0,0,0,0,0,0,0,0,0,0,0,0,0,,,,,,0.0,,,,,,,,,,,,,,,
2389103,1745296634294,0.1,,,,,,,,,,,,,,,,,,,,,,,12,0,12,10,0.0,233.0,0.0,0.0,2.26,,,0,0,0,0,0,0,0,0,0,0,0,0,0,0,0,0,,2,,,,,38.985764,-76.950806,17.42,47.9,32,3,0.9,0,0.0,-1,0.0,,0,0.0082,0.1
2389123,1745296634318,0.1003,0.0,-135,,-0.03,0.24,1.03,24,-1,-0,1.06,1.07,99,2695,11.5,3.92,,13.95,1.19,98.8,,22.0,5,,,,,,,,,,,,0,0,0,0,0,0,0,0,0,0,0,0,0,0,0,0,,,,,,0.0,,,,,,,,,,,,,,,
2389143,1745296634338,0.1006,,,,,,,,,,,,,,,,,,,,,,,,,,,,,,,,,,0,0,0,0,0,0,0,0,0,0,0,0,0,0,0,0,,,,,,,,,,,,,,,,,,,,,
2389163,1745296634358,0.101,0.0,-135,,-0.03,0.24,1.04,25,-2,0,1.07,1.07,99,2721,11.6,3.92,,13.94,1.187,98.8,,21.9,5,,,,,,,,,,,,0,0,0,0,0,0,0,0,0,0,0,0,0,0,0,0,,,,,,0.0,,,,,,,,,,,,,,,
2389183,1745296634378,0.1013,,,,,,,,,,,,,,,,,,,,,,,,,,,,,,,,,,0,0,0,0,0,0,0,0,0,0,0,0,0,0,0,0,,,,,,,,,,,,,,,,,,,,,
2389203,1745296634398,0.1016,0.0,-135,,-0.03,0.24,1.0,25,-2,-0,1.03,1.07,96,2691,11.7,3.93,,13.94,1.187,98.8,,21.9,5,12,0,11,11,0.0,0.0,0.0,0.0,2.26,,,0,0,0,0,0,0,0,0,0,0,0,0,0,0,0,0,,2,,,,0.0,38.98576,-76.950813,17.63,47.9,32,3,0.9,0,0.0,-1,0.0,0.0,0,0.0085,0.1016
2389223,1745296634418,0.102,,,,,,,,,,,,,,,,,,,,,,,,,,,,,,,,,,0,0,0,0,0,0,0,0,0,0,0,0,0,0,0,0,,,,,,,,,,,,,,,,,,,,,
2389243,1745296634438,0.1023,0.0,-132,,-0.04,0.23,1.0,26,-2,0,1.02,1.07,95,2723,11.8,3.92,,13.94,1.199,98.8,,21.9,5,,,,,,,,,,,,0,0,0,0,0,0,0,0,0,0,0,0,0,0,0,0,,,,,,0.0,,,,,,,,,,,,,,,
2389263,1745296634458,0.1026,,,,,,,,,,,,,,,,,,,,,,,,,,,,,,,,,,0,0,0,0,0,0,0,0,0,0,0,0,0,0,0,0,,,,,,,,,,,,,,,,,,,,,
2389283,1745296634478,0.103,0.0,-135,,-0.05,0.18,1.03,26,-2,-0,1.05,1.07,97,2675,11.8,3.92,,13.94,1.199,98.8,,22.1,5,,,,,,,,,,,,0,0,0,0,0,0,0,0,0,0,0,0,0,0,0,0,,,,,,0.0,,,,,,,,,,,,,,,
2389303,1745296634498,0.1033,,,,,,,,,,,,,,,,,,,,,,,12,0,12,10,0.0,0.0,0.0,0.0,2.25,,,0,0,0,0,0,0,0,0,0,0,0,0,0,0,0,0,,0,,,,,38.985756,-76.950813,17.58,47.9,32,3,0.9,0,0.0,-1,0.0,,0,0.0088,0.1033
2389323,1745296634518,0.1036,0.0,-132,,-0.06,0.18,1.06,26,-2,-0,1.08,1.08,100,2675,11.8,3.92,,13.92,1.207,98.8,,22.1,5,,,,,,,,,,,,0,0,0,0,0,0,0,0,0,0,0,0,0,0,0,0,,,,,,0.0,,,,,,,,,,,,,,,
2389343,1745296634538,0.104,,,,,,,,,,,,,,,,,,,,,,,,,,,,,,,,,,0,0,0,0,0,0,0,0,0,0,0,0,0,0,0,0,,,,,,,,,,,,,,,,,,,,,
2389363,1745296634558,0.1043,0.0,-135,,-0.06,0.19,1.02,26,-2,-0,1.04,1.08,97,2604,11.7,3.93,,13.99,1.2,98.8,,22.6,5,,,,,,,,,,,,0,0,0,0,0,0,0,0,0,0,0,0,0,0,0,0,,,,,,0.0,,,,,,,,,,,,,,,
2389383,1745296634578,0.1046,,,,,,,,,,,,,,,,,,,,,,,,,,,,,,,,,,0,0,0,0,0,0,0,0,0,0,0,0,0,0,0,0,,,,,,,,,,,,,,,,,,,,,
2389403,1745296634598,0.105,0.0,-135,13.67,-0.05,0.16,1.05,26,-2,-1,1.07,1.08,99,2629,11.6,3.94,15,14.02,1.211,98.8,169,22.6,5,12,0,12,11,0.0,11.0,0.0,0.0,2.26,0,1.0,0,0,0,0,0,0,0,0,0,0,0,0,0,0,0,0,0,2,1.0,0,0,0.0,38.985756,-76.950813,17.8,47.9,32,3,0.9,0,0.0,-1,0.0,0.0,0,0.0091,0.105
2389423,1745296634618,0.1053,,,,,,,,,,,,,,,,,,,,,,,,,,,,,,,,,,0,0,0,0,0,0,0,0,0,0,0,0,0,0,0,0,,,,,,,,,,,,,,,,,,,,,
2389443,1745296634638,0.1056,0.0,-132,,-0.05,0.19,1.01,26,-3,-0,1.02,1.08,95,2658,11.6,3.94,,13.99,1.203,98.8,,22.6,5,,,,,,,,,,,,0,0,0,0,0,0,0,0,0,0,0,0,0,0,0,0,,,,,,0.0,,,,,,,,,,,,,,,
2389463,1745296634658,0.106,,,,,,,,,,,,,,,,,,,,,,,,,,,,,,,,,,0,0,0,0,0,0,0,0,0,0,0,0,0,0,0,0,,,,,,,,,,,,,,,,,,,,,
2389483,1745296634678,0.1063,0.0,-135,,-0.07,0.21,1.04,26,-2,-0,1.06,1.08,99,2693,11.5,3.96,,13.99,1.203,98.8,,23.0,5,,,,,,,,,,,,0,0,0,0,0,0,0,0,0,0,0,0,0,0,0,0,,,,,,0.0,,,,,,,,,,,,,,,
2389503,1745296634698,0.1066,,,,,,,,,,,,,,,,,,,,,,,12,0,12,10,0.0,11.0,0.0,0.0,2.26,,,0,0,0,0,0,0,0,0,0,0,0,0,0,0,0,0,,2,,,,,38.985756,-76.950821,17.69,47.9,32,3,0.9,0,0.0,-1,0.0,,0,0.0094,0.1066
2389523,1745296634718,0.107,0.0,-135,,-0.05,0.23,1.04,25,-2,-0,1.06,1.08,99,2693,11.5,3.96,,14.0,1.207,98.8,,23.0,5,,,,,,,,,,,,0,0,0,0,0,0,0,0,0,0,0,0,0,0,0,0,,,,,,0.0,,,,,,,,,,,,,,,
2389543,1745296634738,0.1073,,,,,,,,,,,,,,,,,,,,,,,,,,,,,,,,,,0,0,0,0,0,0,0,0,0,0,0,0,0,0,0,0,,,,,,,,,,,,,,,,,,,,,
2389563,1745296634758,0.1076,0.0,-135,,-0.05,0.22,0.99,25,-2,-0,1.02,1.08,95,2716,11.5,3.93,,13.92,1.21,98.8,,22.1,5,,,,,,,,,,,,0,0,0,0,0,0,0,0,0,0,0,0,0,0,0,0,,,,,,0.0,,,,,,,,,,,,,,,
2389583,1745296634778,0.108,,,,,,,,,,,,,,,,,,,,,,,,,,,,,,,,,,0,0,0,0,0,0,0,0,0,0,0,0,0,0,0,0,,,,,,,,,,,,,,,,,,,,,
2389603,1745296634798,0.1083,0.0,-135,,-0.05,0.2,1.02,24,-2,-0,1.04,1.08,97,2730,11.4,3.92,,13.91,1.204,98.8,,22.1,5,12,0,12,11,0.0,245.0,0.0,0.0,2.26,,,0,0,0,0,0,0,0,0,0,0,0,0,0,0,0,0,,2,,,,0.0,38.985752,-76.950821,17.83,47.9,32,3,0.9,0,0.0,-1,0.0,0.0,0,0.0097,0.1083
2389623,1745296634818,0.1086,,,,,,,,,,,,,,,,,,,,,,,,,,,,,,,,,,0,0,0,0,0,0,0,0,0,0,0,0,0,0,0,0,,,,,,,,,,,,,,,,,,,,,
2389643,1745296634838,0.109,0.0,-135,,-0.05,0.21,0.99,24,-2,-1,1.02,1.08,95,2716,11.6,3.93,,13.94,1.213,98.8,,22.1,5,,,,,,,,,,,,0,0,0,0,0,0,0,0,0,0,0,0,0,0,0,0,,,,,,0.0,,,,,,,,,,,,,,,
2389663,1745296634858,0.1093,,,,,,,,,,,,,,,,,,,,,,,,,,,,,,,,,,0,0,0,0,0,0,0,0,0,0,0,0,0,0,0,0,,,,,,,,,,,,,,,,,,,,,
2389683,1745296634878,0.1096,0.0,-135,,-0.06,0.21,1.02,24,-1,-1,1.05,1.08,97,2743,11.7,3.93,,13.94,1.213,98.8,,22.2,5,,,,,,,,,,,,0,0,0,0,0,0,0,0,0,0,0,0,0,0,0,0,,,,,,0.0,,,,,,,,,,,,,,,
2389703,1745296634898,0.11,,,,,,,,,,,,,,,,,,,,,,,12,0,12,11,0.0,239.0,0.0,0.0,2.26,,,0,0,0,0,0,0,0,0,0,0,0,0,0,0,0,0,,2,,,,,38.985748,-76.950829,17.73,47.9,32,3,0.9,0,0.0,-1,0.0,,0,0.01,0.11
2389723,1745296634918,0.1103,0.0,-135,,-0.06,0.16,1.04,23,-1,-1,1.05,1.08,98,2743,11.7,3.93,,13.91,1.206,98.8,,22.2,5,,,,,,,,,,,,0,0,0,0,0,0,0,0,0,0,0,0,0,0,0,0,,,,,,0.0,,,,,,,,,,,,,,,
2389743,1745296634938,0.1106,,,,,,,,,,,,,,,,,,,,,,,,,,,,,,,,,,0,0,0,0,0,0,0,0,0,0,0,0,0,0,0,0,,,,,,,,,,,,,,,,,,,,,
2389763,1745296634958,0.111,0.0,-135,,-0.05,0.15,0.98,23,-1,-1,0.99,1.08,92,2701,11.9,3.96,,13.94,1.202,98.8,,23.3,5,,,,,,,,,,,,0,0,0,0,0,0,0,0,0,0,0,0,0,0,0,0,,,,,,0.0,,,,,,,,,,,,,,,
2389783,1745296634978,0.1113,,,,,,,,,,,,,,,,,,,,,,,,,,,,,,,,,,0,0,0,0,0,0,0,0,0,0,0,0,0,0,0,0,,,,,,,,,,,,,,,,,,,,,
2389803,1745296634998,0.1116,0.0,-135,,-0.06,0.14,1.0,23,-1,-1,1.01,1.08,94,2700,13.3,4.05,,14.0,1.213,98.8,,23.3,5,12,0,12,11,0.0,11.0,0.0,0.0,2.26,,,0,0,0,0,0,0,0,0,0,0,0,0,0,0,0,0,,2,,,,0.0,38.985744,-76.950836,17.75,47.9,32,3,0.9,0,0.0,-1,0.0,0.0,0,0.0103,0.1116
2389823,1745296635010,0.112,,,,,,,,,,,,,,,,,,,,,,,,,,,,,,,,,,0,0,0,0,0,0,0,0,0,0,0,0,0,0,0,0,,,,,,,,,,,,,,,,,,,,,
2389843,1745296635030,0.1123,0.0,-135,,-0.06,0.19,1.0,22,-1,-0,1.02,1.08,95,2699,14.3,4.11,,14.03,1.202,98.8,,23.3,5,,,,,,,,,,,,0,0,0,0,0,0,0,0,0,0,0,0,0,0,0,0,,,,,,0.0,,,,,,,,,,,,,,,
2389863,1745296635050,0.1126,,,,,,,,,,,,,,,,,,,,,,,,,,,,,,,,,,0,0,0,0,0,0,0,0,0,0,0,0,0,0,0,0,,,,,,,,,,,,,,,,,,,,,
2389883,1745296635070,0.113,0.0,-135,,-0.04,0.22,0.97,22,-1,-0,1.0,1.08,93,2721,14.6,4.19,,14.03,1.202,98.8,,23.1,5,,,,,,,,,,,,0,0,0,0,0,0,0,0,0,0,0,0,0,0,0,0,,,,,,0.0,,,,,,,,,,,,,,,
2389903,1745296635090,0.1133,,,,,,,,,,,,,,,,,,,,,,,12,0,12,11,0.0,245.0,0.0,0.0,2.26,,,0,0,0,0,0,0,0,0,0,0,0,0,0,0,0,0,,2,,,,,38.985741,-76.950836,17.89,47.9,31,3,0.9,0,0.0,-1,0.0,,0,0.0106,0.1133
2389923,1745296635118,0.1136,0.0,-135,,-0.04,0.15,1.02,22,-1,-1,1.03,1.08,96,2721,14.6,4.19,,14.02,1.199,98.8,,23.1,5,,,,,,,,,,,,0,0,0,0,0,0,0,0,0,0,0,0,0,0,0,0,,,,,,0.0,,,,,,,,,,,,,,,
2389943,1745296635138,0.114,,,,,,,,,,,,,,,,,,,,,,,,,,,,,,,,,,0,0,0,0,0,0,0,0,0,0,0,0,0,0,0,0,,,,,,,,,,,,,,,,,,,,,
2389963,1745296635158,0.1143,0.0,-135,,-0.04,0.2,0.99,22,-1,-0,1.01,1.08,94,2773,14.6,4.25,,14.03,1.198,98.8,,22.7,5,,,,,,,,,,,,0,0,0,0,0,0,0,0,0,0,0,0,0,0,0,0,,,,,,0.0,,,,,,,,,,,,,,,
2389983,1745296635178,0.1146,,,,,,,,,,,,,,,,,,,,,,,,,,,,,,,,,,0,0,0,0,0,0,0,0,0,0,0,0,0,0,0,0,,,,,,,,,,,,,,,,,,,,,
2390003,1745296635198,0.115,0.0,-135,,-0.04,0.21,0.97,22,-1,-0,0.99,1.08,92,2763,14.7,4.24,,13.99,1.197,98.8,,22.7,5,12,0,12,11,0.0,23.0,0.0,0.0,2.26,,,0,0,0,0,0,0,0,0,0,0,0,0,0,0,0,0,,2,,,,0.0,38.985737,-76.950844,17.76,47.8,31,3,0.9,0,0.0,-1,0.0,0.0,0,0.0109,0.115
2390023,1745296635218,0.1153,,,,,,,,,,,,,,,,,,,,,,,,,,,,,,,,,,0,0,0,0,0,0,0,0,0,0,0,0,0,0,0,0,,,,,,,,,,,,,,,,,,,,,
2390043,1745296635238,0.1156,0.0,-132,,-0.04,0.18,0.98,22,-1,-0,1.0,1.08,93,2798,14.7,4.26,,13.99,1.201,98.8,,22.7,5,,,,,,,,,,,,0,0,0,0,0,0,0,0,0,0,0,0,0,0,0,0,,,,,,0.0,,,,,,,,,,,,,,,
2390063,1745296635258,0.116,,,,,,,,,,,,,,,,,,,,,,,,,,,,,,,,,,0,0,0,0,0,0,0,0,0,0,0,0,0,0,0,0,,,,,,,,,,,,,,,,,,,,,
2390083,1745296635278,0.1163,0.0,-135,,-0.04,0.2,0.97,22,-1,0,0.99,1.08,92,2681,14.8,4.22,,13.99,1.201,98.8,,22.9,5,,,,,,,,,,,,0,0,0,0,0,0,0,0,0,0,0,0,0,0,0,0,,,,,,0.0,,,,,,,,,,,,,,,
2390103,1745296635298,0.1166,,,,,,,,,,,,,,,,,,,,,,,12,0,12,11,0.0,245.0,0.0,0.0,2.26,,,0,0,0,0,0,0,0,0,0,0,0,0,0,0,0,0,,0,,,,,38.985733,-76.950844,17.99,47.8,31,3,0.9,0,0.0,-1,0.0,,0,0.0112,0.1166
2390123,1745296635317,0.117,0.0,-132,,-0.03,0.23,0.95,23,-1,-0,0.98,1.08,91,2681,14.8,4.22,,14.04,1.177,98.8,,22.9,5,,,,,,,,,,,,0,0,0,0,0,0,0,0,0,0,0,0,0,0,0,0,,,,,,0.0,,,,,,,,,,,,,,,
2390143,1745296635337,0.1173,,,,,,,,,,,,,,,,,,,,,,,,,,,,,,,,,,0,0,0,0,0,0,0,0,0,0,0,0,0,0,0,0,,,,,,,,,,,,,,,,,,,,,
2390163,1745296635357,0.1176,0.0,-132,,-0.04,0.18,0.99,23,-1,-0,1.01,1.08,94,2737,14.8,4.22,,14.06,1.173,98.8,,23.5,5,,,,,,,,,,,,0,0,0,0,0,0,0,0,0,0,0,0,0,0,0,0,,,,,,0.0,,,,,,,,,,,,,,,
2390183,1745296635377,0.118,,,,,,,,,,,,,,,,,,,,,,,,,,,,,,,,,,0,0,0,0,0,0,0,0,0,0,0,0,0,0,0,0,,,,,,,,,,,,,,,,,,,,,
2390203,1745296635397,0.1183,0.0,-135,,-0.03,0.22,1.02,23,-2,-0,1.04,1.08,97,2725,14.9,4.22,,14.06,1.161,98.8,,23.5,5,12,0,12,11,0.0,89.0,0.0,0.0,2.26,,,0,0,0,0,0,0,0,0,0,0,0,0,0,0,0,0,,2,,,,0.0,38.985729,-76.950851,18.03,47.8,31,3,0.9,0,0.0,-1,0.0,0.0,0,0.0115,0.1183
2390223,1745296635417,0.1186,,,,,,,,,,,,,,,,,,,,,,,,,,,,,,,,,,0,0,0,0,0,0,0,0,0,0,0,0,0,0,0,0,,,,,,,,,,,,,,,,,,,,,
2390243,1745296635437,0.119,0.0,-129,,-0.01,0.25,0.99,24,-2,-0,1.02,1.08,95,2731,15.0,4.22,,14.0,1.153,98.8,,23.5,5,,,,,,,,,,,,0,0,0,0,0,0,0,0,0,0,0,0,0,0,0,0,,,,,,0.0,,,,,,,,,,,,,,,
2390263,1745296635457,0.1193,,,,,,,,,,,,,,,,,,,,,,,,,,,,,,,,,,0,0,0,0,0,0,0,0,0,0,0,0,0,0,0,0,,,,,,,,,,,,,,,,,,,,,
2390283,1745296635477,0.1196,0.0,-135,,-0.02,0.23,1.02,24,-2,-0,1.04,1.08,97,2808,15.0,4.25,,14.0,1.153,98.8,,22.7,5,,,,,,,,,,,,0,0,0,0,0,0,0,0,0,0,0,0,0,0,0,0,,,,,,0.0,,,,,,,,,,,,,,,
2390303,1745296635497,0.12,,,,,,,,,,,,,,,,,,,,,,,13,0,13,11,0.0,218.0,0.0,0.0,2.26,,,0,0,0,0,0,0,0,0,0,0,0,0,0,0,0,0,,2,,,,,38.985725,-76.950851,18.23,47.8,31,3,0.9,0,0.0,-1,0.0,,0,0.0119,0.12
2390323,1745296635519,0.1203,0.0,-132,,-0.04,0.24,1.01,25,-2,-0,1.04,1.08,97,2808,15.0,4.25,,13.98,1.156,98.8,,22.7,5,,,,,,,,,,,,0,0,0,0,0,0,0,0,0,0,0,0,0,0,0,0,,,,,,0.0,,,,,,,,,,,,,,,
2390343,1745296635539,0.1206,,,,,,,,,,,,,,,,,,,,,,,,,,,,,,,,,,0,0,0,0,0,0,0,0,0,0,0,0,0,0,0,0,,,,,,,,,,,,,,,,,,,,,
2390363,1745296635559,0.121,0.0,-135,,-0.0,0.23,1.01,25,-2,-0,1.03,1.08,96,2826,15.0,4.24,,13.96,1.162,98.8,,25.0,5,,,,,,,,,,,,0,0,0,0,0,0,0,0,0,0,0,0,0,0,0,0,,,,,,0.0,,,,,,,,,,,,,,,
2390383,1745296635579,0.1213,,,,,,,,,,,,,,,,,,,,,,,,,,,,,,,,,,0,0,0,0,0,0,0,0,0,0,0,0,0,0,0,0,,,,,,,,,,,,,,,,,,,,,
2390403,1745296635599,0.1216,0.0,-135,13.67,0.01,0.23,0.99,25,-1,-0,1.02,1.08,94,2770,14.9,4.2,15,13.98,1.169,98.8,169,25.0,5,13,0,12,11,0.0,251.0,0.0,0.0,2.26,0,1.0,0,0,0,0,0,0,0,0,0,0,0,0,0,0,0,0,0,2,1.0,0,0,0.0,38.985722,-76.950859,18.34,47.8,32,3,0.9,0,0.0,-1,0.0,0.0,0,0.0122,0.1216
2390423,1745296635617,0.122,,,,,,,,,,,,,,,,,,,,,,,,,,,,,,,,,,0,0,0,0,0,0,0,0,0,0,0,0,0,0,0,0,,,,,,,,,,,,,,,,,,,,,
2390443,1745296635637,0.1223,0.0,-132,,-0.0,0.2,1.01,25,-1,0,1.03,1.08,95,2636,14.8,4.23,,14.08,1.147,98.8,,25.0,5,,,,,,,,,,,,0,0,0,0,0,0,0,0,0,0,0,0,0,0,0,0,,,,,,0.0,,,,,,,,,,,,,,,
2390463,1745296635657,0.1226,,,,,,,,,,,,,,,,,,,,,,,,,,,,,,,,,,0,0,0,0,0,0,0,0,0,0,0,0,0,0,0,0,,,,,,,,,,,,,,,,,,,,,
2390483,1745296635677,0.123,0.0,-135,,-0.02,0.21,0.99,26,-1,0,1.01,1.01,100,2695,14.6,4.23,,14.08,1.147,98.8,,22.7,5,,,,,,,,,,,,0,0,0,0,0,0,0,0,0,0,0,0,0,0,0,0,,,,,,0.0,,,,,,,,,,,,,,,
2390503,1745296635697,0.1233,,,,,,,,,,,,,,,,,,,,,,,12,0,12,11,0.0,219.0,0.0,0.0,2.26,,,0,0,0,0,0,0,0,0,0,0,0,0,0,0,0,0,,0,,,,,38.985718,-76.950859,18.54,47.8,32,3,0.9,0,0.0,-1,0.0,,0,0.0125,0.1233
2390523,1745296635719,0.1236,0.0,-121,,-0.02,0.27,0.94,26,-1,0,0.98,1.01,96,2695,14.6,4.23,,14.06,1.115,98.8,,22.7,5,,,,,,,,,,,,0,0,0,0,0,0,0,0,0,0,0,0,0,0,0,0,,,,,,0.0,,,,,,,,,,,,,,,
2390543,1745296635739,0.124,,,,,,,,,,,,,,,,,,,,,,,,,,,,,,,,,,0,0,0,0,0,0,0,0,0,0,0,0,0,0,0,0,,,,,,,,,,,,,,,,,,,,,
2390563,1745296635759,0.1243,0.0,-135,,-0.03,0.29,0.87,27,-1,0,0.92,1.01,91,2822,14.6,4.22,,13.96,1.089,98.8,,24.1,5,,,,,,,,,,,,0,0,0,0,0,0,0,0,0,0,0,0,0,0,0,0,,,,,,0.0,,,,,,,,,,,,,,,
2390583,1745296635779,0.1246,,,,,,,,,,,,,,,,,,,,,,,,,,,,,,,,,,0,0,0,0,0,0,0,0,0,0,0,0,0,0,0,0,,,,,,,,,,,,,,,,,,,,,
2390603,1745296635799,0.125,0.0,-135,,-0.01,0.27,0.79,28,-0,-1,0.83,1.01,82,3062,14.7,4.2,,13.88,1.079,98.8,,24.1,5,13,0,13,11,0.0,10.0,0.0,0.0,2.26,,,0,0,0,0,0,0,0,0,0,0,0,0,0,0,0,0,,0,,,,0.0,38.985714,-76.950859,18.78,47.8,32,3,0.9,0,0.0,-1,0.0,0.0,0,0.0128,0.125
2390623,1745296635818,0.1253,,,,,,,,,,,,,,,,,,,,,,,,,,,,,,,,,,0,0,0,0,0,0,0,0,0,0,0,0,0,0,0,0,,,,,,,,,,,,,,,,,,,,,
2390643,1745296635838,0.1256,0.0,-132,,-0.02,0.28,0.78,28,-0,-1,0.83,1.01,82,3008,14.6,4.19,,13.91,1.095,98.8,,24.1,5,,,,,,,,,,,,0,0,0,0,0,0,0,0,0,0,0,0,0,0,0,0,,,,,,0.0,,,,,,,,,,,,,,,
2390663,1745296635858,0.126,,,,,,,,,,,,,,,,,,,,,,,,,,,,,,,,,,0,0,0,0,0,0,0,0,0,0,0,0,0,0,0,0,,,,,,,,,,,,,,,,,,,,,
2390683,1745296635878,0.1263,0.0,-132,,-0.03,0.27,0.83,28,-1,-1,0.87,1.01,86,2729,14.6,4.2,,13.91,1.095,98.8,,23.5,5,,,,,,,,,,,,0,0,0,0,0,0,0,0,0,0,0,0,0,0,0,0,,,,,,0.0,,,,,,,,,,,,,,,
2390703,1745296635898,0.1266,,,,,,,,,,,,,,,,,,,,,,,13,0,13,11,0.0,241.0,0.0,0.0,2.26,,,0,0,0,0,0,0,0,0,0,0,0,0,0,0,0,0,,0,,,,,38.98571,-76.950859,18.49,47.8,32,3,0.9,0,0.0,-1,0.0,,0,0.0131,0.1266
2390723,1745296635919,0.127,0.0,-132,,-0.04,0.27,0.83,28,-1,-1,0.88,1.01,87,2729,14.6,4.2,,14.02,1.115,98.8,,23.5,5,,,,,,,,,,,,0,0,0,0,0,0,0,0,0,0,0,0,0,0,0,0,,,,,,0.0,,,,,,,,,,,,,,,
2390743,1745296635939,0.1273,,,,,,,,,,,,,,,,,,,,,,,,,,,,,,,,,,0,0,0,0,0,0,0,0,0,0,0,0,0,0,0,0,,,,,,,,,,,,,,,,,,,,,
2390763,1745296635959,0.1276,0.0,-135,,-0.01,0.32,0.83,28,-1,-0,0.89,1.01,88,2801,14.8,4.2,,13.98,1.125,98.8,,24.4,5,,,,,,,,,,,,0,0,0,0,0,0,0,0,0,0,0,0,0,0,0,0,,,,,,0.0,,,,,,,,,,,,,,,
