"Interval"|"ms"|0|0|1,"Utc"|"ms"|0|0|1,"ElapsedTime"|"Min"|0.0|0.0|10,"FrontBP"|"psi"|-5.0|5.0|25,"SteerAng"|"Degrees"|-145|145|25,"Battery"|"Volts"|-5.0|20.0|1,"AccelX"|"G"|-3.0|3.0|25,"AccelY"|"G"|-3.0|3.0|25,"AccelZ"|"G"|-3.0|3.0|25,"Yaw"|"Deg/Sec"|-120|120|25,"Pitch"|"Deg/Sec"|-120|120|25,"Roll"|"Deg/Sec"|-120|120|25,"Gsum"|"G"|0.0|3.0|25,"GsumMax"|"G"|0.0|3.0|25,"GsumPct"|"%"|0|100|25,"RPM"|""|0|10000|25,"TPS"|"%"|0.0|100.0|25,"InjectorPW"|"ms"|0.0|100.0|25,"Baro"|"kPa"|0|105|1,"MAP"|"Psi"|0.0|255.0|25,"Lambda"|""|-2.0|2.0|25,"IAT"|"C"|0.0|200.0|25,"EngineTemp"|"C"|0|200|1,"EOP"|"PSI"|0.0|152.0|25,"EOT"|"F"|0|250|25,"WSFR"|"MPH"|0|150|10,"WSFL"|"MPH"|0|100|10,"WSRR"|"MPH"|0|100|10,"WSRL"|""|0|100|10,"TCSet"|"%"|0.0|100.0|10,"TCSlip"|"%"|0.0|100.0|10,"TCComp"|"deg"|0.0|50.0|10,"TCCut"|"%"|0.0|100.0|10,"Analog8"|""|0.0|5.0|10,"OilTemp"|"F"|0|300|1,"AA_On"|""|0.0|1.0|1,"ThermLF1"|"C"|0|400|50,"ThermLF2"|"C"|0|400|50,"ThermRR1"|"C"|0|400|50,"ThermRR2"|"C"|0|400|50,"ThermLF3"|"C"|0|400|50,"ThermLF4"|"C"|0|400|50,"ThermLF5"|"C"|0|400|50,"ThermLF6"|"C"|0|400|50,"ThermLF7"|"C"|0|400|50,"ThermLF8"|"C"|0|400|50,"ThermRR3"|"C"|0|400|50,"ThermRR4"|"C"|0|400|50,"ThermRR5"|"C"|0|400|50,"ThermRR6"|"C"|0|400|50,"ThermRR7"|"C"|0|400|50,"ThermRR8"|"C"|0|400|50,"AA_LowDrag"|""|0|1|1,"Gear"|""|1|6|10,"AA_On"|""|0.0|1.0|1,"AA_LowDrag"|""|0|1|1,"Fuel_Mix"|""|-10|10|1,"AA_Packages"|""|0.0|1000.0|25,"Latitude"|"Degrees"|-180.0|180.0|10,"Longitude"|"Degrees"|-180.0|180.0|10,"Speed"|"kph"|0.0|150.0|10,"Altitude"|"m"|0.0|4000.0|10,"GPSSats"|""|0|20|10,"GPSQual"|""|0|5|10,"GPSDOP"|""|0.0|20.0|10,"LapCount"|""|0|0|10,"LapTime"|"Min"|0.0|0.0|10,"Sector"|""|0|0|10,"SectorTime"|"Min"|0.0|0.0|10,"PredTime"|"Min"|0.0|0.0|5,"CurrentLap"|""|0|0|10,"Distance"|"mi"|0.0|0.0|10,"SessionTime"|"Min"|0.0|0.0|10
1218523,1745295461882,0.0003,0.0,-102,,-0.08,-0.26,1.1,2,-0,0,1.13,1.13,100,9746,0.0,1.4,,5.04,1.249,82.6,,63.0,5,,,,,,,,,,,,0,0,0,0,0,0,0,0,0,0,0,0,0,0,0,0,,,,,,0.0,,,,,,,,,,,,,,,
1218563,1745295461922,0.001,0.0,-135,,-0.09,-0.06,1.03,2,-0,-0,1.03,1.13,91,9404,9.3,1.62,,5.04,1.249,82.6,,62.2,5,,,,,,,,,,,,0,0,0,0,0,0,0,0,0,0,0,0,0,0,0,0,,,,,,0.0,,,,,,,,,,,,,,,
1218583,1745295461942,0.0013,,,,,,,,,,,,,,,,,,,,,,,,,,,,,,,,,,0,0,0,0,0,0,0,0,0,0,0,0,0,0,0,0,,,,,,,,,,,,,,,,,,,,,
1218603,1745295461962,0.0016,0.0,-125,,-0.07,-0.26,1.07,2,-0,-0,1.11,1.13,98,9404,9.3,1.62,,5.5,1.25,82.6,,62.2,5,0,0,0,0,0.0,0.0,0.0,0.0,2.25,,,0,0,0,0,0,0,0,0,0,0,0,0,0,0,0,0,,0,,,,0.0,38.985764,-76.950226,0.07,48.0,34,3,0.8,0,0.0,-1,0.0,0.0,0,0.0,0.0016
1218623,1745295461982,0.002,,,,,,,,,,,,,,,,,,,,,,,,,,,,,,,,,,0,0,0,0,0,0,0,0,0,0,0,0,0,0,0,0,,,,,,,,,,,,,,,,,,,,,
1218643,1745295462002,0.0023,0.0,-135,,-0.04,0.01,1.13,2,-0,-0,1.13,1.13,100,9148,18.9,2.34,,6.95,1.204,82.6,,61.2,5,,,,,,,,,,,,0,0,0,0,0,0,0,0,0,0,0,0,0,0,0,0,,,,,,0.0,,,,,,,,,,,,,,,
1218663,1745295462012,0.0026,,,,,,,,,,,,,,,,,,,,,,,,,,,,,,,,,,0,0,0,0,0,0,0,0,0,0,0,0,0,0,0,0,,,,,,,,,,,,,,,,,,,,,
1218683,1745295462032,0.003,0.0,-117,,-0.02,-0.16,1.09,3,-0,-1,1.1,1.13,97,9430,23.6,2.8,,8.37,1.25,82.6,,61.2,5,,,,,,,,,,,,0,0,0,0,0,0,0,0,0,0,0,0,0,0,0,0,,,,,,0.0,,,,,,,,,,,,,,,
1218703,1745295462052,0.0033,,,,,,,,,,,,,,,,,,,,,,,0,0,0,0,0.0,0.0,0.0,0.0,2.26,,,0,0,0,0,0,0,0,0,0,0,0,0,0,0,0,0,,0,,,,,38.985764,-76.950226,0.04,48.0,34,3,0.8,0,0.0,-1,0.0,,0,0.0,0.0033
1218723,1745295462072,0.0036,0.0,-129,,-0.05,-0.12,1.08,1,-0,-1,1.09,1.13,96,9911,25.9,3.19,,9.3,1.185,82.6,,61.2,5,,,,,,,,,,,,0,0,0,0,0,0,0,0,0,0,0,0,0,0,0,0,,,,,,0.0,,,,,,,,,,,,,,,
1218743,1745295462092,0.004,,,,,,,,,,,,,,,,,,,,,,,,,,,,,,,,,,0,0,0,0,0,0,0,0,0,0,0,0,0,0,0,0,,,,,,,,,,,,,,,,,,,,,
1218763,1745295462113,0.0043,0.0,-113,,-0.03,-0.15,0.99,1,-0,-0,1.0,1.13,89,10373,26.1,3.35,,9.3,1.185,82.6,,62.9,5,,,,,,,,,,,,0,0,0,0,0,0,0,0,0,0,0,0,0,0,0,0,,,,,,0.0,,,,,,,,,,,,,,,
1218783,1745295462133,0.0046,,,,,,,,,,,,,,,,,,,,,,,,,,,,,,,,,,0,0,0,0,0,0,0,0,0,0,0,0,0,0,0,0,,,,,,,,,,,,,,,,,,,,,
1218803,1745295462153,0.005,0.0,-106,,-0.03,-0.14,1.07,1,-0,0,1.08,1.13,96,10373,26.1,3.35,,9.62,1.101,82.6,,62.9,5,0,0,0,0,0.0,0.0,0.0,0.0,2.25,,,0,0,0,0,0,0,0,0,0,0,0,0,0,0,0,0,,0,,,,0.0,38.985764,-76.950226,0.05,48.0,34,3,0.8,0,0.0,-1,0.0,0.0,0,0.0,0.005
1218823,1745295462173,0.0053,,,,,,,,,,,,,,,,,,,,,,,,,,,,,,,,,,0,0,0,0,0,0,0,0,0,0,0,0,0,0,0,0,,,,,,,,,,,,,,,,,,,,,
1218843,1745295462201,0.0056,0.0,-121,,-0.03,-0.07,1.0,2,-0,0,1.01,1.13,89,11018,25.2,3.29,,9.66,1.113,82.6,,60.7,5,,,,,,,,,,,,0,0,0,0,0,0,0,0,0,0,0,0,0,0,0,0,,,,,,0.0,,,,,,,,,,,,,,,
1218863,1745295462221,0.006,,,,,,,,,,,,,,,,,,,,,,,,,,,,,,,,,,0,0,0,0,0,0,0,0,0,0,0,0,0,0,0,0,,,,,,,,,,,,,,,,,,,,,
1218883,1745295462241,0.0063,0.0,-106,,-0.02,-0.24,1.03,2,-0,-0,1.06,1.13,94,11740,11.6,2.6,,8.47,1.078,82.6,,60.7,5,,,,,,,,,,,,0,0,0,0,0,0,0,0,0,0,0,0,0,0,0,0,,,,,,0.0,,,,,,,,,,,,,,,
1218903,1745295462261,0.0066,,,,,,,,,,,,,,,,,,,,,,,0,0,0,0,0.0,0.0,0.0,0.0,2.25,,,0,0,0,0,0,0,0,0,0,0,0,0,0,0,0,0,,0,,,,,38.985764,-76.950226,0.0,48.0,34,3,0.8,0,0.0,-1,0.0,,0,0.0,0.0066
1218923,1745295462281,0.007,0.0,-102,,-0.01,-0.4,1.01,2,-0,0,1.08,1.13,96,11996,0.9,1.4,,6.64,0.977,82.6,,60.7,5,,,,,,,,,,,,0,0,0,0,0,0,0,0,0,0,0,0,0,0,0,0,,,,,,0.0,,,,,,,,,,,,,,,
1218943,1745295462301,0.0073,,,,,,,,,,,,,,,,,,,,,,,,,,,,,,,,,,0,0,0,0,0,0,0,0,0,0,0,0,0,0,0,0,,,,,,,,,,,,,,,,,,,,,
1218963,1745295462321,0.0076,0.0,-113,,0.0,-0.31,0.98,2,-0,1,1.03,1.13,91,11497,0.1,1.4,,6.64,0.977,82.6,,62.2,5,,,,,,,,,,,,0,0,0,0,0,0,0,0,0,0,0,0,0,0,0,0,,,,,,0.0,,,,,,,,,,,,,,,
1218983,1745295462341,0.008,,,,,,,,,,,,,,,,,,,,,,,,,,,,,,,,,,0,0,0,0,0,0,0,0,0,0,0,0,0,0,0,0,,,,,,,,,,,,,,,,,,,,,
1219003,1745295462361,0.0083,0.0,-102,,-0.04,-0.3,1.01,1,-0,1,1.05,1.13,93,11497,0.1,1.4,,5.64,0.938,82.6,,62.2,5,0,0,0,0,0.0,0.0,0.0,0.0,2.26,,,0,0,0,0,0,0,0,0,0,0,0,0,0,0,0,0,,0,,,,0.0,38.985764,-76.950226,0.1,48.0,34,3,0.8,0,0.0,-1,0.0,0.0,0,0.0,0.0083
1219023,1745295462381,0.0086,,,,,,,,,,,,,,,,,,,,,,,,,,,,,,,,,,0,0,0,0,0,0,0,0,0,0,0,0,0,0,0,0,,,,,,,,,,,,,,,,,,,,,
1219043,1745295462401,0.009,0.0,-113,,-0.03,-0.19,0.96,1,-0,1,0.98,1.13,87,10938,0.0,1.4,,5.08,1.127,82.6,,61.5,5,,,,,,,,,,,,0,0,0,0,0,0,0,0,0,0,0,0,0,0,0,0,,,,,,0.0,,,,,,,,,,,,,,,
1219063,1745295462421,0.0093,,,,,,,,,,,,,,,,,,,,,,,,,,,,,,,,,,0,0,0,0,0,0,0,0,0,0,0,0,0,0,0,0,,,,,,,,,,,,,,,,,,,,,
1219083,1745295462441,0.0096,0.0,-106,,-0.02,-0.15,0.92,0,-0,1,0.93,1.13,82,10499,0.0,1.4,,4.81,1.25,82.6,,61.5,5,,,,,,,,,,,,0,0,0,0,0,0,0,0,0,0,0,0,0,0,0,0,,,,,,0.0,,,,,,,,,,,,,,,
1219103,1745295462461,0.01,,,,,,,,,,,,,,,,,,,,,,,0,0,0,0,0.0,0.0,0.0,0.0,2.25,,,0,0,0,0,0,0,0,0,0,0,0,0,0,0,0,0,,0,,,,,38.985764,-76.950226,0.05,48.0,34,3,0.8,0,0.0,-1,0.0,,0,0.0,0.01
1219123,1745295462481,0.0103,0.0,-91,,-0.02,-0.34,0.93,1,-0,1,0.99,1.13,88,10114,0.1,1.4,,4.68,1.251,82.6,,61.5,5,,,,,,,,,,,,0,0,0,0,0,0,0,0,0,0,0,0,0,0,0,0,,,,,,0.0,,,,,,,,,,,,,,,
1219143,1745295462501,0.0106,,,,,,,,,,,,,,,,,,,,,,,,,,,,,,,,,,0,0,0,0,0,0,0,0,0,0,0,0,0,0,0,0,,,,,,,,,,,,,,,,,,,,,
1219163,1745295462521,0.011,0.0,-98,,-0.05,-0.3,0.92,1,-0,1,0.97,1.13,86,9708,0.2,1.4,,4.68,1.251,82.6,,61.7,5,,,,,,,,,,,,0,0,0,0,0,0,0,0,0,0,0,0,0,0,0,0,,,,,,0.0,,,,,,,,,,,,,,,
1219183,1745295462541,0.0113,,,,,,,,,,,,,,,,,,,,,,,,,,,,,,,,,,0,0,0,0,0,0,0,0,0,0,0,0,0,0,0,0,,,,,,,,,,,,,,,,,,,,,
1219203,1745295462561,0.0116,0.0,-83,,-0.04,-0.24,0.93,2,-0,1,0.96,1.13,85,9708,0.2,1.4,,4.63,1.251,82.6,,61.7,5,0,0,0,0,0.0,0.0,0.0,0.0,2.25,,,0,0,0,0,0,0,0,0,0,0,0,0,0,0,0,0,,0,,,,0.0,38.985764,-76.950226,0.05,48.0,34,3,0.8,0,0.0,-1,0.0,0.0,0,0.0,0.0116
1219223,1745295462581,0.012,,,,,,,,,,,,,,,,,,,,,,,,,,,,,,,,,,0,0,0,0,0,0,0,0,0,0,0,0,0,0,0,0,,,,,,,,,,,,,,,,,,,,,
1219243,1745295462603,0.0123,0.0,-95,,-0.06,-0.56,0.94,1,-0,-0,1.1,1.13,97,9261,0.2,1.4,,4.52,1.251,82.6,,60.0,5,,,,,,,,,,,,0,0,0,0,0,0,0,0,0,0,0,0,0,0,0,0,,,,,,0.0,,,,,,,,,,,,,,,
1219263,1745295462623,0.0126,,,,,,,,,,,,,,,,,,,,,,,,,,,,,,,,,,0,0,0,0,0,0,0,0,0,0,0,0,0,0,0,0,,,,,,,,,,,,,,,,,,,,,
1219283,1745295462643,0.013,0.0,-102,,-0.04,-0.39,0.96,1,-0,-0,1.04,1.13,92,8801,0.3,1.4,,4.61,1.251,82.6,,60.0,5,,,,,,,,,,,,0,0,0,0,0,0,0,0,0,0,0,0,0,0,0,0,,,,,,0.0,,,,,,,,,,,,,,,
1219303,1745295462663,0.0133,,,,,,,,,,,,,,,,,,,,,,,0,0,0,0,0.0,0.0,0.0,0.0,2.25,,,0,0,0,0,0,0,0,0,0,0,0,0,0,0,0,0,,0,,,,,38.985764,-76.950226,0.04,48.0,34,3,0.8,0,0.0,-1,0.0,,0,0.0,0.0133
1219323,1745295462683,0.0136,0.0,-87,,-0.04,-0.27,0.99,1,-0,-0,1.02,1.13,91,8390,1.1,1.4,,4.84,1.25,82.6,,60.0,5,,,,,,,,,,,,0,0,0,0,0,0,0,0,0,0,0,0,0,0,0,0,,,,,,0.0,,,,,,,,,,,,,,,
1219343,1745295462701,0.014,,,,,,,,,,,,,,,,,,,,,,,,,,,,,,,,,,0,0,0,0,0,0,0,0,0,0,0,0,0,0,0,0,,,,,,,,,,,,,,,,,,,,,
1219363,1745295462721,0.0143,0.0,-102,,-0.03,-0.17,1.03,1,-0,0,1.04,1.13,93,7935,4.3,1.5,,4.84,1.25,82.6,,57.2,5,,,,,,,,,,,,0,0,0,0,0,0,0,0,0,0,0,0,0,0,0,0,,,,,,0.0,,,,,,,,,,,,,,,
1219383,1745295462741,0.0146,,,,,,,,,,,,,,,,,,,,,,,,,,,,,,,,,,0,0,0,0,0,0,0,0,0,0,0,0,0,0,0,0,,,,,,,,,,,,,,,,,,,,,
1219403,1745295462761,0.015,0.0,-98,13.66,-0.04,-0.11,1.0,1,-0,0,1.01,1.13,90,7935,4.3,1.5,15,5.32,1.249,82.6,180,57.2,5,0,0,0,0,0.0,0.0,0.0,0.0,2.26,0,1.0,0,0,0,0,0,0,0,0,0,0,0,0,0,0,0,0,0,0,1.0,0,0,0.0,38.985764,-76.950226,0.07,48.0,34,3,0.8,0,0.0,-1,0.0,0.0,0,0.0,0.015
1219423,1745295462781,0.0153,,,,,,,,,,,,,,,,,,,,,,,,,,,,,,,,,,0,0,0,0,0,0,0,0,0,0,0,0,0,0,0,0,,,,,,,,,,,,,,,,,,,,,
1219443,1745295462803,0.0156,0.0,-98,,-0.06,-0.12,0.98,0,-0,-0,0.99,1.13,88,7522,6.6,2.03,,5.91,1.248,82.6,,54.9,5,,,,,,,,,,,,0,0,0,0,0,0,0,0,0,0,0,0,0,0,0,0,,,,,,0.0,,,,,,,,,,,,,,,
1219463,1745295462823,0.016,,,,,,,,,,,,,,,,,,,,,,,,,,,,,,,,,,0,0,0,0,0,0,0,0,0,0,0,0,0,0,0,0,,,,,,,,,,,,,,,,,,,,,
1219483,1745295462843,0.0163,0.0,-91,,-0.05,0.03,0.97,0,-0,0,0.97,1.13,86,7336,7.8,2.54,,6.59,1.248,82.6,,54.9,5,,,,,,,,,,,,0,0,0,0,0,0,0,0,0,0,0,0,0,0,0,0,,,,,,0.0,,,,,,,,,,,,,,,
1219503,1745295462863,0.0166,,,,,,,,,,,,,,,,,,,,,,,0,0,0,0,0.0,0.0,0.0,0.0,2.26,,,0,0,0,0,0,0,0,0,0,0,0,0,0,0,0,0,,0,,,,,38.985764,-76.950226,0.04,48.0,34,3,0.8,0,0.0,-1,0.0,,0,0.0,0.0166
1219523,1745295462883,0.017,0.0,-83,,-0.03,0.09,1.02,1,-0,0,1.02,1.13,91,7426,8.9,2.7,,7.34,1.248,82.6,,54.9,5,,,,,,,,,,,,0,0,0,0,0,0,0,0,0,0,0,0,0,0,0,0,,,,,,0.0,,,,,,,,,,,,,,,
1219543,1745295462903,0.0173,,,,,,,,,,,,,,,,,,,,,,,,,,,,,,,,,,0,0,0,0,0,0,0,0,0,0,0,0,0,0,0,0,,,,,,,,,,,,,,,,,,,,,
1219563,1745295462923,0.0176,0.0,-91,,-0.01,0.19,1.02,1,-0,0,1.04,1.13,92,7633,11.2,2.79,,7.34,1.248,82.6,,56.2,5,,,,,,,,,,,,0,0,0,0,0,0,0,0,0,0,0,0,0,0,0,0,,,,,,0.0,,,,,,,,,,,,,,,
1219583,1745295462943,0.018,,,,,,,,,,,,,,,,,,,,,,,,,,,,,,,,,,0,0,0,0,0,0,0,0,0,0,0,0,0,0,0,0,,,,,,,,,,,,,,,,,,,,,
1219603,1745295462963,0.0183,0.0,-83,,-0.03,0.13,1.01,0,-0,0,1.02,1.13,90,7633,11.2,2.79,,7.85,1.153,82.6,,56.2,5,0,0,0,0,0.0,0.0,0.0,0.0,2.26,,,0,0,0,0,0,0,0,0,0,0,0,0,0,0,0,0,,0,,,,0.0,38.985764,-76.950226,0.04,48.0,34,3,0.8,0,0.0,-1,0.0,0.0,0,0.0,0.0183
1219623,1745295462983,0.0187,,,,,,,,,,,,,,,,,,,,,,,,,,,,,,,,,,0,0,0,0,0,0,0,0,0,0,0,0,0,0,0,0,,,,,,,,,,,,,,,,,,,,,
1219643,1745295463003,0.019,0.0,-98,,-0.02,0.05,1.01,0,-0,0,1.01,1.13,89,7798,12.9,2.84,,8.35,0.952,82.6,,58.5,5,,,,,,,,,,,,0,0,0,0,0,0,0,0,0,0,0,0,0,0,0,0,,,,,,0.0,,,,,,,,,,,,,,,
1219663,1745295463012,0.0193,,,,,,,,,,,,,,,,,,,,,,,,,,,,,,,,,,0,0,0,0,0,0,0,0,0,0,0,0,0,0,0,0,,,,,,,,,,,,,,,,,,,,,
1219683,1745295463032,0.0196,0.0,-87,,-0.03,0.07,1.01,0,-0,0,1.01,1.13,89,7994,14.1,2.95,,8.71,0.963,82.6,,58.5,5,,,,,,,,,,,,0,0,0,0,0,0,0,0,0,0,0,0,0,0,0,0,,,,,,0.0,,,,,,,,,,,,,,,
1219703,1745295463052,0.02,,,,,,,,,,,,,,,,,,,,,,,0,0,0,0,0.0,0.0,0.0,0.0,2.25,,,0,0,0,0,0,0,0,0,0,0,0,0,0,0,0,0,,0,,,,,38.985764,-76.950226,0.07,48.0,34,3,0.8,0,0.0,-1,0.0,,0,0.0,0.02
1219723,1745295463072,0.0203,0.0,-91,,-0.03,-0.02,0.99,0,-0,0,0.99,1.13,88,8264,14.3,2.96,,8.91,0.985,82.6,,58.5,5,,,,,,,,,,,,0,0,0,0,0,0,0,0,0,0,0,0,0,0,0,0,,,,,,0.0,,,,,,,,,,,,,,,
1219743,1745295463092,0.0206,,,,,,,,,,,,,,,,,,,,,,,,,,,,,,,,,,0,0,0,0,0,0,0,0,0,0,0,0,0,0,0,0,,,,,,,,,,,,,,,,,,,,,
1219763,1745295463118,0.021,0.0,-83,,-0.01,0.08,1.01,0,-0,0,1.01,1.13,90,8790,14.3,2.92,,8.91,0.985,82.6,,61.1,5,,,,,,,,,,,,0,0,0,0,0,0,0,0,0,0,0,0,0,0,0,0,,,,,,0.0,,,,,,,,,,,,,,,
1219783,1745295463138,0.0213,,,,,,,,,,,,,,,,,,,,,,,,,,,,,,,,,,0,0,0,0,0,0,0,0,0,0,0,0,0,0,0,0,,,,,,,,,,,,,,,,,,,,,
1219803,1745295463158,0.0216,0.0,-64,,0.01,0.32,1.03,1,-0,1,1.08,1.13,95,8790,14.3,2.92,,8.82,0.997,82.6,,61.1,5,0,0,0,0,0.0,0.0,0.0,0.0,2.25,,,0,0,0,0,0,0,0,0,0,0,0,0,0,0,0,0,,0,,,,0.0,38.985764,-76.950226,0.0,48.0,34,3,0.8,0,0.0,-1,0.0,0.0,0,0.0,0.0216
1219823,1745295463178,0.022,,,,,,,,,,,,,,,,,,,,,,,,,,,,,,,,,,0,0,0,0,0,0,0,0,0,0,0,0,0,0,0,0,,,,,,,,,,,,,,,,,,,,,
1219843,1745295463198,0.0223,0.0,-83,,0.01,0.23,1.0,1,-0,0,1.03,1.13,91,9293,14.4,2.8,,8.61,0.987,82.6,,60.3,5,,,,,,,,,,,,0,0,0,0,0,0,0,0,0,0,0,0,0,0,0,0,,,,,,0.0,,,,,,,,,,,,,,,
1219863,1745295463219,0.0226,,,,,,,,,,,,,,,,,,,,,,,,,,,,,,,,,,0,0,0,0,0,0,0,0,0,0,0,0,0,0,0,0,,,,,,,,,,,,,,,,,,,,,
1219883,1745295463239,0.023,0.0,-76,,0.01,0.18,1.01,1,-0,1,1.02,1.13,91,9801,14.4,2.8,,8.31,0.989,82.6,,60.3,5,,,,,,,,,,,,0,0,0,0,0,0,0,0,0,0,0,0,0,0,0,0,,,,,,0.0,,,,,,,,,,,,,,,
1219903,1745295463259,0.0233,,,,,,,,,,,,,,,,,,,,,,,0,0,0,0,0.0,0.0,0.0,0.0,2.25,,,0,0,0,0,0,0,0,0,0,0,0,0,0,0,0,0,,0,,,,,38.985764,-76.950226,0.0,48.0,34,3,0.8,0,0.0,-1,0.0,,0,0.0,0.0233
1219923,1745295463279,0.0236,0.0,-64,,-0.01,0.18,1.0,1,-0,1,1.02,1.13,90,10290,13.9,2.65,,7.99,1.014,82.6,,60.3,5,,,,,,,,,,,,0,0,0,0,0,0,0,0,0,0,0,0,0,0,0,0,,,,,,0.0,,,,,,,,,,,,,,,
1219943,1745295463302,0.024,,,,,,,,,,,,,,,,,,,,,,,,,,,,,,,,,,0,0,0,0,0,0,0,0,0,0,0,0,0,0,0,0,,,,,,,,,,,,,,,,,,,,,
1219963,1745295463322,0.0243,0.0,-80,,-0.02,0.15,1.08,1,-0,1,1.1,1.13,97,10676,12.7,2.3,,7.99,1.014,82.6,,60.2,5,,,,,,,,,,,,0,0,0,0,0,0,0,0,0,0,0,0,0,0,0,0,,,,,,0.0,,,,,,,,,,,,,,,
1219983,1745295463342,0.0246,,,,,,,,,,,,,,,,,,,,,,,,,,,,,,,,,,0,0,0,0,0,0,0,0,0,0,0,0,0,0,0,0,,,,,,,,,,,,,,,,,,,,,
1220003,1745295463362,0.025,0.0,-72,,-0.05,0.15,1.02,0,-0,1,1.03,1.13,91,10676,12.7,2.3,,7.61,1.014,82.6,,60.2,5,0,0,0,0,0.0,0.0,0.0,0.0,2.26,,,0,0,0,0,0,0,0,0,0,0,0,0,0,0,0,0,,0,,,,0.0,38.985764,-76.950226,0.0,48.0,34,3,0.8,0,0.0,-1,0.0,0.0,0,0.0,0.025
1220023,1745295463382,0.0253,,,,,,,,,,,,,,,,,,,,,,,,,,,,,,,,,,0,0,0,0,0,0,0,0,0,0,0,0,0,0,0,0,,,,,,,,,,,,,,,,,,,,,
1220043,1745295463402,0.0256,0.0,-95,,-0.05,0.15,1.06,-0,-0,1,1.07,1.13,95,10872,12.1,2.09,,7.25,1.008,82.6,,58.9,5,,,,,,,,,,,,0,0,0,0,0,0,0,0,0,0,0,0,0,0,0,0,,,,,,0.0,,,,,,,,,,,,,,,
1220063,1745295463422,0.026,,,,,,,,,,,,,,,,,,,,,,,,,,,,,,,,,,0,0,0,0,0,0,0,0,0,0,0,0,0,0,0,0,,,,,,,,,,,,,,,,,,,,,
1220083,1745295463442,0.0263,0.0,-80,,-0.06,0.12,1.03,-0,-0,1,1.03,1.13,92,10783,11.8,2.01,,7.07,1.039,82.6,,58.9,5,,,,,,,,,,,,0,0,0,0,0,0,0,0,0,0,0,0,0,0,0,0,,,,,,0.0,,,,,,,,,,,,,,,
1220103,1745295463462,0.0266,,,,,,,,,,,,,,,,,,,,,,,0,0,0,0,0.0,0.0,0.0,0.0,2.25,,,0,0,0,0,0,0,0,0,0,0,0,0,0,0,0,0,,0,,,,,38.985764,-76.950226,0.08,48.0,34,3,0.8,0,0.0,-1,0.0,,0,0.0,0.0266
1220123,1745295463482,0.027,0.0,-57,,-0.04,0.15,0.98,-0,-0,0,1.0,1.13,88,10762,11.2,1.94,,6.83,1.111,82.6,,58.9,5,,,,,,,,,,,,0,0,0,0,0,0,0,0,0,0,0,0,0,0,0,0,,,,,,0.0,,,,,,,,,,,,,,,
1220143,1745295463502,0.0273,,,,,,,,,,,,,,,,,,,,,,,,,,,,,,,,,,0,0,0,0,0,0,0,0,0,0,0,0,0,0,0,0,,,,,,,,,,,,,,,,,,,,,
1220163,1745295463520,0.0276,0.0,-64,,-0.0,0.14,1.02,-0,-0,0,1.03,1.13,91,10550,6.1,1.7,,6.83,1.111,82.6,,59.2,5,,,,,,,,,,,,0,0,0,0,0,0,0,0,0,0,0,0,0,0,0,0,,,,,,0.0,,,,,,,,,,,,,,,
1220183,1745295463540,0.028,,,,,,,,,,,,,,,,,,,,,,,,,,,,,,,,,,0,0,0,0,0,0,0,0,0,0,0,0,0,0,0,0,,,,,,,,,,,,,,,,,,,,,
1220203,1745295463560,0.0283,0.0,-61,,0.0,0.08,0.92,0,-0,0,0.92,1.13,82,10550,6.1,1.7,,6.27,1.138,82.6,,59.2,5,0,0,0,0,0.0,0.0,0.0,0.0,2.26,,,0,0,0,0,0,0,0,0,0,0,0,0,0,0,0,0,,0,,,,0.0,38.985764,-76.950226,0.04,48.0,34,3,0.8,0,0.0,-1,0.0,0.0,0,0.0,0.0283
1220223,1745295463580,0.0286,,,,,,,,,,,,,,,,,,,,,,,,,,,,,,,,,,0,0,0,0,0,0,0,0,0,0,0,0,0,0,0,0,,,,,,,,,,,,,,,,,,,,,
1220243,1745295463602,0.029,0.0,-68,,0.02,-0.15,0.89,0,-0,-0,0.91,1.13,80,10194,2.7,1.4,,5.79,1.189,82.6,,59.6,5,,,,,,,,,,,,0,0,0,0,0,0,0,0,0,0,0,0,0,0,0,0,,,,,,0.0,,,,,,,,,,,,,,,
1220263,1745295463622,0.0293,,,,,,,,,,,,,,,,,,,,,,,,,,,,,,,,,,0,0,0,0,0,0,0,0,0,0,0,0,0,0,0,0,,,,,,,,,,,,,,,,,,,,,
1220283,1745295463642,0.0296,0.0,-76,,-0.02,0.03,0.89,0,-0,1,0.89,1.13,79,9615,2.2,1.4,,5.44,1.248,82.6,,59.6,5,,,,,,,,,,,,0,0,0,0,0,0,0,0,0,0,0,0,0,0,0,0,,,,,,0.0,,,,,,,,,,,,,,,
1220303,1745295463662,0.03,,,,,,,,,,,,,,,,,,,,,,,0,0,0,0,0.0,0.0,0.0,0.0,2.26,,,0,0,0,0,0,0,0,0,0,0,0,0,0,0,0,0,,0,,,,,38.985764,-76.950226,0.0,48.0,34,3,0.8,0,0.0,-1,0.0,,0,0.0,0.03
1220323,1745295463682,0.0303,0.0,-46,,-0.03,-0.44,0.86,1,-0,0,0.96,1.13,85,9016,2.1,1.4,,5.36,1.25,82.6,,59.6,5,,,,,,,,,,,,0,0,0,0,0,0,0,0,0,0,0,0,0,0,0,0,,,,,,0.0,,,,,,,,,,,,,,,
1220343,1745295463702,0.0306,,,,,,,,,,,,,,,,,,,,,,,,,,,,,,,,,,0,0,0,0,0,0,0,0,0,0,0,0,0,0,0,0,,,,,,,,,,,,,,,,,,,,,
1220363,1745295463722,0.031,0.0,-76,,-0.07,-0.4,0.84,1,-0,0,0.93,1.13,82,8490,1.9,1.4,,5.36,1.25,82.6,,58.7,5,,,,,,,,,,,,0,0,0,0,0,0,0,0,0,0,0,0,0,0,0,0,,,,,,0.0,,,,,,,,,,,,,,,
1220383,1745295463742,0.0313,,,,,,,,,,,,,,,,,,,,,,,,,,,,,,,,,,0,0,0,0,0,0,0,0,0,0,0,0,0,0,0,0,,,,,,,,,,,,,,,,,,,,,
1220403,1745295463762,0.0316,0.0,-49,13.69,-0.05,-0.33,0.88,1,-0,1,0.95,1.13,84,8490,1.9,1.4,15,5.34,1.249,82.6,180,58.7,5,0,0,0,0,0.0,0.0,0.0,0.0,2.25,0,1.0,0,0,0,0,0,0,0,0,0,0,0,0,0,0,0,0,0,0,1.0,0,0,0.0,38.985764,-76.950226,0.08,48.0,34,3,0.8,0,0.0,-1,0.0,0.0,0,0.0,0.0316
1220423,1745295463782,0.032,,,,,,,,,,,,,,,,,,,,,,,,,,,,,,,,,,0,0,0,0,0,0,0,0,0,0,0,0,0,0,0,0,,,,,,,,,,,,,,,,,,,,,
1220443,1745295463802,0.0323,0.0,-76,,-0.06,-0.28,0.88,0,-0,1,0.92,1.13,82,7957,0.6,1.4,,5.42,1.247,82.6,,56.2,5,,,,,,,,,,,,0,0,0,0,0,0,0,0,0,0,0,0,0,0,0,0,,,,,,0.0,,,,,,,,,,,,,,,
1220463,1745295463822,0.0326,,,,,,,,,,,,,,,,,,,,,,,,,,,,,,,,,,0,0,0,0,0,0,0,0,0,0,0,0,0,0,0,0,,,,,,,,,,,,,,,,,,,,,
1220483,1745295463842,0.033,0.0,-76,,-0.1,-0.31,0.85,-0,-0,1,0.91,1.13,81,7516,0.4,1.4,,5.59,1.248,82.6,,56.2,5,,,,,,,,,,,,0,0,0,0,0,0,0,0,0,0,0,0,0,0,0,0,,,,,,0.0,,,,,,,,,,,,,,,
1220503,1745295463862,0.0333,,,,,,,,,,,,,,,,,,,,,,,0,0,0,0,0.0,0.0,0.0,0.0,2.26,,,0,0,0,0,0,0,0,0,0,0,0,0,0,0,0,0,,0,,,,,38.985764,-76.950226,0.05,48.0,34,3,0.8,0,0.0,-1,0.0,,0,0.0,0.0333
1220523,1745295463882,0.0336,0.0,-57,,-0.06,-0.23,0.87,0,-0,1,0.9,1.13,80,7056,9.9,2.46,,6.59,1.248,82.6,,56.2,5,,,,,,,,,,,,0,0,0,0,0,0,0,0,0,0,0,0,0,0,0,0,,,,,,0.0,,,,,,,,,,,,,,,
1220543,1745295463902,0.034,,,,,,,,,,,,,,,,,,,,,,,,,,,,,,,,,,0,0,0,0,0,0,0,0,0,0,0,0,0,0,0,0,,,,,,,,,,,,,,,,,,,,,
1220563,1745295463922,0.0343,0.0,-57,,-0.08,-0.21,0.93,-0,-0,1,0.95,1.13,84,6935,29.2,3.55,,6.59,1.248,82.6,,52.6,5,,,,,,,,,,,,0,0,0,0,0,0,0,0,0,0,0,0,0,0,0,0,,,,,,0.0,,,,,,,,,,,,,,,
1220583,1745295463942,0.0347,,,,,,,,,,,,,,,,,,,,,,,,,,,,,,,,,,0,0,0,0,0,0,0,0,0,0,0,0,0,0,0,0,,,,,,,,,,,,,,,,,,,,,
1220603,1745295463962,0.035,0.0,-76,,-0.09,-0.25,0.9,-0,-0,1,0.94,1.13,84,6935,29.2,3.55,,9.74,1.249,82.6,,52.6,5,0,0,0,0,0.0,0.0,0.0,0.0,2.25,,,0,0,0,0,0,0,0,0,0,0,0,0,0,0,0,0,,0,,,,0.0,38.985764,-76.950226,0.08,48.0,34,3,0.8,0,0.0,-1,0.0,0.0,0,0.0,0.035
1220623,1745295463982,0.0353,,,,,,,,,,,,,,,,,,,,,,,,,,,,,,,,,,0,0,0,0,0,0,0,0,0,0,0,0,0,0,0,0,,,,,,,,,,,,,,,,,,,,,
1220643,1745295464002,0.0356,0.0,-83,,-0.08,-0.18,0.93,-0,-0,0,0.95,1.13,84,7159,43.6,5.38,,12.67,1.25,82.6,,54.0,5,,,,,,,,,,,,0,0,0,0,0,0,0,0,0,0,0,0,0,0,0,0,,,,,,0.0,,,,,,,,,,,,,,,
1220663,1745295464012,0.036,,,,,,,,,,,,,,,,,,,,,,,,,,,,,,,,,,0,0,0,0,0,0,0,0,0,0,0,0,0,0,0,0,,,,,,,,,,,,,,,,,,,,,
1220683,1745295464032,0.0363,0.0,-68,,-0.06,-0.19,0.93,-0,-0,0,0.95,1.13,85,7413,60.5,5.5,,14.06,1.234,82.6,,54.0,5,,,,,,,,,,,,0,0,0,0,0,0,0,0,0,0,0,0,0,0,0,0,,,,,,0.0,,,,,,,,,,,,,,,
1220703,1745295464052,0.0366,,,,,,,,,,,,,,,,,,,,,,,0,0,0,0,0.0,0.0,0.0,0.0,2.25,,,0,0,0,0,0,0,0,0,0,0,0,0,0,0,0,0,,0,,,,,38.985764,-76.950226,0.05,48.0,34,3,0.8,0,0.0,-1,0.0,,0,0.0,0.0366
1220723,1745295464072,0.037,0.0,-49,,-0.06,0.0,0.95,-1,-0,0,0.95,1.13,84,8537,71.3,5.41,,13.98,1.241,82.6,,54.0,5,,,,,,,,,,,,0,0,0,0,0,0,0,0,0,0,0,0,0,0,0,0,,,,,,0.0,,,,,,,,,,,,,,,
1220743,1745295464092,0.0373,,,,,,,,,,,,,,,,,,,,,,,,,,,,,,,,,,0,0,0,0,0,0,0,0,0,0,0,0,0,0,0,0,,,,,,,,,,,,,,,,,,,,,
1220763,1745295464115,0.0376,0.0,-53,,-0.07,-0.09,0.92,-1,-0,0,0.93,1.13,82,9973,82.2,6.05,,13.98,1.241,82.6,,60.2,5,,,,,,,,,,,,0,0,0,0,0,0,0,0,0,0,0,0,0,0,0,0,,,,,,0.0,,,,,,,,,,,,,,,
1220783,1745295464135,0.038,,,,,,,,,,,,,,,,,,,,,,,,,,,,,,,,,,0,0,0,0,0,0,0,0,0,0,0,0,0,0,0,0,,,,,,,,,,,,,,,,,,,,,
1220803,1745295464155,0.0383,0.0,-53,,-0.08,0.02,1.01,-1,-0,1,1.02,1.13,90,9973,82.2,6.05,,13.82,1.115,82.6,,60.2,5,0,0,0,0,0.0,0.0,0.0,0.0,2.25,,,0,0,0,0,0,0,0,0,0,0,0,0,0,0,0,0,,0,,,,0.0,38.985764,-76.950226,0.08,48.0,34,3,0.8,0,0.0,-1,0.0,0.0,0,0.0,0.0383
1220823,1745295464175,0.0386,,,,,,,,,,,,,,,,,,,,,,,,,,,,,,,,,,0,0,0,0,0,0,0,0,0,0,0,0,0,0,0,0,,,,,,,,,,,,,,,,,,,,,
1220843,1745295464195,0.039,0.0,-76,,-0.05,0.04,1.0,1,-0,0,1.0,1.13,89,11876,91.4,5.88,,13.8,0.992,82.6,,60.5,5,,,,,,,,,,,,0,0,0,0,0,0,0,0,0,0,0,0,0,0,0,0,,,,,,0.0,,,,,,,,,,,,,,,
1220863,1745295464219,0.0393,,,,,,,,,,,,,,,,,,,,,,,,,,,,,,,,,,0,0,0,0,0,0,0,0,0,0,0,0,0,0,0,0,,,,,,,,,,,,,,,,,,,,,
1220883,1745295464239,0.0396,0.0,-57,,-0.06,-0.02,0.92,-0,-1,0,0.92,1.13,82,13321,97.6,4.75,,13.36,0.896,82.6,,60.5,5,,,,,,,,,,,,0,0,0,0,0,0,0,0,0,0,0,0,0,0,0,0,,,,,,0.0,,,,,,,,,,,,,,,
1220903,1745295464259,0.04,,,,,,,,,,,,,,,,,,,,,,,0,0,0,0,0.0,0.0,0.0,0.0,2.24,,,0,0,0,0,0,0,0,0,0,0,0,0,0,0,0,0,,0,,,,,38.985764,-76.950226,0.08,48.0,34,3,0.8,0,0.0,-1,0.0,,0,0.0,0.04
1220923,1745295464279,0.0403,0.0,-57,,-0.09,0.17,0.9,-0,-1,-2,0.92,1.13,81,13812,99.4,4.61,,11.53,0.885,82.6,,60.5,5,,,,,,,,,,,,0,0,0,0,0,0,0,0,0,0,0,0,0,0,0,0,,,,,,0.0,,,,,,,,,,,,,,,
1220943,1745295464301,0.0406,,,,,,,,,,,,,,,,,,,,,,,,,,,,,,,,,,0,0,0,0,0,0,0,0,0,0,0,0,0,0,0,0,,,,,,,,,,,,,,,,,,,,,
1220963,1745295464321,0.041,0.0,-49,,-0.1,0.11,0.84,-0,-1,-2,0.85,1.13,75,13188,99.4,4.36,,11.53,0.885,82.6,,73.2,5,,,,,,,,,,,,0,0,0,0,0,0,0,0,0,0,0,0,0,0,0,0,,,,,,0.0,,,,,,,,,,,,,,,
1220983,1745295464341,0.0413,,,,,,,,,,,,,,,,,,,,,,,,,,,,,,,,,,0,0,0,0,0,0,0,0,0,0,0,0,0,0,0,0,,,,,,,,,,,,,,,,,,,,,
1221003,1745295464361,0.0416,0.0,-57,,-0.12,0.24,0.86,1,-1,-3,0.9,1.13,80,13188,99.4,4.36,,10.82,1.022,82.6,,73.2,5,0,0,0,0,0.0,0.0,0.0,0.0,2.26,,,0,0,0,0,0,0,0,0,0,0,0,0,0,0,0,0,,0,,,,0.0,38.985764,-76.950226,0.05,48.0,34,3,0.8,0,0.0,-1,0.0,0.0,0,0.0,0.0416
1221023,1745295464381,0.042,,,,,,,,,,,,,,,,,,,,,,,,,,,,,,,,,,0,0,0,0,0,0,0,0,0,0,0,0,0,0,0,0,,,,,,,,,,,,,,,,,,,,,
1221043,1745295464401,0.0423,0.0,-53,,-0.09,0.31,0.91,1,-0,-1,0.96,1.13,85,13897,99.3,3.36,,10.34,1.248,82.6,,71.3,5,,,,,,,,,,,,0,0,0,0,0,0,0,0,0,0,0,0,0,0,0,0,,,,,,0.0,,,,,,,,,,,,,,,
1221063,1745295464421,0.0426,,,,,,,,,,,,,,,,,,,,,,,,,,,,,,,,,,0,0,0,0,0,0,0,0,0,0,0,0,0,0,0,0,,,,,,,,,,,,,,,,,,,,,
1221083,1745295464441,0.043,0.0,-49,,-0.09,0.42,0.94,0,-0,-2,1.03,1.13,91,13181,99.4,3.33,,10.49,1.006,82.6,,71.3,5,,,,,,,,,,,,0,0,0,0,0,0,0,0,0,0,0,0,0,0,0,0,,,,,,0.0,,,,,,,,,,,,,,,
1221103,1745295464461,0.0433,,,,,,,,,,,,,,,,,,,,,,,0,0,0,0,0.0,0.0,0.0,0.0,2.25,,,0,0,0,0,0,0,0,0,0,0,0,0,0,0,0,0,,0,,,,,38.985764,-76.950226,0.04,48.0,34,3,0.8,0,0.0,-1,0.0,,0,0.0,0.0433
1221123,1745295464481,0.0436,0.0,-49,,-0.12,0.07,0.92,2,0,-2,0.93,1.13,82,13270,99.4,3.32,,10.22,1.248,82.6,,71.3,5,,,,,,,,,,,,0,0,0,0,0,0,0,0,0,0,0,0,0,0,0,0,,,,,,0.0,,,,,,,,,,,,,,,
1221143,1745295464501,0.044,,,,,,,,,,,,,,,,,,,,,,,,,,,,,,,,,,0,0,0,0,0,0,0,0,0,0,0,0,0,0,0,0,,,,,,,,,,,,,,,,,,,,,
1221163,1745295464521,0.0443,0.0,-46,,-0.13,-0.04,0.91,3,-0,-1,0.92,1.13,81,13765,99.4,3.17,,10.22,1.248,82.6,,70.3,5,,,,,,,,,,,,0,0,0,0,0,0,0,0,0,0,0,0,0,0,0,0,,,,,,0.0,,,,,,,,,,,,,,,
1221183,1745295464541,0.0446,,,,,,,,,,,,,,,,,,,,,,,,,,,,,,,,,,0,0,0,0,0,0,0,0,0,0,0,0,0,0,0,0,,,,,,,,,,,,,,,,,,,,,
1221203,1745295464561,0.045,0.0,-46,,-0.16,0.13,0.84,5,-0,-2,0.87,1.13,77,13765,99.4,3.17,,10.0,1.251,82.6,,70.3,5,0,0,0,0,0.0,0.0,0.0,0.0,2.25,,,0,0,0,0,0,0,0,0,0,0,0,0,0,0,0,0,,0,,,,0.0,38.985764,-76.950226,0.13,48.0,34,3,0.8,0,0.0,-1,0.0,0.0,0,0.0,0.045
1221223,1745295464581,0.0453,,,,,,,,,,,,,,,,,,,,,,,,,,,,,,,,,,0,0,0,0,0,0,0,0,0,0,0,0,0,0,0,0,,,,,,,,,,,,,,,,,,,,,
1221243,1745295464601,0.0457,0.0,-61,,-0.13,-0.01,0.95,4,-0,-3,0.96,1.13,85,13337,99.4,3.19,,10.12,1.075,82.6,,71.6,5,,,,,,,,,,,,0,0,0,0,0,0,0,0,0,0,0,0,0,0,0,0,,,,,,0.0,,,,,,,,,,,,,,,
1221263,1745295464621,0.046,,,,,,,,,,,,,,,,,,,,,,,,,,,,,,,,,,0,0,0,0,0,0,0,0,0,0,0,0,0,0,0,0,,,,,,,,,,,,,,,,,,,,,
1221283,1745295464641,0.0463,0.0,-61,,-0.11,0.11,0.95,2,-0,-0,0.96,1.13,85,13115,99.4,3.36,,10.22,1.244,82.6,,71.6,5,,,,,,,,,,,,0,0,0,0,0,0,0,0,0,0,0,0,0,0,0,0,,,,,,0.0,,,,,,,,,,,,,,,
1221303,1745295464661,0.0466,,,,,,,,,,,,,,,,,,,,,,,0,0,0,0,0.0,0.0,0.0,0.0,2.25,,,0,0,0,0,0,0,0,0,0,0,0,0,0,0,0,0,,0,,,,,38.985764,-76.950226,0.08,48.0,34,3,0.8,0,0.0,-1,0.0,,0,0.0,0.0466
1221323,1745295464681,0.047,0.0,-53,,-0.1,0.17,0.87,3,-0,0,0.89,1.13,79,13537,99.5,3.18,,10.04,1.251,82.6,,71.6,5,,,,,,,,,,,,0,0,0,0,0,0,0,0,0,0,0,0,0,0,0,0,,,,,,0.0,,,,,,,,,,,,,,,
1221343,1745295464701,0.0473,,,,,,,,,,,,,,,,,,,,,,,,,,,,,,,,,,0,0,0,0,0,0,0,0,0,0,0,0,0,0,0,0,,,,,,,,,,,,,,,,,,,,,
1221363,1745295464721,0.0476,0.0,-38,,-0.11,0.24,0.85,1,-0,3,0.89,1.13,79,13850,99.5,3.28,,10.04,1.251,82.6,,73.1,5,,,,,,,,,,,,0,0,0,0,0,0,0,0,0,0,0,0,0,0,0,0,,,,,,0.0,,,,,,,,,,,,,,,
1221383,1745295464741,0.048,,,,,,,,,,,,,,,,,,,,,,,,,,,,,,,,,,0,0,0,0,0,0,0,0,0,0,0,0,0,0,0,0,,,,,,,,,,,,,,,,,,,,,
1221403,1745295464761,0.0483,0.0,-53,13.67,-0.1,0.01,0.92,-0,-0,3,0.92,1.13,82,13850,99.5,3.28,15,10.0,1.138,82.6,182,73.1,5,0,0,0,0,0.0,0.0,0.0,0.0,2.25,0,1.0,0,0,0,0,0,0,0,0,0,0,0,0,0,0,0,0,0,0,1.0,0,0,0.0,38.985764,-76.950226,0.04,48.0,34,3,0.8,0,0.0,-1,0.0,0.0,0,0.0,0.0483
1221423,1745295464781,0.0486,,,,,,,,,,,,,,,,,,,,,,,,,,,,,,,,,,0,0,0,0,0,0,0,0,0,0,0,0,0,0,0,0,,,,,,,,,,,,,,,,,,,,,
1221443,1745295464801,0.049,0.0,-53,,-0.1,0.08,0.91,0,-1,2,0.92,1.13,82,13017,99.5,3.37,,10.12,1.102,82.6,,72.8,5,,,,,,,,,,,,0,0,0,0,0,0,0,0,0,0,0,0,0,0,0,0,,,,,,0.0,,,,,,,,,,,,,,,
1221463,1745295464821,0.0493,,,,,,,,,,,,,,,,,,,,,,,,,,,,,,,,,,0,0,0,0,0,0,0,0,0,0,0,0,0,0,0,0,,,,,,,,,,,,,,,,,,,,,
1221483,1745295464841,0.0496,0.0,-57,,-0.11,0.17,0.87,-1,-0,4,0.89,1.13,79,13215,99.5,3.26,,10.28,1.248,82.6,,72.8,5,,,,,,,,,,,,0,0,0,0,0,0,0,0,0,0,0,0,0,0,0,0,,,,,,0.0,,,,,,,,,,,,,,,
1221503,1745295464861,0.05,,,,,,,,,,,,,,,,,,,,,,,0,0,0,0,0.0,0.0,0.0,0.0,2.25,,,0,0,0,0,0,0,0,0,0,0,0,0,0,0,0,0,,0,,,,,38.985764,-76.950226,0.04,48.0,34,3,0.8,0,0.0,-1,0.0,,0,0.0,0.05
1221523,1745295464881,0.0503,0.0,-31,,-0.05,0.17,0.89,-3,0,4,0.91,1.13,81,13146,99.5,3.29,,9.94,1.243,82.6,,72.8,5,,,,,,,,,,,,0,0,0,0,0,0,0,0,0,0,0,0,0,0,0,0,,,,,,0.0,,,,,,,,,,,,,,,
1221543,1745295464903,0.0506,,,,,,,,,,,,,,,,,,,,,,,,,,,,,,,,,,0,0,0,0,0,0,0,0,0,0,0,0,0,0,0,0,,,,,,,,,,,,,,,,,,,,,
1221563,1745295464923,0.051,0.0,-46,,-0.02,0.08,0.89,-2,1,4,0.9,1.13,79,12417,99.6,3.44,,9.94,1.243,82.6,,71.4,5,,,,,,,,,,,,0,0,0,0,0,0,0,0,0,0,0,0,0,0,0,0,,,,,,0.0,,,,,,,,,,,,,,,
1221583,1745295464943,0.0513,,,,,,,,,,,,,,,,,,,,,,,,,,,,,,,,,,0,0,0,0,0,0,0,0,0,0,0,0,0,0,0,0,,,,,,,,,,,,,,,,,,,,,
1221603,1745295464963,0.0516,0.0,-46,,0.05,-0.02,0.9,-1,1,3,0.9,1.13,80,12417,99.6,3.44,,10.12,1.114,82.6,,71.4,5,0,0,0,0,0.0,0.0,0.0,0.0,2.26,,,0,0,0,0,0,0,0,0,0,0,0,0,0,0,0,0,,0,,,,0.0,38.985764,-76.950226,0.08,48.0,34,3,0.8,0,0.0,-1,0.0,0.0,0,0.0,0.0516
1221623,1745295464983,0.052,,,,,,,,,,,,,,,,,,,,,,,,,,,,,,,,,,0,0,0,0,0,0,0,0,0,0,0,0,0,0,0,0,,,,,,,,,,,,,,,,,,,,,
1221643,1745295465003,0.0523,0.0,-27,,0.09,-0.15,0.89,0,1,2,0.91,1.13,81,11709,99.6,3.8,,10.44,1.103,82.6,,61.3,5,,,,,,,,,,,,0,0,0,0,0,0,0,0,0,0,0,0,0,0,0,0,,,,,,0.0,,,,,,,,,,,,,,,
1221663,1745295465011,0.0526,,,,,,,,,,,,,,,,,,,,,,,,,,,,,,,,,,0,0,0,0,0,0,0,0,0,0,0,0,0,0,0,0,,,,,,,,,,,,,,,,,,,,,
1221683,1745295465031,0.053,0.0,-27,,0.2,-0.24,1.01,-0,1,2,1.06,1.13,94,10793,99.6,4.04,,10.89,1.05,82.6,,61.3,5,,,,,,,,,,,,0,0,0,0,0,0,0,0,0,0,0,0,0,0,0,0,,,,,,0.0,,,,,,,,,,,,,,,
1221703,1745295465051,0.0533,,,,,,,,,,,,,,,,,,,,,,,0,0,0,0,0.0,0.0,0.0,0.0,2.26,,,0,0,0,0,0,0,0,0,0,0,0,0,0,0,0,0,,0,,,,,38.985764,-76.950226,1.16,48.0,34,3,0.8,0,0.0,-1,0.0,,0,0.0,0.0533
1221723,1745295465071,0.0536,0.0,-15,,0.24,-0.16,1.01,-1,1,2,1.05,1.13,93,10135,99.6,4.96,,11.09,0.988,82.6,,61.3,5,,,,,,,,,,,,0,0,0,0,0,0,0,0,0,0,0,0,0,0,0,0,,,,,,0.0,,,,,,,,,,,,,,,
1221743,1745295465091,0.054,,,,,,,,,,,,,,,,,,,,,,,,,,,,,,,,,,0,0,0,0,0,0,0,0,0,0,0,0,0,0,0,0,,,,,,,,,,,,,,,,,,,,,
1221763,1745295465118,0.0543,0.0,-15,,0.31,-0.22,1.03,-1,1,1,1.1,1.13,97,9509,99.6,5.73,,11.09,0.988,82.6,,59.5,5,,,,,,,,,,,,0,0,0,0,0,0,0,0,0,0,0,0,0,0,0,0,,,,,,0.0,,,,,,,,,,,,,,,
1221783,1745295465138,0.0546,,,,,,,,,,,,,,,,,,,,,,,,,,,,,,,,,,0,0,0,0,0,0,0,0,0,0,0,0,0,0,0,0,,,,,,,,,,,,,,,,,,,,,
1221803,1745295465158,0.055,0.0,-19,,0.37,-0.09,1.01,-2,1,2,1.08,1.13,96,9509,99.6,5.73,,11.3,0.919,84.4,,59.5,5,3,0,3,3,0.0,0.0,0.0,0.0,2.25,,,0,0,0,0,0,0,0,0,0,0,0,0,0,0,0,0,,0,,,,0.0,38.985764,-76.950226,3.51,48.0,34,3,0.8,0,0.0,-1,0.0,0.0,0,0.0,0.055
1221823,1745295465178,0.0553,,,,,,,,,,,,,,,,,,,,,,,,,,,,,,,,,,0,0,0,0,0,0,0,0,0,0,0,0,0,0,0,0,,,,,,,,,,,,,,,,,,,,,
1221843,1745295465198,0.0556,0.0,-27,,0.41,-0.03,0.97,-3,1,2,1.06,1.13,94,9027,99.6,5.67,,11.54,0.83,84.4,,57.5,5,,,,,,,,,,,,0,0,0,0,0,0,0,0,0,0,0,0,0,0,0,0,,,,,,0.0,,,,,,,,,,,,,,,
1221863,1745295465218,0.056,,,,,,,,,,,,,,,,,,,,,,,,,,,,,,,,,,0,0,0,0,0,0,0,0,0,0,0,0,0,0,0,0,,,,,,,,,,,,,,,,,,,,,
1221883,1745295465238,0.0563,0.0,-19,,0.44,-0.06,0.94,-3,0,2,1.03,1.13,92,8534,99.6,5.78,,11.83,0.778,84.4,,57.5,5,,,,,,,,,,,,0,0,0,0,0,0,0,0,0,0,0,0,0,0,0,0,,,,,,0.0,,,,,,,,,,,,,,,
1221903,1745295465258,0.0566,,,,,,,,,,,,,,,,,,,,,,,5,46,6,5,0.0,149.0,0.0,0.0,2.25,,,0,0,0,0,0,0,0,0,0,0,0,0,0,0,0,0,,0,,,,,38.985764,-76.950226,8.0,48.0,34,3,0.8,0,0.0,-1,0.0,,0,0.0001,0.0566
1221923,1745295465278,0.057,0.0,-12,,0.49,-0.08,0.99,-0,0,1,1.11,1.13,98,7897,99.7,5.97,,12.23,0.756,84.4,,57.5,5,,,,,,,,,,,,0,0,0,0,0,0,0,0,0,0,0,0,0,0,0,0,,,,,,0.0,,,,,,,,,,,,,,,
1221943,1745295465298,0.0573,,,,,,,,,,,,,,,,,,,,,,,,,,,,,,,,,,0,0,0,0,0,0,0,0,0,0,0,0,0,0,0,0,,,,,,,,,,,,,,,,,,,,,
1221963,1745295465320,0.0576,0.0,-12,,0.52,-0.16,1.01,1,0,0,1.15,1.15,100,7251,99.7,5.38,,12.23,0.756,84.4,,52.9,5,,,,,,,,,,,,0,0,0,0,0,0,0,0,0,0,0,0,0,0,0,0,,,,,,0.0,,,,,,,,,,,,,,,
1221983,1745295465340,0.058,,,,,,,,,,,,,,,,,,,,,,,,,,,,,,,,,,0,0,0,0,0,0,0,0,0,0,0,0,0,0,0,0,,,,,,,,,,,,,,,,,,,,,
1222003,1745295465360,0.0583,0.0,-15,,0.55,-0.12,1.03,1,0,-0,1.17,1.17,100,7251,99.7,5.38,,12.6,0.743,84.4,,52.9,5,7,9,8,7,0.0,209.0,0.0,0.0,2.26,,,0,0,0,0,0,0,0,0,0,0,0,0,0,0,0,0,,0,,,,0.0,38.985764,-76.950233,10.82,48.0,34,3,0.8,0,0.0,-1,0.0,0.0,0,0.0003,0.0583
1222023,1745295465380,0.0586,,,,,,,,,,,,,,,,,,,,,,,,,,,,,,,,,,0,0,0,0,0,0,0,0,0,0,0,0,0,0,0,0,,,,,,,,,,,,,,,,,,,,,
1222043,1745295465402,0.059,0.0,-27,,0.57,-0.19,1.01,1,0,-0,1.17,1.17,100,6680,99.7,5.09,,12.8,0.742,84.4,,47.3,5,,,,,,,,,,,,0,0,0,0,0,0,0,0,0,0,0,0,0,0,0,0,,,,,,0.0,,,,,,,,,,,,,,,
1222063,1745295465422,0.0593,,,,,,,,,,,,,,,,,,,,,,,,,,,,,,,,,,0,0,0,0,0,0,0,0,0,0,0,0,0,0,0,0,,,,,,,,,,,,,,,,,,,,,
1222083,1745295465442,0.0596,0.0,-12,,0.56,-0.35,0.94,2,0,-1,1.15,1.17,98,6155,99.7,5.15,,13.12,0.759,84.4,,47.3,5,,,,,,,,,,,,0,0,0,0,0,0,0,0,0,0,0,0,0,0,0,0,,,,,,0.0,,,,,,,,,,,,,,,
1222103,1745295465462,0.06,,,,,,,,,,,,,,,,,,,,,,,9,33,9,10,0.0,230.0,0.0,0.0,2.25,,,0,0,0,0,0,0,0,0,0,0,0,0,0,0,0,0,,0,,,,,38.985764,-76.950233,13.6,48.0,34,3,0.8,0,0.0,-1,0.0,,0,0.0005,0.06
1222123,1745295465482,0.0603,0.0,-8,,0.56,-0.32,0.95,1,-0,-1,1.15,1.17,98,5675,99.7,4.92,,13.37,0.795,84.4,,47.3,5,,,,,,,,,,,,0,0,0,0,0,0,0,0,0,0,0,0,0,0,0,0,,,,,,0.0,,,,,,,,,,,,,,,
1222143,1745295465502,0.0606,,,,,,,,,,,,,,,,,,,,,,,,,,,,,,,,,,0,0,0,0,0,0,0,0,0,0,0,0,0,0,0,0,,,,,,,,,,,,,,,,,,,,,
1222163,1745295465520,0.061,0.0,-12,,0.57,-0.26,0.97,-0,-0,-0,1.16,1.17,99,5155,99.7,4.45,,13.37,0.795,84.4,,41.1,5,,,,,,,,,,,,0,0,0,0,0,0,0,0,0,0,0,0,0,0,0,0,,,,,,0.0,,,,,,,,,,,,,,,
1222183,1745295465540,0.0613,,,,,,,,,,,,,,,,,,,,,,,,,,,,,,,,,,0,0,0,0,0,0,0,0,0,0,0,0,0,0,0,0,,,,,,,,,,,,,,,,,,,,,
1222203,1745295465560,0.0616,0.0,-23,,0.6,-0.2,1.05,-1,-0,0,1.22,1.22,100,5155,99.7,4.45,,13.79,0.828,84.4,,41.1,5,11,33,11,12,0.0,92.0,0.0,0.0,2.26,,,0,0,0,0,0,0,0,0,0,0,0,0,0,0,0,0,,0,,,,0.0,38.985764,-76.950241,16.42,48.0,34,3,0.8,0,0.0,-1,0.0,0.0,0,0.0008,0.0616
1222223,1745295465580,0.062,,,,,,,,,,,,,,,,,,,,,,,,,,,,,,,,,,0,0,0,0,0,0,0,0,0,0,0,0,0,0,0,0,,,,,,,,,,,,,,,,,,,,,
1222243,1745295465602,0.0623,0.0,-15,,0.62,-0.2,1.02,-1,-0,0,1.21,1.22,98,4085,99.7,4.56,,14.12,0.822,84.4,,28.2,5,,,,,,,,,,,,0,0,0,0,0,0,0,0,0,0,0,0,0,0,0,0,,,,,,0.0,,,,,,,,,,,,,,,
1222263,1745295465622,0.0626,,,,,,,,,,,,,,,,,,,,,,,,,,,,,,,,,,0,0,0,0,0,0,0,0,0,0,0,0,0,0,0,0,,,,,,,,,,,,,,,,,,,,,
1222283,1745295465642,0.063,0.0,-23,,0.6,-0.26,1.11,-2,-0,0,1.29,1.29,100,3418,99.7,4.66,,14.34,0.793,84.4,,28.2,5,,,,,,,,,,,,0,0,0,0,0,0,0,0,0,0,0,0,0,0,0,0,,,,,,0.0,,,,,,,,,,,,,,,
1222303,1745295465662,0.0633,,,,,,,,,,,,,,,,,,,,,,,13,16,13,13,0.0,212.0,0.0,0.0,2.26,,,0,0,0,0,0,0,0,0,0,0,0,0,0,0,0,0,,2,,,,,38.985764,-76.950249,19.19,48.0,34,3,0.8,0,0.0,-1,0.0,,0,0.0011,0.0633
1222323,1745295465682,0.0636,0.0,-12,,0.54,-0.23,1.17,-2,-1,0,1.31,1.31,100,2911,99.7,4.51,,14.4,0.782,84.4,,28.2,5,,,,,,,,,,,,0,0,0,0,0,0,0,0,0,0,0,0,0,0,0,0,,,,,,0.0,,,,,,,,,,,,,,,
1222343,1745295465702,0.064,,,,,,,,,,,,,,,,,,,,,,,,,,,,,,,,,,0,0,0,0,0,0,0,0,0,0,0,0,0,0,0,0,,,,,,,,,,,,,,,,,,,,,
1222363,1745295465722,0.0643,0.0,-15,,0.47,-0.23,1.2,-2,-2,-0,1.31,1.31,100,3051,99.8,4.41,,14.4,0.782,84.4,,21.0,5,,,,,,,,,,,,0,0,0,0,0,0,0,0,0,0,0,0,0,0,0,0,,,,,,0.0,,,,,,,,,,,,,,,
1222383,1745295465742,0.0646,,,,,,,,,,,,,,,,,,,,,,,,,,,,,,,,,,0,0,0,0,0,0,0,0,0,0,0,0,0,0,0,0,,,,,,,,,,,,,,,,,,,,,
1222403,1745295465762,0.065,0.0,-27,13.71,0.39,-0.28,1.24,-2,-2,-0,1.33,1.33,100,3051,99.8,4.41,15,14.34,0.791,84.4,182,21.0,5,13,15,13,13,0.0,147.0,0.0,0.0,2.26,0,1.0,0,0,0,0,0,0,0,0,0,0,0,0,0,0,0,0,0,2,1.0,0,0,0.0,38.985767,-76.950256,21.54,48.0,34,3,0.8,0,0.0,-1,0.0,0.0,0,0.0014,0.065
1222423,1745295465782,0.0653,,,,,,,,,,,,,,,,,,,,,,,,,,,,,,,,,,0,0,0,0,0,0,0,0,0,0,0,0,0,0,0,0,,,,,,,,,,,,,,,,,,,,,
1222443,1745295465802,0.0656,0.0,-27,,0.35,-0.2,1.14,-2,-1,-0,1.2,1.33,91,3196,99.7,4.4,,14.27,0.792,84.4,,23.5,5,,,,,,,,,,,,0,0,0,0,0,0,0,0,0,0,0,0,0,0,0,0,,,,,,0.0,,,,,,,,,,,,,,,
1222463,1745295465822,0.066,,,,,,,,,,,,,,,,,,,,,,,,,,,,,,,,,,0,0,0,0,0,0,0,0,0,0,0,0,0,0,0,0,,,,,,,,,,,,,,,,,,,,,
1222483,1745295465842,0.0663,0.0,-27,,0.34,-0.18,1.19,-2,-1,-0,1.25,1.33,94,3381,99.7,4.59,,14.31,0.789,84.4,,23.5,5,,,,,,,,,,,,0,0,0,0,0,0,0,0,0,0,0,0,0,0,0,0,,,,,,0.0,,,,,,,,,,,,,,,
1222503,1745295465862,0.0667,,,,,,,,,,,,,,,,,,,,,,,13,15,13,14,0.0,161.0,0.0,0.0,2.26,,,0,0,0,0,0,0,0,0,0,0,0,0,0,0,0,0,,2,,,,,38.985767,-76.950256,21.26,48.0,34,3,0.8,0,0.0,-1,0.0,,0,0.0018,0.0667
1222523,1745295465882,0.067,0.0,-31,,0.33,-0.11,1.1,-2,-1,-0,1.15,1.33,87,3403,99.8,4.63,,14.36,0.86,84.4,,23.5,5,,,,,,,,,,,,0,0,0,0,0,0,0,0,0,0,0,0,0,0,0,0,,,,,,0.0,,,,,,,,,,,,,,,
1222543,1745295465902,0.0673,,,,,,,,,,,,,,,,,,,,,,,,,,,,,,,,,,0,0,0,0,0,0,0,0,0,0,0,0,0,0,0,0,,,,,,,,,,,,,,,,,,,,,
1222563,1745295465922,0.0676,0.0,-31,,0.31,-0.04,1.09,-2,-1,-0,1.13,1.33,85,2965,99.7,4.47,,14.36,0.86,84.4,,24.0,5,,,,,,,,,,,,0,0,0,0,0,0,0,0,0,0,0,0,0,0,0,0,,,,,,0.0,,,,,,,,,,,,,,,
1222583,1745295465942,0.068,,,,,,,,,,,,,,,,,,,,,,,,,,,,,,,,,,0,0,0,0,0,0,0,0,0,0,0,0,0,0,0,0,,,,,,,,,,,,,,,,,,,,,
1222603,1745295465962,0.0683,0.0,-46,,0.28,-0.06,1.14,-3,-2,0,1.17,1.33,88,2965,99.7,4.47,,14.38,0.975,84.4,,24.0,5,14,15,14,14,0.0,183.0,0.0,0.0,2.26,,,0,0,0,0,0,0,0,0,0,0,0,0,0,0,0,0,,0,,,,0.0,38.985767,-76.950264,21.28,48.0,34,3,0.8,0,0.0,-1,0.0,0.0,0,0.0022,0.0683
1222623,1745295465982,0.0686,,,,,,,,,,,,,,,,,,,,,,,,,,,,,,,,,,0,0,0,0,0,0,0,0,0,0,0,0,0,0,0,0,,,,,,,,,,,,,,,,,,,,,
1222643,1745295466002,0.069,0.0,-34,,0.21,-0.09,1.08,-2,-1,-0,1.1,1.33,83,3168,99.7,4.46,,14.36,0.965,84.4,,23.6,5,,,,,,,,,,,,0,0,0,0,0,0,0,0,0,0,0,0,0,0,0,0,,,,,,0.0,,,,,,,,,,,,,,,
1222663,1745295466010,0.0693,,,,,,,,,,,,,,,,,,,,,,,,,,,,,,,,,,0,0,0,0,0,0,0,0,0,0,0,0,0,0,0,0,,,,,,,,,,,,,,,,,,,,,
1222683,1745295466030,0.0696,0.0,-46,,0.19,-0.13,1.06,-2,-1,-0,1.08,1.33,82,3562,99.7,4.57,,14.24,0.922,84.4,,23.6,5,,,,,,,,,,,,0,0,0,0,0,0,0,0,0,0,0,0,0,0,0,0,,,,,,0.0,,,,,,,,,,,,,,,
1222703,1745295466050,0.07,,,,,,,,,,,,,,,,,,,,,,,14,15,14,13,0.0,188.0,0.0,0.0,2.25,,,0,0,0,0,0,0,0,0,0,0,0,0,0,0,0,0,,0,,,,,38.985767,-76.950272,22.12,48.0,34,3,0.8,0,0.0,-1,0.0,,0,0.0026,0.07
1222723,1745295466070,0.0703,0.0,-27,,0.22,-0.07,1.07,-2,-1,-0,1.09,1.33,82,3602,99.7,4.72,,14.23,0.959,84.4,,23.6,5,,,,,,,,,,,,0,0,0,0,0,0,0,0,0,0,0,0,0,0,0,0,,,,,,0.0,,,,,,,,,,,,,,,
1222743,1745295466090,0.0706,,,,,,,,,,,,,,,,,,,,,,,,,,,,,,,,,,0,0,0,0,0,0,0,0,0,0,0,0,0,0,0,0,,,,,,,,,,,,,,,,,,,,,
1222763,1745295466117,0.071,0.0,-31,,0.23,-0.02,1.04,-2,-1,-0,1.07,1.33,81,3507,99.8,4.67,,14.23,0.959,84.4,,26.1,5,,,,,,,,,,,,0,0,0,0,0,0,0,0,0,0,0,0,0,0,0,0,,,,,,0.0,,,,,,,,,,,,,,,
1222783,1745295466137,0.0713,,,,,,,,,,,,,,,,,,,,,,,,,,,,,,,,,,0,0,0,0,0,0,0,0,0,0,0,0,0,0,0,0,,,,,,,,,,,,,,,,,,,,,
1222803,1745295466157,0.0716,0.0,-46,,0.18,-0.06,1.06,-1,-1,-1,1.08,1.33,81,3507,99.8,4.67,,14.35,1.048,84.4,,26.1,5,14,15,15,16,0.0,4.0,0.0,0.0,2.26,,,0,0,0,0,0,0,0,0,0,0,0,0,0,0,0,0,,0,,,,0.0,38.985767,-76.950279,21.91,48.0,34,3,0.8,0,0.0,-1,0.0,0.0,0,0.0029,0.0716
1222823,1745295466177,0.072,,,,,,,,,,,,,,,,,,,,,,,,,,,,,,,,,,0,0,0,0,0,0,0,0,0,0,0,0,0,0,0,0,,,,,,,,,,,,,,,,,,,,,
1222843,1745295466197,0.0723,0.0,-38,,0.18,-0.02,1.07,-1,-1,-0,1.09,1.33,82,3415,99.7,4.55,,14.34,1.09,84.4,,24.7,5,,,,,,,,,,,,0,0,0,0,0,0,0,0,0,0,0,0,0,0,0,0,,,,,,0.0,,,,,,,,,,,,,,,
1222863,1745295466215,0.0726,,,,,,,,,,,,,,,,,,,,,,,,,,,,,,,,,,0,0,0,0,0,0,0,0,0,0,0,0,0,0,0,0,,,,,,,,,,,,,,,,,,,,,
1222883,1745295466235,0.073,0.0,-46,,0.17,-0.01,1.05,-1,-1,-0,1.07,1.33,80,3566,99.7,4.59,,14.28,1.006,84.4,,24.7,5,,,,,,,,,,,,0,0,0,0,0,0,0,0,0,0,0,0,0,0,0,0,,,,,,0.0,,,,,,,,,,,,,,,
1222903,1745295466255,0.0733,,,,,,,,,,,,,,,,,,,,,,,15,15,15,16,0.0,247.0,0.0,0.0,2.25,,,0,0,0,0,0,0,0,0,0,0,0,0,0,0,0,0,,0,,,,,38.985767,-76.950287,23.02,48.0,34,3,0.8,0,0.0,-1,0.0,,0,0.0033,0.0733
1222923,1745295466275,0.0736,0.0,-31,,0.17,-0.03,1.06,-1,-1,-0,1.08,1.33,81,3680,99.7,4.73,,14.26,0.94,84.4,,24.7,5,,,,,,,,,,,,0,0,0,0,0,0,0,0,0,0,0,0,0,0,0,0,,,,,,0.0,,,,,,,,,,,,,,,
1222943,1745295466301,0.074,,,,,,,,,,,,,,,,,,,,,,,,,,,,,,,,,,0,0,0,0,0,0,0,0,0,0,0,0,0,0,0,0,,,,,,,,,,,,,,,,,,,,,
1222963,1745295466321,0.0743,0.0,-31,,0.16,-0.03,1.02,-1,-1,-0,1.04,1.33,78,3719,99.7,4.7,,14.26,0.94,84.4,,27.1,5,,,,,,,,,,,,0,0,0,0,0,0,0,0,0,0,0,0,0,0,0,0,,,,,,0.0,,,,,,,,,,,,,,,
1222983,1745295466341,0.0746,,,,,,,,,,,,,,,,,,,,,,,,,,,,,,,,,,0,0,0,0,0,0,0,0,0,0,0,0,0,0,0,0,,,,,,,,,,,,,,,,,,,,,
1223003,1745295466361,0.075,0.0,-27,,0.12,-0.08,1.03,-1,-1,-0,1.04,1.33,79,3719,99.7,4.7,,14.27,0.947,84.4,,27.1,5,15,15,15,15,0.0,13.0,0.0,0.0,2.25,,,0,0,0,0,0,0,0,0,0,0,0,0,0,0,0,0,,2,,,,0.0,38.985767,-76.950302,23.37,48.0,34,3,0.8,0,0.0,-1,0.0,0.0,0,0.0037,0.075
1223023,1745295466381,0.0753,,,,,,,,,,,,,,,,,,,,,,,,,,,,,,,,,,0,0,0,0,0,0,0,0,0,0,0,0,0,0,0,0,,,,,,,,,,,,,,,,,,,,,
1223043,1745295466401,0.0756,0.0,-27,,0.11,-0.08,1.04,-1,-1,0,1.05,1.33,79,3543,99.8,4.68,,14.28,1.011,84.4,,26.1,5,,,,,,,,,,,,0,0,0,0,0,0,0,0,0,0,0,0,0,0,0,0,,,,,,0.0,,,,,,,,,,,,,,,
1223063,1745295466421,0.076,,,,,,,,,,,,,,,,,,,,,,,,,,,,,,,,,,0,0,0,0,0,0,0,0,0,0,0,0,0,0,0,0,,,,,,,,,,,,,,,,,,,,,
1223083,1745295466441,0.0763,0.0,-27,,0.12,-0.1,0.99,-1,-0,-0,1.0,1.33,76,3790,99.7,4.69,,14.28,1.052,84.4,,26.1,5,,,,,,,,,,,,0,0,0,0,0,0,0,0,0,0,0,0,0,0,0,0,,,,,,0.0,,,,,,,,,,,,,,,
1223103,1745295466461,0.0766,,,,,,,,,,,,,,,,,,,,,,,16,15,16,15,0.0,252.0,0.0,0.0,2.25,,,0,0,0,0,0,0,0,0,0,0,0,0,0,0,0,0,,2,,,,,38.985767,-76.950302,23.89,48.0,34,3,0.8,0,0.0,-1,0.0,,0,0.0041,0.0766
1223123,1745295466481,0.077,0.0,-38,,0.11,-0.12,0.97,-0,-0,-0,0.98,1.33,74,3848,99.7,4.74,,14.2,1.067,84.4,,26.1,5,,,,,,,,,,,,0,0,0,0,0,0,0,0,0,0,0,0,0,0,0,0,,,,,,0.0,,,,,,,,,,,,,,,
1223143,1745295466501,0.0773,,,,,,,,,,,,,,,,,,,,,,,,,,,,,,,,,,0,0,0,0,0,0,0,0,0,0,0,0,0,0,0,0,,,,,,,,,,,,,,,,,,,,,
1223163,1745295466521,0.0777,0.0,-27,,0.1,-0.14,0.98,-1,-0,-0,1.0,1.33,75,3714,99.7,4.77,,14.2,1.067,84.4,,27.4,5,,,,,,,,,,,,0,0,0,0,0,0,0,0,0,0,0,0,0,0,0,0,,,,,,0.0,,,,,,,,,,,,,,,
1223183,1745295466541,0.078,,,,,,,,,,,,,,,,,,,,,,,,,,,,,,,,,,0,0,0,0,0,0,0,0,0,0,0,0,0,0,0,0,,,,,,,,,,,,,,,,,,,,,
1223203,1745295466561,0.0783,0.0,-42,,0.1,-0.08,0.99,-1,-0,0,0.99,1.33,75,3714,99.7,4.77,,14.22,1.071,84.4,,27.4,5,16,15,16,16,0.0,30.0,0.0,0.0,2.26,,,0,0,0,0,0,0,0,0,0,0,0,0,0,0,0,0,,2,,,,0.0,38.985767,-76.95031,24.2,48.0,34,3,0.8,0,0.0,-1,0.0,0.0,0,0.0045,0.0783
1223223,1745295466581,0.0786,,,,,,,,,,,,,,,,,,,,,,,,,,,,,,,,,,0,0,0,0,0,0,0,0,0,0,0,0,0,0,0,0,,,,,,,,,,,,,,,,,,,,,
1223243,1745295466601,0.079,0.0,-27,,0.12,-0.03,1.02,-1,-0,1,1.03,1.33,78,3895,99.7,4.75,,14.27,1.073,84.4,,27.9,5,,,,,,,,,,,,0,0,0,0,0,0,0,0,0,0,0,0,0,0,0,0,,,,,,0.0,,,,,,,,,,,,,,,
1223263,1745295466621,0.0793,,,,,,,,,,,,,,,,,,,,,,,,,,,,,,,,,,0,0,0,0,0,0,0,0,0,0,0,0,0,0,0,0,,,,,,,,,,,,,,,,,,,,,
1223283,1745295466641,0.0796,0.0,-34,,0.11,-0.04,1.03,-1,0,1,1.04,1.33,78,3829,99.7,4.81,,14.19,1.086,84.4,,27.9,5,,,,,,,,,,,,0,0,0,0,0,0,0,0,0,0,0,0,0,0,0,0,,,,,,0.0,,,,,,,,,,,,,,,
1223303,1745295466661,0.08,,,,,,,,,,,,,,,,,,,,,,,16,15,16,16,0.0,252.0,0.0,0.0,2.26,,,0,0,0,0,0,0,0,0,0,0,0,0,0,0,0,0,,2,,,,,38.985767,-76.950317,24.83,47.9,34,3,0.8,0,0.0,-1,0.0,,0,0.005,0.08
1223323,1745295466681,0.0803,0.0,-31,,0.1,-0.04,1.02,-0,0,0,1.02,1.33,77,3961,99.7,4.8,,14.22,1.066,84.4,,27.9,5,,,,,,,,,,,,0,0,0,0,0,0,0,0,0,0,0,0,0,0,0,0,,,,,,0.0,,,,,,,,,,,,,,,
1223343,1745295466701,0.0806,,,,,,,,,,,,,,,,,,,,,,,,,,,,,,,,,,0,0,0,0,0,0,0,0,0,0,0,0,0,0,0,0,,,,,,,,,,,,,,,,,,,,,
1223363,1745295466721,0.081,0.0,-46,,0.08,-0.1,0.94,-0,-0,-0,0.94,1.33,71,3962,99.7,4.79,,14.22,1.066,84.4,,28.3,5,,,,,,,,,,,,0,0,0,0,0,0,0,0,0,0,0,0,0,0,0,0,,,,,,0.0,,,,,,,,,,,,,,,
1223383,1745295466741,0.0813,,,,,,,,,,,,,,,,,,,,,,,,,,,,,,,,,,0,0,0,0,0,0,0,0,0,0,0,0,0,0,0,0,,,,,,,,,,,,,,,,,,,,,
1223403,1745295466761,0.0816,0.0,-31,13.79,0.09,-0.07,0.96,0,-0,-0,0.97,1.33,73,3962,99.7,4.79,15,14.26,1.064,84.4,182,28.3,5,16,15,16,16,0.0,59.0,0.0,0.0,2.26,0,1.0,0,0,0,0,0,0,0,0,0,0,0,0,0,0,0,0,0,2,1.0,0,0,0.0,38.985767,-76.950325,25.21,47.9,34,3,0.8,0,0.0,-1,0.0,0.0,0,0.0054,0.0816
1223423,1745295466781,0.082,,,,,,,,,,,,,,,,,,,,,,,,,,,,,,,,,,0,0,0,0,0,0,0,0,0,0,0,0,0,0,0,0,,,,,,,,,,,,,,,,,,,,,
1223443,1745295466801,0.0823,0.0,-8,,0.07,-0.1,0.99,-0,0,0,0.99,1.33,75,3931,99.7,4.85,,14.26,1.046,84.4,,28.7,5,,,,,,,,,,,,0,0,0,0,0,0,0,0,0,0,0,0,0,0,0,0,,,,,,0.0,,,,,,,,,,,,,,,
1223483,1745295466841,0.083,0.0,11,,0.07,-0.13,0.94,0,0,-0,0.95,1.33,72,4073,99.8,4.86,,14.19,1.026,84.4,,28.7,5,,,,,,,,,,,,0,0,0,0,0,0,0,0,0,0,0,0,0,0,0,0,,,,,,0.0,,,,,,,,,,,,,,,
1224023,1745295467378,0.092,,,,,,,,,,,,,,,,,,,,,,,,,,,,,,,,,,0,0,0,0,0,0,0,0,0,0,0,0,0,0,0,0,,,,,,,,,,,,,,,,,,,,,
1224043,1745295467398,0.0923,0.0,-27,,0.01,-0.15,0.98,1,-1,-0,0.99,1.03,96,4400,99.6,4.51,,14.18,1.022,82.6,,32.2,5,,,,,,,,,,,,0,0,0,0,0,0,0,0,0,0,0,0,0,0,0,0,,,,,,0.0,,,,,,,,,,,,,,,
1224063,1745295467420,0.0926,,,,,,,,,,,,,,,,,,,,,,,,,,,,,,,,,,0,0,0,0,0,0,0,0,0,0,0,0,0,0,0,0,,,,,,,,,,,,,,,,,,,,,
1224083,1745295467440,0.093,0.0,-34,,0.02,-0.11,1.07,0,-1,1,1.08,1.08,100,4485,99.7,4.58,,14.16,0.932,82.6,,32.2,5,,,,,,,,,,,,0,0,0,0,0,0,0,0,0,0,0,0,0,0,0,0,,,,,,0.0,,,,,,,,,,,,,,,
1224103,1745295467460,0.0933,,,,,,,,,,,,,,,,,,,,,,,19,15,18,19,0.0,235.0,0.0,0.0,2.26,,,0,0,0,0,0,0,0,0,0,0,0,0,0,0,0,0,,2,,,,,38.985771,-76.950386,28.62,47.9,34,3,0.8,0,0.0,-1,0.0,,0,0.0086,0.0933
1224123,1745295467480,0.0936,0.0,-53,,0.03,-0.11,1.15,-0,-1,1,1.15,1.15,100,4600,99.7,4.51,,14.16,0.895,82.6,,32.2,5,,,,,,,,,,,,0,0,0,0,0,0,0,0,0,0,0,0,0,0,0,0,,,,,,0.0,,,,,,,,,,,,,,,
1224143,1745295467500,0.094,,,,,,,,,,,,,,,,,,,,,,,,,,,,,,,,,,0,0,0,0,0,0,0,0,0,0,0,0,0,0,0,0,,,,,,,,,,,,,,,,,,,,,
1224163,1745295467518,0.0943,0.0,-31,,-0.01,-0.15,1.12,-0,-0,1,1.13,1.15,99,4597,99.7,4.44,,14.16,0.895,82.6,,34.3,5,,,,,,,,,,,,0,0,0,0,0,0,0,0,0,0,0,0,0,0,0,0,,,,,,0.0,,,,,,,,,,,,,,,
1224183,1745295467538,0.0946,,,,,,,,,,,,,,,,,,,,,,,,,,,,,,,,,,0,0,0,0,0,0,0,0,0,0,0,0,0,0,0,0,,,,,,,,,,,,,,,,,,,,,
1224203,1745295467558,0.095,0.0,-46,,-0.05,-0.22,1.02,0,-1,0,1.04,1.15,90,4597,99.7,4.44,,14.14,0.877,82.6,,34.3,5,19,15,19,19,0.0,48.0,0.0,0.0,2.26,,,0,0,0,0,0,0,0,0,0,0,0,0,0,0,0,0,,2,,,,0.0,38.985771,-76.950394,29.33,47.9,34,3,0.8,0,0.0,-1,0.0,0.0,0,0.0091,0.095
1224223,1745295467578,0.0953,,,,,,,,,,,,,,,,,,,,,,,,,,,,,,,,,,0,0,0,0,0,0,0,0,0,0,0,0,0,0,0,0,,,,,,,,,,,,,,,,,,,,,
1224243,1745295467598,0.0956,0.0,-46,,-0.04,-0.21,0.92,1,-0,0,0.95,1.15,82,4665,99.8,4.43,,14.2,0.875,82.6,,34.3,5,,,,,,,,,,,,0,0,0,0,0,0,0,0,0,0,0,0,0,0,0,0,,,,,,0.0,,,,,,,,,,,,,,,
1224263,1745295467620,0.096,,,,,,,,,,,,,,,,,,,,,,,,,,,,,,,,,,0,0,0,0,0,0,0,0,0,0,0,0,0,0,0,0,,,,,,,,,,,,,,,,,,,,,
1224283,1745295467640,0.0963,0.0,-46,,0.05,-0.07,1.04,0,-0,1,1.04,1.15,90,4731,99.7,4.38,,14.24,0.873,82.6,,34.3,5,,,,,,,,,,,,0,0,0,0,0,0,0,0,0,0,0,0,0,0,0,0,,,,,,0.0,,,,,,,,,,,,,,,
1224303,1745295467660,0.0966,,,,,,,,,,,,,,,,,,,,,,,20,15,19,20,0.0,35.0,0.0,0.0,2.26,,,0,0,0,0,0,0,0,0,0,0,0,0,0,0,0,0,,2,,,,,38.985771,-76.950409,29.96,47.9,34,3,0.8,0,0.0,-1,0.0,,0,0.0097,0.0966
1224323,1745295467680,0.097,0.0,-42,,0.04,-0.17,1.02,1,-0,1,1.04,1.15,90,4792,99.7,4.34,,14.19,0.877,82.6,,34.3,5,,,,,,,,,,,,0,0,0,0,0,0,0,0,0,0,0,0,0,0,0,0,,,,,,0.0,,,,,,,,,,,,,,,
1224343,1745295467700,0.0973,,,,,,,,,,,,,,,,,,,,,,,,,,,,,,,,,,0,0,0,0,0,0,0,0,0,0,0,0,0,0,0,0,,,,,,,,,,,,,,,,,,,,,
1224363,1745295467720,0.0976,0.0,-42,,0.03,-0.22,0.93,2,-0,-0,0.96,1.15,84,4803,99.7,4.34,,14.19,0.877,82.6,,35.1,5,,,,,,,,,,,,0,0,0,0,0,0,0,0,0,0,0,0,0,0,0,0,,,,,,0.0,,,,,,,,,,,,,,,
1224383,1745295467740,0.098,,,,,,,,,,,,,,,,,,,,,,,,,,,,,,,,,,0,0,0,0,0,0,0,0,0,0,0,0,0,0,0,0,,,,,,,,,,,,,,,,,,,,,
1224403,1745295467760,0.0983,0.0,-38,13.78,0.07,-0.21,0.96,2,-0,0,0.99,1.15,86,4803,99.7,4.34,15,14.2,0.886,82.6,183,35.1,5,20,0,20,20,0.0,6.0,0.0,0.0,2.26,0,1.0,0,0,0,0,0,0,0,0,0,0,0,0,0,0,0,0,0,2,1.0,0,0,0.0,38.985775,-76.950417,30.53,47.9,34,3,0.8,0,0.0,-1,0.0,0.0,0,0.0102,0.0983
1224423,1745295467780,0.0986,,,,,,,,,,,,,,,,,,,,,,,,,,,,,,,,,,0,0,0,0,0,0,0,0,0,0,0,0,0,0,0,0,,,,,,,,,,,,,,,,,,,,,
1224443,1745295467800,0.099,0.0,-49,,0.12,-0.14,0.98,1,-0,0,0.99,1.15,86,5068,99.7,4.21,,14.18,0.92,82.6,,36.4,5,,,,,,,,,,,,0,0,0,0,0,0,0,0,0,0,0,0,0,0,0,0,,,,,,0.0,,,,,,,,,,,,,,,
1224463,1745295467819,0.0993,,,,,,,,,,,,,,,,,,,,,,,,,,,,,,,,,,0,0,0,0,0,0,0,0,0,0,0,0,0,0,0,0,,,,,,,,,,,,,,,,,,,,,
1224483,1745295467839,0.0996,0.0,-57,,0.09,-0.12,0.99,1,-1,-0,1.0,1.15,87,4815,99.7,4.31,,14.18,0.886,82.6,,36.4,5,,,,,,,,,,,,0,0,0,0,0,0,0,0,0,0,0,0,0,0,0,0,,,,,,0.0,,,,,,,,,,,,,,,
1224503,1745295467859,0.1,,,,,,,,,,,,,,,,,,,,,,,21,0,20,21,0.0,44.0,0.0,0.0,2.25,,,0,0,0,0,0,0,0,0,0,0,0,0,0,0,0,0,,2,,,,,38.985775,-76.950424,31.41,47.9,34,3,0.8,0,0.0,-1,0.0,,0,0.0107,0.1
1224523,1745295467879,0.1003,0.0,-53,,0.09,-0.05,1.01,0,-1,0,1.02,1.15,88,5016,99.7,4.2,,14.1,0.866,82.6,,36.4,5,,,,,,,,,,,,0,0,0,0,0,0,0,0,0,0,0,0,0,0,0,0,,,,,,0.0,,,,,,,,,,,,,,,
1224543,1745295467899,0.1006,,,,,,,,,,,,,,,,,,,,,,,,,,,,,,,,,,0,0,0,0,0,0,0,0,0,0,0,0,0,0,0,0,,,,,,,,,,,,,,,,,,,,,
1224563,1745295467920,0.101,0.0,-49,,0.09,-0.09,0.96,1,-1,-0,0.97,1.15,84,5053,99.8,4.16,,14.1,0.866,82.6,,37.0,5,,,,,,,,,,,,0,0,0,0,0,0,0,0,0,0,0,0,0,0,0,0,,,,,,0.0,,,,,,,,,,,,,,,
1224583,1745295467940,0.1013,,,,,,,,,,,,,,,,,,,,,,,,,,,,,,,,,,0,0,0,0,0,0,0,0,0,0,0,0,0,0,0,0,,,,,,,,,,,,,,,,,,,,,
1224603,1745295467960,0.1016,0.0,-53,,0.09,-0.07,0.95,1,-0,-0,0.96,1.15,83,5053,99.8,4.16,,14.14,0.894,82.6,,37.0,5,20,0,21,21,0.0,26.0,0.0,0.0,2.25,,,0,0,0,0,0,0,0,0,0,0,0,0,0,0,0,0,,2,,,,0.0,38.985775,-76.950432,32.44,47.8,34,3,0.8,0,0.0,-1,0.0,0.0,0,0.0113,0.1016
1224623,1745295467980,0.102,,,,,,,,,,,,,,,,,,,,,,,,,,,,,,,,,,0,0,0,0,0,0,0,0,0,0,0,0,0,0,0,0,,,,,,,,,,,,,,,,,,,,,
1224643,1745295468000,0.1023,0.0,-46,,0.08,-0.05,1.01,1,-0,-0,1.02,1.15,89,5016,99.7,4.32,,14.03,0.98,82.6,,36.7,5,,,,,,,,,,,,0,0,0,0,0,0,0,0,0,0,0,0,0,0,0,0,,,,,,0.0,,,,,,,,,,,,,,,
1224663,1745295468008,0.1026,,,,,,,,,,,,,,,,,,,,,,,,,,,,,,,,,,0,0,0,0,0,0,0,0,0,0,0,0,0,0,0,0,,,,,,,,,,,,,,,,,,,,,
1224683,1745295468028,0.103,0.0,-61,,0.07,-0.03,1.02,2,-0,-0,1.02,1.15,88,4910,99.8,4.17,,14.06,1.006,82.6,,36.7,5,,,,,,,,,,,,0,0,0,0,0,0,0,0,0,0,0,0,0,0,0,0,,,,,,0.0,,,,,,,,,,,,,,,
1224703,1745295468048,0.1033,,,,,,,,,,,,,,,,,,,,,,,22,0,22,21,0.0,250.0,0.0,0.0,2.25,,,0,0,0,0,0,0,0,0,0,0,0,0,0,0,0,0,,0,,,,,38.985775,-76.950447,32.74,47.8,34,3,0.8,0,0.0,-1,0.0,,0,0.0118,0.1033
1224723,1745295468068,0.1036,0.0,-53,,0.09,-0.01,1.06,2,-0,-0,1.06,1.15,92,5255,99.7,4.32,,13.94,1.043,82.6,,36.7,5,,,,,,,,,,,,0,0,0,0,0,0,0,0,0,0,0,0,0,0,0,0,,,,,,0.0,,,,,,,,,,,,,,,
1224743,1745295468088,0.104,,,,,,,,,,,,,,,,,,,,,,,,,,,,,,,,,,0,0,0,0,0,0,0,0,0,0,0,0,0,0,0,0,,,,,,,,,,,,,,,,,,,,,
1224763,1745295468105,0.1043,0.0,-49,,0.11,-0.05,1.04,2,0,-0,1.04,1.15,91,5258,99.7,4.45,,13.94,1.043,82.6,,38.3,5,,,,,,,,,,,,0,0,0,0,0,0,0,0,0,0,0,0,0,0,0,0,,,,,,0.0,,,,,,,,,,,,,,,
1224783,1745295468125,0.1046,,,,,,,,,,,,,,,,,,,,,,,,,,,,,,,,,,0,0,0,0,0,0,0,0,0,0,0,0,0,0,0,0,,,,,,,,,,,,,,,,,,,,,
1224803,1745295468145,0.105,0.0,-53,,0.13,-0.02,1.06,2,0,-0,1.07,1.15,93,5258,99.7,4.45,,14.03,1.153,82.6,,38.3,5,22,0,22,22,0.0,0.0,0.0,0.0,2.25,,,0,0,0,0,0,0,0,0,0,0,0,0,0,0,0,0,,2,,,,0.0,38.985775,-76.950455,33.26,47.8,34,3,0.8,0,0.0,-1,0.0,0.0,0,0.0124,0.105
1224823,1745295468165,0.1053,,,,,,,,,,,,,,,,,,,,,,,,,,,,,,,,,,0,0,0,0,0,0,0,0,0,0,0,0,0,0,0,0,,,,,,,,,,,,,,,,,,,,,
1224843,1745295468185,0.1056,0.0,-38,,0.15,-0.09,1.01,2,-0,-0,1.03,1.03,100,5360,99.7,4.48,,13.95,1.118,82.6,,39.2,5,,,,,,,,,,,,0,0,0,0,0,0,0,0,0,0,0,0,0,0,0,0,,,,,,0.0,,,,,,,,,,,,,,,
1224863,1745295468213,0.106,,,,,,,,,,,,,,,,,,,,,,,,,,,,,,,,,,0,0,0,0,0,0,0,0,0,0,0,0,0,0,0,0,,,,,,,,,,,,,,,,,,,,,
1224883,1745295468233,0.1063,0.0,-64,,0.19,-0.04,1.01,3,-0,-1,1.02,1.03,100,5445,99.7,4.6,,13.98,1.027,82.6,,39.2,5,,,,,,,,,,,,0,0,0,0,0,0,0,0,0,0,0,0,0,0,0,0,,,,,,0.0,,,,,,,,,,,,,,,
1224903,1745295468253,0.1066,,,,,,,,,,,,,,,,,,,,,,,22,0,23,22,0.0,52.0,0.0,0.0,2.26,,,0,0,0,0,0,0,0,0,0,0,0,0,0,0,0,0,,2,,,,,38.985775,-76.950462,33.92,47.8,34,3,0.8,0,0.0,-1,0.0,,0,0.013,0.1066
1224923,1745295468273,0.107,0.0,-64,,0.15,0.03,1.04,4,-0,-1,1.05,1.05,100,5316,99.7,4.49,,13.96,0.931,82.6,,39.2,5,,,,,,,,,,,,0,0,0,0,0,0,0,0,0,0,0,0,0,0,0,0,,,,,,0.0,,,,,,,,,,,,,,,
1224943,1745295468293,0.1073,,,,,,,,,,,,,,,,,,,,,,,,,,,,,,,,,,0,0,0,0,0,0,0,0,0,0,0,0,0,0,0,0,,,,,,,,,,,,,,,,,,,,,
1224963,1745295468317,0.1076,0.0,-46,,0.14,0.08,1.09,2,-0,0,1.1,1.1,100,5540,99.8,4.65,,13.96,0.931,82.6,,39.3,5,,,,,,,,,,,,0,0,0,0,0,0,0,0,0,0,0,0,0,0,0,0,,,,,,0.0,,,,,,,,,,,,,,,
1224983,1745295468337,0.108,,,,,,,,,,,,,,,,,,,,,,,,,,,,,,,,,,0,0,0,0,0,0,0,0,0,0,0,0,0,0,0,0,,,,,,,,,,,,,,,,,,,,,
1225003,1745295468357,0.1083,0.0,-53,,0.16,0.09,1.03,4,-0,-0,1.04,1.1,95,5540,99.8,4.65,,13.86,0.893,82.6,,39.3,5,22,0,23,23,0.0,0.0,0.0,0.0,2.25,,,0,0,0,0,0,0,0,0,0,0,0,0,0,0,0,0,,2,,,,0.0,38.985775,-76.950478,35.3,47.8,34,3,0.8,0,0.0,-1,0.0,0.0,0,0.0136,0.1083
1225023,1745295468377,0.1086,,,,,,,,,,,,,,,,,,,,,,,,,,,,,,,,,,0,0,0,0,0,0,0,0,0,0,0,0,0,0,0,0,,,,,,,,,,,,,,,,,,,,,
1225043,1745295468397,0.109,0.0,-46,,0.17,0.04,1.01,2,-0,0,1.03,1.1,93,5734,99.8,4.89,,13.72,0.92,82.6,,41.5,5,,,,,,,,,,,,0,0,0,0,0,0,0,0,0,0,0,0,0,0,0,0,,,,,,0.0,,,,,,,,,,,,,,,
1225063,1745295468419,0.1093,,,,,,,,,,,,,,,,,,,,,,,,,,,,,,,,,,0,0,0,0,0,0,0,0,0,0,0,0,0,0,0,0,,,,,,,,,,,,,,,,,,,,,
1225083,1745295468439,0.1096,0.0,-68,,0.19,0.08,1.07,3,-0,0,1.09,1.1,99,5668,99.8,4.82,,13.71,0.988,82.6,,41.5,5,,,,,,,,,,,,0,0,0,0,0,0,0,0,0,0,0,0,0,0,0,0,,,,,,0.0,,,,,,,,,,,,,,,
1225103,1745295468459,0.11,,,,,,,,,,,,,,,,,,,,,,,24,0,24,24,0.0,17.0,0.0,0.0,2.25,,,0,0,0,0,0,0,0,0,0,0,0,0,0,0,0,0,,2,,,,,38.985775,-76.950493,36.61,47.8,34,3,0.8,0,0.0,-1,0.0,,0,0.0142,0.11
1225123,1745295468479,0.1103,0.0,-49,,0.18,-0.0,0.94,3,-1,-0,0.96,1.1,88,5820,99.8,4.96,,13.64,1.014,82.6,,41.5,5,,,,,,,,,,,,0,0,0,0,0,0,0,0,0,0,0,0,0,0,0,0,,,,,,0.0,,,,,,,,,,,,,,,
1225143,1745295468499,0.1106,,,,,,,,,,,,,,,,,,,,,,,,,,,,,,,,,,0,0,0,0,0,0,0,0,0,0,0,0,0,0,0,0,,,,,,,,,,,,,,,,,,,,,
1225163,1745295468517,0.111,0.0,-57,,0.17,-0.04,0.87,3,-1,0,0.89,1.1,81,5922,99.8,5.11,,13.64,1.014,82.6,,42.8,5,,,,,,,,,,,,0,0,0,0,0,0,0,0,0,0,0,0,0,0,0,0,,,,,,0.0,,,,,,,,,,,,,,,
1225183,1745295468537,0.1113,,,,,,,,,,,,,,,,,,,,,,,,,,,,,,,,,,0,0,0,0,0,0,0,0,0,0,0,0,0,0,0,0,,,,,,,,,,,,,,,,,,,,,
1225203,1745295468557,0.1116,0.0,-53,,0.15,-0.03,0.83,2,-0,1,0.85,1.1,77,5922,99.8,5.11,,13.63,0.991,82.6,,42.8,5,24,0,25,24,0.0,240.0,0.0,0.0,2.26,,,0,0,0,0,0,0,0,0,0,0,0,0,0,0,0,0,,2,,,,0.0,38.985775,-76.9505,37.77,47.8,34,3,0.8,0,0.0,-1,0.0,0.0,0,0.0148,0.1116
1225223,1745295468577,0.112,,,,,,,,,,,,,,,,,,,,,,,,,,,,,,,,,,0,0,0,0,0,0,0,0,0,0,0,0,0,0,0,0,,,,,,,,,,,,,,,,,,,,,
1225243,1745295468597,0.1123,0.0,-53,,0.13,0.01,0.84,1,-0,1,0.85,1.1,77,5932,95.8,5.16,,13.55,0.985,82.6,,43.4,5,,,,,,,,,,,,0,0,0,0,0,0,0,0,0,0,0,0,0,0,0,0,,,,,,0.0,,,,,,,,,,,,,,,
1225263,1745295468619,0.1126,,,,,,,,,,,,,,,,,,,,,,,,,,,,,,,,,,0,0,0,0,0,0,0,0,0,0,0,0,0,0,0,0,,,,,,,,,,,,,,,,,,,,,
1225283,1745295468639,0.113,0.0,-64,,0.12,0.0,0.81,-0,-0,1,0.82,1.1,75,6059,46.7,5.19,,13.55,0.96,82.6,,43.4,5,,,,,,,,,,,,0,0,0,0,0,0,0,0,0,0,0,0,0,0,0,0,,,,,,0.0,,,,,,,,,,,,,,,
1225303,1745295468659,0.1133,,,,,,,,,,,,,,,,,,,,,,,25,0,26,25,0.0,232.0,0.0,0.0,2.26,,,0,0,0,0,0,0,0,0,0,0,0,0,0,0,0,0,,2,,,,,38.985775,-76.950516,38.8,47.8,34,3,0.8,0,0.0,-1,0.0,,0,0.0155,0.1133
1225323,1745295468679,0.1136,0.0,-61,,0.12,-0.02,0.76,1,0,1,0.76,1.1,70,6174,40.3,4.85,,13.29,0.936,82.6,,43.4,5,,,,,,,,,,,,0,0,0,0,0,0,0,0,0,0,0,0,0,0,0,0,,,,,,0.0,,,,,,,,,,,,,,,
1225343,1745295468699,0.114,,,,,,,,,,,,,,,,,,,,,,,,,,,,,,,,,,0,0,0,0,0,0,0,0,0,0,0,0,0,0,0,0,,,,,,,,,,,,,,,,,,,,,
1225363,1745295468719,0.1143,0.0,-53,,0.17,-0.03,0.78,1,-0,1,0.8,1.1,73,6220,40.3,4.91,,13.29,0.936,82.6,,44.4,5,,,,,,,,,,,,0,0,0,0,0,0,0,0,0,0,0,0,0,0,0,0,,,,,,0.0,,,,,,,,,,,,,,,
1225383,1745295468739,0.1146,,,,,,,,,,,,,,,,,,,,,,,,,,,,,,,,,,0,0,0,0,0,0,0,0,0,0,0,0,0,0,0,0,,,,,,,,,,,,,,,,,,,,,
1225403,1745295468759,0.115,0.0,-68,13.8,0.16,-0.01,0.84,1,-1,1,0.86,1.1,78,6220,40.3,4.91,15,13.11,0.913,82.6,183,44.4,5,25,0,26,26,0.0,26.0,0.0,0.0,2.25,0,1.0,0,0,0,0,0,0,0,0,0,0,0,0,0,0,0,0,0,2,1.0,0,0,0.0,38.985775,-76.950531,39.92,47.7,34,3,0.8,0,0.0,-1,0.0,0.0,0,0.0162,0.115
1225423,1745295468779,0.1153,,,,,,,,,,,,,,,,,,,,,,,,,,,,,,,,,,0,0,0,0,0,0,0,0,0,0,0,0,0,0,0,0,,,,,,,,,,,,,,,,,,,,,
1225443,1745295468799,0.1156,0.0,-61,,0.15,-0.07,0.81,2,-1,0,0.83,1.1,76,6256,42.0,5.03,,13.23,0.906,82.6,,44.9,5,,,,,,,,,,,,0,0,0,0,0,0,0,0,0,0,0,0,0,0,0,0,,,,,,0.0,,,,,,,,,,,,,,,
1225463,1745295468819,0.116,,,,,,,,,,,,,,,,,,,,,,,,,,,,,,,,,,0,0,0,0,0,0,0,0,0,0,0,0,0,0,0,0,,,,,,,,,,,,,,,,,,,,,
1225483,1745295468839,0.1163,0.0,-53,,0.18,0.0,0.86,1,-0,1,0.88,1.1,80,6407,61.5,5.41,,13.27,0.918,82.6,,44.9,5,,,,,,,,,,,,0,0,0,0,0,0,0,0,0,0,0,0,0,0,0,0,,,,,,0.0,,,,,,,,,,,,,,,
1225503,1745295468859,0.1166,,,,,,,,,,,,,,,,,,,,,,,26,0,26,26,0.0,25.0,0.0,0.0,2.25,,,0,0,0,0,0,0,0,0,0,0,0,0,0,0,0,0,,2,,,,,38.985775,-76.950539,41.1,47.7,34,3,0.8,0,0.0,-1,0.0,,0,0.0169,0.1166
1225523,1745295468879,0.117,0.0,-61,,0.19,-0.04,0.89,2,0,0,0.91,1.1,83,6556,62.6,5.17,,13.32,0.915,82.6,,44.9,5,,,,,,,,,,,,0,0,0,0,0,0,0,0,0,0,0,0,0,0,0,0,,,,,,0.0,,,,,,,,,,,,,,,
1225543,1745295468899,0.1173,,,,,,,,,,,,,,,,,,,,,,,,,,,,,,,,,,0,0,0,0,0,0,0,0,0,0,0,0,0,0,0,0,,,,,,,,,,,,,,,,,,,,,
1225563,1745295468919,0.1176,0.0,-42,,0.23,-0.03,0.88,1,0,0,0.91,1.1,83,6753,62.5,5.29,,13.32,0.915,82.6,,46.3,5,,,,,,,,,,,,0,0,0,0,0,0,0,0,0,0,0,0,0,0,0,0,,,,,,0.0,,,,,,,,,,,,,,,
1225583,1745295468939,0.118,,,,,,,,,,,,,,,,,,,,,,,,,,,,,,,,,,0,0,0,0,0,0,0,0,0,0,0,0,0,0,0,0,,,,,,,,,,,,,,,,,,,,,
1225603,1745295468959,0.1183,0.0,-49,,0.26,-0.05,0.9,1,0,0,0.93,1.1,85,6753,62.5,5.29,,13.05,0.898,82.6,,46.3,5,26,0,27,28,0.0,2.0,0.0,0.0,2.26,,,0,0,0,0,0,0,0,0,0,0,0,0,0,0,0,0,,2,,,,0.0,38.985775,-76.950554,41.98,47.7,34,3,0.8,0,0.0,-1,0.0,0.0,0,0.0176,0.1183
1225623,1745295468979,0.1186,,,,,,,,,,,,,,,,,,,,,,,,,,,,,,,,,,0,0,0,0,0,0,0,0,0,0,0,0,0,0,0,0,,,,,,,,,,,,,,,,,,,,,
1225643,1745295468999,0.119,0.0,-46,,0.28,-0.01,0.91,1,0,-0,0.95,1.1,87,6748,64.1,5.38,,13.07,0.83,82.6,,47.8,5,,,,,,,,,,,,0,0,0,0,0,0,0,0,0,0,0,0,0,0,0,0,,,,,,0.0,,,,,,,,,,,,,,,
1225663,1745295469007,0.1193,,,,,,,,,,,,,,,,,,,,,,,,,,,,,,,,,,0,0,0,0,0,0,0,0,0,0,0,0,0,0,0,0,,,,,,,,,,,,,,,,,,,,,
1225683,1745295469027,0.1196,0.0,-42,,0.31,-0.13,0.88,1,0,0,0.95,1.1,86,7006,80.9,6.2,,13.13,0.81,82.6,,47.8,5,,,,,,,,,,,,0,0,0,0,0,0,0,0,0,0,0,0,0,0,0,0,,,,,,0.0,,,,,,,,,,,,,,,
1225703,1745295469047,0.12,,,,,,,,,,,,,,,,,,,,,,,28,0,29,28,0.0,90.0,0.0,0.0,2.26,,,0,0,0,0,0,0,0,0,0,0,0,0,0,0,0,0,,2,,,,,38.985775,-76.950569,43.64,47.7,34,3,0.8,0,0.0,-1,0.0,,0,0.0183,0.12
1225723,1745295469067,0.1203,0.0,-57,,0.32,-0.04,0.93,1,0,0,0.98,1.1,90,7061,96.4,5.6,,12.91,0.797,82.6,,47.8,5,,,,,,,,,,,,0,0,0,0,0,0,0,0,0,0,0,0,0,0,0,0,,,,,,0.0,,,,,,,,,,,,,,,
1225743,1745295469087,0.1206,,,,,,,,,,,,,,,,,,,,,,,,,,,,,,,,,,0,0,0,0,0,0,0,0,0,0,0,0,0,0,0,0,,,,,,,,,,,,,,,,,,,,,
1225763,1745295469114,0.121,0.0,-53,,0.34,-0.07,0.92,0,0,-0,0.99,0.99,100,7239,77.1,5.64,,12.91,0.797,82.6,,50.3,5,,,,,,,,,,,,0,0,0,0,0,0,0,0,0,0,0,0,0,0,0,0,,,,,,0.0,,,,,,,,,,,,,,,
1225783,1745295469134,0.1213,,,,,,,,,,,,,,,,,,,,,,,,,,,,,,,,,,0,0,0,0,0,0,0,0,0,0,0,0,0,0,0,0,,,,,,,,,,,,,,,,,,,,,
1225803,1745295469154,0.1216,0.0,-64,,0.34,-0.04,0.97,-0,0,0,1.03,1.03,100,7239,77.1,5.64,,13.03,0.762,82.6,,50.3,5,29,0,30,30,0.0,245.0,0.0,0.0,2.26,,,0,0,0,0,0,0,0,0,0,0,0,0,0,0,0,0,,2,,,,0.0,38.985775,-76.950577,45.89,47.7,34,3,0.8,0,0.0,-1,0.0,0.0,0,0.0191,0.1216
1225823,1745295469174,0.122,,,,,,,,,,,,,,,,,,,,,,,,,,,,,,,,,,0,0,0,0,0,0,0,0,0,0,0,0,0,0,0,0,,,,,,,,,,,,,,,,,,,,,
1225843,1745295469194,0.1223,0.0,-42,,0.33,-0.06,0.94,0,0,0,1.0,1.03,97,7287,0.0,1.4,,11.14,0.748,82.6,,52.0,5,,,,,,,,,,,,0,0,0,0,0,0,0,0,0,0,0,0,0,0,0,0,,,,,,0.0,,,,,,,,,,,,,,,
1225863,1745295469216,0.1226,,,,,,,,,,,,,,,,,,,,,,,,,,,,,,,,,,0,0,0,0,0,0,0,0,0,0,0,0,0,0,0,0,,,,,,,,,,,,,,,,,,,,,
1225883,1745295469236,0.123,0.0,-49,,0.28,-0.02,0.98,-1,0,-0,1.02,1.03,99,7107,0.0,1.4,,9.62,0.745,82.6,,52.0,5,,,,,,,,,,,,0,0,0,0,0,0,0,0,0,0,0,0,0,0,0,0,,,,,,0.0,,,,,,,,,,,,,,,
1225903,1745295469256,0.1233,,,,,,,,,,,,,,,,,,,,,,,30,0,30,30,0.0,0.0,0.0,0.0,2.25,,,0,0,0,0,0,0,0,0,0,0,0,0,0,0,0,0,,2,,,,,38.985775,-76.9506,47.68,47.7,34,3,0.8,0,0.0,-1,0.0,,0,0.0199,0.1233
1225923,1745295469276,0.1236,0.0,-61,,0.26,-0.09,0.96,-0,0,-0,1.0,1.03,97,7197,0.0,1.4,,8.58,0.744,82.6,,52.0,5,,,,,,,,,,,,0,0,0,0,0,0,0,0,0,0,0,0,0,0,0,0,,,,,,0.0,,,,,,,,,,,,,,,
1225943,1745295469296,0.124,,,,,,,,,,,,,,,,,,,,,,,,,,,,,,,,,,0,0,0,0,0,0,0,0,0,0,0,0,0,0,0,0,,,,,,,,,,,,,,,,,,,,,
1225963,1745295469318,0.1243,0.0,-46,,0.2,0.02,0.95,-1,0,0,0.97,1.03,94,7215,0.0,1.4,,8.58,0.744,82.6,,52.2,5,,,,,,,,,,,,0,0,0,0,0,0,0,0,0,0,0,0,0,0,0,0,,,,,,0.0,,,,,,,,,,,,,,,
1225983,1745295469338,0.1246,,,,,,,,,,,,,,,,,,,,,,,,,,,,,,,,,,0,0,0,0,0,0,0,0,0,0,0,0,0,0,0,0,,,,,,,,,,,,,,,,,,,,,
1226003,1745295469358,0.125,0.0,-61,,0.17,-0.04,0.99,-1,0,-0,1.0,1.03,97,7215,0.0,1.4,,7.89,0.834,82.6,,52.2,5,31,0,30,30,0.0,4.0,0.0,0.0,2.25,,,0,0,0,0,0,0,0,0,0,0,0,0,0,0,0,0,,2,,,,0.0,38.985775,-76.950615,48.37,47.7,34,3,0.8,0,0.0,-1,0.0,0.0,0,0.0207,0.125
1226023,1745295469378,0.1253,,,,,,,,,,,,,,,,,,,,,,,,,,,,,,,,,,0,0,0,0,0,0,0,0,0,0,0,0,0,0,0,0,,,,,,,,,,,,,,,,,,,,,
1226043,1745295469398,0.1256,0.0,-38,,0.12,-0.03,0.99,-2,1,-1,1.0,1.03,97,7075,0.0,1.4,,7.37,0.969,82.6,,51.8,5,,,,,,,,,,,,0,0,0,0,0,0,0,0,0,0,0,0,0,0,0,0,,,,,,0.0,,,,,,,,,,,,,,,
1226063,1745295469418,0.126,,,,,,,,,,,,,,,,,,,,,,,,,,,,,,,,,,0,0,0,0,0,0,0,0,0,0,0,0,0,0,0,0,,,,,,,,,,,,,,,,,,,,,
1226083,1745295469438,0.1263,0.0,-57,,0.07,-0.04,0.97,-1,1,-1,0.97,1.03,95,6996,0.0,1.4,,7.22,1.061,82.6,,51.8,5,,,,,,,,,,,,0,0,0,0,0,0,0,0,0,0,0,0,0,0,0,0,,,,,,0.0,,,,,,,,,,,,,,,
1226103,1745295469458,0.1266,,,,,,,,,,,,,,,,,,,,,,,30,0,30,30,0.0,62.0,0.0,0.0,2.26,,,0,0,0,0,0,0,0,0,0,0,0,0,0,0,0,0,,2,,,,,38.985775,-76.950623,47.42,47.6,34,3,0.8,0,0.0,-1,0.0,,0,0.0216,0.1266
1226123,1745295469478,0.127,0.0,-57,,0.03,-0.05,0.96,-1,0,-1,0.96,1.03,93,6834,0.0,1.4,,7.19,1.102,82.6,,51.8,5,,,,,,,,,,,,0,0,0,0,0,0,0,0,0,0,0,0,0,0,0,0,,,,,,0.0,,,,,,,,,,,,,,,
1226143,1745295469498,0.1273,,,,,,,,,,,,,,,,,,,,,,,,,,,,,,,,,,0,0,0,0,0,0,0,0,0,0,0,0,0,0,0,0,,,,,,,,,,,,,,,,,,,,,
