"Interval"|"ms"|0|0|1,"Utc"|"ms"|0|0|1,"FrontBP"|"psi"|-5.0|5.0|25,"SteerAng"|"Degrees"|-145.0|145.0|25,"Battery"|"Volts"|-5.0|20.0|1,"AccelX"|"G"|-3.0|3.0|25,"AccelY"|"G"|-3.0|3.0|25,"AccelZ"|"G"|-3.0|3.0|25,"Yaw"|"Deg/Sec"|-120|120|25,"Pitch"|"Deg/Sec"|-120|120|25,"Roll"|"Deg/Sec"|-120|120|25,"Gsum"|"G"|0.0|3.0|25,"GsumMax"|"G"|0.0|3.0|25,"GsumPct"|"%"|0|100|25,"RPM"|""|0|10000|25,"TPS"|"%"|0.0|100.0|25,"InjectorPW"|"ms"|0.0|100.0|25,"Baro"|"kPa"|0|105|1,"MAP"|"Psi"|0.0|255.0|25,"Lambda"|""|-2.0|2.0|25,"IAT"|"C"|0.0|200.0|25,"EngineTemp"|"C"|0|200|1,"EOP"|"PSI"|0.0|152.0|25,"EOT"|"F"|0|250|25,"WSFR"|"MPH"|0|150|10,"WSFL"|"MPH"|0|100|10,"WSRR"|"MPH"|0|100|10,"WSRL"|""|0|100|10,"TCSet"|"%"|0.0|100.0|10,"TCSlip"|"%"|0.0|100.0|10,"TCComp"|"deg"|0.0|50.0|10,"TCCut"|"%"|0.0|100.0|10,"Analog8"|""|0.0|5.0|10,"OilTemp"|"F"|0|300|1,"AA_On"|""|0.0|1.0|1,"ThermLF1"|"C"|0|400|50,"ThermLF2"|"C"|0|400|50,"ThermRR1"|"C"|0|400|50,"ThermRR2"|"C"|0|400|50,"ThermLF3"|"C"|0|400|50,"ThermLF4"|"C"|0|400|50,"ThermLF5"|"C"|0|400|50,"ThermLF6"|"C"|0|400|50,"ThermLF7"|"C"|0|400|50,"ThermLF8"|"C"|0|400|50,"ThermRR3"|"C"|0|400|50,"ThermRR4"|"C"|0|400|50,"ThermRR5"|"C"|0|400|50,"ThermRR6"|"C"|0|400|50,"ThermRR7"|"C"|0|400|50,"ThermRR8"|"C"|0|400|50,"Gear"|""|1|6|10,"AA_On"|""|0.0|1.0|1,"AA_LowDrag"|""|0|1|1,"Fuel_Mix"|""|-10|10|1,"AA_Packages"|""|0.0|1000.0|25,"Latitude"|"Degrees"|-180.0|180.0|10,"Longitude"|"Degrees"|-180.0|180.0|10,"Speed"|"kph"|0.0|150.0|10,"GPSSats"|""|0|20|10,"GPSQual"|""|0|5|10,"GPSDOP"|""|0.0|20.0|10
3389365,0,0.0,183.26,,-0.13,0.02,1.03,-1,-1,2,1.04,1.04,100,11281,0.0,1.4,,4.6,0.869,88.0,,68.2,5,,,,,,,,,,,,0,0,0,0,0,0,0,0,0,0,0,0,0,0,0,0,,,,,0.0,,,,,,
3389385,0,,,,,,,,,,,,,,,,,,,,,,,,,,,,,,,,,,0,0,0,0,0,0,0,0,0,0,0,0,0,0,0,0,,,,,,,,,,,
3389405,0,0.0,183.13,,-0.1,-0.22,0.98,-1,-1,2,1.01,1.04,97,10832,0.0,1.4,,4.36,0.855,88.0,,68.2,5,,,,,,,,,,,,0,0,0,0,0,0,0,0,0,0,0,0,0,0,0,0,,,,,0.0,,,,,,
3389425,0,,,,,,,,,,,,,,,,,,,,,,,,,,,,,,,,,,0,0,0,0,0,0,0,0,0,0,0,0,0,0,0,0,,,,,,,,,,,
3389445,0,0.0,183.01,,-0.07,-0.49,1.05,-1,-1,1,1.17,1.17,100,10484,0.0,1.4,,4.36,0.866,88.0,,68.6,5,0,0,0,0,0.0,0.0,0.0,0.0,2.27,,,0,0,0,0,0,0,0,0,0,0,0,0,0,0,0,0,0,,,,0.0,0.0,0.0,0.0,0,0,0.0
3389465,0,,,,,,,,,,,,,,,,,,,,,,,,,,,,,,,,,,0,0,0,0,0,0,0,0,0,0,0,0,0,0,0,0,,,,,,,,,,,
3389485,0,0.0,183.01,,-0.06,-0.55,0.94,-2,-0,1,1.09,1.17,94,10121,0.0,1.4,,4.36,0.866,88.0,,68.6,5,,,,,,,,,,,,0,0,0,0,0,0,0,0,0,0,0,0,0,0,0,0,,,,,0.0,,,,,,
3389505,0,,,,,,,,,,,,,,,,,,,,,,,,,,,,,,,,,,0,0,0,0,0,0,0,0,0,0,0,0,0,0,0,0,,,,,,,,,,,
3389525,0,0.0,182.88,,-0.06,-0.44,0.95,-3,-0,1,1.05,1.17,90,10121,0.0,1.4,,4.57,0.872,88.0,,66.9,5,,,,,,,,,,,,0,0,0,0,0,0,0,0,0,0,0,0,0,0,0,0,,,,,0.0,,,,,,
3389545,0,,,,,,,,,,,,,,,,,,,,,,,0,0,0,0,0.0,0.0,0.0,0.0,2.26,,,0,0,0,0,0,0,0,0,0,0,0,0,0,0,0,0,0,,,,,0.0,0.0,0.0,0,0,0.0
3389565,0,0.0,182.88,,-0.06,-0.33,0.94,-3,-1,1,1.0,1.17,85,9825,8.5,1.4,,5.36,0.889,88.0,,66.9,5,,,,,,,,,,,,0,0,0,0,0,0,0,0,0,0,0,0,0,0,0,0,,,,,0.0,,,,,,
3389585,0,,,,,,,,,,,,,,,,,,,,,,,,,,,,,,,,,,0,0,0,0,0,0,0,0,0,0,0,0,0,0,0,0,,,,,,,,,,,
3389605,0,0.0,182.88,,-0.05,-0.26,0.98,-1,-0,0,1.02,1.17,87,9523,10.0,1.66,,5.98,0.903,88.0,,66.9,5,,,,,,,,,,,,0,0,0,0,0,0,0,0,0,0,0,0,0,0,0,0,,,,,0.0,,,,,,
3389625,0,,,,,,,,,,,,,,,,,,,,,,,,,,,,,,,,,,0,0,0,0,0,0,0,0,0,0,0,0,0,0,0,0,,,,,,,,,,,
3389645,0,0.0,182.88,,-0.03,-0.13,0.95,-2,-0,1,0.96,1.17,82,9219,9.9,1.79,,6.23,0.992,88.0,,64.7,5,0,0,0,0,0.0,0.0,0.0,0.0,2.26,,,0,0,0,0,0,0,0,0,0,0,0,0,0,0,0,0,0,,,,0.0,0.0,0.0,0.0,0,0,0.0
3389665,0,,,,,,,,,,,,,,,,,,,,,,,,,,,,,,,,,,0,0,0,0,0,0,0,0,0,0,0,0,0,0,0,0,,,,,,,,,,,
3389685,0,0.0,183.01,,-0.02,-0.21,0.92,-3,-0,1,0.95,1.17,81,9014,10.1,1.93,,6.23,0.992,88.0,,64.7,5,,,,,,,,,,,,0,0,0,0,0,0,0,0,0,0,0,0,0,0,0,0,,,,,0.0,,,,,,
3389705,0,,,,,,,,,,,,,,,,,,,,,,,,,,,,,,,,,,0,0,0,0,0,0,0,0,0,0,0,0,0,0,0,0,,,,,,,,,,,
3389725,0,0.0,183.01,,-0.03,-0.23,0.9,-4,-0,1,0.93,1.17,79,9014,10.1,1.93,,6.6,1.177,88.0,,63.4,5,,,,,,,,,,,,0,0,0,0,0,0,0,0,0,0,0,0,0,0,0,0,,,,,0.0,,,,,,
3389745,0,,,,,,,,,,,,,,,,,,,,,,,0,0,0,0,0.0,0.0,0.0,0.0,2.27,,,0,0,0,0,0,0,0,0,0,0,0,0,0,0,0,0,0,,,,,0.0,0.0,0.0,0,0,0.0
3389765,0,0.0,182.88,,-0.02,-0.16,0.86,-4,-0,1,0.88,1.17,75,8921,12.8,2.15,,7.25,1.247,88.0,,63.4,5,,,,,,,,,,,,0,0,0,0,0,0,0,0,0,0,0,0,0,0,0,0,,,,,0.0,,,,,,
3389785,0,,,,,,,,,,,,,,,,,,,,,,,,,,,,,,,,,,0,0,0,0,0,0,0,0,0,0,0,0,0,0,0,0,,,,,,,,,,,
3389805,0,0.0,182.76,,-0.0,-0.05,0.85,-4,-1,2,0.85,1.17,73,8940,12.4,2.28,,7.43,1.204,88.0,,63.4,5,,,,,,,,,,,,0,0,0,0,0,0,0,0,0,0,0,0,0,0,0,0,,,,,0.0,,,,,,
3389825,0,,,,,,,,,,,,,,,,,,,,,,,,,,,,,,,,,,0,0,0,0,0,0,0,0,0,0,0,0,0,0,0,0,,,,,,,,,,,
3389845,0,0.0,182.88,13.91,0.02,0.01,0.8,-4,-1,1,0.8,1.17,69,9027,10.5,2.2,15,7.41,1.128,88.0,178,64.5,5,0,0,0,0,0.0,0.0,0.0,0.0,2.27,0,1.0,0,0,0,0,0,0,0,0,0,0,0,0,0,0,0,0,0,0.0,0,-0,0.0,0.0,0.0,0.0,0,0,0.0
3389865,0,,,,,,,,,,,,,,,,,,,,,,,,,,,,,,,,,,0,0,0,0,0,0,0,0,0,0,0,0,0,0,0,0,,,,,,,,,,,
3389885,0,0.0,182.88,,0.01,-0.08,0.8,-5,-1,2,0.8,1.17,69,9151,9.3,2.14,,7.41,1.128,88.0,,64.5,5,,,,,,,,,,,,0,0,0,0,0,0,0,0,0,0,0,0,0,0,0,0,,,,,0.0,,,,,,
3389905,0,,,,,,,,,,,,,,,,,,,,,,,,,,,,,,,,,,0,0,0,0,0,0,0,0,0,0,0,0,0,0,0,0,,,,,,,,,,,
3389925,0,0.0,182.76,,-0.03,-0.15,0.89,-6,-1,2,0.9,1.17,77,9151,9.3,2.14,,7.19,1.082,88.0,,66.4,5,,,,,,,,,,,,0,0,0,0,0,0,0,0,0,0,0,0,0,0,0,0,,,,,0.0,,,,,,
3389945,0,,,,,,,,,,,,,,,,,,,,,,,0,0,0,0,0.0,0.0,0.0,0.0,2.27,,,0,0,0,0,0,0,0,0,0,0,0,0,0,0,0,0,0,,,,,0.0,0.0,0.0,0,0,0.0
3389965,0,0.0,182.63,,-0.05,-0.18,0.97,-4,-0,1,0.99,1.17,85,9206,7.9,2.0,,6.94,1.052,88.0,,66.4,5,,,,,,,,,,,,0,0,0,0,0,0,0,0,0,0,0,0,0,0,0,0,,,,,0.0,,,,,,
3389985,0,,,,,,,,,,,,,,,,,,,,,,,,,,,,,,,,,,0,0,0,0,0,0,0,0,0,0,0,0,0,0,0,0,,,,,,,,,,,
3390005,0,0.0,182.63,,-0.08,-0.21,1.03,-2,-0,1,1.06,1.17,91,9185,7.1,1.94,,6.71,1.047,88.0,,66.4,5,,,,,,,,,,,,0,0,0,0,0,0,0,0,0,0,0,0,0,0,0,0,,,,,0.0,,,,,,
3390025,0,,,,,,,,,,,,,,,,,,,,,,,,,,,,,,,,,,0,0,0,0,0,0,0,0,0,0,0,0,0,0,0,0,,,,,,,,,,,
3390045,0,0.0,182.76,,-0.1,0.03,1.01,-2,-0,1,1.01,1.17,87,9135,7.0,1.87,,6.71,1.047,88.0,,67.5,5,0,0,0,0,0.0,0.0,0.0,0.0,2.26,,,0,0,0,0,0,0,0,0,0,0,0,0,0,0,0,0,0,,,,0.0,0.0,0.0,0.0,0,0,0.0
3390065,0,,,,,,,,,,,,,,,,,,,,,,,,,,,,,,,,,,0,0,0,0,0,0,0,0,0,0,0,0,0,0,0,0,,,,,,,,,,,
3390085,0,0.0,182.76,,-0.12,0.16,0.94,-3,-0,1,0.97,1.17,83,9135,7.0,1.87,,6.6,1.055,88.0,,67.5,5,,,,,,,,,,,,0,0,0,0,0,0,0,0,0,0,0,0,0,0,0,0,,,,,0.0,,,,,,
3390105,0,,,,,,,,,,,,,,,,,,,,,,,,,,,,,,,,,,0,0,0,0,0,0,0,0,0,0,0,0,0,0,0,0,,,,,,,,,,,
3390125,0,0.0,182.63,,-0.12,0.24,0.9,-4,-0,2,0.94,1.17,81,9019,5.6,1.77,,6.35,1.073,88.0,,66.0,5,,,,,,,,,,,,0,0,0,0,0,0,0,0,0,0,0,0,0,0,0,0,,,,,0.0,,,,,,
3390145,0,,,,,,,,,,,,,,,,,,,,,,,0,0,0,0,0.0,0.0,0.0,0.0,2.26,,,0,0,0,0,0,0,0,0,0,0,0,0,0,0,0,0,0,,,,,0.0,0.0,0.0,0,0,0.0
3390165,0,0.0,182.63,,-0.11,0.26,0.94,-4,-0,2,0.98,1.17,84,8835,3.2,1.4,,6.06,1.082,95.2,,66.0,5,,,,,,,,,,,,0,0,0,0,0,0,0,0,0,0,0,0,0,0,0,0,,,,,0.0,,,,,,
3390185,0,,,,,,,,,,,,,,,,,,,,,,,,,,,,,,,,,,0,0,0,0,0,0,0,0,0,0,0,0,0,0,0,0,,,,,,,,,,,
3390205,0,0.0,182.5,,-0.12,0.14,0.95,-2,-0,1,0.96,1.17,83,8381,2.3,1.4,,5.8,1.093,95.2,,66.0,5,,,,,,,,,,,,0,0,0,0,0,0,0,0,0,0,0,0,0,0,0,0,,,,,0.0,,,,,,
3390225,0,,,,,,,,,,,,,,,,,,,,,,,,,,,,,,,,,,0,0,0,0,0,0,0,0,0,0,0,0,0,0,0,0,,,,,,,,,,,
3390245,0,0.0,182.63,,-0.15,0.18,0.94,-3,-0,1,0.97,1.17,83,7869,2.0,1.4,,5.8,1.093,95.2,,61.0,5,0,0,0,0,0.0,0.0,0.0,0.0,2.27,,,0,0,0,0,0,0,0,0,0,0,0,0,0,0,0,0,0,,,,0.0,0.0,0.0,0.0,0,0,0.0
3390265,0,,,,,,,,,,,,,,,,,,,,,,,,,,,,,,,,,,0,0,0,0,0,0,0,0,0,0,0,0,0,0,0,0,,,,,,,,,,,
3390285,0,0.0,182.63,,-0.18,-0.08,0.94,-0,-0,1,0.96,1.17,82,7869,2.0,1.4,,5.86,1.153,95.2,,61.0,5,,,,,,,,,,,,0,0,0,0,0,0,0,0,0,0,0,0,0,0,0,0,,,,,0.0,,,,,,
3390305,0,,,,,,,,,,,,,,,,,,,,,,,,,,,,,,,,,,0,0,0,0,0,0,0,0,0,0,0,0,0,0,0,0,,,,,,,,,,,
3390325,0,0.0,182.5,,-0.2,-0.03,0.97,-1,-0,1,0.99,1.17,85,7447,1.6,1.4,,5.91,1.248,95.2,,60.9,5,,,,,,,,,,,,0,0,0,0,0,0,0,0,0,0,0,0,0,0,0,0,,,,,0.0,,,,,,
3390345,0,,,,,,,,,,,,,,,,,,,,,,,0,0,0,0,0.0,0.0,0.0,0.0,2.27,,,0,0,0,0,0,0,0,0,0,0,0,0,0,0,0,0,0,,,,,0.0,0.0,0.0,0,0,0.0
3390365,0,0.0,182.5,,-0.18,-0.06,0.96,-0,-0,0,0.98,1.17,84,7033,1.6,1.4,,6.26,1.249,95.2,,60.9,5,,,,,,,,,,,,0,0,0,0,0,0,0,0,0,0,0,0,0,0,0,0,,,,,0.0,,,,,,
3390385,0,,,,,,,,,,,,,,,,,,,,,,,,,,,,,,,,,,0,0,0,0,0,0,0,0,0,0,0,0,0,0,0,0,,,,,,,,,,,
3390405,0,0.0,182.5,,-0.12,-0.01,1.01,-0,-0,1,1.02,1.17,87,6565,1.8,1.4,,6.75,1.251,95.2,,60.9,5,,,,,,,,,,,,0,0,0,0,0,0,0,0,0,0,0,0,0,0,0,0,,,,,0.0,,,,,,
3390425,0,,,,,,,,,,,,,,,,,,,,,,,,,,,,,,,,,,0,0,0,0,0,0,0,0,0,0,0,0,0,0,0,0,,,,,,,,,,,
3390445,0,0.0,182.5,,-0.19,0.07,1.01,-1,-0,1,1.03,1.17,88,6154,3.6,1.86,,6.75,1.251,95.2,,59.4,5,0,0,0,0,0.0,0.0,0.0,0.0,2.27,,,0,0,0,0,0,0,0,0,0,0,0,0,0,0,0,0,0,,,,0.0,0.0,0.0,0.0,0,0,0.0
3390465,0,,,,,,,,,,,,,,,,,,,,,,,,,,,,,,,,,,0,0,0,0,0,0,0,0,0,0,0,0,0,0,0,0,,,,,,,,,,,
3390485,0,0.0,182.5,,-0.25,0.2,1.05,-2,-0,2,1.1,1.17,94,6154,3.6,1.86,,7.41,1.251,95.2,,59.4,5,,,,,,,,,,,,0,0,0,0,0,0,0,0,0,0,0,0,0,0,0,0,,,,,0.0,,,,,,
3390505,0,,,,,,,,,,,,,,,,,,,,,,,,,,,,,,,,,,0,0,0,0,0,0,0,0,0,0,0,0,0,0,0,0,,,,,,,,,,,
3390525,0,0.0,182.63,,-0.16,0.13,1.07,-1,-0,1,1.09,1.17,94,5771,8.5,2.29,,8.46,1.25,95.2,,57.9,5,,,,,,,,,,,,0,0,0,0,0,0,0,0,0,0,0,0,0,0,0,0,,,,,0.0,,,,,,
3390545,0,,,,,,,,,,,,,,,,,,,,,,,0,0,0,0,0.0,0.0,0.0,0.0,2.26,,,0,0,0,0,0,0,0,0,0,0,0,0,0,0,0,0,0,,,,,0.0,0.0,0.0,0,0,0.0
3390565,0,0.0,182.63,,-0.18,0.16,1.08,-2,-0,1,1.11,1.17,95,5523,10.5,2.34,,9.56,1.25,95.2,,57.9,5,,,,,,,,,,,,0,0,0,0,0,0,0,0,0,0,0,0,0,0,0,0,,,,,0.0,,,,,,
3390585,0,,,,,,,,,,,,,,,,,,,,,,,,,,,,,,,,,,0,0,0,0,0,0,0,0,0,0,0,0,0,0,0,0,,,,,,,,,,,
3390605,0,0.0,182.63,,-0.18,0.14,1.07,-1,-0,1,1.09,1.17,93,5345,10.7,2.52,,10.46,1.251,95.2,,57.9,5,,,,,,,,,,,,0,0,0,0,0,0,0,0,0,0,0,0,0,0,0,0,,,,,0.0,,,,,,
3390625,0,,,,,,,,,,,,,,,,,,,,,,,,,,,,,,,,,,0,0,0,0,0,0,0,0,0,0,0,0,0,0,0,0,,,,,,,,,,,
3390645,0,0.0,182.76,,-0.15,0.13,1.06,-1,-0,1,1.08,1.17,93,5189,10.6,2.87,,10.46,1.251,95.2,,58.2,5,0,0,0,0,0.0,0.0,0.0,0.0,2.27,,,0,0,0,0,0,0,0,0,0,0,0,0,0,0,0,0,0,,,,0.0,0.0,0.0,0.0,0,0,0.0
3390665,0,,,,,,,,,,,,,,,,,,,,,,,,,,,,,,,,,,0,0,0,0,0,0,0,0,0,0,0,0,0,0,0,0,,,,,,,,,,,
3390685,0,0.0,182.76,,-0.13,0.04,1.03,-0,-0,1,1.04,1.17,89,5189,10.6,2.87,,11.01,1.25,95.2,,58.2,5,,,,,,,,,,,,0,0,0,0,0,0,0,0,0,0,0,0,0,0,0,0,,,,,0.0,,,,,,
3390705,0,,,,,,,,,,,,,,,,,,,,,,,,,,,,,,,,,,0,0,0,0,0,0,0,0,0,0,0,0,0,0,0,0,,,,,,,,,,,
3390725,0,0.0,182.76,,-0.13,0.06,1.01,-0,-0,1,1.02,1.17,88,5068,10.1,3.27,,11.34,1.235,95.2,,57.6,5,,,,,,,,,,,,0,0,0,0,0,0,0,0,0,0,0,0,0,0,0,0,,,,,0.0,,,,,,
3390745,0,,,,,,,,,,,,,,,,,,,,,,,0,0,0,0,0.0,0.0,0.0,0.0,2.27,,,0,0,0,0,0,0,0,0,0,0,0,0,0,0,0,0,0,,,,,0.0,0.0,0.0,0,0,0.0
3390765,0,0.0,182.76,,-0.12,0.06,1.01,-0,-0,1,1.02,1.17,87,5054,8.2,3.17,,11.61,1.127,95.2,,57.6,5,,,,,,,,,,,,0,0,0,0,0,0,0,0,0,0,0,0,0,0,0,0,,,,,0.0,,,,,,
3390785,0,,,,,,,,,,,,,,,,,,,,,,,,,,,,,,,,,,0,0,0,0,0,0,0,0,0,0,0,0,0,0,0,0,,,,,,,,,,,
3390805,0,0.0,182.76,,-0.11,0.08,1.04,-0,-0,1,1.05,1.17,90,5097,7.5,3.05,,11.57,1.12,95.2,,57.6,5,,,,,,,,,,,,0,0,0,0,0,0,0,0,0,0,0,0,0,0,0,0,,,,,0.0,,,,,,
3390825,0,,,,,,,,,,,,,,,,,,,,,,,,,,,,,,,,,,0,0,0,0,0,0,0,0,0,0,0,0,0,0,0,0,,,,,,,,,,,
3390845,0,0.0,182.88,13.9,-0.1,0.03,0.98,-0,-0,0,0.99,1.17,85,4966,7.5,3.0,15,11.57,1.12,95.2,180,58.7,5,0,0,0,0,0.0,0.0,0.0,0.0,2.27,0,1.0,0,0,0,0,0,0,0,0,0,0,0,0,0,0,0,0,0,0.0,0,-0,0.0,0.0,0.0,0.0,0,0,0.0
3390865,0,,,,,,,,,,,,,,,,,,,,,,,,,,,,,,,,,,0,0,0,0,0,0,0,0,0,0,0,0,0,0,0,0,,,,,,,,,,,
3390885,0,0.0,183.01,,-0.1,0.08,1.03,-0,-0,1,1.04,1.17,89,4966,7.5,3.0,,11.61,1.055,95.2,,58.7,5,,,,,,,,,,,,0,0,0,0,0,0,0,0,0,0,0,0,0,0,0,0,,,,,0.0,,,,,,
3390905,0,,,,,,,,,,,,,,,,,,,,,,,,,,,,,,,,,,0,0,0,0,0,0,0,0,0,0,0,0,0,0,0,0,,,,,,,,,,,
3390925,0,0.0,183.01,,-0.08,-0.03,0.98,0,-0,0,0.98,1.17,84,5387,7.4,3.04,,11.76,1.018,95.2,,57.0,5,,,,,,,,,,,,0,0,0,0,0,0,0,0,0,0,0,0,0,0,0,0,,,,,0.0,,,,,,
3390945,0,,,,,,,,,,,,,,,,,,,,,,,0,0,0,0,0.0,0.0,0.0,0.0,2.27,,,0,0,0,0,0,0,0,0,0,0,0,0,0,0,0,0,0,,,,,0.0,0.0,0.0,0,0,0.0
3390965,0,0.0,183.01,,-0.06,0.04,1.02,0,-0,0,1.02,1.17,87,4795,7.5,3.41,,11.71,1.045,95.2,,57.0,5,,,,,,,,,,,,0,0,0,0,0,0,0,0,0,0,0,0,0,0,0,0,,,,,0.0,,,,,,
3390985,0,,,,,,,,,,,,,,,,,,,,,,,,,,,,,,,,,,0,0,0,0,0,0,0,0,0,0,0,0,0,0,0,0,,,,,,,,,,,
3391005,0,0.0,183.13,,-0.08,0.18,1.1,-0,-0,1,1.12,1.17,96,4672,7.6,3.45,,11.79,1.035,95.2,,57.0,5,,,,,,,,,,,,0,0,0,0,0,0,0,0,0,0,0,0,0,0,0,0,,,,,0.0,,,,,,
3391025,0,,,,,,,,,,,,,,,,,,,,,,,,,,,,,,,,,,0,0,0,0,0,0,0,0,0,0,0,0,0,0,0,0,,,,,,,,,,,
3391045,0,0.0,183.13,,-0.09,0.28,1.17,-1,-0,1,1.21,1.21,100,4525,7.3,3.12,,11.79,1.035,95.2,,54.8,5,0,0,0,0,0.0,0.0,0.0,0.0,2.26,,,0,0,0,0,0,0,0,0,0,0,0,0,0,0,0,0,0,,,,0.0,0.0,0.0,0.0,0,0,0.0
3391065,0,,,,,,,,,,,,,,,,,,,,,,,,,,,,,,,,,,0,0,0,0,0,0,0,0,0,0,0,0,0,0,0,0,,,,,,,,,,,
3391085,0,0.0,183.13,,-0.11,0.38,1.24,-2,-0,2,1.3,1.3,100,4525,7.3,3.12,,11.92,1.087,95.2,,54.8,5,,,,,,,,,,,,0,0,0,0,0,0,0,0,0,0,0,0,0,0,0,0,,,,,0.0,,,,,,
3391105,0,,,,,,,,,,,,,,,,,,,,,,,,,,,,,,,,,,0,0,0,0,0,0,0,0,0,0,0,0,0,0,0,0,,,,,,,,,,,
3391125,0,0.0,183.13,,-0.14,0.42,1.25,-3,-0,2,1.33,1.33,100,4579,7.2,3.12,,11.91,1.043,95.2,,53.9,5,,,,,,,,,,,,0,0,0,0,0,0,0,0,0,0,0,0,0,0,0,0,,,,,0.0,,,,,,
3391145,0,,,,,,,,,,,,,,,,,,,,,,,0,0,0,0,0.0,0.0,0.0,0.0,2.28,,,0,0,0,0,0,0,0,0,0,0,0,0,0,0,0,0,0,,,,,0.0,0.0,0.0,0,0,0.0
3391165,0,0.0,183.13,,-0.14,0.29,1.19,-3,-0,2,1.23,1.33,93,4609,7.0,3.12,,12.05,1.039,95.2,,53.9,5,,,,,,,,,,,,0,0,0,0,0,0,0,0,0,0,0,0,0,0,0,0,,,,,0.0,,,,,,
3391185,0,,,,,,,,,,,,,,,,,,,,,,,,,,,,,,,,,,0,0,0,0,0,0,0,0,0,0,0,0,0,0,0,0,,,,,,,,,,,
3391205,0,0.0,183.26,,-0.12,0.28,1.17,-3,-0,2,1.21,1.33,91,4639,6.8,3.11,,12.05,1.039,95.2,,53.9,5,,,,,,,,,,,,0,0,0,0,0,0,0,0,0,0,0,0,0,0,0,0,,,,,0.0,,,,,,
3391225,0,,,,,,,,,,,,,,,,,,,,,,,,,,,,,,,,,,0,0,0,0,0,0,0,0,0,0,0,0,0,0,0,0,,,,,,,,,,,
3391245,0,0.0,183.26,,-0.1,0.18,1.08,-1,-0,1,1.1,1.33,83,4639,6.8,3.11,,11.99,0.997,95.2,,55.4,5,0,0,0,0,0.0,0.0,0.0,0.0,2.27,,,0,0,0,0,0,0,0,0,0,0,0,0,0,0,0,0,0,,,,0.0,0.0,0.0,0.0,0,0,0.0
3391265,0,,,,,,,,,,,,,,,,,,,,,,,,,,,,,,,,,,0,0,0,0,0,0,0,0,0,0,0,0,0,0,0,0,,,,,,,,,,,
3391285,0,0.0,183.26,,-0.07,0.24,1.13,-0,-0,1,1.15,1.33,87,4615,6.8,3.13,,11.96,0.989,95.2,,55.4,5,,,,,,,,,,,,0,0,0,0,0,0,0,0,0,0,0,0,0,0,0,0,,,,,0.0,,,,,,
3391305,0,,,,,,,,,,,,,,,,,,,,,,,,,,,,,,,,,,0,0,0,0,0,0,0,0,0,0,0,0,0,0,0,0,,,,,,,,,,,
3391325,0,0.0,183.26,,-0.05,0.39,1.2,-0,-0,1,1.26,1.33,95,4606,6.9,3.12,,12.09,1.006,95.2,,55.4,5,,,,,,,,,,,,0,0,0,0,0,0,0,0,0,0,0,0,0,0,0,0,,,,,0.0,,,,,,
3391345,0,,,,,,,,,,,,,,,,,,,,,,,0,0,0,0,0.0,0.0,0.0,0.0,2.27,,,0,0,0,0,0,0,0,0,0,0,0,0,0,0,0,0,0,,,,,0.0,0.0,0.0,0,0,0.0
3391365,0,0.0,183.26,,-0.06,0.46,1.24,-1,-0,1,1.32,1.33,100,4645,7.1,3.12,,12.07,1.034,95.2,,54.3,5,,,,,,,,,,,,0,0,0,0,0,0,0,0,0,0,0,0,0,0,0,0,,,,,0.0,,,,,,
3391385,0,,,,,,,,,,,,,,,,,,,,,,,,,,,,,,,,,,0,0,0,0,0,0,0,0,0,0,0,0,0,0,0,0,,,,,,,,,,,
3391405,0,0.0,183.38,,-0.08,0.35,1.19,-2,-0,2,1.24,1.33,93,4613,7.3,3.11,,12.07,1.034,95.2,,54.3,5,,,,,,,,,,,,0,0,0,0,0,0,0,0,0,0,0,0,0,0,0,0,,,,,0.0,,,,,,
3391425,0,,,,,,,,,,,,,,,,,,,,,,,,,,,,,,,,,,0,0,0,0,0,0,0,0,0,0,0,0,0,0,0,0,,,,,,,,,,,
3391445,0,0.0,183.38,,-0.07,0.16,1.09,-1,-0,1,1.1,1.33,83,4613,7.3,3.11,,12.03,1.046,95.2,,54.4,5,0,0,0,0,0.0,0.0,0.0,0.0,2.26,,,0,0,0,0,0,0,0,0,0,0,0,0,0,0,0,0,0,,,,0.0,0.0,0.0,0.0,0,0,0.0
3391465,0,,,,,,,,,,,,,,,,,,,,,,,,,,,,,,,,,,0,0,0,0,0,0,0,0,0,0,0,0,0,0,0,0,,,,,,,,,,,
3391485,0,0.0,183.51,,-0.05,0.13,1.07,-1,-0,1,1.08,1.33,81,4655,7.3,3.12,,12.11,1.026,95.2,,54.4,5,,,,,,,,,,,,0,0,0,0,0,0,0,0,0,0,0,0,0,0,0,0,,,,,0.0,,,,,,
3391505,0,,,,,,,,,,,,,,,,,,,,,,,,,,,,,,,,,,0,0,0,0,0,0,0,0,0,0,0,0,0,0,0,0,,,,,,,,,,,
3391525,0,0.0,183.51,,-0.06,0.22,1.12,-1,-0,1,1.15,1.33,86,4720,7.3,3.11,,12.09,1.012,95.2,,54.4,5,,,,,,,,,,,,0,0,0,0,0,0,0,0,0,0,0,0,0,0,0,0,,,,,0.0,,,,,,
3391545,0,,,,,,,,,,,,,,,,,,,,,,,0,0,0,0,0.0,0.0,0.0,0.0,2.27,,,0,0,0,0,0,0,0,0,0,0,0,0,0,0,0,0,0,,,,,0.0,0.0,0.0,0,0,0.0
3391565,0,0.0,183.51,,-0.06,0.12,1.05,-1,-0,1,1.06,1.33,80,4737,7.3,3.02,,12.08,0.998,95.2,,56.7,5,,,,,,,,,,,,0,0,0,0,0,0,0,0,0,0,0,0,0,0,0,0,,,,,0.0,,,,,,
3391585,0,,,,,,,,,,,,,,,,,,,,,,,,,,,,,,,,,,0,0,0,0,0,0,0,0,0,0,0,0,0,0,0,0,,,,,,,,,,,
3391605,0,0.0,183.51,,-0.04,0.13,1.06,-0,-0,0,1.07,1.33,81,4764,7.2,3.01,,11.99,0.998,95.2,,56.7,5,,,,,,,,,,,,0,0,0,0,0,0,0,0,0,0,0,0,0,0,0,0,,,,,0.0,,,,,,
3391625,0,,,,,,,,,,,,,,,,,,,,,,,,,,,,,,,,,,0,0,0,0,0,0,0,0,0,0,0,0,0,0,0,0,,,,,,,,,,,
3391645,0,0.0,183.63,,-0.06,0.21,1.11,-0,-0,1,1.13,1.33,85,4736,7.2,3.01,,11.99,0.985,95.2,,56.7,5,0,0,0,0,0.0,0.0,0.0,0.0,2.27,,,0,0,0,0,0,0,0,0,0,0,0,0,0,0,0,0,0,,,,0.0,0.0,0.0,0.0,0,0,0.0
3391665,0,,,,,,,,,,,,,,,,,,,,,,,,,,,,,,,,,,0,0,0,0,0,0,0,0,0,0,0,0,0,0,0,0,,,,,,,,,,,
3391685,0,0.0,183.63,,-0.07,0.09,1.04,-1,-0,1,1.05,1.33,79,4736,7.0,3.02,,12.01,1.013,95.2,,56.7,5,,,,,,,,,,,,0,0,0,0,0,0,0,0,0,0,0,0,0,0,0,0,,,,,0.0,,,,,,
3391705,0,,,,,,,,,,,,,,,,,,,,,,,,,,,,,,,,,,0,0,0,0,0,0,0,0,0,0,0,0,0,0,0,0,,,,,,,,,,,
3391725,0,0.0,183.63,,-0.05,-0.08,0.97,0,-0,0,0.98,1.33,74,4722,6.8,3.04,,12.07,1.03,95.2,,56.7,5,,,,,,,,,,,,0,0,0,0,0,0,0,0,0,0,0,0,0,0,0,0,,,,,0.0,,,,,,
3391745,0,,,,,,,,,,,,,,,,,,,,,,,0,0,0,0,0.0,0.0,0.0,0.0,2.27,,,0,0,0,0,0,0,0,0,0,0,0,0,0,0,0,0,0,,,,,0.0,0.0,0.0,0,0,0.0
3391765,0,0.0,183.63,,-0.02,-0.03,0.99,0,-0,0,0.99,1.33,75,4684,6.7,3.05,,12.04,1.037,95.2,,55.7,5,,,,,,,,,,,,0,0,0,0,0,0,0,0,0,0,0,0,0,0,0,0,,,,,0.0,,,,,,
3391785,0,,,,,,,,,,,,,,,,,,,,,,,,,,,,,,,,,,0,0,0,0,0,0,0,0,0,0,0,0,0,0,0,0,,,,,,,,,,,
3391805,0,0.0,183.51,,-0.03,0.11,1.07,-1,-0,1,1.07,1.33,81,4698,6.8,3.06,,12.04,1.037,95.2,,55.7,5,,,,,,,,,,,,0,0,0,0,0,0,0,0,0,0,0,0,0,0,0,0,,,,,0.0,,,,,,
3391825,0,,,,,,,,,,,,,,,,,,,,,,,,,,,,,,,,,,0,0,0,0,0,0,0,0,0,0,0,0,0,0,0,0,,,,,,,,,,,
3391845,0,0.0,183.63,13.93,-0.05,0.07,1.03,-1,-0,1,1.03,1.33,78,4698,6.8,3.06,15,12.0,1.029,95.2,178,55.4,5,0,0,0,0,0.0,0.0,0.0,0.0,2.27,0,1.0,0,0,0,0,0,0,0,0,0,0,0,0,0,0,0,0,0,0.0,0,-0,0.0,0.0,0.0,0.0,0,0,0.0
3391865,0,,,,,,,,,,,,,,,,,,,,,,,,,,,,,,,,,,0,0,0,0,0,0,0,0,0,0,0,0,0,0,0,0,,,,,,,,,,,
3391885,0,0.0,183.63,,-0.04,-0.07,0.93,0,-0,0,0.94,1.33,71,4659,7.2,3.05,,12.03,1.039,95.2,,55.4,5,,,,,,,,,,,,0,0,0,0,0,0,0,0,0,0,0,0,0,0,0,0,,,,,0.0,,,,,,
3391905,0,,,,,,,,,,,,,,,,,,,,,,,,,,,,,,,,,,0,0,0,0,0,0,0,0,0,0,0,0,0,0,0,0,,,,,,,,,,,
3391925,0,0.0,183.63,,-0.03,-0.06,0.96,1,-0,-0,0.96,1.33,73,4653,7.2,3.05,,11.99,1.025,95.2,,55.4,5,,,,,,,,,,,,0,0,0,0,0,0,0,0,0,0,0,0,0,0,0,0,,,,,0.0,,,,,,
3391945,0,,,,,,,,,,,,,,,,,,,,,,,0,0,0,0,0.0,0.0,0.0,0.0,2.27,,,0,0,0,0,0,0,0,0,0,0,0,0,0,0,0,0,0,,,,,0.0,0.0,0.0,0,0,0.0
3391965,0,0.0,183.63,,-0.04,0.07,1.02,-0,-0,0,1.03,1.33,77,4714,7.2,3.05,,12.04,1.027,95.2,,55.7,5,,,,,,,,,,,,0,0,0,0,0,0,0,0,0,0,0,0,0,0,0,0,,,,,0.0,,,,,,
3391985,0,,,,,,,,,,,,,,,,,,,,,,,,,,,,,,,,,,0,0,0,0,0,0,0,0,0,0,0,0,0,0,0,0,,,,,,,,,,,
3392005,0,0.0,183.63,,-0.04,-0.01,0.96,0,-0,0,0.96,1.33,73,4714,7.2,3.05,,12.04,1.027,95.2,,55.7,5,,,,,,,,,,,,0,0,0,0,0,0,0,0,0,0,0,0,0,0,0,0,,,,,0.0,,,,,,
3392025,0,,,,,,,,,,,,,,,,,,,,,,,,,,,,,,,,,,0,0,0,0,0,0,0,0,0,0,0,0,0,0,0,0,,,,,,,,,,,
3392045,0,0.0,183.63,,-0.02,-0.05,0.95,1,-0,-0,0.95,1.33,71,4764,7.2,3.03,,11.99,1.011,95.2,,56.1,5,0,0,0,0,0.0,0.0,0.0,0.0,2.27,,,0,0,0,0,0,0,0,0,0,0,0,0,0,0,0,0,0,,,,0.0,0.0,0.0,0.0,0,0,0.0
3392065,0,,,,,,,,,,,,,,,,,,,,,,,,,,,,,,,,,,0,0,0,0,0,0,0,0,0,0,0,0,0,0,0,0,,,,,,,,,,,
3392085,0,0.0,183.63,,-0.02,0.1,1.05,0,-0,0,1.06,1.33,80,4650,6.7,3.03,,12.04,0.994,95.2,,56.1,5,,,,,,,,,,,,0,0,0,0,0,0,0,0,0,0,0,0,0,0,0,0,,,,,0.0,,,,,,
3392105,0,,,,,,,,,,,,,,,,,,,,,,,,,,,,,,,,,,0,0,0,0,0,0,0,0,0,0,0,0,0,0,0,0,,,,,,,,,,,
3392125,0,0.0,183.63,,-0.04,0.17,1.1,-1,-0,1,1.11,1.33,84,4681,6.9,3.03,,12.03,1.026,95.2,,56.1,5,,,,,,,,,,,,0,0,0,0,0,0,0,0,0,0,0,0,0,0,0,0,,,,,0.0,,,,,,
3392145,0,,,,,,,,,,,,,,,,,,,,,,,0,0,0,0,0.0,0.0,0.0,0.0,2.27,,,0,0,0,0,0,0,0,0,0,0,0,0,0,0,0,0,0,,,,,0.0,0.0,0.0,0,0,0.0
3392165,0,0.0,183.76,,-0.06,0.02,1.03,-1,-0,1,1.03,1.33,78,4664,7.1,3.02,,12.03,1.026,95.2,,55.6,5,,,,,,,,,,,,0,0,0,0,0,0,0,0,0,0,0,0,0,0,0,0,,,,,0.0,,,,,,
3392185,0,,,,,,,,,,,,,,,,,,,,,,,,,,,,,,,,,,0,0,0,0,0,0,0,0,0,0,0,0,0,0,0,0,,,,,,,,,,,
3392205,0,0.0,183.76,,-0.06,0.02,1.0,-1,-0,0,1.0,1.33,75,4664,7.1,3.02,,11.99,1.041,95.2,,55.6,5,,,,,,,,,,,,0,0,0,0,0,0,0,0,0,0,0,0,0,0,0,0,,,,,0.0,,,,,,
3392225,0,,,,,,,,,,,,,,,,,,,,,,,,,,,,,,,,,,0,0,0,0,0,0,0,0,0,0,0,0,0,0,0,0,,,,,,,,,,,
3392245,0,0.0,183.76,,-0.05,0.05,1.03,0,-0,0,1.03,1.33,78,4659,7.2,3.02,,12.07,1.035,95.2,,55.8,5,0,0,0,0,0.0,0.0,0.0,0.0,2.26,,,0,0,0,0,0,0,0,0,0,0,0,0,0,0,0,0,0,,,,0.0,0.0,0.0,0.0,0,0,0.0
3392265,0,,,,,,,,,,,,,,,,,,,,,,,,,,,,,,,,,,0,0,0,0,0,0,0,0,0,0,0,0,0,0,0,0,,,,,,,,,,,
3392285,0,0.0,183.89,,-0.07,0.17,1.1,-0,-0,1,1.11,1.33,84,4671,7.2,3.02,,12.04,1.012,95.2,,55.8,5,,,,,,,,,,,,0,0,0,0,0,0,0,0,0,0,0,0,0,0,0,0,,,,,0.0,,,,,,
3392305,0,,,,,,,,,,,,,,,,,,,,,,,,,,,,,,,,,,0,0,0,0,0,0,0,0,0,0,0,0,0,0,0,0,,,,,,,,,,,
3392325,0,0.0,183.89,,-0.07,0.08,1.05,-1,-0,1,1.06,1.33,80,4719,7.2,3.02,,12.04,0.994,95.2,,55.8,5,,,,,,,,,,,,0,0,0,0,0,0,0,0,0,0,0,0,0,0,0,0,,,,,0.0,,,,,,
3392345,0,,,,,,,,,,,,,,,,,,,,,,,0,0,0,0,0.0,0.0,0.0,0.0,2.27,,,0,0,0,0,0,0,0,0,0,0,0,0,0,0,0,0,0,,,,,0.0,0.0,0.0,0,0,0.0
3392365,0,0.0,183.89,,-0.04,-0.03,0.99,-0,-0,0,0.99,1.33,75,4719,7.2,3.02,,12.04,0.994,95.2,,55.8,5,,,,,,,,,,,,0,0,0,0,0,0,0,0,0,0,0,0,0,0,0,0,,,,,0.0,,,,,,
3392385,0,,,,,,,,,,,,,,,,,,,,,,,,,,,,,,,,,,0,0,0,0,0,0,0,0,0,0,0,0,0,0,0,0,,,,,,,,,,,
3392405,0,0.0,183.76,,-0.05,0.07,1.07,-0,-0,1,1.07,1.33,81,4721,7.0,3.02,,11.96,0.994,95.2,,55.8,5,,,,,,,,,,,,0,0,0,0,0,0,0,0,0,0,0,0,0,0,0,0,,,,,0.0,,,,,,
3392425,0,,,,,,,,,,,,,,,,,,,,,,,,,,,,,,,,,,0,0,0,0,0,0,0,0,0,0,0,0,0,0,0,0,,,,,,,,,,,
3392445,0,0.0,183.89,,-0.05,0.03,1.03,-1,-0,1,1.03,1.33,78,4737,6.8,3.02,,11.99,1.003,95.2,,55.8,5,0,0,0,0,0.0,0.0,0.0,0.0,2.27,,,0,0,0,0,0,0,0,0,0,0,0,0,0,0,0,0,0,,,,0.0,0.0,0.0,0.0,0,0,0.0
3392465,0,,,,,,,,,,,,,,,,,,,,,,,,,,,,,,,,,,0,0,0,0,0,0,0,0,0,0,0,0,0,0,0,0,,,,,,,,,,,
3392485,0,0.0,183.76,,-0.04,-0.03,1.0,0,-0,0,1.0,1.33,75,4773,6.4,3.03,,12.03,0.992,95.2,,57.1,5,,,,,,,,,,,,0,0,0,0,0,0,0,0,0,0,0,0,0,0,0,0,,,,,0.0,,,,,,
3392505,0,,,,,,,,,,,,,,,,,,,,,,,,,,,,,,,,,,0,0,0,0,0,0,0,0,0,0,0,0,0,0,0,0,,,,,,,,,,,
3392525,0,0.0,183.89,,-0.04,0.08,1.03,-1,-0,1,1.04,1.33,78,4823,6.6,3.03,,12.03,0.992,95.2,,57.1,5,,,,,,,,,,,,0,0,0,0,0,0,0,0,0,0,0,0,0,0,0,0,,,,,0.0,,,,,,
3392545,0,,,,,,,,,,,,,,,,,,,,,,,0,0,0,0,0.0,0.0,0.0,0.0,2.28,,,0,0,0,0,0,0,0,0,0,0,0,0,0,0,0,0,0,,,,,0.0,0.0,0.0,0,0,0.0
3392565,0,0.0,183.89,,-0.03,-0.0,0.99,-0,-0,0,0.99,1.33,74,4823,6.6,3.03,,12.0,0.991,95.2,,57.9,5,,,,,,,,,,,,0,0,0,0,0,0,0,0,0,0,0,0,0,0,0,0,,,,,0.0,,,,,,
3392585,0,,,,,,,,,,,,,,,,,,,,,,,,,,,,,,,,,,0,0,0,0,0,0,0,0,0,0,0,0,0,0,0,0,,,,,,,,,,,
3392605,0,0.0,183.89,,-0.05,0.08,1.06,-1,-0,1,1.06,1.33,80,4837,6.7,2.93,,11.95,0.989,95.2,,57.9,5,,,,,,,,,,,,0,0,0,0,0,0,0,0,0,0,0,0,0,0,0,0,,,,,0.0,,,,,,
3392625,0,,,,,,,,,,,,,,,,,,,,,,,,,,,,,,,,,,0,0,0,0,0,0,0,0,0,0,0,0,0,0,0,0,,,,,,,,,,,
3392645,0,0.0,183.89,,-0.05,-0.02,0.99,-0,-0,0,0.99,1.33,75,4822,6.6,2.93,,11.96,1.001,95.2,,57.9,5,0,0,0,0,0.0,0.0,0.0,0.0,2.26,,,0,0,0,0,0,0,0,0,0,0,0,0,0,0,0,0,0,,,,0.0,0.0,0.0,0.0,0,0,0.0
3392665,0,,,,,,,,,,,,,,,,,,,,,,,,,,,,,,,,,,0,0,0,0,0,0,0,0,0,0,0,0,0,0,0,0,,,,,,,,,,,
3392685,0,0.0,183.76,,-0.05,0.05,1.05,-0,-0,1,1.05,1.33,79,4880,6.6,2.93,,11.88,1.003,95.2,,57.9,5,,,,,,,,,,,,0,0,0,0,0,0,0,0,0,0,0,0,0,0,0,0,,,,,0.0,,,,,,
3392705,0,,,,,,,,,,,,,,,,,,,,,,,,,,,,,,,,,,0,0,0,0,0,0,0,0,0,0,0,0,0,0,0,0,,,,,,,,,,,
3392725,0,0.0,183.89,,-0.03,-0.01,1.0,-0,-0,0,1.0,1.33,75,4928,6.4,2.91,,11.88,1.003,95.2,,57.9,5,,,,,,,,,,,,0,0,0,0,0,0,0,0,0,0,0,0,0,0,0,0,,,,,0.0,,,,,,
3392745,0,,,,,,,,,,,,,,,,,,,,,,,0,0,0,0,0.0,0.0,0.0,0.0,2.26,,,0,0,0,0,0,0,0,0,0,0,0,0,0,0,0,0,0,,,,,0.0,0.0,0.0,0,0,0.0
3392765,0,0.0,183.89,,-0.05,0.05,1.02,-1,-0,1,1.02,1.33,77,4928,6.4,2.91,,11.88,0.997,95.2,,59.0,5,,,,,,,,,,,,0,0,0,0,0,0,0,0,0,0,0,0,0,0,0,0,,,,,0.0,,,,,,
3392785,0,,,,,,,,,,,,,,,,,,,,,,,,,,,,,,,,,,0,0,0,0,0,0,0,0,0,0,0,0,0,0,0,0,,,,,,,,,,,
3392805,0,0.0,183.76,,-0.04,-0.03,0.98,-0,-0,0,0.98,1.33,74,4905,6.4,2.91,,11.76,0.994,95.2,,59.0,5,,,,,,,,,,,,0,0,0,0,0,0,0,0,0,0,0,0,0,0,0,0,,,,,0.0,,,,,,
3392825,0,,,,,,,,,,,,,,,,,,,,,,,,,,,,,,,,,,0,0,0,0,0,0,0,0,0,0,0,0,0,0,0,0,,,,,,,,,,,
3392845,0,0.0,183.76,13.95,-0.05,0.05,1.0,-1,-0,1,1.01,1.33,76,4881,6.1,2.88,15,11.84,0.997,95.2,178,59.0,5,0,0,0,0,0.0,0.0,0.0,0.0,2.27,0,1.0,0,0,0,0,0,0,0,0,0,0,0,0,0,0,0,0,0,0.0,0,-0,0.0,0.0,0.0,0.0,0,0,0.0
3392865,0,,,,,,,,,,,,,,,,,,,,,,,,,,,,,,,,,,0,0,0,0,0,0,0,0,0,0,0,0,0,0,0,0,,,,,,,,,,,
3392885,0,0.0,183.89,,-0.03,0.05,1.01,-0,-0,0,1.02,1.33,77,4956,6.0,2.87,,11.84,0.987,95.2,,58.6,5,,,,,,,,,,,,0,0,0,0,0,0,0,0,0,0,0,0,0,0,0,0,,,,,0.0,,,,,,
3392905,0,,,,,,,,,,,,,,,,,,,,,,,,,,,,,,,,,,0,0,0,0,0,0,0,0,0,0,0,0,0,0,0,0,,,,,,,,,,,
3392925,0,0.0,183.89,,-0.05,0.04,1.01,-1,-0,1,1.01,1.33,76,4875,5.9,2.92,,11.84,0.987,95.2,,58.6,5,,,,,,,,,,,,0,0,0,0,0,0,0,0,0,0,0,0,0,0,0,0,,,,,0.0,,,,,,
3392945,0,,,,,,,,,,,,,,,,,,,,,,,0,0,0,0,0.0,0.0,0.0,0.0,2.28,,,0,0,0,0,0,0,0,0,0,0,0,0,0,0,0,0,0,,,,,0.0,0.0,0.0,0,0,0.0
3392965,0,0.0,183.89,,-0.04,0.02,1.0,-0,-0,0,1.01,1.33,76,4875,5.9,2.92,,11.77,0.982,95.2,,57.6,5,,,,,,,,,,,,0,0,0,0,0,0,0,0,0,0,0,0,0,0,0,0,,,,,0.0,,,,,,
3392985,0,,,,,,,,,,,,,,,,,,,,,,,,,,,,,,,,,,0,0,0,0,0,0,0,0,0,0,0,0,0,0,0,0,,,,,,,,,,,
3393005,0,0.0,183.89,,-0.06,0.0,0.99,-1,-0,1,0.99,1.33,75,4895,6.0,2.92,,11.83,0.989,95.2,,57.6,5,,,,,,,,,,,,0,0,0,0,0,0,0,0,0,0,0,0,0,0,0,0,,,,,0.0,,,,,,
3393025,0,,,,,,,,,,,,,,,,,,,,,,,,,,,,,,,,,,0,0,0,0,0,0,0,0,0,0,0,0,0,0,0,0,,,,,,,,,,,
3393045,0,0.0,184.01,,-0.04,-0.05,0.99,-0,-0,0,0.99,1.33,75,4858,9.9,2.98,,12.0,0.984,95.2,,57.6,5,0,0,0,0,0.0,0.0,0.0,0.0,2.28,,,0,0,0,0,0,0,0,0,0,0,0,0,0,0,0,0,0,,,,0.0,0.0,0.0,0.0,0,0,0.0
3393065,0,,,,,,,,,,,,,,,,,,,,,,,,,,,,,,,,,,0,0,0,0,0,0,0,0,0,0,0,0,0,0,0,0,,,,,,,,,,,
3393085,0,0.0,183.89,,-0.06,-0.03,0.98,-1,-0,1,0.99,1.33,74,4842,29.7,4.84,,13.35,0.989,95.2,,57.1,5,,,,,,,,,,,,0,0,0,0,0,0,0,0,0,0,0,0,0,0,0,0,,,,,0.0,,,,,,
3393105,0,,,,,,,,,,,,,,,,,,,,,,,,,,,,,,,,,,0,0,0,0,0,0,0,0,0,0,0,0,0,0,0,0,,,,,,,,,,,
3393125,0,0.0,183.89,,-0.06,-0.05,0.99,-1,-0,0,0.99,1.33,75,5104,43.8,5.1,,13.35,0.989,95.2,,57.1,5,,,,,,,,,,,,0,0,0,0,0,0,0,0,0,0,0,0,0,0,0,0,,,,,0.0,,,,,,
3393145,0,,,,,,,,,,,,,,,,,,,,,,,0,0,0,0,0.0,0.0,0.0,0.0,2.27,,,0,0,0,0,0,0,0,0,0,0,0,0,0,0,0,0,0,,,,,0.0,0.0,0.0,0,0,0.0
3393165,0,0.0,184.01,,-0.06,-0.11,0.92,-1,-0,0,0.93,1.33,70,5104,43.8,5.1,,14.27,0.998,95.2,,61.1,5,,,,,,,,,,,,0,0,0,0,0,0,0,0,0,0,0,0,0,0,0,0,,,,,0.0,,,,,,
3393185,0,,,,,,,,,,,,,,,,,,,,,,,,,,,,,,,,,,0,0,0,0,0,0,0,0,0,0,0,0,0,0,0,0,,,,,,,,,,,
3393205,0,0.0,183.89,,-0.04,-0.08,0.89,-1,-0,1,0.89,1.33,67,5745,52.0,5.43,,14.12,1.037,95.2,,61.1,5,,,,,,,,,,,,0,0,0,0,0,0,0,0,0,0,0,0,0,0,0,0,,,,,0.0,,,,,,
3393225,0,,,,,,,,,,,,,,,,,,,,,,,,,,,,,,,,,,0,0,0,0,0,0,0,0,0,0,0,0,0,0,0,0,,,,,,,,,,,
3393245,0,0.0,183.89,,-0.05,-0.24,0.87,-2,-0,1,0.9,1.33,68,6933,48.2,5.12,,13.79,1.019,95.2,,61.1,5,0,0,0,0,0.0,0.0,0.0,0.0,2.27,,,0,0,0,0,0,0,0,0,0,0,0,0,0,0,0,0,0,,,,0.0,0.0,0.0,0.0,0,0,0.0
3393265,0,,,,,,,,,,,,,,,,,,,,,,,,,,,,,,,,,,0,0,0,0,0,0,0,0,0,0,0,0,0,0,0,0,,,,,,,,,,,
3393285,0,0.0,183.89,,-0.07,-0.15,0.86,-2,-0,1,0.88,1.33,66,8225,13.2,4.71,,13.79,1.019,95.2,,67.6,5,,,,,,,,,,,,0,0,0,0,0,0,0,0,0,0,0,0,0,0,0,0,,,,,0.0,,,,,,
3393305,0,,,,,,,,,,,,,,,,,,,,,,,,,,,,,,,,,,0,0,0,0,0,0,0,0,0,0,0,0,0,0,0,0,,,,,,,,,,,
3393325,0,0.0,183.89,,-0.08,0.01,0.82,-1,-0,0,0.83,1.33,62,8225,13.2,4.71,,12.07,1.0,95.2,,67.6,5,,,,,,,,,,,,0,0,0,0,0,0,0,0,0,0,0,0,0,0,0,0,,,,,0.0,,,,,,
3393345,0,,,,,,,,,,,,,,,,,,,,,,,0,0,0,0,0.0,0.0,0.0,0.0,2.27,,,0,0,0,0,0,0,0,0,0,0,0,0,0,0,0,0,0,,,,,0.0,0.0,0.0,0,0,0.0
3393365,0,0.0,183.89,,-0.1,-0.1,0.79,-2,-0,1,0.8,1.33,61,9259,0.0,1.4,,9.33,0.93,95.2,,69.3,5,,,,,,,,,,,,0,0,0,0,0,0,0,0,0,0,0,0,0,0,0,0,,,,,0.0,,,,,,
3393385,0,,,,,,,,,,,,,,,,,,,,,,,,,,,,,,,,,,0,0,0,0,0,0,0,0,0,0,0,0,0,0,0,0,,,,,,,,,,,
3393405,0,0.0,183.89,,-0.06,-0.17,0.88,-2,-0,0,0.89,1.33,67,9170,0.0,1.4,,7.54,0.815,95.2,,69.3,5,,,,,,,,,,,,0,0,0,0,0,0,0,0,0,0,0,0,0,0,0,0,,,,,0.0,,,,,,
3393425,0,,,,,,,,,,,,,,,,,,,,,,,,,,,,,,,,,,0,0,0,0,0,0,0,0,0,0,0,0,0,0,0,0,,,,,,,,,,,
3393445,0,0.0,183.89,,-0.08,-0.12,0.84,-2,-0,0,0.86,1.33,65,8734,0.0,1.4,,6.54,0.91,95.2,,69.3,5,0,0,0,0,0.0,0.0,0.0,0.0,2.28,,,0,0,0,0,0,0,0,0,0,0,0,0,0,0,0,0,0,,,,0.0,0.0,0.0,0.0,0,0,0.0
3393465,0,,,,,,,,,,,,,,,,,,,,,,,,,,,,,,,,,,0,0,0,0,0,0,0,0,0,0,0,0,0,0,0,0,,,,,,,,,,,
3393485,0,0.0,183.76,,-0.11,-0.2,0.87,-1,-0,-0,0.9,1.33,68,8566,0.0,1.4,,6.2,1.241,95.2,,64.1,5,,,,,,,,,,,,0,0,0,0,0,0,0,0,0,0,0,0,0,0,0,0,,,,,0.0,,,,,,
3393505,0,,,,,,,,,,,,,,,,,,,,,,,,,,,,,,,,,,0,0,0,0,0,0,0,0,0,0,0,0,0,0,0,0,,,,,,,,,,,
3393525,0,0.0,183.76,,-0.07,-0.11,0.9,-1,-0,0,0.91,1.33,69,8397,0.0,1.4,,6.2,1.241,95.2,,64.1,5,,,,,,,,,,,,0,0,0,0,0,0,0,0,0,0,0,0,0,0,0,0,,,,,0.0,,,,,,
3393545,0,,,,,,,,,,,,,,,,,,,,,,,0,0,0,0,0.0,0.0,0.0,0.0,2.27,,,0,0,0,0,0,0,0,0,0,0,0,0,0,0,0,0,0,,,,,0.0,0.0,0.0,0,0,0.0
3393565,0,0.0,183.76,,-0.08,-0.09,0.91,-1,-0,0,0.92,1.33,69,8397,0.0,1.4,,6.11,1.252,95.2,,62.1,5,,,,,,,,,,,,0,0,0,0,0,0,0,0,0,0,0,0,0,0,0,0,,,,,0.0,,,,,,
3393585,0,,,,,,,,,,,,,,,,,,,,,,,,,,,,,,,,,,0,0,0,0,0,0,0,0,0,0,0,0,0,0,0,0,,,,,,,,,,,
3393605,0,0.0,183.76,,-0.07,-0.15,0.94,-0,-0,0,0.95,1.33,72,8178,0.0,1.4,,5.91,1.239,95.2,,62.1,5,,,,,,,,,,,,0,0,0,0,0,0,0,0,0,0,0,0,0,0,0,0,,,,,0.0,,,,,,
3393625,0,,,,,,,,,,,,,,,,,,,,,,,,,,,,,,,,,,0,0,0,0,0,0,0,0,0,0,0,0,0,0,0,0,,,,,,,,,,,
3393645,0,0.0,183.76,,-0.09,-0.04,0.96,-1,-0,0,0.96,1.33,73,7964,0.0,1.4,,5.91,1.132,95.2,,62.1,5,0,0,0,0,0.0,0.0,0.0,0.0,2.26,,,0,0,0,0,0,0,0,0,0,0,0,0,0,0,0,0,0,,,,0.0,0.0,0.0,0.0,0,0,0.0
3393665,0,,,,,,,,,,,,,,,,,,,,,,,,,,,,,,,,,,0,0,0,0,0,0,0,0,0,0,0,0,0,0,0,0,,,,,,,,,,,
3393685,0,0.0,183.63,,-0.1,-0.17,0.93,-0,-0,0,0.95,1.33,72,7679,0.0,1.4,,5.83,1.097,95.2,,60.0,5,,,,,,,,,,,,0,0,0,0,0,0,0,0,0,0,0,0,0,0,0,0,,,,,0.0,,,,,,
3393705,0,,,,,,,,,,,,,,,,,,,,,,,,,,,,,,,,,,0,0,0,0,0,0,0,0,0,0,0,0,0,0,0,0,,,,,,,,,,,
3393725,0,0.0,183.63,,-0.13,-0.33,0.91,2,-0,-0,0.97,1.33,73,7369,0.0,1.4,,5.83,1.097,95.2,,60.0,5,,,,,,,,,,,,0,0,0,0,0,0,0,0,0,0,0,0,0,0,0,0,,,,,0.0,,,,,,
3393745,0,,,,,,,,,,,,,,,,,,,,,,,0,0,0,0,0.0,0.0,0.0,0.0,2.26,,,0,0,0,0,0,0,0,0,0,0,0,0,0,0,0,0,0,,,,,0.0,0.0,0.0,0,0,0.0
3393765,0,0.0,183.63,,-0.13,-0.26,0.94,0,-0,-0,0.98,1.33,74,7369,0.0,1.4,,5.88,1.091,95.2,,60.5,5,,,,,,,,,,,,0,0,0,0,0,0,0,0,0,0,0,0,0,0,0,0,,,,,0.0,,,,,,
3393785,0,,,,,,,,,,,,,,,,,,,,,,,,,,,,,,,,,,0,0,0,0,0,0,0,0,0,0,0,0,0,0,0,0,,,,,,,,,,,
3393805,0,0.0,183.63,,-0.15,-0.26,0.95,1,-0,-0,1.0,1.33,75,7019,0.0,1.4,,6.07,1.135,95.2,,60.5,5,,,,,,,,,,,,0,0,0,0,0,0,0,0,0,0,0,0,0,0,0,0,,,,,0.0,,,,,,
3393825,0,,,,,,,,,,,,,,,,,,,,,,,,,,,,,,,,,,0,0,0,0,0,0,0,0,0,0,0,0,0,0,0,0,,,,,,,,,,,
3393845,0,0.0,183.63,13.94,-0.12,-0.23,0.99,1,-0,-0,1.02,1.33,77,6642,0.0,1.4,15,6.39,1.182,95.2,180,60.5,5,0,0,0,0,0.0,0.0,0.0,0.0,2.27,0,1.0,0,0,0,0,0,0,0,0,0,0,0,0,0,0,0,0,0,0.0,0,-0,0.0,0.0,0.0,0.0,0,0,0.0
3393865,0,,,,,,,,,,,,,,,,,,,,,,,,,,,,,,,,,,0,0,0,0,0,0,0,0,0,0,0,0,0,0,0,0,,,,,,,,,,,
3393885,0,0.0,183.51,,-0.12,-0.11,0.92,1,-0,-0,0.93,1.33,70,6288,5.5,2.11,,7.25,1.243,95.2,,58.9,5,,,,,,,,,,,,0,0,0,0,0,0,0,0,0,0,0,0,0,0,0,0,,,,,0.0,,,,,,
3393905,0,,,,,,,,,,,,,,,,,,,,,,,,,,,,,,,,,,0,0,0,0,0,0,0,0,0,0,0,0,0,0,0,0,,,,,,,,,,,
3393925,0,0.0,183.51,,-0.1,-0.12,0.8,0,-0,-0,0.82,1.33,62,5931,33.7,3.38,,7.25,1.243,95.2,,58.9,5,,,,,,,,,,,,0,0,0,0,0,0,0,0,0,0,0,0,0,0,0,0,,,,,0.0,,,,,,
3393945,0,,,,,,,,,,,,,,,,,,,,,,,0,0,0,0,0.0,0.0,0.0,0.0,2.28,,,0,0,0,0,0,0,0,0,0,0,0,0,0,0,0,0,0,,,,,0.0,0.0,0.0,0,0,0.0
3393965,0,0.0,183.63,,-0.12,-0.03,0.73,-1,-0,0,0.74,1.33,56,5931,33.7,3.38,,10.76,1.25,95.2,,57.0,5,,,,,,,,,,,,0,0,0,0,0,0,0,0,0,0,0,0,0,0,0,0,,,,,0.0,,,,,,
3393985,0,,,,,,,,,,,,,,,,,,,,,,,,,,,,,,,,,,0,0,0,0,0,0,0,0,0,0,0,0,0,0,0,0,,,,,,,,,,,
3394005,0,0.0,183.63,,-0.13,0.12,0.73,-1,-0,0,0.75,1.33,57,5834,54.5,5.57,,13.92,1.251,95.2,,57.0,5,,,,,,,,,,,,0,0,0,0,0,0,0,0,0,0,0,0,0,0,0,0,,,,,0.0,,,,,,
3394025,0,,,,,,,,,,,,,,,,,,,,,,,,,,,,,,,,,,0,0,0,0,0,0,0,0,0,0,0,0,0,0,0,0,,,,,,,,,,,
3394045,0,0.0,183.63,,-0.13,0.11,0.73,-1,-0,0,0.75,1.33,57,6542,60.0,5.22,,14.18,1.251,95.2,,57.0,5,0,0,0,0,0.0,0.0,0.0,0.0,2.27,,,0,0,0,0,0,0,0,0,0,0,0,0,0,0,0,0,0,,,,0.0,0.0,0.0,0.0,0,0,0.0
3394065,0,,,,,,,,,,,,,,,,,,,,,,,,,,,,,,,,,,0,0,0,0,0,0,0,0,0,0,0,0,0,0,0,0,,,,,,,,,,,
3394085,0,0.0,183.63,,-0.09,0.28,0.81,-3,-0,1,0.86,1.33,65,7334,57.3,5.02,,13.98,1.211,95.2,,65.3,5,,,,,,,,,,,,0,0,0,0,0,0,0,0,0,0,0,0,0,0,0,0,,,,,0.0,,,,,,
3394105,0,,,,,,,,,,,,,,,,,,,,,,,,,,,,,,,,,,0,0,0,0,0,0,0,0,0,0,0,0,0,0,0,0,,,,,,,,,,,
3394125,0,0.0,183.63,,-0.08,0.24,0.84,-2,-0,0,0.88,1.33,66,8461,56.1,4.7,,13.98,1.211,95.2,,65.3,5,,,,,,,,,,,,0,0,0,0,0,0,0,0,0,0,0,0,0,0,0,0,,,,,0.0,,,,,,
3394145,0,,,,,,,,,,,,,,,,,,,,,,,0,0,0,0,0.0,0.0,0.0,0.0,2.26,,,0,0,0,0,0,0,0,0,0,0,0,0,0,0,0,0,0,,,,,0.0,0.0,0.0,0,0,0.0
3394165,0,0.0,183.51,,-0.05,0.19,0.92,-1,-0,1,0.94,1.33,71,8461,56.1,4.7,,13.77,1.094,95.2,,69.7,5,,,,,,,,,,,,0,0,0,0,0,0,0,0,0,0,0,0,0,0,0,0,,,,,0.0,,,,,,
3394185,0,,,,,,,,,,,,,,,,,,,,,,,,,,,,,,,,,,0,0,0,0,0,0,0,0,0,0,0,0,0,0,0,0,,,,,,,,,,,
3394205,0,0.0,183.51,,-0.05,0.16,0.83,-3,-0,1,0.84,1.33,64,9771,31.2,4.64,,12.27,1.032,95.2,,69.7,5,,,,,,,,,,,,0,0,0,0,0,0,0,0,0,0,0,0,0,0,0,0,,,,,0.0,,,,,,
3394225,0,,,,,,,,,,,,,,,,,,,,,,,,,,,,,,,,,,0,0,0,0,0,0,0,0,0,0,0,0,0,0,0,0,,,,,,,,,,,
3394245,0,0.0,183.63,,-0.01,0.06,0.91,-2,-0,1,0.92,1.33,69,10762,0.3,1.4,,9.15,1.006,95.2,,69.7,5,0,0,0,0,0.0,0.0,0.0,0.0,2.26,,,0,0,0,0,0,0,0,0,0,0,0,0,0,0,0,0,0,,,,0.0,0.0,0.0,0.0,0,0,0.0
3394265,0,,,,,,,,,,,,,,,,,,,,,,,,,,,,,,,,,,0,0,0,0,0,0,0,0,0,0,0,0,0,0,0,0,,,,,,,,,,,
3394285,0,0.0,183.51,,-0.03,0.01,0.91,-1,-0,1,0.91,1.33,68,10620,0.0,1.4,,7.15,0.883,95.2,,66.8,5,,,,,,,,,,,,0,0,0,0,0,0,0,0,0,0,0,0,0,0,0,0,,,,,0.0,,,,,,
3394305,0,,,,,,,,,,,,,,,,,,,,,,,,,,,,,,,,,,0,0,0,0,0,0,0,0,0,0,0,0,0,0,0,0,,,,,,,,,,,
3394325,0,0.0,183.51,,-0.07,0.13,1.0,-1,-1,1,1.01,1.33,76,10217,0.0,1.4,,7.15,0.883,95.2,,66.8,5,,,,,,,,,,,,0,0,0,0,0,0,0,0,0,0,0,0,0,0,0,0,,,,,0.0,,,,,,
3394345,0,,,,,,,,,,,,,,,,,,,,,,,0,0,0,0,0.0,0.0,0.0,0.0,2.28,,,0,0,0,0,0,0,0,0,0,0,0,0,0,0,0,0,0,,,,,0.0,0.0,0.0,0,0,0.0
3394365,0,0.0,183.51,,-0.07,0.01,0.94,-1,-0,1,0.95,1.33,71,10217,0.0,1.4,,6.16,0.945,95.2,,65.7,5,,,,,,,,,,,,0,0,0,0,0,0,0,0,0,0,0,0,0,0,0,0,,,,,0.0,,,,,,
3394385,0,,,,,,,,,,,,,,,,,,,,,,,,,,,,,,,,,,0,0,0,0,0,0,0,0,0,0,0,0,0,0,0,0,,,,,,,,,,,
3394405,0,0.0,183.38,,-0.05,0.07,0.97,-2,-0,1,0.97,1.33,73,9887,0.0,1.4,,5.68,1.237,95.2,,65.7,5,,,,,,,,,,,,0,0,0,0,0,0,0,0,0,0,0,0,0,0,0,0,,,,,0.0,,,,,,
3394425,0,,,,,,,,,,,,,,,,,,,,,,,,,,,,,,,,,,0,0,0,0,0,0,0,0,0,0,0,0,0,0,0,0,,,,,,,,,,,
3394445,0,0.0,183.51,,-0.05,-0.03,1.05,-2,-0,1,1.05,1.33,79,9535,0.0,1.4,,5.31,1.252,95.2,,65.7,5,0,0,0,0,0.0,0.0,0.0,0.0,2.28,,,0,0,0,0,0,0,0,0,0,0,0,0,0,0,0,0,0,,,,0.0,0.0,0.0,0.0,0,0,0.0
3394465,0,,,,,,,,,,,,,,,,,,,,,,,,,,,,,,,,,,0,0,0,0,0,0,0,0,0,0,0,0,0,0,0,0,,,,,,,,,,,
3394485,0,0.0,183.38,,-0.08,0.05,0.95,-2,-0,1,0.95,1.33,72,9221,0.0,1.4,,5.31,1.252,95.2,,64.8,5,,,,,,,,,,,,0,0,0,0,0,0,0,0,0,0,0,0,0,0,0,0,,,,,0.0,,,,,,
3394505,0,,,,,,,,,,,,,,,,,,,,,,,,,,,,,,,,,,0,0,0,0,0,0,0,0,0,0,0,0,0,0,0,0,,,,,,,,,,,
3394525,0,0.0,183.38,,-0.1,-0.1,0.9,-3,-0,1,0.92,1.33,69,9221,0.0,1.4,,5.26,1.231,95.2,,64.8,5,,,,,,,,,,,,0,0,0,0,0,0,0,0,0,0,0,0,0,0,0,0,,,,,0.0,,,,,,
3394545,0,,,,,,,,,,,,,,,,,,,,,,,0,0,0,0,0.0,0.0,0.0,0.0,2.27,,,0,0,0,0,0,0,0,0,0,0,0,0,0,0,0,0,0,,,,,0.0,0.0,0.0,0,0,0.0
3394565,0,0.0,183.38,,-0.12,-0.02,0.86,-3,-0,1,0.87,1.33,65,8957,0.0,1.4,,5.12,1.229,95.2,,62.4,5,,,,,,,,,,,,0,0,0,0,0,0,0,0,0,0,0,0,0,0,0,0,,,,,0.0,,,,,,
3394585,0,,,,,,,,,,,,,,,,,,,,,,,,,,,,,,,,,,0,0,0,0,0,0,0,0,0,0,0,0,0,0,0,0,,,,,,,,,,,
3394605,0,0.0,183.38,,-0.11,-0.08,0.91,-1,-0,1,0.92,1.33,69,8665,0.0,1.4,,5.2,1.232,95.2,,62.4,5,,,,,,,,,,,,0,0,0,0,0,0,0,0,0,0,0,0,0,0,0,0,,,,,0.0,,,,,,
3394625,0,,,,,,,,,,,,,,,,,,,,,,,,,,,,,,,,,,0,0,0,0,0,0,0,0,0,0,0,0,0,0,0,0,,,,,,,,,,,
3394645,0,0.0,183.38,,-0.1,-0.06,0.91,-1,-0,1,0.92,1.33,69,8331,0.0,1.4,,5.22,1.179,95.2,,62.4,5,0,0,0,0,0.0,0.0,0.0,0.0,2.26,,,0,0,0,0,0,0,0,0,0,0,0,0,0,0,0,0,0,,,,0.0,0.0,0.0,0.0,0,0,0.0
3394665,0,,,,,,,,,,,,,,,,,,,,,,,,,,,,,,,,,,0,0,0,0,0,0,0,0,0,0,0,0,0,0,0,0,,,,,,,,,,,
3394685,0,0.0,183.38,,-0.09,-0.11,0.92,-2,-0,1,0.93,1.33,70,8012,0.0,1.4,,5.22,1.179,95.2,,60.3,5,,,,,,,,,,,,0,0,0,0,0,0,0,0,0,0,0,0,0,0,0,0,,,,,0.0,,,,,,
3394705,0,,,,,,,,,,,,,,,,,,,,,,,,,,,,,,,,,,0,0,0,0,0,0,0,0,0,0,0,0,0,0,0,0,,,,,,,,,,,
3394725,0,0.0,183.38,,-0.07,-0.03,0.95,-1,-0,1,0.95,1.33,72,8012,0.0,1.4,,5.28,1.121,95.2,,60.3,5,,,,,,,,,,,,0,0,0,0,0,0,0,0,0,0,0,0,0,0,0,0,,,,,0.0,,,,,,
3394745,0,,,,,,,,,,,,,,,,,,,,,,,0,0,0,0,0.0,0.0,0.0,0.0,2.28,,,0,0,0,0,0,0,0,0,0,0,0,0,0,0,0,0,0,,,,,0.0,0.0,0.0,0,0,0.0
3394765,0,0.0,183.38,,-0.07,0.09,0.97,-3,-0,1,0.98,1.33,74,7704,0.0,1.4,,5.44,1.11,95.2,,59.8,5,,,,,,,,,,,,0,0,0,0,0,0,0,0,0,0,0,0,0,0,0,0,,,,,0.0,,,,,,
3394785,0,,,,,,,,,,,,,,,,,,,,,,,,,,,,,,,,,,0,0,0,0,0,0,0,0,0,0,0,0,0,0,0,0,,,,,,,,,,,
3394805,0,0.0,183.26,,-0.03,0.17,1.02,-3,-0,1,1.03,1.33,78,7345,7.2,2.01,,6.38,1.135,95.2,,59.8,5,,,,,,,,,,,,0,0,0,0,0,0,0,0,0,0,0,0,0,0,0,0,,,,,0.0,,,,,,
3394825,0,,,,,,,,,,,,,,,,,,,,,,,,,,,,,,,,,,0,0,0,0,0,0,0,0,0,0,0,0,0,0,0,0,,,,,,,,,,,
3394845,0,0.0,183.38,13.92,-0.03,0.04,0.97,-2,-0,1,0.97,1.33,73,7127,9.5,2.48,15,7.47,1.229,95.2,180,59.8,5,0,0,0,0,0.0,0.0,0.0,0.0,2.28,0,1.0,0,0,0,0,0,0,0,0,0,0,0,0,0,0,0,0,0,0.0,0,-0,0.0,0.0,0.0,0.0,0,0,0.0
3394865,0,,,,,,,,,,,,,,,,,,,,,,,,,,,,,,,,,,0,0,0,0,0,0,0,0,0,0,0,0,0,0,0,0,,,,,,,,,,,
3394885,0,0.0,183.26,,-0.03,0.1,1.01,-2,-0,1,1.02,1.33,77,7096,9.7,2.81,,7.47,1.229,95.2,,60.5,5,,,,,,,,,,,,0,0,0,0,0,0,0,0,0,0,0,0,0,0,0,0,,,,,0.0,,,,,,
3394905,0,,,,,,,,,,,,,,,,,,,,,,,,,,,,,,,,,,0,0,0,0,0,0,0,0,0,0,0,0,0,0,0,0,,,,,,,,,,,
3394925,0,0.0,183.26,,-0.04,-0.04,0.99,-1,-0,0,0.99,1.33,75,7096,9.7,2.81,,8.02,1.252,95.2,,60.5,5,,,,,,,,,,,,0,0,0,0,0,0,0,0,0,0,0,0,0,0,0,0,,,,,0.0,,,,,,
3394945,0,,,,,,,,,,,,,,,,,,,,,,,0,0,0,0,0.0,0.0,0.0,0.0,2.27,,,0,0,0,0,0,0,0,0,0,0,0,0,0,0,0,0,0,,,,,0.0,0.0,0.0,0,0,0.0
3394965,0,0.0,183.26,,-0.06,0.05,1.01,-3,-0,1,1.01,1.33,76,7219,9.9,3.01,,8.43,1.058,95.2,,62.4,5,,,,,,,,,,,,0,0,0,0,0,0,0,0,0,0,0,0,0,0,0,0,,,,,0.0,,,,,,
3394985,0,,,,,,,,,,,,,,,,,,,,,,,,,,,,,,,,,,0,0,0,0,0,0,0,0,0,0,0,0,0,0,0,0,,,,,,,,,,,
3395005,0,0.0,183.38,,-0.04,0.18,1.04,-3,-0,1,1.06,1.33,80,7425,10.1,3.18,,8.67,0.927,95.2,,62.4,5,,,,,,,,,,,,0,0,0,0,0,0,0,0,0,0,0,0,0,0,0,0,,,,,0.0,,,,,,
3395025,0,,,,,,,,,,,,,,,,,,,,,,,,,,,,,,,,,,0,0,0,0,0,0,0,0,0,0,0,0,0,0,0,0,,,,,,,,,,,
3395045,0,0.0,183.26,,-0.04,0.24,0.99,-4,-0,1,1.02,1.33,77,7687,9.7,3.11,,8.54,0.903,95.2,,62.4,5,0,0,0,0,0.0,0.0,0.0,0.0,2.26,,,0,0,0,0,0,0,0,0,0,0,0,0,0,0,0,0,0,,,,0.0,0.0,0.0,0.0,0,0,0.0
3395065,0,,,,,,,,,,,,,,,,,,,,,,,,,,,,,,,,,,0,0,0,0,0,0,0,0,0,0,0,0,0,0,0,0,,,,,,,,,,,
3395085,0,0.0,183.38,,-0.05,0.12,0.99,-2,-0,1,1.0,1.33,76,7951,8.8,3.01,,8.54,0.903,95.2,,68.0,5,,,,,,,,,,,,0,0,0,0,0,0,0,0,0,0,0,0,0,0,0,0,,,,,0.0,,,,,,
3395105,0,,,,,,,,,,,,,,,,,,,,,,,,,,,,,,,,,,0,0,0,0,0,0,0,0,0,0,0,0,0,0,0,0,,,,,,,,,,,
3395125,0,0.0,183.38,,-0.04,0.01,1.0,-2,-0,1,1.01,1.33,76,7951,8.8,3.01,,8.25,0.897,95.2,,68.0,5,,,,,,,,,,,,0,0,0,0,0,0,0,0,0,0,0,0,0,0,0,0,,,,,0.0,,,,,,
3395145,0,,,,,,,,,,,,,,,,,,,,,,,0,0,0,0,0.0,0.0,0.0,0.0,2.27,,,0,0,0,0,0,0,0,0,0,0,0,0,0,0,0,0,0,,,,,0.0,0.0,0.0,0,0,0.0
3395165,0,0.0,183.38,,-0.02,0.05,1.01,-1,-0,0,1.01,1.33,76,8214,8.1,2.85,,8.02,0.884,95.2,,67.5,5,,,,,,,,,,,,0,0,0,0,0,0,0,0,0,0,0,0,0,0,0,0,,,,,0.0,,,,,,
3395185,0,,,,,,,,,,,,,,,,,,,,,,,,,,,,,,,,,,0,0,0,0,0,0,0,0,0,0,0,0,0,0,0,0,,,,,,,,,,,
3395205,0,0.0,183.38,,-0.05,0.14,0.97,-1,-0,0,0.98,1.33,74,8458,7.2,2.55,,7.73,0.862,84.4,,67.5,5,,,,,,,,,,,,0,0,0,0,0,0,0,0,0,0,0,0,0,0,0,0,,,,,0.0,,,,,,
3395225,0,,,,,,,,,,,,,,,,,,,,,,,,,,,,,,,,,,0,0,0,0,0,0,0,0,0,0,0,0,0,0,0,0,,,,,,,,,,,
3395245,0,0.0,183.38,,-0.06,0.11,0.93,-1,-0,0,0.94,1.33,71,8668,6.6,2.34,,7.33,0.84,84.4,,67.5,5,0,0,0,0,0.0,0.0,0.0,0.0,2.28,,,0,0,0,0,0,0,0,0,0,0,0,0,0,0,0,0,0,,,,0.0,0.0,0.0,0.0,0,0,0.0
3395265,0,,,,,,,,,,,,,,,,,,,,,,,,,,,,,,,,,,0,0,0,0,0,0,0,0,0,0,0,0,0,0,0,0,,,,,,,,,,,
3395285,0,0.0,183.38,,-0.06,0.18,0.91,-2,-0,0,0.92,1.33,70,8847,6.5,2.24,,7.33,0.84,84.4,,68.6,5,,,,,,,,,,,,0,0,0,0,0,0,0,0,0,0,0,0,0,0,0,0,,,,,0.0,,,,,,
3395305,0,,,,,,,,,,,,,,,,,,,,,,,,,,,,,,,,,,0,0,0,0,0,0,0,0,0,0,0,0,0,0,0,0,,,,,,,,,,,
3395325,0,0.0,183.51,,-0.04,0.25,0.93,-3,-0,1,0.96,1.33,72,8847,6.5,2.24,,7.02,0.847,84.4,,68.6,5,,,,,,,,,,,,0,0,0,0,0,0,0,0,0,0,0,0,0,0,0,0,,,,,0.0,,,,,,
3395345,0,,,,,,,,,,,,,,,,,,,,,,,0,0,0,0,0.0,0.0,0.0,0.0,2.28,,,0,0,0,0,0,0,0,0,0,0,0,0,0,0,0,0,0,,,,,0.0,0.0,0.0,0,0,0.0
3395365,0,0.0,183.38,,-0.01,0.35,0.95,-3,-0,1,1.01,1.33,76,8974,6.6,2.16,,6.91,0.881,84.4,,68.4,5,,,,,,,,,,,,0,0,0,0,0,0,0,0,0,0,0,0,0,0,0,0,,,,,0.0,,,,,,
3395385,0,,,,,,,,,,,,,,,,,,,,,,,,,,,,,,,,,,0,0,0,0,0,0,0,0,0,0,0,0,0,0,0,0,,,,,,,,,,,
3395405,0,0.0,183.38,,0.01,0.42,0.92,-4,-0,1,1.01,1.33,76,9047,25.1,2.65,,8.31,0.915,84.4,,68.4,5,,,,,,,,,,,,0,0,0,0,0,0,0,0,0,0,0,0,0,0,0,0,,,,,0.0,,,,,,
3395425,0,,,,,,,,,,,,,,,,,,,,,,,,,,,,,,,,,,0,0,0,0,0,0,0,0,0,0,0,0,0,0,0,0,,,,,,,,,,,
3395445,0,0.0,183.38,,-0.0,0.28,0.91,-4,-0,1,0.95,1.33,72,9261,50.8,3.84,,11.26,0.966,84.4,,68.4,5,0,0,0,0,0.0,0.0,0.0,0.0,2.27,,,0,0,0,0,0,0,0,0,0,0,0,0,0,0,0,0,0,,,,0.0,0.0,0.0,0.0,0,0,0.0
3395465,0,,,,,,,,,,,,,,,,,,,,,,,,,,,,,,,,,,0,0,0,0,0,0,0,0,0,0,0,0,0,0,0,0,,,,,,,,,,,
3395485,0,0.0,183.38,,-0.04,0.29,0.91,-3,-0,0,0.96,1.33,72,9386,61.6,5.27,,11.26,0.966,84.4,,68.3,5,,,,,,,,,,,,0,0,0,0,0,0,0,0,0,0,0,0,0,0,0,0,,,,,0.0,,,,,,
3395505,0,,,,,,,,,,,,,,,,,,,,,,,,,,,,,,,,,,0,0,0,0,0,0,0,0,0,0,0,0,0,0,0,0,,,,,,,,,,,
3395525,0,0.0,183.26,,-0.01,0.24,0.93,-3,-0,1,0.96,1.33,72,9386,61.6,5.27,,12.96,1.078,84.4,,68.3,5,,,,,,,,,,,,0,0,0,0,0,0,0,0,0,0,0,0,0,0,0,0,,,,,0.0,,,,,,
3395545,0,,,,,,,,,,,,,,,,,,,,,,,0,0,0,0,0.0,0.0,0.0,0.0,2.26,,,0,0,0,0,0,0,0,0,0,0,0,0,0,0,0,0,0,,,,,0.0,0.0,0.0,0,0,0.0
3395565,0,0.0,183.26,,-0.02,0.55,0.96,-5,-0,2,1.11,1.33,84,10259,53.8,5.05,,13.05,1.248,84.4,,68.3,5,,,,,,,,,,,,0,0,0,0,0,0,0,0,0,0,0,0,0,0,0,0,,,,,0.0,,,,,,
3395585,0,,,,,,,,,,,,,,,,,,,,,,,,,,,,,,,,,,0,0,0,0,0,0,0,0,0,0,0,0,0,0,0,0,,,,,,,,,,,
3395605,0,0.0,183.13,,0.01,0.43,0.97,-4,-0,1,1.06,1.33,80,11565,13.0,4.05,,10.61,1.145,84.4,,66.7,5,,,,,,,,,,,,0,0,0,0,0,0,0,0,0,0,0,0,0,0,0,0,,,,,0.0,,,,,,
3395625,0,,,,,,,,,,,,,,,,,,,,,,,,,,,,,,,,,,0,0,0,0,0,0,0,0,0,0,0,0,0,0,0,0,,,,,,,,,,,
3395645,0,0.0,183.13,,0.02,0.26,1.04,-1,-0,-1,1.07,1.33,81,11854,0.1,1.4,,7.69,0.95,84.4,,66.7,5,0,0,0,0,0.0,0.0,0.0,0.0,2.27,,,0,0,0,0,0,0,0,0,0,0,0,0,0,0,0,0,0,,,,0.0,0.0,0.0,0.0,0,0,0.0
3395665,0,,,,,,,,,,,,,,,,,,,,,,,,,,,,,,,,,,0,0,0,0,0,0,0,0,0,0,0,0,0,0,0,0,,,,,,,,,,,
3395685,0,0.0,183.13,,-0.03,0.17,0.99,-1,-0,-1,1.01,1.33,76,11854,0.1,1.4,,7.69,0.95,84.4,,65.9,5,,,,,,,,,,,,0,0,0,0,0,0,0,0,0,0,0,0,0,0,0,0,,,,,0.0,,,,,,
3395705,0,,,,,,,,,,,,,,,,,,,,,,,,,,,,,,,,,,0,0,0,0,0,0,0,0,0,0,0,0,0,0,0,0,,,,,,,,,,,
3395725,0,0.0,183.13,,-0.02,0.15,1.05,-0,0,-1,1.06,1.33,80,11315,0.0,1.4,,6.28,0.88,84.4,,65.9,5,,,,,,,,,,,,0,0,0,0,0,0,0,0,0,0,0,0,0,0,0,0,,,,,0.0,,,,,,
3395745,0,,,,,,,,,,,,,,,,,,,,,,,0,0,0,0,0.0,0.0,0.0,0.0,2.28,,,0,0,0,0,0,0,0,0,0,0,0,0,0,0,0,0,0,,,,,0.0,0.0,0.0,0,0,0.0
3395765,0,0.0,183.01,,-0.04,0.36,1.02,-1,-0,-0,1.09,1.33,82,10906,0.0,1.4,,5.5,1.131,84.4,,64.7,5,,,,,,,,,,,,0,0,0,0,0,0,0,0,0,0,0,0,0,0,0,0,,,,,0.0,,,,,,
3395785,0,,,,,,,,,,,,,,,,,,,,,,,,,,,,,,,,,,0,0,0,0,0,0,0,0,0,0,0,0,0,0,0,0,,,,,,,,,,,
3395805,0,0.0,183.01,,-0.0,0.32,1.0,-2,-0,-0,1.05,1.33,79,10543,0.0,1.4,,5.26,1.245,84.4,,64.7,5,,,,,,,,,,,,0,0,0,0,0,0,0,0,0,0,0,0,0,0,0,0,,,,,0.0,,,,,,
3395825,0,,,,,,,,,,,,,,,,,,,,,,,,,,,,,,,,,,0,0,0,0,0,0,0,0,0,0,0,0,0,0,0,0,,,,,,,,,,,
3395845,0,0.0,183.01,13.94,-0.01,0.41,0.94,-2,-0,-0,1.02,1.33,77,10269,0.0,1.4,15,5.11,1.25,84.4,180,64.7,5,0,0,0,0,0.0,0.0,0.0,0.0,2.27,0,1.0,0,0,0,0,0,0,0,0,0,0,0,0,0,0,0,0,0,0.0,0,-0,0.0,0.0,0.0,0.0,0,0,0.0
3395865,0,,,,,,,,,,,,,,,,,,,,,,,,,,,,,,,,,,0,0,0,0,0,0,0,0,0,0,0,0,0,0,0,0,,,,,,,,,,,
3395885,0,0.0,183.01,,-0.04,0.38,0.88,-1,-0,-0,0.96,1.33,72,10269,0.0,1.4,,5.11,1.25,84.4,,65.6,5,,,,,,,,,,,,0,0,0,0,0,0,0,0,0,0,0,0,0,0,0,0,,,,,0.0,,,,,,
3395905,0,,,,,,,,,,,,,,,,,,,,,,,,,,,,,,,,,,0,0,0,0,0,0,0,0,0,0,0,0,0,0,0,0,,,,,,,,,,,
3395925,0,0.0,183.01,,-0.04,0.28,0.87,-0,-0,-0,0.92,1.33,69,9935,0.0,1.4,,4.93,1.143,84.4,,65.6,5,,,,,,,,,,,,0,0,0,0,0,0,0,0,0,0,0,0,0,0,0,0,,,,,0.0,,,,,,
3395945,0,,,,,,,,,,,,,,,,,,,,,,,0,0,0,0,0.0,0.0,0.0,0.0,2.27,,,0,0,0,0,0,0,0,0,0,0,0,0,0,0,0,0,0,,,,,0.0,0.0,0.0,0,0,0.0
3395965,0,0.0,183.01,,-0.05,0.24,0.88,-1,-0,0,0.91,1.33,69,9613,0.0,1.4,,4.91,1.089,84.4,,65.6,5,,,,,,,,,,,,0,0,0,0,0,0,0,0,0,0,0,0,0,0,0,0,,,,,0.0,,,,,,
3395985,0,,,,,,,,,,,,,,,,,,,,,,,,,,,,,,,,,,0,0,0,0,0,0,0,0,0,0,0,0,0,0,0,0,,,,,,,,,,,
3396005,0,0.0,182.88,,-0.06,0.06,0.86,-1,-0,0,0.86,1.33,65,9236,0.1,1.4,,4.89,1.084,84.4,,64.1,5,,,,,,,,,,,,0,0,0,0,0,0,0,0,0,0,0,0,0,0,0,0,,,,,0.0,,,,,,
3396025,0,,,,,,,,,,,,,,,,,,,,,,,,,,,,,,,,,,0,0,0,0,0,0,0,0,0,0,0,0,0,0,0,0,,,,,,,,,,,
3396045,0,0.0,182.88,,-0.06,-0.02,0.88,-1,-1,0,0.88,1.33,67,8919,1.2,1.4,,4.89,1.084,84.4,,64.1,5,0,0,0,0,0.0,0.0,0.0,0.0,2.26,,,0,0,0,0,0,0,0,0,0,0,0,0,0,0,0,0,0,,,,0.0,0.0,0.0,0.0,0,0,0.0
3396065,0,,,,,,,,,,,,,,,,,,,,,,,,,,,,,,,,,,0,0,0,0,0,0,0,0,0,0,0,0,0,0,0,0,,,,,,,,,,,
3396085,0,0.0,183.01,,-0.08,0.1,0.84,-1,-1,1,0.85,1.33,64,8919,1.2,1.4,,5.04,1.099,84.4,,63.7,5,,,,,,,,,,,,0,0,0,0,0,0,0,0,0,0,0,0,0,0,0,0,,,,,0.0,,,,,,
3396105,0,,,,,,,,,,,,,,,,,,,,,,,,,,,,,,,,,,0,0,0,0,0,0,0,0,0,0,0,0,0,0,0,0,,,,,,,,,,,
3396125,0,0.0,182.88,,-0.08,0.07,0.89,-1,-1,1,0.9,1.33,68,8550,11.3,1.87,,5.87,1.165,84.4,,63.7,5,,,,,,,,,,,,0,0,0,0,0,0,0,0,0,0,0,0,0,0,0,0,,,,,0.0,,,,,,
3396145,0,,,,,,,,,,,,,,,,,,,,,,,0,0,0,0,0.0,0.0,0.0,0.0,2.27,,,0,0,0,0,0,0,0,0,0,0,0,0,0,0,0,0,0,,,,,0.0,0.0,0.0,0,0,0.0
3396165,0,0.0,183.01,,-0.07,0.0,0.9,-0,-1,0,0.91,1.33,68,8186,18.8,2.75,,7.55,1.226,84.4,,62.4,5,,,,,,,,,,,,0,0,0,0,0,0,0,0,0,0,0,0,0,0,0,0,,,,,0.0,,,,,,
3396185,0,,,,,,,,,,,,,,,,,,,,,,,,,,,,,,,,,,0,0,0,0,0,0,0,0,0,0,0,0,0,0,0,0,,,,,,,,,,,
3396205,0,0.0,183.01,,-0.06,0.02,0.9,0,-1,0,0.9,1.33,68,8265,16.5,2.88,,8.51,1.25,89.8,,62.4,5,,,,,,,,,,,,0,0,0,0,0,0,0,0,0,0,0,0,0,0,0,0,,,,,0.0,,,,,,
3396225,0,,,,,,,,,,,,,,,,,,,,,,,,,,,,,,,,,,0,0,0,0,0,0,0,0,0,0,0,0,0,0,0,0,,,,,,,,,,,
3396245,0,0.0,182.88,,-0.04,-0.04,0.93,-0,-1,0,0.93,1.33,70,8509,7.9,2.63,,8.51,1.25,89.8,,62.4,5,0,0,0,0,0.0,0.0,0.0,0.0,2.28,,,0,0,0,0,0,0,0,0,0,0,0,0,0,0,0,0,0,,,,0.0,0.0,0.0,0.0,0,0,0.0
3396265,0,,,,,,,,,,,,,,,,,,,,,,,,,,,,,,,,,,0,0,0,0,0,0,0,0,0,0,0,0,0,0,0,0,,,,,,,,,,,
3396285,0,0.0,183.01,,-0.06,0.08,0.89,-0,-1,0,0.89,1.33,67,8732,6.6,2.3,,8.06,1.216,89.8,,64.9,5,,,,,,,,,,,,0,0,0,0,0,0,0,0,0,0,0,0,0,0,0,0,,,,,0.0,,,,,,
3396305,0,,,,,,,,,,,,,,,,,,,,,,,,,,,,,,,,,,0,0,0,0,0,0,0,0,0,0,0,0,0,0,0,0,,,,,,,,,,,
3396325,0,0.0,183.01,,-0.07,0.07,0.93,1,-1,-0,0.93,1.33,70,8732,6.6,2.3,,7.53,1.023,89.8,,64.9,5,,,,,,,,,,,,0,0,0,0,0,0,0,0,0,0,0,0,0,0,0,0,,,,,0.0,,,,,,
3396345,0,,,,,,,,,,,,,,,,,,,,,,,0,0,0,0,0.0,0.0,0.0,0.0,2.28,,,0,0,0,0,0,0,0,0,0,0,0,0,0,0,0,0,0,,,,,0.0,0.0,0.0,0,0,0.0
3396365,0,0.0,182.88,,-0.06,-0.07,0.99,1,-1,0,1.0,1.33,75,8888,5.3,2.0,,7.04,0.962,89.8,,65.6,5,,,,,,,,,,,,0,0,0,0,0,0,0,0,0,0,0,0,0,0,0,0,,,,,0.0,,,,,,
3396385,0,,,,,,,,,,,,,,,,,,,,,,,,,,,,,,,,,,0,0,0,0,0,0,0,0,0,0,0,0,0,0,0,0,,,,,,,,,,,
3396405,0,0.0,182.88,,-0.08,-0.19,0.99,1,-0,0,1.01,1.33,76,8830,4.9,1.89,,6.63,0.965,89.8,,65.6,5,,,,,,,,,,,,0,0,0,0,0,0,0,0,0,0,0,0,0,0,0,0,,,,,0.0,,,,,,
3396425,0,,,,,,,,,,,,,,,,,,,,,,,,,,,,,,,,,,0,0,0,0,0,0,0,0,0,0,0,0,0,0,0,0,,,,,,,,,,,
3396445,0,0.0,182.88,,-0.09,-0.12,0.96,-0,-0,0,0.97,1.33,73,8712,3.5,1.46,,6.63,0.965,89.8,,65.6,5,0,0,0,0,0.0,0.0,0.0,0.0,2.27,,,0,0,0,0,0,0,0,0,0,0,0,0,0,0,0,0,0,,,,0.0,0.0,0.0,0.0,0,0,0.0
3396465,0,,,,,,,,,,,,,,,,,,,,,,,,,,,,,,,,,,0,0,0,0,0,0,0,0,0,0,0,0,0,0,0,0,,,,,,,,,,,
3396485,0,0.0,182.88,,-0.09,-0.06,0.95,-0,-0,0,0.96,1.33,72,8712,3.5,1.46,,6.32,1.002,89.8,,64.3,5,,,,,,,,,,,,0,0,0,0,0,0,0,0,0,0,0,0,0,0,0,0,,,,,0.0,,,,,,
3396505,0,,,,,,,,,,,,,,,,,,,,,,,,,,,,,,,,,,0,0,0,0,0,0,0,0,0,0,0,0,0,0,0,0,,,,,,,,,,,
3396525,0,0.0,182.76,,-0.07,0.06,0.96,0,-0,0,0.96,1.33,72,8208,2.7,1.4,,6.22,1.04,89.8,,64.3,5,,,,,,,,,,,,0,0,0,0,0,0,0,0,0,0,0,0,0,0,0,0,,,,,0.0,,,,,,
3396545,0,,,,,,,,,,,,,,,,,,,,,,,0,0,0,0,0.0,0.0,0.0,0.0,2.27,,,0,0,0,0,0,0,0,0,0,0,0,0,0,0,0,0,0,,,,,0.0,0.0,0.0,0,0,0.0
3396565,0,0.0,182.76,,-0.09,0.03,0.92,-2,-0,1,0.92,1.33,70,7698,2.4,1.4,,6.11,1.115,89.8,,64.3,5,,,,,,,,,,,,0,0,0,0,0,0,0,0,0,0,0,0,0,0,0,0,,,,,0.0,,,,,,
3396585,0,,,,,,,,,,,,,,,,,,,,,,,,,,,,,,,,,,0,0,0,0,0,0,0,0,0,0,0,0,0,0,0,0,,,,,,,,,,,
3396605,0,0.0,182.76,,-0.11,0.03,0.9,-5,-0,1,0.91,1.33,69,7267,2.2,1.4,,6.31,1.248,89.8,,60.9,5,,,,,,,,,,,,0,0,0,0,0,0,0,0,0,0,0,0,0,0,0,0,,,,,0.0,,,,,,
3396625,0,,,,,,,,,,,,,,,,,,,,,,,,,,,,,,,,,,0,0,0,0,0,0,0,0,0,0,0,0,0,0,0,0,,,,,,,,,,,
3396645,0,0.0,182.76,,-0.11,0.05,0.91,-3,-0,1,0.91,1.33,69,7267,2.2,1.4,,6.31,1.248,89.8,,60.9,5,0,0,0,0,0.0,0.0,0.0,0.0,2.28,,,0,0,0,0,0,0,0,0,0,0,0,0,0,0,0,0,0,,,,0.0,0.0,0.0,0.0,0,0,0.0
3396665,0,,,,,,,,,,,,,,,,,,,,,,,,,,,,,,,,,,0,0,0,0,0,0,0,0,0,0,0,0,0,0,0,0,,,,,,,,,,,
3396685,0,0.0,182.88,,-0.11,-0.0,0.95,-3,-0,1,0.95,1.33,72,6811,2.0,1.4,,6.52,1.249,89.8,,59.5,5,,,,,,,,,,,,0,0,0,0,0,0,0,0,0,0,0,0,0,0,0,0,,,,,0.0,,,,,,
3396705,0,,,,,,,,,,,,,,,,,,,,,,,,,,,,,,,,,,0,0,0,0,0,0,0,0,0,0,0,0,0,0,0,0,,,,,,,,,,,
3396725,0,0.0,182.88,,-0.07,0.03,0.86,-3,-0,1,0.87,1.33,65,6426,2.2,1.4,,7.02,1.25,89.8,,59.5,5,,,,,,,,,,,,0,0,0,0,0,0,0,0,0,0,0,0,0,0,0,0,,,,,0.0,,,,,,
3396745,0,,,,,,,,,,,,,,,,,,,,,,,0,0,0,0,0.0,0.0,0.0,0.0,2.28,,,0,0,0,0,0,0,0,0,0,0,0,0,0,0,0,0,0,,,,,0.0,0.0,0.0,0,0,0.0
3396765,0,0.0,182.76,,-0.01,-0.1,0.79,-2,-0,1,0.79,1.33,60,6013,2.3,1.48,,7.57,1.251,89.8,,59.5,5,,,,,,,,,,,,0,0,0,0,0,0,0,0,0,0,0,0,0,0,0,0,,,,,0.0,,,,,,
3396785,0,,,,,,,,,,,,,,,,,,,,,,,,,,,,,,,,,,0,0,0,0,0,0,0,0,0,0,0,0,0,0,0,0,,,,,,,,,,,
3396805,0,0.0,182.88,,-0.07,-0.03,0.77,-3,-0,1,0.77,1.33,58,5610,2.6,1.79,,8.13,1.252,89.8,,56.8,5,,,,,,,,,,,,0,0,0,0,0,0,0,0,0,0,0,0,0,0,0,0,,,,,0.0,,,,,,
3396825,0,,,,,,,,,,,,,,,,,,,,,,,,,,,,,,,,,,0,0,0,0,0,0,0,0,0,0,0,0,0,0,0,0,,,,,,,,,,,
3396845,0,0.0,182.88,13.93,-0.05,-0.03,0.77,-3,-0,1,0.77,1.33,58,5610,2.6,1.79,15,8.13,1.252,89.8,180,56.8,5,0,0,0,0,0.0,0.0,0.0,0.0,2.27,0,1.0,0,0,0,0,0,0,0,0,0,0,0,0,0,0,0,0,0,0.0,0,-0,0.0,0.0,0.0,0.0,0,0,0.0
3396865,0,,,,,,,,,,,,,,,,,,,,,,,,,,,,,,,,,,0,0,0,0,0,0,0,0,0,0,0,0,0,0,0,0,,,,,,,,,,,
3396885,0,0.0,182.88,,-0.05,-0.02,0.83,-2,-0,1,0.84,1.33,63,5244,3.2,2.13,,8.93,1.251,89.8,,56.3,5,,,,,,,,,,,,0,0,0,0,0,0,0,0,0,0,0,0,0,0,0,0,,,,,0.0,,,,,,
3396905,0,,,,,,,,,,,,,,,,,,,,,,,,,,,,,,,,,,0,0,0,0,0,0,0,0,0,0,0,0,0,0,0,0,,,,,,,,,,,
3396925,0,0.0,182.88,,-0.03,-0.05,0.83,-2,-0,1,0.83,1.33,63,5026,8.3,2.02,,9.81,1.25,89.8,,56.3,5,,,,,,,,,,,,0,0,0,0,0,0,0,0,0,0,0,0,0,0,0,0,,,,,0.0,,,,,,
3396945,0,,,,,,,,,,,,,,,,,,,,,,,0,0,0,0,0.0,0.0,0.0,0.0,2.27,,,0,0,0,0,0,0,0,0,0,0,0,0,0,0,0,0,0,,,,,0.0,0.0,0.0,0,0,0.0
3396965,0,0.0,182.88,,-0.05,0.09,0.91,-2,-0,1,0.92,1.33,69,4832,11.1,2.35,,10.77,1.25,89.8,,56.3,5,,,,,,,,,,,,0,0,0,0,0,0,0,0,0,0,0,0,0,0,0,0,,,,,0.0,,,,,,
3396985,0,,,,,,,,,,,,,,,,,,,,,,,,,,,,,,,,,,0,0,0,0,0,0,0,0,0,0,0,0,0,0,0,0,,,,,,,,,,,
3397005,0,0.0,183.01,,-0.08,0.18,0.98,-3,-0,1,1.0,1.33,75,4561,11.1,3.19,,10.77,1.25,89.8,,51.0,5,,,,,,,,,,,,0,0,0,0,0,0,0,0,0,0,0,0,0,0,0,0,,,,,0.0,,,,,,
3397025,0,,,,,,,,,,,,,,,,,,,,,,,,,,,,,,,,,,0,0,0,0,0,0,0,0,0,0,0,0,0,0,0,0,,,,,,,,,,,
3397045,0,0.0,183.01,,-0.09,0.28,1.05,-4,-0,2,1.09,1.33,82,4561,11.1,3.19,,11.45,1.25,89.8,,51.0,5,0,0,0,0,0.0,0.0,0.0,0.0,2.28,,,0,0,0,0,0,0,0,0,0,0,0,0,0,0,0,0,0,,,,0.0,0.0,0.0,0.0,0,0,0.0
3397065,0,,,,,,,,,,,,,,,,,,,,,,,,,,,,,,,,,,0,0,0,0,0,0,0,0,0,0,0,0,0,0,0,0,,,,,,,,,,,
3397085,0,0.0,183.13,,-0.08,0.39,1.17,-4,-0,2,1.24,1.33,93,4402,9.6,3.16,,11.81,1.234,89.8,,45.9,5,,,,,,,,,,,,0,0,0,0,0,0,0,0,0,0,0,0,0,0,0,0,,,,,0.0,,,,,,
3397105,0,,,,,,,,,,,,,,,,,,,,,,,,,,,,,,,,,,0,0,0,0,0,0,0,0,0,0,0,0,0,0,0,0,,,,,,,,,,,
3397125,0,0.0,183.13,,-0.03,0.43,1.17,-4,-0,2,1.25,1.33,94,4374,6.8,3.13,,11.93,1.25,89.8,,45.9,5,,,,,,,,,,,,0,0,0,0,0,0,0,0,0,0,0,0,0,0,0,0,,,,,0.0,,,,,,
3397145,0,,,,,,,,,,,,,,,,,,,,,,,0,0,0,0,0.0,0.0,0.0,0.0,2.28,,,0,0,0,0,0,0,0,0,0,0,0,0,0,0,0,0,0,,,,,0.0,0.0,0.0,0,0,0.0
3397165,0,0.0,183.13,,-0.02,0.3,1.07,-3,-0,2,1.11,1.33,84,4327,4.5,3.33,,11.84,1.251,89.8,,45.9,5,,,,,,,,,,,,0,0,0,0,0,0,0,0,0,0,0,0,0,0,0,0,,,,,0.0,,,,,,
3397185,0,,,,,,,,,,,,,,,,,,,,,,,,,,,,,,,,,,0,0,0,0,0,0,0,0,0,0,0,0,0,0,0,0,,,,,,,,,,,
3397205,0,0.0,183.13,,-0.06,0.3,1.08,-3,-0,2,1.12,1.33,85,4211,3.9,3.33,,11.84,1.251,89.8,,44.8,5,,,,,,,,,,,,0,0,0,0,0,0,0,0,0,0,0,0,0,0,0,0,,,,,0.0,,,,,,
3397225,0,,,,,,,,,,,,,,,,,,,,,,,,,,,,,,,,,,0,0,0,0,0,0,0,0,0,0,0,0,0,0,0,0,,,,,,,,,,,
3397245,0,0.0,183.26,,-0.04,0.37,1.14,-3,-0,2,1.2,1.33,90,4211,3.9,3.33,,11.72,1.217,91.6,,44.8,5,0,0,0,0,0.0,0.0,0.0,0.0,2.27,,,0,0,0,0,0,0,0,0,0,0,0,0,0,0,0,0,0,,,,0.0,0.0,0.0,0.0,0,0,0.0
3397265,0,,,,,,,,,,,,,,,,,,,,,,,,,,,,,,,,,,0,0,0,0,0,0,0,0,0,0,0,0,0,0,0,0,,,,,,,,,,,
3397285,0,0.0,183.26,,-0.03,0.19,1.02,-1,-0,1,1.04,1.33,79,4246,4.2,3.3,,11.68,1.189,91.6,,43.6,5,,,,,,,,,,,,0,0,0,0,0,0,0,0,0,0,0,0,0,0,0,0,,,,,0.0,,,,,,
3397305,0,,,,,,,,,,,,,,,,,,,,,,,,,,,,,,,,,,0,0,0,0,0,0,0,0,0,0,0,0,0,0,0,0,,,,,,,,,,,
3397325,0,0.0,183.26,,-0.05,0.24,1.1,-2,-0,1,1.13,1.33,85,4196,4.4,3.32,,11.72,1.174,91.6,,43.6,5,,,,,,,,,,,,0,0,0,0,0,0,0,0,0,0,0,0,0,0,0,0,,,,,0.0,,,,,,
3397345,0,,,,,,,,,,,,,,,,,,,,,,,0,0,0,0,0.0,0.0,0.0,0.0,2.27,,,0,0,0,0,0,0,0,0,0,0,0,0,0,0,0,0,0,,,,,0.0,0.0,0.0,0,0,0.0
3397365,0,0.0,183.26,,-0.03,0.2,1.08,-1,-0,1,1.09,1.33,83,4182,4.6,3.34,,11.67,1.138,91.6,,43.6,5,,,,,,,,,,,,0,0,0,0,0,0,0,0,0,0,0,0,0,0,0,0,,,,,0.0,,,,,,
3397385,0,,,,,,,,,,,,,,,,,,,,,,,,,,,,,,,,,,0,0,0,0,0,0,0,0,0,0,0,0,0,0,0,0,,,,,,,,,,,
3397405,0,0.0,183.26,,-0.06,0.1,1.03,-1,-0,1,1.04,1.33,78,4186,4.5,3.69,,11.67,1.138,91.6,,43.3,5,,,,,,,,,,,,0,0,0,0,0,0,0,0,0,0,0,0,0,0,0,0,,,,,0.0,,,,,,
3397425,0,,,,,,,,,,,,,,,,,,,,,,,,,,,,,,,,,,0,0,0,0,0,0,0,0,0,0,0,0,0,0,0,0,,,,,,,,,,,
3397445,0,0.0,183.38,,-0.04,0.17,1.08,-1,-0,1,1.1,1.33,83,4186,4.5,3.69,,11.69,1.116,91.6,,43.3,5,0,0,0,0,0.0,0.0,0.0,0.0,2.27,,,0,0,0,0,0,0,0,0,0,0,0,0,0,0,0,0,0,,,,0.0,0.0,0.0,0.0,0,0,0.0
3397465,0,,,,,,,,,,,,,,,,,,,,,,,,,,,,,,,,,,0,0,0,0,0,0,0,0,0,0,0,0,0,0,0,0,,,,,,,,,,,
3397485,0,0.0,183.38,,-0.05,0.03,0.98,-1,-0,0,0.98,1.33,74,4147,4.1,3.68,,11.72,1.075,91.6,,42.9,5,,,,,,,,,,,,0,0,0,0,0,0,0,0,0,0,0,0,0,0,0,0,,,,,0.0,,,,,,
3397505,0,,,,,,,,,,,,,,,,,,,,,,,,,,,,,,,,,,0,0,0,0,0,0,0,0,0,0,0,0,0,0,0,0,,,,,,,,,,,
3397525,0,0.0,183.38,,-0.02,0.15,1.05,-1,-0,1,1.06,1.33,80,4115,3.9,3.68,,11.73,1.042,91.6,,42.9,5,,,,,,,,,,,,0,0,0,0,0,0,0,0,0,0,0,0,0,0,0,0,,,,,0.0,,,,,,
3397545,0,,,,,,,,,,,,,,,,,,,,,,,0,0,0,0,0.0,0.0,0.0,0.0,2.28,,,0,0,0,0,0,0,0,0,0,0,0,0,0,0,0,0,0,,,,,0.0,0.0,0.0,0,0,0.0
3397565,0,0.0,183.38,,-0.05,0.02,1.0,-1,-0,1,1.01,1.33,76,4069,4.0,3.67,,11.79,1.022,91.6,,42.9,5,,,,,,,,,,,,0,0,0,0,0,0,0,0,0,0,0,0,0,0,0,0,,,,,0.0,,,,,,
3397585,0,,,,,,,,,,,,,,,,,,,,,,,,,,,,,,,,,,0,0,0,0,0,0,0,0,0,0,0,0,0,0,0,0,,,,,,,,,,,
3397605,0,0.0,183.38,,-0.01,0.12,1.05,-0,-0,1,1.06,1.33,80,4148,4.0,3.64,,11.79,1.022,91.6,,42.0,5,,,,,,,,,,,,0,0,0,0,0,0,0,0,0,0,0,0,0,0,0,0,,,,,0.0,,,,,,
3397625,0,,,,,,,,,,,,,,,,,,,,,,,,,,,,,,,,,,0,0,0,0,0,0,0,0,0,0,0,0,0,0,0,0,,,,,,,,,,,
3397645,0,0.0,183.51,,-0.05,0.01,0.98,-0,-0,0,0.98,1.33,74,4148,4.0,3.64,,11.8,0.997,91.6,,42.0,5,0,0,0,0,0.0,0.0,0.0,0.0,2.28,,,0,0,0,0,0,0,0,0,0,0,0,0,0,0,0,0,0,,,,0.0,0.0,0.0,0.0,0,0,0.0
3397665,0,,,,,,,,,,,,,,,,,,,,,,,,,,,,,,,,,,0,0,0,0,0,0,0,0,0,0,0,0,0,0,0,0,,,,,,,,,,,
3397685,0,0.0,183.51,,-0.05,0.13,1.07,-1,-0,1,1.08,1.33,82,4202,17.8,4.14,,12.51,1.025,91.6,,42.5,5,,,,,,,,,,,,0,0,0,0,0,0,0,0,0,0,0,0,0,0,0,0,,,,,0.0,,,,,,
3397705,0,,,,,,,,,,,,,,,,,,,,,,,,,,,,,,,,,,0,0,0,0,0,0,0,0,0,0,0,0,0,0,0,0,,,,,,,,,,,
3397725,0,0.0,183.51,,-0.01,0.17,1.1,-1,-0,1,1.12,1.33,84,4256,52.9,5.34,,14.32,0.931,91.6,,42.5,5,,,,,,,,,,,,0,0,0,0,0,0,0,0,0,0,0,0,0,0,0,0,,,,,0.0,,,,,,
3397745,0,,,,,,,,,,,,,,,,,,,,,,,0,0,0,0,0.0,0.0,0.0,0.0,2.27,,,0,0,0,0,0,0,0,0,0,0,0,0,0,0,0,0,0,,,,,0.0,0.0,0.0,0,0,0.0
3397765,0,0.0,183.51,,-0.01,0.18,1.11,-1,-0,1,1.13,1.33,85,4830,67.9,5.5,,14.44,0.924,91.6,,42.5,5,,,,,,,,,,,,0,0,0,0,0,0,0,0,0,0,0,0,0,0,0,0,,,,,0.0,,,,,,
3397785,0,,,,,,,,,,,,,,,,,,,,,,,,,,,,,,,,,,0,0,0,0,0,0,0,0,0,0,0,0,0,0,0,0,,,,,,,,,,,
3397805,0,0.0,183.51,,-0.03,0.26,1.18,-1,-0,1,1.21,1.33,91,5739,58.8,4.89,,14.44,0.924,91.6,,51.4,5,,,,,,,,,,,,0,0,0,0,0,0,0,0,0,0,0,0,0,0,0,0,,,,,0.0,,,,,,
3397825,0,,,,,,,,,,,,,,,,,,,,,,,,,,,,,,,,,,0,0,0,0,0,0,0,0,0,0,0,0,0,0,0,0,,,,,,,,,,,
3397845,0,0.0,183.51,13.91,-0.04,0.18,1.16,0,-0,1,1.17,1.33,89,5739,58.8,4.89,15,14.11,0.968,91.6,180,51.4,5,0,0,0,0,0.0,0.0,0.0,0.0,2.27,0,1.0,0,0,0,0,0,0,0,0,0,0,0,0,0,0,0,0,0,0.0,0,-0,0.0,0.0,0.0,0.0,0,0,0.0
3397865,0,,,,,,,,,,,,,,,,,,,,,,,,,,,,,,,,,,0,0,0,0,0,0,0,0,0,0,0,0,0,0,0,0,,,,,,,,,,,
3397885,0,0.0,183.51,,-0.05,0.28,1.18,-2,-0,1,1.21,1.33,91,6778,3.7,4.7,,12.48,0.917,91.6,,64.2,5,,,,,,,,,,,,0,0,0,0,0,0,0,0,0,0,0,0,0,0,0,0,,,,,0.0,,,,,,
3397905,0,,,,,,,,,,,,,,,,,,,,,,,,,,,,,,,,,,0,0,0,0,0,0,0,0,0,0,0,0,0,0,0,0,,,,,,,,,,,
3397925,0,0.0,183.51,,-0.01,0.34,1.17,-0,-0,1,1.22,1.33,92,7389,0.0,1.4,,10.13,0.909,91.6,,64.2,5,,,,,,,,,,,,0,0,0,0,0,0,0,0,0,0,0,0,0,0,0,0,,,,,0.0,,,,,,
3397945,0,,,,,,,,,,,,,,,,,,,,,,,0,0,0,0,0.0,0.0,0.0,0.0,2.27,,,0,0,0,0,0,0,0,0,0,0,0,0,0,0,0,0,0,,,,,0.0,0.0,0.0,0,0,0.0
3397965,0,0.0,183.51,,-0.03,0.22,1.11,0,-0,1,1.13,1.33,86,7143,0.0,1.4,,9.01,0.918,91.6,,64.2,5,,,,,,,,,,,,0,0,0,0,0,0,0,0,0,0,0,0,0,0,0,0,,,,,0.0,,,,,,
3397985,0,,,,,,,,,,,,,,,,,,,,,,,,,,,,,,,,,,0,0,0,0,0,0,0,0,0,0,0,0,0,0,0,0,,,,,,,,,,,
3398005,0,0.0,183.63,,-0.05,0.22,1.11,1,-0,0,1.14,1.33,86,6784,0.0,1.4,,9.01,0.918,91.6,,60.3,5,,,,,,,,,,,,0,0,0,0,0,0,0,0,0,0,0,0,0,0,0,0,,,,,0.0,,,,,,
3398025,0,,,,,,,,,,,,,,,,,,,,,,,,,,,,,,,,,,0,0,0,0,0,0,0,0,0,0,0,0,0,0,0,0,,,,,,,,,,,
3398045,0,0.0,183.51,,-0.03,0.18,1.14,0,-0,0,1.15,1.33,87,6784,0.0,1.4,,8.39,1.083,91.6,,60.3,5,0,0,0,0,0.0,0.0,0.0,0.0,2.28,,,0,0,0,0,0,0,0,0,0,0,0,0,0,0,0,0,0,,,,0.0,0.0,0.0,0.0,0,0,0.0
3398065,0,,,,,,,,,,,,,,,,,,,,,,,,,,,,,,,,,,0,0,0,0,0,0,0,0,0,0,0,0,0,0,0,0,,,,,,,,,,,
3398085,0,0.0,183.51,,-0.04,0.24,1.04,0,-0,0,1.07,1.33,81,6436,0.9,1.4,,8.39,1.248,91.6,,58.4,5,,,,,,,,,,,,0,0,0,0,0,0,0,0,0,0,0,0,0,0,0,0,,,,,0.0,,,,,,
3398105,0,,,,,,,,,,,,,,,,,,,,,,,,,,,,,,,,,,0,0,0,0,0,0,0,0,0,0,0,0,0,0,0,0,,,,,,,,,,,
3398125,0,0.0,183.51,,-0.05,0.17,0.92,-1,-0,1,0.94,1.33,71,6010,2.8,1.97,,8.69,1.251,91.6,,58.4,5,,,,,,,,,,,,0,0,0,0,0,0,0,0,0,0,0,0,0,0,0,0,,,,,0.0,,,,,,
3398145,0,,,,,,,,,,,,,,,,,,,,,,,0,0,0,0,0.0,0.0,0.0,0.0,2.28,,,0,0,0,0,0,0,0,0,0,0,0,0,0,0,0,0,0,,,,,0.0,0.0,0.0,0,0,0.0
3398165,0,0.0,183.51,,-0.1,0.3,0.9,-2,-0,1,0.95,1.33,72,5816,12.5,2.67,,9.84,1.254,91.6,,58.4,5,,,,,,,,,,,,0,0,0,0,0,0,0,0,0,0,0,0,0,0,0,0,,,,,0.0,,,,,,
3398185,0,,,,,,,,,,,,,,,,,,,,,,,,,,,,,,,,,,0,0,0,0,0,0,0,0,0,0,0,0,0,0,0,0,,,,,,,,,,,
3398205,0,0.0,183.51,,-0.07,0.33,0.99,-1,-0,1,1.05,1.33,79,5708,43.6,5.08,,9.84,1.254,91.6,,56.7,5,,,,,,,,,,,,0,0,0,0,0,0,0,0,0,0,0,0,0,0,0,0,,,,,0.0,,,,,,
3398225,0,,,,,,,,,,,,,,,,,,,,,,,,,,,,,,,,,,0,0,0,0,0,0,0,0,0,0,0,0,0,0,0,0,,,,,,,,,,,
3398245,0,0.0,183.51,,-0.04,0.09,0.91,-0,-0,0,0.92,1.33,69,5708,43.6,5.08,,13.15,1.253,95.2,,56.7,5,0,0,0,0,0.0,0.0,0.0,0.0,2.27,,,0,0,0,0,0,0,0,0,0,0,0,0,0,0,0,0,0,,,,0.0,0.0,0.0,0.0,0,0,0.0
3398265,0,,,,,,,,,,,,,,,,,,,,,,,,,,,,,,,,,,0,0,0,0,0,0,0,0,0,0,0,0,0,0,0,0,,,,,,,,,,,
3398285,0,0.0,183.63,,-0.08,0.11,0.83,-2,-0,1,0.84,1.33,63,5760,62.2,5.19,,14.31,1.249,95.2,,58.0,5,,,,,,,,,,,,0,0,0,0,0,0,0,0,0,0,0,0,0,0,0,0,,,,,0.0,,,,,,
3398305,0,,,,,,,,,,,,,,,,,,,,,,,,,,,,,,,,,,0,0,0,0,0,0,0,0,0,0,0,0,0,0,0,0,,,,,,,,,,,
3398325,0,0.0,183.63,,-0.08,0.1,0.85,-3,-0,1,0.86,1.33,65,6279,57.9,4.85,,14.06,1.217,95.2,,58.0,5,,,,,,,,,,,,0,0,0,0,0,0,0,0,0,0,0,0,0,0,0,0,,,,,0.0,,,,,,
3398345,0,,,,,,,,,,,,,,,,,,,,,,,0,0,0,0,0.0,0.0,0.0,0.0,2.27,,,0,0,0,0,0,0,0,0,0,0,0,0,0,0,0,0,0,,,,,0.0,0.0,0.0,0,0,0.0
3398365,0,0.0,183.51,,-0.06,0.06,0.85,1,-0,-0,0.85,1.33,64,7169,9.8,5.31,,12.47,1.179,95.2,,58.0,5,,,,,,,,,,,,0,0,0,0,0,0,0,0,0,0,0,0,0,0,0,0,,,,,0.0,,,,,,
3398385,0,,,,,,,,,,,,,,,,,,,,,,,,,,,,,,,,,,0,0,0,0,0,0,0,0,0,0,0,0,0,0,0,0,,,,,,,,,,,
3398405,0,0.0,183.51,,-0.09,0.07,0.88,1,-0,-0,0.89,1.33,67,7970,0.0,1.4,,12.47,1.179,95.2,,63.4,5,,,,,,,,,,,,0,0,0,0,0,0,0,0,0,0,0,0,0,0,0,0,,,,,0.0,,,,,,
3398425,0,,,,,,,,,,,,,,,,,,,,,,,,,,,,,,,,,,0,0,0,0,0,0,0,0,0,0,0,0,0,0,0,0,,,,,,,,,,,
3398445,0,0.0,183.51,,-0.09,-0.11,0.91,1,-0,0,0.92,1.33,70,7970,0.0,1.4,,10.02,1.046,95.2,,63.4,5,0,0,0,0,0.0,0.0,0.0,0.0,2.27,,,0,0,0,0,0,0,0,0,0,0,0,0,0,0,0,0,0,,,,0.0,0.0,0.0,0.0,0,0,0.0
3398465,0,,,,,,,,,,,,,,,,,,,,,,,,,,,,,,,,,,0,0,0,0,0,0,0,0,0,0,0,0,0,0,0,0,,,,,,,,,,,
