"Interval"|"ms"|0|0|1,"Utc"|"ms"|0|0|1,"ElapsedTime"|"Min"|0.0|0.0|10,"FrontBP"|"psi"|-5.0|5.0|25,"SteerAng"|"Degrees"|-145|145|25,"Battery"|"Volts"|-5.0|20.0|1,"AccelX"|"G"|-3.0|3.0|25,"AccelY"|"G"|-3.0|3.0|25,"AccelZ"|"G"|-3.0|3.0|25,"Yaw"|"Deg/Sec"|-120|120|25,"Pitch"|"Deg/Sec"|-120|120|25,"Roll"|"Deg/Sec"|-120|120|25,"Gsum"|"G"|0.0|3.0|25,"GsumMax"|"G"|0.0|3.0|25,"GsumPct"|"%"|0|100|25,"RPM"|""|0|10000|25,"TPS"|"%"|0.0|100.0|25,"InjectorPW"|"ms"|0.0|100.0|25,"Baro"|"kPa"|0|105|1,"MAP"|"Psi"|0.0|255.0|25,"Lambda"|""|-2.0|2.0|25,"IAT"|"C"|0.0|200.0|25,"EngineTemp"|"C"|0|200|1,"EOP"|"PSI"|0.0|152.0|25,"EOT"|"F"|0|250|25,"WSFR"|"MPH"|0|150|10,"WSFL"|"MPH"|0|100|10,"WSRR"|"MPH"|0|100|10,"WSRL"|""|0|100|10,"TCSet"|"%"|0.0|100.0|10,"TCSlip"|"%"|0.0|100.0|10,"TCComp"|"deg"|0.0|50.0|10,"TCCut"|"%"|0.0|100.0|10,"Analog8"|""|0.0|5.0|10,"OilTemp"|"F"|0|300|1,"AA_On"|""|0.0|1.0|1,"ThermLF1"|"C"|0|400|50,"ThermLF2"|"C"|0|400|50,"ThermRR1"|"C"|0|400|50,"ThermRR2"|"C"|0|400|50,"ThermLF3"|"C"|0|400|50,"ThermLF4"|"C"|0|400|50,"ThermLF5"|"C"|0|400|50,"ThermLF6"|"C"|0|400|50,"ThermLF7"|"C"|0|400|50,"ThermLF8"|"C"|0|400|50,"ThermRR3"|"C"|0|400|50,"ThermRR4"|"C"|0|400|50,"ThermRR5"|"C"|0|400|50,"ThermRR6"|"C"|0|400|50,"ThermRR7"|"C"|0|400|50,"ThermRR8"|"C"|0|400|50,"AA_LowDrag"|""|0|1|1,"Gear"|""|1|6|10,"AA_On"|""|0.0|1.0|1,"AA_LowDrag"|""|0|1|1,"Fuel_Mix"|""|-10|10|1,"AA_Packages"|""|0.0|1000.0|25,"Latitude"|"Degrees"|-180.0|180.0|10,"Longitude"|"Degrees"|-180.0|180.0|10,"Speed"|"kph"|0.0|150.0|10,"Altitude"|"m"|0.0|4000.0|10,"GPSSats"|""|0|20|10,"GPSQual"|""|0|5|10,"GPSDOP"|""|0.0|20.0|10,"LapCount"|""|0|0|10,"LapTime"|"Min"|0.0|0.0|10,"Sector"|""|0|0|10,"SectorTime"|"Min"|0.0|0.0|10,"PredTime"|"Min"|0.0|0.0|5,"CurrentLap"|""|0|0|10,"Distance"|"mi"|0.0|0.0|10,"SessionTime"|"Min"|0.0|0.0|10
3631723,1745297888396,0.0003,0.0,-135,,-0.04,0.03,1.14,-2,-0,1,1.14,1.14,100,5871,0.0,1.4,,7.35,1.252,93.4,,47.7,5,,,,,,,,,,,,0,0,0,0,0,0,0,0,0,0,0,0,0,0,0,0,,,,,,0.0,,,,,,,,,,,,,,,
3631743,1745297888416,0.0006,,,,,,,,,,,,,,,,,,,,,,,,,,,,,,,,,,0,0,0,0,0,0,0,0,0,0,0,0,0,0,0,0,,,,,,,,,,,,,,,,,,,,,
3631763,1745297888436,0.001,0.0,-134,,-0.05,0.08,1.12,-2,-0,1,1.12,1.14,98,5453,14.9,2.9,,8.77,1.252,93.4,,47.7,5,,,,,,,,,,,,0,0,0,0,0,0,0,0,0,0,0,0,0,0,0,0,,,,,,0.0,,,,,,,,,,,,,,,
3631783,1745297888456,0.0013,,,,,,,,,,,,,,,,,,,,,,,,,,,,,,,,,,0,0,0,0,0,0,0,0,0,0,0,0,0,0,0,0,,,,,,,,,,,,,,,,,,,,,
3631803,1745297888476,0.0016,0.0,-134,,-0.07,0.06,1.07,-1,-0,1,1.07,1.14,94,5156,34.5,5.44,,12.2,1.251,93.4,,47.7,5,0,0,0,0,0.0,0.0,0.0,0.0,2.26,,,0,0,0,0,0,0,0,0,0,0,0,0,0,0,0,0,,0,,,,0.0,38.986015,-76.95002,0.0,48.2,33,3,0.8,0,0.0,-1,0.0,0.0,0,0.0,0.0016
3631823,1745297888495,0.002,,,,,,,,,,,,,,,,,,,,,,,,,,,,,,,,,,0,0,0,0,0,0,0,0,0,0,0,0,0,0,0,0,,,,,,,,,,,,,,,,,,,,,
3631843,1745297888515,0.0023,0.0,-135,,-0.08,0.15,1.13,-2,-0,1,1.14,1.14,100,5495,41.7,5.64,,12.2,1.251,93.4,,40.4,5,,,,,,,,,,,,0,0,0,0,0,0,0,0,0,0,0,0,0,0,0,0,,,,,,0.0,,,,,,,,,,,,,,,
3631863,1745297888535,0.0026,,,,,,,,,,,,,,,,,,,,,,,,,,,,,,,,,,0,0,0,0,0,0,0,0,0,0,0,0,0,0,0,0,,,,,,,,,,,,,,,,,,,,,
3631883,1745297888555,0.003,0.0,-135,,-0.1,-0.02,1.01,0,-0,0,1.02,1.14,89,5495,41.7,5.64,,13.75,1.25,93.4,,40.4,5,,,,,,,,,,,,0,0,0,0,0,0,0,0,0,0,0,0,0,0,0,0,,,,,,0.0,,,,,,,,,,,,,,,
3631903,1745297888575,0.0033,,,,,,,,,,,,,,,,,,,,,,,0,0,0,0,0.0,0.0,0.0,0.0,2.25,,,0,0,0,0,0,0,0,0,0,0,0,0,0,0,0,0,,0,,,,,38.986015,-76.95002,0.0,48.2,33,3,0.8,0,0.0,-1,0.0,,0,0.0,0.0033
3631923,1745297888595,0.0036,0.0,-135,,-0.11,-0.16,1.01,1,-0,-0,1.02,1.14,90,6016,42.5,5.73,,13.69,1.249,93.4,,48.9,5,,,,,,,,,,,,0,0,0,0,0,0,0,0,0,0,0,0,0,0,0,0,,,,,,0.0,,,,,,,,,,,,,,,
3631943,1745297888615,0.004,,,,,,,,,,,,,,,,,,,,,,,,,,,,,,,,,,0,0,0,0,0,0,0,0,0,0,0,0,0,0,0,0,,,,,,,,,,,,,,,,,,,,,
3631963,1745297888635,0.0043,0.0,-134,,-0.11,-0.11,0.98,1,-0,-0,0.99,1.14,87,6738,34.4,5.48,,13.36,1.248,93.4,,48.9,5,,,,,,,,,,,,0,0,0,0,0,0,0,0,0,0,0,0,0,0,0,0,,,,,,0.0,,,,,,,,,,,,,,,
3631983,1745297888655,0.0046,,,,,,,,,,,,,,,,,,,,,,,,,,,,,,,,,,0,0,0,0,0,0,0,0,0,0,0,0,0,0,0,0,,,,,,,,,,,,,,,,,,,,,
3632003,1745297888675,0.005,0.0,-134,,-0.1,-0.26,0.97,2,-0,-0,1.01,1.14,89,7107,0.0,1.4,,11.22,1.114,93.4,,48.9,5,0,0,0,0,0.0,0.0,0.0,0.0,2.26,,,0,0,0,0,0,0,0,0,0,0,0,0,0,0,0,0,,0,,,,0.0,38.986015,-76.95002,0.05,48.2,33,3,0.8,0,0.0,-1,0.0,0.0,0,0.0,0.005
3632023,1745297888695,0.0053,,,,,,,,,,,,,,,,,,,,,,,,,,,,,,,,,,0,0,0,0,0,0,0,0,0,0,0,0,0,0,0,0,,,,,,,,,,,,,,,,,,,,,
3632043,1745297888715,0.0056,0.0,-134,,-0.09,-0.15,0.99,0,-0,-0,1.0,1.14,88,7185,0.0,1.4,,11.22,1.114,93.4,,56.3,5,,,,,,,,,,,,0,0,0,0,0,0,0,0,0,0,0,0,0,0,0,0,,,,,,0.0,,,,,,,,,,,,,,,
3632063,1745297888735,0.006,,,,,,,,,,,,,,,,,,,,,,,,,,,,,,,,,,0,0,0,0,0,0,0,0,0,0,0,0,0,0,0,0,,,,,,,,,,,,,,,,,,,,,
3632083,1745297888755,0.0063,0.0,-135,,-0.08,-0.18,0.98,1,-0,-0,1.0,1.14,88,7185,0.0,1.4,,9.44,1.067,93.4,,56.3,5,,,,,,,,,,,,0,0,0,0,0,0,0,0,0,0,0,0,0,0,0,0,,,,,,0.0,,,,,,,,,,,,,,,
3632103,1745297888775,0.0066,,,,,,,,,,,,,,,,,,,,,,,0,0,0,0,0.0,0.0,0.0,0.0,2.26,,,0,0,0,0,0,0,0,0,0,0,0,0,0,0,0,0,,0,,,,,38.986015,-76.95002,0.0,48.3,33,3,0.8,0,0.0,-1,0.0,,0,0.0,0.0066
3632123,1745297888795,0.007,0.0,-135,,-0.05,-0.14,0.98,0,-0,-0,0.99,1.14,87,6819,0.0,1.4,,8.62,0.999,93.4,,54.6,5,,,,,,,,,,,,0,0,0,0,0,0,0,0,0,0,0,0,0,0,0,0,,,,,,0.0,,,,,,,,,,,,,,,
3632143,1745297888815,0.0073,,,,,,,,,,,,,,,,,,,,,,,,,,,,,,,,,,0,0,0,0,0,0,0,0,0,0,0,0,0,0,0,0,,,,,,,,,,,,,,,,,,,,,
3632163,1745297888835,0.0076,0.0,-135,,-0.09,-0.18,0.94,0,-0,-0,0.96,1.14,84,6330,0.0,1.4,,8.27,1.109,93.4,,54.6,5,,,,,,,,,,,,0,0,0,0,0,0,0,0,0,0,0,0,0,0,0,0,,,,,,0.0,,,,,,,,,,,,,,,
3632183,1745297888855,0.008,,,,,,,,,,,,,,,,,,,,,,,,,,,,,,,,,,0,0,0,0,0,0,0,0,0,0,0,0,0,0,0,0,,,,,,,,,,,,,,,,,,,,,
3632203,1745297888875,0.0083,0.0,-135,,-0.14,-0.25,0.91,0,-0,-0,0.95,1.14,83,5904,1.5,1.49,,8.51,1.25,93.4,,54.6,5,0,0,0,0,0.0,0.0,0.0,0.0,2.26,,,0,0,0,0,0,0,0,0,0,0,0,0,0,0,0,0,,0,,,,0.0,38.986015,-76.95002,0.13,48.3,33,3,0.8,0,0.0,-1,0.0,0.0,0,0.0,0.0083
3632223,1745297888897,0.0086,,,,,,,,,,,,,,,,,,,,,,,,,,,,,,,,,,0,0,0,0,0,0,0,0,0,0,0,0,0,0,0,0,,,,,,,,,,,,,,,,,,,,,
3632243,1745297888917,0.009,0.0,-135,,-0.12,-0.25,0.94,0,-0,-0,0.97,1.14,86,5558,2.7,1.98,,8.51,1.25,93.4,,48.1,5,,,,,,,,,,,,0,0,0,0,0,0,0,0,0,0,0,0,0,0,0,0,,,,,,0.0,,,,,,,,,,,,,,,
3632263,1745297888937,0.0093,,,,,,,,,,,,,,,,,,,,,,,,,,,,,,,,,,0,0,0,0,0,0,0,0,0,0,0,0,0,0,0,0,,,,,,,,,,,,,,,,,,,,,
3632283,1745297888957,0.0096,0.0,-135,,-0.12,-0.14,0.92,-0,-0,-0,0.94,1.14,83,5558,2.7,1.98,,9.06,1.251,93.4,,48.1,5,,,,,,,,,,,,0,0,0,0,0,0,0,0,0,0,0,0,0,0,0,0,,,,,,0.0,,,,,,,,,,,,,,,
3632303,1745297888977,0.01,,,,,,,,,,,,,,,,,,,,,,,0,0,0,0,0.0,0.0,0.0,0.0,2.26,,,0,0,0,0,0,0,0,0,0,0,0,0,0,0,0,0,,0,,,,,38.986015,-76.95002,0.08,48.3,33,3,0.8,0,0.0,-1,0.0,,0,0.0,0.01
3632323,1745297888997,0.0103,0.0,-135,,-0.15,-0.12,0.93,0,-0,-0,0.95,1.14,83,5153,3.2,2.29,,9.54,1.25,93.4,,40.6,5,,,,,,,,,,,,0,0,0,0,0,0,0,0,0,0,0,0,0,0,0,0,,,,,,0.0,,,,,,,,,,,,,,,
3632343,1745297889005,0.0106,,,,,,,,,,,,,,,,,,,,,,,,,,,,,,,,,,0,0,0,0,0,0,0,0,0,0,0,0,0,0,0,0,,,,,,,,,,,,,,,,,,,,,
3632363,1745297889025,0.011,0.0,-135,,-0.11,-0.09,0.98,0,-0,0,0.99,1.14,87,4937,3.1,2.48,,9.98,1.251,93.4,,40.6,5,,,,,,,,,,,,0,0,0,0,0,0,0,0,0,0,0,0,0,0,0,0,,,,,,0.0,,,,,,,,,,,,,,,
3632383,1745297889045,0.0113,,,,,,,,,,,,,,,,,,,,,,,,,,,,,,,,,,0,0,0,0,0,0,0,0,0,0,0,0,0,0,0,0,,,,,,,,,,,,,,,,,,,,,
3632403,1745297889065,0.0116,0.0,-135,13.47,-0.12,-0.08,0.98,-0,-0,0,0.99,1.14,87,4841,7.6,2.56,15,10.57,1.25,93.4,173,40.6,5,0,0,0,0,0.0,0.0,0.0,0.0,2.26,0,1.0,0,0,0,0,0,0,0,0,0,0,0,0,0,0,0,0,0,0,1.0,0,0,0.0,38.986015,-76.95002,0.05,48.3,33,3,0.8,0,0.0,-1,0.0,0.0,0,0.0,0.0116
3632423,1745297889085,0.012,,,,,,,,,,,,,,,,,,,,,,,,,,,,,,,,,,0,0,0,0,0,0,0,0,0,0,0,0,0,0,0,0,,,,,,,,,,,,,,,,,,,,,
3632443,1745297889109,0.0123,0.0,-135,,-0.1,-0.13,0.91,0,-0,-0,0.93,1.14,81,4691,20.8,4.33,,10.57,1.25,93.4,,37.7,5,,,,,,,,,,,,0,0,0,0,0,0,0,0,0,0,0,0,0,0,0,0,,,,,,0.0,,,,,,,,,,,,,,,
3632463,1745297889129,0.0126,,,,,,,,,,,,,,,,,,,,,,,,,,,,,,,,,,0,0,0,0,0,0,0,0,0,0,0,0,0,0,0,0,,,,,,,,,,,,,,,,,,,,,
3632483,1745297889149,0.013,0.0,-135,,-0.07,-0.05,0.98,0,-0,-0,0.99,1.14,86,4691,20.8,4.33,,12.11,1.249,93.4,,37.7,5,,,,,,,,,,,,0,0,0,0,0,0,0,0,0,0,0,0,0,0,0,0,,,,,,0.0,,,,,,,,,,,,,,,
3632503,1745297889169,0.0133,,,,,,,,,,,,,,,,,,,,,,,0,0,0,0,0.0,0.0,0.0,0.0,2.25,,,0,0,0,0,0,0,0,0,0,0,0,0,0,0,0,0,,0,,,,,38.986015,-76.95002,0.0,48.3,33,3,0.8,0,0.0,-1,0.0,,0,0.0,0.0133
3632523,1745297889195,0.0136,0.0,-135,,-0.1,0.02,1.02,-0,-0,0,1.03,1.14,90,4678,23.8,4.58,,13.13,1.24,93.4,,36.3,5,,,,,,,,,,,,0,0,0,0,0,0,0,0,0,0,0,0,0,0,0,0,,,,,,0.0,,,,,,,,,,,,,,,
3632543,1745297889215,0.014,,,,,,,,,,,,,,,,,,,,,,,,,,,,,,,,,,0,0,0,0,0,0,0,0,0,0,0,0,0,0,0,0,,,,,,,,,,,,,,,,,,,,,
3632563,1745297889235,0.0143,0.0,-135,,-0.08,-0.05,0.96,0,-0,-0,0.96,1.14,84,4776,24.3,4.62,,13.39,1.137,93.4,,36.3,5,,,,,,,,,,,,0,0,0,0,0,0,0,0,0,0,0,0,0,0,0,0,,,,,,0.0,,,,,,,,,,,,,,,
3632583,1745297889255,0.0146,,,,,,,,,,,,,,,,,,,,,,,,,,,,,,,,,,0,0,0,0,0,0,0,0,0,0,0,0,0,0,0,0,,,,,,,,,,,,,,,,,,,,,
3632603,1745297889275,0.015,0.0,-135,,-0.08,-0.03,0.98,-0,-0,0,0.99,1.14,87,4920,13.9,4.29,,13.2,1.133,93.4,,36.3,5,0,0,0,0,0.0,0.0,0.0,0.0,2.26,,,0,0,0,0,0,0,0,0,0,0,0,0,0,0,0,0,,0,,,,0.0,38.986015,-76.95002,0.05,48.3,33,3,0.8,0,0.0,-1,0.0,0.0,0,0.0,0.015
3632623,1745297889295,0.0153,,,,,,,,,,,,,,,,,,,,,,,,,,,,,,,,,,0,0,0,0,0,0,0,0,0,0,0,0,0,0,0,0,,,,,,,,,,,,,,,,,,,,,
3632643,1745297889315,0.0156,0.0,-135,,-0.08,-0.0,1.02,-0,-0,0,1.02,1.14,90,5024,0.0,2.41,,13.2,1.133,93.4,,38.7,5,,,,,,,,,,,,0,0,0,0,0,0,0,0,0,0,0,0,0,0,0,0,,,,,,0.0,,,,,,,,,,,,,,,
3632663,1745297889335,0.016,,,,,,,,,,,,,,,,,,,,,,,,,,,,,,,,,,0,0,0,0,0,0,0,0,0,0,0,0,0,0,0,0,,,,,,,,,,,,,,,,,,,,,
3632683,1745297889355,0.0163,0.0,-135,,-0.08,-0.06,0.96,0,-0,-0,0.96,1.14,84,5024,0.0,2.41,,11.88,1.14,93.4,,38.7,5,,,,,,,,,,,,0,0,0,0,0,0,0,0,0,0,0,0,0,0,0,0,,,,,,0.0,,,,,,,,,,,,,,,
3632703,1745297889375,0.0166,,,,,,,,,,,,,,,,,,,,,,,0,0,0,0,0.0,0.0,0.0,0.0,2.25,,,0,0,0,0,0,0,0,0,0,0,0,0,0,0,0,0,,0,,,,,38.986015,-76.95002,0.0,48.3,33,3,0.8,0,0.0,-1,0.0,,0,0.0,0.0166
3632723,1745297889395,0.017,0.0,-135,,-0.08,0.01,1.04,-0,-0,0,1.04,1.14,91,4939,0.0,2.41,,11.16,1.129,93.4,,37.9,5,,,,,,,,,,,,0,0,0,0,0,0,0,0,0,0,0,0,0,0,0,0,,,,,,0.0,,,,,,,,,,,,,,,
3632743,1745297889415,0.0173,,,,,,,,,,,,,,,,,,,,,,,,,,,,,,,,,,0,0,0,0,0,0,0,0,0,0,0,0,0,0,0,0,,,,,,,,,,,,,,,,,,,,,
3632763,1745297889435,0.0176,0.0,-135,,-0.12,-0.03,1.01,-1,-0,0,1.02,1.14,90,4758,3.9,2.8,,11.14,1.11,93.4,,37.9,5,,,,,,,,,,,,0,0,0,0,0,0,0,0,0,0,0,0,0,0,0,0,,,,,,0.0,,,,,,,,,,,,,,,
3632783,1745297889455,0.018,,,,,,,,,,,,,,,,,,,,,,,,,,,,,,,,,,0,0,0,0,0,0,0,0,0,0,0,0,0,0,0,0,,,,,,,,,,,,,,,,,,,,,
3632803,1745297889475,0.0183,0.0,-135,,-0.13,-0.13,0.93,-0,-0,0,0.95,1.14,83,4549,18.1,4.08,,12.19,1.173,93.4,,37.9,5,0,0,0,0,0.0,0.0,0.0,0.0,2.25,,,0,0,0,0,0,0,0,0,0,0,0,0,0,0,0,0,,0,,,,0.0,38.986015,-76.95002,0.0,48.3,33,3,0.8,0,0.0,-1,0.0,0.0,0,0.0,0.0183
3632823,1745297889494,0.0187,,,,,,,,,,,,,,,,,,,,,,,,,,,,,,,,,,0,0,0,0,0,0,0,0,0,0,0,0,0,0,0,0,,,,,,,,,,,,,,,,,,,,,
3632843,1745297889514,0.019,0.0,-135,,-0.12,-0.23,0.84,1,-0,-1,0.88,1.14,78,4549,25.9,4.56,,12.19,1.173,93.4,,35.1,5,,,,,,,,,,,,0,0,0,0,0,0,0,0,0,0,0,0,0,0,0,0,,,,,,0.0,,,,,,,,,,,,,,,
3632863,1745297889534,0.0193,,,,,,,,,,,,,,,,,,,,,,,,,,,,,,,,,,0,0,0,0,0,0,0,0,0,0,0,0,0,0,0,0,,,,,,,,,,,,,,,,,,,,,
3632883,1745297889554,0.0196,0.0,-135,,-0.08,-0.23,0.8,1,-0,-1,0.84,1.14,74,4549,25.9,4.56,,13.36,1.219,93.4,,35.1,5,,,,,,,,,,,,0,0,0,0,0,0,0,0,0,0,0,0,0,0,0,0,,,,,,0.0,,,,,,,,,,,,,,,
3632903,1745297889574,0.02,,,,,,,,,,,,,,,,,,,,,,,0,0,0,0,0.0,0.0,0.0,0.0,2.26,,,0,0,0,0,0,0,0,0,0,0,0,0,0,0,0,0,,0,,,,,38.986015,-76.95002,0.04,48.3,33,3,0.8,0,0.0,-1,0.0,,0,0.0,0.02
3632923,1745297889594,0.0203,0.0,-135,,-0.09,-0.14,0.88,0,-0,-0,0.89,1.14,78,4664,28.0,4.85,,13.72,1.227,93.4,,36.5,5,,,,,,,,,,,,0,0,0,0,0,0,0,0,0,0,0,0,0,0,0,0,,,,,,0.0,,,,,,,,,,,,,,,
3632943,1745297889614,0.0206,,,,,,,,,,,,,,,,,,,,,,,,,,,,,,,,,,0,0,0,0,0,0,0,0,0,0,0,0,0,0,0,0,,,,,,,,,,,,,,,,,,,,,
3632963,1745297889634,0.021,0.0,-135,,-0.08,-0.13,0.9,0,-0,-0,0.91,1.14,80,4913,31.9,5.17,,13.84,1.201,93.4,,36.5,5,,,,,,,,,,,,0,0,0,0,0,0,0,0,0,0,0,0,0,0,0,0,,,,,,0.0,,,,,,,,,,,,,,,
3632983,1745297889654,0.0213,,,,,,,,,,,,,,,,,,,,,,,,,,,,,,,,,,0,0,0,0,0,0,0,0,0,0,0,0,0,0,0,0,,,,,,,,,,,,,,,,,,,,,
3633003,1745297889674,0.0216,0.0,-134,,-0.09,-0.14,0.87,-0,-0,-0,0.89,1.14,78,5266,32.3,5.2,,13.65,1.185,93.4,,36.5,5,0,0,0,0,0.0,0.0,0.0,0.0,2.26,,,0,0,0,0,0,0,0,0,0,0,0,0,0,0,0,0,,0,,,,0.0,38.986015,-76.95002,0.08,48.3,33,3,0.8,0,0.0,-1,0.0,0.0,0,0.0,0.0216
3633023,1745297889694,0.022,,,,,,,,,,,,,,,,,,,,,,,,,,,,,,,,,,0,0,0,0,0,0,0,0,0,0,0,0,0,0,0,0,,,,,,,,,,,,,,,,,,,,,
3633043,1745297889714,0.0223,0.0,-135,,-0.1,-0.08,0.92,-0,-0,-0,0.93,1.14,81,6147,32.3,5.13,,13.65,1.185,93.4,,43.9,5,,,,,,,,,,,,0,0,0,0,0,0,0,0,0,0,0,0,0,0,0,0,,,,,,0.0,,,,,,,,,,,,,,,
3633063,1745297889734,0.0226,,,,,,,,,,,,,,,,,,,,,,,,,,,,,,,,,,0,0,0,0,0,0,0,0,0,0,0,0,0,0,0,0,,,,,,,,,,,,,,,,,,,,,
3633083,1745297889754,0.023,0.0,-135,,-0.09,-0.14,0.88,-1,-0,-0,0.9,1.14,79,6147,32.3,5.13,,13.31,1.145,93.4,,43.9,5,,,,,,,,,,,,0,0,0,0,0,0,0,0,0,0,0,0,0,0,0,0,,,,,,0.0,,,,,,,,,,,,,,,
3633103,1745297889774,0.0233,,,,,,,,,,,,,,,,,,,,,,,0,0,0,0,0.0,0.0,0.0,0.0,2.26,,,0,0,0,0,0,0,0,0,0,0,0,0,0,0,0,0,,0,,,,,38.986015,-76.95002,0.04,48.3,33,3,0.8,0,0.0,-1,0.0,,0,0.0,0.0233
3633123,1745297889796,0.0236,0.0,-135,,-0.11,-0.06,0.85,-2,-0,1,0.86,1.14,75,7208,11.2,5.04,,12.21,1.085,93.4,,57.3,5,,,,,,,,,,,,0,0,0,0,0,0,0,0,0,0,0,0,0,0,0,0,,,,,,0.0,,,,,,,,,,,,,,,
3633143,1745297889816,0.024,,,,,,,,,,,,,,,,,,,,,,,,,,,,,,,,,,0,0,0,0,0,0,0,0,0,0,0,0,0,0,0,0,,,,,,,,,,,,,,,,,,,,,
3633163,1745297889836,0.0243,0.0,-135,,-0.12,-0.06,0.9,-1,-0,1,0.91,1.14,79,7681,3.9,3.9,,10.44,0.982,93.4,,57.3,5,,,,,,,,,,,,0,0,0,0,0,0,0,0,0,0,0,0,0,0,0,0,,,,,,0.0,,,,,,,,,,,,,,,
3633183,1745297889856,0.0246,,,,,,,,,,,,,,,,,,,,,,,,,,,,,,,,,,0,0,0,0,0,0,0,0,0,0,0,0,0,0,0,0,,,,,,,,,,,,,,,,,,,,,
3633203,1745297889876,0.025,0.0,-135,,-0.12,-0.12,0.84,-2,-0,1,0.86,1.14,76,8498,1.9,1.62,,8.94,0.866,93.4,,57.3,5,0,0,0,0,0.0,0.0,0.0,0.0,2.26,,,0,0,0,0,0,0,0,0,0,0,0,0,0,0,0,0,,0,,,,0.0,38.986015,-76.95002,0.26,48.3,33,3,0.8,0,0.0,-1,0.0,0.0,0,0.0,0.025
3633223,1745297889896,0.0253,,,,,,,,,,,,,,,,,,,,,,,,,,,,,,,,,,0,0,0,0,0,0,0,0,0,0,0,0,0,0,0,0,,,,,,,,,,,,,,,,,,,,,
3633243,1745297889916,0.0256,0.0,-87,,-0.1,-0.16,0.89,-1,-0,1,0.92,1.14,80,8524,0.0,1.4,,8.94,0.866,93.4,,61.1,5,,,,,,,,,,,,0,0,0,0,0,0,0,0,0,0,0,0,0,0,0,0,,,,,,0.0,,,,,,,,,,,,,,,
3633263,1745297889936,0.026,,,,,,,,,,,,,,,,,,,,,,,,,,,,,,,,,,0,0,0,0,0,0,0,0,0,0,0,0,0,0,0,0,,,,,,,,,,,,,,,,,,,,,
3633283,1745297889956,0.0263,0.0,-129,,-0.09,-0.17,0.9,-0,-0,0,0.92,1.14,80,8524,0.0,1.4,,7.47,0.795,93.4,,61.1,5,,,,,,,,,,,,0,0,0,0,0,0,0,0,0,0,0,0,0,0,0,0,,,,,,0.0,,,,,,,,,,,,,,,
3633303,1745297889976,0.0266,,,,,,,,,,,,,,,,,,,,,,,0,0,0,0,0.0,0.0,0.0,0.0,2.26,,,0,0,0,0,0,0,0,0,0,0,0,0,0,0,0,0,,0,,,,,38.986015,-76.95002,0.18,48.3,33,3,0.8,0,0.0,-1,0.0,,0,0.0,0.0266
3633323,1745297889996,0.027,0.0,-135,,-0.08,-0.12,0.95,1,-0,-0,0.96,1.14,84,7992,0.0,1.4,,6.74,0.858,93.4,,54.7,5,,,,,,,,,,,,0,0,0,0,0,0,0,0,0,0,0,0,0,0,0,0,,,,,,0.0,,,,,,,,,,,,,,,
3633343,1745297890006,0.0273,,,,,,,,,,,,,,,,,,,,,,,,,,,,,,,,,,0,0,0,0,0,0,0,0,0,0,0,0,0,0,0,0,,,,,,,,,,,,,,,,,,,,,
3633363,1745297890026,0.0276,0.0,-135,,-0.07,-0.15,0.98,2,-0,0,0.99,1.14,87,7525,0.0,1.4,,6.43,1.181,93.4,,54.7,5,,,,,,,,,,,,0,0,0,0,0,0,0,0,0,0,0,0,0,0,0,0,,,,,,0.0,,,,,,,,,,,,,,,
3633383,1745297890046,0.028,,,,,,,,,,,,,,,,,,,,,,,,,,,,,,,,,,0,0,0,0,0,0,0,0,0,0,0,0,0,0,0,0,,,,,,,,,,,,,,,,,,,,,
3633403,1745297890066,0.0283,0.0,-135,13.52,-0.08,-0.11,0.96,1,-0,0,0.97,1.14,85,7069,0.0,1.4,15,6.38,1.251,93.4,176,54.7,5,0,0,0,0,0.0,0.0,0.0,0.0,2.26,0,1.0,0,0,0,0,0,0,0,0,0,0,0,0,0,0,0,0,0,0,1.0,0,0,0.0,38.986015,-76.95002,0.07,48.3,33,3,0.8,0,0.0,-1,0.0,0.0,0,0.0,0.0283
3633423,1745297890094,0.0286,,,,,,,,,,,,,,,,,,,,,,,,,,,,,,,,,,0,0,0,0,0,0,0,0,0,0,0,0,0,0,0,0,,,,,,,,,,,,,,,,,,,,,
3633443,1745297890114,0.029,0.0,-135,,-0.05,-0.1,0.99,1,-0,0,0.99,1.14,87,6598,0.0,1.4,,6.38,1.251,93.4,,53.5,5,,,,,,,,,,,,0,0,0,0,0,0,0,0,0,0,0,0,0,0,0,0,,,,,,0.0,,,,,,,,,,,,,,,
3633463,1745297890134,0.0293,,,,,,,,,,,,,,,,,,,,,,,,,,,,,,,,,,0,0,0,0,0,0,0,0,0,0,0,0,0,0,0,0,,,,,,,,,,,,,,,,,,,,,
3633483,1745297890154,0.0296,0.0,-135,,-0.1,-0.12,0.96,-0,-0,0,0.97,1.14,85,6598,0.0,1.4,,6.58,1.25,93.4,,53.5,5,,,,,,,,,,,,0,0,0,0,0,0,0,0,0,0,0,0,0,0,0,0,,,,,,0.0,,,,,,,,,,,,,,,
3633503,1745297890174,0.03,,,,,,,,,,,,,,,,,,,,,,,0,0,0,0,0.0,0.0,0.0,0.0,2.26,,,0,0,0,0,0,0,0,0,0,0,0,0,0,0,0,0,,0,,,,,38.986015,-76.95002,0.08,48.3,33,3,0.8,0,0.0,-1,0.0,,0,0.0,0.03
3633523,1745297890194,0.0303,0.0,-135,,-0.13,-0.24,0.88,-0,-0,0,0.92,1.14,81,6205,0.0,1.4,,6.86,1.249,93.4,,49.3,5,,,,,,,,,,,,0,0,0,0,0,0,0,0,0,0,0,0,0,0,0,0,,,,,,0.0,,,,,,,,,,,,,,,
3633543,1745297890214,0.0306,,,,,,,,,,,,,,,,,,,,,,,,,,,,,,,,,,0,0,0,0,0,0,0,0,0,0,0,0,0,0,0,0,,,,,,,,,,,,,,,,,,,,,
3633563,1745297890234,0.031,0.0,-135,,-0.13,-0.14,0.96,-1,-0,1,0.98,1.14,86,5795,0.0,1.4,,7.27,1.249,93.4,,49.3,5,,,,,,,,,,,,0,0,0,0,0,0,0,0,0,0,0,0,0,0,0,0,,,,,,0.0,,,,,,,,,,,,,,,
3633583,1745297890254,0.0313,,,,,,,,,,,,,,,,,,,,,,,,,,,,,,,,,,0,0,0,0,0,0,0,0,0,0,0,0,0,0,0,0,,,,,,,,,,,,,,,,,,,,,
3633603,1745297890274,0.0316,0.0,-134,,-0.13,-0.14,0.97,-1,-0,1,0.99,1.14,87,5367,0.0,1.4,,7.69,1.249,93.4,,49.3,5,0,0,0,0,0.0,0.0,0.0,0.0,2.25,,,0,0,0,0,0,0,0,0,0,0,0,0,0,0,0,0,,0,,,,0.0,38.986015,-76.95002,0.04,48.3,33,3,0.8,0,0.0,-1,0.0,0.0,0,0.0,0.0316
3633623,1745297890296,0.032,,,,,,,,,,,,,,,,,,,,,,,,,,,,,,,,,,0,0,0,0,0,0,0,0,0,0,0,0,0,0,0,0,,,,,,,,,,,,,,,,,,,,,
3633643,1745297890316,0.0323,0.0,-135,,-0.1,-0.17,0.95,-0,-0,0,0.97,1.14,85,5040,0.0,1.93,,7.69,1.249,93.4,,42.6,5,,,,,,,,,,,,0,0,0,0,0,0,0,0,0,0,0,0,0,0,0,0,,,,,,0.0,,,,,,,,,,,,,,,
3633663,1745297890336,0.0326,,,,,,,,,,,,,,,,,,,,,,,,,,,,,,,,,,0,0,0,0,0,0,0,0,0,0,0,0,0,0,0,0,,,,,,,,,,,,,,,,,,,,,
3633683,1745297890356,0.033,0.0,-135,,-0.12,-0.07,1.04,-1,-0,1,1.05,1.14,92,5040,0.0,1.93,,8.14,1.249,93.4,,42.6,5,,,,,,,,,,,,0,0,0,0,0,0,0,0,0,0,0,0,0,0,0,0,,,,,,0.0,,,,,,,,,,,,,,,
3633703,1745297890376,0.0333,,,,,,,,,,,,,,,,,,,,,,,0,0,0,0,0.0,0.0,0.0,0.0,2.26,,,0,0,0,0,0,0,0,0,0,0,0,0,0,0,0,0,,0,,,,,38.986015,-76.95002,0.0,48.3,33,3,0.8,0,0.0,-1,0.0,,0,0.0,0.0333
3633723,1745297890396,0.0336,0.0,-135,,-0.14,0.04,1.12,-1,-0,1,1.13,1.14,99,4662,0.0,1.45,,8.55,1.25,93.4,,35.2,5,,,,,,,,,,,,0,0,0,0,0,0,0,0,0,0,0,0,0,0,0,0,,,,,,0.0,,,,,,,,,,,,,,,
3633743,1745297890416,0.034,,,,,,,,,,,,,,,,,,,,,,,,,,,,,,,,,,0,0,0,0,0,0,0,0,0,0,0,0,0,0,0,0,,,,,,,,,,,,,,,,,,,,,
3633763,1745297890436,0.0343,0.0,-135,,-0.11,0.05,1.13,-1,-0,1,1.14,1.14,100,4245,1.2,1.79,,9.15,1.251,93.4,,35.2,5,,,,,,,,,,,,0,0,0,0,0,0,0,0,0,0,0,0,0,0,0,0,,,,,,0.0,,,,,,,,,,,,,,,
3633783,1745297890456,0.0347,,,,,,,,,,,,,,,,,,,,,,,,,,,,,,,,,,0,0,0,0,0,0,0,0,0,0,0,0,0,0,0,0,,,,,,,,,,,,,,,,,,,,,
3633803,1745297890476,0.035,0.0,-135,,-0.1,0.08,1.14,-1,-0,1,1.15,1.15,100,3907,7.4,2.53,,10.24,1.251,93.4,,35.2,5,0,0,0,0,0.0,0.0,0.0,0.0,2.26,,,0,0,0,0,0,0,0,0,0,0,0,0,0,0,0,0,,0,,,,0.0,38.986015,-76.95002,0.04,48.3,33,3,0.8,0,0.0,-1,0.0,0.0,0,0.0,0.035
3633823,1745297890496,0.0353,,,,,,,,,,,,,,,,,,,,,,,,,,,,,,,,,,0,0,0,0,0,0,0,0,0,0,0,0,0,0,0,0,,,,,,,,,,,,,,,,,,,,,
3633843,1745297890516,0.0356,0.0,-135,,-0.09,0.03,1.08,-1,-0,1,1.08,1.15,94,3647,14.5,3.88,,10.24,1.251,93.4,,27.8,5,,,,,,,,,,,,0,0,0,0,0,0,0,0,0,0,0,0,0,0,0,0,,,,,,0.0,,,,,,,,,,,,,,,
3633863,1745297890536,0.036,,,,,,,,,,,,,,,,,,,,,,,,,,,,,,,,,,0,0,0,0,0,0,0,0,0,0,0,0,0,0,0,0,,,,,,,,,,,,,,,,,,,,,
3633883,1745297890556,0.0363,0.0,-135,,-0.12,-0.05,1.12,-0,-0,1,1.13,1.15,98,3647,14.5,3.88,,11.76,1.25,93.4,,27.8,5,,,,,,,,,,,,0,0,0,0,0,0,0,0,0,0,0,0,0,0,0,0,,,,,,0.0,,,,,,,,,,,,,,,
3633903,1745297890576,0.0366,,,,,,,,,,,,,,,,,,,,,,,0,0,0,0,0.0,0.0,0.0,0.0,2.25,,,0,0,0,0,0,0,0,0,0,0,0,0,0,0,0,0,,0,,,,,38.986015,-76.95002,0.0,48.3,33,3,0.8,0,0.0,-1,0.0,,0,0.0,0.0366
3633923,1745297890595,0.037,0.0,-135,,-0.1,0.03,1.12,-1,-0,1,1.12,1.15,98,3504,21.3,4.32,,13.25,1.25,93.4,,26.3,5,,,,,,,,,,,,0,0,0,0,0,0,0,0,0,0,0,0,0,0,0,0,,,,,,0.0,,,,,,,,,,,,,,,
3633943,1745297890615,0.0373,,,,,,,,,,,,,,,,,,,,,,,,,,,,,,,,,,0,0,0,0,0,0,0,0,0,0,0,0,0,0,0,0,,,,,,,,,,,,,,,,,,,,,
3633963,1745297890635,0.0376,0.0,-135,,-0.09,0.02,1.11,-1,-0,1,1.11,1.15,97,3671,23.8,4.48,,13.72,1.25,93.4,,26.3,5,,,,,,,,,,,,0,0,0,0,0,0,0,0,0,0,0,0,0,0,0,0,,,,,,0.0,,,,,,,,,,,,,,,
3633983,1745297890655,0.038,,,,,,,,,,,,,,,,,,,,,,,,,,,,,,,,,,0,0,0,0,0,0,0,0,0,0,0,0,0,0,0,0,,,,,,,,,,,,,,,,,,,,,
3634003,1745297890675,0.0383,0.0,-135,,-0.12,-0.03,1.1,-0,-0,0,1.1,1.15,96,3787,24.1,4.44,,13.8,1.249,93.4,,26.3,5,0,0,0,0,0.0,0.0,0.0,0.0,2.26,,,0,0,0,0,0,0,0,0,0,0,0,0,0,0,0,0,,0,,,,0.0,38.986015,-76.95002,0.08,48.3,33,3,0.8,0,0.0,-1,0.0,0.0,0,0.0,0.0383
3634023,1745297890695,0.0386,,,,,,,,,,,,,,,,,,,,,,,,,,,,,,,,,,0,0,0,0,0,0,0,0,0,0,0,0,0,0,0,0,,,,,,,,,,,,,,,,,,,,,
3634043,1745297890715,0.039,0.0,-135,,-0.1,-0.04,1.06,0,-0,0,1.07,1.15,93,4087,4.2,4.01,,13.8,1.249,93.4,,29.0,5,,,,,,,,,,,,0,0,0,0,0,0,0,0,0,0,0,0,0,0,0,0,,,,,,0.0,,,,,,,,,,,,,,,
3634063,1745297890735,0.0393,,,,,,,,,,,,,,,,,,,,,,,,,,,,,,,,,,0,0,0,0,0,0,0,0,0,0,0,0,0,0,0,0,,,,,,,,,,,,,,,,,,,,,
3634083,1745297890755,0.0396,0.0,-135,,-0.12,-0.06,1.09,-0,-0,0,1.1,1.15,96,4087,4.2,4.01,,13.07,1.248,93.4,,29.0,5,,,,,,,,,,,,0,0,0,0,0,0,0,0,0,0,0,0,0,0,0,0,,,,,,0.0,,,,,,,,,,,,,,,
3634103,1745297890775,0.04,,,,,,,,,,,,,,,,,,,,,,,0,0,0,0,0.0,0.0,0.0,0.0,2.26,,,0,0,0,0,0,0,0,0,0,0,0,0,0,0,0,0,,0,,,,,38.986015,-76.95002,0.04,48.3,33,3,0.8,0,0.0,-1,0.0,,0,0.0,0.04
3634123,1745297890795,0.0403,0.0,-135,,-0.11,-0.07,1.03,1,-0,-0,1.04,1.15,91,4151,0.0,2.53,,12.23,1.247,93.4,,30.8,5,,,,,,,,,,,,0,0,0,0,0,0,0,0,0,0,0,0,0,0,0,0,,,,,,0.0,,,,,,,,,,,,,,,
3634143,1745297890815,0.0406,,,,,,,,,,,,,,,,,,,,,,,,,,,,,,,,,,0,0,0,0,0,0,0,0,0,0,0,0,0,0,0,0,,,,,,,,,,,,,,,,,,,,,
3634163,1745297890835,0.041,0.0,-135,,-0.1,-0.01,1.06,-0,-0,0,1.07,1.15,93,4061,0.0,2.49,,11.64,1.196,93.4,,30.8,5,,,,,,,,,,,,0,0,0,0,0,0,0,0,0,0,0,0,0,0,0,0,,,,,,0.0,,,,,,,,,,,,,,,
3634183,1745297890855,0.0413,,,,,,,,,,,,,,,,,,,,,,,,,,,,,,,,,,0,0,0,0,0,0,0,0,0,0,0,0,0,0,0,0,,,,,,,,,,,,,,,,,,,,,
3634203,1745297890875,0.0416,0.0,-135,,-0.11,-0.04,1.05,0,-0,0,1.06,1.15,92,3805,0.0,2.53,,11.38,1.217,93.4,,30.8,5,0,0,0,0,0.0,0.0,0.0,0.0,2.26,,,0,0,0,0,0,0,0,0,0,0,0,0,0,0,0,0,,0,,,,0.0,38.986015,-76.95002,0.05,48.3,33,3,0.8,0,0.0,-1,0.0,0.0,0,0.0,0.0416
3634223,1745297890895,0.042,,,,,,,,,,,,,,,,,,,,,,,,,,,,,,,,,,0,0,0,0,0,0,0,0,0,0,0,0,0,0,0,0,,,,,,,,,,,,,,,,,,,,,
3634243,1745297890915,0.0423,0.0,-132,,-0.1,-0.04,1.05,0,-0,-0,1.06,1.15,92,3682,0.0,2.62,,11.38,1.217,93.4,,27.8,5,,,,,,,,,,,,0,0,0,0,0,0,0,0,0,0,0,0,0,0,0,0,,,,,,0.0,,,,,,,,,,,,,,,
3634263,1745297890935,0.0426,,,,,,,,,,,,,,,,,,,,,,,,,,,,,,,,,,0,0,0,0,0,0,0,0,0,0,0,0,0,0,0,0,,,,,,,,,,,,,,,,,,,,,
3634283,1745297890955,0.043,0.0,-135,,-0.1,-0.09,1.0,1,-0,-0,1.01,1.15,88,3682,0.0,2.62,,11.37,1.245,93.4,,27.8,5,,,,,,,,,,,,0,0,0,0,0,0,0,0,0,0,0,0,0,0,0,0,,,,,,0.0,,,,,,,,,,,,,,,
3634303,1745297890975,0.0433,,,,,,,,,,,,,,,,,,,,,,,0,0,0,0,0.0,0.0,0.0,0.0,2.26,,,0,0,0,0,0,0,0,0,0,0,0,0,0,0,0,0,,0,,,,,38.986015,-76.95002,0.0,48.3,33,3,0.8,0,0.0,-1,0.0,,0,0.0,0.0433
3634323,1745297890995,0.0436,0.0,-135,,-0.11,-0.12,1.07,1,-0,-0,1.08,1.15,94,3478,0.0,2.67,,11.58,1.252,93.4,,25.6,5,,,,,,,,,,,,0,0,0,0,0,0,0,0,0,0,0,0,0,0,0,0,,,,,,0.0,,,,,,,,,,,,,,,
3634343,1745297891007,0.044,,,,,,,,,,,,,,,,,,,,,,,,,,,,,,,,,,0,0,0,0,0,0,0,0,0,0,0,0,0,0,0,0,,,,,,,,,,,,,,,,,,,,,
3634363,1745297891027,0.0443,0.0,-135,,-0.1,-0.09,0.96,1,-0,-0,0.97,1.15,85,3401,0.2,2.72,,11.8,1.252,93.4,,25.6,5,,,,,,,,,,,,0,0,0,0,0,0,0,0,0,0,0,0,0,0,0,0,,,,,,0.0,,,,,,,,,,,,,,,
3634383,1745297891047,0.0446,,,,,,,,,,,,,,,,,,,,,,,,,,,,,,,,,,0,0,0,0,0,0,0,0,0,0,0,0,0,0,0,0,,,,,,,,,,,,,,,,,,,,,
3634403,1745297891067,0.045,0.0,-135,13.55,-0.08,-0.05,0.99,0,-0,0,1.0,1.15,87,3248,1.3,2.85,15,12.04,1.252,93.4,180,25.6,5,0,0,0,0,0.0,0.0,0.0,0.0,2.26,0,1.0,0,0,0,0,0,0,0,0,0,0,0,0,0,0,0,0,0,0,1.0,0,0,0.0,38.986015,-76.95002,0.07,48.3,33,3,0.8,0,0.0,-1,0.0,0.0,0,0.0,0.045
3634423,1745297891087,0.0453,,,,,,,,,,,,,,,,,,,,,,,,,,,,,,,,,,0,0,0,0,0,0,0,0,0,0,0,0,0,0,0,0,,,,,,,,,,,,,,,,,,,,,
3634443,1745297891109,0.0457,0.0,-132,,-0.07,-0.1,1.06,0,-0,0,1.07,1.15,93,3017,8.7,3.93,,12.04,1.252,93.4,,23.4,5,,,,,,,,,,,,0,0,0,0,0,0,0,0,0,0,0,0,0,0,0,0,,,,,,0.0,,,,,,,,,,,,,,,
3634463,1745297891129,0.046,,,,,,,,,,,,,,,,,,,,,,,,,,,,,,,,,,0,0,0,0,0,0,0,0,0,0,0,0,0,0,0,0,,,,,,,,,,,,,,,,,,,,,
3634483,1745297891149,0.0463,0.0,-135,,-0.07,-0.16,1.12,0,-0,0,1.13,1.15,99,3017,8.7,3.93,,12.65,1.252,93.4,,23.4,5,,,,,,,,,,,,0,0,0,0,0,0,0,0,0,0,0,0,0,0,0,0,,,,,,0.0,,,,,,,,,,,,,,,
3634503,1745297891169,0.0466,,,,,,,,,,,,,,,,,,,,,,,0,0,0,0,0.0,0.0,0.0,0.0,2.26,,,0,0,0,0,0,0,0,0,0,0,0,0,0,0,0,0,,0,,,,,38.986015,-76.95002,0.07,48.3,33,3,0.8,0,0.0,-1,0.0,,0,0.0,0.0466
3634523,1745297891197,0.047,0.0,-135,,-0.09,-0.19,1.13,0,-0,-0,1.15,1.15,100,3067,19.3,4.2,,13.55,1.251,93.4,,22.6,5,,,,,,,,,,,,0,0,0,0,0,0,0,0,0,0,0,0,0,0,0,0,,,,,,0.0,,,,,,,,,,,,,,,
3634543,1745297891217,0.0473,,,,,,,,,,,,,,,,,,,,,,,,,,,,,,,,,,0,0,0,0,0,0,0,0,0,0,0,0,0,0,0,0,,,,,,,,,,,,,,,,,,,,,
3634563,1745297891237,0.0476,0.0,-135,,-0.07,-0.08,1.04,1,-0,-0,1.05,1.15,91,3283,32.2,4.68,,14.14,1.249,93.4,,22.6,5,,,,,,,,,,,,0,0,0,0,0,0,0,0,0,0,0,0,0,0,0,0,,,,,,0.0,,,,,,,,,,,,,,,
3634583,1745297891257,0.048,,,,,,,,,,,,,,,,,,,,,,,,,,,,,,,,,,0,0,0,0,0,0,0,0,0,0,0,0,0,0,0,0,,,,,,,,,,,,,,,,,,,,,
3634603,1745297891277,0.0483,0.0,-135,,-0.06,-0.17,1.04,1,-0,-0,1.05,1.15,92,3497,38.3,4.44,,14.23,1.248,93.4,,22.6,5,0,0,0,0,0.0,0.0,0.0,0.0,2.25,,,0,0,0,0,0,0,0,0,0,0,0,0,0,0,0,0,,0,,,,0.0,38.986015,-76.95002,0.12,48.4,33,3,0.8,0,0.0,-1,0.0,0.0,0,0.0,0.0483
3634623,1745297891295,0.0486,,,,,,,,,,,,,,,,,,,,,,,,,,,,,,,,,,0,0,0,0,0,0,0,0,0,0,0,0,0,0,0,0,,,,,,,,,,,,,,,,,,,,,
3634643,1745297891315,0.049,0.0,-135,,-0.05,-0.13,1.04,1,-0,-0,1.05,1.15,91,3898,40.9,4.38,,14.23,1.248,93.4,,27.2,5,,,,,,,,,,,,0,0,0,0,0,0,0,0,0,0,0,0,0,0,0,0,,,,,,0.0,,,,,,,,,,,,,,,
3634663,1745297891335,0.0493,,,,,,,,,,,,,,,,,,,,,,,,,,,,,,,,,,0,0,0,0,0,0,0,0,0,0,0,0,0,0,0,0,,,,,,,,,,,,,,,,,,,,,
3634683,1745297891355,0.0496,0.0,-134,,-0.09,-0.23,0.99,1,-0,-0,1.02,1.15,88,3898,40.9,4.38,,14.23,1.248,93.4,,27.2,5,,,,,,,,,,,,0,0,0,0,0,0,0,0,0,0,0,0,0,0,0,0,,,,,,0.0,,,,,,,,,,,,,,,
3634703,1745297891375,0.05,,,,,,,,,,,,,,,,,,,,,,,0,0,0,0,0.0,0.0,0.0,0.0,2.25,,,0,0,0,0,0,0,0,0,0,0,0,0,0,0,0,0,,0,,,,,38.986015,-76.95002,0.05,48.4,33,3,0.8,0,0.0,-1,0.0,,0,0.0,0.05
3634723,1745297891397,0.0503,0.0,-132,,-0.12,-0.2,0.99,1,-0,-0,1.01,1.15,88,4472,41.1,4.3,,14.22,1.247,93.4,,33.8,5,,,,,,,,,,,,0,0,0,0,0,0,0,0,0,0,0,0,0,0,0,0,,,,,,0.0,,,,,,,,,,,,,,,
3634743,1745297891417,0.0506,,,,,,,,,,,,,,,,,,,,,,,,,,,,,,,,,,0,0,0,0,0,0,0,0,0,0,0,0,0,0,0,0,,,,,,,,,,,,,,,,,,,,,
3634763,1745297891437,0.051,0.0,-135,,-0.12,-0.29,0.91,1,-0,-1,0.97,1.15,84,4592,43.4,4.74,,14.26,1.24,93.4,,33.8,5,,,,,,,,,,,,0,0,0,0,0,0,0,0,0,0,0,0,0,0,0,0,,,,,,0.0,,,,,,,,,,,,,,,
3634783,1745297891457,0.0513,,,,,,,,,,,,,,,,,,,,,,,,,,,,,,,,,,0,0,0,0,0,0,0,0,0,0,0,0,0,0,0,0,,,,,,,,,,,,,,,,,,,,,
3634803,1745297891477,0.0516,0.0,-135,,-0.12,-0.28,0.93,1,-0,-0,0.97,1.15,85,4914,46.1,5.12,,14.24,1.229,93.4,,33.8,5,0,0,0,0,0.0,0.0,0.0,0.0,2.26,,,0,0,0,0,0,0,0,0,0,0,0,0,0,0,0,0,,0,,,,0.0,38.986015,-76.95002,0.04,48.4,33,3,0.8,0,0.0,-1,0.0,0.0,0,0.0,0.0516
3634823,1745297891494,0.052,,,,,,,,,,,,,,,,,,,,,,,,,,,,,,,,,,0,0,0,0,0,0,0,0,0,0,0,0,0,0,0,0,,,,,,,,,,,,,,,,,,,,,
3634843,1745297891514,0.0523,0.0,-135,,-0.07,-0.25,0.95,1,-0,-1,0.99,1.15,86,5576,47.8,5.28,,14.24,1.229,93.4,,39.7,5,,,,,,,,,,,,0,0,0,0,0,0,0,0,0,0,0,0,0,0,0,0,,,,,,0.0,,,,,,,,,,,,,,,
3634863,1745297891534,0.0526,,,,,,,,,,,,,,,,,,,,,,,,,,,,,,,,,,0,0,0,0,0,0,0,0,0,0,0,0,0,0,0,0,,,,,,,,,,,,,,,,,,,,,
3634883,1745297891554,0.053,0.0,-135,,-0.03,-0.29,0.95,1,-0,-1,1.0,1.15,87,5576,47.8,5.28,,14.19,1.182,93.4,,39.7,5,,,,,,,,,,,,0,0,0,0,0,0,0,0,0,0,0,0,0,0,0,0,,,,,,0.0,,,,,,,,,,,,,,,
3634903,1745297891574,0.0533,,,,,,,,,,,,,,,,,,,,,,,0,0,0,0,0.0,0.0,0.0,0.0,2.26,,,0,0,0,0,0,0,0,0,0,0,0,0,0,0,0,0,,0,,,,,38.986015,-76.95002,0.04,48.4,33,3,0.8,0,0.0,-1,0.0,,0,0.0,0.0533
3634923,1745297891596,0.0536,0.0,-134,,-0.03,-0.26,0.96,0,-0,-1,1.0,1.15,87,6418,49.1,5.34,,13.94,0.979,93.4,,50.9,5,,,,,,,,,,,,0,0,0,0,0,0,0,0,0,0,0,0,0,0,0,0,,,,,,0.0,,,,,,,,,,,,,,,
3634943,1745297891616,0.054,,,,,,,,,,,,,,,,,,,,,,,,,,,,,,,,,,0,0,0,0,0,0,0,0,0,0,0,0,0,0,0,0,,,,,,,,,,,,,,,,,,,,,
3634963,1745297891636,0.0543,0.0,-135,,-0.02,-0.18,0.96,-0,-0,-0,0.98,1.15,85,7607,49.2,4.96,,13.63,0.914,93.4,,50.9,5,,,,,,,,,,,,0,0,0,0,0,0,0,0,0,0,0,0,0,0,0,0,,,,,,0.0,,,,,,,,,,,,,,,
3634983,1745297891656,0.0546,,,,,,,,,,,,,,,,,,,,,,,,,,,,,,,,,,0,0,0,0,0,0,0,0,0,0,0,0,0,0,0,0,,,,,,,,,,,,,,,,,,,,,
3635003,1745297891676,0.055,0.0,-135,,-0.06,-0.33,0.94,0,-0,-0,0.99,1.15,87,8828,35.4,5.0,,12.8,0.937,93.4,,50.9,5,0,0,0,0,0.0,0.0,0.0,0.0,2.25,,,0,0,0,0,0,0,0,0,0,0,0,0,0,0,0,0,,0,,,,0.0,38.986015,-76.95002,0.04,48.4,33,3,0.8,0,0.0,-1,0.0,0.0,0,0.0,0.055
3635023,1745297891696,0.0553,,,,,,,,,,,,,,,,,,,,,,,,,,,,,,,,,,0,0,0,0,0,0,0,0,0,0,0,0,0,0,0,0,,,,,,,,,,,,,,,,,,,,,
3635043,1745297891716,0.0556,0.0,-135,,-0.07,-0.34,0.92,1,-0,-1,0.98,1.15,86,10297,27.9,4.95,,12.8,0.937,93.4,,60.9,5,,,,,,,,,,,,0,0,0,0,0,0,0,0,0,0,0,0,0,0,0,0,,,,,,0.0,,,,,,,,,,,,,,,
3635063,1745297891736,0.056,,,,,,,,,,,,,,,,,,,,,,,,,,,,,,,,,,0,0,0,0,0,0,0,0,0,0,0,0,0,0,0,0,,,,,,,,,,,,,,,,,,,,,
3635083,1745297891756,0.0563,0.0,-135,,-0.07,-0.31,0.9,1,-0,-1,0.96,1.15,83,10297,27.9,4.95,,11.54,1.017,93.4,,60.9,5,,,,,,,,,,,,0,0,0,0,0,0,0,0,0,0,0,0,0,0,0,0,,,,,,0.0,,,,,,,,,,,,,,,
3635103,1745297891776,0.0566,,,,,,,,,,,,,,,,,,,,,,,0,0,0,0,0.0,0.0,0.0,0.0,2.24,,,0,0,0,0,0,0,0,0,0,0,0,0,0,0,0,0,,0,,,,,38.986015,-76.95002,0.0,48.4,33,3,0.8,0,0.0,-1,0.0,,0,0.0,0.0566
3635123,1745297891796,0.057,0.0,-129,,-0.09,-0.43,0.9,2,-0,-2,1.0,1.15,87,11673,33.4,3.58,,11.06,0.913,93.4,,58.4,5,,,,,,,,,,,,0,0,0,0,0,0,0,0,0,0,0,0,0,0,0,0,,,,,,0.0,,,,,,,,,,,,,,,
3635143,1745297891816,0.0573,,,,,,,,,,,,,,,,,,,,,,,,,,,,,,,,,,0,0,0,0,0,0,0,0,0,0,0,0,0,0,0,0,,,,,,,,,,,,,,,,,,,,,
3635163,1745297891836,0.0576,0.0,-135,,-0.11,-0.41,0.87,1,-0,-1,0.97,1.15,84,12737,64.1,4.64,,12.08,0.816,93.4,,58.4,5,,,,,,,,,,,,0,0,0,0,0,0,0,0,0,0,0,0,0,0,0,0,,,,,,0.0,,,,,,,,,,,,,,,
3635183,1745297891856,0.058,,,,,,,,,,,,,,,,,,,,,,,,,,,,,,,,,,0,0,0,0,0,0,0,0,0,0,0,0,0,0,0,0,,,,,,,,,,,,,,,,,,,,,
3635203,1745297891876,0.0583,0.0,-135,,-0.05,-0.18,0.81,-0,-0,-0,0.83,1.15,72,13944,91.1,4.52,,12.61,0.849,93.4,,58.4,5,0,0,0,0,0.0,0.0,0.0,0.0,2.26,,,0,0,0,0,0,0,0,0,0,0,0,0,0,0,0,0,,0,,,,0.0,38.986015,-76.95002,0.05,48.4,33,3,0.8,0,0.0,-1,0.0,0.0,0,0.0,0.0583
3635223,1745297891896,0.0586,,,,,,,,,,,,,,,,,,,,,,,,,,,,,,,,,,0,0,0,0,0,0,0,0,0,0,0,0,0,0,0,0,,,,,,,,,,,,,,,,,,,,,
3635243,1745297891916,0.059,0.0,-129,,0.04,-0.22,0.78,1,1,-0,0.81,1.15,71,12601,99.3,4.8,,12.61,0.849,93.4,,69.8,5,,,,,,,,,,,,0,0,0,0,0,0,0,0,0,0,0,0,0,0,0,0,,,,,,0.0,,,,,,,,,,,,,,,
3635263,1745297891936,0.0593,,,,,,,,,,,,,,,,,,,,,,,,,,,,,,,,,,0,0,0,0,0,0,0,0,0,0,0,0,0,0,0,0,,,,,,,,,,,,,,,,,,,,,
3635283,1745297891956,0.0596,0.0,-117,,0.15,-0.42,0.76,3,1,-0,0.88,1.15,77,12601,99.3,4.8,,13.23,0.9,93.4,,69.8,5,,,,,,,,,,,,0,0,0,0,0,0,0,0,0,0,0,0,0,0,0,0,,,,,,0.0,,,,,,,,,,,,,,,
3635303,1745297891976,0.06,,,,,,,,,,,,,,,,,,,,,,,0,0,0,0,0.0,0.0,0.0,0.0,2.26,,,0,0,0,0,0,0,0,0,0,0,0,0,0,0,0,0,,0,,,,,38.986015,-76.95002,0.05,48.4,33,3,0.8,0,0.0,-1,0.0,,0,0.0,0.06
3635323,1745297891996,0.0603,0.0,-95,,0.21,-0.39,0.83,3,1,1,0.93,1.15,81,11306,99.3,5.42,,13.73,1.243,93.4,,64.8,5,,,,,,,,,,,,0,0,0,0,0,0,0,0,0,0,0,0,0,0,0,0,,,,,,0.0,,,,,,,,,,,,,,,
3635343,1745297892008,0.0606,,,,,,,,,,,,,,,,,,,,,,,,,,,,,,,,,,0,0,0,0,0,0,0,0,0,0,0,0,0,0,0,0,,,,,,,,,,,,,,,,,,,,,
3635363,1745297892028,0.061,0.0,-117,,0.27,-0.39,0.92,5,1,0,1.03,1.15,90,10851,99.4,5.63,,13.65,1.194,93.4,,64.8,5,,,,,,,,,,,,0,0,0,0,0,0,0,0,0,0,0,0,0,0,0,0,,,,,,0.0,,,,,,,,,,,,,,,
3635383,1745297892048,0.0613,,,,,,,,,,,,,,,,,,,,,,,,,,,,,,,,,,0,0,0,0,0,0,0,0,0,0,0,0,0,0,0,0,,,,,,,,,,,,,,,,,,,,,
3635403,1745297892068,0.0616,0.0,-117,13.51,0.27,-0.48,0.98,8,0,0,1.12,1.15,97,11034,99.4,5.58,15,13.84,1.03,93.4,182,64.8,5,0,0,24,25,0.0,0.0,0.0,0.0,2.25,0,1.0,0,0,0,0,0,0,0,0,0,0,0,0,0,0,0,0,0,0,1.0,0,0,0.0,38.986015,-76.95002,0.72,48.4,33,3,0.8,0,0.0,-1,0.0,0.0,0,0.0,0.0616
3635423,1745297892096,0.062,,,,,,,,,,,,,,,,,,,,,,,,,,,,,,,,,,0,0,0,0,0,0,0,0,0,0,0,0,0,0,0,0,,,,,,,,,,,,,,,,,,,,,
3635443,1745297892116,0.0623,0.0,-64,,0.29,-0.45,0.94,10,0,-0,1.08,1.15,94,11588,99.3,5.38,,13.84,1.03,93.4,,67.5,5,,,,,,,,,,,,0,0,0,0,0,0,0,0,0,0,0,0,0,0,0,0,,,,,,0.0,,,,,,,,,,,,,,,
3635463,1745297892136,0.0626,,,,,,,,,,,,,,,,,,,,,,,,,,,,,,,,,,0,0,0,0,0,0,0,0,0,0,0,0,0,0,0,0,,,,,,,,,,,,,,,,,,,,,
3635483,1745297892156,0.063,0.0,-87,,0.38,-0.47,0.95,12,0,-0,1.12,1.15,98,11588,99.3,5.38,,13.72,0.961,93.4,,67.5,5,,,,,,,,,,,,0,0,0,0,0,0,0,0,0,0,0,0,0,0,0,0,,,,,,0.0,,,,,,,,,,,,,,,
3635503,1745297892176,0.0633,,,,,,,,,,,,,,,,,,,,,,,4,3,35,36,0.0,0.0,0.0,0.0,2.24,,,0,0,0,0,0,0,0,0,0,0,0,0,0,0,0,0,,0,,,,,38.986015,-76.95002,3.76,48.4,33,3,0.8,0,0.0,-1,0.0,,0,0.0001,0.0633
3635523,1745297892192,0.0636,0.0,-57,,0.46,-0.29,0.99,13,0,0,1.13,1.15,98,11807,99.5,5.28,,13.71,0.942,93.4,,66.7,5,,,,,,,,,,,,0,0,0,0,0,0,0,0,0,0,0,0,0,0,0,0,,,,,,0.0,,,,,,,,,,,,,,,
3635543,1745297892212,0.064,,,,,,,,,,,,,,,,,,,,,,,,,,,,,,,,,,0,0,0,0,0,0,0,0,0,0,0,0,0,0,0,0,,,,,,,,,,,,,,,,,,,,,
3635563,1745297892232,0.0643,0.0,-57,,0.48,-0.35,0.99,16,-0,0,1.15,1.15,100,11892,99.5,5.26,,13.77,0.944,93.4,,66.7,5,,,,,,,,,,,,0,0,0,0,0,0,0,0,0,0,0,0,0,0,0,0,,,,,,0.0,,,,,,,,,,,,,,,
3635583,1745297892252,0.0646,,,,,,,,,,,,,,,,,,,,,,,,,,,,,,,,,,0,0,0,0,0,0,0,0,0,0,0,0,0,0,0,0,,,,,,,,,,,,,,,,,,,,,
3635603,1745297892272,0.065,0.0,-42,,0.5,-0.21,0.95,17,-0,1,1.09,1.15,95,12090,99.5,5.2,,13.71,0.967,93.4,,66.7,5,6,12,34,37,0.0,213.0,0.0,0.0,2.25,,,0,0,0,0,0,0,0,0,0,0,0,0,0,0,0,0,,0,,,,0.0,38.986015,-76.95002,7.4,48.4,33,3,0.8,0,0.0,-1,0.0,0.0,0,0.0002,0.065
3635623,1745297892296,0.0653,,,,,,,,,,,,,,,,,,,,,,,,,,,,,,,,,,0,0,0,0,0,0,0,0,0,0,0,0,0,0,0,0,,,,,,,,,,,,,,,,,,,,,
3635643,1745297892316,0.0656,0.0,-27,,0.56,-0.31,0.92,19,-0,0,1.12,1.15,97,12325,99.4,5.12,,13.71,0.967,93.4,,66.4,5,,,,,,,,,,,,0,0,0,0,0,0,0,0,0,0,0,0,0,0,0,0,,,,,,0.0,,,,,,,,,,,,,,,
3635663,1745297892336,0.066,,,,,,,,,,,,,,,,,,,,,,,,,,,,,,,,,,0,0,0,0,0,0,0,0,0,0,0,0,0,0,0,0,,,,,,,,,,,,,,,,,,,,,
3635683,1745297892356,0.0663,0.0,-27,,0.58,-0.24,0.95,19,-0,0,1.14,1.15,99,12325,99.4,5.12,,13.61,0.952,93.4,,66.4,5,,,,,,,,,,,,0,0,0,0,0,0,0,0,0,0,0,0,0,0,0,0,,,,,,0.0,,,,,,,,,,,,,,,
3635703,1745297892376,0.0667,,,,,,,,,,,,,,,,,,,,,,,7,12,37,38,0.0,19.0,0.0,0.0,2.25,,,0,0,0,0,0,0,0,0,0,0,0,0,0,0,0,0,,1,,,,,38.986019,-76.950027,10.72,48.4,33,3,0.8,0,0.0,-1,0.0,,0,0.0004,0.0667
3635723,1745297892396,0.067,0.0,-0,,0.52,-0.33,1.01,23,-0,-0,1.19,1.19,100,12441,99.5,5.08,,13.55,0.964,93.4,,65.9,5,,,,,,,,,,,,0,0,0,0,0,0,0,0,0,0,0,0,0,0,0,0,,,,,,0.0,,,,,,,,,,,,,,,
3635743,1745297892416,0.0673,,,,,,,,,,,,,,,,,,,,,,,,,,,,,,,,,,0,0,0,0,0,0,0,0,0,0,0,0,0,0,0,0,,,,,,,,,,,,,,,,,,,,,
3635763,1745297892436,0.0676,0.0,-8,,0.53,-0.33,1.04,24,-0,-1,1.22,1.22,100,12496,99.4,5.05,,13.68,0.97,93.4,,65.9,5,,,,,,,,,,,,0,0,0,0,0,0,0,0,0,0,0,0,0,0,0,0,,,,,,0.0,,,,,,,,,,,,,,,
3635783,1745297892456,0.068,,,,,,,,,,,,,,,,,,,,,,,,,,,,,,,,,,0,0,0,0,0,0,0,0,0,0,0,0,0,0,0,0,,,,,,,,,,,,,,,,,,,,,
3635803,1745297892476,0.0683,0.0,17,,0.58,-0.32,1.03,26,-1,-1,1.22,1.22,100,12647,98.3,4.97,,13.45,0.974,93.4,,65.9,5,9,12,39,40,0.0,64.0,0.0,0.0,2.25,,,0,0,0,0,0,0,0,0,0,0,0,0,0,0,0,0,,0,,,,0.0,38.986019,-76.950027,13.16,48.4,33,3,0.8,0,0.0,-1,0.0,0.0,0,0.0006,0.0683
3635823,1745297892495,0.0686,,,,,,,,,,,,,,,,,,,,,,,,,,,,,,,,,,0,0,0,0,0,0,0,0,0,0,0,0,0,0,0,0,,,,,,,,,,,,,,,,,,,,,
3635843,1745297892515,0.069,0.0,31,,0.6,-0.21,1.04,28,-1,-0,1.22,1.22,100,12740,71.8,5.06,,13.45,0.974,93.4,,65.2,5,,,,,,,,,,,,0,0,0,0,0,0,0,0,0,0,0,0,0,0,0,0,,,,,,0.0,,,,,,,,,,,,,,,
3635863,1745297892535,0.0693,,,,,,,,,,,,,,,,,,,,,,,,,,,,,,,,,,0,0,0,0,0,0,0,0,0,0,0,0,0,0,0,0,,,,,,,,,,,,,,,,,,,,,
3635883,1745297892555,0.0696,0.0,42,,0.64,-0.25,1.07,27,-1,-0,1.27,1.27,100,12740,71.8,5.06,,13.16,0.973,93.4,,65.2,5,,,,,,,,,,,,0,0,0,0,0,0,0,0,0,0,0,0,0,0,0,0,,,,,,0.0,,,,,,,,,,,,,,,
3635903,1745297892575,0.07,,,,,,,,,,,,,,,,,,,,,,,11,10,38,39,0.0,86.0,0.0,0.0,2.25,,,0,0,0,0,0,0,0,0,0,0,0,0,0,0,0,0,,1,,,,,38.986023,-76.950035,16.48,48.4,33,3,0.8,0,0.0,-1,0.0,,0,0.0009,0.07
3635923,1745297892595,0.0703,0.0,45,,0.61,-0.29,1.06,27,-1,-1,1.25,1.27,99,12715,61.6,4.63,,12.92,0.943,93.4,,69.5,5,,,,,,,,,,,,0,0,0,0,0,0,0,0,0,0,0,0,0,0,0,0,,,,,,0.0,,,,,,,,,,,,,,,
3635943,1745297892615,0.0706,,,,,,,,,,,,,,,,,,,,,,,,,,,,,,,,,,0,0,0,0,0,0,0,0,0,0,0,0,0,0,0,0,,,,,,,,,,,,,,,,,,,,,
3635963,1745297892635,0.071,0.0,70,,0.63,-0.3,1.01,26,-1,-1,1.23,1.27,97,12552,54.8,4.43,,12.56,0.942,93.4,,69.5,5,,,,,,,,,,,,0,0,0,0,0,0,0,0,0,0,0,0,0,0,0,0,,,,,,0.0,,,,,,,,,,,,,,,
3635983,1745297892655,0.0713,,,,,,,,,,,,,,,,,,,,,,,,,,,,,,,,,,0,0,0,0,0,0,0,0,0,0,0,0,0,0,0,0,,,,,,,,,,,,,,,,,,,,,
3636003,1745297892675,0.0716,0.0,73,,0.63,-0.28,1.04,24,-1,-0,1.25,1.27,99,12410,53.6,4.3,,12.56,0.941,93.4,,69.5,5,12,11,39,38,0.0,19.0,0.0,0.0,2.25,,,0,0,0,0,0,0,0,0,0,0,0,0,0,0,0,0,,1,,,,0.0,38.986023,-76.950035,18.9,48.4,33,3,0.8,0,0.0,-1,0.0,0.0,0,0.0012,0.0716
3636023,1745297892693,0.072,,,,,,,,,,,,,,,,,,,,,,,,,,,,,,,,,,0,0,0,0,0,0,0,0,0,0,0,0,0,0,0,0,,,,,,,,,,,,,,,,,,,,,
3636043,1745297892713,0.0723,0.0,90,,0.6,-0.17,1.09,21,-1,0,1.26,1.27,99,12335,53.5,4.22,,12.56,0.941,93.4,,69.6,5,,,,,,,,,,,,0,0,0,0,0,0,0,0,0,0,0,0,0,0,0,0,,,,,,0.0,,,,,,,,,,,,,,,
3636063,1745297892733,0.0726,,,,,,,,,,,,,,,,,,,,,,,,,,,,,,,,,,0,0,0,0,0,0,0,0,0,0,0,0,0,0,0,0,,,,,,,,,,,,,,,,,,,,,
3636083,1745297892753,0.073,0.0,73,,0.62,-0.13,1.08,17,-0,-0,1.25,1.27,98,12335,53.5,4.22,,12.41,0.954,93.4,,69.6,5,,,,,,,,,,,,0,0,0,0,0,0,0,0,0,0,0,0,0,0,0,0,,,,,,0.0,,,,,,,,,,,,,,,
3636103,1745297892773,0.0733,,,,,,,,,,,,,,,,,,,,,,,14,3,37,37,0.0,210.0,0.0,0.0,2.25,,,0,0,0,0,0,0,0,0,0,0,0,0,0,0,0,0,,1,,,,,38.986027,-76.950043,21.85,48.4,33,3,0.8,0,0.0,-1,0.0,,0,0.0015,0.0733
3636123,1745297892795,0.0736,0.0,85,,0.68,-0.09,1.05,14,-0,0,1.25,1.27,99,12175,53.4,4.01,,12.49,0.971,93.4,,65.9,5,,,,,,,,,,,,0,0,0,0,0,0,0,0,0,0,0,0,0,0,0,0,,,,,,0.0,,,,,,,,,,,,,,,
3636143,1745297892815,0.074,,,,,,,,,,,,,,,,,,,,,,,,,,,,,,,,,,0,0,0,0,0,0,0,0,0,0,0,0,0,0,0,0,,,,,,,,,,,,,,,,,,,,,
3636163,1745297892835,0.0743,0.0,87,,0.68,0.12,1.05,10,0,2,1.26,1.27,99,11829,53.1,3.78,,12.53,0.985,93.4,,65.9,5,,,,,,,,,,,,0,0,0,0,0,0,0,0,0,0,0,0,0,0,0,0,,,,,,0.0,,,,,,,,,,,,,,,
3636183,1745297892855,0.0746,,,,,,,,,,,,,,,,,,,,,,,,,,,,,,,,,,0,0,0,0,0,0,0,0,0,0,0,0,0,0,0,0,,,,,,,,,,,,,,,,,,,,,
3636203,1745297892875,0.075,0.0,79,,0.71,0.09,1.05,8,0,1,1.27,1.27,100,11235,52.6,3.95,,12.85,1.036,93.4,,65.9,5,16,16,36,36,0.0,86.0,0.0,0.0,2.25,,,0,0,0,0,0,0,0,0,0,0,0,0,0,0,0,0,,1,,,,0.0,38.986031,-76.95005,24.61,48.4,33,3,0.8,0,0.0,-1,0.0,0.0,0,0.002,0.075
3636223,1745297892895,0.0753,,,,,,,,,,,,,,,,,,,,,,,,,,,,,,,,,,0,0,0,0,0,0,0,0,0,0,0,0,0,0,0,0,,,,,,,,,,,,,,,,,,,,,
3636243,1745297892915,0.0756,0.0,87,,0.71,0.12,1.01,6,0,1,1.24,1.27,98,10791,56.6,4.42,,12.85,1.036,93.4,,63.1,5,,,,,,,,,,,,0,0,0,0,0,0,0,0,0,0,0,0,0,0,0,0,,,,,,0.0,,,,,,,,,,,,,,,
3636263,1745297892935,0.076,,,,,,,,,,,,,,,,,,,,,,,,,,,,,,,,,,0,0,0,0,0,0,0,0,0,0,0,0,0,0,0,0,,,,,,,,,,,,,,,,,,,,,
3636283,1745297892955,0.0763,0.0,73,,0.73,0.03,1.01,5,0,0,1.25,1.27,99,10791,56.6,4.42,,13.23,1.1,93.4,,63.1,5,,,,,,,,,,,,0,0,0,0,0,0,0,0,0,0,0,0,0,0,0,0,,,,,,0.0,,,,,,,,,,,,,,,
3636303,1745297892975,0.0766,,,,,,,,,,,,,,,,,,,,,,,18,3,32,32,0.0,200.0,0.0,0.0,2.26,,,0,0,0,0,0,0,0,0,0,0,0,0,0,0,0,0,,1,,,,,38.986031,-76.950058,27.37,48.4,33,3,0.8,0,0.0,-1,0.0,,0,0.0024,0.0766
3636323,1745297892995,0.077,0.0,93,,0.77,0.03,1.01,5,0,1,1.27,1.27,100,10696,63.6,5.01,,13.51,1.151,93.4,,60.2,5,,,,,,,,,,,,0,0,0,0,0,0,0,0,0,0,0,0,0,0,0,0,,,,,,0.0,,,,,,,,,,,,,,,
3636343,1745297893007,0.0773,,,,,,,,,,,,,,,,,,,,,,,,,,,,,,,,,,0,0,0,0,0,0,0,0,0,0,0,0,0,0,0,0,,,,,,,,,,,,,,,,,,,,,
3636363,1745297893027,0.0777,0.0,93,,0.77,0.1,1.0,5,0,1,1.26,1.27,99,10683,72.2,4.81,,13.71,1.113,93.4,,60.2,5,,,,,,,,,,,,0,0,0,0,0,0,0,0,0,0,0,0,0,0,0,0,,,,,,0.0,,,,,,,,,,,,,,,
3636383,1745297893047,0.078,,,,,,,,,,,,,,,,,,,,,,,,,,,,,,,,,,0,0,0,0,0,0,0,0,0,0,0,0,0,0,0,0,,,,,,,,,,,,,,,,,,,,,
3636403,1745297893067,0.0783,0.0,93,13.57,0.76,0.09,0.97,5,0,1,1.24,1.27,97,10658,84.3,5.08,15,13.84,1.056,93.4,183,60.2,5,20,3,31,32,0.0,94.0,0.0,0.0,2.26,0,1.0,0,0,0,0,0,0,0,0,0,0,0,0,0,0,0,0,0,1,1.0,0,0,0.0,38.986034,-76.950066,30.6,48.3,33,3,0.8,0,0.0,-1,0.0,0.0,0,0.0029,0.0783
3636423,1745297893091,0.0786,,,,,,,,,,,,,,,,,,,,,,,,,,,,,,,,,,0,0,0,0,0,0,0,0,0,0,0,0,0,0,0,0,,,,,,,,,,,,,,,,,,,,,
3636443,1745297893111,0.079,0.0,93,,0.77,0.06,0.99,6,1,1,1.26,1.27,99,10935,97.0,5.62,,13.84,1.056,93.4,,58.4,5,,,,,,,,,,,,0,0,0,0,0,0,0,0,0,0,0,0,0,0,0,0,,,,,,0.0,,,,,,,,,,,,,,,
3636463,1745297893131,0.0793,,,,,,,,,,,,,,,,,,,,,,,,,,,,,,,,,,0,0,0,0,0,0,0,0,0,0,0,0,0,0,0,0,,,,,,,,,,,,,,,,,,,,,
3636483,1745297893151,0.0796,0.0,70,,0.77,0.14,1.06,6,1,2,1.32,1.32,100,10935,97.0,5.62,,13.87,1.039,91.6,,58.4,5,,,,,,,,,,,,0,0,0,0,0,0,0,0,0,0,0,0,0,0,0,0,,,,,,0.0,,,,,,,,,,,,,,,
3636503,1745297893171,0.08,,,,,,,,,,,,,,,,,,,,,,,22,3,32,34,0.0,234.0,0.0,0.0,2.25,,,0,0,0,0,0,0,0,0,0,0,0,0,0,0,0,0,,1,,,,,38.986038,-76.950073,33.23,48.3,33,3,0.8,0,0.0,-1,0.0,,0,0.0035,0.08
3636523,1745297893191,0.0803,0.0,110,,0.81,-0.0,1.07,7,1,2,1.34,1.34,100,11275,99.3,5.45,,13.98,0.964,91.6,,66.4,5,,,,,,,,,,,,0,0,0,0,0,0,0,0,0,0,0,0,0,0,0,0,,,,,,0.0,,,,,,,,,,,,,,,
3636543,1745297893209,0.0806,,,,,,,,,,,,,,,,,,,,,,,,,,,,,,,,,,0,0,0,0,0,0,0,0,0,0,0,0,0,0,0,0,,,,,,,,,,,,,,,,,,,,,
3636563,1745297893229,0.081,0.0,107,,0.73,-0.12,1.07,7,0,1,1.3,1.34,97,11286,99.4,5.45,,13.95,0.923,91.6,,66.4,5,,,,,,,,,,,,0,0,0,0,0,0,0,0,0,0,0,0,0,0,0,0,,,,,,0.0,,,,,,,,,,,,,,,
3636583,1745297893249,0.0813,,,,,,,,,,,,,,,,,,,,,,,,,,,,,,,,,,0,0,0,0,0,0,0,0,0,0,0,0,0,0,0,0,,,,,,,,,,,,,,,,,,,,,
3636603,1745297893269,0.0816,0.0,107,,0.71,-0.16,1.07,6,-1,1,1.3,1.34,97,11401,99.4,5.41,,13.99,0.896,91.6,,66.4,5,22,3,34,33,0.0,10.0,0.0,0.0,2.25,,,0,0,0,0,0,0,0,0,0,0,0,0,0,0,0,0,,1,,,,0.0,38.986042,-76.950088,35.9,48.3,33,3,0.8,0,0.0,-1,0.0,0.0,0,0.0041,0.0816
3636623,1745297893295,0.082,,,,,,,,,,,,,,,,,,,,,,,,,,,,,,,,,,0,0,0,0,0,0,0,0,0,0,0,0,0,0,0,0,,,,,,,,,,,,,,,,,,,,,
3636643,1745297893315,0.0823,0.0,107,,0.72,-0.03,1.07,3,-2,1,1.29,1.34,97,11664,99.4,5.34,,13.99,0.896,91.6,,66.4,5,,,,,,,,,,,,0,0,0,0,0,0,0,0,0,0,0,0,0,0,0,0,,,,,,0.0,,,,,,,,,,,,,,,
3636663,1745297893335,0.0826,,,,,,,,,,,,,,,,,,,,,,,,,,,,,,,,,,0,0,0,0,0,0,0,0,0,0,0,0,0,0,0,0,,,,,,,,,,,,,,,,,,,,,
3636683,1745297893355,0.083,0.0,107,,0.69,0.08,1.08,-0,-2,1,1.29,1.34,96,11664,99.4,5.34,,13.75,0.895,91.6,,66.4,5,,,,,,,,,,,,0,0,0,0,0,0,0,0,0,0,0,0,0,0,0,0,,,,,,0.0,,,,,,,,,,,,,,,
3636703,1745297893375,0.0833,,,,,,,,,,,,,,,,,,,,,,,25,25,35,35,0.0,242.0,0.0,0.0,2.26,,,0,0,0,0,0,0,0,0,0,0,0,0,0,0,0,0,,1,,,,,38.986046,-76.950104,39.95,48.3,33,3,0.8,0,0.0,-1,0.0,,0,0.0048,0.0833
3636723,1745297893395,0.0836,0.0,116,,0.65,-0.01,1.02,-1,-1,1,1.22,1.34,91,11914,99.4,5.22,,13.73,0.883,91.6,,66.2,5,,,,,,,,,,,,0,0,0,0,0,0,0,0,0,0,0,0,0,0,0,0,,,,,,0.0,,,,,,,,,,,,,,,
3636743,1745297893415,0.084,,,,,,,,,,,,,,,,,,,,,,,,,,,,,,,,,,0,0,0,0,0,0,0,0,0,0,0,0,0,0,0,0,,,,,,,,,,,,,,,,,,,,,
3636763,1745297893435,0.0843,0.0,104,,0.7,0.02,0.95,-2,0,2,1.18,1.34,88,12218,99.4,5.15,,13.65,0.905,91.6,,66.2,5,,,,,,,,,,,,0,0,0,0,0,0,0,0,0,0,0,0,0,0,0,0,,,,,,0.0,,,,,,,,,,,,,,,
3636783,1745297893455,0.0846,,,,,,,,,,,,,,,,,,,,,,,,,,,,,,,,,,0,0,0,0,0,0,0,0,0,0,0,0,0,0,0,0,,,,,,,,,,,,,,,,,,,,,
3636803,1745297893475,0.085,0.0,107,,0.79,-0.04,0.99,-3,1,1,1.27,1.34,95,12067,99.5,5.17,,13.71,0.913,91.6,,66.2,5,27,26,37,37,0.0,202.0,0.0,0.0,2.25,,,0,0,0,0,0,0,0,0,0,0,0,0,0,0,0,0,,1,,,,0.0,38.98605,-76.950111,42.39,48.3,33,3,0.8,0,0.0,-1,0.0,0.0,0,0.0055,0.085
3636823,1745297893495,0.0853,,,,,,,,,,,,,,,,,,,,,,,,,,,,,,,,,,0,0,0,0,0,0,0,0,0,0,0,0,0,0,0,0,,,,,,,,,,,,,,,,,,,,,
3636843,1745297893515,0.0856,0.0,107,,0.83,0.05,0.99,-3,0,1,1.29,1.34,96,11755,99.4,5.3,,13.71,0.913,91.6,,67.5,5,,,,,,,,,,,,0,0,0,0,0,0,0,0,0,0,0,0,0,0,0,0,,,,,,0.0,,,,,,,,,,,,,,,
3636863,1745297893535,0.086,,,,,,,,,,,,,,,,,,,,,,,,,,,,,,,,,,0,0,0,0,0,0,0,0,0,0,0,0,0,0,0,0,,,,,,,,,,,,,,,,,,,,,
3636883,1745297893555,0.0863,0.0,93,,0.8,0.15,0.98,-3,-0,1,1.27,1.34,95,11755,99.4,5.3,,13.76,0.923,91.6,,67.5,5,,,,,,,,,,,,0,0,0,0,0,0,0,0,0,0,0,0,0,0,0,0,,,,,,0.0,,,,,,,,,,,,,,,
3636903,1745297893575,0.0866,,,,,,,,,,,,,,,,,,,,,,,30,26,36,33,0.0,35.0,0.0,0.0,2.25,,,0,0,0,0,0,0,0,0,0,0,0,0,0,0,0,0,,0,,,,,38.986053,-76.950127,43.96,48.3,33,3,0.8,0,0.0,-1,0.0,,0,0.0063,0.0866
3636923,1745297893594,0.087,0.0,119,,0.81,0.17,1.05,-1,0,1,1.34,1.34,100,11804,99.4,5.3,,13.8,0.919,91.6,,71.4,5,,,,,,,,,,,,0,0,0,0,0,0,0,0,0,0,0,0,0,0,0,0,,,,,,0.0,,,,,,,,,,,,,,,
3636943,1745297893614,0.0873,,,,,,,,,,,,,,,,,,,,,,,,,,,,,,,,,,0,0,0,0,0,0,0,0,0,0,0,0,0,0,0,0,,,,,,,,,,,,,,,,,,,,,
3636963,1745297893634,0.0876,0.0,102,,0.78,0.14,1.15,2,0,0,1.4,1.4,100,11939,76.8,4.54,,13.41,0.911,91.6,,71.4,5,,,,,,,,,,,,0,0,0,0,0,0,0,0,0,0,0,0,0,0,0,0,,,,,,0.0,,,,,,,,,,,,,,,
3636983,1745297893654,0.088,,,,,,,,,,,,,,,,,,,,,,,,,,,,,,,,,,0,0,0,0,0,0,0,0,0,0,0,0,0,0,0,0,,,,,,,,,,,,,,,,,,,,,
3637003,1745297893674,0.0883,0.0,107,,0.76,0.15,1.12,3,0,-0,1.36,1.4,97,11541,0.0,1.4,,9.88,0.91,91.6,,71.4,5,31,26,35,38,0.0,187.0,0.0,0.0,2.25,,,0,0,0,0,0,0,0,0,0,0,0,0,0,0,0,0,,0,,,,0.0,38.986053,-76.950142,49.57,48.3,33,3,0.8,0,0.0,-1,0.0,0.0,0,0.0071,0.0883
3637023,1745297893696,0.0887,,,,,,,,,,,,,,,,,,,,,,,,,,,,,,,,,,0,0,0,0,0,0,0,0,0,0,0,0,0,0,0,0,,,,,,,,,,,,,,,,,,,,,
3637043,1745297893716,0.089,0.0,99,,0.73,0.1,1.13,6,-1,-1,1.35,1.4,97,10727,0.0,1.4,,9.88,0.91,91.6,,66.7,5,,,,,,,,,,,,0,0,0,0,0,0,0,0,0,0,0,0,0,0,0,0,,,,,,0.0,,,,,,,,,,,,,,,
3637063,1745297893736,0.0893,,,,,,,,,,,,,,,,,,,,,,,,,,,,,,,,,,0,0,0,0,0,0,0,0,0,0,0,0,0,0,0,0,,,,,,,,,,,,,,,,,,,,,
3637083,1745297893756,0.0896,0.0,107,,0.61,0.08,1.16,8,-2,-1,1.31,1.4,94,10727,0.0,1.4,,7.47,0.894,91.6,,66.7,5,,,,,,,,,,,,0,0,0,0,0,0,0,0,0,0,0,0,0,0,0,0,,,,,,0.0,,,,,,,,,,,,,,,
3637103,1745297893776,0.09,,,,,,,,,,,,,,,,,,,,,,,33,26,34,33,0.0,42.0,0.0,0.0,2.26,,,0,0,0,0,0,0,0,0,0,0,0,0,0,0,0,0,,0,,,,,38.986061,-76.95015,51.94,48.3,33,3,0.8,0,0.0,-1,0.0,,0,0.008,0.09
3637123,1745297893794,0.0903,0.0,113,,0.58,0.15,1.16,9,-2,-1,1.3,1.4,93,10316,0.5,1.4,,6.63,0.893,91.6,,59.6,5,,,,,,,,,,,,0,0,0,0,0,0,0,0,0,0,0,0,0,0,0,0,,,,,,0.0,,,,,,,,,,,,,,,
3637143,1745297893814,0.0906,,,,,,,,,,,,,,,,,,,,,,,,,,,,,,,,,,0,0,0,0,0,0,0,0,0,0,0,0,0,0,0,0,,,,,,,,,,,,,,,,,,,,,
3637163,1745297893834,0.091,0.0,113,,0.43,0.38,1.07,10,-2,0,1.22,1.4,87,10259,51.1,2.86,,9.8,1.17,91.6,,59.6,5,,,,,,,,,,,,0,0,0,0,0,0,0,0,0,0,0,0,0,0,0,0,,,,,,0.0,,,,,,,,,,,,,,,
3637183,1745297893854,0.0913,,,,,,,,,,,,,,,,,,,,,,,,,,,,,,,,,,0,0,0,0,0,0,0,0,0,0,0,0,0,0,0,0,,,,,,,,,,,,,,,,,,,,,
3637203,1745297893874,0.0916,0.0,107,,0.37,0.43,1.03,13,-2,-0,1.18,1.4,84,10924,75.2,4.53,,12.52,1.248,91.6,,59.6,5,34,26,33,33,0.0,26.0,0.0,0.0,2.25,,,0,0,0,0,0,0,0,0,0,0,0,0,0,0,0,0,,0,,,,0.0,38.986065,-76.950172,54.85,48.2,33,3,0.8,0,0.0,-1,0.0,0.0,0,0.009,0.0916
3637223,1745297893896,0.092,,,,,,,,,,,,,,,,,,,,,,,,,,,,,,,,,,0,0,0,0,0,0,0,0,0,0,0,0,0,0,0,0,,,,,,,,,,,,,,,,,,,,,
3637243,1745297893916,0.0923,0.0,130,,0.34,0.33,1.04,15,-2,-1,1.14,1.4,81,12168,85.3,4.74,,12.52,1.248,91.6,,66.9,5,,,,,,,,,,,,0,0,0,0,0,0,0,0,0,0,0,0,0,0,0,0,,,,,,0.0,,,,,,,,,,,,,,,
3637263,1745297893936,0.0926,,,,,,,,,,,,,,,,,,,,,,,,,,,,,,,,,,0,0,0,0,0,0,0,0,0,0,0,0,0,0,0,0,,,,,,,,,,,,,,,,,,,,,
3637283,1745297893956,0.093,0.0,135,,0.45,0.43,1.03,15,-1,-0,1.2,1.4,86,12168,85.3,4.74,,13.19,1.223,91.6,,66.9,5,,,,,,,,,,,,0,0,0,0,0,0,0,0,0,0,0,0,0,0,0,0,,,,,,0.0,,,,,,,,,,,,,,,
3637303,1745297893976,0.0933,,,,,,,,,,,,,,,,,,,,,,,33,26,34,34,0.0,250.0,0.0,0.0,2.26,,,0,0,0,0,0,0,0,0,0,0,0,0,0,0,0,0,,0,,,,,38.986069,-76.950188,52.38,48.2,33,3,0.8,0,0.0,-1,0.0,,0,0.0099,0.0933
3637323,1745297893996,0.0936,0.0,133,,0.53,0.39,1.0,17,-1,-0,1.2,1.4,86,12420,52.0,4.42,,12.59,1.063,91.6,,69.5,5,,,,,,,,,,,,0,0,0,0,0,0,0,0,0,0,0,0,0,0,0,0,,,,,,0.0,,,,,,,,,,,,,,,
3637343,1745297894006,0.094,,,,,,,,,,,,,,,,,,,,,,,,,,,,,,,,,,0,0,0,0,0,0,0,0,0,0,0,0,0,0,0,0,,,,,,,,,,,,,,,,,,,,,
3637363,1745297894026,0.0943,0.0,133,,0.52,0.25,1.01,21,-1,-2,1.16,1.4,83,11996,0.2,1.4,,8.82,0.993,91.6,,69.5,5,,,,,,,,,,,,0,0,0,0,0,0,0,0,0,0,0,0,0,0,0,0,,,,,,0.0,,,,,,,,,,,,,,,
3637383,1745297894046,0.0946,,,,,,,,,,,,,,,,,,,,,,,,,,,,,,,,,,0,0,0,0,0,0,0,0,0,0,0,0,0,0,0,0,,,,,,,,,,,,,,,,,,,,,
3637403,1745297894066,0.095,0.0,133,13.46,0.44,0.36,0.97,21,-1,-2,1.12,1.4,80,10840,0.0,1.4,15,7.04,0.897,91.6,183,69.5,5,33,26,37,36,0.0,74.0,0.0,0.0,2.27,0,1.0,0,0,0,0,0,0,0,0,0,0,0,0,0,0,0,0,0,1,1.0,0,-0,0.0,38.986073,-76.950203,51.36,48.2,33,3,0.8,0,0.0,-1,0.0,0.0,0,0.0108,0.095
3637423,1745297894086,0.0953,,,,,,,,,,,,,,,,,,,,,,,,,,,,,,,,,,0,0,0,0,0,0,0,0,0,0,0,0,0,0,0,0,,,,,,,,,,,,,,,,,,,,,
3637443,1745297894110,0.0956,0.0,134,,0.37,0.5,0.97,22,-2,-2,1.16,1.4,83,10356,0.0,1.4,,7.04,0.897,91.6,,63.1,5,,,,,,,,,,,,0,0,0,0,0,0,0,0,0,0,0,0,0,0,0,0,,,,,,0.0,,,,,,,,,,,,,,,
3637463,1745297894130,0.096,,,,,,,,,,,,,,,,,,,,,,,,,,,,,,,,,,0,0,0,0,0,0,0,0,0,0,0,0,0,0,0,0,,,,,,,,,,,,,,,,,,,,,
3637483,1745297894150,0.0963,0.0,134,,0.22,0.53,0.95,24,-2,-2,1.11,1.4,79,10356,0.0,1.4,,5.98,1.09,89.8,,63.1,5,,,,,,,,,,,,0,0,0,0,0,0,0,0,0,0,0,0,0,0,0,0,,,,,,0.0,,,,,,,,,,,,,,,
3637503,1745297894170,0.0966,,,,,,,,,,,,,,,,,,,,,,,35,26,34,34,0.0,1.0,0.0,0.0,2.28,,,0,0,0,0,0,0,0,0,0,0,0,0,0,0,0,0,,0,,,,,38.986073,-76.950218,55.39,48.2,33,3,0.8,0,0.0,-1,0.0,,0,0.0117,0.0966
3637523,1745297894192,0.097,0.0,133,,0.13,0.26,0.99,26,-3,-1,1.04,1.4,74,10354,6.1,1.4,,6.15,1.252,89.8,,60.0,5,,,,,,,,,,,,0,0,0,0,0,0,0,0,0,0,0,0,0,0,0,0,,,,,,0.0,,,,,,,,,,,,,,,
3637543,1745297894212,0.0973,,,,,,,,,,,,,,,,,,,,,,,,,,,,,,,,,,0,0,0,0,0,0,0,0,0,0,0,0,0,0,0,0,,,,,,,,,,,,,,,,,,,,,
3637563,1745297894232,0.0976,0.0,133,,0.05,0.27,0.97,25,-3,-2,1.01,1.4,72,10719,47.1,2.46,,9.3,1.252,89.8,,60.0,5,,,,,,,,,,,,0,0,0,0,0,0,0,0,0,0,0,0,0,0,0,0,,,,,,0.0,,,,,,,,,,,,,,,
3637583,1745297894252,0.098,,,,,,,,,,,,,,,,,,,,,,,,,,,,,,,,,,0,0,0,0,0,0,0,0,0,0,0,0,0,0,0,0,,,,,,,,,,,,,,,,,,,,,
3637603,1745297894272,0.0983,0.0,133,,0.01,0.33,1.02,24,-2,-2,1.07,1.07,100,10773,69.3,4.17,,11.6,1.252,89.8,,60.0,5,33,26,31,32,0.0,185.0,0.0,0.0,2.27,,,0,0,0,0,0,0,0,0,0,0,0,0,0,0,0,0,,1,,,,0.0,38.986073,-76.950233,54.71,48.2,33,3,0.8,0,0.0,-1,0.0,0.0,0,0.0126,0.0983
3637623,1745297894296,0.0986,,,,,,,,,,,,,,,,,,,,,,,,,,,,,,,,,,0,0,0,0,0,0,0,0,0,0,0,0,0,0,0,0,,,,,,,,,,,,,,,,,,,,,
3637643,1745297894316,0.099,0.0,133,,0.04,0.34,0.98,24,-2,-2,1.04,1.07,97,11718,79.4,4.42,,11.6,1.252,89.8,,59.4,5,,,,,,,,,,,,0,0,0,0,0,0,0,0,0,0,0,0,0,0,0,0,,,,,,0.0,,,,,,,,,,,,,,,
3637663,1745297894336,0.0993,,,,,,,,,,,,,,,,,,,,,,,,,,,,,,,,,,0,0,0,0,0,0,0,0,0,0,0,0,0,0,0,0,,,,,,,,,,,,,,,,,,,,,
3637683,1745297894356,0.0996,0.0,133,,0.14,0.41,0.93,25,-2,-2,1.02,1.07,96,11718,79.4,4.42,,13.15,1.252,89.8,,59.4,5,,,,,,,,,,,,0,0,0,0,0,0,0,0,0,0,0,0,0,0,0,0,,,,,,0.0,,,,,,,,,,,,,,,
3637703,1745297894376,0.1,,,,,,,,,,,,,,,,,,,,,,,34,26,33,33,0.0,224.0,0.0,0.0,2.28,,,0,0,0,0,0,0,0,0,0,0,0,0,0,0,0,0,,0,,,,,38.986076,-76.950256,51.76,48.2,33,3,0.8,0,0.0,-1,0.0,,0,0.0135,0.1
3637723,1745297894396,0.1003,0.0,133,,0.24,0.51,0.97,28,-2,-2,1.12,1.12,100,12338,83.4,4.94,,13.45,1.228,89.8,,63.2,5,,,,,,,,,,,,0,0,0,0,0,0,0,0,0,0,0,0,0,0,0,0,,,,,,0.0,,,,,,,,,,,,,,,
3637743,1745297894416,0.1006,,,,,,,,,,,,,,,,,,,,,,,,,,,,,,,,,,0,0,0,0,0,0,0,0,0,0,0,0,0,0,0,0,,,,,,,,,,,,,,,,,,,,,
3637763,1745297894436,0.101,0.0,133,,0.29,0.65,0.98,30,-2,-2,1.21,1.21,100,12424,84.4,4.98,,13.52,1.122,89.8,,63.2,5,,,,,,,,,,,,0,0,0,0,0,0,0,0,0,0,0,0,0,0,0,0,,,,,,0.0,,,,,,,,,,,,,,,
3637783,1745297894456,0.1013,,,,,,,,,,,,,,,,,,,,,,,,,,,,,,,,,,0,0,0,0,0,0,0,0,0,0,0,0,0,0,0,0,,,,,,,,,,,,,,,,,,,,,
3637803,1745297894476,0.1016,0.0,133,,0.3,0.59,0.97,35,-2,-3,1.18,1.21,97,12622,78.7,5.11,,13.39,1.047,89.8,,63.2,5,34,26,37,36,0.0,122.0,0.0,0.0,2.26,,,0,0,0,0,0,0,0,0,0,0,0,0,0,0,0,0,,1,,,,0.0,38.986076,-76.950272,51.06,48.1,33,3,0.8,0,0.0,-1,0.0,0.0,0,0.0144,0.1016
3637823,1745297894496,0.102,,,,,,,,,,,,,,,,,,,,,,,,,,,,,,,,,,0,0,0,0,0,0,0,0,0,0,0,0,0,0,0,0,,,,,,,,,,,,,,,,,,,,,
3637843,1745297894516,0.1023,0.0,133,,0.34,0.78,0.98,38,-1,-3,1.3,1.3,100,12890,74.1,4.89,,13.39,1.047,89.8,,66.5,5,,,,,,,,,,,,0,0,0,0,0,0,0,0,0,0,0,0,0,0,0,0,,,,,,0.0,,,,,,,,,,,,,,,
3637863,1745297894536,0.1026,,,,,,,,,,,,,,,,,,,,,,,,,,,,,,,,,,0,0,0,0,0,0,0,0,0,0,0,0,0,0,0,0,,,,,,,,,,,,,,,,,,,,,
3637883,1745297894556,0.103,0.0,133,,0.39,0.81,1.02,43,-1,-3,1.36,1.36,100,12890,74.1,4.89,,13.27,1.004,89.8,,66.5,5,,,,,,,,,,,,0,0,0,0,0,0,0,0,0,0,0,0,0,0,0,0,,,,,,0.0,,,,,,,,,,,,,,,
3637903,1745297894576,0.1033,,,,,,,,,,,,,,,,,,,,,,,36,26,39,40,0.0,83.0,0.0,0.0,2.28,,,0,0,0,0,0,0,0,0,0,0,0,0,0,0,0,0,,1,,,,,38.986076,-76.950287,53.64,48.1,33,3,0.8,0,0.0,-1,0.0,,0,0.0154,0.1033
3637923,1745297894595,0.1036,0.0,133,,0.4,0.89,1.06,43,-1,-2,1.45,1.45,100,13181,72.0,4.71,,13.16,0.977,89.8,,74.6,5,,,,,,,,,,,,0,0,0,0,0,0,0,0,0,0,0,0,0,0,0,0,,,,,,0.0,,,,,,,,,,,,,,,
3637943,1745297894615,0.104,,,,,,,,,,,,,,,,,,,,,,,,,,,,,,,,,,0,0,0,0,0,0,0,0,0,0,0,0,0,0,0,0,,,,,,,,,,,,,,,,,,,,,
3637963,1745297894635,0.1043,0.0,132,,0.41,1.0,1.06,45,-1,-2,1.51,1.51,100,13211,71.0,4.67,,12.97,0.977,89.8,,74.6,5,,,,,,,,,,,,0,0,0,0,0,0,0,0,0,0,0,0,0,0,0,0,,,,,,0.0,,,,,,,,,,,,,,,
3637983,1745297894655,0.1046,,,,,,,,,,,,,,,,,,,,,,,,,,,,,,,,,,0,0,0,0,0,0,0,0,0,0,0,0,0,0,0,0,,,,,,,,,,,,,,,,,,,,,
3638003,1745297894675,0.105,0.0,132,,0.38,0.92,1.05,46,-1,-2,1.44,1.51,96,13274,70.2,4.64,,13.04,0.995,89.8,,74.6,5,37,26,40,42,0.0,77.0,0.0,0.0,2.27,,,0,0,0,0,0,0,0,0,0,0,0,0,0,0,0,0,,0,,,,0.0,38.986073,-76.950302,55.78,48.1,33,3,0.8,0,0.0,-1,0.0,0.0,0,0.0163,0.105
3638023,1745297894695,0.1053,,,,,,,,,,,,,,,,,,,,,,,,,,,,,,,,,,0,0,0,0,0,0,0,0,0,0,0,0,0,0,0,0,,,,,,,,,,,,,,,,,,,,,
3638043,1745297894715,0.1056,0.0,133,,0.37,0.86,1.08,46,-1,-2,1.43,1.51,94,13452,70.2,4.62,,13.04,0.995,89.8,,71.2,5,,,,,,,,,,,,0,0,0,0,0,0,0,0,0,0,0,0,0,0,0,0,,,,,,0.0,,,,,,,,,,,,,,,
3638063,1745297894735,0.106,,,,,,,,,,,,,,,,,,,,,,,,,,,,,,,,,,0,0,0,0,0,0,0,0,0,0,0,0,0,0,0,0,,,,,,,,,,,,,,,,,,,,,
3638083,1745297894755,0.1063,0.0,133,,0.41,0.76,1.08,43,-1,-1,1.38,1.51,92,13452,70.2,4.62,,12.97,0.999,89.8,,71.2,5,,,,,,,,,,,,0,0,0,0,0,0,0,0,0,0,0,0,0,0,0,0,,,,,,0.0,,,,,,,,,,,,,,,
3638103,1745297894775,0.1066,,,,,,,,,,,,,,,,,,,,,,,37,26,41,41,0.0,89.0,0.0,0.0,2.25,,,0,0,0,0,0,0,0,0,0,0,0,0,0,0,0,0,,1,,,,,38.986073,-76.950325,57.41,48.1,33,3,0.8,0,0.0,-1,0.0,,0,0.0173,0.1066
3638123,1745297894795,0.107,0.0,131,,0.42,0.7,1.09,39,-1,0,1.36,1.51,90,13505,72.4,4.66,,12.96,0.993,89.8,,70.6,5,,,,,,,,,,,,0,0,0,0,0,0,0,0,0,0,0,0,0,0,0,0,,,,,,0.0,,,,,,,,,,,,,,,
3638143,1745297894815,0.1073,,,,,,,,,,,,,,,,,,,,,,,,,,,,,,,,,,0,0,0,0,0,0,0,0,0,0,0,0,0,0,0,0,,,,,,,,,,,,,,,,,,,,,
3638163,1745297894835,0.1076,0.0,132,,0.47,0.55,1.16,34,-2,1,1.37,1.51,90,13537,73.3,4.67,,13.23,0.995,89.8,,70.6,5,,,,,,,,,,,,0,0,0,0,0,0,0,0,0,0,0,0,0,0,0,0,,,,,,0.0,,,,,,,,,,,,,,,
3638183,1745297894855,0.108,,,,,,,,,,,,,,,,,,,,,,,,,,,,,,,,,,0,0,0,0,0,0,0,0,0,0,0,0,0,0,0,0,,,,,,,,,,,,,,,,,,,,,
3638203,1745297894875,0.1083,0.0,133,,0.49,0.58,1.12,30,-2,0,1.36,1.51,90,13489,63.0,4.56,,12.76,0.986,89.8,,70.6,5,38,3,41,41,0.0,89.0,0.0,0.0,2.26,,,0,0,0,0,0,0,0,0,0,0,0,0,0,0,0,0,,1,,,,0.0,38.986069,-76.95034,58.87,48.1,33,3,0.8,0,0.0,-1,0.0,0.0,0,0.0183,0.1083
3638223,1745297894895,0.1086,,,,,,,,,,,,,,,,,,,,,,,,,,,,,,,,,,0,0,0,0,0,0,0,0,0,0,0,0,0,0,0,0,,,,,,,,,,,,,,,,,,,,,
3638243,1745297894915,0.109,0.0,133,,0.58,0.67,1.12,27,-1,1,1.43,1.43,100,13293,38.6,3.68,,12.76,0.986,89.8,,69.0,5,,,,,,,,,,,,0,0,0,0,0,0,0,0,0,0,0,0,0,0,0,0,,,,,,0.0,,,,,,,,,,,,,,,
3638263,1745297894935,0.1093,,,,,,,,,,,,,,,,,,,,,,,,,,,,,,,,,,0,0,0,0,0,0,0,0,0,0,0,0,0,0,0,0,,,,,,,,,,,,,,,,,,,,,
3638283,1745297894955,0.1096,0.0,132,,0.54,0.63,1.11,24,-1,1,1.39,1.43,97,13293,38.6,3.68,,11.57,0.981,89.8,,69.0,5,,,,,,,,,,,,0,0,0,0,0,0,0,0,0,0,0,0,0,0,0,0,,,,,,0.0,,,,,,,,,,,,,,,
3638303,1745297894975,0.11,,,,,,,,,,,,,,,,,,,,,,,38,3,41,39,0.0,41.0,0.0,0.0,2.26,,,0,0,0,0,0,0,0,0,0,0,0,0,0,0,0,0,,1,,,,,38.986065,-76.950356,60.57,48.0,33,3,0.8,0,0.0,-1,0.0,,0,0.0194,0.11
3638323,1745297894995,0.1103,0.0,133,,0.48,0.58,1.2,24,-2,1,1.42,1.43,99,13200,38.2,3.63,,11.22,0.966,89.8,,70.0,5,,,,,,,,,,,,0,0,0,0,0,0,0,0,0,0,0,0,0,0,0,0,,,,,,0.0,,,,,,,,,,,,,,,
3638343,1745297895007,0.1106,,,,,,,,,,,,,,,,,,,,,,,,,,,,,,,,,,0,0,0,0,0,0,0,0,0,0,0,0,0,0,0,0,,,,,,,,,,,,,,,,,,,,,
3638363,1745297895027,0.111,0.0,132,,0.49,0.34,1.19,21,-2,2,1.33,1.43,93,13329,38.3,3.65,,11.12,0.962,89.8,,70.0,5,,,,,,,,,,,,0,0,0,0,0,0,0,0,0,0,0,0,0,0,0,0,,,,,,0.0,,,,,,,,,,,,,,,
3638523,1745297895193,0.1136,0.0,132,,0.41,-0.05,1.02,12,-1,0,1.1,1.43,77,13702,46.6,3.89,,11.45,0.941,89.8,,72.9,5,,,,,,,,,,,,0,0,0,0,0,0,0,0,0,0,0,0,0,0,0,0,,,,,,0.0,,,,,,,,,,,,,,,
3638703,1745297895375,0.1166,,,,,,,,,,,,,,,,,,,,,,,42,119,41,40,0.0,118.0,0.0,0.0,2.26,,,0,0,0,0,0,0,0,0,0,0,0,0,0,0,0,0,,1,,,,,38.986042,-76.950432,64.9,48.0,32,3,0.8,0,0.0,-1,0.0,,0,0.0238,0.1166
3638823,1745297895496,0.1186,,,,,,,,,,,,,,,,,,,,,,,,,,,,,,,,,,0,0,0,0,0,0,0,0,0,0,0,0,0,0,0,0,,,,,,,,,,,,,,,,,,,,,
3638843,1745297895516,0.119,0.0,133,,0.09,0.32,0.98,4,-3,1,1.03,1.09,95,13595,99.4,4.63,,13.35,1.25,89.8,,71.6,5,,,,,,,,,,,,0,0,0,0,0,0,0,0,0,0,0,0,0,0,0,0,,,,,,0.0,,,,,,,,,,,,,,,
3638863,1745297895536,0.1193,,,,,,,,,,,,,,,,,,,,,,,,,,,,,,,,,,0,0,0,0,0,0,0,0,0,0,0,0,0,0,0,0,,,,,,,,,,,,,,,,,,,,,
3638883,1745297895556,0.1196,0.0,134,,0.09,0.22,1.03,5,-3,1,1.06,1.09,97,13595,99.4,4.63,,13.43,1.251,89.8,,71.6,5,,,,,,,,,,,,0,0,0,0,0,0,0,0,0,0,0,0,0,0,0,0,,,,,,0.0,,,,,,,,,,,,,,,
3638903,1745297895576,0.12,,,,,,,,,,,,,,,,,,,,,,,40,119,40,41,0.0,110.0,0.0,0.0,2.26,,,0,0,0,0,0,0,0,0,0,0,0,0,0,0,0,0,,1,,,,,38.986031,-76.95047,64.45,47.9,32,3,0.8,0,0.0,-1,0.0,,0,0.026,0.12
3639003,1745297895676,0.1216,0.0,135,,0.06,0.46,0.96,2,-1,3,1.07,1.09,98,13753,35.6,3.8,,11.22,1.252,89.8,,69.2,5,40,119,40,39,0.0,113.0,0.0,0.0,2.26,,,0,0,0,0,0,0,0,0,0,0,0,0,0,0,0,0,,1,,,,0.0,38.986023,-76.950493,64.17,47.9,32,3,0.8,0,0.0,-1,0.0,0.0,0,0.0271,0.1216
3639023,1745297895696,0.122,,,,,,,,,,,,,,,,,,,,,,,,,,,,,,,,,,0,0,0,0,0,0,0,0,0,0,0,0,0,0,0,0,,,,,,,,,,,,,,,,,,,,,
3639043,1745297895716,0.1223,0.0,133,,0.01,0.53,0.88,2,-0,3,1.03,1.09,94,13096,39.5,3.61,,11.22,1.252,89.8,,70.5,5,,,,,,,,,,,,0,0,0,0,0,0,0,0,0,0,0,0,0,0,0,0,,,,,,0.0,,,,,,,,,,,,,,,
3639063,1745297895736,0.1226,,,,,,,,,,,,,,,,,,,,,,,,,,,,,,,,,,0,0,0,0,0,0,0,0,0,0,0,0,0,0,0,0,,,,,,,,,,,,,,,,,,,,,
3639083,1745297895756,0.123,0.0,134,,-0.0,0.24,0.87,2,-0,3,0.9,1.09,83,13096,39.5,3.61,,11.34,1.178,89.8,,70.5,5,,,,,,,,,,,,0,0,0,0,0,0,0,0,0,0,0,0,0,0,0,0,,,,,,0.0,,,,,,,,,,,,,,,
3639103,1745297895776,0.1233,,,,,,,,,,,,,,,,,,,,,,,40,119,40,40,0.0,129.0,0.0,0.0,2.25,,,0,0,0,0,0,0,0,0,0,0,0,0,0,0,0,0,,1,,,,,38.986015,-76.950508,63.65,47.9,32,3,0.8,0,0.0,-1,0.0,,0,0.0282,0.1233
3639123,1745297895796,0.1236,0.0,132,,-0.03,0.26,0.86,-1,1,3,0.9,1.09,83,13748,44.0,3.76,,11.42,1.251,89.8,,71.2,5,,,,,,,,,,,,0,0,0,0,0,0,0,0,0,0,0,0,0,0,0,0,,,,,,0.0,,,,,,,,,,,,,,,
3639143,1745297895816,0.124,,,,,,,,,,,,,,,,,,,,,,,,,,,,,,,,,,0,0,0,0,0,0,0,0,0,0,0,0,0,0,0,0,,,,,,,,,,,,,,,,,,,,,
3639163,1745297895836,0.1243,0.0,131,,-0.1,0.25,0.83,-2,0,2,0.87,1.09,80,13219,46.9,3.94,,11.68,1.144,89.8,,71.2,5,,,,,,,,,,,,0,0,0,0,0,0,0,0,0,0,0,0,0,0,0,0,,,,,,0.0,,,,,,,,,,,,,,,
3639183,1745297895856,0.1246,,,,,,,,,,,,,,,,,,,,,,,,,,,,,,,,,,0,0,0,0,0,0,0,0,0,0,0,0,0,0,0,0,,,,,,,,,,,,,,,,,,,,,
3639203,1745297895876,0.125,0.0,133,,-0.1,0.33,0.75,-1,1,1,0.83,1.09,76,13231,13.8,3.04,,9.81,1.247,89.8,,71.2,5,42,119,41,41,0.0,110.0,0.0,0.0,2.26,,,0,0,0,0,0,0,0,0,0,0,0,0,0,0,0,0,,1,,,,0.0,38.986012,-76.950531,63.83,47.8,32,3,0.8,0,0.0,-1,0.0,0.0,0,0.0293,0.125
3639223,1745297895896,0.1253,,,,,,,,,,,,,,,,,,,,,,,,,,,,,,,,,,0,0,0,0,0,0,0,0,0,0,0,0,0,0,0,0,,,,,,,,,,,,,,,,,,,,,
3639243,1745297895916,0.1256,0.0,133,,-0.14,0.59,0.67,-3,1,1,0.9,1.09,83,13384,0.0,1.4,,9.81,1.247,89.8,,71.4,5,,,,,,,,,,,,0,0,0,0,0,0,0,0,0,0,0,0,0,0,0,0,,,,,,0.0,,,,,,,,,,,,,,,
3639263,1745297895936,0.126,,,,,,,,,,,,,,,,,,,,,,,,,,,,,,,,,,0,0,0,0,0,0,0,0,0,0,0,0,0,0,0,0,,,,,,,,,,,,,,,,,,,,,
