"Interval"|"ms"|0|0|1,"Utc"|"ms"|0|0|1,"FrontBP"|"psi"|-5.0|5.0|25,"SteerAng"|"Degrees"|-145|145|25,"Battery"|"Volts"|-5.0|20.0|1,"AccelX"|"G"|-3.0|3.0|25,"AccelY"|"G"|-3.0|3.0|25,"AccelZ"|"G"|-3.0|3.0|25,"Yaw"|"Deg/Sec"|-120|120|25,"Pitch"|"Deg/Sec"|-120|120|25,"Roll"|"Deg/Sec"|-120|120|25,"Gsum"|"G"|0.0|3.0|25,"GsumMax"|"G"|0.0|3.0|25,"GsumPct"|"%"|0|100|25,"RPM"|""|0|10000|25,"TPS"|"%"|0.0|100.0|25,"InjectorPW"|"ms"|0.0|100.0|25,"Baro"|"kPa"|0|105|1,"MAP"|"Psi"|0.0|255.0|25,"Lambda"|""|-2.0|2.0|25,"IAT"|"C"|0.0|200.0|25,"EngineTemp"|"C"|0|200|1,"EOP"|"PSI"|0.0|152.0|25,"EOT"|"F"|0|250|25,"WSFR"|"MPH"|0|150|10,"WSFL"|"MPH"|0|100|10,"WSRR"|"MPH"|0|100|10,"WSRL"|""|0|100|10,"TCSet"|"%"|0.0|100.0|10,"TCSlip"|"%"|0.0|100.0|10,"TCComp"|"deg"|0.0|50.0|10,"TCCut"|"%"|0.0|100.0|10,"Analog8"|""|0.0|5.0|10,"OilTemp"|"F"|0|300|1,"AA_On"|""|0.0|1.0|1,"ThermLF1"|"C"|0|400|50,"ThermLF2"|"C"|0|400|50,"ThermRR1"|"C"|0|400|50,"ThermRR2"|"C"|0|400|50,"ThermLF3"|"C"|0|400|50,"ThermLF4"|"C"|0|400|50,"ThermLF5"|"C"|0|400|50,"ThermLF6"|"C"|0|400|50,"ThermLF7"|"C"|0|400|50,"ThermLF8"|"C"|0|400|50,"ThermRR3"|"C"|0|400|50,"ThermRR4"|"C"|0|400|50,"ThermRR5"|"C"|0|400|50,"ThermRR6"|"C"|0|400|50,"ThermRR7"|"C"|0|400|50,"ThermRR8"|"C"|0|400|50,"AA_LowDrag"|""|0|1|1,"Gear"|""|1|6|10,"AA_On"|""|0.0|1.0|1,"AA_LowDrag"|""|0|1|1,"Fuel_Mix"|""|-10|10|1,"AA_Packages"|""|0.0|1000.0|25,"Latitude"|"Degrees"|-180.0|180.0|10,"Longitude"|"Degrees"|-180.0|180.0|10,"Speed"|"kph"|0.0|150.0|10,"Altitude"|"m"|0.0|4000.0|10,"GPSSats"|""|0|20|10,"GPSQual"|""|0|5|10,"GPSDOP"|""|0.0|20.0|10
807594,1745299277383,,,,,,,,,,,,,,,,,,,,,,,,,,,,,,,,,,0,0,0,0,0,0,0,0,0,0,0,0,0,0,0,0,,,,,,,,,,,,,
807614,1745299277402,0.0,14,,-0.07,0.04,1.05,0,-0,0,1.05,1.05,100,4947,0.0,2.47,,12.04,1.252,100.6,,36.6,5,,,,,,,,,,,,0,0,0,0,0,0,0,0,0,0,0,0,0,0,0,0,,,,,,0.0,,,,,,,
807634,1745299277422,,,,,,,,,,,,,,,,,,,,,,,,,,,,,,,,,,0,0,0,0,0,0,0,0,0,0,0,0,0,0,0,0,,,,,,,,,,,,,
807654,1745299277442,0.0,48,,-0.05,0.06,1.08,1,-0,0,1.08,1.08,100,4947,0.0,2.47,,11.29,1.253,100.6,,36.5,5,,,,,,,,,,,,0,0,0,0,0,0,0,0,0,0,0,0,0,0,0,0,,,,,,0.0,,,,,,,
807674,1745299277462,,,,,,,,,,,,,,,,,,,,,,,0,0,0,0,0.0,0.0,0.0,0.0,2.25,,,0,0,0,0,0,0,0,0,0,0,0,0,0,0,0,0,,0,,,,,38.985332,-76.950233,0.0,48.5,34,3,0.8
807694,1745299277482,0.0,17,,-0.08,0.14,1.13,1,-0,1,1.14,1.14,100,4785,0.0,2.18,,10.96,1.253,100.6,,36.5,5,,,,,,,,,,,,0,0,0,0,0,0,0,0,0,0,0,0,0,0,0,0,,,,,,0.0,,,,,,,
807714,1745299277502,,,,,,,,,,,,,,,,,,,,,,,,,,,,,,,,,,0,0,0,0,0,0,0,0,0,0,0,0,0,0,0,0,,,,,,,,,,,,,
807734,1745299277522,0.0,31,,-0.1,0.06,1.11,0,-0,1,1.12,1.14,98,4629,0.0,1.88,,10.72,1.181,100.6,,36.5,5,,,,,,,,,,,,0,0,0,0,0,0,0,0,0,0,0,0,0,0,0,0,,,,,,0.0,,,,,,,
807754,1745299277542,,,,,,,,,,,,,,,,,,,,,,,,,,,,,,,,,,0,0,0,0,0,0,0,0,0,0,0,0,0,0,0,0,,,,,,,,,,,,,
807774,1745299277562,0.0,28,,-0.13,0.08,1.15,-0,-0,1,1.16,1.16,100,4440,8.3,3.59,,11.26,1.059,100.6,,33.9,5,0,0,0,0,0.0,0.0,0.0,0.0,2.26,,,0,0,0,0,0,0,0,0,0,0,0,0,0,0,0,0,,0,,,,0.0,38.985332,-76.950233,0.05,48.5,34,3,0.8
807794,1745299277582,,,,,,,,,,,,,,,,,,,,,,,,,,,,,,,,,,0,0,0,0,0,0,0,0,0,0,0,0,0,0,0,0,,,,,,,,,,,,,
807814,1745299277602,0.0,22,,-0.14,0.15,1.25,1,-0,1,1.27,1.27,100,4285,21.9,4.46,,11.26,1.059,100.6,,33.9,5,,,,,,,,,,,,0,0,0,0,0,0,0,0,0,0,0,0,0,0,0,0,,,,,,0.0,,,,,,,
807834,1745299277622,,,,,,,,,,,,,,,,,,,,,,,,,,,,,,,,,,0,0,0,0,0,0,0,0,0,0,0,0,0,0,0,0,,,,,,,,,,,,,
807854,1745299277642,0.0,22,,-0.11,0.14,1.2,1,-0,1,1.21,1.27,96,4285,21.9,4.46,,12.57,1.048,100.6,,31.8,5,,,,,,,,,,,,0,0,0,0,0,0,0,0,0,0,0,0,0,0,0,0,,,,,,0.0,,,,,,,
807874,1745299277662,,,,,,,,,,,,,,,,,,,,,,,0,0,0,0,0.0,0.0,0.0,0.0,2.26,,,0,0,0,0,0,0,0,0,0,0,0,0,0,0,0,0,,0,,,,,38.985332,-76.950233,0.04,48.5,34,3,0.8
807894,1745299277682,0.0,22,,-0.08,0.13,1.12,1,-0,0,1.13,1.27,89,4393,32.8,4.92,,13.72,1.155,100.6,,31.8,5,,,,,,,,,,,,0,0,0,0,0,0,0,0,0,0,0,0,0,0,0,0,,,,,,0.0,,,,,,,
807914,1745299277702,,,,,,,,,,,,,,,,,,,,,,,,,,,,,,,,,,0,0,0,0,0,0,0,0,0,0,0,0,0,0,0,0,,,,,,,,,,,,,
807934,1745299277722,0.0,34,,-0.07,0.19,1.14,3,-0,0,1.16,1.27,91,4640,42.8,4.7,,14.18,1.199,100.6,,31.8,5,,,,,,,,,,,,0,0,0,0,0,0,0,0,0,0,0,0,0,0,0,0,,,,,,0.0,,,,,,,
807954,1745299277742,,,,,,,,,,,,,,,,,,,,,,,,,,,,,,,,,,0,0,0,0,0,0,0,0,0,0,0,0,0,0,0,0,,,,,,,,,,,,,
807974,1745299277762,0.0,20,,-0.08,0.09,1.11,2,-0,0,1.11,1.27,88,4888,43.2,4.85,,14.12,1.246,100.6,,34.5,5,0,0,0,0,0.0,0.0,0.0,0.0,2.25,,,0,0,0,0,0,0,0,0,0,0,0,0,0,0,0,0,,0,,,,0.0,38.985332,-76.950233,0.0,48.5,34,3,0.8
807994,1745299277782,,,,,,,,,,,,,,,,,,,,,,,,,,,,,,,,,,0,0,0,0,0,0,0,0,0,0,0,0,0,0,0,0,,,,,,,,,,,,,
808014,1745299277802,0.0,25,,-0.07,0.05,1.1,2,-0,0,1.1,1.27,87,5222,28.7,4.98,,14.12,1.246,100.6,,34.5,5,,,,,,,,,,,,0,0,0,0,0,0,0,0,0,0,0,0,0,0,0,0,,,,,,0.0,,,,,,,
808034,1745299277822,,,,,,,,,,,,,,,,,,,,,,,,,,,,,,,,,,0,0,0,0,0,0,0,0,0,0,0,0,0,0,0,0,,,,,,,,,,,,,
808054,1745299277842,0.0,36,,-0.05,0.06,1.13,2,-0,0,1.13,1.27,89,5222,28.7,4.98,,13.69,1.25,100.6,,40.2,5,,,,,,,,,,,,0,0,0,0,0,0,0,0,0,0,0,0,0,0,0,0,,,,,,0.0,,,,,,,
808074,1745299277862,,,,,,,,,,,,,,,,,,,,,,,0,0,0,0,0.0,0.0,0.0,0.0,2.25,,,0,0,0,0,0,0,0,0,0,0,0,0,0,0,0,0,,0,,,,,38.985332,-76.950233,0.0,48.4,34,3,0.8
808094,1745299277882,0.0,17,,-0.05,-0.07,1.01,1,-0,-0,1.01,1.27,80,5568,0.0,3.46,,12.11,1.251,100.6,,40.2,5,,,,,,,,,,,,0,0,0,0,0,0,0,0,0,0,0,0,0,0,0,0,,,,,,0.0,,,,,,,
808114,1745299277902,,,,,,,,,,,,,,,,,,,,,,,,,,,,,,,,,,0,0,0,0,0,0,0,0,0,0,0,0,0,0,0,0,,,,,,,,,,,,,
808134,1745299277922,0.0,28,,-0.08,0.07,1.08,2,-0,0,1.08,1.27,86,5672,0.0,1.75,,10.98,1.248,100.6,,40.2,5,,,,,,,,,,,,0,0,0,0,0,0,0,0,0,0,0,0,0,0,0,0,,,,,,0.0,,,,,,,
808154,1745299277942,,,,,,,,,,,,,,,,,,,,,,,,,,,,,,,,,,0,0,0,0,0,0,0,0,0,0,0,0,0,0,0,0,,,,,,,,,,,,,
808174,1745299277962,0.0,28,,-0.07,-0.05,1.06,1,-0,0,1.06,1.27,84,5408,0.0,1.48,,10.45,1.194,100.6,,43.7,5,0,0,0,0,0.0,0.0,0.0,0.0,2.25,,,0,0,0,0,0,0,0,0,0,0,0,0,0,0,0,0,,0,,,,0.0,38.985332,-76.950233,0.0,48.4,34,3,0.8
808194,1745299277982,,,,,,,,,,,,,,,,,,,,,,,,,,,,,,,,,,0,0,0,0,0,0,0,0,0,0,0,0,0,0,0,0,,,,,,,,,,,,,
808214,1745299278002,0.0,28,,-0.06,-0.1,1.01,1,-0,-0,1.02,1.27,81,5022,0.0,1.66,,10.45,1.194,100.6,,43.7,5,,,,,,,,,,,,0,0,0,0,0,0,0,0,0,0,0,0,0,0,0,0,,,,,,0.0,,,,,,,
808234,1745299278012,,,,,,,,,,,,,,,,,,,,,,,,,,,,,,,,,,0,0,0,0,0,0,0,0,0,0,0,0,0,0,0,0,,,,,,,,,,,,,
808254,1745299278032,0.0,36,,-0.07,0.04,1.11,2,-0,0,1.12,1.27,88,5022,0.0,1.66,,10.12,1.242,100.6,,37.6,5,,,,,,,,,,,,0,0,0,0,0,0,0,0,0,0,0,0,0,0,0,0,,,,,,0.0,,,,,,,
808274,1745299278052,,,,,,,,,,,,,,,,,,,,,,,0,0,0,0,0.0,0.0,0.0,0.0,2.25,,,0,0,0,0,0,0,0,0,0,0,0,0,0,0,0,0,,0,,,,,38.985332,-76.950233,0.04,48.4,34,3,0.8
808294,1745299278072,0.0,28,,-0.1,0.1,1.17,2,-0,1,1.18,1.27,93,4660,0.0,1.74,,10.06,1.25,100.6,,37.6,5,,,,,,,,,,,,0,0,0,0,0,0,0,0,0,0,0,0,0,0,0,0,,,,,,0.0,,,,,,,
808314,1745299278092,,,,,,,,,,,,,,,,,,,,,,,,,,,,,,,,,,0,0,0,0,0,0,0,0,0,0,0,0,0,0,0,0,,,,,,,,,,,,,
808334,1745299278116,0.0,34,,-0.09,0.14,1.17,3,-0,0,1.18,1.27,93,4384,8.0,2.82,,10.69,1.249,100.6,,37.6,5,,,,,,,,,,,,0,0,0,0,0,0,0,0,0,0,0,0,0,0,0,0,,,,,,0.0,,,,,,,
808354,1745299278136,,,,,,,,,,,,,,,,,,,,,,,,,,,,,,,,,,0,0,0,0,0,0,0,0,0,0,0,0,0,0,0,0,,,,,,,,,,,,,
808374,1745299278156,0.0,17,,-0.07,0.07,1.15,1,-0,1,1.16,1.27,91,4086,16.3,4.1,,12.11,1.249,100.6,,31.3,5,0,0,0,0,0.0,0.0,0.0,0.0,2.26,,,0,0,0,0,0,0,0,0,0,0,0,0,0,0,0,0,,0,,,,0.0,38.985332,-76.950233,0.11,48.4,34,3,0.8
808394,1745299278176,,,,,,,,,,,,,,,,,,,,,,,,,,,,,,,,,,0,0,0,0,0,0,0,0,0,0,0,0,0,0,0,0,,,,,,,,,,,,,
808414,1745299278202,0.0,25,,-0.07,0.12,1.13,3,-0,0,1.14,1.27,90,4153,17.8,4.22,,12.11,1.249,100.6,,31.3,5,,,,,,,,,,,,0,0,0,0,0,0,0,0,0,0,0,0,0,0,0,0,,,,,,0.0,,,,,,,
808434,1745299278222,,,,,,,,,,,,,,,,,,,,,,,,,,,,,,,,,,0,0,0,0,0,0,0,0,0,0,0,0,0,0,0,0,,,,,,,,,,,,,
808454,1745299278242,0.0,28,,-0.05,0.0,1.04,1,-0,0,1.04,1.27,82,4153,17.8,4.22,,12.97,1.249,100.6,,30.5,5,,,,,,,,,,,,0,0,0,0,0,0,0,0,0,0,0,0,0,0,0,0,,,,,,0.0,,,,,,,
808474,1745299278262,,,,,,,,,,,,,,,,,,,,,,,0,0,0,0,0.0,0.0,0.0,0.0,2.26,,,0,0,0,0,0,0,0,0,0,0,0,0,0,0,0,0,,0,,,,,38.985332,-76.950233,0.0,48.4,34,3,0.8
808494,1745299278282,0.0,22,,-0.09,0.07,1.09,1,-0,0,1.09,1.27,86,4298,18.3,4.11,,13.19,1.249,100.6,,30.5,5,,,,,,,,,,,,0,0,0,0,0,0,0,0,0,0,0,0,0,0,0,0,,,,,,0.0,,,,,,,
808514,1745299278302,,,,,,,,,,,,,,,,,,,,,,,,,,,,,,,,,,0,0,0,0,0,0,0,0,0,0,0,0,0,0,0,0,,,,,,,,,,,,,
808534,1745299278322,0.0,28,,-0.1,0.13,1.19,1,-0,1,1.2,1.27,95,4400,20.2,4.17,,13.37,1.25,100.6,,30.5,5,,,,,,,,,,,,0,0,0,0,0,0,0,0,0,0,0,0,0,0,0,0,,,,,,0.0,,,,,,,
808554,1745299278342,,,,,,,,,,,,,,,,,,,,,,,,,,,,,,,,,,0,0,0,0,0,0,0,0,0,0,0,0,0,0,0,0,,,,,,,,,,,,,
808574,1745299278362,0.0,34,13.15,-0.09,0.17,1.28,1,-0,1,1.29,1.29,100,4487,20.9,4.23,15,13.41,1.251,100.6,169,32.4,5,0,0,0,0,0.0,0.0,0.0,0.0,2.25,0,1.0,0,0,0,0,0,0,0,0,0,0,0,0,0,0,0,0,0,0,1.0,0,0,0.0,38.985332,-76.950233,0.0,48.4,34,3,0.8
808594,1745299278382,,,,,,,,,,,,,,,,,,,,,,,,,,,,,,,,,,0,0,0,0,0,0,0,0,0,0,0,0,0,0,0,0,,,,,,,,,,,,,
808614,1745299278401,0.0,28,,-0.1,0.24,1.34,2,-0,1,1.37,1.37,100,4624,12.2,4.14,,13.41,1.251,98.8,,32.4,5,,,,,,,,,,,,0,0,0,0,0,0,0,0,0,0,0,0,0,0,0,0,,,,,,0.0,,,,,,,
808634,1745299278421,,,,,,,,,,,,,,,,,,,,,,,,,,,,,,,,,,0,0,0,0,0,0,0,0,0,0,0,0,0,0,0,0,,,,,,,,,,,,,
808654,1745299278441,0.0,39,,-0.13,0.21,1.35,1,-0,1,1.37,1.37,100,4624,12.2,4.14,,13.12,1.252,98.8,,34.0,5,,,,,,,,,,,,0,0,0,0,0,0,0,0,0,0,0,0,0,0,0,0,,,,,,0.0,,,,,,,
808674,1745299278461,,,,,,,,,,,,,,,,,,,,,,,0,0,0,0,0.0,0.0,0.0,0.0,2.25,,,0,0,0,0,0,0,0,0,0,0,0,0,0,0,0,0,,0,,,,,38.985332,-76.950233,0.05,48.4,34,3,0.8
808694,1745299278481,0.0,22,,-0.14,0.1,1.29,-0,-0,1,1.3,1.37,95,4638,0.0,2.48,,12.15,1.253,98.8,,34.0,5,,,,,,,,,,,,0,0,0,0,0,0,0,0,0,0,0,0,0,0,0,0,,,,,,0.0,,,,,,,
808714,1745299278501,,,,,,,,,,,,,,,,,,,,,,,,,,,,,,,,,,0,0,0,0,0,0,0,0,0,0,0,0,0,0,0,0,,,,,,,,,,,,,
808734,1745299278519,0.0,28,,-0.15,0.06,1.23,-2,-0,1,1.24,1.37,90,4517,0.0,2.45,,11.58,1.253,98.8,,34.0,5,,,,,,,,,,,,0,0,0,0,0,0,0,0,0,0,0,0,0,0,0,0,,,,,,0.0,,,,,,,
808754,1745299278539,,,,,,,,,,,,,,,,,,,,,,,,,,,,,,,,,,0,0,0,0,0,0,0,0,0,0,0,0,0,0,0,0,,,,,,,,,,,,,
808774,1745299278559,0.0,22,,-0.15,0.12,1.28,-2,-0,1,1.29,1.37,94,4363,0.0,2.44,,11.18,1.243,98.8,,33.0,5,0,0,0,0,0.0,0.0,0.0,0.0,2.26,,,0,0,0,0,0,0,0,0,0,0,0,0,0,0,0,0,,0,,,,0.0,38.985332,-76.950233,0.0,48.4,34,3,0.8
808794,1745299278579,,,,,,,,,,,,,,,,,,,,,,,,,,,,,,,,,,0,0,0,0,0,0,0,0,0,0,0,0,0,0,0,0,,,,,,,,,,,,,
808814,1745299278601,0.0,42,,-0.15,0.15,1.29,-1,-0,1,1.3,1.37,95,4170,0.0,2.45,,11.18,1.243,98.8,,33.0,5,,,,,,,,,,,,0,0,0,0,0,0,0,0,0,0,0,0,0,0,0,0,,,,,,0.0,,,,,,,
808834,1745299278621,,,,,,,,,,,,,,,,,,,,,,,,,,,,,,,,,,0,0,0,0,0,0,0,0,0,0,0,0,0,0,0,0,,,,,,,,,,,,,
808854,1745299278641,0.0,42,,-0.13,-0.0,1.19,-2,-0,1,1.2,1.37,87,4170,0.0,2.45,,10.98,1.251,98.8,,30.6,5,,,,,,,,,,,,0,0,0,0,0,0,0,0,0,0,0,0,0,0,0,0,,,,,,0.0,,,,,,,
808874,1745299278661,,,,,,,,,,,,,,,,,,,,,,,0,0,0,0,0.0,0.0,0.0,0.0,2.26,,,0,0,0,0,0,0,0,0,0,0,0,0,0,0,0,0,,0,,,,,38.985332,-76.950233,0.04,48.4,34,3,0.8
808894,1745299278681,0.0,42,,-0.14,0.06,1.15,-1,-0,0,1.16,1.37,85,4064,0.0,2.32,,11.05,1.251,98.8,,30.6,5,,,,,,,,,,,,0,0,0,0,0,0,0,0,0,0,0,0,0,0,0,0,,,,,,0.0,,,,,,,
808914,1745299278701,,,,,,,,,,,,,,,,,,,,,,,,,,,,,,,,,,0,0,0,0,0,0,0,0,0,0,0,0,0,0,0,0,,,,,,,,,,,,,
808934,1745299278719,0.0,59,,-0.14,0.08,1.14,1,-0,0,1.15,1.37,84,3889,4.3,3.63,,11.52,1.25,98.8,,30.6,5,,,,,,,,,,,,0,0,0,0,0,0,0,0,0,0,0,0,0,0,0,0,,,,,,0.0,,,,,,,
808954,1745299278739,,,,,,,,,,,,,,,,,,,,,,,,,,,,,,,,,,0,0,0,0,0,0,0,0,0,0,0,0,0,0,0,0,,,,,,,,,,,,,
808974,1745299278759,0.0,51,,-0.14,0.09,1.13,1,-0,0,1.14,1.37,83,3831,4.9,3.69,,11.91,1.251,98.8,,27.4,5,0,0,0,0,0.0,0.0,0.0,0.0,2.26,,,0,0,0,0,0,0,0,0,0,0,0,0,0,0,0,0,,0,,,,0.0,38.985332,-76.950233,0.04,48.4,34,3,0.8
808994,1745299278779,,,,,,,,,,,,,,,,,,,,,,,,,,,,,,,,,,0,0,0,0,0,0,0,0,0,0,0,0,0,0,0,0,,,,,,,,,,,,,
809014,1745299278801,0.0,42,,-0.12,0.08,1.13,1,-0,0,1.14,1.37,83,3796,12.0,4.0,,11.91,1.251,98.8,,27.4,5,,,,,,,,,,,,0,0,0,0,0,0,0,0,0,0,0,0,0,0,0,0,,,,,,0.0,,,,,,,
809034,1745299278821,,,,,,,,,,,,,,,,,,,,,,,,,,,,,,,,,,0,0,0,0,0,0,0,0,0,0,0,0,0,0,0,0,,,,,,,,,,,,,
809054,1745299278841,0.0,39,,-0.11,0.07,1.1,1,-0,0,1.11,1.37,81,3796,12.0,4.0,,12.45,1.25,98.8,,26.8,5,,,,,,,,,,,,0,0,0,0,0,0,0,0,0,0,0,0,0,0,0,0,,,,,,0.0,,,,,,,
809074,1745299278861,,,,,,,,,,,,,,,,,,,,,,,0,0,0,0,0.0,0.0,0.0,0.0,2.26,,,0,0,0,0,0,0,0,0,0,0,0,0,0,0,0,0,,0,,,,,38.985332,-76.950233,0.04,48.4,34,3,0.8
809094,1745299278881,0.0,17,,-0.1,0.09,1.09,1,-0,0,1.1,1.37,80,3750,14.3,4.06,,13.05,1.252,98.8,,26.8,5,,,,,,,,,,,,0,0,0,0,0,0,0,0,0,0,0,0,0,0,0,0,,,,,,0.0,,,,,,,
809114,1745299278901,,,,,,,,,,,,,,,,,,,,,,,,,,,,,,,,,,0,0,0,0,0,0,0,0,0,0,0,0,0,0,0,0,,,,,,,,,,,,,
809134,1745299278921,0.0,34,,-0.1,0.03,1.08,-0,-0,0,1.09,1.37,79,3890,18.3,4.18,,13.41,1.253,98.8,,26.8,5,,,,,,,,,,,,0,0,0,0,0,0,0,0,0,0,0,0,0,0,0,0,,,,,,0.0,,,,,,,
809154,1745299278941,,,,,,,,,,,,,,,,,,,,,,,,,,,,,,,,,,0,0,0,0,0,0,0,0,0,0,0,0,0,0,0,0,,,,,,,,,,,,,
809174,1745299278961,0.0,34,,-0.12,-0.04,0.99,-1,-0,-0,1.0,1.37,73,3902,19.0,4.14,,13.52,1.237,98.8,,28.4,5,0,0,0,0,0.0,0.0,0.0,0.0,2.25,,,0,0,0,0,0,0,0,0,0,0,0,0,0,0,0,0,,0,,,,0.0,38.985332,-76.950233,0.11,48.4,34,3,0.8
809194,1745299278981,,,,,,,,,,,,,,,,,,,,,,,,,,,,,,,,,,0,0,0,0,0,0,0,0,0,0,0,0,0,0,0,0,,,,,,,,,,,,,
809214,1745299279001,0.0,45,,-0.14,0.08,1.09,1,-0,0,1.1,1.37,80,4118,19.3,4.16,,13.52,1.237,98.8,,28.4,5,,,,,,,,,,,,0,0,0,0,0,0,0,0,0,0,0,0,0,0,0,0,,,,,,0.0,,,,,,,
809234,1745299279011,,,,,,,,,,,,,,,,,,,,,,,,,,,,,,,,,,0,0,0,0,0,0,0,0,0,0,0,0,0,0,0,0,,,,,,,,,,,,,
809254,1745299279031,0.0,51,,-0.12,-0.02,0.97,-1,-0,-0,0.98,1.37,71,4118,19.3,4.16,,13.48,1.222,98.8,,30.6,5,,,,,,,,,,,,0,0,0,0,0,0,0,0,0,0,0,0,0,0,0,0,,,,,,0.0,,,,,,,
809274,1745299279051,,,,,,,,,,,,,,,,,,,,,,,0,0,0,0,0.0,0.0,0.0,0.0,2.25,,,0,0,0,0,0,0,0,0,0,0,0,0,0,0,0,0,,0,,,,,38.985332,-76.950233,0.04,48.4,34,3,0.8
809294,1745299279071,0.0,31,,-0.11,-0.06,0.93,-1,-0,-0,0.94,1.37,69,4297,19.4,4.16,,13.43,1.242,98.8,,30.6,5,,,,,,,,,,,,0,0,0,0,0,0,0,0,0,0,0,0,0,0,0,0,,,,,,0.0,,,,,,,
809314,1745299279101,,,,,,,,,,,,,,,,,,,,,,,,,,,,,,,,,,0,0,0,0,0,0,0,0,0,0,0,0,0,0,0,0,,,,,,,,,,,,,
809334,1745299279121,0.0,45,,-0.13,-0.06,0.95,-1,-0,0,0.96,1.37,70,4433,19.5,4.17,,13.43,1.247,98.8,,30.6,5,,,,,,,,,,,,0,0,0,0,0,0,0,0,0,0,0,0,0,0,0,0,,,,,,0.0,,,,,,,
809354,1745299279141,,,,,,,,,,,,,,,,,,,,,,,,,,,,,,,,,,0,0,0,0,0,0,0,0,0,0,0,0,0,0,0,0,,,,,,,,,,,,,
809374,1745299279161,0.0,36,,-0.13,-0.09,0.95,-2,-0,0,0.96,1.37,70,4541,19.5,4.16,,13.39,1.248,98.8,,32.5,5,0,0,0,0,0.0,0.0,0.0,0.0,2.26,,,0,0,0,0,0,0,0,0,0,0,0,0,0,0,0,0,,0,,,,0.0,38.985332,-76.950233,0.0,48.4,34,3,0.8
809394,1745299279181,,,,,,,,,,,,,,,,,,,,,,,,,,,,,,,,,,0,0,0,0,0,0,0,0,0,0,0,0,0,0,0,0,,,,,,,,,,,,,
809414,1745299279201,0.0,51,,-0.14,-0.13,0.92,-3,-0,0,0.94,1.37,69,4520,19.3,4.18,,13.39,1.248,98.8,,32.5,5,,,,,,,,,,,,0,0,0,0,0,0,0,0,0,0,0,0,0,0,0,0,,,,,,0.0,,,,,,,
809434,1745299279219,,,,,,,,,,,,,,,,,,,,,,,,,,,,,,,,,,0,0,0,0,0,0,0,0,0,0,0,0,0,0,0,0,,,,,,,,,,,,,
809454,1745299279239,0.0,51,,-0.14,-0.14,0.85,-4,-0,-0,0.87,1.37,64,4520,19.3,4.18,,13.39,1.249,98.8,,33.7,5,,,,,,,,,,,,0,0,0,0,0,0,0,0,0,0,0,0,0,0,0,0,,,,,,0.0,,,,,,,
809474,1745299279259,,,,,,,,,,,,,,,,,,,,,,,0,0,0,0,0.0,0.0,0.0,0.0,2.26,,,0,0,0,0,0,0,0,0,0,0,0,0,0,0,0,0,,0,,,,,38.985332,-76.950233,0.0,48.4,35,3,0.8
809494,1745299279279,0.0,31,,-0.12,-0.09,0.9,-2,-0,-0,0.91,1.37,66,4673,19.3,4.17,,13.49,1.249,98.8,,33.7,5,,,,,,,,,,,,0,0,0,0,0,0,0,0,0,0,0,0,0,0,0,0,,,,,,0.0,,,,,,,
809514,1745299279301,,,,,,,,,,,,,,,,,,,,,,,,,,,,,,,,,,0,0,0,0,0,0,0,0,0,0,0,0,0,0,0,0,,,,,,,,,,,,,
809534,1745299279321,0.0,45,,-0.13,-0.13,0.91,-2,-0,-0,0.92,1.37,67,4801,19.3,4.17,,13.37,1.187,98.8,,33.7,5,,,,,,,,,,,,0,0,0,0,0,0,0,0,0,0,0,0,0,0,0,0,,,,,,0.0,,,,,,,
809554,1745299279341,,,,,,,,,,,,,,,,,,,,,,,,,,,,,,,,,,0,0,0,0,0,0,0,0,0,0,0,0,0,0,0,0,,,,,,,,,,,,,
809574,1745299279361,0.0,39,13.19,-0.1,-0.08,0.91,-2,-0,-0,0.92,1.37,67,4855,19.3,4.17,15,13.36,1.058,98.8,171,35.7,5,0,0,0,0,0.0,0.0,0.0,0.0,2.26,0,1.0,0,0,0,0,0,0,0,0,0,0,0,0,0,0,0,0,0,0,1.0,0,0,0.0,38.985332,-76.950233,0.05,48.4,35,3,0.8
809594,1745299279381,,,,,,,,,,,,,,,,,,,,,,,,,,,,,,,,,,0,0,0,0,0,0,0,0,0,0,0,0,0,0,0,0,,,,,,,,,,,,,
809614,1745299279402,0.0,51,,-0.11,-0.09,0.91,-2,-0,-0,0.92,1.37,67,4950,19.3,4.16,,13.36,1.058,98.8,,35.7,5,,,,,,,,,,,,0,0,0,0,0,0,0,0,0,0,0,0,0,0,0,0,,,,,,0.0,,,,,,,
809634,1745299279422,,,,,,,,,,,,,,,,,,,,,,,,,,,,,,,,,,0,0,0,0,0,0,0,0,0,0,0,0,0,0,0,0,,,,,,,,,,,,,
809654,1745299279442,0.0,39,,-0.1,-0.03,0.97,-1,-0,0,0.97,1.37,71,4950,19.3,4.16,,13.31,1.028,98.8,,36.9,5,,,,,,,,,,,,0,0,0,0,0,0,0,0,0,0,0,0,0,0,0,0,,,,,,0.0,,,,,,,
809674,1745299279462,,,,,,,,,,,,,,,,,,,,,,,0,0,0,0,0.0,0.0,0.0,0.0,2.25,,,0,0,0,0,0,0,0,0,0,0,0,0,0,0,0,0,,0,,,,,38.985332,-76.950233,0.04,48.4,35,3,0.8
809694,1745299279482,0.0,34,,-0.09,-0.05,0.94,-1,-0,-0,0.95,1.37,69,5036,19.3,4.17,,13.19,1.03,98.8,,36.9,5,,,,,,,,,,,,0,0,0,0,0,0,0,0,0,0,0,0,0,0,0,0,,,,,,0.0,,,,,,,
809714,1745299279502,,,,,,,,,,,,,,,,,,,,,,,,,,,,,,,,,,0,0,0,0,0,0,0,0,0,0,0,0,0,0,0,0,,,,,,,,,,,,,
809734,1745299279520,0.0,36,,-0.08,-0.05,0.95,-0,-0,-0,0.95,1.37,69,5190,19.4,4.17,,13.19,1.062,98.8,,36.9,5,,,,,,,,,,,,0,0,0,0,0,0,0,0,0,0,0,0,0,0,0,0,,,,,,0.0,,,,,,,
809754,1745299279540,,,,,,,,,,,,,,,,,,,,,,,,,,,,,,,,,,0,0,0,0,0,0,0,0,0,0,0,0,0,0,0,0,,,,,,,,,,,,,
809774,1745299279560,0.0,34,,-0.08,-0.08,0.94,-0,-0,-0,0.95,1.37,69,5372,19.5,4.17,,13.07,1.079,98.8,,39.4,5,0,0,0,0,0.0,0.0,0.0,0.0,2.25,,,0,0,0,0,0,0,0,0,0,0,0,0,0,0,0,0,,0,,,,0.0,38.985332,-76.950233,0.07,48.4,35,3,0.8
809794,1745299279580,,,,,,,,,,,,,,,,,,,,,,,,,,,,,,,,,,0,0,0,0,0,0,0,0,0,0,0,0,0,0,0,0,,,,,,,,,,,,,
809814,1745299279602,0.0,48,,-0.08,-0.1,0.91,-1,-0,0,0.92,1.37,67,5474,19.5,4.18,,13.07,1.079,98.8,,39.4,5,,,,,,,,,,,,0,0,0,0,0,0,0,0,0,0,0,0,0,0,0,0,,,,,,0.0,,,,,,,
809834,1745299279622,,,,,,,,,,,,,,,,,,,,,,,,,,,,,,,,,,0,0,0,0,0,0,0,0,0,0,0,0,0,0,0,0,,,,,,,,,,,,,
809854,1745299279642,0.0,51,,-0.07,-0.08,0.95,-0,-0,-0,0.95,1.37,69,5474,19.5,4.18,,12.84,1.073,98.8,,41.6,5,,,,,,,,,,,,0,0,0,0,0,0,0,0,0,0,0,0,0,0,0,0,,,,,,0.0,,,,,,,
809874,1745299279662,,,,,,,,,,,,,,,,,,,,,,,0,0,0,0,0.0,0.0,0.0,0.0,2.26,,,0,0,0,0,0,0,0,0,0,0,0,0,0,0,0,0,,0,,,,,38.985332,-76.950233,0.1,48.4,35,3,0.8
809894,1745299279682,0.0,51,,-0.09,-0.08,0.9,-1,-0,0,0.9,1.37,66,5616,19.4,4.17,,12.64,1.123,98.8,,41.6,5,,,,,,,,,,,,0,0,0,0,0,0,0,0,0,0,0,0,0,0,0,0,,,,,,0.0,,,,,,,
809914,1745299279702,,,,,,,,,,,,,,,,,,,,,,,,,,,,,,,,,,0,0,0,0,0,0,0,0,0,0,0,0,0,0,0,0,,,,,,,,,,,,,
809934,1745299279722,0.0,45,,-0.11,0.05,1.01,-0,-0,0,1.01,1.37,74,5778,19.4,4.16,,12.61,1.196,98.8,,41.6,5,,,,,,,,,,,,0,0,0,0,0,0,0,0,0,0,0,0,0,0,0,0,,,,,,0.0,,,,,,,
809954,1745299279742,,,,,,,,,,,,,,,,,,,,,,,,,,,,,,,,,,0,0,0,0,0,0,0,0,0,0,0,0,0,0,0,0,,,,,,,,,,,,,
809974,1745299279762,0.0,36,,-0.09,0.06,1.1,-0,-0,0,1.11,1.37,81,5985,19.4,4.17,,12.51,1.249,98.8,,44.1,5,0,0,0,0,0.0,0.0,0.0,0.0,2.26,,,0,0,0,0,0,0,0,0,0,0,0,0,0,0,0,0,,0,,,,0.0,38.985332,-76.950233,0.0,48.4,35,3,0.8
809994,1745299279782,,,,,,,,,,,,,,,,,,,,,,,,,,,,,,,,,,0,0,0,0,0,0,0,0,0,0,0,0,0,0,0,0,,,,,,,,,,,,,
810014,1745299279802,0.0,45,,-0.11,0.12,1.15,-1,-0,0,1.16,1.37,84,6177,19.4,4.35,,12.51,1.249,98.8,,44.1,5,,,,,,,,,,,,0,0,0,0,0,0,0,0,0,0,0,0,0,0,0,0,,,,,,0.0,,,,,,,
810034,1745299279820,,,,,,,,,,,,,,,,,,,,,,,,,,,,,,,,,,0,0,0,0,0,0,0,0,0,0,0,0,0,0,0,0,,,,,,,,,,,,,
810054,1745299279840,0.0,53,,-0.11,0.07,1.08,-1,-0,0,1.09,1.37,79,6177,19.4,4.35,,12.37,1.248,98.8,,48.1,5,,,,,,,,,,,,0,0,0,0,0,0,0,0,0,0,0,0,0,0,0,0,,,,,,0.0,,,,,,,
810074,1745299279860,,,,,,,,,,,,,,,,,,,,,,,0,0,0,0,0.0,0.0,0.0,0.0,2.26,,,0,0,0,0,0,0,0,0,0,0,0,0,0,0,0,0,,0,,,,,38.985332,-76.950233,0.04,48.4,35,3,0.8
810094,1745299279880,0.0,45,,-0.09,-0.0,1.04,-1,-0,0,1.04,1.37,76,6464,19.4,4.73,,12.44,1.189,98.8,,48.1,5,,,,,,,,,,,,0,0,0,0,0,0,0,0,0,0,0,0,0,0,0,0,,,,,,0.0,,,,,,,
810114,1745299279902,,,,,,,,,,,,,,,,,,,,,,,,,,,,,,,,,,0,0,0,0,0,0,0,0,0,0,0,0,0,0,0,0,,,,,,,,,,,,,
810134,1745299279922,0.0,45,,-0.09,0.16,1.09,-1,-0,0,1.1,1.37,80,6881,19.5,5.48,,11.87,1.102,98.8,,48.1,5,,,,,,,,,,,,0,0,0,0,0,0,0,0,0,0,0,0,0,0,0,0,,,,,,0.0,,,,,,,
810154,1745299279942,,,,,,,,,,,,,,,,,,,,,,,,,,,,,,,,,,0,0,0,0,0,0,0,0,0,0,0,0,0,0,0,0,,,,,,,,,,,,,
810174,1745299279962,0.0,48,,-0.07,0.2,1.08,-1,-0,0,1.1,1.37,80,7415,19.6,5.63,,11.63,0.961,98.8,,53.1,5,0,0,0,0,0.0,0.0,0.0,0.0,2.25,,,0,0,0,0,0,0,0,0,0,0,0,0,0,0,0,0,,0,,,,0.0,38.985332,-76.950233,0.07,48.4,35,3,0.8
810194,1745299279982,,,,,,,,,,,,,,,,,,,,,,,,,,,,,,,,,,0,0,0,0,0,0,0,0,0,0,0,0,0,0,0,0,,,,,,,,,,,,,
810214,1745299280002,0.0,56,,-0.04,0.07,1.13,-1,-0,0,1.13,1.37,82,7785,20.1,5.52,,11.63,0.961,98.8,,53.1,5,,,,,,,,,,,,0,0,0,0,0,0,0,0,0,0,0,0,0,0,0,0,,,,,,0.0,,,,,,,
810234,1745299280010,,,,,,,,,,,,,,,,,,,,,,,,,,,,,,,,,,0,0,0,0,0,0,0,0,0,0,0,0,0,0,0,0,,,,,,,,,,,,,
810254,1745299280030,0.0,59,,-0.03,0.04,1.1,-0,0,0,1.1,1.37,80,7785,20.1,5.52,,11.18,0.883,98.8,,54.7,5,,,,,,,,,,,,0,0,0,0,0,0,0,0,0,0,0,0,0,0,0,0,,,,,,0.0,,,,,,,
810274,1745299280050,,,,,,,,,,,,,,,,,,,,,,,0,0,0,0,0.0,0.0,0.0,0.0,2.26,,,0,0,0,0,0,0,0,0,0,0,0,0,0,0,0,0,,0,,,,,38.985332,-76.950233,0.04,48.4,35,3,0.8
810294,1745299280070,0.0,53,,-0.03,-0.01,1.11,-0,0,0,1.11,1.37,81,8076,20.9,5.36,,11.04,0.811,98.8,,54.7,5,,,,,,,,,,,,0,0,0,0,0,0,0,0,0,0,0,0,0,0,0,0,,,,,,0.0,,,,,,,
810314,1745299280090,,,,,,,,,,,,,,,,,,,,,,,,,,,,,,,,,,0,0,0,0,0,0,0,0,0,0,0,0,0,0,0,0,,,,,,,,,,,,,
810334,1745299280118,0.0,56,,0.01,0.23,1.13,-0,0,0,1.15,1.37,84,8538,21.0,4.71,,10.77,0.791,98.8,,54.7,5,,,,,,,,,,,,0,0,0,0,0,0,0,0,0,0,0,0,0,0,0,0,,,,,,0.0,,,,,,,
810354,1745299280138,,,,,,,,,,,,,,,,,,,,,,,,,,,,,,,,,,0,0,0,0,0,0,0,0,0,0,0,0,0,0,0,0,,,,,,,,,,,,,
810374,1745299280158,0.0,45,,0.02,0.03,1.1,1,0,-0,1.1,1.37,80,9509,21.1,3.59,,10.25,0.783,98.8,,56.3,5,0,0,0,0,0.0,0.0,0.0,0.0,2.25,,,0,0,0,0,0,0,0,0,0,0,0,0,0,0,0,0,,0,,,,0.0,38.985332,-76.950233,0.09,48.4,35,3,0.8
810394,1745299280178,,,,,,,,,,,,,,,,,,,,,,,,,,,,,,,,,,0,0,0,0,0,0,0,0,0,0,0,0,0,0,0,0,,,,,,,,,,,,,
810414,1745299280198,0.0,59,,0.05,0.14,1.04,0,0,1,1.05,1.37,76,10248,20.9,3.53,,10.25,0.783,98.8,,56.3,5,,,,,,,,,,,,0,0,0,0,0,0,0,0,0,0,0,0,0,0,0,0,,,,,,0.0,,,,,,,
810434,1745299280220,,,,,,,,,,,,,,,,,,,,,,,,,,,,,,,,,,0,0,0,0,0,0,0,0,0,0,0,0,0,0,0,0,,,,,,,,,,,,,
810454,1745299280240,0.0,70,,0.07,0.36,0.97,-0,0,1,1.04,1.37,75,10248,20.9,3.53,,9.6,0.779,98.8,,57.1,5,,,,,,,,,,,,0,0,0,0,0,0,0,0,0,0,0,0,0,0,0,0,,,,,,0.0,,,,,,,
810474,1745299280260,,,,,,,,,,,,,,,,,,,,,,,0,0,0,0,0.0,0.0,0.0,0.0,2.25,,,0,0,0,0,0,0,0,0,0,0,0,0,0,0,0,0,,0,,,,,38.985332,-76.950233,0.31,48.4,35,3,0.8
810494,1745299280280,0.0,62,,0.08,0.19,0.99,-1,0,0,1.01,1.37,73,10791,20.9,3.42,,9.52,0.837,98.8,,57.1,5,,,,,,,,,,,,0,0,0,0,0,0,0,0,0,0,0,0,0,0,0,0,,,,,,0.0,,,,,,,
810514,1745299280302,,,,,,,,,,,,,,,,,,,,,,,,,,,,,,,,,,0,0,0,0,0,0,0,0,0,0,0,0,0,0,0,0,,,,,,,,,,,,,
810534,1745299280322,0.0,79,,0.13,0.27,1.03,-0,0,-0,1.07,1.37,78,11194,20.8,3.22,,9.02,0.865,98.8,,57.1,5,,,,,,,,,,,,0,0,0,0,0,0,0,0,0,0,0,0,0,0,0,0,,,,,,0.0,,,,,,,
810554,1745299280342,,,,,,,,,,,,,,,,,,,,,,,,,,,,,,,,,,0,0,0,0,0,0,0,0,0,0,0,0,0,0,0,0,,,,,,,,,,,,,
810574,1745299280362,0.0,73,13.11,0.13,0.15,1.0,-0,0,0,1.02,1.37,74,11514,20.7,3.08,15,8.93,0.857,98.8,171,57.7,5,0,0,0,0,0.0,0.0,0.0,0.0,2.25,0,1.0,0,0,0,0,0,0,0,0,0,0,0,0,0,0,0,0,0,0,1.0,0,0,0.0,38.985332,-76.950233,0.9,48.4,35,3,0.8
810594,1745299280382,,,,,,,,,,,,,,,,,,,,,,,,,,,,,,,,,,0,0,0,0,0,0,0,0,0,0,0,0,0,0,0,0,,,,,,,,,,,,,
810614,1745299280402,0.0,68,,0.12,0.18,0.92,1,0,1,0.95,1.37,69,11591,20.8,2.97,,8.93,0.857,97.0,,57.7,5,,,,,,,,,,,,0,0,0,0,0,0,0,0,0,0,0,0,0,0,0,0,,,,,,0.0,,,,,,,
810634,1745299280419,,,,,,,,,,,,,,,,,,,,,,,,,,,,,,,,,,0,0,0,0,0,0,0,0,0,0,0,0,0,0,0,0,,,,,,,,,,,,,
810654,1745299280439,0.0,82,,0.12,0.3,0.96,2,0,-0,1.01,1.37,74,11591,20.8,2.97,,8.77,0.862,97.0,,57.6,5,,,,,,,,,,,,0,0,0,0,0,0,0,0,0,0,0,0,0,0,0,0,,,,,,0.0,,,,,,,
810674,1745299280459,,,,,,,,,,,,,,,,,,,,,,,0,0,0,1,0.0,0.0,0.0,0.0,2.26,,,0,0,0,0,0,0,0,0,0,0,0,0,0,0,0,0,,0,,,,,38.985332,-76.950233,1.58,48.4,35,3,0.8
810694,1745299280479,0.0,65,,0.11,0.11,0.96,1,-0,-0,0.97,1.37,71,11642,20.8,2.91,,8.7,0.914,97.0,,57.6,5,,,,,,,,,,,,0,0,0,0,0,0,0,0,0,0,0,0,0,0,0,0,,,,,,0.0,,,,,,,
810714,1745299280499,,,,,,,,,,,,,,,,,,,,,,,,,,,,,,,,,,0,0,0,0,0,0,0,0,0,0,0,0,0,0,0,0,,,,,,,,,,,,,
810734,1745299280519,0.0,79,,0.13,-0.01,0.92,2,0,-2,0.93,1.37,68,11670,20.9,2.92,,8.67,0.936,97.0,,57.6,5,,,,,,,,,,,,0,0,0,0,0,0,0,0,0,0,0,0,0,0,0,0,,,,,,0.0,,,,,,,
810754,1745299280539,,,,,,,,,,,,,,,,,,,,,,,,,,,,,,,,,,0,0,0,0,0,0,0,0,0,0,0,0,0,0,0,0,,,,,,,,,,,,,
810774,1745299280559,0.0,59,,0.09,0.1,0.92,1,0,-2,0.93,1.37,68,11730,20.9,2.89,,8.57,0.951,97.0,,59.5,5,2,0,2,2,0.0,0.0,0.0,0.0,2.25,,,0,0,0,0,0,0,0,0,0,0,0,0,0,0,0,0,,0,,,,0.0,38.985332,-76.950233,2.36,48.4,35,3,0.8
810794,1745299280579,,,,,,,,,,,,,,,,,,,,,,,,,,,,,,,,,,0,0,0,0,0,0,0,0,0,0,0,0,0,0,0,0,,,,,,,,,,,,,
810814,1745299280599,0.0,73,,0.11,0.12,1.08,1,-0,-1,1.09,1.37,79,11758,21.1,2.9,,8.57,0.951,97.0,,59.5,5,,,,,,,,,,,,0,0,0,0,0,0,0,0,0,0,0,0,0,0,0,0,,,,,,0.0,,,,,,,
810834,1745299280619,,,,,,,,,,,,,,,,,,,,,,,,,,,,,,,,,,0,0,0,0,0,0,0,0,0,0,0,0,0,0,0,0,,,,,,,,,,,,,
810854,1745299280639,0.0,76,,0.15,0.25,1.12,2,0,-0,1.16,1.37,84,11758,21.1,2.9,,8.57,0.973,97.0,,63.0,5,,,,,,,,,,,,0,0,0,0,0,0,0,0,0,0,0,0,0,0,0,0,,,,,,0.0,,,,,,,
810874,1745299280659,,,,,,,,,,,,,,,,,,,,,,,2,0,2,2,0.0,0.0,0.0,0.0,2.25,,,0,0,0,0,0,0,0,0,0,0,0,0,0,0,0,0,,0,,,,,38.985332,-76.950233,3.11,48.4,35,3,0.8
810894,1745299280679,0.0,76,,0.17,0.11,1.11,3,0,-0,1.13,1.37,82,11639,20.8,2.87,,8.61,0.976,97.0,,63.0,5,,,,,,,,,,,,0,0,0,0,0,0,0,0,0,0,0,0,0,0,0,0,,,,,,0.0,,,,,,,
810914,1745299280699,,,,,,,,,,,,,,,,,,,,,,,,,,,,,,,,,,0,0,0,0,0,0,0,0,0,0,0,0,0,0,0,0,,,,,,,,,,,,,
810934,1745299280719,0.0,82,,0.21,0.13,1.02,3,-0,0,1.05,1.37,76,11369,20.2,2.86,,8.53,0.996,97.0,,63.0,5,,,,,,,,,,,,0,0,0,0,0,0,0,0,0,0,0,0,0,0,0,0,,,,,,0.0,,,,,,,
810954,1745299280739,,,,,,,,,,,,,,,,,,,,,,,,,,,,,,,,,,0,0,0,0,0,0,0,0,0,0,0,0,0,0,0,0,,,,,,,,,,,,,
810974,1745299280759,0.0,79,,0.24,0.19,0.97,4,-0,-0,1.02,1.37,74,11235,19.7,2.89,,8.46,1.017,97.0,,58.8,5,3,0,3,3,0.0,0.0,0.0,0.0,2.26,,,0,0,0,0,0,0,0,0,0,0,0,0,0,0,0,0,,0,,,,0.0,38.985332,-76.950233,3.87,48.5,35,3,0.8
810994,1745299280779,,,,,,,,,,,,,,,,,,,,,,,,,,,,,,,,,,0,0,0,0,0,0,0,0,0,0,0,0,0,0,0,0,,,,,,,,,,,,,
811014,1745299280799,0.0,76,,0.24,0.18,1.0,4,-0,-0,1.05,1.37,76,10940,19.3,2.96,,8.46,1.017,97.0,,58.8,5,,,,,,,,,,,,0,0,0,0,0,0,0,0,0,0,0,0,0,0,0,0,,,,,,0.0,,,,,,,
811034,1745299280817,,,,,,,,,,,,,,,,,,,,,,,,,,,,,,,,,,0,0,0,0,0,0,0,0,0,0,0,0,0,0,0,0,,,,,,,,,,,,,
811054,1745299280837,0.0,87,,0.25,-0.03,0.94,5,-0,-1,0.97,1.37,71,10940,19.3,2.96,,8.45,0.99,97.0,,62.8,5,,,,,,,,,,,,0,0,0,0,0,0,0,0,0,0,0,0,0,0,0,0,,,,,,0.0,,,,,,,
811074,1745299280857,,,,,,,,,,,,,,,,,,,,,,,4,0,4,3,0.0,0.0,0.0,0.0,2.26,,,0,0,0,0,0,0,0,0,0,0,0,0,0,0,0,0,,0,,,,,38.985332,-76.950233,5.06,48.5,35,3,0.8
811094,1745299280877,0.0,85,,0.25,0.07,0.94,4,-0,-0,0.98,1.37,71,10817,19.1,2.96,,8.46,0.996,97.0,,62.8,5,,,,,,,,,,,,0,0,0,0,0,0,0,0,0,0,0,0,0,0,0,0,,,,,,0.0,,,,,,,
811114,1745299280897,,,,,,,,,,,,,,,,,,,,,,,,,,,,,,,,,,0,0,0,0,0,0,0,0,0,0,0,0,0,0,0,0,,,,,,,,,,,,,
811134,1745299280919,0.0,85,,0.3,0.21,1.0,5,-0,-0,1.06,1.37,78,10618,19.2,3.01,,8.43,0.971,97.0,,62.8,5,,,,,,,,,,,,0,0,0,0,0,0,0,0,0,0,0,0,0,0,0,0,,,,,,0.0,,,,,,,
811154,1745299280939,,,,,,,,,,,,,,,,,,,,,,,,,,,,,,,,,,0,0,0,0,0,0,0,0,0,0,0,0,0,0,0,0,,,,,,,,,,,,,
811174,1745299280959,0.0,87,,0.31,0.25,0.92,5,-0,-0,1.01,1.37,73,10518,19.4,3.01,,8.63,0.981,97.0,,57.3,5,5,0,5,5,0.0,0.0,0.0,0.0,2.26,,,0,0,0,0,0,0,0,0,0,0,0,0,0,0,0,0,,0,,,,0.0,38.985332,-76.950226,6.23,48.5,35,3,0.8
811194,1745299280979,,,,,,,,,,,,,,,,,,,,,,,,,,,,,,,,,,0,0,0,0,0,0,0,0,0,0,0,0,0,0,0,0,,,,,,,,,,,,,
811214,1745299280999,0.0,90,,0.32,0.45,0.96,6,-0,0,1.11,1.37,81,10411,19.4,3.03,,8.63,0.981,97.0,,57.3,5,,,,,,,,,,,,0,0,0,0,0,0,0,0,0,0,0,0,0,0,0,0,,,,,,0.0,,,,,,,
811234,1745299281007,,,,,,,,,,,,,,,,,,,,,,,,,,,,,,,,,,0,0,0,0,0,0,0,0,0,0,0,0,0,0,0,0,,,,,,,,,,,,,
811254,1745299281027,0.0,96,,0.33,0.38,0.92,6,-0,0,1.05,1.37,76,10411,19.4,3.03,,8.63,0.983,97.0,,60.5,5,,,,,,,,,,,,0,0,0,0,0,0,0,0,0,0,0,0,0,0,0,0,,,,,,0.0,,,,,,,
811274,1745299281047,,,,,,,,,,,,,,,,,,,,,,,6,0,6,5,0.0,0.0,0.0,0.0,2.25,,,0,0,0,0,0,0,0,0,0,0,0,0,0,0,0,0,,0,,,,,38.985329,-76.950226,8.23,48.5,34,3,0.8
811294,1745299281067,0.0,90,,0.31,0.38,0.91,6,-0,0,1.03,1.37,75,10363,19.3,3.06,,8.66,0.978,97.0,,60.5,5,,,,,,,,,,,,0,0,0,0,0,0,0,0,0,0,0,0,0,0,0,0,,,,,,0.0,,,,,,,
811314,1745299281087,,,,,,,,,,,,,,,,,,,,,,,,,,,,,,,,,,0,0,0,0,0,0,0,0,0,0,0,0,0,0,0,0,,,,,,,,,,,,,
811334,1745299281117,0.0,90,,0.27,0.36,0.93,7,-0,0,1.03,1.37,75,10337,19.4,3.09,,8.77,0.979,97.0,,60.5,5,,,,,,,,,,,,0,0,0,0,0,0,0,0,0,0,0,0,0,0,0,0,,,,,,0.0,,,,,,,
811354,1745299281137,,,,,,,,,,,,,,,,,,,,,,,,,,,,,,,,,,0,0,0,0,0,0,0,0,0,0,0,0,0,0,0,0,,,,,,,,,,,,,
811374,1745299281157,0.0,93,,0.26,0.37,0.89,8,-1,0,1.0,1.37,73,10304,19.4,3.11,,8.73,0.976,97.0,,57.9,5,7,0,7,6,0.0,0.0,0.0,0.0,2.25,,,0,0,0,0,0,0,0,0,0,0,0,0,0,0,0,0,,0,,,,0.0,38.985329,-76.950226,9.63,48.4,34,3,0.8
811394,1745299281177,,,,,,,,,,,,,,,,,,,,,,,,,,,,,,,,,,0,0,0,0,0,0,0,0,0,0,0,0,0,0,0,0,,,,,,,,,,,,,
811414,1745299281197,0.0,93,,0.32,0.41,0.88,9,-1,-0,1.02,1.37,74,10285,19.4,3.1,,8.73,0.976,97.0,,57.9,5,,,,,,,,,,,,0,0,0,0,0,0,0,0,0,0,0,0,0,0,0,0,,,,,,0.0,,,,,,,
811434,1745299281209,,,,,,,,,,,,,,,,,,,,,,,,,,,,,,,,,,0,0,0,0,0,0,0,0,0,0,0,0,0,0,0,0,,,,,,,,,,,,,
811454,1745299281229,0.0,116,,0.3,0.46,0.89,9,-1,0,1.05,1.37,76,10285,19.4,3.1,,8.63,0.977,97.0,,56.9,5,,,,,,,,,,,,0,0,0,0,0,0,0,0,0,0,0,0,0,0,0,0,,,,,,0.0,,,,,,,
811474,1745299281249,,,,,,,,,,,,,,,,,,,,,,,8,0,7,7,0.0,9.0,0.0,0.0,2.26,,,0,0,0,0,0,0,0,0,0,0,0,0,0,0,0,0,,0,,,,,38.985329,-76.950218,10.8,48.5,34,3,0.8
811494,1745299281269,0.0,119,,0.27,0.37,0.93,10,-1,0,1.03,1.37,75,10264,19.2,3.12,,8.74,0.975,97.0,,56.9,5,,,,,,,,,,,,0,0,0,0,0,0,0,0,0,0,0,0,0,0,0,0,,,,,,0.0,,,,,,,
811514,1745299281289,,,,,,,,,,,,,,,,,,,,,,,,,,,,,,,,,,0,0,0,0,0,0,0,0,0,0,0,0,0,0,0,0,,,,,,,,,,,,,
811534,1745299281317,0.0,104,,0.28,0.31,0.84,9,-1,-0,0.93,1.37,68,10236,19.2,3.15,,8.82,0.968,97.0,,56.9,5,,,,,,,,,,,,0,0,0,0,0,0,0,0,0,0,0,0,0,0,0,0,,,,,,0.0,,,,,,,
811554,1745299281337,,,,,,,,,,,,,,,,,,,,,,,,,,,,,,,,,,0,0,0,0,0,0,0,0,0,0,0,0,0,0,0,0,,,,,,,,,,,,,
811574,1745299281357,0.0,113,13.17,0.35,0.13,0.85,10,-0,-0,0.93,1.37,67,9920,19.2,3.18,15,8.74,0.965,97.0,171,56.8,5,9,0,9,10,0.0,16.0,0.0,0.0,2.26,0,1.0,0,0,0,0,0,0,0,0,0,0,0,0,0,0,0,0,0,0,1.0,0,0,0.0,38.985329,-76.950218,12.05,48.5,34,3,0.8
811594,1745299281377,,,,,,,,,,,,,,,,,,,,,,,,,,,,,,,,,,0,0,0,0,0,0,0,0,0,0,0,0,0,0,0,0,,,,,,,,,,,,,
811614,1745299281397,0.0,116,,0.4,0.37,0.91,11,0,0,1.06,1.37,77,9170,17.7,3.09,,8.74,0.965,97.0,,56.8,5,,,,,,,,,,,,0,0,0,0,0,0,0,0,0,0,0,0,0,0,0,0,,,,,,0.0,,,,,,,
811634,1745299281420,,,,,,,,,,,,,,,,,,,,,,,,,,,,,,,,,,0,0,0,0,0,0,0,0,0,0,0,0,0,0,0,0,,,,,,,,,,,,,
811654,1745299281440,0.0,130,,0.46,0.38,0.96,12,0,0,1.13,1.37,82,9170,17.7,3.09,,8.95,0.972,97.0,,52.9,5,,,,,,,,,,,,0,0,0,0,0,0,0,0,0,0,0,0,0,0,0,0,,,,,,0.0,,,,,,,
811674,1745299281460,,,,,,,,,,,,,,,,,,,,,,,10,0,19,16,0.0,45.0,0.0,0.0,2.26,,,0,0,0,0,0,0,0,0,0,0,0,0,0,0,0,0,,0,,,,,38.985332,-76.950218,13.61,48.5,34,3,0.8
811694,1745299281480,0.0,121,,0.51,0.39,1.06,13,0,1,1.24,1.37,90,8135,10.5,2.87,,8.9,0.97,97.0,,52.9,5,,,,,,,,,,,,0,0,0,0,0,0,0,0,0,0,0,0,0,0,0,0,,,,,,0.0,,,,,,,
811714,1745299281500,,,,,,,,,,,,,,,,,,,,,,,,,,,,,,,,,,0,0,0,0,0,0,0,0,0,0,0,0,0,0,0,0,,,,,,,,,,,,,
811734,1745299281518,0.0,119,,0.54,0.35,1.07,17,-0,0,1.25,1.37,91,7128,8.8,3.03,,9.1,0.938,97.0,,52.9,5,,,,,,,,,,,,0,0,0,0,0,0,0,0,0,0,0,0,0,0,0,0,,,,,,0.0,,,,,,,
811754,1745299281538,,,,,,,,,,,,,,,,,,,,,,,,,,,,,,,,,,0,0,0,0,0,0,0,0,0,0,0,0,0,0,0,0,,,,,,,,,,,,,
811774,1745299281558,0.0,113,,0.59,0.26,1.02,18,-1,-0,1.21,1.37,88,6484,9.3,3.02,,9.5,0.928,97.0,,49.4,5,13,0,18,18,0.0,191.0,0.0,0.0,2.25,,,0,0,0,0,0,0,0,0,0,0,0,0,0,0,0,0,,0,,,,0.0,38.985332,-76.950211,16.62,48.5,34,3,0.8
811794,1745299281578,,,,,,,,,,,,,,,,,,,,,,,,,,,,,,,,,,0,0,0,0,0,0,0,0,0,0,0,0,0,0,0,0,,,,,,,,,,,,,
811814,1745299281598,0.0,110,,0.59,0.3,1.03,21,-0,-0,1.22,1.37,89,5600,9.5,2.79,,9.5,0.928,97.0,,49.4,5,,,,,,,,,,,,0,0,0,0,0,0,0,0,0,0,0,0,0,0,0,0,,,,,,0.0,,,,,,,
811834,1745299281618,,,,,,,,,,,,,,,,,,,,,,,,,,,,,,,,,,0,0,0,0,0,0,0,0,0,0,0,0,0,0,0,0,,,,,,,,,,,,,
811854,1745299281638,0.0,110,,0.6,0.25,0.97,21,-0,-1,1.17,1.37,85,5600,9.5,2.79,,10.26,0.938,97.0,,38.3,5,,,,,,,,,,,,0,0,0,0,0,0,0,0,0,0,0,0,0,0,0,0,,,,,,0.0,,,,,,,
811874,1745299281658,,,,,,,,,,,,,,,,,,,,,,,14,0,14,15,0.0,108.0,0.0,0.0,2.26,,,0,0,0,0,0,0,0,0,0,0,0,0,0,0,0,0,,0,,,,,38.985332,-76.950203,20.43,48.5,34,3,0.8
811894,1745299281678,0.0,107,,0.51,0.34,0.99,23,-1,-1,1.17,1.37,85,4495,9.3,2.85,,11.14,0.958,97.0,,38.3,5,,,,,,,,,,,,0,0,0,0,0,0,0,0,0,0,0,0,0,0,0,0,,,,,,0.0,,,,,,,
811914,1745299281698,,,,,,,,,,,,,,,,,,,,,,,,,,,,,,,,,,0,0,0,0,0,0,0,0,0,0,0,0,0,0,0,0,,,,,,,,,,,,,
811934,1745299281718,0.0,93,,0.44,0.34,0.99,24,-2,-1,1.13,1.37,82,3800,10.0,3.75,,11.89,0.942,97.0,,38.3,5,,,,,,,,,,,,0,0,0,0,0,0,0,0,0,0,0,0,0,0,0,0,,,,,,0.0,,,,,,,
811954,1745299281738,,,,,,,,,,,,,,,,,,,,,,,,,,,,,,,,,,0,0,0,0,0,0,0,0,0,0,0,0,0,0,0,0,,,,,,,,,,,,,
811974,1745299281758,0.0,93,,0.35,0.29,1.01,25,-2,-1,1.1,1.37,80,3727,11.0,3.86,,12.45,0.934,97.0,,26.1,5,14,0,14,13,0.0,223.0,0.0,0.0,2.26,,,0,0,0,0,0,0,0,0,0,0,0,0,0,0,0,0,,0,,,,0.0,38.985332,-76.950195,21.86,48.5,34,3,0.8
811994,1745299281778,,,,,,,,,,,,,,,,,,,,,,,,,,,,,,,,,,0,0,0,0,0,0,0,0,0,0,0,0,0,0,0,0,,,,,,,,,,,,,
812014,1745299281798,0.0,85,,0.24,0.32,1.05,25,-2,-1,1.13,1.37,82,3902,10.8,3.9,,12.45,0.934,97.0,,26.1,5,,,,,,,,,,,,0,0,0,0,0,0,0,0,0,0,0,0,0,0,0,0,,,,,,0.0,,,,,,,
812034,1745299281818,,,,,,,,,,,,,,,,,,,,,,,,,,,,,,,,,,0,0,0,0,0,0,0,0,0,0,0,0,0,0,0,0,,,,,,,,,,,,,
812054,1745299281838,0.0,85,,0.19,0.28,0.97,24,-2,-1,1.02,1.37,75,3902,10.8,3.9,,12.61,0.965,97.0,,28.8,5,,,,,,,,,,,,0,0,0,0,0,0,0,0,0,0,0,0,0,0,0,0,,,,,,0.0,,,,,,,
812074,1745299281858,,,,,,,,,,,,,,,,,,,,,,,13,0,13,12,0.0,251.0,0.0,0.0,2.26,,,0,0,0,0,0,0,0,0,0,0,0,0,0,0,0,0,,0,,,,,38.985332,-76.950188,21.88,48.5,34,3,0.8
812094,1745299281878,0.0,82,,0.16,0.23,0.88,23,-2,-1,0.92,1.37,67,4307,14.4,3.99,,12.75,1.023,97.0,,28.8,5,,,,,,,,,,,,0,0,0,0,0,0,0,0,0,0,0,0,0,0,0,0,,,,,,0.0,,,,,,,
812114,1745299281898,,,,,,,,,,,,,,,,,,,,,,,,,,,,,,,,,,0,0,0,0,0,0,0,0,0,0,0,0,0,0,0,0,,,,,,,,,,,,,
812134,1745299281918,0.0,85,,0.12,0.19,0.83,22,-2,-1,0.86,1.37,62,4470,15.6,4.09,,12.99,1.071,97.0,,28.8,5,,,,,,,,,,,,0,0,0,0,0,0,0,0,0,0,0,0,0,0,0,0,,,,,,0.0,,,,,,,
812154,1745299281938,,,,,,,,,,,,,,,,,,,,,,,,,,,,,,,,,,0,0,0,0,0,0,0,0,0,0,0,0,0,0,0,0,,,,,,,,,,,,,
812174,1745299281958,0.0,79,,0.1,0.11,0.82,20,-2,-1,0.84,1.37,61,4605,15.7,4.05,,13.12,1.128,97.0,,32.0,5,13,0,13,12,0.0,230.0,0.0,0.0,2.26,,,0,0,0,0,0,0,0,0,0,0,0,0,0,0,0,0,,0,,,,0.0,38.985336,-76.95018,19.88,48.5,34,3,0.8
812194,1745299281978,,,,,,,,,,,,,,,,,,,,,,,,,,,,,,,,,,0,0,0,0,0,0,0,0,0,0,0,0,0,0,0,0,,,,,,,,,,,,,
812214,1745299281998,0.0,76,,0.13,0.11,0.78,21,-2,-1,0.8,1.37,58,4549,15.8,4.08,,13.12,1.128,97.0,,32.0,5,,,,,,,,,,,,0,0,0,0,0,0,0,0,0,0,0,0,0,0,0,0,,,,,,0.0,,,,,,,
812234,1745299282008,,,,,,,,,,,,,,,,,,,,,,,,,,,,,,,,,,0,0,0,0,0,0,0,0,0,0,0,0,0,0,0,0,,,,,,,,,,,,,
812254,1745299282028,0.0,76,,0.15,0.1,0.79,20,-1,-2,0.81,1.37,59,4549,15.8,4.08,,13.01,1.156,97.0,,31.1,5,,,,,,,,,,,,0,0,0,0,0,0,0,0,0,0,0,0,0,0,0,0,,,,,,0.0,,,,,,,
812274,1745299282048,,,,,,,,,,,,,,,,,,,,,,,13,0,13,12,0.0,21.0,0.0,0.0,2.25,,,0,0,0,0,0,0,0,0,0,0,0,0,0,0,0,0,,0,,,,,38.985336,-76.95018,18.97,48.5,34,3,0.8
812294,1745299282068,0.0,62,,0.1,0.13,0.79,21,-2,-2,0.8,1.37,59,4108,15.9,4.02,,13.21,1.035,97.0,,31.1,5,,,,,,,,,,,,0,0,0,0,0,0,0,0,0,0,0,0,0,0,0,0,,,,,,0.0,,,,,,,
812314,1745299282088,,,,,,,,,,,,,,,,,,,,,,,,,,,,,,,,,,0,0,0,0,0,0,0,0,0,0,0,0,0,0,0,0,,,,,,,,,,,,,
812334,1745299282112,0.0,65,,0.07,0.18,0.84,23,-2,-2,0.86,1.37,63,3886,15.9,4.0,,13.39,0.999,97.0,,31.1,5,,,,,,,,,,,,0,0,0,0,0,0,0,0,0,0,0,0,0,0,0,0,,,,,,0.0,,,,,,,
812354,1745299282132,,,,,,,,,,,,,,,,,,,,,,,,,,,,,,,,,,0,0,0,0,0,0,0,0,0,0,0,0,0,0,0,0,,,,,,,,,,,,,
812374,1745299282152,0.0,65,,0.05,0.31,0.96,25,-2,-1,1.01,1.37,74,3977,16.1,4.0,,13.32,1.005,97.0,,27.5,5,13,0,13,12,0.0,202.0,0.0,0.0,2.26,,,0,0,0,0,0,0,0,0,0,0,0,0,0,0,0,0,,1,,,,0.0,38.985336,-76.950172,20.14,48.5,34,3,0.8
812394,1745299282172,,,,,,,,,,,,,,,,,,,,,,,,,,,,,,,,,,0,0,0,0,0,0,0,0,0,0,0,0,0,0,0,0,,,,,,,,,,,,,
812414,1745299282192,0.0,62,,0.02,0.28,0.89,25,-2,-1,0.94,1.37,68,4124,16.1,4.0,,13.32,1.005,97.0,,27.5,5,,,,,,,,,,,,0,0,0,0,0,0,0,0,0,0,0,0,0,0,0,0,,,,,,0.0,,,,,,,
812434,1745299282216,,,,,,,,,,,,,,,,,,,,,,,,,,,,,,,,,,0,0,0,0,0,0,0,0,0,0,0,0,0,0,0,0,,,,,,,,,,,,,
812454,1745299282236,0.0,65,,-0.01,0.33,0.99,25,-2,-1,1.04,1.37,76,4124,16.1,4.0,,13.32,1.052,97.0,,29.5,5,,,,,,,,,,,,0,0,0,0,0,0,0,0,0,0,0,0,0,0,0,0,,,,,,0.0,,,,,,,
812474,1745299282256,,,,,,,,,,,,,,,,,,,,,,,13,0,13,11,0.0,0.0,0.0,0.0,2.26,,,0,0,0,0,0,0,0,0,0,0,0,0,0,0,0,0,,1,,,,,38.985336,-76.950165,20.32,48.5,34,3,0.8
812494,1745299282276,0.0,56,,-0.03,0.32,0.95,26,-2,-1,1.0,1.37,73,4119,16.0,4.03,,13.32,1.111,97.0,,29.5,5,,,,,,,,,,,,0,0,0,0,0,0,0,0,0,0,0,0,0,0,0,0,,,,,,0.0,,,,,,,
812514,1745299282296,,,,,,,,,,,,,,,,,,,,,,,,,,,,,,,,,,0,0,0,0,0,0,0,0,0,0,0,0,0,0,0,0,,,,,,,,,,,,,
812534,1745299282320,0.0,59,,-0.01,0.23,0.87,25,-2,-1,0.9,1.37,66,4264,16.0,4.04,,13.25,1.158,97.0,,29.5,5,,,,,,,,,,,,0,0,0,0,0,0,0,0,0,0,0,0,0,0,0,0,,,,,,0.0,,,,,,,
812554,1745299282340,,,,,,,,,,,,,,,,,,,,,,,,,,,,,,,,,,0,0,0,0,0,0,0,0,0,0,0,0,0,0,0,0,,,,,,,,,,,,,
812574,1745299282360,0.0,51,13.27,0.0,0.21,0.95,24,-2,-1,0.97,1.37,71,4305,15.9,4.04,15,13.21,1.181,97.0,171,30.3,5,13,0,13,13,0.0,236.0,0.0,0.0,2.26,0,1.0,0,0,0,0,0,0,0,0,0,0,0,0,0,0,0,0,0,1,1.0,0,0,0.0,38.98534,-76.950157,19.75,48.5,34,3,0.8
812594,1745299282380,,,,,,,,,,,,,,,,,,,,,,,,,,,,,,,,,,0,0,0,0,0,0,0,0,0,0,0,0,0,0,0,0,,,,,,,,,,,,,
812614,1745299282401,0.0,56,,0.01,0.26,1.03,26,-2,-1,1.07,1.37,78,4255,15.9,4.03,,13.21,1.181,95.2,,30.3,5,,,,,,,,,,,,0,0,0,0,0,0,0,0,0,0,0,0,0,0,0,0,,,,,,0.0,,,,,,,
812634,1745299282421,,,,,,,,,,,,,,,,,,,,,,,,,,,,,,,,,,0,0,0,0,0,0,0,0,0,0,0,0,0,0,0,0,,,,,,,,,,,,,
812654,1745299282441,0.0,65,,-0.0,0.21,0.97,25,-2,-1,0.99,1.37,72,4255,15.9,4.03,,13.23,1.2,95.2,,29.4,5,,,,,,,,,,,,0,0,0,0,0,0,0,0,0,0,0,0,0,0,0,0,,,,,,0.0,,,,,,,
812674,1745299282461,,,,,,,,,,,,,,,,,,,,,,,13,0,13,12,0.0,251.0,0.0,0.0,2.26,,,0,0,0,0,0,0,0,0,0,0,0,0,0,0,0,0,,1,,,,,38.985344,-76.950157,19.78,48.5,34,3,0.8
812694,1745299282481,0.0,68,,0.0,0.27,0.96,27,-3,-1,1.0,1.37,73,4070,15.9,3.99,,13.32,1.216,95.2,,29.4,5,,,,,,,,,,,,0,0,0,0,0,0,0,0,0,0,0,0,0,0,0,0,,,,,,0.0,,,,,,,
812714,1745299282501,,,,,,,,,,,,,,,,,,,,,,,,,,,,,,,,,,0,0,0,0,0,0,0,0,0,0,0,0,0,0,0,0,,,,,,,,,,,,,
812734,1745299282519,0.0,48,,0.01,0.3,1.0,27,-2,-1,1.04,1.37,76,4003,15.9,4.0,,13.37,1.22,95.2,,29.4,5,,,,,,,,,,,,0,0,0,0,0,0,0,0,0,0,0,0,0,0,0,0,,,,,,0.0,,,,,,,
812754,1745299282539,,,,,,,,,,,,,,,,,,,,,,,,,,,,,,,,,,0,0,0,0,0,0,0,0,0,0,0,0,0,0,0,0,,,,,,,,,,,,,
812774,1745299282559,0.0,51,,-0.0,0.24,0.92,26,-2,-1,0.95,1.37,69,4050,16.0,3.99,,13.37,1.196,95.2,,27.9,5,13,0,13,12,0.0,21.0,0.0,0.0,2.26,,,0,0,0,0,0,0,0,0,0,0,0,0,0,0,0,0,,1,,,,0.0,38.985348,-76.95015,19.97,48.5,34,3,0.8
812794,1745299282579,,,,,,,,,,,,,,,,,,,,,,,,,,,,,,,,,,0,0,0,0,0,0,0,0,0,0,0,0,0,0,0,0,,,,,,,,,,,,,
812814,1745299282601,0.0,53,,-0.0,0.37,1.0,29,-2,-0,1.06,1.37,77,4117,16.0,4.0,,13.37,1.196,95.2,,27.9,5,,,,,,,,,,,,0,0,0,0,0,0,0,0,0,0,0,0,0,0,0,0,,,,,,0.0,,,,,,,
812834,1745299282621,,,,,,,,,,,,,,,,,,,,,,,,,,,,,,,,,,0,0,0,0,0,0,0,0,0,0,0,0,0,0,0,0,,,,,,,,,,,,,
812854,1745299282641,0.0,62,,-0.0,0.28,0.92,26,-2,-1,0.97,1.37,70,4117,16.0,4.0,,13.35,1.172,95.2,,29.2,5,,,,,,,,,,,,0,0,0,0,0,0,0,0,0,0,0,0,0,0,0,0,,,,,,0.0,,,,,,,
812874,1745299282661,,,,,,,,,,,,,,,,,,,,,,,13,0,13,11,0.0,246.0,0.0,0.0,2.26,,,0,0,0,0,0,0,0,0,0,0,0,0,0,0,0,0,,0,,,,,38.985352,-76.950142,19.72,48.5,34,3,0.8
812894,1745299282681,0.0,45,,0.02,0.31,1.04,28,-2,-0,1.09,1.37,79,4132,16.1,4.02,,13.33,1.163,95.2,,29.2,5,,,,,,,,,,,,0,0,0,0,0,0,0,0,0,0,0,0,0,0,0,0,,,,,,0.0,,,,,,,
812914,1745299282701,,,,,,,,,,,,,,,,,,,,,,,,,,,,,,,,,,0,0,0,0,0,0,0,0,0,0,0,0,0,0,0,0,,,,,,,,,,,,,
812934,1745299282721,0.0,39,,0.01,0.27,0.96,27,-2,-0,0.99,1.37,72,4138,16.2,4.03,,13.2,1.179,95.2,,29.2,5,,,,,,,,,,,,0,0,0,0,0,0,0,0,0,0,0,0,0,0,0,0,,,,,,0.0,,,,,,,
812954,1745299282741,,,,,,,,,,,,,,,,,,,,,,,,,,,,,,,,,,0,0,0,0,0,0,0,0,0,0,0,0,0,0,0,0,,,,,,,,,,,,,
812974,1745299282761,0.0,34,,-0.02,0.33,1.03,29,-2,0,1.09,1.37,79,4179,16.4,4.02,,13.31,1.186,95.2,,29.3,5,13,0,13,12,0.0,241.0,0.0,0.0,2.26,,,0,0,0,0,0,0,0,0,0,0,0,0,0,0,0,0,,0,,,,0.0,38.985352,-76.950142,19.77,48.4,34,3,0.8
812994,1745299282781,,,,,,,,,,,,,,,,,,,,,,,,,,,,,,,,,,0,0,0,0,0,0,0,0,0,0,0,0,0,0,0,0,,,,,,,,,,,,,
813014,1745299282803,0.0,48,,-0.02,0.26,0.96,29,-2,-1,0.99,1.37,72,4154,16.5,4.02,,13.31,1.186,95.2,,29.3,5,,,,,,,,,,,,0,0,0,0,0,0,0,0,0,0,0,0,0,0,0,0,,,,,,0.0,,,,,,,
813034,1745299282823,,,,,,,,,,,,,,,,,,,,,,,,,,,,,,,,,,0,0,0,0,0,0,0,0,0,0,0,0,0,0,0,0,,,,,,,,,,,,,
813054,1745299282843,0.0,48,,0.01,0.3,1.02,30,-2,-0,1.06,1.37,77,4154,16.5,4.02,,13.4,1.189,95.2,,29.0,5,,,,,,,,,,,,0,0,0,0,0,0,0,0,0,0,0,0,0,0,0,0,,,,,,0.0,,,,,,,
813074,1745299282863,,,,,,,,,,,,,,,,,,,,,,,13,0,13,11,0.0,251.0,0.0,0.0,2.26,,,0,0,0,0,0,0,0,0,0,0,0,0,0,0,0,0,,0,,,,,38.985355,-76.950134,19.59,48.4,34,3,0.8
813094,1745299282883,0.0,39,,-0.01,0.28,0.92,31,-2,-1,0.96,1.37,70,4072,16.4,4.04,,13.36,1.194,95.2,,29.0,5,,,,,,,,,,,,0,0,0,0,0,0,0,0,0,0,0,0,0,0,0,0,,,,,,0.0,,,,,,,
813114,1745299282903,,,,,,,,,,,,,,,,,,,,,,,,,,,,,,,,,,0,0,0,0,0,0,0,0,0,0,0,0,0,0,0,0,,,,,,,,,,,,,
813134,1745299282923,0.0,39,,0.01,0.35,1.0,32,-2,-1,1.06,1.37,77,4114,16.4,4.04,,13.33,1.195,95.2,,29.0,5,,,,,,,,,,,,0,0,0,0,0,0,0,0,0,0,0,0,0,0,0,0,,,,,,0.0,,,,,,,
813154,1745299282943,,,,,,,,,,,,,,,,,,,,,,,,,,,,,,,,,,0,0,0,0,0,0,0,0,0,0,0,0,0,0,0,0,,,,,,,,,,,,,
813174,1745299282963,0.0,48,,0.02,0.3,0.92,31,-2,-1,0.97,0.97,100,4112,16.4,4.03,,13.39,1.195,95.2,,28.9,5,13,0,13,11,0.0,15.0,0.0,0.0,2.26,,,0,0,0,0,0,0,0,0,0,0,0,0,0,0,0,0,,0,,,,0.0,38.985355,-76.950134,19.76,48.4,34,3,0.8
813194,1745299282983,,,,,,,,,,,,,,,,,,,,,,,,,,,,,,,,,,0,0,0,0,0,0,0,0,0,0,0,0,0,0,0,0,,,,,,,,,,,,,
813214,1745299283003,0.0,68,,0.01,0.36,0.99,34,-2,-1,1.05,1.05,100,4037,16.5,4.03,,13.39,1.195,95.2,,28.9,5,,,,,,,,,,,,0,0,0,0,0,0,0,0,0,0,0,0,0,0,0,0,,,,,,0.0,,,,,,,
813234,1745299283013,,,,,,,,,,,,,,,,,,,,,,,,,,,,,,,,,,0,0,0,0,0,0,0,0,0,0,0,0,0,0,0,0,,,,,,,,,,,,,
813254,1745299283033,0.0,42,,0.03,0.29,1.02,32,-1,-0,1.06,1.06,100,4037,16.5,4.03,,13.43,1.195,95.2,,27.8,5,,,,,,,,,,,,0,0,0,0,0,0,0,0,0,0,0,0,0,0,0,0,,,,,,0.0,,,,,,,
813274,1745299283053,,,,,,,,,,,,,,,,,,,,,,,13,0,13,11,0.0,21.0,0.0,0.0,2.25,,,0,0,0,0,0,0,0,0,0,0,0,0,0,0,0,0,,0,,,,,38.985363,-76.950127,19.68,48.4,34,3,0.8
813294,1745299283073,0.0,34,,0.01,0.33,0.99,33,-1,-0,1.05,1.06,99,4039,16.5,4.02,,13.39,1.184,95.2,,27.8,5,,,,,,,,,,,,0,0,0,0,0,0,0,0,0,0,0,0,0,0,0,0,,,,,,0.0,,,,,,,
813314,1745299283093,,,,,,,,,,,,,,,,,,,,,,,,,,,,,,,,,,0,0,0,0,0,0,0,0,0,0,0,0,0,0,0,0,,,,,,,,,,,,,
813334,1745299283111,0.0,25,,0.02,0.38,1.08,34,-1,-0,1.15,1.15,100,4102,16.5,4.03,,13.45,1.189,95.2,,27.8,5,,,,,,,,,,,,0,0,0,0,0,0,0,0,0,0,0,0,0,0,0,0,,,,,,0.0,,,,,,,
813354,1745299283131,,,,,,,,,,,,,,,,,,,,,,,,,,,,,,,,,,0,0,0,0,0,0,0,0,0,0,0,0,0,0,0,0,,,,,,,,,,,,,
813374,1745299283151,0.0,28,,0.02,0.24,0.99,32,-1,-0,1.02,1.15,89,4083,16.6,4.03,,13.41,1.177,95.2,,29.4,5,13,0,13,12,0.0,192.0,0.0,0.0,2.26,,,0,0,0,0,0,0,0,0,0,0,0,0,0,0,0,0,,1,,,,0.0,38.985367,-76.950119,19.68,48.4,34,3,0.8
813394,1745299283171,,,,,,,,,,,,,,,,,,,,,,,,,,,,,,,,,,0,0,0,0,0,0,0,0,0,0,0,0,0,0,0,0,,,,,,,,,,,,,
813414,1745299283203,0.0,28,,-0.01,0.34,1.09,34,-1,-1,1.14,1.15,99,4071,16.8,4.04,,13.41,1.177,95.2,,29.4,5,,,,,,,,,,,,0,0,0,0,0,0,0,0,0,0,0,0,0,0,0,0,,,,,,0.0,,,,,,,
813434,1745299283223,,,,,,,,,,,,,,,,,,,,,,,,,,,,,,,,,,0,0,0,0,0,0,0,0,0,0,0,0,0,0,0,0,,,,,,,,,,,,,
813454,1745299283243,0.0,39,,-0.03,0.28,0.98,33,-1,-1,1.02,1.15,89,4071,16.8,4.04,,13.36,1.175,95.2,,29.0,5,,,,,,,,,,,,0,0,0,0,0,0,0,0,0,0,0,0,0,0,0,0,,,,,,0.0,,,,,,,
813474,1745299283263,,,,,,,,,,,,,,,,,,,,,,,14,3,13,11,0.0,10.0,0.0,0.0,2.26,,,0,0,0,0,0,0,0,0,0,0,0,0,0,0,0,0,,1,,,,,38.985371,-76.950119,19.5,48.4,34,3,0.8
813494,1745299283283,0.0,36,,-0.03,0.34,1.06,37,-1,-1,1.11,1.15,97,4132,16.8,4.03,,13.4,1.189,95.2,,29.0,5,,,,,,,,,,,,0,0,0,0,0,0,0,0,0,0,0,0,0,0,0,0,,,,,,0.0,,,,,,,
813514,1745299283301,,,,,,,,,,,,,,,,,,,,,,,,,,,,,,,,,,0,0,0,0,0,0,0,0,0,0,0,0,0,0,0,0,,,,,,,,,,,,,
813534,1745299283321,0.0,22,,-0.05,0.32,0.99,36,-2,-1,1.04,1.15,91,4093,16.8,4.04,,13.45,1.185,95.2,,29.0,5,,,,,,,,,,,,0,0,0,0,0,0,0,0,0,0,0,0,0,0,0,0,,,,,,0.0,,,,,,,
813554,1745299283341,,,,,,,,,,,,,,,,,,,,,,,,,,,,,,,,,,0,0,0,0,0,0,0,0,0,0,0,0,0,0,0,0,,,,,,,,,,,,,
813574,1745299283361,0.0,22,13.24,-0.02,0.37,0.99,38,-2,-1,1.05,1.15,92,4006,17.7,4.09,15,13.53,1.195,95.2,171,28.5,5,13,6,13,11,0.0,5.0,0.0,0.0,2.26,0,1.0,0,0,0,0,0,0,0,0,0,0,0,0,0,0,0,0,0,0,1.0,0,0,0.0,38.985374,-76.950111,19.44,48.4,34,3,0.8
813594,1745299283381,,,,,,,,,,,,,,,,,,,,,,,,,,,,,,,,,,0,0,0,0,0,0,0,0,0,0,0,0,0,0,0,0,,,,,,,,,,,,,
813614,1745299283402,0.0,17,,-0.01,0.38,0.99,39,-2,-1,1.06,1.15,93,4086,18.0,4.11,,13.53,1.195,97.0,,28.5,5,,,,,,,,,,,,0,0,0,0,0,0,0,0,0,0,0,0,0,0,0,0,,,,,,0.0,,,,,,,
813634,1745299283422,,,,,,,,,,,,,,,,,,,,,,,,,,,,,,,,,,0,0,0,0,0,0,0,0,0,0,0,0,0,0,0,0,,,,,,,,,,,,,
813654,1745299283442,0.0,28,,-0.01,0.31,0.95,39,-2,-1,1.0,1.15,87,4086,18.0,4.11,,13.52,1.193,97.0,,28.6,5,,,,,,,,,,,,0,0,0,0,0,0,0,0,0,0,0,0,0,0,0,0,,,,,,0.0,,,,,,,
813674,1745299283462,,,,,,,,,,,,,,,,,,,,,,,13,3,13,11,0.0,246.0,0.0,0.0,2.26,,,0,0,0,0,0,0,0,0,0,0,0,0,0,0,0,0,,0,,,,,38.985378,-76.950111,19.74,48.4,34,3,0.8
813694,1745299283482,0.0,28,,-0.0,0.4,1.0,42,-3,-2,1.08,1.15,94,4040,18.2,4.12,,13.55,1.193,97.0,,28.6,5,,,,,,,,,,,,0,0,0,0,0,0,0,0,0,0,0,0,0,0,0,0,,,,,,0.0,,,,,,,
813714,1745299283502,,,,,,,,,,,,,,,,,,,,,,,,,,,,,,,,,,0,0,0,0,0,0,0,0,0,0,0,0,0,0,0,0,,,,,,,,,,,,,
813734,1745299283518,0.0,28,,0.0,0.39,1.01,41,-3,-1,1.08,1.15,94,3978,18.3,4.12,,13.56,1.195,97.0,,28.6,5,,,,,,,,,,,,0,0,0,0,0,0,0,0,0,0,0,0,0,0,0,0,,,,,,0.0,,,,,,,
813754,1745299283538,,,,,,,,,,,,,,,,,,,,,,,,,,,,,,,,,,0,0,0,0,0,0,0,0,0,0,0,0,0,0,0,0,,,,,,,,,,,,,
813774,1745299283558,0.0,22,,0.0,0.41,0.95,41,-3,-1,1.04,1.15,90,4086,18.3,4.12,,13.51,1.184,97.0,,28.1,5,13,2,13,11,0.0,236.0,0.0,0.0,2.25,,,0,0,0,0,0,0,0,0,0,0,0,0,0,0,0,0,,0,,,,0.0,38.985382,-76.950104,19.64,48.4,34,3,0.8
813794,1745299283578,,,,,,,,,,,,,,,,,,,,,,,,,,,,,,,,,,0,0,0,0,0,0,0,0,0,0,0,0,0,0,0,0,,,,,,,,,,,,,
813814,1745299283602,0.0,20,,0.0,0.49,1.01,42,-3,-1,1.12,1.15,98,4083,18.2,4.12,,13.51,1.184,97.0,,28.1,5,,,,,,,,,,,,0,0,0,0,0,0,0,0,0,0,0,0,0,0,0,0,,,,,,0.0,,,,,,,
813834,1745299283622,,,,,,,,,,,,,,,,,,,,,,,,,,,,,,,,,,0,0,0,0,0,0,0,0,0,0,0,0,0,0,0,0,,,,,,,,,,,,,
813854,1745299283642,0.0,31,,0.01,0.43,0.95,41,-3,-1,1.04,1.15,91,4083,18.2,4.12,,13.53,1.172,97.0,,28.7,5,,,,,,,,,,,,0,0,0,0,0,0,0,0,0,0,0,0,0,0,0,0,,,,,,0.0,,,,,,,
813874,1745299283662,,,,,,,,,,,,,,,,,,,,,,,14,4,13,11,0.0,251.0,0.0,0.0,2.25,,,0,0,0,0,0,0,0,0,0,0,0,0,0,0,0,0,,0,,,,,38.98539,-76.950104,19.92,48.4,34,3,0.8
813894,1745299283682,0.0,14,,0.01,0.49,1.03,43,-3,-1,1.14,1.15,100,4033,18.3,4.12,,13.53,1.163,97.0,,28.7,5,,,,,,,,,,,,0,0,0,0,0,0,0,0,0,0,0,0,0,0,0,0,,,,,,0.0,,,,,,,
813914,1745299283702,,,,,,,,,,,,,,,,,,,,,,,,,,,,,,,,,,0,0,0,0,0,0,0,0,0,0,0,0,0,0,0,0,,,,,,,,,,,,,
813934,1745299283722,0.0,25,,-0.0,0.41,1.03,41,-3,-0,1.11,1.15,97,4065,18.4,4.12,,13.55,1.164,97.0,,28.7,5,,,,,,,,,,,,0,0,0,0,0,0,0,0,0,0,0,0,0,0,0,0,,,,,,0.0,,,,,,,
813954,1745299283742,,,,,,,,,,,,,,,,,,,,,,,,,,,,,,,,,,0,0,0,0,0,0,0,0,0,0,0,0,0,0,0,0,,,,,,,,,,,,,
813974,1745299283762,0.0,20,,-0.01,0.42,1.03,41,-3,-0,1.11,1.15,97,4055,18.5,4.11,,13.61,1.166,97.0,,28.3,5,13,6,13,11,0.0,236.0,0.0,0.0,2.26,,,0,0,0,0,0,0,0,0,0,0,0,0,0,0,0,0,,0,,,,0.0,38.985394,-76.950104,19.47,48.4,34,3,0.8
813994,1745299283782,,,,,,,,,,,,,,,,,,,,,,,,,,,,,,,,,,0,0,0,0,0,0,0,0,0,0,0,0,0,0,0,0,,,,,,,,,,,,,
814014,1745299283802,0.0,20,,-0.0,0.44,1.09,41,-3,-0,1.17,1.17,100,3985,18.6,4.13,,13.61,1.166,97.0,,28.3,5,,,,,,,,,,,,0,0,0,0,0,0,0,0,0,0,0,0,0,0,0,0,,,,,,0.0,,,,,,,
814034,1745299283822,,,,,,,,,,,,,,,,,,,,,,,,,,,,,,,,,,0,0,0,0,0,0,0,0,0,0,0,0,0,0,0,0,,,,,,,,,,,,,
814054,1745299283842,0.0,25,,-0.0,0.39,1.05,39,-2,0,1.12,1.17,96,3985,18.6,4.13,,13.53,1.165,97.0,,28.0,5,,,,,,,,,,,,0,0,0,0,0,0,0,0,0,0,0,0,0,0,0,0,,,,,,0.0,,,,,,,
814074,1745299283862,,,,,,,,,,,,,,,,,,,,,,,14,36,13,11,0.0,135.0,0.0,0.0,2.26,,,0,0,0,0,0,0,0,0,0,0,0,0,0,0,0,0,,0,,,,,38.985397,-76.950104,19.6,48.4,34,3,0.8
814094,1745299283882,0.0,11,,-0.01,0.38,1.08,39,-1,-0,1.14,1.17,97,3979,18.6,4.14,,13.6,1.161,97.0,,28.0,5,,,,,,,,,,,,0,0,0,0,0,0,0,0,0,0,0,0,0,0,0,0,,,,,,0.0,,,,,,,
814114,1745299283902,,,,,,,,,,,,,,,,,,,,,,,,,,,,,,,,,,0,0,0,0,0,0,0,0,0,0,0,0,0,0,0,0,,,,,,,,,,,,,
814134,1745299283922,0.0,25,,-0.0,0.4,1.17,40,-1,0,1.24,1.24,100,4097,18.6,4.14,,13.56,1.158,97.0,,28.0,5,,,,,,,,,,,,0,0,0,0,0,0,0,0,0,0,0,0,0,0,0,0,,,,,,0.0,,,,,,,
814154,1745299283942,,,,,,,,,,,,,,,,,,,,,,,,,,,,,,,,,,0,0,0,0,0,0,0,0,0,0,0,0,0,0,0,0,,,,,,,,,,,,,
814174,1745299283962,0.0,42,,-0.03,0.33,1.08,37,-1,-0,1.13,1.24,91,4032,19.8,4.16,,13.6,1.149,97.0,,29.1,5,13,36,13,12,0.0,135.0,0.0,0.0,2.27,,,0,0,0,0,0,0,0,0,0,0,0,0,0,0,0,0,,1,,,,0.0,38.985401,-76.950104,19.26,48.4,34,3,0.8
814194,1745299283982,,,,,,,,,,,,,,,,,,,,,,,,,,,,,,,,,,0,0,0,0,0,0,0,0,0,0,0,0,0,0,0,0,,,,,,,,,,,,,
814214,1745299284002,0.0,56,,-0.04,0.31,1.13,38,-1,0,1.17,1.24,95,4079,19.4,4.17,,13.6,1.149,97.0,,29.1,5,,,,,,,,,,,,0,0,0,0,0,0,0,0,0,0,0,0,0,0,0,0,,,,,,0.0,,,,,,,
814234,1745299284014,,,,,,,,,,,,,,,,,,,,,,,,,,,,,,,,,,0,0,0,0,0,0,0,0,0,0,0,0,0,0,0,0,,,,,,,,,,,,,
814254,1745299284034,0.0,79,,-0.05,0.26,1.03,36,-0,0,1.06,1.24,86,4079,19.4,4.17,,13.55,1.145,97.0,,29.7,5,,,,,,,,,,,,0,0,0,0,0,0,0,0,0,0,0,0,0,0,0,0,,,,,,0.0,,,,,,,
814274,1745299284054,,,,,,,,,,,,,,,,,,,,,,,13,36,13,12,0.0,128.0,0.0,0.0,2.28,,,0,0,0,0,0,0,0,0,0,0,0,0,0,0,0,0,,1,,,,,38.985409,-76.950104,19.56,48.4,35,3,0.7
814294,1745299284074,0.0,73,,-0.06,0.35,1.11,37,-0,0,1.17,1.24,94,4186,20.2,4.21,,13.51,1.15,97.0,,29.7,5,,,,,,,,,,,,0,0,0,0,0,0,0,0,0,0,0,0,0,0,0,0,,,,,,0.0,,,,,,,
814314,1745299284104,,,,,,,,,,,,,,,,,,,,,,,,,,,,,,,,,,0,0,0,0,0,0,0,0,0,0,0,0,0,0,0,0,,,,,,,,,,,,,
814334,1745299284124,0.0,79,,-0.04,0.22,1.02,35,-0,-0,1.05,1.24,85,4153,20.4,4.22,,13.64,1.147,97.0,,29.7,5,,,,,,,,,,,,0,0,0,0,0,0,0,0,0,0,0,0,0,0,0,0,,,,,,0.0,,,,,,,
814354,1745299284144,,,,,,,,,,,,,,,,,,,,,,,,,,,,,,,,,,0,0,0,0,0,0,0,0,0,0,0,0,0,0,0,0,,,,,,,,,,,,,
814374,1745299284164,0.0,62,,-0.04,0.35,1.05,38,-1,-0,1.11,1.24,90,4040,20.9,4.24,,13.71,1.156,97.0,,29.0,5,13,36,13,11,0.0,128.0,0.0,0.0,2.27,,,0,0,0,0,0,0,0,0,0,0,0,0,0,0,0,0,,0,,,,0.0,38.985413,-76.950104,19.28,48.4,35,3,0.7
814394,1745299284184,,,,,,,,,,,,,,,,,,,,,,,,,,,,,,,,,,0,0,0,0,0,0,0,0,0,0,0,0,0,0,0,0,,,,,,,,,,,,,
814414,1745299284202,0.0,59,,-0.03,0.31,1.03,34,-1,-0,1.07,1.24,87,4074,20.5,4.27,,13.71,1.156,97.0,,29.0,5,,,,,,,,,,,,0,0,0,0,0,0,0,0,0,0,0,0,0,0,0,0,,,,,,0.0,,,,,,,
814434,1745299284222,,,,,,,,,,,,,,,,,,,,,,,,,,,,,,,,,,0,0,0,0,0,0,0,0,0,0,0,0,0,0,0,0,,,,,,,,,,,,,
814454,1745299284242,0.0,62,,-0.02,0.3,1.01,34,-1,-0,1.05,1.24,85,4074,20.5,4.27,,13.67,1.171,97.0,,28.8,5,,,,,,,,,,,,0,0,0,0,0,0,0,0,0,0,0,0,0,0,0,0,,,,,,0.0,,,,,,,
814474,1745299284262,,,,,,,,,,,,,,,,,,,,,,,13,36,13,11,0.0,124.0,0.0,0.0,2.26,,,0,0,0,0,0,0,0,0,0,0,0,0,0,0,0,0,,0,,,,,38.985416,-76.950104,19.67,48.4,35,3,0.7
814494,1745299284282,0.0,59,,-0.02,0.34,1.04,32,-2,0,1.09,1.24,88,4092,20.7,4.25,,13.68,1.195,97.0,,28.8,5,,,,,,,,,,,,0,0,0,0,0,0,0,0,0,0,0,0,0,0,0,0,,,,,,0.0,,,,,,,
814514,1745299284304,,,,,,,,,,,,,,,,,,,,,,,,,,,,,,,,,,0,0,0,0,0,0,0,0,0,0,0,0,0,0,0,0,,,,,,,,,,,,,
814534,1745299284324,0.0,56,,-0.02,0.29,1.0,30,-1,-0,1.04,1.24,84,4084,20.7,4.23,,13.64,1.174,97.0,,28.8,5,,,,,,,,,,,,0,0,0,0,0,0,0,0,0,0,0,0,0,0,0,0,,,,,,0.0,,,,,,,
814554,1745299284344,,,,,,,,,,,,,,,,,,,,,,,,,,,,,,,,,,0,0,0,0,0,0,0,0,0,0,0,0,0,0,0,0,,,,,,,,,,,,,
814574,1745299284364,0.0,51,13.25,-0.01,0.21,1.05,27,-2,0,1.08,1.24,87,4120,20.7,4.23,15,13.57,1.156,97.0,173,28.8,5,12,36,13,12,0.0,120.0,0.0,0.0,2.26,0,1.0,0,0,0,0,0,0,0,0,0,0,0,0,0,0,0,0,0,1,1.0,0,0,0.0,38.98542,-76.950104,19.71,48.4,35,3,0.7
814594,1745299284384,,,,,,,,,,,,,,,,,,,,,,,,,,,,,,,,,,0,0,0,0,0,0,0,0,0,0,0,0,0,0,0,0,,,,,,,,,,,,,
814614,1745299284403,0.0,51,,-0.0,0.22,1.06,27,-2,-0,1.08,1.24,88,4190,21.0,4.26,,13.57,1.156,95.2,,28.8,5,,,,,,,,,,,,0,0,0,0,0,0,0,0,0,0,0,0,0,0,0,0,,,,,,0.0,,,,,,,
814634,1745299284423,,,,,,,,,,,,,,,,,,,,,,,,,,,,,,,,,,0,0,0,0,0,0,0,0,0,0,0,0,0,0,0,0,,,,,,,,,,,,,
814654,1745299284443,0.0,62,,-0.02,0.18,1.07,25,-2,-0,1.09,1.24,88,4190,21.0,4.26,,13.65,1.149,95.2,,28.9,5,,,,,,,,,,,,0,0,0,0,0,0,0,0,0,0,0,0,0,0,0,0,,,,,,0.0,,,,,,,
814674,1745299284463,,,,,,,,,,,,,,,,,,,,,,,12,36,13,12,0.0,120.0,0.0,0.0,2.26,,,0,0,0,0,0,0,0,0,0,0,0,0,0,0,0,0,,1,,,,,38.985428,-76.950104,19.63,48.4,35,3,0.7
814694,1745299284483,0.0,62,,-0.02,0.14,1.02,25,-2,-0,1.02,1.24,83,4118,21.4,4.28,,13.76,1.155,95.2,,28.9,5,,,,,,,,,,,,0,0,0,0,0,0,0,0,0,0,0,0,0,0,0,0,,,,,,0.0,,,,,,,
814714,1745299284503,,,,,,,,,,,,,,,,,,,,,,,,,,,,,,,,,,0,0,0,0,0,0,0,0,0,0,0,0,0,0,0,0,,,,,,,,,,,,,
814734,1745299284523,0.0,62,,-0.03,0.13,1.03,23,-2,0,1.04,1.24,84,4101,21.4,4.27,,13.67,1.168,95.2,,28.9,5,,,,,,,,,,,,0,0,0,0,0,0,0,0,0,0,0,0,0,0,0,0,,,,,,0.0,,,,,,,
814754,1745299284543,,,,,,,,,,,,,,,,,,,,,,,,,,,,,,,,,,0,0,0,0,0,0,0,0,0,0,0,0,0,0,0,0,,,,,,,,,,,,,
814774,1745299284563,0.0,76,,-0.04,0.19,0.98,22,-2,0,1.0,1.24,81,4166,21.3,4.28,,13.64,1.176,95.2,,28.6,5,13,36,12,12,0.0,124.0,0.0,0.0,2.26,,,0,0,0,0,0,0,0,0,0,0,0,0,0,0,0,0,,1,,,,0.0,38.985432,-76.950104,19.98,48.4,35,3,0.7
814794,1745299284583,,,,,,,,,,,,,,,,,,,,,,,,,,,,,,,,,,0,0,0,0,0,0,0,0,0,0,0,0,0,0,0,0,,,,,,,,,,,,,
814814,1745299284603,0.0,65,,-0.03,0.07,0.97,18,-2,0,0.98,1.24,79,4246,21.3,4.28,,13.64,1.176,95.2,,28.6,5,,,,,,,,,,,,0,0,0,0,0,0,0,0,0,0,0,0,0,0,0,0,,,,,,0.0,,,,,,,
814834,1745299284623,,,,,,,,,,,,,,,,,,,,,,,,,,,,,,,,,,0,0,0,0,0,0,0,0,0,0,0,0,0,0,0,0,,,,,,,,,,,,,
814854,1745299284643,0.0,73,,-0.01,0.05,1.07,17,-2,0,1.07,1.24,87,4246,21.3,4.28,,13.69,1.152,95.2,,29.9,5,,,,,,,,,,,,0,0,0,0,0,0,0,0,0,0,0,0,0,0,0,0,,,,,,0.0,,,,,,,
814874,1745299284663,,,,,,,,,,,,,,,,,,,,,,,13,36,13,13,0.0,116.0,0.0,0.0,2.26,,,0,0,0,0,0,0,0,0,0,0,0,0,0,0,0,0,,0,,,,,38.985436,-76.950104,19.69,48.4,35,3,0.7
814894,1745299284683,0.0,73,,-0.0,-0.03,0.99,15,-1,-0,0.99,1.24,80,4175,21.4,4.27,,13.65,1.157,95.2,,29.9,5,,,,,,,,,,,,0,0,0,0,0,0,0,0,0,0,0,0,0,0,0,0,,,,,,0.0,,,,,,,
814914,1745299284703,,,,,,,,,,,,,,,,,,,,,,,,,,,,,,,,,,0,0,0,0,0,0,0,0,0,0,0,0,0,0,0,0,,,,,,,,,,,,,
814934,1745299284723,0.0,73,,-0.03,0.06,1.06,15,-1,-0,1.06,1.24,86,4153,21.5,4.28,,13.73,1.172,95.2,,29.9,5,,,,,,,,,,,,0,0,0,0,0,0,0,0,0,0,0,0,0,0,0,0,,,,,,0.0,,,,,,,
814954,1745299284743,,,,,,,,,,,,,,,,,,,,,,,,,,,,,,,,,,0,0,0,0,0,0,0,0,0,0,0,0,0,0,0,0,,,,,,,,,,,,,
814974,1745299284763,0.0,73,,-0.03,0.04,0.99,14,-1,-0,0.99,1.24,80,4170,21.7,4.3,,13.67,1.183,95.2,,29.0,5,12,36,13,13,0.0,120.0,0.0,0.0,2.25,,,0,0,0,0,0,0,0,0,0,0,0,0,0,0,0,0,,1,,,,0.0,38.985439,-76.950104,19.92,48.4,35,3,0.7
814994,1745299284783,,,,,,,,,,,,,,,,,,,,,,,,,,,,,,,,,,0,0,0,0,0,0,0,0,0,0,0,0,0,0,0,0,,,,,,,,,,,,,
815014,1745299284803,0.0,62,,-0.03,-0.03,0.99,11,-1,0,0.99,0.99,100,4275,21.9,4.29,,13.67,1.183,95.2,,29.0,5,,,,,,,,,,,,0,0,0,0,0,0,0,0,0,0,0,0,0,0,0,0,,,,,,0.0,,,,,,,
815034,1745299284823,,,,,,,,,,,,,,,,,,,,,,,,,,,,,,,,,,0,0,0,0,0,0,0,0,0,0,0,0,0,0,0,0,,,,,,,,,,,,,
815054,1745299284843,0.0,70,,-0.01,-0.02,1.09,10,-1,0,1.1,1.1,100,4275,21.9,4.29,,13.68,1.178,95.2,,30.1,5,,,,,,,,,,,,0,0,0,0,0,0,0,0,0,0,0,0,0,0,0,0,,,,,,0.0,,,,,,,
815074,1745299284863,,,,,,,,,,,,,,,,,,,,,,,13,36,13,12,0.0,139.0,0.0,0.0,2.26,,,0,0,0,0,0,0,0,0,0,0,0,0,0,0,0,0,,1,,,,,38.985447,-76.950111,20.05,48.4,35,3,0.7
815094,1745299284883,0.0,90,,0.01,-0.03,1.03,11,-1,0,1.03,1.1,94,4269,22.8,4.34,,13.76,1.17,95.2,,30.1,5,,,,,,,,,,,,0,0,0,0,0,0,0,0,0,0,0,0,0,0,0,0,,,,,,0.0,,,,,,,
815114,1745299284903,,,,,,,,,,,,,,,,,,,,,,,,,,,,,,,,,,0,0,0,0,0,0,0,0,0,0,0,0,0,0,0,0,,,,,,,,,,,,,
815134,1745299284923,0.0,85,,0.01,-0.04,1.01,9,-1,1,1.01,1.1,92,4227,23.3,4.38,,13.75,1.18,95.2,,30.1,5,,,,,,,,,,,,0,0,0,0,0,0,0,0,0,0,0,0,0,0,0,0,,,,,,0.0,,,,,,,
815154,1745299284943,,,,,,,,,,,,,,,,,,,,,,,,,,,,,,,,,,0,0,0,0,0,0,0,0,0,0,0,0,0,0,0,0,,,,,,,,,,,,,
815174,1745299284963,0.0,79,,-0.0,0.07,1.11,10,-1,1,1.11,1.11,100,4188,23.3,4.38,,13.72,1.169,95.2,,29.5,5,13,36,13,13,0.0,143.0,0.0,0.0,2.26,,,0,0,0,0,0,0,0,0,0,0,0,0,0,0,0,0,,1,,,,0.0,38.985451,-76.950111,20.16,48.4,35,3,0.7
815194,1745299284983,,,,,,,,,,,,,,,,,,,,,,,,,,,,,,,,,,0,0,0,0,0,0,0,0,0,0,0,0,0,0,0,0,,,,,,,,,,,,,
815214,1745299285003,0.0,76,,-0.0,0.09,1.07,8,-1,0,1.08,1.11,97,4333,23.3,4.38,,13.72,1.169,95.2,,29.5,5,,,,,,,,,,,,0,0,0,0,0,0,0,0,0,0,0,0,0,0,0,0,,,,,,0.0,,,,,,,
815234,1745299285015,,,,,,,,,,,,,,,,,,,,,,,,,,,,,,,,,,0,0,0,0,0,0,0,0,0,0,0,0,0,0,0,0,,,,,,,,,,,,,
815254,1745299285035,0.0,79,,-0.01,0.05,0.96,6,-1,0,0.96,1.11,87,4333,23.3,4.38,,13.72,1.149,95.2,,30.8,5,,,,,,,,,,,,0,0,0,0,0,0,0,0,0,0,0,0,0,0,0,0,,,,,,0.0,,,,,,,
815274,1745299285055,,,,,,,,,,,,,,,,,,,,,,,13,36,13,13,0.0,137.0,0.0,0.0,2.26,,,0,0,0,0,0,0,0,0,0,0,0,0,0,0,0,0,,1,,,,,38.985455,-76.950111,20.18,48.4,35,3,0.7
815294,1745299285075,0.0,82,,-0.03,0.07,0.94,3,-0,0,0.94,1.11,84,4420,23.8,4.4,,13.72,1.165,95.2,,30.8,5,,,,,,,,,,,,0,0,0,0,0,0,0,0,0,0,0,0,0,0,0,0,,,,,,0.0,,,,,,,
815314,1745299285103,,,,,,,,,,,,,,,,,,,,,,,,,,,,,,,,,,0,0,0,0,0,0,0,0,0,0,0,0,0,0,0,0,,,,,,,,,,,,,
815334,1745299285123,0.0,85,,-0.05,0.08,0.99,2,0,1,0.99,1.11,89,4276,23.8,4.41,,13.76,1.15,95.2,,30.8,5,,,,,,,,,,,,0,0,0,0,0,0,0,0,0,0,0,0,0,0,0,0,,,,,,0.0,,,,,,,
815354,1745299285143,,,,,,,,,,,,,,,,,,,,,,,,,,,,,,,,,,0,0,0,0,0,0,0,0,0,0,0,0,0,0,0,0,,,,,,,,,,,,,
815374,1745299285163,0.0,90,,-0.04,0.05,1.03,3,0,1,1.03,1.11,92,4291,23.8,4.41,,13.77,1.137,95.2,,29.9,5,13,36,13,14,0.0,131.0,0.0,0.0,2.26,,,0,0,0,0,0,0,0,0,0,0,0,0,0,0,0,0,,0,,,,0.0,38.985462,-76.950111,20.33,48.4,35,3,0.7
815394,1745299285183,,,,,,,,,,,,,,,,,,,,,,,,,,,,,,,,,,0,0,0,0,0,0,0,0,0,0,0,0,0,0,0,0,,,,,,,,,,,,,
815414,1745299285203,0.0,96,,-0.05,0.11,0.98,2,1,0,0.98,1.11,88,4357,23.9,4.4,,13.77,1.137,95.2,,29.9,5,,,,,,,,,,,,0,0,0,0,0,0,0,0,0,0,0,0,0,0,0,0,,,,,,0.0,,,,,,,
815434,1745299285223,,,,,,,,,,,,,,,,,,,,,,,,,,,,,,,,,,0,0,0,0,0,0,0,0,0,0,0,0,0,0,0,0,,,,,,,,,,,,,
815454,1745299285243,0.0,107,,-0.05,0.09,0.9,0,1,-0,0.91,1.11,81,4357,23.9,4.4,,13.77,1.135,95.2,,30.9,5,,,,,,,,,,,,0,0,0,0,0,0,0,0,0,0,0,0,0,0,0,0,,,,,,0.0,,,,,,,
815474,1745299285263,,,,,,,,,,,,,,,,,,,,,,,13,36,13,13,0.0,146.0,0.0,0.0,2.26,,,0,0,0,0,0,0,0,0,0,0,0,0,0,0,0,0,,0,,,,,38.985466,-76.950111,20.52,48.4,35,3,0.7
815494,1745299285283,0.0,93,,-0.05,0.04,0.85,-1,1,-1,0.86,1.11,77,4495,24.0,4.4,,13.68,1.138,95.2,,30.9,5,,,,,,,,,,,,0,0,0,0,0,0,0,0,0,0,0,0,0,0,0,0,,,,,,0.0,,,,,,,
815514,1745299285305,,,,,,,,,,,,,,,,,,,,,,,,,,,,,,,,,,0,0,0,0,0,0,0,0,0,0,0,0,0,0,0,0,,,,,,,,,,,,,
815534,1745299285325,0.0,90,,-0.08,-0.01,0.82,-4,1,-0,0.82,1.11,74,4414,23.9,4.4,,13.75,1.13,95.2,,30.9,5,,,,,,,,,,,,0,0,0,0,0,0,0,0,0,0,0,0,0,0,0,0,,,,,,0.0,,,,,,,
815554,1745299285345,,,,,,,,,,,,,,,,,,,,,,,,,,,,,,,,,,0,0,0,0,0,0,0,0,0,0,0,0,0,0,0,0,,,,,,,,,,,,,
815574,1745299285365,0.0,96,13.33,-0.08,-0.02,0.88,-4,1,0,0.88,1.11,79,4398,23.8,4.4,15,13.73,1.12,95.2,173,30.8,5,13,36,13,13,0.0,133.0,0.0,0.0,2.25,0,1.0,0,0,0,0,0,0,0,0,0,0,0,0,0,0,0,0,0,1,1.0,0,0,0.0,38.985474,-76.950119,20.58,48.4,35,3,0.7
815594,1745299285385,,,,,,,,,,,,,,,,,,,,,,,,,,,,,,,,,,0,0,0,0,0,0,0,0,0,0,0,0,0,0,0,0,,,,,,,,,,,,,
815614,1745299285404,0.0,79,,-0.06,0.04,0.99,-3,0,0,0.99,1.11,89,4340,24.0,4.4,,13.73,1.12,95.2,,30.8,5,,,,,,,,,,,,0,0,0,0,0,0,0,0,0,0,0,0,0,0,0,0,,,,,,0.0,,,,,,,
815634,1745299285424,,,,,,,,,,,,,,,,,,,,,,,,,,,,,,,,,,0,0,0,0,0,0,0,0,0,0,0,0,0,0,0,0,,,,,,,,,,,,,
815654,1745299285444,0.0,93,,-0.04,0.15,1.08,-0,0,1,1.09,1.11,98,4340,24.0,4.4,,13.71,1.119,95.2,,30.7,5,,,,,,,,,,,,0,0,0,0,0,0,0,0,0,0,0,0,0,0,0,0,,,,,,0.0,,,,,,,
815674,1745299285464,,,,,,,,,,,,,,,,,,,,,,,13,36,13,14,0.0,141.0,0.0,0.0,2.26,,,0,0,0,0,0,0,0,0,0,0,0,0,0,0,0,0,,1,,,,,38.985477,-76.950119,20.87,48.4,35,3,0.7
815694,1745299285484,0.0,87,,-0.01,0.24,1.13,3,0,0,1.15,1.15,100,4423,23.9,4.41,,13.75,1.106,95.2,,30.7,5,,,,,,,,,,,,0,0,0,0,0,0,0,0,0,0,0,0,0,0,0,0,,,,,,0.0,,,,,,,
