"Interval"|"ms"|0|0|1,"Utc"|"ms"|0|0|1,"FrontBP"|"psi"|-5.0|5.0|25,"SteerAng"|"Degrees"|-145|145|25,"Battery"|"Volts"|-5.0|20.0|1,"AccelX"|"G"|-3.0|3.0|25,"AccelY"|"G"|-3.0|3.0|25,"AccelZ"|"G"|-3.0|3.0|25,"Yaw"|"Deg/Sec"|-120|120|25,"Pitch"|"Deg/Sec"|-120|120|25,"Roll"|"Deg/Sec"|-120|120|25,"Gsum"|"G"|0.0|3.0|25,"GsumMax"|"G"|0.0|3.0|25,"GsumPct"|"%"|0|100|25,"RPM"|""|0|10000|25,"TPS"|"%"|0.0|100.0|25,"InjectorPW"|"ms"|0.0|100.0|25,"Baro"|"kPa"|0|105|1,"MAP"|"Psi"|0.0|255.0|25,"Lambda"|""|-2.0|2.0|25,"IAT"|"C"|0.0|200.0|25,"EngineTemp"|"C"|0|200|1,"EOP"|"PSI"|0.0|152.0|25,"EOT"|"F"|0|250|25,"WSFR"|"MPH"|0|150|10,"WSFL"|"MPH"|0|100|10,"WSRR"|"MPH"|0|100|10,"WSRL"|""|0|100|10,"TCSet"|"%"|0.0|100.0|10,"TCSlip"|"%"|0.0|100.0|10,"TCComp"|"deg"|0.0|50.0|10,"TCCut"|"%"|0.0|100.0|10,"Analog8"|""|0.0|5.0|10,"OilTemp"|"F"|0|300|1,"AA_On"|""|0.0|1.0|1,"ThermLF1"|"C"|0|400|50,"ThermLF2"|"C"|0|400|50,"ThermRR1"|"C"|0|400|50,"ThermRR2"|"C"|0|400|50,"ThermLF3"|"C"|0|400|50,"ThermLF4"|"C"|0|400|50,"ThermLF5"|"C"|0|400|50,"ThermLF6"|"C"|0|400|50,"ThermLF7"|"C"|0|400|50,"ThermLF8"|"C"|0|400|50,"ThermRR3"|"C"|0|400|50,"ThermRR4"|"C"|0|400|50,"ThermRR5"|"C"|0|400|50,"ThermRR6"|"C"|0|400|50,"ThermRR7"|"C"|0|400|50,"ThermRR8"|"C"|0|400|50,"AA_LowDrag"|""|0|1|1,"Latitude"|"Degrees"|-180.0|180.0|10,"Longitude"|"Degrees"|-180.0|180.0|10,"Speed"|"kph"|0.0|150.0|10,"Altitude"|"m"|0.0|4000.0|10,"GPSSats"|""|0|20|10,"GPSQual"|""|0|5|10,"GPSDOP"|""|0.0|20.0|10
1390,0,,,,,,,,,,,,,,,,,,,,,,,,,,,,,,,,,,0,0,0,0,0,0,0,0,0,0,0,0,0,0,0,0,,,,,,,,
1410,0,0.0,99,,-0.22,0.57,0.97,32,-2,1,1.15,1.15,100,8204,26.5,3.6,,10.06,1.251,88.0,,45.0,5,,,,,,,,,,,,0,0,0,0,0,0,0,0,0,0,0,0,0,0,0,0,,,,,,,,
1430,0,,,,,,,,,,,,,,,,,,,,,,,,,,,,,,,,,,0,0,0,0,0,0,0,0,0,0,0,0,0,0,0,0,,,,,,,,
1450,0,0.0,99,,-0.24,0.71,1.02,28,-1,2,1.26,1.26,100,8825,30.6,4.57,,11.12,1.187,88.0,,45.6,5,,,,,,,,,,,,0,0,0,0,0,0,0,0,0,0,0,0,0,0,0,0,,,,,,,,
1470,0,,,,,,,,,,,,,,,,,,,,,,,24,30,24,21,0.0,38.0,0.0,0.0,2.26,,,0,0,0,0,0,0,0,0,0,0,0,0,0,0,0,0,,0.0,0.0,0.0,0.0,0,0,0.0
1490,0,0.0,135,,-0.15,0.55,1.02,23,0,3,1.17,1.26,92,9012,32.4,4.86,,11.12,1.187,88.0,,45.6,5,,,,,,,,,,,,0,0,0,0,0,0,0,0,0,0,0,0,0,0,0,0,,,,,,,,
1510,0,,,,,,,,,,,,,,,,,,,,,,,,,,,,,,,,,,0,0,0,0,0,0,0,0,0,0,0,0,0,0,0,0,,,,,,,,
1530,0,0.0,134,,0.01,0.42,1.0,18,2,3,1.09,1.26,86,9012,32.4,4.86,,11.49,1.07,88.0,,43.6,5,,,,,,,,,,,,0,0,0,0,0,0,0,0,0,0,0,0,0,0,0,0,,,,,,,,
1550,0,,,,,,,,,,,,,,,,,,,,,,,,,,,,,,,,,,0,0,0,0,0,0,0,0,0,0,0,0,0,0,0,0,,,,,,,,
1570,0,0.0,134,,0.04,0.43,1.03,14,1,3,1.12,1.26,88,8393,11.2,4.99,,10.69,1.02,88.0,,43.6,5,24,30,26,27,0.0,152.0,0.0,0.0,2.25,,,0,0,0,0,0,0,0,0,0,0,0,0,0,0,0,0,,0.0,0.0,0.0,0.0,0,0,0.0
1590,0,,,,,,,,,,,,,,,,,,,,,,,,,,,,,,,,,,0,0,0,0,0,0,0,0,0,0,0,0,0,0,0,0,,,,,,,,
1610,0,0.0,134,,-0.02,0.23,1.05,8,-0,3,1.07,1.26,85,8112,0.0,1.4,,8.89,0.916,88.0,,43.6,5,,,,,,,,,,,,0,0,0,0,0,0,0,0,0,0,0,0,0,0,0,0,,,,,,,,
1630,0,,,,,,,,,,,,,,,,,,,,,,,,,,,,,,,,,,0,0,0,0,0,0,0,0,0,0,0,0,0,0,0,0,,,,,,,,
1650,0,0.0,134,,-0.11,0.03,1.01,2,-1,3,1.02,1.26,80,7654,0.0,1.4,,7.85,0.825,88.0,,43.7,5,,,,,,,,,,,,0,0,0,0,0,0,0,0,0,0,0,0,0,0,0,0,,,,,,,,
1670,0,,,,,,,,,,,,,,,,,,,,,,,23,24,24,25,0.0,190.0,0.0,0.0,2.26,,,0,0,0,0,0,0,0,0,0,0,0,0,0,0,0,0,,0.0,0.0,0.0,0.0,0,0,0.0
1690,0,0.0,133,,-0.22,-0.08,1.0,-4,-2,3,1.03,1.26,82,7288,0.0,1.4,,7.85,0.825,88.0,,43.7,5,,,,,,,,,,,,0,0,0,0,0,0,0,0,0,0,0,0,0,0,0,0,,,,,,,,
1710,0,,,,,,,,,,,,,,,,,,,,,,,,,,,,,,,,,,0,0,0,0,0,0,0,0,0,0,0,0,0,0,0,0,,,,,,,,
1730,0,0.0,134,,-0.35,-0.06,1.02,-10,-2,3,1.08,1.26,85,7288,0.0,1.4,,7.29,0.876,88.0,,42.2,5,,,,,,,,,,,,0,0,0,0,0,0,0,0,0,0,0,0,0,0,0,0,,,,,,,,
1750,0,,,,,,,,,,,,,,,,,,,,,,,,,,,,,,,,,,0,0,0,0,0,0,0,0,0,0,0,0,0,0,0,0,,,,,,,,
1770,0,0.0,134,,-0.45,-0.15,1.0,-18,-2,3,1.11,1.26,88,7498,0.0,1.4,,7.03,1.246,88.0,,42.2,5,23,26,20,25,0.0,128.0,0.0,0.0,2.26,,,0,0,0,0,0,0,0,0,0,0,0,0,0,0,0,0,,0.0,0.0,0.0,0.0,0,0,0.0
1790,0,,,,,,,,,,,,,,,,,,,,,,,,,,,,,,,,,,0,0,0,0,0,0,0,0,0,0,0,0,0,0,0,0,,,,,,,,
1810,0,0.0,134,,-0.5,-0.24,0.97,-24,-1,2,1.11,1.26,88,7550,16.0,2.83,,8.1,1.251,88.0,,42.2,5,,,,,,,,,,,,0,0,0,0,0,0,0,0,0,0,0,0,0,0,0,0,,,,,,,,
1830,0,,,,,,,,,,,,,,,,,,,,,,,,,,,,,,,,,,0,0,0,0,0,0,0,0,0,0,0,0,0,0,0,0,,,,,,,,
1850,0,0.0,134,,-0.51,-0.33,0.94,-29,-1,3,1.12,1.26,89,7954,20.1,3.79,,9.42,1.252,88.0,,42.9,5,,,,,,,,,,,,0,0,0,0,0,0,0,0,0,0,0,0,0,0,0,0,,,,,,,,
1870,0,,,,,,,,,,,,,,,,,,,,,,,22,28,22,25,0.0,130.0,0.0,0.0,2.26,,,0,0,0,0,0,0,0,0,0,0,0,0,0,0,0,0,,0.0,0.0,0.0,0.0,0,0,0.0
1890,0,0.0,134,,-0.5,-0.37,0.94,-32,-0,3,1.13,1.26,89,8589,21.1,3.74,,9.42,1.252,88.0,,42.9,5,,,,,,,,,,,,0,0,0,0,0,0,0,0,0,0,0,0,0,0,0,0,,,,,,,,
1910,0,,,,,,,,,,,,,,,,,,,,,,,,,,,,,,,,,,0,0,0,0,0,0,0,0,0,0,0,0,0,0,0,0,,,,,,,,
1930,0,0.0,134,,-0.44,-0.08,0.95,-33,0,4,1.05,1.26,83,8589,21.1,3.74,,10.12,1.252,88.0,,45.2,5,,,,,,,,,,,,0,0,0,0,0,0,0,0,0,0,0,0,0,0,0,0,,,,,,,,
1950,0,,,,,,,,,,,,,,,,,,,,,,,,,,,,,,,,,,0,0,0,0,0,0,0,0,0,0,0,0,0,0,0,0,,,,,,,,
1970,0,0.0,134,,-0.33,0.15,1.0,-36,0,3,1.06,1.26,84,9140,21.4,3.48,,10.13,1.022,88.0,,45.2,5,23,24,27,26,0.0,82.0,0.0,0.0,2.26,,,0,0,0,0,0,0,0,0,0,0,0,0,0,0,0,0,,0.0,0.0,0.0,0.0,0,0,0.0
1990,0,,,,,,,,,,,,,,,,,,,,,,,,,,,,,,,,,,0,0,0,0,0,0,0,0,0,0,0,0,0,0,0,0,,,,,,,,
2010,0,0.0,134,,-0.24,0.29,1.03,-37,1,3,1.1,1.26,87,8907,21.6,3.48,,10.09,0.98,88.0,,45.2,5,,,,,,,,,,,,0,0,0,0,0,0,0,0,0,0,0,0,0,0,0,0,,,,,,,,
2030,0,,,,,,,,,,,,,,,,,,,,,,,,,,,,,,,,,,0,0,0,0,0,0,0,0,0,0,0,0,0,0,0,0,,,,,,,,
2050,0,0.0,134,,-0.2,0.07,0.99,-38,0,3,1.01,1.26,80,8610,21.5,3.64,,10.09,0.98,88.0,,43.1,5,,,,,,,,,,,,0,0,0,0,0,0,0,0,0,0,0,0,0,0,0,0,,,,,,,,
2070,0,,,,,,,,,,,,,,,,,,,,,,,23,28,26,26,0.0,144.0,0.0,0.0,2.26,,,0,0,0,0,0,0,0,0,0,0,0,0,0,0,0,0,,0.0,0.0,0.0,0.0,0,0,0.0
2090,0,0.0,134,,-0.18,0.08,1.02,-39,-0,2,1.04,1.26,82,8657,21.6,3.69,,10.42,1.009,88.0,,43.1,5,,,,,,,,,,,,0,0,0,0,0,0,0,0,0,0,0,0,0,0,0,0,,,,,,,,
2110,0,,,,,,,,,,,,,,,,,,,,,,,,,,,,,,,,,,0,0,0,0,0,0,0,0,0,0,0,0,0,0,0,0,,,,,,,,
2130,0,0.0,134,,-0.12,-0.11,1.04,-40,0,2,1.05,1.26,83,8657,21.6,3.69,,10.42,1.007,88.0,,43.6,5,,,,,,,,,,,,0,0,0,0,0,0,0,0,0,0,0,0,0,0,0,0,,,,,,,,
2150,0,,,,,,,,,,,,,,,,,,,,,,,,,,,,,,,,,,0,0,0,0,0,0,0,0,0,0,0,0,0,0,0,0,,,,,,,,
2170,0,0.0,134,13.09,-0.05,-0.45,1.01,-38,1,1,1.11,1.26,88,8925,21.8,3.57,15,10.37,0.976,88.0,185,43.6,5,24,26,25,27,0.0,39.0,0.0,0.0,2.26,0,1.0,0,0,0,0,0,0,0,0,0,0,0,0,0,0,0,0,0,0.0,0.0,0.0,0.0,0,0,0.0
2190,0,,,,,,,,,,,,,,,,,,,,,,,,,,,,,,,,,,0,0,0,0,0,0,0,0,0,0,0,0,0,0,0,0,,,,,,,,
2210,0,0.0,134,,0.02,-0.58,0.95,-36,1,0,1.12,1.26,88,8866,21.9,3.57,,10.28,0.975,88.0,,43.6,5,,,,,,,,,,,,0,0,0,0,0,0,0,0,0,0,0,0,0,0,0,0,,,,,,,,
2230,0,,,,,,,,,,,,,,,,,,,,,,,,,,,,,,,,,,0,0,0,0,0,0,0,0,0,0,0,0,0,0,0,0,,,,,,,,
2250,0,0.0,134,,0.07,-0.43,0.94,-33,1,-0,1.04,1.26,82,8833,22.1,3.63,,10.53,0.991,88.0,,44.0,5,,,,,,,,,,,,0,0,0,0,0,0,0,0,0,0,0,0,0,0,0,0,,,,,,,,
2270,0,,,,,,,,,,,,,,,,,,,,,,,26,26,28,28,0.0,0.0,0.0,0.0,2.25,,,0,0,0,0,0,0,0,0,0,0,0,0,0,0,0,0,,0.0,0.0,0.0,0.0,0,0,0.0
2290,0,0.0,127,,0.14,-0.12,0.98,-29,1,-1,1.0,1.26,79,9052,23.0,3.49,,10.53,0.991,89.8,,44.0,5,,,,,,,,,,,,0,0,0,0,0,0,0,0,0,0,0,0,0,0,0,0,,,,,,,,
2310,0,,,,,,,,,,,,,,,,,,,,,,,,,,,,,,,,,,0,0,0,0,0,0,0,0,0,0,0,0,0,0,0,0,,,,,,,,
2330,0,0.0,135,,0.19,0.0,0.98,-25,0,-1,1.0,1.26,79,9052,23.0,3.49,,10.42,0.994,89.8,,43.8,5,,,,,,,,,,,,0,0,0,0,0,0,0,0,0,0,0,0,0,0,0,0,,,,,,,,
2350,0,,,,,,,,,,,,,,,,,,,,,,,,,,,,,,,,,,0,0,0,0,0,0,0,0,0,0,0,0,0,0,0,0,,,,,,,,
2370,0,0.0,135,,0.24,-0.17,0.98,-20,-0,-2,1.02,1.26,81,9228,28.3,3.59,,10.88,0.997,89.8,,43.8,5,28,26,28,28,0.0,56.0,0.0,0.0,2.26,,,0,0,0,0,0,0,0,0,0,0,0,0,0,0,0,0,,0.0,0.0,0.0,0.0,0,0,0.0
2390,0,,,,,,,,,,,,,,,,,,,,,,,,,,,,,,,,,,0,0,0,0,0,0,0,0,0,0,0,0,0,0,0,0,,,,,,,,
2410,0,0.0,133,,0.27,-0.18,0.88,-16,-0,-2,0.94,1.26,74,9392,30.6,4.81,,11.2,1.032,89.8,,43.8,5,,,,,,,,,,,,0,0,0,0,0,0,0,0,0,0,0,0,0,0,0,0,,,,,,,,
2430,0,,,,,,,,,,,,,,,,,,,,,,,,,,,,,,,,,,0,0,0,0,0,0,0,0,0,0,0,0,0,0,0,0,,,,,,,,
2450,0,0.0,127,,0.27,-0.1,0.92,-11,0,-2,0.97,1.26,77,9736,31.1,4.93,,11.24,1.039,89.8,,44.6,5,,,,,,,,,,,,0,0,0,0,0,0,0,0,0,0,0,0,0,0,0,0,,,,,,,,
2470,0,,,,,,,,,,,,,,,,,,,,,,,28,26,29,29,0.0,247.0,0.0,0.0,2.26,,,0,0,0,0,0,0,0,0,0,0,0,0,0,0,0,0,,0.0,0.0,0.0,0.0,0,0,0.0
2490,0,0.0,130,,0.31,-0.08,0.98,-6,1,-2,1.03,1.26,82,9736,31.1,4.93,,11.24,1.039,89.8,,44.6,5,,,,,,,,,,,,0,0,0,0,0,0,0,0,0,0,0,0,0,0,0,0,,,,,,,,
2510,0,,,,,,,,,,,,,,,,,,,,,,,,,,,,,,,,,,0,0,0,0,0,0,0,0,0,0,0,0,0,0,0,0,,,,,,,,
2530,0,0.0,130,,0.32,0.14,0.99,-2,1,-3,1.05,1.26,83,9975,31.2,5.0,,11.3,0.929,89.8,,49.3,5,,,,,,,,,,,,0,0,0,0,0,0,0,0,0,0,0,0,0,0,0,0,,,,,,,,
2550,0,,,,,,,,,,,,,,,,,,,,,,,,,,,,,,,,,,0,0,0,0,0,0,0,0,0,0,0,0,0,0,0,0,,,,,,,,
2570,0,0.0,135,,0.38,0.09,1.04,1,1,-2,1.11,1.26,88,10053,29.4,4.94,,11.17,0.868,89.8,,49.3,5,30,26,30,31,0.0,50.0,0.0,0.0,2.26,,,0,0,0,0,0,0,0,0,0,0,0,0,0,0,0,0,,0.0,0.0,0.0,0.0,0,0,0.0
2590,0,,,,,,,,,,,,,,,,,,,,,,,,,,,,,,,,,,0,0,0,0,0,0,0,0,0,0,0,0,0,0,0,0,,,,,,,,
2610,0,0.0,135,,0.37,-0.04,1.14,3,0,-2,1.2,1.26,95,10167,11.0,3.71,,9.82,0.825,89.8,,49.3,5,,,,,,,,,,,,0,0,0,0,0,0,0,0,0,0,0,0,0,0,0,0,,,,,,,,
2630,0,,,,,,,,,,,,,,,,,,,,,,,,,,,,,,,,,,0,0,0,0,0,0,0,0,0,0,0,0,0,0,0,0,,,,,,,,
2650,0,0.0,116,,0.31,-0.02,1.05,3,-1,-2,1.1,1.26,87,10000,0.0,1.4,,7.9,0.788,89.8,,46.4,5,,,,,,,,,,,,0,0,0,0,0,0,0,0,0,0,0,0,0,0,0,0,,,,,,,,
2670,0,,,,,,,,,,,,,,,,,,,,,,,30,26,31,30,0.0,53.0,0.0,0.0,2.26,,,0,0,0,0,0,0,0,0,0,0,0,0,0,0,0,0,,0.0,0.0,0.0,0.0,0,0,0.0
2690,0,16.47,110,,0.22,0.03,1.11,3,-1,-2,1.13,1.26,89,9477,0.0,1.4,,7.9,0.788,89.8,,46.4,5,,,,,,,,,,,,0,0,0,0,0,0,0,0,0,0,0,0,0,0,0,0,,,,,,,,
2710,0,,,,,,,,,,,,,,,,,,,,,,,,,,,,,,,,,,0,0,0,0,0,0,0,0,0,0,0,0,0,0,0,0,,,,,,,,
2730,0,45.37,96,,0.13,0.21,1.06,4,-1,-2,1.09,1.26,86,9477,0.0,1.4,,6.66,0.809,89.8,,45.0,5,,,,,,,,,,,,0,0,0,0,0,0,0,0,0,0,0,0,0,0,0,0,,,,,,,,
2750,0,,,,,,,,,,,,,,,,,,,,,,,,,,,,,,,,,,0,0,0,0,0,0,0,0,0,0,0,0,0,0,0,0,,,,,,,,
2770,0,68.0,107,,0.05,0.18,1.03,6,-1,-2,1.05,1.26,83,9059,0.0,1.4,,5.96,0.986,89.8,,45.0,5,30,26,30,29,0.0,198.0,0.0,0.0,2.26,,,0,0,0,0,0,0,0,0,0,0,0,0,0,0,0,0,,0.0,0.0,0.0,0.0,0,0,0.0
2790,0,,,,,,,,,,,,,,,,,,,,,,,,,,,,,,,,,,0,0,0,0,0,0,0,0,0,0,0,0,0,0,0,0,,,,,,,,
2810,0,86.85,99,,-0.04,0.38,1.0,11,-2,-2,1.07,1.26,84,8768,0.0,1.4,,5.67,1.248,89.8,,45.0,5,,,,,,,,,,,,0,0,0,0,0,0,0,0,0,0,0,0,0,0,0,0,,,,,,,,
2830,0,,,,,,,,,,,,,,,,,,,,,,,,,,,,,,,,,,0,0,0,0,0,0,0,0,0,0,0,0,0,0,0,0,,,,,,,,
2850,0,100.05,107,,-0.11,0.69,1.04,14,-3,-2,1.25,1.26,99,8907,0.0,1.4,,5.48,1.251,89.8,,45.6,5,,,,,,,,,,,,0,0,0,0,0,0,0,0,0,0,0,0,0,0,0,0,,,,,,,,
2870,0,,,,,,,,,,,,,,,,,,,,,,,29,26,25,25,0.0,226.0,0.0,0.0,2.26,,,0,0,0,0,0,0,0,0,0,0,0,0,0,0,0,0,,0.0,0.0,0.0,0.0,0,0,0.0
2890,0,103.19,110,,-0.14,0.58,1.07,18,-3,-1,1.23,1.26,97,8907,0.0,1.4,,5.48,1.251,89.8,,45.6,5,,,,,,,,,,,,0,0,0,0,0,0,0,0,0,0,0,0,0,0,0,0,,,,,,,,
2910,0,,,,,,,,,,,,,,,,,,,,,,,,,,,,,,,,,,0,0,0,0,0,0,0,0,0,0,0,0,0,0,0,0,,,,,,,,
2930,0,101.94,119,,-0.23,0.65,1.08,17,-2,-1,1.28,1.28,100,8615,0.0,1.4,,5.35,1.251,89.8,,44.0,5,,,,,,,,,,,,0,0,0,0,0,0,0,0,0,0,0,0,0,0,0,0,,,,,,,,
2950,0,,,,,,,,,,,,,,,,,,,,,,,,,,,,,,,,,,0,0,0,0,0,0,0,0,0,0,0,0,0,0,0,0,,,,,,,,
2970,0,97.54,107,,-0.28,0.6,1.0,16,-2,-0,1.2,1.28,94,8422,0.0,1.4,,5.31,1.251,89.8,,44.0,5,28,26,27,25,0.0,246.0,0.0,0.0,2.26,,,0,0,0,0,0,0,0,0,0,0,0,0,0,0,0,0,,0.0,0.0,0.0,0.0,0,0,0.0
2990,0,,,,,,,,,,,,,,,,,,,,,,,,,,,,,,,,,,0,0,0,0,0,0,0,0,0,0,0,0,0,0,0,0,,,,,,,,
3010,0,95.65,119,,-0.32,0.66,1.03,15,-1,-0,1.26,1.28,99,8373,0.0,1.4,,5.34,1.252,89.8,,44.0,5,,,,,,,,,,,,0,0,0,0,0,0,0,0,0,0,0,0,0,0,0,0,,,,,,,,
3030,0,,,,,,,,,,,,,,,,,,,,,,,,,,,,,,,,,,0,0,0,0,0,0,0,0,0,0,0,0,0,0,0,0,,,,,,,,
3050,0,98.79,121,,-0.35,0.62,1.05,14,-1,-0,1.27,1.28,100,8199,0.0,1.4,,5.36,1.252,89.8,,44.2,5,,,,,,,,,,,,0,0,0,0,0,0,0,0,0,0,0,0,0,0,0,0,,,,,,,,
3070,0,,,,,,,,,,,,,,,,,,,,,,,26,26,25,24,0.0,217.0,0.0,0.0,2.27,,,0,0,0,0,0,0,0,0,0,0,0,0,0,0,0,0,,0.0,0.0,0.0,0.0,0,0,0.0
3090,0,104.45,116,,-0.36,0.61,1.07,15,-1,-0,1.28,1.28,100,8103,0.0,1.4,,5.36,1.252,89.8,,44.2,5,,,,,,,,,,,,0,0,0,0,0,0,0,0,0,0,0,0,0,0,0,0,,,,,,,,
3110,0,,,,,,,,,,,,,,,,,,,,,,,,,,,,,,,,,,0,0,0,0,0,0,0,0,0,0,0,0,0,0,0,0,,,,,,,,
3130,0,109.48,102,,-0.38,0.4,1.03,16,-0,-1,1.17,1.28,91,8103,0.0,1.4,,5.39,1.253,89.8,,45.0,5,,,,,,,,,,,,0,0,0,0,0,0,0,0,0,0,0,0,0,0,0,0,,,,,,,,
3150,0,,,,,,,,,,,,,,,,,,,,,,,,,,,,,,,,,,0,0,0,0,0,0,0,0,0,0,0,0,0,0,0,0,,,,,,,,
3170,0,115.76,85,13.1,-0.39,0.49,1.09,18,-0,-0,1.25,1.28,98,7853,0.0,1.4,15,5.52,1.255,89.8,185,45.0,5,25,26,25,23,0.0,169.0,0.0,0.0,2.26,0,1.0,0,0,0,0,0,0,0,0,0,0,0,0,0,0,0,0,0,0.0,0.0,0.0,0.0,0,0,0.0
3190,0,,,,,,,,,,,,,,,,,,,,,,,,,,,,,,,,,,0,0,0,0,0,0,0,0,0,0,0,0,0,0,0,0,,,,,,,,
3210,0,118.28,96,,-0.39,0.61,1.12,20,-1,-0,1.34,1.34,100,7552,0.0,1.4,,5.63,1.254,89.8,,45.0,5,,,,,,,,,,,,0,0,0,0,0,0,0,0,0,0,0,0,0,0,0,0,,,,,,,,
3230,0,,,,,,,,,,,,,,,,,,,,,,,,,,,,,,,,,,0,0,0,0,0,0,0,0,0,0,0,0,0,0,0,0,,,,,,,,
3250,0,117.02,79,,-0.38,0.55,1.1,21,-2,-0,1.29,1.34,96,7263,0.0,1.4,,5.63,1.254,89.8,,43.4,5,,,,,,,,,,,,0,0,0,0,0,0,0,0,0,0,0,0,0,0,0,0,,,,,,,,
3270,0,,,,,,,,,,,,,,,,,,,,,,,24,26,24,20,0.0,164.0,0.0,0.0,2.26,,,0,0,0,0,0,0,0,0,0,0,0,0,0,0,0,0,,0.0,0.0,0.0,0.0,0,0,0.0
3290,0,120.16,76,,-0.43,0.65,1.08,22,-2,-1,1.33,1.34,100,7034,0.0,1.4,,5.71,1.252,88.0,,43.4,5,,,,,,,,,,,,0,0,0,0,0,0,0,0,0,0,0,0,0,0,0,0,,,,,,,,
3310,0,,,,,,,,,,,,,,,,,,,,,,,,,,,,,,,,,,0,0,0,0,0,0,0,0,0,0,0,0,0,0,0,0,,,,,,,,
3330,0,114.5,73,,-0.45,0.71,1.06,24,-2,-0,1.35,1.35,100,7034,0.0,1.4,,6.04,1.252,88.0,,41.9,5,,,,,,,,,,,,0,0,0,0,0,0,0,0,0,0,0,0,0,0,0,0,,,,,,,,
3350,0,,,,,,,,,,,,,,,,,,,,,,,,,,,,,,,,,,0,0,0,0,0,0,0,0,0,0,0,0,0,0,0,0,,,,,,,,
3370,0,101.94,73,,-0.46,0.7,1.09,26,-1,0,1.38,1.38,100,6863,0.0,1.4,,6.27,1.251,88.0,,41.9,5,22,26,22,20,0.0,108.0,0.0,0.0,2.26,,,0,0,0,0,0,0,0,0,0,0,0,0,0,0,0,0,,0.0,0.0,0.0,0.0,0,0,0.0
3390,0,,,,,,,,,,,,,,,,,,,,,,,,,,,,,,,,,,0,0,0,0,0,0,0,0,0,0,0,0,0,0,0,0,,,,,,,,
3410,0,88.74,82,,-0.46,0.72,1.11,26,-0,1,1.4,1.4,100,6681,0.0,1.4,,6.54,1.251,88.0,,41.9,5,,,,,,,,,,,,0,0,0,0,0,0,0,0,0,0,0,0,0,0,0,0,,,,,,,,
3430,0,,,,,,,,,,,,,,,,,,,,,,,,,,,,,,,,,,0,0,0,0,0,0,0,0,0,0,0,0,0,0,0,0,,,,,,,,
3450,0,77.43,85,,-0.49,0.66,1.09,26,-0,0,1.36,1.4,97,6643,0.0,1.4,,6.76,1.252,88.0,,40.5,5,,,,,,,,,,,,0,0,0,0,0,0,0,0,0,0,0,0,0,0,0,0,,,,,,,,
3470,0,,,,,,,,,,,,,,,,,,,,,,,21,26,21,20,0.0,63.0,0.0,0.0,2.26,,,0,0,0,0,0,0,0,0,0,0,0,0,0,0,0,0,,0.0,0.0,0.0,0.0,0,0,0.0
3490,0,62.97,68,,-0.44,0.65,1.06,25,-1,0,1.32,1.4,94,6581,0.0,1.4,,6.76,1.252,88.0,,40.5,5,,,,,,,,,,,,0,0,0,0,0,0,0,0,0,0,0,0,0,0,0,0,,,,,,,,
3510,0,,,,,,,,,,,,,,,,,,,,,,,,,,,,,,,,,,0,0,0,0,0,0,0,0,0,0,0,0,0,0,0,0,,,,,,,,
3530,0,52.29,62,,-0.42,0.61,1.03,24,-1,1,1.27,1.4,91,6581,0.0,1.4,,6.95,1.252,88.0,,39.6,5,,,,,,,,,,,,0,0,0,0,0,0,0,0,0,0,0,0,0,0,0,0,,,,,,,,
3550,0,,,,,,,,,,,,,,,,,,,,,,,,,,,,,,,,,,0,0,0,0,0,0,0,0,0,0,0,0,0,0,0,0,,,,,,,,
3570,0,40.98,73,,-0.42,0.75,1.08,26,-1,0,1.38,1.4,99,6395,12.4,2.56,,8.05,1.252,88.0,,39.6,5,20,26,20,19,0.0,48.0,0.0,0.0,2.26,,,0,0,0,0,0,0,0,0,0,0,0,0,0,0,0,0,,0.0,0.0,0.0,0.0,0,0,0.0
3590,0,,,,,,,,,,,,,,,,,,,,,,,,,,,,,,,,,,0,0,0,0,0,0,0,0,0,0,0,0,0,0,0,0,,,,,,,,
3610,0,34.06,53,,-0.38,0.75,1.02,28,-1,-1,1.32,1.4,94,6449,13.5,2.89,,9.27,1.252,88.0,,39.6,5,,,,,,,,,,,,0,0,0,0,0,0,0,0,0,0,0,0,0,0,0,0,,,,,,,,
3630,0,,,,,,,,,,,,,,,,,,,,,,,,,,,,,,,,,,0,0,0,0,0,0,0,0,0,0,0,0,0,0,0,0,,,,,,,,
3650,0,28.41,42,,-0.34,0.72,1.03,29,-1,-1,1.31,1.4,93,6550,13.5,3.27,,10.0,1.254,88.0,,38.5,5,,,,,,,,,,,,0,0,0,0,0,0,0,0,0,0,0,0,0,0,0,0,,,,,,,,
3670,0,,,,,,,,,,,,,,,,,,,,,,,20,26,20,18,0.0,29.0,0.0,0.0,2.26,,,0,0,0,0,0,0,0,0,0,0,0,0,0,0,0,0,,0.0,0.0,0.0,0.0,0,0,0.0
3690,0,24.01,31,,-0.3,0.85,1.04,32,-1,-2,1.38,1.4,98,6634,4.4,2.86,,10.0,1.254,88.0,,38.5,5,,,,,,,,,,,,0,0,0,0,0,0,0,0,0,0,0,0,0,0,0,0,,,,,,,,
3710,0,,,,,,,,,,,,,,,,,,,,,,,,,,,,,,,,,,0,0,0,0,0,0,0,0,0,0,0,0,0,0,0,0,,,,,,,,
3730,0,21.49,42,,-0.27,0.83,0.99,34,-1,-1,1.33,1.4,95,6634,4.4,2.86,,9.44,1.254,88.0,,38.9,5,,,,,,,,,,,,0,0,0,0,0,0,0,0,0,0,0,0,0,0,0,0,,,,,,,,
3750,0,,,,,,,,,,,,,,,,,,,,,,,,,,,,,,,,,,0,0,0,0,0,0,0,0,0,0,0,0,0,0,0,0,,,,,,,,
3770,0,18.98,45,,-0.25,0.81,0.89,36,-2,-1,1.23,1.4,88,6829,3.6,2.29,,8.82,1.164,88.0,,38.9,5,20,12,20,19,0.0,7.0,0.0,0.0,2.26,,,0,0,0,0,0,0,0,0,0,0,0,0,0,0,0,0,,0.0,0.0,0.0,0.0,0,0,0.0
3790,0,,,,,,,,,,,,,,,,,,,,,,,,,,,,,,,,,,0,0,0,0,0,0,0,0,0,0,0,0,0,0,0,0,,,,,,,,
3810,0,16.47,39,,-0.15,0.78,0.97,38,-1,-1,1.26,1.4,90,6415,3.5,2.13,,8.77,1.049,88.0,,38.9,5,,,,,,,,,,,,0,0,0,0,0,0,0,0,0,0,0,0,0,0,0,0,,,,,,,,
3830,0,,,,,,,,,,,,,,,,,,,,,,,,,,,,,,,,,,0,0,0,0,0,0,0,0,0,0,0,0,0,0,0,0,,,,,,,,
3850,0,16.47,34,,-0.09,0.79,0.98,40,-1,-1,1.26,1.4,90,5886,0.8,1.4,,8.61,1.067,88.0,,37.7,5,,,,,,,,,,,,0,0,0,0,0,0,0,0,0,0,0,0,0,0,0,0,,,,,,,,
3870,0,,,,,,,,,,,,,,,,,,,,,,,20,111,20,18,0.0,203.0,0.0,0.0,2.26,,,0,0,0,0,0,0,0,0,0,0,0,0,0,0,0,0,,0.0,0.0,0.0,0.0,0,0,0.0
3890,0,20.24,25,,-0.13,0.83,0.98,41,-1,-1,1.29,1.4,92,5501,0.9,1.47,,8.61,1.067,88.0,,37.7,5,,,,,,,,,,,,0,0,0,0,0,0,0,0,0,0,0,0,0,0,0,0,,,,,,,,
3910,0,,,,,,,,,,,,,,,,,,,,,,,,,,,,,,,,,,0,0,0,0,0,0,0,0,0,0,0,0,0,0,0,0,,,,,,,,
3930,0,24.64,20,,-0.16,0.87,1.0,44,-1,-2,1.33,1.4,95,5501,0.9,1.47,,8.82,1.101,88.0,,33.2,5,,,,,,,,,,,,0,0,0,0,0,0,0,0,0,0,0,0,0,0,0,0,,,,,,,,
3950,0,,,,,,,,,,,,,,,,,,,,,,,,,,,,,,,,,,0,0,0,0,0,0,0,0,0,0,0,0,0,0,0,0,,,,,,,,
3970,0,29.03,31,,-0.21,0.89,1.0,47,-2,-2,1.36,1.4,97,5210,0.5,1.59,,9.07,1.126,88.0,,33.2,5,20,138,19,16,0.0,170.0,0.0,0.0,2.26,,,0,0,0,0,0,0,0,0,0,0,0,0,0,0,0,0,,0.0,0.0,0.0,0.0,0,0,0.0
3990,0,,,,,,,,,,,,,,,,,,,,,,,,,,,,,,,,,,0,0,0,0,0,0,0,0,0,0,0,0,0,0,0,0,,,,,,,,
4010,0,30.92,14,,-0.2,0.89,1.0,51,-2,-2,1.35,1.4,97,5213,0.6,1.64,,9.25,1.171,88.0,,33.2,5,,,,,,,,,,,,0,0,0,0,0,0,0,0,0,0,0,0,0,0,0,0,,,,,,,,
4030,0,,,,,,,,,,,,,,,,,,,,,,,,,,,,,,,,,,0,0,0,0,0,0,0,0,0,0,0,0,0,0,0,0,,,,,,,,
4050,0,27.78,31,,-0.22,0.86,0.97,52,-3,-2,1.31,1.4,94,4959,0.7,1.75,,9.41,1.25,88.0,,31.0,5,,,,,,,,,,,,0,0,0,0,0,0,0,0,0,0,0,0,0,0,0,0,,,,,,,,
4070,0,,,,,,,,,,,,,,,,,,,,,,,20,1,19,13,0.0,235.0,0.0,0.0,2.26,,,0,0,0,0,0,0,0,0,0,0,0,0,0,0,0,0,,0.0,0.0,0.0,0.0,0,0,0.0
4090,0,20.24,31,,-0.27,0.91,1.02,55,-3,-2,1.39,1.4,100,4918,0.6,1.78,,9.41,1.25,88.0,,31.0,5,,,,,,,,,,,,0,0,0,0,0,0,0,0,0,0,0,0,0,0,0,0,,,,,,,,
4110,0,,,,,,,,,,,,,,,,,,,,,,,,,,,,,,,,,,0,0,0,0,0,0,0,0,0,0,0,0,0,0,0,0,,,,,,,,
4130,0,13.95,11,,-0.22,0.86,0.97,56,-3,-2,1.31,1.4,94,4918,0.6,1.78,,9.56,1.252,88.0,,29.4,5,,,,,,,,,,,,0,0,0,0,0,0,0,0,0,0,0,0,0,0,0,0,,,,,,,,
4150,0,,,,,,,,,,,,,,,,,,,,,,,,,,,,,,,,,,0,0,0,0,0,0,0,0,0,0,0,0,0,0,0,0,,,,,,,,
4170,0,8.3,11,13.19,-0.28,0.97,1.06,58,-3,-1,1.46,1.46,100,4855,29.5,3.49,15,11.89,1.253,88.0,185,29.4,5,18,2,18,12,0.0,0.0,0.0,0.0,2.26,0,1.0,0,0,0,0,0,0,0,0,0,0,0,0,0,0,0,0,0,0.0,0.0,0.0,0.0,0,0,0.0
4190,0,,,,,,,,,,,,,,,,,,,,,,,,,,,,,,,,,,0,0,0,0,0,0,0,0,0,0,0,0,0,0,0,0,,,,,,,,
4210,0,3.9,17,,-0.3,0.96,1.09,59,-3,-1,1.48,1.48,100,4913,43.7,5.13,,14.03,1.253,88.0,,29.4,5,,,,,,,,,,,,0,0,0,0,0,0,0,0,0,0,0,0,0,0,0,0,,,,,,,,
4230,0,,,,,,,,,,,,,,,,,,,,,,,,,,,,,,,,,,0,0,0,0,0,0,0,0,0,0,0,0,0,0,0,0,,,,,,,,
4250,0,0.13,25,,-0.26,0.94,1.02,59,-3,-2,1.41,1.48,95,5589,46.1,5.72,,14.11,1.253,88.0,,29.2,5,,,,,,,,,,,,0,0,0,0,0,0,0,0,0,0,0,0,0,0,0,0,,,,,,,,
4270,0,,,,,,,,,,,,,,,,,,,,,,,18,1,17,13,0.0,221.0,0.0,0.0,2.26,,,0,0,0,0,0,0,0,0,0,0,0,0,0,0,0,0,,0.0,0.0,0.0,0.0,0,0,0.0
4290,0,0.0,14,,-0.25,0.89,0.98,59,-3,-1,1.35,1.48,91,6106,31.6,5.15,,14.11,1.253,88.0,,29.2,5,,,,,,,,,,,,0,0,0,0,0,0,0,0,0,0,0,0,0,0,0,0,,,,,,,,
4310,0,,,,,,,,,,,,,,,,,,,,,,,,,,,,,,,,,,0,0,0,0,0,0,0,0,0,0,0,0,0,0,0,0,,,,,,,,
4330,0,0.0,20,,-0.15,0.83,0.89,61,-3,-1,1.22,1.48,82,6106,31.6,5.15,,13.67,1.211,88.0,,34.2,5,,,,,,,,,,,,0,0,0,0,0,0,0,0,0,0,0,0,0,0,0,0,,,,,,,,
4350,0,,,,,,,,,,,,,,,,,,,,,,,,,,,,,,,,,,0,0,0,0,0,0,0,0,0,0,0,0,0,0,0,0,,,,,,,,
4370,0,0.0,17,,-0.08,0.7,0.81,63,-3,-1,1.08,1.48,73,6120,14.8,4.54,,12.65,0.969,88.0,,34.2,5,18,2,18,20,0.0,3.0,0.0,0.0,2.26,,,0,0,0,0,0,0,0,0,0,0,0,0,0,0,0,0,,0.0,0.0,0.0,0.0,0,0,0.0
4390,0,,,,,,,,,,,,,,,,,,,,,,,,,,,,,,,,,,0,0,0,0,0,0,0,0,0,0,0,0,0,0,0,0,,,,,,,,
4410,0,0.0,14,,-0.09,0.84,0.84,64,-3,-2,1.19,1.48,81,5484,0.0,1.81,,11.68,0.917,88.0,,34.2,5,,,,,,,,,,,,0,0,0,0,0,0,0,0,0,0,0,0,0,0,0,0,,,,,,,,
4430,0,,,,,,,,,,,,,,,,,,,,,,,,,,,,,,,,,,0,0,0,0,0,0,0,0,0,0,0,0,0,0,0,0,,,,,,,,
4450,0,0.0,-15,,-0.1,0.89,0.87,65,-4,-2,1.25,1.48,84,5174,0.0,2.2,,11.25,0.885,88.0,,32.4,5,,,,,,,,,,,,0,0,0,0,0,0,0,0,0,0,0,0,0,0,0,0,,,,,,,,
4470,0,,,,,,,,,,,,,,,,,,,,,,,18,2,18,14,0.0,200.0,0.0,0.0,2.26,,,0,0,0,0,0,0,0,0,0,0,0,0,0,0,0,0,,0.0,0.0,0.0,0.0,0,0,0.0
4490,0,0.0,-4,,-0.13,0.86,0.93,66,-4,-2,1.28,1.48,86,4919,19.2,4.43,,11.25,0.885,88.0,,32.4,5,,,,,,,,,,,,0,0,0,0,0,0,0,0,0,0,0,0,0,0,0,0,,,,,,,,
4510,0,,,,,,,,,,,,,,,,,,,,,,,,,,,,,,,,,,0,0,0,0,0,0,0,0,0,0,0,0,0,0,0,0,,,,,,,,
4530,0,0.0,-0,,-0.13,0.87,0.9,67,-4,-2,1.26,1.48,85,4919,19.2,4.43,,12.17,0.834,88.0,,29.3,5,,,,,,,,,,,,0,0,0,0,0,0,0,0,0,0,0,0,0,0,0,0,,,,,,,,
4550,0,,,,,,,,,,,,,,,,,,,,,,,,,,,,,,,,,,0,0,0,0,0,0,0,0,0,0,0,0,0,0,0,0,,,,,,,,
4570,0,0.0,-0,,-0.17,0.93,0.93,68,-4,-2,1.32,1.48,89,4863,24.1,4.3,,13.31,0.853,88.0,,29.3,5,17,2,17,14,0.0,0.0,0.0,0.0,2.26,,,0,0,0,0,0,0,0,0,0,0,0,0,0,0,0,0,,0.0,0.0,0.0,0.0,0,0,0.0
4590,0,,,,,,,,,,,,,,,,,,,,,,,,,,,,,,,,,,0,0,0,0,0,0,0,0,0,0,0,0,0,0,0,0,,,,,,,,
4610,0,0.0,-15,,-0.18,0.99,0.95,71,-5,-2,1.39,1.48,94,5033,31.3,4.88,,13.8,0.979,88.0,,29.3,5,,,,,,,,,,,,0,0,0,0,0,0,0,0,0,0,0,0,0,0,0,0,,,,,,,,
4630,0,,,,,,,,,,,,,,,,,,,,,,,,,,,,,,,,,,0,0,0,0,0,0,0,0,0,0,0,0,0,0,0,0,,,,,,,,
4650,0,0.0,-15,,-0.2,1.06,0.95,74,-5,-1,1.44,1.48,97,5282,48.9,5.59,,14.24,1.031,88.0,,29.9,5,,,,,,,,,,,,0,0,0,0,0,0,0,0,0,0,0,0,0,0,0,0,,,,,,,,
4670,0,,,,,,,,,,,,,,,,,,,,,,,17,2,17,12,0.0,28.0,0.0,0.0,2.25,,,0,0,0,0,0,0,0,0,0,0,0,0,0,0,0,0,,0.0,0.0,0.0,0.0,0,0,0.0
4690,0,0.0,-19,,-0.15,1.01,0.95,75,-4,-1,1.4,1.48,94,5473,74.6,5.97,,14.24,1.031,88.0,,29.9,5,,,,,,,,,,,,0,0,0,0,0,0,0,0,0,0,0,0,0,0,0,0,,,,,,,,
4710,0,,,,,,,,,,,,,,,,,,,,,,,,,,,,,,,,,,0,0,0,0,0,0,0,0,0,0,0,0,0,0,0,0,,,,,,,,
4730,0,0.0,3,,-0.16,1.18,1.03,78,-4,-1,1.58,1.58,100,5473,74.6,5.97,,14.4,1.076,88.0,,31.5,5,,,,,,,,,,,,0,0,0,0,0,0,0,0,0,0,0,0,0,0,0,0,,,,,,,,
4750,0,,,,,,,,,,,,,,,,,,,,,,,,,,,,,,,,,,0,0,0,0,0,0,0,0,0,0,0,0,0,0,0,0,,,,,,,,
4770,0,0.0,5,,-0.09,0.97,1.0,79,-5,-1,1.39,1.58,88,5676,81.6,6.07,,14.43,1.113,88.0,,31.5,5,17,7,17,16,0.0,35.0,0.0,0.0,2.26,,,0,0,0,0,0,0,0,0,0,0,0,0,0,0,0,0,,0.0,0.0,0.0,0.0,0,0,0.0
4790,0,,,,,,,,,,,,,,,,,,,,,,,,,,,,,,,,,,0,0,0,0,0,0,0,0,0,0,0,0,0,0,0,0,,,,,,,,
4810,0,0.0,14,,-0.12,0.83,0.99,78,-4,-0,1.3,1.3,100,5761,90.6,5.84,,14.42,1.073,88.0,,31.5,5,,,,,,,,,,,,0,0,0,0,0,0,0,0,0,0,0,0,0,0,0,0,,,,,,,,
4830,0,,,,,,,,,,,,,,,,,,,,,,,,,,,,,,,,,,0,0,0,0,0,0,0,0,0,0,0,0,0,0,0,0,,,,,,,,
4850,0,0.0,22,,-0.08,0.87,1.06,76,-4,0,1.38,1.38,100,5737,91.4,5.82,,14.42,1.041,88.0,,32.8,5,,,,,,,,,,,,0,0,0,0,0,0,0,0,0,0,0,0,0,0,0,0,,,,,,,,
4870,0,,,,,,,,,,,,,,,,,,,,,,,17,27,17,16,0.0,42.0,0.0,0.0,2.25,,,0,0,0,0,0,0,0,0,0,0,0,0,0,0,0,0,,0.0,0.0,0.0,0.0,0,0,0.0
4890,0,0.0,28,,-0.02,0.77,0.99,70,-3,-1,1.25,1.38,91,5807,91.7,5.75,,14.42,1.041,88.0,,32.8,5,,,,,,,,,,,,0,0,0,0,0,0,0,0,0,0,0,0,0,0,0,0,,,,,,,,
4910,0,,,,,,,,,,,,,,,,,,,,,,,,,,,,,,,,,,0,0,0,0,0,0,0,0,0,0,0,0,0,0,0,0,,,,,,,,
4930,0,0.0,20,,0.02,0.58,0.93,65,-4,-1,1.09,1.38,80,5807,91.7,5.75,,14.5,1.053,88.0,,33.0,5,,,,,,,,,,,,0,0,0,0,0,0,0,0,0,0,0,0,0,0,0,0,,,,,,,,
4950,0,,,,,,,,,,,,,,,,,,,,,,,,,,,,,,,,,,0,0,0,0,0,0,0,0,0,0,0,0,0,0,0,0,,,,,,,,
4970,0,0.0,28,,0.06,0.6,1.01,62,-4,-1,1.18,1.38,85,5743,92.0,5.71,,14.55,1.003,88.0,,33.0,5,18,14,18,16,0.0,84.0,0.0,0.0,2.26,,,0,0,0,0,0,0,0,0,0,0,0,0,0,0,0,0,,0.0,0.0,0.0,0.0,0,0,0.0
4990,0,,,,,,,,,,,,,,,,,,,,,,,,,,,,,,,,,,0,0,0,0,0,0,0,0,0,0,0,0,0,0,0,0,,,,,,,,
5010,0,0.0,5,,0.1,0.6,1.04,59,-4,-1,1.21,1.38,88,5890,91.9,5.53,,14.38,0.978,88.0,,33.0,5,,,,,,,,,,,,0,0,0,0,0,0,0,0,0,0,0,0,0,0,0,0,,,,,,,,
5030,0,,,,,,,,,,,,,,,,,,,,,,,,,,,,,,,,,,0,0,0,0,0,0,0,0,0,0,0,0,0,0,0,0,,,,,,,,
5050,0,0.0,11,,0.15,0.56,1.07,58,-4,-2,1.21,1.38,88,6081,92.0,5.51,,14.47,0.984,88.0,,33.4,5,,,,,,,,,,,,0,0,0,0,0,0,0,0,0,0,0,0,0,0,0,0,,,,,,,,
5070,0,,,,,,,,,,,,,,,,,,,,,,,19,14,18,18,0.0,224.0,0.0,0.0,2.27,,,0,0,0,0,0,0,0,0,0,0,0,0,0,0,0,0,,0.0,0.0,0.0,0.0,0,0,0.0
5090,0,0.0,25,,0.18,0.57,1.07,56,-4,-2,1.23,1.38,89,6405,92.0,5.51,,14.47,0.984,88.0,,33.4,5,,,,,,,,,,,,0,0,0,0,0,0,0,0,0,0,0,0,0,0,0,0,,,,,,,,
5110,0,,,,,,,,,,,,,,,,,,,,,,,,,,,,,,,,,,0,0,0,0,0,0,0,0,0,0,0,0,0,0,0,0,,,,,,,,
5130,0,0.0,28,,0.22,0.52,1.06,55,-4,-2,1.2,1.38,87,6405,92.0,5.51,,14.42,0.996,88.0,,36.8,5,,,,,,,,,,,,0,0,0,0,0,0,0,0,0,0,0,0,0,0,0,0,,,,,,,,
5150,0,,,,,,,,,,,,,,,,,,,,,,,,,,,,,,,,,,0,0,0,0,0,0,0,0,0,0,0,0,0,0,0,0,,,,,,,,
5170,0,0.0,31,13.14,0.26,0.55,1.09,55,-4,-2,1.25,1.38,91,6709,92.0,5.5,15,14.38,0.966,88.0,185,36.8,5,19,14,20,22,0.0,81.0,0.0,0.0,2.25,0,1.0,0,0,0,0,0,0,0,0,0,0,0,0,0,0,0,0,0,0.0,0.0,0.0,0.0,0,0,0.0
5190,0,,,,,,,,,,,,,,,,,,,,,,,,,,,,,,,,,,0,0,0,0,0,0,0,0,0,0,0,0,0,0,0,0,,,,,,,,
5210,0,0.0,20,,0.29,0.48,0.97,55,-3,-3,1.12,1.38,82,6592,92.0,5.51,,14.39,0.96,88.0,,36.8,5,,,,,,,,,,,,0,0,0,0,0,0,0,0,0,0,0,0,0,0,0,0,,,,,,,,
5230,0,,,,,,,,,,,,,,,,,,,,,,,,,,,,,,,,,,0,0,0,0,0,0,0,0,0,0,0,0,0,0,0,0,,,,,,,,
5250,0,0.0,14,,0.29,0.5,1.04,54,-3,-3,1.19,1.38,86,6492,92.0,5.51,,14.43,1.046,88.0,,37.5,5,,,,,,,,,,,,0,0,0,0,0,0,0,0,0,0,0,0,0,0,0,0,,,,,,,,
10394,1745300474357,0.0,134,,-0.64,-0.91,0.9,-86,3,-0,1.43,1.43,100,4966,58.1,5.0,,14.4,1.184,86.2,,30.3,5,,,,,,,,,,,,0,0,0,0,0,0,0,0,0,0,0,0,0,0,0,0,,,,,,0.0,,,,,,,
10414,1745300474377,,,,,,,,,,,,,,,,,,,,,,,13,17,16,16,0.0,236.0,0.0,0.0,2.26,,,0,0,0,0,0,0,0,0,0,0,0,0,0,0,0,0,,0,,,,,38.985687,-76.950256,20.35,49.1,30,3,0.9
10434,1745300474398,0.0,134,,-0.49,-0.87,0.86,-84,4,-1,1.31,1.43,92,4869,58.1,4.91,,14.39,1.142,86.2,,30.3,5,,,,,,,,,,,,0,0,0,0,0,0,0,0,0,0,0,0,0,0,0,0,,,,,,0.0,,,,,,,
10454,1745300474418,,,,,,,,,,,,,,,,,,,,,,,,,,,,,,,,,,0,0,0,0,0,0,0,0,0,0,0,0,0,0,0,0,,,,,,,,,,,,,
10474,1745300474438,0.0,134,,-0.38,-0.84,0.78,-80,4,-2,1.2,1.43,84,4662,58.2,4.81,,14.42,1.092,86.2,,29.3,5,,,,,,,,,,,,0,0,0,0,0,0,0,0,0,0,0,0,0,0,0,0,,,,,,0.0,,,,,,,
10494,1745300474458,,,,,,,,,,,,,,,,,,,,,,,,,,,,,,,,,,0,0,0,0,0,0,0,0,0,0,0,0,0,0,0,0,,,,,,,,,,,,,
10514,1745300474478,0.0,134,,-0.32,-0.63,0.81,-74,4,-2,1.07,1.43,75,4627,58.1,4.74,,14.42,1.092,86.2,,29.3,5,13,16,13,16,0.0,202.0,0.0,0.0,2.25,,,0,0,0,0,0,0,0,0,0,0,0,0,0,0,0,0,,0,,,,0.0,38.98568,-76.950264,20.07,49.1,30,3,0.9
10534,1745300474493,,,,,,,,,,,,,,,,,,,,,,,,,,,,,,,,,,0,0,0,0,0,0,0,0,0,0,0,0,0,0,0,0,,,,,,,,,,,,,
10554,1745300474513,0.0,135,,-0.28,-0.45,0.95,-67,4,-1,1.09,1.43,76,4627,58.1,4.74,,14.42,1.054,86.2,,28.0,5,,,,,,,,,,,,0,0,0,0,0,0,0,0,0,0,0,0,0,0,0,0,,,,,,0.0,,,,,,,
10574,1745300474533,,,,,,,,,,,,,,,,,,,,,,,,,,,,,,,,,,0,0,0,0,0,0,0,0,0,0,0,0,0,0,0,0,,,,,,,,,,,,,
10594,1745300474553,0.0,135,,-0.25,-0.43,0.96,-61,3,-1,1.09,1.43,76,4625,51.0,5.29,,14.39,0.981,86.2,,28.0,5,,,,,,,,,,,,0,0,0,0,0,0,0,0,0,0,0,0,0,0,0,0,,,,,,0.0,,,,,,,
10614,1745300474573,,,,,,,,,,,,,,,,,,,,,,,14,16,13,15,0.0,164.0,0.0,0.0,2.26,,,0,0,0,0,0,0,0,0,0,0,0,0,0,0,0,0,,0,,,,,38.985676,-76.950264,22.59,49.1,30,3,0.9
10634,1745300474593,0.0,134,,-0.22,-0.46,0.94,-56,3,-1,1.07,1.43,75,4764,50.4,5.31,,14.36,0.986,86.2,,28.0,5,,,,,,,,,,,,0,0,0,0,0,0,0,0,0,0,0,0,0,0,0,0,,,,,,0.0,,,,,,,
10654,1745300474613,,,,,,,,,,,,,,,,,,,,,,,,,,,,,,,,,,0,0,0,0,0,0,0,0,0,0,0,0,0,0,0,0,,,,,,,,,,,,,
10674,1745300474633,0.0,132,,-0.22,-0.47,0.94,-52,2,0,1.08,1.43,75,4840,37.0,4.54,,14.23,1.04,86.2,,28.8,5,,,,,,,,,,,,0,0,0,0,0,0,0,0,0,0,0,0,0,0,0,0,,,,,,0.0,,,,,,,
10694,1745300474653,,,,,,,,,,,,,,,,,,,,,,,,,,,,,,,,,,0,0,0,0,0,0,0,0,0,0,0,0,0,0,0,0,,,,,,,,,,,,,
10714,1745300474673,0.0,133,,-0.2,-0.42,0.96,-49,2,0,1.07,1.43,75,4979,27.2,4.8,,14.23,1.04,86.2,,28.8,5,14,16,14,15,0.0,147.0,0.0,0.0,2.27,,,0,0,0,0,0,0,0,0,0,0,0,0,0,0,0,0,,0,,,,0.0,38.985672,-76.950264,23.22,49.1,30,3,0.9
10734,1745300474694,,,,,,,,,,,,,,,,,,,,,,,,,,,,,,,,,,0,0,0,0,0,0,0,0,0,0,0,0,0,0,0,0,,,,,,,,,,,,,
10754,1745300474714,0.0,134,,-0.16,-0.44,0.94,-47,2,1,1.06,1.43,74,4979,27.2,4.8,,13.9,1.051,86.2,,30.0,5,,,,,,,,,,,,0,0,0,0,0,0,0,0,0,0,0,0,0,0,0,0,,,,,,0.0,,,,,,,
10774,1745300474734,,,,,,,,,,,,,,,,,,,,,,,,,,,,,,,,,,0,0,0,0,0,0,0,0,0,0,0,0,0,0,0,0,,,,,,,,,,,,,
10794,1745300474754,0.0,132,,-0.2,-0.46,1.03,-46,2,1,1.14,1.43,80,5001,17.6,4.21,,13.52,1.034,86.2,,30.0,5,,,,,,,,,,,,0,0,0,0,0,0,0,0,0,0,0,0,0,0,0,0,,,,,,0.0,,,,,,,
10814,1745300474774,,,,,,,,,,,,,,,,,,,,,,,14,16,14,15,0.0,231.0,0.0,0.0,2.28,,,0,0,0,0,0,0,0,0,0,0,0,0,0,0,0,0,,1,,,,,38.985664,-76.950272,22.98,49.1,30,3,0.9
10834,1745300474794,0.0,133,,-0.25,-0.43,1.09,-46,1,2,1.2,1.43,84,4638,6.9,3.69,,12.92,0.967,86.2,,30.0,5,,,,,,,,,,,,0,0,0,0,0,0,0,0,0,0,0,0,0,0,0,0,,,,,,0.0,,,,,,,
10854,1745300474814,,,,,,,,,,,,,,,,,,,,,,,,,,,,,,,,,,0,0,0,0,0,0,0,0,0,0,0,0,0,0,0,0,,,,,,,,,,,,,
10874,1745300474834,0.0,133,,-0.31,-0.52,1.12,-47,1,2,1.27,1.43,89,4504,4.2,3.72,,12.55,0.936,86.2,,26.7,5,,,,,,,,,,,,0,0,0,0,0,0,0,0,0,0,0,0,0,0,0,0,,,,,,0.0,,,,,,,
10894,1745300474854,,,,,,,,,,,,,,,,,,,,,,,,,,,,,,,,,,0,0,0,0,0,0,0,0,0,0,0,0,0,0,0,0,,,,,,,,,,,,,
10914,1745300474874,0.0,133,,-0.36,-0.55,1.15,-49,0,3,1.33,1.43,93,4428,2.7,3.3,,12.55,0.936,86.2,,26.7,5,13,16,13,16,0.0,248.0,0.0,0.0,2.26,,,0,0,0,0,0,0,0,0,0,0,0,0,0,0,0,0,,0,,,,0.0,38.985657,-76.950272,23.19,49.1,30,3,0.9
10934,1745300474900,,,,,,,,,,,,,,,,,,,,,,,,,,,,,,,,,,0,0,0,0,0,0,0,0,0,0,0,0,0,0,0,0,,,,,,,,,,,,,
10954,1745300474920,0.0,133,,-0.41,-0.5,1.23,-50,0,3,1.39,1.43,97,4428,2.7,3.3,,12.12,0.942,86.2,,24.9,5,,,,,,,,,,,,0,0,0,0,0,0,0,0,0,0,0,0,0,0,0,0,,,,,,0.0,,,,,,,
10974,1745300474940,,,,,,,,,,,,,,,,,,,,,,,,,,,,,,,,,,0,0,0,0,0,0,0,0,0,0,0,0,0,0,0,0,,,,,,,,,,,,,
10994,1745300474960,0.0,133,,-0.42,-0.47,1.32,-50,0,3,1.46,1.46,100,4396,2.7,3.26,,11.89,0.987,86.2,,24.9,5,,,,,,,,,,,,0,0,0,0,0,0,0,0,0,0,0,0,0,0,0,0,,,,,,0.0,,,,,,,
11014,1745300474980,,,,,,,,,,,,,,,,,,,,,,,13,16,12,16,0.0,30.0,0.0,0.0,2.26,,,0,0,0,0,0,0,0,0,0,0,0,0,0,0,0,0,,0,,,,,38.985657,-76.950279,23.07,49.1,30,3,0.9
11034,1745300474992,0.0,134,,-0.45,-0.51,1.34,-51,0,3,1.5,1.5,100,4571,0.0,2.44,,11.46,1.003,86.2,,24.9,5,,,,,,,,,,,,0,0,0,0,0,0,0,0,0,0,0,0,0,0,0,0,,,,,,0.0,,,,,,,
11054,1745300475012,,,,,,,,,,,,,,,,,,,,,,,,,,,,,,,,,,0,0,0,0,0,0,0,0,0,0,0,0,0,0,0,0,,,,,,,,,,,,,
11074,1745300475032,0.0,134,,-0.47,-0.58,1.29,-54,0,3,1.49,1.5,99,4675,0.0,2.43,,11.21,1.009,86.2,,25.3,5,,,,,,,,,,,,0,0,0,0,0,0,0,0,0,0,0,0,0,0,0,0,,,,,,0.0,,,,,,,
11094,1745300475052,,,,,,,,,,,,,,,,,,,,,,,,,,,,,,,,,,0,0,0,0,0,0,0,0,0,0,0,0,0,0,0,0,,,,,,,,,,,,,
11114,1745300475072,0.0,133,,-0.46,-0.73,1.19,-57,0,3,1.46,1.5,98,4596,0.0,2.42,,11.21,1.009,86.2,,25.3,5,13,15,12,16,0.0,244.0,0.0,0.0,2.26,,,0,0,0,0,0,0,0,0,0,0,0,0,0,0,0,0,,0,,,,0.0,38.985649,-76.950279,22.25,49.1,30,3,0.9
11134,1745300475100,,,,,,,,,,,,,,,,,,,,,,,,,,,,,,,,,,0,0,0,0,0,0,0,0,0,0,0,0,0,0,0,0,,,,,,,,,,,,,
11154,1745300475120,0.0,133,,-0.45,-0.89,1.07,-61,0,3,1.47,1.5,98,4596,0.0,2.42,,10.97,1.051,86.2,,25.9,5,,,,,,,,,,,,0,0,0,0,0,0,0,0,0,0,0,0,0,0,0,0,,,,,,0.0,,,,,,,
11174,1745300475140,,,,,,,,,,,,,,,,,,,,,,,,,,,,,,,,,,0,0,0,0,0,0,0,0,0,0,0,0,0,0,0,0,,,,,,,,,,,,,
11194,1745300475160,0.0,133,,-0.45,-1.01,1.01,-64,1,2,1.5,1.5,100,4498,0.0,2.39,,10.94,1.13,86.2,,25.9,5,,,,,,,,,,,,0,0,0,0,0,0,0,0,0,0,0,0,0,0,0,0,,,,,,0.0,,,,,,,
11214,1745300475180,,,,,,,,,,,,,,,,,,,,,,,13,17,11,14,0.0,239.0,0.0,0.0,2.26,,,0,0,0,0,0,0,0,0,0,0,0,0,0,0,0,0,,0,,,,,38.985645,-76.950287,21.29,49.1,30,3,0.9
11234,1745300475198,0.0,132,,-0.48,-0.97,1.1,-65,1,2,1.54,1.54,100,4352,16.1,4.25,,11.85,1.178,86.2,,25.9,5,,,,,,,,,,,,0,0,0,0,0,0,0,0,0,0,0,0,0,0,0,0,,,,,,0.0,,,,,,,
11254,1745300475218,,,,,,,,,,,,,,,,,,,,,,,,,,,,,,,,,,0,0,0,0,0,0,0,0,0,0,0,0,0,0,0,0,,,,,,,,,,,,,
11274,1745300475238,0.0,132,,-0.49,-0.85,1.15,-66,1,2,1.51,1.54,98,4259,33.6,5.17,,13.65,1.221,86.2,,25.8,5,,,,,,,,,,,,0,0,0,0,0,0,0,0,0,0,0,0,0,0,0,0,,,,,,0.0,,,,,,,
11294,1745300475258,,,,,,,,,,,,,,,,,,,,,,,,,,,,,,,,,,0,0,0,0,0,0,0,0,0,0,0,0,0,0,0,0,,,,,,,,,,,,,
11314,1745300475278,0.0,132,13.02,-0.5,-0.81,1.22,-67,1,2,1.55,1.55,100,4538,44.8,4.84,15,13.65,1.221,86.2,185,25.8,5,11,16,11,15,0.0,221.0,0.0,0.0,2.27,0,1.0,0,0,0,0,0,0,0,0,0,0,0,0,0,0,0,0,0,0,1.0,0,-0,0.0,38.985642,-76.950294,20.33,49.1,30,3,0.9
11334,1745300475300,,,,,,,,,,,,,,,,,,,,,,,,,,,,,,,,,,0,0,0,0,0,0,0,0,0,0,0,0,0,0,0,0,,,,,,,,,,,,,
11354,1745300475320,0.0,132,,-0.52,-0.86,1.2,-68,1,2,1.57,1.57,100,4538,44.8,4.84,,14.3,1.247,86.2,,26.0,5,,,,,,,,,,,,0,0,0,0,0,0,0,0,0,0,0,0,0,0,0,0,,,,,,0.0,,,,,,,
11374,1745300475340,,,,,,,,,,,,,,,,,,,,,,,,,,,,,,,,,,0,0,0,0,0,0,0,0,0,0,0,0,0,0,0,0,,,,,,,,,,,,,
11394,1745300475360,0.0,132,,-0.45,-0.88,1.13,-70,1,2,1.5,1.57,95,4793,56.0,5.53,,14.46,1.24,86.2,,26.0,5,,,,,,,,,,,,0,0,0,0,0,0,0,0,0,0,0,0,0,0,0,0,,,,,,0.0,,,,,,,
11414,1745300475380,,,,,,,,,,,,,,,,,,,,,,,12,16,10,14,0.0,42.0,0.0,0.0,2.26,,,0,0,0,0,0,0,0,0,0,0,0,0,0,0,0,0,,1,,,,,38.985638,-76.950302,20.01,49.1,30,3,0.9
11434,1745300475400,0.0,133,,-0.4,-0.76,1.19,-71,2,2,1.46,1.57,93,4672,65.0,5.35,,14.51,1.214,86.2,,26.0,5,,,,,,,,,,,,0,0,0,0,0,0,0,0,0,0,0,0,0,0,0,0,,,,,,0.0,,,,,,,
11454,1745300475420,,,,,,,,,,,,,,,,,,,,,,,,,,,,,,,,,,0,0,0,0,0,0,0,0,0,0,0,0,0,0,0,0,,,,,,,,,,,,,
11474,1745300475440,0.0,132,,-0.35,-0.63,1.2,-70,1,1,1.4,1.57,89,4389,65.0,4.85,,14.44,1.158,86.2,,27.2,5,,,,,,,,,,,,0,0,0,0,0,0,0,0,0,0,0,0,0,0,0,0,,,,,,0.0,,,,,,,
11494,1745300475460,,,,,,,,,,,,,,,,,,,,,,,,,,,,,,,,,,0,0,0,0,0,0,0,0,0,0,0,0,0,0,0,0,,,,,,,,,,,,,
11514,1745300475480,0.0,133,,-0.34,-0.61,1.11,-72,2,0,1.31,1.57,83,4363,65.0,4.68,,14.44,1.158,86.2,,27.2,5,11,16,11,17,0.0,252.0,0.0,0.0,2.26,,,0,0,0,0,0,0,0,0,0,0,0,0,0,0,0,0,,0,,,,0.0,38.985638,-76.950302,19.61,49.1,30,3,0.9
11534,1745300475496,,,,,,,,,,,,,,,,,,,,,,,,,,,,,,,,,,0,0,0,0,0,0,0,0,0,0,0,0,0,0,0,0,,,,,,,,,,,,,
11554,1745300475516,0.0,133,,-0.3,-0.58,1.03,-74,2,-1,1.22,1.57,78,4363,65.0,4.68,,14.42,1.075,86.2,,25.6,5,,,,,,,,,,,,0,0,0,0,0,0,0,0,0,0,0,0,0,0,0,0,,,,,,0.0,,,,,,,
11574,1745300475536,,,,,,,,,,,,,,,,,,,,,,,,,,,,,,,,,,0,0,0,0,0,0,0,0,0,0,0,0,0,0,0,0,,,,,,,,,,,,,
11594,1745300475556,0.0,133,,-0.25,-0.58,0.97,-73,2,-1,1.16,1.57,74,4448,65.0,4.73,,14.42,1.066,86.2,,25.6,5,,,,,,,,,,,,0,0,0,0,0,0,0,0,0,0,0,0,0,0,0,0,,,,,,0.0,,,,,,,
11614,1745300475576,,,,,,,,,,,,,,,,,,,,,,,12,15,11,15,0.0,9.0,0.0,0.0,2.25,,,0,0,0,0,0,0,0,0,0,0,0,0,0,0,0,0,,0,,,,,38.985634,-76.950302,20.56,49.1,30,3,0.9
11634,1745300475596,0.0,134,,-0.22,-0.55,0.9,-70,2,-1,1.08,1.57,69,4562,65.0,4.84,,14.43,1.11,86.2,,25.6,5,,,,,,,,,,,,0,0,0,0,0,0,0,0,0,0,0,0,0,0,0,0,,,,,,0.0,,,,,,,
11654,1745300475616,,,,,,,,,,,,,,,,,,,,,,,,,,,,,,,,,,0,0,0,0,0,0,0,0,0,0,0,0,0,0,0,0,,,,,,,,,,,,,
11674,1745300475636,0.0,134,,-0.17,-0.59,0.81,-67,2,-1,1.02,1.57,65,4624,65.0,4.89,,14.54,1.138,86.2,,26.4,5,,,,,,,,,,,,0,0,0,0,0,0,0,0,0,0,0,0,0,0,0,0,,,,,,0.0,,,,,,,
11694,1745300475656,,,,,,,,,,,,,,,,,,,,,,,,,,,,,,,,,,0,0,0,0,0,0,0,0,0,0,0,0,0,0,0,0,,,,,,,,,,,,,
11714,1745300475676,0.0,134,,-0.14,-0.62,0.74,-63,2,-2,0.97,1.57,62,4556,58.8,4.65,,14.54,1.138,86.2,,26.4,5,13,15,13,15,0.0,225.0,0.0,0.0,2.26,,,0,0,0,0,0,0,0,0,0,0,0,0,0,0,0,0,,0,,,,0.0,38.985634,-76.950317,21.4,49.1,30,3,0.9
11734,1745300475695,,,,,,,,,,,,,,,,,,,,,,,,,,,,,,,,,,0,0,0,0,0,0,0,0,0,0,0,0,0,0,0,0,,,,,,,,,,,,,
11754,1745300475715,0.0,134,,-0.13,-0.53,0.75,-58,2,-1,0.92,1.57,59,4556,58.8,4.65,,14.48,1.147,86.2,,26.8,5,,,,,,,,,,,,0,0,0,0,0,0,0,0,0,0,0,0,0,0,0,0,,,,,,0.0,,,,,,,
11774,1745300475735,,,,,,,,,,,,,,,,,,,,,,,,,,,,,,,,,,0,0,0,0,0,0,0,0,0,0,0,0,0,0,0,0,,,,,,,,,,,,,
11794,1745300475755,0.0,133,,-0.11,-0.34,0.83,-51,2,-1,0.9,1.57,57,4590,29.7,4.54,,14.07,1.126,86.2,,26.8,5,,,,,,,,,,,,0,0,0,0,0,0,0,0,0,0,0,0,0,0,0,0,,,,,,0.0,,,,,,,
11814,1745300477002,,,,,,,,,,,,,,,,,,,,,,,13,15,13,15,0.0,247.0,0.0,0.0,2.26,,,0,0,0,0,0,0,0,0,0,0,0,0,0,0,0,0,,0,,,,,38.985607,-76.950409,24.93,49.0,31,3,0.8
11834,1745300477092,0.0,70,,-0.08,-0.36,0.8,-46,2,-1,0.88,1.57,56,5677,63.6,5.03,,14.4,0.942,86.2,,26.8,5,,,,,,,,,,,,0,0,0,0,0,0,0,0,0,0,0,0,0,0,0,0,,,,,,0.0,,,,,,,
11854,1745300477112,,,,,,,,,,,,,,,,,,,,,,,,,,,,,,,,,,0,0,0,0,0,0,0,0,0,0,0,0,0,0,0,0,,,,,,,,,,,,,
11874,1745300477132,0.0,87,,-0.04,-0.52,0.73,-44,2,-1,0.9,1.57,57,5873,70.7,5.98,,14.4,0.965,86.2,,30.0,5,,,,,,,,,,,,0,0,0,0,0,0,0,0,0,0,0,0,0,0,0,0,,,,,,0.0,,,,,,,
11894,1745300477152,,,,,,,,,,,,,,,,,,,,,,,,,,,,,,,,,,0,0,0,0,0,0,0,0,0,0,0,0,0,0,0,0,,,,,,,,,,,,,
11914,1745300477172,0.0,124,,-0.02,-0.52,0.78,-41,2,0,0.94,1.57,60,5773,72.5,6.03,,14.4,0.965,86.2,,30.0,5,16,28,17,18,0.0,168.0,0.0,0.0,2.25,,,0,0,0,0,0,0,0,0,0,0,0,0,0,0,0,0,,0,,,,0.0,38.9856,-76.950409,26.85,49.0,31,3,0.8
11934,1745300477192,,,,,,,,,,,,,,,,,,,,,,,,,,,,,,,,,,0,0,0,0,0,0,0,0,0,0,0,0,0,0,0,0,,,,,,,,,,,,,
11954,1745300477208,0.0,130,,-0.01,-0.46,0.93,-38,2,1,1.04,1.57,66,5773,72.5,6.03,,14.34,1.063,86.2,,31.7,5,,,,,,,,,,,,0,0,0,0,0,0,0,0,0,0,0,0,0,0,0,0,,,,,,0.0,,,,,,,
11974,1745300477228,,,,,,,,,,,,,,,,,,,,,,,,,,,,,,,,,,0,0,0,0,0,0,0,0,0,0,0,0,0,0,0,0,,,,,,,,,,,,,
11994,1745300477248,0.0,132,,0.0,-0.48,0.93,-36,2,0,1.05,1.05,100,5824,72.9,5.66,,14.46,1.098,86.2,,31.7,5,,,,,,,,,,,,0,0,0,0,0,0,0,0,0,0,0,0,0,0,0,0,,,,,,0.0,,,,,,,
12014,1745300477268,,,,,,,,,,,,,,,,,,,,,,,17,20,17,19,0.0,173.0,0.0,0.0,2.26,,,0,0,0,0,0,0,0,0,0,0,0,0,0,0,0,0,,0,,,,,38.985596,-76.950417,26.29,49.0,31,3,0.8
12034,1745300477292,0.0,135,,-0.01,-0.53,0.96,-36,2,0,1.1,1.1,100,6000,73.1,5.71,,14.28,1.07,86.2,,31.7,5,,,,,,,,,,,,0,0,0,0,0,0,0,0,0,0,0,0,0,0,0,0,,,,,,0.0,,,,,,,
12054,1745300477312,,,,,,,,,,,,,,,,,,,,,,,,,,,,,,,,,,0,0,0,0,0,0,0,0,0,0,0,0,0,0,0,0,,,,,,,,,,,,,
12074,1745300477332,0.0,104,,0.01,-0.59,1.03,-36,2,0,1.19,1.19,100,6096,72.9,5.71,,14.3,0.969,86.2,,32.7,5,,,,,,,,,,,,0,0,0,0,0,0,0,0,0,0,0,0,0,0,0,0,,,,,,0.0,,,,,,,
12094,1745300477352,,,,,,,,,,,,,,,,,,,,,,,,,,,,,,,,,,0,0,0,0,0,0,0,0,0,0,0,0,0,0,0,0,,,,,,,,,,,,,
12114,1745300477372,0.0,135,,0.04,-0.55,1.07,-36,2,1,1.21,1.21,100,6276,72.5,5.7,,14.3,0.969,86.2,,32.7,5,17,20,18,19,0.0,167.0,0.0,0.0,2.27,,,0,0,0,0,0,0,0,0,0,0,0,0,0,0,0,0,,0,,,,0.0,38.985596,-76.950417,28.04,49.0,31,3,0.8
12134,1745300477392,,,,,,,,,,,,,,,,,,,,,,,,,,,,,,,,,,0,0,0,0,0,0,0,0,0,0,0,0,0,0,0,0,,,,,,,,,,,,,
12154,1745300477412,0.0,116,,0.09,-0.59,1.08,-38,2,1,1.24,1.24,100,6276,72.5,5.7,,14.34,1.026,86.2,,33.7,5,,,,,,,,,,,,0,0,0,0,0,0,0,0,0,0,0,0,0,0,0,0,,,,,,0.0,,,,,,,
12174,1745300477432,,,,,,,,,,,,,,,,,,,,,,,,,,,,,,,,,,0,0,0,0,0,0,0,0,0,0,0,0,0,0,0,0,,,,,,,,,,,,,
12194,1745300477452,0.0,121,,0.08,-0.64,1.1,-40,2,1,1.28,1.28,100,6558,72.4,5.7,,14.28,0.973,86.2,,33.7,5,,,,,,,,,,,,0,0,0,0,0,0,0,0,0,0,0,0,0,0,0,0,,,,,,0.0,,,,,,,
12214,1745300477472,,,,,,,,,,,,,,,,,,,,,,,18,19,21,21,0.0,250.0,0.0,0.0,2.26,,,0,0,0,0,0,0,0,0,0,0,0,0,0,0,0,0,,0,,,,,38.985588,-76.950432,28.39,49.0,31,3,0.8
12234,1745300477492,0.0,119,,0.06,-0.67,1.06,-40,2,1,1.25,1.28,98,6918,72.3,5.69,,14.19,0.96,86.2,,33.7,5,,,,,,,,,,,,0,0,0,0,0,0,0,0,0,0,0,0,0,0,0,0,,,,,,0.0,,,,,,,
12254,1745300477508,,,,,,,,,,,,,,,,,,,,,,,,,,,,,,,,,,0,0,0,0,0,0,0,0,0,0,0,0,0,0,0,0,,,,,,,,,,,,,
12274,1745300477528,0.0,116,,0.11,-0.73,1.05,-41,2,1,1.29,1.29,100,7251,72.2,5.56,,14.26,0.928,86.2,,36.4,5,,,,,,,,,,,,0,0,0,0,0,0,0,0,0,0,0,0,0,0,0,0,,,,,,0.0,,,,,,,
12294,1745300477548,,,,,,,,,,,,,,,,,,,,,,,,,,,,,,,,,,0,0,0,0,0,0,0,0,0,0,0,0,0,0,0,0,,,,,,,,,,,,,
12314,1745300477568,0.0,134,12.8,0.12,-0.84,1.04,-44,2,1,1.34,1.34,100,7251,72.2,5.56,15,14.26,0.928,84.4,183,36.4,5,18,21,23,22,0.0,0.0,0.0,0.0,2.26,0,1.0,0,0,0,0,0,0,0,0,0,0,0,0,0,0,0,0,0,1,1.0,0,0,0.0,38.985584,-76.950439,29.91,49.0,31,3,0.8
12334,1745300477588,,,,,,,,,,,,,,,,,,,,,,,,,,,,,,,,,,0,0,0,0,0,0,0,0,0,0,0,0,0,0,0,0,,,,,,,,,,,,,
12354,1745300477609,0.0,130,,0.16,-0.8,1.03,-46,2,1,1.32,1.34,98,7503,62.5,5.07,,14.07,0.89,84.4,,40.4,5,,,,,,,,,,,,0,0,0,0,0,0,0,0,0,0,0,0,0,0,0,0,,,,,,0.0,,,,,,,
12374,1745300477629,,,,,,,,,,,,,,,,,,,,,,,,,,,,,,,,,,0,0,0,0,0,0,0,0,0,0,0,0,0,0,0,0,,,,,,,,,,,,,
12394,1745300477649,0.0,110,,0.21,-0.82,1.01,-49,2,1,1.32,1.34,98,7898,51.3,4.71,,13.82,0.876,84.4,,40.4,5,,,,,,,,,,,,0,0,0,0,0,0,0,0,0,0,0,0,0,0,0,0,,,,,,0.0,,,,,,,
12414,1745300478202,,,,,,,,,,,,,,,,,,,,,,,26,25,26,24,0.0,47.0,0.0,0.0,2.26,,,0,0,0,0,0,0,0,0,0,0,0,0,0,0,0,0,,1,,,,,38.985577,-76.950516,39.76,48.9,31,3,0.8
12434,1745300478222,0.0,87,,0.15,-0.73,0.98,-38,1,0,1.23,1.34,91,7815,0.5,1.4,,6.59,0.879,84.4,,40.4,5,,,,,,,,,,,,0,0,0,0,0,0,0,0,0,0,0,0,0,0,0,0,,,,,,0.0,,,,,,,
12454,1745300478242,,,,,,,,,,,,,,,,,,,,,,,,,,,,,,,,,,0,0,0,0,0,0,0,0,0,0,0,0,0,0,0,0,,,,,,,,,,,,,
12474,1745300478262,0.0,82,,0.1,-0.54,0.98,-27,0,0,1.12,1.34,83,7457,0.5,1.4,,6.52,0.985,84.4,,40.4,5,,,,,,,,,,,,0,0,0,0,0,0,0,0,0,0,0,0,0,0,0,0,,,,,,0.0,,,,,,,
12494,1745300478306,,,,,,,,,,,,,,,,,,,,,,,,,,,,,,,,,,0,0,0,0,0,0,0,0,0,0,0,0,0,0,0,0,,,,,,,,,,,,,
12514,1745300478326,0.0,96,,-0.01,-0.19,0.99,-17,-0,-0,1.01,1.34,75,7249,0.2,1.4,,6.52,0.985,84.4,,43.0,5,25,25,25,20,0.0,202.0,0.0,0.0,2.26,,,0,0,0,0,0,0,0,0,0,0,0,0,0,0,0,0,,0,,,,0.0,38.985577,-76.950531,39.94,48.9,31,3,0.8
12534,1745300478346,,,,,,,,,,,,,,,,,,,,,,,,,,,,,,,,,,0,0,0,0,0,0,0,0,0,0,0,0,0,0,0,0,,,,,,,,,,,,,
12554,1745300478366,0.0,134,,-0.01,-0.01,1.04,-7,-1,-0,1.04,1.34,78,7249,0.2,1.4,,6.3,1.238,84.4,,43.0,5,,,,,,,,,,,,0,0,0,0,0,0,0,0,0,0,0,0,0,0,0,0,,,,,,0.0,,,,,,,
12574,1745300478386,,,,,,,,,,,,,,,,,,,,,,,,,,,,,,,,,,0,0,0,0,0,0,0,0,0,0,0,0,0,0,0,0,,,,,,,,,,,,,
12594,1745300478408,0.0,134,,-0.06,0.07,0.98,1,-1,-1,0.99,1.34,74,7224,0.5,1.4,,6.48,1.251,84.4,,42.9,5,,,,,,,,,,,,0,0,0,0,0,0,0,0,0,0,0,0,0,0,0,0,,,,,,0.0,,,,,,,
12614,1745300478428,,,,,,,,,,,,,,,,,,,,,,,25,25,24,19,0.0,183.0,0.0,0.0,2.26,,,0,0,0,0,0,0,0,0,0,0,0,0,0,0,0,0,,0,,,,,38.985577,-76.950539,38.27,48.8,31,3,0.8
12634,1745300478448,0.0,130,,-0.11,0.29,1.01,9,-2,-0,1.06,1.34,79,7155,2.5,1.4,,6.6,1.252,84.4,,42.9,5,,,,,,,,,,,,0,0,0,0,0,0,0,0,0,0,0,0,0,0,0,0,,,,,,0.0,,,,,,,
12654,1745300478468,,,,,,,,,,,,,,,,,,,,,,,,,,,,,,,,,,0,0,0,0,0,0,0,0,0,0,0,0,0,0,0,0,,,,,,,,,,,,,
12674,1745300478488,0.0,134,,-0.15,0.34,1.02,15,-2,-0,1.08,1.34,81,7148,2.7,1.4,,6.79,1.254,84.4,,42.9,5,,,,,,,,,,,,0,0,0,0,0,0,0,0,0,0,0,0,0,0,0,0,,,,,,0.0,,,,,,,
12694,1745300478504,,,,,,,,,,,,,,,,,,,,,,,,,,,,,,,,,,0,0,0,0,0,0,0,0,0,0,0,0,0,0,0,0,,,,,,,,,,,,,
12714,1745300478524,0.0,135,,-0.18,0.53,1.06,21,-2,-0,1.2,1.34,89,7077,15.6,2.59,,6.79,1.254,84.4,,43.0,5,24,25,23,21,0.0,196.0,0.0,0.0,2.29,,,0,0,0,0,0,0,0,0,0,0,0,0,0,0,0,0,,0,,,,0.0,38.985573,-76.950554,36.28,48.8,31,3,0.8
12734,1745300478544,,,,,,,,,,,,,,,,,,,,,,,,,,,,,,,,,,0,0,0,0,0,0,0,0,0,0,0,0,0,0,0,0,,,,,,,,,,,,,
12754,1745300478564,0.0,124,,-0.17,0.5,1.03,26,-3,-0,1.15,1.34,86,7077,15.6,2.59,,7.91,1.251,80.8,,43.0,5,,,,,,,,,,,,0,0,0,0,0,0,0,0,0,0,0,0,0,0,0,0,,,,,,0.0,,,,,,,
12774,1745300478584,,,,,,,,,,,,,,,,,,,,,,,,,,,,,,,,,,0,0,0,0,0,0,0,0,0,0,0,0,0,0,0,0,,,,,,,,,,,,,
12794,1745300478602,0.0,90,,-0.15,0.45,1.02,29,-3,-0,1.13,1.34,84,7372,28.6,3.84,,10.44,1.251,80.8,,42.0,5,,,,,,,,,,,,0,0,0,0,0,0,0,0,0,0,0,0,0,0,0,0,,,,,,0.0,,,,,,,
12814,1745300478622,,,,,,,,,,,,,,,,,,,,,,,23,25,22,20,0.0,198.0,0.0,0.0,2.26,,,0,0,0,0,0,0,0,0,0,0,0,0,0,0,0,0,,0,,,,,38.985569,-76.950569,34.97,48.8,31,3,0.8
12834,1745300478642,0.0,93,,-0.15,0.46,1.0,31,-3,-0,1.11,1.34,83,7997,30.0,5.18,,11.53,1.251,80.8,,42.0,5,,,,,,,,,,,,0,0,0,0,0,0,0,0,0,0,0,0,0,0,0,0,,,,,,0.0,,,,,,,
12854,1745300478662,,,,,,,,,,,,,,,,,,,,,,,,,,,,,,,,,,0,0,0,0,0,0,0,0,0,0,0,0,0,0,0,0,,,,,,,,,,,,,
12874,1745300478682,0.0,99,,-0.05,0.19,0.95,32,-2,-0,0.97,1.34,72,8783,33.0,5.01,,11.89,1.108,80.8,,42.0,5,,,,,,,,,,,,0,0,0,0,0,0,0,0,0,0,0,0,0,0,0,0,,,,,,0.0,,,,,,,
12894,1745300478703,,,,,,,,,,,,,,,,,,,,,,,,,,,,,,,,,,0,0,0,0,0,0,0,0,0,0,0,0,0,0,0,0,,,,,,,,,,,,,
12914,1745300478723,0.0,113,,0.02,0.29,0.87,33,-1,-1,0.92,1.34,68,8910,33.6,5.06,,11.89,1.108,80.8,,44.7,5,24,25,27,26,0.0,229.0,0.0,0.0,2.26,,,0,0,0,0,0,0,0,0,0,0,0,0,0,0,0,0,,0,,,,0.0,38.985565,-76.950577,34.5,48.8,31,3,0.8
12934,1745300478743,,,,,,,,,,,,,,,,,,,,,,,,,,,,,,,,,,0,0,0,0,0,0,0,0,0,0,0,0,0,0,0,0,,,,,,,,,,,,,
12954,1745300478763,0.0,134,,0.13,0.55,0.92,35,-0,-1,1.08,1.34,81,8910,33.6,5.06,,11.93,0.922,80.8,,44.7,5,,,,,,,,,,,,0,0,0,0,0,0,0,0,0,0,0,0,0,0,0,0,,,,,,0.0,,,,,,,
12974,1745300478783,,,,,,,,,,,,,,,,,,,,,,,,,,,,,,,,,,0,0,0,0,0,0,0,0,0,0,0,0,0,0,0,0,,,,,,,,,,,,,
12994,1745300478803,0.0,135,,0.22,0.51,0.98,35,-0,-1,1.13,1.34,84,8835,33.8,4.97,,12.07,0.899,80.8,,45.3,5,,,,,,,,,,,,0,0,0,0,0,0,0,0,0,0,0,0,0,0,0,0,,,,,,0.0,,,,,,,
13014,1745300478823,,,,,,,,,,,,,,,,,,,,,,,25,25,26,26,0.0,145.0,0.0,0.0,2.27,,,0,0,0,0,0,0,0,0,0,0,0,0,0,0,0,0,,1,,,,,38.985558,-76.950584,35.92,48.8,31,3,0.8
13034,1745300478843,0.0,130,,0.29,0.39,0.95,35,-1,-2,1.07,1.34,80,8707,31.1,4.84,,11.99,0.902,80.8,,45.3,5,,,,,,,,,,,,0,0,0,0,0,0,0,0,0,0,0,0,0,0,0,0,,,,,,0.0,,,,,,,
13054,1745300478863,,,,,,,,,,,,,,,,,,,,,,,,,,,,,,,,,,0,0,0,0,0,0,0,0,0,0,0,0,0,0,0,0,,,,,,,,,,,,,
13074,1745300478883,0.0,134,,0.34,0.62,0.92,37,-1,-2,1.16,1.16,100,8933,26.2,4.71,,11.38,0.901,80.8,,45.3,5,,,,,,,,,,,,0,0,0,0,0,0,0,0,0,0,0,0,0,0,0,0,,,,,,0.0,,,,,,,
13094,1745300478907,,,,,,,,,,,,,,,,,,,,,,,,,,,,,,,,,,0,0,0,0,0,0,0,0,0,0,0,0,0,0,0,0,,,,,,,,,,,,,
13114,1745300478927,0.0,135,,0.37,0.56,0.91,39,-1,-1,1.13,1.16,98,9257,24.0,4.62,,11.38,0.901,80.8,,46.1,5,27,25,28,28,0.0,53.0,0.0,0.0,2.27,,,0,0,0,0,0,0,0,0,0,0,0,0,0,0,0,0,,1,,,,0.0,38.985558,-76.950592,40.89,48.8,31,3,0.8
13134,1745300478947,,,,,,,,,,,,,,,,,,,,,,,,,,,,,,,,,,0,0,0,0,0,0,0,0,0,0,0,0,0,0,0,0,,,,,,,,,,,,,
13154,1745300478967,0.0,135,,0.36,0.53,0.97,39,-1,0,1.16,1.16,100,9257,24.0,4.62,,10.82,0.886,80.8,,46.1,5,,,,,,,,,,,,0,0,0,0,0,0,0,0,0,0,0,0,0,0,0,0,,,,,,0.0,,,,,,,
13174,1745300478987,,,,,,,,,,,,,,,,,,,,,,,,,,,,,,,,,,0,0,0,0,0,0,0,0,0,0,0,0,0,0,0,0,,,,,,,,,,,,,
13194,1745300478999,0.0,134,,0.36,0.63,1.01,37,-1,0,1.25,1.25,100,9406,13.6,3.24,,9.85,0.872,80.8,,44.7,5,,,,,,,,,,,,0,0,0,0,0,0,0,0,0,0,0,0,0,0,0,0,,,,,,0.0,,,,,,,
13214,1745300479019,,,,,,,,,,,,,,,,,,,,,,,27,25,28,30,0.0,53.0,0.0,0.0,2.26,,,0,0,0,0,0,0,0,0,0,0,0,0,0,0,0,0,,1,,,,,38.98555,-76.950607,42.03,48.8,31,3,0.8
13234,1745300479039,0.0,135,,0.3,0.42,1.02,32,-1,1,1.14,1.25,91,9014,0.0,1.4,,8.02,0.858,80.8,,44.7,5,,,,,,,,,,,,0,0,0,0,0,0,0,0,0,0,0,0,0,0,0,0,,,,,,0.0,,,,,,,
13254,1745300479059,,,,,,,,,,,,,,,,,,,,,,,,,,,,,,,,,,0,0,0,0,0,0,0,0,0,0,0,0,0,0,0,0,,,,,,,,,,,,,
13274,1745300479079,0.0,134,,0.21,0.29,0.99,27,-3,1,1.06,1.25,85,8401,0.0,1.4,,7.08,0.853,80.8,,44.7,5,,,,,,,,,,,,0,0,0,0,0,0,0,0,0,0,0,0,0,0,0,0,,,,,,0.0,,,,,,,
13294,1745300479099,,,,,,,,,,,,,,,,,,,,,,,,,,,,,,,,,,0,0,0,0,0,0,0,0,0,0,0,0,0,0,0,0,,,,,,,,,,,,,
13314,1745300479119,0.0,134,13.24,0.15,0.22,1.03,22,-3,2,1.06,1.25,85,8127,3.7,1.8,15,7.08,0.853,80.8,183,43.8,5,27,25,27,27,0.0,49.0,0.0,0.0,2.26,0,1.0,0,0,0,0,0,0,0,0,0,0,0,0,0,0,0,0,0,0,1.0,0,0,0.0,38.985538,-76.950615,44.19,48.8,31,3,0.8
13334,1745300479139,,,,,,,,,,,,,,,,,,,,,,,,,,,,,,,,,,0,0,0,0,0,0,0,0,0,0,0,0,0,0,0,0,,,,,,,,,,,,,
13354,1745300479159,0.0,134,,0.03,0.14,1.02,18,-3,2,1.03,1.25,82,8127,3.7,1.8,,6.86,0.953,80.8,,43.8,5,,,,,,,,,,,,0,0,0,0,0,0,0,0,0,0,0,0,0,0,0,0,,,,,,0.0,,,,,,,
13374,1745300479179,,,,,,,,,,,,,,,,,,,,,,,,,,,,,,,,,,0,0,0,0,0,0,0,0,0,0,0,0,0,0,0,0,,,,,,,,,,,,,
13394,1745300479208,0.0,133,,-0.05,-0.02,1.04,14,-3,2,1.04,1.25,84,8168,14.6,2.49,,7.94,1.172,80.8,,44.7,5,,,,,,,,,,,,0,0,0,0,0,0,0,0,0,0,0,0,0,0,0,0,,,,,,0.0,,,,,,,
13414,1745300479228,,,,,,,,,,,,,,,,,,,,,,,25,25,27,26,0.0,233.0,0.0,0.0,2.26,,,0,0,0,0,0,0,0,0,0,0,0,0,0,0,0,0,,0,,,,,38.985535,-76.950623,43.83,48.8,31,3,0.8
13434,1745300479248,0.0,134,,-0.08,-0.11,1.04,10,-3,1,1.05,1.25,84,9083,30.1,3.29,,9.69,1.248,80.8,,44.7,5,,,,,,,,,,,,0,0,0,0,0,0,0,0,0,0,0,0,0,0,0,0,,,,,,0.0,,,,,,,
13454,1745300479268,,,,,,,,,,,,,,,,,,,,,,,,,,,,,,,,,,0,0,0,0,0,0,0,0,0,0,0,0,0,0,0,0,,,,,,,,,,,,,
13474,1745300479288,0.0,134,,-0.06,-0.16,0.98,4,-2,0,1.0,1.25,80,9748,37.7,5.18,,11.21,1.122,80.8,,44.7,5,,,,,,,,,,,,0,0,0,0,0,0,0,0,0,0,0,0,0,0,0,0,,,,,,0.0,,,,,,,
13494,1745300479307,,,,,,,,,,,,,,,,,,,,,,,,,,,,,,,,,,0,0,0,0,0,0,0,0,0,0,0,0,0,0,0,0,,,,,,,,,,,,,
13514,1745300479327,0.0,131,,0.05,-0.23,1.01,1,-1,0,1.04,1.25,83,10297,38.9,4.84,,11.21,1.122,80.8,,45.6,5,26,25,30,28,0.0,47.0,0.0,0.0,2.26,,,0,0,0,0,0,0,0,0,0,0,0,0,0,0,0,0,,0,,,,0.0,38.985527,-76.950638,41.83,48.7,31,3,0.8
13534,1745300479347,,,,,,,,,,,,,,,,,,,,,,,,,,,,,,,,,,0,0,0,0,0,0,0,0,0,0,0,0,0,0,0,0,,,,,,,,,,,,,
13554,1745300479367,0.0,133,,0.19,-0.08,1.03,-0,0,-0,1.05,1.25,84,10297,38.9,4.84,,11.88,1.102,80.8,,45.6,5,,,,,,,,,,,,0,0,0,0,0,0,0,0,0,0,0,0,0,0,0,0,,,,,,0.0,,,,,,,
13574,1745300479387,,,,,,,,,,,,,,,,,,,,,,,,,,,,,,,,,,0,0,0,0,0,0,0,0,0,0,0,0,0,0,0,0,,,,,,,,,,,,,
13594,1745300479407,0.0,133,,0.27,-0.03,1.03,-1,1,-0,1.06,1.25,85,10107,38.2,5.02,,11.97,0.965,80.8,,50.9,5,,,,,,,,,,,,0,0,0,0,0,0,0,0,0,0,0,0,0,0,0,0,,,,,,0.0,,,,,,,
13614,1745300479427,,,,,,,,,,,,,,,,,,,,,,,28,25,31,30,0.0,78.0,0.0,0.0,2.26,,,0,0,0,0,0,0,0,0,0,0,0,0,0,0,0,0,,0,,,,,38.985519,-76.950645,41.92,48.7,31,3,0.8
13634,1745300479447,0.0,134,,0.34,-0.06,1.03,-0,0,-1,1.09,1.25,87,9681,13.5,4.42,,10.48,0.919,80.8,,50.9,5,,,,,,,,,,,,0,0,0,0,0,0,0,0,0,0,0,0,0,0,0,0,,,,,,0.0,,,,,,,
13654,1745300479467,,,,,,,,,,,,,,,,,,,,,,,,,,,,,,,,,,0,0,0,0,0,0,0,0,0,0,0,0,0,0,0,0,,,,,,,,,,,,,
13674,1745300479487,0.0,134,,0.3,-0.28,1.05,0,-1,-1,1.12,1.25,90,9523,0.0,1.4,,8.33,0.87,80.8,,50.9,5,,,,,,,,,,,,0,0,0,0,0,0,0,0,0,0,0,0,0,0,0,0,,,,,,0.0,,,,,,,
13694,1745300479503,,,,,,,,,,,,,,,,,,,,,,,,,,,,,,,,,,0,0,0,0,0,0,0,0,0,0,0,0,0,0,0,0,,,,,,,,,,,,,
13714,1745300479523,0.0,134,,0.2,-0.01,1.04,-1,-1,-0,1.06,1.25,85,9122,0.0,1.4,,8.33,0.87,80.8,,49.3,5,29,25,30,28,0.0,250.0,0.0,0.0,2.26,,,0,0,0,0,0,0,0,0,0,0,0,0,0,0,0,0,,0,,,,0.0,38.985516,-76.950661,47.2,48.7,31,3,0.8
13734,1745300479543,,,,,,,,,,,,,,,,,,,,,,,,,,,,,,,,,,0,0,0,0,0,0,0,0,0,0,0,0,0,0,0,0,,,,,,,,,,,,,
13754,1745300479563,0.0,134,,0.12,0.16,1.02,-4,-2,1,1.04,1.25,83,9122,0.0,1.4,,7.0,0.805,82.6,,49.3,5,,,,,,,,,,,,0,0,0,0,0,0,0,0,0,0,0,0,0,0,0,0,,,,,,0.0,,,,,,,
13774,1745300479583,,,,,,,,,,,,,,,,,,,,,,,,,,,,,,,,,,0,0,0,0,0,0,0,0,0,0,0,0,0,0,0,0,,,,,,,,,,,,,
13794,1745300479603,7.67,134,,-0.01,-0.03,1.02,-5,-2,-0,1.02,1.25,82,8746,0.0,1.4,,6.31,0.944,82.6,,45.6,5,,,,,,,,,,,,0,0,0,0,0,0,0,0,0,0,0,0,0,0,0,0,,,,,,0.0,,,,,,,
13814,1745300479623,,,,,,,,,,,,,,,,,,,,,,,28,25,26,27,0.0,14.0,0.0,0.0,2.26,,,0,0,0,0,0,0,0,0,0,0,0,0,0,0,0,0,,0,,,,,38.985508,-76.950668,47.82,48.7,31,3,0.8
13834,1745300479643,43.49,135,,-0.18,-0.05,0.98,-7,-2,-1,1.0,1.25,80,8673,0.0,1.4,,5.96,1.247,82.6,,45.6,5,,,,,,,,,,,,0,0,0,0,0,0,0,0,0,0,0,0,0,0,0,0,,,,,,0.0,,,,,,,
13854,1745300479663,,,,,,,,,,,,,,,,,,,,,,,,,,,,,,,,,,0,0,0,0,0,0,0,0,0,0,0,0,0,0,0,0,,,,,,,,,,,,,
13874,1745300479683,75.54,133,,-0.24,-0.06,1.02,-8,-2,-1,1.05,1.25,84,8625,0.0,1.4,,5.63,1.251,82.6,,45.6,5,,,,,,,,,,,,0,0,0,0,0,0,0,0,0,0,0,0,0,0,0,0,,,,,,0.0,,,,,,,
13894,1745300479704,,,,,,,,,,,,,,,,,,,,,,,,,,,,,,,,,,0,0,0,0,0,0,0,0,0,0,0,0,0,0,0,0,,,,,,,,,,,,,
13914,1745300479724,97.54,124,,-0.31,0.0,0.98,-9,-1,-1,1.03,1.03,100,8433,0.0,1.4,,5.63,1.251,82.6,,44.5,5,26,25,24,26,0.0,33.0,0.0,0.0,2.26,,,0,0,0,0,0,0,0,0,0,0,0,0,0,0,0,0,,1,,,,0.0,38.9855,-76.950684,43.64,48.6,31,3,0.8
13934,1745300479744,,,,,,,,,,,,,,,,,,,,,,,,,,,,,,,,,,0,0,0,0,0,0,0,0,0,0,0,0,0,0,0,0,,,,,,,,,,,,,
13954,1745300479764,110.11,135,,-0.35,0.05,1.0,-6,-1,-2,1.06,1.06,100,8433,0.0,1.4,,5.56,1.251,82.6,,44.5,5,,,,,,,,,,,,0,0,0,0,0,0,0,0,0,0,0,0,0,0,0,0,,,,,,0.0,,,,,,,
13974,1745300479784,,,,,,,,,,,,,,,,,,,,,,,,,,,,,,,,,,0,0,0,0,0,0,0,0,0,0,0,0,0,0,0,0,,,,,,,,,,,,,
13994,1745300479802,121.42,135,,-0.43,0.19,0.99,-3,-1,-3,1.09,1.09,100,8214,0.5,1.4,,5.48,1.251,82.6,,44.0,5,,,,,,,,,,,,0,0,0,0,0,0,0,0,0,0,0,0,0,0,0,0,,,,,,0.0,,,,,,,
14014,1745300479822,,,,,,,,,,,,,,,,,,,,,,,26,0,25,23,0.0,0.0,0.0,0.0,2.27,,,0,0,0,0,0,0,0,0,0,0,0,0,0,0,0,0,,0,,,,,38.985496,-76.950699,40.31,48.6,31,3,0.8
14034,1745300479842,134.62,130,,-0.42,0.37,1.02,3,-1,-3,1.16,1.16,100,7923,0.4,1.4,,5.6,1.25,82.6,,44.0,5,,,,,,,,,,,,0,0,0,0,0,0,0,0,0,0,0,0,0,0,0,0,,,,,,0.0,,,,,,,
14054,1745300479862,,,,,,,,,,,,,,,,,,,,,,,,,,,,,,,,,,0,0,0,0,0,0,0,0,0,0,0,0,0,0,0,0,,,,,,,,,,,,,
14074,1745300479882,123.3,133,,-0.48,0.53,1.04,8,-2,-3,1.26,1.26,100,7645,0.2,1.4,,5.68,1.25,82.6,,44.0,5,,,,,,,,,,,,0,0,0,0,0,0,0,0,0,0,0,0,0,0,0,0,,,,,,0.0,,,,,,,
14094,1745300479906,,,,,,,,,,,,,,,,,,,,,,,,,,,,,,,,,,0,0,0,0,0,0,0,0,0,0,0,0,0,0,0,0,,,,,,,,,,,,,
14114,1745300479926,144.04,96,,-0.46,0.68,1.09,15,-2,-2,1.36,1.36,100,7261,0.0,1.4,,5.68,1.25,82.6,,43.6,5,25,0,24,13,0.0,201.0,0.0,0.0,2.28,,,0,0,0,0,0,0,0,0,0,0,0,0,0,0,0,0,,1,,,,0.0,38.985489,-76.950699,37.73,48.6,31,3,0.8
14134,1745300479946,,,,,,,,,,,,,,,,,,,,,,,,,,,,,,,,,,0,0,0,0,0,0,0,0,0,0,0,0,0,0,0,0,,,,,,,,,,,,,
14154,1745300479966,142.79,93,,-0.44,0.64,1.05,20,-2,-2,1.31,1.36,96,7261,0.0,1.4,,5.91,1.248,82.6,,43.6,5,,,,,,,,,,,,0,0,0,0,0,0,0,0,0,0,0,0,0,0,0,0,,,,,,0.0,,,,,,,
14174,1745300479986,,,,,,,,,,,,,,,,,,,,,,,,,,,,,,,,,,0,0,0,0,0,0,0,0,0,0,0,0,0,0,0,0,,,,,,,,,,,,,
14194,1745300479999,146.56,102,,-0.47,0.76,1.06,24,-2,-2,1.39,1.39,100,6400,0.0,1.4,,6.23,1.25,82.6,,38.4,5,,,,,,,,,,,,0,0,0,0,0,0,0,0,0,0,0,0,0,0,0,0,,,,,,0.0,,,,,,,
14214,1745300480019,,,,,,,,,,,,,,,,,,,,,,,24,0,22,14,0.0,251.0,0.0,0.0,2.26,,,0,0,0,0,0,0,0,0,0,0,0,0,0,0,0,0,,0,,,,,38.985481,-76.950714,35.41,48.6,31,3,0.8
14234,1745300480039,139.64,119,,-0.47,0.9,1.14,29,-2,-1,1.52,1.52,100,6017,0.0,1.4,,6.7,1.251,82.6,,38.4,5,,,,,,,,,,,,0,0,0,0,0,0,0,0,0,0,0,0,0,0,0,0,,,,,,0.0,,,,,,,
14254,1745300480059,,,,,,,,,,,,,,,,,,,,,,,,,,,,,,,,,,0,0,0,0,0,0,0,0,0,0,0,0,0,0,0,0,,,,,,,,,,,,,
14274,1745300480079,140.27,85,,-0.45,0.88,1.11,31,-2,-1,1.49,1.52,98,5531,0.0,1.4,,7.41,1.252,82.6,,38.4,5,,,,,,,,,,,,0,0,0,0,0,0,0,0,0,0,0,0,0,0,0,0,,,,,,0.0,,,,,,,
14294,1745300480106,,,,,,,,,,,,,,,,,,,,,,,,,,,,,,,,,,0,0,0,0,0,0,0,0,0,0,0,0,0,0,0,0,,,,,,,,,,,,,
14314,1745300480126,133.36,121,13.23,-0.43,0.81,1.06,33,-1,-1,1.41,1.52,92,4996,0.0,1.4,15,7.41,1.252,82.6,183,32.9,5,22,0,22,14,0.0,226.0,0.0,0.0,2.26,0,1.0,0,0,0,0,0,0,0,0,0,0,0,0,0,0,0,0,0,0,1.0,0,0,0.0,38.985477,-76.950722,33.64,48.5,31,3,0.8
14334,1745300480146,,,,,,,,,,,,,,,,,,,,,,,,,,,,,,,,,,0,0,0,0,0,0,0,0,0,0,0,0,0,0,0,0,,,,,,,,,,,,,
14354,1745300480166,125.82,99,,-0.53,0.8,1.05,32,-1,-0,1.42,1.52,93,4996,0.0,1.4,,7.94,1.251,82.6,,32.9,5,,,,,,,,,,,,0,0,0,0,0,0,0,0,0,0,0,0,0,0,0,0,,,,,,0.0,,,,,,,
14374,1745300480186,,,,,,,,,,,,,,,,,,,,,,,,,,,,,,,,,,0,0,0,0,0,0,0,0,0,0,0,0,0,0,0,0,,,,,,,,,,,,,
14394,1745300480204,113.88,102,,-0.53,0.76,1.1,32,-1,0,1.44,1.52,95,4954,0.0,1.42,,8.3,1.251,82.6,,29.3,5,,,,,,,,,,,,0,0,0,0,0,0,0,0,0,0,0,0,0,0,0,0,,,,,,0.0,,,,,,,
14414,1745300480224,,,,,,,,,,,,,,,,,,,,,,,20,0,19,15,0.0,45.0,0.0,0.0,2.26,,,0,0,0,0,0,0,0,0,0,0,0,0,0,0,0,0,,0,,,,,38.985474,-76.950729,31.65,48.5,31,3,0.8
14434,1745300480244,98.79,90,,-0.55,0.77,1.11,31,-0,-0,1.46,1.52,96,4983,0.0,1.44,,8.81,1.25,82.6,,29.3,5,,,,,,,,,,,,0,0,0,0,0,0,0,0,0,0,0,0,0,0,0,0,,,,,,0.0,,,,,,,
14454,1745300480264,,,,,,,,,,,,,,,,,,,,,,,,,,,,,,,,,,0,0,0,0,0,0,0,0,0,0,0,0,0,0,0,0,,,,,,,,,,,,,
14474,1745300480284,84.97,85,,-0.58,0.68,1.11,30,-1,-1,1.42,1.52,94,5263,25.1,3.5,,11.02,1.249,82.6,,29.3,5,,,,,,,,,,,,0,0,0,0,0,0,0,0,0,0,0,0,0,0,0,0,,,,,,0.0,,,,,,,
14494,1745300480306,,,,,,,,,,,,,,,,,,,,,,,,,,,,,,,,,,0,0,0,0,0,0,0,0,0,0,0,0,0,0,0,0,,,,,,,,,,,,,
14514,1745300480326,71.77,90,,-0.55,0.68,1.09,31,-1,-1,1.4,1.52,92,5682,37.5,5.24,,11.02,1.249,82.6,,30.1,5,19,0,17,18,0.0,36.0,0.0,0.0,2.26,,,0,0,0,0,0,0,0,0,0,0,0,0,0,0,0,0,,1,,,,0.0,38.985466,-76.950737,29.22,48.5,31,3,0.8
14534,1745300480346,,,,,,,,,,,,,,,,,,,,,,,,,,,,,,,,,,0,0,0,0,0,0,0,0,0,0,0,0,0,0,0,0,,,,,,,,,,,,,
14554,1745300480366,53.54,102,,-0.5,0.56,1.0,30,-1,-1,1.25,1.52,82,5682,37.5,5.24,,13.44,1.249,82.6,,30.1,5,,,,,,,,,,,,0,0,0,0,0,0,0,0,0,0,0,0,0,0,0,0,,,,,,0.0,,,,,,,
14574,1745300480386,,,,,,,,,,,,,,,,,,,,,,,,,,,,,,,,,,0,0,0,0,0,0,0,0,0,0,0,0,0,0,0,0,,,,,,,,,,,,,
14594,1745300480408,43.49,93,,-0.43,0.43,0.98,29,-1,-1,1.15,1.52,76,6045,37.6,4.92,,13.65,1.248,82.6,,32.8,5,,,,,,,,,,,,0,0,0,0,0,0,0,0,0,0,0,0,0,0,0,0,,,,,,0.0,,,,,,,
14614,1745300480428,,,,,,,,,,,,,,,,,,,,,,,18,0,18,17,0.0,242.0,0.0,0.0,2.26,,,0,0,0,0,0,0,0,0,0,0,0,0,0,0,0,0,,1,,,,,38.985458,-76.950737,27.15,48.5,31,3,0.8
14634,1745300480448,26.52,107,,-0.42,0.44,0.98,30,-1,-1,1.15,1.52,76,6448,38.0,5.09,,13.63,1.248,82.6,,32.8,5,,,,,,,,,,,,0,0,0,0,0,0,0,0,0,0,0,0,0,0,0,0,,,,,,0.0,,,,,,,
14654,1745300480468,,,,,,,,,,,,,,,,,,,,,,,,,,,,,,,,,,0,0,0,0,0,0,0,0,0,0,0,0,0,0,0,0,,,,,,,,,,,,,
14674,1745300480488,0.75,134,,-0.27,0.42,0.99,31,-1,-1,1.11,1.52,73,6607,38.3,5.26,,13.61,1.25,82.6,,32.8,5,,,,,,,,,,,,0,0,0,0,0,0,0,0,0,0,0,0,0,0,0,0,,,,,,0.0,,,,,,,
14694,1745300480502,,,,,,,,,,,,,,,,,,,,,,,,,,,,,,,,,,0,0,0,0,0,0,0,0,0,0,0,0,0,0,0,0,,,,,,,,,,,,,
14714,1745300480522,0.0,119,,-0.17,0.33,0.96,31,-0,-1,1.03,1.52,68,6394,30.2,5.15,,13.61,1.25,82.6,,36.6,5,18,0,19,18,0.0,54.0,0.0,0.0,2.28,,,0,0,0,0,0,0,0,0,0,0,0,0,0,0,0,0,,0,,,,0.0,38.985455,-76.950745,26.84,48.5,31,3,0.8
14734,1745300480542,,,,,,,,,,,,,,,,,,,,,,,,,,,,,,,,,,0,0,0,0,0,0,0,0,0,0,0,0,0,0,0,0,,,,,,,,,,,,,
14754,1745300480562,0.0,102,,-0.1,0.46,0.99,33,0,-1,1.1,1.52,72,6394,30.2,5.15,,13.32,1.251,82.6,,36.6,5,,,,,,,,,,,,0,0,0,0,0,0,0,0,0,0,0,0,0,0,0,0,,,,,,0.0,,,,,,,
14774,1745300480582,,,,,,,,,,,,,,,,,,,,,,,,,,,,,,,,,,0,0,0,0,0,0,0,0,0,0,0,0,0,0,0,0,,,,,,,,,,,,,
14794,1745300480599,0.0,93,,-0.08,0.63,1.08,33,-0,-1,1.25,1.52,82,6201,2.9,3.21,,12.04,1.179,82.6,,35.1,5,,,,,,,,,,,,0,0,0,0,0,0,0,0,0,0,0,0,0,0,0,0,,,,,,0.0,,,,,,,
14814,1745300480619,,,,,,,,,,,,,,,,,,,,,,,20,0,19,18,0.0,7.0,0.0,0.0,2.27,,,0,0,0,0,0,0,0,0,0,0,0,0,0,0,0,0,,1,,,,,38.985447,-76.950745,28.63,48.5,31,3,0.8
14834,1745300480639,0.0,130,,-0.04,0.65,1.12,36,-1,-2,1.3,1.52,85,5903,0.0,1.51,,10.81,1.001,82.6,,35.1,5,,,,,,,,,,,,0,0,0,0,0,0,0,0,0,0,0,0,0,0,0,0,,,,,,0.0,,,,,,,
14854,1745300480659,,,,,,,,,,,,,,,,,,,,,,,,,,,,,,,,,,0,0,0,0,0,0,0,0,0,0,0,0,0,0,0,0,,,,,,,,,,,,,
14874,1745300480679,0.0,116,,-0.04,0.76,1.05,39,-1,-2,1.29,1.52,85,5608,0.8,1.4,,10.42,0.991,82.6,,35.1,5,,,,,,,,,,,,0,0,0,0,0,0,0,0,0,0,0,0,0,0,0,0,,,,,,0.0,,,,,,,
14894,1745300480701,,,,,,,,,,,,,,,,,,,,,,,,,,,,,,,,,,0,0,0,0,0,0,0,0,0,0,0,0,0,0,0,0,,,,,,,,,,,,,
14914,1745300480721,0.0,119,,-0.06,0.8,1.01,43,-2,-2,1.29,1.52,85,5360,0.3,1.57,,10.42,0.991,82.6,,32.5,5,20,3,19,16,0.0,239.0,0.0,0.0,2.26,,,0,0,0,0,0,0,0,0,0,0,0,0,0,0,0,0,,0,,,,0.0,38.985439,-76.950752,30.92,48.5,31,3,0.8
14934,1745300480741,,,,,,,,,,,,,,,,,,,,,,,,,,,,,,,,,,0,0,0,0,0,0,0,0,0,0,0,0,0,0,0,0,,,,,,,,,,,,,
14954,1745300480761,0.0,119,,-0.12,0.84,1.05,45,-3,-2,1.34,1.52,88,5360,0.3,1.57,,10.22,1.075,82.6,,32.5,5,,,,,,,,,,,,0,0,0,0,0,0,0,0,0,0,0,0,0,0,0,0,,,,,,0.0,,,,,,,
14974,1745300480781,,,,,,,,,,,,,,,,,,,,,,,,,,,,,,,,,,0,0,0,0,0,0,0,0,0,0,0,0,0,0,0,0,,,,,,,,,,,,,
14994,1745300480801,0.0,96,,-0.16,0.83,1.04,48,-4,-2,1.34,1.34,100,5285,0.4,1.55,,10.02,1.168,82.6,,30.8,5,,,,,,,,,,,,0,0,0,0,0,0,0,0,0,0,0,0,0,0,0,0,,,,,,0.0,,,,,,,
15014,1745300480821,,,,,,,,,,,,,,,,,,,,,,,20,2,18,13,0.0,196.0,0.0,0.0,2.26,,,0,0,0,0,0,0,0,0,0,0,0,0,0,0,0,0,,0,,,,,38.985436,-76.950752,28.99,48.5,31,3,0.8
15034,1745300480841,0.0,82,,-0.2,0.92,1.05,50,-4,-1,1.41,1.41,100,5394,3.9,2.79,,10.09,1.175,82.6,,30.8,5,,,,,,,,,,,,0,0,0,0,0,0,0,0,0,0,0,0,0,0,0,0,,,,,,0.0,,,,,,,
15054,1745300480861,,,,,,,,,,,,,,,,,,,,,,,,,,,,,,,,,,0,0,0,0,0,0,0,0,0,0,0,0,0,0,0,0,,,,,,,,,,,,,
15074,1745300480881,0.0,73,,-0.23,0.91,1.07,52,-3,-1,1.42,1.42,100,5332,11.7,2.98,,11.01,1.232,82.6,,30.8,5,,,,,,,,,,,,0,0,0,0,0,0,0,0,0,0,0,0,0,0,0,0,,,,,,0.0,,,,,,,
15094,1745300480905,,,,,,,,,,,,,,,,,,,,,,,,,,,,,,,,,,0,0,0,0,0,0,0,0,0,0,0,0,0,0,0,0,,,,,,,,,,,,,
15114,1745300480925,0.0,68,,-0.23,0.84,1.01,52,-3,-1,1.33,1.42,94,5504,16.3,4.26,,11.01,1.232,82.6,,30.3,5,18,3,18,15,0.0,192.0,0.0,0.0,2.26,,,0,0,0,0,0,0,0,0,0,0,0,0,0,0,0,0,,0,,,,0.0,38.985428,-76.950752,27.05,48.5,31,3,0.8
15134,1745300480945,,,,,,,,,,,,,,,,,,,,,,,,,,,,,,,,,,0,0,0,0,0,0,0,0,0,0,0,0,0,0,0,0,,,,,,,,,,,,,
15154,1745300480965,0.0,96,,-0.22,0.89,1.08,54,-3,-1,1.41,1.42,99,5504,16.3,4.26,,11.95,1.248,82.6,,30.3,5,,,,,,,,,,,,0,0,0,0,0,0,0,0,0,0,0,0,0,0,0,0,,,,,,0.0,,,,,,,
15174,1745300480985,,,,,,,,,,,,,,,,,,,,,,,,,,,,,,,,,,0,0,0,0,0,0,0,0,0,0,0,0,0,0,0,0,,,,,,,,,,,,,
15194,1745300480997,0.0,65,,-0.2,0.91,1.07,55,-2,-1,1.42,1.42,100,5578,32.3,5.17,,13.31,1.245,82.6,,31.1,5,,,,,,,,,,,,0,0,0,0,0,0,0,0,0,0,0,0,0,0,0,0,,,,,,0.0,,,,,,,
15214,1745300481017,,,,,,,,,,,,,,,,,,,,,,,18,3,18,15,0.0,227.0,0.0,0.0,2.26,,,0,0,0,0,0,0,0,0,0,0,0,0,0,0,0,0,,0,,,,,38.985416,-76.950752,25.58,48.5,31,3,0.8
15234,1745300481037,0.0,73,,-0.24,0.95,1.16,57,-2,-1,1.52,1.52,100,5705,34.6,5.28,,13.69,1.086,82.6,,31.1,5,,,,,,,,,,,,0,0,0,0,0,0,0,0,0,0,0,0,0,0,0,0,,,,,,0.0,,,,,,,
