"Interval"|"ms"|0|0|1,"Utc"|"ms"|0|0|1,"FrontBP"|"psi"|-5.0|5.0|25,"SteerAng"|"Degrees"|-145.0|145.0|25,"Battery"|"Volts"|-5.0|20.0|1,"AccelX"|"G"|-3.0|3.0|25,"AccelY"|"G"|-3.0|3.0|25,"AccelZ"|"G"|-3.0|3.0|25,"Yaw"|"Deg/Sec"|-120|120|25,"Pitch"|"Deg/Sec"|-120|120|25,"Roll"|"Deg/Sec"|-120|120|25,"Gsum"|"G"|0.0|3.0|25,"GsumMax"|"G"|0.0|3.0|25,"GsumPct"|"%"|0|100|25,"RPM"|""|0|10000|25,"TPS"|"%"|0.0|100.0|25,"InjectorPW"|"ms"|0.0|100.0|25,"Baro"|"kPa"|0|105|1,"MAP"|"Psi"|0.0|255.0|25,"Lambda"|""|-2.0|2.0|25,"IAT"|"C"|0.0|200.0|25,"EngineTemp"|"C"|0|200|1,"EOP"|"PSI"|0.0|152.0|25,"EOT"|"F"|0|250|25,"WSFR"|"MPH"|0|150|10,"WSFL"|"MPH"|0|100|10,"WSRR"|"MPH"|0|100|10,"WSRL"|""|0|100|10,"TCSet"|"%"|0.0|100.0|10,"TCSlip"|"%"|0.0|100.0|10,"TCComp"|"deg"|0.0|50.0|10,"TCCut"|"%"|0.0|100.0|10,"Analog8"|""|0.0|5.0|10,"OilTemp"|"F"|0|300|1,"AA_On"|""|0.0|1.0|1,"ThermLF1"|"C"|0|400|50,"ThermLF2"|"C"|0|400|50,"ThermRR1"|"C"|0|400|50,"ThermRR2"|"C"|0|400|50,"ThermLF3"|"C"|0|400|50,"ThermLF4"|"C"|0|400|50,"ThermLF5"|"C"|0|400|50,"ThermLF6"|"C"|0|400|50,"ThermLF7"|"C"|0|400|50,"ThermLF8"|"C"|0|400|50,"ThermRR3"|"C"|0|400|50,"ThermRR4"|"C"|0|400|50,"ThermRR5"|"C"|0|400|50,"ThermRR6"|"C"|0|400|50,"ThermRR7"|"C"|0|400|50,"ThermRR8"|"C"|0|400|50,"Gear"|""|1|6|10,"AA_On"|""|0.0|1.0|1,"AA_LowDrag"|""|0|1|1,"Fuel_Mix"|""|-10|10|1,"AA_Packages"|""|0.0|1000.0|25,"Latitude"|"Degrees"|-180.0|180.0|10,"Longitude"|"Degrees"|-180.0|180.0|10,"Speed"|"kph"|0.0|150.0|10,"GPSSats"|""|0|20|10,"GPSQual"|""|0|5|10,"GPSDOP"|""|0.0|20.0|10
3543365,0,0.0,179.24,,-0.1,-0.1,1.03,1,-0,-1,1.04,1.04,100,3125,1.9,3.58,,12.55,1.147,102.4,,32.1,5,,,,,,,,,,,,0,0,0,0,0,0,0,0,0,0,0,0,0,0,0,0,,,,,0.0,,,,,,
3543385,0,,,,,,,,,,,,,,,,,,,,,,,,,,,,,,,,,,0,0,0,0,0,0,0,0,0,0,0,0,0,0,0,0,,,,,,,,,,,
3543405,0,0.0,179.36,,-0.08,-0.05,0.93,1,-0,-1,0.93,1.04,90,3066,2.4,3.63,,12.72,1.133,102.4,,32.1,5,,,,,,,,,,,,0,0,0,0,0,0,0,0,0,0,0,0,0,0,0,0,,,,,0.0,,,,,,
3543425,0,,,,,,,,,,,,,,,,,,,,,,,,,,,,,,,,,,0,0,0,0,0,0,0,0,0,0,0,0,0,0,0,0,,,,,,,,,,,
3543445,0,0.0,179.36,,-0.07,0.05,0.85,1,-0,-0,0.85,1.04,82,3095,4.2,4.1,,12.87,1.135,102.4,,32.1,5,0,0,0,0,0.0,0.0,0.0,0.0,2.27,,,0,0,0,0,0,0,0,0,0,0,0,0,0,0,0,0,0,,,,0.0,0.0,0.0,0.0,0,0,0.0
3543465,0,,,,,,,,,,,,,,,,,,,,,,,,,,,,,,,,,,0,0,0,0,0,0,0,0,0,0,0,0,0,0,0,0,,,,,,,,,,,
3543485,0,0.0,179.36,,-0.07,0.03,0.95,0,-0,0,0.95,1.04,92,3188,5.4,3.95,,12.87,1.135,102.4,,32.3,5,,,,,,,,,,,,0,0,0,0,0,0,0,0,0,0,0,0,0,0,0,0,,,,,0.0,,,,,,
3543505,0,,,,,,,,,,,,,,,,,,,,,,,,,,,,,,,,,,0,0,0,0,0,0,0,0,0,0,0,0,0,0,0,0,,,,,,,,,,,
3543525,0,0.0,179.36,,-0.11,-0.07,1.0,0,-0,-0,1.01,1.04,97,3188,5.4,3.95,,12.95,1.192,102.4,,32.3,5,,,,,,,,,,,,0,0,0,0,0,0,0,0,0,0,0,0,0,0,0,0,,,,,0.0,,,,,,
3543545,0,,,,,,,,,,,,,,,,,,,,,,,0,0,0,0,0.0,0.0,0.0,0.0,2.26,,,0,0,0,0,0,0,0,0,0,0,0,0,0,0,0,0,0,,,,,0.0,0.0,0.0,0,0,0.0
3543565,0,0.0,179.36,,-0.08,-0.03,0.9,1,-0,-0,0.9,1.04,87,3192,5.2,4.0,,13.0,1.217,102.4,,32.7,5,,,,,,,,,,,,0,0,0,0,0,0,0,0,0,0,0,0,0,0,0,0,,,,,0.0,,,,,,
3543585,0,,,,,,,,,,,,,,,,,,,,,,,,,,,,,,,,,,0,0,0,0,0,0,0,0,0,0,0,0,0,0,0,0,,,,,,,,,,,
3543605,0,0.0,179.36,,-0.05,0.06,0.91,0,-0,0,0.91,1.04,88,3226,5.1,3.98,,12.99,1.125,102.4,,32.7,5,,,,,,,,,,,,0,0,0,0,0,0,0,0,0,0,0,0,0,0,0,0,,,,,0.0,,,,,,
3543625,0,,,,,,,,,,,,,,,,,,,,,,,,,,,,,,,,,,0,0,0,0,0,0,0,0,0,0,0,0,0,0,0,0,,,,,,,,,,,
3543645,0,0.0,179.36,,-0.06,0.01,1.0,-0,-0,1,1.0,1.04,96,3159,4.8,3.98,,13.0,1.073,102.4,,32.7,5,0,0,0,0,0.0,0.0,0.0,0.0,2.26,,,0,0,0,0,0,0,0,0,0,0,0,0,0,0,0,0,0,,,,0.0,0.0,0.0,0.0,0,0,0.0
3543665,0,,,,,,,,,,,,,,,,,,,,,,,,,,,,,,,,,,0,0,0,0,0,0,0,0,0,0,0,0,0,0,0,0,,,,,,,,,,,
3543685,0,0.0,179.36,,-0.1,-0.08,1.01,1,-0,-0,1.02,1.04,98,3176,2.3,3.76,,13.0,1.073,102.4,,32.7,5,,,,,,,,,,,,0,0,0,0,0,0,0,0,0,0,0,0,0,0,0,0,,,,,0.0,,,,,,
3543705,0,,,,,,,,,,,,,,,,,,,,,,,,,,,,,,,,,,0,0,0,0,0,0,0,0,0,0,0,0,0,0,0,0,,,,,,,,,,,
3543725,0,0.0,179.36,,-0.07,0.0,0.93,1,-0,-0,0.93,1.04,90,3176,2.3,3.76,,12.89,1.089,102.4,,32.7,5,,,,,,,,,,,,0,0,0,0,0,0,0,0,0,0,0,0,0,0,0,0,,,,,0.0,,,,,,
3543745,0,,,,,,,,,,,,,,,,,,,,,,,0,0,0,0,0.0,0.0,0.0,0.0,2.27,,,0,0,0,0,0,0,0,0,0,0,0,0,0,0,0,0,0,,,,,0.0,0.0,0.0,0,0,0.0
3543765,0,0.0,179.36,,-0.04,0.08,0.89,0,-0,0,0.89,1.04,86,3176,0.1,3.24,,12.69,1.105,102.4,,31.6,5,,,,,,,,,,,,0,0,0,0,0,0,0,0,0,0,0,0,0,0,0,0,,,,,0.0,,,,,,
3543785,0,,,,,,,,,,,,,,,,,,,,,,,,,,,,,,,,,,0,0,0,0,0,0,0,0,0,0,0,0,0,0,0,0,,,,,,,,,,,
3543805,0,0.0,179.24,,-0.05,0.09,0.96,-0,-0,1,0.97,1.04,93,3096,0.0,3.06,,12.56,1.13,102.4,,31.6,5,,,,,,,,,,,,0,0,0,0,0,0,0,0,0,0,0,0,0,0,0,0,,,,,0.0,,,,,,
3543825,0,,,,,,,,,,,,,,,,,,,,,,,,,,,,,,,,,,0,0,0,0,0,0,0,0,0,0,0,0,0,0,0,0,,,,,,,,,,,
3543845,0,0.0,179.36,13.5,-0.07,-0.01,1.06,-0,-0,1,1.07,1.07,100,3205,0.0,3.07,15,12.48,1.142,102.4,178,31.6,5,0,0,0,0,0.0,0.0,0.0,0.0,2.27,0,1.0,0,0,0,0,0,0,0,0,0,0,0,0,0,0,0,0,0,0.0,0,-0,0.0,0.0,0.0,0.0,0,0,0.0
3543865,0,,,,,,,,,,,,,,,,,,,,,,,,,,,,,,,,,,0,0,0,0,0,0,0,0,0,0,0,0,0,0,0,0,,,,,,,,,,,
3543885,0,0.0,179.36,,-0.1,-0.06,1.07,0,-0,0,1.08,1.08,100,3110,0.0,3.05,,12.48,1.142,102.4,,31.9,5,,,,,,,,,,,,0,0,0,0,0,0,0,0,0,0,0,0,0,0,0,0,,,,,0.0,,,,,,
3543905,0,,,,,,,,,,,,,,,,,,,,,,,,,,,,,,,,,,0,0,0,0,0,0,0,0,0,0,0,0,0,0,0,0,,,,,,,,,,,
3543925,0,0.0,179.36,,-0.12,-0.07,1.05,1,-0,-0,1.06,1.08,98,3110,0.0,3.05,,12.41,1.239,102.4,,31.9,5,,,,,,,,,,,,0,0,0,0,0,0,0,0,0,0,0,0,0,0,0,0,,,,,0.0,,,,,,
3543945,0,,,,,,,,,,,,,,,,,,,,,,,0,0,0,0,0.0,0.0,0.0,0.0,2.27,,,0,0,0,0,0,0,0,0,0,0,0,0,0,0,0,0,0,,,,,0.0,0.0,0.0,0,0,0.0
3543965,0,0.0,179.36,,-0.13,-0.04,0.97,1,-0,-1,0.98,1.08,91,2998,0.0,3.11,,12.33,1.225,102.4,,31.1,5,,,,,,,,,,,,0,0,0,0,0,0,0,0,0,0,0,0,0,0,0,0,,,,,0.0,,,,,,
3543985,0,,,,,,,,,,,,,,,,,,,,,,,,,,,,,,,,,,0,0,0,0,0,0,0,0,0,0,0,0,0,0,0,0,,,,,,,,,,,
3544005,0,0.0,179.36,,-0.1,0.01,0.88,1,-0,-1,0.89,1.08,82,3069,0.0,3.04,,12.37,1.198,102.4,,31.1,5,,,,,,,,,,,,0,0,0,0,0,0,0,0,0,0,0,0,0,0,0,0,,,,,0.0,,,,,,
3544025,0,,,,,,,,,,,,,,,,,,,,,,,,,,,,,,,,,,0,0,0,0,0,0,0,0,0,0,0,0,0,0,0,0,,,,,,,,,,,
3544045,0,0.0,179.36,,-0.08,0.07,0.8,1,-0,-1,0.81,1.08,75,3036,0.0,3.09,,12.36,1.208,102.4,,31.1,5,0,0,0,0,0.0,0.0,0.0,0.0,2.26,,,0,0,0,0,0,0,0,0,0,0,0,0,0,0,0,0,0,,,,0.0,0.0,0.0,0.0,0,0,0.0
3544065,0,,,,,,,,,,,,,,,,,,,,,,,,,,,,,,,,,,0,0,0,0,0,0,0,0,0,0,0,0,0,0,0,0,,,,,,,,,,,
3544085,0,0.0,179.36,,-0.05,0.1,0.77,1,-0,-0,0.78,1.08,72,3077,0.0,3.11,,12.36,1.208,102.4,,30.9,5,,,,,,,,,,,,0,0,0,0,0,0,0,0,0,0,0,0,0,0,0,0,,,,,0.0,,,,,,
3544105,0,,,,,,,,,,,,,,,,,,,,,,,,,,,,,,,,,,0,0,0,0,0,0,0,0,0,0,0,0,0,0,0,0,,,,,,,,,,,
3544125,0,0.0,179.24,,-0.03,0.1,0.74,0,-0,-0,0.75,1.08,70,3077,0.0,3.11,,12.35,1.159,102.4,,30.9,5,,,,,,,,,,,,0,0,0,0,0,0,0,0,0,0,0,0,0,0,0,0,,,,,0.0,,,,,,
3544145,0,,,,,,,,,,,,,,,,,,,,,,,0,0,0,0,0.0,0.0,0.0,0.0,2.26,,,0,0,0,0,0,0,0,0,0,0,0,0,0,0,0,0,0,,,,,0.0,0.0,0.0,0,0,0.0
3544165,0,0.0,179.24,,-0.03,0.1,0.72,0,-0,-0,0.73,1.08,68,2957,0.0,3.13,,12.4,1.116,102.4,,29.2,5,,,,,,,,,,,,0,0,0,0,0,0,0,0,0,0,0,0,0,0,0,0,,,,,0.0,,,,,,
3544185,0,,,,,,,,,,,,,,,,,,,,,,,,,,,,,,,,,,0,0,0,0,0,0,0,0,0,0,0,0,0,0,0,0,,,,,,,,,,,
3544205,0,0.0,179.24,,-0.07,0.05,0.79,1,-0,-0,0.79,1.08,74,2796,0.0,3.16,,12.48,1.118,102.4,,29.2,5,,,,,,,,,,,,0,0,0,0,0,0,0,0,0,0,0,0,0,0,0,0,,,,,0.0,,,,,,
3544225,0,,,,,,,,,,,,,,,,,,,,,,,,,,,,,,,,,,0,0,0,0,0,0,0,0,0,0,0,0,0,0,0,0,,,,,,,,,,,
3544245,0,0.0,179.24,,-0.07,0.01,0.87,0,-0,-0,0.87,1.08,81,2919,0.0,3.18,,12.53,1.128,102.4,,29.2,5,0,0,0,0,0.0,0.0,0.0,0.0,2.27,,,0,0,0,0,0,0,0,0,0,0,0,0,0,0,0,0,0,,,,0.0,0.0,0.0,0.0,0,0,0.0
3544265,0,,,,,,,,,,,,,,,,,,,,,,,,,,,,,,,,,,0,0,0,0,0,0,0,0,0,0,0,0,0,0,0,0,,,,,,,,,,,
3544285,0,0.0,179.24,,-0.06,0.0,0.98,-0,-0,0,0.98,1.08,91,3016,0.0,3.15,,12.53,1.128,102.4,,28.8,5,,,,,,,,,,,,0,0,0,0,0,0,0,0,0,0,0,0,0,0,0,0,,,,,0.0,,,,,,
3544305,0,,,,,,,,,,,,,,,,,,,,,,,,,,,,,,,,,,0,0,0,0,0,0,0,0,0,0,0,0,0,0,0,0,,,,,,,,,,,
3544325,0,0.0,179.24,,-0.05,0.03,1.02,-0,-0,1,1.03,1.08,95,3016,0.0,3.15,,12.55,1.238,102.4,,28.8,5,,,,,,,,,,,,0,0,0,0,0,0,0,0,0,0,0,0,0,0,0,0,,,,,0.0,,,,,,
3544345,0,,,,,,,,,,,,,,,,,,,,,,,0,0,0,0,0.0,0.0,0.0,0.0,2.27,,,0,0,0,0,0,0,0,0,0,0,0,0,0,0,0,0,0,,,,,0.0,0.0,0.0,0,0,0.0
3544365,0,0.0,179.24,,-0.04,0.05,1.05,-1,-0,1,1.05,1.08,98,2936,0.0,3.14,,12.51,1.201,102.4,,29.7,5,,,,,,,,,,,,0,0,0,0,0,0,0,0,0,0,0,0,0,0,0,0,,,,,0.0,,,,,,
3544385,0,,,,,,,,,,,,,,,,,,,,,,,,,,,,,,,,,,0,0,0,0,0,0,0,0,0,0,0,0,0,0,0,0,,,,,,,,,,,
3544405,0,0.0,179.11,,-0.03,0.04,1.01,-1,-0,1,1.01,1.08,94,2962,0.0,3.13,,12.45,1.124,100.6,,29.7,5,,,,,,,,,,,,0,0,0,0,0,0,0,0,0,0,0,0,0,0,0,0,,,,,0.0,,,,,,
3544425,0,,,,,,,,,,,,,,,,,,,,,,,,,,,,,,,,,,0,0,0,0,0,0,0,0,0,0,0,0,0,0,0,0,,,,,,,,,,,
3544445,0,0.0,179.24,,-0.03,0.05,0.96,-0,-0,1,0.96,1.08,89,2804,0.0,3.15,,12.55,1.077,100.6,,29.7,5,0,0,0,0,0.0,0.0,0.0,0.0,2.27,,,0,0,0,0,0,0,0,0,0,0,0,0,0,0,0,0,0,,,,0.0,0.0,0.0,0.0,0,0,0.0
3544465,0,,,,,,,,,,,,,,,,,,,,,,,,,,,,,,,,,,0,0,0,0,0,0,0,0,0,0,0,0,0,0,0,0,,,,,,,,,,,
3544485,0,0.0,179.24,,-0.05,-0.0,0.99,-0,-0,0,0.99,1.08,92,2796,0.0,3.17,,12.55,1.077,100.6,,28.6,5,,,,,,,,,,,,0,0,0,0,0,0,0,0,0,0,0,0,0,0,0,0,,,,,0.0,,,,,,
3544505,0,,,,,,,,,,,,,,,,,,,,,,,,,,,,,,,,,,0,0,0,0,0,0,0,0,0,0,0,0,0,0,0,0,,,,,,,,,,,
3544525,0,0.0,179.24,,-0.06,0.02,0.98,-0,-0,1,0.98,1.08,91,2796,0.0,3.17,,12.59,1.072,100.6,,28.6,5,,,,,,,,,,,,0,0,0,0,0,0,0,0,0,0,0,0,0,0,0,0,,,,,0.0,,,,,,
3544545,0,,,,,,,,,,,,,,,,,,,,,,,0,0,0,0,0.0,0.0,0.0,0.0,2.26,,,0,0,0,0,0,0,0,0,0,0,0,0,0,0,0,0,0,,,,,0.0,0.0,0.0,0,0,0.0
3544565,0,0.0,179.24,,-0.05,0.02,0.99,-0,-0,0,0.99,1.08,92,2647,0.0,3.19,,12.71,1.105,100.6,,26.7,5,,,,,,,,,,,,0,0,0,0,0,0,0,0,0,0,0,0,0,0,0,0,,,,,0.0,,,,,,
3544585,0,,,,,,,,,,,,,,,,,,,,,,,,,,,,,,,,,,0,0,0,0,0,0,0,0,0,0,0,0,0,0,0,0,,,,,,,,,,,
3544605,0,0.0,179.24,,-0.04,0.01,0.98,-0,-0,1,0.99,1.08,92,2563,0.0,3.22,,12.79,1.124,100.6,,26.7,5,,,,,,,,,,,,0,0,0,0,0,0,0,0,0,0,0,0,0,0,0,0,,,,,0.0,,,,,,
3544625,0,,,,,,,,,,,,,,,,,,,,,,,,,,,,,,,,,,0,0,0,0,0,0,0,0,0,0,0,0,0,0,0,0,,,,,,,,,,,
3544645,0,0.0,179.24,,-0.05,0.03,1.0,-0,-0,0,1.0,1.08,93,2495,0.0,3.24,,12.89,1.143,100.6,,26.7,5,0,0,0,0,0.0,0.0,0.0,0.0,2.26,,,0,0,0,0,0,0,0,0,0,0,0,0,0,0,0,0,0,,,,0.0,0.0,0.0,0.0,0,0,0.0
3544665,0,,,,,,,,,,,,,,,,,,,,,,,,,,,,,,,,,,0,0,0,0,0,0,0,0,0,0,0,0,0,0,0,0,,,,,,,,,,,
3544685,0,0.0,179.24,,-0.04,-0.01,1.0,-0,-0,0,1.0,1.08,93,2346,0.0,3.26,,12.89,1.143,100.6,,24.9,5,,,,,,,,,,,,0,0,0,0,0,0,0,0,0,0,0,0,0,0,0,0,,,,,0.0,,,,,,
3544705,0,,,,,,,,,,,,,,,,,,,,,,,,,,,,,,,,,,0,0,0,0,0,0,0,0,0,0,0,0,0,0,0,0,,,,,,,,,,,
3544725,0,0.0,179.24,,-0.04,0.01,1.01,-0,-0,1,1.01,1.08,94,2346,0.0,3.26,,13.03,1.153,100.6,,24.9,5,,,,,,,,,,,,0,0,0,0,0,0,0,0,0,0,0,0,0,0,0,0,,,,,0.0,,,,,,
3544745,0,,,,,,,,,,,,,,,,,,,,,,,0,0,0,0,0.0,0.0,0.0,0.0,2.27,,,0,0,0,0,0,0,0,0,0,0,0,0,0,0,0,0,0,,,,,0.0,0.0,0.0,0,0,0.0
3544765,0,0.0,179.36,,-0.04,-0.01,0.99,-0,-0,0,1.0,1.08,93,2261,0.0,3.29,,13.2,1.182,100.6,,23.7,5,,,,,,,,,,,,0,0,0,0,0,0,0,0,0,0,0,0,0,0,0,0,,,,,0.0,,,,,,
3544785,0,,,,,,,,,,,,,,,,,,,,,,,,,,,,,,,,,,0,0,0,0,0,0,0,0,0,0,0,0,0,0,0,0,,,,,,,,,,,
3544805,0,0.0,179.36,,-0.04,-0.0,1.01,-0,-0,0,1.01,1.08,94,2414,0.0,3.26,,13.16,1.188,100.6,,23.7,5,,,,,,,,,,,,0,0,0,0,0,0,0,0,0,0,0,0,0,0,0,0,,,,,0.0,,,,,,
3544825,0,,,,,,,,,,,,,,,,,,,,,,,,,,,,,,,,,,0,0,0,0,0,0,0,0,0,0,0,0,0,0,0,0,,,,,,,,,,,
3544845,0,0.0,179.36,13.58,-0.05,0.0,1.01,-0,-0,0,1.01,1.08,94,2407,0.0,3.28,15,13.24,1.25,100.6,178,23.7,5,0,0,0,0,0.0,0.0,0.0,0.0,2.27,0,1.0,0,0,0,0,0,0,0,0,0,0,0,0,0,0,0,0,0,0.0,0,-0,0.0,0.0,0.0,0.0,0,0,0.0
3544865,0,,,,,,,,,,,,,,,,,,,,,,,,,,,,,,,,,,0,0,0,0,0,0,0,0,0,0,0,0,0,0,0,0,,,,,,,,,,,
3544885,0,0.0,179.36,,-0.04,0.0,1.0,-0,-0,0,1.01,1.08,94,2345,0.0,3.27,,13.24,1.25,100.6,,23.7,5,,,,,,,,,,,,0,0,0,0,0,0,0,0,0,0,0,0,0,0,0,0,,,,,0.0,,,,,,
3544905,0,,,,,,,,,,,,,,,,,,,,,,,,,,,,,,,,,,0,0,0,0,0,0,0,0,0,0,0,0,0,0,0,0,,,,,,,,,,,
3544925,0,0.0,179.36,,-0.03,-0.02,0.99,-0,-0,0,0.99,1.08,92,2345,0.0,3.27,,13.31,1.246,100.6,,23.7,5,,,,,,,,,,,,0,0,0,0,0,0,0,0,0,0,0,0,0,0,0,0,,,,,0.0,,,,,,
3544945,0,,,,,,,,,,,,,,,,,,,,,,,0,0,0,0,0.0,0.0,0.0,0.0,2.26,,,0,0,0,0,0,0,0,0,0,0,0,0,0,0,0,0,0,,,,,0.0,0.0,0.0,0,0,0.0
3544965,0,0.0,179.24,,-0.03,-0.02,1.0,-0,-0,0,1.0,1.08,93,2220,0.0,3.28,,13.41,1.201,100.6,,22.4,5,,,,,,,,,,,,0,0,0,0,0,0,0,0,0,0,0,0,0,0,0,0,,,,,0.0,,,,,,
3544985,0,,,,,,,,,,,,,,,,,,,,,,,,,,,,,,,,,,0,0,0,0,0,0,0,0,0,0,0,0,0,0,0,0,,,,,,,,,,,
3545005,0,0.0,179.36,,-0.04,0.0,1.0,-0,-0,0,1.0,1.08,93,2115,0.0,3.3,,13.4,1.151,100.6,,22.4,5,,,,,,,,,,,,0,0,0,0,0,0,0,0,0,0,0,0,0,0,0,0,,,,,0.0,,,,,,
3545025,0,,,,,,,,,,,,,,,,,,,,,,,,,,,,,,,,,,0,0,0,0,0,0,0,0,0,0,0,0,0,0,0,0,,,,,,,,,,,
3545045,0,0.0,179.24,,-0.06,0.02,0.99,-0,-0,0,1.0,1.08,93,1954,0.0,3.32,,13.49,1.126,100.6,,22.4,5,0,0,0,0,0.0,0.0,0.0,0.0,2.26,,,0,0,0,0,0,0,0,0,0,0,0,0,0,0,0,0,0,,,,0.0,0.0,0.0,0.0,0,0,0.0
3545065,0,,,,,,,,,,,,,,,,,,,,,,,,,,,,,,,,,,0,0,0,0,0,0,0,0,0,0,0,0,0,0,0,0,,,,,,,,,,,
3545085,0,0.0,179.24,,-0.05,0.0,1.02,-0,-0,1,1.02,1.08,95,1967,0.0,3.33,,13.49,1.126,100.6,,20.1,5,,,,,,,,,,,,0,0,0,0,0,0,0,0,0,0,0,0,0,0,0,0,,,,,0.0,,,,,,
3545105,0,,,,,,,,,,,,,,,,,,,,,,,,,,,,,,,,,,0,0,0,0,0,0,0,0,0,0,0,0,0,0,0,0,,,,,,,,,,,
3545125,0,0.0,179.24,,-0.07,0.01,0.99,-0,-0,0,1.0,1.08,93,1967,0.0,3.33,,13.61,1.139,100.6,,20.1,5,,,,,,,,,,,,0,0,0,0,0,0,0,0,0,0,0,0,0,0,0,0,,,,,0.0,,,,,,
3545145,0,,,,,,,,,,,,,,,,,,,,,,,0,0,0,0,0.0,0.0,0.0,0.0,2.27,,,0,0,0,0,0,0,0,0,0,0,0,0,0,0,0,0,0,,,,,0.0,0.0,0.0,0,0,0.0
3545165,0,0.0,179.24,,-0.05,-0.0,0.99,-0,-0,0,0.99,1.08,92,1863,0.0,3.35,,13.76,1.17,100.6,,18.8,5,,,,,,,,,,,,0,0,0,0,0,0,0,0,0,0,0,0,0,0,0,0,,,,,0.0,,,,,,
3545185,0,,,,,,,,,,,,,,,,,,,,,,,,,,,,,,,,,,0,0,0,0,0,0,0,0,0,0,0,0,0,0,0,0,,,,,,,,,,,
3545205,0,0.0,179.24,,-0.05,-0.01,1.01,-0,-0,0,1.01,1.08,94,1762,0.0,3.35,,13.87,1.199,100.6,,18.8,5,,,,,,,,,,,,0,0,0,0,0,0,0,0,0,0,0,0,0,0,0,0,,,,,0.0,,,,,,
3545225,0,,,,,,,,,,,,,,,,,,,,,,,,,,,,,,,,,,0,0,0,0,0,0,0,0,0,0,0,0,0,0,0,0,,,,,,,,,,,
3545245,0,0.0,179.24,,-0.07,-0.01,1.02,-0,-0,0,1.02,1.08,95,1555,0.0,3.35,,13.82,1.228,100.6,,18.8,5,0,0,0,0,0.0,0.0,0.0,0.0,2.27,,,0,0,0,0,0,0,0,0,0,0,0,0,0,0,0,0,0,,,,0.0,0.0,0.0,0.0,0,0,0.0
3545265,0,,,,,,,,,,,,,,,,,,,,,,,,,,,,,,,,,,0,0,0,0,0,0,0,0,0,0,0,0,0,0,0,0,,,,,,,,,,,
3545285,0,0.0,179.24,,-0.1,0.01,1.02,-0,-0,0,1.02,1.08,95,1576,0.0,3.38,,13.82,1.228,100.6,,16.5,5,,,,,,,,,,,,0,0,0,0,0,0,0,0,0,0,0,0,0,0,0,0,,,,,0.0,,,,,,
3545305,0,,,,,,,,,,,,,,,,,,,,,,,,,,,,,,,,,,0,0,0,0,0,0,0,0,0,0,0,0,0,0,0,0,,,,,,,,,,,
3545325,0,0.0,179.24,,-0.11,0.01,1.01,-0,-0,0,1.02,1.08,95,1576,0.0,3.38,,14.0,1.238,100.6,,16.5,5,,,,,,,,,,,,0,0,0,0,0,0,0,0,0,0,0,0,0,0,0,0,,,,,0.0,,,,,,
3545345,0,,,,,,,,,,,,,,,,,,,,,,,0,0,0,0,0.0,0.0,0.0,0.0,2.27,,,0,0,0,0,0,0,0,0,0,0,0,0,0,0,0,0,0,,,,,0.0,0.0,0.0,0,0,0.0
3545365,0,0.0,179.11,,-0.13,0.03,1.03,-0,-0,0,1.04,1.08,96,1472,0.0,3.39,,13.98,1.246,100.6,,15.6,5,,,,,,,,,,,,0,0,0,0,0,0,0,0,0,0,0,0,0,0,0,0,,,,,0.0,,,,,,
3545385,0,,,,,,,,,,,,,,,,,,,,,,,,,,,,,,,,,,0,0,0,0,0,0,0,0,0,0,0,0,0,0,0,0,,,,,,,,,,,
3545405,0,0.0,179.24,,-0.12,0.02,1.03,-0,-0,0,1.03,1.08,96,1474,0.0,3.4,,14.1,1.251,100.6,,15.6,5,,,,,,,,,,,,0,0,0,0,0,0,0,0,0,0,0,0,0,0,0,0,,,,,0.0,,,,,,
3545425,0,,,,,,,,,,,,,,,,,,,,,,,,,,,,,,,,,,0,0,0,0,0,0,0,0,0,0,0,0,0,0,0,0,,,,,,,,,,,
3545445,0,0.0,179.24,,-0.08,0.02,1.03,-0,-0,0,1.03,1.08,96,1365,0.0,3.4,,14.15,1.252,100.6,,15.6,5,0,0,0,0,0.0,0.0,0.0,0.0,2.26,,,0,0,0,0,0,0,0,0,0,0,0,0,0,0,0,0,0,,,,0.0,0.0,0.0,0.0,0,0,0.0
3545465,0,,,,,,,,,,,,,,,,,,,,,,,,,,,,,,,,,,0,0,0,0,0,0,0,0,0,0,0,0,0,0,0,0,,,,,,,,,,,
3545485,0,0.0,179.24,,-0.08,0.02,1.03,-0,-0,0,1.03,1.08,96,1437,7.6,3.41,,14.15,1.252,100.6,,15.2,5,,,,,,,,,,,,0,0,0,0,0,0,0,0,0,0,0,0,0,0,0,0,,,,,0.0,,,,,,
3545505,0,,,,,,,,,,,,,,,,,,,,,,,,,,,,,,,,,,0,0,0,0,0,0,0,0,0,0,0,0,0,0,0,0,,,,,,,,,,,
3545525,0,0.0,179.24,,-0.08,0.04,1.03,-0,-0,0,1.04,1.08,96,1437,7.6,3.41,,14.28,1.252,100.6,,15.2,5,,,,,,,,,,,,0,0,0,0,0,0,0,0,0,0,0,0,0,0,0,0,,,,,0.0,,,,,,
3545545,0,,,,,,,,,,,,,,,,,,,,,,,0,0,0,0,0.0,0.0,0.0,0.0,2.26,,,0,0,0,0,0,0,0,0,0,0,0,0,0,0,0,0,0,,,,,0.0,0.0,0.0,0,0,0.0
3545565,0,0.0,179.24,,-0.09,0.04,1.03,-0,-0,0,1.04,1.08,96,1256,10.1,3.79,,14.36,1.247,100.6,,14.5,5,,,,,,,,,,,,0,0,0,0,0,0,0,0,0,0,0,0,0,0,0,0,,,,,0.0,,,,,,
3545585,0,,,,,,,,,,,,,,,,,,,,,,,,,,,,,,,,,,0,0,0,0,0,0,0,0,0,0,0,0,0,0,0,0,,,,,,,,,,,
3545605,0,0.0,179.36,,-0.07,0.06,1.01,-1,-0,0,1.01,1.08,94,1183,9.9,3.68,,14.38,1.249,100.6,,14.5,5,,,,,,,,,,,,0,0,0,0,0,0,0,0,0,0,0,0,0,0,0,0,,,,,0.0,,,,,,
3545625,0,,,,,,,,,,,,,,,,,,,,,,,,,,,,,,,,,,0,0,0,0,0,0,0,0,0,0,0,0,0,0,0,0,,,,,,,,,,,
3545645,0,0.0,179.36,,-0.06,0.02,1.0,-1,-0,1,1.0,1.08,93,1512,5.0,3.68,,14.35,1.248,100.6,,14.5,5,0,0,0,0,0.0,0.0,0.0,0.0,2.27,,,0,0,0,0,0,0,0,0,0,0,0,0,0,0,0,0,0,,,,0.0,0.0,0.0,0.0,0,0,0.0
3545665,0,,,,,,,,,,,,,,,,,,,,,,,,,,,,,,,,,,0,0,0,0,0,0,0,0,0,0,0,0,0,0,0,0,,,,,,,,,,,
3545685,0,0.0,179.36,,-0.05,0.01,0.98,-1,-0,1,0.98,1.08,92,1448,4.6,3.75,,14.35,1.248,100.6,,15.3,5,,,,,,,,,,,,0,0,0,0,0,0,0,0,0,0,0,0,0,0,0,0,,,,,0.0,,,,,,
3545705,0,,,,,,,,,,,,,,,,,,,,,,,,,,,,,,,,,,0,0,0,0,0,0,0,0,0,0,0,0,0,0,0,0,,,,,,,,,,,
3545725,0,0.0,179.24,,-0.04,0.0,0.98,-1,-0,1,0.98,1.08,91,1448,4.6,3.75,,14.3,1.248,100.6,,15.3,5,,,,,,,,,,,,0,0,0,0,0,0,0,0,0,0,0,0,0,0,0,0,,,,,0.0,,,,,,
3545745,0,,,,,,,,,,,,,,,,,,,,,,,0,0,0,0,0.0,0.0,0.0,0.0,2.27,,,0,0,0,0,0,0,0,0,0,0,0,0,0,0,0,0,0,,,,,0.0,0.0,0.0,0,0,0.0
3545765,0,0.0,179.36,,-0.03,-0.02,0.96,-1,-0,1,0.97,1.08,90,1538,4.6,3.73,,14.28,1.249,100.6,,15.3,5,,,,,,,,,,,,0,0,0,0,0,0,0,0,0,0,0,0,0,0,0,0,,,,,0.0,,,,,,
3545785,0,,,,,,,,,,,,,,,,,,,,,,,,,,,,,,,,,,0,0,0,0,0,0,0,0,0,0,0,0,0,0,0,0,,,,,,,,,,,
3545805,0,0.0,179.36,,-0.02,-0.04,0.97,-1,-0,1,0.97,1.08,90,1597,2.0,3.61,,14.2,1.25,100.6,,15.3,5,,,,,,,,,,,,0,0,0,0,0,0,0,0,0,0,0,0,0,0,0,0,,,,,0.0,,,,,,
3545825,0,,,,,,,,,,,,,,,,,,,,,,,,,,,,,,,,,,0,0,0,0,0,0,0,0,0,0,0,0,0,0,0,0,,,,,,,,,,,
3545845,0,0.0,179.24,13.58,0.01,-0.02,0.99,-1,-0,1,0.99,1.08,92,1540,0.0,3.38,15,14.2,1.251,100.6,178,15.3,5,0,0,0,0,0.0,0.0,0.0,0.0,2.27,0,1.0,0,0,0,0,0,0,0,0,0,0,0,0,0,0,0,0,0,0.0,0,-0,0.0,0.0,0.0,0.0,0,0,0.0
3545865,0,,,,,,,,,,,,,,,,,,,,,,,,,,,,,,,,,,0,0,0,0,0,0,0,0,0,0,0,0,0,0,0,0,,,,,,,,,,,
3545885,0,0.0,179.24,,0.02,-0.01,1.01,-1,-0,1,1.01,1.08,94,1591,0.0,3.39,,14.2,1.251,100.6,,15.9,5,,,,,,,,,,,,0,0,0,0,0,0,0,0,0,0,0,0,0,0,0,0,,,,,0.0,,,,,,
3545905,0,,,,,,,,,,,,,,,,,,,,,,,,,,,,,,,,,,0,0,0,0,0,0,0,0,0,0,0,0,0,0,0,0,,,,,,,,,,,
3545925,0,0.0,179.24,,0.02,-0.02,1.01,-1,-0,1,1.01,1.08,94,1591,0.0,3.39,,14.04,1.25,100.6,,15.9,5,,,,,,,,,,,,0,0,0,0,0,0,0,0,0,0,0,0,0,0,0,0,,,,,0.0,,,,,,
3545945,0,,,,,,,,,,,,,,,,,,,,,,,0,0,0,0,0.0,0.0,0.0,0.0,2.27,,,0,0,0,0,0,0,0,0,0,0,0,0,0,0,0,0,0,,,,,0.0,0.0,0.0,0,0,0.0
3545965,0,0.0,179.24,,0.0,-0.03,1.03,-1,-0,0,1.03,1.08,96,1592,0.0,3.39,,14.07,1.251,100.6,,16.5,5,,,,,,,,,,,,0,0,0,0,0,0,0,0,0,0,0,0,0,0,0,0,,,,,0.0,,,,,,
3545985,0,,,,,,,,,,,,,,,,,,,,,,,,,,,,,,,,,,0,0,0,0,0,0,0,0,0,0,0,0,0,0,0,0,,,,,,,,,,,
3546005,0,0.0,179.24,,-0.01,-0.02,1.04,-0,-0,0,1.04,1.08,97,1509,0.0,3.39,,14.1,1.251,100.6,,16.5,5,,,,,,,,,,,,0,0,0,0,0,0,0,0,0,0,0,0,0,0,0,0,,,,,0.0,,,,,,
3546025,0,,,,,,,,,,,,,,,,,,,,,,,,,,,,,,,,,,0,0,0,0,0,0,0,0,0,0,0,0,0,0,0,0,,,,,,,,,,,
3546045,0,0.0,179.24,,-0.03,-0.0,1.05,-0,-0,0,1.05,1.08,98,1517,0.0,3.39,,14.04,1.249,100.6,,16.5,5,0,0,0,0,0.0,0.0,0.0,0.0,2.26,,,0,0,0,0,0,0,0,0,0,0,0,0,0,0,0,0,0,,,,0.0,0.0,0.0,0.0,0,0,0.0
3546065,0,,,,,,,,,,,,,,,,,,,,,,,,,,,,,,,,,,0,0,0,0,0,0,0,0,0,0,0,0,0,0,0,0,,,,,,,,,,,
3546085,0,0.0,179.24,,-0.01,-0.02,1.04,-0,-0,0,1.04,1.08,97,1424,0.0,3.38,,14.04,1.249,100.6,,15.5,5,,,,,,,,,,,,0,0,0,0,0,0,0,0,0,0,0,0,0,0,0,0,,,,,0.0,,,,,,
3546105,0,,,,,,,,,,,,,,,,,,,,,,,,,,,,,,,,,,0,0,0,0,0,0,0,0,0,0,0,0,0,0,0,0,,,,,,,,,,,
3546125,0,0.0,179.24,,-0.01,-0.02,1.03,-0,-0,0,1.03,1.08,96,1424,0.0,3.38,,14.12,1.248,100.6,,15.5,5,,,,,,,,,,,,0,0,0,0,0,0,0,0,0,0,0,0,0,0,0,0,,,,,0.0,,,,,,
3546145,0,,,,,,,,,,,,,,,,,,,,,,,0,0,0,0,0.0,0.0,0.0,0.0,2.27,,,0,0,0,0,0,0,0,0,0,0,0,0,0,0,0,0,0,,,,,0.0,0.0,0.0,0,0,0.0
3546165,0,0.0,179.24,,-0.02,-0.03,1.03,-0,-0,0,1.03,1.08,96,1493,0.0,3.38,,14.14,1.248,100.6,,15.1,5,,,,,,,,,,,,0,0,0,0,0,0,0,0,0,0,0,0,0,0,0,0,,,,,0.0,,,,,,
3546185,0,,,,,,,,,,,,,,,,,,,,,,,,,,,,,,,,,,0,0,0,0,0,0,0,0,0,0,0,0,0,0,0,0,,,,,,,,,,,
3546205,0,0.0,179.24,,-0.02,-0.03,1.02,-0,-0,0,1.02,1.08,95,1457,0.0,3.39,,14.08,1.248,100.6,,15.1,5,,,,,,,,,,,,0,0,0,0,0,0,0,0,0,0,0,0,0,0,0,0,,,,,0.0,,,,,,
3546225,0,,,,,,,,,,,,,,,,,,,,,,,,,,,,,,,,,,0,0,0,0,0,0,0,0,0,0,0,0,0,0,0,0,,,,,,,,,,,
3546245,0,0.0,179.24,,-0.01,-0.01,1.02,-0,-0,0,1.02,1.08,95,1373,0.0,3.4,,14.18,1.249,100.6,,15.1,5,0,0,0,0,0.0,0.0,0.0,0.0,2.27,,,0,0,0,0,0,0,0,0,0,0,0,0,0,0,0,0,0,,,,0.0,0.0,0.0,0.0,0,0,0.0
3546265,0,,,,,,,,,,,,,,,,,,,,,,,,,,,,,,,,,,0,0,0,0,0,0,0,0,0,0,0,0,0,0,0,0,,,,,,,,,,,
3546285,0,0.0,179.24,,-0.01,0.01,1.0,-0,-0,0,1.0,1.08,93,1468,0.0,3.41,,14.18,1.249,100.6,,15.1,5,,,,,,,,,,,,0,0,0,0,0,0,0,0,0,0,0,0,0,0,0,0,,,,,0.0,,,,,,
3546305,0,,,,,,,,,,,,,,,,,,,,,,,,,,,,,,,,,,0,0,0,0,0,0,0,0,0,0,0,0,0,0,0,0,,,,,,,,,,,
3546325,0,0.0,179.24,,-0.0,0.02,1.0,-0,-0,0,1.0,1.08,93,1468,0.0,3.41,,14.14,1.25,100.6,,15.1,5,,,,,,,,,,,,0,0,0,0,0,0,0,0,0,0,0,0,0,0,0,0,,,,,0.0,,,,,,
3546345,0,,,,,,,,,,,,,,,,,,,,,,,0,0,0,0,0.0,0.0,0.0,0.0,2.27,,,0,0,0,0,0,0,0,0,0,0,0,0,0,0,0,0,0,,,,,0.0,0.0,0.0,0,0,0.0
3546365,0,0.0,179.24,,-0.03,0.03,1.03,-0,-0,0,1.03,1.08,96,1339,0.0,3.41,,14.12,1.251,100.6,,14.7,5,,,,,,,,,,,,0,0,0,0,0,0,0,0,0,0,0,0,0,0,0,0,,,,,0.0,,,,,,
3546385,0,,,,,,,,,,,,,,,,,,,,,,,,,,,,,,,,,,0,0,0,0,0,0,0,0,0,0,0,0,0,0,0,0,,,,,,,,,,,
3546405,0,0.0,179.24,,-0.03,0.03,1.03,-0,-0,0,1.03,1.08,96,1387,0.0,3.42,,14.15,1.25,100.6,,14.7,5,,,,,,,,,,,,0,0,0,0,0,0,0,0,0,0,0,0,0,0,0,0,,,,,0.0,,,,,,
3546425,0,,,,,,,,,,,,,,,,,,,,,,,,,,,,,,,,,,0,0,0,0,0,0,0,0,0,0,0,0,0,0,0,0,,,,,,,,,,,
3546445,0,0.0,179.24,,-0.02,0.03,1.04,-0,-0,0,1.04,1.08,96,1307,0.0,3.4,,14.24,1.251,100.6,,14.7,5,0,0,0,0,0.0,0.0,0.0,0.0,2.26,,,0,0,0,0,0,0,0,0,0,0,0,0,0,0,0,0,0,,,,0.0,0.0,0.0,0.0,0,0,0.0
3546465,0,,,,,,,,,,,,,,,,,,,,,,,,,,,,,,,,,,0,0,0,0,0,0,0,0,0,0,0,0,0,0,0,0,,,,,,,,,,,
3546485,0,0.0,179.24,,-0.01,0.03,1.03,-0,-0,0,1.03,1.08,96,1463,0.0,3.41,,14.24,1.251,100.6,,15.3,5,,,,,,,,,,,,0,0,0,0,0,0,0,0,0,0,0,0,0,0,0,0,,,,,0.0,,,,,,
3546505,0,,,,,,,,,,,,,,,,,,,,,,,,,,,,,,,,,,0,0,0,0,0,0,0,0,0,0,0,0,0,0,0,0,,,,,,,,,,,
3546525,0,0.0,179.24,,-0.03,0.06,1.03,-0,-0,0,1.04,1.08,96,1463,0.0,3.41,,14.12,1.251,100.6,,15.3,5,,,,,,,,,,,,0,0,0,0,0,0,0,0,0,0,0,0,0,0,0,0,,,,,0.0,,,,,,
3546545,0,,,,,,,,,,,,,,,,,,,,,,,0,0,0,0,0.0,0.0,0.0,0.0,2.27,,,0,0,0,0,0,0,0,0,0,0,0,0,0,0,0,0,0,,,,,0.0,0.0,0.0,0,0,0.0
3546565,0,0.0,179.24,,-0.03,0.04,1.03,0,-0,0,1.04,1.08,96,1375,0.0,3.41,,14.12,1.249,100.6,,15.0,5,,,,,,,,,,,,0,0,0,0,0,0,0,0,0,0,0,0,0,0,0,0,,,,,0.0,,,,,,
3546585,0,,,,,,,,,,,,,,,,,,,,,,,,,,,,,,,,,,0,0,0,0,0,0,0,0,0,0,0,0,0,0,0,0,,,,,,,,,,,
3546605,0,0.0,179.24,,-0.02,0.0,1.03,0,-0,0,1.03,1.08,95,1286,0.0,3.41,,14.19,1.248,100.6,,15.0,5,,,,,,,,,,,,0,0,0,0,0,0,0,0,0,0,0,0,0,0,0,0,,,,,0.0,,,,,,
3546625,0,,,,,,,,,,,,,,,,,,,,,,,,,,,,,,,,,,0,0,0,0,0,0,0,0,0,0,0,0,0,0,0,0,,,,,,,,,,,
3546645,0,0.0,179.24,,-0.01,-0.01,1.02,0,-0,0,1.02,1.08,95,1435,0.0,3.41,,14.19,1.248,100.6,,15.0,5,0,0,0,0,0.0,0.0,0.0,0.0,2.27,,,0,0,0,0,0,0,0,0,0,0,0,0,0,0,0,0,0,,,,0.0,0.0,0.0,0.0,0,0,0.0
3546665,0,,,,,,,,,,,,,,,,,,,,,,,,,,,,,,,,,,0,0,0,0,0,0,0,0,0,0,0,0,0,0,0,0,,,,,,,,,,,
3546685,0,0.0,179.11,,-0.02,-0.02,1.0,0,-0,0,1.0,1.08,93,1329,0.0,3.41,,14.19,1.248,100.6,,15.2,5,,,,,,,,,,,,0,0,0,0,0,0,0,0,0,0,0,0,0,0,0,0,,,,,0.0,,,,,,
3546705,0,,,,,,,,,,,,,,,,,,,,,,,,,,,,,,,,,,0,0,0,0,0,0,0,0,0,0,0,0,0,0,0,0,,,,,,,,,,,
3546725,0,0.0,179.11,,-0.02,-0.04,0.98,0,-0,0,0.99,1.08,92,1329,0.0,3.41,,14.14,1.248,100.6,,15.2,5,,,,,,,,,,,,0,0,0,0,0,0,0,0,0,0,0,0,0,0,0,0,,,,,0.0,,,,,,
3546745,0,,,,,,,,,,,,,,,,,,,,,,,0,0,0,0,0.0,0.0,0.0,0.0,2.27,,,0,0,0,0,0,0,0,0,0,0,0,0,0,0,0,0,0,,,,,0.0,0.0,0.0,0,0,0.0
3546765,0,0.0,179.11,,-0.02,-0.05,0.98,0,-0,0,0.99,1.08,92,1427,0.0,3.42,,14.14,1.249,100.6,,14.3,5,,,,,,,,,,,,0,0,0,0,0,0,0,0,0,0,0,0,0,0,0,0,,,,,0.0,,,,,,
3546785,0,,,,,,,,,,,,,,,,,,,,,,,,,,,,,,,,,,0,0,0,0,0,0,0,0,0,0,0,0,0,0,0,0,,,,,,,,,,,
3546805,0,0.0,179.11,,-0.05,-0.03,1.01,-0,-0,0,1.01,1.08,94,1311,0.0,3.4,,14.27,1.25,100.6,,14.3,5,,,,,,,,,,,,0,0,0,0,0,0,0,0,0,0,0,0,0,0,0,0,,,,,0.0,,,,,,
3546825,0,,,,,,,,,,,,,,,,,,,,,,,,,,,,,,,,,,0,0,0,0,0,0,0,0,0,0,0,0,0,0,0,0,,,,,,,,,,,
3546845,0,0.0,179.11,13.56,-0.05,-0.03,1.0,0,-0,0,1.0,1.08,93,1390,0.0,3.42,15,14.2,1.25,100.6,178,14.3,5,0,0,0,0,0.0,0.0,0.0,0.0,2.28,0,1.0,0,0,0,0,0,0,0,0,0,0,0,0,0,0,0,0,0,0.0,0,-0,0.0,0.0,0.0,0.0,0,0,0.0
3546865,0,,,,,,,,,,,,,,,,,,,,,,,,,,,,,,,,,,0,0,0,0,0,0,0,0,0,0,0,0,0,0,0,0,,,,,,,,,,,
3546885,0,0.0,179.11,,-0.05,-0.06,0.98,0,-0,0,0.98,1.08,91,1379,0.0,3.42,,14.2,1.25,100.6,,14.0,5,,,,,,,,,,,,0,0,0,0,0,0,0,0,0,0,0,0,0,0,0,0,,,,,0.0,,,,,,
3546905,0,,,,,,,,,,,,,,,,,,,,,,,,,,,,,,,,,,0,0,0,0,0,0,0,0,0,0,0,0,0,0,0,0,,,,,,,,,,,
3546925,0,0.0,179.11,,-0.05,-0.05,0.97,0,-0,0,0.98,1.08,91,1379,0.0,3.42,,14.15,1.251,100.6,,14.0,5,,,,,,,,,,,,0,0,0,0,0,0,0,0,0,0,0,0,0,0,0,0,,,,,0.0,,,,,,
3546945,0,,,,,,,,,,,,,,,,,,,,,,,0,0,0,0,0.0,0.0,0.0,0.0,2.26,,,0,0,0,0,0,0,0,0,0,0,0,0,0,0,0,0,0,,,,,0.0,0.0,0.0,0,0,0.0
3546965,0,0.0,179.11,,-0.06,-0.04,1.0,0,-0,0,1.01,1.08,94,1274,0.0,3.41,,14.12,1.251,100.6,,14.0,5,,,,,,,,,,,,0,0,0,0,0,0,0,0,0,0,0,0,0,0,0,0,,,,,0.0,,,,,,
3546985,0,,,,,,,,,,,,,,,,,,,,,,,,,,,,,,,,,,0,0,0,0,0,0,0,0,0,0,0,0,0,0,0,0,,,,,,,,,,,
3547005,0,0.0,179.11,,-0.07,-0.03,1.0,0,-0,0,1.01,1.08,94,1380,0.0,3.43,,14.22,1.25,100.6,,14.0,5,,,,,,,,,,,,0,0,0,0,0,0,0,0,0,0,0,0,0,0,0,0,,,,,0.0,,,,,,
3547025,0,,,,,,,,,,,,,,,,,,,,,,,,,,,,,,,,,,0,0,0,0,0,0,0,0,0,0,0,0,0,0,0,0,,,,,,,,,,,
3547045,0,0.0,179.11,,-0.07,-0.04,0.98,0,-0,0,0.98,1.08,91,1269,0.0,3.41,,14.27,1.249,100.6,,14.0,5,0,0,0,0,0.0,0.0,0.0,0.0,2.26,,,0,0,0,0,0,0,0,0,0,0,0,0,0,0,0,0,0,,,,0.0,0.0,0.0,0.0,0,0,0.0
3547065,0,,,,,,,,,,,,,,,,,,,,,,,,,,,,,,,,,,0,0,0,0,0,0,0,0,0,0,0,0,0,0,0,0,,,,,,,,,,,
3547085,0,0.0,179.24,,-0.05,-0.04,0.97,-0,-0,0,0.97,1.08,90,1350,0.0,3.43,,14.27,1.249,100.6,,14.3,5,,,,,,,,,,,,0,0,0,0,0,0,0,0,0,0,0,0,0,0,0,0,,,,,0.0,,,,,,
3547105,0,,,,,,,,,,,,,,,,,,,,,,,,,,,,,,,,,,0,0,0,0,0,0,0,0,0,0,0,0,0,0,0,0,,,,,,,,,,,
3547125,0,0.0,179.11,,-0.05,-0.03,0.98,-0,-0,0,0.98,1.08,91,1350,0.0,3.43,,14.22,1.248,100.6,,14.3,5,,,,,,,,,,,,0,0,0,0,0,0,0,0,0,0,0,0,0,0,0,0,,,,,0.0,,,,,,
3547145,0,,,,,,,,,,,,,,,,,,,,,,,0,0,0,0,0.0,0.0,0.0,0.0,2.27,,,0,0,0,0,0,0,0,0,0,0,0,0,0,0,0,0,0,,,,,0.0,0.0,0.0,0,0,0.0
3547165,0,0.0,179.24,,-0.05,-0.04,0.97,0,-0,0,0.98,1.08,91,1246,0.0,3.42,,14.2,1.248,100.6,,14.5,5,,,,,,,,,,,,0,0,0,0,0,0,0,0,0,0,0,0,0,0,0,0,,,,,0.0,,,,,,
3547185,0,,,,,,,,,,,,,,,,,,,,,,,,,,,,,,,,,,0,0,0,0,0,0,0,0,0,0,0,0,0,0,0,0,,,,,,,,,,,
3547205,0,0.0,179.11,,-0.05,-0.02,0.98,0,-0,0,0.98,1.08,91,1387,0.0,3.42,,14.12,1.248,100.6,,14.5,5,,,,,,,,,,,,0,0,0,0,0,0,0,0,0,0,0,0,0,0,0,0,,,,,0.0,,,,,,
3547225,0,,,,,,,,,,,,,,,,,,,,,,,,,,,,,,,,,,0,0,0,0,0,0,0,0,0,0,0,0,0,0,0,0,,,,,,,,,,,
3547245,0,0.0,179.11,,-0.04,0.01,0.98,0,-0,0,0.98,1.08,91,1266,0.0,3.4,,14.22,1.25,100.6,,14.5,5,0,0,0,0,0.0,0.0,0.0,0.0,2.27,,,0,0,0,0,0,0,0,0,0,0,0,0,0,0,0,0,0,,,,0.0,0.0,0.0,0.0,0,0,0.0
3547265,0,,,,,,,,,,,,,,,,,,,,,,,,,,,,,,,,,,0,0,0,0,0,0,0,0,0,0,0,0,0,0,0,0,,,,,,,,,,,
3547285,0,0.0,179.11,,-0.04,0.0,0.97,0,-0,0,0.98,1.08,91,1380,0.0,3.42,,14.22,1.25,100.6,,14.9,5,,,,,,,,,,,,0,0,0,0,0,0,0,0,0,0,0,0,0,0,0,0,,,,,0.0,,,,,,
3547305,0,,,,,,,,,,,,,,,,,,,,,,,,,,,,,,,,,,0,0,0,0,0,0,0,0,0,0,0,0,0,0,0,0,,,,,,,,,,,
3547325,0,0.0,179.11,,-0.02,-0.03,0.98,0,-0,-0,0.98,1.08,91,1380,0.0,3.42,,14.24,1.252,100.6,,14.9,5,,,,,,,,,,,,0,0,0,0,0,0,0,0,0,0,0,0,0,0,0,0,,,,,0.0,,,,,,
3547345,0,,,,,,,,,,,,,,,,,,,,,,,0,0,0,0,0.0,0.0,0.0,0.0,2.27,,,0,0,0,0,0,0,0,0,0,0,0,0,0,0,0,0,0,,,,,0.0,0.0,0.0,0,0,0.0
3547365,0,0.0,179.24,,-0.02,-0.02,0.99,0,-0,-0,0.99,1.08,92,1281,0.0,3.41,,14.24,1.252,100.6,,14.6,5,,,,,,,,,,,,0,0,0,0,0,0,0,0,0,0,0,0,0,0,0,0,,,,,0.0,,,,,,
3547385,0,,,,,,,,,,,,,,,,,,,,,,,,,,,,,,,,,,0,0,0,0,0,0,0,0,0,0,0,0,0,0,0,0,,,,,,,,,,,
3547405,0,0.0,179.24,,-0.04,-0.02,0.98,0,-0,-0,0.98,1.08,91,1365,0.0,3.41,,14.19,1.252,102.4,,14.6,5,,,,,,,,,,,,0,0,0,0,0,0,0,0,0,0,0,0,0,0,0,0,,,,,0.0,,,,,,
3547425,0,,,,,,,,,,,,,,,,,,,,,,,,,,,,,,,,,,0,0,0,0,0,0,0,0,0,0,0,0,0,0,0,0,,,,,,,,,,,
3547445,0,0.0,179.11,,-0.07,-0.02,0.99,0,-0,-0,0.99,1.08,92,1333,0.0,3.43,,14.16,1.252,102.4,,14.6,5,0,0,0,0,0.0,0.0,0.0,0.0,2.26,,,0,0,0,0,0,0,0,0,0,0,0,0,0,0,0,0,0,,,,0.0,0.0,0.0,0.0,0,0,0.0
3547465,0,,,,,,,,,,,,,,,,,,,,,,,,,,,,,,,,,,0,0,0,0,0,0,0,0,0,0,0,0,0,0,0,0,,,,,,,,,,,
3547485,0,0.0,179.24,,-0.07,-0.03,0.98,0,-0,-0,0.98,1.08,91,1222,0.0,3.42,,14.16,1.252,102.4,,14.5,5,,,,,,,,,,,,0,0,0,0,0,0,0,0,0,0,0,0,0,0,0,0,,,,,0.0,,,,,,
3547505,0,,,,,,,,,,,,,,,,,,,,,,,,,,,,,,,,,,0,0,0,0,0,0,0,0,0,0,0,0,0,0,0,0,,,,,,,,,,,
3547525,0,0.0,179.11,,-0.06,-0.06,0.96,0,-0,0,0.96,1.08,89,1222,0.0,3.42,,14.15,1.25,102.4,,14.5,5,,,,,,,,,,,,0,0,0,0,0,0,0,0,0,0,0,0,0,0,0,0,,,,,0.0,,,,,,
3547545,0,,,,,,,,,,,,,,,,,,,,,,,0,0,0,0,0.0,0.0,0.0,0.0,2.27,,,0,0,0,0,0,0,0,0,0,0,0,0,0,0,0,0,0,,,,,0.0,0.0,0.0,0,0,0.0
3547565,0,0.0,179.11,,-0.05,-0.05,0.96,-0,-0,0,0.96,1.08,90,1336,0.0,3.43,,14.2,1.249,102.4,,14.4,5,,,,,,,,,,,,0,0,0,0,0,0,0,0,0,0,0,0,0,0,0,0,,,,,0.0,,,,,,
3547585,0,,,,,,,,,,,,,,,,,,,,,,,,,,,,,,,,,,0,0,0,0,0,0,0,0,0,0,0,0,0,0,0,0,,,,,,,,,,,
3547605,0,0.0,179.24,,-0.03,-0.08,0.98,-0,-0,0,0.98,1.08,91,1215,0.0,3.42,,14.23,1.248,102.4,,14.4,5,,,,,,,,,,,,0,0,0,0,0,0,0,0,0,0,0,0,0,0,0,0,,,,,0.0,,,,,,
3547625,0,,,,,,,,,,,,,,,,,,,,,,,,,,,,,,,,,,0,0,0,0,0,0,0,0,0,0,0,0,0,0,0,0,,,,,,,,,,,
3547645,0,0.0,179.24,,-0.02,-0.08,0.98,-0,-0,0,0.99,1.08,92,1318,0.0,3.43,,14.27,1.248,102.4,,14.4,5,0,0,0,0,0.0,0.0,0.0,0.0,2.27,,,0,0,0,0,0,0,0,0,0,0,0,0,0,0,0,0,0,,,,0.0,0.0,0.0,0.0,0,0,0.0
3547665,0,,,,,,,,,,,,,,,,,,,,,,,,,,,,,,,,,,0,0,0,0,0,0,0,0,0,0,0,0,0,0,0,0,,,,,,,,,,,
3547685,0,0.0,179.24,,-0.03,-0.07,1.0,-0,-0,0,1.0,1.08,93,1187,0.0,3.42,,14.27,1.248,102.4,,14.0,5,,,,,,,,,,,,0,0,0,0,0,0,0,0,0,0,0,0,0,0,0,0,,,,,0.0,,,,,,
3547705,0,,,,,,,,,,,,,,,,,,,,,,,,,,,,,,,,,,0,0,0,0,0,0,0,0,0,0,0,0,0,0,0,0,,,,,,,,,,,
3547725,0,0.0,179.11,,-0.02,-0.02,1.0,-0,-0,0,1.0,1.08,93,1187,0.0,3.42,,14.3,1.249,102.4,,14.0,5,,,,,,,,,,,,0,0,0,0,0,0,0,0,0,0,0,0,0,0,0,0,,,,,0.0,,,,,,
3547745,0,,,,,,,,,,,,,,,,,,,,,,,0,0,0,0,0.0,0.0,0.0,0.0,2.27,,,0,0,0,0,0,0,0,0,0,0,0,0,0,0,0,0,0,,,,,0.0,0.0,0.0,0,0,0.0
3547765,0,0.0,179.11,,-0.02,-0.02,1.01,-0,-0,0,1.01,1.08,94,1264,0.0,3.41,,14.28,1.251,102.4,,13.7,5,,,,,,,,,,,,0,0,0,0,0,0,0,0,0,0,0,0,0,0,0,0,,,,,0.0,,,,,,
3547785,0,,,,,,,,,,,,,,,,,,,,,,,,,,,,,,,,,,0,0,0,0,0,0,0,0,0,0,0,0,0,0,0,0,,,,,,,,,,,
3547805,0,0.0,179.24,,-0.04,-0.02,1.02,-0,-0,0,1.02,1.08,95,1173,0.0,3.42,,14.31,1.251,102.4,,13.7,5,,,,,,,,,,,,0,0,0,0,0,0,0,0,0,0,0,0,0,0,0,0,,,,,0.0,,,,,,
3547825,0,,,,,,,,,,,,,,,,,,,,,,,,,,,,,,,,,,0,0,0,0,0,0,0,0,0,0,0,0,0,0,0,0,,,,,,,,,,,
3547845,0,0.0,179.11,13.53,-0.05,-0.01,1.01,-0,-0,0,1.01,1.08,94,1362,0.0,3.41,15,14.2,1.252,102.4,178,13.7,5,0,0,0,0,0.0,0.0,0.0,0.0,2.27,0,1.0,0,0,0,0,0,0,0,0,0,0,0,0,0,0,0,0,0,0.0,0,-0,0.0,0.0,0.0,0.0,0,0,0.0
3547865,0,,,,,,,,,,,,,,,,,,,,,,,,,,,,,,,,,,0,0,0,0,0,0,0,0,0,0,0,0,0,0,0,0,,,,,,,,,,,
3547885,0,0.0,179.11,,-0.05,-0.03,1.0,-0,-0,0,1.0,1.08,93,1238,0.0,3.4,,14.2,1.252,102.4,,14.0,5,,,,,,,,,,,,0,0,0,0,0,0,0,0,0,0,0,0,0,0,0,0,,,,,0.0,,,,,,
3547905,0,,,,,,,,,,,,,,,,,,,,,,,,,,,,,,,,,,0,0,0,0,0,0,0,0,0,0,0,0,0,0,0,0,,,,,,,,,,,
3547925,0,0.0,179.11,,-0.04,0.0,0.99,-0,-0,0,0.99,1.08,92,1238,0.0,3.4,,14.2,1.251,102.4,,14.0,5,,,,,,,,,,,,0,0,0,0,0,0,0,0,0,0,0,0,0,0,0,0,,,,,0.0,,,,,,
3547945,0,,,,,,,,,,,,,,,,,,,,,,,0,0,0,0,0.0,0.0,0.0,0.0,2.26,,,0,0,0,0,0,0,0,0,0,0,0,0,0,0,0,0,0,,,,,0.0,0.0,0.0,0,0,0.0
3547965,0,0.0,179.11,,-0.02,-0.0,0.99,-0,-0,0,0.99,1.08,92,1358,0.0,3.42,,14.14,1.25,102.4,,14.0,5,,,,,,,,,,,,0,0,0,0,0,0,0,0,0,0,0,0,0,0,0,0,,,,,0.0,,,,,,
3547985,0,,,,,,,,,,,,,,,,,,,,,,,,,,,,,,,,,,0,0,0,0,0,0,0,0,0,0,0,0,0,0,0,0,,,,,,,,,,,
3548005,0,0.0,179.11,,-0.01,-0.02,1.01,-0,-0,0,1.01,1.08,94,1242,0.0,3.4,,14.2,1.249,102.4,,14.0,5,,,,,,,,,,,,0,0,0,0,0,0,0,0,0,0,0,0,0,0,0,0,,,,,0.0,,,,,,
3548025,0,,,,,,,,,,,,,,,,,,,,,,,,,,,,,,,,,,0,0,0,0,0,0,0,0,0,0,0,0,0,0,0,0,,,,,,,,,,,
3548045,0,0.0,179.11,,-0.02,-0.03,1.0,-0,-0,0,1.0,1.08,93,1324,0.0,3.42,,14.2,1.248,102.4,,14.0,5,0,0,0,0,0.0,0.0,0.0,0.0,2.26,,,0,0,0,0,0,0,0,0,0,0,0,0,0,0,0,0,0,,,,0.0,0.0,0.0,0.0,0,0,0.0
3548065,0,,,,,,,,,,,,,,,,,,,,,,,,,,,,,,,,,,0,0,0,0,0,0,0,0,0,0,0,0,0,0,0,0,,,,,,,,,,,
3548085,0,0.0,179.11,,-0.03,-0.01,1.01,-0,-0,0,1.02,1.08,94,1203,0.0,3.4,,14.2,1.248,102.4,,13.4,5,,,,,,,,,,,,0,0,0,0,0,0,0,0,0,0,0,0,0,0,0,0,,,,,0.0,,,,,,
3548105,0,,,,,,,,,,,,,,,,,,,,,,,,,,,,,,,,,,0,0,0,0,0,0,0,0,0,0,0,0,0,0,0,0,,,,,,,,,,,
3548125,0,0.0,179.11,,-0.04,-0.01,1.01,-0,-0,0,1.01,1.08,94,1203,0.0,3.4,,14.3,1.248,102.4,,13.4,5,,,,,,,,,,,,0,0,0,0,0,0,0,0,0,0,0,0,0,0,0,0,,,,,0.0,,,,,,
3548145,0,,,,,,,,,,,,,,,,,,,,,,,0,0,0,0,0.0,0.0,0.0,0.0,2.27,,,0,0,0,0,0,0,0,0,0,0,0,0,0,0,0,0,0,,,,,0.0,0.0,0.0,0,0,0.0
3548165,0,0.0,179.11,,-0.06,-0.0,1.0,-0,-0,0,1.01,1.08,94,1333,0.0,3.41,,14.27,1.248,102.4,,13.1,5,,,,,,,,,,,,0,0,0,0,0,0,0,0,0,0,0,0,0,0,0,0,,,,,0.0,,,,,,
3548185,0,,,,,,,,,,,,,,,,,,,,,,,,,,,,,,,,,,0,0,0,0,0,0,0,0,0,0,0,0,0,0,0,0,,,,,,,,,,,
3548205,0,0.0,179.11,,-0.08,-0.02,1.01,-0,-0,0,1.01,1.08,94,1187,0.0,3.41,,14.31,1.249,102.4,,13.1,5,,,,,,,,,,,,0,0,0,0,0,0,0,0,0,0,0,0,0,0,0,0,,,,,0.0,,,,,,
3548225,0,,,,,,,,,,,,,,,,,,,,,,,,,,,,,,,,,,0,0,0,0,0,0,0,0,0,0,0,0,0,0,0,0,,,,,,,,,,,
3548245,0,0.0,179.11,,-0.07,-0.01,1.0,-0,-0,0,1.0,1.08,93,1287,0.0,3.41,,14.28,1.251,102.4,,13.1,5,0,0,0,0,0.0,0.0,0.0,0.0,2.27,,,0,0,0,0,0,0,0,0,0,0,0,0,0,0,0,0,0,,,,0.0,0.0,0.0,0.0,0,0,0.0
3548265,0,,,,,,,,,,,,,,,,,,,,,,,,,,,,,,,,,,0,0,0,0,0,0,0,0,0,0,0,0,0,0,0,0,,,,,,,,,,,
3548285,0,0.0,179.11,,-0.06,-0.03,0.97,-0,-0,0,0.97,1.08,91,1379,0.0,3.41,,14.28,1.251,102.4,,13.4,5,,,,,,,,,,,,0,0,0,0,0,0,0,0,0,0,0,0,0,0,0,0,,,,,0.0,,,,,,
3548305,0,,,,,,,,,,,,,,,,,,,,,,,,,,,,,,,,,,0,0,0,0,0,0,0,0,0,0,0,0,0,0,0,0,,,,,,,,,,,
3548325,0,0.0,179.11,,-0.06,-0.03,0.97,-0,-0,0,0.98,1.08,91,1379,0.0,3.41,,14.2,1.251,102.4,,13.4,5,,,,,,,,,,,,0,0,0,0,0,0,0,0,0,0,0,0,0,0,0,0,,,,,0.0,,,,,,
3548345,0,,,,,,,,,,,,,,,,,,,,,,,0,0,0,0,0.0,0.0,0.0,0.0,2.27,,,0,0,0,0,0,0,0,0,0,0,0,0,0,0,0,0,0,,,,,0.0,0.0,0.0,0,0,0.0
3548365,0,0.0,179.11,,-0.05,-0.05,0.97,0,-0,-0,0.98,1.08,91,1250,0.0,3.42,,14.16,1.25,102.4,,13.6,5,,,,,,,,,,,,0,0,0,0,0,0,0,0,0,0,0,0,0,0,0,0,,,,,0.0,,,,,,
3548385,0,,,,,,,,,,,,,,,,,,,,,,,,,,,,,,,,,,0,0,0,0,0,0,0,0,0,0,0,0,0,0,0,0,,,,,,,,,,,
3548405,0,0.0,179.11,,-0.04,-0.05,0.98,0,-0,-0,0.99,1.08,92,1314,0.0,3.43,,14.16,1.25,102.4,,13.6,5,,,,,,,,,,,,0,0,0,0,0,0,0,0,0,0,0,0,0,0,0,0,,,,,0.0,,,,,,
3548425,0,,,,,,,,,,,,,,,,,,,,,,,,,,,,,,,,,,0,0,0,0,0,0,0,0,0,0,0,0,0,0,0,0,,,,,,,,,,,
3548445,0,0.0,178.98,,-0.05,-0.05,0.98,0,-0,-0,0.99,1.08,92,1214,0.0,3.41,,14.18,1.25,102.4,,13.6,5,0,0,0,0,0.0,0.0,0.0,0.0,2.26,,,0,0,0,0,0,0,0,0,0,0,0,0,0,0,0,0,0,,,,0.0,0.0,0.0,0.0,0,0,0.0
3548465,0,,,,,,,,,,,,,,,,,,,,,,,,,,,,,,,,,,0,0,0,0,0,0,0,0,0,0,0,0,0,0,0,0,,,,,,,,,,,
3548485,0,0.0,179.11,,-0.07,-0.05,0.98,0,-0,-0,0.98,1.08,91,1349,0.0,3.42,,14.18,1.25,102.4,,13.7,5,,,,,,,,,,,,0,0,0,0,0,0,0,0,0,0,0,0,0,0,0,0,,,,,0.0,,,,,,
3548505,0,,,,,,,,,,,,,,,,,,,,,,,,,,,,,,,,,,0,0,0,0,0,0,0,0,0,0,0,0,0,0,0,0,,,,,,,,,,,
3548525,0,0.0,178.98,,-0.1,-0.03,0.97,0,-0,-0,0.98,1.08,91,1349,0.0,3.42,,14.26,1.249,102.4,,13.7,5,,,,,,,,,,,,0,0,0,0,0,0,0,0,0,0,0,0,0,0,0,0,,,,,0.0,,,,,,
3548545,0,,,,,,,,,,,,,,,,,,,,,,,0,0,0,0,0.0,0.0,0.0,0.0,2.27,,,0,0,0,0,0,0,0,0,0,0,0,0,0,0,0,0,0,,,,,0.0,0.0,0.0,0,0,0.0
3548565,0,0.0,178.98,,-0.11,-0.04,0.96,-0,-0,0,0.97,1.08,90,1521,0.0,3.41,,14.1,1.248,102.4,,16.7,5,,,,,,,,,,,,0,0,0,0,0,0,0,0,0,0,0,0,0,0,0,0,,,,,0.0,,,,,,
3548585,0,,,,,,,,,,,,,,,,,,,,,,,,,,,,,,,,,,0,0,0,0,0,0,0,0,0,0,0,0,0,0,0,0,,,,,,,,,,,
3548605,0,0.0,178.98,,-0.09,-0.06,0.96,0,-0,-0,0.97,1.08,90,1794,0.0,3.37,,14.06,1.248,102.4,,16.7,5,,,,,,,,,,,,0,0,0,0,0,0,0,0,0,0,0,0,0,0,0,0,,,,,0.0,,,,,,
3548625,0,,,,,,,,,,,,,,,,,,,,,,,,,,,,,,,,,,0,0,0,0,0,0,0,0,0,0,0,0,0,0,0,0,,,,,,,,,,,
3548645,0,0.0,179.11,,-0.09,-0.06,0.95,0,-0,-0,0.96,1.08,89,1966,0.0,3.38,,14.0,1.247,102.4,,16.7,5,0,0,0,0,0.0,0.0,0.0,0.0,2.27,,,0,0,0,0,0,0,0,0,0,0,0,0,0,0,0,0,0,,,,0.0,0.0,0.0,0.0,0,0,0.0
3548665,0,,,,,,,,,,,,,,,,,,,,,,,,,,,,,,,,,,0,0,0,0,0,0,0,0,0,0,0,0,0,0,0,0,,,,,,,,,,,
3548685,0,0.0,179.11,,-0.08,-0.05,0.95,0,-0,-0,0.96,1.08,89,1945,0.0,3.36,,14.0,1.247,102.4,,18.8,5,,,,,,,,,,,,0,0,0,0,0,0,0,0,0,0,0,0,0,0,0,0,,,,,0.0,,,,,,
3548705,0,,,,,,,,,,,,,,,,,,,,,,,,,,,,,,,,,,0,0,0,0,0,0,0,0,0,0,0,0,0,0,0,0,,,,,,,,,,,
3548725,0,0.0,179.11,,-0.07,-0.06,0.95,0,-0,-0,0.96,1.08,89,1945,0.0,3.36,,13.94,1.249,102.4,,18.8,5,,,,,,,,,,,,0,0,0,0,0,0,0,0,0,0,0,0,0,0,0,0,,,,,0.0,,,,,,
3548745,0,,,,,,,,,,,,,,,,,,,,,,,0,0,0,0,0.0,0.0,0.0,0.0,2.27,,,0,0,0,0,0,0,0,0,0,0,0,0,0,0,0,0,0,,,,,0.0,0.0,0.0,0,0,0.0
3548765,0,0.0,179.11,,-0.08,-0.05,0.98,-0,-0,0,0.98,1.08,91,1858,0.0,3.36,,13.94,1.25,102.4,,18.7,5,,,,,,,,,,,,0,0,0,0,0,0,0,0,0,0,0,0,0,0,0,0,,,,,0.0,,,,,,
3548785,0,,,,,,,,,,,,,,,,,,,,,,,,,,,,,,,,,,0,0,0,0,0,0,0,0,0,0,0,0,0,0,0,0,,,,,,,,,,,
3548805,0,0.0,179.11,,-0.09,-0.02,0.96,0,-0,-0,0.96,1.08,89,1734,0.0,3.35,,13.99,1.213,102.4,,18.7,5,,,,,,,,,,,,0,0,0,0,0,0,0,0,0,0,0,0,0,0,0,0,,,,,0.0,,,,,,
3548825,0,,,,,,,,,,,,,,,,,,,,,,,,,,,,,,,,,,0,0,0,0,0,0,0,0,0,0,0,0,0,0,0,0,,,,,,,,,,,
3548845,0,0.0,179.11,13.68,-0.08,-0.03,0.95,0,-0,0,0.96,1.08,89,1780,0.0,3.37,15,13.98,1.209,102.4,178,18.7,5,0,0,0,0,0.0,0.0,0.0,0.0,2.27,0,1.0,0,0,0,0,0,0,0,0,0,0,0,0,0,0,0,0,0,0.0,0,-0,0.0,0.0,0.0,0.0,0,0,0.0
3548865,0,,,,,,,,,,,,,,,,,,,,,,,,,,,,,,,,,,0,0,0,0,0,0,0,0,0,0,0,0,0,0,0,0,,,,,,,,,,,
3548885,0,0.0,179.11,,-0.04,0.0,0.98,0,-0,0,0.98,1.08,91,1685,0.0,3.38,,13.98,1.209,102.4,,17.4,5,,,,,,,,,,,,0,0,0,0,0,0,0,0,0,0,0,0,0,0,0,0,,,,,0.0,,,,,,
3548905,0,,,,,,,,,,,,,,,,,,,,,,,,,,,,,,,,,,0,0,0,0,0,0,0,0,0,0,0,0,0,0,0,0,,,,,,,,,,,
3548925,0,0.0,179.11,,-0.06,0.03,0.99,-0,-0,0,1.0,1.08,93,1685,0.0,3.38,,14.02,1.224,102.4,,17.4,5,,,,,,,,,,,,0,0,0,0,0,0,0,0,0,0,0,0,0,0,0,0,,,,,0.0,,,,,,
3548945,0,,,,,,,,,,,,,,,,,,,,,,,0,0,0,0,0.0,0.0,0.0,0.0,2.26,,,0,0,0,0,0,0,0,0,0,0,0,0,0,0,0,0,0,,,,,0.0,0.0,0.0,0,0,0.0
3548965,0,0.0,179.11,,-0.07,0.02,1.01,-0,-0,0,1.01,1.08,94,1809,0.0,3.38,,13.99,1.221,102.4,,19.2,5,,,,,,,,,,,,0,0,0,0,0,0,0,0,0,0,0,0,0,0,0,0,,,,,0.0,,,,,,
3548985,0,,,,,,,,,,,,,,,,,,,,,,,,,,,,,,,,,,0,0,0,0,0,0,0,0,0,0,0,0,0,0,0,0,,,,,,,,,,,
3549005,0,0.0,179.11,,-0.07,0.02,0.99,-0,-0,0,1.0,1.08,93,1894,0.0,3.36,,13.88,1.224,102.4,,19.2,5,,,,,,,,,,,,0,0,0,0,0,0,0,0,0,0,0,0,0,0,0,0,,,,,0.0,,,,,,
3549025,0,,,,,,,,,,,,,,,,,,,,,,,,,,,,,,,,,,0,0,0,0,0,0,0,0,0,0,0,0,0,0,0,0,,,,,,,,,,,
3549045,0,0.0,179.11,,-0.06,0.02,1.02,-0,-0,0,1.02,1.08,95,1839,0.0,3.36,,13.82,1.225,102.4,,19.2,5,0,0,0,0,0.0,0.0,0.0,0.0,2.27,,,0,0,0,0,0,0,0,0,0,0,0,0,0,0,0,0,0,,,,0.0,0.0,0.0,0.0,0,0,0.0
3549065,0,,,,,,,,,,,,,,,,,,,,,,,,,,,,,,,,,,0,0,0,0,0,0,0,0,0,0,0,0,0,0,0,0,,,,,,,,,,,
3549085,0,0.0,179.11,,-0.07,0.03,1.0,-0,-0,0,1.0,1.08,93,1811,0.0,3.36,,13.82,1.225,102.4,,18.8,5,,,,,,,,,,,,0,0,0,0,0,0,0,0,0,0,0,0,0,0,0,0,,,,,0.0,,,,,,
3549105,0,,,,,,,,,,,,,,,,,,,,,,,,,,,,,,,,,,0,0,0,0,0,0,0,0,0,0,0,0,0,0,0,0,,,,,,,,,,,
3549125,0,0.0,179.11,,-0.06,0.01,1.0,-0,-0,0,1.0,1.08,93,1811,0.0,3.36,,13.88,1.228,102.4,,18.8,5,,,,,,,,,,,,0,0,0,0,0,0,0,0,0,0,0,0,0,0,0,0,,,,,0.0,,,,,,
3549145,0,,,,,,,,,,,,,,,,,,,,,,,0,0,0,0,0.0,0.0,0.0,0.0,2.27,,,0,0,0,0,0,0,0,0,0,0,0,0,0,0,0,0,0,,,,,0.0,0.0,0.0,0,0,0.0
3549165,0,0.0,179.11,,-0.07,0.0,1.02,-0,-0,0,1.02,1.08,95,1719,0.0,3.36,,13.96,1.234,102.4,,18.2,5,,,,,,,,,,,,0,0,0,0,0,0,0,0,0,0,0,0,0,0,0,0,,,,,0.0,,,,,,
3549185,0,,,,,,,,,,,,,,,,,,,,,,,,,,,,,,,,,,0,0,0,0,0,0,0,0,0,0,0,0,0,0,0,0,,,,,,,,,,,
3549205,0,0.0,179.11,,-0.09,-0.0,1.0,-0,-0,0,1.0,1.08,93,1694,0.0,3.36,,14.02,1.227,102.4,,18.2,5,,,,,,,,,,,,0,0,0,0,0,0,0,0,0,0,0,0,0,0,0,0,,,,,0.0,,,,,,
3549225,0,,,,,,,,,,,,,,,,,,,,,,,,,,,,,,,,,,0,0,0,0,0,0,0,0,0,0,0,0,0,0,0,0,,,,,,,,,,,
3549245,0,0.0,179.11,,-0.08,-0.02,0.98,-0,-0,0,0.98,1.08,91,1688,0.0,3.39,,13.99,1.201,102.4,,18.2,5,0,0,0,0,0.0,0.0,0.0,0.0,2.27,,,0,0,0,0,0,0,0,0,0,0,0,0,0,0,0,0,0,,,,0.0,0.0,0.0,0.0,0,0,0.0
3549265,0,,,,,,,,,,,,,,,,,,,,,,,,,,,,,,,,,,0,0,0,0,0,0,0,0,0,0,0,0,0,0,0,0,,,,,,,,,,,
3549285,0,0.0,179.11,,-0.08,-0.03,0.98,-0,-0,0,0.99,1.08,92,1631,0.0,3.39,,13.99,1.201,102.4,,16.5,5,,,,,,,,,,,,0,0,0,0,0,0,0,0,0,0,0,0,0,0,0,0,,,,,0.0,,,,,,
3549305,0,,,,,,,,,,,,,,,,,,,,,,,,,,,,,,,,,,0,0,0,0,0,0,0,0,0,0,0,0,0,0,0,0,,,,,,,,,,,
3549325,0,0.0,179.11,,-0.06,-0.04,0.98,-0,-0,0,0.99,1.08,92,1631,0.0,3.39,,14.0,1.201,102.4,,16.5,5,,,,,,,,,,,,0,0,0,0,0,0,0,0,0,0,0,0,0,0,0,0,,,,,0.0,,,,,,
3549345,0,,,,,,,,,,,,,,,,,,,,,,,0,0,0,0,0.0,0.0,0.0,0.0,2.26,,,0,0,0,0,0,0,0,0,0,0,0,0,0,0,0,0,0,,,,,0.0,0.0,0.0,0,0,0.0
3549365,0,0.0,179.11,,-0.05,-0.05,0.99,0,-0,0,0.99,1.08,92,1503,0.0,3.37,,14.14,1.195,102.4,,15.7,5,,,,,,,,,,,,0,0,0,0,0,0,0,0,0,0,0,0,0,0,0,0,,,,,0.0,,,,,,
3549385,0,,,,,,,,,,,,,,,,,,,,,,,,,,,,,,,,,,0,0,0,0,0,0,0,0,0,0,0,0,0,0,0,0,,,,,,,,,,,
3549405,0,0.0,179.11,,-0.04,-0.03,0.99,0,-0,0,0.99,1.08,92,1513,0.0,3.39,,14.02,1.206,102.4,,15.7,5,,,,,,,,,,,,0,0,0,0,0,0,0,0,0,0,0,0,0,0,0,0,,,,,0.0,,,,,,
3549425,0,,,,,,,,,,,,,,,,,,,,,,,,,,,,,,,,,,0,0,0,0,0,0,0,0,0,0,0,0,0,0,0,0,,,,,,,,,,,
3549445,0,0.0,179.11,,-0.04,-0.04,0.98,-0,-0,1,0.98,1.08,91,1428,0.0,3.38,,14.2,1.224,102.4,,15.7,5,0,0,0,0,0.0,0.0,0.0,0.0,2.26,,,0,0,0,0,0,0,0,0,0,0,0,0,0,0,0,0,0,,,,0.0,0.0,0.0,0.0,0,0,0.0
3549465,0,,,,,,,,,,,,,,,,,,,,,,,,,,,,,,,,,,0,0,0,0,0,0,0,0,0,0,0,0,0,0,0,0,,,,,,,,,,,
3549485,0,0.0,178.98,,-0.03,-0.05,0.98,-0,-0,0,0.98,1.08,91,1505,0.0,3.4,,14.2,1.224,102.4,,16.1,5,,,,,,,,,,,,0,0,0,0,0,0,0,0,0,0,0,0,0,0,0,0,,,,,0.0,,,,,,
3549505,0,,,,,,,,,,,,,,,,,,,,,,,,,,,,,,,,,,0,0,0,0,0,0,0,0,0,0,0,0,0,0,0,0,,,,,,,,,,,
3549525,0,0.0,178.98,,-0.03,-0.01,0.97,0,-0,0,0.98,1.08,91,1505,0.0,3.4,,14.11,1.248,102.4,,16.1,5,,,,,,,,,,,,0,0,0,0,0,0,0,0,0,0,0,0,0,0,0,0,,,,,0.0,,,,,,
3549545,0,,,,,,,,,,,,,,,,,,,,,,,0,0,0,0,0.0,0.0,0.0,0.0,2.27,,,0,0,0,0,0,0,0,0,0,0,0,0,0,0,0,0,0,,,,,0.0,0.0,0.0,0,0,0.0
3549565,0,0.0,179.11,,-0.04,-0.01,0.97,0,-0,0,0.97,1.08,90,1425,0.0,3.4,,14.11,1.248,102.4,,15.3,5,,,,,,,,,,,,0,0,0,0,0,0,0,0,0,0,0,0,0,0,0,0,,,,,0.0,,,,,,
3549585,0,,,,,,,,,,,,,,,,,,,,,,,,,,,,,,,,,,0,0,0,0,0,0,0,0,0,0,0,0,0,0,0,0,,,,,,,,,,,
3549605,0,0.0,179.11,,-0.04,-0.02,0.98,0,-0,0,0.98,1.08,91,1321,0.0,3.4,,14.19,1.247,102.4,,15.3,5,,,,,,,,,,,,0,0,0,0,0,0,0,0,0,0,0,0,0,0,0,0,,,,,0.0,,,,,,
3549625,0,,,,,,,,,,,,,,,,,,,,,,,,,,,,,,,,,,0,0,0,0,0,0,0,0,0,0,0,0,0,0,0,0,,,,,,,,,,,
3549645,0,0.0,179.11,,-0.04,-0.02,0.98,0,-0,0,0.98,1.08,92,1403,0.0,3.41,,14.19,1.249,102.4,,15.3,5,0,0,0,0,0.0,0.0,0.0,0.0,2.27,,,0,0,0,0,0,0,0,0,0,0,0,0,0,0,0,0,0,,,,0.0,0.0,0.0,0.0,0,0,0.0
3549665,0,,,,,,,,,,,,,,,,,,,,,,,,,,,,,,,,,,0,0,0,0,0,0,0,0,0,0,0,0,0,0,0,0,,,,,,,,,,,
3549685,0,0.0,179.11,,-0.04,0.01,0.99,0,-0,0,0.99,1.08,92,1272,0.0,3.4,,14.19,1.249,102.4,,14.5,5,,,,,,,,,,,,0,0,0,0,0,0,0,0,0,0,0,0,0,0,0,0,,,,,0.0,,,,,,
3549705,0,,,,,,,,,,,,,,,,,,,,,,,,,,,,,,,,,,0,0,0,0,0,0,0,0,0,0,0,0,0,0,0,0,,,,,,,,,,,
3549725,0,0.0,179.11,,-0.06,0.01,0.99,0,-0,0,0.99,1.08,92,1272,0.0,3.4,,14.22,1.251,102.4,,14.5,5,,,,,,,,,,,,0,0,0,0,0,0,0,0,0,0,0,0,0,0,0,0,,,,,0.0,,,,,,
3549745,0,,,,,,,,,,,,,,,,,,,,,,,0,0,0,0,0.0,0.0,0.0,0.0,2.27,,,0,0,0,0,0,0,0,0,0,0,0,0,0,0,0,0,0,,,,,0.0,0.0,0.0,0,0,0.0
3549765,0,0.0,179.11,,-0.06,-0.0,0.99,0,-0,0,0.99,1.08,92,1337,0.0,3.42,,14.15,1.252,102.4,,13.9,5,,,,,,,,,,,,0,0,0,0,0,0,0,0,0,0,0,0,0,0,0,0,,,,,0.0,,,,,,
3549785,0,,,,,,,,,,,,,,,,,,,,,,,,,,,,,,,,,,0,0,0,0,0,0,0,0,0,0,0,0,0,0,0,0,,,,,,,,,,,
3549805,0,0.0,179.11,,-0.05,-0.03,0.97,1,-0,0,0.97,1.08,91,1199,0.0,3.41,,14.18,1.251,102.4,,13.9,5,,,,,,,,,,,,0,0,0,0,0,0,0,0,0,0,0,0,0,0,0,0,,,,,0.0,,,,,,
3549825,0,,,,,,,,,,,,,,,,,,,,,,,,,,,,,,,,,,0,0,0,0,0,0,0,0,0,0,0,0,0,0,0,0,,,,,,,,,,,
3549845,0,0.0,179.11,13.6,-0.05,-0.02,0.97,0,-0,0,0.97,1.08,91,1321,0.0,3.42,15,14.16,1.251,102.4,180,13.9,5,0,0,0,0,0.0,0.0,0.0,0.0,2.27,0,1.0,0,0,0,0,0,0,0,0,0,0,0,0,0,0,0,0,0,0.0,0,-0,0.0,0.0,0.0,0.0,0,0,0.0
3549865,0,,,,,,,,,,,,,,,,,,,,,,,,,,,,,,,,,,0,0,0,0,0,0,0,0,0,0,0,0,0,0,0,0,,,,,,,,,,,
3549885,0,0.0,179.11,,-0.04,-0.05,0.98,1,-0,0,0.98,1.08,91,1210,0.0,3.42,,14.16,1.251,102.4,,13.6,5,,,,,,,,,,,,0,0,0,0,0,0,0,0,0,0,0,0,0,0,0,0,,,,,0.0,,,,,,
3549905,0,,,,,,,,,,,,,,,,,,,,,,,,,,,,,,,,,,0,0,0,0,0,0,0,0,0,0,0,0,0,0,0,0,,,,,,,,,,,
3549925,0,0.0,178.98,,-0.03,-0.03,0.98,0,-0,0,0.98,1.08,91,1210,0.0,3.42,,14.22,1.25,102.4,,13.6,5,,,,,,,,,,,,0,0,0,0,0,0,0,0,0,0,0,0,0,0,0,0,,,,,0.0,,,,,,
3549945,0,,,,,,,,,,,,,,,,,,,,,,,0,0,0,0,0.0,0.0,0.0,0.0,2.26,,,0,0,0,0,0,0,0,0,0,0,0,0,0,0,0,0,0,,,,,0.0,0.0,0.0,0,0,0.0
3549965,0,0.0,179.11,,-0.03,-0.04,0.97,0,-0,0,0.97,1.08,91,1260,0.0,3.41,,14.19,1.249,102.4,,13.3,5,,,,,,,,,,,,0,0,0,0,0,0,0,0,0,0,0,0,0,0,0,0,,,,,0.0,,,,,,
3549985,0,,,,,,,,,,,,,,,,,,,,,,,,,,,,,,,,,,0,0,0,0,0,0,0,0,0,0,0,0,0,0,0,0,,,,,,,,,,,
3550005,0,0.0,179.11,,-0.03,-0.05,0.99,0,-0,0,0.99,1.08,92,1138,0.0,3.42,,14.22,1.248,102.4,,13.3,5,,,,,,,,,,,,0,0,0,0,0,0,0,0,0,0,0,0,0,0,0,0,,,,,0.0,,,,,,
3550025,0,,,,,,,,,,,,,,,,,,,,,,,,,,,,,,,,,,0,0,0,0,0,0,0,0,0,0,0,0,0,0,0,0,,,,,,,,,,,
3550045,0,0.0,179.11,,-0.03,-0.06,0.99,0,-0,0,0.99,1.08,92,1237,0.0,3.42,,14.18,1.248,102.4,,13.3,5,0,0,0,0,0.0,0.0,0.0,0.0,2.27,,,0,0,0,0,0,0,0,0,0,0,0,0,0,0,0,0,0,,,,0.0,0.0,0.0,0.0,0,0,0.0
3550065,0,,,,,,,,,,,,,,,,,,,,,,,,,,,,,,,,,,0,0,0,0,0,0,0,0,0,0,0,0,0,0,0,0,,,,,,,,,,,
3550085,0,0.0,178.98,,-0.03,-0.02,0.99,0,-0,0,0.99,1.08,92,1104,0.0,3.43,,14.18,1.248,102.4,,13.1,5,,,,,,,,,,,,0,0,0,0,0,0,0,0,0,0,0,0,0,0,0,0,,,,,0.0,,,,,,
3550105,0,,,,,,,,,,,,,,,,,,,,,,,,,,,,,,,,,,0,0,0,0,0,0,0,0,0,0,0,0,0,0,0,0,,,,,,,,,,,
3550125,0,0.0,178.98,,-0.02,-0.04,0.98,0,-0,0,0.98,1.08,91,1104,0.0,3.43,,14.2,1.248,102.4,,13.1,5,,,,,,,,,,,,0,0,0,0,0,0,0,0,0,0,0,0,0,0,0,0,,,,,0.0,,,,,,
3550145,0,,,,,,,,,,,,,,,,,,,,,,,0,0,0,0,0.0,0.0,0.0,0.0,2.27,,,0,0,0,0,0,0,0,0,0,0,0,0,0,0,0,0,0,,,,,0.0,0.0,0.0,0,0,0.0
3550165,0,0.0,178.98,,-0.02,-0.03,0.98,0,-0,0,0.98,1.08,91,1275,0.0,3.43,,14.18,1.249,102.4,,13.2,5,,,,,,,,,,,,0,0,0,0,0,0,0,0,0,0,0,0,0,0,0,0,,,,,0.0,,,,,,
3550185,0,,,,,,,,,,,,,,,,,,,,,,,,,,,,,,,,,,0,0,0,0,0,0,0,0,0,0,0,0,0,0,0,0,,,,,,,,,,,
3550205,0,0.0,179.11,,-0.01,-0.03,1.0,-0,-0,0,1.0,1.08,93,1160,0.0,3.42,,14.22,1.25,102.4,,13.2,5,,,,,,,,,,,,0,0,0,0,0,0,0,0,0,0,0,0,0,0,0,0,,,,,0.0,,,,,,
3550225,0,,,,,,,,,,,,,,,,,,,,,,,,,,,,,,,,,,0,0,0,0,0,0,0,0,0,0,0,0,0,0,0,0,,,,,,,,,,,
3550245,0,0.0,178.98,,-0.02,-0.02,0.99,-0,-0,0,0.99,1.08,92,1307,0.0,3.43,,14.2,1.25,102.4,,13.2,5,0,0,0,0,0.0,0.0,0.0,0.0,2.27,,,0,0,0,0,0,0,0,0,0,0,0,0,0,0,0,0,0,,,,0.0,0.0,0.0,0.0,0,0,0.0
3550265,0,,,,,,,,,,,,,,,,,,,,,,,,,,,,,,,,,,0,0,0,0,0,0,0,0,0,0,0,0,0,0,0,0,,,,,,,,,,,
3550285,0,0.0,179.11,,-0.02,-0.03,0.99,0,-0,0,0.99,1.08,92,1173,0.0,3.42,,14.2,1.25,102.4,,13.3,5,,,,,,,,,,,,0,0,0,0,0,0,0,0,0,0,0,0,0,0,0,0,,,,,0.0,,,,,,
3550305,0,,,,,,,,,,,,,,,,,,,,,,,,,,,,,,,,,,0,0,0,0,0,0,0,0,0,0,0,0,0,0,0,0,,,,,,,,,,,
3550325,0,0.0,178.98,,-0.02,-0.03,1.0,0,-0,0,1.0,1.08,93,1173,0.0,3.42,,14.24,1.248,102.4,,13.3,5,,,,,,,,,,,,0,0,0,0,0,0,0,0,0,0,0,0,0,0,0,0,,,,,0.0,,,,,,
3550345,0,,,,,,,,,,,,,,,,,,,,,,,0,0,0,0,0.0,0.0,0.0,0.0,2.26,,,0,0,0,0,0,0,0,0,0,0,0,0,0,0,0,0,0,,,,,0.0,0.0,0.0,0,0,0.0
3550365,0,0.0,179.11,,-0.03,-0.03,1.01,0,-0,0,1.01,1.08,94,1285,0.0,3.42,,14.23,1.25,102.4,,13.2,5,,,,,,,,,,,,0,0,0,0,0,0,0,0,0,0,0,0,0,0,0,0,,,,,0.0,,,,,,
3550385,0,,,,,,,,,,,,,,,,,,,,,,,,,,,,,,,,,,0,0,0,0,0,0,0,0,0,0,0,0,0,0,0,0,,,,,,,,,,,
3550405,0,0.0,179.11,,-0.02,-0.01,1.01,0,-0,0,1.01,1.08,94,1172,0.0,3.42,,14.31,1.249,102.4,,13.2,5,,,,,,,,,,,,0,0,0,0,0,0,0,0,0,0,0,0,0,0,0,0,,,,,0.0,,,,,,
3550425,0,,,,,,,,,,,,,,,,,,,,,,,,,,,,,,,,,,0,0,0,0,0,0,0,0,0,0,0,0,0,0,0,0,,,,,,,,,,,
3550445,0,0.0,178.98,,-0.03,0.0,1.01,-0,-0,0,1.01,1.08,94,1293,0.0,3.4,,14.27,1.249,102.4,,13.2,5,0,0,0,0,0.0,0.0,0.0,0.0,2.26,,,0,0,0,0,0,0,0,0,0,0,0,0,0,0,0,0,0,,,,0.0,0.0,0.0,0.0,0,0,0.0
3550465,0,,,,,,,,,,,,,,,,,,,,,,,,,,,,,,,,,,0,0,0,0,0,0,0,0,0,0,0,0,0,0,0,0,,,,,,,,,,,
3550485,0,0.0,179.11,,-0.06,-0.02,1.0,0,-0,0,1.0,1.08,93,1174,0.0,3.4,,14.27,1.249,102.4,,13.3,5,,,,,,,,,,,,0,0,0,0,0,0,0,0,0,0,0,0,0,0,0,0,,,,,0.0,,,,,,
3550505,0,,,,,,,,,,,,,,,,,,,,,,,,,,,,,,,,,,0,0,0,0,0,0,0,0,0,0,0,0,0,0,0,0,,,,,,,,,,,
3550525,0,0.0,178.98,,-0.07,-0.0,1.0,0,-0,0,1.0,1.08,93,1174,0.0,3.4,,14.32,1.248,102.4,,13.3,5,,,,,,,,,,,,0,0,0,0,0,0,0,0,0,0,0,0,0,0,0,0,,,,,0.0,,,,,,
3550545,0,,,,,,,,,,,,,,,,,,,,,,,0,0,0,0,0.0,0.0,0.0,0.0,2.27,,,0,0,0,0,0,0,0,0,0,0,0,0,0,0,0,0,0,,,,,0.0,0.0,0.0,0,0,0.0
3550565,0,0.0,179.11,,-0.06,-0.01,1.0,0,-0,0,1.0,1.08,93,1327,0.0,3.41,,14.27,1.248,102.4,,13.6,5,,,,,,,,,,,,0,0,0,0,0,0,0,0,0,0,0,0,0,0,0,0,,,,,0.0,,,,,,
3550585,0,,,,,,,,,,,,,,,,,,,,,,,,,,,,,,,,,,0,0,0,0,0,0,0,0,0,0,0,0,0,0,0,0,,,,,,,,,,,
3550605,0,0.0,179.11,,-0.06,0.0,1.0,0,-0,-0,1.0,1.08,93,1211,0.0,3.4,,14.27,1.248,102.4,,13.6,5,,,,,,,,,,,,0,0,0,0,0,0,0,0,0,0,0,0,0,0,0,0,,,,,0.0,,,,,,
3550625,0,,,,,,,,,,,,,,,,,,,,,,,,,,,,,,,,,,0,0,0,0,0,0,0,0,0,0,0,0,0,0,0,0,,,,,,,,,,,
3550645,0,0.0,179.11,,-0.06,-0.01,1.01,0,-0,0,1.01,1.08,94,1282,0.0,3.41,,14.27,1.249,102.4,,13.6,5,0,0,0,0,0.0,0.0,0.0,0.0,2.27,,,0,0,0,0,0,0,0,0,0,0,0,0,0,0,0,0,0,,,,0.0,0.0,0.0,0.0,0,0,0.0
3550665,0,,,,,,,,,,,,,,,,,,,,,,,,,,,,,,,,,,0,0,0,0,0,0,0,0,0,0,0,0,0,0,0,0,,,,,,,,,,,
3550685,0,0.0,179.11,,-0.06,-0.03,0.99,0,-0,0,0.99,1.08,92,1360,0.0,3.41,,14.27,1.249,102.4,,13.4,5,,,,,,,,,,,,0,0,0,0,0,0,0,0,0,0,0,0,0,0,0,0,,,,,0.0,,,,,,
3550705,0,,,,,,,,,,,,,,,,,,,,,,,,,,,,,,,,,,0,0,0,0,0,0,0,0,0,0,0,0,0,0,0,0,,,,,,,,,,,
3550725,0,0.0,179.11,,-0.06,-0.04,0.98,0,-0,0,0.98,1.08,92,1360,0.0,3.41,,14.19,1.25,102.4,,13.4,5,,,,,,,,,,,,0,0,0,0,0,0,0,0,0,0,0,0,0,0,0,0,,,,,0.0,,,,,,
3550745,0,,,,,,,,,,,,,,,,,,,,,,,0,0,0,0,0.0,0.0,0.0,0.0,2.27,,,0,0,0,0,0,0,0,0,0,0,0,0,0,0,0,0,0,,,,,0.0,0.0,0.0,0,0,0.0
3550765,0,0.0,178.98,,-0.05,-0.04,0.99,1,-0,-0,0.99,1.08,92,1227,0.0,3.42,,14.16,1.25,102.4,,13.5,5,,,,,,,,,,,,0,0,0,0,0,0,0,0,0,0,0,0,0,0,0,0,,,,,0.0,,,,,,
3550785,0,,,,,,,,,,,,,,,,,,,,,,,,,,,,,,,,,,0,0,0,0,0,0,0,0,0,0,0,0,0,0,0,0,,,,,,,,,,,
3550805,0,0.0,179.11,,-0.05,-0.04,0.99,1,-0,-0,1.0,1.08,93,1310,0.0,3.43,,14.16,1.25,102.4,,13.5,5,,,,,,,,,,,,0,0,0,0,0,0,0,0,0,0,0,0,0,0,0,0,,,,,0.0,,,,,,
3550825,0,,,,,,,,,,,,,,,,,,,,,,,,,,,,,,,,,,0,0,0,0,0,0,0,0,0,0,0,0,0,0,0,0,,,,,,,,,,,
3550845,0,0.0,179.11,13.66,-0.06,-0.04,0.99,1,-0,-0,0.99,1.08,92,1214,0.0,3.41,15,14.18,1.25,102.4,180,13.5,5,0,0,0,0,0.0,0.0,0.0,0.0,2.26,0,1.0,0,0,0,0,0,0,0,0,0,0,0,0,0,0,0,0,0,0.0,0,0,0.0,0.0,0.0,0.0,0,0,0.0
3550865,0,,,,,,,,,,,,,,,,,,,,,,,,,,,,,,,,,,0,0,0,0,0,0,0,0,0,0,0,0,0,0,0,0,,,,,,,,,,,
3550885,0,0.0,179.11,,-0.08,-0.05,0.99,1,-0,-0,1.0,1.08,93,1362,0.0,3.42,,14.18,1.25,102.4,,13.8,5,,,,,,,,,,,,0,0,0,0,0,0,0,0,0,0,0,0,0,0,0,0,,,,,0.0,,,,,,
3550905,0,,,,,,,,,,,,,,,,,,,,,,,,,,,,,,,,,,0,0,0,0,0,0,0,0,0,0,0,0,0,0,0,0,,,,,,,,,,,
3550925,0,0.0,178.98,,-0.08,-0.04,0.98,0,-0,-0,0.99,1.08,92,1362,0.0,3.42,,14.26,1.25,102.4,,13.8,5,,,,,,,,,,,,0,0,0,0,0,0,0,0,0,0,0,0,0,0,0,0,,,,,0.0,,,,,,
3550945,0,,,,,,,,,,,,,,,,,,,,,,,0,0,0,0,0.0,0.0,0.0,0.0,2.26,,,0,0,0,0,0,0,0,0,0,0,0,0,0,0,0,0,0,,,,,0.0,0.0,0.0,0,0,0.0
3550965,0,0.0,179.11,,-0.07,-0.07,0.96,0,-0,-0,0.96,1.08,89,1223,0.0,3.42,,14.28,1.249,102.4,,14.0,5,,,,,,,,,,,,0,0,0,0,0,0,0,0,0,0,0,0,0,0,0,0,,,,,0.0,,,,,,
3550985,0,,,,,,,,,,,,,,,,,,,,,,,,,,,,,,,,,,0,0,0,0,0,0,0,0,0,0,0,0,0,0,0,0,,,,,,,,,,,
3551005,0,0.0,179.11,,-0.06,-0.06,0.96,0,-0,-0,0.96,1.08,90,1329,0.0,3.42,,14.24,1.248,102.4,,14.0,5,,,,,,,,,,,,0,0,0,0,0,0,0,0,0,0,0,0,0,0,0,0,,,,,0.0,,,,,,
3551025,0,,,,,,,,,,,,,,,,,,,,,,,,,,,,,,,,,,0,0,0,0,0,0,0,0,0,0,0,0,0,0,0,0,,,,,,,,,,,
3551045,0,0.0,179.11,,-0.04,-0.08,0.96,0,-0,-0,0.96,1.08,90,1229,0.0,3.41,,14.23,1.248,102.4,,14.0,5,0,0,0,0,0.0,0.0,0.0,0.0,2.27,,,0,0,0,0,0,0,0,0,0,0,0,0,0,0,0,0,0,,,,0.0,0.0,0.0,0.0,0,0,0.0
3551065,0,,,,,,,,,,,,,,,,,,,,,,,,,,,,,,,,,,0,0,0,0,0,0,0,0,0,0,0,0,0,0,0,0,,,,,,,,,,,
3551085,0,0.0,179.11,,-0.03,-0.06,0.97,0,-0,-0,0.97,1.08,91,1395,0.0,3.42,,14.23,1.248,102.4,,14.1,5,,,,,,,,,,,,0,0,0,0,0,0,0,0,0,0,0,0,0,0,0,0,,,,,0.0,,,,,,
3551105,0,,,,,,,,,,,,,,,,,,,,,,,,,,,,,,,,,,0,0,0,0,0,0,0,0,0,0,0,0,0,0,0,0,,,,,,,,,,,
3551125,0,0.0,179.11,,-0.05,-0.05,0.97,0,-0,-0,0.98,1.08,91,1395,0.0,3.42,,14.12,1.248,102.4,,14.1,5,,,,,,,,,,,,0,0,0,0,0,0,0,0,0,0,0,0,0,0,0,0,,,,,0.0,,,,,,
3551145,0,,,,,,,,,,,,,,,,,,,,,,,0,0,0,0,0.0,0.0,0.0,0.0,2.27,,,0,0,0,0,0,0,0,0,0,0,0,0,0,0,0,0,0,,,,,0.0,0.0,0.0,0,0,0.0
3551165,0,0.0,179.11,,-0.06,-0.07,0.97,0,-0,-0,0.98,1.08,91,1269,0.0,3.4,,14.18,1.249,102.4,,14.1,5,,,,,,,,,,,,0,0,0,0,0,0,0,0,0,0,0,0,0,0,0,0,,,,,0.0,,,,,,
3551185,0,,,,,,,,,,,,,,,,,,,,,,,,,,,,,,,,,,0,0,0,0,0,0,0,0,0,0,0,0,0,0,0,0,,,,,,,,,,,
3551205,0,0.0,179.11,,-0.06,-0.07,0.98,0,-0,-0,0.98,1.08,91,1335,0.0,3.43,,14.2,1.25,102.4,,14.1,5,,,,,,,,,,,,0,0,0,0,0,0,0,0,0,0,0,0,0,0,0,0,,,,,0.0,,,,,,
3551225,0,,,,,,,,,,,,,,,,,,,,,,,,,,,,,,,,,,0,0,0,0,0,0,0,0,0,0,0,0,0,0,0,0,,,,,,,,,,,
3551245,0,0.0,179.24,,-0.06,-0.06,0.97,1,-0,-0,0.98,1.08,91,1221,0.0,3.41,,14.3,1.25,102.4,,14.1,5,0,0,0,0,0.0,0.0,0.0,0.0,2.27,,,0,0,0,0,0,0,0,0,0,0,0,0,0,0,0,0,0,,,,0.0,0.0,0.0,0.0,0,0,0.0
3551265,0,,,,,,,,,,,,,,,,,,,,,,,,,,,,,,,,,,0,0,0,0,0,0,0,0,0,0,0,0,0,0,0,0,,,,,,,,,,,
3551285,0,0.0,179.24,,-0.06,-0.05,0.97,1,-0,-0,0.97,1.08,91,1342,0.0,3.43,,14.3,1.25,102.4,,14.2,5,,,,,,,,,,,,0,0,0,0,0,0,0,0,0,0,0,0,0,0,0,0,,,,,0.0,,,,,,
3551305,0,,,,,,,,,,,,,,,,,,,,,,,,,,,,,,,,,,0,0,0,0,0,0,0,0,0,0,0,0,0,0,0,0,,,,,,,,,,,
3551325,0,0.0,179.24,,-0.06,-0.03,0.98,1,-0,-0,0.98,1.08,91,1342,0.0,3.43,,14.27,1.251,102.4,,14.2,5,,,,,,,,,,,,0,0,0,0,0,0,0,0,0,0,0,0,0,0,0,0,,,,,0.0,,,,,,
3551345,0,,,,,,,,,,,,,,,,,,,,,,,0,0,0,0,0.0,0.0,0.0,0.0,2.26,,,0,0,0,0,0,0,0,0,0,0,0,0,0,0,0,0,0,,,,,0.0,0.0,0.0,0,0,0.0
3551365,0,0.0,179.24,,-0.05,-0.02,0.99,1,-0,-0,0.99,1.08,92,1230,0.0,3.42,,14.24,1.251,102.4,,14.5,5,,,,,,,,,,,,0,0,0,0,0,0,0,0,0,0,0,0,0,0,0,0,,,,,0.0,,,,,,
3551385,0,,,,,,,,,,,,,,,,,,,,,,,,,,,,,,,,,,0,0,0,0,0,0,0,0,0,0,0,0,0,0,0,0,,,,,,,,,,,
3551405,0,0.0,179.24,,-0.07,-0.01,0.98,1,-0,-0,0.98,1.08,91,1352,0.0,3.42,,14.2,1.251,102.4,,14.5,5,,,,,,,,,,,,0,0,0,0,0,0,0,0,0,0,0,0,0,0,0,0,,,,,0.0,,,,,,
3551425,0,,,,,,,,,,,,,,,,,,,,,,,,,,,,,,,,,,0,0,0,0,0,0,0,0,0,0,0,0,0,0,0,0,,,,,,,,,,,
3551445,0,0.0,179.24,,-0.1,-0.02,0.98,1,-0,-0,0.99,1.08,92,1327,0.0,3.43,,14.15,1.249,102.4,,14.5,5,0,0,0,0,0.0,0.0,0.0,0.0,2.26,,,0,0,0,0,0,0,0,0,0,0,0,0,0,0,0,0,0,,,,0.0,0.0,0.0,0.0,0,0,0.0
3551465,0,,,,,,,,,,,,,,,,,,,,,,,,,,,,,,,,,,0,0,0,0,0,0,0,0,0,0,0,0,0,0,0,0,,,,,,,,,,,
3551485,0,0.0,179.11,,-0.09,-0.01,0.98,0,-0,-0,0.98,1.08,91,1233,0.0,3.41,,14.15,1.249,102.4,,14.5,5,,,,,,,,,,,,0,0,0,0,0,0,0,0,0,0,0,0,0,0,0,0,,,,,0.0,,,,,,
3551505,0,,,,,,,,,,,,,,,,,,,,,,,,,,,,,,,,,,0,0,0,0,0,0,0,0,0,0,0,0,0,0,0,0,,,,,,,,,,,
3551525,0,0.0,179.11,,-0.09,-0.05,0.96,1,-0,-0,0.96,1.08,90,1233,0.0,3.41,,14.14,1.248,102.4,,14.5,5,,,,,,,,,,,,0,0,0,0,0,0,0,0,0,0,0,0,0,0,0,0,,,,,0.0,,,,,,
3551545,0,,,,,,,,,,,,,,,,,,,,,,,0,0,0,0,0.0,0.0,0.0,0.0,2.27,,,0,0,0,0,0,0,0,0,0,0,0,0,0,0,0,0,0,,,,,0.0,0.0,0.0,0,0,0.0
3551565,0,0.0,179.11,,-0.08,-0.05,0.96,1,-0,-0,0.96,1.08,89,1387,0.0,3.43,,14.23,1.247,102.4,,14.6,5,,,,,,,,,,,,0,0,0,0,0,0,0,0,0,0,0,0,0,0,0,0,,,,,0.0,,,,,,
3551585,0,,,,,,,,,,,,,,,,,,,,,,,,,,,,,,,,,,0,0,0,0,0,0,0,0,0,0,0,0,0,0,0,0,,,,,,,,,,,
3551605,0,0.0,179.11,,-0.08,-0.03,0.99,0,-0,0,0.99,1.08,92,1272,0.0,3.4,,14.27,1.248,102.4,,14.6,5,,,,,,,,,,,,0,0,0,0,0,0,0,0,0,0,0,0,0,0,0,0,,,,,0.0,,,,,,
3551625,0,,,,,,,,,,,,,,,,,,,,,,,,,,,,,,,,,,0,0,0,0,0,0,0,0,0,0,0,0,0,0,0,0,,,,,,,,,,,
3551645,0,0.0,179.24,,-0.09,-0.01,0.99,0,-0,-0,0.99,1.08,93,1386,0.0,3.43,,14.16,1.25,102.4,,14.6,5,0,0,0,0,0.0,0.0,0.0,0.0,2.26,,,0,0,0,0,0,0,0,0,0,0,0,0,0,0,0,0,0,,,,0.0,0.0,0.0,0.0,0,0,0.0
3551665,0,,,,,,,,,,,,,,,,,,,,,,,,,,,,,,,,,,0,0,0,0,0,0,0,0,0,0,0,0,0,0,0,0,,,,,,,,,,,
3551685,0,0.0,179.24,,-0.08,-0.03,0.97,0,-0,-0,0.97,1.08,90,1290,0.0,3.4,,14.16,1.25,102.4,,14.3,5,,,,,,,,,,,,0,0,0,0,0,0,0,0,0,0,0,0,0,0,0,0,,,,,0.0,,,,,,
3551705,0,,,,,,,,,,,,,,,,,,,,,,,,,,,,,,,,,,0,0,0,0,0,0,0,0,0,0,0,0,0,0,0,0,,,,,,,,,,,
3551725,0,0.0,179.24,,-0.07,-0.05,0.96,0,-0,0,0.96,1.08,89,1290,0.0,3.4,,14.16,1.252,102.4,,14.3,5,,,,,,,,,,,,0,0,0,0,0,0,0,0,0,0,0,0,0,0,0,0,,,,,0.0,,,,,,
3551745,0,,,,,,,,,,,,,,,,,,,,,,,0,0,0,0,0.0,0.0,0.0,0.0,2.27,,,0,0,0,0,0,0,0,0,0,0,0,0,0,0,0,0,0,,,,,0.0,0.0,0.0,0,0,0.0
3551765,0,0.0,179.11,,-0.06,-0.04,0.96,0,-0,0,0.96,1.08,90,1359,0.0,3.42,,14.15,1.251,102.4,,13.7,5,,,,,,,,,,,,0,0,0,0,0,0,0,0,0,0,0,0,0,0,0,0,,,,,0.0,,,,,,
3551785,0,,,,,,,,,,,,,,,,,,,,,,,,,,,,,,,,,,0,0,0,0,0,0,0,0,0,0,0,0,0,0,0,0,,,,,,,,,,,
3551805,0,0.0,179.24,,-0.05,-0.06,0.97,1,-0,-0,0.97,1.08,91,1224,0.0,3.42,,14.24,1.251,102.4,,13.7,5,,,,,,,,,,,,0,0,0,0,0,0,0,0,0,0,0,0,0,0,0,0,,,,,0.0,,,,,,
3551825,0,,,,,,,,,,,,,,,,,,,,,,,,,,,,,,,,,,0,0,0,0,0,0,0,0,0,0,0,0,0,0,0,0,,,,,,,,,,,
3551845,0,0.0,179.24,13.57,-0.05,-0.07,0.97,1,-0,-0,0.98,1.08,91,1332,0.0,3.43,15,14.23,1.252,102.4,180,13.7,5,0,0,0,0,0.0,0.0,0.0,0.0,2.26,0,1.0,0,0,0,0,0,0,0,0,0,0,0,0,0,0,0,0,0,0.0,0,0,0.0,0.0,0.0,0.0,0,0,0.0
3551865,0,,,,,,,,,,,,,,,,,,,,,,,,,,,,,,,,,,0,0,0,0,0,0,0,0,0,0,0,0,0,0,0,0,,,,,,,,,,,
3551885,0,0.0,179.24,,-0.08,-0.07,0.97,1,-0,-0,0.98,1.08,91,1226,0.0,3.4,,14.23,1.252,102.4,,13.6,5,,,,,,,,,,,,0,0,0,0,0,0,0,0,0,0,0,0,0,0,0,0,,,,,0.0,,,,,,
3551905,0,,,,,,,,,,,,,,,,,,,,,,,,,,,,,,,,,,0,0,0,0,0,0,0,0,0,0,0,0,0,0,0,0,,,,,,,,,,,
3551925,0,0.0,179.24,,-0.09,-0.05,0.97,1,-0,-0,0.98,1.08,91,1226,0.0,3.4,,14.31,1.25,102.4,,13.6,5,,,,,,,,,,,,0,0,0,0,0,0,0,0,0,0,0,0,0,0,0,0,,,,,0.0,,,,,,
3551945,0,,,,,,,,,,,,,,,,,,,,,,,0,0,0,0,0.0,0.0,0.0,0.0,2.26,,,0,0,0,0,0,0,0,0,0,0,0,0,0,0,0,0,0,,,,,0.0,0.0,0.0,0,0,0.0
3551965,0,0.0,179.24,,-0.08,-0.04,0.98,1,-0,-0,0.98,1.08,91,1295,0.0,3.43,,14.28,1.248,102.4,,13.6,5,,,,,,,,,,,,0,0,0,0,0,0,0,0,0,0,0,0,0,0,0,0,,,,,0.0,,,,,,
3551985,0,,,,,,,,,,,,,,,,,,,,,,,,,,,,,,,,,,0,0,0,0,0,0,0,0,0,0,0,0,0,0,0,0,,,,,,,,,,,
3552005,0,0.0,179.24,,-0.09,-0.03,0.97,1,-0,-0,0.98,1.08,91,1193,0.0,3.4,,14.27,1.248,102.4,,13.6,5,,,,,,,,,,,,0,0,0,0,0,0,0,0,0,0,0,0,0,0,0,0,,,,,0.0,,,,,,
3552025,0,,,,,,,,,,,,,,,,,,,,,,,,,,,,,,,,,,0,0,0,0,0,0,0,0,0,0,0,0,0,0,0,0,,,,,,,,,,,
3552045,0,0.0,179.24,,-0.08,-0.03,0.99,1,-0,-0,0.99,1.08,92,1338,0.0,3.41,,14.24,1.248,102.4,,13.6,5,0,0,0,0,0.0,0.0,0.0,0.0,2.27,,,0,0,0,0,0,0,0,0,0,0,0,0,0,0,0,0,0,,,,0.0,0.0,0.0,0.0,0,0,0.0
3552065,0,,,,,,,,,,,,,,,,,,,,,,,,,,,,,,,,,,0,0,0,0,0,0,0,0,0,0,0,0,0,0,0,0,,,,,,,,,,,
3552085,0,0.0,179.24,,-0.07,-0.03,0.98,1,-0,-0,0.98,1.08,91,1335,0.0,3.41,,14.24,1.248,102.4,,13.5,5,,,,,,,,,,,,0,0,0,0,0,0,0,0,0,0,0,0,0,0,0,0,,,,,0.0,,,,,,
3552105,0,,,,,,,,,,,,,,,,,,,,,,,,,,,,,,,,,,0,0,0,0,0,0,0,0,0,0,0,0,0,0,0,0,,,,,,,,,,,
3552125,0,0.0,179.24,,-0.07,-0.03,0.98,1,-0,-0,0.98,1.08,91,1335,0.0,3.41,,14.18,1.249,102.4,,13.5,5,,,,,,,,,,,,0,0,0,0,0,0,0,0,0,0,0,0,0,0,0,0,,,,,0.0,,,,,,
3552145,0,,,,,,,,,,,,,,,,,,,,,,,0,0,0,0,0.0,0.0,0.0,0.0,2.27,,,0,0,0,0,0,0,0,0,0,0,0,0,0,0,0,0,0,,,,,0.0,0.0,0.0,0,0,0.0
3552165,0,0.0,179.24,,-0.07,-0.02,0.98,1,-0,-0,0.98,1.08,91,1219,0.0,3.4,,14.16,1.25,102.4,,13.5,5,,,,,,,,,,,,0,0,0,0,0,0,0,0,0,0,0,0,0,0,0,0,,,,,0.0,,,,,,
3552185,0,,,,,,,,,,,,,,,,,,,,,,,,,,,,,,,,,,0,0,0,0,0,0,0,0,0,0,0,0,0,0,0,0,,,,,,,,,,,
3552205,0,0.0,179.24,,-0.06,-0.01,0.99,1,-0,-0,0.99,1.08,92,1324,0.0,3.43,,14.18,1.251,102.4,,13.5,5,,,,,,,,,,,,0,0,0,0,0,0,0,0,0,0,0,0,0,0,0,0,,,,,0.0,,,,,,
3552225,0,,,,,,,,,,,,,,,,,,,,,,,,,,,,,,,,,,0,0,0,0,0,0,0,0,0,0,0,0,0,0,0,0,,,,,,,,,,,
3552245,0,0.0,179.36,,-0.07,-0.0,0.98,1,-0,-0,0.98,1.08,91,1208,0.0,3.41,,14.19,1.251,102.4,,13.5,5,0,0,0,0,0.0,0.0,0.0,0.0,2.27,,,0,0,0,0,0,0,0,0,0,0,0,0,0,0,0,0,0,,,,0.0,0.0,0.0,0.0,0,0,0.0
3552265,0,,,,,,,,,,,,,,,,,,,,,,,,,,,,,,,,,,0,0,0,0,0,0,0,0,0,0,0,0,0,0,0,0,,,,,,,,,,,
3552285,0,0.0,179.24,,-0.1,-0.01,0.98,1,-0,-0,0.99,1.08,92,1356,0.0,3.41,,14.19,1.251,102.4,,13.5,5,,,,,,,,,,,,0,0,0,0,0,0,0,0,0,0,0,0,0,0,0,0,,,,,0.0,,,,,,
3552305,0,,,,,,,,,,,,,,,,,,,,,,,,,,,,,,,,,,0,0,0,0,0,0,0,0,0,0,0,0,0,0,0,0,,,,,,,,,,,
3552325,0,0.0,179.24,,-0.09,-0.01,0.98,1,-0,-0,0.98,1.08,91,1356,0.0,3.41,,14.26,1.25,102.4,,13.5,5,,,,,,,,,,,,0,0,0,0,0,0,0,0,0,0,0,0,0,0,0,0,,,,,0.0,,,,,,
3552345,0,,,,,,,,,,,,,,,,,,,,,,,0,0,0,0,0.0,0.0,0.0,0.0,2.26,,,0,0,0,0,0,0,0,0,0,0,0,0,0,0,0,0,0,,,,,0.0,0.0,0.0,0,0,0.0
3552365,0,0.0,179.36,,-0.08,-0.04,0.96,0,-0,-0,0.96,1.08,89,1237,0.0,3.41,,14.3,1.25,102.4,,13.8,5,,,,,,,,,,,,0,0,0,0,0,0,0,0,0,0,0,0,0,0,0,0,,,,,0.0,,,,,,
3552385,0,,,,,,,,,,,,,,,,,,,,,,,,,,,,,,,,,,0,0,0,0,0,0,0,0,0,0,0,0,0,0,0,0,,,,,,,,,,,
3552405,0,0.0,179.49,,-0.07,-0.03,0.96,0,-0,-0,0.97,1.08,90,1327,0.0,3.42,,14.24,1.249,102.4,,13.8,5,,,,,,,,,,,,0,0,0,0,0,0,0,0,0,0,0,0,0,0,0,0,,,,,0.0,,,,,,
3552425,0,,,,,,,,,,,,,,,,,,,,,,,,,,,,,,,,,,0,0,0,0,0,0,0,0,0,0,0,0,0,0,0,0,,,,,,,,,,,
