"Interval"|"ms"|0|0|1,"Utc"|"ms"|0|0|1,"FrontBP"|"psi"|-5.0|5.0|25,"SteerAng"|"Degrees"|-145|145|25,"Battery"|"Volts"|-5.0|20.0|1,"AccelX"|"G"|-3.0|3.0|25,"AccelY"|"G"|-3.0|3.0|25,"AccelZ"|"G"|-3.0|3.0|25,"Yaw"|"Deg/Sec"|-120|120|25,"Pitch"|"Deg/Sec"|-120|120|25,"Roll"|"Deg/Sec"|-120|120|25,"Gsum"|"G"|0.0|3.0|25,"GsumMax"|"G"|0.0|3.0|25,"GsumPct"|"%"|0|100|25,"RPM"|""|0|10000|25,"TPS"|"%"|0.0|100.0|25,"InjectorPW"|"ms"|0.0|100.0|25,"Baro"|"kPa"|0|105|1,"MAP"|"Psi"|0.0|255.0|25,"Lambda"|""|-2.0|2.0|25,"IAT"|"C"|0.0|200.0|25,"EngineTemp"|"C"|0|200|1,"EOP"|"PSI"|0.0|152.0|25,"EOT"|"F"|0|250|25,"WSFR"|"MPH"|0|150|10,"WSFL"|"MPH"|0|100|10,"WSRR"|"MPH"|0|100|10,"WSRL"|""|0|100|10,"TCSet"|"%"|0.0|100.0|10,"TCSlip"|"%"|0.0|100.0|10,"TCComp"|"deg"|0.0|50.0|10,"TCCut"|"%"|0.0|100.0|10,"Analog8"|""|0.0|5.0|10,"OilTemp"|"F"|0|300|1,"AA_On"|""|0.0|1.0|1,"ThermLF1"|"C"|0|400|50,"ThermLF2"|"C"|0|400|50,"ThermRR1"|"C"|0|400|50,"ThermRR2"|"C"|0|400|50,"ThermLF3"|"C"|0|400|50,"ThermLF4"|"C"|0|400|50,"ThermLF5"|"C"|0|400|50,"ThermLF6"|"C"|0|400|50,"ThermLF7"|"C"|0|400|50,"ThermLF8"|"C"|0|400|50,"ThermRR3"|"C"|0|400|50,"ThermRR4"|"C"|0|400|50,"ThermRR5"|"C"|0|400|50,"ThermRR6"|"C"|0|400|50,"ThermRR7"|"C"|0|400|50,"ThermRR8"|"C"|0|400|50,"AA_LowDrag"|""|0|1|1,"Gear"|""|1|6|10,"AA_On"|""|0.0|1.0|1,"AA_LowDrag"|""|0|1|1,"Fuel_Mix"|""|-10|10|1,"AA_Packages"|""|0.0|1000.0|25,"Latitude"|"Degrees"|-180.0|180.0|10,"Longitude"|"Degrees"|-180.0|180.0|10,"Speed"|"kph"|0.0|150.0|10,"Altitude"|"m"|0.0|4000.0|10,"GPSSats"|""|0|20|10,"GPSQual"|""|0|5|10,"GPSDOP"|""|0.0|20.0|10
132934,1745300601294,,,,,,,,,,,,,,,,,,,,,,,,,,,,,,,,,,0,0,0,0,0,0,0,0,0,0,0,0,0,0,0,0,,,,,,,,,,,,,
132954,1745300601314,9.55,-134,,-0.1,-0.04,0.96,2,-0,-0,0.96,0.96,100,4164,9.4,3.81,,12.57,1.178,88.0,,26.9,5,,,,,,,,,,,,0,0,0,0,0,0,0,0,0,0,0,0,0,0,0,0,,,,,,0.0,,,,,,,
132974,1745300601334,,,,,,,,,,,,,,,,,,,,,,,,,,,,,,,,,,0,0,0,0,0,0,0,0,0,0,0,0,0,0,0,0,,,,,,,,,,,,,
132994,1745300601354,9.55,-134,,-0.1,-0.12,0.95,1,-0,-0,0.97,0.97,100,4161,5.3,3.7,,12.39,1.175,88.0,,26.9,5,,,,,,,,,,,,0,0,0,0,0,0,0,0,0,0,0,0,0,0,0,0,,,,,,0.0,,,,,,,
133014,1745300601374,,,,,,,,,,,,,,,,,,,,,,,0,0,0,0,8.9,0.0,0.0,0.0,2.26,,,0,0,0,0,0,0,0,0,0,0,0,0,0,0,0,0,,0,,,,,38.986012,-76.950012,0.04,49.5,31,3,0.9
133034,1745300601394,8.92,-134,,-0.12,-0.05,0.97,2,-0,-0,0.98,0.98,100,4143,4.9,3.66,,12.09,1.18,88.0,,26.9,5,,,,,,,,,,,,0,0,0,0,0,0,0,0,0,0,0,0,0,0,0,0,,,,,,0.0,,,,,,,
133054,1745300601414,,,,,,,,,,,,,,,,,,,,,,,,,,,,,,,,,,0,0,0,0,0,0,0,0,0,0,0,0,0,0,0,0,,,,,,,,,,,,,
133074,1745300601434,9.55,-134,,-0.11,-0.09,0.95,1,-0,-0,0.96,0.98,99,4114,4.7,3.65,,11.97,1.166,88.0,,26.3,5,,,,,,,,,,,,0,0,0,0,0,0,0,0,0,0,0,0,0,0,0,0,,,,,,0.0,,,,,,,
133094,1745300601454,,,,,,,,,,,,,,,,,,,,,,,,,,,,,,,,,,0,0,0,0,0,0,0,0,0,0,0,0,0,0,0,0,,,,,,,,,,,,,
133114,1745300601474,8.92,-135,,-0.11,-0.07,0.91,1,-0,-1,0.92,0.98,94,4068,4.7,3.63,,11.97,1.166,88.0,,26.3,5,0,0,0,0,8.9,0.0,0.0,0.0,2.26,,,0,0,0,0,0,0,0,0,0,0,0,0,0,0,0,0,,0,,,,0.0,38.986012,-76.950012,0.07,49.5,31,3,0.9
133134,1745300601494,,,,,,,,,,,,,,,,,,,,,,,,,,,,,,,,,,0,0,0,0,0,0,0,0,0,0,0,0,0,0,0,0,,,,,,,,,,,,,
133154,1745300601514,8.92,-134,,-0.1,0.02,0.98,3,-0,-0,0.98,0.98,100,4068,4.7,3.63,,11.99,1.16,88.0,,26.4,5,,,,,,,,,,,,0,0,0,0,0,0,0,0,0,0,0,0,0,0,0,0,,,,,,0.0,,,,,,,
133174,1745300601534,,,,,,,,,,,,,,,,,,,,,,,,,,,,,,,,,,0,0,0,0,0,0,0,0,0,0,0,0,0,0,0,0,,,,,,,,,,,,,
133194,1745300601554,9.55,-135,,-0.08,-0.04,1.03,2,-0,0,1.03,1.03,100,3968,4.5,3.63,,12.0,1.159,88.0,,26.4,5,,,,,,,,,,,,0,0,0,0,0,0,0,0,0,0,0,0,0,0,0,0,,,,,,0.0,,,,,,,
133214,1745300601574,,,,,,,,,,,,,,,,,,,,,,,0,0,0,0,8.9,0.0,0.0,0.0,2.26,,,0,0,0,0,0,0,0,0,0,0,0,0,0,0,0,0,,0,,,,,38.986012,-76.950012,0.0,49.5,31,3,0.9
133234,1745300601594,10.81,-134,,-0.09,0.07,1.0,4,-0,0,1.01,1.03,98,3998,4.4,3.64,,11.92,1.139,88.0,,26.4,5,,,,,,,,,,,,0,0,0,0,0,0,0,0,0,0,0,0,0,0,0,0,,,,,,0.0,,,,,,,
133254,1745300601614,,,,,,,,,,,,,,,,,,,,,,,,,,,,,,,,,,0,0,0,0,0,0,0,0,0,0,0,0,0,0,0,0,,,,,,,,,,,,,
133274,1745300601634,10.81,-95,,-0.08,0.09,1.02,6,-0,0,1.03,1.03,99,3900,4.4,3.64,,12.04,1.127,88.0,,25.7,5,,,,,,,,,,,,0,0,0,0,0,0,0,0,0,0,0,0,0,0,0,0,,,,,,0.0,,,,,,,
133294,1745300601654,,,,,,,,,,,,,,,,,,,,,,,,,,,,,,,,,,0,0,0,0,0,0,0,0,0,0,0,0,0,0,0,0,,,,,,,,,,,,,
133314,1745300601674,9.55,-134,13.0,-0.09,0.11,1.0,5,-0,0,1.01,1.03,98,3789,4.3,3.64,15,12.04,1.127,88.0,180,25.7,5,0,0,0,0,8.9,0.0,0.0,0.0,2.26,0,1.0,0,0,0,0,0,0,0,0,0,0,0,0,0,0,0,0,0,0,1.0,0,0,0.0,38.986012,-76.950012,0.0,49.5,31,3,0.9
133334,1745300601694,,,,,,,,,,,,,,,,,,,,,,,,,,,,,,,,,,0,0,0,0,0,0,0,0,0,0,0,0,0,0,0,0,,,,,,,,,,,,,
133354,1745300601714,9.55,-135,,-0.09,0.09,1.02,5,-0,0,1.02,1.03,99,3789,4.3,3.64,,12.04,1.13,88.0,,24.6,5,,,,,,,,,,,,0,0,0,0,0,0,0,0,0,0,0,0,0,0,0,0,,,,,,0.0,,,,,,,
133374,1745300601734,,,,,,,,,,,,,,,,,,,,,,,,,,,,,,,,,,0,0,0,0,0,0,0,0,0,0,0,0,0,0,0,0,,,,,,,,,,,,,
133394,1745300601754,9.55,-134,,-0.09,0.06,1.03,4,-0,0,1.04,1.04,100,3795,4.4,3.64,,12.15,1.113,88.0,,24.6,5,,,,,,,,,,,,0,0,0,0,0,0,0,0,0,0,0,0,0,0,0,0,,,,,,0.0,,,,,,,
133414,1745300601774,,,,,,,,,,,,,,,,,,,,,,,0,0,0,0,8.9,0.0,0.0,0.0,2.25,,,0,0,0,0,0,0,0,0,0,0,0,0,0,0,0,0,,0,,,,,38.986012,-76.950012,0.04,49.5,31,3,0.9
133434,1745300601793,10.18,-134,,-0.09,0.08,1.02,4,-0,0,1.03,1.04,99,3682,4.5,3.64,,12.23,1.108,88.0,,24.6,5,,,,,,,,,,,,0,0,0,0,0,0,0,0,0,0,0,0,0,0,0,0,,,,,,0.0,,,,,,,
133454,1745300601813,,,,,,,,,,,,,,,,,,,,,,,,,,,,,,,,,,0,0,0,0,0,0,0,0,0,0,0,0,0,0,0,0,,,,,,,,,,,,,
133474,1745300601833,11.44,-135,,-0.1,0.06,0.98,4,-0,0,0.99,1.04,96,3689,4.8,3.66,,12.25,1.109,88.0,,23.7,5,,,,,,,,,,,,0,0,0,0,0,0,0,0,0,0,0,0,0,0,0,0,,,,,,0.0,,,,,,,
133494,1745300601853,,,,,,,,,,,,,,,,,,,,,,,,,,,,,,,,,,0,0,0,0,0,0,0,0,0,0,0,0,0,0,0,0,,,,,,,,,,,,,
133514,1745300601873,10.81,-106,,-0.11,0.02,0.97,2,-0,0,0.97,1.04,94,3629,9.0,3.79,,12.25,1.109,88.0,,23.7,5,0,0,0,0,8.9,0.0,0.0,0.0,2.26,,,0,0,0,0,0,0,0,0,0,0,0,0,0,0,0,0,,0,,,,0.0,38.986012,-76.950012,0.06,49.5,31,3,0.9
133534,1745300601893,,,,,,,,,,,,,,,,,,,,,,,,,,,,,,,,,,0,0,0,0,0,0,0,0,0,0,0,0,0,0,0,0,,,,,,,,,,,,,
133554,1745300601913,10.81,-134,,-0.1,-0.04,0.99,1,-0,0,0.99,1.04,96,3629,9.0,3.79,,12.52,1.118,88.0,,23.1,5,,,,,,,,,,,,0,0,0,0,0,0,0,0,0,0,0,0,0,0,0,0,,,,,,0.0,,,,,,,
133574,1745300601933,,,,,,,,,,,,,,,,,,,,,,,,,,,,,,,,,,0,0,0,0,0,0,0,0,0,0,0,0,0,0,0,0,,,,,,,,,,,,,
133594,1745300601953,11.44,-135,,-0.1,-0.01,1.01,0,-0,1,1.01,1.04,98,3625,13.0,3.95,,13.05,1.122,88.0,,23.1,5,,,,,,,,,,,,0,0,0,0,0,0,0,0,0,0,0,0,0,0,0,0,,,,,,0.0,,,,,,,
133614,1745300601973,,,,,,,,,,,,,,,,,,,,,,,0,0,0,0,8.9,0.0,0.0,0.0,2.25,,,0,0,0,0,0,0,0,0,0,0,0,0,0,0,0,0,,0,,,,,38.986012,-76.950012,0.1,49.5,31,3,0.9
133634,1745300601993,10.81,-134,,-0.09,-0.04,1.02,1,-0,1,1.02,1.04,98,3616,15.9,4.07,,13.33,1.122,88.0,,23.1,5,,,,,,,,,,,,0,0,0,0,0,0,0,0,0,0,0,0,0,0,0,0,,,,,,0.0,,,,,,,
133654,1745300602005,,,,,,,,,,,,,,,,,,,,,,,,,,,,,,,,,,0,0,0,0,0,0,0,0,0,0,0,0,0,0,0,0,,,,,,,,,,,,,
133674,1745300602025,11.44,-135,,-0.09,-0.03,0.99,1,-0,0,0.99,1.04,96,3810,20.7,4.26,,13.53,1.118,88.0,,23.6,5,,,,,,,,,,,,0,0,0,0,0,0,0,0,0,0,0,0,0,0,0,0,,,,,,0.0,,,,,,,
133694,1745300602045,,,,,,,,,,,,,,,,,,,,,,,,,,,,,,,,,,0,0,0,0,0,0,0,0,0,0,0,0,0,0,0,0,,,,,,,,,,,,,
133714,1745300602065,11.44,-135,,-0.09,-0.03,0.92,1,-0,0,0.93,1.04,89,3887,26.8,4.46,,13.53,1.118,88.0,,23.6,5,0,0,0,0,8.9,0.0,0.0,0.0,2.26,,,0,0,0,0,0,0,0,0,0,0,0,0,0,0,0,0,,0,,,,0.0,38.986012,-76.950012,0.04,49.5,31,3,0.9
133734,1745300602085,,,,,,,,,,,,,,,,,,,,,,,,,,,,,,,,,,0,0,0,0,0,0,0,0,0,0,0,0,0,0,0,0,,,,,,,,,,,,,
133754,1745300602107,11.44,-134,,-0.09,0.04,1.01,4,-0,0,1.02,1.04,98,3887,26.8,4.46,,13.92,1.126,88.0,,25.5,5,,,,,,,,,,,,0,0,0,0,0,0,0,0,0,0,0,0,0,0,0,0,,,,,,0.0,,,,,,,
133774,1745300602127,,,,,,,,,,,,,,,,,,,,,,,,,,,,,,,,,,0,0,0,0,0,0,0,0,0,0,0,0,0,0,0,0,,,,,,,,,,,,,
133794,1745300602147,12.07,-135,,-0.07,0.07,1.04,4,-0,0,1.05,1.05,100,4174,32.2,4.86,,14.08,1.17,88.0,,25.5,5,,,,,,,,,,,,0,0,0,0,0,0,0,0,0,0,0,0,0,0,0,0,,,,,,0.0,,,,,,,
133814,1745300602167,,,,,,,,,,,,,,,,,,,,,,,0,0,0,0,8.9,0.0,0.0,0.0,2.26,,,0,0,0,0,0,0,0,0,0,0,0,0,0,0,0,0,,0,,,,,38.986012,-76.950012,0.04,49.5,31,3,0.9
133834,1745300602195,12.07,-134,,-0.07,0.17,1.12,5,-0,0,1.13,1.13,100,4550,35.7,4.59,,14.04,1.22,88.0,,25.5,5,,,,,,,,,,,,0,0,0,0,0,0,0,0,0,0,0,0,0,0,0,0,,,,,,0.0,,,,,,,
133854,1745300602215,,,,,,,,,,,,,,,,,,,,,,,,,,,,,,,,,,0,0,0,0,0,0,0,0,0,0,0,0,0,0,0,0,,,,,,,,,,,,,
133874,1745300602235,13.32,-134,,-0.06,0.16,1.1,4,-0,0,1.11,1.13,98,4920,37.5,4.68,,14.07,1.233,88.0,,29.9,5,,,,,,,,,,,,0,0,0,0,0,0,0,0,0,0,0,0,0,0,0,0,,,,,,0.0,,,,,,,
133894,1745300602255,,,,,,,,,,,,,,,,,,,,,,,,,,,,,,,,,,0,0,0,0,0,0,0,0,0,0,0,0,0,0,0,0,,,,,,,,,,,,,
133914,1745300602275,12.07,-135,,-0.07,0.19,1.11,4,-0,0,1.13,1.13,99,5319,40.3,4.71,,14.07,1.233,88.0,,29.9,5,0,0,0,0,8.9,0.0,0.0,0.0,2.25,,,0,0,0,0,0,0,0,0,0,0,0,0,0,0,0,0,,0,,,,0.0,38.986012,-76.950012,0.04,49.5,31,3,0.9
133934,1745300602293,,,,,,,,,,,,,,,,,,,,,,,,,,,,,,,,,,0,0,0,0,0,0,0,0,0,0,0,0,0,0,0,0,,,,,,,,,,,,,
133954,1745300602313,11.44,-135,,-0.09,0.13,1.09,3,-0,0,1.1,1.13,97,5319,40.3,4.71,,14.08,1.175,88.0,,35.7,5,,,,,,,,,,,,0,0,0,0,0,0,0,0,0,0,0,0,0,0,0,0,,,,,,0.0,,,,,,,
133974,1745300602333,,,,,,,,,,,,,,,,,,,,,,,,,,,,,,,,,,0,0,0,0,0,0,0,0,0,0,0,0,0,0,0,0,,,,,,,,,,,,,
133994,1745300602353,10.81,-135,,-0.1,0.14,1.18,4,-0,0,1.2,1.2,100,5644,45.0,5.18,,14.1,1.054,88.0,,35.7,5,,,,,,,,,,,,0,0,0,0,0,0,0,0,0,0,0,0,0,0,0,0,,,,,,0.0,,,,,,,
134014,1745300602373,,,,,,,,,,,,,,,,,,,,,,,0,0,0,0,8.9,0.0,0.0,0.0,2.26,,,0,0,0,0,0,0,0,0,0,0,0,0,0,0,0,0,,0,,,,,38.986012,-76.950012,0.0,49.5,31,3,0.9
134034,1745300602395,10.81,-134,,-0.09,0.12,1.2,3,-0,0,1.21,1.21,100,6128,46.1,5.24,,13.98,1.021,88.0,,35.7,5,,,,,,,,,,,,0,0,0,0,0,0,0,0,0,0,0,0,0,0,0,0,,,,,,0.0,,,,,,,
134054,1745300602415,,,,,,,,,,,,,,,,,,,,,,,,,,,,,,,,,,0,0,0,0,0,0,0,0,0,0,0,0,0,0,0,0,,,,,,,,,,,,,
134074,1745300602435,10.81,-135,,-0.08,0.19,1.2,2,-0,1,1.22,1.22,100,6648,46.4,5.24,,14.0,1.081,88.0,,41.9,5,,,,,,,,,,,,0,0,0,0,0,0,0,0,0,0,0,0,0,0,0,0,,,,,,0.0,,,,,,,
134094,1745300602455,,,,,,,,,,,,,,,,,,,,,,,,,,,,,,,,,,0,0,0,0,0,0,0,0,0,0,0,0,0,0,0,0,,,,,,,,,,,,,
134114,1745300602475,11.44,-135,,-0.1,0.09,1.16,2,-0,1,1.17,1.22,96,7132,46.5,5.27,,14.0,1.081,88.0,,41.9,5,0,0,0,0,8.9,0.0,0.0,0.0,2.26,,,0,0,0,0,0,0,0,0,0,0,0,0,0,0,0,0,,0,,,,0.0,38.986012,-76.950012,0.04,49.5,31,3,0.9
134134,1745300602493,,,,,,,,,,,,,,,,,,,,,,,,,,,,,,,,,,0,0,0,0,0,0,0,0,0,0,0,0,0,0,0,0,,,,,,,,,,,,,
134154,1745300602513,10.81,-134,,-0.1,0.11,1.16,2,-0,1,1.17,1.22,96,7132,46.5,5.27,,13.73,1.18,88.0,,45.7,5,,,,,,,,,,,,0,0,0,0,0,0,0,0,0,0,0,0,0,0,0,0,,,,,,0.0,,,,,,,
134174,1745300602533,,,,,,,,,,,,,,,,,,,,,,,,,,,,,,,,,,0,0,0,0,0,0,0,0,0,0,0,0,0,0,0,0,,,,,,,,,,,,,
134194,1745300602553,10.18,-135,,-0.11,-0.25,1.12,3,-0,1,1.15,1.22,94,8756,48.5,4.83,,13.4,1.169,88.0,,45.7,5,,,,,,,,,,,,0,0,0,0,0,0,0,0,0,0,0,0,0,0,0,0,,,,,,0.0,,,,,,,
134214,1745300602573,,,,,,,,,,,,,,,,,,,,,,,0,0,0,0,8.9,0.0,0.0,0.0,2.26,,,0,0,0,0,0,0,0,0,0,0,0,0,0,0,0,0,,0,,,,,38.986012,-76.950012,0.0,49.5,31,3,0.9
134234,1745300602593,9.55,-135,,-0.09,-0.13,1.09,1,-0,1,1.1,1.22,91,10380,49.1,4.93,,13.04,0.945,88.0,,45.7,5,,,,,,,,,,,,0,0,0,0,0,0,0,0,0,0,0,0,0,0,0,0,,,,,,0.0,,,,,,,
134254,1745300602613,,,,,,,,,,,,,,,,,,,,,,,,,,,,,,,,,,0,0,0,0,0,0,0,0,0,0,0,0,0,0,0,0,,,,,,,,,,,,,
134274,1745300602633,9.55,-135,,-0.09,-0.01,1.03,3,-0,0,1.03,1.22,85,11867,50.1,3.86,,12.69,0.964,88.0,,51.9,5,,,,,,,,,,,,0,0,0,0,0,0,0,0,0,0,0,0,0,0,0,0,,,,,,0.0,,,,,,,
134294,1745300602653,,,,,,,,,,,,,,,,,,,,,,,,,,,,,,,,,,0,0,0,0,0,0,0,0,0,0,0,0,0,0,0,0,,,,,,,,,,,,,
134314,1745300602673,10.18,-95,12.95,-0.14,-0.05,1.03,2,-0,0,1.04,1.22,85,12496,50.7,4.29,15,12.69,0.964,88.0,182,51.9,5,0,0,0,0,8.9,0.0,0.0,0.0,2.26,0,1.0,0,0,0,0,0,0,0,0,0,0,0,0,0,0,0,0,0,0,1.0,0,0,0.0,38.986012,-76.950012,0.0,49.5,31,3,0.9
134334,1745300602695,,,,,,,,,,,,,,,,,,,,,,,,,,,,,,,,,,0,0,0,0,0,0,0,0,0,0,0,0,0,0,0,0,,,,,,,,,,,,,
134354,1745300602715,8.3,-135,,-0.12,-0.02,1.06,3,-0,-0,1.07,1.22,88,12496,50.7,4.29,,12.44,0.999,88.0,,55.6,5,,,,,,,,,,,,0,0,0,0,0,0,0,0,0,0,0,0,0,0,0,0,,,,,,0.0,,,,,,,
134374,1745300602735,,,,,,,,,,,,,,,,,,,,,,,,,,,,,,,,,,0,0,0,0,0,0,0,0,0,0,0,0,0,0,0,0,,,,,,,,,,,,,
134394,1745300602755,3.9,-135,,-0.12,0.13,0.96,4,0,1,0.98,1.22,80,13485,51.5,4.07,,12.36,1.109,88.0,,55.6,5,,,,,,,,,,,,0,0,0,0,0,0,0,0,0,0,0,0,0,0,0,0,,,,,,0.0,,,,,,,
134414,1745300602775,,,,,,,,,,,,,,,,,,,,,,,0,0,0,0,8.9,0.0,0.0,0.0,2.25,,,0,0,0,0,0,0,0,0,0,0,0,0,0,0,0,0,,0,,,,,38.986012,-76.950012,0.09,49.5,31,3,0.9
134434,1745300602794,0.0,-110,,-0.11,0.2,0.93,4,0,0,0.96,1.22,79,13774,52.2,3.96,,12.48,1.018,88.0,,55.6,5,,,,,,,,,,,,0,0,0,0,0,0,0,0,0,0,0,0,0,0,0,0,,,,,,0.0,,,,,,,
134454,1745300602814,,,,,,,,,,,,,,,,,,,,,,,,,,,,,,,,,,0,0,0,0,0,0,0,0,0,0,0,0,0,0,0,0,,,,,,,,,,,,,
134474,1745300602834,0.0,-68,,-0.08,0.11,0.96,4,-0,-0,0.97,1.22,79,13108,52.9,4.13,,12.59,1.202,88.0,,59.8,5,,,,,,,,,,,,0,0,0,0,0,0,0,0,0,0,0,0,0,0,0,0,,,,,,0.0,,,,,,,
134494,1745300602854,,,,,,,,,,,,,,,,,,,,,,,,,,,,,,,,,,0,0,0,0,0,0,0,0,0,0,0,0,0,0,0,0,,,,,,,,,,,,,
134514,1745300602874,0.0,-95,,-0.04,0.07,1.01,6,-0,0,1.01,1.22,83,13681,53.5,4.07,,12.59,1.202,88.0,,59.8,5,0,0,0,0,8.9,0.0,0.0,0.0,2.26,,,0,0,0,0,0,0,0,0,0,0,0,0,0,0,0,0,,0,,,,0.0,38.986012,-76.950012,0.08,49.5,31,3,0.9
134534,1745300602894,,,,,,,,,,,,,,,,,,,,,,,,,,,,,,,,,,0,0,0,0,0,0,0,0,0,0,0,0,0,0,0,0,,,,,,,,,,,,,
134554,1745300602914,0.0,-95,,-0.02,0.0,0.94,7,-0,0,0.94,1.22,77,13681,53.5,4.07,,12.44,1.251,88.0,,62.0,5,,,,,,,,,,,,0,0,0,0,0,0,0,0,0,0,0,0,0,0,0,0,,,,,,0.0,,,,,,,
134574,1745300602934,,,,,,,,,,,,,,,,,,,,,,,,,,,,,,,,,,0,0,0,0,0,0,0,0,0,0,0,0,0,0,0,0,,,,,,,,,,,,,
134594,1745300602954,0.0,-106,,-0.03,-0.06,1.04,8,0,0,1.04,1.22,85,13436,53.7,4.04,,12.51,1.239,88.0,,62.0,5,,,,,,,,,,,,0,0,0,0,0,0,0,0,0,0,0,0,0,0,0,0,,,,,,0.0,,,,,,,
134614,1745300602974,,,,,,,,,,,,,,,,,,,,,,,0,0,0,0,8.9,0.0,0.0,0.0,2.26,,,0,0,0,0,0,0,0,0,0,0,0,0,0,0,0,0,,0,,,,,38.986012,-76.950012,0.0,49.5,31,3,0.9
134634,1745300602994,0.0,-113,,-0.01,0.15,1.09,5,0,1,1.1,1.22,90,13262,53.9,4.13,,12.57,1.252,88.0,,62.0,5,,,,,,,,,,,,0,0,0,0,0,0,0,0,0,0,0,0,0,0,0,0,,,,,,0.0,,,,,,,
134654,1745300603006,,,,,,,,,,,,,,,,,,,,,,,,,,,,,,,,,,0,0,0,0,0,0,0,0,0,0,0,0,0,0,0,0,,,,,,,,,,,,,
134674,1745300603026,0.0,-113,,-0.01,0.04,1.12,10,-0,1,1.12,1.22,92,13795,54.1,4.03,,12.55,1.248,88.0,,60.1,5,,,,,,,,,,,,0,0,0,0,0,0,0,0,0,0,0,0,0,0,0,0,,,,,,0.0,,,,,,,
134694,1745300603046,,,,,,,,,,,,,,,,,,,,,,,,,,,,,,,,,,0,0,0,0,0,0,0,0,0,0,0,0,0,0,0,0,,,,,,,,,,,,,
134714,1745300603066,0.0,-125,,-0.06,-0.03,1.02,9,0,1,1.02,1.22,84,13550,54.3,4.04,,12.55,1.248,88.0,,60.1,5,0,0,0,0,8.9,0.0,0.0,0.0,2.26,,,0,0,0,0,0,0,0,0,0,0,0,0,0,0,0,0,,0,,,,0.0,38.986012,-76.950012,0.1,49.5,31,3,0.9
134734,1745300603092,,,,,,,,,,,,,,,,,,,,,,,,,,,,,,,,,,0,0,0,0,0,0,0,0,0,0,0,0,0,0,0,0,,,,,,,,,,,,,
134754,1745300603112,0.0,-91,,-0.05,-0.1,1.08,9,0,0,1.08,1.22,89,13550,54.3,4.04,,12.27,1.198,88.0,,56.2,5,,,,,,,,,,,,0,0,0,0,0,0,0,0,0,0,0,0,0,0,0,0,,,,,,0.0,,,,,,,
134774,1745300603132,,,,,,,,,,,,,,,,,,,,,,,,,,,,,,,,,,0,0,0,0,0,0,0,0,0,0,0,0,0,0,0,0,,,,,,,,,,,,,
134794,1745300603152,0.0,-132,,-0.05,-0.02,1.0,3,0,2,1.01,1.22,82,12968,54.4,4.21,,12.59,1.248,88.0,,56.2,5,,,,,,,,,,,,0,0,0,0,0,0,0,0,0,0,0,0,0,0,0,0,,,,,,0.0,,,,,,,
134814,1745300603172,,,,,,,,,,,,,,,,,,,,,,,0,0,0,0,8.9,0.0,0.0,0.0,2.26,,,0,0,0,0,0,0,0,0,0,0,0,0,0,0,0,0,,0,,,,,38.986012,-76.950012,0.04,49.5,31,3,0.9
134834,1745300603193,0.0,-135,,-0.08,0.15,0.96,1,0,2,0.98,1.22,80,13599,55.0,4.07,,12.41,1.247,88.0,,56.2,5,,,,,,,,,,,,0,0,0,0,0,0,0,0,0,0,0,0,0,0,0,0,,,,,,0.0,,,,,,,
135274,1745300603634,0.0,-121,,-0.05,0.05,0.99,-1,-0,4,0.99,1.22,81,13039,56.1,4.23,,12.69,1.249,88.0,,52.0,5,,,,,,,,,,,,0,0,0,0,0,0,0,0,0,0,0,0,0,0,0,0,,,,,,0.0,,,,,,,
135294,1745300603654,,,,,,,,,,,,,,,,,,,,,,,,,,,,,,,,,,0,0,0,0,0,0,0,0,0,0,0,0,0,0,0,0,,,,,,,,,,,,,
135314,1745300603674,0.0,-135,12.89,-0.09,0.15,0.88,-3,0,4,0.9,1.22,74,13537,56.2,4.1,15,12.69,1.249,88.0,182,52.0,5,0,0,0,0,8.9,0.0,0.0,0.0,2.26,0,1.0,0,0,0,0,0,0,0,0,0,0,0,0,0,0,0,0,0,0,1.0,0,0,0.0,38.986012,-76.950012,0.04,49.6,31,3,0.9
135334,1745300603694,,,,,,,,,,,,,,,,,,,,,,,,,,,,,,,,,,0,0,0,0,0,0,0,0,0,0,0,0,0,0,0,0,,,,,,,,,,,,,
135354,1745300603714,0.0,-132,,-0.05,0.24,0.89,-1,-0,2,0.92,1.22,76,13537,56.2,4.1,,12.51,1.248,88.0,,51.3,5,,,,,,,,,,,,0,0,0,0,0,0,0,0,0,0,0,0,0,0,0,0,,,,,,0.0,,,,,,,
135374,1745300603734,,,,,,,,,,,,,,,,,,,,,,,,,,,,,,,,,,0,0,0,0,0,0,0,0,0,0,0,0,0,0,0,0,,,,,,,,,,,,,
135394,1745300603754,0.0,-72,,-0.07,0.08,0.89,0,-1,3,0.9,1.22,74,13867,56.1,3.81,,12.29,1.241,88.0,,51.3,5,,,,,,,,,,,,0,0,0,0,0,0,0,0,0,0,0,0,0,0,0,0,,,,,,0.0,,,,,,,
135414,1745300603774,,,,,,,,,,,,,,,,,,,,,,,0,0,0,0,8.9,0.0,0.0,0.0,2.26,,,0,0,0,0,0,0,0,0,0,0,0,0,0,0,0,0,,0,,,,,38.986012,-76.950012,0.04,49.6,31,3,0.9
135434,1745300603793,0.0,-135,,-0.07,0.13,0.85,-2,-0,3,0.86,1.22,71,13020,56.1,4.21,,12.56,1.241,88.0,,51.3,5,,,,,,,,,,,,0,0,0,0,0,0,0,0,0,0,0,0,0,0,0,0,,,,,,0.0,,,,,,,
135454,1745300603813,,,,,,,,,,,,,,,,,,,,,,,,,,,,,,,,,,0,0,0,0,0,0,0,0,0,0,0,0,0,0,0,0,,,,,,,,,,,,,
135474,1745300603833,0.0,-102,,-0.15,-0.09,0.88,-5,-2,2,0.9,1.22,73,13388,56.2,4.15,,12.64,1.25,88.0,,61.9,5,,,,,,,,,,,,0,0,0,0,0,0,0,0,0,0,0,0,0,0,0,0,,,,,,0.0,,,,,,,
135494,1745300603853,,,,,,,,,,,,,,,,,,,,,,,,,,,,,,,,,,0,0,0,0,0,0,0,0,0,0,0,0,0,0,0,0,,,,,,,,,,,,,
135514,1745300603873,0.0,99,,-0.12,0.18,0.76,-1,-1,2,0.8,1.22,65,13420,56.1,4.08,,12.64,1.25,88.0,,61.9,5,0,0,0,0,8.9,0.0,0.0,0.0,2.25,,,0,0,0,0,0,0,0,0,0,0,0,0,0,0,0,0,,0,,,,0.0,38.986012,-76.950012,0.09,49.6,31,3,0.9
135534,1745300603891,,,,,,,,,,,,,,,,,,,,,,,,,,,,,,,,,,0,0,0,0,0,0,0,0,0,0,0,0,0,0,0,0,,,,,,,,,,,,,
135554,1745300603911,0.0,-95,,0.0,0.15,0.85,1,-0,2,0.86,1.22,71,13420,56.1,4.08,,12.48,1.25,88.0,,51.6,5,,,,,,,,,,,,0,0,0,0,0,0,0,0,0,0,0,0,0,0,0,0,,,,,,0.0,,,,,,,
135574,1745300603931,,,,,,,,,,,,,,,,,,,,,,,,,,,,,,,,,,0,0,0,0,0,0,0,0,0,0,0,0,0,0,0,0,,,,,,,,,,,,,
135594,1745300603951,0.0,-110,,0.06,0.26,0.81,1,-1,2,0.85,1.22,70,11105,56.3,4.08,,13.16,1.242,88.0,,51.6,5,,,,,,,,,,,,0,0,0,0,0,0,0,0,0,0,0,0,0,0,0,0,,,,,,0.0,,,,,,,
135614,1745300603971,,,,,,,,,,,,,,,,,,,,,,,0,0,27,28,8.9,0.0,0.0,0.0,2.24,,,0,0,0,0,0,0,0,0,0,0,0,0,0,0,0,0,,0,,,,,38.986012,-76.950012,0.0,49.5,31,3,0.9
135634,1745300603991,0.0,-113,,0.15,0.27,0.82,4,-1,1,0.88,1.22,72,10299,53.7,5.0,,13.17,1.244,88.0,,51.6,5,,,,,,,,,,,,0,0,0,0,0,0,0,0,0,0,0,0,0,0,0,0,,,,,,0.0,,,,,,,
135654,1745300604005,,,,,,,,,,,,,,,,,,,,,,,,,,,,,,,,,,0,0,0,0,0,0,0,0,0,0,0,0,0,0,0,0,,,,,,,,,,,,,
135674,1745300604025,0.0,-117,,0.19,0.25,0.83,5,-1,0,0.88,1.22,73,10560,53.6,4.79,,12.95,1.25,88.0,,55.4,5,,,,,,,,,,,,0,0,0,0,0,0,0,0,0,0,0,0,0,0,0,0,,,,,,0.0,,,,,,,
135694,1745300604045,,,,,,,,,,,,,,,,,,,,,,,,,,,,,,,,,,0,0,0,0,0,0,0,0,0,0,0,0,0,0,0,0,,,,,,,,,,,,,
135714,1745300604065,0.0,-135,,0.21,0.23,0.9,8,-1,0,0.95,1.22,78,10671,54.4,4.59,,12.95,1.25,88.0,,55.4,5,2,0,27,29,8.9,0.0,0.0,0.0,2.25,,,0,0,0,0,0,0,0,0,0,0,0,0,0,0,0,0,,0,,,,0.0,38.986012,-76.950012,1.29,49.5,31,3,0.9
135734,1745300604085,,,,,,,,,,,,,,,,,,,,,,,,,,,,,,,,,,0,0,0,0,0,0,0,0,0,0,0,0,0,0,0,0,,,,,,,,,,,,,
135754,1745300604107,0.0,-106,,0.25,0.23,0.83,11,-0,-0,0.9,1.22,74,10671,54.4,4.59,,12.92,1.111,88.0,,56.1,5,,,,,,,,,,,,0,0,0,0,0,0,0,0,0,0,0,0,0,0,0,0,,,,,,0.0,,,,,,,
135774,1745300604127,,,,,,,,,,,,,,,,,,,,,,,,,,,,,,,,,,0,0,0,0,0,0,0,0,0,0,0,0,0,0,0,0,,,,,,,,,,,,,
135794,1745300604147,0.0,-102,,0.32,0.27,0.81,12,-0,0,0.91,1.22,75,10593,56.2,4.7,,13.23,1.116,88.0,,56.1,5,,,,,,,,,,,,0,0,0,0,0,0,0,0,0,0,0,0,0,0,0,0,,,,,,0.0,,,,,,,
135814,1745300604167,,,,,,,,,,,,,,,,,,,,,,,4,3,32,32,8.9,0.0,0.0,0.0,2.26,,,0,0,0,0,0,0,0,0,0,0,0,0,0,0,0,0,,1,,,,,38.986012,-76.950012,3.72,49.5,31,3,0.9
135834,1745300604191,0.0,-98,,0.37,0.22,0.82,16,-1,-0,0.92,1.22,76,10484,59.1,4.94,,13.31,1.113,88.0,,56.1,5,,,,,,,,,,,,0,0,0,0,0,0,0,0,0,0,0,0,0,0,0,0,,,,,,0.0,,,,,,,
135854,1745300604211,,,,,,,,,,,,,,,,,,,,,,,,,,,,,,,,,,0,0,0,0,0,0,0,0,0,0,0,0,0,0,0,0,,,,,,,,,,,,,
135874,1745300604231,0.0,-95,,0.39,0.17,0.91,19,-1,-0,1.01,1.22,82,10615,65.0,5.17,,13.52,1.103,88.0,,56.1,5,,,,,,,,,,,,0,0,0,0,0,0,0,0,0,0,0,0,0,0,0,0,,,,,,0.0,,,,,,,
135894,1745300604251,,,,,,,,,,,,,,,,,,,,,,,,,,,,,,,,,,0,0,0,0,0,0,0,0,0,0,0,0,0,0,0,0,,,,,,,,,,,,,
135914,1745300604271,0.0,-98,,0.41,0.24,0.94,21,-1,-0,1.05,1.22,86,10964,67.2,4.81,,13.52,1.103,88.0,,56.1,5,6,4,33,35,8.9,0.0,0.0,0.0,2.26,,,0,0,0,0,0,0,0,0,0,0,0,0,0,0,0,0,,0,,,,0.0,38.986012,-76.950012,6.85,49.6,31,3,0.9
135934,1745300604293,,,,,,,,,,,,,,,,,,,,,,,,,,,,,,,,,,0,0,0,0,0,0,0,0,0,0,0,0,0,0,0,0,,,,,,,,,,,,,
135954,1745300604313,0.0,-83,,0.45,0.05,0.91,24,-1,-1,1.02,1.22,83,10964,67.2,4.81,,13.82,1.064,88.0,,57.5,5,,,,,,,,,,,,0,0,0,0,0,0,0,0,0,0,0,0,0,0,0,0,,,,,,0.0,,,,,,,
135974,1745300604333,,,,,,,,,,,,,,,,,,,,,,,,,,,,,,,,,,0,0,0,0,0,0,0,0,0,0,0,0,0,0,0,0,,,,,,,,,,,,,
135994,1745300604353,0.0,-83,,0.49,0.02,0.89,26,-1,-1,1.01,1.22,83,11108,69.5,4.55,,13.45,1.055,88.0,,57.5,5,,,,,,,,,,,,0,0,0,0,0,0,0,0,0,0,0,0,0,0,0,0,,,,,,0.0,,,,,,,
136014,1745300604373,,,,,,,,,,,,,,,,,,,,,,,8,355,32,34,8.9,198.0,0.0,0.0,2.25,,,0,0,0,0,0,0,0,0,0,0,0,0,0,0,0,0,,0,,,,,38.986012,-76.950012,10.01,49.5,31,3,0.9
136034,1745300604393,0.0,-53,,0.49,-0.1,0.9,27,-1,-1,1.03,1.22,84,10812,71.5,4.62,,13.48,1.078,88.0,,57.5,5,,,,,,,,,,,,0,0,0,0,0,0,0,0,0,0,0,0,0,0,0,0,,,,,,0.0,,,,,,,
136054,1745300604413,,,,,,,,,,,,,,,,,,,,,,,,,,,,,,,,,,0,0,0,0,0,0,0,0,0,0,0,0,0,0,0,0,,,,,,,,,,,,,
136074,1745300604433,0.0,-27,,0.51,-0.19,0.85,29,-1,-1,1.01,1.22,83,10568,71.6,4.99,,13.72,1.132,88.0,,54.0,5,,,,,,,,,,,,0,0,0,0,0,0,0,0,0,0,0,0,0,0,0,0,,,,,,0.0,,,,,,,
136094,1745300604453,,,,,,,,,,,,,,,,,,,,,,,,,,,,,,,,,,0,0,0,0,0,0,0,0,0,0,0,0,0,0,0,0,,,,,,,,,,,,,
136114,1745300604473,0.0,-34,,0.52,-0.32,0.91,30,-1,-1,1.09,1.22,89,10538,71.6,5.12,,13.72,1.132,88.0,,54.0,5,9,355,30,32,8.9,189.0,0.0,0.0,2.25,,,0,0,0,0,0,0,0,0,0,0,0,0,0,0,0,0,,1,,,,0.0,38.986012,-76.95002,12.35,49.5,31,3,0.9
136134,1745300604491,,,,,,,,,,,,,,,,,,,,,,,,,,,,,,,,,,0,0,0,0,0,0,0,0,0,0,0,0,0,0,0,0,,,,,,,,,,,,,
136154,1745300604511,0.0,-34,,0.54,-0.38,0.89,30,-1,-2,1.11,1.22,91,10538,71.6,5.12,,13.88,1.13,88.0,,52.9,5,,,,,,,,,,,,0,0,0,0,0,0,0,0,0,0,0,0,0,0,0,0,,,,,,0.0,,,,,,,
136174,1745300604531,,,,,,,,,,,,,,,,,,,,,,,,,,,,,,,,,,0,0,0,0,0,0,0,0,0,0,0,0,0,0,0,0,,,,,,,,,,,,,
136194,1745300604551,0.0,-15,,0.57,-0.33,0.91,30,-1,-2,1.12,1.22,92,10706,75.0,4.91,,13.88,1.075,88.0,,52.9,5,,,,,,,,,,,,0,0,0,0,0,0,0,0,0,0,0,0,0,0,0,0,,,,,,0.0,,,,,,,
136214,1745300604571,,,,,,,,,,,,,,,,,,,,,,,10,9,33,34,8.9,195.0,50.0,0.0,2.25,,,0,0,0,0,0,0,0,0,0,0,0,0,0,0,0,0,,0,,,,,38.986015,-76.95002,15.54,49.5,31,3,0.9
136234,1745300604593,0.0,-15,,0.63,-0.27,0.94,30,-1,-2,1.16,1.22,95,10645,76.2,5.01,,13.95,1.058,88.0,,52.9,5,,,,,,,,,,,,0,0,0,0,0,0,0,0,0,0,0,0,0,0,0,0,,,,,,0.0,,,,,,,
136254,1745300604613,,,,,,,,,,,,,,,,,,,,,,,,,,,,,,,,,,0,0,0,0,0,0,0,0,0,0,0,0,0,0,0,0,,,,,,,,,,,,,
136274,1745300604633,0.0,-15,,0.65,-0.2,1.02,30,-1,-2,1.23,1.23,100,10603,76.9,5.13,,13.87,1.066,88.0,,51.3,5,,,,,,,,,,,,0,0,0,0,0,0,0,0,0,0,0,0,0,0,0,0,,,,,,0.0,,,,,,,
136294,1745300604653,,,,,,,,,,,,,,,,,,,,,,,,,,,,,,,,,,0,0,0,0,0,0,0,0,0,0,0,0,0,0,0,0,,,,,,,,,,,,,
136314,1745300604673,0.0,-23,12.99,0.66,-0.36,0.98,30,-1,-2,1.24,1.24,100,10727,78.2,4.97,15,13.87,1.066,88.0,183,51.3,5,13,10,32,33,8.9,88.0,50.0,0.0,2.25,0,1.0,0,0,0,0,0,0,0,0,0,0,0,0,0,0,0,0,0,0,1.0,0,0,0.0,38.986015,-76.95002,18.16,49.5,31,3,0.9
136334,1745300604693,,,,,,,,,,,,,,,,,,,,,,,,,,,,,,,,,,0,0,0,0,0,0,0,0,0,0,0,0,0,0,0,0,,,,,,,,,,,,,
136354,1745300604713,0.0,-0,,0.66,-0.24,0.95,30,-1,-2,1.18,1.24,95,10727,78.2,4.97,,13.84,1.048,88.0,,51.4,5,,,,,,,,,,,,0,0,0,0,0,0,0,0,0,0,0,0,0,0,0,0,,,,,,0.0,,,,,,,
136374,1745300604733,,,,,,,,,,,,,,,,,,,,,,,,,,,,,,,,,,0,0,0,0,0,0,0,0,0,0,0,0,0,0,0,0,,,,,,,,,,,,,
136394,1745300604753,0.0,-12,,0.66,-0.28,1.02,29,-1,-2,1.25,1.25,100,10917,79.7,4.72,,13.87,1.036,88.0,,51.4,5,,,,,,,,,,,,0,0,0,0,0,0,0,0,0,0,0,0,0,0,0,0,,,,,,0.0,,,,,,,
136414,1745300604773,,,,,,,,,,,,,,,,,,,,,,,14,3,32,33,8.9,163.0,50.0,0.0,2.25,,,0,0,0,0,0,0,0,0,0,0,0,0,0,0,0,0,,1,,,,,38.986019,-76.950027,21.36,49.5,31,3,0.9
136434,1745300604793,0.0,8,,0.66,-0.1,0.99,28,-1,-1,1.19,1.25,96,10742,81.1,4.94,,13.96,1.045,88.0,,51.4,5,,,,,,,,,,,,0,0,0,0,0,0,0,0,0,0,0,0,0,0,0,0,,,,,,0.0,,,,,,,
136454,1745300604813,,,,,,,,,,,,,,,,,,,,,,,,,,,,,,,,,,0,0,0,0,0,0,0,0,0,0,0,0,0,0,0,0,,,,,,,,,,,,,
136474,1745300604833,0.0,17,,0.67,0.02,0.99,26,-1,-1,1.2,1.25,96,10588,81.7,5.1,,14.06,1.072,88.0,,54.7,5,,,,,,,,,,,,0,0,0,0,0,0,0,0,0,0,0,0,0,0,0,0,,,,,,0.0,,,,,,,
136494,1745300604853,,,,,,,,,,,,,,,,,,,,,,,,,,,,,,,,,,0,0,0,0,0,0,0,0,0,0,0,0,0,0,0,0,,,,,,,,,,,,,
136514,1745300604873,0.0,3,,0.69,0.02,0.99,24,-1,-2,1.21,1.25,97,10727,83.8,4.96,,14.06,1.072,88.0,,54.7,5,16,17,33,34,8.9,152.0,50.0,0.0,2.26,,,0,0,0,0,0,0,0,0,0,0,0,0,0,0,0,0,,0,,,,0.0,38.986023,-76.950035,23.97,49.5,31,3,0.9
136534,1745300604892,,,,,,,,,,,,,,,,,,,,,,,,,,,,,,,,,,0,0,0,0,0,0,0,0,0,0,0,0,0,0,0,0,,,,,,,,,,,,,
136554,1745300604912,0.0,3,,0.68,-0.01,0.97,23,-1,-1,1.18,1.25,95,10727,83.8,4.96,,14.2,1.064,88.0,,50.9,5,,,,,,,,,,,,0,0,0,0,0,0,0,0,0,0,0,0,0,0,0,0,,,,,,0.0,,,,,,,
136574,1745300604932,,,,,,,,,,,,,,,,,,,,,,,,,,,,,,,,,,0,0,0,0,0,0,0,0,0,0,0,0,0,0,0,0,,,,,,,,,,,,,
136594,1745300604952,0.0,20,,0.72,-0.07,0.99,21,-1,-1,1.23,1.25,98,10827,85.7,5.19,,13.75,1.043,88.0,,50.9,5,,,,,,,,,,,,0,0,0,0,0,0,0,0,0,0,0,0,0,0,0,0,,,,,,0.0,,,,,,,
136614,1745300604972,,,,,,,,,,,,,,,,,,,,,,,17,17,33,35,8.9,45.0,50.0,0.0,2.26,,,0,0,0,0,0,0,0,0,0,0,0,0,0,0,0,0,,0,,,,,38.986027,-76.950043,27.2,49.5,31,3,0.9
136634,1745300604992,0.0,-4,,0.72,0.06,0.94,19,-0,-1,1.19,1.25,95,10901,86.5,5.35,,13.98,1.036,88.0,,50.9,5,,,,,,,,,,,,0,0,0,0,0,0,0,0,0,0,0,0,0,0,0,0,,,,,,0.0,,,,,,,
136654,1745300605004,,,,,,,,,,,,,,,,,,,,,,,,,,,,,,,,,,0,0,0,0,0,0,0,0,0,0,0,0,0,0,0,0,,,,,,,,,,,,,
136674,1745300605024,0.0,14,,0.75,0.07,1.0,18,-0,-1,1.26,1.26,100,10930,86.5,5.39,,14.04,1.011,88.0,,59.4,5,,,,,,,,,,,,0,0,0,0,0,0,0,0,0,0,0,0,0,0,0,0,,,,,,0.0,,,,,,,
136694,1745300605044,,,,,,,,,,,,,,,,,,,,,,,,,,,,,,,,,,0,0,0,0,0,0,0,0,0,0,0,0,0,0,0,0,,,,,,,,,,,,,
136714,1745300605064,0.0,20,,0.77,0.05,1.02,17,-0,-0,1.28,1.28,100,11119,86.6,5.35,,14.04,1.011,88.0,,59.4,5,20,6,34,34,8.9,205.0,50.0,0.0,2.25,,,0,0,0,0,0,0,0,0,0,0,0,0,0,0,0,0,,0,,,,0.0,38.986031,-76.95005,29.31,49.5,30,3,0.9
136734,1745300605092,,,,,,,,,,,,,,,,,,,,,,,,,,,,,,,,,,0,0,0,0,0,0,0,0,0,0,0,0,0,0,0,0,,,,,,,,,,,,,
136754,1745300605112,0.0,17,,0.76,0.11,0.94,16,-1,0,1.21,1.28,95,11119,86.6,5.35,,14.02,0.995,88.0,,58.4,5,,,,,,,,,,,,0,0,0,0,0,0,0,0,0,0,0,0,0,0,0,0,,,,,,0.0,,,,,,,
136774,1745300605132,,,,,,,,,,,,,,,,,,,,,,,,,,,,,,,,,,0,0,0,0,0,0,0,0,0,0,0,0,0,0,0,0,,,,,,,,,,,,,
136794,1745300605152,0.0,20,,0.73,-0.0,0.87,13,-0,1,1.13,1.28,88,11346,86.6,5.3,,14.03,0.976,88.0,,58.4,5,,,,,,,,,,,,0,0,0,0,0,0,0,0,0,0,0,0,0,0,0,0,,,,,,0.0,,,,,,,
136814,1745300605172,,,,,,,,,,,,,,,,,,,,,,,21,22,34,35,8.9,83.0,48.0,0.0,2.25,,,0,0,0,0,0,0,0,0,0,0,0,0,0,0,0,0,,1,,,,,38.986031,-76.950058,32.95,49.5,30,3,0.9
136834,1745300605192,0.0,17,,0.77,0.11,0.78,10,0,1,1.1,1.28,86,11565,87.9,5.68,,13.84,0.941,88.0,,58.4,5,,,,,,,,,,,,0,0,0,0,0,0,0,0,0,0,0,0,0,0,0,0,,,,,,0.0,,,,,,,
136854,1745300605206,,,,,,,,,,,,,,,,,,,,,,,,,,,,,,,,,,0,0,0,0,0,0,0,0,0,0,0,0,0,0,0,0,,,,,,,,,,,,,
136874,1745300605226,0.0,20,,0.79,0.12,0.91,10,1,1,1.21,1.28,94,11597,88.6,5.72,,13.84,0.928,88.0,,59.2,5,,,,,,,,,,,,0,0,0,0,0,0,0,0,0,0,0,0,0,0,0,0,,,,,,0.0,,,,,,,
136894,1745300605246,,,,,,,,,,,,,,,,,,,,,,,,,,,,,,,,,,0,0,0,0,0,0,0,0,0,0,0,0,0,0,0,0,,,,,,,,,,,,,
136914,1745300605266,0.0,28,,0.8,0.1,0.93,7,1,2,1.23,1.28,96,11574,88.6,5.72,,13.84,0.928,88.0,,59.2,5,23,23,37,31,8.9,19.0,40.0,0.0,2.26,,,0,0,0,0,0,0,0,0,0,0,0,0,0,0,0,0,,0,,,,0.0,38.986031,-76.950066,35.43,49.5,30,3,0.9
136934,1745300605292,,,,,,,,,,,,,,,,,,,,,,,,,,,,,,,,,,0,0,0,0,0,0,0,0,0,0,0,0,0,0,0,0,,,,,,,,,,,,,
136954,1745300605312,0.0,5,,0.87,-0.05,0.97,5,1,0,1.3,1.3,100,11574,88.6,5.72,,14.06,0.911,88.0,,60.4,5,,,,,,,,,,,,0,0,0,0,0,0,0,0,0,0,0,0,0,0,0,0,,,,,,0.0,,,,,,,
136974,1745300605332,,,,,,,,,,,,,,,,,,,,,,,,,,,,,,,,,,0,0,0,0,0,0,0,0,0,0,0,0,0,0,0,0,,,,,,,,,,,,,
136994,1745300605352,0.0,39,,0.85,0.23,1.01,5,-0,0,1.34,1.34,100,11535,88.7,5.75,,14.02,0.893,88.0,,60.4,5,,,,,,,,,,,,0,0,0,0,0,0,0,0,0,0,0,0,0,0,0,0,,,,,,0.0,,,,,,,
137014,1745300605372,,,,,,,,,,,,,,,,,,,,,,,24,7,35,37,8.9,212.0,15.0,0.0,2.26,,,0,0,0,0,0,0,0,0,0,0,0,0,0,0,0,0,,0,,,,,38.986034,-76.950081,38.3,49.5,30,3,0.9
137034,1745300605392,0.0,11,,0.85,0.07,0.96,6,-2,0,1.28,1.34,96,11667,88.7,5.7,,14.07,0.887,88.0,,60.4,5,,,,,,,,,,,,0,0,0,0,0,0,0,0,0,0,0,0,0,0,0,0,,,,,,0.0,,,,,,,
137054,1745300605410,,,,,,,,,,,,,,,,,,,,,,,,,,,,,,,,,,0,0,0,0,0,0,0,0,0,0,0,0,0,0,0,0,,,,,,,,,,,,,
137074,1745300605430,0.0,25,,0.8,0.08,0.97,4,-2,-1,1.26,1.34,94,11773,88.8,5.67,,13.87,0.89,88.0,,58.8,5,,,,,,,,,,,,0,0,0,0,0,0,0,0,0,0,0,0,0,0,0,0,,,,,,0.0,,,,,,,
137094,1745300605450,,,,,,,,,,,,,,,,,,,,,,,,,,,,,,,,,,0,0,0,0,0,0,0,0,0,0,0,0,0,0,0,0,,,,,,,,,,,,,
137114,1745300605470,0.0,31,,0.75,-0.09,0.94,1,-1,-1,1.21,1.34,90,12142,90.5,5.47,,13.87,0.89,88.0,,58.8,5,28,29,37,39,8.9,178.0,24.0,0.0,2.25,,,0,0,0,0,0,0,0,0,0,0,0,0,0,0,0,0,,0,,,,0.0,38.986038,-76.950096,43.14,49.5,30,3,0.9
137134,1745300605492,,,,,,,,,,,,,,,,,,,,,,,,,,,,,,,,,,0,0,0,0,0,0,0,0,0,0,0,0,0,0,0,0,,,,,,,,,,,,,
137154,1745300605512,0.0,25,,0.7,-0.27,0.88,-0,-0,-2,1.16,1.34,86,12142,90.5,5.47,,13.75,0.883,88.0,,52.5,5,,,,,,,,,,,,0,0,0,0,0,0,0,0,0,0,0,0,0,0,0,0,,,,,,0.0,,,,,,,
137174,1745300605532,,,,,,,,,,,,,,,,,,,,,,,,,,,,,,,,,,0,0,0,0,0,0,0,0,0,0,0,0,0,0,0,0,,,,,,,,,,,,,
137194,1745300605552,0.0,20,,0.73,-0.24,0.86,-1,0,-2,1.15,1.34,86,12070,91.0,5.52,,13.71,0.887,86.2,,52.5,5,,,,,,,,,,,,0,0,0,0,0,0,0,0,0,0,0,0,0,0,0,0,,,,,,0.0,,,,,,,
137214,1745300605572,,,,,,,,,,,,,,,,,,,,,,,28,16,38,37,8.9,254.0,16.0,0.0,2.25,,,0,0,0,0,0,0,0,0,0,0,0,0,0,0,0,0,,1,,,,,38.986042,-76.950104,45.66,49.4,30,3,0.9
137234,1745300605593,0.0,22,,0.72,-0.41,0.83,-1,-0,-0,1.17,1.17,100,11867,90.8,5.66,,13.9,0.919,86.2,,52.5,5,,,,,,,,,,,,0,0,0,0,0,0,0,0,0,0,0,0,0,0,0,0,,,,,,0.0,,,,,,,
137254,1745300605613,,,,,,,,,,,,,,,,,,,,,,,,,,,,,,,,,,0,0,0,0,0,0,0,0,0,0,0,0,0,0,0,0,,,,,,,,,,,,,
137274,1745300605633,0.0,31,,0.7,-0.3,0.97,-2,-0,0,1.23,1.23,100,11829,90.9,5.69,,13.86,0.908,86.2,,51.5,5,,,,,,,,,,,,0,0,0,0,0,0,0,0,0,0,0,0,0,0,0,0,,,,,,0.0,,,,,,,
137294,1745300605653,,,,,,,,,,,,,,,,,,,,,,,,,,,,,,,,,,0,0,0,0,0,0,0,0,0,0,0,0,0,0,0,0,,,,,,,,,,,,,
137314,1745300605673,0.0,42,12.77,0.73,-0.11,0.94,-5,0,0,1.19,1.23,97,11971,91.0,5.65,15,13.86,0.908,86.2,182,51.5,5,32,6,37,34,8.9,176.0,0.0,0.0,2.25,0,1.0,0,0,0,0,0,0,0,0,0,0,0,0,0,0,0,0,0,0,1.0,0,0,0.0,38.986046,-76.950127,47.56,49.4,30,3,0.9
137334,1745300605694,,,,,,,,,,,,,,,,,,,,,,,,,,,,,,,,,,0,0,0,0,0,0,0,0,0,0,0,0,0,0,0,0,,,,,,,,,,,,,
137354,1745300605714,0.0,65,,0.75,-0.02,1.0,-6,1,-0,1.25,1.25,100,11971,91.0,5.65,,13.88,0.892,86.2,,49.1,5,,,,,,,,,,,,0,0,0,0,0,0,0,0,0,0,0,0,0,0,0,0,,,,,,0.0,,,,,,,
137374,1745300605734,,,,,,,,,,,,,,,,,,,,,,,,,,,,,,,,,,0,0,0,0,0,0,0,0,0,0,0,0,0,0,0,0,,,,,,,,,,,,,
137394,1745300605754,0.0,68,,0.73,0.16,1.12,-7,0,-1,1.34,1.34,100,12067,91.1,5.54,,13.76,0.886,86.2,,49.1,5,,,,,,,,,,,,0,0,0,0,0,0,0,0,0,0,0,0,0,0,0,0,,,,,,0.0,,,,,,,
137414,1745300605774,,,,,,,,,,,,,,,,,,,,,,,32,12,37,36,8.9,71.0,0.0,0.0,2.26,,,0,0,0,0,0,0,0,0,0,0,0,0,0,0,0,0,,1,,,,,38.98605,-76.950142,52.24,49.4,30,3,0.9
137434,1745300605791,0.0,36,,0.75,0.37,1.09,-5,-0,-2,1.37,1.37,100,11920,70.7,4.42,,13.6,0.912,86.2,,49.1,5,,,,,,,,,,,,0,0,0,0,0,0,0,0,0,0,0,0,0,0,0,0,,,,,,0.0,,,,,,,
137454,1745300605811,,,,,,,,,,,,,,,,,,,,,,,,,,,,,,,,,,0,0,0,0,0,0,0,0,0,0,0,0,0,0,0,0,,,,,,,,,,,,,
137474,1745300605831,0.0,28,,0.71,0.62,1.09,-3,-1,-3,1.44,1.44,100,11820,12.7,4.21,,10.62,0.932,86.2,,53.8,5,,,,,,,,,,,,0,0,0,0,0,0,0,0,0,0,0,0,0,0,0,0,,,,,,0.0,,,,,,,
137494,1745300605851,,,,,,,,,,,,,,,,,,,,,,,,,,,,,,,,,,0,0,0,0,0,0,0,0,0,0,0,0,0,0,0,0,,,,,,,,,,,,,
137514,1745300605871,0.0,25,,0.59,0.56,1.1,1,-2,-4,1.37,1.44,95,11697,0.6,1.4,,10.62,0.932,86.2,,53.8,5,36,12,37,35,8.9,41.0,0.0,0.0,2.27,,,0,0,0,0,0,0,0,0,0,0,0,0,0,0,0,0,,1,,,,0.0,38.986053,-76.950157,54.9,49.4,30,3,0.9
137534,1745300605893,,,,,,,,,,,,,,,,,,,,,,,,,,,,,,,,,,0,0,0,0,0,0,0,0,0,0,0,0,0,0,0,0,,,,,,,,,,,,,
137554,1745300605913,12.69,28,,0.48,0.45,1.04,4,-2,-5,1.23,1.44,85,11697,0.6,1.4,,8.02,0.949,86.2,,62.7,5,,,,,,,,,,,,0,0,0,0,0,0,0,0,0,0,0,0,0,0,0,0,,,,,,0.0,,,,,,,
137574,1745300605933,,,,,,,,,,,,,,,,,,,,,,,,,,,,,,,,,,0,0,0,0,0,0,0,0,0,0,0,0,0,0,0,0,,,,,,,,,,,,,
137594,1745300605953,42.23,11,,0.39,0.66,1.07,7,-2,-3,1.32,1.44,91,11037,0.6,1.4,,6.63,0.866,86.2,,62.7,5,,,,,,,,,,,,0,0,0,0,0,0,0,0,0,0,0,0,0,0,0,0,,,,,,0.0,,,,,,,
137614,1745300605973,,,,,,,,,,,,,,,,,,,,,,,36,12,35,34,8.9,210.0,0.0,0.0,2.28,,,0,0,0,0,0,0,0,0,0,0,0,0,0,0,0,0,,1,,,,,38.986057,-76.950172,58.23,49.4,30,3,0.9
137634,1745300605993,42.86,48,,0.32,0.51,1.03,11,-2,-3,1.2,1.44,83,10778,1.1,1.4,,5.92,1.054,86.2,,62.7,5,,,,,,,,,,,,0,0,0,0,0,0,0,0,0,0,0,0,0,0,0,0,,,,,,0.0,,,,,,,
137654,1745300606003,,,,,,,,,,,,,,,,,,,,,,,,,,,,,,,,,,0,0,0,0,0,0,0,0,0,0,0,0,0,0,0,0,,,,,,,,,,,,,
137674,1745300606023,29.03,96,,0.21,0.45,1.08,10,-2,-2,1.19,1.44,83,10563,0.6,1.4,,5.5,1.201,86.2,,55.9,5,,,,,,,,,,,,0,0,0,0,0,0,0,0,0,0,0,0,0,0,0,0,,,,,,0.0,,,,,,,
137694,1745300606043,,,,,,,,,,,,,,,,,,,,,,,,,,,,,,,,,,0,0,0,0,0,0,0,0,0,0,0,0,0,0,0,0,,,,,,,,,,,,,
137714,1745300606063,15.84,56,,0.1,0.59,1.02,10,-3,-2,1.18,1.44,82,10668,9.8,1.48,,5.5,1.201,86.2,,55.9,5,35,12,34,33,8.9,7.0,0.0,0.0,2.29,,,0,0,0,0,0,0,0,0,0,0,0,0,0,0,0,0,,0,,,,0.0,38.986061,-76.950188,55.32,49.3,30,3,0.9
137734,1745300606083,,,,,,,,,,,,,,,,,,,,,,,,,,,,,,,,,,0,0,0,0,0,0,0,0,0,0,0,0,0,0,0,0,,,,,,,,,,,,,
137754,1745300606105,0.0,135,,0.08,0.66,1.0,10,-2,-0,1.2,1.44,83,10668,9.8,1.48,,5.6,1.145,86.2,,54.6,5,,,,,,,,,,,,0,0,0,0,0,0,0,0,0,0,0,0,0,0,0,0,,,,,,0.0,,,,,,,
137774,1745300606125,,,,,,,,,,,,,,,,,,,,,,,,,,,,,,,,,,0,0,0,0,0,0,0,0,0,0,0,0,0,0,0,0,,,,,,,,,,,,,
137794,1745300606145,0.0,87,,0.03,0.59,1.02,12,-2,-1,1.18,1.44,81,10791,22.3,2.51,,7.31,1.099,86.2,,54.6,5,,,,,,,,,,,,0,0,0,0,0,0,0,0,0,0,0,0,0,0,0,0,,,,,,0.0,,,,,,,
137814,1745300606165,,,,,,,,,,,,,,,,,,,,,,,34,12,32,32,8.9,229.0,0.0,0.0,2.28,,,0,0,0,0,0,0,0,0,0,0,0,0,0,0,0,0,,1,,,,,38.986065,-76.950211,52.74,49.3,30,3,0.9
137834,1745300606191,0.0,68,,0.01,0.81,0.98,13,-1,-1,1.27,1.44,88,11207,23.5,2.95,,8.35,1.165,86.2,,54.6,5,,,,,,,,,,,,0,0,0,0,0,0,0,0,0,0,0,0,0,0,0,0,,,,,,0.0,,,,,,,
137854,1745300606211,,,,,,,,,,,,,,,,,,,,,,,,,,,,,,,,,,0,0,0,0,0,0,0,0,0,0,0,0,0,0,0,0,,,,,,,,,,,,,
137874,1745300606231,0.0,70,,-0.01,0.63,0.94,13,-1,-0,1.13,1.44,78,11712,23.9,3.19,,8.73,1.09,86.2,,53.3,5,,,,,,,,,,,,0,0,0,0,0,0,0,0,0,0,0,0,0,0,0,0,,,,,,0.0,,,,,,,
137894,1745300606251,,,,,,,,,,,,,,,,,,,,,,,,,,,,,,,,,,0,0,0,0,0,0,0,0,0,0,0,0,0,0,0,0,,,,,,,,,,,,,
137914,1745300606271,0.0,85,,0.08,0.62,0.95,14,-2,-1,1.14,1.14,100,11777,24.1,3.29,,8.73,1.09,86.2,,53.3,5,33,12,33,32,8.9,14.0,0.0,0.0,2.27,,,0,0,0,0,0,0,0,0,0,0,0,0,0,0,0,0,,0,,,,0.0,38.986065,-76.950218,51.21,49.3,30,3,0.9
137934,1745300606291,,,,,,,,,,,,,,,,,,,,,,,,,,,,,,,,,,0,0,0,0,0,0,0,0,0,0,0,0,0,0,0,0,,,,,,,,,,,,,
137954,1745300606311,0.0,56,,0.09,0.67,0.94,17,-1,-1,1.16,1.16,100,11777,24.1,3.29,,9.09,0.975,86.2,,60.1,5,,,,,,,,,,,,0,0,0,0,0,0,0,0,0,0,0,0,0,0,0,0,,,,,,0.0,,,,,,,
137974,1745300606331,,,,,,,,,,,,,,,,,,,,,,,,,,,,,,,,,,0,0,0,0,0,0,0,0,0,0,0,0,0,0,0,0,,,,,,,,,,,,,
137994,1745300606351,0.0,62,,0.17,0.92,1.04,21,-1,-1,1.4,1.4,100,11571,24.0,3.3,,9.31,0.933,86.2,,60.1,5,,,,,,,,,,,,0,0,0,0,0,0,0,0,0,0,0,0,0,0,0,0,,,,,,0.0,,,,,,,
138014,1745300606371,,,,,,,,,,,,,,,,,,,,,,,35,12,35,33,8.9,36.0,0.0,0.0,2.27,,,0,0,0,0,0,0,0,0,0,0,0,0,0,0,0,0,,0,,,,,38.986069,-76.950241,51.35,49.3,30,3,0.9
138034,1745300606393,0.0,51,,0.2,0.9,1.05,24,-1,-2,1.4,1.4,100,11535,24.0,3.48,,9.34,0.926,86.2,,60.1,5,,,,,,,,,,,,0,0,0,0,0,0,0,0,0,0,0,0,0,0,0,0,,,,,,0.0,,,,,,,
138054,1745300606413,,,,,,,,,,,,,,,,,,,,,,,,,,,,,,,,,,0,0,0,0,0,0,0,0,0,0,0,0,0,0,0,0,,,,,,,,,,,,,
138074,1745300606433,0.0,68,,0.19,0.94,1.03,26,-2,-1,1.41,1.41,100,11597,23.1,3.35,,9.34,0.92,86.2,,58.7,5,,,,,,,,,,,,0,0,0,0,0,0,0,0,0,0,0,0,0,0,0,0,,,,,,0.0,,,,,,,
138094,1745300606453,,,,,,,,,,,,,,,,,,,,,,,,,,,,,,,,,,0,0,0,0,0,0,0,0,0,0,0,0,0,0,0,0,,,,,,,,,,,,,
138114,1745300606473,0.0,70,,0.17,0.98,1.01,31,-2,-1,1.42,1.42,100,11811,21.7,3.21,,9.34,0.92,86.2,,58.7,5,35,12,35,34,8.9,25.0,0.0,0.0,2.26,,,0,0,0,0,0,0,0,0,0,0,0,0,0,0,0,0,,1,,,,0.0,38.986069,-76.950256,53.38,49.3,30,3,0.9
138134,1745300606491,,,,,,,,,,,,,,,,,,,,,,,,,,,,,,,,,,0,0,0,0,0,0,0,0,0,0,0,0,0,0,0,0,,,,,,,,,,,,,
138154,1745300606511,0.0,62,,0.16,1.04,1.07,31,-2,-1,1.5,1.5,100,11811,21.7,3.21,,9.17,0.913,86.2,,60.8,5,,,,,,,,,,,,0,0,0,0,0,0,0,0,0,0,0,0,0,0,0,0,,,,,,0.0,,,,,,,
138174,1745300606531,,,,,,,,,,,,,,,,,,,,,,,,,,,,,,,,,,0,0,0,0,0,0,0,0,0,0,0,0,0,0,0,0,,,,,,,,,,,,,
138194,1745300606551,0.0,56,,0.16,1.09,1.09,28,-1,-2,1.55,1.55,100,11817,21.2,3.03,,9.02,0.909,80.8,,60.8,5,,,,,,,,,,,,0,0,0,0,0,0,0,0,0,0,0,0,0,0,0,0,,,,,,0.0,,,,,,,
138214,1745300606571,,,,,,,,,,,,,,,,,,,,,,,35,12,35,37,8.9,44.0,0.0,0.0,2.26,,,0,0,0,0,0,0,0,0,0,0,0,0,0,0,0,0,,0,,,,,38.986069,-76.950272,54.36,49.2,30,3,0.9
138234,1745300606591,0.0,51,,0.16,0.92,1.02,26,-1,-1,1.38,1.55,89,11636,20.9,2.98,,8.89,0.923,80.8,,60.8,5,,,,,,,,,,,,0,0,0,0,0,0,0,0,0,0,0,0,0,0,0,0,,,,,,0.0,,,,,,,
138254,1745300606611,,,,,,,,,,,,,,,,,,,,,,,,,,,,,,,,,,0,0,0,0,0,0,0,0,0,0,0,0,0,0,0,0,,,,,,,,,,,,,
138274,1745300606631,0.0,56,,0.14,1.05,1.02,25,-2,0,1.47,1.55,95,11612,20.9,3.01,,8.83,0.948,80.8,,57.5,5,,,,,,,,,,,,0,0,0,0,0,0,0,0,0,0,0,0,0,0,0,0,,,,,,0.0,,,,,,,
138294,1745300606651,,,,,,,,,,,,,,,,,,,,,,,,,,,,,,,,,,0,0,0,0,0,0,0,0,0,0,0,0,0,0,0,0,,,,,,,,,,,,,
138314,1745300606671,0.0,59,12.95,0.13,1.17,1.11,26,-1,-0,1.61,1.61,100,11664,17.0,2.81,15,8.83,0.948,80.8,182,57.5,5,36,12,36,35,8.9,232.0,0.0,0.0,2.26,0,1.0,0,0,0,0,0,0,0,0,0,0,0,0,0,0,0,0,0,1,1.0,0,0,0.0,38.986069,-76.950294,54.62,49.2,30,3,0.9
138334,1745300606693,,,,,,,,,,,,,,,,,,,,,,,,,,,,,,,,,,0,0,0,0,0,0,0,0,0,0,0,0,0,0,0,0,,,,,,,,,,,,,
138354,1745300606713,0.0,53,,0.18,1.3,1.01,28,-0,-1,1.66,1.66,100,11664,17.0,2.81,,8.57,0.966,80.8,,57.6,5,,,,,,,,,,,,0,0,0,0,0,0,0,0,0,0,0,0,0,0,0,0,,,,,,0.0,,,,,,,
138374,1745300606733,,,,,,,,,,,,,,,,,,,,,,,,,,,,,,,,,,0,0,0,0,0,0,0,0,0,0,0,0,0,0,0,0,,,,,,,,,,,,,
138394,1745300606753,0.0,62,,0.16,1.1,1.0,30,0,-2,1.5,1.66,90,11737,18.6,2.62,,8.26,0.982,80.8,,57.6,5,,,,,,,,,,,,0,0,0,0,0,0,0,0,0,0,0,0,0,0,0,0,,,,,,0.0,,,,,,,
138414,1745300606773,,,,,,,,,,,,,,,,,,,,,,,37,12,36,35,8.9,247.0,0.0,0.0,2.26,,,0,0,0,0,0,0,0,0,0,0,0,0,0,0,0,0,,1,,,,,38.986069,-76.95031,55.53,49.2,30,3,0.9
138434,1745300606792,0.0,82,,0.15,0.93,1.08,32,-0,-3,1.43,1.66,86,11740,30.5,2.62,,9.39,0.978,80.8,,57.6,5,,,,,,,,,,,,0,0,0,0,0,0,0,0,0,0,0,0,0,0,0,0,,,,,,0.0,,,,,,,
138454,1745300606812,,,,,,,,,,,,,,,,,,,,,,,,,,,,,,,,,,0,0,0,0,0,0,0,0,0,0,0,0,0,0,0,0,,,,,,,,,,,,,
138474,1745300606832,0.0,68,,0.11,0.91,0.99,32,-1,-3,1.35,1.66,81,11447,35.6,2.76,,10.3,1.015,80.8,,58.4,5,,,,,,,,,,,,0,0,0,0,0,0,0,0,0,0,0,0,0,0,0,0,,,,,,0.0,,,,,,,
138494,1745300606852,,,,,,,,,,,,,,,,,,,,,,,,,,,,,,,,,,0,0,0,0,0,0,0,0,0,0,0,0,0,0,0,0,,,,,,,,,,,,,
138514,1745300606872,0.0,65,,0.04,0.88,1.04,31,-2,-2,1.36,1.66,82,11202,45.0,4.07,,10.3,1.015,80.8,,58.4,5,35,12,35,35,8.9,233.0,0.0,0.0,2.26,,,0,0,0,0,0,0,0,0,0,0,0,0,0,0,0,0,,1,,,,0.0,38.986065,-76.950325,55.55,49.2,30,3,0.9
138534,1745300606892,,,,,,,,,,,,,,,,,,,,,,,,,,,,,,,,,,0,0,0,0,0,0,0,0,0,0,0,0,0,0,0,0,,,,,,,,,,,,,
138554,1745300606912,0.0,65,,0.01,0.78,0.95,26,-2,-1,1.23,1.66,74,11202,45.0,4.07,,11.68,1.221,80.8,,57.5,5,,,,,,,,,,,,0,0,0,0,0,0,0,0,0,0,0,0,0,0,0,0,,,,,,0.0,,,,,,,
138574,1745300606932,,,,,,,,,,,,,,,,,,,,,,,,,,,,,,,,,,0,0,0,0,0,0,0,0,0,0,0,0,0,0,0,0,,,,,,,,,,,,,
138594,1745300606952,0.0,62,,-0.0,0.84,0.88,23,-1,-1,1.22,1.22,100,12025,49.4,3.8,,12.44,1.251,80.8,,57.5,5,,,,,,,,,,,,0,0,0,0,0,0,0,0,0,0,0,0,0,0,0,0,,,,,,0.0,,,,,,,
138614,1745300606972,,,,,,,,,,,,,,,,,,,,,,,37,7,35,34,8.9,73.0,0.0,0.0,2.26,,,0,0,0,0,0,0,0,0,0,0,0,0,0,0,0,0,,0,,,,,38.986061,-76.95034,56.29,49.2,30,3,0.9
138634,1745300606992,0.0,59,,0.12,0.61,0.82,20,-1,0,1.03,1.22,85,12224,51.3,4.04,,12.44,1.205,80.8,,57.5,5,,,,,,,,,,,,0,0,0,0,0,0,0,0,0,0,0,0,0,0,0,0,,,,,,0.0,,,,,,,
138654,1745300607002,,,,,,,,,,,,,,,,,,,,,,,,,,,,,,,,,,0,0,0,0,0,0,0,0,0,0,0,0,0,0,0,0,,,,,,,,,,,,,
138674,1745300607022,0.0,62,,0.16,0.35,0.84,19,-0,-1,0.92,1.22,76,12025,52.4,3.8,,12.67,1.192,80.8,,58.7,5,,,,,,,,,,,,0,0,0,0,0,0,0,0,0,0,0,0,0,0,0,0,,,,,,0.0,,,,,,,
138694,1745300607042,,,,,,,,,,,,,,,,,,,,,,,,,,,,,,,,,,0,0,0,0,0,0,0,0,0,0,0,0,0,0,0,0,,,,,,,,,,,,,
138714,1745300607062,0.0,62,,0.19,0.37,0.83,16,-1,-1,0.92,1.22,76,11673,52.5,3.83,,12.67,1.192,80.8,,58.7,5,36,7,36,36,8.9,255.0,0.0,0.0,2.25,,,0,0,0,0,0,0,0,0,0,0,0,0,0,0,0,0,,1,,,,0.0,38.986057,-76.950363,54.94,49.2,31,3,0.9
138734,1745300607082,,,,,,,,,,,,,,,,,,,,,,,,,,,,,,,,,,0,0,0,0,0,0,0,0,0,0,0,0,0,0,0,0,,,,,,,,,,,,,
138754,1745300607102,0.0,62,,0.16,0.47,0.89,16,-2,-1,1.02,1.22,84,11673,52.5,3.83,,12.72,1.165,80.8,,61.5,5,,,,,,,,,,,,0,0,0,0,0,0,0,0,0,0,0,0,0,0,0,0,,,,,,0.0,,,,,,,
138774,1745300607122,,,,,,,,,,,,,,,,,,,,,,,,,,,,,,,,,,0,0,0,0,0,0,0,0,0,0,0,0,0,0,0,0,,,,,,,,,,,,,
138794,1745300607142,0.0,65,,0.12,0.56,1.0,18,-2,-1,1.15,1.22,95,11673,52.7,3.84,,12.73,1.239,80.8,,61.5,5,,,,,,,,,,,,0,0,0,0,0,0,0,0,0,0,0,0,0,0,0,0,,,,,,0.0,,,,,,,
138814,1745300607162,,,,,,,,,,,,,,,,,,,,,,,36,7,37,38,8.9,1.0,0.0,0.0,2.27,,,0,0,0,0,0,0,0,0,0,0,0,0,0,0,0,0,,0,,,,,38.986053,-76.950378,56.39,49.1,31,3,0.9
138834,1745300607193,0.0,70,,0.13,0.76,0.98,20,-2,-1,1.24,1.24,100,11740,55.3,3.87,,12.87,1.251,80.8,,61.5,5,,,,,,,,,,,,0,0,0,0,0,0,0,0,0,0,0,0,0,0,0,0,,,,,,0.0,,,,,,,
138854,1745300607213,,,,,,,,,,,,,,,,,,,,,,,,,,,,,,,,,,0,0,0,0,0,0,0,0,0,0,0,0,0,0,0,0,,,,,,,,,,,,,
138874,1745300607233,0.0,110,,0.1,0.77,0.97,20,-2,-0,1.24,1.24,100,11867,59.9,3.93,,13.19,1.25,80.8,,59.7,5,,,,,,,,,,,,0,0,0,0,0,0,0,0,0,0,0,0,0,0,0,0,,,,,,0.0,,,,,,,
138894,1745300607253,,,,,,,,,,,,,,,,,,,,,,,,,,,,,,,,,,0,0,0,0,0,0,0,0,0,0,0,0,0,0,0,0,,,,,,,,,,,,,
138914,1745300607273,0.0,135,,0.15,0.66,0.96,20,-2,-1,1.17,1.24,94,12009,64.3,4.13,,13.19,1.25,80.8,,59.7,5,37,7,36,34,8.9,11.0,0.0,0.0,2.27,,,0,0,0,0,0,0,0,0,0,0,0,0,0,0,0,0,,0,,,,0.0,38.986053,-76.950394,57.31,49.1,31,3,0.9
138934,1745300607292,,,,,,,,,,,,,,,,,,,,,,,,,,,,,,,,,,0,0,0,0,0,0,0,0,0,0,0,0,0,0,0,0,,,,,,,,,,,,,
138954,1745300607312,0.0,99,,0.14,0.66,0.91,18,-1,-1,1.13,1.24,91,12009,64.3,4.13,,13.24,1.251,80.8,,59.7,5,,,,,,,,,,,,0,0,0,0,0,0,0,0,0,0,0,0,0,0,0,0,,,,,,0.0,,,,,,,
138974,1745300607332,,,,,,,,,,,,,,,,,,,,,,,,,,,,,,,,,,0,0,0,0,0,0,0,0,0,0,0,0,0,0,0,0,,,,,,,,,,,,,
138994,1745300607352,0.0,76,,0.18,0.69,0.99,19,-1,-1,1.22,1.24,98,12261,67.9,4.58,,13.37,1.251,80.8,,59.7,5,,,,,,,,,,,,0,0,0,0,0,0,0,0,0,0,0,0,0,0,0,0,,,,,,0.0,,,,,,,
139014,1745300607372,,,,,,,,,,,,,,,,,,,,,,,37,7,37,36,8.9,26.0,0.0,0.0,2.27,,,0,0,0,0,0,0,0,0,0,0,0,0,0,0,0,0,,1,,,,,38.986046,-76.950417,56.32,49.1,31,3,0.9
139034,1745300607392,0.0,87,,0.21,0.77,1.08,16,-1,0,1.34,1.34,100,12496,69.1,5.04,,13.4,1.251,80.8,,59.7,5,,,,,,,,,,,,0,0,0,0,0,0,0,0,0,0,0,0,0,0,0,0,,,,,,0.0,,,,,,,
139054,1745300607412,,,,,,,,,,,,,,,,,,,,,,,,,,,,,,,,,,0,0,0,0,0,0,0,0,0,0,0,0,0,0,0,0,,,,,,,,,,,,,
139074,1745300607432,0.0,127,,0.2,0.64,1.06,13,-1,-1,1.26,1.34,94,12524,70.0,5.11,,13.47,1.105,80.8,,60.4,5,,,,,,,,,,,,0,0,0,0,0,0,0,0,0,0,0,0,0,0,0,0,,,,,,0.0,,,,,,,
139094,1745300607452,,,,,,,,,,,,,,,,,,,,,,,,,,,,,,,,,,0,0,0,0,0,0,0,0,0,0,0,0,0,0,0,0,,,,,,,,,,,,,
139114,1745300607472,0.0,102,,0.2,0.58,1.05,12,-0,-1,1.22,1.34,90,12665,68.2,4.93,,13.47,1.105,80.8,,60.4,5,37,7,38,36,8.9,18.0,0.0,0.0,2.26,,,0,0,0,0,0,0,0,0,0,0,0,0,0,0,0,0,,0,,,,0.0,38.986042,-76.950424,56.4,49.1,31,3,0.9
139134,1745300607492,,,,,,,,,,,,,,,,,,,,,,,,,,,,,,,,,,0,0,0,0,0,0,0,0,0,0,0,0,0,0,0,0,,,,,,,,,,,,,
139154,1745300607512,0.0,135,,0.28,0.45,1.09,12,-0,-1,1.22,1.34,91,12665,68.2,4.93,,13.45,1.024,80.8,,50.8,5,,,,,,,,,,,,0,0,0,0,0,0,0,0,0,0,0,0,0,0,0,0,,,,,,0.0,,,,,,,
139174,1745300607532,,,,,,,,,,,,,,,,,,,,,,,,,,,,,,,,,,0,0,0,0,0,0,0,0,0,0,0,0,0,0,0,0,,,,,,,,,,,,,
139194,1745300607552,0.0,70,,0.33,0.46,1.05,10,-1,-0,1.2,1.34,89,12879,67.3,4.73,,13.17,0.998,86.2,,50.8,5,,,,,,,,,,,,0,0,0,0,0,0,0,0,0,0,0,0,0,0,0,0,,,,,,0.0,,,,,,,
139214,1745300607572,,,,,,,,,,,,,,,,,,,,,,,39,3,39,36,8.9,213.0,0.0,0.0,2.26,,,0,0,0,0,0,0,0,0,0,0,0,0,0,0,0,0,,0,,,,,38.986034,-76.950447,59.07,49.1,31,3,0.9
139234,1745300607592,0.0,102,,0.32,0.44,1.08,10,-2,-0,1.21,1.21,100,13035,66.7,4.65,,13.19,1.004,86.2,,50.8,5,,,,,,,,,,,,0,0,0,0,0,0,0,0,0,0,0,0,0,0,0,0,,,,,,0.0,,,,,,,
139254,1745300607612,,,,,,,,,,,,,,,,,,,,,,,,,,,,,,,,,,0,0,0,0,0,0,0,0,0,0,0,0,0,0,0,0,,,,,,,,,,,,,
139274,1745300607632,0.0,113,,0.35,0.51,1.05,8,-2,0,1.22,1.22,100,13223,66.6,4.63,,12.91,1.0,86.2,,46.7,5,,,,,,,,,,,,0,0,0,0,0,0,0,0,0,0,0,0,0,0,0,0,,,,,,0.0,,,,,,,
139294,1745300607652,,,,,,,,,,,,,,,,,,,,,,,,,,,,,,,,,,0,0,0,0,0,0,0,0,0,0,0,0,0,0,0,0,,,,,,,,,,,,,
139314,1745300607672,0.0,124,12.82,0.3,0.51,1.05,6,-2,-1,1.21,1.22,99,13400,66.6,4.59,15,12.91,1.0,86.2,182,46.7,5,39,21,40,40,8.9,26.0,0.0,0.0,2.26,0,1.0,0,0,0,0,0,0,0,0,0,0,0,0,0,0,0,0,0,1,1.0,0,-0,0.0,38.986031,-76.950462,61.16,49.0,31,3,0.9
139334,1745300607692,,,,,,,,,,,,,,,,,,,,,,,,,,,,,,,,,,0,0,0,0,0,0,0,0,0,0,0,0,0,0,0,0,,,,,,,,,,,,,
139354,1745300607712,0.0,113,,0.29,0.52,1.01,4,-2,-1,1.17,1.22,96,13400,66.6,4.59,,13.07,1.01,86.2,,45.8,5,,,,,,,,,,,,0,0,0,0,0,0,0,0,0,0,0,0,0,0,0,0,,,,,,0.0,,,,,,,
139374,1745300607732,,,,,,,,,,,,,,,,,,,,,,,,,,,,,,,,,,0,0,0,0,0,0,0,0,0,0,0,0,0,0,0,0,,,,,,,,,,,,,
139394,1745300607752,0.0,135,,0.26,0.41,0.96,1,-1,0,1.08,1.22,89,13529,66.2,4.59,,12.92,1.015,86.2,,45.8,5,,,,,,,,,,,,0,0,0,0,0,0,0,0,0,0,0,0,0,0,0,0,,,,,,0.0,,,,,,,
139414,1745300607772,,,,,,,,,,,,,,,,,,,,,,,39,40,41,41,8.9,9.0,0.0,0.0,2.26,,,0,0,0,0,0,0,0,0,0,0,0,0,0,0,0,0,,1,,,,,38.986023,-76.950485,63.39,49.0,31,3,0.9
139434,1745300607791,0.0,96,,0.23,0.37,0.9,-2,-0,0,1.0,1.22,83,13715,64.4,4.59,,12.85,1.023,86.2,,45.8,5,,,,,,,,,,,,0,0,0,0,0,0,0,0,0,0,0,0,0,0,0,0,,,,,,0.0,,,,,,,
139454,1745300607811,,,,,,,,,,,,,,,,,,,,,,,,,,,,,,,,,,0,0,0,0,0,0,0,0,0,0,0,0,0,0,0,0,,,,,,,,,,,,,
139474,1745300607831,0.0,110,,0.18,0.11,0.96,-2,0,-0,0.98,1.22,81,13578,62.9,4.53,,12.76,1.009,86.2,,45.5,5,,,,,,,,,,,,0,0,0,0,0,0,0,0,0,0,0,0,0,0,0,0,,,,,,0.0,,,,,,,
139494,1745300607851,,,,,,,,,,,,,,,,,,,,,,,,,,,,,,,,,,0,0,0,0,0,0,0,0,0,0,0,0,0,0,0,0,,,,,,,,,,,,,
139514,1745300607871,0.0,133,,0.11,0.13,1.0,-5,-1,-1,1.01,1.22,83,13085,35.4,3.63,,12.76,1.009,86.2,,45.5,5,40,39,41,41,8.9,41.0,0.0,0.0,2.26,,,0,0,0,0,0,0,0,0,0,0,0,0,0,0,0,0,,1,,,,0.0,38.986015,-76.9505,64.21,49.0,31,3,0.9
139534,1745300607891,,,,,,,,,,,,,,,,,,,,,,,,,,,,,,,,,,0,0,0,0,0,0,0,0,0,0,0,0,0,0,0,0,,,,,,,,,,,,,
139554,1745300607911,0.0,134,,0.01,0.03,1.03,-4,-1,-2,1.03,1.22,85,13085,35.4,3.63,,11.77,1.167,86.2,,46.3,5,,,,,,,,,,,,0,0,0,0,0,0,0,0,0,0,0,0,0,0,0,0,,,,,,0.0,,,,,,,
139574,1745300607931,,,,,,,,,,,,,,,,,,,,,,,,,,,,,,,,,,0,0,0,0,0,0,0,0,0,0,0,0,0,0,0,0,,,,,,,,,,,,,
139594,1745300607951,0.0,116,,-0.04,0.19,0.98,-6,-0,-2,1.0,1.22,82,13833,19.3,2.84,,9.65,1.252,86.2,,46.3,5,,,,,,,,,,,,0,0,0,0,0,0,0,0,0,0,0,0,0,0,0,0,,,,,,0.0,,,,,,,
139614,1745300607971,,,,,,,,,,,,,,,,,,,,,,,40,21,40,41,8.9,205.0,0.0,0.0,2.27,,,0,0,0,0,0,0,0,0,0,0,0,0,0,0,0,0,,1,,,,,38.986012,-76.950523,65.24,48.9,31,3,0.9
139634,1745300607991,0.0,82,,-0.16,0.19,0.85,-7,0,-2,0.89,1.22,73,13173,12.1,2.59,,8.39,1.006,86.2,,46.3,5,,,,,,,,,,,,0,0,0,0,0,0,0,0,0,0,0,0,0,0,0,0,,,,,,0.0,,,,,,,
139654,1745300608004,,,,,,,,,,,,,,,,,,,,,,,,,,,,,,,,,,0,0,0,0,0,0,0,0,0,0,0,0,0,0,0,0,,,,,,,,,,,,,
139674,1745300608024,6.41,96,,-0.23,0.25,0.86,-10,1,-2,0.93,1.22,76,12979,1.7,1.4,,6.74,1.215,86.2,,46.0,5,,,,,,,,,,,,0,0,0,0,0,0,0,0,0,0,0,0,0,0,0,0,,,,,,0.0,,,,,,,
139694,1745300608044,,,,,,,,,,,,,,,,,,,,,,,,,,,,,,,,,,0,0,0,0,0,0,0,0,0,0,0,0,0,0,0,0,,,,,,,,,,,,,
139714,1745300608064,32.18,107,,-0.23,0.18,0.93,-10,1,-1,0.97,1.22,80,12458,0.1,1.4,,6.74,1.215,86.2,,46.0,5,38,40,39,38,8.9,230.0,0.0,0.0,2.26,,,0,0,0,0,0,0,0,0,0,0,0,0,0,0,0,0,,1,,,,0.0,38.986004,-76.950539,64.2,48.9,29,3,0.9
139734,1745300608084,,,,,,,,,,,,,,,,,,,,,,,,,,,,,,,,,,0,0,0,0,0,0,0,0,0,0,0,0,0,0,0,0,,,,,,,,,,,,,
139754,1745300608109,54.17,90,,-0.28,0.2,0.89,-11,2,-2,0.96,1.22,79,12458,0.1,1.4,,5.59,1.213,86.2,,48.4,5,,,,,,,,,,,,0,0,0,0,0,0,0,0,0,0,0,0,0,0,0,0,,,,,,0.0,,,,,,,
139774,1745300608129,,,,,,,,,,,,,,,,,,,,,,,,,,,,,,,,,,0,0,0,0,0,0,0,0,0,0,0,0,0,0,0,0,,,,,,,,,,,,,
139794,1745300608149,38.46,134,,-0.41,0.03,0.81,-10,1,-1,0.91,0.91,100,12006,0.4,1.4,,5.08,1.211,86.2,,48.4,5,,,,,,,,,,,,0,0,0,0,0,0,0,0,0,0,0,0,0,0,0,0,,,,,,0.0,,,,,,,
139814,1745300608169,,,,,,,,,,,,,,,,,,,,,,,38,42,38,37,8.9,19.0,0.0,0.0,2.26,,,0,0,0,0,0,0,0,0,0,0,0,0,0,0,0,0,,0,,,,,38.986,-76.950562,61.84,48.9,29,3,0.9
139834,1745300608189,54.17,134,,-0.51,-0.17,0.86,-11,0,-1,1.01,1.01,100,11820,1.4,1.4,,4.85,1.253,86.2,,48.4,5,,,,,,,,,,,,0,0,0,0,0,0,0,0,0,0,0,0,0,0,0,0,,,,,,0.0,,,,,,,
139854,1745300608209,,,,,,,,,,,,,,,,,,,,,,,,,,,,,,,,,,0,0,0,0,0,0,0,0,0,0,0,0,0,0,0,0,,,,,,,,,,,,,
139874,1745300608229,71.14,134,,-0.53,-0.32,0.86,-17,0,1,1.06,1.06,100,11603,0.5,1.4,,4.55,1.253,86.2,,53.6,5,,,,,,,,,,,,0,0,0,0,0,0,0,0,0,0,0,0,0,0,0,0,,,,,,0.0,,,,,,,
139894,1745300608249,,,,,,,,,,,,,,,,,,,,,,,,,,,,,,,,,,0,0,0,0,0,0,0,0,0,0,0,0,0,0,0,0,,,,,,,,,,,,,
139914,1745300608269,60.46,133,,-0.56,-0.28,0.86,-21,-0,1,1.06,1.06,100,11202,1.4,1.4,,4.55,1.253,86.2,,53.6,5,35,37,33,35,8.9,231.0,0.0,0.0,2.27,,,0,0,0,0,0,0,0,0,0,0,0,0,0,0,0,0,,1,,,,0.0,38.985992,-76.950577,59.87,48.8,29,3,0.9
139934,1745300608291,,,,,,,,,,,,,,,,,,,,,,,,,,,,,,,,,,0,0,0,0,0,0,0,0,0,0,0,0,0,0,0,0,,,,,,,,,,,,,
139954,1745300608311,71.14,133,,-0.62,-0.5,0.96,-25,0,1,1.25,1.25,100,11202,1.4,1.4,,4.64,1.252,86.2,,50.3,5,,,,,,,,,,,,0,0,0,0,0,0,0,0,0,0,0,0,0,0,0,0,,,,,,0.0,,,,,,,
139974,1745300608331,,,,,,,,,,,,,,,,,,,,,,,,,,,,,,,,,,0,0,0,0,0,0,0,0,0,0,0,0,0,0,0,0,,,,,,,,,,,,,
139994,1745300608351,74.28,133,,-0.64,-0.63,0.91,-27,0,0,1.28,1.28,100,10742,0.4,1.4,,4.44,1.253,86.2,,50.3,5,,,,,,,,,,,,0,0,0,0,0,0,0,0,0,0,0,0,0,0,0,0,,,,,,0.0,,,,,,,
140014,1745300608371,,,,,,,,,,,,,,,,,,,,,,,33,38,28,34,8.9,232.0,0.0,0.0,2.27,,,0,0,0,0,0,0,0,0,0,0,0,0,0,0,0,0,,0,,,,,38.985992,-76.950592,56.5,48.8,29,3,0.9
140034,1745300608391,84.97,113,,-0.62,-0.63,0.97,-27,0,0,1.32,1.32,100,10266,0.3,1.4,,4.47,1.252,86.2,,50.3,5,,,,,,,,,,,,0,0,0,0,0,0,0,0,0,0,0,0,0,0,0,0,,,,,,0.0,,,,,,,
140054,1745300608411,,,,,,,,,,,,,,,,,,,,,,,,,,,,,,,,,,0,0,0,0,0,0,0,0,0,0,0,0,0,0,0,0,,,,,,,,,,,,,
140074,1745300608431,91.88,121,,-0.69,-0.56,1.0,-27,0,1,1.34,1.34,100,9892,0.3,1.4,,4.41,1.252,86.2,,45.8,5,,,,,,,,,,,,0,0,0,0,0,0,0,0,0,0,0,0,0,0,0,0,,,,,,0.0,,,,,,,
140094,1745300608451,,,,,,,,,,,,,,,,,,,,,,,,,,,,,,,,,,0,0,0,0,0,0,0,0,0,0,0,0,0,0,0,0,,,,,,,,,,,,,
140114,1745300608471,93.77,135,,-0.74,-0.47,0.95,-27,0,1,1.29,1.34,96,9780,0.2,1.4,,4.41,1.252,86.2,,45.8,5,34,34,31,31,8.9,89.0,0.0,0.0,2.26,,,0,0,0,0,0,0,0,0,0,0,0,0,0,0,0,0,,0,,,,0.0,38.985989,-76.950615,54.2,48.8,29,3,0.9
140134,1745300608491,,,,,,,,,,,,,,,,,,,,,,,,,,,,,,,,,,0,0,0,0,0,0,0,0,0,0,0,0,0,0,0,0,,,,,,,,,,,,,
140154,1745300608511,81.83,133,,-0.74,-0.43,0.98,-28,1,0,1.3,1.34,98,9780,0.2,1.4,,4.44,1.252,86.2,,45.2,5,,,,,,,,,,,,0,0,0,0,0,0,0,0,0,0,0,0,0,0,0,0,,,,,,0.0,,,,,,,
140174,1745300608531,,,,,,,,,,,,,,,,,,,,,,,,,,,,,,,,,,0,0,0,0,0,0,0,0,0,0,0,0,0,0,0,0,,,,,,,,,,,,,
140194,1745300608551,68.0,130,,-0.74,-0.5,1.04,-29,1,-0,1.37,1.37,100,9706,4.5,1.4,,4.67,1.253,84.4,,45.2,5,,,,,,,,,,,,0,0,0,0,0,0,0,0,0,0,0,0,0,0,0,0,,,,,,0.0,,,,,,,
140214,1745300608571,,,,,,,,,,,,,,,,,,,,,,,32,33,28,31,8.9,196.0,0.0,0.0,2.26,,,0,0,0,0,0,0,0,0,0,0,0,0,0,0,0,0,,0,,,,,38.985985,-76.95063,51.99,48.8,29,3,0.9
140234,1745300608591,56.06,124,,-0.69,-0.45,0.97,-30,1,-1,1.27,1.37,93,9687,17.9,2.11,,6.32,1.254,84.4,,45.2,5,,,,,,,,,,,,0,0,0,0,0,0,0,0,0,0,0,0,0,0,0,0,,,,,,0.0,,,,,,,
140254,1745300608611,,,,,,,,,,,,,,,,,,,,,,,,,,,,,,,,,,0,0,0,0,0,0,0,0,0,0,0,0,0,0,0,0,,,,,,,,,,,,,
140274,1745300608631,35.32,133,,-0.65,-0.69,0.94,-29,1,-0,1.33,1.37,98,10015,27.6,2.77,,8.18,1.254,84.4,,45.2,5,,,,,,,,,,,,0,0,0,0,0,0,0,0,0,0,0,0,0,0,0,0,,,,,,0.0,,,,,,,
140294,1745300608651,,,,,,,,,,,,,,,,,,,,,,,,,,,,,,,,,,0,0,0,0,0,0,0,0,0,0,0,0,0,0,0,0,,,,,,,,,,,,,
140314,1745300608671,27.78,119,13.11,-0.62,-0.72,0.99,-25,0,-0,1.37,1.37,100,10452,32.4,3.06,15,8.18,1.254,84.4,182,45.2,5,29,98,30,31,8.9,80.0,0.0,0.0,2.26,0,1.0,0,0,0,0,0,0,0,0,0,0,0,0,0,0,0,0,0,1,1.0,0,-0,0.0,38.985985,-76.950645,49.65,48.8,29,3,0.9
140334,1745300608691,,,,,,,,,,,,,,,,,,,,,,,,,,,,,,,,,,0,0,0,0,0,0,0,0,0,0,0,0,0,0,0,0,,,,,,,,,,,,,
140354,1745300608711,20.86,104,,-0.58,-0.75,0.99,-24,1,-0,1.37,1.37,100,10452,32.4,3.06,,9.81,1.252,84.4,,44.6,5,,,,,,,,,,,,0,0,0,0,0,0,0,0,0,0,0,0,0,0,0,0,,,,,,0.0,,,,,,,
140374,1745300608731,,,,,,,,,,,,,,,,,,,,,,,,,,,,,,,,,,0,0,0,0,0,0,0,0,0,0,0,0,0,0,0,0,,,,,,,,,,,,,
140394,1745300608751,13.95,134,,-0.6,-0.84,0.99,-24,1,-0,1.43,1.43,100,10588,33.4,3.32,,10.56,1.251,84.4,,44.6,5,,,,,,,,,,,,0,0,0,0,0,0,0,0,0,0,0,0,0,0,0,0,,,,,,0.0,,,,,,,
140414,1745300608771,,,,,,,,,,,,,,,,,,,,,,,30,33,31,31,8.9,60.0,0.0,0.0,2.26,,,0,0,0,0,0,0,0,0,0,0,0,0,0,0,0,0,,1,,,,,38.985985,-76.950661,48.6,48.8,29,3,0.9
140434,1745300608793,9.55,124,,-0.53,-0.87,0.93,-25,2,1,1.38,1.38,100,10734,33.6,4.2,,10.88,1.251,84.4,,44.6,5,,,,,,,,,,,,0,0,0,0,0,0,0,0,0,0,0,0,0,0,0,0,,,,,,0.0,,,,,,,
140454,1745300608813,,,,,,,,,,,,,,,,,,,,,,,,,,,,,,,,,,0,0,0,0,0,0,0,0,0,0,0,0,0,0,0,0,,,,,,,,,,,,,
140474,1745300608833,3.9,133,,-0.46,-0.69,0.95,-26,2,1,1.26,1.38,92,11081,32.9,3.81,,10.81,1.249,84.4,,47.5,5,,,,,,,,,,,,0,0,0,0,0,0,0,0,0,0,0,0,0,0,0,0,,,,,,0.0,,,,,,,
140494,1745300608853,,,,,,,,,,,,,,,,,,,,,,,,,,,,,,,,,,0,0,0,0,0,0,0,0,0,0,0,0,0,0,0,0,,,,,,,,,,,,,
140514,1745300608873,1.38,135,,-0.37,-0.92,0.93,-28,3,2,1.36,1.38,99,10959,11.3,3.33,,10.81,1.249,84.4,,47.5,5,29,33,34,32,8.9,219.0,0.0,0.0,2.26,,,0,0,0,0,0,0,0,0,0,0,0,0,0,0,0,0,,1,,,,0.0,38.985985,-76.950676,47.51,48.8,29,3,0.9
140534,1745300608893,,,,,,,,,,,,,,,,,,,,,,,,,,,,,,,,,,0,0,0,0,0,0,0,0,0,0,0,0,0,0,0,0,,,,,,,,,,,,,
140554,1745300608908,0.0,135,,-0.32,-0.89,0.91,-31,2,2,1.31,1.38,95,10959,11.3,3.33,,9.07,1.109,84.4,,47.1,5,,,,,,,,,,,,0,0,0,0,0,0,0,0,0,0,0,0,0,0,0,0,,,,,,0.0,,,,,,,
140574,1745300608928,,,,,,,,,,,,,,,,,,,,,,,,,,,,,,,,,,0,0,0,0,0,0,0,0,0,0,0,0,0,0,0,0,,,,,,,,,,,,,
140594,1745300608948,0.0,134,,-0.36,-0.88,0.95,-31,1,2,1.34,1.38,97,10683,0.4,1.4,,7.43,0.991,84.4,,47.1,5,,,,,,,,,,,,0,0,0,0,0,0,0,0,0,0,0,0,0,0,0,0,,,,,,0.0,,,,,,,
140614,1745300608968,,,,,,,,,,,,,,,,,,,,,,,30,29,32,34,8.9,238.0,0.0,0.0,2.26,,,0,0,0,0,0,0,0,0,0,0,0,0,0,0,0,0,,0,,,,,38.985985,-76.950699,47.89,48.7,29,3,0.9
140634,1745300608988,0.0,134,,-0.41,-0.83,0.94,-34,1,2,1.32,1.38,96,9851,0.2,1.4,,6.2,0.965,84.4,,47.1,5,,,,,,,,,,,,0,0,0,0,0,0,0,0,0,0,0,0,0,0,0,0,,,,,,0.0,,,,,,,
140654,1745300609002,,,,,,,,,,,,,,,,,,,,,,,,,,,,,,,,,,0,0,0,0,0,0,0,0,0,0,0,0,0,0,0,0,,,,,,,,,,,,,
140674,1745300609022,0.0,134,,-0.44,-0.75,0.95,-37,1,2,1.29,1.38,93,9322,0.4,1.4,,5.7,1.133,84.4,,44.6,5,,,,,,,,,,,,0,0,0,0,0,0,0,0,0,0,0,0,0,0,0,0,,,,,,0.0,,,,,,,
140694,1745300609042,,,,,,,,,,,,,,,,,,,,,,,,,,,,,,,,,,0,0,0,0,0,0,0,0,0,0,0,0,0,0,0,0,,,,,,,,,,,,,
140714,1745300609062,0.0,134,,-0.5,-1.13,0.96,-40,1,1,1.57,1.57,100,9219,15.6,1.87,,5.7,1.133,84.4,,44.6,5,30,34,29,33,8.9,23.0,0.0,0.0,2.26,,,0,0,0,0,0,0,0,0,0,0,0,0,0,0,0,0,,0,,,,0.0,38.985989,-76.950706,51.11,48.7,31,3,0.8
140734,1745300609082,,,,,,,,,,,,,,,,,,,,,,,,,,,,,,,,,,0,0,0,0,0,0,0,0,0,0,0,0,0,0,0,0,,,,,,,,,,,,,
140754,1745300609108,0.0,134,,-0.55,-1.08,0.99,-45,1,2,1.56,1.57,100,9219,15.6,1.87,,6.46,1.254,84.4,,44.6,5,,,,,,,,,,,,0,0,0,0,0,0,0,0,0,0,0,0,0,0,0,0,,,,,,0.0,,,,,,,
140774,1745300609128,,,,,,,,,,,,,,,,,,,,,,,,,,,,,,,,,,0,0,0,0,0,0,0,0,0,0,0,0,0,0,0,0,,,,,,,,,,,,,
140794,1745300609148,0.0,134,,-0.57,-1.25,0.91,-49,1,2,1.64,1.64,100,9451,31.9,2.82,,8.86,1.254,84.4,,44.6,5,,,,,,,,,,,,0,0,0,0,0,0,0,0,0,0,0,0,0,0,0,0,,,,,,0.0,,,,,,,
140814,1745300609168,,,,,,,,,,,,,,,,,,,,,,,29,35,25,31,8.9,250.0,0.0,0.0,2.26,,,0,0,0,0,0,0,0,0,0,0,0,0,0,0,0,0,,0,,,,,38.985992,-76.950722,48.49,48.7,31,3,0.8
140834,1745300609188,0.0,134,,-0.55,-1.12,0.88,-52,2,1,1.53,1.64,93,9846,33.9,3.59,,10.49,1.253,84.4,,44.6,5,,,,,,,,,,,,0,0,0,0,0,0,0,0,0,0,0,0,0,0,0,0,,,,,,0.0,,,,,,,
140854,1745300609210,,,,,,,,,,,,,,,,,,,,,,,,,,,,,,,,,,0,0,0,0,0,0,0,0,0,0,0,0,0,0,0,0,,,,,,,,,,,,,
140874,1745300609230,0.0,133,,-0.55,-1.11,0.84,-53,2,0,1.5,1.64,91,10390,34.7,4.65,,11.18,1.251,84.4,,44.4,5,,,,,,,,,,,,0,0,0,0,0,0,0,0,0,0,0,0,0,0,0,0,,,,,,0.0,,,,,,,
140894,1745300609250,,,,,,,,,,,,,,,,,,,,,,,,,,,,,,,,,,0,0,0,0,0,0,0,0,0,0,0,0,0,0,0,0,,,,,,,,,,,,,
140914,1745300609270,0.0,134,,-0.46,-1.14,0.89,-52,2,1,1.51,1.64,92,11059,34.9,3.87,,11.18,1.251,84.4,,44.4,5,27,33,28,30,8.9,222.0,0.0,0.0,2.26,,,0,0,0,0,0,0,0,0,0,0,0,0,0,0,0,0,,0,,,,0.0,38.985992,-76.950737,46.09,48.7,31,3,0.8
140934,1745300609292,,,,,,,,,,,,,,,,,,,,,,,,,,,,,,,,,,0,0,0,0,0,0,0,0,0,0,0,0,0,0,0,0,,,,,,,,,,,,,
140954,1745300609312,0.0,134,,-0.39,-1.11,0.92,-53,2,1,1.49,1.64,91,11059,34.9,3.87,,11.24,1.233,84.4,,47.0,5,,,,,,,,,,,,0,0,0,0,0,0,0,0,0,0,0,0,0,0,0,0,,,,,,0.0,,,,,,,
140974,1745300609332,,,,,,,,,,,,,,,,,,,,,,,,,,,,,,,,,,0,0,0,0,0,0,0,0,0,0,0,0,0,0,0,0,,,,,,,,,,,,,
140994,1745300609352,0.0,135,,-0.31,-1.1,0.86,-52,2,1,1.43,1.64,87,11119,35.5,3.85,,11.42,1.053,84.4,,47.0,5,,,,,,,,,,,,0,0,0,0,0,0,0,0,0,0,0,0,0,0,0,0,,,,,,0.0,,,,,,,
141014,1745300609372,,,,,,,,,,,,,,,,,,,,,,,29,37,32,34,8.9,32.0,0.0,0.0,2.26,,,0,0,0,0,0,0,0,0,0,0,0,0,0,0,0,0,,1,,,,,38.985996,-76.950752,45.36,48.7,31,3,0.8
141034,1745300609392,0.0,134,,-0.26,-1.08,0.92,-52,2,2,1.44,1.64,88,11072,35.0,3.86,,11.14,1.037,84.4,,47.0,5,,,,,,,,,,,,0,0,0,0,0,0,0,0,0,0,0,0,0,0,0,0,,,,,,0.0,,,,,,,
141054,1745300609412,,,,,,,,,,,,,,,,,,,,,,,,,,,,,,,,,,0,0,0,0,0,0,0,0,0,0,0,0,0,0,0,0,,,,,,,,,,,,,
141074,1745300609432,0.0,134,,-0.25,-1.16,0.95,-52,2,1,1.52,1.64,92,11102,32.3,3.92,,11.22,1.05,84.4,,45.8,5,,,,,,,,,,,,0,0,0,0,0,0,0,0,0,0,0,0,0,0,0,0,,,,,,0.0,,,,,,,
141094,1745300609452,,,,,,,,,,,,,,,,,,,,,,,,,,,,,,,,,,0,0,0,0,0,0,0,0,0,0,0,0,0,0,0,0,,,,,,,,,,,,,
141114,1745300609472,0.0,134,,-0.17,-1.18,0.94,-53,2,1,1.52,1.64,92,11224,31.5,3.77,,11.22,1.05,84.4,,45.8,5,29,32,33,36,8.9,47.0,7.0,0.0,2.26,,,0,0,0,0,0,0,0,0,0,0,0,0,0,0,0,0,,0,,,,0.0,38.986004,-76.950768,46.94,48.7,31,3,0.8
141134,1745300609492,,,,,,,,,,,,,,,,,,,,,,,,,,,,,,,,,,0,0,0,0,0,0,0,0,0,0,0,0,0,0,0,0,,,,,,,,,,,,,
141154,1745300609512,0.0,135,,-0.12,-1.12,0.89,-52,3,1,1.43,1.64,87,11224,31.5,3.77,,10.97,1.04,84.4,,46.6,5,,,,,,,,,,,,0,0,0,0,0,0,0,0,0,0,0,0,0,0,0,0,,,,,,0.0,,,,,,,
141174,1745300609532,,,,,,,,,,,,,,,,,,,,,,,,,,,,,,,,,,0,0,0,0,0,0,0,0,0,0,0,0,0,0,0,0,,,,,,,,,,,,,
141194,1745300610995,0.0,87,,-0.08,-0.77,0.9,-44,3,1,1.19,1.19,100,11335,31.5,3.64,,6.83,1.252,86.2,,46.6,5,,,,,,,,,,,,0,0,0,0,0,0,0,0,0,0,0,0,0,0,0,0,,,,,,0.0,,,,,,,
141214,1745300611015,,,,,,,,,,,,,,,,,,,,,,,32,31,33,34,8.9,96.0,0.0,0.0,2.26,,,0,0,0,0,0,0,0,0,0,0,0,0,0,0,0,0,,1,,,,,38.986092,-76.950981,46.8,48.6,32,3,0.8
141234,1745300611035,0.0,96,,-0.12,-0.49,0.86,-33,3,-0,0.99,1.19,84,9092,16.4,2.49,,6.83,1.252,86.2,,46.6,5,,,,,,,,,,,,0,0,0,0,0,0,0,0,0,0,0,0,0,0,0,0,,,,,,0.0,,,,,,,
141254,1745300611055,,,,,,,,,,,,,,,,,,,,,,,,,,,,,,,,,,0,0,0,0,0,0,0,0,0,0,0,0,0,0,0,0,,,,,,,,,,,,,
141274,1745300611105,0.0,90,,-0.12,-0.61,0.86,-21,2,-1,1.06,1.19,89,9092,16.4,2.49,,7.82,1.252,86.2,,44.9,5,,,,,,,,,,,,0,0,0,0,0,0,0,0,0,0,0,0,0,0,0,0,,,,,,0.0,,,,,,,
141294,1745300611125,,,,,,,,,,,,,,,,,,,,,,,,,,,,,,,,,,0,0,0,0,0,0,0,0,0,0,0,0,0,0,0,0,,,,,,,,,,,,,
141314,1745300611145,0.0,107,12.91,-0.12,-0.5,1.01,-10,2,-1,1.14,1.19,96,9541,20.2,2.94,15,8.51,1.251,86.2,183,44.9,5,29,31,29,26,8.9,197.0,0.0,0.0,2.26,0,1.0,0,0,0,0,0,0,0,0,0,0,0,0,0,0,0,0,0,0,1.0,0,0,0.0,38.986088,-76.950996,44.59,48.6,32,3,0.8
141334,1745300611165,,,,,,,,,,,,,,,,,,,,,,,,,,,,,,,,,,0,0,0,0,0,0,0,0,0,0,0,0,0,0,0,0,,,,,,,,,,,,,
141354,1745300611185,0.0,96,,-0.08,-0.13,1.05,-2,1,-1,1.06,1.19,89,9964,22.7,3.18,,9.05,1.124,86.2,,44.9,5,,,,,,,,,,,,0,0,0,0,0,0,0,0,0,0,0,0,0,0,0,0,,,,,,0.0,,,,,,,
141374,1745300611200,,,,,,,,,,,,,,,,,,,,,,,,,,,,,,,,,,0,0,0,0,0,0,0,0,0,0,0,0,0,0,0,0,,,,,,,,,,,,,
