"Interval"|"ms"|0|0|1,"Utc"|"ms"|0|0|1,"FrontBP"|"psi"|-5.0|5.0|25,"SteerAng"|"Degrees"|-145|145|25,"Battery"|"Volts"|-5.0|20.0|1,"AccelX"|"G"|-3.0|3.0|25,"AccelY"|"G"|-3.0|3.0|25,"AccelZ"|"G"|-3.0|3.0|25,"Yaw"|"Deg/Sec"|-120|120|25,"Pitch"|"Deg/Sec"|-120|120|25,"Roll"|"Deg/Sec"|-120|120|25,"Gsum"|"G"|0.0|3.0|25,"GsumMax"|"G"|0.0|3.0|25,"GsumPct"|"%"|0|100|25,"RPM"|""|0|10000|25,"TPS"|"%"|0.0|100.0|25,"InjectorPW"|"ms"|0.0|100.0|25,"Baro"|"kPa"|0|105|1,"MAP"|"Psi"|0.0|255.0|25,"Lambda"|""|-2.0|2.0|25,"IAT"|"C"|0.0|200.0|25,"EngineTemp"|"C"|0|200|1,"EOP"|"PSI"|0.0|152.0|25,"EOT"|"F"|0|250|25,"WSFR"|"MPH"|0|150|10,"WSFL"|"MPH"|0|100|10,"WSRR"|"MPH"|0|100|10,"WSRL"|""|0|100|10,"TCSet"|"%"|0.0|100.0|10,"TCSlip"|"%"|0.0|100.0|10,"TCComp"|"deg"|0.0|50.0|10,"TCCut"|"%"|0.0|100.0|10,"Analog8"|""|0.0|5.0|10,"OilTemp"|"F"|0|300|1,"AA_On"|""|0.0|1.0|1,"ThermLF1"|"C"|0|400|50,"ThermLF2"|"C"|0|400|50,"ThermRR1"|"C"|0|400|50,"ThermRR2"|"C"|0|400|50,"ThermLF3"|"C"|0|400|50,"ThermLF4"|"C"|0|400|50,"ThermLF5"|"C"|0|400|50,"ThermLF6"|"C"|0|400|50,"ThermLF7"|"C"|0|400|50,"ThermLF8"|"C"|0|400|50,"ThermRR3"|"C"|0|400|50,"ThermRR4"|"C"|0|400|50,"ThermRR5"|"C"|0|400|50,"ThermRR6"|"C"|0|400|50,"ThermRR7"|"C"|0|400|50,"ThermRR8"|"C"|0|400|50,"AA_LowDrag"|""|0|1|1,"Gear"|""|1|6|10,"AA_On"|""|0.0|1.0|1,"AA_LowDrag"|""|0|1|1,"Fuel_Mix"|""|-10|10|1,"AA_Packages"|""|0.0|1000.0|25,"Latitude"|"Degrees"|-180.0|180.0|10,"Longitude"|"Degrees"|-180.0|180.0|10,"Speed"|"kph"|0.0|150.0|10,"Altitude"|"m"|0.0|4000.0|10,"GPSSats"|""|0|20|10,"GPSQual"|""|0|5|10,"GPSDOP"|""|0.0|20.0|10
1941695,1745300437260,0.0,-61,,-0.09,0.03,1.01,-0,-0,0,1.02,1.02,100,3636,6.2,3.89,,12.83,1.193,104.2,,24.7,5,,,,,,,,,,,,0,0,0,0,0,0,0,0,0,0,0,0,0,0,0,0,,,,,,0.0,,,,,,,
1941715,1745300437280,,,,,,,,,,,,,,,,,,,,,,,,,,,,,,,,,,0,0,0,0,0,0,0,0,0,0,0,0,0,0,0,0,,,,,,,,,,,,,
1941735,1745300437302,0.0,-46,,-0.08,0.06,0.99,2,-0,0,1.0,1.02,98,3490,6.3,3.88,,12.8,1.222,104.2,,25.1,5,,,,,,,,,,,,0,0,0,0,0,0,0,0,0,0,0,0,0,0,0,0,,,,,,0.0,,,,,,,
1941755,1745300437322,,,,,,,,,,,,,,,,,,,,,,,,,,,,,,,,,,0,0,0,0,0,0,0,0,0,0,0,0,0,0,0,0,,,,,,,,,,,,,
1941775,1745300437342,0.0,-57,,-0.1,0.04,0.95,3,-0,-0,0.95,1.02,94,3654,6.4,3.88,,12.75,1.25,104.2,,25.1,5,0,0,0,0,0.0,0.0,0.0,0.0,2.25,,,0,0,0,0,0,0,0,0,0,0,0,0,0,0,0,0,,0,,,,0.0,38.986019,-76.950005,0.08,49.9,32,3,0.8
1941795,1745300437362,,,,,,,,,,,,,,,,,,,,,,,,,,,,,,,,,,0,0,0,0,0,0,0,0,0,0,0,0,0,0,0,0,,,,,,,,,,,,,
1941815,1745300437382,0.0,-38,,-0.12,0.04,0.95,2,-0,-0,0.95,1.02,94,3640,6.4,3.86,,12.71,1.236,104.2,,25.1,5,,,,,,,,,,,,0,0,0,0,0,0,0,0,0,0,0,0,0,0,0,0,,,,,,0.0,,,,,,,
1941835,1745300437402,,,,,,,,,,,,,,,,,,,,,,,,,,,,,,,,,,0,0,0,0,0,0,0,0,0,0,0,0,0,0,0,0,,,,,,,,,,,,,
1941855,1745300437422,0.0,-53,,-0.11,-0.01,0.96,1,-0,-0,0.96,1.02,95,3663,6.4,3.85,,12.71,1.236,104.2,,25.6,5,,,,,,,,,,,,0,0,0,0,0,0,0,0,0,0,0,0,0,0,0,0,,,,,,0.0,,,,,,,
1941875,1745300437442,,,,,,,,,,,,,,,,,,,,,,,0,0,0,0,0.0,0.0,0.0,0.0,2.26,,,0,0,0,0,0,0,0,0,0,0,0,0,0,0,0,0,,0,,,,,38.986019,-76.950005,0.14,49.9,32,3,0.8
1941895,1745300437462,0.0,-76,,-0.11,-0.08,0.95,-0,-0,-0,0.96,1.02,95,3663,6.4,3.85,,12.68,1.223,104.2,,25.6,5,,,,,,,,,,,,0,0,0,0,0,0,0,0,0,0,0,0,0,0,0,0,,,,,,0.0,,,,,,,
1941915,1745300437482,,,,,,,,,,,,,,,,,,,,,,,,,,,,,,,,,,0,0,0,0,0,0,0,0,0,0,0,0,0,0,0,0,,,,,,,,,,,,,
1941935,1745300437503,0.0,-57,,-0.1,-0.07,0.99,-1,-0,-0,0.99,1.02,98,3669,6.2,3.82,,12.65,1.201,104.2,,26.0,5,,,,,,,,,,,,0,0,0,0,0,0,0,0,0,0,0,0,0,0,0,0,,,,,,0.0,,,,,,,
1941955,1745300437523,,,,,,,,,,,,,,,,,,,,,,,,,,,,,,,,,,0,0,0,0,0,0,0,0,0,0,0,0,0,0,0,0,,,,,,,,,,,,,
1941975,1745300437543,0.0,-53,,-0.09,-0.04,0.99,-1,-0,0,1.0,1.02,98,3717,6.2,3.83,,12.69,1.182,104.2,,26.0,5,0,0,0,0,0.0,0.0,0.0,0.0,2.26,,,0,0,0,0,0,0,0,0,0,0,0,0,0,0,0,0,,0,,,,0.0,38.986019,-76.950005,0.04,50.0,32,3,0.8
1941995,1745300437563,,,,,,,,,,,,,,,,,,,,,,,,,,,,,,,,,,0,0,0,0,0,0,0,0,0,0,0,0,0,0,0,0,,,,,,,,,,,,,
1942015,1745300437583,0.0,-42,,-0.09,-0.05,0.98,-1,-0,0,0.99,1.02,97,3691,6.1,3.79,,12.69,1.159,104.2,,26.0,5,,,,,,,,,,,,0,0,0,0,0,0,0,0,0,0,0,0,0,0,0,0,,,,,,0.0,,,,,,,
1942035,1745300437603,,,,,,,,,,,,,,,,,,,,,,,,,,,,,,,,,,0,0,0,0,0,0,0,0,0,0,0,0,0,0,0,0,,,,,,,,,,,,,
1942055,1745300437623,0.0,-53,,-0.11,-0.03,0.99,-1,-0,0,1.0,1.02,98,3747,6.1,3.78,,12.69,1.159,104.2,,25.9,5,,,,,,,,,,,,0,0,0,0,0,0,0,0,0,0,0,0,0,0,0,0,,,,,,0.0,,,,,,,
1942075,1745300437643,,,,,,,,,,,,,,,,,,,,,,,0,0,0,0,0.0,0.0,0.0,0.0,2.26,,,0,0,0,0,0,0,0,0,0,0,0,0,0,0,0,0,,0,,,,,38.986019,-76.950005,0.14,50.0,32,3,0.8
1942095,1745300437663,0.0,-53,,-0.1,-0.0,0.99,-1,-0,0,1.0,1.02,98,3747,6.1,3.78,,12.69,1.17,104.2,,25.9,5,,,,,,,,,,,,0,0,0,0,0,0,0,0,0,0,0,0,0,0,0,0,,,,,,0.0,,,,,,,
1942115,1745300437683,,,,,,,,,,,,,,,,,,,,,,,,,,,,,,,,,,0,0,0,0,0,0,0,0,0,0,0,0,0,0,0,0,,,,,,,,,,,,,
1942135,1745300437703,0.0,-34,,-0.09,0.03,0.98,-1,-0,0,0.99,1.02,97,3737,6.0,3.75,,12.61,1.177,104.2,,26.1,5,,,,,,,,,,,,0,0,0,0,0,0,0,0,0,0,0,0,0,0,0,0,,,,,,0.0,,,,,,,
1942155,1745300437723,,,,,,,,,,,,,,,,,,,,,,,,,,,,,,,,,,0,0,0,0,0,0,0,0,0,0,0,0,0,0,0,0,,,,,,,,,,,,,
1942175,1745300437743,0.0,-53,,-0.09,-0.0,0.97,-0,-0,0,0.98,1.02,96,3733,6.0,3.75,,12.57,1.18,104.2,,26.1,5,0,0,0,0,0.0,0.0,0.0,0.0,2.26,,,0,0,0,0,0,0,0,0,0,0,0,0,0,0,0,0,,0,,,,0.0,38.986019,-76.950005,0.12,50.0,32,3,0.8
1942195,1745300437763,,,,,,,,,,,,,,,,,,,,,,,,,,,,,,,,,,0,0,0,0,0,0,0,0,0,0,0,0,0,0,0,0,,,,,,,,,,,,,
1942215,1745300437783,0.0,-53,,-0.1,0.01,1.0,0,-0,0,1.0,1.02,98,3713,6.0,3.74,,12.59,1.186,104.2,,26.1,5,,,,,,,,,,,,0,0,0,0,0,0,0,0,0,0,0,0,0,0,0,0,,,,,,0.0,,,,,,,
1942235,1745300437803,,,,,,,,,,,,,,,,,,,,,,,,,,,,,,,,,,0,0,0,0,0,0,0,0,0,0,0,0,0,0,0,0,,,,,,,,,,,,,
1942255,1745300437823,0.0,-68,,-0.08,0.04,1.01,-0,-0,0,1.01,1.02,99,3733,6.0,3.72,,12.59,1.186,104.2,,26.0,5,,,,,,,,,,,,0,0,0,0,0,0,0,0,0,0,0,0,0,0,0,0,,,,,,0.0,,,,,,,
1942275,1745300437843,,,,,,,,,,,,,,,,,,,,,,,0,0,0,0,0.0,0.0,0.0,0.0,2.26,,,0,0,0,0,0,0,0,0,0,0,0,0,0,0,0,0,,0,,,,,38.986019,-76.950005,0.0,50.0,32,3,0.8
1942295,1745300437863,0.0,-42,,-0.08,0.0,1.0,1,-0,0,1.0,1.02,98,3733,6.0,3.72,,12.59,1.197,104.2,,26.0,5,,,,,,,,,,,,0,0,0,0,0,0,0,0,0,0,0,0,0,0,0,0,,,,,,0.0,,,,,,,
1942315,1745300437883,,,,,,,,,,,,,,,,,,,,,,,,,,,,,,,,,,0,0,0,0,0,0,0,0,0,0,0,0,0,0,0,0,,,,,,,,,,,,,
1942335,1745300437903,0.0,-38,,-0.07,0.03,1.01,1,-0,0,1.01,1.02,99,3734,6.0,3.74,,12.6,1.192,104.2,,26.1,5,,,,,,,,,,,,0,0,0,0,0,0,0,0,0,0,0,0,0,0,0,0,,,,,,0.0,,,,,,,
1942355,1745300437923,,,,,,,,,,,,,,,,,,,,,,,,,,,,,,,,,,0,0,0,0,0,0,0,0,0,0,0,0,0,0,0,0,,,,,,,,,,,,,
1942375,1745300437943,0.0,-38,,-0.07,0.02,1.03,1,-0,0,1.03,1.03,100,3704,6.0,3.74,,12.53,1.187,104.2,,26.1,5,0,0,0,0,0.0,0.0,0.0,0.0,2.26,,,0,0,0,0,0,0,0,0,0,0,0,0,0,0,0,0,,0,,,,0.0,38.986019,-76.950005,0.11,50.0,32,3,0.8
1942395,1745300437963,,,,,,,,,,,,,,,,,,,,,,,,,,,,,,,,,,0,0,0,0,0,0,0,0,0,0,0,0,0,0,0,0,,,,,,,,,,,,,
1942415,1745300437983,0.0,-27,,-0.06,0.01,1.02,2,-0,0,1.02,1.03,99,3735,5.9,3.74,,12.56,1.196,104.2,,26.1,5,,,,,,,,,,,,0,0,0,0,0,0,0,0,0,0,0,0,0,0,0,0,,,,,,0.0,,,,,,,
1942435,1745300437993,,,,,,,,,,,,,,,,,,,,,,,,,,,,,,,,,,0,0,0,0,0,0,0,0,0,0,0,0,0,0,0,0,,,,,,,,,,,,,
1942455,1745300438013,0.0,-61,,-0.07,0.03,1.0,2,-0,0,1.0,1.03,97,3710,5.8,3.74,,12.56,1.196,104.2,,26.2,5,,,,,,,,,,,,0,0,0,0,0,0,0,0,0,0,0,0,0,0,0,0,,,,,,0.0,,,,,,,
1942475,1745300438033,,,,,,,,,,,,,,,,,,,,,,,0,0,0,0,0.0,0.0,0.0,0.0,2.26,,,0,0,0,0,0,0,0,0,0,0,0,0,0,0,0,0,,0,,,,,38.986019,-76.950005,0.04,50.0,32,3,0.8
1942495,1745300438053,0.0,-61,,-0.07,-0.0,1.01,2,-0,0,1.01,1.03,98,3710,5.8,3.74,,12.57,1.183,104.2,,26.2,5,,,,,,,,,,,,0,0,0,0,0,0,0,0,0,0,0,0,0,0,0,0,,,,,,0.0,,,,,,,
1942515,1745300438073,,,,,,,,,,,,,,,,,,,,,,,,,,,,,,,,,,0,0,0,0,0,0,0,0,0,0,0,0,0,0,0,0,,,,,,,,,,,,,
1942535,1745300438097,0.0,-42,,-0.07,-0.03,1.02,2,-0,-0,1.02,1.03,99,3761,5.7,3.73,,12.51,1.18,104.2,,26.5,5,,,,,,,,,,,,0,0,0,0,0,0,0,0,0,0,0,0,0,0,0,0,,,,,,0.0,,,,,,,
1942555,1745300438117,,,,,,,,,,,,,,,,,,,,,,,,,,,,,,,,,,0,0,0,0,0,0,0,0,0,0,0,0,0,0,0,0,,,,,,,,,,,,,
1942575,1745300438137,0.0,-46,12.91,-0.07,-0.0,1.02,2,-0,0,1.02,1.03,99,3728,5.7,3.73,15,12.52,1.188,104.2,176,26.5,5,0,0,0,0,0.0,0.0,0.0,0.0,2.26,0,1.0,0,0,0,0,0,0,0,0,0,0,0,0,0,0,0,0,0,0,1.0,0,0,0.0,38.986019,-76.950005,0.0,50.0,32,3,0.8
1942595,1745300438157,,,,,,,,,,,,,,,,,,,,,,,,,,,,,,,,,,0,0,0,0,0,0,0,0,0,0,0,0,0,0,0,0,,,,,,,,,,,,,
1942615,1745300438177,0.0,-53,,-0.07,0.02,1.01,2,-0,-0,1.01,1.03,98,3789,5.8,3.73,,12.49,1.196,104.2,,26.5,5,,,,,,,,,,,,0,0,0,0,0,0,0,0,0,0,0,0,0,0,0,0,,,,,,0.0,,,,,,,
1942635,1745300438201,,,,,,,,,,,,,,,,,,,,,,,,,,,,,,,,,,0,0,0,0,0,0,0,0,0,0,0,0,0,0,0,0,,,,,,,,,,,,,
1942655,1745300438221,0.0,-46,,-0.07,-0.0,1.0,2,-0,-0,1.01,1.03,98,3707,5.7,3.72,,12.49,1.196,104.2,,26.6,5,,,,,,,,,,,,0,0,0,0,0,0,0,0,0,0,0,0,0,0,0,0,,,,,,0.0,,,,,,,
1942675,1745300438241,,,,,,,,,,,,,,,,,,,,,,,0,0,0,0,0.0,0.0,0.0,0.0,2.26,,,0,0,0,0,0,0,0,0,0,0,0,0,0,0,0,0,,0,,,,,38.986019,-76.950005,0.07,50.0,32,3,0.8
1942695,1745300438261,0.0,-46,,-0.08,-0.03,1.0,2,-0,-0,1.01,1.03,97,3707,5.7,3.72,,12.57,1.18,104.2,,26.6,5,,,,,,,,,,,,0,0,0,0,0,0,0,0,0,0,0,0,0,0,0,0,,,,,,0.0,,,,,,,
1942715,1745300438281,,,,,,,,,,,,,,,,,,,,,,,,,,,,,,,,,,0,0,0,0,0,0,0,0,0,0,0,0,0,0,0,0,,,,,,,,,,,,,
1942735,1745300438303,0.0,-8,,-0.08,-0.03,0.98,2,-0,-0,0.98,1.03,95,3717,5.7,3.73,,12.52,1.189,104.2,,26.1,5,,,,,,,,,,,,0,0,0,0,0,0,0,0,0,0,0,0,0,0,0,0,,,,,,0.0,,,,,,,
1942755,1745300438323,,,,,,,,,,,,,,,,,,,,,,,,,,,,,,,,,,0,0,0,0,0,0,0,0,0,0,0,0,0,0,0,0,,,,,,,,,,,,,
1942775,1745300438343,0.0,-38,,-0.1,-0.01,0.96,2,-0,-0,0.97,1.03,94,3736,5.8,3.74,,12.6,1.196,104.2,,26.1,5,0,0,0,0,0.0,0.0,0.0,0.0,2.26,,,0,0,0,0,0,0,0,0,0,0,0,0,0,0,0,0,,0,,,,0.0,38.986019,-76.950005,0.08,50.0,32,3,0.8
1942795,1745300438363,,,,,,,,,,,,,,,,,,,,,,,,,,,,,,,,,,0,0,0,0,0,0,0,0,0,0,0,0,0,0,0,0,,,,,,,,,,,,,
1942815,1745300438383,0.0,3,,-0.11,0.0,0.96,1,-0,-0,0.96,1.03,93,3694,5.7,3.73,,12.51,1.193,104.2,,26.1,5,,,,,,,,,,,,0,0,0,0,0,0,0,0,0,0,0,0,0,0,0,0,,,,,,0.0,,,,,,,
1942835,1745300438403,,,,,,,,,,,,,,,,,,,,,,,,,,,,,,,,,,0,0,0,0,0,0,0,0,0,0,0,0,0,0,0,0,,,,,,,,,,,,,
1942855,1745300438423,0.0,-53,,-0.1,0.0,0.95,1,-0,-0,0.96,1.03,93,3706,5.7,3.73,,12.51,1.193,104.2,,26.0,5,,,,,,,,,,,,0,0,0,0,0,0,0,0,0,0,0,0,0,0,0,0,,,,,,0.0,,,,,,,
1942875,1745300438443,,,,,,,,,,,,,,,,,,,,,,,0,0,0,0,0.0,0.0,0.0,0.0,2.26,,,0,0,0,0,0,0,0,0,0,0,0,0,0,0,0,0,,0,,,,,38.986019,-76.950005,0.07,50.0,32,3,0.8
1942895,1745300438463,0.0,-61,,-0.1,-0.05,0.94,-0,-0,-0,0.95,1.03,92,3706,5.7,3.73,,12.55,1.199,104.2,,26.0,5,,,,,,,,,,,,0,0,0,0,0,0,0,0,0,0,0,0,0,0,0,0,,,,,,0.0,,,,,,,
1942915,1745300438483,,,,,,,,,,,,,,,,,,,,,,,,,,,,,,,,,,0,0,0,0,0,0,0,0,0,0,0,0,0,0,0,0,,,,,,,,,,,,,
1942935,1745300438502,0.0,-38,,-0.1,-0.07,0.97,-1,-0,-0,0.98,1.03,95,3663,5.6,3.73,,12.56,1.203,104.2,,25.8,5,,,,,,,,,,,,0,0,0,0,0,0,0,0,0,0,0,0,0,0,0,0,,,,,,0.0,,,,,,,
1942955,1745300438522,,,,,,,,,,,,,,,,,,,,,,,,,,,,,,,,,,0,0,0,0,0,0,0,0,0,0,0,0,0,0,0,0,,,,,,,,,,,,,
1942975,1745300438542,0.0,-53,,-0.09,-0.1,0.99,-2,-0,-0,1.0,1.03,97,3715,5.5,3.72,,12.53,1.194,104.2,,25.8,5,0,0,0,0,0.0,0.0,0.0,0.0,2.26,,,0,0,0,0,0,0,0,0,0,0,0,0,0,0,0,0,,0,,,,0.0,38.986019,-76.950005,0.04,50.0,32,3,0.8
1942995,1745300438562,,,,,,,,,,,,,,,,,,,,,,,,,,,,,,,,,,0,0,0,0,0,0,0,0,0,0,0,0,0,0,0,0,,,,,,,,,,,,,
1943015,1745300438582,0.0,-34,,-0.09,-0.05,0.98,-2,-0,-0,0.98,1.03,95,3718,5.5,3.72,,12.56,1.181,104.2,,25.8,5,,,,,,,,,,,,0,0,0,0,0,0,0,0,0,0,0,0,0,0,0,0,,,,,,0.0,,,,,,,
1943035,1745300438602,,,,,,,,,,,,,,,,,,,,,,,,,,,,,,,,,,0,0,0,0,0,0,0,0,0,0,0,0,0,0,0,0,,,,,,,,,,,,,
1943055,1745300438622,0.0,-61,,-0.1,-0.05,0.96,-2,-0,-0,0.96,1.03,93,3759,5.4,3.72,,12.56,1.181,104.2,,26.3,5,,,,,,,,,,,,0,0,0,0,0,0,0,0,0,0,0,0,0,0,0,0,,,,,,0.0,,,,,,,
1943075,1745300438642,,,,,,,,,,,,,,,,,,,,,,,0,0,0,0,0.0,0.0,0.0,0.0,2.26,,,0,0,0,0,0,0,0,0,0,0,0,0,0,0,0,0,,0,,,,,38.986019,-76.950005,0.05,50.0,32,3,0.8
1943095,1745300438662,0.0,-53,,-0.1,-0.09,0.98,-2,-0,-0,0.99,1.03,96,3759,5.4,3.72,,12.49,1.189,104.2,,26.3,5,,,,,,,,,,,,0,0,0,0,0,0,0,0,0,0,0,0,0,0,0,0,,,,,,0.0,,,,,,,
1943115,1745300438682,,,,,,,,,,,,,,,,,,,,,,,,,,,,,,,,,,0,0,0,0,0,0,0,0,0,0,0,0,0,0,0,0,,,,,,,,,,,,,
1943135,1745300438702,0.0,-61,,-0.09,-0.1,0.99,-2,-0,-0,1.0,1.03,96,3735,5.4,3.71,,12.49,1.19,104.2,,25.9,5,,,,,,,,,,,,0,0,0,0,0,0,0,0,0,0,0,0,0,0,0,0,,,,,,0.0,,,,,,,
1943155,1745300438722,,,,,,,,,,,,,,,,,,,,,,,,,,,,,,,,,,0,0,0,0,0,0,0,0,0,0,0,0,0,0,0,0,,,,,,,,,,,,,
1943175,1745300438742,0.0,-53,,-0.09,-0.09,0.98,-1,-0,-0,0.98,1.03,95,3793,5.4,3.71,,12.45,1.198,104.2,,25.9,5,0,0,0,0,0.0,0.0,0.0,0.0,2.26,,,0,0,0,0,0,0,0,0,0,0,0,0,0,0,0,0,,0,,,,0.0,38.986019,-76.950005,0.11,50.0,32,3,0.8
1943195,1745300438762,,,,,,,,,,,,,,,,,,,,,,,,,,,,,,,,,,0,0,0,0,0,0,0,0,0,0,0,0,0,0,0,0,,,,,,,,,,,,,
1943215,1745300438782,0.0,-42,,-0.1,-0.1,0.96,-1,-0,-0,0.98,1.03,94,3752,5.4,3.71,,12.43,1.195,104.2,,25.9,5,,,,,,,,,,,,0,0,0,0,0,0,0,0,0,0,0,0,0,0,0,0,,,,,,0.0,,,,,,,
1943235,1745300438802,,,,,,,,,,,,,,,,,,,,,,,,,,,,,,,,,,0,0,0,0,0,0,0,0,0,0,0,0,0,0,0,0,,,,,,,,,,,,,
1943255,1745300438822,0.0,-46,,-0.09,-0.12,1.02,-1,-0,-0,1.03,1.03,99,3740,5.5,3.71,,12.43,1.195,104.2,,25.8,5,,,,,,,,,,,,0,0,0,0,0,0,0,0,0,0,0,0,0,0,0,0,,,,,,0.0,,,,,,,
1943275,1745300438842,,,,,,,,,,,,,,,,,,,,,,,0,0,0,0,0.0,0.0,0.0,0.0,2.26,,,0,0,0,0,0,0,0,0,0,0,0,0,0,0,0,0,,0,,,,,38.986019,-76.950005,0.11,50.0,32,3,0.8
1943295,1745300438862,0.0,-38,,-0.09,-0.13,1.01,-1,-0,-0,1.02,1.03,99,3740,5.5,3.71,,12.41,1.178,104.2,,25.8,5,,,,,,,,,,,,0,0,0,0,0,0,0,0,0,0,0,0,0,0,0,0,,,,,,0.0,,,,,,,
1943315,1745300438882,,,,,,,,,,,,,,,,,,,,,,,,,,,,,,,,,,0,0,0,0,0,0,0,0,0,0,0,0,0,0,0,0,,,,,,,,,,,,,
1943335,1745300438902,0.0,-27,,-0.09,-0.08,1.01,-1,-0,-0,1.02,1.03,98,3772,5.6,3.7,,12.47,1.17,104.2,,26.0,5,,,,,,,,,,,,0,0,0,0,0,0,0,0,0,0,0,0,0,0,0,0,,,,,,0.0,,,,,,,
1943355,1745300438922,,,,,,,,,,,,,,,,,,,,,,,,,,,,,,,,,,0,0,0,0,0,0,0,0,0,0,0,0,0,0,0,0,,,,,,,,,,,,,
1943375,1745300438942,0.0,-49,,-0.1,-0.07,1.0,-1,-0,-0,1.01,1.03,97,3689,5.6,3.71,,12.49,1.166,104.2,,26.0,5,0,0,0,0,0.0,0.0,0.0,0.0,2.26,,,0,0,0,0,0,0,0,0,0,0,0,0,0,0,0,0,,0,,,,0.0,38.986019,-76.950005,0.12,50.0,32,3,0.8
1943395,1745300438962,,,,,,,,,,,,,,,,,,,,,,,,,,,,,,,,,,0,0,0,0,0,0,0,0,0,0,0,0,0,0,0,0,,,,,,,,,,,,,
1943415,1745300438982,0.0,-46,,-0.1,-0.1,1.01,-2,-0,-0,1.01,1.03,98,3734,5.5,3.72,,12.48,1.17,104.2,,26.0,5,,,,,,,,,,,,0,0,0,0,0,0,0,0,0,0,0,0,0,0,0,0,,,,,,0.0,,,,,,,
1943435,1745300438994,,,,,,,,,,,,,,,,,,,,,,,,,,,,,,,,,,0,0,0,0,0,0,0,0,0,0,0,0,0,0,0,0,,,,,,,,,,,,,
1943455,1745300439014,0.0,-38,,-0.09,-0.08,1.0,-2,-0,-0,1.01,1.03,98,3708,5.5,3.71,,12.48,1.17,104.2,,26.2,5,,,,,,,,,,,,0,0,0,0,0,0,0,0,0,0,0,0,0,0,0,0,,,,,,0.0,,,,,,,
1943475,1745300439034,,,,,,,,,,,,,,,,,,,,,,,0,0,0,0,0.0,0.0,0.0,0.0,2.26,,,0,0,0,0,0,0,0,0,0,0,0,0,0,0,0,0,,0,,,,,38.986019,-76.950005,0.13,50.0,33,3,0.8
1943495,1745300439054,0.0,-42,,-0.09,-0.07,1.0,-1,-0,-0,1.0,1.03,97,3708,5.5,3.71,,12.49,1.177,104.2,,26.2,5,,,,,,,,,,,,0,0,0,0,0,0,0,0,0,0,0,0,0,0,0,0,,,,,,0.0,,,,,,,
1943515,1745300439074,,,,,,,,,,,,,,,,,,,,,,,,,,,,,,,,,,0,0,0,0,0,0,0,0,0,0,0,0,0,0,0,0,,,,,,,,,,,,,
1943535,1745300439102,0.0,-49,,-0.09,-0.04,1.02,-1,-0,0,1.03,1.03,99,3721,5.4,3.72,,12.44,1.177,104.2,,26.1,5,,,,,,,,,,,,0,0,0,0,0,0,0,0,0,0,0,0,0,0,0,0,,,,,,0.0,,,,,,,
1943555,1745300439122,,,,,,,,,,,,,,,,,,,,,,,,,,,,,,,,,,0,0,0,0,0,0,0,0,0,0,0,0,0,0,0,0,,,,,,,,,,,,,
1943575,1745300439142,0.0,-53,12.92,-0.08,-0.01,1.03,-1,-0,0,1.03,1.03,100,3685,5.3,3.71,15,12.49,1.168,104.2,176,26.1,5,0,0,0,0,0.0,0.0,0.0,0.0,2.26,0,1.0,0,0,0,0,0,0,0,0,0,0,0,0,0,0,0,0,0,0,1.0,0,0,0.0,38.986019,-76.950005,0.1,50.0,33,3,0.8
1943595,1745300439162,,,,,,,,,,,,,,,,,,,,,,,,,,,,,,,,,,0,0,0,0,0,0,0,0,0,0,0,0,0,0,0,0,,,,,,,,,,,,,
1943615,1745300439182,0.0,-42,,-0.08,-0.03,1.01,0,-0,0,1.02,1.03,98,3732,5.3,3.71,,12.49,1.187,104.2,,26.1,5,,,,,,,,,,,,0,0,0,0,0,0,0,0,0,0,0,0,0,0,0,0,,,,,,0.0,,,,,,,
1943635,1745300439198,,,,,,,,,,,,,,,,,,,,,,,,,,,,,,,,,,0,0,0,0,0,0,0,0,0,0,0,0,0,0,0,0,,,,,,,,,,,,,
1943655,1745300439218,0.0,-64,,-0.08,-0.02,1.02,1,-0,0,1.02,1.03,99,3700,5.3,3.71,,12.49,1.187,104.2,,26.1,5,,,,,,,,,,,,0,0,0,0,0,0,0,0,0,0,0,0,0,0,0,0,,,,,,0.0,,,,,,,
1943675,1745300439238,,,,,,,,,,,,,,,,,,,,,,,0,0,0,0,0.0,0.0,0.0,0.0,2.26,,,0,0,0,0,0,0,0,0,0,0,0,0,0,0,0,0,,0,,,,,38.986019,-76.950005,0.04,50.0,33,3,0.8
1943695,1745300439258,0.0,-46,,-0.08,-0.04,1.02,1,-0,0,1.02,1.03,99,3700,5.3,3.71,,12.48,1.175,104.2,,26.1,5,,,,,,,,,,,,0,0,0,0,0,0,0,0,0,0,0,0,0,0,0,0,,,,,,0.0,,,,,,,
1943715,1745300439278,,,,,,,,,,,,,,,,,,,,,,,,,,,,,,,,,,0,0,0,0,0,0,0,0,0,0,0,0,0,0,0,0,,,,,,,,,,,,,
1943735,1745300439304,0.0,-23,,-0.08,-0.03,1.0,1,-0,-0,1.0,1.03,97,3708,5.2,3.71,,12.55,1.194,104.2,,26.0,5,,,,,,,,,,,,0,0,0,0,0,0,0,0,0,0,0,0,0,0,0,0,,,,,,0.0,,,,,,,
1943755,1745300439324,,,,,,,,,,,,,,,,,,,,,,,,,,,,,,,,,,0,0,0,0,0,0,0,0,0,0,0,0,0,0,0,0,,,,,,,,,,,,,
1943775,1745300439344,0.0,-42,,-0.1,0.0,0.97,2,-0,-0,0.98,1.03,94,3742,5.3,3.71,,12.51,1.196,104.2,,26.0,5,0,0,0,0,0.0,0.0,0.0,0.0,2.26,,,0,0,0,0,0,0,0,0,0,0,0,0,0,0,0,0,,0,,,,0.0,38.986019,-76.950005,0.04,50.0,33,3,0.8
1943795,1745300439364,,,,,,,,,,,,,,,,,,,,,,,,,,,,,,,,,,0,0,0,0,0,0,0,0,0,0,0,0,0,0,0,0,,,,,,,,,,,,,
1943815,1745300439384,0.0,-12,,-0.11,0.01,0.97,2,-0,-0,0.98,1.03,95,3744,5.4,3.71,,12.47,1.185,104.2,,26.0,5,,,,,,,,,,,,0,0,0,0,0,0,0,0,0,0,0,0,0,0,0,0,,,,,,0.0,,,,,,,
1943835,1745300439404,,,,,,,,,,,,,,,,,,,,,,,,,,,,,,,,,,0,0,0,0,0,0,0,0,0,0,0,0,0,0,0,0,,,,,,,,,,,,,
1943855,1745300439424,0.0,-49,,-0.11,0.02,0.97,1,-0,-0,0.97,1.03,94,3728,5.4,3.71,,12.47,1.185,104.2,,26.1,5,,,,,,,,,,,,0,0,0,0,0,0,0,0,0,0,0,0,0,0,0,0,,,,,,0.0,,,,,,,
1943875,1745300439444,,,,,,,,,,,,,,,,,,,,,,,0,0,0,0,0.0,0.0,0.0,0.0,2.26,,,0,0,0,0,0,0,0,0,0,0,0,0,0,0,0,0,,0,,,,,38.986019,-76.950005,0.21,50.0,33,3,0.8
1943895,1745300439464,0.0,-8,,-0.1,0.02,0.95,2,-0,-0,0.95,1.03,92,3728,5.4,3.71,,12.45,1.179,104.2,,26.1,5,,,,,,,,,,,,0,0,0,0,0,0,0,0,0,0,0,0,0,0,0,0,,,,,,0.0,,,,,,,
1943915,1745300439484,,,,,,,,,,,,,,,,,,,,,,,,,,,,,,,,,,0,0,0,0,0,0,0,0,0,0,0,0,0,0,0,0,,,,,,,,,,,,,
1943935,1745300439503,0.0,-19,,-0.11,-0.0,0.94,1,-0,-0,0.95,1.03,92,3704,5.4,3.71,,12.53,1.163,104.2,,25.7,5,,,,,,,,,,,,0,0,0,0,0,0,0,0,0,0,0,0,0,0,0,0,,,,,,0.0,,,,,,,
1943955,1745300439523,,,,,,,,,,,,,,,,,,,,,,,,,,,,,,,,,,0,0,0,0,0,0,0,0,0,0,0,0,0,0,0,0,,,,,,,,,,,,,
1943975,1745300439543,0.0,-46,,-0.12,-0.01,0.97,1,-0,-0,0.97,1.03,94,3720,5.4,3.72,,12.45,1.175,102.4,,25.7,5,0,0,0,0,0.0,0.0,0.0,0.0,2.26,,,0,0,0,0,0,0,0,0,0,0,0,0,0,0,0,0,,0,,,,0.0,38.986019,-76.950005,0.18,50.0,33,3,0.8
1943995,1745300439563,,,,,,,,,,,,,,,,,,,,,,,,,,,,,,,,,,0,0,0,0,0,0,0,0,0,0,0,0,0,0,0,0,,,,,,,,,,,,,
1944015,1745300439583,0.0,-27,,-0.1,-0.03,0.96,1,-0,-0,0.97,1.03,94,3730,5.3,3.71,,12.48,1.179,102.4,,25.7,5,,,,,,,,,,,,0,0,0,0,0,0,0,0,0,0,0,0,0,0,0,0,,,,,,0.0,,,,,,,
1944035,1745300439603,,,,,,,,,,,,,,,,,,,,,,,,,,,,,,,,,,0,0,0,0,0,0,0,0,0,0,0,0,0,0,0,0,,,,,,,,,,,,,
1944055,1745300439623,0.0,-23,,-0.1,-0.05,0.95,1,-0,-0,0.96,1.03,93,3787,5.2,3.71,,12.48,1.179,102.4,,26.1,5,,,,,,,,,,,,0,0,0,0,0,0,0,0,0,0,0,0,0,0,0,0,,,,,,0.0,,,,,,,
1944075,1745300439643,,,,,,,,,,,,,,,,,,,,,,,0,0,0,0,0.0,0.0,0.0,0.0,2.26,,,0,0,0,0,0,0,0,0,0,0,0,0,0,0,0,0,,0,,,,,38.986019,-76.950005,0.04,50.0,33,3,0.8
1944095,1745300439663,0.0,-42,,-0.1,-0.05,0.97,1,-0,-0,0.97,1.03,94,3787,5.2,3.71,,12.45,1.189,102.4,,26.1,5,,,,,,,,,,,,0,0,0,0,0,0,0,0,0,0,0,0,0,0,0,0,,,,,,0.0,,,,,,,
1944115,1745300439683,,,,,,,,,,,,,,,,,,,,,,,,,,,,,,,,,,0,0,0,0,0,0,0,0,0,0,0,0,0,0,0,0,,,,,,,,,,,,,
1944135,1745300439703,0.0,-27,,-0.1,-0.06,0.98,0,-0,-0,0.99,1.03,96,3722,5.3,3.71,,12.49,1.187,102.4,,25.5,5,,,,,,,,,,,,0,0,0,0,0,0,0,0,0,0,0,0,0,0,0,0,,,,,,0.0,,,,,,,
1944155,1745300439723,,,,,,,,,,,,,,,,,,,,,,,,,,,,,,,,,,0,0,0,0,0,0,0,0,0,0,0,0,0,0,0,0,,,,,,,,,,,,,
1944175,1745300439743,0.0,-46,,-0.09,-0.1,0.98,-0,-0,-0,0.99,1.03,96,3710,5.2,3.72,,12.51,1.189,102.4,,25.5,5,0,0,0,0,0.0,0.0,0.0,0.0,2.26,,,0,0,0,0,0,0,0,0,0,0,0,0,0,0,0,0,,0,,,,0.0,38.986019,-76.950005,0.05,50.0,33,3,0.8
1944195,1745300439763,,,,,,,,,,,,,,,,,,,,,,,,,,,,,,,,,,0,0,0,0,0,0,0,0,0,0,0,0,0,0,0,0,,,,,,,,,,,,,
1944215,1745300439783,0.0,-27,,-0.09,-0.13,0.98,-0,-0,-0,0.99,1.03,96,3730,5.2,3.7,,12.49,1.192,102.4,,25.5,5,,,,,,,,,,,,0,0,0,0,0,0,0,0,0,0,0,0,0,0,0,0,,,,,,0.0,,,,,,,
1944235,1745300439803,,,,,,,,,,,,,,,,,,,,,,,,,,,,,,,,,,0,0,0,0,0,0,0,0,0,0,0,0,0,0,0,0,,,,,,,,,,,,,
1944255,1745300439823,0.0,-34,,-0.09,-0.13,1.01,-1,-0,-0,1.02,1.03,99,3717,5.3,3.71,,12.49,1.192,102.4,,25.7,5,,,,,,,,,,,,0,0,0,0,0,0,0,0,0,0,0,0,0,0,0,0,,,,,,0.0,,,,,,,
1944275,1745300439843,,,,,,,,,,,,,,,,,,,,,,,0,0,0,0,0.0,0.0,0.0,0.0,2.26,,,0,0,0,0,0,0,0,0,0,0,0,0,0,0,0,0,,0,,,,,38.986019,-76.950005,0.0,50.0,33,3,0.8
1944295,1745300439863,0.0,-27,,-0.08,-0.15,1.02,-1,-0,-0,1.03,1.03,100,3717,5.3,3.71,,12.43,1.183,102.4,,25.7,5,,,,,,,,,,,,0,0,0,0,0,0,0,0,0,0,0,0,0,0,0,0,,,,,,0.0,,,,,,,
1944315,1745300439883,,,,,,,,,,,,,,,,,,,,,,,,,,,,,,,,,,0,0,0,0,0,0,0,0,0,0,0,0,0,0,0,0,,,,,,,,,,,,,
1944335,1745300439903,0.0,-38,,-0.08,-0.11,1.02,-1,-0,0,1.03,1.03,99,3737,5.3,3.71,,12.49,1.178,102.4,,25.7,5,,,,,,,,,,,,0,0,0,0,0,0,0,0,0,0,0,0,0,0,0,0,,,,,,0.0,,,,,,,
1944355,1745300439923,,,,,,,,,,,,,,,,,,,,,,,,,,,,,,,,,,0,0,0,0,0,0,0,0,0,0,0,0,0,0,0,0,,,,,,,,,,,,,
1944375,1745300439943,0.0,-34,,-0.09,-0.04,1.02,-1,-0,0,1.03,1.03,99,3669,5.4,3.69,,12.45,1.18,102.4,,25.7,5,0,0,0,0,0.0,0.0,0.0,0.0,2.26,,,0,0,0,0,0,0,0,0,0,0,0,0,0,0,0,0,,0,,,,0.0,38.986019,-76.950005,0.09,50.0,33,3,0.8
1944395,1745300439963,,,,,,,,,,,,,,,,,,,,,,,,,,,,,,,,,,0,0,0,0,0,0,0,0,0,0,0,0,0,0,0,0,,,,,,,,,,,,,
1944415,1745300439983,0.0,-34,,-0.07,-0.05,1.03,0,-0,0,1.04,1.04,100,3623,5.3,3.71,,12.56,1.164,102.4,,25.7,5,,,,,,,,,,,,0,0,0,0,0,0,0,0,0,0,0,0,0,0,0,0,,,,,,0.0,,,,,,,
1944435,1745300439995,,,,,,,,,,,,,,,,,,,,,,,,,,,,,,,,,,0,0,0,0,0,0,0,0,0,0,0,0,0,0,0,0,,,,,,,,,,,,,
1944455,1745300440015,0.0,-27,,-0.08,0.02,0.98,2,-0,0,0.98,1.04,95,3577,5.3,3.71,,12.56,1.164,102.4,,25.2,5,,,,,,,,,,,,0,0,0,0,0,0,0,0,0,0,0,0,0,0,0,0,,,,,,0.0,,,,,,,
1944475,1745300440035,,,,,,,,,,,,,,,,,,,,,,,0,0,0,0,0.0,0.0,0.0,0.0,2.26,,,0,0,0,0,0,0,0,0,0,0,0,0,0,0,0,0,,0,,,,,38.986019,-76.950005,0.13,50.0,32,3,0.8
1944495,1745300440055,0.0,-8,,-0.1,-0.06,0.96,1,-0,-0,0.97,1.04,93,3577,5.3,3.71,,12.49,1.18,102.4,,25.2,5,,,,,,,,,,,,0,0,0,0,0,0,0,0,0,0,0,0,0,0,0,0,,,,,,0.0,,,,,,,
1944515,1745300440075,,,,,,,,,,,,,,,,,,,,,,,,,,,,,,,,,,0,0,0,0,0,0,0,0,0,0,0,0,0,0,0,0,,,,,,,,,,,,,
1944535,1745300440099,0.0,-23,,-0.09,-0.11,0.98,-0,-0,0,0.99,1.04,95,3630,5.2,3.71,,12.61,1.183,102.4,,25.1,5,,,,,,,,,,,,0,0,0,0,0,0,0,0,0,0,0,0,0,0,0,0,,,,,,0.0,,,,,,,
1944555,1745300440119,,,,,,,,,,,,,,,,,,,,,,,,,,,,,,,,,,0,0,0,0,0,0,0,0,0,0,0,0,0,0,0,0,,,,,,,,,,,,,
1944575,1745300440139,0.0,-38,13.02,-0.09,-0.12,0.97,-1,-0,0,0.98,1.04,94,3741,1.2,3.46,15,12.49,1.192,102.4,176,25.1,5,0,0,0,0,0.0,0.0,0.0,0.0,2.26,0,1.0,0,0,0,0,0,0,0,0,0,0,0,0,0,0,0,0,0,0,1.0,0,0,0.0,38.986019,-76.950005,0.13,50.0,32,3,0.8
1944595,1745300440159,,,,,,,,,,,,,,,,,,,,,,,,,,,,,,,,,,0,0,0,0,0,0,0,0,0,0,0,0,0,0,0,0,,,,,,,,,,,,,
1944615,1745300440179,0.0,-31,,-0.09,-0.12,1.0,-1,-0,0,1.01,1.04,97,3762,0.0,2.64,,12.09,1.25,102.4,,25.1,5,,,,,,,,,,,,0,0,0,0,0,0,0,0,0,0,0,0,0,0,0,0,,,,,,0.0,,,,,,,
1944635,1745300440201,,,,,,,,,,,,,,,,,,,,,,,,,,,,,,,,,,0,0,0,0,0,0,0,0,0,0,0,0,0,0,0,0,,,,,,,,,,,,,
1944655,1745300440221,0.0,-23,,-0.08,-0.1,1.04,-1,-0,0,1.05,1.05,100,3579,0.0,2.64,,12.09,1.25,102.4,,25.9,5,,,,,,,,,,,,0,0,0,0,0,0,0,0,0,0,0,0,0,0,0,0,,,,,,0.0,,,,,,,
1944675,1745300440241,,,,,,,,,,,,,,,,,,,,,,,0,0,0,0,0.0,0.0,0.0,0.0,2.26,,,0,0,0,0,0,0,0,0,0,0,0,0,0,0,0,0,,0,,,,,38.986019,-76.950005,0.11,50.0,32,3,0.8
1944695,1745300440261,0.0,-31,,-0.07,-0.05,1.02,1,-0,0,1.02,1.05,98,3579,0.0,2.64,,11.88,1.191,102.4,,25.9,5,,,,,,,,,,,,0,0,0,0,0,0,0,0,0,0,0,0,0,0,0,0,,,,,,0.0,,,,,,,
1944715,1745300440281,,,,,,,,,,,,,,,,,,,,,,,,,,,,,,,,,,0,0,0,0,0,0,0,0,0,0,0,0,0,0,0,0,,,,,,,,,,,,,
1944735,1745300440303,0.0,-19,,-0.09,-0.12,0.98,1,-0,-0,0.99,1.05,95,3503,0.0,2.7,,11.85,1.136,102.4,,24.1,5,,,,,,,,,,,,0,0,0,0,0,0,0,0,0,0,0,0,0,0,0,0,,,,,,0.0,,,,,,,
1944755,1745300440323,,,,,,,,,,,,,,,,,,,,,,,,,,,,,,,,,,0,0,0,0,0,0,0,0,0,0,0,0,0,0,0,0,,,,,,,,,,,,,
1944775,1745300440343,0.0,-49,,-0.06,-0.09,1.01,1,-0,0,1.02,1.05,98,3327,0.0,2.75,,11.91,1.147,102.4,,24.1,5,0,0,0,0,0.0,0.0,0.0,0.0,2.26,,,0,0,0,0,0,0,0,0,0,0,0,0,0,0,0,0,,0,,,,0.0,38.986019,-76.950005,0.0,50.0,32,3,0.8
1944795,1745300440363,,,,,,,,,,,,,,,,,,,,,,,,,,,,,,,,,,0,0,0,0,0,0,0,0,0,0,0,0,0,0,0,0,,,,,,,,,,,,,
1944815,1745300440383,0.0,-23,,-0.1,-0.15,1.02,-0,-0,-0,1.04,1.05,99,3282,0.0,2.78,,11.95,1.214,102.4,,24.1,5,,,,,,,,,,,,0,0,0,0,0,0,0,0,0,0,0,0,0,0,0,0,,,,,,0.0,,,,,,,
1944835,1745300440403,,,,,,,,,,,,,,,,,,,,,,,,,,,,,,,,,,0,0,0,0,0,0,0,0,0,0,0,0,0,0,0,0,,,,,,,,,,,,,
1944855,1745300440423,0.0,-34,,-0.09,-0.02,0.95,2,-0,-0,0.96,1.05,92,3330,3.2,3.34,,11.95,1.214,102.4,,22.5,5,,,,,,,,,,,,0,0,0,0,0,0,0,0,0,0,0,0,0,0,0,0,,,,,,0.0,,,,,,,
1944875,1745300440443,,,,,,,,,,,,,,,,,,,,,,,0,0,0,0,0.0,0.0,0.0,0.0,2.26,,,0,0,0,0,0,0,0,0,0,0,0,0,0,0,0,0,,0,,,,,38.986019,-76.950005,0.08,50.0,32,3,0.8
1944895,1745300440463,0.0,-31,,-0.05,-0.06,1.04,0,-0,0,1.04,1.05,99,3330,3.2,3.34,,12.19,1.254,102.4,,22.5,5,,,,,,,,,,,,0,0,0,0,0,0,0,0,0,0,0,0,0,0,0,0,,,,,,0.0,,,,,,,
1944915,1745300440483,,,,,,,,,,,,,,,,,,,,,,,,,,,,,,,,,,0,0,0,0,0,0,0,0,0,0,0,0,0,0,0,0,,,,,,,,,,,,,
1944935,1745300440502,0.0,-27,,-0.1,-0.1,1.05,-1,-0,0,1.06,1.06,100,3186,6.5,3.75,,12.57,1.252,102.4,,22.3,5,,,,,,,,,,,,0,0,0,0,0,0,0,0,0,0,0,0,0,0,0,0,,,,,,0.0,,,,,,,
1944955,1745300440522,,,,,,,,,,,,,,,,,,,,,,,,,,,,,,,,,,0,0,0,0,0,0,0,0,0,0,0,0,0,0,0,0,,,,,,,,,,,,,
1944975,1745300440542,0.0,-34,,-0.1,-0.03,0.95,2,-0,-0,0.96,1.06,90,3259,8.0,3.86,,12.89,1.251,102.4,,22.3,5,0,0,0,0,0.0,0.0,0.0,0.0,2.26,,,0,0,0,0,0,0,0,0,0,0,0,0,0,0,0,0,,0,,,,0.0,38.986019,-76.950005,0.04,50.0,32,3,0.8
1944995,1745300440562,,,,,,,,,,,,,,,,,,,,,,,,,,,,,,,,,,0,0,0,0,0,0,0,0,0,0,0,0,0,0,0,0,,,,,,,,,,,,,
1945015,1745300440582,0.0,-15,,-0.07,-0.05,1.03,0,-0,0,1.03,1.06,97,3293,8.2,3.86,,13.01,1.249,102.4,,22.3,5,,,,,,,,,,,,0,0,0,0,0,0,0,0,0,0,0,0,0,0,0,0,,,,,,0.0,,,,,,,
1945035,1745300440604,,,,,,,,,,,,,,,,,,,,,,,,,,,,,,,,,,0,0,0,0,0,0,0,0,0,0,0,0,0,0,0,0,,,,,,,,,,,,,
1945055,1745300440624,0.0,-49,,-0.1,-0.1,0.98,0,-0,-0,0.99,1.06,94,3318,9.6,3.88,,13.01,1.249,102.4,,23.3,5,,,,,,,,,,,,0,0,0,0,0,0,0,0,0,0,0,0,0,0,0,0,,,,,,0.0,,,,,,,
1945075,1745300440644,,,,,,,,,,,,,,,,,,,,,,,0,0,0,0,0.0,0.0,0.0,0.0,2.27,,,0,0,0,0,0,0,0,0,0,0,0,0,0,0,0,0,,0,,,,,38.986019,-76.950005,0.07,50.0,32,3,0.8
1945095,1745300440664,0.0,-49,,-0.07,-0.06,1.03,1,-0,0,1.04,1.06,98,3318,9.6,3.88,,13.17,1.245,102.4,,23.3,5,,,,,,,,,,,,0,0,0,0,0,0,0,0,0,0,0,0,0,0,0,0,,,,,,0.0,,,,,,,
1945115,1745300440684,,,,,,,,,,,,,,,,,,,,,,,,,,,,,,,,,,0,0,0,0,0,0,0,0,0,0,0,0,0,0,0,0,,,,,,,,,,,,,
1945135,1745300440704,0.0,-34,,-0.09,-0.08,0.97,1,-0,-0,0.98,1.06,93,3395,14.4,4.14,,13.52,1.217,102.4,,23.8,5,,,,,,,,,,,,0,0,0,0,0,0,0,0,0,0,0,0,0,0,0,0,,,,,,0.0,,,,,,,
1945155,1745300440724,,,,,,,,,,,,,,,,,,,,,,,,,,,,,,,,,,0,0,0,0,0,0,0,0,0,0,0,0,0,0,0,0,,,,,,,,,,,,,
1945175,1745300440744,0.0,-38,,-0.09,-0.12,1.03,-1,-0,0,1.04,1.06,98,3401,15.5,4.12,,13.64,1.204,102.4,,23.8,5,0,0,0,0,0.0,0.0,0.0,0.0,2.26,,,0,0,0,0,0,0,0,0,0,0,0,0,0,0,0,0,,0,,,,0.0,38.986019,-76.950005,0.09,50.0,32,3,0.8
1945195,1745300440764,,,,,,,,,,,,,,,,,,,,,,,,,,,,,,,,,,0,0,0,0,0,0,0,0,0,0,0,0,0,0,0,0,,,,,,,,,,,,,
1945215,1745300440784,0.0,-27,,-0.09,-0.01,0.95,2,-0,0,0.95,1.06,90,3575,15.5,4.12,,13.63,1.219,102.4,,23.8,5,,,,,,,,,,,,0,0,0,0,0,0,0,0,0,0,0,0,0,0,0,0,,,,,,0.0,,,,,,,
1945235,1745300440804,,,,,,,,,,,,,,,,,,,,,,,,,,,,,,,,,,0,0,0,0,0,0,0,0,0,0,0,0,0,0,0,0,,,,,,,,,,,,,
1945255,1745300440824,0.0,-23,,-0.11,-0.04,0.93,2,-0,-0,0.94,1.06,89,3643,15.3,4.08,,13.63,1.219,102.4,,24.7,5,,,,,,,,,,,,0,0,0,0,0,0,0,0,0,0,0,0,0,0,0,0,,,,,,0.0,,,,,,,
1945275,1745300440844,,,,,,,,,,,,,,,,,,,,,,,0,0,0,0,0.0,0.0,0.0,0.0,2.26,,,0,0,0,0,0,0,0,0,0,0,0,0,0,0,0,0,,0,,,,,38.986019,-76.950005,0.05,50.0,32,3,0.8
1945295,1745300440864,0.0,22,,-0.12,-0.0,0.95,2,-0,-0,0.96,1.06,91,3643,15.3,4.08,,13.61,1.226,102.4,,24.7,5,,,,,,,,,,,,0,0,0,0,0,0,0,0,0,0,0,0,0,0,0,0,,,,,,0.0,,,,,,,
1945315,1745300440884,,,,,,,,,,,,,,,,,,,,,,,,,,,,,,,,,,0,0,0,0,0,0,0,0,0,0,0,0,0,0,0,0,,,,,,,,,,,,,
1945335,1745300440904,0.0,-27,,-0.1,0.03,0.99,2,-0,0,0.99,1.06,94,3810,7.7,3.89,,13.23,1.223,102.4,,26.7,5,,,,,,,,,,,,0,0,0,0,0,0,0,0,0,0,0,0,0,0,0,0,,,,,,0.0,,,,,,,
1945355,1745300440924,,,,,,,,,,,,,,,,,,,,,,,,,,,,,,,,,,0,0,0,0,0,0,0,0,0,0,0,0,0,0,0,0,,,,,,,,,,,,,
1945375,1745300440944,0.0,-53,,-0.08,0.05,1.02,0,-0,0,1.02,1.06,96,3852,5.5,3.75,,12.79,1.221,102.4,,26.7,5,0,0,0,0,0.0,0.0,0.0,0.0,2.26,,,0,0,0,0,0,0,0,0,0,0,0,0,0,0,0,0,,0,,,,0.0,38.986019,-76.950005,0.04,50.0,32,3,0.8
1945395,1745300440964,,,,,,,,,,,,,,,,,,,,,,,,,,,,,,,,,,0,0,0,0,0,0,0,0,0,0,0,0,0,0,0,0,,,,,,,,,,,,,
1945415,1745300440984,0.0,-19,,-0.08,-0.03,0.99,-1,-0,0,1.0,1.06,94,3918,5.5,3.72,,12.6,1.221,102.4,,26.7,5,,,,,,,,,,,,0,0,0,0,0,0,0,0,0,0,0,0,0,0,0,0,,,,,,0.0,,,,,,,
1945435,1745300440994,,,,,,,,,,,,,,,,,,,,,,,,,,,,,,,,,,0,0,0,0,0,0,0,0,0,0,0,0,0,0,0,0,,,,,,,,,,,,,
1945455,1745300441014,0.0,-31,,-0.09,-0.04,0.93,-1,-0,-0,0.93,1.06,88,3896,5.4,3.7,,12.6,1.221,102.4,,27.2,5,,,,,,,,,,,,0,0,0,0,0,0,0,0,0,0,0,0,0,0,0,0,,,,,,0.0,,,,,,,
1945475,1745300441034,,,,,,,,,,,,,,,,,,,,,,,0,0,0,0,0.0,0.0,0.0,0.0,2.26,,,0,0,0,0,0,0,0,0,0,0,0,0,0,0,0,0,,0,,,,,38.986019,-76.950005,0.05,50.0,32,3,0.8
1945495,1745300441054,0.0,-49,,-0.1,-0.01,0.92,1,-0,-0,0.92,1.06,87,3896,5.4,3.7,,12.53,1.224,102.4,,27.2,5,,,,,,,,,,,,0,0,0,0,0,0,0,0,0,0,0,0,0,0,0,0,,,,,,0.0,,,,,,,
1945515,1745300441074,,,,,,,,,,,,,,,,,,,,,,,,,,,,,,,,,,0,0,0,0,0,0,0,0,0,0,0,0,0,0,0,0,,,,,,,,,,,,,
1945535,1745300441098,0.0,-12,,-0.1,0.03,0.94,2,-0,-0,0.95,1.06,89,3836,5.4,3.7,,12.45,1.219,102.4,,25.9,5,,,,,,,,,,,,0,0,0,0,0,0,0,0,0,0,0,0,0,0,0,0,,,,,,0.0,,,,,,,
1945555,1745300441118,,,,,,,,,,,,,,,,,,,,,,,,,,,,,,,,,,0,0,0,0,0,0,0,0,0,0,0,0,0,0,0,0,,,,,,,,,,,,,
1945575,1745300441138,0.0,-0,13.08,-0.11,0.05,0.96,2,-0,-0,0.97,1.06,91,3811,5.3,3.71,15,12.47,1.187,102.4,174,25.9,5,0,0,0,0,0.0,0.0,0.0,0.0,2.26,0,1.0,0,0,0,0,0,0,0,0,0,0,0,0,0,0,0,0,0,0,1.0,0,0,0.0,38.986019,-76.950005,0.05,50.0,32,3,0.8
1945595,1745300441158,,,,,,,,,,,,,,,,,,,,,,,,,,,,,,,,,,0,0,0,0,0,0,0,0,0,0,0,0,0,0,0,0,,,,,,,,,,,,,
1945615,1745300441178,0.0,-8,,-0.1,0.06,0.96,2,-0,-0,0.97,1.06,92,3745,5.2,3.7,,12.43,1.171,102.4,,25.9,5,,,,,,,,,,,,0,0,0,0,0,0,0,0,0,0,0,0,0,0,0,0,,,,,,0.0,,,,,,,
1945635,1745300441204,,,,,,,,,,,,,,,,,,,,,,,,,,,,,,,,,,0,0,0,0,0,0,0,0,0,0,0,0,0,0,0,0,,,,,,,,,,,,,
1945655,1745300441224,0.0,14,,-0.09,0.04,0.95,2,-0,-0,0.96,1.06,90,3775,5.2,3.7,,12.43,1.171,102.4,,25.5,5,,,,,,,,,,,,0,0,0,0,0,0,0,0,0,0,0,0,0,0,0,0,,,,,,0.0,,,,,,,
1945675,1745300441244,,,,,,,,,,,,,,,,,,,,,,,0,0,0,0,0.0,0.0,0.0,0.0,2.27,,,0,0,0,0,0,0,0,0,0,0,0,0,0,0,0,0,,0,,,,,38.986019,-76.950005,0.04,50.0,32,3,0.8
1945695,1745300441264,0.0,-15,,-0.1,0.04,0.95,2,-0,-0,0.96,1.06,90,3775,5.2,3.7,,12.4,1.165,102.4,,25.5,5,,,,,,,,,,,,0,0,0,0,0,0,0,0,0,0,0,0,0,0,0,0,,,,,,0.0,,,,,,,
1945715,1745300441284,,,,,,,,,,,,,,,,,,,,,,,,,,,,,,,,,,0,0,0,0,0,0,0,0,0,0,0,0,0,0,0,0,,,,,,,,,,,,,
1945735,1745300441304,0.0,22,,-0.11,0.04,0.96,2,-0,-0,0.97,1.06,91,3730,5.2,3.71,,12.4,1.167,102.4,,25.9,5,,,,,,,,,,,,0,0,0,0,0,0,0,0,0,0,0,0,0,0,0,0,,,,,,0.0,,,,,,,
1945755,1745300441324,,,,,,,,,,,,,,,,,,,,,,,,,,,,,,,,,,0,0,0,0,0,0,0,0,0,0,0,0,0,0,0,0,,,,,,,,,,,,,
1945775,1745300441344,0.0,-12,,-0.1,0.05,0.95,1,-0,-0,0.96,1.06,91,3749,5.1,3.69,,12.45,1.156,102.4,,25.9,5,0,0,0,0,0.0,0.0,0.0,0.0,2.26,,,0,0,0,0,0,0,0,0,0,0,0,0,0,0,0,0,,0,,,,0.0,38.986019,-76.950005,0.04,50.0,32,3,0.8
1945795,1745300441364,,,,,,,,,,,,,,,,,,,,,,,,,,,,,,,,,,0,0,0,0,0,0,0,0,0,0,0,0,0,0,0,0,,,,,,,,,,,,,
1945815,1745300441384,0.0,-15,,-0.1,0.01,0.94,0,-0,-0,0.95,1.06,89,3700,5.1,3.7,,12.41,1.15,102.4,,25.9,5,,,,,,,,,,,,0,0,0,0,0,0,0,0,0,0,0,0,0,0,0,0,,,,,,0.0,,,,,,,
1945835,1745300441404,,,,,,,,,,,,,,,,,,,,,,,,,,,,,,,,,,0,0,0,0,0,0,0,0,0,0,0,0,0,0,0,0,,,,,,,,,,,,,
1945855,1745300441424,0.0,-34,,-0.09,-0.05,0.97,-1,-0,-0,0.97,1.06,92,3653,5.2,3.71,,12.41,1.15,102.4,,25.0,5,,,,,,,,,,,,0,0,0,0,0,0,0,0,0,0,0,0,0,0,0,0,,,,,,0.0,,,,,,,
1945875,1745300441444,,,,,,,,,,,,,,,,,,,,,,,0,0,0,0,0.0,0.0,0.0,0.0,2.26,,,0,0,0,0,0,0,0,0,0,0,0,0,0,0,0,0,,0,,,,,38.986019,-76.950012,0.05,50.0,32,3,0.8
1945895,1745300441464,0.0,-42,,-0.08,-0.04,1.0,-2,-0,0,1.0,1.06,95,3653,5.2,3.71,,12.44,1.147,102.4,,25.0,5,,,,,,,,,,,,0,0,0,0,0,0,0,0,0,0,0,0,0,0,0,0,,,,,,0.0,,,,,,,
1945915,1745300441484,,,,,,,,,,,,,,,,,,,,,,,,,,,,,,,,,,0,0,0,0,0,0,0,0,0,0,0,0,0,0,0,0,,,,,,,,,,,,,
1945935,1745300441503,0.0,-19,,-0.08,0.01,1.0,-1,-0,0,1.01,1.06,95,3685,5.3,3.71,,12.48,1.15,102.4,,25.1,5,,,,,,,,,,,,0,0,0,0,0,0,0,0,0,0,0,0,0,0,0,0,,,,,,0.0,,,,,,,
1945955,1745300441523,,,,,,,,,,,,,,,,,,,,,,,,,,,,,,,,,,0,0,0,0,0,0,0,0,0,0,0,0,0,0,0,0,,,,,,,,,,,,,
1945975,1745300441543,0.0,-42,,-0.08,0.03,1.02,-0,-0,0,1.03,1.06,97,3612,5.2,3.71,,12.45,1.16,100.6,,25.1,5,0,0,0,0,0.0,0.0,0.0,0.0,2.26,,,0,0,0,0,0,0,0,0,0,0,0,0,0,0,0,0,,0,,,,0.0,38.986019,-76.950012,0.04,50.0,32,3,0.8
1945995,1745300441563,,,,,,,,,,,,,,,,,,,,,,,,,,,,,,,,,,0,0,0,0,0,0,0,0,0,0,0,0,0,0,0,0,,,,,,,,,,,,,
1946015,1745300441583,0.0,-23,,-0.08,0.1,1.0,1,-0,0,1.01,1.06,95,3626,5.3,3.71,,12.52,1.157,100.6,,25.1,5,,,,,,,,,,,,0,0,0,0,0,0,0,0,0,0,0,0,0,0,0,0,,,,,,0.0,,,,,,,
1946035,1745300441603,,,,,,,,,,,,,,,,,,,,,,,,,,,,,,,,,,0,0,0,0,0,0,0,0,0,0,0,0,0,0,0,0,,,,,,,,,,,,,
1946055,1745300441623,0.0,-34,,-0.11,0.04,0.97,2,-0,0,0.97,1.06,92,3568,5.1,3.71,,12.52,1.157,100.6,,24.8,5,,,,,,,,,,,,0,0,0,0,0,0,0,0,0,0,0,0,0,0,0,0,,,,,,0.0,,,,,,,
1946075,1745300441643,,,,,,,,,,,,,,,,,,,,,,,0,0,0,0,0.0,0.0,0.0,0.0,2.26,,,0,0,0,0,0,0,0,0,0,0,0,0,0,0,0,0,,0,,,,,38.986019,-76.950012,0.04,50.0,32,3,0.8
1946095,1745300441663,0.0,-38,,-0.11,-0.02,1.02,-1,-0,0,1.02,1.06,97,3568,5.1,3.71,,12.53,1.167,100.6,,24.8,5,,,,,,,,,,,,0,0,0,0,0,0,0,0,0,0,0,0,0,0,0,0,,,,,,0.0,,,,,,,
1946115,1745300441683,,,,,,,,,,,,,,,,,,,,,,,,,,,,,,,,,,0,0,0,0,0,0,0,0,0,0,0,0,0,0,0,0,,,,,,,,,,,,,
1946135,1745300441703,0.0,-27,,-0.09,0.06,1.04,-1,-0,1,1.04,1.06,98,3573,5.0,3.71,,12.63,1.164,100.6,,24.6,5,,,,,,,,,,,,0,0,0,0,0,0,0,0,0,0,0,0,0,0,0,0,,,,,,0.0,,,,,,,
1946155,1745300441723,,,,,,,,,,,,,,,,,,,,,,,,,,,,,,,,,,0,0,0,0,0,0,0,0,0,0,0,0,0,0,0,0,,,,,,,,,,,,,
1946175,1745300441743,0.0,-42,,-0.09,0.11,1.01,1,-0,0,1.02,1.06,97,3523,5.0,3.71,,12.65,1.167,100.6,,24.6,5,0,0,0,0,0.0,0.0,0.0,0.0,2.26,,,0,0,0,0,0,0,0,0,0,0,0,0,0,0,0,0,,0,,,,0.0,38.986019,-76.950012,0.04,50.0,32,3,0.8
1946195,1745300441763,,,,,,,,,,,,,,,,,,,,,,,,,,,,,,,,,,0,0,0,0,0,0,0,0,0,0,0,0,0,0,0,0,,,,,,,,,,,,,
1946215,1745300441783,0.0,17,,-0.11,0.01,0.97,0,-0,-0,0.97,1.06,92,3523,5.0,3.72,,12.68,1.162,100.6,,24.6,5,,,,,,,,,,,,0,0,0,0,0,0,0,0,0,0,0,0,0,0,0,0,,,,,,0.0,,,,,,,
1946235,1745300441803,,,,,,,,,,,,,,,,,,,,,,,,,,,,,,,,,,0,0,0,0,0,0,0,0,0,0,0,0,0,0,0,0,,,,,,,,,,,,,
1946255,1745300441823,0.0,-34,,-0.08,-0.04,1.04,-1,-0,0,1.04,1.06,98,3460,5.0,3.73,,12.68,1.162,100.6,,23.9,5,,,,,,,,,,,,0,0,0,0,0,0,0,0,0,0,0,0,0,0,0,0,,,,,,0.0,,,,,,,
1946275,1745300441843,,,,,,,,,,,,,,,,,,,,,,,0,0,0,0,0.0,0.0,0.0,0.0,2.26,,,0,0,0,0,0,0,0,0,0,0,0,0,0,0,0,0,,0,,,,,38.986019,-76.950012,0.04,50.0,32,3,0.8
1946295,1745300441863,0.0,-31,,-0.11,-0.05,0.95,2,-0,-0,0.96,1.06,90,3460,5.0,3.73,,12.71,1.164,100.6,,23.9,5,,,,,,,,,,,,0,0,0,0,0,0,0,0,0,0,0,0,0,0,0,0,,,,,,0.0,,,,,,,
1946315,1745300441883,,,,,,,,,,,,,,,,,,,,,,,,,,,,,,,,,,0,0,0,0,0,0,0,0,0,0,0,0,0,0,0,0,,,,,,,,,,,,,
1946335,1745300441903,0.0,-23,,-0.08,-0.04,1.05,-1,-0,0,1.05,1.06,100,3374,5.0,3.73,,12.79,1.163,100.6,,22.9,5,,,,,,,,,,,,0,0,0,0,0,0,0,0,0,0,0,0,0,0,0,0,,,,,,0.0,,,,,,,
1946355,1745300441923,,,,,,,,,,,,,,,,,,,,,,,,,,,,,,,,,,0,0,0,0,0,0,0,0,0,0,0,0,0,0,0,0,,,,,,,,,,,,,
1946375,1745300441943,0.0,-42,,-0.11,-0.04,0.95,1,-0,-0,0.96,1.06,91,3384,5.1,3.73,,12.81,1.157,100.6,,22.9,5,0,0,0,0,0.0,0.0,0.0,0.0,2.26,,,0,0,0,0,0,0,0,0,0,0,0,0,0,0,0,0,,0,,,,0.0,38.986019,-76.950012,0.0,50.0,32,3,0.8
1946395,1745300441963,,,,,,,,,,,,,,,,,,,,,,,,,,,,,,,,,,0,0,0,0,0,0,0,0,0,0,0,0,0,0,0,0,,,,,,,,,,,,,
1946415,1745300441983,0.0,-27,,-0.06,-0.02,1.01,0,-0,0,1.01,1.06,96,3241,5.2,3.75,,12.84,1.161,100.6,,22.9,5,,,,,,,,,,,,0,0,0,0,0,0,0,0,0,0,0,0,0,0,0,0,,,,,,0.0,,,,,,,
1946435,1745300441993,,,,,,,,,,,,,,,,,,,,,,,,,,,,,,,,,,0,0,0,0,0,0,0,0,0,0,0,0,0,0,0,0,,,,,,,,,,,,,
1946455,1745300442013,0.0,-27,,-0.09,-0.1,1.03,-1,-0,0,1.04,1.06,98,3268,5.3,3.76,,12.84,1.161,100.6,,22.6,5,,,,,,,,,,,,0,0,0,0,0,0,0,0,0,0,0,0,0,0,0,0,,,,,,0.0,,,,,,,
1946475,1745300442033,,,,,,,,,,,,,,,,,,,,,,,0,0,0,0,0.0,0.0,0.0,0.0,2.26,,,0,0,0,0,0,0,0,0,0,0,0,0,0,0,0,0,,0,,,,,38.986019,-76.950012,0.1,50.0,32,3,0.8
1946495,1745300442053,0.0,-31,,-0.1,-0.0,0.96,1,-0,0,0.97,1.06,91,3268,5.3,3.76,,12.91,1.153,100.6,,22.6,5,,,,,,,,,,,,0,0,0,0,0,0,0,0,0,0,0,0,0,0,0,0,,,,,,0.0,,,,,,,
1946515,1745300442073,,,,,,,,,,,,,,,,,,,,,,,,,,,,,,,,,,0,0,0,0,0,0,0,0,0,0,0,0,0,0,0,0,,,,,,,,,,,,,
1946535,1745300442103,0.0,-8,,-0.06,-0.02,1.03,-0,-0,0,1.03,1.06,97,3302,5.3,3.76,,12.88,1.154,100.6,,22.8,5,,,,,,,,,,,,0,0,0,0,0,0,0,0,0,0,0,0,0,0,0,0,,,,,,0.0,,,,,,,
1946555,1745300442123,,,,,,,,,,,,,,,,,,,,,,,,,,,,,,,,,,0,0,0,0,0,0,0,0,0,0,0,0,0,0,0,0,,,,,,,,,,,,,
1946575,1745300442143,0.0,-23,13.07,-0.11,-0.05,1.01,-1,-0,0,1.02,1.06,96,3241,5.3,3.76,15,12.89,1.159,100.6,174,22.8,5,0,0,0,0,0.0,0.0,0.0,0.0,2.26,0,1.0,0,0,0,0,0,0,0,0,0,0,0,0,0,0,0,0,0,0,1.0,0,0,0.0,38.986019,-76.950012,0.06,50.0,32,3,0.8
1946595,1745300442163,,,,,,,,,,,,,,,,,,,,,,,,,,,,,,,,,,0,0,0,0,0,0,0,0,0,0,0,0,0,0,0,0,,,,,,,,,,,,,
1946615,1745300442183,0.0,-31,,-0.1,0.02,0.94,1,-0,-0,0.95,1.06,90,3264,5.2,3.76,,12.93,1.171,100.6,,22.8,5,,,,,,,,,,,,0,0,0,0,0,0,0,0,0,0,0,0,0,0,0,0,,,,,,0.0,,,,,,,
1946635,1745300442199,,,,,,,,,,,,,,,,,,,,,,,,,,,,,,,,,,0,0,0,0,0,0,0,0,0,0,0,0,0,0,0,0,,,,,,,,,,,,,
1946655,1745300442219,0.0,-31,,-0.05,0.02,1.01,0,-0,0,1.02,1.06,96,3230,5.1,3.76,,12.93,1.171,100.6,,22.4,5,,,,,,,,,,,,0,0,0,0,0,0,0,0,0,0,0,0,0,0,0,0,,,,,,0.0,,,,,,,
1946675,1745300442239,,,,,,,,,,,,,,,,,,,,,,,0,0,0,0,0.0,0.0,0.0,0.0,2.26,,,0,0,0,0,0,0,0,0,0,0,0,0,0,0,0,0,,0,,,,,38.986019,-76.950012,0.04,50.0,32,3,0.8
1946695,1745300442259,0.0,-42,,-0.09,-0.07,1.05,-1,-0,0,1.06,1.06,100,3230,5.1,3.76,,12.91,1.183,100.6,,22.4,5,,,,,,,,,,,,0,0,0,0,0,0,0,0,0,0,0,0,0,0,0,0,,,,,,0.0,,,,,,,
1946715,1745300442279,,,,,,,,,,,,,,,,,,,,,,,,,,,,,,,,,,0,0,0,0,0,0,0,0,0,0,0,0,0,0,0,0,,,,,,,,,,,,,
1946735,1745300442303,0.0,-8,,-0.1,-0.04,0.96,1,-0,-0,0.96,1.06,91,3214,5.1,3.76,,12.91,1.172,100.6,,22.1,5,,,,,,,,,,,,0,0,0,0,0,0,0,0,0,0,0,0,0,0,0,0,,,,,,0.0,,,,,,,
1946755,1745300442323,,,,,,,,,,,,,,,,,,,,,,,,,,,,,,,,,,0,0,0,0,0,0,0,0,0,0,0,0,0,0,0,0,,,,,,,,,,,,,
1946775,1745300442343,0.0,-38,,-0.06,0.01,1.0,1,-0,0,1.0,1.06,95,3272,5.2,3.76,,12.92,1.172,100.6,,22.1,5,0,0,0,0,0.0,0.0,0.0,0.0,2.26,,,0,0,0,0,0,0,0,0,0,0,0,0,0,0,0,0,,0,,,,0.0,38.986019,-76.950012,0.13,50.0,32,3,0.8
1946795,1745300442363,,,,,,,,,,,,,,,,,,,,,,,,,,,,,,,,,,0,0,0,0,0,0,0,0,0,0,0,0,0,0,0,0,,,,,,,,,,,,,
1946815,1745300442383,0.0,-15,,-0.1,-0.07,1.05,-1,-0,0,1.06,1.06,100,3283,5.3,3.76,,12.96,1.177,100.6,,22.1,5,,,,,,,,,,,,0,0,0,0,0,0,0,0,0,0,0,0,0,0,0,0,,,,,,0.0,,,,,,,
1946835,1745300442401,,,,,,,,,,,,,,,,,,,,,,,,,,,,,,,,,,0,0,0,0,0,0,0,0,0,0,0,0,0,0,0,0,,,,,,,,,,,,,
1946855,1745300442421,0.0,-31,,-0.1,-0.01,0.95,1,-0,-0,0.96,1.06,90,3277,5.3,3.76,,12.96,1.177,100.6,,22.8,5,,,,,,,,,,,,0,0,0,0,0,0,0,0,0,0,0,0,0,0,0,0,,,,,,0.0,,,,,,,
1946875,1745300442441,,,,,,,,,,,,,,,,,,,,,,,0,0,0,0,0.0,0.0,0.0,0.0,2.26,,,0,0,0,0,0,0,0,0,0,0,0,0,0,0,0,0,,0,,,,,38.986019,-76.950012,0.07,50.0,32,3,0.8
1946895,1745300442461,0.0,-27,,-0.07,-0.07,1.03,-1,-0,0,1.03,1.06,98,3277,5.3,3.76,,12.96,1.19,100.6,,22.8,5,,,,,,,,,,,,0,0,0,0,0,0,0,0,0,0,0,0,0,0,0,0,,,,,,0.0,,,,,,,
1946915,1745300442481,,,,,,,,,,,,,,,,,,,,,,,,,,,,,,,,,,0,0,0,0,0,0,0,0,0,0,0,0,0,0,0,0,,,,,,,,,,,,,
1946935,1745300442502,0.0,-23,,-0.11,-0.06,0.96,0,-0,-0,0.96,1.06,91,3321,5.4,3.76,,12.97,1.204,100.6,,22.8,5,,,,,,,,,,,,0,0,0,0,0,0,0,0,0,0,0,0,0,0,0,0,,,,,,0.0,,,,,,,
1946955,1745300442522,,,,,,,,,,,,,,,,,,,,,,,,,,,,,,,,,,0,0,0,0,0,0,0,0,0,0,0,0,0,0,0,0,,,,,,,,,,,,,
1946975,1745300442542,0.0,-12,,-0.07,-0.01,0.99,1,-0,0,0.99,1.06,94,3268,5.5,3.76,,12.95,1.191,100.6,,22.8,5,0,0,0,0,0.0,0.0,0.0,0.0,2.26,,,0,0,0,0,0,0,0,0,0,0,0,0,0,0,0,0,,0,,,,0.0,38.986019,-76.950012,0.04,50.0,32,3,0.8
1946995,1745300442562,,,,,,,,,,,,,,,,,,,,,,,,,,,,,,,,,,0,0,0,0,0,0,0,0,0,0,0,0,0,0,0,0,,,,,,,,,,,,,
1947015,1745300442582,0.0,-27,,-0.1,-0.1,1.01,-1,-0,-0,1.02,1.06,97,3273,5.5,3.75,,12.99,1.181,100.6,,22.8,5,,,,,,,,,,,,0,0,0,0,0,0,0,0,0,0,0,0,0,0,0,0,,,,,,0.0,,,,,,,
1947035,1745300442602,,,,,,,,,,,,,,,,,,,,,,,,,,,,,,,,,,0,0,0,0,0,0,0,0,0,0,0,0,0,0,0,0,,,,,,,,,,,,,
1947055,1745300442622,0.0,-27,,-0.1,-0.01,0.94,1,-0,-0,0.94,1.06,89,3296,5.5,3.77,,12.99,1.181,100.6,,22.3,5,,,,,,,,,,,,0,0,0,0,0,0,0,0,0,0,0,0,0,0,0,0,,,,,,0.0,,,,,,,
1947075,1745300442642,,,,,,,,,,,,,,,,,,,,,,,0,0,0,0,0.0,0.0,0.0,0.0,2.26,,,0,0,0,0,0,0,0,0,0,0,0,0,0,0,0,0,,0,,,,,38.986019,-76.950012,0.12,50.0,32,3,0.8
1947095,1745300442662,0.0,-38,,-0.06,-0.02,1.02,0,-0,0,1.03,1.06,97,3296,5.5,3.77,,12.95,1.182,100.6,,22.3,5,,,,,,,,,,,,0,0,0,0,0,0,0,0,0,0,0,0,0,0,0,0,,,,,,0.0,,,,,,,
1947115,1745300442682,,,,,,,,,,,,,,,,,,,,,,,,,,,,,,,,,,0,0,0,0,0,0,0,0,0,0,0,0,0,0,0,0,,,,,,,,,,,,,
1947135,1745300442702,0.0,-27,,-0.11,-0.06,1.04,-1,-0,-0,1.04,1.06,99,3232,5.4,3.76,,13.01,1.178,100.6,,22.1,5,,,,,,,,,,,,0,0,0,0,0,0,0,0,0,0,0,0,0,0,0,0,,,,,,0.0,,,,,,,
1947155,1745300442722,,,,,,,,,,,,,,,,,,,,,,,,,,,,,,,,,,0,0,0,0,0,0,0,0,0,0,0,0,0,0,0,0,,,,,,,,,,,,,
1947175,1745300442742,0.0,-38,,-0.1,0.01,0.94,1,-0,-0,0.95,1.06,89,3290,5.2,3.76,,12.96,1.167,100.6,,22.1,5,0,0,0,0,0.0,0.0,0.0,0.0,2.26,,,0,0,0,0,0,0,0,0,0,0,0,0,0,0,0,0,,0,,,,0.0,38.986019,-76.950012,0.04,50.1,32,3,0.8
1947195,1745300442762,,,,,,,,,,,,,,,,,,,,,,,,,,,,,,,,,,0,0,0,0,0,0,0,0,0,0,0,0,0,0,0,0,,,,,,,,,,,,,
1947215,1745300442782,0.0,-8,,-0.06,-0.01,1.04,-0,-0,0,1.04,1.06,98,3299,3.4,3.76,,12.88,1.165,100.6,,22.1,5,,,,,,,,,,,,0,0,0,0,0,0,0,0,0,0,0,0,0,0,0,0,,,,,,0.0,,,,,,,
1947235,1745300442802,,,,,,,,,,,,,,,,,,,,,,,,,,,,,,,,,,0,0,0,0,0,0,0,0,0,0,0,0,0,0,0,0,,,,,,,,,,,,,
1947255,1745300442822,0.0,-27,,-0.11,-0.08,1.02,-0,-0,-0,1.03,1.06,97,3256,2.9,3.49,,12.88,1.165,100.6,,22.9,5,,,,,,,,,,,,0,0,0,0,0,0,0,0,0,0,0,0,0,0,0,0,,,,,,0.0,,,,,,,
1947275,1745300442842,,,,,,,,,,,,,,,,,,,,,,,0,0,0,0,0.0,0.0,0.0,0.0,2.26,,,0,0,0,0,0,0,0,0,0,0,0,0,0,0,0,0,,0,,,,,38.986019,-76.950012,0.05,50.1,32,3,0.8
1947295,1745300442862,0.0,-27,,-0.1,0.01,0.93,1,-0,-0,0.93,1.06,88,3256,2.9,3.49,,12.83,1.178,100.6,,22.9,5,,,,,,,,,,,,0,0,0,0,0,0,0,0,0,0,0,0,0,0,0,0,,,,,,0.0,,,,,,,
1947315,1745300442882,,,,,,,,,,,,,,,,,,,,,,,,,,,,,,,,,,0,0,0,0,0,0,0,0,0,0,0,0,0,0,0,0,,,,,,,,,,,,,
1947335,1745300442902,0.0,-31,,-0.06,-0.05,1.0,-0,-0,0,1.01,1.06,95,3276,2.8,3.45,,12.75,1.176,100.6,,22.1,5,,,,,,,,,,,,0,0,0,0,0,0,0,0,0,0,0,0,0,0,0,0,,,,,,0.0,,,,,,,
1947355,1745300442922,,,,,,,,,,,,,,,,,,,,,,,,,,,,,,,,,,0,0,0,0,0,0,0,0,0,0,0,0,0,0,0,0,,,,,,,,,,,,,
1947375,1745300442942,0.0,-19,,-0.09,-0.1,1.03,-1,-0,-0,1.04,1.06,98,3242,2.8,3.48,,12.73,1.172,100.6,,22.1,5,0,0,0,0,0.0,0.0,0.0,0.0,2.26,,,0,0,0,0,0,0,0,0,0,0,0,0,0,0,0,0,,0,,,,0.0,38.986019,-76.950012,0.05,50.1,32,3,0.8
1947395,1745300442962,,,,,,,,,,,,,,,,,,,,,,,,,,,,,,,,,,0,0,0,0,0,0,0,0,0,0,0,0,0,0,0,0,,,,,,,,,,,,,
1947415,1745300442982,0.0,-15,,-0.12,-0.05,0.95,2,-0,-0,0.95,1.06,90,3161,2.8,3.43,,12.69,1.182,100.6,,22.1,5,,,,,,,,,,,,0,0,0,0,0,0,0,0,0,0,0,0,0,0,0,0,,,,,,0.0,,,,,,,
1947435,1745300442992,,,,,,,,,,,,,,,,,,,,,,,,,,,,,,,,,,0,0,0,0,0,0,0,0,0,0,0,0,0,0,0,0,,,,,,,,,,,,,
1947455,1745300443012,0.0,-23,,-0.08,0.05,0.92,1,-0,0,0.93,1.06,88,3173,2.9,3.46,,12.69,1.182,100.6,,21.6,5,,,,,,,,,,,,0,0,0,0,0,0,0,0,0,0,0,0,0,0,0,0,,,,,,0.0,,,,,,,
1947475,1745300443032,,,,,,,,,,,,,,,,,,,,,,,0,0,0,0,0.0,0.0,0.0,0.0,2.26,,,0,0,0,0,0,0,0,0,0,0,0,0,0,0,0,0,,0,,,,,38.986019,-76.950012,0.05,50.1,32,3,0.8
1947495,1745300443052,0.0,-38,,-0.05,0.01,0.99,-1,-0,0,0.99,1.06,94,3173,2.9,3.46,,12.69,1.192,100.6,,21.6,5,,,,,,,,,,,,0,0,0,0,0,0,0,0,0,0,0,0,0,0,0,0,,,,,,0.0,,,,,,,
1947515,1745300443072,,,,,,,,,,,,,,,,,,,,,,,,,,,,,,,,,,0,0,0,0,0,0,0,0,0,0,0,0,0,0,0,0,,,,,,,,,,,,,
1947535,1745300443096,0.0,-23,,-0.06,-0.07,1.06,-2,-0,0,1.06,1.06,100,3157,3.0,3.47,,12.69,1.194,100.6,,21.9,5,,,,,,,,,,,,0,0,0,0,0,0,0,0,0,0,0,0,0,0,0,0,,,,,,0.0,,,,,,,
1947555,1745300443116,,,,,,,,,,,,,,,,,,,,,,,,,,,,,,,,,,0,0,0,0,0,0,0,0,0,0,0,0,0,0,0,0,,,,,,,,,,,,,
1947575,1745300443136,0.0,-31,13.1,-0.1,-0.1,1.09,-1,-0,0,1.1,1.1,100,3062,3.0,3.49,15,12.75,1.188,100.6,174,21.9,5,0,0,0,0,0.0,0.0,0.0,0.0,2.26,0,1.0,0,0,0,0,0,0,0,0,0,0,0,0,0,0,0,0,0,0,1.0,0,0,0.0,38.986019,-76.950012,0.07,50.1,32,3,0.8
1947595,1745300443156,,,,,,,,,,,,,,,,,,,,,,,,,,,,,,,,,,0,0,0,0,0,0,0,0,0,0,0,0,0,0,0,0,,,,,,,,,,,,,
1947615,1745300443176,0.0,-8,,-0.13,-0.08,1.03,0,-0,-0,1.04,1.1,95,3157,3.0,3.51,,12.75,1.188,100.6,,21.9,5,,,,,,,,,,,,0,0,0,0,0,0,0,0,0,0,0,0,0,0,0,0,,,,,,0.0,,,,,,,
1947635,1745300443202,,,,,,,,,,,,,,,,,,,,,,,,,,,,,,,,,,0,0,0,0,0,0,0,0,0,0,0,0,0,0,0,0,,,,,,,,,,,,,
1947655,1745300443222,0.0,-12,,-0.12,-0.03,0.93,1,-0,-0,0.94,1.1,86,3144,2.9,3.51,,12.75,1.188,100.6,,21.1,5,,,,,,,,,,,,0,0,0,0,0,0,0,0,0,0,0,0,0,0,0,0,,,,,,0.0,,,,,,,
1947675,1745300443242,,,,,,,,,,,,,,,,,,,,,,,0,0,0,0,0.0,0.0,0.0,0.0,2.26,,,0,0,0,0,0,0,0,0,0,0,0,0,0,0,0,0,,0,,,,,38.986019,-76.950012,0.04,50.1,32,3,0.8
1947695,1745300443262,0.0,-23,,-0.09,0.03,0.89,2,-0,0,0.9,1.1,82,3144,2.9,3.51,,12.75,1.205,100.6,,21.1,5,,,,,,,,,,,,0,0,0,0,0,0,0,0,0,0,0,0,0,0,0,0,,,,,,0.0,,,,,,,
1947715,1745300443282,,,,,,,,,,,,,,,,,,,,,,,,,,,,,,,,,,0,0,0,0,0,0,0,0,0,0,0,0,0,0,0,0,,,,,,,,,,,,,
1947735,1745300443302,0.0,-27,,-0.05,0.06,0.93,1,-0,0,0.94,1.1,86,3063,2.8,3.51,,12.73,1.209,100.6,,21.4,5,,,,,,,,,,,,0,0,0,0,0,0,0,0,0,0,0,0,0,0,0,0,,,,,,0.0,,,,,,,
1947755,1745300443322,,,,,,,,,,,,,,,,,,,,,,,,,,,,,,,,,,0,0,0,0,0,0,0,0,0,0,0,0,0,0,0,0,,,,,,,,,,,,,
1947775,1745300443342,0.0,-31,,-0.02,0.01,1.01,-1,-0,1,1.01,1.1,92,3064,2.8,3.53,,12.8,1.228,100.6,,21.4,5,0,0,0,0,0.0,0.0,0.0,0.0,2.27,,,0,0,0,0,0,0,0,0,0,0,0,0,0,0,0,0,,0,,,,0.0,38.986019,-76.950012,0.0,50.1,32,3,0.8
1947795,1745300443362,,,,,,,,,,,,,,,,,,,,,,,,,,,,,,,,,,0,0,0,0,0,0,0,0,0,0,0,0,0,0,0,0,,,,,,,,,,,,,
1947815,1745300443382,0.0,-12,,-0.02,-0.09,1.07,-2,-0,1,1.08,1.1,98,3094,2.8,3.5,,12.79,1.223,100.6,,21.4,5,,,,,,,,,,,,0,0,0,0,0,0,0,0,0,0,0,0,0,0,0,0,,,,,,0.0,,,,,,,
1947835,1745300443404,,,,,,,,,,,,,,,,,,,,,,,,,,,,,,,,,,0,0,0,0,0,0,0,0,0,0,0,0,0,0,0,0,,,,,,,,,,,,,
1947855,1745300443424,0.0,-4,,-0.04,-0.13,1.12,-3,-0,0,1.12,1.12,100,3079,2.9,3.52,,12.79,1.223,100.6,,21.0,5,,,,,,,,,,,,0,0,0,0,0,0,0,0,0,0,0,0,0,0,0,0,,,,,,0.0,,,,,,,
1947875,1745300443444,,,,,,,,,,,,,,,,,,,,,,,0,0,0,0,0.0,0.0,0.0,0.0,2.26,,,0,0,0,0,0,0,0,0,0,0,0,0,0,0,0,0,,0,,,,,38.986019,-76.950012,0.04,50.1,32,3,0.8
1947895,1745300443464,0.0,-27,,-0.07,-0.12,1.14,-3,-0,0,1.15,1.15,100,3079,2.9,3.52,,12.79,1.198,100.6,,21.0,5,,,,,,,,,,,,0,0,0,0,0,0,0,0,0,0,0,0,0,0,0,0,,,,,,0.0,,,,,,,
1947915,1745300443484,,,,,,,,,,,,,,,,,,,,,,,,,,,,,,,,,,0,0,0,0,0,0,0,0,0,0,0,0,0,0,0,0,,,,,,,,,,,,,
1947935,1745300443502,0.0,-31,,-0.11,-0.13,1.14,-2,0,0,1.15,1.15,100,3050,2.9,3.5,,12.83,1.206,100.6,,20.9,5,,,,,,,,,,,,0,0,0,0,0,0,0,0,0,0,0,0,0,0,0,0,,,,,,0.0,,,,,,,
1947955,1745300443522,,,,,,,,,,,,,,,,,,,,,,,,,,,,,,,,,,0,0,0,0,0,0,0,0,0,0,0,0,0,0,0,0,,,,,,,,,,,,,
1947975,1745300443542,0.0,-19,,-0.15,-0.13,1.11,-1,0,-0,1.13,1.15,98,3073,3.0,3.53,,12.88,1.228,100.6,,20.9,5,0,0,0,0,0.0,0.0,0.0,0.0,2.26,,,0,0,0,0,0,0,0,0,0,0,0,0,0,0,0,0,,0,,,,0.0,38.986019,-76.950012,0.0,50.1,32,3,0.8
1947995,1745300443562,,,,,,,,,,,,,,,,,,,,,,,,,,,,,,,,,,0,0,0,0,0,0,0,0,0,0,0,0,0,0,0,0,,,,,,,,,,,,,
1948015,1745300443582,0.0,-8,,-0.17,-0.11,1.05,0,0,-0,1.08,1.15,93,3050,3.1,3.51,,12.81,1.22,100.6,,20.9,5,,,,,,,,,,,,0,0,0,0,0,0,0,0,0,0,0,0,0,0,0,0,,,,,,0.0,,,,,,,
1948035,1745300443603,,,,,,,,,,,,,,,,,,,,,,,,,,,,,,,,,,0,0,0,0,0,0,0,0,0,0,0,0,0,0,0,0,,,,,,,,,,,,,
1948055,1745300443623,0.0,-8,,-0.19,-0.08,0.99,1,-0,-1,1.01,1.15,87,3007,3.1,3.55,,12.81,1.22,100.6,,21.0,5,,,,,,,,,,,,0,0,0,0,0,0,0,0,0,0,0,0,0,0,0,0,,,,,,0.0,,,,,,,
1948075,1745300443643,,,,,,,,,,,,,,,,,,,,,,,0,0,0,0,0.0,0.0,0.0,0.0,2.26,,,0,0,0,0,0,0,0,0,0,0,0,0,0,0,0,0,,0,,,,,38.986019,-76.950012,0.46,50.1,32,3,0.8
1948095,1745300443663,0.0,-15,,-0.2,-0.05,0.92,2,-0,-1,0.94,1.15,81,3007,3.1,3.55,,12.85,1.202,100.6,,21.0,5,,,,,,,,,,,,0,0,0,0,0,0,0,0,0,0,0,0,0,0,0,0,,,,,,0.0,,,,,,,
1948115,1745300443683,,,,,,,,,,,,,,,,,,,,,,,,,,,,,,,,,,0,0,0,0,0,0,0,0,0,0,0,0,0,0,0,0,,,,,,,,,,,,,
1948135,1745300443703,0.0,-38,,-0.2,-0.02,0.84,3,-0,-1,0.87,1.15,75,2996,3.1,3.55,,12.89,1.204,100.6,,20.7,5,,,,,,,,,,,,0,0,0,0,0,0,0,0,0,0,0,0,0,0,0,0,,,,,,0.0,,,,,,,
1948155,1745300443723,,,,,,,,,,,,,,,,,,,,,,,,,,,,,,,,,,0,0,0,0,0,0,0,0,0,0,0,0,0,0,0,0,,,,,,,,,,,,,
1948175,1745300443743,0.0,-12,,-0.19,0.0,0.77,4,-0,-1,0.8,1.15,69,3054,3.0,3.54,,12.89,1.214,100.6,,20.7,5,0,0,0,0,0.0,0.0,0.0,0.0,2.26,,,0,0,0,0,0,0,0,0,0,0,0,0,0,0,0,0,,0,,,,0.0,38.986019,-76.950012,0.13,50.1,32,3,0.8
1948195,1745300443763,,,,,,,,,,,,,,,,,,,,,,,,,,,,,,,,,,0,0,0,0,0,0,0,0,0,0,0,0,0,0,0,0,,,,,,,,,,,,,
1948215,1745300443783,0.0,-8,,-0.16,0.03,0.73,4,-0,-1,0.74,1.15,65,3067,2.9,3.55,,12.87,1.212,100.6,,20.7,5,,,,,,,,,,,,0,0,0,0,0,0,0,0,0,0,0,0,0,0,0,0,,,,,,0.0,,,,,,,
1948235,1745300443803,,,,,,,,,,,,,,,,,,,,,,,,,,,,,,,,,,0,0,0,0,0,0,0,0,0,0,0,0,0,0,0,0,,,,,,,,,,,,,
1948255,1745300443823,0.0,-8,,-0.14,0.08,0.71,4,-0,-1,0.73,1.15,63,3026,2.9,3.51,,12.87,1.212,100.6,,21.1,5,,,,,,,,,,,,0,0,0,0,0,0,0,0,0,0,0,0,0,0,0,0,,,,,,0.0,,,,,,,
1948275,1745300443843,,,,,,,,,,,,,,,,,,,,,,,0,0,0,0,0.0,0.0,0.0,0.0,2.26,,,0,0,0,0,0,0,0,0,0,0,0,0,0,0,0,0,,0,,,,,38.986019,-76.950012,0.11,50.1,32,3,0.8
1948295,1745300443863,0.0,-8,,-0.11,0.12,0.72,4,-0,-0,0.74,1.15,64,3026,2.9,3.51,,12.83,1.207,100.6,,21.1,5,,,,,,,,,,,,0,0,0,0,0,0,0,0,0,0,0,0,0,0,0,0,,,,,,0.0,,,,,,,
1948315,1745300443883,,,,,,,,,,,,,,,,,,,,,,,,,,,,,,,,,,0,0,0,0,0,0,0,0,0,0,0,0,0,0,0,0,,,,,,,,,,,,,
1948335,1745300443903,0.0,-27,,-0.08,0.17,0.74,4,-0,-0,0.77,1.15,67,2993,2.9,3.55,,12.89,1.209,100.6,,20.8,5,,,,,,,,,,,,0,0,0,0,0,0,0,0,0,0,0,0,0,0,0,0,,,,,,0.0,,,,,,,
1948355,1745300443923,,,,,,,,,,,,,,,,,,,,,,,,,,,,,,,,,,0,0,0,0,0,0,0,0,0,0,0,0,0,0,0,0,,,,,,,,,,,,,
1948375,1745300443943,0.0,-27,,-0.06,0.19,0.78,4,-0,0,0.8,1.15,70,3051,3.0,3.52,,12.84,1.216,100.6,,20.8,5,0,0,0,0,0.0,0.0,0.0,0.0,2.26,,,0,0,0,0,0,0,0,0,0,0,0,0,0,0,0,0,,0,,,,0.0,38.986019,-76.950012,0.11,50.1,32,3,0.8
1948395,1745300443963,,,,,,,,,,,,,,,,,,,,,,,,,,,,,,,,,,0,0,0,0,0,0,0,0,0,0,0,0,0,0,0,0,,,,,,,,,,,,,
1948415,1745300443983,0.0,-23,,-0.03,0.2,0.81,4,-0,0,0.84,1.15,73,3026,5.9,3.74,,13.03,1.208,100.6,,20.8,5,,,,,,,,,,,,0,0,0,0,0,0,0,0,0,0,0,0,0,0,0,0,,,,,,0.0,,,,,,,
1948435,1745300443995,,,,,,,,,,,,,,,,,,,,,,,,,,,,,,,,,,0,0,0,0,0,0,0,0,0,0,0,0,0,0,0,0,,,,,,,,,,,,,
1948455,1745300444015,0.0,-8,,-0.01,0.2,0.86,3,-0,1,0.88,1.15,76,3004,7.9,3.87,,13.03,1.208,100.6,,21.0,5,,,,,,,,,,,,0,0,0,0,0,0,0,0,0,0,0,0,0,0,0,0,,,,,,0.0,,,,,,,
1948475,1745300444035,,,,,,,,,,,,,,,,,,,,,,,0,0,0,0,0.0,0.0,0.0,0.0,2.26,,,0,0,0,0,0,0,0,0,0,0,0,0,0,0,0,0,,0,,,,,38.986019,-76.950012,0.11,50.1,32,3,0.8
1948495,1745300444055,0.0,-23,,0.02,0.17,0.91,3,-0,1,0.93,1.15,81,3004,7.9,3.87,,13.19,1.207,100.6,,21.0,5,,,,,,,,,,,,0,0,0,0,0,0,0,0,0,0,0,0,0,0,0,0,,,,,,0.0,,,,,,,
1948515,1745300444075,,,,,,,,,,,,,,,,,,,,,,,,,,,,,,,,,,0,0,0,0,0,0,0,0,0,0,0,0,0,0,0,0,,,,,,,,,,,,,
1948535,1745300444103,0.0,-31,,0.03,0.09,1.0,1,-0,1,1.01,1.15,87,3018,8.4,3.89,,13.33,1.223,100.6,,21.1,5,,,,,,,,,,,,0,0,0,0,0,0,0,0,0,0,0,0,0,0,0,0,,,,,,0.0,,,,,,,
1948555,1745300444123,,,,,,,,,,,,,,,,,,,,,,,,,,,,,,,,,,0,0,0,0,0,0,0,0,0,0,0,0,0,0,0,0,,,,,,,,,,,,,
1948575,1745300444143,0.0,-27,13.13,-0.01,0.01,1.05,0,-0,1,1.05,1.15,91,3167,9.4,3.92,15,13.36,1.222,100.6,174,21.1,5,0,0,0,0,0.0,0.0,0.0,0.0,2.26,0,1.0,0,0,0,0,0,0,0,0,0,0,0,0,0,0,0,0,0,0,1.0,0,0,0.0,38.986019,-76.950012,0.62,50.1,32,3,0.8
1948595,1745300444163,,,,,,,,,,,,,,,,,,,,,,,,,,,,,,,,,,0,0,0,0,0,0,0,0,0,0,0,0,0,0,0,0,,,,,,,,,,,,,
1948615,1745300444183,0.0,-8,,-0.03,0.06,0.94,3,-0,0,0.94,1.15,82,3265,9.5,3.92,,13.35,1.208,100.6,,21.1,5,,,,,,,,,,,,0,0,0,0,0,0,0,0,0,0,0,0,0,0,0,0,,,,,,0.0,,,,,,,
1948635,1745300444199,,,,,,,,,,,,,,,,,,,,,,,,,,,,,,,,,,0,0,0,0,0,0,0,0,0,0,0,0,0,0,0,0,,,,,,,,,,,,,
1948655,1745300444219,0.0,-8,,-0.02,0.0,1.02,-0,-0,1,1.02,1.15,89,3359,9.4,3.91,,13.35,1.208,100.6,,23.2,5,,,,,,,,,,,,0,0,0,0,0,0,0,0,0,0,0,0,0,0,0,0,,,,,,0.0,,,,,,,
1948675,1745300444239,,,,,,,,,,,,,,,,,,,,,,,0,0,0,0,0.0,0.0,0.0,0.0,2.26,,,0,0,0,0,0,0,0,0,0,0,0,0,0,0,0,0,,0,,,,,38.986019,-76.950012,0.33,50.1,32,3,0.8
1948695,1745300444259,0.0,-23,,-0.04,0.06,0.96,3,-0,0,0.97,1.15,84,3359,9.4,3.91,,13.39,1.231,100.6,,23.2,5,,,,,,,,,,,,0,0,0,0,0,0,0,0,0,0,0,0,0,0,0,0,,,,,,0.0,,,,,,,
1948715,1745300444279,,,,,,,,,,,,,,,,,,,,,,,,,,,,,,,,,,0,0,0,0,0,0,0,0,0,0,0,0,0,0,0,0,,,,,,,,,,,,,
1948735,1745300444303,0.0,-19,,-0.05,-0.06,1.0,-0,-0,0,1.0,1.15,87,3461,9.4,3.92,,13.28,1.232,100.6,,23.9,5,,,,,,,,,,,,0,0,0,0,0,0,0,0,0,0,0,0,0,0,0,0,,,,,,0.0,,,,,,,
1948755,1745300444323,,,,,,,,,,,,,,,,,,,,,,,,,,,,,,,,,,0,0,0,0,0,0,0,0,0,0,0,0,0,0,0,0,,,,,,,,,,,,,
1948775,1745300444343,0.0,-23,,-0.02,0.06,1.02,0,-0,1,1.02,1.15,89,3467,9.3,3.92,,13.32,1.215,100.6,,23.9,5,0,0,0,0,0.0,0.0,0.0,0.0,2.26,,,0,0,0,0,0,0,0,0,0,0,0,0,0,0,0,0,,0,,,,0.0,38.986019,-76.950012,0.08,50.1,32,3,0.8
1948795,1745300444363,,,,,,,,,,,,,,,,,,,,,,,,,,,,,,,,,,0,0,0,0,0,0,0,0,0,0,0,0,0,0,0,0,,,,,,,,,,,,,
1948815,1745300444383,0.0,5,,-0.03,0.13,0.97,2,-0,0,0.97,1.15,84,3584,9.3,3.9,,13.23,1.218,100.6,,23.9,5,,,,,,,,,,,,0,0,0,0,0,0,0,0,0,0,0,0,0,0,0,0,,,,,,0.0,,,,,,,
1948835,1745300444405,,,,,,,,,,,,,,,,,,,,,,,,,,,,,,,,,,0,0,0,0,0,0,0,0,0,0,0,0,0,0,0,0,,,,,,,,,,,,,
1948855,1745300444425,0.0,25,,-0.05,0.15,0.88,7,-0,-0,0.89,1.15,77,3621,9.3,3.9,,13.23,1.218,100.6,,24.8,5,,,,,,,,,,,,0,0,0,0,0,0,0,0,0,0,0,0,0,0,0,0,,,,,,0.0,,,,,,,
1948875,1745300444445,,,,,,,,,,,,,,,,,,,,,,,0,0,0,0,0.0,0.0,0.0,0.0,2.26,,,0,0,0,0,0,0,0,0,0,0,0,0,0,0,0,0,,0,,,,,38.986019,-76.950012,0.11,50.1,32,3,0.8
1948895,1745300444465,0.0,-0,,-0.05,0.16,0.89,6,-0,-0,0.91,1.15,79,3621,9.3,3.9,,13.15,1.199,100.6,,24.8,5,,,,,,,,,,,,0,0,0,0,0,0,0,0,0,0,0,0,0,0,0,0,,,,,,0.0,,,,,,,
1948915,1745300444485,,,,,,,,,,,,,,,,,,,,,,,,,,,,,,,,,,0,0,0,0,0,0,0,0,0,0,0,0,0,0,0,0,,,,,,,,,,,,,
1948935,1745300444503,0.0,17,,-0.05,0.14,0.9,6,-0,-0,0.91,1.15,79,3767,9.3,3.9,,13.03,1.197,100.6,,26.3,5,,,,,,,,,,,,0,0,0,0,0,0,0,0,0,0,0,0,0,0,0,0,,,,,,0.0,,,,,,,
1948955,1745300444523,,,,,,,,,,,,,,,,,,,,,,,,,,,,,,,,,,0,0,0,0,0,0,0,0,0,0,0,0,0,0,0,0,,,,,,,,,,,,,
1948975,1745300444543,0.0,-27,,-0.06,0.15,0.91,5,-0,-0,0.93,1.15,81,3861,9.4,3.88,,13.01,1.209,98.8,,26.3,5,0,0,0,0,0.0,0.0,0.0,0.0,2.26,,,0,0,0,0,0,0,0,0,0,0,0,0,0,0,0,0,,0,,,,0.0,38.986019,-76.950012,0.19,50.1,32,3,0.8
1948995,1745300444563,,,,,,,,,,,,,,,,,,,,,,,,,,,,,,,,,,0,0,0,0,0,0,0,0,0,0,0,0,0,0,0,0,,,,,,,,,,,,,
1949015,1745300444583,0.0,-8,,-0.05,0.08,0.93,3,-0,0,0.94,1.15,81,3875,9.4,3.87,,12.97,1.182,98.8,,26.3,5,,,,,,,,,,,,0,0,0,0,0,0,0,0,0,0,0,0,0,0,0,0,,,,,,0.0,,,,,,,
1949035,1745300444604,,,,,,,,,,,,,,,,,,,,,,,,,,,,,,,,,,0,0,0,0,0,0,0,0,0,0,0,0,0,0,0,0,,,,,,,,,,,,,
1949055,1745300444624,0.0,-0,,-0.08,0.02,0.9,1,-0,-0,0.9,1.15,78,3939,9.6,3.87,,12.97,1.182,98.8,,26.6,5,,,,,,,,,,,,0,0,0,0,0,0,0,0,0,0,0,0,0,0,0,0,,,,,,0.0,,,,,,,
1949075,1745300444644,,,,,,,,,,,,,,,,,,,,,,,0,0,0,0,0.0,0.0,0.0,0.0,2.26,,,0,0,0,0,0,0,0,0,0,0,0,0,0,0,0,0,,0,,,,,38.986019,-76.950012,0.37,50.1,32,3,0.8
1949095,1745300444664,0.0,-19,,-0.09,0.01,0.91,1,-0,-0,0.92,1.15,79,3939,9.6,3.87,,12.96,1.178,98.8,,26.6,5,,,,,,,,,,,,0,0,0,0,0,0,0,0,0,0,0,0,0,0,0,0,,,,,,0.0,,,,,,,
1949115,1745300444684,,,,,,,,,,,,,,,,,,,,,,,,,,,,,,,,,,0,0,0,0,0,0,0,0,0,0,0,0,0,0,0,0,,,,,,,,,,,,,
1949135,1745300444702,0.0,-4,,-0.1,0.09,0.99,3,-0,-0,1.0,1.15,86,3909,9.5,3.87,,12.91,1.158,98.8,,26.7,5,,,,,,,,,,,,0,0,0,0,0,0,0,0,0,0,0,0,0,0,0,0,,,,,,0.0,,,,,,,
1949155,1745300444722,,,,,,,,,,,,,,,,,,,,,,,,,,,,,,,,,,0,0,0,0,0,0,0,0,0,0,0,0,0,0,0,0,,,,,,,,,,,,,
1949175,1745300444742,0.0,-27,,-0.08,-0.03,1.03,1,-0,0,1.03,1.15,89,3938,9.5,3.87,,12.83,1.145,98.8,,26.7,5,0,0,0,0,0.0,0.0,0.0,0.0,2.26,,,0,0,0,0,0,0,0,0,0,0,0,0,0,0,0,0,,0,,,,0.0,38.986019,-76.950012,0.2,50.1,32,3,0.8
1949195,1745300444762,,,,,,,,,,,,,,,,,,,,,,,,,,,,,,,,,,0,0,0,0,0,0,0,0,0,0,0,0,0,0,0,0,,,,,,,,,,,,,
1949215,1745300444782,0.0,-23,,-0.08,-0.07,0.98,-2,-0,0,0.99,1.15,86,3953,9.4,3.86,,12.84,1.14,98.8,,26.7,5,,,,,,,,,,,,0,0,0,0,0,0,0,0,0,0,0,0,0,0,0,0,,,,,,0.0,,,,,,,
1949235,1745300444802,,,,,,,,,,,,,,,,,,,,,,,,,,,,,,,,,,0,0,0,0,0,0,0,0,0,0,0,0,0,0,0,0,,,,,,,,,,,,,
1949255,1745300444822,0.0,-4,,-0.09,-0.06,0.95,-0,-0,0,0.95,1.15,83,3925,9.3,3.87,,12.84,1.14,98.8,,27.5,5,,,,,,,,,,,,0,0,0,0,0,0,0,0,0,0,0,0,0,0,0,0,,,,,,0.0,,,,,,,
1949275,1745300444842,,,,,,,,,,,,,,,,,,,,,,,0,0,0,0,0.0,0.0,0.0,0.0,2.27,,,0,0,0,0,0,0,0,0,0,0,0,0,0,0,0,0,,0,,,,,38.986019,-76.950012,0.23,50.1,32,3,0.8
1949295,1745300444862,0.0,-27,,-0.07,0.05,0.98,2,-0,0,0.99,1.15,85,3925,9.3,3.87,,12.8,1.151,98.8,,27.5,5,,,,,,,,,,,,0,0,0,0,0,0,0,0,0,0,0,0,0,0,0,0,,,,,,0.0,,,,,,,
1949315,1745300444882,,,,,,,,,,,,,,,,,,,,,,,,,,,,,,,,,,0,0,0,0,0,0,0,0,0,0,0,0,0,0,0,0,,,,,,,,,,,,,
1949335,1745300444902,0.0,-31,,-0.05,0.06,1.02,1,-0,1,1.03,1.15,89,3972,9.3,3.87,,12.87,1.157,98.8,,27.4,5,,,,,,,,,,,,0,0,0,0,0,0,0,0,0,0,0,0,0,0,0,0,,,,,,0.0,,,,,,,
1949355,1745300444922,,,,,,,,,,,,,,,,,,,,,,,,,,,,,,,,,,0,0,0,0,0,0,0,0,0,0,0,0,0,0,0,0,,,,,,,,,,,,,
1949375,1745300444942,0.0,-23,,-0.06,-0.04,0.96,-1,-0,0,0.96,1.15,83,3986,9.3,3.86,,12.83,1.164,98.8,,27.4,5,0,0,0,0,0.0,0.0,0.0,0.0,2.26,,,0,0,0,0,0,0,0,0,0,0,0,0,0,0,0,0,,0,,,,0.0,38.986019,-76.950012,0.05,50.1,32,3,0.8
1949395,1745300444962,,,,,,,,,,,,,,,,,,,,,,,,,,,,,,,,,,0,0,0,0,0,0,0,0,0,0,0,0,0,0,0,0,,,,,,,,,,,,,
1949415,1745300444982,0.0,11,,-0.07,0.05,0.95,3,-0,0,0.95,1.15,82,3978,6.3,3.84,,12.71,1.151,98.8,,27.4,5,,,,,,,,,,,,0,0,0,0,0,0,0,0,0,0,0,0,0,0,0,0,,,,,,0.0,,,,,,,
1949435,1745300444992,,,,,,,,,,,,,,,,,,,,,,,,,,,,,,,,,,0,0,0,0,0,0,0,0,0,0,0,0,0,0,0,0,,,,,,,,,,,,,
1949455,1745300445012,0.0,-8,,-0.06,0.11,1.0,2,-0,1,1.01,1.15,87,3966,1.7,3.16,,12.71,1.151,98.8,,27.1,5,,,,,,,,,,,,0,0,0,0,0,0,0,0,0,0,0,0,0,0,0,0,,,,,,0.0,,,,,,,
1949475,1745300445032,,,,,,,,,,,,,,,,,,,,,,,0,0,0,0,0.0,0.0,0.0,0.0,2.26,,,0,0,0,0,0,0,0,0,0,0,0,0,0,0,0,0,,0,,,,,38.986019,-76.950012,0.05,50.1,32,3,0.8
1949495,1745300445052,0.0,-19,,-0.05,0.01,0.98,0,-0,0,0.98,1.15,85,3966,1.7,3.16,,12.36,1.144,98.8,,27.1,5,,,,,,,,,,,,0,0,0,0,0,0,0,0,0,0,0,0,0,0,0,0,,,,,,0.0,,,,,,,
1949515,1745300445072,,,,,,,,,,,,,,,,,,,,,,,,,,,,,,,,,,0,0,0,0,0,0,0,0,0,0,0,0,0,0,0,0,,,,,,,,,,,,,
1949535,1745300445096,0.0,-15,,-0.06,-0.05,0.95,-0,-0,0,0.96,1.15,83,3886,1.1,2.86,,12.12,1.142,98.8,,26.5,5,,,,,,,,,,,,0,0,0,0,0,0,0,0,0,0,0,0,0,0,0,0,,,,,,0.0,,,,,,,
1949555,1745300445116,,,,,,,,,,,,,,,,,,,,,,,,,,,,,,,,,,0,0,0,0,0,0,0,0,0,0,0,0,0,0,0,0,,,,,,,,,,,,,
1949575,1745300445136,0.0,-23,13.18,-0.07,-0.01,0.95,-0,-0,0,0.96,1.15,83,3747,1.1,2.8,15,11.95,1.135,98.8,174,26.5,5,0,0,0,0,0.0,0.0,0.0,0.0,2.26,0,1.0,0,0,0,0,0,0,0,0,0,0,0,0,0,0,0,0,0,0,1.0,0,0,0.0,38.986019,-76.950012,0.08,50.1,32,3,0.8
1949595,1745300445156,,,,,,,,,,,,,,,,,,,,,,,,,,,,,,,,,,0,0,0,0,0,0,0,0,0,0,0,0,0,0,0,0,,,,,,,,,,,,,
1949615,1745300445176,0.0,-19,,-0.07,-0.01,0.98,0,-0,0,0.98,1.15,85,3668,1.0,2.86,,11.88,1.134,98.8,,26.5,5,,,,,,,,,,,,0,0,0,0,0,0,0,0,0,0,0,0,0,0,0,0,,,,,,0.0,,,,,,,
1949635,1745300445200,,,,,,,,,,,,,,,,,,,,,,,,,,,,,,,,,,0,0,0,0,0,0,0,0,0,0,0,0,0,0,0,0,,,,,,,,,,,,,
1949655,1745300445220,0.0,-19,,-0.07,0.06,0.93,2,-0,0,0.93,1.15,81,3552,1.0,2.89,,11.88,1.134,98.8,,25.1,5,,,,,,,,,,,,0,0,0,0,0,0,0,0,0,0,0,0,0,0,0,0,,,,,,0.0,,,,,,,
1949675,1745300445240,,,,,,,,,,,,,,,,,,,,,,,0,0,0,0,0.0,0.0,0.0,0.0,2.26,,,0,0,0,0,0,0,0,0,0,0,0,0,0,0,0,0,,0,,,,,38.986019,-76.950012,0.13,50.1,32,3,0.8
1949695,1745300445260,0.0,3,,-0.11,-0.07,0.94,1,-0,-0,0.94,1.15,82,3552,1.0,2.89,,11.93,1.162,98.8,,25.1,5,,,,,,,,,,,,0,0,0,0,0,0,0,0,0,0,0,0,0,0,0,0,,,,,,0.0,,,,,,,
1949715,1745300445280,,,,,,,,,,,,,,,,,,,,,,,,,,,,,,,,,,0,0,0,0,0,0,0,0,0,0,0,0,0,0,0,0,,,,,,,,,,,,,
1949735,1745300445300,0.0,-15,,-0.07,-0.06,0.98,0,-0,0,0.99,1.15,86,3446,0.9,2.94,,12.03,1.215,98.8,,23.2,5,,,,,,,,,,,,0,0,0,0,0,0,0,0,0,0,0,0,0,0,0,0,,,,,,0.0,,,,,,,
