"Interval"|"ms"|0|0|1,"Utc"|"ms"|0|0|1,"FrontBP"|"psi"|-5.0|5.0|25,"SteerAng"|"Degrees"|-145|145|25,"Battery"|"Volts"|-5.0|20.0|1,"AccelX"|"G"|-3.0|3.0|25,"AccelY"|"G"|-3.0|3.0|25,"AccelZ"|"G"|-3.0|3.0|25,"Yaw"|"Deg/Sec"|-120|120|25,"Pitch"|"Deg/Sec"|-120|120|25,"Roll"|"Deg/Sec"|-120|120|25,"Gsum"|"G"|0.0|3.0|25,"GsumMax"|"G"|0.0|3.0|25,"GsumPct"|"%"|0|100|25,"RPM"|""|0|10000|25,"TPS"|"%"|0.0|100.0|25,"InjectorPW"|"ms"|0.0|100.0|25,"Baro"|"kPa"|0|105|1,"MAP"|"Psi"|0.0|255.0|25,"Lambda"|""|-2.0|2.0|25,"IAT"|"C"|0.0|200.0|25,"EngineTemp"|"C"|0|200|1,"EOP"|"PSI"|0.0|152.0|25,"EOT"|"F"|0|250|25,"WSFR"|"MPH"|0|150|10,"WSFL"|"MPH"|0|100|10,"WSRR"|"MPH"|0|100|10,"WSRL"|""|0|100|10,"TCSet"|"%"|0.0|100.0|10,"TCSlip"|"%"|0.0|100.0|10,"TCComp"|"deg"|0.0|50.0|10,"TCCut"|"%"|0.0|100.0|10,"Analog8"|""|0.0|5.0|10,"OilTemp"|"F"|0|300|1,"AA_On"|""|0.0|1.0|1,"ThermLF1"|"C"|0|400|50,"ThermLF2"|"C"|0|400|50,"ThermRR1"|"C"|0|400|50,"ThermRR2"|"C"|0|400|50,"ThermLF3"|"C"|0|400|50,"ThermLF4"|"C"|0|400|50,"ThermLF5"|"C"|0|400|50,"ThermLF6"|"C"|0|400|50,"ThermLF7"|"C"|0|400|50,"ThermLF8"|"C"|0|400|50,"ThermRR3"|"C"|0|400|50,"ThermRR4"|"C"|0|400|50,"ThermRR5"|"C"|0|400|50,"ThermRR6"|"C"|0|400|50,"ThermRR7"|"C"|0|400|50,"ThermRR8"|"C"|0|400|50,"AA_LowDrag"|""|0|1|1,"Gear"|""|1|6|10,"AA_On"|""|0.0|1.0|1,"AA_LowDrag"|""|0|1|1,"Fuel_Mix"|""|-10|10|1,"AA_Packages"|""|0.0|1000.0|25,"Latitude"|"Degrees"|-180.0|180.0|10,"Longitude"|"Degrees"|-180.0|180.0|10,"Speed"|"kph"|0.0|150.0|10,"Altitude"|"m"|0.0|4000.0|10,"GPSSats"|""|0|20|10,"GPSQual"|""|0|5|10,"GPSDOP"|""|0.0|20.0|10
1377295,1745299867035,15.84,-135,,-0.12,-0.14,0.97,-1,-0,0,0.99,0.99,100,4691,0.0,2.57,,12.12,1.252,100.6,,31.5,5,,,,,,,,,,,,0,0,0,0,0,0,0,0,0,0,0,0,0,0,0,0,,,,,,0.0,,,,,,,
1377315,1745299867055,,,,,,,,,,,,,,,,,,,,,,,,,,,,,,,,,,0,0,0,0,0,0,0,0,0,0,0,0,0,0,0,0,,,,,,,,,,,,,
1377335,1745299867075,15.84,-117,,-0.09,-0.18,0.89,-1,-0,0,0.91,0.99,93,4691,0.0,2.57,,11.48,1.252,100.6,,31.1,5,,,,,,,,,,,,0,0,0,0,0,0,0,0,0,0,0,0,0,0,0,0,,,,,,0.0,,,,,,,
1377355,1745299867103,,,,,,,,,,,,,,,,,,,,,,,,,,,,,,,,,,0,0,0,0,0,0,0,0,0,0,0,0,0,0,0,0,,,,,,,,,,,,,
1377375,1745299867123,15.84,-135,,-0.06,-0.27,0.81,-2,-0,-0,0.85,0.99,87,4557,0.0,2.57,,11.12,1.205,100.6,,31.1,5,0,0,0,0,7.0,0.0,0.0,0.0,2.26,,,0,0,0,0,0,0,0,0,0,0,0,0,0,0,0,0,,0,,,,0.0,38.986015,-76.95002,0.0,50.1,33,3,0.8
1377395,1745299867143,,,,,,,,,,,,,,,,,,,,,,,,,,,,,,,,,,0,0,0,0,0,0,0,0,0,0,0,0,0,0,0,0,,,,,,,,,,,,,
1377415,1745299867163,13.95,-117,,-0.05,-0.33,0.76,-3,-0,0,0.83,0.99,84,4436,4.3,3.93,,11.18,1.231,100.6,,31.1,5,,,,,,,,,,,,0,0,0,0,0,0,0,0,0,0,0,0,0,0,0,0,,,,,,0.0,,,,,,,
1377435,1745299867183,,,,,,,,,,,,,,,,,,,,,,,,,,,,,,,,,,0,0,0,0,0,0,0,0,0,0,0,0,0,0,0,0,,,,,,,,,,,,,
1377455,1745299867205,15.84,-110,,-0.08,-0.27,0.83,-2,-0,0,0.87,0.99,89,4358,6.8,3.92,,11.6,1.248,100.6,,29.0,5,,,,,,,,,,,,0,0,0,0,0,0,0,0,0,0,0,0,0,0,0,0,,,,,,0.0,,,,,,,
1377475,1745299867225,,,,,,,,,,,,,,,,,,,,,,,0,0,0,0,7.0,0.0,0.0,0.0,2.25,,,0,0,0,0,0,0,0,0,0,0,0,0,0,0,0,0,,0,,,,,38.986015,-76.95002,0.12,50.1,33,3,0.8
1377495,1745299867245,17.72,-135,,-0.09,-0.18,0.88,0,-0,0,0.9,0.99,92,4301,6.9,3.82,,11.6,1.248,100.6,,29.0,5,,,,,,,,,,,,0,0,0,0,0,0,0,0,0,0,0,0,0,0,0,0,,,,,,0.0,,,,,,,
1377515,1745299867265,,,,,,,,,,,,,,,,,,,,,,,,,,,,,,,,,,0,0,0,0,0,0,0,0,0,0,0,0,0,0,0,0,,,,,,,,,,,,,
1377535,1745299867285,17.72,-121,,-0.05,-0.29,0.83,-1,-0,-0,0.88,0.99,89,4301,6.9,3.82,,11.93,1.248,100.6,,28.5,5,,,,,,,,,,,,0,0,0,0,0,0,0,0,0,0,0,0,0,0,0,0,,,,,,0.0,,,,,,,
1377555,1745299867307,,,,,,,,,,,,,,,,,,,,,,,,,,,,,,,,,,0,0,0,0,0,0,0,0,0,0,0,0,0,0,0,0,,,,,,,,,,,,,
1377575,1745299867327,17.72,-117,13.01,-0.06,-0.15,0.94,-1,-0,1,0.95,0.99,97,4204,0.7,3.83,15,11.85,1.249,100.6,178,28.5,5,0,0,0,0,7.0,0.0,0.0,0.0,2.26,0,1.0,0,0,0,0,0,0,0,0,0,0,0,0,0,0,0,0,0,0,1.0,0,0,0.0,38.986015,-76.95002,0.08,50.1,34,3,0.8
1377595,1745299867347,,,,,,,,,,,,,,,,,,,,,,,,,,,,,,,,,,0,0,0,0,0,0,0,0,0,0,0,0,0,0,0,0,,,,,,,,,,,,,
1377615,1745299867367,17.72,-117,,-0.07,-0.23,0.87,-1,-0,0,0.9,0.99,91,4120,0.0,2.58,,11.44,1.231,100.6,,28.5,5,,,,,,,,,,,,0,0,0,0,0,0,0,0,0,0,0,0,0,0,0,0,,,,,,0.0,,,,,,,
1377635,1745299867387,,,,,,,,,,,,,,,,,,,,,,,,,,,,,,,,,,0,0,0,0,0,0,0,0,0,0,0,0,0,0,0,0,,,,,,,,,,,,,
1377655,1745299867407,17.09,-117,,-0.09,-0.13,0.95,0,-0,0,0.96,0.99,98,4062,0.0,2.56,,11.16,1.167,100.6,,27.0,5,,,,,,,,,,,,0,0,0,0,0,0,0,0,0,0,0,0,0,0,0,0,,,,,,0.0,,,,,,,
1377675,1745299867427,,,,,,,,,,,,,,,,,,,,,,,0,0,0,0,7.0,0.0,0.0,0.0,2.26,,,0,0,0,0,0,0,0,0,0,0,0,0,0,0,0,0,,0,,,,,38.986015,-76.95002,0.11,50.1,34,3,0.8
1377695,1745299867447,17.09,-121,,-0.08,-0.17,0.95,-2,-0,0,0.96,0.99,98,3852,0.0,2.6,,11.16,1.167,100.6,,27.0,5,,,,,,,,,,,,0,0,0,0,0,0,0,0,0,0,0,0,0,0,0,0,,,,,,0.0,,,,,,,
1377715,1745299867467,,,,,,,,,,,,,,,,,,,,,,,,,,,,,,,,,,0,0,0,0,0,0,0,0,0,0,0,0,0,0,0,0,,,,,,,,,,,,,
1377735,1745299867487,16.47,-117,,-0.09,-0.14,0.98,-2,-0,0,0.99,0.99,100,3852,0.0,2.6,,11.14,1.182,100.6,,25.0,5,,,,,,,,,,,,0,0,0,0,0,0,0,0,0,0,0,0,0,0,0,0,,,,,,0.0,,,,,,,
1377755,1745299867507,,,,,,,,,,,,,,,,,,,,,,,,,,,,,,,,,,0,0,0,0,0,0,0,0,0,0,0,0,0,0,0,0,,,,,,,,,,,,,
1377775,1745299867527,15.84,-121,,-0.08,-0.09,0.98,-1,-0,0,0.99,0.99,100,3707,0.0,2.64,,11.16,1.216,100.6,,25.0,5,0,0,0,0,7.0,0.0,0.0,0.0,2.25,,,0,0,0,0,0,0,0,0,0,0,0,0,0,0,0,0,,0,,,,0.0,38.986015,-76.95002,0.09,50.1,34,3,0.8
1377795,1745299867547,,,,,,,,,,,,,,,,,,,,,,,,,,,,,,,,,,0,0,0,0,0,0,0,0,0,0,0,0,0,0,0,0,,,,,,,,,,,,,
1377815,1745299867567,15.21,-117,,-0.09,-0.0,0.93,0,-0,0,0.93,0.99,94,3579,0.0,2.7,,11.32,1.251,100.6,,25.0,5,,,,,,,,,,,,0,0,0,0,0,0,0,0,0,0,0,0,0,0,0,0,,,,,,0.0,,,,,,,
1377835,1745299867587,,,,,,,,,,,,,,,,,,,,,,,,,,,,,,,,,,0,0,0,0,0,0,0,0,0,0,0,0,0,0,0,0,,,,,,,,,,,,,
1377855,1745299867607,15.21,-113,,-0.1,0.0,0.99,-2,-0,0,1.0,1.0,100,3370,6.4,3.85,,11.99,1.252,100.6,,23.2,5,,,,,,,,,,,,0,0,0,0,0,0,0,0,0,0,0,0,0,0,0,0,,,,,,0.0,,,,,,,
1377875,1745299867627,,,,,,,,,,,,,,,,,,,,,,,0,0,0,0,7.0,0.0,0.0,0.0,2.25,,,0,0,0,0,0,0,0,0,0,0,0,0,0,0,0,0,,0,,,,,38.986015,-76.95002,0.0,50.1,34,3,0.8
1377895,1745299867647,16.47,-106,,-0.09,0.12,0.92,1,-0,0,0.93,1.0,93,3333,11.5,3.97,,11.99,1.252,100.6,,23.2,5,,,,,,,,,,,,0,0,0,0,0,0,0,0,0,0,0,0,0,0,0,0,,,,,,0.0,,,,,,,
1377915,1745299867667,,,,,,,,,,,,,,,,,,,,,,,,,,,,,,,,,,0,0,0,0,0,0,0,0,0,0,0,0,0,0,0,0,,,,,,,,,,,,,
1377935,1745299867687,16.47,-98,,-0.08,0.01,0.99,-3,-0,0,1.0,1.0,100,3333,11.5,3.97,,12.79,1.25,100.6,,21.8,5,,,,,,,,,,,,0,0,0,0,0,0,0,0,0,0,0,0,0,0,0,0,,,,,,0.0,,,,,,,
1377955,1745299867707,,,,,,,,,,,,,,,,,,,,,,,,,,,,,,,,,,0,0,0,0,0,0,0,0,0,0,0,0,0,0,0,0,,,,,,,,,,,,,
1377975,1745299867727,15.84,-117,,-0.08,0.09,0.95,1,-0,0,0.96,1.0,96,3415,12.4,4.08,,13.17,1.249,98.8,,21.8,5,0,0,0,0,7.0,0.0,0.0,0.0,2.25,,,0,0,0,0,0,0,0,0,0,0,0,0,0,0,0,0,,0,,,,0.0,38.986015,-76.95002,0.04,50.1,34,3,0.8
1377995,1745299867747,,,,,,,,,,,,,,,,,,,,,,,,,,,,,,,,,,0,0,0,0,0,0,0,0,0,0,0,0,0,0,0,0,,,,,,,,,,,,,
1378015,1745299867767,15.21,-125,,-0.09,-0.05,0.97,-1,-0,-0,0.98,1.0,98,3387,12.8,4.07,,13.43,1.249,98.8,,21.8,5,,,,,,,,,,,,0,0,0,0,0,0,0,0,0,0,0,0,0,0,0,0,,,,,,0.0,,,,,,,
1378035,1745299867787,,,,,,,,,,,,,,,,,,,,,,,,,,,,,,,,,,0,0,0,0,0,0,0,0,0,0,0,0,0,0,0,0,,,,,,,,,,,,,
1378055,1745299867807,15.84,-102,,-0.06,-0.0,1.02,-2,-0,0,1.02,1.02,100,3552,9.8,4.07,,13.31,1.247,98.8,,22.9,5,,,,,,,,,,,,0,0,0,0,0,0,0,0,0,0,0,0,0,0,0,0,,,,,,0.0,,,,,,,
1378075,1745299867827,,,,,,,,,,,,,,,,,,,,,,,0,0,0,0,7.0,0.0,0.0,0.0,2.26,,,0,0,0,0,0,0,0,0,0,0,0,0,0,0,0,0,,0,,,,,38.986015,-76.95002,0.05,50.1,34,3,0.8
1378095,1745299867847,15.21,-129,,-0.05,-0.0,0.99,0,-0,0,1.0,1.02,97,3607,0.0,2.73,,13.31,1.247,98.8,,22.9,5,,,,,,,,,,,,0,0,0,0,0,0,0,0,0,0,0,0,0,0,0,0,,,,,,0.0,,,,,,,
1378115,1745299867867,,,,,,,,,,,,,,,,,,,,,,,,,,,,,,,,,,0,0,0,0,0,0,0,0,0,0,0,0,0,0,0,0,,,,,,,,,,,,,
1378135,1745299867887,15.84,-95,,-0.07,-0.0,0.97,1,-0,0,0.97,1.02,95,3607,0.0,2.73,,12.68,1.223,98.8,,23.9,5,,,,,,,,,,,,0,0,0,0,0,0,0,0,0,0,0,0,0,0,0,0,,,,,,0.0,,,,,,,
1378155,1745299867909,,,,,,,,,,,,,,,,,,,,,,,,,,,,,,,,,,0,0,0,0,0,0,0,0,0,0,0,0,0,0,0,0,,,,,,,,,,,,,
1378175,1745299867929,15.21,-102,,-0.08,-0.09,0.96,0,-0,-0,0.97,1.02,94,3619,0.0,2.69,,12.24,1.211,98.8,,23.9,5,0,0,0,0,7.0,0.0,0.0,0.0,2.26,,,0,0,0,0,0,0,0,0,0,0,0,0,0,0,0,0,,0,,,,0.0,38.986015,-76.95002,0.04,50.1,34,3,0.8
1378195,1745299867949,,,,,,,,,,,,,,,,,,,,,,,,,,,,,,,,,,0,0,0,0,0,0,0,0,0,0,0,0,0,0,0,0,,,,,,,,,,,,,
1378215,1745299867969,15.84,-129,,-0.06,-0.12,1.01,-1,-0,0,1.02,1.02,100,3437,0.0,2.72,,12.08,1.192,98.8,,23.9,5,,,,,,,,,,,,0,0,0,0,0,0,0,0,0,0,0,0,0,0,0,0,,,,,,0.0,,,,,,,
1378235,1745299867989,,,,,,,,,,,,,,,,,,,,,,,,,,,,,,,,,,0,0,0,0,0,0,0,0,0,0,0,0,0,0,0,0,,,,,,,,,,,,,
1378255,1745299867998,16.47,-113,,-0.1,-0.09,0.95,1,-0,-0,0.96,1.02,94,3311,7.8,3.92,,12.51,1.221,98.8,,22.3,5,,,,,,,,,,,,0,0,0,0,0,0,0,0,0,0,0,0,0,0,0,0,,,,,,0.0,,,,,,,
1378275,1745299868018,,,,,,,,,,,,,,,,,,,,,,,0,0,0,0,7.0,0.0,0.0,0.0,2.25,,,0,0,0,0,0,0,0,0,0,0,0,0,0,0,0,0,,0,,,,,38.986015,-76.95002,0.08,50.1,34,3,0.8
1378295,1745299868038,17.09,-129,,-0.07,0.02,0.94,1,-0,0,0.94,1.02,92,3288,10.8,4.02,,12.51,1.221,98.8,,22.3,5,,,,,,,,,,,,0,0,0,0,0,0,0,0,0,0,0,0,0,0,0,0,,,,,,0.0,,,,,,,
1378315,1745299868058,,,,,,,,,,,,,,,,,,,,,,,,,,,,,,,,,,0,0,0,0,0,0,0,0,0,0,0,0,0,0,0,0,,,,,,,,,,,,,
1378335,1745299868078,18.35,-106,,-0.07,-0.15,1.0,-1,-0,-0,1.02,1.02,100,3288,10.8,4.02,,13.01,1.251,98.8,,22.1,5,,,,,,,,,,,,0,0,0,0,0,0,0,0,0,0,0,0,0,0,0,0,,,,,,0.0,,,,,,,
1378355,1745299868106,,,,,,,,,,,,,,,,,,,,,,,,,,,,,,,,,,0,0,0,0,0,0,0,0,0,0,0,0,0,0,0,0,,,,,,,,,,,,,
1378375,1745299868126,18.98,-113,,-0.07,-0.03,0.94,1,-0,-0,0.94,1.02,92,3312,11.4,3.96,,13.28,1.252,98.8,,22.1,5,0,0,0,0,7.0,0.0,0.0,0.0,2.25,,,0,0,0,0,0,0,0,0,0,0,0,0,0,0,0,0,,0,,,,0.0,38.986015,-76.95002,0.05,50.1,34,3,0.8
1378395,1745299868146,,,,,,,,,,,,,,,,,,,,,,,,,,,,,,,,,,0,0,0,0,0,0,0,0,0,0,0,0,0,0,0,0,,,,,,,,,,,,,
1378415,1745299868166,17.09,-106,,-0.09,-0.17,0.95,-0,-0,-0,0.97,1.02,95,3492,0.0,2.82,,12.85,1.25,98.8,,22.1,5,,,,,,,,,,,,0,0,0,0,0,0,0,0,0,0,0,0,0,0,0,0,,,,,,0.0,,,,,,,
1378435,1745299868186,,,,,,,,,,,,,,,,,,,,,,,,,,,,,,,,,,0,0,0,0,0,0,0,0,0,0,0,0,0,0,0,0,,,,,,,,,,,,,
1378455,1745299868204,17.72,-102,,-0.07,-0.14,1.0,-0,-0,0,1.01,1.02,99,3435,0.0,2.76,,12.52,1.249,98.8,,23.0,5,,,,,,,,,,,,0,0,0,0,0,0,0,0,0,0,0,0,0,0,0,0,,,,,,0.0,,,,,,,
1378475,1745299868224,,,,,,,,,,,,,,,,,,,,,,,0,0,0,0,7.0,0.0,0.0,0.0,2.26,,,0,0,0,0,0,0,0,0,0,0,0,0,0,0,0,0,,0,,,,,38.986015,-76.95002,0.04,50.1,34,3,0.8
1378495,1745299868244,17.09,-113,,-0.09,-0.12,0.94,1,-0,-0,0.95,1.02,93,3356,0.0,2.79,,12.52,1.249,98.8,,23.0,5,,,,,,,,,,,,0,0,0,0,0,0,0,0,0,0,0,0,0,0,0,0,,,,,,0.0,,,,,,,
1378515,1745299868264,,,,,,,,,,,,,,,,,,,,,,,,,,,,,,,,,,0,0,0,0,0,0,0,0,0,0,0,0,0,0,0,0,,,,,,,,,,,,,
1378535,1745299868284,15.84,-106,,-0.06,-0.05,0.97,0,-0,0,0.97,1.02,95,3356,0.0,2.79,,12.31,1.247,98.8,,21.7,5,,,,,,,,,,,,0,0,0,0,0,0,0,0,0,0,0,0,0,0,0,0,,,,,,0.0,,,,,,,
1378555,1745299868306,,,,,,,,,,,,,,,,,,,,,,,,,,,,,,,,,,0,0,0,0,0,0,0,0,0,0,0,0,0,0,0,0,,,,,,,,,,,,,
1378575,1745299868326,16.47,-110,13.02,-0.07,-0.13,1.04,-2,-0,0,1.06,1.06,100,3262,0.0,2.83,15,12.19,1.248,98.8,180,21.7,5,0,0,0,0,7.0,0.0,0.0,0.0,2.25,0,1.0,0,0,0,0,0,0,0,0,0,0,0,0,0,0,0,0,0,0,1.0,0,0,0.0,38.986015,-76.95002,0.04,50.1,34,3,0.8
1378595,1745299868346,,,,,,,,,,,,,,,,,,,,,,,,,,,,,,,,,,0,0,0,0,0,0,0,0,0,0,0,0,0,0,0,0,,,,,,,,,,,,,
1378615,1745299868366,16.47,-117,,-0.1,-0.12,1.04,-1,-0,-0,1.05,1.06,100,3116,0.0,2.86,,12.2,1.25,98.8,,21.7,5,,,,,,,,,,,,0,0,0,0,0,0,0,0,0,0,0,0,0,0,0,0,,,,,,0.0,,,,,,,
1378635,1745299868386,,,,,,,,,,,,,,,,,,,,,,,,,,,,,,,,,,0,0,0,0,0,0,0,0,0,0,0,0,0,0,0,0,,,,,,,,,,,,,
1378655,1745299868408,15.84,-106,,-0.14,-0.1,1.01,0,-0,-0,1.02,1.06,97,3061,1.2,3.14,,12.35,1.252,98.8,,20.4,5,,,,,,,,,,,,0,0,0,0,0,0,0,0,0,0,0,0,0,0,0,0,,,,,,0.0,,,,,,,
1378675,1745299868428,,,,,,,,,,,,,,,,,,,,,,,0,0,0,0,7.0,0.0,0.0,0.0,2.25,,,0,0,0,0,0,0,0,0,0,0,0,0,0,0,0,0,,0,,,,,38.986015,-76.95002,0.0,50.1,34,3,0.8
1378695,1745299868448,14.58,-121,,-0.17,-0.1,1.0,0,-0,-0,1.01,1.06,96,2986,3.1,3.48,,12.35,1.252,98.8,,20.4,5,,,,,,,,,,,,0,0,0,0,0,0,0,0,0,0,0,0,0,0,0,0,,,,,,0.0,,,,,,,
1378715,1745299868468,,,,,,,,,,,,,,,,,,,,,,,,,,,,,,,,,,0,0,0,0,0,0,0,0,0,0,0,0,0,0,0,0,,,,,,,,,,,,,
1378735,1745299868488,14.58,-113,,-0.19,-0.1,1.03,-0,-0,-0,1.05,1.06,100,2986,3.1,3.48,,12.63,1.251,98.8,,19.2,5,,,,,,,,,,,,0,0,0,0,0,0,0,0,0,0,0,0,0,0,0,0,,,,,,0.0,,,,,,,
1378755,1745299868502,,,,,,,,,,,,,,,,,,,,,,,,,,,,,,,,,,0,0,0,0,0,0,0,0,0,0,0,0,0,0,0,0,,,,,,,,,,,,,
1378775,1745299868522,14.58,-98,,-0.18,-0.11,1.08,-2,-0,-0,1.1,1.1,100,2916,3.6,3.59,,12.81,1.251,98.8,,19.2,5,0,0,0,0,7.0,0.0,0.0,0.0,2.25,,,0,0,0,0,0,0,0,0,0,0,0,0,0,0,0,0,,0,,,,0.0,38.986015,-76.95002,0.0,50.1,34,3,0.8
1378795,1745299868542,,,,,,,,,,,,,,,,,,,,,,,,,,,,,,,,,,0,0,0,0,0,0,0,0,0,0,0,0,0,0,0,0,,,,,,,,,,,,,
1378815,1745299868562,14.58,-113,,-0.15,-0.11,1.1,-2,-0,0,1.11,1.11,100,2848,0.0,3.01,,12.72,1.252,98.8,,19.2,5,,,,,,,,,,,,0,0,0,0,0,0,0,0,0,0,0,0,0,0,0,0,,,,,,0.0,,,,,,,
1378835,1745299868582,,,,,,,,,,,,,,,,,,,,,,,,,,,,,,,,,,0,0,0,0,0,0,0,0,0,0,0,0,0,0,0,0,,,,,,,,,,,,,
1378855,1745299868602,14.58,-110,,-0.11,-0.07,1.07,-1,-0,0,1.07,1.11,96,2866,0.0,3.0,,12.64,1.251,98.8,,19.4,5,,,,,,,,,,,,0,0,0,0,0,0,0,0,0,0,0,0,0,0,0,0,,,,,,0.0,,,,,,,
1378875,1745299868622,,,,,,,,,,,,,,,,,,,,,,,0,0,0,0,7.0,0.0,0.0,0.0,2.25,,,0,0,0,0,0,0,0,0,0,0,0,0,0,0,0,0,,0,,,,,38.986015,-76.95002,0.04,50.1,34,3,0.8
1378895,1745299868642,14.58,-129,,-0.1,-0.05,1.01,-0,-0,0,1.02,1.11,92,2814,0.0,3.05,,12.64,1.251,98.8,,19.4,5,,,,,,,,,,,,0,0,0,0,0,0,0,0,0,0,0,0,0,0,0,0,,,,,,0.0,,,,,,,
1378915,1745299868662,,,,,,,,,,,,,,,,,,,,,,,,,,,,,,,,,,0,0,0,0,0,0,0,0,0,0,0,0,0,0,0,0,,,,,,,,,,,,,
1378935,1745299868682,15.21,-113,,-0.11,-0.08,1.04,-1,-0,-0,1.05,1.11,94,2814,0.0,3.05,,12.61,1.249,98.8,,18.3,5,,,,,,,,,,,,0,0,0,0,0,0,0,0,0,0,0,0,0,0,0,0,,,,,,0.0,,,,,,,
1378955,1745299868702,,,,,,,,,,,,,,,,,,,,,,,,,,,,,,,,,,0,0,0,0,0,0,0,0,0,0,0,0,0,0,0,0,,,,,,,,,,,,,
1378975,1745299868722,15.84,-110,,-0.1,-0.05,1.01,-1,-0,0,1.02,1.11,92,2751,0.0,3.08,,12.65,1.249,98.8,,18.3,5,0,0,0,0,7.0,0.0,0.0,0.0,2.25,,,0,0,0,0,0,0,0,0,0,0,0,0,0,0,0,0,,0,,,,0.0,38.986015,-76.95002,0.07,50.1,34,3,0.8
1378995,1745299868742,,,,,,,,,,,,,,,,,,,,,,,,,,,,,,,,,,0,0,0,0,0,0,0,0,0,0,0,0,0,0,0,0,,,,,,,,,,,,,
1379015,1745299868762,16.47,-121,,-0.11,-0.02,1.04,-0,-0,0,1.05,1.11,94,2638,7.8,3.85,,13.17,1.249,98.8,,18.3,5,,,,,,,,,,,,0,0,0,0,0,0,0,0,0,0,0,0,0,0,0,0,,,,,,0.0,,,,,,,
1379035,1745299868782,,,,,,,,,,,,,,,,,,,,,,,,,,,,,,,,,,0,0,0,0,0,0,0,0,0,0,0,0,0,0,0,0,,,,,,,,,,,,,
1379055,1745299868804,15.21,-98,,-0.1,-0.02,1.03,-0,-0,0,1.03,1.11,93,2646,12.6,3.91,,13.67,1.249,98.8,,17.3,5,,,,,,,,,,,,0,0,0,0,0,0,0,0,0,0,0,0,0,0,0,0,,,,,,0.0,,,,,,,
1379075,1745299868824,,,,,,,,,,,,,,,,,,,,,,,0,0,0,0,7.0,0.0,0.0,0.0,2.26,,,0,0,0,0,0,0,0,0,0,0,0,0,0,0,0,0,,0,,,,,38.986015,-76.95002,0.05,50.1,34,3,0.8
1379095,1745299868844,15.84,-125,,-0.1,-0.03,1.01,0,-0,-0,1.01,1.11,91,2731,14.3,4.26,,13.67,1.249,98.8,,17.3,5,,,,,,,,,,,,0,0,0,0,0,0,0,0,0,0,0,0,0,0,0,0,,,,,,0.0,,,,,,,
1379115,1745299868864,,,,,,,,,,,,,,,,,,,,,,,,,,,,,,,,,,0,0,0,0,0,0,0,0,0,0,0,0,0,0,0,0,,,,,,,,,,,,,
1379135,1745299868884,15.84,-98,,-0.1,-0.05,1.04,-1,-0,0,1.05,1.11,94,2731,14.3,4.26,,13.86,1.25,98.8,,18.5,5,,,,,,,,,,,,0,0,0,0,0,0,0,0,0,0,0,0,0,0,0,0,,,,,,0.0,,,,,,,
1379155,1745299868908,,,,,,,,,,,,,,,,,,,,,,,,,,,,,,,,,,0,0,0,0,0,0,0,0,0,0,0,0,0,0,0,0,,,,,,,,,,,,,
1379175,1745299868928,15.21,-117,,-0.08,-0.03,1.07,-1,-0,0,1.07,1.11,96,2777,14.5,4.18,,13.9,1.252,98.8,,18.5,5,0,0,0,0,7.0,0.0,0.0,0.0,2.25,,,0,0,0,0,0,0,0,0,0,0,0,0,0,0,0,0,,0,,,,0.0,38.986015,-76.95002,0.0,50.1,34,3,0.8
1379195,1745299868948,,,,,,,,,,,,,,,,,,,,,,,,,,,,,,,,,,0,0,0,0,0,0,0,0,0,0,0,0,0,0,0,0,,,,,,,,,,,,,
1379215,1745299868968,14.58,-125,,-0.04,-0.04,1.1,-2,-0,1,1.1,1.11,99,2912,0.0,3.05,,13.31,1.252,98.8,,18.5,5,,,,,,,,,,,,0,0,0,0,0,0,0,0,0,0,0,0,0,0,0,0,,,,,,0.0,,,,,,,
1379235,1745299868988,,,,,,,,,,,,,,,,,,,,,,,,,,,,,,,,,,0,0,0,0,0,0,0,0,0,0,0,0,0,0,0,0,,,,,,,,,,,,,
1379255,1745299868999,15.21,-106,,-0.0,-0.09,1.15,-2,-0,1,1.15,1.15,100,3082,0.0,2.97,,12.91,1.251,98.8,,19.6,5,,,,,,,,,,,,0,0,0,0,0,0,0,0,0,0,0,0,0,0,0,0,,,,,,0.0,,,,,,,
1379275,1745299869019,,,,,,,,,,,,,,,,,,,,,,,0,0,0,0,7.0,0.0,0.0,0.0,2.26,,,0,0,0,0,0,0,0,0,0,0,0,0,0,0,0,0,,0,,,,,38.986015,-76.95002,0.0,50.1,34,3,0.8
1379295,1745299869039,15.21,-121,,0.02,-0.16,1.2,-3,-0,1,1.21,1.21,100,3039,0.0,2.97,,12.91,1.251,98.8,,19.6,5,,,,,,,,,,,,0,0,0,0,0,0,0,0,0,0,0,0,0,0,0,0,,,,,,0.0,,,,,,,
1379315,1745299869059,,,,,,,,,,,,,,,,,,,,,,,,,,,,,,,,,,0,0,0,0,0,0,0,0,0,0,0,0,0,0,0,0,,,,,,,,,,,,,
1379335,1745299869079,15.84,-106,,-0.0,-0.22,1.23,-4,-0,1,1.25,1.25,100,3039,0.0,2.97,,12.75,1.252,98.8,,20.7,5,,,,,,,,,,,,0,0,0,0,0,0,0,0,0,0,0,0,0,0,0,0,,,,,,0.0,,,,,,,
1379355,1745299869105,,,,,,,,,,,,,,,,,,,,,,,,,,,,,,,,,,0,0,0,0,0,0,0,0,0,0,0,0,0,0,0,0,,,,,,,,,,,,,
1379375,1745299869125,15.84,-113,,-0.04,-0.17,1.15,-2,-0,0,1.17,1.25,93,3115,22.4,4.71,,13.67,1.25,98.8,,20.7,5,0,0,0,0,7.0,0.0,0.0,0.0,2.25,,,0,0,0,0,0,0,0,0,0,0,0,0,0,0,0,0,,0,,,,0.0,38.986015,-76.95002,0.08,50.1,34,3,0.8
1379395,1745299869145,,,,,,,,,,,,,,,,,,,,,,,,,,,,,,,,,,0,0,0,0,0,0,0,0,0,0,0,0,0,0,0,0,,,,,,,,,,,,,
1379415,1745299869165,16.47,-125,,-0.02,-0.09,1.13,-1,-0,1,1.13,1.25,91,3347,26.4,4.72,,14.02,1.248,98.8,,20.7,5,,,,,,,,,,,,0,0,0,0,0,0,0,0,0,0,0,0,0,0,0,0,,,,,,0.0,,,,,,,
1379435,1745299869185,,,,,,,,,,,,,,,,,,,,,,,,,,,,,,,,,,0,0,0,0,0,0,0,0,0,0,0,0,0,0,0,0,,,,,,,,,,,,,
1379455,1745299869207,16.47,-83,,-0.03,-0.06,1.12,-0,-0,0,1.12,1.25,90,3613,26.7,4.38,,13.96,1.249,98.8,,22.3,5,,,,,,,,,,,,0,0,0,0,0,0,0,0,0,0,0,0,0,0,0,0,,,,,,0.0,,,,,,,
1379475,1745299869227,,,,,,,,,,,,,,,,,,,,,,,0,0,0,0,7.0,0.0,0.0,0.0,2.26,,,0,0,0,0,0,0,0,0,0,0,0,0,0,0,0,0,,0,,,,,38.986015,-76.95002,0.05,50.1,34,3,0.8
1379495,1745299869247,16.47,-125,,-0.03,-0.09,1.16,-0,-0,1,1.16,1.25,93,3987,0.0,3.75,,13.96,1.249,98.8,,22.3,5,,,,,,,,,,,,0,0,0,0,0,0,0,0,0,0,0,0,0,0,0,0,,,,,,0.0,,,,,,,
1379515,1745299869267,,,,,,,,,,,,,,,,,,,,,,,,,,,,,,,,,,0,0,0,0,0,0,0,0,0,0,0,0,0,0,0,0,,,,,,,,,,,,,
1379535,1745299869287,16.47,-102,,-0.01,-0.18,1.1,-3,-0,0,1.11,1.25,89,3987,0.0,3.75,,13.25,1.249,98.8,,26.4,5,,,,,,,,,,,,0,0,0,0,0,0,0,0,0,0,0,0,0,0,0,0,,,,,,0.0,,,,,,,
1379555,1745299869307,,,,,,,,,,,,,,,,,,,,,,,,,,,,,,,,,,0,0,0,0,0,0,0,0,0,0,0,0,0,0,0,0,,,,,,,,,,,,,
1379575,1745299869327,15.21,-83,13.13,-0.01,-0.13,1.09,-1,-0,0,1.09,1.25,88,4001,0.0,2.54,15,12.48,1.243,98.8,182,26.4,5,0,0,0,0,7.0,0.0,0.0,0.0,2.26,0,1.0,0,0,0,0,0,0,0,0,0,0,0,0,0,0,0,0,0,0,1.0,0,0,0.0,38.986015,-76.95002,0.04,50.1,34,3,0.8
1379595,1745299869347,,,,,,,,,,,,,,,,,,,,,,,,,,,,,,,,,,0,0,0,0,0,0,0,0,0,0,0,0,0,0,0,0,,,,,,,,,,,,,
1379615,1745299869367,15.21,-121,,0.01,-0.05,1.13,-1,-0,1,1.13,1.25,91,3936,0.0,2.51,,11.96,1.188,98.8,,26.4,5,,,,,,,,,,,,0,0,0,0,0,0,0,0,0,0,0,0,0,0,0,0,,,,,,0.0,,,,,,,
1379635,1745299869387,,,,,,,,,,,,,,,,,,,,,,,,,,,,,,,,,,0,0,0,0,0,0,0,0,0,0,0,0,0,0,0,0,,,,,,,,,,,,,
1379655,1745299869409,15.21,-121,,0.02,-0.08,1.11,-2,-0,1,1.12,1.25,89,3821,0.0,2.57,,11.72,1.185,98.8,,25.7,5,,,,,,,,,,,,0,0,0,0,0,0,0,0,0,0,0,0,0,0,0,0,,,,,,0.0,,,,,,,
1379675,1745299869429,,,,,,,,,,,,,,,,,,,,,,,0,0,0,0,7.0,0.0,0.0,0.0,2.25,,,0,0,0,0,0,0,0,0,0,0,0,0,0,0,0,0,,0,,,,,38.986015,-76.95002,0.06,50.1,34,3,0.8
1379695,1745299869449,15.21,-125,,0.01,-0.06,1.07,-1,-0,1,1.07,1.25,86,3665,0.0,2.61,,11.72,1.185,98.8,,25.7,5,,,,,,,,,,,,0,0,0,0,0,0,0,0,0,0,0,0,0,0,0,0,,,,,,0.0,,,,,,,
1379715,1745299869469,,,,,,,,,,,,,,,,,,,,,,,,,,,,,,,,,,0,0,0,0,0,0,0,0,0,0,0,0,0,0,0,0,,,,,,,,,,,,,
1379735,1745299869489,14.58,-91,,-0.03,-0.14,1.02,0,-0,0,1.03,1.25,82,3665,0.0,2.61,,11.68,1.232,98.8,,23.3,5,,,,,,,,,,,,0,0,0,0,0,0,0,0,0,0,0,0,0,0,0,0,,,,,,0.0,,,,,,,
1379755,1745299869505,,,,,,,,,,,,,,,,,,,,,,,,,,,,,,,,,,0,0,0,0,0,0,0,0,0,0,0,0,0,0,0,0,,,,,,,,,,,,,
1379775,1745299869525,14.58,-95,,-0.03,-0.16,1.08,-2,-0,1,1.09,1.25,88,3521,0.0,2.7,,11.69,1.252,98.8,,23.3,5,0,0,0,0,7.0,0.0,0.0,0.0,2.25,,,0,0,0,0,0,0,0,0,0,0,0,0,0,0,0,0,,0,,,,0.0,38.986015,-76.95002,0.05,50.1,34,3,0.8
1379795,1745299869545,,,,,,,,,,,,,,,,,,,,,,,,,,,,,,,,,,0,0,0,0,0,0,0,0,0,0,0,0,0,0,0,0,,,,,,,,,,,,,
1379815,1745299869565,15.21,-121,,-0.05,-0.11,0.99,1,-0,0,1.0,1.25,80,3322,3.1,3.44,,11.97,1.25,98.8,,23.3,5,,,,,,,,,,,,0,0,0,0,0,0,0,0,0,0,0,0,0,0,0,0,,,,,,0.0,,,,,,,
1379835,1745299869585,,,,,,,,,,,,,,,,,,,,,,,,,,,,,,,,,,0,0,0,0,0,0,0,0,0,0,0,0,0,0,0,0,,,,,,,,,,,,,
1379855,1745299869605,15.21,-98,,-0.02,-0.09,1.05,-1,-0,1,1.05,1.25,84,3233,5.8,3.69,,12.51,1.249,98.8,,21.8,5,,,,,,,,,,,,0,0,0,0,0,0,0,0,0,0,0,0,0,0,0,0,,,,,,0.0,,,,,,,
1379875,1745299869625,,,,,,,,,,,,,,,,,,,,,,,0,0,0,0,7.0,0.0,0.0,0.0,2.26,,,0,0,0,0,0,0,0,0,0,0,0,0,0,0,0,0,,0,,,,,38.986015,-76.95002,0.0,50.1,34,3,0.8
1379895,1745299869645,15.84,-121,,-0.05,-0.15,1.08,-2,-0,0,1.1,1.25,88,3255,6.5,3.78,,12.51,1.249,98.8,,21.8,5,,,,,,,,,,,,0,0,0,0,0,0,0,0,0,0,0,0,0,0,0,0,,,,,,0.0,,,,,,,
1379915,1745299869665,,,,,,,,,,,,,,,,,,,,,,,,,,,,,,,,,,0,0,0,0,0,0,0,0,0,0,0,0,0,0,0,0,,,,,,,,,,,,,
1379935,1745299869685,13.95,-110,,-0.07,-0.06,0.99,1,-0,0,0.99,1.25,80,3255,6.5,3.78,,12.73,1.249,98.8,,21.3,5,,,,,,,,,,,,0,0,0,0,0,0,0,0,0,0,0,0,0,0,0,0,,,,,,0.0,,,,,,,
1379955,1745299869705,,,,,,,,,,,,,,,,,,,,,,,,,,,,,,,,,,0,0,0,0,0,0,0,0,0,0,0,0,0,0,0,0,,,,,,,,,,,,,
1379975,1745299869725,13.95,-113,,-0.04,0.02,0.98,-0,-0,1,0.98,1.25,78,3194,0.0,2.86,,12.6,1.249,98.8,,21.3,5,0,0,0,0,7.0,0.0,0.0,0.0,2.26,,,0,0,0,0,0,0,0,0,0,0,0,0,0,0,0,0,,0,,,,0.0,38.986015,-76.95002,0.08,50.1,34,3,0.8
1379995,1745299869745,,,,,,,,,,,,,,,,,,,,,,,,,,,,,,,,,,0,0,0,0,0,0,0,0,0,0,0,0,0,0,0,0,,,,,,,,,,,,,
1380015,1745299869765,13.95,-113,,-0.02,-0.07,1.07,-2,-0,1,1.08,1.25,86,3170,0.0,2.86,,12.45,1.249,98.8,,21.3,5,,,,,,,,,,,,0,0,0,0,0,0,0,0,0,0,0,0,0,0,0,0,,,,,,0.0,,,,,,,
1380035,1745299869785,,,,,,,,,,,,,,,,,,,,,,,,,,,,,,,,,,0,0,0,0,0,0,0,0,0,0,0,0,0,0,0,0,,,,,,,,,,,,,
1380055,1745299869805,13.32,-117,,-0.04,-0.09,1.12,-2,-0,0,1.12,1.25,90,3135,0.0,2.89,,12.28,1.251,98.8,,20.4,5,,,,,,,,,,,,0,0,0,0,0,0,0,0,0,0,0,0,0,0,0,0,,,,,,0.0,,,,,,,
1380075,1745299869825,,,,,,,,,,,,,,,,,,,,,,,0,0,0,0,7.0,0.0,0.0,0.0,2.26,,,0,0,0,0,0,0,0,0,0,0,0,0,0,0,0,0,,0,,,,,38.986015,-76.95002,0.0,50.1,34,3,0.8
1380095,1745299869845,13.95,-121,,-0.07,-0.09,1.14,-2,-0,0,1.14,1.25,92,3033,0.0,2.92,,12.28,1.251,98.8,,20.4,5,,,,,,,,,,,,0,0,0,0,0,0,0,0,0,0,0,0,0,0,0,0,,,,,,0.0,,,,,,,
1380115,1745299869865,,,,,,,,,,,,,,,,,,,,,,,,,,,,,,,,,,0,0,0,0,0,0,0,0,0,0,0,0,0,0,0,0,,,,,,,,,,,,,
1380135,1745299869885,13.95,-91,,-0.07,-0.07,1.17,-3,-0,0,1.18,1.25,94,3033,0.0,2.92,,12.35,1.252,98.8,,19.5,5,,,,,,,,,,,,0,0,0,0,0,0,0,0,0,0,0,0,0,0,0,0,,,,,,0.0,,,,,,,
1380155,1745299869909,,,,,,,,,,,,,,,,,,,,,,,,,,,,,,,,,,0,0,0,0,0,0,0,0,0,0,0,0,0,0,0,0,,,,,,,,,,,,,
1380175,1745299869929,13.95,-98,,-0.05,-0.1,1.18,-4,-0,1,1.18,1.25,95,2869,3.3,3.47,,12.69,1.252,98.8,,19.5,5,0,0,0,0,7.0,0.0,0.0,0.0,2.26,,,0,0,0,0,0,0,0,0,0,0,0,0,0,0,0,0,,0,,,,0.0,38.986015,-76.95002,0.08,50.1,34,3,0.8
1380195,1745299869949,,,,,,,,,,,,,,,,,,,,,,,,,,,,,,,,,,0,0,0,0,0,0,0,0,0,0,0,0,0,0,0,0,,,,,,,,,,,,,
1380215,1745299869969,14.58,-106,,-0.02,-0.06,1.14,-3,-0,1,1.14,1.25,91,2811,5.4,3.72,,13.07,1.252,98.8,,19.5,5,,,,,,,,,,,,0,0,0,0,0,0,0,0,0,0,0,0,0,0,0,0,,,,,,0.0,,,,,,,
1380235,1745299869989,,,,,,,,,,,,,,,,,,,,,,,,,,,,,,,,,,0,0,0,0,0,0,0,0,0,0,0,0,0,0,0,0,,,,,,,,,,,,,
1380255,1745299870000,13.95,-106,,-0.02,-0.05,1.06,-2,-0,1,1.06,1.25,85,2872,6.5,3.81,,13.24,1.252,98.8,,18.6,5,,,,,,,,,,,,0,0,0,0,0,0,0,0,0,0,0,0,0,0,0,0,,,,,,0.0,,,,,,,
1380275,1745299870020,,,,,,,,,,,,,,,,,,,,,,,0,0,0,0,7.0,0.0,0.0,0.0,2.25,,,0,0,0,0,0,0,0,0,0,0,0,0,0,0,0,0,,0,,,,,38.986015,-76.95002,0.08,50.1,34,3,0.8
1380295,1745299870040,14.58,-135,,-0.06,-0.05,1.04,-1,-0,0,1.04,1.25,83,2929,2.1,3.81,,13.24,1.252,98.8,,18.6,5,,,,,,,,,,,,0,0,0,0,0,0,0,0,0,0,0,0,0,0,0,0,,,,,,0.0,,,,,,,
1380315,1745299870060,,,,,,,,,,,,,,,,,,,,,,,,,,,,,,,,,,0,0,0,0,0,0,0,0,0,0,0,0,0,0,0,0,,,,,,,,,,,,,
1380335,1745299870080,13.32,-106,,-0.11,-0.07,1.05,-1,-0,-0,1.06,1.25,85,2929,2.1,3.81,,13.21,1.25,98.8,,19.4,5,,,,,,,,,,,,0,0,0,0,0,0,0,0,0,0,0,0,0,0,0,0,,,,,,0.0,,,,,,,
1380355,1745299870098,,,,,,,,,,,,,,,,,,,,,,,,,,,,,,,,,,0,0,0,0,0,0,0,0,0,0,0,0,0,0,0,0,,,,,,,,,,,,,
1380375,1745299870118,12.69,-106,,-0.14,-0.06,1.09,-1,-0,-0,1.1,1.25,88,2928,0.0,2.98,,12.88,1.249,98.8,,19.4,5,0,0,0,0,7.0,0.0,0.0,0.0,2.26,,,0,0,0,0,0,0,0,0,0,0,0,0,0,0,0,0,,0,,,,0.0,38.986015,-76.95002,0.57,50.1,34,3,0.8
1380395,1745299870138,,,,,,,,,,,,,,,,,,,,,,,,,,,,,,,,,,0,0,0,0,0,0,0,0,0,0,0,0,0,0,0,0,,,,,,,,,,,,,
1380415,1745299870158,11.44,-113,,-0.13,-0.07,1.13,-2,-0,0,1.14,1.25,91,2886,0.0,2.99,,12.75,1.249,98.8,,19.4,5,,,,,,,,,,,,0,0,0,0,0,0,0,0,0,0,0,0,0,0,0,0,,,,,,0.0,,,,,,,
1380435,1745299870178,,,,,,,,,,,,,,,,,,,,,,,,,,,,,,,,,,0,0,0,0,0,0,0,0,0,0,0,0,0,0,0,0,,,,,,,,,,,,,
1380455,1745299870206,12.69,-113,,-0.1,-0.06,1.12,-3,-0,0,1.13,1.25,91,2812,0.0,3.01,,12.75,1.249,98.8,,19.1,5,,,,,,,,,,,,0,0,0,0,0,0,0,0,0,0,0,0,0,0,0,0,,,,,,0.0,,,,,,,
1380475,1745299870226,,,,,,,,,,,,,,,,,,,,,,,0,0,0,0,7.0,0.0,0.0,0.0,2.25,,,0,0,0,0,0,0,0,0,0,0,0,0,0,0,0,0,,0,,,,,38.986015,-76.95002,0.29,50.1,34,3,0.8
1380495,1745299870246,12.69,-95,,-0.08,-0.05,1.06,-1,-0,0,1.06,1.25,85,2787,8.3,3.92,,12.75,1.249,98.8,,19.1,5,,,,,,,,,,,,0,0,0,0,0,0,0,0,0,0,0,0,0,0,0,0,,,,,,0.0,,,,,,,
1380515,1745299870266,,,,,,,,,,,,,,,,,,,,,,,,,,,,,,,,,,0,0,0,0,0,0,0,0,0,0,0,0,0,0,0,0,,,,,,,,,,,,,
1380535,1745299870286,14.58,-91,,-0.1,-0.1,1.08,-2,-0,-0,1.09,1.25,87,2787,8.3,3.92,,13.15,1.249,98.8,,17.8,5,,,,,,,,,,,,0,0,0,0,0,0,0,0,0,0,0,0,0,0,0,0,,,,,,0.0,,,,,,,
1380555,1745299870308,,,,,,,,,,,,,,,,,,,,,,,,,,,,,,,,,,0,0,0,0,0,0,0,0,0,0,0,0,0,0,0,0,,,,,,,,,,,,,
1380575,1745299870328,15.21,-106,13.18,-0.09,-0.1,1.11,-2,-0,0,1.12,1.25,89,2811,14.6,4.14,15,13.68,1.251,98.8,182,17.8,5,0,0,0,0,7.0,0.0,0.0,0.0,2.26,0,1.0,0,0,0,0,0,0,0,0,0,0,0,0,0,0,0,0,0,0,1.0,0,0,0.0,38.986015,-76.95002,0.12,50.1,34,3,0.8
1380595,1745299870348,,,,,,,,,,,,,,,,,,,,,,,,,,,,,,,,,,0,0,0,0,0,0,0,0,0,0,0,0,0,0,0,0,,,,,,,,,,,,,
1380615,1745299870368,15.21,-113,,-0.06,-0.08,1.11,-2,-0,0,1.11,1.25,89,2882,16.9,4.43,,13.91,1.253,98.8,,17.8,5,,,,,,,,,,,,0,0,0,0,0,0,0,0,0,0,0,0,0,0,0,0,,,,,,0.0,,,,,,,
1380635,1745299870388,,,,,,,,,,,,,,,,,,,,,,,,,,,,,,,,,,0,0,0,0,0,0,0,0,0,0,0,0,0,0,0,0,,,,,,,,,,,,,
1380655,1745299870408,15.21,-106,,-0.02,-0.06,1.14,-2,-0,1,1.14,1.25,92,3002,17.4,4.33,,13.92,1.252,98.8,,19.3,5,,,,,,,,,,,,0,0,0,0,0,0,0,0,0,0,0,0,0,0,0,0,,,,,,0.0,,,,,,,
1380675,1745299870428,,,,,,,,,,,,,,,,,,,,,,,0,0,0,0,7.0,0.0,0.0,0.0,2.25,,,0,0,0,0,0,0,0,0,0,0,0,0,0,0,0,0,,0,,,,,38.986015,-76.95002,0.08,50.1,34,3,0.8
1380695,1745299870448,15.21,-125,,-0.02,-0.15,1.18,-4,-0,1,1.19,1.25,96,3325,0.0,2.93,,13.92,1.252,98.8,,19.3,5,,,,,,,,,,,,0,0,0,0,0,0,0,0,0,0,0,0,0,0,0,0,,,,,,0.0,,,,,,,
1380715,1745299870468,,,,,,,,,,,,,,,,,,,,,,,,,,,,,,,,,,0,0,0,0,0,0,0,0,0,0,0,0,0,0,0,0,,,,,,,,,,,,,
1380735,1745299870488,13.95,-106,,-0.03,-0.06,1.08,-1,-0,0,1.08,1.25,87,3325,0.0,2.93,,13.28,1.253,98.8,,21.4,5,,,,,,,,,,,,0,0,0,0,0,0,0,0,0,0,0,0,0,0,0,0,,,,,,0.0,,,,,,,
1380755,1745299870504,,,,,,,,,,,,,,,,,,,,,,,,,,,,,,,,,,0,0,0,0,0,0,0,0,0,0,0,0,0,0,0,0,,,,,,,,,,,,,
1380775,1745299870524,15.84,-98,,-0.02,-0.09,1.15,-3,-0,1,1.15,1.25,92,3380,0.0,2.85,,12.76,1.252,98.8,,21.4,5,0,0,0,0,7.0,0.0,0.0,0.0,2.25,,,0,0,0,0,0,0,0,0,0,0,0,0,0,0,0,0,,0,,,,0.0,38.986015,-76.95002,0.05,50.1,34,3,0.8
1380795,1745299870544,,,,,,,,,,,,,,,,,,,,,,,,,,,,,,,,,,0,0,0,0,0,0,0,0,0,0,0,0,0,0,0,0,,,,,,,,,,,,,
1380815,1745299870564,15.21,-113,,-0.07,-0.12,1.09,-2,-0,0,1.1,1.25,88,3264,0.0,2.83,,12.55,1.25,98.8,,21.4,5,,,,,,,,,,,,0,0,0,0,0,0,0,0,0,0,0,0,0,0,0,0,,,,,,0.0,,,,,,,
1380835,1745299870584,,,,,,,,,,,,,,,,,,,,,,,,,,,,,,,,,,0,0,0,0,0,0,0,0,0,0,0,0,0,0,0,0,,,,,,,,,,,,,
1380855,1745299870604,15.84,-113,,-0.06,-0.04,1.0,0,-0,0,1.0,1.25,80,3183,0.0,2.87,,12.39,1.25,98.8,,20.9,5,,,,,,,,,,,,0,0,0,0,0,0,0,0,0,0,0,0,0,0,0,0,,,,,,0.0,,,,,,,
1380875,1745299870624,,,,,,,,,,,,,,,,,,,,,,,0,0,0,0,7.0,0.0,0.0,0.0,2.26,,,0,0,0,0,0,0,0,0,0,0,0,0,0,0,0,0,,0,,,,,38.986015,-76.95002,0.05,50.1,34,3,0.8
1380895,1745299870644,16.47,-106,,-0.03,-0.02,1.0,-0,-0,0,1.0,1.25,80,3145,2.3,2.93,,12.39,1.25,98.8,,20.9,5,,,,,,,,,,,,0,0,0,0,0,0,0,0,0,0,0,0,0,0,0,0,,,,,,0.0,,,,,,,
1380915,1745299870664,,,,,,,,,,,,,,,,,,,,,,,,,,,,,,,,,,0,0,0,0,0,0,0,0,0,0,0,0,0,0,0,0,,,,,,,,,,,,,
1380935,1745299870684,16.47,-102,,-0.01,-0.03,1.04,-1,-0,1,1.04,1.25,83,3145,2.3,2.93,,12.49,1.249,98.8,,20.5,5,,,,,,,,,,,,0,0,0,0,0,0,0,0,0,0,0,0,0,0,0,0,,,,,,0.0,,,,,,,
1380955,1745299870706,,,,,,,,,,,,,,,,,,,,,,,,,,,,,,,,,,0,0,0,0,0,0,0,0,0,0,0,0,0,0,0,0,,,,,,,,,,,,,
1380975,1745299870726,17.09,-113,,0.02,-0.04,1.07,-1,-0,1,1.07,1.25,86,2988,5.3,3.73,,12.84,1.249,97.0,,20.5,5,0,0,0,0,7.0,0.0,0.0,0.0,2.26,,,0,0,0,0,0,0,0,0,0,0,0,0,0,0,0,0,,0,,,,0.0,38.986015,-76.95002,0.04,50.1,34,3,0.8
1380995,1745299870746,,,,,,,,,,,,,,,,,,,,,,,,,,,,,,,,,,0,0,0,0,0,0,0,0,0,0,0,0,0,0,0,0,,,,,,,,,,,,,
1381015,1745299870766,17.09,-113,,0.05,-0.05,1.1,-1,-0,1,1.1,1.25,88,2963,7.4,3.84,,13.19,1.25,97.0,,20.5,5,,,,,,,,,,,,0,0,0,0,0,0,0,0,0,0,0,0,0,0,0,0,,,,,,0.0,,,,,,,
1381035,1745299870786,,,,,,,,,,,,,,,,,,,,,,,,,,,,,,,,,,0,0,0,0,0,0,0,0,0,0,0,0,0,0,0,0,,,,,,,,,,,,,
1381055,1745299870804,17.09,-113,,0.07,-0.1,1.15,-2,-0,1,1.16,1.25,93,3087,8.1,3.9,,13.31,1.252,97.0,,19.8,5,,,,,,,,,,,,0,0,0,0,0,0,0,0,0,0,0,0,0,0,0,0,,,,,,0.0,,,,,,,
1381075,1745299870824,,,,,,,,,,,,,,,,,,,,,,,0,0,0,0,7.0,0.0,0.0,0.0,2.26,,,0,0,0,0,0,0,0,0,0,0,0,0,0,0,0,0,,0,,,,,38.986015,-76.95002,0.0,50.1,34,3,0.8
1381095,1745299870844,17.09,-117,,0.06,-0.18,1.19,-3,-0,1,1.21,1.25,97,3172,0.0,3.87,,13.31,1.252,97.0,,19.8,5,,,,,,,,,,,,0,0,0,0,0,0,0,0,0,0,0,0,0,0,0,0,,,,,,0.0,,,,,,,
1381115,1745299870864,,,,,,,,,,,,,,,,,,,,,,,,,,,,,,,,,,0,0,0,0,0,0,0,0,0,0,0,0,0,0,0,0,,,,,,,,,,,,,
1381135,1745299870884,17.09,-102,,0.01,-0.15,1.12,-2,-0,0,1.13,1.25,90,3172,0.0,3.87,,13.04,1.252,97.0,,21.2,5,,,,,,,,,,,,0,0,0,0,0,0,0,0,0,0,0,0,0,0,0,0,,,,,,0.0,,,,,,,
1381155,1745299870910,,,,,,,,,,,,,,,,,,,,,,,,,,,,,,,,,,0,0,0,0,0,0,0,0,0,0,0,0,0,0,0,0,,,,,,,,,,,,,
1381175,1745299870930,15.84,-102,,0.03,-0.05,1.07,-1,-0,1,1.07,1.25,86,3230,0.0,2.87,,12.68,1.252,97.0,,21.2,5,0,0,0,0,7.0,0.0,0.0,0.0,2.25,,,0,0,0,0,0,0,0,0,0,0,0,0,0,0,0,0,,0,,,,0.0,38.986015,-76.95002,0.04,50.1,34,3,0.8
1381195,1745299870950,,,,,,,,,,,,,,,,,,,,,,,,,,,,,,,,,,0,0,0,0,0,0,0,0,0,0,0,0,0,0,0,0,,,,,,,,,,,,,
1381215,1745299870970,14.58,-113,,0.02,-0.15,1.15,-3,-0,1,1.16,1.25,93,3252,0.0,2.87,,12.45,1.252,97.0,,21.2,5,,,,,,,,,,,,0,0,0,0,0,0,0,0,0,0,0,0,0,0,0,0,,,,,,0.0,,,,,,,
1381235,1745299870990,,,,,,,,,,,,,,,,,,,,,,,,,,,,,,,,,,0,0,0,0,0,0,0,0,0,0,0,0,0,0,0,0,,,,,,,,,,,,,
1381255,1745299870999,13.95,-87,,-0.03,-0.14,1.15,-3,-0,1,1.16,1.25,93,3117,0.5,2.98,,12.39,1.25,97.0,,21.0,5,,,,,,,,,,,,0,0,0,0,0,0,0,0,0,0,0,0,0,0,0,0,,,,,,0.0,,,,,,,
1381275,1745299871019,,,,,,,,,,,,,,,,,,,,,,,0,0,0,0,7.0,0.0,0.0,0.0,2.25,,,0,0,0,0,0,0,0,0,0,0,0,0,0,0,0,0,,0,,,,,38.986015,-76.95002,0.05,50.1,34,3,0.8
1381295,1745299871039,12.07,-102,,-0.07,-0.11,1.09,-2,-0,0,1.1,1.25,88,3046,8.1,3.88,,12.39,1.25,97.0,,21.0,5,,,,,,,,,,,,0,0,0,0,0,0,0,0,0,0,0,0,0,0,0,0,,,,,,0.0,,,,,,,
1381315,1745299871059,,,,,,,,,,,,,,,,,,,,,,,,,,,,,,,,,,0,0,0,0,0,0,0,0,0,0,0,0,0,0,0,0,,,,,,,,,,,,,
1381335,1745299871079,12.07,-95,,-0.09,-0.09,1.02,-1,-0,0,1.02,1.25,82,3046,8.1,3.88,,12.87,1.249,97.0,,19.8,5,,,,,,,,,,,,0,0,0,0,0,0,0,0,0,0,0,0,0,0,0,0,,,,,,0.0,,,,,,,
1381355,1745299871107,,,,,,,,,,,,,,,,,,,,,,,,,,,,,,,,,,0,0,0,0,0,0,0,0,0,0,0,0,0,0,0,0,,,,,,,,,,,,,
1381375,1745299871127,12.07,-91,,-0.09,-0.02,0.92,1,-0,-0,0.92,1.25,74,3108,10.2,3.99,,13.25,1.249,97.0,,19.8,5,0,0,0,0,7.0,0.0,0.0,0.0,2.25,,,0,0,0,0,0,0,0,0,0,0,0,0,0,0,0,0,,0,,,,0.0,38.986015,-76.95002,0.11,50.1,34,3,0.8
1381395,1745299871147,,,,,,,,,,,,,,,,,,,,,,,,,,,,,,,,,,0,0,0,0,0,0,0,0,0,0,0,0,0,0,0,0,,,,,,,,,,,,,
1381415,1745299871167,11.44,-110,,-0.05,0.03,0.96,1,-0,0,0.96,1.25,77,3193,11.5,4.02,,13.43,1.249,97.0,,19.8,5,,,,,,,,,,,,0,0,0,0,0,0,0,0,0,0,0,0,0,0,0,0,,,,,,0.0,,,,,,,
1381435,1745299871187,,,,,,,,,,,,,,,,,,,,,,,,,,,,,,,,,,0,0,0,0,0,0,0,0,0,0,0,0,0,0,0,0,,,,,,,,,,,,,
1381455,1745299871205,8.92,-83,,-0.08,-0.05,1.01,-2,-0,0,1.01,1.25,81,3253,11.6,3.99,,13.52,1.249,97.0,,20.9,5,,,,,,,,,,,,0,0,0,0,0,0,0,0,0,0,0,0,0,0,0,0,,,,,,0.0,,,,,,,
1381475,1745299871225,,,,,,,,,,,,,,,,,,,,,,,0,0,0,0,7.0,0.0,0.0,0.0,2.26,,,0,0,0,0,0,0,0,0,0,0,0,0,0,0,0,0,,0,,,,,38.986015,-76.95002,0.25,50.1,34,3,0.8
1381495,1745299871245,5.78,-95,,-0.07,0.1,1.0,1,-0,0,1.01,1.25,81,3490,0.9,3.87,,13.52,1.249,97.0,,20.9,5,,,,,,,,,,,,0,0,0,0,0,0,0,0,0,0,0,0,0,0,0,0,,,,,,0.0,,,,,,,
1381515,1745299871265,,,,,,,,,,,,,,,,,,,,,,,,,,,,,,,,,,0,0,0,0,0,0,0,0,0,0,0,0,0,0,0,0,,,,,,,,,,,,,
1381535,1745299871285,3.27,-53,,-0.09,-0.02,0.96,0,-0,-0,0.97,1.25,77,3490,0.9,3.87,,13.23,1.25,97.0,,22.7,5,,,,,,,,,,,,0,0,0,0,0,0,0,0,0,0,0,0,0,0,0,0,,,,,,0.0,,,,,,,
1381555,1745299871307,,,,,,,,,,,,,,,,,,,,,,,,,,,,,,,,,,0,0,0,0,0,0,0,0,0,0,0,0,0,0,0,0,,,,,,,,,,,,,
1381575,1745299871327,0.75,-91,13.17,-0.07,-0.03,1.02,-1,-0,0,1.02,1.25,82,3514,0.0,2.75,15,12.63,1.251,97.0,182,22.7,5,0,0,0,0,7.0,0.0,0.0,0.0,2.25,0,1.0,0,0,0,0,0,0,0,0,0,0,0,0,0,0,0,0,0,0,1.0,0,0,0.0,38.986015,-76.95002,0.19,50.1,34,3,0.8
1381595,1745299871347,,,,,,,,,,,,,,,,,,,,,,,,,,,,,,,,,,0,0,0,0,0,0,0,0,0,0,0,0,0,0,0,0,,,,,,,,,,,,,
1381615,1745299871367,0.0,-106,,-0.06,-0.03,0.94,1,-0,-0,0.94,1.25,76,3497,0.0,2.73,,12.37,1.245,97.0,,22.7,5,,,,,,,,,,,,0,0,0,0,0,0,0,0,0,0,0,0,0,0,0,0,,,,,,0.0,,,,,,,
1381635,1745299871387,,,,,,,,,,,,,,,,,,,,,,,,,,,,,,,,,,0,0,0,0,0,0,0,0,0,0,0,0,0,0,0,0,,,,,,,,,,,,,
1381655,1745299871407,0.0,-102,,-0.09,-0.12,0.99,0,-0,-0,1.0,1.25,80,3435,0.0,2.74,,12.19,1.243,97.0,,22.4,5,,,,,,,,,,,,0,0,0,0,0,0,0,0,0,0,0,0,0,0,0,0,,,,,,0.0,,,,,,,
1381675,1745299871427,,,,,,,,,,,,,,,,,,,,,,,0,0,0,0,7.0,0.0,0.0,0.0,2.25,,,0,0,0,0,0,0,0,0,0,0,0,0,0,0,0,0,,0,,,,,38.986015,-76.95002,0.88,50.1,34,3,0.8
1381695,1745299871447,0.0,-110,,-0.06,0.08,0.97,1,-0,0,0.98,1.25,78,3346,0.0,2.77,,12.19,1.243,97.0,,22.4,5,,,,,,,,,,,,0,0,0,0,0,0,0,0,0,0,0,0,0,0,0,0,,,,,,0.0,,,,,,,
1381715,1745299871467,,,,,,,,,,,,,,,,,,,,,,,,,,,,,,,,,,0,0,0,0,0,0,0,0,0,0,0,0,0,0,0,0,,,,,,,,,,,,,
1381735,1745299871487,0.0,-91,,-0.07,-0.04,1.04,-1,-0,-0,1.05,1.25,84,3346,0.0,2.77,,12.16,1.251,97.0,,21.2,5,,,,,,,,,,,,0,0,0,0,0,0,0,0,0,0,0,0,0,0,0,0,,,,,,0.0,,,,,,,
1381755,1745299871503,,,,,,,,,,,,,,,,,,,,,,,,,,,,,,,,,,0,0,0,0,0,0,0,0,0,0,0,0,0,0,0,0,,,,,,,,,,,,,
1381775,1745299871523,0.0,-102,,-0.11,0.02,0.97,1,-0,-0,0.97,1.25,78,3262,0.0,2.82,,12.15,1.25,97.0,,21.2,5,0,0,0,0,7.0,0.0,0.0,0.0,2.25,,,0,0,0,0,0,0,0,0,0,0,0,0,0,0,0,0,,0,,,,0.0,38.986015,-76.95002,0.46,50.1,34,3,0.8
1381795,1745299871543,,,,,,,,,,,,,,,,,,,,,,,,,,,,,,,,,,0,0,0,0,0,0,0,0,0,0,0,0,0,0,0,0,,,,,,,,,,,,,
1381815,1745299871563,0.0,-102,,-0.11,0.05,0.89,2,-0,-0,0.9,1.25,72,3059,4.5,3.72,,12.47,1.249,97.0,,21.2,5,,,,,,,,,,,,0,0,0,0,0,0,0,0,0,0,0,0,0,0,0,0,,,,,,0.0,,,,,,,
1381835,1745299871583,,,,,,,,,,,,,,,,,,,,,,,,,,,,,,,,,,0,0,0,0,0,0,0,0,0,0,0,0,0,0,0,0,,,,,,,,,,,,,
1381855,1745299871603,0.0,-98,,-0.08,0.09,0.9,2,-0,0,0.91,1.25,73,3150,5.6,3.76,,12.81,1.249,97.0,,20.3,5,,,,,,,,,,,,0,0,0,0,0,0,0,0,0,0,0,0,0,0,0,0,,,,,,0.0,,,,,,,
1381875,1745299871623,,,,,,,,,,,,,,,,,,,,,,,0,0,0,0,7.0,0.0,0.0,0.0,2.26,,,0,0,0,0,0,0,0,0,0,0,0,0,0,0,0,0,,0,,,,,38.986015,-76.95002,0.05,50.1,34,3,0.8
1381895,1745299871643,0.0,-121,,-0.09,-0.02,0.99,-1,-0,-0,0.99,1.25,79,3320,6.1,3.8,,12.81,1.249,97.0,,20.3,5,,,,,,,,,,,,0,0,0,0,0,0,0,0,0,0,0,0,0,0,0,0,,,,,,0.0,,,,,,,
1381915,1745299871663,,,,,,,,,,,,,,,,,,,,,,,,,,,,,,,,,,0,0,0,0,0,0,0,0,0,0,0,0,0,0,0,0,,,,,,,,,,,,,
1381935,1745299871683,0.0,-98,,-0.1,0.06,0.9,2,-0,-0,0.91,1.25,73,3320,6.1,3.8,,12.95,1.249,97.0,,21.5,5,,,,,,,,,,,,0,0,0,0,0,0,0,0,0,0,0,0,0,0,0,0,,,,,,0.0,,,,,,,
1381955,1745299871703,,,,,,,,,,,,,,,,,,,,,,,,,,,,,,,,,,0,0,0,0,0,0,0,0,0,0,0,0,0,0,0,0,,,,,,,,,,,,,
1381975,1745299871723,0.0,-102,,-0.07,0.05,1.0,-1,-0,0,1.0,1.25,81,3296,5.0,3.79,,12.95,1.25,97.0,,21.5,5,0,0,0,0,7.0,0.0,0.0,0.0,2.26,,,0,0,0,0,0,0,0,0,0,0,0,0,0,0,0,0,,0,,,,0.0,38.986015,-76.95002,0.0,50.1,34,3,0.8
1381995,1745299871743,,,,,,,,,,,,,,,,,,,,,,,,,,,,,,,,,,0,0,0,0,0,0,0,0,0,0,0,0,0,0,0,0,,,,,,,,,,,,,
1382015,1745299871763,0.0,-98,,-0.1,0.06,0.95,2,-0,-0,0.96,1.25,77,3363,0.0,2.83,,12.59,1.243,97.0,,21.5,5,,,,,,,,,,,,0,0,0,0,0,0,0,0,0,0,0,0,0,0,0,0,,,,,,0.0,,,,,,,
1382035,1745299871783,,,,,,,,,,,,,,,,,,,,,,,,,,,,,,,,,,0,0,0,0,0,0,0,0,0,0,0,0,0,0,0,0,,,,,,,,,,,,,
1382055,1745299871803,0.0,-98,,-0.07,0.07,0.99,1,-0,0,0.99,1.25,80,3335,0.0,2.82,,12.35,1.194,97.0,,21.4,5,,,,,,,,,,,,0,0,0,0,0,0,0,0,0,0,0,0,0,0,0,0,,,,,,0.0,,,,,,,
1382075,1745299871823,,,,,,,,,,,,,,,,,,,,,,,0,0,0,0,7.0,0.0,0.0,0.0,2.26,,,0,0,0,0,0,0,0,0,0,0,0,0,0,0,0,0,,0,,,,,38.986015,-76.95002,0.08,50.1,34,3,0.8
1382095,1745299871843,0.0,-113,,-0.09,-0.04,1.06,-1,-0,0,1.06,1.25,85,3178,0.0,2.84,,12.35,1.194,97.0,,21.4,5,,,,,,,,,,,,0,0,0,0,0,0,0,0,0,0,0,0,0,0,0,0,,,,,,0.0,,,,,,,
1382115,1745299871863,,,,,,,,,,,,,,,,,,,,,,,,,,,,,,,,,,0,0,0,0,0,0,0,0,0,0,0,0,0,0,0,0,,,,,,,,,,,,,
1382135,1745299871883,0.0,-106,,-0.12,-0.03,1.0,1,-0,-0,1.0,1.25,81,3178,0.0,2.84,,12.27,1.195,97.0,,20.6,5,,,,,,,,,,,,0,0,0,0,0,0,0,0,0,0,0,0,0,0,0,0,,,,,,0.0,,,,,,,
1382155,1745299871909,,,,,,,,,,,,,,,,,,,,,,,,,,,,,,,,,,0,0,0,0,0,0,0,0,0,0,0,0,0,0,0,0,,,,,,,,,,,,,
1382175,1745299871929,0.0,-95,,-0.13,-0.0,0.92,2,-0,-1,0.93,1.25,75,3110,0.0,2.89,,12.23,1.21,97.0,,20.6,5,0,0,0,0,7.0,0.0,0.0,0.0,2.25,,,0,0,0,0,0,0,0,0,0,0,0,0,0,0,0,0,,0,,,,0.0,38.986015,-76.95002,0.07,50.1,34,3,0.8
1382195,1745299871949,,,,,,,,,,,,,,,,,,,,,,,,,,,,,,,,,,0,0,0,0,0,0,0,0,0,0,0,0,0,0,0,0,,,,,,,,,,,,,
1382215,1745299871969,0.0,-106,,-0.14,-0.02,0.87,3,-0,-1,0.88,1.25,70,3023,0.0,2.93,,12.29,1.25,97.0,,20.6,5,,,,,,,,,,,,0,0,0,0,0,0,0,0,0,0,0,0,0,0,0,0,,,,,,0.0,,,,,,,
1382235,1745299871989,,,,,,,,,,,,,,,,,,,,,,,,,,,,,,,,,,0,0,0,0,0,0,0,0,0,0,0,0,0,0,0,0,,,,,,,,,,,,,
1382255,1745299872000,0.0,-102,,-0.16,-0.02,0.89,2,-0,-1,0.91,1.25,73,2804,0.0,2.99,,12.36,1.249,97.0,,19.4,5,,,,,,,,,,,,0,0,0,0,0,0,0,0,0,0,0,0,0,0,0,0,,,,,,0.0,,,,,,,
1382275,1745299872020,,,,,,,,,,,,,,,,,,,,,,,0,0,0,0,7.0,0.0,0.0,0.0,2.25,,,0,0,0,0,0,0,0,0,0,0,0,0,0,0,0,0,,0,,,,,38.986015,-76.95002,0.04,50.1,34,3,0.8
1382295,1745299872040,0.0,-95,,-0.16,-0.04,0.95,1,-0,-1,0.96,1.25,77,2802,0.0,3.01,,12.36,1.249,97.0,,19.4,5,,,,,,,,,,,,0,0,0,0,0,0,0,0,0,0,0,0,0,0,0,0,,,,,,0.0,,,,,,,
1382315,1745299872060,,,,,,,,,,,,,,,,,,,,,,,,,,,,,,,,,,0,0,0,0,0,0,0,0,0,0,0,0,0,0,0,0,,,,,,,,,,,,,
1382335,1745299872080,0.0,-98,,-0.14,-0.02,0.95,1,-0,-0,0.96,1.25,77,2802,0.0,3.01,,12.49,1.249,97.0,,18.2,5,,,,,,,,,,,,0,0,0,0,0,0,0,0,0,0,0,0,0,0,0,0,,,,,,0.0,,,,,,,
1382355,1745299872104,,,,,,,,,,,,,,,,,,,,,,,,,,,,,,,,,,0,0,0,0,0,0,0,0,0,0,0,0,0,0,0,0,,,,,,,,,,,,,
1382375,1745299872124,0.0,-102,,-0.13,-0.04,0.95,1,-0,-0,0.96,1.25,77,2678,2.9,3.52,,12.87,1.249,97.0,,18.2,5,0,0,0,0,7.0,0.0,0.0,0.0,2.26,,,0,0,0,0,0,0,0,0,0,0,0,0,0,0,0,0,,0,,,,0.0,38.986015,-76.95002,0.06,50.1,34,3,0.8
1382395,1745299872144,,,,,,,,,,,,,,,,,,,,,,,,,,,,,,,,,,0,0,0,0,0,0,0,0,0,0,0,0,0,0,0,0,,,,,,,,,,,,,
1382415,1745299872164,0.0,-98,,-0.12,-0.05,0.96,0,-0,-0,0.97,1.25,78,2673,6.3,3.75,,13.17,1.249,97.0,,18.2,5,,,,,,,,,,,,0,0,0,0,0,0,0,0,0,0,0,0,0,0,0,0,,,,,,0.0,,,,,,,
1382435,1745299872184,,,,,,,,,,,,,,,,,,,,,,,,,,,,,,,,,,0,0,0,0,0,0,0,0,0,0,0,0,0,0,0,0,,,,,,,,,,,,,
1382455,1745299872206,0.0,-102,,-0.12,-0.04,0.94,1,-0,-1,0.95,1.25,76,2698,7.7,3.79,,13.44,1.25,97.0,,17.3,5,,,,,,,,,,,,0,0,0,0,0,0,0,0,0,0,0,0,0,0,0,0,,,,,,0.0,,,,,,,
1382475,1745299872226,,,,,,,,,,,,,,,,,,,,,,,0,0,0,0,7.0,0.0,0.0,0.0,2.26,,,0,0,0,0,0,0,0,0,0,0,0,0,0,0,0,0,,0,,,,,38.986015,-76.95002,0.0,50.1,34,3,0.8
1382495,1745299872246,0.0,-102,,-0.11,-0.05,0.99,0,-0,-0,1.0,1.25,80,2742,8.1,3.82,,13.44,1.25,97.0,,17.3,5,,,,,,,,,,,,0,0,0,0,0,0,0,0,0,0,0,0,0,0,0,0,,,,,,0.0,,,,,,,
1382515,1745299872266,,,,,,,,,,,,,,,,,,,,,,,,,,,,,,,,,,0,0,0,0,0,0,0,0,0,0,0,0,0,0,0,0,,,,,,,,,,,,,
1382535,1745299872286,0.0,-87,,-0.1,-0.03,0.94,1,-0,-0,0.94,1.25,76,2742,8.1,3.82,,13.57,1.252,97.0,,17.8,5,,,,,,,,,,,,0,0,0,0,0,0,0,0,0,0,0,0,0,0,0,0,,,,,,0.0,,,,,,,
1382555,1745299872308,,,,,,,,,,,,,,,,,,,,,,,,,,,,,,,,,,0,0,0,0,0,0,0,0,0,0,0,0,0,0,0,0,,,,,,,,,,,,,
1382575,1745299872328,0.0,-98,13.17,-0.12,-0.07,0.96,1,-0,-0,0.97,1.25,77,2758,8.1,3.83,15,13.59,1.251,97.0,182,17.8,5,0,0,0,0,7.0,0.0,0.0,0.0,2.26,0,1.0,0,0,0,0,0,0,0,0,0,0,0,0,0,0,0,0,0,0,1.0,0,0,0.0,38.986015,-76.95002,0.04,50.1,34,3,0.8
1382595,1745299872348,,,,,,,,,,,,,,,,,,,,,,,,,,,,,,,,,,0,0,0,0,0,0,0,0,0,0,0,0,0,0,0,0,,,,,,,,,,,,,
1382615,1745299872368,0.0,-102,,-0.13,-0.09,1.01,0,-0,-0,1.02,1.25,82,2847,0.0,3.79,,13.35,1.252,97.0,,17.8,5,,,,,,,,,,,,0,0,0,0,0,0,0,0,0,0,0,0,0,0,0,0,,,,,,0.0,,,,,,,
1382635,1745299872388,,,,,,,,,,,,,,,,,,,,,,,,,,,,,,,,,,0,0,0,0,0,0,0,0,0,0,0,0,0,0,0,0,,,,,,,,,,,,,
1382655,1745299872408,0.0,-98,,-0.11,-0.1,1.06,-1,-0,-0,1.07,1.25,86,2913,0.0,3.02,,13.01,1.245,97.0,,19.0,5,,,,,,,,,,,,0,0,0,0,0,0,0,0,0,0,0,0,0,0,0,0,,,,,,0.0,,,,,,,
1382675,1745299872428,,,,,,,,,,,,,,,,,,,,,,,0,0,0,0,7.0,0.0,0.0,0.0,2.25,,,0,0,0,0,0,0,0,0,0,0,0,0,0,0,0,0,,0,,,,,38.986015,-76.95002,0.08,50.1,34,3,0.8
1382695,1745299872448,0.0,-106,,-0.08,-0.07,1.07,-1,-0,0,1.08,1.25,86,2842,0.0,3.01,,13.01,1.245,97.0,,19.0,5,,,,,,,,,,,,0,0,0,0,0,0,0,0,0,0,0,0,0,0,0,0,,,,,,0.0,,,,,,,
1382715,1745299872468,,,,,,,,,,,,,,,,,,,,,,,,,,,,,,,,,,0,0,0,0,0,0,0,0,0,0,0,0,0,0,0,0,,,,,,,,,,,,,
1382735,1745299872488,0.0,-83,,-0.05,-0.05,1.04,-1,-0,0,1.04,1.25,83,2842,0.0,3.01,,12.88,1.237,97.0,,18.6,5,,,,,,,,,,,,0,0,0,0,0,0,0,0,0,0,0,0,0,0,0,0,,,,,,0.0,,,,,,,
1382755,1745299872502,,,,,,,,,,,,,,,,,,,,,,,,,,,,,,,,,,0,0,0,0,0,0,0,0,0,0,0,0,0,0,0,0,,,,,,,,,,,,,
1382775,1745299872522,0.0,-91,,-0.06,-0.05,1.01,0,-0,-0,1.01,1.25,81,2843,0.0,3.03,,12.76,1.238,97.0,,18.6,5,0,0,0,0,7.0,0.0,0.0,0.0,2.25,,,0,0,0,0,0,0,0,0,0,0,0,0,0,0,0,0,,0,,,,0.0,38.986015,-76.95002,0.13,50.1,34,3,0.8
1382795,1745299872542,,,,,,,,,,,,,,,,,,,,,,,,,,,,,,,,,,0,0,0,0,0,0,0,0,0,0,0,0,0,0,0,0,,,,,,,,,,,,,
1382815,1745299872562,0.0,-98,,-0.07,-0.07,1.03,-0,-0,-0,1.03,1.25,83,2797,0.0,3.07,,12.75,1.249,97.0,,18.6,5,,,,,,,,,,,,0,0,0,0,0,0,0,0,0,0,0,0,0,0,0,0,,,,,,0.0,,,,,,,
1382835,1745299872582,,,,,,,,,,,,,,,,,,,,,,,,,,,,,,,,,,0,0,0,0,0,0,0,0,0,0,0,0,0,0,0,0,,,,,,,,,,,,,
1382855,1745299872602,0.0,-91,,-0.07,-0.04,1.01,-0,-0,0,1.01,1.25,81,2726,11.0,3.57,,13.24,1.249,97.0,,18.1,5,,,,,,,,,,,,0,0,0,0,0,0,0,0,0,0,0,0,0,0,0,0,,,,,,0.0,,,,,,,
1382875,1745299872622,,,,,,,,,,,,,,,,,,,,,,,0,0,0,0,7.0,0.0,0.0,0.0,2.26,,,0,0,0,0,0,0,0,0,0,0,0,0,0,0,0,0,,0,,,,,38.986015,-76.95002,0.05,50.1,34,3,0.8
1382895,1745299872642,0.0,-91,,-0.08,-0.04,1.02,0,-0,-0,1.03,1.25,82,2666,39.2,4.89,,13.24,1.249,97.0,,18.1,5,,,,,,,,,,,,0,0,0,0,0,0,0,0,0,0,0,0,0,0,0,0,,,,,,0.0,,,,,,,
1382915,1745299872662,,,,,,,,,,,,,,,,,,,,,,,,,,,,,,,,,,0,0,0,0,0,0,0,0,0,0,0,0,0,0,0,0,,,,,,,,,,,,,
1382935,1745299872682,0.0,-91,,-0.07,-0.07,1.04,-1,-0,0,1.05,1.25,84,2666,39.2,4.89,,14.39,1.249,97.0,,18.2,5,,,,,,,,,,,,0,0,0,0,0,0,0,0,0,0,0,0,0,0,0,0,,,,,,0.0,,,,,,,
1382955,1745299872702,,,,,,,,,,,,,,,,,,,,,,,,,,,,,,,,,,0,0,0,0,0,0,0,0,0,0,0,0,0,0,0,0,,,,,,,,,,,,,
1382975,1745299872722,0.0,-87,,-0.03,-0.06,1.08,-1,-0,1,1.08,1.25,86,2834,57.0,4.76,,14.52,1.251,97.0,,18.2,5,0,0,0,0,7.0,0.0,0.0,0.0,2.26,,,0,0,0,0,0,0,0,0,0,0,0,0,0,0,0,0,,0,,,,0.0,38.986015,-76.95002,0.04,50.1,34,3,0.8
1382995,1745299872742,,,,,,,,,,,,,,,,,,,,,,,,,,,,,,,,,,0,0,0,0,0,0,0,0,0,0,0,0,0,0,0,0,,,,,,,,,,,,,
1383015,1745299872762,0.0,-91,,-0.04,-0.19,1.1,-3,-0,0,1.12,1.25,90,3103,59.9,4.76,,14.48,1.252,97.0,,18.2,5,,,,,,,,,,,,0,0,0,0,0,0,0,0,0,0,0,0,0,0,0,0,,,,,,0.0,,,,,,,
1383035,1745299872782,,,,,,,,,,,,,,,,,,,,,,,,,,,,,,,,,,0,0,0,0,0,0,0,0,0,0,0,0,0,0,0,0,,,,,,,,,,,,,
1383055,1745299872802,0.0,-102,,-0.03,-0.13,1.09,-3,-0,1,1.09,1.25,88,3616,60.0,4.3,,14.46,1.253,97.0,,21.4,5,,,,,,,,,,,,0,0,0,0,0,0,0,0,0,0,0,0,0,0,0,0,,,,,,0.0,,,,,,,
1383075,1745299872822,,,,,,,,,,,,,,,,,,,,,,,0,0,0,0,7.0,0.0,0.0,0.0,2.25,,,0,0,0,0,0,0,0,0,0,0,0,0,0,0,0,0,,0,,,,,38.986015,-76.95002,0.04,50.1,34,3,0.8
1383095,1745299872842,0.0,-102,,-0.04,-0.14,1.0,-2,-0,-0,1.01,1.25,81,4060,60.1,4.17,,14.46,1.253,97.0,,21.4,5,,,,,,,,,,,,0,0,0,0,0,0,0,0,0,0,0,0,0,0,0,0,,,,,,0.0,,,,,,,
1383115,1745299872862,,,,,,,,,,,,,,,,,,,,,,,,,,,,,,,,,,0,0,0,0,0,0,0,0,0,0,0,0,0,0,0,0,,,,,,,,,,,,,
1383135,1745299872882,0.0,-102,,-0.05,-0.06,1.08,1,-0,0,1.08,1.25,87,4060,60.1,4.17,,14.42,1.25,97.0,,26.8,5,,,,,,,,,,,,0,0,0,0,0,0,0,0,0,0,0,0,0,0,0,0,,,,,,0.0,,,,,,,
1383155,1745299872908,,,,,,,,,,,,,,,,,,,,,,,,,,,,,,,,,,0,0,0,0,0,0,0,0,0,0,0,0,0,0,0,0,,,,,,,,,,,,,
1383175,1745299872928,0.0,-95,,-0.07,0.04,1.18,2,-0,0,1.18,1.25,94,4271,60.1,4.35,,14.42,1.247,97.0,,26.8,5,0,0,0,0,7.0,0.0,0.0,0.0,2.25,,,0,0,0,0,0,0,0,0,0,0,0,0,0,0,0,0,,0,,,,0.0,38.986015,-76.95002,0.08,50.1,34,3,0.8
1383195,1745299872948,,,,,,,,,,,,,,,,,,,,,,,,,,,,,,,,,,0,0,0,0,0,0,0,0,0,0,0,0,0,0,0,0,,,,,,,,,,,,,
1383215,1745299872968,0.0,-91,,-0.1,0.11,1.24,2,-0,0,1.25,1.25,100,4527,60.1,4.59,,14.4,1.25,97.0,,26.8,5,,,,,,,,,,,,0,0,0,0,0,0,0,0,0,0,0,0,0,0,0,0,,,,,,0.0,,,,,,,
1383235,1745299872988,,,,,,,,,,,,,,,,,,,,,,,,,,,,,,,,,,0,0,0,0,0,0,0,0,0,0,0,0,0,0,0,0,,,,,,,,,,,,,
1383255,1745299872997,0.0,-80,,-0.09,0.04,1.18,1,-0,0,1.19,1.25,95,4801,60.1,4.81,,14.44,1.25,97.0,,29.9,5,,,,,,,,,,,,0,0,0,0,0,0,0,0,0,0,0,0,0,0,0,0,,,,,,0.0,,,,,,,
1383275,1745299873017,,,,,,,,,,,,,,,,,,,,,,,0,0,0,0,7.0,0.0,0.0,0.0,2.26,,,0,0,0,0,0,0,0,0,0,0,0,0,0,0,0,0,,0,,,,,38.986015,-76.95002,0.08,50.1,34,3,0.8
1383295,1745299873037,0.0,-106,,-0.09,0.03,1.17,1,-0,0,1.17,1.25,93,5170,60.1,4.97,,14.44,1.25,97.0,,29.9,5,,,,,,,,,,,,0,0,0,0,0,0,0,0,0,0,0,0,0,0,0,0,,,,,,0.0,,,,,,,
1383315,1745299873057,,,,,,,,,,,,,,,,,,,,,,,,,,,,,,,,,,0,0,0,0,0,0,0,0,0,0,0,0,0,0,0,0,,,,,,,,,,,,,
1383335,1745299873077,0.0,-95,,-0.09,0.04,1.2,1,-0,0,1.2,1.25,96,5170,60.1,4.97,,14.35,1.249,97.0,,35.7,5,,,,,,,,,,,,0,0,0,0,0,0,0,0,0,0,0,0,0,0,0,0,,,,,,0.0,,,,,,,
1383355,1745299873103,,,,,,,,,,,,,,,,,,,,,,,,,,,,,,,,,,0,0,0,0,0,0,0,0,0,0,0,0,0,0,0,0,,,,,,,,,,,,,
1383375,1745299873123,0.0,-80,,-0.05,-0.02,1.08,1,-0,0,1.08,1.25,86,5696,50.3,5.4,,14.18,1.249,97.0,,35.7,5,0,0,0,0,7.0,0.0,0.0,0.0,2.25,,,0,0,0,0,0,0,0,0,0,0,0,0,0,0,0,0,,0,,,,0.0,38.986015,-76.95002,0.05,50.1,34,3,0.8
1383395,1745299873143,,,,,,,,,,,,,,,,,,,,,,,,,,,,,,,,,,0,0,0,0,0,0,0,0,0,0,0,0,0,0,0,0,,,,,,,,,,,,,
1383415,1745299873163,0.0,-95,,-0.03,0.01,1.07,2,-0,0,1.07,1.25,86,6296,47.6,5.3,,14.03,1.25,97.0,,35.7,5,,,,,,,,,,,,0,0,0,0,0,0,0,0,0,0,0,0,0,0,0,0,,,,,,0.0,,,,,,,
1383435,1745299873183,,,,,,,,,,,,,,,,,,,,,,,,,,,,,,,,,,0,0,0,0,0,0,0,0,0,0,0,0,0,0,0,0,,,,,,,,,,,,,
1383455,1745299873207,0.0,-98,,-0.04,0.01,1.09,1,-0,0,1.09,1.25,87,7299,47.4,5.18,,13.76,1.177,97.0,,44.9,5,,,,,,,,,,,,0,0,0,0,0,0,0,0,0,0,0,0,0,0,0,0,,,,,,0.0,,,,,,,
1383475,1745299873227,,,,,,,,,,,,,,,,,,,,,,,0,0,0,0,7.0,0.0,0.0,0.0,2.25,,,0,0,0,0,0,0,0,0,0,0,0,0,0,0,0,0,,0,,,,,38.986015,-76.95002,0.0,50.1,34,3,0.8
1383495,1745299873247,0.0,-91,,-0.05,0.04,1.05,1,-0,1,1.05,1.25,84,8635,55.1,5.12,,13.76,1.177,97.0,,44.9,5,,,,,,,,,,,,0,0,0,0,0,0,0,0,0,0,0,0,0,0,0,0,,,,,,0.0,,,,,,,
1383515,1745299873267,,,,,,,,,,,,,,,,,,,,,,,,,,,,,,,,,,0,0,0,0,0,0,0,0,0,0,0,0,0,0,0,0,,,,,,,,,,,,,
1383535,1745299873287,0.0,-98,,-0.03,0.03,1.11,1,-0,0,1.11,1.25,89,8635,55.1,5.12,,13.67,1.087,97.0,,50.6,5,,,,,,,,,,,,0,0,0,0,0,0,0,0,0,0,0,0,0,0,0,0,,,,,,0.0,,,,,,,
1383555,1745299873305,,,,,,,,,,,,,,,,,,,,,,,,,,,,,,,,,,0,0,0,0,0,0,0,0,0,0,0,0,0,0,0,0,,,,,,,,,,,,,
1383575,1745299873325,0.0,-76,13.15,-0.05,0.05,1.04,1,-0,1,1.04,1.25,83,9788,67.9,5.86,15,13.82,1.006,97.0,182,50.6,5,0,0,0,0,7.0,0.0,0.0,0.0,2.25,0,1.0,0,0,0,0,0,0,0,0,0,0,0,0,0,0,0,0,0,0,1.0,0,0,0.0,38.986015,-76.95002,0.05,50.1,34,3,0.8
1383595,1745299873345,,,,,,,,,,,,,,,,,,,,,,,,,,,,,,,,,,0,0,0,0,0,0,0,0,0,0,0,0,0,0,0,0,,,,,,,,,,,,,
1383615,1745299873365,0.0,-98,,-0.02,0.02,0.93,0,-0,0,0.93,1.25,74,11804,77.7,4.57,,13.65,1.031,97.0,,50.6,5,,,,,,,,,,,,0,0,0,0,0,0,0,0,0,0,0,0,0,0,0,0,,,,,,0.0,,,,,,,
1383635,1745299873385,,,,,,,,,,,,,,,,,,,,,,,,,,,,,,,,,,0,0,0,0,0,0,0,0,0,0,0,0,0,0,0,0,,,,,,,,,,,,,
1383655,1745299873409,0.0,-68,,-0.0,-0.1,0.93,1,-0,-1,0.93,1.25,75,13039,86.8,4.81,,13.51,0.95,97.0,,54.3,5,,,,,,,,,,,,0,0,0,0,0,0,0,0,0,0,0,0,0,0,0,0,,,,,,0.0,,,,,,,
1383675,1745299873429,,,,,,,,,,,,,,,,,,,,,,,0,0,0,0,7.0,0.0,0.0,0.0,2.25,,,0,0,0,0,0,0,0,0,0,0,0,0,0,0,0,0,,0,,,,,38.986015,-76.95002,0.0,50.1,34,3,0.8
1383695,1745299873449,0.0,-76,,0.08,-0.2,0.98,2,0,-3,1.0,1.25,80,13723,93.0,4.68,,13.51,0.95,97.0,,54.3,5,,,,,,,,,,,,0,0,0,0,0,0,0,0,0,0,0,0,0,0,0,0,,,,,,0.0,,,,,,,
1383715,1745299873469,,,,,,,,,,,,,,,,,,,,,,,,,,,,,,,,,,0,0,0,0,0,0,0,0,0,0,0,0,0,0,0,0,,,,,,,,,,,,,
1383735,1745299873489,0.0,-76,,0.08,-0.15,1.02,0,1,-2,1.03,1.25,82,13723,93.0,4.68,,13.31,0.97,97.0,,53.6,5,,,,,,,,,,,,0,0,0,0,0,0,0,0,0,0,0,0,0,0,0,0,,,,,,0.0,,,,,,,
1383755,1745299873503,,,,,,,,,,,,,,,,,,,,,,,,,,,,,,,,,,0,0,0,0,0,0,0,0,0,0,0,0,0,0,0,0,,,,,,,,,,,,,
1383775,1745299873523,0.0,-76,,0.11,0.03,1.03,1,1,-3,1.04,1.25,83,13698,95.6,4.59,,13.44,0.974,97.0,,53.6,5,0,0,1,0,7.0,0.0,0.0,0.0,2.25,,,0,0,0,0,0,0,0,0,0,0,0,0,0,0,0,0,,0,,,,0.0,38.986015,-76.95002,0.18,50.1,34,3,0.8
1383795,1745299873543,,,,,,,,,,,,,,,,,,,,,,,,,,,,,,,,,,0,0,0,0,0,0,0,0,0,0,0,0,0,0,0,0,,,,,,,,,,,,,
1383815,1745299873563,0.0,-49,,0.21,0.02,1.01,1,1,-2,1.03,1.25,82,12410,98.3,5.06,,13.56,1.124,97.0,,53.6,5,,,,,,,,,,,,0,0,0,0,0,0,0,0,0,0,0,0,0,0,0,0,,,,,,0.0,,,,,,,
1383835,1745299873583,,,,,,,,,,,,,,,,,,,,,,,,,,,,,,,,,,0,0,0,0,0,0,0,0,0,0,0,0,0,0,0,0,,,,,,,,,,,,,
1383855,1745299873603,0.0,-57,,0.3,0.36,1.03,-1,1,-1,1.13,1.25,90,11621,98.3,5.28,,13.76,1.248,97.0,,53.2,5,,,,,,,,,,,,0,0,0,0,0,0,0,0,0,0,0,0,0,0,0,0,,,,,,0.0,,,,,,,
1383875,1745299873623,,,,,,,,,,,,,,,,,,,,,,,2,0,5,8,7.0,0.0,0.0,0.0,2.25,,,0,0,0,0,0,0,0,0,0,0,0,0,0,0,0,0,,0,,,,,38.986015,-76.95002,1.99,50.1,34,3,0.8
1383895,1745299873643,0.0,-23,,0.4,0.29,1.09,0,2,-1,1.19,1.25,95,10575,99.2,5.8,,13.76,1.248,97.0,,53.2,5,,,,,,,,,,,,0,0,0,0,0,0,0,0,0,0,0,0,0,0,0,0,,,,,,0.0,,,,,,,
1383915,1745299873663,,,,,,,,,,,,,,,,,,,,,,,,,,,,,,,,,,0,0,0,0,0,0,0,0,0,0,0,0,0,0,0,0,,,,,,,,,,,,,
1383935,1745299873683,0.0,-34,,0.41,0.33,1.11,2,1,-1,1.23,1.25,98,10575,99.2,5.8,,14.14,1.15,97.0,,59.8,5,,,,,,,,,,,,0,0,0,0,0,0,0,0,0,0,0,0,0,0,0,0,,,,,,0.0,,,,,,,
1383955,1745299873699,,,,,,,,,,,,,,,,,,,,,,,,,,,,,,,,,,0,0,0,0,0,0,0,0,0,0,0,0,0,0,0,0,,,,,,,,,,,,,
1383975,1745299873719,0.0,-31,,0.42,0.12,1.07,2,1,-1,1.16,1.25,92,11026,99.2,5.57,,14.08,1.044,97.0,,59.8,5,4,0,38,36,7.0,0.0,0.0,0.0,2.25,,,0,0,0,0,0,0,0,0,0,0,0,0,0,0,0,0,,0,,,,0.0,38.986015,-76.95002,5.33,50.1,34,3,0.8
1383995,1745299873739,,,,,,,,,,,,,,,,,,,,,,,,,,,,,,,,,,0,0,0,0,0,0,0,0,0,0,0,0,0,0,0,0,,,,,,,,,,,,,
1384015,1745299873759,0.0,-15,,0.43,0.18,1.18,4,0,1,1.27,1.27,100,11553,99.3,5.41,,13.92,0.986,97.0,,59.8,5,,,,,,,,,,,,0,0,0,0,0,0,0,0,0,0,0,0,0,0,0,0,,,,,,0.0,,,,,,,
1384035,1745299873779,,,,,,,,,,,,,,,,,,,,,,,,,,,,,,,,,,0,0,0,0,0,0,0,0,0,0,0,0,0,0,0,0,,,,,,,,,,,,,
1384055,1745299873801,0.0,-23,,0.45,0.29,1.26,6,1,-0,1.37,1.37,100,11829,99.3,5.28,,13.94,0.968,97.0,,57.0,5,,,,,,,,,,,,0,0,0,0,0,0,0,0,0,0,0,0,0,0,0,0,,,,,,0.0,,,,,,,
1384075,1745299873821,,,,,,,,,,,,,,,,,,,,,,,6,0,35,36,7.0,0.0,0.0,0.0,2.25,,,0,0,0,0,0,0,0,0,0,0,0,0,0,0,0,0,,1,,,,,38.986019,-76.95002,9.04,50.1,34,3,0.8
1384095,1745299873841,0.0,-0,,0.51,0.36,1.16,7,1,0,1.32,1.37,96,11901,99.3,5.25,,13.94,0.968,97.0,,57.0,5,,,,,,,,,,,,0,0,0,0,0,0,0,0,0,0,0,0,0,0,0,0,,,,,,0.0,,,,,,,
1384115,1745299873861,,,,,,,,,,,,,,,,,,,,,,,,,,,,,,,,,,0,0,0,0,0,0,0,0,0,0,0,0,0,0,0,0,,,,,,,,,,,,,
1384135,1745299873881,0.0,3,,0.54,0.33,1.03,5,0,0,1.21,1.37,88,11901,99.3,5.25,,13.87,0.987,97.0,,60.1,5,,,,,,,,,,,,0,0,0,0,0,0,0,0,0,0,0,0,0,0,0,0,,,,,,0.0,,,,,,,
1384155,1745299873907,,,,,,,,,,,,,,,,,,,,,,,,,,,,,,,,,,0,0,0,0,0,0,0,0,0,0,0,0,0,0,0,0,,,,,,,,,,,,,
1384175,1745299873927,0.0,17,,0.58,0.21,0.98,6,0,-0,1.16,1.37,85,11974,99.2,5.23,,13.88,1.013,97.0,,60.1,5,7,0,37,36,7.0,191.0,50.0,0.0,2.25,,,0,0,0,0,0,0,0,0,0,0,0,0,0,0,0,0,,1,,,,0.0,38.986019,-76.950027,10.77,50.1,34,3,0.8
1384195,1745299873947,,,,,,,,,,,,,,,,,,,,,,,,,,,,,,,,,,0,0,0,0,0,0,0,0,0,0,0,0,0,0,0,0,,,,,,,,,,,,,
1384215,1745299873967,0.0,17,,0.59,0.21,1.03,6,0,-1,1.21,1.37,88,12251,99.3,5.14,,13.77,0.996,97.0,,60.1,5,,,,,,,,,,,,0,0,0,0,0,0,0,0,0,0,0,0,0,0,0,0,,,,,,0.0,,,,,,,
1384235,1745299873987,,,,,,,,,,,,,,,,,,,,,,,,,,,,,,,,,,0,0,0,0,0,0,0,0,0,0,0,0,0,0,0,0,,,,,,,,,,,,,
1384255,1745299873998,0.0,-0,,0.62,0.31,1.17,5,1,-0,1.36,1.37,100,12328,99.3,5.11,,13.75,0.997,97.0,,64.0,5,,,,,,,,,,,,0,0,0,0,0,0,0,0,0,0,0,0,0,0,0,0,,,,,,0.0,,,,,,,
1384275,1745299874018,,,,,,,,,,,,,,,,,,,,,,,9,0,37,37,7.0,107.0,50.0,0.0,2.25,,,0,0,0,0,0,0,0,0,0,0,0,0,0,0,0,0,,1,,,,,38.986023,-76.950027,13.98,50.1,34,3,0.8
1384295,1745299874038,0.0,-0,,0.59,0.43,1.17,5,1,-0,1.38,1.38,100,12103,99.2,5.19,,13.75,0.997,97.0,,64.0,5,,,,,,,,,,,,0,0,0,0,0,0,0,0,0,0,0,0,0,0,0,0,,,,,,0.0,,,,,,,
1384315,1745299874058,,,,,,,,,,,,,,,,,,,,,,,,,,,,,,,,,,0,0,0,0,0,0,0,0,0,0,0,0,0,0,0,0,,,,,,,,,,,,,
1384335,1745299874078,0.0,5,,0.62,0.48,1.14,3,0,-0,1.38,1.38,100,12103,99.2,5.19,,13.9,1.014,97.0,,55.7,5,,,,,,,,,,,,0,0,0,0,0,0,0,0,0,0,0,0,0,0,0,0,,,,,,0.0,,,,,,,
1384355,1745299874102,,,,,,,,,,,,,,,,,,,,,,,,,,,,,,,,,,0,0,0,0,0,0,0,0,0,0,0,0,0,0,0,0,,,,,,,,,,,,,
1384375,1745299874122,0.0,5,,0.64,0.44,1.06,3,0,-0,1.32,1.38,95,12100,99.3,5.18,,13.82,1.02,97.0,,55.7,5,11,0,38,37,7.0,12.0,50.0,0.0,2.24,,,0,0,0,0,0,0,0,0,0,0,0,0,0,0,0,0,,1,,,,0.0,38.986023,-76.950035,16.61,50.1,34,3,0.8
1384395,1745299874142,,,,,,,,,,,,,,,,,,,,,,,,,,,,,,,,,,0,0,0,0,0,0,0,0,0,0,0,0,0,0,0,0,,,,,,,,,,,,,
1384415,1745299874162,0.0,-4,,0.68,0.34,1.02,2,0,0,1.27,1.38,92,12096,99.3,5.19,,13.9,1.029,97.0,,55.7,5,,,,,,,,,,,,0,0,0,0,0,0,0,0,0,0,0,0,0,0,0,0,,,,,,0.0,,,,,,,
1384435,1745299874182,,,,,,,,,,,,,,,,,,,,,,,,,,,,,,,,,,0,0,0,0,0,0,0,0,0,0,0,0,0,0,0,0,,,,,,,,,,,,,
1384455,1745299874200,0.0,17,,0.67,0.07,1.09,1,0,0,1.28,1.38,93,12061,99.3,5.21,,13.9,1.018,97.0,,61.6,5,,,,,,,,,,,,0,0,0,0,0,0,0,0,0,0,0,0,0,0,0,0,,,,,,0.0,,,,,,,
1384475,1745299874220,,,,,,,,,,,,,,,,,,,,,,,13,0,36,36,7.0,148.0,50.0,0.0,2.25,,,0,0,0,0,0,0,0,0,0,0,0,0,0,0,0,0,,1,,,,,38.986027,-76.950043,19.66,50.1,34,3,0.8
1384495,1745299874240,0.0,17,,0.67,-0.25,1.09,1,0,1,1.3,1.38,94,12087,99.3,5.19,,13.9,1.018,97.0,,61.6,5,,,,,,,,,,,,0,0,0,0,0,0,0,0,0,0,0,0,0,0,0,0,,,,,,0.0,,,,,,,
1384515,1745299874260,,,,,,,,,,,,,,,,,,,,,,,,,,,,,,,,,,0,0,0,0,0,0,0,0,0,0,0,0,0,0,0,0,,,,,,,,,,,,,
1384535,1745299874280,0.0,-4,,0.7,-0.4,1.02,1,-0,1,1.3,1.38,94,12087,99.3,5.19,,13.88,0.999,97.0,,58.9,5,,,,,,,,,,,,0,0,0,0,0,0,0,0,0,0,0,0,0,0,0,0,,,,,,0.0,,,,,,,
1384555,1745299874306,,,,,,,,,,,,,,,,,,,,,,,,,,,,,,,,,,0,0,0,0,0,0,0,0,0,0,0,0,0,0,0,0,,,,,,,,,,,,,
1384575,1745299874326,0.0,28,13.13,0.77,-0.52,0.96,2,0,1,1.33,1.38,97,12038,99.2,5.19,15,13.86,0.994,97.0,180,58.9,5,15,0,37,36,7.0,40.0,50.0,0.0,2.25,0,1.0,0,0,0,0,0,0,0,0,0,0,0,0,0,0,0,0,0,1,1.0,0,0,0.0,38.986031,-76.95005,22.47,50.1,34,3,0.8
1384595,1745299874346,,,,,,,,,,,,,,,,,,,,,,,,,,,,,,,,,,0,0,0,0,0,0,0,0,0,0,0,0,0,0,0,0,,,,,,,,,,,,,
1384615,1745299874366,0.0,31,,0.78,-0.77,0.87,2,0,0,1.4,1.4,100,11892,99.2,5.26,,13.94,1.0,97.0,,58.9,5,,,,,,,,,,,,0,0,0,0,0,0,0,0,0,0,0,0,0,0,0,0,,,,,,0.0,,,,,,,
1384635,1745299874386,,,,,,,,,,,,,,,,,,,,,,,,,,,,,,,,,,0,0,0,0,0,0,0,0,0,0,0,0,0,0,0,0,,,,,,,,,,,,,
1384655,1745299874408,0.0,11,,0.8,-0.99,0.93,1,0,-1,1.58,1.58,100,11814,99.2,5.28,,13.91,1.0,97.0,,57.9,5,,,,,,,,,,,,0,0,0,0,0,0,0,0,0,0,0,0,0,0,0,0,,,,,,0.0,,,,,,,
1384675,1745299874428,,,,,,,,,,,,,,,,,,,,,,,16,0,35,37,7.0,214.0,50.0,0.0,2.24,,,0,0,0,0,0,0,0,0,0,0,0,0,0,0,0,0,,0,,,,,38.986031,-76.950058,25.97,50.1,34,3,0.8
1384695,1745299874448,0.0,36,,0.82,-0.8,0.97,2,0,-1,1.5,1.58,95,11603,99.3,5.36,,13.91,1.0,97.0,,57.9,5,,,,,,,,,,,,0,0,0,0,0,0,0,0,0,0,0,0,0,0,0,0,,,,,,0.0,,,,,,,
1384715,1745299874468,,,,,,,,,,,,,,,,,,,,,,,,,,,,,,,,,,0,0,0,0,0,0,0,0,0,0,0,0,0,0,0,0,,,,,,,,,,,,,
1384735,1745299874488,0.0,65,,0.86,-0.64,1.04,5,0,-0,1.5,1.58,95,11603,99.3,5.36,,13.92,1.013,97.0,,62.5,5,,,,,,,,,,,,0,0,0,0,0,0,0,0,0,0,0,0,0,0,0,0,,,,,,0.0,,,,,,,
1384755,1745299874504,,,,,,,,,,,,,,,,,,,,,,,,,,,,,,,,,,0,0,0,0,0,0,0,0,0,0,0,0,0,0,0,0,,,,,,,,,,,,,
1384775,1745299874524,0.0,36,,0.89,-0.54,1.04,9,0,-0,1.47,1.58,93,11648,99.2,5.34,,13.91,1.006,97.0,,62.5,5,19,0,35,35,7.0,183.0,50.0,0.0,2.26,,,0,0,0,0,0,0,0,0,0,0,0,0,0,0,0,0,,0,,,,0.0,38.986031,-76.950058,29.09,50.1,34,3,0.8
1384795,1745299874544,,,,,,,,,,,,,,,,,,,,,,,,,,,,,,,,,,0,0,0,0,0,0,0,0,0,0,0,0,0,0,0,0,,,,,,,,,,,,,
1384815,1745299874564,0.0,56,,0.94,-0.63,0.99,11,0,-0,1.5,1.58,95,11764,99.2,5.32,,13.88,0.96,97.0,,62.5,5,,,,,,,,,,,,0,0,0,0,0,0,0,0,0,0,0,0,0,0,0,0,,,,,,0.0,,,,,,,
1384835,1745299874584,,,,,,,,,,,,,,,,,,,,,,,,,,,,,,,,,,0,0,0,0,0,0,0,0,0,0,0,0,0,0,0,0,,,,,,,,,,,,,
1384855,1745299874604,0.0,48,,0.96,-0.55,1.01,12,0,1,1.49,1.58,95,11718,99.2,5.32,,13.96,0.957,97.0,,54.2,5,,,,,,,,,,,,0,0,0,0,0,0,0,0,0,0,0,0,0,0,0,0,,,,,,0.0,,,,,,,
1384875,1745299874624,,,,,,,,,,,,,,,,,,,,,,,22,0,35,35,7.0,219.0,50.0,0.0,2.26,,,0,0,0,0,0,0,0,0,0,0,0,0,0,0,0,0,,1,,,,,38.986034,-76.950066,32.67,50.1,34,3,0.8
1384895,1745299874644,0.0,70,,0.92,-0.49,0.91,13,1,0,1.38,1.58,88,11506,99.0,5.4,,13.96,0.957,97.0,,54.2,5,,,,,,,,,,,,0,0,0,0,0,0,0,0,0,0,0,0,0,0,0,0,,,,,,0.0,,,,,,,
1384915,1745299874664,,,,,,,,,,,,,,,,,,,,,,,,,,,,,,,,,,0,0,0,0,0,0,0,0,0,0,0,0,0,0,0,0,,,,,,,,,,,,,
1384935,1745299874684,0.0,53,,0.86,-0.37,0.9,12,1,0,1.3,1.58,83,11506,99.0,5.4,,13.9,0.952,97.0,,60.5,5,,,,,,,,,,,,0,0,0,0,0,0,0,0,0,0,0,0,0,0,0,0,,,,,,0.0,,,,,,,
1384955,1745299874704,,,,,,,,,,,,,,,,,,,,,,,,,,,,,,,,,,0,0,0,0,0,0,0,0,0,0,0,0,0,0,0,0,,,,,,,,,,,,,
1384975,1745299874724,0.0,68,,0.87,-0.44,0.91,10,0,0,1.34,1.58,85,11430,98.8,5.44,,14.11,0.943,95.2,,60.5,5,22,0,36,35,7.0,19.0,45.0,0.0,2.26,,,0,0,0,0,0,0,0,0,0,0,0,0,0,0,0,0,,1,,,,0.0,38.986038,-76.950081,35.57,50.0,34,3,0.8
1384995,1745299874744,,,,,,,,,,,,,,,,,,,,,,,,,,,,,,,,,,0,0,0,0,0,0,0,0,0,0,0,0,0,0,0,0,,,,,,,,,,,,,
1385015,1745299874764,0.0,51,,0.87,-0.38,1.05,11,-1,-1,1.42,1.58,90,11392,98.8,5.43,,13.88,0.933,95.2,,60.5,5,,,,,,,,,,,,0,0,0,0,0,0,0,0,0,0,0,0,0,0,0,0,,,,,,0.0,,,,,,,
1385035,1745299874784,,,,,,,,,,,,,,,,,,,,,,,,,,,,,,,,,,0,0,0,0,0,0,0,0,0,0,0,0,0,0,0,0,,,,,,,,,,,,,
1385055,1745299874804,0.0,51,,0.91,-0.33,0.99,12,-2,-2,1.39,1.58,88,11289,98.9,5.47,,13.92,0.928,95.2,,52.8,5,,,,,,,,,,,,0,0,0,0,0,0,0,0,0,0,0,0,0,0,0,0,,,,,,0.0,,,,,,,
1385075,1745299874824,,,,,,,,,,,,,,,,,,,,,,,25,0,35,34,7.0,52.0,32.0,0.0,2.26,,,0,0,0,0,0,0,0,0,0,0,0,0,0,0,0,0,,1,,,,,38.986042,-76.950096,39.84,50.0,34,3,0.8
1385095,1745299874844,0.0,93,,0.95,-0.37,0.88,15,-3,-2,1.34,1.58,85,11372,98.9,5.46,,13.92,0.928,95.2,,52.8,5,,,,,,,,,,,,0,0,0,0,0,0,0,0,0,0,0,0,0,0,0,0,,,,,,0.0,,,,,,,
1385115,1745299874864,,,,,,,,,,,,,,,,,,,,,,,,,,,,,,,,,,0,0,0,0,0,0,0,0,0,0,0,0,0,0,0,0,,,,,,,,,,,,,
1385135,1745299874884,0.0,76,,0.9,-0.25,0.97,16,-2,-1,1.35,1.58,85,11372,98.9,5.46,,13.87,0.928,95.2,,58.3,5,,,,,,,,,,,,0,0,0,0,0,0,0,0,0,0,0,0,0,0,0,0,,,,,,0.0,,,,,,,
1385155,1745299874910,,,,,,,,,,,,,,,,,,,,,,,,,,,,,,,,,,0,0,0,0,0,0,0,0,0,0,0,0,0,0,0,0,,,,,,,,,,,,,
1385175,1745299874930,0.0,99,,0.86,-0.3,0.95,17,-1,-1,1.31,1.58,83,11712,92.1,5.76,,13.94,0.923,95.2,,58.3,5,28,0,35,34,7.0,21.0,17.0,0.0,2.27,,,0,0,0,0,0,0,0,0,0,0,0,0,0,0,0,0,,1,,,,0.0,38.986046,-76.950104,44.21,50.0,34,3,0.8
1385195,1745299874950,,,,,,,,,,,,,,,,,,,,,,,,,,,,,,,,,,0,0,0,0,0,0,0,0,0,0,0,0,0,0,0,0,,,,,,,,,,,,,
1385215,1745299874970,0.0,119,,0.87,-0.33,1.0,15,-0,-1,1.37,1.58,87,11746,63.5,4.2,,13.43,0.915,95.2,,58.3,5,,,,,,,,,,,,0,0,0,0,0,0,0,0,0,0,0,0,0,0,0,0,,,,,,0.0,,,,,,,
1385235,1745299874990,,,,,,,,,,,,,,,,,,,,,,,,,,,,,,,,,,0,0,0,0,0,0,0,0,0,0,0,0,0,0,0,0,,,,,,,,,,,,,
1385255,1745299874999,0.0,133,,0.91,-0.3,1.03,12,-0,-1,1.4,1.58,89,11037,55.8,4.13,,13.44,0.946,95.2,,52.1,5,,,,,,,,,,,,0,0,0,0,0,0,0,0,0,0,0,0,0,0,0,0,,,,,,0.0,,,,,,,
1385275,1745299875019,,,,,,,,,,,,,,,,,,,,,,,29,0,34,35,7.0,143.0,5.0,0.0,2.27,,,0,0,0,0,0,0,0,0,0,0,0,0,0,0,0,0,,0,,,,,38.98605,-76.950119,44.93,50.0,33,3,0.8
1385295,1745299875039,0.0,124,,0.88,-0.14,1.01,10,-1,-1,1.35,1.58,85,10399,55.2,4.89,,13.44,0.946,95.2,,52.1,5,,,,,,,,,,,,0,0,0,0,0,0,0,0,0,0,0,0,0,0,0,0,,,,,,0.0,,,,,,,
