"Interval"|"ms"|0|0|1,"Utc"|"ms"|0|0|1,"FrontBP"|"psi"|-5.0|5.0|25,"SteerAng"|"Degrees"|-145.0|145.0|25,"Battery"|"Volts"|-5.0|20.0|1,"AccelX"|"G"|-3.0|3.0|25,"AccelY"|"G"|-3.0|3.0|25,"AccelZ"|"G"|-3.0|3.0|25,"Yaw"|"Deg/Sec"|-120|120|25,"Pitch"|"Deg/Sec"|-120|120|25,"Roll"|"Deg/Sec"|-120|120|25,"Gsum"|"G"|0.0|3.0|25,"GsumMax"|"G"|0.0|3.0|25,"GsumPct"|"%"|0|100|25,"RPM"|""|0|10000|25,"TPS"|"%"|0.0|100.0|25,"InjectorPW"|"ms"|0.0|100.0|25,"Baro"|"kPa"|0|105|1,"MAP"|"Psi"|0.0|255.0|25,"Lambda"|""|-2.0|2.0|25,"IAT"|"C"|0.0|200.0|25,"EngineTemp"|"C"|0|200|1,"EOP"|"PSI"|0.0|152.0|25,"EOT"|"F"|0|250|25,"WSFR"|"MPH"|0|150|10,"WSFL"|"MPH"|0|100|10,"WSRR"|"MPH"|0|100|10,"WSRL"|""|0|100|10,"TCSet"|"%"|0.0|100.0|10,"TCSlip"|"%"|0.0|100.0|10,"TCComp"|"deg"|0.0|50.0|10,"TCCut"|"%"|0.0|100.0|10,"Analog8"|""|0.0|5.0|10,"OilTemp"|"F"|0|300|1,"AA_On"|""|0.0|1.0|1,"ThermLF1"|"C"|0|400|50,"ThermLF2"|"C"|0|400|50,"ThermRR1"|"C"|0|400|50,"ThermRR2"|"C"|0|400|50,"ThermLF3"|"C"|0|400|50,"ThermLF4"|"C"|0|400|50,"ThermLF5"|"C"|0|400|50,"ThermLF6"|"C"|0|400|50,"ThermLF7"|"C"|0|400|50,"ThermLF8"|"C"|0|400|50,"ThermRR3"|"C"|0|400|50,"ThermRR4"|"C"|0|400|50,"ThermRR5"|"C"|0|400|50,"ThermRR6"|"C"|0|400|50,"ThermRR7"|"C"|0|400|50,"ThermRR8"|"C"|0|400|50,"Gear"|""|1|6|10,"AA_On"|""|0.0|1.0|1,"AA_LowDrag"|""|0|1|1,"Fuel_Mix"|""|-10|10|1,"AA_Packages"|""|0.0|1000.0|25,"Latitude"|"Degrees"|-180.0|180.0|10,"Longitude"|"Degrees"|-180.0|180.0|10,"Speed"|"kph"|0.0|150.0|10,"GPSSats"|""|0|20|10,"GPSQual"|""|0|5|10,"GPSDOP"|""|0.0|20.0|10
9754,0,,,,,,,,,,,,,,,,,,,,,,,,,,,,,,,,,,0,0,0,0,0,0,0,0,0,0,0,0,0,0,0,0,,,,,,,,,,,
9774,0,0.0,180.24,,-0.08,0.01,0.92,1,-0,-0,0.92,0.92,100,3311,2.6,3.55,,12.99,1.251,102.4,,34.0,5,,,,,,,,,,,,0,0,0,0,0,0,0,0,0,0,0,0,0,0,0,0,,,,,0.0,,,,,,
9794,0,,,,,,,,,,,,,,,,,,,,,,,,,,,,,,,,,,0,0,0,0,0,0,0,0,0,0,0,0,0,0,0,0,,,,,,,,,,,
9814,0,0.0,180.37,,-0.07,0.02,0.98,0,-0,0,0.99,0.99,100,3307,2.9,3.58,,12.87,1.252,102.4,,34.5,5,,,,,,,,,,,,0,0,0,0,0,0,0,0,0,0,0,0,0,0,0,0,,,,,0.0,,,,,,
9834,0,,,,,,,,,,,,,,,,,,,,,,,0,0,0,0,0.0,0.0,0.0,0.0,2.26,,,0,0,0,0,0,0,0,0,0,0,0,0,0,0,0,0,0,,,,,0.0,0.0,0.0,0,0,0.0
9854,0,0.0,180.37,,-0.1,-0.07,1.01,1,-0,-0,1.02,1.02,100,3225,3.0,3.74,,12.87,1.252,102.4,,34.5,5,,,,,,,,,,,,0,0,0,0,0,0,0,0,0,0,0,0,0,0,0,0,,,,,0.0,,,,,,
9874,0,,,,,,,,,,,,,,,,,,,,,,,,,,,,,,,,,,0,0,0,0,0,0,0,0,0,0,0,0,0,0,0,0,,,,,,,,,,,
9894,0,0.0,180.37,,-0.08,0.01,0.92,1,-0,-0,0.92,1.02,91,3225,3.0,3.74,,12.85,1.251,102.4,,33.9,5,,,,,,,,,,,,0,0,0,0,0,0,0,0,0,0,0,0,0,0,0,0,,,,,0.0,,,,,,
9914,0,,,,,,,,,,,,,,,,,,,,,,,,,,,,,,,,,,0,0,0,0,0,0,0,0,0,0,0,0,0,0,0,0,,,,,,,,,,,
9934,0,0.0,180.24,,-0.05,0.05,0.97,0,-0,0,0.97,1.02,95,3202,3.0,3.74,,12.85,1.251,102.4,,33.9,5,0,0,0,0,0.0,0.0,0.0,0.0,2.27,,,0,0,0,0,0,0,0,0,0,0,0,0,0,0,0,0,0,,,,0.0,0.0,0.0,0.0,0,0,0.0
9954,0,,,,,,,,,,,,,,,,,,,,,,,,,,,,,,,,,,0,0,0,0,0,0,0,0,0,0,0,0,0,0,0,0,,,,,,,,,,,
9974,0,0.0,180.24,,-0.07,-0.05,1.02,0,-0,0,1.03,1.03,100,3257,3.0,3.75,,12.81,1.246,102.4,,33.9,5,,,,,,,,,,,,0,0,0,0,0,0,0,0,0,0,0,0,0,0,0,0,,,,,0.0,,,,,,
9994,0,,,,,,,,,,,,,,,,,,,,,,,,,,,,,,,,,,0,0,0,0,0,0,0,0,0,0,0,0,0,0,0,0,,,,,,,,,,,
10014,0,0.0,180.24,,-0.09,-0.04,0.95,1,-0,-0,0.96,1.03,93,3177,2.7,3.66,,12.75,1.226,102.4,,33.3,5,,,,,,,,,,,,0,0,0,0,0,0,0,0,0,0,0,0,0,0,0,0,,,,,0.0,,,,,,
10034,0,,,,,,,,,,,,,,,,,,,,,,,0,0,0,0,0.0,0.0,0.0,0.0,2.28,,,0,0,0,0,0,0,0,0,0,0,0,0,0,0,0,0,0,,,,,0.0,0.0,0.0,0,0,0.0
10054,0,0.0,180.24,,-0.05,0.06,0.93,0,-0,0,0.93,1.03,91,3189,2.5,3.71,,12.75,1.226,100.6,,33.3,5,,,,,,,,,,,,0,0,0,0,0,0,0,0,0,0,0,0,0,0,0,0,,,,,0.0,,,,,,
10074,0,,,,,,,,,,,,,,,,,,,,,,,,,,,,,,,,,,0,0,0,0,0,0,0,0,0,0,0,0,0,0,0,0,,,,,,,,,,,
10094,0,0.0,180.24,,-0.05,0.03,1.01,-0,-0,0,1.01,1.03,98,3189,2.5,3.71,,12.77,1.244,100.6,,33.0,5,,,,,,,,,,,,0,0,0,0,0,0,0,0,0,0,0,0,0,0,0,0,,,,,0.0,,,,,,
10114,0,,,,,,,,,,,,,,,,,,,,,,,,,,,,,,,,,,0,0,0,0,0,0,0,0,0,0,0,0,0,0,0,0,,,,,,,,,,,
10134,0,0.0,180.24,13.41,-0.09,-0.09,1.04,1,-0,-0,1.05,1.05,100,3216,2.5,3.68,15,12.77,1.227,100.6,176,33.0,5,0,0,0,0,0.0,0.0,0.0,0.0,2.28,0,0.0,0,0,0,0,0,0,0,0,0,0,0,0,0,0,0,0,0,0.0,0,-0,0.0,0.0,0.0,0.0,0,0,0.0
10154,0,,,,,,,,,,,,,,,,,,,,,,,,,,,,,,,,,,0,0,0,0,0,0,0,0,0,0,0,0,0,0,0,0,,,,,,,,,,,
10174,0,0.0,180.24,,-0.09,-0.05,0.97,1,-0,-1,0.97,1.05,92,3144,2.5,3.62,,12.77,1.209,100.6,,33.0,5,,,,,,,,,,,,0,0,0,0,0,0,0,0,0,0,0,0,0,0,0,0,,,,,0.0,,,,,,
10194,0,,,,,,,,,,,,,,,,,,,,,,,,,,,,,,,,,,0,0,0,0,0,0,0,0,0,0,0,0,0,0,0,0,,,,,,,,,,,
10214,0,0.0,180.37,,-0.04,0.07,0.91,1,-0,0,0.91,1.05,87,3155,2.6,3.64,,12.85,1.202,100.6,,32.8,5,,,,,,,,,,,,0,0,0,0,0,0,0,0,0,0,0,0,0,0,0,0,,,,,0.0,,,,,,
10234,0,,,,,,,,,,,,,,,,,,,,,,,0,0,0,0,0.0,0.0,0.0,0.0,2.27,,,0,0,0,0,0,0,0,0,0,0,0,0,0,0,0,0,0,,,,,0.0,0.0,0.0,0,0,0.0
10254,0,0.0,180.37,,-0.02,0.07,0.99,-0,-0,1,0.99,1.05,94,3174,2.8,3.64,,12.85,1.202,100.6,,32.8,5,,,,,,,,,,,,0,0,0,0,0,0,0,0,0,0,0,0,0,0,0,0,,,,,0.0,,,,,,
10274,0,,,,,,,,,,,,,,,,,,,,,,,,,,,,,,,,,,0,0,0,0,0,0,0,0,0,0,0,0,0,0,0,0,,,,,,,,,,,
10294,0,0.0,180.37,,-0.06,-0.05,1.08,-0,-0,0,1.08,1.08,100,3174,2.8,3.64,,12.79,1.217,100.6,,32.2,5,,,,,,,,,,,,0,0,0,0,0,0,0,0,0,0,0,0,0,0,0,0,,,,,0.0,,,,,,
10314,0,,,,,,,,,,,,,,,,,,,,,,,,,,,,,,,,,,0,0,0,0,0,0,0,0,0,0,0,0,0,0,0,0,,,,,,,,,,,
10334,0,0.0,180.37,,-0.09,-0.12,1.12,0,-0,-0,1.13,1.13,100,3073,3.0,3.77,,12.81,1.209,100.6,,32.2,5,0,0,0,0,0.0,0.0,0.0,0.0,2.27,,,0,0,0,0,0,0,0,0,0,0,0,0,0,0,0,0,0,,,,0.0,0.0,0.0,0.0,0,0,0.0
10354,0,,,,,,,,,,,,,,,,,,,,,,,,,,,,,,,,,,0,0,0,0,0,0,0,0,0,0,0,0,0,0,0,0,,,,,,,,,,,
10374,0,0.0,180.37,,-0.12,-0.13,1.11,1,-0,-1,1.13,1.13,99,3030,3.1,3.74,,12.85,1.205,100.6,,32.2,5,,,,,,,,,,,,0,0,0,0,0,0,0,0,0,0,0,0,0,0,0,0,,,,,0.0,,,,,,
10394,0,,,,,,,,,,,,,,,,,,,,,,,,,,,,,,,,,,0,0,0,0,0,0,0,0,0,0,0,0,0,0,0,0,,,,,,,,,,,
10414,0,0.0,180.37,,-0.14,-0.13,1.08,1,-0,-1,1.09,1.13,96,3062,3.1,3.83,,12.87,1.208,100.6,,31.8,5,,,,,,,,,,,,0,0,0,0,0,0,0,0,0,0,0,0,0,0,0,0,,,,,0.0,,,,,,
10434,0,,,,,,,,,,,,,,,,,,,,,,,0,0,0,0,0.0,0.0,0.0,0.0,2.27,,,0,0,0,0,0,0,0,0,0,0,0,0,0,0,0,0,0,,,,,0.0,0.0,0.0,0,0,0.0
10454,0,0.0,180.37,,-0.15,-0.09,1.02,2,-0,-1,1.04,1.13,92,3053,2.8,3.82,,12.87,1.208,100.6,,31.8,5,,,,,,,,,,,,0,0,0,0,0,0,0,0,0,0,0,0,0,0,0,0,,,,,0.0,,,,,,
10474,0,,,,,,,,,,,,,,,,,,,,,,,,,,,,,,,,,,0,0,0,0,0,0,0,0,0,0,0,0,0,0,0,0,,,,,,,,,,,
10494,0,0.0,180.49,,-0.15,-0.02,0.96,2,-0,-1,0.97,1.13,86,3053,2.8,3.82,,12.91,1.194,100.6,,31.4,5,,,,,,,,,,,,0,0,0,0,0,0,0,0,0,0,0,0,0,0,0,0,,,,,0.0,,,,,,
10514,0,,,,,,,,,,,,,,,,,,,,,,,,,,,,,,,,,,0,0,0,0,0,0,0,0,0,0,0,0,0,0,0,0,,,,,,,,,,,
10534,0,0.0,180.49,,-0.14,0.05,0.9,2,-0,-1,0.91,1.13,80,2993,2.6,3.71,,12.91,1.189,100.6,,31.4,5,0,0,0,0,0.0,0.0,0.0,0.0,2.28,,,0,0,0,0,0,0,0,0,0,0,0,0,0,0,0,0,0,,,,0.0,0.0,0.0,0.0,0,0,0.0
10554,0,,,,,,,,,,,,,,,,,,,,,,,,,,,,,,,,,,0,0,0,0,0,0,0,0,0,0,0,0,0,0,0,0,,,,,,,,,,,
10574,0,0.0,180.49,,-0.12,0.1,0.83,1,-0,-1,0.85,1.13,74,3013,2.5,3.78,,12.96,1.179,100.6,,31.4,5,,,,,,,,,,,,0,0,0,0,0,0,0,0,0,0,0,0,0,0,0,0,,,,,0.0,,,,,,
10594,0,,,,,,,,,,,,,,,,,,,,,,,,,,,,,,,,,,0,0,0,0,0,0,0,0,0,0,0,0,0,0,0,0,,,,,,,,,,,
10614,0,0.0,180.49,,-0.1,0.14,0.77,1,-0,-1,0.79,1.13,69,3041,2.5,3.72,,12.97,1.19,100.6,,31.1,5,,,,,,,,,,,,0,0,0,0,0,0,0,0,0,0,0,0,0,0,0,0,,,,,0.0,,,,,,
10634,0,,,,,,,,,,,,,,,,,,,,,,,0,0,0,0,0.0,0.0,0.0,0.0,2.28,,,0,0,0,0,0,0,0,0,0,0,0,0,0,0,0,0,0,,,,,0.0,0.0,0.0,0,0,0.0
10654,0,0.0,180.49,,-0.07,0.16,0.71,1,-0,-1,0.73,1.13,64,3051,2.6,3.71,,12.97,1.19,100.6,,31.1,5,,,,,,,,,,,,0,0,0,0,0,0,0,0,0,0,0,0,0,0,0,0,,,,,0.0,,,,,,
10674,0,,,,,,,,,,,,,,,,,,,,,,,,,,,,,,,,,,0,0,0,0,0,0,0,0,0,0,0,0,0,0,0,0,,,,,,,,,,,
10694,0,0.0,180.49,,-0.04,0.17,0.66,1,-0,-1,0.68,1.13,60,3051,2.6,3.71,,12.95,1.189,100.6,,31.3,5,,,,,,,,,,,,0,0,0,0,0,0,0,0,0,0,0,0,0,0,0,0,,,,,0.0,,,,,,
10714,0,,,,,,,,,,,,,,,,,,,,,,,,,,,,,,,,,,0,0,0,0,0,0,0,0,0,0,0,0,0,0,0,0,,,,,,,,,,,
10734,0,0.0,180.49,,-0.02,0.17,0.62,1,-0,-1,0.65,1.13,57,2983,2.7,3.75,,12.96,1.18,100.6,,31.3,5,0,0,0,0,0.0,0.0,0.0,0.0,2.27,,,0,0,0,0,0,0,0,0,0,0,0,0,0,0,0,0,0,,,,0.0,0.0,0.0,0.0,0,0,0.0
10754,0,,,,,,,,,,,,,,,,,,,,,,,,,,,,,,,,,,0,0,0,0,0,0,0,0,0,0,0,0,0,0,0,0,,,,,,,,,,,
10774,0,0.0,180.49,,0.01,0.16,0.6,1,-0,-1,0.62,1.13,55,2992,3.0,3.69,,13.01,1.178,100.6,,31.3,5,,,,,,,,,,,,0,0,0,0,0,0,0,0,0,0,0,0,0,0,0,0,,,,,0.0,,,,,,
10794,0,,,,,,,,,,,,,,,,,,,,,,,,,,,,,,,,,,0,0,0,0,0,0,0,0,0,0,0,0,0,0,0,0,,,,,,,,,,,
10814,0,0.0,180.49,,0.03,0.17,0.57,1,-0,-0,0.6,1.13,53,3036,2.9,3.82,,12.97,1.183,100.6,,30.1,5,,,,,,,,,,,,0,0,0,0,0,0,0,0,0,0,0,0,0,0,0,0,,,,,0.0,,,,,,
10834,0,,,,,,,,,,,,,,,,,,,,,,,0,0,0,0,0.0,0.0,0.0,0.0,2.27,,,0,0,0,0,0,0,0,0,0,0,0,0,0,0,0,0,0,,,,,0.0,0.0,0.0,0,0,0.0
10854,0,0.0,180.49,,0.05,0.17,0.55,0,-0,-0,0.58,1.13,51,2965,2.7,3.75,,12.97,1.183,100.6,,30.1,5,,,,,,,,,,,,0,0,0,0,0,0,0,0,0,0,0,0,0,0,0,0,,,,,0.0,,,,,,
10874,0,,,,,,,,,,,,,,,,,,,,,,,,,,,,,,,,,,0,0,0,0,0,0,0,0,0,0,0,0,0,0,0,0,,,,,,,,,,,
10894,0,0.0,180.49,,0.06,0.17,0.53,0,-0,-0,0.56,1.13,50,2965,2.7,3.75,,12.97,1.188,100.6,,31.0,5,,,,,,,,,,,,0,0,0,0,0,0,0,0,0,0,0,0,0,0,0,0,,,,,0.0,,,,,,
10914,0,,,,,,,,,,,,,,,,,,,,,,,,,,,,,,,,,,0,0,0,0,0,0,0,0,0,0,0,0,0,0,0,0,,,,,,,,,,,
10934,0,0.0,180.49,,0.07,0.19,0.5,0,-0,-0,0.54,1.13,48,2933,2.5,3.83,,13.01,1.179,100.6,,31.0,5,0,0,0,0,0.0,0.0,0.0,0.0,2.27,,,0,0,0,0,0,0,0,0,0,0,0,0,0,0,0,0,0,,,,0.0,0.0,0.0,0.0,0,0,0.0
10954,0,,,,,,,,,,,,,,,,,,,,,,,,,,,,,,,,,,0,0,0,0,0,0,0,0,0,0,0,0,0,0,0,0,,,,,,,,,,,
10974,0,0.0,180.49,,0.09,0.23,0.5,-0,-1,-0,0.56,1.13,49,3180,2.5,3.71,,12.99,1.199,100.6,,31.0,5,,,,,,,,,,,,0,0,0,0,0,0,0,0,0,0,0,0,0,0,0,0,,,,,0.0,,,,,,
10994,0,,,,,,,,,,,,,,,,,,,,,,,,,,,,,,,,,,0,0,0,0,0,0,0,0,0,0,0,0,0,0,0,0,,,,,,,,,,,
11014,0,0.0,180.49,,0.07,0.18,0.63,-1,-1,0,0.66,1.13,58,3166,2.5,3.62,,12.99,1.199,100.6,,32.1,5,,,,,,,,,,,,0,0,0,0,0,0,0,0,0,0,0,0,0,0,0,0,,,,,0.0,,,,,,
11034,0,,,,,,,,,,,,,,,,,,,,,,,0,0,0,0,0.0,0.0,0.0,0.0,2.28,,,0,0,0,0,0,0,0,0,0,0,0,0,0,0,0,0,0,,,,,0.0,0.0,0.0,0,0,0.0
11054,0,0.0,180.49,,0.02,0.03,0.74,-0,-0,0,0.74,1.13,65,3166,2.5,3.62,,12.92,1.228,100.6,,32.1,5,,,,,,,,,,,,0,0,0,0,0,0,0,0,0,0,0,0,0,0,0,0,,,,,0.0,,,,,,
11074,0,,,,,,,,,,,,,,,,,,,,,,,,,,,,,,,,,,0,0,0,0,0,0,0,0,0,0,0,0,0,0,0,0,,,,,,,,,,,
11094,0,0.0,180.49,,-0.0,0.01,0.69,1,-0,-1,0.69,1.13,61,3159,2.6,3.64,,12.87,1.167,100.6,,33.0,5,,,,,,,,,,,,0,0,0,0,0,0,0,0,0,0,0,0,0,0,0,0,,,,,0.0,,,,,,
11114,0,,,,,,,,,,,,,,,,,,,,,,,,,,,,,,,,,,0,0,0,0,0,0,0,0,0,0,0,0,0,0,0,0,,,,,,,,,,,
11134,0,0.0,180.49,13.48,0.03,0.11,0.64,1,-0,-0,0.65,1.13,57,3182,2.7,3.7,15,12.84,1.132,100.6,176,33.0,5,0,0,0,0,0.0,0.0,0.0,0.0,2.26,0,0.0,0,0,0,0,0,0,0,0,0,0,0,0,0,0,0,0,0,0.0,0,-0,0.0,0.0,0.0,0.0,0,0,0.0
11154,0,,,,,,,,,,,,,,,,,,,,,,,,,,,,,,,,,,0,0,0,0,0,0,0,0,0,0,0,0,0,0,0,0,,,,,,,,,,,
11174,0,0.0,180.49,,0.04,0.14,0.73,-0,-0,0,0.74,1.13,66,3175,3.1,3.66,,12.83,1.121,100.6,,33.0,5,,,,,,,,,,,,0,0,0,0,0,0,0,0,0,0,0,0,0,0,0,0,,,,,0.0,,,,,,
11194,0,,,,,,,,,,,,,,,,,,,,,,,,,,,,,,,,,,0,0,0,0,0,0,0,0,0,0,0,0,0,0,0,0,,,,,,,,,,,
11214,0,0.0,180.62,,0.02,0.05,0.85,-1,-0,1,0.85,1.13,75,3114,3.0,3.71,,12.83,1.121,100.6,,32.8,5,,,,,,,,,,,,0,0,0,0,0,0,0,0,0,0,0,0,0,0,0,0,,,,,0.0,,,,,,
11234,0,,,,,,,,,,,,,,,,,,,,,,,0,0,0,0,0.0,0.0,0.0,0.0,2.27,,,0,0,0,0,0,0,0,0,0,0,0,0,0,0,0,0,0,,,,,0.0,0.0,0.0,0,0,0.0
11254,0,0.0,180.62,,-0.02,-0.07,0.93,-0,-0,0,0.93,1.13,82,3114,3.0,3.71,,12.87,1.128,100.6,,32.8,5,,,,,,,,,,,,0,0,0,0,0,0,0,0,0,0,0,0,0,0,0,0,,,,,0.0,,,,,,
11274,0,,,,,,,,,,,,,,,,,,,,,,,,,,,,,,,,,,0,0,0,0,0,0,0,0,0,0,0,0,0,0,0,0,,,,,,,,,,,
11294,0,0.0,180.62,,-0.05,-0.08,0.93,0,-0,-0,0.94,1.13,82,3119,3.0,3.8,,12.88,1.142,100.6,,31.6,5,,,,,,,,,,,,0,0,0,0,0,0,0,0,0,0,0,0,0,0,0,0,,,,,0.0,,,,,,
11314,0,,,,,,,,,,,,,,,,,,,,,,,,,,,,,,,,,,0,0,0,0,0,0,0,0,0,0,0,0,0,0,0,0,,,,,,,,,,,
11334,0,0.0,180.62,,-0.06,-0.04,0.87,1,-0,-1,0.87,1.13,77,3113,2.9,3.8,,12.87,1.147,100.6,,31.6,5,0,0,0,0,0.0,0.0,0.0,0.0,2.27,,,0,0,0,0,0,0,0,0,0,0,0,0,0,0,0,0,0,,,,0.0,0.0,0.0,0.0,0,0,0.0
11354,0,,,,,,,,,,,,,,,,,,,,,,,,,,,,,,,,,,0,0,0,0,0,0,0,0,0,0,0,0,0,0,0,0,,,,,,,,,,,
11374,0,0.0,180.62,,-0.04,0.03,0.8,1,-0,-1,0.8,1.13,70,3051,2.7,3.71,,12.88,1.153,100.6,,31.6,5,,,,,,,,,,,,0,0,0,0,0,0,0,0,0,0,0,0,0,0,0,0,,,,,0.0,,,,,,
11394,0,,,,,,,,,,,,,,,,,,,,,,,,,,,,,,,,,,0,0,0,0,0,0,0,0,0,0,0,0,0,0,0,0,,,,,,,,,,,
11414,0,0.0,180.49,,-0.01,0.08,0.76,1,-0,-0,0.77,1.13,68,3071,2.5,3.79,,12.88,1.153,100.6,,32.1,5,,,,,,,,,,,,0,0,0,0,0,0,0,0,0,0,0,0,0,0,0,0,,,,,0.0,,,,,,
11434,0,,,,,,,,,,,,,,,,,,,,,,,0,0,0,0,0.0,0.0,0.0,0.0,2.28,,,0,0,0,0,0,0,0,0,0,0,0,0,0,0,0,0,0,,,,,0.0,0.0,0.0,0,0,0.0
11454,0,0.0,180.49,,0.0,0.11,0.77,-0,-0,0,0.78,1.13,69,3071,2.5,3.79,,12.92,1.165,100.6,,32.1,5,,,,,,,,,,,,0,0,0,0,0,0,0,0,0,0,0,0,0,0,0,0,,,,,0.0,,,,,,
11474,0,,,,,,,,,,,,,,,,,,,,,,,,,,,,,,,,,,0,0,0,0,0,0,0,0,0,0,0,0,0,0,0,0,,,,,,,,,,,
11494,0,0.0,180.49,,0.02,0.11,0.8,-0,-0,1,0.81,1.13,71,3080,2.5,3.68,,12.85,1.172,100.6,,31.3,5,,,,,,,,,,,,0,0,0,0,0,0,0,0,0,0,0,0,0,0,0,0,,,,,0.0,,,,,,
11514,0,,,,,,,,,,,,,,,,,,,,,,,,,,,,,,,,,,0,0,0,0,0,0,0,0,0,0,0,0,0,0,0,0,,,,,,,,,,,
11534,0,0.0,180.49,,0.02,0.11,0.86,-0,-0,1,0.87,1.13,77,3068,2.5,3.81,,12.91,1.172,100.6,,31.3,5,0,0,0,0,0.0,0.0,0.0,0.0,2.28,,,0,0,0,0,0,0,0,0,0,0,0,0,0,0,0,0,0,,,,0.0,0.0,0.0,0.0,0,0,0.0
11554,0,,,,,,,,,,,,,,,,,,,,,,,,,,,,,,,,,,0,0,0,0,0,0,0,0,0,0,0,0,0,0,0,0,,,,,,,,,,,
11574,0,0.0,180.49,,0.02,0.09,0.91,-1,-0,1,0.91,1.13,80,3017,2.7,3.68,,12.96,1.176,100.6,,31.3,5,,,,,,,,,,,,0,0,0,0,0,0,0,0,0,0,0,0,0,0,0,0,,,,,0.0,,,,,,
11594,0,,,,,,,,,,,,,,,,,,,,,,,,,,,,,,,,,,0,0,0,0,0,0,0,0,0,0,0,0,0,0,0,0,,,,,,,,,,,
11614,0,0.0,180.49,,0.01,0.09,0.97,-1,-0,1,0.97,1.13,86,3056,3.0,3.82,,12.96,1.176,100.6,,31.6,5,,,,,,,,,,,,0,0,0,0,0,0,0,0,0,0,0,0,0,0,0,0,,,,,0.0,,,,,,
11634,0,,,,,,,,,,,,,,,,,,,,,,,0,0,0,0,0.0,0.0,0.0,0.0,2.27,,,0,0,0,0,0,0,0,0,0,0,0,0,0,0,0,0,0,,,,,0.0,0.0,0.0,0,0,0.0
11654,0,0.0,180.49,,0.01,0.09,1.03,-1,-0,1,1.04,1.13,91,3056,3.0,3.82,,12.99,1.169,100.6,,31.6,5,,,,,,,,,,,,0,0,0,0,0,0,0,0,0,0,0,0,0,0,0,0,,,,,0.0,,,,,,
11674,0,,,,,,,,,,,,,,,,,,,,,,,,,,,,,,,,,,0,0,0,0,0,0,0,0,0,0,0,0,0,0,0,0,,,,,,,,,,,
11694,0,0.0,180.49,,0.0,0.1,1.09,-1,-0,1,1.09,1.13,96,3041,3.2,3.72,,12.97,1.162,100.6,,30.6,5,,,,,,,,,,,,0,0,0,0,0,0,0,0,0,0,0,0,0,0,0,0,,,,,0.0,,,,,,
11714,0,,,,,,,,,,,,,,,,,,,,,,,,,,,,,,,,,,0,0,0,0,0,0,0,0,0,0,0,0,0,0,0,0,,,,,,,,,,,
11734,0,0.0,180.49,,-0.0,0.1,1.13,-1,-0,1,1.13,1.13,100,2969,3.1,3.83,,12.96,1.169,100.6,,30.6,5,0,0,0,0,0.0,0.0,0.0,0.0,2.27,,,0,0,0,0,0,0,0,0,0,0,0,0,0,0,0,0,0,,,,0.0,0.0,0.0,0.0,0,0,0.0
11754,0,,,,,,,,,,,,,,,,,,,,,,,,,,,,,,,,,,0,0,0,0,0,0,0,0,0,0,0,0,0,0,0,0,,,,,,,,,,,
11774,0,0.0,180.49,,-0.01,0.11,1.17,-1,-0,2,1.17,1.17,100,2965,3.0,3.87,,12.97,1.175,100.6,,30.6,5,,,,,,,,,,,,0,0,0,0,0,0,0,0,0,0,0,0,0,0,0,0,,,,,0.0,,,,,,
11794,0,,,,,,,,,,,,,,,,,,,,,,,,,,,,,,,,,,0,0,0,0,0,0,0,0,0,0,0,0,0,0,0,0,,,,,,,,,,,
11814,0,0.0,180.49,,-0.01,0.11,1.19,-1,-0,2,1.19,1.19,100,2955,2.7,3.78,,12.97,1.175,100.6,,30.8,5,,,,,,,,,,,,0,0,0,0,0,0,0,0,0,0,0,0,0,0,0,0,,,,,0.0,,,,,,
11834,0,,,,,,,,,,,,,,,,,,,,,,,0,0,0,0,0.0,0.0,0.0,0.0,2.27,,,0,0,0,0,0,0,0,0,0,0,0,0,0,0,0,0,0,,,,,0.0,0.0,0.0,0,0,0.0
11854,0,0.0,180.62,,-0.02,0.11,1.19,-1,-0,2,1.2,1.2,100,2955,2.7,3.78,,13.03,1.166,100.6,,30.8,5,,,,,,,,,,,,0,0,0,0,0,0,0,0,0,0,0,0,0,0,0,0,,,,,0.0,,,,,,
11874,0,,,,,,,,,,,,,,,,,,,,,,,,,,,,,,,,,,0,0,0,0,0,0,0,0,0,0,0,0,0,0,0,0,,,,,,,,,,,
11894,0,0.0,180.62,,-0.01,0.11,1.17,-1,-0,2,1.17,1.2,98,2985,2.6,3.85,,13.0,1.182,100.6,,30.3,5,,,,,,,,,,,,0,0,0,0,0,0,0,0,0,0,0,0,0,0,0,0,,,,,0.0,,,,,,
11914,0,,,,,,,,,,,,,,,,,,,,,,,,,,,,,,,,,,0,0,0,0,0,0,0,0,0,0,0,0,0,0,0,0,,,,,,,,,,,
11934,0,0.0,180.49,,0.01,0.1,1.12,-1,-0,2,1.13,1.2,94,2975,2.5,3.82,,13.01,1.185,100.6,,30.3,5,0,0,0,0,0.0,0.0,0.0,0.0,2.27,,,0,0,0,0,0,0,0,0,0,0,0,0,0,0,0,0,0,,,,0.0,0.0,0.0,0.0,0,0,0.0
11954,0,,,,,,,,,,,,,,,,,,,,,,,,,,,,,,,,,,0,0,0,0,0,0,0,0,0,0,0,0,0,0,0,0,,,,,,,,,,,
11974,0,0.0,180.62,,0.04,0.09,1.06,-1,-0,2,1.07,1.2,89,2940,2.5,3.72,,13.05,1.165,100.6,,30.3,5,,,,,,,,,,,,0,0,0,0,0,0,0,0,0,0,0,0,0,0,0,0,,,,,0.0,,,,,,
11994,0,,,,,,,,,,,,,,,,,,,,,,,,,,,,,,,,,,0,0,0,0,0,0,0,0,0,0,0,0,0,0,0,0,,,,,,,,,,,
12014,0,0.0,180.62,,0.06,0.07,1.0,-1,-0,2,1.0,1.2,84,2949,2.6,3.72,,13.05,1.165,100.6,,30.9,5,,,,,,,,,,,,0,0,0,0,0,0,0,0,0,0,0,0,0,0,0,0,,,,,0.0,,,,,,
12034,0,,,,,,,,,,,,,,,,,,,,,,,0,0,0,0,0.0,0.0,0.0,0.0,2.27,,,0,0,0,0,0,0,0,0,0,0,0,0,0,0,0,0,0,,,,,0.0,0.0,0.0,0,0,0.0
12054,0,0.0,180.49,,0.08,0.07,0.93,-1,-1,2,0.93,1.2,78,2949,2.6,3.72,,13.08,1.156,100.6,,30.9,5,,,,,,,,,,,,0,0,0,0,0,0,0,0,0,0,0,0,0,0,0,0,,,,,0.0,,,,,,
12074,0,,,,,,,,,,,,,,,,,,,,,,,,,,,,,,,,,,0,0,0,0,0,0,0,0,0,0,0,0,0,0,0,0,,,,,,,,,,,
12094,0,0.0,180.49,,0.08,0.1,0.86,-1,-0,1,0.87,1.2,73,2987,2.7,3.75,,13.05,1.154,100.6,,30.0,5,,,,,,,,,,,,0,0,0,0,0,0,0,0,0,0,0,0,0,0,0,0,,,,,0.0,,,,,,
12114,0,,,,,,,,,,,,,,,,,,,,,,,,,,,,,,,,,,0,0,0,0,0,0,0,0,0,0,0,0,0,0,0,0,,,,,,,,,,,
12134,0,0.0,180.49,13.48,0.06,0.1,0.82,-1,-0,1,0.83,1.2,70,2951,3.0,3.74,15,13.03,1.163,100.6,176,30.0,5,0,0,0,0,0.0,0.0,0.0,0.0,2.27,0,0.0,0,0,0,0,0,0,0,0,0,0,0,0,0,0,0,0,0,0.0,0,-0,0.0,0.0,0.0,0.0,0,0,0.0
12154,0,,,,,,,,,,,,,,,,,,,,,,,,,,,,,,,,,,0,0,0,0,0,0,0,0,0,0,0,0,0,0,0,0,,,,,,,,,,,
12174,0,0.0,180.49,,0.02,0.1,0.83,-0,-0,1,0.83,1.2,70,2924,3.0,3.82,,13.05,1.165,100.6,,30.0,5,,,,,,,,,,,,0,0,0,0,0,0,0,0,0,0,0,0,0,0,0,0,,,,,0.0,,,,,,
12194,0,,,,,,,,,,,,,,,,,,,,,,,,,,,,,,,,,,0,0,0,0,0,0,0,0,0,0,0,0,0,0,0,0,,,,,,,,,,,
12214,0,0.0,180.62,,-0.02,0.08,0.86,0,-0,0,0.86,1.2,72,2906,3.0,3.82,,13.05,1.165,100.6,,30.3,5,,,,,,,,,,,,0,0,0,0,0,0,0,0,0,0,0,0,0,0,0,0,,,,,0.0,,,,,,
12234,0,,,,,,,,,,,,,,,,,,,,,,,0,0,0,0,0.0,0.0,0.0,0.0,2.27,,,0,0,0,0,0,0,0,0,0,0,0,0,0,0,0,0,0,,,,,0.0,0.0,0.0,0,0,0.0
12254,0,0.0,180.62,,-0.06,0.01,0.92,0,-0,-0,0.92,1.2,77,2906,3.0,3.82,,13.08,1.169,100.6,,30.3,5,,,,,,,,,,,,0,0,0,0,0,0,0,0,0,0,0,0,0,0,0,0,,,,,0.0,,,,,,
12274,0,,,,,,,,,,,,,,,,,,,,,,,,,,,,,,,,,,0,0,0,0,0,0,0,0,0,0,0,0,0,0,0,0,,,,,,,,,,,
12294,0,0.0,180.49,,-0.07,-0.05,0.99,0,-0,-0,1.0,1.2,83,2954,3.0,3.83,,13.09,1.165,100.6,,30.2,5,,,,,,,,,,,,0,0,0,0,0,0,0,0,0,0,0,0,0,0,0,0,,,,,0.0,,,,,,
12314,0,,,,,,,,,,,,,,,,,,,,,,,,,,,,,,,,,,0,0,0,0,0,0,0,0,0,0,0,0,0,0,0,0,,,,,,,,,,,
12334,0,0.0,180.49,,-0.06,-0.05,1.06,-0,-0,0,1.06,1.2,89,2952,2.7,3.83,,13.03,1.161,100.6,,30.2,5,0,0,0,0,0.0,0.0,0.0,0.0,2.27,,,0,0,0,0,0,0,0,0,0,0,0,0,0,0,0,0,0,,,,0.0,0.0,0.0,0.0,0,0,0.0
12354,0,,,,,,,,,,,,,,,,,,,,,,,,,,,,,,,,,,0,0,0,0,0,0,0,0,0,0,0,0,0,0,0,0,,,,,,,,,,,
12374,0,0.0,180.49,,-0.05,-0.01,1.11,-1,-0,1,1.11,1.2,93,2954,2.5,3.85,,13.04,1.155,100.6,,30.2,5,,,,,,,,,,,,0,0,0,0,0,0,0,0,0,0,0,0,0,0,0,0,,,,,0.0,,,,,,
12394,0,,,,,,,,,,,,,,,,,,,,,,,,,,,,,,,,,,0,0,0,0,0,0,0,0,0,0,0,0,0,0,0,0,,,,,,,,,,,
12414,0,0.0,180.49,,-0.04,0.04,1.1,-1,-0,1,1.11,1.2,92,2896,2.5,3.71,,13.04,1.155,100.6,,30.3,5,,,,,,,,,,,,0,0,0,0,0,0,0,0,0,0,0,0,0,0,0,0,,,,,0.0,,,,,,
12434,0,,,,,,,,,,,,,,,,,,,,,,,0,0,0,0,0.0,0.0,0.0,0.0,2.28,,,0,0,0,0,0,0,0,0,0,0,0,0,0,0,0,0,0,,,,,0.0,0.0,0.0,0,0,0.0
12454,0,0.0,180.49,,-0.02,0.04,1.06,-0,-0,1,1.06,1.2,89,2896,2.5,3.71,,13.08,1.145,100.6,,30.3,5,,,,,,,,,,,,0,0,0,0,0,0,0,0,0,0,0,0,0,0,0,0,,,,,0.0,,,,,,
12474,0,,,,,,,,,,,,,,,,,,,,,,,,,,,,,,,,,,0,0,0,0,0,0,0,0,0,0,0,0,0,0,0,0,,,,,,,,,,,
12494,0,0.0,180.37,,0.01,0.02,0.99,-1,-0,1,0.99,1.2,83,2907,2.5,3.71,,13.07,1.146,100.6,,29.9,5,,,,,,,,,,,,0,0,0,0,0,0,0,0,0,0,0,0,0,0,0,0,,,,,0.0,,,,,,
12514,0,,,,,,,,,,,,,,,,,,,,,,,,,,,,,,,,,,0,0,0,0,0,0,0,0,0,0,0,0,0,0,0,0,,,,,,,,,,,
12534,0,0.0,180.49,,0.02,0.03,0.93,-1,-0,1,0.93,1.2,78,2923,2.6,3.75,,13.09,1.157,100.6,,29.9,5,0,0,0,0,0.0,0.0,0.0,0.0,2.27,,,0,0,0,0,0,0,0,0,0,0,0,0,0,0,0,0,0,,,,0.0,0.0,0.0,0.0,0,0,0.0
12554,0,,,,,,,,,,,,,,,,,,,,,,,,,,,,,,,,,,0,0,0,0,0,0,0,0,0,0,0,0,0,0,0,0,,,,,,,,,,,
12574,0,0.0,180.49,,-0.01,0.03,0.92,-0,-0,0,0.92,1.2,77,2903,2.8,3.72,,13.07,1.152,100.6,,29.9,5,,,,,,,,,,,,0,0,0,0,0,0,0,0,0,0,0,0,0,0,0,0,,,,,0.0,,,,,,
12594,0,,,,,,,,,,,,,,,,,,,,,,,,,,,,,,,,,,0,0,0,0,0,0,0,0,0,0,0,0,0,0,0,0,,,,,,,,,,,
12614,0,0.0,180.49,,-0.04,-0.04,0.97,0,-0,0,0.97,1.2,81,2864,3.0,3.83,,13.07,1.152,100.6,,29.4,5,,,,,,,,,,,,0,0,0,0,0,0,0,0,0,0,0,0,0,0,0,0,,,,,0.0,,,,,,
12634,0,,,,,,,,,,,,,,,,,,,,,,,0,0,0,0,0.0,0.0,0.0,0.0,2.27,,,0,0,0,0,0,0,0,0,0,0,0,0,0,0,0,0,0,,,,,0.0,0.0,0.0,0,0,0.0
12654,0,0.0,180.49,,-0.04,-0.06,1.03,-0,-0,0,1.03,1.2,86,2864,3.0,3.83,,13.09,1.167,100.6,,29.4,5,,,,,,,,,,,,0,0,0,0,0,0,0,0,0,0,0,0,0,0,0,0,,,,,0.0,,,,,,
12674,0,,,,,,,,,,,,,,,,,,,,,,,,,,,,,,,,,,0,0,0,0,0,0,0,0,0,0,0,0,0,0,0,0,,,,,,,,,,,
12694,0,0.0,180.49,,-0.05,-0.02,1.05,-1,-0,1,1.05,1.2,88,2880,3.0,3.78,,13.12,1.151,100.6,,30.1,5,,,,,,,,,,,,0,0,0,0,0,0,0,0,0,0,0,0,0,0,0,0,,,,,0.0,,,,,,
12714,0,,,,,,,,,,,,,,,,,,,,,,,,,,,,,,,,,,0,0,0,0,0,0,0,0,0,0,0,0,0,0,0,0,,,,,,,,,,,
12734,0,0.0,180.49,,-0.05,0.01,1.07,-1,-0,1,1.07,1.2,90,2878,3.0,3.75,,13.09,1.147,100.6,,30.1,5,0,0,0,0,0.0,0.0,0.0,0.0,2.27,,,0,0,0,0,0,0,0,0,0,0,0,0,0,0,0,0,0,,,,0.0,0.0,0.0,0.0,0,0,0.0
12754,0,,,,,,,,,,,,,,,,,,,,,,,,,,,,,,,,,,0,0,0,0,0,0,0,0,0,0,0,0,0,0,0,0,,,,,,,,,,,
12774,0,0.0,180.62,,-0.05,-0.03,1.18,-1,-0,1,1.18,1.2,98,3170,2.9,3.82,,13.04,1.167,100.6,,30.1,5,,,,,,,,,,,,0,0,0,0,0,0,0,0,0,0,0,0,0,0,0,0,,,,,0.0,,,,,,
12794,0,,,,,,,,,,,,,,,,,,,,,,,,,,,,,,,,,,0,0,0,0,0,0,0,0,0,0,0,0,0,0,0,0,,,,,,,,,,,
12814,0,0.0,180.49,,-0.08,-0.07,1.1,-0,-0,0,1.11,1.2,93,3266,2.7,3.68,,13.04,1.167,100.6,,32.9,5,,,,,,,,,,,,0,0,0,0,0,0,0,0,0,0,0,0,0,0,0,0,,,,,0.0,,,,,,
12834,0,,,,,,,,,,,,,,,,,,,,,,,0,0,0,0,0.0,0.0,0.0,0.0,2.27,,,0,0,0,0,0,0,0,0,0,0,0,0,0,0,0,0,0,,,,,0.0,0.0,0.0,0,0,0.0
12854,0,0.0,180.49,,-0.05,-0.04,1.11,-1,-0,1,1.12,1.2,93,3266,2.7,3.68,,12.95,1.171,100.6,,32.9,5,,,,,,,,,,,,0,0,0,0,0,0,0,0,0,0,0,0,0,0,0,0,,,,,0.0,,,,,,
12874,0,,,,,,,,,,,,,,,,,,,,,,,,,,,,,,,,,,0,0,0,0,0,0,0,0,0,0,0,0,0,0,0,0,,,,,,,,,,,
12894,0,0.0,180.49,,-0.04,0.05,1.08,-0,-0,1,1.09,1.2,91,3455,2.5,3.57,,12.83,1.099,100.6,,37.0,5,,,,,,,,,,,,0,0,0,0,0,0,0,0,0,0,0,0,0,0,0,0,,,,,0.0,,,,,,
12914,0,,,,,,,,,,,,,,,,,,,,,,,,,,,,,,,,,,0,0,0,0,0,0,0,0,0,0,0,0,0,0,0,0,,,,,,,,,,,
12934,0,0.0,180.49,,-0.05,0.01,1.05,-0,-0,0,1.05,1.2,88,3623,2.5,3.48,,12.69,1.077,100.6,,37.0,5,0,0,0,0,0.0,0.0,0.0,0.0,2.28,,,0,0,0,0,0,0,0,0,0,0,0,0,0,0,0,0,0,,,,0.0,0.0,0.0,0.0,0,0,0.0
12954,0,,,,,,,,,,,,,,,,,,,,,,,,,,,,,,,,,,0,0,0,0,0,0,0,0,0,0,0,0,0,0,0,0,,,,,,,,,,,
12974,0,0.0,180.49,,-0.05,-0.02,1.04,-0,-0,0,1.05,1.2,87,3649,2.5,3.47,,12.63,1.111,100.6,,37.0,5,,,,,,,,,,,,0,0,0,0,0,0,0,0,0,0,0,0,0,0,0,0,,,,,0.0,,,,,,
12994,0,,,,,,,,,,,,,,,,,,,,,,,,,,,,,,,,,,0,0,0,0,0,0,0,0,0,0,0,0,0,0,0,0,,,,,,,,,,,
13014,0,0.0,180.49,,-0.03,0.01,1.04,-0,-0,0,1.04,1.2,87,3817,2.7,3.5,,12.63,1.111,100.6,,38.8,5,,,,,,,,,,,,0,0,0,0,0,0,0,0,0,0,0,0,0,0,0,0,,,,,0.0,,,,,,
13034,0,,,,,,,,,,,,,,,,,,,,,,,0,0,0,0,0.0,0.0,0.0,0.0,2.27,,,0,0,0,0,0,0,0,0,0,0,0,0,0,0,0,0,0,,,,,0.0,0.0,0.0,0,0,0.0
13054,0,0.0,180.37,,-0.02,0.1,1.09,-1,-0,1,1.09,1.2,91,3817,2.7,3.5,,12.56,1.025,100.6,,38.8,5,,,,,,,,,,,,0,0,0,0,0,0,0,0,0,0,0,0,0,0,0,0,,,,,0.0,,,,,,
13074,0,,,,,,,,,,,,,,,,,,,,,,,,,,,,,,,,,,0,0,0,0,0,0,0,0,0,0,0,0,0,0,0,0,,,,,,,,,,,
13094,0,0.0,180.24,,-0.05,0.02,1.06,-2,-0,1,1.06,1.2,88,3965,3.0,3.38,,12.28,1.021,100.6,,42.5,5,,,,,,,,,,,,0,0,0,0,0,0,0,0,0,0,0,0,0,0,0,0,,,,,0.0,,,,,,
13114,0,,,,,,,,,,,,,,,,,,,,,,,,,,,,,,,,,,0,0,0,0,0,0,0,0,0,0,0,0,0,0,0,0,,,,,,,,,,,
13134,0,0.0,180.24,13.55,-0.03,0.02,1.01,-0,-0,0,1.01,1.2,84,3993,3.3,3.4,15,12.13,0.959,100.6,176,42.5,5,0,0,0,0,0.0,0.0,0.0,0.0,2.27,0,0.0,0,0,0,0,0,0,0,0,0,0,0,0,0,0,0,0,0,0.0,0,-0,0.0,0.0,0.0,0.0,0,0,0.0
13154,0,,,,,,,,,,,,,,,,,,,,,,,,,,,,,,,,,,0,0,0,0,0,0,0,0,0,0,0,0,0,0,0,0,,,,,,,,,,,
13174,0,0.0,180.24,,-0.01,0.09,1.04,-0,-0,0,1.04,1.2,87,3897,3.3,3.63,,12.0,0.933,100.6,,42.5,5,,,,,,,,,,,,0,0,0,0,0,0,0,0,0,0,0,0,0,0,0,0,,,,,0.0,,,,,,
13194,0,,,,,,,,,,,,,,,,,,,,,,,,,,,,,,,,,,0,0,0,0,0,0,0,0,0,0,0,0,0,0,0,0,,,,,,,,,,,
13214,0,0.0,180.24,,-0.01,0.11,1.03,-0,-0,0,1.04,1.2,87,3837,3.3,3.65,,12.0,0.933,100.6,,41.3,5,,,,,,,,,,,,0,0,0,0,0,0,0,0,0,0,0,0,0,0,0,0,,,,,0.0,,,,,,
13234,0,,,,,,,,,,,,,,,,,,,,,,,0,0,0,0,0.0,0.0,0.0,0.0,2.27,,,0,0,0,0,0,0,0,0,0,0,0,0,0,0,0,0,0,,,,,0.0,0.0,0.0,0,0,0.0
13254,0,0.0,180.12,,-0.02,0.09,1.01,0,-0,0,1.02,1.2,85,3837,3.3,3.65,,12.0,0.932,100.6,,41.3,5,,,,,,,,,,,,0,0,0,0,0,0,0,0,0,0,0,0,0,0,0,0,,,,,0.0,,,,,,
13274,0,,,,,,,,,,,,,,,,,,,,,,,,,,,,,,,,,,0,0,0,0,0,0,0,0,0,0,0,0,0,0,0,0,,,,,,,,,,,
13294,0,0.0,180.12,,-0.05,0.07,1.01,0,-0,0,1.02,1.2,85,3711,3.0,3.56,,12.04,0.973,100.6,,39.0,5,,,,,,,,,,,,0,0,0,0,0,0,0,0,0,0,0,0,0,0,0,0,,,,,0.0,,,,,,
13314,0,,,,,,,,,,,,,,,,,,,,,,,,,,,,,,,,,,0,0,0,0,0,0,0,0,0,0,0,0,0,0,0,0,,,,,,,,,,,
13334,0,0.0,180.12,,-0.05,-0.01,1.02,0,-0,-0,1.02,1.2,86,3642,2.7,3.73,,12.11,1.057,100.6,,39.0,5,0,0,0,0,0.0,0.0,0.0,0.0,2.27,,,0,0,0,0,0,0,0,0,0,0,0,0,0,0,0,0,0,,,,0.0,0.0,0.0,0.0,0,0,0.0
13354,0,,,,,,,,,,,,,,,,,,,,,,,,,,,,,,,,,,0,0,0,0,0,0,0,0,0,0,0,0,0,0,0,0,,,,,,,,,,,
13374,0,0.0,180.12,,-0.05,0.08,1.04,-1,-0,1,1.04,1.2,87,3559,2.8,3.54,,12.2,1.11,100.6,,39.0,5,,,,,,,,,,,,0,0,0,0,0,0,0,0,0,0,0,0,0,0,0,0,,,,,0.0,,,,,,
13394,0,,,,,,,,,,,,,,,,,,,,,,,,,,,,,,,,,,0,0,0,0,0,0,0,0,0,0,0,0,0,0,0,0,,,,,,,,,,,
13414,0,0.0,180.12,,-0.03,0.1,0.98,-0,-0,0,0.99,1.2,83,3444,2.7,3.56,,12.2,1.11,100.6,,37.1,5,,,,,,,,,,,,0,0,0,0,0,0,0,0,0,0,0,0,0,0,0,0,,,,,0.0,,,,,,
13434,0,,,,,,,,,,,,,,,,,,,,,,,0,0,0,0,0.0,0.0,0.0,0.0,2.27,,,0,0,0,0,0,0,0,0,0,0,0,0,0,0,0,0,0,,,,,0.0,0.0,0.0,0,0,0.0
13454,0,0.0,180.12,,-0.03,0.06,1.06,-1,-0,1,1.06,1.2,89,3444,2.7,3.56,,12.37,1.171,100.6,,37.1,5,,,,,,,,,,,,0,0,0,0,0,0,0,0,0,0,0,0,0,0,0,0,,,,,0.0,,,,,,
13474,0,,,,,,,,,,,,,,,,,,,,,,,,,,,,,,,,,,0,0,0,0,0,0,0,0,0,0,0,0,0,0,0,0,,,,,,,,,,,
13494,0,0.0,180.12,,-0.06,0.02,1.05,-0,-0,0,1.05,1.2,88,3269,2.7,3.6,,12.48,1.164,100.6,,34.2,5,,,,,,,,,,,,0,0,0,0,0,0,0,0,0,0,0,0,0,0,0,0,,,,,0.0,,,,,,
13514,0,,,,,,,,,,,,,,,,,,,,,,,,,,,,,,,,,,0,0,0,0,0,0,0,0,0,0,0,0,0,0,0,0,,,,,,,,,,,
13534,0,0.0,180.12,,-0.04,0.06,0.94,-0,-0,0,0.95,1.2,79,3194,3.0,3.65,,12.61,1.136,100.6,,34.2,5,0,0,0,0,0.0,0.0,0.0,0.0,2.27,,,0,0,0,0,0,0,0,0,0,0,0,0,0,0,0,0,0,,,,0.0,0.0,0.0,0.0,0,0,0.0
13554,0,,,,,,,,,,,,,,,,,,,,,,,,,,,,,,,,,,0,0,0,0,0,0,0,0,0,0,0,0,0,0,0,0,,,,,,,,,,,
13574,0,0.0,180.12,,-0.01,0.14,0.95,-1,-0,1,0.96,1.2,80,3157,3.2,3.81,,12.67,1.113,100.6,,34.2,5,,,,,,,,,,,,0,0,0,0,0,0,0,0,0,0,0,0,0,0,0,0,,,,,0.0,,,,,,
13594,0,,,,,,,,,,,,,,,,,,,,,,,,,,,,,,,,,,0,0,0,0,0,0,0,0,0,0,0,0,0,0,0,0,,,,,,,,,,,
13614,0,0.0,180.12,,-0.04,0.01,1.0,-1,-0,0,1.0,1.2,84,3340,3.2,3.77,,12.67,1.113,100.6,,33.4,5,,,,,,,,,,,,0,0,0,0,0,0,0,0,0,0,0,0,0,0,0,0,,,,,0.0,,,,,,
13634,0,,,,,,,,,,,,,,,,,,,,,,,0,0,0,0,0.0,0.0,0.0,0.0,2.26,,,0,0,0,0,0,0,0,0,0,0,0,0,0,0,0,0,0,,,,,0.0,0.0,0.0,0,0,0.0
13654,0,0.0,180.12,,-0.01,0.13,0.97,-1,-0,1,0.97,1.2,81,3340,3.2,3.77,,12.73,1.132,100.6,,33.4,5,,,,,,,,,,,,0,0,0,0,0,0,0,0,0,0,0,0,0,0,0,0,,,,,0.0,,,,,,
13674,0,,,,,,,,,,,,,,,,,,,,,,,,,,,,,,,,,,0,0,0,0,0,0,0,0,0,0,0,0,0,0,0,0,,,,,,,,,,,
13694,0,0.0,180.12,,-0.03,0.01,1.04,-1,-0,0,1.04,1.2,87,3341,3.2,3.77,,12.72,1.135,100.6,,34.3,5,,,,,,,,,,,,0,0,0,0,0,0,0,0,0,0,0,0,0,0,0,0,,,,,0.0,,,,,,
13714,0,,,,,,,,,,,,,,,,,,,,,,,,,,,,,,,,,,0,0,0,0,0,0,0,0,0,0,0,0,0,0,0,0,,,,,,,,,,,
13734,0,0.0,180.24,,-0.03,0.06,0.96,-1,-0,0,0.96,1.2,80,3293,3.2,3.79,,12.67,1.075,100.6,,34.3,5,0,0,0,0,0.0,0.0,0.0,0.0,2.27,,,0,0,0,0,0,0,0,0,0,0,0,0,0,0,0,0,0,,,,0.0,0.0,0.0,0.0,0,0,0.0
13754,0,,,,,,,,,,,,,,,,,,,,,,,,,,,,,,,,,,0,0,0,0,0,0,0,0,0,0,0,0,0,0,0,0,,,,,,,,,,,
13774,0,0.0,180.12,,-0.01,0.09,0.96,-1,-0,1,0.97,1.2,81,3220,2.9,3.7,,12.65,1.052,100.6,,34.3,5,,,,,,,,,,,,0,0,0,0,0,0,0,0,0,0,0,0,0,0,0,0,,,,,0.0,,,,,,
13794,0,,,,,,,,,,,,,,,,,,,,,,,,,,,,,,,,,,0,0,0,0,0,0,0,0,0,0,0,0,0,0,0,0,,,,,,,,,,,
13814,0,0.0,180.12,,-0.04,0.01,1.04,-1,-0,1,1.04,1.2,87,3188,2.7,3.81,,12.65,1.052,100.6,,33.8,5,,,,,,,,,,,,0,0,0,0,0,0,0,0,0,0,0,0,0,0,0,0,,,,,0.0,,,,,,
13834,0,,,,,,,,,,,,,,,,,,,,,,,0,0,0,0,0.0,0.0,0.0,0.0,2.27,,,0,0,0,0,0,0,0,0,0,0,0,0,0,0,0,0,0,,,,,0.0,0.0,0.0,0,0,0.0
13854,0,0.0,180.12,,-0.06,-0.03,0.99,0,-0,0,0.99,1.2,83,3188,2.7,3.81,,12.71,1.04,100.6,,33.8,5,,,,,,,,,,,,0,0,0,0,0,0,0,0,0,0,0,0,0,0,0,0,,,,,0.0,,,,,,
13874,0,,,,,,,,,,,,,,,,,,,,,,,,,,,,,,,,,,0,0,0,0,0,0,0,0,0,0,0,0,0,0,0,0,,,,,,,,,,,
13894,0,0.0,180.24,,-0.03,0.06,0.9,-0,-0,0,0.9,1.2,76,3231,2.7,3.73,,12.71,1.043,100.6,,33.2,5,,,,,,,,,,,,0,0,0,0,0,0,0,0,0,0,0,0,0,0,0,0,,,,,0.0,,,,,,
13914,0,,,,,,,,,,,,,,,,,,,,,,,,,,,,,,,,,,0,0,0,0,0,0,0,0,0,0,0,0,0,0,0,0,,,,,,,,,,,
13934,0,0.0,180.24,,-0.04,0.0,0.99,-1,-0,1,0.99,1.2,83,3270,2.7,3.68,,12.75,1.065,100.6,,33.2,5,0,0,0,0,0.0,0.0,0.0,0.0,2.28,,,0,0,0,0,0,0,0,0,0,0,0,0,0,0,0,0,0,,,,0.0,0.0,0.0,0.0,0,0,0.0
13954,0,,,,,,,,,,,,,,,,,,,,,,,,,,,,,,,,,,0,0,0,0,0,0,0,0,0,0,0,0,0,0,0,0,,,,,,,,,,,
13974,0,0.0,180.24,,-0.04,0.04,0.9,-0,-0,0,0.9,1.2,76,3363,2.7,3.64,,12.75,1.126,100.6,,33.2,5,,,,,,,,,,,,0,0,0,0,0,0,0,0,0,0,0,0,0,0,0,0,,,,,0.0,,,,,,
13994,0,,,,,,,,,,,,,,,,,,,,,,,,,,,,,,,,,,0,0,0,0,0,0,0,0,0,0,0,0,0,0,0,0,,,,,,,,,,,
14014,0,0.0,180.24,,-0.03,0.04,0.97,-0,-0,1,0.97,1.2,81,3218,2.9,3.71,,12.75,1.126,100.6,,34.0,5,,,,,,,,,,,,0,0,0,0,0,0,0,0,0,0,0,0,0,0,0,0,,,,,0.0,,,,,,
14034,0,,,,,,,,,,,,,,,,,,,,,,,0,0,0,0,0.0,0.0,0.0,0.0,2.27,,,0,0,0,0,0,0,0,0,0,0,0,0,0,0,0,0,0,,,,,0.0,0.0,0.0,0,0,0.0
14054,0,0.0,180.24,,-0.06,-0.04,1.02,-0,-0,0,1.02,1.2,85,3218,2.9,3.71,,12.71,1.119,100.6,,34.0,5,,,,,,,,,,,,0,0,0,0,0,0,0,0,0,0,0,0,0,0,0,0,,,,,0.0,,,,,,
14074,0,,,,,,,,,,,,,,,,,,,,,,,,,,,,,,,,,,0,0,0,0,0,0,0,0,0,0,0,0,0,0,0,0,,,,,,,,,,,
14094,0,0.0,180.24,,-0.07,-0.04,0.93,1,-0,-0,0.93,1.2,78,3196,3.2,3.66,,12.72,1.092,100.6,,33.3,5,,,,,,,,,,,,0,0,0,0,0,0,0,0,0,0,0,0,0,0,0,0,,,,,0.0,,,,,,
14114,0,,,,,,,,,,,,,,,,,,,,,,,,,,,,,,,,,,0,0,0,0,0,0,0,0,0,0,0,0,0,0,0,0,,,,,,,,,,,
14134,0,0.0,180.24,13.57,-0.02,0.05,0.87,0,-0,0,0.87,1.2,73,3182,3.2,3.81,15,12.76,1.081,100.6,176,33.3,5,0,0,0,0,0.0,0.0,0.0,0.0,2.27,0,0.0,0,0,0,0,0,0,0,0,0,0,0,0,0,0,0,0,0,0.0,0,-0,0.0,0.0,0.0,0.0,0,0,0.0
14154,0,,,,,,,,,,,,,,,,,,,,,,,,,,,,,,,,,,0,0,0,0,0,0,0,0,0,0,0,0,0,0,0,0,,,,,,,,,,,
14174,0,0.0,180.24,,-0.0,0.1,0.9,-0,-0,1,0.9,1.2,75,3118,3.3,3.82,,12.79,1.076,100.6,,33.3,5,,,,,,,,,,,,0,0,0,0,0,0,0,0,0,0,0,0,0,0,0,0,,,,,0.0,,,,,,
14194,0,,,,,,,,,,,,,,,,,,,,,,,,,,,,,,,,,,0,0,0,0,0,0,0,0,0,0,0,0,0,0,0,0,,,,,,,,,,,
14214,0,0.0,180.24,,0.0,0.07,0.97,-1,-0,1,0.97,1.2,81,3047,3.1,3.83,,12.79,1.076,100.6,,31.8,5,,,,,,,,,,,,0,0,0,0,0,0,0,0,0,0,0,0,0,0,0,0,,,,,0.0,,,,,,
14234,0,,,,,,,,,,,,,,,,,,,,,,,0,0,0,0,0.0,0.0,0.0,0.0,2.27,,,0,0,0,0,0,0,0,0,0,0,0,0,0,0,0,0,0,,,,,0.0,0.0,0.0,0,0,0.0
14254,0,0.0,180.24,,0.01,0.06,1.04,-1,-0,1,1.05,1.2,88,3047,3.1,3.83,,12.87,1.088,100.6,,31.8,5,,,,,,,,,,,,0,0,0,0,0,0,0,0,0,0,0,0,0,0,0,0,,,,,0.0,,,,,,
14274,0,,,,,,,,,,,,,,,,,,,,,,,,,,,,,,,,,,0,0,0,0,0,0,0,0,0,0,0,0,0,0,0,0,,,,,,,,,,,
14294,0,0.0,180.24,,0.01,0.07,1.1,-1,-0,2,1.11,1.2,92,3023,2.8,3.77,,12.92,1.105,100.6,,31.1,5,,,,,,,,,,,,0,0,0,0,0,0,0,0,0,0,0,0,0,0,0,0,,,,,0.0,,,,,,
14314,0,,,,,,,,,,,,,,,,,,,,,,,,,,,,,,,,,,0,0,0,0,0,0,0,0,0,0,0,0,0,0,0,0,,,,,,,,,,,
14334,0,0.0,180.24,,0.02,0.07,1.16,-2,-0,2,1.16,1.2,97,3017,2.7,3.84,,12.97,1.115,100.6,,31.1,5,0,0,0,0,0.0,0.0,0.0,0.0,2.27,,,0,0,0,0,0,0,0,0,0,0,0,0,0,0,0,0,0,,,,0.0,0.0,0.0,0.0,0,0,0.0
14354,0,,,,,,,,,,,,,,,,,,,,,,,,,,,,,,,,,,0,0,0,0,0,0,0,0,0,0,0,0,0,0,0,0,,,,,,,,,,,
14374,0,0.0,180.24,,0.02,0.07,1.2,-2,-0,2,1.2,1.2,100,3010,2.7,3.85,,12.96,1.119,100.6,,31.1,5,,,,,,,,,,,,0,0,0,0,0,0,0,0,0,0,0,0,0,0,0,0,,,,,0.0,,,,,,
14394,0,,,,,,,,,,,,,,,,,,,,,,,,,,,,,,,,,,0,0,0,0,0,0,0,0,0,0,0,0,0,0,0,0,,,,,,,,,,,
14414,0,0.0,180.24,,0.03,0.08,1.23,-2,-0,2,1.24,1.24,100,2969,2.7,3.75,,12.96,1.119,100.6,,30.7,5,,,,,,,,,,,,0,0,0,0,0,0,0,0,0,0,0,0,0,0,0,0,,,,,0.0,,,,,,
14434,0,,,,,,,,,,,,,,,,,,,,,,,0,0,0,0,0.0,0.0,0.0,0.0,2.28,,,0,0,0,0,0,0,0,0,0,0,0,0,0,0,0,0,0,,,,,0.0,0.0,0.0,0,0,0.0
14454,0,0.0,180.12,,0.04,0.11,1.24,-2,-0,2,1.25,1.25,100,2969,2.7,3.75,,12.99,1.12,100.6,,30.7,5,,,,,,,,,,,,0,0,0,0,0,0,0,0,0,0,0,0,0,0,0,0,,,,,0.0,,,,,,
14474,0,,,,,,,,,,,,,,,,,,,,,,,,,,,,,,,,,,0,0,0,0,0,0,0,0,0,0,0,0,0,0,0,0,,,,,,,,,,,
14494,0,0.0,180.24,,0.04,0.12,1.26,-2,-0,2,1.27,1.27,100,2941,2.8,3.79,,13.05,1.122,100.6,,30.1,5,,,,,,,,,,,,0,0,0,0,0,0,0,0,0,0,0,0,0,0,0,0,,,,,0.0,,,,,,
14514,0,,,,,,,,,,,,,,,,,,,,,,,,,,,,,,,,,,0,0,0,0,0,0,0,0,0,0,0,0,0,0,0,0,,,,,,,,,,,
14534,0,0.0,180.24,,0.0,-0.01,1.31,-2,-0,2,1.31,1.31,100,3174,3.1,3.84,,13.01,1.155,100.6,,30.1,5,0,0,0,0,0.0,0.0,0.0,0.0,2.26,,,0,0,0,0,0,0,0,0,0,0,0,0,0,0,0,0,0,,,,0.0,0.0,0.0,0.0,0,0,0.0
14554,0,,,,,,,,,,,,,,,,,,,,,,,,,,,,,,,,,,0,0,0,0,0,0,0,0,0,0,0,0,0,0,0,0,,,,,,,,,,,
14574,0,0.0,180.24,,0.02,0.04,1.21,-1,-0,1,1.21,1.31,93,3308,3.1,3.79,,12.88,1.155,100.6,,30.1,5,,,,,,,,,,,,0,0,0,0,0,0,0,0,0,0,0,0,0,0,0,0,,,,,0.0,,,,,,
14594,0,,,,,,,,,,,,,,,,,,,,,,,,,,,,,,,,,,0,0,0,0,0,0,0,0,0,0,0,0,0,0,0,0,,,,,,,,,,,
14614,0,0.0,180.24,,0.01,0.05,1.25,-1,-0,2,1.25,1.31,96,3340,2.8,3.8,,12.88,1.155,100.6,,34.5,5,,,,,,,,,,,,0,0,0,0,0,0,0,0,0,0,0,0,0,0,0,0,,,,,0.0,,,,,,
14634,0,,,,,,,,,,,,,,,,,,,,,,,0,0,0,0,0.0,0.0,0.0,0.0,2.27,,,0,0,0,0,0,0,0,0,0,0,0,0,0,0,0,0,0,,,,,0.0,0.0,0.0,0,0,0.0
14654,0,0.0,180.24,,-0.02,0.02,1.17,-0,-0,1,1.17,1.31,89,3340,2.8,3.8,,12.8,1.071,100.6,,34.5,5,,,,,,,,,,,,0,0,0,0,0,0,0,0,0,0,0,0,0,0,0,0,,,,,0.0,,,,,,
14674,0,,,,,,,,,,,,,,,,,,,,,,,,,,,,,,,,,,0,0,0,0,0,0,0,0,0,0,0,0,0,0,0,0,,,,,,,,,,,
14694,0,0.0,180.37,,0.01,0.09,1.13,-1,-0,1,1.13,1.31,86,3267,2.7,3.65,,12.76,1.047,100.6,,33.7,5,,,,,,,,,,,,0,0,0,0,0,0,0,0,0,0,0,0,0,0,0,0,,,,,0.0,,,,,,
14714,0,,,,,,,,,,,,,,,,,,,,,,,,,,,,,,,,,,0,0,0,0,0,0,0,0,0,0,0,0,0,0,0,0,,,,,,,,,,,
14734,0,0.0,180.37,,-0.03,-0.04,1.14,-0,-0,1,1.14,1.31,87,3301,2.7,3.83,,12.79,1.06,100.6,,33.7,5,0,0,0,0,0.0,0.0,0.0,0.0,2.28,,,0,0,0,0,0,0,0,0,0,0,0,0,0,0,0,0,0,,,,0.0,0.0,0.0,0.0,0,0,0.0
14754,0,,,,,,,,,,,,,,,,,,,,,,,,,,,,,,,,,,0,0,0,0,0,0,0,0,0,0,0,0,0,0,0,0,,,,,,,,,,,
14774,0,0.0,180.24,,-0.01,0.03,1.12,-0,-0,1,1.12,1.31,86,3448,2.6,3.61,,12.73,1.066,100.6,,33.7,5,,,,,,,,,,,,0,0,0,0,0,0,0,0,0,0,0,0,0,0,0,0,,,,,0.0,,,,,,
14794,0,,,,,,,,,,,,,,,,,,,,,,,,,,,,,,,,,,0,0,0,0,0,0,0,0,0,0,0,0,0,0,0,0,,,,,,,,,,,
14814,0,0.0,180.24,,-0.03,-0.05,1.07,0,-0,0,1.07,1.31,81,3434,2.7,3.58,,12.73,1.066,100.6,,36.3,5,,,,,,,,,,,,0,0,0,0,0,0,0,0,0,0,0,0,0,0,0,0,,,,,0.0,,,,,,
14834,0,,,,,,,,,,,,,,,,,,,,,,,0,0,0,0,0.0,0.0,0.0,0.0,2.27,,,0,0,0,0,0,0,0,0,0,0,0,0,0,0,0,0,0,,,,,0.0,0.0,0.0,0,0,0.0
14854,0,0.0,180.24,,-0.03,-0.08,1.12,-0,-0,1,1.12,1.31,85,3434,2.7,3.58,,12.76,1.03,100.6,,36.3,5,,,,,,,,,,,,0,0,0,0,0,0,0,0,0,0,0,0,0,0,0,0,,,,,0.0,,,,,,
14874,0,,,,,,,,,,,,,,,,,,,,,,,,,,,,,,,,,,0,0,0,0,0,0,0,0,0,0,0,0,0,0,0,0,,,,,,,,,,,
14894,0,0.0,180.24,,-0.03,-0.04,1.05,0,-0,0,1.05,1.31,80,3360,2.9,3.62,,12.73,1.004,100.6,,35.8,5,,,,,,,,,,,,0,0,0,0,0,0,0,0,0,0,0,0,0,0,0,0,,,,,0.0,,,,,,
14914,0,,,,,,,,,,,,,,,,,,,,,,,,,,,,,,,,,,0,0,0,0,0,0,0,0,0,0,0,0,0,0,0,0,,,,,,,,,,,
14934,0,0.0,180.37,,-0.07,-0.15,1.1,0,-0,0,1.11,1.31,85,3400,3.1,3.59,,12.68,1.009,100.6,,35.8,5,0,0,0,0,0.0,0.0,0.0,0.0,2.27,,,0,0,0,0,0,0,0,0,0,0,0,0,0,0,0,0,0,,,,0.0,0.0,0.0,0.0,0,0,0.0
14954,0,,,,,,,,,,,,,,,,,,,,,,,,,,,,,,,,,,0,0,0,0,0,0,0,0,0,0,0,0,0,0,0,0,,,,,,,,,,,
14974,0,0.0,180.24,,-0.02,-0.01,1.04,0,-0,0,1.04,1.31,79,3539,3.2,3.72,,12.65,1.038,100.6,,35.8,5,,,,,,,,,,,,0,0,0,0,0,0,0,0,0,0,0,0,0,0,0,0,,,,,0.0,,,,,,
14994,0,,,,,,,,,,,,,,,,,,,,,,,,,,,,,,,,,,0,0,0,0,0,0,0,0,0,0,0,0,0,0,0,0,,,,,,,,,,,
15014,0,0.0,180.24,,-0.04,-0.09,1.03,1,-0,-0,1.03,1.31,79,3588,3.2,3.72,,12.65,1.038,100.6,,36.4,5,,,,,,,,,,,,0,0,0,0,0,0,0,0,0,0,0,0,0,0,0,0,,,,,0.0,,,,,,
15034,0,,,,,,,,,,,,,,,,,,,,,,,0,0,0,0,0.0,0.0,0.0,0.0,2.27,,,0,0,0,0,0,0,0,0,0,0,0,0,0,0,0,0,0,,,,,0.0,0.0,0.0,0,0,0.0
15054,0,0.0,180.24,,-0.06,-0.13,1.07,1,-0,-0,1.08,1.31,82,3588,3.2,3.72,,12.59,1.126,100.6,,36.4,5,,,,,,,,,,,,0,0,0,0,0,0,0,0,0,0,0,0,0,0,0,0,,,,,0.0,,,,,,
15074,0,,,,,,,,,,,,,,,,,,,,,,,,,,,,,,,,,,0,0,0,0,0,0,0,0,0,0,0,0,0,0,0,0,,,,,,,,,,,
15094,0,0.0,180.24,,-0.04,-0.07,1.06,0,-0,0,1.06,1.31,81,3552,3.1,3.67,,12.6,1.04,100.6,,37.4,5,,,,,,,,,,,,0,0,0,0,0,0,0,0,0,0,0,0,0,0,0,0,,,,,0.0,,,,,,
15114,0,,,,,,,,,,,,,,,,,,,,,,,,,,,,,,,,,,0,0,0,0,0,0,0,0,0,0,0,0,0,0,0,0,,,,,,,,,,,
15134,0,0.0,180.24,13.62,-0.03,-0.01,1.03,0,-0,0,1.03,1.31,79,3566,2.8,3.67,15,12.57,0.985,100.6,176,37.4,5,0,0,0,0,0.0,0.0,0.0,0.0,2.27,0,0.0,0,0,0,0,0,0,0,0,0,0,0,0,0,0,0,0,0,0.0,0,-0,0.0,0.0,0.0,0.0,0,0,0.0
15154,0,,,,,,,,,,,,,,,,,,,,,,,,,,,,,,,,,,0,0,0,0,0,0,0,0,0,0,0,0,0,0,0,0,,,,,,,,,,,
15174,0,0.0,180.24,,-0.07,-0.09,1.08,0,-0,0,1.09,1.31,83,3439,2.7,3.69,,12.63,0.959,100.6,,37.4,5,,,,,,,,,,,,0,0,0,0,0,0,0,0,0,0,0,0,0,0,0,0,,,,,0.0,,,,,,
15194,0,,,,,,,,,,,,,,,,,,,,,,,,,,,,,,,,,,0,0,0,0,0,0,0,0,0,0,0,0,0,0,0,0,,,,,,,,,,,
15214,0,0.0,180.24,,-0.04,-0.02,0.99,0,-0,0,0.99,1.31,76,3327,2.7,3.66,,12.63,0.959,100.6,,34.8,5,,,,,,,,,,,,0,0,0,0,0,0,0,0,0,0,0,0,0,0,0,0,,,,,0.0,,,,,,
15234,0,,,,,,,,,,,,,,,,,,,,,,,0,0,0,0,0.0,0.0,0.0,0.0,2.28,,,0,0,0,0,0,0,0,0,0,0,0,0,0,0,0,0,0,,,,,0.0,0.0,0.0,0,0,0.0
15254,0,0.0,180.37,,-0.03,-0.03,1.07,-1,-0,1,1.07,1.31,82,3327,2.7,3.66,,12.63,0.947,100.6,,34.8,5,,,,,,,,,,,,0,0,0,0,0,0,0,0,0,0,0,0,0,0,0,0,,,,,0.0,,,,,,
15274,0,,,,,,,,,,,,,,,,,,,,,,,,,,,,,,,,,,0,0,0,0,0,0,0,0,0,0,0,0,0,0,0,0,,,,,,,,,,,
15294,0,0.0,180.37,,-0.07,-0.1,1.11,0,-0,0,1.11,1.31,85,3220,2.7,3.65,,12.69,0.961,100.6,,34.8,5,,,,,,,,,,,,0,0,0,0,0,0,0,0,0,0,0,0,0,0,0,0,,,,,0.0,,,,,,
15314,0,,,,,,,,,,,,,,,,,,,,,,,,,,,,,,,,,,0,0,0,0,0,0,0,0,0,0,0,0,0,0,0,0,,,,,,,,,,,
15334,0,0.0,180.37,,-0.09,-0.09,1.05,1,-0,-0,1.05,1.31,81,3135,2.7,3.7,,12.76,0.997,100.6,,32.9,5,0,0,0,0,0.0,0.0,0.0,0.0,2.27,,,0,0,0,0,0,0,0,0,0,0,0,0,0,0,0,0,0,,,,0.0,0.0,0.0,0.0,0,0,0.0
15354,0,,,,,,,,,,,,,,,,,,,,,,,,,,,,,,,,,,0,0,0,0,0,0,0,0,0,0,0,0,0,0,0,0,,,,,,,,,,,
15374,0,0.0,180.37,,-0.07,0.0,0.95,1,-0,-0,0.95,1.31,73,3083,3.1,3.72,,12.76,0.997,100.6,,32.9,5,,,,,,,,,,,,0,0,0,0,0,0,0,0,0,0,0,0,0,0,0,0,,,,,0.0,,,,,,
15394,0,,,,,,,,,,,,,,,,,,,,,,,,,,,,,,,,,,0,0,0,0,0,0,0,0,0,0,0,0,0,0,0,0,,,,,,,,,,,
15414,0,0.0,180.24,,-0.04,0.07,0.86,0,-0,-0,0.87,1.31,66,3083,3.1,3.72,,12.79,1.031,100.6,,31.3,5,,,,,,,,,,,,0,0,0,0,0,0,0,0,0,0,0,0,0,0,0,0,,,,,0.0,,,,,,
15434,0,,,,,,,,,,,,,,,,,,,,,,,0,0,0,0,0.0,0.0,0.0,0.0,2.27,,,0,0,0,0,0,0,0,0,0,0,0,0,0,0,0,0,0,,,,,0.0,0.0,0.0,0,0,0.0
15454,0,0.0,180.24,,-0.01,0.1,0.81,0,-0,0,0.82,1.31,62,3021,5.8,3.94,,13.0,1.068,100.6,,31.3,5,,,,,,,,,,,,0,0,0,0,0,0,0,0,0,0,0,0,0,0,0,0,,,,,0.0,,,,,,
15474,0,,,,,,,,,,,,,,,,,,,,,,,,,,,,,,,,,,0,0,0,0,0,0,0,0,0,0,0,0,0,0,0,0,,,,,,,,,,,
15494,0,0.0,180.24,,0.01,0.13,0.77,-0,-0,0,0.78,1.31,59,2997,17.4,4.53,,13.71,1.096,100.6,,31.3,5,,,,,,,,,,,,0,0,0,0,0,0,0,0,0,0,0,0,0,0,0,0,,,,,0.0,,,,,,
15514,0,,,,,,,,,,,,,,,,,,,,,,,,,,,,,,,,,,0,0,0,0,0,0,0,0,0,0,0,0,0,0,0,0,,,,,,,,,,,
15534,0,0.0,180.37,,0.03,0.14,0.83,-1,-0,1,0.84,1.31,64,3175,28.0,4.21,,14.14,1.078,100.6,,31.2,5,0,0,0,0,0.0,0.0,0.0,0.0,2.27,,,0,0,0,0,0,0,0,0,0,0,0,0,0,0,0,0,0,,,,0.0,0.0,0.0,0.0,0,0,0.0
15554,0,,,,,,,,,,,,,,,,,,,,,,,,,,,,,,,,,,0,0,0,0,0,0,0,0,0,0,0,0,0,0,0,0,,,,,,,,,,,
15574,0,0.0,180.37,,-0.01,-0.02,0.85,-0,-0,0,0.85,1.31,65,3390,36.5,4.37,,14.14,1.078,100.6,,31.2,5,,,,,,,,,,,,0,0,0,0,0,0,0,0,0,0,0,0,0,0,0,0,,,,,0.0,,,,,,
15594,0,,,,,,,,,,,,,,,,,,,,,,,,,,,,,,,,,,0,0,0,0,0,0,0,0,0,0,0,0,0,0,0,0,,,,,,,,,,,
15614,0,0.0,180.37,,-0.03,-0.04,0.86,-0,-0,0,0.86,1.31,66,3390,36.5,4.37,,14.32,1.1,100.6,,36.3,5,,,,,,,,,,,,0,0,0,0,0,0,0,0,0,0,0,0,0,0,0,0,,,,,0.0,,,,,,
15634,0,,,,,,,,,,,,,,,,,,,,,,,0,0,0,0,0.0,0.0,0.0,0.0,2.27,,,0,0,0,0,0,0,0,0,0,0,0,0,0,0,0,0,0,,,,,0.0,0.0,0.0,0,0,0.0
15654,0,0.0,180.24,,-0.0,0.0,0.83,0,-0,-0,0.83,1.31,63,3699,37.7,4.12,,14.32,1.117,100.6,,36.3,5,,,,,,,,,,,,0,0,0,0,0,0,0,0,0,0,0,0,0,0,0,0,,,,,0.0,,,,,,
15674,0,,,,,,,,,,,,,,,,,,,,,,,,,,,,,,,,,,0,0,0,0,0,0,0,0,0,0,0,0,0,0,0,0,,,,,,,,,,,
15694,0,0.0,180.37,,0.01,-0.04,0.83,1,-0,-0,0.83,1.31,63,4491,36.1,4.27,,14.26,1.218,100.6,,36.3,5,,,,,,,,,,,,0,0,0,0,0,0,0,0,0,0,0,0,0,0,0,0,,,,,0.0,,,,,,
15714,0,,,,,,,,,,,,,,,,,,,,,,,,,,,,,,,,,,0,0,0,0,0,0,0,0,0,0,0,0,0,0,0,0,,,,,,,,,,,
15734,0,0.0,180.37,,-0.01,0.01,0.86,1,-0,-0,0.86,1.31,66,5012,27.8,4.71,,13.9,1.178,100.6,,50.7,5,0,0,0,0,0.0,0.0,0.0,0.0,2.27,,,0,0,0,0,0,0,0,0,0,0,0,0,0,0,0,0,0,,,,0.0,0.0,0.0,0.0,0,0,0.0
15754,0,,,,,,,,,,,,,,,,,,,,,,,,,,,,,,,,,,0,0,0,0,0,0,0,0,0,0,0,0,0,0,0,0,,,,,,,,,,,
15774,0,0.0,180.24,,-0.02,0.09,0.97,1,-0,-0,0.98,1.31,74,5616,10.4,3.63,,13.9,1.178,100.6,,50.7,5,,,,,,,,,,,,0,0,0,0,0,0,0,0,0,0,0,0,0,0,0,0,,,,,0.0,,,,,,
15794,0,,,,,,,,,,,,,,,,,,,,,,,,,,,,,,,,,,0,0,0,0,0,0,0,0,0,0,0,0,0,0,0,0,,,,,,,,,,,
15814,0,0.0,180.24,,0.05,-0.12,0.91,2,-0,-1,0.92,1.31,70,5616,10.4,3.63,,12.85,1.053,100.6,,60.7,5,,,,,,,,,,,,0,0,0,0,0,0,0,0,0,0,0,0,0,0,0,0,,,,,0.0,,,,,,
15834,0,,,,,,,,,,,,,,,,,,,,,,,0,0,0,0,0.0,0.0,0.0,0.0,2.26,,,0,0,0,0,0,0,0,0,0,0,0,0,0,0,0,0,0,,,,,0.0,0.0,0.0,0,0,0.0
15854,0,0.0,180.24,,0.07,-0.28,0.81,1,-0,-1,0.86,1.31,66,5912,0.0,1.81,,11.49,1.007,100.6,,60.7,5,,,,,,,,,,,,0,0,0,0,0,0,0,0,0,0,0,0,0,0,0,0,,,,,0.0,,,,,,
15874,0,,,,,,,,,,,,,,,,,,,,,,,,,,,,,,,,,,0,0,0,0,0,0,0,0,0,0,0,0,0,0,0,0,,,,,,,,,,,
15894,0,0.0,180.24,,0.07,-0.4,0.69,0,-0,-1,0.8,1.31,61,5976,0.0,1.4,,10.3,1.047,100.6,,60.7,5,,,,,,,,,,,,0,0,0,0,0,0,0,0,0,0,0,0,0,0,0,0,,,,,0.0,,,,,,
15914,0,,,,,,,,,,,,,,,,,,,,,,,,,,,,,,,,,,0,0,0,0,0,0,0,0,0,0,0,0,0,0,0,0,,,,,,,,,,,
15934,0,0.0,180.24,,-0.01,-0.2,0.66,-2,-0,-0,0.69,1.31,53,5764,7.5,2.71,,10.4,1.054,100.6,,62.6,5,0,0,0,0,0.0,0.0,0.0,0.0,2.27,,,0,0,0,0,0,0,0,0,0,0,0,0,0,0,0,0,0,,,,0.0,0.0,0.0,0.0,0,0,0.0
15954,0,,,,,,,,,,,,,,,,,,,,,,,,,,,,,,,,,,0,0,0,0,0,0,0,0,0,0,0,0,0,0,0,0,,,,,,,,,,,
15974,0,0.0,180.24,,0.02,-0.22,0.76,-0,-0,-0,0.79,1.31,60,5557,21.4,3.73,,10.4,1.054,100.6,,62.6,5,,,,,,,,,,,,0,0,0,0,0,0,0,0,0,0,0,0,0,0,0,0,,,,,0.0,,,,,,
15994,0,,,,,,,,,,,,,,,,,,,,,,,,,,,,,,,,,,0,0,0,0,0,0,0,0,0,0,0,0,0,0,0,0,,,,,,,,,,,
16014,0,0.0,180.12,,-0.02,-0.13,0.82,-1,-0,0,0.83,1.31,63,5557,21.4,3.73,,11.84,1.068,100.6,,59.5,5,,,,,,,,,,,,0,0,0,0,0,0,0,0,0,0,0,0,0,0,0,0,,,,,0.0,,,,,,
16034,0,,,,,,,,,,,,,,,,,,,,,,,0,0,0,0,0.0,0.0,0.0,0.0,2.28,,,0,0,0,0,0,0,0,0,0,0,0,0,0,0,0,0,0,,,,,0.0,0.0,0.0,0,0,0.0
16054,0,0.0,180.12,,-0.0,-0.17,0.8,-0,-0,-0,0.81,1.31,62,5545,31.9,4.59,,13.2,1.213,98.8,,59.5,5,,,,,,,,,,,,0,0,0,0,0,0,0,0,0,0,0,0,0,0,0,0,,,,,0.0,,,,,,
16074,0,,,,,,,,,,,,,,,,,,,,,,,,,,,,,,,,,,0,0,0,0,0,0,0,0,0,0,0,0,0,0,0,0,,,,,,,,,,,
16094,0,0.0,180.12,,-0.02,-0.2,0.75,-0,-0,-0,0.78,1.31,60,5972,33.9,4.57,,13.33,1.248,98.8,,59.5,5,,,,,,,,,,,,0,0,0,0,0,0,0,0,0,0,0,0,0,0,0,0,,,,,0.0,,,,,,
16114,0,,,,,,,,,,,,,,,,,,,,,,,,,,,,,,,,,,0,0,0,0,0,0,0,0,0,0,0,0,0,0,0,0,,,,,,,,,,,
16134,0,0.0,180.12,13.59,-0.03,-0.13,0.82,-1,-0,-0,0.83,1.31,64,6501,16.2,4.49,15,13.33,1.248,98.8,176,62.6,5,0,0,0,0,0.0,0.0,0.0,0.0,2.28,0,0.0,0,0,0,0,0,0,0,0,0,0,0,0,0,0,0,0,0,0.0,0,-0,0.0,0.0,0.0,0.0,0,0,0.0
16154,0,,,,,,,,,,,,,,,,,,,,,,,,,,,,,,,,,,0,0,0,0,0,0,0,0,0,0,0,0,0,0,0,0,,,,,,,,,,,
16174,0,0.0,180.12,,-0.07,-0.13,0.83,-1,-0,-0,0.84,1.31,64,6501,16.2,4.49,,12.59,1.217,98.8,,62.6,5,,,,,,,,,,,,0,0,0,0,0,0,0,0,0,0,0,0,0,0,0,0,,,,,0.0,,,,,,
16194,0,,,,,,,,,,,,,,,,,,,,,,,,,,,,,,,,,,0,0,0,0,0,0,0,0,0,0,0,0,0,0,0,0,,,,,,,,,,,
16214,0,0.0,180.12,,-0.05,-0.09,0.83,0,-0,-0,0.83,1.31,64,6997,0.0,1.4,,10.7,1.123,98.8,,65.9,5,,,,,,,,,,,,0,0,0,0,0,0,0,0,0,0,0,0,0,0,0,0,,,,,0.0,,,,,,
16234,0,,,,,,,,,,,,,,,,,,,,,,,0,0,0,0,0.0,0.0,0.0,0.0,2.27,,,0,0,0,0,0,0,0,0,0,0,0,0,0,0,0,0,0,,,,,0.0,0.0,0.0,0,0,0.0
16254,0,0.0,180.12,,-0.05,-0.09,0.82,0,-0,-0,0.83,1.31,63,6869,0.0,1.4,,9.48,1.05,98.8,,65.9,5,,,,,,,,,,,,0,0,0,0,0,0,0,0,0,0,0,0,0,0,0,0,,,,,0.0,,,,,,
16274,0,,,,,,,,,,,,,,,,,,,,,,,,,,,,,,,,,,0,0,0,0,0,0,0,0,0,0,0,0,0,0,0,0,,,,,,,,,,,
16294,0,0.0,180.12,,-0.02,-0.09,0.91,-1,-0,0,0.92,1.31,70,6477,12.7,3.09,,9.72,0.957,98.8,,65.9,5,,,,,,,,,,,,0,0,0,0,0,0,0,0,0,0,0,0,0,0,0,0,,,,,0.0,,,,,,
16314,0,,,,,,,,,,,,,,,,,,,,,,,,,,,,,,,,,,0,0,0,0,0,0,0,0,0,0,0,0,0,0,0,0,,,,,,,,,,,
16334,0,0.0,180.12,,-0.03,-0.06,0.93,-0,-0,0,0.93,1.31,71,6514,26.1,4.42,,9.72,0.957,98.8,,60.3,5,0,0,0,0,0.0,0.0,0.0,0.0,2.27,,,0,0,0,0,0,0,0,0,0,0,0,0,0,0,0,0,0,,,,0.0,0.0,0.0,0.0,0,0,0.0
16354,0,,,,,,,,,,,,,,,,,,,,,,,,,,,,,,,,,,0,0,0,0,0,0,0,0,0,0,0,0,0,0,0,0,,,,,,,,,,,
16374,0,0.0,180.12,,-0.03,0.02,0.94,-0,-0,0,0.94,1.31,72,6514,26.1,4.42,,11.56,1.164,98.8,,60.3,5,,,,,,,,,,,,0,0,0,0,0,0,0,0,0,0,0,0,0,0,0,0,,,,,0.0,,,,,,
16394,0,,,,,,,,,,,,,,,,,,,,,,,,,,,,,,,,,,0,0,0,0,0,0,0,0,0,0,0,0,0,0,0,0,,,,,,,,,,,
16414,0,0.0,180.12,,-0.04,-0.01,0.94,2,-0,-0,0.94,1.31,72,7043,30.9,4.61,,12.44,1.25,98.8,,67.0,5,,,,,,,,,,,,0,0,0,0,0,0,0,0,0,0,0,0,0,0,0,0,,,,,0.0,,,,,,
16434,0,,,,,,,,,,,,,,,,,,,,,,,0,0,0,0,0.0,0.0,0.0,0.0,2.27,,,0,0,0,0,0,0,0,0,0,0,0,0,0,0,0,0,0,,,,,0.0,0.0,0.0,0,0,0.0
16454,0,0.0,180.24,,-0.06,0.09,0.88,2,-0,-0,0.89,1.31,68,7980,25.3,4.85,,12.13,1.096,98.8,,67.0,5,,,,,,,,,,,,0,0,0,0,0,0,0,0,0,0,0,0,0,0,0,0,,,,,0.0,,,,,,
16474,0,,,,,,,,,,,,,,,,,,,,,,,,,,,,,,,,,,0,0,0,0,0,0,0,0,0,0,0,0,0,0,0,0,,,,,,,,,,,
16494,0,0.0,180.12,,-0.07,0.25,0.84,3,-0,-0,0.88,1.31,67,9127,2.6,1.71,,9.81,0.979,98.8,,67.0,5,,,,,,,,,,,,0,0,0,0,0,0,0,0,0,0,0,0,0,0,0,0,,,,,0.0,,,,,,
16514,0,,,,,,,,,,,,,,,,,,,,,,,,,,,,,,,,,,0,0,0,0,0,0,0,0,0,0,0,0,0,0,0,0,,,,,,,,,,,
16534,0,0.0,180.12,,-0.06,0.15,0.89,3,-0,-1,0.9,1.31,69,9603,0.3,1.4,,9.81,0.979,98.8,,69.1,5,0,0,0,0,0.0,0.0,0.0,0.0,2.28,,,0,0,0,0,0,0,0,0,0,0,0,0,0,0,0,0,0,,,,0.0,0.0,0.0,0.0,0,0,0.0
16554,0,,,,,,,,,,,,,,,,,,,,,,,,,,,,,,,,,,0,0,0,0,0,0,0,0,0,0,0,0,0,0,0,0,,,,,,,,,,,
16574,0,0.0,180.12,,-0.04,0.06,0.87,2,-0,0,0.87,1.31,67,9603,0.3,1.4,,7.78,0.857,98.8,,69.1,5,,,,,,,,,,,,0,0,0,0,0,0,0,0,0,0,0,0,0,0,0,0,,,,,0.0,,,,,,
16594,0,,,,,,,,,,,,,,,,,,,,,,,,,,,,,,,,,,0,0,0,0,0,0,0,0,0,0,0,0,0,0,0,0,,,,,,,,,,,
16614,0,0.0,179.99,,-0.07,0.09,0.95,2,-0,-0,0.95,1.31,73,9255,11.6,2.23,,7.5,0.823,98.8,,65.9,5,,,,,,,,,,,,0,0,0,0,0,0,0,0,0,0,0,0,0,0,0,0,,,,,0.0,,,,,,
16634,0,,,,,,,,,,,,,,,,,,,,,,,0,0,0,0,0.0,0.0,0.0,0.0,2.28,,,0,0,0,0,0,0,0,0,0,0,0,0,0,0,0,0,0,,,,,0.0,0.0,0.0,0,0,0.0
16654,0,0.0,179.99,,-0.03,0.18,0.95,2,-0,-0,0.96,1.31,73,9568,23.4,2.93,,8.74,1.068,98.8,,65.9,5,,,,,,,,,,,,0,0,0,0,0,0,0,0,0,0,0,0,0,0,0,0,,,,,0.0,,,,,,
16674,0,,,,,,,,,,,,,,,,,,,,,,,,,,,,,,,,,,0,0,0,0,0,0,0,0,0,0,0,0,0,0,0,0,,,,,,,,,,,
16694,0,0.0,179.86,,-0.01,0.11,1.01,2,-0,-0,1.02,1.31,78,10055,25.4,3.27,,9.54,1.144,98.8,,65.9,5,,,,,,,,,,,,0,0,0,0,0,0,0,0,0,0,0,0,0,0,0,0,,,,,0.0,,,,,,
16714,0,,,,,,,,,,,,,,,,,,,,,,,,,,,,,,,,,,0,0,0,0,0,0,0,0,0,0,0,0,0,0,0,0,,,,,,,,,,,
16734,0,0.0,179.86,,-0.07,0.34,1.02,0,-0,-0,1.08,1.31,82,10575,5.7,2.42,,9.54,1.144,98.8,,69.3,5,0,0,0,0,0.0,0.0,0.0,0.0,2.26,,,0,0,0,0,0,0,0,0,0,0,0,0,0,0,0,0,0,,,,0.0,0.0,0.0,0.0,0,0,0.0
16754,0,,,,,,,,,,,,,,,,,,,,,,,,,,,,,,,,,,0,0,0,0,0,0,0,0,0,0,0,0,0,0,0,0,,,,,,,,,,,
16774,0,0.0,179.74,,-0.02,0.4,1.06,1,0,-0,1.13,1.31,87,10575,5.7,2.42,,7.63,1.075,98.8,,69.3,5,,,,,,,,,,,,0,0,0,0,0,0,0,0,0,0,0,0,0,0,0,0,,,,,0.0,,,,,,
16794,0,,,,,,,,,,,,,,,,,,,,,,,,,,,,,,,,,,0,0,0,0,0,0,0,0,0,0,0,0,0,0,0,0,,,,,,,,,,,
16814,0,0.0,179.74,,-0.01,0.05,0.98,2,-0,-1,0.98,1.31,75,10734,0.3,1.4,,6.3,0.967,98.8,,67.6,5,,,,,,,,,,,,0,0,0,0,0,0,0,0,0,0,0,0,0,0,0,0,,,,,0.0,,,,,,
16834,0,,,,,,,,,,,,,,,,,,,,,,,0,0,0,0,0.0,0.0,0.0,0.0,2.27,,,0,0,0,0,0,0,0,0,0,0,0,0,0,0,0,0,0,,,,,0.0,0.0,0.0,0,0,0.0
16854,0,0.0,179.61,,0.01,-0.3,1.07,2,-0,-0,1.11,1.31,85,10399,0.0,1.4,,5.5,0.945,98.8,,67.6,5,,,,,,,,,,,,0,0,0,0,0,0,0,0,0,0,0,0,0,0,0,0,,,,,0.0,,,,,,
16874,0,,,,,,,,,,,,,,,,,,,,,,,,,,,,,,,,,,0,0,0,0,0,0,0,0,0,0,0,0,0,0,0,0,,,,,,,,,,,
16894,0,0.0,179.49,,0.03,-0.35,0.98,2,-0,-0,1.04,1.31,80,10160,0.0,1.4,,5.5,0.945,98.8,,67.6,5,,,,,,,,,,,,0,0,0,0,0,0,0,0,0,0,0,0,0,0,0,0,,,,,0.0,,,,,,
16914,0,,,,,,,,,,,,,,,,,,,,,,,,,,,,,,,,,,0,0,0,0,0,0,0,0,0,0,0,0,0,0,0,0,,,,,,,,,,,
16934,0,0.0,179.49,,0.01,-0.26,0.98,1,-0,0,1.02,1.31,78,10160,0.0,1.4,,5.26,1.092,98.8,,67.6,5,0,0,0,0,0.0,0.0,0.0,0.0,2.28,,,0,0,0,0,0,0,0,0,0,0,0,0,0,0,0,0,0,,,,0.0,0.0,0.0,0.0,0,0,0.0
16954,0,,,,,,,,,,,,,,,,,,,,,,,,,,,,,,,,,,0,0,0,0,0,0,0,0,0,0,0,0,0,0,0,0,,,,,,,,,,,
16974,0,0.0,179.49,,-0.03,-0.37,1.0,1,-0,0,1.07,1.31,81,9942,0.0,1.4,,4.97,1.094,98.8,,67.6,5,,,,,,,,,,,,0,0,0,0,0,0,0,0,0,0,0,0,0,0,0,0,,,,,0.0,,,,,,
16994,0,,,,,,,,,,,,,,,,,,,,,,,,,,,,,,,,,,0,0,0,0,0,0,0,0,0,0,0,0,0,0,0,0,,,,,,,,,,,
17014,0,0.0,179.36,,-0.0,-0.26,1.04,-0,-0,1,1.07,1.31,81,9656,0.0,1.4,,4.93,1.056,98.8,,67.6,5,,,,,,,,,,,,0,0,0,0,0,0,0,0,0,0,0,0,0,0,0,0,,,,,0.0,,,,,,
17034,0,,,,,,,,,,,,,,,,,,,,,,,0,0,0,0,0.0,0.0,0.0,0.0,2.27,,,0,0,0,0,0,0,0,0,0,0,0,0,0,0,0,0,0,,,,,0.0,0.0,0.0,0,0,0.0
17054,0,0.0,179.36,,-0.02,-0.28,1.1,0,-0,1,1.14,1.31,87,9363,0.0,1.4,,4.83,1.047,98.8,,66.3,5,,,,,,,,,,,,0,0,0,0,0,0,0,0,0,0,0,0,0,0,0,0,,,,,0.0,,,,,,
17074,0,,,,,,,,,,,,,,,,,,,,,,,,,,,,,,,,,,0,0,0,0,0,0,0,0,0,0,0,0,0,0,0,0,,,,,,,,,,,
17094,0,0.0,179.36,,-0.06,-0.07,1.03,-0,-1,1,1.04,1.31,79,9114,0.0,1.4,,4.83,1.047,89.8,,66.3,5,,,,,,,,,,,,0,0,0,0,0,0,0,0,0,0,0,0,0,0,0,0,,,,,0.0,,,,,,
17114,0,,,,,,,,,,,,,,,,,,,,,,,,,,,,,,,,,,0,0,0,0,0,0,0,0,0,0,0,0,0,0,0,0,,,,,,,,,,,
17134,0,0.0,179.36,13.57,-0.08,0.05,1.01,-1,-1,1,1.01,1.31,77,9114,0.0,1.4,15,4.8,1.056,89.8,176,63.8,5,0,0,0,0,0.0,0.0,0.0,0.0,2.27,0,0.0,0,0,0,0,0,0,0,0,0,0,0,0,0,0,0,0,0,0.0,0,-0,0.0,0.0,0.0,0.0,0,0,0.0
17154,0,,,,,,,,,,,,,,,,,,,,,,,,,,,,,,,,,,0,0,0,0,0,0,0,0,0,0,0,0,0,0,0,0,,,,,,,,,,,
17174,0,0.0,179.11,,-0.09,0.03,1.02,0,-1,0,1.02,1.31,78,8816,0.3,1.4,,4.83,1.082,89.8,,63.8,5,,,,,,,,,,,,0,0,0,0,0,0,0,0,0,0,0,0,0,0,0,0,,,,,0.0,,,,,,
17194,0,,,,,,,,,,,,,,,,,,,,,,,,,,,,,,,,,,0,0,0,0,0,0,0,0,0,0,0,0,0,0,0,0,,,,,,,,,,,
17214,0,0.0,179.11,,-0.08,0.02,1.0,1,-1,1,1.0,1.31,77,8498,0.3,1.4,,4.96,1.099,89.8,,63.8,5,,,,,,,,,,,,0,0,0,0,0,0,0,0,0,0,0,0,0,0,0,0,,,,,0.0,,,,,,
17234,0,,,,,,,,,,,,,,,,,,,,,,,0,0,0,0,0.0,0.0,0.0,0.0,2.27,,,0,0,0,0,0,0,0,0,0,0,0,0,0,0,0,0,0,,,,,0.0,0.0,0.0,0,0,0.0
17254,0,0.0,179.11,,-0.11,0.04,0.96,1,-1,1,0.97,1.31,74,8199,0.3,1.4,,4.99,1.112,89.8,,64.2,5,,,,,,,,,,,,0,0,0,0,0,0,0,0,0,0,0,0,0,0,0,0,,,,,0.0,,,,,,
17274,0,,,,,,,,,,,,,,,,,,,,,,,,,,,,,,,,,,0,0,0,0,0,0,0,0,0,0,0,0,0,0,0,0,,,,,,,,,,,
17294,0,0.0,179.11,,-0.1,0.13,0.93,-1,-0,1,0.94,1.31,72,7880,0.3,1.4,,4.99,1.112,89.8,,64.2,5,,,,,,,,,,,,0,0,0,0,0,0,0,0,0,0,0,0,0,0,0,0,,,,,0.0,,,,,,
17314,0,,,,,,,,,,,,,,,,,,,,,,,,,,,,,,,,,,0,0,0,0,0,0,0,0,0,0,0,0,0,0,0,0,,,,,,,,,,,
17334,0,0.0,179.11,,-0.12,0.01,0.93,-1,-0,1,0.94,1.31,72,7880,0.3,1.4,,5.18,1.16,89.8,,60.9,5,0,0,0,0,0.0,0.0,0.0,0.0,2.28,,,0,0,0,0,0,0,0,0,0,0,0,0,0,0,0,0,0,,,,0.0,0.0,0.0,0.0,0,0,0.0
17354,0,,,,,,,,,,,,,,,,,,,,,,,,,,,,,,,,,,0,0,0,0,0,0,0,0,0,0,0,0,0,0,0,0,,,,,,,,,,,
17374,0,0.0,179.11,,-0.14,0.02,0.95,-2,-0,1,0.96,1.31,73,7525,7.9,1.71,,5.87,1.221,89.8,,60.9,5,,,,,,,,,,,,0,0,0,0,0,0,0,0,0,0,0,0,0,0,0,0,,,,,0.0,,,,,,
17394,0,,,,,,,,,,,,,,,,,,,,,,,,,,,,,,,,,,0,0,0,0,0,0,0,0,0,0,0,0,0,0,0,0,,,,,,,,,,,
17414,0,0.0,179.11,,-0.09,0.01,0.97,-1,-0,1,0.97,1.31,74,7134,19.7,3.09,,7.87,1.25,89.8,,60.9,5,,,,,,,,,,,,0,0,0,0,0,0,0,0,0,0,0,0,0,0,0,0,,,,,0.0,,,,,,
17434,0,,,,,,,,,,,,,,,,,,,,,,,0,0,0,0,0.0,0.0,0.0,0.0,2.27,,,0,0,0,0,0,0,0,0,0,0,0,0,0,0,0,0,0,,,,,0.0,0.0,0.0,0,0,0.0
17454,0,0.0,178.98,,-0.08,0.0,0.95,-2,-0,1,0.95,1.31,73,7202,31.0,3.74,,11.0,1.252,89.8,,60.8,5,,,,,,,,,,,,0,0,0,0,0,0,0,0,0,0,0,0,0,0,0,0,,,,,0.0,,,,,,
17474,0,,,,,,,,,,,,,,,,,,,,,,,,,,,,,,,,,,0,0,0,0,0,0,0,0,0,0,0,0,0,0,0,0,,,,,,,,,,,
17494,0,0.0,178.98,,-0.08,0.05,0.99,-4,-0,1,0.99,1.31,76,7540,32.7,4.89,,11.0,1.252,89.8,,60.8,5,,,,,,,,,,,,0,0,0,0,0,0,0,0,0,0,0,0,0,0,0,0,,,,,0.0,,,,,,
17514,0,,,,,,,,,,,,,,,,,,,,,,,,,,,,,,,,,,0,0,0,0,0,0,0,0,0,0,0,0,0,0,0,0,,,,,,,,,,,
17534,0,0.0,179.11,,-0.08,-0.01,0.96,-4,-0,1,0.97,1.31,74,7540,32.7,4.89,,11.99,1.194,89.8,,68.4,5,0,0,0,0,0.0,0.0,0.0,0.0,2.27,,,0,0,0,0,0,0,0,0,0,0,0,0,0,0,0,0,0,,,,0.0,0.0,0.0,0.0,0,0,0.0
17554,0,,,,,,,,,,,,,,,,,,,,,,,,,,,,,,,,,,0,0,0,0,0,0,0,0,0,0,0,0,0,0,0,0,,,,,,,,,,,
17574,0,0.0,179.11,,-0.08,0.1,0.89,-4,-0,1,0.9,1.31,68,8617,16.0,5.07,,10.9,1.079,89.8,,68.4,5,,,,,,,,,,,,0,0,0,0,0,0,0,0,0,0,0,0,0,0,0,0,,,,,0.0,,,,,,
17594,0,,,,,,,,,,,,,,,,,,,,,,,,,,,,,,,,,,0,0,0,0,0,0,0,0,0,0,0,0,0,0,0,0,,,,,,,,,,,
17614,0,0.0,178.98,,-0.07,0.04,0.94,-4,-0,1,0.95,1.31,72,9584,1.0,1.4,,8.5,0.934,89.8,,68.4,5,,,,,,,,,,,,0,0,0,0,0,0,0,0,0,0,0,0,0,0,0,0,,,,,0.0,,,,,,
17634,0,,,,,,,,,,,,,,,,,,,,,,,0,0,0,0,0.0,0.0,0.0,0.0,2.27,,,0,0,0,0,0,0,0,0,0,0,0,0,0,0,0,0,0,,,,,0.0,0.0,0.0,0,0,0.0
17654,0,0.0,179.11,,-0.07,-0.06,1.0,-3,-0,1,1.01,1.31,77,9447,0.5,1.4,,6.84,0.855,89.8,,70.4,5,,,,,,,,,,,,0,0,0,0,0,0,0,0,0,0,0,0,0,0,0,0,,,,,0.0,,,,,,
17674,0,,,,,,,,,,,,,,,,,,,,,,,,,,,,,,,,,,0,0,0,0,0,0,0,0,0,0,0,0,0,0,0,0,,,,,,,,,,,
17694,0,0.0,178.98,,-0.08,-0.12,1.06,-2,-0,1,1.07,1.31,81,8866,0.3,1.4,,6.84,0.855,89.8,,70.4,5,,,,,,,,,,,,0,0,0,0,0,0,0,0,0,0,0,0,0,0,0,0,,,,,0.0,,,,,,
17714,0,,,,,,,,,,,,,,,,,,,,,,,,,,,,,,,,,,0,0,0,0,0,0,0,0,0,0,0,0,0,0,0,0,,,,,,,,,,,
17734,0,0.0,178.98,,-0.08,-0.08,1.05,-3,-0,1,1.05,1.31,80,8866,0.3,1.4,,6.07,0.929,89.8,,62.8,5,0,0,0,0,0.0,0.0,0.0,0.0,2.28,,,0,0,0,0,0,0,0,0,0,0,0,0,0,0,0,0,0,,,,0.0,0.0,0.0,0.0,0,0,0.0
17754,0,,,,,,,,,,,,,,,,,,,,,,,,,,,,,,,,,,0,0,0,0,0,0,0,0,0,0,0,0,0,0,0,0,,,,,,,,,,,
17774,0,0.0,178.98,,-0.09,-0.05,1.03,-2,-0,1,1.04,1.31,79,8414,0.1,1.4,,5.74,1.246,89.8,,62.8,5,,,,,,,,,,,,0,0,0,0,0,0,0,0,0,0,0,0,0,0,0,0,,,,,0.0,,,,,,
17794,0,,,,,,,,,,,,,,,,,,,,,,,,,,,,,,,,,,0,0,0,0,0,0,0,0,0,0,0,0,0,0,0,0,,,,,,,,,,,
17814,0,0.0,178.98,,-0.11,-0.14,1.03,0,-0,0,1.05,1.31,80,7932,4.6,1.67,,5.98,1.249,89.8,,62.8,5,,,,,,,,,,,,0,0,0,0,0,0,0,0,0,0,0,0,0,0,0,0,,,,,0.0,,,,,,
17834,0,,,,,,,,,,,,,,,,,,,,,,,0,0,0,0,0.0,0.0,0.0,0.0,2.28,,,0,0,0,0,0,0,0,0,0,0,0,0,0,0,0,0,0,,,,,0.0,0.0,0.0,0,0,0.0
17854,0,0.0,178.86,,-0.09,-0.2,1.06,2,-0,-0,1.08,1.31,83,7533,22.0,2.57,,7.85,1.25,89.8,,60.9,5,,,,,,,,,,,,0,0,0,0,0,0,0,0,0,0,0,0,0,0,0,0,,,,,0.0,,,,,,
17874,0,,,,,,,,,,,,,,,,,,,,,,,,,,,,,,,,,,0,0,0,0,0,0,0,0,0,0,0,0,0,0,0,0,,,,,,,,,,,
17894,0,0.0,178.98,,-0.07,-0.2,1.04,4,-0,-1,1.06,1.31,81,7392,41.6,3.67,,7.85,1.25,89.8,,60.9,5,,,,,,,,,,,,0,0,0,0,0,0,0,0,0,0,0,0,0,0,0,0,,,,,0.0,,,,,,
17914,0,,,,,,,,,,,,,,,,,,,,,,,,,,,,,,,,,,0,0,0,0,0,0,0,0,0,0,0,0,0,0,0,0,,,,,,,,,,,
17934,0,0.0,178.98,,-0.1,-0.3,1.0,5,-0,-1,1.05,1.31,80,7392,41.6,3.67,,11.46,1.251,89.8,,60.1,5,1,0,0,0,0.0,0.0,0.0,0.0,2.27,,,0,0,0,0,0,0,0,0,0,0,0,0,0,0,0,0,0,,,,0.0,0.0,0.0,0.0,0,0,0.0
17954,0,,,,,,,,,,,,,,,,,,,,,,,,,,,,,,,,,,0,0,0,0,0,0,0,0,0,0,0,0,0,0,0,0,,,,,,,,,,,
17974,0,0.0,178.86,,-0.09,-0.25,1.0,6,-0,-1,1.04,1.31,79,7480,47.6,4.95,,13.31,1.251,89.8,,60.1,5,,,,,,,,,,,,0,0,0,0,0,0,0,0,0,0,0,0,0,0,0,0,,,,,0.0,,,,,,
17994,0,,,,,,,,,,,,,,,,,,,,,,,,,,,,,,,,,,0,0,0,0,0,0,0,0,0,0,0,0,0,0,0,0,,,,,,,,,,,
18014,0,0.0,178.98,,-0.06,-0.33,1.07,5,-0,-1,1.12,1.31,86,8442,35.7,4.73,,12.77,1.25,89.8,,60.1,5,,,,,,,,,,,,0,0,0,0,0,0,0,0,0,0,0,0,0,0,0,0,,,,,0.0,,,,,,
18034,0,,,,,,,,,,,,,,,,,,,,,,,1,0,0,0,0.0,0.0,0.0,0.0,2.27,,,0,0,0,0,0,0,0,0,0,0,0,0,0,0,0,0,0,,,,,0.0,0.0,0.0,0,0,0.0
18054,0,0.0,178.98,,-0.02,-0.15,1.07,6,-0,-2,1.09,1.31,83,9607,7.7,3.11,,10.2,1.119,89.8,,70.3,5,,,,,,,,,,,,0,0,0,0,0,0,0,0,0,0,0,0,0,0,0,0,,,,,0.0,,,,,,
18074,0,,,,,,,,,,,,,,,,,,,,,,,,,,,,,,,,,,0,0,0,0,0,0,0,0,0,0,0,0,0,0,0,0,,,,,,,,,,,
18094,0,0.0,178.98,,-0.04,-0.11,1.08,6,-0,-1,1.09,1.31,83,10197,0.6,1.4,,10.2,1.119,98.8,,70.3,5,,,,,,,,,,,,0,0,0,0,0,0,0,0,0,0,0,0,0,0,0,0,,,,,0.0,,,,,,
18114,0,,,,,,,,,,,,,,,,,,,,,,,,,,,,,,,,,,0,0,0,0,0,0,0,0,0,0,0,0,0,0,0,0,,,,,,,,,,,
18134,0,0.0,178.98,13.58,-0.05,-0.04,1.1,6,-0,-2,1.11,1.31,84,10197,0.6,1.4,15,7.79,0.989,98.8,178,65.8,5,1,0,0,0,0.0,0.0,0.0,0.0,2.27,0,0.0,0,0,0,0,0,0,0,0,0,0,0,0,0,0,0,0,0,0.0,0,-0,0.0,0.0,0.0,0.0,0,0,0.0
18154,0,,,,,,,,,,,,,,,,,,,,,,,,,,,,,,,,,,0,0,0,0,0,0,0,0,0,0,0,0,0,0,0,0,,,,,,,,,,,
18174,0,0.0,178.98,,-0.05,-0.19,1.09,5,-0,-2,1.1,1.31,84,9681,0.3,1.4,,6.56,0.923,98.8,,65.8,5,,,,,,,,,,,,0,0,0,0,0,0,0,0,0,0,0,0,0,0,0,0,,,,,0.0,,,,,,
18194,0,,,,,,,,,,,,,,,,,,,,,,,,,,,,,,,,,,0,0,0,0,0,0,0,0,0,0,0,0,0,0,0,0,,,,,,,,,,,
18214,0,0.0,178.98,,-0.0,-0.34,1.15,5,-0,-1,1.2,1.31,91,9166,0.1,1.4,,5.92,1.214,98.8,,65.8,5,,,,,,,,,,,,0,0,0,0,0,0,0,0,0,0,0,0,0,0,0,0,,,,,0.0,,,,,,
18234,0,,,,,,,,,,,,,,,,,,,,,,,1,0,0,0,0.0,0.0,0.0,0.0,2.28,,,0,0,0,0,0,0,0,0,0,0,0,0,0,0,0,0,0,,,,,0.0,0.0,0.0,0,0,0.0
18254,0,0.0,178.86,,0.01,-0.3,1.12,4,-0,-1,1.15,1.31,88,8667,2.6,1.4,,5.74,1.248,98.8,,63.1,5,,,,,,,,,,,,0,0,0,0,0,0,0,0,0,0,0,0,0,0,0,0,,,,,0.0,,,,,,
18274,0,,,,,,,,,,,,,,,,,,,,,,,,,,,,,,,,,,0,0,0,0,0,0,0,0,0,0,0,0,0,0,0,0,,,,,,,,,,,
18294,0,0.0,178.86,,-0.0,-0.32,1.11,3,-0,-1,1.15,1.31,88,8226,21.8,2.58,,5.74,1.248,98.8,,63.1,5,,,,,,,,,,,,0,0,0,0,0,0,0,0,0,0,0,0,0,0,0,0,,,,,0.0,,,,,,
18314,0,,,,,,,,,,,,,,,,,,,,,,,,,,,,,,,,,,0,0,0,0,0,0,0,0,0,0,0,0,0,0,0,0,,,,,,,,,,,
18334,0,0.0,178.86,,-0.02,-0.2,1.09,3,-0,-1,1.11,1.31,85,8226,21.8,2.58,,7.42,1.25,98.8,,61.0,5,1,0,0,0,0.0,0.0,0.0,0.0,2.28,,,0,0,0,0,0,0,0,0,0,0,0,0,0,0,0,0,0,,,,0.0,0.0,0.0,0.0,0,0,0.0
18354,0,,,,,,,,,,,,,,,,,,,,,,,,,,,,,,,,,,0,0,0,0,0,0,0,0,0,0,0,0,0,0,0,0,,,,,,,,,,,
18374,0,0.0,178.86,,-0.03,-0.25,1.11,5,-0,-1,1.14,1.31,87,7982,44.0,3.13,,10.85,1.251,98.8,,61.0,5,,,,,,,,,,,,0,0,0,0,0,0,0,0,0,0,0,0,0,0,0,0,,,,,0.0,,,,,,
18394,0,,,,,,,,,,,,,,,,,,,,,,,,,,,,,,,,,,0,0,0,0,0,0,0,0,0,0,0,0,0,0,0,0,,,,,,,,,,,
18414,0,0.0,178.98,,-0.04,-0.17,1.08,5,-0,-1,1.09,1.31,83,7780,54.5,4.73,,13.29,1.252,98.8,,61.0,5,,,,,,,,,,,,0,0,0,0,0,0,0,0,0,0,0,0,0,0,0,0,,,,,0.0,,,,,,
18434,0,,,,,,,,,,,,,,,,,,,,,,,1,0,0,0,0.0,0.0,0.0,0.0,2.27,,,0,0,0,0,0,0,0,0,0,0,0,0,0,0,0,0,0,,,,,0.0,0.0,0.0,0,0,0.0
18454,0,0.0,178.86,,-0.02,-0.3,1.12,4,-0,-1,1.16,1.31,89,7980,51.9,4.47,,13.6,1.252,98.8,,60.7,5,,,,,,,,,,,,0,0,0,0,0,0,0,0,0,0,0,0,0,0,0,0,,,,,0.0,,,,,,
18474,0,,,,,,,,,,,,,,,,,,,,,,,,,,,,,,,,,,0,0,0,0,0,0,0,0,0,0,0,0,0,0,0,0,,,,,,,,,,,
18494,0,0.0,178.98,,-0.03,-0.24,1.07,3,-0,-1,1.1,1.31,84,8622,22.5,4.51,,13.6,1.252,98.8,,60.7,5,,,,,,,,,,,,0,0,0,0,0,0,0,0,0,0,0,0,0,0,0,0,,,,,0.0,,,,,,
18514,0,,,,,,,,,,,,,,,,,,,,,,,,,,,,,,,,,,0,0,0,0,0,0,0,0,0,0,0,0,0,0,0,0,,,,,,,,,,,
18534,0,0.0,178.98,,-0.02,-0.06,1.08,2,-0,-0,1.08,1.31,82,8622,22.5,4.51,,12.04,1.252,98.8,,69.1,5,1,0,0,0,0.0,0.0,0.0,0.0,2.26,,,0,0,0,0,0,0,0,0,0,0,0,0,0,0,0,0,0,,,,0.0,0.0,0.0,0.0,0,0,0.0
18554,0,,,,,,,,,,,,,,,,,,,,,,,,,,,,,,,,,,0,0,0,0,0,0,0,0,0,0,0,0,0,0,0,0,,,,,,,,,,,
18574,0,0.0,178.98,,-0.07,-0.11,1.04,3,-0,-1,1.04,1.31,80,9729,1.8,2.33,,9.31,1.244,98.8,,69.1,5,,,,,,,,,,,,0,0,0,0,0,0,0,0,0,0,0,0,0,0,0,0,,,,,0.0,,,,,,
18594,0,,,,,,,,,,,,,,,,,,,,,,,,,,,,,,,,,,0,0,0,0,0,0,0,0,0,0,0,0,0,0,0,0,,,,,,,,,,,
18614,0,0.0,178.98,,-0.06,-0.19,1.03,4,-0,-1,1.05,1.31,80,9890,0.7,1.4,,7.33,0.973,98.8,,69.1,5,,,,,,,,,,,,0,0,0,0,0,0,0,0,0,0,0,0,0,0,0,0,,,,,0.0,,,,,,
18634,0,,,,,,,,,,,,,,,,,,,,,,,1,0,0,0,0.0,0.0,0.0,0.0,2.27,,,0,0,0,0,0,0,0,0,0,0,0,0,0,0,0,0,0,,,,,0.0,0.0,0.0,0,0,0.0
18654,0,0.0,178.98,,-0.07,0.02,0.99,3,0,-1,0.99,1.31,76,9390,0.5,1.4,,6.39,0.958,98.8,,65.9,5,,,,,,,,,,,,0,0,0,0,0,0,0,0,0,0,0,0,0,0,0,0,,,,,0.0,,,,,,
18674,0,,,,,,,,,,,,,,,,,,,,,,,,,,,,,,,,,,0,0,0,0,0,0,0,0,0,0,0,0,0,0,0,0,,,,,,,,,,,
18694,0,0.0,178.98,,-0.08,0.01,0.92,2,0,-2,0.93,1.31,71,8884,0.5,1.4,,6.39,0.958,98.8,,65.9,5,,,,,,,,,,,,0,0,0,0,0,0,0,0,0,0,0,0,0,0,0,0,,,,,0.0,,,,,,
18714,0,,,,,,,,,,,,,,,,,,,,,,,,,,,,,,,,,,0,0,0,0,0,0,0,0,0,0,0,0,0,0,0,0,,,,,,,,,,,
18734,0,0.0,178.98,,-0.1,-0.03,0.94,3,0,-2,0.95,1.31,72,8884,0.5,1.4,,5.87,1.244,98.8,,62.7,5,1,0,0,0,0.0,0.0,0.0,0.0,2.28,,,0,0,0,0,0,0,0,0,0,0,0,0,0,0,0,0,0,,,,0.0,0.0,0.0,0.0,0,0,0.0
18754,0,,,,,,,,,,,,,,,,,,,,,,,,,,,,,,,,,,0,0,0,0,0,0,0,0,0,0,0,0,0,0,0,0,,,,,,,,,,,
18774,0,0.0,178.98,,-0.08,-0.01,0.92,2,0,-1,0.93,1.31,71,8414,16.0,2.06,,6.87,1.25,98.8,,62.7,5,,,,,,,,,,,,0,0,0,0,0,0,0,0,0,0,0,0,0,0,0,0,,,,,0.0,,,,,,
18794,0,,,,,,,,,,,,,,,,,,,,,,,,,,,,,,,,,,0,0,0,0,0,0,0,0,0,0,0,0,0,0,0,0,,,,,,,,,,,
18814,0,0.0,178.98,,-0.08,-0.05,0.95,1,0,-1,0.95,1.31,73,8156,30.1,2.98,,9.38,1.25,98.8,,62.7,5,,,,,,,,,,,,0,0,0,0,0,0,0,0,0,0,0,0,0,0,0,0,,,,,0.0,,,,,,
18834,0,,,,,,,,,,,,,,,,,,,,,,,0,0,0,0,0.0,0.0,0.0,0.0,2.27,,,0,0,0,0,0,0,0,0,0,0,0,0,0,0,0,0,0,,,,,0.0,0.0,0.0,0,0,0.0
18854,0,0.0,178.98,,-0.07,-0.07,0.97,1,0,-1,0.98,1.31,74,8165,37.6,4.75,,9.38,1.25,98.8,,61.6,5,,,,,,,,,,,,0,0,0,0,0,0,0,0,0,0,0,0,0,0,0,0,,,,,0.0,,,,,,
18874,0,,,,,,,,,,,,,,,,,,,,,,,,,,,,,,,,,,0,0,0,0,0,0,0,0,0,0,0,0,0,0,0,0,,,,,,,,,,,
18894,0,0.0,178.98,,-0.12,0.03,0.94,2,0,-1,0.95,1.31,72,8165,37.6,4.75,,11.63,1.25,98.8,,61.6,5,,,,,,,,,,,,0,0,0,0,0,0,0,0,0,0,0,0,0,0,0,0,,,,,0.0,,,,,,
18914,0,,,,,,,,,,,,,,,,,,,,,,,,,,,,,,,,,,0,0,0,0,0,0,0,0,0,0,0,0,0,0,0,0,,,,,,,,,,,
18934,0,0.0,178.98,,-0.11,0.14,0.93,1,0,-0,0.94,1.31,72,8861,30.6,4.29,,11.84,1.252,98.8,,68.4,5,0,0,0,0,0.0,0.0,0.0,0.0,2.27,,,0,0,0,0,0,0,0,0,0,0,0,0,0,0,0,0,0,,,,0.0,0.0,0.0,0.0,0,0,0.0
18954,0,,,,,,,,,,,,,,,,,,,,,,,,,,,,,,,,,,0,0,0,0,0,0,0,0,0,0,0,0,0,0,0,0,,,,,,,,,,,
18974,0,0.0,178.98,,-0.12,0.21,1.0,1,0,0,1.03,1.31,79,9797,18.7,3.88,,10.38,1.239,98.8,,68.4,5,,,,,,,,,,,,0,0,0,0,0,0,0,0,0,0,0,0,0,0,0,0,,,,,0.0,,,,,,
18994,0,,,,,,,,,,,,,,,,,,,,,,,,,,,,,,,,,,0,0,0,0,0,0,0,0,0,0,0,0,0,0,0,0,,,,,,,,,,,
