"Interval"|"ms"|0|0|1,"Utc"|"ms"|0|0|1,"ElapsedTime"|"Min"|0.0|0.0|10,"FrontBP"|"psi"|-5.0|5.0|25,"SteerAng"|"Degrees"|-145|145|25,"Battery"|"Volts"|-5.0|20.0|1,"AccelX"|"G"|-3.0|3.0|25,"AccelY"|"G"|-3.0|3.0|25,"AccelZ"|"G"|-3.0|3.0|25,"Yaw"|"Deg/Sec"|-120|120|25,"Pitch"|"Deg/Sec"|-120|120|25,"Roll"|"Deg/Sec"|-120|120|25,"Gsum"|"G"|0.0|3.0|25,"GsumMax"|"G"|0.0|3.0|25,"GsumPct"|"%"|0|100|25,"RPM"|""|0|10000|25,"TPS"|"%"|0.0|100.0|25,"InjectorPW"|"ms"|0.0|100.0|25,"Baro"|"kPa"|0|105|1,"MAP"|"Psi"|0.0|255.0|25,"Lambda"|""|-2.0|2.0|25,"IAT"|"C"|0.0|200.0|25,"EngineTemp"|"C"|0|200|1,"EOP"|"PSI"|0.0|152.0|25,"EOT"|"F"|0|250|25,"WSFR"|"MPH"|0|150|10,"WSFL"|"MPH"|0|100|10,"WSRR"|"MPH"|0|100|10,"WSRL"|""|0|100|10,"TCSet"|"%"|0.0|100.0|10,"TCSlip"|"%"|0.0|100.0|10,"TCComp"|"deg"|0.0|50.0|10,"TCCut"|"%"|0.0|100.0|10,"Analog8"|""|0.0|5.0|10,"OilTemp"|"F"|0|300|1,"AA_On"|""|0.0|1.0|1,"ThermLF1"|"C"|0|400|50,"ThermLF2"|"C"|0|400|50,"ThermRR1"|"C"|0|400|50,"ThermRR2"|"C"|0|400|50,"ThermLF3"|"C"|0|400|50,"ThermLF4"|"C"|0|400|50,"ThermLF5"|"C"|0|400|50,"ThermLF6"|"C"|0|400|50,"ThermLF7"|"C"|0|400|50,"ThermLF8"|"C"|0|400|50,"ThermRR3"|"C"|0|400|50,"ThermRR4"|"C"|0|400|50,"ThermRR5"|"C"|0|400|50,"ThermRR6"|"C"|0|400|50,"ThermRR7"|"C"|0|400|50,"ThermRR8"|"C"|0|400|50,"AA_LowDrag"|""|0|1|1,"Gear"|""|1|6|10,"AA_On"|""|0.0|1.0|1,"AA_LowDrag"|""|0|1|1,"Fuel_Mix"|""|-10|10|1,"AA_Packages"|""|0.0|1000.0|25,"Latitude"|"Degrees"|-180.0|180.0|10,"Longitude"|"Degrees"|-180.0|180.0|10,"Speed"|"kph"|0.0|150.0|10,"Altitude"|"m"|0.0|4000.0|10,"GPSSats"|""|0|20|10,"GPSQual"|""|0|5|10,"GPSDOP"|""|0.0|20.0|10,"LapCount"|""|0|0|10,"LapTime"|"Min"|0.0|0.0|10,"Sector"|""|0|0|10,"SectorTime"|"Min"|0.0|0.0|10,"PredTime"|"Min"|0.0|0.0|5,"CurrentLap"|""|0|0|10,"Distance"|"mi"|0.0|0.0|10,"SessionTime"|"Min"|0.0|0.0|10
571322,1745294804840,0.0003,0.0,96,,-0.08,-0.06,1.1,-0,-0,0,1.1,1.1,100,3250,0.0,3.12,,12.2,1.007,98.8,,33.3,5,,,,,,,,,,,,0,0,0,0,0,0,0,0,0,0,0,0,0,0,0,0,,,,,,0.0,,,,,,,,,,,,,,,
571342,1745294804860,0.0006,,,,,,,,,,,,,,,,,,,,,,,,,,,,,,,,,,0,0,0,0,0,0,0,0,0,0,0,0,0,0,0,0,,,,,,,,,,,,,,,,,,,,,
571362,1745294804880,0.001,0.0,93,,-0.1,-0.07,1.09,0,-0,0,1.1,1.1,100,3250,0.0,3.12,,12.2,0.997,98.8,,32.8,5,,,,,,,,,,,,0,0,0,0,0,0,0,0,0,0,0,0,0,0,0,0,,,,,,0.0,,,,,,,,,,,,,,,
571382,1745294804900,0.0013,,,,,,,,,,,,,,,,,,,,,,,,,,,,,,,,,,0,0,0,0,0,0,0,0,0,0,0,0,0,0,0,0,,,,,,,,,,,,,,,,,,,,,
571402,1745294804920,0.0016,0.0,104,13.87,-0.12,-0.05,1.06,0,-0,-0,1.07,1.1,97,3076,0.0,3.15,15,12.25,0.977,98.8,183,32.8,5,0,0,0,0,0.0,0.0,0.0,0.0,2.26,0,1.0,0,0,0,0,0,0,0,0,0,0,0,0,0,0,0,0,0,0,1.0,0,0,0.0,38.985775,-76.950218,0.0,48.2,31,3,0.9,0,0.0,-1,0.0,0.0,0,0.0,0.0016
571422,1745294804940,0.002,,,,,,,,,,,,,,,,,,,,,,,,,,,,,,,,,,0,0,0,0,0,0,0,0,0,0,0,0,0,0,0,0,,,,,,,,,,,,,,,,,,,,,
571442,1745294804960,0.0023,0.0,93,,-0.14,-0.02,1.04,0,-0,-0,1.05,1.1,95,2978,0.0,3.19,,12.36,0.993,98.8,,32.8,5,,,,,,,,,,,,0,0,0,0,0,0,0,0,0,0,0,0,0,0,0,0,,,,,,0.0,,,,,,,,,,,,,,,
571462,1745294804980,0.0026,,,,,,,,,,,,,,,,,,,,,,,,,,,,,,,,,,0,0,0,0,0,0,0,0,0,0,0,0,0,0,0,0,,,,,,,,,,,,,,,,,,,,,
571482,1745294805000,0.003,0.0,96,,-0.15,-0.03,1.08,0,-0,-0,1.09,1.1,99,2880,0.0,3.32,,12.44,1.006,98.8,,30.6,5,,,,,,,,,,,,0,0,0,0,0,0,0,0,0,0,0,0,0,0,0,0,,,,,,0.0,,,,,,,,,,,,,,,
571502,1745294805012,0.0033,,,,,,,,,,,,,,,,,,,,,,,0,0,0,0,0.0,0.0,0.0,0.0,2.25,,,0,0,0,0,0,0,0,0,0,0,0,0,0,0,0,0,,0,,,,,38.985775,-76.950218,0.05,48.2,31,3,0.9,0,0.0,-1,0.0,,0,0.0,0.0033
571522,1745294805032,0.0036,0.0,96,,-0.13,-0.05,1.11,0,-0,0,1.12,1.12,100,2829,0.0,3.37,,12.44,1.006,98.8,,30.6,5,,,,,,,,,,,,0,0,0,0,0,0,0,0,0,0,0,0,0,0,0,0,,,,,,0.0,,,,,,,,,,,,,,,
571542,1745294805052,0.004,,,,,,,,,,,,,,,,,,,,,,,,,,,,,,,,,,0,0,0,0,0,0,0,0,0,0,0,0,0,0,0,0,,,,,,,,,,,,,,,,,,,,,
571562,1745294805072,0.0043,0.0,90,,-0.12,-0.03,1.07,0,-0,0,1.08,1.12,97,2829,0.0,3.37,,12.53,1.002,98.8,,27.8,5,,,,,,,,,,,,0,0,0,0,0,0,0,0,0,0,0,0,0,0,0,0,,,,,,0.0,,,,,,,,,,,,,,,
571582,1745294805092,0.0046,,,,,,,,,,,,,,,,,,,,,,,,,,,,,,,,,,0,0,0,0,0,0,0,0,0,0,0,0,0,0,0,0,,,,,,,,,,,,,,,,,,,,,
571602,1745294805118,0.005,0.0,102,,-0.12,-0.03,1.06,0,-0,0,1.06,1.12,95,2671,0.0,3.41,,12.64,1.009,98.8,,27.8,5,0,0,0,0,0.0,0.0,0.0,0.0,2.25,,,0,0,0,0,0,0,0,0,0,0,0,0,0,0,0,0,,0,,,,0.0,38.985775,-76.950218,0.05,48.2,31,3,0.9,0,0.0,-1,0.0,0.0,0,0.0,0.005
571622,1745294805138,0.0053,,,,,,,,,,,,,,,,,,,,,,,,,,,,,,,,,,0,0,0,0,0,0,0,0,0,0,0,0,0,0,0,0,,,,,,,,,,,,,,,,,,,,,
571642,1745294805158,0.0056,0.0,93,,-0.12,-0.03,1.08,0,-0,0,1.08,1.12,97,2563,0.0,3.48,,12.81,1.022,98.8,,27.8,5,,,,,,,,,,,,0,0,0,0,0,0,0,0,0,0,0,0,0,0,0,0,,,,,,0.0,,,,,,,,,,,,,,,
571662,1745294805178,0.006,,,,,,,,,,,,,,,,,,,,,,,,,,,,,,,,,,0,0,0,0,0,0,0,0,0,0,0,0,0,0,0,0,,,,,,,,,,,,,,,,,,,,,
571682,1745294805198,0.0063,0.0,93,,-0.11,-0.04,1.06,0,-0,0,1.06,1.12,95,2407,0.0,3.39,,12.97,1.062,98.8,,25.1,5,,,,,,,,,,,,0,0,0,0,0,0,0,0,0,0,0,0,0,0,0,0,,,,,,0.0,,,,,,,,,,,,,,,
571702,1745294805212,0.0066,,,,,,,,,,,,,,,,,,,,,,,0,0,0,0,0.0,0.0,0.0,0.0,2.26,,,0,0,0,0,0,0,0,0,0,0,0,0,0,0,0,0,,0,,,,,38.985775,-76.950218,0.27,48.2,31,3,0.9,0,0.0,-1,0.0,,0,0.0,0.0066
571722,1745294805232,0.007,0.0,99,,-0.12,-0.01,1.04,-0,-0,0,1.05,1.12,94,2296,0.0,3.42,,12.97,1.062,98.8,,25.1,5,,,,,,,,,,,,0,0,0,0,0,0,0,0,0,0,0,0,0,0,0,0,,,,,,0.0,,,,,,,,,,,,,,,
571742,1745294805252,0.0073,,,,,,,,,,,,,,,,,,,,,,,,,,,,,,,,,,0,0,0,0,0,0,0,0,0,0,0,0,0,0,0,0,,,,,,,,,,,,,,,,,,,,,
571762,1745294805272,0.0076,0.0,90,,-0.11,-0.02,1.02,-0,-0,0,1.03,1.12,92,2296,0.0,3.42,,13.12,1.092,98.8,,24.8,5,,,,,,,,,,,,0,0,0,0,0,0,0,0,0,0,0,0,0,0,0,0,,,,,,0.0,,,,,,,,,,,,,,,
571782,1745294805292,0.008,,,,,,,,,,,,,,,,,,,,,,,,,,,,,,,,,,0,0,0,0,0,0,0,0,0,0,0,0,0,0,0,0,,,,,,,,,,,,,,,,,,,,,
571802,1745294805320,0.0083,0.0,102,,-0.1,-0.03,1.04,-0,-0,0,1.04,1.12,93,2461,0.0,3.39,,13.15,1.125,98.8,,24.8,5,0,0,0,0,0.0,0.0,0.0,0.0,2.25,,,0,0,0,0,0,0,0,0,0,0,0,0,0,0,0,0,,0,,,,0.0,38.985775,-76.950218,0.25,48.2,31,3,0.9,0,0.0,-1,0.0,0.0,0,0.0,0.0083
571822,1745294805340,0.0086,,,,,,,,,,,,,,,,,,,,,,,,,,,,,,,,,,0,0,0,0,0,0,0,0,0,0,0,0,0,0,0,0,,,,,,,,,,,,,,,,,,,,,
571842,1745294805360,0.009,0.0,96,,-0.1,-0.01,1.03,-0,-0,0,1.04,1.12,93,2544,0.0,3.4,,13.17,1.165,98.8,,24.8,5,,,,,,,,,,,,0,0,0,0,0,0,0,0,0,0,0,0,0,0,0,0,,,,,,0.0,,,,,,,,,,,,,,,
571862,1745294805380,0.0093,,,,,,,,,,,,,,,,,,,,,,,,,,,,,,,,,,0,0,0,0,0,0,0,0,0,0,0,0,0,0,0,0,,,,,,,,,,,,,,,,,,,,,
571882,1745294805401,0.0096,0.0,93,,-0.1,0.02,1.03,-0,-0,0,1.03,1.12,93,2452,0.0,3.41,,13.2,1.094,98.8,,24.7,5,,,,,,,,,,,,0,0,0,0,0,0,0,0,0,0,0,0,0,0,0,0,,,,,,0.0,,,,,,,,,,,,,,,
571902,1745294805421,0.01,,,,,,,,,,,,,,,,,,,,,,,0,0,0,0,0.0,0.0,0.0,0.0,2.26,,,0,0,0,0,0,0,0,0,0,0,0,0,0,0,0,0,,0,,,,,38.985775,-76.950218,0.08,48.2,31,3,0.9,0,0.0,-1,0.0,,0,0.0,0.01
571922,1745294805441,0.0103,0.0,102,,-0.09,0.0,1.03,-0,-0,0,1.04,1.12,93,2556,0.0,3.41,,13.2,1.094,98.8,,24.7,5,,,,,,,,,,,,0,0,0,0,0,0,0,0,0,0,0,0,0,0,0,0,,,,,,0.0,,,,,,,,,,,,,,,
571942,1745294805461,0.0106,,,,,,,,,,,,,,,,,,,,,,,,,,,,,,,,,,0,0,0,0,0,0,0,0,0,0,0,0,0,0,0,0,,,,,,,,,,,,,,,,,,,,,
571962,1745294805481,0.011,0.0,93,,-0.1,-0.05,1.05,-0,-0,0,1.06,1.12,95,2556,0.0,3.41,,13.21,1.026,98.8,,25.0,5,,,,,,,,,,,,0,0,0,0,0,0,0,0,0,0,0,0,0,0,0,0,,,,,,0.0,,,,,,,,,,,,,,,
571982,1745294805501,0.0113,,,,,,,,,,,,,,,,,,,,,,,,,,,,,,,,,,0,0,0,0,0,0,0,0,0,0,0,0,0,0,0,0,,,,,,,,,,,,,,,,,,,,,
572002,1745294805521,0.0116,0.0,99,,-0.09,-0.05,1.09,-1,-0,0,1.09,1.12,98,2643,0.0,3.41,,13.12,1.006,98.8,,25.0,5,0,0,0,0,0.0,0.0,0.0,0.0,2.26,,,0,0,0,0,0,0,0,0,0,0,0,0,0,0,0,0,,0,,,,0.0,38.985775,-76.950218,0.0,48.2,31,3,0.9,0,0.0,-1,0.0,0.0,0,0.0,0.0116
572022,1745294805541,0.012,,,,,,,,,,,,,,,,,,,,,,,,,,,,,,,,,,0,0,0,0,0,0,0,0,0,0,0,0,0,0,0,0,,,,,,,,,,,,,,,,,,,,,
572042,1745294805561,0.0123,0.0,93,,-0.08,-0.03,1.12,-1,-0,1,1.13,1.13,100,2898,0.0,3.35,,13.01,1.073,98.8,,25.0,5,,,,,,,,,,,,0,0,0,0,0,0,0,0,0,0,0,0,0,0,0,0,,,,,,0.0,,,,,,,,,,,,,,,
572062,1745294805581,0.0126,,,,,,,,,,,,,,,,,,,,,,,,,,,,,,,,,,0,0,0,0,0,0,0,0,0,0,0,0,0,0,0,0,,,,,,,,,,,,,,,,,,,,,
572082,1745294805601,0.013,0.0,96,,-0.06,-0.08,1.18,-1,-0,1,1.19,1.19,100,3112,0.0,3.25,,12.84,0.98,98.8,,30.1,5,,,,,,,,,,,,0,0,0,0,0,0,0,0,0,0,0,0,0,0,0,0,,,,,,0.0,,,,,,,,,,,,,,,
572102,1745294805621,0.0133,,,,,,,,,,,,,,,,,,,,,,,0,0,0,0,0.0,0.0,0.0,0.0,2.25,,,0,0,0,0,0,0,0,0,0,0,0,0,0,0,0,0,,0,,,,,38.985775,-76.950218,0.05,48.2,31,3,0.9,0,0.0,-1,0.0,,0,0.0,0.0133
572122,1745294805641,0.0136,0.0,102,,-0.07,-0.14,1.22,-1,-0,0,1.23,1.23,100,3174,0.0,3.2,,12.84,0.98,98.8,,30.1,5,,,,,,,,,,,,0,0,0,0,0,0,0,0,0,0,0,0,0,0,0,0,,,,,,0.0,,,,,,,,,,,,,,,
572142,1745294805661,0.014,,,,,,,,,,,,,,,,,,,,,,,,,,,,,,,,,,0,0,0,0,0,0,0,0,0,0,0,0,0,0,0,0,,,,,,,,,,,,,,,,,,,,,
572162,1745294805681,0.0143,0.0,87,,-0.09,-0.13,1.17,-0,-0,0,1.18,1.23,96,3174,0.0,3.2,,12.69,0.903,98.8,,32.5,5,,,,,,,,,,,,0,0,0,0,0,0,0,0,0,0,0,0,0,0,0,0,,,,,,0.0,,,,,,,,,,,,,,,
572182,1745294805701,0.0146,,,,,,,,,,,,,,,,,,,,,,,,,,,,,,,,,,0,0,0,0,0,0,0,0,0,0,0,0,0,0,0,0,,,,,,,,,,,,,,,,,,,,,
572202,1745294805721,0.015,0.0,104,,-0.09,-0.07,1.07,-0,-0,0,1.07,1.23,87,3087,0.0,3.18,,12.57,0.878,98.8,,32.5,5,0,0,0,0,0.0,0.0,0.0,0.0,2.26,,,0,0,0,0,0,0,0,0,0,0,0,0,0,0,0,0,,0,,,,0.0,38.985775,-76.950218,0.07,48.2,31,3,0.9,0,0.0,-1,0.0,0.0,0,0.0,0.015
572222,1745294805741,0.0153,,,,,,,,,,,,,,,,,,,,,,,,,,,,,,,,,,0,0,0,0,0,0,0,0,0,0,0,0,0,0,0,0,,,,,,,,,,,,,,,,,,,,,
572242,1745294805761,0.0156,0.0,96,,-0.08,-0.02,0.99,0,-0,0,0.99,1.23,81,3072,0.0,3.22,,12.53,0.878,98.8,,32.5,5,,,,,,,,,,,,0,0,0,0,0,0,0,0,0,0,0,0,0,0,0,0,,,,,,0.0,,,,,,,,,,,,,,,
572262,1745294805781,0.016,,,,,,,,,,,,,,,,,,,,,,,,,,,,,,,,,,0,0,0,0,0,0,0,0,0,0,0,0,0,0,0,0,,,,,,,,,,,,,,,,,,,,,
572282,1745294805801,0.0163,0.0,90,,-0.06,0.0,0.92,0,-0,-0,0.93,1.23,75,3017,0.0,3.25,,12.51,0.887,98.8,,30.7,5,,,,,,,,,,,,0,0,0,0,0,0,0,0,0,0,0,0,0,0,0,0,,,,,,0.0,,,,,,,,,,,,,,,
572302,1745294805821,0.0166,,,,,,,,,,,,,,,,,,,,,,,0,0,0,0,0.0,0.0,0.0,0.0,2.26,,,0,0,0,0,0,0,0,0,0,0,0,0,0,0,0,0,,0,,,,,38.985775,-76.950218,0.05,48.2,31,3,0.9,0,0.0,-1,0.0,,0,0.0,0.0166
572322,1745294805841,0.017,0.0,102,,-0.05,0.01,0.86,0,-0,-0,0.86,1.23,70,3017,0.0,3.25,,12.51,0.887,98.8,,30.7,5,,,,,,,,,,,,0,0,0,0,0,0,0,0,0,0,0,0,0,0,0,0,,,,,,0.0,,,,,,,,,,,,,,,
572342,1745294805861,0.0173,,,,,,,,,,,,,,,,,,,,,,,,,,,,,,,,,,0,0,0,0,0,0,0,0,0,0,0,0,0,0,0,0,,,,,,,,,,,,,,,,,,,,,
572362,1745294805881,0.0176,0.0,90,,-0.04,0.07,0.83,-0,-0,0,0.83,1.23,67,2997,0.0,3.28,,12.52,0.919,98.8,,31.2,5,,,,,,,,,,,,0,0,0,0,0,0,0,0,0,0,0,0,0,0,0,0,,,,,,0.0,,,,,,,,,,,,,,,
572382,1745294805901,0.018,,,,,,,,,,,,,,,,,,,,,,,,,,,,,,,,,,0,0,0,0,0,0,0,0,0,0,0,0,0,0,0,0,,,,,,,,,,,,,,,,,,,,,
572402,1745294805921,0.0183,0.0,104,13.85,-0.06,-0.01,0.95,-0,-0,0,0.95,1.23,77,3250,0.0,3.19,15,12.45,1.034,98.8,183,31.2,5,0,0,0,0,0.0,0.0,0.0,0.0,2.26,0,1.0,0,0,0,0,0,0,0,0,0,0,0,0,0,0,0,0,0,0,1.0,0,0,0.0,38.985775,-76.950218,0.05,48.2,31,3,0.9,0,0.0,-1,0.0,0.0,0,0.0,0.0183
572422,1745294805941,0.0187,,,,,,,,,,,,,,,,,,,,,,,,,,,,,,,,,,0,0,0,0,0,0,0,0,0,0,0,0,0,0,0,0,,,,,,,,,,,,,,,,,,,,,
572442,1745294805961,0.019,0.0,102,,-0.09,-0.04,0.95,0,-0,-0,0.96,1.23,78,3241,0.0,3.12,,12.37,1.147,98.8,,31.2,5,,,,,,,,,,,,0,0,0,0,0,0,0,0,0,0,0,0,0,0,0,0,,,,,,0.0,,,,,,,,,,,,,,,
572462,1745294805981,0.0193,,,,,,,,,,,,,,,,,,,,,,,,,,,,,,,,,,0,0,0,0,0,0,0,0,0,0,0,0,0,0,0,0,,,,,,,,,,,,,,,,,,,,,
572482,1745294806001,0.0196,0.0,99,,-0.09,-0.0,0.89,0,-0,-0,0.89,1.23,72,3066,0.0,3.15,,12.39,1.057,98.8,,32.4,5,,,,,,,,,,,,0,0,0,0,0,0,0,0,0,0,0,0,0,0,0,0,,,,,,0.0,,,,,,,,,,,,,,,
572502,1745294806013,0.02,,,,,,,,,,,,,,,,,,,,,,,0,0,0,0,0.0,0.0,0.0,0.0,2.26,,,0,0,0,0,0,0,0,0,0,0,0,0,0,0,0,0,,0,,,,,38.985775,-76.950218,0.04,48.2,31,3,0.9,0,0.0,-1,0.0,,0,0.0,0.02
572522,1745294806033,0.0203,0.0,99,,-0.08,0.05,0.82,1,-0,-0,0.82,1.23,67,3085,0.0,3.2,,12.39,1.057,98.8,,32.4,5,,,,,,,,,,,,0,0,0,0,0,0,0,0,0,0,0,0,0,0,0,0,,,,,,0.0,,,,,,,,,,,,,,,
572542,1745294806053,0.0206,,,,,,,,,,,,,,,,,,,,,,,,,,,,,,,,,,0,0,0,0,0,0,0,0,0,0,0,0,0,0,0,0,,,,,,,,,,,,,,,,,,,,,
572562,1745294806073,0.021,0.0,90,,-0.06,0.12,0.83,0,-0,0,0.84,1.23,68,3085,0.0,3.2,,12.43,0.952,98.8,,32.0,5,,,,,,,,,,,,0,0,0,0,0,0,0,0,0,0,0,0,0,0,0,0,,,,,,0.0,,,,,,,,,,,,,,,
572582,1745294806093,0.0213,,,,,,,,,,,,,,,,,,,,,,,,,,,,,,,,,,0,0,0,0,0,0,0,0,0,0,0,0,0,0,0,0,,,,,,,,,,,,,,,,,,,,,
572602,1745294806113,0.0216,0.0,104,,-0.05,0.06,0.93,-0,-0,0,0.93,1.23,76,3164,0.0,3.16,,12.36,0.975,98.8,,32.0,5,0,0,0,0,0.0,0.0,0.0,0.0,2.25,,,0,0,0,0,0,0,0,0,0,0,0,0,0,0,0,0,,0,,,,0.0,38.985775,-76.950218,0.04,48.3,31,3,0.9,0,0.0,-1,0.0,0.0,0,0.0,0.0216
572622,1745294806133,0.022,,,,,,,,,,,,,,,,,,,,,,,,,,,,,,,,,,0,0,0,0,0,0,0,0,0,0,0,0,0,0,0,0,,,,,,,,,,,,,,,,,,,,,
572642,1745294806153,0.0223,0.0,99,,-0.08,-0.04,0.98,0,-0,-0,0.99,1.23,80,3185,0.0,3.16,,12.35,0.968,98.8,,32.0,5,,,,,,,,,,,,0,0,0,0,0,0,0,0,0,0,0,0,0,0,0,0,,,,,,0.0,,,,,,,,,,,,,,,
572662,1745294806173,0.0226,,,,,,,,,,,,,,,,,,,,,,,,,,,,,,,,,,0,0,0,0,0,0,0,0,0,0,0,0,0,0,0,0,,,,,,,,,,,,,,,,,,,,,
572682,1745294806201,0.023,0.0,99,,-0.08,-0.01,0.91,1,-0,-0,0.92,1.23,75,3164,0.0,3.13,,12.32,0.958,98.8,,32.6,5,,,,,,,,,,,,0,0,0,0,0,0,0,0,0,0,0,0,0,0,0,0,,,,,,0.0,,,,,,,,,,,,,,,
572702,1745294806221,0.0233,,,,,,,,,,,,,,,,,,,,,,,0,0,0,0,0.0,0.0,0.0,0.0,2.26,,,0,0,0,0,0,0,0,0,0,0,0,0,0,0,0,0,,0,,,,,38.985775,-76.950218,0.31,48.3,31,3,0.9,0,0.0,-1,0.0,,0,0.0,0.0233
572722,1745294806241,0.0236,0.0,104,,-0.06,0.08,0.89,0,-0,0,0.9,1.23,73,3230,0.0,3.1,,12.32,0.958,98.8,,32.6,5,,,,,,,,,,,,0,0,0,0,0,0,0,0,0,0,0,0,0,0,0,0,,,,,,0.0,,,,,,,,,,,,,,,
572742,1745294806261,0.024,,,,,,,,,,,,,,,,,,,,,,,,,,,,,,,,,,0,0,0,0,0,0,0,0,0,0,0,0,0,0,0,0,,,,,,,,,,,,,,,,,,,,,
572762,1745294806281,0.0243,0.0,96,,-0.07,0.02,0.98,-0,-0,0,0.99,1.23,80,3230,0.0,3.1,,12.28,0.961,98.8,,33.0,5,,,,,,,,,,,,0,0,0,0,0,0,0,0,0,0,0,0,0,0,0,0,,,,,,0.0,,,,,,,,,,,,,,,
572782,1745294806301,0.0246,,,,,,,,,,,,,,,,,,,,,,,,,,,,,,,,,,0,0,0,0,0,0,0,0,0,0,0,0,0,0,0,0,,,,,,,,,,,,,,,,,,,,,
572802,1745294806321,0.025,0.0,99,,-0.09,-0.06,1.03,0,-0,0,1.04,1.23,84,3213,0.0,3.09,,12.27,0.965,98.8,,33.0,5,0,0,0,0,0.0,0.0,0.0,0.0,2.26,,,0,0,0,0,0,0,0,0,0,0,0,0,0,0,0,0,,0,,,,0.0,38.985775,-76.950218,0.28,48.3,31,3,0.9,0,0.0,-1,0.0,0.0,0,0.0,0.025
572822,1745294806341,0.0253,,,,,,,,,,,,,,,,,,,,,,,,,,,,,,,,,,0,0,0,0,0,0,0,0,0,0,0,0,0,0,0,0,,,,,,,,,,,,,,,,,,,,,
572842,1745294806361,0.0256,0.0,96,,-0.11,-0.08,1.06,0,-0,-0,1.07,1.23,87,3046,0.0,3.13,,12.33,0.972,98.8,,33.0,5,,,,,,,,,,,,0,0,0,0,0,0,0,0,0,0,0,0,0,0,0,0,,,,,,0.0,,,,,,,,,,,,,,,
572862,1745294806381,0.026,,,,,,,,,,,,,,,,,,,,,,,,,,,,,,,,,,0,0,0,0,0,0,0,0,0,0,0,0,0,0,0,0,,,,,,,,,,,,,,,,,,,,,
572882,1745294806401,0.0263,0.0,96,,-0.12,-0.1,1.11,0,-0,-0,1.12,1.23,91,2937,0.0,3.18,,12.45,1.002,98.8,,30.8,5,,,,,,,,,,,,0,0,0,0,0,0,0,0,0,0,0,0,0,0,0,0,,,,,,0.0,,,,,,,,,,,,,,,
572902,1745294806420,0.0266,,,,,,,,,,,,,,,,,,,,,,,0,0,0,0,0.0,0.0,0.0,0.0,2.26,,,0,0,0,0,0,0,0,0,0,0,0,0,0,0,0,0,,0,,,,,38.985775,-76.950218,0.05,48.3,31,3,0.9,0,0.0,-1,0.0,,0,0.0,0.0266
572922,1745294806440,0.027,0.0,102,,-0.11,-0.1,1.14,0,-0,-0,1.15,1.23,93,2818,0.0,3.27,,12.45,1.002,98.8,,30.8,5,,,,,,,,,,,,0,0,0,0,0,0,0,0,0,0,0,0,0,0,0,0,,,,,,0.0,,,,,,,,,,,,,,,
572942,1745294806460,0.0273,,,,,,,,,,,,,,,,,,,,,,,,,,,,,,,,,,0,0,0,0,0,0,0,0,0,0,0,0,0,0,0,0,,,,,,,,,,,,,,,,,,,,,
572962,1745294806480,0.0276,0.0,93,,-0.1,-0.08,1.09,0,-0,0,1.09,1.23,89,2818,0.0,3.27,,12.53,1.01,98.8,,27.7,5,,,,,,,,,,,,0,0,0,0,0,0,0,0,0,0,0,0,0,0,0,0,,,,,,0.0,,,,,,,,,,,,,,,
572982,1745294806500,0.028,,,,,,,,,,,,,,,,,,,,,,,,,,,,,,,,,,0,0,0,0,0,0,0,0,0,0,0,0,0,0,0,0,,,,,,,,,,,,,,,,,,,,,
573002,1745294806520,0.0283,0.0,102,,-0.1,-0.1,1.1,0,-0,0,1.11,1.23,90,2716,0.0,3.33,,12.64,1.011,98.8,,27.7,5,0,0,0,0,0.0,0.0,0.0,0.0,2.25,,,0,0,0,0,0,0,0,0,0,0,0,0,0,0,0,0,,0,,,,0.0,38.985775,-76.950218,0.0,48.3,31,3,0.9,0,0.0,-1,0.0,0.0,0,0.0,0.0283
573022,1745294806540,0.0286,,,,,,,,,,,,,,,,,,,,,,,,,,,,,,,,,,0,0,0,0,0,0,0,0,0,0,0,0,0,0,0,0,,,,,,,,,,,,,,,,,,,,,
573042,1745294806560,0.029,0.0,102,,-0.1,-0.08,1.07,0,-0,0,1.08,1.23,87,2580,0.0,3.31,,12.81,1.02,98.8,,27.7,5,,,,,,,,,,,,0,0,0,0,0,0,0,0,0,0,0,0,0,0,0,0,,,,,,0.0,,,,,,,,,,,,,,,
573062,1745294806580,0.0293,,,,,,,,,,,,,,,,,,,,,,,,,,,,,,,,,,0,0,0,0,0,0,0,0,0,0,0,0,0,0,0,0,,,,,,,,,,,,,,,,,,,,,
573082,1745294806602,0.0296,0.0,90,,-0.09,-0.07,1.06,0,-0,0,1.07,1.23,87,2467,0.0,3.38,,12.97,1.034,98.8,,25.5,5,,,,,,,,,,,,0,0,0,0,0,0,0,0,0,0,0,0,0,0,0,0,,,,,,0.0,,,,,,,,,,,,,,,
573102,1745294806622,0.03,,,,,,,,,,,,,,,,,,,,,,,0,0,0,0,0.0,0.0,0.0,0.0,2.26,,,0,0,0,0,0,0,0,0,0,0,0,0,0,0,0,0,,0,,,,,38.985775,-76.950218,0.05,48.3,31,3,0.9,0,0.0,-1,0.0,,0,0.0,0.03
573122,1745294806642,0.0303,0.0,99,,-0.08,-0.07,1.07,0,-0,0,1.08,1.23,87,2362,0.0,3.41,,12.97,1.034,98.8,,25.5,5,,,,,,,,,,,,0,0,0,0,0,0,0,0,0,0,0,0,0,0,0,0,,,,,,0.0,,,,,,,,,,,,,,,
573142,1745294806662,0.0306,,,,,,,,,,,,,,,,,,,,,,,,,,,,,,,,,,0,0,0,0,0,0,0,0,0,0,0,0,0,0,0,0,,,,,,,,,,,,,,,,,,,,,
573162,1745294806682,0.031,0.0,87,,-0.08,-0.08,1.06,0,-0,-0,1.07,1.23,87,2362,0.0,3.41,,13.09,1.053,98.8,,25.3,5,,,,,,,,,,,,0,0,0,0,0,0,0,0,0,0,0,0,0,0,0,0,,,,,,0.0,,,,,,,,,,,,,,,
573182,1745294806702,0.0313,,,,,,,,,,,,,,,,,,,,,,,,,,,,,,,,,,0,0,0,0,0,0,0,0,0,0,0,0,0,0,0,0,,,,,,,,,,,,,,,,,,,,,
573202,1745294806722,0.0316,0.0,93,,-0.08,-0.08,1.04,0,-0,-0,1.05,1.23,85,2509,0.0,3.38,,13.07,1.112,98.8,,25.3,5,0,0,0,0,0.0,0.0,0.0,0.0,2.26,,,0,0,0,0,0,0,0,0,0,0,0,0,0,0,0,0,,0,,,,0.0,38.985775,-76.950218,0.0,48.3,31,3,0.9,0,0.0,-1,0.0,0.0,0,0.0,0.0316
573222,1745294806742,0.032,,,,,,,,,,,,,,,,,,,,,,,,,,,,,,,,,,0,0,0,0,0,0,0,0,0,0,0,0,0,0,0,0,,,,,,,,,,,,,,,,,,,,,
573242,1745294806762,0.0323,0.0,102,,-0.08,-0.1,1.06,0,-0,0,1.07,1.23,87,2631,0.0,3.39,,13.05,1.152,98.8,,25.3,5,,,,,,,,,,,,0,0,0,0,0,0,0,0,0,0,0,0,0,0,0,0,,,,,,0.0,,,,,,,,,,,,,,,
573262,1745294806782,0.0326,,,,,,,,,,,,,,,,,,,,,,,,,,,,,,,,,,0,0,0,0,0,0,0,0,0,0,0,0,0,0,0,0,,,,,,,,,,,,,,,,,,,,,
573282,1745294806802,0.033,0.0,90,,-0.08,-0.08,1.04,0,-0,-0,1.04,1.23,85,2498,0.0,3.4,,13.11,1.099,98.8,,25.6,5,,,,,,,,,,,,0,0,0,0,0,0,0,0,0,0,0,0,0,0,0,0,,,,,,0.0,,,,,,,,,,,,,,,
573302,1745294806820,0.0333,,,,,,,,,,,,,,,,,,,,,,,0,0,0,0,0.0,0.0,0.0,0.0,2.26,,,0,0,0,0,0,0,0,0,0,0,0,0,0,0,0,0,,0,,,,,38.985775,-76.950218,0.0,48.3,31,3,0.9,0,0.0,-1,0.0,,0,0.0,0.0333
573322,1745294806840,0.0336,0.0,99,,-0.07,-0.08,1.03,-0,-0,0,1.03,1.23,84,2378,0.0,3.46,,13.11,1.099,98.8,,25.6,5,,,,,,,,,,,,0,0,0,0,0,0,0,0,0,0,0,0,0,0,0,0,,,,,,0.0,,,,,,,,,,,,,,,
573342,1745294806860,0.034,,,,,,,,,,,,,,,,,,,,,,,,,,,,,,,,,,0,0,0,0,0,0,0,0,0,0,0,0,0,0,0,0,,,,,,,,,,,,,,,,,,,,,
573362,1745294806880,0.0343,0.0,93,,-0.07,-0.08,1.02,0,-0,-0,1.02,1.23,83,2378,0.0,3.46,,13.17,1.033,98.8,,24.0,5,,,,,,,,,,,,0,0,0,0,0,0,0,0,0,0,0,0,0,0,0,0,,,,,,0.0,,,,,,,,,,,,,,,
573382,1745294806900,0.0347,,,,,,,,,,,,,,,,,,,,,,,,,,,,,,,,,,0,0,0,0,0,0,0,0,0,0,0,0,0,0,0,0,,,,,,,,,,,,,,,,,,,,,
573402,1745294806920,0.035,0.0,104,13.89,-0.07,-0.07,1.01,0,-0,-0,1.02,1.23,83,2251,0.0,3.42,15,13.21,0.998,98.8,183,24.0,5,0,0,0,0,0.0,0.0,0.0,0.0,2.26,0,1.0,0,0,0,0,0,0,0,0,0,0,0,0,0,0,0,0,0,0,1.0,0,0,0.0,38.985775,-76.950218,0.0,48.3,31,3,0.9,0,0.0,-1,0.0,0.0,0,0.0,0.035
573422,1745294806940,0.0353,,,,,,,,,,,,,,,,,,,,,,,,,,,,,,,,,,0,0,0,0,0,0,0,0,0,0,0,0,0,0,0,0,,,,,,,,,,,,,,,,,,,,,
573442,1745294806960,0.0356,0.0,104,,-0.06,-0.08,1.01,0,-0,-0,1.01,1.23,82,2239,0.0,3.44,,13.33,0.99,98.8,,24.0,5,,,,,,,,,,,,0,0,0,0,0,0,0,0,0,0,0,0,0,0,0,0,,,,,,0.0,,,,,,,,,,,,,,,
573462,1745294806980,0.036,,,,,,,,,,,,,,,,,,,,,,,,,,,,,,,,,,0,0,0,0,0,0,0,0,0,0,0,0,0,0,0,0,,,,,,,,,,,,,,,,,,,,,
573482,1745294807000,0.0363,0.0,90,,-0.07,-0.1,0.99,0,-0,-0,1.0,1.23,81,2136,0.0,3.45,,13.47,1.003,98.8,,21.8,5,,,,,,,,,,,,0,0,0,0,0,0,0,0,0,0,0,0,0,0,0,0,,,,,,0.0,,,,,,,,,,,,,,,
573502,1745294807012,0.0366,,,,,,,,,,,,,,,,,,,,,,,0,0,0,0,0.0,0.0,0.0,0.0,2.26,,,0,0,0,0,0,0,0,0,0,0,0,0,0,0,0,0,,0,,,,,38.985775,-76.950218,0.0,48.3,31,3,0.9,0,0.0,-1,0.0,,0,0.0,0.0366
573522,1745294807032,0.037,0.0,96,,-0.07,-0.1,0.99,-0,-0,0,0.99,1.23,81,2347,0.0,3.45,,13.47,1.003,98.8,,21.8,5,,,,,,,,,,,,0,0,0,0,0,0,0,0,0,0,0,0,0,0,0,0,,,,,,0.0,,,,,,,,,,,,,,,
573542,1745294807052,0.0373,,,,,,,,,,,,,,,,,,,,,,,,,,,,,,,,,,0,0,0,0,0,0,0,0,0,0,0,0,0,0,0,0,,,,,,,,,,,,,,,,,,,,,
573562,1745294807072,0.0376,0.0,99,,-0.06,-0.06,0.99,0,-0,0,1.0,1.23,81,2347,0.0,3.45,,13.41,1.041,98.8,,23.7,5,,,,,,,,,,,,0,0,0,0,0,0,0,0,0,0,0,0,0,0,0,0,,,,,,0.0,,,,,,,,,,,,,,,
573582,1745294807092,0.038,,,,,,,,,,,,,,,,,,,,,,,,,,,,,,,,,,0,0,0,0,0,0,0,0,0,0,0,0,0,0,0,0,,,,,,,,,,,,,,,,,,,,,
573602,1745294807118,0.0383,0.0,104,,-0.06,-0.08,1.01,0,-0,0,1.02,1.23,82,2468,0.0,3.43,,13.33,1.102,98.8,,23.7,5,0,0,0,1,0.0,0.0,0.0,0.0,2.26,,,0,0,0,0,0,0,0,0,0,0,0,0,0,0,0,0,,0,,,,0.0,38.985775,-76.950218,0.04,48.3,31,3,0.9,0,0.0,-1,0.0,0.0,0,0.0,0.0383
573622,1745294807138,0.0386,,,,,,,,,,,,,,,,,,,,,,,,,,,,,,,,,,0,0,0,0,0,0,0,0,0,0,0,0,0,0,0,0,,,,,,,,,,,,,,,,,,,,,
573642,1745294807158,0.039,0.0,102,,-0.05,-0.05,0.98,0,-0,0,0.99,1.23,80,2463,0.0,3.41,,13.35,1.083,98.8,,23.7,5,,,,,,,,,,,,0,0,0,0,0,0,0,0,0,0,0,0,0,0,0,0,,,,,,0.0,,,,,,,,,,,,,,,
573662,1745294807178,0.0393,,,,,,,,,,,,,,,,,,,,,,,,,,,,,,,,,,0,0,0,0,0,0,0,0,0,0,0,0,0,0,0,0,,,,,,,,,,,,,,,,,,,,,
573682,1745294807198,0.0396,0.0,102,,-0.06,-0.05,0.99,0,-0,0,0.99,1.23,81,2680,0.0,3.37,,13.11,1.064,98.8,,26.8,5,,,,,,,,,,,,0,0,0,0,0,0,0,0,0,0,0,0,0,0,0,0,,,,,,0.0,,,,,,,,,,,,,,,
573702,1745294807218,0.04,,,,,,,,,,,,,,,,,,,,,,,0,0,0,1,0.0,0.0,0.0,0.0,2.26,,,0,0,0,0,0,0,0,0,0,0,0,0,0,0,0,0,,0,,,,,38.985775,-76.950218,0.0,48.3,31,3,0.9,0,0.0,-1,0.0,,0,0.0,0.04
573722,1745294807238,0.0403,0.0,102,,-0.06,-0.05,0.99,0,-0,0,1.0,1.23,81,2652,0.0,3.36,,13.11,1.064,98.8,,26.8,5,,,,,,,,,,,,0,0,0,0,0,0,0,0,0,0,0,0,0,0,0,0,,,,,,0.0,,,,,,,,,,,,,,,
573742,1745294807258,0.0406,,,,,,,,,,,,,,,,,,,,,,,,,,,,,,,,,,0,0,0,0,0,0,0,0,0,0,0,0,0,0,0,0,,,,,,,,,,,,,,,,,,,,,
573762,1745294807278,0.041,0.0,90,,-0.06,-0.04,0.98,0,-0,0,0.99,1.23,80,2652,0.0,3.36,,13.07,1.039,98.8,,26.9,5,,,,,,,,,,,,0,0,0,0,0,0,0,0,0,0,0,0,0,0,0,0,,,,,,0.0,,,,,,,,,,,,,,,
573782,1745294807298,0.0413,,,,,,,,,,,,,,,,,,,,,,,,,,,,,,,,,,0,0,0,0,0,0,0,0,0,0,0,0,0,0,0,0,,,,,,,,,,,,,,,,,,,,,
573802,1745294807320,0.0416,0.0,99,,-0.06,-0.07,0.99,0,-0,0,1.0,1.23,81,2619,0.0,3.39,,13.01,0.972,98.8,,26.9,5,0,0,0,1,0.0,0.0,0.0,0.0,2.26,,,0,0,0,0,0,0,0,0,0,0,0,0,0,0,0,0,,0,,,,0.0,38.985775,-76.950218,0.04,48.3,31,3,0.9,0,0.0,-1,0.0,0.0,0,0.0,0.0416
573822,1745294807340,0.042,,,,,,,,,,,,,,,,,,,,,,,,,,,,,,,,,,0,0,0,0,0,0,0,0,0,0,0,0,0,0,0,0,,,,,,,,,,,,,,,,,,,,,
573842,1745294807360,0.0423,0.0,96,,-0.06,-0.05,0.99,0,-0,-0,1.0,1.23,81,2577,0.0,3.39,,13.09,0.93,98.8,,26.9,5,,,,,,,,,,,,0,0,0,0,0,0,0,0,0,0,0,0,0,0,0,0,,,,,,0.0,,,,,,,,,,,,,,,
573862,1745294807380,0.0426,,,,,,,,,,,,,,,,,,,,,,,,,,,,,,,,,,0,0,0,0,0,0,0,0,0,0,0,0,0,0,0,0,,,,,,,,,,,,,,,,,,,,,
573882,1745294807400,0.043,0.0,87,,-0.07,-0.05,0.98,0,-0,0,0.98,1.23,80,2487,0.0,3.44,,13.13,0.937,98.8,,25.7,5,,,,,,,,,,,,0,0,0,0,0,0,0,0,0,0,0,0,0,0,0,0,,,,,,0.0,,,,,,,,,,,,,,,
573902,1745294807419,0.0433,,,,,,,,,,,,,,,,,,,,,,,0,0,0,1,0.0,0.0,0.0,0.0,2.25,,,0,0,0,0,0,0,0,0,0,0,0,0,0,0,0,0,,0,,,,,38.985775,-76.950218,0.05,48.3,31,3,0.9,0,0.0,-1,0.0,,0,0.0,0.0433
573922,1745294807439,0.0436,0.0,93,,-0.07,-0.04,1.01,1,-0,-0,1.02,1.23,82,2640,0.0,3.46,,13.13,0.937,98.8,,25.7,5,,,,,,,,,,,,0,0,0,0,0,0,0,0,0,0,0,0,0,0,0,0,,,,,,0.0,,,,,,,,,,,,,,,
573942,1745294807459,0.044,,,,,,,,,,,,,,,,,,,,,,,,,,,,,,,,,,0,0,0,0,0,0,0,0,0,0,0,0,0,0,0,0,,,,,,,,,,,,,,,,,,,,,
573962,1745294807479,0.0443,0.0,93,,-0.06,-0.07,1.06,0,-0,0,1.06,1.23,86,2640,0.0,3.46,,13.01,0.992,98.8,,27.5,5,,,,,,,,,,,,0,0,0,0,0,0,0,0,0,0,0,0,0,0,0,0,,,,,,0.0,,,,,,,,,,,,,,,
573982,1745294807501,0.0446,,,,,,,,,,,,,,,,,,,,,,,,,,,,,,,,,,0,0,0,0,0,0,0,0,0,0,0,0,0,0,0,0,,,,,,,,,,,,,,,,,,,,,
574002,1745294807521,0.045,0.0,99,,-0.05,-0.03,1.06,0,-0,0,1.06,1.23,86,2891,0.0,3.33,,12.92,1.095,98.8,,27.5,5,0,0,0,1,0.0,0.0,0.0,0.0,2.26,,,0,0,0,0,0,0,0,0,0,0,0,0,0,0,0,0,,0,,,,0.0,38.985775,-76.950218,0.04,48.3,31,3,0.9,0,0.0,-1,0.0,0.0,0,0.0,0.045
574022,1745294807541,0.0453,,,,,,,,,,,,,,,,,,,,,,,,,,,,,,,,,,0,0,0,0,0,0,0,0,0,0,0,0,0,0,0,0,,,,,,,,,,,,,,,,,,,,,
574042,1745294807561,0.0457,0.0,93,,-0.03,-0.03,1.0,0,-0,0,1.0,1.23,81,2894,0.0,3.29,,12.84,1.041,98.8,,27.5,5,,,,,,,,,,,,0,0,0,0,0,0,0,0,0,0,0,0,0,0,0,0,,,,,,0.0,,,,,,,,,,,,,,,
574062,1745294807581,0.046,,,,,,,,,,,,,,,,,,,,,,,,,,,,,,,,,,0,0,0,0,0,0,0,0,0,0,0,0,0,0,0,0,,,,,,,,,,,,,,,,,,,,,
574082,1745294807601,0.0463,0.0,96,,-0.05,-0.02,0.97,0,-0,0,0.97,1.23,79,2815,0.0,3.27,,12.8,0.999,98.8,,29.1,5,,,,,,,,,,,,0,0,0,0,0,0,0,0,0,0,0,0,0,0,0,0,,,,,,0.0,,,,,,,,,,,,,,,
574102,1745294807621,0.0466,,,,,,,,,,,,,,,,,,,,,,,0,0,0,1,0.0,0.0,0.0,0.0,2.25,,,0,0,0,0,0,0,0,0,0,0,0,0,0,0,0,0,,0,,,,,38.985775,-76.950218,0.0,48.3,31,3,0.9,0,0.0,-1,0.0,,0,0.0,0.0466
574122,1745294807641,0.047,0.0,90,,-0.06,-0.03,1.0,0,-0,0,1.01,1.23,82,2719,0.0,3.33,,12.8,0.999,98.8,,29.1,5,,,,,,,,,,,,0,0,0,0,0,0,0,0,0,0,0,0,0,0,0,0,,,,,,0.0,,,,,,,,,,,,,,,
574142,1745294807661,0.0473,,,,,,,,,,,,,,,,,,,,,,,,,,,,,,,,,,0,0,0,0,0,0,0,0,0,0,0,0,0,0,0,0,,,,,,,,,,,,,,,,,,,,,
574162,1745294807681,0.0476,0.0,90,,-0.06,-0.02,0.98,0,-0,0,0.98,1.23,80,2719,0.0,3.33,,12.85,1.005,98.8,,27.9,5,,,,,,,,,,,,0,0,0,0,0,0,0,0,0,0,0,0,0,0,0,0,,,,,,0.0,,,,,,,,,,,,,,,
574182,1745294807701,0.048,,,,,,,,,,,,,,,,,,,,,,,,,,,,,,,,,,0,0,0,0,0,0,0,0,0,0,0,0,0,0,0,0,,,,,,,,,,,,,,,,,,,,,
574202,1745294807721,0.0483,0.0,96,,-0.06,-0.03,1.0,0,-0,0,1.0,1.23,81,2648,0.0,3.35,,12.89,1.011,98.8,,27.9,5,0,0,0,1,0.0,0.0,0.0,0.0,2.25,,,0,0,0,0,0,0,0,0,0,0,0,0,0,0,0,0,,0,,,,0.0,38.985775,-76.950218,0.04,48.3,31,3,0.9,0,0.0,-1,0.0,0.0,0,0.0,0.0483
574222,1745294807741,0.0486,,,,,,,,,,,,,,,,,,,,,,,,,,,,,,,,,,0,0,0,0,0,0,0,0,0,0,0,0,0,0,0,0,,,,,,,,,,,,,,,,,,,,,
574242,1745294807761,0.049,0.0,96,,-0.07,0.01,0.98,-0,-0,0,0.99,1.23,80,2535,0.0,3.41,,13.0,1.023,98.8,,27.9,5,,,,,,,,,,,,0,0,0,0,0,0,0,0,0,0,0,0,0,0,0,0,,,,,,0.0,,,,,,,,,,,,,,,
574262,1745294807781,0.0493,,,,,,,,,,,,,,,,,,,,,,,,,,,,,,,,,,0,0,0,0,0,0,0,0,0,0,0,0,0,0,0,0,,,,,,,,,,,,,,,,,,,,,
574282,1745294807801,0.0496,0.0,96,,-0.07,0.01,0.98,-0,-0,0,0.99,1.23,80,2426,0.0,3.46,,13.0,1.023,98.8,,25.4,5,,,,,,,,,,,,0,0,0,0,0,0,0,0,0,0,0,0,0,0,0,0,,,,,,0.0,,,,,,,,,,,,,,,
574302,1745294807821,0.05,,,,,,,,,,,,,,,,,,,,,,,0,0,0,1,0.0,0.0,0.0,0.0,2.26,,,0,0,0,0,0,0,0,0,0,0,0,0,0,0,0,0,,0,,,,,38.985775,-76.950218,0.0,48.3,31,3,0.9,0,0.0,-1,0.0,,0,0.0,0.05
574322,1745294807841,0.0503,0.0,96,,-0.06,0.01,0.98,-0,-0,0,0.98,1.23,80,2271,0.0,3.54,,13.15,1.051,98.8,,25.4,5,,,,,,,,,,,,0,0,0,0,0,0,0,0,0,0,0,0,0,0,0,0,,,,,,0.0,,,,,,,,,,,,,,,
574342,1745294807861,0.0506,,,,,,,,,,,,,,,,,,,,,,,,,,,,,,,,,,0,0,0,0,0,0,0,0,0,0,0,0,0,0,0,0,,,,,,,,,,,,,,,,,,,,,
574362,1745294807881,0.051,0.0,93,,-0.06,0.01,0.99,-0,-0,0,0.99,1.23,81,2271,0.0,3.54,,13.23,1.087,98.8,,22.4,5,,,,,,,,,,,,0,0,0,0,0,0,0,0,0,0,0,0,0,0,0,0,,,,,,0.0,,,,,,,,,,,,,,,
574382,1745294807901,0.0513,,,,,,,,,,,,,,,,,,,,,,,,,,,,,,,,,,0,0,0,0,0,0,0,0,0,0,0,0,0,0,0,0,,,,,,,,,,,,,,,,,,,,,
574402,1745294807921,0.0516,0.0,93,13.87,-0.07,0.0,0.99,-0,-0,0,0.99,1.23,81,2099,0.0,3.44,15,13.4,1.118,98.8,183,22.4,5,0,0,0,1,0.0,0.0,0.0,0.0,2.26,0,1.0,0,0,0,0,0,0,0,0,0,0,0,0,0,0,0,0,0,0,1.0,0,0,0.0,38.985775,-76.950218,0.05,48.3,31,3,0.9,0,0.0,-1,0.0,0.0,0,0.0,0.0516
574422,1745294807941,0.052,,,,,,,,,,,,,,,,,,,,,,,,,,,,,,,,,,0,0,0,0,0,0,0,0,0,0,0,0,0,0,0,0,,,,,,,,,,,,,,,,,,,,,
574442,1745294807961,0.0523,0.0,99,,-0.09,-0.0,0.99,0,-0,0,1.0,1.23,81,2099,0.0,3.47,,13.44,1.111,98.8,,22.4,5,,,,,,,,,,,,0,0,0,0,0,0,0,0,0,0,0,0,0,0,0,0,,,,,,0.0,,,,,,,,,,,,,,,
574462,1745294807981,0.0526,,,,,,,,,,,,,,,,,,,,,,,,,,,,,,,,,,0,0,0,0,0,0,0,0,0,0,0,0,0,0,0,0,,,,,,,,,,,,,,,,,,,,,
574482,1745294808001,0.053,0.0,90,,-0.07,-0.01,1.01,0,-0,0,1.01,1.23,82,1925,0.0,3.48,,13.6,1.116,98.8,,19.9,5,,,,,,,,,,,,0,0,0,0,0,0,0,0,0,0,0,0,0,0,0,0,,,,,,0.0,,,,,,,,,,,,,,,
574502,1745294808011,0.0533,,,,,,,,,,,,,,,,,,,,,,,0,0,0,1,0.0,0.0,0.0,0.0,2.26,,,0,0,0,0,0,0,0,0,0,0,0,0,0,0,0,0,,0,,,,,38.985775,-76.950218,0.0,48.3,31,3,0.9,0,0.0,-1,0.0,,0,0.0,0.0533
574522,1745294808031,0.0536,0.0,90,,-0.09,-0.02,1.01,0,-0,0,1.01,1.23,82,1809,0.0,3.5,,13.6,1.116,98.8,,19.9,5,,,,,,,,,,,,0,0,0,0,0,0,0,0,0,0,0,0,0,0,0,0,,,,,,0.0,,,,,,,,,,,,,,,
574542,1745294808051,0.054,,,,,,,,,,,,,,,,,,,,,,,,,,,,,,,,,,0,0,0,0,0,0,0,0,0,0,0,0,0,0,0,0,,,,,,,,,,,,,,,,,,,,,
574562,1745294808071,0.0543,0.0,93,,-0.09,-0.01,0.99,-0,-0,0,1.0,1.23,81,1809,0.0,3.5,,13.75,1.136,98.8,,18.0,5,,,,,,,,,,,,0,0,0,0,0,0,0,0,0,0,0,0,0,0,0,0,,,,,,0.0,,,,,,,,,,,,,,,
574582,1745294808091,0.0546,,,,,,,,,,,,,,,,,,,,,,,,,,,,,,,,,,0,0,0,0,0,0,0,0,0,0,0,0,0,0,0,0,,,,,,,,,,,,,,,,,,,,,
574602,1745294808117,0.055,0.0,99,,-0.07,-0.01,0.99,-0,-0,0,1.0,1.23,81,1641,0.0,3.51,,13.8,1.14,98.8,,18.0,5,0,0,0,1,0.0,0.0,0.0,0.0,2.25,,,0,0,0,0,0,0,0,0,0,0,0,0,0,0,0,0,,0,,,,0.0,38.985775,-76.950218,0.04,48.3,31,3,0.9,0,0.0,-1,0.0,0.0,0,0.0,0.055
574622,1745294808137,0.0553,,,,,,,,,,,,,,,,,,,,,,,,,,,,,,,,,,0,0,0,0,0,0,0,0,0,0,0,0,0,0,0,0,,,,,,,,,,,,,,,,,,,,,
574642,1745294808157,0.0556,0.0,93,,-0.07,-0.01,0.99,-0,-0,0,0.99,1.23,81,1611,0.0,3.52,,13.96,1.118,98.8,,18.0,5,,,,,,,,,,,,0,0,0,0,0,0,0,0,0,0,0,0,0,0,0,0,,,,,,0.0,,,,,,,,,,,,,,,
574662,1745294808177,0.056,,,,,,,,,,,,,,,,,,,,,,,,,,,,,,,,,,0,0,0,0,0,0,0,0,0,0,0,0,0,0,0,0,,,,,,,,,,,,,,,,,,,,,
574682,1745294808197,0.0563,0.0,90,,-0.06,-0.03,0.98,0,-0,0,0.98,1.23,80,1499,0.0,3.52,,13.94,1.109,98.8,,15.8,5,,,,,,,,,,,,0,0,0,0,0,0,0,0,0,0,0,0,0,0,0,0,,,,,,0.0,,,,,,,,,,,,,,,
574702,1745294808219,0.0566,,,,,,,,,,,,,,,,,,,,,,,0,0,0,1,0.0,0.0,0.0,0.0,2.26,,,0,0,0,0,0,0,0,0,0,0,0,0,0,0,0,0,,0,,,,,38.985775,-76.950218,0.0,48.3,31,3,0.9,0,0.0,-1,0.0,,0,0.0,0.0566
574722,1745294808239,0.057,0.0,93,,-0.05,-0.02,0.98,0,-0,0,0.98,1.23,80,1435,0.0,3.53,,13.94,1.109,98.8,,15.8,5,,,,,,,,,,,,0,0,0,0,0,0,0,0,0,0,0,0,0,0,0,0,,,,,,0.0,,,,,,,,,,,,,,,
574742,1745294808259,0.0573,,,,,,,,,,,,,,,,,,,,,,,,,,,,,,,,,,0,0,0,0,0,0,0,0,0,0,0,0,0,0,0,0,,,,,,,,,,,,,,,,,,,,,
574762,1745294808279,0.0576,0.0,93,,-0.05,-0.03,0.96,-0,-0,0,0.97,1.23,79,1435,0.0,3.53,,14.07,1.119,98.8,,14.8,5,,,,,,,,,,,,0,0,0,0,0,0,0,0,0,0,0,0,0,0,0,0,,,,,,0.0,,,,,,,,,,,,,,,
574782,1745294808301,0.058,,,,,,,,,,,,,,,,,,,,,,,,,,,,,,,,,,0,0,0,0,0,0,0,0,0,0,0,0,0,0,0,0,,,,,,,,,,,,,,,,,,,,,
574802,1745294808321,0.0583,0.0,90,,-0.05,-0.03,0.97,-0,-0,0,0.97,1.23,79,1423,0.0,3.55,,14.1,1.11,98.8,,14.8,5,0,0,0,1,0.0,0.0,0.0,0.0,2.25,,,0,0,0,0,0,0,0,0,0,0,0,0,0,0,0,0,,0,,,,0.0,38.985775,-76.950218,0.0,48.3,31,3,0.9,0,0.0,-1,0.0,0.0,0,0.0,0.0583
574822,1745294808341,0.0586,,,,,,,,,,,,,,,,,,,,,,,,,,,,,,,,,,0,0,0,0,0,0,0,0,0,0,0,0,0,0,0,0,,,,,,,,,,,,,,,,,,,,,
574842,1745294808361,0.059,0.0,93,,-0.06,-0.02,0.99,0,-0,0,0.99,1.23,80,1285,0.0,3.54,,14.11,1.118,98.8,,14.8,5,,,,,,,,,,,,0,0,0,0,0,0,0,0,0,0,0,0,0,0,0,0,,,,,,0.0,,,,,,,,,,,,,,,
574862,1745294808381,0.0593,,,,,,,,,,,,,,,,,,,,,,,,,,,,,,,,,,0,0,0,0,0,0,0,0,0,0,0,0,0,0,0,0,,,,,,,,,,,,,,,,,,,,,
574882,1745294808402,0.0596,0.0,90,,-0.06,-0.02,0.98,0,-0,0,0.99,1.23,80,1316,0.0,3.55,,14.12,1.125,98.8,,14.1,5,,,,,,,,,,,,0,0,0,0,0,0,0,0,0,0,0,0,0,0,0,0,,,,,,0.0,,,,,,,,,,,,,,,
574902,1745294808422,0.06,,,,,,,,,,,,,,,,,,,,,,,0,0,0,1,0.0,0.0,0.0,0.0,2.26,,,0,0,0,0,0,0,0,0,0,0,0,0,0,0,0,0,,0,,,,,38.985775,-76.950218,0.0,48.3,31,3,0.9,0,0.0,-1,0.0,,0,0.0,0.06
574922,1745294808442,0.0603,0.0,90,,-0.06,-0.02,1.0,-0,-0,0,1.0,1.23,81,1125,0.0,3.56,,14.12,1.125,98.8,,14.1,5,,,,,,,,,,,,0,0,0,0,0,0,0,0,0,0,0,0,0,0,0,0,,,,,,0.0,,,,,,,,,,,,,,,
574942,1745294808462,0.0606,,,,,,,,,,,,,,,,,,,,,,,,,,,,,,,,,,0,0,0,0,0,0,0,0,0,0,0,0,0,0,0,0,,,,,,,,,,,,,,,,,,,,,
574962,1745294808482,0.061,0.0,85,,-0.05,-0.03,1.01,0,-0,0,1.01,1.23,82,1125,0.0,3.56,,14.24,1.129,98.8,,13.0,5,,,,,,,,,,,,0,0,0,0,0,0,0,0,0,0,0,0,0,0,0,0,,,,,,0.0,,,,,,,,,,,,,,,
574982,1745294808502,0.0613,,,,,,,,,,,,,,,,,,,,,,,,,,,,,,,,,,0,0,0,0,0,0,0,0,0,0,0,0,0,0,0,0,,,,,,,,,,,,,,,,,,,,,
575002,1745294808522,0.0616,0.0,90,,-0.07,-0.03,1.03,0,-0,0,1.03,1.23,84,1220,0.0,3.57,,14.11,1.123,98.8,,13.0,5,0,0,0,1,0.0,0.0,0.0,0.0,2.26,,,0,0,0,0,0,0,0,0,0,0,0,0,0,0,0,0,,0,,,,0.0,38.985775,-76.950218,0.08,48.3,31,3,0.9,0,0.0,-1,0.0,0.0,0,0.0,0.0616
575022,1745294808542,0.062,,,,,,,,,,,,,,,,,,,,,,,,,,,,,,,,,,0,0,0,0,0,0,0,0,0,0,0,0,0,0,0,0,,,,,,,,,,,,,,,,,,,,,
575042,1745294808562,0.0623,0.0,93,,-0.09,-0.03,0.99,0,-0,0,0.99,1.23,81,1711,0.0,3.53,,14.0,1.113,98.8,,13.0,5,,,,,,,,,,,,0,0,0,0,0,0,0,0,0,0,0,0,0,0,0,0,,,,,,0.0,,,,,,,,,,,,,,,
575062,1745294808582,0.0626,,,,,,,,,,,,,,,,,,,,,,,,,,,,,,,,,,0,0,0,0,0,0,0,0,0,0,0,0,0,0,0,0,,,,,,,,,,,,,,,,,,,,,
575082,1745294808602,0.063,0.0,90,,-0.07,-0.04,1.0,0,-0,0,1.0,1.23,81,1852,0.0,3.52,,13.95,1.169,98.8,,17.3,5,,,,,,,,,,,,0,0,0,0,0,0,0,0,0,0,0,0,0,0,0,0,,,,,,0.0,,,,,,,,,,,,,,,
575102,1745294808620,0.0633,,,,,,,,,,,,,,,,,,,,,,,0,0,0,1,0.0,0.0,0.0,0.0,2.25,,,0,0,0,0,0,0,0,0,0,0,0,0,0,0,0,0,,0,,,,,38.985775,-76.950218,0.0,48.3,31,3,0.9,0,0.0,-1,0.0,,0,0.0,0.0633
575122,1745294808640,0.0636,0.0,93,,-0.08,-0.06,1.0,0,-0,-0,1.0,1.23,81,2034,0.0,3.5,,13.95,1.169,98.8,,17.3,5,,,,,,,,,,,,0,0,0,0,0,0,0,0,0,0,0,0,0,0,0,0,,,,,,0.0,,,,,,,,,,,,,,,
575142,1745294808660,0.064,,,,,,,,,,,,,,,,,,,,,,,,,,,,,,,,,,0,0,0,0,0,0,0,0,0,0,0,0,0,0,0,0,,,,,,,,,,,,,,,,,,,,,
575162,1745294808680,0.0643,0.0,87,,-0.08,-0.06,1.0,0,-0,-0,1.0,1.23,81,2034,0.0,3.5,,13.87,1.142,98.8,,19.5,5,,,,,,,,,,,,0,0,0,0,0,0,0,0,0,0,0,0,0,0,0,0,,,,,,0.0,,,,,,,,,,,,,,,
575182,1745294808702,0.0646,,,,,,,,,,,,,,,,,,,,,,,,,,,,,,,,,,0,0,0,0,0,0,0,0,0,0,0,0,0,0,0,0,,,,,,,,,,,,,,,,,,,,,
575202,1745294808722,0.065,0.0,96,,-0.08,-0.05,1.01,0,-0,-0,1.01,1.23,82,1966,0.0,3.49,,13.75,1.085,98.8,,19.5,5,0,0,0,1,0.0,0.0,0.0,0.0,2.26,,,0,0,0,0,0,0,0,0,0,0,0,0,0,0,0,0,,0,,,,0.0,38.985775,-76.950218,0.0,48.3,31,3,0.9,0,0.0,-1,0.0,0.0,0,0.0,0.065
575222,1745294808742,0.0653,,,,,,,,,,,,,,,,,,,,,,,,,,,,,,,,,,0,0,0,0,0,0,0,0,0,0,0,0,0,0,0,0,,,,,,,,,,,,,,,,,,,,,
575242,1745294808762,0.0656,0.0,99,,-0.09,-0.04,0.99,0,-0,-0,0.99,1.23,81,2013,0.0,3.5,,13.73,1.057,98.8,,19.5,5,,,,,,,,,,,,0,0,0,0,0,0,0,0,0,0,0,0,0,0,0,0,,,,,,0.0,,,,,,,,,,,,,,,
575262,1745294808782,0.066,,,,,,,,,,,,,,,,,,,,,,,,,,,,,,,,,,0,0,0,0,0,0,0,0,0,0,0,0,0,0,0,0,,,,,,,,,,,,,,,,,,,,,
575282,1745294808802,0.0663,0.0,85,,-0.08,-0.04,1.0,0,-0,-0,1.01,1.23,82,1998,0.0,3.5,,13.82,1.055,98.8,,18.9,5,,,,,,,,,,,,0,0,0,0,0,0,0,0,0,0,0,0,0,0,0,0,,,,,,0.0,,,,,,,,,,,,,,,
575302,1745294808820,0.0667,,,,,,,,,,,,,,,,,,,,,,,0,0,0,1,0.0,0.0,0.0,0.0,2.25,,,0,0,0,0,0,0,0,0,0,0,0,0,0,0,0,0,,0,,,,,38.985775,-76.950218,0.0,48.3,31,3,0.9,0,0.0,-1,0.0,,0,0.0,0.0667
575322,1745294808840,0.067,0.0,85,,-0.08,-0.04,1.01,1,-0,-0,1.01,1.23,82,1968,0.0,3.49,,13.82,1.055,98.8,,18.9,5,,,,,,,,,,,,0,0,0,0,0,0,0,0,0,0,0,0,0,0,0,0,,,,,,0.0,,,,,,,,,,,,,,,
575342,1745294808860,0.0673,,,,,,,,,,,,,,,,,,,,,,,,,,,,,,,,,,0,0,0,0,0,0,0,0,0,0,0,0,0,0,0,0,,,,,,,,,,,,,,,,,,,,,
575362,1745294808880,0.0676,0.0,87,,-0.08,-0.02,1.01,0,-0,-0,1.01,1.23,82,1968,0.0,3.49,,13.76,1.042,98.8,,20.0,5,,,,,,,,,,,,0,0,0,0,0,0,0,0,0,0,0,0,0,0,0,0,,,,,,0.0,,,,,,,,,,,,,,,
575382,1745294808902,0.068,,,,,,,,,,,,,,,,,,,,,,,,,,,,,,,,,,0,0,0,0,0,0,0,0,0,0,0,0,0,0,0,0,,,,,,,,,,,,,,,,,,,,,
575402,1745294808922,0.0683,0.0,93,13.74,-0.08,-0.03,1.03,0,-0,0,1.03,1.23,84,1939,0.0,3.49,15,13.72,1.035,98.8,185,20.0,5,0,0,0,1,0.0,0.0,0.0,0.0,2.25,0,1.0,0,0,0,0,0,0,0,0,0,0,0,0,0,0,0,0,0,0,1.0,0,0,0.0,38.985775,-76.950218,0.04,48.3,31,3,0.9,0,0.0,-1,0.0,0.0,0,0.0,0.0683
575422,1745294808942,0.0686,,,,,,,,,,,,,,,,,,,,,,,,,,,,,,,,,,0,0,0,0,0,0,0,0,0,0,0,0,0,0,0,0,,,,,,,,,,,,,,,,,,,,,
575442,1745294808962,0.069,0.0,85,,-0.09,-0.01,1.01,0,-0,0,1.02,1.23,82,1895,0.0,3.5,,13.73,1.016,98.8,,20.0,5,,,,,,,,,,,,0,0,0,0,0,0,0,0,0,0,0,0,0,0,0,0,,,,,,0.0,,,,,,,,,,,,,,,
575462,1745294808982,0.0693,,,,,,,,,,,,,,,,,,,,,,,,,,,,,,,,,,0,0,0,0,0,0,0,0,0,0,0,0,0,0,0,0,,,,,,,,,,,,,,,,,,,,,
575482,1745294809002,0.0696,0.0,85,,-0.08,0.01,1.01,0,-0,-0,1.01,1.23,82,1934,0.0,3.51,,13.72,1.025,98.8,,18.9,5,,,,,,,,,,,,0,0,0,0,0,0,0,0,0,0,0,0,0,0,0,0,,,,,,0.0,,,,,,,,,,,,,,,
575502,1745294809012,0.07,,,,,,,,,,,,,,,,,,,,,,,0,0,0,1,0.0,0.0,0.0,0.0,2.26,,,0,0,0,0,0,0,0,0,0,0,0,0,0,0,0,0,,0,,,,,38.985775,-76.950218,0.0,48.3,31,3,0.9,0,0.0,-1,0.0,,0,0.0,0.07
575522,1745294809032,0.0703,0.0,87,,-0.08,0.03,1.03,0,-0,-0,1.03,1.23,84,2200,0.0,3.46,,13.72,1.025,98.8,,18.9,5,,,,,,,,,,,,0,0,0,0,0,0,0,0,0,0,0,0,0,0,0,0,,,,,,0.0,,,,,,,,,,,,,,,
575542,1745294809052,0.0706,,,,,,,,,,,,,,,,,,,,,,,,,,,,,,,,,,0,0,0,0,0,0,0,0,0,0,0,0,0,0,0,0,,,,,,,,,,,,,,,,,,,,,
575562,1745294809072,0.071,0.0,87,,-0.08,0.02,1.03,0,-0,-0,1.04,1.23,84,2200,0.0,3.46,,13.65,1.095,98.8,,22.7,5,,,,,,,,,,,,0,0,0,0,0,0,0,0,0,0,0,0,0,0,0,0,,,,,,0.0,,,,,,,,,,,,,,,
575582,1745294809092,0.0713,,,,,,,,,,,,,,,,,,,,,,,,,,,,,,,,,,0,0,0,0,0,0,0,0,0,0,0,0,0,0,0,0,,,,,,,,,,,,,,,,,,,,,
575602,1745294809118,0.0716,0.0,93,,-0.08,0.01,1.04,0,-0,0,1.05,1.23,85,2380,0.0,3.44,,13.55,1.177,98.8,,22.7,5,0,0,0,0,0.0,0.0,0.0,0.0,2.26,,,0,0,0,0,0,0,0,0,0,0,0,0,0,0,0,0,,0,,,,0.0,38.985775,-76.950218,0.0,48.3,31,3,0.9,0,0.0,-1,0.0,0.0,0,0.0,0.0716
575622,1745294809138,0.072,,,,,,,,,,,,,,,,,,,,,,,,,,,,,,,,,,0,0,0,0,0,0,0,0,0,0,0,0,0,0,0,0,,,,,,,,,,,,,,,,,,,,,
575642,1745294809158,0.0723,0.0,93,,-0.07,-0.01,1.03,0,-0,0,1.03,1.23,84,2344,0.0,3.45,,13.47,1.168,98.8,,22.7,5,,,,,,,,,,,,0,0,0,0,0,0,0,0,0,0,0,0,0,0,0,0,,,,,,0.0,,,,,,,,,,,,,,,
575662,1745294809178,0.0726,,,,,,,,,,,,,,,,,,,,,,,,,,,,,,,,,,0,0,0,0,0,0,0,0,0,0,0,0,0,0,0,0,,,,,,,,,,,,,,,,,,,,,
575682,1745294809198,0.073,0.0,85,,-0.05,-0.02,1.02,0,-0,-0,1.02,1.23,83,2337,0.0,3.45,,13.45,1.105,98.8,,22.5,5,,,,,,,,,,,,0,0,0,0,0,0,0,0,0,0,0,0,0,0,0,0,,,,,,0.0,,,,,,,,,,,,,,,
575702,1745294809218,0.0733,,,,,,,,,,,,,,,,,,,,,,,0,0,0,0,0.0,0.0,0.0,0.0,2.26,,,0,0,0,0,0,0,0,0,0,0,0,0,0,0,0,0,,0,,,,,38.985775,-76.950218,0.05,48.3,31,3,0.9,0,0.0,-1,0.0,,0,0.0,0.0733
575722,1745294809238,0.0736,0.0,90,,-0.06,-0.04,1.01,0,-0,-0,1.01,1.23,82,2290,0.0,3.45,,13.45,1.105,98.8,,22.5,5,,,,,,,,,,,,0,0,0,0,0,0,0,0,0,0,0,0,0,0,0,0,,,,,,0.0,,,,,,,,,,,,,,,
575742,1745294809258,0.074,,,,,,,,,,,,,,,,,,,,,,,,,,,,,,,,,,0,0,0,0,0,0,0,0,0,0,0,0,0,0,0,0,,,,,,,,,,,,,,,,,,,,,
575762,1745294809278,0.0743,0.0,85,,-0.06,-0.06,1.01,1,-0,-0,1.01,1.23,82,2290,0.0,3.45,,13.48,1.058,98.8,,22.1,5,,,,,,,,,,,,0,0,0,0,0,0,0,0,0,0,0,0,0,0,0,0,,,,,,0.0,,,,,,,,,,,,,,,
575782,1745294809298,0.0746,,,,,,,,,,,,,,,,,,,,,,,,,,,,,,,,,,0,0,0,0,0,0,0,0,0,0,0,0,0,0,0,0,,,,,,,,,,,,,,,,,,,,,
575802,1745294809320,0.075,0.0,93,,-0.07,-0.04,1.0,1,-0,-0,1.0,1.23,81,2253,0.0,3.46,,13.56,1.029,98.8,,22.1,5,0,0,0,0,0.0,0.0,0.0,0.0,2.26,,,0,0,0,0,0,0,0,0,0,0,0,0,0,0,0,0,,0,,,,0.0,38.985775,-76.950218,0.04,48.3,31,3,0.9,0,0.0,-1,0.0,0.0,0,0.0,0.075
575822,1745294809340,0.0753,,,,,,,,,,,,,,,,,,,,,,,,,,,,,,,,,,0,0,0,0,0,0,0,0,0,0,0,0,0,0,0,0,,,,,,,,,,,,,,,,,,,,,
575842,1745294809360,0.0756,0.0,87,,-0.07,-0.05,1.0,0,-0,-0,1.0,1.23,81,2455,0.0,3.41,,13.47,1.084,98.8,,22.1,5,,,,,,,,,,,,0,0,0,0,0,0,0,0,0,0,0,0,0,0,0,0,,,,,,0.0,,,,,,,,,,,,,,,
575862,1745294809380,0.076,,,,,,,,,,,,,,,,,,,,,,,,,,,,,,,,,,0,0,0,0,0,0,0,0,0,0,0,0,0,0,0,0,,,,,,,,,,,,,,,,,,,,,
575882,1745294809401,0.0763,0.0,85,,-0.07,-0.04,1.0,0,-0,-0,1.0,1.23,81,2543,0.0,3.41,,13.33,1.173,98.8,,25.1,5,,,,,,,,,,,,0,0,0,0,0,0,0,0,0,0,0,0,0,0,0,0,,,,,,0.0,,,,,,,,,,,,,,,
575902,1745294809421,0.0766,,,,,,,,,,,,,,,,,,,,,,,0,0,0,0,0.0,0.0,0.0,0.0,2.26,,,0,0,0,0,0,0,0,0,0,0,0,0,0,0,0,0,,0,,,,,38.985775,-76.950218,0.0,48.3,31,3,0.9,0,0.0,-1,0.0,,0,0.0,0.0766
575922,1745294809441,0.077,0.0,87,,-0.08,-0.03,0.98,0,-0,-0,0.99,1.23,80,2503,0.0,3.42,,13.33,1.173,98.8,,25.1,5,,,,,,,,,,,,0,0,0,0,0,0,0,0,0,0,0,0,0,0,0,0,,,,,,0.0,,,,,,,,,,,,,,,
575942,1745294809461,0.0773,,,,,,,,,,,,,,,,,,,,,,,,,,,,,,,,,,0,0,0,0,0,0,0,0,0,0,0,0,0,0,0,0,,,,,,,,,,,,,,,,,,,,,
575962,1745294809481,0.0777,0.0,82,,-0.08,-0.04,0.98,0,-0,-0,0.98,1.23,80,2503,0.0,3.42,,13.31,1.169,98.8,,24.4,5,,,,,,,,,,,,0,0,0,0,0,0,0,0,0,0,0,0,0,0,0,0,,,,,,0.0,,,,,,,,,,,,,,,
575982,1745294809501,0.078,,,,,,,,,,,,,,,,,,,,,,,,,,,,,,,,,,0,0,0,0,0,0,0,0,0,0,0,0,0,0,0,0,,,,,,,,,,,,,,,,,,,,,
576002,1745294809519,0.0783,0.0,96,,-0.07,-0.05,0.98,0,-0,-0,0.98,1.23,80,2420,0.0,3.42,,13.32,1.112,98.8,,24.4,5,0,0,0,0,0.0,0.0,0.0,0.0,2.26,,,0,0,0,0,0,0,0,0,0,0,0,0,0,0,0,0,,0,,,,0.0,38.985775,-76.950218,0.0,48.3,31,3,0.9,0,0.0,-1,0.0,0.0,0,0.0,0.0783
576022,1745294809539,0.0786,,,,,,,,,,,,,,,,,,,,,,,,,,,,,,,,,,0,0,0,0,0,0,0,0,0,0,0,0,0,0,0,0,,,,,,,,,,,,,,,,,,,,,
576042,1745294809559,0.079,0.0,96,,-0.07,-0.04,1.0,0,-0,-0,1.0,1.23,82,2378,0.0,3.44,,13.35,1.055,98.8,,24.4,5,,,,,,,,,,,,0,0,0,0,0,0,0,0,0,0,0,0,0,0,0,0,,,,,,0.0,,,,,,,,,,,,,,,
576062,1745294809579,0.0793,,,,,,,,,,,,,,,,,,,,,,,,,,,,,,,,,,0,0,0,0,0,0,0,0,0,0,0,0,0,0,0,0,,,,,,,,,,,,,,,,,,,,,
576082,1745294809601,0.0796,0.0,87,,-0.07,-0.01,1.0,0,-0,0,1.0,1.23,81,2564,0.0,3.39,,13.28,1.072,98.8,,25.5,5,,,,,,,,,,,,0,0,0,0,0,0,0,0,0,0,0,0,0,0,0,0,,,,,,0.0,,,,,,,,,,,,,,,
576102,1745294809621,0.08,,,,,,,,,,,,,,,,,,,,,,,0,0,0,0,0.0,0.0,0.0,0.0,2.26,,,0,0,0,0,0,0,0,0,0,0,0,0,0,0,0,0,,0,,,,,38.985775,-76.950218,0.0,48.3,31,3,0.9,0,0.0,-1,0.0,,0,0.0,0.08
576122,1745294809641,0.0803,0.0,90,,-0.07,-0.04,1.02,0,-0,0,1.03,1.23,83,2542,0.0,3.41,,13.28,1.072,98.8,,25.5,5,,,,,,,,,,,,0,0,0,0,0,0,0,0,0,0,0,0,0,0,0,0,,,,,,0.0,,,,,,,,,,,,,,,
576142,1745294809661,0.0806,,,,,,,,,,,,,,,,,,,,,,,,,,,,,,,,,,0,0,0,0,0,0,0,0,0,0,0,0,0,0,0,0,,,,,,,,,,,,,,,,,,,,,
576162,1745294809681,0.081,0.0,79,,-0.07,-0.02,1.0,0,-0,0,1.0,1.23,81,2542,0.0,3.41,,13.24,1.146,98.8,,26.8,5,,,,,,,,,,,,0,0,0,0,0,0,0,0,0,0,0,0,0,0,0,0,,,,,,0.0,,,,,,,,,,,,,,,
576182,1745294809701,0.0813,,,,,,,,,,,,,,,,,,,,,,,,,,,,,,,,,,0,0,0,0,0,0,0,0,0,0,0,0,0,0,0,0,,,,,,,,,,,,,,,,,,,,,
576202,1745294809719,0.0816,0.0,93,,-0.06,-0.03,1.03,-0,-0,0,1.03,1.23,84,2676,0.0,3.31,,13.12,1.124,98.8,,26.8,5,0,0,0,0,0.0,0.0,0.0,0.0,2.26,,,0,0,0,0,0,0,0,0,0,0,0,0,0,0,0,0,,0,,,,0.0,38.985775,-76.950218,0.0,48.3,31,3,0.9,0,0.0,-1,0.0,0.0,0,0.0,0.0816
576222,1745294809739,0.082,,,,,,,,,,,,,,,,,,,,,,,,,,,,,,,,,,0,0,0,0,0,0,0,0,0,0,0,0,0,0,0,0,,,,,,,,,,,,,,,,,,,,,
576242,1745294809759,0.0823,0.0,96,,-0.06,-0.01,0.99,-0,-0,0,0.99,1.23,81,2632,0.0,3.35,,13.12,1.116,98.8,,26.8,5,,,,,,,,,,,,0,0,0,0,0,0,0,0,0,0,0,0,0,0,0,0,,,,,,0.0,,,,,,,,,,,,,,,
576262,1745294809779,0.0826,,,,,,,,,,,,,,,,,,,,,,,,,,,,,,,,,,0,0,0,0,0,0,0,0,0,0,0,0,0,0,0,0,,,,,,,,,,,,,,,,,,,,,
576282,1745294809801,0.083,0.0,85,,-0.06,-0.02,1.03,-0,-0,0,1.03,1.23,84,2597,0.0,3.33,,13.07,1.057,98.8,,26.8,5,,,,,,,,,,,,0,0,0,0,0,0,0,0,0,0,0,0,0,0,0,0,,,,,,0.0,,,,,,,,,,,,,,,
576302,1745294809821,0.0833,,,,,,,,,,,,,,,,,,,,,,,0,0,0,0,0.0,0.0,0.0,0.0,2.26,,,0,0,0,0,0,0,0,0,0,0,0,0,0,0,0,0,,0,,,,,38.985775,-76.950218,0.05,48.3,31,3,0.9,0,0.0,-1,0.0,,0,0.0,0.0833
576322,1745294809841,0.0836,0.0,85,,-0.06,-0.01,1.01,-0,-0,0,1.01,1.23,82,2527,0.0,3.36,,13.07,1.057,98.8,,26.8,5,,,,,,,,,,,,0,0,0,0,0,0,0,0,0,0,0,0,0,0,0,0,,,,,,0.0,,,,,,,,,,,,,,,
576342,1745294809861,0.084,,,,,,,,,,,,,,,,,,,,,,,,,,,,,,,,,,0,0,0,0,0,0,0,0,0,0,0,0,0,0,0,0,,,,,,,,,,,,,,,,,,,,,
576362,1745294809881,0.0843,0.0,79,,-0.07,-0.04,1.05,-0,-0,0,1.05,1.23,85,2527,0.0,3.36,,13.15,1.02,98.8,,26.6,5,,,,,,,,,,,,0,0,0,0,0,0,0,0,0,0,0,0,0,0,0,0,,,,,,0.0,,,,,,,,,,,,,,,
576382,1745294809901,0.0846,,,,,,,,,,,,,,,,,,,,,,,,,,,,,,,,,,0,0,0,0,0,0,0,0,0,0,0,0,0,0,0,0,,,,,,,,,,,,,,,,,,,,,
576402,1745294809921,0.085,0.0,79,13.75,-0.07,-0.02,1.02,-0,-0,0,1.02,1.23,83,2791,0.0,3.39,15,13.09,1.045,98.8,185,26.6,5,0,0,0,0,0.0,0.0,0.0,0.0,2.26,0,1.0,0,0,0,0,0,0,0,0,0,0,0,0,0,0,0,0,0,0,1.0,0,0,0.0,38.985775,-76.950218,0.0,48.3,31,3,0.9,0,0.0,-1,0.0,0.0,0,0.0,0.085
576422,1745294809941,0.0853,,,,,,,,,,,,,,,,,,,,,,,,,,,,,,,,,,0,0,0,0,0,0,0,0,0,0,0,0,0,0,0,0,,,,,,,,,,,,,,,,,,,,,
576442,1745294809961,0.0856,0.0,82,,-0.07,-0.01,0.98,0,-0,0,0.98,1.23,80,2819,0.0,3.28,,13.0,1.166,98.8,,26.6,5,,,,,,,,,,,,0,0,0,0,0,0,0,0,0,0,0,0,0,0,0,0,,,,,,0.0,,,,,,,,,,,,,,,
576462,1745294809981,0.086,,,,,,,,,,,,,,,,,,,,,,,,,,,,,,,,,,0,0,0,0,0,0,0,0,0,0,0,0,0,0,0,0,,,,,,,,,,,,,,,,,,,,,
576482,1745294810001,0.0863,0.0,79,,-0.08,-0.01,0.98,0,-0,0,0.99,1.23,80,2844,0.0,3.24,,12.91,1.146,98.8,,28.4,5,,,,,,,,,,,,0,0,0,0,0,0,0,0,0,0,0,0,0,0,0,0,,,,,,0.0,,,,,,,,,,,,,,,
576502,1745294810013,0.0866,,,,,,,,,,,,,,,,,,,,,,,0,0,0,0,0.0,0.0,0.0,0.0,2.26,,,0,0,0,0,0,0,0,0,0,0,0,0,0,0,0,0,,0,,,,,38.985775,-76.950218,0.04,48.3,31,3,0.9,0,0.0,-1,0.0,,0,0.0,0.0866
576522,1745294810033,0.087,0.0,85,,-0.07,-0.04,1.05,-0,-0,0,1.05,1.23,85,2795,0.0,3.38,,12.91,1.146,98.8,,28.4,5,,,,,,,,,,,,0,0,0,0,0,0,0,0,0,0,0,0,0,0,0,0,,,,,,0.0,,,,,,,,,,,,,,,
576542,1745294810053,0.0873,,,,,,,,,,,,,,,,,,,,,,,,,,,,,,,,,,0,0,0,0,0,0,0,0,0,0,0,0,0,0,0,0,,,,,,,,,,,,,,,,,,,,,
576562,1745294810073,0.0876,0.0,85,,-0.06,-0.09,1.09,-1,-0,1,1.1,1.23,89,2795,0.0,3.38,,12.87,1.075,98.8,,30.1,5,,,,,,,,,,,,0,0,0,0,0,0,0,0,0,0,0,0,0,0,0,0,,,,,,0.0,,,,,,,,,,,,,,,
576582,1745294810093,0.088,,,,,,,,,,,,,,,,,,,,,,,,,,,,,,,,,,0,0,0,0,0,0,0,0,0,0,0,0,0,0,0,0,,,,,,,,,,,,,,,,,,,,,
576602,1745294810117,0.0883,0.0,85,,-0.04,-0.1,1.13,-1,-0,1,1.13,1.23,92,2952,0.0,3.26,,12.76,1.072,98.8,,30.1,5,0,0,0,0,0.0,0.0,0.0,0.0,2.25,,,0,0,0,0,0,0,0,0,0,0,0,0,0,0,0,0,,0,,,,0.0,38.985775,-76.950218,0.05,48.3,31,3,0.9,0,0.0,-1,0.0,0.0,0,0.0,0.0883
576622,1745294810137,0.0887,,,,,,,,,,,,,,,,,,,,,,,,,,,,,,,,,,0,0,0,0,0,0,0,0,0,0,0,0,0,0,0,0,,,,,,,,,,,,,,,,,,,,,
576642,1745294810157,0.089,0.0,93,,-0.03,-0.16,1.18,-1,-0,1,1.19,1.23,97,3012,0.0,3.26,,12.73,1.046,98.8,,30.1,5,,,,,,,,,,,,0,0,0,0,0,0,0,0,0,0,0,0,0,0,0,0,,,,,,0.0,,,,,,,,,,,,,,,
576662,1745294810177,0.0893,,,,,,,,,,,,,,,,,,,,,,,,,,,,,,,,,,0,0,0,0,0,0,0,0,0,0,0,0,0,0,0,0,,,,,,,,,,,,,,,,,,,,,
576682,1745294810197,0.0896,0.0,93,,-0.05,-0.23,1.22,-1,-0,1,1.25,1.25,100,3131,0.0,3.23,,12.63,1.032,98.8,,30.8,5,,,,,,,,,,,,0,0,0,0,0,0,0,0,0,0,0,0,0,0,0,0,,,,,,0.0,,,,,,,,,,,,,,,
576702,1745294810217,0.09,,,,,,,,,,,,,,,,,,,,,,,0,0,0,0,0.0,0.0,0.0,0.0,2.26,,,0,0,0,0,0,0,0,0,0,0,0,0,0,0,0,0,,0,,,,,38.985775,-76.950218,0.04,48.3,31,3,0.9,0,0.0,-1,0.0,,0,0.0,0.09
576722,1745294810237,0.0903,0.0,87,,-0.07,-0.25,1.24,-1,-0,1,1.27,1.27,100,3094,0.0,3.22,,12.63,1.032,98.8,,30.8,5,,,,,,,,,,,,0,0,0,0,0,0,0,0,0,0,0,0,0,0,0,0,,,,,,0.0,,,,,,,,,,,,,,,
576742,1745294810257,0.0906,,,,,,,,,,,,,,,,,,,,,,,,,,,,,,,,,,0,0,0,0,0,0,0,0,0,0,0,0,0,0,0,0,,,,,,,,,,,,,,,,,,,,,
576762,1745294810277,0.091,0.0,73,,-0.1,-0.24,1.24,-0,-0,1,1.26,1.27,100,3094,0.0,3.22,,12.57,1.012,98.8,,31.0,5,,,,,,,,,,,,0,0,0,0,0,0,0,0,0,0,0,0,0,0,0,0,,,,,,0.0,,,,,,,,,,,,,,,
576782,1745294810301,0.0913,,,,,,,,,,,,,,,,,,,,,,,,,,,,,,,,,,0,0,0,0,0,0,0,0,0,0,0,0,0,0,0,0,,,,,,,,,,,,,,,,,,,,,
576802,1745294810321,0.0916,0.0,85,,-0.11,-0.27,1.28,-0,-0,0,1.32,1.32,100,2978,0.0,3.24,,12.59,1.028,98.8,,31.0,5,0,0,0,0,0.0,0.0,0.0,0.0,2.26,,,0,0,0,0,0,0,0,0,0,0,0,0,0,0,0,0,,0,,,,0.0,38.985775,-76.950218,0.07,48.3,31,3,0.9,0,0.0,-1,0.0,0.0,0,0.0,0.0916
576822,1745294810341,0.092,,,,,,,,,,,,,,,,,,,,,,,,,,,,,,,,,,0,0,0,0,0,0,0,0,0,0,0,0,0,0,0,0,,,,,,,,,,,,,,,,,,,,,
576842,1745294810361,0.0923,0.0,93,,-0.14,-0.28,1.29,0,0,-0,1.33,1.33,100,3080,0.0,3.29,,12.59,1.051,98.8,,31.0,5,,,,,,,,,,,,0,0,0,0,0,0,0,0,0,0,0,0,0,0,0,0,,,,,,0.0,,,,,,,,,,,,,,,
576862,1745294810381,0.0926,,,,,,,,,,,,,,,,,,,,,,,,,,,,,,,,,,0,0,0,0,0,0,0,0,0,0,0,0,0,0,0,0,,,,,,,,,,,,,,,,,,,,,
576882,1745294810401,0.093,0.0,85,,-0.13,-0.18,1.19,1,-0,-0,1.21,1.33,91,3156,0.0,3.25,,12.49,1.068,98.8,,31.1,5,,,,,,,,,,,,0,0,0,0,0,0,0,0,0,0,0,0,0,0,0,0,,,,,,0.0,,,,,,,,,,,,,,,
576902,1745294810420,0.0933,,,,,,,,,,,,,,,,,,,,,,,0,0,0,0,0.0,0.0,0.0,0.0,2.26,,,0,0,0,0,0,0,0,0,0,0,0,0,0,0,0,0,,0,,,,,38.985775,-76.950218,0.05,48.3,31,3,0.9,0,0.0,-1,0.0,,0,0.0,0.0933
576922,1745294810440,0.0936,0.0,90,,-0.11,-0.1,1.09,0,-0,-0,1.1,1.33,83,3062,0.0,3.23,,12.49,1.068,98.8,,31.1,5,,,,,,,,,,,,0,0,0,0,0,0,0,0,0,0,0,0,0,0,0,0,,,,,,0.0,,,,,,,,,,,,,,,
576942,1745294810460,0.094,,,,,,,,,,,,,,,,,,,,,,,,,,,,,,,,,,0,0,0,0,0,0,0,0,0,0,0,0,0,0,0,0,,,,,,,,,,,,,,,,,,,,,
576962,1745294810480,0.0943,0.0,82,,-0.09,-0.06,1.01,0,-0,0,1.02,1.33,76,3062,0.0,3.23,,12.49,1.017,98.8,,31.3,5,,,,,,,,,,,,0,0,0,0,0,0,0,0,0,0,0,0,0,0,0,0,,,,,,0.0,,,,,,,,,,,,,,,
576982,1745294810500,0.0946,,,,,,,,,,,,,,,,,,,,,,,,,,,,,,,,,,0,0,0,0,0,0,0,0,0,0,0,0,0,0,0,0,,,,,,,,,,,,,,,,,,,,,
577002,1745294810520,0.095,0.0,90,,-0.08,-0.02,0.99,0,-0,0,0.99,1.33,75,3075,0.0,3.26,,12.49,0.986,98.8,,31.3,5,0,0,0,0,0.0,0.0,0.0,0.0,2.26,,,0,0,0,0,0,0,0,0,0,0,0,0,0,0,0,0,,0,,,,0.0,38.985775,-76.950218,0.09,48.3,31,3,0.9,0,0.0,-1,0.0,0.0,0,0.0,0.095
577022,1745294810540,0.0953,,,,,,,,,,,,,,,,,,,,,,,,,,,,,,,,,,0,0,0,0,0,0,0,0,0,0,0,0,0,0,0,0,,,,,,,,,,,,,,,,,,,,,
577042,1745294810560,0.0956,0.0,93,,-0.07,0.01,0.99,-0,-0,0,0.99,1.33,74,3046,0.0,3.28,,12.51,0.993,98.8,,31.3,5,,,,,,,,,,,,0,0,0,0,0,0,0,0,0,0,0,0,0,0,0,0,,,,,,0.0,,,,,,,,,,,,,,,
577062,1745294810580,0.096,,,,,,,,,,,,,,,,,,,,,,,,,,,,,,,,,,0,0,0,0,0,0,0,0,0,0,0,0,0,0,0,0,,,,,,,,,,,,,,,,,,,,,
577082,1745294810600,0.0963,0.0,79,,-0.06,0.03,0.96,-0,-0,1,0.96,1.33,73,2971,0.0,3.31,,12.52,0.997,98.8,,30.0,5,,,,,,,,,,,,0,0,0,0,0,0,0,0,0,0,0,0,0,0,0,0,,,,,,0.0,,,,,,,,,,,,,,,
577102,1745294810620,0.0966,,,,,,,,,,,,,,,,,,,,,,,0,0,0,0,0.0,0.0,0.0,0.0,2.26,,,0,0,0,0,0,0,0,0,0,0,0,0,0,0,0,0,,0,,,,,38.985775,-76.950218,0.04,48.3,31,3,0.9,0,0.0,-1,0.0,,0,0.0,0.0966
577122,1745294810640,0.097,0.0,85,,-0.03,0.03,0.9,-0,-0,1,0.9,1.33,68,2963,0.0,3.33,,12.52,0.997,98.8,,30.0,5,,,,,,,,,,,,0,0,0,0,0,0,0,0,0,0,0,0,0,0,0,0,,,,,,0.0,,,,,,,,,,,,,,,
577142,1745294810660,0.0973,,,,,,,,,,,,,,,,,,,,,,,,,,,,,,,,,,0,0,0,0,0,0,0,0,0,0,0,0,0,0,0,0,,,,,,,,,,,,,,,,,,,,,
577162,1745294810680,0.0976,0.0,82,,-0.02,0.04,0.85,-0,-0,0,0.85,1.33,64,2963,0.0,3.33,,12.55,1.019,98.8,,30.4,5,,,,,,,,,,,,0,0,0,0,0,0,0,0,0,0,0,0,0,0,0,0,,,,,,0.0,,,,,,,,,,,,,,,
577182,1745294810700,0.098,,,,,,,,,,,,,,,,,,,,,,,,,,,,,,,,,,0,0,0,0,0,0,0,0,0,0,0,0,0,0,0,0,,,,,,,,,,,,,,,,,,,,,
577202,1745294810720,0.0983,0.0,90,,-0.02,0.05,0.82,0,-0,0,0.82,1.33,62,2959,0.0,3.27,,12.59,1.041,98.8,,30.4,5,0,0,0,0,0.0,0.0,0.0,0.0,2.25,,,0,0,0,0,0,0,0,0,0,0,0,0,0,0,0,0,,0,,,,0.0,38.985775,-76.950218,0.06,48.3,31,3,0.9,0,0.0,-1,0.0,0.0,0,0.0,0.0983
577222,1745294810740,0.0986,,,,,,,,,,,,,,,,,,,,,,,,,,,,,,,,,,0,0,0,0,0,0,0,0,0,0,0,0,0,0,0,0,,,,,,,,,,,,,,,,,,,,,
577242,1745294810760,0.099,0.0,76,,-0.05,0.04,0.84,0,-0,0,0.84,1.33,63,2845,0.0,3.37,,12.6,1.016,98.8,,30.4,5,,,,,,,,,,,,0,0,0,0,0,0,0,0,0,0,0,0,0,0,0,0,,,,,,0.0,,,,,,,,,,,,,,,
577262,1745294810780,0.0993,,,,,,,,,,,,,,,,,,,,,,,,,,,,,,,,,,0,0,0,0,0,0,0,0,0,0,0,0,0,0,0,0,,,,,,,,,,,,,,,,,,,,,
577282,1745294810800,0.0996,0.0,90,,-0.05,-0.0,0.89,0,-0,0,0.89,1.33,67,2767,0.0,3.4,,12.68,1.011,98.8,,28.1,5,,,,,,,,,,,,0,0,0,0,0,0,0,0,0,0,0,0,0,0,0,0,,,,,,0.0,,,,,,,,,,,,,,,
577302,1745294810820,0.1,,,,,,,,,,,,,,,,,,,,,,,0,0,0,0,0.0,0.0,0.0,0.0,2.26,,,0,0,0,0,0,0,0,0,0,0,0,0,0,0,0,0,,0,,,,,38.985775,-76.950218,0.11,48.3,31,3,0.9,0,0.0,-1,0.0,,0,0.0,0.1
577322,1745294810840,0.1003,0.0,96,,-0.05,0.01,0.89,-0,-0,0,0.89,1.33,67,2643,0.0,3.46,,12.68,1.011,98.8,,28.1,5,,,,,,,,,,,,0,0,0,0,0,0,0,0,0,0,0,0,0,0,0,0,,,,,,0.0,,,,,,,,,,,,,,,
577342,1745294810860,0.1006,,,,,,,,,,,,,,,,,,,,,,,,,,,,,,,,,,0,0,0,0,0,0,0,0,0,0,0,0,0,0,0,0,,,,,,,,,,,,,,,,,,,,,
577362,1745294810880,0.101,0.0,85,,-0.05,0.0,0.9,0,-0,0,0.9,1.33,68,2643,0.0,3.46,,12.79,1.01,98.8,,25.8,5,,,,,,,,,,,,0,0,0,0,0,0,0,0,0,0,0,0,0,0,0,0,,,,,,0.0,,,,,,,,,,,,,,,
577382,1745294810900,0.1013,,,,,,,,,,,,,,,,,,,,,,,,,,,,,,,,,,0,0,0,0,0,0,0,0,0,0,0,0,0,0,0,0,,,,,,,,,,,,,,,,,,,,,
577402,1745294810920,0.1016,0.0,90,13.71,-0.06,-0.01,0.93,0,-0,0,0.93,1.33,70,2532,0.0,3.51,15,12.93,0.999,98.8,185,25.8,5,0,0,0,0,0.0,0.0,0.0,0.0,2.26,0,1.0,0,0,0,0,0,0,0,0,0,0,0,0,0,0,0,0,0,0,1.0,0,0,0.0,38.985775,-76.950218,0.04,48.3,31,3,0.9,0,0.0,-1,0.0,0.0,0,0.0,0.1016
577422,1745294810940,0.102,,,,,,,,,,,,,,,,,,,,,,,,,,,,,,,,,,0,0,0,0,0,0,0,0,0,0,0,0,0,0,0,0,,,,,,,,,,,,,,,,,,,,,
577442,1745294810960,0.1023,0.0,87,,-0.05,-0.02,0.92,0,-0,0,0.93,1.33,70,2435,0.0,3.58,,13.05,1.011,98.8,,25.8,5,,,,,,,,,,,,0,0,0,0,0,0,0,0,0,0,0,0,0,0,0,0,,,,,,0.0,,,,,,,,,,,,,,,
577462,1745294810980,0.1026,,,,,,,,,,,,,,,,,,,,,,,,,,,,,,,,,,0,0,0,0,0,0,0,0,0,0,0,0,0,0,0,0,,,,,,,,,,,,,,,,,,,,,
577482,1745294811000,0.103,0.0,82,,-0.07,0.01,0.92,-0,-0,0,0.93,1.33,70,2305,0.0,3.41,,13.16,1.046,98.8,,23.6,5,,,,,,,,,,,,0,0,0,0,0,0,0,0,0,0,0,0,0,0,0,0,,,,,,0.0,,,,,,,,,,,,,,,
577502,1745294811012,0.1033,,,,,,,,,,,,,,,,,,,,,,,0,0,0,0,0.0,0.0,0.0,0.0,2.26,,,0,0,0,0,0,0,0,0,0,0,0,0,0,0,0,0,,0,,,,,38.985775,-76.950218,0.33,48.3,31,3,0.9,0,0.0,-1,0.0,,0,0.0,0.1033
577522,1745294811032,0.1036,0.0,93,,-0.07,-0.02,0.92,-0,-0,0,0.92,1.33,70,2476,0.0,3.4,,13.16,1.046,98.8,,23.6,5,,,,,,,,,,,,0,0,0,0,0,0,0,0,0,0,0,0,0,0,0,0,,,,,,0.0,,,,,,,,,,,,,,,
577542,1745294811052,0.104,,,,,,,,,,,,,,,,,,,,,,,,,,,,,,,,,,0,0,0,0,0,0,0,0,0,0,0,0,0,0,0,0,,,,,,,,,,,,,,,,,,,,,
577562,1745294811072,0.1043,0.0,79,,-0.06,-0.02,0.94,0,-0,0,0.94,1.33,71,2476,0.0,3.4,,13.19,1.105,98.8,,25.6,5,,,,,,,,,,,,0,0,0,0,0,0,0,0,0,0,0,0,0,0,0,0,,,,,,0.0,,,,,,,,,,,,,,,
577582,1745294811092,0.1046,,,,,,,,,,,,,,,,,,,,,,,,,,,,,,,,,,0,0,0,0,0,0,0,0,0,0,0,0,0,0,0,0,,,,,,,,,,,,,,,,,,,,,
577602,1745294811118,0.105,0.0,85,,-0.07,-0.01,0.92,0,-0,0,0.92,1.33,69,2605,0.0,3.39,,13.13,1.143,98.8,,25.6,5,0,0,0,0,0.0,0.0,0.0,0.0,2.26,,,0,0,0,0,0,0,0,0,0,0,0,0,0,0,0,0,,0,,,,0.0,38.985775,-76.950218,0.26,48.3,31,3,0.9,0,0.0,-1,0.0,0.0,0,0.0,0.105
577622,1745294811138,0.1053,,,,,,,,,,,,,,,,,,,,,,,,,,,,,,,,,,0,0,0,0,0,0,0,0,0,0,0,0,0,0,0,0,,,,,,,,,,,,,,,,,,,,,
577642,1745294811158,0.1056,0.0,96,,-0.07,-0.02,0.93,0,-0,0,0.93,1.33,70,2511,0.0,3.4,,13.16,1.091,98.8,,25.6,5,,,,,,,,,,,,0,0,0,0,0,0,0,0,0,0,0,0,0,0,0,0,,,,,,0.0,,,,,,,,,,,,,,,
577662,1745294811178,0.106,,,,,,,,,,,,,,,,,,,,,,,,,,,,,,,,,,0,0,0,0,0,0,0,0,0,0,0,0,0,0,0,0,,,,,,,,,,,,,,,,,,,,,
577682,1745294811202,0.1063,0.0,79,,-0.08,-0.01,0.96,0,-0,0,0.96,1.33,72,2428,0.0,3.41,,13.21,1.037,98.8,,24.7,5,,,,,,,,,,,,0,0,0,0,0,0,0,0,0,0,0,0,0,0,0,0,,,,,,0.0,,,,,,,,,,,,,,,
577702,1745294811222,0.1066,,,,,,,,,,,,,,,,,,,,,,,0,0,0,0,0.0,0.0,0.0,0.0,2.25,,,0,0,0,0,0,0,0,0,0,0,0,0,0,0,0,0,,0,,,,,38.985775,-76.950218,0.05,48.4,31,3,0.9,0,0.0,-1,0.0,,0,0.0,0.1066
577722,1745294811242,0.107,0.0,79,,-0.08,-0.02,0.97,0,-0,0,0.97,1.33,73,2311,0.0,3.42,,13.21,1.037,98.8,,24.7,5,,,,,,,,,,,,0,0,0,0,0,0,0,0,0,0,0,0,0,0,0,0,,,,,,0.0,,,,,,,,,,,,,,,
577742,1745294811262,0.1073,,,,,,,,,,,,,,,,,,,,,,,,,,,,,,,,,,0,0,0,0,0,0,0,0,0,0,0,0,0,0,0,0,,,,,,,,,,,,,,,,,,,,,
577762,1745294811282,0.1076,0.0,82,,-0.07,-0.01,0.98,-0,-0,0,0.98,1.33,74,2311,0.0,3.42,,13.33,0.993,98.8,,22.1,5,,,,,,,,,,,,0,0,0,0,0,0,0,0,0,0,0,0,0,0,0,0,,,,,,0.0,,,,,,,,,,,,,,,
577782,1745294811302,0.108,,,,,,,,,,,,,,,,,,,,,,,,,,,,,,,,,,0,0,0,0,0,0,0,0,0,0,0,0,0,0,0,0,,,,,,,,,,,,,,,,,,,,,
577802,1745294811320,0.1083,0.0,82,,-0.07,-0.02,0.99,0,-0,0,0.99,1.33,75,2187,0.0,3.45,,13.37,0.989,98.8,,22.1,5,0,0,0,0,0.0,0.0,0.0,0.0,2.26,,,0,0,0,0,0,0,0,0,0,0,0,0,0,0,0,0,,0,,,,0.0,38.985775,-76.950218,0.45,48.4,31,3,0.9,0,0.0,-1,0.0,0.0,0,0.0,0.1083
577822,1745294811340,0.1086,,,,,,,,,,,,,,,,,,,,,,,,,,,,,,,,,,0,0,0,0,0,0,0,0,0,0,0,0,0,0,0,0,,,,,,,,,,,,,,,,,,,,,
577842,1745294811360,0.109,0.0,90,,-0.07,-0.02,0.98,0,-0,0,0.98,1.33,74,2424,0.0,3.42,,13.35,1.046,98.8,,22.1,5,,,,,,,,,,,,0,0,0,0,0,0,0,0,0,0,0,0,0,0,0,0,,,,,,0.0,,,,,,,,,,,,,,,
577862,1745294811380,0.1093,,,,,,,,,,,,,,,,,,,,,,,,,,,,,,,,,,0,0,0,0,0,0,0,0,0,0,0,0,0,0,0,0,,,,,,,,,,,,,,,,,,,,,
577882,1745294811401,0.1096,0.0,85,,-0.08,-0.03,0.97,0,-0,0,0.98,1.33,73,2535,0.0,3.4,,13.28,1.116,98.8,,24.9,5,,,,,,,,,,,,0,0,0,0,0,0,0,0,0,0,0,0,0,0,0,0,,,,,,0.0,,,,,,,,,,,,,,,
577902,1745294811421,0.11,,,,,,,,,,,,,,,,,,,,,,,0,0,0,0,0.0,0.0,0.0,0.0,2.26,,,0,0,0,0,0,0,0,0,0,0,0,0,0,0,0,0,,0,,,,,38.985775,-76.950218,0.51,48.4,31,3,0.9,0,0.0,-1,0.0,,0,0.0,0.11
577922,1745294811441,0.1103,0.0,85,,-0.07,-0.02,0.98,-0,-0,0,0.98,1.33,74,2486,0.0,3.41,,13.28,1.116,98.8,,24.9,5,,,,,,,,,,,,0,0,0,0,0,0,0,0,0,0,0,0,0,0,0,0,,,,,,0.0,,,,,,,,,,,,,,,
577942,1745294811461,0.1106,,,,,,,,,,,,,,,,,,,,,,,,,,,,,,,,,,0,0,0,0,0,0,0,0,0,0,0,0,0,0,0,0,,,,,,,,,,,,,,,,,,,,,
577962,1745294811481,0.111,0.0,76,,-0.07,-0.01,0.98,-0,-0,0,0.98,1.33,74,2486,0.0,3.41,,13.27,1.099,98.8,,24.1,5,,,,,,,,,,,,0,0,0,0,0,0,0,0,0,0,0,0,0,0,0,0,,,,,,0.0,,,,,,,,,,,,,,,
577982,1745294811501,0.1113,,,,,,,,,,,,,,,,,,,,,,,,,,,,,,,,,,0,0,0,0,0,0,0,0,0,0,0,0,0,0,0,0,,,,,,,,,,,,,,,,,,,,,
578002,1745294811519,0.1116,0.0,87,,-0.08,-0.0,0.97,-0,-0,0,0.97,1.33,73,2426,0.0,3.41,,13.29,1.04,98.8,,24.1,5,0,0,0,0,0.0,0.0,0.0,0.0,2.26,,,0,0,0,0,0,0,0,0,0,0,0,0,0,0,0,0,,0,,,,0.0,38.985775,-76.950218,0.15,48.4,31,3,0.9,0,0.0,-1,0.0,0.0,0,0.0,0.1116
578022,1745294811539,0.112,,,,,,,,,,,,,,,,,,,,,,,,,,,,,,,,,,0,0,0,0,0,0,0,0,0,0,0,0,0,0,0,0,,,,,,,,,,,,,,,,,,,,,
578042,1745294811559,0.1123,0.0,93,,-0.07,0.0,0.98,-0,-0,0,0.98,1.33,74,2336,0.0,3.43,,13.36,1.01,98.8,,24.1,5,,,,,,,,,,,,0,0,0,0,0,0,0,0,0,0,0,0,0,0,0,0,,,,,,0.0,,,,,,,,,,,,,,,
578062,1745294811579,0.1126,,,,,,,,,,,,,,,,,,,,,,,,,,,,,,,,,,0,0,0,0,0,0,0,0,0,0,0,0,0,0,0,0,,,,,,,,,,,,,,,,,,,,,
578082,1745294811601,0.113,0.0,87,,-0.07,0.01,0.99,-0,-0,0,0.99,1.33,75,2268,0.0,3.45,,13.39,1.009,98.8,,22.4,5,,,,,,,,,,,,0,0,0,0,0,0,0,0,0,0,0,0,0,0,0,0,,,,,,0.0,,,,,,,,,,,,,,,
578102,1745294811621,0.1133,,,,,,,,,,,,,,,,,,,,,,,0,0,0,0,0.0,0.0,0.0,0.0,2.26,,,0,0,0,0,0,0,0,0,0,0,0,0,0,0,0,0,,0,,,,,38.985775,-76.950218,0.08,48.4,31,3,0.9,0,0.0,-1,0.0,,0,0.0,0.1133
578122,1745294811641,0.1136,0.0,85,,-0.09,0.01,1.0,-0,-0,0,1.0,1.33,75,2170,0.0,3.46,,13.39,1.009,98.8,,22.4,5,,,,,,,,,,,,0,0,0,0,0,0,0,0,0,0,0,0,0,0,0,0,,,,,,0.0,,,,,,,,,,,,,,,
578142,1745294811661,0.114,,,,,,,,,,,,,,,,,,,,,,,,,,,,,,,,,,0,0,0,0,0,0,0,0,0,0,0,0,0,0,0,0,,,,,,,,,,,,,,,,,,,,,
578162,1745294811681,0.1143,0.0,73,,-0.1,0.02,1.0,-0,-0,0,1.01,1.33,76,2170,0.0,3.46,,13.48,1.036,98.8,,20.7,5,,,,,,,,,,,,0,0,0,0,0,0,0,0,0,0,0,0,0,0,0,0,,,,,,0.0,,,,,,,,,,,,,,,
578182,1745294811701,0.1146,,,,,,,,,,,,,,,,,,,,,,,,,,,,,,,,,,0,0,0,0,0,0,0,0,0,0,0,0,0,0,0,0,,,,,,,,,,,,,,,,,,,,,
578202,1745294811721,0.115,0.0,87,,-0.09,0.01,1.0,-0,-0,0,1.01,1.33,76,2058,0.0,3.47,,13.6,1.06,98.8,,20.7,5,0,0,0,0,0.0,0.0,0.0,0.0,2.25,,,0,0,0,0,0,0,0,0,0,0,0,0,0,0,0,0,,0,,,,0.0,38.985775,-76.950218,0.07,48.4,31,3,0.9,0,0.0,-1,0.0,0.0,0,0.0,0.115
578222,1745294811741,0.1153,,,,,,,,,,,,,,,,,,,,,,,,,,,,,,,,,,0,0,0,0,0,0,0,0,0,0,0,0,0,0,0,0,,,,,,,,,,,,,,,,,,,,,
578242,1745294811761,0.1156,0.0,90,,-0.07,-0.01,0.99,0,-0,0,1.0,1.33,75,2293,0.0,3.44,,13.49,1.096,98.8,,20.7,5,,,,,,,,,,,,0,0,0,0,0,0,0,0,0,0,0,0,0,0,0,0,,,,,,0.0,,,,,,,,,,,,,,,
578262,1745294811781,0.116,,,,,,,,,,,,,,,,,,,,,,,,,,,,,,,,,,0,0,0,0,0,0,0,0,0,0,0,0,0,0,0,0,,,,,,,,,,,,,,,,,,,,,
578282,1745294811801,0.1163,0.0,79,,-0.09,0.0,0.98,0,-0,0,0.99,1.33,74,2467,0.0,3.43,,13.45,1.162,98.8,,23.2,5,,,,,,,,,,,,0,0,0,0,0,0,0,0,0,0,0,0,0,0,0,0,,,,,,0.0,,,,,,,,,,,,,,,
578302,1745294811821,0.1166,,,,,,,,,,,,,,,,,,,,,,,0,0,0,0,0.0,0.0,0.0,0.0,2.26,,,0,0,0,0,0,0,0,0,0,0,0,0,0,0,0,0,,0,,,,,38.985775,-76.950218,0.0,48.4,31,3,0.9,0,0.0,-1,0.0,,0,0.0,0.1166
578322,1745294811841,0.117,0.0,82,,-0.08,-0.02,0.97,0,-0,0,0.98,1.33,74,2495,0.0,3.41,,13.45,1.162,98.8,,23.2,5,,,,,,,,,,,,0,0,0,0,0,0,0,0,0,0,0,0,0,0,0,0,,,,,,0.0,,,,,,,,,,,,,,,
578342,1745294811861,0.1173,,,,,,,,,,,,,,,,,,,,,,,,,,,,,,,,,,0,0,0,0,0,0,0,0,0,0,0,0,0,0,0,0,,,,,,,,,,,,,,,,,,,,,
578362,1745294811881,0.1176,0.0,70,,-0.08,-0.01,1.0,0,-0,0,1.0,1.33,75,2495,0.0,3.41,,13.35,1.149,98.8,,23.9,5,,,,,,,,,,,,0,0,0,0,0,0,0,0,0,0,0,0,0,0,0,0,,,,,,0.0,,,,,,,,,,,,,,,
578382,1745294811901,0.118,,,,,,,,,,,,,,,,,,,,,,,,,,,,,,,,,,0,0,0,0,0,0,0,0,0,0,0,0,0,0,0,0,,,,,,,,,,,,,,,,,,,,,
578402,1745294811921,0.1183,0.0,85,13.7,-0.08,-0.02,1.0,0,-0,0,1.01,1.33,76,2453,0.0,3.43,15,13.33,1.093,98.8,185,23.9,5,0,0,0,0,0.0,0.0,0.0,0.0,2.26,0,1.0,0,0,0,0,0,0,0,0,0,0,0,0,0,0,0,0,0,0,1.0,0,0,0.0,38.985775,-76.950218,0.05,48.4,31,3,0.9,0,0.0,-1,0.0,0.0,0,0.0,0.1183
578422,1745294811941,0.1186,,,,,,,,,,,,,,,,,,,,,,,,,,,,,,,,,,0,0,0,0,0,0,0,0,0,0,0,0,0,0,0,0,,,,,,,,,,,,,,,,,,,,,
578442,1745294811961,0.119,0.0,87,,-0.08,-0.01,0.99,0,-0,0,1.0,1.33,75,2440,0.0,3.42,,13.35,1.055,98.8,,23.9,5,,,,,,,,,,,,0,0,0,0,0,0,0,0,0,0,0,0,0,0,0,0,,,,,,0.0,,,,,,,,,,,,,,,
578462,1745294811981,0.1193,,,,,,,,,,,,,,,,,,,,,,,,,,,,,,,,,,0,0,0,0,0,0,0,0,0,0,0,0,0,0,0,0,,,,,,,,,,,,,,,,,,,,,
578482,1745294812001,0.1196,0.0,82,,-0.09,0.0,1.01,-0,-0,0,1.01,1.33,76,2370,0.0,3.43,,13.36,1.036,98.8,,23.7,5,,,,,,,,,,,,0,0,0,0,0,0,0,0,0,0,0,0,0,0,0,0,,,,,,0.0,,,,,,,,,,,,,,,
